city,state,latitude,longitude,temp,humidity,rain,pressure,uv_index,wind_gusts,aqi,pm10,pm2_5,no2,co,o3,so2,mosquito_risk,arthritis_risk,migraine_risk,frizz_risk,updated_at
Delhi,Delhi,28.6139,77.209,25.3,95,0.0,973.9,7.7,41.8,118,85.7,77.8,73.0,600.0,0.0,34.6,7,5,7,1,2026-07-10T03:54:23.641472+05:30
Mumbai,Maharashtra,19.076,72.8777,27.2,89,0.0,1006.3,5.35,50.8,59,39.6,15.3,4.0,102.0,41.0,3.9,7,5,0,1,2026-07-10T03:54:23.641514+05:30
Bangalore,Karnataka,12.9716,77.5946,20.8,92,0.0,911.0,8.2,45.7,31,11.5,7.6,9.7,144.0,32.0,4.4,3,5,7,1,2026-07-10T03:54:23.641529+05:30
Hyderabad,Telangana,17.385,78.4867,25.6,76,0.0,950.9,8.15,44.3,53,25.3,15.9,8.0,148.0,40.0,4.9,7,5,7,1,2026-07-10T03:54:23.641538+05:30
Chennai,Tamil Nadu,13.0827,80.2707,28.4,87,0.0,1005.4,6.7,37.1,62,22.2,16.6,14.0,226.0,66.0,11.5,7,5,4,1,2026-07-10T03:54:23.641546+05:30
Kolkata,West Bengal,22.5726,88.3639,27.0,97,0.3,999.4,4.05,31.0,64,22.6,19.7,8.8,245.0,67.0,7.5,10,5,3,1,2026-07-10T03:54:23.641558+05:30
Pune,Maharashtra,18.5204,73.8567,23.7,89,0.0,945.8,7.4,50.4,29,4.3,2.3,4.4,102.0,35.0,4.4,3,5,7,1,2026-07-10T03:54:23.641565+05:30
Ahmedabad,Gujarat,23.0225,72.5714,27.3,85,0.0,997.8,8.15,42.8,78,34.7,18.6,6.9,115.0,34.0,4.6,7,5,7,1,2026-07-10T03:54:23.641572+05:30
Jaipur,Rajasthan,26.9124,75.7873,27.0,80,0.0,952.3,8.2,39.6,143,81.3,38.0,9.2,186.0,55.0,4.5,7,5,7,1,2026-07-10T03:54:23.641578+05:30
Lucknow,Uttar Pradesh,26.8467,80.9462,26.9,94,0.0,985.8,6.35,34.9,76,32.4,24.9,15.1,280.0,61.0,4.9,7,5,7,1,2026-07-10T03:54:23.641586+05:30
Kanpur,Uttar Pradesh,26.4499,80.3319,26.9,95,0.1,984.0,8.15,34.6,64,44.8,32.4,16.7,178.0,52.0,6.7,10,5,7,1,2026-07-10T03:54:23.641593+05:30
Chandigarh,Chandigarh,30.7333,76.7794,24.2,95,1.3,961.0,2.1,20.9,153,70.3,70.3,64.7,470.0,1.0,7.7,6,5,3,1,2026-07-10T03:54:23.641599+05:30
Srinagar,Jammu and Kashmir,34.0837,74.7973,19.5,92,0.0,835.8,9.05,20.2,85,38.0,37.1,22.7,605.0,20.0,1.1,3,10,7,1,2026-07-10T03:54:23.641606+05:30
Jammu,Jammu and Kashmir,32.7266,74.857,25.8,91,0.1,965.7,8.55,29.5,157,81.5,72.4,53.1,484.0,17.0,6.1,10,5,7,1,2026-07-10T03:54:23.641612+05:30
Amritsar,Punjab,31.634,74.8723,26.1,83,0.0,972.7,8.4,21.2,158,114.8,81.3,19.6,580.0,70.0,13.5,7,5,7,1,2026-07-10T03:54:23.641619+05:30
Ludhiana,Punjab,30.901,75.8573,25.5,87,0.0,970.9,7.9,18.0,158,153.2,98.3,35.0,426.0,43.0,10.7,7,5,7,1,2026-07-10T03:54:23.641624+05:30
Jalandhar,Punjab,31.326,75.5762,25.5,91,0.0,971.9,8.15,18.7,158,135.0,101.7,30.5,551.0,45.0,14.8,7,5,7,1,2026-07-10T03:54:23.641630+05:30
Dehradun,Uttarakhand,30.6284,78.0322,17.6,98,0.1,824.1,1.65,25.2,70,18.3,18.3,28.5,180.0,37.0,1.3,6,10,3,1,2026-07-10T03:54:23.641637+05:30
Shimla,Himachal Pradesh,31.1048,77.1734,14.5,99,0.6,778.7,2.95,16.6,59,20.1,19.9,20.6,346.0,48.0,1.4,6,10,3,0,2026-07-10T03:54:23.641643+05:30
Manali,Himachal Pradesh,32.2396,77.1887,20.2,78,0.2,814.2,8.75,31.0,36,2.6,2.6,74.1,258.0,2.0,0.2,6,5,7,1,2026-07-10T03:54:23.641653+05:30
Gurgaon,Haryana,28.4595,77.0266,25.6,93,0.0,972.7,7.7,43.2,148,117.6,76.8,76.4,444.0,2.0,34.7,7,5,7,1,2026-07-10T03:54:23.641659+05:30
Noida,Uttar Pradesh,28.5355,77.391,25.7,94,0.0,975.2,7.7,41.0,148,117.6,76.8,76.4,696.0,2.0,34.7,7,5,7,1,2026-07-10T03:54:23.641665+05:30
Ghaziabad,Uttar Pradesh,28.6692,77.4538,25.6,95,0.0,973.2,7.7,41.8,92,78.0,78.0,60.2,347.0,0.0,12.7,7,5,7,1,2026-07-10T03:54:23.641671+05:30
Faridabad,Haryana,28.4089,77.3178,25.7,93,0.0,974.6,7.7,45.4,148,117.6,76.8,76.4,640.0,2.0,34.7,7,5,7,1,2026-07-10T03:54:23.641677+05:30
Meerut,Uttar Pradesh,28.9845,77.7064,25.7,99,1.7,971.1,6.9,36.0,92,78.0,78.0,60.2,299.0,0.0,12.7,10,5,7,1,2026-07-10T03:54:23.641684+05:30
Agra,Uttar Pradesh,27.1767,78.0081,28.7,76,0.0,979.1,8.05,50.8,129,238.4,64.3,25.0,301.0,48.0,10.6,7,5,7,1,2026-07-10T03:54:23.641690+05:30
Varanasi,Uttar Pradesh,25.3176,82.9739,26.9,93,0.0,990.5,7.4,39.6,77,21.5,15.7,8.9,219.0,70.0,5.1,7,5,7,1,2026-07-10T03:54:23.641696+05:30
Prayagraj,Uttar Pradesh,25.4358,81.8463,27.3,91,0.0,989.0,8.25,33.5,75,28.3,21.1,10.7,194.0,68.0,4.5,7,5,7,1,2026-07-10T03:54:23.641703+05:30
Gorakhpur,Uttar Pradesh,26.7606,83.3732,26.4,97,0.1,990.1,6.85,27.4,89,24.9,24.6,10.5,320.0,86.0,5.8,10,5,7,1,2026-07-10T03:54:23.641709+05:30
Bareilly,Uttar Pradesh,28.367,79.4304,26.0,98,0.3,978.4,7.05,33.5,71,30.0,27.0,12.4,392.0,72.0,5.3,10,5,7,1,2026-07-10T03:54:23.641720+05:30
Aligarh,Uttar Pradesh,27.8974,78.088,26.3,89,0.0,976.6,7.85,52.6,100,88.9,61.9,45.4,537.0,15.0,13.7,7,5,7,1,2026-07-10T03:54:23.641727+05:30
Moradabad,Uttar Pradesh,28.8386,78.7733,25.7,96,0.1,974.7,7.7,38.2,71,23.7,22.6,15.6,364.0,67.0,5.2,10,5,7,1,2026-07-10T03:54:23.641733+05:30
Saharanpur,Uttar Pradesh,29.9637,77.546,24.8,96,0.3,967.6,0.65,30.6,98,31.5,31.3,29.0,268.0,43.0,5.9,6,5,3,1,2026-07-10T03:54:23.641739+05:30
Jhansi,Uttar Pradesh,25.4484,78.5685,28.7,70,0.0,970.5,8.45,45.4,90,83.4,44.0,8.2,155.0,65.0,10.2,7,5,7,1,2026-07-10T03:54:27.021121+05:30
Surat,Gujarat,21.1702,72.8311,27.8,86,0.0,1003.1,5.65,55.4,68,27.8,16.6,18.3,267.0,25.0,31.2,7,5,0,1,2026-07-10T03:54:27.021154+05:30
Vadodara,Gujarat,22.3072,73.1812,27.3,87,0.0,1000.3,7.5,48.6,70,27.2,13.6,6.7,121.0,34.0,4.1,7,5,4,1,2026-07-10T03:54:27.021164+05:30
Rajkot,Gujarat,22.3039,70.8022,26.6,90,0.0,989.7,7.35,53.3,65,26.7,12.5,4.1,93.0,36.0,3.6,7,5,7,1,2026-07-10T03:54:27.021173+05:30
Thane,Maharashtra,19.2183,72.9781,25.9,94,0.0,1005.6,5.15,43.2,59,39.6,15.3,4.0,117.0,41.0,3.9,7,5,0,1,2026-07-10T03:54:27.021181+05:30
Nagpur,Maharashtra,21.1458,79.0882,26.6,83,0.0,969.0,6.7,42.5,70,40.0,24.3,12.0,189.0,41.0,9.9,7,5,7,1,2026-07-10T03:54:27.021189+05:30
Nashik,Maharashtra,19.9975,73.7898,23.6,96,0.0,942.3,8.05,56.2,35,7.8,4.1,5.9,91.0,33.0,4.4,3,5,7,1,2026-07-10T03:54:27.021197+05:30
Aurangabad,Maharashtra,19.8762,75.3433,23.7,88,0.0,941.3,8.8,53.6,49,11.9,6.1,7.6,138.0,32.0,9.9,3,5,7,1,2026-07-10T03:54:27.021204+05:30
Solapur,Maharashtra,17.6599,75.9064,23.9,84,0.0,955.2,7.4,40.7,44,13.9,8.1,5.6,124.0,32.0,2.5,3,5,7,1,2026-07-10T03:54:27.021212+05:30
Kolhapur,Maharashtra,16.705,74.2433,23.0,95,0.0,946.5,7.15,49.7,34,6.4,3.8,3.0,106.0,36.0,1.9,3,5,7,1,2026-07-10T03:54:27.021219+05:30
Goa,Goa,15.2993,74.124,24.7,99,0.0,997.7,8.4,37.1,59,36.4,20.7,4.7,250.0,33.0,1.3,3,5,7,1,2026-07-10T03:54:27.021226+05:30
Jodhpur,Rajasthan,26.2389,73.0243,29.5,69,0.0,975.8,8.45,47.5,166,339.9,82.4,3.9,109.0,57.0,2.9,7,5,7,1,2026-07-10T03:54:27.021234+05:30
Udaipur,Rajasthan,24.5854,73.7125,24.5,86,0.0,940.6,8.85,47.2,86,41.2,20.6,4.4,107.0,52.0,3.7,3,5,7,1,2026-07-10T03:54:27.021241+05:30
Kota,Rajasthan,25.2138,75.8648,28.4,74,0.0,972.1,8.3,38.5,97,57.2,33.1,7.7,163.0,67.0,7.1,7,5,7,1,2026-07-10T03:54:27.021248+05:30
Bikaner,Rajasthan,28.0229,73.3119,30.5,61,0.0,973.6,8.45,38.9,154,174.6,62.9,3.0,128.0,61.0,4.6,3,5,7,1,2026-07-10T03:54:27.021256+05:30
Ajmer,Rajasthan,26.4499,74.6399,27.4,73,0.0,947.9,8.4,51.5,104,45.8,26.5,5.6,117.0,65.0,3.8,7,5,7,1,2026-07-10T03:54:27.021264+05:30
Gwalior,Madhya Pradesh,26.2183,78.1828,27.8,75,0.0,975.2,8.2,45.0,78,68.2,34.3,5.4,131.0,71.0,4.4,7,5,7,1,2026-07-10T03:54:27.021271+05:30
Indore,Madhya Pradesh,22.7196,75.8577,24.6,89,0.0,943.7,8.55,52.9,78,32.5,17.4,8.5,141.0,36.0,10.2,3,5,7,1,2026-07-10T03:54:27.021278+05:30
Bhopal,Madhya Pradesh,23.2599,77.4126,25.7,84,0.0,948.9,8.05,49.0,79,53.2,32.8,7.9,183.0,58.0,7.0,7,5,7,1,2026-07-10T03:54:27.021285+05:30
Jabalpur,Madhya Pradesh,23.1815,79.9864,25.5,90,0.0,956.4,3.35,34.6,71,50.5,29.7,6.5,181.0,63.0,5.9,7,5,3,1,2026-07-10T03:54:27.021292+05:30
Ujjain,Madhya Pradesh,23.1765,75.7885,25.2,88,0.0,949.0,8.5,54.7,80,28.1,15.9,8.9,153.0,33.0,11.1,7,5,7,1,2026-07-10T03:54:27.021300+05:30
Visakhapatnam,Andhra Pradesh,17.6868,83.2185,27.8,83,0.0,1000.2,5.5,44.6,82,26.8,21.9,18.5,350.0,51.0,30.3,7,5,0,1,2026-07-10T03:54:27.021307+05:30
Vijayawada,Andhra Pradesh,16.5062,80.648,29.2,69,0.0,999.5,7.35,41.4,60,30.0,20.9,9.7,223.0,53.0,5.1,7,5,7,1,2026-07-10T03:54:27.021314+05:30
Guntur,Andhra Pradesh,16.3067,80.4365,29.4,65,0.0,1000.9,7.45,42.1,61,37.4,24.6,13.0,160.0,39.0,5.3,7,5,4,1,2026-07-10T03:54:27.021322+05:30
Nellore,Andhra Pradesh,14.4426,79.9865,27.9,84,0.0,1004.1,6.2,45.7,51,23.3,15.3,11.4,159.0,43.0,6.0,7,5,4,1,2026-07-10T03:54:27.021330+05:30
Kurnool,Andhra Pradesh,15.8281,78.0373,26.7,71,0.0,975.6,7.4,42.5,44,19.6,12.3,7.9,120.0,34.0,2.3,7,5,7,1,2026-07-10T03:54:27.021338+05:30
Kakinada,Andhra Pradesh,16.9891,82.2475,27.4,89,0.0,1004.7,7.35,43.9,65,25.4,17.3,4.2,157.0,94.0,4.1,7,5,4,1,2026-07-10T03:54:27.021346+05:30
Tirupati,Andhra Pradesh,13.6288,79.4192,27.3,83,0.0,989.9,7.85,42.8,45,25.3,19.0,19.2,190.0,20.0,2.6,7,5,7,1,2026-07-10T03:54:27.021353+05:30
Warangal,Telangana,17.9689,79.5941,26.9,79,0.0,975.2,8.45,37.4,65,32.6,21.1,11.7,208.0,41.0,4.6,7,5,7,1,2026-07-10T03:54:27.021360+05:30
Nizamabad,Telangana,18.6725,78.0941,26.7,72,0.0,962.2,7.9,39.2,65,23.2,14.8,8.6,146.0,38.0,6.8,7,5,7,1,2026-07-10T03:54:27.021367+05:30
Mysore,Karnataka,12.2958,76.6396,21.4,93,0.0,928.3,6.15,47.9,24,10.7,6.9,7.0,108.0,34.0,2.3,3,5,7,1,2026-07-10T03:54:27.021374+05:30
Mangalore,Karnataka,12.9141,74.856,24.4,95,0.1,1007.5,8.15,33.5,59,32.8,17.4,7.9,148.0,31.0,3.1,6,5,4,1,2026-07-10T03:54:27.021381+05:30
Hubli-Dharwad,Karnataka,15.3647,75.124,22.5,94,0.0,939.8,7.75,54.7,26,10.3,5.0,2.6,101.0,37.0,1.4,3,5,7,1,2026-07-10T03:54:27.021388+05:30
Belgaum,Karnataka,15.8497,74.4977,21.7,97,0.0,924.3,7.95,49.0,25,7.3,3.7,2.6,104.0,38.0,1.6,3,5,7,1,2026-07-10T03:54:30.421081+05:30
Coimbatore,Tamil Nadu,11.0168,76.9558,23.0,95,0.0,961.8,8.55,45.7,27,13.4,9.2,8.3,182.0,26.0,3.1,3,5,7,1,2026-07-10T03:54:30.421115+05:30
Madurai,Tamil Nadu,9.9252,78.1198,28.6,61,0.0,992.8,8.75,40.3,49,25.8,18.7,18.2,127.0,39.0,7.0,7,5,7,1,2026-07-10T03:54:30.421126+05:30
Trichy,Tamil Nadu,10.7905,78.7047,27.9,71,0.0,999.3,8.55,54.0,35,17.5,12.8,10.1,106.0,35.0,4.1,7,5,7,1,2026-07-10T03:54:30.421135+05:30
Salem,Tamil Nadu,11.6643,78.146,25.1,93,0.0,977.3,8.35,33.8,54,26.9,20.0,23.5,438.0,18.0,6.3,7,5,7,1,2026-07-10T03:54:30.421144+05:30
Tirunelveli,Tamil Nadu,8.7139,77.7567,28.6,65,0.0,1003.0,8.25,48.2,38,13.1,9.0,6.6,125.0,33.0,2.5,7,5,4,1,2026-07-10T03:54:30.421152+05:30
Vellore,Tamil Nadu,12.9165,79.1325,28.5,61,0.0,983.5,7.55,45.0,56,30.7,24.9,27.3,189.0,17.0,5.7,7,5,7,1,2026-07-10T03:54:30.421160+05:30
Erode,Tamil Nadu,11.341,77.7172,25.5,84,0.0,989.0,8.65,45.0,42,21.4,16.1,15.9,154.0,25.0,4.4,7,5,7,1,2026-07-10T03:54:30.421168+05:30
Kochi,Kerala,9.9312,76.2673,25.4,92,0.3,1010.4,8.15,32.8,54,17.4,12.6,11.0,78.0,22.0,3.0,10,0,4,1,2026-07-10T03:54:30.421176+05:30
Thiruvananthapuram,Kerala,8.5241,76.9366,24.6,91,0.0,1009.6,7.2,47.2,51,20.5,12.1,5.0,160.0,42.0,2.5,3,0,4,1,2026-07-10T03:54:30.421183+05:30
Kozhikode,Kerala,11.2588,75.7804,24.7,97,0.1,1009.3,7.45,38.9,48,22.1,10.3,1.7,125.0,50.0,1.0,6,0,4,1,2026-07-10T03:54:30.421191+05:30
Thrissur,Kerala,10.5276,76.2144,24.8,96,0.1,1008.6,7.95,34.6,53,19.7,13.7,8.4,107.0,28.0,3.1,6,0,4,1,2026-07-10T03:54:30.421199+05:30
Kannur,Kerala,11.8745,75.3704,24.8,98,0.1,1008.4,8.05,33.1,52,25.2,13.0,6.0,132.0,33.0,1.9,6,0,4,1,2026-07-10T03:54:30.421206+05:30
Patna,Bihar,25.5941,85.1376,28.0,90,0.0,993.2,8.1,28.1,96,27.8,27.3,14.9,317.0,72.0,8.4,7,5,7,1,2026-07-10T03:54:30.421214+05:30
Gaya,Bihar,24.7914,85.0002,26.8,95,0.0,986.8,5.8,36.0,77,24.3,21.7,15.8,329.0,52.0,8.8,7,5,3,1,2026-07-10T03:54:30.421221+05:30
Muzaffarpur,Bihar,26.1209,85.3647,26.3,97,0.1,993.4,7.95,21.6,100,35.6,34.9,17.0,397.0,67.0,9.0,10,5,7,1,2026-07-10T03:54:30.421228+05:30
Bhagalpur,Bihar,25.2425,87.0117,26.7,97,0.1,994.4,7.95,23.0,101,49.2,48.5,21.1,343.0,43.0,22.0,10,5,7,1,2026-07-10T03:54:30.421234+05:30
Ranchi,Jharkhand,23.3441,85.3096,23.5,96,0.0,931.7,6.9,40.0,63,28.8,24.6,10.2,240.0,60.0,17.1,3,5,7,1,2026-07-10T03:54:30.421242+05:30
Jamshedpur,Jharkhand,22.8046,86.2029,26.7,91,0.0,985.0,7.45,37.8,74,33.8,27.5,16.9,310.0,58.0,23.5,7,5,7,1,2026-07-10T03:54:30.421249+05:30
Dhanbad,Jharkhand,23.7957,86.4304,26.3,97,0.0,973.3,7.35,36.7,113,45.1,42.8,41.1,214.0,42.0,94.4,7,5,7,1,2026-07-10T03:54:30.421257+05:30
Bokaro,Jharkhand,23.6693,86.1511,26.5,94,0.0,977.1,8.3,41.4,90,39.2,36.4,29.5,249.0,46.0,66.2,7,5,7,1,2026-07-10T03:54:30.421265+05:30
Bhubaneswar,Odisha,20.2961,85.8245,27.2,94,0.0,997.5,7.0,39.6,72,25.9,23.2,9.7,218.0,70.0,6.9,7,5,7,1,2026-07-10T03:54:30.421272+05:30
Cuttack,Odisha,20.4625,85.8828,27.0,96,0.4,999.2,6.55,41.8,72,25.9,23.2,9.7,240.0,70.0,6.9,10,5,7,1,2026-07-10T03:54:30.421279+05:30
Rourkela,Odisha,22.2604,84.8536,26.2,95,0.0,979.6,2.9,40.7,75,40.0,32.1,11.7,257.0,57.0,16.6,7,5,3,1,2026-07-10T03:54:30.421287+05:30
Raipur,Chhattisgarh,21.2514,81.6296,26.8,83,0.0,970.2,7.25,40.7,86,51.3,35.5,26.8,460.0,45.0,44.2,7,5,7,1,2026-07-10T03:54:30.421294+05:30
Bhilai,Chhattisgarh,21.1938,81.3509,26.5,84,0.0,970.6,7.5,45.4,86,49.4,34.2,22.9,572.0,46.0,37.2,7,5,7,1,2026-07-10T03:54:30.421301+05:30
Guwahati,Assam,26.1158,91.7086,25.6,98,0.0,995.8,5.55,18.4,53,17.6,17.0,9.7,331.0,42.0,3.0,7,5,3,1,2026-07-10T03:54:30.421307+05:30
Agartala,Tripura,23.8315,91.2868,25.1,99,0.1,1001.0,6.2,48.6,49,10.9,10.7,11.9,130.0,44.0,3.0,10,5,4,1,2026-07-10T03:54:30.421315+05:30
Shillong,Meghalaya,25.5788,91.8933,20.3,94,0.0,853.3,4.25,30.2,27,1.3,1.2,4.5,197.0,47.0,2.5,3,5,3,1,2026-07-10T03:54:30.421321+05:30
Imphal,Manipur,24.817,93.9368,22.7,92,0.1,919.1,7.4,31.0,37,14.0,12.8,9.2,271.0,26.0,2.0,6,5,7,1,2026-07-10T03:54:30.421328+05:30
Aizawl,Mizoram,23.7271,92.7176,19.2,98,0.0,888.4,2.1,51.5,21,0.7,0.7,2.5,112.0,46.0,0.9,3,10,3,1,2026-07-10T03:54:30.421334+05:30
Kohima,Nagaland,25.6701,94.1077,18.3,98,0.0,850.5,6.25,22.3,24,10.3,8.3,7.9,186.0,29.0,1.2,3,10,7,1,2026-07-10T03:54:30.421341+05:30
Gangtok,Sikkim,27.3314,88.6138,19.0,96,0.1,833.6,4.95,26.6,44,4.0,4.0,5.2,301.0,83.0,0.8,6,10,3,1,2026-07-10T03:54:30.421348+05:30
Siliguri,West Bengal,26.7271,88.3953,25.6,95,0.0,986.4,6.2,31.3,70,18.8,18.7,8.7,302.0,68.0,2.5,7,5,7,1,2026-07-10T03:54:33.820608+05:30
Durgapur,West Bengal,23.5204,87.3119,25.9,97,0.3,988.7,7.95,30.6,93,32.5,31.2,31.9,535.0,50.0,46.2,10,5,7,1,2026-07-10T03:54:33.820641+05:30
Asansol,West Bengal,23.6739,86.9524,26.6,96,0.0,987.0,8.0,34.2,90,31.2,29.6,31.5,627.0,52.0,47.3,7,5,7,1,2026-07-10T03:54:33.820653+05:30
Pondicherry,Puducherry,11.9139,79.8145,28.7,70,0.0,1007.2,8.0,34.6,65,19.2,13.5,14.8,197.0,47.0,12.2,7,5,4,1,2026-07-10T03:54:33.820662+05:30
Port Blair,Andaman and Nicobar Islands,11.6234,92.7265,27.2,83,0.0,1007.8,8.8,48.2,52,27.1,12.4,0.1,89.0,50.0,0.4,7,5,4,1,2026-07-10T03:54:33.820670+05:30
Haridwar,Uttarakhand,29.9457,78.1642,24.6,97,0.4,965.8,3.15,15.8,70,15.5,15.5,13.4,265.0,79.0,1.8,6,5,3,1,2026-07-10T03:54:33.820678+05:30
Rishikesh,Uttarakhand,30.0869,78.2676,24.6,95,0.3,958.7,4.15,14.8,47,10.2,10.2,5.7,298.0,86.0,0.3,6,5,3,1,2026-07-10T03:54:33.820685+05:30
Nainital,Uttarakhand,29.3919,79.4542,17.2,99,0.1,800.5,1.85,35.3,43,12.2,12.0,3.9,200.0,100.0,2.1,6,10,3,1,2026-07-10T03:54:33.820693+05:30
Mussoorie,Uttarakhand,30.4599,78.0664,16.2,95,0.1,797.1,1.5,28.8,69,17.9,17.8,14.5,180.0,75.0,3.0,6,10,3,0,2026-07-10T03:54:33.820701+05:30
Dharamshala,Himachal Pradesh,32.219,76.3234,20.9,100,0.0,863.3,8.4,32.8,77,31.9,30.0,9.0,397.0,72.0,0.4,3,5,7,1,2026-07-10T03:54:33.820709+05:30
Dalhousie,Himachal Pradesh,32.5387,75.971,16.7,91,0.0,799.3,8.6,22.0,150,70.3,65.2,21.4,580.0,64.0,2.5,3,10,7,0,2026-07-10T03:54:33.820717+05:30
Patiala,Punjab,30.3398,76.3869,25.5,91,0.0,970.2,7.6,19.4,155,86.8,76.4,39.1,374.0,26.0,7.7,7,5,7,1,2026-07-10T03:54:33.820724+05:30
Bhatinda,Punjab,30.211,74.9455,27.5,82,0.0,975.4,8.25,23.4,157,313.9,107.3,20.0,432.0,62.0,8.0,7,5,7,1,2026-07-10T03:54:33.820732+05:30
Rohtak,Haryana,28.8955,76.6066,25.4,93,0.0,973.3,7.65,26.3,138,147.1,71.7,69.7,511.0,5.0,35.1,7,5,7,1,2026-07-10T03:54:33.820739+05:30
Panipat,Haryana,29.3909,76.9635,25.1,96,0.2,971.9,5.95,24.8,151,135.0,73.6,50.1,329.0,5.0,12.5,10,5,3,1,2026-07-10T03:54:33.820746+05:30
Mathura,Uttar Pradesh,27.4924,77.6737,27.5,85,0.0,977.8,7.95,48.6,241,320.4,92.4,46.4,380.0,24.0,11.3,7,5,7,1,2026-07-10T03:54:33.820753+05:30
Vrindavan,Uttar Pradesh,27.5823,77.7027,27.4,85,0.0,978.2,7.9,48.2,241,320.4,92.4,46.4,397.0,24.0,11.3,7,5,7,1,2026-07-10T03:54:33.820761+05:30
Ayodhya,Uttar Pradesh,26.7922,82.1998,26.7,94,0.2,988.2,7.8,26.6,99,29.8,27.7,14.9,388.0,60.0,5.8,10,5,7,1,2026-07-10T03:54:33.820768+05:30
Ratlam,Madhya Pradesh,23.3315,75.0367,24.5,96,0.1,950.0,8.5,49.3,79,26.0,15.0,9.5,147.0,31.0,11.1,6,5,7,1,2026-07-10T03:54:33.820775+05:30
Sagar,Madhya Pradesh,23.8388,78.7378,26.2,77,0.0,944.7,5.75,48.2,74,61.2,34.2,6.1,189.0,69.0,5.2,7,5,3,1,2026-07-10T03:54:33.820782+05:30
Satna,Madhya Pradesh,24.6005,80.8322,25.6,94,0.0,965.0,7.85,38.5,57,52.7,31.9,6.3,181.0,65.0,4.2,7,5,7,1,2026-07-10T03:54:33.820790+05:30
Akola,Maharashtra,20.7002,77.0082,26.9,76,0.0,971.9,8.5,50.0,59,23.1,13.9,8.4,112.0,35.0,8.1,7,5,7,1,2026-07-10T03:54:33.820798+05:30
Amravati,Maharashtra,20.9374,77.7796,26.9,80,0.0,963.9,6.7,50.8,60,26.2,16.0,9.6,122.0,35.0,9.1,7,5,7,1,2026-07-10T03:54:33.820806+05:30
Latur,Maharashtra,18.4088,76.5604,23.4,86,0.0,937.5,8.55,44.3,50,18.1,9.8,5.7,130.0,34.0,2.9,3,5,7,1,2026-07-10T03:54:33.820813+05:30
Nanded,Maharashtra,19.1383,77.3091,26.5,75,0.0,966.2,8.0,40.0,59,23.2,13.2,6.1,122.0,38.0,3.9,7,5,7,1,2026-07-10T03:54:33.820820+05:30
Gulbarga,Karnataka,17.3297,76.8343,24.3,82,0.0,956.8,6.85,40.3,46,19.6,11.1,6.4,115.0,33.0,3.2,3,5,7,1,2026-07-10T03:54:33.820827+05:30
Bidar,Karnataka,17.9104,77.5199,24.1,81,0.0,933.1,6.25,41.0,52,21.9,14.1,6.9,123.0,36.0,2.7,3,5,7,1,2026-07-10T03:54:33.820834+05:30
Hospet,Karnataka,15.2689,76.3909,23.1,90,0.0,954.9,6.2,47.9,30,10.9,6.0,4.4,104.0,35.0,1.7,3,5,7,1,2026-07-10T03:54:33.820841+05:30
Tirupur,Tamil Nadu,11.1085,77.3411,24.1,90,0.0,975.4,8.85,48.2,46,23.3,18.6,20.6,152.0,16.0,5.4,3,5,7,1,2026-07-10T03:54:33.820847+05:30
Alappuzha,Kerala,9.4981,76.3388,25.4,93,0.0,1010.5,8.15,35.6,53,20.2,11.7,6.8,80.0,37.0,2.8,7,0,4,1,2026-07-10T03:54:33.820854+05:30
Munnar,Kerala,10.0889,77.0595,16.8,100,0.1,856.9,8.6,37.1,23,10.9,7.3,5.8,89.0,25.0,1.4,6,10,7,1,2026-07-10T03:54:33.820862+05:30
Silchar,Assam,24.8333,92.7789,25.9,95,0.1,1000.3,1.75,30.2,37,10.0,8.8,6.9,259.0,51.0,4.1,10,5,0,1,2026-07-10T03:54:33.820869+05:30
Dibrugarh,Assam,27.4728,94.912,26.2,97,0.0,989.5,3.25,24.5,59,26.5,25.7,11.8,202.0,51.0,2.5,7,5,3,1,2026-07-10T03:54:33.820876+05:30
