city,state,latitude,longitude,temp,humidity,rain,pressure,uv_index,wind_gusts,aqi,pm10,pm2_5,no2,co,o3,so2,mosquito_risk,arthritis_risk,migraine_risk,frizz_risk,updated_at
Delhi,Delhi,28.6139,77.209,23.0,81,0.0,985.2,7.05,41.0,163,103.6,56.0,41.8,696.0,94.0,31.9,3,5,7,1,2026-05-05T21:55:46.284232+05:30
Mumbai,Maharashtra,19.076,72.8777,28.7,76,0.0,1008.8,7.85,40.7,72,70.3,23.6,9.6,262.0,64.0,22.9,7,0,4,1,2026-05-05T21:55:46.284267+05:30
Bangalore,Karnataka,12.9716,77.5946,26.9,47,0.0,912.4,8.85,34.2,93,87.3,59.3,100.1,479.0,24.0,21.8,4,5,7,0,2026-05-05T21:55:46.284284+05:30
Hyderabad,Telangana,17.385,78.4867,29.8,46,0.0,953.5,9.25,38.2,110,56.7,39.2,39.5,334.0,70.0,14.4,4,5,7,1,2026-05-05T21:55:46.284294+05:30
Chennai,Tamil Nadu,13.0827,80.2707,29.1,82,0.0,1007.9,8.7,36.7,71,20.5,13.3,6.8,192.0,71.0,4.6,7,5,4,1,2026-05-05T21:55:46.284303+05:30
Kolkata,West Bengal,22.5726,88.3639,26.0,89,0.0,1008.2,8.65,45.7,79,25.7,23.7,15.5,458.0,48.0,9.4,7,0,4,1,2026-05-05T21:55:46.284311+05:30
Pune,Maharashtra,18.5204,73.8567,25.7,78,0.0,948.3,8.45,45.0,57,37.7,17.9,9.6,228.0,80.0,9.3,7,5,7,1,2026-05-05T21:55:46.284319+05:30
Ahmedabad,Gujarat,23.0225,72.5714,35.2,26,0.0,1001.2,8.1,29.9,76,146.2,58.6,40.8,329.0,58.0,15.1,0,5,7,0,2026-05-05T21:55:46.284331+05:30
Jaipur,Rajasthan,26.9124,75.7873,24.6,61,0.0,961.4,8.05,35.3,145,182.5,45.6,20.9,383.0,80.0,6.8,3,5,7,1,2026-05-05T21:55:46.284339+05:30
Lucknow,Uttar Pradesh,26.8467,80.9462,24.0,84,0.0,995.4,6.25,28.4,130,85.2,69.8,32.2,561.0,83.0,21.3,3,5,7,1,2026-05-05T21:55:46.284349+05:30
Kanpur,Uttar Pradesh,26.4499,80.3319,24.5,84,0.0,993.7,8.05,31.3,139,98.7,56.6,20.9,497.0,102.0,14.3,3,5,7,1,2026-05-05T21:55:46.284356+05:30
Chandigarh,Chandigarh,30.7333,76.7794,21.0,69,0.0,971.2,7.3,42.1,106,65.0,38.3,42.1,734.0,61.0,6.3,3,5,7,0,2026-05-05T21:55:46.284364+05:30
Srinagar,Jammu and Kashmir,34.0837,74.7973,11.5,84,0.0,842.0,8.7,25.2,74,28.2,24.9,27.5,1549.0,61.0,4.6,3,10,7,0,2026-05-05T21:55:46.284372+05:30
Jammu,Jammu and Kashmir,32.7266,74.857,22.1,52,0.0,974.3,8.3,30.2,111,43.0,23.3,23.3,387.0,78.0,3.6,0,5,7,0,2026-05-05T21:55:46.284380+05:30
Amritsar,Punjab,31.634,74.8723,24.3,56,0.0,982.9,8.2,45.0,129,62.4,30.7,6.0,537.0,125.0,7.2,0,5,7,0,2026-05-05T21:55:46.284387+05:30
Ludhiana,Punjab,30.901,75.8573,23.1,65,0.0,981.0,7.8,33.8,121,92.4,54.9,22.3,1046.0,90.0,18.8,3,5,7,1,2026-05-05T21:55:46.284394+05:30
Jalandhar,Punjab,31.326,75.5762,23.1,58,0.0,981.7,7.95,41.8,131,95.9,43.8,13.2,1174.0,107.0,12.8,0,5,7,0,2026-05-05T21:55:46.284400+05:30
Dehradun,Uttarakhand,30.6284,78.0322,9.1,97,0.0,828.1,7.35,35.3,98,77.8,23.2,25.4,208.0,93.0,1.8,3,10,7,0,2026-05-05T21:55:46.284409+05:30
Shimla,Himachal Pradesh,31.1048,77.1734,9.0,73,0.0,783.0,4.75,37.8,91,55.6,22.7,25.3,370.0,76.0,2.2,3,5,3,0,2026-05-05T21:55:46.284416+05:30
Manali,Himachal Pradesh,32.2396,77.1887,8.4,74,0.0,815.8,9.65,43.2,134,20.1,7.9,21.7,352.0,128.0,0.5,3,5,7,0,2026-05-05T21:55:46.284424+05:30
Gurgaon,Haryana,28.4595,77.0266,23.1,79,0.0,983.6,7.55,32.4,290,120.6,65.4,44.9,953.0,88.0,31.9,3,5,7,1,2026-05-05T21:55:46.284430+05:30
Noida,Uttar Pradesh,28.5355,77.391,21.5,82,0.0,986.5,7.25,40.7,290,120.6,65.4,44.9,897.0,88.0,31.9,3,5,7,1,2026-05-05T21:55:46.284437+05:30
Ghaziabad,Uttar Pradesh,28.6692,77.4538,21.8,81,0.0,984.8,6.95,47.5,125,123.4,43.9,18.0,444.0,102.0,12.9,3,5,7,1,2026-05-05T21:55:46.284444+05:30
Faridabad,Haryana,28.4089,77.3178,22.5,81,0.0,985.8,7.0,35.6,290,120.6,65.4,44.9,898.0,88.0,31.9,3,5,7,1,2026-05-05T21:55:46.284451+05:30
Meerut,Uttar Pradesh,28.9845,77.7064,21.8,83,0.0,983.8,4.2,50.0,125,123.4,43.9,18.0,479.0,102.0,12.9,3,5,3,1,2026-05-05T21:55:46.284458+05:30
Agra,Uttar Pradesh,27.1767,78.0081,24.6,76,0.0,989.8,7.9,35.6,285,244.9,69.2,18.0,629.0,91.0,17.6,3,5,7,1,2026-05-05T21:55:46.284464+05:30
Varanasi,Uttar Pradesh,25.3176,82.9739,25.6,76,0.0,999.1,8.4,33.8,168,61.2,47.4,11.7,952.0,119.0,14.9,7,5,7,1,2026-05-05T21:55:46.284472+05:30
Prayagraj,Uttar Pradesh,25.4358,81.8463,26.1,75,0.0,997.5,8.2,29.9,125,65.9,51.1,16.3,540.0,93.0,13.6,7,5,7,1,2026-05-05T21:55:46.284482+05:30
Gorakhpur,Uttar Pradesh,26.7606,83.3732,23.9,82,0.0,998.9,7.8,22.7,124,44.7,39.7,22.6,633.0,74.0,10.3,3,5,7,1,2026-05-05T21:55:46.284489+05:30
Bareilly,Uttar Pradesh,28.367,79.4304,22.2,73,0.0,988.6,7.5,37.8,123,80.3,62.6,32.5,402.0,81.0,15.7,3,5,7,1,2026-05-05T21:55:46.284496+05:30
Aligarh,Uttar Pradesh,27.8974,78.088,24.0,74,0.0,987.8,7.15,41.8,173,238.4,59.0,16.0,471.0,93.0,15.2,3,5,7,1,2026-05-05T21:55:46.284505+05:30
Moradabad,Uttar Pradesh,28.8386,78.7733,21.2,82,0.0,985.7,6.4,46.4,133,70.3,53.2,23.5,541.0,103.0,20.0,3,5,7,1,2026-05-05T21:55:46.284512+05:30
Saharanpur,Uttar Pradesh,29.9637,77.546,21.2,78,0.0,978.0,6.85,45.7,110,52.4,28.8,11.4,787.0,113.0,8.3,3,5,7,1,2026-05-05T21:55:46.284519+05:30
Jhansi,Uttar Pradesh,25.4484,78.5685,26.9,52,0.0,979.5,7.9,34.6,127,94.3,36.7,3.7,344.0,115.0,7.0,4,5,7,1,2026-05-05T21:55:49.534924+05:30
Surat,Gujarat,21.1702,72.8311,28.5,79,0.0,1006.5,7.7,41.4,80,48.7,26.4,28.4,302.0,47.0,43.0,7,5,4,1,2026-05-05T21:55:49.534954+05:30
Vadodara,Gujarat,22.3072,73.1812,30.8,62,0.0,1003.2,8.05,36.7,73,49.4,29.4,21.9,555.0,67.0,19.2,3,5,4,1,2026-05-05T21:55:49.534967+05:30
Rajkot,Gujarat,22.3039,70.8022,28.8,71,0.0,993.4,7.7,43.6,87,50.8,19.3,6.3,177.0,85.0,7.1,7,5,7,1,2026-05-05T21:55:49.534975+05:30
Thane,Maharashtra,19.2183,72.9781,28.6,74,0.0,1008.2,7.85,38.2,72,70.3,23.6,9.6,233.0,64.0,22.9,7,0,4,1,2026-05-05T21:55:49.534982+05:30
Nagpur,Maharashtra,21.1458,79.0882,33.9,22,0.0,972.8,8.9,33.1,108,50.5,29.3,18.0,284.0,82.0,14.2,0,5,7,0,2026-05-05T21:55:49.534989+05:30
Nashik,Maharashtra,19.9975,73.7898,26.5,72,0.0,946.1,8.2,40.0,62,40.2,17.3,6.3,189.0,66.0,1.1,7,5,7,1,2026-05-05T21:55:49.534995+05:30
Aurangabad,Maharashtra,19.8762,75.3433,31.6,24,0.0,943.9,9.0,38.2,67,46.0,20.2,6.9,180.0,90.0,3.9,0,5,7,0,2026-05-05T21:55:49.535002+05:30
Solapur,Maharashtra,17.6599,75.9064,33.2,16,0.0,955.6,9.1,35.6,67,56.6,24.6,17.2,307.0,67.0,4.2,0,5,7,0,2026-05-05T21:55:49.535009+05:30
Kolhapur,Maharashtra,16.705,74.2433,24.9,82,0.0,948.0,8.95,46.8,61,31.2,16.2,9.3,183.0,59.0,3.1,3,5,7,1,2026-05-05T21:55:49.535016+05:30
Goa,Goa,15.2993,74.124,29.5,75,0.0,998.2,8.9,35.6,67,38.3,18.3,4.3,176.0,56.0,1.5,7,5,7,1,2026-05-05T21:55:49.535023+05:30
Jodhpur,Rajasthan,26.2389,73.0243,32.7,27,0.0,983.7,8.3,47.5,108,247.7,46.8,23.0,337.0,85.0,6.6,0,5,7,0,2026-05-05T21:55:49.535029+05:30
Udaipur,Rajasthan,24.5854,73.7125,25.5,53,0.0,946.7,8.75,40.7,95,97.3,31.9,3.5,283.0,108.0,5.1,4,5,7,0,2026-05-05T21:55:49.535036+05:30
Kota,Rajasthan,25.2138,75.8648,28.3,47,0.0,979.7,8.3,28.8,107,75.9,32.1,10.5,376.0,84.0,5.4,4,5,7,0,2026-05-05T21:55:49.535042+05:30
Bikaner,Rajasthan,28.0229,73.3119,29.9,33,0.0,984.0,8.2,30.6,124,89.6,33.5,2.2,346.0,136.0,5.7,4,5,7,0,2026-05-05T21:55:49.535048+05:30
Ajmer,Rajasthan,26.4499,74.6399,27.2,35,0.0,955.9,8.2,37.4,98,77.3,30.0,12.8,283.0,90.0,5.6,4,5,7,0,2026-05-05T21:55:49.535054+05:30
Gwalior,Madhya Pradesh,26.2183,78.1828,24.2,75,0.0,985.0,8.1,42.8,112,182.5,49.9,6.7,472.0,109.0,6.2,3,5,7,1,2026-05-05T21:55:49.535060+05:30
Indore,Madhya Pradesh,22.7196,75.8577,29.5,33,0.0,948.9,8.6,44.3,81,31.2,18.6,8.2,265.0,95.0,5.0,4,5,7,0,2026-05-05T21:55:49.535066+05:30
Bhopal,Madhya Pradesh,23.2599,77.4126,28.6,41,0.0,954.0,8.65,37.8,82,40.7,18.6,4.6,255.0,102.0,3.8,4,5,7,0,2026-05-05T21:55:49.535072+05:30
Jabalpur,Madhya Pradesh,23.1815,79.9864,28.3,47,0.0,962.5,8.3,33.5,120,44.2,31.7,6.1,244.0,126.0,7.1,4,5,7,0,2026-05-05T21:55:49.535099+05:30
Ujjain,Madhya Pradesh,23.1765,75.7885,28.7,40,0.0,954.4,8.55,46.1,79,40.3,20.1,4.4,230.0,99.0,4.0,4,5,7,0,2026-05-05T21:55:49.535107+05:30
Visakhapatnam,Andhra Pradesh,17.6868,83.2185,26.9,87,0.0,1005.8,9.2,37.4,79,40.3,31.1,36.7,376.0,35.0,8.7,7,5,4,1,2026-05-05T21:55:49.535113+05:30
Vijayawada,Andhra Pradesh,16.5062,80.648,29.8,75,0.0,1003.4,9.2,35.3,77,26.5,22.5,8.7,214.0,68.0,7.3,7,5,4,1,2026-05-05T21:55:49.535119+05:30
Guntur,Andhra Pradesh,16.3067,80.4365,29.5,78,0.0,1004.5,9.2,37.8,81,33.8,28.3,7.8,211.0,80.0,7.7,7,5,4,1,2026-05-05T21:55:49.535125+05:30
Nellore,Andhra Pradesh,14.4426,79.9865,28.5,88,0.0,1006.6,9.0,39.6,80,22.8,16.6,5.1,199.0,78.0,5.7,7,5,4,1,2026-05-05T21:55:49.535132+05:30
Kurnool,Andhra Pradesh,15.8281,78.0373,30.9,45,0.0,976.2,9.2,45.0,122,48.9,29.1,12.8,240.0,101.0,7.3,0,5,7,1,2026-05-05T21:55:49.535138+05:30
Kakinada,Andhra Pradesh,16.9891,82.2475,27.8,89,0.0,1009.1,9.15,29.9,63,25.6,16.9,3.3,286.0,68.0,1.4,7,0,4,1,2026-05-05T21:55:49.535144+05:30
Tirupati,Andhra Pradesh,13.6288,79.4192,30.1,60,0.0,991.8,8.8,29.9,123,63.1,53.0,28.4,296.0,67.0,12.7,0,5,7,1,2026-05-05T21:55:49.535150+05:30
Warangal,Telangana,17.9689,79.5941,30.0,54,0.0,978.7,9.15,47.9,103,41.9,34.7,9.4,293.0,108.0,9.9,4,5,7,1,2026-05-05T21:55:49.535156+05:30
Nizamabad,Telangana,18.6725,78.0941,33.2,26,0.0,964.1,9.1,32.8,91,70.3,36.9,21.2,333.0,80.0,8.0,0,5,7,0,2026-05-05T21:55:49.535162+05:30
Mysore,Karnataka,12.2958,76.6396,24.4,73,0.0,928.8,9.35,29.5,80,51.9,34.1,44.8,235.0,60.0,7.6,3,5,7,1,2026-05-05T21:55:49.535168+05:30
Mangalore,Karnataka,12.9141,74.856,29.5,75,0.0,1006.9,8.85,48.2,64,33.4,15.7,3.1,161.0,58.0,1.3,7,5,4,1,2026-05-05T21:55:49.535174+05:30
Hubli-Dharwad,Karnataka,15.3647,75.124,25.8,76,0.0,940.6,9.2,52.9,59,23.1,13.6,7.6,197.0,63.0,2.4,7,5,7,1,2026-05-05T21:55:49.535180+05:30
Belgaum,Karnataka,15.8497,74.4977,23.6,88,0.0,926.0,9.2,55.1,60,29.2,15.7,9.6,187.0,48.0,2.4,3,5,7,1,2026-05-05T21:55:52.780517+05:30
Coimbatore,Tamil Nadu,11.0168,76.9558,24.1,97,0.0,962.3,9.0,39.2,63,32.5,22.1,15.9,284.0,67.0,5.5,3,5,7,1,2026-05-05T21:55:52.780545+05:30
Madurai,Tamil Nadu,9.9252,78.1198,27.0,89,0.0,993.6,5.7,50.8,110,43.8,29.8,14.6,317.0,94.0,5.6,7,5,3,1,2026-05-05T21:55:52.780555+05:30
Trichy,Tamil Nadu,10.7905,78.7047,27.4,76,0.0,1000.5,8.75,34.6,122,51.0,39.0,20.0,292.0,90.0,6.6,7,5,4,1,2026-05-05T21:55:52.780563+05:30
Salem,Tamil Nadu,11.6643,78.146,25.6,77,0.1,978.2,9.2,39.6,135,69.4,44.4,18.3,326.0,96.0,10.1,10,5,7,1,2026-05-05T21:55:52.780571+05:30
Tirunelveli,Tamil Nadu,8.7139,77.7567,29.0,68,0.0,1003.5,8.75,46.4,75,41.9,25.4,12.1,381.0,78.0,6.8,7,5,4,1,2026-05-05T21:55:52.780578+05:30
Vellore,Tamil Nadu,12.9165,79.1325,28.2,74,0.0,985.1,9.05,37.8,133,52.2,44.2,17.8,290.0,79.0,9.0,7,5,7,1,2026-05-05T21:55:52.780585+05:30
Erode,Tamil Nadu,11.341,77.7172,27.9,69,0.0,989.8,9.0,37.8,126,45.5,26.3,14.5,309.0,97.0,3.1,7,5,7,1,2026-05-05T21:55:52.780592+05:30
Kochi,Kerala,9.9312,76.2673,26.6,92,0.0,1009.4,2.85,27.0,58,42.6,31.9,35.4,323.0,25.0,7.2,7,0,0,1,2026-05-05T21:55:52.780599+05:30
Thiruvananthapuram,Kerala,8.5241,76.9366,25.7,91,0.0,1008.8,8.4,29.9,61,24.8,11.4,3.6,382.0,92.0,2.0,7,0,4,1,2026-05-05T21:55:52.780605+05:30
Kozhikode,Kerala,11.2588,75.7804,26.8,89,0.0,1008.4,8.7,35.6,57,38.0,17.2,3.6,488.0,67.0,2.2,7,0,4,1,2026-05-05T21:55:52.780611+05:30
Thrissur,Kerala,10.5276,76.2144,25.3,99,0.0,1007.7,2.75,27.4,55,52.4,39.5,30.6,437.0,32.0,5.8,7,5,0,1,2026-05-05T21:55:52.780618+05:30
Kannur,Kerala,11.8745,75.3704,29.2,74,0.0,1007.4,8.9,43.9,64,42.0,20.0,7.6,209.0,49.0,1.8,7,5,4,1,2026-05-05T21:55:52.780625+05:30
Patna,Bihar,25.5941,85.1376,26.0,76,0.0,1001.9,8.7,29.2,161,100.1,82.2,42.7,776.0,85.0,25.4,7,5,4,1,2026-05-05T21:55:52.780631+05:30
Gaya,Bihar,24.7914,85.0002,26.2,69,0.0,995.7,8.75,31.7,155,54.4,41.9,11.9,554.0,119.0,12.4,7,5,7,1,2026-05-05T21:55:52.780638+05:30
Muzaffarpur,Bihar,26.1209,85.3647,24.6,79,0.0,1001.8,8.5,30.6,141,115.3,98.0,49.2,832.0,75.0,27.7,3,5,4,1,2026-05-05T21:55:52.780644+05:30
Bhagalpur,Bihar,25.2425,87.0117,26.1,78,0.0,1002.9,8.6,25.9,160,56.6,49.4,17.9,378.0,103.0,12.8,7,5,4,1,2026-05-05T21:55:52.780650+05:30
Ranchi,Jharkhand,23.3441,85.3096,21.3,80,0.0,939.8,9.2,31.7,136,57.3,39.9,6.5,314.0,130.0,7.9,3,5,7,1,2026-05-05T21:55:52.780656+05:30
Jamshedpur,Jharkhand,22.8046,86.2029,25.3,77,0.0,993.5,8.95,29.5,143,43.3,37.1,16.5,636.0,103.0,24.9,7,5,7,1,2026-05-05T21:55:52.780662+05:30
Dhanbad,Jharkhand,23.7957,86.4304,25.1,84,0.0,981.9,8.8,28.8,156,81.7,74.0,48.7,1051.0,89.0,64.7,7,5,7,1,2026-05-05T21:55:52.780668+05:30
Bokaro,Jharkhand,23.6693,86.1511,25.9,78,0.0,985.7,9.0,28.4,196,77.5,66.4,33.9,1756.0,116.0,42.8,7,5,7,1,2026-05-05T21:55:52.780674+05:30
Bhubaneswar,Odisha,20.2961,85.8245,24.3,93,0.0,1004.9,9.1,33.8,41,15.4,12.5,8.6,381.0,44.0,3.4,3,5,4,1,2026-05-05T21:55:52.780681+05:30
Cuttack,Odisha,20.4625,85.8828,24.8,92,0.0,1006.8,9.15,29.5,41,15.4,12.5,8.6,226.0,44.0,3.4,3,5,4,1,2026-05-05T21:55:52.780688+05:30
Rourkela,Odisha,22.2604,84.8536,23.1,81,0.0,989.2,8.95,42.5,140,51.1,38.0,9.6,735.0,129.0,34.0,3,5,7,1,2026-05-05T21:55:52.780694+05:30
Raipur,Chhattisgarh,21.2514,81.6296,28.4,54,0.0,975.2,8.95,50.4,123,51.7,39.7,25.6,293.0,78.0,8.7,4,5,7,1,2026-05-05T21:55:52.780701+05:30
Bhilai,Chhattisgarh,21.1938,81.3509,28.0,55,0.0,975.3,8.95,43.9,113,58.8,46.6,39.3,331.0,60.0,10.0,4,5,7,1,2026-05-05T21:55:52.780707+05:30
Guwahati,Assam,26.1158,91.7086,23.5,83,0.0,1003.3,8.65,28.1,72,33.4,28.3,10.7,343.0,58.0,2.0,3,5,4,1,2026-05-05T21:55:52.780713+05:30
Agartala,Tripura,23.8315,91.2868,24.3,93,0.0,1008.8,8.75,23.0,118,42.4,38.9,22.5,393.0,47.0,5.1,3,0,4,1,2026-05-05T21:55:52.780720+05:30
Shillong,Meghalaya,25.5788,91.8933,14.6,98,0.0,857.1,8.6,29.9,62,28.8,24.1,13.3,521.0,66.0,2.0,3,10,7,0,2026-05-05T21:55:52.780726+05:30
Imphal,Manipur,24.817,93.9368,20.6,89,0.0,924.5,9.2,25.9,93,41.4,32.8,16.4,601.0,49.0,4.0,3,5,7,1,2026-05-05T21:55:52.780733+05:30
Aizawl,Mizoram,23.7271,92.7176,18.9,83,0.0,894.1,9.05,33.8,70,23.5,18.3,10.7,271.0,39.0,0.8,3,10,7,0,2026-05-05T21:55:52.780739+05:30
Kohima,Nagaland,25.6701,94.1077,15.9,97,0.0,855.8,9.15,30.6,64,43.1,26.5,14.4,422.0,67.0,2.4,3,10,7,0,2026-05-05T21:55:52.780746+05:30
Gangtok,Sikkim,27.3314,88.6138,12.4,99,0.0,837.1,9.0,33.5,64,21.5,18.1,19.4,421.0,76.0,1.4,3,10,7,0,2026-05-05T21:55:52.780752+05:30
Siliguri,West Bengal,26.7271,88.3953,24.3,76,0.0,995.0,8.6,29.5,74,47.6,39.3,24.2,1492.0,86.0,5.3,3,5,7,1,2026-05-05T21:55:56.035276+05:30
Durgapur,West Bengal,23.5204,87.3119,24.7,88,0.0,997.0,7.65,28.1,123,46.0,43.7,30.2,957.0,76.0,41.9,3,5,7,1,2026-05-05T21:55:56.035300+05:30
Asansol,West Bengal,23.6739,86.9524,24.8,85,0.0,995.6,8.5,32.0,124,50.9,46.9,34.8,461.0,74.0,52.6,3,5,7,1,2026-05-05T21:55:56.035310+05:30
Pondicherry,Puducherry,11.9139,79.8145,28.4,84,0.0,1009.0,8.9,46.8,72,23.6,14.1,2.0,199.0,78.0,0.4,7,0,4,1,2026-05-05T21:55:56.035317+05:30
Port Blair,Andaman and Nicobar Islands,11.6234,92.7265,26.9,89,0.0,1008.4,8.4,38.9,29,5.5,4.8,0.9,386.0,60.0,1.7,7,0,4,1,2026-05-05T21:55:56.035324+05:30
Haridwar,Uttarakhand,29.9457,78.1642,20.1,81,0.0,976.1,5.9,35.3,108,59.3,30.0,9.8,380.0,103.0,5.3,3,5,3,1,2026-05-05T21:55:56.035330+05:30
Rishikesh,Uttarakhand,30.0869,78.2676,17.6,85,0.0,968.4,6.15,33.1,90,53.1,23.3,10.3,391.0,90.0,2.1,3,10,7,0,2026-05-05T21:55:56.035337+05:30
Nainital,Uttarakhand,29.3919,79.4542,9.1,88,0.0,803.4,6.55,32.4,101,56.5,33.5,19.3,305.0,84.0,5.5,3,10,7,0,2026-05-05T21:55:56.035343+05:30
Mussoorie,Uttarakhand,30.4599,78.0664,8.3,88,0.0,800.3,7.35,37.1,106,73.3,25.4,15.9,320.0,103.0,7.5,3,10,7,0,2026-05-05T21:55:56.035349+05:30
Dharamshala,Himachal Pradesh,32.219,76.3234,15.3,60,0.0,869.1,7.5,45.0,107,44.4,16.4,13.1,263.0,100.0,1.3,0,5,7,0,2026-05-05T21:55:56.035355+05:30
Dalhousie,Himachal Pradesh,32.5387,75.971,9.4,75,0.0,802.6,6.15,41.4,109,61.2,28.8,37.6,591.0,86.0,3.6,3,5,7,0,2026-05-05T21:55:56.035362+05:30
Patiala,Punjab,30.3398,76.3869,23.5,64,0.0,980.8,6.95,66.6,402,168.1,45.5,14.5,375.0,99.0,8.7,3,5,7,1,2026-05-05T21:55:56.035368+05:30
Bhatinda,Punjab,30.211,74.9455,25.9,45,0.0,986.1,8.1,37.4,278,159.7,51.0,9.2,355.0,113.0,9.0,4,5,7,0,2026-05-05T21:55:56.035374+05:30
Rohtak,Haryana,28.8955,76.6066,23.6,68,0.0,983.9,7.55,37.1,183,420.0,85.0,29.7,481.0,122.0,36.5,3,5,7,1,2026-05-05T21:55:56.035380+05:30
Panipat,Haryana,29.3909,76.9635,21.8,82,0.0,982.7,6.65,42.8,635,1244.2,144.4,14.6,469.0,115.0,15.5,3,5,7,1,2026-05-05T21:55:56.035386+05:30
Mathura,Uttar Pradesh,27.4924,77.6737,24.4,68,0.0,988.7,7.6,33.8,197,159.3,55.4,20.6,457.0,91.0,12.0,3,5,7,1,2026-05-05T21:55:56.035392+05:30
Vrindavan,Uttar Pradesh,27.5823,77.7027,24.8,66,0.0,989.2,7.45,32.8,197,159.3,55.4,20.6,447.0,91.0,12.0,3,5,7,1,2026-05-05T21:55:56.035398+05:30
Ayodhya,Uttar Pradesh,26.7922,82.1998,23.0,87,0.0,997.2,4.65,23.4,106,44.4,37.7,18.0,669.0,86.0,8.1,3,5,3,1,2026-05-05T21:55:56.035404+05:30
Ratlam,Madhya Pradesh,23.3315,75.0367,27.2,49,0.0,955.1,8.45,47.2,81,46.1,20.5,2.5,212.0,107.0,3.6,4,5,7,0,2026-05-05T21:55:56.035410+05:30
Sagar,Madhya Pradesh,23.8388,78.7378,26.6,50,0.0,951.3,8.65,42.1,111,57.7,40.6,2.8,277.0,141.0,7.9,4,5,7,0,2026-05-05T21:55:56.035416+05:30
Satna,Madhya Pradesh,24.6005,80.8322,25.5,69,0.0,972.8,8.7,39.2,156,50.4,38.9,8.3,361.0,120.0,9.1,7,5,7,1,2026-05-05T21:55:56.035422+05:30
Akola,Maharashtra,20.7002,77.0082,33.0,28,0.0,974.5,8.9,38.5,84,34.7,18.3,7.9,202.0,93.0,8.9,0,5,7,0,2026-05-05T21:55:56.035429+05:30
Amravati,Maharashtra,20.9374,77.7796,32.6,25,0.0,967.0,8.85,38.2,87,36.0,19.4,10.9,207.0,89.0,8.6,0,5,7,0,2026-05-05T21:55:56.035436+05:30
Latur,Maharashtra,18.4088,76.5604,31.1,23,0.0,939.0,9.05,38.5,74,51.7,25.0,15.3,314.0,79.0,11.5,0,5,7,0,2026-05-05T21:55:56.035442+05:30
Nanded,Maharashtra,19.1383,77.3091,33.3,24,0.0,967.6,8.95,33.1,68,74.7,36.6,27.1,606.0,60.0,6.1,0,5,7,0,2026-05-05T21:55:56.035448+05:30
Gulbarga,Karnataka,17.3297,76.8343,33.5,21,0.0,957.7,9.1,36.7,91,39.1,20.8,20.7,251.0,81.0,7.5,0,5,7,0,2026-05-05T21:55:56.035454+05:30
Bidar,Karnataka,17.9104,77.5199,31.2,25,0.0,935.2,9.15,32.4,88,68.7,41.1,31.2,310.0,77.0,7.6,0,5,7,0,2026-05-05T21:55:56.035460+05:30
Hospet,Karnataka,15.2689,76.3909,29.4,33,0.0,954.2,9.25,28.4,70,79.9,45.2,45.0,511.0,54.0,8.1,4,5,7,0,2026-05-05T21:55:56.035466+05:30
Tirupur,Tamil Nadu,11.1085,77.3411,25.9,83,0.0,975.6,9.3,55.4,100,36.8,26.1,20.5,297.0,66.0,6.3,7,5,7,1,2026-05-05T21:55:56.035472+05:30
Alappuzha,Kerala,9.4981,76.3388,26.1,93,0.0,1009.3,7.75,31.0,54,35.5,19.5,14.3,134.0,60.0,4.4,7,0,4,1,2026-05-05T21:55:56.035478+05:30
Munnar,Kerala,10.0889,77.0595,17.2,98,0.0,856.6,6.95,24.5,59,34.1,25.0,14.7,338.0,50.0,2.9,3,10,7,1,2026-05-05T21:55:56.035484+05:30
Silchar,Assam,24.8333,92.7789,23.5,89,0.1,1007.6,8.85,25.9,97,44.8,36.4,10.5,271.0,69.0,5.5,6,5,4,1,2026-05-05T21:55:56.035490+05:30
Dibrugarh,Assam,27.4728,94.912,21.8,94,0.0,997.2,8.35,34.9,58,36.6,33.1,25.6,248.0,23.0,2.3,3,5,7,1,2026-05-05T21:55:56.035496+05:30
