city,state,latitude,longitude,temp,humidity,rain,pressure,uv_index,wind_gusts,aqi,pm10,pm2_5,mosquito_risk,arthritis_risk,migraine_risk,frizz_risk,updated_at
Jhansi,Uttar Pradesh,25.4484,78.5685,22.6,47,0.0,980.0,6.85,24.1,76,79.4,34.3,0,5,7,0,2026-03-06T23:40:39.394454+05:30
Surat,Gujarat,21.1702,72.8311,24.4,81,0.0,1008.2,7.15,24.1,137,73.6,72.2,3,0,4,1,2026-03-06T23:40:39.394492+05:30
Vadodara,Gujarat,22.3072,73.1812,25.8,68,0.0,1005.8,7.25,20.2,111,71.5,69.8,7,5,4,1,2026-03-06T23:40:39.394507+05:30
Rajkot,Gujarat,22.3039,70.8022,22.2,64,0.0,996.4,7.1,24.1,56,41.9,20.0,3,5,7,0,2026-03-06T23:40:39.394517+05:30
Thane,Maharashtra,19.2183,72.9781,25.1,73,0.0,1008.9,7.4,37.8,132,32.7,29.7,7,0,4,1,2026-03-06T23:40:39.394526+05:30
Nagpur,Maharashtra,21.1458,79.0882,26.5,34,0.0,974.2,7.8,25.9,60,29.9,21.0,4,5,7,0,2026-03-06T23:40:39.394534+05:30
Nashik,Maharashtra,19.9975,73.7898,23.5,52,0.0,946.8,7.6,33.5,98,35.9,35.0,0,5,7,0,2026-03-06T23:40:39.394541+05:30
Aurangabad,Maharashtra,19.8762,75.3433,24.3,42,0.0,944.9,8.1,23.4,75,41.2,38.4,0,5,7,0,2026-03-06T23:40:39.394548+05:30
Solapur,Maharashtra,17.6599,75.9064,25.0,49,0.0,957.2,8.4,18.0,95,24.7,21.8,4,5,7,0,2026-03-06T23:40:39.394554+05:30
Kolhapur,Maharashtra,16.705,74.2433,20.1,55,0.0,948.2,8.5,31.7,142,61.0,60.1,0,5,7,0,2026-03-06T23:40:39.394561+05:30
Goa,Goa,15.2993,74.124,26.3,88,0.0,998.8,8.55,32.0,154,60.1,56.8,7,5,7,1,2026-03-06T23:40:39.394568+05:30
Jodhpur,Rajasthan,26.2389,73.0243,27.0,34,0.0,984.9,6.95,22.7,65,77.1,25.2,4,5,7,0,2026-03-06T23:40:39.394575+05:30
Udaipur,Rajasthan,24.5854,73.7125,19.9,56,0.0,948.2,7.6,22.3,49,19.3,16.4,0,5,7,0,2026-03-06T23:40:39.394582+05:30
Kota,Rajasthan,25.2138,75.8648,23.8,52,0.0,980.4,7.0,17.3,67,50.5,33.6,0,5,7,0,2026-03-06T23:40:39.394589+05:30
Bikaner,Rajasthan,28.0229,73.3119,24.6,34,0.0,983.4,6.65,23.8,57,14.8,11.5,0,5,7,0,2026-03-06T23:40:39.394595+05:30
Ajmer,Rajasthan,26.4499,74.6399,24.4,33,0.0,956.6,6.95,26.3,59,23.5,21.5,0,5,7,0,2026-03-06T23:40:39.394601+05:30
Gwalior,Madhya Pradesh,26.2183,78.1828,21.9,62,0.0,985.4,6.6,20.9,100,129.0,42.5,3,5,7,0,2026-03-06T23:40:39.394608+05:30
Indore,Madhya Pradesh,22.7196,75.8577,19.8,63,0.0,949.2,7.55,22.3,68,36.2,34.8,3,5,7,0,2026-03-06T23:40:39.394614+05:30
Bhopal,Madhya Pradesh,23.2599,77.4126,23.0,43,0.0,955.1,7.4,24.8,72,43.4,37.6,0,5,7,0,2026-03-06T23:40:39.394621+05:30
Jabalpur,Madhya Pradesh,23.1815,79.9864,24.4,46,0.0,963.0,7.5,26.6,71,54.1,27.1,0,5,7,0,2026-03-06T23:40:39.394628+05:30
Ujjain,Madhya Pradesh,23.1765,75.7885,21.4,60,0.0,955.2,7.45,19.1,72,45.8,44.4,0,5,7,0,2026-03-06T23:40:39.394634+05:30
Visakhapatnam,Andhra Pradesh,17.6868,83.2185,26.2,91,0.0,1005.0,8.45,35.3,125,36.4,32.0,7,5,4,1,2026-03-06T23:40:39.394641+05:30
Vijayawada,Andhra Pradesh,16.5062,80.648,25.3,78,0.0,1002.9,8.55,12.2,114,38.2,36.6,7,5,4,1,2026-03-06T23:40:39.394647+05:30
Guntur,Andhra Pradesh,16.3067,80.4365,25.0,79,0.0,1004.1,8.55,18.0,99,38.4,36.6,7,5,4,1,2026-03-06T23:40:39.394654+05:30
Nellore,Andhra Pradesh,14.4426,79.9865,24.9,83,0.0,1006.6,8.75,28.8,105,30.5,28.8,3,5,4,1,2026-03-06T23:40:39.394660+05:30
Kurnool,Andhra Pradesh,15.8281,78.0373,27.1,35,0.0,976.9,8.55,23.4,74,20.4,16.9,4,5,7,0,2026-03-06T23:40:39.394667+05:30
Kakinada,Andhra Pradesh,16.9891,82.2475,24.6,96,0.0,1008.4,8.5,31.0,96,33.3,27.8,3,0,4,1,2026-03-06T23:40:39.394674+05:30
Tirupati,Andhra Pradesh,13.6288,79.4192,25.8,62,0.0,992.9,8.85,30.6,108,60.3,59.0,7,5,7,1,2026-03-06T23:40:39.394681+05:30
Warangal,Telangana,17.9689,79.5941,27.4,40,0.0,978.5,8.3,24.5,80,35.6,28.8,4,5,7,0,2026-03-06T23:40:39.394688+05:30
Nizamabad,Telangana,18.6725,78.0941,23.3,50,0.0,965.0,8.2,28.8,89,52.0,41.7,0,5,7,0,2026-03-06T23:40:39.394695+05:30
Mysore,Karnataka,12.2958,76.6396,22.6,89,0.0,929.2,9.2,37.1,123,51.5,50.3,3,5,7,1,2026-03-06T23:40:39.394701+05:30
Mangalore,Karnataka,12.9141,74.856,28.9,77,0.0,1008.1,8.8,23.8,126,54.6,50.2,7,0,4,1,2026-03-06T23:40:39.394708+05:30
Hubli-Dharwad,Karnataka,15.3647,75.124,22.7,78,0.0,941.4,8.75,36.7,90,44.8,43.8,3,5,7,1,2026-03-06T23:40:39.394714+05:30
Belgaum,Karnataka,15.8497,74.4977,22.1,71,0.0,926.1,8.8,40.0,108,49.7,48.5,3,5,7,1,2026-03-06T23:40:42.887707+05:30
Coimbatore,Tamil Nadu,11.0168,76.9558,24.4,83,0.0,962.8,9.15,41.0,112,26.2,25.5,3,5,7,1,2026-03-06T23:40:42.887737+05:30
Madurai,Tamil Nadu,9.9252,78.1198,25.6,81,0.0,994.9,9.15,29.9,90,27.8,25.6,7,5,7,1,2026-03-06T23:40:42.887749+05:30
Trichy,Tamil Nadu,10.7905,78.7047,25.3,77,0.0,1001.2,9.05,26.6,81,31.1,28.6,7,5,4,1,2026-03-06T23:40:42.887759+05:30
Salem,Tamil Nadu,11.6643,78.146,26.9,63,0.0,977.9,9.05,16.2,137,35.4,34.1,7,5,7,1,2026-03-06T23:40:42.887766+05:30
Tirunelveli,Tamil Nadu,8.7139,77.7567,26.4,73,0.0,1004.9,9.15,48.6,97,36.0,34.9,7,5,4,1,2026-03-06T23:40:42.887773+05:30
Vellore,Tamil Nadu,12.9165,79.1325,25.0,71,0.0,985.8,8.95,31.3,119,65.0,63.3,7,5,7,1,2026-03-06T23:40:42.887779+05:30
Erode,Tamil Nadu,11.341,77.7172,27.6,62,0.0,990.3,9.05,19.8,120,33.4,32.0,7,5,7,1,2026-03-06T23:40:42.887786+05:30
Kochi,Kerala,9.9312,76.2673,27.8,81,0.0,1010.4,8.95,34.6,130,60.3,58.9,7,0,4,1,2026-03-06T23:40:42.887793+05:30
Thiruvananthapuram,Kerala,8.5241,76.9366,27.3,82,0.0,1009.9,9.0,35.3,82,30.3,27.1,7,0,4,1,2026-03-06T23:40:42.887800+05:30
Kozhikode,Kerala,11.2588,75.7804,28.6,76,0.0,1009.4,8.85,27.0,107,43.9,40.3,7,0,4,1,2026-03-06T23:40:42.887807+05:30
Thrissur,Kerala,10.5276,76.2144,26.9,87,0.0,1008.6,8.95,33.5,124,48.3,46.4,7,0,4,1,2026-03-06T23:40:42.887813+05:30
Kannur,Kerala,11.8745,75.3704,28.0,81,0.0,1008.6,8.85,32.0,113,54.5,51.5,7,0,4,1,2026-03-06T23:40:42.887820+05:30
Patna,Bihar,25.5941,85.1376,24.8,69,0.0,1003.8,7.25,21.6,164,72.9,66.6,3,5,4,1,2026-03-06T23:40:42.887826+05:30
Gaya,Bihar,24.7914,85.0002,22.5,80,0.0,996.7,7.35,20.5,158,61.2,56.8,3,5,7,1,2026-03-06T23:40:42.887832+05:30
Muzaffarpur,Bihar,26.1209,85.3647,22.5,76,0.0,1003.8,7.2,20.5,167,88.7,81.3,3,5,4,1,2026-03-06T23:40:42.887838+05:30
Bhagalpur,Bihar,25.2425,87.0117,22.9,76,0.0,1004.3,7.25,17.3,160,75.2,66.6,3,5,4,1,2026-03-06T23:40:42.887844+05:30
Ranchi,Jharkhand,23.3441,85.3096,22.8,59,0.0,939.6,8.0,31.0,154,62.9,48.8,0,5,7,0,2026-03-06T23:40:42.887850+05:30
Jamshedpur,Jharkhand,22.8046,86.2029,25.0,76,0.0,993.6,7.9,19.1,149,49.0,38.1,7,5,7,1,2026-03-06T23:40:42.887856+05:30
Dhanbad,Jharkhand,23.7957,86.4304,26.4,53,0.0,982.6,7.75,27.4,167,72.9,64.7,4,5,7,1,2026-03-06T23:40:42.887862+05:30
Bokaro,Jharkhand,23.6693,86.1511,25.2,57,0.0,986.8,7.75,29.5,171,78.9,69.4,4,5,7,0,2026-03-06T23:40:42.887869+05:30
Bhubaneswar,Odisha,20.2961,85.8245,25.2,88,0.0,1005.5,8.2,29.9,135,49.5,44.4,7,5,4,1,2026-03-06T23:40:42.887899+05:30
Cuttack,Odisha,20.4625,85.8828,25.4,86,0.0,1007.5,8.2,31.3,135,49.5,44.4,7,5,4,1,2026-03-06T23:40:42.887908+05:30
Rourkela,Odisha,22.2604,84.8536,25.3,65,0.0,986.4,7.8,10.4,152,80.6,64.5,7,5,7,1,2026-03-06T23:40:42.887915+05:30
Raipur,Chhattisgarh,21.2514,81.6296,25.2,51,0.0,975.5,7.9,22.7,98,110.4,84.5,4,5,7,0,2026-03-06T23:40:42.887922+05:30
Bhilai,Chhattisgarh,21.1938,81.3509,24.8,45,0.0,975.8,7.9,23.8,89,74.5,60.5,0,5,7,0,2026-03-06T23:40:42.887929+05:30
Guwahati,Assam,26.1158,91.7086,23.9,79,0.0,1004.5,7.2,20.5,153,62.9,58.8,3,5,4,1,2026-03-06T23:40:42.887936+05:30
Agartala,Tripura,23.8315,91.2868,21.7,77,0.0,1009.5,7.55,16.9,159,101.0,94.1,3,0,4,1,2026-03-06T23:40:42.887942+05:30
Shillong,Meghalaya,25.5788,91.8933,12.0,74,0.0,857.4,7.6,33.1,119,44.9,41.6,3,5,7,0,2026-03-06T23:40:42.887948+05:30
Imphal,Manipur,24.817,93.9368,17.3,62,0.0,925.6,7.8,34.9,156,95.2,90.3,3,5,7,0,2026-03-06T23:40:42.887956+05:30
Aizawl,Mizoram,23.7271,92.7176,19.7,57,0.0,895.6,7.7,34.6,183,136.9,129.5,0,5,7,0,2026-03-06T23:40:42.887963+05:30
Kohima,Nagaland,25.6701,94.1077,16.0,59,0.0,857.3,7.65,46.8,159,99.4,93.6,0,5,7,0,2026-03-06T23:40:42.887970+05:30
Gangtok,Sikkim,27.3314,88.6138,14.4,87,0.0,840.2,7.55,18.0,110,65.2,58.9,3,10,7,0,2026-03-06T23:40:42.887976+05:30
Siliguri,West Bengal,26.7271,88.3953,22.4,60,0.0,997.7,7.2,15.5,147,68.0,60.8,0,5,7,0,2026-03-06T23:40:46.103719+05:30
Durgapur,West Bengal,23.5204,87.3119,25.3,68,0.0,998.1,7.75,24.1,161,72.2,62.9,7,5,7,1,2026-03-06T23:40:46.103752+05:30
Asansol,West Bengal,23.6739,86.9524,26.2,59,0.0,996.7,7.75,21.6,161,69.4,61.0,4,5,7,1,2026-03-06T23:40:46.103764+05:30
Pondicherry,Puducherry,11.9139,79.8145,24.1,95,0.0,1009.7,8.9,32.4,73,27.2,21.0,3,0,4,1,2026-03-06T23:40:46.103774+05:30
Port Blair,Andaman and Nicobar Islands,11.6234,92.7265,27.1,70,0.0,1009.0,8.85,14.4,70,54.2,32.7,7,0,4,1,2026-03-06T23:40:46.103783+05:30
Haridwar,Uttarakhand,29.9457,78.1642,22.4,81,0.0,977.6,5.65,23.4,157,99.4,83.8,3,5,3,1,2026-03-06T23:40:46.103792+05:30
Rishikesh,Uttarakhand,30.0869,78.2676,21.2,79,0.0,970.4,5.7,21.6,159,114.3,83.6,3,5,3,1,2026-03-06T23:40:46.103801+05:30
Nainital,Uttarakhand,29.3919,79.4542,16.2,70,0.0,807.7,6.5,46.4,160,101.3,76.8,3,5,7,0,2026-03-06T23:40:46.103809+05:30
Mussoorie,Uttarakhand,30.4599,78.0664,15.1,86,0.0,804.5,6.05,40.7,154,129.5,91.3,3,10,7,0,2026-03-06T23:40:46.103818+05:30
Dharamshala,Himachal Pradesh,32.219,76.3234,21.6,60,0.0,871.8,5.75,21.2,79,31.0,21.1,0,5,3,0,2026-03-06T23:40:46.103826+05:30
Dalhousie,Himachal Pradesh,32.5387,75.971,17.6,66,0.0,805.8,5.85,20.9,94,58.6,49.8,3,5,3,0,2026-03-06T23:40:46.103834+05:30
Patiala,Punjab,30.3398,76.3869,22.8,74,0.0,980.7,5.7,13.0,162,300.8,119.7,3,5,3,1,2026-03-06T23:40:46.103843+05:30
Bhatinda,Punjab,30.211,74.9455,23.2,53,0.0,985.4,6.4,16.9,138,73.8,57.5,0,5,7,0,2026-03-06T23:40:46.103852+05:30
Rohtak,Haryana,28.8955,76.6066,22.7,53,0.0,984.0,5.9,19.4,163,290.6,122.9,0,5,3,0,2026-03-06T23:40:46.103860+05:30
Panipat,Haryana,29.3909,76.9635,23.3,71,0.0,983.1,5.7,14.0,371,403.3,133.6,3,5,3,1,2026-03-06T23:40:46.103868+05:30
Mathura,Uttar Pradesh,27.4924,77.6737,20.0,66,0.0,989.0,6.2,19.1,186,193.2,99.0,3,5,7,0,2026-03-06T23:40:46.103906+05:30
Vrindavan,Uttar Pradesh,27.5823,77.7027,21.3,65,0.0,989.5,6.15,17.6,186,193.2,99.0,3,5,7,0,2026-03-06T23:40:46.103915+05:30
Ayodhya,Uttar Pradesh,26.7922,82.1998,22.4,76,0.0,998.9,6.55,19.4,167,142.5,113.4,3,5,7,1,2026-03-06T23:40:46.103921+05:30
Ratlam,Madhya Pradesh,23.3315,75.0367,23.9,52,0.0,956.1,7.4,20.9,64,49.4,48.0,0,5,7,0,2026-03-06T23:40:46.103927+05:30
Sagar,Madhya Pradesh,23.8388,78.7378,23.1,50,0.0,951.6,7.35,21.6,62,53.3,22.7,0,5,7,0,2026-03-06T23:40:46.103933+05:30
Satna,Madhya Pradesh,24.6005,80.8322,22.7,72,0.0,973.7,7.3,31.3,118,117.6,65.7,3,5,7,1,2026-03-06T23:40:46.103939+05:30
Akola,Maharashtra,20.7002,77.0082,23.7,53,0.0,975.9,7.85,19.8,78,38.0,32.8,0,5,7,0,2026-03-06T23:40:46.103945+05:30
Amravati,Maharashtra,20.9374,77.7796,24.0,58,0.0,967.8,7.75,15.1,76,44.7,37.5,0,5,7,0,2026-03-06T23:40:46.103951+05:30
Latur,Maharashtra,18.4088,76.5604,25.4,40,0.0,940.3,8.3,31.7,85,39.0,32.4,4,5,7,0,2026-03-06T23:40:46.103957+05:30
Nanded,Maharashtra,19.1383,77.3091,25.9,48,0.0,969.0,8.1,20.9,91,60.5,51.6,4,5,7,0,2026-03-06T23:40:46.103962+05:30
Gulbarga,Karnataka,17.3297,76.8343,26.6,40,0.0,958.8,8.4,33.1,68,25.7,21.0,4,5,7,0,2026-03-06T23:40:46.103968+05:30
Bidar,Karnataka,17.9104,77.5199,25.6,41,0.0,935.9,8.35,32.8,75,37.7,27.0,4,5,7,0,2026-03-06T23:40:46.103978+05:30
Hospet,Karnataka,15.2689,76.3909,26.6,40,0.0,956.0,8.75,20.2,115,35.9,33.5,4,5,7,0,2026-03-06T23:40:46.103984+05:30
Tirupur,Tamil Nadu,11.1085,77.3411,26.0,81,0.0,976.3,9.2,30.2,126,38.8,37.5,7,5,7,1,2026-03-06T23:40:46.103990+05:30
Alappuzha,Kerala,9.4981,76.3388,27.4,83,0.0,1010.7,8.95,31.0,106,42.0,39.2,7,0,4,1,2026-03-06T23:40:46.103997+05:30
Munnar,Kerala,10.0889,77.0595,19.8,91,0.0,857.5,9.45,29.9,101,48.9,47.1,3,10,7,1,2026-03-06T23:40:46.104003+05:30
Silchar,Assam,24.8333,92.7789,26.4,62,0.0,1007.9,7.55,12.6,170,120.1,115.9,7,5,4,1,2026-03-06T23:40:46.104009+05:30
Dibrugarh,Assam,27.4728,94.912,23.9,78,0.0,998.1,7.25,16.6,95,42.7,40.3,3,5,7,1,2026-03-06T23:40:46.104015+05:30
