city,state,latitude,longitude,temp,humidity,rain,pressure,uv_index,wind_gusts,aqi,pm10,pm2_5,mosquito_risk,arthritis_risk,migraine_risk,frizz_risk,updated_at
Delhi,Delhi,28.6139,77.209,26.1,42,0.0,983.0,6.9,29.2,160,115.9,41.4,4,5,7,0,2026-04-08T14:36:01.486666+05:30
Mumbai,Maharashtra,19.076,72.8777,28.7,74,0.0,1008.9,7.95,20.5,78,79.2,28.5,7,0,4,1,2026-04-08T14:36:01.486713+05:30
Bangalore,Karnataka,12.9716,77.5946,34.7,24,0.0,911.7,9.6,25.6,89,12.5,11.6,0,5,7,0,2026-04-08T14:36:01.486762+05:30
Hyderabad,Telangana,17.385,78.4867,37.7,19,0.0,952.7,9.15,22.0,94,43.3,22.4,0,5,10,0,2026-04-08T14:36:01.486774+05:30
Chennai,Tamil Nadu,13.0827,80.2707,35.4,56,0.0,1005.5,9.35,36.0,80,33.3,26.8,0,5,7,1,2026-04-08T14:36:01.486789+05:30
Kolkata,West Bengal,22.5726,88.3639,31.3,56,0.0,1004.8,8.7,31.7,97,35.5,28.9,0,5,4,1,2026-04-08T14:36:01.486797+05:30
Pune,Maharashtra,18.5204,73.8567,33.6,37,0.0,949.2,8.5,38.9,77,92.0,24.0,0,5,7,1,2026-04-08T14:36:01.486807+05:30
Ahmedabad,Gujarat,23.0225,72.5714,35.2,30,0.0,1000.5,8.0,33.1,56,32.1,10.6,0,5,7,0,2026-04-08T14:36:01.486815+05:30
Jaipur,Rajasthan,26.9124,75.7873,28.0,29,0.0,959.5,7.65,33.5,115,234.2,28.6,4,5,7,0,2026-04-08T14:36:01.486823+05:30
Lucknow,Uttar Pradesh,26.8467,80.9462,24.1,66,0.1,994.4,6.95,41.0,87,103.8,33.2,6,5,7,1,2026-04-08T14:36:01.486831+05:30
Kanpur,Uttar Pradesh,26.4499,80.3319,26.1,59,0.0,991.9,7.45,35.3,100,147.1,38.8,4,5,7,1,2026-04-08T14:36:01.486839+05:30
Chandigarh,Chandigarh,30.7333,76.7794,19.7,81,0.0,969.6,6.85,30.6,84,53.3,17.6,3,10,7,1,2026-04-08T14:36:01.486846+05:30
Srinagar,Jammu and Kashmir,34.0837,74.7973,11.6,77,0.0,836.2,1.3,22.0,49,5.7,4.5,3,5,3,0,2026-04-08T14:36:01.486854+05:30
Jammu,Jammu and Kashmir,32.7266,74.857,21.5,70,0.0,973.7,6.2,27.7,68,61.7,22.5,3,5,7,0,2026-04-08T14:36:01.486862+05:30
Amritsar,Punjab,31.634,74.8723,22.7,53,0.0,981.5,7.25,19.1,105,59.8,23.0,0,5,7,0,2026-04-08T14:36:01.486874+05:30
Ludhiana,Punjab,30.901,75.8573,22.7,58,0.0,979.5,6.9,20.5,120,97.8,26.4,0,5,7,0,2026-04-08T14:36:01.486881+05:30
Jalandhar,Punjab,31.326,75.5762,22.4,62,0.0,980.8,6.95,20.9,123,69.6,22.6,3,5,7,0,2026-04-08T14:36:01.486887+05:30
Dehradun,Uttarakhand,30.6284,78.0322,11.0,83,0.3,826.3,5.4,42.5,78,10.5,5.6,6,10,3,0,2026-04-08T14:36:01.486895+05:30
Shimla,Himachal Pradesh,31.1048,77.1734,9.4,87,0.1,779.5,4.1,41.8,68,11.4,5.3,6,10,3,0,2026-04-08T14:36:01.486902+05:30
Manali,Himachal Pradesh,32.2396,77.1887,10.6,98,0.4,812.3,5.45,29.9,92,7.2,6.3,6,10,3,0,2026-04-08T14:36:01.486908+05:30
Gurgaon,Haryana,28.4595,77.0266,25.9,46,0.0,981.5,7.05,25.6,626,163.9,41.9,4,5,7,0,2026-04-08T14:36:01.486915+05:30
Noida,Uttar Pradesh,28.5355,77.391,26.4,42,0.0,984.5,6.95,26.3,626,163.9,41.9,4,5,7,0,2026-04-08T14:36:01.486922+05:30
Ghaziabad,Uttar Pradesh,28.6692,77.4538,24.7,54,0.0,983.1,6.9,25.2,119,91.5,27.0,0,5,7,0,2026-04-08T14:36:01.486929+05:30
Faridabad,Haryana,28.4089,77.3178,26.2,46,0.0,983.7,7.0,26.3,626,163.9,41.9,4,5,7,0,2026-04-08T14:36:01.486935+05:30
Meerut,Uttar Pradesh,28.9845,77.7064,23.7,62,0.0,981.9,6.15,25.6,119,91.5,27.0,3,5,7,0,2026-04-08T14:36:01.486944+05:30
Agra,Uttar Pradesh,27.1767,78.0081,29.3,34,0.0,987.3,7.35,31.3,330,270.1,44.8,4,5,7,0,2026-04-08T14:36:01.486950+05:30
Varanasi,Uttar Pradesh,25.3176,82.9739,30.7,37,0.0,996.8,7.3,36.7,90,123.4,45.2,0,5,7,0,2026-04-08T14:36:01.486957+05:30
Prayagraj,Uttar Pradesh,25.4358,81.8463,30.5,43,0.0,994.8,7.65,33.8,84,99.9,34.7,0,5,7,1,2026-04-08T14:36:01.486964+05:30
Gorakhpur,Uttar Pradesh,26.7606,83.3732,23.8,70,0.0,998.7,7.4,38.2,90,55.4,29.8,3,5,7,1,2026-04-08T14:36:01.486971+05:30
Bareilly,Uttar Pradesh,28.367,79.4304,22.2,77,0.0,988.0,7.2,29.9,93,92.0,32.4,3,5,7,1,2026-04-08T14:36:01.486979+05:30
Aligarh,Uttar Pradesh,27.8974,78.088,26.2,54,0.0,985.7,7.1,27.0,223,119.2,29.3,4,5,7,1,2026-04-08T14:36:01.486985+05:30
Moradabad,Uttar Pradesh,28.8386,78.7733,23.0,69,0.0,984.5,5.55,27.4,101,86.8,39.6,3,5,3,1,2026-04-08T14:36:01.486991+05:30
Saharanpur,Uttar Pradesh,29.9637,77.546,19.9,80,0.0,976.5,5.5,29.9,87,71.5,29.0,3,5,3,1,2026-04-08T14:36:01.486996+05:30
Jhansi,Uttar Pradesh,25.4484,78.5685,30.6,29,0.0,977.3,7.95,42.8,84,86.1,23.7,0,5,7,0,2026-04-08T14:36:04.782341+05:30
Surat,Gujarat,21.1702,72.8311,30.2,67,0.0,1006.8,7.7,42.5,67,49.4,21.1,3,5,4,1,2026-04-08T14:36:04.782376+05:30
Vadodara,Gujarat,22.3072,73.1812,34.3,39,0.0,1003.1,7.95,39.6,64,55.8,17.9,0,5,4,1,2026-04-08T14:36:04.782386+05:30
Rajkot,Gujarat,22.3039,70.8022,35.6,27,0.0,992.7,7.7,39.6,54,49.8,17.3,0,5,10,0,2026-04-08T14:36:04.782395+05:30
Thane,Maharashtra,19.2183,72.9781,32.1,57,0.0,1008.3,7.95,36.4,78,79.2,28.5,0,0,4,1,2026-04-08T14:36:04.782401+05:30
Nagpur,Maharashtra,21.1458,79.0882,34.4,31,0.0,971.2,8.75,39.6,78,98.3,27.2,0,5,7,0,2026-04-08T14:36:04.782408+05:30
Nashik,Maharashtra,19.9975,73.7898,31.3,37,0.0,946.0,8.2,42.8,67,66.6,19.8,0,5,7,0,2026-04-08T14:36:04.782415+05:30
Aurangabad,Maharashtra,19.8762,75.3433,32.7,35,0.0,943.8,8.9,47.9,64,70.1,21.9,0,5,7,0,2026-04-08T14:36:04.782422+05:30
Solapur,Maharashtra,17.6599,75.9064,38.4,17,0.0,956.6,8.95,26.6,70,80.1,24.0,0,5,10,0,2026-04-08T14:36:04.782428+05:30
Kolhapur,Maharashtra,16.705,74.2433,34.1,32,0.0,948.5,9.0,43.2,70,99.7,26.5,0,5,7,0,2026-04-08T14:36:04.782436+05:30
Goa,Goa,15.2993,74.124,31.6,59,0.0,998.3,9.0,37.4,61,74.5,23.5,0,5,7,1,2026-04-08T14:36:04.782442+05:30
Jodhpur,Rajasthan,26.2389,73.0243,30.3,35,0.0,982.3,7.9,25.6,111,201.6,32.8,0,5,7,0,2026-04-08T14:36:04.782449+05:30
Udaipur,Rajasthan,24.5854,73.7125,28.4,35,0.0,945.8,8.5,35.3,65,73.3,19.8,4,5,7,0,2026-04-08T14:36:04.782455+05:30
Kota,Rajasthan,25.2138,75.8648,30.5,25,0.0,978.4,7.95,34.2,79,96.9,24.8,0,5,7,0,2026-04-08T14:36:04.782461+05:30
Bikaner,Rajasthan,28.0229,73.3119,29.5,27,0.0,981.6,7.7,26.3,54,134.6,23.8,4,5,7,0,2026-04-08T14:36:04.782468+05:30
Ajmer,Rajasthan,26.4499,74.6399,28.6,27,0.0,954.2,7.85,35.3,70,96.2,17.3,4,5,7,0,2026-04-08T14:36:04.782474+05:30
Gwalior,Madhya Pradesh,26.2183,78.1828,29.9,26,0.0,982.6,7.65,39.2,85,95.7,21.9,4,5,7,0,2026-04-08T14:36:04.782480+05:30
Indore,Madhya Pradesh,22.7196,75.8577,31.3,33,0.0,947.2,8.4,50.0,69,48.3,21.9,0,5,7,0,2026-04-08T14:36:04.782486+05:30
Bhopal,Madhya Pradesh,23.2599,77.4126,31.7,31,0.0,952.6,8.3,53.6,74,50.9,18.5,0,5,7,0,2026-04-08T14:36:04.782492+05:30
Jabalpur,Madhya Pradesh,23.1815,79.9864,32.3,33,0.0,960.0,8.15,46.8,91,99.9,36.1,0,5,7,0,2026-04-08T14:36:04.782499+05:30
Ujjain,Madhya Pradesh,23.1765,75.7885,31.1,35,0.0,953.0,8.3,45.4,66,38.6,17.8,0,5,7,0,2026-04-08T14:36:04.782507+05:30
Visakhapatnam,Andhra Pradesh,17.6868,83.2185,33.2,60,0.0,1002.3,9.1,43.9,76,38.9,33.9,0,5,4,1,2026-04-08T14:36:04.782514+05:30
Vijayawada,Andhra Pradesh,16.5062,80.648,36.2,46,0.0,1000.7,9.15,26.6,95,31.9,28.2,0,5,7,1,2026-04-08T14:36:04.782520+05:30
Guntur,Andhra Pradesh,16.3067,80.4365,36.7,43,0.0,1001.8,9.15,30.2,96,34.1,30.3,0,5,7,1,2026-04-08T14:36:04.782526+05:30
Nellore,Andhra Pradesh,14.4426,79.9865,37.9,41,0.0,1003.5,9.3,37.1,93,38.9,33.4,0,5,7,1,2026-04-08T14:36:04.782533+05:30
Kurnool,Andhra Pradesh,15.8281,78.0373,40.0,18,0.0,975.3,9.15,23.0,96,24.6,17.3,0,5,10,0,2026-04-08T14:36:04.782540+05:30
Kakinada,Andhra Pradesh,16.9891,82.2475,34.6,53,0.0,1006.1,9.15,29.9,77,30.4,25.3,0,5,4,1,2026-04-08T14:36:04.782546+05:30
Tirupati,Andhra Pradesh,13.6288,79.4192,37.6,33,0.0,989.3,9.4,31.3,93,48.1,43.9,0,5,10,1,2026-04-08T14:36:04.782552+05:30
Warangal,Telangana,17.9689,79.5941,37.3,28,0.0,977.3,9.05,25.2,109,38.8,27.0,0,5,10,0,2026-04-08T14:36:04.782558+05:30
Nizamabad,Telangana,18.6725,78.0941,36.4,22,0.0,964.3,9.0,25.9,83,85.4,24.2,0,5,10,0,2026-04-08T14:36:04.782564+05:30
Mysore,Karnataka,12.2958,76.6396,35.4,25,0.0,928.1,9.4,43.2,79,6.0,5.7,0,5,10,0,2026-04-08T14:36:04.782570+05:30
Mangalore,Karnataka,12.9141,74.856,28.5,81,0.0,1006.6,9.15,30.6,53,42.6,16.8,7,5,4,1,2026-04-08T14:36:04.782576+05:30
Hubli-Dharwad,Karnataka,15.3647,75.124,36.5,22,0.0,941.0,9.2,41.8,53,58.8,21.7,0,5,10,0,2026-04-08T14:36:04.782583+05:30
Belgaum,Karnataka,15.8497,74.4977,33.9,29,0.0,926.6,9.25,39.6,62,83.8,25.1,0,5,7,0,2026-04-08T14:36:08.086128+05:30
Coimbatore,Tamil Nadu,11.0168,76.9558,35.1,37,0.0,961.0,9.5,55.8,68,10.0,8.3,0,5,10,1,2026-04-08T14:36:08.086163+05:30
Madurai,Tamil Nadu,9.9252,78.1198,36.5,44,0.0,991.3,9.3,33.1,105,40.3,33.1,0,5,10,1,2026-04-08T14:36:08.086175+05:30
Trichy,Tamil Nadu,10.7905,78.7047,36.5,46,0.0,997.7,8.65,25.2,92,34.7,28.7,0,5,10,1,2026-04-08T14:36:08.086184+05:30
Salem,Tamil Nadu,11.6643,78.146,38.9,27,0.0,975.4,9.45,28.8,99,18.5,16.8,0,5,10,1,2026-04-08T14:36:08.086191+05:30
Tirunelveli,Tamil Nadu,8.7139,77.7567,38.7,34,0.0,1000.7,9.2,42.1,65,32.8,25.9,0,5,7,1,2026-04-08T14:36:08.086198+05:30
Vellore,Tamil Nadu,12.9165,79.1325,37.2,32,0.0,982.7,9.05,33.1,97,36.3,32.6,0,5,10,1,2026-04-08T14:36:08.086206+05:30
Erode,Tamil Nadu,11.341,77.7172,39.3,28,0.0,986.7,9.35,28.8,73,9.0,7.6,0,5,10,1,2026-04-08T14:36:08.086213+05:30
Kochi,Kerala,9.9312,76.2673,29.5,71,0.0,1007.8,9.2,34.6,60,21.1,13.7,7,5,4,1,2026-04-08T14:36:08.086220+05:30
Thiruvananthapuram,Kerala,8.5241,76.9366,29.4,70,0.0,1006.7,9.2,45.4,56,23.0,13.9,7,5,4,1,2026-04-08T14:36:08.086226+05:30
Kozhikode,Kerala,11.2588,75.7804,30.4,63,0.0,1007.3,9.15,28.4,51,20.4,11.8,3,5,4,1,2026-04-08T14:36:08.086233+05:30
Thrissur,Kerala,10.5276,76.2144,33.9,46,0.0,1006.3,9.2,35.3,62,19.3,13.1,0,5,4,1,2026-04-08T14:36:08.086240+05:30
Kannur,Kerala,11.8745,75.3704,31.4,60,0.0,1006.9,9.15,33.5,50,19.8,12.5,0,5,4,1,2026-04-08T14:36:08.086248+05:30
Patna,Bihar,25.5941,85.1376,25.5,67,0.4,1001.7,6.65,34.2,125,53.3,33.6,10,5,4,1,2026-04-08T14:36:08.086254+05:30
Gaya,Bihar,24.7914,85.0002,27.9,53,0.0,994.0,8.2,31.0,129,46.8,36.3,4,5,7,1,2026-04-08T14:36:08.086260+05:30
Muzaffarpur,Bihar,26.1209,85.3647,24.8,68,0.2,1001.4,7.0,30.6,122,50.2,26.1,6,5,4,1,2026-04-08T14:36:08.086266+05:30
Bhagalpur,Bihar,25.2425,87.0117,31.0,52,0.0,1000.2,8.3,37.1,100,63.3,44.2,0,5,4,1,2026-04-08T14:36:08.086272+05:30
Ranchi,Jharkhand,23.3441,85.3096,26.7,64,0.0,937.0,8.9,42.5,133,64.3,48.7,7,5,7,1,2026-04-08T14:36:08.086279+05:30
Jamshedpur,Jharkhand,22.8046,86.2029,32.3,54,0.0,989.1,8.75,34.2,136,50.3,39.9,0,5,7,1,2026-04-08T14:36:08.086286+05:30
Dhanbad,Jharkhand,23.7957,86.4304,29.1,61,0.0,978.7,8.7,29.5,155,68.2,56.3,7,5,7,1,2026-04-08T14:36:08.086292+05:30
Bokaro,Jharkhand,23.6693,86.1511,30.3,54,0.0,982.9,8.7,34.6,152,54.6,44.2,0,5,7,1,2026-04-08T14:36:08.086298+05:30
Bhubaneswar,Odisha,20.2961,85.8245,33.1,57,0.0,1000.8,8.95,39.6,67,23.1,18.9,0,5,4,1,2026-04-08T14:36:08.086303+05:30
Cuttack,Odisha,20.4625,85.8828,34.3,50,0.0,1002.3,9.0,35.6,67,23.1,18.9,0,5,4,1,2026-04-08T14:36:08.086309+05:30
Rourkela,Odisha,22.2604,84.8536,32.4,59,0.0,983.4,8.75,39.2,121,42.4,33.9,0,5,7,1,2026-04-08T14:36:08.086315+05:30
Raipur,Chhattisgarh,21.2514,81.6296,36.9,18,0.0,972.2,8.3,41.8,110,75.7,28.7,0,5,10,0,2026-04-08T14:36:08.086322+05:30
Bhilai,Chhattisgarh,21.1938,81.3509,36.5,20,0.0,972.4,8.45,43.2,92,85.9,29.8,0,5,10,0,2026-04-08T14:36:08.086328+05:30
Guwahati,Assam,26.1158,91.7086,28.1,61,0.0,1002.4,8.15,24.1,90,39.2,29.5,7,5,4,1,2026-04-08T14:36:08.086335+05:30
Agartala,Tripura,23.8315,91.2868,32.0,46,0.0,1005.8,8.45,11.2,93,36.3,31.1,0,5,4,1,2026-04-08T14:36:08.086342+05:30
Shillong,Meghalaya,25.5788,91.8933,18.0,56,0.0,856.9,7.8,40.3,113,35.2,23.2,0,5,7,0,2026-04-08T14:36:08.086348+05:30
Imphal,Manipur,24.817,93.9368,22.7,56,0.0,923.5,8.65,42.8,83,21.2,14.6,0,5,7,0,2026-04-08T14:36:08.086355+05:30
Aizawl,Mizoram,23.7271,92.7176,25.7,43,0.0,893.9,8.7,34.2,74,24.0,19.9,4,5,7,0,2026-04-08T14:36:08.086361+05:30
Kohima,Nagaland,25.6701,94.1077,16.7,79,0.0,855.2,7.85,64.4,78,23.2,15.7,3,5,7,0,2026-04-08T14:36:08.086367+05:30
Gangtok,Sikkim,27.3314,88.6138,17.4,62,0.0,838.0,7.4,19.1,107,30.4,21.1,3,5,7,0,2026-04-08T14:36:08.086374+05:30
Siliguri,West Bengal,26.7271,88.3953,24.5,65,0.0,994.5,8.1,20.5,109,46.1,37.5,3,5,7,1,2026-04-08T14:36:11.477977+05:30
Durgapur,West Bengal,23.5204,87.3119,29.8,62,0.0,994.0,8.7,28.1,148,65.2,55.5,7,5,7,1,2026-04-08T14:36:11.478013+05:30
Asansol,West Bengal,23.6739,86.9524,27.8,70,0.0,992.7,8.7,27.4,139,68.9,57.0,7,5,7,1,2026-04-08T14:36:11.478024+05:30
Pondicherry,Puducherry,11.9139,79.8145,37.0,49,0.0,1006.0,9.3,25.6,81,31.4,23.7,0,5,7,1,2026-04-08T14:36:11.478031+05:30
Port Blair,Andaman and Nicobar Islands,11.6234,92.7265,29.6,73,0.0,1007.1,9.2,10.4,30,7.3,4.9,7,5,4,1,2026-04-08T14:36:11.478039+05:30
Haridwar,Uttarakhand,29.9457,78.1642,20.0,83,0.0,975.2,5.7,25.2,73,59.8,22.9,3,5,3,1,2026-04-08T14:36:11.478047+05:30
Rishikesh,Uttarakhand,30.0869,78.2676,19.6,84,0.0,967.4,4.4,24.5,78,30.2,11.3,3,10,3,1,2026-04-08T14:36:11.478054+05:30
Nainital,Uttarakhand,29.3919,79.4542,11.9,94,1.2,802.5,4.65,55.4,84,33.4,15.0,6,10,3,0,2026-04-08T14:36:11.478061+05:30
Mussoorie,Uttarakhand,30.4599,78.0664,11.2,88,0.4,798.6,5.9,50.0,68,14.4,8.1,6,10,3,0,2026-04-08T14:36:11.478068+05:30
Dharamshala,Himachal Pradesh,32.219,76.3234,12.6,86,1.2,865.7,5.45,32.4,87,4.2,1.9,6,10,3,0,2026-04-08T14:36:11.478075+05:30
Dalhousie,Himachal Pradesh,32.5387,75.971,10.3,71,0.3,799.2,5.05,34.9,70,33.5,10.7,6,5,3,0,2026-04-08T14:36:11.478082+05:30
Patiala,Punjab,30.3398,76.3869,22.4,64,0.0,978.9,6.75,26.6,117,523.4,61.2,3,5,7,0,2026-04-08T14:36:11.478089+05:30
Bhatinda,Punjab,30.211,74.9455,24.5,45,0.0,984.2,7.45,24.8,104,83.4,27.8,0,5,7,0,2026-04-08T14:36:11.478096+05:30
Rohtak,Haryana,28.8955,76.6066,25.8,44,0.0,982.0,6.95,23.8,170,158.3,39.9,4,5,7,0,2026-04-08T14:36:11.478102+05:30
Panipat,Haryana,29.3909,76.9635,23.2,64,0.0,980.9,6.75,26.6,132,231.4,45.9,3,5,7,0,2026-04-08T14:36:11.478108+05:30
Mathura,Uttar Pradesh,27.4924,77.6737,28.6,35,0.0,986.6,7.25,29.2,314,222.1,37.0,4,5,7,0,2026-04-08T14:36:11.478115+05:30
Vrindavan,Uttar Pradesh,27.5823,77.7027,27.9,39,0.0,987.1,7.25,30.2,314,222.1,37.0,4,5,7,0,2026-04-08T14:36:11.478122+05:30
Ayodhya,Uttar Pradesh,26.7922,82.1998,24.6,61,0.0,996.4,7.65,38.9,88,63.6,26.3,3,5,7,1,2026-04-08T14:36:11.478129+05:30
Ratlam,Madhya Pradesh,23.3315,75.0367,30.5,40,0.0,954.0,8.25,45.0,65,35.0,14.3,0,5,7,0,2026-04-08T14:36:11.478136+05:30
Sagar,Madhya Pradesh,23.8388,78.7378,31.4,31,0.0,949.1,7.7,47.2,69,44.5,16.4,0,5,7,0,2026-04-08T14:36:11.478142+05:30
Satna,Madhya Pradesh,24.6005,80.8322,31.5,36,0.0,969.8,8.4,42.5,76,65.7,22.9,0,5,7,0,2026-04-08T14:36:11.478149+05:30
Akola,Maharashtra,20.7002,77.0082,35.6,30,0.0,974.2,8.7,46.8,67,88.0,25.8,0,5,10,0,2026-04-08T14:36:11.478156+05:30
Amravati,Maharashtra,20.9374,77.7796,35.8,29,0.0,965.9,8.7,42.1,66,89.6,26.0,0,5,10,0,2026-04-08T14:36:11.478163+05:30
Latur,Maharashtra,18.4088,76.5604,35.7,20,0.0,939.6,8.95,34.2,73,82.9,23.5,0,5,10,0,2026-04-08T14:36:11.478170+05:30
Nanded,Maharashtra,19.1383,77.3091,36.9,23,0.0,967.9,8.85,31.7,78,103.1,26.2,0,5,10,0,2026-04-08T14:36:11.478177+05:30
Gulbarga,Karnataka,17.3297,76.8343,38.8,17,0.0,958.0,9.05,31.7,69,72.6,22.8,0,5,10,0,2026-04-08T14:36:11.478183+05:30
Bidar,Karnataka,17.9104,77.5199,36.6,20,0.0,935.5,9.0,28.8,77,80.1,23.8,0,5,10,0,2026-04-08T14:36:11.478189+05:30
Hospet,Karnataka,15.2689,76.3909,36.4,23,0.0,955.5,9.25,27.0,62,37.3,17.3,0,5,10,0,2026-04-08T14:36:11.478196+05:30
Tirupur,Tamil Nadu,11.1085,77.3411,38.5,26,0.0,973.5,9.5,40.0,95,8.4,7.5,0,5,10,0,2026-04-08T14:36:11.478202+05:30
Alappuzha,Kerala,9.4981,76.3388,29.7,70,0.0,1007.8,8.85,31.0,59,24.6,14.8,7,5,4,1,2026-04-08T14:36:11.478208+05:30
Munnar,Kerala,10.0889,77.0595,28.8,53,0.0,858.7,9.6,39.2,61,27.3,20.7,4,5,7,1,2026-04-08T14:36:11.478216+05:30
Silchar,Assam,24.8333,92.7789,31.0,48,0.0,1005.0,8.45,23.0,100,29.5,22.2,0,5,4,1,2026-04-08T14:36:11.478222+05:30
Dibrugarh,Assam,27.4728,94.912,26.1,61,0.0,996.7,8.0,17.3,68,26.1,17.9,7,5,7,1,2026-04-08T14:36:11.478228+05:30
