city,state,latitude,longitude,temp,humidity,rain,pressure,uv_index,wind_gusts,aqi,pm10,pm2_5,mosquito_risk,arthritis_risk,migraine_risk,frizz_risk,updated_at
Delhi,Delhi,28.6139,77.209,37.4,17,0.0,978.8,7.25,31.7,365,635.2,69.4,0,5,10,0,2026-04-20T17:36:38.432739+05:30
Mumbai,Maharashtra,19.076,72.8777,28.6,80,0.0,1005.2,8.05,22.3,125,32.9,21.0,7,5,4,1,2026-04-20T17:36:38.432780+05:30
Bangalore,Karnataka,12.9716,77.5946,33.9,26,0.0,909.2,9.55,22.0,183,27.4,22.3,0,5,7,0,2026-04-20T17:36:38.432795+05:30
Hyderabad,Telangana,17.385,78.4867,37.3,25,0.0,950.1,9.3,47.2,180,49.2,40.9,0,5,10,0,2026-04-20T17:36:38.432805+05:30
Chennai,Tamil Nadu,13.0827,80.2707,31.9,63,0.0,1004.2,9.25,35.6,38,13.9,9.7,3,5,4,1,2026-04-20T17:36:38.432814+05:30
Kolkata,West Bengal,22.5726,88.3639,30.8,77,0.0,1001.2,8.9,32.4,131,31.0,26.8,3,5,4,1,2026-04-20T17:36:38.432826+05:30
Pune,Maharashtra,18.5204,73.8567,35.7,29,0.0,946.3,8.55,43.9,152,42.7,37.1,0,5,10,0,2026-04-20T17:36:38.432834+05:30
Ahmedabad,Gujarat,23.0225,72.5714,38.8,22,0.0,998.7,8.15,24.8,90,35.3,11.5,0,5,10,0,2026-04-20T17:36:38.432841+05:30
Jaipur,Rajasthan,26.9124,75.7873,38.4,13,0.0,956.3,7.95,30.6,142,175.1,22.9,0,5,10,0,2026-04-20T17:36:38.432848+05:30
Lucknow,Uttar Pradesh,26.8467,80.9462,39.4,16,0.0,987.6,7.9,38.5,149,153.2,28.1,0,5,10,0,2026-04-20T17:36:38.432856+05:30
Kanpur,Uttar Pradesh,26.4499,80.3319,38.0,17,0.0,986.4,7.9,32.8,188,459.1,53.2,0,5,10,0,2026-04-20T17:36:38.432863+05:30
Chandigarh,Chandigarh,30.7333,76.7794,36.3,16,0.0,965.5,7.25,32.8,123,32.1,12.7,0,5,10,0,2026-04-20T17:36:38.432869+05:30
Srinagar,Jammu and Kashmir,34.0837,74.7973,19.6,49,0.0,843.0,8.25,26.6,97,35.6,15.5,0,5,7,0,2026-04-20T17:36:38.432876+05:30
Jammu,Jammu and Kashmir,32.7266,74.857,35.6,16,0.0,970.2,7.9,27.4,86,25.0,11.1,0,5,10,0,2026-04-20T17:36:38.432902+05:30
Amritsar,Punjab,31.634,74.8723,35.0,20,0.0,978.1,7.9,31.0,111,28.1,11.6,0,5,7,0,2026-04-20T17:36:38.432912+05:30
Ludhiana,Punjab,30.901,75.8573,36.9,13,0.0,975.5,7.5,32.8,105,48.1,13.6,0,5,10,0,2026-04-20T17:36:38.432922+05:30
Jalandhar,Punjab,31.326,75.5762,36.2,12,0.0,976.9,7.65,31.3,107,51.5,12.6,0,5,10,0,2026-04-20T17:36:38.432929+05:30
Dehradun,Uttarakhand,30.6284,78.0322,24.7,29,0.0,831.2,7.7,42.8,104,27.8,9.7,0,5,7,0,2026-04-20T17:36:38.432935+05:30
Shimla,Himachal Pradesh,31.1048,77.1734,23.0,22,0.0,787.2,7.75,46.8,113,31.3,11.9,0,5,7,0,2026-04-20T17:36:38.432942+05:30
Manali,Himachal Pradesh,32.2396,77.1887,21.9,35,0.0,822.1,9.85,29.2,111,19.6,6.4,0,5,7,0,2026-04-20T17:36:38.432948+05:30
Gurgaon,Haryana,28.4595,77.0266,37.8,16,0.0,977.4,7.4,30.6,1111,2130.9,202.1,0,5,10,0,2026-04-20T17:36:38.432955+05:30
Noida,Uttar Pradesh,28.5355,77.391,37.7,16,0.0,980.3,7.3,31.3,1111,2130.9,202.1,0,5,10,0,2026-04-20T17:36:38.432964+05:30
Ghaziabad,Uttar Pradesh,28.6692,77.4538,37.4,17,0.0,978.5,7.3,31.0,175,476.8,56.8,0,5,10,0,2026-04-20T17:36:38.432971+05:30
Faridabad,Haryana,28.4089,77.3178,37.8,16,0.0,979.5,7.35,32.8,1111,2130.9,202.1,0,5,10,0,2026-04-20T17:36:38.432978+05:30
Meerut,Uttar Pradesh,28.9845,77.7064,37.3,15,0.0,977.1,7.2,34.2,175,476.8,56.8,0,5,10,0,2026-04-20T17:36:38.432984+05:30
Agra,Uttar Pradesh,27.1767,78.0081,38.9,15,0.0,983.2,7.7,26.3,658,886.6,92.7,0,5,10,0,2026-04-20T17:36:38.432992+05:30
Varanasi,Uttar Pradesh,25.3176,82.9739,40.2,15,0.0,991.3,8.4,31.7,149,21.9,12.1,0,5,10,0,2026-04-20T17:36:38.432999+05:30
Prayagraj,Uttar Pradesh,25.4358,81.8463,39.5,18,0.0,989.9,7.85,25.9,139,41.3,13.8,0,5,10,0,2026-04-20T17:36:38.433006+05:30
Gorakhpur,Uttar Pradesh,26.7606,83.3732,40.0,13,0.0,990.5,8.35,36.0,170,133.6,29.7,0,5,10,0,2026-04-20T17:36:38.433012+05:30
Bareilly,Uttar Pradesh,28.367,79.4304,38.4,15,0.0,981.5,7.55,34.6,140,39.7,15.2,0,5,10,0,2026-04-20T17:36:38.433018+05:30
Aligarh,Uttar Pradesh,27.8974,78.088,38.9,15,0.0,980.7,7.45,34.9,529,1046.8,110.4,0,5,10,0,2026-04-20T17:36:38.433024+05:30
Moradabad,Uttar Pradesh,28.8386,78.7733,37.7,16,0.0,978.8,7.4,38.9,128,72.4,23.7,0,5,10,0,2026-04-20T17:36:38.433033+05:30
Saharanpur,Uttar Pradesh,29.9637,77.546,36.2,17,0.0,971.9,6.95,29.5,118,121.1,26.3,0,5,10,0,2026-04-20T17:36:38.433039+05:30
Jhansi,Uttar Pradesh,25.4484,78.5685,40.8,10,0.0,972.9,8.2,32.4,131,47.3,14.0,0,5,10,0,2026-04-20T17:36:41.689210+05:30
Surat,Gujarat,21.1702,72.8311,31.8,49,0.0,1003.9,7.85,24.5,97,37.1,33.4,0,5,4,1,2026-04-20T17:36:41.689240+05:30
Vadodara,Gujarat,22.3072,73.1812,38.7,19,0.0,1000.9,8.1,27.7,132,21.0,12.0,0,5,7,0,2026-04-20T17:36:41.689251+05:30
Rajkot,Gujarat,22.3039,70.8022,36.9,24,0.0,991.7,7.85,31.3,84,22.2,11.1,0,5,10,0,2026-04-20T17:36:41.689259+05:30
Thane,Maharashtra,19.2183,72.9781,30.0,71,0.0,1004.8,8.05,33.8,125,32.9,21.0,7,5,4,1,2026-04-20T17:36:41.689267+05:30
Nagpur,Maharashtra,21.1458,79.0882,38.1,20,0.0,969.7,8.5,37.4,131,27.0,23.3,0,5,10,0,2026-04-20T17:36:41.689275+05:30
Nashik,Maharashtra,19.9975,73.7898,34.0,32,0.0,943.8,8.3,34.9,133,22.2,15.9,0,5,7,0,2026-04-20T17:36:41.689282+05:30
Aurangabad,Maharashtra,19.8762,75.3433,37.2,19,0.0,941.7,8.95,23.8,129,30.5,25.6,0,5,10,0,2026-04-20T17:36:41.689290+05:30
Solapur,Maharashtra,17.6599,75.9064,37.0,24,0.0,954.0,8.7,20.2,156,38.0,30.3,0,5,10,0,2026-04-20T17:36:41.689298+05:30
Kolhapur,Maharashtra,16.705,74.2433,30.8,53,0.0,945.9,9.05,39.2,152,43.8,39.8,0,5,7,1,2026-04-20T17:36:41.689305+05:30
Goa,Goa,15.2993,74.124,30.8,68,0.0,994.9,9.0,30.2,86,36.1,24.6,3,5,7,1,2026-04-20T17:36:41.689313+05:30
Jodhpur,Rajasthan,26.2389,73.0243,38.2,18,0.0,979.9,8.15,27.0,115,230.0,29.4,0,5,10,0,2026-04-20T17:36:41.689320+05:30
Udaipur,Rajasthan,24.5854,73.7125,35.2,18,0.0,945.0,8.7,31.3,67,19.6,7.5,0,5,10,0,2026-04-20T17:36:41.689327+05:30
Kota,Rajasthan,25.2138,75.8648,39.8,12,0.0,974.5,8.25,28.8,99,28.4,8.0,0,5,10,0,2026-04-20T17:36:41.689335+05:30
Bikaner,Rajasthan,28.0229,73.3119,37.2,18,0.0,979.1,7.95,35.3,115,46.7,12.0,0,5,10,0,2026-04-20T17:36:41.689341+05:30
Ajmer,Rajasthan,26.4499,74.6399,36.6,16,0.0,952.3,8.1,26.3,104,81.7,13.9,0,5,10,0,2026-04-20T17:36:41.689349+05:30
Gwalior,Madhya Pradesh,26.2183,78.1828,38.3,14,0.0,978.8,8.0,38.2,135,87.3,20.8,0,5,10,0,2026-04-20T17:36:41.689356+05:30
Indore,Madhya Pradesh,22.7196,75.8577,36.0,16,0.0,946.1,8.6,37.8,114,18.6,13.6,0,5,10,0,2026-04-20T17:36:41.689363+05:30
Bhopal,Madhya Pradesh,23.2599,77.4126,38.4,14,0.0,950.6,7.5,34.9,113,16.4,13.5,0,5,10,0,2026-04-20T17:36:41.689370+05:30
Jabalpur,Madhya Pradesh,23.1815,79.9864,36.8,22,0.0,958.2,8.15,35.6,113,17.3,14.9,0,5,10,0,2026-04-20T17:36:41.689377+05:30
Ujjain,Madhya Pradesh,23.1765,75.7885,36.0,18,0.0,951.9,8.55,36.0,101,16.4,12.5,0,5,10,0,2026-04-20T17:36:41.689385+05:30
Visakhapatnam,Andhra Pradesh,17.6868,83.2185,30.4,71,0.0,1001.0,9.2,41.8,53,19.2,14.4,3,5,4,1,2026-04-20T17:36:41.689392+05:30
Vijayawada,Andhra Pradesh,16.5062,80.648,35.8,47,0.0,998.5,9.2,27.0,63,25.4,22.1,0,5,10,1,2026-04-20T17:36:41.689399+05:30
Guntur,Andhra Pradesh,16.3067,80.4365,33.7,56,0.0,1000.0,9.25,30.2,88,28.2,24.3,0,5,4,1,2026-04-20T17:36:41.689405+05:30
Nellore,Andhra Pradesh,14.4426,79.9865,32.8,61,0.0,1002.1,9.25,38.9,84,21.4,17.0,3,5,4,1,2026-04-20T17:36:41.689413+05:30
Kurnool,Andhra Pradesh,15.8281,78.0373,39.2,24,0.0,972.5,9.2,43.2,151,47.0,36.9,0,5,10,0,2026-04-20T17:36:41.689421+05:30
Kakinada,Andhra Pradesh,16.9891,82.2475,33.4,57,0.0,1003.9,9.2,33.1,38,18.8,12.8,0,5,4,1,2026-04-20T17:36:41.689427+05:30
Tirupati,Andhra Pradesh,13.6288,79.4192,36.0,34,0.0,987.8,9.3,32.4,99,22.5,19.7,0,5,10,1,2026-04-20T17:36:41.689434+05:30
Warangal,Telangana,17.9689,79.5941,38.7,26,0.0,974.6,9.15,27.7,174,50.8,44.2,0,5,10,0,2026-04-20T17:36:41.689441+05:30
Nizamabad,Telangana,18.6725,78.0941,37.4,26,0.0,961.7,9.1,33.8,135,41.2,34.2,0,5,10,0,2026-04-20T17:36:41.689447+05:30
Mysore,Karnataka,12.2958,76.6396,34.1,26,0.0,925.5,9.45,40.7,164,29.0,24.0,0,5,7,0,2026-04-20T17:36:41.689454+05:30
Mangalore,Karnataka,12.9141,74.856,30.2,80,0.0,1003.5,9.1,23.8,85,37.4,22.3,3,5,4,1,2026-04-20T17:36:41.689461+05:30
Hubli-Dharwad,Karnataka,15.3647,75.124,30.7,58,0.0,938.4,9.2,33.8,169,49.9,39.3,0,5,7,1,2026-04-20T17:36:41.689468+05:30
Belgaum,Karnataka,15.8497,74.4977,29.3,61,0.0,923.9,9.25,30.2,176,38.8,33.1,7,5,7,1,2026-04-20T17:36:44.954411+05:30
Coimbatore,Tamil Nadu,11.0168,76.9558,35.2,29,0.0,958.2,9.4,47.2,156,27.7,24.8,0,5,10,0,2026-04-20T17:36:44.954441+05:30
Madurai,Tamil Nadu,9.9252,78.1198,34.1,50,0.0,989.4,9.3,45.0,121,15.5,12.9,0,5,7,1,2026-04-20T17:36:44.954451+05:30
Trichy,Tamil Nadu,10.7905,78.7047,36.8,34,0.0,995.4,9.3,29.2,89,15.1,12.8,0,5,10,1,2026-04-20T17:36:44.954459+05:30
Salem,Tamil Nadu,11.6643,78.146,37.4,26,0.0,973.1,9.35,21.2,124,18.2,15.1,0,5,10,0,2026-04-20T17:36:44.954466+05:30
Tirunelveli,Tamil Nadu,8.7139,77.7567,34.3,47,0.0,999.5,9.2,56.2,93,18.7,16.1,0,5,7,1,2026-04-20T17:36:44.954474+05:30
Vellore,Tamil Nadu,12.9165,79.1325,35.1,37,0.0,980.9,9.35,34.2,102,21.6,19.1,0,5,10,1,2026-04-20T17:36:44.954481+05:30
Erode,Tamil Nadu,11.341,77.7172,38.1,29,0.0,984.3,9.35,31.7,140,17.6,14.8,0,5,10,1,2026-04-20T17:36:44.954489+05:30
Kochi,Kerala,9.9312,76.2673,29.7,82,0.0,1005.1,9.05,31.3,74,21.3,16.6,7,5,4,1,2026-04-20T17:36:44.954496+05:30
Thiruvananthapuram,Kerala,8.5241,76.9366,29.1,81,0.0,1005.3,8.9,31.7,65,21.9,14.9,7,5,4,1,2026-04-20T17:36:44.954504+05:30
Kozhikode,Kerala,11.2588,75.7804,30.7,76,0.0,1004.4,9.1,30.6,64,34.3,21.8,3,5,4,1,2026-04-20T17:36:44.954510+05:30
Thrissur,Kerala,10.5276,76.2144,31.5,71,0.0,1003.4,9.05,36.4,77,22.8,18.2,3,5,4,1,2026-04-20T17:36:44.954517+05:30
Kannur,Kerala,11.8745,75.3704,31.2,67,0.0,1004.2,9.1,31.3,73,32.4,20.9,3,5,4,1,2026-04-20T17:36:44.954524+05:30
Patna,Bihar,25.5941,85.1376,38.6,25,0.0,993.4,8.05,28.8,190,69.8,25.9,0,5,10,0,2026-04-20T17:36:44.954530+05:30
Gaya,Bihar,24.7914,85.0002,39.4,15,0.0,987.5,8.5,34.2,169,56.8,21.8,0,5,10,0,2026-04-20T17:36:44.954536+05:30
Muzaffarpur,Bihar,26.1209,85.3647,36.2,44,0.0,993.6,8.25,27.4,181,78.5,34.2,0,5,10,1,2026-04-20T17:36:44.954542+05:30
Bhagalpur,Bihar,25.2425,87.0117,35.0,59,0.0,994.9,8.65,19.1,199,82.4,46.4,0,5,7,1,2026-04-20T17:36:44.954549+05:30
Ranchi,Jharkhand,23.3441,85.3096,32.9,37,0.0,934.7,9.25,35.3,147,37.8,13.9,0,5,7,1,2026-04-20T17:36:44.954555+05:30
Jamshedpur,Jharkhand,22.8046,86.2029,30.9,64,0.0,986.9,9.05,42.8,200,64.7,31.4,3,5,7,1,2026-04-20T17:36:44.954561+05:30
Dhanbad,Jharkhand,23.7957,86.4304,39.6,16,0.0,974.5,9.0,29.5,166,68.7,33.1,0,5,10,0,2026-04-20T17:36:44.954567+05:30
Bokaro,Jharkhand,23.6693,86.1511,34.1,43,0.0,978.9,8.8,36.7,162,63.8,30.9,0,5,7,1,2026-04-20T17:36:44.954573+05:30
Bhubaneswar,Odisha,20.2961,85.8245,30.3,72,0.0,999.3,9.1,34.9,118,20.5,17.1,3,5,7,1,2026-04-20T17:36:44.954579+05:30
Cuttack,Odisha,20.4625,85.8828,33.3,63,0.0,1000.9,9.15,32.4,118,20.5,17.1,3,5,4,1,2026-04-20T17:36:44.954586+05:30
Rourkela,Odisha,22.2604,84.8536,34.8,46,0.0,980.9,8.85,52.2,204,50.4,28.3,0,5,7,1,2026-04-20T17:36:44.954592+05:30
Raipur,Chhattisgarh,21.2514,81.6296,39.6,19,0.0,970.1,8.65,40.3,165,31.8,23.2,0,5,10,0,2026-04-20T17:36:44.954598+05:30
Bhilai,Chhattisgarh,21.1938,81.3509,39.3,19,0.0,970.4,8.25,38.2,156,24.9,21.4,0,5,10,0,2026-04-20T17:36:44.954603+05:30
Guwahati,Assam,26.1158,91.7086,28.7,79,0.0,996.3,8.5,36.4,89,23.6,17.9,7,5,7,1,2026-04-20T17:36:44.954609+05:30
Agartala,Tripura,23.8315,91.2868,32.0,64,0.0,1001.5,8.6,33.1,107,43.2,38.3,3,5,4,1,2026-04-20T17:36:44.954615+05:30
Shillong,Meghalaya,25.5788,91.8933,18.5,83,0.0,854.0,6.8,72.0,66,29.0,22.5,3,10,7,0,2026-04-20T17:36:44.954621+05:30
Imphal,Manipur,24.817,93.9368,21.8,83,0.0,920.5,9.15,68.4,104,45.2,36.6,3,5,7,1,2026-04-20T17:36:44.954627+05:30
Aizawl,Mizoram,23.7271,92.7176,23.8,75,0.0,891.1,8.95,69.8,127,52.7,44.9,3,5,7,1,2026-04-20T17:36:44.954633+05:30
Kohima,Nagaland,25.6701,94.1077,19.5,74,0.0,852.9,8.2,102.6,79,37.6,25.5,3,5,7,0,2026-04-20T17:36:44.954639+05:30
Gangtok,Sikkim,27.3314,88.6138,19.7,83,0.0,835.7,8.8,19.1,105,16.7,13.2,3,10,7,1,2026-04-20T17:36:44.954645+05:30
Siliguri,West Bengal,26.7271,88.3953,26.7,79,0.0,988.9,8.45,23.0,112,34.6,29.2,7,5,7,1,2026-04-20T17:36:48.221793+05:30
Durgapur,West Bengal,23.5204,87.3119,29.0,74,0.0,990.7,8.9,44.3,209,81.3,43.4,7,5,7,1,2026-04-20T17:36:48.221824+05:30
Asansol,West Bengal,23.6739,86.9524,30.7,63,0.0,988.7,8.95,48.2,178,64.3,30.2,3,5,7,1,2026-04-20T17:36:48.221833+05:30
Pondicherry,Puducherry,11.9139,79.8145,32.7,57,0.0,1005.1,9.25,33.1,33,11.3,7.6,0,5,4,1,2026-04-20T17:36:48.221841+05:30
Port Blair,Andaman and Nicobar Islands,11.6234,92.7265,29.8,72,0.0,1005.7,9.05,17.3,64,19.0,15.5,7,5,4,1,2026-04-20T17:36:48.221849+05:30
Haridwar,Uttarakhand,29.9457,78.1642,36.0,18,0.0,970.5,7.05,33.8,105,55.5,16.5,0,5,10,0,2026-04-20T17:36:48.221856+05:30
Rishikesh,Uttarakhand,30.0869,78.2676,33.8,24,0.0,963.6,7.2,36.7,95,42.4,13.0,0,5,7,0,2026-04-20T17:36:48.221864+05:30
Nainital,Uttarakhand,29.3919,79.4542,27.5,18,0.0,807.5,8.05,60.1,119,31.3,12.0,4,5,7,0,2026-04-20T17:36:48.221872+05:30
Mussoorie,Uttarakhand,30.4599,78.0664,25.0,27,0.0,804.2,7.55,46.4,98,33.6,12.0,4,5,7,0,2026-04-20T17:36:48.221880+05:30
Dharamshala,Himachal Pradesh,32.219,76.3234,27.8,25,0.0,869.3,7.8,31.7,92,29.5,8.8,4,5,7,0,2026-04-20T17:36:48.221923+05:30
Dalhousie,Himachal Pradesh,32.5387,75.971,26.6,17,0.0,805.8,8.1,31.0,92,32.8,10.0,4,5,7,1,2026-04-20T17:36:48.221939+05:30
Patiala,Punjab,30.3398,76.3869,37.3,12,0.0,974.6,7.15,28.4,353,570.0,55.5,0,5,10,0,2026-04-20T17:36:48.221949+05:30
Bhatinda,Punjab,30.211,74.9455,37.9,14,0.0,980.3,7.8,31.3,122,43.0,12.3,0,5,10,0,2026-04-20T17:36:48.221956+05:30
Rohtak,Haryana,28.8955,76.6066,37.3,16,0.0,978.0,7.3,32.0,674,949.9,92.9,0,5,10,0,2026-04-20T17:36:48.221963+05:30
Panipat,Haryana,29.3909,76.9635,37.4,17,0.0,976.5,7.1,26.6,1211,1676.4,155.5,0,5,10,0,2026-04-20T17:36:48.221969+05:30
Mathura,Uttar Pradesh,27.4924,77.6737,38.7,16,0.0,982.3,7.6,26.6,734,1039.4,101.0,0,5,10,0,2026-04-20T17:36:48.221976+05:30
Vrindavan,Uttar Pradesh,27.5823,77.7027,39.1,16,0.0,982.5,7.55,26.3,734,1039.4,101.0,0,5,10,0,2026-04-20T17:36:48.221982+05:30
Ayodhya,Uttar Pradesh,26.7922,82.1998,40.0,12,0.0,989.0,8.1,37.1,160,111.3,26.8,0,5,10,0,2026-04-20T17:36:48.221988+05:30
Ratlam,Madhya Pradesh,23.3315,75.0367,33.8,29,0.0,952.7,8.45,29.9,107,16.2,11.8,0,5,7,0,2026-04-20T17:36:48.221995+05:30
Sagar,Madhya Pradesh,23.8388,78.7378,38.4,15,0.0,946.9,7.95,36.0,109,13.2,10.8,0,5,10,0,2026-04-20T17:36:48.222001+05:30
Satna,Madhya Pradesh,24.6005,80.8322,38.5,17,0.0,967.3,7.65,41.8,126,15.4,10.5,0,5,10,0,2026-04-20T17:36:48.222007+05:30
Akola,Maharashtra,20.7002,77.0082,39.5,19,0.0,971.3,8.9,29.5,138,26.8,22.6,0,5,10,0,2026-04-20T17:36:48.222014+05:30
Amravati,Maharashtra,20.9374,77.7796,37.3,24,0.0,964.0,8.8,27.0,138,21.5,18.4,0,5,10,0,2026-04-20T17:36:48.222022+05:30
Latur,Maharashtra,18.4088,76.5604,33.6,32,0.0,937.9,8.65,24.5,145,43.5,34.6,0,5,7,0,2026-04-20T17:36:48.222028+05:30
Nanded,Maharashtra,19.1383,77.3091,37.7,24,0.0,965.3,8.75,21.2,139,39.9,31.1,0,5,10,0,2026-04-20T17:36:48.222034+05:30
Gulbarga,Karnataka,17.3297,76.8343,36.3,27,0.0,955.5,9.1,39.2,167,44.9,34.9,0,5,10,0,2026-04-20T17:36:48.222040+05:30
Bidar,Karnataka,17.9104,77.5199,32.2,40,0.0,933.9,9.15,42.5,141,45.2,34.0,0,5,7,1,2026-04-20T17:36:48.222046+05:30
Hospet,Karnataka,15.2689,76.3909,36.9,27,0.0,952.3,9.25,22.7,182,53.6,42.5,0,5,10,0,2026-04-20T17:36:48.222053+05:30
Tirupur,Tamil Nadu,11.1085,77.3411,37.4,26,0.0,971.0,9.4,29.2,159,19.9,16.7,0,5,10,0,2026-04-20T17:36:48.222059+05:30
Alappuzha,Kerala,9.4981,76.3388,29.7,82,0.0,1004.9,9.0,29.2,73,22.9,16.3,7,5,4,1,2026-04-20T17:36:48.222066+05:30
Munnar,Kerala,10.0889,77.0595,26.5,73,0.0,856.0,9.65,32.0,96,15.1,12.5,7,5,7,1,2026-04-20T17:36:48.222073+05:30
Silchar,Assam,24.8333,92.7789,28.6,77,0.0,1001.1,8.6,42.5,115,47.7,37.7,7,5,4,1,2026-04-20T17:36:48.222080+05:30
Dibrugarh,Assam,27.4728,94.912,26.4,81,0.0,991.6,8.75,16.6,110,23.2,20.3,7,5,7,1,2026-04-20T17:36:48.222086+05:30
