city,state,latitude,longitude,temp,humidity,rain,pressure,uv_index,wind_gusts,aqi,pm10,pm2_5,mosquito_risk,arthritis_risk,migraine_risk,frizz_risk,updated_at
Delhi,Delhi,28.6139,77.209,27.8,53,0.0,987.8,6.5,27.4,158,286.8,64.0,4,5,7,1,2026-03-24T11:34:01.422855+05:30
Mumbai,Maharashtra,19.076,72.8777,29.7,64,0.0,1009.9,7.8,27.4,105,79.6,58.3,7,0,4,1,2026-03-24T11:34:01.422892+05:30
Bangalore,Karnataka,12.9716,77.5946,29.5,43,0.0,914.6,9.5,24.1,79,31.3,23.1,4,5,7,0,2026-03-24T11:34:01.422907+05:30
Hyderabad,Telangana,17.385,78.4867,33.4,37,0.0,956.0,8.95,37.1,83,32.2,22.1,0,5,7,1,2026-03-24T11:34:01.422917+05:30
Chennai,Tamil Nadu,13.0827,80.2707,32.5,53,0.0,1010.2,9.2,33.5,35,15.4,9.2,0,0,4,1,2026-03-24T11:34:01.422926+05:30
Kolkata,West Bengal,22.5726,88.3639,29.8,61,0.0,1009.7,8.3,21.6,151,49.8,38.4,7,0,4,1,2026-03-24T11:34:01.422935+05:30
Pune,Maharashtra,18.5204,73.8567,34.7,28,0.0,951.0,8.5,30.6,93,31.1,16.5,0,5,7,0,2026-03-24T11:34:01.422947+05:30
Ahmedabad,Gujarat,23.0225,72.5714,32.9,41,0.0,1005.5,7.35,17.6,75,28.5,12.9,0,5,4,1,2026-03-24T11:34:01.422954+05:30
Jaipur,Rajasthan,26.9124,75.7873,28.9,46,0.0,964.4,7.25,19.8,136,98.5,26.3,4,5,7,1,2026-03-24T11:34:01.422962+05:30
Lucknow,Uttar Pradesh,26.8467,80.9462,29.6,45,0.0,997.8,7.05,32.8,122,58.6,27.2,4,5,7,1,2026-03-24T11:34:01.422969+05:30
Kanpur,Uttar Pradesh,26.4499,80.3319,28.5,50,0.0,996.4,7.05,28.1,141,112.7,28.4,4,5,7,1,2026-03-24T11:34:01.422977+05:30
Chandigarh,Chandigarh,30.7333,76.7794,26.7,48,0.0,973.6,6.5,34.6,105,40.2,28.5,4,5,7,0,2026-03-24T11:34:01.422984+05:30
Srinagar,Jammu and Kashmir,34.0837,74.7973,13.2,62,0.0,845.3,7.55,16.2,72,16.5,12.4,3,5,7,0,2026-03-24T11:34:01.422992+05:30
Jammu,Jammu and Kashmir,32.7266,74.857,26.8,43,0.0,977.8,7.15,30.6,73,14.8,10.0,4,5,7,0,2026-03-24T11:34:01.422999+05:30
Amritsar,Punjab,31.634,74.8723,27.1,55,0.0,986.1,7.15,25.2,130,64.7,39.6,4,5,7,1,2026-03-24T11:34:01.423006+05:30
Ludhiana,Punjab,30.901,75.8573,27.3,50,0.0,983.8,6.75,29.9,156,54.8,39.9,4,5,7,0,2026-03-24T11:34:01.423013+05:30
Jalandhar,Punjab,31.326,75.5762,26.9,54,0.0,985.1,6.95,28.1,147,51.9,30.7,4,5,7,1,2026-03-24T11:34:01.423022+05:30
Dehradun,Uttarakhand,30.6284,78.0322,16.7,59,0.0,832.3,6.9,34.9,46,9.7,4.6,0,5,7,0,2026-03-24T11:34:01.423029+05:30
Shimla,Himachal Pradesh,31.1048,77.1734,15.3,57,0.0,787.2,7.0,53.3,58,17.6,8.6,0,5,7,0,2026-03-24T11:34:01.423036+05:30
Manali,Himachal Pradesh,32.2396,77.1887,18.0,24,0.0,821.0,9.15,29.5,89,7.6,3.9,0,5,7,1,2026-03-24T11:34:01.423045+05:30
Gurgaon,Haryana,28.4595,77.0266,28.1,54,0.0,986.2,6.65,25.2,249,540.2,78.0,4,5,7,1,2026-03-24T11:34:01.423052+05:30
Noida,Uttar Pradesh,28.5355,77.391,28.0,54,0.0,989.3,6.5,26.6,249,540.2,78.0,4,5,7,1,2026-03-24T11:34:01.423059+05:30
Ghaziabad,Uttar Pradesh,28.6692,77.4538,27.4,60,0.0,987.5,6.35,27.4,154,281.3,64.7,4,5,7,1,2026-03-24T11:34:01.423066+05:30
Faridabad,Haryana,28.4089,77.3178,28.0,54,0.0,988.6,6.6,25.6,249,540.2,78.0,4,5,7,1,2026-03-24T11:34:01.423073+05:30
Meerut,Uttar Pradesh,28.9845,77.7064,27.4,56,0.0,986.2,6.3,30.6,154,281.3,64.7,4,5,7,1,2026-03-24T11:34:01.423079+05:30
Agra,Uttar Pradesh,27.1767,78.0081,30.7,41,0.0,992.6,6.55,28.8,155,319.4,59.4,0,5,7,0,2026-03-24T11:34:01.423086+05:30
Varanasi,Uttar Pradesh,25.3176,82.9739,30.8,41,0.0,1001.6,7.75,27.7,142,119.7,39.7,0,5,4,0,2026-03-24T11:34:01.423095+05:30
Prayagraj,Uttar Pradesh,25.4358,81.8463,29.3,47,0.0,1000.5,7.6,23.0,114,104.3,33.8,4,5,4,1,2026-03-24T11:34:01.423102+05:30
Gorakhpur,Uttar Pradesh,26.7606,83.3732,29.3,48,0.0,1001.1,7.45,34.6,152,52.7,26.4,4,5,4,1,2026-03-24T11:34:01.423109+05:30
Bareilly,Uttar Pradesh,28.367,79.4304,27.3,61,0.0,991.4,6.8,31.0,113,102.9,38.0,7,5,7,1,2026-03-24T11:34:01.423117+05:30
Aligarh,Uttar Pradesh,27.8974,78.088,28.2,57,0.0,990.5,6.55,28.1,157,254.3,57.6,4,5,7,1,2026-03-24T11:34:01.423124+05:30
Moradabad,Uttar Pradesh,28.8386,78.7733,27.1,59,0.0,988.2,6.6,32.4,141,124.8,42.4,4,5,7,1,2026-03-24T11:34:01.423130+05:30
Saharanpur,Uttar Pradesh,29.9637,77.546,26.8,55,0.0,980.2,6.25,38.2,161,69.8,51.3,4,5,7,1,2026-03-24T11:34:01.423136+05:30
Jhansi,Uttar Pradesh,25.4484,78.5685,30.9,38,0.0,982.3,7.3,27.4,132,128.5,33.9,0,5,7,0,2026-03-24T11:34:04.724947+05:30
Surat,Gujarat,21.1702,72.8311,31.7,45,0.0,1009.4,7.15,24.8,143,65.9,54.9,0,0,4,1,2026-03-24T11:34:04.724974+05:30
Vadodara,Gujarat,22.3072,73.1812,34.1,37,0.0,1007.5,7.85,23.4,91,21.0,16.5,0,5,4,1,2026-03-24T11:34:04.724984+05:30
Rajkot,Gujarat,22.3039,70.8022,29.8,57,0.0,998.2,7.1,24.5,44,19.4,7.9,4,5,7,1,2026-03-24T11:34:04.724991+05:30
Thane,Maharashtra,19.2183,72.9781,35.5,29,0.0,1009.4,7.85,41.4,105,79.6,58.3,0,0,7,0,2026-03-24T11:34:04.724998+05:30
Nagpur,Maharashtra,21.1458,79.0882,33.7,29,0.0,976.2,8.45,26.6,92,48.5,38.9,0,5,7,0,2026-03-24T11:34:04.725005+05:30
Nashik,Maharashtra,19.9975,73.7898,30.7,35,0.0,948.5,8.0,36.0,70,38.6,17.9,0,5,7,0,2026-03-24T11:34:04.725011+05:30
Aurangabad,Maharashtra,19.8762,75.3433,33.5,29,0.0,947.1,8.6,29.5,57,31.5,14.5,0,5,7,0,2026-03-24T11:34:04.725017+05:30
Solapur,Maharashtra,17.6599,75.9064,35.0,29,0.0,959.6,8.8,23.8,91,42.4,31.5,0,5,7,0,2026-03-24T11:34:04.725024+05:30
Kolhapur,Maharashtra,16.705,74.2433,32.1,37,0.0,950.6,8.95,48.6,115,40.6,29.3,0,5,7,0,2026-03-24T11:34:04.725030+05:30
Goa,Goa,15.2993,74.124,32.1,61,0.0,1000.1,8.9,29.9,101,41.6,29.8,3,5,4,1,2026-03-24T11:34:04.725037+05:30
Jodhpur,Rajasthan,26.2389,73.0243,33.6,24,0.0,986.9,7.55,18.0,70,38.2,11.9,0,5,7,0,2026-03-24T11:34:04.725043+05:30
Udaipur,Rajasthan,24.5854,73.7125,30.9,29,0.0,950.4,7.6,20.5,57,63.8,15.0,0,5,7,0,2026-03-24T11:34:04.725049+05:30
Kota,Rajasthan,25.2138,75.8648,32.9,35,0.0,982.8,7.65,14.0,114,95.0,32.9,0,5,7,0,2026-03-24T11:34:04.725055+05:30
Bikaner,Rajasthan,28.0229,73.3119,32.4,26,0.0,986.0,7.2,15.8,64,52.5,18.8,0,5,7,0,2026-03-24T11:34:04.725061+05:30
Ajmer,Rajasthan,26.4499,74.6399,30.0,39,0.0,958.7,7.55,15.5,103,57.3,17.9,4,5,7,0,2026-03-24T11:34:04.725067+05:30
Gwalior,Madhya Pradesh,26.2183,78.1828,30.9,40,0.0,987.8,7.3,28.4,129,145.8,36.2,0,5,7,0,2026-03-24T11:34:04.725074+05:30
Indore,Madhya Pradesh,22.7196,75.8577,31.6,34,0.0,951.6,8.15,23.0,60,40.6,16.9,0,5,7,0,2026-03-24T11:34:04.725080+05:30
Bhopal,Madhya Pradesh,23.2599,77.4126,33.3,31,0.0,957.1,8.05,31.0,71,52.6,19.8,0,5,7,0,2026-03-24T11:34:04.725086+05:30
Jabalpur,Madhya Pradesh,23.1815,79.9864,33.0,31,0.0,964.5,8.15,29.9,77,52.2,24.0,0,5,7,0,2026-03-24T11:34:04.725091+05:30
Ujjain,Madhya Pradesh,23.1765,75.7885,31.0,41,0.0,957.4,8.05,19.1,63,46.1,20.3,0,5,7,1,2026-03-24T11:34:04.725098+05:30
Visakhapatnam,Andhra Pradesh,17.6868,83.2185,31.6,57,0.0,1007.1,8.95,36.0,87,33.3,24.6,0,5,4,1,2026-03-24T11:34:04.725103+05:30
Vijayawada,Andhra Pradesh,16.5062,80.648,31.7,58,0.0,1005.9,9.0,25.9,63,22.0,15.0,0,5,4,1,2026-03-24T11:34:04.725109+05:30
Guntur,Andhra Pradesh,16.3067,80.4365,32.3,55,0.0,1006.8,9.0,31.7,60,21.2,13.8,0,5,4,1,2026-03-24T11:34:04.725115+05:30
Nellore,Andhra Pradesh,14.4426,79.9865,33.1,53,0.0,1008.6,9.1,31.3,41,22.4,14.6,0,0,4,1,2026-03-24T11:34:04.725121+05:30
Kurnool,Andhra Pradesh,15.8281,78.0373,34.2,37,0.0,979.5,9.0,30.6,61,25.0,17.9,0,5,7,1,2026-03-24T11:34:04.725128+05:30
Kakinada,Andhra Pradesh,16.9891,82.2475,33.3,49,0.0,1010.6,8.95,30.2,51,21.8,12.5,0,0,4,1,2026-03-24T11:34:04.725134+05:30
Tirupati,Andhra Pradesh,13.6288,79.4192,31.6,55,0.0,994.8,9.25,31.3,63,23.9,17.6,0,5,7,1,2026-03-24T11:34:04.725140+05:30
Warangal,Telangana,17.9689,79.5941,33.0,50,0.0,981.8,8.8,28.1,91,25.6,19.5,0,5,7,1,2026-03-24T11:34:04.725145+05:30
Nizamabad,Telangana,18.6725,78.0941,34.9,33,0.0,967.5,8.75,26.3,93,44.4,32.6,0,5,7,1,2026-03-24T11:34:04.725151+05:30
Mysore,Karnataka,12.2958,76.6396,30.9,44,0.0,931.1,9.4,39.2,92,33.4,24.8,0,5,7,1,2026-03-24T11:34:04.725157+05:30
Mangalore,Karnataka,12.9141,74.856,28.4,82,0.0,1008.9,9.1,24.8,80,49.2,34.9,7,0,4,1,2026-03-24T11:34:04.725163+05:30
Hubli-Dharwad,Karnataka,15.3647,75.124,30.8,52,0.0,943.5,9.1,39.6,95,42.5,31.4,0,5,7,1,2026-03-24T11:34:04.725169+05:30
Belgaum,Karnataka,15.8497,74.4977,32.3,30,0.0,928.4,9.05,41.8,96,34.6,21.9,0,5,7,0,2026-03-24T11:34:07.974906+05:30
Coimbatore,Tamil Nadu,11.0168,76.9558,31.9,44,0.0,964.6,9.4,32.8,64,17.7,13.0,0,5,7,1,2026-03-24T11:34:07.974932+05:30
Madurai,Tamil Nadu,9.9252,78.1198,32.4,49,0.0,995.7,9.35,30.2,56,12.4,8.1,0,5,7,1,2026-03-24T11:34:07.974948+05:30
Trichy,Tamil Nadu,10.7905,78.7047,31.3,57,0.0,1002.8,9.3,23.4,55,13.6,11.3,0,5,4,1,2026-03-24T11:34:07.974956+05:30
Salem,Tamil Nadu,11.6643,78.146,32.2,50,0.0,980.1,9.35,25.2,77,36.0,29.3,0,5,7,1,2026-03-24T11:34:07.974963+05:30
Tirunelveli,Tamil Nadu,8.7139,77.7567,33.8,45,0.0,1005.6,9.35,37.8,53,8.3,5.4,0,5,4,1,2026-03-24T11:34:07.974970+05:30
Vellore,Tamil Nadu,12.9165,79.1325,31.9,49,0.0,987.6,9.3,35.6,69,18.7,11.7,0,5,7,1,2026-03-24T11:34:07.974977+05:30
Erode,Tamil Nadu,11.341,77.7172,32.2,51,0.0,991.9,9.35,21.6,56,21.0,15.2,0,5,7,1,2026-03-24T11:34:07.974983+05:30
Kochi,Kerala,9.9312,76.2673,28.3,81,0.0,1010.7,9.15,37.1,91,41.8,28.7,7,0,4,1,2026-03-24T11:34:07.974990+05:30
Thiruvananthapuram,Kerala,8.5241,76.9366,29.0,77,0.0,1009.6,9.2,30.2,63,26.0,18.9,7,0,4,1,2026-03-24T11:34:07.974996+05:30
Kozhikode,Kerala,11.2588,75.7804,30.0,71,0.0,1010.1,9.05,31.0,73,38.3,26.3,7,0,4,1,2026-03-24T11:34:07.975003+05:30
Thrissur,Kerala,10.5276,76.2144,33.3,54,0.0,1008.8,9.15,41.4,91,34.5,24.5,0,0,4,1,2026-03-24T11:34:07.975009+05:30
Kannur,Kerala,11.8745,75.3704,31.7,60,0.0,1009.4,9.1,28.4,72,44.4,30.6,0,0,4,1,2026-03-24T11:34:07.975016+05:30
Patna,Bihar,25.5941,85.1376,30.7,40,0.0,1003.9,7.9,34.2,157,116.6,42.4,0,5,4,0,2026-03-24T11:34:07.975022+05:30
Gaya,Bihar,24.7914,85.0002,30.2,45,0.0,997.7,7.85,22.3,113,134.1,38.6,0,5,7,1,2026-03-24T11:34:07.975028+05:30
Muzaffarpur,Bihar,26.1209,85.3647,29.7,49,0.0,1003.9,7.85,35.6,158,102.9,47.6,4,5,4,1,2026-03-24T11:34:07.975035+05:30
Bhagalpur,Bihar,25.2425,87.0117,29.6,54,0.0,1004.6,7.85,36.7,143,80.3,43.3,4,5,4,1,2026-03-24T11:34:07.975041+05:30
Ranchi,Jharkhand,23.3441,85.3096,27.9,43,0.0,941.5,8.6,36.7,68,51.8,21.8,4,5,7,0,2026-03-24T11:34:07.975047+05:30
Jamshedpur,Jharkhand,22.8046,86.2029,31.4,50,0.0,994.2,8.45,32.0,129,56.9,38.6,0,5,7,1,2026-03-24T11:34:07.975053+05:30
Dhanbad,Jharkhand,23.7957,86.4304,31.0,39,0.0,983.4,8.35,23.8,164,79.9,48.1,0,5,7,0,2026-03-24T11:34:07.975059+05:30
Bokaro,Jharkhand,23.6693,86.1511,30.7,41,0.0,987.4,8.35,24.8,154,73.3,37.5,0,5,7,0,2026-03-24T11:34:07.975065+05:30
Bhubaneswar,Odisha,20.2961,85.8245,32.3,56,0.0,1005.7,8.7,32.8,88,40.0,27.0,0,5,4,1,2026-03-24T11:34:07.975071+05:30
Cuttack,Odisha,20.4625,85.8828,32.7,55,0.0,1007.6,8.75,29.2,88,40.0,27.0,0,5,4,1,2026-03-24T11:34:07.975078+05:30
Rourkela,Odisha,22.2604,84.8536,32.8,38,0.0,988.4,8.4,25.9,89,58.1,42.4,0,5,7,1,2026-03-24T11:34:07.975084+05:30
Raipur,Chhattisgarh,21.2514,81.6296,34.2,30,0.0,977.8,8.45,28.1,109,56.1,46.0,0,5,7,0,2026-03-24T11:34:07.975090+05:30
Bhilai,Chhattisgarh,21.1938,81.3509,34.0,33,0.0,978.2,8.5,32.8,118,52.6,43.4,0,5,7,0,2026-03-24T11:34:07.975096+05:30
Guwahati,Assam,26.1158,91.7086,26.5,66,0.0,1005.4,7.7,28.4,93,30.9,27.9,7,5,4,1,2026-03-24T11:34:07.975102+05:30
Agartala,Tripura,23.8315,91.2868,28.5,57,0.0,1009.9,8.05,15.5,157,67.3,58.3,4,0,4,1,2026-03-24T11:34:07.975108+05:30
Shillong,Meghalaya,25.5788,91.8933,17.5,47,0.0,858.2,7.8,37.8,80,18.4,16.4,0,5,7,0,2026-03-24T11:34:07.975114+05:30
Imphal,Manipur,24.817,93.9368,20.9,56,0.0,925.5,7.8,40.3,88,30.9,24.3,0,5,7,0,2026-03-24T11:34:07.975120+05:30
Aizawl,Mizoram,23.7271,92.7176,22.9,45,0.0,896.0,8.35,29.9,98,43.1,34.7,0,5,7,0,2026-03-24T11:34:07.975126+05:30
Kohima,Nagaland,25.6701,94.1077,16.8,68,0.0,856.6,7.55,54.0,69,19.7,16.2,3,5,7,0,2026-03-24T11:34:07.975132+05:30
Gangtok,Sikkim,27.3314,88.6138,14.1,85,0.0,837.9,2.05,16.2,88,15.0,12.3,3,10,3,0,2026-03-24T11:34:07.975138+05:30
Siliguri,West Bengal,26.7271,88.3953,19.6,91,0.0,997.6,4.65,35.3,108,57.9,44.6,3,10,3,1,2026-03-24T11:34:11.232657+05:30
Durgapur,West Bengal,23.5204,87.3119,30.7,55,0.0,998.6,8.05,24.1,156,68.9,56.2,0,5,7,1,2026-03-24T11:34:11.232690+05:30
Asansol,West Bengal,23.6739,86.9524,30.9,51,0.0,997.1,7.75,24.8,154,73.6,52.3,0,5,7,1,2026-03-24T11:34:11.232703+05:30
Pondicherry,Puducherry,11.9139,79.8145,32.1,57,0.0,1011.3,9.2,30.2,30,11.7,7.6,0,0,4,1,2026-03-24T11:34:11.232713+05:30
Port Blair,Andaman and Nicobar Islands,11.6234,92.7265,28.4,68,0.0,1008.3,9.15,22.7,59,26.9,16.8,7,0,4,1,2026-03-24T11:34:11.232722+05:30
Haridwar,Uttarakhand,29.9457,78.1642,26.6,57,0.0,978.8,6.4,34.9,111,47.0,32.1,4,5,7,1,2026-03-24T11:34:11.232730+05:30
Rishikesh,Uttarakhand,30.0869,78.2676,25.5,57,0.0,971.2,6.45,32.4,88,31.7,20.6,4,5,7,1,2026-03-24T11:34:11.232738+05:30
Nainital,Uttarakhand,29.3919,79.4542,18.4,62,0.0,808.6,7.3,55.4,98,39.1,24.4,3,5,7,0,2026-03-24T11:34:11.232747+05:30
Mussoorie,Uttarakhand,30.4599,78.0664,16.9,67,0.0,805.1,6.8,40.0,80,32.5,20.2,3,5,7,0,2026-03-24T11:34:11.232755+05:30
Dharamshala,Himachal Pradesh,32.219,76.3234,20.1,57,0.0,872.3,7.05,27.0,67,16.6,6.1,0,5,7,0,2026-03-24T11:34:11.232763+05:30
Dalhousie,Himachal Pradesh,32.5387,75.971,18.4,47,0.0,806.9,7.3,23.8,72,23.6,11.7,0,5,7,0,2026-03-24T11:34:11.232772+05:30
Patiala,Punjab,30.3398,76.3869,27.4,50,0.0,983.1,6.4,33.1,158,62.6,46.8,4,5,7,1,2026-03-24T11:34:11.232780+05:30
Bhatinda,Punjab,30.211,74.9455,29.0,45,0.0,988.6,7.1,22.7,136,88.7,37.8,4,5,7,0,2026-03-24T11:34:11.232788+05:30
Rohtak,Haryana,28.8955,76.6066,28.2,51,0.0,986.6,6.55,24.8,156,300.8,57.2,4,5,7,1,2026-03-24T11:34:11.232796+05:30
Panipat,Haryana,29.3909,76.9635,27.9,50,0.0,985.2,6.35,29.5,153,368.8,62.4,4,5,7,1,2026-03-24T11:34:11.232806+05:30
Mathura,Uttar Pradesh,27.4924,77.6737,29.1,51,0.0,991.7,6.4,25.6,150,279.4,55.1,4,5,7,1,2026-03-24T11:34:11.232816+05:30
Vrindavan,Uttar Pradesh,27.5823,77.7027,28.8,53,0.0,992.1,6.45,28.1,150,279.4,55.1,4,5,7,1,2026-03-24T11:34:11.232823+05:30
Ayodhya,Uttar Pradesh,26.7922,82.1998,30.4,42,0.0,999.3,7.25,35.6,126,37.1,24.6,0,5,7,1,2026-03-24T11:34:11.232831+05:30
Ratlam,Madhya Pradesh,23.3315,75.0367,31.6,38,0.0,958.1,8.0,22.3,56,37.0,15.7,0,5,7,0,2026-03-24T11:34:11.232839+05:30
Sagar,Madhya Pradesh,23.8388,78.7378,32.2,33,0.0,953.8,8.05,26.3,72,73.1,26.0,0,5,7,0,2026-03-24T11:34:11.232846+05:30
Satna,Madhya Pradesh,24.6005,80.8322,30.4,41,0.0,975.3,7.6,29.9,83,92.4,30.9,0,5,7,0,2026-03-24T11:34:11.232853+05:30
Akola,Maharashtra,20.7002,77.0082,34.5,31,0.0,978.1,8.4,27.7,77,36.6,15.3,0,5,7,0,2026-03-24T11:34:11.232862+05:30
Amravati,Maharashtra,20.9374,77.7796,34.5,26,0.0,970.3,8.4,29.2,86,35.2,16.5,0,5,7,0,2026-03-24T11:34:11.232871+05:30
Latur,Maharashtra,18.4088,76.5604,32.4,34,0.0,942.7,8.75,19.8,95,47.5,33.5,0,5,7,0,2026-03-24T11:34:11.232879+05:30
Nanded,Maharashtra,19.1383,77.3091,35.0,32,0.0,971.3,8.6,22.7,100,36.2,24.0,0,5,7,0,2026-03-24T11:34:11.232887+05:30
Gulbarga,Karnataka,17.3297,76.8343,34.7,34,0.0,961.3,8.8,30.6,85,30.6,22.5,0,5,7,1,2026-03-24T11:34:11.232895+05:30
Bidar,Karnataka,17.9104,77.5199,32.8,36,0.0,938.4,8.85,34.2,91,37.7,26.8,0,5,7,0,2026-03-24T11:34:11.232903+05:30
Hospet,Karnataka,15.2689,76.3909,30.3,60,0.0,958.4,9.05,23.0,98,31.0,25.2,0,5,7,1,2026-03-24T11:34:11.232911+05:30
Tirupur,Tamil Nadu,11.1085,77.3411,32.5,47,0.0,978.1,9.4,28.1,64,22.5,16.8,0,5,7,1,2026-03-24T11:34:11.232919+05:30
Alappuzha,Kerala,9.4981,76.3388,28.6,78,0.0,1010.7,9.15,31.7,83,44.7,31.5,7,0,4,1,2026-03-24T11:34:11.232927+05:30
Munnar,Kerala,10.0889,77.0595,30.1,38,0.0,861.3,9.65,28.8,65,17.6,11.6,0,5,7,0,2026-03-24T11:34:11.232935+05:30
Silchar,Assam,24.8333,92.7789,27.8,57,0.0,1008.8,8.1,19.8,123,38.0,32.5,4,0,4,1,2026-03-24T11:34:11.232942+05:30
Dibrugarh,Assam,27.4728,94.912,21.9,83,0.0,999.7,6.95,15.5,77,17.7,15.2,3,5,7,1,2026-03-24T11:34:11.232948+05:30
