city,state,latitude,longitude,temp,humidity,rain,pressure,uv_index,wind_gusts,aqi,pm10,pm2_5,mosquito_risk,arthritis_risk,migraine_risk,frizz_risk,updated_at
Delhi,Delhi,28.6139,77.209,29.7,32,0.0,980.7,7.25,31.7,430,845.6,118.0,4,5,7,0,2026-04-20T21:43:26.806482+05:30
Mumbai,Maharashtra,19.076,72.8777,28.5,82,0.0,1008.1,8.05,22.3,82,41.6,23.9,7,0,4,1,2026-04-20T21:43:26.806528+05:30
Bangalore,Karnataka,12.9716,77.5946,28.2,44,0.0,912.0,9.55,22.0,158,25.0,23.0,4,5,7,0,2026-04-20T21:43:26.806545+05:30
Hyderabad,Telangana,17.385,78.4867,30.5,48,0.0,953.9,9.3,47.2,154,58.2,53.1,0,5,7,1,2026-04-20T21:43:26.806556+05:30
Chennai,Tamil Nadu,13.0827,80.2707,29.1,80,0.0,1007.5,9.25,35.6,39,13.5,9.4,7,5,4,1,2026-04-20T21:43:26.806565+05:30
Kolkata,West Bengal,22.5726,88.3639,28.3,86,0.0,1004.1,8.9,32.4,85,20.9,16.7,7,5,4,1,2026-04-20T21:43:26.806578+05:30
Pune,Maharashtra,18.5204,73.8567,29.3,54,0.0,948.5,8.55,43.9,169,48.2,44.6,4,5,7,1,2026-04-20T21:43:26.806585+05:30
Ahmedabad,Gujarat,23.0225,72.5714,31.5,30,0.0,1001.2,8.15,24.8,63,23.8,14.7,0,5,4,0,2026-04-20T21:43:26.806594+05:30
Jaipur,Rajasthan,26.9124,75.7873,32.5,19,0.0,958.4,7.95,30.6,139,181.6,34.2,0,5,7,0,2026-04-20T21:43:26.806602+05:30
Lucknow,Uttar Pradesh,26.8467,80.9462,31.8,28,0.0,990.2,7.9,38.5,121,194.2,39.6,0,5,7,0,2026-04-20T21:43:26.806610+05:30
Kanpur,Uttar Pradesh,26.4499,80.3319,29.4,39,0.0,988.4,7.9,32.8,191,374.4,58.3,4,5,7,0,2026-04-20T21:43:26.806618+05:30
Chandigarh,Chandigarh,30.7333,76.7794,25.6,35,0.0,966.6,7.25,32.8,105,32.0,19.6,4,5,7,0,2026-04-20T21:43:26.806625+05:30
Srinagar,Jammu and Kashmir,34.0837,74.7973,13.4,72,0.0,841.2,8.25,26.6,96,50.1,30.6,3,5,7,0,2026-04-20T21:43:26.806632+05:30
Jammu,Jammu and Kashmir,32.7266,74.857,27.6,45,0.0,970.9,7.9,27.4,66,45.5,32.2,4,5,7,0,2026-04-20T21:43:26.806640+05:30
Amritsar,Punjab,31.634,74.8723,26.6,40,0.0,979.3,7.9,31.0,95,31.4,22.2,4,5,7,0,2026-04-20T21:43:26.806649+05:30
Ludhiana,Punjab,30.901,75.8573,28.8,25,0.0,977.0,7.5,32.8,88,40.2,23.4,4,5,7,0,2026-04-20T21:43:26.806658+05:30
Jalandhar,Punjab,31.326,75.5762,27.4,32,0.0,978.2,7.65,31.3,93,40.9,24.7,4,5,7,0,2026-04-20T21:43:26.806665+05:30
Dehradun,Uttarakhand,30.6284,78.0322,17.8,44,0.0,829.3,7.7,42.8,88,33.3,17.4,0,5,7,0,2026-04-20T21:43:26.806671+05:30
Shimla,Himachal Pradesh,31.1048,77.1734,15.6,40,0.0,784.0,7.75,46.8,113,39.7,17.2,0,5,7,0,2026-04-20T21:43:26.806678+05:30
Manali,Himachal Pradesh,32.2396,77.1887,17.3,46,0.0,821.4,9.85,29.2,104,24.6,11.3,0,5,7,0,2026-04-20T21:43:26.806685+05:30
Gurgaon,Haryana,28.4595,77.0266,28.0,29,0.0,979.1,7.4,30.6,1191,1210.7,151.3,4,5,7,0,2026-04-20T21:43:26.806692+05:30
Noida,Uttar Pradesh,28.5355,77.391,29.6,33,0.0,982.1,7.3,31.3,1191,1210.7,151.3,4,5,7,0,2026-04-20T21:43:26.806699+05:30
Ghaziabad,Uttar Pradesh,28.6692,77.4538,29.1,35,0.0,980.3,7.3,31.0,195,668.7,95.7,4,5,7,0,2026-04-20T21:43:26.806706+05:30
Faridabad,Haryana,28.4089,77.3178,30.7,26,0.0,981.5,7.35,32.8,1191,1210.7,151.3,0,5,7,0,2026-04-20T21:43:26.806713+05:30
Meerut,Uttar Pradesh,28.9845,77.7064,27.7,41,0.0,978.9,7.2,34.2,195,668.7,95.7,4,5,7,0,2026-04-20T21:43:26.806720+05:30
Agra,Uttar Pradesh,27.1767,78.0081,29.1,40,0.0,985.0,7.7,26.3,720,1415.6,162.5,4,5,7,0,2026-04-20T21:43:26.806732+05:30
Varanasi,Uttar Pradesh,25.3176,82.9739,31.8,32,0.0,994.2,8.4,31.7,111,53.6,29.7,0,5,7,0,2026-04-20T21:43:26.806740+05:30
Prayagraj,Uttar Pradesh,25.4358,81.8463,34.3,34,0.0,993.0,7.85,25.9,109,86.4,31.0,0,5,7,1,2026-04-20T21:43:26.806747+05:30
Gorakhpur,Uttar Pradesh,26.7606,83.3732,31.9,28,0.0,993.4,8.35,36.0,133,81.5,32.0,0,5,7,0,2026-04-20T21:43:26.806754+05:30
Bareilly,Uttar Pradesh,28.367,79.4304,28.4,34,0.0,983.8,7.55,34.6,107,52.0,27.3,4,5,7,0,2026-04-20T21:43:26.806761+05:30
Aligarh,Uttar Pradesh,27.8974,78.088,29.1,30,0.0,983.0,7.45,34.9,591,1192.1,156.9,4,5,7,0,2026-04-20T21:43:26.806768+05:30
Moradabad,Uttar Pradesh,28.8386,78.7733,27.5,37,0.0,980.9,7.4,38.9,91,176.5,44.5,4,5,7,0,2026-04-20T21:43:26.806774+05:30
Saharanpur,Uttar Pradesh,29.9637,77.546,26.1,43,0.0,972.9,6.95,29.5,83,84.1,30.0,4,5,7,0,2026-04-20T21:43:26.806780+05:30
Jhansi,Uttar Pradesh,25.4484,78.5685,32.7,24,0.0,976.2,8.2,32.4,102,26.1,12.8,0,5,7,0,2026-04-20T21:43:30.115781+05:30
Surat,Gujarat,21.1702,72.8311,27.3,78,0.0,1006.1,7.85,24.5,92,45.3,32.9,7,5,4,1,2026-04-20T21:43:30.115816+05:30
Vadodara,Gujarat,22.3072,73.1812,31.0,41,0.0,1003.3,8.1,27.7,103,51.2,41.7,0,5,4,1,2026-04-20T21:43:30.115827+05:30
Rajkot,Gujarat,22.3039,70.8022,28.7,36,0.0,994.1,7.85,31.3,87,40.0,17.9,4,5,7,0,2026-04-20T21:43:30.115834+05:30
Thane,Maharashtra,19.2183,72.9781,27.3,84,0.0,1007.5,8.05,33.8,82,41.6,23.9,7,5,4,1,2026-04-20T21:43:30.115842+05:30
Nagpur,Maharashtra,21.1458,79.0882,31.0,46,0.0,972.7,8.5,37.4,108,53.3,49.7,0,5,7,1,2026-04-20T21:43:30.115849+05:30
Nashik,Maharashtra,19.9975,73.7898,27.3,53,0.0,945.9,8.3,34.9,101,19.2,15.2,4,5,7,1,2026-04-20T21:43:30.115856+05:30
Aurangabad,Maharashtra,19.8762,75.3433,31.3,30,0.0,944.0,8.95,23.8,106,34.5,30.7,0,5,7,0,2026-04-20T21:43:30.115864+05:30
Solapur,Maharashtra,17.6599,75.9064,30.2,50,0.0,956.6,8.7,20.2,139,49.6,43.8,0,5,7,1,2026-04-20T21:43:30.115871+05:30
Kolhapur,Maharashtra,16.705,74.2433,25.9,82,0.0,947.9,9.05,39.2,131,44.0,40.6,7,5,7,1,2026-04-20T21:43:30.115878+05:30
Goa,Goa,15.2993,74.124,28.7,77,0.0,997.6,9.0,30.2,86,35.6,24.2,7,5,7,1,2026-04-20T21:43:30.115885+05:30
Jodhpur,Rajasthan,26.2389,73.0243,32.0,27,0.0,981.6,8.15,27.0,105,180.2,29.8,0,5,7,0,2026-04-20T21:43:30.115892+05:30
Udaipur,Rajasthan,24.5854,73.7125,28.9,33,0.0,946.8,8.7,31.3,64,22.1,9.6,4,5,7,0,2026-04-20T21:43:30.115899+05:30
Kota,Rajasthan,25.2138,75.8648,31.3,27,0.0,976.8,8.25,28.8,78,29.5,20.9,0,5,7,0,2026-04-20T21:43:30.115905+05:30
Bikaner,Rajasthan,28.0229,73.3119,32.9,28,0.0,980.1,7.95,35.3,91,33.2,13.2,0,5,7,0,2026-04-20T21:43:30.115912+05:30
Ajmer,Rajasthan,26.4499,74.6399,28.9,33,0.0,953.6,8.1,26.3,81,72.6,19.6,4,5,7,0,2026-04-20T21:43:30.115918+05:30
Gwalior,Madhya Pradesh,26.2183,78.1828,31.4,30,0.0,981.2,8.0,38.2,104,59.6,19.8,0,5,7,0,2026-04-20T21:43:30.115925+05:30
Indore,Madhya Pradesh,22.7196,75.8577,28.1,42,0.0,948.0,8.6,37.8,92,24.7,22.4,4,5,7,0,2026-04-20T21:43:30.115931+05:30
Bhopal,Madhya Pradesh,23.2599,77.4126,31.4,23,0.0,953.3,7.5,34.9,96,20.3,18.0,0,5,7,0,2026-04-20T21:43:30.115937+05:30
Jabalpur,Madhya Pradesh,23.1815,79.9864,30.8,36,0.0,960.3,8.15,35.6,103,18.5,16.7,0,5,7,0,2026-04-20T21:43:30.115943+05:30
Ujjain,Madhya Pradesh,23.1765,75.7885,28.6,40,0.0,953.7,8.55,36.0,92,20.4,17.9,4,5,7,0,2026-04-20T21:43:30.115950+05:30
Visakhapatnam,Andhra Pradesh,17.6868,83.2185,27.9,87,0.0,1004.1,9.2,41.8,53,20.9,16.1,7,5,4,1,2026-04-20T21:43:30.115957+05:30
Vijayawada,Andhra Pradesh,16.5062,80.648,28.9,76,0.0,1002.7,9.2,27.0,58,19.6,17.2,7,5,4,1,2026-04-20T21:43:30.115965+05:30
Guntur,Andhra Pradesh,16.3067,80.4365,28.5,83,0.0,1004.0,9.25,30.2,77,21.5,19.7,7,5,4,1,2026-04-20T21:43:30.115972+05:30
Nellore,Andhra Pradesh,14.4426,79.9865,28.7,82,0.0,1005.9,9.25,38.9,63,12.7,9.4,7,5,4,1,2026-04-20T21:43:30.115979+05:30
Kurnool,Andhra Pradesh,15.8281,78.0373,33.9,45,0.0,975.8,9.2,43.2,134,37.1,31.9,0,5,7,1,2026-04-20T21:43:30.115986+05:30
Kakinada,Andhra Pradesh,16.9891,82.2475,28.3,84,0.0,1007.9,9.2,33.1,43,19.7,13.5,7,5,4,1,2026-04-20T21:43:30.115993+05:30
Tirupati,Andhra Pradesh,13.6288,79.4192,29.0,70,0.0,992.5,9.3,32.4,97,17.7,16.5,7,5,7,1,2026-04-20T21:43:30.115999+05:30
Warangal,Telangana,17.9689,79.5941,32.5,51,0.0,978.4,9.15,27.7,165,43.5,41.2,0,5,7,1,2026-04-20T21:43:30.116005+05:30
Nizamabad,Telangana,18.6725,78.0941,30.3,52,0.0,964.6,9.1,33.8,115,51.1,44.9,0,5,7,1,2026-04-20T21:43:30.116011+05:30
Mysore,Karnataka,12.2958,76.6396,25.6,75,0.0,928.4,9.45,40.7,133,46.3,42.4,7,5,7,1,2026-04-20T21:43:30.116017+05:30
Mangalore,Karnataka,12.9141,74.856,29.9,82,0.0,1006.1,9.1,23.8,81,45.3,29.5,7,5,4,1,2026-04-20T21:43:30.116023+05:30
Hubli-Dharwad,Karnataka,15.3647,75.124,27.1,74,0.0,940.5,9.2,33.8,148,34.5,31.4,7,5,7,1,2026-04-20T21:43:30.116030+05:30
Belgaum,Karnataka,15.8497,74.4977,25.0,84,0.0,925.6,9.25,30.2,139,30.0,25.3,7,5,7,1,2026-04-20T21:43:33.423766+05:30
Coimbatore,Tamil Nadu,11.0168,76.9558,26.2,81,0.0,961.9,9.4,47.2,133,58.6,55.8,7,5,7,1,2026-04-20T21:43:33.423799+05:30
Madurai,Tamil Nadu,9.9252,78.1198,29.1,73,0.0,994.1,9.3,45.0,99,16.1,14.8,7,5,7,1,2026-04-20T21:43:33.423810+05:30
Trichy,Tamil Nadu,10.7905,78.7047,29.5,72,0.0,1000.1,9.3,29.2,72,16.2,15.5,7,5,4,1,2026-04-20T21:43:33.423819+05:30
Salem,Tamil Nadu,11.6643,78.146,30.3,51,0.0,976.9,9.35,21.2,116,21.2,19.7,0,5,7,1,2026-04-20T21:43:33.423827+05:30
Tirunelveli,Tamil Nadu,8.7139,77.7567,29.7,69,0.0,1004.0,9.2,56.2,84,17.3,15.2,7,5,4,1,2026-04-20T21:43:33.423835+05:30
Vellore,Tamil Nadu,12.9165,79.1325,28.7,63,0.0,985.1,9.35,34.2,98,27.1,25.8,7,5,7,1,2026-04-20T21:43:33.423842+05:30
Erode,Tamil Nadu,11.341,77.7172,32.1,46,0.0,988.4,9.35,31.7,114,19.9,18.3,0,5,7,1,2026-04-20T21:43:33.423850+05:30
Kochi,Kerala,9.9312,76.2673,28.2,83,0.0,1009.5,9.05,31.3,62,30.2,24.9,7,0,4,1,2026-04-20T21:43:33.423857+05:30
Thiruvananthapuram,Kerala,8.5241,76.9366,28.3,83,0.0,1008.8,8.9,31.7,59,23.4,16.1,7,0,4,1,2026-04-20T21:43:33.423864+05:30
Kozhikode,Kerala,11.2588,75.7804,29.7,79,0.0,1007.5,9.1,30.6,66,36.1,22.6,7,5,4,1,2026-04-20T21:43:33.423871+05:30
Thrissur,Kerala,10.5276,76.2144,28.8,81,0.0,1007.4,9.05,36.4,66,29.5,25.2,7,5,4,1,2026-04-20T21:43:33.423878+05:30
Kannur,Kerala,11.8745,75.3704,30.1,74,0.0,1007.0,9.1,31.3,75,34.5,26.4,3,5,4,1,2026-04-20T21:43:33.423885+05:30
Patna,Bihar,25.5941,85.1376,31.7,58,0.0,996.9,8.05,28.8,126,90.8,48.8,0,5,7,1,2026-04-20T21:43:33.423892+05:30
Gaya,Bihar,24.7914,85.0002,34.4,33,0.0,990.8,8.5,34.2,132,82.9,40.9,0,5,7,0,2026-04-20T21:43:33.423898+05:30
Muzaffarpur,Bihar,26.1209,85.3647,30.2,67,0.0,996.8,8.25,27.4,130,92.2,48.5,3,5,7,1,2026-04-20T21:43:33.423905+05:30
Bhagalpur,Bihar,25.2425,87.0117,31.4,68,0.0,997.9,8.65,19.1,162,93.4,65.2,3,5,7,1,2026-04-20T21:43:33.423911+05:30
Ranchi,Jharkhand,23.3441,85.3096,28.2,54,0.0,937.5,9.25,35.3,108,40.0,21.1,4,5,7,1,2026-04-20T21:43:33.423917+05:30
Jamshedpur,Jharkhand,22.8046,86.2029,29.6,68,0.0,989.4,9.05,42.8,158,47.3,39.1,7,5,7,1,2026-04-20T21:43:33.423924+05:30
Dhanbad,Jharkhand,23.7957,86.4304,31.2,59,0.0,978.3,9.0,29.5,150,95.0,59.4,0,5,7,1,2026-04-20T21:43:33.423931+05:30
Bokaro,Jharkhand,23.6693,86.1511,30.8,52,0.0,982.2,8.8,36.7,126,82.0,51.1,0,5,7,1,2026-04-20T21:43:33.423938+05:30
Bhubaneswar,Odisha,20.2961,85.8245,27.3,88,0.0,1002.1,9.1,34.9,71,15.7,12.3,7,5,4,1,2026-04-20T21:43:33.423945+05:30
Cuttack,Odisha,20.4625,85.8828,28.3,82,0.0,1004.0,9.15,32.4,71,15.7,12.3,7,5,4,1,2026-04-20T21:43:33.423951+05:30
Rourkela,Odisha,22.2604,84.8536,30.5,59,0.0,983.9,8.85,52.2,157,67.5,48.1,0,5,7,1,2026-04-20T21:43:33.423958+05:30
Raipur,Chhattisgarh,21.2514,81.6296,33.4,33,0.0,973.8,8.65,40.3,138,37.1,34.7,0,5,7,0,2026-04-20T21:43:33.423964+05:30
Bhilai,Chhattisgarh,21.1938,81.3509,33.4,36,0.0,974.3,8.25,38.2,134,34.2,32.1,0,5,7,1,2026-04-20T21:43:33.423970+05:30
Guwahati,Assam,26.1158,91.7086,25.8,88,0.0,999.5,8.5,36.4,76,29.0,24.3,7,5,7,1,2026-04-20T21:43:33.423976+05:30
Agartala,Tripura,23.8315,91.2868,27.5,84,0.0,1004.7,8.6,33.1,95,22.2,18.9,7,5,4,1,2026-04-20T21:43:33.423982+05:30
Shillong,Meghalaya,25.5788,91.8933,17.4,93,0.0,855.9,6.8,72.0,70,23.3,19.8,3,10,7,1,2026-04-20T21:43:33.423989+05:30
Imphal,Manipur,24.817,93.9368,19.9,91,0.0,923.3,9.15,68.4,105,56.0,48.9,3,10,7,1,2026-04-20T21:43:33.423995+05:30
Aizawl,Mizoram,23.7271,92.7176,22.5,78,0.0,893.7,8.95,69.8,118,37.0,30.2,3,5,7,1,2026-04-20T21:43:33.424002+05:30
Kohima,Nagaland,25.6701,94.1077,18.3,81,0.0,854.4,8.2,102.6,76,39.6,29.8,3,10,7,0,2026-04-20T21:43:33.424008+05:30
Gangtok,Sikkim,27.3314,88.6138,17.6,88,0.0,837.2,8.8,19.1,89,22.7,19.5,3,10,7,0,2026-04-20T21:43:33.424015+05:30
Siliguri,West Bengal,26.7271,88.3953,24.1,83,0.0,991.9,8.45,23.0,93,41.9,36.6,3,5,7,1,2026-04-20T21:43:36.732832+05:30
Durgapur,West Bengal,23.5204,87.3119,28.1,84,0.0,993.4,8.9,44.3,146,69.6,61.9,7,5,7,1,2026-04-20T21:43:36.732866+05:30
Asansol,West Bengal,23.6739,86.9524,29.0,78,0.0,991.9,8.95,48.2,122,78.0,53.2,7,5,7,1,2026-04-20T21:43:36.732876+05:30
Pondicherry,Puducherry,11.9139,79.8145,27.6,89,0.0,1008.8,9.25,33.1,32,11.5,7.7,7,0,4,1,2026-04-20T21:43:36.732885+05:30
Port Blair,Andaman and Nicobar Islands,11.6234,92.7265,29.8,71,0.0,1008.2,9.05,17.3,63,17.1,14.1,7,0,4,1,2026-04-20T21:43:36.732893+05:30
Haridwar,Uttarakhand,29.9457,78.1642,23.7,56,0.0,971.7,7.05,33.8,88,52.4,24.3,0,5,7,0,2026-04-20T21:43:36.732901+05:30
Rishikesh,Uttarakhand,30.0869,78.2676,22.1,61,0.0,964.7,7.2,36.7,96,40.5,17.0,3,5,7,0,2026-04-20T21:43:36.732909+05:30
Nainital,Uttarakhand,29.3919,79.4542,23.2,22,0.0,807.0,8.05,60.1,104,91.3,24.9,0,5,7,0,2026-04-20T21:43:36.732917+05:30
Mussoorie,Uttarakhand,30.4599,78.0664,19.3,34,0.0,802.4,7.55,46.4,95,52.9,22.7,0,5,7,0,2026-04-20T21:43:36.732924+05:30
Dharamshala,Himachal Pradesh,32.219,76.3234,22.9,35,0.0,869.0,7.8,31.7,80,32.4,14.7,0,5,7,0,2026-04-20T21:43:36.732930+05:30
Dalhousie,Himachal Pradesh,32.5387,75.971,19.4,33,0.0,803.6,8.1,31.0,81,43.9,22.9,0,5,7,0,2026-04-20T21:43:36.732938+05:30
Patiala,Punjab,30.3398,76.3869,28.3,24,0.0,976.0,7.15,28.4,304,436.8,63.3,4,5,7,0,2026-04-20T21:43:36.732945+05:30
Bhatinda,Punjab,30.211,74.9455,29.9,30,0.0,982.0,7.8,31.3,99,31.1,21.9,4,5,7,0,2026-04-20T21:43:36.732951+05:30
Rohtak,Haryana,28.8955,76.6066,26.9,27,0.0,979.5,7.3,32.0,744,976.0,128.1,4,5,7,0,2026-04-20T21:43:36.732958+05:30
Panipat,Haryana,29.3909,76.9635,27.3,29,0.0,977.9,7.1,26.6,1265,1333.7,165.8,4,5,7,0,2026-04-20T21:43:36.732965+05:30
Mathura,Uttar Pradesh,27.4924,77.6737,29.4,40,0.0,984.4,7.6,26.6,830,1628.0,190.5,4,5,7,0,2026-04-20T21:43:36.732972+05:30
Vrindavan,Uttar Pradesh,27.5823,77.7027,29.3,34,0.0,984.9,7.55,26.3,830,1628.0,190.5,4,5,7,0,2026-04-20T21:43:36.732978+05:30
Ayodhya,Uttar Pradesh,26.7922,82.1998,31.5,31,0.0,992.0,8.1,37.1,119,107.1,29.8,0,5,7,0,2026-04-20T21:43:36.732984+05:30
Ratlam,Madhya Pradesh,23.3315,75.0367,28.8,45,0.0,954.4,8.45,29.9,106,19.0,15.7,4,5,7,0,2026-04-20T21:43:36.732990+05:30
Sagar,Madhya Pradesh,23.8388,78.7378,32.2,26,0.0,949.3,7.95,36.0,94,14.8,14.3,0,5,7,0,2026-04-20T21:43:36.732997+05:30
Satna,Madhya Pradesh,24.6005,80.8322,32.0,29,0.0,968.8,7.65,41.8,115,31.5,16.2,0,5,7,0,2026-04-20T21:43:36.733003+05:30
Akola,Maharashtra,20.7002,77.0082,32.8,32,0.0,974.3,8.9,29.5,120,34.5,31.5,0,5,7,0,2026-04-20T21:43:36.733010+05:30
Amravati,Maharashtra,20.9374,77.7796,30.7,54,0.0,966.5,8.8,27.0,125,32.5,29.9,0,5,7,1,2026-04-20T21:43:36.733016+05:30
Latur,Maharashtra,18.4088,76.5604,27.6,55,0.0,939.6,8.65,24.5,141,52.7,45.6,4,5,7,1,2026-04-20T21:43:36.733023+05:30
Nanded,Maharashtra,19.1383,77.3091,30.2,51,0.0,967.9,8.75,21.2,116,57.2,49.9,0,5,7,1,2026-04-20T21:43:36.733029+05:30
Gulbarga,Karnataka,17.3297,76.8343,30.7,46,0.0,958.8,9.1,39.2,159,47.3,39.8,0,5,7,1,2026-04-20T21:43:36.733035+05:30
Bidar,Karnataka,17.9104,77.5199,29.2,52,0.0,936.3,9.15,42.5,117,64.7,54.7,4,5,7,1,2026-04-20T21:43:36.733041+05:30
Hospet,Karnataka,15.2689,76.3909,31.0,52,0.0,955.2,9.25,22.7,171,62.4,52.7,0,5,7,1,2026-04-20T21:43:36.733047+05:30
Tirupur,Tamil Nadu,11.1085,77.3411,29.1,71,0.0,975.1,9.4,29.2,126,33.6,31.1,7,5,7,1,2026-04-20T21:43:36.733053+05:30
Alappuzha,Kerala,9.4981,76.3388,28.6,81,0.0,1009.5,9.0,29.2,65,29.9,23.4,7,0,4,1,2026-04-20T21:43:36.733059+05:30
Munnar,Kerala,10.0889,77.0595,22.2,94,0.0,858.0,9.65,32.0,67,29.0,27.4,3,5,7,1,2026-04-20T21:43:36.733065+05:30
Silchar,Assam,24.8333,92.7789,24.9,90,0.0,1004.9,8.6,42.5,113,48.3,40.5,3,5,4,1,2026-04-20T21:43:36.733072+05:30
Dibrugarh,Assam,27.4728,94.912,24.1,89,0.0,994.0,8.75,16.6,96,24.0,21.0,3,5,7,1,2026-04-20T21:43:36.733079+05:30
