city,state,latitude,longitude,temp,humidity,rain,pressure,uv_index,wind_gusts,aqi,pm10,pm2_5,no2,co,o3,so2,mosquito_risk,arthritis_risk,migraine_risk,frizz_risk,updated_at
Delhi,Delhi,28.6139,77.209,31.7,61,0.0,976.6,7.8,27.7,241,362.3,106.6,46.0,1087.0,62.0,23.6,3,5,7,1,2026-06-14T19:52:44.671262+05:30
Mumbai,Maharashtra,19.076,72.8777,30.3,68,0.1,1007.3,7.7,49.3,67,33.2,17.0,3.9,138.0,50.0,3.2,6,5,4,1,2026-06-14T19:52:44.671299+05:30
Bangalore,Karnataka,12.9716,77.5946,24.6,71,0.0,911.4,7.85,41.8,49,17.1,11.6,17.4,450.0,52.0,5.4,3,5,7,1,2026-06-14T19:52:44.671314+05:30
Hyderabad,Telangana,17.385,78.4867,29.1,63,0.0,950.5,3.85,40.3,81,65.4,34.8,24.2,271.0,68.0,9.1,7,5,3,1,2026-06-14T19:52:44.671324+05:30
Chennai,Tamil Nadu,13.0827,80.2707,31.0,67,0.0,1004.7,8.9,43.6,109,35.7,22.6,9.1,351.0,119.0,7.0,3,5,4,1,2026-06-14T19:52:44.671331+05:30
Kolkata,West Bengal,22.5726,88.3639,28.7,86,0.0,1001.2,9.0,41.4,123,39.5,36.2,12.2,384.0,90.0,10.8,7,5,4,1,2026-06-14T19:52:44.671339+05:30
Pune,Maharashtra,18.5204,73.8567,26.8,72,0.0,947.3,8.3,53.3,56,23.7,13.2,4.9,134.0,65.0,6.3,7,5,7,1,2026-06-14T19:52:44.671346+05:30
Ahmedabad,Gujarat,23.0225,72.5714,36.2,36,0.0,997.3,8.05,46.8,69,40.6,19.3,2.7,130.0,77.0,2.7,0,5,10,1,2026-06-14T19:52:44.671353+05:30
Jaipur,Rajasthan,26.9124,75.7873,29.1,61,0.0,955.3,8.2,36.7,130,130.4,55.3,12.9,257.0,69.0,6.0,7,5,7,1,2026-06-14T19:52:44.671363+05:30
Lucknow,Uttar Pradesh,26.8467,80.9462,31.8,65,0.0,987.0,8.35,30.2,154,282.2,89.9,14.9,517.0,97.0,12.1,3,5,7,1,2026-06-14T19:52:44.671370+05:30
Kanpur,Uttar Pradesh,26.4499,80.3319,35.3,37,0.0,985.6,8.3,34.9,181,432.1,98.3,13.7,392.0,89.0,8.3,0,5,10,1,2026-06-14T19:52:44.671377+05:30
Chandigarh,Chandigarh,30.7333,76.7794,29.1,61,0.0,962.7,7.8,21.6,128,38.0,26.7,18.8,740.0,121.0,11.9,7,5,7,1,2026-06-14T19:52:44.671384+05:30
Srinagar,Jammu and Kashmir,34.0837,74.7973,20.5,65,0.0,839.0,9.0,18.0,105,20.3,15.3,12.5,668.0,101.0,3.2,3,5,7,0,2026-06-14T19:52:44.671390+05:30
Jammu,Jammu and Kashmir,32.7266,74.857,33.3,34,0.0,966.3,8.6,26.3,140,32.2,21.7,22.3,430.0,121.0,4.3,0,5,7,0,2026-06-14T19:52:44.671397+05:30
Amritsar,Punjab,31.634,74.8723,29.6,60,0.0,974.0,8.4,19.1,133,47.3,34.9,30.0,467.0,104.0,7.5,4,5,7,1,2026-06-14T19:52:44.671404+05:30
Ludhiana,Punjab,30.901,75.8573,31.2,53,0.0,972.3,8.05,18.4,105,75.4,34.9,23.3,615.0,88.0,5.6,0,5,7,1,2026-06-14T19:52:44.671410+05:30
Jalandhar,Punjab,31.326,75.5762,30.3,63,0.0,973.4,8.2,22.3,113,50.4,29.3,18.1,758.0,100.0,3.8,3,5,7,1,2026-06-14T19:52:44.671422+05:30
Dehradun,Uttarakhand,30.6284,78.0322,18.0,76,0.0,826.8,8.3,32.8,81,18.7,10.8,8.1,212.0,105.0,1.0,3,5,7,0,2026-06-14T19:52:44.671428+05:30
Shimla,Himachal Pradesh,31.1048,77.1734,14.9,73,0.0,780.8,8.35,33.8,120,30.3,18.4,11.3,286.0,121.0,7.8,3,5,7,0,2026-06-14T19:52:44.671437+05:30
Manali,Himachal Pradesh,32.2396,77.1887,16.0,76,0.0,815.4,10.0,42.5,101,2.6,2.0,20.1,178.0,109.0,0.2,3,5,7,0,2026-06-14T19:52:44.671444+05:30
Gurgaon,Haryana,28.4595,77.0266,31.9,52,0.0,975.1,7.85,29.5,425,311.1,98.3,52.8,554.0,57.0,25.1,0,5,7,1,2026-06-14T19:52:44.671450+05:30
Noida,Uttar Pradesh,28.5355,77.391,30.8,56,0.0,978.1,7.85,26.3,425,311.1,98.3,52.8,1447.0,57.0,25.1,0,5,7,1,2026-06-14T19:52:44.671458+05:30
Ghaziabad,Uttar Pradesh,28.6692,77.4538,30.7,59,0.0,976.4,7.8,25.9,179,380.0,109.9,29.7,357.0,88.0,18.2,0,5,7,1,2026-06-14T19:52:44.671465+05:30
Faridabad,Haryana,28.4089,77.3178,31.6,56,0.0,977.4,7.85,31.0,425,311.1,98.3,52.8,447.0,57.0,25.1,0,5,7,1,2026-06-14T19:52:44.671471+05:30
Meerut,Uttar Pradesh,28.9845,77.7064,29.9,67,0.0,975.3,7.7,30.6,179,380.0,109.9,29.7,505.0,88.0,18.2,7,5,7,1,2026-06-14T19:52:44.671477+05:30
Agra,Uttar Pradesh,27.1767,78.0081,34.0,41,0.0,981.7,8.15,32.8,308,324.1,81.3,29.1,234.0,65.0,11.2,0,5,7,1,2026-06-14T19:52:44.671484+05:30
Varanasi,Uttar Pradesh,25.3176,82.9739,34.4,46,0.0,991.7,8.8,37.1,170,116.6,54.4,17.7,377.0,103.0,13.1,0,5,7,1,2026-06-14T19:52:44.671490+05:30
Prayagraj,Uttar Pradesh,25.4358,81.8463,34.9,40,0.0,990.0,8.7,35.3,165,136.9,57.6,18.8,440.0,99.0,13.3,0,5,7,1,2026-06-14T19:52:44.671497+05:30
Gorakhpur,Uttar Pradesh,26.7606,83.3732,30.6,64,0.0,991.0,8.7,29.2,153,63.6,43.8,16.0,309.0,102.0,11.9,3,5,7,1,2026-06-14T19:52:44.671505+05:30
Bareilly,Uttar Pradesh,28.367,79.4304,29.9,57,0.0,980.4,8.15,35.3,158,147.6,63.6,11.4,315.0,107.0,10.2,4,5,7,1,2026-06-14T19:52:44.671511+05:30
Aligarh,Uttar Pradesh,27.8974,78.088,31.7,49,0.0,979.3,8.0,36.7,338,512.2,121.1,25.9,235.0,94.0,14.1,0,5,7,1,2026-06-14T19:52:44.671517+05:30
Moradabad,Uttar Pradesh,28.8386,78.7733,30.5,63,0.0,977.1,7.95,38.5,159,194.6,80.3,23.5,362.0,84.0,11.4,3,5,7,1,2026-06-14T19:52:44.671523+05:30
Saharanpur,Uttar Pradesh,29.9637,77.546,29.1,59,0.0,969.3,7.55,27.7,151,167.6,58.0,17.9,350.0,100.0,12.6,4,5,7,1,2026-06-14T19:52:44.671529+05:30
Jhansi,Uttar Pradesh,25.4484,78.5685,33.2,47,0.0,972.6,8.5,54.0,87,99.9,38.3,6.5,255.0,76.0,4.9,0,5,7,1,2026-06-14T19:52:47.907754+05:30
Surat,Gujarat,21.1702,72.8311,30.7,72,0.0,1003.5,7.55,57.2,75,35.2,20.7,14.3,201.0,40.0,26.5,3,5,4,1,2026-06-14T19:52:47.907781+05:30
Vadodara,Gujarat,22.3072,73.1812,32.7,56,0.0,1000.2,8.0,49.3,76,43.4,23.7,8.7,149.0,70.0,9.4,0,5,4,1,2026-06-14T19:52:47.907827+05:30
Rajkot,Gujarat,22.3039,70.8022,33.2,49,0.0,990.8,7.55,57.2,68,46.2,18.6,3.0,105.0,65.0,4.1,0,5,7,1,2026-06-14T19:52:47.907840+05:30
Thane,Maharashtra,19.2183,72.9781,29.2,78,0.0,1006.6,7.65,45.0,67,33.2,17.0,3.9,130.0,50.0,3.2,7,5,4,1,2026-06-14T19:52:47.907848+05:30
Nagpur,Maharashtra,21.1458,79.0882,32.9,47,0.0,969.4,8.9,43.9,108,76.4,38.9,14.5,207.0,79.0,16.8,0,5,7,1,2026-06-14T19:52:47.907856+05:30
Nashik,Maharashtra,19.9975,73.7898,27.4,62,0.0,944.3,8.05,55.4,57,33.9,15.5,1.9,114.0,54.0,1.1,7,5,7,1,2026-06-14T19:52:47.907863+05:30
Aurangabad,Maharashtra,19.8762,75.3433,32.3,36,0.0,942.0,8.95,56.2,59,35.0,17.6,2.8,118.0,71.0,2.6,0,5,7,0,2026-06-14T19:52:47.907871+05:30
Solapur,Maharashtra,17.6599,75.9064,33.1,33,0.0,955.0,8.9,52.2,64,44.2,22.5,2.8,127.0,101.0,3.9,0,5,7,0,2026-06-14T19:52:47.907878+05:30
Kolhapur,Maharashtra,16.705,74.2433,25.7,77,0.0,947.5,8.75,49.3,45,23.1,13.1,4.2,153.0,54.0,2.3,7,5,7,1,2026-06-14T19:52:47.907886+05:30
Goa,Goa,15.2993,74.124,28.4,80,0.0,997.7,6.65,34.6,63,34.0,16.9,2.4,260.0,49.0,1.3,7,5,7,1,2026-06-14T19:52:47.907893+05:30
Jodhpur,Rajasthan,26.2389,73.0243,36.0,32,0.0,977.4,8.45,45.4,159,260.8,59.1,3.7,161.0,82.0,3.6,0,5,10,1,2026-06-14T19:52:47.907900+05:30
Udaipur,Rajasthan,24.5854,73.7125,31.6,42,0.0,942.5,8.85,48.6,78,64.3,24.2,2.5,136.0,74.0,2.1,0,5,7,1,2026-06-14T19:52:47.907908+05:30
Kota,Rajasthan,25.2138,75.8648,28.5,68,0.0,974.8,8.35,41.8,111,96.4,39.0,5.6,255.0,83.0,4.2,7,5,7,1,2026-06-14T19:52:47.907915+05:30
Bikaner,Rajasthan,28.0229,73.3119,36.9,25,0.0,975.0,8.45,35.6,151,219.3,70.1,2.1,154.0,86.0,3.0,0,5,10,0,2026-06-14T19:52:47.907923+05:30
Ajmer,Rajasthan,26.4499,74.6399,28.1,78,0.0,950.1,8.35,39.6,112,105.0,43.1,3.6,165.0,87.0,3.3,7,5,7,1,2026-06-14T19:52:47.907930+05:30
Gwalior,Madhya Pradesh,26.2183,78.1828,33.4,42,0.0,977.3,8.3,50.8,100,120.6,42.3,6.1,157.0,75.0,3.6,0,5,7,1,2026-06-14T19:52:47.907937+05:30
Indore,Madhya Pradesh,22.7196,75.8577,33.0,33,0.0,945.4,8.6,47.9,77,75.9,35.5,6.7,198.0,78.0,4.5,0,5,7,0,2026-06-14T19:52:47.907945+05:30
Bhopal,Madhya Pradesh,23.2599,77.4126,27.6,73,0.0,950.3,8.65,52.6,100,58.3,31.7,10.4,212.0,73.0,4.3,7,5,7,1,2026-06-14T19:52:47.907952+05:30
Jabalpur,Madhya Pradesh,23.1815,79.9864,30.6,49,0.0,957.6,8.75,28.1,95,95.7,39.5,6.2,336.0,87.0,3.4,0,5,7,1,2026-06-14T19:52:47.907959+05:30
Ujjain,Madhya Pradesh,23.1765,75.7885,33.3,36,0.0,950.5,8.55,55.4,77,89.4,34.1,3.2,213.0,84.0,4.0,0,5,7,1,2026-06-14T19:52:47.907966+05:30
Visakhapatnam,Andhra Pradesh,17.6868,83.2185,32.3,63,0.0,998.9,8.95,41.0,142,65.0,45.3,25.6,793.0,95.0,42.0,3,5,7,1,2026-06-14T19:52:47.907974+05:30
Vijayawada,Andhra Pradesh,16.5062,80.648,30.9,63,0.0,998.7,5.7,45.0,90,51.1,38.8,15.1,418.0,61.0,8.4,3,5,3,1,2026-06-14T19:52:47.907981+05:30
Guntur,Andhra Pradesh,16.3067,80.4365,30.7,64,0.0,1000.0,3.25,46.8,85,42.6,32.9,15.2,272.0,58.0,7.4,3,5,0,1,2026-06-14T19:52:47.907988+05:30
Nellore,Andhra Pradesh,14.4426,79.9865,31.1,60,0.0,1002.8,8.45,45.0,65,55.8,34.0,9.6,157.0,95.0,5.5,0,5,4,1,2026-06-14T19:52:47.907996+05:30
Kurnool,Andhra Pradesh,15.8281,78.0373,30.7,57,0.0,974.0,1.45,39.6,71,67.1,30.9,14.3,310.0,90.0,9.4,0,5,3,1,2026-06-14T19:52:47.908003+05:30
Kakinada,Andhra Pradesh,16.9891,82.2475,30.9,68,0.0,1003.0,8.8,46.1,99,59.8,37.4,8.3,522.0,99.0,6.8,3,5,4,1,2026-06-14T19:52:47.908010+05:30
Tirupati,Andhra Pradesh,13.6288,79.4192,29.8,60,0.0,989.2,7.85,37.1,60,63.3,39.7,31.2,214.0,50.0,6.7,4,5,7,1,2026-06-14T19:52:47.908018+05:30
Warangal,Telangana,17.9689,79.5941,31.2,57,0.0,975.0,8.6,41.8,108,58.2,36.9,14.9,285.0,64.0,5.8,0,5,7,1,2026-06-14T19:52:47.908025+05:30
Nizamabad,Telangana,18.6725,78.0941,31.3,46,0.0,961.1,8.9,41.8,87,64.5,29.2,9.6,221.0,75.0,3.8,0,5,7,1,2026-06-14T19:52:47.908032+05:30
Mysore,Karnataka,12.2958,76.6396,24.5,76,0.0,928.6,8.8,40.3,34,10.7,8.0,10.0,175.0,50.0,2.6,3,5,7,1,2026-06-14T19:52:47.908039+05:30
Mangalore,Karnataka,12.9141,74.856,27.0,86,0.0,1007.4,8.2,31.3,54,22.7,12.9,6.9,241.0,47.0,2.9,7,5,4,1,2026-06-14T19:52:47.908046+05:30
Hubli-Dharwad,Karnataka,15.3647,75.124,25.3,78,0.0,940.4,5.45,49.7,45,16.2,9.3,4.0,137.0,54.0,1.4,7,5,3,1,2026-06-14T19:52:47.908054+05:30
Belgaum,Karnataka,15.8497,74.4977,24.0,81,0.0,925.6,6.55,50.0,41,19.0,10.9,5.1,125.0,45.0,1.6,3,5,7,1,2026-06-14T19:52:51.256239+05:30
Coimbatore,Tamil Nadu,11.0168,76.9558,25.5,83,0.0,961.3,8.65,51.5,33,9.9,7.1,6.2,185.0,54.0,2.8,7,5,7,1,2026-06-14T19:52:51.256266+05:30
Madurai,Tamil Nadu,9.9252,78.1198,32.0,49,0.0,991.7,8.8,42.1,57,26.3,15.5,15.7,290.0,46.0,4.2,0,5,7,1,2026-06-14T19:52:51.256277+05:30
Trichy,Tamil Nadu,10.7905,78.7047,31.5,57,0.0,998.6,7.9,58.0,53,19.8,13.0,9.6,224.0,70.0,3.6,0,5,7,1,2026-06-14T19:52:51.256285+05:30
Salem,Tamil Nadu,11.6643,78.146,28.0,76,0.0,976.7,8.75,32.8,59,28.4,13.5,9.3,256.0,66.0,8.9,7,5,7,1,2026-06-14T19:52:51.256292+05:30
Tirunelveli,Tamil Nadu,8.7139,77.7567,30.3,59,0.0,1002.5,8.3,47.9,44,15.7,9.6,3.3,149.0,62.0,1.8,0,5,4,1,2026-06-14T19:52:51.256300+05:30
Vellore,Tamil Nadu,12.9165,79.1325,30.1,59,0.0,982.9,8.55,48.6,60,49.9,28.3,7.6,171.0,79.0,2.5,0,5,7,1,2026-06-14T19:52:51.256308+05:30
Erode,Tamil Nadu,11.341,77.7172,28.8,69,0.0,988.5,8.35,45.7,49,14.2,8.9,6.8,278.0,64.0,2.6,7,5,7,1,2026-06-14T19:52:51.256315+05:30
Kochi,Kerala,9.9312,76.2673,26.8,87,0.0,1009.6,8.35,32.4,61,17.6,13.6,15.0,230.0,39.0,5.1,7,0,4,1,2026-06-14T19:52:51.256323+05:30
Thiruvananthapuram,Kerala,8.5241,76.9366,26.5,87,0.0,1008.8,7.95,42.5,44,22.2,11.0,2.4,120.0,60.0,1.2,7,0,4,1,2026-06-14T19:52:51.256331+05:30
Kozhikode,Kerala,11.2588,75.7804,26.6,88,0.0,1008.6,8.3,32.8,31,20.2,9.0,1.2,308.0,61.0,1.0,7,0,4,1,2026-06-14T19:52:51.256338+05:30
Thrissur,Kerala,10.5276,76.2144,26.4,91,0.0,1007.9,8.5,33.1,62,18.0,13.6,9.2,226.0,43.0,3.2,7,5,4,1,2026-06-14T19:52:51.256347+05:30
Kannur,Kerala,11.8745,75.3704,27.0,86,0.0,1007.9,7.95,31.3,49,21.1,11.4,7.1,240.0,45.0,2.1,7,5,4,1,2026-06-14T19:52:51.256355+05:30
Patna,Bihar,25.5941,85.1376,31.1,71,0.0,994.6,8.9,28.8,172,95.9,65.0,23.4,480.0,101.0,15.2,3,5,7,1,2026-06-14T19:52:51.256362+05:30
Gaya,Bihar,24.7914,85.0002,31.9,63,0.0,988.3,8.9,30.6,166,108.0,72.2,18.2,444.0,111.0,13.2,3,5,7,1,2026-06-14T19:52:51.256370+05:30
Muzaffarpur,Bihar,26.1209,85.3647,31.0,73,0.0,994.5,8.85,22.7,172,104.1,71.7,29.9,687.0,92.0,15.8,3,5,7,1,2026-06-14T19:52:51.256377+05:30
Bhagalpur,Bihar,25.2425,87.0117,32.1,68,0.0,995.5,8.8,22.0,182,95.7,74.0,15.7,581.0,134.0,15.8,3,5,7,1,2026-06-14T19:52:51.256384+05:30
Ranchi,Jharkhand,23.3441,85.3096,25.8,75,0.0,934.0,7.75,40.7,133,57.5,42.7,7.9,251.0,112.0,6.0,7,5,7,1,2026-06-14T19:52:51.256391+05:30
Jamshedpur,Jharkhand,22.8046,86.2029,26.6,86,0.1,986.8,8.9,37.4,191,73.3,59.5,12.0,362.0,136.0,25.1,10,5,7,1,2026-06-14T19:52:51.256398+05:30
Dhanbad,Jharkhand,23.7957,86.4304,30.7,68,0.0,975.0,8.9,22.7,169,113.9,91.5,28.6,306.0,140.0,65.3,3,5,7,1,2026-06-14T19:52:51.256406+05:30
Bokaro,Jharkhand,23.6693,86.1511,30.0,66,0.0,978.9,8.9,31.3,178,115.5,83.4,23.1,957.0,133.0,50.3,7,5,7,1,2026-06-14T19:52:51.256412+05:30
Bhubaneswar,Odisha,20.2961,85.8245,28.4,88,0.0,997.9,8.95,37.1,112,58.0,48.9,18.9,351.0,91.0,11.3,7,5,7,1,2026-06-14T19:52:51.256420+05:30
Cuttack,Odisha,20.4625,85.8828,28.3,94,0.0,999.6,8.8,41.0,112,58.0,48.9,18.9,386.0,91.0,11.3,7,5,7,1,2026-06-14T19:52:51.256427+05:30
Rourkela,Odisha,22.2604,84.8536,27.2,90,0.0,981.2,8.75,36.4,148,62.4,42.1,11.2,428.0,103.0,6.3,7,5,7,1,2026-06-14T19:52:51.256434+05:30
Raipur,Chhattisgarh,21.2514,81.6296,28.4,68,0.1,970.2,8.95,47.9,136,97.8,61.2,40.7,192.0,55.0,49.2,10,5,7,1,2026-06-14T19:52:51.256441+05:30
Bhilai,Chhattisgarh,21.1938,81.3509,31.5,53,0.0,970.9,8.95,40.3,129,109.2,63.8,42.4,287.0,58.0,46.1,0,5,7,1,2026-06-14T19:52:51.256449+05:30
Guwahati,Assam,26.1158,91.7086,26.1,96,0.0,997.3,8.7,25.2,67,22.7,20.7,7.9,399.0,75.0,3.2,7,5,7,1,2026-06-14T19:52:51.256456+05:30
Agartala,Tripura,23.8315,91.2868,26.1,96,0.0,1002.8,8.15,34.6,66,22.6,21.4,11.2,249.0,70.0,3.0,7,5,4,1,2026-06-14T19:52:51.256463+05:30
Shillong,Meghalaya,25.5788,91.8933,19.2,93,0.0,854.8,9.0,22.3,49,7.6,7.0,5.4,298.0,96.0,2.8,3,10,7,1,2026-06-14T19:52:51.256470+05:30
Imphal,Manipur,24.817,93.9368,24.2,80,0.0,920.5,8.85,31.0,66,29.1,26.5,15.5,476.0,50.0,4.2,3,5,7,1,2026-06-14T19:52:51.256478+05:30
Aizawl,Mizoram,23.7271,92.7176,20.1,90,0.0,890.1,9.0,36.7,52,17.9,14.0,3.4,193.0,71.0,1.6,3,5,7,1,2026-06-14T19:52:51.256485+05:30
Kohima,Nagaland,25.6701,94.1077,19.8,97,0.0,853.1,8.8,23.8,38,10.3,9.5,7.3,325.0,53.0,1.3,3,10,7,1,2026-06-14T19:52:51.256492+05:30
Gangtok,Sikkim,27.3314,88.6138,18.5,92,0.2,835.0,8.8,38.2,80,5.9,5.1,6.8,368.0,107.0,1.6,6,10,7,1,2026-06-14T19:52:51.256499+05:30
Siliguri,West Bengal,26.7271,88.3953,24.8,96,0.1,988.5,8.7,23.0,101,35.7,29.9,11.6,596.0,101.0,4.8,6,5,7,1,2026-06-14T19:52:54.528933+05:30
Durgapur,West Bengal,23.5204,87.3119,30.0,76,0.0,990.0,9.05,30.2,217,90.1,85.2,26.9,519.0,137.0,53.3,7,5,7,1,2026-06-14T19:52:54.528966+05:30
Asansol,West Bengal,23.6739,86.9524,31.1,67,0.0,988.2,8.9,32.0,183,88.5,79.2,25.2,602.0,134.0,48.0,3,5,7,1,2026-06-14T19:52:54.528980+05:30
Pondicherry,Puducherry,11.9139,79.8145,27.2,85,0.0,1007.0,8.05,45.7,81,31.8,21.4,8.7,227.0,111.0,5.5,7,5,4,1,2026-06-14T19:52:54.528991+05:30
Port Blair,Andaman and Nicobar Islands,11.6234,92.7265,28.1,80,0.0,1008.1,7.45,42.8,34,16.4,9.2,0.3,95.0,43.0,0.4,7,0,4,1,2026-06-14T19:52:54.529003+05:30
Haridwar,Uttarakhand,29.9457,78.1642,29.5,67,0.0,967.7,7.65,30.6,120,64.7,33.8,8.8,328.0,113.0,9.3,7,5,7,1,2026-06-14T19:52:54.529015+05:30
Rishikesh,Uttarakhand,30.0869,78.2676,28.4,61,0.0,960.7,7.75,24.8,116,40.7,23.9,5.2,323.0,131.0,7.0,7,5,7,1,2026-06-14T19:52:54.529025+05:30
Nainital,Uttarakhand,29.3919,79.4542,16.3,79,0.0,801.9,8.6,41.4,121,120.1,45.6,6.2,264.0,111.0,5.3,3,5,7,0,2026-06-14T19:52:54.529036+05:30
Mussoorie,Uttarakhand,30.4599,78.0664,15.5,84,0.0,799.1,8.15,45.4,110,30.2,18.9,11.3,251.0,111.0,5.5,3,10,7,0,2026-06-14T19:52:54.529045+05:30
Dharamshala,Himachal Pradesh,32.219,76.3234,20.2,68,0.0,864.7,8.5,42.8,79,15.7,8.2,7.4,267.0,98.0,0.6,3,5,7,0,2026-06-14T19:52:54.529053+05:30
Dalhousie,Himachal Pradesh,32.5387,75.971,16.4,65,0.0,800.7,8.75,37.8,99,37.4,17.1,9.4,277.0,125.0,1.7,3,5,7,0,2026-06-14T19:52:54.529062+05:30
Patiala,Punjab,30.3398,76.3869,30.6,51,0.0,971.5,7.7,23.8,156,332.5,61.9,13.1,296.0,99.0,6.0,0,5,7,1,2026-06-14T19:52:54.529070+05:30
Bhatinda,Punjab,30.211,74.9455,33.0,45,0.0,977.1,8.3,33.1,132,41.7,28.2,17.4,315.0,105.0,9.8,0,5,7,1,2026-06-14T19:52:54.529078+05:30
Rohtak,Haryana,28.8955,76.6066,31.2,57,0.0,975.4,7.8,31.3,442,373.5,94.3,30.7,354.0,72.0,8.8,0,5,7,1,2026-06-14T19:52:54.529086+05:30
Panipat,Haryana,29.3909,76.9635,29.9,58,0.0,973.8,7.65,34.9,609,782.3,145.3,18.5,415.0,82.0,9.1,4,5,7,1,2026-06-14T19:52:54.529094+05:30
Mathura,Uttar Pradesh,27.4924,77.6737,31.7,50,0.0,980.7,8.1,29.9,277,491.7,100.8,24.7,192.0,67.0,5.1,0,5,7,1,2026-06-14T19:52:54.529102+05:30
Vrindavan,Uttar Pradesh,27.5823,77.7027,31.8,49,0.0,981.0,8.05,31.7,277,491.7,100.8,24.7,170.0,67.0,5.1,0,5,7,1,2026-06-14T19:52:54.529110+05:30
Ayodhya,Uttar Pradesh,26.7922,82.1998,31.0,65,0.0,989.0,8.4,30.6,151,110.6,51.6,16.4,312.0,103.0,11.3,3,5,7,1,2026-06-14T19:52:54.529117+05:30
Ratlam,Madhya Pradesh,23.3315,75.0367,32.7,39,0.0,951.2,8.5,46.8,77,100.8,35.9,1.7,143.0,95.0,4.7,0,5,7,1,2026-06-14T19:52:54.529125+05:30
Sagar,Madhya Pradesh,23.8388,78.7378,28.4,59,0.0,946.9,8.75,53.3,83,65.9,33.1,4.0,221.0,92.0,3.3,4,5,7,1,2026-06-14T19:52:54.529133+05:30
Satna,Madhya Pradesh,24.6005,80.8322,32.2,48,0.0,966.5,8.8,35.3,107,85.9,37.1,7.0,245.0,96.0,3.4,0,5,7,1,2026-06-14T19:52:54.529141+05:30
Akola,Maharashtra,20.7002,77.0082,34.5,36,0.0,972.0,8.8,52.6,72,54.0,27.6,8.9,138.0,76.0,4.5,0,5,7,1,2026-06-14T19:52:54.529149+05:30
Amravati,Maharashtra,20.9374,77.7796,33.4,39,0.0,964.2,8.85,56.5,74,62.6,31.2,7.0,210.0,83.0,5.1,0,5,7,1,2026-06-14T19:52:54.529158+05:30
Latur,Maharashtra,18.4088,76.5604,30.5,39,0.0,936.8,8.9,42.1,79,50.1,21.4,4.2,173.0,86.0,2.2,0,5,7,0,2026-06-14T19:52:54.529166+05:30
Nanded,Maharashtra,19.1383,77.3091,34.4,27,0.0,964.9,8.85,43.6,77,89.4,32.7,9.0,232.0,73.0,2.8,0,5,7,0,2026-06-14T19:52:54.529174+05:30
Gulbarga,Karnataka,17.3297,76.8343,31.1,43,0.0,955.6,8.9,41.0,70,66.8,26.8,11.3,151.0,79.0,4.0,0,5,7,1,2026-06-14T19:52:54.529181+05:30
Bidar,Karnataka,17.9104,77.5199,29.5,46,0.0,932.7,8.85,38.5,87,85.2,34.1,11.1,201.0,83.0,5.0,4,5,7,1,2026-06-14T19:52:54.529189+05:30
Hospet,Karnataka,15.2689,76.3909,26.2,77,0.0,954.4,8.65,47.9,53,16.6,9.7,4.2,143.0,69.0,1.8,7,5,7,1,2026-06-14T19:52:54.529197+05:30
Tirupur,Tamil Nadu,11.1085,77.3411,27.0,76,0.0,974.9,8.45,53.6,50,14.5,9.6,7.7,180.0,60.0,3.4,7,5,7,1,2026-06-14T19:52:54.529205+05:30
Alappuzha,Kerala,9.4981,76.3388,27.4,85,0.1,1009.6,8.15,36.7,50,17.5,10.9,7.5,95.0,54.0,3.0,10,0,4,1,2026-06-14T19:52:54.529213+05:30
Munnar,Kerala,10.0889,77.0595,16.7,99,0.0,857.0,8.55,37.4,34,11.4,7.8,5.4,123.0,47.0,1.6,3,10,7,1,2026-06-14T19:52:54.529221+05:30
Silchar,Assam,24.8333,92.7789,26.1,96,0.1,1002.2,8.8,35.6,69,35.7,32.4,8.8,314.0,75.0,4.4,10,5,4,1,2026-06-14T19:52:54.529229+05:30
Dibrugarh,Assam,27.4728,94.912,26.0,98,0.0,991.4,8.3,22.0,71,19.1,17.5,6.0,294.0,91.0,1.5,7,5,7,1,2026-06-14T19:52:54.529237+05:30
