city,state,latitude,longitude,temp,humidity,rain,pressure,uv_index,wind_gusts,aqi,pm10,pm2_5,no2,co,o3,so2,mosquito_risk,arthritis_risk,migraine_risk,frizz_risk,updated_at
Delhi,Delhi,28.6139,77.209,28.3,79,0.0,976.4,6.95,37.8,89,35.6,27.2,19.3,457.0,69.0,21.0,7,5,7,1,2026-07-23T08:26:36.837247+05:30
Mumbai,Maharashtra,19.076,72.8777,26.6,87,0.2,1003.1,1.05,69.8,53,26.0,12.0,7.1,190.0,37.0,4.0,10,5,0,1,2026-07-23T08:26:36.837298+05:30
Bangalore,Karnataka,12.9716,77.5946,22.3,82,0.0,911.9,9.1,52.2,34,12.9,7.5,9.9,378.0,25.0,5.1,3,5,7,1,2026-07-23T08:26:36.837314+05:30
Hyderabad,Telangana,17.385,78.4867,24.4,80,0.0,951.1,8.2,58.7,38,9.6,6.2,6.1,226.0,36.0,4.6,3,5,7,1,2026-07-23T08:26:36.837324+05:30
Chennai,Tamil Nadu,13.0827,80.2707,29.4,77,0.0,1007.1,8.95,37.4,76,28.8,23.2,20.8,418.0,42.0,14.3,7,5,4,1,2026-07-23T08:26:36.837331+05:30
Kolkata,West Bengal,22.5726,88.3639,26.5,94,0.1,1003.0,1.85,38.5,57,18.6,16.5,11.5,452.0,55.0,7.9,10,5,0,1,2026-07-23T08:26:36.837338+05:30
Pune,Maharashtra,18.5204,73.8567,21.3,90,0.2,942.1,1.4,59.4,27,5.0,2.9,5.2,159.0,40.0,2.6,6,5,3,1,2026-07-23T08:26:36.837345+05:30
Ahmedabad,Gujarat,23.0225,72.5714,26.3,95,0.2,992.7,3.8,45.0,59,18.0,9.8,10.9,183.0,32.0,4.1,10,5,3,1,2026-07-23T08:26:36.837351+05:30
Jaipur,Rajasthan,26.9124,75.7873,26.8,83,0.0,952.0,7.95,35.3,52,14.3,13.4,9.5,300.0,88.0,7.5,7,5,7,1,2026-07-23T08:26:36.837357+05:30
Lucknow,Uttar Pradesh,26.8467,80.9462,27.6,84,0.1,986.8,5.05,51.1,73,19.1,19.0,8.0,289.0,72.0,8.9,10,5,3,1,2026-07-23T08:26:36.837366+05:30
Kanpur,Uttar Pradesh,26.4499,80.3319,27.7,84,0.0,984.5,5.85,45.0,71,15.3,15.3,8.4,284.0,74.0,10.6,7,5,3,1,2026-07-23T08:26:36.837372+05:30
Chandigarh,Chandigarh,30.7333,76.7794,28.8,70,0.0,963.9,7.15,36.4,80,17.2,17.1,13.6,294.0,74.0,7.5,7,5,7,1,2026-07-23T08:26:36.837378+05:30
Srinagar,Jammu and Kashmir,34.0837,74.7973,18.3,92,0.0,839.6,8.75,20.5,69,13.0,12.8,15.2,370.0,49.0,2.8,3,10,7,1,2026-07-23T08:26:36.837384+05:30
Jammu,Jammu and Kashmir,32.7266,74.857,24.9,93,0.3,968.1,8.1,38.5,78,28.1,27.3,24.1,231.0,38.0,2.4,6,5,7,1,2026-07-23T08:26:36.837390+05:30
Amritsar,Punjab,31.634,74.8723,25.2,96,0.4,975.9,5.85,23.4,91,24.6,24.4,17.7,406.0,49.0,3.4,10,5,3,1,2026-07-23T08:26:36.837395+05:30
Ludhiana,Punjab,30.901,75.8573,28.0,89,0.0,973.3,7.2,33.5,125,45.3,43.9,30.8,468.0,28.0,10.0,7,5,7,1,2026-07-23T08:26:36.837400+05:30
Jalandhar,Punjab,31.326,75.5762,26.0,91,0.1,974.5,7.2,29.5,113,45.8,45.2,28.9,429.0,27.0,6.9,10,5,7,1,2026-07-23T08:26:36.837405+05:30
Dehradun,Uttarakhand,30.6284,78.0322,19.6,89,0.0,828.2,8.0,25.6,41,9.2,9.1,11.2,199.0,76.0,1.2,3,10,7,1,2026-07-23T08:26:36.837411+05:30
Shimla,Himachal Pradesh,31.1048,77.1734,17.8,85,0.0,782.9,6.55,26.6,51,8.5,8.3,8.5,214.0,73.0,2.1,3,10,7,0,2026-07-23T08:26:36.837417+05:30
Manali,Himachal Pradesh,32.2396,77.1887,20.9,90,0.0,817.1,8.1,23.0,24,2.0,1.9,11.1,239.0,58.0,1.0,3,5,7,1,2026-07-23T08:26:36.837439+05:30
Gurgaon,Haryana,28.4595,77.0266,28.6,77,0.0,974.7,6.05,39.2,91,40.3,28.2,17.5,387.0,69.0,16.0,7,5,7,1,2026-07-23T08:26:36.837447+05:30
Noida,Uttar Pradesh,28.5355,77.391,28.9,78,0.0,978.1,7.1,37.1,91,40.3,28.2,17.5,363.0,69.0,16.0,7,5,7,1,2026-07-23T08:26:36.837453+05:30
Ghaziabad,Uttar Pradesh,28.6692,77.4538,28.7,79,0.0,976.4,7.05,41.0,70,22.2,22.0,9.8,301.0,79.0,10.4,7,5,7,1,2026-07-23T08:26:36.837469+05:30
Faridabad,Haryana,28.4089,77.3178,28.4,80,0.0,977.2,6.85,40.0,91,40.3,28.2,17.5,354.0,69.0,16.0,7,5,7,1,2026-07-23T08:26:36.837476+05:30
Meerut,Uttar Pradesh,28.9845,77.7064,28.5,79,0.0,975.6,6.85,48.2,70,22.2,22.0,9.8,306.0,79.0,10.4,7,5,7,1,2026-07-23T08:26:36.837482+05:30
Agra,Uttar Pradesh,27.1767,78.0081,28.5,79,0.0,980.4,6.8,38.9,68,19.0,18.5,9.4,319.0,83.0,8.7,7,5,7,1,2026-07-23T08:26:36.837488+05:30
Varanasi,Uttar Pradesh,25.3176,82.9739,28.7,83,0.0,991.1,6.75,38.9,71,13.6,13.5,16.8,542.0,42.0,24.8,7,5,7,1,2026-07-23T08:26:36.837494+05:30
Prayagraj,Uttar Pradesh,25.4358,81.8463,28.5,83,0.0,988.8,7.85,34.6,69,16.6,16.6,12.3,271.0,58.0,17.5,7,5,7,1,2026-07-23T08:26:36.837499+05:30
Gorakhpur,Uttar Pradesh,26.7606,83.3732,27.9,82,0.0,992.1,8.0,47.5,67,19.9,19.8,7.8,280.0,69.0,9.0,7,5,7,1,2026-07-23T08:26:36.837506+05:30
Bareilly,Uttar Pradesh,28.367,79.4304,28.9,76,0.0,981.1,7.6,49.7,65,17.9,17.8,7.3,282.0,76.0,6.5,7,5,7,1,2026-07-23T08:26:36.837513+05:30
Aligarh,Uttar Pradesh,27.8974,78.088,27.6,82,0.0,979.0,7.45,42.1,71,17.0,16.9,8.1,285.0,82.0,8.4,7,5,7,1,2026-07-23T08:26:36.837519+05:30
Moradabad,Uttar Pradesh,28.8386,78.7733,28.9,77,0.0,978.1,5.95,51.8,64,21.0,20.9,8.1,272.0,80.0,8.1,7,5,3,1,2026-07-23T08:26:36.837524+05:30
Saharanpur,Uttar Pradesh,29.9637,77.546,28.2,79,0.0,970.6,7.2,36.7,71,21.5,20.7,10.2,331.0,78.0,6.6,7,5,7,1,2026-07-23T08:26:36.837529+05:30
Jhansi,Uttar Pradesh,25.4484,78.5685,27.4,87,0.0,969.8,7.2,27.7,59,15.6,15.5,7.8,241.0,84.0,9.6,7,5,7,1,2026-07-23T08:26:40.218243+05:30
Surat,Gujarat,21.1702,72.8311,26.0,93,0.8,997.3,1.1,54.0,73,23.3,17.1,24.9,329.0,20.0,40.7,10,5,3,1,2026-07-23T08:26:40.218277+05:30
Vadodara,Gujarat,22.3072,73.1812,25.4,99,0.2,995.0,0.55,53.3,61,17.8,11.4,9.9,183.0,30.0,5.7,10,5,3,1,2026-07-23T08:26:40.218284+05:30
Rajkot,Gujarat,22.3039,70.8022,27.2,83,0.0,985.7,1.2,50.4,59,17.7,8.1,4.7,107.0,36.0,4.2,7,5,3,1,2026-07-23T08:26:40.218291+05:30
Thane,Maharashtra,19.2183,72.9781,25.6,94,0.4,1002.3,1.1,52.9,53,26.0,12.0,7.1,180.0,37.0,4.0,10,5,0,1,2026-07-23T08:26:40.218298+05:30
Nagpur,Maharashtra,21.1458,79.0882,24.0,90,0.1,967.9,3.35,54.7,37,11.9,9.4,9.2,176.0,31.0,8.6,6,5,3,1,2026-07-23T08:26:40.218304+05:30
Nashik,Maharashtra,19.9975,73.7898,21.7,96,2.2,936.9,0.95,75.6,15,0.8,0.8,5.9,120.0,33.0,2.7,6,5,3,1,2026-07-23T08:26:40.218309+05:30
Aurangabad,Maharashtra,19.8762,75.3433,23.0,81,0.0,937.5,3.15,72.0,17,1.5,1.5,4.9,142.0,34.0,2.1,3,5,3,1,2026-07-23T08:26:40.218315+05:30
Solapur,Maharashtra,17.6599,75.9064,25.0,73,0.0,954.4,4.6,65.9,37,27.8,13.0,3.2,117.0,51.0,2.0,7,5,3,1,2026-07-23T08:26:40.218320+05:30
Kolhapur,Maharashtra,16.705,74.2433,21.1,88,0.0,945.5,4.55,57.2,35,48.8,21.1,4.1,141.0,47.0,1.8,3,5,3,1,2026-07-23T08:26:40.218326+05:30
Goa,Goa,15.2993,74.124,25.2,98,0.0,997.9,1.8,45.0,57,33.4,15.5,1.9,238.0,41.0,0.7,7,5,3,1,2026-07-23T08:26:40.218332+05:30
Jodhpur,Rajasthan,26.2389,73.0243,27.7,86,0.0,974.3,8.15,28.4,87,34.7,15.3,6.5,192.0,75.0,2.0,7,5,7,1,2026-07-23T08:26:40.218338+05:30
Udaipur,Rajasthan,24.5854,73.7125,24.1,96,0.1,937.0,8.65,31.0,45,4.7,3.9,8.5,167.0,35.0,2.5,6,5,7,1,2026-07-23T08:26:40.218343+05:30
Kota,Rajasthan,25.2138,75.8648,27.5,83,0.0,969.8,7.4,25.9,64,23.4,21.3,13.6,259.0,67.0,16.1,7,5,7,1,2026-07-23T08:26:40.218349+05:30
Bikaner,Rajasthan,28.0229,73.3119,28.5,81,0.0,974.0,5.5,32.8,71,4.8,4.2,3.6,250.0,99.0,3.2,7,5,3,1,2026-07-23T08:26:40.218354+05:30
Ajmer,Rajasthan,26.4499,74.6399,26.1,85,0.0,946.3,8.2,34.2,60,9.5,9.0,5.9,289.0,90.0,3.8,7,5,7,1,2026-07-23T08:26:40.218360+05:30
Gwalior,Madhya Pradesh,26.2183,78.1828,27.6,83,0.0,975.2,6.7,31.0,56,17.1,16.2,6.0,316.0,92.0,9.6,7,5,7,1,2026-07-23T08:26:40.218365+05:30
Indore,Madhya Pradesh,22.7196,75.8577,24.8,88,0.0,939.5,4.5,38.2,49,6.7,6.2,10.3,245.0,40.0,9.5,3,5,3,1,2026-07-23T08:26:40.218370+05:30
Bhopal,Madhya Pradesh,23.2599,77.4126,23.6,94,0.3,945.3,1.25,42.8,42,5.0,4.8,6.7,271.0,50.0,5.3,6,5,3,1,2026-07-23T08:26:40.218375+05:30
Jabalpur,Madhya Pradesh,23.1815,79.9864,24.9,94,0.0,954.3,0.95,37.1,33,4.0,4.0,8.1,185.0,34.0,3.9,3,5,3,1,2026-07-23T08:26:40.218380+05:30
Ujjain,Madhya Pradesh,23.1765,75.7885,24.5,94,0.0,944.9,2.9,29.5,45,6.0,5.3,5.7,237.0,58.0,4.8,3,5,3,1,2026-07-23T08:26:40.218386+05:30
Visakhapatnam,Andhra Pradesh,17.6868,83.2185,28.1,74,0.0,1002.2,8.05,45.4,69,23.4,18.3,20.4,301.0,28.0,37.2,7,5,4,1,2026-07-23T08:26:40.218391+05:30
Vijayawada,Andhra Pradesh,16.5062,80.648,30.0,67,0.0,1001.4,8.0,39.6,57,16.9,11.6,7.3,158.0,36.0,7.4,7,5,4,1,2026-07-23T08:26:40.218396+05:30
Guntur,Andhra Pradesh,16.3067,80.4365,30.7,58,0.0,1002.7,8.15,43.9,54,15.2,10.3,7.3,149.0,34.0,7.2,0,5,4,1,2026-07-23T08:26:40.218402+05:30
Nellore,Andhra Pradesh,14.4426,79.9865,31.2,55,0.0,1005.4,8.95,34.2,57,19.4,14.1,10.9,217.0,34.0,5.1,0,5,4,1,2026-07-23T08:26:40.218408+05:30
Kurnool,Andhra Pradesh,15.8281,78.0373,27.5,67,0.0,976.2,7.65,58.0,38,11.2,5.6,4.3,115.0,34.0,3.7,7,5,7,1,2026-07-23T08:26:40.218414+05:30
Kakinada,Andhra Pradesh,16.9891,82.2475,29.1,74,0.0,1006.3,8.65,43.6,65,20.0,12.2,9.0,179.0,36.0,8.5,7,5,4,1,2026-07-23T08:26:40.218419+05:30
Tirupati,Andhra Pradesh,13.6288,79.4192,28.5,62,0.0,991.1,8.95,37.1,60,20.5,17.8,17.1,167.0,24.0,3.8,7,5,7,1,2026-07-23T08:26:40.218423+05:30
Warangal,Telangana,17.9689,79.5941,26.2,75,0.0,976.6,7.1,50.8,51,11.7,9.5,7.1,159.0,34.0,4.8,7,5,7,1,2026-07-23T08:26:40.218428+05:30
Nizamabad,Telangana,18.6725,78.0941,23.6,88,0.1,961.4,6.15,61.6,43,18.0,10.1,3.7,140.0,48.0,2.0,6,5,7,1,2026-07-23T08:26:40.218433+05:30
Mysore,Karnataka,12.2958,76.6396,23.8,77,0.0,929.1,8.75,51.1,26,11.3,5.8,4.8,130.0,33.0,2.0,3,5,7,1,2026-07-23T08:26:40.218438+05:30
Mangalore,Karnataka,12.9141,74.856,24.6,94,0.0,1008.1,8.55,40.3,52,17.5,10.9,6.3,168.0,26.0,2.9,3,0,4,1,2026-07-23T08:26:40.218443+05:30
Hubli-Dharwad,Karnataka,15.3647,75.124,21.8,96,0.1,939.6,6.9,60.1,17,1.8,1.5,3.5,115.0,36.0,1.0,6,5,7,1,2026-07-23T08:26:40.218449+05:30
Belgaum,Karnataka,15.8497,74.4977,21.4,88,0.0,924.2,3.5,56.2,19,6.5,3.6,3.5,126.0,40.0,1.3,3,5,3,1,2026-07-23T08:26:43.596432+05:30
Coimbatore,Tamil Nadu,11.0168,76.9558,25.2,79,0.0,962.3,8.95,52.6,35,16.6,8.6,5.7,195.0,34.0,3.4,7,5,7,1,2026-07-23T08:26:43.596501+05:30
Madurai,Tamil Nadu,9.9252,78.1198,30.3,55,0.0,993.3,7.7,28.8,66,18.6,15.1,14.9,176.0,35.0,6.4,0,5,7,1,2026-07-23T08:26:43.596512+05:30
Trichy,Tamil Nadu,10.7905,78.7047,30.1,60,0.0,1000.0,6.9,49.0,57,12.8,8.2,6.8,125.0,29.0,4.0,0,5,4,1,2026-07-23T08:26:43.596519+05:30
Salem,Tamil Nadu,11.6643,78.146,27.2,76,0.0,978.0,8.9,35.3,68,22.7,18.3,21.0,281.0,24.0,14.5,7,5,7,1,2026-07-23T08:26:43.596526+05:30
Tirunelveli,Tamil Nadu,8.7139,77.7567,31.0,56,0.0,1003.5,7.85,50.8,44,9.9,7.5,4.8,136.0,37.0,2.3,0,5,4,1,2026-07-23T08:26:43.596532+05:30
Vellore,Tamil Nadu,12.9165,79.1325,28.4,60,0.0,984.6,9.0,36.4,62,18.1,13.1,10.4,149.0,30.0,4.5,4,5,7,1,2026-07-23T08:26:43.596538+05:30
Erode,Tamil Nadu,11.341,77.7172,28.5,65,0.0,989.9,8.9,38.2,56,20.5,15.8,12.9,192.0,25.0,5.1,7,5,7,1,2026-07-23T08:26:43.596544+05:30
Kochi,Kerala,9.9312,76.2673,25.6,90,0.1,1010.4,8.45,30.6,55,14.3,11.8,12.0,219.0,28.0,6.6,10,0,4,1,2026-07-23T08:26:43.596551+05:30
Thiruvananthapuram,Kerala,8.5241,76.9366,26.8,84,0.0,1009.3,8.3,41.4,51,12.4,8.6,6.2,193.0,37.0,4.4,7,0,4,1,2026-07-23T08:26:43.596556+05:30
Kozhikode,Kerala,11.2588,75.7804,25.4,93,0.1,1009.6,7.65,30.6,35,11.4,5.6,2.8,228.0,39.0,2.2,10,0,4,1,2026-07-23T08:26:43.596562+05:30
Thrissur,Kerala,10.5276,76.2144,25.3,94,0.0,1008.7,8.7,33.8,55,12.1,9.5,8.6,239.0,30.0,4.6,7,0,4,1,2026-07-23T08:26:43.596568+05:30
Kannur,Kerala,11.8745,75.3704,24.9,94,0.0,1008.7,8.65,38.9,46,11.7,7.0,6.6,185.0,28.0,3.0,3,0,4,1,2026-07-23T08:26:43.596574+05:30
Patna,Bihar,25.5941,85.1376,28.5,83,0.0,995.8,6.35,40.7,66,18.4,18.3,15.1,356.0,51.0,23.5,7,5,7,1,2026-07-23T08:26:43.596579+05:30
Gaya,Bihar,24.7914,85.0002,29.0,74,0.0,988.8,7.95,28.4,58,10.8,10.5,11.7,224.0,45.0,14.7,7,5,7,1,2026-07-23T08:26:43.596585+05:30
Muzaffarpur,Bihar,26.1209,85.3647,27.8,83,0.1,996.5,5.85,43.2,65,18.2,18.1,12.1,274.0,59.0,18.0,10,5,3,1,2026-07-23T08:26:43.596591+05:30
Bhagalpur,Bihar,25.2425,87.0117,28.2,82,0.0,997.7,7.25,32.8,60,16.4,16.2,14.1,306.0,48.0,22.5,7,5,7,1,2026-07-23T08:26:43.596597+05:30
Ranchi,Jharkhand,23.3441,85.3096,23.5,90,0.0,933.5,4.05,45.7,28,2.2,2.2,7.8,168.0,36.0,8.1,3,5,3,1,2026-07-23T08:26:43.596603+05:30
Jamshedpur,Jharkhand,22.8046,86.2029,26.6,85,0.0,987.3,4.35,27.0,60,17.5,15.9,20.6,251.0,25.0,23.9,7,5,3,1,2026-07-23T08:26:43.596609+05:30
Dhanbad,Jharkhand,23.7957,86.4304,27.3,81,0.0,976.0,7.95,31.3,83,30.2,29.2,32.3,1001.0,21.0,96.9,7,5,7,1,2026-07-23T08:26:43.596614+05:30
Bokaro,Jharkhand,23.6693,86.1511,27.7,79,0.0,979.7,6.05,32.4,73,23.0,21.9,24.4,260.0,25.0,76.5,7,5,7,1,2026-07-23T08:26:43.596620+05:30
Bhubaneswar,Odisha,20.2961,85.8245,27.7,86,0.0,999.7,9.0,43.9,70,28.8,21.8,8.8,351.0,57.0,9.2,7,5,7,1,2026-07-23T08:26:43.596626+05:30
Cuttack,Odisha,20.4625,85.8828,27.5,88,0.0,1001.5,7.95,39.2,70,28.8,21.8,8.8,378.0,57.0,9.2,7,5,4,1,2026-07-23T08:26:43.596631+05:30
Rourkela,Odisha,22.2604,84.8536,25.3,93,0.1,981.2,5.7,40.3,35,7.5,6.3,7.7,268.0,39.0,4.9,10,5,3,1,2026-07-23T08:26:43.596637+05:30
Raipur,Chhattisgarh,21.2514,81.6296,23.7,95,0.4,970.3,2.25,56.5,55,21.6,15.2,15.5,207.0,29.0,29.6,6,5,3,1,2026-07-23T08:26:43.596643+05:30
Bhilai,Chhattisgarh,21.1938,81.3509,23.4,95,0.1,970.7,1.5,58.3,53,21.1,14.6,14.8,348.0,30.0,27.5,6,5,3,1,2026-07-23T08:26:43.596648+05:30
Guwahati,Assam,26.1158,91.7086,27.7,85,0.0,999.6,6.75,19.8,43,10.8,10.0,5.1,228.0,56.0,2.1,7,5,7,1,2026-07-23T08:26:43.596654+05:30
Agartala,Tripura,23.8315,91.2868,26.2,95,0.0,1004.8,8.05,34.2,41,7.1,6.4,7.0,178.0,59.0,2.3,7,5,4,1,2026-07-23T08:26:43.596660+05:30
Shillong,Meghalaya,25.5788,91.8933,21.3,89,0.0,856.6,5.8,25.2,21,2.8,2.6,3.8,169.0,57.0,2.5,3,5,3,1,2026-07-23T08:26:43.596665+05:30
Imphal,Manipur,24.817,93.9368,24.9,85,0.0,922.4,8.15,24.5,40,5.2,4.6,3.1,255.0,65.0,1.6,3,5,7,1,2026-07-23T08:26:43.596671+05:30
Aizawl,Mizoram,23.7271,92.7176,22.3,80,0.0,892.0,7.55,36.7,21,1.5,1.4,1.8,123.0,57.0,0.8,3,5,7,1,2026-07-23T08:26:43.596676+05:30
Kohima,Nagaland,25.6701,94.1077,22.8,84,0.0,855.5,8.75,28.8,22,2.6,2.4,2.3,177.0,60.0,0.6,3,5,7,1,2026-07-23T08:26:43.596682+05:30
Gangtok,Sikkim,27.3314,88.6138,19.3,93,0.1,837.2,6.05,33.5,39,9.5,9.3,5.3,210.0,69.0,1.0,6,10,7,1,2026-07-23T08:26:43.596687+05:30
Siliguri,West Bengal,26.7271,88.3953,27.8,83,0.0,991.0,8.0,27.7,61,13.0,12.4,6.8,268.0,79.0,3.1,7,5,7,1,2026-07-23T08:26:46.986087+05:30
Durgapur,West Bengal,23.5204,87.3119,27.1,90,0.1,991.7,8.1,40.0,67,17.9,17.1,23.1,683.0,36.0,46.2,10,5,7,1,2026-07-23T08:26:46.986120+05:30
Asansol,West Bengal,23.6739,86.9524,27.9,87,0.0,989.9,7.9,38.9,63,16.4,15.5,26.2,243.0,30.0,52.1,7,5,7,1,2026-07-23T08:26:46.986129+05:30
Pondicherry,Puducherry,11.9139,79.8145,30.2,69,0.0,1008.3,8.8,40.0,71,20.8,15.1,12.3,252.0,46.0,11.9,3,0,4,1,2026-07-23T08:26:46.986137+05:30
Port Blair,Andaman and Nicobar Islands,11.6234,92.7265,28.2,81,0.0,1009.6,8.35,38.2,45,10.0,5.6,0.3,99.0,51.0,0.4,7,0,4,1,2026-07-23T08:26:46.986144+05:30
Haridwar,Uttarakhand,29.9457,78.1642,29.1,74,0.0,969.3,6.7,26.6,67,15.6,15.3,8.1,257.0,84.0,5.5,7,5,7,1,2026-07-23T08:26:46.986150+05:30
Rishikesh,Uttarakhand,30.0869,78.2676,27.5,82,0.0,962.1,7.35,20.5,51,10.1,10.0,4.3,263.0,91.0,4.1,7,5,7,1,2026-07-23T08:26:46.986156+05:30
Nainital,Uttarakhand,29.3919,79.4542,19.9,76,0.1,804.2,7.15,38.9,45,9.1,9.0,4.2,206.0,86.0,2.0,6,5,7,0,2026-07-23T08:26:46.986162+05:30
Mussoorie,Uttarakhand,30.4599,78.0664,18.8,85,0.0,801.3,7.0,30.2,56,8.7,8.7,7.7,195.0,85.0,2.7,3,10,7,1,2026-07-23T08:26:46.986168+05:30
Dharamshala,Himachal Pradesh,32.219,76.3234,21.7,94,0.1,866.4,7.45,27.7,49,9.7,9.6,10.9,226.0,61.0,0.8,6,5,7,1,2026-07-23T08:26:46.986174+05:30
Dalhousie,Himachal Pradesh,32.5387,75.971,16.9,99,0.0,802.6,2.1,22.7,63,11.3,10.9,16.6,247.0,67.0,1.8,3,10,3,1,2026-07-23T08:26:46.986181+05:30
Patiala,Punjab,30.3398,76.3869,28.6,78,0.0,972.6,7.5,40.3,79,71.9,27.5,13.7,364.0,68.0,10.2,7,5,7,1,2026-07-23T08:26:46.986186+05:30
Bhatinda,Punjab,30.211,74.9455,27.5,92,0.1,977.5,7.25,32.4,99,23.1,22.9,18.9,385.0,52.0,3.3,10,5,7,1,2026-07-23T08:26:46.986192+05:30
Rohtak,Haryana,28.8955,76.6066,28.8,77,0.0,975.3,5.55,41.0,96,65.7,33.2,19.7,349.0,65.0,21.0,7,5,3,1,2026-07-23T08:26:46.986197+05:30
Panipat,Haryana,29.3909,76.9635,28.4,79,0.0,974.5,7.35,45.0,85,1825.4,194.2,14.3,300.0,70.0,15.4,7,5,7,1,2026-07-23T08:26:46.986203+05:30
Mathura,Uttar Pradesh,27.4924,77.6737,28.2,82,0.0,979.7,7.15,38.2,86,22.2,21.5,9.1,300.0,83.0,5.9,7,5,7,1,2026-07-23T08:26:46.986208+05:30
Vrindavan,Uttar Pradesh,27.5823,77.7027,28.2,82,0.1,980.1,7.15,37.8,86,22.2,21.5,9.1,298.0,83.0,5.9,10,5,7,1,2026-07-23T08:26:46.986214+05:30
Ayodhya,Uttar Pradesh,26.7922,82.1998,27.6,84,0.1,989.4,6.55,46.4,71,21.1,21.0,8.1,299.0,67.0,9.1,10,5,7,1,2026-07-23T08:26:46.986219+05:30
Ratlam,Madhya Pradesh,23.3315,75.0367,23.8,96,0.1,945.5,7.2,33.5,43,4.8,4.0,5.1,171.0,57.0,4.1,6,5,7,1,2026-07-23T08:26:46.986225+05:30
Sagar,Madhya Pradesh,23.8388,78.7378,23.4,96,0.4,942.0,3.0,36.4,40,5.9,5.6,5.6,176.0,62.0,2.6,6,5,3,1,2026-07-23T08:26:46.986231+05:30
Satna,Madhya Pradesh,24.6005,80.8322,26.4,85,0.0,963.8,2.85,38.5,62,10.3,10.2,7.8,212.0,62.0,6.7,7,5,3,1,2026-07-23T08:26:46.986236+05:30
Akola,Maharashtra,20.7002,77.0082,25.4,80,0.1,968.9,2.8,65.2,22,3.0,2.6,5.3,133.0,35.0,2.1,10,5,3,1,2026-07-23T08:26:46.986243+05:30
Amravati,Maharashtra,20.9374,77.7796,23.2,93,0.2,961.6,5.1,64.1,24,4.4,3.3,5.6,130.0,35.0,2.6,6,5,3,1,2026-07-23T08:26:46.986250+05:30
Latur,Maharashtra,18.4088,76.5604,24.0,76,0.0,935.8,4.7,65.5,40,39.6,17.9,3.2,117.0,56.0,1.5,3,5,3,1,2026-07-23T08:26:46.986256+05:30
Nanded,Maharashtra,19.1383,77.3091,24.3,80,0.0,964.6,5.15,58.0,45,28.3,14.1,4.1,149.0,53.0,3.0,3,5,3,1,2026-07-23T08:26:46.986262+05:30
Gulbarga,Karnataka,17.3297,76.8343,25.0,76,0.0,956.4,5.9,63.7,33,9.8,5.9,4.2,126.0,42.0,2.5,7,5,3,1,2026-07-23T08:26:46.986268+05:30
Bidar,Karnataka,17.9104,77.5199,24.4,78,0.0,932.5,7.55,68.4,36,14.9,7.9,4.1,123.0,46.0,2.3,3,5,7,1,2026-07-23T08:26:46.986273+05:30
Hospet,Karnataka,15.2689,76.3909,24.4,80,0.0,955.0,7.05,58.7,20,3.0,2.1,2.9,112.0,34.0,1.5,3,5,7,1,2026-07-23T08:26:46.986279+05:30
Tirupur,Tamil Nadu,11.1085,77.3411,26.5,75,0.0,976.0,8.95,55.8,58,22.8,17.5,14.0,161.0,26.0,6.1,7,5,7,1,2026-07-23T08:26:46.986284+05:30
Alappuzha,Kerala,9.4981,76.3388,26.4,92,0.0,1010.2,7.1,32.4,57,18.5,13.4,10.1,179.0,34.0,5.7,7,0,4,1,2026-07-23T08:26:46.986290+05:30
Munnar,Kerala,10.0889,77.0595,18.6,86,0.0,857.8,7.8,37.8,33,9.8,6.5,4.2,102.0,33.0,1.2,3,10,7,1,2026-07-23T08:26:46.986295+05:30
Silchar,Assam,24.8333,92.7789,27.4,87,0.0,1003.9,4.05,24.1,55,10.3,9.2,3.9,204.0,67.0,3.3,7,5,0,1,2026-07-23T08:26:46.986300+05:30
Dibrugarh,Assam,27.4728,94.912,26.2,90,0.1,994.3,8.2,22.7,52,5.4,5.2,3.6,185.0,76.0,0.9,10,5,7,1,2026-07-23T08:26:46.986306+05:30
