city,state,latitude,longitude,temp,humidity,rain,pressure,uv_index,wind_gusts,aqi,pm10,pm2_5,mosquito_risk,arthritis_risk,migraine_risk,frizz_risk,updated_at
Delhi,Delhi,28.6139,77.209,35.6,23,0.0,979.2,7.4,31.0,289,226.3,44.9,0,5,10,0,2026-04-23T19:21:55.667304+05:30
Mumbai,Maharashtra,19.076,72.8777,30.0,75,0.0,1005.2,8.05,25.9,143,36.7,30.4,7,5,4,1,2026-04-23T19:21:55.667347+05:30
Bangalore,Karnataka,12.9716,77.5946,31.1,28,0.0,909.6,9.4,33.1,148,26.6,22.6,0,5,7,0,2026-04-23T19:21:55.667363+05:30
Hyderabad,Telangana,17.385,78.4867,31.6,45,0.0,951.4,8.85,42.5,171,42.0,36.7,0,5,7,1,2026-04-23T19:21:55.667374+05:30
Chennai,Tamil Nadu,13.0827,80.2707,30.3,73,0.0,1004.5,9.3,33.1,33,9.2,6.3,3,5,4,1,2026-04-23T19:21:55.667383+05:30
Kolkata,West Bengal,22.5726,88.3639,30.6,79,0.0,1002.0,8.85,23.4,115,51.6,47.1,3,5,4,1,2026-04-23T19:21:55.667397+05:30
Pune,Maharashtra,18.5204,73.8567,32.4,38,0.0,947.1,8.65,38.5,145,37.7,31.4,0,5,7,1,2026-04-23T19:21:55.667405+05:30
Ahmedabad,Gujarat,23.0225,72.5714,36.8,26,0.0,998.4,8.2,29.5,62,38.5,12.9,0,5,10,0,2026-04-23T19:21:55.667413+05:30
Jaipur,Rajasthan,26.9124,75.7873,34.7,17,0.0,957.1,8.05,29.9,120,77.8,13.8,0,5,7,0,2026-04-23T19:21:55.667421+05:30
Lucknow,Uttar Pradesh,26.8467,80.9462,35.3,23,0.0,989.1,7.85,38.5,191,212.8,42.0,0,5,10,0,2026-04-23T19:21:55.667430+05:30
Kanpur,Uttar Pradesh,26.4499,80.3319,32.9,34,0.0,987.6,7.9,29.5,400,320.4,44.8,0,5,7,0,2026-04-23T19:21:55.667440+05:30
Chandigarh,Chandigarh,30.7333,76.7794,31.6,50,0.0,965.0,7.4,32.4,155,28.8,19.6,0,5,7,1,2026-04-23T19:21:55.667448+05:30
Srinagar,Jammu and Kashmir,34.0837,74.7973,20.6,67,0.0,843.2,6.85,17.3,85,33.6,21.9,3,5,7,0,2026-04-23T19:21:55.667456+05:30
Jammu,Jammu and Kashmir,32.7266,74.857,30.5,53,0.0,969.6,8.2,37.1,124,55.4,31.1,0,5,7,1,2026-04-23T19:21:55.667463+05:30
Amritsar,Punjab,31.634,74.8723,32.4,39,0.0,977.6,7.55,34.6,158,38.9,21.4,0,5,7,1,2026-04-23T19:21:55.667470+05:30
Ludhiana,Punjab,30.901,75.8573,35.0,29,0.0,974.7,7.7,34.6,134,37.3,20.3,0,5,7,0,2026-04-23T19:21:55.667482+05:30
Jalandhar,Punjab,31.326,75.5762,33.8,29,0.0,975.9,7.9,25.9,133,48.1,21.6,0,5,7,0,2026-04-23T19:21:55.667489+05:30
Dehradun,Uttarakhand,30.6284,78.0322,21.0,60,0.0,830.7,7.85,36.7,147,30.5,19.3,0,5,7,0,2026-04-23T19:21:55.667495+05:30
Shimla,Himachal Pradesh,31.1048,77.1734,21.8,35,0.0,787.0,7.9,49.7,134,24.5,14.5,0,5,7,0,2026-04-23T19:21:55.667502+05:30
Manali,Himachal Pradesh,32.2396,77.1887,19.9,80,0.0,824.0,9.85,34.9,155,19.0,9.9,3,5,7,1,2026-04-23T19:21:55.667509+05:30
Gurgaon,Haryana,28.4595,77.0266,35.2,27,0.0,977.7,7.5,24.5,915,299.9,48.2,0,5,10,0,2026-04-23T19:21:55.667515+05:30
Noida,Uttar Pradesh,28.5355,77.391,35.1,24,0.0,980.6,7.4,31.7,915,299.9,48.2,0,5,10,0,2026-04-23T19:21:55.667522+05:30
Ghaziabad,Uttar Pradesh,28.6692,77.4538,34.6,28,0.0,978.9,7.4,30.6,215,165.8,43.5,0,5,7,0,2026-04-23T19:21:55.667528+05:30
Faridabad,Haryana,28.4089,77.3178,34.2,22,0.0,979.7,7.45,29.9,915,299.9,48.2,0,5,7,0,2026-04-23T19:21:55.667534+05:30
Meerut,Uttar Pradesh,28.9845,77.7064,32.9,31,0.0,977.5,7.3,29.9,215,165.8,43.5,0,5,7,0,2026-04-23T19:21:55.667543+05:30
Agra,Uttar Pradesh,27.1767,78.0081,32.9,25,0.0,984.1,7.75,32.0,601,205.4,36.1,0,5,7,0,2026-04-23T19:21:55.667551+05:30
Varanasi,Uttar Pradesh,25.3176,82.9739,34.8,23,0.0,992.7,8.45,35.3,154,194.6,47.5,0,5,7,0,2026-04-23T19:21:55.667558+05:30
Prayagraj,Uttar Pradesh,25.4358,81.8463,35.5,26,0.0,991.6,8.35,31.0,159,177.0,43.3,0,5,10,0,2026-04-23T19:21:55.667565+05:30
Gorakhpur,Uttar Pradesh,26.7606,83.3732,34.8,23,0.0,992.2,8.25,31.3,178,51.9,27.4,0,5,7,0,2026-04-23T19:21:55.667572+05:30
Bareilly,Uttar Pradesh,28.367,79.4304,33.7,29,0.0,982.2,7.65,29.9,179,58.6,27.2,0,5,7,0,2026-04-23T19:21:55.667578+05:30
Aligarh,Uttar Pradesh,27.8974,78.088,33.3,25,0.0,981.4,7.55,31.3,550,333.4,46.0,0,5,7,0,2026-04-23T19:21:55.667584+05:30
Moradabad,Uttar Pradesh,28.8386,78.7733,33.8,29,0.0,979.1,7.5,32.0,176,59.6,30.4,0,5,7,0,2026-04-23T19:21:55.667590+05:30
Saharanpur,Uttar Pradesh,29.9637,77.546,31.3,41,0.0,971.6,7.1,33.8,162,72.4,34.6,0,5,7,1,2026-04-23T19:21:55.667597+05:30
Jhansi,Uttar Pradesh,25.4484,78.5685,36.7,14,0.0,974.8,8.25,30.6,100,15.7,13.8,0,5,10,0,2026-04-23T19:21:58.887403+05:30
Surat,Gujarat,21.1702,72.8311,30.2,64,0.0,1003.6,7.9,23.4,95,55.4,51.0,3,5,4,1,2026-04-23T19:21:58.887433+05:30
Vadodara,Gujarat,22.3072,73.1812,36.4,31,0.0,1000.4,8.15,26.6,128,34.0,23.3,0,5,7,1,2026-04-23T19:21:58.887443+05:30
Rajkot,Gujarat,22.3039,70.8022,34.2,30,0.0,991.5,7.9,33.8,65,33.6,11.7,0,5,7,0,2026-04-23T19:21:58.887451+05:30
Thane,Maharashtra,19.2183,72.9781,30.7,63,0.0,1004.7,8.05,37.4,143,36.7,30.4,3,5,4,1,2026-04-23T19:21:58.887458+05:30
Nagpur,Maharashtra,21.1458,79.0882,35.1,33,0.0,969.6,8.95,24.8,153,30.9,26.7,0,5,10,1,2026-04-23T19:21:58.887465+05:30
Nashik,Maharashtra,19.9975,73.7898,31.9,35,0.0,944.4,8.3,29.5,135,30.9,26.1,0,5,7,0,2026-04-23T19:21:58.887472+05:30
Aurangabad,Maharashtra,19.8762,75.3433,34.0,26,0.0,942.7,9.05,33.8,139,31.4,26.7,0,5,7,0,2026-04-23T19:21:58.887478+05:30
Solapur,Maharashtra,17.6599,75.9064,33.8,43,0.0,955.0,9.1,36.4,161,38.5,32.6,0,5,7,1,2026-04-23T19:21:58.887485+05:30
Kolhapur,Maharashtra,16.705,74.2433,27.4,72,0.0,946.4,9.05,47.9,163,46.9,44.1,7,5,7,1,2026-04-23T19:21:58.887492+05:30
Goa,Goa,15.2993,74.124,30.2,78,0.0,995.1,9.0,31.7,85,32.8,21.7,3,5,7,1,2026-04-23T19:21:58.887499+05:30
Jodhpur,Rajasthan,26.2389,73.0243,36.3,24,0.0,979.6,8.25,22.3,79,49.2,11.3,0,5,10,0,2026-04-23T19:21:58.887505+05:30
Udaipur,Rajasthan,24.5854,73.7125,31.9,27,0.0,944.9,8.8,32.0,56,50.2,12.8,0,5,7,0,2026-04-23T19:21:58.887511+05:30
Kota,Rajasthan,25.2138,75.8648,35.8,13,0.0,975.0,8.25,33.8,122,13.6,11.5,0,5,10,0,2026-04-23T19:21:58.887518+05:30
Bikaner,Rajasthan,28.0229,73.3119,38.4,17,0.0,978.1,8.15,23.4,80,82.9,19.1,0,5,10,0,2026-04-23T19:21:58.887524+05:30
Ajmer,Rajasthan,26.4499,74.6399,33.3,25,0.0,952.4,8.2,26.6,92,8.3,5.4,0,5,7,0,2026-04-23T19:21:58.887530+05:30
Gwalior,Madhya Pradesh,26.2183,78.1828,34.0,23,0.0,979.9,8.0,37.8,86,8.7,7.2,0,5,7,0,2026-04-23T19:21:58.887536+05:30
Indore,Madhya Pradesh,22.7196,75.8577,33.3,26,0.0,946.4,8.55,37.1,128,28.1,23.7,0,5,7,0,2026-04-23T19:21:58.887542+05:30
Bhopal,Madhya Pradesh,23.2599,77.4126,34.3,26,0.0,951.3,8.45,28.4,117,22.8,19.3,0,5,7,0,2026-04-23T19:21:58.887548+05:30
Jabalpur,Madhya Pradesh,23.1815,79.9864,34.3,29,0.0,958.8,8.8,25.2,117,26.4,22.1,0,5,7,0,2026-04-23T19:21:58.887554+05:30
Ujjain,Madhya Pradesh,23.1765,75.7885,33.6,22,0.0,952.0,8.55,36.7,123,22.7,20.0,0,5,7,0,2026-04-23T19:21:58.887561+05:30
Visakhapatnam,Andhra Pradesh,17.6868,83.2185,28.8,78,0.0,1000.9,9.2,35.3,66,19.4,15.0,7,5,4,1,2026-04-23T19:21:58.887568+05:30
Vijayawada,Andhra Pradesh,16.5062,80.648,32.6,49,0.0,999.5,9.25,24.8,58,20.5,17.0,0,5,7,1,2026-04-23T19:21:58.887574+05:30
Guntur,Andhra Pradesh,16.3067,80.4365,30.9,61,0.0,1001.0,9.3,29.9,60,21.8,18.0,3,5,4,1,2026-04-23T19:21:58.887580+05:30
Nellore,Andhra Pradesh,14.4426,79.9865,30.0,72,0.0,1002.7,9.3,32.0,69,13.5,10.2,7,5,4,1,2026-04-23T19:21:58.887587+05:30
Kurnool,Andhra Pradesh,15.8281,78.0373,35.6,34,0.0,973.9,8.9,32.8,141,35.2,30.4,0,5,10,1,2026-04-23T19:21:58.887593+05:30
Kakinada,Andhra Pradesh,16.9891,82.2475,30.8,65,0.0,1004.5,9.25,29.2,45,14.3,9.0,3,5,4,1,2026-04-23T19:21:58.887600+05:30
Tirupati,Andhra Pradesh,13.6288,79.4192,33.5,41,0.0,988.6,9.35,33.8,78,18.6,16.2,0,5,7,1,2026-04-23T19:21:58.887606+05:30
Warangal,Telangana,17.9689,79.5941,34.8,42,0.0,975.8,8.55,20.5,162,54.4,46.4,0,5,7,1,2026-04-23T19:21:58.887612+05:30
Nizamabad,Telangana,18.6725,78.0941,35.4,28,0.0,961.9,8.6,28.4,154,45.2,38.3,0,5,10,0,2026-04-23T19:21:58.887618+05:30
Mysore,Karnataka,12.2958,76.6396,31.6,39,0.0,926.3,9.3,39.6,166,28.9,24.1,0,5,7,0,2026-04-23T19:21:58.887624+05:30
Mangalore,Karnataka,12.9141,74.856,30.7,77,0.0,1003.8,8.95,27.0,100,35.0,26.2,3,5,4,1,2026-04-23T19:21:58.887630+05:30
Hubli-Dharwad,Karnataka,15.3647,75.124,28.6,56,0.0,939.0,9.25,44.3,179,34.5,31.2,4,5,7,1,2026-04-23T19:21:58.887637+05:30
Belgaum,Karnataka,15.8497,74.4977,28.4,62,0.0,924.4,9.25,39.2,175,32.9,29.9,7,5,7,1,2026-04-23T19:22:02.106805+05:30
Coimbatore,Tamil Nadu,11.0168,76.9558,28.0,75,0.0,959.5,9.4,35.6,131,26.3,22.3,7,5,7,1,2026-04-23T19:22:02.106834+05:30
Madurai,Tamil Nadu,9.9252,78.1198,33.5,51,0.0,990.1,9.3,37.4,98,8.4,7.3,0,5,7,1,2026-04-23T19:22:02.106844+05:30
Trichy,Tamil Nadu,10.7905,78.7047,33.1,53,0.0,996.7,9.3,22.3,78,9.3,9.0,0,5,7,1,2026-04-23T19:22:02.106852+05:30
Salem,Tamil Nadu,11.6643,78.146,33.5,39,0.0,974.3,9.4,31.0,103,20.9,16.1,0,5,7,1,2026-04-23T19:22:02.106859+05:30
Tirunelveli,Tamil Nadu,8.7139,77.7567,31.4,62,0.0,1000.5,9.25,38.5,102,18.2,16.8,3,5,4,1,2026-04-23T19:22:02.106866+05:30
Vellore,Tamil Nadu,12.9165,79.1325,32.3,50,0.0,981.8,9.4,30.6,77,20.7,19.2,0,5,7,1,2026-04-23T19:22:02.106873+05:30
Erode,Tamil Nadu,11.341,77.7172,35.6,31,0.0,985.4,9.35,30.6,93,18.0,14.2,0,5,10,0,2026-04-23T19:22:02.106880+05:30
Kochi,Kerala,9.9312,76.2673,30.0,81,0.0,1006.0,9.1,29.9,92,19.3,16.3,7,5,4,1,2026-04-23T19:22:02.106888+05:30
Thiruvananthapuram,Kerala,8.5241,76.9366,28.9,81,0.0,1005.7,8.55,21.2,78,20.5,15.7,7,5,4,1,2026-04-23T19:22:02.106896+05:30
Kozhikode,Kerala,11.2588,75.7804,30.1,77,0.0,1005.1,9.1,28.1,80,31.9,22.8,3,5,4,1,2026-04-23T19:22:02.106906+05:30
Thrissur,Kerala,10.5276,76.2144,30.3,76,0.0,1004.0,9.15,35.3,99,21.1,18.6,3,5,4,1,2026-04-23T19:22:02.106913+05:30
Kannur,Kerala,11.8745,75.3704,30.1,75,0.0,1004.5,9.1,31.3,105,40.2,30.2,3,5,4,1,2026-04-23T19:22:02.106919+05:30
Patna,Bihar,25.5941,85.1376,34.0,40,0.0,995.7,8.6,22.3,209,120.6,50.6,0,5,7,1,2026-04-23T19:22:02.106926+05:30
Gaya,Bihar,24.7914,85.0002,33.9,33,0.0,989.5,8.55,34.9,168,184.9,50.6,0,5,7,0,2026-04-23T19:22:02.106933+05:30
Muzaffarpur,Bihar,26.1209,85.3647,32.6,53,0.0,995.9,8.6,25.9,200,104.1,56.7,0,5,7,1,2026-04-23T19:22:02.106939+05:30
Bhagalpur,Bihar,25.2425,87.0117,33.3,47,0.0,997.2,8.6,19.1,220,143.9,55.4,0,5,7,1,2026-04-23T19:22:02.106945+05:30
Ranchi,Jharkhand,23.3441,85.3096,31.1,20,0.0,935.9,8.8,36.7,124,90.8,25.4,0,5,7,0,2026-04-23T19:22:02.106951+05:30
Jamshedpur,Jharkhand,22.8046,86.2029,36.2,33,0.0,986.2,8.85,16.9,203,106.4,37.4,0,5,10,1,2026-04-23T19:22:02.106957+05:30
Dhanbad,Jharkhand,23.7957,86.4304,35.5,18,0.0,976.2,8.8,35.3,162,193.2,62.6,0,5,10,0,2026-04-23T19:22:02.106964+05:30
Bokaro,Jharkhand,23.6693,86.1511,34.1,23,0.0,980.4,8.65,38.2,154,192.8,61.0,0,5,7,0,2026-04-23T19:22:02.106970+05:30
Bhubaneswar,Odisha,20.2961,85.8245,29.6,78,0.0,998.9,9.15,36.0,177,26.8,23.5,7,5,7,1,2026-04-23T19:22:02.106976+05:30
Cuttack,Odisha,20.4625,85.8828,31.4,71,0.0,1000.6,9.2,50.0,177,26.8,23.5,3,5,4,1,2026-04-23T19:22:02.106983+05:30
Rourkela,Odisha,22.2604,84.8536,35.0,34,0.0,980.7,8.9,22.7,168,77.5,29.5,0,5,7,1,2026-04-23T19:22:02.106989+05:30
Raipur,Chhattisgarh,21.2514,81.6296,36.2,23,0.0,970.8,7.9,29.5,164,31.0,28.8,0,5,10,0,2026-04-23T19:22:02.106995+05:30
Bhilai,Chhattisgarh,21.1938,81.3509,34.7,29,0.0,971.1,7.7,25.9,140,32.9,30.0,0,5,7,0,2026-04-23T19:22:02.107000+05:30
Guwahati,Assam,26.1158,91.7086,28.7,80,0.0,998.8,8.55,20.9,114,95.0,55.2,7,5,7,1,2026-04-23T19:22:02.107006+05:30
Agartala,Tripura,23.8315,91.2868,30.3,74,0.0,1002.5,8.4,20.5,108,79.2,44.6,3,5,4,1,2026-04-23T19:22:02.107013+05:30
Shillong,Meghalaya,25.5788,91.8933,17.9,89,0.0,855.9,8.95,36.0,123,71.9,40.5,3,10,7,1,2026-04-23T19:22:02.107020+05:30
Imphal,Manipur,24.817,93.9368,21.7,74,0.0,922.0,9.15,50.0,121,88.5,44.6,3,5,7,1,2026-04-23T19:22:02.107026+05:30
Aizawl,Mizoram,23.7271,92.7176,23.8,70,0.0,891.5,8.95,35.3,136,127.6,51.6,3,5,7,1,2026-04-23T19:22:02.107032+05:30
Kohima,Nagaland,25.6701,94.1077,18.3,95,0.0,854.5,9.05,50.0,142,74.3,44.1,3,10,7,1,2026-04-23T19:22:02.107039+05:30
Gangtok,Sikkim,27.3314,88.6138,19.5,89,0.0,837.8,8.9,21.6,154,71.0,46.3,3,10,7,1,2026-04-23T19:22:02.107045+05:30
Siliguri,West Bengal,26.7271,88.3953,25.0,81,0.0,992.1,8.5,22.3,150,82.2,50.1,7,5,7,1,2026-04-23T19:22:05.332711+05:30
Durgapur,West Bengal,23.5204,87.3119,34.0,55,0.0,991.2,8.95,25.6,178,183.5,68.9,0,5,7,1,2026-04-23T19:22:05.332778+05:30
Asansol,West Bengal,23.6739,86.9524,34.7,50,0.0,989.7,8.95,28.4,155,174.6,49.9,0,5,7,1,2026-04-23T19:22:05.332797+05:30
Pondicherry,Puducherry,11.9139,79.8145,29.6,77,0.0,1005.8,9.25,29.5,27,7.8,5.0,7,5,4,1,2026-04-23T19:22:05.332806+05:30
Port Blair,Andaman and Nicobar Islands,11.6234,92.7265,30.2,70,0.0,1005.5,9.15,18.4,35,13.8,6.5,3,5,4,1,2026-04-23T19:22:05.332815+05:30
Haridwar,Uttarakhand,29.9457,78.1642,31.9,39,0.0,970.6,7.2,38.5,162,43.3,27.4,0,5,7,1,2026-04-23T19:22:05.332824+05:30
Rishikesh,Uttarakhand,30.0869,78.2676,30.1,45,0.0,963.8,7.3,36.4,155,31.0,20.9,0,5,7,1,2026-04-23T19:22:05.332831+05:30
Nainital,Uttarakhand,29.3919,79.4542,25.9,29,0.0,807.3,8.15,53.6,161,29.5,21.9,4,5,7,0,2026-04-23T19:22:05.332840+05:30
Mussoorie,Uttarakhand,30.4599,78.0664,23.1,45,0.0,803.8,7.7,42.5,165,37.6,23.5,0,5,7,0,2026-04-23T19:22:05.332847+05:30
Dharamshala,Himachal Pradesh,32.219,76.3234,26.8,39,0.0,869.3,8.05,33.1,108,22.1,11.7,4,5,7,0,2026-04-23T19:22:05.332854+05:30
Dalhousie,Himachal Pradesh,32.5387,75.971,24.8,37,0.0,805.7,8.35,30.2,125,29.9,16.2,0,5,7,0,2026-04-23T19:22:05.332861+05:30
Patiala,Punjab,30.3398,76.3869,33.9,39,0.0,974.2,7.3,20.2,175,207.2,38.8,0,5,7,1,2026-04-23T19:22:05.332868+05:30
Bhatinda,Punjab,30.211,74.9455,36.4,19,0.0,979.3,8.0,28.1,135,34.6,16.5,0,5,10,0,2026-04-23T19:22:05.332876+05:30
Rohtak,Haryana,28.8955,76.6066,32.1,40,0.0,977.8,7.45,23.8,411,196.5,41.1,0,5,7,1,2026-04-23T19:22:05.332883+05:30
Panipat,Haryana,29.3909,76.9635,33.4,37,0.0,976.6,7.25,21.2,741,290.6,54.1,0,5,7,1,2026-04-23T19:22:05.332889+05:30
Mathura,Uttar Pradesh,27.4924,77.6737,32.2,25,0.0,982.9,7.7,27.0,524,129.0,26.3,0,5,7,0,2026-04-23T19:22:05.332896+05:30
Vrindavan,Uttar Pradesh,27.5823,77.7027,32.7,29,0.0,983.2,7.65,27.4,524,129.0,26.3,0,5,7,0,2026-04-23T19:22:05.332902+05:30
Ayodhya,Uttar Pradesh,26.7922,82.1998,34.6,25,0.0,990.3,8.05,40.3,169,82.7,31.9,0,5,7,0,2026-04-23T19:22:05.332908+05:30
Ratlam,Madhya Pradesh,23.3315,75.0367,31.3,39,0.0,952.6,8.5,33.8,126,18.1,15.2,0,5,7,0,2026-04-23T19:22:05.332914+05:30
Sagar,Madhya Pradesh,23.8388,78.7378,34.6,20,0.0,948.0,8.65,32.0,120,18.9,16.2,0,5,7,0,2026-04-23T19:22:05.332920+05:30
Satna,Madhya Pradesh,24.6005,80.8322,35.5,14,0.0,968.2,8.65,28.1,117,50.3,15.7,0,5,10,0,2026-04-23T19:22:05.332926+05:30
Akola,Maharashtra,20.7002,77.0082,36.9,22,0.0,971.7,8.85,31.0,150,30.7,25.9,0,5,10,0,2026-04-23T19:22:05.332934+05:30
Amravati,Maharashtra,20.9374,77.7796,36.5,29,0.0,963.8,8.7,16.9,151,29.0,24.0,0,5,10,0,2026-04-23T19:22:05.332941+05:30
Latur,Maharashtra,18.4088,76.5604,32.1,39,0.0,937.8,9.1,41.0,168,36.0,31.3,0,5,7,1,2026-04-23T19:22:05.332948+05:30
Nanded,Maharashtra,19.1383,77.3091,34.7,32,0.0,965.4,9.05,27.7,156,36.6,30.9,0,5,7,0,2026-04-23T19:22:05.332955+05:30
Gulbarga,Karnataka,17.3297,76.8343,32.0,42,0.0,956.8,8.65,65.9,177,42.5,36.6,0,5,7,1,2026-04-23T19:22:05.332961+05:30
Bidar,Karnataka,17.9104,77.5199,31.6,43,0.0,934.0,7.95,29.9,165,44.2,38.0,0,5,7,1,2026-04-23T19:22:05.332967+05:30
Hospet,Karnataka,15.2689,76.3909,33.7,45,0.0,953.3,8.95,31.7,175,39.2,34.6,0,5,7,1,2026-04-23T19:22:05.332973+05:30
Tirupur,Tamil Nadu,11.1085,77.3411,35.3,27,0.0,972.0,9.45,31.7,111,20.1,15.8,0,5,10,0,2026-04-23T19:22:05.332979+05:30
Alappuzha,Kerala,9.4981,76.3388,29.7,80,0.0,1006.2,9.1,27.4,84,21.5,16.9,7,5,4,1,2026-04-23T19:22:05.332986+05:30
Munnar,Kerala,10.0889,77.0595,23.5,91,0.0,855.6,9.65,33.8,96,17.5,15.6,3,5,7,1,2026-04-23T19:22:05.332992+05:30
Silchar,Assam,24.8333,92.7789,28.7,78,0.0,1002.1,8.7,19.1,141,118.0,66.6,7,5,4,1,2026-04-23T19:22:05.332999+05:30
Dibrugarh,Assam,27.4728,94.912,28.5,72,0.0,993.2,8.65,11.2,95,30.9,26.5,7,5,7,1,2026-04-23T19:22:05.333005+05:30
