city,state,latitude,longitude,temp,humidity,rain,pressure,uv_index,wind_gusts,aqi,pm10,pm2_5,no2,co,o3,so2,mosquito_risk,arthritis_risk,migraine_risk,frizz_risk,updated_at
Delhi,Delhi,28.6139,77.209,35.3,50,0.0,973.7,6.85,24.8,120,104.8,40.6,14.1,494.0,160.0,26.1,0,5,10,1,2026-07-03T17:04:37.745795+05:30
Mumbai,Maharashtra,19.076,72.8777,26.3,90,0.2,1004.1,0.95,42.8,45,18.6,10.1,6.8,269.0,56.0,3.6,10,5,0,1,2026-07-03T17:04:37.745849+05:30
Bangalore,Karnataka,12.9716,77.5946,23.8,77,0.2,909.8,6.75,61.9,30,10.0,6.5,11.5,499.0,58.0,2.6,6,5,7,1,2026-07-03T17:04:37.745867+05:30
Hyderabad,Telangana,17.385,78.4867,25.1,84,0.0,947.4,2.8,62.3,25,5.3,4.7,8.4,294.0,54.0,3.3,7,5,3,1,2026-07-03T17:04:37.745878+05:30
Chennai,Tamil Nadu,13.0827,80.2707,28.2,88,0.3,1003.8,7.55,49.0,54,24.3,17.1,8.3,250.0,92.0,7.1,10,5,4,1,2026-07-03T17:04:37.745887+05:30
Kolkata,West Bengal,22.5726,88.3639,30.5,80,0.0,995.2,7.45,41.0,59,10.6,9.8,6.8,424.0,67.0,6.0,3,5,7,1,2026-07-03T17:04:37.745904+05:30
Pune,Maharashtra,18.5204,73.8567,24.1,90,0.0,943.3,1.45,45.7,24,2.9,2.5,8.0,174.0,46.0,3.9,3,5,3,1,2026-07-03T17:04:37.745913+05:30
Ahmedabad,Gujarat,23.0225,72.5714,27.3,92,0.1,994.9,2.45,53.6,61,70.8,28.8,9.9,169.0,71.0,8.5,10,5,3,1,2026-07-03T17:04:37.745921+05:30
Jaipur,Rajasthan,26.9124,75.7873,33.2,55,0.0,951.3,6.6,42.1,108,126.7,45.4,7.8,183.0,102.0,3.9,0,5,7,1,2026-07-03T17:04:37.745929+05:30
Lucknow,Uttar Pradesh,26.8467,80.9462,34.6,60,0.0,983.5,7.85,28.8,104,17.6,17.3,2.2,297.0,144.0,4.9,0,5,7,1,2026-07-03T17:04:37.745939+05:30
Kanpur,Uttar Pradesh,26.4499,80.3319,34.4,62,0.1,981.7,7.65,27.7,112,24.2,17.7,2.5,294.0,146.0,5.3,6,5,7,1,2026-07-03T17:04:37.745948+05:30
Chandigarh,Chandigarh,30.7333,76.7794,29.2,87,0.2,961.7,7.7,29.2,133,23.4,22.9,1.5,414.0,170.0,6.3,10,5,7,1,2026-07-03T17:04:37.745955+05:30
Srinagar,Jammu and Kashmir,34.0837,74.7973,29.1,44,0.0,839.6,9.05,19.1,137,11.4,9.5,3.1,286.0,153.0,2.0,4,5,7,0,2026-07-03T17:04:37.745962+05:30
Jammu,Jammu and Kashmir,32.7266,74.857,36.1,41,0.0,964.8,8.6,26.3,157,21.6,15.2,0.5,343.0,186.0,3.2,0,5,10,1,2026-07-03T17:04:37.745969+05:30
Amritsar,Punjab,31.634,74.8723,34.9,54,0.0,972.7,8.4,31.3,151,25.2,18.7,0.9,297.0,163.0,3.4,0,5,7,1,2026-07-03T17:04:37.745976+05:30
Ludhiana,Punjab,30.901,75.8573,34.4,56,0.0,970.7,7.95,25.9,114,24.2,22.8,2.1,342.0,150.0,4.7,0,5,7,1,2026-07-03T17:04:37.746021+05:30
Jalandhar,Punjab,31.326,75.5762,34.6,54,0.0,971.8,8.15,23.4,126,23.6,22.5,2.0,299.0,159.0,3.6,0,5,7,1,2026-07-03T17:04:37.746037+05:30
Dehradun,Uttarakhand,30.6284,78.0322,23.7,78,0.0,828.0,7.8,27.0,87,10.9,10.5,1.8,233.0,129.0,1.4,3,5,7,1,2026-07-03T17:04:37.746044+05:30
Shimla,Himachal Pradesh,31.1048,77.1734,16.7,98,0.4,782.0,7.6,29.9,94,12.8,12.1,3.8,236.0,133.0,2.9,6,10,7,1,2026-07-03T17:04:37.746051+05:30
Manali,Himachal Pradesh,32.2396,77.1887,24.6,77,0.1,818.2,9.55,36.4,91,28.1,27.8,35.1,193.0,137.0,1.3,6,5,7,1,2026-07-03T17:04:37.746059+05:30
Gurgaon,Haryana,28.4595,77.0266,34.8,54,0.0,972.3,7.6,22.3,148,252.4,54.0,9.3,413.0,151.0,14.3,0,5,7,1,2026-07-03T17:04:37.746066+05:30
Noida,Uttar Pradesh,28.5355,77.391,34.6,57,0.0,975.2,5.8,24.8,148,252.4,54.0,9.3,338.0,151.0,14.3,0,5,3,1,2026-07-03T17:04:37.746072+05:30
Ghaziabad,Uttar Pradesh,28.6692,77.4538,34.3,58,0.0,973.6,6.4,24.8,86,54.9,28.1,6.6,264.0,144.0,13.9,0,5,7,1,2026-07-03T17:04:37.746079+05:30
Faridabad,Haryana,28.4089,77.3178,35.3,51,0.0,974.5,5.8,26.3,148,252.4,54.0,9.3,340.0,151.0,14.3,0,5,6,1,2026-07-03T17:04:37.746086+05:30
Meerut,Uttar Pradesh,28.9845,77.7064,33.7,61,0.0,972.7,5.8,26.6,86,54.9,28.1,6.6,330.0,144.0,13.9,3,5,3,1,2026-07-03T17:04:37.746093+05:30
Agra,Uttar Pradesh,27.1767,78.0081,34.2,59,0.0,978.3,6.45,16.2,129,46.4,26.4,3.3,297.0,158.0,5.6,0,5,7,1,2026-07-03T17:04:37.746100+05:30
Varanasi,Uttar Pradesh,25.3176,82.9739,34.9,57,0.0,986.2,7.05,31.7,90,23.1,22.4,2.8,337.0,135.0,7.0,0,5,7,1,2026-07-03T17:04:37.746107+05:30
Prayagraj,Uttar Pradesh,25.4358,81.8463,34.3,62,0.0,985.1,7.15,29.5,92,23.5,23.1,3.3,339.0,151.0,6.1,3,5,7,1,2026-07-03T17:04:37.746115+05:30
Gorakhpur,Uttar Pradesh,26.7606,83.3732,34.4,60,0.0,987.0,8.15,33.8,95,18.2,17.9,3.0,307.0,150.0,4.9,0,5,7,1,2026-07-03T17:04:37.746121+05:30
Bareilly,Uttar Pradesh,28.367,79.4304,34.3,60,0.0,977.6,7.4,23.4,101,19.4,19.2,3.3,300.0,153.0,9.3,0,5,7,1,2026-07-03T17:04:37.746130+05:30
Aligarh,Uttar Pradesh,27.8974,78.088,34.2,58,0.0,976.3,6.4,21.2,103,35.5,23.9,4.3,287.0,153.0,10.7,0,5,7,1,2026-07-03T17:04:37.746137+05:30
Moradabad,Uttar Pradesh,28.8386,78.7733,34.1,59,0.0,974.8,7.8,23.4,110,21.3,20.8,6.1,296.0,158.0,16.0,0,5,7,1,2026-07-03T17:04:37.746144+05:30
Saharanpur,Uttar Pradesh,29.9637,77.546,33.3,62,0.0,967.7,7.1,27.7,94,27.0,25.2,1.7,370.0,138.0,4.2,3,5,7,1,2026-07-03T17:04:37.746150+05:30
Jhansi,Uttar Pradesh,25.4484,78.5685,32.7,66,0.0,968.5,8.05,26.6,81,24.2,18.3,3.0,235.0,145.0,7.7,3,5,7,1,2026-07-03T17:04:41.115671+05:30
Surat,Gujarat,21.1702,72.8311,27.7,90,0.1,1000.5,0.8,37.8,67,22.2,18.2,31.8,492.0,28.0,49.0,10,5,0,1,2026-07-03T17:04:41.115704+05:30
Vadodara,Gujarat,22.3072,73.1812,29.5,79,0.0,997.3,1.65,41.4,55,45.8,26.3,21.3,223.0,57.0,10.7,7,5,3,1,2026-07-03T17:04:41.115714+05:30
Rajkot,Gujarat,22.3039,70.8022,26.4,95,0.3,988.2,6.65,36.4,53,24.6,12.0,3.5,133.0,74.0,4.7,10,5,7,1,2026-07-03T17:04:41.115723+05:30
Thane,Maharashtra,19.2183,72.9781,25.8,94,0.3,1003.4,0.75,31.0,45,18.6,10.1,6.8,276.0,56.0,3.6,10,5,0,1,2026-07-03T17:04:41.115732+05:30
Nagpur,Maharashtra,21.1458,79.0882,28.0,81,0.1,964.1,1.85,31.3,36,11.3,9.8,14.7,259.0,74.0,13.5,10,5,3,1,2026-07-03T17:04:41.115739+05:30
Nashik,Maharashtra,19.9975,73.7898,23.5,94,0.3,939.8,0.6,37.1,23,2.6,1.9,5.2,170.0,50.0,0.9,6,5,3,1,2026-07-03T17:04:41.115747+05:30
Aurangabad,Maharashtra,19.8762,75.3433,23.8,93,0.1,938.1,1.65,50.0,28,5.1,4.0,4.1,151.0,67.0,2.7,6,5,3,1,2026-07-03T17:04:41.115755+05:30
Solapur,Maharashtra,17.6599,75.9064,25.3,88,0.2,952.4,6.3,41.0,24,3.9,2.9,3.5,120.0,57.0,1.8,10,5,7,1,2026-07-03T17:04:41.115763+05:30
Kolhapur,Maharashtra,16.705,74.2433,23.2,90,0.1,944.7,6.85,47.5,23,5.8,4.2,6.3,147.0,44.0,1.6,6,5,7,1,2026-07-03T17:04:41.115770+05:30
Goa,Goa,15.2993,74.124,25.0,96,0.0,997.0,4.8,34.6,58,22.3,11.0,1.8,128.0,57.0,1.0,7,5,3,1,2026-07-03T17:04:41.115779+05:30
Jodhpur,Rajasthan,26.2389,73.0243,37.0,44,0.0,973.3,8.4,31.3,105,232.4,58.0,1.0,119.0,89.0,1.6,0,5,10,1,2026-07-03T17:04:41.115786+05:30
Udaipur,Rajasthan,24.5854,73.7125,30.8,58,0.0,939.1,7.75,37.4,68,83.8,29.6,1.6,125.0,82.0,3.7,0,5,7,1,2026-07-03T17:04:41.115794+05:30
Kota,Rajasthan,25.2138,75.8648,32.7,57,0.0,969.9,7.65,34.6,71,141.6,46.9,1.5,145.0,104.0,3.0,0,5,7,1,2026-07-03T17:04:41.115801+05:30
Bikaner,Rajasthan,28.0229,73.3119,39.8,32,0.1,972.0,8.4,45.4,115,142.0,41.1,0.5,151.0,94.0,2.3,3,5,10,1,2026-07-03T17:04:41.115809+05:30
Ajmer,Rajasthan,26.4499,74.6399,32.6,57,0.0,946.5,7.95,30.6,85,145.8,44.8,0.5,161.0,100.0,2.6,0,5,7,1,2026-07-03T17:04:41.115817+05:30
Gwalior,Madhya Pradesh,26.2183,78.1828,33.5,59,0.0,973.7,7.8,18.7,98,46.9,19.7,1.6,260.0,133.0,3.3,0,5,7,1,2026-07-03T17:04:41.115825+05:30
Indore,Madhya Pradesh,22.7196,75.8577,26.4,84,0.0,940.5,2.55,34.9,60,27.3,15.8,7.0,258.0,82.0,2.2,7,5,3,1,2026-07-03T17:04:41.115832+05:30
Bhopal,Madhya Pradesh,23.2599,77.4126,27.3,86,0.2,944.8,5.8,33.8,60,24.8,16.3,4.1,246.0,95.0,3.9,10,5,3,1,2026-07-03T17:04:41.115839+05:30
Jabalpur,Madhya Pradesh,23.1815,79.9864,27.4,92,0.2,951.8,8.15,27.0,56,11.3,10.8,2.1,249.0,126.0,3.4,10,5,7,1,2026-07-03T17:04:41.115846+05:30
Ujjain,Madhya Pradesh,23.1765,75.7885,29.3,69,0.0,945.9,7.25,33.1,60,39.3,19.2,3.8,217.0,79.0,1.9,7,5,7,1,2026-07-03T17:04:41.115855+05:30
Visakhapatnam,Andhra Pradesh,17.6868,83.2185,29.5,75,0.0,994.5,2.15,57.6,51,11.5,10.1,14.9,274.0,63.0,27.4,7,5,3,1,2026-07-03T17:04:41.115862+05:30
Vijayawada,Andhra Pradesh,16.5062,80.648,31.1,63,0.0,995.9,4.7,53.3,46,12.4,10.3,6.7,151.0,66.0,5.8,3,5,3,1,2026-07-03T17:04:41.115869+05:30
Guntur,Andhra Pradesh,16.3067,80.4365,29.6,74,0.0,997.4,5.25,48.6,39,13.1,9.7,6.9,159.0,60.0,6.1,7,5,3,1,2026-07-03T17:04:41.115876+05:30
Nellore,Andhra Pradesh,14.4426,79.9865,34.5,46,0.0,1000.3,8.65,49.3,35,17.0,9.5,2.6,110.0,82.0,2.8,0,5,4,1,2026-07-03T17:04:41.115885+05:30
Kurnool,Andhra Pradesh,15.8281,78.0373,25.6,85,0.0,972.6,6.8,57.6,30,9.3,5.6,3.9,119.0,72.0,4.1,7,5,7,1,2026-07-03T17:04:41.115893+05:30
Kakinada,Andhra Pradesh,16.9891,82.2475,28.4,78,0.2,999.6,6.0,55.4,47,13.3,10.2,5.2,179.0,83.0,6.2,10,5,3,1,2026-07-03T17:04:41.115901+05:30
Tirupati,Andhra Pradesh,13.6288,79.4192,28.6,78,0.0,987.1,8.9,49.3,40,14.5,9.2,5.7,128.0,76.0,1.8,7,5,7,1,2026-07-03T17:04:41.115908+05:30
Warangal,Telangana,17.9689,79.5941,27.1,82,0.2,971.8,2.0,52.2,31,5.1,4.8,5.1,167.0,57.0,1.6,10,5,3,1,2026-07-03T17:04:41.115915+05:30
Nizamabad,Telangana,18.6725,78.0941,25.5,91,0.1,958.3,0.85,58.0,29,6.5,5.7,5.4,159.0,61.0,4.6,10,5,3,1,2026-07-03T17:04:41.115923+05:30
Mysore,Karnataka,12.2958,76.6396,24.7,75,0.0,927.3,6.0,58.0,29,5.1,3.3,4.7,136.0,59.0,1.2,3,5,3,1,2026-07-03T17:04:41.115930+05:30
Mangalore,Karnataka,12.9141,74.856,25.6,93,0.3,1006.8,6.8,48.2,49,14.5,7.4,3.0,111.0,50.0,1.0,10,5,4,1,2026-07-03T17:04:41.115937+05:30
Hubli-Dharwad,Karnataka,15.3647,75.124,23.9,87,0.1,938.3,7.4,66.2,25,6.1,3.6,4.4,110.0,51.0,0.9,6,5,7,1,2026-07-03T17:04:41.115944+05:30
Belgaum,Karnataka,15.8497,74.4977,22.7,90,0.1,923.2,4.6,59.8,23,6.4,4.6,4.3,109.0,47.0,1.0,6,5,3,1,2026-07-03T17:04:44.481827+05:30
Coimbatore,Tamil Nadu,11.0168,76.9558,25.8,82,0.0,960.4,7.4,62.6,27,4.8,3.7,4.2,160.0,57.0,1.6,7,5,7,1,2026-07-03T17:04:44.481862+05:30
Madurai,Tamil Nadu,9.9252,78.1198,33.5,45,0.0,990.7,8.7,70.2,35,9.1,5.2,3.6,122.0,71.0,1.5,0,5,7,1,2026-07-03T17:04:44.481873+05:30
Trichy,Tamil Nadu,10.7905,78.7047,34.3,43,0.0,997.0,7.35,69.1,31,9.4,5.3,3.0,112.0,65.0,1.4,0,5,7,1,2026-07-03T17:04:44.481882+05:30
Salem,Tamil Nadu,11.6643,78.146,26.7,88,0.2,975.5,6.15,42.1,40,8.2,5.8,5.1,174.0,79.0,3.3,10,5,7,1,2026-07-03T17:04:44.481891+05:30
Tirunelveli,Tamil Nadu,8.7139,77.7567,32.7,50,0.0,1001.9,8.4,54.7,28,15.4,8.3,2.4,109.0,62.0,1.1,0,5,4,1,2026-07-03T17:04:44.481899+05:30
Vellore,Tamil Nadu,12.9165,79.1325,27.1,88,0.1,981.3,7.35,54.4,32,12.7,7.8,4.5,155.0,80.0,1.9,10,5,7,1,2026-07-03T17:04:44.481907+05:30
Erode,Tamil Nadu,11.341,77.7172,31.2,55,0.1,987.0,6.45,40.0,32,8.0,5.4,3.8,149.0,72.0,1.6,3,5,7,1,2026-07-03T17:04:44.481915+05:30
Kochi,Kerala,9.9312,76.2673,26.6,86,0.0,1009.5,7.95,42.1,42,15.5,8.9,6.2,132.0,46.0,2.1,7,0,4,1,2026-07-03T17:04:44.481923+05:30
Thiruvananthapuram,Kerala,8.5241,76.9366,26.0,87,0.1,1009.2,8.05,43.6,33,18.8,9.4,2.0,109.0,52.0,0.7,10,0,4,1,2026-07-03T17:04:44.481931+05:30
Kozhikode,Kerala,11.2588,75.7804,25.7,95,0.2,1008.6,1.1,42.5,29,14.1,6.6,0.8,117.0,54.0,0.3,10,0,0,1,2026-07-03T17:04:44.481938+05:30
Thrissur,Kerala,10.5276,76.2144,25.8,95,0.0,1008.0,5.6,42.5,40,12.3,7.6,4.2,128.0,45.0,1.2,7,0,0,1,2026-07-03T17:04:44.481947+05:30
Kannur,Kerala,11.8745,75.3704,25.7,94,0.1,1007.6,2.0,48.6,35,14.0,7.0,2.5,126.0,50.0,0.6,10,5,0,1,2026-07-03T17:04:44.481954+05:30
Patna,Bihar,25.5941,85.1376,34.0,63,0.0,989.6,7.65,32.0,116,24.0,23.2,4.6,291.0,155.0,9.9,3,5,7,1,2026-07-03T17:04:44.481962+05:30
Gaya,Bihar,24.7914,85.0002,34.6,58,0.0,982.8,6.8,32.0,71,14.9,14.4,3.4,228.0,117.0,4.7,0,5,7,1,2026-07-03T17:04:44.481969+05:30
Muzaffarpur,Bihar,26.1209,85.3647,34.1,64,0.0,989.8,7.95,34.6,121,23.6,22.8,6.4,264.0,140.0,8.3,3,5,7,1,2026-07-03T17:04:44.481976+05:30
Bhagalpur,Bihar,25.2425,87.0117,33.4,66,0.0,990.7,7.8,34.2,75,14.8,14.0,5.6,235.0,128.0,10.9,3,5,7,1,2026-07-03T17:04:44.481983+05:30
Ranchi,Jharkhand,23.3441,85.3096,27.2,80,0.1,928.8,8.85,39.2,72,21.1,20.8,5.8,262.0,126.0,17.7,10,5,7,1,2026-07-03T17:04:44.482018+05:30
Jamshedpur,Jharkhand,22.8046,86.2029,28.4,87,0.1,980.8,6.35,36.7,60,11.2,11.1,5.3,231.0,97.0,6.0,10,5,7,1,2026-07-03T17:04:44.482027+05:30
Dhanbad,Jharkhand,23.7957,86.4304,30.4,78,0.1,969.9,5.8,34.2,100,28.3,27.8,21.0,230.0,113.0,54.0,6,5,3,1,2026-07-03T17:04:44.482034+05:30
Bokaro,Jharkhand,23.6693,86.1511,30.9,72,0.0,973.6,5.65,36.4,110,34.8,34.3,21.4,196.0,131.0,65.6,3,5,3,1,2026-07-03T17:04:44.482041+05:30
Bhubaneswar,Odisha,20.2961,85.8245,26.8,95,0.1,991.2,6.8,28.1,74,16.1,16.1,9.9,276.0,99.0,7.8,10,5,7,1,2026-07-03T17:04:44.482049+05:30
Cuttack,Odisha,20.4625,85.8828,27.4,92,0.1,993.0,6.95,24.1,74,16.1,16.1,9.9,331.0,99.0,7.8,10,5,7,1,2026-07-03T17:04:44.482056+05:30
Rourkela,Odisha,22.2604,84.8536,28.0,89,0.1,974.7,7.0,32.0,84,13.6,13.4,7.8,471.0,113.0,14.4,10,5,7,1,2026-07-03T17:04:44.482063+05:30
Raipur,Chhattisgarh,21.2514,81.6296,26.9,92,0.2,964.6,0.8,32.4,72,22.2,21.5,28.5,257.0,66.0,49.1,10,5,3,1,2026-07-03T17:04:44.482070+05:30
Bhilai,Chhattisgarh,21.1938,81.3509,26.5,94,0.2,965.0,1.7,40.0,64,15.4,14.6,21.1,669.0,82.0,42.5,10,5,3,1,2026-07-03T17:04:44.482078+05:30
Guwahati,Assam,26.1158,91.7086,31.4,77,0.0,992.1,8.55,30.6,54,9.1,8.9,3.2,252.0,111.0,1.8,3,5,7,1,2026-07-03T17:04:44.482086+05:30
Agartala,Tripura,23.8315,91.2868,30.5,77,0.1,996.7,7.55,30.2,52,7.5,7.3,6.6,181.0,89.0,1.2,6,5,7,1,2026-07-03T17:04:44.482093+05:30
Shillong,Meghalaya,25.5788,91.8933,22.6,91,0.0,852.6,6.75,27.7,42,6.6,6.4,4.9,183.0,85.0,1.4,3,5,7,1,2026-07-03T17:04:44.482100+05:30
Imphal,Manipur,24.817,93.9368,27.4,74,0.0,917.2,9.1,27.4,53,3.4,3.4,2.0,185.0,73.0,0.8,7,5,7,1,2026-07-03T17:04:44.482108+05:30
Aizawl,Mizoram,23.7271,92.7176,23.4,90,0.1,885.8,8.4,19.1,32,6.2,6.2,2.9,152.0,56.0,0.3,6,5,7,1,2026-07-03T17:04:44.482116+05:30
Kohima,Nagaland,25.6701,94.1077,23.6,92,0.0,850.8,7.8,22.7,36,5.0,4.9,2.5,153.0,69.0,0.4,3,5,7,1,2026-07-03T17:04:44.482123+05:30
Gangtok,Sikkim,27.3314,88.6138,22.2,89,0.0,833.9,8.95,30.6,48,4.2,4.1,4.9,207.0,95.0,0.7,3,5,7,1,2026-07-03T17:04:44.482131+05:30
Siliguri,West Bengal,26.7271,88.3953,31.7,79,0.0,983.3,8.55,25.6,80,14.6,14.1,2.9,420.0,127.0,2.4,3,5,7,1,2026-07-03T17:04:47.846630+05:30
Durgapur,West Bengal,23.5204,87.3119,30.4,79,0.1,984.9,6.5,36.7,90,15.2,14.8,14.1,253.0,91.0,20.6,6,5,7,1,2026-07-03T17:04:47.846663+05:30
Asansol,West Bengal,23.6739,86.9524,31.1,75,0.0,983.4,6.7,37.4,87,18.7,18.3,14.8,232.0,106.0,23.8,3,5,7,1,2026-07-03T17:04:47.846675+05:30
Pondicherry,Puducherry,11.9139,79.8145,28.8,85,0.1,1005.7,7.5,43.2,51,18.7,14.8,9.3,207.0,97.0,11.4,10,5,4,1,2026-07-03T17:04:47.846684+05:30
Port Blair,Andaman and Nicobar Islands,11.6234,92.7265,28.7,78,0.0,1004.3,5.9,50.8,39,24.4,11.1,0.5,100.0,52.0,0.5,7,5,0,1,2026-07-03T17:04:47.846692+05:30
Haridwar,Uttarakhand,29.9457,78.1642,33.7,61,0.0,966.0,7.25,23.8,81,24.6,24.0,2.7,328.0,129.0,5.8,3,5,7,1,2026-07-03T17:04:47.846699+05:30
Rishikesh,Uttarakhand,30.0869,78.2676,32.2,64,0.0,959.0,6.95,20.2,68,21.0,20.6,1.9,295.0,123.0,4.8,3,5,7,1,2026-07-03T17:04:47.846706+05:30
Nainital,Uttarakhand,29.3919,79.4542,20.5,87,0.1,803.0,7.65,26.6,84,13.6,13.4,1.6,263.0,124.0,2.2,6,5,7,1,2026-07-03T17:04:47.846714+05:30
Mussoorie,Uttarakhand,30.4599,78.0664,20.3,95,0.1,800.7,6.75,32.0,90,18.4,18.2,2.0,252.0,135.0,3.9,6,5,7,1,2026-07-03T17:04:47.846721+05:30
Dharamshala,Himachal Pradesh,32.219,76.3234,25.4,81,0.1,865.5,8.45,36.4,89,5.6,4.9,1.8,268.0,123.0,0.5,10,5,7,1,2026-07-03T17:04:47.846728+05:30
Dalhousie,Himachal Pradesh,32.5387,75.971,22.0,82,0.0,803.3,8.7,35.3,127,12.4,10.6,2.2,275.0,161.0,1.8,3,5,7,1,2026-07-03T17:04:47.846736+05:30
Patiala,Punjab,30.3398,76.3869,32.8,68,0.0,970.4,7.6,24.8,106,27.9,24.0,2.1,310.0,161.0,7.4,3,5,7,1,2026-07-03T17:04:47.846743+05:30
Bhatinda,Punjab,30.211,74.9455,36.0,51,0.0,975.0,8.25,36.7,151,39.3,23.8,3.9,278.0,184.0,13.6,0,5,10,1,2026-07-03T17:04:47.846751+05:30
Rohtak,Haryana,28.8955,76.6066,35.1,53,0.0,972.5,6.65,21.6,163,100.1,42.7,4.9,396.0,206.0,16.7,0,5,10,1,2026-07-03T17:04:47.846758+05:30
Panipat,Haryana,29.3909,76.9635,33.4,64,0.0,971.7,6.85,28.1,412,61.7,36.3,5.8,278.0,206.0,21.5,3,5,7,1,2026-07-03T17:04:47.846766+05:30
Mathura,Uttar Pradesh,27.4924,77.6737,34.8,53,0.0,977.3,6.9,24.1,151,53.6,26.3,3.6,292.0,151.0,5.0,0,5,7,1,2026-07-03T17:04:47.846773+05:30
Vrindavan,Uttar Pradesh,27.5823,77.7027,34.8,54,0.0,977.8,6.75,22.7,151,53.6,26.3,3.6,290.0,151.0,5.0,0,5,7,1,2026-07-03T17:04:47.846780+05:30
Ayodhya,Uttar Pradesh,26.7922,82.1998,34.5,60,0.0,985.2,7.65,28.1,91,20.6,20.4,4.0,291.0,137.0,4.1,0,5,7,1,2026-07-03T17:04:47.846787+05:30
Ratlam,Madhya Pradesh,23.3315,75.0367,29.6,71,0.1,947.2,1.45,34.9,57,51.1,21.4,2.0,148.0,80.0,1.7,10,5,3,1,2026-07-03T17:04:47.846794+05:30
Sagar,Madhya Pradesh,23.8388,78.7378,27.8,83,0.0,941.0,7.65,32.4,52,14.3,11.8,3.0,209.0,112.0,2.5,7,5,7,1,2026-07-03T17:04:47.846801+05:30
Satna,Madhya Pradesh,24.6005,80.8322,30.6,77,0.0,961.4,8.2,26.6,83,14.0,13.8,2.7,243.0,127.0,4.7,3,5,7,1,2026-07-03T17:04:47.846808+05:30
Akola,Maharashtra,20.7002,77.0082,26.1,94,0.2,967.7,3.5,42.8,28,8.4,7.2,5.8,161.0,87.0,9.4,10,5,3,1,2026-07-03T17:04:47.846816+05:30
Amravati,Maharashtra,20.9374,77.7796,25.9,94,0.1,959.2,4.55,38.9,29,8.0,6.7,7.1,180.0,81.0,8.2,10,5,3,1,2026-07-03T17:04:47.846825+05:30
Latur,Maharashtra,18.4088,76.5604,24.2,90,0.1,934.3,1.0,50.8,22,4.4,3.8,4.3,133.0,54.0,1.3,6,5,3,1,2026-07-03T17:04:47.846832+05:30
Nanded,Maharashtra,19.1383,77.3091,25.9,91,0.1,962.3,0.7,50.0,29,5.7,5.2,4.5,161.0,75.0,3.5,10,5,3,1,2026-07-03T17:04:47.846840+05:30
Gulbarga,Karnataka,17.3297,76.8343,24.7,89,0.0,953.9,6.5,52.2,25,6.6,4.5,6.3,158.0,56.0,2.6,3,5,7,1,2026-07-03T17:04:47.846847+05:30
Bidar,Karnataka,17.9104,77.5199,24.8,85,0.1,930.0,2.3,56.2,24,3.9,3.4,7.2,147.0,51.0,1.3,6,5,3,1,2026-07-03T17:04:47.846853+05:30
Hospet,Karnataka,15.2689,76.3909,27.9,69,0.0,952.5,8.15,63.7,27,6.2,3.5,2.5,113.0,61.0,1.3,7,5,7,1,2026-07-03T17:04:47.846860+05:30
Tirupur,Tamil Nadu,11.1085,77.3411,28.3,68,0.0,973.5,8.0,66.2,34,7.7,5.6,4.2,139.0,73.0,2.2,7,5,7,1,2026-07-03T17:04:47.846867+05:30
Alappuzha,Kerala,9.4981,76.3388,26.6,88,0.1,1009.7,8.45,42.8,40,18.4,9.7,3.9,90.0,52.0,1.4,10,0,4,1,2026-07-03T17:04:47.846874+05:30
Munnar,Kerala,10.0889,77.0595,17.2,99,0.4,856.3,0.7,49.3,26,5.4,3.6,3.3,114.0,60.0,1.1,6,10,3,1,2026-07-03T17:04:47.846881+05:30
Silchar,Assam,24.8333,92.7789,33.4,69,0.0,994.6,8.45,27.0,68,9.1,9.0,5.6,211.0,79.0,2.8,3,5,7,1,2026-07-03T17:04:47.846888+05:30
Dibrugarh,Assam,27.4728,94.912,33.6,68,0.0,986.0,8.85,32.8,71,8.2,8.1,4.4,233.0,105.0,1.4,3,5,7,1,2026-07-03T17:04:47.846895+05:30
