city,state,latitude,longitude,temp,humidity,rain,pressure,uv_index,wind_gusts,aqi,pm10,pm2_5,no2,co,o3,so2,mosquito_risk,arthritis_risk,migraine_risk,frizz_risk,updated_at
Delhi,Delhi,28.6139,77.209,26.9,49,0.0,983.8,7.55,34.9,150,428.4,69.8,19.6,691.0,145.0,19.3,4,5,7,0,2026-05-07T08:58:31.039362+05:30
Mumbai,Maharashtra,19.076,72.8777,30.5,66,0.0,1007.5,7.8,46.8,93,104.3,38.9,20.4,464.0,84.0,45.3,3,5,4,1,2026-05-07T08:58:31.039405+05:30
Bangalore,Karnataka,12.9716,77.5946,25.5,68,0.0,912.0,9.5,29.5,82,31.4,26.8,11.8,561.0,82.0,21.6,7,5,7,1,2026-05-07T08:58:31.039420+05:30
Hyderabad,Telangana,17.385,78.4867,28.8,60,0.0,954.2,9.2,30.2,72,20.3,14.5,6.1,406.0,89.0,5.4,4,5,7,1,2026-05-07T08:58:31.039430+05:30
Chennai,Tamil Nadu,13.0827,80.2707,31.1,61,0.0,1007.2,9.25,37.8,44,11.4,8.2,8.8,324.0,51.0,13.3,3,5,4,1,2026-05-07T08:58:31.039441+05:30
Kolkata,West Bengal,22.5726,88.3639,25.6,82,0.1,1009.1,8.9,45.4,89,18.5,15.5,5.2,350.0,81.0,10.7,10,0,4,1,2026-05-07T08:58:31.039449+05:30
Pune,Maharashtra,18.5204,73.8567,30.1,47,0.0,948.1,8.5,48.6,82,65.9,30.2,13.6,395.0,102.0,16.5,0,5,7,1,2026-05-07T08:58:31.039457+05:30
Ahmedabad,Gujarat,23.0225,72.5714,31.3,55,0.0,1001.6,8.1,29.9,96,51.1,21.6,6.8,298.0,77.0,6.6,0,5,4,1,2026-05-07T08:58:31.039465+05:30
Jaipur,Rajasthan,26.9124,75.7873,27.7,42,0.0,960.0,8.1,46.4,93,195.1,36.6,7.7,401.0,108.0,10.2,4,5,7,0,2026-05-07T08:58:31.039472+05:30
Lucknow,Uttar Pradesh,26.8467,80.9462,26.0,64,0.0,996.7,8.0,44.3,101,38.5,29.6,8.3,390.0,107.0,10.4,7,5,7,1,2026-05-07T08:58:31.039479+05:30
Kanpur,Uttar Pradesh,26.4499,80.3319,25.5,63,0.0,995.4,8.05,36.4,125,186.3,41.4,7.9,372.0,113.0,11.2,7,5,7,1,2026-05-07T08:58:31.039485+05:30
Chandigarh,Chandigarh,30.7333,76.7794,28.2,33,0.0,970.4,6.9,45.4,73,36.9,19.3,6.2,320.0,154.0,7.9,4,5,7,0,2026-05-07T08:58:31.039491+05:30
Srinagar,Jammu and Kashmir,34.0837,74.7973,15.5,59,0.0,841.8,8.7,27.4,58,23.1,14.3,7.7,428.0,110.0,5.0,0,5,7,0,2026-05-07T08:58:31.039498+05:30
Jammu,Jammu and Kashmir,32.7266,74.857,27.8,39,0.0,973.8,8.3,33.8,66,21.7,16.9,11.2,338.0,147.0,5.1,4,5,7,0,2026-05-07T08:58:31.039504+05:30
Amritsar,Punjab,31.634,74.8723,27.1,47,0.0,981.4,8.2,33.5,84,49.4,28.8,5.7,546.0,119.0,10.9,4,5,7,0,2026-05-07T08:58:31.039510+05:30
Ludhiana,Punjab,30.901,75.8573,25.5,55,0.0,979.6,7.8,34.9,118,271.9,60.3,10.3,627.0,115.0,11.1,4,5,7,0,2026-05-07T08:58:31.039516+05:30
Jalandhar,Punjab,31.326,75.5762,25.5,54,0.0,980.7,7.95,30.2,106,88.2,39.0,10.9,542.0,112.0,13.3,4,5,7,0,2026-05-07T08:58:31.039522+05:30
Dehradun,Uttarakhand,30.6284,78.0322,16.8,51,0.0,832.0,5.4,31.0,53,20.5,9.6,1.6,183.0,156.0,2.3,0,5,3,0,2026-05-07T08:58:31.039529+05:30
Shimla,Himachal Pradesh,31.1048,77.1734,15.1,45,0.0,785.6,5.35,27.4,56,19.6,9.1,2.2,226.0,151.0,1.2,0,5,3,0,2026-05-07T08:58:31.039535+05:30
Manali,Himachal Pradesh,32.2396,77.1887,14.0,52,0.0,817.6,9.1,34.9,86,41.6,8.8,9.6,201.0,130.0,0.6,0,5,7,0,2026-05-07T08:58:31.039541+05:30
Gurgaon,Haryana,28.4595,77.0266,27.0,47,0.0,982.1,7.65,45.7,595,2108.5,228.2,15.0,543.0,145.0,15.8,4,5,7,0,2026-05-07T08:58:31.039548+05:30
Noida,Uttar Pradesh,28.5355,77.391,26.3,55,0.0,985.5,7.55,32.8,595,2108.5,228.2,15.0,512.0,145.0,15.8,4,5,7,1,2026-05-07T08:58:31.039554+05:30
Ghaziabad,Uttar Pradesh,28.6692,77.4538,26.5,52,0.0,983.9,7.55,34.2,121,272.9,47.0,6.4,324.0,144.0,9.0,4,5,7,0,2026-05-07T08:58:31.039559+05:30
Faridabad,Haryana,28.4089,77.3178,25.8,57,0.0,984.6,7.6,35.3,595,2108.5,228.2,15.0,477.0,145.0,15.8,4,5,7,1,2026-05-07T08:58:31.039565+05:30
Meerut,Uttar Pradesh,28.9845,77.7064,25.9,58,0.0,983.0,7.45,36.0,121,272.9,47.0,6.4,426.0,144.0,9.0,4,5,7,1,2026-05-07T08:58:31.039571+05:30
Agra,Uttar Pradesh,27.1767,78.0081,26.2,58,0.0,989.7,7.9,42.1,478,968.6,112.0,7.4,322.0,125.0,11.9,4,5,7,1,2026-05-07T08:58:31.039577+05:30
Varanasi,Uttar Pradesh,25.3176,82.9739,27.0,69,0.0,999.9,8.6,27.0,110,55.3,45.3,9.5,749.0,129.0,19.3,7,5,7,1,2026-05-07T08:58:31.039583+05:30
Prayagraj,Uttar Pradesh,25.4358,81.8463,28.5,54,0.0,998.1,8.45,36.0,104,56.3,45.5,9.3,460.0,122.0,14.4,4,5,7,1,2026-05-07T08:58:31.039591+05:30
Gorakhpur,Uttar Pradesh,26.7606,83.3732,25.7,71,0.0,1000.9,8.4,30.2,79,39.3,26.8,4.1,430.0,142.0,6.2,7,5,4,1,2026-05-07T08:58:31.039596+05:30
Bareilly,Uttar Pradesh,28.367,79.4304,25.6,66,0.0,989.6,7.55,41.4,85,61.2,34.3,8.2,371.0,109.0,11.0,7,5,7,1,2026-05-07T08:58:31.039602+05:30
Aligarh,Uttar Pradesh,27.8974,78.088,26.5,54,0.0,986.6,7.7,32.4,206,663.1,70.3,4.1,282.0,154.0,9.7,4,5,7,1,2026-05-07T08:58:31.039608+05:30
Moradabad,Uttar Pradesh,28.8386,78.7733,25.8,61,0.0,986.2,7.65,38.9,111,52.6,31.5,8.6,358.0,114.0,10.3,7,5,7,1,2026-05-07T08:58:31.039614+05:30
Saharanpur,Uttar Pradesh,29.9637,77.546,23.1,65,0.0,977.5,7.0,39.2,101,51.6,30.0,7.7,313.0,136.0,9.9,3,5,7,0,2026-05-07T08:58:31.039619+05:30
Jhansi,Uttar Pradesh,25.4484,78.5685,27.6,50,0.0,980.6,8.35,45.0,75,74.7,25.0,3.3,292.0,120.0,8.4,4,5,7,1,2026-05-07T08:58:34.328611+05:30
Surat,Gujarat,21.1702,72.8311,31.9,69,0.0,1005.8,7.7,34.2,112,95.0,56.3,47.0,364.0,34.0,142.0,3,5,4,1,2026-05-07T08:58:34.328639+05:30
Vadodara,Gujarat,22.3072,73.1812,32.5,47,0.0,1003.7,8.05,35.3,114,76.8,41.0,17.6,374.0,72.0,19.2,0,5,4,1,2026-05-07T08:58:34.328647+05:30
Rajkot,Gujarat,22.3039,70.8022,29.4,67,0.0,993.9,7.7,43.6,72,67.8,22.7,4.6,178.0,64.0,3.8,7,5,7,1,2026-05-07T08:58:34.328654+05:30
Thane,Maharashtra,19.2183,72.9781,30.4,69,0.0,1006.9,7.9,44.6,93,104.3,38.9,20.4,282.0,84.0,45.3,3,5,4,1,2026-05-07T08:58:34.328661+05:30
Nagpur,Maharashtra,21.1458,79.0882,32.3,37,0.0,974.8,8.9,44.3,103,35.9,26.7,9.4,307.0,144.0,13.1,0,5,7,0,2026-05-07T08:58:34.328667+05:30
Nashik,Maharashtra,19.9975,73.7898,30.4,45,0.0,945.8,8.2,37.8,78,90.6,34.1,7.3,325.0,130.0,19.5,0,5,7,1,2026-05-07T08:58:34.328674+05:30
Aurangabad,Maharashtra,19.8762,75.3433,33.0,25,0.0,944.4,8.3,32.0,68,58.3,22.6,4.2,277.0,146.0,9.9,0,5,7,0,2026-05-07T08:58:34.328680+05:30
Solapur,Maharashtra,17.6599,75.9064,32.3,38,0.0,957.6,9.05,33.1,68,30.6,22.7,4.6,272.0,116.0,7.0,0,5,7,1,2026-05-07T08:58:34.328686+05:30
Kolhapur,Maharashtra,16.705,74.2433,31.0,47,0.0,947.8,8.9,52.2,75,51.9,34.3,12.3,367.0,95.0,8.0,0,5,7,1,2026-05-07T08:58:34.328692+05:30
Goa,Goa,15.2993,74.124,30.8,63,0.0,997.0,8.9,34.2,71,43.3,24.1,4.6,204.0,85.0,3.8,3,5,7,1,2026-05-07T08:58:34.328698+05:30
Jodhpur,Rajasthan,26.2389,73.0243,30.9,31,0.0,981.7,8.3,38.9,92,271.9,54.7,3.5,273.0,101.0,3.8,0,5,7,0,2026-05-07T08:58:34.328704+05:30
Udaipur,Rajasthan,24.5854,73.7125,31.0,36,0.0,946.5,8.75,34.2,63,59.0,17.9,2.6,239.0,116.0,3.4,0,5,7,0,2026-05-07T08:58:34.328710+05:30
Kota,Rajasthan,25.2138,75.8648,32.0,32,0.0,978.6,8.3,53.3,64,25.8,17.6,4.9,291.0,111.0,12.1,0,5,7,0,2026-05-07T08:58:34.328716+05:30
Bikaner,Rajasthan,28.0229,73.3119,30.4,27,0.0,979.7,8.25,32.0,73,60.1,23.7,3.6,285.0,111.0,7.6,0,5,7,0,2026-05-07T08:58:34.328722+05:30
Ajmer,Rajasthan,26.4499,74.6399,31.1,26,0.0,954.2,8.25,47.2,67,40.7,15.0,4.6,348.0,100.0,4.8,0,5,7,0,2026-05-07T08:58:34.328727+05:30
Gwalior,Madhya Pradesh,26.2183,78.1828,26.9,64,0.0,985.3,7.95,55.8,98,147.1,36.7,3.2,331.0,119.0,6.4,7,5,7,1,2026-05-07T08:58:34.328733+05:30
Indore,Madhya Pradesh,22.7196,75.8577,32.8,21,0.0,949.2,8.6,33.8,61,22.9,17.8,5.6,281.0,138.0,11.2,0,5,7,0,2026-05-07T08:58:34.328739+05:30
Bhopal,Madhya Pradesh,23.2599,77.4126,31.1,28,0.0,955.1,8.65,35.3,52,18.8,11.6,2.9,345.0,129.0,4.3,0,5,7,0,2026-05-07T08:58:34.328744+05:30
Jabalpur,Madhya Pradesh,23.1815,79.9864,32.5,28,0.0,963.1,8.8,30.6,61,31.5,16.9,5.7,283.0,136.0,6.8,0,5,7,0,2026-05-07T08:58:34.328750+05:30
Ujjain,Madhya Pradesh,23.1765,75.7885,32.7,21,0.0,954.7,8.55,31.3,85,33.2,26.1,5.2,317.0,127.0,8.9,0,5,7,0,2026-05-07T08:58:34.328756+05:30
Visakhapatnam,Andhra Pradesh,17.6868,83.2185,31.2,65,0.0,1004.9,8.8,32.4,77,35.2,28.0,32.6,398.0,48.0,21.2,3,5,4,1,2026-05-07T08:58:34.328762+05:30
Vijayawada,Andhra Pradesh,16.5062,80.648,31.9,62,0.0,1003.4,9.15,37.4,56,11.8,8.6,3.4,163.0,53.0,6.1,3,5,4,1,2026-05-07T08:58:34.328768+05:30
Guntur,Andhra Pradesh,16.3067,80.4365,31.7,61,0.0,1004.6,9.2,38.5,58,11.0,7.7,2.3,141.0,59.0,2.1,3,5,4,1,2026-05-07T08:58:34.328774+05:30
Nellore,Andhra Pradesh,14.4426,79.9865,30.0,69,0.0,1006.2,9.2,35.3,45,14.5,10.2,8.4,188.0,61.0,17.0,7,5,4,1,2026-05-07T08:58:34.328780+05:30
Kurnool,Andhra Pradesh,15.8281,78.0373,31.4,57,0.0,977.5,9.2,40.7,68,18.0,15.0,3.9,216.0,95.0,11.5,0,5,7,1,2026-05-07T08:58:34.328787+05:30
Kakinada,Andhra Pradesh,16.9891,82.2475,30.3,73,0.0,1008.5,8.7,34.2,39,10.0,6.7,1.4,189.0,47.0,1.0,3,0,4,1,2026-05-07T08:58:34.328792+05:30
Tirupati,Andhra Pradesh,13.6288,79.4192,30.2,64,0.0,991.3,9.25,37.8,70,14.1,9.8,4.2,193.0,74.0,3.3,3,5,7,1,2026-05-07T08:58:34.328798+05:30
Warangal,Telangana,17.9689,79.5941,30.4,63,0.0,980.0,9.1,38.2,83,14.3,10.6,4.4,202.0,66.0,5.6,3,5,7,1,2026-05-07T08:58:34.328804+05:30
Nizamabad,Telangana,18.6725,78.0941,32.2,46,0.0,965.7,9.1,37.1,84,26.8,21.9,5.4,261.0,109.0,6.0,0,5,7,1,2026-05-07T08:58:34.328809+05:30
Mysore,Karnataka,12.2958,76.6396,26.1,69,0.0,928.6,9.1,29.2,81,35.0,28.5,7.3,316.0,114.0,12.9,7,5,7,1,2026-05-07T08:58:34.328815+05:30
Mangalore,Karnataka,12.9141,74.856,28.9,78,0.1,1006.4,7.75,35.3,63,36.7,17.8,4.3,239.0,73.0,3.5,10,5,4,1,2026-05-07T08:58:34.328821+05:30
Hubli-Dharwad,Karnataka,15.3647,75.124,30.1,50,0.0,940.8,9.2,52.6,77,42.4,25.9,9.9,263.0,108.0,4.0,0,5,7,1,2026-05-07T08:58:34.328827+05:30
Belgaum,Karnataka,15.8497,74.4977,29.0,49,0.0,926.0,8.35,44.3,73,46.0,24.2,8.5,260.0,113.0,7.1,4,5,7,1,2026-05-07T08:58:37.619120+05:30
Coimbatore,Tamil Nadu,11.0168,76.9558,27.0,75,0.0,961.7,9.2,33.5,77,23.5,17.5,4.9,359.0,111.0,5.6,7,5,7,1,2026-05-07T08:58:37.619148+05:30
Madurai,Tamil Nadu,9.9252,78.1198,31.2,57,0.0,992.7,8.1,32.8,76,28.8,20.0,8.2,284.0,96.0,7.0,0,5,7,1,2026-05-07T08:58:37.619159+05:30
Trichy,Tamil Nadu,10.7905,78.7047,29.9,70,0.0,999.7,6.85,32.0,70,21.6,14.8,5.5,238.0,86.0,4.2,7,5,7,1,2026-05-07T08:58:37.619167+05:30
Salem,Tamil Nadu,11.6643,78.146,28.4,73,0.0,977.5,8.35,43.2,83,25.8,20.1,10.8,277.0,86.0,24.2,7,5,7,1,2026-05-07T08:58:37.619175+05:30
Tirunelveli,Tamil Nadu,8.7139,77.7567,30.9,61,0.0,1002.7,6.7,38.5,75,32.2,25.4,5.4,244.0,115.0,8.9,3,5,4,1,2026-05-07T08:58:37.619183+05:30
Vellore,Tamil Nadu,12.9165,79.1325,30.8,54,0.0,984.7,9.3,35.6,86,17.1,13.6,4.6,212.0,84.0,8.1,0,5,7,1,2026-05-07T08:58:37.619191+05:30
Erode,Tamil Nadu,11.341,77.7172,29.2,67,0.0,989.2,6.55,35.6,76,21.5,15.0,6.4,265.0,83.0,3.3,7,5,7,1,2026-05-07T08:58:37.619196+05:30
Kochi,Kerala,9.9312,76.2673,27.3,86,0.0,1008.1,8.25,32.0,68,30.7,23.7,9.4,296.0,92.0,4.7,7,0,4,1,2026-05-07T08:58:37.619203+05:30
Thiruvananthapuram,Kerala,8.5241,76.9366,27.5,88,0.0,1007.3,8.75,28.8,54,21.5,16.2,5.8,364.0,117.0,6.2,7,5,4,1,2026-05-07T08:58:37.619209+05:30
Kozhikode,Kerala,11.2588,75.7804,26.5,89,0.0,1007.5,8.55,32.0,63,24.9,14.5,2.7,292.0,111.0,3.0,7,5,4,1,2026-05-07T08:58:37.619215+05:30
Thrissur,Kerala,10.5276,76.2144,27.2,82,0.0,1006.5,5.7,33.1,73,36.7,29.5,8.3,368.0,98.0,4.4,7,5,0,1,2026-05-07T08:58:37.619221+05:30
Kannur,Kerala,11.8745,75.3704,26.9,85,0.0,1006.9,8.75,41.0,63,25.6,14.3,4.4,308.0,85.0,2.5,7,5,4,1,2026-05-07T08:58:37.619227+05:30
Patna,Bihar,25.5941,85.1376,25.6,74,0.0,1003.7,8.45,35.6,102,38.6,32.0,7.3,436.0,153.0,13.0,7,5,4,1,2026-05-07T08:58:37.619233+05:30
Gaya,Bihar,24.7914,85.0002,28.0,63,0.0,996.3,8.75,28.8,107,47.4,41.0,6.1,390.0,145.0,15.7,7,5,7,1,2026-05-07T08:58:37.619239+05:30
Muzaffarpur,Bihar,26.1209,85.3647,25.5,76,0.0,1004.1,8.65,32.4,108,39.5,32.1,7.2,356.0,146.0,11.7,7,5,4,1,2026-05-07T08:58:37.619244+05:30
Bhagalpur,Bihar,25.2425,87.0117,26.6,74,0.0,1004.7,8.6,38.5,138,63.3,54.2,7.8,347.0,155.0,17.1,7,5,4,1,2026-05-07T08:58:37.619250+05:30
Ranchi,Jharkhand,23.3441,85.3096,26.0,69,0.0,940.1,9.2,34.9,111,38.1,31.3,3.6,374.0,163.0,25.0,7,5,7,1,2026-05-07T08:58:37.619256+05:30
Jamshedpur,Jharkhand,22.8046,86.2029,29.3,65,0.0,993.2,9.05,38.9,131,36.8,32.4,13.5,335.0,125.0,36.8,7,5,7,1,2026-05-07T08:58:37.619261+05:30
Dhanbad,Jharkhand,23.7957,86.4304,27.5,70,0.0,982.5,8.95,32.8,160,80.1,75.0,49.1,966.0,92.0,129.0,7,5,7,1,2026-05-07T08:58:37.619267+05:30
Bokaro,Jharkhand,23.6693,86.1511,26.2,74,0.0,986.5,9.0,28.1,157,68.2,61.9,35.3,679.0,125.0,108.1,7,5,7,1,2026-05-07T08:58:37.619273+05:30
Bhubaneswar,Odisha,20.2961,85.8245,31.0,69,0.0,1004.1,9.1,31.3,57,14.2,10.2,3.5,194.0,66.0,4.7,3,5,4,1,2026-05-07T08:58:37.619292+05:30
Cuttack,Odisha,20.4625,85.8828,30.9,71,0.0,1005.9,9.15,30.2,57,14.2,10.2,3.5,210.0,66.0,4.7,3,5,4,1,2026-05-07T08:58:37.619298+05:30
Rourkela,Odisha,22.2604,84.8536,30.4,60,0.0,987.0,8.95,36.4,102,55.8,49.8,12.1,367.0,169.0,86.7,0,5,7,1,2026-05-07T08:58:37.619304+05:30
Raipur,Chhattisgarh,21.2514,81.6296,32.0,38,0.0,976.5,8.95,33.1,112,43.9,34.5,25.2,260.0,122.0,11.2,0,5,7,0,2026-05-07T08:58:37.619311+05:30
Bhilai,Chhattisgarh,21.1938,81.3509,31.9,37,0.0,976.9,8.95,29.9,119,55.5,46.0,53.4,356.0,112.0,16.7,0,5,7,0,2026-05-07T08:58:37.619316+05:30
Guwahati,Assam,26.1158,91.7086,26.2,77,0.0,1005.0,8.65,20.5,91,39.1,25.8,1.7,311.0,132.0,2.2,7,5,4,1,2026-05-07T08:58:37.619322+05:30
Agartala,Tripura,23.8315,91.2868,26.2,83,0.0,1009.3,8.85,32.0,112,10.6,9.2,9.2,265.0,81.0,2.8,7,0,4,1,2026-05-07T08:58:37.619328+05:30
Shillong,Meghalaya,25.5788,91.8933,21.0,62,0.0,860.0,7.65,22.7,69,45.3,26.4,1.9,259.0,140.0,3.4,3,5,7,0,2026-05-07T08:58:37.619334+05:30
Imphal,Manipur,24.817,93.9368,24.2,73,0.0,926.2,9.2,33.5,96,34.3,22.1,1.7,298.0,110.0,2.8,3,5,7,1,2026-05-07T08:58:37.619339+05:30
Aizawl,Mizoram,23.7271,92.7176,22.4,73,0.0,895.7,9.05,28.8,67,29.3,19.3,1.1,202.0,107.0,1.4,3,5,7,1,2026-05-07T08:58:37.619345+05:30
Kohima,Nagaland,25.6701,94.1077,20.4,81,0.2,858.4,9.15,28.8,68,28.9,17.5,1.3,262.0,98.0,1.7,6,5,7,1,2026-05-07T08:58:37.619351+05:30
Gangtok,Sikkim,27.3314,88.6138,16.6,63,0.0,840.4,9.05,43.6,63,22.8,12.3,1.4,218.0,130.0,1.0,3,5,7,0,2026-05-07T08:58:37.619357+05:30
Siliguri,West Bengal,26.7271,88.3953,26.0,66,0.0,996.5,8.6,20.9,95,38.8,25.4,4.4,498.0,142.0,3.7,7,5,7,1,2026-05-07T08:58:40.905122+05:30
Durgapur,West Bengal,23.5204,87.3119,25.6,84,0.0,998.0,8.9,45.4,160,78.7,74.3,33.0,628.0,92.0,83.9,7,5,7,1,2026-05-07T08:58:40.905151+05:30
Asansol,West Bengal,23.6739,86.9524,26.7,75,0.0,996.6,8.95,34.2,157,77.5,72.9,34.6,509.0,94.0,96.1,7,5,7,1,2026-05-07T08:58:40.905161+05:30
Pondicherry,Puducherry,11.9139,79.8145,29.9,71,0.1,1008.4,8.8,36.0,47,13.4,9.3,5.7,234.0,67.0,5.5,10,0,4,1,2026-05-07T08:58:40.905169+05:30
Port Blair,Andaman and Nicobar Islands,11.6234,92.7265,29.5,74,0.0,1007.4,8.35,33.1,32,7.1,5.5,0.5,176.0,74.0,0.1,7,5,4,1,2026-05-07T08:58:40.905177+05:30
Haridwar,Uttarakhand,29.9457,78.1642,26.1,53,0.0,976.8,6.95,36.7,84,33.9,20.4,4.0,247.0,142.0,8.5,4,5,7,0,2026-05-07T08:58:40.905185+05:30
Rishikesh,Uttarakhand,30.0869,78.2676,25.6,50,0.0,969.3,5.55,33.8,70,35.9,17.0,2.4,222.0,156.0,9.4,4,5,3,0,2026-05-07T08:58:40.905192+05:30
Nainital,Uttarakhand,29.3919,79.4542,15.1,58,0.0,807.0,6.25,28.8,64,38.6,16.8,1.4,213.0,149.0,3.3,0,5,7,0,2026-05-07T08:58:40.905200+05:30
Mussoorie,Uttarakhand,30.4599,78.0664,15.6,53,0.0,804.2,4.55,44.3,73,32.7,15.3,3.1,205.0,154.0,6.7,0,5,3,0,2026-05-07T08:58:40.905207+05:30
Dharamshala,Himachal Pradesh,32.219,76.3234,17.9,66,0.0,869.5,7.2,38.5,40,16.6,7.0,1.3,187.0,157.0,0.9,3,5,7,0,2026-05-07T08:58:40.905214+05:30
Dalhousie,Himachal Pradesh,32.5387,75.971,15.0,70,0.0,804.8,7.8,25.6,59,19.2,10.0,3.8,260.0,158.0,1.9,3,5,7,0,2026-05-07T08:58:40.905222+05:30
Patiala,Punjab,30.3398,76.3869,25.9,50,0.0,979.7,7.45,38.2,166,737.6,98.3,6.3,424.0,123.0,9.6,4,5,7,0,2026-05-07T08:58:40.905229+05:30
Bhatinda,Punjab,30.211,74.9455,28.8,34,0.0,983.7,8.1,36.7,135,400.5,85.0,5.9,325.0,122.0,12.1,4,5,7,0,2026-05-07T08:58:40.905236+05:30
Rohtak,Haryana,28.8955,76.6066,28.0,45,0.0,982.5,7.6,39.6,375,1035.6,126.7,16.2,345.0,149.0,23.6,4,5,7,0,2026-05-07T08:58:40.905243+05:30
Panipat,Haryana,29.3909,76.9635,27.2,46,0.0,981.7,7.4,34.2,791,1829.1,184.4,11.5,328.0,139.0,17.3,4,5,7,0,2026-05-07T08:58:40.905250+05:30
Mathura,Uttar Pradesh,27.4924,77.6737,26.9,49,0.0,988.1,7.85,42.5,437,1270.3,135.5,7.0,288.0,129.0,11.0,4,5,7,0,2026-05-07T08:58:40.905258+05:30
Vrindavan,Uttar Pradesh,27.5823,77.7027,27.1,47,0.0,988.5,7.85,42.8,437,1270.3,135.5,7.0,292.0,129.0,11.0,4,5,7,0,2026-05-07T08:58:40.905265+05:30
Ayodhya,Uttar Pradesh,26.7922,82.1998,26.1,70,0.0,998.7,8.2,50.8,78,49.5,37.4,5.8,418.0,128.0,8.2,7,5,7,1,2026-05-07T08:58:40.905272+05:30
Ratlam,Madhya Pradesh,23.3315,75.0367,33.4,23,0.0,955.5,8.45,32.8,80,45.5,23.6,3.1,217.0,127.0,7.8,0,5,7,0,2026-05-07T08:58:40.905296+05:30
Sagar,Madhya Pradesh,23.8388,78.7378,31.1,29,0.0,951.7,8.65,40.3,53,28.3,16.0,3.9,251.0,133.0,9.1,0,5,7,0,2026-05-07T08:58:40.905304+05:30
Satna,Madhya Pradesh,24.6005,80.8322,29.0,48,0.0,973.1,8.65,60.5,73,55.3,26.5,5.3,326.0,145.0,14.7,4,5,7,1,2026-05-07T08:58:40.905311+05:30
Akola,Maharashtra,20.7002,77.0082,33.3,35,0.0,975.7,8.65,35.3,74,38.0,25.3,8.5,304.0,115.0,10.4,0,5,7,0,2026-05-07T08:58:40.905320+05:30
Amravati,Maharashtra,20.9374,77.7796,32.9,35,0.0,968.8,5.6,50.0,72,38.2,25.0,8.2,265.0,116.0,10.1,0,5,3,0,2026-05-07T08:58:40.905328+05:30
Latur,Maharashtra,18.4088,76.5604,32.1,38,0.0,940.5,9.05,38.2,65,29.5,21.1,3.3,227.0,116.0,7.0,0,5,7,0,2026-05-07T08:58:40.905336+05:30
Nanded,Maharashtra,19.1383,77.3091,32.3,39,0.0,969.4,8.8,31.7,73,30.2,23.1,5.9,249.0,114.0,7.2,0,5,7,1,2026-05-07T08:58:40.905343+05:30
Gulbarga,Karnataka,17.3297,76.8343,31.6,48,0.0,959.4,9.1,36.0,68,26.1,22.1,4.9,227.0,110.0,12.1,0,5,7,1,2026-05-07T08:58:40.905350+05:30
Bidar,Karnataka,17.9104,77.5199,30.9,46,0.0,936.6,9.1,48.6,74,22.2,17.8,4.5,223.0,106.0,4.6,0,5,7,1,2026-05-07T08:58:40.905357+05:30
Hospet,Karnataka,15.2689,76.3909,30.0,54,0.0,956.0,9.2,29.5,78,51.1,42.3,6.4,293.0,121.0,9.3,4,5,7,1,2026-05-07T08:58:40.905364+05:30
Tirupur,Tamil Nadu,11.1085,77.3411,28.4,70,0.0,975.2,8.65,28.1,85,24.2,17.2,6.5,296.0,95.0,4.4,7,5,7,1,2026-05-07T08:58:40.905371+05:30
Alappuzha,Kerala,9.4981,76.3388,27.6,84,0.0,1008.2,8.3,33.5,70,29.0,23.1,8.0,253.0,112.0,7.6,7,0,4,1,2026-05-07T08:58:40.905379+05:30
Munnar,Kerala,10.0889,77.0595,21.2,77,0.0,857.1,7.4,24.8,79,23.9,16.6,2.5,216.0,102.0,2.3,3,5,7,1,2026-05-07T08:58:40.905386+05:30
Silchar,Assam,24.8333,92.7789,26.4,81,0.0,1008.8,8.85,28.1,113,43.2,32.8,3.8,278.0,101.0,6.9,7,0,4,1,2026-05-07T08:58:40.905393+05:30
Dibrugarh,Assam,27.4728,94.912,22.4,89,0.0,999.8,8.8,23.0,74,35.7,20.5,2.2,259.0,114.0,0.8,3,5,7,1,2026-05-07T08:58:40.905401+05:30
