city,state,latitude,longitude,temp,humidity,rain,pressure,uv_index,wind_gusts,aqi,pm10,pm2_5,mosquito_risk,arthritis_risk,migraine_risk,frizz_risk,updated_at
Delhi,Delhi,28.6139,77.209,20.7,92,0.0,983.2,5.05,39.2,322,107.1,41.4,3,5,3,1,2026-04-07T22:33:32.396587+05:30
Mumbai,Maharashtra,19.076,72.8777,28.4,75,0.0,1010.9,7.95,20.2,71,70.5,20.4,7,0,4,1,2026-04-07T22:33:32.396633+05:30
Bangalore,Karnataka,12.9716,77.5946,26.2,42,0.0,912.6,9.65,28.8,51,18.8,16.6,4,5,7,0,2026-04-07T22:33:32.396648+05:30
Hyderabad,Telangana,17.385,78.4867,29.9,34,0.0,953.5,9.15,30.6,93,41.3,36.2,4,5,7,0,2026-04-07T22:33:32.396658+05:30
Chennai,Tamil Nadu,13.0827,80.2707,29.2,87,0.0,1007.0,9.35,38.5,115,30.3,24.0,7,5,4,1,2026-04-07T22:33:32.396668+05:30
Kolkata,West Bengal,22.5726,88.3639,23.6,92,0.0,1007.7,8.65,20.9,115,20.8,18.7,3,5,4,1,2026-04-07T22:33:32.396677+05:30
Pune,Maharashtra,18.5204,73.8567,23.7,72,0.0,950.3,8.55,41.0,90,46.3,25.5,3,5,7,1,2026-04-07T22:33:32.396688+05:30
Ahmedabad,Gujarat,23.0225,72.5714,26.8,76,0.0,1001.8,7.95,43.6,62,26.6,13.6,7,5,4,1,2026-04-07T22:33:32.396696+05:30
Jaipur,Rajasthan,26.9124,75.7873,21.4,80,0.1,958.0,5.7,42.8,163,76.1,25.8,6,5,3,1,2026-04-07T22:33:32.396704+05:30
Lucknow,Uttar Pradesh,26.8467,80.9462,22.4,76,0.0,995.0,7.45,48.2,116,69.2,32.6,3,5,7,1,2026-04-07T22:33:32.396712+05:30
Kanpur,Uttar Pradesh,26.4499,80.3319,21.6,80,0.0,992.3,7.45,67.0,119,220.3,36.6,3,5,7,1,2026-04-07T22:33:32.396719+05:30
Chandigarh,Chandigarh,30.7333,76.7794,18.4,87,0.0,969.1,4.55,48.6,88,34.2,17.6,3,10,3,1,2026-04-07T22:33:32.396726+05:30
Srinagar,Jammu and Kashmir,34.0837,74.7973,11.3,71,0.0,835.1,7.1,36.4,71,23.2,20.8,3,5,7,0,2026-04-07T22:33:32.396733+05:30
Jammu,Jammu and Kashmir,32.7266,74.857,18.1,86,0.8,972.2,5.5,41.8,64,33.5,15.8,6,10,3,0,2026-04-07T22:33:32.396740+05:30
Amritsar,Punjab,31.634,74.8723,16.9,90,0.0,980.5,3.0,46.4,107,101.3,35.5,3,10,3,0,2026-04-07T22:33:32.396747+05:30
Ludhiana,Punjab,30.901,75.8573,17.5,88,0.0,979.3,3.55,52.2,138,116.4,38.2,3,10,3,0,2026-04-07T22:33:32.396754+05:30
Jalandhar,Punjab,31.326,75.5762,17.4,91,0.0,980.1,4.25,47.2,128,144.8,43.9,3,10,3,0,2026-04-07T22:33:32.396763+05:30
Dehradun,Uttarakhand,30.6284,78.0322,10.9,90,0.2,827.8,6.35,41.0,73,34.7,14.8,6,10,7,0,2026-04-07T22:33:32.396770+05:30
Shimla,Himachal Pradesh,31.1048,77.1734,9.3,81,1.0,780.3,6.35,46.4,75,28.2,11.8,6,10,7,0,2026-04-07T22:33:32.396777+05:30
Manali,Himachal Pradesh,32.2396,77.1887,10.2,97,0.2,814.1,8.95,29.2,116,14.6,11.4,6,10,7,0,2026-04-07T22:33:32.396783+05:30
Gurgaon,Haryana,28.4595,77.0266,20.2,91,0.0,981.3,3.75,39.2,870,212.8,59.0,3,5,3,1,2026-04-07T22:33:32.396790+05:30
Noida,Uttar Pradesh,28.5355,77.391,20.5,92,0.0,984.7,4.95,40.0,870,212.8,59.0,3,5,3,1,2026-04-07T22:33:32.396796+05:30
Ghaziabad,Uttar Pradesh,28.6692,77.4538,19.2,93,0.0,983.6,5.3,37.1,164,86.6,33.4,3,10,3,1,2026-04-07T22:33:32.396803+05:30
Faridabad,Haryana,28.4089,77.3178,19.9,92,0.0,983.5,5.4,37.4,870,212.8,59.0,3,10,3,1,2026-04-07T22:33:32.396809+05:30
Meerut,Uttar Pradesh,28.9845,77.7064,19.1,95,0.0,982.7,5.65,37.1,164,86.6,33.4,3,10,3,1,2026-04-07T22:33:32.396816+05:30
Agra,Uttar Pradesh,27.1767,78.0081,20.9,89,0.0,987.9,5.6,37.1,421,166.7,43.8,3,5,3,1,2026-04-07T22:33:32.396823+05:30
Varanasi,Uttar Pradesh,25.3176,82.9739,25.9,46,0.0,997.4,8.05,32.4,91,88.2,44.8,4,5,7,0,2026-04-07T22:33:32.396833+05:30
Prayagraj,Uttar Pradesh,25.4358,81.8463,23.9,67,0.0,997.5,7.95,36.7,104,54.8,23.6,3,5,7,1,2026-04-07T22:33:32.396841+05:30
Gorakhpur,Uttar Pradesh,26.7606,83.3732,24.9,46,0.0,997.6,7.85,35.6,87,64.3,30.6,0,5,7,0,2026-04-07T22:33:32.396849+05:30
Bareilly,Uttar Pradesh,28.367,79.4304,20.8,88,0.0,987.2,7.05,37.1,68,40.4,23.1,3,5,7,1,2026-04-07T22:33:32.396857+05:30
Aligarh,Uttar Pradesh,27.8974,78.088,19.3,94,0.0,985.0,6.0,32.4,253,125.7,39.8,3,10,3,1,2026-04-07T22:33:32.396864+05:30
Moradabad,Uttar Pradesh,28.8386,78.7733,19.6,91,0.0,984.6,6.95,30.2,86,68.9,33.2,3,10,7,1,2026-04-07T22:33:32.396872+05:30
Saharanpur,Uttar Pradesh,29.9637,77.546,18.3,90,0.0,976.9,4.3,35.3,79,57.0,29.4,3,10,3,1,2026-04-07T22:33:32.396879+05:30
Jhansi,Uttar Pradesh,25.4484,78.5685,22.8,71,0.0,976.8,7.75,47.2,74,54.2,27.1,3,5,7,1,2026-04-07T22:33:35.693308+05:30
Surat,Gujarat,21.1702,72.8311,27.3,81,0.0,1008.0,7.7,45.0,68,34.1,18.5,7,0,4,1,2026-04-07T22:33:35.693360+05:30
Vadodara,Gujarat,22.3072,73.1812,27.2,85,0.0,1004.5,7.95,46.4,63,46.3,24.7,7,5,4,1,2026-04-07T22:33:35.693370+05:30
Rajkot,Gujarat,22.3039,70.8022,26.1,77,0.0,995.1,7.7,46.8,55,27.4,13.4,7,5,7,1,2026-04-07T22:33:35.693379+05:30
Thane,Maharashtra,19.2183,72.9781,27.3,77,0.0,1010.3,7.95,33.8,71,70.5,20.4,7,0,4,1,2026-04-07T22:33:35.693387+05:30
Nagpur,Maharashtra,21.1458,79.0882,26.6,52,0.0,972.5,8.7,22.3,79,41.8,35.5,4,5,7,0,2026-04-07T22:33:35.693394+05:30
Nashik,Maharashtra,19.9975,73.7898,22.5,82,0.0,947.2,8.2,39.6,59,39.7,14.3,3,5,7,1,2026-04-07T22:33:35.693402+05:30
Aurangabad,Maharashtra,19.8762,75.3433,26.0,52,0.0,945.2,8.85,36.7,61,47.1,19.7,4,5,7,0,2026-04-07T22:33:35.693409+05:30
Solapur,Maharashtra,17.6599,75.9064,29.6,32,0.0,957.4,9.0,30.2,60,40.2,25.0,4,5,7,0,2026-04-07T22:33:35.693417+05:30
Kolhapur,Maharashtra,16.705,74.2433,22.2,83,0.0,949.3,9.0,45.7,59,20.7,15.0,3,5,7,1,2026-04-07T22:33:35.693424+05:30
Goa,Goa,15.2993,74.124,27.6,71,0.0,1000.5,9.0,33.1,55,29.9,16.6,7,5,4,1,2026-04-07T22:33:35.693430+05:30
Jodhpur,Rajasthan,26.2389,73.0243,21.9,84,0.0,980.8,7.9,47.2,123,300.8,65.4,3,5,7,1,2026-04-07T22:33:35.693437+05:30
Udaipur,Rajasthan,24.5854,73.7125,23.5,73,0.0,944.5,8.5,55.1,58,48.0,23.3,3,5,7,1,2026-04-07T22:33:35.693444+05:30
Kota,Rajasthan,25.2138,75.8648,23.3,82,0.0,977.6,7.9,42.8,66,30.3,17.6,3,5,7,1,2026-04-07T22:33:35.693450+05:30
Bikaner,Rajasthan,28.0229,73.3119,21.9,71,0.0,980.7,6.6,36.4,91,51.2,20.1,3,5,7,1,2026-04-07T22:33:35.693457+05:30
Ajmer,Rajasthan,26.4499,74.6399,20.3,85,0.0,952.6,7.8,52.6,61,162.1,41.0,3,5,7,1,2026-04-07T22:33:35.693464+05:30
Gwalior,Madhya Pradesh,26.2183,78.1828,23.2,73,0.0,982.3,7.25,37.8,77,65.0,27.9,3,5,7,1,2026-04-07T22:33:35.693470+05:30
Indore,Madhya Pradesh,22.7196,75.8577,25.1,57,0.0,947.7,8.4,42.8,66,50.5,24.2,4,5,7,0,2026-04-07T22:33:35.693477+05:30
Bhopal,Madhya Pradesh,23.2599,77.4126,26.1,40,0.0,952.9,8.35,45.7,62,57.4,29.5,4,5,7,0,2026-04-07T22:33:35.693483+05:30
Jabalpur,Madhya Pradesh,23.1815,79.9864,28.1,36,0.0,960.0,8.5,38.2,94,31.9,25.8,4,5,7,0,2026-04-07T22:33:35.693490+05:30
Ujjain,Madhya Pradesh,23.1765,75.7885,25.4,58,0.0,953.4,8.3,45.7,64,41.7,21.4,4,5,7,1,2026-04-07T22:33:35.693497+05:30
Visakhapatnam,Andhra Pradesh,17.6868,83.2185,27.9,88,0.0,1004.6,9.1,33.5,76,26.5,21.7,7,5,4,1,2026-04-07T22:33:35.693504+05:30
Vijayawada,Andhra Pradesh,16.5062,80.648,29.0,82,0.0,1002.5,9.15,31.7,110,48.2,45.4,7,5,4,1,2026-04-07T22:33:35.693511+05:30
Guntur,Andhra Pradesh,16.3067,80.4365,28.6,88,0.0,1003.8,9.2,31.7,96,50.9,48.3,7,5,4,1,2026-04-07T22:33:35.693518+05:30
Nellore,Andhra Pradesh,14.4426,79.9865,28.8,88,0.0,1005.7,9.3,37.4,143,34.8,30.4,7,5,4,1,2026-04-07T22:33:35.693525+05:30
Kurnool,Andhra Pradesh,15.8281,78.0373,30.7,31,0.0,976.5,9.2,25.2,129,41.4,34.5,0,5,7,0,2026-04-07T22:33:35.693532+05:30
Kakinada,Andhra Pradesh,16.9891,82.2475,27.7,91,0.0,1008.1,9.1,27.0,62,32.6,25.4,7,0,4,1,2026-04-07T22:33:35.693539+05:30
Tirupati,Andhra Pradesh,13.6288,79.4192,29.0,83,0.0,992.4,9.4,26.3,115,46.0,43.7,7,5,7,1,2026-04-07T22:33:35.693545+05:30
Warangal,Telangana,17.9689,79.5941,31.1,49,0.0,978.3,9.05,33.5,105,59.5,53.9,0,5,7,1,2026-04-07T22:33:35.693552+05:30
Nizamabad,Telangana,18.6725,78.0941,27.6,49,0.0,964.9,8.95,28.4,70,39.7,25.0,4,5,7,0,2026-04-07T22:33:35.693559+05:30
Mysore,Karnataka,12.2958,76.6396,23.8,81,0.0,929.6,9.55,37.1,46,16.5,14.4,3,5,7,1,2026-04-07T22:33:35.693565+05:30
Mangalore,Karnataka,12.9141,74.856,29.0,70,0.0,1009.0,9.15,31.0,58,21.9,13.1,7,0,4,1,2026-04-07T22:33:35.693571+05:30
Hubli-Dharwad,Karnataka,15.3647,75.124,22.4,84,0.0,942.4,9.2,38.5,81,12.7,9.7,3,5,7,1,2026-04-07T22:33:35.693578+05:30
Belgaum,Karnataka,15.8497,74.4977,21.0,89,0.0,927.0,9.25,37.1,51,18.3,13.6,3,5,7,1,2026-04-07T22:34:10.541031+05:30
Coimbatore,Tamil Nadu,11.0168,76.9558,24.9,74,0.0,962.8,9.5,54.4,55,23.9,19.5,3,5,7,1,2026-04-07T22:34:10.541065+05:30
Madurai,Tamil Nadu,9.9252,78.1198,28.9,73,0.0,994.2,7.9,33.5,99,40.0,37.4,7,5,7,1,2026-04-07T22:34:10.541075+05:30
Trichy,Tamil Nadu,10.7905,78.7047,29.7,79,0.0,1000.6,8.7,32.8,91,33.2,31.7,7,5,4,1,2026-04-07T22:34:10.541084+05:30
Salem,Tamil Nadu,11.6643,78.146,30.9,50,0.0,977.9,9.45,31.0,78,23.3,21.1,0,5,7,1,2026-04-07T22:34:10.541092+05:30
Tirunelveli,Tamil Nadu,8.7139,77.7567,29.5,65,0.0,1003.9,9.15,23.8,67,28.7,23.5,7,5,4,1,2026-04-07T22:34:10.541100+05:30
Vellore,Tamil Nadu,12.9165,79.1325,29.4,75,0.0,985.0,9.45,27.4,105,39.9,38.0,7,5,7,1,2026-04-07T22:34:10.541107+05:30
Erode,Tamil Nadu,11.341,77.7172,30.5,55,0.0,988.7,9.4,35.3,71,20.3,17.6,0,5,7,1,2026-04-07T22:34:10.541115+05:30
Kochi,Kerala,9.9312,76.2673,29.4,71,0.0,1010.6,9.25,41.0,65,27.2,19.3,7,0,4,1,2026-04-07T22:34:10.541122+05:30
Thiruvananthapuram,Kerala,8.5241,76.9366,29.4,74,0.0,1009.7,8.5,54.4,61,27.6,15.7,7,0,4,1,2026-04-07T22:34:10.541130+05:30
Kozhikode,Kerala,11.2588,75.7804,28.8,75,0.0,1009.8,9.15,37.1,57,25.4,14.1,7,0,4,1,2026-04-07T22:34:10.541136+05:30
Thrissur,Kerala,10.5276,76.2144,27.2,79,0.0,1008.9,9.2,40.3,62,27.7,19.7,7,0,4,1,2026-04-07T22:34:10.541144+05:30
Kannur,Kerala,11.8745,75.3704,27.9,76,0.0,1009.3,9.15,39.6,55,21.7,12.9,7,0,4,1,2026-04-07T22:34:10.541151+05:30
Patna,Bihar,25.5941,85.1376,28.0,42,0.0,1000.4,8.2,27.0,87,113.6,63.8,4,5,4,0,2026-04-07T22:34:10.541158+05:30
Gaya,Bihar,24.7914,85.0002,27.0,46,0.0,993.9,8.3,20.5,77,87.5,40.6,4,5,7,0,2026-04-07T22:34:10.541165+05:30
Muzaffarpur,Bihar,26.1209,85.3647,24.8,55,0.0,1000.6,8.15,24.5,104,123.9,79.6,0,5,4,0,2026-04-07T22:34:10.541172+05:30
Bhagalpur,Bihar,25.2425,87.0117,27.0,51,0.0,1001.4,8.25,20.5,77,62.9,41.1,4,5,4,0,2026-04-07T22:34:10.541179+05:30
Ranchi,Jharkhand,23.3441,85.3096,22.3,69,0.0,938.5,8.9,31.0,75,22.6,16.2,3,5,7,1,2026-04-07T22:34:10.541185+05:30
Jamshedpur,Jharkhand,22.8046,86.2029,24.5,84,0.0,992.3,8.75,37.4,118,38.5,35.3,3,5,7,1,2026-04-07T22:34:10.541192+05:30
Dhanbad,Jharkhand,23.7957,86.4304,24.7,67,0.0,980.6,8.65,24.5,125,50.8,49.1,3,5,7,1,2026-04-07T22:34:10.541199+05:30
Bokaro,Jharkhand,23.6693,86.1511,24.7,70,0.0,984.8,8.7,33.5,108,54.2,44.5,3,5,7,1,2026-04-07T22:34:10.541206+05:30
Bhubaneswar,Odisha,20.2961,85.8245,24.1,92,0.0,1004.8,8.95,33.8,82,40.6,36.6,3,5,4,1,2026-04-07T22:34:10.541212+05:30
Cuttack,Odisha,20.4625,85.8828,24.0,89,0.0,1006.3,9.0,37.8,82,40.6,36.6,3,5,4,1,2026-04-07T22:34:10.541218+05:30
Rourkela,Odisha,22.2604,84.8536,24.2,79,0.0,986.1,8.7,30.6,101,52.5,44.4,3,5,7,1,2026-04-07T22:34:10.541225+05:30
Raipur,Chhattisgarh,21.2514,81.6296,29.7,35,0.0,973.7,8.8,24.1,148,81.5,72.6,4,5,7,0,2026-04-07T22:34:10.541232+05:30
Bhilai,Chhattisgarh,21.1938,81.3509,29.3,37,0.0,973.9,8.8,24.5,146,42.8,38.1,4,5,7,0,2026-04-07T22:34:10.541239+05:30
Guwahati,Assam,26.1158,91.7086,22.6,88,0.0,1004.0,8.15,35.3,109,38.2,35.2,3,5,4,1,2026-04-07T22:34:10.541246+05:30
Agartala,Tripura,23.8315,91.2868,24.5,86,0.0,1007.6,8.45,38.9,149,37.5,36.2,3,5,4,1,2026-04-07T22:34:10.541253+05:30
Shillong,Meghalaya,25.5788,91.8933,12.5,88,0.0,856.2,6.3,42.5,99,35.3,31.1,3,10,7,0,2026-04-07T22:34:10.541259+05:30
Imphal,Manipur,24.817,93.9368,17.3,80,0.0,924.4,8.4,43.9,101,43.8,40.4,3,5,7,0,2026-04-07T22:34:10.541267+05:30
Aizawl,Mizoram,23.7271,92.7176,18.0,82,0.0,893.6,8.65,42.1,91,26.4,24.3,3,10,7,0,2026-04-07T22:34:10.541274+05:30
Kohima,Nagaland,25.6701,94.1077,14.1,75,0.0,855.2,8.35,71.6,86,36.4,31.7,3,5,7,0,2026-04-07T22:34:10.541281+05:30
Gangtok,Sikkim,27.3314,88.6138,12.2,72,0.0,837.1,8.5,23.4,73,23.7,18.0,3,5,7,0,2026-04-07T22:34:10.541288+05:30
Siliguri,West Bengal,26.7271,88.3953,21.2,53,0.0,995.9,8.1,32.8,83,34.7,30.6,0,5,7,0,2026-04-07T22:34:13.845298+05:30
Durgapur,West Bengal,23.5204,87.3119,23.8,83,0.0,996.4,8.45,22.7,124,38.8,37.4,3,5,7,1,2026-04-07T22:34:13.845377+05:30
Asansol,West Bengal,23.6739,86.9524,24.3,77,0.0,994.7,8.65,25.6,110,39.3,37.8,3,5,7,1,2026-04-07T22:34:13.845389+05:30
Pondicherry,Puducherry,11.9139,79.8145,28.7,91,0.0,1008.2,8.9,31.3,89,29.7,22.8,7,0,4,1,2026-04-07T22:34:13.845398+05:30
Port Blair,Andaman and Nicobar Islands,11.6234,92.7265,29.3,71,0.0,1008.8,9.25,13.0,28,4.1,2.7,7,0,4,1,2026-04-07T22:34:13.845406+05:30
Haridwar,Uttarakhand,29.9457,78.1642,20.3,78,0.0,975.1,5.3,41.4,87,43.5,25.2,3,5,3,1,2026-04-07T22:34:13.845414+05:30
Rishikesh,Uttarakhand,30.0869,78.2676,19.5,77,0.1,967.6,6.4,28.4,94,57.3,23.3,6,5,7,0,2026-04-07T22:34:13.845421+05:30
Nainital,Uttarakhand,29.3919,79.4542,15.5,66,0.1,804.7,5.85,57.2,89,27.8,17.9,6,5,3,0,2026-04-07T22:34:13.845429+05:30
Mussoorie,Uttarakhand,30.4599,78.0664,11.6,88,0.3,800.0,5.2,43.6,76,34.7,18.4,6,10,3,0,2026-04-07T22:34:13.845437+05:30
Dharamshala,Himachal Pradesh,32.219,76.3234,14.0,82,0.7,865.3,6.4,37.4,75,15.1,10.6,6,10,7,0,2026-04-07T22:34:13.845444+05:30
Dalhousie,Himachal Pradesh,32.5387,75.971,10.5,88,0.5,798.8,5.3,33.1,55,35.2,22.2,6,10,3,0,2026-04-07T22:34:13.845452+05:30
Patiala,Punjab,30.3398,76.3869,17.5,91,0.0,978.6,5.8,47.5,240,96.6,32.9,3,10,3,0,2026-04-07T22:34:13.845460+05:30
Bhatinda,Punjab,30.211,74.9455,17.9,93,0.0,983.4,4.2,52.2,108,70.8,21.4,3,10,3,1,2026-04-07T22:34:13.845467+05:30
Rohtak,Haryana,28.8955,76.6066,19.2,93,0.0,981.8,5.15,41.0,423,166.2,51.9,3,10,3,1,2026-04-07T22:34:13.845473+05:30
Panipat,Haryana,29.3909,76.9635,17.8,89,0.0,980.8,4.7,49.7,589,133.2,42.8,3,10,3,0,2026-04-07T22:34:13.845480+05:30
Mathura,Uttar Pradesh,27.4924,77.6737,20.5,86,0.0,986.9,6.2,34.9,483,258.0,56.7,3,5,7,1,2026-04-07T22:34:13.845486+05:30
Vrindavan,Uttar Pradesh,27.5823,77.7027,19.8,91,0.0,987.0,5.8,38.2,483,258.0,56.7,3,10,3,1,2026-04-07T22:34:13.845493+05:30
Ayodhya,Uttar Pradesh,26.7922,82.1998,22.4,72,0.1,997.6,7.6,59.8,88,70.3,37.6,6,5,7,1,2026-04-07T22:34:13.845499+05:30
Ratlam,Madhya Pradesh,23.3315,75.0367,24.3,77,0.0,954.5,8.25,50.4,63,41.7,20.5,3,5,7,1,2026-04-07T22:34:13.845506+05:30
Sagar,Madhya Pradesh,23.8388,78.7378,26.9,38,0.0,949.2,8.35,37.4,63,50.6,21.2,4,5,7,0,2026-04-07T22:34:13.845512+05:30
Satna,Madhya Pradesh,24.6005,80.8322,25.3,50,0.0,971.1,8.3,22.3,92,36.9,19.6,4,5,7,0,2026-04-07T22:34:13.845520+05:30
Akola,Maharashtra,20.7002,77.0082,27.4,46,0.0,975.3,8.65,36.0,67,70.8,28.1,4,5,7,0,2026-04-07T22:34:13.845527+05:30
Amravati,Maharashtra,20.9374,77.7796,27.3,47,0.0,967.4,8.7,33.5,73,52.0,22.4,4,5,7,0,2026-04-07T22:34:13.845535+05:30
Latur,Maharashtra,18.4088,76.5604,26.1,42,0.0,940.1,8.95,27.0,62,52.2,29.2,4,5,7,0,2026-04-07T22:34:13.845541+05:30
Nanded,Maharashtra,19.1383,77.3091,28.2,49,0.0,968.7,8.85,25.2,66,50.1,28.8,4,5,7,1,2026-04-07T22:34:13.845548+05:30
Gulbarga,Karnataka,17.3297,76.8343,30.6,31,0.0,958.9,9.05,29.2,81,25.9,17.2,0,5,7,0,2026-04-07T22:34:13.845555+05:30
Bidar,Karnataka,17.9104,77.5199,28.2,37,0.0,936.0,9.0,30.2,97,35.9,21.4,4,5,7,0,2026-04-07T22:34:13.845561+05:30
Hospet,Karnataka,15.2689,76.3909,28.4,60,0.0,956.9,9.25,29.5,60,24.3,21.1,4,5,7,1,2026-04-07T22:34:13.845567+05:30
Tirupur,Tamil Nadu,11.1085,77.3411,27.0,67,0.0,975.8,9.5,44.6,64,25.6,22.4,7,5,7,1,2026-04-07T22:34:13.845574+05:30
Alappuzha,Kerala,9.4981,76.3388,29.2,71,0.0,1010.8,8.7,41.8,64,28.5,17.8,7,0,4,1,2026-04-07T22:34:13.845581+05:30
Munnar,Kerala,10.0889,77.0595,20.6,98,0.0,858.3,9.0,40.3,62,23.3,20.7,3,5,7,1,2026-04-07T22:34:13.845588+05:30
Silchar,Assam,24.8333,92.7789,23.8,78,0.0,1006.9,8.3,26.3,147,53.7,49.5,3,5,4,1,2026-04-07T22:34:13.845595+05:30
Dibrugarh,Assam,27.4728,94.912,21.1,89,0.0,998.9,7.4,31.0,86,35.4,31.5,3,5,7,1,2026-04-07T22:34:13.845601+05:30
