city,state,latitude,longitude,temp,humidity,rain,pressure,uv_index,wind_gusts,aqi,pm10,pm2_5,no2,co,o3,so2,mosquito_risk,arthritis_risk,migraine_risk,frizz_risk,updated_at
Delhi,Delhi,28.6139,77.209,34.3,58,0.0,973.1,7.7,28.8,513,1084.1,191.4,4.8,213.0,127.0,12.3,0,5,7,1,2026-07-12T12:05:36.924903+05:30
Mumbai,Maharashtra,19.076,72.8777,29.7,75,0.0,1006.0,7.55,54.7,52,32.9,13.7,3.1,120.0,65.0,5.6,7,5,4,1,2026-07-12T12:05:36.924940+05:30
Bangalore,Karnataka,12.9716,77.5946,29.6,49,0.0,911.2,8.8,47.9,51,31.7,12.2,2.5,172.0,73.0,2.9,4,5,7,1,2026-07-12T12:05:36.924955+05:30
Hyderabad,Telangana,17.385,78.4867,31.6,45,0.0,950.7,8.7,51.1,60,43.9,16.1,1.4,145.0,73.0,2.9,0,5,7,1,2026-07-12T12:05:36.924964+05:30
Chennai,Tamil Nadu,13.0827,80.2707,37.2,37,0.0,1003.4,8.8,43.2,75,43.4,22.6,7.9,151.0,99.0,12.4,0,5,7,1,2026-07-12T12:05:36.924972+05:30
Kolkata,West Bengal,22.5726,88.3639,33.1,68,0.0,996.2,8.65,32.4,141,78.5,49.7,6.1,330.0,119.0,25.1,3,5,7,1,2026-07-12T12:05:36.924980+05:30
Pune,Maharashtra,18.5204,73.8567,28.9,66,0.0,945.8,8.35,56.2,34,28.4,10.6,1.4,108.0,63.0,3.6,7,5,7,1,2026-07-12T12:05:36.924987+05:30
Ahmedabad,Gujarat,23.0225,72.5714,34.1,50,0.0,995.0,8.1,51.1,64,57.3,20.5,1.5,111.0,74.0,3.5,0,5,7,1,2026-07-12T12:05:36.924993+05:30
Jaipur,Rajasthan,26.9124,75.7873,32.3,54,0.0,951.8,8.2,39.2,365,529.0,85.7,1.3,128.0,84.0,3.5,0,5,7,1,2026-07-12T12:05:36.924999+05:30
Lucknow,Uttar Pradesh,26.8467,80.9462,34.4,59,0.0,983.3,8.2,36.0,154,96.4,39.9,2.2,176.0,131.0,5.2,0,5,7,1,2026-07-12T12:05:36.925009+05:30
Kanpur,Uttar Pradesh,26.4499,80.3319,34.8,54,0.0,982.1,7.9,37.8,135,126.2,39.0,1.8,146.0,118.0,5.8,0,5,7,1,2026-07-12T12:05:36.925018+05:30
Chandigarh,Chandigarh,30.7333,76.7794,26.0,81,0.0,957.9,7.7,32.0,152,299.9,90.1,2.7,326.0,162.0,11.9,7,5,7,1,2026-07-12T12:05:36.925025+05:30
Srinagar,Jammu and Kashmir,34.0837,74.7973,22.9,70,0.1,837.2,8.3,31.3,48,9.4,9.0,7.6,396.0,102.0,2.1,6,5,7,1,2026-07-12T12:05:36.925032+05:30
Jammu,Jammu and Kashmir,32.7266,74.857,28.4,74,0.0,961.8,8.6,27.0,111,46.7,28.9,2.9,503.0,169.0,3.8,7,5,7,1,2026-07-12T12:05:36.925038+05:30
Amritsar,Punjab,31.634,74.8723,27.7,90,0.0,969.9,8.45,37.1,162,123.9,58.2,2.9,294.0,164.0,7.1,7,5,7,1,2026-07-12T12:05:36.925045+05:30
Ludhiana,Punjab,30.901,75.8573,28.8,80,0.0,968.0,7.95,41.0,168,393.0,106.2,2.8,393.0,153.0,9.7,7,5,7,1,2026-07-12T12:05:36.925051+05:30
Jalandhar,Punjab,31.326,75.5762,28.8,81,0.0,969.0,8.15,47.9,164,290.6,92.4,3.0,319.0,164.0,11.2,7,5,7,1,2026-07-12T12:05:36.925057+05:30
Dehradun,Uttarakhand,30.6284,78.0322,24.1,73,0.1,825.7,8.05,29.9,52,41.6,18.5,0.8,277.0,143.0,2.6,6,5,7,1,2026-07-12T12:05:36.925064+05:30
Shimla,Himachal Pradesh,31.1048,77.1734,20.3,58,0.0,780.5,8.25,31.7,98,86.1,37.0,0.7,173.0,127.0,4.8,0,5,7,0,2026-07-12T12:05:36.925070+05:30
Manali,Himachal Pradesh,32.2396,77.1887,25.3,68,0.0,816.5,9.4,28.4,44,4.6,4.3,2.7,206.0,144.0,0.8,7,5,7,1,2026-07-12T12:05:36.925080+05:30
Gurgaon,Haryana,28.4595,77.0266,34.7,55,0.0,971.7,7.7,30.2,634,1143.7,196.0,4.0,159.0,121.0,9.6,0,5,7,1,2026-07-12T12:05:36.925087+05:30
Noida,Uttar Pradesh,28.5355,77.391,34.9,56,0.0,974.5,7.7,27.7,634,1143.7,196.0,4.0,230.0,121.0,9.6,0,5,7,1,2026-07-12T12:05:36.925094+05:30
Ghaziabad,Uttar Pradesh,28.6692,77.4538,34.3,59,0.0,972.7,7.7,42.1,421,683.6,151.8,5.3,280.0,160.0,18.3,0,5,7,1,2026-07-12T12:05:36.925100+05:30
Faridabad,Haryana,28.4089,77.3178,34.5,57,0.0,973.9,7.75,28.8,634,1143.7,196.0,4.0,183.0,121.0,9.6,0,5,7,1,2026-07-12T12:05:36.925107+05:30
Meerut,Uttar Pradesh,28.9845,77.7064,34.2,60,0.0,971.5,7.6,45.7,421,683.6,151.8,5.3,250.0,160.0,18.3,0,5,7,1,2026-07-12T12:05:36.925113+05:30
Agra,Uttar Pradesh,27.1767,78.0081,34.3,57,0.0,978.5,8.0,37.8,137,277.5,56.7,1.8,132.0,110.0,3.9,0,5,7,1,2026-07-12T12:05:36.925119+05:30
Varanasi,Uttar Pradesh,25.3176,82.9739,34.0,56,0.0,987.9,8.4,42.5,100,51.0,29.4,1.9,184.0,125.0,7.8,0,5,7,1,2026-07-12T12:05:36.925125+05:30
Prayagraj,Uttar Pradesh,25.4358,81.8463,34.8,54,0.0,986.8,8.5,40.7,104,47.1,28.8,2.0,152.0,126.0,8.7,0,5,7,1,2026-07-12T12:05:36.925131+05:30
Gorakhpur,Uttar Pradesh,26.7606,83.3732,33.4,66,0.0,986.5,6.8,37.4,137,157.4,59.8,1.8,256.0,137.0,6.2,3,5,7,1,2026-07-12T12:05:36.925138+05:30
Bareilly,Uttar Pradesh,28.367,79.4304,34.2,65,0.0,976.3,8.0,35.3,160,309.2,95.9,2.5,267.0,158.0,10.0,3,5,7,1,2026-07-12T12:05:36.925146+05:30
Aligarh,Uttar Pradesh,27.8974,78.088,34.6,57,0.0,975.8,7.85,31.7,523,944.4,162.1,2.4,166.0,119.0,6.8,0,5,7,1,2026-07-12T12:05:36.925152+05:30
Moradabad,Uttar Pradesh,28.8386,78.7733,33.9,65,0.0,973.4,7.8,43.9,171,422.8,124.3,3.9,281.0,186.0,19.3,3,5,7,1,2026-07-12T12:05:36.925158+05:30
Saharanpur,Uttar Pradesh,29.9637,77.546,30.8,77,0.0,965.6,7.35,46.1,161,297.1,90.1,3.1,309.0,170.0,18.6,3,5,7,1,2026-07-12T12:05:36.925164+05:30
Jhansi,Uttar Pradesh,25.4484,78.5685,33.7,54,0.0,970.3,8.35,45.0,85,68.0,30.7,1.7,132.0,104.0,8.0,0,5,7,1,2026-07-12T12:05:40.196711+05:30
Surat,Gujarat,21.1702,72.8311,30.9,73,0.1,1001.7,5.9,65.2,56,38.6,18.8,6.7,178.0,49.0,20.9,6,5,0,1,2026-07-12T12:05:40.196740+05:30
Vadodara,Gujarat,22.3072,73.1812,32.2,61,0.0,997.9,8.05,58.7,55,49.8,18.4,1.6,114.0,68.0,3.4,3,5,7,1,2026-07-12T12:05:40.196750+05:30
Rajkot,Gujarat,22.3039,70.8022,33.8,52,0.0,987.4,7.7,60.8,60,51.6,20.0,0.9,94.0,67.0,2.8,0,5,7,1,2026-07-12T12:05:40.196758+05:30
Thane,Maharashtra,19.2183,72.9781,30.8,70,0.0,1005.1,7.0,49.3,52,32.9,13.7,3.1,122.0,65.0,5.6,3,5,4,1,2026-07-12T12:05:40.196766+05:30
Nagpur,Maharashtra,21.1458,79.0882,31.6,54,0.0,968.7,8.45,41.8,76,49.6,20.1,5.8,120.0,70.0,15.1,0,5,7,1,2026-07-12T12:05:40.196774+05:30
Nashik,Maharashtra,19.9975,73.7898,28.9,66,0.0,941.9,8.05,64.8,33,27.0,11.6,1.3,99.0,64.0,3.0,7,5,7,1,2026-07-12T12:05:40.196781+05:30
Aurangabad,Maharashtra,19.8762,75.3433,30.7,52,0.0,940.6,8.95,56.5,48,40.7,14.9,1.2,107.0,80.0,5.2,0,5,7,1,2026-07-12T12:05:40.196788+05:30
Solapur,Maharashtra,17.6599,75.9064,31.4,50,0.0,955.1,8.85,51.8,50,22.8,8.4,1.1,100.0,64.0,1.7,0,5,7,1,2026-07-12T12:05:40.196795+05:30
Kolhapur,Maharashtra,16.705,74.2433,27.3,71,0.0,946.9,8.2,52.6,38,34.2,11.7,1.2,103.0,55.0,1.7,7,5,7,1,2026-07-12T12:05:40.196803+05:30
Goa,Goa,15.2993,74.124,30.1,69,0.0,997.8,7.4,39.6,57,23.3,10.4,0.7,103.0,52.0,1.1,3,5,7,1,2026-07-12T12:05:40.196810+05:30
Jodhpur,Rajasthan,26.2389,73.0243,34.0,48,0.0,973.7,8.45,53.3,193,208.6,46.1,0.9,102.0,74.0,2.4,0,5,7,1,2026-07-12T12:05:40.196817+05:30
Udaipur,Rajasthan,24.5854,73.7125,30.2,58,0.0,939.6,8.8,52.6,68,65.9,23.7,1.0,104.0,72.0,3.4,0,5,7,1,2026-07-12T12:05:40.196824+05:30
Kota,Rajasthan,25.2138,75.8648,32.7,52,0.0,971.2,8.3,38.9,76,75.0,28.6,1.9,124.0,79.0,6.5,0,5,7,1,2026-07-12T12:05:40.196831+05:30
Bikaner,Rajasthan,28.0229,73.3119,35.3,45,0.0,971.9,8.45,42.8,159,189.1,60.5,0.5,101.0,81.0,4.0,0,5,10,1,2026-07-12T12:05:40.196838+05:30
Ajmer,Rajasthan,26.4499,74.6399,30.5,57,0.0,946.6,8.35,51.5,73,74.7,26.4,1.1,108.0,79.0,3.2,0,5,7,1,2026-07-12T12:05:40.196845+05:30
Gwalior,Madhya Pradesh,26.2183,78.1828,33.0,59,0.0,975.0,8.15,42.8,83,71.0,29.7,1.1,114.0,99.0,3.4,0,5,7,1,2026-07-12T12:05:40.196852+05:30
Indore,Madhya Pradesh,22.7196,75.8577,28.7,65,0.0,942.6,8.55,51.8,61,52.0,20.7,2.5,143.0,65.0,5.5,7,5,7,1,2026-07-12T12:05:40.196859+05:30
Bhopal,Madhya Pradesh,23.2599,77.4126,29.2,63,0.0,948.3,8.3,42.8,69,61.7,22.9,1.5,143.0,73.0,4.5,7,5,7,1,2026-07-12T12:05:40.196866+05:30
Jabalpur,Madhya Pradesh,23.1815,79.9864,30.4,65,0.0,955.8,6.2,41.4,76,50.4,22.8,1.4,141.0,85.0,4.9,3,5,7,1,2026-07-12T12:05:40.196873+05:30
Ujjain,Madhya Pradesh,23.1765,75.7885,29.2,63,0.0,948.0,8.45,51.1,60,51.6,20.5,1.8,133.0,65.0,4.2,7,5,7,1,2026-07-12T12:05:40.196880+05:30
Visakhapatnam,Andhra Pradesh,17.6868,83.2185,36.0,47,0.0,996.5,8.6,42.8,107,64.7,36.3,6.7,298.0,139.0,23.6,0,5,10,1,2026-07-12T12:05:40.196888+05:30
Vijayawada,Andhra Pradesh,16.5062,80.648,35.7,42,0.0,997.8,7.45,42.8,91,40.6,18.0,1.5,127.0,92.0,5.2,0,5,10,1,2026-07-12T12:05:40.196895+05:30
Guntur,Andhra Pradesh,16.3067,80.4365,36.3,39,0.0,999.1,7.8,45.0,82,40.0,17.2,1.4,125.0,88.0,4.8,0,5,10,1,2026-07-12T12:05:40.196902+05:30
Nellore,Andhra Pradesh,14.4426,79.9865,36.0,40,0.0,1001.8,8.1,44.3,71,45.3,15.6,1.7,107.0,85.0,5.5,0,5,7,1,2026-07-12T12:05:40.196910+05:30
Kurnool,Andhra Pradesh,15.8281,78.0373,33.4,44,0.0,974.5,8.1,46.4,56,43.4,15.4,1.5,109.0,74.0,4.3,0,5,7,1,2026-07-12T12:05:40.196918+05:30
Kakinada,Andhra Pradesh,16.9891,82.2475,35.4,47,0.0,1001.3,8.4,44.6,94,56.6,29.5,2.4,169.0,139.0,5.5,0,5,7,1,2026-07-12T12:05:40.196925+05:30
Tirupati,Andhra Pradesh,13.6288,79.4192,36.5,34,0.0,987.6,8.7,33.1,79,43.8,13.0,1.1,104.0,70.0,1.4,0,5,10,1,2026-07-12T12:05:40.196931+05:30
Warangal,Telangana,17.9689,79.5941,32.3,53,0.0,975.1,8.85,43.9,74,42.8,17.6,1.1,127.0,81.0,2.4,0,5,7,1,2026-07-12T12:05:40.196938+05:30
Nizamabad,Telangana,18.6725,78.0941,30.9,51,0.0,962.0,8.9,44.3,64,42.3,16.5,1.6,112.0,70.0,5.2,0,5,7,1,2026-07-12T12:05:40.196945+05:30
Mysore,Karnataka,12.2958,76.6396,30.2,49,0.0,928.1,8.5,47.5,39,28.1,10.2,1.3,110.0,69.0,1.6,0,5,7,1,2026-07-12T12:05:40.196951+05:30
Mangalore,Karnataka,12.9141,74.856,29.5,71,0.0,1007.1,6.75,44.3,42,22.2,10.5,0.9,88.0,55.0,1.7,7,5,4,1,2026-07-12T12:05:40.196958+05:30
Hubli-Dharwad,Karnataka,15.3647,75.124,28.5,62,0.0,940.4,8.85,54.0,31,17.7,7.2,1.0,96.0,54.0,1.1,7,5,7,1,2026-07-12T12:05:40.196965+05:30
Belgaum,Karnataka,15.8497,74.4977,26.9,70,0.0,925.5,8.8,50.8,34,16.1,6.7,1.0,94.0,54.0,1.6,7,5,7,1,2026-07-12T12:05:43.459939+05:30
Coimbatore,Tamil Nadu,11.0168,76.9558,31.6,54,0.0,960.6,8.2,56.5,42,28.1,10.6,1.2,124.0,68.0,2.2,0,5,7,1,2026-07-12T12:05:43.459966+05:30
Madurai,Tamil Nadu,9.9252,78.1198,37.0,36,0.0,990.6,7.85,38.2,64,39.6,12.5,1.6,122.0,85.0,2.4,0,5,10,1,2026-07-12T12:05:43.459975+05:30
Trichy,Tamil Nadu,10.7905,78.7047,36.6,37,0.0,997.0,8.4,51.5,47,33.2,11.6,1.3,107.0,72.0,2.2,0,5,10,1,2026-07-12T12:05:43.459983+05:30
Salem,Tamil Nadu,11.6643,78.146,32.4,54,0.0,975.5,8.6,29.2,63,37.6,16.9,3.4,172.0,97.0,8.6,0,5,7,1,2026-07-12T12:05:43.459990+05:30
Tirunelveli,Tamil Nadu,8.7139,77.7567,37.4,36,0.0,1001.2,7.9,42.1,29,14.9,6.4,0.9,108.0,67.0,1.4,0,5,7,1,2026-07-12T12:05:43.459997+05:30
Vellore,Tamil Nadu,12.9165,79.1325,36.6,34,0.0,981.2,8.25,40.0,70,39.6,15.1,1.9,143.0,86.0,3.0,0,5,10,1,2026-07-12T12:05:43.460003+05:30
Erode,Tamil Nadu,11.341,77.7172,36.0,36,0.0,986.9,8.3,53.6,54,30.2,12.8,1.9,153.0,84.0,2.6,0,5,10,1,2026-07-12T12:05:43.460010+05:30
Kochi,Kerala,9.9312,76.2673,28.8,77,0.0,1009.0,7.65,41.4,48,19.0,9.3,1.7,99.0,61.0,2.5,7,0,4,1,2026-07-12T12:05:43.460017+05:30
Thiruvananthapuram,Kerala,8.5241,76.9366,29.0,76,0.0,1008.3,7.7,47.2,35,18.3,9.9,1.6,91.0,67.0,1.6,7,0,4,1,2026-07-12T12:05:43.460023+05:30
Kozhikode,Kerala,11.2588,75.7804,29.5,74,0.0,1008.2,7.95,44.6,36,18.3,8.5,0.7,98.0,60.0,1.5,7,0,4,1,2026-07-12T12:05:43.460029+05:30
Thrissur,Kerala,10.5276,76.2144,29.4,75,0.1,1007.2,7.7,39.2,42,16.1,8.2,1.2,97.0,60.0,1.8,10,5,4,1,2026-07-12T12:05:43.460036+05:30
Kannur,Kerala,11.8745,75.3704,29.6,73,0.0,1007.6,8.2,42.8,39,20.7,9.6,1.0,91.0,59.0,1.6,7,5,4,1,2026-07-12T12:05:43.460043+05:30
Patna,Bihar,25.5941,85.1376,33.5,60,0.0,989.7,8.6,42.5,132,101.0,52.6,2.7,217.0,139.0,7.3,0,5,7,1,2026-07-12T12:05:43.460050+05:30
Gaya,Bihar,24.7914,85.0002,34.1,57,0.0,984.0,8.85,38.9,104,57.9,35.2,2.0,184.0,126.0,7.6,0,5,7,1,2026-07-12T12:05:43.460056+05:30
Muzaffarpur,Bihar,26.1209,85.3647,31.3,77,0.0,989.6,7.2,39.6,120,109.2,49.2,2.5,247.0,131.0,6.5,3,5,7,1,2026-07-12T12:05:43.460062+05:30
Bhagalpur,Bihar,25.2425,87.0117,33.3,63,0.1,990.4,8.45,32.4,98,89.6,51.9,4.5,229.0,133.0,13.7,6,5,7,1,2026-07-12T12:05:43.460068+05:30
Ranchi,Jharkhand,23.3441,85.3096,30.3,60,0.1,930.1,9.2,34.2,95,67.1,31.3,1.4,152.0,113.0,7.3,3,5,7,1,2026-07-12T12:05:43.460074+05:30
Jamshedpur,Jharkhand,22.8046,86.2029,33.2,61,0.0,981.6,9.1,29.9,118,75.0,41.2,3.4,211.0,142.0,19.3,3,5,7,1,2026-07-12T12:05:43.460080+05:30
Dhanbad,Jharkhand,23.7957,86.4304,32.7,65,0.0,970.5,9.0,28.1,149,80.8,43.7,7.8,180.0,130.0,34.3,3,5,7,1,2026-07-12T12:05:43.460087+05:30
Bokaro,Jharkhand,23.6693,86.1511,33.0,62,0.0,974.3,9.1,32.4,137,78.7,41.7,8.4,165.0,128.0,37.0,3,5,7,1,2026-07-12T12:05:43.460093+05:30
Bhubaneswar,Odisha,20.2961,85.8245,34.0,58,0.0,994.1,8.5,39.6,127,77.3,38.5,2.4,150.0,132.0,11.3,0,5,7,1,2026-07-12T12:05:43.460098+05:30
Cuttack,Odisha,20.4625,85.8828,33.7,60,0.0,995.7,8.5,37.4,127,77.3,38.5,2.4,215.0,132.0,11.3,0,5,7,1,2026-07-12T12:05:43.460104+05:30
Rourkela,Odisha,22.2604,84.8536,32.7,60,0.0,976.4,8.8,32.4,120,69.6,35.3,2.2,200.0,123.0,10.5,0,5,7,1,2026-07-12T12:05:43.460110+05:30
Raipur,Chhattisgarh,21.2514,81.6296,32.2,56,0.0,968.3,8.3,43.9,106,60.8,32.4,7.0,123.0,106.0,29.0,0,5,7,1,2026-07-12T12:05:43.460116+05:30
Bhilai,Chhattisgarh,21.1938,81.3509,31.8,56,0.0,969.1,7.4,48.2,99,54.4,29.0,6.3,272.0,98.0,23.4,0,5,7,1,2026-07-12T12:05:43.460122+05:30
Guwahati,Assam,26.1158,91.7086,27.2,95,0.1,990.7,3.65,14.4,35,5.8,5.7,2.5,291.0,98.0,1.8,10,5,3,1,2026-07-12T12:05:43.460128+05:30
Agartala,Tripura,23.8315,91.2868,27.2,100,0.0,995.9,7.9,33.5,89,31.1,29.3,15.9,202.0,68.0,4.2,7,5,7,1,2026-07-12T12:05:43.460135+05:30
Shillong,Meghalaya,25.5788,91.8933,21.3,95,0.0,849.3,3.3,31.3,35,8.5,5.7,1.7,229.0,96.0,3.6,3,5,3,1,2026-07-12T12:05:43.460142+05:30
Imphal,Manipur,24.817,93.9368,28.2,73,0.0,915.4,7.15,29.2,38,23.2,12.4,1.0,183.0,102.0,2.7,7,5,7,1,2026-07-12T12:05:43.460148+05:30
Aizawl,Mizoram,23.7271,92.7176,25.9,71,0.0,885.9,8.0,38.5,36,46.1,19.8,0.4,144.0,96.0,3.8,7,5,7,1,2026-07-12T12:05:43.460155+05:30
Kohima,Nagaland,25.6701,94.1077,22.7,95,0.2,849.1,8.05,22.3,36,11.7,7.3,0.6,209.0,98.0,1.9,6,5,7,1,2026-07-12T12:05:43.460161+05:30
Gangtok,Sikkim,27.3314,88.6138,23.6,80,0.2,832.3,4.55,32.0,51,3.2,3.2,2.1,220.0,101.0,1.2,6,5,3,1,2026-07-12T12:05:43.460167+05:30
Siliguri,West Bengal,26.7271,88.3953,28.6,92,0.0,982.2,8.65,24.8,56,7.8,7.8,3.4,356.0,107.0,2.1,7,5,7,1,2026-07-12T12:05:46.741239+05:30
Durgapur,West Bengal,23.5204,87.3119,33.3,64,0.0,985.2,5.2,26.3,150,80.6,51.5,12.0,572.0,147.0,48.1,3,5,3,1,2026-07-12T12:05:46.741267+05:30
Asansol,West Bengal,23.6739,86.9524,33.5,63,0.0,983.8,8.15,28.4,132,78.7,45.8,9.6,249.0,134.0,37.3,3,5,7,1,2026-07-12T12:05:46.741277+05:30
Pondicherry,Puducherry,11.9139,79.8145,35.6,46,0.0,1005.0,8.55,43.6,69,38.2,20.9,4.1,150.0,103.0,7.2,0,5,7,1,2026-07-12T12:05:46.741285+05:30
Port Blair,Andaman and Nicobar Islands,11.6234,92.7265,30.2,75,0.0,1004.1,8.7,58.3,51,33.6,15.9,0.2,86.0,44.0,0.4,3,5,4,1,2026-07-12T12:05:46.741293+05:30
Haridwar,Uttarakhand,29.9457,78.1642,33.5,63,0.0,964.1,7.45,37.4,133,253.3,75.2,1.7,259.0,151.0,10.5,3,5,7,1,2026-07-12T12:05:46.741299+05:30
Rishikesh,Uttarakhand,30.0869,78.2676,32.2,66,0.0,957.1,7.6,35.6,77,207.7,59.4,0.9,226.0,134.0,5.2,3,5,7,1,2026-07-12T12:05:46.741307+05:30
Nainital,Uttarakhand,29.3919,79.4542,25.1,59,0.0,802.5,6.3,34.9,104,156.9,56.1,1.6,212.0,154.0,9.0,4,5,7,1,2026-07-12T12:05:46.741314+05:30
Mussoorie,Uttarakhand,30.4599,78.0664,23.1,64,0.0,799.2,8.0,42.1,86,163.4,52.6,1.1,287.0,140.0,4.6,3,5,7,0,2026-07-12T12:05:46.741320+05:30
Dharamshala,Himachal Pradesh,32.219,76.3234,25.1,61,0.0,862.4,8.45,27.0,51,33.8,16.2,0.5,322.0,141.0,1.6,7,5,7,1,2026-07-12T12:05:46.741327+05:30
Dalhousie,Himachal Pradesh,32.5387,75.971,21.4,68,0.0,800.4,8.65,23.8,92,81.0,33.5,1.3,311.0,148.0,2.5,3,5,7,0,2026-07-12T12:05:46.741335+05:30
Patiala,Punjab,30.3398,76.3869,27.3,86,0.0,967.3,7.5,33.1,162,412.6,108.7,3.0,361.0,159.0,12.3,7,5,7,1,2026-07-12T12:05:46.741341+05:30
Bhatinda,Punjab,30.211,74.9455,34.4,56,0.0,973.1,8.25,34.9,333,624.0,187.7,3.5,138.0,138.0,11.8,0,5,7,1,2026-07-12T12:05:46.741348+05:30
Rohtak,Haryana,28.8955,76.6066,34.8,55,0.0,972.0,7.6,33.8,807,1967.0,269.2,1.9,140.0,103.0,3.6,0,5,7,1,2026-07-12T12:05:46.741354+05:30
Panipat,Haryana,29.3909,76.9635,31.9,66,0.0,970.2,7.45,51.8,945,1974.4,413.5,3.3,163.0,108.0,11.0,3,5,7,1,2026-07-12T12:05:46.741361+05:30
Mathura,Uttar Pradesh,27.4924,77.6737,34.7,57,0.0,977.3,7.95,35.6,735,1158.6,151.3,1.9,152.0,106.0,3.5,0,5,7,1,2026-07-12T12:05:46.741367+05:30
Vrindavan,Uttar Pradesh,27.5823,77.7027,34.9,56,0.0,977.7,7.9,34.6,735,1158.6,151.3,1.9,147.0,106.0,3.5,0,5,7,1,2026-07-12T12:05:46.741373+05:30
Ayodhya,Uttar Pradesh,26.7922,82.1998,34.2,58,0.0,985.0,7.05,37.8,152,116.2,53.7,2.0,231.0,138.0,6.0,0,5,7,1,2026-07-12T12:05:46.741379+05:30
Ratlam,Madhya Pradesh,23.3315,75.0367,30.0,61,0.0,948.8,8.45,51.5,59,51.9,20.4,1.6,110.0,67.0,4.1,7,5,7,1,2026-07-12T12:05:46.741386+05:30
Sagar,Madhya Pradesh,23.8388,78.7378,31.3,56,0.0,944.5,7.25,47.5,74,60.1,24.3,1.1,135.0,83.0,4.4,0,5,7,1,2026-07-12T12:05:46.741392+05:30
Satna,Madhya Pradesh,24.6005,80.8322,33.2,56,0.0,964.0,8.2,44.6,83,45.9,25.0,1.1,128.0,105.0,4.8,0,5,7,1,2026-07-12T12:05:46.741399+05:30
Akola,Maharashtra,20.7002,77.0082,31.1,58,0.0,971.2,7.9,45.7,58,45.9,16.8,1.8,103.0,71.0,6.2,0,5,7,1,2026-07-12T12:05:46.741406+05:30
Amravati,Maharashtra,20.9374,77.7796,29.9,63,0.0,963.6,6.0,48.2,60,47.7,17.9,2.2,108.0,71.0,7.8,7,5,3,1,2026-07-12T12:05:46.741412+05:30
Latur,Maharashtra,18.4088,76.5604,30.8,51,0.0,937.6,8.9,49.3,52,34.3,12.4,0.8,103.0,65.0,1.9,0,5,7,1,2026-07-12T12:05:46.741419+05:30
Nanded,Maharashtra,19.1383,77.3091,30.8,56,0.0,965.8,8.85,43.2,59,39.8,15.0,1.2,108.0,69.0,3.2,0,5,7,1,2026-07-12T12:05:46.741425+05:30
Gulbarga,Karnataka,17.3297,76.8343,31.4,46,0.0,956.5,8.7,51.1,52,27.4,10.0,1.4,105.0,64.0,2.2,0,5,7,1,2026-07-12T12:05:46.741452+05:30
Bidar,Karnataka,17.9104,77.5199,30.1,51,0.0,933.4,8.95,49.0,57,35.9,13.3,1.2,108.0,69.0,1.7,0,5,7,1,2026-07-12T12:05:46.741460+05:30
Hospet,Karnataka,15.2689,76.3909,31.9,47,0.0,954.5,8.55,53.6,41,28.2,10.0,1.1,100.0,60.0,1.7,0,5,7,1,2026-07-12T12:05:46.741466+05:30
Tirupur,Tamil Nadu,11.1085,77.3411,34.0,47,0.0,973.5,8.3,67.0,57,29.3,12.8,1.9,136.0,85.0,2.9,0,5,7,1,2026-07-12T12:05:46.741472+05:30
Alappuzha,Kerala,9.4981,76.3388,29.0,77,0.0,1009.2,7.8,43.2,44,19.3,10.2,1.9,84.0,65.0,2.8,7,0,4,1,2026-07-12T12:05:46.741479+05:30
Munnar,Kerala,10.0889,77.0595,22.1,73,0.1,858.1,7.95,37.8,29,20.8,6.9,0.7,90.0,56.0,1.1,6,5,7,1,2026-07-12T12:05:46.741486+05:30
Silchar,Assam,24.8333,92.7789,30.2,83,0.3,994.8,6.05,28.1,61,40.2,20.1,1.1,192.0,103.0,4.1,6,5,7,1,2026-07-12T12:05:46.741492+05:30
Dibrugarh,Assam,27.4728,94.912,30.9,80,0.1,985.1,1.95,23.8,35,4.6,4.5,1.1,253.0,116.0,1.7,6,5,3,1,2026-07-12T12:05:46.741498+05:30
