city,state,latitude,longitude,temp,humidity,rain,pressure,uv_index,wind_gusts,aqi,pm10,pm2_5,mosquito_risk,arthritis_risk,migraine_risk,frizz_risk,updated_at
Delhi,Delhi,28.6139,77.209,26.9,36,0.0,981.1,6.15,24.5,152,212.3,60.8,4,5,7,0,2026-04-17T03:17:13.236121+05:30
Mumbai,Maharashtra,19.076,72.8777,28.2,76,0.0,1006.8,7.05,21.2,79,57.4,22.8,7,5,4,1,2026-04-17T03:17:13.236173+05:30
Bangalore,Karnataka,12.9716,77.5946,24.0,73,0.0,910.3,9.55,34.9,82,28.3,25.7,3,5,7,1,2026-04-17T03:17:13.236189+05:30
Hyderabad,Telangana,17.385,78.4867,28.2,60,0.0,951.5,9.2,45.7,85,22.6,21.4,4,5,7,1,2026-04-17T03:17:13.236200+05:30
Chennai,Tamil Nadu,13.0827,80.2707,27.6,91,0.0,1005.3,8.7,33.8,32,11.0,7.6,7,5,4,1,2026-04-17T03:17:13.236210+05:30
Kolkata,West Bengal,22.5726,88.3639,26.0,95,0.0,1006.2,8.9,22.7,72,20.9,16.5,7,5,4,1,2026-04-17T03:17:13.236223+05:30
Pune,Maharashtra,18.5204,73.8567,22.4,77,0.0,946.4,7.75,44.3,97,37.1,27.1,3,5,7,1,2026-04-17T03:17:13.236232+05:30
Ahmedabad,Gujarat,23.0225,72.5714,27.5,55,0.0,1000.2,7.75,21.2,74,32.0,15.9,4,5,4,1,2026-04-17T03:17:13.236240+05:30
Jaipur,Rajasthan,26.9124,75.7873,28.3,31,0.0,958.2,6.4,31.0,121,170.4,38.2,4,5,7,0,2026-04-17T03:17:13.236248+05:30
Lucknow,Uttar Pradesh,26.8467,80.9462,24.2,46,0.0,992.1,7.05,24.1,104,163.4,44.7,0,5,7,0,2026-04-17T03:17:13.236257+05:30
Kanpur,Uttar Pradesh,26.4499,80.3319,24.3,57,0.0,989.9,7.4,15.8,144,224.4,57.6,0,5,7,0,2026-04-17T03:17:13.236265+05:30
Chandigarh,Chandigarh,30.7333,76.7794,21.8,52,0.0,966.6,7.2,51.8,51,16.6,14.8,0,5,7,0,2026-04-17T03:17:13.236272+05:30
Srinagar,Jammu and Kashmir,34.0837,74.7973,10.5,91,0.0,842.5,5.1,25.2,73,35.9,24.6,3,10,3,0,2026-04-17T03:17:13.236280+05:30
Jammu,Jammu and Kashmir,32.7266,74.857,25.3,42,0.0,971.3,5.2,42.1,56,14.2,11.0,4,5,3,0,2026-04-17T03:17:13.236288+05:30
Amritsar,Punjab,31.634,74.8723,22.1,61,0.0,979.0,7.1,47.9,64,21.3,17.0,3,5,7,0,2026-04-17T03:17:13.236295+05:30
Ludhiana,Punjab,30.901,75.8573,23.1,47,0.0,976.8,6.7,42.1,71,26.0,23.0,0,5,7,0,2026-04-17T03:17:13.236309+05:30
Jalandhar,Punjab,31.326,75.5762,21.9,50,0.0,977.7,6.1,41.0,63,23.5,14.8,0,5,7,0,2026-04-17T03:17:13.236316+05:30
Dehradun,Uttarakhand,30.6284,78.0322,15.6,50,0.0,830.3,6.6,40.7,40,10.4,9.5,0,5,7,0,2026-04-17T03:17:13.236323+05:30
Shimla,Himachal Pradesh,31.1048,77.1734,14.5,51,0.0,784.6,6.85,42.5,57,16.4,13.8,0,5,7,0,2026-04-17T03:17:13.236330+05:30
Manali,Himachal Pradesh,32.2396,77.1887,15.9,41,0.0,821.5,8.05,29.5,68,8.9,6.7,0,5,7,0,2026-04-17T03:17:13.236338+05:30
Gurgaon,Haryana,28.4595,77.0266,25.1,43,0.0,979.2,6.1,29.5,373,326.9,92.4,4,5,7,0,2026-04-17T03:17:13.236345+05:30
Noida,Uttar Pradesh,28.5355,77.391,26.1,41,0.0,982.7,6.0,23.4,373,326.9,92.4,4,5,3,0,2026-04-17T03:17:13.236352+05:30
Ghaziabad,Uttar Pradesh,28.6692,77.4538,24.5,46,0.0,980.7,5.95,25.6,122,189.5,60.1,0,5,3,0,2026-04-17T03:17:13.236359+05:30
Faridabad,Haryana,28.4089,77.3178,25.6,42,0.0,981.8,6.25,22.3,373,326.9,92.4,4,5,7,0,2026-04-17T03:17:13.236365+05:30
Meerut,Uttar Pradesh,28.9845,77.7064,22.8,47,0.0,979.5,6.05,28.4,122,189.5,60.1,0,5,7,0,2026-04-17T03:17:13.236393+05:30
Agra,Uttar Pradesh,27.1767,78.0081,25.1,51,0.0,985.8,6.25,26.3,379,276.6,74.0,4,5,7,0,2026-04-17T03:17:13.236404+05:30
Varanasi,Uttar Pradesh,25.3176,82.9739,25.5,86,0.0,996.3,8.4,22.0,112,132.7,55.8,7,5,7,1,2026-04-17T03:17:13.236412+05:30
Prayagraj,Uttar Pradesh,25.4358,81.8463,24.7,52,0.0,994.3,8.25,23.4,95,64.5,30.0,0,5,7,0,2026-04-17T03:17:13.236419+05:30
Gorakhpur,Uttar Pradesh,26.7606,83.3732,24.9,83,0.0,997.1,7.65,28.4,141,65.7,58.9,3,5,7,1,2026-04-17T03:17:13.236427+05:30
Bareilly,Uttar Pradesh,28.367,79.4304,21.8,57,0.0,985.0,7.45,24.8,76,48.8,43.1,0,5,7,0,2026-04-17T03:17:13.236436+05:30
Aligarh,Uttar Pradesh,27.8974,78.088,24.0,48,0.0,983.3,7.15,25.2,151,201.6,71.9,0,5,7,0,2026-04-17T03:17:13.236443+05:30
Moradabad,Uttar Pradesh,28.8386,78.7733,22.9,53,0.0,981.7,6.65,26.3,91,62.9,51.3,0,5,7,0,2026-04-17T03:17:13.236450+05:30
Saharanpur,Uttar Pradesh,29.9637,77.546,20.1,66,0.0,973.6,6.3,24.5,74,36.9,32.6,3,5,7,0,2026-04-17T03:17:13.236456+05:30
Jhansi,Uttar Pradesh,25.4484,78.5685,29.2,32,0.0,976.0,8.15,32.0,93,114.8,25.7,4,5,7,0,2026-04-17T03:17:16.610849+05:30
Surat,Gujarat,21.1702,72.8311,26.8,92,0.0,1004.8,7.5,19.4,85,40.3,26.6,7,5,4,1,2026-04-17T03:17:16.610887+05:30
Vadodara,Gujarat,22.3072,73.1812,25.3,90,0.0,1002.5,7.25,18.7,75,31.4,24.2,7,5,4,1,2026-04-17T03:17:16.610900+05:30
Rajkot,Gujarat,22.3039,70.8022,24.1,75,0.0,992.9,7.65,25.2,64,71.0,19.0,3,5,7,1,2026-04-17T03:17:16.610908+05:30
Thane,Maharashtra,19.2183,72.9781,24.9,90,0.0,1006.4,7.05,33.5,79,57.4,22.8,3,5,4,1,2026-04-17T03:17:16.610916+05:30
Nagpur,Maharashtra,21.1458,79.0882,26.7,55,0.0,970.2,8.85,18.4,62,30.3,23.6,4,5,7,1,2026-04-17T03:17:16.610923+05:30
Nashik,Maharashtra,19.9975,73.7898,22.3,73,0.0,944.0,7.4,31.3,58,41.2,23.4,3,5,7,1,2026-04-17T03:17:16.610931+05:30
Aurangabad,Maharashtra,19.8762,75.3433,26.3,54,0.0,942.2,8.25,28.8,43,20.2,15.5,4,5,7,1,2026-04-17T03:17:16.610938+05:30
Solapur,Maharashtra,17.6599,75.9064,26.3,50,0.0,954.8,8.6,19.1,60,27.9,25.9,4,5,7,0,2026-04-17T03:17:16.610946+05:30
Kolhapur,Maharashtra,16.705,74.2433,20.5,95,0.0,945.6,8.5,40.3,68,27.0,21.7,3,5,7,1,2026-04-17T03:17:16.610954+05:30
Goa,Goa,15.2993,74.124,27.3,84,0.0,996.2,8.5,31.3,72,33.8,24.6,7,5,7,1,2026-04-17T03:17:16.610961+05:30
Jodhpur,Rajasthan,26.2389,73.0243,27.5,52,0.0,980.7,8.05,28.8,78,163.0,34.1,4,5,7,1,2026-04-17T03:17:16.610969+05:30
Udaipur,Rajasthan,24.5854,73.7125,27.1,47,0.0,945.5,8.0,25.6,68,62.4,21.2,4,5,7,0,2026-04-17T03:17:16.610976+05:30
Kota,Rajasthan,25.2138,75.8648,27.1,53,0.0,976.3,7.4,25.2,82,77.3,29.6,4,5,7,1,2026-04-17T03:17:16.610984+05:30
Bikaner,Rajasthan,28.0229,73.3119,28.9,32,0.0,978.5,8.0,26.3,55,140.2,33.4,4,5,7,0,2026-04-17T03:17:16.610991+05:30
Ajmer,Rajasthan,26.4499,74.6399,26.5,49,0.0,952.9,7.55,31.0,68,88.5,34.9,4,5,7,0,2026-04-17T03:17:16.610998+05:30
Gwalior,Madhya Pradesh,26.2183,78.1828,27.3,44,0.0,981.3,7.15,27.4,129,118.0,26.7,4,5,7,0,2026-04-17T03:17:16.611005+05:30
Indore,Madhya Pradesh,22.7196,75.8577,25.4,63,0.0,946.3,7.7,26.6,76,35.6,25.0,7,5,7,1,2026-04-17T03:17:16.611012+05:30
Bhopal,Madhya Pradesh,23.2599,77.4126,28.2,50,0.0,951.8,7.8,25.6,75,60.1,29.8,4,5,7,1,2026-04-17T03:17:16.611019+05:30
Jabalpur,Madhya Pradesh,23.1815,79.9864,25.5,52,0.0,959.1,8.25,26.6,66,61.5,20.7,4,5,7,0,2026-04-17T03:17:16.611026+05:30
Ujjain,Madhya Pradesh,23.1765,75.7885,25.8,60,0.0,952.1,7.8,25.2,82,37.3,25.5,4,5,7,1,2026-04-17T03:17:16.611033+05:30
Visakhapatnam,Andhra Pradesh,17.6868,83.2185,27.2,87,0.0,1001.6,9.2,39.2,46,13.7,11.0,7,5,4,1,2026-04-17T03:17:16.611041+05:30
Vijayawada,Andhra Pradesh,16.5062,80.648,26.7,92,0.0,1000.9,9.2,25.2,47,11.1,8.8,7,5,4,1,2026-04-17T03:17:16.611048+05:30
Guntur,Andhra Pradesh,16.3067,80.4365,26.9,91,0.0,1001.9,9.2,28.4,52,10.8,8.6,7,5,4,1,2026-04-17T03:17:16.611056+05:30
Nellore,Andhra Pradesh,14.4426,79.9865,26.8,90,0.0,1003.3,9.3,31.0,52,10.3,8.5,7,5,4,1,2026-04-17T03:17:16.611064+05:30
Kurnool,Andhra Pradesh,15.8281,78.0373,31.2,53,0.0,974.5,9.15,27.0,77,20.8,19.6,0,5,7,1,2026-04-17T03:17:16.611071+05:30
Kakinada,Andhra Pradesh,16.9891,82.2475,27.1,91,0.0,1005.8,9.2,29.9,29,11.5,7.7,7,5,4,1,2026-04-17T03:17:16.611079+05:30
Tirupati,Andhra Pradesh,13.6288,79.4192,25.6,91,0.0,989.9,9.25,33.1,67,14.8,13.2,7,5,7,1,2026-04-17T03:17:16.611087+05:30
Warangal,Telangana,17.9689,79.5941,27.4,76,0.0,976.3,9.1,25.2,70,18.7,17.8,7,5,7,1,2026-04-17T03:17:16.611094+05:30
Nizamabad,Telangana,18.6725,78.0941,30.8,47,0.0,962.2,8.95,25.9,82,37.5,34.2,0,5,7,1,2026-04-17T03:17:16.611101+05:30
Mysore,Karnataka,12.2958,76.6396,23.7,89,0.0,927.0,9.3,38.9,81,37.7,33.6,3,5,7,1,2026-04-17T03:17:16.611109+05:30
Mangalore,Karnataka,12.9141,74.856,29.6,81,0.0,1004.9,8.95,26.6,85,50.8,21.7,7,5,4,1,2026-04-17T03:17:16.611116+05:30
Hubli-Dharwad,Karnataka,15.3647,75.124,23.5,92,0.0,939.5,9.2,37.1,61,21.7,13.5,3,5,7,1,2026-04-17T03:17:16.611123+05:30
Belgaum,Karnataka,15.8497,74.4977,21.0,98,0.0,923.5,8.75,35.6,61,25.8,18.9,3,5,7,1,2026-04-17T03:17:19.972449+05:30
Coimbatore,Tamil Nadu,11.0168,76.9558,25.4,86,0.0,960.2,9.05,38.9,98,57.3,51.3,7,5,7,1,2026-04-17T03:17:19.972481+05:30
Madurai,Tamil Nadu,9.9252,78.1198,26.6,89,0.0,991.5,8.8,29.2,66,33.4,31.0,7,5,7,1,2026-04-17T03:17:19.972492+05:30
Trichy,Tamil Nadu,10.7905,78.7047,26.6,90,0.0,998.3,8.45,18.7,54,23.6,21.4,7,5,7,1,2026-04-17T03:17:19.972500+05:30
Salem,Tamil Nadu,11.6643,78.146,26.0,86,0.0,975.7,8.35,20.9,64,23.9,21.9,7,5,7,1,2026-04-17T03:17:19.972509+05:30
Tirunelveli,Tamil Nadu,8.7139,77.7567,25.6,81,0.0,1001.4,8.85,45.0,73,33.8,28.4,7,5,4,1,2026-04-17T03:17:19.972518+05:30
Vellore,Tamil Nadu,12.9165,79.1325,25.4,96,0.0,982.9,9.4,31.7,82,31.7,30.5,7,5,7,1,2026-04-17T03:17:19.972534+05:30
Erode,Tamil Nadu,11.341,77.7172,27.9,78,0.0,987.3,8.7,27.4,68,15.8,14.7,7,5,7,1,2026-04-17T03:17:19.972548+05:30
Kochi,Kerala,9.9312,76.2673,28.8,82,0.0,1006.8,8.35,32.4,100,41.0,37.5,7,5,4,1,2026-04-17T03:17:19.972562+05:30
Thiruvananthapuram,Kerala,8.5241,76.9366,28.4,82,0.0,1006.0,8.75,35.6,81,38.2,27.9,7,5,4,1,2026-04-17T03:17:19.972575+05:30
Kozhikode,Kerala,11.2588,75.7804,29.1,83,0.0,1006.2,9.05,29.2,90,53.9,31.8,7,5,4,1,2026-04-17T03:17:19.972587+05:30
Thrissur,Kerala,10.5276,76.2144,27.8,88,0.0,1005.2,8.6,38.2,103,50.3,39.6,7,5,4,1,2026-04-17T03:17:19.972600+05:30
Kannur,Kerala,11.8745,75.3704,28.9,80,0.0,1005.4,8.85,31.7,96,59.3,39.9,7,5,4,1,2026-04-17T03:17:19.972613+05:30
Patna,Bihar,25.5941,85.1376,25.7,85,0.0,1000.6,8.55,29.5,151,48.7,46.2,7,5,4,1,2026-04-17T03:17:19.972624+05:30
Gaya,Bihar,24.7914,85.0002,25.5,88,0.0,993.3,8.65,22.3,104,59.1,56.9,7,5,7,1,2026-04-17T03:17:19.972637+05:30
Muzaffarpur,Bihar,26.1209,85.3647,24.1,90,0.0,1001.0,8.3,27.4,152,49.5,46.6,3,5,4,1,2026-04-17T03:17:19.972648+05:30
Bhagalpur,Bihar,25.2425,87.0117,24.9,93,0.0,1001.9,8.6,23.8,142,44.9,40.0,3,5,4,1,2026-04-17T03:17:19.972661+05:30
Ranchi,Jharkhand,23.3441,85.3096,23.0,98,0.0,937.6,9.15,30.6,116,48.3,46.4,3,5,7,1,2026-04-17T03:17:19.972670+05:30
Jamshedpur,Jharkhand,22.8046,86.2029,26.7,94,0.0,990.7,8.95,27.0,126,22.3,20.9,7,5,7,1,2026-04-17T03:17:19.972677+05:30
Dhanbad,Jharkhand,23.7957,86.4304,25.8,86,0.0,980.3,8.9,23.0,160,77.1,74.5,7,5,7,1,2026-04-17T03:17:19.972684+05:30
Bokaro,Jharkhand,23.6693,86.1511,25.1,94,0.0,984.4,8.95,24.1,161,94.1,92.0,7,5,7,1,2026-04-17T03:17:19.972691+05:30
Bhubaneswar,Odisha,20.2961,85.8245,26.5,89,0.0,1001.1,9.1,30.6,47,10.6,7.8,7,5,4,1,2026-04-17T03:17:19.972698+05:30
Cuttack,Odisha,20.4625,85.8828,26.8,88,0.0,1003.3,9.15,30.2,47,10.6,7.8,7,5,4,1,2026-04-17T03:17:19.972705+05:30
Rourkela,Odisha,22.2604,84.8536,27.2,86,0.0,984.4,8.9,39.2,114,38.1,37.3,7,5,7,1,2026-04-17T03:17:19.972712+05:30
Raipur,Chhattisgarh,21.2514,81.6296,28.3,42,0.0,972.0,8.95,29.2,89,47.7,40.9,4,5,7,0,2026-04-17T03:17:19.972719+05:30
Bhilai,Chhattisgarh,21.1938,81.3509,28.7,43,0.0,972.5,8.95,28.8,74,38.0,30.6,4,5,7,0,2026-04-17T03:17:19.972725+05:30
Guwahati,Assam,26.1158,91.7086,25.6,80,0.0,1002.9,8.55,24.5,141,92.9,68.9,7,5,4,1,2026-04-17T03:17:19.972732+05:30
Agartala,Tripura,23.8315,91.2868,22.9,93,0.0,1007.4,8.75,19.4,150,71.2,59.8,3,5,4,1,2026-04-17T03:17:19.972739+05:30
Shillong,Meghalaya,25.5788,91.8933,13.4,93,0.0,856.1,6.65,25.6,113,48.4,34.9,3,10,7,0,2026-04-17T03:17:19.972746+05:30
Imphal,Manipur,24.817,93.9368,18.2,80,0.0,924.2,9.1,38.2,132,78.9,59.8,3,5,7,0,2026-04-17T03:17:19.972753+05:30
Aizawl,Mizoram,23.7271,92.7176,18.3,87,0.0,892.7,9.0,36.0,144,76.8,58.9,3,10,7,1,2026-04-17T03:17:19.972760+05:30
Kohima,Nagaland,25.6701,94.1077,15.5,80,0.0,855.7,8.25,49.7,116,67.3,47.6,3,5,7,0,2026-04-17T03:17:19.972767+05:30
Gangtok,Sikkim,27.3314,88.6138,15.1,94,0.0,838.2,8.85,20.9,97,45.4,34.2,3,10,7,0,2026-04-17T03:17:19.972773+05:30
Siliguri,West Bengal,26.7271,88.3953,21.3,72,0.0,995.7,8.5,20.9,157,96.9,68.5,3,5,7,1,2026-04-17T03:17:23.340962+05:30
Durgapur,West Bengal,23.5204,87.3119,25.6,93,0.0,995.6,8.85,20.9,136,58.0,54.4,7,5,7,1,2026-04-17T03:17:23.340996+05:30
Asansol,West Bengal,23.6739,86.9524,26.1,89,0.0,994.2,8.85,21.2,151,56.5,53.4,7,5,7,1,2026-04-17T03:17:23.341008+05:30
Pondicherry,Puducherry,11.9139,79.8145,27.1,96,0.0,1006.8,8.85,29.5,28,9.7,6.4,7,5,4,1,2026-04-17T03:17:23.341018+05:30
Port Blair,Andaman and Nicobar Islands,11.6234,92.7265,29.4,68,0.0,1005.9,9.2,24.8,63,21.8,15.0,7,5,4,1,2026-04-17T03:17:23.341028+05:30
Haridwar,Uttarakhand,29.9457,78.1642,20.9,67,0.0,972.8,6.1,22.3,57,24.9,20.9,3,5,7,0,2026-04-17T03:17:23.341037+05:30
Rishikesh,Uttarakhand,30.0869,78.2676,21.2,65,0.0,966.1,6.3,22.7,48,21.1,15.1,3,5,7,0,2026-04-17T03:17:23.341045+05:30
Nainital,Uttarakhand,29.3919,79.4542,21.6,21,0.0,807.1,7.4,47.5,49,15.7,11.6,0,5,7,1,2026-04-17T03:17:23.341054+05:30
Mussoorie,Uttarakhand,30.4599,78.0664,18.6,46,0.0,803.5,6.7,44.6,51,20.6,18.1,0,5,7,0,2026-04-17T03:17:23.341063+05:30
Dharamshala,Himachal Pradesh,32.219,76.3234,23.2,25,0.0,869.6,7.35,29.2,53,10.2,7.0,0,5,7,0,2026-04-17T03:17:23.341070+05:30
Dalhousie,Himachal Pradesh,32.5387,75.971,19.5,27,0.0,804.6,6.85,34.2,45,16.2,14.2,0,5,7,0,2026-04-17T03:17:23.341079+05:30
Patiala,Punjab,30.3398,76.3869,21.4,56,0.0,976.1,7.1,47.2,111,263.6,41.0,0,5,7,0,2026-04-17T03:17:23.341086+05:30
Bhatinda,Punjab,30.211,74.9455,25.6,43,0.0,981.2,7.75,53.3,70,109.2,26.7,4,5,7,0,2026-04-17T03:17:23.341093+05:30
Rohtak,Haryana,28.8955,76.6066,20.8,60,0.0,979.4,6.4,34.2,222,309.2,72.4,0,5,7,0,2026-04-17T03:17:23.341099+05:30
Panipat,Haryana,29.3909,76.9635,23.0,48,0.0,978.4,6.45,26.6,267,248.7,54.7,0,5,7,0,2026-04-17T03:17:23.341106+05:30
Mathura,Uttar Pradesh,27.4924,77.6737,24.8,49,0.0,984.9,7.1,25.2,263,239.3,75.0,0,5,7,0,2026-04-17T03:17:23.341113+05:30
Vrindavan,Uttar Pradesh,27.5823,77.7027,24.6,47,0.0,985.2,7.05,24.1,263,239.3,75.0,0,5,7,0,2026-04-17T03:17:23.341119+05:30
Ayodhya,Uttar Pradesh,26.7922,82.1998,23.8,81,0.0,994.4,7.25,31.0,95,83.1,45.2,3,5,7,1,2026-04-17T03:17:23.341125+05:30
Ratlam,Madhya Pradesh,23.3315,75.0367,26.2,59,0.0,952.9,7.9,29.2,73,37.3,24.3,4,5,7,1,2026-04-17T03:17:23.341132+05:30
Sagar,Madhya Pradesh,23.8388,78.7378,28.0,38,0.0,948.5,7.8,23.4,80,67.3,18.3,4,5,7,0,2026-04-17T03:17:23.341138+05:30
Satna,Madhya Pradesh,24.6005,80.8322,27.1,39,0.0,969.4,8.6,23.4,76,158.3,27.0,4,5,7,0,2026-04-17T03:17:23.341144+05:30
Akola,Maharashtra,20.7002,77.0082,26.8,59,0.0,972.5,7.9,19.4,60,26.7,18.9,4,5,7,1,2026-04-17T03:17:23.341152+05:30
Amravati,Maharashtra,20.9374,77.7796,26.1,62,0.0,964.6,8.1,17.6,59,26.3,19.4,7,5,7,1,2026-04-17T03:17:23.341159+05:30
Latur,Maharashtra,18.4088,76.5604,25.5,46,0.0,937.9,8.7,29.5,54,29.3,23.5,4,5,7,0,2026-04-17T03:17:23.341166+05:30
Nanded,Maharashtra,19.1383,77.3091,25.1,50,0.0,966.5,8.9,17.3,64,37.5,29.9,4,5,7,0,2026-04-17T03:17:23.341172+05:30
Gulbarga,Karnataka,17.3297,76.8343,30.1,47,0.0,956.7,8.55,28.1,114,34.1,30.6,0,5,7,1,2026-04-17T03:17:23.341179+05:30
Bidar,Karnataka,17.9104,77.5199,28.2,55,0.0,933.5,9.05,21.2,96,38.9,36.2,4,5,7,1,2026-04-17T03:17:23.341186+05:30
Hospet,Karnataka,15.2689,76.3909,26.9,78,0.0,954.6,9.25,26.6,84,26.9,21.4,7,5,7,1,2026-04-17T03:17:23.341193+05:30
Tirupur,Tamil Nadu,11.1085,77.3411,26.7,84,0.0,973.6,8.95,29.9,77,33.3,29.1,7,5,7,1,2026-04-17T03:17:23.341199+05:30
Alappuzha,Kerala,9.4981,76.3388,28.9,82,0.0,1006.9,8.15,33.5,95,48.4,38.0,7,5,4,1,2026-04-17T03:17:23.341205+05:30
Munnar,Kerala,10.0889,77.0595,20.9,88,0.0,855.1,9.3,23.8,74,37.4,34.0,3,5,7,1,2026-04-17T03:17:23.341212+05:30
Silchar,Assam,24.8333,92.7789,23.0,94,0.0,1006.2,8.75,19.4,151,65.9,49.8,3,5,4,1,2026-04-17T03:17:23.341219+05:30
Dibrugarh,Assam,27.4728,94.912,22.8,86,0.0,997.6,8.65,10.8,135,65.2,46.8,3,5,7,1,2026-04-17T03:17:23.341225+05:30
