city,state,latitude,longitude,temp,humidity,rain,pressure,uv_index,wind_gusts,aqi,pm10,pm2_5,mosquito_risk,arthritis_risk,migraine_risk,frizz_risk,updated_at
Delhi,Delhi,28.6139,77.209,33.8,31,0.0,986.7,6.0,24.8,166,178.8,46.4,0,5,3,0,2026-03-08T14:05:48.799216+05:30
Mumbai,Maharashtra,19.076,72.8777,27.8,76,0.0,1008.6,7.5,25.9,116,54.9,52.9,7,0,4,1,2026-03-08T14:05:48.799255+05:30
Bangalore,Karnataka,12.9716,77.5946,32.5,26,0.0,912.7,9.25,27.4,109,40.6,31.7,0,5,7,0,2026-03-08T14:05:48.799270+05:30
Hyderabad,Telangana,17.385,78.4867,35.9,24,0.0,954.4,8.55,25.6,104,37.0,25.5,0,5,10,0,2026-03-08T14:05:48.799280+05:30
Chennai,Tamil Nadu,13.0827,80.2707,32.1,51,0.0,1008.5,8.95,32.4,79,40.0,26.7,0,0,4,1,2026-03-08T14:05:48.799289+05:30
Kolkata,West Bengal,22.5726,88.3639,30.0,57,0.0,1009.1,7.25,15.8,152,63.3,52.6,4,0,4,1,2026-03-08T14:05:48.799297+05:30
Pune,Maharashtra,18.5204,73.8567,38.3,17,0.0,949.8,8.05,29.5,109,14.3,12.8,0,5,10,0,2026-03-08T14:05:48.799309+05:30
Ahmedabad,Gujarat,23.0225,72.5714,37.2,22,0.0,1004.9,7.35,16.6,102,17.4,14.1,0,5,7,0,2026-03-08T14:05:48.799317+05:30
Jaipur,Rajasthan,26.9124,75.7873,37.4,12,0.0,963.9,6.8,23.0,84,96.4,16.4,0,5,10,0,2026-03-08T14:05:48.799325+05:30
Lucknow,Uttar Pradesh,26.8467,80.9462,32.7,41,0.0,996.9,6.5,21.6,181,112.9,72.6,0,5,7,1,2026-03-08T14:05:48.799333+05:30
Kanpur,Uttar Pradesh,26.4499,80.3319,32.5,44,0.0,995.4,6.5,16.9,175,136.0,68.0,0,5,7,1,2026-03-08T14:05:48.799339+05:30
Chandigarh,Chandigarh,30.7333,76.7794,32.6,36,0.0,972.3,5.9,30.2,154,57.9,37.4,0,5,3,0,2026-03-08T14:05:48.799346+05:30
Srinagar,Jammu and Kashmir,34.0837,74.7973,21.3,32,0.0,848.9,6.8,16.2,136,42.7,22.1,0,5,7,0,2026-03-08T14:05:48.799353+05:30
Jammu,Jammu and Kashmir,32.7266,74.857,32.2,40,0.0,976.7,6.4,29.5,130,42.3,22.3,0,5,7,1,2026-03-08T14:05:48.799359+05:30
Amritsar,Punjab,31.634,74.8723,32.0,46,0.0,985.1,6.4,23.4,165,65.7,41.7,0,5,7,1,2026-03-08T14:05:48.799365+05:30
Ludhiana,Punjab,30.901,75.8573,33.1,38,0.0,982.7,6.15,27.7,173,74.7,54.5,0,5,7,1,2026-03-08T14:05:48.799388+05:30
Jalandhar,Punjab,31.326,75.5762,32.5,40,0.0,983.9,6.3,26.3,171,81.5,52.3,0,5,7,1,2026-03-08T14:05:48.799401+05:30
Dehradun,Uttarakhand,30.6284,78.0322,23.7,47,0.0,835.5,6.3,37.8,103,31.4,16.4,0,5,7,0,2026-03-08T14:05:48.799408+05:30
Shimla,Himachal Pradesh,31.1048,77.1734,22.5,38,0.0,791.4,6.35,51.8,121,29.2,12.7,0,5,7,0,2026-03-08T14:05:48.799416+05:30
Manali,Himachal Pradesh,32.2396,77.1887,25.2,22,0.0,826.7,8.05,30.6,66,21.7,9.1,4,5,7,0,2026-03-08T14:05:48.799422+05:30
Gurgaon,Haryana,28.4595,77.0266,34.2,31,0.0,985.2,6.1,19.8,175,601.6,75.9,0,5,7,0,2026-03-08T14:05:48.799429+05:30
Noida,Uttar Pradesh,28.5355,77.391,34.5,30,0.0,988.1,6.0,24.8,175,601.6,75.9,0,5,3,0,2026-03-08T14:05:48.799435+05:30
Ghaziabad,Uttar Pradesh,28.6692,77.4538,33.4,36,0.0,986.2,6.0,24.5,168,130.4,53.6,0,5,3,1,2026-03-08T14:05:48.799442+05:30
Faridabad,Haryana,28.4089,77.3178,33.9,33,0.0,987.4,6.05,21.6,175,601.6,75.9,0,5,7,0,2026-03-08T14:05:48.799448+05:30
Meerut,Uttar Pradesh,28.9845,77.7064,33.2,40,0.0,984.8,5.85,29.2,168,130.4,53.6,0,5,3,1,2026-03-08T14:05:48.799454+05:30
Agra,Uttar Pradesh,27.1767,78.0081,36.1,28,0.0,991.2,6.4,20.5,157,268.2,46.4,0,5,10,0,2026-03-08T14:05:48.799461+05:30
Varanasi,Uttar Pradesh,25.3176,82.9739,32.2,48,0.0,1000.8,7.2,11.5,173,83.6,69.4,0,5,4,1,2026-03-08T14:05:48.799470+05:30
Prayagraj,Uttar Pradesh,25.4358,81.8463,31.5,52,0.0,999.4,7.05,14.8,179,90.1,73.1,0,5,7,1,2026-03-08T14:05:48.799477+05:30
Gorakhpur,Uttar Pradesh,26.7606,83.3732,31.5,47,0.0,1000.8,6.9,16.2,174,80.8,71.9,0,5,4,1,2026-03-08T14:05:48.799484+05:30
Bareilly,Uttar Pradesh,28.367,79.4304,31.9,48,0.0,990.3,6.2,19.8,173,129.9,60.5,0,5,7,1,2026-03-08T14:05:48.799490+05:30
Aligarh,Uttar Pradesh,27.8974,78.088,34.4,33,0.0,989.0,6.1,23.4,171,253.3,66.4,0,5,7,0,2026-03-08T14:05:48.799496+05:30
Moradabad,Uttar Pradesh,28.8386,78.7733,32.2,45,0.0,986.9,6.05,23.8,183,119.7,71.7,0,5,7,1,2026-03-08T14:05:48.799502+05:30
Saharanpur,Uttar Pradesh,29.9637,77.546,32.9,40,0.0,978.7,5.65,36.7,173,94.1,67.3,0,5,3,1,2026-03-08T14:05:48.799508+05:30
Jhansi,Uttar Pradesh,25.4484,78.5685,36.0,23,0.0,981.6,7.0,26.3,106,58.3,26.3,0,5,10,0,2026-03-08T14:05:52.013920+05:30
Surat,Gujarat,21.1702,72.8311,36.5,30,0.0,1008.1,7.25,24.5,152,42.4,40.5,0,0,7,1,2026-03-08T14:05:52.013950+05:30
Vadodara,Gujarat,22.3072,73.1812,39.1,22,0.0,1006.3,7.35,16.6,106,11.8,10.6,0,5,7,0,2026-03-08T14:05:52.013961+05:30
Rajkot,Gujarat,22.3039,70.8022,35.0,34,0.0,997.3,7.15,20.9,73,27.9,14.6,0,5,7,1,2026-03-08T14:05:52.013969+05:30
Thane,Maharashtra,19.2183,72.9781,33.7,51,0.0,1008.4,7.5,33.1,116,54.9,52.9,0,0,4,1,2026-03-08T14:05:52.013976+05:30
Nagpur,Maharashtra,21.1458,79.0882,36.5,21,0.0,975.1,7.9,27.0,77,37.3,24.4,0,5,10,0,2026-03-08T14:05:52.013983+05:30
Nashik,Maharashtra,19.9975,73.7898,36.8,18,0.0,947.6,7.7,28.4,86,13.0,12.2,0,5,10,0,2026-03-08T14:05:52.013990+05:30
Aurangabad,Maharashtra,19.8762,75.3433,36.9,16,0.0,946.1,8.2,32.0,76,17.6,11.4,0,5,10,0,2026-03-08T14:05:52.013996+05:30
Solapur,Maharashtra,17.6599,75.9064,36.4,22,0.0,958.2,8.45,19.4,71,22.4,16.4,0,5,10,0,2026-03-08T14:05:52.014003+05:30
Kolhapur,Maharashtra,16.705,74.2433,36.2,18,0.0,948.6,8.6,34.6,128,27.8,22.2,0,5,10,0,2026-03-08T14:05:52.014010+05:30
Goa,Goa,15.2993,74.124,31.1,63,0.0,997.7,8.65,36.0,134,37.4,34.7,3,5,7,1,2026-03-08T14:05:52.014017+05:30
Jodhpur,Rajasthan,26.2389,73.0243,37.0,19,0.0,986.8,7.05,17.6,64,31.4,9.1,0,5,10,0,2026-03-08T14:05:52.014024+05:30
Udaipur,Rajasthan,24.5854,73.7125,36.0,20,0.0,950.8,7.7,17.6,43,5.2,4.6,0,5,10,0,2026-03-08T14:05:52.014030+05:30
Kota,Rajasthan,25.2138,75.8648,37.0,19,0.0,982.5,7.1,9.4,90,18.2,15.3,0,5,10,0,2026-03-08T14:05:52.014037+05:30
Bikaner,Rajasthan,28.0229,73.3119,35.9,22,0.0,985.7,6.75,18.0,57,143.4,23.3,0,5,10,0,2026-03-08T14:05:52.014044+05:30
Ajmer,Rajasthan,26.4499,74.6399,35.9,15,0.0,959.1,7.05,20.5,69,29.8,8.7,0,5,10,0,2026-03-08T14:05:52.014051+05:30
Gwalior,Madhya Pradesh,26.2183,78.1828,34.9,26,0.0,986.9,6.7,23.8,99,43.9,17.4,0,5,7,0,2026-03-08T14:05:52.014058+05:30
Indore,Madhya Pradesh,22.7196,75.8577,35.6,19,0.0,951.7,7.65,20.2,77,14.6,12.7,0,5,10,0,2026-03-08T14:05:52.014064+05:30
Bhopal,Madhya Pradesh,23.2599,77.4126,35.4,20,0.0,957.4,7.5,21.2,69,33.6,15.4,0,5,10,0,2026-03-08T14:05:52.014071+05:30
Jabalpur,Madhya Pradesh,23.1815,79.9864,33.5,29,0.0,964.6,7.6,25.2,118,69.6,38.9,0,5,7,0,2026-03-08T14:05:52.014077+05:30
Ujjain,Madhya Pradesh,23.1765,75.7885,35.0,20,0.0,957.6,7.55,15.8,99,14.6,13.7,0,5,7,0,2026-03-08T14:05:52.014084+05:30
Visakhapatnam,Andhra Pradesh,17.6868,83.2185,30.8,57,0.0,1005.4,8.2,37.4,97,37.0,29.1,0,5,4,1,2026-03-08T14:05:52.014091+05:30
Vijayawada,Andhra Pradesh,16.5062,80.648,34.0,46,0.0,1003.4,8.6,29.5,100,40.2,30.6,0,5,4,1,2026-03-08T14:05:52.014098+05:30
Guntur,Andhra Pradesh,16.3067,80.4365,33.5,48,0.0,1004.7,8.6,28.8,98,39.9,30.0,0,5,4,1,2026-03-08T14:05:52.014104+05:30
Nellore,Andhra Pradesh,14.4426,79.9865,33.9,45,0.0,1006.5,8.8,32.8,89,45.5,34.6,0,5,4,1,2026-03-08T14:05:52.014111+05:30
Kurnool,Andhra Pradesh,15.8281,78.0373,38.1,19,0.0,977.1,8.6,25.6,97,43.7,32.0,0,5,10,0,2026-03-08T14:05:52.014118+05:30
Kakinada,Andhra Pradesh,16.9891,82.2475,32.8,48,0.0,1008.6,8.55,34.6,82,34.8,23.9,0,0,4,1,2026-03-08T14:05:52.014124+05:30
Tirupati,Andhra Pradesh,13.6288,79.4192,34.9,29,0.0,991.8,8.95,33.1,118,44.0,33.6,0,5,7,0,2026-03-08T14:05:52.014131+05:30
Warangal,Telangana,17.9689,79.5941,33.9,45,0.0,979.9,8.35,27.7,116,52.4,42.5,0,5,7,1,2026-03-08T14:05:52.014137+05:30
Nizamabad,Telangana,18.6725,78.0941,35.7,22,0.0,966.3,8.25,33.8,89,35.5,20.8,0,5,10,0,2026-03-08T14:05:52.014143+05:30
Mysore,Karnataka,12.2958,76.6396,33.3,28,0.0,929.2,9.25,33.5,131,40.2,32.0,0,5,7,0,2026-03-08T14:05:52.014149+05:30
Mangalore,Karnataka,12.9141,74.856,28.7,78,0.0,1006.2,8.85,24.8,112,41.4,37.8,7,5,4,1,2026-03-08T14:05:52.014156+05:30
Hubli-Dharwad,Karnataka,15.3647,75.124,36.7,17,0.0,941.4,8.8,25.6,96,31.9,25.4,0,5,10,0,2026-03-08T14:05:52.014162+05:30
Belgaum,Karnataka,15.8497,74.4977,35.9,17,0.0,926.7,8.85,33.8,109,26.3,21.4,0,5,10,0,2026-03-08T14:05:55.225748+05:30
Coimbatore,Tamil Nadu,11.0168,76.9558,34.4,30,0.0,961.9,9.2,38.5,131,37.5,29.9,0,5,7,0,2026-03-08T14:05:55.225775+05:30
Madurai,Tamil Nadu,9.9252,78.1198,34.9,35,0.0,993.1,9.15,32.0,100,44.4,34.7,0,5,7,1,2026-03-08T14:05:55.225784+05:30
Trichy,Tamil Nadu,10.7905,78.7047,35.0,39,0.0,1000.0,9.05,27.4,97,44.8,33.3,0,5,4,1,2026-03-08T14:05:55.225792+05:30
Salem,Tamil Nadu,11.6643,78.146,35.1,33,0.0,977.2,9.1,21.2,107,47.8,38.2,0,5,10,1,2026-03-08T14:05:55.225798+05:30
Tirunelveli,Tamil Nadu,8.7139,77.7567,35.5,34,0.0,1003.1,9.15,36.0,106,43.0,34.0,0,5,7,1,2026-03-08T14:05:55.225805+05:30
Vellore,Tamil Nadu,12.9165,79.1325,35.3,25,0.0,985.0,9.0,37.8,138,49.5,38.3,0,5,10,0,2026-03-08T14:05:55.225811+05:30
Erode,Tamil Nadu,11.341,77.7172,36.1,31,0.0,988.9,9.1,20.9,90,42.5,33.8,0,5,10,1,2026-03-08T14:05:55.225817+05:30
Kochi,Kerala,9.9312,76.2673,28.7,79,0.0,1008.2,8.9,35.6,139,47.0,43.1,7,0,4,1,2026-03-08T14:05:55.225823+05:30
Thiruvananthapuram,Kerala,8.5241,76.9366,28.6,79,0.0,1007.4,9.05,27.7,84,31.3,29.5,7,5,4,1,2026-03-08T14:05:55.225830+05:30
Kozhikode,Kerala,11.2588,75.7804,30.1,71,0.0,1007.5,8.95,28.1,93,25.6,24.2,3,5,4,1,2026-03-08T14:05:55.225835+05:30
Thrissur,Kerala,10.5276,76.2144,33.0,59,0.0,1006.5,9.0,37.8,131,41.0,36.2,0,5,4,1,2026-03-08T14:05:55.225843+05:30
Kannur,Kerala,11.8745,75.3704,30.9,68,0.0,1007.0,8.9,28.8,113,31.5,29.4,3,5,4,1,2026-03-08T14:05:55.225852+05:30
Patna,Bihar,25.5941,85.1376,32.1,45,0.0,1003.7,7.35,18.0,171,98.5,82.7,0,5,4,1,2026-03-08T14:05:55.225859+05:30
Gaya,Bihar,24.7914,85.0002,31.8,52,0.0,996.6,7.45,18.7,159,86.8,73.1,0,5,7,1,2026-03-08T14:05:55.225865+05:30
Muzaffarpur,Bihar,26.1209,85.3647,31.5,46,0.0,1004.1,7.3,19.1,175,98.5,83.4,0,5,4,1,2026-03-08T14:05:55.225870+05:30
Bhagalpur,Bihar,25.2425,87.0117,30.8,49,0.0,1004.9,7.35,15.8,162,98.0,75.4,0,5,4,1,2026-03-08T14:05:55.225876+05:30
Ranchi,Jharkhand,23.3441,85.3096,31.2,33,0.0,940.4,8.1,23.0,160,95.0,68.5,0,5,7,0,2026-03-08T14:05:55.225882+05:30
Jamshedpur,Jharkhand,22.8046,86.2029,32.1,48,0.0,993.3,8.0,23.8,155,98.0,78.0,0,5,7,1,2026-03-08T14:05:55.225887+05:30
Dhanbad,Jharkhand,23.7957,86.4304,32.4,37,0.0,982.7,7.85,22.7,167,103.1,85.0,0,5,7,0,2026-03-08T14:05:55.225893+05:30
Bokaro,Jharkhand,23.6693,86.1511,31.6,45,0.0,986.7,7.85,20.5,169,99.2,79.6,0,5,7,1,2026-03-08T14:05:55.225899+05:30
Bhubaneswar,Odisha,20.2961,85.8245,32.2,50,0.0,1004.7,8.2,33.1,128,50.5,37.3,0,5,4,1,2026-03-08T14:05:55.225905+05:30
Cuttack,Odisha,20.4625,85.8828,33.1,47,0.0,1006.5,8.3,28.4,128,50.5,37.3,0,5,4,1,2026-03-08T14:05:55.225911+05:30
Rourkela,Odisha,22.2604,84.8536,35.1,34,0.0,986.7,7.9,28.4,164,111.8,79.4,0,5,10,1,2026-03-08T14:05:55.225917+05:30
Raipur,Chhattisgarh,21.2514,81.6296,35.8,24,0.0,976.2,8.0,23.4,155,87.3,66.6,0,5,10,0,2026-03-08T14:05:55.225923+05:30
Bhilai,Chhattisgarh,21.1938,81.3509,36.3,24,0.0,976.6,8.0,23.4,152,78.5,59.8,0,5,10,0,2026-03-08T14:05:55.225928+05:30
Guwahati,Assam,26.1158,91.7086,31.1,43,0.0,1004.1,7.3,22.3,153,69.2,51.9,0,5,4,1,2026-03-08T14:05:55.225934+05:30
Agartala,Tripura,23.8315,91.2868,29.8,53,0.0,1009.4,7.6,18.7,153,60.8,47.6,4,0,4,1,2026-03-08T14:05:55.225940+05:30
Shillong,Meghalaya,25.5788,91.8933,19.2,45,0.0,859.4,7.35,26.6,126,48.3,37.4,0,5,7,0,2026-03-08T14:05:55.225945+05:30
Imphal,Manipur,24.817,93.9368,25.3,46,0.0,925.6,7.9,35.6,161,58.0,50.8,4,5,7,0,2026-03-08T14:05:55.225951+05:30
Aizawl,Mizoram,23.7271,92.7176,25.4,47,0.0,895.9,7.85,31.3,155,60.3,51.1,4,5,7,0,2026-03-08T14:05:55.225957+05:30
Kohima,Nagaland,25.6701,94.1077,18.9,69,0.0,858.0,7.0,49.3,161,79.2,70.3,3,5,7,0,2026-03-08T14:05:55.225963+05:30
Gangtok,Sikkim,27.3314,88.6138,18.0,67,0.0,841.3,5.1,15.1,157,49.8,39.1,3,5,3,0,2026-03-08T14:05:55.225968+05:30
Siliguri,West Bengal,26.7271,88.3953,24.3,61,0.0,998.3,7.3,16.6,158,71.5,52.0,3,5,7,1,2026-03-08T14:05:58.438699+05:30
Durgapur,West Bengal,23.5204,87.3119,32.3,39,0.0,998.1,7.85,20.9,160,95.7,80.8,0,5,7,1,2026-03-08T14:05:58.438726+05:30
Asansol,West Bengal,23.6739,86.9524,32.8,37,0.0,996.5,7.85,19.8,159,95.7,79.9,0,5,7,1,2026-03-08T14:05:58.438735+05:30
Pondicherry,Puducherry,11.9139,79.8145,34.0,48,0.0,1009.0,8.95,32.0,76,35.5,22.6,0,0,4,1,2026-03-08T14:05:58.438742+05:30
Port Blair,Andaman and Nicobar Islands,11.6234,92.7265,26.8,80,0.0,1007.9,8.9,27.0,89,36.8,27.5,7,5,4,1,2026-03-08T14:05:58.438750+05:30
Haridwar,Uttarakhand,29.9457,78.1642,31.6,49,0.0,977.5,5.8,28.4,161,83.4,58.1,0,5,3,1,2026-03-08T14:05:58.438757+05:30
Rishikesh,Uttarakhand,30.0869,78.2676,31.1,49,0.0,970.4,5.85,24.8,159,75.4,51.5,0,5,3,1,2026-03-08T14:05:58.438764+05:30
Nainital,Uttarakhand,29.3919,79.4542,22.9,64,0.0,811.0,6.65,67.3,157,86.1,57.0,3,5,7,0,2026-03-08T14:05:58.438771+05:30
Mussoorie,Uttarakhand,30.4599,78.0664,23.3,52,0.0,808.2,6.2,47.5,157,72.9,51.5,0,5,7,0,2026-03-08T14:05:58.438777+05:30
Dharamshala,Himachal Pradesh,32.219,76.3234,27.5,31,0.0,874.7,6.4,27.4,61,34.3,12.9,4,5,7,0,2026-03-08T14:05:58.438784+05:30
Dalhousie,Himachal Pradesh,32.5387,75.971,27.0,26,0.0,811.0,6.65,26.3,107,45.6,24.0,4,5,7,0,2026-03-08T14:05:58.438791+05:30
Patiala,Punjab,30.3398,76.3869,33.4,39,0.0,981.8,5.65,29.2,166,245.9,65.0,0,5,3,1,2026-03-08T14:05:58.438798+05:30
Bhatinda,Punjab,30.211,74.9455,34.2,36,0.0,987.8,6.5,17.3,151,83.4,38.3,0,5,7,1,2026-03-08T14:05:58.438803+05:30
Rohtak,Haryana,28.8955,76.6066,34.0,32,0.0,985.5,6.05,20.9,169,215.1,40.2,0,5,7,0,2026-03-08T14:05:58.438809+05:30
Panipat,Haryana,29.3909,76.9635,33.8,37,0.0,983.9,5.8,28.1,168,355.8,60.8,0,5,3,1,2026-03-08T14:05:58.438815+05:30
Mathura,Uttar Pradesh,27.4924,77.6737,35.9,28,0.0,990.3,6.3,22.3,157,231.4,46.0,0,5,10,0,2026-03-08T14:05:58.438821+05:30
Vrindavan,Uttar Pradesh,27.5823,77.7027,35.2,29,0.0,990.8,6.25,23.0,157,231.4,46.0,0,5,10,0,2026-03-08T14:05:58.438827+05:30
Ayodhya,Uttar Pradesh,26.7922,82.1998,31.8,45,0.0,998.9,6.65,10.4,183,99.0,77.1,0,5,7,1,2026-03-08T14:05:58.438833+05:30
Ratlam,Madhya Pradesh,23.3315,75.0367,35.3,25,0.0,958.2,7.5,19.1,92,12.4,11.9,0,5,10,0,2026-03-08T14:05:58.438839+05:30
Sagar,Madhya Pradesh,23.8388,78.7378,34.6,25,0.0,953.8,7.45,21.6,81,39.9,18.6,0,5,7,0,2026-03-08T14:05:58.438845+05:30
Satna,Madhya Pradesh,24.6005,80.8322,34.7,27,0.0,974.6,7.4,27.4,160,78.7,52.7,0,5,7,0,2026-03-08T14:05:58.438851+05:30
Akola,Maharashtra,20.7002,77.0082,38.1,16,0.0,976.9,7.95,15.5,78,27.1,15.3,0,5,10,0,2026-03-08T14:05:58.438858+05:30
Amravati,Maharashtra,20.9374,77.7796,37.8,18,0.0,969.3,7.9,21.6,79,26.4,14.7,0,5,10,0,2026-03-08T14:05:58.438864+05:30
Latur,Maharashtra,18.4088,76.5604,35.9,20,0.0,941.4,8.4,23.8,91,22.8,18.4,0,5,10,0,2026-03-08T14:05:58.438870+05:30
Nanded,Maharashtra,19.1383,77.3091,38.3,19,0.0,969.9,8.15,25.2,89,29.5,17.9,0,5,10,0,2026-03-08T14:05:58.438876+05:30
Gulbarga,Karnataka,17.3297,76.8343,38.0,17,0.0,959.5,8.5,28.8,77,31.2,21.7,0,5,10,0,2026-03-08T14:05:58.438882+05:30
Bidar,Karnataka,17.9104,77.5199,36.0,19,0.0,937.1,8.4,29.2,99,30.0,19.8,0,5,10,0,2026-03-08T14:05:58.438887+05:30
Hospet,Karnataka,15.2689,76.3909,36.0,22,0.0,956.2,8.75,24.5,90,36.8,27.1,0,5,10,0,2026-03-08T14:05:58.438893+05:30
Tirupur,Tamil Nadu,11.1085,77.3411,36.0,29,0.0,975.3,9.2,30.2,117,41.8,33.3,0,5,10,0,2026-03-08T14:05:58.438898+05:30
Alappuzha,Kerala,9.4981,76.3388,28.6,81,0.0,1008.2,8.95,29.2,124,48.3,45.1,7,0,4,1,2026-03-08T14:05:58.438904+05:30
Munnar,Kerala,10.0889,77.0595,29.9,37,0.0,859.2,9.5,24.5,105,39.6,29.7,4,5,7,0,2026-03-08T14:05:58.438911+05:30
Silchar,Assam,24.8333,92.7789,31.8,47,0.0,1007.0,7.6,20.9,163,68.7,57.2,0,5,4,1,2026-03-08T14:05:58.438917+05:30
Dibrugarh,Assam,27.4728,94.912,28.8,56,0.0,998.2,6.3,20.5,163,97.8,77.8,4,5,7,1,2026-03-08T14:05:58.438923+05:30
