city,state,latitude,longitude,temp,humidity,rain,pressure,uv_index,wind_gusts,aqi,pm10,pm2_5,mosquito_risk,arthritis_risk,migraine_risk,frizz_risk,updated_at
Delhi,Delhi,28.6139,77.209,25.9,39,0.0,984.4,6.0,24.5,229,195.6,66.8,4,5,3,0,2026-03-14T22:06:29.283886+05:30
Mumbai,Maharashtra,19.076,72.8777,28.3,76,0.0,1011.0,7.65,18.4,112,79.9,39.6,7,0,4,1,2026-03-14T22:06:29.283929+05:30
Bangalore,Karnataka,12.9716,77.5946,24.0,48,0.0,914.1,9.3,32.8,114,29.9,27.9,0,5,7,0,2026-03-14T22:06:29.283945+05:30
Hyderabad,Telangana,17.385,78.4867,26.5,52,0.0,955.5,8.7,30.2,126,44.9,38.6,4,5,7,0,2026-03-14T22:06:29.283955+05:30
Chennai,Tamil Nadu,13.0827,80.2707,26.3,84,0.0,1011.0,9.05,32.0,52,14.5,11.5,7,0,4,1,2026-03-14T22:06:29.283964+05:30
Kolkata,West Bengal,22.5726,88.3639,25.8,86,0.0,1009.0,8.05,33.8,78,19.1,15.4,7,0,4,1,2026-03-14T22:06:29.283973+05:30
Pune,Maharashtra,18.5204,73.8567,26.0,37,0.0,951.3,8.25,45.7,165,29.4,27.3,4,5,7,0,2026-03-14T22:06:29.283992+05:30
Ahmedabad,Gujarat,23.0225,72.5714,28.6,41,0.0,1003.6,7.5,24.8,80,58.7,28.9,4,5,4,0,2026-03-14T22:06:29.284000+05:30
Jaipur,Rajasthan,26.9124,75.7873,25.2,43,0.0,961.0,7.0,28.8,142,118.5,47.7,4,5,7,0,2026-03-14T22:06:29.284007+05:30
Lucknow,Uttar Pradesh,26.8467,80.9462,24.8,52,0.0,994.9,6.7,24.5,165,209.5,72.9,0,5,7,0,2026-03-14T22:06:29.284015+05:30
Kanpur,Uttar Pradesh,26.4499,80.3319,24.3,57,0.0,992.6,6.7,17.3,342,224.4,67.1,0,5,7,0,2026-03-14T22:06:29.284022+05:30
Chandigarh,Chandigarh,30.7333,76.7794,21.2,52,0.0,969.6,5.2,20.2,71,51.6,48.7,0,5,3,0,2026-03-14T22:06:29.284030+05:30
Srinagar,Jammu and Kashmir,34.0837,74.7973,10.2,79,0.0,839.4,5.6,20.2,98,80.8,59.1,3,5,3,0,2026-03-14T22:06:29.284036+05:30
Jammu,Jammu and Kashmir,32.7266,74.857,22.2,53,0.0,973.0,6.35,19.1,82,46.3,38.6,0,5,7,0,2026-03-14T22:06:29.284044+05:30
Amritsar,Punjab,31.634,74.8723,20.5,55,0.0,981.5,4.65,17.6,83,42.6,39.9,0,5,3,0,2026-03-14T22:06:29.284050+05:30
Ludhiana,Punjab,30.901,75.8573,21.0,52,0.0,979.6,5.25,20.2,92,103.6,67.5,0,5,3,0,2026-03-14T22:06:29.284056+05:30
Jalandhar,Punjab,31.326,75.5762,21.2,47,0.0,980.6,6.15,23.0,93,66.4,39.6,0,5,7,0,2026-03-14T22:06:29.284066+05:30
Dehradun,Uttarakhand,30.6284,78.0322,12.0,56,0.0,829.0,4.2,21.6,62,33.1,19.8,0,5,3,0,2026-03-14T22:06:29.284073+05:30
Shimla,Himachal Pradesh,31.1048,77.1734,11.8,44,0.0,783.3,5.5,22.3,57,36.4,26.3,0,5,3,0,2026-03-14T22:06:29.284080+05:30
Manali,Himachal Pradesh,32.2396,77.1887,13.1,46,0.0,820.3,7.3,29.2,52,46.2,16.1,0,5,7,0,2026-03-14T22:06:29.284087+05:30
Gurgaon,Haryana,28.4595,77.0266,23.1,49,0.0,982.8,5.85,19.4,708,312.0,106.2,0,5,3,0,2026-03-14T22:06:29.284094+05:30
Noida,Uttar Pradesh,28.5355,77.391,25.0,42,0.0,985.9,5.75,23.8,708,312.0,106.2,4,5,3,0,2026-03-14T22:06:29.284101+05:30
Ghaziabad,Uttar Pradesh,28.6692,77.4538,24.2,46,0.0,984.0,5.95,23.8,181,257.0,89.6,0,5,3,0,2026-03-14T22:06:29.284108+05:30
Faridabad,Haryana,28.4089,77.3178,23.1,46,0.0,985.2,5.75,22.0,708,312.0,106.2,0,5,3,0,2026-03-14T22:06:29.284114+05:30
Meerut,Uttar Pradesh,28.9845,77.7064,22.2,55,0.0,982.9,5.8,27.4,181,257.0,89.6,0,5,3,0,2026-03-14T22:06:29.284123+05:30
Agra,Uttar Pradesh,27.1767,78.0081,21.3,54,0.0,989.1,6.35,15.5,541,299.0,86.6,0,5,7,0,2026-03-14T22:06:29.284130+05:30
Varanasi,Uttar Pradesh,25.3176,82.9739,26.0,60,0.0,999.2,6.85,27.7,139,124.3,73.8,4,5,7,1,2026-03-14T22:06:29.284142+05:30
Prayagraj,Uttar Pradesh,25.4358,81.8463,26.7,56,0.0,997.4,7.1,15.5,151,96.9,51.3,4,5,7,1,2026-03-14T22:06:29.284149+05:30
Gorakhpur,Uttar Pradesh,26.7606,83.3732,24.7,53,0.0,999.0,6.7,24.8,137,143.9,84.1,0,5,7,0,2026-03-14T22:06:29.284156+05:30
Bareilly,Uttar Pradesh,28.367,79.4304,21.8,65,0.0,988.3,6.4,19.4,130,111.1,53.0,3,5,7,0,2026-03-14T22:06:29.284162+05:30
Aligarh,Uttar Pradesh,27.8974,78.088,20.6,53,0.0,987.0,6.3,26.6,462,277.5,95.0,0,5,7,0,2026-03-14T22:06:29.284169+05:30
Moradabad,Uttar Pradesh,28.8386,78.7733,21.1,58,0.0,985.0,5.95,23.0,141,153.2,76.8,0,5,3,0,2026-03-14T22:06:29.284175+05:30
Saharanpur,Uttar Pradesh,29.9637,77.546,19.9,53,0.0,976.8,4.65,23.8,127,168.1,79.6,0,5,3,0,2026-03-14T22:06:29.284181+05:30
Jhansi,Uttar Pradesh,25.4484,78.5685,23.7,66,0.0,978.9,7.2,19.1,151,129.5,42.6,3,5,7,1,2026-03-14T22:06:32.529519+05:30
Surat,Gujarat,21.1702,72.8311,25.8,80,0.0,1009.0,7.35,23.4,140,71.7,44.6,7,0,4,1,2026-03-14T22:06:32.529549+05:30
Vadodara,Gujarat,22.3072,73.1812,27.1,46,0.0,1006.1,7.5,28.1,97,64.0,39.8,4,5,4,0,2026-03-14T22:06:32.529560+05:30
Rajkot,Gujarat,22.3039,70.8022,27.4,56,0.0,996.7,7.35,34.9,96,56.6,23.1,4,5,7,1,2026-03-14T22:06:32.529568+05:30
Thane,Maharashtra,19.2183,72.9781,26.9,82,0.0,1010.5,7.65,31.7,112,79.9,39.6,7,0,4,1,2026-03-14T22:06:32.529575+05:30
Nagpur,Maharashtra,21.1458,79.0882,26.1,47,0.0,973.7,8.1,19.8,154,47.7,43.4,4,5,7,0,2026-03-14T22:06:32.529583+05:30
Nashik,Maharashtra,19.9975,73.7898,24.1,32,0.0,948.1,7.9,39.2,109,31.5,21.4,0,5,7,0,2026-03-14T22:06:32.529590+05:30
Aurangabad,Maharashtra,19.8762,75.3433,26.9,38,0.0,945.9,8.4,32.8,137,31.2,28.8,4,5,7,0,2026-03-14T22:06:32.529597+05:30
Solapur,Maharashtra,17.6599,75.9064,28.2,49,0.0,958.2,8.6,18.7,159,43.0,37.7,4,5,7,1,2026-03-14T22:06:32.529604+05:30
Kolhapur,Maharashtra,16.705,74.2433,24.7,83,0.0,950.4,8.7,44.6,158,47.0,44.4,3,5,7,1,2026-03-14T22:06:32.529611+05:30
Goa,Goa,15.2993,74.124,28.8,78,0.0,1000.9,8.75,32.4,135,48.0,43.4,7,5,4,1,2026-03-14T22:06:32.529617+05:30
Jodhpur,Rajasthan,26.2389,73.0243,29.1,33,0.0,983.0,7.1,37.4,91,190.9,42.8,4,5,7,0,2026-03-14T22:06:32.529623+05:30
Udaipur,Rajasthan,24.5854,73.7125,25.2,31,0.0,947.9,7.85,37.1,67,39.3,19.4,4,5,7,0,2026-03-14T22:06:32.529630+05:30
Kota,Rajasthan,25.2138,75.8648,26.5,52,0.0,979.3,7.25,18.0,76,55.4,38.6,4,5,7,0,2026-03-14T22:06:32.529636+05:30
Bikaner,Rajasthan,28.0229,73.3119,26.8,39,0.0,982.4,6.7,21.6,84,75.9,24.9,4,5,7,0,2026-03-14T22:06:32.529642+05:30
Ajmer,Rajasthan,26.4499,74.6399,25.5,43,0.0,955.1,7.05,41.4,78,64.0,29.3,4,5,7,0,2026-03-14T22:06:32.529648+05:30
Gwalior,Madhya Pradesh,26.2183,78.1828,24.7,63,0.0,984.4,6.9,22.0,260,77.5,31.8,3,5,7,1,2026-03-14T22:06:32.529655+05:30
Indore,Madhya Pradesh,22.7196,75.8577,23.6,38,0.0,949.3,7.8,38.2,122,25.8,21.7,0,5,7,0,2026-03-14T22:06:32.529661+05:30
Bhopal,Madhya Pradesh,23.2599,77.4126,24.3,37,0.0,954.7,7.65,35.3,118,34.9,32.1,0,5,7,0,2026-03-14T22:06:32.529668+05:30
Jabalpur,Madhya Pradesh,23.1815,79.9864,25.9,42,0.0,962.1,7.8,27.0,108,22.9,21.1,4,5,7,0,2026-03-14T22:06:32.529674+05:30
Ujjain,Madhya Pradesh,23.1765,75.7885,23.3,40,0.0,954.9,7.7,41.8,97,26.3,21.0,0,5,7,0,2026-03-14T22:06:32.529681+05:30
Visakhapatnam,Andhra Pradesh,17.6868,83.2185,26.3,83,0.0,1007.8,8.65,41.0,58,16.2,12.7,7,5,4,1,2026-03-14T22:06:32.529687+05:30
Vijayawada,Andhra Pradesh,16.5062,80.648,25.6,84,0.0,1006.3,8.75,31.3,58,17.9,15.7,7,5,4,1,2026-03-14T22:06:32.529693+05:30
Guntur,Andhra Pradesh,16.3067,80.4365,25.5,88,0.0,1007.6,8.75,33.8,55,16.1,13.8,7,5,4,1,2026-03-14T22:06:32.529700+05:30
Nellore,Andhra Pradesh,14.4426,79.9865,25.5,91,0.0,1009.5,8.9,33.1,57,11.2,9.0,7,0,4,1,2026-03-14T22:06:32.529708+05:30
Kurnool,Andhra Pradesh,15.8281,78.0373,29.8,39,0.0,978.6,8.75,23.4,124,40.2,33.2,4,5,7,0,2026-03-14T22:06:32.529714+05:30
Kakinada,Andhra Pradesh,16.9891,82.2475,24.4,89,0.0,1011.7,8.7,34.6,51,12.8,9.3,3,0,4,1,2026-03-14T22:06:32.529721+05:30
Tirupati,Andhra Pradesh,13.6288,79.4192,26.0,74,0.0,995.5,9.0,32.4,71,17.3,16.4,7,5,7,1,2026-03-14T22:06:32.529727+05:30
Warangal,Telangana,17.9689,79.5941,26.6,70,0.0,980.9,8.5,27.7,92,31.7,27.8,7,5,7,1,2026-03-14T22:06:32.529734+05:30
Nizamabad,Telangana,18.6725,78.0941,28.3,47,0.0,966.3,8.4,28.4,126,78.2,66.8,4,5,7,0,2026-03-14T22:06:32.529740+05:30
Mysore,Karnataka,12.2958,76.6396,24.0,67,0.0,930.9,9.3,32.8,124,28.2,25.7,3,5,7,1,2026-03-14T22:06:32.529746+05:30
Mangalore,Karnataka,12.9141,74.856,28.7,81,0.0,1009.9,8.95,24.8,98,29.3,24.1,7,0,4,1,2026-03-14T22:06:32.529752+05:30
Hubli-Dharwad,Karnataka,15.3647,75.124,24.9,83,0.0,943.7,8.9,46.4,137,38.1,36.6,3,5,7,1,2026-03-14T22:06:32.529759+05:30
Belgaum,Karnataka,15.8497,74.4977,23.4,90,0.0,928.2,8.95,44.3,157,52.9,50.9,3,5,7,1,2026-03-14T22:06:35.774080+05:30
Coimbatore,Tamil Nadu,11.0168,76.9558,24.4,85,0.0,965.0,9.3,37.1,83,30.9,28.3,3,5,7,1,2026-03-14T22:06:35.774109+05:30
Madurai,Tamil Nadu,9.9252,78.1198,27.3,63,0.0,996.7,9.25,25.9,58,10.6,9.8,7,5,7,1,2026-03-14T22:06:35.774119+05:30
Trichy,Tamil Nadu,10.7905,78.7047,26.8,73,0.0,1003.4,9.2,25.9,64,17.9,16.6,7,5,4,1,2026-03-14T22:06:35.774126+05:30
Salem,Tamil Nadu,11.6643,78.146,26.5,56,0.0,980.1,9.2,23.8,87,22.9,21.4,4,5,7,1,2026-03-14T22:06:35.774134+05:30
Tirunelveli,Tamil Nadu,8.7139,77.7567,26.6,80,0.0,1006.8,9.25,37.1,51,10.9,10.4,7,5,4,1,2026-03-14T22:06:35.774140+05:30
Vellore,Tamil Nadu,12.9165,79.1325,25.3,71,0.0,988.4,9.1,32.8,95,29.8,28.5,7,5,7,1,2026-03-14T22:06:35.774147+05:30
Erode,Tamil Nadu,11.341,77.7172,28.1,47,0.0,991.9,9.2,24.8,58,14.4,13.2,4,5,7,0,2026-03-14T22:06:35.774154+05:30
Kochi,Kerala,9.9312,76.2673,28.4,81,0.0,1012.0,9.1,31.3,85,37.8,35.5,7,0,4,1,2026-03-14T22:06:35.774162+05:30
Thiruvananthapuram,Kerala,8.5241,76.9366,28.2,78,0.0,1011.0,9.1,26.3,65,11.7,8.5,7,0,4,1,2026-03-14T22:06:35.774168+05:30
Kozhikode,Kerala,11.2588,75.7804,27.8,84,0.0,1011.5,9.0,24.8,71,23.4,19.9,7,0,4,1,2026-03-14T22:06:35.774175+05:30
Thrissur,Kerala,10.5276,76.2144,27.5,85,0.0,1010.4,9.05,36.0,90,21.9,20.4,7,0,4,1,2026-03-14T22:06:35.774182+05:30
Kannur,Kerala,11.8745,75.3704,28.0,81,0.0,1010.6,8.95,29.2,91,28.6,25.3,7,0,4,1,2026-03-14T22:06:35.774188+05:30
Patna,Bihar,25.5941,85.1376,27.2,62,0.0,1002.2,7.5,20.2,138,131.8,84.1,7,5,4,1,2026-03-14T22:06:35.774212+05:30
Gaya,Bihar,24.7914,85.0002,27.1,52,0.0,995.6,7.55,21.2,122,109.2,61.5,4,5,7,1,2026-03-14T22:06:35.774220+05:30
Muzaffarpur,Bihar,26.1209,85.3647,25.9,56,0.0,1002.2,7.45,24.5,159,141.6,87.3,4,5,4,1,2026-03-14T22:06:35.774226+05:30
Bhagalpur,Bihar,25.2425,87.0117,26.0,63,0.0,1003.2,7.5,20.5,155,149.5,78.9,7,5,4,1,2026-03-14T22:06:35.774233+05:30
Ranchi,Jharkhand,23.3441,85.3096,24.3,35,0.0,939.9,8.2,24.5,101,32.9,22.9,0,5,7,0,2026-03-14T22:06:35.774239+05:30
Jamshedpur,Jharkhand,22.8046,86.2029,27.2,79,0.0,993.0,8.1,31.0,153,51.5,44.6,7,5,7,1,2026-03-14T22:06:35.774246+05:30
Dhanbad,Jharkhand,23.7957,86.4304,27.9,57,0.0,982.1,7.95,19.8,158,99.7,79.6,4,5,7,1,2026-03-14T22:06:35.774253+05:30
Bokaro,Jharkhand,23.6693,86.1511,26.8,47,0.0,986.2,8.0,20.2,152,81.5,61.5,4,5,7,0,2026-03-14T22:06:35.774259+05:30
Bhubaneswar,Odisha,20.2961,85.8245,25.5,86,0.0,1006.1,8.4,38.9,60,13.6,10.8,7,5,4,1,2026-03-14T22:06:35.774266+05:30
Cuttack,Odisha,20.4625,85.8828,25.6,85,0.0,1007.9,8.45,34.2,60,13.6,10.8,7,5,4,1,2026-03-14T22:06:35.774273+05:30
Rourkela,Odisha,22.2604,84.8536,29.3,53,0.0,986.1,8.05,21.2,164,44.1,41.3,4,5,7,1,2026-03-14T22:06:35.774279+05:30
Raipur,Chhattisgarh,21.2514,81.6296,28.5,43,0.0,975.6,8.15,30.6,134,81.3,76.6,4,5,7,0,2026-03-14T22:06:35.774285+05:30
Bhilai,Chhattisgarh,21.1938,81.3509,28.1,45,0.0,975.8,8.15,27.7,129,78.2,73.3,4,5,7,0,2026-03-14T22:06:35.774291+05:30
Guwahati,Assam,26.1158,91.7086,22.2,89,0.0,1005.2,7.35,32.0,66,22.5,19.2,3,5,4,1,2026-03-14T22:06:35.774298+05:30
Agartala,Tripura,23.8315,91.2868,22.5,88,0.0,1010.7,7.8,39.2,78,17.2,13.9,3,0,4,1,2026-03-14T22:06:35.774304+05:30
Shillong,Meghalaya,25.5788,91.8933,13.5,88,0.0,857.7,7.85,73.8,52,18.2,15.9,3,10,7,0,2026-03-14T22:06:35.774311+05:30
Imphal,Manipur,24.817,93.9368,16.3,87,0.0,927.4,7.1,82.8,135,60.5,52.6,3,10,7,0,2026-03-14T22:06:35.774319+05:30
Aizawl,Mizoram,23.7271,92.7176,17.1,87,0.0,896.4,8.0,63.4,106,32.8,25.4,3,10,7,0,2026-03-14T22:06:35.774326+05:30
Kohima,Nagaland,25.6701,94.1077,14.5,77,0.0,856.9,6.9,100.8,98,32.9,26.5,3,5,7,0,2026-03-14T22:06:35.774332+05:30
Gangtok,Sikkim,27.3314,88.6138,13.3,85,0.0,837.7,7.55,20.2,74,23.9,17.2,3,10,7,0,2026-03-14T22:06:35.774339+05:30
Siliguri,West Bengal,26.7271,88.3953,21.0,71,0.0,996.3,7.4,31.7,139,68.0,52.6,3,5,7,0,2026-03-14T22:06:39.021030+05:30
Durgapur,West Bengal,23.5204,87.3119,26.3,79,0.0,997.6,7.95,27.0,154,46.6,42.6,7,5,7,1,2026-03-14T22:06:39.021058+05:30
Asansol,West Bengal,23.6739,86.9524,27.3,75,0.0,996.0,7.95,21.2,150,68.5,55.3,7,5,7,1,2026-03-14T22:06:39.021068+05:30
Pondicherry,Puducherry,11.9139,79.8145,25.9,91,0.0,1012.4,9.05,29.9,49,13.0,9.9,7,0,4,1,2026-03-14T22:06:39.021075+05:30
Port Blair,Andaman and Nicobar Islands,11.6234,92.7265,27.4,84,0.0,1011.4,8.95,22.3,70,13.1,9.8,7,0,4,1,2026-03-14T22:06:39.021083+05:30
Haridwar,Uttarakhand,29.9457,78.1642,21.4,66,0.0,975.8,5.0,21.2,100,61.5,45.2,3,5,3,0,2026-03-14T22:06:39.021091+05:30
Rishikesh,Uttarakhand,30.0869,78.2676,19.9,70,0.0,968.4,4.55,20.9,91,31.1,20.9,3,5,3,0,2026-03-14T22:06:39.021098+05:30
Nainital,Uttarakhand,29.3919,79.4542,16.4,61,0.0,806.3,6.15,34.9,108,48.9,40.2,3,5,7,0,2026-03-14T22:06:39.021105+05:30
Mussoorie,Uttarakhand,30.4599,78.0664,14.4,64,0.0,802.4,4.9,25.2,85,49.1,36.0,3,5,3,0,2026-03-14T22:06:39.021112+05:30
Dharamshala,Himachal Pradesh,32.219,76.3234,19.8,22,0.0,869.2,5.45,18.0,59,36.8,19.6,0,5,3,1,2026-03-14T22:06:39.021120+05:30
Dalhousie,Himachal Pradesh,32.5387,75.971,15.1,39,0.0,802.8,6.05,18.7,67,52.0,36.3,0,5,7,0,2026-03-14T22:06:39.021128+05:30
Patiala,Punjab,30.3398,76.3869,20.5,54,0.0,979.2,5.45,27.0,166,169.5,75.4,0,5,3,0,2026-03-14T22:06:39.021135+05:30
Bhatinda,Punjab,30.211,74.9455,21.1,64,0.0,984.6,6.15,22.0,94,50.1,46.6,3,5,7,0,2026-03-14T22:06:39.021141+05:30
Rohtak,Haryana,28.8955,76.6066,21.5,62,0.0,982.9,5.9,22.0,262,190.5,69.6,3,5,3,0,2026-03-14T22:06:39.021148+05:30
Panipat,Haryana,29.3909,76.9635,22.2,59,0.0,981.7,5.6,23.0,644,347.4,95.5,0,5,3,0,2026-03-14T22:06:39.021155+05:30
Mathura,Uttar Pradesh,27.4924,77.6737,23.4,46,0.0,988.3,5.95,29.2,451,167.2,67.8,0,5,3,0,2026-03-14T22:06:39.021161+05:30
Vrindavan,Uttar Pradesh,27.5823,77.7027,21.5,53,0.0,988.7,5.9,35.3,451,167.2,67.8,0,5,3,0,2026-03-14T22:06:39.021167+05:30
Ayodhya,Uttar Pradesh,26.7922,82.1998,23.7,63,0.0,997.0,6.85,21.6,153,79.2,53.1,3,5,7,1,2026-03-14T22:06:39.021173+05:30
Ratlam,Madhya Pradesh,23.3315,75.0367,26.6,38,0.0,955.8,7.65,39.6,102,26.0,18.6,4,5,7,0,2026-03-14T22:06:39.021180+05:30
Sagar,Madhya Pradesh,23.8388,78.7378,27.5,39,0.0,950.9,7.6,34.2,119,19.5,17.5,4,5,7,0,2026-03-14T22:06:39.021186+05:30
Satna,Madhya Pradesh,24.6005,80.8322,25.9,54,0.0,972.3,7.6,26.3,100,76.1,29.5,4,5,7,0,2026-03-14T22:06:39.021193+05:30
Akola,Maharashtra,20.7002,77.0082,27.8,38,0.0,976.1,8.1,17.3,138,33.9,30.9,4,5,7,0,2026-03-14T22:06:39.021223+05:30
Amravati,Maharashtra,20.9374,77.7796,26.2,41,0.0,967.8,8.05,22.3,138,37.1,34.5,4,5,7,0,2026-03-14T22:06:39.021232+05:30
Latur,Maharashtra,18.4088,76.5604,25.7,53,0.0,941.2,8.5,26.6,143,56.6,49.4,4,5,7,0,2026-03-14T22:06:39.021239+05:30
Nanded,Maharashtra,19.1383,77.3091,28.8,44,0.0,969.7,8.3,31.0,157,74.0,65.0,4,5,7,0,2026-03-14T22:06:39.021245+05:30
Gulbarga,Karnataka,17.3297,76.8343,29.7,37,0.0,960.3,8.6,38.9,155,50.2,41.9,4,5,7,0,2026-03-14T22:06:39.021251+05:30
Bidar,Karnataka,17.9104,77.5199,27.5,47,0.0,937.1,8.55,37.1,125,70.5,57.7,4,5,7,0,2026-03-14T22:06:39.021257+05:30
Hospet,Karnataka,15.2689,76.3909,30.3,52,0.0,957.9,8.85,29.5,170,52.3,44.7,0,5,7,1,2026-03-14T22:06:39.021263+05:30
Tirupur,Tamil Nadu,11.1085,77.3411,27.7,46,0.0,978.4,9.3,30.2,67,22.0,20.3,4,5,7,0,2026-03-14T22:06:39.021269+05:30
Alappuzha,Kerala,9.4981,76.3388,28.2,79,0.0,1012.0,9.1,28.4,81,28.0,24.9,7,0,4,1,2026-03-14T22:06:39.021275+05:30
Munnar,Kerala,10.0889,77.0595,21.2,89,0.0,859.4,9.55,28.8,57,27.3,26.3,3,5,7,1,2026-03-14T22:06:39.021282+05:30
Silchar,Assam,24.8333,92.7789,21.4,90,0.0,1011.0,7.75,36.4,97,36.3,29.7,3,0,4,1,2026-03-14T22:06:39.021289+05:30
Dibrugarh,Assam,27.4728,94.912,19.8,90,0.0,1000.6,4.45,22.0,85,29.3,25.6,3,10,0,1,2026-03-14T22:06:39.021295+05:30
