city,state,latitude,longitude,temp,humidity,rain,pressure,uv_index,wind_gusts,aqi,pm10,pm2_5,no2,co,o3,so2,mosquito_risk,arthritis_risk,migraine_risk,frizz_risk,updated_at
Delhi,Delhi,28.6139,77.209,36.5,26,0.0,980.7,7.6,40.0,200,295.2,68.0,8.8,458.0,232.0,23.2,0,5,10,0,2026-05-10T17:24:24.192110+05:30
Mumbai,Maharashtra,19.076,72.8777,35.2,44,0.0,1002.6,7.9,47.2,153,51.0,27.8,15.7,296.0,139.0,10.2,0,5,7,1,2026-05-10T17:24:24.192149+05:30
Bangalore,Karnataka,12.9716,77.5946,32.5,29,0.0,909.4,9.5,42.1,59,28.3,15.7,6.2,297.0,132.0,3.1,0,5,7,0,2026-05-10T17:24:24.192169+05:30
Hyderabad,Telangana,17.385,78.4867,36.0,27,0.0,950.3,9.25,36.0,76,52.3,21.8,3.1,282.0,157.0,5.5,0,5,10,0,2026-05-10T17:24:24.192179+05:30
Chennai,Tamil Nadu,13.0827,80.2707,30.0,67,0.0,1004.0,9.0,41.8,25,5.6,3.8,2.9,155.0,49.0,4.4,7,5,4,1,2026-05-10T17:24:24.192189+05:30
Kolkata,West Bengal,22.5726,88.3639,28.2,74,0.0,1006.1,8.5,19.1,203,58.9,48.0,8.5,561.0,182.0,18.4,7,5,4,1,2026-05-10T17:24:24.192197+05:30
Pune,Maharashtra,18.5204,73.8567,39.4,11,0.0,943.3,8.5,38.5,116,25.9,11.9,1.3,179.0,149.0,3.3,0,5,10,0,2026-05-10T17:24:24.192205+05:30
Ahmedabad,Gujarat,23.0225,72.5714,43.1,13,0.0,996.6,8.1,38.9,64,58.9,15.0,0.8,185.0,136.0,2.9,0,5,10,0,2026-05-10T17:24:24.192215+05:30
Jaipur,Rajasthan,26.9124,75.7873,38.0,23,0.0,957.1,8.15,28.4,169,238.4,49.4,0.0,293.0,176.0,7.4,0,5,10,0,2026-05-10T17:24:24.192223+05:30
Lucknow,Uttar Pradesh,26.8467,80.9462,34.5,30,0.0,991.6,8.05,35.3,177,65.9,34.0,2.7,300.0,184.0,8.7,0,5,7,0,2026-05-10T17:24:24.192231+05:30
Kanpur,Uttar Pradesh,26.4499,80.3319,35.9,29,0.0,989.3,8.1,33.8,187,167.6,42.0,2.2,303.0,197.0,9.7,0,5,10,0,2026-05-10T17:24:24.192238+05:30
Chandigarh,Chandigarh,30.7333,76.7794,33.4,35,0.0,967.8,7.7,39.2,182,154.6,51.9,1.3,366.0,200.0,7.2,0,5,7,0,2026-05-10T17:24:24.192245+05:30
Srinagar,Jammu and Kashmir,34.0837,74.7973,24.8,41,0.0,842.3,8.25,18.0,130,69.4,25.0,1.8,434.0,157.0,4.0,0,5,7,0,2026-05-10T17:24:24.192254+05:30
Jammu,Jammu and Kashmir,32.7266,74.857,34.8,35,0.0,971.5,8.2,33.8,174,290.6,73.6,1.0,329.0,187.0,12.7,0,5,7,1,2026-05-10T17:24:24.192261+05:30
Amritsar,Punjab,31.634,74.8723,36.4,33,0.0,978.8,8.35,29.9,168,342.7,84.3,1.8,347.0,199.0,15.1,0,5,10,1,2026-05-10T17:24:24.192269+05:30
Ludhiana,Punjab,30.901,75.8573,35.9,30,0.0,976.8,7.95,34.9,171,434.0,80.3,2.0,345.0,192.0,7.7,0,5,10,0,2026-05-10T17:24:24.192276+05:30
Jalandhar,Punjab,31.326,75.5762,35.3,35,0.0,977.8,8.15,33.5,163,360.4,74.5,0.9,368.0,188.0,9.6,0,5,10,1,2026-05-10T17:24:24.192283+05:30
Dehradun,Uttarakhand,30.6284,78.0322,19.8,67,0.0,831.8,8.05,26.6,136,71.0,36.0,0.8,281.0,167.0,2.5,3,5,7,0,2026-05-10T17:24:24.192292+05:30
Shimla,Himachal Pradesh,31.1048,77.1734,18.1,61,0.0,786.4,8.05,42.5,170,131.3,58.3,1.1,266.0,194.0,11.1,3,5,7,0,2026-05-10T17:24:24.192299+05:30
Manali,Himachal Pradesh,32.2396,77.1887,18.1,80,0.0,819.5,9.75,44.6,147,45.4,18.1,1.5,253.0,193.0,1.5,3,5,7,0,2026-05-10T17:24:24.192306+05:30
Gurgaon,Haryana,28.4595,77.0266,35.6,29,0.0,979.2,7.7,31.0,694,760.0,101.5,5.9,330.0,224.0,18.9,0,5,10,0,2026-05-10T17:24:24.192314+05:30
Noida,Uttar Pradesh,28.5355,77.391,35.2,32,0.0,982.4,7.65,29.2,694,760.0,101.5,5.9,383.0,224.0,18.9,0,5,10,0,2026-05-10T17:24:24.192320+05:30
Ghaziabad,Uttar Pradesh,28.6692,77.4538,34.5,32,0.0,980.8,7.6,32.4,164,162.5,45.3,4.5,310.0,188.0,7.9,0,5,7,0,2026-05-10T17:24:24.192327+05:30
Faridabad,Haryana,28.4089,77.3178,35.8,29,0.0,981.8,7.65,30.2,694,760.0,101.5,5.9,349.0,224.0,18.9,0,5,10,0,2026-05-10T17:24:24.192334+05:30
Meerut,Uttar Pradesh,28.9845,77.7064,32.9,42,0.0,980.3,7.55,31.0,164,162.5,45.3,4.5,314.0,188.0,7.9,0,5,7,1,2026-05-10T17:24:24.192341+05:30
Agra,Uttar Pradesh,27.1767,78.0081,36.0,30,0.0,985.3,7.95,26.3,585,402.3,65.2,2.1,298.0,190.0,10.2,0,5,10,0,2026-05-10T17:24:24.192350+05:30
Varanasi,Uttar Pradesh,25.3176,82.9739,34.1,31,0.0,995.0,8.55,32.8,201,61.2,31.0,2.6,293.0,198.0,10.1,0,5,7,0,2026-05-10T17:24:24.192357+05:30
Prayagraj,Uttar Pradesh,25.4358,81.8463,35.8,27,0.0,993.0,8.45,32.8,199,63.8,32.8,3.0,314.0,192.0,9.7,0,5,10,0,2026-05-10T17:24:24.192366+05:30
Gorakhpur,Uttar Pradesh,26.7606,83.3732,31.6,45,0.0,996.1,8.4,33.8,153,38.4,24.6,1.4,338.0,171.0,4.9,0,5,7,1,2026-05-10T17:24:24.192373+05:30
Bareilly,Uttar Pradesh,28.367,79.4304,31.9,38,0.0,985.2,7.9,29.5,165,138.3,40.9,2.3,281.0,184.0,8.1,0,5,7,0,2026-05-10T17:24:24.192379+05:30
Aligarh,Uttar Pradesh,27.8974,78.088,34.9,30,0.0,983.2,7.75,28.4,285,358.6,60.5,2.2,293.0,194.0,12.1,0,5,7,0,2026-05-10T17:24:24.192386+05:30
Moradabad,Uttar Pradesh,28.8386,78.7733,32.7,38,0.0,982.6,7.75,31.7,180,68.0,38.8,4.6,309.0,192.0,15.6,0,5,7,1,2026-05-10T17:24:24.192393+05:30
Saharanpur,Uttar Pradesh,29.9637,77.546,31.2,43,0.0,974.9,7.35,31.7,162,111.8,47.1,2.2,319.0,180.0,9.0,0,5,7,1,2026-05-10T17:24:24.192399+05:30
Jhansi,Uttar Pradesh,25.4484,78.5685,36.3,28,0.0,975.1,8.4,25.9,178,150.4,40.5,1.5,278.0,188.0,16.8,0,5,10,0,2026-05-10T17:24:27.518419+05:30
Surat,Gujarat,21.1702,72.8311,42.2,14,0.0,1001.0,7.75,34.2,94,53.4,31.0,34.7,157.0,112.0,85.3,0,5,7,0,2026-05-10T17:24:27.518448+05:30
Vadodara,Gujarat,22.3072,73.1812,43.2,12,0.0,998.3,8.1,31.7,104,46.2,16.2,1.8,186.0,163.0,8.0,0,5,10,0,2026-05-10T17:24:27.518459+05:30
Rajkot,Gujarat,22.3039,70.8022,39.7,15,0.0,990.4,7.7,39.2,53,45.4,14.2,1.2,141.0,131.0,5.0,0,5,10,0,2026-05-10T17:24:27.518467+05:30
Thane,Maharashtra,19.2183,72.9781,39.2,31,0.0,1001.5,7.9,45.4,153,51.0,27.8,15.7,210.0,139.0,10.2,0,5,7,1,2026-05-10T17:24:27.518475+05:30
Nagpur,Maharashtra,21.1458,79.0882,39.5,16,0.0,968.7,8.9,32.8,173,61.7,25.3,7.7,227.0,186.0,21.8,0,5,10,0,2026-05-10T17:24:27.518482+05:30
Nashik,Maharashtra,19.9975,73.7898,38.7,14,0.0,941.8,8.2,43.9,105,30.2,14.6,1.6,163.0,159.0,7.9,0,5,10,0,2026-05-10T17:24:27.518490+05:30
Aurangabad,Maharashtra,19.8762,75.3433,38.6,13,0.0,940.5,9.05,43.9,111,38.9,12.5,0.7,175.0,144.0,3.7,0,5,10,0,2026-05-10T17:24:27.518497+05:30
Solapur,Maharashtra,17.6599,75.9064,40.5,14,0.0,952.0,9.05,36.4,114,37.6,17.7,0.8,193.0,162.0,7.1,0,5,10,0,2026-05-10T17:24:27.518504+05:30
Kolhapur,Maharashtra,16.705,74.2433,38.7,16,0.0,943.4,8.95,40.7,142,53.3,30.5,5.9,229.0,162.0,6.0,0,5,10,0,2026-05-10T17:24:27.518510+05:30
Goa,Goa,15.2993,74.124,35.3,53,0.0,992.9,6.85,46.8,98,46.9,26.5,1.9,223.0,135.0,3.9,0,5,10,1,2026-05-10T17:24:27.518516+05:30
Jodhpur,Rajasthan,26.2389,73.0243,42.5,11,0.0,978.2,8.4,32.8,93,65.4,13.4,0.0,161.0,134.0,2.0,0,5,10,0,2026-05-10T17:24:27.518523+05:30
Udaipur,Rajasthan,24.5854,73.7125,38.8,13,0.0,943.6,8.8,38.5,77,30.2,8.2,0.3,148.0,135.0,2.2,0,5,10,0,2026-05-10T17:24:27.518529+05:30
Kota,Rajasthan,25.2138,75.8648,39.4,19,0.0,975.0,8.35,33.5,147,110.8,32.8,0.5,237.0,170.0,9.0,0,5,10,0,2026-05-10T17:24:27.518536+05:30
Bikaner,Rajasthan,28.0229,73.3119,42.5,14,0.0,976.9,8.3,32.0,136,98.3,25.0,0.1,230.0,151.0,9.5,0,5,10,0,2026-05-10T17:24:27.518542+05:30
Ajmer,Rajasthan,26.4499,74.6399,39.1,17,0.0,951.7,8.3,33.1,132,98.0,27.5,0.1,244.0,159.0,6.3,0,5,10,0,2026-05-10T17:24:27.518549+05:30
Gwalior,Madhya Pradesh,26.2183,78.1828,35.8,29,0.0,980.4,8.15,26.3,160,165.3,40.6,0.7,287.0,180.0,7.6,0,5,10,0,2026-05-10T17:24:27.518555+05:30
Indore,Madhya Pradesh,22.7196,75.8577,39.5,10,0.0,944.6,8.65,46.1,114,58.7,19.5,0.8,221.0,159.0,5.0,0,5,10,0,2026-05-10T17:24:27.518561+05:30
Bhopal,Madhya Pradesh,23.2599,77.4126,38.5,10,0.0,950.2,8.65,46.4,116,91.0,25.0,0.6,245.0,152.0,3.5,0,5,10,0,2026-05-10T17:24:27.518568+05:30
Jabalpur,Madhya Pradesh,23.1815,79.9864,37.8,20,0.0,957.5,8.8,32.8,146,97.8,28.1,1.8,239.0,163.0,5.0,0,5,10,0,2026-05-10T17:24:27.518575+05:30
Ujjain,Madhya Pradesh,23.1765,75.7885,39.7,12,0.0,950.2,8.6,46.4,108,58.4,18.9,0.5,212.0,159.0,5.4,0,5,10,0,2026-05-10T17:24:27.518582+05:30
Visakhapatnam,Andhra Pradesh,17.6868,83.2185,30.0,68,0.0,1001.7,9.1,35.6,69,14.3,11.7,18.8,418.0,46.0,16.2,7,5,4,1,2026-05-10T17:24:27.518588+05:30
Vijayawada,Andhra Pradesh,16.5062,80.648,33.7,50,0.0,998.9,9.1,41.0,48,18.5,10.9,2.7,163.0,89.0,5.7,0,5,7,1,2026-05-10T17:24:27.518595+05:30
Guntur,Andhra Pradesh,16.3067,80.4365,33.2,55,0.0,1000.3,8.9,41.0,49,26.5,15.0,2.3,167.0,113.0,5.2,0,5,4,1,2026-05-10T17:24:27.518602+05:30
Nellore,Andhra Pradesh,14.4426,79.9865,31.5,59,0.0,1002.8,9.15,40.0,29,7.5,4.7,1.4,133.0,55.0,1.6,0,5,4,1,2026-05-10T17:24:27.518609+05:30
Kurnool,Andhra Pradesh,15.8281,78.0373,38.5,23,0.0,972.6,9.1,40.0,46,45.9,18.5,1.0,173.0,131.0,2.5,0,5,10,0,2026-05-10T17:24:27.518616+05:30
Kakinada,Andhra Pradesh,16.9891,82.2475,30.0,68,0.0,1004.9,9.05,38.5,31,7.5,5.0,1.0,148.0,60.0,0.5,7,5,4,1,2026-05-10T17:24:27.518623+05:30
Tirupati,Andhra Pradesh,13.6288,79.4192,31.8,51,0.0,987.9,9.25,45.7,58,8.4,4.8,1.3,145.0,67.0,0.5,0,5,7,1,2026-05-10T17:24:27.518630+05:30
Warangal,Telangana,17.9689,79.5941,36.2,32,0.0,975.0,9.15,42.8,67,52.7,21.5,1.7,200.0,145.0,5.9,0,5,10,1,2026-05-10T17:24:27.518636+05:30
Nizamabad,Telangana,18.6725,78.0941,36.8,27,0.0,961.2,9.1,29.9,97,42.1,18.8,0.4,200.0,161.0,4.0,0,5,10,0,2026-05-10T17:24:27.518643+05:30
Mysore,Karnataka,12.2958,76.6396,33.2,31,0.0,925.6,9.3,36.4,70,25.6,15.1,2.6,187.0,152.0,3.7,0,5,7,0,2026-05-10T17:24:27.518649+05:30
Mangalore,Karnataka,12.9141,74.856,30.6,78,0.0,1002.1,8.85,39.6,67,22.4,15.9,2.0,161.0,121.0,2.3,3,5,4,1,2026-05-10T17:24:27.518655+05:30
Hubli-Dharwad,Karnataka,15.3647,75.124,35.8,23,0.0,937.4,8.1,38.9,100,41.3,19.1,1.7,191.0,155.0,3.5,0,5,10,0,2026-05-10T17:24:27.518662+05:30
Belgaum,Karnataka,15.8497,74.4977,36.4,18,0.0,922.4,8.35,37.1,154,47.1,25.4,2.7,203.0,167.0,4.8,0,5,10,0,2026-05-10T17:24:30.846663+05:30
Coimbatore,Tamil Nadu,11.0168,76.9558,30.2,60,0.0,958.4,9.1,30.6,63,19.6,12.8,0.9,210.0,142.0,3.9,0,5,7,1,2026-05-10T17:24:30.846689+05:30
Madurai,Tamil Nadu,9.9252,78.1198,30.0,63,0.0,989.2,5.15,31.7,56,14.5,13.5,4.4,297.0,108.0,4.7,7,5,3,1,2026-05-10T17:24:30.846699+05:30
Trichy,Tamil Nadu,10.7905,78.7047,30.1,68,0.0,996.3,2.45,36.4,48,17.3,16.1,4.1,184.0,104.0,13.2,3,5,3,1,2026-05-10T17:24:30.846707+05:30
Salem,Tamil Nadu,11.6643,78.146,32.8,51,0.0,973.7,8.95,41.0,56,18.1,13.0,3.5,191.0,128.0,7.9,0,5,7,1,2026-05-10T17:24:30.846715+05:30
Tirunelveli,Tamil Nadu,8.7139,77.7567,26.8,88,0.1,999.5,4.3,29.5,55,11.6,11.2,3.9,184.0,95.0,5.3,10,5,3,1,2026-05-10T17:24:30.846722+05:30
Vellore,Tamil Nadu,12.9165,79.1325,31.6,51,0.0,981.0,9.25,41.4,67,12.9,9.8,2.7,161.0,110.0,5.9,0,5,7,1,2026-05-10T17:24:30.846728+05:30
Erode,Tamil Nadu,11.341,77.7172,31.4,61,0.0,985.3,8.65,37.8,61,16.8,13.6,3.0,199.0,134.0,5.1,3,5,7,1,2026-05-10T17:24:30.846734+05:30
Kochi,Kerala,9.9312,76.2673,29.0,79,0.0,1004.7,8.75,32.4,104,15.7,14.3,5.8,322.0,121.0,3.0,7,5,4,1,2026-05-10T17:24:30.846740+05:30
Thiruvananthapuram,Kerala,8.5241,76.9366,27.4,85,0.1,1004.3,5.4,21.2,73,9.3,6.7,2.2,249.0,116.0,0.8,10,5,0,1,2026-05-10T17:24:30.846747+05:30
Kozhikode,Kerala,11.2588,75.7804,30.1,75,0.0,1003.8,8.7,35.6,72,10.4,6.9,0.7,203.0,110.0,0.6,3,5,4,1,2026-05-10T17:24:30.846754+05:30
Thrissur,Kerala,10.5276,76.2144,29.6,74,0.0,1002.8,9.0,32.8,72,14.0,12.6,3.8,306.0,115.0,2.4,7,5,4,1,2026-05-10T17:24:30.846761+05:30
Kannur,Kerala,11.8745,75.3704,31.4,68,0.0,1003.2,8.1,39.6,73,18.3,12.5,1.5,165.0,125.0,1.5,3,5,4,1,2026-05-10T17:24:30.846767+05:30
Patna,Bihar,25.5941,85.1376,30.0,56,0.0,999.3,8.65,28.8,194,65.2,42.5,5.4,371.0,193.0,12.1,4,5,7,1,2026-05-10T17:24:30.846773+05:30
Gaya,Bihar,24.7914,85.0002,31.6,38,0.0,992.2,8.7,26.3,197,62.6,36.8,3.7,292.0,194.0,13.1,0,5,7,0,2026-05-10T17:24:30.846779+05:30
Muzaffarpur,Bihar,26.1209,85.3647,29.5,55,0.0,999.6,8.65,34.2,177,57.5,39.3,6.3,370.0,175.0,9.6,4,5,7,1,2026-05-10T17:24:30.846785+05:30
Bhagalpur,Bihar,25.2425,87.0117,30.1,53,0.0,1000.4,8.6,24.5,195,57.2,42.6,6.1,337.0,184.0,6.4,0,5,4,1,2026-05-10T17:24:30.846791+05:30
Ranchi,Jharkhand,23.3441,85.3096,23.2,65,0.0,937.0,9.15,38.2,152,62.9,31.3,2.9,267.0,175.0,8.8,3,5,7,1,2026-05-10T17:24:30.846798+05:30
Jamshedpur,Jharkhand,22.8046,86.2029,28.2,64,0.0,990.5,8.95,43.9,176,63.1,43.8,5.4,296.0,195.0,17.8,7,5,7,1,2026-05-10T17:24:30.846804+05:30
Dhanbad,Jharkhand,23.7957,86.4304,25.6,67,0.0,979.4,8.9,36.0,210,94.1,66.4,20.5,391.0,236.0,58.3,7,5,7,1,2026-05-10T17:24:30.846810+05:30
Bokaro,Jharkhand,23.6693,86.1511,27.2,62,0.0,983.4,8.9,45.7,204,91.0,61.9,20.5,1360.0,225.0,61.2,7,5,7,1,2026-05-10T17:24:30.846817+05:30
Bhubaneswar,Odisha,20.2961,85.8245,29.2,66,0.0,1002.1,9.05,34.9,60,16.1,10.5,3.3,174.0,101.0,3.9,7,5,4,1,2026-05-10T17:24:30.846823+05:30
Cuttack,Odisha,20.4625,85.8828,29.0,67,0.0,1004.1,9.1,37.4,60,16.1,10.5,3.3,196.0,101.0,3.9,7,5,4,1,2026-05-10T17:24:30.846830+05:30
Rourkela,Odisha,22.2604,84.8536,31.7,42,0.0,983.3,8.9,55.8,156,69.2,36.3,4.6,384.0,184.0,28.9,0,5,7,1,2026-05-10T17:24:30.846836+05:30
Raipur,Chhattisgarh,21.2514,81.6296,37.5,25,0.0,971.2,8.9,29.5,184,70.8,34.5,8.6,282.0,234.0,7.1,0,5,10,0,2026-05-10T17:24:30.846843+05:30
Bhilai,Chhattisgarh,21.1938,81.3509,36.7,26,0.0,971.7,8.95,30.2,162,65.7,31.3,9.4,436.0,204.0,5.5,0,5,10,0,2026-05-10T17:24:30.846849+05:30
Guwahati,Assam,26.1158,91.7086,25.6,76,0.1,1001.8,8.65,27.7,91,44.5,29.0,3.7,306.0,119.0,2.0,10,5,4,1,2026-05-10T17:24:30.846855+05:30
Agartala,Tripura,23.8315,91.2868,25.0,89,0.0,1006.5,8.25,33.1,190,47.8,39.0,8.0,385.0,180.0,4.6,7,5,4,1,2026-05-10T17:24:30.846861+05:30
Shillong,Meghalaya,25.5788,91.8933,19.2,73,0.1,858.1,8.45,29.2,117,44.2,28.5,2.5,311.0,146.0,3.6,6,5,7,0,2026-05-10T17:24:30.846867+05:30
Imphal,Manipur,24.817,93.9368,23.5,72,0.0,924.2,7.85,29.5,96,30.4,20.4,13.9,354.0,78.0,2.7,3,5,7,1,2026-05-10T17:24:30.846873+05:30
Aizawl,Mizoram,23.7271,92.7176,20.8,74,0.0,892.5,6.35,24.5,125,49.7,38.6,3.0,296.0,122.0,4.3,3,5,7,1,2026-05-10T17:24:30.846879+05:30
Kohima,Nagaland,25.6701,94.1077,19.4,81,0.0,855.9,8.35,28.4,86,30.9,19.8,5.0,268.0,104.0,1.8,3,10,7,0,2026-05-10T17:24:30.846885+05:30
Gangtok,Sikkim,27.3314,88.6138,14.4,91,0.1,837.6,7.7,30.2,81,18.0,11.2,4.3,252.0,119.0,1.0,6,10,7,0,2026-05-10T17:24:30.846892+05:30
Siliguri,West Bengal,26.7271,88.3953,27.2,64,0.0,992.8,8.05,26.6,103,34.5,18.2,3.8,772.0,142.0,2.1,7,5,7,1,2026-05-10T17:24:34.175565+05:30
Durgapur,West Bengal,23.5204,87.3119,24.6,83,0.0,994.7,8.9,43.2,202,102.7,82.7,25.9,320.0,230.0,79.8,3,5,7,1,2026-05-10T17:24:34.175600+05:30
Asansol,West Bengal,23.6739,86.9524,25.1,73,0.0,993.3,8.9,51.5,203,94.1,71.0,26.7,775.0,224.0,73.3,7,5,7,1,2026-05-10T17:24:34.175613+05:30
Pondicherry,Puducherry,11.9139,79.8145,28.3,81,0.0,1005.0,8.85,43.6,29,5.9,3.8,1.5,182.0,52.0,0.2,7,5,4,1,2026-05-10T17:24:34.175623+05:30
Port Blair,Andaman and Nicobar Islands,11.6234,92.7265,28.8,78,0.0,1004.6,8.1,27.0,27,2.7,1.9,0.6,163.0,55.0,0.1,7,5,4,1,2026-05-10T17:24:34.175631+05:30
Haridwar,Uttarakhand,29.9457,78.1642,31.2,46,0.0,973.2,7.5,26.3,163,93.4,42.5,0.7,307.0,176.0,4.9,0,5,7,1,2026-05-10T17:24:34.175639+05:30
Rishikesh,Uttarakhand,30.0869,78.2676,30.1,51,0.0,965.8,7.55,20.9,160,75.2,37.3,0.9,286.0,176.0,3.9,0,5,7,1,2026-05-10T17:24:34.175645+05:30
Nainital,Uttarakhand,29.3919,79.4542,18.0,69,0.0,806.6,7.4,27.4,147,52.6,32.2,0.9,265.0,177.0,4.4,3,5,7,0,2026-05-10T17:24:34.175652+05:30
Mussoorie,Uttarakhand,30.4599,78.0664,18.2,71,0.0,804.3,7.95,38.5,159,81.7,39.2,1.0,285.0,174.0,4.4,3,5,7,0,2026-05-10T17:24:34.175659+05:30
Dharamshala,Himachal Pradesh,32.219,76.3234,23.6,60,0.0,870.3,7.7,35.6,145,117.6,43.4,0.7,310.0,164.0,4.8,0,5,7,0,2026-05-10T17:24:34.175666+05:30
Dalhousie,Himachal Pradesh,32.5387,75.971,19.3,69,0.0,806.5,7.95,37.1,165,201.6,56.2,0.4,276.0,179.0,7.2,3,5,7,0,2026-05-10T17:24:34.175673+05:30
Patiala,Punjab,30.3398,76.3869,34.0,35,0.0,976.8,7.55,34.9,368,424.7,77.3,2.3,328.0,193.0,9.5,0,5,7,1,2026-05-10T17:24:34.175679+05:30
Bhatinda,Punjab,30.211,74.9455,38.5,24,0.0,980.8,8.25,30.2,391,560.7,97.3,2.9,311.0,211.0,18.2,0,5,10,0,2026-05-10T17:24:34.175686+05:30
Rohtak,Haryana,28.8955,76.6066,36.9,26,0.0,979.5,7.65,30.6,346,448.9,80.8,3.7,332.0,251.0,19.9,0,5,10,0,2026-05-10T17:24:34.175693+05:30
Panipat,Haryana,29.3909,76.9635,33.3,37,0.0,978.9,7.5,32.4,631,470.3,79.6,4.8,303.0,229.0,20.8,0,5,7,1,2026-05-10T17:24:34.175699+05:30
Mathura,Uttar Pradesh,27.4924,77.6737,35.5,32,0.0,984.5,7.9,24.8,508,429.3,65.4,1.6,318.0,187.0,7.9,0,5,10,1,2026-05-10T17:24:34.175706+05:30
Vrindavan,Uttar Pradesh,27.5823,77.7027,35.5,31,0.0,985.0,7.9,25.6,508,429.3,65.4,1.6,308.0,187.0,7.9,0,5,10,0,2026-05-10T17:24:34.175712+05:30
Ayodhya,Uttar Pradesh,26.7922,82.1998,32.7,41,0.0,993.6,8.2,37.1,164,44.9,28.3,3.0,302.0,165.0,6.0,0,5,7,1,2026-05-10T17:24:34.175719+05:30
Ratlam,Madhya Pradesh,23.3315,75.0367,39.6,10,0.0,951.0,8.5,42.1,107,51.9,16.8,0.5,172.0,164.0,5.5,0,5,10,0,2026-05-10T17:24:34.175726+05:30
Sagar,Madhya Pradesh,23.8388,78.7378,35.5,26,0.0,947.3,8.65,36.0,123,101.5,27.0,0.6,226.0,158.0,4.3,0,5,10,0,2026-05-10T17:24:34.175732+05:30
Satna,Madhya Pradesh,24.6005,80.8322,37.0,24,0.0,968.0,8.65,28.1,174,60.5,26.3,1.3,278.0,201.0,7.4,0,5,10,0,2026-05-10T17:24:34.175738+05:30
Akola,Maharashtra,20.7002,77.0082,40.9,13,0.0,970.2,8.85,36.0,145,40.2,13.8,0.0,183.0,162.0,7.9,0,5,10,0,2026-05-10T17:24:34.175745+05:30
Amravati,Maharashtra,20.9374,77.7796,39.9,13,0.0,962.6,8.85,46.4,148,44.4,16.0,0.8,194.0,169.0,5.9,0,5,10,0,2026-05-10T17:24:34.175752+05:30
Latur,Maharashtra,18.4088,76.5604,38.6,15,0.0,936.2,9.05,41.0,124,29.8,14.3,0.3,171.0,168.0,9.4,0,5,10,0,2026-05-10T17:24:34.175759+05:30
Nanded,Maharashtra,19.1383,77.3091,39.3,16,0.0,964.0,9.0,36.7,144,41.2,17.0,1.2,188.0,168.0,4.8,0,5,10,0,2026-05-10T17:24:34.175765+05:30
Gulbarga,Karnataka,17.3297,76.8343,38.5,21,0.0,954.9,9.1,35.3,86,42.6,19.3,1.6,198.0,165.0,6.6,0,5,10,0,2026-05-10T17:24:34.175771+05:30
Bidar,Karnataka,17.9104,77.5199,35.1,25,0.0,932.8,9.1,31.7,86,36.8,16.3,0.8,209.0,158.0,3.7,0,5,10,0,2026-05-10T17:24:34.175777+05:30
Hospet,Karnataka,15.2689,76.3909,35.4,29,0.0,952.0,8.85,34.2,70,45.8,20.4,3.4,197.0,154.0,6.8,0,5,10,0,2026-05-10T17:24:34.175784+05:30
Tirupur,Tamil Nadu,11.1085,77.3411,32.4,50,0.0,971.6,9.15,30.2,72,18.8,15.5,1.7,198.0,150.0,5.8,0,5,7,1,2026-05-10T17:24:34.175790+05:30
Alappuzha,Kerala,9.4981,76.3388,28.7,79,0.0,1004.9,7.8,25.9,100,12.0,9.7,5.7,188.0,104.0,2.5,7,5,4,1,2026-05-10T17:24:34.175796+05:30
Munnar,Kerala,10.0889,77.0595,20.4,87,0.0,854.5,9.2,24.8,43,12.0,11.0,2.8,178.0,100.0,2.3,3,5,7,1,2026-05-10T17:24:34.175803+05:30
Silchar,Assam,24.8333,92.7789,28.8,76,0.0,1004.4,7.95,27.4,161,56.5,45.9,7.0,481.0,143.0,9.2,7,5,4,1,2026-05-10T17:24:34.175809+05:30
Dibrugarh,Assam,27.4728,94.912,29.1,73,0.0,994.5,8.8,42.5,131,25.0,19.0,5.8,379.0,124.0,2.2,7,5,7,1,2026-05-10T17:24:34.175815+05:30
