city,state,latitude,longitude,temp,humidity,rain,pressure,uv_index,wind_gusts,aqi,pm10,pm2_5,no2,co,o3,so2,mosquito_risk,arthritis_risk,migraine_risk,frizz_risk,updated_at
Delhi,Delhi,28.6139,77.209,32.8,59,0.0,976.1,7.7,35.3,658,933.2,203.5,39.4,678.0,65.0,15.9,0,5,7,1,2026-07-18T20:26:07.479176+05:30
Mumbai,Maharashtra,19.076,72.8777,26.2,92,0.0,1006.6,6.3,51.8,64,24.8,14.7,15.4,217.0,36.0,8.9,7,5,4,1,2026-07-18T20:26:07.479217+05:30
Bangalore,Karnataka,12.9716,77.5946,22.6,84,0.0,911.7,3.35,45.0,47,18.1,12.7,22.7,484.0,41.0,5.1,3,5,3,1,2026-07-18T20:26:07.479232+05:30
Hyderabad,Telangana,17.385,78.4867,25.2,88,0.0,951.5,3.55,42.5,54,15.3,11.2,13.1,404.0,46.0,5.3,7,5,3,1,2026-07-18T20:26:07.479242+05:30
Chennai,Tamil Nadu,13.0827,80.2707,27.4,82,0.0,1006.2,5.3,35.6,67,39.2,27.2,20.2,486.0,89.0,13.9,7,5,0,1,2026-07-18T20:26:07.479251+05:30
Kolkata,West Bengal,22.5726,88.3639,28.2,85,0.0,1002.2,7.65,38.9,63,16.2,13.8,7.1,403.0,98.0,6.3,7,5,4,1,2026-07-18T20:26:07.479259+05:30
Pune,Maharashtra,18.5204,73.8567,23.0,94,0.2,946.4,8.05,49.0,37,10.0,7.5,14.2,163.0,29.0,6.8,6,5,7,1,2026-07-18T20:26:07.479266+05:30
Ahmedabad,Gujarat,23.0225,72.5714,30.3,71,0.0,996.9,6.6,33.8,69,26.5,15.8,12.8,188.0,61.0,5.0,3,5,7,1,2026-07-18T20:26:07.479272+05:30
Jaipur,Rajasthan,26.9124,75.7873,33.6,48,0.0,954.8,7.45,37.8,198,190.9,51.2,20.6,219.0,55.0,6.2,0,5,7,1,2026-07-18T20:26:07.479279+05:30
Lucknow,Uttar Pradesh,26.8467,80.9462,30.1,85,0.0,988.2,7.05,19.1,170,141.6,72.9,21.1,465.0,92.0,10.3,3,5,7,1,2026-07-18T20:26:07.479290+05:30
Kanpur,Uttar Pradesh,26.4499,80.3319,31.3,79,0.0,986.3,7.95,26.3,165,128.5,65.0,15.5,532.0,96.0,7.5,3,5,7,1,2026-07-18T20:26:07.479296+05:30
Chandigarh,Chandigarh,30.7333,76.7794,30.9,73,0.0,961.6,7.55,30.2,152,117.3,66.8,26.8,1379.0,118.0,14.8,3,5,7,1,2026-07-18T20:26:07.479303+05:30
Srinagar,Jammu and Kashmir,34.0837,74.7973,30.4,48,0.0,837.9,9.05,20.2,119,24.8,19.0,21.1,475.0,95.0,4.2,0,5,7,1,2026-07-18T20:26:07.479309+05:30
Jammu,Jammu and Kashmir,32.7266,74.857,30.5,76,0.0,965.1,8.15,23.0,146,68.5,49.0,25.2,394.0,83.0,5.5,3,5,7,1,2026-07-18T20:26:07.479316+05:30
Amritsar,Punjab,31.634,74.8723,33.0,71,0.0,972.4,6.45,18.4,170,110.8,68.9,28.6,744.0,84.0,8.0,3,5,7,1,2026-07-18T20:26:07.479322+05:30
Ludhiana,Punjab,30.901,75.8573,33.7,63,0.0,970.8,7.85,22.3,176,131.3,75.0,30.2,978.0,77.0,6.1,3,5,7,1,2026-07-18T20:26:07.479328+05:30
Jalandhar,Punjab,31.326,75.5762,32.9,73,0.0,971.6,8.2,16.9,175,139.2,75.0,26.9,919.0,88.0,5.7,3,5,7,1,2026-07-18T20:26:07.479335+05:30
Dehradun,Uttarakhand,30.6284,78.0322,20.5,99,0.0,827.8,7.1,25.2,98,55.6,28.9,10.4,270.0,114.0,5.4,3,5,7,1,2026-07-18T20:26:07.479345+05:30
Shimla,Himachal Pradesh,31.1048,77.1734,17.6,96,0.0,782.1,6.2,42.8,83,64.5,34.1,14.0,280.0,101.0,7.2,3,10,7,1,2026-07-18T20:26:07.479352+05:30
Manali,Himachal Pradesh,32.2396,77.1887,21.0,98,0.0,816.7,7.05,33.1,87,12.6,9.1,26.0,240.0,70.0,0.8,3,5,7,1,2026-07-18T20:26:07.479361+05:30
Gurgaon,Haryana,28.4595,77.0266,32.9,57,0.0,974.7,7.75,38.5,554,659.4,143.4,31.5,964.0,63.0,9.6,0,5,7,1,2026-07-18T20:26:07.479368+05:30
Noida,Uttar Pradesh,28.5355,77.391,32.7,55,0.0,977.7,7.65,30.6,554,659.4,143.4,31.5,629.0,63.0,9.6,0,5,7,1,2026-07-18T20:26:07.479374+05:30
Ghaziabad,Uttar Pradesh,28.6692,77.4538,31.6,67,0.0,975.8,7.7,30.6,599,946.2,228.2,50.5,470.0,64.0,19.5,3,5,7,1,2026-07-18T20:26:07.479380+05:30
Faridabad,Haryana,28.4089,77.3178,33.7,52,0.0,977.1,7.6,38.9,554,659.4,143.4,31.5,506.0,63.0,9.6,0,5,7,1,2026-07-18T20:26:07.479386+05:30
Meerut,Uttar Pradesh,28.9845,77.7064,30.2,88,0.0,974.8,7.65,32.0,599,946.2,228.2,50.5,350.0,64.0,19.5,3,5,7,1,2026-07-18T20:26:07.479392+05:30
Agra,Uttar Pradesh,27.1767,78.0081,34.1,57,0.0,981.8,7.05,40.0,158,210.5,71.2,40.6,358.0,50.0,9.9,0,5,7,1,2026-07-18T20:26:07.479399+05:30
Varanasi,Uttar Pradesh,25.3176,82.9739,29.0,92,0.0,992.7,7.15,18.7,134,103.1,64.7,17.6,784.0,100.0,11.5,7,5,7,1,2026-07-18T20:26:07.479405+05:30
Prayagraj,Uttar Pradesh,25.4358,81.8463,29.4,88,0.0,991.1,6.45,26.6,151,119.2,61.0,12.8,480.0,113.0,8.2,7,5,7,1,2026-07-18T20:26:07.479412+05:30
Gorakhpur,Uttar Pradesh,26.7606,83.3732,29.2,87,0.0,992.6,6.8,26.3,90,27.5,27.3,14.9,384.0,81.0,5.6,7,5,7,1,2026-07-18T20:26:07.479419+05:30
Bareilly,Uttar Pradesh,28.367,79.4304,28.4,94,0.0,981.2,7.7,30.6,161,73.3,48.5,14.1,608.0,94.0,10.8,7,5,7,1,2026-07-18T20:26:07.479427+05:30
Aligarh,Uttar Pradesh,27.8974,78.088,31.0,74,0.0,979.4,7.4,27.4,302,525.3,136.4,21.5,354.0,68.0,6.8,3,5,7,1,2026-07-18T20:26:07.479433+05:30
Moradabad,Uttar Pradesh,28.8386,78.7733,27.6,97,0.0,977.5,7.45,35.3,176,149.5,88.9,17.5,492.0,103.0,12.6,7,5,7,1,2026-07-18T20:26:07.479439+05:30
Saharanpur,Uttar Pradesh,29.9637,77.546,29.4,92,0.1,969.0,7.3,32.0,187,573.7,150.9,39.2,448.0,87.0,18.1,10,5,7,1,2026-07-18T20:26:07.479445+05:30
Jhansi,Uttar Pradesh,25.4484,78.5685,27.7,89,0.1,973.5,7.05,43.6,92,56.0,29.0,17.3,161.0,59.0,4.5,10,5,7,1,2026-07-18T20:26:10.766042+05:30
Surat,Gujarat,21.1702,72.8311,28.6,82,0.0,1002.7,7.15,43.2,72,19.4,14.8,19.0,250.0,33.0,31.2,7,5,4,1,2026-07-18T20:26:10.766078+05:30
Vadodara,Gujarat,22.3072,73.1812,29.6,74,0.0,999.7,5.75,39.2,67,23.7,18.0,15.9,173.0,63.0,18.0,7,5,3,1,2026-07-18T20:26:10.766090+05:30
Rajkot,Gujarat,22.3039,70.8022,29.8,64,0.0,989.3,5.25,46.1,61,30.2,14.8,4.1,113.0,54.0,4.3,7,5,3,1,2026-07-18T20:26:10.766099+05:30
Thane,Maharashtra,19.2183,72.9781,25.2,99,0.1,1006.1,6.4,43.9,64,24.8,14.7,15.4,237.0,36.0,8.9,10,5,4,1,2026-07-18T20:26:10.766107+05:30
Nagpur,Maharashtra,21.1458,79.0882,26.6,89,0.0,970.3,1.0,27.0,70,17.4,14.3,14.1,295.0,51.0,11.0,7,5,3,1,2026-07-18T20:26:10.766115+05:30
Nashik,Maharashtra,19.9975,73.7898,23.4,90,0.0,942.9,6.9,45.0,35,7.0,4.6,8.5,153.0,44.0,3.9,3,5,7,1,2026-07-18T20:26:10.766123+05:30
Aurangabad,Maharashtra,19.8762,75.3433,23.6,95,0.1,942.0,6.7,38.5,41,11.4,8.9,9.7,164.0,50.0,4.5,6,5,7,1,2026-07-18T20:26:10.766130+05:30
Solapur,Maharashtra,17.6599,75.9064,24.4,94,0.1,956.2,3.15,34.9,43,10.9,7.1,4.8,234.0,52.0,2.4,6,5,3,1,2026-07-18T20:26:10.766139+05:30
Kolhapur,Maharashtra,16.705,74.2433,22.5,92,0.1,947.6,5.3,46.1,35,6.6,5.2,8.0,159.0,36.0,2.4,6,5,3,1,2026-07-18T20:26:10.766147+05:30
Goa,Goa,15.2993,74.124,24.9,99,0.5,999.2,6.25,35.6,64,23.4,13.9,5.3,287.0,42.0,1.7,6,5,7,1,2026-07-18T20:26:10.766155+05:30
Jodhpur,Rajasthan,26.2389,73.0243,33.3,47,0.0,976.6,8.4,42.8,129,213.3,44.8,4.9,130.0,65.0,1.8,0,5,7,1,2026-07-18T20:26:10.766162+05:30
Udaipur,Rajasthan,24.5854,73.7125,28.7,63,0.0,941.8,8.25,33.8,76,23.3,12.7,3.8,138.0,78.0,3.1,7,5,7,1,2026-07-18T20:26:10.766171+05:30
Kota,Rajasthan,25.2138,75.8648,34.1,47,0.0,973.5,8.25,32.4,87,38.2,24.0,9.1,177.0,84.0,6.1,0,5,7,1,2026-07-18T20:26:10.766178+05:30
Bikaner,Rajasthan,28.0229,73.3119,36.1,38,0.0,974.3,8.25,38.5,119,121.5,40.4,1.5,116.0,78.0,2.5,0,5,10,1,2026-07-18T20:26:10.766187+05:30
Ajmer,Rajasthan,26.4499,74.6399,31.3,53,0.0,949.5,8.0,43.2,76,38.4,21.4,8.0,168.0,65.0,2.8,0,5,7,1,2026-07-18T20:26:10.766195+05:30
Gwalior,Madhya Pradesh,26.2183,78.1828,33.1,57,0.0,977.7,3.4,37.1,104,72.6,34.3,17.5,233.0,53.0,4.2,0,5,3,1,2026-07-18T20:26:10.766203+05:30
Indore,Madhya Pradesh,22.7196,75.8577,27.6,71,0.0,944.8,6.0,38.5,71,41.6,26.9,14.0,247.0,62.0,6.2,7,5,3,1,2026-07-18T20:26:10.766210+05:30
Bhopal,Madhya Pradesh,23.2599,77.4126,28.0,73,0.0,950.0,6.3,36.7,83,30.4,20.1,6.3,362.0,74.0,3.7,7,5,7,1,2026-07-18T20:26:10.766218+05:30
Jabalpur,Madhya Pradesh,23.1815,79.9864,26.4,93,0.0,957.6,8.2,34.9,86,37.0,26.0,8.2,251.0,82.0,4.9,7,5,7,1,2026-07-18T20:26:10.766226+05:30
Ujjain,Madhya Pradesh,23.1765,75.7885,28.4,70,0.0,950.0,6.65,36.4,74,39.9,25.1,6.5,216.0,77.0,4.5,7,5,7,1,2026-07-18T20:26:10.766235+05:30
Visakhapatnam,Andhra Pradesh,17.6868,83.2185,27.8,86,0.0,999.9,6.55,39.6,81,28.4,22.9,22.1,349.0,74.0,33.7,7,5,7,1,2026-07-18T20:26:10.766243+05:30
Vijayawada,Andhra Pradesh,16.5062,80.648,28.0,87,0.1,999.9,5.25,38.9,67,27.9,18.5,7.4,224.0,68.0,4.7,10,5,3,1,2026-07-18T20:26:10.766251+05:30
Guntur,Andhra Pradesh,16.3067,80.4365,29.7,70,0.0,1001.2,3.95,43.6,66,22.6,14.8,7.0,228.0,63.0,4.1,7,5,0,1,2026-07-18T20:26:10.766260+05:30
Nellore,Andhra Pradesh,14.4426,79.9865,28.7,79,0.0,1004.0,2.55,42.8,56,23.1,13.5,7.0,227.0,57.0,3.5,7,5,0,1,2026-07-18T20:26:10.766268+05:30
Kurnool,Andhra Pradesh,15.8281,78.0373,26.7,79,0.2,976.0,4.85,42.8,52,22.0,12.9,12.0,170.0,54.0,14.1,10,5,3,1,2026-07-18T20:26:10.766277+05:30
Kakinada,Andhra Pradesh,16.9891,82.2475,27.3,90,0.0,1004.3,7.2,47.2,75,21.6,16.4,6.6,245.0,100.0,5.1,7,5,4,1,2026-07-18T20:26:10.766285+05:30
Tirupati,Andhra Pradesh,13.6288,79.4192,27.5,81,0.0,990.2,3.3,38.9,56,23.5,18.2,26.3,403.0,28.0,3.4,7,5,3,1,2026-07-18T20:26:10.766294+05:30
Warangal,Telangana,17.9689,79.5941,25.6,92,0.0,976.4,6.05,38.2,65,20.3,15.8,9.0,207.0,62.0,4.1,7,5,7,1,2026-07-18T20:26:10.766302+05:30
Nizamabad,Telangana,18.6725,78.0941,25.1,92,0.0,963.1,1.1,42.1,64,27.0,15.5,5.0,182.0,76.0,7.4,7,5,3,1,2026-07-18T20:26:10.766310+05:30
Mysore,Karnataka,12.2958,76.6396,23.3,80,0.0,929.3,3.75,49.3,35,10.0,6.7,8.9,169.0,53.0,2.2,3,5,3,1,2026-07-18T20:26:10.766317+05:30
Mangalore,Karnataka,12.9141,74.856,24.4,96,0.1,1008.7,4.25,35.3,58,21.4,13.2,9.4,331.0,37.0,2.3,6,0,0,1,2026-07-18T20:26:10.766325+05:30
Hubli-Dharwad,Karnataka,15.3647,75.124,22.5,94,0.1,941.0,7.7,49.3,24,7.4,5.1,6.9,131.0,39.0,1.5,6,5,7,1,2026-07-18T20:26:10.766332+05:30
Belgaum,Karnataka,15.8497,74.4977,21.6,95,0.0,925.7,6.85,50.4,24,3.2,2.5,6.2,123.0,38.0,1.5,3,5,7,1,2026-07-18T20:26:14.064013+05:30
Coimbatore,Tamil Nadu,11.0168,76.9558,24.5,83,0.0,962.1,7.1,44.6,43,11.3,8.1,8.5,184.0,45.0,2.9,3,5,7,1,2026-07-18T20:26:14.064072+05:30
Madurai,Tamil Nadu,9.9252,78.1198,29.3,67,0.0,992.8,8.0,26.3,64,35.9,14.4,7.9,333.0,68.0,2.8,7,5,7,1,2026-07-18T20:26:14.064084+05:30
Trichy,Tamil Nadu,10.7905,78.7047,28.4,81,0.0,999.8,6.95,47.9,53,21.3,12.9,11.3,136.0,60.0,3.6,7,5,7,1,2026-07-18T20:26:14.064093+05:30
Salem,Tamil Nadu,11.6643,78.146,28.2,72,0.0,977.2,7.05,37.1,65,37.6,22.5,21.5,298.0,48.0,7.3,7,5,7,1,2026-07-18T20:26:14.064102+05:30
Tirunelveli,Tamil Nadu,8.7139,77.7567,30.4,54,0.0,1003.7,8.65,54.4,52,9.7,7.5,4.6,146.0,56.0,1.8,0,5,4,1,2026-07-18T20:26:14.064109+05:30
Vellore,Tamil Nadu,12.9165,79.1325,28.0,75,0.0,983.6,6.3,43.2,55,37.8,23.6,19.3,327.0,43.0,3.9,7,5,7,1,2026-07-18T20:26:14.064119+05:30
Erode,Tamil Nadu,11.341,77.7172,29.1,62,0.0,989.2,6.7,39.2,56,23.1,12.6,11.0,189.0,54.0,3.0,7,5,7,1,2026-07-18T20:26:14.064130+05:30
Kochi,Kerala,9.9312,76.2673,26.1,89,0.0,1010.8,7.75,36.7,57,16.9,12.5,16.5,153.0,29.0,4.1,7,0,4,1,2026-07-18T20:26:14.064138+05:30
Thiruvananthapuram,Kerala,8.5241,76.9366,26.5,83,0.0,1010.0,8.45,49.3,60,15.4,9.1,4.7,135.0,49.0,1.3,7,0,4,1,2026-07-18T20:26:14.064145+05:30
Kozhikode,Kerala,11.2588,75.7804,25.0,95,0.0,1010.0,7.8,34.2,54,17.1,8.8,1.3,343.0,55.0,1.0,7,0,4,1,2026-07-18T20:26:14.064153+05:30
Thrissur,Kerala,10.5276,76.2144,25.7,88,0.0,1009.1,7.55,37.8,58,13.4,10.4,9.6,197.0,36.0,2.8,7,0,4,1,2026-07-18T20:26:14.064161+05:30
Kannur,Kerala,11.8745,75.3704,24.1,98,0.0,1009.5,7.75,33.8,53,18.8,11.2,11.6,268.0,36.0,2.2,3,0,4,1,2026-07-18T20:26:14.064168+05:30
Patna,Bihar,25.5941,85.1376,27.5,95,0.3,996.2,6.7,26.3,91,27.5,27.4,16.1,436.0,93.0,11.7,10,5,7,1,2026-07-18T20:26:14.064175+05:30
Gaya,Bihar,24.7914,85.0002,26.7,98,0.2,989.1,6.65,25.9,137,33.8,33.4,10.9,411.0,108.0,8.8,10,5,7,1,2026-07-18T20:26:14.064183+05:30
Muzaffarpur,Bihar,26.1209,85.3647,27.7,95,0.0,996.5,7.25,29.2,77,27.5,27.5,15.7,397.0,89.0,9.5,7,5,7,1,2026-07-18T20:26:14.064190+05:30
Bhagalpur,Bihar,25.2425,87.0117,27.0,96,0.2,997.6,7.85,29.9,90,26.5,26.1,13.3,336.0,104.0,10.9,10,5,7,1,2026-07-18T20:26:14.064197+05:30
Ranchi,Jharkhand,23.3441,85.3096,24.4,95,0.2,933.9,9.2,26.6,71,21.2,21.1,10.8,409.0,85.0,4.2,6,5,7,1,2026-07-18T20:26:14.064204+05:30
Jamshedpur,Jharkhand,22.8046,86.2029,25.9,97,0.2,986.6,8.75,32.0,108,27.0,26.2,15.1,388.0,85.0,17.4,10,5,7,1,2026-07-18T20:26:14.064211+05:30
Dhanbad,Jharkhand,23.7957,86.4304,26.0,96,0.1,976.0,7.6,25.9,152,55.2,54.2,44.1,290.0,73.0,104.9,10,5,7,1,2026-07-18T20:26:14.064218+05:30
Bokaro,Jharkhand,23.6693,86.1511,26.5,95,0.1,979.6,7.7,19.1,128,54.8,54.2,40.6,821.0,74.0,100.8,10,5,7,1,2026-07-18T20:26:14.064225+05:30
Bhubaneswar,Odisha,20.2961,85.8245,26.5,96,0.3,998.8,8.55,34.9,65,27.6,23.2,10.5,329.0,97.0,5.5,10,5,7,1,2026-07-18T20:26:14.064231+05:30
Cuttack,Odisha,20.4625,85.8828,26.5,97,0.2,1000.7,8.6,32.8,65,27.6,23.2,10.5,391.0,97.0,5.5,10,5,4,1,2026-07-18T20:26:14.064239+05:30
Rourkela,Odisha,22.2604,84.8536,26.5,97,0.0,980.5,7.55,42.8,94,23.8,22.7,9.9,525.0,105.0,7.9,7,5,7,1,2026-07-18T20:26:14.064246+05:30
Raipur,Chhattisgarh,21.2514,81.6296,24.9,97,0.1,971.2,7.05,42.8,88,42.7,29.2,27.8,244.0,60.0,35.6,6,5,7,1,2026-07-18T20:26:14.064253+05:30
Bhilai,Chhattisgarh,21.1938,81.3509,25.2,96,0.1,971.8,6.2,36.4,83,38.2,26.9,23.2,614.0,59.0,28.8,10,5,7,1,2026-07-18T20:26:14.064260+05:30
Guwahati,Assam,26.1158,91.7086,26.4,97,0.1,999.1,7.15,22.7,51,19.1,18.2,12.5,313.0,45.0,3.0,10,5,7,1,2026-07-18T20:26:14.064266+05:30
Agartala,Tripura,23.8315,91.2868,27.8,81,0.0,1004.4,7.4,42.1,55,20.2,16.0,7.8,146.0,52.0,1.6,7,5,4,1,2026-07-18T20:26:14.064273+05:30
Shillong,Meghalaya,25.5788,91.8933,21.1,89,0.0,857.0,2.9,41.4,38,5.6,4.9,6.6,194.0,64.0,2.0,3,5,3,1,2026-07-18T20:26:14.064280+05:30
Imphal,Manipur,24.817,93.9368,24.3,88,0.0,922.0,4.05,31.0,59,20.4,17.9,17.9,475.0,33.0,3.1,3,5,3,1,2026-07-18T20:26:14.064287+05:30
Aizawl,Mizoram,23.7271,92.7176,20.7,87,0.0,891.8,6.7,39.2,53,8.7,6.6,3.5,132.0,52.0,0.7,3,5,7,1,2026-07-18T20:26:14.064294+05:30
Kohima,Nagaland,25.6701,94.1077,20.9,96,0.0,854.9,2.55,24.8,36,12.6,10.2,11.2,212.0,41.0,1.6,3,5,3,1,2026-07-18T20:26:14.064301+05:30
Gangtok,Sikkim,27.3314,88.6138,19.3,99,0.2,837.5,4.15,25.6,36,3.8,3.7,6.4,273.0,82.0,1.5,6,10,3,1,2026-07-18T20:26:14.064308+05:30
Siliguri,West Bengal,26.7271,88.3953,26.9,85,0.0,990.3,6.35,31.0,61,15.3,14.8,12.0,422.0,76.0,3.7,7,5,7,1,2026-07-18T20:26:17.348925+05:30
Durgapur,West Bengal,23.5204,87.3119,27.4,92,0.0,991.3,8.55,30.2,102,35.7,34.7,22.4,374.0,86.0,28.1,7,5,7,1,2026-07-18T20:26:17.348957+05:30
Asansol,West Bengal,23.6739,86.9524,26.9,95,0.1,989.7,8.3,31.0,113,32.0,31.1,24.3,585.0,85.0,30.4,10,5,7,1,2026-07-18T20:26:17.348969+05:30
Pondicherry,Puducherry,11.9139,79.8145,28.9,74,0.0,1008.3,5.9,33.5,70,40.7,27.3,17.3,242.0,86.0,7.5,7,0,0,1,2026-07-18T20:26:17.348978+05:30
Port Blair,Andaman and Nicobar Islands,11.6234,92.7265,27.0,85,0.0,1008.5,8.6,35.6,48,24.7,11.6,0.3,108.0,49.0,0.5,7,0,4,1,2026-07-18T20:26:17.348986+05:30
Haridwar,Uttarakhand,29.9457,78.1642,28.5,92,0.0,967.8,7.5,28.1,170,167.6,83.4,17.8,426.0,90.0,11.6,7,5,7,1,2026-07-18T20:26:17.348994+05:30
Rishikesh,Uttarakhand,30.0869,78.2676,27.9,92,0.0,960.7,7.0,28.8,157,105.7,56.7,6.1,394.0,122.0,9.4,7,5,7,1,2026-07-18T20:26:17.349002+05:30
Nainital,Uttarakhand,29.3919,79.4542,18.2,100,0.3,803.6,7.0,25.6,116,84.5,40.2,9.0,335.0,115.0,6.7,6,10,7,1,2026-07-18T20:26:17.349010+05:30
Mussoorie,Uttarakhand,30.4599,78.0664,19.1,99,0.0,800.9,6.7,33.5,150,85.2,51.0,13.8,365.0,107.0,8.8,3,10,7,1,2026-07-18T20:26:17.349017+05:30
Dharamshala,Himachal Pradesh,32.219,76.3234,23.1,99,0.0,865.2,8.05,27.0,61,16.7,10.7,9.1,302.0,85.0,1.2,3,5,7,1,2026-07-18T20:26:17.349056+05:30
Dalhousie,Himachal Pradesh,32.5387,75.971,19.8,100,0.0,802.3,8.1,22.3,94,55.4,32.4,20.9,584.0,94.0,3.2,3,10,7,1,2026-07-18T20:26:17.349067+05:30
Patiala,Punjab,30.3398,76.3869,32.5,71,0.0,970.5,7.0,22.7,200,597.9,143.4,30.5,624.0,82.0,7.9,3,5,7,1,2026-07-18T20:26:17.349075+05:30
Bhatinda,Punjab,30.211,74.9455,36.4,42,0.0,975.4,8.05,32.4,175,197.0,93.4,36.1,180.0,62.0,7.5,0,5,10,1,2026-07-18T20:26:17.349083+05:30
Rohtak,Haryana,28.8955,76.6066,32.7,64,0.0,974.6,7.65,34.2,840,804.7,173.7,38.3,341.0,57.0,6.6,3,5,7,1,2026-07-18T20:26:17.349090+05:30
Panipat,Haryana,29.3909,76.9635,32.0,70,0.0,973.1,7.55,28.4,1146,1564.6,294.3,40.0,319.0,57.0,10.6,3,5,7,1,2026-07-18T20:26:17.349097+05:30
Mathura,Uttar Pradesh,27.4924,77.6737,32.0,70,0.0,980.6,7.85,31.0,443,314.8,81.5,46.5,250.0,39.0,5.9,3,5,7,1,2026-07-18T20:26:17.349105+05:30
Vrindavan,Uttar Pradesh,27.5823,77.7027,32.2,69,0.0,980.9,7.55,30.6,443,314.8,81.5,46.5,349.0,39.0,5.9,3,5,7,1,2026-07-18T20:26:17.349112+05:30
Ayodhya,Uttar Pradesh,26.7922,82.1998,29.3,84,0.0,990.5,6.85,20.9,95,33.5,30.5,17.7,487.0,79.0,5.6,7,5,7,1,2026-07-18T20:26:17.349119+05:30
Ratlam,Madhya Pradesh,23.3315,75.0367,26.6,81,0.0,950.8,7.4,37.8,71,30.3,19.4,4.4,158.0,86.0,4.3,7,5,7,1,2026-07-18T20:26:17.349127+05:30
Sagar,Madhya Pradesh,23.8388,78.7378,26.8,92,0.0,946.5,7.25,37.8,89,39.9,26.2,7.3,185.0,78.0,4.0,7,5,7,1,2026-07-18T20:26:17.349134+05:30
Satna,Madhya Pradesh,24.6005,80.8322,26.1,96,0.0,967.2,8.1,34.9,106,67.1,32.9,9.3,263.0,72.0,2.6,7,5,7,1,2026-07-18T20:26:17.349148+05:30
Akola,Maharashtra,20.7002,77.0082,27.0,80,0.1,972.9,5.35,32.8,57,21.0,12.8,7.1,151.0,63.0,9.5,10,5,3,1,2026-07-18T20:26:17.349156+05:30
Amravati,Maharashtra,20.9374,77.7796,25.5,92,0.1,964.8,2.85,39.6,59,26.9,15.8,8.5,181.0,63.0,11.4,10,5,3,1,2026-07-18T20:26:17.349165+05:30
Latur,Maharashtra,18.4088,76.5604,23.6,92,0.0,938.2,2.05,34.9,50,16.0,10.9,6.2,166.0,53.0,3.1,3,5,3,1,2026-07-18T20:26:17.349172+05:30
Nanded,Maharashtra,19.1383,77.3091,24.6,94,0.2,967.2,1.4,38.9,59,20.1,12.0,4.3,177.0,70.0,3.6,6,5,3,1,2026-07-18T20:26:17.349180+05:30
Gulbarga,Karnataka,17.3297,76.8343,24.3,90,0.1,957.8,2.35,38.2,45,15.4,10.1,13.0,193.0,39.0,3.7,6,5,3,1,2026-07-18T20:26:17.349186+05:30
Bidar,Karnataka,17.9104,77.5199,23.1,94,0.0,933.7,1.95,38.9,56,19.0,12.1,10.5,199.0,49.0,3.0,3,5,3,1,2026-07-18T20:26:17.349194+05:30
Hospet,Karnataka,15.2689,76.3909,23.7,94,0.1,955.8,5.8,48.6,31,13.7,8.5,9.5,147.0,41.0,1.8,6,5,3,1,2026-07-18T20:26:17.349200+05:30
Tirupur,Tamil Nadu,11.1085,77.3411,26.6,73,0.0,975.3,7.15,43.9,58,25.5,13.9,13.1,165.0,48.0,4.0,7,5,7,1,2026-07-18T20:26:17.349208+05:30
Alappuzha,Kerala,9.4981,76.3388,25.4,93,0.1,1010.9,7.9,40.7,57,15.7,9.6,9.8,85.0,42.0,2.7,10,0,4,1,2026-07-18T20:26:17.349215+05:30
Munnar,Kerala,10.0889,77.0595,15.7,99,0.0,857.1,7.15,42.5,28,9.5,7.0,7.1,113.0,44.0,1.9,3,10,7,0,2026-07-18T20:26:17.349222+05:30
Silchar,Assam,24.8333,92.7789,27.9,95,0.0,1003.3,8.4,29.2,66,23.5,20.1,6.9,267.0,63.0,4.7,7,5,4,1,2026-07-18T20:26:17.349229+05:30
Dibrugarh,Assam,27.4728,94.912,25.5,98,0.1,993.0,1.8,33.8,60,15.3,14.7,10.9,205.0,50.0,1.8,10,5,3,1,2026-07-18T20:26:17.349236+05:30
