city,state,latitude,longitude,temp,humidity,rain,pressure,uv_index,aqi,mosquito_risk,arthritis_risk,migraine_risk,frizz_risk,updated_at
Delhi,Delhi,28.6139,77.209,19.6,55,0.0,988.0,5.5,160,0,5,3,0,2026-02-25T23:30:32.022098+05:30
Mumbai,Maharashtra,19.076,72.8777,26.4,83,0.0,1011.7,7.25,88,7,0,4,1,2026-02-25T23:30:32.022150+05:30
Bangalore,Karnataka,12.9716,77.5946,21.8,58,0.0,913.4,8.75,112,0,5,7,0,2026-02-25T23:30:32.022166+05:30
Hyderabad,Telangana,17.385,78.4867,23.3,79,0.0,956.0,8.05,151,3,5,7,1,2026-02-25T23:30:32.022177+05:30
Chennai,Tamil Nadu,13.0827,80.2707,25.8,81,0.0,1010.3,8.55,65,7,0,4,1,2026-02-25T23:30:32.022186+05:30
Kolkata,West Bengal,22.5726,88.3639,22.9,57,0.0,1009.2,7.35,176,0,0,4,0,2026-02-25T23:30:32.022195+05:30
Pune,Maharashtra,18.5204,73.8567,19.3,64,0.0,950.5,7.75,114,3,5,7,0,2026-02-25T23:30:32.022202+05:30
Ahmedabad,Gujarat,23.0225,72.5714,24.5,47,0.0,1005.4,7.0,91,0,5,4,0,2026-02-25T23:30:32.022210+05:30
Jaipur,Rajasthan,26.9124,75.7873,19.7,47,0.0,963.8,6.35,111,0,5,7,0,2026-02-25T23:30:32.022218+05:30
Lucknow,Uttar Pradesh,26.8467,80.9462,18.9,62,0.0,998.2,5.95,159,3,5,3,0,2026-02-25T23:30:32.022231+05:30
Kanpur,Uttar Pradesh,26.4499,80.3319,19.3,60,0.0,996.5,5.95,159,0,5,3,0,2026-02-25T23:30:32.022240+05:30
Chandigarh,Chandigarh,30.7333,76.7794,16.6,82,0.0,973.2,5.45,152,3,10,3,0,2026-02-25T23:30:32.022249+05:30
Srinagar,Jammu and Kashmir,34.0837,74.7973,6.4,90,0.0,840.2,6.3,151,3,10,7,0,2026-02-25T23:30:32.022257+05:30
Jammu,Jammu and Kashmir,32.7266,74.857,17.0,89,0.0,977.5,6.0,151,3,10,3,0,2026-02-25T23:30:32.022264+05:30
Amritsar,Punjab,31.634,74.8723,16.9,85,0.0,985.7,5.95,186,3,10,3,0,2026-02-25T23:30:32.022271+05:30
Ludhiana,Punjab,30.901,75.8573,17.7,77,0.0,983.8,5.65,179,3,5,3,0,2026-02-25T23:30:32.022278+05:30
Jalandhar,Punjab,31.326,75.5762,16.9,85,0.0,984.9,5.8,186,3,10,3,0,2026-02-25T23:30:32.022285+05:30
Dehradun,Uttarakhand,30.6284,78.0322,10.2,93,0.0,830.0,5.75,106,3,10,3,0,2026-02-25T23:30:32.022293+05:30
Shimla,Himachal Pradesh,31.1048,77.1734,8.4,86,0.0,783.5,5.85,104,3,10,3,0,2026-02-25T23:30:32.022301+05:30
Manali,Himachal Pradesh,32.2396,77.1887,11.7,51,0.0,818.7,7.5,69,0,5,7,0,2026-02-25T23:30:32.022310+05:30
Gurgaon,Haryana,28.4595,77.0266,15.1,71,0.0,986.3,5.65,165,3,5,3,0,2026-02-25T23:30:32.022317+05:30
Noida,Uttar Pradesh,28.5355,77.391,20.9,47,0.0,989.6,5.55,165,0,5,3,0,2026-02-25T23:30:32.022324+05:30
Ghaziabad,Uttar Pradesh,28.6692,77.4538,17.8,64,0.0,987.6,5.5,157,3,5,3,0,2026-02-25T23:30:32.022331+05:30
Faridabad,Haryana,28.4089,77.3178,17.5,50,0.0,988.7,5.55,165,0,5,3,0,2026-02-25T23:30:32.022338+05:30
Meerut,Uttar Pradesh,28.9845,77.7064,15.9,69,0.0,986.0,5.35,157,3,5,3,0,2026-02-25T23:30:32.022345+05:30
Agra,Uttar Pradesh,27.1767,78.0081,17.4,69,0.0,992.7,5.85,170,3,5,3,0,2026-02-25T23:30:32.022352+05:30
Varanasi,Uttar Pradesh,25.3176,82.9739,17.5,70,0.0,1002.3,6.65,150,3,5,4,0,2026-02-25T23:30:32.022359+05:30
Prayagraj,Uttar Pradesh,25.4358,81.8463,18.8,57,0.0,1000.6,6.5,158,0,5,4,0,2026-02-25T23:30:32.022366+05:30
Gorakhpur,Uttar Pradesh,26.7606,83.3732,17.4,77,0.0,1001.5,6.35,168,3,5,4,0,2026-02-25T23:30:32.022373+05:30
Bareilly,Uttar Pradesh,28.367,79.4304,15.0,66,0.0,991.3,5.65,165,3,5,3,0,2026-02-25T23:30:32.022382+05:30
Aligarh,Uttar Pradesh,27.8974,78.088,15.5,68,0.0,990.4,5.6,160,3,5,3,0,2026-02-25T23:30:32.022389+05:30
Moradabad,Uttar Pradesh,28.8386,78.7733,15.2,72,0.0,988.1,5.5,165,3,5,3,0,2026-02-25T23:30:32.022396+05:30
Saharanpur,Uttar Pradesh,29.9637,77.546,16.6,77,0.0,980.0,5.15,165,3,5,3,0,2026-02-25T23:30:32.022403+05:30
Jhansi,Uttar Pradesh,25.4484,78.5685,18.9,59,0.0,982.0,6.45,110,0,5,7,0,2026-02-25T23:30:35.375770+05:30
Surat,Gujarat,21.1702,72.8311,23.8,86,0.0,1010.0,6.95,132,3,0,4,1,2026-02-25T23:30:35.375802+05:30
Vadodara,Gujarat,22.3072,73.1812,23.6,60,0.0,1007.4,7.05,97,0,5,4,0,2026-02-25T23:30:35.375813+05:30
Rajkot,Gujarat,22.3039,70.8022,23.4,64,0.0,998.3,6.95,57,3,5,7,1,2026-02-25T23:30:35.375821+05:30
Thane,Maharashtra,19.2183,72.9781,24.3,88,0.0,1011.2,7.25,88,3,0,4,1,2026-02-25T23:30:35.375828+05:30
Nagpur,Maharashtra,21.1458,79.0882,22.4,74,0.0,976.7,7.0,121,3,5,7,1,2026-02-25T23:30:35.375836+05:30
Nashik,Maharashtra,19.9975,73.7898,21.2,60,0.0,948.1,7.4,94,0,5,7,0,2026-02-25T23:30:35.375843+05:30
Aurangabad,Maharashtra,19.8762,75.3433,22.3,51,0.0,946.3,7.55,115,0,5,7,0,2026-02-25T23:30:35.375851+05:30
Solapur,Maharashtra,17.6599,75.9064,23.2,73,0.0,959.4,7.8,125,3,5,7,1,2026-02-25T23:30:35.375858+05:30
Kolhapur,Maharashtra,16.705,74.2433,17.8,67,0.0,949.8,8.15,150,3,5,7,0,2026-02-25T23:30:35.375865+05:30
Goa,Goa,15.2993,74.124,25.8,87,0.0,1000.4,8.2,127,7,5,4,1,2026-02-25T23:30:35.375873+05:30
Jodhpur,Rajasthan,26.2389,73.0243,23.3,38,0.0,986.3,6.6,66,0,5,7,0,2026-02-25T23:30:35.375880+05:30
Udaipur,Rajasthan,24.5854,73.7125,18.3,60,0.0,949.5,7.25,61,0,5,7,0,2026-02-25T23:30:35.375887+05:30
Kota,Rajasthan,25.2138,75.8648,17.1,79,0.0,982.5,6.65,92,3,5,7,0,2026-02-25T23:30:35.375894+05:30
Bikaner,Rajasthan,28.0229,73.3119,24.1,37,0.0,985.6,6.25,58,0,5,7,0,2026-02-25T23:30:35.375902+05:30
Ajmer,Rajasthan,26.4499,74.6399,20.7,42,0.0,957.7,6.6,89,0,5,7,0,2026-02-25T23:30:35.375909+05:30
Gwalior,Madhya Pradesh,26.2183,78.1828,20.5,56,0.0,987.6,6.2,139,0,5,7,0,2026-02-25T23:30:35.375916+05:30
Indore,Madhya Pradesh,22.7196,75.8577,19.4,54,0.0,950.5,7.15,87,0,5,7,0,2026-02-25T23:30:35.375923+05:30
Bhopal,Madhya Pradesh,23.2599,77.4126,20.2,47,0.0,956.6,7.05,71,0,5,7,0,2026-02-25T23:30:35.375929+05:30
Jabalpur,Madhya Pradesh,23.1815,79.9864,20.9,47,0.0,964.8,7.1,76,0,5,7,0,2026-02-25T23:30:35.375936+05:30
Ujjain,Madhya Pradesh,23.1765,75.7885,20.5,48,0.0,956.6,7.1,96,0,5,7,0,2026-02-25T23:30:35.375943+05:30
Visakhapatnam,Andhra Pradesh,17.6868,83.2185,23.9,90,0.0,1007.7,8.05,144,3,5,4,1,2026-02-25T23:30:35.375969+05:30
Vijayawada,Andhra Pradesh,16.5062,80.648,25.2,84,0.0,1006.0,8.15,96,7,5,4,1,2026-02-25T23:30:35.375976+05:30
Guntur,Andhra Pradesh,16.3067,80.4365,25.3,84,0.0,1007.1,8.15,101,7,5,4,1,2026-02-25T23:30:35.375983+05:30
Nellore,Andhra Pradesh,14.4426,79.9865,24.1,90,0.0,1009.1,8.35,64,3,0,4,1,2026-02-25T23:30:35.375991+05:30
Kurnool,Andhra Pradesh,15.8281,78.0373,25.3,69,0.0,979.5,8.15,110,7,5,7,1,2026-02-25T23:30:35.375999+05:30
Kakinada,Andhra Pradesh,16.9891,82.2475,23.9,91,0.0,1010.8,8.05,65,3,0,4,1,2026-02-25T23:30:35.376006+05:30
Tirupati,Andhra Pradesh,13.6288,79.4192,23.3,80,0.0,994.9,8.5,85,3,5,7,1,2026-02-25T23:30:35.376013+05:30
Warangal,Telangana,17.9689,79.5941,23.6,78,0.0,981.6,7.8,153,3,5,7,1,2026-02-25T23:30:35.376020+05:30
Nizamabad,Telangana,18.6725,78.0941,22.9,72,0.0,967.8,7.75,155,3,5,7,1,2026-02-25T23:30:35.376027+05:30
Mysore,Karnataka,12.2958,76.6396,22.1,81,0.0,930.2,8.85,113,3,5,7,1,2026-02-25T23:30:35.376034+05:30
Mangalore,Karnataka,12.9141,74.856,28.8,80,0.0,1009.3,8.45,119,7,0,4,1,2026-02-25T23:30:35.376041+05:30
Hubli-Dharwad,Karnataka,15.3647,75.124,22.5,75,0.0,942.8,8.35,125,3,5,7,1,2026-02-25T23:30:35.376048+05:30
Belgaum,Karnataka,15.8497,74.4977,22.0,55,0.0,927.6,8.4,127,0,5,7,0,2026-02-25T23:30:38.743384+05:30
Coimbatore,Tamil Nadu,11.0168,76.9558,22.9,87,0.0,964.4,8.9,92,3,5,7,1,2026-02-25T23:30:38.743416+05:30
Madurai,Tamil Nadu,9.9252,78.1198,24.6,89,0.0,996.8,8.85,100,3,5,7,1,2026-02-25T23:30:38.743426+05:30
Trichy,Tamil Nadu,10.7905,78.7047,25.8,89,0.0,1003.3,8.75,74,7,5,4,1,2026-02-25T23:30:38.743434+05:30
Salem,Tamil Nadu,11.6643,78.146,25.0,80,0.0,980.5,8.75,99,7,5,7,1,2026-02-25T23:30:38.743441+05:30
Tirunelveli,Tamil Nadu,8.7139,77.7567,23.8,93,0.0,1007.0,8.9,84,3,5,4,1,2026-02-25T23:30:38.743449+05:30
Vellore,Tamil Nadu,12.9165,79.1325,24.1,86,0.0,988.1,8.6,98,3,5,7,1,2026-02-25T23:30:38.743456+05:30
Erode,Tamil Nadu,11.341,77.7172,24.9,82,0.0,992.6,8.8,96,3,5,7,1,2026-02-25T23:30:38.743463+05:30
Kochi,Kerala,9.9312,76.2673,27.1,83,0.0,1011.8,8.65,83,7,0,4,1,2026-02-25T23:30:38.743470+05:30
Thiruvananthapuram,Kerala,8.5241,76.9366,27.5,81,0.0,1011.1,8.7,76,7,0,4,1,2026-02-25T23:30:38.743477+05:30
Kozhikode,Kerala,11.2588,75.7804,28.2,81,0.0,1010.3,8.55,75,7,0,4,1,2026-02-25T23:30:38.743485+05:30
Thrissur,Kerala,10.5276,76.2144,25.8,87,0.0,1010.0,8.55,80,7,0,4,1,2026-02-25T23:30:38.743493+05:30
Kannur,Kerala,11.8745,75.3704,27.6,83,0.0,1009.5,8.55,94,7,0,4,1,2026-02-25T23:30:38.743501+05:30
Patna,Bihar,25.5941,85.1376,19.7,72,0.0,1004.9,6.8,163,3,5,4,0,2026-02-25T23:30:38.743509+05:30
Gaya,Bihar,24.7914,85.0002,19.8,62,0.0,998.5,6.9,152,3,5,7,0,2026-02-25T23:30:38.743516+05:30
Muzaffarpur,Bihar,26.1209,85.3647,18.6,75,0.0,1004.6,6.75,168,3,5,4,0,2026-02-25T23:30:38.743523+05:30
Bhagalpur,Bihar,25.2425,87.0117,18.9,68,0.0,1005.3,6.85,157,3,5,4,0,2026-02-25T23:30:38.743530+05:30
Ranchi,Jharkhand,23.3441,85.3096,16.6,56,0.0,940.3,7.55,94,0,5,7,0,2026-02-25T23:30:38.743537+05:30
Jamshedpur,Jharkhand,22.8046,86.2029,21.6,59,0.0,994.8,7.45,148,0,5,7,0,2026-02-25T23:30:38.743544+05:30
Dhanbad,Jharkhand,23.7957,86.4304,20.3,51,0.0,983.5,7.35,149,0,5,7,0,2026-02-25T23:30:38.743551+05:30
Bokaro,Jharkhand,23.6693,86.1511,18.6,58,0.0,988.0,7.35,145,0,5,7,0,2026-02-25T23:30:38.743558+05:30
Bhubaneswar,Odisha,20.2961,85.8245,23.8,93,0.0,1006.2,7.75,153,3,5,4,1,2026-02-25T23:30:38.743565+05:30
Cuttack,Odisha,20.4625,85.8828,23.6,90,0.0,1008.1,7.8,153,3,0,4,1,2026-02-25T23:30:38.743572+05:30
Rourkela,Odisha,22.2604,84.8536,20.8,44,0.0,988.7,7.35,87,0,5,7,0,2026-02-25T23:30:38.743579+05:30
Raipur,Chhattisgarh,21.2514,81.6296,22.6,57,0.0,977.7,7.45,154,0,5,7,0,2026-02-25T23:30:38.743585+05:30
Bhilai,Chhattisgarh,21.1938,81.3509,22.0,58,0.0,978.1,7.5,154,0,5,7,0,2026-02-25T23:30:38.743592+05:30
Guwahati,Assam,26.1158,91.7086,20.1,82,0.0,1003.8,6.75,153,3,5,4,1,2026-02-25T23:30:38.743598+05:30
Agartala,Tripura,23.8315,91.2868,20.6,64,0.0,1009.0,7.1,159,3,0,4,0,2026-02-25T23:30:38.743606+05:30
Shillong,Meghalaya,25.5788,91.8933,8.5,92,0.0,854.6,6.15,117,3,10,7,0,2026-02-25T23:30:38.743612+05:30
Imphal,Manipur,24.817,93.9368,13.9,67,0.0,923.8,7.3,161,3,5,7,0,2026-02-25T23:30:38.743619+05:30
Aizawl,Mizoram,23.7271,92.7176,14.8,64,0.0,893.0,7.3,154,3,5,7,0,2026-02-25T23:30:38.743626+05:30
Kohima,Nagaland,25.6701,94.1077,12.0,80,0.0,854.2,6.65,155,3,5,7,0,2026-02-25T23:30:38.743633+05:30
Gangtok,Sikkim,27.3314,88.6138,10.3,78,0.0,836.0,7.05,120,3,5,7,0,2026-02-25T23:30:38.743640+05:30
Siliguri,West Bengal,26.7271,88.3953,18.2,61,0.0,996.5,6.75,163,3,5,7,0,2026-02-25T23:30:42.093191+05:30
Durgapur,West Bengal,23.5204,87.3119,21.8,53,0.0,998.7,7.3,151,0,5,7,0,2026-02-25T23:30:42.093228+05:30
Asansol,West Bengal,23.6739,86.9524,21.8,50,0.0,997.4,7.3,138,0,5,7,0,2026-02-25T23:30:42.093241+05:30
Pondicherry,Puducherry,11.9139,79.8145,25.2,93,0.0,1011.8,8.6,57,7,0,4,1,2026-02-25T23:30:42.093251+05:30
Port Blair,Andaman and Nicobar Islands,11.6234,92.7265,26.6,85,0.0,1008.0,8.55,26,7,0,4,1,2026-02-25T23:30:42.093261+05:30
Haridwar,Uttarakhand,29.9457,78.1642,16.6,90,0.0,978.4,5.3,151,3,10,3,0,2026-02-25T23:30:42.093270+05:30
Rishikesh,Uttarakhand,30.0869,78.2676,17.1,76,0.0,971.0,5.35,126,3,5,3,0,2026-02-25T23:30:42.093280+05:30
Nainital,Uttarakhand,29.3919,79.4542,12.8,58,0.0,805.8,6.1,120,0,5,7,0,2026-02-25T23:30:42.093288+05:30
Mussoorie,Uttarakhand,30.4599,78.0664,11.3,82,0.0,802.4,5.65,135,3,10,3,0,2026-02-25T23:30:42.093295+05:30
Dharamshala,Himachal Pradesh,32.219,76.3234,15.1,63,0.0,870.8,5.9,97,3,5,3,0,2026-02-25T23:30:42.093303+05:30
Dalhousie,Himachal Pradesh,32.5387,75.971,11.8,71,0.0,804.2,6.1,126,3,5,7,0,2026-02-25T23:30:42.093310+05:30
Patiala,Punjab,30.3398,76.3869,15.8,80,0.0,982.9,5.35,173,3,5,3,0,2026-02-25T23:30:42.093317+05:30
Bhatinda,Punjab,30.211,74.9455,18.2,76,0.0,988.6,6.0,155,3,5,3,0,2026-02-25T23:30:42.093325+05:30
Rohtak,Haryana,28.8955,76.6066,16.8,66,0.0,986.7,5.55,162,3,5,3,0,2026-02-25T23:30:42.093332+05:30
Panipat,Haryana,29.3909,76.9635,15.5,77,0.0,985.1,5.3,164,3,5,3,0,2026-02-25T23:30:42.093339+05:30
Mathura,Uttar Pradesh,27.4924,77.6737,16.5,68,0.0,991.8,5.75,161,3,5,3,0,2026-02-25T23:30:42.093346+05:30
Vrindavan,Uttar Pradesh,27.5823,77.7027,15.5,68,0.0,992.3,5.75,161,3,5,3,0,2026-02-25T23:30:42.093352+05:30
Ayodhya,Uttar Pradesh,26.7922,82.1998,17.3,72,0.0,999.7,6.1,164,3,5,7,0,2026-02-25T23:30:42.093359+05:30
Ratlam,Madhya Pradesh,23.3315,75.0367,15.9,91,0.0,956.8,7.05,92,3,10,7,0,2026-02-25T23:30:42.093366+05:30
Sagar,Madhya Pradesh,23.8388,78.7378,19.0,50,0.0,953.1,6.95,76,0,5,7,0,2026-02-25T23:30:42.093374+05:30
Satna,Madhya Pradesh,24.6005,80.8322,19.4,49,0.0,975.5,6.9,84,0,5,7,0,2026-02-25T23:30:42.093381+05:30
Akola,Maharashtra,20.7002,77.0082,24.1,60,0.0,978.0,7.45,106,0,5,7,0,2026-02-25T23:30:42.093389+05:30
Amravati,Maharashtra,20.9374,77.7796,22.5,70,0.0,970.1,7.4,115,3,5,7,1,2026-02-25T23:30:42.093396+05:30
Latur,Maharashtra,18.4088,76.5604,22.7,67,0.0,941.9,6.95,144,3,5,7,1,2026-02-25T23:30:42.093404+05:30
Nanded,Maharashtra,19.1383,77.3091,24.3,65,0.0,971.3,7.65,152,3,5,7,1,2026-02-25T23:30:42.093411+05:30
Gulbarga,Karnataka,17.3297,76.8343,24.0,67,0.0,961.4,5.6,130,3,5,3,1,2026-02-25T23:30:42.093418+05:30
Bidar,Karnataka,17.9104,77.5199,23.2,70,0.0,937.9,7.9,150,3,5,7,1,2026-02-25T23:30:42.093424+05:30
Hospet,Karnataka,15.2689,76.3909,26.0,61,0.0,958.3,8.2,109,7,5,7,1,2026-02-25T23:30:42.093431+05:30
Tirupur,Tamil Nadu,11.1085,77.3411,24.1,86,0.0,978.5,8.9,116,3,5,7,1,2026-02-25T23:30:42.093438+05:30
Alappuzha,Kerala,9.4981,76.3388,26.6,86,0.0,1012.0,8.6,78,7,0,4,1,2026-02-25T23:30:42.093446+05:30
Munnar,Kerala,10.0889,77.0595,19.7,96,0.0,858.5,9.15,94,3,10,7,1,2026-02-25T23:30:42.093453+05:30
Silchar,Assam,24.8333,92.7789,21.1,66,0.0,1007.5,7.05,159,3,5,4,0,2026-02-25T23:30:42.093460+05:30
Dibrugarh,Assam,27.4728,94.912,19.2,89,0.0,998.9,6.75,146,3,10,7,1,2026-02-25T23:30:42.093467+05:30
