city,state,latitude,longitude,temp,humidity,rain,pressure,uv_index,wind_gusts,aqi,pm10,pm2_5,no2,co,o3,so2,mosquito_risk,arthritis_risk,migraine_risk,frizz_risk,updated_at
Delhi,Delhi,28.6139,77.209,34.9,54,0.0,971.5,7.7,26.6,316,1043.1,180.7,9.1,299.0,133.0,10.9,0,5,7,1,2026-07-11T15:46:58.949341+05:30
Mumbai,Maharashtra,19.076,72.8777,29.2,77,0.0,1006.1,6.15,54.0,56,31.5,15.0,4.7,146.0,61.0,4.4,7,5,4,1,2026-07-11T15:46:58.949382+05:30
Bangalore,Karnataka,12.9716,77.5946,31.1,38,0.0,910.5,7.2,45.0,44,43.2,14.9,4.4,262.0,76.0,2.2,0,5,7,0,2026-07-11T15:46:58.949398+05:30
Hyderabad,Telangana,17.385,78.4867,32.8,43,0.0,949.9,8.2,48.2,65,49.7,17.7,3.0,187.0,88.0,2.5,0,5,7,1,2026-07-11T15:46:58.949407+05:30
Chennai,Tamil Nadu,13.0827,80.2707,36.0,43,0.0,1002.5,8.0,33.1,69,50.1,26.1,4.0,243.0,137.0,4.9,0,5,7,1,2026-07-11T15:46:58.949419+05:30
Kolkata,West Bengal,22.5726,88.3639,31.9,75,0.1,995.0,3.05,34.9,105,71.0,40.5,4.8,461.0,140.0,13.0,6,5,3,1,2026-07-11T15:46:58.949427+05:30
Pune,Maharashtra,18.5204,73.8567,28.1,68,0.0,945.8,7.8,57.6,36,26.9,11.0,2.2,125.0,61.0,3.2,7,5,7,1,2026-07-11T15:46:58.949435+05:30
Ahmedabad,Gujarat,23.0225,72.5714,36.6,42,0.0,994.3,5.65,49.7,68,59.1,23.1,2.1,132.0,86.0,3.0,0,5,6,1,2026-07-11T15:46:58.949442+05:30
Jaipur,Rajasthan,26.9124,75.7873,33.0,54,0.0,950.5,7.8,41.0,439,469.4,78.0,1.5,141.0,99.0,3.1,0,5,7,1,2026-07-11T15:46:58.949448+05:30
Lucknow,Uttar Pradesh,26.8467,80.9462,34.1,61,0.0,981.7,2.9,51.8,151,262.6,75.2,2.3,177.0,113.0,4.0,3,5,3,1,2026-07-11T15:46:58.949457+05:30
Kanpur,Uttar Pradesh,26.4499,80.3319,34.3,59,0.0,980.5,8.15,51.5,132,189.5,55.8,2.4,164.0,111.0,4.1,0,5,7,1,2026-07-11T15:46:58.949463+05:30
Chandigarh,Chandigarh,30.7333,76.7794,32.8,60,0.0,957.8,7.7,23.4,168,125.7,53.7,1.9,377.0,178.0,11.5,0,5,7,1,2026-07-11T15:46:58.949470+05:30
Srinagar,Jammu and Kashmir,34.0837,74.7973,29.0,46,0.0,835.3,9.05,28.8,115,14.8,13.1,3.6,356.0,164.0,2.6,4,5,7,1,2026-07-11T15:46:58.949476+05:30
Jammu,Jammu and Kashmir,32.7266,74.857,32.5,59,0.0,961.7,8.55,28.8,140,45.6,28.4,1.9,391.0,175.0,3.1,0,5,7,1,2026-07-11T15:46:58.949482+05:30
Amritsar,Punjab,31.634,74.8723,32.4,68,0.0,969.2,8.4,33.5,156,277.5,87.3,2.2,236.0,150.0,5.8,3,5,7,1,2026-07-11T15:46:58.949489+05:30
Ludhiana,Punjab,30.901,75.8573,33.9,61,0.0,967.3,7.95,47.9,153,384.6,102.9,1.5,357.0,144.0,5.2,3,5,7,1,2026-07-11T15:46:58.949495+05:30
Jalandhar,Punjab,31.326,75.5762,31.8,69,0.0,968.5,8.1,40.7,161,285.0,88.7,1.4,324.0,156.0,5.0,3,5,7,1,2026-07-11T15:46:58.949501+05:30
Dehradun,Uttarakhand,30.6284,78.0322,23.4,78,0.1,824.4,7.8,27.0,69,20.7,18.7,2.3,252.0,145.0,2.5,6,5,7,1,2026-07-11T15:46:58.949507+05:30
Shimla,Himachal Pradesh,31.1048,77.1734,17.4,98,0.0,778.8,3.85,31.7,154,45.2,36.0,2.3,361.0,178.0,11.0,3,10,3,1,2026-07-11T15:46:58.949514+05:30
Manali,Himachal Pradesh,32.2396,77.1887,23.2,87,0.0,814.0,7.8,25.6,60,8.0,7.4,4.7,204.0,157.0,0.8,3,5,7,1,2026-07-11T15:46:58.949530+05:30
Gurgaon,Haryana,28.4595,77.0266,35.1,53,0.0,970.1,7.5,30.2,420,752.5,143.0,8.1,241.0,127.0,7.9,0,5,10,1,2026-07-11T15:46:58.949537+05:30
Noida,Uttar Pradesh,28.5355,77.391,35.1,54,0.0,972.9,7.7,27.0,420,752.5,143.0,8.1,291.0,127.0,7.9,0,5,10,1,2026-07-11T15:46:58.949543+05:30
Ghaziabad,Uttar Pradesh,28.6692,77.4538,34.4,57,0.0,971.3,7.7,27.4,160,877.3,175.1,5.3,293.0,171.0,15.9,0,5,7,1,2026-07-11T15:46:58.949549+05:30
Faridabad,Haryana,28.4089,77.3178,34.8,54,0.0,972.3,7.7,25.9,420,752.5,143.0,8.1,242.0,127.0,7.9,0,5,7,1,2026-07-11T15:46:58.949555+05:30
Meerut,Uttar Pradesh,28.9845,77.7064,33.5,64,0.0,970.0,7.65,28.4,160,877.3,175.1,5.3,237.0,171.0,15.9,3,5,7,1,2026-07-11T15:46:58.949562+05:30
Agra,Uttar Pradesh,27.1767,78.0081,34.8,53,0.0,976.8,8.05,39.6,161,197.0,50.5,2.5,141.0,112.0,3.1,0,5,7,1,2026-07-11T15:46:58.949568+05:30
Varanasi,Uttar Pradesh,25.3176,82.9739,33.4,62,0.0,986.7,7.6,46.4,112,79.9,38.4,2.9,211.0,119.0,6.0,3,5,7,1,2026-07-11T15:46:58.949574+05:30
Prayagraj,Uttar Pradesh,25.4358,81.8463,33.7,59,0.0,985.1,8.45,44.3,116,91.3,40.7,2.8,160.0,117.0,5.9,0,5,7,1,2026-07-11T15:46:58.949581+05:30
Gorakhpur,Uttar Pradesh,26.7606,83.3732,29.1,88,0.1,985.7,6.05,39.2,94,117.6,50.5,4.4,333.0,142.0,8.9,10,5,7,1,2026-07-11T15:46:58.949587+05:30
Bareilly,Uttar Pradesh,28.367,79.4304,32.7,68,0.0,975.2,7.85,36.0,128,243.1,84.8,2.4,273.0,160.0,10.1,3,5,7,1,2026-07-11T15:46:58.949595+05:30
Aligarh,Uttar Pradesh,27.8974,78.088,34.5,55,0.0,974.4,7.75,33.1,189,1020.7,175.1,3.3,154.0,119.0,5.7,0,5,7,1,2026-07-11T15:46:58.949601+05:30
Moradabad,Uttar Pradesh,28.8386,78.7733,33.3,66,0.0,972.1,7.8,33.5,129,288.7,96.2,3.3,261.0,179.0,13.3,3,5,7,1,2026-07-11T15:46:58.949607+05:30
Saharanpur,Uttar Pradesh,29.9637,77.546,32.4,67,0.0,964.4,7.35,24.1,118,230.0,73.6,3.2,275.0,171.0,16.9,3,5,7,1,2026-07-11T15:46:58.949613+05:30
Jhansi,Uttar Pradesh,25.4484,78.5685,34.1,51,0.0,968.7,8.4,46.8,97,85.9,37.0,1.7,122.0,116.0,7.3,0,5,7,1,2026-07-11T15:47:02.315610+05:30
Surat,Gujarat,21.1702,72.8311,31.0,73,0.0,1002.3,5.4,64.1,61,36.4,19.1,6.9,192.0,51.0,19.3,3,5,0,1,2026-07-11T15:47:02.315639+05:30
Vadodara,Gujarat,22.3072,73.1812,33.2,60,0.0,997.9,7.85,54.0,62,44.1,18.3,2.7,132.0,77.0,3.3,0,5,7,1,2026-07-11T15:47:02.315650+05:30
Rajkot,Gujarat,22.3039,70.8022,34.6,48,0.0,987.6,7.2,60.5,60,55.4,22.4,1.2,98.0,75.0,3.1,0,5,7,1,2026-07-11T15:47:02.315658+05:30
Thane,Maharashtra,19.2183,72.9781,29.4,77,0.1,1005.4,6.55,46.1,56,31.5,15.0,4.7,141.0,61.0,4.4,10,5,4,1,2026-07-11T15:47:02.315667+05:30
Nagpur,Maharashtra,21.1458,79.0882,31.9,52,0.0,967.3,6.8,49.3,87,76.4,29.0,4.7,140.0,88.0,10.8,0,5,7,1,2026-07-11T15:47:02.315674+05:30
Nashik,Maharashtra,19.9975,73.7898,28.6,64,0.0,942.4,7.75,62.6,38,27.6,11.5,1.3,105.0,58.0,1.3,7,5,7,1,2026-07-11T15:47:02.315682+05:30
Aurangabad,Maharashtra,19.8762,75.3433,30.4,54,0.0,940.5,8.85,54.0,53,40.2,14.8,1.4,111.0,84.0,4.2,0,5,7,1,2026-07-11T15:47:02.315688+05:30
Solapur,Maharashtra,17.6599,75.9064,32.5,46,0.0,954.2,7.65,47.5,49,47.8,15.0,1.2,109.0,75.0,1.5,0,5,7,1,2026-07-11T15:47:02.315696+05:30
Kolhapur,Maharashtra,16.705,74.2433,26.9,73,0.0,946.9,7.55,51.5,38,32.1,12.5,2.0,116.0,60.0,1.7,7,5,7,1,2026-07-11T15:47:02.315702+05:30
Goa,Goa,15.2993,74.124,28.6,81,0.0,997.5,8.15,36.7,56,21.7,10.1,1.0,105.0,54.0,1.2,7,5,7,1,2026-07-11T15:47:02.315709+05:30
Jodhpur,Rajasthan,26.2389,73.0243,36.2,43,0.0,972.7,8.45,53.6,198,436.8,78.2,0.9,108.0,81.0,1.8,0,5,10,1,2026-07-11T15:47:02.315717+05:30
Udaipur,Rajasthan,24.5854,73.7125,31.2,54,0.0,939.1,8.4,54.4,73,51.3,20.4,1.1,113.0,77.0,2.4,0,5,7,1,2026-07-11T15:47:02.315724+05:30
Kota,Rajasthan,25.2138,75.8648,35.0,47,0.0,969.6,8.3,42.5,90,58.2,25.4,1.5,131.0,101.0,4.8,0,5,7,1,2026-07-11T15:47:02.315731+05:30
Bikaner,Rajasthan,28.0229,73.3119,38.1,38,0.0,970.0,8.45,42.5,156,138.3,44.7,0.5,108.0,89.0,3.1,0,5,10,1,2026-07-11T15:47:02.315738+05:30
Ajmer,Rajasthan,26.4499,74.6399,32.3,53,0.0,945.7,8.15,52.2,85,54.5,24.2,1.0,114.0,89.0,2.4,0,5,7,1,2026-07-11T15:47:02.315745+05:30
Gwalior,Madhya Pradesh,26.2183,78.1828,33.5,55,0.0,973.4,8.15,45.7,91,77.5,33.6,1.0,124.0,104.0,2.9,0,5,7,1,2026-07-11T15:47:02.315752+05:30
Indore,Madhya Pradesh,22.7196,75.8577,30.1,61,0.0,942.1,8.55,56.2,74,51.7,21.8,2.3,166.0,86.0,4.0,3,5,7,1,2026-07-11T15:47:02.315760+05:30
Bhopal,Madhya Pradesh,23.2599,77.4126,30.4,58,0.0,946.9,8.6,50.0,83,64.7,26.8,1.7,176.0,84.0,3.1,0,5,7,1,2026-07-11T15:47:02.315766+05:30
Jabalpur,Madhya Pradesh,23.1815,79.9864,30.5,60,0.0,954.6,7.15,42.8,86,53.4,22.6,1.3,152.0,96.0,3.8,0,5,7,1,2026-07-11T15:47:02.315773+05:30
Ujjain,Madhya Pradesh,23.1765,75.7885,30.6,58,0.0,947.4,8.25,54.0,73,53.7,21.8,1.5,143.0,84.0,3.2,0,5,7,1,2026-07-11T15:47:02.315781+05:30
Visakhapatnam,Andhra Pradesh,17.6868,83.2185,35.0,56,0.0,996.1,7.7,37.8,94,72.9,38.0,7.8,255.0,148.0,24.9,0,5,7,1,2026-07-11T15:47:02.315788+05:30
Vijayawada,Andhra Pradesh,16.5062,80.648,35.6,46,0.0,997.2,5.25,42.1,90,43.2,18.6,2.6,129.0,88.0,3.8,0,5,6,1,2026-07-11T15:47:02.315795+05:30
Guntur,Andhra Pradesh,16.3067,80.4365,36.8,39,0.0,998.3,4.85,45.7,86,41.9,17.5,2.5,132.0,84.0,3.1,0,5,6,1,2026-07-11T15:47:02.315803+05:30
Nellore,Andhra Pradesh,14.4426,79.9865,37.3,35,0.0,1000.6,7.7,40.0,65,56.8,24.1,3.3,113.0,111.0,5.2,0,5,7,1,2026-07-11T15:47:02.315811+05:30
Kurnool,Andhra Pradesh,15.8281,78.0373,35.6,34,0.0,972.9,7.4,48.6,60,50.6,18.3,2.2,118.0,84.0,4.6,0,5,10,1,2026-07-11T15:47:02.315818+05:30
Kakinada,Andhra Pradesh,16.9891,82.2475,35.1,50,0.0,1000.9,5.7,46.8,80,56.3,28.8,3.2,157.0,133.0,4.9,0,5,3,1,2026-07-11T15:47:02.315825+05:30
Tirupati,Andhra Pradesh,13.6288,79.4192,37.3,33,0.0,986.5,8.2,38.2,62,56.7,17.8,1.9,108.0,80.0,1.2,0,5,10,1,2026-07-11T15:47:02.315832+05:30
Warangal,Telangana,17.9689,79.5941,32.2,52,0.0,974.2,5.2,42.8,78,53.1,19.6,1.9,129.0,87.0,2.8,0,5,3,1,2026-07-11T15:47:02.315839+05:30
Nizamabad,Telangana,18.6725,78.0941,31.2,54,0.0,960.7,8.55,46.8,73,61.0,22.3,1.6,125.0,89.0,3.8,0,5,7,1,2026-07-11T15:47:02.315845+05:30
Mysore,Karnataka,12.2958,76.6396,28.9,58,0.0,927.2,6.0,44.3,32,23.4,9.0,2.1,125.0,76.0,1.4,4,5,3,1,2026-07-11T15:47:02.315852+05:30
Mangalore,Karnataka,12.9141,74.856,28.2,80,0.1,1006.7,8.3,44.3,53,21.6,10.0,1.1,90.0,55.0,1.4,10,5,4,1,2026-07-11T15:47:02.315859+05:30
Hubli-Dharwad,Karnataka,15.3647,75.124,28.7,62,0.0,939.9,7.4,49.3,35,21.7,8.4,1.5,106.0,60.0,1.2,7,5,7,1,2026-07-11T15:47:02.315866+05:30
Belgaum,Karnataka,15.8497,74.4977,26.7,67,0.0,925.0,7.8,50.4,32,29.8,10.6,1.5,99.0,52.0,1.3,7,5,7,1,2026-07-11T15:47:05.683631+05:30
Coimbatore,Tamil Nadu,11.0168,76.9558,29.9,64,0.0,960.0,7.95,48.2,33,15.7,7.5,1.9,141.0,74.0,2.0,7,5,7,1,2026-07-11T15:47:05.683663+05:30
Madurai,Tamil Nadu,9.9252,78.1198,35.6,41,0.1,989.7,8.2,25.6,55,22.6,9.7,2.0,151.0,87.0,1.8,3,5,10,1,2026-07-11T15:47:05.683673+05:30
Trichy,Tamil Nadu,10.7905,78.7047,36.0,40,0.0,996.0,7.85,46.4,46,27.2,11.3,1.6,116.0,85.0,1.8,0,5,10,1,2026-07-11T15:47:05.683682+05:30
Salem,Tamil Nadu,11.6643,78.146,34.0,48,0.0,974.3,7.95,29.9,59,38.3,15.1,2.3,173.0,101.0,4.4,0,5,7,1,2026-07-11T15:47:05.683690+05:30
Tirunelveli,Tamil Nadu,8.7139,77.7567,36.6,39,0.0,1000.0,8.4,48.2,29,7.8,4.5,1.7,111.0,69.0,1.2,0,5,7,1,2026-07-11T15:47:05.683698+05:30
Vellore,Tamil Nadu,12.9165,79.1325,37.7,31,0.0,980.1,8.65,40.7,54,57.3,20.6,2.6,135.0,98.0,2.1,0,5,10,1,2026-07-11T15:47:05.683705+05:30
Erode,Tamil Nadu,11.341,77.7172,37.1,37,0.1,985.6,7.85,36.0,50,27.2,11.5,2.5,148.0,94.0,1.9,3,5,10,1,2026-07-11T15:47:05.683712+05:30
Kochi,Kerala,9.9312,76.2673,28.3,81,0.0,1008.5,7.45,34.6,51,16.6,8.0,2.3,111.0,60.0,2.0,7,0,4,1,2026-07-11T15:47:05.683720+05:30
Thiruvananthapuram,Kerala,8.5241,76.9366,28.3,81,0.0,1007.2,8.0,47.9,38,13.3,7.7,2.0,95.0,68.0,1.1,7,5,4,1,2026-07-11T15:47:05.683727+05:30
Kozhikode,Kerala,11.2588,75.7804,28.3,80,0.0,1007.7,7.5,39.6,41,22.0,9.4,0.5,95.0,58.0,1.0,7,5,4,1,2026-07-11T15:47:05.683733+05:30
Thrissur,Kerala,10.5276,76.2144,28.8,77,0.0,1006.8,7.75,38.5,53,19.2,8.6,1.7,101.0,59.0,1.5,7,5,4,1,2026-07-11T15:47:05.683740+05:30
Kannur,Kerala,11.8745,75.3704,29.5,75,0.0,1007.0,8.2,45.4,50,23.1,9.9,0.9,91.0,56.0,1.1,7,5,4,1,2026-07-11T15:47:05.683747+05:30
Patna,Bihar,25.5941,85.1376,30.7,79,0.0,989.1,6.25,34.2,97,79.2,44.6,7.4,286.0,115.0,6.9,3,5,7,1,2026-07-11T15:47:05.683753+05:30
Gaya,Bihar,24.7914,85.0002,31.6,71,0.0,983.3,7.2,41.4,95,38.0,26.4,9.7,202.0,79.0,10.3,3,5,7,1,2026-07-11T15:47:05.683759+05:30
Muzaffarpur,Bihar,26.1209,85.3647,31.6,75,0.0,988.5,4.85,36.4,102,60.5,34.6,7.4,270.0,115.0,6.3,3,5,3,1,2026-07-11T15:47:05.683765+05:30
Bhagalpur,Bihar,25.2425,87.0117,29.7,84,0.0,989.2,7.25,24.8,83,24.9,18.5,6.2,235.0,106.0,7.4,7,5,7,1,2026-07-11T15:47:05.683772+05:30
Ranchi,Jharkhand,23.3441,85.3096,25.0,93,0.4,929.6,7.55,40.7,94,29.7,20.5,6.3,200.0,77.0,3.2,10,5,7,1,2026-07-11T15:47:05.683778+05:30
Jamshedpur,Jharkhand,22.8046,86.2029,30.9,75,0.0,981.4,8.55,35.6,109,60.8,39.2,6.9,241.0,122.0,17.5,3,5,7,1,2026-07-11T15:47:05.683785+05:30
Dhanbad,Jharkhand,23.7957,86.4304,29.3,80,0.0,970.1,8.3,40.7,128,36.7,32.4,28.1,203.0,58.0,60.9,7,5,7,1,2026-07-11T15:47:05.683792+05:30
Bokaro,Jharkhand,23.6693,86.1511,29.3,81,0.1,974.1,8.1,33.5,122,30.9,27.9,22.0,210.0,60.0,48.7,10,5,7,1,2026-07-11T15:47:05.683798+05:30
Bhubaneswar,Odisha,20.2961,85.8245,31.7,71,0.1,993.7,8.25,37.1,82,77.5,38.3,4.3,235.0,124.0,8.7,6,5,7,1,2026-07-11T15:47:05.683805+05:30
Cuttack,Odisha,20.4625,85.8828,33.3,66,0.0,995.2,8.4,35.6,82,77.5,38.3,4.3,212.0,124.0,8.7,3,5,7,1,2026-07-11T15:47:05.683811+05:30
Rourkela,Odisha,22.2604,84.8536,31.4,66,0.0,976.5,8.1,37.4,132,71.9,39.2,3.5,239.0,125.0,11.4,3,5,7,1,2026-07-11T15:47:05.683818+05:30
Raipur,Chhattisgarh,21.2514,81.6296,31.7,56,0.1,967.8,7.6,41.4,119,70.1,34.2,10.2,133.0,105.0,26.9,3,5,7,1,2026-07-11T15:47:05.683825+05:30
Bhilai,Chhattisgarh,21.1938,81.3509,31.7,56,0.1,968.2,7.4,43.6,112,66.1,31.4,8.6,322.0,106.0,21.9,3,5,7,1,2026-07-11T15:47:05.683831+05:30
Guwahati,Assam,26.1158,91.7086,30.6,79,0.1,988.7,8.55,31.0,43,10.4,10.4,3.1,254.0,107.0,2.1,6,5,7,1,2026-07-11T15:47:05.683837+05:30
Agartala,Tripura,23.8315,91.2868,27.9,95,0.3,995.6,7.8,33.8,69,42.4,34.9,8.3,242.0,128.0,6.9,10,5,7,1,2026-07-11T15:47:05.683844+05:30
Shillong,Meghalaya,25.5788,91.8933,24.1,79,0.0,849.5,3.95,27.4,39,2.6,2.6,5.2,241.0,91.0,2.7,3,5,3,1,2026-07-11T15:47:05.683850+05:30
Imphal,Manipur,24.817,93.9368,27.9,73,0.0,913.7,8.5,29.9,42,4.3,4.0,2.5,203.0,87.0,1.4,7,5,7,1,2026-07-11T15:47:05.683856+05:30
Aizawl,Mizoram,23.7271,92.7176,23.4,80,0.0,884.6,8.5,43.2,41,4.5,3.1,1.9,160.0,93.0,2.4,3,5,7,1,2026-07-11T15:47:05.683863+05:30
Kohima,Nagaland,25.6701,94.1077,23.0,98,0.2,847.5,6.4,20.9,42,4.1,3.8,2.2,171.0,81.0,1.4,6,5,7,1,2026-07-11T15:47:05.683869+05:30
Gangtok,Sikkim,27.3314,88.6138,22.2,93,0.1,830.8,8.5,31.7,49,3.5,3.4,2.5,257.0,110.0,1.0,6,5,7,1,2026-07-11T15:47:05.683875+05:30
Siliguri,West Bengal,26.7271,88.3953,30.1,81,0.1,980.7,5.0,25.6,94,16.4,16.2,5.0,428.0,118.0,2.2,6,5,3,1,2026-07-11T15:47:09.054168+05:30
Durgapur,West Bengal,23.5204,87.3119,30.8,77,0.0,984.8,6.75,40.7,133,52.9,43.8,25.8,239.0,94.0,49.8,3,5,7,1,2026-07-11T15:47:09.054200+05:30
Asansol,West Bengal,23.6739,86.9524,30.1,81,0.0,983.4,7.3,42.5,117,39.5,33.2,26.0,239.0,73.0,44.1,3,5,7,1,2026-07-11T15:47:09.054211+05:30
Pondicherry,Puducherry,11.9139,79.8145,34.1,56,0.0,1004.0,8.15,41.4,66,53.0,28.1,6.7,187.0,140.0,8.6,0,5,4,1,2026-07-11T15:47:09.054220+05:30
Port Blair,Andaman and Nicobar Islands,11.6234,92.7265,29.6,73,0.1,1004.3,8.8,57.2,35,16.9,8.4,0.3,95.0,41.0,0.5,10,5,4,1,2026-07-11T15:47:09.054228+05:30
Haridwar,Uttarakhand,29.9457,78.1642,32.6,67,0.1,962.8,7.5,22.3,111,83.6,43.1,1.5,362.0,179.0,12.3,6,5,7,1,2026-07-11T15:47:09.054236+05:30
Rishikesh,Uttarakhand,30.0869,78.2676,30.9,70,0.1,955.8,7.15,22.7,93,32.7,27.8,1.4,303.0,162.0,6.6,6,5,7,1,2026-07-11T15:47:09.054244+05:30
Nainital,Uttarakhand,29.3919,79.4542,20.0,93,0.1,799.6,3.75,23.8,94,45.6,27.2,2.4,241.0,149.0,8.4,6,5,3,1,2026-07-11T15:47:09.054252+05:30
Mussoorie,Uttarakhand,30.4599,78.0664,22.3,77,0.0,798.2,7.85,32.4,105,42.8,34.6,2.0,267.0,175.0,7.3,3,5,7,1,2026-07-11T15:47:09.054260+05:30
Dharamshala,Himachal Pradesh,32.219,76.3234,24.2,81,0.0,862.0,8.4,27.4,114,18.3,14.2,0.8,328.0,156.0,1.9,3,5,7,1,2026-07-11T15:47:09.054267+05:30
Dalhousie,Himachal Pradesh,32.5387,75.971,20.9,88,0.0,799.4,8.6,18.0,157,44.5,29.7,1.8,380.0,180.0,4.0,3,5,7,1,2026-07-11T15:47:09.054275+05:30
Patiala,Punjab,30.3398,76.3869,33.7,62,0.0,966.7,7.5,24.5,145,506.6,119.7,1.3,225.0,145.0,6.2,3,5,7,1,2026-07-11T15:47:09.054282+05:30
Bhatinda,Punjab,30.211,74.9455,37.0,46,0.0,971.5,8.25,27.0,176,317.6,113.2,2.7,139.0,149.0,11.7,0,5,10,1,2026-07-11T15:47:09.054289+05:30
Rohtak,Haryana,28.8955,76.6066,35.3,54,0.0,970.2,7.65,32.0,671,1005.8,162.1,3.7,181.0,112.0,3.0,0,5,10,1,2026-07-11T15:47:09.054296+05:30
Panipat,Haryana,29.3909,76.9635,34.2,61,0.0,968.7,7.55,19.8,738,1285.2,200.7,4.0,231.0,126.0,10.7,3,5,7,1,2026-07-11T15:47:09.054303+05:30
Mathura,Uttar Pradesh,27.4924,77.6737,34.8,54,0.0,975.9,7.85,32.4,396,691.0,105.0,3.1,160.0,113.0,2.9,0,5,7,1,2026-07-11T15:47:09.054310+05:30
Vrindavan,Uttar Pradesh,27.5823,77.7027,35.2,52,0.0,976.1,7.9,30.6,396,691.0,105.0,3.1,157.0,113.0,2.9,0,5,10,1,2026-07-11T15:47:09.054317+05:30
Ayodhya,Uttar Pradesh,26.7922,82.1998,31.9,75,0.0,983.5,6.95,40.7,131,172.3,72.9,3.7,258.0,125.0,5.7,3,5,7,1,2026-07-11T15:47:09.054323+05:30
Ratlam,Madhya Pradesh,23.3315,75.0367,30.7,59,0.0,948.5,5.6,55.8,71,53.1,21.5,1.2,117.0,84.0,3.3,0,5,3,1,2026-07-11T15:47:09.054330+05:30
Sagar,Madhya Pradesh,23.8388,78.7378,30.7,53,0.0,943.0,7.9,52.6,88,78.0,29.2,1.0,135.0,94.0,2.9,0,5,7,1,2026-07-11T15:47:09.054337+05:30
Satna,Madhya Pradesh,24.6005,80.8322,32.3,58,0.0,962.4,8.15,45.0,100,65.9,30.6,1.1,140.0,108.0,4.0,0,5,7,1,2026-07-11T15:47:09.054345+05:30
Akola,Maharashtra,20.7002,77.0082,32.8,49,0.0,969.9,8.75,50.8,69,67.5,22.3,1.8,109.0,86.0,5.1,0,5,7,1,2026-07-11T15:47:09.054353+05:30
Amravati,Maharashtra,20.9374,77.7796,32.1,51,0.0,962.0,8.2,50.4,71,69.4,23.4,2.0,114.0,88.0,5.8,0,5,7,1,2026-07-11T15:47:09.054361+05:30
Latur,Maharashtra,18.4088,76.5604,31.5,46,0.0,936.8,8.6,46.4,53,58.7,18.1,1.1,116.0,80.0,1.9,0,5,7,1,2026-07-11T15:47:09.054368+05:30
Nanded,Maharashtra,19.1383,77.3091,32.5,48,0.0,964.3,8.2,49.0,64,69.6,22.2,1.7,132.0,82.0,2.4,0,5,7,1,2026-07-11T15:47:09.054375+05:30
Gulbarga,Karnataka,17.3297,76.8343,32.7,45,0.0,955.4,7.75,50.0,54,50.4,16.1,1.9,113.0,81.0,1.9,0,5,7,1,2026-07-11T15:47:09.054382+05:30
Bidar,Karnataka,17.9104,77.5199,31.3,50,0.0,932.5,6.2,47.9,61,63.6,19.6,2.1,121.0,81.0,1.8,0,5,7,1,2026-07-11T15:47:09.054389+05:30
Hospet,Karnataka,15.2689,76.3909,33.0,41,0.0,953.8,8.3,49.0,42,40.4,14.9,2.2,111.0,68.0,1.9,0,5,7,1,2026-07-11T15:47:09.054395+05:30
Tirupur,Tamil Nadu,11.1085,77.3411,33.0,52,0.0,972.8,8.05,52.9,52,26.4,11.1,2.3,134.0,90.0,2.3,0,5,7,1,2026-07-11T15:47:09.054402+05:30
Alappuzha,Kerala,9.4981,76.3388,28.3,80,0.0,1008.5,8.0,40.0,45,16.5,9.1,2.8,87.0,64.0,2.1,7,0,4,1,2026-07-11T15:47:09.054409+05:30
Munnar,Kerala,10.0889,77.0595,19.6,91,0.1,857.0,8.15,37.8,23,6.7,3.2,1.8,98.0,53.0,1.1,6,10,7,1,2026-07-11T15:47:09.054416+05:30
Silchar,Assam,24.8333,92.7789,30.0,83,0.1,993.5,7.95,29.9,41,5.4,5.0,2.7,230.0,91.0,3.0,10,5,7,1,2026-07-11T15:47:09.054423+05:30
Dibrugarh,Assam,27.4728,94.912,30.5,85,0.2,982.8,6.55,28.4,51,7.8,7.5,3.6,178.0,95.0,1.7,6,5,7,1,2026-07-11T15:47:09.054430+05:30
