city,state,latitude,longitude,temp,humidity,rain,pressure,uv_index,wind_gusts,aqi,pm10,pm2_5,mosquito_risk,arthritis_risk,migraine_risk,frizz_risk,updated_at
Delhi,Delhi,28.6139,77.209,29.8,32,0.0,981.5,6.85,40.7,153,230.5,36.0,4,5,7,0,2026-04-05T16:07:55.941149+05:30
Mumbai,Maharashtra,19.076,72.8777,27.8,68,0.0,1008.1,7.9,23.4,69,32.1,16.9,7,0,4,1,2026-04-05T16:07:55.941189+05:30
Bangalore,Karnataka,12.9716,77.5946,32.0,39,0.0,910.2,9.65,28.8,108,29.0,23.7,0,5,7,1,2026-04-05T16:07:55.941204+05:30
Hyderabad,Telangana,17.385,78.4867,35.5,31,0.0,950.5,9.1,26.3,120,51.9,42.0,0,5,10,0,2026-04-05T16:07:55.941214+05:30
Chennai,Tamil Nadu,13.0827,80.2707,33.3,62,0.0,1003.8,9.3,37.8,79,28.3,22.7,3,5,4,1,2026-04-05T16:07:55.941222+05:30
Kolkata,West Bengal,22.5726,88.3639,30.4,58,0.0,1004.0,8.6,29.2,134,44.7,38.0,0,5,4,1,2026-04-05T16:07:55.941230+05:30
Pune,Maharashtra,18.5204,73.8567,32.1,40,0.0,947.5,8.5,39.6,73,32.1,15.4,0,5,7,1,2026-04-05T16:07:55.941242+05:30
Ahmedabad,Gujarat,23.0225,72.5714,34.5,21,0.0,1000.9,7.9,28.1,69,31.9,10.1,0,5,4,0,2026-04-05T16:07:55.941250+05:30
Jaipur,Rajasthan,26.9124,75.7873,30.7,20,0.0,958.2,7.55,34.6,93,181.6,24.1,0,5,7,0,2026-04-05T16:07:55.941257+05:30
Lucknow,Uttar Pradesh,26.8467,80.9462,31.7,33,0.0,990.9,7.4,44.3,118,100.8,24.6,0,5,7,0,2026-04-05T16:07:55.941264+05:30
Kanpur,Uttar Pradesh,26.4499,80.3319,30.6,39,0.0,989.6,7.45,40.7,145,240.3,35.4,0,5,7,0,2026-04-05T16:07:55.941271+05:30
Chandigarh,Chandigarh,30.7333,76.7794,28.7,29,0.0,967.5,6.85,34.6,77,47.0,17.2,4,5,7,0,2026-04-05T16:07:55.941279+05:30
Srinagar,Jammu and Kashmir,34.0837,74.7973,15.8,57,0.0,839.3,7.1,18.4,59,32.7,11.0,0,5,7,0,2026-04-05T16:07:55.941286+05:30
Jammu,Jammu and Kashmir,32.7266,74.857,27.4,37,0.0,972.4,7.5,24.5,64,45.9,14.8,4,5,7,0,2026-04-05T16:07:55.941293+05:30
Amritsar,Punjab,31.634,74.8723,28.1,32,0.0,980.1,7.45,29.5,96,51.1,19.3,4,5,7,0,2026-04-05T16:07:55.941300+05:30
Ludhiana,Punjab,30.901,75.8573,28.8,31,0.0,977.8,7.05,29.5,97,94.1,23.6,4,5,7,0,2026-04-05T16:07:55.941306+05:30
Jalandhar,Punjab,31.326,75.5762,28.6,31,0.0,979.1,7.25,25.6,88,80.1,20.4,4,5,7,0,2026-04-05T16:07:55.941315+05:30
Dehradun,Uttarakhand,30.6284,78.0322,17.8,50,0.0,828.3,6.65,39.2,59,19.8,7.7,0,5,7,0,2026-04-05T16:07:55.941322+05:30
Shimla,Himachal Pradesh,31.1048,77.1734,14.5,61,0.0,782.9,5.35,29.5,57,30.9,15.6,3,5,3,0,2026-04-05T16:07:55.941328+05:30
Manali,Himachal Pradesh,32.2396,77.1887,14.1,88,0.0,816.4,9.4,29.2,79,13.8,5.8,3,10,7,0,2026-04-05T16:07:55.941336+05:30
Gurgaon,Haryana,28.4595,77.0266,29.1,37,0.0,980.1,6.65,35.6,191,644.5,70.1,4,5,7,0,2026-04-05T16:07:55.941343+05:30
Noida,Uttar Pradesh,28.5355,77.391,29.7,35,0.0,983.1,6.9,39.2,191,644.5,70.1,4,5,7,0,2026-04-05T16:07:55.941349+05:30
Ghaziabad,Uttar Pradesh,28.6692,77.4538,29.9,33,0.0,981.2,6.05,42.1,151,127.1,29.4,4,5,7,0,2026-04-05T16:07:55.941355+05:30
Faridabad,Haryana,28.4089,77.3178,28.6,39,0.0,982.6,6.2,36.4,191,644.5,70.1,4,5,7,0,2026-04-05T16:07:55.941361+05:30
Meerut,Uttar Pradesh,28.9845,77.7064,29.5,34,0.0,979.7,6.5,34.6,151,127.1,29.4,4,5,7,0,2026-04-05T16:07:55.941369+05:30
Agra,Uttar Pradesh,27.1767,78.0081,26.8,60,0.0,987.2,7.3,34.2,287,432.1,54.7,4,5,7,1,2026-04-05T16:07:55.941376+05:30
Varanasi,Uttar Pradesh,25.3176,82.9739,32.7,37,0.0,995.0,8.1,32.4,93,33.4,17.2,0,5,7,1,2026-04-05T16:07:55.941386+05:30
Prayagraj,Uttar Pradesh,25.4358,81.8463,32.1,38,0.0,993.7,7.95,30.2,96,34.1,15.7,0,5,7,0,2026-04-05T16:07:55.941394+05:30
Gorakhpur,Uttar Pradesh,26.7606,83.3732,33.5,21,0.0,993.8,7.85,45.4,89,43.4,16.1,0,5,7,0,2026-04-05T16:07:55.941400+05:30
Bareilly,Uttar Pradesh,28.367,79.4304,29.6,37,0.0,984.9,7.2,40.7,83,65.4,24.4,4,5,7,0,2026-04-05T16:07:55.941406+05:30
Aligarh,Uttar Pradesh,27.8974,78.088,28.1,48,0.0,984.8,7.1,31.0,169,197.9,41.8,4,5,7,0,2026-04-05T16:07:55.941412+05:30
Moradabad,Uttar Pradesh,28.8386,78.7733,29.4,34,0.0,981.7,7.0,29.2,96,73.3,25.3,4,5,7,0,2026-04-05T16:07:55.941418+05:30
Saharanpur,Uttar Pradesh,29.9637,77.546,30.5,23,0.0,973.3,6.6,33.8,89,56.0,15.4,0,5,7,0,2026-04-05T16:07:55.941424+05:30
Jhansi,Uttar Pradesh,25.4484,78.5685,32.6,27,0.0,974.9,7.85,33.1,56,21.8,10.0,0,5,7,0,2026-04-05T16:07:59.151696+05:30
Surat,Gujarat,21.1702,72.8311,30.0,51,0.0,1006.4,7.65,27.7,78,46.6,34.1,4,5,4,1,2026-04-05T16:07:59.151726+05:30
Vadodara,Gujarat,22.3072,73.1812,33.9,27,0.0,1003.1,7.9,19.8,74,25.2,13.6,0,5,4,0,2026-04-05T16:07:59.151736+05:30
Rajkot,Gujarat,22.3039,70.8022,33.8,25,0.0,993.7,7.65,34.6,72,29.9,10.3,0,5,7,0,2026-04-05T16:07:59.151744+05:30
Thane,Maharashtra,19.2183,72.9781,29.5,57,0.0,1007.5,7.9,34.9,69,32.1,16.9,4,5,4,1,2026-04-05T16:07:59.151751+05:30
Nagpur,Maharashtra,21.1458,79.0882,34.9,27,0.0,970.2,8.7,29.5,94,34.5,19.1,0,5,7,0,2026-04-05T16:07:59.151758+05:30
Nashik,Maharashtra,19.9975,73.7898,29.8,43,0.0,944.5,8.15,36.0,56,32.2,12.7,4,5,7,0,2026-04-05T16:07:59.151766+05:30
Aurangabad,Maharashtra,19.8762,75.3433,33.9,24,0.0,942.2,8.85,37.1,56,39.5,14.7,0,5,7,0,2026-04-05T16:07:59.151772+05:30
Solapur,Maharashtra,17.6599,75.9064,36.4,22,0.0,954.6,8.6,29.9,78,28.2,15.8,0,5,10,0,2026-04-05T16:07:59.151780+05:30
Kolhapur,Maharashtra,16.705,74.2433,31.5,38,0.0,946.9,9.05,45.0,68,27.2,13.4,0,5,7,0,2026-04-05T16:07:59.151787+05:30
Goa,Goa,15.2993,74.124,31.3,60,0.0,996.5,9.05,38.5,63,49.8,17.8,0,5,7,1,2026-04-05T16:07:59.151793+05:30
Jodhpur,Rajasthan,26.2389,73.0243,32.1,22,0.0,982.2,7.6,26.3,85,85.7,13.2,0,5,7,0,2026-04-05T16:07:59.151801+05:30
Udaipur,Rajasthan,24.5854,73.7125,28.2,25,0.0,946.1,8.3,34.2,79,25.3,7.8,4,5,7,0,2026-04-05T16:07:59.151808+05:30
Kota,Rajasthan,25.2138,75.8648,33.3,18,0.0,976.6,7.6,31.7,79,73.3,15.0,0,5,7,0,2026-04-05T16:07:59.151815+05:30
Bikaner,Rajasthan,28.0229,73.3119,31.1,24,0.0,981.3,7.6,26.6,64,19.3,8.4,0,5,7,0,2026-04-05T16:07:59.151822+05:30
Ajmer,Rajasthan,26.4499,74.6399,29.6,24,0.0,953.4,7.75,31.0,64,86.1,14.2,4,5,7,0,2026-04-05T16:07:59.151828+05:30
Gwalior,Madhya Pradesh,26.2183,78.1828,30.4,40,0.0,981.0,7.6,50.8,62,36.0,12.0,0,5,7,0,2026-04-05T16:07:59.151861+05:30
Indore,Madhya Pradesh,22.7196,75.8577,31.2,22,0.0,946.8,8.3,31.0,86,17.4,10.9,0,5,7,0,2026-04-05T16:07:59.151871+05:30
Bhopal,Madhya Pradesh,23.2599,77.4126,32.4,23,0.0,951.6,8.3,33.8,71,22.8,7.7,0,5,7,0,2026-04-05T16:07:59.151878+05:30
Jabalpur,Madhya Pradesh,23.1815,79.9864,32.1,35,0.0,959.2,8.5,31.0,74,37.5,15.4,0,5,7,0,2026-04-05T16:07:59.151885+05:30
Ujjain,Madhya Pradesh,23.1765,75.7885,31.4,21,0.0,952.4,8.2,32.8,71,13.7,6.4,0,5,7,0,2026-04-05T16:07:59.151892+05:30
Visakhapatnam,Andhra Pradesh,17.6868,83.2185,31.9,66,0.0,1001.3,9.1,36.0,74,42.5,37.1,3,5,4,1,2026-04-05T16:07:59.151899+05:30
Vijayawada,Andhra Pradesh,16.5062,80.648,34.8,50,0.0,999.3,8.45,24.1,73,38.2,30.3,0,5,7,1,2026-04-05T16:07:59.151905+05:30
Guntur,Andhra Pradesh,16.3067,80.4365,33.8,55,0.0,1000.5,8.7,31.7,72,36.9,29.1,0,5,4,1,2026-04-05T16:07:59.151912+05:30
Nellore,Andhra Pradesh,14.4426,79.9865,34.4,60,0.0,1002.1,9.3,32.0,89,30.4,24.7,0,5,4,1,2026-04-05T16:07:59.151919+05:30
Kurnool,Andhra Pradesh,15.8281,78.0373,38.4,26,0.0,972.9,9.2,33.8,134,51.1,43.0,0,5,10,0,2026-04-05T16:07:59.151927+05:30
Kakinada,Andhra Pradesh,16.9891,82.2475,34.4,52,0.0,1004.3,9.15,29.5,56,22.5,16.6,0,5,4,1,2026-04-05T16:07:59.151933+05:30
Tirupati,Andhra Pradesh,13.6288,79.4192,36.4,37,0.0,987.7,8.6,36.0,100,36.6,31.1,0,5,10,1,2026-04-05T16:07:59.151940+05:30
Warangal,Telangana,17.9689,79.5941,34.2,48,0.0,976.0,8.8,37.4,147,63.3,51.5,0,5,7,1,2026-04-05T16:07:59.151946+05:30
Nizamabad,Telangana,18.6725,78.0941,35.5,26,0.0,962.3,8.85,55.1,116,32.1,17.7,0,5,10,0,2026-04-05T16:07:59.151953+05:30
Mysore,Karnataka,12.2958,76.6396,31.2,44,0.0,926.8,9.15,36.7,81,27.0,21.9,0,5,7,1,2026-04-05T16:07:59.151959+05:30
Mangalore,Karnataka,12.9141,74.856,29.4,77,0.0,1004.6,9.15,34.6,65,20.9,13.2,7,5,4,1,2026-04-05T16:07:59.151965+05:30
Hubli-Dharwad,Karnataka,15.3647,75.124,33.8,29,0.0,939.1,9.25,38.5,63,21.5,16.5,0,5,7,0,2026-04-05T16:07:59.151972+05:30
Belgaum,Karnataka,15.8497,74.4977,30.9,40,0.0,924.8,9.3,38.5,60,21.9,11.1,0,5,7,0,2026-04-05T16:08:02.371583+05:30
Coimbatore,Tamil Nadu,11.0168,76.9558,32.1,51,0.0,959.6,9.5,45.0,89,28.6,24.6,0,5,7,1,2026-04-05T16:08:02.371616+05:30
Madurai,Tamil Nadu,9.9252,78.1198,34.9,44,0.0,989.8,2.05,23.8,118,23.6,21.0,0,5,3,1,2026-04-05T16:08:02.371628+05:30
Trichy,Tamil Nadu,10.7905,78.7047,38.3,34,0.0,995.1,9.2,36.7,110,37.1,32.2,0,5,10,1,2026-04-05T16:08:02.371636+05:30
Salem,Tamil Nadu,11.6643,78.146,37.6,32,0.0,973.5,9.2,25.9,128,33.3,28.6,0,5,10,1,2026-04-05T16:08:02.371644+05:30
Tirunelveli,Tamil Nadu,8.7139,77.7567,37.6,30,0.0,998.9,9.4,27.4,63,15.9,14.2,0,5,10,1,2026-04-05T16:08:02.371651+05:30
Vellore,Tamil Nadu,12.9165,79.1325,36.2,36,0.0,980.7,9.45,32.8,124,42.6,36.1,0,5,10,1,2026-04-05T16:08:02.371658+05:30
Erode,Tamil Nadu,11.341,77.7172,38.5,34,0.0,984.5,9.45,27.0,112,29.9,25.3,0,5,10,1,2026-04-05T16:08:02.371665+05:30
Kochi,Kerala,9.9312,76.2673,29.6,78,0.0,1006.3,8.25,31.7,63,17.0,13.9,7,5,4,1,2026-04-05T16:08:02.371673+05:30
Thiruvananthapuram,Kerala,8.5241,76.9366,29.5,80,0.0,1005.4,9.2,38.5,54,18.9,13.4,7,5,4,1,2026-04-05T16:08:02.371679+05:30
Kozhikode,Kerala,11.2588,75.7804,30.5,74,0.0,1005.7,9.2,33.8,56,27.6,15.8,3,5,4,1,2026-04-05T16:08:02.371686+05:30
Thrissur,Kerala,10.5276,76.2144,32.5,63,0.0,1004.8,9.15,36.7,62,19.3,16.1,3,5,4,1,2026-04-05T16:08:02.371693+05:30
Kannur,Kerala,11.8745,75.3704,31.7,62,0.0,1004.9,9.2,38.5,68,27.4,15.9,3,5,4,1,2026-04-05T16:08:02.371699+05:30
Patna,Bihar,25.5941,85.1376,34.4,32,0.0,996.6,8.25,45.0,73,23.2,13.8,0,5,7,0,2026-04-05T16:08:02.371705+05:30
Gaya,Bihar,24.7914,85.0002,34.5,31,0.0,990.3,8.35,41.4,74,30.4,16.9,0,5,7,0,2026-04-05T16:08:02.371712+05:30
Muzaffarpur,Bihar,26.1209,85.3647,34.6,27,0.0,996.2,8.2,33.5,75,19.7,10.5,0,5,7,0,2026-04-05T16:08:02.371718+05:30
Bhagalpur,Bihar,25.2425,87.0117,33.4,38,0.0,997.4,8.35,30.2,78,21.7,15.1,0,5,7,1,2026-04-05T16:08:02.371725+05:30
Ranchi,Jharkhand,23.3441,85.3096,29.8,39,0.0,936.4,8.9,45.7,97,38.3,22.5,4,5,7,0,2026-04-05T16:08:02.371731+05:30
Jamshedpur,Jharkhand,22.8046,86.2029,33.7,40,0.0,988.4,8.6,18.0,107,42.1,29.9,0,5,7,1,2026-04-05T16:08:02.371737+05:30
Dhanbad,Jharkhand,23.7957,86.4304,34.1,32,0.0,977.0,8.7,37.4,97,33.4,23.8,0,5,7,0,2026-04-05T16:08:02.371744+05:30
Bokaro,Jharkhand,23.6693,86.1511,33.4,34,0.0,981.0,8.65,38.2,96,36.0,25.0,0,5,7,0,2026-04-05T16:08:02.371750+05:30
Bhubaneswar,Odisha,20.2961,85.8245,29.8,74,0.0,1001.3,8.65,26.3,148,50.5,45.1,7,5,4,1,2026-04-05T16:08:02.371757+05:30
Cuttack,Odisha,20.4625,85.8828,30.4,68,0.0,1003.1,8.6,25.2,148,50.5,45.1,3,5,4,1,2026-04-05T16:08:02.371763+05:30
Rourkela,Odisha,22.2604,84.8536,34.6,36,0.0,982.6,8.65,29.9,100,42.8,30.3,0,5,7,1,2026-04-05T16:08:02.371769+05:30
Raipur,Chhattisgarh,21.2514,81.6296,35.1,33,0.0,971.8,8.7,30.2,148,52.7,42.8,0,5,10,1,2026-04-05T16:08:02.371775+05:30
Bhilai,Chhattisgarh,21.1938,81.3509,34.4,37,0.0,972.3,8.7,32.0,143,48.8,38.3,0,5,7,1,2026-04-05T16:08:02.371781+05:30
Guwahati,Assam,26.1158,91.7086,31.0,44,0.0,996.8,7.45,44.6,141,23.7,15.3,0,5,7,1,2026-04-05T16:08:02.371787+05:30
Agartala,Tripura,23.8315,91.2868,31.2,63,0.0,1003.6,8.4,31.7,128,44.4,32.5,3,5,4,1,2026-04-05T16:08:02.371793+05:30
Shillong,Meghalaya,25.5788,91.8933,18.6,65,0.0,854.6,8.1,67.0,105,35.4,26.5,3,5,7,0,2026-04-05T16:08:02.371799+05:30
Imphal,Manipur,24.817,93.9368,22.4,70,0.0,921.0,8.85,83.9,146,46.6,40.5,3,5,7,1,2026-04-05T16:08:02.371806+05:30
Aizawl,Mizoram,23.7271,92.7176,23.5,69,0.0,892.1,8.5,51.8,150,47.0,40.6,3,5,7,1,2026-04-05T16:08:02.371812+05:30
Kohima,Nagaland,25.6701,94.1077,21.2,56,0.0,853.4,8.2,95.0,110,38.9,32.8,0,5,7,0,2026-04-05T16:08:02.371817+05:30
Gangtok,Sikkim,27.3314,88.6138,16.8,84,0.0,835.4,8.35,24.5,109,42.8,32.2,3,10,7,0,2026-04-05T16:08:02.371824+05:30
Siliguri,West Bengal,26.7271,88.3953,26.9,57,0.0,989.9,8.2,36.4,156,35.3,23.4,4,5,7,1,2026-04-05T16:08:05.585474+05:30
Durgapur,West Bengal,23.5204,87.3119,33.0,41,0.0,992.5,8.0,38.2,109,31.5,23.0,0,5,7,1,2026-04-05T16:08:05.585507+05:30
Asansol,West Bengal,23.6739,86.9524,33.0,43,0.0,991.0,8.05,36.0,87,32.1,23.2,0,5,7,1,2026-04-05T16:08:05.585519+05:30
Pondicherry,Puducherry,11.9139,79.8145,37.1,43,0.0,1003.8,9.35,27.0,81,29.5,25.3,0,5,7,1,2026-04-05T16:08:05.585528+05:30
Port Blair,Andaman and Nicobar Islands,11.6234,92.7265,29.2,72,0.0,1005.3,9.25,22.7,38,9.4,6.7,7,5,4,1,2026-04-05T16:08:05.585538+05:30
Haridwar,Uttarakhand,29.9457,78.1642,31.1,24,0.0,971.7,6.7,27.7,69,34.6,12.3,0,5,7,0,2026-04-05T16:08:05.585547+05:30
Rishikesh,Uttarakhand,30.0869,78.2676,29.9,29,0.0,964.6,6.65,27.7,55,28.2,10.4,4,5,7,0,2026-04-05T16:08:05.585556+05:30
Nainital,Uttarakhand,29.3919,79.4542,20.5,47,0.0,804.9,6.8,31.7,62,33.4,15.0,0,5,7,0,2026-04-05T16:08:05.585565+05:30
Mussoorie,Uttarakhand,30.4599,78.0664,18.9,41,0.0,801.2,5.8,45.7,60,26.2,9.8,0,5,3,0,2026-04-05T16:08:05.585573+05:30
Dharamshala,Himachal Pradesh,32.219,76.3234,18.9,68,0.0,867.7,7.3,32.8,69,15.9,5.4,3,5,7,0,2026-04-05T16:08:05.585581+05:30
Dalhousie,Himachal Pradesh,32.5387,75.971,17.1,59,0.0,802.4,7.25,25.2,57,39.0,12.6,0,5,7,0,2026-04-05T16:08:05.585590+05:30
Patiala,Punjab,30.3398,76.3869,29.0,31,0.0,977.1,6.75,33.5,111,328.8,43.5,4,5,7,0,2026-04-05T16:08:05.585598+05:30
Bhatinda,Punjab,30.211,74.9455,28.7,32,0.0,983.0,7.3,30.2,89,77.1,23.0,4,5,7,0,2026-04-05T16:08:05.585606+05:30
Rohtak,Haryana,28.8955,76.6066,30.0,32,0.0,980.1,5.7,36.7,150,353.9,39.9,4,5,3,0,2026-04-05T16:08:05.585615+05:30
Panipat,Haryana,29.3909,76.9635,29.7,32,0.0,978.8,6.75,32.0,191,480.6,51.8,4,5,7,0,2026-04-05T16:08:05.585622+05:30
Mathura,Uttar Pradesh,27.4924,77.6737,28.8,42,0.0,985.9,6.3,31.3,241,328.8,46.8,4,5,7,0,2026-04-05T16:08:05.585630+05:30
Vrindavan,Uttar Pradesh,27.5823,77.7027,27.9,48,0.0,986.5,6.05,31.0,241,328.8,46.8,4,5,7,0,2026-04-05T16:08:05.585637+05:30
Ayodhya,Uttar Pradesh,26.7922,82.1998,32.4,34,0.0,992.4,7.6,46.1,107,41.0,16.6,0,5,7,0,2026-04-05T16:08:05.585645+05:30
Ratlam,Madhya Pradesh,23.3315,75.0367,30.9,24,0.0,953.7,8.1,33.5,74,14.9,6.1,0,5,7,0,2026-04-05T16:08:05.585653+05:30
Sagar,Madhya Pradesh,23.8388,78.7378,32.0,21,0.0,947.9,7.8,33.1,65,23.2,7.4,0,5,7,0,2026-04-05T16:08:05.585658+05:30
Satna,Madhya Pradesh,24.6005,80.8322,32.3,33,0.0,968.8,8.3,30.6,73,30.6,13.2,0,5,7,0,2026-04-05T16:08:05.585665+05:30
Akola,Maharashtra,20.7002,77.0082,36.1,24,0.0,972.3,8.65,36.4,71,32.5,15.4,0,5,10,0,2026-04-05T16:08:05.585671+05:30
Amravati,Maharashtra,20.9374,77.7796,36.1,22,0.0,964.4,8.65,34.9,78,33.8,15.8,0,5,10,0,2026-04-05T16:08:05.585679+05:30
Latur,Maharashtra,18.4088,76.5604,34.2,25,0.0,937.7,9.0,30.2,90,31.0,14.6,0,5,7,0,2026-04-05T16:08:05.585685+05:30
Nanded,Maharashtra,19.1383,77.3091,36.1,24,0.0,966.0,8.85,28.4,100,33.2,16.1,0,5,10,0,2026-04-05T16:08:05.585692+05:30
Gulbarga,Karnataka,17.3297,76.8343,36.4,23,0.0,956.1,8.95,34.6,96,24.9,15.7,0,5,10,0,2026-04-05T16:08:05.585699+05:30
Bidar,Karnataka,17.9104,77.5199,34.9,24,0.0,933.5,8.9,33.5,119,29.6,17.6,0,5,7,0,2026-04-05T16:08:05.585705+05:30
Hospet,Karnataka,15.2689,76.3909,35.5,29,0.0,953.4,9.2,29.2,80,20.5,16.8,0,5,10,0,2026-04-05T16:08:05.585710+05:30
Tirupur,Tamil Nadu,11.1085,77.3411,34.8,43,0.0,972.2,9.55,32.0,109,31.0,26.3,0,5,7,1,2026-04-05T16:08:05.585717+05:30
Alappuzha,Kerala,9.4981,76.3388,29.6,79,0.0,1006.4,8.9,30.6,62,18.5,13.9,7,5,4,1,2026-04-05T16:08:05.585723+05:30
Munnar,Kerala,10.0889,77.0595,25.8,72,0.0,856.9,9.75,38.5,58,20.7,18.1,7,5,7,1,2026-04-05T16:08:05.585730+05:30
Silchar,Assam,24.8333,92.7789,28.3,74,0.0,1002.8,8.4,33.1,156,52.5,45.2,7,5,4,1,2026-04-05T16:08:05.585736+05:30
Dibrugarh,Assam,27.4728,94.912,23.7,86,0.0,991.4,7.5,49.3,147,50.9,38.2,3,5,7,1,2026-04-05T16:08:05.585742+05:30
