city,state,latitude,longitude,temp,humidity,rain,pressure,uv_index,wind_gusts,aqi,pm10,pm2_5,mosquito_risk,arthritis_risk,migraine_risk,frizz_risk,updated_at
Delhi,Delhi,28.6139,77.209,22.1,68,0.0,983.9,5.9,18.0,461,427.5,102.0,3,5,3,0,2026-03-06T01:23:52.262534+05:30
Mumbai,Maharashtra,19.076,72.8777,27.6,73,0.0,1009.1,7.45,25.2,118,29.5,28.0,7,0,4,1,2026-03-06T01:23:52.262590+05:30
Bangalore,Karnataka,12.9716,77.5946,21.1,56,0.0,911.3,9.15,20.5,86,36.0,33.1,0,5,7,0,2026-03-06T01:23:52.262607+05:30
Hyderabad,Telangana,17.385,78.4867,24.7,49,0.0,953.5,8.45,23.8,92,53.8,51.8,0,5,7,0,2026-03-06T01:23:52.262617+05:30
Chennai,Tamil Nadu,13.0827,80.2707,24.5,94,0.0,1007.7,8.9,32.8,92,25.6,22.0,3,5,4,1,2026-03-06T01:23:52.262626+05:30
Kolkata,West Bengal,22.5726,88.3639,22.1,90,0.0,1006.9,7.8,15.5,168,128.5,114.6,3,5,4,1,2026-03-06T01:23:52.262635+05:30
Pune,Maharashtra,18.5204,73.8567,21.8,60,0.0,948.9,8.0,27.4,81,38.1,36.6,0,5,7,0,2026-03-06T01:23:52.262646+05:30
Ahmedabad,Gujarat,23.0225,72.5714,22.7,55,0.0,1004.5,7.25,19.8,69,51.1,49.7,0,5,4,0,2026-03-06T01:23:52.262654+05:30
Jaipur,Rajasthan,26.9124,75.7873,25.4,35,0.0,961.2,6.7,21.6,100,115.0,29.6,4,5,7,0,2026-03-06T01:23:52.262661+05:30
Lucknow,Uttar Pradesh,26.8467,80.9462,21.9,79,0.0,994.8,6.4,21.6,169,185.8,109.4,3,5,7,1,2026-03-06T01:23:52.262669+05:30
Kanpur,Uttar Pradesh,26.4499,80.3319,21.4,79,0.0,993.1,6.4,13.0,178,284.1,94.8,3,5,7,1,2026-03-06T01:23:52.262675+05:30
Chandigarh,Chandigarh,30.7333,76.7794,20.7,75,0.0,968.9,5.8,23.4,97,46.9,41.0,3,5,3,1,2026-03-06T01:23:52.262683+05:30
Srinagar,Jammu and Kashmir,34.0837,74.7973,8.2,81,0.0,839.3,6.5,16.2,149,95.0,78.2,3,10,7,0,2026-03-06T01:23:52.262691+05:30
Jammu,Jammu and Kashmir,32.7266,74.857,18.2,92,0.0,973.1,5.9,20.2,111,67.3,54.9,3,10,3,1,2026-03-06T01:23:52.262698+05:30
Amritsar,Punjab,31.634,74.8723,19.4,74,0.0,981.3,6.15,14.4,144,85.9,74.0,3,5,7,0,2026-03-06T01:23:52.262705+05:30
Ludhiana,Punjab,30.901,75.8573,22.2,68,0.0,979.3,6.05,14.4,156,112.7,82.7,3,5,7,0,2026-03-06T01:23:52.262711+05:30
Jalandhar,Punjab,31.326,75.5762,19.7,82,0.0,980.4,6.2,14.8,156,104.8,91.5,3,10,7,1,2026-03-06T01:23:52.262720+05:30
Dehradun,Uttarakhand,30.6284,78.0322,13.5,54,0.0,828.5,6.15,25.9,67,37.1,31.3,0,5,7,0,2026-03-06T01:23:52.262726+05:30
Shimla,Himachal Pradesh,31.1048,77.1734,13.4,50,0.0,783.9,6.25,29.9,66,45.4,27.4,0,5,7,0,2026-03-06T01:23:52.262733+05:30
Manali,Himachal Pradesh,32.2396,77.1887,18.7,26,0.0,822.2,7.0,36.4,56,29.9,20.7,0,5,7,1,2026-03-06T01:23:52.262740+05:30
Gurgaon,Haryana,28.4595,77.0266,19.7,72,0.0,982.1,6.05,15.8,1524,856.8,141.6,3,5,7,0,2026-03-06T01:23:52.262747+05:30
Noida,Uttar Pradesh,28.5355,77.391,22.1,69,0.0,985.4,5.95,16.9,1524,856.8,141.6,3,5,3,1,2026-03-06T01:23:52.262754+05:30
Ghaziabad,Uttar Pradesh,28.6692,77.4538,22.0,72,0.0,983.6,5.9,13.7,325,461.9,117.1,3,5,3,1,2026-03-06T01:23:52.262760+05:30
Faridabad,Haryana,28.4089,77.3178,23.2,55,0.0,984.6,5.95,16.6,1524,856.8,141.6,0,5,3,0,2026-03-06T01:23:52.262767+05:30
Meerut,Uttar Pradesh,28.9845,77.7064,20.2,84,0.0,982.1,5.75,13.3,325,461.9,117.1,3,5,3,1,2026-03-06T01:23:52.262773+05:30
Agra,Uttar Pradesh,27.1767,78.0081,20.2,64,0.0,988.7,6.3,18.0,530,642.6,109.7,3,5,7,0,2026-03-06T01:23:52.262779+05:30
Varanasi,Uttar Pradesh,25.3176,82.9739,21.6,74,0.0,998.9,7.1,18.0,159,164.4,100.8,3,5,7,1,2026-03-06T01:23:52.262788+05:30
Prayagraj,Uttar Pradesh,25.4358,81.8463,21.3,80,0.0,997.4,6.95,15.5,161,173.7,106.2,3,5,7,1,2026-03-06T01:23:52.262795+05:30
Gorakhpur,Uttar Pradesh,26.7606,83.3732,20.1,76,0.0,998.9,6.75,17.6,173,141.6,114.3,3,5,7,0,2026-03-06T01:23:52.262801+05:30
Bareilly,Uttar Pradesh,28.367,79.4304,19.7,88,0.0,988.0,6.1,20.9,170,107.6,82.2,3,10,7,1,2026-03-06T01:23:52.262807+05:30
Aligarh,Uttar Pradesh,27.8974,78.088,20.0,73,0.0,986.6,6.0,18.7,748,754.4,152.7,3,5,3,0,2026-03-06T01:23:52.262816+05:30
Moradabad,Uttar Pradesh,28.8386,78.7733,19.6,89,0.0,984.7,5.9,24.8,174,99.4,80.1,3,10,3,1,2026-03-06T01:23:52.262822+05:30
Saharanpur,Uttar Pradesh,29.9637,77.546,18.4,91,0.0,976.2,5.55,25.6,161,229.6,103.6,3,10,3,1,2026-03-06T01:23:52.262830+05:30
Jhansi,Uttar Pradesh,25.4484,78.5685,21.0,62,0.0,979.0,6.9,24.8,59,33.1,21.9,3,5,7,0,2026-03-06T01:23:55.483238+05:30
Surat,Gujarat,21.1702,72.8311,24.5,69,0.0,1008.3,7.15,22.7,111,53.9,52.3,3,0,4,1,2026-03-06T01:23:55.483270+05:30
Vadodara,Gujarat,22.3072,73.1812,24.9,47,0.0,1006.2,7.25,18.7,82,42.7,42.0,0,5,4,0,2026-03-06T01:23:55.483280+05:30
Rajkot,Gujarat,22.3039,70.8022,21.9,77,0.0,997.1,7.1,23.0,57,14.9,13.4,3,5,7,1,2026-03-06T01:23:55.483288+05:30
Thane,Maharashtra,19.2183,72.9781,26.4,60,0.0,1008.6,7.4,35.6,118,29.5,28.0,4,0,4,1,2026-03-06T01:23:55.483295+05:30
Nagpur,Maharashtra,21.1458,79.0882,22.6,48,0.0,973.7,7.8,26.3,55,22.5,16.2,0,5,7,0,2026-03-06T01:23:55.483303+05:30
Nashik,Maharashtra,19.9975,73.7898,22.8,49,0.0,946.8,7.6,33.1,78,24.2,22.4,0,5,7,0,2026-03-06T01:23:55.483310+05:30
Aurangabad,Maharashtra,19.8762,75.3433,23.4,47,0.0,944.9,8.15,24.1,71,32.0,27.9,0,5,7,0,2026-03-06T01:23:55.483316+05:30
Solapur,Maharashtra,17.6599,75.9064,24.7,50,0.0,957.1,8.4,18.0,94,23.8,22.4,0,5,7,0,2026-03-06T01:23:55.483323+05:30
Kolhapur,Maharashtra,16.705,74.2433,18.5,69,0.0,947.6,8.55,30.2,151,79.9,78.9,3,5,7,0,2026-03-06T01:23:55.483330+05:30
Goa,Goa,15.2993,74.124,25.6,92,0.0,998.3,8.6,31.3,152,75.0,72.4,7,5,7,1,2026-03-06T01:23:55.483337+05:30
Jodhpur,Rajasthan,26.2389,73.0243,22.1,33,0.0,984.8,6.95,21.2,76,95.0,21.1,0,5,7,0,2026-03-06T01:23:55.483344+05:30
Udaipur,Rajasthan,24.5854,73.7125,18.6,35,0.0,948.2,7.6,22.7,55,16.6,16.0,0,5,7,0,2026-03-06T01:23:55.483351+05:30
Kota,Rajasthan,25.2138,75.8648,20.7,60,0.0,980.1,7.0,16.6,78,52.5,33.3,0,5,7,0,2026-03-06T01:23:55.483358+05:30
Bikaner,Rajasthan,28.0229,73.3119,23.4,39,0.0,983.1,6.65,22.7,62,17.7,10.8,0,5,7,0,2026-03-06T01:23:55.483365+05:30
Ajmer,Rajasthan,26.4499,74.6399,22.8,42,0.0,956.3,6.95,22.3,69,33.4,15.9,0,5,7,0,2026-03-06T01:23:55.483371+05:30
Gwalior,Madhya Pradesh,26.2183,78.1828,22.2,62,0.0,984.4,6.6,22.0,75,153.7,41.9,3,5,7,0,2026-03-06T01:23:55.483378+05:30
Indore,Madhya Pradesh,22.7196,75.8577,19.8,57,0.0,949.3,7.55,22.0,78,41.4,30.9,0,5,7,0,2026-03-06T01:23:55.483384+05:30
Bhopal,Madhya Pradesh,23.2599,77.4126,20.6,52,0.0,954.8,7.4,24.8,64,35.4,26.2,0,5,7,0,2026-03-06T01:23:55.483391+05:30
Jabalpur,Madhya Pradesh,23.1815,79.9864,23.2,47,0.0,962.2,7.5,26.6,61,43.8,26.8,0,5,7,0,2026-03-06T01:23:55.483397+05:30
Ujjain,Madhya Pradesh,23.1765,75.7885,19.7,58,0.0,954.9,7.45,18.0,107,61.5,53.0,0,5,7,0,2026-03-06T01:23:55.483404+05:30
Visakhapatnam,Andhra Pradesh,17.6868,83.2185,24.6,89,0.0,1002.7,8.45,34.6,114,45.3,42.4,3,5,4,1,2026-03-06T01:23:55.483410+05:30
Vijayawada,Andhra Pradesh,16.5062,80.648,24.8,74,0.0,1002.1,8.55,17.3,113,49.0,47.6,3,5,4,1,2026-03-06T01:23:55.483417+05:30
Guntur,Andhra Pradesh,16.3067,80.4365,24.0,78,0.0,1003.2,8.55,17.3,106,48.2,46.6,3,5,4,1,2026-03-06T01:23:55.483423+05:30
Nellore,Andhra Pradesh,14.4426,79.9865,24.4,81,0.0,1005.9,8.75,29.2,95,31.0,29.3,3,5,4,1,2026-03-06T01:23:55.483431+05:30
Kurnool,Andhra Pradesh,15.8281,78.0373,27.6,39,0.0,976.6,8.55,20.5,75,17.9,16.5,4,5,7,0,2026-03-06T01:23:55.483438+05:30
Kakinada,Andhra Pradesh,16.9891,82.2475,23.0,92,0.0,1006.7,8.5,34.9,102,38.6,34.8,3,5,4,1,2026-03-06T01:23:55.483445+05:30
Tirupati,Andhra Pradesh,13.6288,79.4192,23.5,68,0.0,992.3,8.85,28.8,123,54.9,53.0,3,5,7,1,2026-03-06T01:23:55.483451+05:30
Warangal,Telangana,17.9689,79.5941,25.2,47,0.0,978.0,8.3,25.9,86,28.5,26.9,4,5,7,0,2026-03-06T01:23:55.483457+05:30
Nizamabad,Telangana,18.6725,78.0941,21.7,58,0.0,964.8,8.2,29.5,84,32.5,30.9,0,5,7,0,2026-03-06T01:23:55.483465+05:30
Mysore,Karnataka,12.2958,76.6396,21.8,91,0.0,928.4,9.2,37.4,110,60.3,59.0,3,5,7,1,2026-03-06T01:23:55.483472+05:30
Mangalore,Karnataka,12.9141,74.856,28.7,78,0.0,1007.3,8.8,25.6,132,52.6,48.7,7,5,4,1,2026-03-06T01:23:55.483478+05:30
Hubli-Dharwad,Karnataka,15.3647,75.124,21.0,94,0.0,940.7,8.75,25.9,90,31.7,30.6,3,5,7,1,2026-03-06T01:23:55.483485+05:30
Belgaum,Karnataka,15.8497,74.4977,21.6,73,0.0,925.6,8.8,33.1,119,57.3,55.8,3,5,7,1,2026-03-06T01:23:58.704538+05:30
Coimbatore,Tamil Nadu,11.0168,76.9558,22.6,94,0.0,962.3,9.15,41.8,106,54.9,53.7,3,5,7,1,2026-03-06T01:23:58.704568+05:30
Madurai,Tamil Nadu,9.9252,78.1198,24.7,87,0.0,993.9,9.15,29.9,86,39.1,37.7,3,5,7,1,2026-03-06T01:23:58.704622+05:30
Trichy,Tamil Nadu,10.7905,78.7047,23.5,96,0.0,1000.4,9.05,25.9,96,28.1,26.8,3,5,4,1,2026-03-06T01:23:58.704631+05:30
Salem,Tamil Nadu,11.6643,78.146,23.6,75,0.0,977.6,9.05,14.8,97,46.0,43.3,3,5,7,1,2026-03-06T01:23:58.704639+05:30
Tirunelveli,Tamil Nadu,8.7139,77.7567,24.9,78,0.0,1004.0,9.15,46.4,74,37.1,36.2,3,5,4,1,2026-03-06T01:23:58.704646+05:30
Vellore,Tamil Nadu,12.9165,79.1325,22.9,77,0.0,985.4,8.95,31.3,122,51.5,49.2,3,5,7,1,2026-03-06T01:23:58.704654+05:30
Erode,Tamil Nadu,11.341,77.7172,25.1,69,0.0,989.9,9.05,21.6,102,31.2,29.4,7,5,7,1,2026-03-06T01:23:58.704661+05:30
Kochi,Kerala,9.9312,76.2673,27.8,81,0.0,1009.2,9.0,37.8,143,64.0,63.1,7,0,4,1,2026-03-06T01:23:58.704668+05:30
Thiruvananthapuram,Kerala,8.5241,76.9366,27.6,80,0.0,1008.6,9.05,33.1,91,32.6,29.5,7,0,4,1,2026-03-06T01:23:58.704675+05:30
Kozhikode,Kerala,11.2588,75.7804,28.3,82,0.0,1008.2,8.85,28.8,125,48.1,43.4,7,0,4,1,2026-03-06T01:23:58.704681+05:30
Thrissur,Kerala,10.5276,76.2144,26.8,89,0.0,1007.5,8.95,38.9,143,78.2,75.9,7,5,4,1,2026-03-06T01:23:58.704689+05:30
Kannur,Kerala,11.8745,75.3704,28.0,80,0.0,1007.6,8.85,30.6,130,46.4,43.3,7,5,4,1,2026-03-06T01:23:58.704697+05:30
Patna,Bihar,25.5941,85.1376,23.1,68,0.0,1001.9,7.25,23.4,165,115.5,89.9,3,5,4,1,2026-03-06T01:23:58.704704+05:30
Gaya,Bihar,24.7914,85.0002,20.9,73,0.0,995.0,7.35,19.4,151,85.2,68.7,3,5,7,0,2026-03-06T01:23:58.704710+05:30
Muzaffarpur,Bihar,26.1209,85.3647,20.6,74,0.0,1002.1,7.2,23.4,169,134.1,106.9,3,5,4,0,2026-03-06T01:23:58.704717+05:30
Bhagalpur,Bihar,25.2425,87.0117,22.7,62,0.0,1002.7,7.3,18.4,163,96.9,82.2,3,5,4,0,2026-03-06T01:23:58.704723+05:30
Ranchi,Jharkhand,23.3441,85.3096,19.1,66,0.0,937.6,8.0,27.7,127,133.2,69.8,3,5,7,0,2026-03-06T01:23:58.704729+05:30
Jamshedpur,Jharkhand,22.8046,86.2029,23.5,64,0.0,991.5,7.9,21.6,158,96.9,65.4,3,5,7,1,2026-03-06T01:23:58.704735+05:30
Dhanbad,Jharkhand,23.7957,86.4304,23.6,54,0.0,980.7,7.75,28.4,167,113.6,92.7,0,5,7,0,2026-03-06T01:23:58.704741+05:30
Bokaro,Jharkhand,23.6693,86.1511,23.1,60,0.0,985.0,7.75,30.6,170,163.0,123.9,0,5,7,0,2026-03-06T01:23:58.704748+05:30
Bhubaneswar,Odisha,20.2961,85.8245,24.6,91,0.0,1002.7,8.2,31.0,146,36.0,30.0,3,5,4,1,2026-03-06T01:23:58.704755+05:30
Cuttack,Odisha,20.4625,85.8828,24.7,91,0.0,1004.8,8.25,33.8,146,36.0,30.0,3,5,4,1,2026-03-06T01:23:58.704761+05:30
Rourkela,Odisha,22.2604,84.8536,25.2,56,0.0,985.0,7.8,13.7,123,77.5,48.5,4,5,7,0,2026-03-06T01:23:58.704767+05:30
Raipur,Chhattisgarh,21.2514,81.6296,25.2,40,0.0,974.5,7.9,25.2,116,42.5,34.1,4,5,7,0,2026-03-06T01:23:58.704774+05:30
Bhilai,Chhattisgarh,21.1938,81.3509,24.1,43,0.0,974.7,7.9,25.9,90,34.0,24.3,0,5,7,0,2026-03-06T01:23:58.704780+05:30
Guwahati,Assam,26.1158,91.7086,23.9,75,0.0,1002.9,7.25,23.4,132,57.4,54.1,3,5,4,1,2026-03-06T01:23:58.704787+05:30
Agartala,Tripura,23.8315,91.2868,20.9,75,0.0,1007.4,7.6,20.9,159,117.8,105.7,3,5,4,1,2026-03-06T01:23:58.704793+05:30
Shillong,Meghalaya,25.5788,91.8933,10.4,83,0.0,854.7,7.6,36.0,110,40.9,38.0,3,10,7,0,2026-03-06T01:23:58.704799+05:30
Imphal,Manipur,24.817,93.9368,14.8,72,0.0,923.6,7.8,30.6,141,62.9,58.6,3,5,7,0,2026-03-06T01:23:58.704807+05:30
Aizawl,Mizoram,23.7271,92.7176,17.0,68,0.0,892.4,7.7,30.6,154,79.9,71.2,3,5,7,0,2026-03-06T01:23:58.704813+05:30
Kohima,Nagaland,25.6701,94.1077,14.8,69,0.0,855.3,7.65,43.2,120,45.4,41.9,3,5,7,0,2026-03-06T01:23:58.704819+05:30
Gangtok,Sikkim,27.3314,88.6138,13.7,96,0.0,838.1,7.55,20.2,96,40.7,37.1,3,10,7,0,2026-03-06T01:23:58.704825+05:30
Siliguri,West Bengal,26.7271,88.3953,21.6,65,0.0,995.8,7.2,24.8,131,58.0,54.4,3,5,7,0,2026-03-06T01:24:01.927800+05:30
Durgapur,West Bengal,23.5204,87.3119,23.4,57,0.0,996.2,7.75,25.6,160,95.5,77.5,0,5,7,0,2026-03-06T01:24:01.927831+05:30
Asansol,West Bengal,23.6739,86.9524,24.2,55,0.0,994.8,7.75,23.4,157,88.2,73.1,0,5,7,0,2026-03-06T01:24:01.927841+05:30
Pondicherry,Puducherry,11.9139,79.8145,23.1,93,0.0,1009.2,8.9,23.8,75,20.0,17.0,3,0,4,1,2026-03-06T01:24:01.927849+05:30
Port Blair,Andaman and Nicobar Islands,11.6234,92.7265,26.9,72,0.0,1007.0,8.85,14.8,57,20.4,12.7,7,5,4,1,2026-03-06T01:24:01.927856+05:30
Haridwar,Uttarakhand,29.9457,78.1642,19.4,90,0.0,975.2,5.65,27.0,147,77.1,60.3,3,10,3,1,2026-03-06T01:24:01.927864+05:30
Rishikesh,Uttarakhand,30.0869,78.2676,19.2,83,0.0,967.8,5.7,23.0,136,90.1,62.9,3,10,3,1,2026-03-06T01:24:01.927872+05:30
Nainital,Uttarakhand,29.3919,79.4542,16.1,70,0.0,805.5,6.5,43.6,153,91.0,66.6,3,5,7,0,2026-03-06T01:24:01.927879+05:30
Mussoorie,Uttarakhand,30.4599,78.0664,15.3,77,0.0,802.0,6.05,33.1,155,86.6,59.0,3,5,7,0,2026-03-06T01:24:01.927886+05:30
Dharamshala,Himachal Pradesh,32.219,76.3234,21.6,32,0.0,870.0,5.75,25.2,60,21.8,14.0,0,5,3,0,2026-03-06T01:24:01.927893+05:30
Dalhousie,Himachal Pradesh,32.5387,75.971,17.6,42,0.0,804.2,5.85,22.3,84,48.4,41.9,0,5,3,0,2026-03-06T01:24:01.927901+05:30
Patiala,Punjab,30.3398,76.3869,20.5,81,0.0,978.6,5.75,15.1,330,295.2,82.0,3,5,3,1,2026-03-06T01:24:01.927908+05:30
Bhatinda,Punjab,30.211,74.9455,19.8,77,0.0,984.4,6.4,16.6,138,59.6,46.7,3,5,7,0,2026-03-06T01:24:01.927915+05:30
Rohtak,Haryana,28.8955,76.6066,20.1,74,0.0,982.4,5.9,16.2,599,458.2,94.1,3,5,3,0,2026-03-06T01:24:01.927922+05:30
Panipat,Haryana,29.3909,76.9635,20.1,84,0.0,981.0,5.7,11.5,1233,853.1,131.3,3,5,3,1,2026-03-06T01:24:01.927929+05:30
Mathura,Uttar Pradesh,27.4924,77.6737,22.8,48,0.0,987.6,6.2,19.4,695,597.9,111.3,0,5,7,0,2026-03-06T01:24:01.927935+05:30
Vrindavan,Uttar Pradesh,27.5823,77.7027,20.1,64,0.0,988.0,6.15,20.2,695,597.9,111.3,3,5,7,0,2026-03-06T01:24:01.927942+05:30
Ayodhya,Uttar Pradesh,26.7922,82.1998,20.5,78,0.0,996.8,6.55,20.2,174,123.4,97.8,3,5,7,1,2026-03-06T01:24:01.927948+05:30
Ratlam,Madhya Pradesh,23.3315,75.0367,23.0,49,0.0,956.1,7.4,18.0,96,43.5,39.6,0,5,7,0,2026-03-06T01:24:01.927955+05:30
Sagar,Madhya Pradesh,23.8388,78.7378,20.8,54,0.0,951.1,7.35,23.8,54,26.7,18.2,0,5,7,0,2026-03-06T01:24:01.927961+05:30
Satna,Madhya Pradesh,24.6005,80.8322,22.0,52,0.0,972.1,7.3,29.9,72,36.9,25.3,0,5,7,0,2026-03-06T01:24:01.927967+05:30
Akola,Maharashtra,20.7002,77.0082,23.1,44,0.0,976.1,7.85,19.8,75,42.8,36.4,0,5,7,0,2026-03-06T01:24:01.927975+05:30
Amravati,Maharashtra,20.9374,77.7796,22.8,49,0.0,968.0,7.8,16.6,74,46.8,39.3,0,5,7,0,2026-03-06T01:24:01.927981+05:30
Latur,Maharashtra,18.4088,76.5604,23.6,42,0.0,940.1,8.3,28.8,91,38.0,34.6,0,5,7,0,2026-03-06T01:24:01.927988+05:30
Nanded,Maharashtra,19.1383,77.3091,23.8,46,0.0,969.2,8.1,19.8,91,48.2,46.3,0,5,7,0,2026-03-06T01:24:01.927994+05:30
Gulbarga,Karnataka,17.3297,76.8343,25.2,40,0.0,958.8,8.4,27.0,71,18.9,17.9,4,5,7,0,2026-03-06T01:24:01.928000+05:30
Bidar,Karnataka,17.9104,77.5199,24.8,47,0.0,935.8,8.35,26.3,85,22.9,20.9,0,5,7,0,2026-03-06T01:24:01.928006+05:30
Hospet,Karnataka,15.2689,76.3909,23.8,56,0.0,955.6,8.75,15.1,113,36.9,34.8,0,5,7,0,2026-03-06T01:24:01.928012+05:30
Tirupur,Tamil Nadu,11.1085,77.3411,24.4,92,0.0,975.9,9.2,29.9,103,48.1,46.4,3,5,7,1,2026-03-06T01:24:01.928018+05:30
Alappuzha,Kerala,9.4981,76.3388,27.7,79,0.0,1009.3,9.0,34.2,120,59.5,57.0,7,0,4,1,2026-03-06T01:24:01.928024+05:30
Munnar,Kerala,10.0889,77.0595,17.3,85,0.0,855.5,9.5,28.8,81,41.3,40.2,3,10,7,0,2026-03-06T01:24:01.928031+05:30
Silchar,Assam,24.8333,92.7789,21.4,72,0.0,1006.1,7.55,13.7,148,74.7,66.8,3,5,4,1,2026-03-06T01:24:01.928038+05:30
Dibrugarh,Assam,27.4728,94.912,22.2,80,0.0,997.0,7.25,14.8,102,31.4,29.8,3,5,7,1,2026-03-06T01:24:01.928044+05:30
