city,state,latitude,longitude,temp,humidity,rain,pressure,uv_index,wind_gusts,aqi,pm10,pm2_5,no2,co,o3,so2,mosquito_risk,arthritis_risk,migraine_risk,frizz_risk,updated_at
Delhi,Delhi,28.6139,77.209,34.8,34,0.0,979.7,7.6,38.5,207,463.8,88.2,13.2,555.0,212.0,35.7,0,5,7,1,2026-05-02T11:11:30.178202+05:30
Mumbai,Maharashtra,19.076,72.8777,31.9,60,0.0,1008.7,7.9,41.8,71,72.6,26.3,7.1,220.0,99.0,20.8,0,0,4,1,2026-05-02T11:11:30.178253+05:30
Bangalore,Karnataka,12.9716,77.5946,30.4,50,0.0,913.6,9.5,45.0,87,38.0,24.2,7.6,412.0,136.0,6.7,0,5,7,1,2026-05-02T11:11:30.178271+05:30
Hyderabad,Telangana,17.385,78.4867,37.1,21,0.0,952.9,9.25,33.5,80,38.9,17.7,5.0,308.0,134.0,9.8,0,5,10,0,2026-05-02T11:11:30.178283+05:30
Chennai,Tamil Nadu,13.0827,80.2707,37.5,41,0.0,1006.0,9.2,54.4,56,21.9,17.7,6.2,325.0,137.0,12.4,0,5,7,1,2026-05-02T11:11:30.178294+05:30
Kolkata,West Bengal,22.5726,88.3639,31.0,70,0.0,1003.4,8.85,36.0,66,25.6,19.4,5.3,386.0,102.0,9.3,3,5,4,1,2026-05-02T11:11:30.178305+05:30
Pune,Maharashtra,18.5204,73.8567,35.3,22,0.0,948.6,8.5,49.7,57,69.2,20.9,3.8,201.0,101.0,7.8,0,5,10,0,2026-05-02T11:11:30.178314+05:30
Ahmedabad,Gujarat,23.0225,72.5714,36.0,40,0.0,999.4,8.1,48.2,54,40.7,15.7,3.1,199.0,102.0,6.8,0,5,10,1,2026-05-02T11:11:30.178327+05:30
Jaipur,Rajasthan,26.9124,75.7873,36.2,27,0.0,956.5,8.15,38.5,128,153.7,34.3,4.1,294.0,132.0,6.4,0,5,10,0,2026-05-02T11:11:30.178337+05:30
Lucknow,Uttar Pradesh,26.8467,80.9462,32.5,44,0.0,991.3,8.1,32.4,92,65.2,30.6,3.3,369.0,175.0,10.2,0,5,7,1,2026-05-02T11:11:30.178347+05:30
Kanpur,Uttar Pradesh,26.4499,80.3319,34.6,36,0.0,988.9,8.1,35.6,138,280.3,52.9,3.3,361.0,182.0,11.4,0,5,7,1,2026-05-02T11:11:30.178355+05:30
Chandigarh,Chandigarh,30.7333,76.7794,32.0,40,0.0,966.2,7.6,34.9,100,140.2,40.7,3.1,357.0,198.0,18.0,0,5,7,1,2026-05-02T11:11:30.178365+05:30
Srinagar,Jammu and Kashmir,34.0837,74.7973,19.0,61,0.0,841.1,8.8,41.8,73,15.5,13.2,2.7,477.0,139.0,4.3,3,5,7,0,2026-05-02T11:11:30.178374+05:30
Jammu,Jammu and Kashmir,32.7266,74.857,32.8,32,0.0,969.4,8.4,33.8,62,18.7,10.0,5.1,302.0,151.0,3.2,0,5,7,0,2026-05-02T11:11:30.178382+05:30
Amritsar,Punjab,31.634,74.8723,35.7,24,0.0,976.9,8.25,34.2,101,80.1,27.5,2.7,401.0,157.0,7.9,0,5,10,0,2026-05-02T11:11:30.178391+05:30
Ludhiana,Punjab,30.901,75.8573,34.2,33,0.0,975.4,7.85,32.0,157,457.3,89.2,3.6,413.0,181.0,17.4,0,5,7,0,2026-05-02T11:11:30.178399+05:30
Jalandhar,Punjab,31.326,75.5762,33.6,35,0.0,976.3,8.05,27.7,151,338.1,80.6,4.0,432.0,175.0,16.7,0,5,7,0,2026-05-02T11:11:30.178407+05:30
Dehradun,Uttarakhand,30.6284,78.0322,19.8,61,0.0,829.7,8.05,42.1,68,24.0,10.5,0.7,271.0,157.0,5.8,3,5,7,0,2026-05-02T11:11:30.178418+05:30
Shimla,Himachal Pradesh,31.1048,77.1734,19.1,41,0.0,784.6,8.15,49.0,71,18.3,8.3,0.5,206.0,162.0,5.4,0,5,7,0,2026-05-02T11:11:30.178427+05:30
Manali,Himachal Pradesh,32.2396,77.1887,19.3,43,0.0,816.1,10.3,41.0,68,7.8,4.5,3.7,168.0,155.0,0.4,0,5,7,0,2026-05-02T11:11:30.178435+05:30
Gurgaon,Haryana,28.4595,77.0266,35.0,33,0.0,978.0,7.7,32.4,931,1173.5,141.1,8.7,450.0,181.0,20.7,0,5,7,1,2026-05-02T11:11:30.178443+05:30
Noida,Uttar Pradesh,28.5355,77.391,34.2,39,0.0,981.3,7.65,27.4,931,1173.5,141.1,8.7,447.0,181.0,20.7,0,5,7,1,2026-05-02T11:11:30.178452+05:30
Ghaziabad,Uttar Pradesh,28.6692,77.4538,34.1,39,0.0,979.6,7.6,33.5,148,325.0,65.2,4.7,368.0,179.0,14.7,0,5,7,1,2026-05-02T11:11:30.178459+05:30
Faridabad,Haryana,28.4089,77.3178,34.0,37,0.0,980.5,7.65,42.8,931,1173.5,141.1,8.7,431.0,181.0,20.7,0,5,7,1,2026-05-02T11:11:30.178467+05:30
Meerut,Uttar Pradesh,28.9845,77.7064,31.5,50,0.0,978.8,7.5,29.2,148,325.0,65.2,4.7,371.0,179.0,14.7,0,5,7,1,2026-05-02T11:11:30.178475+05:30
Agra,Uttar Pradesh,27.1767,78.0081,35.7,34,0.0,984.1,7.95,49.3,679,732.0,89.4,3.5,354.0,173.0,13.4,0,5,10,1,2026-05-02T11:11:30.178483+05:30
Varanasi,Uttar Pradesh,25.3176,82.9739,33.2,41,0.0,995.5,8.6,30.6,106,78.2,39.0,3.8,407.0,187.0,15.5,0,5,7,1,2026-05-02T11:11:30.178491+05:30
Prayagraj,Uttar Pradesh,25.4358,81.8463,34.0,40,0.0,993.2,8.5,33.5,102,72.6,38.1,3.9,398.0,192.0,13.6,0,5,7,1,2026-05-02T11:11:30.178501+05:30
Gorakhpur,Uttar Pradesh,26.7606,83.3732,29.8,52,0.0,996.3,8.45,31.7,77,32.2,23.0,2.8,390.0,160.0,5.3,4,5,7,1,2026-05-02T11:11:30.178509+05:30
Bareilly,Uttar Pradesh,28.367,79.4304,31.4,49,0.0,984.9,7.9,34.2,110,125.7,37.0,3.6,337.0,175.0,14.6,0,5,7,1,2026-05-02T11:11:30.178516+05:30
Aligarh,Uttar Pradesh,27.8974,78.088,35.0,36,0.0,982.2,7.75,29.2,468,562.5,81.7,3.5,340.0,174.0,15.1,0,5,7,1,2026-05-02T11:11:30.178524+05:30
Moradabad,Uttar Pradesh,28.8386,78.7733,31.5,48,0.0,981.6,7.7,35.6,123,83.8,35.7,4.0,334.0,175.0,17.6,0,5,7,1,2026-05-02T11:11:30.178531+05:30
Saharanpur,Uttar Pradesh,29.9637,77.546,30.3,51,0.0,973.4,7.35,35.3,129,122.9,40.3,3.2,348.0,178.0,14.5,0,5,7,1,2026-05-02T11:11:30.178538+05:30
Jhansi,Uttar Pradesh,25.4484,78.5685,38.2,22,0.0,974.2,8.4,32.4,75,47.8,19.7,2.2,240.0,131.0,14.2,0,5,10,0,2026-05-02T11:11:33.460076+05:30
Surat,Gujarat,21.1702,72.8311,33.7,56,0.0,1005.7,7.75,53.6,64,41.6,20.3,11.9,265.0,72.0,31.5,0,5,4,1,2026-05-02T11:11:33.460108+05:30
Vadodara,Gujarat,22.3072,73.1812,36.5,41,0.0,1002.0,8.05,50.0,55,39.5,17.5,3.9,179.0,98.0,8.7,0,5,7,1,2026-05-02T11:11:33.460120+05:30
Rajkot,Gujarat,22.3039,70.8022,37.6,31,0.0,991.9,7.75,56.9,50,46.2,15.6,2.0,152.0,102.0,5.7,0,5,10,1,2026-05-02T11:11:33.460129+05:30
Thane,Maharashtra,19.2183,72.9781,34.1,50,0.0,1007.7,7.95,38.9,71,72.6,26.3,7.1,231.0,99.0,20.8,0,5,4,1,2026-05-02T11:11:33.460138+05:30
Nagpur,Maharashtra,21.1458,79.0882,40.0,19,0.0,971.4,8.95,41.8,75,35.7,17.8,5.8,211.0,139.0,21.4,0,5,10,0,2026-05-02T11:11:33.460146+05:30
Nashik,Maharashtra,19.9975,73.7898,33.0,40,0.0,946.0,8.25,47.2,63,56.5,22.7,4.4,191.0,105.0,8.6,0,5,7,1,2026-05-02T11:11:33.460154+05:30
Aurangabad,Maharashtra,19.8762,75.3433,35.8,25,0.0,944.3,9.05,40.3,55,58.1,19.2,2.6,188.0,100.0,5.3,0,5,10,0,2026-05-02T11:11:33.460162+05:30
Solapur,Maharashtra,17.6599,75.9064,37.0,22,0.0,957.3,9.05,39.2,51,56.1,18.4,2.1,189.0,105.0,3.7,0,5,10,0,2026-05-02T11:11:33.460170+05:30
Kolhapur,Maharashtra,16.705,74.2433,34.5,28,0.0,949.1,8.95,49.3,62,74.0,23.1,3.9,176.0,100.0,2.3,0,5,7,0,2026-05-02T11:11:33.460177+05:30
Goa,Goa,15.2993,74.124,34.9,48,0.0,998.6,8.95,40.3,68,64.0,19.8,1.1,166.0,83.0,1.7,0,5,7,1,2026-05-02T11:11:33.460184+05:30
Jodhpur,Rajasthan,26.2389,73.0243,36.5,28,0.0,978.7,8.35,38.5,121,238.0,36.4,1.5,172.0,103.0,3.9,0,5,10,0,2026-05-02T11:11:33.460192+05:30
Udaipur,Rajasthan,24.5854,73.7125,34.6,32,0.0,944.4,8.8,37.8,54,49.6,16.9,1.5,165.0,102.0,5.3,0,5,7,0,2026-05-02T11:11:33.460199+05:30
Kota,Rajasthan,25.2138,75.8648,38.1,33,0.0,975.0,8.35,40.3,59,55.5,21.0,2.6,192.0,118.0,9.4,0,5,10,1,2026-05-02T11:11:33.460206+05:30
Bikaner,Rajasthan,28.0229,73.3119,38.8,22,0.0,976.7,8.25,28.8,64,227.7,46.4,1.5,188.0,113.0,9.1,0,5,10,0,2026-05-02T11:11:33.460214+05:30
Ajmer,Rajasthan,26.4499,74.6399,36.6,26,0.0,951.3,8.3,49.7,60,75.7,23.7,1.6,180.0,107.0,5.3,0,5,10,0,2026-05-02T11:11:33.460221+05:30
Gwalior,Madhya Pradesh,26.2183,78.1828,36.4,28,0.0,979.4,8.2,52.6,92,55.1,25.3,2.0,266.0,145.0,8.9,0,5,10,0,2026-05-02T11:11:33.460228+05:30
Indore,Madhya Pradesh,22.7196,75.8577,35.5,35,0.0,946.8,8.65,50.0,56,59.8,20.1,2.4,214.0,97.0,7.4,0,5,10,1,2026-05-02T11:11:33.460235+05:30
Bhopal,Madhya Pradesh,23.2599,77.4126,36.2,34,0.0,952.0,8.7,49.7,65,36.2,15.2,1.5,189.0,108.0,7.6,0,5,10,1,2026-05-02T11:11:33.460242+05:30
Jabalpur,Madhya Pradesh,23.1815,79.9864,37.4,27,0.0,959.5,8.85,44.6,80,31.5,15.0,1.5,186.0,130.0,5.8,0,5,10,0,2026-05-02T11:11:33.460249+05:30
Ujjain,Madhya Pradesh,23.1765,75.7885,36.0,34,0.0,952.1,8.6,48.6,55,54.8,19.1,1.8,181.0,95.0,7.8,0,5,10,1,2026-05-02T11:11:33.460256+05:30
Visakhapatnam,Andhra Pradesh,17.6868,83.2185,33.2,65,0.0,1002.7,9.1,54.7,63,20.8,16.6,8.3,276.0,88.0,9.5,3,5,4,1,2026-05-02T11:11:33.460263+05:30
Vijayawada,Andhra Pradesh,16.5062,80.648,38.3,41,0.0,1000.3,9.2,45.0,71,28.9,24.1,3.2,284.0,157.0,10.8,0,5,7,1,2026-05-02T11:11:33.460270+05:30
Guntur,Andhra Pradesh,16.3067,80.4365,39.7,33,0.0,1001.3,9.2,40.0,72,31.5,24.3,3.3,280.0,165.0,8.8,0,5,7,1,2026-05-02T11:11:33.460278+05:30
Nellore,Andhra Pradesh,14.4426,79.9865,40.3,25,0.0,1003.8,9.2,49.3,77,30.3,20.5,3.7,211.0,155.0,8.3,0,5,7,1,2026-05-02T11:11:33.460286+05:30
Kurnool,Andhra Pradesh,15.8281,78.0373,38.5,23,0.0,976.5,9.2,32.8,57,31.4,15.0,3.3,188.0,126.0,8.8,0,5,10,0,2026-05-02T11:11:33.460295+05:30
Kakinada,Andhra Pradesh,16.9891,82.2475,36.2,52,0.0,1006.1,9.15,41.8,52,18.5,13.2,1.4,211.0,88.0,2.4,0,5,7,1,2026-05-02T11:11:33.460302+05:30
Tirupati,Andhra Pradesh,13.6288,79.4192,39.8,23,0.0,989.8,9.3,45.7,95,31.5,24.3,4.1,207.0,154.0,5.1,0,5,10,0,2026-05-02T11:11:33.460310+05:30
Warangal,Telangana,17.9689,79.5941,37.5,28,0.0,977.8,9.15,36.7,85,37.3,24.9,4.4,251.0,159.0,13.2,0,5,10,0,2026-05-02T11:11:33.460317+05:30
Nizamabad,Telangana,18.6725,78.0941,37.8,23,0.0,964.2,9.1,31.7,67,38.0,16.8,2.6,198.0,119.0,6.0,0,5,10,0,2026-05-02T11:11:33.460325+05:30
Mysore,Karnataka,12.2958,76.6396,32.0,45,0.0,930.4,9.4,50.4,81,31.5,20.5,3.2,217.0,125.0,1.6,0,5,7,1,2026-05-02T11:11:33.460332+05:30
Mangalore,Karnataka,12.9141,74.856,33.4,53,0.0,1007.8,9.05,41.4,69,25.1,16.2,2.4,161.0,94.0,1.7,0,5,4,1,2026-05-02T11:11:33.460339+05:30
Hubli-Dharwad,Karnataka,15.3647,75.124,32.7,37,0.0,942.5,9.2,54.0,56,50.1,16.3,2.2,192.0,97.0,1.3,0,5,7,0,2026-05-02T11:11:33.460347+05:30
Belgaum,Karnataka,15.8497,74.4977,32.4,30,0.0,927.7,9.2,48.6,58,74.3,18.9,2.2,161.0,92.0,2.2,0,5,7,0,2026-05-02T11:11:36.745954+05:30
Coimbatore,Tamil Nadu,11.0168,76.9558,34.1,45,0.0,962.7,9.05,51.8,69,26.0,20.1,2.5,265.0,133.0,3.2,0,5,7,1,2026-05-02T11:11:36.746010+05:30
Madurai,Tamil Nadu,9.9252,78.1198,38.0,33,0.0,992.9,9.2,55.8,70,20.7,17.2,4.1,308.0,166.0,5.6,0,5,10,1,2026-05-02T11:11:36.746023+05:30
Trichy,Tamil Nadu,10.7905,78.7047,36.7,44,0.0,999.4,9.2,54.7,65,23.4,19.7,3.8,266.0,147.0,5.4,0,5,10,1,2026-05-02T11:11:36.746032+05:30
Salem,Tamil Nadu,11.6643,78.146,35.8,42,0.0,977.6,9.25,43.9,87,30.3,25.5,5.3,320.0,174.0,12.2,0,5,10,1,2026-05-02T11:11:36.746040+05:30
Tirunelveli,Tamil Nadu,8.7139,77.7567,37.8,38,0.0,1003.2,9.1,46.1,57,17.6,13.6,2.3,253.0,105.0,0.9,0,5,7,1,2026-05-02T11:11:36.746049+05:30
Vellore,Tamil Nadu,12.9165,79.1325,38.8,27,0.0,983.8,9.3,42.1,96,33.8,28.4,3.7,246.0,167.0,7.6,0,5,10,1,2026-05-02T11:11:36.746057+05:30
Erode,Tamil Nadu,11.341,77.7172,37.0,38,0.0,989.0,9.25,61.2,74,26.9,21.8,3.9,282.0,156.0,2.7,0,5,10,1,2026-05-02T11:11:36.746064+05:30
Kochi,Kerala,9.9312,76.2673,30.9,73,0.0,1009.6,8.45,38.2,75,20.3,14.9,4.2,182.0,102.0,2.6,3,0,4,1,2026-05-02T11:11:36.746072+05:30
Thiruvananthapuram,Kerala,8.5241,76.9366,30.8,71,0.0,1009.3,8.1,37.4,47,16.4,11.9,2.3,204.0,100.0,2.0,3,0,4,1,2026-05-02T11:11:36.746079+05:30
Kozhikode,Kerala,11.2588,75.7804,31.2,74,0.0,1008.6,8.95,39.6,65,24.4,13.9,0.9,189.0,80.0,1.1,3,0,4,1,2026-05-02T11:11:36.746086+05:30
Thrissur,Kerala,10.5276,76.2144,31.5,69,0.0,1007.8,7.95,34.2,74,20.3,15.0,2.8,247.0,88.0,1.5,3,5,4,1,2026-05-02T11:11:36.746095+05:30
Kannur,Kerala,11.8745,75.3704,31.9,66,0.1,1008.1,9.0,46.8,78,26.9,17.8,2.5,212.0,90.0,1.4,6,0,4,1,2026-05-02T11:11:36.746102+05:30
Patna,Bihar,25.5941,85.1376,29.2,58,0.0,999.5,8.65,28.4,103,67.8,40.4,3.7,356.0,183.0,14.0,4,5,7,1,2026-05-02T11:11:36.746110+05:30
Gaya,Bihar,24.7914,85.0002,32.2,47,0.0,992.2,8.75,26.6,95,82.0,37.6,2.5,360.0,185.0,18.9,0,5,7,1,2026-05-02T11:11:36.746118+05:30
Muzaffarpur,Bihar,26.1209,85.3647,28.3,58,0.0,1000.0,8.65,31.3,97,61.0,38.1,3.4,319.0,168.0,9.6,4,5,4,1,2026-05-02T11:11:36.746125+05:30
Bhagalpur,Bihar,25.2425,87.0117,28.8,58,0.0,1000.4,8.65,32.8,103,67.3,46.4,6.2,354.0,178.0,14.9,4,5,4,1,2026-05-02T11:11:36.746132+05:30
Ranchi,Jharkhand,23.3441,85.3096,32.7,32,0.0,936.3,9.0,43.2,104,84.3,35.6,2.2,277.0,188.0,28.4,0,5,7,0,2026-05-02T11:11:36.746139+05:30
Jamshedpur,Jharkhand,22.8046,86.2029,35.0,36,0.0,988.1,9.0,50.8,100,67.1,45.5,5.0,424.0,190.0,28.9,0,5,7,1,2026-05-02T11:11:36.746146+05:30
Dhanbad,Jharkhand,23.7957,86.4304,31.1,53,0.0,977.9,9.0,32.0,139,75.7,56.5,26.3,1014.0,169.0,83.6,0,5,7,1,2026-05-02T11:11:36.746153+05:30
Bokaro,Jharkhand,23.6693,86.1511,32.2,49,0.0,981.6,9.0,36.0,143,81.3,60.5,34.3,536.0,160.0,107.2,0,5,7,1,2026-05-02T11:11:36.746161+05:30
Bhubaneswar,Odisha,20.2961,85.8245,34.3,53,0.0,1000.1,9.05,48.2,57,29.0,21.4,2.2,290.0,117.0,5.3,0,5,4,1,2026-05-02T11:11:36.746168+05:30
Cuttack,Odisha,20.4625,85.8828,35.0,52,0.0,1001.7,9.1,49.7,57,29.0,21.4,2.2,287.0,117.0,5.3,0,5,4,1,2026-05-02T11:11:36.746174+05:30
Rourkela,Odisha,22.2604,84.8536,35.5,35,0.0,982.5,9.0,57.2,121,69.2,35.2,3.1,315.0,204.0,35.1,0,5,10,1,2026-05-02T11:11:36.746181+05:30
Raipur,Chhattisgarh,21.2514,81.6296,38.8,21,0.0,972.8,9.0,57.2,128,36.9,24.6,8.2,397.0,177.0,8.8,0,5,10,0,2026-05-02T11:11:36.746188+05:30
Bhilai,Chhattisgarh,21.1938,81.3509,38.0,23,0.0,973.2,9.0,50.0,119,36.0,22.9,7.8,547.0,160.0,8.6,0,5,10,0,2026-05-02T11:11:36.746195+05:30
Guwahati,Assam,26.1158,91.7086,23.0,82,0.0,1001.4,4.3,25.2,59,21.1,16.6,1.7,334.0,123.0,1.7,3,5,0,1,2026-05-02T11:11:36.746202+05:30
Agartala,Tripura,23.8315,91.2868,23.3,90,0.3,1006.0,8.8,33.5,53,7.2,6.2,3.9,198.0,89.0,1.1,6,5,4,1,2026-05-02T11:11:36.746209+05:30
Shillong,Meghalaya,25.5788,91.8933,17.7,80,0.1,855.4,5.0,29.5,41,22.6,11.9,1.3,233.0,118.0,0.8,6,5,3,0,2026-05-02T11:11:36.746217+05:30
Imphal,Manipur,24.817,93.9368,23.5,67,0.0,922.8,5.75,29.5,62,4.9,3.2,1.4,226.0,85.0,0.8,3,5,3,1,2026-05-02T11:11:36.746224+05:30
Aizawl,Mizoram,23.7271,92.7176,19.3,87,0.4,891.8,9.0,41.8,29,3.5,2.5,1.2,168.0,81.0,0.3,6,10,7,1,2026-05-02T11:11:36.746231+05:30
Kohima,Nagaland,25.6701,94.1077,18.0,88,0.3,854.2,6.0,27.7,51,18.5,9.2,0.8,217.0,103.0,0.4,6,10,3,0,2026-05-02T11:11:36.746238+05:30
Gangtok,Sikkim,27.3314,88.6138,14.0,96,0.1,835.3,4.45,24.5,54,5.5,4.4,1.3,304.0,117.0,0.4,6,10,3,0,2026-05-02T11:11:36.746245+05:30
Siliguri,West Bengal,26.7271,88.3953,22.6,75,0.0,993.6,4.15,22.0,65,6.8,5.5,2.0,354.0,127.0,1.4,3,5,3,1,2026-05-02T11:11:40.017962+05:30
Durgapur,West Bengal,23.5204,87.3119,29.6,63,0.0,993.1,8.9,25.9,128,62.9,43.8,16.9,465.0,163.0,55.9,7,5,7,1,2026-05-02T11:11:40.018038+05:30
Asansol,West Bengal,23.6739,86.9524,31.1,56,0.0,991.6,8.95,30.2,123,65.7,47.1,17.0,518.0,166.0,58.6,0,5,7,1,2026-05-02T11:11:40.018051+05:30
Pondicherry,Puducherry,11.9139,79.8145,35.2,51,0.0,1007.6,9.15,58.3,55,19.4,16.9,4.8,244.0,145.0,12.9,0,5,7,1,2026-05-02T11:11:40.018061+05:30
Port Blair,Andaman and Nicobar Islands,11.6234,92.7265,35.3,44,0.0,1007.5,9.0,29.5,29,10.9,7.7,0.4,136.0,63.0,0.2,0,5,7,1,2026-05-02T11:11:40.018070+05:30
Haridwar,Uttarakhand,29.9457,78.1642,30.4,49,0.0,972.0,7.4,27.4,124,128.5,37.5,1.7,293.0,178.0,12.3,0,5,7,1,2026-05-02T11:11:40.018078+05:30
Rishikesh,Uttarakhand,30.0869,78.2676,29.5,50,0.0,964.7,7.5,28.4,113,134.6,35.2,1.0,272.0,179.0,9.3,4,5,7,1,2026-05-02T11:11:40.018086+05:30
Nainital,Uttarakhand,29.3919,79.4542,17.6,67,0.0,804.7,7.85,45.0,99,108.5,31.5,0.5,263.0,170.0,6.8,3,5,7,0,2026-05-02T11:11:40.018094+05:30
Mussoorie,Uttarakhand,30.4599,78.0664,18.1,63,0.0,802.3,7.9,51.8,115,139.7,37.8,1.3,264.0,185.0,12.7,3,5,7,0,2026-05-02T11:11:40.018101+05:30
Dharamshala,Himachal Pradesh,32.219,76.3234,24.2,40,0.0,867.9,8.25,47.5,40,14.4,7.6,0.3,221.0,154.0,1.3,0,5,7,0,2026-05-02T11:11:40.018109+05:30
Dalhousie,Himachal Pradesh,32.5387,75.971,20.2,50,0.0,804.3,8.5,42.1,58,19.6,9.7,1.3,229.0,164.0,2.3,0,5,7,0,2026-05-02T11:11:40.018116+05:30
Patiala,Punjab,30.3398,76.3869,33.0,39,0.0,975.2,7.5,32.0,425,821.4,110.1,3.7,368.0,192.0,22.6,0,5,7,1,2026-05-02T11:11:40.018124+05:30
Bhatinda,Punjab,30.211,74.9455,37.5,21,0.0,979.6,8.15,34.6,151,400.5,81.0,3.8,335.0,181.0,16.8,0,5,10,0,2026-05-02T11:11:40.018131+05:30
Rohtak,Haryana,28.8955,76.6066,35.3,30,0.0,978.4,7.65,32.0,452,666.8,107.8,7.9,407.0,200.0,22.3,0,5,10,0,2026-05-02T11:11:40.018138+05:30
Panipat,Haryana,29.3909,76.9635,32.8,42,0.0,977.6,7.5,38.5,628,931.3,122.0,7.7,379.0,201.0,29.3,0,5,7,1,2026-05-02T11:11:40.018145+05:30
Mathura,Uttar Pradesh,27.4924,77.6737,35.3,36,0.0,983.3,7.9,37.4,668,782.3,96.4,3.5,350.0,171.0,10.5,0,5,10,1,2026-05-02T11:11:40.018152+05:30
Vrindavan,Uttar Pradesh,27.5823,77.7027,35.5,35,0.0,983.7,7.85,32.8,668,782.3,96.4,3.5,356.0,171.0,10.5,0,5,10,1,2026-05-02T11:11:40.018159+05:30
Ayodhya,Uttar Pradesh,26.7922,82.1998,30.9,49,0.0,994.1,8.25,31.0,81,43.3,21.8,2.6,366.0,165.0,6.0,0,5,7,1,2026-05-02T11:11:40.018166+05:30
Ratlam,Madhya Pradesh,23.3315,75.0367,34.5,40,0.0,953.2,8.55,49.0,54,58.9,19.7,1.7,176.0,98.0,7.9,0,5,7,1,2026-05-02T11:11:40.018174+05:30
Sagar,Madhya Pradesh,23.8388,78.7378,36.0,31,0.0,948.3,8.7,45.4,59,40.0,14.7,1.1,180.0,120.0,6.8,0,5,10,1,2026-05-02T11:11:40.018180+05:30
Satna,Madhya Pradesh,24.6005,80.8322,36.4,28,0.0,968.2,8.7,49.0,78,69.6,26.0,3.8,229.0,170.0,15.7,0,5,10,0,2026-05-02T11:11:40.018187+05:30
Akola,Maharashtra,20.7002,77.0082,37.2,31,0.0,973.9,8.9,49.0,53,36.6,15.6,2.4,177.0,105.0,14.3,0,5,10,1,2026-05-02T11:11:40.018195+05:30
Amravati,Maharashtra,20.9374,77.7796,38.0,25,0.0,966.1,8.9,39.6,53,33.2,14.4,2.8,174.0,108.0,11.3,0,5,10,0,2026-05-02T11:11:40.018203+05:30
Latur,Maharashtra,18.4088,76.5604,37.8,18,0.0,940.1,9.05,31.7,56,47.6,16.4,2.1,167.0,100.0,6.5,0,5,10,0,2026-05-02T11:11:40.018210+05:30
Nanded,Maharashtra,19.1383,77.3091,38.3,23,0.0,967.8,8.95,37.1,58,40.7,16.7,2.6,197.0,111.0,4.8,0,5,10,0,2026-05-02T11:11:40.018218+05:30
Gulbarga,Karnataka,17.3297,76.8343,38.2,20,0.0,958.6,9.1,41.8,54,42.5,16.0,2.9,190.0,112.0,5.0,0,5,10,0,2026-05-02T11:11:40.018224+05:30
Bidar,Karnataka,17.9104,77.5199,37.2,20,0.0,936.1,9.1,34.6,65,41.4,15.9,2.9,181.0,112.0,6.4,0,5,10,0,2026-05-02T11:11:40.018231+05:30
Hospet,Karnataka,15.2689,76.3909,33.9,33,0.0,956.9,9.2,49.7,53,45.9,15.8,2.6,194.0,102.0,2.1,0,5,7,0,2026-05-02T11:11:40.018238+05:30
Tirupur,Tamil Nadu,11.1085,77.3411,36.0,39,0.0,975.6,9.2,54.4,76,28.0,22.4,3.7,251.0,157.0,3.4,0,5,10,1,2026-05-02T11:11:40.018244+05:30
Alappuzha,Kerala,9.4981,76.3388,31.3,70,0.0,1009.6,8.2,42.1,68,28.2,19.3,4.5,161.0,105.0,4.1,3,0,4,1,2026-05-02T11:11:40.018252+05:30
Munnar,Kerala,10.0889,77.0595,23.2,72,0.0,859.8,8.8,25.9,55,16.1,12.3,1.5,206.0,110.0,0.9,3,5,7,1,2026-05-02T11:11:40.018259+05:30
Silchar,Assam,24.8333,92.7789,22.0,93,0.3,1005.9,8.5,24.8,67,6.0,4.5,1.5,218.0,83.0,2.4,6,5,4,1,2026-05-02T11:11:40.018267+05:30
Dibrugarh,Assam,27.4728,94.912,23.5,79,0.1,996.2,7.3,23.0,61,33.2,14.6,1.0,252.0,130.0,1.1,6,5,7,1,2026-05-02T11:11:40.018274+05:30
