city,state,latitude,longitude,temp,humidity,rain,pressure,uv_index,wind_gusts,aqi,pm10,pm2_5,no2,co,o3,so2,mosquito_risk,arthritis_risk,migraine_risk,frizz_risk,updated_at
Delhi,Delhi,28.6139,77.209,26.8,92,0.0,974.7,7.7,24.5,162,161.6,85.4,69.4,426.0,6.0,34.0,7,5,7,1,2026-07-11T05:30:16.860679+05:30
Mumbai,Maharashtra,19.076,72.8777,27.7,87,0.0,1006.4,5.7,55.8,58,36.4,14.1,3.6,110.0,43.0,3.3,7,5,0,1,2026-07-11T05:30:16.860720+05:30
Bangalore,Karnataka,12.9716,77.5946,20.0,95,0.0,911.2,7.9,47.2,38,13.6,7.1,8.9,159.0,28.0,4.2,3,5,7,1,2026-07-11T05:30:16.860736+05:30
Hyderabad,Telangana,17.385,78.4867,25.4,74,0.0,951.4,8.7,50.0,67,17.5,11.1,8.9,143.0,32.0,4.8,7,5,7,1,2026-07-11T05:30:16.860745+05:30
Chennai,Tamil Nadu,13.0827,80.2707,27.3,80,0.0,1006.0,8.05,34.6,68,18.9,14.8,18.3,268.0,39.0,12.5,7,5,4,1,2026-07-11T05:30:16.860754+05:30
Kolkata,West Bengal,22.5726,88.3639,27.2,95,0.0,999.3,8.4,27.4,87,43.0,34.7,13.6,348.0,52.0,14.4,7,5,7,1,2026-07-11T05:30:16.860762+05:30
Pune,Maharashtra,18.5204,73.8567,23.5,91,0.0,945.8,7.3,56.2,34,10.3,4.2,3.9,99.0,40.0,4.2,3,5,7,1,2026-07-11T05:30:16.860769+05:30
Ahmedabad,Gujarat,23.0225,72.5714,26.9,84,0.0,997.4,5.95,46.8,71,30.3,15.0,6.2,110.0,36.0,4.3,7,5,3,1,2026-07-11T05:30:16.860776+05:30
Jaipur,Rajasthan,26.9124,75.7873,26.7,74,0.0,952.7,8.15,37.1,481,577.4,104.1,6.6,141.0,53.0,4.4,7,5,7,1,2026-07-11T05:30:16.860783+05:30
Lucknow,Uttar Pradesh,26.8467,80.9462,26.2,93,0.0,985.3,7.7,45.0,132,90.6,47.0,19.2,195.0,47.0,6.4,7,5,7,1,2026-07-11T05:30:16.860794+05:30
Kanpur,Uttar Pradesh,26.4499,80.3319,26.8,87,0.0,983.6,7.1,48.2,115,53.2,37.1,20.2,186.0,40.0,8.7,7,5,7,1,2026-07-11T05:30:16.860801+05:30
Chandigarh,Chandigarh,30.7333,76.7794,24.8,92,0.0,960.4,7.7,19.4,120,62.2,46.1,28.6,474.0,43.0,10.7,3,5,7,1,2026-07-11T05:30:16.860808+05:30
Srinagar,Jammu and Kashmir,34.0837,74.7973,20.8,72,0.0,834.9,9.05,31.3,90,45.6,43.2,22.1,498.0,39.0,1.8,3,5,7,0,2026-07-11T05:30:16.860815+05:30
Jammu,Jammu and Kashmir,32.7266,74.857,25.2,95,0.2,963.5,8.55,25.6,162,66.8,58.4,20.8,456.0,85.0,4.4,10,5,7,1,2026-07-11T05:30:16.860822+05:30
Amritsar,Punjab,31.634,74.8723,26.4,97,0.1,971.4,8.45,54.4,157,131.3,61.7,13.3,290.0,91.0,3.5,10,5,7,1,2026-07-11T05:30:16.860829+05:30
Ludhiana,Punjab,30.901,75.8573,24.9,98,0.2,970.1,7.65,23.0,151,91.3,41.0,13.5,408.0,87.0,4.6,6,5,7,1,2026-07-11T05:30:16.860836+05:30
Jalandhar,Punjab,31.326,75.5762,24.4,99,0.3,970.9,8.15,29.9,158,122.9,51.5,13.3,439.0,90.0,3.4,6,5,7,1,2026-07-11T05:30:16.860842+05:30
Dehradun,Uttarakhand,30.6284,78.0322,17.5,98,0.0,824.0,7.35,24.1,37,8.8,8.4,21.6,256.0,39.0,0.7,3,10,7,1,2026-07-11T05:30:16.860851+05:30
Shimla,Himachal Pradesh,31.1048,77.1734,14.9,90,0.0,778.4,8.2,32.8,50,25.8,24.2,16.1,258.0,73.0,5.4,3,10,7,0,2026-07-11T05:30:16.860859+05:30
Manali,Himachal Pradesh,32.2396,77.1887,19.2,89,0.0,813.4,7.35,33.1,54,15.9,15.4,57.9,279.0,8.0,0.1,3,10,7,1,2026-07-11T05:30:16.860868+05:30
Gurgaon,Haryana,28.4595,77.0266,26.7,95,0.0,973.1,7.7,28.1,184,308.3,121.1,71.3,727.0,9.0,33.8,7,5,7,1,2026-07-11T05:30:16.860875+05:30
Noida,Uttar Pradesh,28.5355,77.391,26.9,90,0.0,976.3,7.7,23.8,184,308.3,121.1,71.3,404.0,9.0,33.8,7,5,7,1,2026-07-11T05:30:16.860882+05:30
Ghaziabad,Uttar Pradesh,28.6692,77.4538,26.1,90,0.0,974.4,7.7,24.1,115,72.9,63.1,50.9,390.0,14.0,11.4,7,5,7,1,2026-07-11T05:30:16.860887+05:30
Faridabad,Haryana,28.4089,77.3178,27.2,90,0.0,975.5,7.75,25.9,184,308.3,121.1,71.3,427.0,9.0,33.8,7,5,7,1,2026-07-11T05:30:16.860893+05:30
Meerut,Uttar Pradesh,28.9845,77.7064,25.5,93,0.0,973.3,7.6,47.5,115,72.9,63.1,50.9,412.0,14.0,11.4,7,5,7,1,2026-07-11T05:30:16.860899+05:30
Agra,Uttar Pradesh,27.1767,78.0081,29.1,66,0.0,979.5,7.95,37.8,158,110.4,42.8,11.5,156.0,51.0,5.2,7,5,7,1,2026-07-11T05:30:16.860905+05:30
Varanasi,Uttar Pradesh,25.3176,82.9739,26.3,97,0.6,990.8,8.0,36.0,102,45.3,30.2,16.0,328.0,46.0,7.2,10,5,7,1,2026-07-11T05:30:16.860933+05:30
Prayagraj,Uttar Pradesh,25.4358,81.8463,27.1,91,0.4,989.3,8.1,43.2,108,51.3,33.3,17.1,235.0,42.0,6.5,10,5,7,1,2026-07-11T05:30:16.860942+05:30
Gorakhpur,Uttar Pradesh,26.7606,83.3732,25.9,97,0.0,989.8,7.5,33.8,83,67.1,37.6,11.9,302.0,75.0,6.4,7,5,7,1,2026-07-11T05:30:16.860948+05:30
Bareilly,Uttar Pradesh,28.367,79.4304,25.9,97,0.1,977.9,6.8,28.1,94,59.3,55.6,34.3,386.0,30.0,9.8,10,5,7,1,2026-07-11T05:30:16.860957+05:30
Aligarh,Uttar Pradesh,27.8974,78.088,27.1,90,0.0,977.1,7.25,32.0,159,172.8,91.5,46.6,512.0,29.0,14.5,7,5,7,1,2026-07-11T05:30:16.860963+05:30
Moradabad,Uttar Pradesh,28.8386,78.7733,25.8,96,0.0,975.0,7.8,31.7,92,55.9,51.6,34.7,407.0,30.0,10.7,7,5,7,1,2026-07-11T05:30:16.860969+05:30
Saharanpur,Uttar Pradesh,29.9637,77.546,24.4,98,0.0,967.4,7.35,26.3,69,56.1,54.0,49.0,404.0,5.0,8.1,3,5,7,1,2026-07-11T05:30:16.860975+05:30
Jhansi,Uttar Pradesh,25.4484,78.5685,28.6,66,0.0,971.2,8.4,43.9,100,54.5,32.4,7.7,153.0,68.0,9.9,7,5,7,1,2026-07-11T05:30:20.105747+05:30
Surat,Gujarat,21.1702,72.8311,28.1,84,0.0,1002.9,5.1,63.7,65,32.5,17.2,15.2,265.0,31.0,27.1,7,5,0,1,2026-07-11T05:30:20.105783+05:30
Vadodara,Gujarat,22.3072,73.1812,27.1,85,0.0,1000.1,7.95,55.1,65,27.6,13.5,5.8,111.0,35.0,3.5,7,5,4,1,2026-07-11T05:30:20.105795+05:30
Rajkot,Gujarat,22.3039,70.8022,26.8,86,0.0,989.6,7.3,57.6,62,22.6,9.7,3.1,90.0,41.0,2.9,7,5,7,1,2026-07-11T05:30:20.105805+05:30
Thane,Maharashtra,19.2183,72.9781,26.7,93,0.0,1005.8,5.8,47.5,58,36.4,14.1,3.6,120.0,43.0,3.3,7,5,0,1,2026-07-11T05:30:20.105813+05:30
Nagpur,Maharashtra,21.1458,79.0882,26.4,74,0.0,969.6,7.5,48.2,91,46.0,25.0,9.5,150.0,45.0,9.8,7,5,7,1,2026-07-11T05:30:20.105821+05:30
Nashik,Maharashtra,19.9975,73.7898,23.4,92,0.0,942.3,7.9,63.0,39,10.2,5.0,4.2,92.0,36.0,2.2,3,5,7,1,2026-07-11T05:30:20.105829+05:30
Aurangabad,Maharashtra,19.8762,75.3433,23.6,89,0.0,941.0,8.9,62.6,51,18.0,7.8,6.7,105.0,34.0,8.2,3,5,7,1,2026-07-11T05:30:20.105836+05:30
Solapur,Maharashtra,17.6599,75.9064,24.0,85,0.0,955.9,8.1,48.6,49,10.1,5.9,5.8,111.0,30.0,2.4,3,5,7,1,2026-07-11T05:30:20.105843+05:30
Kolhapur,Maharashtra,16.705,74.2433,22.7,96,0.0,947.0,7.65,54.0,35,10.0,4.4,2.7,108.0,39.0,2.0,3,5,7,1,2026-07-11T05:30:20.105851+05:30
Goa,Goa,15.2993,74.124,25.0,99,0.1,998.4,7.6,38.9,56,37.5,18.2,3.9,360.0,36.0,1.8,10,5,7,1,2026-07-11T05:30:20.105858+05:30
Jodhpur,Rajasthan,26.2389,73.0243,26.8,75,0.0,975.7,8.45,53.6,208,418.2,99.4,2.6,101.0,51.0,2.9,7,5,7,1,2026-07-11T05:30:20.105865+05:30
Udaipur,Rajasthan,24.5854,73.7125,23.2,89,0.0,939.6,8.8,53.3,77,35.6,17.7,4.2,95.0,42.0,3.7,3,5,7,1,2026-07-11T05:30:20.105871+05:30
Kota,Rajasthan,25.2138,75.8648,27.1,70,0.0,972.5,8.3,37.1,93,45.9,27.2,7.6,127.0,56.0,6.9,7,5,7,1,2026-07-11T05:30:20.105879+05:30
Bikaner,Rajasthan,28.0229,73.3119,28.3,71,0.0,972.9,8.45,39.6,156,221.2,85.9,2.4,99.0,53.0,4.9,7,5,7,1,2026-07-11T05:30:20.105886+05:30
Ajmer,Rajasthan,26.4499,74.6399,25.2,79,0.0,947.5,8.4,51.5,87,56.6,28.1,4.4,113.0,53.0,3.5,7,5,7,1,2026-07-11T05:30:20.105893+05:30
Gwalior,Madhya Pradesh,26.2183,78.1828,27.9,70,0.0,975.6,8.15,42.5,97,40.9,27.5,7.2,135.0,59.0,4.6,7,5,7,1,2026-07-11T05:30:20.105900+05:30
Indore,Madhya Pradesh,22.7196,75.8577,24.0,91,0.0,943.4,7.9,54.4,75,21.9,12.3,8.5,166.0,33.0,9.6,3,5,7,1,2026-07-11T05:30:20.105907+05:30
Bhopal,Madhya Pradesh,23.2599,77.4126,25.4,84,0.0,948.9,8.6,46.8,84,30.2,17.5,6.4,156.0,45.0,7.1,7,5,7,1,2026-07-11T05:30:20.105934+05:30
Jabalpur,Madhya Pradesh,23.1815,79.9864,25.9,80,0.0,956.6,7.65,36.7,90,54.0,33.2,6.6,184.0,64.0,5.6,7,5,7,1,2026-07-11T05:30:20.105944+05:30
Ujjain,Madhya Pradesh,23.1765,75.7885,24.3,90,0.0,948.8,8.45,55.4,75,25.1,13.3,7.3,159.0,35.0,7.5,3,5,7,1,2026-07-11T05:30:20.105951+05:30
Visakhapatnam,Andhra Pradesh,17.6868,83.2185,27.4,84,0.0,1000.0,7.9,42.1,87,38.1,27.5,23.4,362.0,45.0,36.7,7,5,4,1,2026-07-11T05:30:20.105959+05:30
Vijayawada,Andhra Pradesh,16.5062,80.648,29.5,61,0.0,999.7,5.5,42.1,90,43.1,29.1,13.4,191.0,47.0,5.8,7,5,3,1,2026-07-11T05:30:20.105965+05:30
Guntur,Andhra Pradesh,16.3067,80.4365,30.2,56,0.0,1000.9,6.5,45.7,87,50.6,31.3,17.1,168.0,32.0,7.2,0,5,4,1,2026-07-11T05:30:20.105973+05:30
Nellore,Andhra Pradesh,14.4426,79.9865,28.8,66,0.0,1004.2,8.2,43.9,64,19.4,11.7,8.2,125.0,33.0,4.3,7,5,4,1,2026-07-11T05:30:20.105981+05:30
Kurnool,Andhra Pradesh,15.8281,78.0373,26.3,74,0.0,976.0,7.85,47.9,61,20.3,10.7,7.8,121.0,29.0,3.1,7,5,7,1,2026-07-11T05:30:20.105988+05:30
Kakinada,Andhra Pradesh,16.9891,82.2475,28.3,78,0.0,1004.2,4.55,43.6,77,34.5,21.9,5.0,217.0,90.0,4.9,7,5,0,1,2026-07-11T05:30:20.105996+05:30
Tirupati,Andhra Pradesh,13.6288,79.4192,27.8,64,0.0,990.0,8.8,36.0,61,20.6,11.2,8.3,110.0,30.0,1.9,7,5,7,1,2026-07-11T05:30:20.106003+05:30
Warangal,Telangana,17.9689,79.5941,27.7,68,0.0,976.5,8.35,43.9,80,32.4,20.7,8.9,164.0,43.0,3.5,7,5,7,1,2026-07-11T05:30:20.106010+05:30
Nizamabad,Telangana,18.6725,78.0941,25.4,77,0.0,962.9,8.7,45.7,73,19.2,11.6,8.9,130.0,33.0,6.4,7,5,7,1,2026-07-11T05:30:20.106016+05:30
Mysore,Karnataka,12.2958,76.6396,21.4,94,0.0,928.6,6.6,46.8,28,14.1,7.2,6.7,103.0,29.0,2.2,3,5,7,1,2026-07-11T05:30:20.106023+05:30
Mangalore,Karnataka,12.9141,74.856,25.1,97,0.1,1008.1,8.35,42.8,52,26.8,11.8,4.1,130.0,34.0,2.4,10,0,4,1,2026-07-11T05:30:20.106029+05:30
Hubli-Dharwad,Karnataka,15.3647,75.124,22.4,93,0.0,940.4,8.15,54.0,32,10.8,4.6,2.5,103.0,37.0,1.7,3,5,7,1,2026-07-11T05:30:20.106036+05:30
Belgaum,Karnataka,15.8497,74.4977,21.1,99,0.0,924.7,8.7,54.7,28,8.4,3.9,2.6,95.0,38.0,1.4,3,5,7,1,2026-07-11T05:30:23.365884+05:30
Coimbatore,Tamil Nadu,11.0168,76.9558,23.4,94,0.0,961.8,8.2,49.3,29,20.5,9.5,6.3,155.0,30.0,3.4,3,5,7,1,2026-07-11T05:30:23.365940+05:30
Madurai,Tamil Nadu,9.9252,78.1198,27.1,78,0.0,993.3,8.1,25.9,55,21.5,19.4,32.1,163.0,1.0,5.9,7,5,7,1,2026-07-11T05:30:23.365953+05:30
Trichy,Tamil Nadu,10.7905,78.7047,27.5,73,0.0,999.9,7.6,50.0,42,17.4,9.1,6.6,99.0,32.0,3.2,7,5,7,1,2026-07-11T05:30:23.365962+05:30
Salem,Tamil Nadu,11.6643,78.146,24.4,95,0.0,977.7,8.25,32.4,58,21.8,16.5,21.5,381.0,17.0,7.2,3,5,7,1,2026-07-11T05:30:23.365971+05:30
Tirunelveli,Tamil Nadu,8.7139,77.7567,27.9,72,0.0,1003.9,8.4,50.0,27,12.9,7.6,6.6,119.0,31.0,2.6,7,5,4,1,2026-07-11T05:30:23.365979+05:30
Vellore,Tamil Nadu,12.9165,79.1325,26.7,70,0.0,983.6,8.15,42.1,54,19.8,11.8,12.5,141.0,28.0,4.5,7,5,7,1,2026-07-11T05:30:23.365987+05:30
Erode,Tamil Nadu,11.341,77.7172,24.4,90,0.0,989.5,8.15,39.6,45,19.3,13.2,13.4,138.0,25.0,4.0,3,5,7,1,2026-07-11T05:30:23.365994+05:30
Kochi,Kerala,9.9312,76.2673,25.7,94,0.1,1010.5,7.8,40.3,50,15.4,10.2,9.7,99.0,23.0,3.3,10,0,4,1,2026-07-11T05:30:23.366002+05:30
Thiruvananthapuram,Kerala,8.5241,76.9366,24.5,96,0.0,1010.1,8.05,50.0,38,13.9,7.3,3.3,101.0,45.0,1.6,3,0,4,1,2026-07-11T05:30:23.366009+05:30
Kozhikode,Kerala,11.2588,75.7804,24.7,98,0.1,1009.4,7.55,40.3,38,20.1,8.2,1.0,173.0,48.0,1.0,6,0,4,1,2026-07-11T05:30:23.366016+05:30
Thrissur,Kerala,10.5276,76.2144,24.8,98,0.0,1008.7,7.8,38.2,52,15.3,9.5,6.1,191.0,32.0,2.8,3,0,4,1,2026-07-11T05:30:23.366025+05:30
Kannur,Kerala,11.8745,75.3704,24.7,98,0.0,1008.7,7.75,43.9,48,22.5,10.3,3.7,213.0,33.0,1.7,3,0,4,1,2026-07-11T05:30:23.366032+05:30
Patna,Bihar,25.5941,85.1376,26.8,89,0.0,993.2,5.55,35.3,83,73.3,50.1,19.7,327.0,50.0,10.1,7,5,3,1,2026-07-11T05:30:23.366039+05:30
Gaya,Bihar,24.7914,85.0002,26.6,94,0.0,987.2,7.45,38.9,85,70.8,45.2,17.5,293.0,48.0,24.4,7,5,7,1,2026-07-11T05:30:23.366046+05:30
Muzaffarpur,Bihar,26.1209,85.3647,26.1,97,0.1,993.0,5.3,26.6,94,59.3,48.7,19.8,342.0,55.0,8.1,10,5,3,1,2026-07-11T05:30:23.366053+05:30
Bhagalpur,Bihar,25.2425,87.0117,27.1,95,0.0,993.8,5.75,31.3,80,35.0,30.9,12.8,306.0,62.0,7.8,7,5,3,1,2026-07-11T05:30:23.366060+05:30
Ranchi,Jharkhand,23.3441,85.3096,23.8,95,0.0,932.1,6.5,38.5,83,60.3,34.3,7.4,194.0,72.0,10.1,3,5,7,1,2026-07-11T05:30:23.366068+05:30
Jamshedpur,Jharkhand,22.8046,86.2029,25.6,96,0.0,984.7,8.3,35.6,88,67.3,39.9,15.3,245.0,66.0,29.9,7,5,7,1,2026-07-11T05:30:23.366074+05:30
Dhanbad,Jharkhand,23.7957,86.4304,26.0,90,0.0,973.3,5.35,37.8,115,71.5,56.0,39.0,215.0,36.0,93.7,7,5,3,1,2026-07-11T05:30:23.366082+05:30
Bokaro,Jharkhand,23.6693,86.1511,26.0,93,0.1,977.1,4.0,40.7,110,70.8,50.1,27.7,257.0,52.0,70.7,10,5,3,1,2026-07-11T05:30:23.366089+05:30
Bhubaneswar,Odisha,20.2961,85.8245,27.3,85,0.0,997.5,7.7,35.3,76,27.2,22.0,9.2,262.0,63.0,6.1,7,5,7,1,2026-07-11T05:30:23.366096+05:30
Cuttack,Odisha,20.4625,85.8828,27.3,89,0.0,999.2,8.15,36.7,76,27.2,22.0,9.2,246.0,63.0,6.1,7,5,7,1,2026-07-11T05:30:23.366103+05:30
Rourkela,Odisha,22.2604,84.8536,25.6,98,0.0,979.8,2.95,38.9,120,86.8,48.3,15.2,327.0,47.0,15.0,7,5,3,1,2026-07-11T05:30:23.366110+05:30
Raipur,Chhattisgarh,21.2514,81.6296,26.9,76,0.0,970.4,8.15,39.6,118,63.3,42.3,33.4,471.0,33.0,55.1,7,5,7,1,2026-07-11T05:30:23.366117+05:30
Bhilai,Chhattisgarh,21.1938,81.3509,26.8,76,0.0,971.0,7.85,43.6,112,59.8,39.2,27.1,655.0,37.0,43.7,7,5,7,1,2026-07-11T05:30:23.366124+05:30
Guwahati,Assam,26.1158,91.7086,25.9,98,0.1,994.2,7.9,16.6,43,9.1,9.1,6.3,256.0,67.0,1.8,10,5,7,1,2026-07-11T05:30:23.366131+05:30
Agartala,Tripura,23.8315,91.2868,25.0,99,0.0,1000.0,7.9,37.8,55,20.7,18.9,8.8,230.0,69.0,4.3,7,5,4,1,2026-07-11T05:30:23.366138+05:30
Shillong,Meghalaya,25.5788,91.8933,20.2,98,0.0,851.8,3.95,29.2,26,1.3,1.2,4.4,187.0,59.0,3.1,3,5,3,1,2026-07-11T05:30:23.366145+05:30
Imphal,Manipur,24.817,93.9368,23.1,96,0.1,918.4,7.75,29.5,34,9.0,8.5,7.3,427.0,41.0,2.4,6,5,7,1,2026-07-11T05:30:23.366152+05:30
Aizawl,Mizoram,23.7271,92.7176,19.7,97,0.0,887.4,8.3,42.5,25,0.7,0.7,2.1,137.0,55.0,1.1,3,10,7,1,2026-07-11T05:30:23.366159+05:30
Kohima,Nagaland,25.6701,94.1077,21.7,90,0.0,851.2,4.8,23.0,22,2.8,2.6,3.7,203.0,48.0,1.0,3,5,3,1,2026-07-11T05:30:23.366165+05:30
Gangtok,Sikkim,27.3314,88.6138,18.8,98,0.0,832.5,6.7,29.2,46,12.3,11.9,4.6,382.0,93.0,2.7,3,10,7,1,2026-07-11T05:30:23.366172+05:30
Siliguri,West Bengal,26.7271,88.3953,25.2,99,0.2,985.6,6.55,19.8,90,47.4,46.1,10.2,628.0,82.0,6.1,10,5,7,1,2026-07-11T05:30:26.626461+05:30
Durgapur,West Bengal,23.5204,87.3119,26.4,93,0.0,988.3,1.1,36.4,114,60.8,51.0,37.4,255.0,39.0,56.8,7,5,3,1,2026-07-11T05:30:26.626491+05:30
Asansol,West Bengal,23.6739,86.9524,26.6,89,0.0,986.8,2.95,35.3,101,58.9,47.3,34.6,1154.0,40.0,55.5,7,5,3,1,2026-07-11T05:30:26.626502+05:30
Pondicherry,Puducherry,11.9139,79.8145,27.3,84,0.0,1007.8,8.0,40.7,64,19.3,15.4,18.4,267.0,34.0,11.3,7,5,4,1,2026-07-11T05:30:26.626511+05:30
Port Blair,Andaman and Nicobar Islands,11.6234,92.7265,26.9,83,0.1,1007.3,8.8,55.8,39,12.6,7.0,0.2,88.0,43.0,0.3,10,5,4,1,2026-07-11T05:30:26.626519+05:30
Haridwar,Uttarakhand,29.9457,78.1642,25.0,98,0.1,965.4,6.8,28.8,61,29.5,28.6,29.6,381.0,28.0,3.9,10,5,7,1,2026-07-11T05:30:26.626527+05:30
Rishikesh,Uttarakhand,30.0869,78.2676,24.9,96,0.3,958.3,6.05,25.6,47,5.9,5.4,8.1,251.0,78.0,1.6,6,5,7,1,2026-07-11T05:30:26.626535+05:30
Nainital,Uttarakhand,29.3919,79.4542,16.7,100,0.1,799.7,1.05,22.3,35,13.8,10.6,10.3,249.0,80.0,2.4,6,10,3,1,2026-07-11T05:30:26.626543+05:30
Mussoorie,Uttarakhand,30.4599,78.0664,16.5,99,0.0,796.9,6.4,29.9,53,12.7,11.9,17.8,249.0,59.0,2.6,3,10,7,1,2026-07-11T05:30:26.626550+05:30
Dharamshala,Himachal Pradesh,32.219,76.3234,20.8,80,0.0,862.3,8.45,33.8,54,7.4,6.6,8.0,269.0,64.0,0.7,3,5,7,1,2026-07-11T05:30:26.626557+05:30
Dalhousie,Himachal Pradesh,32.5387,75.971,16.2,93,0.0,798.3,8.7,25.6,120,29.8,24.2,10.3,431.0,116.0,2.6,3,10,7,0,2026-07-11T05:30:26.626565+05:30
Patiala,Punjab,30.3398,76.3869,25.9,91,0.0,969.6,7.55,16.2,124,113.9,52.3,24.4,509.0,47.0,8.4,7,5,7,1,2026-07-11T05:30:26.626573+05:30
Bhatinda,Punjab,30.211,74.9455,28.0,87,0.0,974.2,8.3,27.7,166,146.2,58.6,13.3,339.0,84.0,5.1,7,5,7,1,2026-07-11T05:30:26.626580+05:30
Rohtak,Haryana,28.8955,76.6066,27.4,90,0.0,973.3,7.6,25.6,391,350.2,111.3,53.6,666.0,19.0,22.0,7,5,7,1,2026-07-11T05:30:26.626588+05:30
Panipat,Haryana,29.3909,76.9635,25.8,94,0.0,972.0,7.45,22.0,489,166.2,73.1,38.5,365.0,21.0,8.2,7,5,7,1,2026-07-11T05:30:26.626594+05:30
Mathura,Uttar Pradesh,27.4924,77.6737,28.5,74,0.0,978.5,7.9,33.1,220,139.2,64.5,44.9,281.0,10.0,5.9,7,5,7,1,2026-07-11T05:30:26.626601+05:30
Vrindavan,Uttar Pradesh,27.5823,77.7027,28.3,78,0.0,978.9,7.85,32.4,220,139.2,64.5,44.9,365.0,10.0,5.9,7,5,7,1,2026-07-11T05:30:26.626608+05:30
Ayodhya,Uttar Pradesh,26.7922,82.1998,26.3,96,0.0,987.6,7.7,34.6,107,76.8,46.6,20.1,259.0,44.0,5.8,7,5,7,1,2026-07-11T05:30:26.626615+05:30
Ratlam,Madhya Pradesh,23.3315,75.0367,23.9,94,0.1,949.6,8.4,52.9,72,25.4,13.2,6.9,130.0,35.0,6.5,6,5,7,1,2026-07-11T05:30:26.626621+05:30
Sagar,Madhya Pradesh,23.8388,78.7378,25.8,78,0.0,945.1,8.65,46.4,91,52.6,32.9,5.8,171.0,65.0,6.1,7,5,7,1,2026-07-11T05:30:26.626628+05:30
Satna,Madhya Pradesh,24.6005,80.8322,27.3,74,0.0,965.1,8.7,42.5,101,56.6,32.9,5.2,168.0,71.0,4.8,7,5,7,1,2026-07-11T05:30:26.626635+05:30
Akola,Maharashtra,20.7002,77.0082,26.3,77,0.0,972.5,8.75,52.6,67,27.8,12.0,7.0,113.0,33.0,6.9,7,5,7,1,2026-07-11T05:30:26.626643+05:30
Amravati,Maharashtra,20.9374,77.7796,25.6,79,0.0,964.4,8.5,60.1,70,28.1,12.3,7.4,125.0,34.0,7.8,7,5,7,1,2026-07-11T05:30:26.626651+05:30
Latur,Maharashtra,18.4088,76.5604,23.4,86,0.0,937.8,8.4,48.2,52,12.2,6.6,5.8,113.0,32.0,3.5,3,5,7,1,2026-07-11T05:30:26.626659+05:30
Nanded,Maharashtra,19.1383,77.3091,25.5,79,0.0,966.7,8.8,44.3,63,19.2,10.9,7.6,127.0,34.0,5.4,7,5,7,1,2026-07-11T05:30:26.626665+05:30
Gulbarga,Karnataka,17.3297,76.8343,24.0,83,0.0,957.4,7.7,52.2,54,15.0,7.9,6.3,115.0,31.0,3.1,3,5,7,1,2026-07-11T05:30:26.626672+05:30
Bidar,Karnataka,17.9104,77.5199,23.6,83,0.0,933.6,5.0,46.1,61,16.1,9.2,6.7,122.0,32.0,2.6,3,5,3,1,2026-07-11T05:30:26.626678+05:30
Hospet,Karnataka,15.2689,76.3909,23.5,88,0.0,955.4,7.65,50.4,40,12.3,6.0,4.1,103.0,33.0,1.9,3,5,7,1,2026-07-11T05:30:26.626685+05:30
Tirupur,Tamil Nadu,11.1085,77.3411,23.8,92,0.0,975.6,8.15,48.2,49,20.4,14.5,16.1,126.0,19.0,4.7,3,5,7,1,2026-07-11T05:30:26.626691+05:30
Alappuzha,Kerala,9.4981,76.3388,25.5,94,0.2,1010.7,7.9,42.8,45,16.9,9.8,6.7,82.0,38.0,2.7,10,0,4,1,2026-07-11T05:30:26.626698+05:30
Munnar,Kerala,10.0889,77.0595,17.0,99,0.0,857.3,8.2,40.3,19,12.6,5.4,3.6,88.0,27.0,0.9,3,10,7,1,2026-07-11T05:30:26.626705+05:30
Silchar,Assam,24.8333,92.7789,26.4,96,0.1,999.0,7.05,29.2,35,8.9,8.2,7.2,305.0,51.0,3.6,10,5,7,1,2026-07-11T05:30:26.626712+05:30
Dibrugarh,Assam,27.4728,94.912,26.1,97,0.1,989.0,4.0,27.4,56,11.4,10.2,5.8,182.0,69.0,1.4,10,5,3,1,2026-07-11T05:30:26.626719+05:30
