city,state,latitude,longitude,temp,humidity,rain,pressure,uv_index,wind_gusts,aqi,pm10,pm2_5,no2,co,o3,so2,mosquito_risk,arthritis_risk,migraine_risk,frizz_risk,updated_at
Delhi,Delhi,28.6139,77.209,26.7,89,0.1,973.2,4.95,38.2,76,13.7,13.7,22.6,448.0,68.0,6.6,10,5,3,1,2026-07-09T14:00:28.362175+05:30
Mumbai,Maharashtra,19.076,72.8777,29.2,79,0.0,1005.7,7.05,50.4,60,34.2,17.3,3.9,137.0,63.0,5.3,7,5,4,1,2026-07-09T14:00:28.362213+05:30
Bangalore,Karnataka,12.9716,77.5946,29.9,51,0.0,911.6,7.2,50.8,23,11.5,6.0,2.3,205.0,72.0,2.4,4,5,7,1,2026-07-09T14:00:28.362229+05:30
Hyderabad,Telangana,17.385,78.4867,29.7,60,0.0,950.0,8.25,44.6,29,24.5,10.8,1.8,172.0,75.0,3.1,4,5,7,1,2026-07-09T14:00:28.362238+05:30
Chennai,Tamil Nadu,13.0827,80.2707,36.0,46,0.1,1004.0,7.8,43.2,64,22.6,15.2,3.9,195.0,98.0,5.6,3,5,7,1,2026-07-09T14:00:28.362247+05:30
Kolkata,West Bengal,22.5726,88.3639,29.8,83,0.1,999.7,5.35,45.7,69,20.8,17.1,6.4,207.0,75.0,5.6,10,5,3,1,2026-07-09T14:00:28.362255+05:30
Pune,Maharashtra,18.5204,73.8567,28.4,70,0.0,945.5,7.0,52.6,21,29.6,12.3,1.7,121.0,69.0,3.9,7,5,7,1,2026-07-09T14:00:28.362262+05:30
Ahmedabad,Gujarat,23.0225,72.5714,34.3,50,0.0,995.2,8.0,38.9,82,71.5,25.4,1.5,124.0,90.0,3.6,0,5,7,1,2026-07-09T14:00:28.362269+05:30
Jaipur,Rajasthan,26.9124,75.7873,34.5,55,0.0,951.3,7.9,42.5,153,666.8,122.5,0.9,166.0,106.0,3.8,0,5,7,1,2026-07-09T14:00:28.362276+05:30
Lucknow,Uttar Pradesh,26.8467,80.9462,29.5,89,0.0,984.2,6.15,35.3,69,10.0,7.8,2.9,251.0,116.0,4.9,7,5,7,1,2026-07-09T14:00:28.362286+05:30
Kanpur,Uttar Pradesh,26.4499,80.3319,32.0,69,0.0,982.1,6.95,32.0,57,32.0,17.2,2.8,235.0,123.0,6.1,3,5,7,1,2026-07-09T14:00:28.362293+05:30
Chandigarh,Chandigarh,30.7333,76.7794,26.9,99,0.6,960.8,1.7,21.2,148,46.2,46.1,31.9,679.0,80.0,6.4,10,5,3,1,2026-07-09T14:00:28.362300+05:30
Srinagar,Jammu and Kashmir,34.0837,74.7973,30.5,38,0.0,836.9,9.05,26.3,81,22.1,16.8,0.8,299.0,168.0,3.1,0,5,7,0,2026-07-09T14:00:28.362307+05:30
Jammu,Jammu and Kashmir,32.7266,74.857,36.1,43,0.0,963.1,8.65,24.8,153,82.4,60.1,1.5,417.0,200.0,6.5,0,5,10,1,2026-07-09T14:00:28.362314+05:30
Amritsar,Punjab,31.634,74.8723,34.5,58,0.0,971.0,8.5,29.5,154,99.2,58.6,2.6,462.0,214.0,13.7,0,5,7,1,2026-07-09T14:00:28.362320+05:30
Ludhiana,Punjab,30.901,75.8573,33.9,63,0.0,969.6,4.75,32.4,154,40.9,37.0,3.8,413.0,170.0,9.7,3,5,3,1,2026-07-09T14:00:28.362329+05:30
Jalandhar,Punjab,31.326,75.5762,33.4,66,0.0,970.4,8.2,27.0,155,56.1,44.0,2.0,411.0,183.0,6.3,3,5,7,1,2026-07-09T14:00:28.362336+05:30
Dehradun,Uttarakhand,30.6284,78.0322,19.0,96,0.2,825.4,0.75,32.0,80,17.6,17.6,5.1,227.0,89.0,0.4,6,10,3,1,2026-07-09T14:00:28.362344+05:30
Shimla,Himachal Pradesh,31.1048,77.1734,16.8,100,0.6,780.1,1.45,12.2,66,15.0,14.9,11.1,247.0,81.0,0.8,6,10,3,1,2026-07-09T14:00:28.362365+05:30
Manali,Himachal Pradesh,32.2396,77.1887,24.4,69,0.0,816.1,6.75,28.4,46,7.0,6.9,9.2,206.0,105.0,1.4,3,5,7,1,2026-07-09T14:00:28.362379+05:30
Gurgaon,Haryana,28.4595,77.0266,28.2,73,0.0,972.0,6.85,43.2,78,21.4,17.8,26.4,346.0,70.0,10.2,7,5,7,1,2026-07-09T14:00:28.362386+05:30
Noida,Uttar Pradesh,28.5355,77.391,26.5,93,0.2,974.5,4.1,44.6,78,21.4,17.8,26.4,430.0,70.0,10.2,10,5,3,1,2026-07-09T14:00:28.362392+05:30
Ghaziabad,Uttar Pradesh,28.6692,77.4538,25.7,96,0.5,972.6,3.05,33.8,69,11.2,11.2,12.0,290.0,83.0,6.5,10,5,3,1,2026-07-09T14:00:28.362398+05:30
Faridabad,Haryana,28.4089,77.3178,27.1,86,0.0,973.9,5.35,56.5,78,21.4,17.8,26.4,423.0,70.0,10.2,7,5,3,1,2026-07-09T14:00:28.362404+05:30
Meerut,Uttar Pradesh,28.9845,77.7064,27.7,93,0.4,971.5,1.05,36.4,69,11.2,11.2,12.0,322.0,83.0,6.5,10,5,3,1,2026-07-09T14:00:28.362410+05:30
Agra,Uttar Pradesh,27.1767,78.0081,33.3,58,0.0,977.5,7.0,45.0,65,34.0,12.4,2.8,287.0,147.0,5.6,0,5,7,1,2026-07-09T14:00:28.362416+05:30
Varanasi,Uttar Pradesh,25.3176,82.9739,29.3,84,0.2,988.8,7.75,26.6,88,15.1,13.6,1.9,281.0,133.0,5.2,10,5,7,1,2026-07-09T14:00:28.362423+05:30
Prayagraj,Uttar Pradesh,25.4358,81.8463,30.3,83,0.1,986.8,6.65,36.0,86,15.1,11.9,2.4,224.0,125.0,4.9,6,5,7,1,2026-07-09T14:00:28.362430+05:30
Gorakhpur,Uttar Pradesh,26.7606,83.3732,32.3,71,0.0,988.4,7.15,27.7,75,41.3,37.5,2.1,237.0,148.0,12.2,3,5,7,1,2026-07-09T14:00:28.362436+05:30
Bareilly,Uttar Pradesh,28.367,79.4304,28.1,89,0.1,977.0,5.2,45.4,60,14.3,14.0,5.1,280.0,115.0,10.4,10,5,3,1,2026-07-09T14:00:28.362445+05:30
Aligarh,Uttar Pradesh,27.8974,78.088,28.5,83,0.0,974.7,7.55,47.5,67,11.4,10.1,10.0,316.0,117.0,12.3,7,5,7,1,2026-07-09T14:00:28.362451+05:30
Moradabad,Uttar Pradesh,28.8386,78.7733,27.9,89,0.3,973.8,5.45,46.4,62,13.4,13.3,5.0,269.0,114.0,9.4,10,5,3,1,2026-07-09T14:00:28.362457+05:30
Saharanpur,Uttar Pradesh,29.9637,77.546,26.3,92,0.2,967.4,0.55,29.2,86,14.8,14.8,18.2,343.0,63.0,3.8,10,5,3,1,2026-07-09T14:00:28.362463+05:30
Jhansi,Uttar Pradesh,25.4484,78.5685,33.2,59,0.0,969.0,4.05,42.5,62,119.0,45.9,2.4,165.0,107.0,7.9,0,5,3,1,2026-07-09T14:00:31.674261+05:30
Surat,Gujarat,21.1702,72.8311,31.5,71,0.0,1002.0,6.5,56.9,72,41.6,22.9,9.9,249.0,43.0,30.5,3,5,4,1,2026-07-09T14:00:31.674294+05:30
Vadodara,Gujarat,22.3072,73.1812,32.9,60,0.0,998.4,6.55,48.6,69,69.2,24.9,2.0,149.0,79.0,3.8,0,5,7,1,2026-07-09T14:00:31.674307+05:30
Rajkot,Gujarat,22.3039,70.8022,35.1,47,0.0,987.8,7.7,49.0,72,60.8,23.3,1.0,101.0,83.0,4.0,0,5,10,1,2026-07-09T14:00:31.674319+05:30
Thane,Maharashtra,19.2183,72.9781,29.0,80,0.0,1004.7,7.05,45.4,60,34.2,17.3,3.9,146.0,63.0,5.3,7,5,4,1,2026-07-09T14:00:31.674329+05:30
Nagpur,Maharashtra,21.1458,79.0882,32.2,61,0.0,967.4,6.0,44.3,57,48.5,21.8,3.7,158.0,105.0,15.7,3,5,3,1,2026-07-09T14:00:31.674338+05:30
Nashik,Maharashtra,19.9975,73.7898,28.2,69,0.0,942.3,5.1,55.4,35,35.2,15.0,1.2,103.0,60.0,1.9,7,5,3,1,2026-07-09T14:00:31.674348+05:30
Aurangabad,Maharashtra,19.8762,75.3433,30.7,56,0.0,940.5,7.45,50.8,35,66.4,22.8,1.0,120.0,87.0,4.9,0,5,7,1,2026-07-09T14:00:31.674357+05:30
Solapur,Maharashtra,17.6599,75.9064,32.6,51,0.0,954.2,6.0,48.2,25,29.3,10.5,1.0,104.0,68.0,1.8,0,5,3,1,2026-07-09T14:00:31.674366+05:30
Kolhapur,Maharashtra,16.705,74.2433,27.4,74,0.0,946.5,7.05,55.8,21,17.5,8.4,1.2,110.0,59.0,1.6,7,5,7,1,2026-07-09T14:00:31.674374+05:30
Goa,Goa,15.2993,74.124,29.6,73,0.1,997.8,6.45,36.4,54,23.1,12.7,0.7,100.0,52.0,1.0,10,5,7,1,2026-07-09T14:00:31.674382+05:30
Jodhpur,Rajasthan,26.2389,73.0243,34.9,51,0.0,974.6,8.45,43.9,157,332.5,69.6,0.7,117.0,89.0,2.7,0,5,7,1,2026-07-09T14:00:31.674391+05:30
Udaipur,Rajasthan,24.5854,73.7125,31.1,55,0.0,940.1,8.6,47.5,82,120.1,32.9,0.9,113.0,82.0,2.9,0,5,7,1,2026-07-09T14:00:31.674399+05:30
Kota,Rajasthan,25.2138,75.8648,35.1,52,0.0,970.3,8.3,39.2,84,85.9,36.3,1.3,127.0,116.0,6.5,0,5,10,1,2026-07-09T14:00:31.674408+05:30
Bikaner,Rajasthan,28.0229,73.3119,37.6,45,0.0,972.2,8.5,36.4,157,198.8,71.5,0.4,135.0,95.0,3.3,0,5,10,1,2026-07-09T14:00:31.674416+05:30
Ajmer,Rajasthan,26.4499,74.6399,33.3,57,0.0,947.0,4.5,46.8,122,136.9,45.6,0.8,123.0,95.0,3.3,0,5,3,1,2026-07-09T14:00:31.674424+05:30
Gwalior,Madhya Pradesh,26.2183,78.1828,33.7,57,0.0,973.6,5.95,40.0,65,97.6,40.2,1.3,233.0,120.0,3.7,0,5,3,1,2026-07-09T14:00:31.674433+05:30
Indore,Madhya Pradesh,22.7196,75.8577,28.5,68,0.0,942.7,6.1,46.4,61,74.5,28.3,2.7,157.0,74.0,5.9,7,5,7,1,2026-07-09T14:00:31.674441+05:30
Bhopal,Madhya Pradesh,23.2599,77.4126,29.9,70,0.0,947.5,4.0,49.3,58,50.5,23.4,2.8,165.0,79.0,7.3,7,5,3,1,2026-07-09T14:00:31.674449+05:30
Jabalpur,Madhya Pradesh,23.1815,79.9864,29.9,75,0.1,954.7,7.2,41.0,53,32.7,16.1,2.0,165.0,92.0,4.5,10,5,7,1,2026-07-09T14:00:31.674457+05:30
Ujjain,Madhya Pradesh,23.1765,75.7885,30.4,62,0.0,948.0,7.2,49.0,63,69.2,26.0,2.5,142.0,68.0,5.3,3,5,7,1,2026-07-09T14:00:31.674466+05:30
Visakhapatnam,Andhra Pradesh,17.6868,83.2185,32.7,62,0.0,998.3,8.25,49.3,81,32.6,23.8,6.1,315.0,114.0,22.0,3,5,7,1,2026-07-09T14:00:31.674474+05:30
Vijayawada,Andhra Pradesh,16.5062,80.648,34.5,52,0.0,998.4,6.45,39.6,61,16.8,8.8,2.2,120.0,73.0,4.6,0,5,7,1,2026-07-09T14:00:31.674482+05:30
Guntur,Andhra Pradesh,16.3067,80.4365,34.7,48,0.2,999.5,6.3,42.1,62,18.9,9.6,2.7,119.0,66.0,5.4,3,5,7,1,2026-07-09T14:00:31.674491+05:30
Nellore,Andhra Pradesh,14.4426,79.9865,37.6,37,0.0,1001.8,8.45,45.7,40,21.1,10.3,1.8,102.0,92.0,3.7,0,5,7,1,2026-07-09T14:00:31.674500+05:30
Kurnool,Andhra Pradesh,15.8281,78.0373,34.7,47,0.0,973.9,5.45,49.3,29,19.8,8.9,1.2,109.0,72.0,3.1,0,5,3,1,2026-07-09T14:00:31.674510+05:30
Kakinada,Andhra Pradesh,16.9891,82.2475,32.1,66,0.1,1002.8,8.35,50.4,70,16.1,11.6,1.7,150.0,100.0,3.6,6,5,4,1,2026-07-09T14:00:31.674518+05:30
Tirupati,Andhra Pradesh,13.6288,79.4192,38.0,34,0.0,987.7,7.85,42.5,40,15.0,6.7,0.2,100.0,74.0,1.1,0,5,10,1,2026-07-09T14:00:31.674527+05:30
Warangal,Telangana,17.9689,79.5941,31.0,63,0.0,974.7,8.0,37.4,49,33.2,14.6,1.0,122.0,84.0,2.7,3,5,7,1,2026-07-09T14:00:31.674535+05:30
Nizamabad,Telangana,18.6725,78.0941,31.5,57,0.0,960.8,6.1,46.1,43,49.5,18.2,1.3,119.0,81.0,5.2,0,5,7,1,2026-07-09T14:00:31.674544+05:30
Mysore,Karnataka,12.2958,76.6396,27.5,62,0.0,928.5,6.45,49.7,23,6.4,3.5,1.4,120.0,68.0,1.4,7,5,7,1,2026-07-09T14:00:31.674552+05:30
Mangalore,Karnataka,12.9141,74.856,28.9,74,0.1,1007.6,8.4,40.3,57,24.6,13.9,1.0,111.0,62.0,1.8,10,5,4,1,2026-07-09T14:00:31.674560+05:30
Hubli-Dharwad,Karnataka,15.3647,75.124,28.7,63,0.0,940.0,6.85,58.0,21,21.5,9.5,1.1,104.0,60.0,1.1,7,5,7,1,2026-07-09T14:00:31.674568+05:30
Belgaum,Karnataka,15.8497,74.4977,27.0,70,0.0,925.0,8.35,56.2,20,15.0,7.5,1.0,98.0,57.0,1.4,7,5,7,1,2026-07-09T14:00:34.970056+05:30
Coimbatore,Tamil Nadu,11.0168,76.9558,31.4,53,0.0,961.5,8.75,49.7,25,12.4,6.6,1.1,130.0,68.0,1.7,0,5,7,1,2026-07-09T14:00:34.970088+05:30
Madurai,Tamil Nadu,9.9252,78.1198,38.6,33,0.0,990.7,8.75,42.5,45,24.0,12.1,1.7,139.0,100.0,2.3,0,5,10,1,2026-07-09T14:00:34.970099+05:30
Trichy,Tamil Nadu,10.7905,78.7047,39.1,31,0.0,996.7,8.4,54.4,34,16.9,9.2,1.3,103.0,84.0,2.0,0,5,10,1,2026-07-09T14:00:34.970108+05:30
Salem,Tamil Nadu,11.6643,78.146,32.1,57,0.1,976.1,8.15,33.1,51,16.9,10.1,1.9,155.0,97.0,4.9,3,5,7,1,2026-07-09T14:00:34.970117+05:30
Tirunelveli,Tamil Nadu,8.7139,77.7567,38.3,33,0.0,1001.3,8.35,47.5,32,14.5,7.9,1.0,106.0,74.0,1.3,0,5,7,1,2026-07-09T14:00:34.970125+05:30
Vellore,Tamil Nadu,12.9165,79.1325,37.0,37,0.1,981.5,8.15,43.6,37,21.0,9.7,1.2,136.0,82.0,2.0,3,5,10,1,2026-07-09T14:00:34.970134+05:30
Erode,Tamil Nadu,11.341,77.7172,35.7,40,0.0,987.2,8.15,48.2,44,15.9,9.3,1.5,140.0,92.0,2.0,0,5,10,1,2026-07-09T14:00:34.970142+05:30
Kochi,Kerala,9.9312,76.2673,28.4,79,0.0,1010.3,8.55,39.6,49,18.2,10.7,1.5,114.0,70.0,2.3,7,0,4,1,2026-07-09T14:00:34.970150+05:30
Thiruvananthapuram,Kerala,8.5241,76.9366,29.1,73,0.1,1009.0,8.35,54.4,45,17.5,11.3,1.6,93.0,82.0,1.9,10,0,4,1,2026-07-09T14:00:34.970159+05:30
Kozhikode,Kerala,11.2588,75.7804,28.0,81,0.0,1009.4,8.35,36.0,41,17.9,9.5,0.6,109.0,69.0,1.4,7,0,4,1,2026-07-09T14:00:34.970166+05:30
Thrissur,Kerala,10.5276,76.2144,29.6,72,0.0,1008.5,8.55,38.9,50,16.6,10.1,1.1,111.0,67.0,1.7,7,0,4,1,2026-07-09T14:00:34.970175+05:30
Kannur,Kerala,11.8745,75.3704,28.7,75,0.0,1008.5,8.15,31.7,49,20.5,11.0,0.9,101.0,70.0,1.6,7,0,4,1,2026-07-09T14:00:34.970182+05:30
Patna,Bihar,25.5941,85.1376,30.6,81,0.0,992.0,8.55,24.8,87,41.4,36.1,2.3,240.0,152.0,12.9,3,5,7,1,2026-07-09T14:00:34.970190+05:30
Gaya,Bihar,24.7914,85.0002,33.4,66,0.0,985.5,8.5,32.8,83,25.1,22.8,1.7,177.0,135.0,10.2,3,5,7,1,2026-07-09T14:00:34.970197+05:30
Muzaffarpur,Bihar,26.1209,85.3647,30.9,82,0.1,992.1,8.75,24.8,84,46.2,40.0,2.6,254.0,171.0,14.8,6,5,7,1,2026-07-09T14:00:34.970205+05:30
Bhagalpur,Bihar,25.2425,87.0117,30.0,88,0.1,993.2,6.65,28.1,94,47.0,39.8,5.0,420.0,168.0,25.9,10,5,7,1,2026-07-09T14:00:34.970212+05:30
Ranchi,Jharkhand,23.3441,85.3096,26.4,88,0.1,931.4,7.7,46.4,68,11.3,11.0,2.3,206.0,119.0,9.5,10,5,7,1,2026-07-09T14:00:34.970219+05:30
Jamshedpur,Jharkhand,22.8046,86.2029,27.6,93,0.5,984.3,7.3,45.0,89,25.7,23.7,5.4,204.0,132.0,18.3,10,5,7,1,2026-07-09T14:00:34.970227+05:30
Dhanbad,Jharkhand,23.7957,86.4304,28.2,88,0.3,972.9,8.45,37.8,142,35.3,33.8,16.9,325.0,123.0,51.6,10,5,7,1,2026-07-09T14:00:34.970234+05:30
Bokaro,Jharkhand,23.6693,86.1511,27.6,89,0.3,976.8,7.15,40.3,109,21.9,21.1,12.8,164.0,124.0,39.5,10,5,7,1,2026-07-09T14:00:34.970242+05:30
Bhubaneswar,Odisha,20.2961,85.8245,32.0,68,0.0,996.6,5.9,53.3,71,38.1,27.0,2.2,218.0,103.0,5.9,3,5,3,1,2026-07-09T14:00:34.970249+05:30
Cuttack,Odisha,20.4625,85.8828,32.5,68,0.0,998.2,7.0,47.5,71,38.1,27.0,2.2,208.0,103.0,5.9,3,5,7,1,2026-07-09T14:00:34.970256+05:30
Rourkela,Odisha,22.2604,84.8536,30.9,71,0.0,978.2,6.65,46.8,76,18.2,17.1,3.0,228.0,122.0,10.8,3,5,7,1,2026-07-09T14:00:34.970263+05:30
Raipur,Chhattisgarh,21.2514,81.6296,31.2,67,0.0,968.4,7.15,46.1,75,55.3,30.0,6.9,263.0,120.0,30.4,3,5,7,1,2026-07-09T14:00:34.970270+05:30
Bhilai,Chhattisgarh,21.1938,81.3509,31.5,66,0.0,968.8,7.75,47.2,75,55.8,27.9,6.8,380.0,112.0,25.6,3,5,7,1,2026-07-09T14:00:34.970277+05:30
Guwahati,Assam,26.1158,91.7086,31.1,75,0.1,993.6,3.2,25.9,57,12.5,12.2,1.5,205.0,110.0,1.7,6,5,3,1,2026-07-09T14:00:34.970285+05:30
Agartala,Tripura,23.8315,91.2868,29.4,80,0.1,1000.3,2.2,43.2,48,12.9,11.1,4.9,121.0,78.0,2.1,10,5,0,1,2026-07-09T14:00:34.970292+05:30
Shillong,Meghalaya,25.5788,91.8933,24.3,76,0.0,853.7,2.5,41.8,28,4.5,4.4,4.7,145.0,67.0,1.5,3,5,3,1,2026-07-09T14:00:34.970299+05:30
Imphal,Manipur,24.817,93.9368,27.5,72,0.0,918.4,2.6,32.8,30,3.8,2.8,1.5,116.0,62.0,0.8,7,5,3,1,2026-07-09T14:00:34.970307+05:30
Aizawl,Mizoram,23.7271,92.7176,22.3,86,0.2,889.0,0.65,44.6,26,2.8,1.7,0.8,104.0,66.0,0.9,6,5,3,1,2026-07-09T14:00:34.970315+05:30
Kohima,Nagaland,25.6701,94.1077,22.6,93,0.2,851.6,0.95,22.7,30,2.3,2.2,1.1,131.0,70.0,0.6,6,5,3,1,2026-07-09T14:00:34.970322+05:30
Gangtok,Sikkim,27.3314,88.6138,22.7,76,0.0,834.6,7.5,28.8,42,1.6,1.6,2.6,206.0,94.0,0.8,3,5,7,1,2026-07-09T14:00:34.970329+05:30
Siliguri,West Bengal,26.7271,88.3953,27.4,97,0.4,985.6,7.1,28.1,59,5.3,5.3,2.9,293.0,114.0,2.5,10,5,7,1,2026-07-09T14:00:38.266379+05:30
Durgapur,West Bengal,23.5204,87.3119,28.9,86,0.2,988.3,6.95,43.6,104,33.3,31.3,16.1,498.0,103.0,38.4,10,5,7,1,2026-07-09T14:00:38.266413+05:30
Asansol,West Bengal,23.6739,86.9524,29.8,81,0.1,986.6,6.85,39.6,104,35.4,33.6,16.9,229.0,109.0,40.9,10,5,7,1,2026-07-09T14:00:38.266424+05:30
Pondicherry,Puducherry,11.9139,79.8145,34.3,57,0.0,1005.5,7.55,42.5,65,31.5,22.0,2.4,178.0,126.0,9.1,0,5,4,1,2026-07-09T14:00:38.266434+05:30
Port Blair,Andaman and Nicobar Islands,11.6234,92.7265,31.2,65,0.0,1006.9,8.75,41.0,55,22.1,12.8,0.2,93.0,54.0,0.5,3,5,4,1,2026-07-09T14:00:38.266443+05:30
Haridwar,Uttarakhand,29.9457,78.1642,26.9,92,0.5,965.4,0.6,29.9,69,12.2,12.2,9.2,298.0,84.0,2.0,10,5,3,1,2026-07-09T14:00:38.266451+05:30
Rishikesh,Uttarakhand,30.0869,78.2676,27.2,92,0.2,958.3,1.1,19.1,43,9.3,9.2,4.1,274.0,102.0,1.1,10,5,3,1,2026-07-09T14:00:38.266459+05:30
Nainital,Uttarakhand,29.3919,79.4542,21.3,81,0.1,801.7,7.65,51.1,47,7.0,6.8,1.3,199.0,108.0,2.8,6,5,7,1,2026-07-09T14:00:38.266467+05:30
Mussoorie,Uttarakhand,30.4599,78.0664,17.2,97,0.2,797.9,1.55,45.0,77,15.3,15.3,10.5,223.0,95.0,2.1,6,10,3,1,2026-07-09T14:00:38.266475+05:30
Dharamshala,Himachal Pradesh,32.219,76.3234,25.3,75,0.0,863.9,8.45,36.4,52,17.9,16.9,1.0,308.0,140.0,1.7,7,5,7,1,2026-07-09T14:00:38.266483+05:30
Dalhousie,Himachal Pradesh,32.5387,75.971,21.4,84,0.1,800.9,8.5,31.0,106,37.5,34.5,1.3,337.0,183.0,3.4,6,5,7,1,2026-07-09T14:00:38.266491+05:30
Patiala,Punjab,30.3398,76.3869,31.3,73,0.0,969.7,5.5,25.6,152,45.5,43.5,14.6,326.0,108.0,12.7,3,5,3,1,2026-07-09T14:00:38.266499+05:30
Bhatinda,Punjab,30.211,74.9455,36.7,46,0.0,974.1,8.25,36.4,159,136.9,57.2,3.2,313.0,202.0,19.5,0,5,10,1,2026-07-09T14:00:38.266506+05:30
Rohtak,Haryana,28.8955,76.6066,26.3,91,1.3,973.1,5.4,29.2,76,15.7,14.8,18.0,291.0,75.0,6.9,10,5,3,1,2026-07-09T14:00:38.266513+05:30
Panipat,Haryana,29.3909,76.9635,26.1,92,1.6,971.5,2.95,32.4,78,16.5,15.5,17.4,297.0,77.0,6.8,10,5,3,1,2026-07-09T14:00:38.266521+05:30
Mathura,Uttar Pradesh,27.4924,77.6737,32.1,60,0.0,976.9,7.65,50.0,63,1099.0,116.4,4.4,313.0,131.0,5.6,0,5,7,1,2026-07-09T14:00:38.266528+05:30
Vrindavan,Uttar Pradesh,27.5823,77.7027,31.9,61,0.0,977.2,7.35,51.5,63,1099.0,116.4,4.4,302.0,131.0,5.6,3,5,7,1,2026-07-09T14:00:38.266535+05:30
Ayodhya,Uttar Pradesh,26.7922,82.1998,31.3,76,0.0,986.4,7.45,27.4,90,35.3,33.6,2.6,274.0,146.0,8.7,3,5,7,1,2026-07-09T14:00:38.266543+05:30
Ratlam,Madhya Pradesh,23.3315,75.0367,31.0,58,0.0,948.9,8.3,49.7,64,68.2,25.6,2.4,122.0,69.0,5.4,0,5,7,1,2026-07-09T14:00:38.266550+05:30
Sagar,Madhya Pradesh,23.8388,78.7378,30.5,67,0.0,943.2,7.15,56.5,57,46.2,22.4,1.1,176.0,103.0,5.2,3,5,7,1,2026-07-09T14:00:38.266558+05:30
Satna,Madhya Pradesh,24.6005,80.8322,30.0,73,0.0,962.9,7.45,44.6,54,53.1,22.7,1.1,165.0,107.0,3.4,7,5,7,1,2026-07-09T14:00:38.266565+05:30
Akola,Maharashtra,20.7002,77.0082,31.8,57,0.0,970.5,5.65,46.8,50,78.2,27.0,1.5,113.0,85.0,6.0,0,5,3,1,2026-07-09T14:00:38.266572+05:30
Amravati,Maharashtra,20.9374,77.7796,31.1,60,0.1,962.5,8.3,51.5,51,80.1,27.9,1.7,111.0,89.0,6.7,3,5,7,1,2026-07-09T14:00:38.266580+05:30
Latur,Maharashtra,18.4088,76.5604,31.8,55,0.0,936.8,5.55,49.3,32,34.6,12.2,0.7,108.0,72.0,1.9,0,5,3,1,2026-07-09T14:00:38.266588+05:30
Nanded,Maharashtra,19.1383,77.3091,32.7,53,0.0,964.5,4.95,45.7,45,45.8,16.2,1.1,109.0,77.0,3.3,0,5,3,1,2026-07-09T14:00:38.266595+05:30
Gulbarga,Karnataka,17.3297,76.8343,32.8,51,0.0,955.5,5.9,51.1,22,31.9,11.4,1.3,110.0,70.0,2.1,0,5,3,1,2026-07-09T14:00:38.266603+05:30
Bidar,Karnataka,17.9104,77.5199,30.7,57,0.0,932.5,5.8,46.4,34,44.8,14.8,1.1,111.0,75.0,1.7,0,5,3,1,2026-07-09T14:00:38.266609+05:30
Hospet,Karnataka,15.2689,76.3909,31.2,55,0.0,954.3,7.65,53.6,21,25.8,10.2,1.2,103.0,68.0,1.7,0,5,7,1,2026-07-09T14:00:38.266616+05:30
Tirupur,Tamil Nadu,11.1085,77.3411,32.8,50,0.1,974.4,8.55,55.1,47,15.0,8.9,1.5,133.0,89.0,2.3,3,5,7,1,2026-07-09T14:00:38.266623+05:30
Alappuzha,Kerala,9.4981,76.3388,28.9,75,0.0,1010.2,8.5,42.8,51,20.7,13.0,2.3,85.0,84.0,3.3,7,0,4,1,2026-07-09T14:00:38.266631+05:30
Munnar,Kerala,10.0889,77.0595,19.4,90,0.0,858.2,8.7,36.0,20,13.4,6.1,0.7,92.0,54.0,0.9,3,10,7,1,2026-07-09T14:00:38.266639+05:30
Silchar,Assam,24.8333,92.7789,29.8,79,0.1,998.9,0.3,39.2,32,5.8,4.5,1.5,125.0,65.0,1.9,10,5,3,1,2026-07-09T14:00:38.266646+05:30
Dibrugarh,Assam,27.4728,94.912,30.4,80,0.1,987.6,5.25,26.6,56,8.4,8.0,1.0,158.0,108.0,1.6,6,5,3,1,2026-07-09T14:00:38.266654+05:30
