city,state,latitude,longitude,temp,humidity,rain,pressure,uv_index,wind_gusts,aqi,pm10,pm2_5,no2,co,o3,so2,mosquito_risk,arthritis_risk,migraine_risk,frizz_risk,updated_at
Delhi,Delhi,28.6139,77.209,34.3,59,0.0,971.1,7.65,26.6,355,925.7,168.6,15.1,373.0,122.0,11.4,0,5,7,1,2026-07-11T17:24:29.853195+05:30
Mumbai,Maharashtra,19.076,72.8777,28.1,83,0.0,1005.7,6.15,54.0,56,31.3,14.6,5.7,159.0,55.0,4.2,7,5,4,1,2026-07-11T17:24:29.853242+05:30
Bangalore,Karnataka,12.9716,77.5946,30.6,40,0.0,910.4,7.2,45.0,45,39.8,14.5,6.1,323.0,73.0,2.2,0,5,7,0,2026-07-11T17:24:29.853258+05:30
Hyderabad,Telangana,17.385,78.4867,32.3,42,0.0,949.3,8.35,48.2,65,51.5,18.4,4.7,202.0,83.0,2.6,0,5,7,1,2026-07-11T17:24:29.853268+05:30
Chennai,Tamil Nadu,13.0827,80.2707,32.8,65,0.1,1002.6,8.15,33.1,69,49.4,25.4,5.0,290.0,128.0,4.9,6,5,4,1,2026-07-11T17:24:29.853276+05:30
Kolkata,West Bengal,22.5726,88.3639,28.1,90,0.6,996.1,2.35,34.9,106,65.2,40.2,6.9,535.0,132.0,12.5,10,5,3,1,2026-07-11T17:24:29.853285+05:30
Pune,Maharashtra,18.5204,73.8567,26.5,75,0.0,945.5,7.65,57.6,36,24.2,10.5,2.7,135.0,59.0,3.3,7,5,7,1,2026-07-11T17:24:29.853292+05:30
Ahmedabad,Gujarat,23.0225,72.5714,35.7,45,0.0,993.7,6.1,49.7,67,55.3,23.2,2.6,142.0,87.0,3.1,0,5,10,1,2026-07-11T17:24:29.853299+05:30
Jaipur,Rajasthan,26.9124,75.7873,32.7,55,0.0,949.9,7.7,41.0,452,473.1,78.5,1.9,147.0,98.0,3.0,0,5,7,1,2026-07-11T17:24:29.853306+05:30
Lucknow,Uttar Pradesh,26.8467,80.9462,32.9,67,0.0,981.8,6.1,51.8,152,227.7,72.4,4.0,199.0,105.0,4.2,3,5,7,1,2026-07-11T17:24:29.853330+05:30
Kanpur,Uttar Pradesh,26.4499,80.3319,33.0,67,0.1,980.6,8.05,51.5,134,154.6,51.8,4.0,203.0,106.0,4.3,6,5,7,1,2026-07-11T17:24:29.853339+05:30
Chandigarh,Chandigarh,30.7333,76.7794,32.0,64,0.0,957.4,7.7,23.4,178,140.6,56.5,1.5,399.0,176.0,11.1,3,5,7,1,2026-07-11T17:24:29.853345+05:30
Srinagar,Jammu and Kashmir,34.0837,74.7973,26.0,67,0.0,834.6,9.0,28.8,125,13.9,12.3,5.8,381.0,151.0,2.3,7,5,7,1,2026-07-11T17:24:29.853352+05:30
Jammu,Jammu and Kashmir,32.7266,74.857,32.6,59,0.0,961.3,8.55,28.8,151,47.1,28.6,2.0,402.0,174.0,3.1,0,5,7,1,2026-07-11T17:24:29.853358+05:30
Amritsar,Punjab,31.634,74.8723,32.3,69,0.0,968.7,8.4,33.5,157,278.5,89.6,2.3,255.0,152.0,5.8,3,5,7,1,2026-07-11T17:24:29.853364+05:30
Ludhiana,Punjab,30.901,75.8573,33.4,63,0.0,966.7,7.9,47.9,155,422.8,111.5,1.1,405.0,145.0,5.3,3,5,7,1,2026-07-11T17:24:29.853371+05:30
Jalandhar,Punjab,31.326,75.5762,31.7,69,0.0,968.0,8.15,40.7,161,317.6,96.9,0.7,337.0,158.0,5.2,3,5,7,1,2026-07-11T17:24:29.853379+05:30
Dehradun,Uttarakhand,30.6284,78.0322,21.1,92,0.2,823.6,7.85,27.0,85,22.4,20.5,3.4,258.0,145.0,2.6,6,5,7,1,2026-07-11T17:24:29.853387+05:30
Shimla,Himachal Pradesh,31.1048,77.1734,17.8,96,0.1,778.5,3.75,31.7,159,45.2,35.9,3.4,364.0,170.0,10.1,6,10,3,1,2026-07-11T17:24:29.853394+05:30
Manali,Himachal Pradesh,32.2396,77.1887,22.6,87,0.1,813.5,7.7,25.6,76,9.1,8.6,6.5,216.0,154.0,0.9,6,5,7,1,2026-07-11T17:24:29.853402+05:30
Gurgaon,Haryana,28.4595,77.0266,34.6,55,0.0,969.6,7.7,30.2,439,651.9,126.7,13.5,326.0,116.0,7.8,0,5,7,1,2026-07-11T17:24:29.853410+05:30
Noida,Uttar Pradesh,28.5355,77.391,34.7,57,0.0,972.5,7.65,27.0,439,651.9,126.7,13.5,355.0,116.0,7.8,0,5,7,1,2026-07-11T17:24:29.853417+05:30
Ghaziabad,Uttar Pradesh,28.6692,77.4538,34.2,60,0.0,970.8,7.05,27.4,163,881.0,177.4,7.9,294.0,155.0,15.4,0,5,7,1,2026-07-11T17:24:29.853423+05:30
Faridabad,Haryana,28.4089,77.3178,34.2,59,0.0,971.8,7.65,25.9,439,651.9,126.7,13.5,302.0,116.0,7.8,0,5,7,1,2026-07-11T17:24:29.853429+05:30
Meerut,Uttar Pradesh,28.9845,77.7064,33.3,65,0.0,969.7,7.6,28.4,163,881.0,177.4,7.9,252.0,155.0,15.4,3,5,7,1,2026-07-11T17:24:29.853435+05:30
Agra,Uttar Pradesh,27.1767,78.0081,34.1,56,0.0,976.4,8.0,39.6,160,232.4,53.1,3.8,152.0,109.0,3.0,0,5,7,1,2026-07-11T17:24:29.853442+05:30
Varanasi,Uttar Pradesh,25.3176,82.9739,32.5,67,0.0,986.5,6.3,46.4,113,75.2,37.5,4.7,248.0,112.0,6.1,3,5,7,1,2026-07-11T17:24:29.853449+05:30
Prayagraj,Uttar Pradesh,25.4358,81.8463,33.2,62,0.0,985.2,8.25,44.3,117,88.2,41.8,4.4,171.0,109.0,6.2,3,5,7,1,2026-07-11T17:24:29.853455+05:30
Gorakhpur,Uttar Pradesh,26.7606,83.3732,30.1,82,0.0,985.8,6.05,39.2,96,122.9,56.3,6.7,368.0,133.0,9.2,3,5,7,1,2026-07-11T17:24:29.853462+05:30
Bareilly,Uttar Pradesh,28.367,79.4304,32.5,70,0.0,975.0,8.0,36.0,135,250.5,90.6,3.5,265.0,150.0,9.4,3,5,7,1,2026-07-11T17:24:29.853470+05:30
Aligarh,Uttar Pradesh,27.8974,78.088,33.9,61,0.0,973.9,7.8,33.1,216,802.8,146.7,5.0,165.0,109.0,5.2,3,5,7,1,2026-07-11T17:24:29.853476+05:30
Moradabad,Uttar Pradesh,28.8386,78.7733,32.7,69,0.0,971.7,7.8,33.5,138,308.3,105.5,4.8,272.0,178.0,13.8,3,5,7,1,2026-07-11T17:24:29.853482+05:30
Saharanpur,Uttar Pradesh,29.9637,77.546,32.3,68,0.0,964.1,7.35,24.1,141,252.4,79.4,4.2,265.0,162.0,16.0,3,5,7,1,2026-07-11T17:24:29.853488+05:30
Jhansi,Uttar Pradesh,25.4484,78.5685,33.5,54,0.0,968.1,8.4,46.8,97,81.7,35.7,2.0,132.0,111.0,7.2,0,5,7,1,2026-07-11T17:24:33.100225+05:30
Surat,Gujarat,21.1702,72.8311,30.0,77,0.0,1001.7,5.1,64.1,61,34.1,18.4,7.9,191.0,47.0,19.2,7,5,0,1,2026-07-11T17:24:33.100257+05:30
Vadodara,Gujarat,22.3072,73.1812,32.1,69,0.0,997.2,7.75,54.0,61,42.6,19.0,3.4,138.0,78.0,3.7,3,5,7,1,2026-07-11T17:24:33.100268+05:30
Rajkot,Gujarat,22.3039,70.8022,33.1,53,0.0,987.4,7.1,60.5,60,56.3,22.8,1.4,99.0,73.0,3.2,0,5,7,1,2026-07-11T17:24:33.100276+05:30
Thane,Maharashtra,19.2183,72.9781,29.2,78,0.0,1005.0,6.2,46.1,56,31.3,14.6,5.7,149.0,55.0,4.2,7,5,4,1,2026-07-11T17:24:33.100284+05:30
Nagpur,Maharashtra,21.1458,79.0882,31.2,58,0.0,966.9,6.8,49.3,87,62.9,27.1,6.3,149.0,83.0,10.8,0,5,7,1,2026-07-11T17:24:33.100291+05:30
Nashik,Maharashtra,19.9975,73.7898,27.1,70,0.0,941.9,7.45,62.6,37,27.1,12.0,1.5,109.0,55.0,1.1,7,5,7,1,2026-07-11T17:24:33.100299+05:30
Aurangabad,Maharashtra,19.8762,75.3433,29.6,58,0.0,940.0,8.9,54.0,53,34.0,13.3,1.7,114.0,82.0,4.1,4,5,7,1,2026-07-11T17:24:33.100306+05:30
Solapur,Maharashtra,17.6599,75.9064,31.5,51,0.0,953.8,7.85,47.5,48,47.8,15.1,1.4,116.0,73.0,1.5,0,5,7,1,2026-07-11T17:24:33.100314+05:30
Kolhapur,Maharashtra,16.705,74.2433,25.9,77,0.0,946.3,7.2,51.5,39,28.4,11.6,2.6,123.0,57.0,1.8,7,5,7,1,2026-07-11T17:24:33.100322+05:30
Goa,Goa,15.2993,74.124,28.9,77,0.0,997.2,8.0,36.7,56,21.7,10.2,1.3,108.0,53.0,1.2,7,5,7,1,2026-07-11T17:24:33.100329+05:30
Jodhpur,Rajasthan,26.2389,73.0243,35.9,43,0.0,972.2,8.4,53.6,197,446.1,80.1,1.1,111.0,82.0,1.8,0,5,10,1,2026-07-11T17:24:33.100337+05:30
Udaipur,Rajasthan,24.5854,73.7125,30.9,55,0.0,938.5,8.6,54.4,73,55.5,22.4,1.1,119.0,83.0,2.4,0,5,7,1,2026-07-11T17:24:33.100345+05:30
Kota,Rajasthan,25.2138,75.8648,34.1,51,0.0,969.0,8.3,42.5,90,54.6,24.2,1.9,138.0,99.0,4.7,0,5,7,1,2026-07-11T17:24:33.100352+05:30
Bikaner,Rajasthan,28.0229,73.3119,37.7,39,0.0,969.4,8.45,42.5,156,184.4,52.4,0.6,110.0,90.0,3.1,0,5,10,1,2026-07-11T17:24:33.100359+05:30
Ajmer,Rajasthan,26.4499,74.6399,32.1,55,0.0,945.1,8.25,52.2,84,53.4,23.6,1.3,118.0,89.0,2.4,0,5,7,1,2026-07-11T17:24:33.100367+05:30
Gwalior,Madhya Pradesh,26.2183,78.1828,32.8,59,0.0,972.7,8.15,45.7,91,74.7,33.2,1.2,131.0,102.0,3.1,0,5,7,1,2026-07-11T17:24:33.100375+05:30
Indore,Madhya Pradesh,22.7196,75.8577,29.4,64,0.0,941.4,8.45,56.2,73,51.3,22.2,2.8,181.0,86.0,3.9,7,5,7,1,2026-07-11T17:24:33.100382+05:30
Bhopal,Madhya Pradesh,23.2599,77.4126,30.2,61,0.0,946.4,8.55,50.0,82,60.3,26.7,2.3,200.0,82.0,3.4,3,5,7,1,2026-07-11T17:24:33.100390+05:30
Jabalpur,Madhya Pradesh,23.1815,79.9864,29.8,63,0.0,954.3,5.9,42.8,86,59.8,25.4,1.7,164.0,95.0,3.7,7,5,3,1,2026-07-11T17:24:33.100398+05:30
Ujjain,Madhya Pradesh,23.1765,75.7885,30.1,62,0.0,946.7,7.35,54.0,73,50.5,21.8,1.8,152.0,83.0,3.2,3,5,7,1,2026-07-11T17:24:33.100405+05:30
Visakhapatnam,Andhra Pradesh,17.6868,83.2185,33.5,63,0.0,995.7,7.7,37.8,94,65.7,34.9,10.8,262.0,135.0,26.9,3,5,7,1,2026-07-11T17:24:33.100412+05:30
Vijayawada,Andhra Pradesh,16.5062,80.648,35.3,45,0.0,997.0,5.95,42.1,90,39.7,18.7,3.9,132.0,83.0,3.8,0,5,6,1,2026-07-11T17:24:33.100419+05:30
Guntur,Andhra Pradesh,16.3067,80.4365,36.3,38,0.0,998.2,5.5,45.7,86,39.6,17.2,3.7,129.0,79.0,3.1,0,5,6,1,2026-07-11T17:24:33.100427+05:30
Nellore,Andhra Pradesh,14.4426,79.9865,36.6,38,0.0,1000.6,7.85,40.0,65,58.8,25.4,4.7,122.0,109.0,5.2,0,5,7,1,2026-07-11T17:24:33.100435+05:30
Kurnool,Andhra Pradesh,15.8281,78.0373,34.4,37,0.0,972.8,7.7,48.6,60,55.5,19.3,3.1,125.0,82.0,4.6,0,5,7,1,2026-07-11T17:24:33.100443+05:30
Kakinada,Andhra Pradesh,16.9891,82.2475,34.0,54,0.0,1000.7,7.9,46.8,81,49.7,26.3,3.7,167.0,125.0,4.4,0,5,4,1,2026-07-11T17:24:33.100451+05:30
Tirupati,Andhra Pradesh,13.6288,79.4192,36.7,33,0.0,986.4,8.1,38.2,62,55.1,19.4,3.5,111.0,81.0,1.2,0,5,10,1,2026-07-11T17:24:33.100458+05:30
Warangal,Telangana,17.9689,79.5941,31.6,57,0.0,973.8,5.6,42.8,78,50.4,20.7,2.8,142.0,83.0,2.9,0,5,3,1,2026-07-11T17:24:33.100465+05:30
Nizamabad,Telangana,18.6725,78.0941,30.3,58,0.0,960.2,8.7,46.8,73,62.2,22.6,2.4,137.0,85.0,3.7,0,5,7,1,2026-07-11T17:24:33.100472+05:30
Mysore,Karnataka,12.2958,76.6396,28.0,61,0.0,927.4,6.0,44.3,32,21.2,8.7,3.0,128.0,74.0,1.5,7,5,3,1,2026-07-11T17:24:33.100480+05:30
Mangalore,Karnataka,12.9141,74.856,27.6,83,0.1,1006.7,8.15,44.3,53,19.8,9.6,1.2,92.0,55.0,1.3,10,5,4,1,2026-07-11T17:24:33.100487+05:30
Hubli-Dharwad,Karnataka,15.3647,75.124,27.3,68,0.0,939.6,7.25,49.3,35,20.2,8.1,2.1,111.0,57.0,1.2,7,5,7,1,2026-07-11T17:24:33.100494+05:30
Belgaum,Karnataka,15.8497,74.4977,25.5,72,0.0,924.5,8.35,50.4,33,25.2,9.7,1.9,102.0,50.0,1.2,7,5,7,1,2026-07-11T17:24:36.370586+05:30
Coimbatore,Tamil Nadu,11.0168,76.9558,28.4,70,0.0,960.0,8.25,48.2,33,15.6,7.8,2.5,148.0,69.0,2.0,7,5,7,1,2026-07-11T17:24:36.370619+05:30
Madurai,Tamil Nadu,9.9252,78.1198,34.5,45,0.0,990.1,8.15,25.6,55,18.3,8.2,2.4,157.0,80.0,1.6,0,5,7,1,2026-07-11T17:24:36.370630+05:30
Trichy,Tamil Nadu,10.7905,78.7047,36.1,40,0.0,996.2,8.05,46.4,47,26.7,11.2,1.9,123.0,86.0,1.8,0,5,10,1,2026-07-11T17:24:36.370639+05:30
Salem,Tamil Nadu,11.6643,78.146,32.4,55,0.0,974.6,7.8,29.9,59,37.3,14.7,2.9,186.0,97.0,4.3,0,5,7,1,2026-07-11T17:24:36.370648+05:30
Tirunelveli,Tamil Nadu,8.7139,77.7567,34.4,46,0.0,1000.6,8.6,48.2,30,9.0,5.0,2.3,111.0,66.0,1.3,0,5,4,1,2026-07-11T17:24:36.370656+05:30
Vellore,Tamil Nadu,12.9165,79.1325,36.7,32,0.0,980.3,8.75,40.7,55,60.5,21.2,4.3,147.0,92.0,2.0,0,5,10,1,2026-07-11T17:24:36.370664+05:30
Erode,Tamil Nadu,11.341,77.7172,33.6,46,0.0,986.1,7.85,36.0,50,31.1,12.1,3.4,157.0,89.0,1.9,0,5,7,1,2026-07-11T17:24:36.370671+05:30
Kochi,Kerala,9.9312,76.2673,28.0,82,0.0,1008.5,7.75,34.6,51,19.0,9.2,3.1,117.0,56.0,2.0,7,0,4,1,2026-07-11T17:24:36.370679+05:30
Thiruvananthapuram,Kerala,8.5241,76.9366,27.6,84,0.0,1007.6,8.0,47.9,37,13.5,7.8,2.7,100.0,65.0,1.1,7,5,4,1,2026-07-11T17:24:36.370686+05:30
Kozhikode,Kerala,11.2588,75.7804,27.8,85,0.1,1007.8,7.4,39.6,41,20.4,8.9,0.6,99.0,57.0,0.9,10,5,4,1,2026-07-11T17:24:36.370693+05:30
Thrissur,Kerala,10.5276,76.2144,28.2,80,0.0,1006.8,7.1,38.5,54,20.5,9.3,2.4,104.0,55.0,1.5,7,5,4,1,2026-07-11T17:24:36.370701+05:30
Kannur,Kerala,11.8745,75.3704,28.6,78,0.0,1006.9,8.05,45.4,50,21.2,9.7,1.0,92.0,56.0,1.1,7,5,4,1,2026-07-11T17:24:36.370708+05:30
Patna,Bihar,25.5941,85.1376,30.0,82,0.0,989.4,4.8,34.2,100,80.6,48.7,10.8,300.0,107.0,7.5,7,5,3,1,2026-07-11T17:24:36.370715+05:30
Gaya,Bihar,24.7914,85.0002,30.9,76,0.0,983.6,7.5,41.4,96,43.0,30.3,12.1,208.0,78.0,14.1,3,5,7,1,2026-07-11T17:24:36.370723+05:30
Muzaffarpur,Bihar,26.1209,85.3647,30.1,86,0.1,988.9,4.95,36.4,103,68.7,41.2,11.5,278.0,105.0,6.7,6,5,3,1,2026-07-11T17:24:36.370731+05:30
Bhagalpur,Bihar,25.2425,87.0117,29.9,83,0.0,989.8,7.65,24.8,82,23.5,17.3,7.7,243.0,101.0,8.0,7,5,7,1,2026-07-11T17:24:36.370738+05:30
Ranchi,Jharkhand,23.3441,85.3096,25.6,93,0.1,929.8,7.0,40.7,93,30.9,21.3,7.8,201.0,74.0,3.3,10,5,7,1,2026-07-11T17:24:36.370745+05:30
Jamshedpur,Jharkhand,22.8046,86.2029,29.4,85,0.1,981.7,8.5,35.6,110,48.4,33.9,8.7,287.0,104.0,13.7,10,5,7,1,2026-07-11T17:24:36.370752+05:30
Dhanbad,Jharkhand,23.7957,86.4304,26.7,94,0.4,970.5,8.65,40.7,128,30.6,27.7,31.9,215.0,50.0,65.2,10,5,7,1,2026-07-11T17:24:36.370759+05:30
Bokaro,Jharkhand,23.6693,86.1511,27.1,93,0.5,974.5,6.9,33.5,121,28.5,25.1,23.2,204.0,58.0,50.9,10,5,7,1,2026-07-11T17:24:36.370766+05:30
Bhubaneswar,Odisha,20.2961,85.8245,28.8,92,0.0,994.3,8.45,37.1,83,71.2,38.2,6.4,343.0,115.0,8.5,7,5,7,1,2026-07-11T17:24:36.370773+05:30
Cuttack,Odisha,20.4625,85.8828,30.2,77,0.0,995.9,8.55,35.6,83,71.2,38.2,6.4,292.0,115.0,8.5,3,5,7,1,2026-07-11T17:24:36.370779+05:30
Rourkela,Odisha,22.2604,84.8536,30.6,71,0.0,976.5,8.2,37.4,132,66.6,38.5,5.6,307.0,115.0,11.2,3,5,7,1,2026-07-11T17:24:36.370786+05:30
Raipur,Chhattisgarh,21.2514,81.6296,31.1,59,0.0,967.5,7.6,41.4,119,61.9,33.2,13.8,140.0,98.0,30.4,0,5,7,1,2026-07-11T17:24:36.370793+05:30
Bhilai,Chhattisgarh,21.1938,81.3509,31.2,58,0.0,968.0,7.4,43.6,112,65.0,32.9,11.9,351.0,101.0,25.9,0,5,7,1,2026-07-11T17:24:36.370800+05:30
Guwahati,Assam,26.1158,91.7086,27.7,97,0.1,989.7,8.55,31.0,44,11.0,10.9,4.6,282.0,95.0,1.8,10,5,7,1,2026-07-11T17:24:36.370806+05:30
Agartala,Tripura,23.8315,91.2868,27.6,95,0.1,996.3,6.75,33.8,81,44.6,37.4,12.0,252.0,109.0,6.7,10,5,7,1,2026-07-11T17:24:36.370813+05:30
Shillong,Meghalaya,25.5788,91.8933,23.2,82,0.0,849.9,3.95,27.4,41,3.2,3.2,7.2,261.0,86.0,3.0,3,5,3,1,2026-07-11T17:24:36.370819+05:30
Imphal,Manipur,24.817,93.9368,27.0,78,0.0,914.5,8.55,29.9,43,4.2,4.0,4.6,224.0,79.0,1.4,7,5,7,1,2026-07-11T17:24:36.370825+05:30
Aizawl,Mizoram,23.7271,92.7176,22.1,87,0.0,885.0,8.25,43.2,42,5.7,4.0,2.9,171.0,88.0,2.5,3,5,7,1,2026-07-11T17:24:36.370832+05:30
Kohima,Nagaland,25.6701,94.1077,22.6,97,0.1,848.0,6.6,20.9,42,4.2,4.0,3.8,175.0,71.0,1.3,6,5,7,1,2026-07-11T17:24:36.370839+05:30
Gangtok,Sikkim,27.3314,88.6138,21.3,100,0.0,830.5,8.5,31.7,49,4.1,4.0,3.5,258.0,106.0,1.0,3,5,7,1,2026-07-11T17:24:36.370846+05:30
Siliguri,West Bengal,26.7271,88.3953,28.3,89,0.1,981.1,5.0,25.6,93,16.6,16.5,6.6,520.0,114.0,2.3,10,5,3,1,2026-07-11T17:24:39.613543+05:30
Durgapur,West Bengal,23.5204,87.3119,29.7,82,0.0,985.0,6.3,40.7,133,47.4,39.9,33.5,352.0,73.0,56.6,7,5,7,1,2026-07-11T17:24:39.613576+05:30
Asansol,West Bengal,23.6739,86.9524,29.9,79,0.0,983.7,7.05,42.5,116,34.9,30.3,32.4,244.0,58.0,49.5,7,5,7,1,2026-07-11T17:24:39.613588+05:30
Pondicherry,Puducherry,11.9139,79.8145,31.4,72,0.0,1004.2,8.15,41.4,67,55.1,29.0,10.1,208.0,133.0,8.8,3,5,4,1,2026-07-11T17:24:39.613597+05:30
Port Blair,Andaman and Nicobar Islands,11.6234,92.7265,28.5,79,0.0,1004.7,8.8,57.2,35,16.2,8.1,0.4,101.0,42.0,0.4,7,5,4,1,2026-07-11T17:24:39.613605+05:30
Haridwar,Uttarakhand,29.9457,78.1642,31.4,75,0.0,962.5,7.5,22.3,132,108.5,49.2,1.6,364.0,175.0,12.4,3,5,7,1,2026-07-11T17:24:39.613612+05:30
Rishikesh,Uttarakhand,30.0869,78.2676,30.0,79,0.0,955.6,7.6,22.7,106,37.8,29.4,1.8,316.0,156.0,7.1,7,5,7,1,2026-07-11T17:24:39.613621+05:30
Nainital,Uttarakhand,29.3919,79.4542,20.7,87,0.0,799.7,3.1,23.8,104,50.9,28.1,2.8,242.0,143.0,7.9,3,5,3,1,2026-07-11T17:24:39.613629+05:30
Mussoorie,Uttarakhand,30.4599,78.0664,20.5,86,0.1,797.0,7.75,32.4,122,43.9,33.3,2.3,273.0,170.0,7.2,6,5,7,1,2026-07-11T17:24:39.613636+05:30
Dharamshala,Himachal Pradesh,32.219,76.3234,23.6,87,0.0,861.5,8.4,27.4,122,17.1,13.0,0.6,333.0,157.0,1.8,3,5,7,1,2026-07-11T17:24:39.613643+05:30
Dalhousie,Himachal Pradesh,32.5387,75.971,20.3,91,0.0,799.0,8.65,18.0,163,44.9,30.0,2.3,379.0,178.0,3.7,3,5,7,1,2026-07-11T17:24:39.613651+05:30
Patiala,Punjab,30.3398,76.3869,33.2,64,0.0,966.4,7.5,24.5,151,583.0,132.7,0.9,223.0,143.0,6.1,3,5,7,1,2026-07-11T17:24:39.613658+05:30
Bhatinda,Punjab,30.211,74.9455,36.7,47,0.0,971.0,8.1,27.0,178,300.8,106.6,3.1,126.0,141.0,11.3,0,5,10,1,2026-07-11T17:24:39.613664+05:30
Rohtak,Haryana,28.8955,76.6066,34.8,57,0.0,969.6,7.6,32.0,693,1017.0,158.8,6.0,221.0,110.0,3.0,0,5,7,1,2026-07-11T17:24:39.613671+05:30
Panipat,Haryana,29.3909,76.9635,34.1,62,0.0,968.4,7.1,19.8,764,1855.2,249.6,5.7,211.0,115.0,9.8,3,5,7,1,2026-07-11T17:24:39.613679+05:30
Mathura,Uttar Pradesh,27.4924,77.6737,34.0,57,0.0,975.3,7.6,32.4,405,767.4,110.1,4.8,173.0,110.0,2.8,0,5,7,1,2026-07-11T17:24:39.613686+05:30
Vrindavan,Uttar Pradesh,27.5823,77.7027,34.4,56,0.0,975.6,7.75,30.6,405,767.4,110.1,4.8,168.0,110.0,2.8,0,5,7,1,2026-07-11T17:24:39.613693+05:30
Ayodhya,Uttar Pradesh,26.7922,82.1998,29.4,87,0.0,983.8,6.95,40.7,136,190.0,82.2,6.0,290.0,110.0,5.4,7,5,7,1,2026-07-11T17:24:39.613700+05:30
Ratlam,Madhya Pradesh,23.3315,75.0367,30.1,62,0.0,947.6,5.5,55.8,70,49.8,21.4,1.4,118.0,84.0,3.4,3,5,3,1,2026-07-11T17:24:39.613707+05:30
Sagar,Madhya Pradesh,23.8388,78.7378,29.7,58,0.0,942.7,7.7,52.6,88,72.2,28.4,1.2,138.0,92.0,2.7,4,5,7,1,2026-07-11T17:24:39.613715+05:30
Satna,Madhya Pradesh,24.6005,80.8322,31.8,60,0.0,962.4,8.15,45.0,99,67.3,31.0,1.5,145.0,105.0,3.8,0,5,7,1,2026-07-11T17:24:39.613722+05:30
Akola,Maharashtra,20.7002,77.0082,32.8,50,0.0,969.0,8.7,50.8,69,62.2,21.4,2.3,115.0,84.0,5.1,0,5,7,1,2026-07-11T17:24:39.613730+05:30
Amravati,Maharashtra,20.9374,77.7796,31.6,55,0.0,961.3,8.65,50.4,71,68.2,23.2,2.6,118.0,87.0,5.9,0,5,7,1,2026-07-11T17:24:39.613738+05:30
Latur,Maharashtra,18.4088,76.5604,30.5,51,0.0,936.2,8.5,46.4,54,53.9,17.7,1.6,120.0,77.0,2.0,0,5,7,1,2026-07-11T17:24:39.613745+05:30
Nanded,Maharashtra,19.1383,77.3091,31.6,53,0.0,963.7,8.1,49.0,64,67.3,22.3,2.7,147.0,80.0,2.5,0,5,7,1,2026-07-11T17:24:39.613752+05:30
Gulbarga,Karnataka,17.3297,76.8343,32.1,46,0.0,954.9,7.65,50.0,54,54.5,16.8,2.7,126.0,79.0,1.9,0,5,7,1,2026-07-11T17:24:39.613759+05:30
Bidar,Karnataka,17.9104,77.5199,30.0,54,0.0,931.9,6.4,47.9,61,62.2,20.1,3.6,133.0,78.0,1.8,4,5,7,1,2026-07-11T17:24:39.613766+05:30
Hospet,Karnataka,15.2689,76.3909,31.7,46,0.0,953.3,8.3,49.0,42,38.8,14.4,2.7,115.0,69.0,1.9,0,5,7,1,2026-07-11T17:24:39.613773+05:30
Tirupur,Tamil Nadu,11.1085,77.3411,30.5,61,0.0,973.0,8.1,52.9,52,31.8,12.3,3.0,138.0,83.0,2.3,3,5,7,1,2026-07-11T17:24:39.613779+05:30
Alappuzha,Kerala,9.4981,76.3388,28.1,81,0.0,1008.5,8.2,40.0,45,17.7,9.6,3.9,87.0,60.0,2.2,7,0,4,1,2026-07-11T17:24:39.613786+05:30
Munnar,Kerala,10.0889,77.0595,18.6,95,0.2,856.8,8.2,37.8,24,6.2,3.8,2.9,101.0,52.0,1.0,6,10,7,1,2026-07-11T17:24:39.613794+05:30
Silchar,Assam,24.8333,92.7789,27.5,93,0.4,995.0,7.95,29.9,42,7.7,7.3,4.1,252.0,83.0,2.9,10,5,7,1,2026-07-11T17:24:39.613801+05:30
Dibrugarh,Assam,27.4728,94.912,29.0,93,0.1,983.7,6.55,28.4,50,8.2,8.0,5.6,194.0,85.0,1.7,10,5,7,1,2026-07-11T17:24:39.613808+05:30
