city,state,latitude,longitude,temp,humidity,rain,pressure,uv_index,wind_gusts,aqi,pm10,pm2_5,no2,co,o3,so2,mosquito_risk,arthritis_risk,migraine_risk,frizz_risk,updated_at
Delhi,Delhi,28.6139,77.209,40.7,17,0.0,980.9,7.75,45.7,437,421.9,84.1,4.8,273.0,170.0,14.9,0,5,10,0,2026-05-23T12:05:43.607596+05:30
Mumbai,Maharashtra,19.076,72.8777,33.0,62,0.0,1010.3,7.75,36.0,55,17.9,13.4,5.3,205.0,105.0,9.0,3,0,4,1,2026-05-23T12:05:43.607642+05:30
Bangalore,Karnataka,12.9716,77.5946,30.4,46,0.0,914.7,6.05,42.8,45,23.1,13.7,4.4,265.0,102.0,3.5,0,5,7,1,2026-05-23T12:05:43.607658+05:30
Hyderabad,Telangana,17.385,78.4867,37.8,31,0.0,953.7,9.2,55.4,87,27.2,21.6,2.2,229.0,143.0,7.0,0,5,10,1,2026-05-23T12:05:43.607668+05:30
Chennai,Tamil Nadu,13.0827,80.2707,38.1,37,0.0,1005.6,6.15,57.6,73,33.2,25.8,7.7,298.0,160.0,13.6,0,5,7,1,2026-05-23T12:05:43.607676+05:30
Kolkata,West Bengal,22.5726,88.3639,34.8,63,0.0,1003.0,9.0,44.6,101,67.5,41.0,2.2,252.0,126.0,7.1,3,5,4,1,2026-05-23T12:05:43.607690+05:30
Pune,Maharashtra,18.5204,73.8567,31.6,55,0.0,950.6,8.4,35.3,49,11.9,8.2,2.6,162.0,83.0,5.1,0,5,7,1,2026-05-23T12:05:43.607697+05:30
Ahmedabad,Gujarat,23.0225,72.5714,38.0,35,0.0,1003.4,8.15,37.8,73,33.6,20.4,1.6,162.0,89.0,3.8,0,5,7,1,2026-05-23T12:05:43.607703+05:30
Jaipur,Rajasthan,26.9124,75.7873,39.2,19,0.0,960.1,8.25,47.5,157,525.3,92.9,1.0,148.0,102.0,3.1,0,5,10,0,2026-05-23T12:05:43.607712+05:30
Lucknow,Uttar Pradesh,26.8467,80.9462,42.0,16,0.0,989.8,8.2,52.6,163,150.4,53.9,3.2,223.0,190.0,15.1,0,5,10,0,2026-05-23T12:05:43.607719+05:30
Kanpur,Uttar Pradesh,26.4499,80.3319,42.1,15,0.0,988.7,8.25,46.1,308,404.2,71.9,2.3,199.0,160.0,10.4,0,5,10,0,2026-05-23T12:05:43.607726+05:30
Chandigarh,Chandigarh,30.7333,76.7794,38.5,16,0.0,966.7,7.75,42.5,89,89.2,28.9,1.8,326.0,151.0,8.7,0,5,10,0,2026-05-23T12:05:43.607732+05:30
Srinagar,Jammu and Kashmir,34.0837,74.7973,21.1,50,0.0,845.8,8.85,28.8,70,55.6,16.6,1.6,234.0,127.0,2.3,0,5,7,0,2026-05-23T12:05:43.607739+05:30
Jammu,Jammu and Kashmir,32.7266,74.857,37.5,19,0.0,971.0,8.5,40.3,84,59.6,20.0,1.6,164.0,135.0,2.0,0,5,10,0,2026-05-23T12:05:43.607748+05:30
Amritsar,Punjab,31.634,74.8723,37.8,23,0.0,978.7,8.4,31.3,144,88.2,33.3,2.0,252.0,151.0,4.7,0,5,10,0,2026-05-23T12:05:43.607754+05:30
Ludhiana,Punjab,30.901,75.8573,38.5,20,0.0,976.7,8.0,40.7,109,81.5,29.9,1.5,318.0,148.0,5.1,0,5,10,0,2026-05-23T12:05:43.607760+05:30
Jalandhar,Punjab,31.326,75.5762,38.7,19,0.0,977.6,8.15,39.2,121,98.7,34.0,1.8,248.0,152.0,5.5,0,5,10,0,2026-05-23T12:05:43.607767+05:30
Dehradun,Uttarakhand,30.6284,78.0322,26.9,26,0.0,833.1,8.15,43.6,68,89.9,20.4,0.6,152.0,123.0,0.7,4,5,7,0,2026-05-23T12:05:43.607773+05:30
Shimla,Himachal Pradesh,31.1048,77.1734,24.5,19,0.0,789.1,8.25,49.7,73,100.4,26.5,0.7,151.0,128.0,2.6,0,5,7,1,2026-05-23T12:05:43.607782+05:30
Manali,Himachal Pradesh,32.2396,77.1887,23.6,29,0.0,821.7,9.9,40.3,47,22.1,6.2,2.8,126.0,125.0,0.4,0,5,7,0,2026-05-23T12:05:43.607789+05:30
Gurgaon,Haryana,28.4595,77.0266,40.3,18,0.0,979.6,7.85,42.1,871,1188.4,161.6,4.2,249.0,163.0,11.8,0,5,10,0,2026-05-23T12:05:43.607795+05:30
Noida,Uttar Pradesh,28.5355,77.391,41.0,17,0.0,982.1,7.75,39.6,871,1188.4,161.6,4.2,275.0,163.0,11.8,0,5,10,0,2026-05-23T12:05:43.607801+05:30
Ghaziabad,Uttar Pradesh,28.6692,77.4538,40.2,18,0.0,980.5,7.75,42.5,169,326.0,73.3,5.0,224.0,185.0,19.7,0,5,10,0,2026-05-23T12:05:43.607807+05:30
Faridabad,Haryana,28.4089,77.3178,40.8,16,0.0,981.6,7.8,44.3,871,1188.4,161.6,4.2,269.0,163.0,11.8,0,5,10,0,2026-05-23T12:05:43.607813+05:30
Meerut,Uttar Pradesh,28.9845,77.7064,39.1,24,0.0,979.3,7.45,48.2,169,326.0,73.3,5.0,230.0,185.0,19.7,0,5,10,0,2026-05-23T12:05:43.607819+05:30
Agra,Uttar Pradesh,27.1767,78.0081,41.3,17,0.0,985.8,8.05,40.7,566,668.7,103.6,2.7,207.0,177.0,13.7,0,5,10,0,2026-05-23T12:05:43.607825+05:30
Varanasi,Uttar Pradesh,25.3176,82.9739,43.0,14,0.0,993.3,8.75,50.0,155,163.4,54.1,3.6,248.0,179.0,10.8,0,5,10,0,2026-05-23T12:05:43.607831+05:30
Prayagraj,Uttar Pradesh,25.4358,81.8463,42.2,17,0.0,992.4,8.65,41.8,147,243.1,68.7,3.0,209.0,180.0,12.1,0,5,10,0,2026-05-23T12:05:43.607838+05:30
Gorakhpur,Uttar Pradesh,26.7606,83.3732,37.6,48,0.0,993.1,8.65,41.4,162,96.9,64.7,2.2,398.0,194.0,12.6,0,5,10,1,2026-05-23T12:05:43.607847+05:30
Bareilly,Uttar Pradesh,28.367,79.4304,38.2,28,0.0,983.9,8.05,45.0,151,115.7,44.4,2.5,227.0,177.0,10.7,0,5,10,1,2026-05-23T12:05:43.607853+05:30
Aligarh,Uttar Pradesh,27.8974,78.088,40.2,19,0.0,983.5,7.85,42.1,475,730.2,113.2,3.6,231.0,180.0,19.1,0,5,10,0,2026-05-23T12:05:43.607860+05:30
Moradabad,Uttar Pradesh,28.8386,78.7733,38.5,26,0.0,981.0,7.85,51.5,152,105.0,39.5,2.9,251.0,177.0,10.9,0,5,10,0,2026-05-23T12:05:43.607866+05:30
Saharanpur,Uttar Pradesh,29.9637,77.546,38.1,21,0.0,973.0,7.4,51.8,120,113.9,34.3,2.1,223.0,151.0,8.4,0,5,10,0,2026-05-23T12:05:43.607872+05:30
Jhansi,Uttar Pradesh,25.4484,78.5685,41.1,17,0.0,976.7,8.5,43.9,77,194.6,48.7,1.3,130.0,124.0,7.2,0,5,10,0,2026-05-23T12:05:46.844645+05:30
Surat,Gujarat,21.1702,72.8311,35.8,50,0.0,1008.5,7.6,40.0,65,20.6,15.4,9.3,281.0,61.0,31.6,0,0,7,1,2026-05-23T12:05:46.844681+05:30
Vadodara,Gujarat,22.3072,73.1812,38.7,36,0.0,1005.3,8.1,46.4,68,24.9,16.3,1.9,164.0,89.0,5.0,0,5,7,1,2026-05-23T12:05:46.844691+05:30
Rajkot,Gujarat,22.3039,70.8022,37.5,41,0.0,995.8,7.65,46.1,68,31.3,18.7,1.2,122.0,85.0,4.9,0,5,10,1,2026-05-23T12:05:46.844700+05:30
Thane,Maharashtra,19.2183,72.9781,34.0,60,0.2,1009.4,7.75,34.9,55,17.9,13.4,5.3,213.0,105.0,9.0,3,0,4,1,2026-05-23T12:05:46.844708+05:30
Nagpur,Maharashtra,21.1458,79.0882,42.3,14,0.0,972.2,8.95,55.8,62,46.3,23.6,3.8,167.0,141.0,14.7,0,5,10,0,2026-05-23T12:05:46.844716+05:30
Nashik,Maharashtra,19.9975,73.7898,34.6,42,0.0,948.2,8.15,43.9,51,18.8,12.3,1.7,169.0,100.0,5.3,0,5,7,1,2026-05-23T12:05:46.844723+05:30
Aurangabad,Maharashtra,19.8762,75.3433,37.7,27,0.0,946.2,9.05,41.8,60,26.5,15.5,1.2,148.0,113.0,4.9,0,5,10,0,2026-05-23T12:05:46.844731+05:30
Solapur,Maharashtra,17.6599,75.9064,36.7,37,0.0,959.0,9.0,46.4,70,16.5,11.7,2.0,165.0,98.0,2.9,0,5,10,1,2026-05-23T12:05:46.844739+05:30
Kolhapur,Maharashtra,16.705,74.2433,32.0,52,0.0,950.7,8.85,41.8,40,9.2,7.0,1.7,145.0,80.0,1.4,0,5,7,1,2026-05-23T12:05:46.844746+05:30
Goa,Goa,15.2993,74.124,33.3,61,0.1,1000.3,5.8,31.7,35,5.7,4.0,0.6,131.0,66.0,0.6,6,5,0,1,2026-05-23T12:05:46.844753+05:30
Jodhpur,Rajasthan,26.2389,73.0243,39.7,21,0.0,983.2,8.4,43.6,163,414.4,90.1,1.0,131.0,96.0,4.6,0,5,10,0,2026-05-23T12:05:46.844761+05:30
Udaipur,Rajasthan,24.5854,73.7125,37.5,21,0.0,948.6,8.85,37.4,86,128.1,38.4,0.7,130.0,94.0,3.1,0,5,10,0,2026-05-23T12:05:46.844768+05:30
Kota,Rajasthan,25.2138,75.8648,41.2,17,0.0,978.7,8.4,46.4,76,118.3,39.8,1.0,134.0,107.0,4.8,0,5,10,0,2026-05-23T12:05:46.844776+05:30
Bikaner,Rajasthan,28.0229,73.3119,41.0,18,0.0,980.5,8.35,43.6,133,187.2,67.8,0.5,143.0,98.0,4.4,0,5,10,0,2026-05-23T12:05:46.844784+05:30
Ajmer,Rajasthan,26.4499,74.6399,37.4,26,0.0,955.7,8.4,51.5,100,178.3,55.2,0.8,150.0,106.0,5.0,0,5,10,0,2026-05-23T12:05:46.844791+05:30
Gwalior,Madhya Pradesh,26.2183,78.1828,41.1,17,0.0,981.5,8.25,44.3,102,245.9,55.4,1.2,156.0,143.0,9.0,0,5,10,0,2026-05-23T12:05:46.844797+05:30
Indore,Madhya Pradesh,22.7196,75.8577,37.8,24,0.0,950.0,8.7,53.3,64,52.4,23.6,1.3,164.0,106.0,4.9,0,5,10,0,2026-05-23T12:05:46.844804+05:30
Bhopal,Madhya Pradesh,23.2599,77.4126,39.5,17,0.0,954.5,8.75,43.2,58,88.0,29.4,1.0,152.0,108.0,4.6,0,5,10,0,2026-05-23T12:05:46.844811+05:30
Jabalpur,Madhya Pradesh,23.1815,79.9864,41.5,12,0.0,960.9,8.9,39.6,59,46.1,18.7,1.0,144.0,121.0,3.2,0,5,10,0,2026-05-23T12:05:46.844818+05:30
Ujjain,Madhya Pradesh,23.1765,75.7885,38.4,20,0.0,955.4,8.65,49.7,64,62.4,26.4,1.0,148.0,104.0,5.1,0,5,10,0,2026-05-23T12:05:46.844826+05:30
Visakhapatnam,Andhra Pradesh,17.6868,83.2185,43.2,27,0.0,998.6,9.1,30.2,138,58.7,50.1,10.6,603.0,218.0,43.6,0,5,10,1,2026-05-23T12:05:46.844834+05:30
Vijayawada,Andhra Pradesh,16.5062,80.648,41.5,32,0.0,999.1,8.7,48.2,80,41.8,34.7,2.2,215.0,155.0,7.4,0,5,10,1,2026-05-23T12:05:46.844841+05:30
Guntur,Andhra Pradesh,16.3067,80.4365,41.0,33,0.0,1000.5,8.8,48.6,78,38.8,31.7,1.8,205.0,150.0,6.2,0,5,7,1,2026-05-23T12:05:46.844848+05:30
Nellore,Andhra Pradesh,14.4426,79.9865,40.2,32,0.0,1003.6,8.9,76.3,76,18.9,13.9,2.1,172.0,124.0,6.8,0,5,7,1,2026-05-23T12:05:46.844855+05:30
Kurnool,Andhra Pradesh,15.8281,78.0373,37.0,39,0.0,977.5,9.1,63.4,59,16.5,12.7,2.2,183.0,117.0,8.2,0,5,10,1,2026-05-23T12:05:46.844863+05:30
Kakinada,Andhra Pradesh,16.9891,82.2475,40.5,35,0.0,1002.7,9.1,49.7,88,44.8,38.3,3.4,310.0,179.0,7.8,0,5,7,1,2026-05-23T12:05:46.844870+05:30
Tirupati,Andhra Pradesh,13.6288,79.4192,38.2,34,0.0,990.0,8.05,38.5,71,20.4,14.1,1.5,155.0,113.0,2.4,0,5,10,1,2026-05-23T12:05:46.844877+05:30
Warangal,Telangana,17.9689,79.5941,40.5,25,0.0,977.1,9.15,57.6,102,34.8,27.5,2.1,212.0,155.0,10.1,0,5,10,1,2026-05-23T12:05:46.844884+05:30
Nizamabad,Telangana,18.6725,78.0941,39.8,25,0.0,965.1,9.1,49.3,90,29.5,20.3,1.3,172.0,133.0,5.6,0,5,10,0,2026-05-23T12:05:46.844890+05:30
Mysore,Karnataka,12.2958,76.6396,31.7,48,0.0,931.6,8.7,39.6,29,7.6,5.6,2.2,157.0,93.0,1.6,0,5,7,1,2026-05-23T12:05:46.844897+05:30
Mangalore,Karnataka,12.9141,74.856,29.1,80,0.0,1010.0,7.5,27.4,33,8.0,6.2,2.3,137.0,80.0,2.5,7,0,4,1,2026-05-23T12:05:46.844904+05:30
Hubli-Dharwad,Karnataka,15.3647,75.124,31.8,52,0.0,944.0,9.05,45.4,29,6.3,4.0,1.2,136.0,82.0,0.6,0,5,7,1,2026-05-23T12:05:46.844911+05:30
Belgaum,Karnataka,15.8497,74.4977,30.4,55,0.0,929.2,9.05,39.6,29,6.8,4.6,1.3,128.0,79.0,1.6,0,5,7,1,2026-05-23T12:05:50.092886+05:30
Coimbatore,Tamil Nadu,11.0168,76.9558,33.4,47,0.0,963.6,8.9,47.5,25,9.6,6.3,1.3,154.0,88.0,1.5,0,5,7,1,2026-05-23T12:05:50.092920+05:30
Madurai,Tamil Nadu,9.9252,78.1198,38.2,32,0.0,993.3,8.05,42.8,54,11.1,9.0,2.4,179.0,120.0,2.9,0,5,10,1,2026-05-23T12:05:50.092932+05:30
Trichy,Tamil Nadu,10.7905,78.7047,36.2,42,0.0,999.7,8.2,46.1,28,9.3,7.2,2.0,154.0,100.0,2.9,0,5,10,1,2026-05-23T12:05:50.092940+05:30
Salem,Tamil Nadu,11.6643,78.146,35.2,42,0.0,978.5,8.25,28.1,59,10.8,9.3,3.4,173.0,123.0,10.7,0,5,10,1,2026-05-23T12:05:50.092948+05:30
Tirunelveli,Tamil Nadu,8.7139,77.7567,37.8,37,0.0,1003.7,8.05,42.8,26,8.0,6.1,1.1,135.0,82.0,0.9,0,5,7,1,2026-05-23T12:05:50.092955+05:30
Vellore,Tamil Nadu,12.9165,79.1325,37.3,33,0.0,984.2,8.65,45.4,75,34.7,19.4,2.0,166.0,132.0,3.3,0,5,10,1,2026-05-23T12:05:50.092962+05:30
Erode,Tamil Nadu,11.341,77.7172,36.4,35,0.0,989.8,8.7,40.0,35,9.9,7.1,2.0,155.0,106.0,1.7,0,5,10,1,2026-05-23T12:05:50.092969+05:30
Kochi,Kerala,9.9312,76.2673,31.1,68,0.0,1011.5,7.9,37.1,55,12.7,10.0,2.5,136.0,95.0,3.4,3,0,4,1,2026-05-23T12:05:50.092977+05:30
Thiruvananthapuram,Kerala,8.5241,76.9366,28.9,78,0.0,1011.0,7.95,45.0,32,14.4,10.5,1.6,106.0,89.0,1.8,7,0,4,1,2026-05-23T12:05:50.092984+05:30
Kozhikode,Kerala,11.2588,75.7804,30.5,72,0.0,1010.5,8.5,37.1,30,7.2,5.4,0.8,149.0,86.0,1.5,3,0,4,1,2026-05-23T12:05:50.092990+05:30
Thrissur,Kerala,10.5276,76.2144,31.6,66,0.0,1009.7,8.4,34.2,56,10.7,8.6,1.5,130.0,88.0,2.0,3,0,4,1,2026-05-23T12:05:50.092997+05:30
Kannur,Kerala,11.8745,75.3704,30.6,72,0.0,1010.1,7.2,33.8,35,7.8,5.9,1.4,146.0,83.0,1.6,3,0,4,1,2026-05-23T12:05:50.093004+05:30
Patna,Bihar,25.5941,85.1376,38.2,43,0.0,996.7,8.85,34.9,156,104.8,70.5,3.1,458.0,211.0,21.9,0,5,10,1,2026-05-23T12:05:50.093011+05:30
Gaya,Bihar,24.7914,85.0002,41.2,21,0.0,990.1,8.9,36.4,159,166.7,65.4,2.1,306.0,209.0,14.7,0,5,10,0,2026-05-23T12:05:50.093018+05:30
Muzaffarpur,Bihar,26.1209,85.3647,35.2,60,0.0,996.8,8.85,26.3,155,95.0,65.2,3.0,426.0,201.0,20.1,0,5,10,1,2026-05-23T12:05:50.093025+05:30
Bhagalpur,Bihar,25.2425,87.0117,34.8,65,0.0,997.7,8.85,32.8,139,39.0,30.5,5.3,426.0,161.0,20.5,3,5,7,1,2026-05-23T12:05:50.093031+05:30
Ranchi,Jharkhand,23.3441,85.3096,37.0,19,0.0,936.8,9.3,33.5,132,129.9,28.9,0.9,149.0,136.0,3.3,0,5,10,0,2026-05-23T12:05:50.093038+05:30
Jamshedpur,Jharkhand,22.8046,86.2029,40.0,30,0.0,987.5,9.1,26.6,156,149.9,76.1,3.8,300.0,236.0,32.6,0,5,10,1,2026-05-23T12:05:50.093044+05:30
Dhanbad,Jharkhand,23.7957,86.4304,40.2,24,0.0,976.9,9.1,38.9,163,203.0,74.3,9.8,227.0,223.0,50.4,0,5,10,0,2026-05-23T12:05:50.093052+05:30
Bokaro,Jharkhand,23.6693,86.1511,40.1,23,0.0,980.6,9.1,29.9,166,216.5,56.2,7.5,230.0,180.0,33.5,0,5,10,0,2026-05-23T12:05:50.093059+05:30
Bhubaneswar,Odisha,20.2961,85.8245,36.8,56,0.0,999.2,8.55,37.8,105,57.2,42.6,1.7,266.0,149.0,10.0,0,5,10,1,2026-05-23T12:05:50.093066+05:30
Cuttack,Odisha,20.4625,85.8828,36.6,58,0.0,1000.9,8.65,33.5,105,57.2,42.6,1.7,289.0,149.0,10.0,0,5,7,1,2026-05-23T12:05:50.093073+05:30
Rourkela,Odisha,22.2604,84.8536,40.8,25,0.0,982.0,9.0,37.4,163,154.6,52.0,1.8,362.0,181.0,13.2,0,5,10,1,2026-05-23T12:05:50.093080+05:30
Raipur,Chhattisgarh,21.2514,81.6296,42.5,14,0.0,972.8,8.75,39.6,142,51.7,29.2,11.6,155.0,163.0,36.7,0,5,10,0,2026-05-23T12:05:50.093086+05:30
Bhilai,Chhattisgarh,21.1938,81.3509,42.3,14,0.0,973.0,8.95,45.4,108,57.6,26.4,12.4,152.0,128.0,33.2,0,5,10,0,2026-05-23T12:05:50.093093+05:30
Guwahati,Assam,26.1158,91.7086,26.5,87,0.0,999.7,8.75,29.5,65,12.2,7.4,1.4,277.0,121.0,2.9,7,5,7,1,2026-05-23T12:05:50.093100+05:30
Agartala,Tripura,23.8315,91.2868,30.6,80,0.0,1003.7,8.8,36.0,85,42.0,28.5,3.5,199.0,104.0,3.4,3,5,4,1,2026-05-23T12:05:50.093107+05:30
Shillong,Meghalaya,25.5788,91.8933,24.1,74,0.1,857.4,9.05,41.0,45,6.2,3.3,2.1,236.0,102.0,2.8,6,5,7,1,2026-05-23T12:05:50.093114+05:30
Imphal,Manipur,24.817,93.9368,28.0,68,0.1,922.5,8.7,38.5,65,30.2,14.9,0.8,218.0,105.0,2.4,10,5,7,1,2026-05-23T12:05:50.093121+05:30
Aizawl,Mizoram,23.7271,92.7176,27.2,59,0.1,892.7,9.0,36.7,55,38.9,20.1,0.5,188.0,91.0,1.7,7,5,7,1,2026-05-23T12:05:50.093128+05:30
Kohima,Nagaland,25.6701,94.1077,22.6,83,0.0,855.2,9.3,26.3,44,6.2,3.8,1.0,230.0,97.0,1.5,3,5,7,1,2026-05-23T12:05:50.093135+05:30
Gangtok,Sikkim,27.3314,88.6138,25.0,49,0.1,837.9,9.15,38.5,58,18.0,10.6,0.8,266.0,137.0,2.2,7,5,7,0,2026-05-23T12:05:50.093142+05:30
Siliguri,West Bengal,26.7271,88.3953,29.4,69,0.0,990.7,8.75,25.2,103,22.2,14.3,1.5,373.0,148.0,3.5,7,5,7,1,2026-05-23T12:05:53.345502+05:30
Durgapur,West Bengal,23.5204,87.3119,36.7,59,0.0,991.3,9.0,46.1,152,120.6,89.9,11.5,737.0,231.0,65.6,0,5,10,1,2026-05-23T12:05:53.345537+05:30
Asansol,West Bengal,23.6739,86.9524,38.2,51,0.0,990.0,9.05,31.3,152,152.7,88.2,11.7,524.0,242.0,64.0,0,5,10,1,2026-05-23T12:05:53.345549+05:30
Pondicherry,Puducherry,11.9139,79.8145,35.5,47,0.0,1007.6,6.25,37.4,63,18.2,14.8,8.4,223.0,107.0,5.9,0,5,7,1,2026-05-23T12:05:53.345557+05:30
Port Blair,Andaman and Nicobar Islands,11.6234,92.7265,29.9,72,0.0,1007.1,8.35,41.8,35,5.7,3.6,0.3,115.0,70.0,0.3,7,5,4,1,2026-05-23T12:05:53.345566+05:30
Haridwar,Uttarakhand,29.9457,78.1642,38.2,24,0.0,971.2,7.55,50.8,115,108.7,31.9,1.4,212.0,145.0,5.0,0,5,10,0,2026-05-23T12:05:53.345573+05:30
Rishikesh,Uttarakhand,30.0869,78.2676,37.7,23,0.0,964.0,7.65,41.4,114,121.1,29.5,0.7,181.0,130.0,2.2,0,5,10,0,2026-05-23T12:05:53.345581+05:30
Nainital,Uttarakhand,29.3919,79.4542,25.0,27,0.0,808.9,8.5,50.8,150,149.0,41.0,1.4,153.0,142.0,4.5,4,5,7,0,2026-05-23T12:05:53.345589+05:30
Mussoorie,Uttarakhand,30.4599,78.0664,24.9,24,0.0,806.3,8.05,60.8,93,108.0,27.0,0.9,141.0,131.0,2.0,0,5,7,0,2026-05-23T12:05:53.345596+05:30
Dharamshala,Himachal Pradesh,32.219,76.3234,27.5,31,0.0,870.8,8.1,41.4,53,83.1,20.0,0.4,159.0,123.0,1.2,4,5,7,0,2026-05-23T12:05:53.345604+05:30
Dalhousie,Himachal Pradesh,32.5387,75.971,24.1,29,0.0,808.2,8.65,42.5,71,86.4,23.5,1.3,159.0,132.0,1.8,0,5,7,0,2026-05-23T12:05:53.345611+05:30
Patiala,Punjab,30.3398,76.3869,39.3,19,0.0,976.1,7.65,42.5,350,925.7,110.8,1.6,259.0,153.0,8.2,0,5,10,0,2026-05-23T12:05:53.345619+05:30
Bhatinda,Punjab,30.211,74.9455,39.9,22,0.0,981.5,8.3,36.4,90,107.3,35.6,3.0,186.0,152.0,13.2,0,5,10,0,2026-05-23T12:05:53.345625+05:30
Rohtak,Haryana,28.8955,76.6066,40.1,20,0.0,979.8,7.75,41.8,893,592.3,92.0,1.9,225.0,153.0,6.1,0,5,10,0,2026-05-23T12:05:53.345632+05:30
Panipat,Haryana,29.3909,76.9635,40.0,20,0.0,978.1,7.05,47.9,1552,877.3,118.0,3.0,225.0,158.0,12.2,0,5,10,0,2026-05-23T12:05:53.345638+05:30
Mathura,Uttar Pradesh,27.4924,77.6737,41.3,17,0.0,984.7,8.0,41.8,585,637.0,93.1,1.9,208.0,153.0,8.9,0,5,10,0,2026-05-23T12:05:53.345645+05:30
Vrindavan,Uttar Pradesh,27.5823,77.7027,41.0,18,0.0,985.1,8.0,40.0,585,637.0,93.1,1.9,204.0,153.0,8.9,0,5,10,0,2026-05-23T12:05:53.345652+05:30
Ayodhya,Uttar Pradesh,26.7922,82.1998,39.5,33,0.0,991.0,8.35,45.0,155,162.1,71.2,2.6,354.0,214.0,16.4,0,5,10,1,2026-05-23T12:05:53.345659+05:30
Ratlam,Madhya Pradesh,23.3315,75.0367,37.5,24,0.0,956.8,8.55,46.8,65,58.1,26.2,1.0,138.0,103.0,5.7,0,5,10,0,2026-05-23T12:05:53.345665+05:30
Sagar,Madhya Pradesh,23.8388,78.7378,40.2,13,0.0,950.7,8.75,46.8,57,82.7,25.7,0.8,136.0,118.0,3.6,0,5,10,0,2026-05-23T12:05:53.345672+05:30
Satna,Madhya Pradesh,24.6005,80.8322,41.1,14,0.0,969.9,8.8,47.9,67,178.8,44.2,0.9,143.0,135.0,5.4,0,5,10,0,2026-05-23T12:05:53.345679+05:30
Akola,Maharashtra,20.7002,77.0082,40.5,24,0.0,975.4,8.9,49.3,67,25.3,15.4,1.5,148.0,107.0,6.9,0,5,10,0,2026-05-23T12:05:53.345686+05:30
Amravati,Maharashtra,20.9374,77.7796,40.8,19,0.0,967.6,8.9,51.1,67,27.1,16.3,1.7,149.0,112.0,7.9,0,5,10,0,2026-05-23T12:05:53.345693+05:30
Latur,Maharashtra,18.4088,76.5604,37.2,30,0.0,942.0,9.05,42.8,82,27.9,19.3,1.2,157.0,124.0,4.7,0,5,10,1,2026-05-23T12:05:53.345700+05:30
Nanded,Maharashtra,19.1383,77.3091,40.0,25,0.0,969.2,9.0,46.4,86,28.6,18.7,1.2,173.0,128.0,5.4,0,5,10,1,2026-05-23T12:05:53.345706+05:30
Gulbarga,Karnataka,17.3297,76.8343,36.5,37,0.0,960.1,9.05,59.0,70,16.8,11.7,2.0,199.0,104.0,3.0,0,5,10,1,2026-05-23T12:05:53.345713+05:30
Bidar,Karnataka,17.9104,77.5199,37.1,30,0.0,937.2,8.9,51.5,94,26.5,19.5,1.8,166.0,136.0,8.5,0,5,10,1,2026-05-23T12:05:53.345719+05:30
Hospet,Karnataka,15.2689,76.3909,32.8,52,0.0,958.2,9.0,42.8,40,7.5,5.1,1.6,144.0,90.0,2.0,0,5,7,1,2026-05-23T12:05:53.345725+05:30
Tirupur,Tamil Nadu,11.1085,77.3411,35.8,39,0.0,976.3,8.95,46.4,37,10.2,7.2,1.9,163.0,102.0,1.9,0,5,10,1,2026-05-23T12:05:53.345731+05:30
Alappuzha,Kerala,9.4981,76.3388,29.4,75,0.0,1011.9,7.5,37.1,42,14.8,11.4,2.7,109.0,99.0,3.9,7,0,4,1,2026-05-23T12:05:53.345737+05:30
Munnar,Kerala,10.0889,77.0595,22.6,74,0.0,861.0,8.65,33.5,24,7.1,5.6,0.8,120.0,73.0,0.5,3,5,7,1,2026-05-23T12:05:53.345744+05:30
Silchar,Assam,24.8333,92.7789,27.8,84,0.0,1003.8,8.45,36.0,68,17.9,10.8,1.4,207.0,97.0,2.7,7,5,4,1,2026-05-23T12:05:53.345750+05:30
Dibrugarh,Assam,27.4728,94.912,26.6,89,0.0,993.3,8.9,29.9,90,15.7,13.6,2.5,265.0,108.0,1.2,7,5,7,1,2026-05-23T12:05:53.345757+05:30
