city,state,latitude,longitude,temp,humidity,rain,pressure,uv_index,wind_gusts,aqi,pm10,pm2_5,mosquito_risk,arthritis_risk,migraine_risk,frizz_risk,updated_at
Delhi,Delhi,28.6139,77.209,21.4,85,0.0,983.5,5.25,26.6,319,482.4,108.7,3,5,3,1,2026-03-13T03:59:52.541200+05:30
Mumbai,Maharashtra,19.076,72.8777,28.0,77,0.0,1007.0,7.65,30.2,160,39.3,35.6,7,5,4,1,2026-03-13T03:59:52.541244+05:30
Bangalore,Karnataka,12.9716,77.5946,20.5,71,0.0,910.5,9.3,32.4,75,31.0,26.4,3,5,7,0,2026-03-13T03:59:52.541260+05:30
Hyderabad,Telangana,17.385,78.4867,23.0,56,0.0,952.1,8.65,20.2,103,52.6,39.0,0,5,7,0,2026-03-13T03:59:52.541270+05:30
Chennai,Tamil Nadu,13.0827,80.2707,24.6,94,0.0,1007.2,9.05,30.2,75,24.2,20.5,3,5,4,1,2026-03-13T03:59:52.541279+05:30
Kolkata,West Bengal,22.5726,88.3639,24.5,97,0.0,1006.3,8.0,29.9,151,45.1,40.5,3,5,4,1,2026-03-13T03:59:52.541289+05:30
Pune,Maharashtra,18.5204,73.8567,22.2,65,0.0,947.1,8.2,30.2,150,107.6,104.8,3,5,7,0,2026-03-13T03:59:52.541301+05:30
Ahmedabad,Gujarat,23.0225,72.5714,22.5,54,0.0,1002.4,7.5,17.6,78,48.5,37.4,0,5,4,0,2026-03-13T03:59:52.541308+05:30
Jaipur,Rajasthan,26.9124,75.7873,23.4,30,0.0,960.0,6.95,37.4,104,294.3,54.4,0,5,7,0,2026-03-13T03:59:52.541316+05:30
Lucknow,Uttar Pradesh,26.8467,80.9462,23.1,61,0.0,993.0,6.05,27.7,161,361.4,72.9,3,5,7,0,2026-03-13T03:59:52.541325+05:30
Kanpur,Uttar Pradesh,26.4499,80.3319,22.3,73,0.0,991.3,6.15,19.1,270,456.3,87.3,3,5,7,1,2026-03-13T03:59:52.541333+05:30
Chandigarh,Chandigarh,30.7333,76.7794,18.3,86,0.0,969.0,5.1,23.8,91,30.2,25.4,3,10,3,0,2026-03-13T03:59:52.541341+05:30
Srinagar,Jammu and Kashmir,34.0837,74.7973,6.3,94,0.0,841.6,6.9,14.8,72,32.8,28.2,3,10,7,0,2026-03-13T03:59:52.541349+05:30
Jammu,Jammu and Kashmir,32.7266,74.857,17.0,83,0.0,974.6,6.65,22.3,83,27.0,23.4,3,10,7,0,2026-03-13T03:59:52.541356+05:30
Amritsar,Punjab,31.634,74.8723,17.4,92,0.0,982.8,6.15,23.4,135,57.6,38.6,3,10,7,0,2026-03-13T03:59:52.541363+05:30
Ludhiana,Punjab,30.901,75.8573,19.0,84,0.0,980.0,5.15,25.6,135,58.6,44.1,3,10,3,1,2026-03-13T03:59:52.541370+05:30
Jalandhar,Punjab,31.326,75.5762,18.5,86,0.0,981.3,6.15,24.1,127,70.1,42.1,3,10,7,1,2026-03-13T03:59:52.541379+05:30
Dehradun,Uttarakhand,30.6284,78.0322,11.9,53,0.0,828.4,5.95,26.3,50,9.9,5.0,0,5,3,0,2026-03-13T03:59:52.541385+05:30
Shimla,Himachal Pradesh,31.1048,77.1734,10.1,72,0.0,782.0,5.6,36.4,62,21.7,14.4,3,5,3,0,2026-03-13T03:59:52.541392+05:30
Manali,Himachal Pradesh,32.2396,77.1887,11.3,28,0.0,818.1,7.95,38.5,41,7.5,3.6,0,5,7,1,2026-03-13T03:59:52.541399+05:30
Gurgaon,Haryana,28.4595,77.0266,19.6,92,0.0,982.1,5.55,24.1,1060,1318.8,189.5,3,10,3,1,2026-03-13T03:59:52.541406+05:30
Noida,Uttar Pradesh,28.5355,77.391,21.6,85,0.0,985.0,5.75,26.6,1060,1318.8,189.5,3,5,3,1,2026-03-13T03:59:52.541412+05:30
Ghaziabad,Uttar Pradesh,28.6692,77.4538,20.9,87,0.0,983.1,5.85,25.9,207,318.5,86.1,3,5,3,1,2026-03-13T03:59:52.541419+05:30
Faridabad,Haryana,28.4089,77.3178,21.4,82,0.0,984.2,5.6,26.3,1060,1318.8,189.5,3,5,3,1,2026-03-13T03:59:52.541425+05:30
Meerut,Uttar Pradesh,28.9845,77.7064,20.3,87,0.0,981.5,5.25,25.9,207,318.5,86.1,3,5,3,1,2026-03-13T03:59:52.541431+05:30
Agra,Uttar Pradesh,27.1767,78.0081,18.0,68,0.0,988.0,5.95,18.0,423,827.0,138.8,3,5,3,0,2026-03-13T03:59:52.541438+05:30
Varanasi,Uttar Pradesh,25.3176,82.9739,20.4,73,0.0,996.9,7.05,21.6,111,173.2,60.1,3,5,7,0,2026-03-13T03:59:52.541447+05:30
Prayagraj,Uttar Pradesh,25.4358,81.8463,21.9,65,0.0,995.4,6.85,19.8,126,239.3,82.7,3,5,7,0,2026-03-13T03:59:52.541454+05:30
Gorakhpur,Uttar Pradesh,26.7606,83.3732,21.0,95,0.0,996.8,6.95,28.8,189,178.8,166.7,3,5,7,1,2026-03-13T03:59:52.541461+05:30
Bareilly,Uttar Pradesh,28.367,79.4304,19.9,86,0.0,986.4,6.05,27.4,150,149.0,61.2,3,10,7,1,2026-03-13T03:59:52.541467+05:30
Aligarh,Uttar Pradesh,27.8974,78.088,18.7,85,0.0,985.6,5.6,28.4,591,709.7,133.2,3,10,3,1,2026-03-13T03:59:52.541474+05:30
Moradabad,Uttar Pradesh,28.8386,78.7733,20.1,85,0.0,983.2,5.25,27.7,150,149.9,63.6,3,5,3,1,2026-03-13T03:59:52.541480+05:30
Saharanpur,Uttar Pradesh,29.9637,77.546,18.3,84,0.0,975.6,4.9,24.8,152,120.1,60.5,3,10,3,0,2026-03-13T03:59:52.541489+05:30
Jhansi,Uttar Pradesh,25.4484,78.5685,20.9,43,0.0,977.4,7.0,19.1,50,15.0,13.1,0,5,7,0,2026-03-13T03:59:55.891060+05:30
Surat,Gujarat,21.1702,72.8311,25.1,72,0.0,1006.0,7.35,25.9,150,51.9,49.7,7,5,4,1,2026-03-13T03:59:55.891089+05:30
Vadodara,Gujarat,22.3072,73.1812,24.7,44,0.0,1004.3,7.5,20.9,98,43.7,39.9,0,5,4,0,2026-03-13T03:59:55.891098+05:30
Rajkot,Gujarat,22.3039,70.8022,22.0,80,0.0,994.6,7.3,27.4,66,127.6,40.6,3,5,7,1,2026-03-13T03:59:55.891106+05:30
Thane,Maharashtra,19.2183,72.9781,25.6,76,0.0,1006.5,7.65,43.2,160,39.3,35.6,7,5,4,1,2026-03-13T03:59:55.891113+05:30
Nagpur,Maharashtra,21.1458,79.0882,21.3,61,0.0,972.2,8.05,21.6,96,32.7,28.6,3,5,7,0,2026-03-13T03:59:55.891120+05:30
Nashik,Maharashtra,19.9975,73.7898,24.2,42,0.0,944.8,7.85,33.8,85,31.8,29.1,0,5,7,0,2026-03-13T03:59:55.891126+05:30
Aurangabad,Maharashtra,19.8762,75.3433,23.4,41,0.0,943.0,8.35,25.6,64,20.2,18.4,0,5,7,0,2026-03-13T03:59:55.891132+05:30
Solapur,Maharashtra,17.6599,75.9064,24.8,65,0.0,955.7,8.6,17.6,94,39.9,35.3,3,5,7,1,2026-03-13T03:59:55.891139+05:30
Kolhapur,Maharashtra,16.705,74.2433,21.3,74,0.0,946.2,8.7,47.5,152,78.0,75.2,3,5,7,1,2026-03-13T03:59:55.891145+05:30
Goa,Goa,15.2993,74.124,25.0,99,0.0,996.2,8.7,33.1,144,66.6,59.1,7,5,7,1,2026-03-13T03:59:55.891151+05:30
Jodhpur,Rajasthan,26.2389,73.0243,24.2,37,0.0,983.3,7.2,21.6,68,93.4,25.1,0,5,7,0,2026-03-13T03:59:55.891157+05:30
Udaipur,Rajasthan,24.5854,73.7125,21.3,29,0.0,946.7,7.65,31.3,42,27.4,12.7,0,5,7,0,2026-03-13T03:59:55.891163+05:30
Kota,Rajasthan,25.2138,75.8648,18.8,50,0.0,978.4,6.8,15.8,74,30.4,27.4,0,5,7,0,2026-03-13T03:59:55.891169+05:30
Bikaner,Rajasthan,28.0229,73.3119,23.9,65,0.0,983.0,6.1,24.5,93,53.3,28.5,3,5,7,1,2026-03-13T03:59:55.891176+05:30
Ajmer,Rajasthan,26.4499,74.6399,22.1,41,0.0,954.8,6.7,25.2,56,31.2,12.7,0,5,7,0,2026-03-13T03:59:55.891182+05:30
Gwalior,Madhya Pradesh,26.2183,78.1828,23.3,38,0.0,983.2,6.35,19.4,55,42.7,18.6,0,5,7,0,2026-03-13T03:59:55.891188+05:30
Indore,Madhya Pradesh,22.7196,75.8577,18.6,43,0.0,947.4,7.8,25.9,77,11.7,11.3,0,5,7,0,2026-03-13T03:59:55.891194+05:30
Bhopal,Madhya Pradesh,23.2599,77.4126,19.6,55,0.0,953.1,7.65,24.8,68,37.8,35.9,0,5,7,0,2026-03-13T03:59:55.891199+05:30
Jabalpur,Madhya Pradesh,23.1815,79.9864,21.2,54,0.0,960.8,7.75,19.8,79,46.9,34.2,0,5,7,0,2026-03-13T03:59:55.891205+05:30
Ujjain,Madhya Pradesh,23.1765,75.7885,18.8,47,0.0,953.3,7.7,18.7,82,10.6,9.8,0,5,7,0,2026-03-13T03:59:55.891211+05:30
Visakhapatnam,Andhra Pradesh,17.6868,83.2185,24.7,92,0.0,1003.8,8.65,38.5,91,33.8,31.2,3,5,4,1,2026-03-13T03:59:55.891217+05:30
Vijayawada,Andhra Pradesh,16.5062,80.648,24.4,94,0.0,1002.4,8.75,28.4,80,36.6,33.9,3,5,4,1,2026-03-13T03:59:55.891223+05:30
Guntur,Andhra Pradesh,16.3067,80.4365,23.6,95,0.0,1003.5,8.75,32.8,78,29.3,27.0,3,5,4,1,2026-03-13T03:59:55.891229+05:30
Nellore,Andhra Pradesh,14.4426,79.9865,23.6,93,0.0,1005.6,8.9,29.5,73,23.3,21.9,3,5,4,1,2026-03-13T03:59:55.891235+05:30
Kurnool,Andhra Pradesh,15.8281,78.0373,25.9,52,0.0,975.8,8.75,25.9,80,45.3,39.3,4,5,7,0,2026-03-13T03:59:55.891242+05:30
Kakinada,Andhra Pradesh,16.9891,82.2475,22.7,97,0.0,1007.6,8.7,31.7,74,32.4,28.1,3,5,4,1,2026-03-13T03:59:55.891248+05:30
Tirupati,Andhra Pradesh,13.6288,79.4192,21.4,93,0.0,991.6,9.05,33.5,105,46.9,45.6,3,5,7,1,2026-03-13T03:59:55.891254+05:30
Warangal,Telangana,17.9689,79.5941,22.5,73,0.0,977.4,8.5,27.0,118,49.6,43.8,3,5,7,1,2026-03-13T03:59:55.891260+05:30
Nizamabad,Telangana,18.6725,78.0941,24.8,56,0.0,963.4,8.4,27.0,111,56.9,47.8,0,5,7,0,2026-03-13T03:59:55.891265+05:30
Mysore,Karnataka,12.2958,76.6396,20.5,65,0.0,927.1,9.3,33.1,67,30.2,27.1,3,5,7,0,2026-03-13T03:59:55.891271+05:30
Mangalore,Karnataka,12.9141,74.856,29.2,80,0.0,1005.3,8.95,25.6,110,51.6,47.8,7,5,4,1,2026-03-13T03:59:55.891276+05:30
Hubli-Dharwad,Karnataka,15.3647,75.124,19.0,60,0.0,938.9,8.9,27.4,68,27.0,23.3,0,5,7,0,2026-03-13T03:59:55.891282+05:30
Belgaum,Karnataka,15.8497,74.4977,22.7,58,0.0,924.1,8.95,43.9,108,66.8,57.2,0,5,7,0,2026-03-13T03:59:59.243017+05:30
Coimbatore,Tamil Nadu,11.0168,76.9558,23.2,73,0.0,961.3,9.25,43.2,73,31.4,30.4,3,5,7,1,2026-03-13T03:59:59.243049+05:30
Madurai,Tamil Nadu,9.9252,78.1198,24.9,91,0.0,993.1,9.25,24.1,78,39.6,37.4,3,5,7,1,2026-03-13T03:59:59.243061+05:30
Trichy,Tamil Nadu,10.7905,78.7047,24.4,97,0.0,999.9,9.15,23.4,86,40.7,37.3,3,5,7,1,2026-03-13T03:59:59.243070+05:30
Salem,Tamil Nadu,11.6643,78.146,23.1,92,0.0,977.0,9.2,22.7,88,48.0,46.1,3,5,7,1,2026-03-13T03:59:59.243079+05:30
Tirunelveli,Tamil Nadu,8.7139,77.7567,24.7,81,0.0,1002.9,9.2,39.2,63,28.2,25.0,3,5,4,1,2026-03-13T03:59:59.243087+05:30
Vellore,Tamil Nadu,12.9165,79.1325,21.4,100,0.0,984.6,9.1,33.5,98,60.3,58.4,3,5,7,1,2026-03-13T03:59:59.243094+05:30
Erode,Tamil Nadu,11.341,77.7172,24.6,93,0.0,989.0,9.15,20.9,79,33.9,32.4,3,5,7,1,2026-03-13T03:59:59.243103+05:30
Kochi,Kerala,9.9312,76.2673,27.3,85,0.0,1007.7,9.1,32.8,94,37.3,36.1,7,5,4,1,2026-03-13T03:59:59.243111+05:30
Thiruvananthapuram,Kerala,8.5241,76.9366,27.2,84,0.0,1006.9,9.1,28.8,58,15.7,12.6,7,5,4,1,2026-03-13T03:59:59.243119+05:30
Kozhikode,Kerala,11.2588,75.7804,27.7,85,0.0,1006.9,9.0,27.7,101,39.6,35.3,7,5,4,1,2026-03-13T03:59:59.243126+05:30
Thrissur,Kerala,10.5276,76.2144,26.0,89,0.0,1006.1,9.05,37.1,96,47.1,45.5,7,5,4,1,2026-03-13T03:59:59.243134+05:30
Kannur,Kerala,11.8745,75.3704,28.1,84,0.0,1005.9,9.0,29.2,101,47.0,43.5,7,5,4,1,2026-03-13T03:59:59.243141+05:30
Patna,Bihar,25.5941,85.1376,23.8,94,0.0,999.6,7.1,25.9,192,129.0,126.2,3,5,7,1,2026-03-13T03:59:59.243149+05:30
Gaya,Bihar,24.7914,85.0002,22.5,68,0.0,993.0,7.3,22.3,160,192.8,80.8,3,5,7,1,2026-03-13T03:59:59.243156+05:30
Muzaffarpur,Bihar,26.1209,85.3647,22.4,95,0.0,999.9,7.4,29.2,211,117.3,113.4,3,5,7,1,2026-03-13T03:59:59.243163+05:30
Bhagalpur,Bihar,25.2425,87.0117,22.5,93,0.0,1001.0,7.5,26.3,181,92.7,88.9,3,5,4,1,2026-03-13T03:59:59.243170+05:30
Ranchi,Jharkhand,23.3441,85.3096,21.9,50,0.0,937.1,8.2,32.4,129,107.3,33.5,0,5,7,0,2026-03-13T03:59:59.243178+05:30
Jamshedpur,Jharkhand,22.8046,86.2029,24.9,89,0.0,990.7,8.1,20.5,164,71.5,68.0,3,5,7,1,2026-03-13T03:59:59.243185+05:30
Dhanbad,Jharkhand,23.7957,86.4304,24.1,93,0.0,979.4,8.0,30.2,181,141.6,134.1,3,5,7,1,2026-03-13T03:59:59.243193+05:30
Bokaro,Jharkhand,23.6693,86.1511,21.5,72,0.0,983.6,8.0,31.0,166,141.1,90.8,3,5,7,1,2026-03-13T03:59:59.243200+05:30
Bhubaneswar,Odisha,20.2961,85.8245,25.0,93,0.0,1002.3,8.4,36.0,122,37.6,31.7,7,5,4,1,2026-03-13T03:59:59.243208+05:30
Cuttack,Odisha,20.4625,85.8828,25.1,94,0.0,1004.4,8.4,31.3,122,37.6,31.7,7,5,4,1,2026-03-13T03:59:59.243216+05:30
Rourkela,Odisha,22.2604,84.8536,22.2,75,0.0,984.4,8.0,28.4,141,69.8,31.0,3,5,7,1,2026-03-13T03:59:59.243223+05:30
Raipur,Chhattisgarh,21.2514,81.6296,23.5,47,0.0,973.6,8.15,16.9,152,91.7,66.6,0,5,7,0,2026-03-13T03:59:59.243230+05:30
Bhilai,Chhattisgarh,21.1938,81.3509,22.2,49,0.0,973.8,8.15,12.2,142,93.4,66.4,0,5,7,0,2026-03-13T03:59:59.243237+05:30
Guwahati,Assam,26.1158,91.7086,23.3,92,0.0,1002.4,7.25,32.8,159,72.9,69.4,3,5,4,1,2026-03-13T03:59:59.243244+05:30
Agartala,Tripura,23.8315,91.2868,22.5,91,0.0,1007.1,7.7,28.1,154,56.9,52.4,3,5,4,1,2026-03-13T03:59:59.243252+05:30
Shillong,Meghalaya,25.5788,91.8933,11.7,91,0.0,854.5,6.9,52.6,153,62.4,56.9,3,10,7,0,2026-03-13T03:59:59.243259+05:30
Imphal,Manipur,24.817,93.9368,16.2,89,0.0,923.8,7.8,63.4,162,73.8,68.9,3,10,7,0,2026-03-13T03:59:59.243267+05:30
Aizawl,Mizoram,23.7271,92.7176,15.6,88,0.0,892.2,6.8,64.1,169,61.9,52.3,3,10,7,0,2026-03-13T03:59:59.243274+05:30
Kohima,Nagaland,25.6701,94.1077,13.9,83,0.0,854.4,5.95,75.6,150,37.5,35.6,3,10,3,0,2026-03-13T03:59:59.243282+05:30
Gangtok,Sikkim,27.3314,88.6138,13.6,95,0.2,836.1,6.45,17.3,102,44.0,39.3,6,10,7,0,2026-03-13T03:59:59.243290+05:30
Siliguri,West Bengal,26.7271,88.3953,19.2,85,0.0,994.8,7.4,27.4,162,84.1,75.2,3,10,7,1,2026-03-13T04:00:16.374161+05:30
Durgapur,West Bengal,23.5204,87.3119,24.4,95,0.0,995.0,7.9,24.8,181,108.7,101.3,3,5,7,1,2026-03-13T04:00:16.374191+05:30
Asansol,West Bengal,23.6739,86.9524,24.7,94,0.0,993.5,7.95,25.2,182,105.9,100.1,3,5,7,1,2026-03-13T04:00:16.374201+05:30
Pondicherry,Puducherry,11.9139,79.8145,24.0,98,0.0,1008.6,9.05,28.1,70,23.2,18.9,3,0,4,1,2026-03-13T04:00:16.374208+05:30
Port Blair,Andaman and Nicobar Islands,11.6234,92.7265,27.1,82,0.0,1007.0,8.95,23.8,49,15.9,12.8,7,5,4,1,2026-03-13T04:00:16.374216+05:30
Haridwar,Uttarakhand,29.9457,78.1642,18.4,73,0.0,974.0,5.3,27.7,106,41.3,32.7,3,5,3,0,2026-03-13T04:00:16.374224+05:30
Rishikesh,Uttarakhand,30.0869,78.2676,18.8,57,0.0,966.7,5.65,29.2,77,23.3,18.1,0,5,3,0,2026-03-13T04:00:16.374231+05:30
Nainital,Uttarakhand,29.3919,79.4542,18.3,42,0.0,805.5,6.35,47.5,94,40.6,30.2,0,5,7,0,2026-03-13T04:00:16.374238+05:30
Mussoorie,Uttarakhand,30.4599,78.0664,15.2,47,0.0,801.5,5.45,30.2,80,19.8,13.6,0,5,3,0,2026-03-13T04:00:16.374244+05:30
Dharamshala,Himachal Pradesh,32.219,76.3234,17.7,43,0.0,868.9,5.9,27.7,50,7.1,3.9,0,5,3,0,2026-03-13T04:00:16.374251+05:30
Dalhousie,Himachal Pradesh,32.5387,75.971,13.6,50,0.0,802.6,6.1,31.0,78,30.7,21.4,0,5,7,0,2026-03-13T04:00:16.374258+05:30
Patiala,Punjab,30.3398,76.3869,18.4,89,0.0,978.8,4.95,24.1,163,525.3,86.4,3,10,3,1,2026-03-13T04:00:16.374265+05:30
Bhatinda,Punjab,30.211,74.9455,18.4,94,0.0,985.2,5.9,25.2,151,64.0,46.8,3,10,3,1,2026-03-13T04:00:16.374272+05:30
Rohtak,Haryana,28.8955,76.6066,20.0,90,0.0,982.6,4.85,23.0,443,711.5,130.9,3,5,3,1,2026-03-13T04:00:16.374279+05:30
Panipat,Haryana,29.3909,76.9635,18.9,90,0.0,980.8,4.6,24.5,660,1289.0,177.4,3,10,3,1,2026-03-13T04:00:16.374286+05:30
Mathura,Uttar Pradesh,27.4924,77.6737,20.3,66,0.0,987.2,6.4,24.5,437,972.3,166.2,3,5,7,0,2026-03-13T04:00:16.374293+05:30
Vrindavan,Uttar Pradesh,27.5823,77.7027,18.2,83,0.0,987.6,6.1,27.7,437,972.3,166.2,3,10,7,0,2026-03-13T04:00:16.374299+05:30
Ayodhya,Uttar Pradesh,26.7922,82.1998,20.0,80,0.0,994.7,6.35,31.7,153,205.8,81.0,3,5,7,1,2026-03-13T04:00:16.374305+05:30
Ratlam,Madhya Pradesh,23.3315,75.0367,22.8,32,0.0,954.5,7.6,24.5,65,11.4,9.7,0,5,7,0,2026-03-13T04:00:16.374312+05:30
Sagar,Madhya Pradesh,23.8388,78.7378,19.7,47,0.0,949.4,7.6,24.5,56,27.0,23.1,0,5,7,0,2026-03-13T04:00:16.374318+05:30
Satna,Madhya Pradesh,24.6005,80.8322,21.0,53,0.0,970.9,7.4,25.2,61,45.6,27.6,0,5,7,0,2026-03-13T04:00:16.374325+05:30
Akola,Maharashtra,20.7002,77.0082,22.5,57,0.0,974.3,8.05,23.0,88,39.1,33.6,0,5,7,0,2026-03-13T04:00:16.374332+05:30
Amravati,Maharashtra,20.9374,77.7796,20.5,61,0.0,966.2,8.0,16.6,93,46.8,40.6,3,5,7,0,2026-03-13T04:00:16.374339+05:30
Latur,Maharashtra,18.4088,76.5604,23.0,47,0.0,938.4,8.5,21.6,91,45.9,39.3,0,5,7,0,2026-03-13T04:00:16.374346+05:30
Nanded,Maharashtra,19.1383,77.3091,25.5,51,0.0,967.6,8.3,13.7,103,64.3,58.4,4,5,7,0,2026-03-13T04:00:16.374352+05:30
Gulbarga,Karnataka,17.3297,76.8343,25.7,51,0.0,957.8,8.6,28.4,94,41.1,33.1,4,5,7,0,2026-03-13T04:00:16.374358+05:30
Bidar,Karnataka,17.9104,77.5199,24.4,51,0.0,934.5,8.55,32.8,101,48.7,39.5,0,5,7,0,2026-03-13T04:00:16.374364+05:30
Hospet,Karnataka,15.2689,76.3909,26.1,52,0.0,954.7,8.9,28.4,79,40.7,36.8,4,5,7,0,2026-03-13T04:00:16.374370+05:30
Tirupur,Tamil Nadu,11.1085,77.3411,24.4,85,0.0,975.2,9.25,29.9,82,38.3,36.8,3,5,7,1,2026-03-13T04:00:16.374376+05:30
Alappuzha,Kerala,9.4981,76.3388,27.5,83,0.0,1007.8,9.1,28.4,86,33.8,31.9,7,5,4,1,2026-03-13T04:00:16.374382+05:30
Munnar,Kerala,10.0889,77.0595,17.2,83,0.0,854.3,9.55,27.0,71,29.5,28.2,3,10,7,0,2026-03-13T04:00:16.374389+05:30
Silchar,Assam,24.8333,92.7789,21.8,93,0.0,1007.0,7.75,35.3,171,84.3,77.1,3,5,4,1,2026-03-13T04:00:16.374396+05:30
Dibrugarh,Assam,27.4728,94.912,21.9,84,0.0,997.4,3.6,25.2,132,51.9,47.6,3,5,3,1,2026-03-13T04:00:16.374402+05:30
