city,state,latitude,longitude,temp,humidity,rain,pressure,uv_index,wind_gusts,aqi,pm10,pm2_5,no2,co,o3,so2,mosquito_risk,arthritis_risk,migraine_risk,frizz_risk,updated_at
Delhi,Delhi,28.6139,77.209,27.4,91,0.0,974.2,7.65,24.5,162,133.2,72.9,68.2,341.0,11.0,31.3,7,5,7,1,2026-07-11T03:36:11.954137+05:30
Mumbai,Maharashtra,19.076,72.8777,27.4,88,0.1,1006.6,5.9,55.8,58,39.1,15.1,2.9,101.0,45.0,2.8,10,5,0,1,2026-07-11T03:36:11.954191+05:30
Bangalore,Karnataka,12.9716,77.5946,20.3,94,0.0,910.9,8.1,47.2,39,12.2,7.2,10.0,143.0,30.0,4.1,3,5,7,1,2026-07-11T03:36:11.954208+05:30
Hyderabad,Telangana,17.385,78.4867,26.4,70,0.0,950.8,7.6,50.0,67,24.3,16.1,10.8,178.0,39.0,5.6,7,5,7,1,2026-07-11T03:36:11.954218+05:30
Chennai,Tamil Nadu,13.0827,80.2707,27.2,81,0.0,1005.2,8.0,34.6,68,17.9,13.7,15.1,264.0,52.0,11.5,7,5,4,1,2026-07-11T03:36:11.954226+05:30
Kolkata,West Bengal,22.5726,88.3639,27.4,92,0.1,998.7,7.95,27.4,85,44.0,35.4,12.3,312.0,61.0,14.1,10,5,7,1,2026-07-11T03:36:11.954234+05:30
Pune,Maharashtra,18.5204,73.8567,23.6,92,0.0,945.8,8.0,56.2,33,8.7,3.7,4.5,97.0,38.0,4.5,3,5,7,1,2026-07-11T03:36:11.954240+05:30
Ahmedabad,Gujarat,23.0225,72.5714,27.4,82,0.0,997.2,4.1,46.8,71,35.7,18.6,6.1,111.0,37.0,4.2,7,5,3,1,2026-07-11T03:36:11.954248+05:30
Jaipur,Rajasthan,26.9124,75.7873,27.1,72,0.0,952.2,7.4,37.1,442,542.0,99.9,6.8,145.0,59.0,4.4,7,5,7,1,2026-07-11T03:36:11.954254+05:30
Lucknow,Uttar Pradesh,26.8467,80.9462,26.2,95,0.0,984.7,6.6,45.0,127,109.7,51.9,18.5,201.0,51.0,6.2,7,5,7,1,2026-07-11T03:36:11.954265+05:30
Kanpur,Uttar Pradesh,26.4499,80.3319,26.4,93,0.0,983.2,5.65,48.2,114,65.9,40.6,21.7,190.0,41.0,7.5,7,5,3,1,2026-07-11T03:36:11.954272+05:30
Chandigarh,Chandigarh,30.7333,76.7794,25.1,90,0.0,959.7,7.7,19.4,124,61.2,47.7,42.6,457.0,27.0,9.2,7,5,7,1,2026-07-11T03:36:11.954279+05:30
Srinagar,Jammu and Kashmir,34.0837,74.7973,22.0,72,0.0,834.9,9.05,31.3,89,48.5,45.9,25.7,618.0,40.0,2.0,3,5,7,1,2026-07-11T03:36:11.954286+05:30
Jammu,Jammu and Kashmir,32.7266,74.857,26.5,93,0.1,963.5,7.95,25.6,163,73.6,64.5,39.0,506.0,49.0,4.7,10,5,7,1,2026-07-11T03:36:11.954292+05:30
Amritsar,Punjab,31.634,74.8723,27.4,95,0.2,971.1,8.45,54.4,158,164.8,72.6,15.7,626.0,87.0,4.7,10,5,7,1,2026-07-11T03:36:11.954299+05:30
Ludhiana,Punjab,30.901,75.8573,26.9,92,0.0,969.8,7.95,23.0,154,105.9,44.8,17.1,626.0,76.0,6.1,7,5,7,1,2026-07-11T03:36:11.954305+05:30
Jalandhar,Punjab,31.326,75.5762,24.7,97,0.2,971.2,8.2,29.9,160,152.7,62.4,18.9,680.0,79.0,5.0,6,5,7,1,2026-07-11T03:36:11.954311+05:30
Dehradun,Uttarakhand,30.6284,78.0322,18.4,97,0.0,824.4,7.5,24.1,41,6.8,6.5,21.0,247.0,49.0,0.6,3,10,7,1,2026-07-11T03:36:11.954318+05:30
Shimla,Himachal Pradesh,31.1048,77.1734,15.2,90,0.0,778.3,8.25,32.8,49,21.2,20.0,20.7,273.0,62.0,4.3,3,10,7,0,2026-07-11T03:36:11.954324+05:30
Manali,Himachal Pradesh,32.2396,77.1887,19.5,90,0.0,813.8,8.2,33.1,51,17.8,17.4,71.1,325.0,1.0,0.2,3,10,7,1,2026-07-11T03:36:11.954336+05:30
Gurgaon,Haryana,28.4595,77.0266,27.2,92,0.0,972.5,7.7,28.1,175,330.6,118.3,75.0,932.0,16.0,37.3,7,5,7,1,2026-07-11T03:36:11.954342+05:30
Noida,Uttar Pradesh,28.5355,77.391,27.6,90,0.0,975.6,7.7,23.8,175,330.6,118.3,75.0,273.0,16.0,37.3,7,5,7,1,2026-07-11T03:36:11.954348+05:30
Ghaziabad,Uttar Pradesh,28.6692,77.4538,26.4,93,0.0,973.9,7.4,24.1,121,53.9,50.2,46.9,318.0,15.0,9.5,7,5,7,1,2026-07-11T03:36:11.954355+05:30
Faridabad,Haryana,28.4089,77.3178,27.6,92,0.0,974.9,7.75,25.9,175,330.6,118.3,75.0,308.0,16.0,37.3,7,5,7,1,2026-07-11T03:36:11.954361+05:30
Meerut,Uttar Pradesh,28.9845,77.7064,25.7,90,0.0,972.5,7.5,47.5,121,53.9,50.2,46.9,539.0,15.0,9.5,7,5,7,1,2026-07-11T03:36:11.954367+05:30
Agra,Uttar Pradesh,27.1767,78.0081,29.7,67,0.0,979.0,6.5,37.8,159,120.1,50.9,25.0,216.0,36.0,7.1,7,5,7,1,2026-07-11T03:36:11.954373+05:30
Varanasi,Uttar Pradesh,25.3176,82.9739,26.1,98,0.4,990.0,8.2,36.0,99,49.4,32.1,11.6,268.0,57.0,6.9,10,5,7,1,2026-07-11T03:36:11.954380+05:30
Prayagraj,Uttar Pradesh,25.4358,81.8463,28.0,84,0.0,987.7,8.6,43.2,106,42.5,30.9,15.0,200.0,49.0,4.8,7,5,7,1,2026-07-11T03:36:11.954386+05:30
Gorakhpur,Uttar Pradesh,26.7606,83.3732,26.6,96,0.1,988.9,6.4,33.8,83,29.3,18.5,12.2,259.0,76.0,3.9,10,5,7,1,2026-07-11T03:36:11.954393+05:30
Bareilly,Uttar Pradesh,28.367,79.4304,26.6,98,0.1,977.3,7.75,28.1,89,60.1,55.2,37.3,377.0,28.0,9.7,10,5,7,1,2026-07-11T03:36:11.954401+05:30
Aligarh,Uttar Pradesh,27.8974,78.088,27.5,89,0.0,976.5,7.8,32.0,158,141.1,82.4,42.7,484.0,38.0,14.2,7,5,7,1,2026-07-11T03:36:11.954407+05:30
Moradabad,Uttar Pradesh,28.8386,78.7733,26.5,94,0.0,974.4,7.3,31.7,86,61.9,56.7,38.5,438.0,24.0,10.9,7,5,7,1,2026-07-11T03:36:11.954412+05:30
Saharanpur,Uttar Pradesh,29.9637,77.546,25.0,97,0.0,966.9,7.35,26.3,66,41.6,40.7,36.8,388.0,17.0,5.9,7,5,7,1,2026-07-11T03:36:11.954419+05:30
Jhansi,Uttar Pradesh,25.4484,78.5685,29.1,66,0.0,970.5,8.05,43.9,102,57.6,33.2,7.5,145.0,71.0,10.2,7,5,7,1,2026-07-11T03:36:15.313589+05:30
Surat,Gujarat,21.1702,72.8311,28.1,87,0.0,1003.1,6.1,63.7,64,32.0,17.2,14.5,257.0,32.0,25.5,7,5,4,1,2026-07-11T03:36:15.313611+05:30
Vadodara,Gujarat,22.3072,73.1812,27.5,83,0.0,999.9,7.5,55.1,65,27.8,13.9,5.7,109.0,37.0,3.5,7,5,7,1,2026-07-11T03:36:15.313622+05:30
Rajkot,Gujarat,22.3039,70.8022,26.8,87,0.0,989.5,7.15,57.6,63,24.6,11.0,3.2,91.0,41.0,3.0,7,5,7,1,2026-07-11T03:36:15.313629+05:30
Thane,Maharashtra,19.2183,72.9781,26.4,94,0.0,1006.0,5.65,47.5,58,39.1,15.1,2.9,117.0,45.0,2.8,7,5,0,1,2026-07-11T03:36:15.313636+05:30
Nagpur,Maharashtra,21.1458,79.0882,26.9,74,0.0,969.1,6.6,48.2,90,54.4,29.9,9.4,146.0,54.0,9.3,7,5,7,1,2026-07-11T03:36:15.313643+05:30
Nashik,Maharashtra,19.9975,73.7898,23.7,94,0.0,942.3,7.6,63.0,39,7.7,4.1,5.2,90.0,35.0,3.2,3,5,7,1,2026-07-11T03:36:15.313650+05:30
Aurangabad,Maharashtra,19.8762,75.3433,23.9,87,0.0,940.6,8.85,62.6,51,20.1,9.1,8.3,119.0,32.0,9.0,3,5,7,1,2026-07-11T03:36:15.313657+05:30
Solapur,Maharashtra,17.6599,75.9064,24.4,82,0.0,955.4,7.75,48.6,49,14.6,8.1,5.9,118.0,30.0,2.3,3,5,7,1,2026-07-11T03:36:15.313664+05:30
Kolhapur,Maharashtra,16.705,74.2433,23.0,94,0.0,947.0,7.85,54.0,35,7.2,3.7,2.9,104.0,38.0,2.0,3,5,7,1,2026-07-11T03:36:15.313670+05:30
Goa,Goa,15.2993,74.124,24.9,99,0.0,998.3,7.5,38.9,57,39.2,19.2,4.5,288.0,35.0,1.8,3,5,7,1,2026-07-11T03:36:15.313676+05:30
Jodhpur,Rajasthan,26.2389,73.0243,27.9,70,0.0,975.0,8.4,53.6,200,426.5,101.0,2.5,104.0,56.0,2.8,7,5,7,1,2026-07-11T03:36:15.313683+05:30
Udaipur,Rajasthan,24.5854,73.7125,23.5,87,0.0,940.0,8.85,53.3,77,48.4,22.2,3.6,100.0,49.0,3.3,3,5,7,1,2026-07-11T03:36:15.313689+05:30
Kota,Rajasthan,25.2138,75.8648,27.9,68,0.0,971.9,8.3,37.1,94,48.0,29.5,7.2,146.0,66.0,6.9,7,5,7,1,2026-07-11T03:36:15.313695+05:30
Bikaner,Rajasthan,28.0229,73.3119,29.7,65,0.0,972.7,7.85,39.6,156,185.8,74.5,2.8,103.0,56.0,4.8,7,5,7,1,2026-07-11T03:36:15.313701+05:30
Ajmer,Rajasthan,26.4499,74.6399,26.3,74,0.0,947.3,8.05,51.5,87,51.8,27.0,4.6,113.0,59.0,3.6,7,5,7,1,2026-07-11T03:36:15.313707+05:30
Gwalior,Madhya Pradesh,26.2183,78.1828,28.6,69,0.0,975.0,7.35,42.5,98,44.0,28.5,7.4,132.0,63.0,5.3,7,5,7,1,2026-07-11T03:36:15.313713+05:30
Indore,Madhya Pradesh,22.7196,75.8577,24.5,90,0.0,943.5,8.6,54.4,75,23.1,12.6,7.7,141.0,35.0,9.0,3,5,7,1,2026-07-11T03:36:15.313720+05:30
Bhopal,Madhya Pradesh,23.2599,77.4126,25.4,83,0.0,948.6,8.6,46.8,85,41.2,25.6,6.5,167.0,59.0,7.2,7,5,7,1,2026-07-11T03:36:15.313726+05:30
Jabalpur,Madhya Pradesh,23.1815,79.9864,26.5,75,0.0,956.1,8.05,36.7,89,58.6,33.6,5.5,182.0,70.0,4.7,7,5,7,1,2026-07-11T03:36:15.313732+05:30
Ujjain,Madhya Pradesh,23.1765,75.7885,25.1,88,0.0,948.9,8.5,55.4,75,22.4,12.9,8.0,155.0,35.0,9.6,7,5,7,1,2026-07-11T03:36:15.313738+05:30
Visakhapatnam,Andhra Pradesh,17.6868,83.2185,27.7,85,0.0,999.4,8.4,42.1,86,37.8,26.7,20.7,360.0,48.0,32.3,7,5,7,1,2026-07-11T03:36:15.313744+05:30
Vijayawada,Andhra Pradesh,16.5062,80.648,30.4,56,0.0,998.8,8.15,42.1,89,47.3,31.8,16.8,154.0,39.0,5.4,0,5,7,1,2026-07-11T03:36:15.313751+05:30
Guntur,Andhra Pradesh,16.3067,80.4365,30.8,54,0.0,1000.1,8.45,45.7,86,50.3,31.5,19.4,148.0,30.0,6.8,0,5,4,1,2026-07-11T03:36:15.313757+05:30
Nellore,Andhra Pradesh,14.4426,79.9865,28.9,67,0.0,1003.2,8.4,43.9,64,22.8,15.5,12.7,133.0,38.0,5.5,7,5,4,1,2026-07-11T03:36:15.313764+05:30
Kurnool,Andhra Pradesh,15.8281,78.0373,27.3,71,0.0,975.3,8.6,47.9,61,20.4,11.6,7.7,128.0,35.0,2.4,7,5,7,1,2026-07-11T03:36:15.313771+05:30
Kakinada,Andhra Pradesh,16.9891,82.2475,28.4,78,0.0,1003.2,5.45,43.6,76,35.2,21.3,4.9,172.0,86.0,4.1,7,5,0,1,2026-07-11T03:36:15.313777+05:30
Tirupati,Andhra Pradesh,13.6288,79.4192,28.5,61,0.0,989.0,8.25,36.0,62,19.4,11.5,9.1,116.0,34.0,2.0,7,5,7,1,2026-07-11T03:36:15.313783+05:30
Warangal,Telangana,17.9689,79.5941,28.1,65,0.0,975.4,7.45,43.9,79,49.0,28.4,12.3,181.0,40.0,4.0,7,5,7,1,2026-07-11T03:36:15.313789+05:30
Nizamabad,Telangana,18.6725,78.0941,26.3,71,0.0,962.2,8.4,45.7,73,22.5,15.4,9.7,128.0,39.0,6.7,7,5,7,1,2026-07-11T03:36:15.313795+05:30
Mysore,Karnataka,12.2958,76.6396,20.9,97,0.0,928.2,7.05,46.8,28,14.6,7.5,8.2,105.0,28.0,2.2,3,5,7,1,2026-07-11T03:36:15.313801+05:30
Mangalore,Karnataka,12.9141,74.856,24.9,98,0.1,1007.9,7.9,42.8,52,27.1,13.1,5.7,174.0,32.0,2.6,6,5,4,1,2026-07-11T03:36:15.313808+05:30
Hubli-Dharwad,Karnataka,15.3647,75.124,22.6,93,0.0,940.2,8.3,54.0,32,10.8,4.9,2.7,99.0,37.0,1.7,3,5,7,1,2026-07-11T03:36:15.313814+05:30
Belgaum,Karnataka,15.8497,74.4977,21.1,97,0.0,924.8,8.4,54.7,28,6.9,3.1,2.3,96.0,39.0,1.3,3,5,7,1,2026-07-11T03:36:18.661377+05:30
Coimbatore,Tamil Nadu,11.0168,76.9558,23.4,95,0.0,961.5,7.9,49.3,29,17.6,8.9,7.6,167.0,27.0,3.0,3,5,7,1,2026-07-11T03:36:18.661402+05:30
Madurai,Tamil Nadu,9.9252,78.1198,27.7,74,0.0,992.7,8.4,25.9,55,21.7,19.2,33.8,138.0,3.0,6.6,7,5,7,1,2026-07-11T03:36:18.661412+05:30
Trichy,Tamil Nadu,10.7905,78.7047,27.7,72,0.0,999.0,8.0,50.0,43,15.1,8.2,6.2,108.0,33.0,3.0,7,5,7,1,2026-07-11T03:36:18.661420+05:30
Salem,Tamil Nadu,11.6643,78.146,24.6,96,0.0,977.0,7.8,32.4,58,21.7,16.4,22.2,380.0,19.0,6.6,3,5,7,1,2026-07-11T03:36:18.661427+05:30
Tirunelveli,Tamil Nadu,8.7139,77.7567,28.4,68,0.0,1003.8,8.55,50.0,27,12.2,7.9,7.4,119.0,31.0,2.5,7,5,4,1,2026-07-11T03:36:18.661434+05:30
Vellore,Tamil Nadu,12.9165,79.1325,26.9,71,0.0,983.1,8.0,42.1,56,19.1,12.4,13.6,152.0,31.0,4.8,7,5,7,1,2026-07-11T03:36:18.661441+05:30
Erode,Tamil Nadu,11.341,77.7172,25.0,87,0.0,988.8,7.8,39.6,45,20.4,13.9,15.0,136.0,24.0,4.0,7,5,7,1,2026-07-11T03:36:18.661448+05:30
Kochi,Kerala,9.9312,76.2673,25.8,95,0.0,1010.2,7.8,40.3,50,19.4,13.4,13.1,84.0,21.0,3.8,7,0,4,1,2026-07-11T03:36:18.661455+05:30
Thiruvananthapuram,Kerala,8.5241,76.9366,24.7,96,0.0,1009.9,8.0,50.0,40,15.5,8.5,4.2,99.0,43.0,2.0,3,0,4,1,2026-07-11T03:36:18.661462+05:30
Kozhikode,Kerala,11.2588,75.7804,24.3,98,0.0,1009.2,7.95,40.3,38,21.2,9.2,1.7,190.0,47.0,1.2,3,0,4,1,2026-07-11T03:36:18.661469+05:30
Thrissur,Kerala,10.5276,76.2144,24.6,98,0.1,1008.6,7.8,38.2,52,19.4,12.7,9.7,212.0,26.0,3.4,6,0,4,1,2026-07-11T03:36:18.661476+05:30
Kannur,Kerala,11.8745,75.3704,24.9,97,0.1,1008.5,7.85,43.9,49,23.6,10.7,4.8,246.0,31.0,1.8,6,0,4,1,2026-07-11T03:36:18.661483+05:30
Patna,Bihar,25.5941,85.1376,27.1,91,0.0,992.5,5.35,35.3,80,60.8,47.6,22.2,264.0,45.0,10.1,7,5,3,1,2026-07-11T03:36:18.661489+05:30
Gaya,Bihar,24.7914,85.0002,26.6,95,0.1,986.5,6.35,38.9,81,72.4,48.1,18.5,272.0,44.0,20.4,10,5,7,1,2026-07-11T03:36:18.661496+05:30
Muzaffarpur,Bihar,26.1209,85.3647,26.0,98,0.1,992.3,2.55,26.6,91,60.1,53.7,23.1,360.0,48.0,8.9,10,5,3,1,2026-07-11T03:36:18.661503+05:30
Bhagalpur,Bihar,25.2425,87.0117,27.2,95,0.2,993.0,7.15,31.3,84,31.1,27.1,10.9,291.0,72.0,6.1,10,5,7,1,2026-07-11T03:36:18.661509+05:30
Ranchi,Jharkhand,23.3441,85.3096,23.8,96,0.0,931.5,4.75,38.5,81,57.7,34.1,7.1,201.0,75.0,8.9,3,5,3,1,2026-07-11T03:36:18.661516+05:30
Jamshedpur,Jharkhand,22.8046,86.2029,25.6,96,0.1,984.5,2.1,35.6,86,60.8,39.7,14.0,237.0,72.0,26.0,10,5,3,1,2026-07-11T03:36:18.661523+05:30
Dhanbad,Jharkhand,23.7957,86.4304,26.0,89,0.0,972.7,2.75,37.8,113,66.4,53.1,34.1,202.0,45.0,84.6,7,5,3,1,2026-07-11T03:36:18.661529+05:30
Bokaro,Jharkhand,23.6693,86.1511,25.9,92,0.1,976.7,2.45,40.7,107,67.3,49.6,24.7,223.0,57.0,64.1,10,5,3,1,2026-07-11T03:36:18.661536+05:30
Bhubaneswar,Odisha,20.2961,85.8245,27.8,85,0.0,996.9,8.3,35.3,76,26.5,22.1,8.4,265.0,71.0,5.9,7,5,7,1,2026-07-11T03:36:18.661542+05:30
Cuttack,Odisha,20.4625,85.8828,27.7,89,0.0,998.6,8.05,36.7,76,26.5,22.1,8.4,259.0,71.0,5.9,7,5,7,1,2026-07-11T03:36:18.661549+05:30
Rourkela,Odisha,22.2604,84.8536,25.7,97,0.2,979.4,2.05,38.9,115,113.4,54.8,15.6,297.0,54.0,14.5,10,5,3,1,2026-07-11T03:36:18.661555+05:30
Raipur,Chhattisgarh,21.2514,81.6296,27.1,76,0.0,969.6,7.55,39.6,117,67.8,42.5,29.2,477.0,43.0,48.8,7,5,7,1,2026-07-11T03:36:18.661562+05:30
Bhilai,Chhattisgarh,21.1938,81.3509,26.9,77,0.0,970.0,7.65,43.6,111,63.6,39.3,23.8,588.0,46.0,39.1,7,5,7,1,2026-07-11T03:36:18.661568+05:30
Guwahati,Assam,26.1158,91.7086,25.9,99,0.1,993.1,7.65,16.6,46,8.4,8.3,6.5,242.0,62.0,1.4,10,5,7,1,2026-07-11T03:36:18.661574+05:30
Agartala,Tripura,23.8315,91.2868,25.1,99,0.1,999.1,8.05,37.8,53,25.6,23.9,9.9,207.0,62.0,4.0,10,5,7,1,2026-07-11T03:36:18.661581+05:30
Shillong,Meghalaya,25.5788,91.8933,20.4,98,0.0,851.1,3.25,29.2,28,0.8,0.8,4.5,174.0,51.0,2.3,3,5,3,1,2026-07-11T03:36:18.661588+05:30
Imphal,Manipur,24.817,93.9368,23.4,97,0.1,917.2,5.7,29.5,36,9.3,8.7,7.6,451.0,40.0,2.4,6,5,3,1,2026-07-11T03:36:18.661594+05:30
Aizawl,Mizoram,23.7271,92.7176,19.3,98,0.0,886.4,8.6,42.5,25,0.6,0.6,2.0,132.0,54.0,0.9,3,10,7,1,2026-07-11T03:36:18.661601+05:30
Kohima,Nagaland,25.6701,94.1077,21.4,91,0.1,850.2,7.25,23.0,22,2.7,2.5,4.0,224.0,46.0,0.9,6,5,7,1,2026-07-11T03:36:18.661608+05:30
Gangtok,Sikkim,27.3314,88.6138,19.0,96,0.1,831.9,7.65,29.2,46,7.9,7.7,4.1,320.0,99.0,2.6,6,10,7,1,2026-07-11T03:36:18.661615+05:30
Siliguri,West Bengal,26.7271,88.3953,25.3,99,0.2,984.9,8.1,19.8,85,45.5,44.2,9.1,730.0,87.0,5.9,10,5,7,1,2026-07-11T03:36:22.029261+05:30
Durgapur,West Bengal,23.5204,87.3119,26.6,93,0.0,987.6,2.5,36.4,110,57.0,48.8,35.6,339.0,45.0,56.8,7,5,3,1,2026-07-11T03:36:22.029292+05:30
Asansol,West Bengal,23.6739,86.9524,26.6,90,0.0,986.1,3.7,35.3,98,54.2,44.1,31.0,1280.0,49.0,51.1,7,5,3,1,2026-07-11T03:36:22.029302+05:30
Pondicherry,Puducherry,11.9139,79.8145,27.3,82,0.0,1006.9,8.05,40.7,64,17.9,14.2,17.7,305.0,41.0,12.7,7,5,4,1,2026-07-11T03:36:22.029310+05:30
Port Blair,Andaman and Nicobar Islands,11.6234,92.7265,27.5,80,0.0,1006.7,8.8,55.8,40,12.3,6.8,0.1,84.0,44.0,0.3,7,5,4,1,2026-07-11T03:36:22.029318+05:30
Haridwar,Uttarakhand,29.9457,78.1642,24.9,98,0.5,965.7,7.5,28.8,59,23.7,23.0,21.7,351.0,36.0,2.9,6,5,7,1,2026-07-11T03:36:22.029326+05:30
Rishikesh,Uttarakhand,30.0869,78.2676,24.7,98,0.2,958.4,7.6,25.6,48,5.8,5.2,6.9,252.0,84.0,1.4,6,5,7,1,2026-07-11T03:36:22.029333+05:30
Nainital,Uttarakhand,29.3919,79.4542,16.7,99,0.0,799.0,5.4,22.3,35,13.6,10.7,11.5,248.0,72.0,1.9,3,10,3,1,2026-07-11T03:36:22.029340+05:30
Mussoorie,Uttarakhand,30.4599,78.0664,16.4,100,0.0,797.1,7.3,29.9,54,9.8,8.9,12.1,240.0,74.0,1.6,3,10,7,1,2026-07-11T03:36:22.029347+05:30
Dharamshala,Himachal Pradesh,32.219,76.3234,20.9,84,0.0,862.1,8.45,33.8,57,5.2,5.0,11.3,273.0,52.0,0.4,3,5,7,1,2026-07-11T03:36:22.029354+05:30
Dalhousie,Himachal Pradesh,32.5387,75.971,16.7,94,0.0,798.1,8.7,25.6,127,29.7,28.3,32.5,614.0,50.0,1.8,3,10,7,0,2026-07-11T03:36:22.029361+05:30
Patiala,Punjab,30.3398,76.3869,26.2,90,0.0,969.2,6.9,16.2,129,142.5,58.9,25.5,544.0,44.0,11.0,7,5,7,1,2026-07-11T03:36:22.029369+05:30
Bhatinda,Punjab,30.211,74.9455,28.8,80,0.0,974.2,8.3,27.7,168,190.0,66.8,11.1,412.0,96.0,4.9,7,5,7,1,2026-07-11T03:36:22.029376+05:30
Rohtak,Haryana,28.8955,76.6066,27.7,91,0.0,972.7,7.65,25.6,369,353.0,108.5,49.5,624.0,30.0,20.6,7,5,7,1,2026-07-11T03:36:22.029383+05:30
Panipat,Haryana,29.3909,76.9635,25.5,95,0.0,971.6,7.4,22.0,484,200.7,75.2,34.5,538.0,30.0,8.5,7,5,7,1,2026-07-11T03:36:22.029391+05:30
Mathura,Uttar Pradesh,27.4924,77.6737,28.5,78,0.0,978.0,7.95,33.1,240,208.2,97.3,60.5,300.0,3.0,9.5,7,5,7,1,2026-07-11T03:36:22.029398+05:30
Vrindavan,Uttar Pradesh,27.5823,77.7027,28.8,76,0.0,978.4,7.9,32.4,240,208.2,97.3,60.5,369.0,3.0,9.5,7,5,7,1,2026-07-11T03:36:22.029404+05:30
Ayodhya,Uttar Pradesh,26.7922,82.1998,26.0,98,0.0,986.9,8.05,34.6,102,75.9,48.7,20.0,256.0,45.0,5.4,7,5,7,1,2026-07-11T03:36:22.029411+05:30
Ratlam,Madhya Pradesh,23.3315,75.0367,24.6,93,0.0,949.6,8.5,52.9,73,23.2,13.2,8.2,136.0,35.0,9.3,3,5,7,1,2026-07-11T03:36:22.029417+05:30
Sagar,Madhya Pradesh,23.8388,78.7378,26.5,72,0.0,944.5,8.65,46.4,91,60.5,35.6,5.5,177.0,72.0,5.5,7,5,7,1,2026-07-11T03:36:22.029424+05:30
Satna,Madhya Pradesh,24.6005,80.8322,27.8,72,0.0,964.3,8.2,42.5,101,58.4,32.6,5.2,173.0,69.0,4.3,7,5,7,1,2026-07-11T03:36:22.029431+05:30
Akola,Maharashtra,20.7002,77.0082,26.5,74,0.0,971.7,8.75,52.6,67,26.7,12.5,7.0,113.0,36.0,7.2,7,5,7,1,2026-07-11T03:36:22.029438+05:30
Amravati,Maharashtra,20.9374,77.7796,26.2,76,0.0,963.6,8.5,60.1,70,28.8,14.3,7.9,131.0,36.0,8.3,7,5,7,1,2026-07-11T03:36:22.029445+05:30
Latur,Maharashtra,18.4088,76.5604,23.9,83,0.0,937.3,8.2,48.2,52,14.6,7.7,6.3,108.0,34.0,3.5,3,5,7,1,2026-07-11T03:36:22.029453+05:30
Nanded,Maharashtra,19.1383,77.3091,26.3,75,0.0,965.9,8.65,44.3,63,20.8,12.5,6.6,122.0,47.0,5.3,7,5,7,1,2026-07-11T03:36:22.029460+05:30
Gulbarga,Karnataka,17.3297,76.8343,24.7,79,0.0,956.9,8.0,52.2,55,18.7,9.5,6.0,112.0,33.0,2.9,3,5,7,1,2026-07-11T03:36:22.029466+05:30
Bidar,Karnataka,17.9104,77.5199,24.6,80,0.0,933.2,7.5,46.1,62,18.0,10.9,6.5,122.0,39.0,2.8,3,5,7,1,2026-07-11T03:36:22.029473+05:30
Hospet,Karnataka,15.2689,76.3909,23.5,89,0.0,955.3,8.35,50.4,40,14.3,6.9,4.6,113.0,33.0,1.9,3,5,7,1,2026-07-11T03:36:22.029479+05:30
Tirupur,Tamil Nadu,11.1085,77.3411,23.7,93,0.0,975.0,8.3,48.2,50,21.5,15.7,18.8,135.0,17.0,4.8,3,5,7,1,2026-07-11T03:36:22.029486+05:30
Alappuzha,Kerala,9.4981,76.3388,25.8,95,0.1,1010.4,8.2,42.8,46,19.5,12.0,8.8,82.0,35.0,3.2,10,0,4,1,2026-07-11T03:36:22.029492+05:30
Munnar,Kerala,10.0889,77.0595,17.3,100,0.0,856.9,8.3,40.3,19,11.3,5.5,4.9,85.0,23.0,0.9,3,10,7,1,2026-07-11T03:36:22.029499+05:30
Silchar,Assam,24.8333,92.7789,26.4,97,0.0,997.8,6.85,29.2,35,8.6,7.9,6.4,299.0,50.0,2.9,7,5,7,1,2026-07-11T03:36:22.029506+05:30
Dibrugarh,Assam,27.4728,94.912,25.2,98,0.1,988.0,7.25,27.4,58,12.5,11.1,7.9,174.0,61.0,1.3,10,5,7,1,2026-07-11T03:36:22.029512+05:30
