city,state,latitude,longitude,temp,humidity,rain,pressure,uv_index,wind_gusts,aqi,pm10,pm2_5,mosquito_risk,arthritis_risk,migraine_risk,frizz_risk,updated_at
Delhi,Delhi,28.6139,77.209,30.7,29,0.0,981.0,7.45,48.6,596,637.0,119.7,0,5,7,0,2026-04-26T02:12:18.643503+05:30
Mumbai,Maharashtra,19.076,72.8777,29.3,46,0.0,1006.5,7.7,38.9,79,49.1,29.9,4,5,4,1,2026-04-26T02:12:18.643548+05:30
Bangalore,Karnataka,12.9716,77.5946,25.5,57,0.0,911.3,9.5,36.7,76,31.9,28.5,4,5,7,1,2026-04-26T02:12:18.643564+05:30
Hyderabad,Telangana,17.385,78.4867,28.8,51,0.0,952.3,8.85,28.8,121,30.5,26.9,4,5,7,1,2026-04-26T02:12:18.643574+05:30
Chennai,Tamil Nadu,13.0827,80.2707,27.7,90,0.0,1005.9,9.25,52.2,34,13.8,9.0,7,5,4,1,2026-04-26T02:12:18.643584+05:30
Kolkata,West Bengal,22.5726,88.3639,27.5,90,0.0,1004.7,8.6,47.2,75,21.8,16.9,7,5,4,1,2026-04-26T02:12:18.643596+05:30
Pune,Maharashtra,18.5204,73.8567,29.1,22,0.0,946.7,8.6,37.4,108,36.4,29.9,4,5,7,0,2026-04-26T02:12:18.643604+05:30
Ahmedabad,Gujarat,23.0225,72.5714,32.2,24,0.0,1000.6,8.2,34.9,61,32.9,15.5,0,5,4,0,2026-04-26T02:12:18.643613+05:30
Jaipur,Rajasthan,26.9124,75.7873,32.0,24,0.0,958.7,8.05,42.8,138,192.8,44.7,0,5,7,0,2026-04-26T02:12:18.643620+05:30
Lucknow,Uttar Pradesh,26.8467,80.9462,30.6,31,0.0,990.6,7.9,48.6,123,146.7,42.7,0,5,7,0,2026-04-26T02:12:18.643628+05:30
Kanpur,Uttar Pradesh,26.4499,80.3319,31.5,27,0.0,988.6,7.9,47.2,188,501.1,74.7,0,5,7,0,2026-04-26T02:12:18.643634+05:30
Chandigarh,Chandigarh,30.7333,76.7794,28.3,29,0.0,966.1,7.4,46.1,64,41.0,22.7,4,5,7,0,2026-04-26T02:12:18.643642+05:30
Srinagar,Jammu and Kashmir,34.0837,74.7973,10.0,96,0.0,842.9,8.6,14.8,79,58.0,41.3,3,10,7,0,2026-04-26T02:12:18.643650+05:30
Jammu,Jammu and Kashmir,32.7266,74.857,23.0,47,0.0,970.9,8.15,36.4,76,34.9,23.6,0,5,7,0,2026-04-26T02:12:18.643657+05:30
Amritsar,Punjab,31.634,74.8723,27.6,37,0.0,978.9,8.1,33.5,100,127.6,52.5,4,5,7,0,2026-04-26T02:12:18.643664+05:30
Ludhiana,Punjab,30.901,75.8573,27.2,40,0.0,976.6,7.65,39.2,85,81.5,36.7,4,5,7,0,2026-04-26T02:12:18.643675+05:30
Jalandhar,Punjab,31.326,75.5762,26.2,45,0.0,977.6,7.85,32.4,96,104.3,45.4,4,5,7,0,2026-04-26T02:12:18.643682+05:30
Dehradun,Uttarakhand,30.6284,78.0322,12.4,65,0.0,826.5,7.8,49.3,50,28.8,13.6,3,5,7,0,2026-04-26T02:12:18.643689+05:30
Shimla,Himachal Pradesh,31.1048,77.1734,14.5,43,0.0,783.8,7.9,46.4,58,72.2,21.4,0,5,7,0,2026-04-26T02:12:18.643696+05:30
Manali,Himachal Pradesh,32.2396,77.1887,9.1,65,0.0,815.9,9.3,42.5,48,7.7,4.8,3,5,7,0,2026-04-26T02:12:18.643703+05:30
Gurgaon,Haryana,28.4595,77.0266,27.0,36,0.0,979.4,7.55,46.8,1436,1255.4,177.4,4,5,7,0,2026-04-26T02:12:18.643709+05:30
Noida,Uttar Pradesh,28.5355,77.391,29.9,29,0.0,982.1,7.45,41.4,1436,1255.4,177.4,4,5,7,0,2026-04-26T02:12:18.643716+05:30
Ghaziabad,Uttar Pradesh,28.6692,77.4538,29.5,30,0.0,980.4,7.45,47.2,414,612.8,115.9,4,5,7,0,2026-04-26T02:12:18.643722+05:30
Faridabad,Haryana,28.4089,77.3178,31.9,24,0.0,981.6,7.5,51.5,1436,1255.4,177.4,0,5,7,0,2026-04-26T02:12:18.643746+05:30
Meerut,Uttar Pradesh,28.9845,77.7064,29.3,32,0.0,978.8,7.35,40.7,414,612.8,115.9,4,5,7,0,2026-04-26T02:12:18.643753+05:30
Agra,Uttar Pradesh,27.1767,78.0081,30.1,30,0.0,985.4,7.8,47.2,768,1270.3,193.2,0,5,7,0,2026-04-26T02:12:18.643763+05:30
Varanasi,Uttar Pradesh,25.3176,82.9739,29.6,49,0.0,994.4,8.5,46.1,138,142.0,67.3,4,5,7,1,2026-04-26T02:12:18.643770+05:30
Prayagraj,Uttar Pradesh,25.4358,81.8463,28.5,35,0.0,992.5,8.4,41.0,118,88.0,48.5,4,5,7,0,2026-04-26T02:12:18.643776+05:30
Gorakhpur,Uttar Pradesh,26.7606,83.3732,27.1,62,0.0,995.1,8.35,35.6,151,89.4,59.4,7,5,7,1,2026-04-26T02:12:18.643783+05:30
Bareilly,Uttar Pradesh,28.367,79.4304,28.0,37,0.0,983.7,7.7,46.8,99,243.1,58.0,4,5,7,0,2026-04-26T02:12:18.643790+05:30
Aligarh,Uttar Pradesh,27.8974,78.088,29.4,29,0.0,983.0,7.6,51.5,681,1076.6,169.5,4,5,7,0,2026-04-26T02:12:18.643797+05:30
Moradabad,Uttar Pradesh,28.8386,78.7733,29.1,31,0.0,980.6,7.5,49.3,152,301.7,76.1,4,5,7,0,2026-04-26T02:12:18.643804+05:30
Saharanpur,Uttar Pradesh,29.9637,77.546,28.6,29,0.0,972.8,7.1,51.8,105,139.2,42.1,4,5,7,0,2026-04-26T02:12:18.643810+05:30
Jhansi,Uttar Pradesh,25.4484,78.5685,30.4,27,0.0,975.6,8.3,43.6,76,237.5,51.7,0,5,7,0,2026-04-26T02:12:21.870306+05:30
Surat,Gujarat,21.1702,72.8311,29.2,63,0.0,1004.3,7.85,32.0,106,34.2,23.1,7,5,4,1,2026-04-26T02:12:21.870341+05:30
Vadodara,Gujarat,22.3072,73.1812,31.0,34,0.0,1002.0,8.15,37.1,82,32.4,25.1,0,5,4,0,2026-04-26T02:12:21.870352+05:30
Rajkot,Gujarat,22.3039,70.8022,25.4,75,0.0,993.5,7.9,37.8,58,61.0,17.2,7,5,7,1,2026-04-26T02:12:21.870359+05:30
Thane,Maharashtra,19.2183,72.9781,27.8,62,0.0,1005.9,7.8,34.2,79,49.1,29.9,7,5,4,1,2026-04-26T02:12:21.870366+05:30
Nagpur,Maharashtra,21.1458,79.0882,33.0,21,0.0,971.2,8.9,31.7,92,44.2,38.0,0,5,7,0,2026-04-26T02:12:21.870373+05:30
Nashik,Maharashtra,19.9975,73.7898,28.1,19,0.0,944.5,8.3,34.9,94,50.4,33.3,4,5,7,0,2026-04-26T02:12:21.870380+05:30
Aurangabad,Maharashtra,19.8762,75.3433,30.6,22,0.0,943.2,9.05,30.2,81,51.2,41.1,0,5,7,0,2026-04-26T02:12:21.870387+05:30
Solapur,Maharashtra,17.6599,75.9064,30.5,30,0.0,955.5,8.85,24.8,116,45.1,40.7,0,5,7,0,2026-04-26T02:12:21.870393+05:30
Kolhapur,Maharashtra,16.705,74.2433,25.7,80,0.0,946.8,8.5,46.4,147,56.6,53.2,7,5,7,1,2026-04-26T02:12:21.870400+05:30
Goa,Goa,15.2993,74.124,27.9,92,0.0,996.2,9.0,40.3,75,45.9,36.2,7,5,7,1,2026-04-26T02:12:21.870407+05:30
Jodhpur,Rajasthan,26.2389,73.0243,31.6,28,0.0,981.2,8.3,36.4,91,166.2,31.8,0,5,7,0,2026-04-26T02:12:21.870415+05:30
Udaipur,Rajasthan,24.5854,73.7125,30.4,23,0.0,945.7,8.8,41.4,65,40.5,16.9,0,5,7,0,2026-04-26T02:12:21.870422+05:30
Kota,Rajasthan,25.2138,75.8648,29.6,29,0.0,976.8,8.3,30.6,79,122.0,43.2,4,5,7,0,2026-04-26T02:12:21.870428+05:30
Bikaner,Rajasthan,28.0229,73.3119,30.0,45,0.0,980.3,8.15,35.3,77,81.5,27.4,4,5,7,1,2026-04-26T02:12:21.870436+05:30
Ajmer,Rajasthan,26.4499,74.6399,30.0,27,0.0,953.6,8.25,44.3,81,104.5,29.4,4,5,7,0,2026-04-26T02:12:21.870442+05:30
Gwalior,Madhya Pradesh,26.2183,78.1828,32.3,24,0.0,980.8,8.05,46.1,101,676.1,122.0,0,5,7,0,2026-04-26T02:12:21.870449+05:30
Indore,Madhya Pradesh,22.7196,75.8577,30.8,21,0.0,947.5,8.6,34.9,65,53.3,34.5,0,5,7,0,2026-04-26T02:12:21.870455+05:30
Bhopal,Madhya Pradesh,23.2599,77.4126,30.0,20,0.0,952.1,8.65,32.8,62,38.6,27.1,4,5,7,0,2026-04-26T02:12:21.870462+05:30
Jabalpur,Madhya Pradesh,23.1815,79.9864,28.4,25,0.0,959.1,8.6,36.0,56,20.4,15.3,4,5,7,0,2026-04-26T02:12:21.870468+05:30
Ujjain,Madhya Pradesh,23.1765,75.7885,30.3,24,0.0,952.9,8.55,29.2,70,40.4,27.6,0,5,7,0,2026-04-26T02:12:21.870474+05:30
Visakhapatnam,Andhra Pradesh,17.6868,83.2185,26.5,93,0.0,1001.9,9.1,48.6,57,16.8,12.9,7,5,4,1,2026-04-26T02:12:21.870481+05:30
Vijayawada,Andhra Pradesh,16.5062,80.648,26.7,96,0.0,1001.3,9.2,38.9,52,16.2,12.9,7,5,4,1,2026-04-26T02:12:21.870487+05:30
Guntur,Andhra Pradesh,16.3067,80.4365,26.7,98,0.0,1002.6,9.2,41.0,53,15.9,12.3,7,5,4,1,2026-04-26T02:12:21.870493+05:30
Nellore,Andhra Pradesh,14.4426,79.9865,26.1,93,0.0,1004.6,8.85,46.4,43,11.0,8.3,7,5,4,1,2026-04-26T02:12:21.870500+05:30
Kurnool,Andhra Pradesh,15.8281,78.0373,30.1,54,0.0,976.0,9.2,30.2,84,24.7,21.8,0,5,7,1,2026-04-26T02:12:21.870507+05:30
Kakinada,Andhra Pradesh,16.9891,82.2475,26.8,94,0.0,1006.2,9.15,45.4,40,16.3,10.7,7,5,4,1,2026-04-26T02:12:21.870513+05:30
Tirupati,Andhra Pradesh,13.6288,79.4192,26.9,73,0.0,990.3,9.3,35.6,59,19.5,17.3,7,5,7,1,2026-04-26T02:12:21.870518+05:30
Warangal,Telangana,17.9689,79.5941,28.2,59,0.0,977.1,8.9,34.2,91,24.8,22.5,4,5,7,1,2026-04-26T02:12:21.870524+05:30
Nizamabad,Telangana,18.6725,78.0941,30.5,35,0.0,962.8,9.1,36.0,123,49.8,46.3,0,5,7,0,2026-04-26T02:12:21.870530+05:30
Mysore,Karnataka,12.2958,76.6396,23.9,75,0.0,927.3,9.45,38.2,86,29.8,26.7,3,5,7,1,2026-04-26T02:12:21.870536+05:30
Mangalore,Karnataka,12.9141,74.856,28.6,88,0.0,1005.3,9.1,39.2,62,26.6,19.9,7,5,4,1,2026-04-26T02:12:21.870542+05:30
Hubli-Dharwad,Karnataka,15.3647,75.124,26.4,78,0.0,939.6,9.2,53.3,105,22.1,19.8,7,5,7,1,2026-04-26T02:12:21.870548+05:30
Belgaum,Karnataka,15.8497,74.4977,24.7,83,0.0,924.2,9.2,46.1,116,33.9,29.3,3,5,7,1,2026-04-26T02:12:25.195525+05:30
Coimbatore,Tamil Nadu,11.0168,76.9558,27.6,64,0.0,960.9,9.35,39.6,76,36.7,33.8,7,5,7,1,2026-04-26T02:12:25.195559+05:30
Madurai,Tamil Nadu,9.9252,78.1198,28.2,59,0.0,992.4,9.25,43.9,57,14.2,13.8,4,5,7,1,2026-04-26T02:12:25.195569+05:30
Trichy,Tamil Nadu,10.7905,78.7047,26.2,87,0.0,998.9,9.3,29.2,55,15.8,13.8,7,5,7,1,2026-04-26T02:12:25.195578+05:30
Salem,Tamil Nadu,11.6643,78.146,27.4,67,0.0,976.3,9.3,37.8,65,29.0,26.4,7,5,7,1,2026-04-26T02:12:25.195586+05:30
Tirunelveli,Tamil Nadu,8.7139,77.7567,27.0,78,0.0,1002.4,9.2,37.1,60,21.0,19.9,7,5,4,1,2026-04-26T02:12:25.195594+05:30
Vellore,Tamil Nadu,12.9165,79.1325,26.2,79,0.0,983.4,9.35,37.1,78,35.5,33.6,7,5,7,1,2026-04-26T02:12:25.195601+05:30
Erode,Tamil Nadu,11.341,77.7172,28.3,60,0.0,988.2,9.3,39.2,56,17.4,15.7,4,5,7,1,2026-04-26T02:12:25.195607+05:30
Kochi,Kerala,9.9312,76.2673,28.1,87,0.0,1007.5,9.0,37.4,79,25.8,24.7,7,5,4,1,2026-04-26T02:12:25.195615+05:30
Thiruvananthapuram,Kerala,8.5241,76.9366,25.1,91,0.0,1006.9,9.0,32.0,55,16.6,12.6,7,5,4,1,2026-04-26T02:12:25.195622+05:30
Kozhikode,Kerala,11.2588,75.7804,27.3,90,0.0,1006.8,8.25,34.2,59,20.5,15.1,7,5,4,1,2026-04-26T02:12:25.195628+05:30
Thrissur,Kerala,10.5276,76.2144,27.0,91,0.0,1005.9,8.05,36.7,73,27.0,25.8,7,5,4,1,2026-04-26T02:12:25.195635+05:30
Kannur,Kerala,11.8745,75.3704,28.0,79,0.0,1005.9,8.95,35.3,63,23.0,19.7,7,5,4,1,2026-04-26T02:12:25.195642+05:30
Patna,Bihar,25.5941,85.1376,27.2,73,0.0,997.7,8.6,54.7,152,69.6,57.7,7,5,7,1,2026-04-26T02:12:25.195649+05:30
Gaya,Bihar,24.7914,85.0002,27.2,66,0.0,990.7,8.7,41.4,126,54.8,47.6,7,5,7,1,2026-04-26T02:12:25.195656+05:30
Muzaffarpur,Bihar,26.1209,85.3647,26.3,74,0.0,998.2,8.65,53.6,154,73.3,60.8,7,5,7,1,2026-04-26T02:12:25.195662+05:30
Bhagalpur,Bihar,25.2425,87.0117,27.8,77,0.0,998.7,8.6,47.5,152,55.1,47.5,7,5,7,1,2026-04-26T02:12:25.195669+05:30
Ranchi,Jharkhand,23.3441,85.3096,24.5,39,0.0,935.3,9.15,39.2,105,47.4,43.0,0,5,7,0,2026-04-26T02:12:25.195676+05:30
Jamshedpur,Jharkhand,22.8046,86.2029,29.5,58,0.0,988.7,8.8,45.7,126,49.0,43.1,4,5,7,1,2026-04-26T02:12:25.195682+05:30
Dhanbad,Jharkhand,23.7957,86.4304,27.1,91,0.0,977.4,8.95,33.8,154,60.1,57.2,7,5,7,1,2026-04-26T02:12:25.195688+05:30
Bokaro,Jharkhand,23.6693,86.1511,26.4,96,0.0,981.0,8.95,47.5,153,65.4,62.4,7,5,7,1,2026-04-26T02:12:25.195694+05:30
Bhubaneswar,Odisha,20.2961,85.8245,26.2,96,0.0,1000.4,8.95,49.3,59,12.5,9.4,7,5,4,1,2026-04-26T02:12:25.195700+05:30
Cuttack,Odisha,20.4625,85.8828,26.1,95,0.0,1002.3,8.95,45.4,59,12.5,9.4,7,5,4,1,2026-04-26T02:12:25.195706+05:30
Rourkela,Odisha,22.2604,84.8536,28.2,73,0.0,983.1,8.9,40.0,141,45.4,39.3,7,5,7,1,2026-04-26T02:12:25.195712+05:30
Raipur,Chhattisgarh,21.2514,81.6296,29.5,28,0.0,972.3,8.95,41.8,108,45.3,41.1,4,5,7,0,2026-04-26T02:12:25.195718+05:30
Bhilai,Chhattisgarh,21.1938,81.3509,29.5,29,0.0,972.8,8.95,43.2,106,44.5,39.1,4,5,7,0,2026-04-26T02:12:25.195724+05:30
Guwahati,Assam,26.1158,91.7086,22.1,92,0.0,1001.5,3.1,37.1,157,77.3,59.6,3,5,0,1,2026-04-26T02:12:25.195748+05:30
Agartala,Tripura,23.8315,91.2868,25.8,92,0.0,1005.8,8.8,43.2,145,31.7,29.4,7,5,4,1,2026-04-26T02:12:25.195754+05:30
Shillong,Meghalaya,25.5788,91.8933,16.3,78,0.0,855.3,3.7,44.3,140,76.6,44.7,3,5,3,0,2026-04-26T02:12:25.195761+05:30
Imphal,Manipur,24.817,93.9368,18.4,79,0.0,922.0,7.75,33.5,154,133.6,93.4,3,5,7,0,2026-04-26T02:12:25.195767+05:30
Aizawl,Mizoram,23.7271,92.7176,18.5,79,0.0,891.4,9.0,45.7,113,70.3,38.0,3,5,7,0,2026-04-26T02:12:25.195773+05:30
Kohima,Nagaland,25.6701,94.1077,14.9,77,0.0,853.2,6.9,35.6,157,111.8,85.2,3,5,7,0,2026-04-26T02:12:25.195780+05:30
Gangtok,Sikkim,27.3314,88.6138,13.8,72,0.0,835.5,8.65,42.1,82,25.1,19.2,3,5,7,0,2026-04-26T02:12:25.195786+05:30
Siliguri,West Bengal,26.7271,88.3953,21.3,96,0.0,992.6,8.4,38.9,148,61.7,51.8,3,5,7,1,2026-04-26T02:12:28.434442+05:30
Durgapur,West Bengal,23.5204,87.3119,26.9,92,0.0,993.1,8.9,36.7,127,37.3,34.7,7,5,7,1,2026-04-26T02:12:28.434475+05:30
Asansol,West Bengal,23.6739,86.9524,27.1,92,0.0,991.4,8.95,32.0,131,36.8,34.8,7,5,7,1,2026-04-26T02:12:28.434486+05:30
Pondicherry,Puducherry,11.9139,79.8145,28.2,86,0.0,1007.2,9.2,41.0,29,13.0,7.9,7,5,4,1,2026-04-26T02:12:28.434494+05:30
Port Blair,Andaman and Nicobar Islands,11.6234,92.7265,27.0,86,0.0,1006.3,9.15,35.3,47,24.2,17.1,7,5,4,1,2026-04-26T02:12:28.434501+05:30
Haridwar,Uttarakhand,29.9457,78.1642,21.1,61,0.0,970.3,7.2,41.0,76,53.3,34.9,3,5,7,0,2026-04-26T02:12:28.434510+05:30
Rishikesh,Uttarakhand,30.0869,78.2676,18.4,70,0.0,962.9,7.3,33.1,72,57.4,31.1,3,5,7,0,2026-04-26T02:12:28.434517+05:30
Nainital,Uttarakhand,29.3919,79.4542,16.6,45,0.0,804.2,8.15,53.3,74,73.6,29.7,0,5,7,0,2026-04-26T02:12:28.434524+05:30
Mussoorie,Uttarakhand,30.4599,78.0664,18.0,37,0.0,802.9,7.7,55.8,67,48.9,29.2,0,5,7,0,2026-04-26T02:12:28.434531+05:30
Dharamshala,Himachal Pradesh,32.219,76.3234,22.0,33,0.0,869.0,8.05,44.3,50,26.3,10.4,0,5,7,0,2026-04-26T02:12:28.434538+05:30
Dalhousie,Himachal Pradesh,32.5387,75.971,11.3,62,0.0,801.3,8.3,40.0,65,41.6,24.7,3,5,7,0,2026-04-26T02:12:28.434552+05:30
Patiala,Punjab,30.3398,76.3869,28.3,34,0.0,976.0,7.3,46.4,604,457.3,71.5,4,5,7,0,2026-04-26T02:12:28.434560+05:30
Bhatinda,Punjab,30.211,74.9455,29.0,29,0.0,981.8,8.0,40.7,95,120.1,45.1,4,5,7,0,2026-04-26T02:12:28.434567+05:30
Rohtak,Haryana,28.8955,76.6066,27.6,33,0.0,979.8,7.45,45.7,879,583.0,107.6,4,5,7,0,2026-04-26T02:12:28.434573+05:30
Panipat,Haryana,29.3909,76.9635,29.3,31,0.0,978.1,7.25,50.4,1602,1013.3,145.8,4,5,7,0,2026-04-26T02:12:28.434580+05:30
Mathura,Uttar Pradesh,27.4924,77.6737,29.4,30,0.0,984.5,7.75,43.2,863,1214.4,191.4,4,5,7,0,2026-04-26T02:12:28.434587+05:30
Vrindavan,Uttar Pradesh,27.5823,77.7027,29.0,31,0.0,985.0,7.7,42.8,863,1214.4,191.4,4,5,7,0,2026-04-26T02:12:28.434593+05:30
Ayodhya,Uttar Pradesh,26.7922,82.1998,27.5,59,0.0,992.9,8.1,50.0,142,91.0,58.8,4,5,7,1,2026-04-26T02:12:28.434600+05:30
Ratlam,Madhya Pradesh,23.3315,75.0367,29.5,23,0.0,953.6,8.5,33.8,68,27.0,17.7,4,5,7,0,2026-04-26T02:12:28.434607+05:30
Sagar,Madhya Pradesh,23.8388,78.7378,29.8,23,0.0,948.8,8.65,34.9,56,96.2,27.9,4,5,7,0,2026-04-26T02:12:28.434613+05:30
Satna,Madhya Pradesh,24.6005,80.8322,28.8,30,0.0,968.6,8.65,44.6,80,136.9,34.0,4,5,7,0,2026-04-26T02:12:28.434619+05:30
Akola,Maharashtra,20.7002,77.0082,30.0,29,0.0,972.8,8.85,33.1,71,32.8,25.0,4,5,7,0,2026-04-26T02:12:28.434626+05:30
Amravati,Maharashtra,20.9374,77.7796,32.1,25,0.0,965.3,8.85,37.4,74,33.3,25.5,0,5,7,0,2026-04-26T02:12:28.434632+05:30
Latur,Maharashtra,18.4088,76.5604,29.5,33,0.0,938.6,9.0,29.2,104,48.3,43.7,4,5,7,0,2026-04-26T02:12:28.434640+05:30
Nanded,Maharashtra,19.1383,77.3091,28.9,34,0.0,966.7,9.05,28.4,99,49.5,44.1,4,5,7,0,2026-04-26T02:12:28.434646+05:30
Gulbarga,Karnataka,17.3297,76.8343,29.9,38,0.0,957.2,9.0,24.5,121,48.7,42.8,4,5,7,0,2026-04-26T02:12:28.434652+05:30
Bidar,Karnataka,17.9104,77.5199,27.9,39,0.0,934.0,8.1,34.9,124,51.0,46.8,4,5,7,0,2026-04-26T02:12:28.434659+05:30
Hospet,Karnataka,15.2689,76.3909,29.7,30,0.0,954.5,9.05,33.5,104,37.5,33.5,4,5,7,0,2026-04-26T02:12:28.434665+05:30
Tirupur,Tamil Nadu,11.1085,77.3411,28.6,55,0.0,974.3,9.4,33.8,60,25.0,21.9,4,5,7,1,2026-04-26T02:12:28.434672+05:30
Alappuzha,Kerala,9.4981,76.3388,26.6,93,0.0,1007.6,8.5,36.0,76,23.6,20.8,7,5,4,1,2026-04-26T02:12:28.434678+05:30
Munnar,Kerala,10.0889,77.0595,15.9,85,0.0,854.5,9.6,28.4,61,27.9,26.7,3,10,7,0,2026-04-26T02:12:28.434686+05:30
Silchar,Assam,24.8333,92.7789,22.6,96,0.0,1003.8,8.6,32.4,160,98.7,80.3,3,5,4,1,2026-04-26T02:12:28.434693+05:30
Dibrugarh,Assam,27.4728,94.912,21.3,93,0.1,996.6,8.7,27.7,86,28.3,17.9,6,5,7,1,2026-04-26T02:12:28.434700+05:30
