city,state,latitude,longitude,temp,humidity,rain,pressure,uv_index,wind_gusts,aqi,pm10,pm2_5,no2,co,o3,so2,mosquito_risk,arthritis_risk,migraine_risk,frizz_risk,updated_at
Delhi,Delhi,28.6139,77.209,34.3,27,0.0,977.0,7.7,49.0,638,914.6,188.6,24.4,352.0,66.0,16.0,0,5,7,0,2026-05-17T23:29:46.181857+05:30
Mumbai,Maharashtra,19.076,72.8777,29.4,84,0.0,1005.7,7.55,46.1,63,42.3,17.7,6.8,199.0,65.0,4.6,7,5,4,1,2026-05-17T23:29:46.181905+05:30
Bangalore,Karnataka,12.9716,77.5946,25.0,72,0.0,910.7,9.45,30.2,94,31.7,26.3,22.6,372.0,95.0,10.3,7,5,7,1,2026-05-17T23:29:46.181937+05:30
Hyderabad,Telangana,17.385,78.4867,30.9,53,0.0,951.6,9.3,29.9,76,30.5,23.2,12.9,331.0,82.0,6.9,0,5,7,1,2026-05-17T23:29:46.181947+05:30
Chennai,Tamil Nadu,13.0827,80.2707,29.8,82,0.0,1005.3,9.15,41.8,97,29.4,19.2,4.3,169.0,99.0,4.9,7,5,4,1,2026-05-17T23:29:46.181955+05:30
Kolkata,West Bengal,22.5726,88.3639,28.8,90,0.0,1002.1,8.95,35.3,62,22.8,17.1,8.0,255.0,56.0,6.4,7,5,4,1,2026-05-17T23:29:46.181963+05:30
Pune,Maharashtra,18.5204,73.8567,28.2,72,0.0,945.7,8.45,39.6,105,34.3,24.2,12.6,247.0,107.0,20.7,7,5,7,1,2026-05-17T23:29:46.181969+05:30
Ahmedabad,Gujarat,23.0225,72.5714,37.0,23,0.0,997.9,8.15,29.9,63,34.8,19.0,7.6,275.0,68.0,4.5,0,5,10,0,2026-05-17T23:29:46.181976+05:30
Jaipur,Rajasthan,26.9124,75.7873,35.0,20,0.0,955.9,8.25,41.8,127,146.2,41.4,13.9,275.0,53.0,7.1,0,5,7,0,2026-05-17T23:29:46.181985+05:30
Lucknow,Uttar Pradesh,26.8467,80.9462,32.9,38,0.0,987.1,8.2,47.5,157,428.4,112.5,14.4,298.0,78.0,11.2,0,5,7,1,2026-05-17T23:29:46.181991+05:30
Kanpur,Uttar Pradesh,26.4499,80.3319,34.2,29,0.0,985.8,8.2,46.1,302,506.6,112.2,11.5,282.0,76.0,9.9,0,5,7,0,2026-05-17T23:29:46.181998+05:30
Chandigarh,Chandigarh,30.7333,76.7794,28.7,38,0.0,962.3,7.7,43.2,107,27.7,24.7,14.9,477.0,92.0,10.2,4,5,7,0,2026-05-17T23:29:46.182004+05:30
Srinagar,Jammu and Kashmir,34.0837,74.7973,14.8,86,0.0,838.6,8.9,18.0,81,45.4,40.6,29.5,752.0,59.0,4.1,3,10,7,0,2026-05-17T23:29:46.182011+05:30
Jammu,Jammu and Kashmir,32.7266,74.857,29.6,43,0.0,966.7,8.5,40.0,68,37.0,34.0,32.3,443.0,35.0,5.7,4,5,7,0,2026-05-17T23:29:46.182017+05:30
Amritsar,Punjab,31.634,74.8723,29.4,45,0.0,974.8,8.4,33.1,98,44.4,34.5,24.7,488.0,67.0,9.6,4,5,7,1,2026-05-17T23:29:46.182023+05:30
Ludhiana,Punjab,30.901,75.8573,30.1,43,0.0,972.6,7.95,42.8,86,86.6,41.2,11.9,498.0,87.0,8.1,0,5,7,0,2026-05-17T23:29:46.182029+05:30
Jalandhar,Punjab,31.326,75.5762,29.6,42,0.0,973.6,8.15,36.7,100,92.4,45.5,17.8,587.0,75.0,9.2,4,5,7,0,2026-05-17T23:29:46.182036+05:30
Dehradun,Uttarakhand,30.6284,78.0322,16.2,68,0.0,824.9,8.15,43.9,100,20.0,16.9,23.9,243.0,80.0,3.4,3,5,7,0,2026-05-17T23:29:46.182042+05:30
Shimla,Himachal Pradesh,31.1048,77.1734,15.7,52,0.0,781.3,8.25,49.0,106,26.2,17.5,12.7,221.0,111.0,3.9,0,5,7,0,2026-05-17T23:29:46.182054+05:30
Manali,Himachal Pradesh,32.2396,77.1887,10.0,58,0.0,811.5,9.85,40.0,96,6.3,5.2,16.6,276.0,117.0,0.1,0,5,7,0,2026-05-17T23:29:46.182061+05:30
Gurgaon,Haryana,28.4595,77.0266,31.8,34,0.0,975.4,7.8,47.2,1040,972.3,176.5,25.9,478.0,63.0,17.1,0,5,7,0,2026-05-17T23:29:46.182067+05:30
Noida,Uttar Pradesh,28.5355,77.391,32.0,36,0.0,978.1,7.75,43.2,1040,972.3,176.5,25.9,378.0,63.0,17.1,0,5,7,0,2026-05-17T23:29:46.182073+05:30
Ghaziabad,Uttar Pradesh,28.6692,77.4538,30.8,36,0.0,976.3,7.7,50.4,500,845.6,183.9,20.4,317.0,69.0,17.3,0,5,7,0,2026-05-17T23:29:46.182079+05:30
Faridabad,Haryana,28.4089,77.3178,34.6,27,0.0,977.6,7.75,50.0,1040,972.3,176.5,25.9,423.0,63.0,17.1,0,5,7,0,2026-05-17T23:29:46.182085+05:30
Meerut,Uttar Pradesh,28.9845,77.7064,31.6,31,0.0,974.9,7.65,50.8,500,845.6,183.9,20.4,362.0,69.0,17.3,0,5,7,0,2026-05-17T23:29:46.182092+05:30
Agra,Uttar Pradesh,27.1767,78.0081,33.5,30,0.0,981.8,8.05,38.9,650,542.0,108.7,21.3,318.0,48.0,11.3,0,5,7,0,2026-05-17T23:29:46.182098+05:30
Varanasi,Uttar Pradesh,25.3176,82.9739,33.2,31,0.0,991.7,8.7,45.7,148,115.0,53.3,25.7,542.0,60.0,13.5,0,5,7,0,2026-05-17T23:29:46.182104+05:30
Prayagraj,Uttar Pradesh,25.4358,81.8463,32.5,33,0.0,990.3,8.6,39.6,146,164.8,59.5,23.5,340.0,56.0,12.2,0,5,7,0,2026-05-17T23:29:46.182110+05:30
Gorakhpur,Uttar Pradesh,26.7606,83.3732,29.6,56,0.0,990.8,8.6,35.6,145,75.0,45.3,15.8,467.0,86.0,11.5,4,5,7,1,2026-05-17T23:29:46.182119+05:30
Bareilly,Uttar Pradesh,28.367,79.4304,29.1,53,0.0,979.7,8.0,37.1,121,160.7,57.3,17.4,381.0,79.0,11.5,4,5,7,1,2026-05-17T23:29:46.182126+05:30
Aligarh,Uttar Pradesh,27.8974,78.088,31.5,38,0.0,979.4,7.85,49.7,650,972.3,183.9,16.6,344.0,70.0,12.9,0,5,7,0,2026-05-17T23:29:46.182133+05:30
Moradabad,Uttar Pradesh,28.8386,78.7733,30.5,46,0.0,976.7,7.85,45.7,153,271.9,89.4,23.1,415.0,57.0,10.4,0,5,7,1,2026-05-17T23:29:46.182141+05:30
Saharanpur,Uttar Pradesh,29.9637,77.546,30.0,36,0.0,968.8,7.35,42.8,96,64.3,29.5,10.0,308.0,103.0,9.7,4,5,7,0,2026-05-17T23:29:46.182149+05:30
Jhansi,Uttar Pradesh,25.4484,78.5685,33.0,26,0.0,972.8,8.45,34.6,122,100.8,36.7,7.4,281.0,66.0,5.0,0,5,7,0,2026-05-17T23:29:49.504741+05:30
Surat,Gujarat,21.1702,72.8311,31.4,70,0.0,1002.6,7.75,41.4,87,35.0,22.9,24.3,361.0,46.0,38.5,3,5,4,1,2026-05-17T23:29:49.504776+05:30
Vadodara,Gujarat,22.3072,73.1812,35.0,36,0.0,1000.0,8.1,31.0,74,47.8,30.4,17.9,268.0,68.0,13.2,0,5,4,1,2026-05-17T23:29:49.504787+05:30
Rajkot,Gujarat,22.3039,70.8022,28.5,66,0.0,992.1,7.2,38.5,58,32.9,15.8,6.6,147.0,59.0,5.6,7,5,7,1,2026-05-17T23:29:49.504796+05:30
Thane,Maharashtra,19.2183,72.9781,29.2,84,0.0,1005.3,7.6,39.2,63,42.3,17.7,6.8,191.0,65.0,4.6,7,5,4,1,2026-05-17T23:29:49.504805+05:30
Nagpur,Maharashtra,21.1458,79.0882,35.0,27,0.0,970.0,8.95,31.7,91,28.2,23.8,23.0,370.0,61.0,12.3,0,5,7,0,2026-05-17T23:29:49.504813+05:30
Nashik,Maharashtra,19.9975,73.7898,28.8,39,0.0,943.5,8.2,42.5,86,38.0,22.6,13.0,208.0,78.0,6.5,4,5,7,0,2026-05-17T23:29:49.504819+05:30
Aurangabad,Maharashtra,19.8762,75.3433,32.7,29,0.0,941.7,9.05,40.7,73,19.6,13.4,7.0,194.0,96.0,4.7,0,5,7,0,2026-05-17T23:29:49.504826+05:30
Solapur,Maharashtra,17.6599,75.9064,33.8,35,0.0,954.4,9.1,33.5,84,27.1,24.1,18.3,281.0,72.0,7.1,0,5,7,0,2026-05-17T23:29:49.504835+05:30
Kolhapur,Maharashtra,16.705,74.2433,26.2,85,0.0,946.3,8.8,45.0,69,21.8,14.8,6.6,194.0,68.0,5.1,7,5,7,1,2026-05-17T23:29:49.504842+05:30
Goa,Goa,15.2993,74.124,28.6,88,0.0,996.1,8.9,34.9,57,39.5,17.8,3.3,335.0,55.0,1.6,7,5,7,1,2026-05-17T23:29:49.504849+05:30
Jodhpur,Rajasthan,26.2389,73.0243,35.4,22,0.0,978.9,8.45,33.5,78,130.4,31.5,7.3,195.0,70.0,4.4,0,5,10,0,2026-05-17T23:29:49.504856+05:30
Udaipur,Rajasthan,24.5854,73.7125,32.6,27,0.0,943.8,8.85,33.5,54,51.2,22.4,7.5,179.0,62.0,4.8,0,5,7,0,2026-05-17T23:29:49.504864+05:30
Kota,Rajasthan,25.2138,75.8648,35.3,20,0.0,974.2,8.4,31.0,102,161.1,47.1,13.4,225.0,82.0,6.6,0,5,10,0,2026-05-17T23:29:49.504871+05:30
Bikaner,Rajasthan,28.0229,73.3119,35.2,23,0.0,977.1,8.4,37.8,76,77.3,25.6,2.2,194.0,77.0,2.3,0,5,10,0,2026-05-17T23:29:49.504877+05:30
Ajmer,Rajasthan,26.4499,74.6399,32.6,28,0.0,951.4,8.4,46.8,83,72.4,26.3,6.0,206.0,69.0,4.1,0,5,7,0,2026-05-17T23:29:49.504884+05:30
Gwalior,Madhya Pradesh,26.2183,78.1828,34.4,24,0.0,977.8,8.25,40.7,262,68.9,28.9,6.5,242.0,72.0,4.9,0,5,7,0,2026-05-17T23:29:49.504891+05:30
Indore,Madhya Pradesh,22.7196,75.8577,34.3,21,0.0,944.9,8.7,43.6,63,59.3,36.0,16.2,414.0,78.0,11.0,0,5,7,0,2026-05-17T23:29:49.504898+05:30
Bhopal,Madhya Pradesh,23.2599,77.4126,34.0,24,0.0,949.8,8.7,38.9,54,37.6,27.6,16.0,550.0,67.0,8.4,0,5,7,0,2026-05-17T23:29:49.504905+05:30
Jabalpur,Madhya Pradesh,23.1815,79.9864,31.7,34,0.0,957.6,8.9,39.2,87,59.3,30.6,16.9,334.0,71.0,6.2,0,5,7,0,2026-05-17T23:29:49.504912+05:30
Ujjain,Madhya Pradesh,23.1765,75.7885,34.0,19,0.0,950.1,8.65,39.6,69,58.8,30.2,5.4,337.0,87.0,6.2,0,5,7,0,2026-05-17T23:29:49.504920+05:30
Visakhapatnam,Andhra Pradesh,17.6868,83.2185,29.6,82,0.0,1001.8,8.75,43.2,60,24.8,17.8,15.0,265.0,64.0,27.2,7,5,4,1,2026-05-17T23:29:49.504943+05:30
Vijayawada,Andhra Pradesh,16.5062,80.648,30.0,78,0.0,1000.6,9.2,32.8,52,22.9,17.1,6.2,213.0,66.0,6.1,7,5,4,1,2026-05-17T23:29:49.504950+05:30
Guntur,Andhra Pradesh,16.3067,80.4365,29.9,80,0.0,1001.9,9.2,33.5,49,21.4,16.5,5.5,195.0,70.0,4.4,7,5,4,1,2026-05-17T23:29:49.504957+05:30
Nellore,Andhra Pradesh,14.4426,79.9865,29.4,82,0.0,1003.9,9.15,37.1,93,33.1,25.0,4.7,194.0,120.0,10.2,7,5,4,1,2026-05-17T23:29:49.504965+05:30
Kurnool,Andhra Pradesh,15.8281,78.0373,34.0,41,0.0,974.6,9.15,32.4,58,35.4,23.3,8.7,220.0,73.0,3.2,0,5,7,1,2026-05-17T23:29:49.504974+05:30
Kakinada,Andhra Pradesh,16.9891,82.2475,30.0,79,0.0,1005.4,8.7,36.0,46,27.0,16.9,1.8,212.0,78.0,1.6,7,5,4,1,2026-05-17T23:29:49.504981+05:30
Tirupati,Andhra Pradesh,13.6288,79.4192,27.8,86,0.0,989.7,9.25,29.5,96,31.3,26.7,9.7,302.0,107.0,12.2,7,5,7,1,2026-05-17T23:29:49.504988+05:30
Warangal,Telangana,17.9689,79.5941,31.2,58,0.0,976.4,8.8,31.0,64,36.3,31.3,12.6,359.0,93.0,9.4,0,5,7,1,2026-05-17T23:29:49.504995+05:30
Nizamabad,Telangana,18.6725,78.0941,31.4,53,0.0,961.8,9.15,31.7,89,40.9,33.9,12.3,277.0,86.0,5.8,0,5,7,1,2026-05-17T23:29:49.505001+05:30
Mysore,Karnataka,12.2958,76.6396,23.8,94,0.0,927.1,9.1,36.4,70,20.8,17.4,11.6,276.0,67.0,3.7,3,5,7,1,2026-05-17T23:29:49.505008+05:30
Mangalore,Karnataka,12.9141,74.856,26.5,93,0.0,1005.0,8.75,36.7,61,22.1,15.6,10.1,336.0,41.0,3.4,7,5,4,1,2026-05-17T23:29:49.505015+05:30
Hubli-Dharwad,Karnataka,15.3647,75.124,24.4,99,0.0,939.5,9.15,52.9,55,17.7,11.2,6.4,171.0,48.0,1.9,3,5,7,1,2026-05-17T23:29:49.505021+05:30
Belgaum,Karnataka,15.8497,74.4977,24.4,93,0.0,924.7,9.15,44.6,53,23.2,14.2,6.7,148.0,53.0,2.7,3,5,7,1,2026-05-17T23:29:52.818269+05:30
Coimbatore,Tamil Nadu,11.0168,76.9558,24.3,94,0.1,960.7,8.7,48.2,52,4.7,4.3,6.8,188.0,61.0,3.2,6,5,7,1,2026-05-17T23:29:52.818304+05:30
Madurai,Tamil Nadu,9.9252,78.1198,27.2,93,0.0,991.7,8.5,32.4,89,33.2,28.1,38.0,249.0,26.0,9.0,7,5,7,1,2026-05-17T23:29:52.818316+05:30
Trichy,Tamil Nadu,10.7905,78.7047,27.8,93,0.0,998.3,8.45,40.0,80,24.8,22.2,15.2,283.0,69.0,5.0,7,5,7,1,2026-05-17T23:29:52.818325+05:30
Salem,Tamil Nadu,11.6643,78.146,27.0,79,0.0,976.2,8.5,43.2,107,31.9,25.6,12.7,333.0,92.0,5.7,7,5,7,1,2026-05-17T23:29:52.818333+05:30
Tirunelveli,Tamil Nadu,8.7139,77.7567,28.5,73,0.0,1002.0,8.95,28.8,36,7.6,6.6,5.4,232.0,61.0,1.6,7,5,4,1,2026-05-17T23:29:52.818341+05:30
Vellore,Tamil Nadu,12.9165,79.1325,26.7,98,0.0,983.0,9.2,23.4,97,33.2,27.4,10.2,309.0,89.0,10.8,7,5,7,1,2026-05-17T23:29:52.818348+05:30
Erode,Tamil Nadu,11.341,77.7172,26.6,83,0.0,987.9,8.55,34.6,67,17.2,14.2,13.9,213.0,56.0,3.4,7,5,7,1,2026-05-17T23:29:52.818356+05:30
Kochi,Kerala,9.9312,76.2673,25.5,93,0.3,1008.5,8.7,28.4,52,18.1,15.6,16.0,231.0,40.0,5.4,10,0,4,1,2026-05-17T23:29:52.818363+05:30
Thiruvananthapuram,Kerala,8.5241,76.9366,25.0,99,0.0,1008.0,8.3,33.5,39,11.8,7.5,1.9,260.0,75.0,0.8,7,0,4,1,2026-05-17T23:29:52.818370+05:30
Kozhikode,Kerala,11.2588,75.7804,25.5,100,0.1,1006.9,8.65,40.7,50,16.1,9.6,1.7,360.0,77.0,1.1,10,5,4,1,2026-05-17T23:29:52.818377+05:30
Thrissur,Kerala,10.5276,76.2144,24.3,99,0.1,1006.7,8.75,30.2,53,19.6,17.5,12.6,265.0,44.0,4.1,6,5,4,1,2026-05-17T23:29:52.818385+05:30
Kannur,Kerala,11.8745,75.3704,26.5,98,0.0,1005.4,8.9,37.1,58,15.8,11.6,11.4,344.0,48.0,2.9,7,5,4,1,2026-05-17T23:29:52.818392+05:30
Patna,Bihar,25.5941,85.1376,29.3,79,0.0,994.8,8.8,39.2,149,109.9,68.2,54.0,472.0,33.0,21.7,7,5,7,1,2026-05-17T23:29:52.818398+05:30
Gaya,Bihar,24.7914,85.0002,29.5,40,0.0,988.1,8.85,40.0,151,109.4,48.9,19.4,427.0,70.0,9.4,4,5,7,0,2026-05-17T23:29:52.818405+05:30
Muzaffarpur,Bihar,26.1209,85.3647,28.4,76,0.0,995.1,8.8,24.8,151,138.3,97.1,59.6,479.0,36.0,25.4,7,5,7,1,2026-05-17T23:29:52.818412+05:30
Bhagalpur,Bihar,25.2425,87.0117,28.5,87,0.0,995.9,8.8,25.6,150,53.0,48.0,11.8,457.0,109.0,12.2,7,5,7,1,2026-05-17T23:29:52.818418+05:30
Ranchi,Jharkhand,23.3441,85.3096,25.2,66,0.0,934.4,9.3,41.8,129,73.3,56.2,14.2,309.0,90.0,9.8,7,5,7,1,2026-05-17T23:29:52.818425+05:30
Jamshedpur,Jharkhand,22.8046,86.2029,29.2,64,0.0,987.0,9.1,34.6,117,79.4,63.8,20.1,662.0,101.0,27.2,7,5,7,1,2026-05-17T23:29:52.818432+05:30
Dhanbad,Jharkhand,23.7957,86.4304,28.9,60,0.0,975.4,9.05,38.9,145,88.9,75.2,47.9,1048.0,64.0,111.6,4,5,7,1,2026-05-17T23:29:52.818439+05:30
Bokaro,Jharkhand,23.6693,86.1511,29.5,56,0.0,979.1,9.05,48.6,150,81.0,62.2,34.8,408.0,66.0,72.8,4,5,7,1,2026-05-17T23:29:52.818446+05:30
Bhubaneswar,Odisha,20.2961,85.8245,29.3,84,0.0,999.9,8.8,45.4,55,13.9,11.1,4.6,204.0,69.0,4.1,7,5,7,1,2026-05-17T23:29:52.818454+05:30
Cuttack,Odisha,20.4625,85.8828,29.5,82,0.0,1001.6,8.95,45.4,55,13.9,11.1,4.6,222.0,69.0,4.1,7,5,4,1,2026-05-17T23:29:52.818461+05:30
Rourkela,Odisha,22.2604,84.8536,29.6,68,0.0,981.5,9.0,33.5,140,108.5,85.2,23.7,346.0,106.0,17.3,7,5,7,1,2026-05-17T23:29:52.818468+05:30
Raipur,Chhattisgarh,21.2514,81.6296,31.5,48,0.0,971.1,9.0,32.4,113,52.4,45.9,30.0,417.0,73.0,33.1,0,5,7,1,2026-05-17T23:29:52.818475+05:30
Bhilai,Chhattisgarh,21.1938,81.3509,31.2,54,0.0,971.3,9.0,31.7,100,47.6,43.1,37.0,373.0,58.0,41.5,0,5,7,1,2026-05-17T23:29:52.818481+05:30
Guwahati,Assam,26.1158,91.7086,22.1,99,0.3,999.8,8.75,25.2,76,22.2,18.3,6.9,337.0,74.0,3.1,6,5,7,1,2026-05-17T23:29:52.818489+05:30
Agartala,Tripura,23.8315,91.2868,27.1,87,0.0,1002.9,8.9,28.8,69,28.3,24.4,17.9,247.0,27.0,2.9,7,5,4,1,2026-05-17T23:29:52.818497+05:30
Shillong,Meghalaya,25.5788,91.8933,17.8,97,0.0,854.2,9.15,45.4,58,15.5,12.1,5.6,238.0,87.0,4.2,3,10,7,1,2026-05-17T23:29:52.818506+05:30
Imphal,Manipur,24.817,93.9368,20.8,97,0.0,920.7,9.0,31.0,71,34.6,29.5,15.9,445.0,47.0,5.2,3,5,7,1,2026-05-17T23:29:52.818513+05:30
Aizawl,Mizoram,23.7271,92.7176,19.3,93,0.0,889.9,9.05,28.8,53,29.0,18.7,6.0,199.0,65.0,2.9,3,10,7,1,2026-05-17T23:29:52.818519+05:30
Kohima,Nagaland,25.6701,94.1077,15.8,94,0.0,851.3,8.7,29.9,61,26.5,17.0,9.8,304.0,49.0,2.5,3,10,7,0,2026-05-17T23:29:52.818526+05:30
Gangtok,Sikkim,27.3314,88.6138,14.9,97,0.1,833.7,9.1,38.2,60,27.6,23.7,17.1,420.0,70.0,2.3,6,10,7,0,2026-05-17T23:29:52.818532+05:30
Siliguri,West Bengal,26.7271,88.3953,23.0,98,0.1,989.9,8.7,31.0,92,37.4,31.8,15.8,415.0,95.0,5.5,6,5,7,1,2026-05-17T23:29:56.138381+05:30
Durgapur,West Bengal,23.5204,87.3119,28.8,84,0.0,990.4,8.95,35.6,127,67.3,59.0,21.7,476.0,112.0,42.2,7,5,7,1,2026-05-17T23:29:56.138417+05:30
Asansol,West Bengal,23.6739,86.9524,29.0,79,0.0,989.0,9.0,38.2,126,67.5,58.9,28.9,362.0,87.0,51.5,7,5,7,1,2026-05-17T23:29:56.138429+05:30
Pondicherry,Puducherry,11.9139,79.8145,28.8,84,0.0,1006.8,9.05,43.2,77,18.8,14.0,8.4,267.0,90.0,9.4,7,5,4,1,2026-05-17T23:29:56.138438+05:30
Port Blair,Andaman and Nicobar Islands,11.6234,92.7265,26.9,91,0.0,1005.9,2.0,41.0,25,4.5,2.6,0.3,100.0,46.0,0.2,7,5,0,1,2026-05-17T23:29:56.138446+05:30
Haridwar,Uttarakhand,29.9457,78.1642,26.6,55,0.0,966.7,7.5,34.6,108,21.5,21.1,12.0,384.0,97.0,9.6,4,5,7,1,2026-05-17T23:29:56.138454+05:30
Rishikesh,Uttarakhand,30.0869,78.2676,24.1,59,0.0,959.3,7.65,32.4,129,33.3,20.6,11.9,343.0,116.0,8.2,0,5,7,0,2026-05-17T23:29:56.138462+05:30
Nainital,Uttarakhand,29.3919,79.4542,14.9,70,0.0,800.6,8.5,38.9,127,62.2,21.8,7.2,284.0,127.0,6.1,3,5,7,0,2026-05-17T23:29:56.138469+05:30
Mussoorie,Uttarakhand,30.4599,78.0664,16.7,58,0.0,798.8,8.05,55.1,117,26.5,23.1,22.2,317.0,95.0,9.5,0,5,7,0,2026-05-17T23:29:56.138478+05:30
Dharamshala,Himachal Pradesh,32.219,76.3234,22.2,48,0.0,865.6,8.4,44.3,64,16.8,14.5,11.6,257.0,57.0,1.0,0,5,7,0,2026-05-17T23:29:56.138485+05:30
Dalhousie,Himachal Pradesh,32.5387,75.971,14.4,69,0.0,800.0,8.65,38.5,103,34.6,28.5,29.7,410.0,61.0,3.2,3,5,7,0,2026-05-17T23:29:56.138493+05:30
Patiala,Punjab,30.3398,76.3869,30.9,38,0.0,971.9,7.6,45.7,590,784.2,131.3,8.6,402.0,90.0,7.4,0,5,7,0,2026-05-17T23:29:56.138500+05:30
Bhatinda,Punjab,30.211,74.9455,30.8,48,0.0,977.9,8.25,38.2,85,53.3,33.6,11.2,390.0,81.0,7.7,0,5,7,1,2026-05-17T23:29:56.138507+05:30
Rohtak,Haryana,28.8955,76.6066,30.4,37,0.0,975.8,7.75,46.8,802,845.6,164.8,19.4,392.0,67.0,8.3,0,5,7,0,2026-05-17T23:29:56.138513+05:30
Panipat,Haryana,29.3909,76.9635,30.5,36,0.0,973.9,7.6,50.0,1745,1762.1,291.5,12.0,344.0,79.0,8.3,0,5,7,0,2026-05-17T23:29:56.138520+05:30
Mathura,Uttar Pradesh,27.4924,77.6737,32.0,35,0.0,980.9,8.0,43.6,639,659.4,126.7,13.8,324.0,65.0,6.8,0,5,7,0,2026-05-17T23:29:56.138526+05:30
Vrindavan,Uttar Pradesh,27.5823,77.7027,31.3,38,0.0,981.2,7.95,41.4,639,659.4,126.7,13.8,338.0,65.0,6.8,0,5,7,0,2026-05-17T23:29:56.138534+05:30
Ayodhya,Uttar Pradesh,26.7922,82.1998,29.8,56,0.0,988.9,8.35,39.2,145,186.7,64.5,13.8,398.0,83.0,10.5,4,5,7,1,2026-05-17T23:29:56.138541+05:30
Ratlam,Madhya Pradesh,23.3315,75.0367,33.2,22,0.0,951.1,8.55,36.4,60,43.3,23.2,3.9,208.0,77.0,4.3,0,5,7,0,2026-05-17T23:29:56.138549+05:30
Sagar,Madhya Pradesh,23.8388,78.7378,32.4,27,0.0,946.3,8.75,44.6,81,114.8,31.5,9.5,263.0,88.0,4.3,0,5,7,0,2026-05-17T23:29:56.138556+05:30
Satna,Madhya Pradesh,24.6005,80.8322,31.9,29,0.0,966.6,8.75,47.9,103,122.5,35.3,16.0,298.0,72.0,3.8,0,5,7,0,2026-05-17T23:29:56.138563+05:30
Akola,Maharashtra,20.7002,77.0082,35.2,20,0.0,971.1,8.9,33.8,71,19.0,15.1,11.0,228.0,85.0,6.7,0,5,10,0,2026-05-17T23:29:56.138572+05:30
Amravati,Maharashtra,20.9374,77.7796,35.3,21,0.0,963.5,8.95,28.1,68,31.3,26.3,27.0,312.0,58.0,7.6,0,5,10,0,2026-05-17T23:29:56.138580+05:30
Latur,Maharashtra,18.4088,76.5604,32.8,30,0.0,937.3,9.1,37.8,83,31.3,25.8,18.5,332.0,75.0,9.3,0,5,7,0,2026-05-17T23:29:56.138588+05:30
Nanded,Maharashtra,19.1383,77.3091,33.2,37,0.0,965.4,8.95,32.8,74,32.7,29.8,21.0,295.0,73.0,7.1,0,5,7,1,2026-05-17T23:29:56.138595+05:30
Gulbarga,Karnataka,17.3297,76.8343,31.8,49,0.0,956.6,9.1,42.5,103,40.0,31.8,11.6,259.0,104.0,10.8,0,5,7,1,2026-05-17T23:29:56.138603+05:30
Bidar,Karnataka,17.9104,77.5199,30.4,51,0.0,933.4,9.15,33.1,92,45.5,37.0,13.7,310.0,92.0,7.1,0,5,7,1,2026-05-17T23:29:56.138609+05:30
Hospet,Karnataka,15.2689,76.3909,25.0,95,0.2,954.5,9.2,62.6,88,17.6,15.1,11.9,246.0,77.0,5.8,10,5,7,1,2026-05-17T23:29:56.138616+05:30
Tirupur,Tamil Nadu,11.1085,77.3411,24.7,95,0.0,973.9,8.6,52.9,71,17.5,14.5,12.9,186.0,59.0,4.8,3,5,7,1,2026-05-17T23:29:56.138623+05:30
Alappuzha,Kerala,9.4981,76.3388,25.5,99,0.0,1008.5,8.5,24.5,50,13.4,10.2,8.8,124.0,61.0,2.5,7,0,4,1,2026-05-17T23:29:56.138629+05:30
Munnar,Kerala,10.0889,77.0595,18.0,100,0.0,856.2,7.8,25.6,36,6.5,6.4,7.5,162.0,50.0,1.9,3,10,7,1,2026-05-17T23:29:56.138637+05:30
Silchar,Assam,24.8333,92.7789,24.7,99,0.1,1002.7,8.9,27.7,62,12.3,9.1,5.6,334.0,80.0,3.6,6,5,4,1,2026-05-17T23:29:56.138643+05:30
Dibrugarh,Assam,27.4728,94.912,22.2,96,0.0,993.5,5.7,30.2,72,24.2,22.1,16.8,250.0,34.0,1.8,3,5,3,1,2026-05-17T23:29:56.138649+05:30
