city,state,latitude,longitude,temp,humidity,rain,pressure,uv_index,wind_gusts,aqi,pm10,pm2_5,mosquito_risk,arthritis_risk,migraine_risk,frizz_risk,updated_at
Delhi,Delhi,28.6139,77.209,27.4,56,0.0,988.7,6.05,23.4,428,216.5,83.1,4,5,7,1,2026-03-10T20:23:25.863324+05:30
Mumbai,Maharashtra,19.076,72.8777,28.2,74,0.0,1010.3,7.55,19.8,253,38.6,36.7,7,0,4,1,2026-03-10T20:23:25.863366+05:30
Bangalore,Karnataka,12.9716,77.5946,25.6,43,0.0,914.8,9.25,32.4,103,26.4,24.6,4,5,7,0,2026-03-10T20:23:25.863381+05:30
Hyderabad,Telangana,17.385,78.4867,26.5,55,0.0,957.4,8.6,31.0,138,59.1,51.0,4,5,7,1,2026-03-10T20:23:25.863391+05:30
Chennai,Tamil Nadu,13.0827,80.2707,26.1,75,0.0,1012.5,8.95,35.6,82,19.8,15.4,7,0,4,1,2026-03-10T20:23:25.863400+05:30
Kolkata,West Bengal,22.5726,88.3639,24.4,86,0.0,1011.8,5.1,18.0,121,90.8,82.7,3,0,0,1,2026-03-10T20:23:25.863409+05:30
Pune,Maharashtra,18.5204,73.8567,29.1,36,0.0,951.1,8.1,36.4,145,26.5,23.3,4,5,7,0,2026-03-10T20:23:25.863421+05:30
Ahmedabad,Gujarat,23.0225,72.5714,32.0,25,0.0,1005.5,7.4,19.1,153,31.8,30.5,0,5,4,0,2026-03-10T20:23:25.863429+05:30
Jaipur,Rajasthan,26.9124,75.7873,28.4,15,0.0,964.8,6.85,22.0,122,161.6,34.0,4,5,7,1,2026-03-10T20:23:25.863436+05:30
Lucknow,Uttar Pradesh,26.8467,80.9462,27.5,65,0.0,999.0,6.55,20.2,181,170.0,117.3,7,5,7,1,2026-03-10T20:23:25.863444+05:30
Kanpur,Uttar Pradesh,26.4499,80.3319,26.5,68,0.0,997.3,6.6,15.5,173,178.3,85.4,7,5,7,1,2026-03-10T20:23:25.863452+05:30
Chandigarh,Chandigarh,30.7333,76.7794,25.3,70,0.0,974.2,6.0,15.5,151,96.4,74.3,7,5,3,1,2026-03-10T20:23:25.863459+05:30
Srinagar,Jammu and Kashmir,34.0837,74.7973,9.9,96,0.7,848.0,3.95,28.8,124,69.2,49.4,6,10,3,0,2026-03-10T20:23:25.863466+05:30
Jammu,Jammu and Kashmir,32.7266,74.857,22.7,80,0.0,978.2,6.0,38.2,108,85.7,64.3,3,5,3,1,2026-03-10T20:23:25.863474+05:30
Amritsar,Punjab,31.634,74.8723,24.0,85,0.0,986.1,6.0,26.3,162,93.8,61.5,3,5,3,1,2026-03-10T20:23:25.863480+05:30
Ludhiana,Punjab,30.901,75.8573,26.5,61,0.0,984.3,5.7,13.0,171,161.1,111.5,7,5,3,1,2026-03-10T20:23:25.863487+05:30
Jalandhar,Punjab,31.326,75.5762,25.1,77,0.0,985.5,6.0,14.0,168,136.0,88.0,7,5,3,1,2026-03-10T20:23:25.863496+05:30
Dehradun,Uttarakhand,30.6284,78.0322,15.9,94,0.0,834.8,6.4,26.6,116,63.3,41.8,3,10,7,0,2026-03-10T20:23:25.863503+05:30
Shimla,Himachal Pradesh,31.1048,77.1734,14.0,81,0.0,788.8,6.1,37.1,107,64.5,45.9,3,10,7,0,2026-03-10T20:23:25.863510+05:30
Manali,Himachal Pradesh,32.2396,77.1887,16.8,43,0.0,826.0,7.45,41.0,96,25.3,12.5,0,5,7,0,2026-03-10T20:23:25.863516+05:30
Gurgaon,Haryana,28.4595,77.0266,24.7,69,0.0,986.9,5.9,21.2,575,484.3,98.7,3,5,3,1,2026-03-10T20:23:25.863522+05:30
Noida,Uttar Pradesh,28.5355,77.391,26.9,59,0.0,990.2,6.1,23.4,575,484.3,98.7,4,5,7,1,2026-03-10T20:23:25.863529+05:30
Ghaziabad,Uttar Pradesh,28.6692,77.4538,25.9,65,0.0,988.5,5.9,18.7,267,152.7,81.0,7,5,3,1,2026-03-10T20:23:25.863536+05:30
Faridabad,Haryana,28.4089,77.3178,25.9,60,0.0,989.4,6.05,23.0,575,484.3,98.7,4,5,7,1,2026-03-10T20:23:25.863542+05:30
Meerut,Uttar Pradesh,28.9845,77.7064,23.9,75,0.0,987.2,5.7,18.4,267,152.7,81.0,3,5,3,1,2026-03-10T20:23:25.863549+05:30
Agra,Uttar Pradesh,27.1767,78.0081,24.8,59,0.0,993.3,6.45,22.0,219,429.3,97.6,0,5,7,1,2026-03-10T20:23:25.863556+05:30
Varanasi,Uttar Pradesh,25.3176,82.9739,26.0,77,0.0,1003.0,7.2,15.5,185,129.9,123.4,7,5,4,1,2026-03-10T20:23:25.863564+05:30
Prayagraj,Uttar Pradesh,25.4358,81.8463,27.6,66,0.0,1001.4,7.1,15.5,184,121.1,107.1,7,5,4,1,2026-03-10T20:23:25.863571+05:30
Gorakhpur,Uttar Pradesh,26.7606,83.3732,26.0,74,0.0,1002.8,6.95,20.2,184,138.8,126.7,7,5,4,1,2026-03-10T20:23:25.863579+05:30
Bareilly,Uttar Pradesh,28.367,79.4304,25.0,75,0.0,992.5,5.9,18.0,182,143.9,116.6,7,5,3,1,2026-03-10T20:23:25.863585+05:30
Aligarh,Uttar Pradesh,27.8974,78.088,24.4,62,0.0,991.3,6.15,23.4,192,340.9,112.2,3,5,7,1,2026-03-10T20:23:25.863594+05:30
Moradabad,Uttar Pradesh,28.8386,78.7733,24.5,75,0.0,989.3,5.45,23.4,182,177.9,134.1,3,5,3,1,2026-03-10T20:23:25.863600+05:30
Saharanpur,Uttar Pradesh,29.9637,77.546,23.5,82,0.0,981.1,5.7,21.2,165,134.6,81.7,3,5,3,1,2026-03-10T20:23:25.863605+05:30
Jhansi,Uttar Pradesh,25.4484,78.5685,26.2,42,0.0,983.3,7.05,26.3,121,75.4,26.1,4,5,7,0,2026-03-10T20:23:29.205028+05:30
Surat,Gujarat,21.1702,72.8311,30.9,36,0.0,1008.9,7.3,23.8,108,41.8,41.1,0,0,4,0,2026-03-10T20:23:29.205061+05:30
Vadodara,Gujarat,22.3072,73.1812,33.2,23,0.0,1007.1,7.4,17.3,147,28.4,25.4,0,5,4,0,2026-03-10T20:23:29.205074+05:30
Rajkot,Gujarat,22.3039,70.8022,31.4,26,0.0,998.1,7.25,33.5,108,18.9,17.6,0,5,7,0,2026-03-10T20:23:29.205084+05:30
Thane,Maharashtra,19.2183,72.9781,29.0,57,0.0,1009.5,7.55,33.5,253,38.6,36.7,4,0,4,1,2026-03-10T20:23:29.205093+05:30
Nagpur,Maharashtra,21.1458,79.0882,28.2,42,0.0,976.8,7.95,24.8,162,44.2,34.5,4,5,7,0,2026-03-10T20:23:29.205102+05:30
Nashik,Maharashtra,19.9975,73.7898,28.4,28,0.0,948.5,7.75,28.1,151,19.7,17.3,4,5,7,0,2026-03-10T20:23:29.205111+05:30
Aurangabad,Maharashtra,19.8762,75.3433,30.5,34,0.0,947.4,8.3,21.6,138,20.0,17.3,0,5,7,0,2026-03-10T20:23:29.205119+05:30
Solapur,Maharashtra,17.6599,75.9064,28.7,50,0.0,959.7,8.5,29.5,168,45.5,40.9,4,5,7,1,2026-03-10T20:23:29.205128+05:30
Kolhapur,Maharashtra,16.705,74.2433,28.9,45,0.0,950.6,8.6,40.3,161,62.4,56.9,4,5,7,0,2026-03-10T20:23:29.205136+05:30
Goa,Goa,15.2993,74.124,28.3,83,0.0,1000.8,8.6,38.9,151,55.2,48.0,7,5,4,1,2026-03-10T20:23:29.205145+05:30
Jodhpur,Rajasthan,26.2389,73.0243,28.7,24,0.0,987.9,7.15,26.3,127,43.4,19.0,4,5,7,0,2026-03-10T20:23:29.205161+05:30
Udaipur,Rajasthan,24.5854,73.7125,25.8,32,0.0,951.8,7.75,21.6,129,16.1,12.2,4,5,7,0,2026-03-10T20:23:29.205170+05:30
Kota,Rajasthan,25.2138,75.8648,28.1,31,0.0,983.8,7.15,17.3,102,57.5,26.9,4,5,7,0,2026-03-10T20:23:29.205201+05:30
Bikaner,Rajasthan,28.0229,73.3119,29.1,25,0.0,986.8,6.85,29.9,121,23.9,16.5,4,5,7,0,2026-03-10T20:23:29.205210+05:30
Ajmer,Rajasthan,26.4499,74.6399,27.9,26,0.0,959.9,7.1,21.2,112,68.9,24.1,4,5,7,0,2026-03-10T20:23:29.205216+05:30
Gwalior,Madhya Pradesh,26.2183,78.1828,27.4,43,0.0,988.6,6.75,24.5,130,151.3,37.6,4,5,7,0,2026-03-10T20:23:29.205222+05:30
Indore,Madhya Pradesh,22.7196,75.8577,22.8,44,0.0,951.8,7.65,26.3,113,23.4,16.9,0,5,7,0,2026-03-10T20:23:29.205228+05:30
Bhopal,Madhya Pradesh,23.2599,77.4126,23.3,47,0.0,957.9,7.55,23.0,107,18.3,12.4,0,5,7,0,2026-03-10T20:23:29.205234+05:30
Jabalpur,Madhya Pradesh,23.1815,79.9864,29.0,38,0.0,965.7,7.65,26.3,112,48.7,27.9,4,5,7,0,2026-03-10T20:23:29.205240+05:30
Ujjain,Madhya Pradesh,23.1765,75.7885,24.7,46,0.0,958.1,7.55,19.1,105,33.5,24.3,0,5,7,0,2026-03-10T20:23:29.205246+05:30
Visakhapatnam,Andhra Pradesh,17.6868,83.2185,24.2,80,0.0,1009.1,8.55,34.2,131,38.0,32.2,3,0,4,1,2026-03-10T20:23:29.205252+05:30
Vijayawada,Andhra Pradesh,16.5062,80.648,26.3,58,0.0,1007.8,8.6,21.6,129,37.4,34.2,4,5,4,1,2026-03-10T20:23:29.205258+05:30
Guntur,Andhra Pradesh,16.3067,80.4365,24.8,72,0.0,1009.1,8.65,23.4,122,35.0,32.0,3,0,4,1,2026-03-10T20:23:29.205264+05:30
Nellore,Andhra Pradesh,14.4426,79.9865,24.7,81,0.0,1011.3,8.85,28.1,93,23.2,18.8,3,0,4,1,2026-03-10T20:23:29.205271+05:30
Kurnool,Andhra Pradesh,15.8281,78.0373,29.5,30,0.0,980.7,8.65,31.7,112,32.0,27.8,4,5,7,0,2026-03-10T20:23:29.205278+05:30
Kakinada,Andhra Pradesh,16.9891,82.2475,22.9,84,0.0,1012.8,8.6,28.4,115,31.9,26.1,3,0,4,1,2026-03-10T20:23:29.205285+05:30
Tirupati,Andhra Pradesh,13.6288,79.4192,24.5,57,0.0,996.8,8.95,34.6,127,21.2,19.0,0,5,7,0,2026-03-10T20:23:29.205291+05:30
Warangal,Telangana,17.9689,79.5941,28.2,62,0.0,982.8,8.4,27.0,140,65.2,56.2,7,5,7,1,2026-03-10T20:23:29.205296+05:30
Nizamabad,Telangana,18.6725,78.0941,29.2,47,0.0,968.3,8.3,30.6,144,53.4,45.4,4,5,7,1,2026-03-10T20:23:29.205302+05:30
Mysore,Karnataka,12.2958,76.6396,26.1,41,0.0,930.9,9.25,39.2,105,26.0,23.6,4,5,7,0,2026-03-10T20:23:29.205308+05:30
Mangalore,Karnataka,12.9141,74.856,28.7,80,0.0,1009.5,8.85,31.7,119,38.8,31.8,7,0,4,1,2026-03-10T20:23:29.205314+05:30
Hubli-Dharwad,Karnataka,15.3647,75.124,29.0,34,0.0,943.7,8.8,44.3,159,51.8,46.2,4,5,7,0,2026-03-10T20:23:29.205322+05:30
Belgaum,Karnataka,15.8497,74.4977,28.0,40,0.0,928.7,8.85,46.8,162,52.4,46.4,4,5,7,0,2026-03-10T20:23:32.551674+05:30
Coimbatore,Tamil Nadu,11.0168,76.9558,27.7,45,0.0,964.3,9.25,46.4,112,23.1,21.4,4,5,7,0,2026-03-10T20:23:32.551702+05:30
Madurai,Tamil Nadu,9.9252,78.1198,27.7,65,0.0,996.8,9.2,41.4,104,13.0,12.3,7,5,7,1,2026-03-10T20:23:32.551712+05:30
Trichy,Tamil Nadu,10.7905,78.7047,26.4,74,0.0,1004.2,9.05,37.4,97,15.4,14.2,7,5,4,1,2026-03-10T20:23:32.551720+05:30
Salem,Tamil Nadu,11.6643,78.146,26.9,63,0.0,980.8,9.15,33.1,119,18.9,17.6,7,5,7,1,2026-03-10T20:23:32.551728+05:30
Tirunelveli,Tamil Nadu,8.7139,77.7567,27.6,71,0.0,1006.7,9.2,47.2,90,11.0,10.0,7,5,4,1,2026-03-10T20:23:32.551736+05:30
Vellore,Tamil Nadu,12.9165,79.1325,25.5,64,0.0,989.5,9.05,35.6,136,23.2,21.2,7,5,7,1,2026-03-10T20:23:32.551743+05:30
Erode,Tamil Nadu,11.341,77.7172,29.2,55,0.0,992.2,9.1,28.8,114,22.9,21.7,4,5,7,1,2026-03-10T20:23:32.551750+05:30
Kochi,Kerala,9.9312,76.2673,28.8,77,0.0,1010.4,9.05,39.2,161,60.3,52.0,7,0,4,1,2026-03-10T20:23:32.551757+05:30
Thiruvananthapuram,Kerala,8.5241,76.9366,28.3,82,0.0,1009.9,9.1,27.4,111,30.7,23.6,7,0,4,1,2026-03-10T20:23:32.551764+05:30
Kozhikode,Kerala,11.2588,75.7804,29.0,76,0.0,1010.1,8.95,24.8,165,53.6,41.6,7,0,4,1,2026-03-10T20:23:32.551770+05:30
Thrissur,Kerala,10.5276,76.2144,28.1,77,0.0,1008.8,9.0,37.4,134,47.6,42.5,7,0,4,1,2026-03-10T20:23:32.551778+05:30
Kannur,Kerala,11.8745,75.3704,28.7,73,0.0,1009.7,8.95,39.2,130,54.2,43.5,7,0,4,1,2026-03-10T20:23:32.551785+05:30
Patna,Bihar,25.5941,85.1376,28.1,67,0.0,1005.9,7.4,24.5,171,113.2,105.9,7,5,4,1,2026-03-10T20:23:32.551792+05:30
Gaya,Bihar,24.7914,85.0002,25.8,84,0.0,999.4,7.5,15.5,167,105.2,95.2,7,5,7,1,2026-03-10T20:23:32.551799+05:30
Muzaffarpur,Bihar,26.1209,85.3647,26.3,73,0.0,1005.8,7.35,22.0,174,134.6,124.8,7,5,4,1,2026-03-10T20:23:32.551805+05:30
Bhagalpur,Bihar,25.2425,87.0117,27.4,67,0.0,1006.8,7.4,17.6,163,107.6,96.4,7,5,4,1,2026-03-10T20:23:32.551812+05:30
Ranchi,Jharkhand,23.3441,85.3096,23.8,71,0.0,942.8,8.15,29.5,160,88.9,80.3,3,5,7,1,2026-03-10T20:23:32.551819+05:30
Jamshedpur,Jharkhand,22.8046,86.2029,26.2,75,0.0,996.1,8.05,31.0,132,80.1,69.8,7,5,7,1,2026-03-10T20:23:32.551825+05:30
Dhanbad,Jharkhand,23.7957,86.4304,25.5,76,0.0,985.4,7.9,20.9,168,137.4,124.3,7,5,7,1,2026-03-10T20:23:32.551832+05:30
Bokaro,Jharkhand,23.6693,86.1511,24.0,82,0.0,989.7,7.9,20.5,174,148.1,133.2,3,5,7,1,2026-03-10T20:23:32.551839+05:30
Bhubaneswar,Odisha,20.2961,85.8245,24.9,80,0.0,1008.0,8.35,32.4,113,50.9,44.4,3,0,4,1,2026-03-10T20:23:32.551846+05:30
Cuttack,Odisha,20.4625,85.8828,26.0,73,0.0,1010.0,8.35,29.2,113,50.9,44.4,7,0,4,1,2026-03-10T20:23:32.551853+05:30
Rourkela,Odisha,22.2604,84.8536,28.7,57,0.0,988.4,7.95,26.3,158,94.8,72.6,4,5,7,1,2026-03-10T20:23:32.551859+05:30
Raipur,Chhattisgarh,21.2514,81.6296,30.2,39,0.0,978.1,8.05,17.3,163,88.7,67.1,0,5,7,0,2026-03-10T20:23:32.551866+05:30
Bhilai,Chhattisgarh,21.1938,81.3509,28.0,44,0.0,978.2,8.05,13.7,151,78.7,59.0,4,5,7,0,2026-03-10T20:23:32.551873+05:30
Guwahati,Assam,26.1158,91.7086,25.6,80,0.0,1006.4,7.3,11.5,155,80.6,75.2,7,5,4,1,2026-03-10T20:23:32.551880+05:30
Agartala,Tripura,23.8315,91.2868,25.0,74,0.0,1011.5,7.7,14.4,169,110.8,100.4,7,0,4,1,2026-03-10T20:23:32.551887+05:30
Shillong,Meghalaya,25.5788,91.8933,12.9,86,0.0,859.6,6.75,18.4,150,50.5,47.6,3,10,7,0,2026-03-10T20:23:32.551894+05:30
Imphal,Manipur,24.817,93.9368,17.9,82,0.0,927.9,6.2,30.6,154,58.8,55.9,3,10,7,0,2026-03-10T20:23:32.551901+05:30
Aizawl,Mizoram,23.7271,92.7176,18.7,68,0.0,896.7,7.85,27.7,147,44.6,39.3,3,5,7,0,2026-03-10T20:23:32.551907+05:30
Kohima,Nagaland,25.6701,94.1077,15.2,78,0.0,858.9,6.8,50.0,135,56.0,52.7,3,5,7,0,2026-03-10T20:23:32.551914+05:30
Gangtok,Sikkim,27.3314,88.6138,15.6,85,0.0,842.2,6.25,18.7,150,81.7,70.3,3,10,7,0,2026-03-10T20:23:32.551921+05:30
Siliguri,West Bengal,26.7271,88.3953,22.5,67,0.0,999.9,7.3,21.2,163,95.0,82.7,3,5,7,1,2026-03-10T20:23:35.893258+05:30
Durgapur,West Bengal,23.5204,87.3119,24.7,82,0.0,1000.9,7.85,19.4,155,78.5,72.2,3,5,4,1,2026-03-10T20:23:35.893294+05:30
Asansol,West Bengal,23.6739,86.9524,25.1,80,0.0,999.4,7.9,19.1,159,101.7,91.7,7,5,7,1,2026-03-10T20:23:35.893303+05:30
Pondicherry,Puducherry,11.9139,79.8145,25.4,82,0.0,1013.4,8.95,37.8,75,21.3,15.6,7,0,4,1,2026-03-10T20:23:35.893311+05:30
Port Blair,Andaman and Nicobar Islands,11.6234,92.7265,28.2,78,0.0,1010.4,8.95,29.2,70,22.1,19.3,7,0,4,1,2026-03-10T20:23:35.893320+05:30
Haridwar,Uttarakhand,29.9457,78.1642,24.0,85,0.0,980.0,5.85,22.3,164,97.1,70.5,3,5,3,1,2026-03-10T20:23:35.893328+05:30
Rishikesh,Uttarakhand,30.0869,78.2676,23.6,83,0.0,972.9,5.9,23.0,163,97.1,62.9,3,5,3,1,2026-03-10T20:23:35.893335+05:30
Nainital,Uttarakhand,29.3919,79.4542,18.0,82,0.0,810.6,6.75,56.9,175,143.4,111.8,3,10,7,0,2026-03-10T20:23:35.893343+05:30
Mussoorie,Uttarakhand,30.4599,78.0664,16.2,88,0.0,807.1,6.25,38.9,167,107.1,73.1,3,10,7,0,2026-03-10T20:23:35.893351+05:30
Dharamshala,Himachal Pradesh,32.219,76.3234,21.1,59,0.0,875.0,6.45,20.5,78,38.5,20.5,0,5,7,0,2026-03-10T20:23:35.893358+05:30
Dalhousie,Himachal Pradesh,32.5387,75.971,18.0,52,0.0,808.9,6.15,18.4,89,55.5,34.3,0,5,7,0,2026-03-10T20:23:35.893366+05:30
Patiala,Punjab,30.3398,76.3869,24.8,74,0.0,983.8,5.9,14.4,169,167.6,95.9,3,5,3,1,2026-03-10T20:23:35.893373+05:30
Bhatinda,Punjab,30.211,74.9455,24.6,66,0.0,988.9,6.45,16.9,154,105.5,60.5,3,5,7,1,2026-03-10T20:23:35.893380+05:30
Rohtak,Haryana,28.8955,76.6066,23.1,70,0.0,987.3,5.75,20.2,438,252.4,87.1,3,5,3,1,2026-03-10T20:23:35.893386+05:30
Panipat,Haryana,29.3909,76.9635,24.2,71,0.0,986.0,5.9,18.0,413,290.6,90.8,3,5,3,1,2026-03-10T20:23:35.893393+05:30
Mathura,Uttar Pradesh,27.4924,77.6737,24.5,58,0.0,992.3,6.35,23.0,376,359.5,94.8,0,5,7,0,2026-03-10T20:23:35.893399+05:30
Vrindavan,Uttar Pradesh,27.5823,77.7027,25.0,63,0.0,992.9,6.3,24.1,376,359.5,94.8,7,5,7,1,2026-03-10T20:23:35.893406+05:30
Ayodhya,Uttar Pradesh,26.7922,82.1998,26.0,76,0.0,1000.8,6.75,19.4,190,144.8,131.3,7,5,4,1,2026-03-10T20:23:35.893413+05:30
Ratlam,Madhya Pradesh,23.3315,75.0367,26.1,38,0.0,958.7,7.55,18.7,116,26.0,17.8,4,5,7,0,2026-03-10T20:23:35.893420+05:30
Sagar,Madhya Pradesh,23.8388,78.7378,28.2,33,0.0,954.7,7.5,21.2,108,36.2,18.0,4,5,7,0,2026-03-10T20:23:35.893426+05:30
Satna,Madhya Pradesh,24.6005,80.8322,27.6,44,0.0,976.4,7.5,24.5,140,68.9,40.3,4,5,7,0,2026-03-10T20:23:35.893433+05:30
Akola,Maharashtra,20.7002,77.0082,31.6,31,0.0,978.3,8.0,16.9,136,20.2,15.6,0,5,7,0,2026-03-10T20:23:35.893441+05:30
Amravati,Maharashtra,20.9374,77.7796,29.7,38,0.0,970.4,7.95,19.1,127,22.6,16.8,4,5,7,0,2026-03-10T20:23:35.893448+05:30
Latur,Maharashtra,18.4088,76.5604,26.8,44,0.0,943.1,8.4,27.0,167,34.0,29.7,4,5,7,0,2026-03-10T20:23:35.893455+05:30
Nanded,Maharashtra,19.1383,77.3091,29.5,44,0.0,971.8,8.2,19.4,145,39.5,33.3,4,5,7,0,2026-03-10T20:23:35.893461+05:30
Gulbarga,Karnataka,17.3297,76.8343,31.2,36,0.0,962.0,8.5,30.6,153,51.5,44.9,0,5,7,0,2026-03-10T20:23:35.893467+05:30
Bidar,Karnataka,17.9104,77.5199,28.1,44,0.0,939.1,8.45,33.1,155,50.3,43.1,4,5,7,0,2026-03-10T20:23:35.893474+05:30
Hospet,Karnataka,15.2689,76.3909,30.0,34,0.0,959.1,8.8,36.0,147,42.0,36.9,4,5,7,0,2026-03-10T20:23:35.893480+05:30
Tirupur,Tamil Nadu,11.1085,77.3411,29.0,51,0.0,978.2,9.25,42.5,122,24.8,23.2,4,5,7,1,2026-03-10T20:23:35.893486+05:30
Alappuzha,Kerala,9.4981,76.3388,29.0,70,0.0,1010.7,9.05,33.5,161,56.7,45.5,7,0,4,1,2026-03-10T20:23:35.893493+05:30
Munnar,Kerala,10.0889,77.0595,22.1,70,0.0,859.1,9.55,33.8,103,24.1,22.9,3,5,7,1,2026-03-10T20:23:35.893499+05:30
Silchar,Assam,24.8333,92.7789,25.9,71,0.0,1010.0,7.65,14.0,166,81.5,75.0,7,0,4,1,2026-03-10T20:23:35.893506+05:30
Dibrugarh,Assam,27.4728,94.912,26.6,74,0.0,1000.2,7.4,14.4,164,101.5,90.1,7,5,4,1,2026-03-10T20:23:35.893512+05:30
