city,state,latitude,longitude,temp,humidity,rain,pressure,uv_index,wind_gusts,aqi,pm10,pm2_5,no2,co,o3,so2,mosquito_risk,arthritis_risk,migraine_risk,frizz_risk,updated_at
Delhi,Delhi,28.6139,77.209,27.6,71,0.0,979.8,7.75,53.3,191,386.5,126.2,61.3,1089.0,26.0,30.3,7,5,7,1,2026-06-16T00:10:21.980905+05:30
Mumbai,Maharashtra,19.076,72.8777,30.0,72,0.0,1008.4,7.7,48.2,58,37.0,17.1,4.9,182.0,49.0,4.0,7,0,4,1,2026-06-16T00:10:21.980955+05:30
Bangalore,Karnataka,12.9716,77.5946,22.5,78,0.0,911.6,9.15,41.0,60,20.2,16.1,24.0,485.0,38.0,6.3,3,5,7,1,2026-06-16T00:10:21.980971+05:30
Hyderabad,Telangana,17.385,78.4867,28.0,62,0.0,951.4,9.05,40.3,99,124.8,79.4,65.4,1427.0,10.0,20.1,7,5,7,1,2026-06-16T00:10:21.980981+05:30
Chennai,Tamil Nadu,13.0827,80.2707,29.7,80,0.0,1005.1,8.2,37.4,98,39.6,26.3,8.9,243.0,100.0,7.1,7,5,4,1,2026-06-16T00:10:21.980990+05:30
Kolkata,West Bengal,22.5726,88.3639,28.6,92,0.0,1002.9,8.95,39.6,141,46.8,39.7,12.0,459.0,74.0,6.8,7,5,4,1,2026-06-16T00:10:21.980998+05:30
Pune,Maharashtra,18.5204,73.8567,24.6,84,0.0,948.4,8.3,51.8,51,20.9,12.4,9.2,175.0,41.0,8.3,3,5,7,1,2026-06-16T00:10:21.981005+05:30
Ahmedabad,Gujarat,23.0225,72.5714,32.1,51,0.0,1000.3,8.05,45.0,60,31.4,14.1,4.2,134.0,58.0,3.4,0,5,4,1,2026-06-16T00:10:21.981012+05:30
Jaipur,Rajasthan,26.9124,75.7873,26.9,64,0.0,956.8,8.25,26.6,123,197.9,55.1,14.8,409.0,55.0,6.5,7,5,7,1,2026-06-16T00:10:21.981023+05:30
Lucknow,Uttar Pradesh,26.8467,80.9462,29.4,60,0.0,989.7,8.35,27.4,167,239.3,97.3,40.4,327.0,37.0,14.5,4,5,7,1,2026-06-16T00:10:21.981030+05:30
Kanpur,Uttar Pradesh,26.4499,80.3319,32.9,41,0.0,988.2,8.3,34.2,211,252.4,91.0,40.7,231.0,29.0,11.2,0,5,7,1,2026-06-16T00:10:21.981037+05:30
Chandigarh,Chandigarh,30.7333,76.7794,24.1,80,0.0,964.8,7.8,28.1,116,99.4,61.7,40.6,816.0,58.0,15.6,3,5,7,1,2026-06-16T00:10:21.981044+05:30
Srinagar,Jammu and Kashmir,34.0837,74.7973,16.2,91,0.0,839.1,9.05,19.4,81,47.4,44.9,38.3,1118.0,5.0,0.2,3,10,7,0,2026-06-16T00:10:21.981051+05:30
Jammu,Jammu and Kashmir,32.7266,74.857,27.3,58,0.0,969.2,8.6,39.2,85,61.7,52.2,66.3,750.0,12.0,7.1,4,5,7,1,2026-06-16T00:10:21.981058+05:30
Amritsar,Punjab,31.634,74.8723,26.9,71,0.0,976.8,8.45,45.0,134,74.5,55.2,35.2,608.0,55.0,7.4,7,5,7,1,2026-06-16T00:10:21.981064+05:30
Ludhiana,Punjab,30.901,75.8573,27.6,69,0.0,974.9,8.05,31.0,163,281.3,124.8,67.6,852.0,30.0,20.1,7,5,7,1,2026-06-16T00:10:21.981070+05:30
Jalandhar,Punjab,31.326,75.5762,26.8,73,0.0,975.9,8.2,39.6,140,231.0,112.5,78.3,1239.0,18.0,15.1,7,5,7,1,2026-06-16T00:10:21.981076+05:30
Dehradun,Uttarakhand,30.6284,78.0322,15.0,82,0.0,827.5,8.25,40.0,57,22.4,17.5,34.2,215.0,42.0,1.5,3,10,7,0,2026-06-16T00:10:21.981085+05:30
Shimla,Himachal Pradesh,31.1048,77.1734,10.9,89,0.0,780.1,8.35,43.2,84,31.1,24.5,29.5,355.0,57.0,4.1,3,10,7,0,2026-06-16T00:10:21.981094+05:30
Manali,Himachal Pradesh,32.2396,77.1887,12.1,82,0.0,814.9,10.0,37.1,46,7.8,6.8,72.4,351.0,41.0,0.0,3,10,7,0,2026-06-16T00:10:21.981101+05:30
Gurgaon,Haryana,28.4595,77.0266,27.6,67,0.0,978.3,7.85,72.4,548,382.8,136.0,88.5,1012.0,12.0,32.5,7,5,7,1,2026-06-16T00:10:21.981114+05:30
Noida,Uttar Pradesh,28.5355,77.391,28.1,67,0.0,981.2,7.8,54.7,548,382.8,136.0,88.5,749.0,12.0,32.5,7,5,7,1,2026-06-16T00:10:21.981121+05:30
Ghaziabad,Uttar Pradesh,28.6692,77.4538,27.4,75,0.0,979.4,7.8,59.0,171,289.6,126.2,75.7,712.0,13.0,26.0,7,5,7,1,2026-06-16T00:10:21.981127+05:30
Faridabad,Haryana,28.4089,77.3178,28.8,61,0.0,980.6,7.85,67.0,548,382.8,136.0,88.5,718.0,12.0,32.5,7,5,7,1,2026-06-16T00:10:21.981134+05:30
Meerut,Uttar Pradesh,28.9845,77.7064,27.4,78,0.0,978.2,7.7,55.8,171,289.6,126.2,75.7,566.0,13.0,26.0,7,5,7,1,2026-06-16T00:10:21.981140+05:30
Agra,Uttar Pradesh,27.1767,78.0081,30.1,54,0.0,984.7,8.15,38.5,781,609.1,151.8,70.8,404.0,18.0,23.2,0,5,7,1,2026-06-16T00:10:21.981163+05:30
Varanasi,Uttar Pradesh,25.3176,82.9739,33.4,49,0.0,994.0,8.8,33.8,153,144.4,75.4,37.4,934.0,55.0,18.6,0,5,7,1,2026-06-16T00:10:21.981170+05:30
Prayagraj,Uttar Pradesh,25.4358,81.8463,33.4,45,0.0,992.3,8.7,30.2,153,120.6,65.9,34.0,276.0,36.0,12.0,0,5,7,1,2026-06-16T00:10:21.981177+05:30
Gorakhpur,Uttar Pradesh,26.7606,83.3732,29.7,70,0.0,993.7,8.7,28.8,147,115.3,68.0,38.5,481.0,41.0,13.1,7,5,7,1,2026-06-16T00:10:21.981185+05:30
Bareilly,Uttar Pradesh,28.367,79.4304,27.4,75,0.0,983.4,8.1,39.6,158,88.5,53.2,25.1,306.0,73.0,11.8,7,5,7,1,2026-06-16T00:10:21.981192+05:30
Aligarh,Uttar Pradesh,27.8974,78.088,27.6,67,0.0,982.5,8.0,46.1,462,456.3,149.5,76.3,359.0,50.0,31.1,7,5,7,1,2026-06-16T00:10:21.981198+05:30
Moradabad,Uttar Pradesh,28.8386,78.7733,27.4,71,0.0,980.3,7.9,37.8,165,110.4,78.0,51.2,350.0,35.0,14.7,7,5,7,1,2026-06-16T00:10:21.981204+05:30
Saharanpur,Uttar Pradesh,29.9637,77.546,26.5,78,0.0,972.4,7.55,42.8,106,170.0,81.0,40.0,679.0,56.0,17.3,7,5,7,1,2026-06-16T00:10:21.981210+05:30
Jhansi,Uttar Pradesh,25.4484,78.5685,30.8,50,0.0,975.2,8.5,32.8,118,77.1,37.0,8.2,185.0,55.0,3.0,0,5,7,1,2026-06-16T00:10:25.232336+05:30
Surat,Gujarat,21.1702,72.8311,29.9,77,0.0,1005.6,7.55,55.4,70,31.3,18.7,14.6,245.0,37.0,25.1,7,5,4,1,2026-06-16T00:10:25.232374+05:30
Vadodara,Gujarat,22.3072,73.1812,30.1,75,0.0,1002.4,8.0,50.8,69,29.8,21.2,21.3,201.0,26.0,24.7,3,5,4,1,2026-06-16T00:10:25.232384+05:30
Rajkot,Gujarat,22.3039,70.8022,29.4,69,0.0,992.9,7.55,55.1,58,29.9,13.8,4.6,106.0,47.0,4.7,7,5,7,1,2026-06-16T00:10:25.232394+05:30
Thane,Maharashtra,19.2183,72.9781,29.5,74,0.0,1007.7,7.7,46.8,58,37.0,17.1,4.9,175.0,49.0,4.0,7,5,4,1,2026-06-16T00:10:25.232402+05:30
Nagpur,Maharashtra,21.1458,79.0882,31.1,49,0.0,971.2,8.85,39.6,108,52.0,34.9,17.4,452.0,51.0,10.2,0,5,7,1,2026-06-16T00:10:25.232410+05:30
Nashik,Maharashtra,19.9975,73.7898,24.9,85,0.0,945.6,8.0,54.4,50,21.1,11.6,3.4,134.0,46.0,1.6,3,5,7,1,2026-06-16T00:10:25.232417+05:30
Aurangabad,Maharashtra,19.8762,75.3433,27.9,60,0.0,944.2,8.9,49.3,56,21.7,12.9,5.1,136.0,52.0,4.3,4,5,7,1,2026-06-16T00:10:25.232425+05:30
Solapur,Maharashtra,17.6599,75.9064,28.8,59,0.0,957.1,8.9,54.7,57,15.8,11.1,5.1,147.0,70.0,4.8,4,5,7,1,2026-06-16T00:10:25.232433+05:30
Kolhapur,Maharashtra,16.705,74.2433,24.1,89,0.0,948.6,8.75,46.8,52,18.7,11.8,7.0,186.0,41.0,3.1,3,5,7,1,2026-06-16T00:10:25.232441+05:30
Goa,Goa,15.2993,74.124,26.7,87,0.0,998.8,8.5,39.6,58,28.3,15.7,4.8,365.0,44.0,1.9,7,5,7,1,2026-06-16T00:10:25.232450+05:30
Jodhpur,Rajasthan,26.2389,73.0243,32.3,48,0.0,978.8,8.45,45.4,156,156.0,39.9,7.9,157.0,49.0,2.5,0,5,7,1,2026-06-16T00:10:25.232457+05:30
Udaipur,Rajasthan,24.5854,73.7125,28.4,60,0.0,944.7,8.8,44.3,62,38.1,18.8,6.2,130.0,56.0,2.8,4,5,7,1,2026-06-16T00:10:25.232465+05:30
Kota,Rajasthan,25.2138,75.8648,30.8,54,0.0,975.6,8.35,33.1,96,49.9,27.6,8.4,166.0,59.0,4.5,0,5,7,1,2026-06-16T00:10:25.232472+05:30
Bikaner,Rajasthan,28.0229,73.3119,32.9,45,0.0,977.3,8.5,41.0,153,163.9,43.9,3.3,137.0,63.0,2.6,0,5,7,1,2026-06-16T00:10:25.232480+05:30
Ajmer,Rajasthan,26.4499,74.6399,28.7,56,0.0,951.7,8.35,44.3,95,51.6,22.8,6.4,190.0,61.0,4.5,4,5,7,1,2026-06-16T00:10:25.232486+05:30
Gwalior,Madhya Pradesh,26.2183,78.1828,30.1,57,0.0,980.5,8.3,33.1,132,74.3,38.2,6.8,325.0,69.0,3.2,0,5,7,1,2026-06-16T00:10:25.232493+05:30
Indore,Madhya Pradesh,22.7196,75.8577,28.4,58,0.0,947.0,8.6,52.6,89,66.1,40.9,16.1,321.0,55.0,8.8,4,5,7,1,2026-06-16T00:10:25.232500+05:30
Bhopal,Madhya Pradesh,23.2599,77.4126,26.9,79,0.0,951.5,8.65,46.1,103,40.9,25.2,13.0,607.0,56.0,3.0,7,5,7,1,2026-06-16T00:10:25.232507+05:30
Jabalpur,Madhya Pradesh,23.1815,79.9864,28.3,64,0.0,959.6,8.85,27.7,110,70.1,43.3,14.6,346.0,53.0,4.2,7,5,7,1,2026-06-16T00:10:25.232513+05:30
Ujjain,Madhya Pradesh,23.1765,75.7885,28.9,57,0.0,952.4,8.55,53.3,82,50.8,31.9,6.6,462.0,71.0,6.5,4,5,7,1,2026-06-16T00:10:25.232520+05:30
Visakhapatnam,Andhra Pradesh,17.6868,83.2185,28.1,95,0.0,1000.1,8.95,36.0,160,117.3,93.4,58.9,1638.0,56.0,84.5,7,5,4,1,2026-06-16T00:10:25.232527+05:30
Vijayawada,Andhra Pradesh,16.5062,80.648,29.2,76,0.0,999.5,9.0,40.0,127,88.5,65.7,25.3,557.0,49.0,10.7,7,5,7,1,2026-06-16T00:10:25.232534+05:30
Guntur,Andhra Pradesh,16.3067,80.4365,29.4,70,0.0,1000.7,8.95,41.4,129,124.8,96.9,53.1,423.0,21.0,15.6,7,5,4,1,2026-06-16T00:10:25.232540+05:30
Nellore,Andhra Pradesh,14.4426,79.9865,29.7,72,0.0,1003.4,8.25,45.0,80,47.1,32.9,9.4,288.0,98.0,6.2,7,5,4,1,2026-06-16T00:10:25.232548+05:30
Kurnool,Andhra Pradesh,15.8281,78.0373,27.7,63,0.0,974.8,8.75,42.8,74,74.5,47.8,33.0,430.0,39.0,9.6,7,5,7,1,2026-06-16T00:10:25.232556+05:30
Kakinada,Andhra Pradesh,16.9891,82.2475,30.4,84,0.0,1003.9,8.75,33.1,119,76.8,50.3,9.9,717.0,107.0,7.6,3,5,4,1,2026-06-16T00:10:25.232563+05:30
Tirupati,Andhra Pradesh,13.6288,79.4192,26.9,76,0.0,989.2,8.55,33.5,83,90.8,65.9,57.8,471.0,14.0,10.4,7,5,7,1,2026-06-16T00:10:25.232569+05:30
Warangal,Telangana,17.9689,79.5941,28.8,70,0.0,976.0,8.9,43.2,136,133.2,94.1,51.3,672.0,19.0,14.6,7,5,7,1,2026-06-16T00:10:25.232576+05:30
Nizamabad,Telangana,18.6725,78.0941,29.3,57,0.0,963.0,8.95,42.1,94,108.5,68.2,42.3,432.0,24.0,8.1,4,5,7,1,2026-06-16T00:10:25.232582+05:30
Mysore,Karnataka,12.2958,76.6396,22.2,88,0.0,928.8,9.0,33.8,52,15.5,12.2,14.7,274.0,43.0,3.1,3,5,7,1,2026-06-16T00:10:25.232589+05:30
Mangalore,Karnataka,12.9141,74.856,26.7,90,0.0,1007.7,8.65,44.3,59,29.4,19.4,13.3,319.0,28.0,3.6,7,5,4,1,2026-06-16T00:10:25.232595+05:30
Hubli-Dharwad,Karnataka,15.3647,75.124,23.4,87,0.0,941.2,8.9,52.6,49,17.1,9.5,5.7,162.0,42.0,1.8,3,5,7,1,2026-06-16T00:10:25.232602+05:30
Belgaum,Karnataka,15.8497,74.4977,22.2,93,0.0,926.0,8.95,47.2,52,20.8,13.0,8.8,155.0,34.0,1.8,3,5,7,1,2026-06-16T00:10:28.473680+05:30
Coimbatore,Tamil Nadu,11.0168,76.9558,24.3,93,0.0,962.1,8.85,46.1,56,20.0,15.1,12.7,245.0,38.0,4.1,3,5,7,1,2026-06-16T00:10:28.473715+05:30
Madurai,Tamil Nadu,9.9252,78.1198,29.0,75,0.0,992.8,7.95,42.5,92,57.3,37.6,40.4,724.0,21.0,8.2,7,5,7,1,2026-06-16T00:10:28.473726+05:30
Trichy,Tamil Nadu,10.7905,78.7047,28.6,76,0.0,999.8,8.5,41.4,74,43.9,28.9,16.3,244.0,56.0,5.3,7,5,7,1,2026-06-16T00:10:28.473735+05:30
Salem,Tamil Nadu,11.6643,78.146,26.9,78,0.0,977.4,8.75,41.0,70,26.8,18.2,14.3,410.0,54.0,5.9,7,5,7,1,2026-06-16T00:10:28.473744+05:30
Tirunelveli,Tamil Nadu,8.7139,77.7567,29.5,64,0.0,1003.0,8.0,48.2,51,16.1,12.4,10.0,173.0,41.0,3.0,7,5,4,1,2026-06-16T00:10:28.473752+05:30
Vellore,Tamil Nadu,12.9165,79.1325,27.1,72,0.0,982.9,8.9,42.8,83,98.3,66.4,50.9,725.0,16.0,10.9,7,5,7,1,2026-06-16T00:10:28.473760+05:30
Erode,Tamil Nadu,11.341,77.7172,27.0,78,0.0,988.8,8.75,33.5,65,23.5,16.8,16.1,213.0,42.0,4.3,7,5,7,1,2026-06-16T00:10:28.473768+05:30
Kochi,Kerala,9.9312,76.2673,26.2,94,0.1,1010.1,8.05,35.6,67,32.8,27.8,28.5,363.0,9.0,7.6,10,0,4,1,2026-06-16T00:10:28.473775+05:30
Thiruvananthapuram,Kerala,8.5241,76.9366,24.9,97,0.0,1009.7,6.9,49.3,53,23.9,12.5,4.4,261.0,52.0,2.2,3,0,4,1,2026-06-16T00:10:28.473783+05:30
Kozhikode,Kerala,11.2588,75.7804,26.2,93,0.0,1008.7,8.55,52.2,50,17.9,10.2,3.5,236.0,52.0,1.8,7,0,4,1,2026-06-16T00:10:28.473790+05:30
Thrissur,Kerala,10.5276,76.2144,26.2,93,0.0,1008.1,7.65,42.8,76,32.9,29.7,22.7,735.0,9.0,5.8,7,0,4,1,2026-06-16T00:10:28.473798+05:30
Kannur,Kerala,11.8745,75.3704,26.3,89,0.0,1008.0,8.6,48.2,53,19.9,13.4,11.6,227.0,32.0,3.0,7,0,4,1,2026-06-16T00:10:28.473806+05:30
Patna,Bihar,25.5941,85.1376,30.2,73,0.0,997.0,8.85,26.3,161,168.6,99.7,58.4,1078.0,31.0,21.9,3,5,7,1,2026-06-16T00:10:28.473813+05:30
Gaya,Bihar,24.7914,85.0002,30.1,69,0.0,990.5,8.95,31.3,155,132.7,84.8,45.3,740.0,24.0,13.3,3,5,7,1,2026-06-16T00:10:28.473820+05:30
Muzaffarpur,Bihar,26.1209,85.3647,29.5,75,0.0,997.0,8.85,28.8,161,172.8,100.6,56.1,704.0,31.0,21.3,7,5,7,1,2026-06-16T00:10:28.473827+05:30
Bhagalpur,Bihar,25.2425,87.0117,29.9,74,0.0,997.9,8.85,21.6,156,92.9,75.2,35.5,576.0,66.0,18.2,7,5,7,1,2026-06-16T00:10:28.473833+05:30
Ranchi,Jharkhand,23.3441,85.3096,26.0,66,0.0,935.5,9.25,32.4,123,137.4,70.5,32.2,828.0,77.0,16.0,7,5,7,1,2026-06-16T00:10:28.473840+05:30
Jamshedpur,Jharkhand,22.8046,86.2029,28.5,75,0.0,988.1,9.1,29.9,150,74.3,59.6,18.0,599.0,95.0,25.1,7,5,7,1,2026-06-16T00:10:28.473848+05:30
Dhanbad,Jharkhand,23.7957,86.4304,28.8,75,0.0,977.0,9.05,28.1,166,143.0,124.3,79.5,529.0,49.0,196.3,7,5,7,1,2026-06-16T00:10:28.473856+05:30
Bokaro,Jharkhand,23.6693,86.1511,27.8,80,0.0,980.6,9.1,34.2,163,166.7,119.0,73.3,728.0,19.0,152.8,7,5,7,1,2026-06-16T00:10:28.473864+05:30
Bhubaneswar,Odisha,20.2961,85.8245,28.4,94,0.0,999.4,7.6,41.8,137,59.0,46.9,12.1,461.0,80.0,6.4,7,5,7,1,2026-06-16T00:10:28.473871+05:30
Cuttack,Odisha,20.4625,85.8828,28.8,94,0.0,1001.3,9.15,39.6,137,59.0,46.9,12.1,450.0,80.0,6.4,7,5,4,1,2026-06-16T00:10:28.473879+05:30
Rourkela,Odisha,22.2604,84.8536,28.3,81,0.0,982.4,9.0,29.9,129,117.1,68.7,26.7,345.0,68.0,12.3,7,5,7,1,2026-06-16T00:10:28.473886+05:30
Raipur,Chhattisgarh,21.2514,81.6296,29.0,68,0.1,972.1,8.6,44.3,137,117.6,81.7,66.5,367.0,14.0,78.7,10,5,7,1,2026-06-16T00:10:28.473894+05:30
Bhilai,Chhattisgarh,21.1938,81.3509,27.5,75,0.1,972.9,8.6,49.0,138,133.2,91.0,67.0,808.0,16.0,76.9,10,5,7,1,2026-06-16T00:10:28.473902+05:30
Guwahati,Assam,26.1158,91.7086,25.7,99,0.0,999.6,8.65,25.9,77,35.6,30.3,6.8,396.0,86.0,4.5,7,5,7,1,2026-06-16T00:10:28.473910+05:30
Agartala,Tripura,23.8315,91.2868,26.7,89,0.0,1004.0,8.6,25.6,84,27.4,23.9,11.8,279.0,55.0,2.6,7,5,4,1,2026-06-16T00:10:28.473917+05:30
Shillong,Meghalaya,25.5788,91.8933,18.7,94,0.0,855.7,8.15,21.2,44,9.8,8.8,5.7,268.0,87.0,2.7,3,10,7,1,2026-06-16T00:10:28.473924+05:30
Imphal,Manipur,24.817,93.9368,22.9,95,0.0,921.7,7.9,31.3,80,44.0,39.0,21.1,352.0,37.0,4.5,3,5,7,1,2026-06-16T00:10:28.473930+05:30
Aizawl,Mizoram,23.7271,92.7176,19.4,96,0.0,890.8,9.1,22.7,51,12.0,10.1,5.8,185.0,42.0,0.9,3,10,7,1,2026-06-16T00:10:28.473937+05:30
Kohima,Nagaland,25.6701,94.1077,19.5,91,0.0,854.3,8.1,29.2,41,15.9,13.5,9.8,404.0,47.0,1.0,3,10,7,1,2026-06-16T00:10:28.473943+05:30
Gangtok,Sikkim,27.3314,88.6138,16.9,98,0.3,836.8,8.85,37.1,74,30.2,25.7,15.1,602.0,97.0,2.5,6,10,7,1,2026-06-16T00:10:28.473949+05:30
Siliguri,West Bengal,26.7271,88.3953,24.9,96,0.0,991.1,8.8,24.1,98,54.8,46.3,15.1,528.0,97.0,5.0,3,5,7,1,2026-06-16T00:10:31.720894+05:30
Durgapur,West Bengal,23.5204,87.3119,28.4,91,0.0,992.0,9.0,37.1,170,81.3,75.9,24.1,655.0,92.0,35.9,7,5,7,1,2026-06-16T00:10:31.720931+05:30
Asansol,West Bengal,23.6739,86.9524,28.4,86,0.0,990.6,9.0,30.2,162,82.2,74.7,24.5,621.0,97.0,43.8,7,5,7,1,2026-06-16T00:10:31.720943+05:30
Pondicherry,Puducherry,11.9139,79.8145,28.9,75,0.0,1007.1,8.45,39.2,86,34.3,22.4,11.1,262.0,70.0,9.2,7,5,4,1,2026-06-16T00:10:31.720952+05:30
Port Blair,Andaman and Nicobar Islands,11.6234,92.7265,27.7,82,0.0,1007.9,7.35,43.9,36,16.9,9.4,0.3,87.0,43.0,0.4,7,5,4,1,2026-06-16T00:10:31.720961+05:30
Haridwar,Uttarakhand,29.9457,78.1642,24.8,80,0.0,970.6,7.6,33.5,82,78.5,52.7,34.7,423.0,66.0,15.7,3,5,7,1,2026-06-16T00:10:31.720970+05:30
Rishikesh,Uttarakhand,30.0869,78.2676,22.6,85,0.0,963.3,7.7,26.3,101,45.5,29.9,17.9,389.0,111.0,9.5,3,5,7,1,2026-06-16T00:10:31.720977+05:30
Nainital,Uttarakhand,29.3919,79.4542,16.1,64,0.0,804.0,8.55,32.8,88,44.2,30.0,22.6,335.0,58.0,5.1,3,5,7,0,2026-06-16T00:10:31.720986+05:30
Mussoorie,Uttarakhand,30.4599,78.0664,16.3,66,0.0,801.7,8.15,42.5,83,45.1,32.4,35.8,291.0,73.0,10.4,3,5,7,0,2026-06-16T00:10:31.720994+05:30
Dharamshala,Himachal Pradesh,32.219,76.3234,19.7,59,0.0,866.6,8.5,42.8,45,11.8,10.0,18.4,210.0,39.0,0.2,0,5,7,0,2026-06-16T00:10:31.721002+05:30
Dalhousie,Himachal Pradesh,32.5387,75.971,12.4,92,0.0,800.6,8.75,33.1,61,32.8,27.6,50.1,364.0,29.0,2.7,3,10,7,0,2026-06-16T00:10:31.721009+05:30
Patiala,Punjab,30.3398,76.3869,27.9,69,0.0,974.4,7.7,42.5,358,461.0,142.5,46.6,515.0,32.0,15.0,7,5,7,1,2026-06-16T00:10:31.721017+05:30
Bhatinda,Punjab,30.211,74.9455,30.0,56,0.0,979.4,8.35,45.0,161,232.8,102.7,61.9,362.0,14.0,14.3,4,5,7,1,2026-06-16T00:10:31.721025+05:30
Rohtak,Haryana,28.8955,76.6066,28.0,69,0.0,978.5,7.8,60.1,260,402.3,119.7,57.9,753.0,22.0,18.9,7,5,7,1,2026-06-16T00:10:31.721033+05:30
Panipat,Haryana,29.3909,76.9635,28.6,70,0.0,976.9,7.65,57.2,366,467.5,129.9,49.3,926.0,27.0,12.7,7,5,7,1,2026-06-16T00:10:31.721040+05:30
Mathura,Uttar Pradesh,27.4924,77.6737,28.4,66,0.0,983.7,8.1,33.1,609,743.2,145.8,59.1,441.0,25.0,10.8,7,5,7,1,2026-06-16T00:10:31.721048+05:30
Vrindavan,Uttar Pradesh,27.5823,77.7027,28.4,66,0.0,984.1,8.1,37.1,609,743.2,145.8,59.1,561.0,25.0,10.8,7,5,7,1,2026-06-16T00:10:31.721055+05:30
Ayodhya,Uttar Pradesh,26.7922,82.1998,29.4,71,0.0,991.6,8.45,34.9,158,163.4,82.2,44.9,427.0,32.0,12.2,7,5,7,1,2026-06-16T00:10:31.721063+05:30
Ratlam,Madhya Pradesh,23.3315,75.0367,27.5,67,0.0,953.4,8.5,50.0,79,51.8,31.7,6.2,154.0,68.0,6.1,7,5,7,1,2026-06-16T00:10:31.721070+05:30
Sagar,Madhya Pradesh,23.8388,78.7378,27.3,61,0.0,948.1,8.7,42.8,106,40.4,23.7,10.7,186.0,55.0,2.1,7,5,7,1,2026-06-16T00:10:31.721076+05:30
Satna,Madhya Pradesh,24.6005,80.8322,30.7,46,0.0,968.6,8.8,31.3,106,73.8,39.8,10.3,172.0,71.0,4.4,0,5,7,1,2026-06-16T00:10:31.721083+05:30
Akola,Maharashtra,20.7002,77.0082,32.3,45,0.0,973.6,8.8,48.2,81,60.3,34.1,17.1,166.0,62.0,8.6,0,5,7,1,2026-06-16T00:10:31.721090+05:30
Amravati,Maharashtra,20.9374,77.7796,30.0,60,0.0,965.6,8.8,55.1,83,75.2,43.9,33.0,242.0,31.0,8.5,4,5,7,1,2026-06-16T00:10:31.721098+05:30
Latur,Maharashtra,18.4088,76.5604,29.0,43,0.0,939.2,8.9,38.2,67,32.6,20.8,7.6,211.0,74.0,4.2,4,5,7,0,2026-06-16T00:10:31.721105+05:30
Nanded,Maharashtra,19.1383,77.3091,31.1,43,0.0,967.0,8.85,39.6,82,56.3,35.9,23.2,305.0,40.0,5.1,0,5,7,1,2026-06-16T00:10:31.721113+05:30
Gulbarga,Karnataka,17.3297,76.8343,28.9,53,0.0,957.7,8.9,43.2,66,51.9,33.3,33.1,164.0,40.0,6.3,4,5,7,1,2026-06-16T00:10:31.721120+05:30
Bidar,Karnataka,17.9104,77.5199,28.3,45,0.0,933.9,8.9,41.4,90,96.9,60.3,45.3,224.0,32.0,8.1,4,5,7,0,2026-06-16T00:10:31.721127+05:30
Hospet,Karnataka,15.2689,76.3909,25.9,78,0.0,955.8,8.95,45.4,57,14.5,9.8,6.7,165.0,44.0,2.0,7,5,7,1,2026-06-16T00:10:31.721134+05:30
Tirupur,Tamil Nadu,11.1085,77.3411,25.2,87,0.0,975.4,8.85,52.6,65,29.0,20.7,19.6,188.0,36.0,5.7,7,5,7,1,2026-06-16T00:10:31.721141+05:30
Alappuzha,Kerala,9.4981,76.3388,26.5,94,0.0,1010.2,8.4,39.6,60,28.8,20.0,14.7,275.0,36.0,4.6,7,0,4,1,2026-06-16T00:10:31.721165+05:30
Munnar,Kerala,10.0889,77.0595,16.7,90,0.0,856.8,9.0,31.0,53,15.4,12.7,10.9,202.0,32.0,2.1,3,10,7,0,2026-06-16T00:10:31.721173+05:30
Silchar,Assam,24.8333,92.7789,25.9,97,0.1,1003.5,8.95,20.9,72,30.7,26.3,8.4,266.0,78.0,3.7,10,5,4,1,2026-06-16T00:10:31.721179+05:30
Dibrugarh,Assam,27.4728,94.912,25.8,97,0.0,993.1,7.5,21.6,57,25.5,24.4,20.4,326.0,40.0,2.4,7,5,7,1,2026-06-16T00:10:31.721186+05:30
