city,state,latitude,longitude,temp,humidity,rain,pressure,uv_index,wind_gusts,aqi,pm10,pm2_5,no2,co,o3,so2,mosquito_risk,arthritis_risk,migraine_risk,frizz_risk,updated_at
Delhi,Delhi,28.6139,77.209,27.9,52,0.0,982.2,7.65,27.4,156,199.3,65.9,19.5,547.0,113.0,21.0,4,5,7,1,2026-05-11T02:22:29.221551+05:30
Mumbai,Maharashtra,19.076,72.8777,28.8,81,0.0,1004.0,7.9,50.0,91,49.8,22.5,13.3,334.0,73.0,9.6,7,5,4,1,2026-05-11T02:22:29.221583+05:30
Bangalore,Karnataka,12.9716,77.5946,21.8,88,0.0,909.3,9.3,41.0,62,17.9,17.0,17.6,262.0,60.0,9.0,3,5,7,1,2026-05-11T02:22:29.221597+05:30
Hyderabad,Telangana,17.385,78.4867,26.1,69,0.0,950.9,9.25,40.0,61,11.1,9.0,6.0,199.0,64.0,3.6,7,5,7,1,2026-05-11T02:22:29.221607+05:30
Chennai,Tamil Nadu,13.0827,80.2707,27.1,85,0.0,1004.1,9.15,40.0,20,7.2,5.7,9.8,311.0,36.0,2.6,7,5,4,1,2026-05-11T02:22:29.221614+05:30
Kolkata,West Bengal,22.5726,88.3639,24.6,89,0.0,1005.9,8.8,38.5,155,102.7,96.9,53.6,491.0,17.0,20.9,3,5,4,1,2026-05-11T02:22:29.221626+05:30
Pune,Maharashtra,18.5204,73.8567,28.6,45,0.0,944.2,8.5,39.6,70,32.0,25.3,21.0,341.0,86.0,14.7,4,5,7,0,2026-05-11T02:22:29.221632+05:30
Ahmedabad,Gujarat,23.0225,72.5714,34.0,27,0.0,997.4,8.15,35.6,61,20.5,11.0,4.4,182.0,70.0,4.7,0,5,7,0,2026-05-11T02:22:29.221640+05:30
Jaipur,Rajasthan,26.9124,75.7873,28.0,48,0.0,958.1,8.2,44.3,179,389.3,74.7,6.2,365.0,112.0,8.3,4,5,7,0,2026-05-11T02:22:29.221647+05:30
Lucknow,Uttar Pradesh,26.8467,80.9462,26.4,54,0.0,993.2,8.15,28.8,112,45.4,36.8,13.3,392.0,98.0,9.9,4,5,7,1,2026-05-11T02:22:29.221653+05:30
Kanpur,Uttar Pradesh,26.4499,80.3319,27.6,51,0.0,991.0,8.15,32.4,136,195.1,46.7,9.1,349.0,104.0,8.8,4,5,7,1,2026-05-11T02:22:29.221659+05:30
Chandigarh,Chandigarh,30.7333,76.7794,24.6,69,0.0,968.1,7.7,42.5,147,90.8,59.3,26.9,461.0,69.0,9.4,3,5,7,1,2026-05-11T02:22:29.221665+05:30
Srinagar,Jammu and Kashmir,34.0837,74.7973,14.4,84,0.0,840.3,8.85,32.8,107,75.0,49.4,24.4,623.0,61.0,5.5,3,10,7,0,2026-05-11T02:22:29.221672+05:30
Jammu,Jammu and Kashmir,32.7266,74.857,26.9,57,0.0,970.8,8.45,31.7,157,121.1,63.6,25.4,453.0,47.0,6.4,4,5,7,1,2026-05-11T02:22:29.221678+05:30
Amritsar,Punjab,31.634,74.8723,28.5,54,0.0,978.4,8.35,49.7,170,193.2,71.7,7.2,578.0,109.0,11.9,4,5,7,1,2026-05-11T02:22:29.221684+05:30
Ludhiana,Punjab,30.901,75.8573,27.0,59,0.0,977.4,7.9,36.7,174,274.7,79.4,9.4,566.0,113.0,10.7,4,5,7,1,2026-05-11T02:22:29.221691+05:30
Jalandhar,Punjab,31.326,75.5762,26.6,60,0.0,978.1,8.1,34.2,169,191.4,71.5,10.8,705.0,108.0,18.5,4,5,7,1,2026-05-11T02:22:29.221697+05:30
Dehradun,Uttarakhand,30.6284,78.0322,12.3,99,0.0,828.9,6.15,31.7,97,77.5,43.8,27.1,313.0,56.0,1.9,3,10,7,0,2026-05-11T02:22:29.221705+05:30
Shimla,Himachal Pradesh,31.1048,77.1734,12.6,86,0.0,783.6,7.65,42.5,151,142.0,70.3,19.8,397.0,103.0,11.5,3,10,7,0,2026-05-11T02:22:29.221712+05:30
Manali,Himachal Pradesh,32.2396,77.1887,13.0,70,0.0,817.5,9.5,37.1,94,36.3,23.1,45.4,278.0,95.0,0.8,3,5,7,0,2026-05-11T02:22:29.221718+05:30
Gurgaon,Haryana,28.4595,77.0266,26.8,55,0.0,980.5,7.75,31.3,662,705.9,116.9,16.3,487.0,111.0,18.4,4,5,7,1,2026-05-11T02:22:29.221724+05:30
Noida,Uttar Pradesh,28.5355,77.391,24.5,67,0.0,983.6,7.65,24.8,662,705.9,116.9,16.3,537.0,111.0,18.4,3,5,7,1,2026-05-11T02:22:29.221730+05:30
Ghaziabad,Uttar Pradesh,28.6692,77.4538,25.5,61,0.0,982.0,7.65,28.1,145,97.6,55.4,10.2,444.0,113.0,15.3,7,5,7,1,2026-05-11T02:22:29.221736+05:30
Faridabad,Haryana,28.4089,77.3178,26.6,58,0.0,983.0,7.7,25.6,662,705.9,116.9,16.3,498.0,111.0,18.4,4,5,7,1,2026-05-11T02:22:29.221742+05:30
Meerut,Uttar Pradesh,28.9845,77.7064,24.2,68,0.0,980.9,7.55,28.8,145,97.6,55.4,10.2,512.0,113.0,15.3,3,5,7,1,2026-05-11T02:22:29.221747+05:30
Agra,Uttar Pradesh,27.1767,78.0081,26.9,57,0.0,986.6,8.0,25.2,375,599.8,87.3,9.1,352.0,99.0,11.6,4,5,7,1,2026-05-11T02:22:29.221753+05:30
Varanasi,Uttar Pradesh,25.3176,82.9739,25.1,65,0.0,996.8,8.65,25.6,112,53.0,44.7,12.4,442.0,119.0,17.0,7,5,7,1,2026-05-11T02:22:29.221759+05:30
Prayagraj,Uttar Pradesh,25.4358,81.8463,26.6,51,0.0,995.0,8.55,27.0,117,53.6,46.2,16.2,403.0,100.0,14.9,4,5,7,0,2026-05-11T02:22:29.221767+05:30
Gorakhpur,Uttar Pradesh,26.7606,83.3732,23.9,68,0.0,997.7,8.5,31.0,100,51.2,44.4,13.4,454.0,105.0,12.6,3,5,7,1,2026-05-11T02:22:29.221773+05:30
Bareilly,Uttar Pradesh,28.367,79.4304,24.0,70,0.0,986.7,7.95,25.2,107,40.4,31.2,12.6,356.0,81.0,4.0,3,5,7,1,2026-05-11T02:22:29.221778+05:30
Aligarh,Uttar Pradesh,27.8974,78.088,25.6,59,0.0,984.6,7.8,29.2,187,269.2,64.7,10.1,395.0,104.0,14.9,4,5,7,1,2026-05-11T02:22:29.221784+05:30
Moradabad,Uttar Pradesh,28.8386,78.7733,24.2,68,0.0,983.4,7.75,26.3,126,68.0,55.1,19.3,541.0,85.0,9.4,3,5,7,1,2026-05-11T02:22:29.221790+05:30
Saharanpur,Uttar Pradesh,29.9637,77.546,24.1,73,0.0,975.5,7.4,32.0,150,89.6,66.6,29.4,572.0,48.0,10.7,3,5,7,1,2026-05-11T02:22:29.221796+05:30
Jhansi,Uttar Pradesh,25.4484,78.5685,26.8,54,0.0,976.6,8.45,31.3,113,75.7,37.5,4.5,350.0,107.0,8.3,4,5,7,1,2026-05-11T02:22:32.483483+05:30
Surat,Gujarat,21.1702,72.8311,30.1,60,0.0,1001.2,7.75,33.8,101,35.6,23.3,24.7,267.0,74.0,39.5,0,5,4,1,2026-05-11T02:22:32.483505+05:30
Vadodara,Gujarat,22.3072,73.1812,32.2,31,0.0,999.6,8.1,35.6,78,40.2,22.8,14.7,324.0,70.0,12.5,0,5,7,0,2026-05-11T02:22:32.483514+05:30
Rajkot,Gujarat,22.3039,70.8022,26.5,81,0.0,991.0,7.75,39.2,53,37.3,12.7,6.1,160.0,59.0,6.1,7,5,7,1,2026-05-11T02:22:32.483522+05:30
Thane,Maharashtra,19.2183,72.9781,28.4,75,0.0,1003.4,7.9,47.2,91,49.8,22.5,13.3,444.0,73.0,9.6,7,5,4,1,2026-05-11T02:22:32.483528+05:30
Nagpur,Maharashtra,21.1458,79.0882,30.4,36,0.0,970.1,8.95,34.9,94,69.2,46.2,26.8,350.0,80.0,16.9,0,5,7,0,2026-05-11T02:22:32.483535+05:30
Nashik,Maharashtra,19.9975,73.7898,28.6,35,0.0,941.7,8.2,44.6,98,44.2,27.5,23.2,253.0,84.0,20.5,4,5,7,0,2026-05-11T02:22:32.483541+05:30
Aurangabad,Maharashtra,19.8762,75.3433,31.7,24,0.0,940.4,9.05,43.2,68,31.0,17.6,13.8,220.0,87.0,9.6,0,5,7,0,2026-05-11T02:22:32.483547+05:30
Solapur,Maharashtra,17.6599,75.9064,31.0,38,0.0,953.7,9.1,31.3,72,33.1,22.9,12.9,278.0,78.0,8.7,0,5,7,0,2026-05-11T02:22:32.483553+05:30
Kolhapur,Maharashtra,16.705,74.2433,25.9,72,0.0,944.6,8.05,48.6,114,34.2,27.0,15.9,234.0,67.0,8.4,7,5,7,1,2026-05-11T02:22:32.483558+05:30
Goa,Goa,15.2993,74.124,27.5,94,0.0,994.6,8.9,36.4,82,55.3,37.6,16.8,386.0,58.0,5.1,7,5,7,1,2026-05-11T02:22:32.483564+05:30
Jodhpur,Rajasthan,26.2389,73.0243,32.4,17,0.0,978.8,8.4,36.0,77,117.1,27.4,14.8,239.0,59.0,5.5,0,5,7,0,2026-05-11T02:22:32.483570+05:30
Udaipur,Rajasthan,24.5854,73.7125,28.5,26,0.0,943.1,8.85,33.8,40,38.6,14.5,7.3,248.0,55.0,4.5,4,5,7,0,2026-05-11T02:22:32.483575+05:30
Kota,Rajasthan,25.2138,75.8648,29.7,39,0.0,975.8,8.4,23.8,92,86.4,35.3,4.6,334.0,108.0,10.4,4,5,7,0,2026-05-11T02:22:32.483581+05:30
Bikaner,Rajasthan,28.0229,73.3119,31.2,34,0.0,977.8,8.3,68.4,109,82.9,33.6,3.1,308.0,97.0,6.2,0,5,7,0,2026-05-11T02:22:32.483587+05:30
Ajmer,Rajasthan,26.4499,74.6399,28.3,46,0.0,952.1,8.35,40.0,103,132.7,41.1,5.9,381.0,89.0,5.9,4,5,7,0,2026-05-11T02:22:32.483592+05:30
Gwalior,Madhya Pradesh,26.2183,78.1828,27.0,53,0.0,981.9,8.25,25.9,125,114.3,41.0,4.5,338.0,114.0,8.1,4,5,7,1,2026-05-11T02:22:32.483597+05:30
Indore,Madhya Pradesh,22.7196,75.8577,30.4,24,0.0,945.0,8.7,38.5,85,67.5,34.3,4.7,296.0,122.0,18.5,0,5,7,0,2026-05-11T02:22:32.483603+05:30
Bhopal,Madhya Pradesh,23.2599,77.4126,28.5,42,0.0,950.7,8.7,41.4,72,65.2,27.9,3.2,307.0,113.0,5.0,4,5,7,0,2026-05-11T02:22:32.483609+05:30
Jabalpur,Madhya Pradesh,23.1815,79.9864,26.0,48,0.0,958.7,8.85,34.2,83,43.0,26.6,9.4,306.0,95.0,7.2,4,5,7,0,2026-05-11T02:22:32.483614+05:30
Ujjain,Madhya Pradesh,23.1765,75.7885,29.6,28,0.0,950.4,8.65,44.3,68,66.4,36.1,5.9,295.0,107.0,17.6,4,5,7,0,2026-05-11T02:22:32.483620+05:30
Visakhapatnam,Andhra Pradesh,17.6868,83.2185,26.2,90,0.0,1002.3,9.1,39.6,72,32.5,29.2,24.4,1055.0,27.0,9.5,7,5,4,1,2026-05-11T02:22:32.483625+05:30
Vijayawada,Andhra Pradesh,16.5062,80.648,27.8,80,0.0,1000.8,8.85,39.6,46,11.2,9.9,9.1,159.0,36.0,4.8,7,5,4,1,2026-05-11T02:22:32.483631+05:30
Guntur,Andhra Pradesh,16.3067,80.4365,27.6,80,0.0,1002.0,9.15,35.3,48,9.0,7.9,8.5,152.0,36.0,6.2,7,5,4,1,2026-05-11T02:22:32.483637+05:30
Nellore,Andhra Pradesh,14.4426,79.9865,26.4,92,0.0,1003.5,9.15,36.4,23,5.8,4.0,2.9,218.0,45.0,1.9,7,5,4,1,2026-05-11T02:22:32.483643+05:30
Kurnool,Andhra Pradesh,15.8281,78.0373,28.5,56,0.0,974.2,8.3,39.2,50,6.3,4.6,3.3,148.0,54.0,1.2,4,5,7,1,2026-05-11T02:22:32.483650+05:30
Kakinada,Andhra Pradesh,16.9891,82.2475,27.0,86,0.0,1005.8,9.05,41.0,27,8.1,5.3,1.3,158.0,58.0,0.7,7,5,4,1,2026-05-11T02:22:32.483656+05:30
Tirupati,Andhra Pradesh,13.6288,79.4192,24.6,92,0.0,988.6,9.2,40.7,50,15.1,13.9,25.5,369.0,11.0,7.9,3,5,7,1,2026-05-11T02:22:32.483661+05:30
Warangal,Telangana,17.9689,79.5941,26.7,75,0.0,976.6,9.15,42.8,63,9.1,8.3,8.0,169.0,53.0,9.5,7,5,7,1,2026-05-11T02:22:32.483667+05:30
Nizamabad,Telangana,18.6725,78.0941,28.0,52,0.0,961.5,9.15,34.6,77,31.8,24.3,7.9,239.0,93.0,6.8,4,5,7,1,2026-05-11T02:22:32.483672+05:30
Mysore,Karnataka,12.2958,76.6396,22.4,96,0.0,925.5,9.0,40.7,60,24.4,20.3,20.2,271.0,57.0,6.8,3,5,7,1,2026-05-11T02:22:32.483678+05:30
Mangalore,Karnataka,12.9141,74.856,26.6,96,0.0,1003.4,8.6,40.7,64,32.0,25.1,11.1,306.0,69.0,5.3,7,5,4,1,2026-05-11T02:22:32.483683+05:30
Hubli-Dharwad,Karnataka,15.3647,75.124,25.5,78,0.0,938.6,8.9,50.4,73,32.7,27.8,13.0,242.0,73.0,3.9,7,5,7,1,2026-05-11T02:22:32.483689+05:30
Belgaum,Karnataka,15.8497,74.4977,24.7,67,0.0,922.8,9.2,48.6,103,36.4,24.2,14.0,213.0,61.0,6.5,3,5,7,1,2026-05-11T02:22:35.741876+05:30
Coimbatore,Tamil Nadu,11.0168,76.9558,23.6,89,0.0,959.0,9.25,30.2,59,30.3,26.8,18.7,464.0,53.0,8.5,3,5,7,1,2026-05-11T02:22:35.741899+05:30
Madurai,Tamil Nadu,9.9252,78.1198,25.3,92,0.0,990.2,9.1,33.8,57,29.5,28.5,26.6,330.0,33.0,7.7,7,5,7,1,2026-05-11T02:22:35.741908+05:30
Trichy,Tamil Nadu,10.7905,78.7047,24.9,97,0.0,996.8,9.15,27.0,57,42.1,41.4,49.2,537.0,4.0,10.6,3,5,7,1,2026-05-11T02:22:35.741915+05:30
Salem,Tamil Nadu,11.6643,78.146,24.3,93,0.0,974.4,9.2,35.6,60,30.6,29.3,30.2,474.0,38.0,12.1,3,5,7,1,2026-05-11T02:22:35.741922+05:30
Tirunelveli,Tamil Nadu,8.7139,77.7567,26.4,88,0.0,1000.3,9.05,24.1,51,14.8,14.6,12.6,439.0,44.0,2.8,7,5,4,1,2026-05-11T02:22:35.741929+05:30
Vellore,Tamil Nadu,12.9165,79.1325,23.6,96,0.0,981.7,9.25,32.4,59,25.3,23.7,26.2,340.0,17.0,7.8,3,5,7,1,2026-05-11T02:22:35.741936+05:30
Erode,Tamil Nadu,11.341,77.7172,24.9,91,0.0,986.3,9.2,20.2,62,26.1,24.7,24.5,369.0,49.0,10.2,3,5,7,1,2026-05-11T02:22:35.741942+05:30
Kochi,Kerala,9.9312,76.2673,25.6,95,0.0,1006.0,8.95,30.6,66,24.0,23.5,21.1,339.0,38.0,5.8,7,5,4,1,2026-05-11T02:22:35.741948+05:30
Thiruvananthapuram,Kerala,8.5241,76.9366,24.6,98,0.0,1005.4,8.85,30.6,46,7.4,6.8,5.6,502.0,90.0,3.1,3,5,4,1,2026-05-11T02:22:35.741955+05:30
Kozhikode,Kerala,11.2588,75.7804,24.7,97,0.0,1005.0,8.9,33.1,49,17.3,12.3,4.0,350.0,103.0,3.3,3,5,4,1,2026-05-11T02:22:35.741961+05:30
Thrissur,Kerala,10.5276,76.2144,24.1,100,0.0,1004.5,8.95,27.7,65,25.1,24.6,16.9,421.0,56.0,4.4,3,5,4,1,2026-05-11T02:22:35.741968+05:30
Kannur,Kerala,11.8745,75.3704,27.0,87,0.0,1003.9,8.9,33.1,53,17.1,13.5,7.4,254.0,85.0,2.9,7,5,4,1,2026-05-11T02:22:35.741974+05:30
Patna,Bihar,25.5941,85.1376,24.1,79,0.0,1000.7,8.7,28.1,124,58.6,51.6,14.6,402.0,104.0,14.1,3,5,4,1,2026-05-11T02:22:35.741980+05:30
Gaya,Bihar,24.7914,85.0002,24.1,71,0.0,993.2,8.8,23.8,128,59.8,50.2,11.9,333.0,116.0,25.6,3,5,7,1,2026-05-11T02:22:35.741986+05:30
Muzaffarpur,Bihar,26.1209,85.3647,22.5,87,0.0,1001.2,8.7,27.4,127,58.2,52.3,16.9,504.0,85.0,12.5,3,5,4,1,2026-05-11T02:22:35.741991+05:30
Bhagalpur,Bihar,25.2425,87.0117,22.2,83,0.0,1002.5,8.6,40.3,136,61.9,56.9,13.8,456.0,120.0,16.7,3,5,4,1,2026-05-11T02:22:35.741997+05:30
Ranchi,Jharkhand,23.3441,85.3096,20.2,83,0.0,936.7,9.2,33.8,101,49.2,34.2,9.6,289.0,106.0,18.5,3,5,7,1,2026-05-11T02:22:35.742003+05:30
Jamshedpur,Jharkhand,22.8046,86.2029,22.5,88,0.0,990.9,9.0,30.6,119,54.9,45.9,28.3,341.0,57.0,28.9,3,5,7,1,2026-05-11T02:22:35.742009+05:30
Dhanbad,Jharkhand,23.7957,86.4304,23.4,87,0.0,979.8,8.95,30.2,160,110.6,101.5,63.1,461.0,44.0,77.0,3,5,7,1,2026-05-11T02:22:35.742014+05:30
Bokaro,Jharkhand,23.6693,86.1511,22.4,93,0.0,983.5,9.0,31.7,156,104.5,92.2,58.1,2124.0,52.0,67.6,3,5,7,1,2026-05-11T02:22:35.742020+05:30
Bhubaneswar,Odisha,20.2961,85.8245,25.3,90,0.0,1002.1,9.1,33.1,68,44.7,39.3,32.0,330.0,27.0,10.6,7,5,4,1,2026-05-11T02:22:35.742026+05:30
Cuttack,Odisha,20.4625,85.8828,25.0,92,0.0,1004.0,9.15,34.2,68,44.7,39.3,32.0,310.0,27.0,10.6,7,5,4,1,2026-05-11T02:22:35.742032+05:30
Rourkela,Odisha,22.2604,84.8536,23.4,88,0.0,984.7,8.95,43.6,120,61.5,44.4,16.1,377.0,98.0,57.0,3,5,7,1,2026-05-11T02:22:35.742038+05:30
Raipur,Chhattisgarh,21.2514,81.6296,28.1,42,0.0,971.7,9.0,29.5,108,38.1,28.7,13.0,276.0,97.0,4.7,4,5,7,0,2026-05-11T02:22:35.742044+05:30
Bhilai,Chhattisgarh,21.1938,81.3509,27.5,47,0.0,972.0,9.05,30.6,117,47.4,35.2,26.4,285.0,83.0,5.8,4,5,7,0,2026-05-11T02:22:35.742050+05:30
Guwahati,Assam,26.1158,91.7086,22.3,89,0.0,1003.0,7.6,25.9,99,35.0,29.2,7.4,319.0,66.0,1.3,3,5,4,1,2026-05-11T02:22:35.742056+05:30
Agartala,Tripura,23.8315,91.2868,22.6,96,0.0,1007.1,8.8,20.5,133,62.2,57.4,15.8,402.0,86.0,9.0,3,5,4,1,2026-05-11T02:22:35.742062+05:30
Shillong,Meghalaya,25.5788,91.8933,15.5,83,0.0,856.1,8.05,27.4,88,38.1,29.2,9.1,338.0,78.0,3.4,3,10,7,0,2026-05-11T02:22:35.742069+05:30
Imphal,Manipur,24.817,93.9368,19.0,95,0.1,923.2,8.35,35.6,99,64.5,56.8,43.2,489.0,10.0,6.2,6,10,7,1,2026-05-11T02:22:35.742075+05:30
Aizawl,Mizoram,23.7271,92.7176,17.3,98,0.0,891.9,8.75,31.3,105,38.9,31.3,6.9,432.0,70.0,1.0,3,10,7,1,2026-05-11T02:22:35.742081+05:30
Kohima,Nagaland,25.6701,94.1077,16.6,90,0.1,855.2,8.0,25.9,67,27.5,19.7,7.8,303.0,56.0,1.1,6,10,7,0,2026-05-11T02:22:35.742087+05:30
Gangtok,Sikkim,27.3314,88.6138,11.1,87,0.0,835.8,9.0,45.7,53,17.6,12.8,8.8,221.0,88.0,1.4,3,10,7,0,2026-05-11T02:22:35.742094+05:30
Siliguri,West Bengal,26.7271,88.3953,19.9,91,0.0,994.3,8.55,26.3,94,52.6,39.0,29.1,433.0,62.0,6.1,3,10,7,1,2026-05-11T02:22:39.001419+05:30
Durgapur,West Bengal,23.5204,87.3119,23.7,91,0.0,995.2,8.9,42.1,171,119.0,109.7,38.9,709.0,76.0,58.8,3,5,7,1,2026-05-11T02:22:39.001454+05:30
Asansol,West Bengal,23.6739,86.9524,23.4,92,0.0,993.7,8.95,25.9,162,101.3,93.1,39.4,1457.0,62.0,64.2,3,5,7,1,2026-05-11T02:22:39.001469+05:30
Pondicherry,Puducherry,11.9139,79.8145,25.9,93,0.0,1005.3,9.0,31.3,23,6.8,4.9,4.1,353.0,45.0,0.5,7,5,4,1,2026-05-11T02:22:39.001481+05:30
Port Blair,Andaman and Nicobar Islands,11.6234,92.7265,25.1,96,0.0,1004.7,9.05,32.0,27,3.6,2.4,0.2,134.0,67.0,0.1,7,5,4,1,2026-05-11T02:22:39.001491+05:30
Haridwar,Uttarakhand,29.9457,78.1642,22.2,77,0.0,973.7,7.45,33.1,137,76.8,61.0,30.0,383.0,36.0,6.8,3,5,7,1,2026-05-11T02:22:39.001501+05:30
Rishikesh,Uttarakhand,30.0869,78.2676,19.9,86,0.0,966.4,7.0,27.4,117,81.7,49.8,14.0,370.0,85.0,3.8,3,10,7,1,2026-05-11T02:22:39.001511+05:30
Nainital,Uttarakhand,29.3919,79.4542,13.0,84,0.0,805.3,5.45,31.7,98,54.5,44.2,22.6,288.0,66.0,5.6,3,10,3,0,2026-05-11T02:22:39.001521+05:30
Mussoorie,Uttarakhand,30.4599,78.0664,13.0,91,0.0,802.5,5.65,38.2,127,93.1,59.4,33.4,337.0,54.0,11.0,3,10,3,0,2026-05-11T02:22:39.001531+05:30
Dharamshala,Himachal Pradesh,32.219,76.3234,20.8,66,0.0,869.2,8.35,38.5,97,67.5,35.2,12.0,339.0,62.0,1.4,3,5,7,0,2026-05-11T02:22:39.001541+05:30
Dalhousie,Himachal Pradesh,32.5387,75.971,12.1,98,0.0,802.4,8.6,31.0,151,138.3,66.1,34.2,523.0,41.0,3.8,3,10,7,0,2026-05-11T02:22:39.001552+05:30
Patiala,Punjab,30.3398,76.3869,25.7,66,0.0,977.2,7.55,34.9,429,638.9,102.0,8.0,449.0,117.0,9.2,7,5,7,1,2026-05-11T02:22:39.001562+05:30
Bhatinda,Punjab,30.211,74.9455,28.8,50,0.0,981.8,8.25,55.1,421,560.7,118.0,6.7,409.0,118.0,11.1,4,5,7,1,2026-05-11T02:22:39.001572+05:30
Rohtak,Haryana,28.8955,76.6066,26.2,57,0.0,980.8,7.65,28.4,347,427.5,87.1,19.3,527.0,109.0,25.6,4,5,7,1,2026-05-11T02:22:39.001582+05:30
Panipat,Haryana,29.3909,76.9635,25.4,60,0.0,979.6,7.5,28.8,594,568.1,96.9,13.1,448.0,106.0,13.8,4,5,7,1,2026-05-11T02:22:39.001592+05:30
Mathura,Uttar Pradesh,27.4924,77.6737,26.1,59,0.0,985.6,7.95,26.6,377,659.4,99.7,9.4,355.0,95.0,10.5,4,5,7,1,2026-05-11T02:22:39.001601+05:30
Vrindavan,Uttar Pradesh,27.5823,77.7027,26.2,58,0.0,986.1,7.9,27.7,377,659.4,99.7,9.4,373.0,95.0,10.5,4,5,7,1,2026-05-11T02:22:39.001610+05:30
Ayodhya,Uttar Pradesh,26.7922,82.1998,24.6,65,0.0,995.4,8.3,33.5,116,50.6,45.8,20.9,415.0,78.0,10.2,3,5,7,1,2026-05-11T02:22:39.001620+05:30
Ratlam,Madhya Pradesh,23.3315,75.0367,29.5,29,0.0,951.3,8.55,34.9,66,57.0,32.9,5.4,325.0,100.0,13.4,4,5,7,0,2026-05-11T02:22:39.001630+05:30
Sagar,Madhya Pradesh,23.8388,78.7378,26.5,48,0.0,948.0,8.75,41.0,96,48.3,30.7,5.0,302.0,131.0,7.8,4,5,7,0,2026-05-11T02:22:39.001639+05:30
Satna,Madhya Pradesh,24.6005,80.8322,25.8,49,0.0,969.5,8.75,32.0,148,44.2,31.3,7.9,352.0,133.0,10.9,4,5,7,0,2026-05-11T02:22:39.001649+05:30
Akola,Maharashtra,20.7002,77.0082,29.6,32,0.0,970.5,8.9,44.6,86,65.4,39.9,36.4,365.0,29.0,6.8,4,5,7,0,2026-05-11T02:22:39.001660+05:30
Amravati,Maharashtra,20.9374,77.7796,29.4,34,0.0,963.6,8.9,43.2,88,67.3,40.7,39.2,315.0,29.0,6.4,4,5,7,0,2026-05-11T02:22:39.001670+05:30
Latur,Maharashtra,18.4088,76.5604,28.7,42,0.0,936.5,9.1,40.0,80,40.0,27.8,16.1,293.0,75.0,6.4,4,5,7,0,2026-05-11T02:22:39.001677+05:30
Nanded,Maharashtra,19.1383,77.3091,29.5,40,0.0,965.0,9.0,34.2,85,40.5,28.8,14.7,301.0,71.0,5.5,4,5,7,0,2026-05-11T02:22:39.001683+05:30
Gulbarga,Karnataka,17.3297,76.8343,29.2,45,0.0,956.0,9.0,34.2,64,34.7,22.6,10.7,289.0,84.0,8.9,4,5,7,0,2026-05-11T02:22:39.001689+05:30
Bidar,Karnataka,17.9104,77.5199,26.8,52,0.0,932.6,9.15,34.2,70,31.2,24.0,10.7,245.0,84.0,6.6,4,5,7,1,2026-05-11T02:22:39.001696+05:30
Hospet,Karnataka,15.2689,76.3909,27.5,51,0.0,953.5,9.2,31.7,66,31.2,22.8,10.4,213.0,80.0,7.4,4,5,7,1,2026-05-11T02:22:39.001702+05:30
Tirupur,Tamil Nadu,11.1085,77.3411,24.8,88,0.0,972.5,9.25,29.5,68,32.6,30.2,24.4,383.0,60.0,11.6,3,5,7,1,2026-05-11T02:22:39.001709+05:30
Alappuzha,Kerala,9.4981,76.3388,25.6,96,0.0,1006.0,8.9,32.4,57,17.5,16.8,15.4,202.0,61.0,5.2,7,5,4,1,2026-05-11T02:22:39.001715+05:30
Munnar,Kerala,10.0889,77.0595,15.2,88,0.0,852.4,9.45,22.0,38,13.9,12.8,7.3,228.0,56.0,2.2,3,10,7,0,2026-05-11T02:22:39.001722+05:30
Silchar,Assam,24.8333,92.7789,23.6,95,0.0,1006.2,8.6,22.7,151,73.3,62.6,14.3,635.0,69.0,9.0,3,5,4,1,2026-05-11T02:22:39.001728+05:30
Dibrugarh,Assam,27.4728,94.912,21.6,97,0.8,998.1,5.85,24.1,80,25.1,22.1,13.2,283.0,49.0,1.3,6,5,3,1,2026-05-11T02:22:39.001734+05:30
