city,state,latitude,longitude,temp,humidity,rain,pressure,uv_index,wind_gusts,aqi,pm10,pm2_5,no2,co,o3,so2,mosquito_risk,arthritis_risk,migraine_risk,frizz_risk,updated_at
Delhi,Delhi,28.6139,77.209,21.6,77,0.0,983.5,7.55,22.0,122,91.7,74.3,68.0,1059.0,16.0,28.1,3,5,7,1,2026-05-06T05:21:08.170555+05:30
Mumbai,Maharashtra,19.076,72.8777,27.0,81,0.0,1007.6,7.85,46.8,78,67.8,25.3,9.0,419.0,67.0,35.4,7,5,4,1,2026-05-06T05:21:08.170598+05:30
Bangalore,Karnataka,12.9716,77.5946,22.8,77,0.0,910.1,9.55,32.8,110,54.6,40.6,44.5,422.0,43.0,14.5,3,5,7,1,2026-05-06T05:21:08.170614+05:30
Hyderabad,Telangana,17.385,78.4867,25.3,82,0.0,952.0,9.3,37.8,80,32.1,25.3,10.2,265.0,74.0,6.1,7,5,7,1,2026-05-06T05:21:08.170625+05:30
Chennai,Tamil Nadu,13.0827,80.2707,28.5,79,0.0,1005.0,9.25,42.1,61,15.5,10.6,3.7,216.0,85.0,2.8,7,5,4,1,2026-05-06T05:21:08.170634+05:30
Kolkata,West Bengal,22.5726,88.3639,25.5,93,0.0,1006.2,8.9,29.5,86,41.9,37.8,29.3,313.0,20.0,9.0,7,5,4,1,2026-05-06T05:21:08.170648+05:30
Pune,Maharashtra,18.5204,73.8567,21.7,93,0.0,946.8,8.5,58.3,62,48.0,23.6,18.3,212.0,40.0,17.0,3,5,7,1,2026-05-06T05:21:08.170656+05:30
Ahmedabad,Gujarat,23.0225,72.5714,27.2,78,0.0,1001.1,8.1,26.6,88,65.7,30.9,16.3,213.0,30.0,10.5,7,5,4,1,2026-05-06T05:21:08.170667+05:30
Jaipur,Rajasthan,26.9124,75.7873,21.6,73,0.0,959.4,8.1,31.7,118,156.9,44.6,10.8,470.0,78.0,7.3,3,5,7,1,2026-05-06T05:21:08.170675+05:30
Lucknow,Uttar Pradesh,26.8467,80.9462,20.5,94,0.0,993.9,8.05,27.4,121,78.9,62.2,36.5,662.0,31.0,16.1,3,5,7,1,2026-05-06T05:21:08.170683+05:30
Kanpur,Uttar Pradesh,26.4499,80.3319,20.1,97,0.0,992.2,8.05,19.8,118,78.0,53.8,26.0,688.0,48.0,12.1,3,5,7,1,2026-05-06T05:21:08.170691+05:30
Chandigarh,Chandigarh,30.7333,76.7794,18.9,66,0.0,969.0,7.55,36.4,69,45.8,25.4,17.7,349.0,44.0,2.2,3,5,7,0,2026-05-06T05:21:08.170698+05:30
Srinagar,Jammu and Kashmir,34.0837,74.7973,6.4,99,0.0,839.6,8.65,27.0,74,37.6,33.5,22.8,373.0,29.0,0.8,3,10,7,0,2026-05-06T05:21:08.170707+05:30
Jammu,Jammu and Kashmir,32.7266,74.857,18.1,61,0.0,972.8,8.25,29.9,60,22.1,18.2,15.0,250.0,39.0,1.9,3,5,7,0,2026-05-06T05:21:08.170714+05:30
Amritsar,Punjab,31.634,74.8723,19.4,78,0.0,981.0,8.15,31.3,98,100.1,55.1,23.0,531.0,49.0,7.7,3,5,7,0,2026-05-06T05:21:08.170722+05:30
Ludhiana,Punjab,30.901,75.8573,18.7,93,0.0,979.6,7.8,29.9,117,150.9,49.0,17.1,469.0,45.0,5.6,3,10,7,1,2026-05-06T05:21:08.170729+05:30
Jalandhar,Punjab,31.326,75.5762,18.2,91,0.0,980.5,7.95,32.0,110,133.2,49.4,16.0,716.0,49.0,8.9,3,10,7,1,2026-05-06T05:21:08.170738+05:30
Dehradun,Uttarakhand,30.6284,78.0322,7.0,99,0.0,825.2,7.45,34.9,57,51.8,15.6,20.0,231.0,36.0,0.3,3,10,7,0,2026-05-06T05:21:08.170748+05:30
Shimla,Himachal Pradesh,31.1048,77.1734,6.1,79,0.0,779.3,7.5,42.5,60,68.5,23.3,20.6,205.0,42.0,0.1,3,5,7,0,2026-05-06T05:21:08.170756+05:30
Manali,Himachal Pradesh,32.2396,77.1887,4.3,56,0.0,811.4,9.5,40.7,80,3.7,3.3,11.6,226.0,131.0,0.0,0,5,7,1,2026-05-06T05:21:08.170763+05:30
Gurgaon,Haryana,28.4595,77.0266,20.7,87,0.0,981.7,7.65,24.8,165,123.4,79.4,55.4,1231.0,27.0,34.0,3,5,7,1,2026-05-06T05:21:08.170770+05:30
Noida,Uttar Pradesh,28.5355,77.391,20.2,83,0.0,984.8,7.55,20.5,165,123.4,79.4,55.4,996.0,27.0,34.0,3,5,7,1,2026-05-06T05:21:08.170777+05:30
Ghaziabad,Uttar Pradesh,28.6692,77.4538,19.5,82,0.0,983.0,7.55,24.1,106,94.1,66.6,32.5,626.0,42.0,17.3,3,10,7,1,2026-05-06T05:21:08.170784+05:30
Faridabad,Haryana,28.4089,77.3178,21.1,80,0.0,984.1,7.6,19.4,165,123.4,79.4,55.4,877.0,27.0,34.0,3,5,7,1,2026-05-06T05:21:08.170791+05:30
Meerut,Uttar Pradesh,28.9845,77.7064,18.8,87,0.0,981.7,7.45,23.4,106,94.1,66.6,32.5,496.0,42.0,17.3,3,10,7,1,2026-05-06T05:21:08.170798+05:30
Agra,Uttar Pradesh,27.1767,78.0081,21.2,91,0.0,988.2,7.9,20.9,220,138.8,69.4,24.0,560.0,27.0,16.9,3,5,7,1,2026-05-06T05:21:08.170805+05:30
Varanasi,Uttar Pradesh,25.3176,82.9739,22.0,95,0.0,998.1,8.55,26.3,150,83.6,67.1,35.0,367.0,45.0,21.2,3,5,7,1,2026-05-06T05:21:08.170812+05:30
Prayagraj,Uttar Pradesh,25.4358,81.8463,21.5,98,0.0,996.4,8.45,31.0,130,70.3,56.6,27.4,469.0,29.0,11.6,3,5,7,1,2026-05-06T05:21:08.170821+05:30
Gorakhpur,Uttar Pradesh,26.7606,83.3732,20.6,92,0.0,998.4,8.45,29.2,103,68.2,62.6,48.5,368.0,19.0,13.3,3,5,7,1,2026-05-06T05:21:08.170828+05:30
Bareilly,Uttar Pradesh,28.367,79.4304,19.9,86,0.0,987.1,7.85,24.1,118,101.3,64.3,32.8,448.0,47.0,13.0,3,10,7,1,2026-05-06T05:21:08.170835+05:30
Aligarh,Uttar Pradesh,27.8974,78.088,21.1,87,0.0,986.0,7.7,24.5,151,98.0,70.1,29.9,493.0,32.0,15.6,3,5,7,1,2026-05-06T05:21:08.170843+05:30
Moradabad,Uttar Pradesh,28.8386,78.7733,18.7,84,0.0,983.8,7.65,24.1,132,97.8,76.8,43.4,444.0,25.0,14.7,3,10,7,0,2026-05-06T05:21:08.170850+05:30
Saharanpur,Uttar Pradesh,29.9637,77.546,16.9,93,0.0,975.8,7.25,24.5,89,80.1,49.1,36.0,455.0,16.0,10.4,3,10,7,0,2026-05-06T05:21:08.170856+05:30
Jhansi,Uttar Pradesh,25.4484,78.5685,21.5,86,0.0,978.0,8.35,30.6,109,49.1,35.2,6.2,402.0,66.0,7.7,3,5,7,1,2026-05-06T05:21:11.549222+05:30
Surat,Gujarat,21.1702,72.8311,27.0,90,0.0,1005.8,7.7,34.9,83,45.3,25.3,27.5,296.0,41.0,39.6,7,5,4,1,2026-05-06T05:21:11.549253+05:30
Vadodara,Gujarat,22.3072,73.1812,26.5,89,0.0,1003.6,8.05,25.9,77,33.8,21.0,19.2,300.0,38.0,26.0,7,5,4,1,2026-05-06T05:21:11.549263+05:30
Rajkot,Gujarat,22.3039,70.8022,25.2,94,0.0,993.3,7.7,47.5,67,47.6,16.1,6.2,171.0,51.0,6.8,7,5,7,1,2026-05-06T05:21:11.549271+05:30
Thane,Maharashtra,19.2183,72.9781,26.0,88,0.0,1007.0,7.9,42.5,78,67.8,25.3,9.0,342.0,67.0,35.4,7,5,4,1,2026-05-06T05:21:11.549279+05:30
Nagpur,Maharashtra,21.1458,79.0882,27.6,45,0.0,971.8,8.9,35.6,71,33.2,25.4,10.4,269.0,59.0,6.0,4,5,7,0,2026-05-06T05:21:11.549287+05:30
Nashik,Maharashtra,19.9975,73.7898,21.8,85,0.0,944.4,8.2,41.4,66,61.5,26.0,13.5,177.0,38.0,0.9,3,5,7,1,2026-05-06T05:21:11.549295+05:30
Aurangabad,Maharashtra,19.8762,75.3433,26.5,38,0.0,942.8,9.05,36.7,62,36.1,16.1,10.2,217.0,51.0,2.1,4,5,7,0,2026-05-06T05:21:11.549302+05:30
Solapur,Maharashtra,17.6599,75.9064,27.3,52,0.0,955.4,9.05,42.5,58,25.8,17.1,6.4,191.0,83.0,8.3,4,5,7,1,2026-05-06T05:21:11.549310+05:30
Kolhapur,Maharashtra,16.705,74.2433,22.0,94,0.0,946.1,8.95,45.0,62,38.1,20.6,11.3,202.0,32.0,1.1,3,5,7,1,2026-05-06T05:21:11.549317+05:30
Goa,Goa,15.2993,74.124,25.8,90,0.0,996.2,8.9,39.2,66,47.0,22.7,9.3,194.0,42.0,1.6,7,5,7,1,2026-05-06T05:21:11.549324+05:30
Jodhpur,Rajasthan,26.2389,73.0243,25.6,38,0.0,982.4,8.3,28.1,91,79.9,25.9,3.0,278.0,90.0,4.7,4,5,7,0,2026-05-06T05:21:11.549330+05:30
Udaipur,Rajasthan,24.5854,73.7125,22.6,60,0.0,945.4,8.75,22.0,77,111.5,29.3,5.1,200.0,58.0,3.9,0,5,7,0,2026-05-06T05:21:11.549337+05:30
Kota,Rajasthan,25.2138,75.8648,24.1,65,0.0,978.6,8.3,27.7,82,37.6,24.3,7.4,425.0,65.0,4.6,3,5,7,1,2026-05-06T05:21:11.549344+05:30
Bikaner,Rajasthan,28.0229,73.3119,23.5,54,0.0,982.1,8.25,28.8,79,55.2,27.1,4.2,342.0,79.0,8.5,0,5,7,0,2026-05-06T05:21:11.549351+05:30
Ajmer,Rajasthan,26.4499,74.6399,21.7,53,0.0,953.9,8.25,36.7,69,96.6,30.9,6.4,311.0,74.0,4.5,0,5,7,0,2026-05-06T05:21:11.549357+05:30
Gwalior,Madhya Pradesh,26.2183,78.1828,21.5,86,0.0,983.3,8.15,22.3,101,78.0,39.3,13.7,398.0,49.0,6.3,3,5,7,1,2026-05-06T05:21:11.549364+05:30
Indore,Madhya Pradesh,22.7196,75.8577,25.8,46,0.0,947.4,8.6,34.6,71,75.9,34.5,13.3,270.0,61.0,7.1,4,5,7,0,2026-05-06T05:21:11.549370+05:30
Bhopal,Madhya Pradesh,23.2599,77.4126,23.9,59,0.0,953.2,8.65,36.0,69,30.2,22.3,3.8,310.0,91.0,4.6,0,5,7,0,2026-05-06T05:21:11.549376+05:30
Jabalpur,Madhya Pradesh,23.1815,79.9864,23.0,77,0.0,960.7,8.8,35.6,83,47.3,36.3,18.1,243.0,67.0,8.9,3,5,7,1,2026-05-06T05:21:11.549383+05:30
Ujjain,Madhya Pradesh,23.1765,75.7885,25.0,43,0.0,953.1,8.55,32.4,77,91.7,43.5,14.2,292.0,59.0,6.7,4,5,7,0,2026-05-06T05:21:11.549390+05:30
Visakhapatnam,Andhra Pradesh,17.6868,83.2185,25.1,97,0.0,1002.6,9.15,28.4,78,35.7,29.3,35.3,750.0,24.0,4.0,7,5,4,1,2026-05-06T05:21:11.549397+05:30
Vijayawada,Andhra Pradesh,16.5062,80.648,28.3,88,0.0,1001.2,9.2,43.2,71,18.0,14.7,7.5,208.0,60.0,4.0,7,5,4,1,2026-05-06T05:21:11.549403+05:30
Guntur,Andhra Pradesh,16.3067,80.4365,28.3,89,0.0,1002.4,9.25,39.2,75,18.0,14.7,6.4,194.0,66.0,3.3,7,5,4,1,2026-05-06T05:21:11.549410+05:30
Nellore,Andhra Pradesh,14.4426,79.9865,28.0,87,0.0,1003.8,9.25,39.2,72,13.9,10.2,7.7,188.0,67.0,9.0,7,5,4,1,2026-05-06T05:21:11.549417+05:30
Kurnool,Andhra Pradesh,15.8281,78.0373,28.9,63,0.0,975.1,8.95,40.7,77,27.4,23.9,8.2,242.0,79.0,7.4,7,5,7,1,2026-05-06T05:21:11.549425+05:30
Kakinada,Andhra Pradesh,16.9891,82.2475,26.8,98,0.0,1006.2,9.15,31.7,57,17.8,10.9,2.5,255.0,54.0,0.5,7,5,4,1,2026-05-06T05:21:11.549431+05:30
Tirupati,Andhra Pradesh,13.6288,79.4192,27.4,81,0.0,989.4,9.3,30.2,102,17.4,13.8,18.4,199.0,34.0,8.2,7,5,7,1,2026-05-06T05:21:11.549437+05:30
Warangal,Telangana,17.9689,79.5941,26.3,82,0.0,977.4,9.2,41.0,81,20.9,19.1,10.3,239.0,55.0,10.0,7,5,7,1,2026-05-06T05:21:11.549443+05:30
Nizamabad,Telangana,18.6725,78.0941,26.6,57,0.0,963.4,9.05,35.6,89,44.2,36.3,13.1,305.0,73.0,6.4,4,5,7,1,2026-05-06T05:21:11.549450+05:30
Mysore,Karnataka,12.2958,76.6396,23.1,86,0.0,926.4,9.4,29.2,69,38.4,22.5,13.6,242.0,41.0,2.4,3,5,7,1,2026-05-06T05:21:11.549457+05:30
Mangalore,Karnataka,12.9141,74.856,27.4,85,0.0,1005.0,9.05,53.6,66,38.8,20.5,6.8,217.0,46.0,2.0,7,5,4,1,2026-05-06T05:21:11.549463+05:30
Hubli-Dharwad,Karnataka,15.3647,75.124,21.2,95,0.0,939.3,8.8,41.8,58,40.0,20.7,17.8,185.0,23.0,2.5,3,5,7,1,2026-05-06T05:21:11.549470+05:30
Belgaum,Karnataka,15.8497,74.4977,20.6,97,0.0,923.5,8.6,48.6,59,47.6,20.4,10.2,155.0,38.0,1.4,3,5,7,1,2026-05-06T05:21:14.918090+05:30
Coimbatore,Tamil Nadu,11.0168,76.9558,23.6,93,0.0,959.2,9.35,26.3,64,31.0,20.0,16.8,276.0,39.0,4.0,3,5,7,1,2026-05-06T05:21:14.918124+05:30
Madurai,Tamil Nadu,9.9252,78.1198,26.0,87,0.0,990.6,8.8,36.0,85,40.5,28.8,30.8,357.0,15.0,6.0,7,5,7,1,2026-05-06T05:21:14.918135+05:30
Trichy,Tamil Nadu,10.7905,78.7047,26.0,89,0.0,997.6,9.15,27.0,90,35.0,21.2,8.8,367.0,67.0,2.7,7,5,7,1,2026-05-06T05:21:14.918144+05:30
Salem,Tamil Nadu,11.6643,78.146,26.5,70,0.0,975.2,9.25,42.8,95,41.9,30.7,17.2,410.0,63.0,11.7,7,5,7,1,2026-05-06T05:21:14.918152+05:30
Tirunelveli,Tamil Nadu,8.7139,77.7567,27.9,71,0.0,1000.4,7.95,40.3,66,15.3,12.1,5.9,220.0,56.0,1.8,7,5,4,1,2026-05-06T05:21:14.918160+05:30
Vellore,Tamil Nadu,12.9165,79.1325,26.8,85,0.0,982.6,9.3,34.9,110,38.5,34.9,15.7,237.0,46.0,8.1,7,5,7,1,2026-05-06T05:21:14.918168+05:30
Erode,Tamil Nadu,11.341,77.7172,27.2,66,0.0,987.0,9.25,30.6,77,38.0,26.5,21.8,340.0,45.0,5.1,7,5,7,1,2026-05-06T05:21:14.918175+05:30
Kochi,Kerala,9.9312,76.2673,26.3,96,0.0,1006.5,6.25,31.3,60,30.9,19.0,13.1,206.0,48.0,3.8,7,5,4,1,2026-05-06T05:21:14.918183+05:30
Thiruvananthapuram,Kerala,8.5241,76.9366,24.0,94,0.0,1005.7,8.7,31.0,55,23.9,11.1,3.2,242.0,81.0,1.6,3,5,4,1,2026-05-06T05:21:14.918191+05:30
Kozhikode,Kerala,11.2588,75.7804,26.7,86,0.0,1005.4,9.05,39.6,62,41.2,19.0,3.1,335.0,65.0,1.1,7,5,4,1,2026-05-06T05:21:14.918198+05:30
Thrissur,Kerala,10.5276,76.2144,25.3,92,0.0,1004.7,8.9,31.3,64,36.9,24.2,17.6,392.0,34.0,2.9,7,5,4,1,2026-05-06T05:21:14.918206+05:30
Kannur,Kerala,11.8745,75.3704,27.6,82,0.0,1004.8,9.05,55.8,65,32.1,17.6,7.3,244.0,40.0,1.9,7,5,4,1,2026-05-06T05:21:14.918213+05:30
Patna,Bihar,25.5941,85.1376,22.4,88,0.0,1001.7,8.7,35.6,145,64.7,49.2,21.2,468.0,90.0,15.7,3,5,4,1,2026-05-06T05:21:14.918220+05:30
Gaya,Bihar,24.7914,85.0002,22.9,86,0.0,994.4,8.75,38.9,130,64.0,53.8,18.5,275.0,73.0,11.4,3,5,7,1,2026-05-06T05:21:14.918228+05:30
Muzaffarpur,Bihar,26.1209,85.3647,21.4,91,0.0,1001.5,8.7,45.7,140,55.9,43.0,16.0,309.0,91.0,13.3,3,5,4,1,2026-05-06T05:21:14.918234+05:30
Bhagalpur,Bihar,25.2425,87.0117,22.8,88,0.0,1001.9,8.7,38.9,106,52.2,49.0,15.5,362.0,73.0,25.4,3,5,4,1,2026-05-06T05:21:14.918240+05:30
Ranchi,Jharkhand,23.3441,85.3096,21.0,83,0.0,936.4,9.2,34.9,101,49.2,37.3,7.3,245.0,100.0,15.1,3,5,7,1,2026-05-06T05:21:14.918247+05:30
Jamshedpur,Jharkhand,22.8046,86.2029,22.2,96,0.0,990.7,9.0,41.8,99,52.0,41.1,32.1,400.0,30.0,28.2,3,5,7,1,2026-05-06T05:21:14.918253+05:30
Dhanbad,Jharkhand,23.7957,86.4304,22.9,84,0.0,979.5,8.95,32.8,154,100.4,88.7,74.0,1527.0,10.0,68.3,3,5,7,1,2026-05-06T05:21:14.918260+05:30
Bokaro,Jharkhand,23.6693,86.1511,22.4,83,0.0,983.4,9.0,42.8,153,97.8,78.0,44.5,887.0,59.0,31.6,3,5,7,1,2026-05-06T05:21:14.918269+05:30
Bhubaneswar,Odisha,20.2961,85.8245,24.6,99,0.0,1002.2,9.1,35.3,46,22.1,17.9,14.0,212.0,31.0,5.1,3,5,4,1,2026-05-06T05:21:14.918276+05:30
Cuttack,Odisha,20.4625,85.8828,24.8,99,0.0,1004.3,9.15,33.8,46,22.1,17.9,14.0,207.0,31.0,5.1,3,5,4,1,2026-05-06T05:21:14.918283+05:30
Rourkela,Odisha,22.2604,84.8536,23.7,90,0.0,984.8,8.95,43.6,107,60.8,47.8,18.3,469.0,64.0,44.3,3,5,7,1,2026-05-06T05:21:14.918289+05:30
Raipur,Chhattisgarh,21.2514,81.6296,26.3,57,0.0,974.2,9.0,34.6,112,44.5,37.1,23.4,293.0,69.0,7.3,4,5,7,1,2026-05-06T05:21:14.918296+05:30
Bhilai,Chhattisgarh,21.1938,81.3509,25.9,65,0.0,974.5,9.0,27.7,119,53.0,45.3,44.0,358.0,44.0,9.7,7,5,7,1,2026-05-06T05:21:14.918303+05:30
Guwahati,Assam,26.1158,91.7086,21.4,91,0.0,1002.8,8.65,31.7,76,31.2,26.7,9.0,251.0,57.0,1.0,3,5,4,1,2026-05-06T05:21:14.918310+05:30
Agartala,Tripura,23.8315,91.2868,22.6,93,0.0,1007.1,8.8,19.8,89,29.9,27.4,23.2,322.0,14.0,2.0,3,5,4,1,2026-05-06T05:21:14.918316+05:30
Shillong,Meghalaya,25.5788,91.8933,14.3,92,0.0,855.5,8.9,27.7,72,39.5,33.3,8.9,259.0,65.0,0.2,3,10,7,0,2026-05-06T05:21:14.918323+05:30
Imphal,Manipur,24.817,93.9368,18.4,93,0.0,923.2,9.2,28.4,83,43.4,34.5,11.9,298.0,38.0,1.6,3,10,7,1,2026-05-06T05:21:14.918330+05:30
Aizawl,Mizoram,23.7271,92.7176,15.7,98,0.0,891.5,9.05,25.2,66,30.7,23.0,14.0,280.0,12.0,0.1,3,10,7,0,2026-05-06T05:21:14.918337+05:30
Kohima,Nagaland,25.6701,94.1077,14.9,91,0.0,854.1,9.15,30.6,71,49.9,32.4,8.7,245.0,50.0,0.7,3,10,7,0,2026-05-06T05:21:14.918343+05:30
Gangtok,Sikkim,27.3314,88.6138,11.7,84,0.0,835.8,8.85,38.9,52,21.8,17.5,18.3,365.0,49.0,0.9,3,10,7,0,2026-05-06T05:21:14.918350+05:30
Siliguri,West Bengal,26.7271,88.3953,20.8,91,0.0,993.9,8.6,21.2,87,58.0,47.1,27.8,969.0,51.0,4.7,3,5,7,1,2026-05-06T05:21:18.308636+05:30
Durgapur,West Bengal,23.5204,87.3119,23.0,93,0.0,995.1,8.9,29.2,133,51.3,47.8,40.8,791.0,25.0,50.5,3,5,7,1,2026-05-06T05:21:18.308668+05:30
Asansol,West Bengal,23.6739,86.9524,22.1,93,0.0,993.3,8.95,35.6,126,57.3,52.0,46.8,294.0,21.0,55.8,3,5,7,1,2026-05-06T05:21:18.308679+05:30
Pondicherry,Puducherry,11.9139,79.8145,27.2,91,0.0,1006.3,8.75,37.8,58,15.0,9.4,1.7,241.0,88.0,0.6,7,5,4,1,2026-05-06T05:21:18.308687+05:30
Port Blair,Andaman and Nicobar Islands,11.6234,92.7265,27.5,86,0.0,1005.4,8.35,36.0,29,6.6,5.3,0.3,168.0,64.0,2.2,7,5,4,1,2026-05-06T05:21:18.308696+05:30
Haridwar,Uttarakhand,29.9457,78.1642,17.4,79,0.0,974.1,7.35,24.5,71,48.8,31.9,25.9,231.0,11.0,3.2,3,5,7,0,2026-05-06T05:21:18.308704+05:30
Rishikesh,Uttarakhand,30.0869,78.2676,14.6,92,0.0,966.5,7.45,23.4,64,69.4,28.8,16.8,270.0,42.0,2.4,3,10,7,0,2026-05-06T05:21:18.308712+05:30
Nainital,Uttarakhand,29.3919,79.4542,9.3,70,0.0,801.8,6.8,35.3,67,44.7,25.3,19.7,191.0,45.0,2.9,3,5,7,0,2026-05-06T05:21:18.308720+05:30
Mussoorie,Uttarakhand,30.4599,78.0664,9.5,67,0.0,799.0,7.3,33.1,64,51.2,24.7,21.5,190.0,32.0,3.8,3,5,7,0,2026-05-06T05:21:18.308727+05:30
Dharamshala,Himachal Pradesh,32.219,76.3234,14.2,65,0.0,867.1,8.15,42.5,41,5.1,3.3,9.3,202.0,59.0,0.0,3,5,7,0,2026-05-06T05:21:18.308734+05:30
Dalhousie,Himachal Pradesh,32.5387,75.971,5.1,88,0.0,798.0,8.3,39.2,58,19.2,14.3,24.2,284.0,20.0,0.4,3,10,7,0,2026-05-06T05:21:18.308741+05:30
Patiala,Punjab,30.3398,76.3869,18.9,91,0.0,978.9,7.45,40.0,258,104.5,44.2,17.4,458.0,67.0,5.6,3,10,7,1,2026-05-06T05:21:18.308748+05:30
Bhatinda,Punjab,30.211,74.9455,20.7,66,0.0,984.2,8.1,24.5,152,374.4,78.5,10.5,491.0,72.0,5.2,3,5,7,0,2026-05-06T05:21:18.308755+05:30
Rohtak,Haryana,28.8955,76.6066,19.9,82,0.0,982.2,7.55,29.2,151,104.8,77.5,55.9,732.0,24.0,31.9,3,10,7,1,2026-05-06T05:21:18.308762+05:30
Panipat,Haryana,29.3909,76.9635,18.1,93,0.0,980.8,7.4,25.2,483,143.9,68.7,30.3,651.0,40.0,11.9,3,10,7,1,2026-05-06T05:21:18.308769+05:30
Mathura,Uttar Pradesh,27.4924,77.6737,20.8,83,0.0,987.1,7.85,24.1,167,104.8,60.3,24.9,520.0,33.0,10.5,3,5,7,1,2026-05-06T05:21:18.308775+05:30
Vrindavan,Uttar Pradesh,27.5823,77.7027,20.8,82,0.0,987.6,7.8,23.8,167,104.8,60.3,24.9,518.0,33.0,10.5,3,5,7,1,2026-05-06T05:21:18.308782+05:30
Ayodhya,Uttar Pradesh,26.7922,82.1998,20.8,98,0.0,995.6,8.2,19.4,101,72.9,61.9,35.3,518.0,25.0,10.4,3,5,7,1,2026-05-06T05:21:18.308789+05:30
Ratlam,Madhya Pradesh,23.3315,75.0367,24.3,49,0.0,953.5,8.5,31.7,74,104.8,36.3,6.7,264.0,77.0,4.3,0,5,7,0,2026-05-06T05:21:18.308796+05:30
Sagar,Madhya Pradesh,23.8388,78.7378,21.6,79,0.0,949.2,8.65,34.2,79,43.1,29.5,9.6,262.0,82.0,7.0,3,5,7,1,2026-05-06T05:21:18.308802+05:30
Satna,Madhya Pradesh,24.6005,80.8322,20.2,98,0.0,970.8,8.7,42.5,119,66.4,52.2,31.5,357.0,26.0,7.6,3,5,7,1,2026-05-06T05:21:18.308809+05:30
Akola,Maharashtra,20.7002,77.0082,28.0,38,0.0,973.8,8.85,33.1,61,29.2,16.2,6.7,196.0,67.0,7.7,4,5,7,0,2026-05-06T05:21:18.308817+05:30
Amravati,Maharashtra,20.9374,77.7796,28.5,31,0.0,965.6,8.85,37.4,64,33.3,17.7,9.7,183.0,56.0,6.2,4,5,7,0,2026-05-06T05:21:18.308824+05:30
Latur,Maharashtra,18.4088,76.5604,27.5,34,0.0,938.3,8.95,44.3,66,26.0,16.1,10.3,183.0,58.0,6.3,4,5,7,0,2026-05-06T05:21:18.308831+05:30
Nanded,Maharashtra,19.1383,77.3091,27.2,40,0.0,967.4,9.0,28.4,66,40.3,20.7,16.4,232.0,59.0,8.8,4,5,7,0,2026-05-06T05:21:18.308837+05:30
Gulbarga,Karnataka,17.3297,76.8343,26.6,44,0.0,956.2,9.15,26.6,62,26.5,18.2,15.4,217.0,45.0,5.0,4,5,7,0,2026-05-06T05:21:18.308844+05:30
Bidar,Karnataka,17.9104,77.5199,25.5,49,0.0,934.3,8.7,29.2,77,40.2,32.0,16.6,246.0,65.0,6.6,4,5,7,0,2026-05-06T05:21:18.308850+05:30
Hospet,Karnataka,15.2689,76.3909,24.2,88,0.0,954.4,8.95,30.2,67,28.8,15.7,13.6,203.0,31.0,2.9,3,5,7,1,2026-05-06T05:21:18.308857+05:30
Tirupur,Tamil Nadu,11.1085,77.3411,24.6,87,0.0,972.8,9.35,23.8,78,34.1,26.4,31.6,233.0,17.0,6.1,3,5,7,1,2026-05-06T05:21:18.308863+05:30
Alappuzha,Kerala,9.4981,76.3388,25.6,96,0.0,1006.5,8.95,32.0,56,28.9,15.2,7.4,138.0,69.0,3.2,7,5,4,1,2026-05-06T05:21:18.308870+05:30
Munnar,Kerala,10.0889,77.0595,17.0,86,0.0,853.8,6.5,21.6,60,18.4,12.4,8.9,224.0,43.0,1.4,3,10,7,0,2026-05-06T05:21:18.308876+05:30
Silchar,Assam,24.8333,92.7789,22.6,94,0.1,1006.2,8.85,25.9,106,71.2,52.9,16.9,245.0,53.0,5.7,6,5,4,1,2026-05-06T05:21:18.308884+05:30
Dibrugarh,Assam,27.4728,94.912,21.0,98,0.0,997.5,8.8,25.2,70,29.1,21.5,17.8,237.0,33.0,0.7,3,5,7,1,2026-05-06T05:21:18.308890+05:30
