city,state,latitude,longitude,temp,humidity,rain,pressure,uv_index,wind_gusts,aqi,pm10,pm2_5,no2,co,o3,so2,mosquito_risk,arthritis_risk,migraine_risk,frizz_risk,updated_at
Delhi,Delhi,28.6139,77.209,30.1,83,0.0,974.6,6.65,39.2,114,70.3,66.8,58.8,950.0,40.0,35.7,3,5,7,1,2026-07-07T02:25:00.375298+05:30
Mumbai,Maharashtra,19.076,72.8777,26.8,90,0.3,999.1,0.7,60.8,43,34.0,15.0,2.9,111.0,56.0,2.4,10,5,3,1,2026-07-07T02:25:00.375346+05:30
Bangalore,Karnataka,12.9716,77.5946,21.3,87,0.0,909.3,7.3,76.3,23,2.9,2.2,5.3,164.0,49.0,2.8,3,5,7,1,2026-07-07T02:25:00.375362+05:30
Hyderabad,Telangana,17.385,78.4867,25.4,77,0.0,946.6,7.55,63.4,25,4.2,3.0,6.1,140.0,44.0,4.4,7,5,7,1,2026-07-07T02:25:00.375373+05:30
Chennai,Tamil Nadu,13.0827,80.2707,31.2,48,0.0,1003.7,8.65,55.1,59,11.2,7.1,11.0,154.0,43.0,7.2,0,5,4,1,2026-07-07T02:25:00.375382+05:30
Kolkata,West Bengal,22.5726,88.3639,26.2,96,0.0,999.3,8.7,42.1,57,21.7,17.6,6.4,188.0,73.0,6.8,7,5,7,1,2026-07-07T02:25:00.375391+05:30
Pune,Maharashtra,18.5204,73.8567,23.7,90,0.0,939.3,1.0,54.0,22,1.1,0.9,3.6,112.0,52.0,2.7,3,5,3,1,2026-07-07T02:25:00.375398+05:30
Ahmedabad,Gujarat,23.0225,72.5714,27.1,97,0.2,991.5,1.6,29.2,96,31.4,21.4,18.6,357.0,41.0,3.1,10,5,3,1,2026-07-07T02:25:00.375405+05:30
Jaipur,Rajasthan,26.9124,75.7873,28.7,81,0.0,951.1,7.4,31.3,77,30.6,24.9,29.8,337.0,47.0,9.1,7,5,7,1,2026-07-07T02:25:00.375412+05:30
Lucknow,Uttar Pradesh,26.8467,80.9462,29.6,79,0.0,984.4,8.15,48.6,78,22.7,21.9,16.9,309.0,60.0,7.4,7,5,7,1,2026-07-07T02:25:00.375422+05:30
Kanpur,Uttar Pradesh,26.4499,80.3319,28.9,86,0.0,982.4,4.95,47.9,69,17.7,17.3,15.5,270.0,63.0,5.4,7,5,3,1,2026-07-07T02:25:00.375430+05:30
Chandigarh,Chandigarh,30.7333,76.7794,28.7,86,0.0,961.1,6.8,27.4,97,76.1,75.0,66.8,607.0,27.0,13.3,7,5,7,1,2026-07-07T02:25:00.375437+05:30
Srinagar,Jammu and Kashmir,34.0837,74.7973,20.1,89,0.0,836.8,9.1,23.8,94,39.2,37.0,32.4,773.0,16.0,2.3,3,5,7,1,2026-07-07T02:25:00.375444+05:30
Jammu,Jammu and Kashmir,32.7266,74.857,28.1,87,0.0,964.9,8.55,40.0,97,52.3,51.5,55.8,476.0,41.0,9.4,7,5,7,1,2026-07-07T02:25:00.375453+05:30
Amritsar,Punjab,31.634,74.8723,29.1,86,0.0,972.4,8.2,31.0,119,46.6,43.9,26.7,595.0,69.0,6.5,7,5,7,1,2026-07-07T02:25:00.375460+05:30
Ludhiana,Punjab,30.901,75.8573,29.0,90,0.0,970.1,7.2,28.4,119,122.0,117.6,91.2,720.0,10.0,20.0,7,5,7,1,2026-07-07T02:25:00.375466+05:30
Jalandhar,Punjab,31.326,75.5762,28.9,87,0.0,971.2,7.65,28.8,134,126.2,122.5,89.3,657.0,4.0,14.8,7,5,7,1,2026-07-07T02:25:00.375475+05:30
Dehradun,Uttarakhand,30.6284,78.0322,17.6,99,0.0,825.7,7.8,24.8,42,19.2,19.0,31.9,236.0,50.0,2.1,3,10,7,1,2026-07-07T02:25:00.375482+05:30
Shimla,Himachal Pradesh,31.1048,77.1734,15.6,95,0.0,780.0,6.2,23.4,47,14.7,14.3,15.1,384.0,77.0,0.4,3,10,7,0,2026-07-07T02:25:00.375489+05:30
Manali,Himachal Pradesh,32.2396,77.1887,19.1,87,0.0,815.7,9.35,34.2,49,9.1,9.0,22.5,283.0,79.0,0.0,3,10,7,1,2026-07-07T02:25:00.375497+05:30
Gurgaon,Haryana,28.4595,77.0266,30.0,87,0.0,972.8,7.2,47.2,108,82.4,57.6,57.1,794.0,39.0,25.3,7,5,7,1,2026-07-07T02:25:00.375504+05:30
Noida,Uttar Pradesh,28.5355,77.391,29.3,87,0.0,976.0,6.65,36.7,108,82.4,57.6,57.1,643.0,39.0,25.3,7,5,7,1,2026-07-07T02:25:00.375511+05:30
Ghaziabad,Uttar Pradesh,28.6692,77.4538,29.3,84,0.0,974.4,5.75,43.2,97,58.9,55.6,38.2,517.0,42.0,10.2,7,5,3,1,2026-07-07T02:25:00.375518+05:30
Faridabad,Haryana,28.4089,77.3178,30.0,83,0.0,975.4,6.9,40.3,108,82.4,57.6,57.1,515.0,39.0,25.3,7,5,7,1,2026-07-07T02:25:00.375524+05:30
Meerut,Uttar Pradesh,28.9845,77.7064,29.6,83,0.0,973.1,5.85,44.6,97,58.9,55.6,38.2,701.0,42.0,10.2,7,5,3,1,2026-07-07T02:25:00.375531+05:30
Agra,Uttar Pradesh,27.1767,78.0081,29.4,86,0.0,978.7,4.85,33.8,74,39.3,33.2,46.1,344.0,28.0,12.0,7,5,3,1,2026-07-07T02:25:00.375537+05:30
Varanasi,Uttar Pradesh,25.3176,82.9739,27.4,89,0.0,987.3,2.75,39.6,56,16.7,16.6,12.1,275.0,73.0,6.8,7,5,3,1,2026-07-07T02:25:00.375544+05:30
Prayagraj,Uttar Pradesh,25.4358,81.8463,26.4,95,0.1,986.3,5.5,42.5,56,14.4,14.3,11.3,279.0,75.0,4.7,10,5,3,1,2026-07-07T02:25:00.375551+05:30
Gorakhpur,Uttar Pradesh,26.7606,83.3732,29.3,77,0.0,988.4,6.3,52.9,55,12.5,12.2,7.5,307.0,83.0,5.1,7,5,7,1,2026-07-07T02:25:00.375558+05:30
Bareilly,Uttar Pradesh,28.367,79.4304,28.5,89,0.1,978.9,7.8,29.9,86,74.3,72.9,55.4,406.0,28.0,18.2,10,5,7,1,2026-07-07T02:25:00.375566+05:30
Aligarh,Uttar Pradesh,27.8974,78.088,30.5,82,0.0,976.6,6.05,29.2,91,34.1,31.3,28.1,478.0,40.0,8.2,3,5,7,1,2026-07-07T02:25:00.375573+05:30
Moradabad,Uttar Pradesh,28.8386,78.7733,30.0,82,0.0,975.2,7.3,41.8,116,86.8,85.7,57.1,630.0,25.0,19.7,7,5,7,1,2026-07-07T02:25:00.375579+05:30
Saharanpur,Uttar Pradesh,29.9637,77.546,29.3,75,0.0,967.7,5.6,28.8,106,103.6,103.4,81.5,1059.0,10.0,24.1,7,5,3,1,2026-07-07T02:25:00.375585+05:30
Jhansi,Uttar Pradesh,25.4484,78.5685,26.5,95,0.1,968.4,5.0,42.5,51,10.5,10.2,11.7,268.0,68.0,3.6,10,5,3,1,2026-07-07T02:25:03.781500+05:30
Surat,Gujarat,21.1702,72.8311,25.7,99,0.1,996.1,0.9,41.4,93,29.0,20.0,23.0,342.0,30.0,32.9,10,5,3,1,2026-07-07T02:25:03.781532+05:30
Vadodara,Gujarat,22.3072,73.1812,26.0,97,0.3,993.4,3.15,22.7,85,32.8,25.4,16.5,244.0,63.0,7.9,10,5,3,1,2026-07-07T02:25:03.781543+05:30
Rajkot,Gujarat,22.3039,70.8022,27.4,87,0.0,984.0,0.9,29.9,93,41.8,21.4,6.5,103.0,44.0,6.7,7,5,3,1,2026-07-07T02:25:03.781553+05:30
Thane,Maharashtra,19.2183,72.9781,25.8,95,0.4,998.3,0.65,46.8,43,34.0,15.0,2.9,113.0,56.0,2.4,10,5,3,1,2026-07-07T02:25:03.781562+05:30
Nagpur,Maharashtra,21.1458,79.0882,26.3,88,0.0,963.7,6.55,54.4,35,7.0,5.7,11.0,182.0,33.0,9.2,7,5,7,1,2026-07-07T02:25:03.781570+05:30
Nashik,Maharashtra,19.9975,73.7898,23.5,96,0.0,935.1,2.55,45.0,30,1.9,1.5,2.9,171.0,54.0,0.6,3,5,3,1,2026-07-07T02:25:03.781577+05:30
Aurangabad,Maharashtra,19.8762,75.3433,23.1,97,0.3,934.1,2.55,57.6,24,5.8,5.7,6.1,163.0,82.0,3.7,6,5,3,1,2026-07-07T02:25:03.781585+05:30
Solapur,Maharashtra,17.6599,75.9064,24.9,83,0.0,950.4,4.05,72.7,24,4.9,2.6,3.3,112.0,47.0,1.8,3,5,3,1,2026-07-07T02:25:03.781592+05:30
Kolhapur,Maharashtra,16.705,74.2433,22.6,95,0.1,941.8,4.4,58.7,23,3.5,2.4,2.5,106.0,49.0,1.3,6,5,3,1,2026-07-07T02:25:03.781600+05:30
Goa,Goa,15.2993,74.124,24.2,95,0.3,994.7,6.85,42.5,55,39.2,17.2,1.7,184.0,52.0,0.7,6,5,7,1,2026-07-07T02:25:03.781607+05:30
Jodhpur,Rajasthan,26.2389,73.0243,28.5,81,0.0,973.2,3.6,46.4,113,107.6,45.5,14.2,280.0,52.0,4.3,7,5,3,1,2026-07-07T02:25:03.781614+05:30
Udaipur,Rajasthan,24.5854,73.7125,25.6,97,0.3,937.2,8.75,36.0,56,32.9,24.0,14.5,296.0,40.0,2.9,10,5,7,1,2026-07-07T02:25:03.781621+05:30
Kota,Rajasthan,25.2138,75.8648,28.0,93,0.0,968.6,6.9,39.2,89,18.0,17.9,14.4,385.0,68.0,10.2,7,5,7,1,2026-07-07T02:25:03.781628+05:30
Bikaner,Rajasthan,28.0229,73.3119,31.4,74,0.0,972.3,8.45,49.0,101,81.0,39.3,4.5,180.0,67.0,2.6,3,5,7,1,2026-07-07T02:25:03.781635+05:30
Ajmer,Rajasthan,26.4499,74.6399,28.2,82,0.0,946.0,8.25,24.5,59,29.8,28.4,32.2,605.0,32.0,5.6,7,5,7,1,2026-07-07T02:25:03.781642+05:30
Gwalior,Madhya Pradesh,26.2183,78.1828,28.9,87,0.0,973.5,5.5,45.7,52,16.8,14.6,16.2,219.0,52.0,4.5,7,5,3,1,2026-07-07T02:25:03.781649+05:30
Indore,Madhya Pradesh,22.7196,75.8577,24.3,97,0.0,937.2,7.8,31.3,128,26.1,25.7,17.9,574.0,51.0,4.6,3,5,7,1,2026-07-07T02:25:03.781657+05:30
Bhopal,Madhya Pradesh,23.2599,77.4126,24.8,99,0.0,942.9,6.8,24.1,72,19.6,19.5,14.9,258.0,48.0,2.8,3,5,7,1,2026-07-07T02:25:03.781664+05:30
Jabalpur,Madhya Pradesh,23.1815,79.9864,24.5,98,0.1,951.4,6.55,32.4,51,11.3,11.2,8.1,231.0,68.0,2.6,6,5,7,1,2026-07-07T02:25:03.781670+05:30
Ujjain,Madhya Pradesh,23.1765,75.7885,24.7,96,0.0,942.9,7.05,32.4,135,33.2,32.6,13.0,416.0,59.0,2.8,3,5,7,1,2026-07-07T02:25:03.781678+05:30
Visakhapatnam,Andhra Pradesh,17.6868,83.2185,27.8,83,0.0,997.5,8.55,58.0,58,33.6,24.0,11.7,227.0,88.0,22.5,7,5,7,1,2026-07-07T02:25:03.781686+05:30
Vijayawada,Andhra Pradesh,16.5062,80.648,31.0,56,0.0,997.0,6.1,51.1,53,15.8,13.0,8.9,126.0,51.0,4.8,0,5,7,1,2026-07-07T02:25:03.781693+05:30
Guntur,Andhra Pradesh,16.3067,80.4365,31.2,54,0.0,998.4,6.15,54.4,51,8.5,6.9,9.1,124.0,42.0,4.7,0,5,7,1,2026-07-07T02:25:03.781700+05:30
Nellore,Andhra Pradesh,14.4426,79.9865,31.2,52,0.0,1001.6,8.9,55.8,32,5.7,3.4,3.7,118.0,50.0,2.7,0,5,4,1,2026-07-07T02:25:03.781707+05:30
Kurnool,Andhra Pradesh,15.8281,78.0373,26.8,72,0.0,972.5,3.95,68.4,23,3.8,2.6,5.7,113.0,44.0,4.6,7,5,3,1,2026-07-07T02:25:03.781716+05:30
Kakinada,Andhra Pradesh,16.9891,82.2475,29.0,76,0.0,1001.3,8.05,54.4,58,31.7,21.2,2.6,160.0,103.0,3.2,7,5,4,1,2026-07-07T02:25:03.781723+05:30
Tirupati,Andhra Pradesh,13.6288,79.4192,29.1,56,0.0,987.7,8.75,54.0,33,6.8,4.6,5.4,116.0,46.0,1.9,4,5,7,1,2026-07-07T02:25:03.781729+05:30
Warangal,Telangana,17.9689,79.5941,27.9,67,0.0,972.0,7.15,54.7,31,7.3,5.5,7.0,140.0,45.0,4.1,7,5,7,1,2026-07-07T02:25:03.781737+05:30
Nizamabad,Telangana,18.6725,78.0941,26.3,77,0.0,956.8,7.85,62.3,27,5.0,3.9,4.2,124.0,47.0,1.8,7,5,7,1,2026-07-07T02:25:03.781744+05:30
Mysore,Karnataka,12.2958,76.6396,21.8,87,0.0,926.9,8.15,69.1,24,2.0,1.5,3.1,108.0,51.0,1.3,3,5,7,1,2026-07-07T02:25:03.781751+05:30
Mangalore,Karnataka,12.9141,74.856,26.1,87,0.0,1005.7,8.45,72.4,55,38.9,19.0,2.7,136.0,50.0,1.3,7,5,4,1,2026-07-07T02:25:03.781758+05:30
Hubli-Dharwad,Karnataka,15.3647,75.124,21.7,98,0.1,936.5,5.45,67.7,23,3.7,2.2,2.2,97.0,48.0,0.8,6,5,3,1,2026-07-07T02:25:03.781765+05:30
Belgaum,Karnataka,15.8497,74.4977,21.0,96,0.2,920.8,2.4,70.6,24,3.1,1.9,2.4,101.0,50.0,1.1,6,5,3,1,2026-07-07T02:25:07.178710+05:30
Coimbatore,Tamil Nadu,11.0168,76.9558,23.4,86,0.0,960.4,8.85,71.6,23,5.5,3.6,3.8,147.0,47.0,1.9,3,5,7,1,2026-07-07T02:25:07.178743+05:30
Madurai,Tamil Nadu,9.9252,78.1198,28.0,62,0.0,991.3,8.7,56.2,58,25.4,16.5,9.0,111.0,42.0,3.7,7,5,7,1,2026-07-07T02:25:07.178754+05:30
Trichy,Tamil Nadu,10.7905,78.7047,29.3,56,0.0,998.0,8.8,76.3,46,13.2,7.7,3.6,111.0,50.0,1.9,4,5,7,1,2026-07-07T02:25:07.178762+05:30
Salem,Tamil Nadu,11.6643,78.146,25.0,80,0.0,976.0,8.75,37.8,50,15.5,12.3,14.1,225.0,32.0,5.4,7,5,7,1,2026-07-07T02:25:07.178770+05:30
Tirunelveli,Tamil Nadu,8.7139,77.7567,28.2,61,0.0,1002.8,8.6,49.0,49,11.5,7.9,6.2,133.0,38.0,2.0,7,5,4,1,2026-07-07T02:25:07.178779+05:30
Vellore,Tamil Nadu,12.9165,79.1325,28.2,60,0.0,981.9,8.4,56.2,33,7.1,4.8,5.5,121.0,47.0,2.6,4,5,7,1,2026-07-07T02:25:07.178786+05:30
Erode,Tamil Nadu,11.341,77.7172,26.0,75,0.0,987.9,8.5,58.3,45,12.5,9.3,9.9,134.0,39.0,3.1,7,5,7,1,2026-07-07T02:25:07.178794+05:30
Kochi,Kerala,9.9312,76.2673,26.3,91,0.1,1009.5,8.55,46.4,60,28.4,16.4,11.2,93.0,28.0,3.6,10,0,4,1,2026-07-07T02:25:07.178802+05:30
Thiruvananthapuram,Kerala,8.5241,76.9366,24.6,94,0.1,1009.3,8.35,51.5,55,26.6,14.6,2.1,89.0,53.0,0.9,6,0,4,1,2026-07-07T02:25:07.178809+05:30
Kozhikode,Kerala,11.2588,75.7804,23.4,99,0.1,1008.8,7.95,36.0,58,35.0,16.5,1.4,198.0,58.0,1.0,6,0,4,1,2026-07-07T02:25:07.178816+05:30
Thrissur,Kerala,10.5276,76.2144,24.1,98,0.1,1008.1,8.55,47.5,58,23.0,15.1,8.5,174.0,33.0,3.0,6,0,4,1,2026-07-07T02:25:07.178824+05:30
Kannur,Kerala,11.8745,75.3704,23.2,98,0.1,1007.5,8.25,51.8,55,38.3,19.0,4.4,209.0,47.0,1.4,6,5,4,1,2026-07-07T02:25:07.178831+05:30
Patna,Bihar,25.5941,85.1376,26.4,95,0.1,991.7,5.75,46.8,48,14.2,14.1,11.2,250.0,73.0,11.5,10,5,3,1,2026-07-07T02:25:07.178838+05:30
Gaya,Bihar,24.7914,85.0002,26.9,89,0.0,984.1,5.45,39.2,48,16.8,16.8,17.9,302.0,49.0,19.4,7,5,3,1,2026-07-07T02:25:07.178845+05:30
Muzaffarpur,Bihar,26.1209,85.3647,26.8,91,0.1,992.4,5.3,51.5,48,14.1,14.0,9.3,261.0,73.0,7.3,10,5,3,1,2026-07-07T02:25:07.178853+05:30
Bhagalpur,Bihar,25.2425,87.0117,26.3,95,0.0,993.7,8.8,43.9,44,11.5,11.1,10.3,236.0,68.0,9.5,7,5,7,1,2026-07-07T02:25:07.178860+05:30
Ranchi,Jharkhand,23.3441,85.3096,23.0,98,3.3,928.3,2.9,52.2,32,6.4,6.4,11.6,208.0,45.0,11.0,6,5,3,1,2026-07-07T02:25:07.178867+05:30
Jamshedpur,Jharkhand,22.8046,86.2029,25.0,96,0.3,982.5,8.65,45.4,45,9.9,9.9,14.4,193.0,43.0,17.2,10,5,7,1,2026-07-07T02:25:07.178874+05:30
Dhanbad,Jharkhand,23.7957,86.4304,25.3,96,0.3,971.3,7.85,43.2,64,15.1,14.8,26.7,639.0,38.0,56.8,10,5,7,1,2026-07-07T02:25:07.178880+05:30
Bokaro,Jharkhand,23.6693,86.1511,25.1,95,0.5,974.7,7.3,45.4,63,11.1,10.9,18.2,598.0,45.0,35.2,10,5,7,1,2026-07-07T02:25:07.178888+05:30
Bhubaneswar,Odisha,20.2961,85.8245,27.6,84,0.0,995.6,9.05,60.8,51,15.8,12.7,7.7,173.0,62.0,7.9,7,5,7,1,2026-07-07T02:25:07.178895+05:30
Cuttack,Odisha,20.4625,85.8828,27.9,84,0.0,997.1,9.1,51.5,51,15.8,12.7,7.7,167.0,62.0,7.9,7,5,7,1,2026-07-07T02:25:07.178902+05:30
Rourkela,Odisha,22.2604,84.8536,25.0,96,0.5,976.4,7.8,45.0,49,7.3,7.2,7.7,173.0,48.0,6.9,10,5,7,1,2026-07-07T02:25:07.178908+05:30
Raipur,Chhattisgarh,21.2514,81.6296,25.3,92,0.1,966.0,7.4,54.7,52,12.5,10.3,17.6,175.0,41.0,27.9,10,5,7,1,2026-07-07T02:25:07.178915+05:30
Bhilai,Chhattisgarh,21.1938,81.3509,25.3,91,0.1,966.4,5.7,57.2,49,12.5,10.3,16.9,289.0,40.0,26.9,10,5,3,1,2026-07-07T02:25:07.178922+05:30
Guwahati,Assam,26.1158,91.7086,25.8,99,0.2,997.1,7.6,22.0,32,8.1,7.8,7.2,212.0,48.0,1.5,10,5,7,1,2026-07-07T02:25:07.178928+05:30
Agartala,Tripura,23.8315,91.2868,24.7,98,0.0,1002.1,1.7,34.6,28,8.0,6.7,7.5,134.0,46.0,2.4,3,5,0,1,2026-07-07T02:25:07.178935+05:30
Shillong,Meghalaya,25.5788,91.8933,20.4,94,0.0,854.5,2.75,34.9,24,1.3,1.2,4.7,167.0,48.0,2.0,3,5,3,1,2026-07-07T02:25:07.178942+05:30
Imphal,Manipur,24.817,93.9368,22.8,99,0.0,920.1,7.2,35.6,22,6.7,6.3,7.0,411.0,35.0,2.1,3,5,7,1,2026-07-07T02:25:07.178949+05:30
Aizawl,Mizoram,23.7271,92.7176,20.0,97,0.1,889.3,1.7,45.4,25,2.1,1.4,1.6,103.0,49.0,0.8,6,5,3,1,2026-07-07T02:25:07.178955+05:30
Kohima,Nagaland,25.6701,94.1077,20.7,95,0.0,852.8,3.45,22.3,21,3.9,3.8,5.0,230.0,40.0,1.1,3,5,3,1,2026-07-07T02:25:07.178962+05:30
Gangtok,Sikkim,27.3314,88.6138,18.3,99,0.1,834.9,3.95,27.4,34,2.4,2.4,3.6,231.0,72.0,0.6,6,10,3,1,2026-07-07T02:25:07.178969+05:30
Siliguri,West Bengal,26.7271,88.3953,24.8,94,0.1,988.7,7.65,32.4,36,7.5,7.1,6.7,181.0,69.0,2.0,6,5,7,1,2026-07-07T02:25:10.572195+05:30
Durgapur,West Bengal,23.5204,87.3119,26.3,97,0.1,987.4,8.25,41.0,60,17.5,17.4,17.9,367.0,50.0,22.2,10,5,7,1,2026-07-07T02:25:10.572229+05:30
Asansol,West Bengal,23.6739,86.9524,26.1,96,0.1,985.6,6.75,47.2,55,11.4,11.3,20.7,274.0,43.0,29.2,10,5,7,1,2026-07-07T02:25:10.572240+05:30
Pondicherry,Puducherry,11.9139,79.8145,29.0,59,0.0,1005.8,8.7,32.0,60,21.0,15.8,14.9,198.0,42.0,8.6,4,5,4,1,2026-07-07T02:25:10.572250+05:30
Port Blair,Andaman and Nicobar Islands,11.6234,92.7265,27.3,86,0.0,1007.6,8.0,41.8,47,23.6,13.6,0.1,89.0,58.0,0.5,7,5,4,1,2026-07-07T02:25:10.572258+05:30
Haridwar,Uttarakhand,29.9457,78.1642,27.6,89,0.0,966.2,5.7,30.6,81,63.1,62.6,47.4,390.0,30.0,12.1,7,5,3,1,2026-07-07T02:25:10.572266+05:30
Rishikesh,Uttarakhand,30.0869,78.2676,26.1,88,0.0,959.1,5.5,23.4,58,22.4,22.1,10.4,455.0,81.0,3.8,7,5,3,1,2026-07-07T02:25:10.572274+05:30
Nainital,Uttarakhand,29.3919,79.4542,16.7,100,0.0,801.4,5.9,24.8,58,22.6,22.4,20.5,363.0,45.0,3.7,3,10,3,1,2026-07-07T02:25:10.572282+05:30
Mussoorie,Uttarakhand,30.4599,78.0664,16.5,100,0.0,798.6,5.7,28.8,59,30.9,30.7,42.1,351.0,34.0,8.2,3,10,3,1,2026-07-07T02:25:10.572289+05:30
Dharamshala,Himachal Pradesh,32.219,76.3234,22.9,83,0.0,864.3,8.45,34.9,41,4.1,4.0,7.0,380.0,71.0,0.2,3,5,7,1,2026-07-07T02:25:10.572297+05:30
Dalhousie,Himachal Pradesh,32.5387,75.971,16.8,95,0.0,799.9,8.7,28.4,60,18.3,17.6,17.3,552.0,78.0,2.2,3,10,7,0,2026-07-07T02:25:10.572304+05:30
Patiala,Punjab,30.3398,76.3869,29.8,81,0.0,969.9,7.55,31.3,101,121.5,116.9,88.0,627.0,3.0,14.8,7,5,7,1,2026-07-07T02:25:10.572312+05:30
Bhatinda,Punjab,30.211,74.9455,31.0,77,0.0,974.6,8.15,55.1,117,56.9,44.8,27.1,472.0,60.0,9.4,3,5,7,1,2026-07-07T02:25:10.572319+05:30
Rohtak,Haryana,28.8955,76.6066,29.7,87,0.0,973.1,4.15,41.8,122,77.5,73.1,56.4,803.0,49.0,35.2,7,5,3,1,2026-07-07T02:25:10.572327+05:30
Panipat,Haryana,29.3909,76.9635,29.7,82,0.0,972.1,4.55,22.7,123,69.8,69.4,39.1,522.0,49.0,16.6,7,5,3,1,2026-07-07T02:25:10.572334+05:30
Mathura,Uttar Pradesh,27.4924,77.6737,29.9,86,0.1,977.5,6.2,35.3,83,85.9,34.7,34.1,402.0,36.0,7.1,10,5,7,1,2026-07-07T02:25:10.572341+05:30
Vrindavan,Uttar Pradesh,27.5823,77.7027,30.2,82,0.0,978.1,6.0,31.0,83,85.9,34.7,34.1,431.0,36.0,7.1,3,5,3,1,2026-07-07T02:25:10.572348+05:30
Ayodhya,Uttar Pradesh,26.7922,82.1998,29.9,76,0.0,986.4,6.35,49.3,70,14.0,13.4,8.6,347.0,81.0,4.4,7,5,7,1,2026-07-07T02:25:10.572354+05:30
Ratlam,Madhya Pradesh,23.3315,75.0367,25.1,96,0.0,944.1,6.7,37.1,117,35.0,34.2,11.9,301.0,58.0,3.4,7,5,7,1,2026-07-07T02:25:10.572361+05:30
Sagar,Madhya Pradesh,23.8388,78.7378,24.3,97,0.0,939.8,1.7,22.3,46,7.2,7.1,6.6,300.0,77.0,2.7,3,5,3,1,2026-07-07T02:25:10.572368+05:30
Satna,Madhya Pradesh,24.6005,80.8322,25.3,96,0.3,961.2,2.9,33.1,55,13.5,13.4,8.9,224.0,75.0,3.6,10,5,3,1,2026-07-07T02:25:10.572376+05:30
Akola,Maharashtra,20.7002,77.0082,26.9,79,0.0,964.6,4.9,40.0,20,5.0,4.8,9.4,177.0,29.0,3.4,7,5,3,1,2026-07-07T02:25:10.572384+05:30
Amravati,Maharashtra,20.9374,77.7796,26.8,77,0.0,957.1,7.2,42.1,20,5.0,4.7,8.6,183.0,33.0,3.2,7,5,7,1,2026-07-07T02:25:10.572391+05:30
Latur,Maharashtra,18.4088,76.5604,24.0,87,0.0,931.8,3.4,67.3,24,1.6,1.4,2.9,118.0,48.0,1.3,3,5,3,1,2026-07-07T02:25:10.572398+05:30
Nanded,Maharashtra,19.1383,77.3091,26.2,79,0.0,960.0,7.85,69.8,24,2.6,2.3,4.6,128.0,46.0,3.3,7,5,7,1,2026-07-07T02:25:10.572405+05:30
Gulbarga,Karnataka,17.3297,76.8343,25.4,78,0.0,952.4,7.25,70.6,25,2.7,2.0,4.5,113.0,45.0,2.4,7,5,7,1,2026-07-07T02:25:10.572412+05:30
Bidar,Karnataka,17.9104,77.5199,24.0,86,0.0,928.3,8.1,70.9,27,2.7,2.2,4.5,115.0,45.0,2.2,3,5,7,1,2026-07-07T02:25:10.572418+05:30
Hospet,Karnataka,15.2689,76.3909,23.5,88,0.0,951.7,5.75,76.3,23,4.8,2.9,3.0,110.0,48.0,1.3,3,5,3,1,2026-07-07T02:25:10.572425+05:30
Tirupur,Tamil Nadu,11.1085,77.3411,25.0,81,0.0,973.9,8.75,70.6,47,13.4,10.3,11.9,132.0,35.0,3.8,7,5,7,1,2026-07-07T02:25:10.572432+05:30
Alappuzha,Kerala,9.4981,76.3388,26.4,92,0.0,1009.6,8.45,41.0,61,32.2,17.4,5.4,86.0,45.0,2.1,7,0,4,1,2026-07-07T02:25:10.572438+05:30
Munnar,Kerala,10.0889,77.0595,16.1,100,0.1,855.9,6.95,58.3,33,4.2,2.7,3.8,90.0,38.0,1.5,6,10,7,1,2026-07-07T02:25:10.572445+05:30
Silchar,Assam,24.8333,92.7789,26.3,97,0.0,1001.5,0.95,33.1,39,9.8,8.5,5.9,201.0,55.0,3.7,7,5,0,1,2026-07-07T02:25:10.572452+05:30
Dibrugarh,Assam,27.4728,94.912,25.7,98,0.1,990.7,5.3,33.5,44,6.4,6.3,5.3,183.0,67.0,0.9,10,5,3,1,2026-07-07T02:25:10.572459+05:30
