city,state,latitude,longitude,temp,humidity,rain,pressure,uv_index,wind_gusts,aqi,pm10,pm2_5,mosquito_risk,arthritis_risk,migraine_risk,frizz_risk,updated_at
Delhi,Delhi,28.6139,77.209,24.3,60,0.0,989.7,5.85,37.1,316,258.0,78.9,0,5,3,1,2026-03-04T10:13:07.687737+05:30
Mumbai,Maharashtra,19.076,72.8777,27.6,66,0.0,1012.8,7.4,24.8,133,49.0,48.4,7,0,4,1,2026-03-04T10:13:07.687781+05:30
Bangalore,Karnataka,12.9716,77.5946,26.7,34,0.0,916.5,9.1,35.3,96,36.0,34.8,4,5,7,0,2026-03-04T10:13:07.687796+05:30
Hyderabad,Telangana,17.385,78.4867,29.9,39,0.0,959.0,8.4,27.4,116,36.2,35.0,4,5,7,0,2026-03-04T10:13:07.687808+05:30
Chennai,Tamil Nadu,13.0827,80.2707,29.5,61,0.0,1012.7,8.8,28.4,115,42.5,37.5,7,0,4,1,2026-03-04T10:13:07.687816+05:30
Kolkata,West Bengal,22.5726,88.3639,28.0,63,0.0,1011.8,7.75,21.2,164,118.0,84.5,7,0,4,1,2026-03-04T10:13:07.687825+05:30
Pune,Maharashtra,18.5204,73.8567,30.6,33,0.0,954.1,7.95,31.3,77,20.2,19.5,0,5,7,0,2026-03-04T10:13:07.687838+05:30
Ahmedabad,Gujarat,23.0225,72.5714,28.7,43,0.0,1009.5,7.2,16.6,79,26.9,23.2,4,0,4,0,2026-03-04T10:13:07.687845+05:30
Jaipur,Rajasthan,26.9124,75.7873,29.1,23,0.0,967.4,6.6,34.6,93,88.7,31.1,4,5,7,0,2026-03-04T10:13:07.687854+05:30
Lucknow,Uttar Pradesh,26.8467,80.9462,23.8,56,0.0,1000.2,6.35,26.6,153,308.3,92.2,0,5,4,0,2026-03-04T10:13:07.687862+05:30
Kanpur,Uttar Pradesh,26.4499,80.3319,24.2,59,0.0,998.7,6.35,28.8,175,307.3,77.1,0,5,7,0,2026-03-04T10:13:07.687870+05:30
Chandigarh,Chandigarh,30.7333,76.7794,23.8,53,0.0,974.7,5.75,36.0,86,32.7,28.9,0,5,3,0,2026-03-04T10:13:07.687878+05:30
Srinagar,Jammu and Kashmir,34.0837,74.7973,12.8,65,0.0,849.1,6.4,16.9,138,84.5,71.5,3,5,7,0,2026-03-04T10:13:07.687884+05:30
Jammu,Jammu and Kashmir,32.7266,74.857,23.8,61,0.0,978.9,6.35,25.6,96,39.2,35.6,3,5,7,0,2026-03-04T10:13:07.687892+05:30
Amritsar,Punjab,31.634,74.8723,23.7,66,0.0,987.4,6.3,23.4,125,88.0,77.3,3,5,7,1,2026-03-04T10:13:07.687899+05:30
Ludhiana,Punjab,30.901,75.8573,23.9,62,0.0,985.2,6.0,30.2,151,73.1,68.2,3,5,3,1,2026-03-04T10:13:07.687906+05:30
Jalandhar,Punjab,31.326,75.5762,23.1,67,0.0,986.4,6.15,28.8,151,79.4,72.9,3,5,7,1,2026-03-04T10:13:07.687914+05:30
Dehradun,Uttarakhand,30.6284,78.0322,20.6,34,0.0,835.1,6.1,31.3,59,11.9,8.8,0,5,7,0,2026-03-04T10:13:07.687921+05:30
Shimla,Himachal Pradesh,31.1048,77.1734,19.3,33,0.0,791.0,6.15,52.6,69,21.0,14.6,0,5,7,0,2026-03-04T10:13:07.687928+05:30
Manali,Himachal Pradesh,32.2396,77.1887,22.2,15,0.0,827.3,7.35,32.8,49,21.0,12.2,0,5,7,1,2026-03-04T10:13:07.687935+05:30
Gurgaon,Haryana,28.4595,77.0266,24.6,61,0.0,988.4,5.95,35.6,1172,979.8,149.0,3,5,3,1,2026-03-04T10:13:07.687942+05:30
Noida,Uttar Pradesh,28.5355,77.391,24.9,58,0.0,991.3,5.85,36.4,1172,979.8,149.0,0,5,3,0,2026-03-04T10:13:07.687949+05:30
Ghaziabad,Uttar Pradesh,28.6692,77.4538,23.7,66,0.0,989.2,5.85,33.8,243,235.6,76.1,3,5,3,1,2026-03-04T10:13:07.687958+05:30
Faridabad,Haryana,28.4089,77.3178,24.6,60,0.0,990.5,5.9,34.2,1172,979.8,149.0,0,5,3,1,2026-03-04T10:13:07.687967+05:30
Meerut,Uttar Pradesh,28.9845,77.7064,23.5,63,0.0,987.8,5.7,35.6,243,235.6,76.1,3,5,3,0,2026-03-04T10:13:07.687973+05:30
Agra,Uttar Pradesh,27.1767,78.0081,26.1,49,0.0,994.9,6.2,35.3,356,297.1,68.9,4,5,7,0,2026-03-04T10:13:07.687980+05:30
Varanasi,Uttar Pradesh,25.3176,82.9739,25.6,60,0.0,1004.7,7.0,19.8,142,106.9,39.0,4,5,4,1,2026-03-04T10:13:07.687991+05:30
Prayagraj,Uttar Pradesh,25.4358,81.8463,25.5,54,0.0,1003.2,6.9,25.9,143,230.0,58.2,4,5,4,0,2026-03-04T10:13:07.687998+05:30
Gorakhpur,Uttar Pradesh,26.7606,83.3732,24.4,72,0.0,1004.4,6.75,10.1,164,103.6,89.4,3,5,4,1,2026-03-04T10:13:07.688004+05:30
Bareilly,Uttar Pradesh,28.367,79.4304,21.5,78,0.0,993.2,6.05,19.1,159,212.3,88.5,3,5,7,1,2026-03-04T10:13:07.688011+05:30
Aligarh,Uttar Pradesh,27.8974,78.088,24.8,60,0.0,992.4,5.95,33.1,678,459.1,100.8,0,5,3,1,2026-03-04T10:13:07.688017+05:30
Moradabad,Uttar Pradesh,28.8386,78.7733,21.9,72,0.0,990.0,5.85,22.3,154,143.9,75.9,3,5,3,1,2026-03-04T10:13:07.688023+05:30
Saharanpur,Uttar Pradesh,29.9637,77.546,22.0,65,0.0,981.5,5.5,45.7,147,96.6,66.4,3,5,3,0,2026-03-04T10:13:07.688029+05:30
Jhansi,Uttar Pradesh,25.4484,78.5685,28.2,38,0.0,985.4,6.8,32.0,65,18.7,12.8,4,5,7,0,2026-03-04T10:13:11.027268+05:30
Surat,Gujarat,21.1702,72.8311,28.2,54,0.0,1013.0,7.1,25.2,153,61.2,58.8,4,0,4,1,2026-03-04T10:13:11.027302+05:30
Vadodara,Gujarat,22.3072,73.1812,29.2,47,0.0,1011.6,7.2,18.0,142,38.0,32.6,4,0,4,1,2026-03-04T10:13:11.027314+05:30
Rajkot,Gujarat,22.3039,70.8022,27.5,51,0.0,1001.4,7.0,24.8,62,25.8,19.2,4,5,4,1,2026-03-04T10:13:11.027323+05:30
Thane,Maharashtra,19.2183,72.9781,30.7,45,0.0,1012.4,7.4,35.6,133,49.0,48.4,0,0,4,1,2026-03-04T10:13:11.027332+05:30
Nagpur,Maharashtra,21.1458,79.0882,29.6,38,0.0,980.6,7.75,23.4,69,23.3,17.1,4,5,7,0,2026-03-04T10:13:11.027340+05:30
Nashik,Maharashtra,19.9975,73.7898,29.4,33,0.0,951.8,7.55,23.4,84,27.0,26.2,4,5,7,0,2026-03-04T10:13:11.027349+05:30
Aurangabad,Maharashtra,19.8762,75.3433,30.1,31,0.0,950.5,8.1,22.7,75,19.7,18.8,0,5,7,0,2026-03-04T10:13:11.027358+05:30
Solapur,Maharashtra,17.6599,75.9064,28.8,46,0.0,962.9,8.35,18.7,77,27.0,26.0,4,5,7,0,2026-03-04T10:13:11.027367+05:30
Kolhapur,Maharashtra,16.705,74.2433,29.8,37,0.0,952.8,8.45,37.4,159,48.7,48.4,4,5,7,0,2026-03-04T10:13:11.027375+05:30
Goa,Goa,15.2993,74.124,29.6,68,0.0,1002.1,8.5,34.9,102,48.0,44.9,7,5,4,1,2026-03-04T10:13:11.027383+05:30
Jodhpur,Rajasthan,26.2389,73.0243,27.9,39,0.0,990.6,6.9,18.7,78,48.2,27.1,4,5,7,0,2026-03-04T10:13:11.027392+05:30
Udaipur,Rajasthan,24.5854,73.7125,29.2,32,0.0,953.8,7.5,23.4,59,30.7,14.6,4,5,7,0,2026-03-04T10:13:11.027400+05:30
Kota,Rajasthan,25.2138,75.8648,26.6,44,0.0,986.5,6.9,17.3,85,29.8,25.0,4,5,7,0,2026-03-04T10:13:11.027408+05:30
Bikaner,Rajasthan,28.0229,73.3119,26.7,38,0.0,989.2,6.6,26.3,67,35.2,18.8,4,5,7,0,2026-03-04T10:13:11.027416+05:30
Ajmer,Rajasthan,26.4499,74.6399,28.4,33,0.0,962.0,6.85,25.2,70,33.3,18.2,4,5,7,0,2026-03-04T10:13:11.027424+05:30
Gwalior,Madhya Pradesh,26.2183,78.1828,28.3,44,0.0,990.3,6.55,31.0,83,25.9,21.1,4,5,7,0,2026-03-04T10:13:11.027432+05:30
Indore,Madhya Pradesh,22.7196,75.8577,28.1,48,0.0,955.2,7.45,17.6,81,36.2,27.7,4,5,7,1,2026-03-04T10:13:11.027440+05:30
Bhopal,Madhya Pradesh,23.2599,77.4126,28.7,43,0.0,961.1,7.35,22.0,76,29.6,20.4,4,5,7,0,2026-03-04T10:13:11.027448+05:30
Jabalpur,Madhya Pradesh,23.1815,79.9864,26.9,49,0.0,968.9,7.45,24.5,71,28.9,21.7,4,5,7,0,2026-03-04T10:13:11.027457+05:30
Ujjain,Madhya Pradesh,23.1765,75.7885,26.9,55,0.0,961.0,7.4,16.2,101,47.1,39.8,4,5,7,1,2026-03-04T10:13:11.027464+05:30
Visakhapatnam,Andhra Pradesh,17.6868,83.2185,30.5,53,0.0,1009.4,8.4,37.1,139,69.4,66.1,0,0,4,1,2026-03-04T10:13:11.027471+05:30
Vijayawada,Andhra Pradesh,16.5062,80.648,28.9,67,0.0,1008.5,8.45,20.5,130,49.5,44.4,7,0,4,1,2026-03-04T10:13:11.027478+05:30
Guntur,Andhra Pradesh,16.3067,80.4365,29.7,57,0.0,1009.6,8.45,25.6,120,47.1,42.6,4,0,4,1,2026-03-04T10:13:11.027484+05:30
Nellore,Andhra Pradesh,14.4426,79.9865,31.0,45,0.0,1011.3,8.7,29.9,114,51.9,47.8,0,0,4,1,2026-03-04T10:13:11.027492+05:30
Kurnool,Andhra Pradesh,15.8281,78.0373,32.0,34,0.0,982.4,8.5,26.3,99,45.1,41.9,0,5,7,0,2026-03-04T10:13:11.027499+05:30
Kakinada,Andhra Pradesh,16.9891,82.2475,30.8,54,0.0,1013.3,8.4,33.8,111,45.4,39.5,0,0,4,1,2026-03-04T10:13:11.027506+05:30
Tirupati,Andhra Pradesh,13.6288,79.4192,31.3,31,0.0,997.0,8.8,32.4,150,47.5,43.8,0,5,7,0,2026-03-04T10:13:11.027512+05:30
Warangal,Telangana,17.9689,79.5941,28.6,55,0.0,984.8,8.25,23.8,118,48.9,47.4,4,5,7,1,2026-03-04T10:13:11.027518+05:30
Nizamabad,Telangana,18.6725,78.0941,29.0,47,0.0,971.2,8.1,28.1,73,25.1,22.7,4,5,7,1,2026-03-04T10:13:11.027525+05:30
Mysore,Karnataka,12.2958,76.6396,26.9,41,0.0,933.1,9.15,39.2,99,38.2,36.7,4,5,7,0,2026-03-04T10:13:11.027531+05:30
Mangalore,Karnataka,12.9141,74.856,27.8,81,0.0,1010.7,8.75,30.2,79,40.7,35.5,7,0,4,1,2026-03-04T10:13:11.027537+05:30
Hubli-Dharwad,Karnataka,15.3647,75.124,28.1,56,0.0,945.7,8.7,24.5,94,34.9,34.1,4,5,7,1,2026-03-04T10:13:11.027544+05:30
Belgaum,Karnataka,15.8497,74.4977,29.4,39,0.0,930.4,8.75,32.0,135,36.2,35.4,4,5,7,0,2026-03-04T10:13:14.368500+05:30
Coimbatore,Tamil Nadu,11.0168,76.9558,27.4,59,0.0,966.8,9.15,41.0,101,32.6,31.3,4,5,7,1,2026-03-04T10:13:14.368531+05:30
Madurai,Tamil Nadu,9.9252,78.1198,27.7,63,0.0,998.5,9.1,24.1,98,34.7,31.9,7,5,7,1,2026-03-04T10:13:14.368541+05:30
Trichy,Tamil Nadu,10.7905,78.7047,28.0,65,0.0,1005.4,9.0,28.8,104,40.3,36.4,7,5,4,1,2026-03-04T10:13:14.368550+05:30
Salem,Tamil Nadu,11.6643,78.146,28.9,50,0.0,982.6,9.05,35.6,123,47.6,44.8,4,5,7,1,2026-03-04T10:13:14.368557+05:30
Tirunelveli,Tamil Nadu,8.7139,77.7567,29.8,48,0.0,1008.4,9.15,38.9,89,24.8,22.9,4,0,4,1,2026-03-04T10:13:14.368565+05:30
Vellore,Tamil Nadu,12.9165,79.1325,29.6,40,0.0,990.2,8.85,36.7,142,47.5,43.7,4,5,7,0,2026-03-04T10:13:14.368572+05:30
Erode,Tamil Nadu,11.341,77.7172,28.5,62,0.0,994.5,9.05,28.8,102,38.2,35.4,7,5,7,1,2026-03-04T10:13:14.368579+05:30
Kochi,Kerala,9.9312,76.2673,27.1,80,0.0,1012.9,8.95,32.8,104,36.2,33.9,7,0,4,1,2026-03-04T10:13:14.368587+05:30
Thiruvananthapuram,Kerala,8.5241,76.9366,26.6,79,0.0,1012.1,9.0,27.4,98,38.9,36.7,7,0,4,1,2026-03-04T10:13:14.368594+05:30
Kozhikode,Kerala,11.2588,75.7804,28.7,73,0.0,1011.9,8.85,30.6,82,44.2,40.0,7,0,4,1,2026-03-04T10:13:14.368601+05:30
Thrissur,Kerala,10.5276,76.2144,30.3,65,0.0,1011.2,8.95,38.9,112,42.1,39.3,3,0,4,1,2026-03-04T10:13:14.368609+05:30
Kannur,Kerala,11.8745,75.3704,29.5,64,0.0,1011.0,8.8,35.3,76,39.2,34.7,7,0,4,1,2026-03-04T10:13:14.368616+05:30
Patna,Bihar,25.5941,85.1376,25.5,57,0.0,1007.8,7.2,15.5,163,137.4,107.6,4,5,4,1,2026-03-04T10:13:14.368623+05:30
Gaya,Bihar,24.7914,85.0002,26.4,55,0.0,1000.9,7.25,18.4,138,72.6,46.4,4,5,4,1,2026-03-04T10:13:14.368630+05:30
Muzaffarpur,Bihar,26.1209,85.3647,26.3,52,0.0,1007.9,7.15,12.2,166,129.5,104.3,4,5,4,0,2026-03-04T10:13:14.368637+05:30
Bhagalpur,Bihar,25.2425,87.0117,26.0,65,0.0,1008.6,7.2,9.4,158,119.7,79.9,7,0,4,1,2026-03-04T10:13:14.368643+05:30
Ranchi,Jharkhand,23.3441,85.3096,25.6,31,0.0,943.9,7.95,31.3,86,79.4,29.3,4,5,7,0,2026-03-04T10:13:14.368651+05:30
Jamshedpur,Jharkhand,22.8046,86.2029,27.8,33,0.0,997.7,7.85,24.5,116,76.1,47.4,4,5,7,0,2026-03-04T10:13:14.368658+05:30
Dhanbad,Jharkhand,23.7957,86.4304,28.6,26,0.0,986.4,7.7,25.2,125,88.2,57.7,4,5,7,0,2026-03-04T10:13:14.368665+05:30
Bokaro,Jharkhand,23.6693,86.1511,28.2,30,0.0,990.6,7.7,26.6,132,91.7,58.2,4,5,7,0,2026-03-04T10:13:14.368672+05:30
Bhubaneswar,Odisha,20.2961,85.8245,30.6,50,0.0,1008.4,8.15,26.6,152,80.3,69.2,0,0,4,1,2026-03-04T10:13:14.368679+05:30
Cuttack,Odisha,20.4625,85.8828,30.7,51,0.0,1010.4,8.15,27.7,152,80.3,69.2,0,0,4,1,2026-03-04T10:13:14.368686+05:30
Rourkela,Odisha,22.2604,84.8536,28.7,35,0.0,992.1,7.75,21.6,93,61.0,38.2,4,5,7,0,2026-03-04T10:13:14.368693+05:30
Raipur,Chhattisgarh,21.2514,81.6296,29.6,33,0.0,981.9,7.8,23.4,139,57.9,51.0,4,5,7,0,2026-03-04T10:13:14.368699+05:30
Bhilai,Chhattisgarh,21.1938,81.3509,29.8,35,0.0,982.2,7.8,20.5,124,48.7,40.6,4,5,7,0,2026-03-04T10:13:14.368706+05:30
Guwahati,Assam,26.1158,91.7086,26.2,61,0.0,1008.7,7.1,16.6,154,65.2,53.8,7,0,4,1,2026-03-04T10:13:14.368712+05:30
Agartala,Tripura,23.8315,91.2868,27.8,64,0.0,1012.2,7.5,21.6,163,87.1,71.2,7,0,4,1,2026-03-04T10:13:14.368719+05:30
Shillong,Meghalaya,25.5788,91.8933,17.4,47,0.0,861.0,7.5,29.2,151,64.5,49.7,0,5,7,0,2026-03-04T10:13:14.368725+05:30
Imphal,Manipur,24.817,93.9368,21.3,51,0.0,928.6,7.7,21.2,140,39.6,32.6,0,5,7,0,2026-03-04T10:13:14.368732+05:30
Aizawl,Mizoram,23.7271,92.7176,22.2,47,0.0,897.7,7.7,24.5,155,65.2,51.7,0,5,7,0,2026-03-04T10:13:14.368739+05:30
Kohima,Nagaland,25.6701,94.1077,18.1,57,0.0,860.0,7.55,39.2,149,56.1,44.4,0,5,7,0,2026-03-04T10:13:14.368745+05:30
Gangtok,Sikkim,27.3314,88.6138,17.7,62,0.0,843.3,7.45,20.9,151,68.9,48.7,3,5,7,0,2026-03-04T10:13:14.368751+05:30
Siliguri,West Bengal,26.7271,88.3953,24.0,62,0.0,1000.8,7.1,20.5,161,90.1,60.1,3,5,4,1,2026-03-04T10:13:17.710431+05:30
Durgapur,West Bengal,23.5204,87.3119,30.0,32,0.0,1001.5,7.7,22.3,103,88.2,52.2,4,5,4,0,2026-03-04T10:13:17.710462+05:30
Asansol,West Bengal,23.6739,86.9524,29.5,33,0.0,1000.1,7.7,23.0,94,78.5,49.5,4,5,4,0,2026-03-04T10:13:17.710471+05:30
Pondicherry,Puducherry,11.9139,79.8145,28.9,65,0.0,1014.0,8.85,27.4,106,34.7,30.2,7,0,4,1,2026-03-04T10:13:17.710479+05:30
Port Blair,Andaman and Nicobar Islands,11.6234,92.7265,27.1,74,0.0,1011.0,8.85,26.3,82,48.0,38.0,7,0,4,1,2026-03-04T10:13:17.710487+05:30
Haridwar,Uttarakhand,29.9457,78.1642,24.3,58,0.0,979.8,5.6,19.1,122,47.4,36.4,0,5,3,0,2026-03-04T10:13:17.710495+05:30
Rishikesh,Uttarakhand,30.0869,78.2676,25.1,54,0.0,972.2,5.65,24.1,96,40.4,31.5,4,5,3,0,2026-03-04T10:13:17.710503+05:30
Nainital,Uttarakhand,29.3919,79.4542,18.4,60,0.0,809.8,6.5,57.2,133,59.1,37.1,0,5,7,0,2026-03-04T10:13:17.710510+05:30
Mussoorie,Uttarakhand,30.4599,78.0664,19.7,40,0.0,807.3,6.0,37.8,92,38.9,29.0,0,5,3,0,2026-03-04T10:13:17.710517+05:30
Dharamshala,Himachal Pradesh,32.219,76.3234,23.6,35,0.0,875.0,6.25,29.5,47,20.5,7.1,0,5,7,0,2026-03-04T10:13:17.710524+05:30
Dalhousie,Himachal Pradesh,32.5387,75.971,22.8,19,0.0,810.6,6.45,24.1,84,29.4,22.4,0,5,7,1,2026-03-04T10:13:17.710532+05:30
Patiala,Punjab,30.3398,76.3869,24.4,60,0.0,984.7,5.65,32.8,224,335.3,79.6,0,5,3,1,2026-03-04T10:13:17.710539+05:30
Bhatinda,Punjab,30.211,74.9455,25.4,66,0.0,990.6,6.3,25.6,151,94.1,75.9,7,5,7,1,2026-03-04T10:13:17.710546+05:30
Rohtak,Haryana,28.8955,76.6066,24.7,63,0.0,988.7,5.85,34.6,417,326.9,77.8,3,5,3,1,2026-03-04T10:13:17.710553+05:30
Panipat,Haryana,29.3909,76.9635,24.4,62,0.0,986.9,5.65,34.2,1009,763.7,129.9,3,5,3,1,2026-03-04T10:13:17.710560+05:30
Mathura,Uttar Pradesh,27.4924,77.6737,26.8,49,0.0,993.8,6.1,32.8,430,359.5,69.6,4,5,7,0,2026-03-04T10:13:17.710567+05:30
Vrindavan,Uttar Pradesh,27.5823,77.7027,26.3,51,0.0,994.1,6.1,34.9,430,359.5,69.6,4,5,7,0,2026-03-04T10:13:17.710573+05:30
Ayodhya,Uttar Pradesh,26.7922,82.1998,24.6,64,0.0,1002.3,6.5,9.7,158,206.8,94.5,3,5,4,1,2026-03-04T10:13:17.710579+05:30
Ratlam,Madhya Pradesh,23.3315,75.0367,27.6,51,0.0,961.7,7.35,18.0,98,40.7,33.8,4,5,7,1,2026-03-04T10:13:17.710586+05:30
Sagar,Madhya Pradesh,23.8388,78.7378,28.0,44,0.0,957.7,7.3,27.0,65,21.6,13.5,4,5,7,0,2026-03-04T10:13:17.710593+05:30
Satna,Madhya Pradesh,24.6005,80.8322,28.0,38,0.0,978.6,7.25,36.7,70,32.6,16.9,4,5,7,0,2026-03-04T10:13:17.710600+05:30
Akola,Maharashtra,20.7002,77.0082,29.4,41,0.0,982.6,7.8,14.4,73,25.4,21.0,4,5,7,0,2026-03-04T10:13:17.710607+05:30
Amravati,Maharashtra,20.9374,77.7796,31.0,32,0.0,974.6,7.75,16.2,69,24.1,19.4,0,5,7,0,2026-03-04T10:13:17.710615+05:30
Latur,Maharashtra,18.4088,76.5604,29.3,36,0.0,946.0,8.25,20.5,80,22.5,21.4,4,5,7,0,2026-03-04T10:13:17.710622+05:30
Nanded,Maharashtra,19.1383,77.3091,30.5,35,0.0,975.1,8.0,14.4,81,30.0,27.3,0,5,7,0,2026-03-04T10:13:17.710629+05:30
Gulbarga,Karnataka,17.3297,76.8343,31.1,35,0.0,964.6,8.35,25.2,87,38.0,36.7,0,5,7,0,2026-03-04T10:13:17.710635+05:30
Bidar,Karnataka,17.9104,77.5199,31.0,31,0.0,941.3,8.3,26.6,92,22.0,20.5,0,5,7,0,2026-03-04T10:13:17.710641+05:30
Hospet,Karnataka,15.2689,76.3909,28.5,43,0.0,961.2,8.65,25.2,103,41.8,40.2,4,5,7,0,2026-03-04T10:13:17.710647+05:30
Tirupur,Tamil Nadu,11.1085,77.3411,28.3,52,0.0,980.6,9.15,31.0,108,38.6,36.7,4,5,7,1,2026-03-04T10:13:17.710654+05:30
Alappuzha,Kerala,9.4981,76.3388,27.0,81,0.0,1013.0,9.0,32.4,102,38.8,36.8,7,0,4,1,2026-03-04T10:13:17.710660+05:30
Munnar,Kerala,10.0889,77.0595,24.8,48,0.0,861.1,9.45,22.0,89,27.3,26.3,0,5,7,0,2026-03-04T10:13:17.710667+05:30
Silchar,Assam,24.8333,92.7789,27.2,56,0.0,1011.3,7.45,15.8,153,50.9,41.0,4,0,4,1,2026-03-04T10:13:17.710674+05:30
Dibrugarh,Assam,27.4728,94.912,24.4,69,0.0,1002.6,7.15,9.0,133,70.3,51.8,3,5,4,1,2026-03-04T10:13:17.710680+05:30
