city,state,latitude,longitude,temp,humidity,rain,pressure,uv_index,aqi,mosquito_risk,arthritis_risk,migraine_risk,frizz_risk,updated_at
Delhi,Delhi,28.6139,77.209,17.0,82,0.0,982.9,5.6,153,3,10,3,0,2026-02-27T04:07:33.134563+05:30
Mumbai,Maharashtra,19.076,72.8777,25.7,66,0.0,1008.9,7.35,72,7,0,4,1,2026-02-27T04:07:33.134599+05:30
Bangalore,Karnataka,12.9716,77.5946,20.7,76,0.0,909.6,8.95,115,3,5,7,1,2026-02-27T04:07:33.134614+05:30
Hyderabad,Telangana,17.385,78.4867,22.3,71,0.0,951.8,8.15,143,3,5,7,1,2026-02-27T04:07:33.134624+05:30
Chennai,Tamil Nadu,13.0827,80.2707,24.9,86,0.0,1006.6,8.65,95,3,5,4,1,2026-02-27T04:07:33.134632+05:30
Kolkata,West Bengal,22.5726,88.3639,18.0,96,0.0,1007.4,7.5,170,3,10,4,1,2026-02-27T04:07:33.134639+05:30
Pune,Maharashtra,18.5204,73.8567,15.6,84,0.0,946.7,7.85,65,3,10,7,0,2026-02-27T04:07:33.134646+05:30
Ahmedabad,Gujarat,23.0225,72.5714,18.9,81,0.0,1002.0,7.1,65,3,10,4,0,2026-02-27T04:07:33.134653+05:30
Jaipur,Rajasthan,26.9124,75.7873,20.1,45,0.0,958.9,6.45,85,0,5,7,0,2026-02-27T04:07:33.134663+05:30
Lucknow,Uttar Pradesh,26.8467,80.9462,16.9,71,0.0,993.6,6.05,139,3,5,7,0,2026-02-27T04:07:33.134670+05:30
Kanpur,Uttar Pradesh,26.4499,80.3319,16.0,78,0.0,992.0,6.05,146,3,5,7,0,2026-02-27T04:07:33.134677+05:30
Chandigarh,Chandigarh,30.7333,76.7794,15.1,76,0.0,967.9,5.5,126,3,5,3,0,2026-02-27T04:07:33.134684+05:30
Srinagar,Jammu and Kashmir,34.0837,74.7973,4.3,70,0.0,835.1,6.35,150,3,5,7,1,2026-02-27T04:07:33.134690+05:30
Jammu,Jammu and Kashmir,32.7266,74.857,14.8,86,0.0,972.3,6.1,119,3,10,7,0,2026-02-27T04:07:33.134698+05:30
Amritsar,Punjab,31.634,74.8723,15.7,81,0.0,980.6,6.05,168,3,10,7,0,2026-02-27T04:07:33.134704+05:30
Ludhiana,Punjab,30.901,75.8573,16.7,83,0.0,978.4,5.75,174,3,10,3,0,2026-02-27T04:07:33.134710+05:30
Jalandhar,Punjab,31.326,75.5762,15.1,93,0.0,979.7,5.9,177,3,10,3,0,2026-02-27T04:07:33.134716+05:30
Dehradun,Uttarakhand,30.6284,78.0322,8.4,73,0.0,824.7,5.85,78,3,5,3,0,2026-02-27T04:07:33.134722+05:30
Shimla,Himachal Pradesh,31.1048,77.1734,5.2,62,0.0,777.3,5.9,95,3,5,3,1,2026-02-27T04:07:33.134731+05:30
Manali,Himachal Pradesh,32.2396,77.1887,9.4,55,0.0,813.5,7.35,79,0,5,7,0,2026-02-27T04:07:33.134737+05:30
Gurgaon,Haryana,28.4595,77.0266,14.4,89,0.0,981.3,5.7,192,3,10,3,0,2026-02-27T04:07:33.134744+05:30
Noida,Uttar Pradesh,28.5355,77.391,17.5,80,0.0,984.5,5.6,192,3,5,3,0,2026-02-27T04:07:33.134750+05:30
Ghaziabad,Uttar Pradesh,28.6692,77.4538,16.3,86,0.0,982.4,5.55,152,3,10,3,0,2026-02-27T04:07:33.134756+05:30
Faridabad,Haryana,28.4089,77.3178,15.4,82,0.0,983.7,5.65,192,3,10,3,0,2026-02-27T04:07:33.134762+05:30
Meerut,Uttar Pradesh,28.9845,77.7064,15.7,89,0.0,980.9,5.45,152,3,10,3,0,2026-02-27T04:07:33.134768+05:30
Agra,Uttar Pradesh,27.1767,78.0081,16.8,60,0.0,987.9,5.95,152,0,5,3,0,2026-02-27T04:07:33.134774+05:30
Varanasi,Uttar Pradesh,25.3176,82.9739,17.3,77,0.0,998.3,6.75,123,3,5,7,0,2026-02-27T04:07:33.134780+05:30
Prayagraj,Uttar Pradesh,25.4358,81.8463,17.5,81,0.0,996.5,6.6,139,3,10,7,0,2026-02-27T04:07:33.134786+05:30
Gorakhpur,Uttar Pradesh,26.7606,83.3732,14.6,80,0.0,997.2,6.45,153,3,5,7,0,2026-02-27T04:07:33.134795+05:30
Bareilly,Uttar Pradesh,28.367,79.4304,15.2,89,0.0,986.5,5.75,152,3,10,3,0,2026-02-27T04:07:33.134801+05:30
Aligarh,Uttar Pradesh,27.8974,78.088,15.5,78,0.0,985.7,5.7,157,3,5,3,0,2026-02-27T04:07:33.134807+05:30
Moradabad,Uttar Pradesh,28.8386,78.7733,14.9,91,0.0,983.2,5.6,152,3,10,3,0,2026-02-27T04:07:33.134813+05:30
Saharanpur,Uttar Pradesh,29.9637,77.546,14.6,91,0.0,974.9,5.25,161,3,10,3,0,2026-02-27T04:07:33.134818+05:30
Jhansi,Uttar Pradesh,25.4484,78.5685,17.5,80,0.0,977.5,6.55,78,3,5,7,0,2026-02-27T04:07:36.389538+05:30
Surat,Gujarat,21.1702,72.8311,23.3,69,0.0,1007.3,7.05,84,3,5,4,1,2026-02-27T04:07:36.389563+05:30
Vadodara,Gujarat,22.3072,73.1812,19.7,92,0.0,1004.6,7.15,63,3,10,4,1,2026-02-27T04:07:36.389571+05:30
Rajkot,Gujarat,22.3039,70.8022,20.1,80,0.0,994.2,7.05,59,3,5,7,1,2026-02-27T04:07:36.389578+05:30
Thane,Maharashtra,19.2183,72.9781,22.6,81,0.0,1008.4,7.35,72,3,0,4,1,2026-02-27T04:07:36.389584+05:30
Nagpur,Maharashtra,21.1458,79.0882,22.0,60,0.0,972.8,7.45,104,0,5,7,0,2026-02-27T04:07:36.389590+05:30
Nashik,Maharashtra,19.9975,73.7898,16.3,89,0.0,944.1,7.5,46,3,10,7,0,2026-02-27T04:07:36.389596+05:30
Aurangabad,Maharashtra,19.8762,75.3433,19.5,69,0.0,942.6,7.85,66,3,5,7,0,2026-02-27T04:07:36.389602+05:30
Solapur,Maharashtra,17.6599,75.9064,19.7,68,0.0,955.6,8.1,76,3,5,7,0,2026-02-27T04:07:36.389608+05:30
Kolhapur,Maharashtra,16.705,74.2433,16.3,68,0.0,945.8,8.3,59,3,5,7,0,2026-02-27T04:07:36.389613+05:30
Goa,Goa,15.2993,74.124,23.3,88,0.0,996.7,8.3,52,3,5,7,1,2026-02-27T04:07:36.389619+05:30
Jodhpur,Rajasthan,26.2389,73.0243,21.8,46,0.0,981.9,6.7,70,0,5,7,0,2026-02-27T04:07:36.389624+05:30
Udaipur,Rajasthan,24.5854,73.7125,19.3,56,0.0,945.3,7.35,66,0,5,7,0,2026-02-27T04:07:36.389630+05:30
Kota,Rajasthan,25.2138,75.8648,19.4,75,0.0,977.6,6.75,86,3,5,7,0,2026-02-27T04:07:36.389635+05:30
Bikaner,Rajasthan,28.0229,73.3119,20.9,44,0.0,981.0,6.35,54,0,5,7,0,2026-02-27T04:07:36.389641+05:30
Ajmer,Rajasthan,26.4499,74.6399,20.5,47,0.0,953.0,6.7,79,0,5,7,0,2026-02-27T04:07:36.389646+05:30
Gwalior,Madhya Pradesh,26.2183,78.1828,18.9,71,0.0,983.1,6.25,94,3,5,7,0,2026-02-27T04:07:36.389652+05:30
Indore,Madhya Pradesh,22.7196,75.8577,17.9,75,0.0,946.4,7.25,91,3,5,7,0,2026-02-27T04:07:36.389657+05:30
Bhopal,Madhya Pradesh,23.2599,77.4126,19.1,61,0.0,951.9,7.1,76,3,5,7,0,2026-02-27T04:07:36.389663+05:30
Jabalpur,Madhya Pradesh,23.1815,79.9864,17.2,67,0.0,960.5,7.2,69,3,5,7,0,2026-02-27T04:07:36.389668+05:30
Ujjain,Madhya Pradesh,23.1765,75.7885,18.0,71,0.0,952.2,7.15,101,3,5,7,0,2026-02-27T04:07:36.389674+05:30
Visakhapatnam,Andhra Pradesh,17.6868,83.2185,23.9,89,0.0,1004.3,8.15,123,3,5,4,1,2026-02-27T04:07:36.389680+05:30
Vijayawada,Andhra Pradesh,16.5062,80.648,23.9,95,0.0,1002.4,8.2,109,3,5,4,1,2026-02-27T04:07:36.389685+05:30
Guntur,Andhra Pradesh,16.3067,80.4365,23.8,95,0.0,1003.5,8.2,105,3,5,4,1,2026-02-27T04:07:36.389691+05:30
Nellore,Andhra Pradesh,14.4426,79.9865,24.8,86,0.0,1005.4,8.45,83,3,5,4,1,2026-02-27T04:07:36.389697+05:30
Kurnool,Andhra Pradesh,15.8281,78.0373,24.3,62,0.0,975.6,8.25,105,3,5,7,1,2026-02-27T04:07:36.389704+05:30
Kakinada,Andhra Pradesh,16.9891,82.2475,22.7,98,0.0,1007.8,8.15,79,3,5,4,1,2026-02-27T04:07:36.389709+05:30
Tirupati,Andhra Pradesh,13.6288,79.4192,22.1,78,0.0,991.2,8.6,101,3,5,7,1,2026-02-27T04:07:36.389715+05:30
Warangal,Telangana,17.9689,79.5941,21.2,78,0.0,977.7,7.95,155,3,5,7,1,2026-02-27T04:07:36.389720+05:30
Nizamabad,Telangana,18.6725,78.0941,21.3,71,0.0,963.2,7.85,152,3,5,7,0,2026-02-27T04:07:36.389726+05:30
Mysore,Karnataka,12.2958,76.6396,21.3,85,0.0,926.4,9.0,114,3,5,7,1,2026-02-27T04:07:36.389732+05:30
Mangalore,Karnataka,12.9141,74.856,28.2,77,0.0,1005.1,8.55,72,7,5,4,1,2026-02-27T04:07:36.389737+05:30
Hubli-Dharwad,Karnataka,15.3647,75.124,20.2,61,0.0,938.6,8.45,49,3,5,7,0,2026-02-27T04:07:36.389742+05:30
Belgaum,Karnataka,15.8497,74.4977,18.6,64,0.0,923.1,8.5,43,3,5,7,0,2026-02-27T04:07:39.641050+05:30
Coimbatore,Tamil Nadu,11.0168,76.9558,21.5,80,0.0,960.4,9.0,99,3,5,7,1,2026-02-27T04:07:39.641081+05:30
Madurai,Tamil Nadu,9.9252,78.1198,22.7,87,0.0,992.1,9.0,137,3,5,7,1,2026-02-27T04:07:39.641093+05:30
Trichy,Tamil Nadu,10.7905,78.7047,24.6,93,0.0,998.9,8.85,102,3,5,7,1,2026-02-27T04:07:39.641101+05:30
Salem,Tamil Nadu,11.6643,78.146,24.2,81,0.0,976.3,8.85,118,3,5,7,1,2026-02-27T04:07:39.641108+05:30
Tirunelveli,Tamil Nadu,8.7139,77.7567,23.9,92,0.0,1002.2,9.0,91,3,5,4,1,2026-02-27T04:07:39.641116+05:30
Vellore,Tamil Nadu,12.9165,79.1325,21.4,86,0.0,984.0,8.7,108,3,5,7,1,2026-02-27T04:07:39.641123+05:30
Erode,Tamil Nadu,11.341,77.7172,24.3,85,0.0,988.1,8.45,113,3,5,7,1,2026-02-27T04:07:39.641130+05:30
Kochi,Kerala,9.9312,76.2673,26.8,84,0.0,1007.1,8.8,82,7,5,4,1,2026-02-27T04:07:39.641138+05:30
Thiruvananthapuram,Kerala,8.5241,76.9366,27.5,80,0.0,1006.2,8.8,66,7,5,4,1,2026-02-27T04:07:39.641145+05:30
Kozhikode,Kerala,11.2588,75.7804,27.8,79,0.0,1006.1,8.7,69,7,5,4,1,2026-02-27T04:07:39.641152+05:30
Thrissur,Kerala,10.5276,76.2144,24.6,85,0.0,1005.5,8.8,93,3,5,4,1,2026-02-27T04:07:39.641160+05:30
Kannur,Kerala,11.8745,75.3704,26.7,81,0.0,1005.3,8.7,77,7,5,4,1,2026-02-27T04:07:39.641168+05:30
Patna,Bihar,25.5941,85.1376,16.9,75,0.0,1001.2,6.9,152,3,5,4,0,2026-02-27T04:07:39.641175+05:30
Gaya,Bihar,24.7914,85.0002,16.2,65,0.0,994.8,7.0,120,3,5,7,0,2026-02-27T04:07:39.641182+05:30
Muzaffarpur,Bihar,26.1209,85.3647,15.9,77,0.0,1000.9,6.85,155,3,5,4,0,2026-02-27T04:07:39.641189+05:30
Bhagalpur,Bihar,25.2425,87.0117,15.1,84,0.0,1002.3,6.95,138,3,10,4,0,2026-02-27T04:07:39.641197+05:30
Ranchi,Jharkhand,23.3441,85.3096,16.4,47,0.0,937.3,7.65,85,0,5,7,0,2026-02-27T04:07:39.641204+05:30
Jamshedpur,Jharkhand,22.8046,86.2029,15.3,80,0.0,992.1,7.55,132,3,5,7,0,2026-02-27T04:07:39.641212+05:30
Dhanbad,Jharkhand,23.7957,86.4304,15.3,66,0.0,980.8,7.45,128,3,5,7,0,2026-02-27T04:07:39.641218+05:30
Bokaro,Jharkhand,23.6693,86.1511,15.6,65,0.0,985.2,7.45,132,3,5,7,0,2026-02-27T04:07:39.641264+05:30
Bhubaneswar,Odisha,20.2961,85.8245,22.2,96,0.0,1003.5,7.85,132,3,5,4,1,2026-02-27T04:07:39.641274+05:30
Cuttack,Odisha,20.4625,85.8828,21.5,97,0.0,1005.4,7.9,132,3,5,4,1,2026-02-27T04:07:39.641281+05:30
Rourkela,Odisha,22.2604,84.8536,15.2,77,0.0,986.0,7.45,91,3,5,7,0,2026-02-27T04:07:39.641289+05:30
Raipur,Chhattisgarh,21.2514,81.6296,18.8,60,0.0,974.6,7.55,128,0,5,7,0,2026-02-27T04:07:39.641296+05:30
Bhilai,Chhattisgarh,21.1938,81.3509,18.1,61,0.0,974.9,7.55,135,3,5,7,0,2026-02-27T04:07:39.641303+05:30
Guwahati,Assam,26.1158,91.7086,17.7,93,0.0,1002.6,6.9,150,3,10,4,1,2026-02-27T04:07:39.641311+05:30
Agartala,Tripura,23.8315,91.2868,16.1,89,0.0,1007.3,7.25,168,3,10,4,0,2026-02-27T04:07:39.641319+05:30
Shillong,Meghalaya,25.5788,91.8933,6.7,87,0.0,851.5,4.9,123,3,10,3,0,2026-02-27T04:07:39.641326+05:30
Imphal,Manipur,24.817,93.9368,12.1,82,0.0,921.7,7.45,155,3,10,7,0,2026-02-27T04:07:39.641334+05:30
Aizawl,Mizoram,23.7271,92.7176,13.1,79,0.0,890.6,7.4,164,3,5,7,0,2026-02-27T04:07:39.641341+05:30
Kohima,Nagaland,25.6701,94.1077,10.6,82,0.0,851.9,7.25,154,3,10,7,0,2026-02-27T04:07:39.641354+05:30
Gangtok,Sikkim,27.3314,88.6138,10.3,78,0.0,833.5,4.4,153,3,5,3,0,2026-02-27T04:07:39.641361+05:30
Siliguri,West Bengal,26.7271,88.3953,17.5,65,0.0,994.5,6.9,162,3,5,7,0,2026-02-27T04:07:42.896913+05:30
Durgapur,West Bengal,23.5204,87.3119,17.9,65,0.0,996.4,7.4,124,3,5,7,0,2026-02-27T04:07:42.896942+05:30
Asansol,West Bengal,23.6739,86.9524,19.0,53,0.0,995.1,7.4,109,0,5,7,0,2026-02-27T04:07:42.896953+05:30
Pondicherry,Puducherry,11.9139,79.8145,23.0,97,0.0,1007.9,8.7,84,3,5,4,1,2026-02-27T04:07:42.896962+05:30
Port Blair,Andaman and Nicobar Islands,11.6234,92.7265,26.4,83,0.0,1004.7,8.7,28,7,5,4,1,2026-02-27T04:07:42.896971+05:30
Haridwar,Uttarakhand,29.9457,78.1642,14.1,94,0.0,973.5,5.3,152,3,10,3,0,2026-02-27T04:07:42.896979+05:30
Rishikesh,Uttarakhand,30.0869,78.2676,15.0,84,0.0,966.0,5.4,122,3,10,3,0,2026-02-27T04:07:42.896987+05:30
Nainital,Uttarakhand,29.3919,79.4542,12.5,71,0.0,801.6,6.2,130,3,5,7,0,2026-02-27T04:07:42.896995+05:30
Mussoorie,Uttarakhand,30.4599,78.0664,10.4,79,0.0,797.6,5.75,123,3,5,3,0,2026-02-27T04:07:42.897002+05:30
Dharamshala,Himachal Pradesh,32.219,76.3234,14.5,44,0.0,865.8,5.95,72,0,5,3,0,2026-02-27T04:07:42.897009+05:30
Dalhousie,Himachal Pradesh,32.5387,75.971,10.8,50,0.0,799.2,6.2,128,0,5,7,0,2026-02-27T04:07:42.897017+05:30
Patiala,Punjab,30.3398,76.3869,15.5,89,0.0,977.6,5.4,165,3,10,3,0,2026-02-27T04:07:42.897025+05:30
Bhatinda,Punjab,30.211,74.9455,16.0,87,0.0,983.7,6.1,161,3,10,7,0,2026-02-27T04:07:42.897032+05:30
Rohtak,Haryana,28.8955,76.6066,15.7,87,0.0,981.7,5.6,155,3,10,3,0,2026-02-27T04:07:42.897039+05:30
Panipat,Haryana,29.3909,76.9635,15.5,90,0.0,979.8,5.4,173,3,10,3,0,2026-02-27T04:07:42.897046+05:30
Mathura,Uttar Pradesh,27.4924,77.6737,14.7,71,0.0,987.0,5.85,147,3,5,3,0,2026-02-27T04:07:42.897053+05:30
Vrindavan,Uttar Pradesh,27.5823,77.7027,15.6,68,0.0,987.5,5.85,147,3,5,3,0,2026-02-27T04:07:42.897060+05:30
Ayodhya,Uttar Pradesh,26.7922,82.1998,15.7,76,0.0,995.4,6.25,150,3,5,7,0,2026-02-27T04:07:42.897067+05:30
Ratlam,Madhya Pradesh,23.3315,75.0367,19.5,65,0.0,953.2,7.15,85,3,5,7,0,2026-02-27T04:07:42.897075+05:30
Sagar,Madhya Pradesh,23.8388,78.7378,19.6,55,0.0,948.8,7.05,58,0,5,7,0,2026-02-27T04:07:42.897082+05:30
Satna,Madhya Pradesh,24.6005,80.8322,17.8,58,0.0,971.0,7.0,71,0,5,7,0,2026-02-27T04:07:42.897089+05:30
Akola,Maharashtra,20.7002,77.0082,21.3,66,0.0,974.2,7.55,122,3,5,7,0,2026-02-27T04:07:42.897096+05:30
Amravati,Maharashtra,20.9374,77.7796,21.6,62,0.0,965.8,7.5,120,3,5,7,0,2026-02-27T04:07:42.897105+05:30
Latur,Maharashtra,18.4088,76.5604,20.1,62,0.0,937.9,8.0,115,3,5,7,0,2026-02-27T04:07:42.897112+05:30
Nanded,Maharashtra,19.1383,77.3091,21.8,71,0.0,967.2,7.75,153,3,5,7,1,2026-02-27T04:07:42.897119+05:30
Gulbarga,Karnataka,17.3297,76.8343,22.5,60,0.0,957.1,8.1,119,0,5,7,0,2026-02-27T04:07:42.897126+05:30
Bidar,Karnataka,17.9104,77.5199,22.0,68,0.0,933.6,8.05,151,3,5,7,0,2026-02-27T04:07:42.897133+05:30
Hospet,Karnataka,15.2689,76.3909,23.4,67,0.0,954.3,8.4,107,3,5,7,1,2026-02-27T04:07:42.897140+05:30
Tirupur,Tamil Nadu,11.1085,77.3411,23.5,81,0.0,974.2,8.05,130,3,5,7,1,2026-02-27T04:07:42.897147+05:30
Alappuzha,Kerala,9.4981,76.3388,26.8,84,0.0,1007.2,8.7,88,7,5,4,1,2026-02-27T04:07:42.897154+05:30
Munnar,Kerala,10.0889,77.0595,18.9,88,0.0,854.2,6.3,86,3,10,7,1,2026-02-27T04:07:42.897162+05:30
Silchar,Assam,24.8333,92.7789,16.2,84,0.0,1006.3,7.2,163,3,10,4,0,2026-02-27T04:07:42.897169+05:30
Dibrugarh,Assam,27.4728,94.912,19.7,78,0.0,997.0,6.95,148,3,5,7,0,2026-02-27T04:07:42.897176+05:30
