city,state,latitude,longitude,temp,humidity,rain,pressure,uv_index,wind_gusts,aqi,pm10,pm2_5,no2,co,o3,so2,mosquito_risk,arthritis_risk,migraine_risk,frizz_risk,updated_at
Delhi,Delhi,28.6139,77.209,35.7,33,0.0,978.3,7.75,32.4,166,356.7,102.0,60.7,608.0,47.0,23.3,0,5,10,1,2026-06-06T21:37:57.871947+05:30
Mumbai,Maharashtra,19.076,72.8777,31.3,68,0.0,1007.0,7.2,39.6,75,41.0,18.6,8.9,174.0,45.0,6.1,3,5,4,1,2026-06-06T21:37:57.871991+05:30
Bangalore,Karnataka,12.9716,77.5946,22.6,85,0.0,912.0,8.4,51.5,28,7.1,6.8,21.8,504.0,34.0,5.0,3,5,7,1,2026-06-06T21:37:57.872006+05:30
Hyderabad,Telangana,17.385,78.4867,31.6,47,0.0,951.6,9.05,37.8,93,77.8,54.8,45.0,475.0,35.0,13.0,0,5,7,1,2026-06-06T21:37:57.872015+05:30
Chennai,Tamil Nadu,13.0827,80.2707,34.7,44,0.0,1005.2,8.5,42.1,62,15.4,12.5,14.0,360.0,70.0,8.4,0,5,4,1,2026-06-06T21:37:57.872024+05:30
Kolkata,West Bengal,22.5726,88.3639,29.7,90,0.0,1002.8,9.0,29.5,125,40.9,36.8,13.8,901.0,66.0,9.5,7,5,4,1,2026-06-06T21:37:57.872032+05:30
Pune,Maharashtra,18.5204,73.8567,26.2,78,0.0,947.3,8.35,46.8,51,20.8,12.8,11.9,165.0,45.0,7.5,7,5,7,1,2026-06-06T21:37:57.872040+05:30
Ahmedabad,Gujarat,23.0225,72.5714,33.8,59,0.0,998.0,8.1,34.2,91,67.1,34.8,20.3,185.0,45.0,7.7,0,5,7,1,2026-06-06T21:37:57.872047+05:30
Jaipur,Rajasthan,26.9124,75.7873,30.0,55,0.0,956.0,8.25,32.8,114,178.3,69.4,37.8,446.0,36.0,12.2,4,5,7,1,2026-06-06T21:37:57.872060+05:30
Lucknow,Uttar Pradesh,26.8467,80.9462,33.1,49,0.0,989.0,8.3,27.7,157,75.2,64.0,36.2,407.0,70.0,16.0,0,5,7,1,2026-06-06T21:37:57.872068+05:30
Kanpur,Uttar Pradesh,26.4499,80.3319,34.3,40,0.0,987.3,8.3,36.0,213,281.3,87.3,40.2,459.0,63.0,16.0,0,5,7,1,2026-06-06T21:37:57.872075+05:30
Chandigarh,Chandigarh,30.7333,76.7794,28.6,46,0.0,963.8,7.8,31.3,149,34.2,29.0,22.4,763.0,102.0,11.7,4,5,7,0,2026-06-06T21:37:57.872082+05:30
Srinagar,Jammu and Kashmir,34.0837,74.7973,18.9,67,0.0,840.6,9.0,25.9,71,25.8,24.0,30.6,1340.0,49.0,2.7,3,5,7,0,2026-06-06T21:37:57.872089+05:30
Jammu,Jammu and Kashmir,32.7266,74.857,29.9,38,0.0,967.5,8.6,29.5,103,43.0,36.2,47.3,427.0,59.0,6.2,4,5,7,0,2026-06-06T21:37:57.872098+05:30
Amritsar,Punjab,31.634,74.8723,33.3,33,0.0,975.3,8.45,22.0,142,73.3,64.0,51.0,700.0,51.0,10.9,0,5,7,0,2026-06-06T21:37:57.872107+05:30
Ludhiana,Punjab,30.901,75.8573,33.2,40,0.0,973.5,8.05,30.6,154,64.7,44.0,29.6,715.0,80.0,8.3,0,5,7,1,2026-06-06T21:37:57.872114+05:30
Jalandhar,Punjab,31.326,75.5762,32.2,40,0.0,974.4,8.25,24.5,144,60.1,48.1,37.0,712.0,82.0,9.7,0,5,7,1,2026-06-06T21:37:57.872120+05:30
Dehradun,Uttarakhand,30.6284,78.0322,17.4,61,0.0,827.6,8.25,33.1,114,26.5,20.1,29.2,205.0,83.0,3.8,3,5,7,0,2026-06-06T21:37:57.872126+05:30
Shimla,Himachal Pradesh,31.1048,77.1734,16.8,44,0.0,783.1,8.35,41.8,105,24.0,14.7,16.0,242.0,101.0,3.3,0,5,7,0,2026-06-06T21:37:57.872135+05:30
Manali,Himachal Pradesh,32.2396,77.1887,16.0,58,0.0,816.9,9.9,37.1,114,8.3,7.5,73.4,244.0,65.0,0.2,0,5,7,0,2026-06-06T21:37:57.872142+05:30
Gurgaon,Haryana,28.4595,77.0266,32.8,47,0.0,976.7,7.85,32.8,256,374.4,106.9,69.1,842.0,32.0,22.2,0,5,7,1,2026-06-06T21:37:57.872148+05:30
Noida,Uttar Pradesh,28.5355,77.391,31.1,53,0.0,979.6,7.8,19.8,256,374.4,106.9,69.1,1624.0,32.0,22.2,0,5,7,1,2026-06-06T21:37:57.872157+05:30
Ghaziabad,Uttar Pradesh,28.6692,77.4538,30.6,59,0.0,977.8,7.8,28.8,169,303.6,100.8,51.8,776.0,64.0,24.8,0,5,7,1,2026-06-06T21:37:57.872164+05:30
Faridabad,Haryana,28.4089,77.3178,33.3,38,0.0,979.1,7.85,23.8,256,374.4,106.9,69.1,964.0,32.0,22.2,0,5,7,1,2026-06-06T21:37:57.872170+05:30
Meerut,Uttar Pradesh,28.9845,77.7064,31.6,52,0.0,976.5,7.7,25.9,169,303.6,100.8,51.8,577.0,64.0,24.8,0,5,7,1,2026-06-06T21:37:57.872177+05:30
Agra,Uttar Pradesh,27.1767,78.0081,33.1,41,0.0,983.2,8.1,31.0,415,314.8,91.7,52.6,475.0,38.0,16.8,0,5,7,1,2026-06-06T21:37:57.872203+05:30
Varanasi,Uttar Pradesh,25.3176,82.9739,33.1,50,0.0,993.2,8.8,32.0,158,113.9,79.9,40.5,641.0,61.0,17.6,0,5,7,1,2026-06-06T21:37:57.872211+05:30
Prayagraj,Uttar Pradesh,25.4358,81.8463,33.2,48,0.0,991.4,8.7,40.3,152,190.0,95.0,45.1,608.0,56.0,21.9,0,5,7,1,2026-06-06T21:37:57.872218+05:30
Gorakhpur,Uttar Pradesh,26.7606,83.3732,29.5,72,0.0,993.1,8.7,36.7,163,84.5,61.9,30.1,449.0,60.0,11.2,7,5,7,1,2026-06-06T21:37:57.872228+05:30
Bareilly,Uttar Pradesh,28.367,79.4304,29.6,64,0.0,982.1,8.1,25.9,151,82.0,53.3,22.3,448.0,88.0,11.3,7,5,7,1,2026-06-06T21:37:57.872234+05:30
Aligarh,Uttar Pradesh,27.8974,78.088,31.4,56,0.0,980.9,7.95,26.3,199,333.4,111.3,56.1,604.0,68.0,21.3,0,5,7,1,2026-06-06T21:37:57.872241+05:30
Moradabad,Uttar Pradesh,28.8386,78.7733,30.9,56,0.0,978.8,7.9,28.8,159,202.6,103.6,62.9,771.0,52.0,21.9,0,5,7,1,2026-06-06T21:37:57.872247+05:30
Saharanpur,Uttar Pradesh,29.9637,77.546,29.5,45,0.0,970.5,7.5,28.1,140,157.4,58.6,27.4,386.0,99.0,15.8,4,5,7,1,2026-06-06T21:37:57.872253+05:30
Jhansi,Uttar Pradesh,25.4484,78.5685,32.1,47,0.0,974.0,8.45,35.3,75,64.3,33.8,15.4,252.0,65.0,7.0,0,5,7,1,2026-06-06T21:38:01.233410+05:30
Surat,Gujarat,21.1702,72.8311,30.7,76,0.0,1004.1,7.6,44.6,89,38.3,20.0,17.7,214.0,35.0,28.7,3,5,4,1,2026-06-06T21:38:01.233442+05:30
Vadodara,Gujarat,22.3072,73.1812,31.5,67,0.0,1001.1,8.0,40.7,88,57.0,32.0,15.8,180.0,50.0,19.4,3,5,4,1,2026-06-06T21:38:01.233452+05:30
Rajkot,Gujarat,22.3039,70.8022,32.5,56,0.0,991.2,7.55,46.1,81,38.2,18.0,4.2,119.0,57.0,4.4,0,5,7,1,2026-06-06T21:38:01.233461+05:30
Thane,Maharashtra,19.2183,72.9781,31.0,70,0.0,1006.4,7.6,40.3,75,41.0,18.6,8.9,172.0,45.0,6.1,3,5,4,1,2026-06-06T21:38:01.233469+05:30
Nagpur,Maharashtra,21.1458,79.0882,34.6,37,0.0,970.0,8.35,42.8,71,36.0,21.8,13.2,242.0,80.0,11.1,0,5,7,1,2026-06-06T21:38:01.233476+05:30
Nashik,Maharashtra,19.9975,73.7898,27.1,70,0.0,944.7,8.05,41.0,62,36.2,17.5,4.0,135.0,54.0,1.6,7,5,7,1,2026-06-06T21:38:01.233484+05:30
Aurangabad,Maharashtra,19.8762,75.3433,31.2,44,0.0,942.2,8.95,41.0,64,38.0,21.5,6.4,272.0,75.0,3.5,0,5,7,1,2026-06-06T21:38:01.233491+05:30
Solapur,Maharashtra,17.6599,75.9064,28.0,65,0.0,955.6,8.95,47.2,65,18.9,13.2,12.5,159.0,67.0,4.0,7,5,7,1,2026-06-06T21:38:01.233499+05:30
Kolhapur,Maharashtra,16.705,74.2433,24.6,88,0.0,947.7,7.95,47.2,37,10.1,8.2,8.3,156.0,47.0,2.6,3,5,7,1,2026-06-06T21:38:01.233506+05:30
Goa,Goa,15.2993,74.124,26.3,96,0.0,998.2,7.0,29.5,33,16.4,11.6,7.1,325.0,44.0,1.4,7,5,7,1,2026-06-06T21:38:01.233514+05:30
Jodhpur,Rajasthan,26.2389,73.0243,31.3,61,0.2,978.6,8.45,33.8,126,212.8,49.9,7.9,223.0,69.0,2.6,6,5,7,1,2026-06-06T21:38:01.233522+05:30
Udaipur,Rajasthan,24.5854,73.7125,31.3,50,0.0,943.7,8.85,32.4,94,58.6,31.4,4.6,174.0,91.0,5.5,0,5,7,1,2026-06-06T21:38:01.233529+05:30
Kota,Rajasthan,25.2138,75.8648,28.0,70,0.0,974.8,8.4,42.5,84,98.7,49.1,22.2,406.0,57.0,6.7,7,5,7,1,2026-06-06T21:38:01.233537+05:30
Bikaner,Rajasthan,28.0229,73.3119,36.1,28,0.0,976.3,8.5,28.4,106,78.7,35.7,4.3,220.0,79.0,4.0,0,5,10,0,2026-06-06T21:38:01.233545+05:30
Ajmer,Rajasthan,26.4499,74.6399,31.6,45,0.0,950.9,8.35,36.0,104,172.3,55.6,10.6,184.0,64.0,3.9,0,5,7,1,2026-06-06T21:38:01.233553+05:30
Gwalior,Madhya Pradesh,26.2183,78.1828,33.2,42,0.0,979.0,8.25,32.4,147,117.3,42.6,17.0,306.0,64.0,6.7,0,5,7,1,2026-06-06T21:38:01.233560+05:30
Indore,Madhya Pradesh,22.7196,75.8577,30.4,58,0.0,945.8,8.6,33.8,90,56.7,38.0,16.9,538.0,62.0,7.6,0,5,7,1,2026-06-06T21:38:01.233568+05:30
Bhopal,Madhya Pradesh,23.2599,77.4126,27.1,74,0.0,951.0,8.7,38.9,90,52.5,33.4,14.2,337.0,53.0,5.2,7,5,7,1,2026-06-06T21:38:01.233575+05:30
Jabalpur,Madhya Pradesh,23.1815,79.9864,30.3,53,0.0,958.2,8.35,39.6,95,123.4,46.8,21.6,302.0,75.0,7.3,0,5,7,1,2026-06-06T21:38:01.233583+05:30
Ujjain,Madhya Pradesh,23.1765,75.7885,30.8,52,0.0,951.1,8.6,33.5,89,56.7,33.5,4.9,367.0,82.0,5.1,0,5,7,1,2026-06-06T21:38:01.233591+05:30
Visakhapatnam,Andhra Pradesh,17.6868,83.2185,31.4,68,0.0,1000.3,8.6,35.6,118,46.9,38.2,30.7,697.0,76.0,36.0,3,5,4,1,2026-06-06T21:38:01.233598+05:30
Vijayawada,Andhra Pradesh,16.5062,80.648,33.1,58,0.0,999.4,8.8,33.1,90,32.5,27.1,9.7,245.0,92.0,6.3,0,5,7,1,2026-06-06T21:38:01.233605+05:30
Guntur,Andhra Pradesh,16.3067,80.4365,32.7,58,0.0,1000.9,9.0,32.8,86,33.1,26.9,11.7,210.0,85.0,5.3,0,5,4,1,2026-06-06T21:38:01.233612+05:30
Nellore,Andhra Pradesh,14.4426,79.9865,26.7,92,0.2,1004.9,8.45,37.8,70,18.5,14.9,6.0,193.0,89.0,3.0,10,5,4,1,2026-06-06T21:38:01.233621+05:30
Kurnool,Andhra Pradesh,15.8281,78.0373,27.9,80,0.0,975.9,5.95,44.6,91,38.2,27.6,12.0,230.0,89.0,10.3,7,5,3,1,2026-06-06T21:38:01.233628+05:30
Kakinada,Andhra Pradesh,16.9891,82.2475,31.2,74,0.0,1004.1,8.7,38.5,96,28.9,21.1,3.4,311.0,105.0,3.5,3,5,4,1,2026-06-06T21:38:01.233636+05:30
Tirupati,Andhra Pradesh,13.6288,79.4192,27.7,75,0.0,989.9,8.6,35.3,44,9.1,8.8,13.5,292.0,49.0,1.8,7,5,7,1,2026-06-06T21:38:01.233642+05:30
Warangal,Telangana,17.9689,79.5941,32.4,52,0.0,975.6,9.05,44.6,96,78.7,59.0,32.9,599.0,42.0,9.0,0,5,7,1,2026-06-06T21:38:01.233649+05:30
Nizamabad,Telangana,18.6725,78.0941,31.2,48,0.0,962.1,9.05,42.5,89,59.6,40.5,22.4,527.0,57.0,5.4,0,5,7,1,2026-06-06T21:38:01.233656+05:30
Mysore,Karnataka,12.2958,76.6396,22.0,96,0.0,928.9,6.45,55.1,27,4.3,4.2,13.2,199.0,35.0,2.1,3,5,7,1,2026-06-06T21:38:01.233663+05:30
Mangalore,Karnataka,12.9141,74.856,24.6,98,0.3,1007.5,1.45,27.4,25,10.9,9.3,13.6,285.0,37.0,2.5,6,5,0,1,2026-06-06T21:38:01.233670+05:30
Hubli-Dharwad,Karnataka,15.3647,75.124,23.9,90,0.0,940.8,8.4,37.8,32,3.9,3.3,6.9,152.0,50.0,1.1,3,5,7,1,2026-06-06T21:38:01.233677+05:30
Belgaum,Karnataka,15.8497,74.4977,22.8,98,0.0,925.5,8.95,42.5,33,5.5,4.5,7.2,149.0,50.0,1.9,3,5,7,1,2026-06-06T21:38:04.736721+05:30
Coimbatore,Tamil Nadu,11.0168,76.9558,23.4,92,0.0,962.4,8.9,47.5,22,3.3,3.1,7.5,230.0,35.0,2.3,3,5,7,1,2026-06-06T21:38:04.736751+05:30
Madurai,Tamil Nadu,9.9252,78.1198,29.8,59,0.0,993.3,8.75,67.7,32,7.0,4.5,6.6,142.0,47.0,2.4,4,5,7,1,2026-06-06T21:38:04.736763+05:30
Trichy,Tamil Nadu,10.7905,78.7047,30.0,59,0.0,1000.0,8.85,60.5,31,5.9,4.0,7.7,146.0,37.0,2.9,4,5,4,1,2026-06-06T21:38:04.736772+05:30
Salem,Tamil Nadu,11.6643,78.146,27.9,66,0.1,978.1,8.65,54.0,37,8.2,7.5,14.6,215.0,42.0,6.6,10,5,7,1,2026-06-06T21:38:04.736780+05:30
Tirunelveli,Tamil Nadu,8.7139,77.7567,29.4,64,0.0,1004.7,8.7,46.8,24,5.9,4.4,6.3,145.0,37.0,1.2,7,5,4,1,2026-06-06T21:38:04.736789+05:30
Vellore,Tamil Nadu,12.9165,79.1325,30.9,51,0.0,983.7,8.95,39.6,36,11.5,11.1,14.9,242.0,46.0,4.0,0,5,7,1,2026-06-06T21:38:04.736796+05:30
Erode,Tamil Nadu,11.341,77.7172,26.1,78,0.0,989.7,8.8,60.5,28,5.8,5.3,10.9,177.0,35.0,2.9,7,5,7,1,2026-06-06T21:38:04.736804+05:30
Kochi,Kerala,9.9312,76.2673,26.5,87,0.1,1011.2,7.85,44.3,44,13.8,9.2,15.2,162.0,26.0,3.4,10,0,4,1,2026-06-06T21:38:04.736812+05:30
Thiruvananthapuram,Kerala,8.5241,76.9366,25.0,93,0.1,1011.1,8.3,46.1,25,13.8,6.3,2.0,107.0,47.0,0.5,10,0,4,1,2026-06-06T21:38:04.736819+05:30
Kozhikode,Kerala,11.2588,75.7804,24.6,98,0.5,1010.1,2.0,28.4,25,8.4,4.4,1.2,126.0,57.0,0.4,6,0,0,1,2026-06-06T21:38:04.736826+05:30
Thrissur,Kerala,10.5276,76.2144,24.1,98,0.1,1009.8,6.8,34.9,40,15.2,11.5,12.5,332.0,27.0,2.8,6,0,4,1,2026-06-06T21:38:04.736834+05:30
Kannur,Kerala,11.8745,75.3704,25.1,94,0.4,1008.3,0.8,31.7,22,6.2,5.3,11.0,270.0,39.0,1.6,10,0,0,1,2026-06-06T21:38:04.736841+05:30
Patna,Bihar,25.5941,85.1376,30.5,80,0.0,996.6,8.9,27.4,184,74.3,65.4,13.8,566.0,131.0,10.3,3,5,7,1,2026-06-06T21:38:04.736848+05:30
Gaya,Bihar,24.7914,85.0002,30.9,63,0.0,990.1,8.7,22.0,156,75.0,65.0,13.0,476.0,102.0,8.0,3,5,7,1,2026-06-06T21:38:04.736856+05:30
Muzaffarpur,Bihar,26.1209,85.3647,28.3,81,0.0,997.0,8.9,39.6,180,79.4,72.9,15.6,502.0,119.0,11.0,7,5,7,1,2026-06-06T21:38:04.736863+05:30
Bhagalpur,Bihar,25.2425,87.0117,30.5,75,0.0,997.8,8.75,31.7,183,72.4,67.1,20.8,593.0,113.0,17.9,3,5,7,1,2026-06-06T21:38:04.736870+05:30
Ranchi,Jharkhand,23.3441,85.3096,24.4,93,0.0,934.8,9.3,33.1,135,73.6,62.2,22.0,405.0,67.0,7.8,3,5,7,1,2026-06-06T21:38:04.736877+05:30
Jamshedpur,Jharkhand,22.8046,86.2029,29.6,86,0.0,987.6,9.1,34.9,170,102.9,87.5,32.2,839.0,87.0,43.4,7,5,7,1,2026-06-06T21:38:04.736884+05:30
Dhanbad,Jharkhand,23.7957,86.4304,29.5,81,0.0,976.7,8.65,27.4,190,138.3,126.2,60.9,926.0,80.0,185.4,7,5,7,1,2026-06-06T21:38:04.736891+05:30
Bokaro,Jharkhand,23.6693,86.1511,28.4,89,0.0,980.4,8.5,30.6,161,128.1,114.3,52.9,570.0,75.0,167.6,7,5,7,1,2026-06-06T21:38:04.736897+05:30
Bhubaneswar,Odisha,20.2961,85.8245,31.3,77,0.0,999.0,8.9,29.5,149,44.2,39.7,15.3,671.0,100.0,9.2,3,5,7,1,2026-06-06T21:38:04.736904+05:30
Cuttack,Odisha,20.4625,85.8828,31.6,83,0.0,1000.6,8.95,36.0,149,44.2,39.7,15.3,726.0,100.0,9.2,3,5,4,1,2026-06-06T21:38:04.736911+05:30
Rourkela,Odisha,22.2604,84.8536,27.8,84,0.0,981.8,8.4,43.9,153,89.4,67.1,16.8,396.0,100.0,16.6,7,5,7,1,2026-06-06T21:38:04.736918+05:30
Raipur,Chhattisgarh,21.2514,81.6296,34.1,39,0.0,971.0,8.8,33.5,118,60.5,47.5,46.7,262.0,38.0,46.6,0,5,7,1,2026-06-06T21:38:04.736924+05:30
Bhilai,Chhattisgarh,21.1938,81.3509,33.2,42,0.0,971.7,8.95,43.6,108,60.5,46.0,43.3,289.0,37.0,37.9,0,5,7,1,2026-06-06T21:38:04.736931+05:30
Guwahati,Assam,26.1158,91.7086,27.3,92,0.0,998.5,8.7,26.6,87,37.8,35.9,11.8,451.0,49.0,2.4,7,5,7,1,2026-06-06T21:38:04.736938+05:30
Agartala,Tripura,23.8315,91.2868,29.1,80,0.0,1003.2,8.8,19.4,155,40.0,38.4,17.5,274.0,72.0,6.1,7,5,4,1,2026-06-06T21:38:04.736945+05:30
Shillong,Meghalaya,25.5788,91.8933,19.0,95,0.0,855.7,8.65,20.5,69,28.4,26.5,8.7,407.0,85.0,3.6,3,10,7,1,2026-06-06T21:38:04.736951+05:30
Imphal,Manipur,24.817,93.9368,23.6,89,0.0,920.9,9.05,27.7,114,53.4,50.5,23.5,639.0,32.0,4.2,3,5,7,1,2026-06-06T21:38:04.736959+05:30
Aizawl,Mizoram,23.7271,92.7176,21.9,86,0.0,890.8,8.45,22.3,113,41.7,36.7,7.4,261.0,79.0,3.7,3,5,7,1,2026-06-06T21:38:04.736966+05:30
Kohima,Nagaland,25.6701,94.1077,18.9,98,0.0,853.7,9.2,25.9,70,31.2,28.1,14.8,452.0,44.0,1.6,3,10,7,1,2026-06-06T21:38:04.736973+05:30
Gangtok,Sikkim,27.3314,88.6138,18.1,88,0.4,836.6,9.1,33.8,96,25.4,21.7,12.3,468.0,116.0,3.5,6,10,7,0,2026-06-06T21:38:04.736980+05:30
Siliguri,West Bengal,26.7271,88.3953,26.8,85,0.0,990.1,8.75,21.2,113,61.7,54.0,20.3,923.0,112.0,9.0,7,5,7,1,2026-06-06T21:38:08.264455+05:30
Durgapur,West Bengal,23.5204,87.3119,28.3,89,0.0,991.9,9.05,36.7,169,85.7,78.9,31.2,614.0,87.0,30.7,7,5,7,1,2026-06-06T21:38:08.264489+05:30
Asansol,West Bengal,23.6739,86.9524,29.2,86,0.0,990.3,9.05,27.4,184,91.3,82.2,34.5,1138.0,87.0,36.6,7,5,7,1,2026-06-06T21:38:08.264501+05:30
Pondicherry,Puducherry,11.9139,79.8145,32.1,49,0.0,1007.0,8.7,50.4,60,18.9,15.4,19.6,240.0,56.0,7.3,0,5,4,1,2026-06-06T21:38:08.264511+05:30
Port Blair,Andaman and Nicobar Islands,11.6234,92.7265,25.9,96,0.1,1009.0,7.85,42.1,27,10.0,6.2,0.4,100.0,57.0,0.4,10,0,4,1,2026-06-06T21:38:08.264520+05:30
Haridwar,Uttarakhand,29.9457,78.1642,29.0,60,0.0,969.1,7.6,26.3,146,62.6,47.4,28.8,532.0,94.0,15.1,4,5,7,1,2026-06-06T21:38:08.264528+05:30
Rishikesh,Uttarakhand,30.0869,78.2676,26.9,61,0.0,962.0,7.7,26.3,148,40.6,30.9,15.5,359.0,121.0,9.3,7,5,7,1,2026-06-06T21:38:08.264537+05:30
Nainital,Uttarakhand,29.3919,79.4542,16.1,75,0.0,803.6,8.3,25.9,135,57.3,37.8,20.7,387.0,84.0,5.0,3,5,7,0,2026-06-06T21:38:08.264545+05:30
Mussoorie,Uttarakhand,30.4599,78.0664,15.6,62,0.0,800.3,8.1,40.3,153,47.4,36.8,34.5,308.0,93.0,13.0,3,5,7,0,2026-06-06T21:38:08.264553+05:30
Dharamshala,Himachal Pradesh,32.219,76.3234,21.7,48,0.0,866.5,8.5,42.8,84,13.9,11.8,15.3,271.0,60.0,0.9,0,5,7,0,2026-06-06T21:38:08.264561+05:30
Dalhousie,Himachal Pradesh,32.5387,75.971,15.5,62,0.0,801.7,8.75,31.3,125,36.2,28.6,33.8,514.0,96.0,3.6,3,5,7,0,2026-06-06T21:38:08.264570+05:30
Patiala,Punjab,30.3398,76.3869,32.0,49,0.0,973.2,7.7,33.1,188,154.6,59.6,20.4,675.0,73.0,7.8,0,5,7,1,2026-06-06T21:38:08.264578+05:30
Bhatinda,Punjab,30.211,74.9455,34.4,30,0.0,978.1,8.35,29.5,154,88.0,61.9,36.8,512.0,78.0,15.8,0,5,7,0,2026-06-06T21:38:08.264585+05:30
Rohtak,Haryana,28.8955,76.6066,32.4,42,0.0,976.7,7.8,18.7,189,374.4,101.3,71.6,511.0,28.0,14.8,0,5,7,1,2026-06-06T21:38:08.264592+05:30
Panipat,Haryana,29.3909,76.9635,31.1,46,0.0,975.4,7.65,24.1,318,586.7,121.5,36.6,644.0,53.0,8.8,0,5,7,1,2026-06-06T21:38:08.264600+05:30
Mathura,Uttar Pradesh,27.4924,77.6737,30.5,55,0.0,982.1,8.05,24.5,259,299.9,83.8,48.5,707.0,41.0,8.4,0,5,7,1,2026-06-06T21:38:08.264608+05:30
Vrindavan,Uttar Pradesh,27.5823,77.7027,30.6,57,0.0,982.5,8.05,24.5,259,299.9,83.8,48.5,595.0,41.0,8.4,0,5,7,1,2026-06-06T21:38:08.264615+05:30
Ayodhya,Uttar Pradesh,26.7922,82.1998,29.9,76,0.0,991.0,8.45,26.6,153,124.3,75.7,35.9,512.0,56.0,12.0,7,5,7,1,2026-06-06T21:38:08.264622+05:30
Ratlam,Madhya Pradesh,23.3315,75.0367,30.7,55,0.0,951.9,8.5,38.2,87,55.8,33.1,3.8,222.0,81.0,4.4,0,5,7,1,2026-06-06T21:38:08.264630+05:30
Sagar,Madhya Pradesh,23.8388,78.7378,30.8,43,0.0,947.2,8.7,41.4,66,51.2,26.0,15.6,266.0,70.0,4.5,0,5,7,1,2026-06-06T21:38:08.264637+05:30
Satna,Madhya Pradesh,24.6005,80.8322,32.4,41,0.0,967.7,8.8,33.5,128,196.5,62.6,16.3,397.0,92.0,6.0,0,5,7,1,2026-06-06T21:38:08.264644+05:30
Akola,Maharashtra,20.7002,77.0082,31.2,61,0.0,972.5,8.8,57.6,79,57.2,32.8,17.1,323.0,70.0,5.6,3,5,7,1,2026-06-06T21:38:08.264652+05:30
Amravati,Maharashtra,20.9374,77.7796,32.4,45,0.0,964.9,8.85,43.6,81,53.6,31.3,16.6,232.0,68.0,5.9,0,5,7,1,2026-06-06T21:38:08.264660+05:30
Latur,Maharashtra,18.4088,76.5604,29.4,47,0.0,937.4,8.75,37.4,73,55.3,32.6,17.3,350.0,58.0,3.8,4,5,7,1,2026-06-06T21:38:08.264668+05:30
Nanded,Maharashtra,19.1383,77.3091,33.9,35,0.0,966.0,8.9,32.8,80,60.8,37.7,26.2,476.0,51.0,5.3,0,5,7,1,2026-06-06T21:38:08.264675+05:30
Gulbarga,Karnataka,17.3297,76.8343,28.6,64,0.0,957.3,8.95,40.7,70,30.5,20.5,19.8,255.0,61.0,4.1,7,5,7,1,2026-06-06T21:38:08.264682+05:30
Bidar,Karnataka,17.9104,77.5199,28.7,57,0.0,933.4,8.35,35.3,88,66.1,46.9,40.6,474.0,42.0,6.8,4,5,7,1,2026-06-06T21:38:08.264689+05:30
Hospet,Karnataka,15.2689,76.3909,26.8,73,0.0,955.6,8.9,35.3,37,3.6,3.4,7.8,199.0,57.0,1.4,7,5,7,1,2026-06-06T21:38:08.264695+05:30
Tirupur,Tamil Nadu,11.1085,77.3411,24.5,86,0.0,975.7,8.95,63.4,30,6.2,5.8,11.4,172.0,35.0,3.7,3,5,7,1,2026-06-06T21:38:08.264702+05:30
Alappuzha,Kerala,9.4981,76.3388,26.1,92,0.0,1011.5,8.15,43.9,37,18.5,10.7,7.0,84.0,41.0,1.5,7,0,4,1,2026-06-06T21:38:08.264710+05:30
Munnar,Kerala,10.0889,77.0595,17.0,100,0.3,857.8,8.75,47.5,23,3.8,3.6,7.3,111.0,36.0,1.7,6,10,7,1,2026-06-06T21:38:08.264717+05:30
Silchar,Assam,24.8333,92.7789,28.8,83,0.0,1001.6,8.9,20.5,145,81.7,74.0,17.9,666.0,95.0,10.1,7,5,4,1,2026-06-06T21:38:08.264724+05:30
Dibrugarh,Assam,27.4728,94.912,26.2,90,0.2,992.4,8.95,35.6,118,64.7,61.2,29.1,349.0,49.0,5.4,10,5,7,1,2026-06-06T21:38:08.264732+05:30
