city,state,latitude,longitude,temp,humidity,rain,pressure,uv_index,wind_gusts,aqi,pm10,pm2_5,mosquito_risk,arthritis_risk,migraine_risk,frizz_risk,updated_at
Delhi,Delhi,28.6139,77.209,32.7,35,0.0,983.5,5.9,18.7,313,176.0,46.6,0,5,3,0,2026-03-06T16:09:43.356615+05:30
Mumbai,Maharashtra,19.076,72.8777,28.0,66,0.0,1007.6,7.4,25.6,114,47.1,44.8,7,5,4,1,2026-03-06T16:09:43.356688+05:30
Bangalore,Karnataka,12.9716,77.5946,32.8,21,0.0,910.8,9.15,24.5,135,31.7,29.0,0,5,7,0,2026-03-06T16:09:43.356707+05:30
Hyderabad,Telangana,17.385,78.4867,36.5,15,0.0,952.1,8.45,24.1,106,21.2,14.7,0,5,10,0,2026-03-06T16:09:43.356717+05:30
Chennai,Tamil Nadu,13.0827,80.2707,33.0,45,0.0,1005.8,8.9,33.8,72,33.3,29.2,0,5,4,1,2026-03-06T16:09:43.356726+05:30
Kolkata,West Bengal,22.5726,88.3639,30.2,50,0.0,1006.5,7.8,13.0,163,62.9,44.4,0,5,4,1,2026-03-06T16:09:43.356735+05:30
Pune,Maharashtra,18.5204,73.8567,36.9,16,0.0,947.8,8.0,27.7,93,17.3,14.8,0,5,10,0,2026-03-06T16:09:43.356749+05:30
Ahmedabad,Gujarat,23.0225,72.5714,36.0,23,0.0,1002.4,7.25,20.5,74,19.0,16.1,0,5,7,0,2026-03-06T16:09:43.356757+05:30
Jaipur,Rajasthan,26.9124,75.7873,36.4,12,0.0,960.6,6.7,24.5,93,136.9,22.7,0,5,10,0,2026-03-06T16:09:43.356765+05:30
Lucknow,Uttar Pradesh,26.8467,80.9462,31.8,38,0.0,994.7,6.4,22.3,167,128.1,68.9,0,5,7,0,2026-03-06T16:09:43.356773+05:30
Kanpur,Uttar Pradesh,26.4499,80.3319,31.3,48,0.0,992.8,6.4,13.3,166,197.4,72.2,0,5,7,1,2026-03-06T16:09:43.356780+05:30
Chandigarh,Chandigarh,30.7333,76.7794,31.3,45,0.0,969.2,5.8,15.8,121,62.9,42.1,0,5,3,1,2026-03-06T16:09:43.356788+05:30
Srinagar,Jammu and Kashmir,34.0837,74.7973,22.3,36,0.0,844.1,6.75,16.6,136,37.7,20.0,0,5,7,0,2026-03-06T16:09:43.356795+05:30
Jammu,Jammu and Kashmir,32.7266,74.857,31.2,46,0.0,972.7,6.4,18.7,123,57.6,35.9,0,5,7,1,2026-03-06T16:09:43.356802+05:30
Amritsar,Punjab,31.634,74.8723,32.4,44,0.0,980.9,6.05,12.2,158,61.5,47.6,0,5,7,1,2026-03-06T16:09:43.356809+05:30
Ludhiana,Punjab,30.901,75.8573,32.5,40,0.0,979.0,6.05,15.1,163,72.4,52.2,0,5,7,1,2026-03-06T16:09:43.356816+05:30
Jalandhar,Punjab,31.326,75.5762,32.2,44,0.0,980.1,6.2,13.7,164,73.8,48.0,0,5,7,1,2026-03-06T16:09:43.356825+05:30
Dehradun,Uttarakhand,30.6284,78.0322,20.6,69,0.0,832.3,6.15,28.1,82,51.0,31.3,3,5,7,0,2026-03-06T16:09:43.356833+05:30
Shimla,Himachal Pradesh,31.1048,77.1734,20.7,52,0.0,788.3,6.25,34.9,77,27.5,16.4,0,5,7,0,2026-03-06T16:09:43.356840+05:30
Manali,Himachal Pradesh,32.2396,77.1887,25.1,15,0.0,823.9,7.95,39.2,86,14.3,8.2,4,5,7,1,2026-03-06T16:09:43.356847+05:30
Gurgaon,Haryana,28.4595,77.0266,33.1,30,0.0,982.1,6.0,16.9,819,586.7,80.1,0,5,3,0,2026-03-06T16:09:43.356855+05:30
Noida,Uttar Pradesh,28.5355,77.391,33.3,32,0.0,985.1,5.9,17.3,819,586.7,80.1,0,5,3,0,2026-03-06T16:09:43.356862+05:30
Ghaziabad,Uttar Pradesh,28.6692,77.4538,32.1,43,0.0,983.2,5.9,14.4,237,141.1,56.9,0,5,3,1,2026-03-06T16:09:43.356869+05:30
Faridabad,Haryana,28.4089,77.3178,32.5,34,0.0,984.3,5.95,16.6,819,586.7,80.1,0,5,3,0,2026-03-06T16:09:43.356876+05:30
Meerut,Uttar Pradesh,28.9845,77.7064,31.7,44,0.0,982.2,5.75,14.0,237,141.1,56.9,0,5,3,1,2026-03-06T16:09:43.356883+05:30
Agra,Uttar Pradesh,27.1767,78.0081,34.8,23,0.0,988.3,6.25,18.7,473,280.3,55.8,0,5,7,0,2026-03-06T16:09:43.356890+05:30
Varanasi,Uttar Pradesh,25.3176,82.9739,30.8,46,0.0,998.7,7.1,17.6,165,119.2,63.3,0,5,7,1,2026-03-06T16:09:43.356900+05:30
Prayagraj,Uttar Pradesh,25.4358,81.8463,30.3,47,0.0,997.1,6.95,16.2,169,134.1,65.9,0,5,7,1,2026-03-06T16:09:43.356907+05:30
Gorakhpur,Uttar Pradesh,26.7606,83.3732,30.8,43,0.0,998.8,6.8,17.3,171,90.8,60.5,0,5,7,1,2026-03-06T16:09:43.356914+05:30
Bareilly,Uttar Pradesh,28.367,79.4304,30.5,53,0.0,987.9,6.1,14.4,165,151.3,84.1,0,5,7,1,2026-03-06T16:09:43.356921+05:30
Aligarh,Uttar Pradesh,27.8974,78.088,33.3,34,0.0,986.0,6.05,16.6,511,225.8,60.8,0,5,7,0,2026-03-06T16:09:43.356928+05:30
Moradabad,Uttar Pradesh,28.8386,78.7733,31.0,47,0.0,984.5,5.9,18.4,169,114.3,76.6,0,5,3,1,2026-03-06T16:09:43.356935+05:30
Saharanpur,Uttar Pradesh,29.9637,77.546,30.2,52,0.0,976.4,5.55,19.8,162,103.8,58.6,0,5,3,1,2026-03-06T16:09:43.356945+05:30
Jhansi,Uttar Pradesh,25.4484,78.5685,35.2,18,0.0,978.7,6.85,24.1,71,75.2,20.5,0,5,10,0,2026-03-06T16:09:46.628447+05:30
Surat,Gujarat,21.1702,72.8311,32.5,42,0.0,1006.9,7.15,24.1,130,38.5,37.3,0,5,4,1,2026-03-06T16:09:46.628478+05:30
Vadodara,Gujarat,22.3072,73.1812,36.2,25,0.0,1004.4,7.25,20.2,105,26.8,24.6,0,5,7,0,2026-03-06T16:09:46.628488+05:30
Rajkot,Gujarat,22.3039,70.8022,34.1,28,0.0,995.1,7.1,24.1,57,22.3,14.3,0,5,7,0,2026-03-06T16:09:46.628496+05:30
Thane,Maharashtra,19.2183,72.9781,32.2,46,0.0,1007.3,7.4,37.8,114,47.1,44.8,0,5,4,1,2026-03-06T16:09:46.628503+05:30
Nagpur,Maharashtra,21.1458,79.0882,36.9,14,0.0,972.3,7.8,25.9,72,26.0,14.3,0,5,10,0,2026-03-06T16:09:46.628510+05:30
Nashik,Maharashtra,19.9975,73.7898,35.3,17,0.0,945.6,7.6,34.9,87,25.6,22.1,0,5,10,0,2026-03-06T16:09:46.628517+05:30
Aurangabad,Maharashtra,19.8762,75.3433,36.1,16,0.0,943.8,8.15,23.8,99,18.9,15.3,0,5,10,0,2026-03-06T16:09:46.628523+05:30
Solapur,Maharashtra,17.6599,75.9064,36.2,16,0.0,956.1,8.4,18.0,95,18.3,14.2,0,5,10,0,2026-03-06T16:09:46.628531+05:30
Kolhapur,Maharashtra,16.705,74.2433,35.4,18,0.0,947.0,8.55,31.7,150,17.6,15.6,0,5,10,0,2026-03-06T16:09:46.628537+05:30
Goa,Goa,15.2993,74.124,30.2,66,0.0,996.1,8.55,32.0,157,53.4,50.9,3,5,7,1,2026-03-06T16:09:46.628544+05:30
Jodhpur,Rajasthan,26.2389,73.0243,35.3,20,0.0,984.0,6.95,22.7,61,37.7,13.7,0,5,10,0,2026-03-06T16:09:46.628551+05:30
Udaipur,Rajasthan,24.5854,73.7125,35.2,16,0.0,947.9,7.6,22.3,56,10.2,7.7,0,5,10,0,2026-03-06T16:09:46.628558+05:30
Kota,Rajasthan,25.2138,75.8648,36.6,16,0.0,979.1,7.0,17.3,73,24.4,10.5,0,5,10,0,2026-03-06T16:09:46.628564+05:30
Bikaner,Rajasthan,28.0229,73.3119,36.0,10,0.0,982.4,6.65,23.8,57,34.5,9.8,0,5,10,1,2026-03-06T16:09:46.628571+05:30
Ajmer,Rajasthan,26.4499,74.6399,35.0,16,0.0,955.8,6.95,26.3,65,15.0,8.6,0,5,7,0,2026-03-06T16:09:46.628578+05:30
Gwalior,Madhya Pradesh,26.2183,78.1828,32.9,29,0.0,984.0,6.6,20.9,101,74.5,20.9,0,5,7,0,2026-03-06T16:09:46.628584+05:30
Indore,Madhya Pradesh,22.7196,75.8577,34.1,19,0.0,948.9,7.55,22.3,69,11.9,10.1,0,5,7,0,2026-03-06T16:09:46.628591+05:30
Bhopal,Madhya Pradesh,23.2599,77.4126,34.3,21,0.0,954.3,7.4,24.8,72,27.1,14.3,0,5,7,0,2026-03-06T16:09:46.628598+05:30
Jabalpur,Madhya Pradesh,23.1815,79.9864,34.3,20,0.0,961.7,7.5,26.6,66,43.9,15.9,0,5,7,0,2026-03-06T16:09:46.628604+05:30
Ujjain,Madhya Pradesh,23.1765,75.7885,33.7,23,0.0,954.6,7.45,19.1,75,12.4,10.6,0,5,7,0,2026-03-06T16:09:46.628611+05:30
Visakhapatnam,Andhra Pradesh,17.6868,83.2185,30.8,62,0.0,1001.7,8.45,35.3,147,40.2,35.3,3,5,4,1,2026-03-06T16:09:46.628618+05:30
Vijayawada,Andhra Pradesh,16.5062,80.648,36.8,26,0.0,999.9,8.55,14.8,127,23.6,16.6,0,5,10,0,2026-03-06T16:09:46.628625+05:30
Guntur,Andhra Pradesh,16.3067,80.4365,36.8,21,0.0,1001.3,8.55,18.0,109,20.8,14.1,0,5,7,0,2026-03-06T16:09:46.628632+05:30
Nellore,Andhra Pradesh,14.4426,79.9865,37.3,22,0.0,1003.3,8.75,28.8,113,26.1,22.9,0,5,7,0,2026-03-06T16:09:46.628639+05:30
Kurnool,Andhra Pradesh,15.8281,78.0373,38.0,14,0.0,974.8,8.55,23.4,91,14.5,12.2,0,5,10,0,2026-03-06T16:09:46.628647+05:30
Kakinada,Andhra Pradesh,16.9891,82.2475,35.4,42,0.0,1004.4,8.5,31.0,111,27.9,22.0,0,5,7,1,2026-03-06T16:09:46.628654+05:30
Tirupati,Andhra Pradesh,13.6288,79.4192,36.5,17,0.0,989.1,8.85,30.6,106,23.9,21.6,0,5,10,0,2026-03-06T16:09:46.628678+05:30
Warangal,Telangana,17.9689,79.5941,35.8,21,0.0,977.3,8.3,24.5,89,27.8,16.1,0,5,10,0,2026-03-06T16:09:46.628686+05:30
Nizamabad,Telangana,18.6725,78.0941,35.9,19,0.0,963.9,8.2,28.8,88,26.0,14.8,0,5,10,0,2026-03-06T16:09:46.628692+05:30
Mysore,Karnataka,12.2958,76.6396,33.7,24,0.0,927.1,9.2,36.4,132,29.2,27.2,0,5,7,0,2026-03-06T16:09:46.628699+05:30
Mangalore,Karnataka,12.9141,74.856,29.2,76,0.0,1004.7,8.8,23.8,122,43.1,39.9,7,5,4,1,2026-03-06T16:09:46.628705+05:30
Hubli-Dharwad,Karnataka,15.3647,75.124,36.0,17,0.0,939.4,8.75,36.7,113,25.4,23.1,0,5,10,0,2026-03-06T16:09:46.628712+05:30
Belgaum,Karnataka,15.8497,74.4977,34.8,17,0.0,925.1,8.8,40.0,117,19.2,17.5,0,5,7,0,2026-03-06T16:09:49.908489+05:30
Coimbatore,Tamil Nadu,11.0168,76.9558,34.0,33,0.0,959.8,9.15,47.9,143,31.8,29.5,0,5,7,0,2026-03-06T16:09:49.908520+05:30
Madurai,Tamil Nadu,9.9252,78.1198,35.7,32,0.0,990.3,9.15,33.5,94,30.4,26.5,0,5,10,1,2026-03-06T16:09:49.908530+05:30
Trichy,Tamil Nadu,10.7905,78.7047,37.1,24,0.0,996.9,9.05,26.6,83,28.1,25.4,0,5,10,0,2026-03-06T16:09:49.908539+05:30
Salem,Tamil Nadu,11.6643,78.146,36.4,27,0.0,974.5,9.05,18.0,125,37.8,33.8,0,5,10,0,2026-03-06T16:09:49.908546+05:30
Tirunelveli,Tamil Nadu,8.7139,77.7567,37.8,24,0.0,1000.3,9.15,48.6,113,29.4,24.7,0,5,7,0,2026-03-06T16:09:49.908554+05:30
Vellore,Tamil Nadu,12.9165,79.1325,35.8,22,0.0,982.3,8.95,31.3,115,31.9,29.6,0,5,10,0,2026-03-06T16:09:49.908561+05:30
Erode,Tamil Nadu,11.341,77.7172,37.2,27,0.0,986.0,9.05,20.2,126,34.1,30.5,0,5,10,0,2026-03-06T16:09:49.908568+05:30
Kochi,Kerala,9.9312,76.2673,28.1,82,0.0,1006.7,9.0,34.6,135,43.2,39.9,7,5,4,1,2026-03-06T16:09:49.908576+05:30
Thiruvananthapuram,Kerala,8.5241,76.9366,28.2,79,0.0,1006.2,9.0,35.3,82,30.6,27.2,7,5,4,1,2026-03-06T16:09:49.908584+05:30
Kozhikode,Kerala,11.2588,75.7804,29.6,74,0.0,1006.0,8.85,27.0,105,38.1,34.6,7,5,4,1,2026-03-06T16:09:49.908590+05:30
Thrissur,Kerala,10.5276,76.2144,31.0,68,0.0,1005.1,8.95,33.5,127,36.3,33.8,3,5,4,1,2026-03-06T16:09:49.908598+05:30
Kannur,Kerala,11.8745,75.3704,30.7,69,0.0,1005.3,8.85,32.0,110,39.3,36.3,3,5,4,1,2026-03-06T16:09:49.908606+05:30
Patna,Bihar,25.5941,85.1376,31.4,38,0.0,1001.8,7.25,21.6,165,83.6,65.7,0,5,4,0,2026-03-06T16:09:49.908612+05:30
Gaya,Bihar,24.7914,85.0002,30.2,51,0.0,994.4,7.35,20.5,169,86.6,62.4,0,5,7,1,2026-03-06T16:09:49.908619+05:30
Muzaffarpur,Bihar,26.1209,85.3647,31.5,37,0.0,1001.9,7.2,20.5,169,82.9,65.7,0,5,4,0,2026-03-06T16:09:49.908625+05:30
Bhagalpur,Bihar,25.2425,87.0117,30.3,47,0.0,1002.6,7.3,17.3,161,66.8,54.7,0,5,4,1,2026-03-06T16:09:49.908631+05:30
Ranchi,Jharkhand,23.3441,85.3096,29.4,35,0.0,938.2,8.0,31.0,174,88.2,55.1,4,5,7,0,2026-03-06T16:09:49.908638+05:30
Jamshedpur,Jharkhand,22.8046,86.2029,32.0,37,0.0,990.8,7.9,21.2,152,85.4,51.6,0,5,7,0,2026-03-06T16:09:49.908644+05:30
Dhanbad,Jharkhand,23.7957,86.4304,32.4,28,0.0,980.2,7.75,27.4,170,92.4,68.5,0,5,7,0,2026-03-06T16:09:49.908650+05:30
Bokaro,Jharkhand,23.6693,86.1511,32.0,29,0.0,984.1,7.75,29.5,174,101.3,72.2,0,5,7,0,2026-03-06T16:09:49.908657+05:30
Bhubaneswar,Odisha,20.2961,85.8245,31.2,53,0.0,1001.8,8.2,29.9,162,57.0,44.5,0,5,4,1,2026-03-06T16:09:49.908681+05:30
Cuttack,Odisha,20.4625,85.8828,33.6,39,0.0,1003.3,8.2,32.4,162,57.0,44.5,0,5,4,1,2026-03-06T16:09:49.908689+05:30
Rourkela,Odisha,22.2604,84.8536,34.3,30,0.0,983.8,7.8,10.4,170,105.5,58.3,0,5,7,0,2026-03-06T16:09:49.908695+05:30
Raipur,Chhattisgarh,21.2514,81.6296,36.6,21,0.0,973.3,7.9,22.7,88,45.1,19.2,0,5,10,0,2026-03-06T16:09:49.908702+05:30
Bhilai,Chhattisgarh,21.1938,81.3509,37.4,17,0.0,973.6,7.95,23.8,77,31.8,16.7,0,5,10,0,2026-03-06T16:09:49.908708+05:30
Guwahati,Assam,26.1158,91.7086,30.6,52,0.0,1002.0,7.25,20.5,153,56.7,48.8,0,5,4,1,2026-03-06T16:09:49.908714+05:30
Agartala,Tripura,23.8315,91.2868,31.6,48,0.0,1006.3,7.55,16.9,170,60.8,50.1,0,5,4,1,2026-03-06T16:09:49.908721+05:30
Shillong,Meghalaya,25.5788,91.8933,19.7,45,0.0,858.4,7.6,33.1,135,39.6,34.6,0,5,7,0,2026-03-06T16:09:49.908727+05:30
Imphal,Manipur,24.817,93.9368,24.7,41,0.0,924.2,7.8,34.9,154,53.3,47.3,0,5,7,0,2026-03-06T16:09:49.908734+05:30
Aizawl,Mizoram,23.7271,92.7176,26.5,35,0.0,894.3,7.75,34.6,184,81.3,73.1,4,5,7,0,2026-03-06T16:09:49.908740+05:30
Kohima,Nagaland,25.6701,94.1077,18.7,65,0.0,856.6,7.65,43.9,155,72.9,65.7,3,5,7,0,2026-03-06T16:09:49.908747+05:30
Gangtok,Sikkim,27.3314,88.6138,17.1,78,0.0,840.0,7.55,18.0,116,47.4,41.3,3,5,7,0,2026-03-06T16:09:49.908753+05:30
Siliguri,West Bengal,26.7271,88.3953,26.5,46,0.0,995.6,7.2,14.8,142,53.7,44.6,4,5,7,0,2026-03-06T16:09:53.187558+05:30
Durgapur,West Bengal,23.5204,87.3119,32.0,32,0.0,995.5,7.75,24.1,162,75.0,57.3,0,5,7,0,2026-03-06T16:09:53.187592+05:30
Asansol,West Bengal,23.6739,86.9524,32.4,30,0.0,993.9,7.75,21.6,171,84.8,64.7,0,5,7,0,2026-03-06T16:09:53.187604+05:30
Pondicherry,Puducherry,11.9139,79.8145,34.0,45,0.0,1006.4,8.9,32.4,68,29.2,25.6,0,5,4,1,2026-03-06T16:09:53.187613+05:30
Port Blair,Andaman and Nicobar Islands,11.6234,92.7265,27.8,66,0.0,1006.9,8.85,14.4,57,43.0,25.7,7,5,4,1,2026-03-06T16:09:53.187622+05:30
Haridwar,Uttarakhand,29.9457,78.1642,30.2,49,0.0,975.3,5.65,23.4,154,110.6,63.1,0,5,3,1,2026-03-06T16:09:53.187630+05:30
Rishikesh,Uttarakhand,30.0869,78.2676,29.4,49,0.0,968.2,5.7,21.6,150,102.2,63.3,4,5,3,1,2026-03-06T16:09:53.187638+05:30
Nainital,Uttarakhand,29.3919,79.4542,21.9,54,0.0,808.7,6.5,46.4,160,102.7,65.7,0,5,7,0,2026-03-06T16:09:53.187647+05:30
Mussoorie,Uttarakhand,30.4599,78.0664,20.5,67,0.0,805.2,6.05,40.7,144,105.2,60.5,3,5,7,0,2026-03-06T16:09:53.187656+05:30
Dharamshala,Himachal Pradesh,32.219,76.3234,26.6,52,0.0,871.5,5.6,21.2,57,19.9,9.7,4,5,3,0,2026-03-06T16:09:53.187687+05:30
Dalhousie,Himachal Pradesh,32.5387,75.971,25.3,40,0.0,807.4,5.75,20.9,95,39.9,22.8,4,5,3,0,2026-03-06T16:09:53.187697+05:30
Patiala,Punjab,30.3398,76.3869,32.3,42,0.0,978.5,5.7,13.0,163,224.0,62.4,0,5,3,1,2026-03-06T16:09:53.187706+05:30
Bhatinda,Punjab,30.211,74.9455,33.7,30,0.0,984.0,6.4,16.9,145,33.3,22.2,0,5,7,0,2026-03-06T16:09:53.187714+05:30
Rohtak,Haryana,28.8955,76.6066,33.0,28,0.0,982.3,5.9,19.4,354,238.4,46.0,0,5,3,0,2026-03-06T16:09:53.187722+05:30
Panipat,Haryana,29.3909,76.9635,32.7,40,0.0,980.8,5.7,14.0,712,344.6,61.5,0,5,3,1,2026-03-06T16:09:53.187730+05:30
Mathura,Uttar Pradesh,27.4924,77.6737,34.2,22,0.0,987.4,6.2,19.1,481,232.8,50.5,0,5,7,0,2026-03-06T16:09:53.187738+05:30
Vrindavan,Uttar Pradesh,27.5823,77.7027,33.8,28,0.0,987.8,6.15,17.6,481,232.8,50.5,0,5,7,0,2026-03-06T16:09:53.187747+05:30
Ayodhya,Uttar Pradesh,26.7922,82.1998,30.8,43,0.0,996.9,6.55,19.4,167,92.7,61.5,0,5,7,1,2026-03-06T16:09:53.187754+05:30
Ratlam,Madhya Pradesh,23.3315,75.0367,33.3,24,0.0,955.6,7.4,20.9,66,12.1,10.2,0,5,7,0,2026-03-06T16:09:53.187762+05:30
Sagar,Madhya Pradesh,23.8388,78.7378,33.6,24,0.0,950.9,7.35,21.6,60,43.4,13.6,0,5,7,0,2026-03-06T16:09:53.187769+05:30
Satna,Madhya Pradesh,24.6005,80.8322,34.4,23,0.0,971.6,7.3,31.3,95,149.5,43.1,0,5,7,0,2026-03-06T16:09:53.187777+05:30
Akola,Maharashtra,20.7002,77.0082,37.9,15,0.0,974.1,7.85,19.8,78,24.0,14.3,0,5,10,0,2026-03-06T16:09:53.187786+05:30
Amravati,Maharashtra,20.9374,77.7796,37.8,15,0.0,966.4,7.8,15.1,76,23.6,13.0,0,5,10,0,2026-03-06T16:09:53.187795+05:30
Latur,Maharashtra,18.4088,76.5604,34.9,18,0.0,939.5,8.3,31.7,92,22.7,16.8,0,5,7,0,2026-03-06T16:09:53.187803+05:30
Nanded,Maharashtra,19.1383,77.3091,37.7,16,0.0,967.5,8.1,20.9,92,20.1,11.8,0,5,10,0,2026-03-06T16:09:53.187811+05:30
Gulbarga,Karnataka,17.3297,76.8343,37.5,14,0.0,957.4,8.4,33.1,78,15.8,10.4,0,5,10,0,2026-03-06T16:09:53.187820+05:30
Bidar,Karnataka,17.9104,77.5199,35.5,16,0.0,935.0,8.35,32.8,82,22.1,13.4,0,5,10,0,2026-03-06T16:09:53.187827+05:30
Hospet,Karnataka,15.2689,76.3909,36.2,18,0.0,954.2,8.75,20.2,115,19.7,17.7,0,5,10,0,2026-03-06T16:09:53.187834+05:30
Tirupur,Tamil Nadu,11.1085,77.3411,36.9,21,0.0,972.7,9.2,31.7,138,36.6,33.8,0,5,10,0,2026-03-06T16:09:53.187842+05:30
Alappuzha,Kerala,9.4981,76.3388,28.2,80,0.0,1006.9,8.95,31.0,113,30.9,28.2,7,5,4,1,2026-03-06T16:09:53.187850+05:30
Munnar,Kerala,10.0889,77.0595,28.1,49,0.0,857.1,9.5,29.9,99,30.9,27.8,4,5,7,1,2026-03-06T16:09:53.187858+05:30
Silchar,Assam,24.8333,92.7789,32.5,38,0.0,1004.6,7.55,12.6,168,67.5,61.2,0,5,4,1,2026-03-06T16:09:53.187866+05:30
Dibrugarh,Assam,27.4728,94.912,29.5,48,0.0,995.9,7.25,16.6,101,32.1,27.5,4,5,7,1,2026-03-06T16:09:53.187873+05:30
