city,state,latitude,longitude,temp,humidity,rain,pressure,uv_index,wind_gusts,aqi,pm10,pm2_5,no2,co,o3,so2,mosquito_risk,arthritis_risk,migraine_risk,frizz_risk,updated_at
Delhi,Delhi,28.6139,77.209,32.5,70,0.0,972.1,7.65,28.4,388,579.3,155.1,41.3,931.0,80.0,16.9,3,5,7,1,2026-07-11T18:54:32.272239+05:30
Mumbai,Maharashtra,19.076,72.8777,28.3,85,0.0,1005.9,6.15,52.6,56,31.3,14.0,7.1,180.0,46.0,4.4,7,5,4,1,2026-07-11T18:54:32.272289+05:30
Bangalore,Karnataka,12.9716,77.5946,27.3,58,0.0,910.7,7.2,46.8,47,31.1,14.8,13.1,403.0,59.0,3.3,4,5,7,1,2026-07-11T18:54:32.272305+05:30
Hyderabad,Telangana,17.385,78.4867,31.3,46,0.0,949.8,8.35,47.9,64,41.2,19.3,9.3,237.0,71.0,3.5,0,5,7,1,2026-07-11T18:54:32.272314+05:30
Chennai,Tamil Nadu,13.0827,80.2707,31.0,70,0.0,1003.0,8.15,33.1,84,52.6,28.8,7.4,310.0,120.0,6.0,3,5,4,1,2026-07-11T18:54:32.272323+05:30
Kolkata,West Bengal,22.5726,88.3639,28.3,93,0.0,997.4,2.35,39.6,108,61.9,44.7,13.4,648.0,108.0,13.1,7,5,3,1,2026-07-11T18:54:32.272330+05:30
Pune,Maharashtra,18.5204,73.8567,25.2,79,0.0,945.8,7.65,57.2,35,19.9,9.1,5.6,149.0,50.0,4.2,7,5,7,1,2026-07-11T18:54:32.272337+05:30
Ahmedabad,Gujarat,23.0225,72.5714,34.2,51,0.0,994.0,6.1,48.6,66,47.7,23.2,4.4,153.0,80.0,3.6,0,5,7,1,2026-07-11T18:54:32.272344+05:30
Jaipur,Rajasthan,26.9124,75.7873,31.4,62,0.0,950.3,7.7,41.0,451,517.8,92.7,5.7,168.0,85.0,3.7,3,5,7,1,2026-07-11T18:54:32.272351+05:30
Lucknow,Uttar Pradesh,26.8467,80.9462,29.6,86,0.0,983.0,6.1,51.8,153,160.2,66.6,11.0,238.0,84.0,5.9,7,5,7,1,2026-07-11T18:54:32.272363+05:30
Kanpur,Uttar Pradesh,26.4499,80.3319,31.8,70,0.0,981.5,8.05,47.2,134,92.2,45.1,7.8,212.0,94.0,5.4,3,5,7,1,2026-07-11T18:54:32.272370+05:30
Chandigarh,Chandigarh,30.7333,76.7794,29.9,76,0.0,958.2,7.7,22.3,180,141.1,61.7,18.4,670.0,138.0,12.4,7,5,7,1,2026-07-11T18:54:32.272397+05:30
Srinagar,Jammu and Kashmir,34.0837,74.7973,25.2,60,0.0,835.5,9.0,26.6,130,16.2,14.8,12.7,543.0,125.0,2.4,4,5,7,1,2026-07-11T18:54:32.272406+05:30
Jammu,Jammu and Kashmir,32.7266,74.857,31.1,68,0.0,961.8,8.55,29.9,160,36.3,25.8,10.2,499.0,147.0,3.6,3,5,7,1,2026-07-11T18:54:32.272412+05:30
Amritsar,Punjab,31.634,74.8723,30.9,77,0.0,969.4,8.4,31.7,158,243.1,93.8,11.5,331.0,124.0,6.2,3,5,7,1,2026-07-11T18:54:32.272419+05:30
Ludhiana,Punjab,30.901,75.8573,31.7,73,0.0,967.5,7.9,31.0,157,400.5,122.0,18.1,401.0,113.0,7.4,3,5,7,1,2026-07-11T18:54:32.272425+05:30
Jalandhar,Punjab,31.326,75.5762,29.8,80,0.0,968.6,8.15,27.7,163,306.4,103.4,18.8,362.0,125.0,6.8,7,5,7,1,2026-07-11T18:54:32.272432+05:30
Dehradun,Uttarakhand,30.6284,78.0322,19.4,98,0.1,823.7,7.85,21.6,102,22.7,21.0,8.5,265.0,132.0,2.7,6,10,7,1,2026-07-11T18:54:32.272439+05:30
Shimla,Himachal Pradesh,31.1048,77.1734,18.3,85,0.0,779.1,3.75,31.3,159,41.1,33.5,6.9,448.0,155.0,8.9,3,10,3,0,2026-07-11T18:54:32.272446+05:30
Manali,Himachal Pradesh,32.2396,77.1887,21.2,96,0.0,813.4,7.7,19.1,112,6.3,6.0,22.4,237.0,131.0,0.8,3,5,7,1,2026-07-11T18:54:32.272456+05:30
Gurgaon,Haryana,28.4595,77.0266,32.5,68,0.0,970.4,7.7,30.2,460,633.3,143.4,32.0,464.0,79.0,10.2,3,5,7,1,2026-07-11T18:54:32.272463+05:30
Noida,Uttar Pradesh,28.5355,77.391,32.7,70,0.0,973.5,7.65,29.2,460,633.3,143.4,32.0,547.0,79.0,10.2,3,5,7,1,2026-07-11T18:54:32.272472+05:30
Ghaziabad,Uttar Pradesh,28.6692,77.4538,32.5,72,0.0,971.8,7.05,34.2,182,573.7,169.0,26.6,333.0,109.0,17.8,3,5,7,1,2026-07-11T18:54:32.272479+05:30
Faridabad,Haryana,28.4089,77.3178,32.6,71,0.0,972.7,7.65,31.3,460,633.3,143.4,32.0,349.0,79.0,10.2,3,5,7,1,2026-07-11T18:54:32.272486+05:30
Meerut,Uttar Pradesh,28.9845,77.7064,31.7,79,0.0,970.7,7.6,28.4,182,573.7,169.0,26.6,313.0,109.0,17.8,3,5,7,1,2026-07-11T18:54:32.272493+05:30
Agra,Uttar Pradesh,27.1767,78.0081,32.1,64,0.0,977.4,8.0,39.6,159,253.3,56.6,9.8,196.0,90.0,4.2,3,5,7,1,2026-07-11T18:54:32.272499+05:30
Varanasi,Uttar Pradesh,25.3176,82.9739,30.9,77,0.0,987.9,6.3,47.5,113,57.6,36.9,8.2,316.0,97.0,7.2,3,5,7,1,2026-07-11T18:54:32.272507+05:30
Prayagraj,Uttar Pradesh,25.4358,81.8463,32.0,65,0.0,986.4,8.25,43.9,116,66.6,40.0,7.6,195.0,95.0,7.2,3,5,7,1,2026-07-11T18:54:32.272514+05:30
Gorakhpur,Uttar Pradesh,26.7606,83.3732,27.4,93,0.2,987.2,6.05,36.0,102,87.1,56.1,12.5,385.0,108.0,8.7,10,5,7,1,2026-07-11T18:54:32.272521+05:30
Bareilly,Uttar Pradesh,28.367,79.4304,30.7,80,0.1,976.0,8.0,36.0,149,166.7,78.5,11.1,344.0,116.0,8.5,6,5,7,1,2026-07-11T18:54:32.272529+05:30
Aligarh,Uttar Pradesh,27.8974,78.088,32.0,74,0.0,974.9,7.8,32.8,277,448.9,107.6,11.1,189.0,89.0,5.2,3,5,7,1,2026-07-11T18:54:32.272536+05:30
Moradabad,Uttar Pradesh,28.8386,78.7733,27.8,92,0.1,973.3,7.8,33.5,153,271.0,112.7,12.2,353.0,147.0,12.9,10,5,7,1,2026-07-11T18:54:32.272543+05:30
Saharanpur,Uttar Pradesh,29.9637,77.546,30.8,80,0.0,965.1,7.35,23.4,157,175.1,71.5,11.4,354.0,129.0,13.4,3,5,7,1,2026-07-11T18:54:32.272551+05:30
Jhansi,Uttar Pradesh,25.4484,78.5685,31.7,60,0.0,968.8,8.4,46.8,97,60.8,31.0,4.5,151.0,96.0,6.8,0,5,7,1,2026-07-11T18:54:35.677133+05:30
Surat,Gujarat,21.1702,72.8311,29.1,82,0.0,1001.8,5.1,61.6,60,31.0,17.5,10.5,192.0,40.0,19.9,7,5,0,1,2026-07-11T18:54:35.677167+05:30
Vadodara,Gujarat,22.3072,73.1812,30.2,77,0.0,997.7,7.75,54.0,60,37.3,20.3,6.5,143.0,68.0,5.5,3,5,7,1,2026-07-11T18:54:35.677178+05:30
Rajkot,Gujarat,22.3039,70.8022,31.4,59,0.0,987.6,7.1,58.7,60,52.3,22.2,2.4,104.0,63.0,3.4,0,5,7,1,2026-07-11T18:54:35.677187+05:30
Thane,Maharashtra,19.2183,72.9781,28.1,84,0.0,1005.1,6.2,44.6,56,31.3,14.0,7.1,185.0,46.0,4.4,7,5,4,1,2026-07-11T18:54:35.677195+05:30
Nagpur,Maharashtra,21.1458,79.0882,29.9,63,0.0,967.1,6.8,47.2,86,53.8,26.6,9.4,183.0,73.0,10.7,7,5,7,1,2026-07-11T18:54:35.677204+05:30
Nashik,Maharashtra,19.9975,73.7898,25.2,83,0.0,942.3,7.45,63.7,37,19.8,9.9,3.6,117.0,48.0,1.5,7,5,7,1,2026-07-11T18:54:35.677212+05:30
Aurangabad,Maharashtra,19.8762,75.3433,28.2,63,0.0,940.4,8.9,60.5,52,27.6,12.6,3.2,126.0,73.0,4.6,7,5,7,1,2026-07-11T18:54:35.677219+05:30
Solapur,Maharashtra,17.6599,75.9064,29.9,56,0.0,954.1,7.85,48.2,47,39.0,14.6,2.9,125.0,63.0,1.7,4,5,7,1,2026-07-11T18:54:35.677228+05:30
Kolhapur,Maharashtra,16.705,74.2433,24.3,85,0.0,946.5,7.2,50.4,38,23.6,11.0,4.7,136.0,48.0,2.2,3,5,7,1,2026-07-11T18:54:35.677236+05:30
Goa,Goa,15.2993,74.124,27.8,82,0.0,997.5,8.0,34.2,55,20.8,10.3,2.4,140.0,48.0,1.3,7,5,7,1,2026-07-11T18:54:35.677245+05:30
Jodhpur,Rajasthan,26.2389,73.0243,35.0,47,0.0,972.6,8.4,53.6,197,461.0,88.9,2.6,116.0,79.0,2.1,0,5,7,1,2026-07-11T18:54:35.677253+05:30
Udaipur,Rajasthan,24.5854,73.7125,29.7,58,0.0,938.9,8.6,53.3,71,52.3,24.7,2.0,121.0,85.0,2.7,4,5,7,1,2026-07-11T18:54:35.677262+05:30
Kota,Rajasthan,25.2138,75.8648,32.5,54,0.0,969.9,8.3,42.5,88,44.4,22.1,3.6,149.0,89.0,4.9,0,5,7,1,2026-07-11T18:54:35.677270+05:30
Bikaner,Rajasthan,28.0229,73.3119,36.6,42,0.0,969.9,8.45,42.5,157,273.8,79.4,1.5,117.0,86.0,3.4,0,5,10,1,2026-07-11T18:54:35.677278+05:30
Ajmer,Rajasthan,26.4499,74.6399,31.0,58,0.0,945.6,8.25,52.2,82,44.1,21.9,3.0,129.0,84.0,2.6,0,5,7,1,2026-07-11T18:54:35.677286+05:30
Gwalior,Madhya Pradesh,26.2183,78.1828,30.9,66,0.0,973.6,8.15,45.7,89,55.6,29.6,3.9,148.0,92.0,4.1,3,5,7,1,2026-07-11T18:54:35.677295+05:30
Indore,Madhya Pradesh,22.7196,75.8577,27.9,69,0.0,942.2,8.45,61.2,72,44.5,22.8,4.7,209.0,81.0,4.7,7,5,7,1,2026-07-11T18:54:35.677302+05:30
Bhopal,Madhya Pradesh,23.2599,77.4126,29.0,66,0.0,947.0,8.55,50.4,82,48.3,24.9,4.1,228.0,77.0,3.9,7,5,7,1,2026-07-11T18:54:35.677311+05:30
Jabalpur,Madhya Pradesh,23.1815,79.9864,28.4,65,0.0,954.9,5.9,44.6,86,55.3,27.3,3.2,182.0,87.0,4.0,7,5,3,1,2026-07-11T18:54:35.677319+05:30
Ujjain,Madhya Pradesh,23.1765,75.7885,28.7,65,0.0,947.5,7.35,54.7,71,45.4,23.5,3.0,169.0,80.0,3.8,7,5,7,1,2026-07-11T18:54:35.677327+05:30
Visakhapatnam,Andhra Pradesh,17.6868,83.2185,32.3,64,0.0,997.1,7.7,37.8,94,53.0,32.0,15.6,297.0,106.0,29.8,3,5,7,1,2026-07-11T18:54:35.677335+05:30
Vijayawada,Andhra Pradesh,16.5062,80.648,33.7,51,0.0,997.5,5.95,44.6,89,37.0,21.9,10.8,177.0,63.0,4.8,0,5,3,1,2026-07-11T18:54:35.677343+05:30
Guntur,Andhra Pradesh,16.3067,80.4365,34.9,40,0.0,998.7,5.5,47.5,84,37.0,21.3,10.1,169.0,61.0,4.2,0,5,3,1,2026-07-11T18:54:35.677351+05:30
Nellore,Andhra Pradesh,14.4426,79.9865,34.7,44,0.0,1001.2,7.85,42.5,66,53.0,26.1,6.1,193.0,105.0,4.9,0,5,4,1,2026-07-11T18:54:35.677359+05:30
Kurnool,Andhra Pradesh,15.8281,78.0373,32.8,41,0.0,973.2,7.7,47.5,60,44.4,18.7,5.5,133.0,74.0,5.2,0,5,7,1,2026-07-11T18:54:35.677367+05:30
Kakinada,Andhra Pradesh,16.9891,82.2475,32.4,61,0.0,1001.9,7.9,49.0,80,42.0,22.8,5.3,200.0,108.0,4.2,3,5,4,1,2026-07-11T18:54:35.677375+05:30
Tirupati,Andhra Pradesh,13.6288,79.4192,33.9,44,0.0,987.0,8.1,37.1,63,74.0,33.4,23.2,192.0,60.0,3.1,0,5,7,1,2026-07-11T18:54:35.677406+05:30
Warangal,Telangana,17.9689,79.5941,30.0,64,0.0,974.0,5.6,44.3,77,45.2,24.0,9.1,225.0,66.0,4.1,7,5,3,1,2026-07-11T18:54:35.677415+05:30
Nizamabad,Telangana,18.6725,78.0941,29.3,63,0.0,960.3,8.7,49.0,72,54.0,23.7,6.3,164.0,72.0,4.1,7,5,7,1,2026-07-11T18:54:35.677422+05:30
Mysore,Karnataka,12.2958,76.6396,26.3,69,0.0,927.8,6.0,43.2,33,19.4,9.2,5.8,146.0,64.0,1.8,7,5,3,1,2026-07-11T18:54:35.677430+05:30
Mangalore,Karnataka,12.9141,74.856,27.4,85,0.0,1006.8,8.15,44.6,53,19.0,9.6,2.8,111.0,50.0,1.6,7,5,4,1,2026-07-11T18:54:35.677438+05:30
Hubli-Dharwad,Karnataka,15.3647,75.124,25.6,76,0.0,939.9,7.25,49.3,34,16.9,8.1,3.9,127.0,50.0,1.3,7,5,7,1,2026-07-11T18:54:35.677446+05:30
Belgaum,Karnataka,15.8497,74.4977,23.7,81,0.0,924.6,8.35,49.7,32,18.0,8.3,3.9,112.0,44.0,1.3,3,5,7,1,2026-07-11T18:54:39.093447+05:30
Coimbatore,Tamil Nadu,11.0168,76.9558,26.7,80,0.0,960.4,8.25,47.9,34,15.5,8.6,6.7,164.0,52.0,2.5,7,5,7,1,2026-07-11T18:54:39.093481+05:30
Madurai,Tamil Nadu,9.9252,78.1198,33.0,55,0.0,990.4,8.15,28.1,55,12.3,7.1,13.6,202.0,53.0,2.9,0,5,7,1,2026-07-11T18:54:39.093492+05:30
Trichy,Tamil Nadu,10.7905,78.7047,33.7,49,0.0,996.8,8.05,47.9,48,30.6,13.3,5.4,135.0,74.0,2.5,0,5,7,1,2026-07-11T18:54:39.093502+05:30
Salem,Tamil Nadu,11.6643,78.146,30.0,70,0.0,975.1,7.8,27.4,60,44.8,17.9,7.4,260.0,80.0,4.7,7,5,7,1,2026-07-11T18:54:39.093511+05:30
Tirunelveli,Tamil Nadu,8.7139,77.7567,32.1,54,0.0,1001.4,8.6,49.3,32,10.9,6.1,3.7,121.0,59.0,1.5,0,5,4,1,2026-07-11T18:54:39.093520+05:30
Vellore,Tamil Nadu,12.9165,79.1325,35.0,34,0.0,981.1,8.75,41.4,56,62.2,27.6,13.9,193.0,68.0,3.3,0,5,7,1,2026-07-11T18:54:39.093529+05:30
Erode,Tamil Nadu,11.341,77.7172,31.3,59,0.0,987.1,7.85,35.6,51,37.4,14.5,7.9,175.0,69.0,2.4,0,5,7,1,2026-07-11T18:54:39.093538+05:30
Kochi,Kerala,9.9312,76.2673,27.7,86,0.0,1008.6,7.75,36.7,51,17.2,10.0,8.6,126.0,43.0,2.9,7,0,4,1,2026-07-11T18:54:39.093548+05:30
Thiruvananthapuram,Kerala,8.5241,76.9366,26.9,87,0.0,1007.9,8.0,49.3,36,14.6,8.4,4.0,111.0,57.0,1.2,7,5,4,1,2026-07-11T18:54:39.093557+05:30
Kozhikode,Kerala,11.2588,75.7804,27.2,87,0.0,1007.9,7.4,37.8,41,17.6,8.2,1.2,119.0,53.0,1.0,7,5,4,1,2026-07-11T18:54:39.093566+05:30
Thrissur,Kerala,10.5276,76.2144,27.3,87,0.0,1007.0,7.1,36.7,53,17.1,9.4,5.4,140.0,44.0,1.9,7,5,4,1,2026-07-11T18:54:39.093575+05:30
Kannur,Kerala,11.8745,75.3704,28.4,79,0.0,1007.1,8.05,41.4,50,15.6,8.2,4.1,124.0,49.0,1.5,7,5,4,1,2026-07-11T18:54:39.093584+05:30
Patna,Bihar,25.5941,85.1376,29.4,86,0.0,990.5,4.8,31.0,105,79.2,55.5,16.4,317.0,91.0,9.6,7,5,3,1,2026-07-11T18:54:39.093592+05:30
Gaya,Bihar,24.7914,85.0002,29.8,79,0.0,984.7,7.5,40.3,97,51.0,37.8,15.7,298.0,77.0,21.4,7,5,7,1,2026-07-11T18:54:39.093600+05:30
Muzaffarpur,Bihar,26.1209,85.3647,28.7,94,0.1,990.3,4.95,29.5,108,82.7,56.5,17.8,445.0,88.0,8.2,10,5,3,1,2026-07-11T18:54:39.093609+05:30
Bhagalpur,Bihar,25.2425,87.0117,29.7,78,0.0,991.3,7.65,34.2,81,26.1,20.5,10.2,314.0,89.0,7.6,7,5,7,1,2026-07-11T18:54:39.093617+05:30
Ranchi,Jharkhand,23.3441,85.3096,24.8,93,0.0,930.5,7.0,40.7,91,36.2,25.1,9.5,206.0,69.0,3.3,3,5,7,1,2026-07-11T18:54:39.093626+05:30
Jamshedpur,Jharkhand,22.8046,86.2029,29.5,78,0.0,982.5,8.5,34.2,111,38.9,28.8,12.0,319.0,77.0,10.3,7,5,7,1,2026-07-11T18:54:39.093634+05:30
Dhanbad,Jharkhand,23.7957,86.4304,27.3,89,0.0,971.2,8.65,32.0,126,36.7,31.5,35.5,268.0,42.0,71.6,7,5,7,1,2026-07-11T18:54:39.093642+05:30
Bokaro,Jharkhand,23.6693,86.1511,28.0,89,0.0,975.3,6.9,33.5,120,38.2,29.2,24.9,205.0,54.0,55.6,7,5,7,1,2026-07-11T18:54:39.093651+05:30
Bhubaneswar,Odisha,20.2961,85.8245,28.5,84,0.0,995.2,8.45,35.3,86,65.2,41.8,11.9,431.0,95.0,8.7,7,5,7,1,2026-07-11T18:54:39.093660+05:30
Cuttack,Odisha,20.4625,85.8828,29.8,83,0.0,996.9,8.55,36.0,86,65.2,41.8,11.9,418.0,95.0,8.7,7,5,7,1,2026-07-11T18:54:39.093669+05:30
Rourkela,Odisha,22.2604,84.8536,29.3,76,0.0,977.4,8.2,32.8,131,63.3,41.0,9.1,470.0,105.0,15.7,7,5,7,1,2026-07-11T18:54:39.093677+05:30
Raipur,Chhattisgarh,21.2514,81.6296,29.7,65,0.0,968.2,7.6,40.7,117,62.4,37.4,20.2,282.0,82.0,37.3,7,5,7,1,2026-07-11T18:54:39.093685+05:30
Bhilai,Chhattisgarh,21.1938,81.3509,29.7,62,0.0,968.6,7.4,45.4,110,65.2,37.0,16.8,474.0,88.0,31.5,7,5,7,1,2026-07-11T18:54:39.093693+05:30
Guwahati,Assam,26.1158,91.7086,26.9,98,0.4,991.9,8.55,24.5,46,10.3,10.3,7.9,313.0,73.0,2.0,10,5,7,1,2026-07-11T18:54:39.093701+05:30
Agartala,Tripura,23.8315,91.2868,26.3,99,0.2,998.1,6.75,35.6,87,48.4,42.1,13.7,266.0,86.0,5.8,10,5,7,1,2026-07-11T18:54:39.093710+05:30
Shillong,Meghalaya,25.5788,91.8933,21.5,93,0.0,850.8,3.95,27.4,42,4.3,4.2,8.6,297.0,83.0,3.5,3,5,3,1,2026-07-11T18:54:39.093718+05:30
Imphal,Manipur,24.817,93.9368,24.0,96,0.1,916.4,8.55,33.1,41,8.4,8.3,9.6,343.0,60.0,2.0,6,5,7,1,2026-07-11T18:54:39.093727+05:30
Aizawl,Mizoram,23.7271,92.7176,20.6,94,0.0,886.2,8.25,40.0,42,9.3,6.9,4.2,177.0,80.0,2.9,3,5,7,1,2026-07-11T18:54:39.093736+05:30
Kohima,Nagaland,25.6701,94.1077,21.5,98,0.0,849.5,6.6,20.9,39,7.1,6.9,7.3,232.0,57.0,1.4,3,5,7,1,2026-07-11T18:54:39.093744+05:30
Gangtok,Sikkim,27.3314,88.6138,20.0,95,0.4,831.4,8.5,30.6,50,5.0,4.9,5.3,278.0,99.0,1.0,6,5,7,1,2026-07-11T18:54:39.093752+05:30
Siliguri,West Bengal,26.7271,88.3953,26.9,97,0.1,982.7,5.0,25.6,92,23.4,23.3,10.0,626.0,105.0,2.9,10,5,3,1,2026-07-11T18:54:42.524793+05:30
Durgapur,West Bengal,23.5204,87.3119,29.2,84,0.0,986.2,6.3,35.3,131,41.6,37.5,42.7,588.0,45.0,64.3,7,5,7,1,2026-07-11T18:54:42.524825+05:30
Asansol,West Bengal,23.6739,86.9524,28.0,86,0.0,984.8,7.05,38.2,114,33.6,29.9,38.0,460.0,42.0,54.9,7,5,7,1,2026-07-11T18:54:42.524836+05:30
Pondicherry,Puducherry,11.9139,79.8145,30.9,71,0.0,1004.4,8.15,38.2,86,49.4,28.1,13.6,209.0,114.0,9.0,3,5,4,1,2026-07-11T18:54:42.524845+05:30
Port Blair,Andaman and Nicobar Islands,11.6234,92.7265,26.6,90,0.1,1005.9,8.8,57.6,35,14.8,7.7,0.5,103.0,45.0,0.4,10,5,4,1,2026-07-11T18:54:42.524854+05:30
Haridwar,Uttarakhand,29.9457,78.1642,28.2,92,0.0,963.6,7.5,20.5,155,80.6,46.9,8.6,408.0,142.0,11.7,7,5,7,1,2026-07-11T18:54:42.524862+05:30
Rishikesh,Uttarakhand,30.0869,78.2676,27.8,89,0.0,956.7,7.6,19.1,123,41.3,31.1,4.1,351.0,142.0,6.9,7,5,7,1,2026-07-11T18:54:42.524871+05:30
Nainital,Uttarakhand,29.3919,79.4542,18.9,96,0.0,799.7,3.1,27.7,113,47.0,30.0,8.1,270.0,121.0,7.6,3,10,3,1,2026-07-11T18:54:42.524879+05:30
Mussoorie,Uttarakhand,30.4599,78.0664,18.1,98,0.2,796.9,7.75,25.2,143,42.0,33.5,10.6,311.0,140.0,7.0,6,10,7,1,2026-07-11T18:54:42.524888+05:30
Dharamshala,Himachal Pradesh,32.219,76.3234,22.8,91,0.0,861.6,8.4,27.4,129,18.6,14.4,5.0,396.0,136.0,1.8,3,5,7,1,2026-07-11T18:54:42.524896+05:30
Dalhousie,Himachal Pradesh,32.5387,75.971,18.9,97,0.0,798.7,8.65,20.9,170,44.1,30.9,8.3,448.0,166.0,3.7,3,10,7,1,2026-07-11T18:54:42.524904+05:30
Patiala,Punjab,30.3398,76.3869,31.4,76,0.0,967.1,7.5,24.5,155,491.7,136.4,16.9,320.0,108.0,7.1,3,5,7,1,2026-07-11T18:54:42.524912+05:30
Bhatinda,Punjab,30.211,74.9455,35.0,54,0.0,971.7,8.1,27.0,177,227.7,99.0,17.0,237.0,105.0,11.2,0,5,7,1,2026-07-11T18:54:42.524920+05:30
Rohtak,Haryana,28.8955,76.6066,32.5,69,0.0,970.5,7.6,32.0,704,674.3,141.6,18.7,287.0,85.0,4.0,3,5,7,1,2026-07-11T18:54:42.524928+05:30
Panipat,Haryana,29.3909,76.9635,31.9,75,0.0,969.4,7.1,25.6,804,1099.0,206.8,17.0,273.0,85.0,8.6,3,5,7,1,2026-07-11T18:54:42.524936+05:30
Mathura,Uttar Pradesh,27.4924,77.6737,32.0,61,0.0,976.3,7.6,32.4,433,998.4,144.4,10.9,188.0,92.0,3.3,3,5,7,1,2026-07-11T18:54:42.524944+05:30
Vrindavan,Uttar Pradesh,27.5823,77.7027,32.3,61,0.0,976.6,7.75,30.6,433,998.4,144.4,10.9,182.0,92.0,3.3,3,5,7,1,2026-07-11T18:54:42.524952+05:30
Ayodhya,Uttar Pradesh,26.7922,82.1998,28.1,94,0.1,985.6,6.95,37.4,145,131.8,70.1,13.2,330.0,83.0,5.8,10,5,7,1,2026-07-11T18:54:42.524960+05:30
Ratlam,Madhya Pradesh,23.3315,75.0367,29.3,62,0.0,948.1,5.5,59.0,68,46.7,24.1,2.4,122.0,82.0,4.0,7,5,3,1,2026-07-11T18:54:42.524968+05:30
Sagar,Madhya Pradesh,23.8388,78.7378,28.3,66,0.0,943.3,7.7,52.6,88,54.6,26.0,2.6,148.0,83.0,2.7,7,5,7,1,2026-07-11T18:54:42.524975+05:30
Satna,Madhya Pradesh,24.6005,80.8322,30.4,61,0.0,963.2,8.15,45.0,96,53.7,28.3,4.3,156.0,91.0,3.9,3,5,7,1,2026-07-11T18:54:42.524983+05:30
Akola,Maharashtra,20.7002,77.0082,31.3,54,0.0,969.5,8.7,50.4,68,42.4,18.2,4.4,123.0,75.0,5.6,0,5,7,1,2026-07-11T18:54:42.524991+05:30
Amravati,Maharashtra,20.9374,77.7796,30.2,59,0.0,961.6,8.65,52.9,70,46.7,20.1,5.0,140.0,78.0,6.5,0,5,7,1,2026-07-11T18:54:42.524999+05:30
Latur,Maharashtra,18.4088,76.5604,28.8,58,0.0,936.5,8.5,46.8,53,41.3,16.2,2.7,134.0,70.0,2.2,4,5,7,1,2026-07-11T18:54:42.525007+05:30
Nanded,Maharashtra,19.1383,77.3091,30.3,55,0.0,963.9,8.1,46.4,64,52.0,21.9,5.2,167.0,73.0,3.0,0,5,7,1,2026-07-11T18:54:42.525014+05:30
Gulbarga,Karnataka,17.3297,76.8343,30.2,55,0.0,955.1,7.65,49.3,53,41.8,16.1,5.1,140.0,68.0,2.2,0,5,7,1,2026-07-11T18:54:42.525022+05:30
Bidar,Karnataka,17.9104,77.5199,28.6,58,0.0,932.2,6.4,44.3,61,47.0,19.6,5.9,150.0,71.0,2.0,4,5,7,1,2026-07-11T18:54:42.525029+05:30
Hospet,Karnataka,15.2689,76.3909,29.4,53,0.0,953.9,8.3,49.0,43,29.9,12.5,4.3,123.0,61.0,1.9,4,5,7,1,2026-07-11T18:54:42.525037+05:30
Tirupur,Tamil Nadu,11.1085,77.3411,28.2,72,0.0,973.6,8.1,50.0,53,43.9,16.1,8.3,157.0,64.0,3.1,7,5,7,1,2026-07-11T18:54:42.525044+05:30
Alappuzha,Kerala,9.4981,76.3388,27.9,84,0.0,1008.6,8.2,41.8,44,17.7,9.8,6.9,86.0,51.0,2.5,7,0,4,1,2026-07-11T18:54:42.525052+05:30
Munnar,Kerala,10.0889,77.0595,17.9,96,0.0,856.5,8.2,38.2,24,7.9,5.0,6.4,107.0,43.0,1.3,3,10,7,1,2026-07-11T18:54:42.525060+05:30
Silchar,Assam,24.8333,92.7789,26.9,96,0.1,996.9,7.95,27.7,42,11.6,10.9,6.7,298.0,75.0,3.3,10,5,7,1,2026-07-11T18:54:42.525067+05:30
Dibrugarh,Assam,27.4728,94.912,29.6,86,0.0,985.7,6.55,28.4,50,12.3,12.2,8.7,226.0,69.0,1.7,7,5,7,1,2026-07-11T18:54:42.525075+05:30
