city,state,latitude,longitude,temp,humidity,rain,pressure,uv_index,wind_gusts,aqi,pm10,pm2_5,mosquito_risk,arthritis_risk,migraine_risk,frizz_risk,updated_at
Delhi,Delhi,28.6139,77.209,28.9,29,0.0,982.9,6.9,29.2,198,237.5,38.3,4,5,7,0,2026-04-06T18:48:03.505437+05:30
Mumbai,Maharashtra,19.076,72.8777,27.9,71,0.0,1009.8,7.95,24.1,114,30.4,15.9,7,0,4,1,2026-04-06T18:48:03.505475+05:30
Bangalore,Karnataka,12.9716,77.5946,31.0,31,0.0,911.7,9.65,33.1,109,21.4,19.1,0,5,7,0,2026-04-06T18:48:03.505491+05:30
Hyderabad,Telangana,17.385,78.4867,33.8,25,0.0,952.1,9.2,31.3,116,16.4,12.6,0,5,7,0,2026-04-06T18:48:03.505501+05:30
Chennai,Tamil Nadu,13.0827,80.2707,29.2,81,0.0,1006.4,8.7,29.2,111,23.9,18.9,7,5,4,1,2026-04-06T18:48:03.505509+05:30
Kolkata,West Bengal,22.5726,88.3639,28.0,77,0.0,1006.2,8.7,28.1,190,69.8,63.6,7,5,4,1,2026-04-06T18:48:03.505517+05:30
Pune,Maharashtra,18.5204,73.8567,27.4,54,0.0,949.0,8.55,34.6,146,27.9,21.7,4,5,7,1,2026-04-06T18:48:03.505528+05:30
Ahmedabad,Gujarat,23.0225,72.5714,33.5,25,0.0,1000.7,7.95,30.2,96,21.8,9.5,0,5,4,0,2026-04-06T18:48:03.505536+05:30
Jaipur,Rajasthan,26.9124,75.7873,25.1,46,0.0,960.1,7.55,33.1,113,145.8,29.0,4,5,7,0,2026-04-06T18:48:03.505543+05:30
Lucknow,Uttar Pradesh,26.8467,80.9462,29.7,30,0.0,993.0,7.45,35.3,122,137.4,30.9,4,5,7,0,2026-04-06T18:48:03.505550+05:30
Kanpur,Uttar Pradesh,26.4499,80.3319,27.7,43,0.0,991.8,7.45,29.5,127,261.7,41.9,4,5,7,0,2026-04-06T18:48:03.505557+05:30
Chandigarh,Chandigarh,30.7333,76.7794,28.0,32,0.0,967.9,6.9,16.6,116,31.4,13.2,4,5,7,0,2026-04-06T18:48:03.505564+05:30
Srinagar,Jammu and Kashmir,34.0837,74.7973,14.6,65,0.0,838.5,7.9,16.6,94,17.4,14.1,3,5,7,0,2026-04-06T18:48:03.505571+05:30
Jammu,Jammu and Kashmir,32.7266,74.857,27.0,41,0.0,971.9,7.55,19.8,99,28.6,19.0,4,5,7,0,2026-04-06T18:48:03.505578+05:30
Amritsar,Punjab,31.634,74.8723,27.2,39,0.0,979.8,7.5,11.2,119,26.8,21.2,4,5,7,0,2026-04-06T18:48:03.505585+05:30
Ludhiana,Punjab,30.901,75.8573,28.8,26,0.0,977.9,7.1,16.6,108,44.8,24.0,4,5,7,0,2026-04-06T18:48:03.505591+05:30
Jalandhar,Punjab,31.326,75.5762,28.2,33,0.0,978.9,7.25,13.0,104,33.1,19.4,4,5,7,0,2026-04-06T18:48:03.505602+05:30
Dehradun,Uttarakhand,30.6284,78.0322,14.7,63,0.0,829.0,6.65,25.6,110,16.5,8.6,3,5,7,0,2026-04-06T18:48:03.505609+05:30
Shimla,Himachal Pradesh,31.1048,77.1734,14.2,57,0.0,783.4,6.25,27.7,102,23.4,19.1,0,5,7,0,2026-04-06T18:48:03.505615+05:30
Manali,Himachal Pradesh,32.2396,77.1887,13.4,83,0.0,817.1,9.45,28.1,135,11.9,7.7,3,10,7,0,2026-04-06T18:48:03.505623+05:30
Gurgaon,Haryana,28.4595,77.0266,28.1,33,0.0,981.4,7.0,25.9,653,422.8,57.9,4,5,7,0,2026-04-06T18:48:03.505630+05:30
Noida,Uttar Pradesh,28.5355,77.391,29.2,28,0.0,984.4,6.95,29.9,653,422.8,57.9,4,5,7,0,2026-04-06T18:48:03.505637+05:30
Ghaziabad,Uttar Pradesh,28.6692,77.4538,28.8,32,0.0,982.5,6.9,26.3,140,199.3,41.4,4,5,7,0,2026-04-06T18:48:03.505643+05:30
Faridabad,Haryana,28.4089,77.3178,28.5,29,0.0,983.7,6.95,27.4,653,422.8,57.9,4,5,7,0,2026-04-06T18:48:03.505650+05:30
Meerut,Uttar Pradesh,28.9845,77.7064,27.0,40,0.0,981.2,6.8,25.2,140,199.3,41.4,4,5,7,0,2026-04-06T18:48:03.505656+05:30
Agra,Uttar Pradesh,27.1767,78.0081,27.5,42,0.0,988.3,7.3,36.4,246,726.4,79.6,4,5,7,0,2026-04-06T18:48:03.505663+05:30
Varanasi,Uttar Pradesh,25.3176,82.9739,28.9,36,0.0,997.0,7.6,29.9,113,43.1,23.8,4,5,7,0,2026-04-06T18:48:03.505672+05:30
Prayagraj,Uttar Pradesh,25.4358,81.8463,29.2,36,0.0,995.8,7.75,28.1,138,58.3,23.7,4,5,7,0,2026-04-06T18:48:03.505679+05:30
Gorakhpur,Uttar Pradesh,26.7606,83.3732,29.7,30,0.0,996.2,7.8,27.4,118,38.1,18.3,4,5,7,0,2026-04-06T18:48:03.505685+05:30
Bareilly,Uttar Pradesh,28.367,79.4304,27.5,36,0.0,986.4,7.2,32.4,127,48.5,19.6,4,5,7,0,2026-04-06T18:48:03.505692+05:30
Aligarh,Uttar Pradesh,27.8974,78.088,27.8,34,0.0,985.5,7.1,24.1,311,475.9,65.2,4,5,7,0,2026-04-06T18:48:03.505699+05:30
Moradabad,Uttar Pradesh,28.8386,78.7733,26.6,44,0.0,983.3,7.0,30.6,128,52.7,26.3,4,5,7,0,2026-04-06T18:48:03.505705+05:30
Saharanpur,Uttar Pradesh,29.9637,77.546,27.6,35,0.0,974.8,6.6,23.4,119,82.2,24.5,4,5,7,0,2026-04-06T18:48:03.505712+05:30
Jhansi,Uttar Pradesh,25.4484,78.5685,25.5,52,0.0,978.4,7.85,21.6,123,51.2,17.8,4,5,7,0,2026-04-06T18:48:06.886163+05:30
Surat,Gujarat,21.1702,72.8311,27.4,67,0.0,1007.6,7.7,31.7,76,34.5,21.9,7,5,4,1,2026-04-06T18:48:06.886188+05:30
Vadodara,Gujarat,22.3072,73.1812,32.4,32,0.0,1003.6,7.95,34.9,120,26.0,15.5,0,5,4,0,2026-04-06T18:48:06.886197+05:30
Rajkot,Gujarat,22.3039,70.8022,31.1,40,0.0,994.3,7.65,40.0,106,48.1,18.7,0,5,7,0,2026-04-06T18:48:06.886204+05:30
Thane,Maharashtra,19.2183,72.9781,27.4,70,0.0,1009.2,7.95,37.4,114,30.4,15.9,7,0,4,1,2026-04-06T18:48:06.886211+05:30
Nagpur,Maharashtra,21.1458,79.0882,30.4,36,0.0,971.5,8.65,21.2,131,15.9,11.8,0,5,7,0,2026-04-06T18:48:06.886218+05:30
Nashik,Maharashtra,19.9975,73.7898,26.2,54,0.0,946.1,8.2,33.8,98,22.2,10.7,4,5,7,1,2026-04-06T18:48:06.886224+05:30
Aurangabad,Maharashtra,19.8762,75.3433,30.1,33,0.0,943.7,8.9,28.4,128,21.1,12.6,0,5,7,0,2026-04-06T18:48:06.886231+05:30
Solapur,Maharashtra,17.6599,75.9064,33.3,22,0.0,956.2,9.0,33.1,78,15.1,8.6,0,5,7,0,2026-04-06T18:48:06.886237+05:30
Kolhapur,Maharashtra,16.705,74.2433,24.7,61,0.0,948.7,9.0,40.7,64,13.8,10.4,3,5,7,1,2026-04-06T18:48:06.886244+05:30
Goa,Goa,15.2993,74.124,28.2,64,0.0,999.1,9.0,38.9,65,23.8,12.3,7,5,7,1,2026-04-06T18:48:06.886250+05:30
Jodhpur,Rajasthan,26.2389,73.0243,30.5,24,0.0,981.1,7.8,38.5,105,193.7,25.1,0,5,7,0,2026-04-06T18:48:06.886256+05:30
Udaipur,Rajasthan,24.5854,73.7125,27.3,31,0.0,945.6,8.4,37.1,99,16.2,6.4,4,5,7,0,2026-04-06T18:48:06.886263+05:30
Kota,Rajasthan,25.2138,75.8648,31.4,22,0.0,977.5,7.85,28.8,113,68.9,20.5,0,5,7,0,2026-04-06T18:48:06.886268+05:30
Bikaner,Rajasthan,28.0229,73.3119,30.0,26,0.0,980.2,7.65,28.1,88,54.8,14.1,4,5,7,0,2026-04-06T18:48:06.886274+05:30
Ajmer,Rajasthan,26.4499,74.6399,28.3,29,0.0,953.3,7.8,34.2,90,37.3,12.2,4,5,7,0,2026-04-06T18:48:06.886280+05:30
Gwalior,Madhya Pradesh,26.2183,78.1828,24.2,62,0.0,983.9,7.6,27.0,102,49.4,15.1,3,5,7,1,2026-04-06T18:48:06.886286+05:30
Indore,Madhya Pradesh,22.7196,75.8577,29.4,25,0.0,947.3,8.3,26.6,122,16.4,12.4,4,5,7,0,2026-04-06T18:48:06.886291+05:30
Bhopal,Madhya Pradesh,23.2599,77.4126,30.4,21,0.0,952.4,8.3,28.8,108,23.3,10.0,0,5,7,0,2026-04-06T18:48:06.886297+05:30
Jabalpur,Madhya Pradesh,23.1815,79.9864,31.2,25,0.0,960.6,8.25,19.8,109,23.9,13.3,0,5,7,0,2026-04-06T18:48:06.886303+05:30
Ujjain,Madhya Pradesh,23.1765,75.7885,29.3,27,0.0,953.0,8.2,26.6,108,16.4,11.2,4,5,7,0,2026-04-06T18:48:06.886347+05:30
Visakhapatnam,Andhra Pradesh,17.6868,83.2185,28.5,76,0.0,1004.0,9.1,34.9,106,30.2,25.3,7,5,4,1,2026-04-06T18:48:06.886359+05:30
Vijayawada,Andhra Pradesh,16.5062,80.648,31.3,61,0.0,1001.6,9.15,31.0,80,24.9,21.9,3,5,4,1,2026-04-06T18:48:06.886366+05:30
Guntur,Andhra Pradesh,16.3067,80.4365,30.7,65,0.0,1002.9,9.2,31.7,94,39.9,34.1,3,5,4,1,2026-04-06T18:48:06.886372+05:30
Nellore,Andhra Pradesh,14.4426,79.9865,30.0,72,0.0,1004.7,8.65,27.7,134,30.3,25.4,7,5,4,1,2026-04-06T18:48:06.886378+05:30
Kurnool,Andhra Pradesh,15.8281,78.0373,35.8,24,0.0,975.0,9.2,36.7,131,14.8,11.4,0,5,10,0,2026-04-06T18:48:06.886385+05:30
Kakinada,Andhra Pradesh,16.9891,82.2475,29.6,74,0.0,1007.5,8.8,26.3,60,18.7,13.9,7,5,4,1,2026-04-06T18:48:06.886391+05:30
Tirupati,Andhra Pradesh,13.6288,79.4192,28.5,76,0.0,991.2,8.15,19.4,145,48.4,44.1,7,5,7,1,2026-04-06T18:48:06.886397+05:30
Warangal,Telangana,17.9689,79.5941,31.6,62,0.0,977.3,9.0,36.7,130,43.4,32.6,3,5,7,1,2026-04-06T18:48:06.886403+05:30
Nizamabad,Telangana,18.6725,78.0941,32.3,37,0.0,963.4,8.95,27.7,91,27.1,19.4,0,5,7,0,2026-04-06T18:48:06.886409+05:30
Mysore,Karnataka,12.2958,76.6396,30.0,45,0.0,928.3,9.55,38.5,96,20.1,17.0,4,5,7,1,2026-04-06T18:48:06.886415+05:30
Mangalore,Karnataka,12.9141,74.856,29.3,73,0.0,1007.4,9.2,37.4,59,26.9,13.8,7,5,4,1,2026-04-06T18:48:06.886420+05:30
Hubli-Dharwad,Karnataka,15.3647,75.124,28.1,53,0.0,941.1,9.2,36.0,76,14.2,8.1,4,5,7,1,2026-04-06T18:48:06.886426+05:30
Belgaum,Karnataka,15.8497,74.4977,24.7,63,0.0,926.4,9.25,36.4,58,17.0,10.0,3,5,7,1,2026-04-06T18:48:10.235882+05:30
Coimbatore,Tamil Nadu,11.0168,76.9558,28.2,62,0.0,962.2,9.4,51.1,77,23.0,18.7,7,5,7,1,2026-04-06T18:48:10.235913+05:30
Madurai,Tamil Nadu,9.9252,78.1198,28.7,76,0.0,993.9,3.35,24.5,120,27.5,24.4,7,5,3,1,2026-04-06T18:48:10.235926+05:30
Trichy,Tamil Nadu,10.7905,78.7047,31.7,68,0.0,999.2,8.55,23.0,127,32.9,29.7,3,5,7,1,2026-04-06T18:48:10.235935+05:30
Salem,Tamil Nadu,11.6643,78.146,32.9,50,0.0,976.5,9.35,32.8,152,17.9,14.9,0,5,7,1,2026-04-06T18:48:10.235944+05:30
Tirunelveli,Tamil Nadu,8.7139,77.7567,30.6,67,0.0,1003.5,9.2,25.6,66,20.1,17.2,3,5,4,1,2026-04-06T18:48:10.235953+05:30
Vellore,Tamil Nadu,12.9165,79.1325,29.7,67,0.0,984.0,9.35,31.7,172,50.5,46.8,7,5,7,1,2026-04-06T18:48:10.235961+05:30
Erode,Tamil Nadu,11.341,77.7172,34.5,44,0.0,987.8,9.45,29.9,117,21.1,18.2,0,5,7,1,2026-04-06T18:48:10.235968+05:30
Kochi,Kerala,9.9312,76.2673,29.9,73,0.0,1009.6,8.6,36.7,69,31.2,20.3,7,0,4,1,2026-04-06T18:48:10.235976+05:30
Thiruvananthapuram,Kerala,8.5241,76.9366,29.4,78,0.0,1009.0,8.4,39.2,57,30.6,17.6,7,0,4,1,2026-04-06T18:48:10.235984+05:30
Kozhikode,Kerala,11.2588,75.7804,29.5,75,0.0,1008.5,9.2,38.5,61,34.3,17.0,7,0,4,1,2026-04-06T18:48:10.235992+05:30
Thrissur,Kerala,10.5276,76.2144,29.6,70,0.0,1007.9,9.2,41.0,71,25.8,16.2,7,5,4,1,2026-04-06T18:48:10.236000+05:30
Kannur,Kerala,11.8745,75.3704,29.4,67,0.0,1007.7,9.2,43.9,57,25.6,14.1,7,5,4,1,2026-04-06T18:48:10.236008+05:30
Patna,Bihar,25.5941,85.1376,30.0,41,0.0,999.7,7.05,29.2,99,31.4,21.5,4,5,7,0,2026-04-06T18:48:10.236016+05:30
Gaya,Bihar,24.7914,85.0002,28.7,55,0.0,993.9,5.7,28.8,101,26.2,18.7,4,5,3,1,2026-04-06T18:48:10.236024+05:30
Muzaffarpur,Bihar,26.1209,85.3647,29.0,42,0.0,999.6,7.65,28.1,102,31.3,21.0,4,5,7,0,2026-04-06T18:48:10.236033+05:30
Bhagalpur,Bihar,25.2425,87.0117,27.8,60,0.0,1001.1,7.15,27.0,119,22.8,19.3,4,5,4,1,2026-04-06T18:48:10.236041+05:30
Ranchi,Jharkhand,23.3441,85.3096,23.0,72,0.0,938.3,8.5,27.0,80,34.9,23.8,3,5,7,1,2026-04-06T18:48:10.236049+05:30
Jamshedpur,Jharkhand,22.8046,86.2029,26.4,79,0.0,992.4,8.65,24.8,153,43.1,36.9,7,5,7,1,2026-04-06T18:48:10.236056+05:30
Dhanbad,Jharkhand,23.7957,86.4304,28.4,56,0.0,980.4,7.85,20.5,115,59.8,45.4,4,5,7,1,2026-04-06T18:48:10.236064+05:30
Bokaro,Jharkhand,23.6693,86.1511,25.2,74,0.0,984.8,7.9,21.2,97,58.0,41.3,7,5,7,1,2026-04-06T18:48:10.236072+05:30
Bhubaneswar,Odisha,20.2961,85.8245,26.5,84,0.0,1004.2,8.95,23.8,88,26.4,23.6,7,5,4,1,2026-04-06T18:48:10.236079+05:30
Cuttack,Odisha,20.4625,85.8828,24.9,85,0.0,1006.5,8.95,31.7,88,26.4,23.6,3,5,4,1,2026-04-06T18:48:10.236087+05:30
Rourkela,Odisha,22.2604,84.8536,26.1,76,0.0,986.0,8.35,36.4,155,41.7,35.4,7,5,7,1,2026-04-06T18:48:10.236094+05:30
Raipur,Chhattisgarh,21.2514,81.6296,30.2,50,0.0,973.6,8.8,26.6,165,40.0,30.4,0,5,7,1,2026-04-06T18:48:10.236102+05:30
Bhilai,Chhattisgarh,21.1938,81.3509,30.8,46,0.0,973.9,8.7,25.6,152,20.5,16.8,0,5,7,1,2026-04-06T18:48:10.236109+05:30
Guwahati,Assam,26.1158,91.7086,27.7,66,0.0,1000.7,8.25,34.9,96,39.2,34.9,7,5,4,1,2026-04-06T18:48:10.236116+05:30
Agartala,Tripura,23.8315,91.2868,27.7,73,0.0,1005.9,8.5,19.4,209,84.1,78.2,7,5,4,1,2026-04-06T18:48:10.236124+05:30
Shillong,Meghalaya,25.5788,91.8933,14.6,88,0.0,856.2,7.85,71.6,113,41.3,38.1,3,10,7,0,2026-04-06T18:48:10.236132+05:30
Imphal,Manipur,24.817,93.9368,20.1,69,0.0,923.9,8.85,53.3,128,35.9,31.0,3,5,7,0,2026-04-06T18:48:10.236140+05:30
Aizawl,Mizoram,23.7271,92.7176,21.9,70,0.0,893.4,8.75,35.3,136,52.3,45.3,3,5,7,1,2026-04-06T18:48:10.236147+05:30
Kohima,Nagaland,25.6701,94.1077,17.6,63,0.0,855.4,8.75,81.4,90,37.4,30.2,3,5,7,0,2026-04-06T18:48:10.236155+05:30
Gangtok,Sikkim,27.3314,88.6138,14.4,77,0.0,837.1,8.5,21.6,97,24.0,20.1,3,5,7,0,2026-04-06T18:48:10.236163+05:30
Siliguri,West Bengal,26.7271,88.3953,23.6,69,0.0,994.1,8.05,19.8,109,29.6,24.1,3,5,7,1,2026-04-06T18:48:13.581417+05:30
Durgapur,West Bengal,23.5204,87.3119,28.3,65,0.0,995.6,8.45,23.8,153,45.3,37.6,7,5,7,1,2026-04-06T18:48:13.581445+05:30
Asansol,West Bengal,23.6739,86.9524,28.5,63,0.0,994.1,7.6,23.4,133,51.3,40.5,7,5,7,1,2026-04-06T18:48:13.581457+05:30
Pondicherry,Puducherry,11.9139,79.8145,29.5,80,0.0,1007.6,8.4,25.6,106,23.8,18.3,7,5,4,1,2026-04-06T18:48:13.581466+05:30
Port Blair,Andaman and Nicobar Islands,11.6234,92.7265,29.3,69,0.0,1008.4,9.2,19.4,29,10.1,6.5,7,0,4,1,2026-04-06T18:48:13.581475+05:30
Haridwar,Uttarakhand,29.9457,78.1642,26.7,40,0.0,973.5,6.75,25.9,109,23.1,13.8,4,5,7,0,2026-04-06T18:48:13.581484+05:30
Rishikesh,Uttarakhand,30.0869,78.2676,25.0,45,0.0,966.4,6.8,26.3,109,19.4,10.2,4,5,7,0,2026-04-06T18:48:13.581492+05:30
Nainital,Uttarakhand,29.3919,79.4542,18.3,47,0.0,805.7,5.85,38.5,120,28.8,13.9,0,5,3,0,2026-04-06T18:48:13.581500+05:30
Mussoorie,Uttarakhand,30.4599,78.0664,16.0,51,0.0,801.6,6.45,29.2,111,19.6,12.1,0,5,7,0,2026-04-06T18:48:13.581508+05:30
Dharamshala,Himachal Pradesh,32.219,76.3234,19.2,62,0.0,867.8,7.45,22.3,102,12.1,8.5,3,5,7,0,2026-04-06T18:48:13.581516+05:30
Dalhousie,Himachal Pradesh,32.5387,75.971,16.7,57,0.0,802.2,6.95,19.8,105,20.6,15.1,0,5,7,0,2026-04-06T18:48:13.581524+05:30
Patiala,Punjab,30.3398,76.3869,28.8,25,0.0,977.3,6.8,21.6,112,258.0,37.1,4,5,7,0,2026-04-06T18:48:13.581532+05:30
Bhatinda,Punjab,30.211,74.9455,27.6,34,0.0,983.1,7.45,20.9,116,20.9,12.1,4,5,7,0,2026-04-06T18:48:13.581540+05:30
Rohtak,Haryana,28.8955,76.6066,27.9,32,0.0,981.5,6.95,25.6,359,229.1,38.9,4,5,7,0,2026-04-06T18:48:13.581548+05:30
Panipat,Haryana,29.3909,76.9635,27.9,31,0.0,979.9,6.75,26.6,470,391.2,52.7,4,5,7,0,2026-04-06T18:48:13.581556+05:30
Mathura,Uttar Pradesh,27.4924,77.6737,27.2,42,0.0,987.2,7.25,27.7,409,296.2,50.8,4,5,7,0,2026-04-06T18:48:13.581564+05:30
Vrindavan,Uttar Pradesh,27.5823,77.7027,27.4,40,0.0,987.6,7.2,31.0,409,296.2,50.8,4,5,7,0,2026-04-06T18:48:13.581572+05:30
Ayodhya,Uttar Pradesh,26.7922,82.1998,29.5,31,0.0,994.4,7.6,30.2,124,50.3,20.7,4,5,7,0,2026-04-06T18:48:13.581580+05:30
Ratlam,Madhya Pradesh,23.3315,75.0367,28.7,29,0.0,954.2,8.15,33.8,102,13.8,7.3,4,5,7,0,2026-04-06T18:48:13.581588+05:30
Sagar,Madhya Pradesh,23.8388,78.7378,28.2,36,0.0,949.3,8.3,21.6,101,18.5,7.5,4,5,7,0,2026-04-06T18:48:13.581596+05:30
Satna,Madhya Pradesh,24.6005,80.8322,29.5,27,0.0,971.4,8.0,25.2,109,57.2,17.2,4,5,7,0,2026-04-06T18:48:13.581603+05:30
Akola,Maharashtra,20.7002,77.0082,32.9,23,0.0,973.8,8.65,28.1,126,17.5,13.4,0,5,7,0,2026-04-06T18:48:13.581613+05:30
Amravati,Maharashtra,20.9374,77.7796,32.1,25,0.0,965.8,8.7,27.4,134,16.1,12.7,0,5,7,0,2026-04-06T18:48:13.581622+05:30
Latur,Maharashtra,18.4088,76.5604,30.4,24,0.0,939.1,9.0,28.8,70,17.6,11.9,0,5,7,0,2026-04-06T18:48:13.581630+05:30
Nanded,Maharashtra,19.1383,77.3091,32.0,27,0.0,967.4,8.9,23.4,103,16.9,12.6,0,5,7,0,2026-04-06T18:48:13.581636+05:30
Gulbarga,Karnataka,17.3297,76.8343,34.1,17,0.0,957.7,9.05,32.0,69,19.1,9.5,0,5,7,0,2026-04-06T18:48:13.581642+05:30
Bidar,Karnataka,17.9104,77.5199,32.8,19,0.0,934.7,9.05,28.1,83,21.9,12.7,0,5,7,0,2026-04-06T18:48:13.581648+05:30
Hospet,Karnataka,15.2689,76.3909,34.5,21,0.0,954.9,9.25,31.0,97,9.2,6.4,0,5,7,0,2026-04-06T18:48:13.581654+05:30
Tirupur,Tamil Nadu,11.1085,77.3411,31.3,53,0.0,974.9,9.15,45.4,102,23.9,20.1,0,5,7,1,2026-04-06T18:48:13.581660+05:30
Alappuzha,Kerala,9.4981,76.3388,30.0,72,0.0,1009.7,9.2,33.8,67,36.2,21.2,7,0,4,1,2026-04-06T18:48:13.581666+05:30
Munnar,Kerala,10.0889,77.0595,21.9,95,0.0,858.3,8.45,33.5,63,23.1,18.5,3,5,7,1,2026-04-06T18:48:13.581672+05:30
Silchar,Assam,24.8333,92.7789,27.3,73,0.0,1005.1,8.5,19.1,153,72.4,64.0,7,5,4,1,2026-04-06T18:48:13.581678+05:30
Dibrugarh,Assam,27.4728,94.912,24.3,77,0.0,995.4,8.3,38.2,97,33.8,30.3,3,5,7,1,2026-04-06T18:48:13.581684+05:30
