city,state,latitude,longitude,temp,humidity,rain,pressure,uv_index,wind_gusts,aqi,pm10,pm2_5,mosquito_risk,arthritis_risk,migraine_risk,frizz_risk,updated_at
Delhi,Delhi,28.6139,77.209,20.2,67,0.0,984.4,5.8,24.5,186,270.1,91.7,3,5,3,0,2026-03-12T07:56:54.998677+05:30
Mumbai,Maharashtra,19.076,72.8777,26.4,96,0.0,1010.1,7.6,28.1,154,81.3,75.9,7,0,4,1,2026-03-12T07:56:54.998709+05:30
Bangalore,Karnataka,12.9716,77.5946,19.0,90,0.0,913.5,9.3,32.4,64,49.4,48.1,3,10,7,1,2026-03-12T07:56:54.998724+05:30
Hyderabad,Telangana,17.385,78.4867,22.1,65,0.0,955.9,8.65,22.0,93,52.9,43.2,3,5,7,0,2026-03-12T07:56:54.998733+05:30
Chennai,Tamil Nadu,13.0827,80.2707,24.6,85,0.0,1010.7,9.05,28.8,71,34.2,30.6,3,0,4,1,2026-03-12T07:56:54.998740+05:30
Kolkata,West Bengal,22.5726,88.3639,25.9,89,0.0,1009.6,8.0,19.4,137,50.8,46.0,7,0,4,1,2026-03-12T07:56:54.998748+05:30
Pune,Maharashtra,18.5204,73.8567,21.3,64,0.0,949.9,8.15,27.0,139,114.3,107.3,3,5,7,0,2026-03-12T07:56:54.998759+05:30
Ahmedabad,Gujarat,23.0225,72.5714,21.4,52,0.0,1005.4,7.45,30.2,71,24.2,23.6,0,5,4,0,2026-03-12T07:56:54.998765+05:30
Jaipur,Rajasthan,26.9124,75.7873,23.2,35,0.0,961.7,6.1,37.8,97,192.3,34.5,0,5,7,0,2026-03-12T07:56:54.998772+05:30
Lucknow,Uttar Pradesh,26.8467,80.9462,22.1,77,0.0,995.3,6.1,25.9,158,286.8,74.3,3,5,7,1,2026-03-12T07:56:54.998778+05:30
Kanpur,Uttar Pradesh,26.4499,80.3319,21.3,81,0.0,993.5,6.5,20.9,168,266.4,62.4,3,5,7,1,2026-03-12T07:56:54.998785+05:30
Chandigarh,Chandigarh,30.7333,76.7794,21.1,66,0.0,969.7,5.85,25.6,104,43.9,36.4,3,5,3,0,2026-03-12T07:56:54.998791+05:30
Srinagar,Jammu and Kashmir,34.0837,74.7973,7.9,97,0.1,841.5,6.9,22.7,111,40.3,37.4,6,10,7,0,2026-03-12T07:56:54.998798+05:30
Jammu,Jammu and Kashmir,32.7266,74.857,20.2,67,0.0,975.3,6.65,34.6,81,27.4,22.7,3,5,7,0,2026-03-12T07:56:54.998803+05:30
Amritsar,Punjab,31.634,74.8723,18.8,81,0.0,983.3,6.65,57.2,159,94.1,75.9,3,10,7,0,2026-03-12T07:56:54.998809+05:30
Ludhiana,Punjab,30.901,75.8573,21.5,63,0.0,980.3,6.15,31.3,164,96.2,80.6,3,5,7,0,2026-03-12T07:56:54.998814+05:30
Jalandhar,Punjab,31.326,75.5762,20.1,78,0.0,982.1,6.25,53.3,158,93.8,77.1,3,5,7,1,2026-03-12T07:56:54.998822+05:30
Dehradun,Uttarakhand,30.6284,78.0322,15.1,59,0.0,830.6,5.9,31.7,60,18.7,11.5,0,5,3,0,2026-03-12T07:56:54.998830+05:30
Shimla,Himachal Pradesh,31.1048,77.1734,12.5,72,0.0,784.3,6.5,40.3,76,37.4,20.5,3,5,7,0,2026-03-12T07:56:54.998836+05:30
Manali,Himachal Pradesh,32.2396,77.1887,14.5,69,0.0,821.1,4.45,43.6,46,7.3,3.1,3,5,3,0,2026-03-12T07:56:54.998842+05:30
Gurgaon,Haryana,28.4595,77.0266,17.9,77,0.0,982.7,5.95,22.3,693,987.2,148.5,3,5,3,0,2026-03-12T07:56:54.998848+05:30
Noida,Uttar Pradesh,28.5355,77.391,19.5,73,0.0,985.9,6.0,24.5,693,987.2,148.5,3,5,3,0,2026-03-12T07:56:54.998853+05:30
Ghaziabad,Uttar Pradesh,28.6692,77.4538,19.5,76,0.0,984.0,5.95,24.1,157,174.6,79.4,3,5,3,0,2026-03-12T07:56:54.998858+05:30
Faridabad,Haryana,28.4089,77.3178,21.0,59,0.0,985.2,6.1,23.4,693,987.2,148.5,0,5,7,0,2026-03-12T07:56:54.998864+05:30
Meerut,Uttar Pradesh,28.9845,77.7064,18.5,82,0.0,982.8,6.05,27.7,157,174.6,79.4,3,10,7,0,2026-03-12T07:56:54.998870+05:30
Agra,Uttar Pradesh,27.1767,78.0081,18.3,79,0.0,989.6,6.0,20.5,401,453.6,75.4,3,5,3,0,2026-03-12T07:56:54.998876+05:30
Varanasi,Uttar Pradesh,25.3176,82.9739,22.8,76,0.0,999.6,7.3,21.6,162,82.7,45.2,3,5,7,1,2026-03-12T07:56:54.998884+05:30
Prayagraj,Uttar Pradesh,25.4358,81.8463,22.2,71,0.0,998.0,6.7,22.3,162,82.0,42.7,3,5,7,1,2026-03-12T07:56:54.998890+05:30
Gorakhpur,Uttar Pradesh,26.7606,83.3732,22.0,95,0.0,999.3,6.6,18.0,229,220.7,200.2,3,5,7,1,2026-03-12T07:56:54.998896+05:30
Bareilly,Uttar Pradesh,28.367,79.4304,19.0,88,0.0,988.3,5.95,28.4,161,72.2,49.4,3,10,3,1,2026-03-12T07:56:54.998901+05:30
Aligarh,Uttar Pradesh,27.8974,78.088,19.0,71,0.0,987.1,5.7,27.0,429,379.0,108.5,3,5,3,0,2026-03-12T07:56:54.998909+05:30
Moradabad,Uttar Pradesh,28.8386,78.7733,19.3,82,0.0,985.0,5.9,32.8,158,83.4,54.2,3,10,3,1,2026-03-12T07:56:54.998915+05:30
Saharanpur,Uttar Pradesh,29.9637,77.546,18.8,81,0.0,976.6,5.15,29.2,152,102.0,84.8,3,10,3,0,2026-03-12T07:56:54.998921+05:30
Jhansi,Uttar Pradesh,25.4484,78.5685,21.7,50,0.0,980.0,6.65,28.1,76,24.0,13.2,0,5,7,0,2026-03-12T07:56:58.310502+05:30
Surat,Gujarat,21.1702,72.8311,25.2,49,0.0,1009.1,7.3,27.4,150,51.2,49.9,4,0,4,0,2026-03-12T07:56:58.310527+05:30
Vadodara,Gujarat,22.3072,73.1812,23.4,43,0.0,1007.2,7.45,23.8,74,30.2,29.5,0,5,4,0,2026-03-12T07:56:58.310539+05:30
Rajkot,Gujarat,22.3039,70.8022,21.2,76,0.0,997.5,7.3,32.0,61,26.3,16.4,3,5,7,1,2026-03-12T07:56:58.310548+05:30
Thane,Maharashtra,19.2183,72.9781,23.9,98,0.0,1009.7,7.6,39.6,154,81.3,75.9,3,0,4,1,2026-03-12T07:56:58.310556+05:30
Nagpur,Maharashtra,21.1458,79.0882,20.8,72,0.0,976.0,8.05,16.2,91,41.0,26.1,3,5,7,0,2026-03-12T07:56:58.310564+05:30
Nashik,Maharashtra,19.9975,73.7898,23.8,43,0.0,947.6,7.8,33.1,110,35.7,32.9,0,5,7,0,2026-03-12T07:56:58.310572+05:30
Aurangabad,Maharashtra,19.8762,75.3433,20.5,67,0.0,945.8,8.35,24.8,105,41.9,35.6,3,5,7,0,2026-03-12T07:56:58.310580+05:30
Solapur,Maharashtra,17.6599,75.9064,23.5,70,0.0,959.2,8.55,16.9,97,61.0,53.2,3,5,7,1,2026-03-12T07:56:58.310588+05:30
Kolhapur,Maharashtra,16.705,74.2433,22.2,85,0.0,949.7,8.65,25.9,150,113.4,107.6,3,5,7,1,2026-03-12T07:56:58.310596+05:30
Goa,Goa,15.2993,74.124,26.2,92,0.0,999.9,8.7,34.9,148,74.5,66.6,7,5,7,1,2026-03-12T07:56:58.310604+05:30
Jodhpur,Rajasthan,26.2389,73.0243,22.3,31,0.0,985.6,6.3,25.2,78,66.8,20.5,0,5,7,0,2026-03-12T07:56:58.310612+05:30
Udaipur,Rajasthan,24.5854,73.7125,19.0,39,0.0,949.2,7.45,29.5,51,15.4,14.8,0,5,7,0,2026-03-12T07:56:58.310620+05:30
Kota,Rajasthan,25.2138,75.8648,20.0,55,0.0,981.2,6.7,29.5,82,33.1,23.3,0,5,7,0,2026-03-12T07:56:58.310628+05:30
Bikaner,Rajasthan,28.0229,73.3119,21.7,33,0.0,983.6,6.3,20.2,85,136.0,49.8,0,5,7,0,2026-03-12T07:56:58.310635+05:30
Ajmer,Rajasthan,26.4499,74.6399,19.7,51,0.0,956.7,6.4,34.9,62,36.0,15.6,0,5,7,0,2026-03-12T07:56:58.310642+05:30
Gwalior,Madhya Pradesh,26.2183,78.1828,22.7,52,0.0,985.2,6.4,31.3,75,27.4,15.5,0,5,7,0,2026-03-12T07:56:58.310649+05:30
Indore,Madhya Pradesh,22.7196,75.8577,20.2,47,0.0,950.2,7.75,22.7,68,52.2,41.3,0,5,7,0,2026-03-12T07:56:58.310657+05:30
Bhopal,Madhya Pradesh,23.2599,77.4126,20.1,52,0.0,955.9,7.6,28.1,66,45.4,25.5,0,5,7,0,2026-03-12T07:56:58.310664+05:30
Jabalpur,Madhya Pradesh,23.1815,79.9864,21.6,56,0.0,964.2,7.7,19.8,98,75.7,43.1,0,5,7,0,2026-03-12T07:56:58.310671+05:30
Ujjain,Madhya Pradesh,23.1765,75.7885,19.7,53,0.0,956.1,7.65,18.7,88,61.9,54.0,0,5,7,0,2026-03-12T07:56:58.310679+05:30
Visakhapatnam,Andhra Pradesh,17.6868,83.2185,25.7,69,0.0,1006.8,8.65,39.6,87,34.5,32.9,7,5,4,1,2026-03-12T07:56:58.310686+05:30
Vijayawada,Andhra Pradesh,16.5062,80.648,24.6,80,0.0,1006.3,8.7,27.0,72,27.1,26.1,3,5,4,1,2026-03-12T07:56:58.310694+05:30
Guntur,Andhra Pradesh,16.3067,80.4365,24.1,78,0.0,1007.4,8.7,30.2,67,22.2,21.6,3,5,4,1,2026-03-12T07:56:58.310701+05:30
Nellore,Andhra Pradesh,14.4426,79.9865,24.2,86,0.0,1009.3,8.9,27.4,63,28.1,26.0,3,0,4,1,2026-03-12T07:56:58.310710+05:30
Kurnool,Andhra Pradesh,15.8281,78.0373,25.1,57,0.0,979.9,8.7,22.3,72,23.1,22.5,4,5,7,0,2026-03-12T07:56:58.310718+05:30
Kakinada,Andhra Pradesh,16.9891,82.2475,24.7,83,0.0,1011.1,8.65,34.6,75,25.3,23.0,3,0,4,1,2026-03-12T07:56:58.310726+05:30
Tirupati,Andhra Pradesh,13.6288,79.4192,21.9,88,0.0,995.1,9.05,34.6,83,58.1,56.3,3,5,7,1,2026-03-12T07:56:58.310733+05:30
Warangal,Telangana,17.9689,79.5941,23.7,64,0.0,981.2,8.5,17.3,94,44.4,39.9,3,5,7,1,2026-03-12T07:56:58.310739+05:30
Nizamabad,Telangana,18.6725,78.0941,24.0,64,0.0,967.5,8.35,22.0,112,49.5,44.0,3,5,7,1,2026-03-12T07:56:58.310744+05:30
Mysore,Karnataka,12.2958,76.6396,20.4,75,0.0,930.1,9.3,34.6,63,34.1,32.7,3,5,7,0,2026-03-12T07:56:58.310750+05:30
Mangalore,Karnataka,12.9141,74.856,28.2,84,0.0,1008.7,8.95,33.8,98,46.2,43.0,7,0,4,1,2026-03-12T07:56:58.310755+05:30
Hubli-Dharwad,Karnataka,15.3647,75.124,21.0,82,0.0,942.7,8.85,32.0,63,40.6,36.8,3,5,7,1,2026-03-12T07:56:58.310761+05:30
Belgaum,Karnataka,15.8497,74.4977,21.3,82,0.0,927.1,8.95,33.1,109,69.8,62.2,3,5,7,1,2026-03-12T07:57:01.628080+05:30
Coimbatore,Tamil Nadu,11.0168,76.9558,23.9,81,0.0,964.4,9.3,43.2,74,29.7,28.6,3,5,7,1,2026-03-12T07:57:01.628101+05:30
Madurai,Tamil Nadu,9.9252,78.1198,25.4,85,0.0,996.1,9.25,29.2,70,37.3,35.6,7,5,7,1,2026-03-12T07:57:01.628110+05:30
Trichy,Tamil Nadu,10.7905,78.7047,25.4,87,0.0,1003.3,9.15,26.3,73,43.4,40.3,7,5,4,1,2026-03-12T07:57:01.628117+05:30
Salem,Tamil Nadu,11.6643,78.146,23.3,91,0.0,980.6,9.2,28.8,70,42.7,40.7,3,5,7,1,2026-03-12T07:57:01.628124+05:30
Tirunelveli,Tamil Nadu,8.7139,77.7567,25.5,80,0.0,1006.3,8.8,40.0,60,22.4,20.4,7,5,4,1,2026-03-12T07:57:01.628130+05:30
Vellore,Tamil Nadu,12.9165,79.1325,21.9,95,0.0,988.2,9.1,33.8,91,57.0,55.1,3,5,7,1,2026-03-12T07:57:01.628136+05:30
Erode,Tamil Nadu,11.341,77.7172,24.8,90,0.0,992.4,9.15,23.0,73,32.2,30.2,3,5,7,1,2026-03-12T07:57:01.628142+05:30
Kochi,Kerala,9.9312,76.2673,26.9,83,0.0,1010.7,9.05,35.3,99,32.8,31.9,7,0,4,1,2026-03-12T07:57:01.628148+05:30
Thiruvananthapuram,Kerala,8.5241,76.9366,26.7,81,0.0,1010.0,9.05,26.6,67,12.5,11.4,7,0,4,1,2026-03-12T07:57:01.628154+05:30
Kozhikode,Kerala,11.2588,75.7804,27.3,87,0.0,1009.8,9.0,31.3,100,44.1,40.2,7,0,4,1,2026-03-12T07:57:01.628160+05:30
Thrissur,Kerala,10.5276,76.2144,26.1,89,0.0,1009.2,9.05,36.7,91,54.4,52.5,7,0,4,1,2026-03-12T07:57:01.628167+05:30
Kannur,Kerala,11.8745,75.3704,26.7,82,0.0,1008.9,9.0,31.7,103,42.6,39.7,7,0,4,1,2026-03-12T07:57:01.628202+05:30
Patna,Bihar,25.5941,85.1376,25.1,89,0.0,1003.3,7.45,22.3,230,220.3,210.0,7,5,4,1,2026-03-12T07:57:01.628209+05:30
Gaya,Bihar,24.7914,85.0002,25.1,86,0.0,996.6,7.3,21.2,194,144.8,128.5,7,5,7,1,2026-03-12T07:57:01.628215+05:30
Muzaffarpur,Bihar,26.1209,85.3647,24.0,86,0.0,1003.4,7.45,23.4,236,227.2,214.7,3,5,4,1,2026-03-12T07:57:01.628221+05:30
Bhagalpur,Bihar,25.2425,87.0117,22.2,92,0.0,1005.1,7.2,33.5,186,134.1,121.1,3,5,4,1,2026-03-12T07:57:01.628227+05:30
Ranchi,Jharkhand,23.3441,85.3096,22.0,79,0.0,940.7,8.2,35.6,170,136.4,110.1,3,5,7,1,2026-03-12T07:57:01.628232+05:30
Jamshedpur,Jharkhand,22.8046,86.2029,25.2,87,0.0,994.4,8.1,32.0,168,124.8,112.7,7,5,7,1,2026-03-12T07:57:01.628238+05:30
Dhanbad,Jharkhand,23.7957,86.4304,24.9,81,0.0,983.0,8.0,31.3,198,196.0,185.8,3,5,7,1,2026-03-12T07:57:01.628243+05:30
Bokaro,Jharkhand,23.6693,86.1511,25.1,83,0.0,987.1,8.0,22.3,194,171.8,162.1,7,5,7,1,2026-03-12T07:57:01.628249+05:30
Bhubaneswar,Odisha,20.2961,85.8245,26.0,87,0.0,1005.8,8.35,33.8,97,51.8,48.2,7,5,4,1,2026-03-12T07:57:01.628254+05:30
Cuttack,Odisha,20.4625,85.8828,26.2,84,0.0,1007.9,8.35,33.5,97,51.8,48.2,7,5,4,1,2026-03-12T07:57:01.628260+05:30
Rourkela,Odisha,22.2604,84.8536,24.1,84,0.0,988.5,8.0,18.4,160,104.3,92.9,3,5,7,1,2026-03-12T07:57:01.628265+05:30
Raipur,Chhattisgarh,21.2514,81.6296,22.5,49,0.0,977.9,8.1,18.0,165,147.6,131.8,0,5,7,0,2026-03-12T07:57:01.628271+05:30
Bhilai,Chhattisgarh,21.1938,81.3509,22.6,48,0.0,978.3,8.1,14.4,159,122.5,101.5,0,5,7,0,2026-03-12T07:57:01.628277+05:30
Guwahati,Assam,26.1158,91.7086,22.9,92,0.0,1007.0,7.3,18.7,153,58.2,53.2,3,5,4,1,2026-03-12T07:57:01.628282+05:30
Agartala,Tripura,23.8315,91.2868,22.8,89,0.0,1011.3,7.75,20.5,167,58.7,54.8,3,0,4,1,2026-03-12T07:57:01.628288+05:30
Shillong,Meghalaya,25.5788,91.8933,16.2,75,0.0,859.4,6.85,27.7,117,56.7,50.1,3,5,7,0,2026-03-12T07:57:01.628294+05:30
Imphal,Manipur,24.817,93.9368,20.3,77,0.0,927.6,8.0,31.0,169,122.0,116.4,3,5,7,1,2026-03-12T07:57:01.628299+05:30
Aizawl,Mizoram,23.7271,92.7176,19.8,79,0.0,896.5,7.9,31.3,188,177.0,170.0,3,5,7,1,2026-03-12T07:57:01.628305+05:30
Kohima,Nagaland,25.6701,94.1077,16.8,79,0.0,858.8,7.1,45.4,152,67.3,62.4,3,5,7,0,2026-03-12T07:57:01.628310+05:30
Gangtok,Sikkim,27.3314,88.6138,15.9,74,0.0,839.7,6.35,23.0,129,53.4,47.7,3,5,7,0,2026-03-12T07:57:01.628316+05:30
Siliguri,West Bengal,26.7271,88.3953,23.3,73,0.0,997.3,7.0,20.5,177,124.8,114.6,3,5,7,1,2026-03-12T07:57:04.946026+05:30
Durgapur,West Bengal,23.5204,87.3119,24.3,85,0.0,998.6,7.95,28.4,182,133.6,123.9,3,5,7,1,2026-03-12T07:57:04.946058+05:30
Asansol,West Bengal,23.6739,86.9524,24.7,83,0.0,997.1,7.65,27.7,182,154.6,143.4,3,5,7,1,2026-03-12T07:57:04.946070+05:30
Pondicherry,Puducherry,11.9139,79.8145,25.3,90,0.0,1012.0,9.0,27.7,66,33.2,28.3,7,0,4,1,2026-03-12T07:57:04.946080+05:30
Port Blair,Andaman and Nicobar Islands,11.6234,92.7265,27.3,81,0.0,1010.0,8.95,22.0,48,11.9,9.3,7,0,4,1,2026-03-12T07:57:04.946088+05:30
Haridwar,Uttarakhand,29.9457,78.1642,19.9,82,0.0,975.1,5.6,24.5,114,38.3,33.5,3,10,3,1,2026-03-12T07:57:04.946097+05:30
Rishikesh,Uttarakhand,30.0869,78.2676,20.2,67,0.0,968.0,5.6,19.4,92,26.0,21.1,3,5,3,0,2026-03-12T07:57:04.946105+05:30
Nainital,Uttarakhand,29.3919,79.4542,19.9,44,0.0,807.3,6.65,55.1,110,33.8,27.2,0,5,7,0,2026-03-12T07:57:04.946114+05:30
Mussoorie,Uttarakhand,30.4599,78.0664,17.3,43,0.0,803.5,5.75,38.9,90,24.3,21.9,0,5,3,0,2026-03-12T07:57:04.946123+05:30
Dharamshala,Himachal Pradesh,32.219,76.3234,20.0,43,0.0,870.7,6.2,27.7,57,20.4,10.0,0,5,7,0,2026-03-12T07:57:04.946131+05:30
Dalhousie,Himachal Pradesh,32.5387,75.971,16.4,45,0.0,805.4,5.0,31.3,82,21.4,16.3,0,5,3,0,2026-03-12T07:57:04.946139+05:30
Patiala,Punjab,30.3398,76.3869,21.1,63,0.0,979.3,5.75,32.0,160,132.2,98.0,3,5,3,0,2026-03-12T07:57:04.946147+05:30
Bhatinda,Punjab,30.211,74.9455,21.2,74,0.0,985.6,6.65,33.1,153,110.8,92.4,3,5,7,1,2026-03-12T07:57:04.946155+05:30
Rohtak,Haryana,28.8955,76.6066,19.1,74,0.0,983.1,6.05,22.7,257,373.5,92.7,3,5,7,0,2026-03-12T07:57:04.946162+05:30
Panipat,Haryana,29.3909,76.9635,19.4,74,0.0,981.7,5.85,24.5,338,443.3,98.7,3,5,3,0,2026-03-12T07:57:04.946196+05:30
Mathura,Uttar Pradesh,27.4924,77.6737,19.7,68,0.0,988.6,5.65,26.3,390,258.0,61.2,3,5,3,0,2026-03-12T07:57:04.946204+05:30
Vrindavan,Uttar Pradesh,27.5823,77.7027,19.0,71,0.0,988.9,5.7,28.1,390,258.0,61.2,3,5,3,0,2026-03-12T07:57:04.946209+05:30
Ayodhya,Uttar Pradesh,26.7922,82.1998,21.9,84,0.0,997.1,6.8,25.2,168,183.5,76.8,3,5,7,1,2026-03-12T07:57:04.946215+05:30
Ratlam,Madhya Pradesh,23.3315,75.0367,23.0,40,0.0,956.9,7.6,29.9,80,41.1,36.4,0,5,7,0,2026-03-12T07:57:04.946221+05:30
Sagar,Madhya Pradesh,23.8388,78.7378,20.9,48,0.0,952.3,7.35,26.6,70,41.1,21.1,0,5,7,0,2026-03-12T07:57:04.946226+05:30
Satna,Madhya Pradesh,24.6005,80.8322,22.8,54,0.0,973.7,7.55,31.0,91,41.4,21.9,0,5,7,0,2026-03-12T07:57:04.946232+05:30
Akola,Maharashtra,20.7002,77.0082,23.3,56,0.0,977.8,8.05,20.5,97,50.5,40.9,0,5,7,0,2026-03-12T07:57:04.946239+05:30
Amravati,Maharashtra,20.9374,77.7796,21.9,62,0.0,969.7,8.0,16.6,96,57.6,47.3,3,5,7,0,2026-03-12T07:57:04.946245+05:30
Latur,Maharashtra,18.4088,76.5604,22.2,61,0.0,941.7,8.45,18.4,94,48.2,40.5,3,5,7,0,2026-03-12T07:57:04.946251+05:30
Nanded,Maharashtra,19.1383,77.3091,22.9,69,0.0,971.1,8.25,17.6,104,46.6,42.7,3,5,7,1,2026-03-12T07:57:04.946259+05:30
Gulbarga,Karnataka,17.3297,76.8343,24.5,60,0.0,961.4,8.55,22.0,96,61.7,52.0,0,5,7,1,2026-03-12T07:57:04.946265+05:30
Bidar,Karnataka,17.9104,77.5199,24.0,56,0.0,937.8,8.5,23.8,100,50.3,42.5,0,5,7,0,2026-03-12T07:57:04.946270+05:30
Hospet,Karnataka,15.2689,76.3909,23.6,68,0.0,958.2,8.85,32.4,71,49.5,44.9,3,5,7,1,2026-03-12T07:57:04.946276+05:30
Tirupur,Tamil Nadu,11.1085,77.3411,24.2,83,0.0,978.3,9.3,32.8,79,36.0,34.3,3,5,7,1,2026-03-12T07:57:04.946282+05:30
Alappuzha,Kerala,9.4981,76.3388,26.5,83,0.0,1010.9,8.85,30.2,90,26.0,24.7,7,0,4,1,2026-03-12T07:57:04.946287+05:30
Munnar,Kerala,10.0889,77.0595,19.5,76,0.0,857.6,9.55,21.2,70,33.3,32.5,3,5,7,0,2026-03-12T07:57:04.946294+05:30
Silchar,Assam,24.8333,92.7789,23.6,86,0.0,1010.2,7.7,23.8,182,165.3,156.5,3,0,4,1,2026-03-12T07:57:04.946299+05:30
Dibrugarh,Assam,27.4728,94.912,22.7,83,0.0,1001.3,7.45,20.2,155,64.3,57.7,3,5,4,1,2026-03-12T07:57:04.946305+05:30
