city,state,latitude,longitude,temp,humidity,rain,pressure,uv_index,wind_gusts,aqi,pm10,pm2_5,no2,co,o3,so2,mosquito_risk,arthritis_risk,migraine_risk,frizz_risk,updated_at
Delhi,Delhi,28.6139,77.209,27.4,75,0.0,977.3,7.75,44.3,263,393.9,125.3,59.4,626.0,14.0,25.5,7,5,7,1,2026-06-15T01:49:59.761343+05:30
Mumbai,Maharashtra,19.076,72.8777,29.5,75,0.0,1006.9,7.7,47.2,64,32.4,14.4,2.5,120.0,50.0,2.5,7,5,4,1,2026-06-15T01:49:59.761387+05:30
Bangalore,Karnataka,12.9716,77.5946,21.2,91,0.0,910.5,9.05,39.2,45,9.3,7.4,12.8,228.0,39.0,4.3,3,5,7,1,2026-06-15T01:49:59.761402+05:30
Hyderabad,Telangana,17.385,78.4867,26.6,61,0.0,949.9,8.8,36.0,87,91.7,46.7,27.8,497.0,43.0,8.8,7,5,7,1,2026-06-15T01:49:59.761412+05:30
Chennai,Tamil Nadu,13.0827,80.2707,28.1,76,0.0,1004.2,8.4,34.2,66,33.4,21.0,12.0,256.0,70.0,7.2,7,5,4,1,2026-06-15T01:49:59.761420+05:30
Kolkata,West Bengal,22.5726,88.3639,27.6,94,0.0,1000.7,9.0,35.3,121,60.5,56.0,22.8,469.0,58.0,10.3,7,5,4,1,2026-06-15T01:49:59.761428+05:30
Pune,Maharashtra,18.5204,73.8567,24.4,87,0.0,947.0,8.3,51.1,54,16.6,10.0,7.4,121.0,41.0,7.8,3,5,7,1,2026-06-15T01:49:59.761435+05:30
Ahmedabad,Gujarat,23.0225,72.5714,30.5,60,0.0,999.1,8.05,40.3,67,29.7,12.9,3.3,109.0,49.0,3.0,0,5,7,1,2026-06-15T01:49:59.761441+05:30
Jaipur,Rajasthan,26.9124,75.7873,26.8,70,0.0,954.9,8.25,34.6,132,99.2,41.0,7.2,203.0,64.0,4.3,7,5,7,1,2026-06-15T01:49:59.761453+05:30
Lucknow,Uttar Pradesh,26.8467,80.9462,28.1,76,0.0,987.7,8.35,28.8,161,384.6,109.9,36.2,401.0,35.0,11.2,7,5,7,1,2026-06-15T01:49:59.761461+05:30
Kanpur,Uttar Pradesh,26.4499,80.3319,31.1,50,0.0,986.2,8.3,43.9,264,514.1,122.0,53.1,283.0,20.0,12.4,0,5,7,1,2026-06-15T01:49:59.761468+05:30
Chandigarh,Chandigarh,30.7333,76.7794,24.7,66,0.0,962.7,7.8,23.0,86,55.2,46.0,47.4,531.0,19.0,9.2,3,5,7,1,2026-06-15T01:49:59.761475+05:30
Srinagar,Jammu and Kashmir,34.0837,74.7973,13.9,96,0.0,837.3,9.05,19.8,70,45.2,41.0,30.2,497.0,16.0,2.0,3,10,7,0,2026-06-15T01:49:59.761482+05:30
Jammu,Jammu and Kashmir,32.7266,74.857,25.8,55,0.0,966.8,8.6,28.1,75,37.1,34.8,47.1,376.0,5.0,3.6,4,5,7,0,2026-06-15T01:49:59.761489+05:30
Amritsar,Punjab,31.634,74.8723,27.3,70,0.0,974.5,8.45,18.4,108,97.8,83.8,85.3,763.0,8.0,13.8,7,5,7,1,2026-06-15T01:49:59.761496+05:30
Ludhiana,Punjab,30.901,75.8573,26.7,77,0.0,972.5,8.05,22.7,109,104.5,64.7,53.3,727.0,16.0,8.0,7,5,7,1,2026-06-15T01:49:59.761503+05:30
Jalandhar,Punjab,31.326,75.5762,26.5,73,0.0,973.4,8.2,23.4,96,66.1,52.9,50.8,803.0,25.0,6.7,7,5,7,1,2026-06-15T01:49:59.761509+05:30
Dehradun,Uttarakhand,30.6284,78.0322,14.1,90,0.0,825.4,8.25,35.6,42,17.8,11.7,22.8,213.0,28.0,0.3,3,10,7,0,2026-06-15T01:49:59.761519+05:30
Shimla,Himachal Pradesh,31.1048,77.1734,11.9,80,0.0,779.2,8.1,38.2,57,27.6,24.0,21.5,245.0,33.0,0.0,3,5,7,0,2026-06-15T01:49:59.761527+05:30
Manali,Himachal Pradesh,32.2396,77.1887,12.4,74,0.0,813.8,9.5,38.2,46,3.4,2.9,19.1,207.0,95.0,0.0,3,5,7,0,2026-06-15T01:49:59.761534+05:30
Gurgaon,Haryana,28.4595,77.0266,27.7,61,0.0,975.7,7.85,52.2,391,301.7,94.1,30.8,512.0,36.0,13.2,7,5,7,1,2026-06-15T01:49:59.761543+05:30
Noida,Uttar Pradesh,28.5355,77.391,27.9,70,0.0,978.8,7.8,40.3,391,301.7,94.1,30.8,884.0,36.0,13.2,7,5,7,1,2026-06-15T01:49:59.761549+05:30
Ghaziabad,Uttar Pradesh,28.6692,77.4538,27.1,76,0.0,976.9,7.8,33.8,213,315.7,116.4,51.6,825.0,21.0,20.8,7,5,7,1,2026-06-15T01:49:59.761556+05:30
Faridabad,Haryana,28.4089,77.3178,28.1,70,0.0,978.0,7.85,53.6,391,301.7,94.1,30.8,656.0,36.0,13.2,7,5,7,1,2026-06-15T01:49:59.761562+05:30
Meerut,Uttar Pradesh,28.9845,77.7064,27.0,73,0.0,975.7,7.7,30.6,213,315.7,116.4,51.6,605.0,21.0,20.8,7,5,7,1,2026-06-15T01:49:59.761568+05:30
Agra,Uttar Pradesh,27.1767,78.0081,29.4,50,0.0,982.5,8.15,77.8,368,1017.0,146.2,15.4,173.0,50.0,4.5,4,5,7,1,2026-06-15T01:49:59.761575+05:30
Varanasi,Uttar Pradesh,25.3176,82.9739,30.6,59,0.0,992.1,8.8,36.7,163,147.6,81.0,45.2,759.0,37.0,16.5,0,5,7,1,2026-06-15T01:49:59.761582+05:30
Prayagraj,Uttar Pradesh,25.4358,81.8463,31.1,55,0.0,990.5,8.7,32.4,162,187.7,96.4,61.0,733.0,16.0,18.7,0,5,7,1,2026-06-15T01:49:59.761589+05:30
Gorakhpur,Uttar Pradesh,26.7606,83.3732,27.9,76,0.0,991.5,8.7,25.9,152,100.6,82.9,54.5,583.0,17.0,15.2,7,5,7,1,2026-06-15T01:49:59.761598+05:30
Bareilly,Uttar Pradesh,28.367,79.4304,26.5,81,0.0,981.1,8.1,40.3,158,205.8,89.6,40.5,375.0,43.0,14.4,7,5,7,1,2026-06-15T01:49:59.761604+05:30
Aligarh,Uttar Pradesh,27.8974,78.088,27.8,63,0.0,980.0,7.95,56.5,369,202.1,79.9,23.6,257.0,49.0,7.8,7,5,7,1,2026-06-15T01:49:59.761611+05:30
Moradabad,Uttar Pradesh,28.8386,78.7733,26.6,79,0.0,978.0,7.95,39.2,165,284.1,134.1,63.3,509.0,12.0,17.5,7,5,7,1,2026-06-15T01:49:59.761617+05:30
Saharanpur,Uttar Pradesh,29.9637,77.546,26.1,75,0.0,970.1,7.55,19.1,152,97.1,55.4,39.1,640.0,26.0,10.3,7,5,7,1,2026-06-15T01:49:59.761623+05:30
Jhansi,Uttar Pradesh,25.4484,78.5685,29.0,59,0.0,973.1,8.35,73.4,91,78.7,36.7,4.3,144.0,65.0,1.6,4,5,7,1,2026-06-15T01:50:08.472596+05:30
Surat,Gujarat,21.1702,72.8311,29.7,76,0.0,1004.6,7.55,50.0,72,35.3,19.3,12.2,221.0,40.0,20.5,7,5,4,1,2026-06-15T01:50:08.472629+05:30
Vadodara,Gujarat,22.3072,73.1812,31.1,62,0.0,1001.5,8.0,45.0,76,34.6,23.6,15.8,168.0,32.0,11.7,3,5,4,1,2026-06-15T01:50:08.472640+05:30
Rajkot,Gujarat,22.3039,70.8022,28.3,77,0.0,991.6,7.55,50.8,65,34.5,14.8,4.1,96.0,46.0,4.7,7,5,7,1,2026-06-15T01:50:08.472648+05:30
Thane,Maharashtra,19.2183,72.9781,29.0,78,0.0,1006.3,7.7,44.3,64,32.4,14.4,2.5,129.0,50.0,2.5,7,5,4,1,2026-06-15T01:50:08.472657+05:30
Nagpur,Maharashtra,21.1458,79.0882,29.2,62,0.0,969.6,8.9,36.7,107,64.3,36.2,15.4,179.0,54.0,8.6,7,5,7,1,2026-06-15T01:50:08.472666+05:30
Nashik,Maharashtra,19.9975,73.7898,24.7,87,0.0,944.1,8.05,50.4,57,20.4,10.2,2.7,114.0,45.0,1.2,3,5,7,1,2026-06-15T01:50:08.472674+05:30
Aurangabad,Maharashtra,19.8762,75.3433,26.4,65,0.0,942.7,8.95,51.8,59,27.4,15.0,5.7,119.0,45.0,5.5,7,5,7,1,2026-06-15T01:50:08.472682+05:30
Solapur,Maharashtra,17.6599,75.9064,27.1,71,0.0,955.8,8.9,49.0,62,17.6,11.2,4.9,123.0,52.0,4.1,7,5,7,1,2026-06-15T01:50:08.472690+05:30
Kolhapur,Maharashtra,16.705,74.2433,23.7,92,0.0,947.2,8.75,49.7,43,14.8,9.5,5.2,143.0,40.0,2.3,3,5,7,1,2026-06-15T01:50:08.472698+05:30
Goa,Goa,15.2993,74.124,26.1,92,0.0,997.6,8.7,37.8,63,38.2,22.5,6.9,404.0,42.0,2.2,7,5,7,1,2026-06-15T01:50:08.472706+05:30
Jodhpur,Rajasthan,26.2389,73.0243,32.2,53,0.0,977.5,8.45,42.5,160,207.7,49.9,3.3,124.0,53.0,2.2,0,5,7,1,2026-06-15T01:50:08.472715+05:30
Udaipur,Rajasthan,24.5854,73.7125,27.4,69,0.0,943.0,8.85,41.4,75,24.4,14.7,3.0,125.0,57.0,2.1,7,5,7,1,2026-06-15T01:50:08.472722+05:30
Kota,Rajasthan,25.2138,75.8648,27.7,61,0.0,974.7,8.4,33.1,109,70.5,32.9,5.2,217.0,70.0,4.4,7,5,7,1,2026-06-15T01:50:08.472738+05:30
Bikaner,Rajasthan,28.0229,73.3119,31.9,44,0.0,975.1,8.5,37.8,154,247.7,72.9,2.1,126.0,71.0,3.8,0,5,7,1,2026-06-15T01:50:08.472754+05:30
Ajmer,Rajasthan,26.4499,74.6399,28.3,57,0.0,949.7,8.35,46.1,114,85.4,38.6,7.1,154.0,53.0,3.4,4,5,7,1,2026-06-15T01:50:08.472768+05:30
Gwalior,Madhya Pradesh,26.2183,78.1828,29.5,56,0.0,978.1,8.3,78.1,101,80.1,38.3,5.9,134.0,64.0,2.9,4,5,7,1,2026-06-15T01:50:08.472783+05:30
Indore,Madhya Pradesh,22.7196,75.8577,28.1,63,0.0,945.8,8.65,46.8,86,65.7,35.5,7.0,253.0,71.0,7.5,7,5,7,1,2026-06-15T01:50:08.472792+05:30
Bhopal,Madhya Pradesh,23.2599,77.4126,26.5,71,0.0,950.3,8.65,33.8,96,53.7,32.8,8.1,302.0,58.0,3.5,7,5,7,1,2026-06-15T01:50:08.472800+05:30
Jabalpur,Madhya Pradesh,23.1815,79.9864,28.5,63,0.0,957.7,7.55,43.6,93,51.9,31.3,8.3,197.0,66.0,3.7,7,5,7,1,2026-06-15T01:50:08.472808+05:30
Ujjain,Madhya Pradesh,23.1765,75.7885,28.5,54,0.0,951.3,8.55,45.0,83,53.7,29.1,3.8,300.0,79.0,6.5,4,5,7,1,2026-06-15T01:50:08.472816+05:30
Visakhapatnam,Andhra Pradesh,17.6868,83.2185,29.3,82,0.0,998.2,8.95,37.1,111,60.3,45.4,29.0,518.0,47.0,31.8,7,5,7,1,2026-06-15T01:50:08.472824+05:30
Vijayawada,Andhra Pradesh,16.5062,80.648,29.4,67,0.0,998.0,9.0,32.8,93,40.9,30.7,11.7,328.0,61.0,6.0,7,5,7,1,2026-06-15T01:50:08.472832+05:30
Guntur,Andhra Pradesh,16.3067,80.4365,28.8,66,0.0,999.3,8.95,37.8,88,39.2,28.9,12.8,322.0,57.0,5.9,7,5,7,1,2026-06-15T01:50:08.472839+05:30
Nellore,Andhra Pradesh,14.4426,79.9865,29.4,62,0.0,1002.2,8.95,42.5,72,45.1,29.3,13.1,255.0,60.0,5.9,7,5,4,1,2026-06-15T01:50:08.472848+05:30
Kurnool,Andhra Pradesh,15.8281,78.0373,28.4,56,0.0,974.7,8.95,41.8,73,25.6,16.9,12.5,148.0,45.0,4.6,4,5,7,1,2026-06-15T01:50:08.472856+05:30
Kakinada,Andhra Pradesh,16.9891,82.2475,29.5,70,0.0,1002.4,8.95,37.4,95,53.9,37.7,8.9,474.0,86.0,6.0,7,5,4,1,2026-06-15T01:50:08.472863+05:30
Tirupati,Andhra Pradesh,13.6288,79.4192,26.6,77,0.0,988.3,9.0,31.7,70,30.7,21.4,12.9,235.0,46.0,2.9,7,5,7,1,2026-06-15T01:50:08.472871+05:30
Warangal,Telangana,17.9689,79.5941,28.1,67,0.0,974.2,9.0,40.3,112,96.2,71.5,41.7,254.0,10.0,8.1,7,5,7,1,2026-06-15T01:50:08.472878+05:30
Nizamabad,Telangana,18.6725,78.0941,28.5,53,0.0,961.9,8.95,37.8,83,72.4,37.5,13.1,337.0,51.0,4.1,4,5,7,1,2026-06-15T01:50:08.472885+05:30
Mysore,Karnataka,12.2958,76.6396,20.8,98,0.0,927.7,8.85,37.8,31,10.2,7.7,9.3,170.0,37.0,2.4,3,5,7,1,2026-06-15T01:50:08.472892+05:30
Mangalore,Karnataka,12.9141,74.856,25.0,95,0.0,1006.9,8.65,43.6,54,28.3,20.3,14.8,397.0,19.0,3.9,7,5,4,1,2026-06-15T01:50:08.472900+05:30
Hubli-Dharwad,Karnataka,15.3647,75.124,22.6,95,0.0,940.1,8.9,51.1,41,20.9,11.0,4.2,120.0,41.0,1.7,3,5,7,1,2026-06-15T01:50:08.472907+05:30
Belgaum,Karnataka,15.8497,74.4977,21.5,98,0.0,924.7,8.95,48.2,40,21.1,12.2,4.7,111.0,39.0,1.2,3,5,7,1,2026-06-15T01:50:11.824119+05:30
Coimbatore,Tamil Nadu,11.0168,76.9558,23.5,95,0.0,960.9,8.75,45.4,30,10.3,7.8,8.1,200.0,33.0,2.9,3,5,7,1,2026-06-15T01:50:11.824152+05:30
Madurai,Tamil Nadu,9.9252,78.1198,29.0,65,0.0,991.8,8.35,51.8,61,34.1,29.1,34.1,203.0,6.0,6.2,7,5,7,1,2026-06-15T01:50:11.824163+05:30
Trichy,Tamil Nadu,10.7905,78.7047,29.2,63,0.0,998.1,8.5,45.4,53,19.6,15.3,13.3,130.0,40.0,4.4,7,5,7,1,2026-06-15T01:50:11.824172+05:30
Salem,Tamil Nadu,11.6643,78.146,26.0,87,0.0,976.3,8.35,36.7,57,15.7,12.2,13.4,373.0,38.0,6.3,7,5,7,1,2026-06-15T01:50:11.824181+05:30
Tirunelveli,Tamil Nadu,8.7139,77.7567,27.9,68,0.0,1002.3,7.6,42.8,40,14.2,10.4,6.5,148.0,41.0,2.5,7,5,4,1,2026-06-15T01:50:11.824190+05:30
Vellore,Tamil Nadu,12.9165,79.1325,27.2,68,0.0,982.2,8.95,41.4,61,18.6,13.7,13.5,180.0,44.0,4.6,7,5,7,1,2026-06-15T01:50:11.824198+05:30
Erode,Tamil Nadu,11.341,77.7172,26.2,81,0.0,988.2,8.85,38.9,44,16.3,12.0,10.7,175.0,38.0,3.6,7,5,7,1,2026-06-15T01:50:11.824207+05:30
Kochi,Kerala,9.9312,76.2673,26.2,97,0.0,1008.9,8.45,34.2,55,30.3,25.4,21.6,259.0,12.0,5.6,7,0,4,1,2026-06-15T01:50:11.824214+05:30
Thiruvananthapuram,Kerala,8.5241,76.9366,25.1,94,0.0,1008.4,6.75,41.0,44,20.0,10.6,3.6,209.0,49.0,1.9,7,0,4,1,2026-06-15T01:50:11.824222+05:30
Kozhikode,Kerala,11.2588,75.7804,25.3,93,0.0,1007.8,8.15,46.4,29,21.5,10.2,2.2,212.0,56.0,1.4,7,5,4,1,2026-06-15T01:50:11.824229+05:30
Thrissur,Kerala,10.5276,76.2144,24.9,97,0.0,1007.2,8.2,37.1,53,33.6,26.8,18.7,387.0,16.0,4.7,3,5,4,1,2026-06-15T01:50:11.824237+05:30
Kannur,Kerala,11.8745,75.3704,24.9,95,0.0,1007.1,8.4,47.2,40,21.7,15.7,14.2,517.0,21.0,2.8,3,5,4,1,2026-06-15T01:50:11.824245+05:30
Patna,Bihar,25.5941,85.1376,28.8,82,0.0,994.9,8.9,25.2,167,135.5,107.6,61.4,746.0,19.0,21.7,7,5,7,1,2026-06-15T01:50:11.824251+05:30
Gaya,Bihar,24.7914,85.0002,28.3,73,0.0,988.5,8.95,29.2,164,139.7,102.2,42.5,995.0,42.0,15.6,7,5,7,1,2026-06-15T01:50:11.824259+05:30
Muzaffarpur,Bihar,26.1209,85.3647,27.8,84,0.0,995.1,8.85,29.5,166,116.2,93.4,50.1,920.0,27.0,18.0,7,5,7,1,2026-06-15T01:50:11.824266+05:30
Bhagalpur,Bihar,25.2425,87.0117,28.5,82,0.0,995.7,8.85,27.0,159,100.1,79.2,19.6,535.0,71.0,11.2,7,5,7,1,2026-06-15T01:50:11.824272+05:30
Ranchi,Jharkhand,23.3441,85.3096,24.3,77,0.0,933.3,9.25,28.4,128,62.4,46.7,11.4,259.0,83.0,4.6,3,5,7,1,2026-06-15T01:50:11.824279+05:30
Jamshedpur,Jharkhand,22.8046,86.2029,26.4,90,0.0,986.0,9.1,29.9,154,76.4,60.3,23.2,355.0,67.0,22.5,7,5,7,1,2026-06-15T01:50:11.824286+05:30
Dhanbad,Jharkhand,23.7957,86.4304,27.4,78,0.0,974.9,9.1,27.7,171,171.8,149.5,66.1,263.0,32.0,207.5,7,5,7,1,2026-06-15T01:50:11.824293+05:30
Bokaro,Jharkhand,23.6693,86.1511,27.2,75,0.0,978.6,9.1,25.6,166,145.3,117.3,46.6,249.0,69.0,166.1,7,5,7,1,2026-06-15T01:50:11.824300+05:30
Bhubaneswar,Odisha,20.2961,85.8245,27.6,92,0.0,997.3,8.65,46.4,117,97.8,88.7,42.4,755.0,44.0,12.0,7,5,7,1,2026-06-15T01:50:11.824306+05:30
Cuttack,Odisha,20.4625,85.8828,27.5,95,0.0,999.2,6.85,37.8,117,97.8,88.7,42.4,663.0,44.0,12.0,7,5,7,1,2026-06-15T01:50:11.824313+05:30
Rourkela,Odisha,22.2604,84.8536,26.9,94,0.0,980.6,9.05,60.5,144,75.0,53.1,15.3,337.0,80.0,4.6,7,5,7,1,2026-06-15T01:50:11.824320+05:30
Raipur,Chhattisgarh,21.2514,81.6296,27.9,71,0.0,970.1,8.6,50.8,144,78.9,53.3,40.6,557.0,40.0,49.3,7,5,7,1,2026-06-15T01:50:11.824327+05:30
Bhilai,Chhattisgarh,21.1938,81.3509,26.8,85,0.0,970.4,8.6,63.0,139,88.2,50.3,30.7,945.0,50.0,38.7,7,5,7,1,2026-06-15T01:50:11.824333+05:30
Guwahati,Assam,26.1158,91.7086,25.0,98,0.0,997.3,8.7,24.8,66,22.6,20.0,8.0,321.0,70.0,3.4,7,5,7,1,2026-06-15T01:50:11.824340+05:30
Agartala,Tripura,23.8315,91.2868,25.6,94,0.0,1002.1,8.15,32.4,64,29.5,24.3,12.7,243.0,61.0,2.1,7,5,4,1,2026-06-15T01:50:11.824347+05:30
Shillong,Meghalaya,25.5788,91.8933,18.8,95,0.1,853.8,7.7,19.8,43,3.5,2.8,4.1,252.0,89.0,3.2,6,10,7,1,2026-06-15T01:50:11.824354+05:30
Imphal,Manipur,24.817,93.9368,22.1,98,0.0,919.6,8.75,29.5,67,28.3,25.8,13.0,533.0,41.0,2.9,3,5,7,1,2026-06-15T01:50:11.824362+05:30
Aizawl,Mizoram,23.7271,92.7176,19.2,94,0.0,889.0,8.75,25.2,50,13.0,11.0,4.3,172.0,41.0,0.8,3,10,7,1,2026-06-15T01:50:11.824369+05:30
Kohima,Nagaland,25.6701,94.1077,19.8,89,0.0,852.5,8.85,24.1,35,7.9,6.8,5.0,268.0,46.0,0.9,3,10,7,1,2026-06-15T01:50:11.824376+05:30
Gangtok,Sikkim,27.3314,88.6138,16.9,91,0.2,834.1,8.7,37.1,48,8.0,6.8,7.5,449.0,101.0,1.7,6,10,7,0,2026-06-15T01:50:11.824382+05:30
Siliguri,West Bengal,26.7271,88.3953,23.8,99,0.0,988.7,8.65,20.9,83,22.8,17.7,7.8,452.0,112.0,3.8,3,5,7,1,2026-06-15T01:50:15.188686+05:30
Durgapur,West Bengal,23.5204,87.3119,27.5,88,0.0,989.6,9.05,38.2,170,76.1,72.4,40.3,891.0,37.0,49.5,7,5,7,1,2026-06-15T01:50:15.188717+05:30
Asansol,West Bengal,23.6739,86.9524,27.4,82,0.0,988.3,9.05,34.9,167,105.2,94.8,44.3,553.0,39.0,58.3,7,5,7,1,2026-06-15T01:50:15.188728+05:30
Pondicherry,Puducherry,11.9139,79.8145,26.9,85,0.0,1006.1,8.1,37.8,66,32.4,21.7,15.8,279.0,57.0,13.3,7,5,4,1,2026-06-15T01:50:15.188737+05:30
Port Blair,Andaman and Nicobar Islands,11.6234,92.7265,27.6,81,0.0,1005.8,5.35,48.2,36,12.7,7.6,0.2,86.0,42.0,0.4,7,5,0,1,2026-06-15T01:50:15.188746+05:30
Haridwar,Uttarakhand,29.9457,78.1642,23.8,84,0.0,968.4,7.6,23.0,109,45.4,40.7,36.6,350.0,18.0,5.9,3,5,7,1,2026-06-15T01:50:15.188754+05:30
Rishikesh,Uttarakhand,30.0869,78.2676,21.4,88,0.0,960.9,7.7,24.1,75,35.2,24.8,20.6,330.0,73.0,5.3,3,5,7,1,2026-06-15T01:50:15.188762+05:30
Nainital,Uttarakhand,29.3919,79.4542,13.5,85,0.0,800.5,8.5,33.1,100,124.8,49.4,17.9,280.0,69.0,4.2,3,10,7,0,2026-06-15T01:50:15.188770+05:30
Mussoorie,Uttarakhand,30.4599,78.0664,15.8,70,0.0,799.6,8.1,40.3,68,33.4,24.4,33.0,250.0,40.0,5.3,3,5,7,0,2026-06-15T01:50:15.188778+05:30
Dharamshala,Himachal Pradesh,32.219,76.3234,20.8,52,0.0,865.1,8.5,36.0,34,12.1,10.1,16.4,180.0,24.0,0.0,0,5,7,0,2026-06-15T01:50:15.188785+05:30
Dalhousie,Himachal Pradesh,32.5387,75.971,12.4,83,0.0,799.1,8.65,32.8,59,34.0,23.7,35.8,281.0,26.0,1.5,3,10,7,0,2026-06-15T01:50:15.188794+05:30
Patiala,Punjab,30.3398,76.3869,26.8,68,0.0,972.1,7.7,19.1,171,233.8,76.8,28.6,504.0,55.0,9.5,7,5,7,1,2026-06-15T01:50:15.188802+05:30
Bhatinda,Punjab,30.211,74.9455,28.4,67,0.0,977.3,8.35,28.4,95,56.3,49.9,59.9,544.0,29.0,9.4,7,5,7,1,2026-06-15T01:50:15.188809+05:30
Rohtak,Haryana,28.8955,76.6066,27.7,71,0.0,975.9,7.8,44.3,417,411.6,123.9,48.0,631.0,17.0,11.8,7,5,7,1,2026-06-15T01:50:15.188816+05:30
Panipat,Haryana,29.3909,76.9635,27.1,72,0.0,974.5,7.65,28.8,640,577.4,138.3,41.9,479.0,26.0,8.4,7,5,7,1,2026-06-15T01:50:15.188823+05:30
Mathura,Uttar Pradesh,27.4924,77.6737,27.8,59,0.0,981.5,8.1,65.5,278,510.4,88.5,18.5,171.0,46.0,3.4,4,5,7,1,2026-06-15T01:50:15.188830+05:30
Vrindavan,Uttar Pradesh,27.5823,77.7027,27.8,58,0.0,981.8,8.05,67.3,278,510.4,88.5,18.5,177.0,46.0,3.4,4,5,7,1,2026-06-15T01:50:15.188837+05:30
Ayodhya,Uttar Pradesh,26.7922,82.1998,27.5,82,0.0,989.5,8.45,30.6,151,196.0,83.6,28.9,527.0,47.0,11.3,7,5,7,1,2026-06-15T01:50:15.188845+05:30
Ratlam,Madhya Pradesh,23.3315,75.0367,28.1,67,0.0,952.3,8.5,43.9,82,44.8,26.1,4.8,178.0,67.0,8.0,7,5,7,1,2026-06-15T01:50:15.188852+05:30
Sagar,Madhya Pradesh,23.8388,78.7378,27.4,60,0.0,946.6,8.5,46.8,88,49.0,27.8,7.3,177.0,65.0,3.1,4,5,7,1,2026-06-15T01:50:15.188859+05:30
Satna,Madhya Pradesh,24.6005,80.8322,30.1,51,0.0,966.8,8.8,32.4,107,65.9,34.7,17.8,176.0,50.0,3.7,0,5,7,1,2026-06-15T01:50:15.188866+05:30
Akola,Maharashtra,20.7002,77.0082,28.6,59,0.0,972.4,8.8,47.2,76,46.3,26.0,9.6,147.0,66.0,8.6,4,5,7,1,2026-06-15T01:50:15.188874+05:30
Amravati,Maharashtra,20.9374,77.7796,28.8,55,0.0,964.4,8.8,40.3,78,54.7,29.6,11.8,192.0,63.0,6.9,4,5,7,1,2026-06-15T01:50:15.188882+05:30
Latur,Maharashtra,18.4088,76.5604,27.0,62,0.0,938.1,8.9,46.4,70,32.7,20.1,4.5,154.0,72.0,5.4,7,5,7,1,2026-06-15T01:50:15.188890+05:30
Nanded,Maharashtra,19.1383,77.3091,27.8,60,0.0,966.1,8.9,46.4,76,41.9,24.8,9.2,144.0,52.0,3.4,4,5,7,1,2026-06-15T01:50:15.188897+05:30
Gulbarga,Karnataka,17.3297,76.8343,27.5,67,0.0,956.8,8.8,44.6,64,18.8,12.3,4.8,124.0,56.0,3.4,7,5,7,1,2026-06-15T01:50:15.188904+05:30
Bidar,Karnataka,17.9104,77.5199,27.3,52,0.0,933.4,8.95,37.8,84,46.6,26.1,12.4,161.0,57.0,5.0,4,5,7,1,2026-06-15T01:50:15.188911+05:30
Hospet,Karnataka,15.2689,76.3909,24.7,83,0.0,955.1,9.0,44.6,51,16.6,9.4,5.1,135.0,43.0,1.8,3,5,7,1,2026-06-15T01:50:15.188918+05:30
Tirupur,Tamil Nadu,11.1085,77.3411,24.4,89,0.0,974.5,8.95,55.1,46,16.8,13.3,13.7,155.0,30.0,4.4,3,5,7,1,2026-06-15T01:50:15.188925+05:30
Alappuzha,Kerala,9.4981,76.3388,26.2,94,0.1,1009.0,8.05,34.9,45,22.9,14.6,10.4,94.0,41.0,4.0,10,0,4,1,2026-06-15T01:50:15.188932+05:30
Munnar,Kerala,10.0889,77.0595,16.4,88,0.0,855.7,9.0,30.6,31,11.5,8.4,6.9,102.0,28.0,1.5,3,10,7,0,2026-06-15T01:50:15.188940+05:30
Silchar,Assam,24.8333,92.7789,25.2,97,0.1,1001.5,8.95,28.8,65,22.1,18.2,7.1,256.0,81.0,3.2,10,5,4,1,2026-06-15T01:50:15.188947+05:30
Dibrugarh,Assam,27.4728,94.912,24.6,97,0.1,991.6,7.5,21.6,61,14.6,13.7,7.8,237.0,76.0,1.2,6,5,7,1,2026-06-15T01:50:15.188954+05:30
