city,state,latitude,longitude,temp,humidity,rain,pressure,uv_index,wind_gusts,aqi,pm10,pm2_5,mosquito_risk,arthritis_risk,migraine_risk,frizz_risk,updated_at
Delhi,Delhi,28.6139,77.209,32.1,28,0.0,981.9,7.25,22.0,177,391.2,68.2,0,5,7,0,2026-04-14T20:46:30.067843+05:30
Mumbai,Maharashtra,19.076,72.8777,30.3,71,0.0,1007.7,8.0,24.5,161,57.5,25.3,3,5,4,1,2026-04-14T20:46:30.067877+05:30
Bangalore,Karnataka,12.9716,77.5946,29.7,29,0.0,912.3,9.6,29.5,148,24.1,20.6,4,5,7,0,2026-04-14T20:46:30.067892+05:30
Hyderabad,Telangana,17.385,78.4867,33.6,38,0.0,952.6,9.25,25.6,147,67.8,56.6,0,5,7,1,2026-04-14T20:46:30.067900+05:30
Chennai,Tamil Nadu,13.0827,80.2707,28.8,81,0.0,1007.4,9.35,32.0,41,11.0,7.9,7,5,4,1,2026-04-14T20:46:30.067909+05:30
Kolkata,West Bengal,22.5726,88.3639,28.0,84,0.0,1005.8,8.8,29.2,135,44.0,35.2,7,5,4,1,2026-04-14T20:46:30.067917+05:30
Pune,Maharashtra,18.5204,73.8567,30.2,50,0.0,948.5,8.6,42.8,159,31.3,22.9,0,5,7,1,2026-04-14T20:46:30.067927+05:30
Ahmedabad,Gujarat,23.0225,72.5714,33.2,29,0.0,1000.5,8.1,33.5,74,46.2,19.4,0,5,4,0,2026-04-14T20:46:30.067934+05:30
Jaipur,Rajasthan,26.9124,75.7873,32.2,24,0.0,958.5,7.9,31.7,89,168.1,32.5,0,5,7,0,2026-04-14T20:46:30.067940+05:30
Lucknow,Uttar Pradesh,26.8467,80.9462,29.6,36,0.0,992.0,7.75,34.6,138,151.3,36.0,4,5,7,0,2026-04-14T20:46:30.067947+05:30
Kanpur,Uttar Pradesh,26.4499,80.3319,28.5,45,0.0,990.2,7.75,28.4,187,299.9,49.1,4,5,7,0,2026-04-14T20:46:30.067954+05:30
Chandigarh,Chandigarh,30.7333,76.7794,24.1,43,0.0,968.0,7.2,28.8,150,22.9,19.8,0,5,7,0,2026-04-14T20:46:30.067961+05:30
Srinagar,Jammu and Kashmir,34.0837,74.7973,14.5,59,0.0,840.3,8.2,18.4,135,49.0,36.1,0,5,7,0,2026-04-14T20:46:30.067968+05:30
Jammu,Jammu and Kashmir,32.7266,74.857,26.7,43,0.0,972.4,7.85,29.5,127,35.3,29.0,4,5,7,0,2026-04-14T20:46:30.067974+05:30
Amritsar,Punjab,31.634,74.8723,25.2,47,0.0,980.5,7.8,24.1,158,28.8,24.3,4,5,7,0,2026-04-14T20:46:30.067980+05:30
Ludhiana,Punjab,30.901,75.8573,27.1,38,0.0,978.4,7.4,28.4,133,31.1,28.1,4,5,7,0,2026-04-14T20:46:30.067987+05:30
Jalandhar,Punjab,31.326,75.5762,25.6,45,0.0,979.6,7.6,24.1,151,29.0,20.5,4,5,7,0,2026-04-14T20:46:30.067995+05:30
Dehradun,Uttarakhand,30.6284,78.0322,15.2,54,0.0,829.1,7.6,36.7,137,20.6,15.2,0,5,7,0,2026-04-14T20:46:30.068002+05:30
Shimla,Himachal Pradesh,31.1048,77.1734,13.6,63,0.0,784.0,7.7,43.9,138,19.8,13.6,3,5,7,0,2026-04-14T20:46:30.068009+05:30
Manali,Himachal Pradesh,32.2396,77.1887,15.5,74,0.0,821.1,9.5,29.9,148,22.4,10.4,3,5,7,0,2026-04-14T20:46:30.068014+05:30
Gurgaon,Haryana,28.4595,77.0266,30.3,37,0.0,980.3,7.4,14.4,512,907.1,112.5,0,5,7,0,2026-04-14T20:46:30.068020+05:30
Noida,Uttar Pradesh,28.5355,77.391,31.7,31,0.0,983.3,7.3,21.6,512,907.1,112.5,0,5,7,0,2026-04-14T20:46:30.068026+05:30
Ghaziabad,Uttar Pradesh,28.6692,77.4538,29.3,37,0.0,981.4,7.25,24.1,157,333.4,61.7,4,5,7,0,2026-04-14T20:46:30.068032+05:30
Faridabad,Haryana,28.4089,77.3178,30.5,35,0.0,982.5,7.35,17.6,512,907.1,112.5,0,5,7,0,2026-04-14T20:46:30.068057+05:30
Meerut,Uttar Pradesh,28.9845,77.7064,27.0,40,0.0,980.2,7.15,32.0,157,333.4,61.7,4,5,7,0,2026-04-14T20:46:30.068066+05:30
Agra,Uttar Pradesh,27.1767,78.0081,30.1,34,0.0,986.3,7.65,23.4,431,799.1,99.4,0,5,7,0,2026-04-14T20:46:30.068073+05:30
Varanasi,Uttar Pradesh,25.3176,82.9739,29.3,30,0.0,996.3,8.4,34.2,146,97.8,36.4,4,5,7,0,2026-04-14T20:46:30.068082+05:30
Prayagraj,Uttar Pradesh,25.4358,81.8463,30.9,33,0.0,994.8,8.3,31.3,143,93.1,33.5,0,5,7,0,2026-04-14T20:46:30.068091+05:30
Gorakhpur,Uttar Pradesh,26.7606,83.3732,29.6,31,0.0,995.5,8.2,21.6,145,25.4,18.8,4,5,7,0,2026-04-14T20:46:30.068097+05:30
Bareilly,Uttar Pradesh,28.367,79.4304,27.3,41,0.0,985.2,7.55,36.0,150,57.3,23.7,4,5,7,0,2026-04-14T20:46:30.068103+05:30
Aligarh,Uttar Pradesh,27.8974,78.088,28.8,38,0.0,984.2,7.45,30.2,376,397.7,77.1,4,5,7,0,2026-04-14T20:46:30.068109+05:30
Moradabad,Uttar Pradesh,28.8386,78.7733,26.3,41,0.0,982.2,7.35,35.6,139,100.4,36.2,4,5,7,0,2026-04-14T20:46:30.068114+05:30
Saharanpur,Uttar Pradesh,29.9637,77.546,24.4,44,0.0,974.6,6.9,32.0,123,33.3,20.4,0,5,7,0,2026-04-14T20:46:30.068120+05:30
Jhansi,Uttar Pradesh,25.4484,78.5685,31.6,29,0.0,977.0,8.2,28.1,128,47.5,15.8,0,5,7,0,2026-04-14T20:46:33.325552+05:30
Surat,Gujarat,21.1702,72.8311,29.1,70,0.0,1005.8,7.8,23.8,114,44.9,25.5,7,5,4,1,2026-04-14T20:46:33.325585+05:30
Vadodara,Gujarat,22.3072,73.1812,32.1,42,0.0,1003.1,8.1,31.0,89,54.6,31.0,0,5,4,1,2026-04-14T20:46:33.325597+05:30
Rajkot,Gujarat,22.3039,70.8022,29.5,51,0.0,993.8,7.8,33.8,71,59.6,21.4,4,5,7,1,2026-04-14T20:46:33.325606+05:30
Thane,Maharashtra,19.2183,72.9781,29.2,67,0.0,1007.1,8.0,36.4,161,57.5,25.3,7,5,4,1,2026-04-14T20:46:33.325614+05:30
Nagpur,Maharashtra,21.1458,79.0882,31.7,47,0.0,971.7,8.85,15.1,154,38.6,23.5,0,5,7,1,2026-04-14T20:46:33.325623+05:30
Nashik,Maharashtra,19.9975,73.7898,28.5,35,0.0,946.0,8.25,34.6,87,48.3,17.1,4,5,7,0,2026-04-14T20:46:33.325631+05:30
Aurangabad,Maharashtra,19.8762,75.3433,32.4,28,0.0,943.9,8.95,33.1,115,23.3,17.5,0,5,7,0,2026-04-14T20:46:33.325638+05:30
Solapur,Maharashtra,17.6599,75.9064,35.3,30,0.0,956.1,9.05,28.4,138,19.0,16.5,0,5,10,0,2026-04-14T20:46:33.325647+05:30
Kolhapur,Maharashtra,16.705,74.2433,26.8,66,0.0,947.4,9.05,42.1,128,35.5,28.2,7,5,7,1,2026-04-14T20:46:33.325655+05:30
Goa,Goa,15.2993,74.124,28.9,79,0.0,997.6,9.0,33.5,81,56.5,32.0,7,5,7,1,2026-04-14T20:46:33.325663+05:30
Jodhpur,Rajasthan,26.2389,73.0243,31.1,32,0.0,981.2,8.15,27.0,66,130.9,28.5,0,5,7,0,2026-04-14T20:46:33.325671+05:30
Udaipur,Rajasthan,24.5854,73.7125,29.4,26,0.0,946.2,8.7,40.0,52,66.6,21.4,4,5,7,0,2026-04-14T20:46:33.325679+05:30
Kota,Rajasthan,25.2138,75.8648,32.8,28,0.0,976.6,8.2,27.0,122,49.7,32.2,0,5,7,0,2026-04-14T20:46:33.325687+05:30
Bikaner,Rajasthan,28.0229,73.3119,33.6,20,0.0,980.4,8.0,32.4,60,73.1,20.1,0,5,7,0,2026-04-14T20:46:33.325695+05:30
Ajmer,Rajasthan,26.4499,74.6399,28.9,29,0.0,953.4,8.1,35.6,66,33.6,16.8,4,5,7,0,2026-04-14T20:46:33.325702+05:30
Gwalior,Madhya Pradesh,26.2183,78.1828,30.8,39,0.0,982.0,7.9,40.0,126,112.5,30.0,0,5,7,0,2026-04-14T20:46:33.325710+05:30
Indore,Madhya Pradesh,22.7196,75.8577,28.1,44,0.0,947.9,8.55,34.2,114,33.5,23.0,4,5,7,0,2026-04-14T20:46:33.325717+05:30
Bhopal,Madhya Pradesh,23.2599,77.4126,31.1,27,0.0,952.9,8.55,31.7,120,32.2,19.0,0,5,7,0,2026-04-14T20:46:33.325725+05:30
Jabalpur,Madhya Pradesh,23.1815,79.9864,30.8,42,0.0,960.7,8.65,16.6,127,73.3,26.7,0,5,7,1,2026-04-14T20:46:33.325733+05:30
Ujjain,Madhya Pradesh,23.1765,75.7885,28.7,44,0.0,953.7,8.45,33.5,90,28.0,18.7,4,5,7,0,2026-04-14T20:46:33.325741+05:30
Visakhapatnam,Andhra Pradesh,17.6868,83.2185,28.0,82,0.0,1004.2,9.15,39.6,65,25.6,18.1,7,5,4,1,2026-04-14T20:46:33.325749+05:30
Vijayawada,Andhra Pradesh,16.5062,80.648,29.1,65,0.0,1002.3,9.2,28.1,55,18.9,14.7,7,5,4,1,2026-04-14T20:46:33.325757+05:30
Guntur,Andhra Pradesh,16.3067,80.4365,28.0,80,0.0,1003.6,9.2,31.0,73,19.4,15.5,7,5,4,1,2026-04-14T20:46:33.325765+05:30
Nellore,Andhra Pradesh,14.4426,79.9865,28.0,80,0.0,1005.6,9.3,31.7,79,13.5,10.1,7,5,4,1,2026-04-14T20:46:33.325774+05:30
Kurnool,Andhra Pradesh,15.8281,78.0373,36.7,28,0.0,975.2,9.2,22.7,130,51.1,40.5,0,5,10,0,2026-04-14T20:46:33.325783+05:30
Kakinada,Andhra Pradesh,16.9891,82.2475,28.2,79,0.0,1007.6,9.15,30.2,55,20.8,13.1,7,5,4,1,2026-04-14T20:46:33.325790+05:30
Tirupati,Andhra Pradesh,13.6288,79.4192,31.2,44,0.0,991.7,9.4,32.4,98,26.8,24.3,0,5,7,1,2026-04-14T20:46:33.325798+05:30
Warangal,Telangana,17.9689,79.5941,33.2,47,0.0,977.6,9.1,24.8,121,39.9,34.5,0,5,7,1,2026-04-14T20:46:33.325805+05:30
Nizamabad,Telangana,18.6725,78.0941,33.5,38,0.0,963.9,9.05,25.6,119,38.6,30.9,0,5,7,1,2026-04-14T20:46:33.325813+05:30
Mysore,Karnataka,12.2958,76.6396,29.0,51,0.0,928.7,9.5,41.4,160,30.3,25.2,4,5,7,1,2026-04-14T20:46:33.325820+05:30
Mangalore,Karnataka,12.9141,74.856,29.8,80,0.0,1006.6,9.15,25.6,86,37.3,21.4,7,5,4,1,2026-04-14T20:46:33.325828+05:30
Hubli-Dharwad,Karnataka,15.3647,75.124,27.8,70,0.0,940.8,9.25,41.4,139,25.7,21.8,7,5,7,1,2026-04-14T20:46:33.325836+05:30
Belgaum,Karnataka,15.8497,74.4977,25.6,77,0.0,925.5,9.3,41.8,133,32.4,23.7,7,5,7,1,2026-04-14T20:46:36.580336+05:30
Coimbatore,Tamil Nadu,11.0168,76.9558,27.6,77,0.0,962.4,9.15,38.9,133,32.8,26.5,7,5,7,1,2026-04-14T20:46:36.580366+05:30
Madurai,Tamil Nadu,9.9252,78.1198,30.2,67,0.0,994.0,9.35,39.6,89,15.4,14.0,3,5,7,1,2026-04-14T20:46:36.580376+05:30
Trichy,Tamil Nadu,10.7905,78.7047,30.6,66,0.0,1000.2,9.4,25.2,75,14.2,13.7,3,5,4,1,2026-04-14T20:46:36.580382+05:30
Salem,Tamil Nadu,11.6643,78.146,31.9,40,0.0,977.3,9.45,19.4,105,24.8,19.3,0,5,7,1,2026-04-14T20:46:36.580389+05:30
Tirunelveli,Tamil Nadu,8.7139,77.7567,29.6,70,0.0,1004.0,9.3,40.3,99,23.1,18.7,7,5,4,1,2026-04-14T20:46:36.580395+05:30
Vellore,Tamil Nadu,12.9165,79.1325,29.5,53,0.0,984.8,9.4,30.6,110,43.0,40.3,4,5,7,1,2026-04-14T20:46:36.580402+05:30
Erode,Tamil Nadu,11.341,77.7172,32.8,41,0.0,988.6,9.3,26.6,98,18.5,14.5,0,5,7,1,2026-04-14T20:46:36.580409+05:30
Kochi,Kerala,9.9312,76.2673,29.7,80,0.0,1009.5,8.65,29.2,97,49.9,41.2,7,0,4,1,2026-04-14T20:46:36.580414+05:30
Thiruvananthapuram,Kerala,8.5241,76.9366,29.3,81,0.0,1009.0,9.15,23.0,74,28.0,17.0,7,0,4,1,2026-04-14T20:46:36.580420+05:30
Kozhikode,Kerala,11.2588,75.7804,30.2,81,0.0,1008.1,9.15,28.4,89,44.9,29.7,3,0,4,1,2026-04-14T20:46:36.580427+05:30
Thrissur,Kerala,10.5276,76.2144,29.7,80,0.0,1007.5,8.65,38.9,93,45.1,34.9,7,5,4,1,2026-04-14T20:46:36.580433+05:30
Kannur,Kerala,11.8745,75.3704,29.9,79,0.0,1007.3,9.15,31.3,92,38.9,25.1,7,5,4,1,2026-04-14T20:46:36.580440+05:30
Patna,Bihar,25.5941,85.1376,31.3,33,0.0,999.0,8.55,26.3,151,146.7,61.7,0,5,7,0,2026-04-14T20:46:36.580446+05:30
Gaya,Bihar,24.7914,85.0002,28.1,38,0.0,992.7,8.6,20.9,144,133.6,41.9,4,5,7,0,2026-04-14T20:46:36.580452+05:30
Muzaffarpur,Bihar,26.1209,85.3647,26.6,59,0.0,999.1,8.5,18.7,155,121.5,61.9,4,5,7,1,2026-04-14T20:46:36.580458+05:30
Bhagalpur,Bihar,25.2425,87.0117,27.6,57,0.0,1000.2,8.55,16.9,164,108.0,44.4,4,5,4,1,2026-04-14T20:46:36.580464+05:30
Ranchi,Jharkhand,23.3441,85.3096,25.8,27,0.0,938.2,9.1,32.8,111,90.8,23.9,4,5,7,0,2026-04-14T20:46:36.580471+05:30
Jamshedpur,Jharkhand,22.8046,86.2029,29.4,54,0.0,990.0,8.95,16.9,167,95.7,37.6,4,5,7,1,2026-04-14T20:46:36.580477+05:30
Dhanbad,Jharkhand,23.7957,86.4304,29.3,35,0.0,979.4,8.9,19.4,127,183.0,77.8,4,5,7,0,2026-04-14T20:46:36.580483+05:30
Bokaro,Jharkhand,23.6693,86.1511,29.4,35,0.0,983.7,8.9,26.3,125,161.6,66.1,4,5,7,0,2026-04-14T20:46:36.580489+05:30
Bhubaneswar,Odisha,20.2961,85.8245,27.7,86,0.0,1003.2,9.05,25.6,107,23.5,18.7,7,5,4,1,2026-04-14T20:46:36.580494+05:30
Cuttack,Odisha,20.4625,85.8828,28.1,82,0.0,1005.0,9.1,24.8,107,23.5,18.7,7,5,4,1,2026-04-14T20:46:36.580500+05:30
Rourkela,Odisha,22.2604,84.8536,29.0,47,0.0,984.2,8.85,21.6,125,76.4,29.8,4,5,7,1,2026-04-14T20:46:36.580506+05:30
Raipur,Chhattisgarh,21.2514,81.6296,33.3,35,0.0,973.2,8.9,17.6,199,79.2,46.1,0,5,7,0,2026-04-14T20:46:36.580512+05:30
Bhilai,Chhattisgarh,21.1938,81.3509,31.3,34,0.0,973.3,8.9,14.0,175,77.1,54.4,0,5,7,0,2026-04-14T20:46:36.580518+05:30
Guwahati,Assam,26.1158,91.7086,26.4,80,0.0,1001.8,8.5,28.1,119,65.9,49.8,7,5,4,1,2026-04-14T20:46:36.580523+05:30
Agartala,Tripura,23.8315,91.2868,27.0,83,0.0,1005.9,8.65,27.7,106,44.0,39.3,7,5,4,1,2026-04-14T20:46:36.580529+05:30
Shillong,Meghalaya,25.5788,91.8933,14.7,88,0.0,856.0,8.9,52.6,110,59.3,46.6,3,10,7,0,2026-04-14T20:46:36.580535+05:30
Imphal,Manipur,24.817,93.9368,19.2,86,0.0,924.3,8.8,70.6,129,69.4,54.6,3,10,7,1,2026-04-14T20:46:36.580542+05:30
Aizawl,Mizoram,23.7271,92.7176,21.6,78,0.0,893.5,8.95,45.0,120,61.0,47.3,3,5,7,1,2026-04-14T20:46:36.580548+05:30
Kohima,Nagaland,25.6701,94.1077,16.3,72,0.0,855.0,8.2,70.9,114,64.5,44.8,3,5,7,0,2026-04-14T20:46:36.580553+05:30
Gangtok,Sikkim,27.3314,88.6138,14.3,87,0.0,836.7,8.65,15.5,125,62.6,38.1,3,10,7,0,2026-04-14T20:46:36.580559+05:30
Siliguri,West Bengal,26.7271,88.3953,21.3,82,0.0,994.3,8.45,34.2,154,111.3,66.8,3,5,7,1,2026-04-14T20:46:39.840462+05:30
Durgapur,West Bengal,23.5204,87.3119,30.4,45,0.0,994.3,8.8,17.3,156,107.3,57.2,0,5,7,1,2026-04-14T20:46:39.840496+05:30
Asansol,West Bengal,23.6739,86.9524,31.3,37,0.0,992.9,8.85,18.7,133,145.8,57.7,0,5,7,0,2026-04-14T20:46:39.840506+05:30
Pondicherry,Puducherry,11.9139,79.8145,27.3,91,0.0,1008.7,9.3,27.0,38,8.8,5.9,7,0,4,1,2026-04-14T20:46:39.840515+05:30
Port Blair,Andaman and Nicobar Islands,11.6234,92.7265,29.4,72,0.0,1008.0,8.5,22.3,63,30.3,19.7,7,0,4,1,2026-04-14T20:46:39.840523+05:30
Haridwar,Uttarakhand,29.9457,78.1642,22.9,54,0.0,973.2,7.0,34.9,125,36.2,19.7,0,5,7,0,2026-04-14T20:46:39.840531+05:30
Rishikesh,Uttarakhand,30.0869,78.2676,20.3,61,0.0,966.2,7.1,36.7,125,30.0,14.4,3,5,7,0,2026-04-14T20:46:39.840538+05:30
Nainital,Uttarakhand,29.3919,79.4542,21.0,24,0.0,806.8,7.95,60.1,129,58.4,16.8,0,5,7,1,2026-04-14T20:46:39.840545+05:30
Mussoorie,Uttarakhand,30.4599,78.0664,16.6,41,0.0,801.9,7.5,44.6,138,31.5,19.1,0,5,7,0,2026-04-14T20:46:39.840552+05:30
Dharamshala,Himachal Pradesh,32.219,76.3234,20.8,49,0.0,869.4,7.75,24.5,126,22.0,15.0,0,5,7,0,2026-04-14T20:46:39.840559+05:30
Dalhousie,Himachal Pradesh,32.5387,75.971,18.2,51,0.0,804.1,8.0,23.0,132,31.7,24.5,0,5,7,0,2026-04-14T20:46:39.840566+05:30
Patiala,Punjab,30.3398,76.3869,25.5,38,0.0,977.4,7.1,31.7,222,208.2,40.2,4,5,7,0,2026-04-14T20:46:39.840573+05:30
Bhatinda,Punjab,30.211,74.9455,28.5,33,0.0,983.1,7.75,31.3,132,26.0,17.0,4,5,7,0,2026-04-14T20:46:39.840580+05:30
Rohtak,Haryana,28.8955,76.6066,27.3,38,0.0,980.6,7.3,25.6,224,356.7,65.4,4,5,7,0,2026-04-14T20:46:39.840587+05:30
Panipat,Haryana,29.3909,76.9635,26.2,39,0.0,979.2,7.1,31.7,567,838.2,112.2,4,5,7,0,2026-04-14T20:46:39.840593+05:30
Mathura,Uttar Pradesh,27.4924,77.6737,28.6,42,0.0,985.3,7.6,23.0,455,391.2,69.6,4,5,7,0,2026-04-14T20:46:39.840600+05:30
Vrindavan,Uttar Pradesh,27.5823,77.7027,28.8,40,0.0,985.8,7.55,24.1,455,391.2,69.6,4,5,7,0,2026-04-14T20:46:39.840607+05:30
Ayodhya,Uttar Pradesh,26.7922,82.1998,29.6,26,0.0,993.8,7.95,38.2,137,53.6,19.1,4,5,7,0,2026-04-14T20:46:39.840613+05:30
Ratlam,Madhya Pradesh,23.3315,75.0367,28.0,51,0.0,954.1,8.4,33.1,73,18.3,11.0,4,5,7,1,2026-04-14T20:46:39.840620+05:30
Sagar,Madhya Pradesh,23.8388,78.7378,32.3,33,0.0,949.4,8.55,27.7,126,31.1,15.0,0,5,7,0,2026-04-14T20:46:39.840626+05:30
Satna,Madhya Pradesh,24.6005,80.8322,31.1,26,0.0,970.5,8.6,26.6,118,64.7,17.6,0,5,7,0,2026-04-14T20:46:39.840632+05:30
Akola,Maharashtra,20.7002,77.0082,32.2,30,0.0,974.1,8.75,28.1,128,17.1,14.0,0,5,7,0,2026-04-14T20:46:39.840639+05:30
Amravati,Maharashtra,20.9374,77.7796,30.3,39,0.0,966.1,8.8,22.7,136,20.7,16.9,0,5,7,0,2026-04-14T20:46:39.840646+05:30
Latur,Maharashtra,18.4088,76.5604,30.4,41,0.0,939.6,9.05,30.2,134,20.8,17.6,0,5,7,0,2026-04-14T20:46:39.840652+05:30
Nanded,Maharashtra,19.1383,77.3091,30.9,44,0.0,967.5,8.95,20.5,128,28.4,23.6,0,5,7,1,2026-04-14T20:46:39.840658+05:30
Gulbarga,Karnataka,17.3297,76.8343,35.5,24,0.0,957.5,9.1,22.7,167,39.1,34.1,0,5,10,0,2026-04-14T20:46:39.840664+05:30
Bidar,Karnataka,17.9104,77.5199,32.6,31,0.0,935.3,9.1,24.8,130,25.8,21.2,0,5,7,0,2026-04-14T20:46:39.840671+05:30
Hospet,Karnataka,15.2689,76.3909,33.5,49,0.0,954.7,9.25,24.5,180,71.2,59.5,0,5,7,1,2026-04-14T20:46:39.840677+05:30
Tirupur,Tamil Nadu,11.1085,77.3411,32.8,34,0.0,975.1,9.3,31.0,127,23.3,17.1,0,5,7,0,2026-04-14T20:46:39.840683+05:30
Alappuzha,Kerala,9.4981,76.3388,29.3,81,0.0,1009.9,8.8,24.8,96,48.8,33.9,7,0,4,1,2026-04-14T20:46:39.840689+05:30
Munnar,Kerala,10.0889,77.0595,23.1,95,0.0,858.5,9.7,31.0,78,35.3,28.7,3,5,7,1,2026-04-14T20:46:39.840696+05:30
Silchar,Assam,24.8333,92.7789,23.9,84,0.0,1005.9,8.7,32.8,146,84.5,68.9,3,5,4,1,2026-04-14T20:46:39.840702+05:30
Dibrugarh,Assam,27.4728,94.912,24.3,82,0.0,995.7,8.55,33.1,91,54.0,37.0,3,5,7,1,2026-04-14T20:46:39.840708+05:30
