city,state,latitude,longitude,temp,humidity,rain,pressure,uv_index,wind_gusts,aqi,pm10,pm2_5,mosquito_risk,arthritis_risk,migraine_risk,frizz_risk,updated_at
Delhi,Delhi,28.6139,77.209,31.5,36,0.0,984.5,6.1,39.2,190,352.0,67.8,0,5,7,0,2026-03-30T13:17:22.042024+05:30
Mumbai,Maharashtra,19.076,72.8777,27.9,83,0.0,1008.2,8.0,25.9,58,52.2,28.4,7,0,4,1,2026-03-30T13:17:22.042064+05:30
Bangalore,Karnataka,12.9716,77.5946,32.2,35,0.0,912.8,8.7,29.9,139,38.5,33.6,0,5,7,0,2026-03-30T13:17:22.042079+05:30
Hyderabad,Telangana,17.385,78.4867,33.3,47,0.0,954.2,8.25,26.3,104,41.6,35.6,0,5,7,1,2026-03-30T13:17:22.042089+05:30
Chennai,Tamil Nadu,13.0827,80.2707,34.0,51,0.0,1007.8,9.3,33.1,57,18.3,13.4,0,5,4,1,2026-03-30T13:17:22.042099+05:30
Kolkata,West Bengal,22.5726,88.3639,31.7,66,0.0,1006.1,8.5,25.9,114,42.4,33.9,3,5,4,1,2026-03-30T13:17:22.042107+05:30
Pune,Maharashtra,18.5204,73.8567,37.0,30,0.0,948.2,8.55,36.4,72,16.3,11.9,0,5,10,1,2026-03-30T13:17:22.042118+05:30
Ahmedabad,Gujarat,23.0225,72.5714,35.5,36,0.0,1002.4,8.0,31.0,56,52.6,14.1,0,5,7,1,2026-03-30T13:17:22.042126+05:30
Jaipur,Rajasthan,26.9124,75.7873,30.2,36,0.0,962.4,6.05,46.1,118,214.7,30.5,0,5,7,0,2026-03-30T13:17:22.042133+05:30
Lucknow,Uttar Pradesh,26.8467,80.9462,34.9,35,0.0,993.5,7.3,18.7,109,70.1,27.8,0,5,7,1,2026-03-30T13:17:22.042140+05:30
Kanpur,Uttar Pradesh,26.4499,80.3319,35.2,34,0.0,991.7,7.3,28.8,93,127.6,27.4,0,5,10,1,2026-03-30T13:17:22.042147+05:30
Chandigarh,Chandigarh,30.7333,76.7794,29.5,48,0.0,970.6,6.2,52.9,75,133.6,28.1,4,5,7,1,2026-03-30T13:17:22.042154+05:30
Srinagar,Jammu and Kashmir,34.0837,74.7973,12.6,87,0.3,842.6,5.4,25.9,79,23.4,13.4,6,10,3,0,2026-03-30T13:17:22.042161+05:30
Jammu,Jammu and Kashmir,32.7266,74.857,27.4,53,0.0,974.8,6.35,45.7,67,61.5,15.1,4,5,7,1,2026-03-30T13:17:22.042169+05:30
Amritsar,Punjab,31.634,74.8723,30.0,52,0.0,981.7,5.3,37.1,95,115.3,34.9,4,5,3,1,2026-03-30T13:17:22.042176+05:30
Ludhiana,Punjab,30.901,75.8573,29.0,52,0.0,980.3,5.95,37.1,137,327.8,60.5,4,5,3,1,2026-03-30T13:17:22.042182+05:30
Jalandhar,Punjab,31.326,75.5762,31.2,42,0.0,981.1,4.7,51.1,113,203.0,47.6,0,5,3,1,2026-03-30T13:17:22.042191+05:30
Dehradun,Uttarakhand,30.6284,78.0322,21.3,50,0.0,833.4,6.35,30.6,36,39.9,7.8,0,5,7,0,2026-03-30T13:17:22.042197+05:30
Shimla,Himachal Pradesh,31.1048,77.1734,18.7,60,0.0,788.3,6.6,30.6,50,62.9,12.2,0,5,7,0,2026-03-30T13:17:22.042206+05:30
Manali,Himachal Pradesh,32.2396,77.1887,21.1,48,0.0,823.5,8.55,28.8,49,11.4,5.5,0,5,7,0,2026-03-30T13:17:22.042213+05:30
Gurgaon,Haryana,28.4595,77.0266,31.0,39,0.0,983.2,6.15,41.8,787,1575.8,163.9,0,5,7,0,2026-03-30T13:17:22.042219+05:30
Noida,Uttar Pradesh,28.5355,77.391,32.2,34,0.0,985.9,5.9,39.2,787,1575.8,163.9,0,5,3,0,2026-03-30T13:17:22.042225+05:30
Ghaziabad,Uttar Pradesh,28.6692,77.4538,31.7,37,0.0,984.0,5.95,38.5,146,227.7,56.3,0,5,3,0,2026-03-30T13:17:22.042232+05:30
Faridabad,Haryana,28.4089,77.3178,32.3,33,0.0,985.3,5.55,39.6,787,1575.8,163.9,0,5,3,0,2026-03-30T13:17:22.042238+05:30
Meerut,Uttar Pradesh,28.9845,77.7064,32.1,44,0.0,982.6,5.8,38.9,146,227.7,56.3,0,5,3,1,2026-03-30T13:17:22.042246+05:30
Agra,Uttar Pradesh,27.1767,78.0081,37.1,18,0.0,987.9,6.85,41.0,204,931.3,84.1,0,5,10,0,2026-03-30T13:17:22.042252+05:30
Varanasi,Uttar Pradesh,25.3176,82.9739,37.2,29,0.0,996.9,7.95,25.6,103,45.2,18.8,0,5,10,1,2026-03-30T13:17:22.042261+05:30
Prayagraj,Uttar Pradesh,25.4358,81.8463,37.2,29,0.0,995.1,7.85,20.9,101,51.2,21.7,0,5,10,1,2026-03-30T13:17:22.042267+05:30
Gorakhpur,Uttar Pradesh,26.7606,83.3732,32.3,46,0.0,997.9,7.7,25.9,145,89.6,56.9,0,5,7,1,2026-03-30T13:17:22.042273+05:30
Bareilly,Uttar Pradesh,28.367,79.4304,34.1,39,0.0,987.4,6.3,29.2,105,97.8,31.1,0,5,7,1,2026-03-30T13:17:22.042279+05:30
Aligarh,Uttar Pradesh,27.8974,78.088,34.3,27,0.0,986.2,6.3,34.9,283,650.1,80.1,0,5,7,0,2026-03-30T13:17:22.042285+05:30
Moradabad,Uttar Pradesh,28.8386,78.7733,33.2,42,0.0,984.6,6.0,38.9,134,92.9,36.0,0,5,3,1,2026-03-30T13:17:22.042291+05:30
Saharanpur,Uttar Pradesh,29.9637,77.546,30.7,44,0.0,977.4,6.0,37.4,80,87.5,24.9,0,5,3,1,2026-03-30T13:17:22.042297+05:30
Jhansi,Uttar Pradesh,25.4484,78.5685,38.0,19,0.0,977.8,7.3,46.4,44,106.2,17.8,0,5,10,0,2026-03-30T13:17:25.292026+05:30
Surat,Gujarat,21.1702,72.8311,33.0,58,0.0,1006.9,7.6,25.2,95,75.4,45.2,0,5,4,1,2026-03-30T13:17:25.292054+05:30
Vadodara,Gujarat,22.3072,73.1812,36.7,38,0.0,1004.0,8.0,29.2,73,54.1,22.3,0,5,7,1,2026-03-30T13:17:25.292064+05:30
Rajkot,Gujarat,22.3039,70.8022,35.1,36,0.0,994.7,7.8,37.4,61,53.0,15.8,0,5,10,1,2026-03-30T13:17:25.292071+05:30
Thane,Maharashtra,19.2183,72.9781,31.7,60,0.0,1007.8,8.0,37.4,58,52.2,28.4,0,5,4,1,2026-03-30T13:17:25.292078+05:30
Nagpur,Maharashtra,21.1458,79.0882,37.1,29,0.0,972.7,8.55,34.2,62,21.8,12.2,0,5,10,1,2026-03-30T13:17:25.292085+05:30
Nashik,Maharashtra,19.9975,73.7898,34.0,34,0.0,945.6,8.25,42.5,40,19.5,11.4,0,5,7,0,2026-03-30T13:17:25.292092+05:30
Aurangabad,Maharashtra,19.8762,75.3433,35.9,29,0.0,944.3,8.75,38.9,46,18.5,11.3,0,5,10,0,2026-03-30T13:17:25.292099+05:30
Solapur,Maharashtra,17.6599,75.9064,38.0,27,0.0,956.9,8.85,25.9,61,14.7,13.5,0,5,10,0,2026-03-30T13:17:25.292106+05:30
Kolhapur,Maharashtra,16.705,74.2433,33.9,40,0.0,948.3,8.9,43.9,63,20.8,17.5,0,5,7,1,2026-03-30T13:17:25.292112+05:30
Goa,Goa,15.2993,74.124,32.6,57,0.0,997.9,8.95,31.7,53,16.2,11.5,0,5,7,1,2026-03-30T13:17:25.292118+05:30
Jodhpur,Rajasthan,26.2389,73.0243,32.9,34,0.0,983.9,7.65,48.6,130,155.5,24.3,0,5,7,0,2026-03-30T13:17:25.292124+05:30
Udaipur,Rajasthan,24.5854,73.7125,31.5,35,0.0,948.1,8.25,39.2,41,37.5,8.9,0,5,7,0,2026-03-30T13:17:25.292131+05:30
Kota,Rajasthan,25.2138,75.8648,34.6,30,0.0,980.1,6.2,29.2,35,37.3,12.8,0,5,7,0,2026-03-30T13:17:25.292137+05:30
Bikaner,Rajasthan,28.0229,73.3119,31.6,33,0.0,982.7,6.35,45.4,117,103.4,27.6,0,5,7,0,2026-03-30T13:17:25.292143+05:30
Ajmer,Rajasthan,26.4499,74.6399,29.2,43,0.0,956.8,6.4,41.4,51,50.8,12.3,4,5,7,0,2026-03-30T13:17:25.292150+05:30
Gwalior,Madhya Pradesh,26.2183,78.1828,36.8,21,0.0,983.5,6.4,40.0,44,121.1,20.5,0,5,10,0,2026-03-30T13:17:25.292156+05:30
Indore,Madhya Pradesh,22.7196,75.8577,33.8,35,0.0,949.2,8.15,44.6,47,24.2,10.0,0,5,7,1,2026-03-30T13:17:25.292162+05:30
Bhopal,Madhya Pradesh,23.2599,77.4126,36.2,25,0.0,954.4,8.2,26.6,38,14.9,6.6,0,5,10,0,2026-03-30T13:17:25.292167+05:30
Jabalpur,Madhya Pradesh,23.1815,79.9864,37.0,27,0.0,961.4,8.35,29.9,46,16.1,8.7,0,5,10,0,2026-03-30T13:17:25.292174+05:30
Ujjain,Madhya Pradesh,23.1765,75.7885,33.9,35,0.0,954.9,7.95,28.1,47,28.5,10.5,0,5,7,1,2026-03-30T13:17:25.292180+05:30
Visakhapatnam,Andhra Pradesh,17.6868,83.2185,33.2,57,0.0,1004.4,9.0,40.7,64,26.8,20.7,0,5,4,1,2026-03-30T13:17:25.292187+05:30
Vijayawada,Andhra Pradesh,16.5062,80.648,35.4,48,0.0,1002.6,9.05,32.0,79,30.2,24.6,0,5,7,1,2026-03-30T13:17:25.292193+05:30
Guntur,Andhra Pradesh,16.3067,80.4365,35.8,44,0.0,1003.8,9.1,33.8,87,31.8,27.0,0,5,7,1,2026-03-30T13:17:25.292198+05:30
Nellore,Andhra Pradesh,14.4426,79.9865,37.2,36,0.0,1005.4,9.2,31.0,69,31.5,27.1,0,5,7,1,2026-03-30T13:17:25.292205+05:30
Kurnool,Andhra Pradesh,15.8281,78.0373,36.8,32,0.0,976.6,9.1,24.5,111,46.7,39.7,0,5,10,1,2026-03-30T13:17:25.292212+05:30
Kakinada,Andhra Pradesh,16.9891,82.2475,35.1,49,0.0,1007.8,9.0,33.5,53,19.8,12.8,0,5,7,1,2026-03-30T13:17:25.292219+05:30
Tirupati,Andhra Pradesh,13.6288,79.4192,35.9,32,0.0,991.9,9.3,35.3,98,37.5,33.3,0,5,10,1,2026-03-30T13:17:25.292225+05:30
Warangal,Telangana,17.9689,79.5941,34.8,51,0.0,979.2,8.9,27.0,111,41.3,36.0,0,5,7,1,2026-03-30T13:17:25.292231+05:30
Nizamabad,Telangana,18.6725,78.0941,36.7,32,0.0,965.2,8.85,46.8,93,22.4,19.3,0,5,10,1,2026-03-30T13:17:25.292237+05:30
Mysore,Karnataka,12.2958,76.6396,31.1,41,0.0,929.0,8.75,22.7,138,49.8,42.8,0,5,7,1,2026-03-30T13:17:25.292243+05:30
Mangalore,Karnataka,12.9141,74.856,29.3,78,0.0,1006.7,2.45,23.0,66,31.9,22.4,7,5,0,1,2026-03-30T13:17:25.292249+05:30
Hubli-Dharwad,Karnataka,15.3647,75.124,34.2,35,0.0,941.4,8.1,29.2,57,15.9,12.4,0,5,7,1,2026-03-30T13:17:25.292256+05:30
Belgaum,Karnataka,15.8497,74.4977,32.8,39,0.0,926.6,9.1,33.8,50,13.1,11.6,0,5,7,1,2026-03-30T13:17:28.545239+05:30
Coimbatore,Tamil Nadu,11.0168,76.9558,35.8,29,0.0,961.9,9.45,41.0,100,21.8,18.6,0,5,10,0,2026-03-30T13:17:28.545269+05:30
Madurai,Tamil Nadu,9.9252,78.1198,36.2,38,0.0,992.5,9.4,34.2,77,18.5,15.8,0,5,10,1,2026-03-30T13:17:28.545279+05:30
Trichy,Tamil Nadu,10.7905,78.7047,36.0,38,0.0,999.4,9.35,26.3,72,16.6,14.7,0,5,10,1,2026-03-30T13:17:28.545287+05:30
Salem,Tamil Nadu,11.6643,78.146,36.8,31,0.0,977.1,9.45,23.8,86,24.9,21.1,0,5,10,1,2026-03-30T13:17:28.545295+05:30
Tirunelveli,Tamil Nadu,8.7139,77.7567,37.7,33,0.0,1002.2,9.35,46.1,81,20.6,18.0,0,5,7,1,2026-03-30T13:17:28.545302+05:30
Vellore,Tamil Nadu,12.9165,79.1325,36.1,29,0.0,984.8,9.35,33.8,102,36.8,32.7,0,5,10,0,2026-03-30T13:17:28.545309+05:30
Erode,Tamil Nadu,11.341,77.7172,37.4,33,0.0,988.4,9.4,27.4,76,20.8,17.7,0,5,10,1,2026-03-30T13:17:28.545316+05:30
Kochi,Kerala,9.9312,76.2673,29.5,76,0.0,1008.0,9.2,28.8,98,35.2,31.3,7,0,4,1,2026-03-30T13:17:28.545323+05:30
Thiruvananthapuram,Kerala,8.5241,76.9366,29.2,81,0.0,1007.1,9.2,28.1,72,30.5,24.4,7,5,4,1,2026-03-30T13:17:28.545330+05:30
Kozhikode,Kerala,11.2588,75.7804,30.4,74,0.0,1007.6,9.1,27.0,117,56.3,48.9,3,5,4,1,2026-03-30T13:17:28.545337+05:30
Thrissur,Kerala,10.5276,76.2144,33.7,60,0.0,1006.6,9.2,28.8,103,39.7,34.9,0,5,4,1,2026-03-30T13:17:28.545344+05:30
Kannur,Kerala,11.8745,75.3704,30.7,70,0.0,1007.3,8.15,24.8,113,39.2,31.8,3,5,4,1,2026-03-30T13:17:28.545350+05:30
Patna,Bihar,25.5941,85.1376,32.4,54,0.0,1000.5,8.1,30.6,152,82.0,63.3,0,5,4,1,2026-03-30T13:17:28.545357+05:30
Gaya,Bihar,24.7914,85.0002,34.9,44,0.0,993.3,8.2,24.1,116,53.9,28.5,0,5,7,1,2026-03-30T13:17:28.545364+05:30
Muzaffarpur,Bihar,26.1209,85.3647,31.5,52,0.0,1000.9,8.05,29.2,154,86.4,68.2,0,5,4,1,2026-03-30T13:17:28.545370+05:30
Bhagalpur,Bihar,25.2425,87.0117,30.3,63,0.0,1001.7,8.1,19.4,156,82.4,68.9,3,5,4,1,2026-03-30T13:17:28.545376+05:30
Ranchi,Jharkhand,23.3441,85.3096,32.4,44,0.0,938.3,8.75,25.6,96,52.7,36.7,0,5,7,1,2026-03-30T13:17:28.545383+05:30
Jamshedpur,Jharkhand,22.8046,86.2029,35.1,50,0.0,990.2,8.6,27.7,129,67.3,55.3,0,5,10,1,2026-03-30T13:17:28.545389+05:30
Dhanbad,Jharkhand,23.7957,86.4304,35.7,37,0.0,979.3,8.5,24.1,163,89.6,74.0,0,5,10,1,2026-03-30T13:17:28.545396+05:30
Bokaro,Jharkhand,23.6693,86.1511,35.2,41,0.0,983.2,8.55,27.4,157,79.2,59.3,0,5,10,1,2026-03-30T13:17:28.545403+05:30
Bhubaneswar,Odisha,20.2961,85.8245,33.6,58,0.0,1002.2,8.8,38.9,71,23.7,18.9,0,5,4,1,2026-03-30T13:17:28.545409+05:30
Cuttack,Odisha,20.4625,85.8828,35.1,54,0.0,1003.6,8.85,34.2,71,23.7,18.9,0,5,7,1,2026-03-30T13:17:28.545415+05:30
Rourkela,Odisha,22.2604,84.8536,37.2,41,0.0,984.1,8.5,51.5,111,49.6,40.9,0,5,10,1,2026-03-30T13:17:28.545421+05:30
Raipur,Chhattisgarh,21.2514,81.6296,36.9,25,0.0,974.0,8.65,31.7,97,24.9,16.8,0,5,10,0,2026-03-30T13:17:28.545427+05:30
Bhilai,Chhattisgarh,21.1938,81.3509,37.2,26,0.0,974.5,8.65,28.4,71,24.0,15.1,0,5,10,0,2026-03-30T13:17:28.545434+05:30
Guwahati,Assam,26.1158,91.7086,26.3,72,0.0,1003.0,7.15,27.7,95,67.1,42.4,7,5,4,1,2026-03-30T13:17:28.545440+05:30
Agartala,Tripura,23.8315,91.2868,31.7,60,0.0,1006.4,8.3,30.2,132,23.1,18.3,0,5,4,1,2026-03-30T13:17:28.545447+05:30
Shillong,Meghalaya,25.5788,91.8933,17.6,68,0.0,856.8,6.25,42.1,93,53.4,36.4,3,5,7,0,2026-03-30T13:17:28.545453+05:30
Imphal,Manipur,24.817,93.9368,22.3,63,0.0,923.5,7.75,58.3,155,43.4,31.7,3,5,7,0,2026-03-30T13:17:28.545460+05:30
Aizawl,Mizoram,23.7271,92.7176,22.1,73,0.0,894.4,8.45,52.2,150,54.5,41.4,3,5,7,1,2026-03-30T13:17:28.545466+05:30
Kohima,Nagaland,25.6701,94.1077,17.3,85,0.0,855.6,8.45,77.8,136,52.6,34.7,3,10,7,0,2026-03-30T13:17:28.545472+05:30
Gangtok,Sikkim,27.3314,88.6138,18.9,64,0.0,838.4,7.6,17.6,96,29.9,23.1,3,5,7,0,2026-03-30T13:17:28.545478+05:30
Siliguri,West Bengal,26.7271,88.3953,22.3,75,0.0,995.3,7.45,14.8,154,63.1,43.4,3,5,7,1,2026-03-30T13:17:31.800971+05:30
Durgapur,West Bengal,23.5204,87.3119,34.4,51,0.0,994.5,8.5,28.4,162,77.8,67.1,0,5,7,1,2026-03-30T13:17:31.801003+05:30
Asansol,West Bengal,23.6739,86.9524,34.7,49,0.0,992.9,8.5,26.3,159,81.7,69.8,0,5,7,1,2026-03-30T13:17:31.801014+05:30
Pondicherry,Puducherry,11.9139,79.8145,34.4,52,0.0,1008.4,9.25,27.4,53,16.1,11.2,0,0,4,1,2026-03-30T13:17:31.801024+05:30
Port Blair,Andaman and Nicobar Islands,11.6234,92.7265,30.6,61,0.0,1005.8,9.2,15.1,70,27.2,22.5,3,5,4,1,2026-03-30T13:17:31.801033+05:30
Haridwar,Uttarakhand,29.9457,78.1642,31.5,40,0.0,976.0,5.65,42.1,70,104.1,22.5,0,5,3,1,2026-03-30T13:17:31.801041+05:30
Rishikesh,Uttarakhand,30.0869,78.2676,31.2,39,0.0,968.7,5.55,22.3,64,94.1,17.2,0,5,3,0,2026-03-30T13:17:31.801050+05:30
Nainital,Uttarakhand,29.3919,79.4542,24.0,51,0.0,809.9,7.25,47.9,70,91.0,21.0,0,5,7,0,2026-03-30T13:17:31.801058+05:30
Mussoorie,Uttarakhand,30.4599,78.0664,21.8,49,0.0,806.2,6.2,34.2,61,80.3,14.6,0,5,7,0,2026-03-30T13:17:31.801066+05:30
Dharamshala,Himachal Pradesh,32.219,76.3234,24.1,54,0.0,872.4,5.9,30.2,38,29.2,7.0,0,5,3,0,2026-03-30T13:17:31.801074+05:30
Dalhousie,Himachal Pradesh,32.5387,75.971,19.9,55,0.0,806.9,5.85,36.0,62,98.3,19.6,0,5,3,0,2026-03-30T13:17:31.801084+05:30
Patiala,Punjab,30.3398,76.3869,29.3,55,0.0,979.8,5.6,38.2,171,516.0,74.3,4,5,3,1,2026-03-30T13:17:31.801091+05:30
Bhatinda,Punjab,30.211,74.9455,31.4,40,0.0,984.4,4.15,45.4,312,271.0,70.3,0,5,3,1,2026-03-30T13:17:31.801098+05:30
Rohtak,Haryana,28.8955,76.6066,28.4,48,0.0,983.7,6.55,41.8,345,516.0,67.8,4,5,7,1,2026-03-30T13:17:31.801105+05:30
Panipat,Haryana,29.3909,76.9635,29.9,53,0.0,982.0,6.6,38.9,522,650.1,86.6,4,5,7,1,2026-03-30T13:17:31.801110+05:30
Mathura,Uttar Pradesh,27.4924,77.6737,35.2,24,0.0,987.7,6.6,40.7,181,866.1,84.1,0,5,10,0,2026-03-30T13:17:31.801117+05:30
Vrindavan,Uttar Pradesh,27.5823,77.7027,34.6,26,0.0,988.1,6.65,36.0,181,866.1,84.1,0,5,7,0,2026-03-30T13:17:31.801123+05:30
Ayodhya,Uttar Pradesh,26.7922,82.1998,34.0,42,0.0,995.9,7.45,25.2,147,84.5,44.4,0,5,7,1,2026-03-30T13:17:31.801129+05:30
Ratlam,Madhya Pradesh,23.3315,75.0367,32.6,41,0.0,955.8,7.95,29.9,45,30.3,10.5,0,5,7,1,2026-03-30T13:17:31.801135+05:30
Sagar,Madhya Pradesh,23.8388,78.7378,36.9,23,0.0,950.7,8.2,35.6,39,45.9,8.7,0,5,10,0,2026-03-30T13:17:31.801142+05:30
Satna,Madhya Pradesh,24.6005,80.8322,38.4,22,0.0,970.7,8.2,44.3,63,42.0,20.1,0,5,10,0,2026-03-30T13:17:31.801148+05:30
Akola,Maharashtra,20.7002,77.0082,38.6,25,0.0,974.8,8.55,31.7,45,16.5,8.5,0,5,10,0,2026-03-30T13:17:31.801155+05:30
Amravati,Maharashtra,20.9374,77.7796,38.7,21,0.0,967.1,8.5,24.8,46,14.5,7.3,0,5,10,0,2026-03-30T13:17:31.801162+05:30
Latur,Maharashtra,18.4088,76.5604,36.1,29,0.0,940.3,8.0,44.6,52,16.8,14.6,0,5,10,0,2026-03-30T13:17:31.801168+05:30
Nanded,Maharashtra,19.1383,77.3091,38.2,28,0.0,968.6,8.7,47.9,53,15.5,11.0,0,5,10,1,2026-03-30T13:17:31.801174+05:30
Gulbarga,Karnataka,17.3297,76.8343,36.8,28,0.0,958.6,8.05,36.0,69,27.7,24.7,0,5,10,0,2026-03-30T13:17:31.801180+05:30
Bidar,Karnataka,17.9104,77.5199,34.7,34,0.0,936.4,8.9,37.1,80,33.3,29.5,0,5,7,1,2026-03-30T13:17:31.801186+05:30
Hospet,Karnataka,15.2689,76.3909,33.7,41,0.0,956.1,8.95,26.3,84,43.9,37.4,0,5,7,1,2026-03-30T13:17:31.801192+05:30
Tirupur,Tamil Nadu,11.1085,77.3411,35.9,32,0.0,975.0,9.45,25.9,98,21.1,17.9,0,5,10,1,2026-03-30T13:17:31.801197+05:30
Alappuzha,Kerala,9.4981,76.3388,29.3,78,0.0,1008.2,9.2,26.6,94,38.2,33.8,7,0,4,1,2026-03-30T13:17:31.801204+05:30
Munnar,Kerala,10.0889,77.0595,32.8,19,0.0,859.9,8.7,22.3,93,15.9,13.3,0,5,7,0,2026-03-30T13:17:31.801211+05:30
Silchar,Assam,24.8333,92.7789,30.1,59,0.0,1005.4,8.3,27.0,157,55.1,43.0,0,5,4,1,2026-03-30T13:17:31.801217+05:30
Dibrugarh,Assam,27.4728,94.912,24.8,69,0.0,997.2,5.55,10.1,98,31.7,22.9,3,5,3,1,2026-03-30T13:17:31.801223+05:30
