city,state,latitude,longitude,temp,humidity,rain,pressure,uv_index,wind_gusts,aqi,pm10,pm2_5,no2,co,o3,so2,mosquito_risk,arthritis_risk,migraine_risk,frizz_risk,updated_at
Delhi,Delhi,28.6139,77.209,31.0,69,0.0,976.9,7.7,29.2,152,48.4,26.0,7.7,545.0,189.0,21.0,3,5,7,1,2026-07-02T13:48:47.873915+05:30
Mumbai,Maharashtra,19.076,72.8777,26.7,91,0.6,1004.9,1.05,40.3,40,23.7,12.0,8.8,202.0,53.0,6.8,10,5,0,1,2026-07-02T13:48:47.873961+05:30
Bangalore,Karnataka,12.9716,77.5946,28.4,52,0.1,910.3,4.75,59.4,18,3.8,2.8,4.0,227.0,62.0,2.5,7,5,3,1,2026-07-02T13:48:47.873976+05:30
Hyderabad,Telangana,17.385,78.4867,28.8,61,0.0,949.0,6.6,54.0,21,11.4,6.5,2.1,176.0,76.0,2.8,7,5,7,1,2026-07-02T13:48:47.873986+05:30
Chennai,Tamil Nadu,13.0827,80.2707,37.0,42,0.0,1002.2,6.5,53.6,36,10.9,8.4,6.3,157.0,89.0,9.2,0,5,7,1,2026-07-02T13:48:47.873995+05:30
Kolkata,West Bengal,22.5726,88.3639,30.8,76,0.0,996.6,7.9,30.6,66,8.2,8.0,2.7,283.0,105.0,7.5,3,5,7,1,2026-07-02T13:48:47.874003+05:30
Pune,Maharashtra,18.5204,73.8567,25.1,82,0.1,944.7,0.95,43.6,18,3.7,2.9,7.1,174.0,45.0,4.6,10,5,3,1,2026-07-02T13:48:47.874011+05:30
Ahmedabad,Gujarat,23.0225,72.5714,37.6,42,0.0,994.9,6.75,49.0,56,39.2,17.6,1.7,165.0,92.0,3.7,0,5,10,1,2026-07-02T13:48:47.874019+05:30
Jaipur,Rajasthan,26.9124,75.7873,30.9,67,0.0,954.4,8.2,28.8,114,157.4,47.0,1.8,249.0,118.0,4.6,3,5,7,1,2026-07-02T13:48:47.874026+05:30
Lucknow,Uttar Pradesh,26.8467,80.9462,33.4,65,0.0,986.3,7.0,22.0,95,26.4,22.8,2.2,336.0,155.0,6.5,3,5,7,1,2026-07-02T13:48:47.874038+05:30
Kanpur,Uttar Pradesh,26.4499,80.3319,33.3,66,0.0,984.3,7.3,25.2,97,42.1,23.2,2.2,232.0,161.0,7.6,3,5,7,1,2026-07-02T13:48:47.874046+05:30
Chandigarh,Chandigarh,30.7333,76.7794,31.4,69,0.2,963.3,6.8,28.8,99,24.6,20.1,2.3,316.0,175.0,7.9,6,5,7,1,2026-07-02T13:48:47.874053+05:30
Srinagar,Jammu and Kashmir,34.0837,74.7973,24.8,64,0.0,840.5,9.1,23.4,83,26.3,17.7,1.4,306.0,155.0,2.8,3,5,7,1,2026-07-02T13:48:47.874060+05:30
Jammu,Jammu and Kashmir,32.7266,74.857,34.1,51,0.0,966.6,8.55,27.0,102,115.7,43.5,1.7,255.0,168.0,3.7,0,5,7,1,2026-07-02T13:48:47.874067+05:30
Amritsar,Punjab,31.634,74.8723,33.8,59,0.0,974.2,8.45,28.4,180,242.1,72.6,1.5,250.0,145.0,4.0,0,5,7,1,2026-07-02T13:48:47.874074+05:30
Ludhiana,Punjab,30.901,75.8573,32.7,64,0.0,972.3,2.25,28.4,147,84.5,38.3,2.3,266.0,164.0,9.0,3,5,3,1,2026-07-02T13:48:47.874081+05:30
Jalandhar,Punjab,31.326,75.5762,33.5,60,0.0,973.3,2.2,31.3,157,130.9,49.6,1.9,271.0,161.0,7.4,0,5,3,1,2026-07-02T13:48:47.874088+05:30
Dehradun,Uttarakhand,30.6284,78.0322,21.6,94,0.1,828.7,4.95,25.2,50,7.4,6.0,1.8,215.0,138.0,1.5,6,5,3,1,2026-07-02T13:48:47.874097+05:30
Shimla,Himachal Pradesh,31.1048,77.1734,19.8,81,0.1,783.9,4.9,28.8,57,7.1,4.8,1.0,219.0,138.0,1.4,6,10,3,1,2026-07-02T13:48:47.874104+05:30
Manali,Himachal Pradesh,32.2396,77.1887,25.8,58,0.0,818.4,3.4,31.0,54,17.3,16.6,9.6,211.0,153.0,0.8,4,5,3,1,2026-07-02T13:48:47.874112+05:30
Gurgaon,Haryana,28.4595,77.0266,30.3,71,0.0,975.4,7.8,26.3,157,120.1,51.6,8.8,392.0,225.0,31.4,3,5,7,1,2026-07-02T13:48:47.874120+05:30
Noida,Uttar Pradesh,28.5355,77.391,32.5,63,0.0,978.3,7.45,24.8,157,120.1,51.6,8.8,414.0,225.0,31.4,3,5,7,1,2026-07-02T13:48:47.874126+05:30
Ghaziabad,Uttar Pradesh,28.6692,77.4538,32.5,62,0.0,976.5,7.15,25.6,112,9.1,8.9,3.8,330.0,150.0,9.0,3,5,7,1,2026-07-02T13:48:47.874133+05:30
Faridabad,Haryana,28.4089,77.3178,31.3,67,0.0,977.8,7.4,29.2,157,120.1,51.6,8.8,410.0,225.0,31.4,3,5,7,1,2026-07-02T13:48:47.874139+05:30
Meerut,Uttar Pradesh,28.9845,77.7064,31.9,63,0.0,975.3,7.4,32.8,112,9.1,8.9,3.8,343.0,150.0,9.0,3,5,7,1,2026-07-02T13:48:47.874146+05:30
Agra,Uttar Pradesh,27.1767,78.0081,32.2,64,0.0,981.1,7.4,27.0,111,111.8,42.5,2.7,280.0,169.0,8.9,3,5,7,1,2026-07-02T13:48:47.874154+05:30
Varanasi,Uttar Pradesh,25.3176,82.9739,32.1,69,0.1,989.3,5.5,25.6,87,26.4,26.3,3.2,411.0,154.0,9.3,6,5,3,1,2026-07-02T13:48:47.874161+05:30
Prayagraj,Uttar Pradesh,25.4358,81.8463,33.9,62,0.0,987.8,6.95,22.3,87,33.9,33.4,3.1,320.0,168.0,8.8,3,5,7,1,2026-07-02T13:48:47.874167+05:30
Gorakhpur,Uttar Pradesh,26.7606,83.3732,34.5,61,0.0,989.5,7.6,30.6,149,23.0,22.9,1.9,320.0,136.0,3.0,3,5,7,1,2026-07-02T13:48:47.874175+05:30
Bareilly,Uttar Pradesh,28.367,79.4304,30.6,74,0.0,980.4,7.3,29.2,84,24.9,22.3,3.3,278.0,159.0,11.3,3,5,7,1,2026-07-02T13:48:47.874183+05:30
Aligarh,Uttar Pradesh,27.8974,78.088,32.6,61,0.0,978.9,6.3,29.5,105,52.3,24.8,3.2,299.0,167.0,12.5,3,5,7,1,2026-07-02T13:48:47.874189+05:30
Moradabad,Uttar Pradesh,28.8386,78.7733,30.0,78,0.0,977.8,6.75,33.1,96,22.8,19.8,3.5,301.0,159.0,10.6,7,5,7,1,2026-07-02T13:48:47.874195+05:30
Saharanpur,Uttar Pradesh,29.9637,77.546,31.0,70,0.0,969.8,2.6,29.9,122,22.7,15.8,2.1,339.0,138.0,2.1,3,5,3,1,2026-07-02T13:48:47.874202+05:30
Jhansi,Uttar Pradesh,25.4484,78.5685,30.0,79,0.2,971.8,8.15,23.0,98,106.4,37.5,1.3,165.0,117.0,6.4,10,5,7,1,2026-07-02T13:48:51.121619+05:30
Surat,Gujarat,21.1702,72.8311,27.1,92,0.1,1001.2,0.5,36.4,59,23.5,18.5,22.8,337.0,37.0,49.0,10,5,0,1,2026-07-02T13:48:51.121653+05:30
Vadodara,Gujarat,22.3072,73.1812,34.2,56,0.0,997.7,7.1,36.7,52,31.5,16.8,3.0,182.0,85.0,3.9,0,5,7,1,2026-07-02T13:48:51.121665+05:30
Rajkot,Gujarat,22.3039,70.8022,29.9,73,0.1,987.8,4.45,47.5,62,35.9,15.1,1.8,106.0,76.0,4.1,10,5,3,1,2026-07-02T13:48:51.121676+05:30
Thane,Maharashtra,19.2183,72.9781,25.9,97,0.7,1003.8,0.95,35.6,40,23.7,12.0,8.8,242.0,53.0,6.8,10,5,0,1,2026-07-02T13:48:51.121685+05:30
Nagpur,Maharashtra,21.1458,79.0882,26.2,92,0.6,967.2,0.95,26.6,67,10.5,9.8,10.5,231.0,78.0,13.3,10,5,3,1,2026-07-02T13:48:51.121695+05:30
Nashik,Maharashtra,19.9975,73.7898,25.9,81,0.1,940.5,2.8,45.4,20,2.6,2.1,7.2,136.0,47.0,4.9,10,5,3,1,2026-07-02T13:48:51.121704+05:30
Aurangabad,Maharashtra,19.8762,75.3433,28.4,67,0.3,939.6,4.2,35.6,20,5.0,4.6,3.9,122.0,63.0,6.1,10,5,3,1,2026-07-02T13:48:51.121733+05:30
Solapur,Maharashtra,17.6599,75.9064,29.8,58,0.0,954.0,6.05,55.8,23,3.9,2.5,1.7,112.0,61.0,1.6,4,5,7,1,2026-07-02T13:48:51.121744+05:30
Kolhapur,Maharashtra,16.705,74.2433,25.3,82,0.0,945.6,1.85,46.8,19,4.3,3.5,3.6,136.0,54.0,1.9,7,5,3,1,2026-07-02T13:48:51.121753+05:30
Goa,Goa,15.2993,74.124,26.0,96,0.0,997.6,4.85,28.1,40,16.2,9.1,1.3,136.0,57.0,0.7,7,5,3,1,2026-07-02T13:48:51.121762+05:30
Jodhpur,Rajasthan,26.2389,73.0243,39.2,34,0.0,976.0,8.45,29.5,124,174.2,43.5,0.6,113.0,87.0,2.2,0,5,10,1,2026-07-02T13:48:51.121771+05:30
Udaipur,Rajasthan,24.5854,73.7125,32.0,52,0.0,941.1,7.95,31.7,59,43.9,21.7,0.7,126.0,91.0,2.6,0,5,7,1,2026-07-02T13:48:51.121779+05:30
Kota,Rajasthan,25.2138,75.8648,30.6,70,0.2,972.8,7.6,32.8,77,43.5,25.1,1.7,178.0,110.0,6.6,6,5,7,1,2026-07-02T13:48:51.121788+05:30
Bikaner,Rajasthan,28.0229,73.3119,41.3,30,0.0,974.1,8.45,29.9,136,244.0,63.6,0.3,116.0,82.0,2.2,0,5,10,1,2026-07-02T13:48:51.121797+05:30
Ajmer,Rajasthan,26.4499,74.6399,35.0,46,0.0,949.2,8.2,50.0,89,109.7,39.0,0.9,123.0,92.0,2.6,0,5,7,1,2026-07-02T13:48:51.121806+05:30
Gwalior,Madhya Pradesh,26.2183,78.1828,29.1,83,0.1,976.8,8.15,23.4,103,94.5,36.3,1.0,156.0,122.0,2.9,10,5,7,1,2026-07-02T13:48:51.121814+05:30
Indore,Madhya Pradesh,22.7196,75.8577,30.4,66,0.0,942.1,5.35,30.6,67,37.6,23.2,1.7,274.0,102.0,3.9,3,5,3,1,2026-07-02T13:48:51.121823+05:30
Bhopal,Madhya Pradesh,23.2599,77.4126,26.6,88,0.3,947.4,6.2,35.6,77,33.4,21.9,2.2,230.0,101.0,5.2,10,5,7,1,2026-07-02T13:48:51.121832+05:30
Jabalpur,Madhya Pradesh,23.1815,79.9864,27.8,84,0.1,954.7,4.3,28.8,68,50.8,22.4,1.4,190.0,107.0,2.3,10,5,3,1,2026-07-02T13:48:51.121841+05:30
Ujjain,Madhya Pradesh,23.1765,75.7885,30.2,66,0.0,947.4,8.15,28.4,63,35.3,21.4,1.3,168.0,97.0,4.6,3,5,7,1,2026-07-02T13:48:51.121850+05:30
Visakhapatnam,Andhra Pradesh,17.6868,83.2185,31.0,71,0.0,995.0,2.65,39.2,60,11.8,11.2,13.5,271.0,80.0,34.0,3,5,3,1,2026-07-02T13:48:51.121858+05:30
Vijayawada,Andhra Pradesh,16.5062,80.648,35.1,46,0.0,996.5,6.5,63.0,38,9.9,7.3,3.1,127.0,72.0,6.0,0,5,10,1,2026-07-02T13:48:51.121867+05:30
Guntur,Andhra Pradesh,16.3067,80.4365,34.2,48,0.0,997.9,6.2,63.4,32,9.5,6.6,2.8,114.0,69.0,5.6,0,5,7,1,2026-07-02T13:48:51.121875+05:30
Nellore,Andhra Pradesh,14.4426,79.9865,36.0,42,0.0,1000.6,8.4,52.2,23,10.9,6.3,2.3,106.0,78.0,4.9,0,5,7,1,2026-07-02T13:48:51.121884+05:30
Kurnool,Andhra Pradesh,15.8281,78.0373,33.7,49,0.0,972.9,7.1,64.1,25,9.1,5.2,0.9,108.0,78.0,1.4,0,5,7,1,2026-07-02T13:48:51.121894+05:30
Kakinada,Andhra Pradesh,16.9891,82.2475,31.5,64,0.0,1000.0,7.85,61.9,42,8.0,7.5,4.5,175.0,74.0,5.0,3,5,4,1,2026-07-02T13:48:51.121903+05:30
Tirupati,Andhra Pradesh,13.6288,79.4192,37.5,35,0.0,986.3,7.55,48.2,22,5.8,3.2,1.3,109.0,66.0,1.0,0,5,10,1,2026-07-02T13:48:51.121911+05:30
Warangal,Telangana,17.9689,79.5941,30.4,61,0.0,973.6,3.55,51.8,30,9.7,7.2,4.4,133.0,52.0,2.6,3,5,3,1,2026-07-02T13:48:51.121920+05:30
Nizamabad,Telangana,18.6725,78.0941,29.7,62,0.0,960.2,1.25,39.2,27,9.3,7.2,5.0,127.0,57.0,6.1,7,5,3,1,2026-07-02T13:48:51.121928+05:30
Mysore,Karnataka,12.2958,76.6396,27.5,62,0.1,927.8,8.35,57.2,20,1.8,1.6,3.0,116.0,58.0,1.4,10,5,7,1,2026-07-02T13:48:51.121937+05:30
Mangalore,Karnataka,12.9141,74.856,26.8,85,0.1,1007.5,5.1,39.6,24,15.0,7.4,1.3,105.0,59.0,1.3,10,5,0,1,2026-07-02T13:48:51.121945+05:30
Hubli-Dharwad,Karnataka,15.3647,75.124,24.8,83,0.2,939.3,7.1,54.0,23,1.6,1.2,1.5,109.0,56.0,0.8,6,5,7,1,2026-07-02T13:48:51.121953+05:30
Belgaum,Karnataka,15.8497,74.4977,24.0,82,0.1,924.1,6.95,46.8,20,2.3,1.6,2.9,107.0,51.0,1.4,6,5,7,1,2026-07-02T13:48:54.396757+05:30
Coimbatore,Tamil Nadu,11.0168,76.9558,30.7,53,0.0,960.6,8.45,61.6,22,3.0,2.3,1.4,124.0,63.0,1.5,0,5,7,1,2026-07-02T13:48:54.396793+05:30
Madurai,Tamil Nadu,9.9252,78.1198,38.3,31,0.1,989.4,8.65,37.1,49,11.9,7.3,1.6,127.0,94.0,1.9,3,5,10,1,2026-07-02T13:48:54.396806+05:30
Trichy,Tamil Nadu,10.7905,78.7047,36.5,37,0.0,996.4,8.8,69.1,26,6.2,4.0,1.2,107.0,77.0,1.6,0,5,10,1,2026-07-02T13:48:54.396816+05:30
Salem,Tamil Nadu,11.6643,78.146,32.4,50,0.0,975.1,8.65,33.5,42,7.2,6.3,2.5,212.0,98.0,5.7,0,5,7,1,2026-07-02T13:48:54.396825+05:30
Tirunelveli,Tamil Nadu,8.7139,77.7567,37.4,36,0.0,1000.5,8.65,49.7,31,9.5,6.0,1.3,108.0,75.0,1.4,0,5,7,1,2026-07-02T13:48:54.396836+05:30
Vellore,Tamil Nadu,12.9165,79.1325,35.6,40,0.0,980.1,7.65,50.8,22,5.4,3.9,2.6,161.0,73.0,2.5,0,5,10,1,2026-07-02T13:48:54.396845+05:30
Erode,Tamil Nadu,11.341,77.7172,37.0,33,0.0,986.3,8.65,38.9,34,5.7,4.3,1.7,168.0,84.0,1.8,0,5,10,1,2026-07-02T13:48:54.396854+05:30
Kochi,Kerala,9.9312,76.2673,28.8,78,0.0,1009.1,8.5,42.8,53,11.6,7.0,1.8,110.0,60.0,1.8,7,0,4,1,2026-07-02T13:48:54.396863+05:30
Thiruvananthapuram,Kerala,8.5241,76.9366,28.4,79,0.0,1008.3,8.4,47.2,47,15.5,8.7,1.0,99.0,67.0,1.2,7,0,4,1,2026-07-02T13:48:54.396872+05:30
Kozhikode,Kerala,11.2588,75.7804,26.4,89,0.1,1009.0,8.35,40.3,25,8.8,4.6,0.6,128.0,55.0,0.5,10,0,4,1,2026-07-02T13:48:54.396881+05:30
Thrissur,Kerala,10.5276,76.2144,28.7,76,0.2,1007.6,8.55,42.1,50,9.1,5.9,0.9,109.0,56.0,1.0,10,5,4,1,2026-07-02T13:48:54.396891+05:30
Kannur,Kerala,11.8745,75.3704,25.9,93,0.1,1008.3,8.55,40.0,24,11.2,5.9,1.8,101.0,55.0,0.9,10,0,4,1,2026-07-02T13:48:54.396900+05:30
Patna,Bihar,25.5941,85.1376,32.9,65,0.0,992.5,6.25,32.0,123,35.2,34.6,3.4,278.0,157.0,11.7,3,5,7,1,2026-07-02T13:48:54.396908+05:30
Gaya,Bihar,24.7914,85.0002,30.6,77,0.1,985.7,6.45,31.0,101,29.5,28.8,2.2,349.0,143.0,11.5,6,5,7,1,2026-07-02T13:48:54.396917+05:30
Muzaffarpur,Bihar,26.1209,85.3647,32.6,69,0.0,992.8,6.55,34.6,119,34.6,34.1,3.0,267.0,154.0,8.5,3,5,7,1,2026-07-02T13:48:54.396925+05:30
Bhagalpur,Bihar,25.2425,87.0117,33.2,64,0.1,993.1,6.0,32.0,104,21.2,20.3,4.0,232.0,121.0,8.5,6,5,3,1,2026-07-02T13:48:54.396934+05:30
Ranchi,Jharkhand,23.3441,85.3096,25.9,87,0.1,930.5,6.8,32.0,83,26.5,26.3,7.5,835.0,134.0,27.9,10,5,7,1,2026-07-02T13:48:54.396943+05:30
Jamshedpur,Jharkhand,22.8046,86.2029,31.0,73,0.0,982.0,7.1,29.2,105,12.7,12.5,2.3,291.0,107.0,4.0,3,5,7,1,2026-07-02T13:48:54.396951+05:30
Dhanbad,Jharkhand,23.7957,86.4304,31.4,68,0.1,971.5,7.8,34.9,147,23.0,22.7,14.9,272.0,112.0,49.9,6,5,7,1,2026-07-02T13:48:54.396960+05:30
Bokaro,Jharkhand,23.6693,86.1511,29.9,75,0.0,975.3,7.0,34.6,145,25.9,25.6,15.6,307.0,115.0,55.0,7,5,7,1,2026-07-02T13:48:54.396968+05:30
Bhubaneswar,Odisha,20.2961,85.8245,28.1,87,0.4,993.4,8.55,28.1,61,9.1,9.0,3.7,238.0,118.0,7.0,10,5,7,1,2026-07-02T13:48:54.396977+05:30
Cuttack,Odisha,20.4625,85.8828,28.4,88,0.3,995.2,7.7,30.2,61,9.1,9.0,3.7,233.0,118.0,7.0,10,5,7,1,2026-07-02T13:48:54.396985+05:30
Rourkela,Odisha,22.2604,84.8536,31.0,70,0.2,975.9,6.95,30.2,112,38.5,37.7,2.4,597.0,159.0,15.2,6,5,7,1,2026-07-02T13:48:54.396994+05:30
Raipur,Chhattisgarh,21.2514,81.6296,32.0,60,0.0,966.3,4.55,33.5,83,24.7,20.2,15.3,182.0,103.0,41.0,0,5,3,1,2026-07-02T13:48:54.397003+05:30
Bhilai,Chhattisgarh,21.1938,81.3509,31.4,63,0.0,967.1,4.7,31.3,73,20.4,16.2,16.1,190.0,95.0,40.9,3,5,3,1,2026-07-02T13:48:54.397011+05:30
Guwahati,Assam,26.1158,91.7086,32.9,70,0.0,993.7,7.8,22.7,37,4.8,4.8,1.5,216.0,99.0,1.3,3,5,7,1,2026-07-02T13:48:54.397019+05:30
Agartala,Tripura,23.8315,91.2868,32.9,67,0.0,998.0,7.9,27.7,60,9.5,8.8,2.2,174.0,127.0,1.7,3,5,7,1,2026-07-02T13:48:54.397028+05:30
Shillong,Meghalaya,25.5788,91.8933,24.2,85,0.1,853.9,8.55,24.5,35,5.8,5.6,1.2,163.0,86.0,1.6,6,5,7,1,2026-07-02T13:48:54.397036+05:30
Imphal,Manipur,24.817,93.9368,29.8,64,0.0,917.9,8.85,19.1,50,4.9,4.7,1.4,180.0,78.0,1.0,7,5,7,1,2026-07-02T13:48:54.397044+05:30
Aizawl,Mizoram,23.7271,92.7176,24.9,80,0.3,887.3,8.9,22.3,46,5.4,5.0,0.8,131.0,80.0,0.6,6,5,7,1,2026-07-02T13:48:54.397053+05:30
Kohima,Nagaland,25.6701,94.1077,25.1,83,0.0,852.0,8.1,24.8,35,5.3,5.1,1.2,161.0,76.0,0.5,7,5,7,1,2026-07-02T13:48:54.397061+05:30
Gangtok,Sikkim,27.3314,88.6138,22.5,80,0.1,835.5,8.9,31.0,56,2.7,2.7,2.5,208.0,102.0,0.7,6,5,7,1,2026-07-02T13:48:54.397069+05:30
Siliguri,West Bengal,26.7271,88.3953,30.1,79,0.1,986.2,8.3,27.4,90,12.4,12.3,1.9,252.0,122.0,1.8,6,5,7,1,2026-07-02T13:48:57.698777+05:30
Durgapur,West Bengal,23.5204,87.3119,32.1,71,0.5,986.1,7.3,32.0,139,18.6,18.3,11.0,263.0,109.0,26.7,6,5,7,1,2026-07-02T13:48:57.698811+05:30
Asansol,West Bengal,23.6739,86.9524,32.5,65,0.1,984.7,7.05,34.9,129,21.9,21.7,11.6,259.0,118.0,30.5,6,5,7,1,2026-07-02T13:48:57.698824+05:30
Pondicherry,Puducherry,11.9139,79.8145,34.7,47,0.0,1004.4,8.45,28.4,55,20.7,16.6,4.1,204.0,120.0,9.9,0,5,4,1,2026-07-02T13:48:57.698834+05:30
Port Blair,Andaman and Nicobar Islands,11.6234,92.7265,29.7,77,0.0,1004.1,3.4,48.6,33,17.7,9.8,0.2,96.0,63.0,0.5,7,5,0,1,2026-07-02T13:48:57.698845+05:30
Haridwar,Uttarakhand,29.9457,78.1642,31.9,66,0.0,968.4,5.3,27.4,90,22.6,15.1,2.1,309.0,138.0,2.5,3,5,3,1,2026-07-02T13:48:57.698854+05:30
Rishikesh,Uttarakhand,30.0869,78.2676,31.1,68,0.1,961.2,4.95,22.7,58,15.7,10.4,1.3,238.0,124.0,1.2,6,5,3,1,2026-07-02T13:48:57.698863+05:30
Nainital,Uttarakhand,29.3919,79.4542,19.2,92,0.1,803.7,7.05,24.1,70,24.0,20.8,1.9,284.0,131.0,2.4,6,10,7,1,2026-07-02T13:48:57.698872+05:30
Mussoorie,Uttarakhand,30.4599,78.0664,22.5,76,0.0,802.5,4.45,25.6,68,14.3,9.8,2.4,238.0,143.0,2.7,3,5,3,1,2026-07-02T13:48:57.698881+05:30
Dharamshala,Himachal Pradesh,32.219,76.3234,26.3,62,0.0,866.9,7.25,29.9,48,9.6,4.8,1.0,196.0,132.0,1.3,7,5,7,1,2026-07-02T13:48:57.698891+05:30
Dalhousie,Himachal Pradesh,32.5387,75.971,22.5,74,0.0,804.1,3.4,23.8,85,30.2,14.2,1.5,213.0,163.0,2.9,3,5,3,1,2026-07-02T13:48:57.698900+05:30
Patiala,Punjab,30.3398,76.3869,31.6,69,0.0,972.0,7.2,29.2,133,52.6,31.2,2.3,232.0,168.0,9.6,3,5,7,1,2026-07-02T13:48:57.698908+05:30
Bhatinda,Punjab,30.211,74.9455,36.2,47,0.0,976.5,7.65,46.4,601,364.1,82.7,2.3,225.0,151.0,10.6,0,5,10,1,2026-07-02T13:48:57.698917+05:30
Rohtak,Haryana,28.8955,76.6066,33.3,60,0.0,975.1,7.55,31.3,178,97.1,42.0,5.6,245.0,180.0,16.6,0,5,7,1,2026-07-02T13:48:57.698926+05:30
Panipat,Haryana,29.3909,76.9635,32.4,62,0.0,974.1,6.75,24.8,155,67.3,32.6,4.6,312.0,170.0,17.9,3,5,7,1,2026-07-02T13:48:57.698934+05:30
Mathura,Uttar Pradesh,27.4924,77.6737,33.5,59,0.1,980.0,7.85,24.5,118,115.9,46.2,2.7,297.0,165.0,7.6,3,5,7,1,2026-07-02T13:48:57.698943+05:30
Vrindavan,Uttar Pradesh,27.5823,77.7027,33.7,59,0.1,980.4,7.8,21.2,118,115.9,46.2,2.7,297.0,165.0,7.6,3,5,7,1,2026-07-02T13:48:57.698952+05:30
Ayodhya,Uttar Pradesh,26.7922,82.1998,33.3,66,0.0,987.7,6.85,26.6,133,31.3,30.9,2.1,345.0,150.0,5.8,3,5,7,1,2026-07-02T13:48:57.698960+05:30
Ratlam,Madhya Pradesh,23.3315,75.0367,28.7,76,0.2,948.3,6.7,31.7,62,37.8,22.3,1.2,138.0,94.0,4.3,10,5,7,1,2026-07-02T13:48:57.698969+05:30
Sagar,Madhya Pradesh,23.8388,78.7378,30.5,68,0.0,944.1,1.45,29.5,75,71.7,29.6,1.9,165.0,105.0,4.2,3,5,3,1,2026-07-02T13:48:57.698978+05:30
Satna,Madhya Pradesh,24.6005,80.8322,30.9,71,0.1,963.9,8.2,30.6,82,38.2,16.9,1.7,186.0,117.0,1.7,6,5,7,1,2026-07-02T13:48:57.698986+05:30
Akola,Maharashtra,20.7002,77.0082,26.8,90,0.2,969.8,5.35,33.1,33,5.4,4.5,4.1,123.0,66.0,5.7,10,5,3,1,2026-07-02T13:48:57.698996+05:30
Amravati,Maharashtra,20.9374,77.7796,26.6,88,0.1,962.0,3.7,37.8,39,5.5,4.6,4.9,155.0,65.0,6.7,10,5,3,1,2026-07-02T13:48:57.699005+05:30
Latur,Maharashtra,18.4088,76.5604,28.7,59,0.0,936.2,1.15,49.0,23,7.9,3.9,0.8,130.0,65.0,1.2,4,5,3,1,2026-07-02T13:48:57.699014+05:30
Nanded,Maharashtra,19.1383,77.3091,30.9,60,0.1,963.8,2.0,41.8,23,6.2,4.7,3.8,124.0,55.0,2.4,3,5,3,1,2026-07-02T13:48:57.699023+05:30
Gulbarga,Karnataka,17.3297,76.8343,30.1,58,0.0,955.0,4.7,57.6,23,9.7,5.0,1.3,117.0,71.0,1.8,0,5,3,1,2026-07-02T13:48:57.699030+05:30
Bidar,Karnataka,17.9104,77.5199,30.1,58,0.0,932.0,1.85,50.4,21,11.9,6.6,1.2,132.0,73.0,1.4,0,5,3,1,2026-07-02T13:48:57.699038+05:30
Hospet,Karnataka,15.2689,76.3909,30.4,55,0.0,953.6,5.45,60.5,22,5.4,3.1,2.0,107.0,59.0,1.5,0,5,3,1,2026-07-02T13:48:57.699045+05:30
Tirupur,Tamil Nadu,11.1085,77.3411,33.4,46,0.0,973.3,8.65,61.6,37,5.1,4.0,1.7,130.0,80.0,2.1,0,5,7,1,2026-07-02T13:48:57.699067+05:30
Alappuzha,Kerala,9.4981,76.3388,28.7,76,0.0,1009.1,8.4,44.3,50,14.8,9.0,2.2,88.0,68.0,2.2,7,0,4,1,2026-07-02T13:48:57.699076+05:30
Munnar,Kerala,10.0889,77.0595,18.2,93,0.3,856.6,7.85,49.3,21,6.2,3.7,0.8,97.0,59.0,0.9,6,10,7,1,2026-07-02T13:48:57.699084+05:30
Silchar,Assam,24.8333,92.7789,34.1,60,0.0,996.4,8.7,18.0,75,12.3,12.0,1.3,178.0,120.0,3.5,0,5,7,1,2026-07-02T13:48:57.699091+05:30
Dibrugarh,Assam,27.4728,94.912,34.0,64,0.0,986.9,8.85,19.8,56,8.2,8.1,0.9,194.0,110.0,1.3,3,5,7,1,2026-07-02T13:48:57.699098+05:30
