city,state,latitude,longitude,temp,humidity,rain,pressure,uv_index,wind_gusts,aqi,pm10,pm2_5,mosquito_risk,arthritis_risk,migraine_risk,frizz_risk,updated_at
Delhi,Delhi,28.6139,77.209,25.2,61,0.0,981.7,5.05,39.2,319,523.4,74.7,7,5,3,1,2026-04-07T17:28:58.019949+05:30
Mumbai,Maharashtra,19.076,72.8777,28.2,73,0.0,1008.9,7.95,20.9,116,55.8,21.7,7,0,4,1,2026-04-07T17:28:58.019997+05:30
Bangalore,Karnataka,12.9716,77.5946,33.5,21,0.0,911.0,9.65,28.8,82,10.1,6.8,0,5,7,0,2026-04-07T17:28:58.020012+05:30
Hyderabad,Telangana,17.385,78.4867,36.4,17,0.0,951.0,9.15,30.6,137,22.6,16.5,0,5,10,0,2026-04-07T17:28:58.020023+05:30
Chennai,Tamil Nadu,13.0827,80.2707,31.7,73,0.0,1004.9,9.35,38.5,136,40.9,34.0,3,5,4,1,2026-04-07T17:28:58.020032+05:30
Kolkata,West Bengal,22.5726,88.3639,28.5,66,0.0,1005.5,8.65,20.9,140,29.2,26.0,7,5,4,1,2026-04-07T17:28:58.020041+05:30
Pune,Maharashtra,18.5204,73.8567,32.0,37,0.0,948.5,8.55,41.0,95,82.9,26.5,0,5,7,0,2026-04-07T17:28:58.020053+05:30
Ahmedabad,Gujarat,23.0225,72.5714,29.9,59,0.0,1000.5,7.95,43.9,56,88.7,27.5,4,5,4,1,2026-04-07T17:28:58.020061+05:30
Jaipur,Rajasthan,26.9124,75.7873,25.1,57,0.0,957.4,5.7,42.8,144,444.2,58.7,4,5,3,0,2026-04-07T17:28:58.020069+05:30
Lucknow,Uttar Pradesh,26.8467,80.9462,30.0,36,0.0,992.1,7.45,43.9,121,74.5,16.8,4,5,7,0,2026-04-07T17:28:58.020076+05:30
Kanpur,Uttar Pradesh,26.4499,80.3319,29.8,40,0.0,990.6,7.45,55.1,140,113.2,22.9,4,5,7,0,2026-04-07T17:28:58.020083+05:30
Chandigarh,Chandigarh,30.7333,76.7794,21.1,83,0.1,967.9,4.55,48.6,100,90.1,22.9,6,5,3,1,2026-04-07T17:28:58.020091+05:30
Srinagar,Jammu and Kashmir,34.0837,74.7973,14.7,51,0.0,835.4,7.1,36.4,76,11.0,7.9,0,5,7,0,2026-04-07T17:28:58.020099+05:30
Jammu,Jammu and Kashmir,32.7266,74.857,19.7,84,0.0,971.1,5.5,41.8,65,59.6,19.3,3,10,3,1,2026-04-07T17:28:58.020106+05:30
Amritsar,Punjab,31.634,74.8723,20.0,82,0.1,978.7,3.0,46.4,88,380.9,71.5,6,5,3,1,2026-04-07T17:28:58.020113+05:30
Ludhiana,Punjab,30.901,75.8573,21.1,80,0.1,977.3,3.55,52.2,121,455.4,81.5,6,5,3,1,2026-04-07T17:28:58.020120+05:30
Jalandhar,Punjab,31.326,75.5762,20.0,84,0.0,978.8,4.25,47.2,103,478.7,85.4,3,5,3,1,2026-04-07T17:28:58.020129+05:30
Dehradun,Uttarakhand,30.6284,78.0322,12.4,85,0.0,828.3,6.35,36.4,93,31.0,10.7,3,10,7,0,2026-04-07T17:28:58.020136+05:30
Shimla,Himachal Pradesh,31.1048,77.1734,12.0,75,0.0,781.1,6.35,46.4,84,24.6,10.1,3,5,7,0,2026-04-07T17:28:58.020143+05:30
Manali,Himachal Pradesh,32.2396,77.1887,13.5,76,0.0,815.5,8.95,29.2,137,8.0,4.9,3,5,7,0,2026-04-07T17:28:58.020150+05:30
Gurgaon,Haryana,28.4595,77.0266,25.0,60,0.0,979.9,3.75,39.2,863,1110.1,111.8,4,5,3,1,2026-04-07T17:28:58.020157+05:30
Noida,Uttar Pradesh,28.5355,77.391,24.5,67,0.0,983.3,4.95,40.0,863,1110.1,111.8,3,5,3,1,2026-04-07T17:28:58.020165+05:30
Ghaziabad,Uttar Pradesh,28.6692,77.4538,24.0,70,0.0,981.6,5.3,37.1,160,310.1,47.7,3,5,3,1,2026-04-07T17:28:58.020172+05:30
Faridabad,Haryana,28.4089,77.3178,24.1,67,0.0,982.6,5.4,37.4,863,1110.1,111.8,3,5,3,1,2026-04-07T17:28:58.020178+05:30
Meerut,Uttar Pradesh,28.9845,77.7064,22.7,75,0.1,980.6,5.65,37.1,160,310.1,47.7,6,5,3,1,2026-04-07T17:28:58.020185+05:30
Agra,Uttar Pradesh,27.1767,78.0081,27.4,51,0.0,986.1,5.6,37.1,403,344.6,39.1,4,5,3,1,2026-04-07T17:28:58.020191+05:30
Varanasi,Uttar Pradesh,25.3176,82.9739,33.1,26,0.0,995.6,8.05,55.8,123,74.3,17.9,0,5,7,0,2026-04-07T17:28:58.020200+05:30
Prayagraj,Uttar Pradesh,25.4358,81.8463,32.7,28,0.0,993.6,7.95,69.5,126,84.8,20.3,0,5,7,0,2026-04-07T17:28:58.020207+05:30
Gorakhpur,Uttar Pradesh,26.7606,83.3732,33.1,22,0.0,995.3,7.85,27.0,123,67.8,16.8,0,5,7,0,2026-04-07T17:28:58.020216+05:30
Bareilly,Uttar Pradesh,28.367,79.4304,27.2,49,0.0,986.1,7.05,37.1,118,88.2,19.7,4,5,7,0,2026-04-07T17:28:58.020222+05:30
Aligarh,Uttar Pradesh,27.8974,78.088,24.8,59,0.0,984.6,6.0,32.4,321,274.7,40.7,0,5,3,1,2026-04-07T17:28:58.020229+05:30
Moradabad,Uttar Pradesh,28.8386,78.7733,25.5,60,0.0,982.9,6.95,30.2,113,99.4,23.8,4,5,7,1,2026-04-07T17:28:58.020235+05:30
Saharanpur,Uttar Pradesh,29.9637,77.546,22.4,74,0.1,975.3,4.3,35.3,99,95.2,27.8,6,5,3,1,2026-04-07T17:28:58.020243+05:30
Jhansi,Uttar Pradesh,25.4484,78.5685,28.7,46,0.0,976.0,7.75,47.2,112,32.0,16.6,4,5,7,0,2026-04-07T17:29:01.368890+05:30
Surat,Gujarat,21.1702,72.8311,28.7,70,0.0,1006.6,7.7,45.0,71,42.6,19.2,7,5,4,1,2026-04-07T17:29:01.368920+05:30
Vadodara,Gujarat,22.3072,73.1812,30.9,60,0.0,1003.1,7.95,46.4,58,97.8,32.4,0,5,4,1,2026-04-07T17:29:01.368930+05:30
Rajkot,Gujarat,22.3039,70.8022,31.5,48,0.0,993.1,7.7,46.8,54,53.8,20.2,0,5,7,1,2026-04-07T17:29:01.368938+05:30
Thane,Maharashtra,19.2183,72.9781,29.4,65,0.0,1008.3,7.95,33.8,116,55.8,21.7,7,0,4,1,2026-04-07T17:29:01.368945+05:30
Nagpur,Maharashtra,21.1458,79.0882,33.1,31,0.0,970.3,8.7,22.3,129,14.1,10.3,0,5,7,0,2026-04-07T17:29:01.368953+05:30
Nashik,Maharashtra,19.9975,73.7898,30.0,43,0.0,945.5,8.2,40.7,62,91.3,22.9,4,5,7,1,2026-04-07T17:29:01.368960+05:30
Aurangabad,Maharashtra,19.8762,75.3433,32.8,25,0.0,943.1,8.85,36.7,66,68.0,20.0,0,5,7,0,2026-04-07T17:29:01.368967+05:30
Solapur,Maharashtra,17.6599,75.9064,36.0,16,0.0,955.5,9.0,30.2,120,27.6,12.0,0,5,10,0,2026-04-07T17:29:01.368975+05:30
Kolhapur,Maharashtra,16.705,74.2433,29.2,49,0.0,947.8,9.0,45.7,75,36.3,15.4,4,5,7,1,2026-04-07T17:29:01.368982+05:30
Goa,Goa,15.2993,74.124,29.6,60,0.0,998.4,9.0,33.1,55,18.7,10.6,4,5,7,1,2026-04-07T17:29:01.368989+05:30
Jodhpur,Rajasthan,26.2389,73.0243,26.6,59,0.0,978.9,7.9,47.2,106,388.4,50.6,4,5,7,1,2026-04-07T17:29:01.368997+05:30
Udaipur,Rajasthan,24.5854,73.7125,28.4,42,0.0,943.6,8.5,55.1,47,52.0,18.7,4,5,7,0,2026-04-07T17:29:01.369005+05:30
Kota,Rajasthan,25.2138,75.8648,33.7,23,0.0,974.7,7.9,42.8,68,53.3,18.2,0,5,7,0,2026-04-07T17:29:01.369012+05:30
Bikaner,Rajasthan,28.0229,73.3119,24.9,60,0.0,978.8,6.6,36.4,89,69.8,18.5,0,5,7,1,2026-04-07T17:29:01.369019+05:30
Ajmer,Rajasthan,26.4499,74.6399,24.1,66,0.0,951.5,7.8,52.6,56,47.1,16.6,3,5,7,1,2026-04-07T17:29:01.369026+05:30
Gwalior,Madhya Pradesh,26.2183,78.1828,29.1,45,0.0,981.5,7.25,37.8,102,42.8,17.1,4,5,7,0,2026-04-07T17:29:01.369033+05:30
Indore,Madhya Pradesh,22.7196,75.8577,32.0,25,0.0,946.0,8.4,42.8,62,77.5,23.9,0,5,7,0,2026-04-07T17:29:01.369040+05:30
Bhopal,Madhya Pradesh,23.2599,77.4126,32.7,23,0.0,951.0,8.35,45.7,85,61.5,21.0,0,5,7,0,2026-04-07T17:29:01.369046+05:30
Jabalpur,Madhya Pradesh,23.1815,79.9864,33.9,18,0.0,958.6,8.5,38.2,124,17.7,12.9,0,5,7,0,2026-04-07T17:29:01.369052+05:30
Ujjain,Madhya Pradesh,23.1765,75.7885,31.8,27,0.0,951.5,8.3,45.7,60,73.8,22.4,0,5,7,0,2026-04-07T17:29:01.369059+05:30
Visakhapatnam,Andhra Pradesh,17.6868,83.2185,30.9,63,0.0,1002.2,9.1,33.5,76,29.2,24.0,3,5,4,1,2026-04-07T17:29:01.369066+05:30
Vijayawada,Andhra Pradesh,16.5062,80.648,34.9,46,0.0,999.5,9.15,31.7,130,44.7,40.5,0,5,7,1,2026-04-07T17:29:01.369073+05:30
Guntur,Andhra Pradesh,16.3067,80.4365,34.4,53,0.0,1000.7,9.2,31.7,134,28.6,25.7,0,5,4,1,2026-04-07T17:29:01.369080+05:30
Nellore,Andhra Pradesh,14.4426,79.9865,32.4,65,0.0,1003.0,9.3,37.4,164,26.3,22.6,3,5,4,1,2026-04-07T17:29:01.369087+05:30
Kurnool,Andhra Pradesh,15.8281,78.0373,37.7,18,0.0,974.2,9.2,25.2,135,22.9,16.6,0,5,10,0,2026-04-07T17:29:01.369094+05:30
Kakinada,Andhra Pradesh,16.9891,82.2475,32.8,59,0.0,1005.3,9.1,27.0,59,24.7,18.5,0,5,4,1,2026-04-07T17:29:01.369101+05:30
Tirupati,Andhra Pradesh,13.6288,79.4192,37.5,24,0.0,988.3,9.4,29.5,135,8.3,6.5,0,5,10,0,2026-04-07T17:29:01.369108+05:30
Warangal,Telangana,17.9689,79.5941,36.1,29,0.0,975.9,9.05,33.5,128,24.6,19.7,0,5,10,0,2026-04-07T17:29:01.369115+05:30
Nizamabad,Telangana,18.6725,78.0941,34.6,27,0.0,962.7,8.95,28.4,110,27.8,17.7,0,5,7,0,2026-04-07T17:29:01.369121+05:30
Mysore,Karnataka,12.2958,76.6396,32.4,34,0.0,927.5,9.55,37.1,72,8.2,4.9,0,5,7,0,2026-04-07T17:29:01.369128+05:30
Mangalore,Karnataka,12.9141,74.856,29.0,69,0.0,1006.6,9.15,31.0,59,21.1,11.4,7,5,4,1,2026-04-07T17:29:01.369135+05:30
Hubli-Dharwad,Karnataka,15.3647,75.124,31.8,41,0.0,940.1,9.2,41.4,88,15.1,7.9,0,5,7,1,2026-04-07T17:29:01.369142+05:30
Belgaum,Karnataka,15.8497,74.4977,28.1,56,0.0,925.9,9.25,37.1,82,26.1,12.0,4,5,7,1,2026-04-07T17:29:04.714374+05:30
Coimbatore,Tamil Nadu,11.0168,76.9558,30.7,48,0.0,960.4,9.5,56.2,61,13.1,8.4,0,5,7,1,2026-04-07T17:29:04.714408+05:30
Madurai,Tamil Nadu,9.9252,78.1198,35.3,45,0.0,990.2,7.9,33.8,110,28.5,21.6,0,5,10,1,2026-04-07T17:29:04.714418+05:30
Trichy,Tamil Nadu,10.7905,78.7047,37.8,32,0.0,996.0,8.7,35.3,91,23.4,17.9,0,5,10,1,2026-04-07T17:29:04.714427+05:30
Salem,Tamil Nadu,11.6643,78.146,38.1,27,0.0,974.1,9.45,31.3,121,15.4,11.4,0,5,10,0,2026-04-07T17:29:04.714435+05:30
Tirunelveli,Tamil Nadu,8.7139,77.7567,36.3,36,0.0,1000.5,9.15,23.8,74,18.8,13.8,0,5,7,1,2026-04-07T17:29:04.714442+05:30
Vellore,Tamil Nadu,12.9165,79.1325,37.1,29,0.0,981.3,9.45,27.0,134,10.3,8.7,0,5,10,1,2026-04-07T17:29:04.714449+05:30
Erode,Tamil Nadu,11.341,77.7172,39.0,25,0.0,985.3,9.4,37.4,99,19.8,14.7,0,5,10,0,2026-04-07T17:29:04.714456+05:30
Kochi,Kerala,9.9312,76.2673,29.2,71,0.0,1007.9,9.25,41.0,68,22.6,13.0,7,5,4,1,2026-04-07T17:29:04.714464+05:30
Thiruvananthapuram,Kerala,8.5241,76.9366,29.6,74,0.0,1006.8,8.5,54.4,63,26.2,15.3,7,5,4,1,2026-04-07T17:29:04.714471+05:30
Kozhikode,Kerala,11.2588,75.7804,29.5,69,0.0,1007.2,9.15,37.1,58,29.6,15.5,7,5,4,1,2026-04-07T17:29:04.714478+05:30
Thrissur,Kerala,10.5276,76.2144,30.4,62,0.0,1006.2,9.2,40.3,63,21.9,12.8,3,5,4,1,2026-04-07T17:29:04.714485+05:30
Kannur,Kerala,11.8745,75.3704,29.9,62,0.0,1006.7,9.15,39.6,56,22.3,12.8,7,5,4,1,2026-04-07T17:29:04.714492+05:30
Patna,Bihar,25.5941,85.1376,33.4,23,0.0,998.6,8.2,27.0,131,69.6,18.3,0,5,7,0,2026-04-07T17:29:04.714499+05:30
Gaya,Bihar,24.7914,85.0002,33.0,25,0.0,992.1,8.3,20.5,122,45.5,13.2,0,5,7,0,2026-04-07T17:29:04.714505+05:30
Muzaffarpur,Bihar,26.1209,85.3647,32.9,25,0.0,998.7,8.15,24.5,138,65.4,19.1,0,5,7,0,2026-04-07T17:29:04.714511+05:30
Bhagalpur,Bihar,25.2425,87.0117,32.4,29,0.0,999.2,8.25,20.5,127,32.4,14.6,0,5,7,0,2026-04-07T17:29:04.714518+05:30
Ranchi,Jharkhand,23.3441,85.3096,25.6,51,0.0,937.1,8.9,31.0,122,23.5,10.6,4,5,7,0,2026-04-07T17:29:04.714525+05:30
Jamshedpur,Jharkhand,22.8046,86.2029,28.6,62,0.0,989.8,8.75,37.4,144,31.4,23.4,7,5,7,1,2026-04-07T17:29:04.714532+05:30
Dhanbad,Jharkhand,23.7957,86.4304,32.4,25,0.0,978.7,8.65,27.7,122,35.7,24.0,0,5,7,0,2026-04-07T17:29:04.714538+05:30
Bokaro,Jharkhand,23.6693,86.1511,30.2,39,0.0,983.0,8.7,33.5,117,32.4,18.0,0,5,7,0,2026-04-07T17:29:04.714545+05:30
Bhubaneswar,Odisha,20.2961,85.8245,30.7,63,0.0,1001.5,8.95,33.8,116,25.4,21.8,3,5,4,1,2026-04-07T17:29:04.714552+05:30
Cuttack,Odisha,20.4625,85.8828,31.2,60,0.0,1003.2,9.0,37.8,116,25.4,21.8,0,5,4,1,2026-04-07T17:29:04.714558+05:30
Rourkela,Odisha,22.2604,84.8536,31.7,47,0.0,983.1,8.7,25.6,138,30.4,20.7,0,5,7,1,2026-04-07T17:29:04.714565+05:30
Raipur,Chhattisgarh,21.2514,81.6296,35.5,25,0.0,971.4,8.8,24.1,168,48.9,38.9,0,5,10,0,2026-04-07T17:29:04.714572+05:30
Bhilai,Chhattisgarh,21.1938,81.3509,36.0,22,0.0,971.6,8.8,25.9,157,42.5,32.1,0,5,10,0,2026-04-07T17:29:04.714579+05:30
Guwahati,Assam,26.1158,91.7086,27.9,60,0.0,1001.4,8.15,35.3,111,36.6,32.1,4,5,4,1,2026-04-07T17:29:04.714585+05:30
Agartala,Tripura,23.8315,91.2868,28.1,62,0.0,1006.2,8.45,38.9,156,34.9,31.9,7,5,4,1,2026-04-07T17:29:04.714591+05:30
Shillong,Meghalaya,25.5788,91.8933,14.9,73,0.0,855.9,6.3,42.5,109,32.7,28.8,3,5,7,0,2026-04-07T17:29:04.714598+05:30
Imphal,Manipur,24.817,93.9368,19.6,68,0.0,923.6,8.4,43.9,107,21.8,17.3,3,5,7,0,2026-04-07T17:29:04.714604+05:30
Aizawl,Mizoram,23.7271,92.7176,20.9,65,0.0,893.2,8.65,42.1,100,25.0,22.1,3,5,7,0,2026-04-07T17:29:04.714611+05:30
Kohima,Nagaland,25.6701,94.1077,15.4,84,0.0,854.6,8.35,71.6,106,28.8,22.3,3,10,7,0,2026-04-07T17:29:04.714617+05:30
Gangtok,Sikkim,27.3314,88.6138,14.4,77,0.0,837.0,8.5,23.4,98,26.5,18.6,3,5,7,0,2026-04-07T17:29:04.714624+05:30
Siliguri,West Bengal,26.7271,88.3953,25.2,55,0.0,993.1,8.1,32.8,117,27.8,15.8,4,5,7,0,2026-04-07T17:29:08.064239+05:30
Durgapur,West Bengal,23.5204,87.3119,26.4,66,0.0,995.0,8.45,29.5,126,43.1,35.6,7,5,7,1,2026-04-07T17:29:08.064269+05:30
Asansol,West Bengal,23.6739,86.9524,26.6,65,0.0,993.1,8.65,36.4,120,37.3,27.7,7,5,7,1,2026-04-07T17:29:08.064279+05:30
Pondicherry,Puducherry,11.9139,79.8145,33.2,69,0.0,1005.3,8.9,31.3,130,32.9,26.7,3,5,4,1,2026-04-07T17:29:08.064287+05:30
Port Blair,Andaman and Nicobar Islands,11.6234,92.7265,29.4,66,0.0,1007.2,9.25,13.0,30,4.8,3.2,7,5,4,1,2026-04-07T17:29:08.064294+05:30
Haridwar,Uttarakhand,29.9457,78.1642,23.1,71,0.0,974.4,5.3,41.4,102,91.3,24.3,3,5,3,1,2026-04-07T17:29:08.064301+05:30
Rishikesh,Uttarakhand,30.0869,78.2676,23.7,59,0.0,967.1,6.4,28.4,110,81.7,21.5,0,5,7,0,2026-04-07T17:29:08.064308+05:30
Nainital,Uttarakhand,29.3919,79.4542,19.2,46,0.0,805.6,5.85,40.0,115,60.1,16.1,0,5,3,0,2026-04-07T17:29:08.064314+05:30
Mussoorie,Uttarakhand,30.4599,78.0664,13.2,82,0.0,800.5,5.2,42.1,98,57.3,17.7,3,10,3,0,2026-04-07T17:29:08.064344+05:30
Dharamshala,Himachal Pradesh,32.219,76.3234,17.2,77,0.0,865.5,6.4,37.4,100,16.2,7.9,3,5,7,0,2026-04-07T17:29:08.064352+05:30
Dalhousie,Himachal Pradesh,32.5387,75.971,14.4,65,0.0,799.6,5.3,33.1,91,33.8,12.3,3,5,3,0,2026-04-07T17:29:08.064361+05:30
Patiala,Punjab,30.3398,76.3869,21.0,83,0.0,977.0,5.8,47.5,206,399.5,69.6,3,5,3,1,2026-04-07T17:29:08.064368+05:30
Bhatinda,Punjab,30.211,74.9455,19.3,87,0.0,981.9,4.2,52.2,103,117.3,29.9,3,10,3,1,2026-04-07T17:29:08.064374+05:30
Rohtak,Haryana,28.8955,76.6066,24.8,57,0.0,980.1,5.15,41.0,499,360.4,56.7,0,5,3,0,2026-04-07T17:29:08.064381+05:30
Panipat,Haryana,29.3909,76.9635,22.1,80,0.0,979.2,4.7,49.7,690,295.2,57.4,3,5,3,1,2026-04-07T17:29:08.064387+05:30
Mathura,Uttar Pradesh,27.4924,77.6737,27.5,48,0.0,985.0,6.2,34.9,416,1113.9,101.0,4,5,7,0,2026-04-07T17:29:08.064394+05:30
Vrindavan,Uttar Pradesh,27.5823,77.7027,26.8,48,0.0,985.7,5.8,38.2,416,1113.9,101.0,4,5,3,0,2026-04-07T17:29:08.064401+05:30
Ayodhya,Uttar Pradesh,26.7922,82.1998,32.6,24,0.0,993.5,7.6,52.9,113,106.9,22.6,0,5,7,0,2026-04-07T17:29:08.064408+05:30
Ratlam,Madhya Pradesh,23.3315,75.0367,31.3,35,0.0,952.7,8.25,50.4,54,75.4,22.9,0,5,7,0,2026-04-07T17:29:08.064414+05:30
Sagar,Madhya Pradesh,23.8388,78.7378,32.6,20,0.0,947.3,8.35,37.4,101,19.8,10.5,0,5,7,0,2026-04-07T17:29:08.064420+05:30
Satna,Madhya Pradesh,24.6005,80.8322,32.3,26,0.0,969.0,8.3,32.4,120,28.6,15.0,0,5,7,0,2026-04-07T17:29:08.064427+05:30
Akola,Maharashtra,20.7002,77.0082,35.2,23,0.0,973.0,8.65,36.0,96,43.2,17.0,0,5,10,0,2026-04-07T17:29:08.064434+05:30
Amravati,Maharashtra,20.9374,77.7796,35.2,21,0.0,964.8,8.7,33.5,99,36.2,16.0,0,5,10,0,2026-04-07T17:29:08.064441+05:30
Latur,Maharashtra,18.4088,76.5604,32.8,24,0.0,938.6,8.95,27.0,90,37.6,14.1,0,5,7,0,2026-04-07T17:29:08.064448+05:30
Nanded,Maharashtra,19.1383,77.3091,34.7,25,0.0,966.9,8.85,25.2,110,34.1,14.3,0,5,7,0,2026-04-07T17:29:08.064454+05:30
Gulbarga,Karnataka,17.3297,76.8343,36.2,22,0.0,956.6,9.05,29.2,126,22.0,13.4,0,5,10,0,2026-04-07T17:29:08.064460+05:30
Bidar,Karnataka,17.9104,77.5199,34.7,23,0.0,933.8,9.0,30.2,125,27.9,18.9,0,5,7,0,2026-04-07T17:29:08.064466+05:30
Hospet,Karnataka,15.2689,76.3909,35.8,19,0.0,954.3,9.25,31.7,76,13.1,5.9,0,5,10,0,2026-04-07T17:29:08.064472+05:30
Tirupur,Tamil Nadu,11.1085,77.3411,35.1,34,0.0,972.9,9.5,45.4,93,16.2,11.3,0,5,10,1,2026-04-07T17:29:08.064478+05:30
Alappuzha,Kerala,9.4981,76.3388,29.3,72,0.0,1008.0,8.7,41.8,69,28.1,15.5,7,0,4,1,2026-04-07T17:29:08.064485+05:30
Munnar,Kerala,10.0889,77.0595,25.8,67,0.0,857.7,9.0,40.3,66,19.2,12.9,7,5,7,1,2026-04-07T17:29:08.064491+05:30
Silchar,Assam,24.8333,92.7789,27.5,64,0.0,1005.4,8.3,26.3,154,34.6,29.4,7,5,4,1,2026-04-07T17:29:08.064497+05:30
Dibrugarh,Assam,27.4728,94.912,21.9,81,0.0,997.7,7.4,31.0,82,48.1,38.8,3,5,7,1,2026-04-07T17:29:08.064503+05:30
