city,state,latitude,longitude,temp,humidity,rain,pressure,uv_index,wind_gusts,aqi,pm10,pm2_5,no2,co,o3,so2,mosquito_risk,arthritis_risk,migraine_risk,frizz_risk,updated_at
Delhi,Delhi,28.6139,77.209,26.3,96,0.1,976.8,7.65,28.8,124,46.1,37.3,18.3,384.0,86.0,20.4,10,5,7,1,2026-07-03T05:38:42.990862+05:30
Mumbai,Maharashtra,19.076,72.8777,25.9,93,0.2,1004.4,0.75,49.3,42,26.7,12.2,4.5,121.0,52.0,4.0,10,5,0,1,2026-07-03T05:38:42.990915+05:30
Bangalore,Karnataka,12.9716,77.5946,20.8,91,0.0,910.2,7.1,59.4,18,4.6,3.0,5.5,175.0,40.0,3.4,3,5,7,1,2026-07-03T05:38:42.990931+05:30
Hyderabad,Telangana,17.385,78.4867,24.4,84,0.0,948.8,4.75,59.8,24,6.7,4.3,6.5,150.0,39.0,3.8,3,5,3,1,2026-07-03T05:38:42.990940+05:30
Chennai,Tamil Nadu,13.0827,80.2707,30.1,60,0.0,1004.4,7.05,45.0,46,12.0,10.9,19.3,246.0,24.0,7.9,0,5,4,1,2026-07-03T05:38:42.990949+05:30
Kolkata,West Bengal,22.5726,88.3639,27.3,93,0.0,998.4,7.8,35.6,62,19.6,18.4,13.4,240.0,46.0,10.7,7,5,7,1,2026-07-03T05:38:42.990957+05:30
Pune,Maharashtra,18.5204,73.8567,22.6,91,0.0,943.7,1.15,51.5,17,2.3,1.8,4.9,115.0,43.0,4.1,3,5,3,1,2026-07-03T05:38:42.990963+05:30
Ahmedabad,Gujarat,23.0225,72.5714,27.6,88,0.0,996.2,7.1,36.4,57,23.5,14.4,12.7,177.0,30.0,5.2,7,5,7,1,2026-07-03T05:38:42.990970+05:30
Jaipur,Rajasthan,26.9124,75.7873,26.1,99,0.0,953.6,7.25,26.3,112,41.4,23.6,8.7,288.0,60.0,4.4,7,5,7,1,2026-07-03T05:38:42.990977+05:30
Lucknow,Uttar Pradesh,26.8467,80.9462,26.2,98,0.2,987.7,6.1,30.2,85,22.7,22.6,12.4,445.0,80.0,5.3,10,5,7,1,2026-07-03T05:38:42.990986+05:30
Kanpur,Uttar Pradesh,26.4499,80.3319,26.2,97,0.2,986.0,7.65,28.8,89,18.8,18.7,9.9,338.0,91.0,5.1,10,5,7,1,2026-07-03T05:38:42.990993+05:30
Chandigarh,Chandigarh,30.7333,76.7794,26.0,93,0.0,964.0,7.7,21.2,95,29.1,28.4,38.1,403.0,29.0,6.3,7,5,7,1,2026-07-03T05:38:42.991000+05:30
Srinagar,Jammu and Kashmir,34.0837,74.7973,18.1,100,0.1,839.8,9.05,25.2,86,20.3,19.5,20.6,332.0,29.0,1.8,6,10,7,1,2026-07-03T05:38:42.991006+05:30
Jammu,Jammu and Kashmir,32.7266,74.857,26.3,82,0.0,968.4,8.6,23.8,153,68.9,47.6,48.3,402.0,5.0,3.5,7,5,7,1,2026-07-03T05:38:42.991013+05:30
Amritsar,Punjab,31.634,74.8723,27.2,89,0.0,975.8,8.45,30.6,168,85.2,69.8,31.0,544.0,46.0,11.4,7,5,7,1,2026-07-03T05:38:42.991019+05:30
Ludhiana,Punjab,30.901,75.8573,27.2,89,0.0,973.5,7.95,28.1,140,39.7,39.3,29.9,495.0,65.0,12.2,7,5,7,1,2026-07-03T05:38:42.991025+05:30
Jalandhar,Punjab,31.326,75.5762,27.0,92,0.0,974.6,8.2,30.6,157,65.4,61.2,39.3,513.0,49.0,16.6,7,5,7,1,2026-07-03T05:38:42.991030+05:30
Dehradun,Uttarakhand,30.6284,78.0322,17.9,98,0.3,827.6,8.15,27.4,26,5.3,5.1,14.3,235.0,43.0,0.2,6,10,7,1,2026-07-03T05:38:42.991036+05:30
Shimla,Himachal Pradesh,31.1048,77.1734,14.8,88,0.0,781.1,8.2,24.8,41,4.2,4.1,9.2,271.0,72.0,0.1,3,10,7,0,2026-07-03T05:38:42.991042+05:30
Manali,Himachal Pradesh,32.2396,77.1887,18.6,68,0.0,815.9,9.5,34.2,53,3.2,3.0,14.2,202.0,98.0,0.0,3,5,7,0,2026-07-03T05:38:42.991049+05:30
Gurgaon,Haryana,28.4595,77.0266,26.9,97,0.0,975.1,7.75,25.2,157,64.5,38.1,17.7,508.0,80.0,18.7,7,5,7,1,2026-07-03T05:38:42.991056+05:30
Noida,Uttar Pradesh,28.5355,77.391,26.6,96,0.1,978.1,7.05,31.3,157,64.5,38.1,17.7,336.0,80.0,18.7,10,5,7,1,2026-07-03T05:38:42.991062+05:30
Ghaziabad,Uttar Pradesh,28.6692,77.4538,26.7,97,0.1,976.5,7.05,28.4,94,36.3,34.5,11.2,350.0,91.0,8.7,10,5,7,1,2026-07-03T05:38:42.991068+05:30
Faridabad,Haryana,28.4089,77.3178,27.0,92,0.0,977.5,7.05,33.1,157,64.5,38.1,17.7,347.0,80.0,18.7,7,5,7,1,2026-07-03T05:38:42.991075+05:30
Meerut,Uttar Pradesh,28.9845,77.7064,26.9,96,0.0,975.8,7.15,29.2,94,36.3,34.5,11.2,369.0,91.0,8.7,7,5,7,1,2026-07-03T05:38:42.991081+05:30
Agra,Uttar Pradesh,27.1767,78.0081,28.3,87,0.0,981.6,7.1,17.6,124,54.4,31.2,16.0,423.0,74.0,7.4,7,5,7,1,2026-07-03T05:38:42.991087+05:30
Varanasi,Uttar Pradesh,25.3176,82.9739,27.8,94,0.0,991.0,5.55,34.6,95,49.0,48.9,24.3,415.0,44.0,13.2,7,5,3,1,2026-07-03T05:38:42.991099+05:30
Prayagraj,Uttar Pradesh,25.4358,81.8463,26.0,95,0.1,989.4,7.55,30.2,91,39.9,39.8,21.4,328.0,57.0,9.7,10,5,7,1,2026-07-03T05:38:42.991105+05:30
Gorakhpur,Uttar Pradesh,26.7606,83.3732,28.6,86,0.0,991.6,7.85,37.1,90,37.6,37.5,19.1,570.0,53.0,10.8,7,5,7,1,2026-07-03T05:38:42.991111+05:30
Bareilly,Uttar Pradesh,28.367,79.4304,27.9,90,0.0,981.2,7.3,31.7,103,31.1,30.9,12.8,447.0,69.0,3.7,7,5,7,1,2026-07-03T05:38:42.991118+05:30
Aligarh,Uttar Pradesh,27.8974,78.088,28.0,89,0.0,979.6,7.2,25.6,107,28.8,27.6,10.6,312.0,96.0,6.9,7,5,7,1,2026-07-03T05:38:42.991124+05:30
Moradabad,Uttar Pradesh,28.8386,78.7733,27.7,90,0.0,978.4,7.75,29.9,108,37.6,36.8,14.3,530.0,72.0,6.9,7,5,7,1,2026-07-03T05:38:42.991129+05:30
Saharanpur,Uttar Pradesh,29.9637,77.546,26.4,97,0.1,970.8,7.35,34.9,81,41.7,40.5,33.1,391.0,39.0,8.1,10,5,7,1,2026-07-03T05:38:42.991135+05:30
Jhansi,Uttar Pradesh,25.4484,78.5685,26.1,97,0.1,972.0,7.05,24.5,95,41.9,23.7,11.9,203.0,59.0,4.7,10,5,7,1,2026-07-03T05:38:46.289554+05:30
Surat,Gujarat,21.1702,72.8311,25.9,96,0.2,1001.3,0.65,27.7,60,25.3,19.3,31.5,306.0,16.0,41.6,10,5,0,1,2026-07-03T05:38:46.289591+05:30
Vadodara,Gujarat,22.3072,73.1812,26.8,90,0.1,998.9,2.85,41.4,47,14.2,11.1,15.8,151.0,25.0,6.3,10,5,3,1,2026-07-03T05:38:46.289603+05:30
Rajkot,Gujarat,22.3039,70.8022,27.0,88,0.0,988.5,6.6,42.1,51,20.5,10.7,6.0,109.0,40.0,5.6,7,5,7,1,2026-07-03T05:38:46.289613+05:30
Thane,Maharashtra,19.2183,72.9781,24.9,97,0.2,1003.6,0.6,33.1,42,26.7,12.2,4.5,131.0,52.0,4.0,6,5,0,1,2026-07-03T05:38:46.289622+05:30
Nagpur,Maharashtra,21.1458,79.0882,24.7,96,0.0,966.6,1.9,37.1,50,4.4,4.1,8.9,206.0,55.0,6.7,3,5,3,1,2026-07-03T05:38:46.289632+05:30
Nashik,Maharashtra,19.9975,73.7898,22.6,97,0.1,940.3,1.65,38.5,16,2.3,1.9,6.9,131.0,38.0,3.8,6,5,3,1,2026-07-03T05:38:46.289640+05:30
Aurangabad,Maharashtra,19.8762,75.3433,23.3,92,0.1,939.2,0.45,49.3,18,2.6,2.2,8.7,138.0,35.0,9.4,6,5,3,1,2026-07-03T05:38:46.289648+05:30
Solapur,Maharashtra,17.6599,75.9064,23.7,90,0.0,953.8,3.3,55.8,19,3.9,3.0,5.1,124.0,39.0,2.3,3,5,3,1,2026-07-03T05:38:46.289656+05:30
Kolhapur,Maharashtra,16.705,74.2433,21.8,96,0.1,945.1,5.9,51.8,20,2.8,2.1,3.0,110.0,43.0,1.7,6,5,3,1,2026-07-03T05:38:46.289663+05:30
Goa,Goa,15.2993,74.124,23.0,99,0.2,996.9,4.5,27.7,54,34.9,18.5,3.3,299.0,43.0,1.0,6,5,3,1,2026-07-03T05:38:46.289671+05:30
Jodhpur,Rajasthan,26.2389,73.0243,29.2,71,0.0,976.5,8.4,40.7,109,63.8,23.9,6.2,122.0,59.0,3.2,7,5,7,1,2026-07-03T05:38:46.289678+05:30
Udaipur,Rajasthan,24.5854,73.7125,25.0,89,0.0,940.4,6.1,36.4,67,29.2,17.2,6.4,130.0,58.0,7.7,7,5,7,1,2026-07-03T05:38:46.289685+05:30
Kota,Rajasthan,25.2138,75.8648,27.1,87,0.0,972.5,7.45,36.4,65,27.0,17.1,6.9,208.0,70.0,3.4,7,5,7,1,2026-07-03T05:38:46.289692+05:30
Bikaner,Rajasthan,28.0229,73.3119,30.1,63,0.0,974.6,8.4,38.2,153,68.7,27.2,3.0,136.0,59.0,1.6,3,5,7,1,2026-07-03T05:38:46.289699+05:30
Ajmer,Rajasthan,26.4499,74.6399,26.2,79,0.0,948.5,8.15,49.7,87,30.0,20.4,8.6,147.0,53.0,3.1,7,5,7,1,2026-07-03T05:38:46.289707+05:30
Gwalior,Madhya Pradesh,26.2183,78.1828,27.8,87,0.1,976.8,7.55,15.5,103,80.3,32.8,11.0,329.0,70.0,4.4,10,5,7,1,2026-07-03T05:38:46.289714+05:30
Indore,Madhya Pradesh,22.7196,75.8577,24.1,96,0.0,942.5,1.75,41.0,61,14.0,13.2,8.6,209.0,47.0,5.8,3,5,3,1,2026-07-03T05:38:46.289721+05:30
Bhopal,Madhya Pradesh,23.2599,77.4126,24.3,96,0.1,947.3,7.5,37.8,61,26.7,23.9,10.3,207.0,51.0,3.3,6,5,7,1,2026-07-03T05:38:46.289728+05:30
Jabalpur,Madhya Pradesh,23.1815,79.9864,24.4,98,0.1,954.3,7.8,29.2,55,9.6,8.1,5.8,206.0,77.0,2.0,6,5,7,1,2026-07-03T05:38:46.289735+05:30
Ujjain,Madhya Pradesh,23.1765,75.7885,24.4,95,0.0,948.1,2.55,38.9,59,15.4,14.2,7.7,227.0,50.0,6.8,3,5,3,1,2026-07-03T05:38:46.289743+05:30
Visakhapatnam,Andhra Pradesh,17.6868,83.2185,27.9,74,0.0,996.1,1.35,50.4,48,12.9,11.4,18.5,279.0,38.0,28.8,7,5,3,1,2026-07-03T05:38:46.289750+05:30
Vijayawada,Andhra Pradesh,16.5062,80.648,28.5,72,0.0,997.9,2.3,50.8,46,8.6,6.5,10.4,146.0,33.0,8.7,7,5,3,1,2026-07-03T05:38:46.289757+05:30
Guntur,Andhra Pradesh,16.3067,80.4365,29.4,64,0.0,999.2,2.1,50.0,39,9.6,6.5,10.0,153.0,33.0,8.4,7,5,3,1,2026-07-03T05:38:46.289765+05:30
Nellore,Andhra Pradesh,14.4426,79.9865,29.4,62,0.0,1002.7,8.8,52.2,22,15.1,7.3,5.6,111.0,43.0,4.1,7,5,4,1,2026-07-03T05:38:46.289773+05:30
Kurnool,Andhra Pradesh,15.8281,78.0373,25.7,78,0.0,974.4,4.55,58.7,19,7.4,4.3,5.2,118.0,40.0,2.0,7,5,3,1,2026-07-03T05:38:46.289781+05:30
Kakinada,Andhra Pradesh,16.9891,82.2475,26.6,88,0.1,1001.6,2.75,46.1,42,12.0,10.2,9.5,244.0,43.0,5.7,10,5,0,1,2026-07-03T05:38:46.289788+05:30
Tirupati,Andhra Pradesh,13.6288,79.4192,28.0,65,0.0,988.9,7.75,49.3,30,13.0,7.6,7.9,109.0,35.0,2.0,7,5,7,1,2026-07-03T05:38:46.289795+05:30
Warangal,Telangana,17.9689,79.5941,24.7,92,0.2,973.6,1.75,45.0,30,5.6,5.0,8.4,147.0,33.0,2.9,6,5,3,1,2026-07-03T05:38:46.289802+05:30
Nizamabad,Telangana,18.6725,78.0941,24.1,94,0.1,959.7,1.45,51.8,31,4.6,4.1,8.0,133.0,35.0,4.4,6,5,3,1,2026-07-03T05:38:46.289809+05:30
Mysore,Karnataka,12.2958,76.6396,21.4,91,0.0,927.5,7.15,57.2,19,1.7,1.5,3.6,109.0,41.0,1.6,3,5,7,1,2026-07-03T05:38:46.289817+05:30
Mangalore,Karnataka,12.9141,74.856,24.8,94,0.1,1007.2,7.4,50.8,41,21.4,10.0,1.9,101.0,44.0,1.2,6,5,4,1,2026-07-03T05:38:46.289823+05:30
Hubli-Dharwad,Karnataka,15.3647,75.124,21.7,97,0.0,938.6,7.45,60.8,20,4.4,2.5,2.1,96.0,44.0,1.0,3,5,7,1,2026-07-03T05:38:46.289831+05:30
Belgaum,Karnataka,15.8497,74.4977,20.7,97,0.0,923.1,4.8,52.6,20,3.2,2.2,3.2,107.0,43.0,1.5,3,5,3,1,2026-07-03T05:38:49.617876+05:30
Coimbatore,Tamil Nadu,11.0168,76.9558,22.4,96,0.0,960.9,8.2,60.8,15,2.5,1.9,3.6,135.0,38.0,1.9,3,5,7,1,2026-07-03T05:38:49.617908+05:30
Madurai,Tamil Nadu,9.9252,78.1198,27.9,66,0.0,992.2,8.65,60.8,41,13.1,11.9,21.7,119.0,7.0,4.9,7,5,7,1,2026-07-03T05:38:49.617919+05:30
Trichy,Tamil Nadu,10.7905,78.7047,28.1,67,0.0,998.7,8.25,68.0,21,8.5,5.3,4.2,102.0,40.0,2.3,7,5,7,1,2026-07-03T05:38:49.617927+05:30
Salem,Tamil Nadu,11.6643,78.146,25.4,81,0.0,976.5,6.75,36.4,40,14.9,12.2,17.7,234.0,23.0,7.5,7,5,7,1,2026-07-03T05:38:49.617935+05:30
Tirunelveli,Tamil Nadu,8.7139,77.7567,28.4,65,0.0,1003.1,7.65,51.8,22,4.9,3.7,5.5,121.0,30.0,2.3,7,5,4,1,2026-07-03T05:38:49.617943+05:30
Vellore,Tamil Nadu,12.9165,79.1325,27.4,66,0.0,982.4,7.05,49.3,23,12.9,7.5,7.6,131.0,36.0,3.3,7,5,7,1,2026-07-03T05:38:49.617951+05:30
Erode,Tamil Nadu,11.341,77.7172,24.8,83,0.0,988.4,7.45,59.0,30,9.2,7.7,11.1,128.0,30.0,3.0,3,5,7,1,2026-07-03T05:38:49.617959+05:30
Kochi,Kerala,9.9312,76.2673,25.0,94,0.0,1010.0,8.25,41.0,42,10.3,7.4,9.4,128.0,23.0,3.0,7,0,4,1,2026-07-03T05:38:49.617966+05:30
Thiruvananthapuram,Kerala,8.5241,76.9366,23.7,97,0.1,1009.8,7.4,46.8,37,11.1,6.2,3.1,141.0,39.0,1.5,6,0,4,1,2026-07-03T05:38:49.617973+05:30
Kozhikode,Kerala,11.2588,75.7804,24.3,95,0.1,1009.2,3.2,43.2,24,13.5,6.0,0.6,118.0,55.0,0.4,6,0,0,1,2026-07-03T05:38:49.617980+05:30
Thrissur,Kerala,10.5276,76.2144,24.1,99,0.2,1008.4,3.6,42.1,39,10.6,7.7,7.2,184.0,29.0,2.5,6,0,0,1,2026-07-03T05:38:49.617988+05:30
Kannur,Kerala,11.8745,75.3704,24.6,96,0.4,1008.3,1.95,49.7,28,19.2,8.8,1.9,95.0,45.0,0.8,6,0,0,1,2026-07-03T05:38:49.617996+05:30
Patna,Bihar,25.5941,85.1376,28.1,89,0.0,994.1,7.05,37.8,83,27.4,27.2,16.7,387.0,61.0,14.5,7,5,7,1,2026-07-03T05:38:49.618003+05:30
Gaya,Bihar,24.7914,85.0002,27.2,89,0.0,987.2,6.0,32.4,68,21.9,21.7,14.2,366.0,57.0,16.0,7,5,3,1,2026-07-03T05:38:49.618010+05:30
Muzaffarpur,Bihar,26.1209,85.3647,28.1,87,0.0,994.3,7.45,36.4,84,26.0,25.8,14.9,389.0,65.0,11.0,7,5,7,1,2026-07-03T05:38:49.618016+05:30
Bhagalpur,Bihar,25.2425,87.0117,27.5,92,0.0,994.8,6.55,33.1,78,38.1,37.6,19.1,370.0,42.0,9.9,7,5,7,1,2026-07-03T05:38:49.618023+05:30
Ranchi,Jharkhand,23.3441,85.3096,23.4,99,0.1,930.7,7.6,40.7,75,10.7,10.7,14.5,245.0,47.0,19.7,6,5,7,1,2026-07-03T05:38:49.618030+05:30
Jamshedpur,Jharkhand,22.8046,86.2029,25.8,97,0.0,983.4,7.05,36.0,67,21.4,20.6,13.7,306.0,41.0,10.5,7,5,7,1,2026-07-03T05:38:49.618037+05:30
Dhanbad,Jharkhand,23.7957,86.4304,25.4,97,0.0,973.0,5.65,33.8,99,46.0,45.3,36.4,277.0,19.0,95.2,7,5,3,1,2026-07-03T05:38:49.618044+05:30
Bokaro,Jharkhand,23.6693,86.1511,25.3,99,0.0,976.8,6.1,37.1,109,44.1,43.5,42.5,367.0,16.0,113.5,7,5,7,1,2026-07-03T05:38:49.618051+05:30
Bhubaneswar,Odisha,20.2961,85.8245,25.1,98,0.3,994.1,8.5,29.2,63,7.9,7.8,8.5,402.0,72.0,3.1,10,5,7,1,2026-07-03T05:38:49.618058+05:30
Cuttack,Odisha,20.4625,85.8828,25.6,97,0.0,995.8,7.65,30.6,63,7.9,7.8,8.5,287.0,72.0,3.1,7,5,7,1,2026-07-03T05:38:49.618065+05:30
Rourkela,Odisha,22.2604,84.8536,25.1,98,0.2,976.9,6.55,34.2,106,28.9,28.8,20.5,443.0,45.0,34.9,10,5,7,1,2026-07-03T05:38:49.618072+05:30
Raipur,Chhattisgarh,21.2514,81.6296,24.5,97,0.1,967.0,3.45,31.7,72,15.7,15.2,24.6,243.0,46.0,36.4,6,5,3,1,2026-07-03T05:38:49.618078+05:30
Bhilai,Chhattisgarh,21.1938,81.3509,24.3,97,0.3,967.5,5.15,38.5,64,14.1,13.7,19.9,509.0,51.0,30.0,6,5,3,1,2026-07-03T05:38:49.618085+05:30
Guwahati,Assam,26.1158,91.7086,25.8,98,0.1,997.2,7.95,23.8,38,8.4,8.1,6.6,196.0,49.0,1.4,10,5,7,1,2026-07-03T05:38:49.618092+05:30
Agartala,Tripura,23.8315,91.2868,27.1,91,0.0,1001.2,6.6,29.5,55,14.8,14.0,12.7,172.0,32.0,3.4,7,5,4,1,2026-07-03T05:38:49.618099+05:30
Shillong,Meghalaya,25.5788,91.8933,20.1,98,0.0,854.5,8.2,27.0,35,9.5,9.4,5.3,230.0,58.0,2.5,3,5,7,1,2026-07-03T05:38:49.618106+05:30
Imphal,Manipur,24.817,93.9368,23.0,94,0.0,920.0,9.1,23.8,54,14.7,14.5,7.5,312.0,36.0,2.2,3,5,7,1,2026-07-03T05:38:49.618112+05:30
Aizawl,Mizoram,23.7271,92.7176,20.6,99,0.0,888.8,8.4,19.8,30,4.5,4.4,5.8,155.0,28.0,0.6,3,5,7,1,2026-07-03T05:38:49.618119+05:30
Kohima,Nagaland,25.6701,94.1077,19.9,95,0.0,852.6,8.95,28.1,23,4.9,4.8,5.7,204.0,32.0,0.7,3,10,7,1,2026-07-03T05:38:49.618126+05:30
Gangtok,Sikkim,27.3314,88.6138,18.7,95,0.1,834.9,9.05,32.8,34,12.0,11.7,10.3,350.0,36.0,0.5,6,10,7,1,2026-07-03T05:38:49.618133+05:30
Siliguri,West Bengal,26.7271,88.3953,27.5,81,0.0,987.7,8.6,24.1,74,43.7,43.5,23.0,301.0,51.0,4.9,7,5,7,1,2026-07-03T05:38:52.959718+05:30
Durgapur,West Bengal,23.5204,87.3119,26.4,98,0.0,987.9,6.0,37.4,89,41.4,39.9,29.6,382.0,21.0,31.3,7,5,3,1,2026-07-03T05:38:52.959753+05:30
Asansol,West Bengal,23.6739,86.9524,26.0,98,0.0,986.5,6.0,35.3,86,41.0,40.2,32.4,372.0,21.0,39.0,7,5,3,1,2026-07-03T05:38:52.959763+05:30
Pondicherry,Puducherry,11.9139,79.8145,29.0,63,0.0,1006.2,7.65,38.9,52,14.1,12.3,15.1,129.0,36.0,8.8,7,5,4,1,2026-07-03T05:38:52.959772+05:30
Port Blair,Andaman and Nicobar Islands,11.6234,92.7265,27.5,84,0.0,1005.0,6.85,49.0,41,17.3,8.6,0.2,96.0,61.0,0.5,7,5,4,1,2026-07-03T05:38:52.959780+05:30
Haridwar,Uttarakhand,29.9457,78.1642,26.7,88,0.0,969.6,7.1,28.1,70,29.8,29.1,28.0,325.0,31.0,4.1,7,5,7,1,2026-07-03T05:38:52.959788+05:30
Rishikesh,Uttarakhand,30.0869,78.2676,24.7,96,0.1,962.6,6.95,22.0,53,13.4,12.2,7.5,303.0,87.0,1.1,6,5,7,1,2026-07-03T05:38:52.959796+05:30
Nainital,Uttarakhand,29.3919,79.4542,15.3,98,0.0,802.4,7.3,26.6,86,35.3,33.5,15.8,356.0,54.0,2.6,3,10,7,0,2026-07-03T05:38:52.959804+05:30
Mussoorie,Uttarakhand,30.4599,78.0664,16.4,99,0.2,800.3,7.45,28.4,52,16.2,15.5,31.9,250.0,31.0,4.8,6,10,7,1,2026-07-03T05:38:52.959811+05:30
Dharamshala,Himachal Pradesh,32.219,76.3234,21.9,73,0.0,866.0,8.45,30.6,38,6.9,6.0,10.9,228.0,59.0,0.2,3,5,7,1,2026-07-03T05:38:52.959818+05:30
Dalhousie,Himachal Pradesh,32.5387,75.971,15.9,91,0.0,801.2,8.7,33.1,82,26.7,18.3,16.0,263.0,77.0,2.5,3,10,7,0,2026-07-03T05:38:52.959827+05:30
Patiala,Punjab,30.3398,76.3869,27.3,95,0.0,973.2,7.6,29.5,113,32.9,32.8,17.8,485.0,75.0,8.9,7,5,7,1,2026-07-03T05:38:52.959834+05:30
Bhatinda,Punjab,30.211,74.9455,28.7,83,0.0,978.0,8.25,36.7,154,169.0,46.9,18.9,448.0,73.0,12.7,7,5,7,1,2026-07-03T05:38:52.959842+05:30
Rohtak,Haryana,28.8955,76.6066,25.7,94,0.6,975.8,7.0,29.2,176,100.1,50.6,23.0,581.0,71.0,23.9,10,5,7,1,2026-07-03T05:38:52.959849+05:30
Panipat,Haryana,29.3909,76.9635,26.3,95,0.0,974.7,6.9,27.7,517,213.3,74.3,17.3,402.0,71.0,14.3,7,5,7,1,2026-07-03T05:38:52.959856+05:30
Mathura,Uttar Pradesh,27.4924,77.6737,28.2,83,0.0,980.7,6.05,22.0,152,75.4,45.1,25.8,413.0,49.0,7.7,7,5,7,1,2026-07-03T05:38:52.959863+05:30
Vrindavan,Uttar Pradesh,27.5823,77.7027,28.2,85,0.0,981.2,6.15,22.0,152,75.4,45.1,25.8,385.0,49.0,7.7,7,5,7,1,2026-07-03T05:38:52.959870+05:30
Ayodhya,Uttar Pradesh,26.7922,82.1998,26.0,97,0.1,990.2,6.8,35.3,96,45.5,45.4,23.6,422.0,45.0,7.0,10,5,7,1,2026-07-03T05:38:52.959877+05:30
Ratlam,Madhya Pradesh,23.3315,75.0367,24.4,97,0.0,949.2,1.15,36.0,54,15.1,14.1,9.5,192.0,41.0,7.2,3,5,3,1,2026-07-03T05:38:52.959884+05:30
Sagar,Madhya Pradesh,23.8388,78.7378,23.5,97,0.1,943.6,8.3,34.6,54,16.1,10.6,5.8,221.0,78.0,2.2,6,5,7,1,2026-07-03T05:38:52.959892+05:30
Satna,Madhya Pradesh,24.6005,80.8322,24.5,97,0.0,964.5,8.1,29.5,77,11.6,11.6,5.7,214.0,98.0,3.2,3,5,7,1,2026-07-03T05:38:52.959898+05:30
Akola,Maharashtra,20.7002,77.0082,24.9,91,0.0,969.7,6.6,42.1,21,3.1,2.9,8.7,135.0,34.0,7.6,3,5,7,1,2026-07-03T05:38:52.959906+05:30
Amravati,Maharashtra,20.9374,77.7796,24.1,98,0.1,961.5,2.8,44.3,21,2.9,2.8,9.0,145.0,34.0,8.4,6,5,3,1,2026-07-03T05:38:52.959915+05:30
Latur,Maharashtra,18.4088,76.5604,23.4,90,0.0,935.4,1.35,55.1,19,3.0,2.5,5.0,129.0,40.0,2.1,3,5,3,1,2026-07-03T05:38:52.959922+05:30
Nanded,Maharashtra,19.1383,77.3091,25.4,83,0.0,963.8,0.65,46.1,27,3.4,3.0,7.0,132.0,36.0,3.4,7,5,3,1,2026-07-03T05:38:52.959930+05:30
Gulbarga,Karnataka,17.3297,76.8343,24.0,85,0.0,955.4,4.4,58.3,18,4.3,3.1,5.6,134.0,39.0,2.8,3,5,3,1,2026-07-03T05:38:52.959937+05:30
Bidar,Karnataka,17.9104,77.5199,22.6,96,0.1,931.1,1.45,58.7,21,3.9,3.2,6.0,120.0,38.0,2.1,6,5,3,1,2026-07-03T05:38:52.959943+05:30
Hospet,Karnataka,15.2689,76.3909,23.5,89,0.0,953.8,4.45,65.5,20,3.8,2.3,2.9,102.0,44.0,1.5,3,5,3,1,2026-07-03T05:38:52.959951+05:30
Tirupur,Tamil Nadu,11.1085,77.3411,23.6,89,0.0,974.5,7.5,61.9,33,10.6,9.1,13.5,116.0,26.0,3.6,3,5,7,1,2026-07-03T05:38:52.959957+05:30
Alappuzha,Kerala,9.4981,76.3388,25.1,93,0.3,1010.3,8.35,41.0,39,12.1,7.3,5.8,83.0,34.0,2.2,10,0,4,1,2026-07-03T05:38:52.959965+05:30
Munnar,Kerala,10.0889,77.0595,16.6,100,0.2,856.6,0.75,49.0,16,1.6,1.3,3.4,87.0,30.0,1.3,6,10,3,1,2026-07-03T05:38:52.959972+05:30
Silchar,Assam,24.8333,92.7789,25.7,97,0.2,1000.7,8.75,22.0,73,24.4,24.0,10.1,202.0,52.0,6.4,10,5,4,1,2026-07-03T05:38:52.959979+05:30
Dibrugarh,Assam,27.4728,94.912,26.9,96,0.0,991.3,8.85,15.5,51,18.6,18.0,13.9,208.0,35.0,1.4,7,5,7,1,2026-07-03T05:38:52.959986+05:30
