city,state,latitude,longitude,temp,humidity,rain,pressure,uv_index,wind_gusts,aqi,pm10,pm2_5,mosquito_risk,arthritis_risk,migraine_risk,frizz_risk,updated_at
Delhi,Delhi,28.6139,77.209,21.0,83,0.0,984.9,5.95,14.4,164,222.6,110.1,3,5,3,1,2026-03-07T03:02:48.559543+05:30
Mumbai,Maharashtra,19.076,72.8777,26.7,76,0.0,1008.4,7.5,25.6,105,29.7,25.8,7,0,4,1,2026-03-07T03:02:48.559580+05:30
Bangalore,Karnataka,12.9716,77.5946,20.4,72,0.0,910.0,9.2,23.0,110,39.7,38.3,3,5,7,0,2026-03-07T03:02:48.559595+05:30
Hyderabad,Telangana,17.385,78.4867,22.0,53,0.0,952.1,8.5,25.9,96,58.0,49.1,0,5,7,0,2026-03-07T03:02:48.559606+05:30
Chennai,Tamil Nadu,13.0827,80.2707,24.3,94,0.0,1006.4,8.9,36.4,77,29.8,24.2,3,5,4,1,2026-03-07T03:02:48.559614+05:30
Kolkata,West Bengal,22.5726,88.3639,22.6,95,0.0,1008.2,7.85,16.6,152,52.5,43.1,3,0,4,1,2026-03-07T03:02:48.559622+05:30
Pune,Maharashtra,18.5204,73.8567,19.8,67,0.0,947.6,8.05,25.2,93,56.0,54.7,3,5,7,0,2026-03-07T03:02:48.559634+05:30
Ahmedabad,Gujarat,23.0225,72.5714,21.6,52,0.0,1003.5,7.3,16.2,88,69.8,66.4,0,5,4,0,2026-03-07T03:02:48.559643+05:30
Jaipur,Rajasthan,26.9124,75.7873,24.0,35,0.0,961.2,6.75,17.6,89,84.1,38.6,0,5,7,0,2026-03-07T03:02:48.559651+05:30
Lucknow,Uttar Pradesh,26.8467,80.9462,21.5,76,0.0,995.5,6.45,16.2,164,102.4,79.6,3,5,7,1,2026-03-07T03:02:48.559658+05:30
Kanpur,Uttar Pradesh,26.4499,80.3319,21.0,81,0.0,993.6,6.5,13.3,167,105.9,72.2,3,5,7,1,2026-03-07T03:02:48.559665+05:30
Chandigarh,Chandigarh,30.7333,76.7794,20.2,80,0.0,970.7,5.9,22.3,143,71.7,61.7,3,5,3,1,2026-03-07T03:02:48.559672+05:30
Srinagar,Jammu and Kashmir,34.0837,74.7973,9.4,77,0.0,841.8,5.6,16.6,138,85.9,68.2,3,5,3,0,2026-03-07T03:02:48.559679+05:30
Jammu,Jammu and Kashmir,32.7266,74.857,19.7,80,0.0,974.5,5.55,13.0,128,45.8,41.1,3,5,3,1,2026-03-07T03:02:48.559686+05:30
Amritsar,Punjab,31.634,74.8723,20.0,77,0.0,982.3,6.2,17.6,158,69.2,66.4,3,5,7,0,2026-03-07T03:02:48.559692+05:30
Ludhiana,Punjab,30.901,75.8573,20.1,85,0.0,980.6,6.1,18.4,164,142.5,94.8,3,5,7,1,2026-03-07T03:02:48.559699+05:30
Jalandhar,Punjab,31.326,75.5762,19.4,88,0.0,981.5,5.9,19.4,162,116.2,95.5,3,10,3,1,2026-03-07T03:02:48.559708+05:30
Dehradun,Uttarakhand,30.6284,78.0322,12.9,100,0.0,830.3,6.2,26.6,103,54.5,44.4,3,10,7,0,2026-03-07T03:02:48.559715+05:30
Shimla,Himachal Pradesh,31.1048,77.1734,12.6,78,0.0,784.9,6.3,35.6,90,65.0,51.6,3,5,7,0,2026-03-07T03:02:48.559722+05:30
Manali,Himachal Pradesh,32.2396,77.1887,17.0,26,0.0,822.2,7.15,37.8,67,24.4,16.4,0,5,7,1,2026-03-07T03:02:48.559729+05:30
Gurgaon,Haryana,28.4595,77.0266,18.8,71,0.0,982.9,6.05,9.7,303,296.2,122.0,3,5,7,0,2026-03-07T03:02:48.559736+05:30
Noida,Uttar Pradesh,28.5355,77.391,20.4,85,0.0,986.5,5.95,13.7,303,296.2,122.0,3,5,3,1,2026-03-07T03:02:48.559743+05:30
Ghaziabad,Uttar Pradesh,28.6692,77.4538,20.1,88,0.0,984.7,5.95,14.0,171,153.7,104.5,3,5,3,1,2026-03-07T03:02:48.559749+05:30
Faridabad,Haryana,28.4089,77.3178,19.4,74,0.0,985.6,6.0,12.2,303,296.2,122.0,3,5,3,0,2026-03-07T03:02:48.559756+05:30
Meerut,Uttar Pradesh,28.9845,77.7064,20.2,92,0.0,983.5,5.8,16.2,171,153.7,104.5,3,5,3,1,2026-03-07T03:02:48.559762+05:30
Agra,Uttar Pradesh,27.1767,78.0081,19.1,74,0.0,989.6,6.3,13.3,192,272.9,84.3,3,5,7,0,2026-03-07T03:02:48.559768+05:30
Varanasi,Uttar Pradesh,25.3176,82.9739,20.2,89,0.0,999.3,7.15,19.4,169,168.1,142.0,3,5,7,1,2026-03-07T03:02:48.559778+05:30
Prayagraj,Uttar Pradesh,25.4358,81.8463,21.3,77,0.0,997.8,7.0,15.1,167,124.3,96.4,3,5,7,1,2026-03-07T03:02:48.559785+05:30
Gorakhpur,Uttar Pradesh,26.7606,83.3732,20.5,84,0.0,999.2,6.85,9.0,165,101.0,87.8,3,5,7,1,2026-03-07T03:02:48.559794+05:30
Bareilly,Uttar Pradesh,28.367,79.4304,19.8,86,0.0,989.1,6.15,11.5,165,91.0,77.8,3,10,7,1,2026-03-07T03:02:48.559801+05:30
Aligarh,Uttar Pradesh,27.8974,78.088,19.1,91,0.0,987.4,6.05,11.9,174,177.0,104.8,3,10,7,1,2026-03-07T03:02:48.559810+05:30
Moradabad,Uttar Pradesh,28.8386,78.7733,19.7,88,0.0,986.0,5.95,14.4,167,99.4,80.8,3,10,3,1,2026-03-07T03:02:48.559816+05:30
Saharanpur,Uttar Pradesh,29.9637,77.546,20.1,88,0.0,978.0,5.6,18.4,163,89.2,80.6,3,5,3,1,2026-03-07T03:02:48.559822+05:30
Jhansi,Uttar Pradesh,25.4484,78.5685,20.0,52,0.0,979.3,6.95,26.6,79,86.1,37.7,0,5,7,0,2026-03-07T03:02:51.781956+05:30
Surat,Gujarat,21.1702,72.8311,23.8,83,0.0,1007.5,7.2,25.2,138,71.2,69.6,3,5,4,1,2026-03-07T03:02:51.781982+05:30
Vadodara,Gujarat,22.3072,73.1812,23.8,62,0.0,1005.5,7.3,18.0,115,78.0,76.4,3,5,4,1,2026-03-07T03:02:51.781991+05:30
Rajkot,Gujarat,22.3039,70.8022,19.8,94,0.0,995.9,7.15,17.6,57,51.5,19.8,3,10,7,1,2026-03-07T03:02:51.781998+05:30
Thane,Maharashtra,19.2183,72.9781,23.8,78,0.0,1007.9,7.5,34.2,105,29.7,25.8,3,5,4,1,2026-03-07T03:02:51.782005+05:30
Nagpur,Maharashtra,21.1458,79.0882,22.6,44,0.0,973.0,7.85,18.7,61,29.5,18.5,0,5,7,0,2026-03-07T03:02:51.782013+05:30
Nashik,Maharashtra,19.9975,73.7898,21.8,56,0.0,945.5,7.65,31.3,84,43.0,42.0,0,5,7,0,2026-03-07T03:02:51.782020+05:30
Aurangabad,Maharashtra,19.8762,75.3433,21.9,48,0.0,943.5,8.2,22.0,74,40.9,37.8,0,5,7,0,2026-03-07T03:02:51.782026+05:30
Solapur,Maharashtra,17.6599,75.9064,22.4,57,0.0,955.7,8.4,16.2,66,26.4,22.8,0,5,7,0,2026-03-07T03:02:51.782032+05:30
Kolhapur,Maharashtra,16.705,74.2433,17.5,62,0.0,946.4,8.55,35.6,136,74.0,73.1,3,5,7,0,2026-03-07T03:02:51.782039+05:30
Goa,Goa,15.2993,74.124,25.0,92,0.0,997.3,8.6,31.7,152,58.9,55.8,7,5,7,1,2026-03-07T03:02:51.782047+05:30
Jodhpur,Rajasthan,26.2389,73.0243,22.4,47,0.0,984.6,7.0,17.6,62,68.0,19.9,0,5,7,0,2026-03-07T03:02:51.782054+05:30
Udaipur,Rajasthan,24.5854,73.7125,18.2,68,0.0,947.6,7.65,19.1,46,19.6,16.4,3,5,7,0,2026-03-07T03:02:51.782060+05:30
Kota,Rajasthan,25.2138,75.8648,19.0,61,0.0,979.7,7.05,13.7,66,49.1,34.0,3,5,7,0,2026-03-07T03:02:51.782066+05:30
Bikaner,Rajasthan,28.0229,73.3119,21.3,42,0.0,982.7,6.75,16.6,55,36.3,13.7,0,5,7,0,2026-03-07T03:02:51.782072+05:30
Ajmer,Rajasthan,26.4499,74.6399,21.2,40,0.0,955.7,7.0,18.4,52,23.3,19.0,0,5,7,0,2026-03-07T03:02:51.782078+05:30
Gwalior,Madhya Pradesh,26.2183,78.1828,19.8,66,0.0,984.7,6.65,19.4,99,147.6,49.5,3,5,7,0,2026-03-07T03:02:51.782084+05:30
Indore,Madhya Pradesh,22.7196,75.8577,18.2,66,0.0,948.2,7.6,17.6,68,31.8,30.2,3,5,7,0,2026-03-07T03:02:51.782090+05:30
Bhopal,Madhya Pradesh,23.2599,77.4126,20.9,46,0.0,953.8,7.45,19.8,76,40.6,34.8,0,5,7,0,2026-03-07T03:02:51.782097+05:30
Jabalpur,Madhya Pradesh,23.1815,79.9864,21.0,51,0.0,961.8,7.55,25.6,73,73.1,32.2,0,5,7,0,2026-03-07T03:02:51.782102+05:30
Ujjain,Madhya Pradesh,23.1765,75.7885,19.4,60,0.0,954.2,7.5,14.0,72,52.5,51.2,0,5,7,0,2026-03-07T03:02:51.782109+05:30
Visakhapatnam,Andhra Pradesh,17.6868,83.2185,25.4,93,0.0,1003.8,8.0,37.4,117,41.6,37.6,7,5,4,1,2026-03-07T03:02:51.782115+05:30
Vijayawada,Andhra Pradesh,16.5062,80.648,23.6,90,0.0,1001.5,8.55,27.7,108,45.5,43.0,3,5,4,1,2026-03-07T03:02:51.782122+05:30
Guntur,Andhra Pradesh,16.3067,80.4365,23.6,85,0.0,1002.6,8.6,32.4,96,39.2,37.5,3,5,4,1,2026-03-07T03:02:51.782129+05:30
Nellore,Andhra Pradesh,14.4426,79.9865,23.5,88,0.0,1004.5,8.75,34.6,84,33.4,32.0,3,5,4,1,2026-03-07T03:02:51.782135+05:30
Kurnool,Andhra Pradesh,15.8281,78.0373,25.3,42,0.0,975.4,8.55,24.8,65,21.9,16.9,4,5,7,0,2026-03-07T03:02:51.782143+05:30
Kakinada,Andhra Pradesh,16.9891,82.2475,24.0,98,0.0,1007.2,8.5,31.3,92,37.0,31.5,3,5,4,1,2026-03-07T03:02:51.782149+05:30
Tirupati,Andhra Pradesh,13.6288,79.4192,22.0,80,0.0,990.9,8.9,29.5,110,60.3,59.1,3,5,7,1,2026-03-07T03:02:51.782155+05:30
Warangal,Telangana,17.9689,79.5941,24.9,46,0.0,977.1,8.3,22.3,78,32.5,26.6,0,5,7,0,2026-03-07T03:02:51.782160+05:30
Nizamabad,Telangana,18.6725,78.0941,20.6,62,0.0,963.6,8.2,23.4,88,46.1,35.7,3,5,7,0,2026-03-07T03:02:51.782166+05:30
Mysore,Karnataka,12.2958,76.6396,21.6,93,0.0,927.0,9.2,40.0,120,33.9,33.4,3,5,7,1,2026-03-07T03:02:51.782172+05:30
Mangalore,Karnataka,12.9141,74.856,28.4,79,0.0,1005.8,8.85,25.9,127,58.8,53.4,7,5,4,1,2026-03-07T03:02:51.782178+05:30
Hubli-Dharwad,Karnataka,15.3647,75.124,19.7,89,0.0,939.3,8.8,25.9,95,54.6,53.4,3,10,7,1,2026-03-07T03:02:51.782185+05:30
Belgaum,Karnataka,15.8497,74.4977,20.7,67,0.0,924.2,8.8,38.5,105,55.4,53.6,3,5,7,0,2026-03-07T03:02:55.018676+05:30
Coimbatore,Tamil Nadu,11.0168,76.9558,23.1,92,0.0,960.8,9.2,39.6,105,26.5,25.6,3,5,7,1,2026-03-07T03:02:55.018703+05:30
Madurai,Tamil Nadu,9.9252,78.1198,24.0,88,0.0,991.9,9.15,30.2,88,33.5,30.5,3,5,7,1,2026-03-07T03:02:55.018712+05:30
Trichy,Tamil Nadu,10.7905,78.7047,23.9,82,0.0,998.8,9.05,26.3,83,28.5,25.7,3,5,7,1,2026-03-07T03:02:55.018720+05:30
Salem,Tamil Nadu,11.6643,78.146,25.4,78,0.0,976.5,9.1,19.4,103,32.9,31.5,7,5,7,1,2026-03-07T03:02:55.018726+05:30
Tirunelveli,Tamil Nadu,8.7139,77.7567,23.9,80,0.0,1002.0,9.15,46.8,95,33.8,32.9,3,5,4,1,2026-03-07T03:02:55.018733+05:30
Vellore,Tamil Nadu,12.9165,79.1325,22.3,84,0.0,983.8,9.0,38.5,122,65.7,64.0,3,5,7,1,2026-03-07T03:02:55.018739+05:30
Erode,Tamil Nadu,11.341,77.7172,25.2,81,0.0,987.9,9.1,20.5,97,39.0,37.7,7,5,7,1,2026-03-07T03:02:55.018745+05:30
Kochi,Kerala,9.9312,76.2673,26.9,84,0.0,1007.7,8.65,29.2,129,42.3,41.2,7,5,4,1,2026-03-07T03:02:55.018752+05:30
Thiruvananthapuram,Kerala,8.5241,76.9366,26.7,85,0.0,1007.0,9.05,33.1,82,29.6,26.7,7,5,4,1,2026-03-07T03:02:55.018758+05:30
Kozhikode,Kerala,11.2588,75.7804,27.8,80,0.0,1006.6,8.9,26.3,108,41.0,37.8,7,5,4,1,2026-03-07T03:02:55.018764+05:30
Thrissur,Kerala,10.5276,76.2144,25.9,90,0.0,1006.0,8.95,31.7,120,46.2,44.7,7,5,4,1,2026-03-07T03:02:55.018771+05:30
Kannur,Kerala,11.8745,75.3704,27.4,83,0.0,1006.0,8.9,31.3,117,53.8,51.2,7,5,4,1,2026-03-07T03:02:55.018777+05:30
Patna,Bihar,25.5941,85.1376,24.1,74,0.0,1002.4,7.3,22.0,163,73.6,68.7,3,5,4,1,2026-03-07T03:02:55.018783+05:30
Gaya,Bihar,24.7914,85.0002,21.5,83,0.0,995.4,7.4,24.5,157,61.9,56.7,3,5,7,1,2026-03-07T03:02:55.018789+05:30
Muzaffarpur,Bihar,26.1209,85.3647,21.6,77,0.0,1002.4,7.25,16.2,165,93.1,86.6,3,5,4,1,2026-03-07T03:02:55.018795+05:30
Bhagalpur,Bihar,25.2425,87.0117,21.7,82,0.0,1003.3,7.3,14.8,159,85.9,75.0,3,5,4,1,2026-03-07T03:02:55.018801+05:30
Ranchi,Jharkhand,23.3441,85.3096,20.0,83,0.0,938.5,8.0,26.6,151,59.5,43.1,3,5,7,1,2026-03-07T03:02:55.018807+05:30
Jamshedpur,Jharkhand,22.8046,86.2029,23.8,84,0.0,992.6,7.9,26.3,144,57.7,40.4,3,5,7,1,2026-03-07T03:02:55.018813+05:30
Dhanbad,Jharkhand,23.7957,86.4304,24.1,70,0.0,982.0,7.8,19.8,166,86.6,73.8,3,5,7,1,2026-03-07T03:02:55.018819+05:30
Bokaro,Jharkhand,23.6693,86.1511,23.3,75,0.0,986.0,7.8,18.7,169,94.3,80.3,3,5,7,1,2026-03-07T03:02:55.018825+05:30
Bhubaneswar,Odisha,20.2961,85.8245,24.6,91,0.0,1004.0,8.25,31.7,134,54.9,49.5,3,5,4,1,2026-03-07T03:02:55.018831+05:30
Cuttack,Odisha,20.4625,85.8828,24.7,90,0.0,1006.0,8.25,34.6,134,54.9,49.5,3,5,4,1,2026-03-07T03:02:55.018837+05:30
Rourkela,Odisha,22.2604,84.8536,24.3,79,0.0,986.0,7.85,17.6,151,62.2,53.2,3,5,7,1,2026-03-07T03:02:55.018843+05:30
Raipur,Chhattisgarh,21.2514,81.6296,23.0,49,0.0,974.6,7.95,20.9,112,101.0,66.8,0,5,7,0,2026-03-07T03:02:55.018849+05:30
Bhilai,Chhattisgarh,21.1938,81.3509,21.9,50,0.0,974.8,7.95,19.8,98,68.0,44.0,0,5,7,0,2026-03-07T03:02:55.018855+05:30
Guwahati,Assam,26.1158,91.7086,21.3,83,0.0,1003.9,7.25,17.6,152,54.7,50.6,3,5,4,1,2026-03-07T03:02:55.018861+05:30
Agartala,Tripura,23.8315,91.2868,20.6,78,0.0,1008.8,7.6,18.4,158,89.2,82.7,3,0,4,1,2026-03-07T03:02:55.018867+05:30
Shillong,Meghalaya,25.5788,91.8933,11.1,67,0.0,856.1,7.65,45.4,116,44.0,39.8,3,5,7,0,2026-03-07T03:02:55.018874+05:30
Imphal,Manipur,24.817,93.9368,18.7,62,0.0,925.6,7.85,34.9,157,103.4,99.0,3,5,7,0,2026-03-07T03:02:55.018880+05:30
Aizawl,Mizoram,23.7271,92.7176,18.6,61,0.0,894.5,7.8,31.0,182,146.2,138.3,3,5,7,0,2026-03-07T03:02:55.018886+05:30
Kohima,Nagaland,25.6701,94.1077,15.2,67,0.0,856.5,7.7,50.8,161,95.5,90.6,3,5,7,0,2026-03-07T03:02:55.018892+05:30
Gangtok,Sikkim,27.3314,88.6138,14.1,87,0.0,838.6,7.4,16.2,115,57.6,52.2,3,10,7,0,2026-03-07T03:02:55.018902+05:30
Siliguri,West Bengal,26.7271,88.3953,21.2,67,0.0,996.6,7.25,18.4,148,67.8,62.6,3,5,7,0,2026-03-07T03:02:58.249753+05:30
Durgapur,West Bengal,23.5204,87.3119,23.3,85,0.0,997.2,7.75,23.4,161,78.7,67.1,3,5,7,1,2026-03-07T03:02:58.249787+05:30
Asansol,West Bengal,23.6739,86.9524,23.8,80,0.0,995.9,7.75,18.7,160,72.4,60.3,3,5,7,1,2026-03-07T03:02:58.249801+05:30
Pondicherry,Puducherry,11.9139,79.8145,23.0,94,0.0,1007.7,8.95,31.7,73,26.1,20.4,3,5,4,1,2026-03-07T03:02:58.249812+05:30
Port Blair,Andaman and Nicobar Islands,11.6234,92.7265,26.9,73,0.0,1008.3,8.9,13.7,75,54.1,32.8,7,0,4,1,2026-03-07T03:02:58.249824+05:30
Haridwar,Uttarakhand,29.9457,78.1642,20.8,87,0.0,976.7,5.75,19.1,157,95.0,81.7,3,5,3,1,2026-03-07T03:02:58.249834+05:30
Rishikesh,Uttarakhand,30.0869,78.2676,20.3,84,0.0,969.5,5.8,22.3,155,109.0,83.6,3,5,3,1,2026-03-07T03:02:58.249845+05:30
Nainital,Uttarakhand,29.3919,79.4542,15.8,70,0.0,806.4,6.6,54.0,159,92.4,72.9,3,5,7,0,2026-03-07T03:02:58.249856+05:30
Mussoorie,Uttarakhand,30.4599,78.0664,14.7,89,0.0,803.3,6.1,39.2,154,115.9,84.8,3,10,7,0,2026-03-07T03:02:58.249867+05:30
Dharamshala,Himachal Pradesh,32.219,76.3234,20.7,35,0.0,870.9,6.4,23.8,55,23.5,14.2,0,5,7,0,2026-03-07T03:02:58.249878+05:30
Dalhousie,Himachal Pradesh,32.5387,75.971,17.7,40,0.0,805.4,6.35,20.2,93,38.8,32.8,0,5,7,0,2026-03-07T03:02:58.249889+05:30
Patiala,Punjab,30.3398,76.3869,19.5,95,0.0,980.1,5.75,19.4,163,156.9,84.5,3,10,3,1,2026-03-07T03:02:58.249899+05:30
Bhatinda,Punjab,30.211,74.9455,20.3,72,0.0,984.9,6.45,16.2,138,91.0,46.7,3,5,7,0,2026-03-07T03:02:58.249909+05:30
Rohtak,Haryana,28.8955,76.6066,17.8,94,0.0,983.1,5.95,11.5,162,268.2,108.5,3,10,3,1,2026-03-07T03:02:58.249919+05:30
Panipat,Haryana,29.3909,76.9635,19.5,93,0.0,982.1,5.75,14.8,281,255.2,104.3,3,10,3,1,2026-03-07T03:02:58.249929+05:30
Mathura,Uttar Pradesh,27.4924,77.6737,17.6,90,0.0,988.7,6.2,14.0,162,189.1,97.6,3,10,7,0,2026-03-07T03:02:58.249939+05:30
Vrindavan,Uttar Pradesh,27.5823,77.7027,18.6,91,0.0,989.2,6.2,13.0,162,189.1,97.6,3,10,7,1,2026-03-07T03:02:58.249949+05:30
Ayodhya,Uttar Pradesh,26.7922,82.1998,20.7,83,0.0,997.3,6.65,15.8,169,130.4,110.1,3,5,7,1,2026-03-07T03:02:58.249959+05:30
Ratlam,Madhya Pradesh,23.3315,75.0367,22.0,57,0.0,955.3,7.45,15.5,68,38.1,36.7,0,5,7,0,2026-03-07T03:02:58.249968+05:30
Sagar,Madhya Pradesh,23.8388,78.7378,19.9,62,0.0,950.5,7.4,23.8,62,66.8,28.2,3,5,7,0,2026-03-07T03:02:58.249977+05:30
Satna,Madhya Pradesh,24.6005,80.8322,19.7,86,0.0,972.5,7.4,22.3,133,116.6,73.8,3,10,7,1,2026-03-07T03:02:58.249987+05:30
Akola,Maharashtra,20.7002,77.0082,21.7,66,0.0,974.9,7.9,17.6,77,31.9,28.3,3,5,7,0,2026-03-07T03:02:58.249999+05:30
Amravati,Maharashtra,20.9374,77.7796,20.4,64,0.0,966.9,7.85,17.6,77,39.1,33.2,3,5,7,0,2026-03-07T03:02:58.250012+05:30
Latur,Maharashtra,18.4088,76.5604,23.2,40,0.0,938.8,8.35,26.3,73,37.3,30.3,0,5,7,0,2026-03-07T03:02:58.250024+05:30
Nanded,Maharashtra,19.1383,77.3091,22.7,46,0.0,967.9,8.1,16.9,91,60.1,52.0,0,5,7,0,2026-03-07T03:02:58.250036+05:30
Gulbarga,Karnataka,17.3297,76.8343,25.4,47,0.0,957.7,8.45,18.7,66,27.0,21.3,4,5,7,0,2026-03-07T03:02:58.250043+05:30
Bidar,Karnataka,17.9104,77.5199,23.8,43,0.0,934.4,8.35,20.2,74,34.1,23.1,0,5,7,0,2026-03-07T03:02:58.250049+05:30
Hospet,Karnataka,15.2689,76.3909,23.4,78,0.0,954.7,8.75,18.0,91,31.0,28.7,3,5,7,1,2026-03-07T03:02:58.250055+05:30
Tirupur,Tamil Nadu,11.1085,77.3411,24.3,89,0.0,974.1,9.2,31.3,121,37.8,36.8,3,5,7,1,2026-03-07T03:02:58.250062+05:30
Alappuzha,Kerala,9.4981,76.3388,26.4,84,0.0,1007.9,8.9,26.3,102,41.9,39.2,7,5,4,1,2026-03-07T03:02:58.250068+05:30
Munnar,Kerala,10.0889,77.0595,19.0,83,0.0,854.7,9.5,31.3,99,30.4,28.9,3,10,7,1,2026-03-07T03:02:58.250075+05:30
Silchar,Assam,24.8333,92.7789,23.9,78,0.0,1007.6,7.6,20.5,171,117.1,112.2,3,5,4,1,2026-03-07T03:02:58.250082+05:30
Dibrugarh,Assam,27.4728,94.912,23.2,78,0.0,997.9,7.2,13.3,93,33.3,31.4,3,5,7,1,2026-03-07T03:02:58.250088+05:30
