city,state,latitude,longitude,temp,humidity,rain,pressure,uv_index,wind_gusts,aqi,pm10,pm2_5,no2,co,o3,so2,mosquito_risk,arthritis_risk,migraine_risk,frizz_risk,updated_at
Delhi,Delhi,28.6139,77.209,27.7,84,0.0,976.1,5.8,37.4,95,27.3,26.9,30.3,841.0,77.0,22.1,7,5,3,1,2026-07-23T22:07:30.502162+05:30
Mumbai,Maharashtra,19.076,72.8777,27.5,84,0.0,1003.8,1.4,69.8,54,34.9,15.7,4.5,140.0,43.0,3.4,7,5,0,1,2026-07-23T22:07:30.502215+05:30
Bangalore,Karnataka,12.9716,77.5946,21.9,83,0.0,912.4,9.1,49.0,36,7.2,5.8,13.9,319.0,36.0,4.2,3,5,7,1,2026-07-23T22:07:30.502232+05:30
Hyderabad,Telangana,17.385,78.4867,25.8,66,0.0,951.3,8.7,60.1,54,48.5,26.4,6.8,270.0,56.0,3.7,7,5,7,1,2026-07-23T22:07:30.502242+05:30
Chennai,Tamil Nadu,13.0827,80.2707,28.9,86,0.0,1006.8,8.9,41.0,75,25.4,17.8,8.3,192.0,85.0,6.0,7,5,4,1,2026-07-23T22:07:30.502251+05:30
Kolkata,West Bengal,22.5726,88.3639,26.1,95,0.2,1002.8,4.5,39.2,67,25.9,21.5,11.0,371.0,69.0,9.9,10,5,0,1,2026-07-23T22:07:30.502260+05:30
Pune,Maharashtra,18.5204,73.8567,23.0,90,0.1,943.6,1.9,60.8,38,8.1,4.2,5.2,130.0,40.0,3.1,6,5,3,1,2026-07-23T22:07:30.502268+05:30
Ahmedabad,Gujarat,23.0225,72.5714,25.5,97,0.1,992.0,2.3,34.6,60,28.9,17.3,15.7,189.0,41.0,3.8,10,5,3,1,2026-07-23T22:07:30.502280+05:30
Jaipur,Rajasthan,26.9124,75.7873,26.6,88,0.0,951.7,7.6,30.6,79,21.2,20.3,15.7,400.0,96.0,8.0,7,5,7,1,2026-07-23T22:07:30.502287+05:30
Lucknow,Uttar Pradesh,26.8467,80.9462,27.4,88,0.0,987.9,6.35,43.9,69,20.5,20.5,10.8,314.0,92.0,9.9,7,5,7,1,2026-07-23T22:07:30.502297+05:30
Kanpur,Uttar Pradesh,26.4499,80.3319,26.2,95,0.3,985.8,5.5,45.7,67,17.2,17.2,12.1,256.0,81.0,9.2,10,5,3,1,2026-07-23T22:07:30.502318+05:30
Chandigarh,Chandigarh,30.7333,76.7794,28.0,85,0.0,963.0,6.75,42.8,82,60.8,60.3,60.2,1040.0,49.0,14.2,7,5,7,1,2026-07-23T22:07:30.502326+05:30
Srinagar,Jammu and Kashmir,34.0837,74.7973,19.2,88,0.0,838.8,8.85,26.6,63,28.9,28.4,41.5,1106.0,15.0,4.0,3,10,7,1,2026-07-23T22:07:30.502334+05:30
Jammu,Jammu and Kashmir,32.7266,74.857,25.4,94,0.0,966.5,7.15,38.5,74,39.9,39.3,56.2,959.0,38.0,7.8,7,5,7,1,2026-07-23T22:07:30.502342+05:30
Amritsar,Punjab,31.634,74.8723,27.7,88,0.0,974.6,1.95,30.6,84,61.2,60.5,46.2,678.0,24.0,10.4,7,5,3,1,2026-07-23T22:07:30.502349+05:30
Ludhiana,Punjab,30.901,75.8573,27.6,92,0.0,972.3,6.85,36.0,132,76.6,76.1,50.9,902.0,48.0,19.0,7,5,7,1,2026-07-23T22:07:30.502356+05:30
Jalandhar,Punjab,31.326,75.5762,27.4,96,0.0,973.6,7.3,32.0,110,65.7,65.2,47.2,1314.0,29.0,9.8,7,5,7,1,2026-07-23T22:07:30.502363+05:30
Dehradun,Uttarakhand,30.6284,78.0322,18.4,97,0.0,827.4,7.35,25.6,46,13.2,13.1,33.2,184.0,40.0,1.4,3,10,7,1,2026-07-23T22:07:30.502370+05:30
Shimla,Himachal Pradesh,31.1048,77.1734,15.9,94,0.0,781.2,6.15,24.1,50,15.4,15.4,26.4,475.0,46.0,0.9,3,10,7,0,2026-07-23T22:07:30.502378+05:30
Manali,Himachal Pradesh,32.2396,77.1887,19.1,96,0.1,817.5,6.4,22.3,29,8.2,8.1,39.5,200.0,17.0,0.4,6,10,7,1,2026-07-23T22:07:30.502388+05:30
Gurgaon,Haryana,28.4595,77.0266,27.1,90,0.0,974.4,6.15,42.5,95,26.0,25.4,29.3,606.0,82.0,20.2,7,5,7,1,2026-07-23T22:07:30.502395+05:30
Noida,Uttar Pradesh,28.5355,77.391,27.8,85,0.0,977.7,6.85,39.6,95,26.0,25.4,29.3,556.0,82.0,20.2,7,5,7,1,2026-07-23T22:07:30.502402+05:30
Ghaziabad,Uttar Pradesh,28.6692,77.4538,28.2,81,0.0,976.1,6.95,42.8,81,21.0,20.9,12.9,359.0,89.0,7.6,7,5,7,1,2026-07-23T22:07:30.502408+05:30
Faridabad,Haryana,28.4089,77.3178,27.6,88,0.0,976.8,6.8,42.8,95,26.0,25.4,29.3,479.0,82.0,20.2,7,5,7,1,2026-07-23T22:07:30.502418+05:30
Meerut,Uttar Pradesh,28.9845,77.7064,28.7,79,0.0,975.1,7.35,47.9,81,21.0,20.9,12.9,303.0,89.0,7.6,7,5,7,1,2026-07-23T22:07:30.502426+05:30
Agra,Uttar Pradesh,27.1767,78.0081,26.8,94,0.0,980.6,5.75,37.1,73,19.6,19.6,16.8,369.0,84.0,6.8,7,5,3,1,2026-07-23T22:07:30.502433+05:30
Varanasi,Uttar Pradesh,25.3176,82.9739,28.3,86,0.0,992.6,7.35,36.7,70,30.7,30.6,33.8,930.0,28.0,21.5,7,5,7,1,2026-07-23T22:07:30.502441+05:30
Prayagraj,Uttar Pradesh,25.4358,81.8463,27.4,94,0.0,990.8,7.35,33.1,67,20.9,20.9,19.9,274.0,50.0,11.8,7,5,7,1,2026-07-23T22:07:30.502448+05:30
Gorakhpur,Uttar Pradesh,26.7606,83.3732,26.9,91,0.0,993.0,6.6,47.2,68,24.6,24.6,11.5,387.0,93.0,8.7,7,5,7,1,2026-07-23T22:07:30.502455+05:30
Bareilly,Uttar Pradesh,28.367,79.4304,28.6,79,0.0,981.2,5.45,46.4,64,17.3,17.2,10.7,296.0,76.0,4.5,7,5,3,1,2026-07-23T22:07:30.502464+05:30
Aligarh,Uttar Pradesh,27.8974,78.088,27.6,87,0.1,978.7,6.55,43.6,89,23.0,22.9,13.0,338.0,98.0,12.6,10,5,7,1,2026-07-23T22:07:30.502471+05:30
Moradabad,Uttar Pradesh,28.8386,78.7733,28.8,77,0.0,977.8,6.75,47.9,63,17.7,17.6,11.0,288.0,80.0,6.2,7,5,7,1,2026-07-23T22:07:30.502478+05:30
Saharanpur,Uttar Pradesh,29.9637,77.546,28.6,79,0.0,970.0,7.15,47.5,70,22.5,22.4,20.3,444.0,54.0,6.3,7,5,7,1,2026-07-23T22:07:30.502483+05:30
Jhansi,Uttar Pradesh,25.4484,78.5685,27.1,93,0.0,970.5,6.55,36.4,62,8.3,8.2,8.6,220.0,84.0,3.8,7,5,7,1,2026-07-23T22:07:33.792256+05:30
Surat,Gujarat,21.1702,72.8311,26.7,94,0.2,998.5,0.35,53.6,61,14.6,9.8,12.1,227.0,33.0,18.1,10,5,3,1,2026-07-23T22:07:33.792292+05:30
Vadodara,Gujarat,22.3072,73.1812,26.1,95,1.6,994.7,0.8,63.4,55,15.7,12.0,20.7,430.0,33.0,6.3,10,5,3,1,2026-07-23T22:07:33.792336+05:30
Rajkot,Gujarat,22.3039,70.8022,25.9,96,0.0,985.7,0.8,37.8,58,34.5,15.6,6.0,120.0,41.0,5.3,7,5,3,1,2026-07-23T22:07:33.792346+05:30
Thane,Maharashtra,19.2183,72.9781,25.3,94,0.1,1003.1,1.15,52.2,54,34.9,15.7,4.5,159.0,43.0,3.4,10,5,0,1,2026-07-23T22:07:33.792353+05:30
Nagpur,Maharashtra,21.1458,79.0882,26.6,74,0.0,968.4,4.3,54.0,53,27.8,20.4,10.3,170.0,52.0,9.9,7,5,3,1,2026-07-23T22:07:33.792361+05:30
Nashik,Maharashtra,19.9975,73.7898,23.0,95,0.1,939.2,2.35,73.4,17,10.5,5.4,4.5,120.0,41.0,2.3,6,5,3,1,2026-07-23T22:07:33.792367+05:30
Aurangabad,Maharashtra,19.8762,75.3433,23.0,95,0.1,938.9,6.2,67.7,22,5.3,3.3,7.5,148.0,37.0,6.1,6,5,7,1,2026-07-23T22:07:33.792375+05:30
Solapur,Maharashtra,17.6599,75.9064,25.2,77,0.0,955.0,4.9,66.6,62,23.3,12.7,4.3,125.0,43.0,1.9,7,5,3,1,2026-07-23T22:07:33.792382+05:30
Kolhapur,Maharashtra,16.705,74.2433,22.4,95,0.0,945.8,3.55,58.7,63,36.1,17.5,4.5,128.0,48.0,1.7,3,5,3,1,2026-07-23T22:07:33.792388+05:30
Goa,Goa,15.2993,74.124,24.5,98,0.2,998.1,5.3,38.2,80,130.4,43.4,2.5,257.0,56.0,0.9,6,5,3,1,2026-07-23T22:07:33.792395+05:30
Jodhpur,Rajasthan,26.2389,73.0243,28.1,94,0.0,973.4,8.15,27.0,64,12.0,11.6,14.9,348.0,78.0,2.4,7,5,7,1,2026-07-23T22:07:33.792401+05:30
Udaipur,Rajasthan,24.5854,73.7125,24.4,97,0.0,937.0,8.75,27.0,42,8.4,7.9,9.4,277.0,68.0,2.5,3,5,7,1,2026-07-23T22:07:33.792408+05:30
Kota,Rajasthan,25.2138,75.8648,26.3,95,0.3,969.8,7.45,22.3,71,15.4,15.3,14.8,455.0,71.0,8.2,10,5,7,1,2026-07-23T22:07:33.792416+05:30
Bikaner,Rajasthan,28.0229,73.3119,29.6,81,0.0,972.8,7.25,38.2,92,17.9,17.7,5.4,380.0,118.0,9.5,7,5,7,1,2026-07-23T22:07:33.792422+05:30
Ajmer,Rajasthan,26.4499,74.6399,25.5,97,0.0,945.9,7.15,29.9,73,16.4,15.5,11.3,364.0,91.0,3.7,7,5,7,1,2026-07-23T22:07:33.792429+05:30
Gwalior,Madhya Pradesh,26.2183,78.1828,26.6,94,0.1,975.7,6.45,25.9,66,13.1,13.1,8.3,317.0,92.0,5.2,10,5,7,1,2026-07-23T22:07:33.792436+05:30
Indore,Madhya Pradesh,22.7196,75.8577,24.2,91,0.0,939.8,7.0,34.9,38,11.2,11.1,15.0,321.0,47.0,7.6,3,5,7,1,2026-07-23T22:07:33.792443+05:30
Bhopal,Madhya Pradesh,23.2599,77.4126,25.1,87,0.0,946.2,4.8,49.0,33,7.7,7.3,7.4,225.0,48.0,4.9,7,5,3,1,2026-07-23T22:07:33.792450+05:30
Jabalpur,Madhya Pradesh,23.1815,79.9864,24.5,87,0.0,956.0,2.5,32.8,35,12.8,11.3,8.1,154.0,50.0,6.0,3,5,3,1,2026-07-23T22:07:33.792456+05:30
Ujjain,Madhya Pradesh,23.1765,75.7885,24.9,89,0.0,945.1,5.75,33.8,40,21.2,20.7,17.9,384.0,35.0,6.2,3,5,3,1,2026-07-23T22:07:33.792463+05:30
Visakhapatnam,Andhra Pradesh,17.6868,83.2185,28.3,81,0.0,1001.7,6.65,48.2,72,27.2,20.1,16.2,249.0,69.0,27.9,7,5,4,1,2026-07-23T22:07:33.792469+05:30
Vijayawada,Andhra Pradesh,16.5062,80.648,28.8,79,0.0,1001.2,7.0,41.4,59,23.3,18.2,7.5,306.0,92.0,5.5,7,5,4,1,2026-07-23T22:07:33.792476+05:30
Guntur,Andhra Pradesh,16.3067,80.4365,29.7,75,0.0,1002.5,8.2,49.7,57,21.4,17.3,8.4,262.0,90.0,4.7,7,5,4,1,2026-07-23T22:07:33.792483+05:30
Nellore,Andhra Pradesh,14.4426,79.9865,28.3,90,0.0,1005.7,8.95,40.7,58,24.2,17.3,8.2,212.0,83.0,6.2,7,5,4,1,2026-07-23T22:07:33.792490+05:30
Kurnool,Andhra Pradesh,15.8281,78.0373,28.5,63,0.0,976.2,7.3,51.5,51,39.8,21.1,6.1,141.0,56.0,2.6,7,5,7,1,2026-07-23T22:07:33.792498+05:30
Kakinada,Andhra Pradesh,16.9891,82.2475,27.3,84,0.1,1006.1,8.1,49.7,66,29.9,20.7,3.7,216.0,103.0,3.2,10,5,4,1,2026-07-23T22:07:33.792505+05:30
Tirupati,Andhra Pradesh,13.6288,79.4192,26.1,86,0.0,991.5,8.8,37.1,59,26.1,19.5,20.5,389.0,47.0,4.1,7,5,7,1,2026-07-23T22:07:33.792512+05:30
Warangal,Telangana,17.9689,79.5941,26.7,69,0.0,976.4,8.6,53.6,59,41.3,23.6,6.3,209.0,54.0,3.2,7,5,7,1,2026-07-23T22:07:33.792518+05:30
Nizamabad,Telangana,18.6725,78.0941,26.3,69,0.0,961.8,6.9,58.3,59,22.2,14.9,5.4,142.0,49.0,1.6,7,5,7,1,2026-07-23T22:07:33.792525+05:30
Mysore,Karnataka,12.2958,76.6396,22.2,85,0.0,929.7,9.0,50.8,27,4.8,4.0,8.0,149.0,35.0,2.0,3,5,7,1,2026-07-23T22:07:33.792531+05:30
Mangalore,Karnataka,12.9141,74.856,24.8,95,0.3,1008.8,8.75,39.6,50,29.2,14.9,12.4,242.0,23.0,3.4,6,0,4,1,2026-07-23T22:07:33.792538+05:30
Hubli-Dharwad,Karnataka,15.3647,75.124,22.0,96,0.0,940.1,5.8,59.4,52,58.2,25.8,5.9,123.0,38.0,1.3,3,5,3,1,2026-07-23T22:07:33.792544+05:30
Belgaum,Karnataka,15.8497,74.4977,20.8,96,0.0,924.3,3.75,53.6,61,68.5,29.0,3.8,121.0,58.0,1.6,3,5,3,1,2026-07-23T22:07:37.080203+05:30
Coimbatore,Tamil Nadu,11.0168,76.9558,24.5,83,0.0,962.6,8.95,54.7,37,8.9,7.2,8.7,199.0,37.0,3.3,3,5,7,1,2026-07-23T22:07:37.080239+05:30
Madurai,Tamil Nadu,9.9252,78.1198,30.4,63,0.0,993.5,8.7,28.1,62,33.2,21.3,23.1,198.0,47.0,6.5,3,5,7,1,2026-07-23T22:07:37.080250+05:30
Trichy,Tamil Nadu,10.7905,78.7047,29.1,71,0.0,1000.5,7.75,42.1,57,19.4,15.3,12.2,185.0,67.0,5.3,7,5,4,1,2026-07-23T22:07:37.080259+05:30
Salem,Tamil Nadu,11.6643,78.146,27.9,69,0.0,978.0,8.75,22.3,67,16.5,11.7,13.1,468.0,53.0,6.1,7,5,7,1,2026-07-23T22:07:37.080267+05:30
Tirunelveli,Tamil Nadu,8.7139,77.7567,30.0,56,0.0,1004.2,8.3,43.2,38,10.5,7.4,5.9,138.0,42.0,2.1,4,5,4,1,2026-07-23T22:07:37.080274+05:30
Vellore,Tamil Nadu,12.9165,79.1325,27.3,80,0.0,984.4,9.0,36.7,64,29.6,21.5,18.6,305.0,49.0,6.5,7,5,7,1,2026-07-23T22:07:37.080282+05:30
Erode,Tamil Nadu,11.341,77.7172,28.0,69,0.0,989.7,8.25,35.6,55,13.2,10.2,13.0,186.0,41.0,3.6,7,5,7,1,2026-07-23T22:07:37.080290+05:30
Kochi,Kerala,9.9312,76.2673,26.3,92,0.0,1011.3,8.65,31.3,54,21.6,17.8,22.5,197.0,18.0,5.6,7,0,4,1,2026-07-23T22:07:37.080297+05:30
Thiruvananthapuram,Kerala,8.5241,76.9366,26.0,92,0.0,1010.2,8.0,41.8,50,14.7,8.9,4.7,133.0,43.0,1.9,7,0,4,1,2026-07-23T22:07:37.080322+05:30
Kozhikode,Kerala,11.2588,75.7804,23.4,99,0.0,1010.5,8.65,37.8,36,10.3,5.6,2.4,310.0,44.0,1.3,3,0,4,1,2026-07-23T22:07:37.080329+05:30
Thrissur,Kerala,10.5276,76.2144,25.5,94,0.0,1009.7,8.35,33.1,54,16.3,13.1,12.3,222.0,27.0,3.9,7,0,4,1,2026-07-23T22:07:37.080337+05:30
Kannur,Kerala,11.8745,75.3704,24.2,97,0.0,1009.4,8.8,40.0,42,11.6,8.3,12.9,323.0,21.0,2.3,3,0,4,1,2026-07-23T22:07:37.080345+05:30
Patna,Bihar,25.5941,85.1376,27.2,92,0.0,996.4,6.1,37.1,70,25.0,25.0,18.3,409.0,74.0,17.4,7,5,7,1,2026-07-23T22:07:37.080352+05:30
Gaya,Bihar,24.7914,85.0002,26.4,96,0.2,989.7,8.3,24.5,60,23.9,23.9,19.9,384.0,42.0,12.4,10,5,7,1,2026-07-23T22:07:37.080359+05:30
Muzaffarpur,Bihar,26.1209,85.3647,27.3,93,0.0,996.8,7.35,44.6,69,25.3,25.3,17.0,331.0,78.0,15.0,7,5,7,1,2026-07-23T22:07:37.080365+05:30
Bhagalpur,Bihar,25.2425,87.0117,26.6,97,0.1,997.6,7.55,33.1,62,26.4,26.3,19.5,293.0,56.0,15.2,10,5,7,1,2026-07-23T22:07:37.080372+05:30
Ranchi,Jharkhand,23.3441,85.3096,23.2,92,0.0,934.0,7.5,37.1,35,12.1,11.3,7.9,181.0,65.0,12.7,3,5,7,1,2026-07-23T22:07:37.080379+05:30
Jamshedpur,Jharkhand,22.8046,86.2029,26.2,85,0.0,987.3,2.1,39.2,57,15.9,13.7,15.5,556.0,43.0,21.0,7,5,3,1,2026-07-23T22:07:37.080385+05:30
Dhanbad,Jharkhand,23.7957,86.4304,26.3,96,0.0,975.8,6.1,24.8,79,31.1,29.6,45.0,1369.0,20.0,90.2,7,5,7,1,2026-07-23T22:07:37.080392+05:30
Bokaro,Jharkhand,23.6693,86.1511,26.5,90,0.0,979.6,6.9,28.4,65,22.3,21.0,25.9,967.0,41.0,54.1,7,5,7,1,2026-07-23T22:07:37.080398+05:30
Bhubaneswar,Odisha,20.2961,85.8245,27.1,94,0.0,999.6,8.65,45.7,70,22.2,18.5,9.5,208.0,77.0,8.0,7,5,7,1,2026-07-23T22:07:37.080405+05:30
Cuttack,Odisha,20.4625,85.8828,27.0,95,0.0,1001.4,8.35,37.8,70,22.2,18.5,9.5,240.0,77.0,8.0,7,5,4,1,2026-07-23T22:07:37.080412+05:30
Rourkela,Odisha,22.2604,84.8536,25.7,89,0.0,981.7,6.7,37.8,41,15.9,13.3,8.7,384.0,57.0,5.8,7,5,7,1,2026-07-23T22:07:37.080419+05:30
Raipur,Chhattisgarh,21.2514,81.6296,25.4,83,0.0,971.2,4.15,54.0,57,28.3,22.0,23.9,215.0,46.0,37.1,7,5,3,1,2026-07-23T22:07:37.080426+05:30
Bhilai,Chhattisgarh,21.1938,81.3509,25.4,82,0.0,971.6,3.15,57.2,56,30.3,22.6,21.7,381.0,52.0,34.6,7,5,3,1,2026-07-23T22:07:37.080432+05:30
Guwahati,Assam,26.1158,91.7086,26.3,97,0.1,999.0,5.55,22.3,41,13.4,13.2,15.2,214.0,25.0,2.9,10,5,3,1,2026-07-23T22:07:37.080439+05:30
Agartala,Tripura,23.8315,91.2868,24.8,97,0.0,1004.4,8.0,36.7,41,12.5,11.9,11.4,206.0,43.0,2.7,3,5,4,1,2026-07-23T22:07:37.080445+05:30
Shillong,Meghalaya,25.5788,91.8933,20.2,90,0.0,856.2,5.3,29.5,30,2.6,2.5,6.0,201.0,54.0,2.0,3,5,3,1,2026-07-23T22:07:37.080450+05:30
Imphal,Manipur,24.817,93.9368,23.5,90,0.0,922.0,8.6,25.9,34,15.0,14.7,16.1,471.0,26.0,2.8,3,5,7,1,2026-07-23T22:07:37.080457+05:30
Aizawl,Mizoram,23.7271,92.7176,19.5,93,0.1,891.4,8.75,43.2,27,1.5,1.4,3.4,134.0,55.0,1.1,6,10,7,1,2026-07-23T22:07:37.080463+05:30
Kohima,Nagaland,25.6701,94.1077,19.9,98,0.3,854.6,5.45,22.3,26,7.4,7.2,12.5,222.0,28.0,1.3,6,10,3,1,2026-07-23T22:07:37.080469+05:30
Gangtok,Sikkim,27.3314,88.6138,18.8,94,0.0,837.1,6.3,34.2,41,4.0,4.0,5.6,231.0,84.0,1.3,3,10,7,1,2026-07-23T22:07:37.080475+05:30
Siliguri,West Bengal,26.7271,88.3953,25.9,96,0.0,990.2,8.45,31.7,56,16.3,16.2,11.3,418.0,77.0,3.7,7,5,7,1,2026-07-23T22:07:40.352239+05:30
Durgapur,West Bengal,23.5204,87.3119,25.9,96,0.0,991.4,8.0,35.6,73,27.9,26.7,38.0,666.0,21.0,51.7,7,5,7,1,2026-07-23T22:07:40.352274+05:30
Asansol,West Bengal,23.6739,86.9524,26.0,96,0.0,989.9,7.4,33.5,67,24.7,23.2,38.2,286.0,21.0,56.7,7,5,7,1,2026-07-23T22:07:40.352285+05:30
Pondicherry,Puducherry,11.9139,79.8145,29.2,81,0.0,1008.1,8.55,41.4,70,24.5,17.3,10.2,186.0,79.0,5.2,7,0,4,1,2026-07-23T22:07:40.352294+05:30
Port Blair,Andaman and Nicobar Islands,11.6234,92.7265,25.6,89,0.1,1008.7,8.0,36.7,36,10.7,6.2,0.3,97.0,44.0,0.5,10,0,4,1,2026-07-23T22:07:40.352318+05:30
Haridwar,Uttarakhand,29.9457,78.1642,28.3,80,0.0,968.6,7.3,27.7,66,23.4,23.3,21.1,259.0,36.0,5.2,7,5,7,1,2026-07-23T22:07:40.352326+05:30
Rishikesh,Uttarakhand,30.0869,78.2676,27.4,90,0.0,961.5,7.4,27.7,48,12.4,12.3,15.1,390.0,52.0,2.8,7,5,7,1,2026-07-23T22:07:40.352334+05:30
Nainital,Uttarakhand,29.3919,79.4542,16.6,92,0.0,803.0,6.95,52.6,44,12.3,12.2,13.9,216.0,52.0,2.3,3,10,7,0,2026-07-23T22:07:40.352342+05:30
Mussoorie,Uttarakhand,30.4599,78.0664,16.9,99,0.1,800.4,6.8,32.8,54,15.0,14.9,28.2,378.0,42.0,5.2,6,10,7,1,2026-07-23T22:07:40.352350+05:30
Dharamshala,Himachal Pradesh,32.219,76.3234,21.9,85,0.0,866.0,7.4,23.0,43,12.4,12.3,21.5,488.0,24.0,0.8,3,5,7,1,2026-07-23T22:07:40.352358+05:30
Dalhousie,Himachal Pradesh,32.5387,75.971,17.6,96,0.0,802.2,1.1,27.7,61,26.3,25.7,33.8,558.0,70.0,3.3,3,10,3,1,2026-07-23T22:07:40.352366+05:30
Patiala,Punjab,30.3398,76.3869,28.5,85,0.0,971.7,6.85,40.7,77,40.6,40.2,29.7,389.0,62.0,9.6,7,5,7,1,2026-07-23T22:07:40.352373+05:30
Bhatinda,Punjab,30.211,74.9455,28.3,86,0.0,976.8,6.95,32.4,87,40.6,40.2,22.6,442.0,71.0,8.2,7,5,7,1,2026-07-23T22:07:40.352380+05:30
Rohtak,Haryana,28.8955,76.6066,28.9,79,0.0,974.7,6.25,38.5,121,29.4,27.9,30.1,601.0,81.0,22.9,7,5,7,1,2026-07-23T22:07:40.352387+05:30
Panipat,Haryana,29.3909,76.9635,28.9,78,0.0,974.0,7.05,39.2,113,26.3,26.1,17.1,350.0,86.0,9.1,7,5,7,1,2026-07-23T22:07:40.352393+05:30
Mathura,Uttar Pradesh,27.4924,77.6737,26.3,95,0.3,979.9,6.2,39.6,79,18.9,18.8,16.7,316.0,90.0,6.5,10,5,7,1,2026-07-23T22:07:40.352400+05:30
Vrindavan,Uttar Pradesh,27.5823,77.7027,26.5,94,0.3,980.4,6.15,38.9,79,18.9,18.8,16.7,351.0,90.0,6.5,10,5,7,1,2026-07-23T22:07:40.352407+05:30
Ayodhya,Uttar Pradesh,26.7922,82.1998,27.0,92,0.0,990.5,6.2,44.3,68,25.3,25.3,11.1,365.0,96.0,9.7,7,5,7,1,2026-07-23T22:07:40.352414+05:30
Ratlam,Madhya Pradesh,23.3315,75.0367,24.3,96,0.1,945.5,6.1,32.0,34,19.4,18.9,15.0,211.0,36.0,5.1,6,5,7,1,2026-07-23T22:07:40.352421+05:30
Sagar,Madhya Pradesh,23.8388,78.7378,25.9,77,0.0,943.4,4.2,40.0,36,4.8,4.5,6.4,150.0,47.0,4.3,7,5,3,1,2026-07-23T22:07:40.352427+05:30
Satna,Madhya Pradesh,24.6005,80.8322,25.3,91,0.0,965.9,7.8,33.8,55,5.2,5.1,8.3,238.0,53.0,4.5,7,5,7,1,2026-07-23T22:07:40.352434+05:30
Akola,Maharashtra,20.7002,77.0082,25.5,84,0.0,969.6,2.8,57.2,36,3.5,3.3,6.1,140.0,38.0,3.0,7,5,3,1,2026-07-23T22:07:40.352442+05:30
Amravati,Maharashtra,20.9374,77.7796,26.5,74,0.0,962.3,3.15,52.9,44,6.0,5.5,5.8,133.0,40.0,2.9,7,5,3,1,2026-07-23T22:07:40.352450+05:30
Latur,Maharashtra,18.4088,76.5604,24.4,78,0.0,936.5,6.05,64.1,59,8.5,5.4,3.8,127.0,40.0,1.6,3,5,7,1,2026-07-23T22:07:40.352458+05:30
Nanded,Maharashtra,19.1383,77.3091,25.3,82,0.0,964.9,4.8,54.7,60,7.7,6.4,6.0,148.0,39.0,3.5,7,5,3,1,2026-07-23T22:07:40.352465+05:30
Gulbarga,Karnataka,17.3297,76.8343,25.6,74,0.0,956.9,6.7,63.7,59,45.5,24.0,6.7,133.0,50.0,2.6,7,5,7,1,2026-07-23T22:07:40.352471+05:30
Bidar,Karnataka,17.9104,77.5199,24.8,73,0.0,933.0,7.25,66.6,59,32.9,19.0,6.7,128.0,48.0,2.3,3,5,7,1,2026-07-23T22:07:40.352477+05:30
Hospet,Karnataka,15.2689,76.3909,24.4,80,0.0,955.5,6.2,58.3,44,57.5,28.6,5.0,131.0,49.0,1.7,3,5,7,1,2026-07-23T22:07:40.352483+05:30
Tirupur,Tamil Nadu,11.1085,77.3411,25.8,81,0.0,975.9,8.85,58.0,58,15.1,12.0,15.5,188.0,39.0,4.9,7,5,7,1,2026-07-23T22:07:40.352489+05:30
Alappuzha,Kerala,9.4981,76.3388,25.4,95,0.0,1011.4,7.9,34.9,56,21.0,14.2,15.6,86.0,30.0,4.0,7,0,4,1,2026-07-23T22:07:40.352496+05:30
Munnar,Kerala,10.0889,77.0595,16.1,87,0.0,857.7,7.85,34.9,31,10.7,8.4,10.0,135.0,40.0,2.7,3,10,7,0,2026-07-23T22:07:40.352503+05:30
Silchar,Assam,24.8333,92.7789,25.9,96,0.1,1004.0,6.1,28.8,52,16.4,15.6,8.7,313.0,55.0,4.1,10,5,4,1,2026-07-23T22:07:40.352509+05:30
Dibrugarh,Assam,27.4728,94.912,27.8,87,0.0,992.1,7.75,26.6,50,16.8,16.4,14.7,326.0,44.0,2.3,7,5,7,1,2026-07-23T22:07:40.352516+05:30
