city,state,latitude,longitude,temp,humidity,rain,pressure,uv_index,wind_gusts,aqi,pm10,pm2_5,mosquito_risk,arthritis_risk,migraine_risk,frizz_risk,updated_at
Delhi,Delhi,28.6139,77.209,26.1,42,0.0,984.9,6.1,48.2,252,590.5,87.1,4,5,7,0,2026-03-16T10:49:40.834888+05:30
Mumbai,Maharashtra,19.076,72.8777,27.0,75,0.0,1011.4,7.65,18.4,103,99.4,47.0,7,0,4,1,2026-03-16T10:49:40.834928+05:30
Bangalore,Karnataka,12.9716,77.5946,27.5,50,0.0,915.2,9.35,28.4,82,18.2,17.2,4,5,7,1,2026-03-16T10:49:40.834944+05:30
Hyderabad,Telangana,17.385,78.4867,29.5,53,0.0,957.0,8.75,20.9,94,31.9,23.8,4,5,7,1,2026-03-16T10:49:40.834954+05:30
Chennai,Tamil Nadu,13.0827,80.2707,31.5,53,0.0,1011.4,9.05,31.0,38,10.7,8.4,0,0,4,1,2026-03-16T10:49:40.834962+05:30
Kolkata,West Bengal,22.5726,88.3639,29.6,65,0.0,1009.8,8.05,30.6,70,35.9,28.3,7,0,4,1,2026-03-16T10:49:40.834975+05:30
Pune,Maharashtra,18.5204,73.8567,32.4,17,0.0,951.3,8.25,39.6,96,40.3,18.4,0,5,7,0,2026-03-16T10:49:40.834987+05:30
Ahmedabad,Gujarat,23.0225,72.5714,30.2,45,0.0,1004.8,7.45,25.2,65,31.0,17.0,0,5,4,1,2026-03-16T10:49:40.834995+05:30
Jaipur,Rajasthan,26.9124,75.7873,25.8,46,0.0,962.1,6.85,33.5,159,273.8,63.6,4,5,7,0,2026-03-16T10:49:40.835003+05:30
Lucknow,Uttar Pradesh,26.8467,80.9462,27.7,40,0.0,997.3,6.65,48.6,84,42.6,22.0,4,5,7,0,2026-03-16T10:49:40.835010+05:30
Kanpur,Uttar Pradesh,26.4499,80.3319,26.8,42,0.0,995.2,6.7,35.3,118,196.5,44.7,4,5,7,0,2026-03-16T10:49:40.835016+05:30
Chandigarh,Chandigarh,30.7333,76.7794,19.7,61,0.0,970.7,5.55,55.8,66,52.2,17.0,3,5,3,0,2026-03-16T10:49:40.835024+05:30
Srinagar,Jammu and Kashmir,34.0837,74.7973,7.3,83,0.0,838.6,5.25,22.3,51,17.2,14.1,3,10,3,0,2026-03-16T10:49:40.835030+05:30
Jammu,Jammu and Kashmir,32.7266,74.857,15.1,81,0.9,975.7,6.2,38.9,73,18.6,11.8,6,10,7,0,2026-03-16T10:49:40.835041+05:30
Amritsar,Punjab,31.634,74.8723,13.7,93,1.5,984.5,5.65,34.6,78,90.1,28.1,6,10,3,0,2026-03-16T10:49:40.835048+05:30
Ludhiana,Punjab,30.901,75.8573,16.2,82,0.0,981.2,6.15,48.6,82,36.0,23.1,3,10,7,0,2026-03-16T10:49:40.835054+05:30
Jalandhar,Punjab,31.326,75.5762,15.4,87,0.0,983.5,6.05,55.4,73,75.4,26.3,3,10,7,0,2026-03-16T10:49:40.835063+05:30
Dehradun,Uttarakhand,30.6284,78.0322,14.2,49,0.0,829.5,5.95,33.1,46,20.4,6.0,0,5,3,0,2026-03-16T10:49:40.835070+05:30
Shimla,Himachal Pradesh,31.1048,77.1734,12.1,47,0.0,782.9,5.8,50.0,46,13.6,5.5,0,5,3,0,2026-03-16T10:49:40.835076+05:30
Manali,Himachal Pradesh,32.2396,77.1887,10.7,55,0.0,816.0,6.3,37.8,49,16.1,4.7,0,5,7,0,2026-03-16T10:49:40.835083+05:30
Gurgaon,Haryana,28.4595,77.0266,26.2,41,0.0,983.2,6.25,46.1,1988,2339.5,241.2,4,5,7,0,2026-03-16T10:49:40.835089+05:30
Noida,Uttar Pradesh,28.5355,77.391,26.6,41,0.0,986.6,6.15,44.6,1988,2339.5,241.2,4,5,7,0,2026-03-16T10:49:40.835096+05:30
Ghaziabad,Uttar Pradesh,28.6692,77.4538,25.9,46,0.0,984.9,6.1,45.7,95,271.0,45.8,4,5,7,0,2026-03-16T10:49:40.835102+05:30
Faridabad,Haryana,28.4089,77.3178,26.2,42,0.0,986.0,6.15,43.9,1988,2339.5,241.2,4,5,7,0,2026-03-16T10:49:40.835108+05:30
Meerut,Uttar Pradesh,28.9845,77.7064,25.1,49,0.0,983.7,6.0,53.6,95,271.0,45.8,4,5,3,0,2026-03-16T10:49:40.835115+05:30
Agra,Uttar Pradesh,27.1767,78.0081,26.3,45,0.0,990.9,6.45,34.9,966,1009.6,110.6,4,5,7,0,2026-03-16T10:49:40.835121+05:30
Varanasi,Uttar Pradesh,25.3176,82.9739,29.7,53,0.0,1000.3,7.35,29.9,152,90.6,63.6,4,5,4,1,2026-03-16T10:49:40.835131+05:30
Prayagraj,Uttar Pradesh,25.4358,81.8463,27.1,55,0.0,999.1,7.2,33.8,116,99.9,70.1,4,5,7,1,2026-03-16T10:49:40.835137+05:30
Gorakhpur,Uttar Pradesh,26.7606,83.3732,26.7,56,0.0,1001.9,7.05,33.5,147,51.7,34.1,4,5,4,1,2026-03-16T10:49:40.835144+05:30
Bareilly,Uttar Pradesh,28.367,79.4304,24.5,57,0.0,990.2,6.35,60.8,94,45.2,20.7,0,5,7,0,2026-03-16T10:49:40.835150+05:30
Aligarh,Uttar Pradesh,27.8974,78.088,26.4,43,0.0,988.5,6.2,37.4,583,784.2,92.2,4,5,7,0,2026-03-16T10:49:40.835159+05:30
Moradabad,Uttar Pradesh,28.8386,78.7733,24.4,52,0.0,986.7,6.15,69.1,102,59.3,23.7,0,5,7,0,2026-03-16T10:49:40.835165+05:30
Saharanpur,Uttar Pradesh,29.9637,77.546,22.2,55,0.0,977.9,5.75,41.8,88,56.5,20.5,0,5,3,0,2026-03-16T10:49:40.835171+05:30
Jhansi,Uttar Pradesh,25.4484,78.5685,27.4,45,0.0,980.7,7.15,27.4,75,29.3,20.1,4,5,7,0,2026-03-16T10:49:44.174092+05:30
Surat,Gujarat,21.1702,72.8311,28.2,75,0.0,1009.9,7.4,23.4,115,86.8,48.2,7,0,4,1,2026-03-16T10:49:44.174123+05:30
Vadodara,Gujarat,22.3072,73.1812,31.3,55,0.0,1007.2,7.35,24.8,82,51.0,25.6,0,5,4,1,2026-03-16T10:49:44.174133+05:30
Rajkot,Gujarat,22.3039,70.8022,30.6,37,0.0,997.2,7.3,28.4,68,43.3,17.3,0,5,7,0,2026-03-16T10:49:44.174141+05:30
Thane,Maharashtra,19.2183,72.9781,29.4,61,0.0,1010.9,7.7,31.3,103,99.4,47.0,7,0,4,1,2026-03-16T10:49:44.174149+05:30
Nagpur,Maharashtra,21.1458,79.0882,31.4,27,0.0,976.4,8.0,18.4,123,47.4,38.9,0,5,7,0,2026-03-16T10:49:44.174156+05:30
Nashik,Maharashtra,19.9975,73.7898,28.8,34,0.0,948.7,7.45,25.2,78,65.9,20.8,4,5,7,0,2026-03-16T10:49:44.174163+05:30
Aurangabad,Maharashtra,19.8762,75.3433,29.8,30,0.0,947.4,8.1,25.9,77,42.8,17.2,4,5,7,0,2026-03-16T10:49:44.174170+05:30
Solapur,Maharashtra,17.6599,75.9064,29.7,34,0.0,960.5,8.65,22.7,103,37.6,24.1,4,5,7,0,2026-03-16T10:49:44.174178+05:30
Kolhapur,Maharashtra,16.705,74.2433,29.9,28,0.0,951.1,8.75,39.6,105,45.3,29.7,4,5,7,0,2026-03-16T10:49:44.174184+05:30
Goa,Goa,15.2993,74.124,30.3,58,0.0,1001.2,8.8,33.5,107,50.2,28.5,0,5,4,1,2026-03-16T10:49:44.174192+05:30
Jodhpur,Rajasthan,26.2389,73.0243,31.1,24,0.0,984.3,7.2,38.2,90,174.6,33.6,0,5,7,0,2026-03-16T10:49:44.174198+05:30
Udaipur,Rajasthan,24.5854,73.7125,30.7,19,0.0,948.7,7.85,32.4,49,37.0,10.1,0,5,7,0,2026-03-16T10:49:44.174205+05:30
Kota,Rajasthan,25.2138,75.8648,30.5,26,0.0,981.2,7.2,22.0,59,75.2,18.7,0,5,7,0,2026-03-16T10:49:44.174212+05:30
Bikaner,Rajasthan,28.0229,73.3119,28.3,21,0.0,982.7,6.9,31.3,40,53.1,21.0,4,5,7,0,2026-03-16T10:49:44.174219+05:30
Ajmer,Rajasthan,26.4499,74.6399,29.6,24,0.0,956.2,7.15,35.3,65,69.2,13.9,4,5,7,0,2026-03-16T10:49:44.174226+05:30
Gwalior,Madhya Pradesh,26.2183,78.1828,25.0,58,0.0,986.2,6.85,26.6,89,43.5,25.6,4,5,7,1,2026-03-16T10:49:44.174232+05:30
Indore,Madhya Pradesh,22.7196,75.8577,30.5,29,0.0,951.2,7.75,33.1,61,36.6,15.4,0,5,7,0,2026-03-16T10:49:44.174238+05:30
Bhopal,Madhya Pradesh,23.2599,77.4126,31.0,25,0.0,956.8,7.65,32.4,55,24.0,10.5,0,5,7,0,2026-03-16T10:49:44.174245+05:30
Jabalpur,Madhya Pradesh,23.1815,79.9864,30.9,32,0.0,964.3,7.8,37.4,67,26.6,13.3,0,5,7,0,2026-03-16T10:49:44.174251+05:30
Ujjain,Madhya Pradesh,23.1765,75.7885,29.7,37,0.0,956.8,7.65,32.0,64,32.5,18.1,4,5,7,0,2026-03-16T10:49:44.174258+05:30
Visakhapatnam,Andhra Pradesh,17.6868,83.2185,30.3,58,0.0,1008.0,8.7,39.2,64,20.5,14.8,0,0,4,1,2026-03-16T10:49:44.174264+05:30
Vijayawada,Andhra Pradesh,16.5062,80.648,29.9,61,0.0,1007.2,8.8,25.9,53,11.1,8.0,7,5,4,1,2026-03-16T10:49:44.174271+05:30
Guntur,Andhra Pradesh,16.3067,80.4365,30.2,59,0.0,1008.2,8.8,28.1,52,11.2,8.1,0,0,4,1,2026-03-16T10:49:44.174277+05:30
Nellore,Andhra Pradesh,14.4426,79.9865,30.2,61,0.0,1010.0,8.95,31.3,46,15.7,14.6,3,0,4,1,2026-03-16T10:49:44.174285+05:30
Kurnool,Andhra Pradesh,15.8281,78.0373,32.5,47,0.0,980.2,8.8,24.1,82,21.9,18.6,0,5,7,1,2026-03-16T10:49:44.174292+05:30
Kakinada,Andhra Pradesh,16.9891,82.2475,31.2,56,0.0,1011.7,8.7,27.4,52,12.5,8.4,0,0,4,1,2026-03-16T10:49:44.174299+05:30
Tirupati,Andhra Pradesh,13.6288,79.4192,29.6,57,0.0,995.9,9.05,27.0,62,9.9,9.2,4,5,7,1,2026-03-16T10:49:44.174305+05:30
Warangal,Telangana,17.9689,79.5941,28.4,65,0.0,983.0,8.55,32.0,76,19.1,16.6,7,5,7,1,2026-03-16T10:49:44.174312+05:30
Nizamabad,Telangana,18.6725,78.0941,32.6,39,0.0,968.0,8.45,40.7,138,43.9,38.1,0,5,7,1,2026-03-16T10:49:44.174319+05:30
Mysore,Karnataka,12.2958,76.6396,28.3,51,0.0,931.8,9.35,27.0,104,42.7,37.8,4,5,7,1,2026-03-16T10:49:44.174325+05:30
Mangalore,Karnataka,12.9141,74.856,28.4,78,0.0,1009.8,9.0,19.4,93,41.6,36.7,7,0,4,1,2026-03-16T10:49:44.174331+05:30
Hubli-Dharwad,Karnataka,15.3647,75.124,28.1,52,0.0,944.1,8.7,36.4,108,42.0,35.9,4,5,7,1,2026-03-16T10:49:44.174337+05:30
Belgaum,Karnataka,15.8497,74.4977,29.6,27,0.0,929.1,9.0,36.7,96,32.2,22.4,4,5,7,0,2026-03-16T10:49:47.515168+05:30
Coimbatore,Tamil Nadu,11.0168,76.9558,30.1,52,0.0,965.2,9.3,32.4,84,29.7,27.3,0,5,7,1,2026-03-16T10:49:47.515197+05:30
Madurai,Tamil Nadu,9.9252,78.1198,31.5,51,0.0,996.5,9.25,25.2,52,12.1,9.3,0,5,7,1,2026-03-16T10:49:47.515207+05:30
Trichy,Tamil Nadu,10.7905,78.7047,30.8,57,0.0,1003.5,9.2,22.7,51,14.0,12.5,0,5,4,1,2026-03-16T10:49:47.515216+05:30
Salem,Tamil Nadu,11.6643,78.146,30.3,55,0.0,981.0,9.25,15.1,64,10.8,9.6,0,5,7,1,2026-03-16T10:49:47.515223+05:30
Tirunelveli,Tamil Nadu,8.7139,77.7567,33.0,47,0.0,1006.4,9.3,46.1,55,10.7,8.5,0,5,4,1,2026-03-16T10:49:47.515230+05:30
Vellore,Tamil Nadu,12.9165,79.1325,30.3,51,0.0,988.8,9.15,29.2,81,15.5,14.5,0,5,7,1,2026-03-16T10:49:47.515237+05:30
Erode,Tamil Nadu,11.341,77.7172,31.2,56,0.0,992.7,9.2,22.0,42,9.2,7.9,0,5,7,1,2026-03-16T10:49:47.515244+05:30
Kochi,Kerala,9.9312,76.2673,28.1,78,0.0,1011.5,9.1,33.8,76,23.6,21.4,7,0,4,1,2026-03-16T10:49:47.515251+05:30
Thiruvananthapuram,Kerala,8.5241,76.9366,27.9,78,0.0,1010.7,9.15,29.5,46,14.0,12.8,7,0,4,1,2026-03-16T10:49:47.515258+05:30
Kozhikode,Kerala,11.2588,75.7804,29.3,76,0.0,1010.8,9.0,29.9,67,22.1,19.6,7,0,4,1,2026-03-16T10:49:47.515264+05:30
Thrissur,Kerala,10.5276,76.2144,31.9,60,0.0,1009.7,9.05,36.0,73,21.5,19.3,0,0,4,1,2026-03-16T10:49:47.515271+05:30
Kannur,Kerala,11.8745,75.3704,30.7,63,0.0,1010.1,8.9,29.2,84,33.4,29.2,3,0,4,1,2026-03-16T10:49:47.515278+05:30
Patna,Bihar,25.5941,85.1376,29.5,53,0.0,1003.0,7.55,36.0,155,85.7,61.9,4,5,4,1,2026-03-16T10:49:47.515284+05:30
Gaya,Bihar,24.7914,85.0002,30.3,57,0.0,996.4,7.25,33.5,148,85.0,58.4,0,5,7,1,2026-03-16T10:49:47.515290+05:30
Muzaffarpur,Bihar,26.1209,85.3647,28.5,64,0.0,1003.3,7.5,36.4,161,87.3,65.2,7,5,4,1,2026-03-16T10:49:47.515296+05:30
Bhagalpur,Bihar,25.2425,87.0117,28.4,68,0.0,1004.4,7.5,31.7,156,86.4,78.2,7,5,4,1,2026-03-16T10:49:47.515302+05:30
Ranchi,Jharkhand,23.3441,85.3096,29.9,46,0.0,941.0,7.9,51.5,147,57.9,51.2,4,5,7,1,2026-03-16T10:49:47.515308+05:30
Jamshedpur,Jharkhand,22.8046,86.2029,31.6,53,0.0,993.7,7.95,40.7,154,68.0,59.6,0,5,7,1,2026-03-16T10:49:47.515314+05:30
Dhanbad,Jharkhand,23.7957,86.4304,30.7,46,0.0,983.0,7.45,39.2,171,96.2,86.1,0,5,7,1,2026-03-16T10:49:47.515320+05:30
Bokaro,Jharkhand,23.6693,86.1511,31.5,46,0.0,986.9,7.55,36.0,161,86.6,77.3,0,5,7,1,2026-03-16T10:49:47.515327+05:30
Bhubaneswar,Odisha,20.2961,85.8245,31.3,59,0.0,1006.4,8.5,38.5,66,25.6,19.9,0,5,4,1,2026-03-16T10:49:47.515333+05:30
Cuttack,Odisha,20.4625,85.8828,31.6,62,0.0,1008.1,8.5,37.1,66,25.6,19.9,3,0,4,1,2026-03-16T10:49:47.515339+05:30
Rourkela,Odisha,22.2604,84.8536,33.5,44,0.0,988.1,8.05,46.1,156,73.1,62.4,0,5,7,1,2026-03-16T10:49:47.515345+05:30
Raipur,Chhattisgarh,21.2514,81.6296,33.1,44,0.0,977.5,8.2,41.4,141,44.5,39.8,0,5,7,1,2026-03-16T10:49:47.515351+05:30
Bhilai,Chhattisgarh,21.1938,81.3509,33.2,44,0.0,977.8,8.25,40.7,134,36.4,32.1,0,5,7,1,2026-03-16T10:49:47.515358+05:30
Guwahati,Assam,26.1158,91.7086,22.0,86,0.0,1006.1,6.95,37.4,80,26.5,20.1,3,5,4,1,2026-03-16T10:49:47.515364+05:30
Agartala,Tripura,23.8315,91.2868,25.1,78,0.0,1011.4,6.95,33.8,64,27.8,22.5,7,0,4,1,2026-03-16T10:49:47.515370+05:30
Shillong,Meghalaya,25.5788,91.8933,15.2,75,0.0,858.3,7.9,74.2,51,16.2,12.6,3,5,7,0,2026-03-16T10:49:47.515376+05:30
Imphal,Manipur,24.817,93.9368,19.3,78,0.0,926.9,8.2,74.5,100,53.6,32.4,3,5,7,0,2026-03-16T10:49:47.515383+05:30
Aizawl,Mizoram,23.7271,92.7176,22.6,61,0.0,897.3,8.1,61.9,83,38.2,23.2,3,5,7,0,2026-03-16T10:49:47.515388+05:30
Kohima,Nagaland,25.6701,94.1077,17.4,68,0.0,857.4,7.65,105.5,79,40.9,26.4,3,5,7,0,2026-03-16T10:49:47.515394+05:30
Gangtok,Sikkim,27.3314,88.6138,17.7,62,0.0,839.3,7.65,23.4,104,46.8,28.4,3,5,7,0,2026-03-16T10:49:47.515400+05:30
Siliguri,West Bengal,26.7271,88.3953,20.5,81,0.0,997.8,7.45,27.0,154,47.3,36.6,3,5,7,1,2026-03-16T10:49:50.860198+05:30
Durgapur,West Bengal,23.5204,87.3119,29.1,63,0.0,998.6,7.8,45.4,156,91.5,82.7,7,5,7,1,2026-03-16T10:49:50.860229+05:30
Asansol,West Bengal,23.6739,86.9524,29.6,57,0.0,996.9,7.85,43.2,162,101.3,91.0,4,5,7,1,2026-03-16T10:49:50.860241+05:30
Pondicherry,Puducherry,11.9139,79.8145,31.0,60,0.0,1012.4,9.05,31.3,28,11.4,8.2,0,0,4,1,2026-03-16T10:49:50.860248+05:30
Port Blair,Andaman and Nicobar Islands,11.6234,92.7265,29.5,67,0.0,1010.1,9.0,21.2,86,22.9,18.8,7,0,4,1,2026-03-16T10:49:50.860256+05:30
Haridwar,Uttarakhand,29.9457,78.1642,24.5,44,0.0,976.2,5.85,51.8,67,49.7,15.1,0,5,3,0,2026-03-16T10:49:50.860264+05:30
Rishikesh,Uttarakhand,30.0869,78.2676,24.4,36,0.0,968.8,5.95,32.4,58,63.8,15.1,0,5,3,0,2026-03-16T10:49:50.860272+05:30
Nainital,Uttarakhand,29.3919,79.4542,19.1,37,0.0,808.2,6.75,68.8,62,74.3,17.0,0,5,7,0,2026-03-16T10:49:50.860279+05:30
Mussoorie,Uttarakhand,30.4599,78.0664,15.8,44,0.0,802.4,5.95,43.9,61,49.5,13.6,0,5,3,0,2026-03-16T10:49:50.860287+05:30
Dharamshala,Himachal Pradesh,32.219,76.3234,14.8,53,0.0,868.3,4.9,36.0,50,13.6,6.8,0,5,3,0,2026-03-16T10:49:50.860294+05:30
Dalhousie,Himachal Pradesh,32.5387,75.971,12.1,56,0.0,801.7,4.0,39.6,65,18.6,13.9,0,5,3,0,2026-03-16T10:49:50.860302+05:30
Patiala,Punjab,30.3398,76.3869,20.4,60,0.0,980.1,5.85,49.3,76,30.9,18.3,0,5,3,0,2026-03-16T10:49:50.860308+05:30
Bhatinda,Punjab,30.211,74.9455,20.5,67,0.0,985.4,6.55,31.7,78,69.8,21.8,3,5,7,0,2026-03-16T10:49:50.860315+05:30
Rohtak,Haryana,28.8955,76.6066,26.1,41,0.0,982.9,6.15,49.3,379,899.7,125.3,4,5,7,0,2026-03-16T10:49:50.860322+05:30
Panipat,Haryana,29.3909,76.9635,26.0,41,0.0,981.5,5.9,46.4,122,379.0,60.1,4,5,3,0,2026-03-16T10:49:50.860329+05:30
Mathura,Uttar Pradesh,27.4924,77.6737,26.9,41,0.0,989.7,6.35,34.2,1153,1113.9,125.3,4,5,7,0,2026-03-16T10:49:50.860335+05:30
Vrindavan,Uttar Pradesh,27.5823,77.7027,26.6,41,0.0,990.1,6.35,37.1,1153,1113.9,125.3,4,5,7,0,2026-03-16T10:49:50.860343+05:30
Ayodhya,Uttar Pradesh,26.7922,82.1998,27.8,39,0.0,999.5,6.75,33.1,119,43.4,30.5,4,5,7,0,2026-03-16T10:49:50.860349+05:30
Ratlam,Madhya Pradesh,23.3315,75.0367,29.6,47,0.0,957.7,7.6,32.4,63,30.0,15.3,4,5,7,1,2026-03-16T10:49:50.860356+05:30
Sagar,Madhya Pradesh,23.8388,78.7378,30.2,28,0.0,952.9,7.6,29.5,51,34.0,11.9,0,5,7,0,2026-03-16T10:49:50.860362+05:30
Satna,Madhya Pradesh,24.6005,80.8322,32.9,34,0.0,973.3,7.6,38.5,83,53.2,39.9,0,5,7,0,2026-03-16T10:49:50.860369+05:30
Akola,Maharashtra,20.7002,77.0082,32.7,33,0.0,978.4,8.1,22.0,74,32.8,17.3,0,5,7,0,2026-03-16T10:49:50.860375+05:30
Amravati,Maharashtra,20.9374,77.7796,33.4,23,0.0,970.5,8.1,28.8,78,30.2,16.1,0,5,7,0,2026-03-16T10:49:50.860382+05:30
Latur,Maharashtra,18.4088,76.5604,30.4,31,0.0,943.1,8.55,19.4,99,39.6,22.9,0,5,7,0,2026-03-16T10:49:50.860389+05:30
Nanded,Maharashtra,19.1383,77.3091,32.5,31,0.0,972.1,8.35,18.4,124,38.1,24.6,0,5,7,0,2026-03-16T10:49:50.860395+05:30
Gulbarga,Karnataka,17.3297,76.8343,32.2,35,0.0,961.6,8.65,26.6,115,37.8,31.8,0,5,7,0,2026-03-16T10:49:50.860401+05:30
Bidar,Karnataka,17.9104,77.5199,31.4,37,0.0,938.8,8.6,37.4,108,31.3,27.8,0,5,7,0,2026-03-16T10:49:50.860408+05:30
Hospet,Karnataka,15.2689,76.3909,29.7,52,0.0,959.0,8.9,19.1,123,41.0,36.4,4,5,7,1,2026-03-16T10:49:50.860414+05:30
Tirupur,Tamil Nadu,11.1085,77.3411,30.7,54,0.0,978.8,9.3,47.5,64,20.0,18.3,0,5,7,1,2026-03-16T10:49:50.860420+05:30
Alappuzha,Kerala,9.4981,76.3388,28.1,78,0.0,1011.7,9.1,32.8,73,27.8,25.7,7,0,4,1,2026-03-16T10:49:50.860426+05:30
Munnar,Kerala,10.0889,77.0595,27.3,54,0.0,861.1,9.6,35.3,68,13.8,12.5,4,5,7,1,2026-03-16T10:49:50.860433+05:30
Silchar,Assam,24.8333,92.7789,23.4,77,0.0,1010.4,7.9,44.3,78,34.3,24.4,3,0,4,1,2026-03-16T10:49:50.860440+05:30
Dibrugarh,Assam,27.4728,94.912,18.5,91,0.0,1000.0,4.55,37.1,86,42.3,28.2,3,10,0,1,2026-03-16T10:49:50.860447+05:30
