city,state,latitude,longitude,temp,humidity,rain,pressure,uv_index,wind_gusts,aqi,pm10,pm2_5,no2,co,o3,so2,mosquito_risk,arthritis_risk,migraine_risk,frizz_risk,updated_at
Delhi,Delhi,28.6139,77.209,35.7,52,0.0,975.0,7.3,29.5,135,70.1,36.8,6.4,544.0,214.0,27.1,0,5,10,1,2026-07-04T13:18:39.250473+05:30
Mumbai,Maharashtra,19.076,72.8777,26.2,92,1.1,1002.4,0.3,55.1,39,17.9,9.4,7.2,194.0,56.0,4.3,10,5,0,1,2026-07-04T13:18:39.250524+05:30
Bangalore,Karnataka,12.9716,77.5946,28.6,52,0.0,910.6,5.55,77.8,20,11.1,5.6,4.4,214.0,57.0,2.3,4,5,3,1,2026-07-04T13:18:39.250540+05:30
Hyderabad,Telangana,17.385,78.4867,25.0,85,0.2,947.2,2.4,65.9,21,5.0,3.8,3.2,224.0,62.0,2.8,10,5,3,1,2026-07-04T13:18:39.250551+05:30
Chennai,Tamil Nadu,13.0827,80.2707,32.0,55,0.0,1003.3,1.45,48.6,40,13.6,10.5,5.4,277.0,85.0,7.7,0,5,0,1,2026-07-04T13:18:39.250560+05:30
Kolkata,West Bengal,22.5726,88.3639,31.8,73,0.0,993.5,7.5,49.7,40,9.5,8.6,3.5,221.0,92.0,5.4,3,5,7,1,2026-07-04T13:18:39.250569+05:30
Pune,Maharashtra,18.5204,73.8567,24.6,89,0.0,941.5,0.45,55.8,21,1.5,1.5,4.9,154.0,49.0,2.9,3,5,3,1,2026-07-04T13:18:39.250577+05:30
Ahmedabad,Gujarat,23.0225,72.5714,32.0,67,0.0,994.2,5.85,39.6,61,53.8,21.9,1.0,138.0,79.0,3.3,3,5,3,1,2026-07-04T13:18:39.250584+05:30
Jaipur,Rajasthan,26.9124,75.7873,33.3,55,0.0,952.5,7.4,19.8,112,65.9,29.6,1.7,221.0,144.0,5.3,0,5,7,1,2026-07-04T13:18:39.250592+05:30
Lucknow,Uttar Pradesh,26.8467,80.9462,35.1,60,0.0,984.5,6.75,24.1,85,27.1,26.3,1.5,307.0,164.0,7.6,0,5,10,1,2026-07-04T13:18:39.250604+05:30
Kanpur,Uttar Pradesh,26.4499,80.3319,35.6,57,0.0,982.5,7.95,25.2,86,29.2,28.3,1.7,264.0,177.0,9.2,0,5,10,1,2026-07-04T13:18:39.250612+05:30
Chandigarh,Chandigarh,30.7333,76.7794,28.5,93,0.2,962.7,7.45,23.0,85,26.4,25.4,2.1,413.0,183.0,8.7,10,5,7,1,2026-07-04T13:18:39.250620+05:30
Srinagar,Jammu and Kashmir,34.0837,74.7973,29.4,45,0.0,840.0,9.05,20.5,79,21.8,14.8,1.0,361.0,162.0,3.3,4,5,7,1,2026-07-04T13:18:39.250627+05:30
Jammu,Jammu and Kashmir,32.7266,74.857,34.9,54,0.0,965.6,8.6,29.9,100,46.8,34.6,1.7,373.0,193.0,6.1,0,5,7,1,2026-07-04T13:18:39.250633+05:30
Amritsar,Punjab,31.634,74.8723,35.3,56,0.0,973.7,8.45,35.6,115,44.8,36.9,1.5,361.0,174.0,5.8,0,5,10,1,2026-07-04T13:18:39.250640+05:30
Ludhiana,Punjab,30.901,75.8573,29.8,85,0.1,972.3,7.95,33.5,126,44.2,37.6,2.4,384.0,200.0,12.8,10,5,7,1,2026-07-04T13:18:39.250650+05:30
Jalandhar,Punjab,31.326,75.5762,32.2,70,0.0,973.0,8.2,31.7,122,48.9,39.7,2.0,393.0,193.0,11.4,3,5,7,1,2026-07-04T13:18:39.250658+05:30
Dehradun,Uttarakhand,30.6284,78.0322,23.1,79,0.1,828.7,7.15,28.4,39,5.8,5.6,0.8,244.0,129.0,1.4,6,5,7,1,2026-07-04T13:18:39.250665+05:30
Shimla,Himachal Pradesh,31.1048,77.1734,20.9,79,0.1,783.9,7.4,24.5,48,7.4,7.2,1.1,234.0,141.0,2.9,6,5,7,1,2026-07-04T13:18:39.250672+05:30
Manali,Himachal Pradesh,32.2396,77.1887,26.4,64,0.0,818.1,9.55,36.4,56,10.6,10.2,5.7,199.0,147.0,0.9,7,5,7,1,2026-07-04T13:18:39.250681+05:30
Gurgaon,Haryana,28.4595,77.0266,33.8,58,0.1,973.7,6.8,24.8,146,70.3,29.3,4.7,401.0,186.0,16.1,3,5,7,1,2026-07-04T13:18:39.250687+05:30
Noida,Uttar Pradesh,28.5355,77.391,34.4,59,0.1,976.4,6.8,22.7,146,70.3,29.3,4.7,424.0,186.0,16.1,3,5,7,1,2026-07-04T13:18:39.250694+05:30
Ghaziabad,Uttar Pradesh,28.6692,77.4538,34.2,60,0.1,974.9,7.35,21.6,117,28.1,25.1,2.6,313.0,181.0,16.0,3,5,7,1,2026-07-04T13:18:39.250701+05:30
Faridabad,Haryana,28.4089,77.3178,35.7,52,0.0,975.7,6.75,26.3,146,70.3,29.3,4.7,412.0,186.0,16.1,0,5,10,1,2026-07-04T13:18:39.250707+05:30
Meerut,Uttar Pradesh,28.9845,77.7064,33.5,66,0.0,973.7,7.5,22.0,117,28.1,25.1,2.6,303.0,181.0,16.0,3,5,7,1,2026-07-04T13:18:39.250714+05:30
Agra,Uttar Pradesh,27.1767,78.0081,34.9,58,0.0,979.2,7.25,30.6,96,34.1,25.7,1.6,299.0,171.0,5.6,0,5,7,1,2026-07-04T13:18:39.250721+05:30
Varanasi,Uttar Pradesh,25.3176,82.9739,36.0,53,0.0,987.5,8.65,30.2,89,14.8,14.5,1.2,230.0,134.0,5.4,0,5,10,1,2026-07-04T13:18:39.250728+05:30
Prayagraj,Uttar Pradesh,25.4358,81.8463,35.8,54,0.0,986.1,8.15,29.5,94,17.6,17.1,1.3,285.0,150.0,6.4,0,5,10,1,2026-07-04T13:18:39.250735+05:30
Gorakhpur,Uttar Pradesh,26.7606,83.3732,35.9,57,0.0,988.0,8.5,29.9,95,23.0,22.5,1.5,252.0,157.0,7.4,0,5,10,1,2026-07-04T13:18:39.250741+05:30
Bareilly,Uttar Pradesh,28.367,79.4304,34.1,62,0.0,978.7,7.95,24.1,83,37.0,31.1,1.8,329.0,179.0,9.5,3,5,7,1,2026-07-04T13:18:39.250750+05:30
Aligarh,Uttar Pradesh,27.8974,78.088,34.9,60,0.0,977.3,7.7,24.8,116,28.1,25.7,1.8,283.0,177.0,8.7,0,5,7,1,2026-07-04T13:18:39.250756+05:30
Moradabad,Uttar Pradesh,28.8386,78.7733,32.1,74,0.1,976.0,7.6,24.5,101,26.4,25.8,2.3,315.0,198.0,13.5,6,5,7,1,2026-07-04T13:18:39.250784+05:30
Saharanpur,Uttar Pradesh,29.9637,77.546,29.4,83,0.0,969.0,7.1,33.1,99,25.1,25.0,1.9,408.0,180.0,10.8,7,5,7,1,2026-07-04T13:18:39.250791+05:30
Jhansi,Uttar Pradesh,25.4484,78.5685,34.7,58,0.0,969.3,7.45,29.9,67,23.2,22.8,1.9,242.0,156.0,10.5,0,5,7,1,2026-07-04T13:18:42.619991+05:30
Surat,Gujarat,21.1702,72.8311,30.1,75,0.0,999.2,0.8,27.4,63,29.6,22.5,25.5,401.0,23.0,49.7,3,5,3,1,2026-07-04T13:18:42.620023+05:30
Vadodara,Gujarat,22.3072,73.1812,28.2,87,0.0,996.7,1.05,30.2,55,22.1,13.3,10.4,159.0,49.0,9.3,7,5,3,1,2026-07-04T13:18:42.620035+05:30
Rajkot,Gujarat,22.3039,70.8022,33.1,62,0.0,986.3,5.95,40.3,56,49.6,20.5,0.9,102.0,85.0,3.8,3,5,3,1,2026-07-04T13:18:42.620044+05:30
Thane,Maharashtra,19.2183,72.9781,25.5,96,0.7,1001.7,0.4,42.5,39,17.9,9.4,7.2,193.0,56.0,4.3,10,5,0,1,2026-07-04T13:18:42.620052+05:30
Nagpur,Maharashtra,21.1458,79.0882,31.9,65,0.0,963.9,8.05,28.4,39,16.5,16.1,11.9,271.0,129.0,37.7,3,5,7,1,2026-07-04T13:18:42.620062+05:30
Nashik,Maharashtra,19.9975,73.7898,24.8,90,0.3,938.7,0.95,33.1,21,2.5,2.1,4.9,134.0,58.0,1.3,6,5,3,1,2026-07-04T13:18:42.620070+05:30
Aurangabad,Maharashtra,19.8762,75.3433,25.2,89,0.0,937.5,1.2,36.7,20,3.0,2.9,4.9,167.0,57.0,3.6,7,5,3,1,2026-07-04T13:18:42.620079+05:30
Solapur,Maharashtra,17.6599,75.9064,25.1,89,0.1,952.3,1.05,44.3,22,2.0,1.7,1.7,123.0,59.0,1.3,10,5,3,1,2026-07-04T13:18:42.620087+05:30
Kolhapur,Maharashtra,16.705,74.2433,23.1,95,0.3,943.8,1.2,53.6,21,3.0,2.4,3.9,131.0,47.0,1.2,6,5,3,1,2026-07-04T13:18:42.620096+05:30
Goa,Goa,15.2993,74.124,24.4,98,0.5,997.1,3.8,37.1,51,18.9,10.0,1.1,171.0,58.0,0.6,6,5,3,1,2026-07-04T13:18:42.620103+05:30
Jodhpur,Rajasthan,26.2389,73.0243,33.2,62,0.0,975.0,8.35,27.4,151,358.6,87.5,0.8,149.0,106.0,3.6,3,5,7,1,2026-07-04T13:18:42.620111+05:30
Udaipur,Rajasthan,24.5854,73.7125,30.8,60,0.0,939.4,5.9,32.8,60,69.4,29.9,1.3,124.0,84.0,5.1,0,5,3,1,2026-07-04T13:18:42.620119+05:30
Kota,Rajasthan,25.2138,75.8648,33.0,59,0.0,970.8,7.3,28.1,97,86.4,34.6,1.8,158.0,110.0,4.0,0,5,7,1,2026-07-04T13:18:42.620126+05:30
Bikaner,Rajasthan,28.0229,73.3119,40.3,33,0.0,973.0,7.4,33.5,123,85.0,35.5,0.5,227.0,148.0,7.4,0,5,10,1,2026-07-04T13:18:42.620134+05:30
Ajmer,Rajasthan,26.4499,74.6399,32.4,57,0.0,947.6,7.5,33.5,120,121.5,43.5,0.9,162.0,118.0,3.4,0,5,7,1,2026-07-04T13:18:42.620142+05:30
Gwalior,Madhya Pradesh,26.2183,78.1828,34.1,60,0.0,974.6,8.0,30.2,74,21.8,20.8,1.0,253.0,145.0,4.3,0,5,7,1,2026-07-04T13:18:42.620149+05:30
Indore,Madhya Pradesh,22.7196,75.8577,29.4,67,0.1,940.4,7.9,32.4,46,43.2,19.7,2.6,236.0,98.0,3.9,10,5,7,1,2026-07-04T13:18:42.620157+05:30
Bhopal,Madhya Pradesh,23.2599,77.4126,31.7,64,0.0,945.3,8.55,31.0,58,9.0,8.8,1.2,205.0,128.0,3.3,3,5,7,1,2026-07-04T13:18:42.620165+05:30
Jabalpur,Madhya Pradesh,23.1815,79.9864,32.6,61,0.0,952.3,8.5,25.6,63,28.2,27.9,1.5,237.0,163.0,17.4,3,5,7,1,2026-07-04T13:18:42.620172+05:30
Ujjain,Madhya Pradesh,23.1765,75.7885,30.0,66,0.0,945.9,7.4,30.6,49,58.3,22.4,1.5,171.0,89.0,3.3,7,5,7,1,2026-07-04T13:18:42.620179+05:30
Visakhapatnam,Andhra Pradesh,17.6868,83.2185,30.1,70,0.0,993.1,3.65,54.4,40,8.0,7.3,4.9,264.0,90.0,16.3,3,5,3,1,2026-07-04T13:18:42.620187+05:30
Vijayawada,Andhra Pradesh,16.5062,80.648,31.5,63,0.1,996.0,2.0,61.9,37,6.8,5.0,1.5,140.0,74.0,3.6,6,5,3,1,2026-07-04T13:18:42.620194+05:30
Guntur,Andhra Pradesh,16.3067,80.4365,29.5,69,0.1,997.5,2.5,48.2,32,7.4,5.0,1.3,143.0,73.0,3.6,10,5,3,1,2026-07-04T13:18:42.620202+05:30
Nellore,Andhra Pradesh,14.4426,79.9865,32.0,56,0.0,1001.1,1.5,46.1,34,6.3,3.9,2.8,100.0,66.0,4.0,0,5,0,1,2026-07-04T13:18:42.620210+05:30
Kurnool,Andhra Pradesh,15.8281,78.0373,30.0,57,0.0,972.8,1.3,75.6,20,7.5,4.4,1.6,112.0,66.0,2.0,4,5,3,1,2026-07-04T13:18:42.620219+05:30
Kakinada,Andhra Pradesh,16.9891,82.2475,30.7,69,0.1,998.7,1.75,67.3,38,6.8,5.6,1.9,155.0,82.0,3.9,6,5,3,1,2026-07-04T13:18:42.620226+05:30
Tirupati,Andhra Pradesh,13.6288,79.4192,33.0,46,0.0,987.4,2.5,48.2,32,8.9,4.5,1.3,109.0,69.0,1.3,0,5,3,1,2026-07-04T13:18:42.620234+05:30
Warangal,Telangana,17.9689,79.5941,29.2,68,0.0,971.6,2.0,52.9,20,4.9,4.7,3.1,141.0,59.0,1.8,7,5,3,1,2026-07-04T13:18:42.620241+05:30
Nizamabad,Telangana,18.6725,78.0941,24.9,91,0.0,958.1,1.9,45.4,20,4.2,4.0,3.5,152.0,58.0,4.2,3,5,3,1,2026-07-04T13:18:42.620249+05:30
Mysore,Karnataka,12.2958,76.6396,26.6,66,0.1,927.9,7.7,64.8,22,8.4,4.0,2.4,110.0,58.0,1.4,10,5,7,1,2026-07-04T13:18:42.620256+05:30
Mangalore,Karnataka,12.9141,74.856,29.5,73,0.0,1006.8,7.75,59.8,36,20.7,10.5,1.1,97.0,56.0,1.3,7,5,4,1,2026-07-04T13:18:42.620264+05:30
Hubli-Dharwad,Karnataka,15.3647,75.124,24.9,81,0.1,938.7,1.85,61.6,22,2.8,1.8,2.0,112.0,57.0,0.7,6,5,3,1,2026-07-04T13:18:42.620272+05:30
Belgaum,Karnataka,15.8497,74.4977,22.2,93,0.1,922.8,2.0,60.1,22,2.7,1.9,2.8,102.0,49.0,0.9,6,5,3,1,2026-07-04T13:18:46.006134+05:30
Coimbatore,Tamil Nadu,11.0168,76.9558,25.0,86,0.0,961.0,5.5,51.8,21,12.0,5.4,1.5,143.0,61.0,1.4,7,5,3,1,2026-07-04T13:18:46.006168+05:30
Madurai,Tamil Nadu,9.9252,78.1198,31.7,53,0.0,992.1,2.15,46.1,23,10.5,6.0,1.8,113.0,84.0,2.0,0,5,3,1,2026-07-04T13:18:46.006179+05:30
Trichy,Tamil Nadu,10.7905,78.7047,28.3,77,0.1,998.6,5.25,53.3,22,11.0,5.9,1.8,101.0,70.0,1.8,10,5,3,1,2026-07-04T13:18:46.006188+05:30
Salem,Tamil Nadu,11.6643,78.146,29.9,64,0.0,976.0,7.25,38.9,32,11.1,6.6,2.1,130.0,90.0,5.2,7,5,7,1,2026-07-04T13:18:46.006197+05:30
Tirunelveli,Tamil Nadu,8.7139,77.7567,32.8,48,0.0,1003.1,3.25,47.9,28,8.0,4.2,1.1,106.0,63.0,0.8,0,5,0,1,2026-07-04T13:18:46.006207+05:30
Vellore,Tamil Nadu,12.9165,79.1325,30.0,62,0.0,981.4,2.85,51.5,24,5.9,3.6,1.8,119.0,70.0,1.8,7,5,3,1,2026-07-04T13:18:46.006215+05:30
Erode,Tamil Nadu,11.341,77.7172,33.5,49,0.0,987.7,6.6,53.3,25,9.1,5.0,1.6,140.0,77.0,1.6,0,5,7,1,2026-07-04T13:18:46.006223+05:30
Kochi,Kerala,9.9312,76.2673,26.8,83,0.2,1010.8,6.65,46.4,41,14.7,8.2,2.5,108.0,59.0,2.3,10,0,4,1,2026-07-04T13:18:46.006232+05:30
Thiruvananthapuram,Kerala,8.5241,76.9366,25.8,91,0.0,1010.0,7.85,45.7,39,14.3,7.3,1.0,97.0,57.0,0.7,7,0,4,1,2026-07-04T13:18:46.006240+05:30
Kozhikode,Kerala,11.2588,75.7804,26.0,88,0.1,1009.7,4.55,33.8,30,16.2,7.5,0.6,106.0,58.0,0.7,10,0,0,1,2026-07-04T13:18:46.006247+05:30
Thrissur,Kerala,10.5276,76.2144,25.5,93,0.1,1008.8,8.1,42.1,36,12.7,6.7,1.4,109.0,56.0,1.3,10,0,4,1,2026-07-04T13:18:46.006256+05:30
Kannur,Kerala,11.8745,75.3704,24.8,96,0.3,1008.9,8.2,37.8,32,15.3,7.6,1.3,102.0,56.0,0.9,6,0,4,1,2026-07-04T13:18:46.006264+05:30
Patna,Bihar,25.5941,85.1376,34.5,60,0.0,990.7,8.5,35.6,76,16.8,16.6,1.8,221.0,158.0,8.3,0,5,7,1,2026-07-04T13:18:46.006271+05:30
Gaya,Bihar,24.7914,85.0002,35.3,52,0.0,983.6,8.5,36.7,61,9.1,8.4,1.1,181.0,112.0,4.0,0,5,10,1,2026-07-04T13:18:46.006279+05:30
Muzaffarpur,Bihar,26.1209,85.3647,34.3,64,0.0,991.0,8.1,34.2,83,17.3,17.2,1.9,226.0,166.0,7.4,3,5,7,1,2026-07-04T13:18:46.006286+05:30
Bhagalpur,Bihar,25.2425,87.0117,34.8,59,0.0,991.4,7.6,38.5,63,10.3,9.9,2.0,155.0,128.0,8.2,0,5,7,1,2026-07-04T13:18:46.006294+05:30
Ranchi,Jharkhand,23.3441,85.3096,26.8,83,0.1,928.3,7.15,50.0,70,12.5,12.2,4.5,229.0,95.0,17.8,10,5,7,1,2026-07-04T13:18:46.006303+05:30
Jamshedpur,Jharkhand,22.8046,86.2029,29.1,78,0.1,979.4,7.1,46.1,61,9.8,9.5,3.1,167.0,95.0,6.1,10,5,7,1,2026-07-04T13:18:46.006310+05:30
Dhanbad,Jharkhand,23.7957,86.4304,31.5,68,0.0,969.5,6.2,52.6,88,12.8,12.4,7.5,167.0,97.0,23.4,3,5,7,1,2026-07-04T13:18:46.006318+05:30
Bokaro,Jharkhand,23.6693,86.1511,31.1,70,0.0,973.2,5.1,51.8,95,13.2,12.7,8.0,178.0,97.0,26.6,3,5,3,1,2026-07-04T13:18:46.006325+05:30
Bhubaneswar,Odisha,20.2961,85.8245,28.7,87,0.0,988.8,2.95,34.9,81,8.9,8.7,3.2,213.0,87.0,3.7,7,5,3,1,2026-07-04T13:18:46.006333+05:30
Cuttack,Odisha,20.4625,85.8828,30.4,76,0.0,990.5,2.3,32.4,81,8.9,8.7,3.2,216.0,87.0,3.7,3,5,3,1,2026-07-04T13:18:46.006341+05:30
Rourkela,Odisha,22.2604,84.8536,27.9,85,0.2,973.8,6.7,49.7,66,9.5,9.3,2.5,193.0,104.0,9.8,10,5,7,1,2026-07-04T13:18:46.006349+05:30
Raipur,Chhattisgarh,21.2514,81.6296,31.8,66,0.0,964.5,6.7,37.1,72,26.6,26.4,12.1,224.0,139.0,44.4,3,5,7,1,2026-07-04T13:18:46.006356+05:30
Bhilai,Chhattisgarh,21.1938,81.3509,31.8,66,0.1,964.8,6.65,29.9,64,30.3,30.0,19.1,217.0,131.0,62.0,6,5,7,1,2026-07-04T13:18:46.006364+05:30
Guwahati,Assam,26.1158,91.7086,35.2,58,0.0,991.3,8.7,31.7,44,6.3,6.2,1.1,188.0,107.0,1.2,0,5,10,1,2026-07-04T13:18:46.006371+05:30
Agartala,Tripura,23.8315,91.2868,33.0,67,0.0,996.2,8.55,35.6,52,7.1,7.1,2.4,128.0,126.0,0.8,3,5,7,1,2026-07-04T13:18:46.006379+05:30
Shillong,Meghalaya,25.5788,91.8933,24.2,82,0.1,852.8,8.3,32.8,31,3.7,3.7,0.6,141.0,84.0,0.9,6,5,7,1,2026-07-04T13:18:46.006386+05:30
Imphal,Manipur,24.817,93.9368,27.2,74,0.1,917.8,6.95,26.3,32,1.5,1.5,0.8,161.0,69.0,0.7,10,5,7,1,2026-07-04T13:18:46.006393+05:30
Aizawl,Mizoram,23.7271,92.7176,24.4,88,0.2,885.7,8.15,24.5,32,4.0,3.7,0.8,135.0,73.0,0.5,6,5,7,1,2026-07-04T13:18:46.006401+05:30
Kohima,Nagaland,25.6701,94.1077,27.0,65,0.0,851.8,9.1,27.4,31,3.0,3.0,0.6,138.0,82.0,0.4,7,5,7,1,2026-07-04T13:18:46.006408+05:30
Gangtok,Sikkim,27.3314,88.6138,25.4,59,0.1,835.4,8.85,32.0,47,7.6,7.0,0.8,188.0,117.0,0.8,7,5,7,1,2026-07-04T13:18:46.006416+05:30
Siliguri,West Bengal,26.7271,88.3953,33.5,66,0.0,984.3,8.7,28.1,68,14.2,13.5,1.3,240.0,128.0,1.8,3,5,7,1,2026-07-04T13:18:49.418841+05:30
Durgapur,West Bengal,23.5204,87.3119,33.2,64,0.1,983.6,6.95,55.4,68,9.1,8.8,5.9,187.0,102.0,13.8,6,5,7,1,2026-07-04T13:18:49.418873+05:30
Asansol,West Bengal,23.6739,86.9524,32.7,66,0.0,982.5,7.25,49.3,69,10.3,10.0,5.6,182.0,103.0,13.8,3,5,7,1,2026-07-04T13:18:49.418884+05:30
Pondicherry,Puducherry,11.9139,79.8145,29.7,68,0.0,1006.1,6.25,45.0,47,10.4,8.0,9.4,131.0,59.0,15.4,7,5,4,1,2026-07-04T13:18:49.418893+05:30
Port Blair,Andaman and Nicobar Islands,11.6234,92.7265,29.6,74,0.1,1005.1,4.8,51.5,49,31.8,15.2,0.2,92.0,46.0,0.4,10,5,0,1,2026-07-04T13:18:49.418902+05:30
Haridwar,Uttarakhand,29.9457,78.1642,34.6,56,0.0,966.9,6.55,21.6,82,19.3,19.2,1.4,341.0,162.0,8.6,0,5,7,1,2026-07-04T13:18:49.418911+05:30
Rishikesh,Uttarakhand,30.0869,78.2676,32.9,62,0.1,959.9,6.7,19.1,57,14.6,14.5,0.8,304.0,144.0,6.1,6,5,7,1,2026-07-04T13:18:49.418918+05:30
Nainital,Uttarakhand,29.3919,79.4542,24.3,67,0.1,804.8,6.65,28.4,62,12.9,12.6,0.9,245.0,130.0,1.7,6,5,7,1,2026-07-04T13:18:49.418926+05:30
Mussoorie,Uttarakhand,30.4599,78.0664,20.5,90,0.0,801.3,6.25,32.4,53,12.0,11.9,1.1,263.0,147.0,4.5,3,5,7,1,2026-07-04T13:18:49.418934+05:30
Dharamshala,Himachal Pradesh,32.219,76.3234,26.7,64,0.0,866.5,8.4,31.0,46,6.8,6.1,1.0,312.0,134.0,0.8,7,5,7,1,2026-07-04T13:18:49.418941+05:30
Dalhousie,Himachal Pradesh,32.5387,75.971,20.9,95,0.0,803.3,8.45,28.8,61,18.0,16.4,1.4,290.0,180.0,2.7,3,5,7,1,2026-07-04T13:18:49.418949+05:30
Patiala,Punjab,30.3398,76.3869,28.9,89,0.3,971.6,7.15,18.0,111,38.1,34.5,2.4,379.0,202.0,13.2,10,5,7,1,2026-07-04T13:18:49.418956+05:30
Bhatinda,Punjab,30.211,74.9455,36.3,48,0.0,976.2,8.05,29.9,113,100.8,53.9,3.3,337.0,235.0,28.0,0,5,10,1,2026-07-04T13:18:49.418964+05:30
Rohtak,Haryana,28.8955,76.6066,35.2,56,0.0,974.1,6.75,31.7,153,145.3,43.4,3.9,450.0,206.0,19.2,0,5,10,1,2026-07-04T13:18:49.418971+05:30
Panipat,Haryana,29.3909,76.9635,29.4,82,0.0,973.7,6.5,30.6,153,133.2,43.9,3.6,395.0,209.0,22.9,7,5,7,1,2026-07-04T13:18:49.418977+05:30
Mathura,Uttar Pradesh,27.4924,77.6737,35.1,57,0.0,978.5,6.7,22.3,107,27.9,24.0,1.7,299.0,172.0,4.0,0,5,10,1,2026-07-04T13:18:49.418985+05:30
Vrindavan,Uttar Pradesh,27.5823,77.7027,35.3,57,0.0,979.0,7.7,24.1,107,27.9,24.0,1.7,300.0,172.0,4.0,0,5,10,1,2026-07-04T13:18:49.418991+05:30
Ayodhya,Uttar Pradesh,26.7922,82.1998,35.3,60,0.0,986.2,7.45,26.6,96,23.1,22.4,1.2,277.0,152.0,6.7,0,5,10,1,2026-07-04T13:18:49.418999+05:30
Ratlam,Madhya Pradesh,23.3315,75.0367,30.7,63,0.0,947.3,6.1,28.8,43,46.7,17.2,1.5,159.0,81.0,3.4,3,5,7,1,2026-07-04T13:18:49.419006+05:30
Sagar,Madhya Pradesh,23.8388,78.7378,32.1,63,0.1,941.7,8.0,25.6,58,21.5,21.3,1.1,232.0,141.0,14.2,6,5,7,1,2026-07-04T13:18:49.419013+05:30
Satna,Madhya Pradesh,24.6005,80.8322,34.6,57,0.0,961.9,7.0,47.2,71,20.6,20.1,1.2,206.0,153.0,8.8,0,5,7,1,2026-07-04T13:18:49.419020+05:30
Akola,Maharashtra,20.7002,77.0082,28.2,78,0.0,967.5,5.2,38.2,21,2.1,2.0,5.4,149.0,60.0,5.9,7,5,3,1,2026-07-04T13:18:49.419028+05:30
Amravati,Maharashtra,20.9374,77.7796,29.8,68,0.1,959.2,7.1,38.5,22,2.6,2.4,5.0,196.0,63.0,7.3,10,5,7,1,2026-07-04T13:18:49.419035+05:30
Latur,Maharashtra,18.4088,76.5604,25.0,85,0.0,934.1,2.3,46.4,22,2.4,1.8,1.3,126.0,59.0,0.9,7,5,3,1,2026-07-04T13:18:49.419043+05:30
Nanded,Maharashtra,19.1383,77.3091,27.3,77,0.0,961.9,1.5,42.1,20,3.9,3.8,3.3,155.0,60.0,3.1,7,5,3,1,2026-07-04T13:18:49.419050+05:30
Gulbarga,Karnataka,17.3297,76.8343,25.2,90,0.1,953.8,1.45,59.4,22,2.9,2.0,1.8,132.0,64.0,1.7,10,5,3,1,2026-07-04T13:18:49.419057+05:30
Bidar,Karnataka,17.9104,77.5199,25.0,85,0.0,929.7,1.15,56.5,22,2.6,2.1,1.7,126.0,66.0,1.3,7,5,3,1,2026-07-04T13:18:49.419063+05:30
Hospet,Karnataka,15.2689,76.3909,26.4,72,0.1,953.0,1.5,72.4,22,2.2,1.7,2.1,106.0,59.0,1.5,10,5,3,1,2026-07-04T13:18:49.419070+05:30
Tirupur,Tamil Nadu,11.1085,77.3411,29.0,65,0.0,974.1,7.75,64.1,26,9.8,5.4,1.8,123.0,73.0,2.0,7,5,7,1,2026-07-04T13:18:49.419077+05:30
Alappuzha,Kerala,9.4981,76.3388,26.7,85,0.1,1010.8,6.8,47.2,40,15.3,8.4,2.6,87.0,58.0,1.8,10,0,4,1,2026-07-04T13:18:49.419084+05:30
Munnar,Kerala,10.0889,77.0595,17.7,96,0.5,857.0,4.85,54.7,17,4.1,2.9,1.7,101.0,56.0,1.0,6,10,3,1,2026-07-04T13:18:49.419091+05:30
Silchar,Assam,24.8333,92.7789,34.3,63,0.0,994.8,8.8,34.6,55,4.3,4.2,0.9,175.0,88.0,1.0,3,5,7,1,2026-07-04T13:18:49.419098+05:30
Dibrugarh,Assam,27.4728,94.912,35.2,58,0.0,985.9,8.9,24.1,56,7.1,6.9,1.1,170.0,115.0,1.2,0,5,10,1,2026-07-04T13:18:49.419105+05:30
