city,state,latitude,longitude,temp,humidity,rain,pressure,uv_index,wind_gusts,aqi,pm10,pm2_5,mosquito_risk,arthritis_risk,migraine_risk,frizz_risk,updated_at
Delhi,Delhi,28.6139,77.209,22.6,63,0.0,986.5,6.0,25.2,171,255.2,143.9,3,5,3,0,2026-03-08T01:59:33.623392+05:30
Mumbai,Maharashtra,19.076,72.8777,27.2,76,0.0,1009.2,7.5,24.1,98,38.2,35.2,7,0,4,1,2026-03-08T01:59:33.623451+05:30
Bangalore,Karnataka,12.9716,77.5946,22.0,62,0.0,911.8,9.25,25.9,107,43.8,39.2,3,5,7,0,2026-03-08T01:59:33.623467+05:30
Hyderabad,Telangana,17.385,78.4867,23.5,55,0.0,953.6,8.55,25.9,99,50.9,41.6,0,5,7,0,2026-03-08T01:59:33.623476+05:30
Chennai,Tamil Nadu,13.0827,80.2707,26.1,82,0.0,1008.8,8.95,33.5,84,26.5,18.6,7,0,4,1,2026-03-08T01:59:33.623485+05:30
Kolkata,West Bengal,22.5726,88.3639,23.5,96,0.0,1009.6,7.65,15.1,148,57.0,49.1,3,0,4,1,2026-03-08T01:59:33.623493+05:30
Pune,Maharashtra,18.5204,73.8567,22.9,49,0.0,949.0,8.1,28.4,101,54.8,53.6,0,5,7,0,2026-03-08T01:59:33.623503+05:30
Ahmedabad,Gujarat,23.0225,72.5714,23.2,53,0.0,1004.3,7.35,19.1,105,62.9,55.3,0,5,4,0,2026-03-08T01:59:33.623510+05:30
Jaipur,Rajasthan,26.9124,75.7873,24.8,42,0.0,962.9,6.8,25.6,84,61.0,44.0,0,5,7,0,2026-03-08T01:59:33.623516+05:30
Lucknow,Uttar Pradesh,26.8467,80.9462,23.0,74,0.0,997.2,6.5,19.4,171,194.6,166.7,3,5,7,1,2026-03-08T01:59:33.623523+05:30
Kanpur,Uttar Pradesh,26.4499,80.3319,22.1,80,0.0,995.3,6.5,16.9,164,162.1,125.7,3,5,7,1,2026-03-08T01:59:33.623530+05:30
Chandigarh,Chandigarh,30.7333,76.7794,21.4,71,0.0,972.3,5.9,30.6,158,85.4,76.4,3,5,3,0,2026-03-08T01:59:33.623536+05:30
Srinagar,Jammu and Kashmir,34.0837,74.7973,8.3,74,0.0,844.9,6.8,14.8,118,80.6,69.2,3,5,7,0,2026-03-08T01:59:33.623543+05:30
Jammu,Jammu and Kashmir,32.7266,74.857,19.5,79,0.0,977.0,6.3,29.9,138,54.2,50.1,3,5,7,0,2026-03-08T01:59:33.623549+05:30
Amritsar,Punjab,31.634,74.8723,20.6,85,0.0,984.7,6.1,23.8,154,149.0,111.1,3,5,7,1,2026-03-08T01:59:33.623555+05:30
Ludhiana,Punjab,30.901,75.8573,22.0,71,0.0,982.5,6.15,27.7,173,183.0,147.1,3,5,7,1,2026-03-08T01:59:33.623561+05:30
Jalandhar,Punjab,31.326,75.5762,20.1,84,0.0,983.7,6.2,27.4,169,190.0,149.5,3,5,7,1,2026-03-08T01:59:33.623568+05:30
Dehradun,Uttarakhand,30.6284,78.0322,13.9,83,0.0,832.3,6.3,37.1,103,51.1,41.9,3,10,7,0,2026-03-08T01:59:33.623574+05:30
Shimla,Himachal Pradesh,31.1048,77.1734,12.1,81,0.0,786.2,6.35,52.2,129,72.9,60.8,3,10,7,0,2026-03-08T01:59:33.623579+05:30
Manali,Himachal Pradesh,32.2396,77.1887,15.9,43,0.0,824.3,7.55,27.4,53,8.7,5.9,0,5,7,0,2026-03-08T01:59:33.623585+05:30
Gurgaon,Haryana,28.4595,77.0266,21.1,65,0.0,984.8,6.1,22.7,180,210.5,118.0,3,5,7,0,2026-03-08T01:59:33.623591+05:30
Noida,Uttar Pradesh,28.5355,77.391,21.4,71,0.0,988.1,6.0,24.8,180,210.5,118.0,3,5,3,0,2026-03-08T01:59:33.623596+05:30
Ghaziabad,Uttar Pradesh,28.6692,77.4538,21.2,75,0.0,986.2,6.0,24.1,173,279.4,156.0,3,5,3,1,2026-03-08T01:59:33.623601+05:30
Faridabad,Haryana,28.4089,77.3178,20.3,67,0.0,987.2,6.05,22.0,180,210.5,118.0,3,5,7,0,2026-03-08T01:59:33.623607+05:30
Meerut,Uttar Pradesh,28.9845,77.7064,21.2,78,0.0,985.0,5.85,28.4,173,279.4,156.0,3,5,3,1,2026-03-08T01:59:33.623612+05:30
Agra,Uttar Pradesh,27.1767,78.0081,20.3,81,0.0,991.2,6.35,19.4,165,198.4,81.7,3,5,7,1,2026-03-08T01:59:33.623617+05:30
Varanasi,Uttar Pradesh,25.3176,82.9739,22.6,79,0.0,1001.1,7.2,13.0,175,136.4,124.8,3,5,4,1,2026-03-08T01:59:33.623624+05:30
Prayagraj,Uttar Pradesh,25.4358,81.8463,22.0,82,0.0,999.6,7.05,12.6,172,123.9,113.9,3,5,7,1,2026-03-08T01:59:33.623630+05:30
Gorakhpur,Uttar Pradesh,26.7606,83.3732,21.8,81,0.0,1000.7,6.9,17.3,173,133.6,125.3,3,5,4,1,2026-03-08T01:59:33.623635+05:30
Bareilly,Uttar Pradesh,28.367,79.4304,21.3,85,0.0,990.4,6.2,20.2,165,106.9,94.3,3,5,7,1,2026-03-08T01:59:33.623643+05:30
Aligarh,Uttar Pradesh,27.8974,78.088,20.1,88,0.0,988.9,6.15,22.3,172,201.6,102.9,3,5,7,1,2026-03-08T01:59:33.623648+05:30
Moradabad,Uttar Pradesh,28.8386,78.7733,21.6,82,0.0,987.2,6.05,23.8,171,150.4,128.5,3,5,7,1,2026-03-08T01:59:33.623653+05:30
Saharanpur,Uttar Pradesh,29.9637,77.546,20.2,83,0.0,979.3,5.65,35.3,168,146.2,124.3,3,5,3,1,2026-03-08T01:59:33.623659+05:30
Jhansi,Uttar Pradesh,25.4484,78.5685,21.3,58,0.0,980.9,6.95,24.8,109,106.2,44.5,0,5,7,0,2026-03-08T01:59:36.935094+05:30
Surat,Gujarat,21.1702,72.8311,24.8,68,0.0,1008.1,7.2,23.8,155,66.6,65.0,3,0,4,1,2026-03-08T01:59:36.935126+05:30
Vadodara,Gujarat,22.3072,73.1812,24.1,59,0.0,1006.0,7.35,17.6,151,56.9,54.2,0,5,4,0,2026-03-08T01:59:36.935137+05:30
Rajkot,Gujarat,22.3039,70.8022,23.0,55,0.0,996.9,7.2,22.3,75,57.2,27.3,0,5,7,0,2026-03-08T01:59:36.935146+05:30
Thane,Maharashtra,19.2183,72.9781,24.5,80,0.0,1008.7,7.5,32.0,98,38.2,35.2,3,0,4,1,2026-03-08T01:59:36.935156+05:30
Nagpur,Maharashtra,21.1458,79.0882,23.6,53,0.0,974.5,7.9,24.1,67,30.5,20.0,0,5,7,0,2026-03-08T01:59:36.935165+05:30
Nashik,Maharashtra,19.9975,73.7898,23.5,58,0.0,946.8,7.7,27.7,99,40.7,39.9,0,5,7,0,2026-03-08T01:59:36.935174+05:30
Aurangabad,Maharashtra,19.8762,75.3433,23.7,49,0.0,944.8,8.2,29.2,82,43.9,42.0,0,5,7,0,2026-03-08T01:59:36.935182+05:30
Solapur,Maharashtra,17.6599,75.9064,23.9,56,0.0,956.8,8.45,18.4,68,25.6,22.3,0,5,7,0,2026-03-08T01:59:36.935191+05:30
Kolhapur,Maharashtra,16.705,74.2433,18.9,64,0.0,947.6,8.6,28.1,144,65.7,64.7,3,5,7,0,2026-03-08T01:59:36.935199+05:30
Goa,Goa,15.2993,74.124,25.3,89,0.0,998.2,8.65,35.6,147,60.8,58.7,7,5,7,1,2026-03-08T01:59:36.935208+05:30
Jodhpur,Rajasthan,26.2389,73.0243,26.1,36,0.0,986.1,7.05,18.4,63,118.3,24.0,4,5,7,0,2026-03-08T01:59:36.935216+05:30
Udaipur,Rajasthan,24.5854,73.7125,19.6,51,0.0,949.2,7.7,21.2,46,15.4,13.6,0,5,7,0,2026-03-08T01:59:36.935225+05:30
Kota,Rajasthan,25.2138,75.8648,20.8,59,0.0,981.1,7.05,13.0,90,47.3,44.4,0,5,7,0,2026-03-08T01:59:36.935233+05:30
Bikaner,Rajasthan,28.0229,73.3119,24.7,50,0.0,985.0,6.8,15.8,55,18.2,10.9,0,5,7,0,2026-03-08T01:59:36.935241+05:30
Ajmer,Rajasthan,26.4499,74.6399,22.6,34,0.0,957.4,7.05,18.0,68,36.7,35.3,0,5,7,0,2026-03-08T01:59:36.935249+05:30
Gwalior,Madhya Pradesh,26.2183,78.1828,21.8,64,0.0,986.4,6.65,22.7,114,149.5,46.0,3,5,7,0,2026-03-08T01:59:36.935258+05:30
Indore,Madhya Pradesh,22.7196,75.8577,19.9,61,0.0,949.4,7.65,22.3,83,35.2,31.5,3,5,7,0,2026-03-08T01:59:36.935266+05:30
Bhopal,Madhya Pradesh,23.2599,77.4126,22.2,49,0.0,955.4,7.5,22.0,67,47.5,28.7,0,5,7,0,2026-03-08T01:59:36.935274+05:30
Jabalpur,Madhya Pradesh,23.1815,79.9864,21.3,69,0.0,963.6,7.6,24.8,93,60.1,41.6,3,5,7,0,2026-03-08T01:59:36.935281+05:30
Ujjain,Madhya Pradesh,23.1765,75.7885,21.4,54,0.0,955.7,7.55,19.8,90,48.8,46.7,0,5,7,0,2026-03-08T01:59:36.935288+05:30
Visakhapatnam,Andhra Pradesh,17.6868,83.2185,25.9,83,0.0,1005.9,8.5,38.5,127,39.8,33.1,7,5,4,1,2026-03-08T01:59:36.935295+05:30
Vijayawada,Andhra Pradesh,16.5062,80.648,24.9,90,0.0,1004.1,8.6,33.5,131,31.3,27.1,3,5,4,1,2026-03-08T01:59:36.935301+05:30
Guntur,Andhra Pradesh,16.3067,80.4365,24.7,91,0.0,1005.3,8.6,28.8,132,30.3,26.5,3,5,4,1,2026-03-08T01:59:36.935308+05:30
Nellore,Andhra Pradesh,14.4426,79.9865,25.1,88,0.0,1007.3,8.8,32.0,105,23.2,18.9,7,5,4,1,2026-03-08T01:59:36.935316+05:30
Kurnool,Andhra Pradesh,15.8281,78.0373,26.4,54,0.0,977.1,8.6,28.8,72,36.1,31.0,4,5,7,1,2026-03-08T01:59:36.935323+05:30
Kakinada,Andhra Pradesh,16.9891,82.2475,25.2,87,0.0,1009.5,8.55,33.1,97,35.2,26.3,7,0,4,1,2026-03-08T01:59:36.935329+05:30
Tirupati,Andhra Pradesh,13.6288,79.4192,23.3,90,0.0,993.3,8.95,28.1,137,36.2,33.4,3,5,7,1,2026-03-08T01:59:36.935336+05:30
Warangal,Telangana,17.9689,79.5941,23.5,81,0.0,979.3,8.35,27.4,95,45.4,41.3,3,5,7,1,2026-03-08T01:59:36.935343+05:30
Nizamabad,Telangana,18.6725,78.0941,22.1,57,0.0,965.0,8.25,29.5,104,47.1,35.3,0,5,7,0,2026-03-08T01:59:36.935349+05:30
Mysore,Karnataka,12.2958,76.6396,22.2,92,0.0,928.7,9.25,32.8,113,54.1,51.6,3,5,7,1,2026-03-08T01:59:36.935356+05:30
Mangalore,Karnataka,12.9141,74.856,28.4,80,0.0,1007.0,8.85,24.8,148,50.4,45.5,7,5,4,1,2026-03-08T01:59:36.935362+05:30
Hubli-Dharwad,Karnataka,15.3647,75.124,21.2,93,0.0,940.6,8.8,28.1,122,44.4,42.3,3,5,7,1,2026-03-08T01:59:36.935369+05:30
Belgaum,Karnataka,15.8497,74.4977,20.9,82,0.0,925.3,8.85,38.9,113,62.4,61.0,3,5,7,1,2026-03-08T01:59:40.246005+05:30
Coimbatore,Tamil Nadu,11.0168,76.9558,23.1,92,0.0,962.4,9.2,34.2,98,40.2,39.3,3,5,7,1,2026-03-08T01:59:40.246036+05:30
Madurai,Tamil Nadu,9.9252,78.1198,24.9,95,0.0,994.0,9.15,32.4,95,41.6,38.1,3,5,7,1,2026-03-08T01:59:40.246047+05:30
Trichy,Tamil Nadu,10.7905,78.7047,24.6,95,0.0,1001.0,9.05,26.6,92,36.2,32.6,3,5,4,1,2026-03-08T01:59:40.246056+05:30
Salem,Tamil Nadu,11.6643,78.146,25.4,80,0.0,978.4,9.1,18.7,101,41.0,37.4,7,5,7,1,2026-03-08T01:59:40.246066+05:30
Tirunelveli,Tamil Nadu,8.7139,77.7567,24.8,81,0.0,1003.8,9.15,45.7,99,46.2,44.5,3,5,4,1,2026-03-08T01:59:40.246075+05:30
Vellore,Tamil Nadu,12.9165,79.1325,22.7,92,0.0,986.1,9.05,38.5,140,52.0,48.5,3,5,7,1,2026-03-08T01:59:40.246083+05:30
Erode,Tamil Nadu,11.341,77.7172,26.5,78,0.0,989.9,9.1,20.2,107,32.5,30.2,7,5,7,1,2026-03-08T01:59:40.246092+05:30
Kochi,Kerala,9.9312,76.2673,27.0,86,0.0,1009.3,8.9,36.0,114,35.4,35.2,7,0,4,1,2026-03-08T01:59:40.246100+05:30
Thiruvananthapuram,Kerala,8.5241,76.9366,27.5,85,0.0,1008.3,9.05,30.2,97,29.8,28.1,7,0,4,1,2026-03-08T01:59:40.246108+05:30
Kozhikode,Kerala,11.2588,75.7804,28.3,82,0.0,1008.1,8.9,30.6,125,42.1,38.5,7,0,4,1,2026-03-08T01:59:40.246116+05:30
Thrissur,Kerala,10.5276,76.2144,26.0,94,0.0,1007.6,9.0,38.9,115,34.9,34.2,7,5,4,1,2026-03-08T01:59:40.246125+05:30
Kannur,Kerala,11.8745,75.3704,27.5,83,0.0,1007.3,8.9,29.9,142,54.9,51.9,7,5,4,1,2026-03-08T01:59:40.246133+05:30
Patna,Bihar,25.5941,85.1376,23.6,80,0.0,1004.0,7.35,12.2,163,114.1,105.0,3,5,4,1,2026-03-08T01:59:40.246141+05:30
Gaya,Bihar,24.7914,85.0002,23.1,81,0.0,996.9,7.45,19.8,155,76.1,68.9,3,5,7,1,2026-03-08T01:59:40.246149+05:30
Muzaffarpur,Bihar,26.1209,85.3647,22.9,80,0.0,1004.1,7.3,14.4,170,132.7,123.9,3,5,4,1,2026-03-08T01:59:40.246157+05:30
Bhagalpur,Bihar,25.2425,87.0117,22.9,77,0.0,1004.6,7.4,15.8,161,80.1,70.3,3,5,4,1,2026-03-08T01:59:40.246165+05:30
Ranchi,Jharkhand,23.3441,85.3096,21.2,80,0.0,940.0,8.1,20.5,154,83.8,67.8,3,5,7,1,2026-03-08T01:59:40.246173+05:30
Jamshedpur,Jharkhand,22.8046,86.2029,24.1,91,0.0,993.9,8.0,29.2,152,62.4,56.3,3,5,7,1,2026-03-08T01:59:40.246181+05:30
Dhanbad,Jharkhand,23.7957,86.4304,25.1,70,0.0,983.2,7.5,19.8,164,78.7,71.5,7,5,7,1,2026-03-08T01:59:40.246189+05:30
Bokaro,Jharkhand,23.6693,86.1511,23.6,78,0.0,987.3,7.85,27.0,168,100.1,88.7,3,5,7,1,2026-03-08T01:59:40.246197+05:30
Bhubaneswar,Odisha,20.2961,85.8245,25.8,87,0.0,1005.3,8.25,33.5,137,44.9,40.0,7,5,4,1,2026-03-08T01:59:40.246206+05:30
Cuttack,Odisha,20.4625,85.8828,25.9,87,0.0,1007.5,8.3,30.6,137,44.9,40.0,7,5,4,1,2026-03-08T01:59:40.246214+05:30
Rourkela,Odisha,22.2604,84.8536,25.4,82,0.0,987.4,7.9,33.1,160,73.3,64.0,7,5,7,1,2026-03-08T01:59:40.246222+05:30
Raipur,Chhattisgarh,21.2514,81.6296,24.5,57,0.0,976.0,8.0,21.2,153,101.0,74.7,0,5,7,0,2026-03-08T01:59:40.246230+05:30
Bhilai,Chhattisgarh,21.1938,81.3509,22.8,60,0.0,976.2,8.0,20.5,144,84.1,62.6,0,5,7,0,2026-03-08T01:59:40.246238+05:30
Guwahati,Assam,26.1158,91.7086,22.5,81,0.0,1004.8,7.35,23.8,150,59.1,53.4,3,5,4,1,2026-03-08T01:59:40.246246+05:30
Agartala,Tripura,23.8315,91.2868,20.8,91,0.0,1010.3,7.65,25.2,152,60.1,55.9,3,0,4,1,2026-03-08T01:59:40.246254+05:30
Shillong,Meghalaya,25.5788,91.8933,11.1,77,0.0,856.8,7.7,36.7,104,46.3,41.0,3,5,7,0,2026-03-08T01:59:40.246262+05:30
Imphal,Manipur,24.817,93.9368,17.7,81,0.0,926.7,7.9,43.6,160,107.1,103.4,3,10,7,0,2026-03-08T01:59:40.246270+05:30
Aizawl,Mizoram,23.7271,92.7176,17.2,78,0.0,895.2,7.85,29.9,181,138.3,131.3,3,5,7,0,2026-03-08T01:59:40.246278+05:30
Kohima,Nagaland,25.6701,94.1077,15.1,83,0.0,857.4,7.75,42.5,156,91.3,87.3,3,10,7,0,2026-03-08T01:59:40.246287+05:30
Gangtok,Sikkim,27.3314,88.6138,13.8,79,0.0,839.6,5.15,18.4,153,69.8,62.6,3,5,3,0,2026-03-08T01:59:40.246294+05:30
Siliguri,West Bengal,26.7271,88.3953,21.7,54,0.0,997.8,7.3,20.9,152,77.5,67.3,0,5,7,0,2026-03-08T01:59:43.565067+05:30
Durgapur,West Bengal,23.5204,87.3119,24.0,87,0.0,998.6,7.85,23.0,160,69.8,61.0,3,5,7,1,2026-03-08T01:59:43.565099+05:30
Asansol,West Bengal,23.6739,86.9524,24.7,82,0.0,997.1,7.5,21.6,159,66.8,58.9,3,5,7,1,2026-03-08T01:59:43.565109+05:30
Pondicherry,Puducherry,11.9139,79.8145,24.2,98,0.0,1009.9,8.95,34.2,77,25.3,17.0,3,0,4,1,2026-03-08T01:59:43.565119+05:30
Port Blair,Andaman and Nicobar Islands,11.6234,92.7265,26.9,74,0.0,1008.6,8.9,21.6,94,43.3,27.9,7,0,4,1,2026-03-08T01:59:43.565129+05:30
Haridwar,Uttarakhand,29.9457,78.1642,21.7,88,0.0,978.0,5.8,27.0,161,97.1,86.8,3,5,3,1,2026-03-08T01:59:43.565138+05:30
Rishikesh,Uttarakhand,30.0869,78.2676,21.5,82,0.0,970.9,5.85,23.4,160,100.8,82.2,3,5,3,1,2026-03-08T01:59:43.565147+05:30
Nainital,Uttarakhand,29.3919,79.4542,17.0,78,0.0,808.3,6.65,61.9,160,96.4,81.3,3,5,7,0,2026-03-08T01:59:43.565155+05:30
Mussoorie,Uttarakhand,30.4599,78.0664,15.8,87,0.0,805.2,6.2,45.0,160,103.1,87.1,3,10,7,0,2026-03-08T01:59:43.565165+05:30
Dharamshala,Himachal Pradesh,32.219,76.3234,21.1,26,0.0,873.3,6.4,27.7,51,22.6,11.5,0,5,7,0,2026-03-08T01:59:43.565173+05:30
Dalhousie,Himachal Pradesh,32.5387,75.971,17.4,31,0.0,807.3,6.65,25.2,92,41.4,35.5,0,5,7,0,2026-03-08T01:59:43.565182+05:30
Patiala,Punjab,30.3398,76.3869,20.9,76,0.0,981.8,5.85,28.8,168,163.4,120.1,3,5,3,1,2026-03-08T01:59:43.565190+05:30
Bhatinda,Punjab,30.211,74.9455,19.8,81,0.0,987.1,6.5,20.2,150,147.6,67.8,3,10,7,1,2026-03-08T01:59:43.565198+05:30
Rohtak,Haryana,28.8955,76.6066,21.0,66,0.0,985.2,6.05,23.8,170,260.8,136.4,3,5,7,0,2026-03-08T01:59:43.565206+05:30
Panipat,Haryana,29.3909,76.9635,20.7,75,0.0,983.9,5.8,28.4,174,269.2,146.2,3,5,3,1,2026-03-08T01:59:43.565214+05:30
Mathura,Uttar Pradesh,27.4924,77.6737,18.1,77,0.0,990.3,6.3,22.3,166,174.2,83.4,3,5,7,0,2026-03-08T01:59:43.565222+05:30
Vrindavan,Uttar Pradesh,27.5823,77.7027,18.9,82,0.0,990.8,6.25,23.0,166,174.2,83.4,3,10,7,0,2026-03-08T01:59:43.565230+05:30
Ayodhya,Uttar Pradesh,26.7922,82.1998,22.2,80,0.0,998.9,6.65,14.0,173,125.7,113.9,3,5,7,1,2026-03-08T01:59:43.565238+05:30
Ratlam,Madhya Pradesh,23.3315,75.0367,18.0,89,0.0,956.0,7.5,14.4,74,48.7,47.4,3,10,7,1,2026-03-08T01:59:43.565246+05:30
Sagar,Madhya Pradesh,23.8388,78.7378,21.4,56,0.0,952.2,7.45,23.4,72,67.8,27.1,0,5,7,0,2026-03-08T01:59:43.565255+05:30
Satna,Madhya Pradesh,24.6005,80.8322,21.2,74,0.0,974.3,7.4,23.8,155,100.1,82.7,3,5,7,1,2026-03-08T01:59:43.565262+05:30
Akola,Maharashtra,20.7002,77.0082,23.4,55,0.0,976.2,7.95,14.4,82,35.5,31.1,0,5,7,0,2026-03-08T01:59:43.565271+05:30
Amravati,Maharashtra,20.9374,77.7796,23.2,46,0.0,967.9,7.9,19.1,85,42.1,36.1,0,5,7,0,2026-03-08T01:59:43.565280+05:30
Latur,Maharashtra,18.4088,76.5604,24.4,41,0.0,940.2,8.4,23.8,78,48.8,40.6,0,5,7,0,2026-03-08T01:59:43.565288+05:30
Nanded,Maharashtra,19.1383,77.3091,24.4,52,0.0,969.2,8.15,23.4,91,52.3,41.1,0,5,7,0,2026-03-08T01:59:43.565296+05:30
Gulbarga,Karnataka,17.3297,76.8343,26.0,43,0.0,959.0,8.5,20.9,70,27.2,23.3,4,5,7,0,2026-03-08T01:59:43.565304+05:30
Bidar,Karnataka,17.9104,77.5199,23.3,52,0.0,935.6,8.4,26.3,81,38.5,29.1,0,5,7,0,2026-03-08T01:59:43.565312+05:30
Hospet,Karnataka,15.2689,76.3909,24.7,65,0.0,955.6,8.8,20.5,100,45.1,33.9,3,5,7,1,2026-03-08T01:59:43.565320+05:30
Tirupur,Tamil Nadu,11.1085,77.3411,26.0,81,0.0,976.1,9.25,33.5,115,40.2,38.6,7,5,7,1,2026-03-08T01:59:43.565328+05:30
Alappuzha,Kerala,9.4981,76.3388,27.0,88,0.0,1009.3,9.0,31.3,117,43.8,42.6,7,0,4,1,2026-03-08T01:59:43.565336+05:30
Munnar,Kerala,10.0889,77.0595,17.9,95,0.0,855.8,9.5,25.6,89,44.2,40.9,3,10,7,1,2026-03-08T01:59:43.565345+05:30
Silchar,Assam,24.8333,92.7789,23.7,75,0.0,1008.6,7.65,22.0,161,105.2,99.2,3,0,4,1,2026-03-08T01:59:43.565353+05:30
Dibrugarh,Assam,27.4728,94.912,23.2,81,0.0,999.1,6.7,24.1,154,74.0,68.0,3,5,7,1,2026-03-08T01:59:43.565360+05:30
