city,state,latitude,longitude,temp,humidity,rain,pressure,uv_index,wind_gusts,aqi,pm10,pm2_5,no2,co,o3,so2,mosquito_risk,arthritis_risk,migraine_risk,frizz_risk,updated_at
Delhi,Delhi,28.6139,77.209,28.9,58,0.0,981.4,7.65,41.4,466,372.5,92.9,27.7,558.0,104.0,28.2,4,5,7,1,2026-05-29T22:12:13.981837+05:30
Mumbai,Maharashtra,19.076,72.8777,30.8,69,0.0,1008.0,7.8,41.4,63,34.8,18.2,8.0,171.0,48.0,6.3,3,0,4,1,2026-05-29T22:12:13.981896+05:30
Bangalore,Karnataka,12.9716,77.5946,21.9,97,0.0,913.2,7.2,38.2,54,16.4,15.0,31.2,818.0,62.0,6.4,3,5,7,1,2026-05-29T22:12:13.981912+05:30
Hyderabad,Telangana,17.385,78.4867,31.2,59,0.0,952.5,9.1,39.6,62,51.9,47.7,56.6,1488.0,39.0,14.5,0,5,7,1,2026-05-29T22:12:13.981921+05:30
Chennai,Tamil Nadu,13.0827,80.2707,31.5,71,0.0,1006.6,8.75,42.1,167,31.2,25.5,17.7,303.0,111.0,11.3,3,5,4,1,2026-05-29T22:12:13.981930+05:30
Kolkata,West Bengal,22.5726,88.3639,26.6,91,0.0,1005.9,8.9,59.8,99,54.4,41.0,15.3,781.0,62.0,9.0,7,5,4,1,2026-05-29T22:12:13.981938+05:30
Pune,Maharashtra,18.5204,73.8567,26.3,78,0.0,948.1,8.4,46.8,45,19.0,13.0,8.4,169.0,58.0,6.9,7,5,7,1,2026-05-29T22:12:13.981944+05:30
Ahmedabad,Gujarat,23.0225,72.5714,34.7,50,0.0,998.0,8.1,47.5,75,39.0,21.4,4.5,202.0,75.0,4.0,0,5,7,1,2026-05-29T22:12:13.981951+05:30
Jaipur,Rajasthan,26.9124,75.7873,26.8,72,0.0,957.8,8.2,58.0,107,125.3,44.8,13.4,235.0,80.0,6.7,7,5,7,1,2026-05-29T22:12:13.981962+05:30
Lucknow,Uttar Pradesh,26.8467,80.9462,28.2,60,0.0,993.3,8.15,47.5,153,42.1,31.2,8.4,360.0,137.0,11.7,4,5,7,1,2026-05-29T22:12:13.981969+05:30
Kanpur,Uttar Pradesh,26.4499,80.3319,30.5,51,0.0,991.0,8.2,36.4,162,474.0,76.6,6.8,325.0,143.0,10.3,0,5,7,1,2026-05-29T22:12:13.981975+05:30
Chandigarh,Chandigarh,30.7333,76.7794,27.2,52,0.0,967.9,7.7,59.4,144,85.4,63.3,39.3,357.0,86.0,12.7,4,5,7,1,2026-05-29T22:12:13.981981+05:30
Srinagar,Jammu and Kashmir,34.0837,74.7973,16.7,70,0.0,839.1,8.9,28.1,101,32.9,25.6,32.7,1173.0,90.0,6.2,3,5,7,0,2026-05-29T22:12:13.981988+05:30
Jammu,Jammu and Kashmir,32.7266,74.857,30.5,36,0.0,970.6,8.5,45.7,135,149.9,85.4,55.9,589.0,66.0,9.1,0,5,7,0,2026-05-29T22:12:13.981997+05:30
Amritsar,Punjab,31.634,74.8723,30.9,41,0.0,978.6,8.4,46.1,194,217.0,81.3,25.2,434.0,99.0,10.7,0,5,7,0,2026-05-29T22:12:13.982003+05:30
Ludhiana,Punjab,30.901,75.8573,29.5,51,0.0,977.4,7.95,52.6,621,184.4,66.8,12.3,443.0,129.0,14.3,4,5,7,1,2026-05-29T22:12:13.982009+05:30
Jalandhar,Punjab,31.326,75.5762,30.1,49,0.0,978.0,8.15,47.2,467,216.5,75.7,12.4,476.0,129.0,14.1,0,5,7,1,2026-05-29T22:12:13.982015+05:30
Dehradun,Uttarakhand,30.6284,78.0322,13.4,95,0.0,829.3,8.0,29.5,115,71.7,50.3,26.1,279.0,97.0,2.8,3,10,7,0,2026-05-29T22:12:13.982022+05:30
Shimla,Himachal Pradesh,31.1048,77.1734,11.1,89,0.0,782.0,7.65,37.8,153,39.8,29.2,17.7,641.0,109.0,4.6,3,10,7,0,2026-05-29T22:12:13.982032+05:30
Manali,Himachal Pradesh,32.2396,77.1887,13.3,85,0.0,817.3,9.35,40.0,122,23.3,14.3,38.2,277.0,104.0,0.9,3,10,7,0,2026-05-29T22:12:13.982038+05:30
Gurgaon,Haryana,28.4595,77.0266,25.5,74,0.0,980.1,7.75,40.3,1169,560.7,134.6,41.0,547.0,75.0,19.7,7,5,7,1,2026-05-29T22:12:13.982044+05:30
Noida,Uttar Pradesh,28.5355,77.391,29.5,55,0.0,983.0,7.7,36.7,1169,560.7,134.6,41.0,487.0,75.0,19.7,4,5,7,1,2026-05-29T22:12:13.982050+05:30
Ghaziabad,Uttar Pradesh,28.6692,77.4538,29.3,57,0.0,981.2,7.7,40.7,250,203.0,61.9,12.3,337.0,118.0,11.4,4,5,7,1,2026-05-29T22:12:13.982056+05:30
Faridabad,Haryana,28.4089,77.3178,28.4,60,0.0,982.3,7.75,38.9,1169,560.7,134.6,41.0,410.0,75.0,19.7,4,5,7,1,2026-05-29T22:12:13.982064+05:30
Meerut,Uttar Pradesh,28.9845,77.7064,27.1,66,0.0,980.4,7.6,49.3,250,203.0,61.9,12.3,332.0,118.0,11.4,7,5,7,1,2026-05-29T22:12:13.982070+05:30
Agra,Uttar Pradesh,27.1767,78.0081,25.8,84,0.0,986.3,8.05,47.2,823,245.9,66.8,12.7,343.0,103.0,7.8,7,5,7,1,2026-05-29T22:12:13.982076+05:30
Varanasi,Uttar Pradesh,25.3176,82.9739,26.2,74,0.0,997.5,8.7,45.7,170,50.8,41.1,14.3,427.0,133.0,16.9,7,5,7,1,2026-05-29T22:12:13.982082+05:30
Prayagraj,Uttar Pradesh,25.4358,81.8463,28.8,59,0.0,995.3,8.6,38.5,162,47.8,38.5,10.1,359.0,146.0,13.6,4,5,7,1,2026-05-29T22:12:13.982089+05:30
Gorakhpur,Uttar Pradesh,26.7606,83.3732,24.8,86,0.0,997.8,8.1,47.5,134,29.9,25.6,12.4,441.0,101.0,6.4,3,5,7,1,2026-05-29T22:12:13.982097+05:30
Bareilly,Uttar Pradesh,28.367,79.4304,28.0,60,0.0,986.5,7.95,48.6,138,78.9,37.7,10.6,314.0,123.0,11.8,4,5,7,1,2026-05-29T22:12:13.982103+05:30
Aligarh,Uttar Pradesh,27.8974,78.088,29.1,59,0.0,984.2,7.85,45.4,521,339.0,80.1,11.5,347.0,111.0,10.4,4,5,7,1,2026-05-29T22:12:13.982109+05:30
Moradabad,Uttar Pradesh,28.8386,78.7733,28.8,52,0.0,983.3,7.8,51.1,139,49.2,32.8,12.4,326.0,118.0,11.2,4,5,7,1,2026-05-29T22:12:13.982115+05:30
Saharanpur,Uttar Pradesh,29.9637,77.546,25.2,64,0.0,975.0,7.45,49.0,122,72.2,50.5,26.9,391.0,84.0,12.3,7,5,7,1,2026-05-29T22:12:13.982121+05:30
Jhansi,Uttar Pradesh,25.4484,78.5685,27.0,68,0.0,977.1,8.45,58.7,92,86.6,38.5,6.7,256.0,90.0,6.4,7,5,7,1,2026-05-29T22:12:17.228784+05:30
Surat,Gujarat,21.1702,72.8311,30.3,74,0.0,1004.9,7.65,57.6,81,46.9,25.8,15.4,191.0,39.0,25.9,3,5,4,1,2026-05-29T22:12:17.228819+05:30
Vadodara,Gujarat,22.3072,73.1812,30.7,72,0.0,1000.9,8.05,53.3,79,40.5,25.9,16.1,198.0,39.0,19.9,3,5,4,1,2026-05-29T22:12:17.228828+05:30
Rajkot,Gujarat,22.3039,70.8022,30.5,65,0.0,991.1,7.7,55.4,70,38.8,19.8,4.2,120.0,51.0,4.5,3,5,7,1,2026-05-29T22:12:17.228837+05:30
Thane,Maharashtra,19.2183,72.9781,30.8,69,0.0,1007.4,7.8,40.7,63,34.8,18.2,8.0,180.0,48.0,6.3,3,5,4,1,2026-05-29T22:12:17.228863+05:30
Nagpur,Maharashtra,21.1458,79.0882,36.4,30,0.0,970.1,8.85,52.2,66,32.8,23.6,18.6,304.0,53.0,10.6,0,5,10,1,2026-05-29T22:12:17.228871+05:30
Nashik,Maharashtra,19.9975,73.7898,25.5,82,0.0,944.9,8.1,51.8,57,31.0,17.6,6.7,139.0,57.0,4.9,7,5,7,1,2026-05-29T22:12:17.228878+05:30
Aurangabad,Maharashtra,19.8762,75.3433,30.9,37,0.0,943.4,8.95,45.0,55,27.2,16.7,6.2,154.0,79.0,5.9,0,5,7,0,2026-05-29T22:12:17.228885+05:30
Solapur,Maharashtra,17.6599,75.9064,32.4,41,0.0,956.6,8.95,36.4,49,32.7,26.7,23.0,183.0,62.0,5.6,0,5,7,1,2026-05-29T22:12:17.228892+05:30
Kolhapur,Maharashtra,16.705,74.2433,26.5,79,0.0,949.3,8.8,46.8,40,13.5,9.6,5.2,172.0,55.0,2.2,7,5,7,1,2026-05-29T22:12:17.228900+05:30
Goa,Goa,15.2993,74.124,27.0,97,0.1,999.9,4.85,29.2,53,21.4,16.2,5.8,267.0,45.0,1.6,10,5,3,1,2026-05-29T22:12:17.228907+05:30
Jodhpur,Rajasthan,26.2389,73.0243,35.8,33,0.0,977.3,8.4,49.7,249,229.1,54.1,7.1,214.0,72.0,3.4,0,5,10,1,2026-05-29T22:12:17.228914+05:30
Udaipur,Rajasthan,24.5854,73.7125,31.9,50,0.0,943.5,8.8,50.4,72,44.6,22.4,2.5,134.0,84.0,2.7,0,5,7,1,2026-05-29T22:12:17.228921+05:30
Kota,Rajasthan,25.2138,75.8648,29.9,55,0.0,975.5,8.4,73.8,78,44.5,28.4,8.8,186.0,75.0,8.1,4,5,7,1,2026-05-29T22:12:17.228927+05:30
Bikaner,Rajasthan,28.0229,73.3119,35.9,23,0.0,976.0,8.35,51.5,159,80.6,41.0,5.3,165.0,95.0,3.8,0,5,10,0,2026-05-29T22:12:17.228935+05:30
Ajmer,Rajasthan,26.4499,74.6399,31.0,42,0.0,951.5,8.35,58.3,87,162.1,45.3,5.5,213.0,83.0,4.1,0,5,7,1,2026-05-29T22:12:17.228941+05:30
Gwalior,Madhya Pradesh,26.2183,78.1828,24.0,92,0.1,982.4,8.25,67.3,153,175.1,54.9,6.0,288.0,107.0,5.5,6,5,7,1,2026-05-29T22:12:17.228948+05:30
Indore,Madhya Pradesh,22.7196,75.8577,32.7,41,0.0,946.2,8.6,49.0,77,44.9,27.9,5.3,248.0,102.0,8.1,0,5,7,1,2026-05-29T22:12:17.228955+05:30
Bhopal,Madhya Pradesh,23.2599,77.4126,32.5,39,0.0,951.0,8.65,46.4,71,40.2,25.7,6.7,459.0,77.0,5.2,0,5,7,1,2026-05-29T22:12:17.228963+05:30
Jabalpur,Madhya Pradesh,23.1815,79.9864,33.2,35,0.0,959.1,8.8,38.9,77,44.4,25.7,7.9,265.0,79.0,4.8,0,5,7,0,2026-05-29T22:12:17.228970+05:30
Ujjain,Madhya Pradesh,23.1765,75.7885,33.5,41,0.0,951.3,8.55,50.0,76,42.5,26.6,2.9,194.0,103.0,6.6,0,5,7,1,2026-05-29T22:12:17.228977+05:30
Visakhapatnam,Andhra Pradesh,17.6868,83.2185,32.0,74,0.0,1001.5,9.0,33.5,170,38.2,29.5,28.0,775.0,101.0,42.8,3,5,4,1,2026-05-29T22:12:17.228985+05:30
Vijayawada,Andhra Pradesh,16.5062,80.648,34.0,54,0.0,999.6,8.95,54.4,85,48.7,44.9,28.4,369.0,63.0,10.4,0,5,7,1,2026-05-29T22:12:17.228992+05:30
Guntur,Andhra Pradesh,16.3067,80.4365,33.3,55,0.0,1001.0,8.95,50.8,80,47.3,42.7,30.1,334.0,54.0,10.0,0,5,4,1,2026-05-29T22:12:17.228999+05:30
Nellore,Andhra Pradesh,14.4426,79.9865,30.0,67,0.0,1004.7,8.95,47.5,106,22.9,19.2,6.9,267.0,113.0,3.7,7,5,4,1,2026-05-29T22:12:17.229008+05:30
Kurnool,Andhra Pradesh,15.8281,78.0373,25.3,83,0.1,977.5,8.7,75.2,71,28.5,23.0,18.9,275.0,76.0,7.9,10,5,7,1,2026-05-29T22:12:17.229016+05:30
Kakinada,Andhra Pradesh,16.9891,82.2475,33.3,63,0.0,1004.2,9.0,47.2,129,27.5,22.3,5.3,473.0,129.0,4.6,3,5,4,1,2026-05-29T22:12:17.229023+05:30
Tirupati,Andhra Pradesh,13.6288,79.4192,29.0,78,0.0,990.7,8.7,35.6,69,33.8,29.0,24.5,511.0,56.0,4.3,7,5,7,1,2026-05-29T22:12:17.229030+05:30
Warangal,Telangana,17.9689,79.5941,32.0,49,0.0,976.0,9.0,42.1,73,64.5,55.5,34.1,359.0,47.0,9.1,0,5,7,1,2026-05-29T22:12:17.229037+05:30
Nizamabad,Telangana,18.6725,78.0941,32.6,38,0.0,962.4,8.95,38.9,85,31.8,25.0,17.0,283.0,83.0,6.6,0,5,7,1,2026-05-29T22:12:17.229044+05:30
Mysore,Karnataka,12.2958,76.6396,23.5,92,0.2,930.9,8.45,48.6,46,7.7,7.1,11.8,179.0,59.0,2.8,6,5,7,1,2026-05-29T22:12:17.229051+05:30
Mangalore,Karnataka,12.9141,74.856,26.1,98,0.0,1009.7,8.2,36.7,43,12.7,10.9,11.5,365.0,43.0,3.4,7,0,4,1,2026-05-29T22:12:17.229059+05:30
Hubli-Dharwad,Karnataka,15.3647,75.124,25.6,87,0.0,942.8,8.9,41.8,38,8.7,7.0,5.8,154.0,50.0,1.2,7,5,7,1,2026-05-29T22:12:17.229066+05:30
Belgaum,Karnataka,15.8497,74.4977,24.0,93,0.0,927.4,8.95,44.3,34,9.6,7.5,6.0,147.0,45.0,1.6,3,5,7,1,2026-05-29T22:12:20.490920+05:30
Coimbatore,Tamil Nadu,11.0168,76.9558,25.5,83,0.0,964.1,8.45,49.0,35,5.0,4.5,7.5,188.0,49.0,2.6,7,5,7,1,2026-05-29T22:12:20.490956+05:30
Madurai,Tamil Nadu,9.9252,78.1198,30.2,62,0.0,994.1,8.5,28.8,65,24.2,22.3,39.8,196.0,23.0,7.9,3,5,7,1,2026-05-29T22:12:20.490967+05:30
Trichy,Tamil Nadu,10.7905,78.7047,28.5,71,0.0,1001.0,8.15,40.3,47,22.8,20.0,29.5,252.0,43.0,6.6,7,5,4,1,2026-05-29T22:12:20.490976+05:30
Salem,Tamil Nadu,11.6643,78.146,26.6,90,0.0,979.5,8.0,40.7,89,17.3,14.0,15.6,302.0,71.0,6.7,7,5,7,1,2026-05-29T22:12:20.490984+05:30
Tirunelveli,Tamil Nadu,8.7139,77.7567,29.8,64,0.0,1004.7,8.35,31.3,25,8.1,7.0,9.2,157.0,34.0,1.8,7,5,4,1,2026-05-29T22:12:20.490991+05:30
Vellore,Tamil Nadu,12.9165,79.1325,28.8,72,0.0,984.5,8.6,42.8,65,36.2,28.2,13.0,359.0,86.0,4.6,7,5,7,1,2026-05-29T22:12:20.490999+05:30
Erode,Tamil Nadu,11.341,77.7172,26.6,95,0.0,991.0,8.3,51.8,47,9.7,8.7,13.9,222.0,51.0,3.5,7,5,7,1,2026-05-29T22:12:20.491007+05:30
Kochi,Kerala,9.9312,76.2673,25.2,94,0.0,1012.1,8.35,38.2,41,17.8,16.1,21.5,226.0,20.0,5.5,7,0,4,1,2026-05-29T22:12:20.491014+05:30
Thiruvananthapuram,Kerala,8.5241,76.9366,25.1,97,0.1,1011.7,7.3,36.4,22,12.6,6.1,2.1,201.0,42.0,0.7,10,0,4,1,2026-05-29T22:12:20.491021+05:30
Kozhikode,Kerala,11.2588,75.7804,25.0,99,0.0,1011.1,7.9,38.5,31,6.7,4.7,2.4,370.0,60.0,0.9,7,0,4,1,2026-05-29T22:12:20.491028+05:30
Thrissur,Kerala,10.5276,76.2144,24.0,98,0.0,1010.6,7.4,36.7,43,16.1,15.1,17.6,352.0,26.0,5.1,3,0,4,1,2026-05-29T22:12:20.491035+05:30
Kannur,Kerala,11.8745,75.3704,26.1,97,0.0,1010.2,7.8,37.8,30,12.1,10.5,17.1,355.0,33.0,3.2,7,0,4,1,2026-05-29T22:12:20.491042+05:30
Patna,Bihar,25.5941,85.1376,24.6,91,0.0,1000.8,8.75,54.0,123,44.8,40.4,22.6,469.0,90.0,17.7,3,5,4,1,2026-05-29T22:12:20.491049+05:30
Gaya,Bihar,24.7914,85.0002,26.0,75,0.0,993.4,8.85,40.3,112,31.5,29.1,15.7,425.0,94.0,15.4,7,5,7,1,2026-05-29T22:12:20.491056+05:30
Muzaffarpur,Bihar,26.1209,85.3647,23.8,89,0.0,1001.0,8.75,43.2,108,58.3,50.8,26.0,469.0,76.0,16.1,3,5,4,1,2026-05-29T22:12:20.491063+05:30
Bhagalpur,Bihar,25.2425,87.0117,25.0,93,0.0,1001.8,8.7,34.9,119,47.5,38.8,16.5,284.0,104.0,14.2,7,5,4,1,2026-05-29T22:12:20.491070+05:30
Ranchi,Jharkhand,23.3441,85.3096,22.5,79,0.0,937.0,9.2,50.4,144,61.2,47.7,14.1,284.0,121.0,14.6,3,5,7,1,2026-05-29T22:12:20.491077+05:30
Jamshedpur,Jharkhand,22.8046,86.2029,25.8,81,0.0,990.4,9.05,55.4,94,69.4,48.8,24.0,1123.0,76.0,22.9,7,5,7,1,2026-05-29T22:12:20.491084+05:30
Dhanbad,Jharkhand,23.7957,86.4304,24.9,80,0.0,979.6,9.0,36.7,140,116.4,103.1,77.5,536.0,31.0,150.4,3,5,7,1,2026-05-29T22:12:20.491090+05:30
Bokaro,Jharkhand,23.6693,86.1511,24.8,81,0.0,983.3,9.0,36.0,137,114.1,98.3,66.6,1202.0,39.0,160.6,3,5,7,1,2026-05-29T22:12:20.491098+05:30
Bhubaneswar,Odisha,20.2961,85.8245,27.5,98,0.0,1000.6,9.05,43.9,99,43.5,36.0,9.9,538.0,82.0,5.9,7,5,4,1,2026-05-29T22:12:20.491105+05:30
Cuttack,Odisha,20.4625,85.8828,27.5,97,0.0,1002.7,9.1,41.8,99,43.5,36.0,9.9,570.0,82.0,5.9,7,5,4,1,2026-05-29T22:12:20.491112+05:30
Rourkela,Odisha,22.2604,84.8536,27.3,80,0.0,984.3,8.95,46.1,172,68.5,55.5,20.1,491.0,107.0,26.6,7,5,7,1,2026-05-29T22:12:20.491119+05:30
Raipur,Chhattisgarh,21.2514,81.6296,35.3,30,0.0,971.7,8.9,47.2,106,63.1,52.5,49.4,327.0,56.0,58.1,0,5,10,0,2026-05-29T22:12:20.491127+05:30
Bhilai,Chhattisgarh,21.1938,81.3509,34.0,34,0.0,972.2,8.9,61.9,83,45.3,37.4,34.2,674.0,68.0,46.0,0,5,7,1,2026-05-29T22:12:20.491133+05:30
Guwahati,Assam,26.1158,91.7086,25.4,92,0.0,1001.5,8.7,27.7,121,61.5,51.9,21.7,484.0,28.0,3.9,7,5,4,1,2026-05-29T22:12:20.491140+05:30
Agartala,Tripura,23.8315,91.2868,25.5,92,0.0,1005.3,8.8,41.8,139,140.6,118.7,75.0,424.0,44.0,11.1,7,5,4,1,2026-05-29T22:12:20.491147+05:30
Shillong,Meghalaya,25.5788,91.8933,18.3,91,0.0,858.1,9.1,21.2,81,39.5,30.6,16.1,575.0,40.0,1.8,3,10,7,1,2026-05-29T22:12:20.491154+05:30
Imphal,Manipur,24.817,93.9368,23.6,85,0.0,924.5,9.25,22.3,132,105.5,63.1,37.0,961.0,47.0,8.3,3,5,7,1,2026-05-29T22:12:20.491161+05:30
Aizawl,Mizoram,23.7271,92.7176,20.3,87,0.0,893.6,9.05,24.8,87,71.7,40.2,21.0,365.0,48.0,4.2,3,5,7,1,2026-05-29T22:12:20.491168+05:30
Kohima,Nagaland,25.6701,94.1077,18.6,94,0.0,856.5,8.7,30.6,103,56.0,40.2,19.8,413.0,41.0,2.6,3,10,7,1,2026-05-29T22:12:20.491174+05:30
Gangtok,Sikkim,27.3314,88.6138,15.7,76,0.0,838.4,8.95,34.9,79,42.6,28.5,12.9,547.0,103.0,2.6,3,5,7,0,2026-05-29T22:12:20.491181+05:30
Siliguri,West Bengal,26.7271,88.3953,27.2,71,0.0,993.6,8.7,29.9,117,71.7,49.1,20.2,1233.0,102.0,6.9,7,5,7,1,2026-05-29T22:12:23.730300+05:30
Durgapur,West Bengal,23.5204,87.3119,23.6,99,0.0,995.2,8.95,45.0,149,80.3,69.2,40.2,847.0,78.0,46.1,3,5,7,1,2026-05-29T22:12:23.730334+05:30
Asansol,West Bengal,23.6739,86.9524,24.0,95,0.0,993.7,8.95,38.2,136,97.6,84.1,60.4,532.0,51.0,58.6,3,5,7,1,2026-05-29T22:12:23.730345+05:30
Pondicherry,Puducherry,11.9139,79.8145,30.0,76,0.0,1008.5,8.7,41.0,120,16.9,13.9,12.5,252.0,77.0,9.0,7,0,4,1,2026-05-29T22:12:23.730354+05:30
Port Blair,Andaman and Nicobar Islands,11.6234,92.7265,26.7,89,0.0,1008.3,8.85,38.9,32,11.6,6.9,0.4,114.0,64.0,0.4,7,0,4,1,2026-05-29T22:12:23.730362+05:30
Haridwar,Uttarakhand,29.9457,78.1642,24.5,68,0.0,973.5,7.5,46.8,136,71.9,45.9,18.6,345.0,112.0,11.7,3,5,7,1,2026-05-29T22:12:23.730370+05:30
Rishikesh,Uttarakhand,30.0869,78.2676,22.5,82,0.0,966.5,7.6,45.4,151,62.2,32.7,6.5,492.0,150.0,7.7,3,5,7,1,2026-05-29T22:12:23.730377+05:30
Nainital,Uttarakhand,29.3919,79.4542,11.5,98,0.0,803.9,7.95,41.8,120,36.3,22.6,9.1,347.0,113.0,3.6,3,10,7,0,2026-05-29T22:12:23.730384+05:30
Mussoorie,Uttarakhand,30.4599,78.0664,11.3,99,0.0,800.5,8.05,38.2,141,64.0,41.6,25.9,408.0,114.0,7.4,3,10,7,0,2026-05-29T22:12:23.730392+05:30
Dharamshala,Himachal Pradesh,32.219,76.3234,18.8,61,0.0,868.4,8.45,38.5,113,38.5,18.6,14.9,359.0,74.0,0.5,3,5,7,0,2026-05-29T22:12:23.730399+05:30
Dalhousie,Himachal Pradesh,32.5387,75.971,13.6,76,0.0,803.1,8.7,31.3,137,107.8,51.2,44.4,569.0,62.0,3.9,3,5,7,0,2026-05-29T22:12:23.730407+05:30
Patiala,Punjab,30.3398,76.3869,27.0,60,0.0,977.3,7.6,51.5,1335,730.2,117.1,6.8,311.0,150.0,13.6,4,5,7,1,2026-05-29T22:12:23.730414+05:30
Bhatinda,Punjab,30.211,74.9455,29.5,56,0.0,981.0,8.25,67.0,667,590.5,146.2,11.4,314.0,124.0,11.9,4,5,7,1,2026-05-29T22:12:23.730421+05:30
Rohtak,Haryana,28.8955,76.6066,29.8,57,0.0,980.1,7.7,43.2,759,760.0,137.4,29.0,500.0,95.0,20.9,4,5,7,1,2026-05-29T22:12:23.730428+05:30
Panipat,Haryana,29.3909,76.9635,26.8,64,0.0,979.4,7.55,47.2,1707,1817.9,253.3,16.4,374.0,119.0,16.4,7,5,7,1,2026-05-29T22:12:23.730434+05:30
Mathura,Uttar Pradesh,27.4924,77.6737,27.4,66,0.0,985.4,7.95,44.6,359,232.4,65.4,15.1,293.0,100.0,7.1,7,5,7,1,2026-05-29T22:12:23.730441+05:30
Vrindavan,Uttar Pradesh,27.5823,77.7027,28.0,63,0.0,985.8,7.95,43.2,359,232.4,65.4,15.1,282.0,100.0,7.1,7,5,7,1,2026-05-29T22:12:23.730448+05:30
Ayodhya,Uttar Pradesh,26.7922,82.1998,25.9,77,0.0,995.7,8.35,44.3,144,31.1,26.7,10.0,391.0,123.0,9.0,7,5,7,1,2026-05-29T22:12:23.730455+05:30
Ratlam,Madhya Pradesh,23.3315,75.0367,32.7,49,0.0,952.1,8.5,51.1,76,40.3,25.8,2.7,164.0,102.0,7.3,0,5,7,1,2026-05-29T22:12:23.730462+05:30
Sagar,Madhya Pradesh,23.8388,78.7378,31.7,38,0.0,947.8,8.7,39.2,71,44.6,26.7,8.3,237.0,68.0,3.7,0,5,7,0,2026-05-29T22:12:23.730469+05:30
Satna,Madhya Pradesh,24.6005,80.8322,29.6,55,0.0,970.0,8.75,36.0,89,50.9,35.5,6.4,342.0,134.0,9.2,4,5,7,1,2026-05-29T22:12:23.730476+05:30
Akola,Maharashtra,20.7002,77.0082,35.1,31,0.0,972.6,8.8,49.3,65,37.4,21.9,10.2,270.0,81.0,6.9,0,5,10,0,2026-05-29T22:12:23.730484+05:30
Amravati,Maharashtra,20.9374,77.7796,35.9,25,0.0,964.8,8.8,46.4,64,33.6,19.8,10.2,166.0,81.0,7.4,0,5,10,0,2026-05-29T22:12:23.730492+05:30
Latur,Maharashtra,18.4088,76.5604,31.0,38,0.0,938.6,8.95,37.8,49,25.5,21.1,15.8,391.0,72.0,3.9,0,5,7,0,2026-05-29T22:12:23.730498+05:30
Nanded,Maharashtra,19.1383,77.3091,34.5,29,0.0,966.3,8.9,39.2,71,29.3,22.2,18.2,241.0,69.0,6.4,0,5,7,0,2026-05-29T22:12:23.730505+05:30
Gulbarga,Karnataka,17.3297,76.8343,32.2,45,0.0,957.7,8.95,40.3,50,27.0,21.0,20.6,269.0,65.0,3.7,0,5,7,1,2026-05-29T22:12:23.730512+05:30
Bidar,Karnataka,17.9104,77.5199,29.9,51,0.0,934.5,9.0,40.0,55,47.6,41.8,47.3,398.0,36.0,6.6,4,5,7,1,2026-05-29T22:12:23.730519+05:30
Hospet,Karnataka,15.2689,76.3909,26.8,83,0.0,957.3,8.3,47.9,49,11.3,10.4,9.5,212.0,65.0,1.6,7,5,7,1,2026-05-29T22:12:23.730525+05:30
Tirupur,Tamil Nadu,11.1085,77.3411,25.9,88,0.1,977.3,8.6,51.5,43,11.2,10.0,15.2,179.0,49.0,4.2,10,5,7,1,2026-05-29T22:12:23.730532+05:30
Alappuzha,Kerala,9.4981,76.3388,25.6,94,0.0,1012.4,8.1,34.6,30,17.2,15.0,12.1,97.0,34.0,2.8,7,0,4,1,2026-05-29T22:12:23.730538+05:30
Munnar,Kerala,10.0889,77.0595,17.8,100,0.0,859.2,4.95,29.2,31,5.8,5.5,9.9,129.0,39.0,2.0,3,10,3,1,2026-05-29T22:12:23.730546+05:30
Silchar,Assam,24.8333,92.7789,27.5,84,0.0,1005.0,8.9,18.7,151,114.1,85.2,29.5,731.0,59.0,13.1,7,5,4,1,2026-05-29T22:12:23.730552+05:30
Dibrugarh,Assam,27.4728,94.912,27.2,82,0.0,996.0,8.85,15.8,135,89.9,61.5,27.1,610.0,67.0,5.6,7,5,7,1,2026-05-29T22:12:23.730559+05:30
