city,state,latitude,longitude,temp,humidity,rain,pressure,uv_index,wind_gusts,aqi,pm10,pm2_5,no2,co,o3,so2,mosquito_risk,arthritis_risk,migraine_risk,frizz_risk,updated_at
Delhi,Delhi,28.6139,77.209,31.5,58,0.0,978.2,7.8,43.6,383,517.8,94.8,15.9,495.0,160.0,24.5,0,5,7,1,2026-06-12T17:57:03.162592+05:30
Mumbai,Maharashtra,19.076,72.8777,31.5,65,0.0,1006.0,7.7,47.5,84,53.0,25.4,7.5,163.0,61.0,6.0,3,5,4,1,2026-06-12T17:57:03.162647+05:30
Bangalore,Karnataka,12.9716,77.5946,22.9,85,0.2,911.2,3.6,48.2,52,14.3,10.5,21.9,896.0,58.0,3.6,6,5,3,1,2026-06-12T17:57:03.162664+05:30
Hyderabad,Telangana,17.385,78.4867,34.3,40,0.0,950.0,9.0,33.8,74,43.9,22.9,4.9,293.0,113.0,3.5,0,5,7,1,2026-06-12T17:57:03.162675+05:30
Chennai,Tamil Nadu,13.0827,80.2707,33.7,49,0.0,1004.8,7.9,36.7,91,33.5,23.0,6.6,335.0,133.0,7.1,0,5,4,1,2026-06-12T17:57:03.162683+05:30
Kolkata,West Bengal,22.5726,88.3639,31.9,67,0.0,1001.7,7.75,42.5,176,93.1,71.5,15.6,542.0,147.0,18.3,3,5,4,1,2026-06-12T17:57:03.162692+05:30
Pune,Maharashtra,18.5204,73.8567,31.0,52,0.0,946.4,8.3,49.0,66,62.4,23.2,3.0,139.0,79.0,3.5,0,5,7,1,2026-06-12T17:57:03.162699+05:30
Ahmedabad,Gujarat,23.0225,72.5714,39.3,39,0.0,994.2,8.05,46.4,72,84.1,26.1,2.5,147.0,98.0,3.3,0,5,10,1,2026-06-12T17:57:03.162706+05:30
Jaipur,Rajasthan,26.9124,75.7873,34.8,49,0.0,954.1,8.25,57.6,157,156.0,47.1,2.3,254.0,127.0,5.9,0,5,7,1,2026-06-12T17:57:03.162713+05:30
Lucknow,Uttar Pradesh,26.8467,80.9462,32.7,62,0.0,988.1,8.35,41.0,167,71.0,44.4,3.9,288.0,174.0,10.1,3,5,7,1,2026-06-12T17:57:03.162722+05:30
Kanpur,Uttar Pradesh,26.4499,80.3319,36.0,42,0.0,985.8,8.35,53.3,162,125.7,55.5,4.2,277.0,174.0,11.6,0,5,10,1,2026-06-12T17:57:03.162729+05:30
Chandigarh,Chandigarh,30.7333,76.7794,27.9,62,0.0,966.3,7.8,52.9,105,76.1,30.3,3.9,325.0,139.0,4.8,7,5,7,1,2026-06-12T17:57:03.162736+05:30
Srinagar,Jammu and Kashmir,34.0837,74.7973,22.7,49,0.0,842.2,9.0,29.5,130,25.6,18.5,3.5,323.0,151.0,2.8,0,5,7,0,2026-06-12T17:57:03.162743+05:30
Jammu,Jammu and Kashmir,32.7266,74.857,30.7,49,0.0,970.2,8.55,53.3,132,72.2,28.3,3.9,257.0,159.0,2.9,0,5,7,1,2026-06-12T17:57:03.162749+05:30
Amritsar,Punjab,31.634,74.8723,29.4,60,0.0,977.8,8.45,51.5,200,553.2,109.4,2.6,253.0,132.0,3.5,4,5,7,1,2026-06-12T17:57:03.162757+05:30
Ludhiana,Punjab,30.901,75.8573,30.6,49,0.0,974.8,8.0,55.4,517,899.7,135.0,3.5,346.0,127.0,4.9,0,5,7,1,2026-06-12T17:57:03.162764+05:30
Jalandhar,Punjab,31.326,75.5762,31.3,45,0.0,975.8,8.25,55.8,227,726.4,121.1,3.1,404.0,129.0,4.2,0,5,7,1,2026-06-12T17:57:03.162770+05:30
Dehradun,Uttarakhand,30.6284,78.0322,16.7,98,0.1,829.6,6.65,36.4,93,55.8,21.4,2.8,162.0,133.0,1.3,6,10,7,1,2026-06-12T17:57:03.162777+05:30
Shimla,Himachal Pradesh,31.1048,77.1734,13.5,98,0.0,783.1,7.45,33.5,112,46.1,28.3,3.2,197.0,164.0,3.3,3,10,7,0,2026-06-12T17:57:03.162783+05:30
Manali,Himachal Pradesh,32.2396,77.1887,17.9,92,0.1,819.1,5.95,41.8,134,12.5,8.4,11.0,165.0,152.0,0.6,6,10,3,1,2026-06-12T17:57:03.162789+05:30
Gurgaon,Haryana,28.4595,77.0266,33.8,47,0.0,976.5,7.3,55.4,1276,1445.4,194.6,12.0,385.0,154.0,15.2,0,5,7,1,2026-06-12T17:57:03.162795+05:30
Noida,Uttar Pradesh,28.5355,77.391,31.9,55,0.0,979.8,7.85,44.6,1276,1445.4,194.6,12.0,333.0,154.0,15.2,0,5,7,1,2026-06-12T17:57:03.162800+05:30
Ghaziabad,Uttar Pradesh,28.6692,77.4538,31.3,60,0.0,978.0,7.8,43.6,153,156.0,38.9,5.9,260.0,147.0,10.0,0,5,7,1,2026-06-12T17:57:03.162806+05:30
Faridabad,Haryana,28.4089,77.3178,33.0,49,0.0,978.9,7.85,51.1,1276,1445.4,194.6,12.0,330.0,154.0,15.2,0,5,7,1,2026-06-12T17:57:03.162811+05:30
Meerut,Uttar Pradesh,28.9845,77.7064,30.9,64,0.0,977.1,7.75,49.0,153,156.0,38.9,5.9,298.0,147.0,10.0,3,5,7,1,2026-06-12T17:57:03.162816+05:30
Agra,Uttar Pradesh,27.1767,78.0081,35.0,49,0.0,981.9,8.15,42.5,1152,175.1,56.7,5.3,305.0,161.0,7.4,0,5,7,1,2026-06-12T17:57:03.162833+05:30
Varanasi,Uttar Pradesh,25.3176,82.9739,34.9,50,0.0,992.1,8.75,27.7,184,74.7,59.0,4.4,362.0,182.0,14.5,0,5,7,1,2026-06-12T17:57:03.162841+05:30
Prayagraj,Uttar Pradesh,25.4358,81.8463,34.8,47,0.0,990.3,8.4,33.5,183,77.5,60.1,3.9,310.0,192.0,13.9,0,5,7,1,2026-06-12T17:57:03.162846+05:30
Gorakhpur,Uttar Pradesh,26.7606,83.3732,32.5,59,0.0,992.4,8.65,36.7,158,52.2,31.7,3.6,286.0,169.0,8.5,0,5,7,1,2026-06-12T17:57:03.162852+05:30
Bareilly,Uttar Pradesh,28.367,79.4304,31.9,61,0.0,982.4,7.5,43.6,107,93.8,32.7,3.3,298.0,138.0,4.4,3,5,7,1,2026-06-12T17:57:03.162857+05:30
Aligarh,Uttar Pradesh,27.8974,78.088,33.4,52,0.0,980.5,8.0,49.7,512,310.1,59.5,5.0,223.0,165.0,11.2,0,5,7,1,2026-06-12T17:57:03.162862+05:30
Moradabad,Uttar Pradesh,28.8386,78.7733,31.7,60,0.0,979.7,7.95,42.8,115,74.5,30.7,4.8,283.0,138.0,8.4,0,5,7,1,2026-06-12T17:57:03.162868+05:30
Saharanpur,Uttar Pradesh,29.9637,77.546,30.4,57,0.0,973.1,7.45,45.4,136,94.5,35.5,3.3,296.0,127.0,3.5,0,5,7,1,2026-06-12T17:57:03.162873+05:30
Jhansi,Uttar Pradesh,25.4484,78.5685,29.4,72,0.0,972.9,8.55,66.6,110,57.9,34.3,3.4,155.0,132.0,10.7,7,5,7,1,2026-06-12T17:57:06.439918+05:30
Surat,Gujarat,21.1702,72.8311,32.6,65,0.0,1002.2,7.6,60.8,87,43.2,23.3,10.7,165.0,46.0,26.0,3,5,4,1,2026-06-12T17:57:06.439951+05:30
Vadodara,Gujarat,22.3072,73.1812,35.8,50,0.0,997.8,8.0,57.2,81,43.4,23.7,3.6,149.0,95.0,7.3,0,5,10,1,2026-06-12T17:57:06.439961+05:30
Rajkot,Gujarat,22.3039,70.8022,37.6,40,0.0,987.8,7.55,52.9,64,58.1,21.6,1.8,107.0,87.0,4.4,0,5,10,1,2026-06-12T17:57:06.439968+05:30
Thane,Maharashtra,19.2183,72.9781,32.6,58,0.0,1005.1,7.7,43.9,84,53.0,25.4,7.5,151.0,61.0,6.0,0,5,4,1,2026-06-12T17:57:06.439976+05:30
Nagpur,Maharashtra,21.1458,79.0882,38.2,32,0.0,967.4,8.9,53.6,144,78.9,35.2,6.6,174.0,126.0,17.0,0,5,10,1,2026-06-12T17:57:06.439981+05:30
Nashik,Maharashtra,19.9975,73.7898,31.2,50,0.0,943.0,8.05,52.9,71,61.7,24.2,2.0,117.0,74.0,1.8,0,5,7,1,2026-06-12T17:57:06.439988+05:30
Aurangabad,Maharashtra,19.8762,75.3433,35.7,31,0.0,940.5,8.95,50.8,76,69.6,28.7,2.0,132.0,121.0,4.6,0,5,10,1,2026-06-12T17:57:06.439994+05:30
Solapur,Maharashtra,17.6599,75.9064,36.9,29,0.0,953.3,8.85,49.3,65,51.2,19.4,1.8,130.0,109.0,1.8,0,5,10,0,2026-06-12T17:57:06.440000+05:30
Kolhapur,Maharashtra,16.705,74.2433,28.2,67,0.0,946.8,8.45,49.7,59,28.2,15.0,3.3,128.0,69.0,1.9,7,5,7,1,2026-06-12T17:57:06.440006+05:30
Goa,Goa,15.2993,74.124,29.4,80,0.0,996.8,7.1,32.4,69,36.6,16.6,1.5,134.0,55.0,1.1,7,5,7,1,2026-06-12T17:57:06.440011+05:30
Jodhpur,Rajasthan,26.2389,73.0243,39.1,34,0.0,974.7,8.45,49.7,143,342.7,60.8,1.3,117.0,98.0,2.2,0,5,10,1,2026-06-12T17:57:06.440016+05:30
Udaipur,Rajasthan,24.5854,73.7125,35.3,40,0.0,940.9,8.8,48.6,78,71.7,24.2,1.0,116.0,101.0,3.5,0,5,10,1,2026-06-12T17:57:06.440022+05:30
Kota,Rajasthan,25.2138,75.8648,30.1,80,0.0,972.7,8.4,61.6,94,110.1,37.4,1.7,140.0,117.0,5.6,3,5,7,1,2026-06-12T17:57:06.440027+05:30
Bikaner,Rajasthan,28.0229,73.3119,40.8,22,0.0,973.6,8.45,67.0,154,146.2,43.9,0.8,129.0,110.0,2.9,0,5,10,0,2026-06-12T17:57:06.440033+05:30
Ajmer,Rajasthan,26.4499,74.6399,36.5,37,0.0,948.3,8.35,69.5,93,101.3,34.1,1.4,128.0,122.0,4.1,0,5,10,1,2026-06-12T17:57:06.440038+05:30
Gwalior,Madhya Pradesh,26.2183,78.1828,31.8,55,0.1,978.3,8.3,39.2,133,114.6,47.3,2.2,207.0,143.0,6.3,3,5,7,1,2026-06-12T17:57:06.440044+05:30
Indore,Madhya Pradesh,22.7196,75.8577,36.1,33,0.0,943.3,8.65,47.9,87,83.6,31.3,1.9,185.0,108.0,4.1,0,5,10,1,2026-06-12T17:57:06.440049+05:30
Bhopal,Madhya Pradesh,23.2599,77.4126,31.9,55,0.1,948.7,8.7,44.3,87,68.0,26.5,1.5,168.0,106.0,1.9,3,5,7,1,2026-06-12T17:57:06.440054+05:30
Jabalpur,Madhya Pradesh,23.1815,79.9864,33.0,50,0.1,957.0,8.9,41.0,87,79.2,33.3,2.1,145.0,113.0,4.2,3,5,7,1,2026-06-12T17:57:06.440060+05:30
Ujjain,Madhya Pradesh,23.1765,75.7885,36.4,34,0.0,948.5,8.6,46.8,87,92.0,33.2,1.1,141.0,110.0,4.7,0,5,10,1,2026-06-12T17:57:06.440066+05:30
Visakhapatnam,Andhra Pradesh,17.6868,83.2185,32.1,73,0.0,999.1,9.0,41.0,104,43.8,33.1,17.5,318.0,127.0,37.9,3,5,7,1,2026-06-12T17:57:06.440072+05:30
Vijayawada,Andhra Pradesh,16.5062,80.648,34.2,51,0.0,997.9,8.2,32.8,87,44.0,31.3,8.3,190.0,101.0,6.8,0,5,7,1,2026-06-12T17:57:06.440077+05:30
Guntur,Andhra Pradesh,16.3067,80.4365,32.8,59,0.0,999.2,8.25,34.2,90,44.0,28.6,5.3,180.0,107.0,5.3,0,5,7,1,2026-06-12T17:57:06.440082+05:30
Nellore,Andhra Pradesh,14.4426,79.9865,34.3,55,0.0,1002.0,8.5,34.2,76,37.5,24.3,3.5,220.0,133.0,3.4,0,5,4,1,2026-06-12T17:57:06.440088+05:30
Kurnool,Andhra Pradesh,15.8281,78.0373,35.7,39,0.0,973.0,8.5,46.8,71,50.2,25.4,2.1,144.0,123.0,6.8,0,5,10,1,2026-06-12T17:57:06.440095+05:30
Kakinada,Andhra Pradesh,16.9891,82.2475,33.8,54,0.0,1002.8,8.85,38.9,86,41.1,28.5,4.1,259.0,127.0,3.4,0,5,4,1,2026-06-12T17:57:06.440100+05:30
Tirupati,Andhra Pradesh,13.6288,79.4192,26.5,96,0.1,989.4,6.4,47.5,70,28.5,18.5,10.8,220.0,83.0,1.7,10,5,7,1,2026-06-12T17:57:06.440105+05:30
Warangal,Telangana,17.9689,79.5941,34.5,53,0.0,974.1,9.0,36.0,99,63.8,35.9,3.1,235.0,123.0,5.6,0,5,7,1,2026-06-12T17:57:06.440111+05:30
Nizamabad,Telangana,18.6725,78.0941,37.1,31,0.0,960.4,8.85,37.1,88,69.6,31.1,1.9,147.0,121.0,5.0,0,5,10,1,2026-06-12T17:57:06.440116+05:30
Mysore,Karnataka,12.2958,76.6396,24.2,85,0.0,928.1,8.85,42.1,37,8.4,6.0,8.3,175.0,63.0,1.8,3,5,7,1,2026-06-12T17:57:06.440121+05:30
Mangalore,Karnataka,12.9141,74.856,26.4,88,0.0,1007.3,8.7,38.5,43,11.8,6.2,3.1,131.0,60.0,1.3,7,5,4,1,2026-06-12T17:57:06.440127+05:30
Hubli-Dharwad,Karnataka,15.3647,75.124,28.4,65,0.0,939.7,7.4,47.9,36,22.1,12.0,3.1,123.0,65.0,1.1,7,5,7,1,2026-06-12T17:57:06.440132+05:30
Belgaum,Karnataka,15.8497,74.4977,26.6,72,0.0,924.8,8.65,47.5,57,23.3,10.6,2.6,112.0,58.0,1.3,7,5,7,1,2026-06-12T17:57:09.732057+05:30
Coimbatore,Tamil Nadu,11.0168,76.9558,26.1,76,0.0,961.4,6.55,47.2,36,8.4,5.8,8.8,194.0,55.0,2.8,7,5,7,1,2026-06-12T17:57:09.732090+05:30
Madurai,Tamil Nadu,9.9252,78.1198,32.9,43,0.0,992.2,7.05,52.9,48,11.8,6.2,4.4,158.0,71.0,1.5,0,5,7,1,2026-06-12T17:57:09.732098+05:30
Trichy,Tamil Nadu,10.7905,78.7047,32.7,44,0.0,999.0,6.1,59.4,40,15.1,9.2,4.1,138.0,79.0,2.0,0,5,7,1,2026-06-12T17:57:09.732106+05:30
Salem,Tamil Nadu,11.6643,78.146,26.9,87,0.1,976.7,8.1,40.7,59,20.9,13.0,10.0,203.0,79.0,7.0,10,5,7,1,2026-06-12T17:57:09.732113+05:30
Tirunelveli,Tamil Nadu,8.7139,77.7567,31.4,57,0.0,1003.4,7.35,37.8,32,3.8,2.9,3.6,112.0,64.0,1.0,0,5,4,1,2026-06-12T17:57:09.732119+05:30
Vellore,Tamil Nadu,12.9165,79.1325,28.5,79,0.0,983.2,6.5,36.7,74,18.3,13.3,9.2,248.0,80.0,2.3,7,5,7,1,2026-06-12T17:57:09.732125+05:30
Erode,Tamil Nadu,11.341,77.7172,31.5,51,0.0,988.3,8.6,42.5,51,18.6,11.6,10.1,244.0,69.0,3.0,0,5,7,1,2026-06-12T17:57:09.732131+05:30
Kochi,Kerala,9.9312,76.2673,26.9,82,0.0,1010.3,2.6,27.4,51,10.7,8.7,12.8,156.0,52.0,4.5,7,0,0,1,2026-06-12T17:57:09.732138+05:30
Thiruvananthapuram,Kerala,8.5241,76.9366,24.8,95,0.0,1010.2,6.45,38.2,27,10.5,5.3,1.6,129.0,59.0,0.6,3,0,4,1,2026-06-12T17:57:09.732143+05:30
Kozhikode,Kerala,11.2588,75.7804,25.4,97,0.1,1008.6,4.85,27.0,30,13.4,6.0,1.4,194.0,60.0,0.6,10,0,0,1,2026-06-12T17:57:09.732149+05:30
Thrissur,Kerala,10.5276,76.2144,25.3,97,0.2,1008.3,3.95,21.6,55,9.8,7.7,7.8,206.0,57.0,3.6,10,0,0,1,2026-06-12T17:57:09.732156+05:30
Kannur,Kerala,11.8745,75.3704,25.0,99,0.0,1007.7,3.75,27.4,37,10.7,5.5,3.8,123.0,57.0,1.3,7,5,0,1,2026-06-12T17:57:09.732161+05:30
Patna,Bihar,25.5941,85.1376,32.2,63,0.0,995.3,8.85,34.2,186,96.4,73.6,12.0,435.0,167.0,17.6,3,5,7,1,2026-06-12T17:57:09.732166+05:30
Gaya,Bihar,24.7914,85.0002,34.2,51,0.0,988.6,8.9,23.4,180,88.0,67.1,7.7,388.0,169.0,14.6,0,5,7,1,2026-06-12T17:57:09.732172+05:30
Muzaffarpur,Bihar,26.1209,85.3647,30.2,74,0.0,995.6,8.85,36.0,178,106.4,75.7,12.4,382.0,165.0,18.1,3,5,7,1,2026-06-12T17:57:09.732178+05:30
Bhagalpur,Bihar,25.2425,87.0117,31.8,66,0.0,996.6,8.65,27.4,188,118.0,68.9,9.1,373.0,184.0,20.4,3,5,7,1,2026-06-12T17:57:09.732183+05:30
Ranchi,Jharkhand,23.3441,85.3096,27.0,82,0.0,934.7,9.25,36.0,152,57.7,46.8,7.9,238.0,118.0,5.6,7,5,7,1,2026-06-12T17:57:09.732189+05:30
Jamshedpur,Jharkhand,22.8046,86.2029,25.2,99,0.7,988.6,9.1,40.3,189,96.6,75.2,8.0,388.0,176.0,20.5,10,5,7,1,2026-06-12T17:57:09.732194+05:30
Dhanbad,Jharkhand,23.7957,86.4304,25.0,98,0.5,977.1,9.05,42.5,183,122.5,100.8,29.3,1422.0,185.0,90.1,10,5,7,1,2026-06-12T17:57:09.732200+05:30
Bokaro,Jharkhand,23.6693,86.1511,26.8,93,0.1,980.5,9.1,42.1,192,122.9,103.8,27.4,1459.0,197.0,93.7,10,5,7,1,2026-06-12T17:57:09.732206+05:30
Bhubaneswar,Odisha,20.2961,85.8245,27.3,92,0.2,999.0,8.65,29.9,133,52.5,42.0,10.6,452.0,109.0,6.4,10,5,7,1,2026-06-12T17:57:09.732211+05:30
Cuttack,Odisha,20.4625,85.8828,27.6,90,0.2,1000.7,8.7,28.8,133,52.5,42.0,10.6,378.0,109.0,6.4,10,5,4,1,2026-06-12T17:57:09.732217+05:30
Rourkela,Odisha,22.2604,84.8536,29.6,71,0.0,981.8,9.0,37.4,166,65.9,50.3,7.7,301.0,147.0,8.3,7,5,7,1,2026-06-12T17:57:09.732223+05:30
Raipur,Chhattisgarh,21.2514,81.6296,35.5,36,0.1,970.2,8.95,54.4,131,48.1,31.5,11.1,178.0,133.0,28.0,3,5,10,1,2026-06-12T17:57:09.732229+05:30
Bhilai,Chhattisgarh,21.1938,81.3509,34.6,43,0.1,970.0,8.95,56.5,125,46.9,30.9,12.3,290.0,124.0,26.5,3,5,7,1,2026-06-12T17:57:09.732234+05:30
Guwahati,Assam,26.1158,91.7086,28.6,85,0.0,998.0,8.6,20.5,86,21.7,17.9,4.2,349.0,100.0,1.7,7,5,7,1,2026-06-12T17:57:09.732240+05:30
Agartala,Tripura,23.8315,91.2868,27.9,84,0.0,1002.8,7.55,30.2,154,48.5,40.0,16.5,256.0,146.0,7.7,7,5,4,1,2026-06-12T17:57:09.732245+05:30
Shillong,Meghalaya,25.5788,91.8933,20.3,97,0.1,855.9,8.45,20.2,77,28.5,20.4,5.8,322.0,99.0,1.8,6,5,7,1,2026-06-12T17:57:09.732251+05:30
Imphal,Manipur,24.817,93.9368,23.0,92,0.2,921.2,8.7,16.6,59,6.8,6.7,8.6,298.0,60.0,1.5,6,5,7,1,2026-06-12T17:57:09.732257+05:30
Aizawl,Mizoram,23.7271,92.7176,21.0,97,0.1,890.3,4.2,21.6,74,13.2,12.0,6.8,193.0,52.0,0.5,6,5,3,1,2026-06-12T17:57:09.732262+05:30
Kohima,Nagaland,25.6701,94.1077,21.0,97,0.2,854.0,3.55,18.0,67,13.6,11.8,6.0,258.0,70.0,0.7,6,5,3,1,2026-06-12T17:57:09.732268+05:30
Gangtok,Sikkim,27.3314,88.6138,20.5,82,0.0,836.4,9.25,35.6,88,10.7,7.5,5.5,290.0,118.0,1.8,3,5,7,1,2026-06-12T17:57:09.732273+05:30
Siliguri,West Bengal,26.7271,88.3953,28.7,82,0.0,989.2,8.7,28.8,110,45.3,29.0,9.5,526.0,111.0,2.7,7,5,7,1,2026-06-12T17:57:13.006892+05:30
Durgapur,West Bengal,23.5204,87.3119,31.3,68,0.0,991.0,9.0,21.2,186,114.3,91.5,23.3,709.0,168.0,47.8,3,5,7,1,2026-06-12T17:57:13.006924+05:30
Asansol,West Bengal,23.6739,86.9524,31.8,62,0.0,989.7,9.0,26.3,179,109.9,89.9,23.1,425.0,168.0,49.4,3,5,7,1,2026-06-12T17:57:13.006934+05:30
Pondicherry,Puducherry,11.9139,79.8145,28.5,82,0.1,1007.0,8.2,41.4,84,25.1,17.8,9.6,323.0,105.0,7.4,10,5,4,1,2026-06-12T17:57:13.006942+05:30
Port Blair,Andaman and Nicobar Islands,11.6234,92.7265,26.5,90,0.0,1009.0,8.0,41.8,28,6.3,3.6,0.7,100.0,45.0,0.3,7,0,4,1,2026-06-12T17:57:13.006950+05:30
Haridwar,Uttarakhand,29.9457,78.1642,30.7,54,0.0,971.0,7.55,49.0,131,75.7,30.4,2.1,240.0,128.0,3.7,0,5,7,1,2026-06-12T17:57:13.006957+05:30
Rishikesh,Uttarakhand,30.0869,78.2676,29.4,56,0.0,964.0,7.75,43.6,101,68.9,27.0,1.4,216.0,130.0,2.9,4,5,7,1,2026-06-12T17:57:13.006964+05:30
Nainital,Uttarakhand,29.3919,79.4542,19.0,73,0.0,805.5,8.3,27.0,85,67.8,23.2,1.4,182.0,120.0,1.4,3,5,7,0,2026-06-12T17:57:13.006971+05:30
Mussoorie,Uttarakhand,30.4599,78.0664,15.3,94,0.2,801.8,7.95,54.7,116,62.4,25.1,3.1,198.0,131.0,2.6,6,10,7,0,2026-06-12T17:57:13.006977+05:30
Dharamshala,Himachal Pradesh,32.219,76.3234,22.2,61,0.0,867.6,8.5,41.8,118,26.5,12.7,1.2,231.0,150.0,1.5,3,5,7,0,2026-06-12T17:57:13.006983+05:30
Dalhousie,Himachal Pradesh,32.5387,75.971,18.5,71,0.0,804.2,8.35,29.9,140,60.8,27.9,3.3,343.0,168.0,3.1,3,5,7,0,2026-06-12T17:57:13.006990+05:30
Patiala,Punjab,30.3398,76.3869,30.7,53,0.2,975.5,7.7,61.6,1625,1356.0,171.4,2.8,223.0,130.0,5.7,3,5,7,1,2026-06-12T17:57:13.006996+05:30
Bhatinda,Punjab,30.211,74.9455,31.3,53,0.0,979.2,8.3,55.4,1283,2078.7,332.5,5.2,227.0,139.0,10.6,0,5,7,1,2026-06-12T17:57:13.007002+05:30
Rohtak,Haryana,28.8955,76.6066,32.2,55,0.0,977.1,7.25,49.3,1235,1054.3,162.1,8.8,316.0,172.0,16.3,0,5,7,1,2026-06-12T17:57:13.007007+05:30
Panipat,Haryana,29.3909,76.9635,30.3,62,0.0,977.0,7.7,47.9,1458,1311.3,163.0,7.0,229.0,161.0,16.7,3,5,7,1,2026-06-12T17:57:13.007013+05:30
Mathura,Uttar Pradesh,27.4924,77.6737,34.4,51,0.0,981.1,8.1,45.4,1308,495.5,78.2,5.6,265.0,162.0,6.8,0,5,7,1,2026-06-12T17:57:13.007019+05:30
Vrindavan,Uttar Pradesh,27.5823,77.7027,34.4,51,0.0,981.7,8.05,46.4,1308,495.5,78.2,5.6,269.0,162.0,6.8,0,5,7,1,2026-06-12T17:57:13.007024+05:30
Ayodhya,Uttar Pradesh,26.7922,82.1998,32.6,56,0.0,990.1,8.4,35.3,163,78.5,33.8,3.4,318.0,165.0,7.1,0,5,7,1,2026-06-12T17:57:13.007030+05:30
Ratlam,Madhya Pradesh,23.3315,75.0367,35.9,39,0.0,949.5,8.55,50.0,85,83.8,31.9,0.8,121.0,112.0,5.0,0,5,10,1,2026-06-12T17:57:13.007036+05:30
Sagar,Madhya Pradesh,23.8388,78.7378,29.4,68,0.0,945.6,8.75,46.1,87,65.2,27.8,1.3,136.0,110.0,3.2,7,5,7,1,2026-06-12T17:57:13.007042+05:30
Satna,Madhya Pradesh,24.6005,80.8322,34.9,45,0.0,965.8,8.8,50.8,103,66.6,34.3,2.0,186.0,114.0,3.2,0,5,7,1,2026-06-12T17:57:13.007048+05:30
Akola,Maharashtra,20.7002,77.0082,40.4,22,0.0,968.7,8.8,40.7,77,73.1,29.7,2.5,126.0,122.0,7.1,0,5,10,0,2026-06-12T17:57:13.007055+05:30
Amravati,Maharashtra,20.9374,77.7796,39.1,27,0.0,961.6,8.85,41.8,80,67.1,28.7,2.8,137.0,124.0,7.6,0,5,10,1,2026-06-12T17:57:13.007061+05:30
Latur,Maharashtra,18.4088,76.5604,34.7,33,0.0,936.4,8.9,34.6,70,55.4,21.2,1.5,135.0,109.0,1.7,0,5,7,1,2026-06-12T17:57:13.007067+05:30
Nanded,Maharashtra,19.1383,77.3091,37.8,30,0.0,963.9,8.85,38.5,89,71.9,27.7,2.0,141.0,110.0,3.1,0,5,10,1,2026-06-12T17:57:13.007074+05:30
Gulbarga,Karnataka,17.3297,76.8343,35.2,38,0.0,955.1,8.5,39.6,65,43.2,19.3,2.7,153.0,116.0,2.3,0,5,10,1,2026-06-12T17:57:13.007079+05:30
Bidar,Karnataka,17.9104,77.5199,33.4,44,0.0,932.5,9.0,39.2,71,45.2,21.1,3.0,155.0,114.0,1.8,0,5,7,1,2026-06-12T17:57:13.007085+05:30
Hospet,Karnataka,15.2689,76.3909,32.6,47,0.0,953.0,8.9,55.1,45,22.6,11.7,3.2,143.0,100.0,1.9,0,5,7,1,2026-06-12T17:57:13.007091+05:30
Tirupur,Tamil Nadu,11.1085,77.3411,28.3,63,0.0,974.8,8.6,50.0,53,17.1,11.6,12.3,171.0,65.0,4.3,7,5,7,1,2026-06-12T17:57:13.007097+05:30
Alappuzha,Kerala,9.4981,76.3388,26.2,90,0.2,1010.7,4.15,31.0,33,6.8,5.3,7.7,95.0,54.0,1.6,10,0,0,1,2026-06-12T17:57:13.007102+05:30
Munnar,Kerala,10.0889,77.0595,17.4,93,0.1,857.4,7.25,42.1,30,8.6,5.4,4.7,125.0,64.0,1.3,6,10,7,1,2026-06-12T17:57:13.007108+05:30
Silchar,Assam,24.8333,92.7789,29.1,81,0.0,1001.7,8.8,20.9,144,41.6,34.0,6.8,285.0,109.0,3.9,7,5,4,1,2026-06-12T17:57:13.007115+05:30
Dibrugarh,Assam,27.4728,94.912,28.7,76,0.0,991.7,8.25,25.6,94,13.1,11.9,6.2,274.0,83.0,1.5,7,5,7,1,2026-06-12T17:57:13.007120+05:30
