city,state,latitude,longitude,temp,humidity,rain,pressure,uv_index,wind_gusts,aqi,pm10,pm2_5,no2,co,o3,so2,mosquito_risk,arthritis_risk,migraine_risk,frizz_risk,updated_at
Delhi,Delhi,28.6139,77.209,30.0,46,0.0,983.8,7.55,28.4,202,215.6,55.2,25.1,538.0,126.0,24.0,4,5,7,1,2026-05-09T21:26:09.092979+05:30
Mumbai,Maharashtra,19.076,72.8777,30.7,66,0.0,1006.8,7.85,48.2,98,46.3,21.8,14.3,361.0,91.0,10.5,3,5,4,1,2026-05-09T21:26:09.093049+05:30
Bangalore,Karnataka,12.9716,77.5946,23.0,83,0.0,911.8,9.45,44.3,49,12.6,12.5,30.9,333.0,30.0,8.3,3,5,7,1,2026-05-09T21:26:09.093066+05:30
Hyderabad,Telangana,17.385,78.4867,31.6,37,0.0,954.1,9.05,28.1,111,23.5,19.3,16.5,349.0,96.0,8.0,0,5,7,0,2026-05-09T21:26:09.093078+05:30
Chennai,Tamil Nadu,13.0827,80.2707,27.8,85,0.0,1007.9,8.35,34.9,23,6.5,4.7,6.7,173.0,41.0,2.5,7,5,4,1,2026-05-09T21:26:09.093088+05:30
Kolkata,West Bengal,22.5726,88.3639,26.1,88,0.0,1009.0,8.9,49.3,171,74.5,69.6,28.0,755.0,105.0,20.3,7,0,4,1,2026-05-09T21:26:09.093097+05:30
Pune,Maharashtra,18.5204,73.8567,30.6,40,0.0,948.0,8.5,32.4,148,49.5,33.8,19.1,316.0,121.0,12.3,0,5,7,0,2026-05-09T21:26:09.093107+05:30
Ahmedabad,Gujarat,23.0225,72.5714,38.9,13,0.0,999.8,8.1,32.0,81,39.3,24.4,23.6,326.0,75.0,8.2,0,5,10,0,2026-05-09T21:26:09.093119+05:30
Jaipur,Rajasthan,26.9124,75.7873,30.9,35,0.0,960.0,8.15,29.9,157,163.4,46.6,22.9,391.0,90.0,8.2,0,5,7,0,2026-05-09T21:26:09.093127+05:30
Lucknow,Uttar Pradesh,26.8467,80.9462,26.2,62,0.0,994.8,8.0,35.3,153,65.4,47.7,20.1,486.0,104.0,16.3,7,5,7,1,2026-05-09T21:26:09.093135+05:30
Kanpur,Uttar Pradesh,26.4499,80.3319,27.5,59,0.0,992.9,8.05,37.1,195,204.9,52.3,9.9,400.0,126.0,10.1,4,5,7,1,2026-05-09T21:26:09.093142+05:30
Chandigarh,Chandigarh,30.7333,76.7794,27.6,47,0.0,969.5,7.6,28.4,176,155.5,53.9,31.5,1014.0,115.0,15.8,4,5,7,0,2026-05-09T21:26:09.093149+05:30
Srinagar,Jammu and Kashmir,34.0837,74.7973,13.8,81,0.0,839.3,8.85,18.0,113,64.0,29.7,32.4,1158.0,94.0,6.8,3,10,7,0,2026-05-09T21:26:09.093157+05:30
Jammu,Jammu and Kashmir,32.7266,74.857,29.1,44,0.0,972.5,8.4,32.4,162,124.8,60.3,33.1,728.0,104.0,9.1,4,5,7,0,2026-05-09T21:26:09.093164+05:30
Amritsar,Punjab,31.634,74.8723,29.9,48,0.0,980.6,8.3,24.8,181,224.0,76.4,18.6,810.0,119.0,12.1,4,5,7,1,2026-05-09T21:26:09.093170+05:30
Ludhiana,Punjab,30.901,75.8573,28.7,56,0.0,978.8,7.9,34.2,157,179.3,63.8,20.7,982.0,96.0,8.7,4,5,7,1,2026-05-09T21:26:09.093176+05:30
Jalandhar,Punjab,31.326,75.5762,28.3,53,0.0,979.6,8.05,25.9,161,231.0,73.6,26.0,740.0,99.0,10.2,4,5,7,1,2026-05-09T21:26:09.093183+05:30
Dehradun,Uttarakhand,30.6284,78.0322,13.8,86,0.0,830.3,8.0,28.8,133,55.6,29.0,17.3,276.0,130.0,3.7,3,10,7,0,2026-05-09T21:26:09.093192+05:30
Shimla,Himachal Pradesh,31.1048,77.1734,13.5,72,0.0,785.0,8.05,37.1,164,128.5,45.9,14.4,342.0,153.0,17.0,3,5,7,0,2026-05-09T21:26:09.093199+05:30
Manali,Himachal Pradesh,32.2396,77.1887,11.0,85,0.0,816.7,10.1,39.2,140,41.8,12.4,27.8,389.0,126.0,1.3,3,10,7,0,2026-05-09T21:26:09.093206+05:30
Gurgaon,Haryana,28.4595,77.0266,29.1,48,0.0,982.0,7.65,27.4,879,1087.8,137.4,28.4,544.0,125.0,25.1,4,5,7,1,2026-05-09T21:26:09.093213+05:30
Noida,Uttar Pradesh,28.5355,77.391,27.3,57,0.0,985.1,7.6,25.9,879,1087.8,137.4,28.4,537.0,125.0,25.1,4,5,7,1,2026-05-09T21:26:09.093220+05:30
Ghaziabad,Uttar Pradesh,28.6692,77.4538,27.2,58,0.0,983.4,7.55,28.1,162,163.9,47.5,11.5,489.0,120.0,10.4,4,5,7,1,2026-05-09T21:26:09.093226+05:30
Faridabad,Haryana,28.4089,77.3178,28.8,52,0.0,984.4,7.6,27.4,879,1087.8,137.4,28.4,574.0,125.0,25.1,4,5,7,1,2026-05-09T21:26:09.093232+05:30
Meerut,Uttar Pradesh,28.9845,77.7064,25.8,65,0.0,982.3,7.45,30.2,162,163.9,47.5,11.5,410.0,120.0,10.4,7,5,7,1,2026-05-09T21:26:09.093238+05:30
Agra,Uttar Pradesh,27.1767,78.0081,27.8,51,0.0,988.3,7.9,25.6,953,1139.9,136.4,10.9,474.0,124.0,12.8,4,5,7,1,2026-05-09T21:26:09.093245+05:30
Varanasi,Uttar Pradesh,25.3176,82.9739,26.0,68,0.0,999.0,8.55,41.4,196,63.3,51.0,15.6,874.0,135.0,20.6,7,5,7,1,2026-05-09T21:26:09.093251+05:30
Prayagraj,Uttar Pradesh,25.4358,81.8463,26.5,63,0.0,997.1,8.35,38.2,189,59.6,48.9,13.8,526.0,128.0,14.3,7,5,7,1,2026-05-09T21:26:09.093259+05:30
Gorakhpur,Uttar Pradesh,26.7606,83.3732,25.5,66,0.0,999.2,8.4,37.4,165,60.8,50.8,18.2,491.0,108.0,11.6,7,5,7,1,2026-05-09T21:26:09.093265+05:30
Bareilly,Uttar Pradesh,28.367,79.4304,26.1,59,0.0,988.2,7.75,33.5,148,72.6,42.6,24.7,588.0,92.0,12.2,4,5,7,1,2026-05-09T21:26:09.093271+05:30
Aligarh,Uttar Pradesh,27.8974,78.088,27.5,57,0.0,986.3,7.7,32.0,447,510.4,80.1,9.4,422.0,129.0,11.9,4,5,7,1,2026-05-09T21:26:09.093278+05:30
Moradabad,Uttar Pradesh,28.8386,78.7733,27.1,57,0.0,985.0,7.65,32.8,167,133.2,59.4,24.9,652.0,102.0,13.3,4,5,7,1,2026-05-09T21:26:09.093284+05:30
Saharanpur,Uttar Pradesh,29.9637,77.546,26.5,56,0.0,976.4,7.3,33.5,150,71.7,53.7,33.9,619.0,79.0,15.2,4,5,7,1,2026-05-09T21:26:09.093290+05:30
Jhansi,Uttar Pradesh,25.4484,78.5685,27.9,51,0.0,977.9,8.35,47.5,157,122.0,38.8,5.2,301.0,120.0,9.2,4,5,7,1,2026-05-09T21:26:12.411057+05:30
Surat,Gujarat,21.1702,72.8311,30.9,63,0.0,1004.8,7.7,37.4,107,55.1,38.1,60.7,552.0,41.0,66.6,3,5,4,1,2026-05-09T21:26:12.411095+05:30
Vadodara,Gujarat,22.3072,73.1812,35.8,22,0.0,1002.0,8.05,32.4,130,51.8,36.4,40.7,619.0,90.0,13.7,0,5,7,0,2026-05-09T21:26:12.411105+05:30
Rajkot,Gujarat,22.3039,70.8022,31.9,33,0.0,993.5,7.7,40.7,90,35.9,14.0,6.0,181.0,92.0,7.1,0,5,7,0,2026-05-09T21:26:12.411112+05:30
Thane,Maharashtra,19.2183,72.9781,30.8,63,0.0,1006.4,7.85,46.8,98,46.3,21.8,14.3,291.0,91.0,10.5,3,5,4,1,2026-05-09T21:26:12.411120+05:30
Nagpur,Maharashtra,21.1458,79.0882,29.6,43,0.0,973.1,8.9,73.4,145,66.8,40.4,34.6,337.0,84.0,23.4,4,5,7,0,2026-05-09T21:26:12.411128+05:30
Nashik,Maharashtra,19.9975,73.7898,31.6,26,0.0,945.2,8.15,50.4,122,32.2,22.5,6.6,211.0,141.0,12.0,0,5,7,0,2026-05-09T21:26:12.411135+05:30
Aurangabad,Maharashtra,19.8762,75.3433,32.5,19,0.0,943.8,9.05,34.2,128,31.8,15.8,6.8,236.0,120.0,5.8,0,5,7,0,2026-05-09T21:26:12.411142+05:30
Solapur,Maharashtra,17.6599,75.9064,34.5,23,0.0,956.8,9.05,32.0,139,36.1,25.9,6.5,315.0,132.0,6.7,0,5,7,0,2026-05-09T21:26:12.411149+05:30
Kolhapur,Maharashtra,16.705,74.2433,29.4,54,0.0,947.9,8.9,40.0,122,54.1,47.0,37.4,313.0,77.0,9.3,4,5,7,1,2026-05-09T21:26:12.411155+05:30
Goa,Goa,15.2993,74.124,29.6,76,0.0,996.5,8.75,42.1,83,41.8,28.2,6.0,312.0,112.0,4.7,7,5,7,1,2026-05-09T21:26:12.411161+05:30
Jodhpur,Rajasthan,26.2389,73.0243,36.8,16,0.0,981.4,8.35,42.8,113,98.7,29.9,17.0,226.0,90.0,5.5,0,5,10,0,2026-05-09T21:26:12.411167+05:30
Udaipur,Rajasthan,24.5854,73.7125,32.2,19,0.0,946.0,8.8,44.3,74,29.1,11.5,5.3,220.0,103.0,3.2,0,5,7,0,2026-05-09T21:26:12.411173+05:30
Kota,Rajasthan,25.2138,75.8648,31.6,33,0.0,977.3,8.35,46.1,129,50.9,24.9,7.7,413.0,114.0,6.2,0,5,7,0,2026-05-09T21:26:12.411181+05:30
Bikaner,Rajasthan,28.0229,73.3119,34.1,24,0.0,980.7,8.25,26.3,147,116.4,37.0,4.5,516.0,122.0,8.0,0,5,7,0,2026-05-09T21:26:12.411188+05:30
Ajmer,Rajasthan,26.4499,74.6399,32.4,22,0.0,954.2,8.3,45.7,135,70.5,27.2,7.2,333.0,113.0,4.6,0,5,7,0,2026-05-09T21:26:12.411194+05:30
Gwalior,Madhya Pradesh,26.2183,78.1828,28.6,42,0.0,983.5,8.1,25.9,154,261.7,58.4,5.1,356.0,131.0,7.9,4,5,7,0,2026-05-09T21:26:12.411200+05:30
Indore,Madhya Pradesh,22.7196,75.8577,33.3,16,0.0,947.7,8.6,45.4,91,32.0,14.1,6.2,379.0,104.0,4.5,0,5,7,0,2026-05-09T21:26:12.411206+05:30
Bhopal,Madhya Pradesh,23.2599,77.4126,33.2,23,0.0,953.2,8.65,43.6,95,34.8,14.7,4.6,218.0,104.0,4.5,0,5,7,0,2026-05-09T21:26:12.411212+05:30
Jabalpur,Madhya Pradesh,23.1815,79.9864,28.2,39,0.0,961.1,8.8,39.2,122,37.7,21.1,7.7,243.0,113.0,6.1,4,5,7,0,2026-05-09T21:26:12.411218+05:30
Ujjain,Madhya Pradesh,23.1765,75.7885,32.0,21,0.0,953.1,8.55,45.7,82,37.8,18.5,5.6,345.0,94.0,4.4,0,5,7,0,2026-05-09T21:26:12.411225+05:30
Visakhapatnam,Andhra Pradesh,17.6868,83.2185,28.6,74,0.0,1005.7,9.1,33.8,76,16.8,15.1,20.2,529.0,25.0,7.5,7,5,4,1,2026-05-09T21:26:12.411231+05:30
Vijayawada,Andhra Pradesh,16.5062,80.648,29.2,74,0.0,1003.8,9.2,40.3,46,7.4,6.4,6.4,162.0,41.0,6.5,7,5,4,1,2026-05-09T21:26:12.411237+05:30
Guntur,Andhra Pradesh,16.3067,80.4365,29.3,73,0.0,1005.0,9.2,33.1,45,8.4,7.4,6.7,167.0,50.0,7.3,7,5,4,1,2026-05-09T21:26:12.411244+05:30
Nellore,Andhra Pradesh,14.4426,79.9865,28.2,80,0.0,1007.0,9.2,39.6,26,6.0,4.1,2.8,151.0,44.0,2.0,7,5,4,1,2026-05-09T21:26:12.411250+05:30
Kurnool,Andhra Pradesh,15.8281,78.0373,32.5,42,0.0,977.2,9.15,36.0,55,16.4,13.2,8.0,233.0,79.0,2.6,0,5,7,1,2026-05-09T21:26:12.411257+05:30
Kakinada,Andhra Pradesh,16.9891,82.2475,28.2,81,0.0,1009.0,9.15,36.7,24,6.6,4.6,1.2,198.0,47.0,0.5,7,0,4,1,2026-05-09T21:26:12.411263+05:30
Tirupati,Andhra Pradesh,13.6288,79.4192,27.3,76,0.0,992.1,7.35,40.3,27,11.8,10.8,16.4,197.0,27.0,3.1,7,5,7,1,2026-05-09T21:26:12.411270+05:30
Warangal,Telangana,17.9689,79.5941,31.5,44,0.0,979.0,9.15,32.0,105,37.7,31.7,18.0,528.0,87.0,8.8,0,5,7,1,2026-05-09T21:26:12.411275+05:30
Nizamabad,Telangana,18.6725,78.0941,31.0,35,0.0,964.5,9.1,31.0,129,63.3,44.8,26.4,420.0,96.0,8.5,0,5,7,0,2026-05-09T21:26:12.411281+05:30
Mysore,Karnataka,12.2958,76.6396,22.6,93,0.1,928.6,9.4,42.8,58,10.8,10.4,9.6,210.0,69.0,4.1,6,5,7,1,2026-05-09T21:26:12.411287+05:30
Mangalore,Karnataka,12.9141,74.856,27.2,95,0.0,1006.5,8.0,37.4,72,38.3,24.6,11.8,236.0,76.0,3.9,7,5,4,1,2026-05-09T21:26:12.411293+05:30
Hubli-Dharwad,Karnataka,15.3647,75.124,26.8,68,0.0,940.1,9.15,45.0,116,19.2,16.1,17.4,291.0,107.0,4.2,7,5,7,1,2026-05-09T21:26:12.411300+05:30
Belgaum,Karnataka,15.8497,74.4977,25.9,68,0.0,925.2,9.15,36.4,122,44.9,35.6,25.2,328.0,84.0,6.7,7,5,7,1,2026-05-09T21:26:15.734626+05:30
Coimbatore,Tamil Nadu,11.0168,76.9558,24.3,92,0.1,962.2,7.75,28.8,62,12.6,12.1,12.8,375.0,68.0,4.8,6,5,7,1,2026-05-09T21:26:15.734686+05:30
Madurai,Tamil Nadu,9.9252,78.1198,25.9,94,0.0,992.7,4.7,44.3,66,18.5,18.2,24.7,397.0,48.0,10.8,7,5,3,1,2026-05-09T21:26:15.734699+05:30
Trichy,Tamil Nadu,10.7905,78.7047,26.0,91,0.0,999.9,3.2,33.8,40,13.7,13.5,26.3,236.0,36.0,25.9,7,5,3,1,2026-05-09T21:26:15.734709+05:30
Salem,Tamil Nadu,11.6643,78.146,25.8,83,0.0,977.7,8.25,33.1,50,13.7,13.5,16.6,246.0,58.0,8.0,7,5,7,1,2026-05-09T21:26:15.734718+05:30
Tirunelveli,Tamil Nadu,8.7139,77.7567,26.7,91,0.0,1002.8,4.75,29.2,58,13.4,13.0,12.5,340.0,58.0,4.0,7,5,0,1,2026-05-09T21:26:15.734727+05:30
Vellore,Tamil Nadu,12.9165,79.1325,24.4,95,0.0,985.2,6.85,37.4,46,18.4,17.8,21.7,233.0,42.0,13.0,3,5,7,1,2026-05-09T21:26:15.734735+05:30
Erode,Tamil Nadu,11.341,77.7172,24.8,94,0.1,989.7,8.1,41.8,59,15.8,15.4,19.2,289.0,56.0,6.1,6,5,7,1,2026-05-09T21:26:15.734744+05:30
Kochi,Kerala,9.9312,76.2673,25.7,93,0.0,1008.6,7.85,29.9,71,22.9,22.1,19.9,465.0,58.0,4.2,7,0,4,1,2026-05-09T21:26:15.734752+05:30
Thiruvananthapuram,Kerala,8.5241,76.9366,26.0,91,0.0,1007.4,4.7,28.4,67,9.9,8.4,5.1,364.0,107.0,2.5,7,5,0,1,2026-05-09T21:26:15.734760+05:30
Kozhikode,Kerala,11.2588,75.7804,24.6,97,0.0,1008.7,8.5,34.9,58,14.7,9.8,2.4,327.0,103.0,1.2,3,0,4,1,2026-05-09T21:26:15.734768+05:30
Thrissur,Kerala,10.5276,76.2144,24.8,98,0.0,1007.3,8.25,25.9,71,26.0,25.1,15.0,533.0,66.0,3.4,3,5,4,1,2026-05-09T21:26:15.734777+05:30
Kannur,Kerala,11.8745,75.3704,26.1,92,0.0,1007.3,8.95,34.2,65,31.9,24.1,24.0,253.0,57.0,3.7,7,5,4,1,2026-05-09T21:26:15.734785+05:30
Patna,Bihar,25.5941,85.1376,25.5,79,0.0,1002.9,8.4,35.6,192,64.7,58.6,17.5,506.0,134.0,20.7,7,5,4,1,2026-05-09T21:26:15.734793+05:30
Gaya,Bihar,24.7914,85.0002,24.3,71,0.0,995.9,8.55,34.2,191,59.8,46.1,9.5,433.0,134.0,15.9,3,5,7,1,2026-05-09T21:26:15.734801+05:30
Muzaffarpur,Bihar,26.1209,85.3647,25.6,71,0.0,1003.1,8.65,34.9,175,72.4,65.2,21.8,453.0,111.0,18.3,7,5,4,1,2026-05-09T21:26:15.734807+05:30
Bhagalpur,Bihar,25.2425,87.0117,22.5,94,0.0,1004.8,8.7,43.2,196,66.1,52.4,11.0,382.0,157.0,14.4,3,5,4,1,2026-05-09T21:26:15.734813+05:30
Ranchi,Jharkhand,23.3441,85.3096,20.9,82,0.0,939.1,9.2,45.0,136,76.1,49.4,21.6,336.0,90.0,10.8,3,5,7,1,2026-05-09T21:26:15.734819+05:30
Jamshedpur,Jharkhand,22.8046,86.2029,24.1,88,0.0,993.6,8.85,37.1,176,53.0,43.4,19.9,470.0,123.0,35.4,3,5,7,1,2026-05-09T21:26:15.734824+05:30
Dhanbad,Jharkhand,23.7957,86.4304,22.5,95,0.0,982.7,8.95,29.5,191,85.2,74.0,37.3,603.0,139.0,62.1,3,5,7,1,2026-05-09T21:26:15.734831+05:30
Bokaro,Jharkhand,23.6693,86.1511,22.8,90,0.0,986.6,9.0,52.2,197,91.7,73.3,34.6,1334.0,127.0,55.9,3,5,7,1,2026-05-09T21:26:15.734837+05:30
Bhubaneswar,Odisha,20.2961,85.8245,26.9,86,0.0,1005.3,9.1,33.8,50,28.2,24.2,20.1,300.0,48.0,6.9,7,5,4,1,2026-05-09T21:26:15.734843+05:30
Cuttack,Odisha,20.4625,85.8828,27.3,85,0.0,1007.2,9.15,42.5,50,28.2,24.2,20.1,320.0,48.0,6.9,7,5,4,1,2026-05-09T21:26:15.734849+05:30
Rourkela,Odisha,22.2604,84.8536,26.4,66,0.0,986.8,8.7,38.9,169,82.7,58.2,29.1,325.0,103.0,30.3,7,5,7,1,2026-05-09T21:26:15.734856+05:30
Raipur,Chhattisgarh,21.2514,81.6296,29.8,42,0.0,975.2,8.95,40.0,163,52.2,39.6,35.4,389.0,92.0,10.2,4,5,7,0,2026-05-09T21:26:15.734862+05:30
Bhilai,Chhattisgarh,21.1938,81.3509,30.5,40,0.0,975.9,8.95,42.8,138,51.8,39.6,45.2,413.0,76.0,9.6,0,5,7,0,2026-05-09T21:26:15.734868+05:30
Guwahati,Assam,26.1158,91.7086,23.1,92,0.0,1004.2,8.65,24.1,100,33.2,29.2,11.0,451.0,60.0,2.4,3,5,4,1,2026-05-09T21:26:15.734874+05:30
Agartala,Tripura,23.8315,91.2868,26.3,79,0.0,1008.5,8.8,20.2,172,99.2,87.5,41.8,752.0,85.0,8.7,7,0,4,1,2026-05-09T21:26:15.734880+05:30
Shillong,Meghalaya,25.5788,91.8933,16.9,76,0.0,859.3,8.4,24.1,90,36.9,28.5,15.9,518.0,63.0,2.6,3,5,7,0,2026-05-09T21:26:15.734886+05:30
Imphal,Manipur,24.817,93.9368,20.1,82,0.0,925.3,9.2,28.1,97,47.4,38.4,25.5,817.0,57.0,5.8,3,5,7,1,2026-05-09T21:26:15.734892+05:30
Aizawl,Mizoram,23.7271,92.7176,19.8,66,0.0,894.7,9.0,27.4,92,57.7,38.4,11.2,373.0,87.0,5.0,3,5,7,0,2026-05-09T21:26:15.734898+05:30
Kohima,Nagaland,25.6701,94.1077,15.6,89,0.0,857.1,9.15,32.4,76,38.9,29.5,16.4,404.0,55.0,2.4,3,10,7,0,2026-05-09T21:26:15.734904+05:30
Gangtok,Sikkim,27.3314,88.6138,12.8,86,0.0,839.1,8.95,41.8,80,32.6,22.7,15.4,445.0,95.0,2.2,3,10,7,0,2026-05-09T21:26:15.734910+05:30
Siliguri,West Bengal,26.7271,88.3953,23.0,74,0.0,996.3,8.55,29.5,114,64.7,48.7,23.1,1700.0,108.0,6.7,3,5,7,1,2026-05-09T21:26:19.057853+05:30
Durgapur,West Bengal,23.5204,87.3119,23.0,93,0.3,998.5,8.9,43.9,150,66.1,57.5,26.3,667.0,127.0,46.2,6,5,7,1,2026-05-09T21:26:19.057892+05:30
Asansol,West Bengal,23.6739,86.9524,22.9,92,0.0,996.8,8.9,38.9,149,67.5,59.8,27.0,557.0,133.0,49.5,3,5,7,1,2026-05-09T21:26:19.057902+05:30
Pondicherry,Puducherry,11.9139,79.8145,26.5,94,0.1,1008.8,2.2,38.2,24,4.7,3.3,2.9,261.0,46.0,0.4,10,0,0,1,2026-05-09T21:26:19.057911+05:30
Port Blair,Andaman and Nicobar Islands,11.6234,92.7265,24.9,97,0.0,1008.7,8.1,43.6,26,2.3,1.6,0.6,444.0,55.0,0.1,3,0,4,1,2026-05-09T21:26:19.057919+05:30
Haridwar,Uttarakhand,29.9457,78.1642,25.1,65,0.0,975.2,7.4,28.1,153,78.0,49.4,24.6,381.0,106.0,11.8,7,5,7,1,2026-05-09T21:26:19.057927+05:30
Rishikesh,Uttarakhand,30.0869,78.2676,22.5,71,0.0,967.7,7.5,26.6,159,64.0,33.1,9.7,417.0,144.0,7.2,3,5,7,1,2026-05-09T21:26:19.057935+05:30
Nainital,Uttarakhand,29.3919,79.4542,12.2,88,0.0,805.7,7.9,31.3,129,46.2,30.2,15.4,307.0,109.0,5.6,3,10,7,0,2026-05-09T21:26:19.057942+05:30
Mussoorie,Uttarakhand,30.4599,78.0664,11.9,94,0.0,802.3,7.85,41.4,157,58.0,34.8,16.9,380.0,141.0,13.3,3,10,7,0,2026-05-09T21:26:19.057948+05:30
Dharamshala,Himachal Pradesh,32.219,76.3234,19.5,69,0.0,869.9,8.25,36.7,147,68.7,38.6,11.7,342.0,135.0,4.9,3,5,7,0,2026-05-09T21:26:19.057954+05:30
Dalhousie,Himachal Pradesh,32.5387,75.971,13.8,85,0.0,804.8,8.5,36.7,164,98.5,54.7,27.5,615.0,118.0,6.9,3,10,7,0,2026-05-09T21:26:19.057962+05:30
Patiala,Punjab,30.3398,76.3869,28.0,50,0.0,978.5,7.5,29.2,199,521.5,81.0,11.9,460.0,119.0,7.0,4,5,7,1,2026-05-09T21:26:19.057969+05:30
Bhatinda,Punjab,30.211,74.9455,31.5,39,0.0,983.2,8.2,25.6,425,337.1,90.8,18.1,433.0,129.0,18.3,0,5,7,0,2026-05-09T21:26:19.057975+05:30
Rohtak,Haryana,28.8955,76.6066,28.2,49,0.0,982.1,7.6,27.4,275,553.2,86.4,21.4,411.0,145.0,26.0,4,5,7,1,2026-05-09T21:26:19.057981+05:30
Panipat,Haryana,29.3909,76.9635,26.7,64,0.0,980.8,7.45,33.1,539,1158.6,130.9,11.6,465.0,141.0,14.3,7,5,7,1,2026-05-09T21:26:19.057987+05:30
Mathura,Uttar Pradesh,27.4924,77.6737,27.9,50,0.0,987.3,7.85,27.0,764,942.5,114.6,11.8,404.0,127.0,10.6,4,5,7,1,2026-05-09T21:26:19.057993+05:30
Vrindavan,Uttar Pradesh,27.5823,77.7027,28.1,50,0.0,987.7,7.8,27.4,764,942.5,114.6,11.8,405.0,127.0,10.6,4,5,7,1,2026-05-09T21:26:19.057999+05:30
Ayodhya,Uttar Pradesh,26.7922,82.1998,26.0,59,0.0,997.0,8.15,38.9,142,84.1,59.5,31.3,433.0,92.0,12.9,4,5,7,1,2026-05-09T21:26:19.058005+05:30
Ratlam,Madhya Pradesh,23.3315,75.0367,31.2,23,0.0,953.5,8.5,38.2,83,31.7,15.9,4.0,340.0,95.0,4.1,0,5,7,0,2026-05-09T21:26:19.058012+05:30
Sagar,Madhya Pradesh,23.8388,78.7378,29.1,34,0.0,950.0,8.65,43.9,125,42.5,22.4,2.7,259.0,149.0,7.5,4,5,7,0,2026-05-09T21:26:19.058018+05:30
Satna,Madhya Pradesh,24.6005,80.8322,27.2,50,0.0,971.7,8.65,55.8,176,46.7,35.0,5.6,333.0,174.0,11.3,4,5,7,0,2026-05-09T21:26:19.058024+05:30
Akola,Maharashtra,20.7002,77.0082,32.6,22,0.0,973.5,8.85,36.0,141,69.8,31.7,21.8,410.0,101.0,13.9,0,5,7,0,2026-05-09T21:26:19.058031+05:30
Amravati,Maharashtra,20.9374,77.7796,32.8,28,0.0,966.3,8.85,32.8,138,71.5,33.5,26.9,284.0,96.0,9.2,0,5,7,0,2026-05-09T21:26:19.058039+05:30
Latur,Maharashtra,18.4088,76.5604,30.4,30,0.0,939.9,9.05,35.3,142,50.2,34.7,11.9,233.0,117.0,14.2,0,5,7,0,2026-05-09T21:26:19.058045+05:30
Nanded,Maharashtra,19.1383,77.3091,31.5,33,0.0,968.1,9.0,25.9,138,60.3,34.5,10.7,571.0,122.0,6.2,0,5,7,0,2026-05-09T21:26:19.058051+05:30
Gulbarga,Karnataka,17.3297,76.8343,32.7,31,0.0,958.6,8.9,36.0,129,22.6,17.3,11.5,281.0,119.0,4.9,0,5,7,0,2026-05-09T21:26:19.058057+05:30
Bidar,Karnataka,17.9104,77.5199,29.9,37,0.0,935.9,8.75,35.3,121,36.6,27.7,19.0,382.0,96.0,4.5,4,5,7,0,2026-05-09T21:26:19.058062+05:30
Hospet,Karnataka,15.2689,76.3909,31.0,36,0.0,955.4,9.2,36.0,101,17.6,14.8,16.2,370.0,98.0,7.9,0,5,7,0,2026-05-09T21:26:19.058068+05:30
Tirupur,Tamil Nadu,11.1085,77.3411,24.4,95,0.1,975.9,7.95,39.2,75,18.7,18.2,17.1,285.0,69.0,6.5,6,5,7,1,2026-05-09T21:26:19.058074+05:30
Alappuzha,Kerala,9.4981,76.3388,26.5,90,0.0,1008.3,7.8,30.6,87,20.1,18.2,14.3,172.0,84.0,4.4,7,0,4,1,2026-05-09T21:26:19.058080+05:30
Munnar,Kerala,10.0889,77.0595,18.0,95,0.0,856.2,5.9,21.2,50,9.5,9.2,8.2,286.0,64.0,2.0,3,10,3,1,2026-05-09T21:26:19.058086+05:30
Silchar,Assam,24.8333,92.7789,24.2,83,0.0,1007.3,8.7,16.9,125,81.5,63.3,20.1,741.0,77.0,12.5,3,5,4,1,2026-05-09T21:26:19.058092+05:30
Dibrugarh,Assam,27.4728,94.912,24.9,82,0.0,998.0,8.7,19.4,103,61.5,54.1,25.1,671.0,89.0,6.3,3,5,7,1,2026-05-09T21:26:19.058098+05:30
