city,state,latitude,longitude,temp,humidity,rain,pressure,uv_index,wind_gusts,aqi,pm10,pm2_5,mosquito_risk,arthritis_risk,migraine_risk,frizz_risk,updated_at
Delhi,Delhi,28.6139,77.209,17.4,77,0.0,986.0,5.85,35.6,215,296.2,75.0,3,5,3,0,2026-03-03T03:07:23.533459+05:30
Mumbai,Maharashtra,19.076,72.8777,26.9,76,0.0,1009.9,7.35,27.4,90,40.5,33.5,7,0,4,1,2026-03-03T03:07:23.533520+05:30
Bangalore,Karnataka,12.9716,77.5946,20.7,71,0.0,911.5,9.1,39.2,130,46.3,45.3,3,5,7,0,2026-03-03T03:07:23.533539+05:30
Hyderabad,Telangana,17.385,78.4867,23.1,71,0.0,954.1,8.35,23.8,140,67.1,66.1,3,5,7,1,2026-03-03T03:07:23.533549+05:30
Chennai,Tamil Nadu,13.0827,80.2707,23.8,87,0.0,1008.3,8.8,29.5,122,49.7,45.8,3,0,4,1,2026-03-03T03:07:23.533558+05:30
Kolkata,West Bengal,22.5726,88.3639,21.3,74,0.0,1008.2,7.7,18.0,162,132.2,120.6,3,0,4,1,2026-03-03T03:07:23.533567+05:30
Pune,Maharashtra,18.5204,73.8567,22.1,72,0.0,949.5,7.9,32.0,96,48.0,44.7,3,5,7,1,2026-03-03T03:07:23.533579+05:30
Ahmedabad,Gujarat,23.0225,72.5714,23.0,63,0.0,1005.4,7.15,20.2,102,58.0,47.0,3,5,4,0,2026-03-03T03:07:23.533587+05:30
Jaipur,Rajasthan,26.9124,75.7873,21.0,48,0.0,962.9,6.6,28.8,101,122.0,42.4,0,5,7,0,2026-03-03T03:07:23.533595+05:30
Lucknow,Uttar Pradesh,26.8467,80.9462,18.7,72,0.0,996.2,6.3,34.6,153,302.7,78.2,3,5,7,0,2026-03-03T03:07:23.533603+05:30
Kanpur,Uttar Pradesh,26.4499,80.3319,17.8,83,0.0,994.7,6.3,28.8,166,406.1,81.3,3,10,7,0,2026-03-03T03:07:23.533611+05:30
Chandigarh,Chandigarh,30.7333,76.7794,16.7,70,0.0,971.1,5.7,34.2,80,27.8,24.7,3,5,3,0,2026-03-03T03:07:23.533619+05:30
Srinagar,Jammu and Kashmir,34.0837,74.7973,3.0,63,0.0,839.4,6.6,15.8,146,78.0,67.3,3,5,7,1,2026-03-03T03:07:23.533626+05:30
Jammu,Jammu and Kashmir,32.7266,74.857,16.5,58,0.0,975.5,6.3,24.5,99,48.3,46.2,0,5,7,0,2026-03-03T03:07:23.533634+05:30
Amritsar,Punjab,31.634,74.8723,15.2,79,0.0,983.9,6.25,28.4,127,38.6,32.1,3,5,7,0,2026-03-03T03:07:23.533642+05:30
Ludhiana,Punjab,30.901,75.8573,17.3,69,0.0,981.8,5.9,30.6,153,66.1,54.2,3,5,3,0,2026-03-03T03:07:23.533648+05:30
Jalandhar,Punjab,31.326,75.5762,17.0,72,0.0,983.1,6.1,26.6,153,77.5,60.8,3,5,7,0,2026-03-03T03:07:23.533658+05:30
Dehradun,Uttarakhand,30.6284,78.0322,10.3,58,0.0,827.9,6.05,31.0,59,19.5,17.4,0,5,7,0,2026-03-03T03:07:23.533664+05:30
Shimla,Himachal Pradesh,31.1048,77.1734,7.5,61,0.0,781.5,6.1,43.6,73,36.9,29.7,3,5,7,0,2026-03-03T03:07:23.533671+05:30
Manali,Himachal Pradesh,32.2396,77.1887,14.8,9,0.0,818.7,7.45,35.3,55,17.5,14.4,0,5,7,1,2026-03-03T03:07:23.533678+05:30
Gurgaon,Haryana,28.4595,77.0266,14.7,87,0.0,984.4,5.95,32.4,933,998.4,142.0,3,10,3,0,2026-03-03T03:07:23.533686+05:30
Noida,Uttar Pradesh,28.5355,77.391,17.7,76,0.0,987.6,5.85,34.9,933,998.4,142.0,3,5,3,0,2026-03-03T03:07:23.533692+05:30
Ghaziabad,Uttar Pradesh,28.6692,77.4538,17.2,77,0.0,985.5,5.8,34.9,184,258.9,69.6,3,5,3,0,2026-03-03T03:07:23.533699+05:30
Faridabad,Haryana,28.4089,77.3178,16.6,76,0.0,986.8,5.85,31.7,933,998.4,142.0,3,5,3,0,2026-03-03T03:07:23.533705+05:30
Meerut,Uttar Pradesh,28.9845,77.7064,15.7,81,0.0,983.9,5.7,41.0,184,258.9,69.6,3,10,3,0,2026-03-03T03:07:23.533712+05:30
Agra,Uttar Pradesh,27.1767,78.0081,16.9,86,0.0,991.4,6.15,29.5,383,579.3,102.2,3,10,7,0,2026-03-03T03:07:23.533720+05:30
Varanasi,Uttar Pradesh,25.3176,82.9739,17.9,76,0.0,1000.5,6.95,25.2,92,46.2,29.6,3,5,4,0,2026-03-03T03:07:23.533730+05:30
Prayagraj,Uttar Pradesh,25.4358,81.8463,18.5,68,0.0,998.9,6.8,24.5,101,97.6,40.4,3,5,7,0,2026-03-03T03:07:23.533738+05:30
Gorakhpur,Uttar Pradesh,26.7606,83.3732,16.1,72,0.0,999.1,6.7,21.6,128,121.1,56.3,3,5,7,0,2026-03-03T03:07:23.533745+05:30
Bareilly,Uttar Pradesh,28.367,79.4304,16.1,77,0.0,989.0,6.0,31.0,137,148.5,60.5,3,5,3,0,2026-03-03T03:07:23.533752+05:30
Aligarh,Uttar Pradesh,27.8974,78.088,16.5,81,0.0,988.4,5.9,34.9,554,590.5,111.8,3,10,3,0,2026-03-03T03:07:23.533758+05:30
Moradabad,Uttar Pradesh,28.8386,78.7733,15.8,77,0.0,985.8,5.85,30.2,142,138.8,62.4,3,5,3,0,2026-03-03T03:07:23.533765+05:30
Saharanpur,Uttar Pradesh,29.9637,77.546,15.5,81,0.0,977.6,5.45,44.3,111,71.9,49.7,3,10,3,0,2026-03-03T03:07:23.533773+05:30
Jhansi,Uttar Pradesh,25.4484,78.5685,17.5,76,0.0,981.0,6.75,25.2,75,36.7,25.3,3,5,7,0,2026-03-03T03:07:26.763328+05:30
Surat,Gujarat,21.1702,72.8311,23.0,72,0.0,1009.2,7.05,24.8,155,76.8,69.6,3,0,4,1,2026-03-03T03:07:26.763363+05:30
Vadodara,Gujarat,22.3072,73.1812,22.2,55,0.0,1007.2,7.15,15.8,152,101.0,93.4,0,5,4,0,2026-03-03T03:07:26.763376+05:30
Rajkot,Gujarat,22.3039,70.8022,21.3,79,0.0,997.7,7.0,21.2,67,34.8,22.2,3,5,7,1,2026-03-03T03:07:26.763388+05:30
Thane,Maharashtra,19.2183,72.9781,24.0,81,0.0,1009.4,7.35,38.2,90,40.5,33.5,3,0,4,1,2026-03-03T03:07:26.763398+05:30
Nagpur,Maharashtra,21.1458,79.0882,20.9,67,0.0,975.2,7.75,19.1,72,24.6,20.6,3,5,7,0,2026-03-03T03:07:26.763409+05:30
Nashik,Maharashtra,19.9975,73.7898,22.9,56,0.0,947.4,7.55,28.8,90,44.5,40.7,0,5,7,0,2026-03-03T03:07:26.763418+05:30
Aurangabad,Maharashtra,19.8762,75.3433,23.3,52,0.0,945.7,8.05,24.1,80,38.9,37.6,0,5,7,0,2026-03-03T03:07:26.763428+05:30
Solapur,Maharashtra,17.6599,75.9064,23.9,70,0.0,957.8,8.3,18.0,124,30.6,30.4,3,5,7,1,2026-03-03T03:07:26.763438+05:30
Kolhapur,Maharashtra,16.705,74.2433,19.6,95,0.0,948.2,8.4,40.0,112,38.2,35.5,3,10,7,1,2026-03-03T03:07:26.763448+05:30
Goa,Goa,15.2993,74.124,26.3,81,0.0,998.7,8.45,36.0,74,38.1,28.8,7,5,7,1,2026-03-03T03:07:26.763459+05:30
Jodhpur,Rajasthan,26.2389,73.0243,20.3,54,0.0,986.7,6.85,12.2,88,67.3,33.2,0,5,7,0,2026-03-03T03:07:26.763470+05:30
Udaipur,Rajasthan,24.5854,73.7125,17.7,61,0.0,949.4,7.45,16.6,73,34.6,25.3,3,5,7,0,2026-03-03T03:07:26.763479+05:30
Kota,Rajasthan,25.2138,75.8648,18.5,75,0.0,981.8,6.85,19.8,91,46.1,33.1,3,5,7,0,2026-03-03T03:07:26.763487+05:30
Bikaner,Rajasthan,28.0229,73.3119,21.9,57,0.0,985.7,6.55,19.8,72,42.1,23.7,0,5,7,0,2026-03-03T03:07:26.763513+05:30
Ajmer,Rajasthan,26.4499,74.6399,20.4,50,0.0,957.6,6.8,24.1,80,68.2,26.7,0,5,7,0,2026-03-03T03:07:26.763522+05:30
Gwalior,Madhya Pradesh,26.2183,78.1828,18.8,75,0.0,986.4,6.45,27.4,99,229.6,56.6,3,5,7,0,2026-03-03T03:07:26.763530+05:30
Indore,Madhya Pradesh,22.7196,75.8577,19.1,62,0.0,950.4,7.45,15.1,89,45.3,34.6,3,5,7,0,2026-03-03T03:07:26.763538+05:30
Bhopal,Madhya Pradesh,23.2599,77.4126,20.5,55,0.0,956.1,7.3,23.0,80,43.7,33.9,0,5,7,0,2026-03-03T03:07:26.763546+05:30
Jabalpur,Madhya Pradesh,23.1815,79.9864,19.0,56,0.0,963.9,7.4,18.4,73,39.5,26.7,0,5,7,0,2026-03-03T03:07:26.763554+05:30
Ujjain,Madhya Pradesh,23.1765,75.7885,19.4,63,0.0,956.2,7.3,15.1,109,56.6,47.3,3,5,7,0,2026-03-03T03:07:26.763562+05:30
Visakhapatnam,Andhra Pradesh,17.6868,83.2185,24.7,78,0.0,1004.7,8.35,34.6,136,44.6,42.7,3,5,4,1,2026-03-03T03:07:26.763570+05:30
Vijayawada,Andhra Pradesh,16.5062,80.648,23.7,85,0.0,1003.9,8.4,24.5,139,46.1,43.9,3,5,4,1,2026-03-03T03:07:26.763577+05:30
Guntur,Andhra Pradesh,16.3067,80.4365,23.0,89,0.0,1005.2,8.45,27.4,132,41.9,40.2,3,5,4,1,2026-03-03T03:07:26.763586+05:30
Nellore,Andhra Pradesh,14.4426,79.9865,23.1,86,0.0,1006.9,8.65,29.5,119,41.7,39.8,3,5,4,1,2026-03-03T03:07:26.763594+05:30
Kurnool,Andhra Pradesh,15.8281,78.0373,25.9,56,0.0,977.7,8.45,29.2,124,42.8,42.1,4,5,7,1,2026-03-03T03:07:26.763602+05:30
Kakinada,Andhra Pradesh,16.9891,82.2475,22.4,89,0.0,1008.7,8.4,34.6,127,44.8,41.4,3,0,4,1,2026-03-03T03:07:26.763610+05:30
Tirupati,Andhra Pradesh,13.6288,79.4192,22.1,66,0.0,992.7,8.8,38.2,145,73.6,71.7,3,5,7,0,2026-03-03T03:07:26.763618+05:30
Warangal,Telangana,17.9689,79.5941,24.2,68,0.0,979.6,8.2,18.7,127,38.8,38.1,3,5,7,1,2026-03-03T03:07:26.763625+05:30
Nizamabad,Telangana,18.6725,78.0941,20.6,72,0.0,965.7,8.1,29.2,100,40.6,39.3,3,5,7,0,2026-03-03T03:07:26.763633+05:30
Mysore,Karnataka,12.2958,76.6396,21.4,89,0.0,927.9,9.15,33.8,142,54.1,53.4,3,5,7,1,2026-03-03T03:07:26.763640+05:30
Mangalore,Karnataka,12.9141,74.856,28.4,77,0.0,1006.8,8.75,29.5,58,24.7,17.3,7,5,4,1,2026-03-03T03:07:26.763648+05:30
Hubli-Dharwad,Karnataka,15.3647,75.124,21.4,90,0.0,940.8,8.6,28.4,84,21.0,18.1,3,5,7,1,2026-03-03T03:07:26.763656+05:30
Belgaum,Karnataka,15.8497,74.4977,20.2,94,0.0,925.6,8.65,33.1,82,26.4,22.7,3,5,7,1,2026-03-03T03:07:29.990773+05:30
Coimbatore,Tamil Nadu,11.0168,76.9558,22.4,84,0.0,961.8,9.15,43.2,141,57.4,56.2,3,5,7,1,2026-03-03T03:07:29.990804+05:30
Madurai,Tamil Nadu,9.9252,78.1198,23.5,83,0.0,993.7,9.1,34.9,121,60.3,59.0,3,5,7,1,2026-03-03T03:07:29.990815+05:30
Trichy,Tamil Nadu,10.7905,78.7047,21.7,94,0.0,1000.7,9.0,31.7,137,48.8,46.3,3,5,4,1,2026-03-03T03:07:29.990824+05:30
Salem,Tamil Nadu,11.6643,78.146,22.9,77,0.0,977.7,9.0,40.7,142,65.2,64.0,3,5,7,1,2026-03-03T03:07:29.990832+05:30
Tirunelveli,Tamil Nadu,8.7139,77.7567,22.6,91,0.0,1003.7,9.1,37.8,129,61.0,59.4,3,5,4,1,2026-03-03T03:07:29.990841+05:30
Vellore,Tamil Nadu,12.9165,79.1325,21.2,82,0.0,985.8,8.9,38.9,150,77.1,75.2,3,5,7,1,2026-03-03T03:07:29.990849+05:30
Erode,Tamil Nadu,11.341,77.7172,24.6,80,0.0,989.7,9.05,36.4,124,46.3,44.9,3,5,7,1,2026-03-03T03:07:29.990858+05:30
Kochi,Kerala,9.9312,76.2673,27.6,81,0.0,1008.4,9.0,33.8,102,47.0,46.6,7,0,4,1,2026-03-03T03:07:29.990866+05:30
Thiruvananthapuram,Kerala,8.5241,76.9366,27.5,80,0.0,1007.6,8.95,27.0,88,28.8,26.8,7,5,4,1,2026-03-03T03:07:29.990874+05:30
Kozhikode,Kerala,11.2588,75.7804,27.8,78,0.0,1007.8,8.8,36.0,59,22.9,18.5,7,5,4,1,2026-03-03T03:07:29.990882+05:30
Thrissur,Kerala,10.5276,76.2144,25.7,91,0.0,1006.9,8.95,38.9,96,47.5,46.3,7,5,4,1,2026-03-03T03:07:29.990891+05:30
Kannur,Kerala,11.8745,75.3704,26.8,80,0.0,1007.2,8.85,40.0,59,17.6,14.6,7,5,4,1,2026-03-03T03:07:29.990900+05:30
Patna,Bihar,25.5941,85.1376,18.3,69,0.0,1002.9,7.15,17.6,119,67.8,53.3,3,5,4,0,2026-03-03T03:07:29.990908+05:30
Gaya,Bihar,24.7914,85.0002,17.8,55,0.0,996.5,7.25,22.7,101,49.7,33.3,0,5,7,0,2026-03-03T03:07:29.990917+05:30
Muzaffarpur,Bihar,26.1209,85.3647,16.8,72,0.0,1002.7,7.1,14.0,124,81.7,67.5,3,5,4,0,2026-03-03T03:07:29.990924+05:30
Bhagalpur,Bihar,25.2425,87.0117,16.0,79,0.0,1003.5,7.15,11.5,129,66.6,41.4,3,5,4,0,2026-03-03T03:07:29.990933+05:30
Ranchi,Jharkhand,23.3441,85.3096,17.9,38,0.0,939.2,7.9,44.6,75,43.9,21.9,0,5,7,0,2026-03-03T03:07:29.990941+05:30
Jamshedpur,Jharkhand,22.8046,86.2029,17.9,72,0.0,993.4,7.75,13.7,108,74.0,47.1,3,5,7,0,2026-03-03T03:07:29.990949+05:30
Dhanbad,Jharkhand,23.7957,86.4304,18.0,56,0.0,982.2,7.65,28.8,114,66.6,46.0,0,5,7,0,2026-03-03T03:07:29.990957+05:30
Bokaro,Jharkhand,23.6693,86.1511,16.6,64,0.0,986.4,7.65,31.7,117,66.6,49.4,3,5,7,0,2026-03-03T03:07:29.990966+05:30
Bhubaneswar,Odisha,20.2961,85.8245,23.3,93,0.0,1003.8,8.1,24.5,152,81.3,77.1,3,5,4,1,2026-03-03T03:07:29.990973+05:30
Cuttack,Odisha,20.4625,85.8828,22.8,90,0.0,1006.0,8.1,24.8,152,81.3,77.1,3,5,4,1,2026-03-03T03:07:29.990981+05:30
Rourkela,Odisha,22.2604,84.8536,19.3,59,0.0,987.5,7.7,23.0,87,48.4,32.0,0,5,7,0,2026-03-03T03:07:29.990989+05:30
Raipur,Chhattisgarh,21.2514,81.6296,21.3,59,0.0,976.6,7.8,16.2,107,77.8,69.6,0,5,7,0,2026-03-03T03:07:29.990996+05:30
Bhilai,Chhattisgarh,21.1938,81.3509,20.3,59,0.0,976.8,7.8,14.8,106,70.3,62.2,0,5,7,0,2026-03-03T03:07:29.991003+05:30
Guwahati,Assam,26.1158,91.7086,20.3,88,0.0,1004.4,7.1,22.3,151,71.0,59.4,3,5,4,1,2026-03-03T03:07:29.991011+05:30
Agartala,Tripura,23.8315,91.2868,20.4,95,0.0,1008.2,7.45,19.8,157,96.2,91.7,3,0,4,1,2026-03-03T03:07:29.991019+05:30
Shillong,Meghalaya,25.5788,91.8933,6.6,82,0.0,853.1,7.45,28.1,113,55.8,45.5,3,10,7,0,2026-03-03T03:07:29.991027+05:30
Imphal,Manipur,24.817,93.9368,13.7,79,0.0,923.6,7.5,28.8,155,116.4,99.7,3,5,7,0,2026-03-03T03:07:29.991034+05:30
Aizawl,Mizoram,23.7271,92.7176,14.2,93,0.0,892.7,7.65,34.2,153,90.8,86.4,3,10,7,0,2026-03-03T03:07:29.991042+05:30
Kohima,Nagaland,25.6701,94.1077,10.8,85,0.0,853.8,7.15,45.0,147,79.2,70.3,3,10,7,0,2026-03-03T03:07:29.991050+05:30
Gangtok,Sikkim,27.3314,88.6138,10.6,80,0.0,835.5,7.4,19.1,126,75.0,56.7,3,5,7,0,2026-03-03T03:07:29.991058+05:30
Siliguri,West Bengal,26.7271,88.3953,18.1,72,0.0,996.2,7.1,18.4,166,130.4,103.8,3,5,7,0,2026-03-03T03:07:33.215820+05:30
Durgapur,West Bengal,23.5204,87.3119,21.3,41,0.0,997.6,7.65,28.1,103,48.0,26.8,0,5,7,0,2026-03-03T03:07:33.215852+05:30
Asansol,West Bengal,23.6739,86.9524,23.0,37,0.0,996.2,7.65,23.4,92,46.8,27.7,0,5,7,0,2026-03-03T03:07:33.215862+05:30
Pondicherry,Puducherry,11.9139,79.8145,21.6,96,0.0,1009.5,8.85,27.7,115,43.1,39.2,3,0,4,1,2026-03-03T03:07:33.215871+05:30
Port Blair,Andaman and Nicobar Islands,11.6234,92.7265,27.0,75,0.0,1007.2,8.8,16.2,81,32.9,25.1,7,5,4,1,2026-03-03T03:07:33.215880+05:30
Haridwar,Uttarakhand,29.9457,78.1642,14.5,85,0.0,975.8,5.55,24.5,98,53.3,50.5,3,10,3,0,2026-03-03T03:07:33.215889+05:30
Rishikesh,Uttarakhand,30.0869,78.2676,15.4,73,0.0,968.4,5.65,23.4,78,32.8,31.3,3,5,3,0,2026-03-03T03:07:33.215897+05:30
Nainital,Uttarakhand,29.3919,79.4542,14.6,56,0.0,804.6,6.45,54.4,78,35.4,30.4,0,5,7,0,2026-03-03T03:07:33.215906+05:30
Mussoorie,Uttarakhand,30.4599,78.0664,12.6,62,0.0,801.0,5.95,40.7,81,31.9,30.7,3,5,3,0,2026-03-03T03:07:33.215914+05:30
Dharamshala,Himachal Pradesh,32.219,76.3234,17.0,35,0.0,869.7,6.2,22.7,54,9.9,7.1,0,5,7,0,2026-03-03T03:07:33.215922+05:30
Dalhousie,Himachal Pradesh,32.5387,75.971,13.2,27,0.0,803.3,6.4,20.9,95,33.8,31.5,0,5,7,1,2026-03-03T03:07:33.215931+05:30
Patiala,Punjab,30.3398,76.3869,15.7,80,0.0,981.0,5.6,35.3,157,299.9,67.8,3,5,3,0,2026-03-03T03:07:33.215939+05:30
Bhatinda,Punjab,30.211,74.9455,16.2,78,0.0,987.1,6.3,28.8,154,77.8,62.9,3,5,7,0,2026-03-03T03:07:33.215948+05:30
Rohtak,Haryana,28.8955,76.6066,16.1,80,0.0,984.7,5.85,33.5,290,417.2,82.4,3,5,3,0,2026-03-03T03:07:33.215956+05:30
Panipat,Haryana,29.3909,76.9635,15.2,83,0.0,983.2,5.65,37.1,767,961.1,136.4,3,10,3,0,2026-03-03T03:07:33.215964+05:30
Mathura,Uttar Pradesh,27.4924,77.6737,19.3,71,0.0,990.1,6.1,28.8,434,551.3,101.5,3,5,7,0,2026-03-03T03:07:33.215972+05:30
Vrindavan,Uttar Pradesh,27.5823,77.7027,17.4,80,0.0,990.4,6.05,31.7,434,551.3,101.5,3,5,7,0,2026-03-03T03:07:33.215980+05:30
Ayodhya,Uttar Pradesh,26.7922,82.1998,17.1,73,0.0,997.5,6.45,30.6,137,228.6,70.5,3,5,7,0,2026-03-03T03:07:33.215987+05:30
Ratlam,Madhya Pradesh,23.3315,75.0367,18.1,86,0.0,956.7,7.3,10.1,102,60.1,53.4,3,10,7,0,2026-03-03T03:07:33.215996+05:30
Sagar,Madhya Pradesh,23.8388,78.7378,19.9,56,0.0,952.6,7.25,28.4,67,32.1,23.0,0,5,7,0,2026-03-03T03:07:33.216003+05:30
Satna,Madhya Pradesh,24.6005,80.8322,20.2,47,0.0,974.0,7.2,32.0,64,34.2,20.4,0,5,7,0,2026-03-03T03:07:33.216011+05:30
Akola,Maharashtra,20.7002,77.0082,22.7,62,0.0,977.1,7.8,21.2,76,33.9,31.3,3,5,7,0,2026-03-03T03:07:33.216020+05:30
Amravati,Maharashtra,20.9374,77.7796,21.6,56,0.0,969.4,7.75,17.3,78,37.3,33.5,0,5,7,0,2026-03-03T03:07:33.216028+05:30
Latur,Maharashtra,18.4088,76.5604,23.0,52,0.0,940.5,8.2,34.2,89,39.5,38.9,0,5,7,0,2026-03-03T03:07:33.216037+05:30
Nanded,Maharashtra,19.1383,77.3091,23.7,63,0.0,970.1,8.0,22.3,94,56.8,55.5,3,5,7,1,2026-03-03T03:07:33.216044+05:30
Gulbarga,Karnataka,17.3297,76.8343,24.5,56,0.0,959.5,8.3,22.3,140,36.0,35.6,0,5,7,0,2026-03-03T03:07:33.216052+05:30
Bidar,Karnataka,17.9104,77.5199,23.3,65,0.0,936.4,8.25,24.5,131,37.5,36.8,3,5,7,1,2026-03-03T03:07:33.216060+05:30
Hospet,Karnataka,15.2689,76.3909,26.9,61,0.0,956.1,8.6,27.4,120,50.8,50.3,7,5,7,1,2026-03-03T03:07:33.216067+05:30
Tirupur,Tamil Nadu,11.1085,77.3411,25.0,72,0.0,975.7,9.15,33.5,145,55.3,54.1,7,5,7,1,2026-03-03T03:07:33.216075+05:30
Alappuzha,Kerala,9.4981,76.3388,27.1,83,0.0,1008.6,8.95,30.2,97,41.3,40.0,7,0,4,1,2026-03-03T03:07:33.216082+05:30
Munnar,Kerala,10.0889,77.0595,17.8,72,0.0,854.8,9.45,22.7,121,49.4,48.4,3,5,7,0,2026-03-03T03:07:33.216091+05:30
Silchar,Assam,24.8333,92.7789,19.7,90,0.0,1008.0,7.4,20.2,156,97.8,79.2,3,5,4,1,2026-03-03T03:07:33.216099+05:30
Dibrugarh,Assam,27.4728,94.912,19.3,87,0.0,999.2,7.1,9.0,153,56.6,49.7,3,10,7,1,2026-03-03T03:07:33.216107+05:30
