city,state,latitude,longitude,temp,humidity,rain,pressure,uv_index,wind_gusts,aqi,pm10,pm2_5,no2,co,o3,so2,mosquito_risk,arthritis_risk,migraine_risk,frizz_risk,updated_at
Delhi,Delhi,28.6139,77.209,31.2,34,0.0,975.1,7.8,41.4,518,650.1,148.5,73.6,535.0,10.0,29.8,0,5,7,0,2026-06-09T05:38:38.643472+05:30
Mumbai,Maharashtra,19.076,72.8777,27.2,93,0.1,1006.1,7.45,40.7,82,62.2,20.7,6.4,147.0,51.0,6.8,10,5,4,1,2026-06-09T05:38:38.643530+05:30
Bangalore,Karnataka,12.9716,77.5946,20.9,95,0.0,911.2,7.0,51.5,20,2.4,2.3,6.4,180.0,39.0,3.5,3,5,7,1,2026-06-09T05:38:38.643546+05:30
Hyderabad,Telangana,17.385,78.4867,23.7,90,0.2,951.1,8.2,44.3,65,14.3,10.9,12.1,217.0,43.0,5.3,6,5,7,1,2026-06-09T05:38:38.643558+05:30
Chennai,Tamil Nadu,13.0827,80.2707,30.8,56,0.0,1004.9,7.85,50.8,51,7.1,5.8,12.3,167.0,34.0,8.4,0,5,4,1,2026-06-09T05:38:38.643567+05:30
Kolkata,West Bengal,22.5726,88.3639,29.2,95,0.0,999.3,8.95,49.0,123,53.3,46.2,15.7,527.0,74.0,10.3,7,5,7,1,2026-06-09T05:38:38.643576+05:30
Pune,Maharashtra,18.5204,73.8567,24.1,88,0.0,946.0,7.15,46.1,51,24.7,11.7,7.0,124.0,45.0,6.4,3,5,7,1,2026-06-09T05:38:38.643585+05:30
Ahmedabad,Gujarat,23.0225,72.5714,30.5,66,0.0,998.2,8.1,44.3,82,63.8,30.4,4.4,127.0,52.0,5.0,3,5,7,1,2026-06-09T05:38:38.643593+05:30
Jaipur,Rajasthan,26.9124,75.7873,30.7,55,0.0,953.9,8.25,43.2,135,295.2,62.6,3.9,146.0,67.0,3.6,0,5,7,1,2026-06-09T05:38:38.643621+05:30
Lucknow,Uttar Pradesh,26.8467,80.9462,30.5,36,0.0,985.9,8.3,37.1,157,192.3,64.3,24.8,275.0,45.0,10.0,0,5,7,0,2026-06-09T05:38:38.643630+05:30
Kanpur,Uttar Pradesh,26.4499,80.3319,30.6,50,0.0,984.3,8.35,54.0,240,225.4,54.0,22.9,213.0,35.0,6.6,0,5,7,1,2026-06-09T05:38:38.643638+05:30
Chandigarh,Chandigarh,30.7333,76.7794,23.1,67,0.0,959.9,7.8,33.1,77,31.0,29.7,39.7,445.0,12.0,3.7,3,5,7,1,2026-06-09T05:38:38.643649+05:30
Srinagar,Jammu and Kashmir,34.0837,74.7973,12.8,92,0.0,835.9,9.0,37.1,77,35.0,32.2,22.0,263.0,19.0,1.2,3,10,7,0,2026-06-09T05:38:38.643658+05:30
Jammu,Jammu and Kashmir,32.7266,74.857,24.0,52,0.0,963.7,8.6,33.8,73,31.2,29.5,35.7,300.0,8.0,2.0,0,5,7,0,2026-06-09T05:38:38.643666+05:30
Amritsar,Punjab,31.634,74.8723,28.3,45,0.0,972.1,8.45,28.1,116,82.7,72.9,63.0,532.0,14.0,10.8,4,5,7,0,2026-06-09T05:38:38.643674+05:30
Ludhiana,Punjab,30.901,75.8573,28.2,49,0.0,970.3,8.0,42.5,111,66.1,63.3,53.0,672.0,15.0,9.5,4,5,7,1,2026-06-09T05:38:38.643681+05:30
Jalandhar,Punjab,31.326,75.5762,28.4,46,0.0,971.2,8.25,30.2,102,66.8,62.6,60.5,562.0,17.0,8.4,4,5,7,0,2026-06-09T05:38:38.643689+05:30
Dehradun,Uttarakhand,30.6284,78.0322,14.1,89,0.0,823.8,8.25,42.8,56,17.2,15.1,16.2,252.0,32.0,0.0,3,10,7,0,2026-06-09T05:38:38.643697+05:30
Shimla,Himachal Pradesh,31.1048,77.1734,12.5,55,0.0,777.9,8.35,51.8,58,27.4,24.5,23.5,190.0,38.0,1.1,0,5,7,0,2026-06-09T05:38:38.643707+05:30
Manali,Himachal Pradesh,32.2396,77.1887,11.0,56,0.0,811.1,9.0,34.6,50,10.4,8.2,26.9,187.0,89.0,0.0,0,5,7,0,2026-06-09T05:38:38.643714+05:30
Gurgaon,Haryana,28.4595,77.0266,29.4,39,0.0,973.6,7.9,45.4,986,700.4,126.7,52.5,373.0,14.0,17.9,4,5,7,0,2026-06-09T05:38:38.643722+05:30
Noida,Uttar Pradesh,28.5355,77.391,30.1,40,0.0,976.3,7.85,34.6,986,700.4,126.7,52.5,614.0,14.0,17.9,0,5,7,0,2026-06-09T05:38:38.643730+05:30
Ghaziabad,Uttar Pradesh,28.6692,77.4538,29.1,51,0.0,974.2,7.85,35.6,378,758.1,171.4,83.4,873.0,6.0,30.7,4,5,7,1,2026-06-09T05:38:38.643737+05:30
Faridabad,Haryana,28.4089,77.3178,31.1,35,0.0,975.8,7.9,43.6,986,700.4,126.7,52.5,429.0,14.0,17.9,0,5,7,0,2026-06-09T05:38:38.643747+05:30
Meerut,Uttar Pradesh,28.9845,77.7064,27.3,64,0.0,972.9,7.75,32.0,378,758.1,171.4,83.4,847.0,6.0,30.7,7,5,7,1,2026-06-09T05:38:38.643753+05:30
Agra,Uttar Pradesh,27.1767,78.0081,30.9,39,0.0,980.3,8.15,49.0,635,264.5,50.4,31.8,263.0,22.0,7.1,0,5,7,0,2026-06-09T05:38:38.643761+05:30
Varanasi,Uttar Pradesh,25.3176,82.9739,31.4,47,0.0,990.2,8.8,40.3,135,38.4,27.4,14.2,246.0,54.0,6.9,0,5,7,1,2026-06-09T05:38:38.643769+05:30
Prayagraj,Uttar Pradesh,25.4358,81.8463,30.7,52,0.0,988.8,8.7,46.4,139,34.5,27.3,19.7,195.0,41.0,7.5,0,5,7,1,2026-06-09T05:38:38.643776+05:30
Gorakhpur,Uttar Pradesh,26.7606,83.3732,26.3,82,0.0,990.0,8.7,21.6,149,107.8,81.7,33.0,648.0,33.0,13.0,7,5,7,1,2026-06-09T05:38:38.643790+05:30
Bareilly,Uttar Pradesh,28.367,79.4304,26.2,66,0.0,978.8,8.15,24.8,154,189.5,96.9,68.0,537.0,13.0,15.6,7,5,7,1,2026-06-09T05:38:38.643796+05:30
Aligarh,Uttar Pradesh,27.8974,78.088,28.1,44,0.0,977.3,8.0,45.7,617,378.1,108.5,57.1,462.0,4.0,10.6,4,5,7,0,2026-06-09T05:38:38.643804+05:30
Moradabad,Uttar Pradesh,28.8386,78.7733,28.4,57,0.0,975.5,7.95,34.2,165,180.2,112.5,76.6,790.0,13.0,18.3,4,5,7,1,2026-06-09T05:38:38.643811+05:30
Saharanpur,Uttar Pradesh,29.9637,77.546,25.8,55,0.0,967.3,7.5,31.7,113,57.2,47.5,37.7,531.0,37.0,9.8,4,5,7,1,2026-06-09T05:38:38.643817+05:30
Jhansi,Uttar Pradesh,25.4484,78.5685,31.3,45,0.0,971.5,8.25,42.5,78,32.2,21.0,6.8,173.0,66.0,6.8,0,5,7,1,2026-06-09T05:38:41.891196+05:30
Surat,Gujarat,21.1702,72.8311,29.6,78,0.0,1003.4,7.6,52.9,81,47.4,24.2,20.0,346.0,37.0,35.1,7,5,4,1,2026-06-09T05:38:41.891232+05:30
Vadodara,Gujarat,22.3072,73.1812,29.7,72,0.0,1000.8,8.05,47.5,80,43.4,24.4,7.1,133.0,43.0,4.8,7,5,4,1,2026-06-09T05:38:41.891244+05:30
Rajkot,Gujarat,22.3039,70.8022,28.6,76,0.0,990.3,7.5,50.0,80,65.2,27.0,4.1,100.0,55.0,4.6,7,5,7,1,2026-06-09T05:38:41.891252+05:30
Thane,Maharashtra,19.2183,72.9781,27.1,89,0.0,1005.4,7.2,40.3,82,62.2,20.7,6.4,140.0,51.0,6.8,7,5,4,1,2026-06-09T05:38:41.891260+05:30
Nagpur,Maharashtra,21.1458,79.0882,31.3,53,0.0,969.0,8.25,35.3,87,77.1,42.1,16.5,207.0,58.0,11.0,0,5,7,1,2026-06-09T05:38:41.891268+05:30
Nashik,Maharashtra,19.9975,73.7898,24.4,91,0.0,942.9,7.8,48.6,70,48.5,20.8,8.8,130.0,40.0,8.7,3,5,7,1,2026-06-09T05:38:41.891275+05:30
Aurangabad,Maharashtra,19.8762,75.3433,25.4,81,0.0,941.7,9.0,47.9,72,46.7,21.2,8.8,148.0,41.0,8.0,7,5,7,1,2026-06-09T05:38:41.891282+05:30
Solapur,Maharashtra,17.6599,75.9064,26.7,75,0.0,955.6,5.75,52.6,62,13.2,8.5,7.8,123.0,41.0,2.6,7,5,3,1,2026-06-09T05:38:41.891290+05:30
Kolhapur,Maharashtra,16.705,74.2433,23.3,90,0.0,946.6,7.15,42.8,27,3.4,3.1,4.4,117.0,52.0,1.9,3,5,7,1,2026-06-09T05:38:41.891298+05:30
Goa,Goa,15.2993,74.124,24.4,98,0.1,997.7,3.95,33.1,26,12.0,6.6,2.8,233.0,53.0,0.8,6,5,3,1,2026-06-09T05:38:41.891306+05:30
Jodhpur,Rajasthan,26.2389,73.0243,30.4,63,0.0,977.3,8.45,45.7,151,317.6,81.7,2.2,117.0,62.0,2.6,3,5,7,1,2026-06-09T05:38:41.891314+05:30
Udaipur,Rajasthan,24.5854,73.7125,25.7,71,0.0,942.3,8.85,42.1,77,46.0,26.5,4.3,122.0,57.0,3.4,7,5,7,1,2026-06-09T05:38:41.891321+05:30
Kota,Rajasthan,25.2138,75.8648,30.5,62,0.0,973.2,8.4,41.4,81,36.3,23.9,6.3,168.0,67.0,10.5,3,5,7,1,2026-06-09T05:38:41.891329+05:30
Bikaner,Rajasthan,28.0229,73.3119,32.6,50,0.0,974.5,8.45,40.0,137,122.9,54.0,2.4,117.0,61.0,4.8,0,5,7,1,2026-06-09T05:38:41.891337+05:30
Ajmer,Rajasthan,26.4499,74.6399,28.5,66,0.0,949.3,8.35,51.8,89,62.6,28.9,3.6,147.0,67.0,3.2,7,5,7,1,2026-06-09T05:38:41.891344+05:30
Gwalior,Madhya Pradesh,26.2183,78.1828,32.0,43,0.0,976.4,8.25,50.4,92,40.2,20.3,7.4,168.0,62.0,3.2,0,5,7,1,2026-06-09T05:38:41.891352+05:30
Indore,Madhya Pradesh,22.7196,75.8577,26.3,79,0.0,944.8,8.65,48.2,85,42.6,22.1,6.5,148.0,46.0,8.8,7,5,7,1,2026-06-09T05:38:41.891359+05:30
Bhopal,Madhya Pradesh,23.2599,77.4126,28.5,62,0.0,949.4,8.7,41.4,85,37.7,26.2,4.7,204.0,86.0,8.4,7,5,7,1,2026-06-09T05:38:41.891365+05:30
Jabalpur,Madhya Pradesh,23.1815,79.9864,28.0,67,0.0,956.9,8.85,34.2,79,31.4,21.6,7.4,210.0,79.0,3.7,7,5,7,1,2026-06-09T05:38:41.891372+05:30
Ujjain,Madhya Pradesh,23.1765,75.7885,26.4,80,0.0,950.3,8.6,45.7,83,40.7,21.7,6.7,154.0,44.0,9.5,7,5,7,1,2026-06-09T05:38:41.891379+05:30
Visakhapatnam,Andhra Pradesh,17.6868,83.2185,29.3,70,0.0,998.0,8.0,39.6,84,27.3,23.5,24.1,422.0,53.0,36.7,7,5,7,1,2026-06-09T05:38:41.891386+05:30
Vijayawada,Andhra Pradesh,16.5062,80.648,30.0,60,0.0,999.1,5.7,41.0,71,16.2,14.2,10.6,181.0,48.0,6.9,4,5,3,1,2026-06-09T05:38:41.891393+05:30
Guntur,Andhra Pradesh,16.3067,80.4365,29.4,63,0.0,1000.3,6.95,40.3,65,12.9,11.3,11.6,192.0,39.0,7.8,7,5,4,1,2026-06-09T05:38:41.891400+05:30
Nellore,Andhra Pradesh,14.4426,79.9865,29.2,66,0.0,1003.3,7.1,48.6,39,5.5,4.4,7.8,145.0,45.0,5.6,7,5,4,1,2026-06-09T05:38:41.891409+05:30
Kurnool,Andhra Pradesh,15.8281,78.0373,25.4,85,0.0,975.3,7.0,45.7,47,4.3,3.7,9.1,160.0,38.0,3.8,7,5,7,1,2026-06-09T05:38:41.891417+05:30
Kakinada,Andhra Pradesh,16.9891,82.2475,29.9,66,0.0,1002.9,7.95,47.5,68,28.2,24.1,11.2,312.0,65.0,7.1,7,5,4,1,2026-06-09T05:38:41.891424+05:30
Tirupati,Andhra Pradesh,13.6288,79.4192,27.9,64,0.0,989.2,7.65,45.7,26,6.0,5.2,9.6,120.0,34.0,2.5,7,5,7,1,2026-06-09T05:38:41.891432+05:30
Warangal,Telangana,17.9689,79.5941,25.8,91,0.1,976.5,5.2,39.2,77,24.9,17.2,7.8,189.0,71.0,4.5,10,5,3,1,2026-06-09T05:38:41.891439+05:30
Nizamabad,Telangana,18.6725,78.0941,28.2,62,0.0,961.8,8.95,49.7,84,34.8,24.4,9.3,183.0,59.0,6.0,7,5,7,1,2026-06-09T05:38:41.891445+05:30
Mysore,Karnataka,12.2958,76.6396,21.7,91,0.0,928.6,7.4,55.4,19,1.7,1.7,4.0,122.0,41.0,1.5,3,5,7,1,2026-06-09T05:38:41.891452+05:30
Mangalore,Karnataka,12.9141,74.856,23.8,97,0.3,1007.6,7.25,41.8,34,9.2,4.7,1.8,140.0,53.0,0.8,6,5,4,1,2026-06-09T05:38:41.891458+05:30
Hubli-Dharwad,Karnataka,15.3647,75.124,21.9,98,0.3,940.0,4.9,42.5,22,1.8,1.7,4.1,121.0,42.0,0.6,6,5,3,1,2026-06-09T05:38:41.891465+05:30
Belgaum,Karnataka,15.8497,74.4977,21.5,97,0.0,924.5,6.25,38.9,22,3.0,2.8,5.2,104.0,44.0,0.8,3,5,7,1,2026-06-09T05:38:45.125209+05:30
Coimbatore,Tamil Nadu,11.0168,76.9558,22.8,91,0.0,961.8,7.05,50.4,16,1.1,1.0,3.6,114.0,39.0,1.6,3,5,7,1,2026-06-09T05:38:45.125246+05:30
Madurai,Tamil Nadu,9.9252,78.1198,29.3,61,0.0,993.0,7.9,69.8,29,7.8,7.1,13.7,109.0,14.0,4.1,7,5,7,1,2026-06-09T05:38:45.125258+05:30
Trichy,Tamil Nadu,10.7905,78.7047,28.0,69,0.0,999.7,8.15,68.8,21,4.5,4.1,9.0,109.0,27.0,3.6,7,5,7,1,2026-06-09T05:38:45.125266+05:30
Salem,Tamil Nadu,11.6643,78.146,25.9,77,0.0,977.9,7.05,39.2,26,6.8,6.5,14.3,169.0,22.0,6.8,7,5,7,1,2026-06-09T05:38:45.125275+05:30
Tirunelveli,Tamil Nadu,8.7139,77.7567,27.3,78,0.0,1004.1,6.85,51.5,15,4.3,3.4,5.9,150.0,24.0,1.5,7,5,4,1,2026-06-09T05:38:45.125283+05:30
Vellore,Tamil Nadu,12.9165,79.1325,27.8,66,0.0,983.0,8.35,59.0,25,3.3,3.0,6.1,116.0,38.0,3.3,7,5,7,1,2026-06-09T05:38:45.125290+05:30
Erode,Tamil Nadu,11.341,77.7172,25.9,76,0.0,989.7,7.05,58.3,16,3.3,3.0,7.0,122.0,34.0,2.9,7,5,7,1,2026-06-09T05:38:45.125298+05:30
Kochi,Kerala,9.9312,76.2673,26.2,92,0.1,1010.7,8.4,47.9,35,10.7,7.4,7.6,88.0,25.0,2.3,10,0,4,1,2026-06-09T05:38:45.125306+05:30
Thiruvananthapuram,Kerala,8.5241,76.9366,25.0,94,0.1,1010.3,7.85,57.6,33,14.3,7.5,1.5,82.0,37.0,0.4,10,0,4,1,2026-06-09T05:38:45.125314+05:30
Kozhikode,Kerala,11.2588,75.7804,24.5,98,0.3,1009.9,6.7,34.9,26,10.2,4.9,0.6,97.0,61.0,0.3,6,0,4,1,2026-06-09T05:38:45.125320+05:30
Thrissur,Kerala,10.5276,76.2144,24.3,98,0.3,1009.2,8.2,41.0,33,9.8,6.4,4.9,104.0,37.0,1.8,6,0,4,1,2026-06-09T05:38:45.125328+05:30
Kannur,Kerala,11.8745,75.3704,24.8,96,0.3,1008.4,7.6,37.1,23,7.8,4.3,1.8,98.0,54.0,0.6,6,0,4,1,2026-06-09T05:38:45.125335+05:30
Patna,Bihar,25.5941,85.1376,28.0,77,0.0,993.3,8.85,24.5,171,147.6,117.6,47.7,596.0,34.0,22.5,7,5,7,1,2026-06-09T05:38:45.125342+05:30
Gaya,Bihar,24.7914,85.0002,28.7,62,0.0,986.5,8.15,31.7,154,99.2,59.6,23.8,340.0,57.0,9.8,7,5,7,1,2026-06-09T05:38:45.125349+05:30
Muzaffarpur,Bihar,26.1209,85.3647,27.3,80,0.0,993.7,8.85,29.5,175,102.0,92.2,15.7,579.0,77.0,17.0,7,5,7,1,2026-06-09T05:38:45.125356+05:30
Bhagalpur,Bihar,25.2425,87.0117,27.6,82,0.0,994.6,8.85,32.0,154,67.3,60.5,17.5,665.0,75.0,21.4,7,5,7,1,2026-06-09T05:38:45.125371+05:30
Ranchi,Jharkhand,23.3441,85.3096,25.7,63,0.0,932.3,9.25,32.0,126,63.8,52.5,10.9,313.0,95.0,12.6,7,5,7,1,2026-06-09T05:38:45.125383+05:30
Jamshedpur,Jharkhand,22.8046,86.2029,27.6,77,0.0,984.8,8.9,26.6,146,71.7,56.0,17.5,429.0,83.0,30.1,7,5,7,1,2026-06-09T05:38:45.125393+05:30
Dhanbad,Jharkhand,23.7957,86.4304,28.7,64,0.0,973.0,8.9,31.0,159,102.2,79.9,53.8,309.0,48.0,108.5,7,5,7,1,2026-06-09T05:38:45.125403+05:30
Bokaro,Jharkhand,23.6693,86.1511,28.7,64,0.0,976.8,8.75,31.7,161,130.9,94.8,55.9,329.0,30.0,63.7,7,5,7,1,2026-06-09T05:38:45.125413+05:30
Bhubaneswar,Odisha,20.2961,85.8245,28.4,97,0.0,996.8,8.15,31.7,107,58.1,48.5,15.4,443.0,63.0,7.7,7,5,7,1,2026-06-09T05:38:45.125425+05:30
Cuttack,Odisha,20.4625,85.8828,28.1,95,0.0,998.6,9.0,30.6,107,58.1,48.5,15.4,464.0,63.0,7.7,7,5,7,1,2026-06-09T05:38:45.125431+05:30
Rourkela,Odisha,22.2604,84.8536,27.5,73,0.0,979.2,8.5,33.1,133,48.9,39.6,10.6,357.0,80.0,9.7,7,5,7,1,2026-06-09T05:38:45.125438+05:30
Raipur,Chhattisgarh,21.2514,81.6296,29.1,61,0.0,970.6,8.15,36.7,118,46.9,41.0,39.2,445.0,47.0,55.1,7,5,7,1,2026-06-09T05:38:45.125445+05:30
Bhilai,Chhattisgarh,21.1938,81.3509,26.7,77,0.1,970.9,8.35,37.8,107,46.8,38.8,32.0,610.0,51.0,45.8,10,5,7,1,2026-06-09T05:38:45.125452+05:30
Guwahati,Assam,26.1158,91.7086,25.1,95,0.0,996.9,8.8,28.1,83,38.4,33.4,6.6,340.0,78.0,3.7,7,5,7,1,2026-06-09T05:38:45.125459+05:30
Agartala,Tripura,23.8315,91.2868,26.2,86,0.0,1001.4,8.85,35.3,69,17.5,15.1,10.8,229.0,58.0,3.9,7,5,4,1,2026-06-09T05:38:45.125466+05:30
Shillong,Meghalaya,25.5788,91.8933,19.3,91,0.0,853.7,8.1,29.5,54,12.7,10.3,4.1,285.0,78.0,2.9,3,10,7,1,2026-06-09T05:38:45.125473+05:30
Imphal,Manipur,24.817,93.9368,22.6,93,0.2,919.7,8.9,34.2,62,13.8,12.2,4.5,469.0,72.0,2.3,6,5,7,1,2026-06-09T05:38:45.125480+05:30
Aizawl,Mizoram,23.7271,92.7176,19.7,96,0.0,888.9,8.9,32.0,33,12.0,9.5,3.4,184.0,50.0,0.8,3,10,7,1,2026-06-09T05:38:45.125486+05:30
Kohima,Nagaland,25.6701,94.1077,20.0,93,0.1,852.3,9.15,28.1,38,9.9,7.8,3.3,224.0,76.0,1.3,6,5,7,1,2026-06-09T05:38:45.125493+05:30
Gangtok,Sikkim,27.3314,88.6138,17.2,91,0.1,833.5,9.25,37.4,76,31.1,25.6,5.6,535.0,122.0,2.8,6,10,7,0,2026-06-09T05:38:45.125499+05:30
Siliguri,West Bengal,26.7271,88.3953,22.8,99,0.1,988.2,8.7,25.2,116,51.9,36.0,7.0,417.0,129.0,3.3,6,5,7,1,2026-06-09T05:38:48.384228+05:30
Durgapur,West Bengal,23.5204,87.3119,28.2,80,0.0,988.1,9.0,28.8,160,97.1,82.2,34.6,879.0,45.0,42.3,7,5,7,1,2026-06-09T05:38:48.384266+05:30
Asansol,West Bengal,23.6739,86.9524,28.6,68,0.0,986.6,8.85,29.2,155,92.0,73.1,38.7,1176.0,51.0,55.5,7,5,7,1,2026-06-09T05:38:48.384278+05:30
Pondicherry,Puducherry,11.9139,79.8145,28.9,67,0.0,1007.0,7.75,40.0,41,6.0,5.3,10.3,157.0,30.0,7.8,7,5,4,1,2026-06-09T05:38:48.384289+05:30
Port Blair,Andaman and Nicobar Islands,11.6234,92.7265,25.0,98,0.1,1006.9,8.6,50.0,24,6.3,3.7,0.3,87.0,49.0,0.3,10,5,4,1,2026-06-09T05:38:48.384298+05:30
Haridwar,Uttarakhand,29.9457,78.1642,23.2,75,0.0,965.6,7.65,25.9,93,34.9,33.3,30.9,283.0,31.0,5.6,3,5,7,1,2026-06-09T05:38:48.384307+05:30
Rishikesh,Uttarakhand,30.0869,78.2676,21.9,81,0.0,958.5,7.75,27.7,76,30.6,26.8,19.7,328.0,69.0,5.4,3,5,7,1,2026-06-09T05:38:48.384315+05:30
Nainital,Uttarakhand,29.3919,79.4542,15.8,63,0.0,800.7,8.55,46.8,81,26.2,23.1,24.7,284.0,44.0,2.7,3,5,7,0,2026-06-09T05:38:48.384323+05:30
Mussoorie,Uttarakhand,30.4599,78.0664,15.8,63,0.0,797.9,8.15,51.8,77,28.8,26.1,28.1,203.0,38.0,4.3,3,5,7,0,2026-06-09T05:38:48.384332+05:30
Dharamshala,Himachal Pradesh,32.219,76.3234,23.3,41,0.0,864.1,8.5,48.6,51,12.0,10.1,13.4,188.0,32.0,0.1,0,5,7,0,2026-06-09T05:38:48.384340+05:30
Dalhousie,Himachal Pradesh,32.5387,75.971,11.7,74,0.0,796.5,8.75,39.6,66,23.7,22.4,25.3,249.0,17.0,0.7,3,5,7,0,2026-06-09T05:38:48.384347+05:30
Patiala,Punjab,30.3398,76.3869,28.5,48,0.0,969.7,7.65,38.9,255,249.6,87.8,35.3,644.0,43.0,11.3,4,5,7,1,2026-06-09T05:38:48.384355+05:30
Bhatinda,Punjab,30.211,74.9455,30.2,44,0.0,974.7,8.35,24.5,96,75.4,53.1,51.2,478.0,33.0,10.1,0,5,7,1,2026-06-09T05:38:48.384363+05:30
Rohtak,Haryana,28.8955,76.6066,28.2,49,0.0,973.6,7.85,32.0,660,468.5,108.3,52.9,505.0,12.0,7.2,4,5,7,1,2026-06-09T05:38:48.384370+05:30
Panipat,Haryana,29.3909,76.9635,26.8,57,0.0,972.0,7.7,34.2,1132,462.9,125.7,54.6,485.0,20.0,8.4,4,5,7,1,2026-06-09T05:38:48.384376+05:30
Mathura,Uttar Pradesh,27.4924,77.6737,29.8,42,0.0,979.0,8.1,43.9,484,302.7,55.5,40.8,314.0,13.0,5.2,4,5,7,0,2026-06-09T05:38:48.384383+05:30
Vrindavan,Uttar Pradesh,27.5823,77.7027,29.7,42,0.0,979.3,8.05,43.6,484,302.7,55.5,40.8,344.0,13.0,5.2,4,5,7,0,2026-06-09T05:38:48.384390+05:30
Ayodhya,Uttar Pradesh,26.7922,82.1998,26.7,67,0.0,988.0,8.45,15.5,151,141.6,70.1,43.2,467.0,20.0,10.1,7,5,7,1,2026-06-09T05:38:48.384397+05:30
Ratlam,Madhya Pradesh,23.3315,75.0367,26.6,83,0.0,951.4,8.55,43.6,81,38.5,21.2,7.1,151.0,42.0,10.2,7,5,7,1,2026-06-09T05:38:48.384405+05:30
Sagar,Madhya Pradesh,23.8388,78.7378,28.3,58,0.0,945.5,8.55,40.3,78,32.9,22.7,6.0,178.0,73.0,5.6,4,5,7,1,2026-06-09T05:38:48.384412+05:30
Satna,Madhya Pradesh,24.6005,80.8322,29.8,53,0.0,965.5,8.75,44.6,82,36.8,22.5,11.0,165.0,59.0,5.2,4,5,7,1,2026-06-09T05:38:48.384420+05:30
Akola,Maharashtra,20.7002,77.0082,29.3,55,0.0,972.3,8.8,44.6,83,47.3,24.6,7.2,127.0,48.0,7.3,4,5,7,1,2026-06-09T05:38:48.384428+05:30
Amravati,Maharashtra,20.9374,77.7796,29.6,47,0.0,964.1,8.85,43.2,86,50.5,26.2,7.4,149.0,55.0,8.8,4,5,7,1,2026-06-09T05:38:48.384437+05:30
Latur,Maharashtra,18.4088,76.5604,26.3,73,0.0,937.6,7.95,47.5,75,34.8,19.4,6.8,137.0,48.0,5.3,7,5,7,1,2026-06-09T05:38:48.384445+05:30
Nanded,Maharashtra,19.1383,77.3091,29.1,57,0.0,965.7,8.9,47.5,85,52.5,31.5,6.3,144.0,69.0,7.8,4,5,7,1,2026-06-09T05:38:48.384452+05:30
Gulbarga,Karnataka,17.3297,76.8343,24.9,87,0.0,956.8,8.8,49.0,60,9.7,7.0,10.3,125.0,39.0,3.5,3,5,7,1,2026-06-09T05:38:48.384460+05:30
Bidar,Karnataka,17.9104,77.5199,25.6,76,0.0,933.3,8.8,60.1,74,22.5,16.5,10.7,128.0,45.0,3.4,7,5,7,1,2026-06-09T05:38:48.384467+05:30
Hospet,Karnataka,15.2689,76.3909,23.2,93,0.0,955.0,2.85,45.4,20,1.9,1.8,4.1,131.0,46.0,1.0,3,5,3,1,2026-06-09T05:38:48.384473+05:30
Tirupur,Tamil Nadu,11.1085,77.3411,23.7,88,0.0,975.6,6.85,60.1,17,3.6,3.4,8.0,119.0,33.0,3.2,3,5,7,1,2026-06-09T05:38:48.384480+05:30
Alappuzha,Kerala,9.4981,76.3388,26.6,91,0.1,1010.6,7.8,48.2,32,13.2,6.8,3.7,80.0,38.0,1.1,10,0,4,1,2026-06-09T05:38:48.384487+05:30
Munnar,Kerala,10.0889,77.0595,16.8,100,0.7,857.3,7.6,57.6,13,1.0,0.9,3.2,88.0,31.0,1.0,6,10,7,1,2026-06-09T05:38:48.384494+05:30
Silchar,Assam,24.8333,92.7789,24.9,99,0.1,1001.5,8.95,25.2,69,21.0,18.5,8.5,255.0,67.0,3.9,6,5,4,1,2026-06-09T05:38:48.384501+05:30
Dibrugarh,Assam,27.4728,94.912,24.6,96,0.1,991.1,7.7,24.1,90,25.4,22.6,6.9,276.0,93.0,2.0,6,5,7,1,2026-06-09T05:38:48.384507+05:30
