city,state,latitude,longitude,temp,humidity,rain,pressure,uv_index,wind_gusts,aqi,pm10,pm2_5,mosquito_risk,arthritis_risk,migraine_risk,frizz_risk,updated_at
Delhi,Delhi,28.6139,77.209,25.7,59,0.0,985.0,6.85,23.8,152,135.5,51.8,4,5,7,1,2026-04-01T22:29:24.542513+05:30
Mumbai,Maharashtra,19.076,72.8777,27.6,74,0.0,1009.7,7.85,23.8,63,24.8,14.6,7,0,4,1,2026-04-01T22:29:24.542559+05:30
Bangalore,Karnataka,12.9716,77.5946,25.4,47,0.0,912.8,9.55,28.8,85,17.6,15.5,4,5,7,0,2026-04-01T22:29:24.542575+05:30
Hyderabad,Telangana,17.385,78.4867,27.1,65,0.0,955.0,9.1,27.0,98,37.0,33.6,7,5,7,1,2026-04-01T22:29:24.542586+05:30
Chennai,Tamil Nadu,13.0827,80.2707,27.3,75,0.0,1009.5,9.3,29.5,41,10.4,7.8,7,0,4,1,2026-04-01T22:29:24.542595+05:30
Kolkata,West Bengal,22.5726,88.3639,27.1,89,0.0,1007.2,8.6,19.4,102,31.3,28.3,7,5,4,1,2026-04-01T22:29:24.542604+05:30
Pune,Maharashtra,18.5204,73.8567,26.7,85,0.0,949.4,8.4,32.0,145,51.6,44.5,7,5,7,1,2026-04-01T22:29:24.542616+05:30
Ahmedabad,Gujarat,23.0225,72.5714,28.8,45,0.0,1002.5,7.85,25.9,66,25.8,18.3,4,5,4,0,2026-04-01T22:29:24.542623+05:30
Jaipur,Rajasthan,26.9124,75.7873,25.7,56,0.0,961.1,6.85,31.0,118,102.4,28.6,4,5,7,1,2026-04-01T22:29:24.542631+05:30
Lucknow,Uttar Pradesh,26.8467,80.9462,27.5,51,0.0,995.1,7.3,27.4,88,129.0,31.9,4,5,7,1,2026-04-01T22:29:24.542639+05:30
Kanpur,Uttar Pradesh,26.4499,80.3319,26.9,57,0.0,993.5,7.35,28.8,119,344.6,51.9,4,5,7,1,2026-04-01T22:29:24.542647+05:30
Chandigarh,Chandigarh,30.7333,76.7794,21.7,66,0.0,971.4,6.5,16.6,79,60.8,39.0,3,5,7,0,2026-04-01T22:29:24.542654+05:30
Srinagar,Jammu and Kashmir,34.0837,74.7973,11.1,74,0.0,841.9,7.1,20.5,91,68.9,52.5,3,5,7,0,2026-04-01T22:29:24.542662+05:30
Jammu,Jammu and Kashmir,32.7266,74.857,23.2,61,0.0,975.9,6.5,20.5,80,80.3,46.6,3,5,7,0,2026-04-01T22:29:24.542670+05:30
Amritsar,Punjab,31.634,74.8723,23.9,59,0.0,984.0,6.35,14.4,122,112.5,61.0,0,5,7,0,2026-04-01T22:29:24.542678+05:30
Ludhiana,Punjab,30.901,75.8573,24.1,57,0.0,981.6,6.35,18.4,119,88.9,70.1,0,5,7,0,2026-04-01T22:29:24.542687+05:30
Jalandhar,Punjab,31.326,75.5762,22.7,64,0.0,982.9,7.05,14.8,110,102.9,57.5,3,5,7,0,2026-04-01T22:29:24.542696+05:30
Dehradun,Uttarakhand,30.6284,78.0322,14.8,61,0.0,831.7,6.4,32.0,55,28.1,13.0,3,5,7,0,2026-04-01T22:29:24.542703+05:30
Shimla,Himachal Pradesh,31.1048,77.1734,12.3,66,0.0,785.4,6.15,30.2,71,38.0,22.8,3,5,7,0,2026-04-01T22:29:24.542710+05:30
Manali,Himachal Pradesh,32.2396,77.1887,13.6,81,0.0,821.3,8.65,29.9,97,19.2,10.2,3,10,7,0,2026-04-01T22:29:24.542718+05:30
Gurgaon,Haryana,28.4595,77.0266,24.2,68,0.0,983.3,6.9,30.6,506,311.1,82.0,3,5,7,1,2026-04-01T22:29:24.542725+05:30
Noida,Uttar Pradesh,28.5355,77.391,25.3,62,0.0,986.4,6.85,22.3,506,311.1,82.0,7,5,7,1,2026-04-01T22:29:24.542732+05:30
Ghaziabad,Uttar Pradesh,28.6692,77.4538,23.2,73,0.0,984.6,6.85,22.7,144,214.7,74.7,3,5,7,1,2026-04-01T22:29:24.542740+05:30
Faridabad,Haryana,28.4089,77.3178,24.0,62,0.0,985.5,6.9,26.6,506,311.1,82.0,3,5,7,1,2026-04-01T22:29:24.542747+05:30
Meerut,Uttar Pradesh,28.9845,77.7064,22.1,72,0.0,983.6,6.4,24.1,144,214.7,74.7,3,5,7,1,2026-04-01T22:29:24.542753+05:30
Agra,Uttar Pradesh,27.1767,78.0081,26.5,62,0.0,989.5,7.25,28.8,445,689.2,92.4,7,5,7,1,2026-04-01T22:29:24.542760+05:30
Varanasi,Uttar Pradesh,25.3176,82.9739,27.0,63,0.0,998.9,7.7,25.6,89,38.1,29.2,7,5,7,1,2026-04-01T22:29:24.542769+05:30
Prayagraj,Uttar Pradesh,25.4358,81.8463,28.7,56,0.0,997.5,7.9,36.0,68,39.1,29.2,4,5,7,1,2026-04-01T22:29:24.542776+05:30
Gorakhpur,Uttar Pradesh,26.7606,83.3732,25.9,56,0.0,997.9,7.75,23.8,114,31.2,19.4,4,5,7,1,2026-04-01T22:29:24.542785+05:30
Bareilly,Uttar Pradesh,28.367,79.4304,24.1,64,0.0,988.6,7.1,27.4,105,84.8,37.0,3,5,7,1,2026-04-01T22:29:24.542793+05:30
Aligarh,Uttar Pradesh,27.8974,78.088,25.4,54,0.0,987.3,7.0,21.6,321,309.2,66.1,4,5,7,0,2026-04-01T22:29:24.542800+05:30
Moradabad,Uttar Pradesh,28.8386,78.7733,23.4,63,0.0,985.5,6.9,27.4,116,66.4,40.2,3,5,7,0,2026-04-01T22:29:24.542806+05:30
Saharanpur,Uttar Pradesh,29.9637,77.546,20.9,72,0.0,978.3,6.0,21.2,94,98.5,46.6,3,5,3,0,2026-04-01T22:29:24.542812+05:30
Jhansi,Uttar Pradesh,25.4484,78.5685,27.4,58,0.0,979.8,7.8,32.0,63,43.3,24.0,4,5,7,1,2026-04-01T22:29:27.770710+05:30
Surat,Gujarat,21.1702,72.8311,26.7,72,0.0,1007.6,7.65,25.2,88,29.3,23.2,7,5,4,1,2026-04-01T22:29:27.770751+05:30
Vadodara,Gujarat,22.3072,73.1812,27.8,60,0.0,1004.7,7.85,29.2,95,31.1,25.1,4,5,4,1,2026-04-01T22:29:27.770762+05:30
Rajkot,Gujarat,22.3039,70.8022,25.2,64,0.0,995.8,7.1,33.8,107,23.2,13.9,7,5,7,1,2026-04-01T22:29:27.770770+05:30
Thane,Maharashtra,19.2183,72.9781,26.1,76,0.0,1009.2,7.85,34.2,63,24.8,14.6,7,0,4,1,2026-04-01T22:29:27.770778+05:30
Nagpur,Maharashtra,21.1458,79.0882,27.6,69,0.0,974.6,8.6,48.6,152,53.2,46.6,7,5,7,1,2026-04-01T22:29:27.770786+05:30
Nashik,Maharashtra,19.9975,73.7898,24.6,76,0.0,946.7,8.1,32.0,73,19.1,13.3,3,5,7,1,2026-04-01T22:29:27.770793+05:30
Aurangabad,Maharashtra,19.8762,75.3433,27.0,64,0.0,945.3,8.8,45.7,115,44.1,37.4,7,5,7,1,2026-04-01T22:29:27.770799+05:30
Solapur,Maharashtra,17.6599,75.9064,28.3,58,0.0,958.4,8.9,25.2,123,37.6,33.9,4,5,7,1,2026-04-01T22:29:27.770807+05:30
Kolhapur,Maharashtra,16.705,74.2433,24.8,87,0.0,948.7,8.95,34.2,140,48.4,45.1,3,5,7,1,2026-04-01T22:29:27.770814+05:30
Goa,Goa,15.2993,74.124,28.5,79,0.0,998.8,8.85,32.8,71,30.0,22.1,7,5,7,1,2026-04-01T22:29:27.770821+05:30
Jodhpur,Rajasthan,26.2389,73.0243,27.5,35,0.0,983.8,7.8,33.1,92,152.7,26.2,4,5,7,0,2026-04-01T22:29:27.770829+05:30
Udaipur,Rajasthan,24.5854,73.7125,26.0,44,0.0,947.4,8.4,36.7,53,19.6,10.7,4,5,7,0,2026-04-01T22:29:27.770836+05:30
Kota,Rajasthan,25.2138,75.8648,29.1,50,0.0,979.8,7.45,22.7,62,36.8,23.2,4,5,7,1,2026-04-01T22:29:27.770848+05:30
Bikaner,Rajasthan,28.0229,73.3119,28.2,29,0.0,982.7,6.95,19.4,69,28.3,11.9,4,5,7,0,2026-04-01T22:29:27.770863+05:30
Ajmer,Rajasthan,26.4499,74.6399,27.2,56,0.0,955.6,7.15,26.6,59,41.1,24.6,4,5,7,1,2026-04-01T22:29:27.770876+05:30
Gwalior,Madhya Pradesh,26.2183,78.1828,27.3,64,0.0,985.2,7.5,35.3,75,82.4,28.5,7,5,7,1,2026-04-01T22:29:27.770884+05:30
Indore,Madhya Pradesh,22.7196,75.8577,27.5,58,0.0,949.0,8.3,35.3,92,44.7,37.0,4,5,7,1,2026-04-01T22:29:27.770891+05:30
Bhopal,Madhya Pradesh,23.2599,77.4126,25.4,68,0.0,955.0,8.25,39.2,79,33.3,24.8,7,5,7,1,2026-04-01T22:29:27.770898+05:30
Jabalpur,Madhya Pradesh,23.1815,79.9864,24.7,69,0.0,963.8,8.25,40.7,74,33.9,27.8,3,5,7,1,2026-04-01T22:29:27.770905+05:30
Ujjain,Madhya Pradesh,23.1765,75.7885,26.1,63,0.0,954.4,8.2,30.2,79,38.6,34.2,7,5,7,1,2026-04-01T22:29:27.770912+05:30
Visakhapatnam,Andhra Pradesh,17.6868,83.2185,26.1,84,0.0,1006.6,9.05,35.6,68,19.1,16.2,7,5,4,1,2026-04-01T22:29:27.770919+05:30
Vijayawada,Andhra Pradesh,16.5062,80.648,27.2,73,0.0,1004.9,9.05,29.5,57,14.3,12.9,7,5,4,1,2026-04-01T22:29:27.770926+05:30
Guntur,Andhra Pradesh,16.3067,80.4365,26.1,83,0.0,1006.1,9.1,29.9,54,13.0,11.7,7,5,4,1,2026-04-01T22:29:27.770948+05:30
Nellore,Andhra Pradesh,14.4426,79.9865,26.0,81,0.0,1008.2,9.2,29.9,43,8.7,6.4,7,0,4,1,2026-04-01T22:29:27.770957+05:30
Kurnool,Andhra Pradesh,15.8281,78.0373,31.5,37,0.0,977.6,9.1,23.0,73,27.6,23.6,0,5,7,0,2026-04-01T22:29:27.770965+05:30
Kakinada,Andhra Pradesh,16.9891,82.2475,25.7,84,0.0,1010.4,9.05,35.3,51,10.9,8.2,7,0,4,1,2026-04-01T22:29:27.770972+05:30
Tirupati,Andhra Pradesh,13.6288,79.4192,25.9,64,0.0,993.9,9.35,31.7,69,14.1,13.0,7,5,7,1,2026-04-01T22:29:27.770979+05:30
Warangal,Telangana,17.9689,79.5941,29.5,62,0.0,980.1,8.9,30.6,104,41.2,37.8,7,5,7,1,2026-04-01T22:29:27.770985+05:30
Nizamabad,Telangana,18.6725,78.0941,26.3,73,0.0,966.6,8.85,23.0,131,52.5,47.0,7,5,7,1,2026-04-01T22:29:27.770992+05:30
Mysore,Karnataka,12.2958,76.6396,24.9,74,0.0,929.2,9.5,27.7,104,25.1,22.4,3,5,7,1,2026-04-01T22:29:27.770999+05:30
Mangalore,Karnataka,12.9141,74.856,29.8,81,0.0,1007.3,9.1,22.3,86,36.8,31.1,7,5,4,1,2026-04-01T22:29:27.771005+05:30
Hubli-Dharwad,Karnataka,15.3647,75.124,25.6,83,0.0,941.8,9.15,37.4,127,37.1,34.5,7,5,7,1,2026-04-01T22:29:27.771012+05:30
Belgaum,Karnataka,15.8497,74.4977,23.7,93,0.0,926.5,9.2,26.6,118,46.3,42.4,3,5,7,1,2026-04-01T22:29:30.996221+05:30
Coimbatore,Tamil Nadu,11.0168,76.9558,26.2,83,0.0,963.0,9.45,34.2,79,31.4,26.2,7,5,7,1,2026-04-01T22:29:30.996252+05:30
Madurai,Tamil Nadu,9.9252,78.1198,27.1,72,0.0,994.8,8.9,24.8,58,16.9,15.2,7,5,7,1,2026-04-01T22:29:30.996263+05:30
Trichy,Tamil Nadu,10.7905,78.7047,26.7,76,0.0,1001.6,9.15,26.3,70,14.9,13.7,7,5,4,1,2026-04-01T22:29:30.996272+05:30
Salem,Tamil Nadu,11.6643,78.146,28.1,62,0.0,978.5,9.4,31.0,108,25.8,22.8,7,5,7,1,2026-04-01T22:29:30.996279+05:30
Tirunelveli,Tamil Nadu,8.7139,77.7567,27.6,73,0.0,1005.0,9.35,41.0,51,10.5,9.3,7,5,4,1,2026-04-01T22:29:30.996287+05:30
Vellore,Tamil Nadu,12.9165,79.1325,26.2,67,0.0,986.8,9.4,32.8,60,14.8,13.3,7,5,7,1,2026-04-01T22:29:30.996294+05:30
Erode,Tamil Nadu,11.341,77.7172,29.6,56,0.0,990.1,9.35,21.2,86,27.1,24.4,4,5,7,1,2026-04-01T22:29:30.996302+05:30
Kochi,Kerala,9.9312,76.2673,29.4,80,0.0,1009.7,9.2,28.4,112,31.4,29.7,7,0,4,1,2026-04-01T22:29:30.996309+05:30
Thiruvananthapuram,Kerala,8.5241,76.9366,29.1,78,0.0,1009.2,9.15,28.4,102,17.8,13.0,7,0,4,1,2026-04-01T22:29:30.996316+05:30
Kozhikode,Kerala,11.2588,75.7804,29.9,79,0.0,1008.4,9.15,25.9,67,30.4,23.5,7,0,4,1,2026-04-01T22:29:30.996323+05:30
Thrissur,Kerala,10.5276,76.2144,28.5,86,0.0,1007.7,9.2,33.8,85,25.1,21.2,7,5,4,1,2026-04-01T22:29:30.996330+05:30
Kannur,Kerala,11.8745,75.3704,29.5,78,0.0,1007.7,9.1,26.3,85,41.3,37.4,7,5,4,1,2026-04-01T22:29:30.996337+05:30
Patna,Bihar,25.5941,85.1376,28.0,61,0.0,1001.0,8.2,25.2,159,36.6,27.5,7,5,4,1,2026-04-01T22:29:30.996344+05:30
Gaya,Bihar,24.7914,85.0002,29.1,57,0.0,995.1,7.95,31.3,95,49.4,30.7,4,5,7,1,2026-04-01T22:29:30.996351+05:30
Muzaffarpur,Bihar,26.1209,85.3647,26.0,60,0.0,1000.9,8.15,39.2,161,41.4,36.0,4,5,4,1,2026-04-01T22:29:30.996357+05:30
Bhagalpur,Bihar,25.2425,87.0117,26.7,77,0.0,1001.6,8.25,32.0,153,53.8,43.1,7,5,4,1,2026-04-01T22:29:30.996364+05:30
Ranchi,Jharkhand,23.3441,85.3096,25.8,55,0.0,939.8,8.85,31.3,88,70.3,32.7,4,5,7,0,2026-04-01T22:29:30.996371+05:30
Jamshedpur,Jharkhand,22.8046,86.2029,30.7,57,0.0,991.8,8.7,20.5,122,80.6,48.5,0,5,7,1,2026-04-01T22:29:30.996378+05:30
Dhanbad,Jharkhand,23.7957,86.4304,30.5,42,0.0,981.1,8.6,23.8,160,102.0,64.5,0,5,7,1,2026-04-01T22:29:30.996385+05:30
Bokaro,Jharkhand,23.6693,86.1511,30.0,43,0.0,985.5,8.6,28.4,152,101.7,56.7,4,5,7,0,2026-04-01T22:29:30.996392+05:30
Bhubaneswar,Odisha,20.2961,85.8245,26.5,87,0.0,1004.7,8.85,30.2,91,26.6,24.4,7,5,4,1,2026-04-01T22:29:30.996398+05:30
Cuttack,Odisha,20.4625,85.8828,27.1,82,0.0,1006.5,8.9,24.8,91,26.6,24.4,7,5,4,1,2026-04-01T22:29:30.996405+05:30
Rourkela,Odisha,22.2604,84.8536,27.7,76,0.0,986.0,8.6,14.0,134,104.1,58.8,7,5,7,1,2026-04-01T22:29:30.996411+05:30
Raipur,Chhattisgarh,21.2514,81.6296,29.5,48,0.0,975.4,8.7,18.0,146,60.1,53.3,4,5,7,1,2026-04-01T22:29:30.996417+05:30
Bhilai,Chhattisgarh,21.1938,81.3509,28.9,47,0.0,975.4,8.7,19.1,127,50.3,46.2,4,5,7,1,2026-04-01T22:29:30.996423+05:30
Guwahati,Assam,26.1158,91.7086,23.1,88,0.0,1003.2,8.05,34.6,99,38.1,34.9,3,5,4,1,2026-04-01T22:29:30.996429+05:30
Agartala,Tripura,23.8315,91.2868,25.3,87,0.0,1007.3,8.35,23.4,90,39.1,35.2,7,5,4,1,2026-04-01T22:29:30.996436+05:30
Shillong,Meghalaya,25.5788,91.8933,15.5,89,0.0,856.8,8.45,58.3,79,27.1,24.2,3,10,7,0,2026-04-01T22:29:30.996443+05:30
Imphal,Manipur,24.817,93.9368,19.0,85,0.0,924.7,8.7,63.4,97,59.3,49.4,3,10,7,1,2026-04-01T22:29:30.996450+05:30
Aizawl,Mizoram,23.7271,92.7176,19.8,84,0.0,894.2,8.6,41.4,87,38.6,29.9,3,10,7,1,2026-04-01T22:29:30.996456+05:30
Kohima,Nagaland,25.6701,94.1077,16.1,80,0.0,855.9,8.55,81.7,75,44.9,36.1,3,5,7,0,2026-04-01T22:29:30.996463+05:30
Gangtok,Sikkim,27.3314,88.6138,15.1,81,0.0,837.1,8.45,20.2,89,36.2,31.4,3,10,7,0,2026-04-01T22:29:30.996469+05:30
Siliguri,West Bengal,26.7271,88.3953,21.5,82,0.0,994.4,8.05,32.4,153,78.0,70.8,3,5,7,1,2026-04-01T22:29:34.224083+05:30
Durgapur,West Bengal,23.5204,87.3119,29.2,66,0.0,996.0,8.55,21.2,153,76.8,60.3,7,5,7,1,2026-04-01T22:29:34.224114+05:30
Asansol,West Bengal,23.6739,86.9524,30.1,57,0.0,994.7,8.6,22.0,152,76.6,52.9,0,5,7,1,2026-04-01T22:29:34.224124+05:30
Pondicherry,Puducherry,11.9139,79.8145,25.0,85,0.0,1010.6,8.8,26.6,37,10.0,7.2,7,0,4,1,2026-04-01T22:29:34.224132+05:30
Port Blair,Andaman and Nicobar Islands,11.6234,92.7265,28.5,81,0.0,1009.3,3.85,13.0,43,14.9,13.1,7,0,0,1,2026-04-01T22:29:34.224140+05:30
Haridwar,Uttarakhand,29.9457,78.1642,21.2,71,0.0,976.6,6.5,28.4,71,59.3,32.4,3,5,7,0,2026-04-01T22:29:34.224148+05:30
Rishikesh,Uttarakhand,30.0869,78.2676,21.1,60,0.0,969.2,6.5,32.0,66,42.0,21.0,0,5,7,0,2026-04-01T22:29:34.224156+05:30
Nainital,Uttarakhand,29.3919,79.4542,19.5,41,0.0,808.0,7.55,36.7,102,44.5,22.9,0,5,7,0,2026-04-01T22:29:34.224163+05:30
Mussoorie,Uttarakhand,30.4599,78.0664,16.6,49,0.0,804.5,6.45,38.9,69,55.5,28.8,0,5,7,0,2026-04-01T22:29:34.224171+05:30
Dharamshala,Himachal Pradesh,32.219,76.3234,19.1,46,0.0,871.2,5.85,24.5,60,29.6,16.0,0,5,3,0,2026-04-01T22:29:34.224178+05:30
Dalhousie,Himachal Pradesh,32.5387,75.971,15.1,60,0.0,804.9,6.3,20.9,56,48.1,31.9,0,5,7,0,2026-04-01T22:29:34.224186+05:30
Patiala,Punjab,30.3398,76.3869,22.6,67,0.0,980.8,5.65,16.2,111,99.0,63.1,3,5,3,1,2026-04-01T22:29:34.224193+05:30
Bhatinda,Punjab,30.211,74.9455,23.6,65,0.0,986.3,5.9,24.1,109,188.6,51.3,3,5,3,1,2026-04-01T22:29:34.224200+05:30
Rohtak,Haryana,28.8955,76.6066,22.8,77,0.0,983.8,6.45,26.3,164,356.7,79.4,3,5,7,1,2026-04-01T22:29:34.224207+05:30
Panipat,Haryana,29.3909,76.9635,21.4,75,0.0,982.6,6.15,15.1,140,272.9,63.1,3,5,7,1,2026-04-01T22:29:34.224214+05:30
Mathura,Uttar Pradesh,27.4924,77.6737,25.9,63,0.0,988.4,7.15,30.6,409,302.7,62.6,7,5,7,1,2026-04-01T22:29:34.224220+05:30
Vrindavan,Uttar Pradesh,27.5823,77.7027,25.0,67,0.0,988.9,7.1,26.3,409,302.7,62.6,7,5,7,1,2026-04-01T22:29:34.224228+05:30
Ayodhya,Uttar Pradesh,26.7922,82.1998,26.9,57,0.0,996.6,7.55,25.6,79,55.4,21.4,4,5,7,1,2026-04-01T22:29:34.224234+05:30
Ratlam,Madhya Pradesh,23.3315,75.0367,27.6,48,0.0,955.3,8.15,34.2,87,27.0,24.2,4,5,7,0,2026-04-01T22:29:34.224242+05:30
Sagar,Madhya Pradesh,23.8388,78.7378,26.7,53,0.0,952.0,8.25,33.1,61,25.1,17.9,4,5,7,1,2026-04-01T22:29:34.224249+05:30
Satna,Madhya Pradesh,24.6005,80.8322,28.4,51,0.0,973.4,8.15,26.6,82,30.4,19.0,4,5,7,1,2026-04-01T22:29:34.224255+05:30
Akola,Maharashtra,20.7002,77.0082,28.0,70,0.0,976.2,8.55,27.0,95,33.8,27.3,7,5,7,1,2026-04-01T22:29:34.224262+05:30
Amravati,Maharashtra,20.9374,77.7796,26.8,66,0.0,968.7,8.6,27.0,91,33.5,27.8,7,5,7,1,2026-04-01T22:29:34.224270+05:30
Latur,Maharashtra,18.4088,76.5604,26.5,62,0.0,940.9,8.85,25.6,110,42.7,38.3,7,5,7,1,2026-04-01T22:29:34.224276+05:30
Nanded,Maharashtra,19.1383,77.3091,26.9,68,0.0,969.8,8.75,23.0,112,43.2,37.1,7,5,7,1,2026-04-01T22:29:34.224282+05:30
Gulbarga,Karnataka,17.3297,76.8343,27.4,65,0.0,960.5,8.95,24.1,118,40.3,34.6,7,5,7,1,2026-04-01T22:29:34.224289+05:30
Bidar,Karnataka,17.9104,77.5199,25.6,70,0.0,937.1,8.95,26.6,110,47.5,41.6,7,5,7,1,2026-04-01T22:29:34.224296+05:30
Hospet,Karnataka,15.2689,76.3909,30.0,57,0.0,956.2,9.15,23.4,154,38.1,34.2,4,5,7,1,2026-04-01T22:29:34.224302+05:30
Tirupur,Tamil Nadu,11.1085,77.3411,29.2,47,0.0,976.5,9.45,21.6,88,34.7,29.7,4,5,7,1,2026-04-01T22:29:34.224309+05:30
Alappuzha,Kerala,9.4981,76.3388,28.6,82,0.0,1010.2,9.15,26.6,128,27.4,23.4,7,0,4,1,2026-04-01T22:29:34.224316+05:30
Munnar,Kerala,10.0889,77.0595,21.9,79,0.0,858.0,9.75,30.6,67,33.9,27.8,3,5,7,1,2026-04-01T22:29:34.224324+05:30
Silchar,Assam,24.8333,92.7789,23.2,89,0.0,1007.5,8.4,35.3,114,69.4,61.2,3,5,4,1,2026-04-01T22:29:34.224330+05:30
Dibrugarh,Assam,27.4728,94.912,22.1,91,0.0,997.2,7.65,31.3,106,37.6,31.4,3,5,7,1,2026-04-01T22:29:34.224337+05:30
