city,state,latitude,longitude,temp,humidity,rain,pressure,uv_index,wind_gusts,aqi,pm10,pm2_5,mosquito_risk,arthritis_risk,migraine_risk,frizz_risk,updated_at
Delhi,Delhi,28.6139,77.209,20.7,63,0.0,983.9,6.9,27.0,151,295.2,74.3,3,5,7,0,2026-04-06T02:08:01.332810+05:30
Mumbai,Maharashtra,19.076,72.8777,27.7,66,0.0,1009.7,7.95,23.4,65,30.9,17.1,7,0,4,1,2026-04-06T02:08:01.332854+05:30
Bangalore,Karnataka,12.9716,77.5946,23.9,75,0.0,910.8,9.6,32.0,98,26.1,24.3,3,5,7,1,2026-04-06T02:08:01.332870+05:30
Hyderabad,Telangana,17.385,78.4867,26.8,67,0.0,952.2,9.2,33.5,128,65.9,56.3,7,5,7,1,2026-04-06T02:08:01.332880+05:30
Chennai,Tamil Nadu,13.0827,80.2707,28.7,89,0.0,1005.9,9.35,28.4,64,20.9,15.5,7,5,4,1,2026-04-06T02:08:01.332890+05:30
Kolkata,West Bengal,22.5726,88.3639,24.6,87,0.0,1004.6,8.65,18.4,133,50.6,47.3,3,5,4,1,2026-04-06T02:08:01.332899+05:30
Pune,Maharashtra,18.5204,73.8567,20.9,82,0.0,948.2,8.55,32.4,69,33.3,22.6,3,5,7,1,2026-04-06T02:08:01.332911+05:30
Ahmedabad,Gujarat,23.0225,72.5714,24.8,44,0.0,1003.0,7.95,28.1,64,46.2,33.6,0,5,4,0,2026-04-06T02:08:01.332920+05:30
Jaipur,Rajasthan,26.9124,75.7873,22.8,44,0.0,960.3,7.55,34.2,97,197.9,33.2,0,5,7,0,2026-04-06T02:08:01.332928+05:30
Lucknow,Uttar Pradesh,26.8467,80.9462,21.3,75,0.0,993.6,7.45,31.7,91,135.5,45.1,3,5,7,1,2026-04-06T02:08:01.332936+05:30
Kanpur,Uttar Pradesh,26.4499,80.3319,20.9,79,0.0,992.4,7.45,33.1,117,232.8,53.9,3,5,7,1,2026-04-06T02:08:01.332943+05:30
Chandigarh,Chandigarh,30.7333,76.7794,18.8,72,0.0,969.5,6.85,18.7,70,41.3,34.3,3,5,7,0,2026-04-06T02:08:01.332951+05:30
Srinagar,Jammu and Kashmir,34.0837,74.7973,5.8,85,0.0,836.7,7.95,16.9,77,74.7,65.4,3,10,7,0,2026-04-06T02:08:01.332958+05:30
Jammu,Jammu and Kashmir,32.7266,74.857,16.9,73,0.0,973.5,7.55,20.5,69,54.0,42.5,3,5,7,0,2026-04-06T02:08:01.332966+05:30
Amritsar,Punjab,31.634,74.8723,17.6,74,0.0,981.9,7.5,16.9,104,109.0,84.8,3,5,7,0,2026-04-06T02:08:01.332973+05:30
Ludhiana,Punjab,30.901,75.8573,19.4,66,0.0,979.8,7.1,21.2,109,112.2,63.6,3,5,7,0,2026-04-06T02:08:01.332980+05:30
Jalandhar,Punjab,31.326,75.5762,18.3,76,0.0,981.1,7.25,16.6,90,79.4,56.0,3,5,7,0,2026-04-06T02:08:01.332989+05:30
Dehradun,Uttarakhand,30.6284,78.0322,9.7,85,0.0,827.2,6.65,28.8,40,19.6,13.2,3,10,7,0,2026-04-06T02:08:01.332997+05:30
Shimla,Himachal Pradesh,31.1048,77.1734,8.4,76,0.0,780.7,6.55,29.2,44,21.6,15.4,3,5,7,0,2026-04-06T02:08:01.333003+05:30
Manali,Himachal Pradesh,32.2396,77.1887,11.1,71,0.0,815.5,9.6,29.2,46,22.4,16.2,3,5,7,0,2026-04-06T02:08:01.333011+05:30
Gurgaon,Haryana,28.4595,77.0266,19.4,70,0.0,982.3,7.05,27.7,354,293.4,74.0,3,5,7,0,2026-04-06T02:08:01.333018+05:30
Noida,Uttar Pradesh,28.5355,77.391,20.2,66,0.0,985.3,6.95,25.2,354,293.4,74.0,3,5,7,0,2026-04-06T02:08:01.333025+05:30
Ghaziabad,Uttar Pradesh,28.6692,77.4538,19.8,68,0.0,983.5,6.9,25.2,132,138.8,49.9,3,5,7,0,2026-04-06T02:08:01.333032+05:30
Faridabad,Haryana,28.4089,77.3178,20.5,62,0.0,984.6,7.0,32.8,354,293.4,74.0,3,5,7,0,2026-04-06T02:08:01.333041+05:30
Meerut,Uttar Pradesh,28.9845,77.7064,18.6,72,0.0,982.0,6.8,25.2,132,138.8,49.9,3,5,7,0,2026-04-06T02:08:01.333048+05:30
Agra,Uttar Pradesh,27.1767,78.0081,19.3,80,0.0,988.7,7.3,27.4,189,216.5,68.2,3,5,7,0,2026-04-06T02:08:01.333055+05:30
Varanasi,Uttar Pradesh,25.3176,82.9739,23.1,73,0.0,997.7,7.9,31.7,93,52.5,38.3,3,5,7,1,2026-04-06T02:08:01.333064+05:30
Prayagraj,Uttar Pradesh,25.4358,81.8463,23.3,72,0.0,996.0,7.55,29.9,78,67.1,27.4,3,5,7,1,2026-04-06T02:08:01.333071+05:30
Gorakhpur,Uttar Pradesh,26.7606,83.3732,23.2,60,0.0,996.1,7.7,31.7,76,42.4,25.3,0,5,7,0,2026-04-06T02:08:01.333078+05:30
Bareilly,Uttar Pradesh,28.367,79.4304,18.2,88,0.0,987.5,7.2,29.5,92,52.5,38.5,3,10,7,1,2026-04-06T02:08:01.333087+05:30
Aligarh,Uttar Pradesh,27.8974,78.088,18.7,79,0.0,986.3,7.1,28.1,153,244.9,93.6,3,5,7,0,2026-04-06T02:08:01.333093+05:30
Moradabad,Uttar Pradesh,28.8386,78.7733,18.3,85,0.0,984.4,7.0,27.7,94,64.0,46.3,3,10,7,0,2026-04-06T02:08:01.333099+05:30
Saharanpur,Uttar Pradesh,29.9637,77.546,18.1,77,0.0,976.5,6.6,22.3,93,121.5,69.2,3,5,7,0,2026-04-06T02:08:01.333105+05:30
Jhansi,Uttar Pradesh,25.4484,78.5685,22.3,72,0.0,978.0,7.9,32.8,52,77.3,25.6,3,5,7,1,2026-04-06T02:08:04.557452+05:30
Surat,Gujarat,21.1702,72.8311,26.6,72,0.0,1007.6,7.7,27.4,80,22.9,16.5,7,5,4,1,2026-04-06T02:08:04.557481+05:30
Vadodara,Gujarat,22.3072,73.1812,25.5,74,0.0,1005.0,7.95,28.1,77,37.8,32.4,7,5,4,1,2026-04-06T02:08:04.557491+05:30
Rajkot,Gujarat,22.3039,70.8022,23.2,81,0.0,996.2,7.7,38.5,61,21.8,9.1,3,5,7,1,2026-04-06T02:08:04.557500+05:30
Thane,Maharashtra,19.2183,72.9781,26.3,67,0.0,1009.2,7.95,37.4,65,30.9,17.1,7,0,4,1,2026-04-06T02:08:04.557507+05:30
Nagpur,Maharashtra,21.1458,79.0882,26.0,52,0.0,971.4,8.65,23.0,75,31.3,24.0,4,5,7,0,2026-04-06T02:08:04.557514+05:30
Nashik,Maharashtra,19.9975,73.7898,19.2,81,0.0,945.6,8.2,32.4,57,28.6,16.9,3,10,7,0,2026-04-06T02:08:04.557522+05:30
Aurangabad,Maharashtra,19.8762,75.3433,23.3,63,0.0,943.6,8.9,29.2,57,14.9,10.2,3,5,7,0,2026-04-06T02:08:04.557530+05:30
Solapur,Maharashtra,17.6599,75.9064,25.4,58,0.0,956.6,9.0,33.8,58,20.7,15.0,4,5,7,1,2026-04-06T02:08:04.557537+05:30
Kolhapur,Maharashtra,16.705,74.2433,18.1,91,0.0,947.6,9.0,38.9,70,46.0,31.7,3,10,7,1,2026-04-06T02:08:04.557544+05:30
Goa,Goa,15.2993,74.124,26.0,80,0.0,998.5,9.0,38.5,68,56.7,28.3,7,5,7,1,2026-04-06T02:08:04.557551+05:30
Jodhpur,Rajasthan,26.2389,73.0243,24.7,38,0.0,983.9,7.85,36.7,70,23.2,10.7,0,5,7,0,2026-04-06T02:08:04.557558+05:30
Udaipur,Rajasthan,24.5854,73.7125,20.3,48,0.0,946.7,8.4,35.3,58,27.5,11.1,0,5,7,0,2026-04-06T02:08:04.557564+05:30
Kota,Rajasthan,25.2138,75.8648,23.1,41,0.0,979.0,7.85,24.5,66,96.9,31.4,0,5,7,0,2026-04-06T02:08:04.557571+05:30
Bikaner,Rajasthan,28.0229,73.3119,23.1,48,0.0,983.0,7.65,27.4,51,27.8,12.0,0,5,7,0,2026-04-06T02:08:04.557579+05:30
Ajmer,Rajasthan,26.4499,74.6399,22.2,50,0.0,954.8,7.75,28.1,53,16.5,10.1,0,5,7,0,2026-04-06T02:08:04.557586+05:30
Gwalior,Madhya Pradesh,26.2183,78.1828,22.2,77,0.0,983.6,7.6,21.6,69,165.3,43.8,3,5,7,1,2026-04-06T02:08:04.557593+05:30
Indore,Madhya Pradesh,22.7196,75.8577,22.1,51,0.0,947.5,8.3,29.9,60,25.1,18.7,0,5,7,0,2026-04-06T02:08:04.557599+05:30
Bhopal,Madhya Pradesh,23.2599,77.4126,22.9,44,0.0,953.0,8.3,30.2,49,15.3,11.8,0,5,7,0,2026-04-06T02:08:04.557606+05:30
Jabalpur,Madhya Pradesh,23.1815,79.9864,26.8,42,0.0,960.1,7.9,25.6,71,26.5,19.5,4,5,7,0,2026-04-06T02:08:04.557613+05:30
Ujjain,Madhya Pradesh,23.1765,75.7885,22.5,52,0.0,953.5,8.2,28.4,51,17.9,10.4,0,5,7,0,2026-04-06T02:08:04.557620+05:30
Visakhapatnam,Andhra Pradesh,17.6868,83.2185,25.4,86,0.0,1003.7,9.1,37.4,87,37.7,32.8,7,5,4,1,2026-04-06T02:08:04.557627+05:30
Vijayawada,Andhra Pradesh,16.5062,80.648,27.0,88,0.0,1001.7,9.15,28.4,78,24.2,22.4,7,5,4,1,2026-04-06T02:08:04.557633+05:30
Guntur,Andhra Pradesh,16.3067,80.4365,27.4,92,0.0,1003.0,9.2,29.5,79,25.1,23.3,7,5,4,1,2026-04-06T02:08:04.557641+05:30
Nellore,Andhra Pradesh,14.4426,79.9865,27.9,92,0.0,1004.3,9.15,28.1,69,21.0,17.5,7,5,4,1,2026-04-06T02:08:04.557648+05:30
Kurnool,Andhra Pradesh,15.8281,78.0373,30.4,45,0.0,975.1,9.2,38.2,102,57.5,49.4,0,5,7,1,2026-04-06T02:08:04.557656+05:30
Kakinada,Andhra Pradesh,16.9891,82.2475,26.7,95,0.0,1006.2,8.55,21.6,62,23.0,17.4,7,5,4,1,2026-04-06T02:08:04.557663+05:30
Tirupati,Andhra Pradesh,13.6288,79.4192,27.4,87,0.0,990.7,8.7,24.8,93,45.1,42.8,7,5,7,1,2026-04-06T02:08:04.557669+05:30
Warangal,Telangana,17.9689,79.5941,26.8,76,0.0,977.0,8.35,33.1,152,85.0,75.0,7,5,7,1,2026-04-06T02:08:04.557675+05:30
Nizamabad,Telangana,18.6725,78.0941,27.8,55,0.0,963.1,8.95,29.2,103,55.4,45.2,4,5,7,1,2026-04-06T02:08:04.557682+05:30
Mysore,Karnataka,12.2958,76.6396,23.3,82,0.0,928.0,9.55,39.2,74,26.1,23.3,3,5,7,1,2026-04-06T02:08:04.557688+05:30
Mangalore,Karnataka,12.9141,74.856,29.5,73,0.0,1007.0,9.2,40.0,63,43.4,20.0,7,5,4,1,2026-04-06T02:08:04.557695+05:30
Hubli-Dharwad,Karnataka,15.3647,75.124,20.9,81,0.0,940.1,9.2,35.6,58,32.4,18.3,3,5,7,1,2026-04-06T02:08:04.557701+05:30
Belgaum,Karnataka,15.8497,74.4977,18.7,83,0.0,924.8,9.25,36.7,61,51.0,28.6,3,10,7,0,2026-04-06T02:08:07.783841+05:30
Coimbatore,Tamil Nadu,11.0168,76.9558,25.1,84,0.0,961.6,9.5,52.6,72,29.7,26.1,7,5,7,1,2026-04-06T02:08:07.783875+05:30
Madurai,Tamil Nadu,9.9252,78.1198,27.2,78,0.0,992.2,9.4,21.2,79,36.6,34.9,7,5,7,1,2026-04-06T02:08:07.783887+05:30
Trichy,Tamil Nadu,10.7905,78.7047,26.7,93,0.0,999.2,9.4,27.7,106,34.9,33.2,7,5,7,1,2026-04-06T02:08:07.783898+05:30
Salem,Tamil Nadu,11.6643,78.146,26.6,77,0.0,977.1,8.7,48.2,94,31.9,30.2,7,5,7,1,2026-04-06T02:08:07.783908+05:30
Tirunelveli,Tamil Nadu,8.7139,77.7567,28.0,71,0.0,1002.2,3.8,25.6,64,19.3,17.9,7,5,0,1,2026-04-06T02:08:07.783917+05:30
Vellore,Tamil Nadu,12.9165,79.1325,25.9,78,0.0,983.7,9.45,28.1,127,60.5,56.7,7,5,7,1,2026-04-06T02:08:07.783926+05:30
Erode,Tamil Nadu,11.341,77.7172,27.4,80,0.0,988.5,9.45,36.7,79,25.5,23.6,7,5,7,1,2026-04-06T02:08:07.783934+05:30
Kochi,Kerala,9.9312,76.2673,29.1,81,0.0,1008.9,8.1,39.6,67,33.3,28.3,7,0,4,1,2026-04-06T02:08:07.783943+05:30
Thiruvananthapuram,Kerala,8.5241,76.9366,28.4,82,0.0,1008.1,6.3,42.1,52,21.2,14.1,7,0,4,1,2026-04-06T02:08:07.783951+05:30
Kozhikode,Kerala,11.2588,75.7804,29.2,78,0.0,1007.9,9.15,43.2,59,26.8,16.6,7,5,4,1,2026-04-06T02:08:07.783959+05:30
Thrissur,Kerala,10.5276,76.2144,28.3,82,0.0,1007.1,9.15,43.2,65,34.8,26.2,7,5,4,1,2026-04-06T02:08:07.783968+05:30
Kannur,Kerala,11.8745,75.3704,28.1,81,0.0,1007.4,9.2,48.6,64,27.4,15.0,7,5,4,1,2026-04-06T02:08:07.783976+05:30
Patna,Bihar,25.5941,85.1376,25.7,58,0.0,999.3,7.9,30.6,73,44.9,36.3,4,5,7,1,2026-04-06T02:08:07.783984+05:30
Gaya,Bihar,24.7914,85.0002,25.1,67,0.0,993.1,6.6,31.7,73,43.5,29.7,7,5,7,1,2026-04-06T02:08:07.783993+05:30
Muzaffarpur,Bihar,26.1209,85.3647,24.1,52,0.0,998.8,7.7,25.2,68,34.2,25.9,0,5,7,0,2026-04-06T02:08:07.784000+05:30
Bhagalpur,Bihar,25.2425,87.0117,25.0,69,0.0,999.8,6.4,40.7,68,25.5,19.1,7,5,7,1,2026-04-06T02:08:07.784008+05:30
Ranchi,Jharkhand,23.3441,85.3096,22.5,77,0.0,936.7,8.0,33.5,73,38.3,27.6,3,5,7,1,2026-04-06T02:08:07.784017+05:30
Jamshedpur,Jharkhand,22.8046,86.2029,25.2,85,0.0,989.8,8.55,21.2,102,64.0,54.4,7,5,7,1,2026-04-06T02:08:07.784025+05:30
Dhanbad,Jharkhand,23.7957,86.4304,26.0,66,0.0,978.2,8.5,34.2,94,70.1,58.0,7,5,7,1,2026-04-06T02:08:07.784033+05:30
Bokaro,Jharkhand,23.6693,86.1511,25.4,71,0.0,982.6,7.85,40.3,95,71.7,59.5,7,5,7,1,2026-04-06T02:08:07.784042+05:30
Bhubaneswar,Odisha,20.2961,85.8245,26.3,96,0.0,1001.6,8.95,27.0,94,24.8,21.5,7,5,4,1,2026-04-06T02:08:07.784050+05:30
Cuttack,Odisha,20.4625,85.8828,25.8,94,0.0,1003.6,8.95,25.6,94,24.8,21.5,7,5,4,1,2026-04-06T02:08:07.784057+05:30
Rourkela,Odisha,22.2604,84.8536,25.5,87,0.0,984.5,8.35,49.7,93,56.5,47.0,7,5,7,1,2026-04-06T02:08:07.784065+05:30
Raipur,Chhattisgarh,21.2514,81.6296,26.1,67,0.0,973.4,8.5,26.3,149,67.8,61.5,7,5,7,1,2026-04-06T02:08:07.784073+05:30
Bhilai,Chhattisgarh,21.1938,81.3509,25.8,68,0.0,973.8,8.65,25.6,127,64.7,54.4,7,5,7,1,2026-04-06T02:08:07.784080+05:30
Guwahati,Assam,26.1158,91.7086,24.3,83,0.0,998.8,8.25,28.4,102,24.4,20.7,3,5,7,1,2026-04-06T02:08:07.784088+05:30
Agartala,Tripura,23.8315,91.2868,24.2,96,0.0,1005.0,8.5,41.0,109,48.0,45.9,3,5,4,1,2026-04-06T02:08:07.784096+05:30
Shillong,Meghalaya,25.5788,91.8933,13.2,84,0.0,853.7,8.65,54.4,94,25.5,20.3,3,10,7,0,2026-04-06T02:08:07.784104+05:30
Imphal,Manipur,24.817,93.9368,18.6,79,0.0,921.6,8.85,53.6,145,74.0,67.8,3,5,7,0,2026-04-06T02:08:07.784113+05:30
Aizawl,Mizoram,23.7271,92.7176,17.1,89,0.0,890.7,8.75,34.9,139,54.7,48.5,3,10,7,0,2026-04-06T02:08:07.784121+05:30
Kohima,Nagaland,25.6701,94.1077,16.5,55,0.0,853.1,8.75,79.6,108,49.7,43.0,0,5,7,0,2026-04-06T02:08:07.784129+05:30
Gangtok,Sikkim,27.3314,88.6138,13.1,83,0.0,834.7,8.55,17.3,83,23.2,17.7,3,10,7,0,2026-04-06T02:08:07.784136+05:30
Siliguri,West Bengal,26.7271,88.3953,21.5,55,0.0,991.9,8.1,23.4,140,39.9,36.0,0,5,7,0,2026-04-06T02:08:11.011709+05:30
Durgapur,West Bengal,23.5204,87.3119,25.1,82,0.0,993.6,8.45,34.6,97,56.9,45.9,7,5,7,1,2026-04-06T02:08:11.011739+05:30
Asansol,West Bengal,23.6739,86.9524,25.5,78,0.0,992.0,8.45,31.3,86,51.2,40.0,7,5,7,1,2026-04-06T02:08:11.011749+05:30
Pondicherry,Puducherry,11.9139,79.8145,26.1,88,0.0,1007.4,9.0,26.3,66,19.7,15.8,7,5,4,1,2026-04-06T02:08:11.011758+05:30
Port Blair,Andaman and Nicobar Islands,11.6234,92.7265,29.3,70,0.0,1005.6,9.2,16.2,29,8.2,5.5,7,5,4,1,2026-04-06T02:08:11.011766+05:30
Haridwar,Uttarakhand,29.9457,78.1642,18.0,77,0.0,975.1,6.7,24.5,66,28.9,27.0,3,5,7,0,2026-04-06T02:08:11.011773+05:30
Rishikesh,Uttarakhand,30.0869,78.2676,17.5,72,0.0,967.6,6.8,24.1,50,24.3,14.8,3,5,7,0,2026-04-06T02:08:11.011781+05:30
Nainital,Uttarakhand,29.3919,79.4542,14.3,68,0.0,803.8,5.75,31.0,61,30.7,20.4,3,5,3,0,2026-04-06T02:08:11.011788+05:30
Mussoorie,Uttarakhand,30.4599,78.0664,11.6,71,0.0,800.0,5.35,27.7,53,30.0,23.9,3,5,3,0,2026-04-06T02:08:11.011795+05:30
Dharamshala,Himachal Pradesh,32.219,76.3234,15.6,55,0.0,867.5,7.45,23.0,42,8.2,5.0,0,5,7,0,2026-04-06T02:08:11.011802+05:30
Dalhousie,Himachal Pradesh,32.5387,75.971,11.4,61,0.0,800.7,6.9,21.2,57,31.1,22.3,3,5,7,0,2026-04-06T02:08:11.011810+05:30
Patiala,Punjab,30.3398,76.3869,19.0,69,0.0,979.2,6.8,21.2,112,106.6,48.0,3,5,7,0,2026-04-06T02:08:11.011817+05:30
Bhatinda,Punjab,30.211,74.9455,19.5,68,0.0,984.8,7.45,24.8,95,71.5,56.9,3,5,7,0,2026-04-06T02:08:11.011823+05:30
Rohtak,Haryana,28.8955,76.6066,18.4,75,0.0,982.6,6.95,31.0,192,472.2,94.5,3,5,7,0,2026-04-06T02:08:11.011830+05:30
Panipat,Haryana,29.3909,76.9635,18.5,70,0.0,981.3,6.75,24.1,307,409.8,92.4,3,5,7,0,2026-04-06T02:08:11.011837+05:30
Mathura,Uttar Pradesh,27.4924,77.6737,19.0,78,0.0,987.9,7.2,31.3,146,323.2,84.3,3,5,7,0,2026-04-06T02:08:11.011844+05:30
Vrindavan,Uttar Pradesh,27.5823,77.7027,18.6,78,0.0,988.3,7.2,32.4,146,323.2,84.3,3,5,7,0,2026-04-06T02:08:11.011850+05:30
Ayodhya,Uttar Pradesh,26.7922,82.1998,22.4,67,0.0,995.0,7.35,31.7,83,80.3,33.1,3,5,7,0,2026-04-06T02:08:11.011856+05:30
Ratlam,Madhya Pradesh,23.3315,75.0367,24.4,48,0.0,954.7,8.2,31.7,61,18.2,9.3,0,5,7,0,2026-04-06T02:08:11.011863+05:30
Sagar,Madhya Pradesh,23.8388,78.7378,24.3,41,0.0,949.3,8.3,23.8,52,24.3,12.0,0,5,7,0,2026-04-06T02:08:11.011869+05:30
Satna,Madhya Pradesh,24.6005,80.8322,24.7,68,0.0,970.9,8.0,25.6,61,83.8,23.6,3,5,7,1,2026-04-06T02:08:11.011876+05:30
Akola,Maharashtra,20.7002,77.0082,25.0,52,0.0,974.3,8.65,27.4,61,28.6,17.6,4,5,7,0,2026-04-06T02:08:11.011884+05:30
Amravati,Maharashtra,20.9374,77.7796,25.3,52,0.0,965.9,8.7,25.9,62,30.0,19.2,4,5,7,0,2026-04-06T02:08:11.011891+05:30
Latur,Maharashtra,18.4088,76.5604,23.6,57,0.0,938.9,9.0,30.2,72,27.5,20.7,0,5,7,0,2026-04-06T02:08:11.011898+05:30
Nanded,Maharashtra,19.1383,77.3091,25.3,55,0.0,967.6,8.85,22.3,82,32.6,23.0,4,5,7,0,2026-04-06T02:08:11.011904+05:30
Gulbarga,Karnataka,17.3297,76.8343,28.5,42,0.0,958.0,9.05,32.4,74,19.8,16.1,4,5,7,0,2026-04-06T02:08:11.011911+05:30
Bidar,Karnataka,17.9104,77.5199,27.9,42,0.0,934.4,9.05,32.4,93,43.1,33.8,4,5,7,0,2026-04-06T02:08:11.011918+05:30
Hospet,Karnataka,15.2689,76.3909,26.9,64,0.0,955.5,9.25,33.1,59,19.6,14.4,7,5,7,1,2026-04-06T02:08:11.011924+05:30
Tirupur,Tamil Nadu,11.1085,77.3411,25.9,87,0.0,974.9,9.55,40.0,79,30.0,27.4,7,5,7,1,2026-04-06T02:08:11.011931+05:30
Alappuzha,Kerala,9.4981,76.3388,29.0,82,0.0,1009.0,5.6,36.7,63,31.9,22.9,7,0,0,1,2026-04-06T02:08:11.011938+05:30
Munnar,Kerala,10.0889,77.0595,20.7,97,0.0,856.8,7.5,36.7,60,19.4,18.5,3,5,7,1,2026-04-06T02:08:11.011945+05:30
Silchar,Assam,24.8333,92.7789,23.0,94,0.0,1004.2,8.5,26.6,156,84.5,76.8,3,5,4,1,2026-04-06T02:08:11.011952+05:30
Dibrugarh,Assam,27.4728,94.912,21.9,90,0.0,993.0,8.3,33.8,122,53.7,38.0,3,5,7,1,2026-04-06T02:08:11.011959+05:30
