city,state,latitude,longitude,temp,humidity,rain,pressure,uv_index,wind_gusts,aqi,pm10,pm2_5,mosquito_risk,arthritis_risk,migraine_risk,frizz_risk,updated_at
Delhi,Delhi,28.6139,77.209,17.2,82,0.0,987.0,5.85,37.1,341,277.5,68.5,3,10,3,0,2026-03-04T05:00:37.329659+05:30
Mumbai,Maharashtra,19.076,72.8777,27.7,65,0.0,1009.4,7.4,25.6,126,44.7,43.9,7,0,4,1,2026-03-04T05:00:37.329693+05:30
Bangalore,Karnataka,12.9716,77.5946,19.1,73,0.0,912.4,9.1,36.7,98,39.6,37.3,3,5,7,0,2026-03-04T05:00:37.329708+05:30
Hyderabad,Telangana,17.385,78.4867,22.1,64,0.0,955.1,8.4,24.5,119,55.8,54.5,3,5,7,0,2026-03-04T05:00:37.329717+05:30
Chennai,Tamil Nadu,13.0827,80.2707,22.5,95,0.0,1009.8,8.8,28.4,116,51.9,46.6,3,0,4,1,2026-03-04T05:00:37.329725+05:30
Kolkata,West Bengal,22.5726,88.3639,19.9,75,0.0,1010.0,7.75,18.7,164,147.1,116.6,3,0,4,0,2026-03-04T05:00:37.329733+05:30
Pune,Maharashtra,18.5204,73.8567,22.6,65,0.0,949.9,7.95,31.3,80,29.7,29.3,3,5,7,0,2026-03-04T05:00:37.329744+05:30
Ahmedabad,Gujarat,23.0225,72.5714,22.0,64,0.0,1006.1,7.2,19.1,82,34.3,26.2,3,5,4,0,2026-03-04T05:00:37.329751+05:30
Jaipur,Rajasthan,26.9124,75.7873,20.9,37,0.0,964.1,6.6,33.5,100,62.9,35.0,0,5,7,0,2026-03-04T05:00:37.329758+05:30
Lucknow,Uttar Pradesh,26.8467,80.9462,17.1,74,0.0,997.3,6.35,26.3,152,314.8,73.6,3,5,7,0,2026-03-04T05:00:37.329765+05:30
Kanpur,Uttar Pradesh,26.4499,80.3319,15.7,81,0.0,995.8,6.35,29.9,177,355.8,65.9,3,10,7,0,2026-03-04T05:00:37.329771+05:30
Chandigarh,Chandigarh,30.7333,76.7794,16.2,73,0.0,971.7,5.75,36.0,86,30.9,27.4,3,5,3,0,2026-03-04T05:00:37.329778+05:30
Srinagar,Jammu and Kashmir,34.0837,74.7973,4.5,76,0.0,841.9,6.4,15.8,136,64.7,54.7,3,5,7,0,2026-03-04T05:00:37.329785+05:30
Jammu,Jammu and Kashmir,32.7266,74.857,14.4,73,0.0,976.5,6.35,27.0,98,38.3,34.3,3,5,7,0,2026-03-04T05:00:37.329791+05:30
Amritsar,Punjab,31.634,74.8723,16.9,71,0.0,984.9,6.3,22.7,107,81.3,70.3,3,5,7,0,2026-03-04T05:00:37.329797+05:30
Ludhiana,Punjab,30.901,75.8573,17.8,73,0.0,982.8,6.0,32.4,145,80.1,73.8,3,5,3,0,2026-03-04T05:00:37.329805+05:30
Jalandhar,Punjab,31.326,75.5762,14.9,90,0.0,983.9,6.15,29.2,147,92.4,85.2,3,10,7,0,2026-03-04T05:00:37.329814+05:30
Dehradun,Uttarakhand,30.6284,78.0322,11.6,51,0.0,829.4,6.1,32.0,59,16.5,15.1,0,5,7,0,2026-03-04T05:00:37.329821+05:30
Shimla,Himachal Pradesh,31.1048,77.1734,9.9,44,0.0,783.5,6.15,55.1,71,31.1,25.0,0,5,7,1,2026-03-04T05:00:37.329827+05:30
Manali,Himachal Pradesh,32.2396,77.1887,16.6,16,0.0,822.3,7.35,32.4,50,19.4,13.4,0,5,7,1,2026-03-04T05:00:37.329833+05:30
Gurgaon,Haryana,28.4595,77.0266,14.4,92,0.0,985.5,5.95,36.0,1230,938.8,128.5,3,10,3,0,2026-03-04T05:00:37.329840+05:30
Noida,Uttar Pradesh,28.5355,77.391,17.5,79,0.0,988.5,5.85,36.4,1230,938.8,128.5,3,5,3,0,2026-03-04T05:00:37.329846+05:30
Ghaziabad,Uttar Pradesh,28.6692,77.4538,16.9,83,0.0,986.5,5.85,33.8,267,229.6,64.0,3,10,3,0,2026-03-04T05:00:37.329852+05:30
Faridabad,Haryana,28.4089,77.3178,16.9,77,0.0,987.8,5.9,34.6,1230,938.8,128.5,3,5,3,0,2026-03-04T05:00:37.329858+05:30
Meerut,Uttar Pradesh,28.9845,77.7064,15.3,89,0.0,985.0,5.7,36.4,267,229.6,64.0,3,10,3,0,2026-03-04T05:00:37.329864+05:30
Agra,Uttar Pradesh,27.1767,78.0081,15.4,70,0.0,992.1,6.2,37.4,411,341.8,62.4,3,5,7,0,2026-03-04T05:00:37.329871+05:30
Varanasi,Uttar Pradesh,25.3176,82.9739,17.0,75,0.0,1001.7,7.0,19.8,140,78.0,50.3,3,5,4,0,2026-03-04T05:00:37.329880+05:30
Prayagraj,Uttar Pradesh,25.4358,81.8463,16.8,82,0.0,1000.3,6.9,26.6,142,128.1,54.9,3,10,4,0,2026-03-04T05:00:37.329886+05:30
Gorakhpur,Uttar Pradesh,26.7606,83.3732,16.1,90,0.0,1001.0,6.75,7.9,160,116.9,99.0,3,10,4,0,2026-03-04T05:00:37.329892+05:30
Bareilly,Uttar Pradesh,28.367,79.4304,15.6,84,0.0,990.4,6.05,16.2,155,224.4,88.7,3,10,7,0,2026-03-04T05:00:37.329898+05:30
Aligarh,Uttar Pradesh,27.8974,78.088,15.2,77,0.0,989.5,5.95,32.8,710,547.6,101.5,3,5,3,0,2026-03-04T05:00:37.329905+05:30
Moradabad,Uttar Pradesh,28.8386,78.7733,14.7,90,0.0,987.1,5.85,19.8,152,168.1,72.9,3,10,3,0,2026-03-04T05:00:37.329913+05:30
Saharanpur,Uttar Pradesh,29.9637,77.546,14.8,84,0.0,978.7,5.5,40.3,139,109.0,66.6,3,10,3,0,2026-03-04T05:00:37.329919+05:30
Jhansi,Uttar Pradesh,25.4484,78.5685,16.4,78,0.0,982.1,6.8,33.8,71,17.6,13.4,3,5,7,0,2026-03-04T05:00:40.642123+05:30
Surat,Gujarat,21.1702,72.8311,23.0,72,0.0,1009.6,7.1,27.7,157,56.1,53.4,3,0,4,1,2026-03-04T05:00:40.642151+05:30
Vadodara,Gujarat,22.3072,73.1812,22.3,66,0.0,1007.8,7.2,19.1,152,69.8,65.9,3,5,4,0,2026-03-04T05:00:40.642163+05:30
Rajkot,Gujarat,22.3039,70.8022,21.2,76,0.0,998.3,7.0,20.5,62,23.1,17.3,3,5,7,1,2026-03-04T05:00:40.642173+05:30
Thane,Maharashtra,19.2183,72.9781,25.3,62,0.0,1009.0,7.4,36.4,126,44.7,43.9,7,0,4,1,2026-03-04T05:00:40.642182+05:30
Nagpur,Maharashtra,21.1458,79.0882,19.2,70,0.0,976.5,7.75,22.3,70,19.5,16.0,3,5,7,0,2026-03-04T05:00:40.642191+05:30
Nashik,Maharashtra,19.9975,73.7898,22.6,49,0.0,947.6,7.55,24.1,89,30.0,29.2,0,5,7,0,2026-03-04T05:00:40.642199+05:30
Aurangabad,Maharashtra,19.8762,75.3433,21.1,54,0.0,946.0,8.1,29.5,75,29.5,29.0,0,5,7,0,2026-03-04T05:00:40.642207+05:30
Solapur,Maharashtra,17.6599,75.9064,22.0,71,0.0,958.3,8.35,18.7,81,19.8,19.2,3,5,7,1,2026-03-04T05:00:40.642216+05:30
Kolhapur,Maharashtra,16.705,74.2433,21.8,70,0.0,948.4,8.45,35.6,156,93.1,92.2,3,5,7,1,2026-03-04T05:00:40.642224+05:30
Goa,Goa,15.2993,74.124,25.5,91,0.0,998.5,8.5,36.7,91,50.8,47.0,7,5,7,1,2026-03-04T05:00:40.642232+05:30
Jodhpur,Rajasthan,26.2389,73.0243,19.0,59,0.0,987.6,6.9,13.3,74,59.8,31.0,0,5,7,0,2026-03-04T05:00:40.642239+05:30
Udaipur,Rajasthan,24.5854,73.7125,17.0,56,0.0,950.4,7.5,13.3,60,30.0,15.9,0,5,7,0,2026-03-04T05:00:40.642247+05:30
Kota,Rajasthan,25.2138,75.8648,14.7,87,0.0,983.1,6.9,15.5,85,41.0,32.4,3,10,7,0,2026-03-04T05:00:40.642255+05:30
Bikaner,Rajasthan,28.0229,73.3119,20.6,47,0.0,986.6,6.6,23.8,69,39.0,19.1,0,5,7,0,2026-03-04T05:00:40.642263+05:30
Ajmer,Rajasthan,26.4499,74.6399,20.2,34,0.0,958.9,6.85,21.2,73,43.0,24.2,0,5,7,0,2026-03-04T05:00:40.642270+05:30
Gwalior,Madhya Pradesh,26.2183,78.1828,16.3,65,0.0,987.4,6.55,31.7,98,28.2,23.2,3,5,7,0,2026-03-04T05:00:40.642277+05:30
Indore,Madhya Pradesh,22.7196,75.8577,18.4,63,0.0,951.1,7.45,18.4,87,36.1,31.9,3,5,7,0,2026-03-04T05:00:40.642284+05:30
Bhopal,Madhya Pradesh,23.2599,77.4126,18.6,54,0.0,957.0,7.35,22.7,76,41.1,32.5,0,5,7,0,2026-03-04T05:00:40.642291+05:30
Jabalpur,Madhya Pradesh,23.1815,79.9864,17.7,72,0.0,964.9,7.45,24.5,72,38.1,28.3,3,5,7,0,2026-03-04T05:00:40.642298+05:30
Ujjain,Madhya Pradesh,23.1765,75.7885,17.3,69,0.0,957.1,7.4,16.2,107,50.9,45.6,3,5,7,0,2026-03-04T05:00:40.642306+05:30
Visakhapatnam,Andhra Pradesh,17.6868,83.2185,22.0,99,0.0,1006.8,8.4,35.3,135,56.6,54.1,3,5,4,1,2026-03-04T05:00:40.642313+05:30
Vijayawada,Andhra Pradesh,16.5062,80.648,23.1,90,0.0,1005.7,8.45,19.8,133,55.8,51.3,3,5,4,1,2026-03-04T05:00:40.642321+05:30
Guntur,Andhra Pradesh,16.3067,80.4365,22.6,89,0.0,1006.9,8.45,24.8,123,47.1,43.2,3,5,4,1,2026-03-04T05:00:40.642328+05:30
Nellore,Andhra Pradesh,14.4426,79.9865,22.7,91,0.0,1008.5,8.7,28.8,111,49.0,45.6,3,0,4,1,2026-03-04T05:00:40.642336+05:30
Kurnool,Andhra Pradesh,15.8281,78.0373,24.9,54,0.0,978.8,8.5,28.4,103,41.0,38.8,0,5,7,0,2026-03-04T05:00:40.642345+05:30
Kakinada,Andhra Pradesh,16.9891,82.2475,21.5,91,0.0,1010.6,8.4,33.1,116,46.8,41.0,3,0,4,1,2026-03-04T05:00:40.642352+05:30
Tirupati,Andhra Pradesh,13.6288,79.4192,19.1,75,0.0,994.2,8.8,36.4,150,79.4,75.7,3,5,7,0,2026-03-04T05:00:40.642359+05:30
Warangal,Telangana,17.9689,79.5941,21.9,73,0.0,981.2,8.25,23.0,118,55.6,54.8,3,5,7,1,2026-03-04T05:00:40.642367+05:30
Nizamabad,Telangana,18.6725,78.0941,19.8,79,0.0,966.8,8.1,25.2,82,24.7,22.6,3,5,7,0,2026-03-04T05:00:40.642402+05:30
Mysore,Karnataka,12.2958,76.6396,19.2,76,0.0,928.8,9.15,40.7,105,39.2,37.5,3,5,7,0,2026-03-04T05:00:40.642412+05:30
Mangalore,Karnataka,12.9141,74.856,27.9,83,0.0,1007.6,8.75,30.2,74,35.0,31.0,7,5,4,1,2026-03-04T05:00:40.642420+05:30
Hubli-Dharwad,Karnataka,15.3647,75.124,20.6,97,0.0,941.1,8.7,24.5,93,28.4,27.9,3,5,7,1,2026-03-04T05:00:40.642428+05:30
Belgaum,Karnataka,15.8497,74.4977,20.9,92,0.0,925.8,8.75,28.8,121,59.6,57.0,3,5,7,1,2026-03-04T05:00:43.949439+05:30
Coimbatore,Tamil Nadu,11.0168,76.9558,21.0,67,0.0,963.1,9.15,42.5,111,35.4,34.6,3,5,7,0,2026-03-04T05:00:43.949469+05:30
Madurai,Tamil Nadu,9.9252,78.1198,21.8,84,0.0,995.1,9.1,25.6,102,46.8,45.8,3,5,7,1,2026-03-04T05:00:43.949487+05:30
Trichy,Tamil Nadu,10.7905,78.7047,21.0,96,0.0,1002.3,9.0,30.2,101,55.2,51.6,3,5,4,1,2026-03-04T05:00:43.949496+05:30
Salem,Tamil Nadu,11.6643,78.146,21.1,82,0.0,979.2,9.05,35.6,126,57.3,55.3,3,5,7,1,2026-03-04T05:00:43.949505+05:30
Tirunelveli,Tamil Nadu,8.7139,77.7567,20.0,88,0.0,1005.2,9.15,33.5,94,43.5,42.0,3,5,4,1,2026-03-04T05:00:43.949513+05:30
Vellore,Tamil Nadu,12.9165,79.1325,19.6,92,0.0,987.2,8.85,40.0,141,79.4,75.7,3,10,7,1,2026-03-04T05:00:43.949521+05:30
Erode,Tamil Nadu,11.341,77.7172,22.0,94,0.0,991.2,9.05,29.2,104,39.9,38.4,3,5,7,1,2026-03-04T05:00:43.949530+05:30
Kochi,Kerala,9.9312,76.2673,26.7,81,0.0,1009.9,8.95,33.5,106,31.8,30.7,7,0,4,1,2026-03-04T05:00:43.949538+05:30
Thiruvananthapuram,Kerala,8.5241,76.9366,26.9,81,0.0,1009.1,9.0,26.6,93,40.2,38.4,7,0,4,1,2026-03-04T05:00:43.949546+05:30
Kozhikode,Kerala,11.2588,75.7804,27.3,83,0.0,1008.8,8.85,30.6,74,37.6,33.1,7,0,4,1,2026-03-04T05:00:43.949553+05:30
Thrissur,Kerala,10.5276,76.2144,24.2,94,0.0,1008.3,8.95,38.5,107,53.1,50.8,3,0,4,1,2026-03-04T05:00:43.949562+05:30
Kannur,Kerala,11.8745,75.3704,26.6,83,0.0,1008.1,8.8,34.6,71,29.6,26.7,7,0,4,1,2026-03-04T05:00:43.949570+05:30
Patna,Bihar,25.5941,85.1376,18.9,72,0.0,1004.5,7.2,16.6,156,149.5,121.5,3,5,4,0,2026-03-04T05:00:43.949578+05:30
Gaya,Bihar,24.7914,85.0002,16.4,63,0.0,998.0,7.25,19.4,126,88.2,61.7,3,5,7,0,2026-03-04T05:00:43.949586+05:30
Muzaffarpur,Bihar,26.1209,85.3647,17.9,73,0.0,1004.6,7.15,13.7,162,144.4,118.7,3,5,4,0,2026-03-04T05:00:43.949593+05:30
Bhagalpur,Bihar,25.2425,87.0117,17.2,81,0.0,1005.6,7.2,10.1,153,145.8,96.2,3,10,4,0,2026-03-04T05:00:43.949601+05:30
Ranchi,Jharkhand,23.3441,85.3096,17.9,49,0.0,940.5,7.95,30.6,78,69.6,40.0,0,5,7,0,2026-03-04T05:00:43.949609+05:30
Jamshedpur,Jharkhand,22.8046,86.2029,16.4,80,0.0,994.7,7.85,22.3,106,83.6,62.9,3,5,7,0,2026-03-04T05:00:43.949617+05:30
Dhanbad,Jharkhand,23.7957,86.4304,16.6,68,0.0,983.8,7.7,24.5,114,91.5,68.7,3,5,7,0,2026-03-04T05:00:43.949624+05:30
Bokaro,Jharkhand,23.6693,86.1511,16.1,62,0.0,988.0,7.7,27.4,119,99.9,75.9,3,5,7,0,2026-03-04T05:00:43.949633+05:30
Bhubaneswar,Odisha,20.2961,85.8245,21.8,99,0.0,1006.0,8.15,29.5,152,81.3,74.3,3,5,4,1,2026-03-04T05:00:43.949642+05:30
Cuttack,Odisha,20.4625,85.8828,21.3,99,0.0,1008.0,8.15,28.8,152,81.3,74.3,3,0,4,1,2026-03-04T05:00:43.949649+05:30
Rourkela,Odisha,22.2604,84.8536,18.8,66,0.0,988.8,7.75,19.4,93,44.4,30.0,3,5,7,0,2026-03-04T05:00:43.949657+05:30
Raipur,Chhattisgarh,21.2514,81.6296,20.1,57,0.0,977.8,7.8,23.0,135,71.5,67.1,0,5,7,0,2026-03-04T05:00:43.949665+05:30
Bhilai,Chhattisgarh,21.1938,81.3509,19.3,59,0.0,978.1,7.8,20.9,127,55.3,50.6,0,5,7,0,2026-03-04T05:00:43.949673+05:30
Guwahati,Assam,26.1158,91.7086,20.4,78,0.0,1006.0,7.1,16.6,154,76.8,67.8,3,5,4,1,2026-03-04T05:00:43.949680+05:30
Agartala,Tripura,23.8315,91.2868,18.2,91,0.0,1009.8,7.5,22.7,165,92.4,82.2,3,5,4,1,2026-03-04T05:00:43.949688+05:30
Shillong,Meghalaya,25.5788,91.8933,8.8,79,0.0,855.5,7.5,25.2,151,65.0,54.5,3,5,7,0,2026-03-04T05:00:43.949695+05:30
Imphal,Manipur,24.817,93.9368,11.9,78,0.0,925.1,7.7,23.4,151,66.1,60.3,3,5,7,0,2026-03-04T05:00:43.949703+05:30
Aizawl,Mizoram,23.7271,92.7176,14.8,72,0.0,893.7,7.7,27.0,157,83.4,77.1,3,5,7,0,2026-03-04T05:00:43.949710+05:30
Kohima,Nagaland,25.6701,94.1077,11.5,62,0.0,855.2,7.55,36.0,150,66.6,59.0,3,5,7,0,2026-03-04T05:00:43.949717+05:30
Gangtok,Sikkim,27.3314,88.6138,10.6,89,0.0,837.8,7.45,20.9,151,66.8,51.0,3,10,7,0,2026-03-04T05:00:43.949725+05:30
Siliguri,West Bengal,26.7271,88.3953,19.1,67,0.0,998.2,7.1,21.6,162,108.0,88.9,3,5,7,0,2026-03-04T05:00:47.261312+05:30
Durgapur,West Bengal,23.5204,87.3119,20.2,64,0.0,999.2,7.7,24.1,93,91.7,50.3,3,5,7,0,2026-03-04T05:00:47.261338+05:30
Asansol,West Bengal,23.6739,86.9524,21.2,63,0.0,997.8,7.7,22.3,89,67.1,39.2,3,5,7,0,2026-03-04T05:00:47.261347+05:30
Pondicherry,Puducherry,11.9139,79.8145,22.1,95,0.0,1011.1,8.85,27.7,109,45.2,40.0,3,0,4,1,2026-03-04T05:00:47.261355+05:30
Port Blair,Andaman and Nicobar Islands,11.6234,92.7265,26.8,76,0.0,1008.8,8.85,27.0,78,41.6,31.9,7,0,4,1,2026-03-04T05:00:47.261362+05:30
Haridwar,Uttarakhand,29.9457,78.1642,15.2,91,0.0,977.4,5.6,19.8,120,63.6,55.3,3,10,3,0,2026-03-04T05:00:47.261369+05:30
Rishikesh,Uttarakhand,30.0869,78.2676,16.3,79,0.0,969.7,5.65,23.8,93,42.0,37.3,3,5,3,0,2026-03-04T05:00:47.261400+05:30
Nainital,Uttarakhand,29.3919,79.4542,13.9,60,0.0,805.7,6.5,53.3,122,68.2,56.7,0,5,7,0,2026-03-04T05:00:47.261408+05:30
Mussoorie,Uttarakhand,30.4599,78.0664,14.1,48,0.0,802.8,6.0,40.3,90,33.6,29.9,0,5,3,0,2026-03-04T05:00:47.261415+05:30
Dharamshala,Himachal Pradesh,32.219,76.3234,19.1,29,0.0,871.2,6.25,29.5,46,13.9,6.7,0,5,7,0,2026-03-04T05:00:47.261421+05:30
Dalhousie,Himachal Pradesh,32.5387,75.971,14.9,23,0.0,804.9,6.45,23.8,83,25.1,22.2,0,5,7,1,2026-03-04T05:00:47.261428+05:30
Patiala,Punjab,30.3398,76.3869,16.0,84,0.0,981.8,5.65,34.2,248,243.1,68.2,3,10,3,0,2026-03-04T05:00:47.261435+05:30
Bhatinda,Punjab,30.211,74.9455,17.2,84,0.0,988.1,6.3,25.9,142,92.7,70.1,3,10,7,0,2026-03-04T05:00:47.261442+05:30
Rohtak,Haryana,28.8955,76.6066,15.9,90,0.0,985.8,5.85,35.6,459,286.8,66.6,3,10,3,0,2026-03-04T05:00:47.261450+05:30
Panipat,Haryana,29.3909,76.9635,16.0,87,0.0,984.0,5.65,35.3,1077,750.6,115.5,3,10,3,0,2026-03-04T05:00:47.261457+05:30
Mathura,Uttar Pradesh,27.4924,77.6737,20.3,46,0.0,991.1,6.1,34.6,467,383.7,68.2,0,5,7,0,2026-03-04T05:00:47.261463+05:30
Vrindavan,Uttar Pradesh,27.5823,77.7027,16.1,69,0.0,991.3,6.1,36.4,467,383.7,68.2,3,5,7,0,2026-03-04T05:00:47.261469+05:30
Ayodhya,Uttar Pradesh,26.7922,82.1998,16.5,88,0.0,999.1,6.5,10.1,154,230.0,95.0,3,10,7,0,2026-03-04T05:00:47.261476+05:30
Ratlam,Madhya Pradesh,23.3315,75.0367,15.7,95,0.0,957.6,7.35,13.0,98,57.5,52.0,3,10,7,0,2026-03-04T05:00:47.261482+05:30
Sagar,Madhya Pradesh,23.8388,78.7378,17.3,68,0.0,953.3,7.3,24.5,65,32.0,24.9,3,5,7,0,2026-03-04T05:00:47.261488+05:30
Satna,Madhya Pradesh,24.6005,80.8322,16.6,62,0.0,975.0,7.25,36.4,74,28.1,19.0,3,5,7,0,2026-03-04T05:00:47.261494+05:30
Akola,Maharashtra,20.7002,77.0082,20.2,66,0.0,978.4,7.8,15.1,74,25.0,21.5,3,5,7,0,2026-03-04T05:00:47.261501+05:30
Amravati,Maharashtra,20.9374,77.7796,20.0,59,0.0,970.3,7.75,20.2,70,22.2,17.9,0,5,7,0,2026-03-04T05:00:47.261508+05:30
Latur,Maharashtra,18.4088,76.5604,20.9,61,0.0,941.5,8.25,23.8,82,33.4,31.9,3,5,7,0,2026-03-04T05:00:47.261514+05:30
Nanded,Maharashtra,19.1383,77.3091,22.0,59,0.0,971.1,8.0,17.3,75,41.3,40.0,0,5,7,0,2026-03-04T05:00:47.261520+05:30
Gulbarga,Karnataka,17.3297,76.8343,22.8,56,0.0,960.6,8.35,20.9,94,27.5,27.0,0,5,7,0,2026-03-04T05:00:47.261526+05:30
Bidar,Karnataka,17.9104,77.5199,21.6,67,0.0,937.1,8.3,26.6,99,40.7,39.6,3,5,7,0,2026-03-04T05:00:47.261532+05:30
Hospet,Karnataka,15.2689,76.3909,25.2,53,0.0,957.3,8.65,25.9,104,37.6,36.7,4,5,7,0,2026-03-04T05:00:47.261538+05:30
Tirupur,Tamil Nadu,11.1085,77.3411,22.1,88,0.0,977.2,9.15,32.0,116,40.0,38.8,3,5,7,1,2026-03-04T05:00:47.261544+05:30
Alappuzha,Kerala,9.4981,76.3388,26.7,82,0.0,1010.0,9.0,32.8,99,40.4,38.3,7,0,4,1,2026-03-04T05:00:47.261550+05:30
Munnar,Kerala,10.0889,77.0595,17.2,56,0.0,855.5,9.45,22.7,94,29.4,28.6,0,5,7,0,2026-03-04T05:00:47.261557+05:30
Silchar,Assam,24.8333,92.7789,19.8,77,0.0,1009.0,7.45,16.2,157,61.0,54.4,3,0,4,0,2026-03-04T05:00:47.261563+05:30
Dibrugarh,Assam,27.4728,94.912,18.8,95,0.0,1000.0,7.15,9.7,131,48.1,39.6,3,10,4,1,2026-03-04T05:00:47.261569+05:30
