city,state,latitude,longitude,temp,humidity,rain,pressure,uv_index,wind_gusts,aqi,pm10,pm2_5,no2,co,o3,so2,mosquito_risk,arthritis_risk,migraine_risk,frizz_risk,updated_at
Delhi,Delhi,28.6139,77.209,25.7,97,0.8,972.0,1.25,35.3,96,16.7,16.6,15.6,291.0,72.0,6.6,10,5,3,1,2026-07-09T03:39:08.649854+05:30
Mumbai,Maharashtra,19.076,72.8777,28.1,84,0.0,1003.4,7.1,52.2,61,37.4,15.6,3.4,98.0,38.0,3.0,7,5,4,1,2026-07-09T03:39:08.649911+05:30
Bangalore,Karnataka,12.9716,77.5946,20.7,90,0.0,910.3,7.9,50.4,22,5.9,3.8,5.6,127.0,35.0,3.4,3,5,7,1,2026-07-09T03:39:08.649928+05:30
Hyderabad,Telangana,17.385,78.4867,24.4,86,0.0,949.2,7.7,44.6,29,3.4,2.9,7.4,145.0,39.0,2.9,3,5,7,1,2026-07-09T03:39:08.649940+05:30
Chennai,Tamil Nadu,13.0827,80.2707,30.9,57,0.0,1004.4,7.6,44.6,69,18.0,13.6,16.5,180.0,32.0,10.3,0,5,4,1,2026-07-09T03:39:08.649950+05:30
Kolkata,West Bengal,22.5726,88.3639,27.5,93,0.2,999.8,0.95,33.1,70,22.9,17.2,6.4,148.0,59.0,5.2,10,5,3,1,2026-07-09T03:39:08.649960+05:30
Pune,Maharashtra,18.5204,73.8567,23.8,91,0.0,943.1,7.05,51.8,19,3.8,2.0,4.7,95.0,31.0,4.1,3,5,7,1,2026-07-09T03:39:08.649969+05:30
Ahmedabad,Gujarat,23.0225,72.5714,28.0,80,0.0,994.8,8.0,38.9,81,51.3,27.4,7.5,119.0,40.0,5.5,7,5,7,1,2026-07-09T03:39:08.649977+05:30
Jaipur,Rajasthan,26.9124,75.7873,26.3,85,0.0,949.8,7.05,43.9,109,103.6,43.3,10.4,202.0,59.0,4.9,7,5,7,1,2026-07-09T03:39:08.649986+05:30
Lucknow,Uttar Pradesh,26.8467,80.9462,26.5,95,0.1,984.1,7.45,31.7,71,30.6,30.0,13.1,253.0,64.0,9.3,10,5,7,1,2026-07-09T03:39:08.649999+05:30
Kanpur,Uttar Pradesh,26.4499,80.3319,26.9,93,0.0,981.4,7.1,28.8,61,17.8,16.8,10.9,276.0,67.0,4.4,7,5,7,1,2026-07-09T03:39:08.650007+05:30
Chandigarh,Chandigarh,30.7333,76.7794,26.7,92,0.0,960.3,1.05,22.3,131,78.0,76.8,71.5,278.0,8.0,15.3,7,5,3,1,2026-07-09T03:39:08.650016+05:30
Srinagar,Jammu and Kashmir,34.0837,74.7973,19.2,95,0.0,835.5,9.05,22.0,81,40.0,37.1,23.8,559.0,43.0,2.2,3,10,7,1,2026-07-09T03:39:08.650025+05:30
Jammu,Jammu and Kashmir,32.7266,74.857,25.5,94,0.0,963.9,8.65,26.3,152,63.3,58.3,53.8,554.0,11.0,5.1,7,5,7,1,2026-07-09T03:39:08.650033+05:30
Amritsar,Punjab,31.634,74.8723,26.9,93,0.0,971.7,8.5,25.9,160,75.0,71.7,34.2,699.0,30.0,10.5,7,5,7,1,2026-07-09T03:39:08.650041+05:30
Ludhiana,Punjab,30.901,75.8573,28.1,94,0.0,969.6,2.9,28.8,151,97.8,94.5,46.9,683.0,16.0,19.6,7,5,3,1,2026-07-09T03:39:08.650049+05:30
Jalandhar,Punjab,31.326,75.5762,27.7,93,0.0,970.7,2.15,29.2,154,93.8,89.6,44.5,818.0,20.0,16.6,7,5,3,1,2026-07-09T03:39:08.650057+05:30
Dehradun,Uttarakhand,30.6284,78.0322,18.7,98,0.5,824.4,2.8,19.8,73,32.4,32.0,37.9,280.0,30.0,1.2,6,10,3,1,2026-07-09T03:39:08.650067+05:30
Shimla,Himachal Pradesh,31.1048,77.1734,16.4,94,0.0,779.2,1.55,15.5,67,11.4,10.9,14.8,322.0,69.0,1.5,3,10,3,0,2026-07-09T03:39:08.650074+05:30
Manali,Himachal Pradesh,32.2396,77.1887,20.3,76,0.1,813.8,7.55,29.5,45,4.2,4.1,31.5,337.0,59.0,0.3,6,5,7,0,2026-07-09T03:39:08.650086+05:30
Gurgaon,Haryana,28.4595,77.0266,25.4,99,1.1,970.5,0.55,38.5,95,15.9,15.9,21.4,306.0,66.0,12.7,10,5,3,1,2026-07-09T03:39:08.650094+05:30
Noida,Uttar Pradesh,28.5355,77.391,25.8,96,1.0,973.2,2.85,44.3,95,15.9,15.9,21.4,285.0,66.0,12.7,10,5,3,1,2026-07-09T03:39:08.650101+05:30
Ghaziabad,Uttar Pradesh,28.6692,77.4538,25.9,96,0.8,971.7,3.2,46.8,83,17.3,17.3,12.0,271.0,80.0,1.5,10,5,3,1,2026-07-09T03:39:08.650108+05:30
Faridabad,Haryana,28.4089,77.3178,25.8,96,0.8,972.4,2.7,43.6,95,15.9,15.9,21.4,326.0,66.0,12.7,10,5,3,1,2026-07-09T03:39:08.650115+05:30
Meerut,Uttar Pradesh,28.9845,77.7064,25.4,95,0.9,971.2,1.95,40.7,83,17.3,17.3,12.0,259.0,80.0,1.5,10,5,3,1,2026-07-09T03:39:08.650123+05:30
Agra,Uttar Pradesh,27.1767,78.0081,26.3,97,0.1,975.4,7.5,66.2,75,20.1,20.1,17.2,263.0,58.0,7.2,10,5,7,1,2026-07-09T03:39:08.650130+05:30
Varanasi,Uttar Pradesh,25.3176,82.9739,27.9,86,0.0,989.0,8.05,36.4,78,34.5,32.1,30.9,372.0,27.0,34.7,7,5,7,1,2026-07-09T03:39:08.650139+05:30
Prayagraj,Uttar Pradesh,25.4358,81.8463,27.8,88,0.1,986.9,6.5,30.6,77,41.1,39.2,21.4,284.0,40.0,12.9,10,5,7,1,2026-07-09T03:39:08.650147+05:30
Gorakhpur,Uttar Pradesh,26.7606,83.3732,25.8,97,0.1,989.8,7.05,29.9,75,23.0,22.5,13.2,261.0,67.0,6.9,10,5,7,1,2026-07-09T03:39:08.650155+05:30
Bareilly,Uttar Pradesh,28.367,79.4304,26.2,95,0.0,976.6,5.8,56.9,68,11.4,11.3,7.0,253.0,93.0,5.5,7,5,3,1,2026-07-09T03:39:08.650163+05:30
Aligarh,Uttar Pradesh,27.8974,78.088,26.0,97,0.4,973.2,7.3,33.8,74,22.2,22.1,12.7,260.0,68.0,4.2,10,5,7,1,2026-07-09T03:39:08.650171+05:30
Moradabad,Uttar Pradesh,28.8386,78.7733,25.5,95,0.1,973.5,5.15,56.5,70,11.7,11.6,6.7,241.0,96.0,5.1,10,5,3,1,2026-07-09T03:39:08.650178+05:30
Saharanpur,Uttar Pradesh,29.9637,77.546,26.2,96,0.4,966.7,0.6,27.4,98,34.5,34.2,21.2,303.0,56.0,4.6,10,5,3,1,2026-07-09T03:39:08.650186+05:30
Jhansi,Uttar Pradesh,25.4484,78.5685,27.4,86,0.0,967.4,5.65,53.3,50,44.4,24.3,8.4,203.0,64.0,6.7,7,5,3,1,2026-07-09T03:39:12.079304+05:30
Surat,Gujarat,21.1702,72.8311,28.4,85,0.0,1000.0,7.45,56.9,74,36.3,20.3,16.2,250.0,28.0,28.1,7,5,4,1,2026-07-09T03:39:12.079364+05:30
Vadodara,Gujarat,22.3072,73.1812,28.2,82,0.0,997.0,5.35,46.1,73,31.8,17.1,7.7,129.0,35.0,5.3,7,5,3,1,2026-07-09T03:39:12.079376+05:30
Rajkot,Gujarat,22.3039,70.8022,26.8,87,0.0,987.0,7.45,48.6,73,34.9,15.7,4.1,94.0,38.0,3.7,7,5,7,1,2026-07-09T03:39:12.079385+05:30
Thane,Maharashtra,19.2183,72.9781,26.9,92,0.0,1002.8,6.85,43.6,61,37.4,15.6,3.4,110.0,38.0,3.0,7,5,4,1,2026-07-09T03:39:12.079394+05:30
Nagpur,Maharashtra,21.1458,79.0882,25.9,83,0.0,966.8,7.2,49.3,48,16.5,13.2,14.8,184.0,45.0,12.7,7,5,7,1,2026-07-09T03:39:12.079402+05:30
Nashik,Maharashtra,19.9975,73.7898,23.7,97,0.0,939.1,7.4,56.9,30,13.0,6.9,10.4,97.0,23.0,6.0,3,5,7,1,2026-07-09T03:39:12.079411+05:30
Aurangabad,Maharashtra,19.8762,75.3433,23.9,89,0.0,938.7,7.75,52.9,28,22.4,10.0,8.3,147.0,28.0,9.5,3,5,7,1,2026-07-09T03:39:12.079419+05:30
Solapur,Maharashtra,17.6599,75.9064,24.6,83,0.0,953.4,5.75,45.4,21,4.0,3.5,7.4,128.0,27.0,2.7,3,5,3,1,2026-07-09T03:39:12.079427+05:30
Kolhapur,Maharashtra,16.705,74.2433,22.6,96,0.0,944.4,6.9,55.8,20,3.7,2.3,2.7,98.0,37.0,1.8,3,5,7,1,2026-07-09T03:39:12.079436+05:30
Goa,Goa,15.2993,74.124,23.9,99,0.1,996.6,6.5,36.4,53,25.6,13.8,2.2,314.0,42.0,0.9,6,5,7,1,2026-07-09T03:39:12.079444+05:30
Jodhpur,Rajasthan,26.2389,73.0243,26.3,90,0.1,973.4,8.25,49.3,151,267.3,69.6,4.2,166.0,64.0,2.9,10,5,7,1,2026-07-09T03:39:12.079452+05:30
Udaipur,Rajasthan,24.5854,73.7125,25.4,89,0.0,938.3,8.65,43.9,81,43.3,26.0,11.0,157.0,47.0,7.2,7,5,7,1,2026-07-09T03:39:12.079460+05:30
Kota,Rajasthan,25.2138,75.8648,27.6,87,0.0,969.1,7.8,41.0,74,41.2,26.8,8.4,187.0,66.0,9.4,7,5,7,1,2026-07-09T03:39:12.079469+05:30
Bikaner,Rajasthan,28.0229,73.3119,29.9,64,0.0,971.9,8.2,37.8,154,328.8,92.7,3.1,126.0,61.0,2.2,7,5,7,1,2026-07-09T03:39:12.079481+05:30
Ajmer,Rajasthan,26.4499,74.6399,24.7,89,0.0,945.4,8.2,51.5,120,45.2,26.2,5.9,147.0,68.0,3.7,3,5,7,1,2026-07-09T03:39:12.079489+05:30
Gwalior,Madhya Pradesh,26.2183,78.1828,26.5,95,0.2,971.8,4.8,51.1,58,13.9,12.5,10.6,244.0,71.0,5.4,10,5,3,1,2026-07-09T03:39:12.079497+05:30
Indore,Madhya Pradesh,22.7196,75.8577,24.0,96,0.0,940.7,7.0,48.6,58,16.6,11.4,10.4,189.0,35.0,12.3,3,5,7,1,2026-07-09T03:39:12.079504+05:30
Bhopal,Madhya Pradesh,23.2599,77.4126,24.7,87,0.0,945.7,1.25,42.1,60,30.2,18.4,9.5,227.0,44.0,5.8,3,5,3,1,2026-07-09T03:39:12.079512+05:30
Jabalpur,Madhya Pradesh,23.1815,79.9864,24.3,97,0.0,953.6,8.15,41.0,52,18.3,13.3,5.3,199.0,74.0,2.9,3,5,7,1,2026-07-09T03:39:12.079520+05:30
Ujjain,Madhya Pradesh,23.1765,75.7885,24.7,92,0.0,946.1,7.0,47.2,61,15.0,10.8,10.5,213.0,35.0,13.4,3,5,7,1,2026-07-09T03:39:12.079528+05:30
Visakhapatnam,Andhra Pradesh,17.6868,83.2185,27.7,84,0.0,999.7,7.1,46.1,77,46.9,31.2,13.8,279.0,79.0,26.3,7,5,7,1,2026-07-09T03:39:12.079536+05:30
Vijayawada,Andhra Pradesh,16.5062,80.648,30.5,59,0.0,998.0,6.1,40.7,59,28.9,22.1,10.9,157.0,47.0,5.1,0,5,7,1,2026-07-09T03:39:12.079544+05:30
Guntur,Andhra Pradesh,16.3067,80.4365,31.1,56,0.0,999.4,6.4,43.6,60,26.0,19.6,12.9,136.0,39.0,5.7,0,5,7,1,2026-07-09T03:39:12.079551+05:30
Nellore,Andhra Pradesh,14.4426,79.9865,30.5,56,0.0,1002.7,7.5,48.2,39,16.1,9.5,7.6,153.0,36.0,3.6,0,5,4,1,2026-07-09T03:39:12.079560+05:30
Kurnool,Andhra Pradesh,15.8281,78.0373,26.7,73,0.0,974.1,4.6,49.7,28,4.5,3.3,5.9,111.0,33.0,3.0,7,5,3,1,2026-07-09T03:39:12.079569+05:30
Kakinada,Andhra Pradesh,16.9891,82.2475,28.5,80,0.0,1003.1,8.25,47.5,69,39.1,25.8,3.0,171.0,88.0,3.4,7,5,4,1,2026-07-09T03:39:12.079577+05:30
Tirupati,Andhra Pradesh,13.6288,79.4192,29.2,57,0.0,988.7,7.05,43.2,41,14.4,10.2,12.6,100.0,26.0,3.0,4,5,7,1,2026-07-09T03:39:12.079585+05:30
Warangal,Telangana,17.9689,79.5941,25.0,91,0.1,973.9,8.45,33.5,41,13.3,10.4,9.3,184.0,48.0,4.1,10,5,7,1,2026-07-09T03:39:12.079592+05:30
Nizamabad,Telangana,18.6725,78.0941,25.5,86,0.0,960.0,5.4,44.3,30,12.3,10.5,10.8,182.0,47.0,5.9,7,5,3,1,2026-07-09T03:39:12.079600+05:30
Mysore,Karnataka,12.2958,76.6396,21.3,91,0.0,927.6,7.6,45.0,18,5.0,3.0,2.9,91.0,39.0,1.3,3,5,7,1,2026-07-09T03:39:12.079608+05:30
Mangalore,Karnataka,12.9141,74.856,23.4,100,0.5,1007.1,7.5,34.9,57,22.8,13.8,8.1,173.0,27.0,2.4,6,5,4,1,2026-07-09T03:39:12.079616+05:30
Hubli-Dharwad,Karnataka,15.3647,75.124,22.1,95,0.0,938.5,7.35,55.8,17,2.2,1.7,2.7,96.0,37.0,1.0,3,5,7,1,2026-07-09T03:39:12.079623+05:30
Belgaum,Karnataka,15.8497,74.4977,21.1,98,0.0,922.6,5.8,57.6,18,2.7,1.7,2.5,105.0,38.0,1.1,3,5,3,1,2026-07-09T03:39:15.555728+05:30
Coimbatore,Tamil Nadu,11.0168,76.9558,22.1,97,0.0,960.7,8.8,51.8,23,6.9,5.0,6.0,176.0,27.0,2.2,3,5,7,1,2026-07-09T03:39:15.555759+05:30
Madurai,Tamil Nadu,9.9252,78.1198,28.2,63,0.0,991.8,8.4,45.4,58,14.8,13.7,27.5,122.0,0.0,4.9,7,5,7,1,2026-07-09T03:39:15.555772+05:30
Trichy,Tamil Nadu,10.7905,78.7047,28.4,64,0.0,998.6,5.7,54.0,40,11.4,7.2,4.3,94.0,35.0,2.5,7,5,3,1,2026-07-09T03:39:15.555782+05:30
Salem,Tamil Nadu,11.6643,78.146,24.6,85,0.0,976.7,8.4,32.8,55,16.8,13.5,19.0,132.0,18.0,6.2,3,5,7,1,2026-07-09T03:39:15.555792+05:30
Tirunelveli,Tamil Nadu,8.7139,77.7567,28.5,64,0.0,1002.5,8.4,51.1,37,9.6,6.3,4.6,156.0,31.0,1.8,7,5,4,1,2026-07-09T03:39:15.555800+05:30
Vellore,Tamil Nadu,12.9165,79.1325,28.1,60,0.0,982.5,7.8,44.3,39,12.8,7.9,8.2,130.0,33.0,3.5,4,5,7,1,2026-07-09T03:39:15.555809+05:30
Erode,Tamil Nadu,11.341,77.7172,25.0,80,0.0,988.5,8.65,49.0,44,14.3,11.3,13.7,156.0,24.0,3.7,7,5,7,1,2026-07-09T03:39:15.555817+05:30
Kochi,Kerala,9.9312,76.2673,24.6,98,0.0,1009.5,8.55,34.2,53,14.1,11.8,14.2,176.0,10.0,4.2,3,0,4,1,2026-07-09T03:39:15.555825+05:30
Thiruvananthapuram,Kerala,8.5241,76.9366,24.0,95,0.0,1008.7,7.85,45.4,47,15.9,9.9,5.4,173.0,33.0,2.4,3,0,4,1,2026-07-09T03:39:15.555833+05:30
Kozhikode,Kerala,11.2588,75.7804,23.7,96,0.1,1008.6,8.1,37.4,44,19.8,10.3,2.8,258.0,41.0,1.8,6,0,4,1,2026-07-09T03:39:15.555841+05:30
Thrissur,Kerala,10.5276,76.2144,23.4,99,0.0,1007.8,8.55,38.5,52,15.7,13.1,12.6,664.0,10.0,3.0,3,5,4,1,2026-07-09T03:39:15.555849+05:30
Kannur,Kerala,11.8745,75.3704,23.1,99,0.1,1008.0,8.25,34.6,51,10.4,5.7,7.9,189.0,26.0,2.0,6,0,4,1,2026-07-09T03:39:15.555857+05:30
Patna,Bihar,25.5941,85.1376,27.4,94,0.0,993.3,8.2,24.5,80,34.5,33.4,19.6,244.0,48.0,11.1,7,5,7,1,2026-07-09T03:39:15.555865+05:30
Gaya,Bihar,24.7914,85.0002,28.1,84,0.0,986.4,8.25,30.2,71,40.2,35.9,21.0,378.0,31.0,10.8,7,5,7,1,2026-07-09T03:39:15.555872+05:30
Muzaffarpur,Bihar,26.1209,85.3647,27.2,94,0.1,993.5,8.7,28.4,83,30.2,29.6,17.3,244.0,56.0,10.2,10,5,7,1,2026-07-09T03:39:15.555880+05:30
Bhagalpur,Bihar,25.2425,87.0117,26.9,98,0.0,994.7,5.8,24.5,90,35.3,32.7,17.1,458.0,50.0,10.2,7,5,3,1,2026-07-09T03:39:15.555888+05:30
Ranchi,Jharkhand,23.3441,85.3096,24.3,89,0.0,931.6,8.4,39.6,64,33.1,25.9,10.3,207.0,54.0,13.8,3,5,7,1,2026-07-09T03:39:15.555897+05:30
Jamshedpur,Jharkhand,22.8046,86.2029,27.3,88,0.0,984.4,6.6,36.4,84,46.4,37.4,24.4,455.0,42.0,28.2,7,5,7,1,2026-07-09T03:39:15.555905+05:30
Dhanbad,Jharkhand,23.7957,86.4304,27.0,95,0.0,973.5,7.85,37.8,129,79.9,71.0,50.0,1697.0,15.0,124.5,7,5,7,1,2026-07-09T03:39:15.555913+05:30
Bokaro,Jharkhand,23.6693,86.1511,27.5,88,0.0,977.3,8.45,34.2,98,73.3,61.7,33.3,2319.0,31.0,95.7,7,5,7,1,2026-07-09T03:39:15.555921+05:30
Bhubaneswar,Odisha,20.2961,85.8245,28.2,77,0.0,997.2,4.55,51.5,71,18.9,13.8,4.9,153.0,66.0,4.6,7,5,3,1,2026-07-09T03:39:15.555928+05:30
Cuttack,Odisha,20.4625,85.8828,27.7,81,0.0,999.0,4.95,43.6,71,18.9,13.8,4.9,153.0,66.0,4.6,7,5,3,1,2026-07-09T03:39:15.555935+05:30
Rourkela,Odisha,22.2604,84.8536,26.7,93,0.1,978.7,7.65,40.0,73,36.0,28.1,8.3,223.0,50.0,5.5,10,5,7,1,2026-07-09T03:39:15.555943+05:30
Raipur,Chhattisgarh,21.2514,81.6296,25.4,92,0.1,968.3,7.05,45.7,62,24.6,24.1,23.6,423.0,53.0,40.4,10,5,7,1,2026-07-09T03:39:15.555951+05:30
Bhilai,Chhattisgarh,21.1938,81.3509,25.8,90,0.1,968.7,8.5,47.5,63,24.9,24.3,21.8,543.0,55.0,36.3,10,5,7,1,2026-07-09T03:39:15.555958+05:30
Guwahati,Assam,26.1158,91.7086,26.1,98,0.0,996.0,7.9,17.3,55,17.5,16.9,8.3,219.0,52.0,2.2,7,5,7,1,2026-07-09T03:39:15.555966+05:30
Agartala,Tripura,23.8315,91.2868,24.4,97,0.7,1001.3,0.95,42.8,50,8.2,6.9,8.0,135.0,50.0,1.9,6,5,0,1,2026-07-09T03:39:15.555974+05:30
Shillong,Meghalaya,25.5788,91.8933,20.1,98,0.2,853.3,2.85,33.1,27,1.5,1.4,4.5,149.0,57.0,3.3,6,5,3,1,2026-07-09T03:39:15.555981+05:30
Imphal,Manipur,24.817,93.9368,22.4,99,0.0,919.3,1.9,32.4,30,6.8,6.2,7.8,216.0,38.0,2.6,3,5,3,1,2026-07-09T03:39:15.555989+05:30
Aizawl,Mizoram,23.7271,92.7176,19.9,99,2.0,888.3,3.0,46.1,23,0.6,0.5,1.7,111.0,52.0,0.6,6,10,3,1,2026-07-09T03:39:15.555996+05:30
Kohima,Nagaland,25.6701,94.1077,21.0,94,0.2,852.3,2.15,22.7,21,3.4,3.0,3.9,264.0,49.0,1.2,6,5,3,1,2026-07-09T03:39:15.556004+05:30
Gangtok,Sikkim,27.3314,88.6138,18.5,97,1.4,833.3,7.4,25.9,43,4.1,4.1,4.3,217.0,92.0,1.2,6,10,7,1,2026-07-09T03:39:15.556011+05:30
Siliguri,West Bengal,26.7271,88.3953,25.0,99,0.2,986.8,7.9,25.6,63,16.4,16.2,7.9,326.0,89.0,4.3,10,5,7,1,2026-07-09T03:39:18.976247+05:30
Durgapur,West Bengal,23.5204,87.3119,27.2,94,0.0,988.5,5.85,36.4,101,41.2,36.3,26.3,364.0,44.0,37.2,7,5,3,1,2026-07-09T03:39:18.976281+05:30
Asansol,West Bengal,23.6739,86.9524,27.4,93,0.0,987.0,7.35,36.7,99,40.9,35.6,28.1,241.0,36.0,36.1,7,5,7,1,2026-07-09T03:39:18.976294+05:30
Pondicherry,Puducherry,11.9139,79.8145,28.8,72,0.0,1006.4,7.3,45.7,72,18.5,14.4,18.7,220.0,23.0,7.6,7,5,4,1,2026-07-09T03:39:18.976304+05:30
Port Blair,Andaman and Nicobar Islands,11.6234,92.7265,27.5,81,0.0,1007.3,8.65,41.8,59,24.7,14.6,0.1,90.0,57.0,0.4,7,5,4,1,2026-07-09T03:39:18.976313+05:30
Haridwar,Uttarakhand,29.9457,78.1642,25.8,97,0.8,964.9,6.1,22.0,75,25.7,25.6,17.5,315.0,52.0,2.3,10,5,7,1,2026-07-09T03:39:18.976322+05:30
Rishikesh,Uttarakhand,30.0869,78.2676,25.8,93,0.5,957.8,7.1,14.0,50,13.5,13.4,10.2,206.0,71.0,1.6,10,5,7,1,2026-07-09T03:39:18.976358+05:30
Nainital,Uttarakhand,29.3919,79.4542,16.9,99,0.3,799.5,7.85,52.2,50,7.2,6.9,3.9,184.0,98.0,1.4,6,10,7,1,2026-07-09T03:39:18.976369+05:30
Mussoorie,Uttarakhand,30.4599,78.0664,16.9,100,0.4,797.2,3.6,33.1,68,34.7,34.6,27.6,284.0,41.0,6.3,6,10,3,1,2026-07-09T03:39:18.976378+05:30
Dharamshala,Himachal Pradesh,32.219,76.3234,22.1,90,0.1,863.0,7.2,36.4,43,10.7,10.2,15.0,509.0,22.0,0.3,6,5,7,1,2026-07-09T03:39:18.976387+05:30
Dalhousie,Himachal Pradesh,32.5387,75.971,17.3,91,0.0,798.7,7.6,29.9,99,41.6,39.5,43.9,574.0,20.0,2.7,3,10,7,0,2026-07-09T03:39:18.976397+05:30
Patiala,Punjab,30.3398,76.3869,27.5,91,0.0,969.1,1.05,23.4,143,93.8,92.0,53.2,765.0,2.0,12.1,7,5,3,1,2026-07-09T03:39:18.976406+05:30
Bhatinda,Punjab,30.211,74.9455,29.3,83,0.0,974.1,7.55,43.6,426,130.4,47.7,23.0,455.0,51.0,11.3,7,5,7,1,2026-07-09T03:39:18.976414+05:30
Rohtak,Haryana,28.8955,76.6066,26.0,95,0.4,971.7,0.45,33.8,107,19.8,19.6,17.3,289.0,65.0,6.3,10,5,3,1,2026-07-09T03:39:18.976423+05:30
Panipat,Haryana,29.3909,76.9635,26.5,95,0.8,970.7,0.3,28.1,99,28.1,27.8,21.4,334.0,55.0,7.7,10,5,3,1,2026-07-09T03:39:18.976431+05:30
Mathura,Uttar Pradesh,27.4924,77.6737,26.2,97,0.2,973.6,7.8,42.8,74,15.6,15.6,16.3,279.0,64.0,5.8,10,5,7,1,2026-07-09T03:39:18.976440+05:30
Vrindavan,Uttar Pradesh,27.5823,77.7027,26.0,98,0.6,974.2,7.8,40.3,74,15.6,15.6,16.3,274.0,64.0,5.8,10,5,7,1,2026-07-09T03:39:18.976449+05:30
Ayodhya,Uttar Pradesh,26.7922,82.1998,26.2,97,0.1,987.0,6.45,32.0,80,32.1,31.3,13.9,265.0,66.0,9.6,10,5,7,1,2026-07-09T03:39:18.976457+05:30
Ratlam,Madhya Pradesh,23.3315,75.0367,24.9,97,0.2,947.2,8.2,49.7,62,17.7,12.9,12.4,191.0,30.0,15.5,6,5,7,1,2026-07-09T03:39:18.976466+05:30
Sagar,Madhya Pradesh,23.8388,78.7378,24.5,96,0.0,941.9,4.0,51.1,52,21.0,15.4,6.2,193.0,67.0,4.7,3,5,3,1,2026-07-09T03:39:18.976474+05:30
Satna,Madhya Pradesh,24.6005,80.8322,26.4,86,0.0,962.4,7.8,47.9,55,16.3,14.4,6.1,234.0,76.0,3.9,7,5,7,1,2026-07-09T03:39:18.976482+05:30
Akola,Maharashtra,20.7002,77.0082,26.7,80,0.0,969.4,5.5,52.6,40,10.9,7.8,10.4,131.0,36.0,7.0,7,5,3,1,2026-07-09T03:39:18.976492+05:30
Amravati,Maharashtra,20.9374,77.7796,25.5,86,0.0,961.4,6.45,49.7,39,12.5,10.2,12.3,172.0,39.0,9.3,7,5,7,1,2026-07-09T03:39:18.976501+05:30
Latur,Maharashtra,18.4088,76.5604,23.5,90,0.0,935.1,5.7,45.7,25,13.7,6.5,6.5,121.0,29.0,4.3,3,5,3,1,2026-07-09T03:39:18.976510+05:30
Nanded,Maharashtra,19.1383,77.3091,25.3,86,0.0,963.6,4.6,42.8,33,9.6,7.4,10.0,140.0,37.0,5.3,7,5,3,1,2026-07-09T03:39:18.976519+05:30
Gulbarga,Karnataka,17.3297,76.8343,24.9,83,0.0,955.0,6.05,51.1,22,2.4,2.2,5.5,122.0,35.0,2.7,3,5,7,1,2026-07-09T03:39:18.976528+05:30
Bidar,Karnataka,17.9104,77.5199,23.1,96,0.2,931.1,4.5,45.4,28,8.9,6.4,7.7,147.0,43.0,3.7,6,5,3,1,2026-07-09T03:39:18.976536+05:30
Hospet,Karnataka,15.2689,76.3909,23.9,85,0.0,953.7,7.95,52.9,18,2.9,2.0,3.4,93.0,36.0,1.4,3,5,7,1,2026-07-09T03:39:18.976544+05:30
Tirupur,Tamil Nadu,11.1085,77.3411,23.2,90,0.0,974.5,8.75,61.2,47,16.1,13.4,17.7,143.0,17.0,4.6,3,5,7,1,2026-07-09T03:39:18.976553+05:30
Alappuzha,Kerala,9.4981,76.3388,24.7,97,0.1,1009.7,8.55,36.7,53,15.7,10.1,9.0,123.0,26.0,4.4,6,0,4,1,2026-07-09T03:39:18.976561+05:30
Munnar,Kerala,10.0889,77.0595,15.8,99,0.0,856.3,8.55,38.9,20,4.6,3.6,5.5,79.0,18.0,0.9,3,10,7,0,2026-07-09T03:39:18.976570+05:30
Silchar,Assam,24.8333,92.7789,25.7,98,0.0,1000.5,2.0,27.7,32,6.7,6.0,6.6,215.0,49.0,2.6,7,5,0,1,2026-07-09T03:39:18.976579+05:30
Dibrugarh,Assam,27.4728,94.912,25.5,98,0.0,990.3,6.25,32.8,52,14.9,14.3,8.5,194.0,59.0,1.4,7,5,7,1,2026-07-09T03:39:18.976587+05:30
