city,state,latitude,longitude,temp,humidity,rain,pressure,uv_index,wind_gusts,aqi,pm10,pm2_5,mosquito_risk,arthritis_risk,migraine_risk,frizz_risk,updated_at
Delhi,Delhi,28.6139,77.209,31.0,36,0.0,986.8,6.85,22.3,129,166.7,39.0,0,5,7,0,2026-04-01T12:56:01.641861+05:30
Mumbai,Maharashtra,19.076,72.8777,27.8,76,0.0,1010.1,7.85,23.8,62,46.6,24.8,7,0,4,1,2026-04-01T12:56:01.641896+05:30
Bangalore,Karnataka,12.9716,77.5946,32.7,24,0.0,913.6,9.55,29.9,80,32.5,22.0,0,5,7,0,2026-04-01T12:56:01.641911+05:30
Hyderabad,Telangana,17.385,78.4867,34.8,34,0.0,955.1,9.1,22.3,115,35.0,28.5,0,5,7,1,2026-04-01T12:56:01.641920+05:30
Chennai,Tamil Nadu,13.0827,80.2707,33.3,47,0.0,1008.9,9.15,29.2,47,13.0,10.1,0,0,4,1,2026-04-01T12:56:01.641929+05:30
Kolkata,West Bengal,22.5726,88.3639,33.7,59,0.0,1007.4,8.6,20.2,97,58.9,39.6,0,5,4,1,2026-04-01T12:56:01.641936+05:30
Pune,Maharashtra,18.5204,73.8567,34.5,42,0.0,950.1,8.5,30.2,99,45.9,36.2,0,5,7,1,2026-04-01T12:56:01.641946+05:30
Ahmedabad,Gujarat,23.0225,72.5714,34.7,32,0.0,1003.5,7.85,25.6,62,43.0,19.4,0,5,4,0,2026-04-01T12:56:01.641953+05:30
Jaipur,Rajasthan,26.9124,75.7873,29.6,47,0.0,963.4,6.7,34.2,108,241.2,34.8,4,5,7,1,2026-04-01T12:56:01.641960+05:30
Lucknow,Uttar Pradesh,26.8467,80.9462,33.6,34,0.0,996.2,7.15,27.4,112,75.2,22.1,0,5,7,0,2026-04-01T12:56:01.641968+05:30
Kanpur,Uttar Pradesh,26.4499,80.3319,30.6,52,0.0,995.0,7.35,28.8,167,96.2,24.4,0,5,7,1,2026-04-01T12:56:01.641994+05:30
Chandigarh,Chandigarh,30.7333,76.7794,30.3,34,0.0,973.0,6.55,13.3,78,69.8,19.3,0,5,7,0,2026-04-01T12:56:01.642003+05:30
Srinagar,Jammu and Kashmir,34.0837,74.7973,17.0,57,0.0,845.4,7.1,20.5,80,28.9,13.7,0,5,7,0,2026-04-01T12:56:01.642010+05:30
Jammu,Jammu and Kashmir,32.7266,74.857,30.0,33,0.0,976.8,6.4,20.5,78,44.8,16.5,4,5,7,0,2026-04-01T12:56:01.642017+05:30
Amritsar,Punjab,31.634,74.8723,29.0,42,0.0,984.9,6.9,14.0,119,88.9,30.4,4,5,7,0,2026-04-01T12:56:01.642023+05:30
Ludhiana,Punjab,30.901,75.8573,31.0,31,0.0,982.7,6.65,15.1,130,132.2,34.6,0,5,7,0,2026-04-01T12:56:01.642030+05:30
Jalandhar,Punjab,31.326,75.5762,29.6,39,0.0,983.9,6.75,11.9,121,140.2,36.8,4,5,7,0,2026-04-01T12:56:01.642038+05:30
Dehradun,Uttarakhand,30.6284,78.0322,20.4,43,0.0,834.5,6.4,29.9,45,18.8,5.7,0,5,7,0,2026-04-01T12:56:01.642044+05:30
Shimla,Himachal Pradesh,31.1048,77.1734,18.4,46,0.0,789.2,6.1,33.8,50,24.2,6.7,0,5,7,0,2026-04-01T12:56:01.642050+05:30
Manali,Himachal Pradesh,32.2396,77.1887,20.8,34,0.0,823.3,8.45,31.0,68,12.4,6.0,0,5,7,0,2026-04-01T12:56:01.642055+05:30
Gurgaon,Haryana,28.4595,77.0266,31.6,35,0.0,985.3,6.95,25.2,357,325.0,56.2,0,5,7,0,2026-04-01T12:56:01.642062+05:30
Noida,Uttar Pradesh,28.5355,77.391,31.2,37,0.0,988.4,6.85,21.2,357,325.0,56.2,0,5,7,0,2026-04-01T12:56:01.642068+05:30
Ghaziabad,Uttar Pradesh,28.6692,77.4538,30.8,38,0.0,986.7,6.85,21.2,113,127.6,32.1,0,5,7,0,2026-04-01T12:56:01.642074+05:30
Faridabad,Haryana,28.4089,77.3178,31.7,35,0.0,987.7,6.9,22.0,357,325.0,56.2,0,5,7,0,2026-04-01T12:56:01.642080+05:30
Meerut,Uttar Pradesh,28.9845,77.7064,31.9,34,0.0,985.4,6.5,24.1,113,127.6,32.1,0,5,7,0,2026-04-01T12:56:01.642085+05:30
Agra,Uttar Pradesh,27.1767,78.0081,32.2,40,0.0,991.6,7.25,25.6,596,291.5,47.6,0,5,7,1,2026-04-01T12:56:01.642091+05:30
Varanasi,Uttar Pradesh,25.3176,82.9739,35.5,35,0.0,999.5,7.55,28.1,129,68.5,21.0,0,5,10,1,2026-04-01T12:56:01.642101+05:30
Prayagraj,Uttar Pradesh,25.4358,81.8463,34.7,38,0.0,998.2,7.9,36.0,98,53.3,16.6,0,5,7,1,2026-04-01T12:56:01.642107+05:30
Gorakhpur,Uttar Pradesh,26.7606,83.3732,33.2,39,0.0,999.1,7.8,25.2,152,54.0,21.9,0,5,7,1,2026-04-01T12:56:01.642115+05:30
Bareilly,Uttar Pradesh,28.367,79.4304,33.3,30,0.0,990.2,6.95,27.4,85,54.1,16.5,0,5,7,0,2026-04-01T12:56:01.642121+05:30
Aligarh,Uttar Pradesh,27.8974,78.088,33.0,36,0.0,989.1,7.0,28.1,216,186.3,38.9,0,5,7,0,2026-04-01T12:56:01.642128+05:30
Moradabad,Uttar Pradesh,28.8386,78.7733,32.6,31,0.0,987.4,6.85,27.4,96,79.2,22.6,0,5,7,0,2026-04-01T12:56:01.642134+05:30
Saharanpur,Uttar Pradesh,29.9637,77.546,31.2,29,0.0,979.6,6.2,18.7,102,69.6,21.7,0,5,7,0,2026-04-01T12:56:01.642140+05:30
Jhansi,Uttar Pradesh,25.4484,78.5685,33.8,35,0.0,980.8,7.8,33.5,73,90.6,26.3,0,5,7,1,2026-04-01T12:56:04.918330+05:30
Surat,Gujarat,21.1702,72.8311,31.2,50,0.0,1008.5,7.65,25.2,89,49.0,39.0,0,0,4,1,2026-04-01T12:56:04.918356+05:30
Vadodara,Gujarat,22.3072,73.1812,35.4,36,0.0,1005.6,7.9,29.2,67,33.9,18.5,0,5,7,1,2026-04-01T12:56:04.918365+05:30
Rajkot,Gujarat,22.3039,70.8022,32.0,40,0.0,996.2,7.25,35.6,60,39.5,17.9,0,5,7,1,2026-04-01T12:56:04.918372+05:30
Thane,Maharashtra,19.2183,72.9781,30.7,62,0.0,1009.7,7.85,34.6,62,46.6,24.8,3,0,4,1,2026-04-01T12:56:04.918379+05:30
Nagpur,Maharashtra,21.1458,79.0882,34.8,40,0.0,975.2,8.6,37.1,74,27.0,22.2,0,5,7,1,2026-04-01T12:56:04.918385+05:30
Nashik,Maharashtra,19.9975,73.7898,32.1,48,0.0,947.4,8.1,32.0,55,30.9,19.3,0,5,7,1,2026-04-01T12:56:04.918391+05:30
Aurangabad,Maharashtra,19.8762,75.3433,34.7,36,0.0,945.8,8.8,36.4,84,43.7,34.0,0,5,7,1,2026-04-01T12:56:04.918397+05:30
Solapur,Maharashtra,17.6599,75.9064,36.6,31,0.0,958.3,8.9,29.2,108,40.3,33.2,0,5,10,1,2026-04-01T12:56:04.918403+05:30
Kolhapur,Maharashtra,16.705,74.2433,32.7,49,0.0,949.5,8.95,30.6,142,51.2,43.5,0,5,7,1,2026-04-01T12:56:04.918409+05:30
Goa,Goa,15.2993,74.124,32.5,63,0.0,998.9,8.85,32.0,71,30.7,25.0,3,5,7,1,2026-04-01T12:56:04.918414+05:30
Jodhpur,Rajasthan,26.2389,73.0243,32.7,27,0.0,985.4,7.75,32.0,108,112.2,20.0,0,5,7,0,2026-04-01T12:56:04.918420+05:30
Udaipur,Rajasthan,24.5854,73.7125,31.8,34,0.0,948.8,8.4,38.2,53,35.0,13.9,0,5,7,0,2026-04-01T12:56:04.918426+05:30
Kota,Rajasthan,25.2138,75.8648,35.5,32,0.0,981.1,7.45,33.8,57,48.3,18.9,0,5,10,1,2026-04-01T12:56:04.918432+05:30
Bikaner,Rajasthan,28.0229,73.3119,31.5,24,0.0,983.8,6.85,23.8,51,284.1,38.9,0,5,7,0,2026-04-01T12:56:04.918438+05:30
Ajmer,Rajasthan,26.4499,74.6399,31.9,26,0.0,957.3,7.4,28.4,57,81.3,18.1,0,5,7,0,2026-04-01T12:56:04.918443+05:30
Gwalior,Madhya Pradesh,26.2183,78.1828,33.0,40,0.0,986.3,7.5,35.3,118,161.1,37.7,0,5,7,1,2026-04-01T12:56:04.918449+05:30
Indore,Madhya Pradesh,22.7196,75.8577,33.8,38,0.0,950.0,8.3,36.0,69,35.2,22.8,0,5,7,1,2026-04-01T12:56:04.918455+05:30
Bhopal,Madhya Pradesh,23.2599,77.4126,35.6,29,0.0,955.8,8.25,39.2,59,25.3,15.9,0,5,10,0,2026-04-01T12:56:04.918460+05:30
Jabalpur,Madhya Pradesh,23.1815,79.9864,35.4,32,0.0,963.6,8.2,41.4,62,18.0,13.2,0,5,10,1,2026-04-01T12:56:04.918467+05:30
Ujjain,Madhya Pradesh,23.1765,75.7885,34.3,36,0.0,955.7,8.2,32.0,72,36.1,20.7,0,5,7,1,2026-04-01T12:56:04.918473+05:30
Visakhapatnam,Andhra Pradesh,17.6868,83.2185,34.1,50,0.0,1005.9,9.05,33.8,75,25.4,20.5,0,5,4,1,2026-04-01T12:56:04.918478+05:30
Vijayawada,Andhra Pradesh,16.5062,80.648,33.9,49,0.0,1004.6,9.05,28.1,65,21.2,15.5,0,5,4,1,2026-04-01T12:56:04.918484+05:30
Guntur,Andhra Pradesh,16.3067,80.4365,34.3,48,0.0,1005.7,9.1,29.5,65,19.6,13.7,0,5,4,1,2026-04-01T12:56:04.918490+05:30
Nellore,Andhra Pradesh,14.4426,79.9865,34.5,46,0.0,1007.4,9.2,29.5,51,17.4,13.8,0,5,4,1,2026-04-01T12:56:04.918496+05:30
Kurnool,Andhra Pradesh,15.8281,78.0373,36.7,33,0.0,978.1,9.1,27.0,81,32.1,24.9,0,5,10,1,2026-04-01T12:56:04.918503+05:30
Kakinada,Andhra Pradesh,16.9891,82.2475,35.1,47,0.0,1009.5,9.05,33.8,55,16.6,11.9,0,0,7,1,2026-04-01T12:56:04.918509+05:30
Tirupati,Andhra Pradesh,13.6288,79.4192,34.5,34,0.0,993.1,9.35,32.0,64,17.0,12.4,0,5,7,1,2026-04-01T12:56:04.918514+05:30
Warangal,Telangana,17.9689,79.5941,34.1,46,0.0,980.8,8.95,30.6,118,34.5,28.7,0,5,7,1,2026-04-01T12:56:04.918520+05:30
Nizamabad,Telangana,18.6725,78.0941,35.8,34,0.0,966.3,8.85,28.4,141,37.0,31.2,0,5,10,1,2026-04-01T12:56:04.918525+05:30
Mysore,Karnataka,12.2958,76.6396,31.8,35,0.0,929.8,9.5,27.4,94,31.0,21.2,0,5,7,0,2026-04-01T12:56:04.918531+05:30
Mangalore,Karnataka,12.9141,74.856,29.5,80,0.0,1007.6,9.05,20.9,78,35.6,28.5,7,5,4,1,2026-04-01T12:56:04.918536+05:30
Hubli-Dharwad,Karnataka,15.3647,75.124,33.3,45,0.0,942.3,9.15,33.8,117,49.0,40.0,0,5,7,1,2026-04-01T12:56:04.918542+05:30
Belgaum,Karnataka,15.8497,74.4977,29.7,62,0.0,927.5,9.1,27.7,116,47.4,40.2,7,5,7,1,2026-04-01T12:56:08.196526+05:30
Coimbatore,Tamil Nadu,11.0168,76.9558,34.1,33,0.0,963.0,9.45,34.2,69,22.9,15.1,0,5,7,0,2026-04-01T12:56:08.196549+05:30
Madurai,Tamil Nadu,9.9252,78.1198,34.2,41,0.0,993.7,9.0,23.4,60,12.6,8.8,0,5,7,1,2026-04-01T12:56:08.196558+05:30
Trichy,Tamil Nadu,10.7905,78.7047,33.4,48,0.0,1000.7,9.2,24.8,57,15.5,12.7,0,5,4,1,2026-04-01T12:56:08.196566+05:30
Salem,Tamil Nadu,11.6643,78.146,34.9,34,0.0,978.3,9.4,31.3,78,33.8,28.3,0,5,7,1,2026-04-01T12:56:08.196573+05:30
Tirunelveli,Tamil Nadu,8.7139,77.7567,36.1,35,0.0,1003.4,9.35,39.6,59,10.0,5.8,0,5,7,1,2026-04-01T12:56:08.196579+05:30
Vellore,Tamil Nadu,12.9165,79.1325,34.1,34,0.0,986.1,9.4,32.8,70,15.7,10.5,0,5,7,0,2026-04-01T12:56:08.196585+05:30
Erode,Tamil Nadu,11.341,77.7172,34.9,40,0.0,989.8,9.3,20.9,54,19.7,15.3,0,5,7,1,2026-04-01T12:56:08.196591+05:30
Kochi,Kerala,9.9312,76.2673,28.7,79,0.0,1008.9,9.15,29.2,96,31.8,26.8,7,0,4,1,2026-04-01T12:56:08.196597+05:30
Thiruvananthapuram,Kerala,8.5241,76.9366,29.0,76,0.0,1007.9,9.15,28.4,62,18.7,16.9,7,5,4,1,2026-04-01T12:56:08.196603+05:30
Kozhikode,Kerala,11.2588,75.7804,30.7,72,0.0,1008.3,9.15,26.6,72,21.4,17.2,3,0,4,1,2026-04-01T12:56:08.196608+05:30
Thrissur,Kerala,10.5276,76.2144,33.6,55,0.0,1007.2,9.2,34.2,94,29.3,22.9,0,5,4,1,2026-04-01T12:56:08.196615+05:30
Kannur,Kerala,11.8745,75.3704,30.9,71,0.0,1007.9,9.1,28.1,82,32.9,25.8,3,5,4,1,2026-04-01T12:56:08.196621+05:30
Patna,Bihar,25.5941,85.1376,33.6,48,0.0,1002.0,8.2,25.2,165,36.2,17.5,0,5,4,1,2026-04-01T12:56:08.196626+05:30
Gaya,Bihar,24.7914,85.0002,35.4,34,0.0,995.6,7.95,29.9,101,56.0,20.1,0,5,10,1,2026-04-01T12:56:08.196632+05:30
Muzaffarpur,Bihar,26.1209,85.3647,32.2,51,0.0,1002.3,8.15,30.2,168,65.9,43.1,0,5,4,1,2026-04-01T12:56:08.196638+05:30
Bhagalpur,Bihar,25.2425,87.0117,32.2,59,0.0,1002.6,8.25,25.9,158,72.2,42.4,0,5,4,1,2026-04-01T12:56:08.196644+05:30
Ranchi,Jharkhand,23.3441,85.3096,32.4,33,0.0,940.9,8.85,44.6,79,69.8,27.8,0,5,7,0,2026-04-01T12:56:08.196650+05:30
Jamshedpur,Jharkhand,22.8046,86.2029,36.2,38,0.0,992.5,8.7,20.5,127,79.2,38.3,0,5,10,1,2026-04-01T12:56:08.196655+05:30
Dhanbad,Jharkhand,23.7957,86.4304,35.7,32,0.0,981.5,8.6,31.3,163,73.8,32.0,0,5,10,1,2026-04-01T12:56:08.196661+05:30
Bokaro,Jharkhand,23.6693,86.1511,35.5,32,0.0,985.4,8.6,41.0,152,74.3,29.2,0,5,10,1,2026-04-01T12:56:08.196667+05:30
Bhubaneswar,Odisha,20.2961,85.8245,36.0,42,0.0,1004.3,8.85,28.4,110,42.5,30.7,0,5,7,1,2026-04-01T12:56:08.196673+05:30
Cuttack,Odisha,20.4625,85.8828,36.2,43,0.0,1006.0,8.9,23.4,110,42.5,30.7,0,5,7,1,2026-04-01T12:56:08.196678+05:30
Rourkela,Odisha,22.2604,84.8536,35.5,43,0.0,987.1,8.6,12.2,126,88.5,41.6,0,5,10,1,2026-04-01T12:56:08.196684+05:30
Raipur,Chhattisgarh,21.2514,81.6296,36.3,33,0.0,976.8,8.7,18.4,152,32.2,26.4,0,5,10,1,2026-04-01T12:56:08.196690+05:30
Bhilai,Chhattisgarh,21.1938,81.3509,36.1,33,0.0,977.2,8.7,19.8,141,30.6,23.7,0,5,10,1,2026-04-01T12:56:08.196695+05:30
Guwahati,Assam,26.1158,91.7086,27.0,77,0.0,1002.8,8.05,37.8,121,46.2,34.1,7,5,4,1,2026-04-01T12:56:08.196701+05:30
Agartala,Tripura,23.8315,91.2868,32.6,57,0.0,1007.6,8.35,32.0,102,37.1,29.6,0,5,4,1,2026-04-01T12:56:08.196707+05:30
Shillong,Meghalaya,25.5788,91.8933,19.2,63,0.0,858.1,8.45,60.5,74,40.0,28.6,3,5,7,0,2026-04-01T12:56:08.196713+05:30
Imphal,Manipur,24.817,93.9368,21.9,76,0.0,925.0,8.7,64.8,94,37.1,26.1,3,5,7,1,2026-04-01T12:56:08.196718+05:30
Aizawl,Mizoram,23.7271,92.7176,25.8,53,0.0,895.7,8.6,41.4,97,49.6,33.4,4,5,7,0,2026-04-01T12:56:08.196724+05:30
Kohima,Nagaland,25.6701,94.1077,20.5,63,0.0,856.8,8.55,75.2,67,30.3,18.2,3,5,7,0,2026-04-01T12:56:08.196730+05:30
Gangtok,Sikkim,27.3314,88.6138,18.6,79,0.0,839.2,8.45,20.2,106,31.3,22.7,3,5,7,0,2026-04-01T12:56:08.196736+05:30
Siliguri,West Bengal,26.7271,88.3953,23.8,77,0.0,995.3,8.05,32.4,151,49.7,37.5,3,5,7,1,2026-04-01T12:56:11.472554+05:30
Durgapur,West Bengal,23.5204,87.3119,35.6,41,0.0,996.2,8.55,21.6,158,70.8,40.6,0,5,10,1,2026-04-01T12:56:11.472579+05:30
Asansol,West Bengal,23.6739,86.9524,35.5,40,0.0,994.9,8.6,23.4,155,72.2,34.5,0,5,10,1,2026-04-01T12:56:11.472589+05:30
Pondicherry,Puducherry,11.9139,79.8145,33.0,54,0.0,1009.5,8.6,25.9,44,12.7,9.2,0,0,4,1,2026-04-01T12:56:11.472596+05:30
Port Blair,Andaman and Nicobar Islands,11.6234,92.7265,28.5,80,0.0,1007.8,3.85,15.5,40,16.1,14.3,7,5,0,1,2026-04-01T12:56:11.472603+05:30
Haridwar,Uttarakhand,29.9457,78.1642,32.1,26,0.0,978.2,6.6,26.3,74,43.5,13.7,0,5,7,0,2026-04-01T12:56:11.472610+05:30
Rishikesh,Uttarakhand,30.0869,78.2676,31.7,25,0.0,970.8,6.6,29.2,57,30.4,9.0,0,5,7,0,2026-04-01T12:56:11.472616+05:30
Nainital,Uttarakhand,29.3919,79.4542,24.0,37,0.0,811.6,7.45,37.8,58,34.3,10.3,0,5,7,0,2026-04-01T12:56:11.472623+05:30
Mussoorie,Uttarakhand,30.4599,78.0664,22.2,35,0.0,808.0,6.4,38.9,59,28.1,9.1,0,5,7,0,2026-04-01T12:56:11.472628+05:30
Dharamshala,Himachal Pradesh,32.219,76.3234,23.7,45,0.0,873.3,6.25,24.5,49,20.9,6.3,0,5,7,0,2026-04-01T12:56:11.472634+05:30
Dalhousie,Himachal Pradesh,32.5387,75.971,21.4,37,0.0,808.3,5.7,20.9,54,29.7,10.8,0,5,3,0,2026-04-01T12:56:11.472641+05:30
Patiala,Punjab,30.3398,76.3869,30.7,31,0.0,982.0,5.7,13.0,156,196.5,39.5,0,5,3,0,2026-04-01T12:56:11.472647+05:30
Bhatinda,Punjab,30.211,74.9455,29.2,43,0.0,987.3,6.05,20.5,101,146.7,31.2,4,5,7,0,2026-04-01T12:56:11.472653+05:30
Rohtak,Haryana,28.8955,76.6066,30.2,39,0.0,985.8,6.6,29.2,148,177.9,37.6,0,5,7,0,2026-04-01T12:56:11.472658+05:30
Panipat,Haryana,29.3909,76.9635,30.9,36,0.0,984.3,6.25,20.2,161,215.6,39.2,0,5,7,0,2026-04-01T12:56:11.472664+05:30
Mathura,Uttar Pradesh,27.4924,77.6737,31.3,43,0.0,990.7,7.15,24.5,338,257.0,47.3,0,5,7,1,2026-04-01T12:56:11.472670+05:30
Vrindavan,Uttar Pradesh,27.5823,77.7027,31.7,42,0.0,991.0,7.1,28.8,338,257.0,47.3,0,5,7,1,2026-04-01T12:56:11.472676+05:30
Ayodhya,Uttar Pradesh,26.7922,82.1998,33.3,38,0.0,997.7,7.55,29.2,96,57.4,20.0,0,5,7,1,2026-04-01T12:56:11.472681+05:30
Ratlam,Madhya Pradesh,23.3315,75.0367,33.8,37,0.0,956.6,8.15,34.6,68,36.1,21.4,0,5,7,1,2026-04-01T12:56:11.472687+05:30
Sagar,Madhya Pradesh,23.8388,78.7378,35.5,27,0.0,952.6,8.25,37.1,45,22.5,13.3,0,5,10,0,2026-04-01T12:56:11.472693+05:30
Satna,Madhya Pradesh,24.6005,80.8322,34.6,35,0.0,974.2,8.0,24.5,68,53.2,19.8,0,5,7,1,2026-04-01T12:56:11.472699+05:30
Akola,Maharashtra,20.7002,77.0082,36.0,38,0.0,976.4,8.55,20.9,78,25.7,18.3,0,5,10,1,2026-04-01T12:56:11.472705+05:30
Amravati,Maharashtra,20.9374,77.7796,35.7,35,0.0,968.9,8.6,26.3,75,22.4,16.2,0,5,10,1,2026-04-01T12:56:11.472712+05:30
Latur,Maharashtra,18.4088,76.5604,34.8,33,0.0,941.6,8.85,28.1,120,31.2,25.7,0,5,7,1,2026-04-01T12:56:11.472718+05:30
Nanded,Maharashtra,19.1383,77.3091,36.6,34,0.0,969.9,8.75,24.8,110,28.5,22.8,0,5,10,1,2026-04-01T12:56:11.472723+05:30
Gulbarga,Karnataka,17.3297,76.8343,35.7,34,0.0,960.2,8.95,39.6,108,36.7,30.5,0,5,10,1,2026-04-01T12:56:11.472729+05:30
Bidar,Karnataka,17.9104,77.5199,33.9,38,0.0,937.7,8.95,25.2,127,34.1,27.9,0,5,7,1,2026-04-01T12:56:11.472735+05:30
Hospet,Karnataka,15.2689,76.3909,32.8,44,0.0,957.3,9.15,28.8,116,41.9,34.6,0,5,7,1,2026-04-01T12:56:11.472740+05:30
Tirupur,Tamil Nadu,11.1085,77.3411,34.3,36,0.0,976.4,9.4,21.6,58,20.7,15.5,0,5,7,1,2026-04-01T12:56:11.472746+05:30
Alappuzha,Kerala,9.4981,76.3388,28.8,80,0.0,1009.0,9.2,27.0,83,22.6,20.5,7,0,4,1,2026-04-01T12:56:11.472752+05:30
Munnar,Kerala,10.0889,77.0595,29.9,38,0.0,859.6,9.75,29.2,69,19.2,11.3,4,5,7,0,2026-04-01T12:56:11.472758+05:30
Silchar,Assam,24.8333,92.7789,26.0,80,0.0,1007.7,8.4,31.0,117,46.0,36.9,7,5,4,1,2026-04-01T12:56:11.472764+05:30
Dibrugarh,Assam,27.4728,94.912,24.2,86,0.0,996.6,7.65,34.2,104,68.7,45.4,3,5,7,1,2026-04-01T12:56:11.472770+05:30
