city,state,latitude,longitude,temp,humidity,rain,pressure,uv_index,wind_gusts,aqi,pm10,pm2_5,no2,co,o3,so2,mosquito_risk,arthritis_risk,migraine_risk,frizz_risk,updated_at
Delhi,Delhi,28.6139,77.209,30.2,50,0.0,976.8,7.8,35.3,372,175.1,52.9,34.9,338.0,33.0,13.7,0,5,7,1,2026-06-23T03:34:46.110183+05:30
Mumbai,Maharashtra,19.076,72.8777,25.4,94,0.3,1005.1,1.3,35.3,38,8.1,6.4,12.9,137.0,38.0,11.0,10,5,0,1,2026-06-23T03:34:46.110218+05:30
Bangalore,Karnataka,12.9716,77.5946,20.3,96,0.0,910.1,5.5,52.2,24,3.5,3.2,7.4,167.0,36.0,3.6,3,5,3,1,2026-06-23T03:34:46.110233+05:30
Hyderabad,Telangana,17.385,78.4867,27.6,64,0.0,950.9,3.1,48.2,38,8.7,7.9,12.7,147.0,37.0,5.0,7,5,3,1,2026-06-23T03:34:46.110242+05:30
Chennai,Tamil Nadu,13.0827,80.2707,27.8,80,0.0,1004.8,6.35,37.1,58,9.3,9.1,15.0,185.0,44.0,9.0,7,5,4,1,2026-06-23T03:34:46.110250+05:30
Kolkata,West Bengal,22.5726,88.3639,27.3,93,0.0,999.4,8.5,26.3,118,54.4,51.3,18.3,373.0,61.0,12.2,7,5,7,1,2026-06-23T03:34:46.110258+05:30
Pune,Maharashtra,18.5204,73.8567,24.1,86,0.0,945.1,3.1,36.4,24,6.1,5.4,11.1,110.0,29.0,5.8,3,5,3,1,2026-06-23T03:34:46.110265+05:30
Ahmedabad,Gujarat,23.0225,72.5714,30.0,72,0.0,997.4,8.05,42.1,65,34.1,15.7,8.0,161.0,35.0,4.2,7,5,7,1,2026-06-23T03:34:46.110271+05:30
Jaipur,Rajasthan,26.9124,75.7873,27.8,57,0.0,954.2,8.2,35.6,142,107.6,47.4,20.4,271.0,34.0,7.9,4,5,7,1,2026-06-23T03:34:46.110278+05:30
Lucknow,Uttar Pradesh,26.8467,80.9462,31.5,48,0.0,986.7,8.3,40.3,157,156.5,62.9,19.9,307.0,69.0,11.9,0,5,7,1,2026-06-23T03:34:46.110289+05:30
Kanpur,Uttar Pradesh,26.4499,80.3319,31.6,45,0.0,985.3,8.25,43.6,218,322.2,83.8,23.1,280.0,54.0,9.3,0,5,7,1,2026-06-23T03:34:46.110295+05:30
Chandigarh,Chandigarh,30.7333,76.7794,26.4,56,0.0,962.4,7.8,36.0,96,43.2,40.0,38.1,533.0,26.0,9.5,4,5,7,1,2026-06-23T03:34:46.110302+05:30
Srinagar,Jammu and Kashmir,34.0837,74.7973,14.5,99,0.0,838.5,9.1,18.7,73,31.5,30.5,21.2,624.0,11.0,1.0,3,10,7,0,2026-06-23T03:34:46.110309+05:30
Jammu,Jammu and Kashmir,32.7266,74.857,25.4,56,0.0,966.3,8.65,35.6,81,36.9,35.3,47.0,469.0,0.0,2.6,4,5,7,0,2026-06-23T03:34:46.110316+05:30
Amritsar,Punjab,31.634,74.8723,26.3,73,0.0,974.5,8.5,18.4,130,85.4,72.4,69.5,513.0,7.0,13.5,7,5,7,1,2026-06-23T03:34:46.110322+05:30
Ludhiana,Punjab,30.901,75.8573,27.4,65,0.0,972.7,8.05,32.4,116,65.9,49.6,31.6,335.0,41.0,6.4,7,5,7,1,2026-06-23T03:34:46.110328+05:30
Jalandhar,Punjab,31.326,75.5762,27.7,64,0.0,973.7,8.25,27.7,126,74.7,60.3,51.1,389.0,16.0,6.8,7,5,7,1,2026-06-23T03:34:46.110334+05:30
Dehradun,Uttarakhand,30.6284,78.0322,14.9,93,0.0,824.6,6.4,32.4,63,34.7,23.7,27.5,308.0,27.0,0.8,3,10,7,0,2026-06-23T03:34:46.110340+05:30
Shimla,Himachal Pradesh,31.1048,77.1734,12.8,72,0.0,778.8,8.35,40.3,70,24.2,19.0,17.7,195.0,51.0,1.2,3,5,7,0,2026-06-23T03:34:46.110346+05:30
Manali,Himachal Pradesh,32.2396,77.1887,13.5,71,0.0,813.0,9.65,36.4,39,4.3,3.9,13.3,178.0,128.0,0.0,3,5,7,0,2026-06-23T03:34:46.110355+05:30
Gurgaon,Haryana,28.4595,77.0266,27.7,61,0.0,975.3,7.85,47.9,655,214.2,63.1,33.0,188.0,34.0,11.7,7,5,7,1,2026-06-23T03:34:46.110361+05:30
Noida,Uttar Pradesh,28.5355,77.391,29.0,58,0.0,978.2,7.8,27.7,655,214.2,63.1,33.0,376.0,34.0,11.7,4,5,7,1,2026-06-23T03:34:46.110369+05:30
Ghaziabad,Uttar Pradesh,28.6692,77.4538,28.3,58,0.0,976.5,7.8,29.2,307,156.9,53.2,38.2,384.0,33.0,18.6,4,5,7,1,2026-06-23T03:34:46.110376+05:30
Faridabad,Haryana,28.4089,77.3178,29.7,52,0.0,977.6,7.85,41.0,655,214.2,63.1,33.0,257.0,34.0,11.7,4,5,7,1,2026-06-23T03:34:46.110382+05:30
Meerut,Uttar Pradesh,28.9845,77.7064,28.4,58,0.0,975.3,7.7,34.9,307,156.9,53.2,38.2,376.0,33.0,18.6,4,5,7,1,2026-06-23T03:34:46.110388+05:30
Agra,Uttar Pradesh,27.1767,78.0081,30.2,55,0.0,981.6,8.1,33.1,731,191.4,50.8,25.8,358.0,30.0,5.5,0,5,7,1,2026-06-23T03:34:46.110394+05:30
Varanasi,Uttar Pradesh,25.3176,82.9739,30.4,64,0.0,990.2,8.75,41.8,112,44.8,32.6,15.2,386.0,48.0,6.6,3,5,7,1,2026-06-23T03:34:46.110401+05:30
Prayagraj,Uttar Pradesh,25.4358,81.8463,32.0,47,0.0,989.0,8.7,41.4,119,83.8,51.8,38.3,196.0,21.0,9.5,0,5,7,1,2026-06-23T03:34:46.110407+05:30
Gorakhpur,Uttar Pradesh,26.7606,83.3732,28.3,84,0.0,990.4,8.3,37.1,162,110.6,82.9,20.6,650.0,85.0,13.7,7,5,7,1,2026-06-23T03:34:46.110414+05:30
Bareilly,Uttar Pradesh,28.367,79.4304,29.4,55,0.0,980.2,8.1,32.8,161,236.6,79.2,26.6,374.0,49.0,14.0,4,5,7,1,2026-06-23T03:34:46.110425+05:30
Aligarh,Uttar Pradesh,27.8974,78.088,28.7,55,0.0,979.3,7.95,31.7,520,329.7,77.5,27.9,352.0,37.0,8.9,4,5,7,1,2026-06-23T03:34:46.110432+05:30
Moradabad,Uttar Pradesh,28.8386,78.7733,28.8,56,0.0,977.2,7.95,37.8,167,310.1,94.3,25.6,434.0,45.0,14.2,4,5,7,1,2026-06-23T03:34:46.110438+05:30
Saharanpur,Uttar Pradesh,29.9637,77.546,26.2,67,0.0,969.4,7.45,34.2,158,436.8,131.3,42.7,398.0,30.0,11.3,7,5,7,1,2026-06-23T03:34:46.110444+05:30
Jhansi,Uttar Pradesh,25.4484,78.5685,29.5,58,0.0,972.4,8.45,37.1,91,57.9,32.9,7.5,178.0,67.0,7.5,4,5,7,1,2026-06-23T03:34:49.471295+05:30
Surat,Gujarat,21.1702,72.8311,25.4,95,0.2,1002.6,6.35,41.8,60,26.7,18.2,25.1,294.0,22.0,36.6,10,5,4,1,2026-06-23T03:34:49.471316+05:30
Vadodara,Gujarat,22.3072,73.1812,29.0,80,0.0,999.9,8.0,44.3,53,16.9,12.3,17.5,123.0,25.0,17.4,7,5,7,1,2026-06-23T03:34:49.471326+05:30
Rajkot,Gujarat,22.3039,70.8022,28.1,77,0.0,989.7,7.55,44.3,68,41.6,16.1,5.7,102.0,39.0,5.3,7,5,7,1,2026-06-23T03:34:49.471333+05:30
Thane,Maharashtra,19.2183,72.9781,25.0,97,0.3,1004.5,1.25,31.0,38,8.1,6.4,12.9,140.0,38.0,11.0,10,5,0,1,2026-06-23T03:34:49.471341+05:30
Nagpur,Maharashtra,21.1458,79.0882,26.7,77,0.0,970.1,7.3,54.0,66,8.0,7.7,11.7,185.0,60.0,11.2,7,5,7,1,2026-06-23T03:34:49.471348+05:30
Nashik,Maharashtra,19.9975,73.7898,23.0,96,0.0,942.2,7.45,38.2,25,8.2,6.9,12.8,129.0,36.0,15.2,3,5,7,1,2026-06-23T03:34:49.471355+05:30
Aurangabad,Maharashtra,19.8762,75.3433,25.1,83,0.0,941.1,7.55,32.0,32,5.1,5.0,9.1,145.0,50.0,8.1,7,5,7,1,2026-06-23T03:34:49.471361+05:30
Solapur,Maharashtra,17.6599,75.9064,26.6,72,0.0,955.3,6.55,56.9,23,5.0,4.0,4.3,132.0,39.0,1.5,7,5,7,1,2026-06-23T03:34:49.471368+05:30
Kolhapur,Maharashtra,16.705,74.2433,23.9,87,0.0,945.4,6.0,56.9,19,3.3,2.9,3.9,128.0,39.0,1.5,3,5,3,1,2026-06-23T03:34:49.471375+05:30
Goa,Goa,15.2993,74.124,23.8,99,0.0,997.2,3.8,35.3,25,12.6,7.2,1.8,123.0,46.0,0.5,3,5,3,1,2026-06-23T03:34:49.471381+05:30
Jodhpur,Rajasthan,26.2389,73.0243,30.8,48,0.0,977.0,8.4,37.1,129,132.2,37.6,8.3,125.0,42.0,2.0,0,5,7,1,2026-06-23T03:34:49.471387+05:30
Udaipur,Rajasthan,24.5854,73.7125,25.7,75,0.0,942.1,8.8,35.6,69,15.8,11.9,13.2,151.0,40.0,15.1,7,5,7,1,2026-06-23T03:34:49.471394+05:30
Kota,Rajasthan,25.2138,75.8648,29.4,58,0.0,973.4,8.3,34.6,87,42.5,24.3,8.9,172.0,51.0,4.7,4,5,7,1,2026-06-23T03:34:49.471400+05:30
Bikaner,Rajasthan,28.0229,73.3119,30.7,45,0.0,975.4,8.5,35.3,142,173.7,45.5,4.3,128.0,50.0,2.5,0,5,7,1,2026-06-23T03:34:49.471406+05:30
Ajmer,Rajasthan,26.4499,74.6399,27.4,52,0.0,949.2,8.35,45.7,96,48.2,25.4,13.2,169.0,38.0,4.2,4,5,7,1,2026-06-23T03:34:49.471412+05:30
Gwalior,Madhya Pradesh,26.2183,78.1828,29.1,52,0.0,977.2,8.25,42.1,104,83.1,39.6,15.4,160.0,36.0,3.4,4,5,7,1,2026-06-23T03:34:49.471419+05:30
Indore,Madhya Pradesh,22.7196,75.8577,26.6,72,0.0,944.5,7.85,38.2,61,15.3,14.4,8.9,191.0,57.0,7.1,7,5,7,1,2026-06-23T03:34:49.471425+05:30
Bhopal,Madhya Pradesh,23.2599,77.4126,25.8,75,0.0,949.8,7.6,38.2,71,17.5,13.8,6.9,245.0,53.0,3.1,7,5,7,1,2026-06-23T03:34:49.471431+05:30
Jabalpur,Madhya Pradesh,23.1815,79.9864,28.4,61,0.0,957.4,8.3,34.6,89,26.0,21.1,11.7,208.0,45.0,3.8,7,5,7,1,2026-06-23T03:34:49.471437+05:30
Ujjain,Madhya Pradesh,23.1765,75.7885,27.4,66,0.0,950.1,6.7,35.6,63,16.1,15.0,6.7,240.0,63.0,8.4,7,5,7,1,2026-06-23T03:34:49.471443+05:30
Visakhapatnam,Andhra Pradesh,17.6868,83.2185,28.5,85,0.0,999.2,8.5,32.4,91,30.2,27.5,16.9,345.0,71.0,30.4,7,5,7,1,2026-06-23T03:34:49.471450+05:30
Vijayawada,Andhra Pradesh,16.5062,80.648,27.5,77,0.0,999.3,3.45,38.5,83,24.5,23.6,9.9,236.0,73.0,4.5,7,5,3,1,2026-06-23T03:34:49.471456+05:30
Guntur,Andhra Pradesh,16.3067,80.4365,27.4,77,0.0,1000.6,1.5,39.2,77,21.3,20.7,10.8,247.0,62.0,4.5,7,5,0,1,2026-06-23T03:34:49.471462+05:30
Nellore,Andhra Pradesh,14.4426,79.9865,26.3,86,0.0,1003.2,5.6,37.1,62,7.9,7.5,7.0,120.0,56.0,3.2,7,5,0,1,2026-06-23T03:34:49.471469+05:30
Kurnool,Andhra Pradesh,15.8281,78.0373,27.2,70,0.0,975.5,4.55,46.1,26,6.1,5.3,10.6,156.0,29.0,3.9,7,5,3,1,2026-06-23T03:34:49.471476+05:30
Kakinada,Andhra Pradesh,16.9891,82.2475,28.6,82,0.0,1003.6,8.05,42.1,78,22.2,19.2,5.1,197.0,99.0,6.5,7,5,4,1,2026-06-23T03:34:49.471482+05:30
Tirupati,Andhra Pradesh,13.6288,79.4192,25.6,85,0.0,988.8,6.55,37.8,59,8.7,8.2,14.8,160.0,31.0,2.6,7,5,7,1,2026-06-23T03:34:49.471488+05:30
Warangal,Telangana,17.9689,79.5941,24.5,93,0.0,976.3,3.9,37.1,54,13.2,12.9,10.9,222.0,52.0,4.0,3,5,3,1,2026-06-23T03:34:49.471494+05:30
Nizamabad,Telangana,18.6725,78.0941,25.8,81,0.0,962.2,8.8,59.0,31,9.0,8.8,10.1,154.0,45.0,3.4,7,5,7,1,2026-06-23T03:34:49.471500+05:30
Mysore,Karnataka,12.2958,76.6396,21.3,94,0.0,927.7,7.1,47.2,19,2.0,1.9,4.4,119.0,40.0,1.7,3,5,7,1,2026-06-23T03:34:49.471507+05:30
Mangalore,Karnataka,12.9141,74.856,24.5,97,0.1,1006.9,7.85,36.7,24,10.2,6.7,3.1,114.0,39.0,1.3,6,5,4,1,2026-06-23T03:34:49.471513+05:30
Hubli-Dharwad,Karnataka,15.3647,75.124,22.6,93,0.0,939.3,7.95,63.4,21,1.2,0.8,1.4,90.0,47.0,0.6,3,5,7,1,2026-06-23T03:34:49.471558+05:30
Belgaum,Karnataka,15.8497,74.4977,21.5,98,0.1,923.5,2.7,51.5,20,1.9,1.7,2.9,108.0,41.0,1.1,6,5,3,1,2026-06-23T03:34:52.831760+05:30
Coimbatore,Tamil Nadu,11.0168,76.9558,23.0,91,0.0,960.7,8.0,51.5,20,3.0,2.6,3.9,111.0,40.0,2.1,3,5,7,1,2026-06-23T03:34:52.831787+05:30
Madurai,Tamil Nadu,9.9252,78.1198,27.4,61,0.0,992.3,8.35,44.6,56,29.9,29.4,37.6,163.0,0.0,6.8,7,5,7,1,2026-06-23T03:34:52.831798+05:30
Trichy,Tamil Nadu,10.7905,78.7047,27.2,68,0.0,998.7,8.35,52.9,26,4.1,3.5,6.2,123.0,37.0,2.6,7,5,7,1,2026-06-23T03:34:52.831806+05:30
Salem,Tamil Nadu,11.6643,78.146,24.8,86,0.0,976.0,7.85,43.9,39,13.1,11.9,17.8,308.0,27.0,5.9,3,5,7,1,2026-06-23T03:34:52.831814+05:30
Tirunelveli,Tamil Nadu,8.7139,77.7567,27.4,71,0.0,1002.9,1.75,43.9,17,5.4,4.6,7.2,140.0,28.0,1.8,7,5,0,1,2026-06-23T03:34:52.831821+05:30
Vellore,Tamil Nadu,12.9165,79.1325,26.7,70,0.0,982.3,8.2,41.4,51,9.1,8.4,14.3,189.0,28.0,4.3,7,5,7,1,2026-06-23T03:34:52.831828+05:30
Erode,Tamil Nadu,11.341,77.7172,25.6,79,0.0,988.2,7.6,32.8,29,8.9,8.0,12.0,141.0,30.0,3.2,7,5,7,1,2026-06-23T03:34:52.831834+05:30
Kochi,Kerala,9.9312,76.2673,25.3,91,0.0,1009.6,7.9,37.4,37,10.4,8.9,12.2,83.0,23.0,3.8,7,0,4,1,2026-06-23T03:34:52.831841+05:30
Thiruvananthapuram,Kerala,8.5241,76.9366,24.4,97,0.1,1009.2,5.55,46.8,21,10.4,6.7,4.3,101.0,43.0,2.0,6,0,0,1,2026-06-23T03:34:52.831848+05:30
Kozhikode,Kerala,11.2588,75.7804,23.6,99,0.0,1008.4,7.5,35.6,25,6.2,3.1,0.6,157.0,53.0,0.4,3,0,4,1,2026-06-23T03:34:52.831855+05:30
Thrissur,Kerala,10.5276,76.2144,23.8,100,0.0,1007.7,8.1,35.3,36,11.7,10.0,9.5,192.0,26.0,2.8,3,5,4,1,2026-06-23T03:34:52.831862+05:30
Kannur,Kerala,11.8745,75.3704,23.7,98,0.0,1007.7,6.85,34.9,20,6.6,4.7,4.4,135.0,37.0,1.4,3,5,4,1,2026-06-23T03:34:52.831868+05:30
Patna,Bihar,25.5941,85.1376,27.1,94,0.0,993.3,8.6,32.0,150,83.6,67.3,23.9,578.0,47.0,11.2,7,5,7,1,2026-06-23T03:34:52.831875+05:30
Gaya,Bihar,24.7914,85.0002,29.2,70,0.0,986.8,8.65,37.4,98,58.8,39.6,14.9,244.0,60.0,8.4,7,5,7,1,2026-06-23T03:34:52.831881+05:30
Muzaffarpur,Bihar,26.1209,85.3647,25.6,94,0.0,994.1,8.7,26.3,155,95.7,79.2,16.8,512.0,72.0,13.2,7,5,7,1,2026-06-23T03:34:52.831888+05:30
Bhagalpur,Bihar,25.2425,87.0117,26.3,97,0.0,994.8,8.85,22.3,150,79.4,52.4,17.1,302.0,59.0,6.8,7,5,7,1,2026-06-23T03:34:52.831894+05:30
Ranchi,Jharkhand,23.3441,85.3096,24.1,84,0.0,932.1,8.95,37.8,87,32.2,24.7,8.0,241.0,78.0,4.5,3,5,7,1,2026-06-23T03:34:52.831901+05:30
Jamshedpur,Jharkhand,22.8046,86.2029,26.0,83,0.0,984.9,9.05,43.2,117,42.5,38.6,16.4,362.0,83.0,25.4,7,5,7,1,2026-06-23T03:34:52.831907+05:30
Dhanbad,Jharkhand,23.7957,86.4304,26.3,85,0.0,973.5,9.1,27.0,153,76.8,66.1,61.5,202.0,19.0,116.9,7,5,7,1,2026-06-23T03:34:52.831914+05:30
Bokaro,Jharkhand,23.6693,86.1511,26.6,82,0.0,977.3,8.85,29.9,133,54.5,43.3,35.9,257.0,37.0,77.1,7,5,7,1,2026-06-23T03:34:52.831920+05:30
Bhubaneswar,Odisha,20.2961,85.8245,27.7,91,0.0,997.3,9.05,33.1,76,26.8,25.8,12.3,307.0,60.0,4.1,7,5,7,1,2026-06-23T03:34:52.831931+05:30
Cuttack,Odisha,20.4625,85.8828,28.0,85,0.0,999.0,9.15,36.7,76,26.8,25.8,12.3,303.0,60.0,4.1,7,5,7,1,2026-06-23T03:34:52.831938+05:30
Rourkela,Odisha,22.2604,84.8536,26.5,86,0.0,980.1,9.0,38.5,102,38.6,35.2,10.5,267.0,75.0,7.4,7,5,7,1,2026-06-23T03:34:52.831945+05:30
Raipur,Chhattisgarh,21.2514,81.6296,27.9,68,0.0,970.7,8.95,45.0,88,27.1,26.5,36.8,592.0,50.0,54.5,7,5,7,1,2026-06-23T03:34:52.831951+05:30
Bhilai,Chhattisgarh,21.1938,81.3509,27.7,69,0.0,971.2,8.95,44.3,85,22.9,22.3,30.2,719.0,48.0,42.9,7,5,7,1,2026-06-23T03:34:52.831958+05:30
Guwahati,Assam,26.1158,91.7086,24.8,99,0.2,996.0,8.05,29.9,79,34.3,26.8,7.1,323.0,65.0,3.0,6,5,7,1,2026-06-23T03:34:52.831965+05:30
Agartala,Tripura,23.8315,91.2868,24.8,98,0.0,1001.1,7.6,38.2,65,17.1,15.9,14.9,217.0,46.0,4.5,3,5,4,1,2026-06-23T03:34:52.831971+05:30
Shillong,Meghalaya,25.5788,91.8933,18.5,96,0.0,852.7,7.35,29.2,55,14.7,12.0,3.8,206.0,83.0,2.3,3,10,7,1,2026-06-23T03:34:52.831978+05:30
Imphal,Manipur,24.817,93.9368,22.0,98,0.0,918.7,8.1,29.2,71,29.3,27.6,10.8,413.0,31.0,2.5,3,5,7,1,2026-06-23T03:34:52.831985+05:30
Aizawl,Mizoram,23.7271,92.7176,18.9,98,0.0,887.7,7.65,28.1,21,3.5,3.4,4.5,159.0,35.0,0.4,3,10,7,1,2026-06-23T03:34:52.831991+05:30
Kohima,Nagaland,25.6701,94.1077,18.4,94,0.0,850.6,7.05,22.3,54,20.2,16.2,5.9,248.0,39.0,1.0,3,10,7,1,2026-06-23T03:34:52.831998+05:30
Gangtok,Sikkim,27.3314,88.6138,17.2,94,0.1,832.3,9.2,34.9,56,11.9,8.7,5.5,407.0,112.0,2.8,6,10,7,1,2026-06-23T03:34:52.832005+05:30
Siliguri,West Bengal,26.7271,88.3953,23.7,98,0.0,987.2,8.8,20.9,78,39.6,28.5,7.6,428.0,122.0,5.2,3,5,7,1,2026-06-23T03:34:56.190892+05:30
Durgapur,West Bengal,23.5204,87.3119,26.6,91,0.0,988.6,9.0,29.2,157,83.6,80.6,52.9,1189.0,17.0,58.3,7,5,7,1,2026-06-23T03:34:56.190920+05:30
Asansol,West Bengal,23.6739,86.9524,26.5,88,0.0,987.1,9.05,30.6,153,85.0,76.8,58.3,674.0,16.0,71.5,7,5,7,1,2026-06-23T03:34:56.190930+05:30
Pondicherry,Puducherry,11.9139,79.8145,28.0,73,0.0,1006.2,7.5,40.3,55,17.9,16.4,21.6,287.0,33.0,11.4,7,5,4,1,2026-06-23T03:34:56.190938+05:30
Port Blair,Andaman and Nicobar Islands,11.6234,92.7265,27.3,81,0.0,1006.2,8.75,45.0,27,9.4,5.3,0.2,88.0,41.0,0.2,7,5,4,1,2026-06-23T03:34:56.190945+05:30
Haridwar,Uttarakhand,29.9457,78.1642,25.2,73,0.0,967.4,7.6,28.4,119,183.9,75.0,35.4,474.0,47.0,14.0,7,5,7,1,2026-06-23T03:34:56.190952+05:30
Rishikesh,Uttarakhand,30.0869,78.2676,23.5,77,0.0,960.0,7.7,23.4,92,68.5,39.1,13.4,384.0,99.0,9.5,3,5,7,1,2026-06-23T03:34:56.190959+05:30
Nainital,Uttarakhand,29.3919,79.4542,14.4,98,0.0,800.8,6.6,33.8,112,47.5,29.5,13.8,338.0,73.0,3.1,3,10,7,0,2026-06-23T03:34:56.190966+05:30
Mussoorie,Uttarakhand,30.4599,78.0664,14.4,82,0.0,797.6,6.8,40.0,82,47.5,36.9,28.4,298.0,56.0,6.1,3,10,7,0,2026-06-23T03:34:56.190973+05:30
Dharamshala,Himachal Pradesh,32.219,76.3234,20.5,57,0.0,864.6,8.55,40.7,44,10.9,8.4,15.1,204.0,48.0,0.1,0,5,7,0,2026-06-23T03:34:56.190979+05:30
Dalhousie,Himachal Pradesh,32.5387,75.971,12.1,87,0.0,798.0,8.8,37.8,75,33.5,28.1,35.7,229.0,21.0,1.3,3,10,7,0,2026-06-23T03:34:56.190987+05:30
Patiala,Punjab,30.3398,76.3869,27.5,66,0.0,972.3,7.7,32.4,280,285.9,85.7,23.4,270.0,48.0,7.0,7,5,7,1,2026-06-23T03:34:56.190994+05:30
Bhatinda,Punjab,30.211,74.9455,28.2,61,0.0,977.6,8.3,28.8,103,105.5,56.1,59.9,385.0,12.0,5.1,7,5,7,1,2026-06-23T03:34:56.191002+05:30
Rohtak,Haryana,28.8955,76.6066,26.9,67,0.0,975.5,7.75,33.1,453,191.4,50.4,30.5,292.0,32.0,4.0,7,5,7,1,2026-06-23T03:34:56.191008+05:30
Panipat,Haryana,29.3909,76.9635,27.0,68,0.0,974.1,7.65,32.4,1432,385.6,95.5,31.3,315.0,32.0,5.4,7,5,7,1,2026-06-23T03:34:56.191015+05:30
Mathura,Uttar Pradesh,27.4924,77.6737,28.2,62,0.0,980.5,8.05,39.2,603,174.2,49.4,28.5,331.0,27.0,3.7,7,5,7,1,2026-06-23T03:34:56.191021+05:30
Vrindavan,Uttar Pradesh,27.5823,77.7027,27.6,66,0.0,980.9,8.05,38.5,603,174.2,49.4,28.5,326.0,27.0,3.7,7,5,7,1,2026-06-23T03:34:56.191028+05:30
Ayodhya,Uttar Pradesh,26.7922,82.1998,28.6,80,0.0,988.1,8.4,36.0,159,131.3,60.8,29.6,957.0,44.0,11.1,7,5,7,1,2026-06-23T03:34:56.191034+05:30
Ratlam,Madhya Pradesh,23.3315,75.0367,26.0,76,0.0,950.9,8.45,34.2,61,15.4,14.4,8.0,229.0,60.0,12.2,7,5,7,1,2026-06-23T03:34:56.191041+05:30
Sagar,Madhya Pradesh,23.8388,78.7378,27.2,66,0.0,946.0,6.85,38.9,93,31.7,20.7,8.6,211.0,52.0,3.2,7,5,7,1,2026-06-23T03:34:56.191047+05:30
Satna,Madhya Pradesh,24.6005,80.8322,29.7,55,0.0,966.0,8.8,39.2,86,47.0,29.7,9.1,160.0,56.0,3.6,4,5,7,1,2026-06-23T03:34:56.191054+05:30
Akola,Maharashtra,20.7002,77.0082,27.2,83,0.0,972.0,7.95,37.1,44,9.3,9.1,12.2,173.0,52.0,7.0,7,5,7,1,2026-06-23T03:34:56.191061+05:30
Amravati,Maharashtra,20.9374,77.7796,25.4,90,0.1,964.4,7.85,38.9,51,10.0,9.6,12.1,161.0,55.0,6.3,10,5,7,1,2026-06-23T03:34:56.191068+05:30
Latur,Maharashtra,18.4088,76.5604,25.1,86,0.0,937.3,7.95,47.9,26,4.1,3.5,5.5,143.0,41.0,1.2,7,5,7,1,2026-06-23T03:34:56.191075+05:30
Nanded,Maharashtra,19.1383,77.3091,26.7,77,0.0,965.9,8.15,43.2,37,5.6,5.6,7.8,152.0,48.0,2.4,7,5,7,1,2026-06-23T03:34:56.191082+05:30
Gulbarga,Karnataka,17.3297,76.8343,26.6,71,0.0,956.8,8.35,64.4,25,6.2,4.9,7.8,147.0,34.0,2.9,7,5,7,1,2026-06-23T03:34:56.191088+05:30
Bidar,Karnataka,17.9104,77.5199,26.5,70,0.0,933.3,7.5,59.0,27,7.5,6.9,10.0,136.0,40.0,2.0,7,5,7,1,2026-06-23T03:34:56.191095+05:30
Hospet,Karnataka,15.2689,76.3909,24.1,86,0.0,954.2,7.1,55.4,21,2.8,2.1,2.9,108.0,43.0,1.1,3,5,7,1,2026-06-23T03:34:56.191101+05:30
Tirupur,Tamil Nadu,11.1085,77.3411,23.7,89,0.0,974.3,7.9,51.1,31,10.7,10.0,14.5,112.0,26.0,3.8,3,5,7,1,2026-06-23T03:34:56.191108+05:30
Alappuzha,Kerala,9.4981,76.3388,25.5,92,0.1,1009.6,5.55,38.9,29,9.3,6.9,7.7,81.0,35.0,2.8,10,0,0,1,2026-06-23T03:34:56.191114+05:30
Munnar,Kerala,10.0889,77.0595,16.5,99,0.1,856.1,8.15,41.0,19,3.7,2.8,3.9,88.0,29.0,1.2,6,10,7,1,2026-06-23T03:34:56.191121+05:30
Silchar,Assam,24.8333,92.7789,25.1,96,0.0,1000.3,8.3,23.4,83,49.7,44.9,17.5,279.0,48.0,7.1,7,5,4,1,2026-06-23T03:34:56.191128+05:30
Dibrugarh,Assam,27.4728,94.912,24.1,97,0.1,990.3,8.15,20.5,80,29.5,22.4,8.4,223.0,71.0,1.2,6,5,7,1,2026-06-23T03:34:56.191134+05:30
