city,state,latitude,longitude,temp,humidity,rain,pressure,uv_index,wind_gusts,aqi,pm10,pm2_5,mosquito_risk,arthritis_risk,migraine_risk,frizz_risk,updated_at
Delhi,Delhi,28.6139,77.209,38.2,17,0.0,977.6,7.4,48.6,583,827.0,105.0,0,5,10,0,2026-04-26T18:43:21.658825+05:30
Mumbai,Maharashtra,19.076,72.8777,30.6,70,0.0,1004.6,7.6,37.1,143,70.8,37.3,3,5,4,1,2026-04-26T18:43:21.658863+05:30
Bangalore,Karnataka,12.9716,77.5946,33.0,25,0.0,910.6,9.55,36.7,165,39.7,31.2,0,5,7,0,2026-04-26T18:43:21.658876+05:30
Hyderabad,Telangana,17.385,78.4867,35.7,26,0.0,951.4,9.25,33.5,162,54.8,46.0,0,5,10,0,2026-04-26T18:43:21.658885+05:30
Chennai,Tamil Nadu,13.0827,80.2707,30.1,75,0.0,1005.0,9.25,49.7,40,19.4,12.6,3,5,4,1,2026-04-26T18:43:21.658893+05:30
Kolkata,West Bengal,22.5726,88.3639,30.6,67,0.0,1002.9,8.9,40.0,62,23.7,17.3,3,5,4,1,2026-04-26T18:43:21.658905+05:30
Pune,Maharashtra,18.5204,73.8567,34.7,31,0.0,945.5,8.35,38.9,164,31.8,23.6,0,5,7,0,2026-04-26T18:43:21.658911+05:30
Ahmedabad,Gujarat,23.0225,72.5714,42.4,10,0.0,997.0,8.2,38.9,88,37.3,15.7,0,5,10,0,2026-04-26T18:43:21.658918+05:30
Jaipur,Rajasthan,26.9124,75.7873,39.2,14,0.0,956.4,8.05,41.8,149,319.4,43.8,0,5,10,0,2026-04-26T18:43:21.658925+05:30
Lucknow,Uttar Pradesh,26.8467,80.9462,39.7,15,0.0,987.2,7.9,52.6,154,296.2,55.3,0,5,10,0,2026-04-26T18:43:21.658931+05:30
Kanpur,Uttar Pradesh,26.4499,80.3319,40.2,15,0.0,985.7,7.9,54.7,471,683.6,90.3,0,5,10,0,2026-04-26T18:43:21.658937+05:30
Chandigarh,Chandigarh,30.7333,76.7794,33.7,23,0.0,963.8,7.4,45.7,108,17.6,10.5,0,5,7,0,2026-04-26T18:43:21.658944+05:30
Srinagar,Jammu and Kashmir,34.0837,74.7973,20.5,59,0.0,840.3,8.6,16.2,91,22.2,12.8,0,5,7,0,2026-04-26T18:43:21.658950+05:30
Jammu,Jammu and Kashmir,32.7266,74.857,34.5,19,0.0,967.3,8.15,33.8,88,28.7,14.8,0,5,7,0,2026-04-26T18:43:21.658956+05:30
Amritsar,Punjab,31.634,74.8723,35.5,21,0.0,975.6,8.1,36.7,115,24.7,11.2,0,5,10,0,2026-04-26T18:43:21.658962+05:30
Ludhiana,Punjab,30.901,75.8573,36.2,18,0.0,973.3,7.65,41.8,96,53.0,15.8,0,5,10,0,2026-04-26T18:43:21.658973+05:30
Jalandhar,Punjab,31.326,75.5762,34.8,21,0.0,974.4,7.85,37.4,108,61.5,16.8,0,5,7,0,2026-04-26T18:43:21.658978+05:30
Dehradun,Uttarakhand,30.6284,78.0322,21.7,33,0.0,827.3,7.8,49.0,94,19.9,8.0,0,5,7,0,2026-04-26T18:43:21.658983+05:30
Shimla,Himachal Pradesh,31.1048,77.1734,18.1,31,0.0,783.5,7.9,52.9,91,20.2,8.1,0,5,7,0,2026-04-26T18:43:21.658989+05:30
Manali,Himachal Pradesh,32.2396,77.1887,16.5,42,0.0,815.3,9.8,45.0,125,22.1,7.4,0,5,7,0,2026-04-26T18:43:21.658994+05:30
Gurgaon,Haryana,28.4595,77.0266,36.6,19,0.0,976.3,7.55,49.7,1603,2332.0,241.2,0,5,10,0,2026-04-26T18:43:21.659000+05:30
Noida,Uttar Pradesh,28.5355,77.391,38.2,17,0.0,978.8,7.45,43.9,1603,2332.0,241.2,0,5,10,0,2026-04-26T18:43:21.659005+05:30
Ghaziabad,Uttar Pradesh,28.6692,77.4538,38.3,16,0.0,977.0,7.4,47.9,463,735.7,95.7,0,5,10,0,2026-04-26T18:43:21.659011+05:30
Faridabad,Haryana,28.4089,77.3178,38.5,16,0.0,978.3,7.5,53.3,1603,2332.0,241.2,0,5,10,0,2026-04-26T18:43:21.659016+05:30
Meerut,Uttar Pradesh,28.9845,77.7064,36.7,19,0.0,975.0,7.3,50.8,463,735.7,95.7,0,5,10,0,2026-04-26T18:43:21.659021+05:30
Agra,Uttar Pradesh,27.1767,78.0081,38.7,18,0.0,982.5,7.8,50.4,1075,681.7,86.6,0,5,10,0,2026-04-26T18:43:21.659027+05:30
Varanasi,Uttar Pradesh,25.3176,82.9739,39.5,17,0.0,991.2,8.5,53.3,169,91.0,38.8,0,5,10,0,2026-04-26T18:43:21.659033+05:30
Prayagraj,Uttar Pradesh,25.4358,81.8463,39.9,15,0.0,989.8,8.4,50.8,153,106.4,33.8,0,5,10,0,2026-04-26T18:43:21.659038+05:30
Gorakhpur,Uttar Pradesh,26.7606,83.3732,32.8,45,0.0,992.0,8.35,40.7,178,86.8,60.1,0,5,7,1,2026-04-26T18:43:21.659044+05:30
Bareilly,Uttar Pradesh,28.367,79.4304,37.2,19,0.0,980.2,7.65,54.7,114,90.6,29.1,0,5,10,0,2026-04-26T18:43:21.659049+05:30
Aligarh,Uttar Pradesh,27.8974,78.088,37.5,18,0.0,980.1,7.6,51.8,1040,1471.5,170.9,0,5,10,0,2026-04-26T18:43:21.659056+05:30
Moradabad,Uttar Pradesh,28.8386,78.7733,36.9,19,0.0,976.9,7.5,55.8,127,222.1,45.1,0,5,10,0,2026-04-26T18:43:21.659061+05:30
Saharanpur,Uttar Pradesh,29.9637,77.546,35.0,18,0.0,969.6,7.1,52.2,96,129.9,28.0,0,5,7,0,2026-04-26T18:43:21.659066+05:30
Jhansi,Uttar Pradesh,25.4484,78.5685,38.0,17,0.0,974.1,8.3,49.0,93,66.1,21.9,0,5,10,0,2026-04-26T18:43:24.963641+05:30
Surat,Gujarat,21.1702,72.8311,36.9,31,0.0,1001.8,7.85,36.0,111,72.6,53.0,0,5,7,1,2026-04-26T18:43:24.963672+05:30
Vadodara,Gujarat,22.3072,73.1812,41.0,14,0.0,999.0,8.15,41.4,145,39.7,26.7,0,5,10,0,2026-04-26T18:43:24.963680+05:30
Rajkot,Gujarat,22.3039,70.8022,38.6,15,0.0,990.6,7.85,39.2,60,49.6,16.6,0,5,10,0,2026-04-26T18:43:24.963686+05:30
Thane,Maharashtra,19.2183,72.9781,32.9,56,0.0,1003.6,7.6,32.8,143,70.8,37.3,0,5,4,1,2026-04-26T18:43:24.963692+05:30
Nagpur,Maharashtra,21.1458,79.0882,41.3,12,0.0,968.7,8.9,34.6,205,65.0,30.3,0,5,10,0,2026-04-26T18:43:24.963697+05:30
Nashik,Maharashtra,19.9975,73.7898,36.8,17,0.0,943.3,8.1,36.0,139,31.4,22.6,0,5,10,0,2026-04-26T18:43:24.963703+05:30
Aurangabad,Maharashtra,19.8762,75.3433,38.3,13,0.0,941.3,9.05,32.4,121,17.9,11.4,0,5,10,0,2026-04-26T18:43:24.963708+05:30
Solapur,Maharashtra,17.6599,75.9064,38.0,17,0.0,953.9,9.05,25.2,176,42.5,33.2,0,5,10,0,2026-04-26T18:43:24.963714+05:30
Kolhapur,Maharashtra,16.705,74.2433,30.8,61,0.0,945.8,9.0,50.8,169,32.9,29.3,3,5,7,1,2026-04-26T18:43:24.963720+05:30
Goa,Goa,15.2993,74.124,31.6,68,0.0,995.3,8.95,34.9,88,35.0,25.0,3,5,7,1,2026-04-26T18:43:24.963725+05:30
Jodhpur,Rajasthan,26.2389,73.0243,40.7,14,0.0,978.4,8.3,34.2,78,123.9,18.9,0,5,10,0,2026-04-26T18:43:24.963731+05:30
Udaipur,Rajasthan,24.5854,73.7125,35.9,19,0.0,943.6,8.75,47.9,85,13.4,6.0,0,5,10,0,2026-04-26T18:43:24.963737+05:30
Kota,Rajasthan,25.2138,75.8648,37.8,25,0.0,975.1,8.3,46.8,91,80.3,26.0,0,5,10,0,2026-04-26T18:43:24.963742+05:30
Bikaner,Rajasthan,28.0229,73.3119,40.5,14,0.0,977.1,8.15,37.1,73,63.8,17.6,0,5,10,0,2026-04-26T18:43:24.963748+05:30
Ajmer,Rajasthan,26.4499,74.6399,37.6,16,0.0,951.9,8.25,41.4,69,50.3,14.5,0,5,10,0,2026-04-26T18:43:24.963753+05:30
Gwalior,Madhya Pradesh,26.2183,78.1828,39.0,16,0.0,978.7,8.0,45.4,126,73.8,23.3,0,5,10,0,2026-04-26T18:43:24.963757+05:30
Indore,Madhya Pradesh,22.7196,75.8577,36.5,19,0.0,945.9,8.65,37.4,116,44.9,20.0,0,5,10,0,2026-04-26T18:43:24.963763+05:30
Bhopal,Madhya Pradesh,23.2599,77.4126,38.1,16,0.0,951.0,8.65,37.8,129,64.3,23.9,0,5,10,0,2026-04-26T18:43:24.963767+05:30
Jabalpur,Madhya Pradesh,23.1815,79.9864,37.2,17,0.0,958.1,8.7,42.1,94,54.2,19.8,0,5,10,0,2026-04-26T18:43:24.963773+05:30
Ujjain,Madhya Pradesh,23.1765,75.7885,36.1,21,0.0,951.2,8.55,41.4,88,47.0,22.8,0,5,10,0,2026-04-26T18:43:24.963778+05:30
Visakhapatnam,Andhra Pradesh,17.6868,83.2185,29.4,80,0.0,1001.1,8.95,47.5,55,22.0,14.6,7,5,4,1,2026-04-26T18:43:24.963784+05:30
Vijayawada,Andhra Pradesh,16.5062,80.648,33.8,40,0.0,999.8,8.9,37.4,56,22.6,17.2,0,5,7,1,2026-04-26T18:43:24.963788+05:30
Guntur,Andhra Pradesh,16.3067,80.4365,31.5,58,0.0,1001.3,8.95,40.7,80,26.1,20.4,0,5,4,1,2026-04-26T18:43:24.963792+05:30
Nellore,Andhra Pradesh,14.4426,79.9865,30.4,74,0.0,1003.0,9.1,43.9,82,21.2,15.6,3,5,4,1,2026-04-26T18:43:24.963798+05:30
Kurnool,Andhra Pradesh,15.8281,78.0373,38.6,18,0.0,973.2,9.2,33.8,150,43.3,35.0,0,5,10,0,2026-04-26T18:43:24.963803+05:30
Kakinada,Andhra Pradesh,16.9891,82.2475,31.2,64,0.0,1004.7,8.85,40.3,47,20.3,11.8,3,5,4,1,2026-04-26T18:43:24.963808+05:30
Tirupati,Andhra Pradesh,13.6288,79.4192,36.0,28,0.0,988.1,9.3,40.3,80,27.7,23.7,0,5,10,0,2026-04-26T18:43:24.963812+05:30
Warangal,Telangana,17.9689,79.5941,37.0,23,0.0,975.6,9.0,35.3,125,44.2,38.0,0,5,10,0,2026-04-26T18:43:24.963817+05:30
Nizamabad,Telangana,18.6725,78.0941,36.7,20,0.0,961.3,8.6,31.3,162,39.7,29.6,0,5,10,0,2026-04-26T18:43:24.963822+05:30
Mysore,Karnataka,12.2958,76.6396,32.6,33,0.0,926.2,9.45,40.0,154,44.5,33.2,0,5,7,0,2026-04-26T18:43:24.963826+05:30
Mangalore,Karnataka,12.9141,74.856,30.6,76,0.0,1004.4,9.05,39.2,80,31.4,23.6,3,5,4,1,2026-04-26T18:43:24.963831+05:30
Hubli-Dharwad,Karnataka,15.3647,75.124,29.8,56,0.0,939.1,8.85,45.7,155,38.1,34.6,4,5,7,1,2026-04-26T18:43:24.963836+05:30
Belgaum,Karnataka,15.8497,74.4977,28.8,65,0.0,924.4,8.85,48.2,164,39.3,34.1,7,5,7,1,2026-04-26T18:43:28.272596+05:30
Coimbatore,Tamil Nadu,11.0168,76.9558,36.4,22,0.0,959.0,9.35,39.6,135,31.7,25.9,0,5,10,0,2026-04-26T18:43:28.272626+05:30
Madurai,Tamil Nadu,9.9252,78.1198,36.2,29,0.0,990.0,9.25,37.4,74,10.5,9.8,0,5,10,0,2026-04-26T18:43:28.272635+05:30
Trichy,Tamil Nadu,10.7905,78.7047,34.5,38,0.0,996.9,9.25,30.6,51,14.8,13.8,0,5,7,1,2026-04-26T18:43:28.272642+05:30
Salem,Tamil Nadu,11.6643,78.146,35.4,28,0.0,974.6,9.35,41.8,95,20.7,17.9,0,5,10,0,2026-04-26T18:43:28.272648+05:30
Tirunelveli,Tamil Nadu,8.7139,77.7567,32.8,53,0.0,1000.6,9.2,37.4,82,12.2,11.5,0,5,4,1,2026-04-26T18:43:28.272654+05:30
Vellore,Tamil Nadu,12.9165,79.1325,35.0,32,0.0,982.0,9.3,34.6,85,32.0,28.8,0,5,7,0,2026-04-26T18:43:28.272660+05:30
Erode,Tamil Nadu,11.341,77.7172,37.0,22,0.0,985.5,9.3,39.2,81,19.7,17.2,0,5,10,0,2026-04-26T18:43:28.272665+05:30
Kochi,Kerala,9.9312,76.2673,30.5,74,0.0,1005.8,9.0,39.2,103,17.1,15.0,3,5,4,1,2026-04-26T18:43:28.272671+05:30
Thiruvananthapuram,Kerala,8.5241,76.9366,29.7,68,0.0,1005.7,8.8,32.4,57,11.1,8.2,7,5,4,1,2026-04-26T18:43:28.272677+05:30
Kozhikode,Kerala,11.2588,75.7804,29.5,80,0.0,1005.0,8.4,38.2,66,12.9,9.8,7,5,4,1,2026-04-26T18:43:28.272682+05:30
Thrissur,Kerala,10.5276,76.2144,29.6,76,0.0,1004.2,9.0,41.0,93,16.5,14.6,7,5,4,1,2026-04-26T18:43:28.272688+05:30
Kannur,Kerala,11.8745,75.3704,30.2,77,0.0,1004.6,9.0,39.6,70,20.8,15.9,3,5,4,1,2026-04-26T18:43:28.272693+05:30
Patna,Bihar,25.5941,85.1376,30.1,60,0.0,996.4,8.65,45.4,202,77.3,64.7,0,5,7,1,2026-04-26T18:43:28.272698+05:30
Gaya,Bihar,24.7914,85.0002,33.1,43,0.0,988.6,8.7,36.7,188,79.9,53.9,0,5,7,1,2026-04-26T18:43:28.272703+05:30
Muzaffarpur,Bihar,26.1209,85.3647,28.1,66,0.0,997.2,8.65,48.6,185,78.9,64.5,7,5,7,1,2026-04-26T18:43:28.272708+05:30
Bhagalpur,Bihar,25.2425,87.0117,28.7,64,0.0,998.1,8.6,40.3,153,60.5,52.4,7,5,7,1,2026-04-26T18:43:28.272714+05:30
Ranchi,Jharkhand,23.3441,85.3096,32.7,24,0.0,934.5,9.15,44.3,153,107.1,35.0,0,5,7,0,2026-04-26T18:43:28.272719+05:30
Jamshedpur,Jharkhand,22.8046,86.2029,35.7,31,0.0,985.7,8.85,37.8,202,67.8,37.8,0,5,10,0,2026-04-26T18:43:28.272724+05:30
Dhanbad,Jharkhand,23.7957,86.4304,31.4,61,0.0,975.9,8.95,42.5,185,138.8,61.2,3,5,7,1,2026-04-26T18:43:28.272730+05:30
Bokaro,Jharkhand,23.6693,86.1511,33.7,45,0.0,979.3,8.95,41.0,161,146.2,56.0,0,5,7,1,2026-04-26T18:43:28.272735+05:30
Bhubaneswar,Odisha,20.2961,85.8245,29.0,80,0.0,1000.3,9.1,50.4,54,17.0,12.6,7,5,4,1,2026-04-26T18:43:28.272740+05:30
Cuttack,Odisha,20.4625,85.8828,29.5,78,0.0,1001.4,9.1,47.2,54,17.0,12.6,7,5,4,1,2026-04-26T18:43:28.272745+05:30
Rourkela,Odisha,22.2604,84.8536,38.8,17,0.0,980.0,8.65,46.4,219,76.6,39.1,0,5,10,0,2026-04-26T18:43:28.272750+05:30
Raipur,Chhattisgarh,21.2514,81.6296,38.3,17,0.0,970.1,8.95,41.0,203,45.4,39.6,0,5,10,0,2026-04-26T18:43:28.272754+05:30
Bhilai,Chhattisgarh,21.1938,81.3509,38.1,17,0.0,970.6,9.0,44.3,182,39.5,33.3,0,5,10,0,2026-04-26T18:43:28.272759+05:30
Guwahati,Assam,26.1158,91.7086,22.1,98,0.1,1001.0,3.7,40.3,137,72.4,53.1,6,5,0,1,2026-04-26T18:43:28.272763+05:30
Agartala,Tripura,23.8315,91.2868,25.0,91,0.0,1004.2,8.8,32.0,103,42.1,30.0,7,5,4,1,2026-04-26T18:43:28.272768+05:30
Shillong,Meghalaya,25.5788,91.8933,15.9,96,0.0,854.6,4.65,45.4,132,73.8,49.5,3,10,3,0,2026-04-26T18:43:28.272773+05:30
Imphal,Manipur,24.817,93.9368,20.0,93,0.2,922.9,5.7,24.1,152,95.7,57.7,6,5,3,1,2026-04-26T18:43:28.272779+05:30
Aizawl,Mizoram,23.7271,92.7176,17.8,97,0.3,891.2,9.0,34.9,115,50.1,28.9,6,10,7,1,2026-04-26T18:43:28.272784+05:30
Kohima,Nagaland,25.6701,94.1077,18.3,83,0.0,854.0,6.95,32.0,152,85.2,53.4,3,10,7,0,2026-04-26T18:43:28.272789+05:30
Gangtok,Sikkim,27.3314,88.6138,14.6,95,0.1,835.0,6.75,41.0,127,45.8,25.7,6,10,7,0,2026-04-26T18:43:28.272794+05:30
Siliguri,West Bengal,26.7271,88.3953,22.5,86,0.0,992.5,8.4,33.1,127,71.0,44.8,3,5,7,1,2026-04-26T18:43:31.581067+05:30
Durgapur,West Bengal,23.5204,87.3119,27.5,81,0.0,991.5,8.85,35.6,166,36.0,34.2,7,5,7,1,2026-04-26T18:43:31.581099+05:30
Asansol,West Bengal,23.6739,86.9524,28.4,73,0.0,989.6,8.9,38.5,189,72.6,45.5,7,5,7,1,2026-04-26T18:43:31.581108+05:30
Pondicherry,Puducherry,11.9139,79.8145,30.0,72,0.0,1006.3,9.2,41.8,35,15.9,10.6,7,5,4,1,2026-04-26T18:43:31.581115+05:30
Port Blair,Andaman and Nicobar Islands,11.6234,92.7265,29.5,71,0.0,1006.3,9.1,35.3,58,18.6,14.0,7,5,4,1,2026-04-26T18:43:31.581121+05:30
Haridwar,Uttarakhand,29.9457,78.1642,33.6,21,0.0,967.3,7.2,54.0,101,46.8,15.8,0,5,7,0,2026-04-26T18:43:31.581128+05:30
Rishikesh,Uttarakhand,30.0869,78.2676,29.9,29,0.0,960.1,7.3,42.1,98,31.1,12.5,4,5,7,0,2026-04-26T18:43:31.581135+05:30
Nainital,Uttarakhand,29.3919,79.4542,20.0,31,0.0,803.7,8.15,54.4,114,47.7,15.7,0,5,7,0,2026-04-26T18:43:31.581142+05:30
Mussoorie,Uttarakhand,30.4599,78.0664,18.3,41,0.0,800.4,7.7,65.2,101,16.4,10.9,0,5,7,0,2026-04-26T18:43:31.581148+05:30
Dharamshala,Himachal Pradesh,32.219,76.3234,24.0,34,0.0,867.2,8.05,43.2,84,28.2,10.3,0,5,7,0,2026-04-26T18:43:31.581153+05:30
Dalhousie,Himachal Pradesh,32.5387,75.971,18.8,52,0.0,803.6,8.3,41.0,94,29.2,12.3,0,5,7,0,2026-04-26T18:43:31.581160+05:30
Patiala,Punjab,30.3398,76.3869,36.8,15,0.0,972.6,7.3,47.9,372,812.1,80.6,0,5,10,0,2026-04-26T18:43:31.581166+05:30
Bhatinda,Punjab,30.211,74.9455,37.8,16,0.0,978.5,8.0,37.8,107,79.4,21.2,0,5,10,0,2026-04-26T18:43:31.581171+05:30
Rohtak,Haryana,28.8955,76.6066,37.3,17,0.0,976.3,7.45,44.6,769,1128.8,128.5,0,5,10,0,2026-04-26T18:43:31.581177+05:30
Panipat,Haryana,29.3909,76.9635,38.8,14,0.0,974.1,7.25,48.6,1488,2287.3,235.2,0,5,10,0,2026-04-26T18:43:31.581182+05:30
Mathura,Uttar Pradesh,27.4924,77.6737,36.3,23,0.0,981.4,7.75,50.8,1023,976.0,114.8,0,5,10,0,2026-04-26T18:43:31.581187+05:30
Vrindavan,Uttar Pradesh,27.5823,77.7027,36.0,23,0.0,981.7,7.7,47.9,1023,976.0,114.8,0,5,10,0,2026-04-26T18:43:31.581192+05:30
Ayodhya,Uttar Pradesh,26.7922,82.1998,33.9,39,0.0,989.1,8.1,42.8,160,86.1,39.2,0,5,7,1,2026-04-26T18:43:31.581196+05:30
Ratlam,Madhya Pradesh,23.3315,75.0367,37.8,14,0.0,951.8,8.5,39.2,81,34.8,15.4,0,5,10,0,2026-04-26T18:43:31.581223+05:30
Sagar,Madhya Pradesh,23.8388,78.7378,35.8,19,0.0,947.9,8.65,41.4,85,61.0,21.1,0,5,10,0,2026-04-26T18:43:31.581229+05:30
Satna,Madhya Pradesh,24.6005,80.8322,37.5,17,0.0,967.3,8.65,50.0,101,88.7,27.4,0,5,10,0,2026-04-26T18:43:31.581234+05:30
Akola,Maharashtra,20.7002,77.0082,39.8,13,0.0,970.4,8.85,34.2,131,29.8,15.2,0,5,10,0,2026-04-26T18:43:31.581240+05:30
Amravati,Maharashtra,20.9374,77.7796,39.2,12,0.0,962.8,8.85,33.8,145,29.9,15.6,0,5,10,0,2026-04-26T18:43:31.581246+05:30
Latur,Maharashtra,18.4088,76.5604,36.8,16,0.0,937.0,8.95,26.6,160,26.7,20.4,0,5,10,0,2026-04-26T18:43:31.581252+05:30
Nanded,Maharashtra,19.1383,77.3091,37.8,15,0.0,964.6,9.0,29.9,140,27.1,17.6,0,5,10,0,2026-04-26T18:43:31.581256+05:30
Gulbarga,Karnataka,17.3297,76.8343,37.8,18,0.0,955.6,7.9,24.5,182,47.4,39.3,0,5,10,0,2026-04-26T18:43:31.581261+05:30
Bidar,Karnataka,17.9104,77.5199,34.7,29,0.0,933.3,7.95,33.8,177,46.7,38.3,0,5,7,0,2026-04-26T18:43:31.581266+05:30
Hospet,Karnataka,15.2689,76.3909,34.5,33,0.0,953.5,8.65,32.4,176,47.4,40.2,0,5,7,0,2026-04-26T18:43:31.581271+05:30
Tirupur,Tamil Nadu,11.1085,77.3411,36.2,19,0.0,972.0,9.4,29.9,109,23.6,19.8,0,5,10,0,2026-04-26T18:43:31.581275+05:30
Alappuzha,Kerala,9.4981,76.3388,29.7,78,0.0,1006.0,8.55,37.8,85,17.3,13.6,7,5,4,1,2026-04-26T18:43:31.581280+05:30
Munnar,Kerala,10.0889,77.0595,20.8,82,0.0,856.4,9.6,26.6,83,19.6,18.2,3,5,7,1,2026-04-26T18:43:31.581286+05:30
Silchar,Assam,24.8333,92.7789,24.7,85,0.0,1004.1,6.8,27.4,162,122.0,76.4,3,5,4,1,2026-04-26T18:43:31.581291+05:30
Dibrugarh,Assam,27.4728,94.912,22.3,97,0.1,995.5,5.15,20.5,90,55.9,37.6,6,5,3,1,2026-04-26T18:43:31.581296+05:30
