city,state,latitude,longitude,temp,humidity,rain,pressure,uv_index,wind_gusts,aqi,pm10,pm2_5,mosquito_risk,arthritis_risk,migraine_risk,frizz_risk,updated_at
Delhi,Delhi,28.6139,77.209,20.1,77,0.0,986.9,6.45,25.9,201,252.4,76.1,3,5,7,0,2026-03-23T05:02:35.036232+05:30
Mumbai,Maharashtra,19.076,72.8777,28.5,63,0.0,1008.4,7.9,25.9,88,40.4,31.9,7,0,4,1,2026-03-23T05:02:35.036273+05:30
Bangalore,Karnataka,12.9716,77.5946,21.8,84,0.0,912.4,9.4,23.8,116,41.0,34.3,3,5,7,1,2026-03-23T05:02:35.036288+05:30
Hyderabad,Telangana,17.385,78.4867,22.7,86,0.0,954.7,8.95,24.1,103,37.6,28.6,3,5,7,1,2026-03-23T05:02:35.036298+05:30
Chennai,Tamil Nadu,13.0827,80.2707,25.9,85,0.0,1009.3,9.2,32.4,38,16.1,10.6,7,0,4,1,2026-03-23T05:02:35.036307+05:30
Kolkata,West Bengal,22.5726,88.3639,20.6,92,0.0,1010.7,8.3,18.0,154,98.3,92.9,3,0,4,1,2026-03-23T05:02:35.036316+05:30
Pune,Maharashtra,18.5204,73.8567,24.0,57,0.0,949.2,8.45,37.1,74,59.0,44.7,0,5,7,0,2026-03-23T05:02:35.036328+05:30
Ahmedabad,Gujarat,23.0225,72.5714,22.7,76,0.0,1004.2,7.85,28.4,80,33.9,23.7,3,5,4,1,2026-03-23T05:02:35.036336+05:30
Jaipur,Rajasthan,26.9124,75.7873,20.2,65,0.0,962.2,7.2,33.1,84,111.3,29.4,3,5,7,0,2026-03-23T05:02:35.036344+05:30
Lucknow,Uttar Pradesh,26.8467,80.9462,19.5,77,0.0,996.9,5.95,37.4,122,369.7,68.9,3,5,3,0,2026-03-23T05:02:35.036352+05:30
Kanpur,Uttar Pradesh,26.4499,80.3319,19.6,78,0.0,995.1,6.8,28.1,184,469.4,79.9,3,5,7,0,2026-03-23T05:02:35.036358+05:30
Chandigarh,Chandigarh,30.7333,76.7794,16.3,87,0.0,971.3,6.45,24.8,89,34.2,33.8,3,10,7,0,2026-03-23T05:02:35.036366+05:30
Srinagar,Jammu and Kashmir,34.0837,74.7973,6.2,90,0.0,839.5,6.4,18.7,110,48.5,46.2,3,10,7,0,2026-03-23T05:02:35.036373+05:30
Jammu,Jammu and Kashmir,32.7266,74.857,16.3,89,0.0,975.4,6.9,20.2,95,31.3,30.4,3,10,7,0,2026-03-23T05:02:35.036380+05:30
Amritsar,Punjab,31.634,74.8723,16.8,85,0.0,984.0,7.05,16.6,151,83.8,65.7,3,10,7,0,2026-03-23T05:02:35.036386+05:30
Ludhiana,Punjab,30.901,75.8573,17.9,81,0.0,981.9,6.65,23.4,140,98.3,71.5,3,10,7,0,2026-03-23T05:02:35.036392+05:30
Jalandhar,Punjab,31.326,75.5762,17.0,88,0.0,983.0,6.85,24.5,151,94.1,75.7,3,10,7,0,2026-03-23T05:02:35.036401+05:30
Dehradun,Uttarakhand,30.6284,78.0322,10.2,92,0.0,828.6,6.85,21.6,50,15.0,12.9,3,10,7,0,2026-03-23T05:02:35.036409+05:30
Shimla,Himachal Pradesh,31.1048,77.1734,7.6,86,0.0,781.4,6.9,31.7,66,32.2,29.0,3,10,7,0,2026-03-23T05:02:35.036415+05:30
Manali,Himachal Pradesh,32.2396,77.1887,11.5,44,0.0,818.2,8.8,25.9,46,27.2,18.2,0,5,7,1,2026-03-23T05:02:35.036423+05:30
Gurgaon,Haryana,28.4595,77.0266,18.5,86,0.0,985.4,6.4,21.6,559,484.3,101.5,3,10,7,1,2026-03-23T05:02:35.036430+05:30
Noida,Uttar Pradesh,28.5355,77.391,20.1,77,0.0,988.4,6.45,24.5,559,484.3,101.5,3,5,7,0,2026-03-23T05:02:35.036436+05:30
Ghaziabad,Uttar Pradesh,28.6692,77.4538,18.9,81,0.0,986.4,6.4,23.4,178,232.4,69.6,3,10,7,0,2026-03-23T05:02:35.036443+05:30
Faridabad,Haryana,28.4089,77.3178,19.0,82,0.0,987.6,6.4,20.2,559,484.3,101.5,3,10,7,0,2026-03-23T05:02:35.036449+05:30
Meerut,Uttar Pradesh,28.9845,77.7064,17.1,87,0.0,984.6,6.3,24.8,178,232.4,69.6,3,10,7,0,2026-03-23T05:02:35.036456+05:30
Agra,Uttar Pradesh,27.1767,78.0081,19.7,72,0.0,991.0,4.55,23.8,416,491.7,87.3,3,5,3,0,2026-03-23T05:02:35.036462+05:30
Varanasi,Uttar Pradesh,25.3176,82.9739,18.6,79,0.0,1001.6,7.65,30.2,118,68.5,46.6,3,5,4,0,2026-03-23T05:02:35.036471+05:30
Prayagraj,Uttar Pradesh,25.4358,81.8463,20.0,67,0.0,999.7,7.55,20.9,114,223.1,56.7,3,5,7,0,2026-03-23T05:02:35.036478+05:30
Gorakhpur,Uttar Pradesh,26.7606,83.3732,17.5,91,0.0,1001.2,7.3,25.2,152,78.0,70.3,3,10,4,0,2026-03-23T05:02:35.036484+05:30
Bareilly,Uttar Pradesh,28.367,79.4304,16.8,89,0.0,990.0,6.0,28.8,107,205.4,53.9,3,10,3,0,2026-03-23T05:02:35.036491+05:30
Aligarh,Uttar Pradesh,27.8974,78.088,17.9,83,0.0,988.6,5.95,19.4,377,468.5,88.2,3,10,3,0,2026-03-23T05:02:35.036498+05:30
Moradabad,Uttar Pradesh,28.8386,78.7733,16.9,87,0.0,986.7,6.5,27.0,132,216.5,67.3,3,10,7,0,2026-03-23T05:02:35.036504+05:30
Saharanpur,Uttar Pradesh,29.9637,77.546,16.2,90,0.0,978.4,6.15,25.9,147,177.0,79.2,3,10,7,0,2026-03-23T05:02:35.036513+05:30
Jhansi,Uttar Pradesh,25.4484,78.5685,19.6,67,0.0,980.4,7.3,27.0,78,43.7,24.6,3,5,7,0,2026-03-23T05:02:38.400749+05:30
Surat,Gujarat,21.1702,72.8311,24.0,75,0.0,1007.9,7.65,24.5,114,49.9,42.1,3,5,4,1,2026-03-23T05:02:38.400780+05:30
Vadodara,Gujarat,22.3072,73.1812,24.4,56,0.0,1006.3,7.85,22.3,79,43.2,31.3,0,5,4,0,2026-03-23T05:02:38.400790+05:30
Rajkot,Gujarat,22.3039,70.8022,22.8,92,0.0,996.4,7.7,31.3,60,29.7,21.4,3,5,7,1,2026-03-23T05:02:38.400798+05:30
Thane,Maharashtra,19.2183,72.9781,25.0,60,0.0,1008.0,7.9,40.0,88,40.4,31.9,4,0,4,1,2026-03-23T05:02:38.400806+05:30
Nagpur,Maharashtra,21.1458,79.0882,22.8,51,0.0,975.5,8.15,20.2,58,25.8,18.0,0,5,7,0,2026-03-23T05:02:38.400813+05:30
Nashik,Maharashtra,19.9975,73.7898,21.2,66,0.0,946.2,8.15,33.8,61,28.6,19.3,3,5,7,0,2026-03-23T05:02:38.400820+05:30
Aurangabad,Maharashtra,19.8762,75.3433,20.7,61,0.0,945.1,8.65,22.0,58,30.6,27.0,3,5,7,0,2026-03-23T05:02:38.400827+05:30
Solapur,Maharashtra,17.6599,75.9064,22.8,61,0.0,958.1,8.65,27.0,61,42.6,32.8,3,5,7,0,2026-03-23T05:02:38.400834+05:30
Kolhapur,Maharashtra,16.705,74.2433,19.0,68,0.0,947.6,8.9,38.2,90,48.4,43.8,3,5,7,0,2026-03-23T05:02:38.400841+05:30
Goa,Goa,15.2993,74.124,25.8,91,0.0,998.0,8.9,33.8,85,46.7,39.5,7,5,7,1,2026-03-23T05:02:38.400847+05:30
Jodhpur,Rajasthan,26.2389,73.0243,23.2,70,0.0,985.6,7.4,18.7,64,135.0,23.5,3,5,7,1,2026-03-23T05:02:38.400855+05:30
Udaipur,Rajasthan,24.5854,73.7125,20.2,64,0.0,948.2,7.2,28.8,51,32.2,12.4,3,5,7,0,2026-03-23T05:02:38.400861+05:30
Kota,Rajasthan,25.2138,75.8648,20.4,71,0.0,980.6,7.05,32.0,81,32.4,22.3,3,5,7,0,2026-03-23T05:02:38.400867+05:30
Bikaner,Rajasthan,28.0229,73.3119,21.2,74,0.0,985.3,7.25,15.1,73,61.0,25.2,3,5,7,1,2026-03-23T05:02:38.400874+05:30
Ajmer,Rajasthan,26.4499,74.6399,21.3,65,0.0,957.0,7.25,24.1,62,68.5,21.2,3,5,7,0,2026-03-23T05:02:38.400881+05:30
Gwalior,Madhya Pradesh,26.2183,78.1828,21.1,69,0.0,986.0,5.15,28.1,108,150.9,33.6,3,5,3,0,2026-03-23T05:02:38.400887+05:30
Indore,Madhya Pradesh,22.7196,75.8577,20.7,57,0.0,949.0,8.1,25.2,59,24.9,18.9,0,5,7,0,2026-03-23T05:02:38.400894+05:30
Bhopal,Madhya Pradesh,23.2599,77.4126,20.6,53,0.0,954.9,8.0,34.9,52,18.6,12.2,0,5,7,0,2026-03-23T05:02:38.400900+05:30
Jabalpur,Madhya Pradesh,23.1815,79.9864,19.2,66,0.0,963.9,7.9,22.3,60,45.2,23.4,3,5,7,0,2026-03-23T05:02:38.400906+05:30
Ujjain,Madhya Pradesh,23.1765,75.7885,19.8,62,0.0,954.9,8.05,23.0,75,51.6,44.2,3,5,7,0,2026-03-23T05:02:38.400913+05:30
Visakhapatnam,Andhra Pradesh,17.6868,83.2185,23.4,92,0.0,1006.6,8.85,34.2,82,53.4,46.3,3,5,4,1,2026-03-23T05:02:38.400919+05:30
Vijayawada,Andhra Pradesh,16.5062,80.648,25.0,89,0.0,1005.0,8.95,24.5,72,23.5,19.7,7,5,4,1,2026-03-23T05:02:38.400926+05:30
Guntur,Andhra Pradesh,16.3067,80.4365,24.9,92,0.0,1006.1,8.95,24.5,72,21.0,17.5,3,5,4,1,2026-03-23T05:02:38.400933+05:30
Nellore,Andhra Pradesh,14.4426,79.9865,24.9,90,0.0,1008.2,9.1,28.4,48,14.0,9.0,3,0,4,1,2026-03-23T05:02:38.400940+05:30
Kurnool,Andhra Pradesh,15.8281,78.0373,25.9,75,0.0,978.2,8.95,27.0,77,15.7,13.2,7,5,7,1,2026-03-23T05:02:38.400948+05:30
Kakinada,Andhra Pradesh,16.9891,82.2475,22.8,94,0.0,1010.1,8.9,29.2,57,28.2,20.3,3,0,4,1,2026-03-23T05:02:38.400955+05:30
Tirupati,Andhra Pradesh,13.6288,79.4192,22.6,86,0.0,993.8,9.2,28.8,72,36.0,30.6,3,5,7,1,2026-03-23T05:02:38.400961+05:30
Warangal,Telangana,17.9689,79.5941,23.7,88,0.0,980.6,8.8,25.6,118,53.8,44.5,3,5,7,1,2026-03-23T05:02:38.400968+05:30
Nizamabad,Telangana,18.6725,78.0941,23.3,81,0.0,966.3,8.7,22.0,91,87.5,68.7,3,5,7,1,2026-03-23T05:02:38.400974+05:30
Mysore,Karnataka,12.2958,76.6396,21.4,88,0.0,929.4,9.4,22.0,112,75.2,62.2,3,5,7,1,2026-03-23T05:02:38.400981+05:30
Mangalore,Karnataka,12.9141,74.856,29.0,77,0.0,1007.2,9.05,26.6,76,38.6,30.4,7,5,4,1,2026-03-23T05:02:38.400987+05:30
Hubli-Dharwad,Karnataka,15.3647,75.124,20.1,83,0.0,940.4,9.1,30.2,68,27.1,20.9,3,5,7,1,2026-03-23T05:02:38.400994+05:30
Belgaum,Karnataka,15.8497,74.4977,20.5,64,0.0,925.1,9.15,36.0,73,37.7,30.5,3,5,7,0,2026-03-23T05:02:41.736087+05:30
Coimbatore,Tamil Nadu,11.0168,76.9558,22.9,82,0.0,963.3,9.4,37.4,92,55.4,46.8,3,5,7,1,2026-03-23T05:02:41.736117+05:30
Madurai,Tamil Nadu,9.9252,78.1198,25.3,89,0.0,994.9,9.35,27.4,66,33.5,29.8,7,5,7,1,2026-03-23T05:02:41.736128+05:30
Trichy,Tamil Nadu,10.7905,78.7047,25.2,94,0.0,1001.9,9.3,22.3,65,22.9,18.9,7,5,4,1,2026-03-23T05:02:41.736136+05:30
Salem,Tamil Nadu,11.6643,78.146,24.7,83,0.0,979.2,9.35,23.8,90,48.9,42.7,3,5,7,1,2026-03-23T05:02:41.736143+05:30
Tirunelveli,Tamil Nadu,8.7139,77.7567,24.8,85,0.0,1005.0,9.3,35.6,71,34.5,31.7,3,5,4,1,2026-03-23T05:02:41.736150+05:30
Vellore,Tamil Nadu,12.9165,79.1325,22.2,93,0.0,986.7,9.25,31.7,83,46.6,40.9,3,5,7,1,2026-03-23T05:02:41.736157+05:30
Erode,Tamil Nadu,11.341,77.7172,24.9,87,0.0,991.2,9.35,18.4,69,23.3,20.4,3,5,7,1,2026-03-23T05:02:41.736164+05:30
Kochi,Kerala,9.9312,76.2673,27.1,80,0.0,1009.4,9.15,31.7,77,33.6,29.7,7,0,4,1,2026-03-23T05:02:41.736170+05:30
Thiruvananthapuram,Kerala,8.5241,76.9366,27.2,81,0.0,1008.6,9.15,23.0,55,24.4,18.7,7,0,4,1,2026-03-23T05:02:41.736177+05:30
Kozhikode,Kerala,11.2588,75.7804,27.0,85,0.0,1008.9,9.1,25.2,64,33.3,21.0,7,0,4,1,2026-03-23T05:02:41.736184+05:30
Thrissur,Kerala,10.5276,76.2144,24.8,84,0.0,1008.1,9.1,37.4,72,35.6,28.8,3,0,4,1,2026-03-23T05:02:41.736191+05:30
Kannur,Kerala,11.8745,75.3704,28.1,76,0.0,1007.7,9.1,28.1,68,29.0,22.2,7,5,4,1,2026-03-23T05:02:41.736197+05:30
Patna,Bihar,25.5941,85.1376,18.8,87,0.0,1005.0,7.85,23.4,161,82.2,76.1,3,10,4,1,2026-03-23T05:02:41.736204+05:30
Gaya,Bihar,24.7914,85.0002,17.8,91,0.0,998.3,7.95,18.0,134,56.5,47.5,3,10,7,1,2026-03-23T05:02:41.736211+05:30
Muzaffarpur,Bihar,26.1209,85.3647,17.7,88,0.0,1005.0,7.8,19.1,159,79.9,74.5,3,10,4,0,2026-03-23T05:02:41.736217+05:30
Bhagalpur,Bihar,25.2425,87.0117,18.1,92,0.0,1006.2,7.85,15.5,154,79.9,73.8,3,10,4,1,2026-03-23T05:02:41.736223+05:30
Ranchi,Jharkhand,23.3441,85.3096,16.7,75,0.0,940.4,8.55,27.0,84,60.5,34.1,3,5,7,0,2026-03-23T05:02:41.736230+05:30
Jamshedpur,Jharkhand,22.8046,86.2029,21.4,74,0.0,995.2,8.4,17.6,126,97.1,87.1,3,5,7,1,2026-03-23T05:02:41.736236+05:30
Dhanbad,Jharkhand,23.7957,86.4304,18.3,91,0.0,984.0,8.3,20.9,151,107.3,97.8,3,10,7,1,2026-03-23T05:02:41.736243+05:30
Bokaro,Jharkhand,23.6693,86.1511,18.2,89,0.0,988.3,8.3,19.4,151,117.3,99.4,3,10,7,1,2026-03-23T05:02:41.736250+05:30
Bhubaneswar,Odisha,20.2961,85.8245,23.1,97,0.0,1006.3,8.7,29.9,120,76.4,62.2,3,5,4,1,2026-03-23T05:02:41.736257+05:30
Cuttack,Odisha,20.4625,85.8828,22.6,96,0.0,1008.5,8.75,25.6,120,76.4,62.2,3,0,4,1,2026-03-23T05:02:41.736263+05:30
Rourkela,Odisha,22.2604,84.8536,17.9,88,0.0,989.0,8.35,20.5,84,51.8,34.2,3,10,7,0,2026-03-23T05:02:41.736270+05:30
Raipur,Chhattisgarh,21.2514,81.6296,19.8,56,0.0,977.8,8.45,20.5,96,94.3,82.0,0,5,7,0,2026-03-23T05:02:41.736276+05:30
Bhilai,Chhattisgarh,21.1938,81.3509,19.5,60,0.0,978.1,8.45,19.4,105,85.9,71.5,0,5,7,0,2026-03-23T05:02:41.736283+05:30
Guwahati,Assam,26.1158,91.7086,19.3,96,0.0,1006.4,7.65,20.5,78,26.4,23.3,3,10,4,1,2026-03-23T05:02:41.736289+05:30
Agartala,Tripura,23.8315,91.2868,18.4,94,0.0,1011.3,8.05,15.8,154,98.5,95.2,3,5,4,1,2026-03-23T05:02:41.736296+05:30
Shillong,Meghalaya,25.5788,91.8933,7.4,93,0.0,854.4,7.25,25.2,63,22.5,20.0,3,10,7,0,2026-03-23T05:02:41.736302+05:30
Imphal,Manipur,24.817,93.9368,13.7,95,0.0,925.2,8.3,40.0,67,43.0,39.2,3,10,7,0,2026-03-23T05:02:41.736308+05:30
Aizawl,Mizoram,23.7271,92.7176,13.1,90,0.0,894.0,8.3,31.7,57,31.8,28.1,3,10,7,0,2026-03-23T05:02:41.736315+05:30
Kohima,Nagaland,25.6701,94.1077,10.4,91,0.0,854.4,8.0,40.0,58,28.9,26.1,3,10,7,0,2026-03-23T05:02:41.736321+05:30
Gangtok,Sikkim,27.3314,88.6138,10.7,98,0.1,836.8,7.35,19.4,66,31.2,29.2,6,10,7,0,2026-03-23T05:02:41.736328+05:30
Siliguri,West Bengal,26.7271,88.3953,16.4,77,0.0,998.3,6.55,21.2,100,54.6,51.6,3,5,7,0,2026-03-23T05:02:45.084592+05:30
Durgapur,West Bengal,23.5204,87.3119,20.4,85,0.0,999.8,8.25,16.6,152,98.7,94.5,3,5,7,1,2026-03-23T05:02:45.084647+05:30
Asansol,West Bengal,23.6739,86.9524,20.6,82,0.0,998.3,8.25,17.6,123,56.0,51.9,3,5,7,1,2026-03-23T05:02:45.084660+05:30
Pondicherry,Puducherry,11.9139,79.8145,23.6,99,0.0,1010.5,9.15,28.1,33,10.9,6.8,3,0,4,1,2026-03-23T05:02:45.084669+05:30
Port Blair,Andaman and Nicobar Islands,11.6234,92.7265,27.5,84,0.0,1008.1,9.1,25.9,33,1.8,1.2,7,0,4,1,2026-03-23T05:02:45.084679+05:30
Haridwar,Uttarakhand,29.9457,78.1642,16.0,88,0.0,976.8,6.3,25.9,109,69.8,45.8,3,10,7,0,2026-03-23T05:02:45.084688+05:30
Rishikesh,Uttarakhand,30.0869,78.2676,17.1,78,0.0,969.4,6.4,22.0,70,39.5,25.6,3,5,7,0,2026-03-23T05:02:45.084697+05:30
Nainital,Uttarakhand,29.3919,79.4542,13.3,72,0.0,805.0,7.2,44.3,68,32.6,21.5,3,5,7,0,2026-03-23T05:02:45.084706+05:30
Mussoorie,Uttarakhand,30.4599,78.0664,11.8,75,0.0,801.3,6.75,31.0,82,41.9,29.7,3,5,7,0,2026-03-23T05:02:45.084714+05:30
Dharamshala,Himachal Pradesh,32.219,76.3234,15.1,63,0.0,868.8,6.95,20.2,72,16.6,8.6,3,5,7,0,2026-03-23T05:02:45.084723+05:30
Dalhousie,Himachal Pradesh,32.5387,75.971,11.3,74,0.0,801.9,7.15,18.0,83,31.0,28.8,3,5,7,0,2026-03-23T05:02:45.084732+05:30
Patiala,Punjab,30.3398,76.3869,16.5,90,0.0,981.2,6.3,23.8,174,90.8,61.9,3,10,7,0,2026-03-23T05:02:45.084740+05:30
Bhatinda,Punjab,30.211,74.9455,17.5,90,0.0,987.0,7.0,18.4,143,89.9,55.8,3,10,7,0,2026-03-23T05:02:45.084748+05:30
Rohtak,Haryana,28.8955,76.6066,18.1,87,0.0,985.9,6.45,19.1,259,253.3,71.0,3,10,7,0,2026-03-23T05:02:45.084756+05:30
Panipat,Haryana,29.3909,76.9635,16.8,90,0.0,983.8,6.3,22.7,545,208.6,68.5,3,10,7,0,2026-03-23T05:02:45.084763+05:30
Mathura,Uttar Pradesh,27.4924,77.6737,18.4,78,0.0,990.1,4.5,23.8,295,462.9,91.0,3,5,3,0,2026-03-23T05:02:45.084771+05:30
Vrindavan,Uttar Pradesh,27.5823,77.7027,18.9,76,0.0,990.6,4.5,21.2,295,462.9,91.0,3,5,3,0,2026-03-23T05:02:45.084779+05:30
Ayodhya,Uttar Pradesh,26.7922,82.1998,17.4,84,0.0,998.8,6.7,32.8,116,267.3,57.6,3,10,7,0,2026-03-23T05:02:45.084787+05:30
Ratlam,Madhya Pradesh,23.3315,75.0367,22.7,51,0.0,955.8,8.0,24.8,74,46.8,39.0,0,5,7,0,2026-03-23T05:02:45.084795+05:30
Sagar,Madhya Pradesh,23.8388,78.7378,20.2,58,0.0,951.9,8.0,33.1,55,32.5,15.3,0,5,7,0,2026-03-23T05:02:45.084803+05:30
Satna,Madhya Pradesh,24.6005,80.8322,19.0,62,0.0,974.2,7.95,22.0,74,73.1,28.2,3,5,7,0,2026-03-23T05:02:45.084811+05:30
Akola,Maharashtra,20.7002,77.0082,21.0,64,0.0,976.8,8.2,19.1,57,24.5,20.0,3,5,7,0,2026-03-23T05:02:45.084819+05:30
Amravati,Maharashtra,20.9374,77.7796,20.9,58,0.0,968.9,8.35,19.1,54,20.5,14.9,0,5,7,0,2026-03-23T05:02:45.084827+05:30
Latur,Maharashtra,18.4088,76.5604,20.7,60,0.0,940.6,8.4,20.2,59,45.6,33.5,0,5,7,0,2026-03-23T05:02:45.084835+05:30
Nanded,Maharashtra,19.1383,77.3091,23.1,52,0.0,970.3,8.55,17.6,64,29.0,25.9,0,5,7,0,2026-03-23T05:02:45.084843+05:30
Gulbarga,Karnataka,17.3297,76.8343,24.6,71,0.0,959.7,8.8,27.0,90,41.2,34.6,3,5,7,1,2026-03-23T05:02:45.084850+05:30
Bidar,Karnataka,17.9104,77.5199,22.8,80,0.0,936.4,8.8,22.3,106,60.3,47.3,3,5,7,1,2026-03-23T05:02:45.084858+05:30
Hospet,Karnataka,15.2689,76.3909,24.3,84,0.0,956.4,9.05,17.3,91,48.0,40.3,3,5,7,1,2026-03-23T05:02:45.084866+05:30
Tirupur,Tamil Nadu,11.1085,77.3411,24.0,84,0.0,977.2,9.45,29.9,83,41.2,36.2,3,5,7,1,2026-03-23T05:02:45.084873+05:30
Alappuzha,Kerala,9.4981,76.3388,26.8,82,0.0,1009.5,9.15,31.3,70,30.9,22.5,7,0,4,1,2026-03-23T05:02:45.084881+05:30
Munnar,Kerala,10.0889,77.0595,20.1,80,0.0,856.8,9.65,28.4,76,34.5,28.5,3,5,7,1,2026-03-23T05:02:45.084889+05:30
Silchar,Assam,24.8333,92.7789,18.4,96,0.0,1010.4,8.0,18.7,100,64.3,56.7,3,5,4,1,2026-03-23T05:02:45.084895+05:30
Dibrugarh,Assam,27.4728,94.912,19.2,94,0.0,1000.1,7.55,17.3,101,38.0,34.8,3,10,4,1,2026-03-23T05:02:45.084902+05:30
