city,state,latitude,longitude,temp,humidity,rain,pressure,uv_index,wind_gusts,aqi,pm10,pm2_5,mosquito_risk,arthritis_risk,migraine_risk,frizz_risk,updated_at
Delhi,Delhi,28.6139,77.209,20.0,86,0.0,987.5,6.1,24.8,218,324.1,135.0,3,5,7,1,2026-03-11T05:01:31.667717+05:30
Mumbai,Maharashtra,19.076,72.8777,27.0,87,0.0,1010.0,7.6,19.8,147,65.9,63.1,7,0,4,1,2026-03-11T05:01:31.667763+05:30
Bangalore,Karnataka,12.9716,77.5946,18.5,93,0.0,913.6,9.25,22.7,83,25.4,23.2,3,10,7,1,2026-03-11T05:01:31.667778+05:30
Hyderabad,Telangana,17.385,78.4867,20.8,68,0.0,956.8,8.6,22.3,121,20.1,16.9,3,5,7,0,2026-03-11T05:01:31.667789+05:30
Chennai,Tamil Nadu,13.0827,80.2707,23.2,87,0.0,1011.7,9.0,29.2,72,29.9,25.1,3,0,4,1,2026-03-11T05:01:31.667798+05:30
Kolkata,West Bengal,22.5726,88.3639,24.0,93,0.0,1011.4,8.0,22.0,136,57.2,47.8,3,0,4,1,2026-03-11T05:01:31.667806+05:30
Pune,Maharashtra,18.5204,73.8567,21.3,64,0.0,950.5,8.15,29.5,96,58.9,52.7,3,5,7,0,2026-03-11T05:01:31.667819+05:30
Ahmedabad,Gujarat,23.0225,72.5714,22.8,48,0.0,1006.0,7.45,28.1,66,18.7,17.9,0,5,4,0,2026-03-11T05:01:31.667827+05:30
Jaipur,Rajasthan,26.9124,75.7873,23.3,28,0.0,964.3,6.85,37.1,118,116.9,40.5,0,5,7,0,2026-03-11T05:01:31.667835+05:30
Lucknow,Uttar Pradesh,26.8467,80.9462,22.3,92,0.0,998.6,6.6,27.7,191,204.0,165.3,3,5,7,1,2026-03-11T05:01:31.667843+05:30
Kanpur,Uttar Pradesh,26.4499,80.3319,21.0,90,0.0,996.9,6.65,21.6,179,224.0,133.6,3,5,7,1,2026-03-11T05:01:31.667851+05:30
Chandigarh,Chandigarh,30.7333,76.7794,20.5,79,0.0,972.7,5.2,22.0,152,61.9,50.8,3,5,3,1,2026-03-11T05:01:31.667859+05:30
Srinagar,Jammu and Kashmir,34.0837,74.7973,9.8,96,0.8,846.9,4.95,28.1,122,52.2,43.5,6,10,3,0,2026-03-11T05:01:31.667866+05:30
Jammu,Jammu and Kashmir,32.7266,74.857,21.0,65,0.0,978.1,5.75,36.4,112,39.9,32.4,3,5,3,0,2026-03-11T05:01:31.667873+05:30
Amritsar,Punjab,31.634,74.8723,19.2,86,0.0,985.5,6.6,21.2,158,151.8,89.4,3,10,7,1,2026-03-11T05:01:31.667881+05:30
Ludhiana,Punjab,30.901,75.8573,19.3,89,0.0,983.4,5.6,12.6,176,159.7,113.9,3,10,3,1,2026-03-11T05:01:31.667888+05:30
Jalandhar,Punjab,31.326,75.5762,20.1,88,0.0,984.6,6.0,16.6,167,171.8,105.0,3,5,3,1,2026-03-11T05:01:31.667897+05:30
Dehradun,Uttarakhand,30.6284,78.0322,12.7,67,0.0,832.1,5.35,29.5,85,24.2,19.7,3,5,3,0,2026-03-11T05:01:31.667905+05:30
Shimla,Himachal Pradesh,31.1048,77.1734,11.8,82,0.0,786.8,5.45,45.7,103,75.4,51.0,3,10,3,0,2026-03-11T05:01:31.667912+05:30
Manali,Himachal Pradesh,32.2396,77.1887,15.6,34,0.0,824.2,6.5,41.0,55,36.4,18.2,0,5,7,1,2026-03-11T05:01:31.667920+05:30
Gurgaon,Haryana,28.4595,77.0266,17.8,88,0.0,985.7,6.2,23.8,428,285.0,123.4,3,10,7,0,2026-03-11T05:01:31.667927+05:30
Noida,Uttar Pradesh,28.5355,77.391,19.1,91,0.0,989.1,5.8,24.5,428,285.0,123.4,3,10,3,1,2026-03-11T05:01:31.667935+05:30
Ghaziabad,Uttar Pradesh,28.6692,77.4538,18.5,94,0.0,987.2,5.9,23.0,175,288.7,116.6,3,10,3,1,2026-03-11T05:01:31.667942+05:30
Faridabad,Haryana,28.4089,77.3178,18.4,85,0.0,988.3,5.8,23.4,428,285.0,123.4,3,10,3,0,2026-03-11T05:01:31.667951+05:30
Meerut,Uttar Pradesh,28.9845,77.7064,18.2,95,0.0,985.8,5.5,27.4,175,288.7,116.6,3,10,3,1,2026-03-11T05:01:31.667958+05:30
Agra,Uttar Pradesh,27.1767,78.0081,17.8,94,0.0,992.6,6.5,19.4,232,354.8,123.4,3,10,7,1,2026-03-11T05:01:31.667966+05:30
Varanasi,Uttar Pradesh,25.3176,82.9739,22.9,92,0.0,1002.8,7.3,23.4,191,155.5,147.6,3,5,4,1,2026-03-11T05:01:31.667975+05:30
Prayagraj,Uttar Pradesh,25.4358,81.8463,22.3,91,0.0,1001.3,7.15,22.3,189,172.8,163.9,3,5,4,1,2026-03-11T05:01:31.667981+05:30
Gorakhpur,Uttar Pradesh,26.7606,83.3732,21.9,93,0.0,1002.2,7.0,25.9,196,228.2,214.7,3,5,4,1,2026-03-11T05:01:31.667988+05:30
Bareilly,Uttar Pradesh,28.367,79.4304,20.0,94,0.0,991.2,6.35,27.4,195,228.2,199.8,3,5,7,1,2026-03-11T05:01:31.667995+05:30
Aligarh,Uttar Pradesh,27.8974,78.088,17.7,92,0.0,990.4,6.25,24.5,181,279.4,117.1,3,10,7,1,2026-03-11T05:01:31.668003+05:30
Moradabad,Uttar Pradesh,28.8386,78.7733,19.6,93,0.0,987.8,6.15,31.3,189,206.3,174.2,3,10,7,1,2026-03-11T05:01:31.668009+05:30
Saharanpur,Uttar Pradesh,29.9637,77.546,19.2,97,0.0,979.7,5.75,32.8,166,160.7,122.0,3,10,3,1,2026-03-11T05:01:31.668019+05:30
Jhansi,Uttar Pradesh,25.4484,78.5685,18.9,66,0.0,982.8,7.1,26.3,109,134.6,42.8,3,5,7,0,2026-03-11T05:01:35.022752+05:30
Surat,Gujarat,21.1702,72.8311,25.7,51,0.0,1009.2,7.3,27.4,112,35.2,33.6,4,0,4,0,2026-03-11T05:01:35.022786+05:30
Vadodara,Gujarat,22.3072,73.1812,25.0,42,0.0,1007.6,7.45,23.4,72,22.3,20.4,4,5,4,0,2026-03-11T05:01:35.022797+05:30
Rajkot,Gujarat,22.3039,70.8022,23.7,57,0.0,998.3,7.25,30.6,68,26.1,22.6,0,5,7,0,2026-03-11T05:01:35.022807+05:30
Thane,Maharashtra,19.2183,72.9781,23.9,87,0.0,1009.5,7.6,37.1,147,65.9,63.1,3,0,4,1,2026-03-11T05:01:35.022816+05:30
Nagpur,Maharashtra,21.1458,79.0882,18.8,75,0.0,976.2,7.95,11.2,82,22.4,15.9,3,5,7,0,2026-03-11T05:01:35.022825+05:30
Nashik,Maharashtra,19.9975,73.7898,23.3,46,0.0,947.9,7.75,23.4,67,26.7,24.1,0,5,7,0,2026-03-11T05:01:35.022833+05:30
Aurangabad,Maharashtra,19.8762,75.3433,20.6,61,0.0,946.5,8.3,21.2,82,51.1,43.0,3,5,7,0,2026-03-11T05:01:35.022842+05:30
Solapur,Maharashtra,17.6599,75.9064,22.7,68,0.0,960.4,8.5,19.4,131,56.6,50.3,3,5,7,1,2026-03-11T05:01:35.022850+05:30
Kolhapur,Maharashtra,16.705,74.2433,24.6,59,0.0,950.8,8.65,32.0,144,79.2,71.5,0,5,7,0,2026-03-11T05:01:35.022858+05:30
Goa,Goa,15.2993,74.124,25.7,99,0.0,1000.5,8.65,40.0,152,80.3,71.7,7,5,4,1,2026-03-11T05:01:35.022866+05:30
Jodhpur,Rajasthan,26.2389,73.0243,22.6,37,0.0,987.9,7.15,33.1,80,221.7,46.7,0,5,7,0,2026-03-11T05:01:35.022874+05:30
Udaipur,Rajasthan,24.5854,73.7125,18.5,45,0.0,950.8,7.8,24.8,49,19.5,13.9,0,5,7,0,2026-03-11T05:01:35.022882+05:30
Kota,Rajasthan,25.2138,75.8648,16.7,67,0.0,983.1,7.2,16.6,73,59.6,24.2,3,5,7,0,2026-03-11T05:01:35.022890+05:30
Bikaner,Rajasthan,28.0229,73.3119,22.8,37,0.0,986.4,6.25,29.9,70,70.8,28.7,0,5,7,0,2026-03-11T05:01:35.022898+05:30
Ajmer,Rajasthan,26.4499,74.6399,21.0,36,0.0,959.0,7.15,29.5,77,58.7,31.5,0,5,7,0,2026-03-11T05:01:35.022906+05:30
Gwalior,Madhya Pradesh,26.2183,78.1828,20.3,71,0.0,988.1,6.8,30.2,133,167.2,46.2,3,5,7,0,2026-03-11T05:01:35.022914+05:30
Indore,Madhya Pradesh,22.7196,75.8577,18.0,49,0.0,950.9,7.7,22.0,65,31.9,22.9,0,5,7,0,2026-03-11T05:01:35.022922+05:30
Bhopal,Madhya Pradesh,23.2599,77.4126,19.5,46,0.0,957.1,7.6,26.3,53,42.1,25.2,0,5,7,0,2026-03-11T05:01:35.022930+05:30
Jabalpur,Madhya Pradesh,23.1815,79.9864,20.6,69,0.0,965.3,7.7,22.0,78,59.1,33.8,3,5,7,0,2026-03-11T05:01:35.022938+05:30
Ujjain,Madhya Pradesh,23.1765,75.7885,19.6,44,0.0,957.0,7.6,16.9,79,42.4,31.5,0,5,7,0,2026-03-11T05:01:35.022946+05:30
Visakhapatnam,Andhra Pradesh,17.6868,83.2185,23.5,88,0.0,1008.5,8.6,36.4,117,38.3,34.6,3,0,4,1,2026-03-11T05:01:35.022954+05:30
Vijayawada,Andhra Pradesh,16.5062,80.648,21.9,92,0.0,1007.8,8.7,15.1,114,39.0,36.1,3,5,4,1,2026-03-11T05:01:35.022962+05:30
Guntur,Andhra Pradesh,16.3067,80.4365,21.4,91,0.0,1008.8,8.7,18.4,101,28.9,27.0,3,0,4,1,2026-03-11T05:01:35.022970+05:30
Nellore,Andhra Pradesh,14.4426,79.9865,22.8,87,0.0,1010.8,8.9,28.1,78,27.2,23.6,3,0,4,1,2026-03-11T05:01:35.022979+05:30
Kurnool,Andhra Pradesh,15.8281,78.0373,22.2,69,0.0,980.9,8.7,22.7,87,18.8,16.5,3,5,7,1,2026-03-11T05:01:35.022988+05:30
Kakinada,Andhra Pradesh,16.9891,82.2475,21.2,90,0.0,1012.6,8.65,19.4,101,35.9,31.5,3,0,4,1,2026-03-11T05:01:35.022996+05:30
Tirupati,Andhra Pradesh,13.6288,79.4192,18.7,88,0.0,996.3,9.0,31.3,99,43.8,41.1,3,10,7,1,2026-03-11T05:01:35.023004+05:30
Warangal,Telangana,17.9689,79.5941,22.8,69,0.0,982.6,8.45,23.4,125,19.1,18.1,3,5,7,1,2026-03-11T05:01:35.023013+05:30
Nizamabad,Telangana,18.6725,78.0941,23.4,63,0.0,968.1,8.3,24.8,138,50.3,45.9,3,5,7,0,2026-03-11T05:01:35.023020+05:30
Mysore,Karnataka,12.2958,76.6396,19.5,85,0.0,930.1,9.25,29.2,83,22.2,20.7,3,10,7,1,2026-03-11T05:01:35.023028+05:30
Mangalore,Karnataka,12.9141,74.856,28.5,83,0.0,1008.7,8.9,29.5,117,49.2,42.4,7,0,4,1,2026-03-11T05:01:35.023036+05:30
Hubli-Dharwad,Karnataka,15.3647,75.124,21.3,49,0.0,943.0,8.85,36.0,121,30.3,27.1,0,5,7,0,2026-03-11T05:01:35.023045+05:30
Belgaum,Karnataka,15.8497,74.4977,21.9,58,0.0,927.9,8.9,42.8,129,48.3,41.1,0,5,7,0,2026-03-11T05:01:38.379352+05:30
Coimbatore,Tamil Nadu,11.0168,76.9558,22.1,83,0.0,964.8,9.25,39.2,89,26.7,25.5,3,5,7,1,2026-03-11T05:01:38.379382+05:30
Madurai,Tamil Nadu,9.9252,78.1198,23.7,85,0.0,996.4,9.25,32.0,81,25.4,23.7,3,5,7,1,2026-03-11T05:01:38.379393+05:30
Trichy,Tamil Nadu,10.7905,78.7047,23.4,96,0.0,1003.5,9.15,27.0,79,26.1,21.9,3,5,4,1,2026-03-11T05:01:38.379403+05:30
Salem,Tamil Nadu,11.6643,78.146,21.9,87,0.0,980.8,9.15,26.6,91,32.5,30.0,3,5,7,1,2026-03-11T05:01:38.379411+05:30
Tirunelveli,Tamil Nadu,8.7139,77.7567,24.7,84,0.0,1006.6,7.9,26.3,69,28.2,24.3,3,5,4,1,2026-03-11T05:01:38.379420+05:30
Vellore,Tamil Nadu,12.9165,79.1325,20.0,93,0.0,989.0,9.1,32.8,108,51.0,46.2,3,5,7,1,2026-03-11T05:01:38.379428+05:30
Erode,Tamil Nadu,11.341,77.7172,23.0,95,0.0,992.8,9.15,22.0,91,32.0,29.3,3,5,7,1,2026-03-11T05:01:38.379436+05:30
Kochi,Kerala,9.9312,76.2673,26.9,78,0.0,1010.5,8.9,36.7,140,35.6,32.5,7,0,4,1,2026-03-11T05:01:38.379445+05:30
Thiruvananthapuram,Kerala,8.5241,76.9366,27.8,74,0.0,1009.3,7.9,27.0,90,21.3,19.0,7,0,4,1,2026-03-11T05:01:38.379471+05:30
Kozhikode,Kerala,11.2588,75.7804,27.0,79,0.0,1009.9,8.95,29.9,119,61.9,50.9,7,0,4,1,2026-03-11T05:01:38.379480+05:30
Thrissur,Kerala,10.5276,76.2144,24.4,85,0.0,1009.1,9.05,38.2,113,37.3,36.1,3,0,4,1,2026-03-11T05:01:38.379489+05:30
Kannur,Kerala,11.8745,75.3704,26.7,83,0.0,1008.9,8.95,36.0,130,65.2,57.7,7,0,4,1,2026-03-11T05:01:38.379497+05:30
Patna,Bihar,25.5941,85.1376,24.3,86,0.0,1005.7,7.35,22.3,185,177.9,166.2,3,5,4,1,2026-03-11T05:01:38.379505+05:30
Gaya,Bihar,24.7914,85.0002,22.3,94,0.0,998.8,7.55,20.5,169,100.6,93.8,3,5,7,1,2026-03-11T05:01:38.379513+05:30
Muzaffarpur,Bihar,26.1209,85.3647,22.4,94,0.0,1005.6,7.4,23.0,193,197.9,185.8,3,5,4,1,2026-03-11T05:01:38.379521+05:30
Bhagalpur,Bihar,25.2425,87.0117,21.9,92,0.0,1006.8,7.45,22.3,170,115.0,104.3,3,5,4,1,2026-03-11T05:01:38.379528+05:30
Ranchi,Jharkhand,23.3441,85.3096,20.3,93,0.0,941.9,8.15,29.9,167,129.9,115.3,3,5,7,1,2026-03-11T05:01:38.379536+05:30
Jamshedpur,Jharkhand,22.8046,86.2029,23.2,92,0.0,995.8,8.05,29.5,152,75.7,67.1,3,5,7,1,2026-03-11T05:01:38.379544+05:30
Dhanbad,Jharkhand,23.7957,86.4304,22.4,86,0.0,984.7,7.95,26.6,177,184.4,174.2,3,5,7,1,2026-03-11T05:01:38.379552+05:30
Bokaro,Jharkhand,23.6693,86.1511,21.9,89,0.0,988.8,7.95,41.8,181,184.9,171.8,3,5,7,1,2026-03-11T05:01:38.379560+05:30
Bhubaneswar,Odisha,20.2961,85.8245,23.7,93,0.0,1007.5,8.35,27.4,131,40.2,35.3,3,5,4,1,2026-03-11T05:01:38.379567+05:30
Cuttack,Odisha,20.4625,85.8828,24.1,92,0.0,1009.6,8.4,29.2,131,40.2,35.3,3,0,4,1,2026-03-11T05:01:38.379575+05:30
Rourkela,Odisha,22.2604,84.8536,23.2,87,0.0,989.8,7.95,27.4,159,96.6,88.5,3,5,7,1,2026-03-11T05:01:38.379582+05:30
Raipur,Chhattisgarh,21.2514,81.6296,22.5,69,0.0,978.5,8.05,22.0,152,75.2,62.4,3,5,7,1,2026-03-11T05:01:38.379590+05:30
Bhilai,Chhattisgarh,21.1938,81.3509,20.9,75,0.0,978.6,8.1,18.0,146,60.3,49.0,3,5,7,1,2026-03-11T05:01:38.379597+05:30
Guwahati,Assam,26.1158,91.7086,22.4,89,0.0,1006.2,7.35,19.1,155,55.9,51.1,3,5,4,1,2026-03-11T05:01:38.379604+05:30
Agartala,Tripura,23.8315,91.2868,20.3,100,0.0,1011.2,7.7,19.8,171,109.0,101.3,3,0,4,1,2026-03-11T05:01:38.379612+05:30
Shillong,Meghalaya,25.5788,91.8933,10.6,87,0.0,857.5,6.8,20.5,145,49.4,45.4,3,10,7,0,2026-03-11T05:01:38.379620+05:30
Imphal,Manipur,24.817,93.9368,15.3,87,0.0,927.1,7.95,36.4,154,69.8,67.1,3,10,7,0,2026-03-11T05:01:38.379629+05:30
Aizawl,Mizoram,23.7271,92.7176,15.4,81,0.0,895.4,7.9,31.7,166,163.0,156.9,3,10,7,0,2026-03-11T05:01:38.379637+05:30
Kohima,Nagaland,25.6701,94.1077,13.5,89,0.0,857.9,7.05,37.4,138,51.8,49.4,3,10,7,0,2026-03-11T05:01:38.379645+05:30
Gangtok,Sikkim,27.3314,88.6138,13.6,66,0.0,839.8,6.45,23.8,136,36.2,31.9,3,5,7,0,2026-03-11T05:01:38.379653+05:30
Siliguri,West Bengal,26.7271,88.3953,20.6,69,0.0,998.9,7.1,22.0,162,89.4,83.8,3,5,7,0,2026-03-11T05:01:41.738883+05:30
Durgapur,West Bengal,23.5204,87.3119,21.8,92,0.0,1000.1,7.9,27.4,157,83.6,76.6,3,5,4,1,2026-03-11T05:01:41.738918+05:30
Asansol,West Bengal,23.6739,86.9524,22.1,90,0.0,998.9,7.95,28.4,163,100.8,93.6,3,5,7,1,2026-03-11T05:01:41.738930+05:30
Pondicherry,Puducherry,11.9139,79.8145,22.8,93,0.0,1012.5,9.0,29.5,63,20.7,16.2,3,0,4,1,2026-03-11T05:01:41.738940+05:30
Port Blair,Andaman and Nicobar Islands,11.6234,92.7265,27.3,83,0.0,1009.7,8.95,20.2,64,20.3,17.1,7,0,4,1,2026-03-11T05:01:41.738951+05:30
Haridwar,Uttarakhand,29.9457,78.1642,20.4,93,0.0,978.5,5.65,35.6,159,82.2,69.4,3,5,3,1,2026-03-11T05:01:41.738960+05:30
Rishikesh,Uttarakhand,30.0869,78.2676,19.9,84,0.0,971.3,5.55,33.1,156,78.9,65.2,3,10,3,1,2026-03-11T05:01:41.738970+05:30
Nainital,Uttarakhand,29.3919,79.4542,17.3,71,0.0,808.7,6.8,68.0,179,111.5,91.5,3,5,7,0,2026-03-11T05:01:41.738979+05:30
Mussoorie,Uttarakhand,30.4599,78.0664,15.5,72,0.0,805.4,5.7,40.7,154,56.0,49.4,3,5,3,0,2026-03-11T05:01:41.738988+05:30
Dharamshala,Himachal Pradesh,32.219,76.3234,21.3,30,0.0,874.1,5.15,25.6,58,27.4,14.0,0,5,3,0,2026-03-11T05:01:41.738996+05:30
Dalhousie,Himachal Pradesh,32.5387,75.971,17.9,25,0.0,808.3,5.3,22.0,94,41.2,31.8,0,5,3,1,2026-03-11T05:01:41.739006+05:30
Patiala,Punjab,30.3398,76.3869,19.2,87,0.0,982.3,5.65,18.4,171,126.2,97.3,3,10,3,1,2026-03-11T05:01:41.739015+05:30
Bhatinda,Punjab,30.211,74.9455,18.6,82,0.0,988.0,6.45,19.1,151,141.1,71.2,3,10,7,0,2026-03-11T05:01:41.739024+05:30
Rohtak,Haryana,28.8955,76.6066,17.9,88,0.0,986.0,6.05,24.5,250,343.7,143.0,3,10,7,0,2026-03-11T05:01:41.739033+05:30
Panipat,Haryana,29.3909,76.9635,17.2,93,0.0,984.7,5.2,22.3,266,351.1,149.9,3,10,3,1,2026-03-11T05:01:41.739042+05:30
Mathura,Uttar Pradesh,27.4924,77.6737,18.1,88,0.0,991.6,6.4,23.8,284,321.3,98.3,3,10,7,0,2026-03-11T05:01:41.739051+05:30
Vrindavan,Uttar Pradesh,27.5823,77.7027,17.4,90,0.0,992.0,6.4,25.2,284,321.3,98.3,3,10,7,0,2026-03-11T05:01:41.739059+05:30
Ayodhya,Uttar Pradesh,26.7922,82.1998,22.9,91,0.0,1000.4,6.8,26.6,194,173.2,161.6,3,5,4,1,2026-03-11T05:01:41.739068+05:30
Ratlam,Madhya Pradesh,23.3315,75.0367,15.8,78,0.0,957.4,7.6,21.6,68,42.1,30.4,3,5,7,0,2026-03-11T05:01:41.739077+05:30
Sagar,Madhya Pradesh,23.8388,78.7378,21.1,58,0.0,954.3,7.55,24.1,61,77.1,26.8,0,5,7,0,2026-03-11T05:01:41.739086+05:30
Satna,Madhya Pradesh,24.6005,80.8322,20.7,84,0.0,976.2,7.55,33.5,153,136.4,82.4,3,5,7,1,2026-03-11T05:01:41.739095+05:30
Akola,Maharashtra,20.7002,77.0082,22.5,60,0.0,978.0,8.0,16.2,67,32.6,27.6,0,5,7,0,2026-03-11T05:01:41.739104+05:30
Amravati,Maharashtra,20.9374,77.7796,20.4,72,0.0,970.1,8.0,11.2,68,36.3,30.9,3,5,7,0,2026-03-11T05:01:41.739114+05:30
Latur,Maharashtra,18.4088,76.5604,20.9,73,0.0,942.5,8.45,24.5,119,53.6,48.0,3,5,7,0,2026-03-11T05:01:41.739123+05:30
Nanded,Maharashtra,19.1383,77.3091,22.7,68,0.0,971.8,8.2,20.5,128,58.4,52.4,3,5,7,1,2026-03-11T05:01:41.739133+05:30
Gulbarga,Karnataka,17.3297,76.8343,23.6,60,0.0,962.4,8.5,20.5,129,29.5,27.2,0,5,7,0,2026-03-11T05:01:41.739143+05:30
Bidar,Karnataka,17.9104,77.5199,21.3,68,0.0,938.5,8.5,23.8,133,36.9,33.6,3,5,7,0,2026-03-11T05:01:41.739152+05:30
Hospet,Karnataka,15.2689,76.3909,23.2,56,0.0,958.9,8.8,27.4,103,18.5,17.3,0,5,7,0,2026-03-11T05:01:41.739160+05:30
Tirupur,Tamil Nadu,11.1085,77.3411,22.9,87,0.0,978.9,9.25,30.6,99,39.6,37.1,3,5,7,1,2026-03-11T05:01:41.739168+05:30
Alappuzha,Kerala,9.4981,76.3388,28.2,73,0.0,1010.4,8.25,33.5,136,50.1,43.8,7,0,4,1,2026-03-11T05:01:41.739177+05:30
Munnar,Kerala,10.0889,77.0595,18.9,84,0.0,857.2,7.35,25.9,79,22.5,21.8,3,10,7,1,2026-03-11T05:01:41.739187+05:30
Silchar,Assam,24.8333,92.7789,21.9,88,0.0,1010.1,7.65,16.9,166,111.8,105.0,3,0,4,1,2026-03-11T05:01:41.739195+05:30
Dibrugarh,Assam,27.4728,94.912,21.9,88,0.0,1001.6,7.45,21.6,163,72.2,67.3,3,5,4,1,2026-03-11T05:01:41.739204+05:30
