city,state,latitude,longitude,temp,humidity,rain,pressure,uv_index,wind_gusts,aqi,pm10,pm2_5,mosquito_risk,arthritis_risk,migraine_risk,frizz_risk,updated_at
Delhi,Delhi,28.6139,77.209,28.8,47,0.0,976.9,7.0,42.5,554,609.1,136.0,4,5,7,1,2026-04-28T05:27:53.214507+05:30
Mumbai,Maharashtra,19.076,72.8777,26.5,96,0.0,1005.9,8.0,38.9,86,63.1,32.8,7,5,4,1,2026-04-28T05:27:53.214550+05:30
Bangalore,Karnataka,12.9716,77.5946,23.0,87,0.0,909.9,9.1,40.3,87,38.8,34.2,3,5,7,1,2026-04-28T05:27:53.214566+05:30
Hyderabad,Telangana,17.385,78.4867,28.5,60,0.0,950.8,8.95,49.3,99,38.2,32.1,4,5,7,1,2026-04-28T05:27:53.214577+05:30
Chennai,Tamil Nadu,13.0827,80.2707,28.1,87,0.0,1005.4,8.5,56.5,55,14.8,10.2,7,5,4,1,2026-04-28T05:27:53.214586+05:30
Kolkata,West Bengal,22.5726,88.3639,27.5,88,0.0,1001.0,8.85,63.4,56,26.2,21.2,7,5,4,1,2026-04-28T05:27:53.214595+05:30
Pune,Maharashtra,18.5204,73.8567,24.6,67,0.0,945.5,8.6,41.0,70,40.6,23.6,3,5,7,1,2026-04-28T05:27:53.214607+05:30
Ahmedabad,Gujarat,23.0225,72.5714,28.5,39,0.0,998.5,8.2,47.9,43,16.5,7.4,4,5,7,0,2026-04-28T05:27:53.214615+05:30
Jaipur,Rajasthan,26.9124,75.7873,27.6,36,0.0,954.3,8.1,39.6,154,151.8,33.8,4,5,7,0,2026-04-28T05:27:53.214623+05:30
Lucknow,Uttar Pradesh,26.8467,80.9462,27.0,63,0.0,988.9,7.9,40.0,137,61.2,46.0,7,5,7,1,2026-04-28T05:27:53.214631+05:30
Kanpur,Uttar Pradesh,26.4499,80.3319,28.1,37,0.0,985.8,7.95,43.9,184,162.5,47.6,4,5,7,0,2026-04-28T05:27:53.214639+05:30
Chandigarh,Chandigarh,30.7333,76.7794,23.9,38,0.0,961.9,4.1,53.3,43,10.6,9.9,0,5,3,0,2026-04-28T05:27:53.214647+05:30
Srinagar,Jammu and Kashmir,34.0837,74.7973,8.8,94,0.0,836.0,4.65,31.7,70,43.4,37.0,3,10,3,0,2026-04-28T05:27:53.214656+05:30
Jammu,Jammu and Kashmir,32.7266,74.857,23.5,39,0.0,967.2,6.75,44.3,56,14.8,13.1,0,5,7,0,2026-04-28T05:27:53.214663+05:30
Amritsar,Punjab,31.634,74.8723,27.1,42,0.0,974.9,6.5,48.6,75,52.6,41.8,4,5,7,0,2026-04-28T05:27:53.214671+05:30
Ludhiana,Punjab,30.901,75.8573,27.0,39,0.0,972.2,7.1,32.4,71,23.7,23.4,4,5,7,0,2026-04-28T05:27:53.214677+05:30
Jalandhar,Punjab,31.326,75.5762,24.8,48,0.0,973.1,6.65,36.0,78,31.2,26.1,0,5,7,0,2026-04-28T05:27:53.214686+05:30
Dehradun,Uttarakhand,30.6284,78.0322,11.6,59,0.0,822.8,6.3,53.3,37,11.2,11.2,0,5,7,0,2026-04-28T05:27:53.214693+05:30
Shimla,Himachal Pradesh,31.1048,77.1734,12.1,41,0.0,778.7,3.5,47.9,46,11.4,10.6,0,5,3,1,2026-04-28T05:27:53.214700+05:30
Manali,Himachal Pradesh,32.2396,77.1887,8.7,62,0.0,810.9,8.75,40.0,46,36.4,25.7,3,5,7,0,2026-04-28T05:27:53.214706+05:30
Gurgaon,Haryana,28.4595,77.0266,25.9,56,0.0,975.3,7.15,48.6,1211,627.7,110.1,4,5,7,1,2026-04-28T05:27:53.214715+05:30
Noida,Uttar Pradesh,28.5355,77.391,28.9,39,0.0,978.3,7.0,42.1,1211,627.7,110.1,4,5,7,0,2026-04-28T05:27:53.214722+05:30
Ghaziabad,Uttar Pradesh,28.6692,77.4538,28.0,39,0.0,976.5,7.0,59.8,427,666.8,144.4,4,5,7,0,2026-04-28T05:27:53.214729+05:30
Faridabad,Haryana,28.4089,77.3178,30.1,35,0.0,977.7,7.35,47.5,1211,627.7,110.1,0,5,7,0,2026-04-28T05:27:53.214735+05:30
Meerut,Uttar Pradesh,28.9845,77.7064,27.5,40,0.0,975.3,6.6,52.6,427,666.8,144.4,4,5,7,0,2026-04-28T05:27:53.214742+05:30
Agra,Uttar Pradesh,27.1767,78.0081,30.1,29,0.0,981.7,7.85,41.0,693,601.6,79.2,0,5,7,0,2026-04-28T05:27:53.214749+05:30
Varanasi,Uttar Pradesh,25.3176,82.9739,26.0,77,0.0,992.3,8.5,40.7,128,55.8,43.7,7,5,7,1,2026-04-28T05:27:53.214758+05:30
Prayagraj,Uttar Pradesh,25.4358,81.8463,27.0,70,0.0,990.0,8.4,37.4,130,60.5,46.6,7,5,7,1,2026-04-28T05:27:53.214764+05:30
Gorakhpur,Uttar Pradesh,26.7606,83.3732,23.3,82,0.0,993.4,8.3,35.3,136,36.1,31.8,3,5,7,1,2026-04-28T05:27:53.214771+05:30
Bareilly,Uttar Pradesh,28.367,79.4304,26.1,43,0.0,981.2,7.75,50.4,103,72.4,42.8,4,5,7,0,2026-04-28T05:27:53.214778+05:30
Aligarh,Uttar Pradesh,27.8974,78.088,31.3,27,0.0,978.9,7.65,59.0,696,810.3,151.3,0,5,7,0,2026-04-28T05:27:53.214784+05:30
Moradabad,Uttar Pradesh,28.8386,78.7733,26.5,39,0.0,978.2,6.55,48.2,124,306.4,79.2,4,5,7,0,2026-04-28T05:27:53.214793+05:30
Saharanpur,Uttar Pradesh,29.9637,77.546,25.8,40,0.0,969.5,7.0,42.1,77,37.0,26.6,4,5,7,0,2026-04-28T05:27:53.214799+05:30
Jhansi,Uttar Pradesh,25.4484,78.5685,28.5,31,0.0,972.8,8.3,42.8,58,19.8,15.0,4,5,7,0,2026-04-28T05:27:56.496032+05:30
Surat,Gujarat,21.1702,72.8311,26.9,85,0.0,1003.6,7.9,44.3,85,42.8,26.7,7,5,4,1,2026-04-28T05:27:56.496064+05:30
Vadodara,Gujarat,22.3072,73.1812,27.4,69,0.0,1001.2,8.15,48.6,65,31.1,21.0,7,5,4,1,2026-04-28T05:27:56.496074+05:30
Rajkot,Gujarat,22.3039,70.8022,25.5,59,0.0,990.5,7.9,53.3,46,12.5,6.7,4,5,7,1,2026-04-28T05:27:56.496083+05:30
Thane,Maharashtra,19.2183,72.9781,26.0,99,0.0,1005.3,8.05,36.4,86,63.1,32.8,7,5,4,1,2026-04-28T05:27:56.496090+05:30
Nagpur,Maharashtra,21.1458,79.0882,32.5,21,0.0,969.2,8.85,50.8,99,33.4,29.0,0,5,7,0,2026-04-28T05:27:56.496098+05:30
Nashik,Maharashtra,19.9975,73.7898,25.4,39,0.0,942.8,8.3,43.6,77,50.5,25.9,4,5,7,0,2026-04-28T05:27:56.496105+05:30
Aurangabad,Maharashtra,19.8762,75.3433,28.7,30,0.0,941.3,9.0,43.6,70,38.4,23.1,4,5,7,0,2026-04-28T05:27:56.496113+05:30
Solapur,Maharashtra,17.6599,75.9064,28.2,63,0.0,954.4,9.1,40.7,81,26.6,22.5,7,5,7,1,2026-04-28T05:27:56.496121+05:30
Kolhapur,Maharashtra,16.705,74.2433,22.7,95,0.0,945.7,9.0,50.8,72,43.0,24.2,3,5,7,1,2026-04-28T05:27:56.496128+05:30
Goa,Goa,15.2993,74.124,27.5,89,0.0,995.6,8.95,35.3,65,46.0,17.4,7,5,7,1,2026-04-28T05:27:56.496135+05:30
Jodhpur,Rajasthan,26.2389,73.0243,28.6,30,0.0,977.8,8.3,46.8,129,196.5,31.0,4,5,7,0,2026-04-28T05:27:56.496142+05:30
Udaipur,Rajasthan,24.5854,73.7125,26.0,35,0.0,942.4,8.75,49.3,39,18.8,8.6,4,5,7,0,2026-04-28T05:27:56.496150+05:30
Kota,Rajasthan,25.2138,75.8648,28.5,23,0.0,974.1,8.3,38.5,52,11.1,9.7,4,5,7,0,2026-04-28T05:27:56.496157+05:30
Bikaner,Rajasthan,28.0229,73.3119,28.4,37,0.0,975.5,8.15,59.0,57,87.1,22.9,4,5,7,0,2026-04-28T05:27:56.496165+05:30
Ajmer,Rajasthan,26.4499,74.6399,27.8,26,0.0,949.9,8.25,43.6,60,13.6,6.5,4,5,7,0,2026-04-28T05:27:56.496172+05:30
Gwalior,Madhya Pradesh,26.2183,78.1828,29.3,32,0.0,977.4,8.05,43.9,74,27.8,15.1,4,5,7,0,2026-04-28T05:27:56.496178+05:30
Indore,Madhya Pradesh,22.7196,75.8577,27.7,32,0.0,945.2,8.6,54.7,49,26.4,18.1,4,5,7,0,2026-04-28T05:27:56.496185+05:30
Bhopal,Madhya Pradesh,23.2599,77.4126,29.7,21,0.0,950.2,8.6,46.4,50,13.8,10.7,4,5,7,0,2026-04-28T05:27:56.496192+05:30
Jabalpur,Madhya Pradesh,23.1815,79.9864,27.1,40,0.0,956.8,8.75,42.5,63,31.0,22.6,4,5,7,0,2026-04-28T05:27:56.496199+05:30
Ujjain,Madhya Pradesh,23.1765,75.7885,27.3,33,0.0,950.7,8.55,56.9,50,25.6,18.3,4,5,7,0,2026-04-28T05:27:56.496207+05:30
Visakhapatnam,Andhra Pradesh,17.6868,83.2185,26.9,91,0.0,1001.1,7.65,58.3,67,31.4,23.3,7,5,4,1,2026-04-28T05:27:56.496214+05:30
Vijayawada,Andhra Pradesh,16.5062,80.648,27.9,90,0.0,1000.0,8.95,41.4,67,19.5,14.7,7,5,4,1,2026-04-28T05:27:56.496221+05:30
Guntur,Andhra Pradesh,16.3067,80.4365,28.0,89,0.0,1001.2,9.0,45.4,68,18.6,14.1,7,5,4,1,2026-04-28T05:27:56.496228+05:30
Nellore,Andhra Pradesh,14.4426,79.9865,26.8,88,0.0,1003.5,9.1,48.2,62,13.1,10.2,7,5,4,1,2026-04-28T05:27:56.496235+05:30
Kurnool,Andhra Pradesh,15.8281,78.0373,31.7,41,0.0,974.2,9.2,40.7,94,29.9,27.4,0,5,7,1,2026-04-28T05:27:56.496243+05:30
Kakinada,Andhra Pradesh,16.9891,82.2475,27.1,92,0.0,1005.4,9.2,45.7,62,29.8,18.4,7,5,4,1,2026-04-28T05:27:56.496250+05:30
Tirupati,Andhra Pradesh,13.6288,79.4192,26.2,84,0.0,989.7,8.6,38.2,69,13.6,11.3,7,5,7,1,2026-04-28T05:27:56.496256+05:30
Warangal,Telangana,17.9689,79.5941,26.8,79,0.0,975.8,8.8,38.2,82,27.2,25.0,7,5,7,1,2026-04-28T05:27:56.496263+05:30
Nizamabad,Telangana,18.6725,78.0941,29.7,40,0.0,961.8,8.95,36.0,97,54.7,48.0,4,5,7,0,2026-04-28T05:27:56.496269+05:30
Mysore,Karnataka,12.2958,76.6396,23.1,94,0.0,926.6,9.05,40.7,99,37.3,34.6,3,5,7,1,2026-04-28T05:27:56.496276+05:30
Mangalore,Karnataka,12.9141,74.856,28.2,84,0.0,1004.4,8.7,37.4,76,33.4,28.5,7,5,4,1,2026-04-28T05:27:56.496283+05:30
Hubli-Dharwad,Karnataka,15.3647,75.124,24.1,89,0.0,938.7,9.2,40.3,80,15.5,12.5,3,5,7,1,2026-04-28T05:27:56.496290+05:30
Belgaum,Karnataka,15.8497,74.4977,22.9,93,0.0,923.2,9.25,47.9,77,31.9,20.1,3,5,7,1,2026-04-28T05:27:59.764445+05:30
Coimbatore,Tamil Nadu,11.0168,76.9558,24.8,94,0.0,960.0,7.75,49.0,74,19.6,18.0,3,5,7,1,2026-04-28T05:27:59.764476+05:30
Madurai,Tamil Nadu,9.9252,78.1198,26.9,76,0.0,991.3,8.55,50.8,52,19.7,19.0,7,5,7,1,2026-04-28T05:27:59.764487+05:30
Trichy,Tamil Nadu,10.7905,78.7047,27.0,85,0.0,998.2,8.25,45.7,52,10.9,10.2,7,5,7,1,2026-04-28T05:27:59.764495+05:30
Salem,Tamil Nadu,11.6643,78.146,26.4,74,0.0,975.8,8.85,31.7,62,11.8,11.3,7,5,7,1,2026-04-28T05:27:59.764503+05:30
Tirunelveli,Tamil Nadu,8.7139,77.7567,26.3,83,0.0,1001.2,9.15,45.0,64,24.5,22.3,7,5,4,1,2026-04-28T05:27:59.764512+05:30
Vellore,Tamil Nadu,12.9165,79.1325,25.6,87,0.0,983.1,8.3,38.9,81,21.8,20.5,7,5,7,1,2026-04-28T05:27:59.764520+05:30
Erode,Tamil Nadu,11.341,77.7172,27.7,78,0.0,987.4,8.35,50.0,65,20.3,19.3,7,5,7,1,2026-04-28T05:27:59.764528+05:30
Kochi,Kerala,9.9312,76.2673,26.2,90,0.1,1007.3,7.45,36.4,78,21.9,19.4,10,5,4,1,2026-04-28T05:27:59.764536+05:30
Thiruvananthapuram,Kerala,8.5241,76.9366,24.3,95,0.0,1006.3,8.4,36.4,61,23.3,19.3,3,5,4,1,2026-04-28T05:27:59.764544+05:30
Kozhikode,Kerala,11.2588,75.7804,26.1,93,0.1,1006.2,5.2,36.0,66,24.2,17.8,10,5,0,1,2026-04-28T05:27:59.764552+05:30
Thrissur,Kerala,10.5276,76.2144,25.0,94,0.0,1005.6,7.0,36.7,74,22.9,20.1,7,5,4,1,2026-04-28T05:27:59.764560+05:30
Kannur,Kerala,11.8745,75.3704,26.5,93,0.0,1005.3,8.25,37.8,75,33.5,28.6,7,5,4,1,2026-04-28T05:27:59.764567+05:30
Patna,Bihar,25.5941,85.1376,22.1,90,0.0,996.6,8.6,33.8,109,30.0,25.0,3,5,7,1,2026-04-28T05:27:59.764574+05:30
Gaya,Bihar,24.7914,85.0002,23.8,84,0.0,989.3,8.7,35.3,114,29.2,27.4,3,5,7,1,2026-04-28T05:27:59.764582+05:30
Muzaffarpur,Bihar,26.1209,85.3647,21.8,88,0.0,997.0,8.3,36.7,108,25.4,22.4,3,5,7,1,2026-04-28T05:27:59.764589+05:30
Bhagalpur,Bihar,25.2425,87.0117,22.2,91,0.0,997.6,8.6,31.7,93,28.5,23.9,3,5,7,1,2026-04-28T05:27:59.764596+05:30
Ranchi,Jharkhand,23.3441,85.3096,23.0,68,0.0,932.2,8.95,47.2,92,80.1,50.8,3,5,7,1,2026-04-28T05:27:59.764603+05:30
Jamshedpur,Jharkhand,22.8046,86.2029,26.1,76,0.0,985.8,9.0,55.4,99,52.2,43.7,7,5,7,1,2026-04-28T05:27:59.764610+05:30
Dhanbad,Jharkhand,23.7957,86.4304,23.8,88,0.0,975.4,8.95,37.8,127,53.9,48.2,3,5,7,1,2026-04-28T05:27:59.764617+05:30
Bokaro,Jharkhand,23.6693,86.1511,24.4,87,0.0,979.3,8.95,36.4,123,54.2,48.8,3,5,7,1,2026-04-28T05:27:59.764625+05:30
Bhubaneswar,Odisha,20.2961,85.8245,27.1,88,0.0,998.2,9.1,48.6,58,24.7,20.1,7,5,7,1,2026-04-28T05:27:59.764632+05:30
Cuttack,Odisha,20.4625,85.8828,27.0,89,0.0,1000.1,9.15,42.8,58,24.7,20.1,7,5,4,1,2026-04-28T05:27:59.764640+05:30
Rourkela,Odisha,22.2604,84.8536,26.4,80,0.0,980.0,8.85,64.1,91,55.4,37.3,7,5,7,1,2026-04-28T05:27:59.764647+05:30
Raipur,Chhattisgarh,21.2514,81.6296,29.9,43,0.0,970.4,8.9,46.8,90,40.6,34.9,4,5,7,0,2026-04-28T05:27:59.764655+05:30
Bhilai,Chhattisgarh,21.1938,81.3509,29.4,46,0.0,971.0,8.95,46.1,90,44.1,36.1,4,5,7,1,2026-04-28T05:27:59.764662+05:30
Guwahati,Assam,26.1158,91.7086,20.5,95,0.0,999.4,7.35,32.8,98,28.3,23.2,3,5,7,1,2026-04-28T05:27:59.764669+05:30
Agartala,Tripura,23.8315,91.2868,26.6,87,0.0,1001.8,8.0,44.6,67,27.7,14.6,7,5,4,1,2026-04-28T05:27:59.764676+05:30
Shillong,Meghalaya,25.5788,91.8933,15.5,98,0.0,853.1,8.8,28.4,67,0.7,0.5,3,10,7,0,2026-04-28T05:27:59.764683+05:30
Imphal,Manipur,24.817,93.9368,18.4,97,0.0,920.5,6.4,20.9,116,58.9,36.1,3,10,7,1,2026-04-28T05:27:59.764690+05:30
Aizawl,Mizoram,23.7271,92.7176,19.2,77,0.0,888.0,7.9,74.5,82,56.5,26.1,3,5,7,0,2026-04-28T05:27:59.764697+05:30
Kohima,Nagaland,25.6701,94.1077,15.8,97,0.2,851.8,7.6,29.9,99,5.8,4.4,6,10,7,0,2026-04-28T05:27:59.764704+05:30
Gangtok,Sikkim,27.3314,88.6138,11.8,89,0.0,831.8,7.0,42.5,79,41.2,28.9,3,10,7,0,2026-04-28T05:27:59.764711+05:30
Siliguri,West Bengal,26.7271,88.3953,20.4,89,0.0,990.4,8.25,28.4,99,59.8,42.4,3,5,7,1,2026-04-28T05:28:03.051263+05:30
Durgapur,West Bengal,23.5204,87.3119,25.9,88,0.0,990.2,8.85,37.1,118,61.7,53.4,7,5,7,1,2026-04-28T05:28:03.051296+05:30
Asansol,West Bengal,23.6739,86.9524,25.3,86,0.0,988.9,8.9,32.8,108,49.7,43.2,7,5,7,1,2026-04-28T05:28:03.051306+05:30
Pondicherry,Puducherry,11.9139,79.8145,28.0,82,0.0,1006.7,8.75,46.8,48,12.8,8.8,7,5,4,1,2026-04-28T05:28:03.051315+05:30
Port Blair,Andaman and Nicobar Islands,11.6234,92.7265,26.9,82,0.0,1006.3,9.1,27.0,48,18.0,13.7,7,5,4,1,2026-04-28T05:28:03.051324+05:30
Haridwar,Uttarakhand,29.9457,78.1642,20.1,57,0.0,967.4,7.1,28.1,57,22.5,22.4,0,5,7,0,2026-04-28T05:28:03.051332+05:30
Rishikesh,Uttarakhand,30.0869,78.2676,18.8,60,0.0,960.0,5.9,29.5,51,24.2,21.8,0,5,3,0,2026-04-28T05:28:03.051340+05:30
Nainital,Uttarakhand,29.3919,79.4542,14.4,51,0.0,801.0,7.0,54.4,64,38.4,17.1,0,5,7,0,2026-04-28T05:28:03.051348+05:30
Mussoorie,Uttarakhand,30.4599,78.0664,16.7,37,0.0,798.9,5.15,51.8,48,16.2,16.1,0,5,3,0,2026-04-28T05:28:03.051356+05:30
Dharamshala,Himachal Pradesh,32.219,76.3234,22.0,29,0.0,865.1,6.75,53.3,32,12.4,7.2,0,5,7,0,2026-04-28T05:28:03.051363+05:30
Dalhousie,Himachal Pradesh,32.5387,75.971,12.4,55,0.0,798.2,5.3,36.7,41,13.6,11.4,0,5,3,0,2026-04-28T05:28:03.051372+05:30
Patiala,Punjab,30.3398,76.3869,27.9,36,0.0,971.8,6.4,49.3,389,158.8,40.6,4,5,7,0,2026-04-28T05:28:03.051380+05:30
Bhatinda,Punjab,30.211,74.9455,28.1,40,0.0,977.1,7.8,44.6,82,62.6,46.3,4,5,7,0,2026-04-28T05:28:03.051388+05:30
Rohtak,Haryana,28.8955,76.6066,26.9,47,0.0,975.5,7.05,53.3,670,560.7,110.4,4,5,7,0,2026-04-28T05:28:03.051395+05:30
Panipat,Haryana,29.3909,76.9635,27.8,39,0.0,974.1,6.7,56.2,1129,689.2,142.0,4,5,7,0,2026-04-28T05:28:03.051403+05:30
Mathura,Uttar Pradesh,27.4924,77.6737,29.4,32,0.0,980.6,7.75,63.7,671,568.1,85.7,4,5,7,0,2026-04-28T05:28:03.051410+05:30
Vrindavan,Uttar Pradesh,27.5823,77.7027,29.0,33,0.0,980.9,7.75,67.3,671,568.1,85.7,4,5,7,0,2026-04-28T05:28:03.051417+05:30
Ayodhya,Uttar Pradesh,26.7922,82.1998,24.8,77,0.0,991.0,8.1,52.2,126,59.1,52.0,3,5,7,1,2026-04-28T05:28:03.051424+05:30
Ratlam,Madhya Pradesh,23.3315,75.0367,25.8,41,0.0,951.4,8.45,51.1,50,26.1,17.7,4,5,7,0,2026-04-28T05:28:03.051431+05:30
Sagar,Madhya Pradesh,23.8388,78.7378,27.9,23,0.0,945.7,8.6,45.4,52,8.8,7.9,4,5,7,0,2026-04-28T05:28:03.051438+05:30
Satna,Madhya Pradesh,24.6005,80.8322,30.0,31,0.0,965.7,8.65,46.8,56,33.4,14.5,4,5,7,0,2026-04-28T05:28:03.051446+05:30
Akola,Maharashtra,20.7002,77.0082,29.9,26,0.0,971.4,8.4,42.8,63,24.5,20.0,4,5,7,0,2026-04-28T05:28:03.051453+05:30
Amravati,Maharashtra,20.9374,77.7796,31.1,20,0.0,963.4,8.85,46.8,63,21.9,18.2,0,5,7,0,2026-04-28T05:28:03.051461+05:30
Latur,Maharashtra,18.4088,76.5604,28.4,29,0.0,936.5,8.75,36.4,80,41.8,31.2,4,5,7,0,2026-04-28T05:28:03.051469+05:30
Nanded,Maharashtra,19.1383,77.3091,28.8,28,0.0,965.3,8.75,31.0,76,24.5,22.1,4,5,7,0,2026-04-28T05:28:03.051476+05:30
Gulbarga,Karnataka,17.3297,76.8343,28.5,58,0.0,955.7,9.1,35.6,96,20.1,14.5,4,5,7,1,2026-04-28T05:28:03.051482+05:30
Bidar,Karnataka,17.9104,77.5199,27.9,44,0.0,932.8,8.45,34.6,95,46.1,41.3,4,5,7,0,2026-04-28T05:28:03.051489+05:30
Hospet,Karnataka,15.2689,76.3909,26.0,85,0.0,953.6,9.25,34.2,93,23.7,22.7,7,5,7,1,2026-04-28T05:28:03.051497+05:30
Tirupur,Tamil Nadu,11.1085,77.3411,26.1,89,0.0,973.4,7.95,33.8,78,30.7,29.1,7,5,7,1,2026-04-28T05:28:03.051504+05:30
Alappuzha,Kerala,9.4981,76.3388,25.8,97,0.0,1007.3,7.55,36.0,77,26.4,22.4,7,5,4,1,2026-04-28T05:28:03.051511+05:30
Munnar,Kerala,10.0889,77.0595,18.2,81,0.0,855.3,8.55,26.6,79,33.3,31.1,3,10,7,0,2026-04-28T05:28:03.051519+05:30
Silchar,Assam,24.8333,92.7789,22.0,92,0.1,1001.8,3.1,34.2,136,30.9,23.4,6,5,0,1,2026-04-28T05:28:03.051527+05:30
Dibrugarh,Assam,27.4728,94.912,20.9,97,0.0,994.6,7.8,18.0,109,42.6,33.2,3,5,7,1,2026-04-28T05:28:03.051534+05:30
