city,state,latitude,longitude,temp,humidity,rain,pressure,uv_index,wind_gusts,aqi,pm10,pm2_5,mosquito_risk,arthritis_risk,migraine_risk,frizz_risk,updated_at
Delhi,Delhi,28.6139,77.209,28.9,31,0.0,983.8,7.25,31.3,395,599.8,83.1,4,5,7,0,2026-04-13T20:22:13.205197+05:30
Mumbai,Maharashtra,19.076,72.8777,28.3,86,0.0,1009.5,8.0,20.9,126,66.8,36.1,7,0,4,1,2026-04-13T20:22:13.205250+05:30
Bangalore,Karnataka,12.9716,77.5946,30.9,30,0.0,912.8,9.6,31.3,157,36.2,28.2,0,5,7,0,2026-04-13T20:22:13.205266+05:30
Hyderabad,Telangana,17.385,78.4867,34.0,36,0.0,953.3,9.25,32.0,143,61.5,48.8,0,5,7,1,2026-04-13T20:22:13.205277+05:30
Chennai,Tamil Nadu,13.0827,80.2707,28.7,76,0.0,1008.5,9.3,35.6,44,13.9,8.5,7,0,4,1,2026-04-13T20:22:13.205286+05:30
Kolkata,West Bengal,22.5726,88.3639,27.6,84,0.0,1006.4,8.85,28.1,74,28.9,23.7,7,5,4,1,2026-04-13T20:22:13.205296+05:30
Pune,Maharashtra,18.5204,73.8567,28.4,61,0.0,949.4,8.6,40.3,124,30.2,20.5,7,5,7,1,2026-04-13T20:22:13.205308+05:30
Ahmedabad,Gujarat,23.0225,72.5714,34.6,23,0.0,1001.4,8.1,29.5,159,55.8,30.4,0,5,4,0,2026-04-13T20:22:13.205317+05:30
Jaipur,Rajasthan,26.9124,75.7873,31.5,25,0.0,960.4,7.9,25.6,147,131.3,30.5,0,5,7,0,2026-04-13T20:22:13.205326+05:30
Lucknow,Uttar Pradesh,26.8467,80.9462,28.7,36,0.0,994.0,7.75,41.0,118,265.4,45.4,4,5,7,0,2026-04-13T20:22:13.205335+05:30
Kanpur,Uttar Pradesh,26.4499,80.3319,27.1,47,0.0,992.5,7.75,31.0,310,421.9,59.1,4,5,7,0,2026-04-13T20:22:13.205343+05:30
Chandigarh,Chandigarh,30.7333,76.7794,25.0,46,0.0,969.8,7.2,27.0,153,16.1,14.0,4,5,7,0,2026-04-13T20:22:13.205351+05:30
Srinagar,Jammu and Kashmir,34.0837,74.7973,14.6,61,0.0,841.5,8.1,16.9,142,43.5,31.2,3,5,7,0,2026-04-13T20:22:13.205359+05:30
Jammu,Jammu and Kashmir,32.7266,74.857,26.0,47,0.0,974.0,7.4,29.5,143,36.6,26.7,4,5,7,0,2026-04-13T20:22:13.205367+05:30
Amritsar,Punjab,31.634,74.8723,25.9,43,0.0,982.3,7.8,20.9,163,22.2,18.0,4,5,7,0,2026-04-13T20:22:13.205375+05:30
Ludhiana,Punjab,30.901,75.8573,27.2,35,0.0,980.1,7.45,24.8,145,27.5,19.6,4,5,7,0,2026-04-13T20:22:13.205382+05:30
Jalandhar,Punjab,31.326,75.5762,26.0,43,0.0,981.3,7.6,23.0,153,34.1,18.5,4,5,7,0,2026-04-13T20:22:13.205391+05:30
Dehradun,Uttarakhand,30.6284,78.0322,16.1,66,0.0,830.6,7.5,29.2,138,12.7,11.3,3,5,7,0,2026-04-13T20:22:13.205399+05:30
Shimla,Himachal Pradesh,31.1048,77.1734,14.1,64,0.0,785.1,7.7,35.6,129,15.7,9.1,3,5,7,0,2026-04-13T20:22:13.205406+05:30
Manali,Himachal Pradesh,32.2396,77.1887,15.3,80,0.0,821.0,9.8,31.0,157,14.3,8.0,3,5,7,0,2026-04-13T20:22:13.205413+05:30
Gurgaon,Haryana,28.4595,77.0266,26.4,37,0.0,982.1,7.35,25.9,1055,1270.3,151.3,4,5,7,0,2026-04-13T20:22:13.205421+05:30
Noida,Uttar Pradesh,28.5355,77.391,28.7,32,0.0,985.2,7.3,31.7,1055,1270.3,151.3,4,5,7,0,2026-04-13T20:22:13.205428+05:30
Ghaziabad,Uttar Pradesh,28.6692,77.4538,27.8,34,0.0,983.4,7.25,31.3,199,504.8,74.7,4,5,7,0,2026-04-13T20:22:13.205435+05:30
Faridabad,Haryana,28.4089,77.3178,28.4,30,0.0,984.5,7.3,29.2,1055,1270.3,151.3,4,5,7,0,2026-04-13T20:22:13.205441+05:30
Meerut,Uttar Pradesh,28.9845,77.7064,25.6,39,0.0,982.1,7.15,33.1,199,504.8,74.7,4,5,7,0,2026-04-13T20:22:13.205448+05:30
Agra,Uttar Pradesh,27.1767,78.0081,29.2,39,0.0,988.6,7.65,24.8,873,527.1,75.0,4,5,7,0,2026-04-13T20:22:13.205456+05:30
Varanasi,Uttar Pradesh,25.3176,82.9739,28.6,31,0.0,997.7,8.35,35.3,144,51.6,22.8,4,5,7,0,2026-04-13T20:22:13.205466+05:30
Prayagraj,Uttar Pradesh,25.4358,81.8463,28.7,32,0.0,996.5,8.25,35.3,132,64.7,23.1,4,5,7,0,2026-04-13T20:22:13.205477+05:30
Gorakhpur,Uttar Pradesh,26.7606,83.3732,28.1,22,0.0,996.6,8.15,24.1,141,15.4,14.3,4,5,7,0,2026-04-13T20:22:13.205484+05:30
Bareilly,Uttar Pradesh,28.367,79.4304,25.7,40,0.0,987.4,7.5,36.0,151,42.0,19.7,4,5,7,0,2026-04-13T20:22:13.205491+05:30
Aligarh,Uttar Pradesh,27.8974,78.088,26.6,35,0.0,986.2,7.45,32.0,634,968.6,127.1,4,5,7,0,2026-04-13T20:22:13.205498+05:30
Moradabad,Uttar Pradesh,28.8386,78.7733,25.5,43,0.0,984.2,7.35,33.1,146,143.9,39.6,4,5,7,0,2026-04-13T20:22:13.205504+05:30
Saharanpur,Uttar Pradesh,29.9637,77.546,24.9,43,0.0,976.3,6.95,27.0,154,106.6,29.2,0,5,7,0,2026-04-13T20:22:13.205511+05:30
Jhansi,Uttar Pradesh,25.4484,78.5685,30.1,27,0.0,979.2,8.15,26.6,169,114.8,27.1,0,5,7,0,2026-04-13T20:22:16.568182+05:30
Surat,Gujarat,21.1702,72.8311,28.4,86,0.0,1006.8,7.75,26.6,130,56.3,45.4,7,5,4,1,2026-04-13T20:22:16.568214+05:30
Vadodara,Gujarat,22.3072,73.1812,32.9,41,0.0,1003.7,8.05,24.5,181,55.9,36.3,0,5,4,1,2026-04-13T20:22:16.568225+05:30
Rajkot,Gujarat,22.3039,70.8022,31.6,29,0.0,994.8,7.8,37.4,107,30.2,14.1,0,5,7,0,2026-04-13T20:22:16.568234+05:30
Thane,Maharashtra,19.2183,72.9781,27.7,84,0.0,1008.9,8.0,34.2,126,66.8,36.1,7,0,4,1,2026-04-13T20:22:16.568242+05:30
Nagpur,Maharashtra,21.1458,79.0882,32.4,43,0.0,972.5,8.85,25.2,201,60.1,36.6,0,5,7,1,2026-04-13T20:22:16.568251+05:30
Nashik,Maharashtra,19.9975,73.7898,28.4,59,0.0,947.0,8.25,35.3,96,29.8,20.1,4,5,7,1,2026-04-13T20:22:16.568259+05:30
Aurangabad,Maharashtra,19.8762,75.3433,32.7,32,0.0,944.5,8.95,34.6,92,26.3,17.2,0,5,7,0,2026-04-13T20:22:16.568268+05:30
Solapur,Maharashtra,17.6599,75.9064,35.3,23,0.0,956.3,9.05,30.2,159,41.6,29.7,0,5,10,0,2026-04-13T20:22:16.568277+05:30
Kolhapur,Maharashtra,16.705,74.2433,25.7,72,0.0,948.5,9.05,43.2,91,31.4,22.0,7,5,7,1,2026-04-13T20:22:16.568286+05:30
Goa,Goa,15.2993,74.124,28.3,78,0.0,998.8,9.05,29.9,89,54.6,24.4,7,5,7,1,2026-04-13T20:22:16.568294+05:30
Jodhpur,Rajasthan,26.2389,73.0243,32.0,28,0.0,982.6,8.15,26.6,125,141.6,25.8,0,5,7,0,2026-04-13T20:22:16.568302+05:30
Udaipur,Rajasthan,24.5854,73.7125,29.1,24,0.0,947.7,8.7,29.9,130,32.9,12.2,4,5,7,0,2026-04-13T20:22:16.568311+05:30
Kota,Rajasthan,25.2138,75.8648,30.8,35,0.0,978.8,8.15,17.3,153,77.1,25.3,0,5,7,0,2026-04-13T20:22:16.568319+05:30
Bikaner,Rajasthan,28.0229,73.3119,33.4,22,0.0,981.6,7.95,19.4,124,28.8,9.1,0,5,7,0,2026-04-13T20:22:16.568327+05:30
Ajmer,Rajasthan,26.4499,74.6399,28.3,32,0.0,955.1,8.1,29.9,124,46.9,16.4,4,5,7,0,2026-04-13T20:22:16.568335+05:30
Gwalior,Madhya Pradesh,26.2183,78.1828,29.2,41,0.0,984.6,7.9,31.7,298,94.3,27.9,4,5,7,0,2026-04-13T20:22:16.568343+05:30
Indore,Madhya Pradesh,22.7196,75.8577,28.3,36,0.0,948.9,8.55,32.0,147,48.9,30.0,4,5,7,0,2026-04-13T20:22:16.568351+05:30
Bhopal,Madhya Pradesh,23.2599,77.4126,32.2,31,0.0,954.0,8.5,25.2,139,62.6,27.1,0,5,7,0,2026-04-13T20:22:16.568359+05:30
Jabalpur,Madhya Pradesh,23.1815,79.9864,30.7,36,0.0,961.7,8.65,27.4,134,131.8,39.2,0,5,7,0,2026-04-13T20:22:16.568366+05:30
Ujjain,Madhya Pradesh,23.1765,75.7885,29.0,30,0.0,954.6,8.45,31.0,149,63.8,46.2,4,5,7,0,2026-04-13T20:22:16.568375+05:30
Visakhapatnam,Andhra Pradesh,17.6868,83.2185,28.0,83,0.0,1005.0,9.15,40.0,70,26.3,15.5,7,5,4,1,2026-04-13T20:22:16.568383+05:30
Vijayawada,Andhra Pradesh,16.5062,80.648,29.6,67,0.0,1003.0,9.2,27.7,61,24.1,17.5,7,5,4,1,2026-04-13T20:22:16.568391+05:30
Guntur,Andhra Pradesh,16.3067,80.4365,28.4,78,0.0,1004.5,9.25,32.0,81,27.2,20.7,7,5,4,1,2026-04-13T20:22:16.568398+05:30
Nellore,Andhra Pradesh,14.4426,79.9865,28.5,76,0.0,1006.6,9.3,35.6,84,17.3,12.3,7,5,4,1,2026-04-13T20:22:16.568407+05:30
Kurnool,Andhra Pradesh,15.8281,78.0373,35.9,35,0.0,976.1,9.2,26.6,151,56.8,41.8,0,5,10,1,2026-04-13T20:22:16.568415+05:30
Kakinada,Andhra Pradesh,16.9891,82.2475,28.6,78,0.0,1008.5,9.2,32.8,57,22.9,10.9,7,0,4,1,2026-04-13T20:22:16.568424+05:30
Tirupati,Andhra Pradesh,13.6288,79.4192,31.1,57,0.0,992.7,9.4,31.0,101,28.5,23.7,0,5,7,1,2026-04-13T20:22:16.568432+05:30
Warangal,Telangana,17.9689,79.5941,33.7,42,0.0,977.8,9.1,33.8,114,45.4,36.7,0,5,7,1,2026-04-13T20:22:16.568440+05:30
Nizamabad,Telangana,18.6725,78.0941,33.4,44,0.0,964.5,9.05,32.0,147,44.7,34.2,0,5,7,1,2026-04-13T20:22:16.568448+05:30
Mysore,Karnataka,12.2958,76.6396,28.4,61,0.0,929.4,9.5,46.8,145,49.2,37.1,7,5,7,1,2026-04-13T20:22:16.568456+05:30
Mangalore,Karnataka,12.9141,74.856,29.8,81,0.0,1007.3,9.15,24.8,97,49.5,30.9,7,5,4,1,2026-04-13T20:22:16.568464+05:30
Hubli-Dharwad,Karnataka,15.3647,75.124,27.5,70,0.0,941.2,9.25,34.9,146,38.8,32.9,7,5,7,1,2026-04-13T20:22:16.568472+05:30
Belgaum,Karnataka,15.8497,74.4977,25.1,76,0.0,926.2,9.3,40.0,99,32.2,21.6,7,5,7,1,2026-04-13T20:22:20.017783+05:30
Coimbatore,Tamil Nadu,11.0168,76.9558,27.9,77,0.0,962.7,9.45,36.4,134,37.5,27.4,7,5,7,1,2026-04-13T20:22:20.017814+05:30
Madurai,Tamil Nadu,9.9252,78.1198,30.3,66,0.0,994.1,9.35,40.3,99,23.4,20.4,3,5,7,1,2026-04-13T20:22:20.017824+05:30
Trichy,Tamil Nadu,10.7905,78.7047,30.8,63,0.0,1000.6,9.35,29.9,80,20.3,18.3,3,5,4,1,2026-04-13T20:22:20.017833+05:30
Salem,Tamil Nadu,11.6643,78.146,33.0,40,0.0,977.7,9.45,17.6,113,25.8,19.7,0,5,7,1,2026-04-13T20:22:20.017841+05:30
Tirunelveli,Tamil Nadu,8.7139,77.7567,30.0,68,0.0,1003.9,9.25,46.8,112,26.0,21.6,7,5,4,1,2026-04-13T20:22:20.017849+05:30
Vellore,Tamil Nadu,12.9165,79.1325,30.7,53,0.0,985.6,9.45,33.5,109,32.2,28.1,0,5,7,1,2026-04-13T20:22:20.017857+05:30
Erode,Tamil Nadu,11.341,77.7172,33.9,33,0.0,988.9,9.4,28.1,109,25.0,18.6,0,5,7,0,2026-04-13T20:22:20.017865+05:30
Kochi,Kerala,9.9312,76.2673,30.0,81,0.0,1009.4,9.1,33.5,94,38.6,27.4,7,0,4,1,2026-04-13T20:22:20.017873+05:30
Thiruvananthapuram,Kerala,8.5241,76.9366,29.0,82,0.0,1009.1,8.9,27.4,82,42.0,23.9,7,0,4,1,2026-04-13T20:22:20.017880+05:30
Kozhikode,Kerala,11.2588,75.7804,30.1,79,0.0,1008.4,9.15,32.0,95,46.2,25.1,3,0,4,1,2026-04-13T20:22:20.017888+05:30
Thrissur,Kerala,10.5276,76.2144,30.0,78,0.0,1007.7,9.1,39.6,93,35.3,24.4,7,5,4,1,2026-04-13T20:22:20.017896+05:30
Kannur,Kerala,11.8745,75.3704,29.8,77,0.0,1007.9,9.15,33.1,111,44.4,27.2,7,5,4,1,2026-04-13T20:22:20.017903+05:30
Patna,Bihar,25.5941,85.1376,29.8,40,0.0,999.8,8.45,31.3,146,79.6,31.8,4,5,7,0,2026-04-13T20:22:20.017911+05:30
Gaya,Bihar,24.7914,85.0002,29.8,35,0.0,993.6,8.55,23.8,153,81.5,30.9,4,5,7,0,2026-04-13T20:22:20.017918+05:30
Muzaffarpur,Bihar,26.1209,85.3647,27.3,57,0.0,999.9,8.45,22.3,148,90.8,40.7,4,5,7,1,2026-04-13T20:22:20.017926+05:30
Bhagalpur,Bihar,25.2425,87.0117,28.4,61,0.0,1000.8,8.5,14.4,167,106.9,45.3,7,5,4,1,2026-04-13T20:22:20.017934+05:30
Ranchi,Jharkhand,23.3441,85.3096,27.8,35,0.0,938.8,9.1,20.5,164,61.5,23.4,4,5,7,0,2026-04-13T20:22:20.017942+05:30
Jamshedpur,Jharkhand,22.8046,86.2029,29.9,57,0.0,990.2,8.95,16.9,206,84.8,57.5,4,5,7,1,2026-04-13T20:22:20.017949+05:30
Dhanbad,Jharkhand,23.7957,86.4304,31.0,37,0.0,979.7,8.9,21.2,160,141.1,90.1,0,5,7,0,2026-04-13T20:22:20.017956+05:30
Bokaro,Jharkhand,23.6693,86.1511,30.0,45,0.0,984.0,8.9,21.2,175,122.5,70.3,4,5,7,1,2026-04-13T20:22:20.017964+05:30
Bhubaneswar,Odisha,20.2961,85.8245,27.4,84,0.0,1003.6,9.05,32.0,72,24.7,17.9,7,5,4,1,2026-04-13T20:22:20.017971+05:30
Cuttack,Odisha,20.4625,85.8828,27.9,80,0.0,1005.3,9.1,29.5,72,24.7,17.9,7,5,4,1,2026-04-13T20:22:20.017978+05:30
Rourkela,Odisha,22.2604,84.8536,30.1,58,0.0,984.2,8.85,24.8,211,53.8,45.3,0,5,7,1,2026-04-13T20:22:20.017985+05:30
Raipur,Chhattisgarh,21.2514,81.6296,33.4,23,0.0,973.6,8.9,34.2,188,65.7,53.9,0,5,7,0,2026-04-13T20:22:20.017993+05:30
Bhilai,Chhattisgarh,21.1938,81.3509,31.9,28,0.0,973.8,8.9,32.8,162,42.4,34.8,0,5,7,0,2026-04-13T20:22:20.018001+05:30
Guwahati,Assam,26.1158,91.7086,24.8,82,0.0,1003.3,8.4,39.6,150,82.4,57.4,3,5,4,1,2026-04-13T20:22:20.018008+05:30
Agartala,Tripura,23.8315,91.2868,26.7,80,0.0,1006.6,8.65,24.8,85,48.5,38.2,7,5,4,1,2026-04-13T20:22:20.018016+05:30
Shillong,Meghalaya,25.5788,91.8933,15.3,90,0.0,857.6,8.8,75.2,115,51.7,37.7,3,10,7,0,2026-04-13T20:22:20.018024+05:30
Imphal,Manipur,24.817,93.9368,19.0,83,0.0,925.3,9.0,66.6,122,75.7,47.3,3,10,7,0,2026-04-13T20:22:20.018032+05:30
Aizawl,Mizoram,23.7271,92.7176,20.7,74,0.0,894.4,8.9,46.8,124,65.2,36.9,3,5,7,0,2026-04-13T20:22:20.018040+05:30
Kohima,Nagaland,25.6701,94.1077,16.5,74,0.0,856.6,8.95,106.6,106,77.3,42.8,3,5,7,0,2026-04-13T20:22:20.018048+05:30
Gangtok,Sikkim,27.3314,88.6138,14.8,83,0.0,838.0,8.65,15.1,140,92.9,47.6,3,10,7,0,2026-04-13T20:22:20.018056+05:30
Siliguri,West Bengal,26.7271,88.3953,22.3,69,0.0,994.9,8.35,26.3,151,110.4,58.1,3,5,7,1,2026-04-13T20:22:23.383319+05:30
Durgapur,West Bengal,23.5204,87.3119,31.0,54,0.0,994.5,8.8,19.4,220,110.1,89.2,0,5,7,1,2026-04-13T20:22:23.383352+05:30
Asansol,West Bengal,23.6739,86.9524,31.6,48,0.0,993.2,8.85,16.6,185,116.4,74.3,0,5,7,1,2026-04-13T20:22:23.383363+05:30
Pondicherry,Puducherry,11.9139,79.8145,27.2,86,0.0,1009.7,9.25,31.7,35,10.9,6.4,7,0,4,1,2026-04-13T20:22:23.383373+05:30
Port Blair,Andaman and Nicobar Islands,11.6234,92.7265,29.2,76,0.0,1009.3,9.2,11.5,62,31.5,18.2,7,0,4,1,2026-04-13T20:22:23.383383+05:30
Haridwar,Uttarakhand,29.9457,78.1642,25.3,45,0.0,974.9,7.05,26.6,151,34.0,18.3,4,5,7,0,2026-04-13T20:22:23.383392+05:30
Rishikesh,Uttarakhand,30.0869,78.2676,22.3,60,0.0,967.8,7.05,29.2,149,11.9,11.0,0,5,7,0,2026-04-13T20:22:23.383401+05:30
Nainital,Uttarakhand,29.3919,79.4542,19.5,29,0.0,807.3,7.9,34.6,154,16.9,12.7,0,5,7,0,2026-04-13T20:22:23.383410+05:30
Mussoorie,Uttarakhand,30.4599,78.0664,17.2,55,0.0,803.5,7.5,33.1,151,17.5,15.9,0,5,7,0,2026-04-13T20:22:23.383419+05:30
Dharamshala,Himachal Pradesh,32.219,76.3234,20.1,56,0.0,870.5,7.75,21.2,125,22.5,12.7,0,5,7,0,2026-04-13T20:22:23.383428+05:30
Dalhousie,Himachal Pradesh,32.5387,75.971,17.5,56,0.0,804.8,7.45,21.2,138,29.7,20.2,0,5,7,0,2026-04-13T20:22:23.383437+05:30
Patiala,Punjab,30.3398,76.3869,26.2,36,0.0,979.2,7.1,26.3,302,406.1,53.2,4,5,7,0,2026-04-13T20:22:23.383445+05:30
Bhatinda,Punjab,30.211,74.9455,28.1,31,0.0,984.6,7.75,23.4,147,14.8,12.3,4,5,7,0,2026-04-13T20:22:23.383454+05:30
Rohtak,Haryana,28.8955,76.6066,27.3,31,0.0,982.6,7.25,30.6,588,592.3,79.6,4,5,7,0,2026-04-13T20:22:23.383463+05:30
Panipat,Haryana,29.3909,76.9635,25.6,34,0.0,981.1,7.1,30.6,1067,964.9,116.2,4,5,7,0,2026-04-13T20:22:23.383471+05:30
Mathura,Uttar Pradesh,27.4924,77.6737,29.6,34,0.0,987.5,7.6,25.9,769,840.1,99.7,4,5,7,0,2026-04-13T20:22:23.383480+05:30
Vrindavan,Uttar Pradesh,27.5823,77.7027,27.3,39,0.0,987.8,7.55,27.7,769,840.1,99.7,4,5,7,0,2026-04-13T20:22:23.383488+05:30
Ayodhya,Uttar Pradesh,26.7922,82.1998,28.4,25,0.0,995.2,7.95,36.0,127,70.3,20.5,4,5,7,0,2026-04-13T20:22:23.383496+05:30
Ratlam,Madhya Pradesh,23.3315,75.0367,29.0,45,0.0,955.2,8.35,30.2,134,33.6,23.1,4,5,7,0,2026-04-13T20:22:23.383504+05:30
Sagar,Madhya Pradesh,23.8388,78.7378,30.5,39,0.0,950.8,8.5,25.6,125,121.5,26.8,0,5,7,0,2026-04-13T20:22:23.383512+05:30
Satna,Madhya Pradesh,24.6005,80.8322,30.2,26,0.0,972.3,8.55,25.2,127,102.4,22.3,0,5,7,0,2026-04-13T20:22:23.383520+05:30
Akola,Maharashtra,20.7002,77.0082,31.9,39,0.0,974.7,8.75,31.7,146,25.3,17.1,0,5,7,1,2026-04-13T20:22:23.383529+05:30
Amravati,Maharashtra,20.9374,77.7796,30.5,40,0.0,966.8,8.8,24.5,156,32.8,21.0,0,5,7,0,2026-04-13T20:22:23.383537+05:30
Latur,Maharashtra,18.4088,76.5604,30.5,46,0.0,940.1,9.05,33.1,161,35.9,29.2,0,5,7,1,2026-04-13T20:22:23.383545+05:30
Nanded,Maharashtra,19.1383,77.3091,31.7,48,0.0,967.9,8.9,18.0,145,36.8,28.4,0,5,7,1,2026-04-13T20:22:23.383553+05:30
Gulbarga,Karnataka,17.3297,76.8343,35.9,31,0.0,958.1,9.1,18.0,170,49.6,38.6,0,5,10,1,2026-04-13T20:22:23.383560+05:30
Bidar,Karnataka,17.9104,77.5199,33.2,33,0.0,935.8,9.15,27.7,173,54.0,43.4,0,5,7,0,2026-04-13T20:22:23.383569+05:30
Hospet,Karnataka,15.2689,76.3909,34.4,42,0.0,955.4,9.3,29.5,152,54.2,42.8,0,5,7,1,2026-04-13T20:22:23.383597+05:30
Tirupur,Tamil Nadu,11.1085,77.3411,33.6,34,0.0,975.4,9.45,28.4,143,35.2,24.6,0,5,7,0,2026-04-13T20:22:23.383606+05:30
Alappuzha,Kerala,9.4981,76.3388,29.8,80,0.0,1009.7,9.05,28.1,91,44.6,27.6,7,0,4,1,2026-04-13T20:22:23.383614+05:30
Munnar,Kerala,10.0889,77.0595,23.3,90,0.0,858.7,9.7,32.4,95,34.6,27.8,3,5,7,1,2026-04-13T20:22:23.383623+05:30
Silchar,Assam,24.8333,92.7789,24.8,81,0.0,1006.7,8.65,37.4,151,80.1,58.1,3,5,4,1,2026-04-13T20:22:23.383631+05:30
Dibrugarh,Assam,27.4728,94.912,21.9,83,0.0,999.3,7.15,24.5,122,60.3,38.4,3,5,7,1,2026-04-13T20:22:23.383639+05:30
