city,state,latitude,longitude,temp,humidity,rain,pressure,uv_index,wind_gusts,aqi,pm10,pm2_5,mosquito_risk,arthritis_risk,migraine_risk,frizz_risk,updated_at
Delhi,Delhi,28.6139,77.209,29.7,33,0.0,986.0,5.8,36.7,314,715.3,103.1,4,5,3,0,2026-03-03T17:05:46.228955+05:30
Mumbai,Maharashtra,19.076,72.8777,27.6,72,0.0,1008.6,7.35,25.9,149,54.9,49.7,7,0,4,1,2026-03-03T17:05:46.229002+05:30
Bangalore,Karnataka,12.9716,77.5946,30.7,28,0.0,912.6,9.1,36.0,108,31.8,31.2,0,5,7,0,2026-03-03T17:05:46.229017+05:30
Hyderabad,Telangana,17.385,78.4867,32.7,33,0.0,954.6,8.35,23.4,136,25.3,24.4,0,5,7,0,2026-03-03T17:05:46.229027+05:30
Chennai,Tamil Nadu,13.0827,80.2707,30.1,49,0.0,1009.0,8.8,30.2,115,35.4,30.9,0,0,4,1,2026-03-03T17:05:46.229036+05:30
Kolkata,West Bengal,22.5726,88.3639,29.8,39,0.0,1008.6,7.7,16.2,177,85.7,48.1,4,0,4,0,2026-03-03T17:05:46.229045+05:30
Pune,Maharashtra,18.5204,73.8567,36.0,24,0.0,949.1,7.9,32.8,114,20.6,20.3,0,5,10,0,2026-03-03T17:05:46.229062+05:30
Ahmedabad,Gujarat,23.0225,72.5714,36.5,21,0.0,1003.8,7.15,14.4,100,24.7,15.7,0,5,7,0,2026-03-03T17:05:46.229072+05:30
Jaipur,Rajasthan,26.9124,75.7873,33.5,11,0.0,963.5,6.55,29.9,102,107.3,24.2,0,5,7,1,2026-03-03T17:05:46.229080+05:30
Lucknow,Uttar Pradesh,26.8467,80.9462,30.2,31,0.0,996.5,6.3,35.6,152,154.1,42.0,0,5,7,0,2026-03-03T17:05:46.229088+05:30
Kanpur,Uttar Pradesh,26.4499,80.3319,30.4,33,0.0,994.8,6.3,28.4,181,309.2,52.5,0,5,7,0,2026-03-03T17:05:46.229096+05:30
Chandigarh,Chandigarh,30.7333,76.7794,27.0,40,0.0,971.5,5.7,33.5,106,29.7,26.7,4,5,3,0,2026-03-03T17:05:46.229105+05:30
Srinagar,Jammu and Kashmir,34.0837,74.7973,20.6,17,0.0,845.5,6.6,18.0,140,24.2,17.1,0,5,7,1,2026-03-03T17:05:46.229113+05:30
Jammu,Jammu and Kashmir,32.7266,74.857,28.1,48,0.0,975.3,6.3,20.9,102,28.7,20.4,4,5,7,1,2026-03-03T17:05:46.229120+05:30
Amritsar,Punjab,31.634,74.8723,28.5,40,0.0,983.7,6.25,25.9,85,23.9,16.5,4,5,7,0,2026-03-03T17:05:46.229128+05:30
Ludhiana,Punjab,30.901,75.8573,28.7,37,0.0,981.9,5.9,29.9,137,61.5,34.5,4,5,3,0,2026-03-03T17:05:46.229135+05:30
Jalandhar,Punjab,31.326,75.5762,28.6,38,0.0,982.9,6.05,25.9,138,45.8,24.6,4,5,7,0,2026-03-03T17:05:46.229146+05:30
Dehradun,Uttarakhand,30.6284,78.0322,18.5,56,0.0,832.1,6.05,31.0,74,16.4,12.3,0,5,7,0,2026-03-03T17:05:46.229153+05:30
Shimla,Himachal Pradesh,31.1048,77.1734,17.4,50,0.0,787.6,6.1,44.6,78,17.0,11.0,0,5,7,0,2026-03-03T17:05:46.229160+05:30
Manali,Himachal Pradesh,32.2396,77.1887,21.9,32,0.0,823.4,7.7,34.6,78,11.0,7.3,0,5,7,0,2026-03-03T17:05:46.229167+05:30
Gurgaon,Haryana,28.4595,77.0266,28.9,37,0.0,984.6,5.9,33.8,1138,1836.6,198.8,4,5,3,0,2026-03-03T17:05:46.229173+05:30
Noida,Uttar Pradesh,28.5355,77.391,30.1,31,0.0,987.5,5.8,36.4,1138,1836.6,198.8,0,5,3,0,2026-03-03T17:05:46.229180+05:30
Ghaziabad,Uttar Pradesh,28.6692,77.4538,29.2,36,0.0,985.6,5.75,36.0,212,601.6,93.6,4,5,3,0,2026-03-03T17:05:46.229187+05:30
Faridabad,Haryana,28.4089,77.3178,28.9,36,0.0,986.8,5.85,32.8,1138,1836.6,198.8,4,5,3,0,2026-03-03T17:05:46.229193+05:30
Meerut,Uttar Pradesh,28.9845,77.7064,29.0,38,0.0,984.1,5.65,41.4,212,601.6,93.6,4,5,3,0,2026-03-03T17:05:46.229199+05:30
Agra,Uttar Pradesh,27.1767,78.0081,31.5,25,0.0,991.1,6.15,30.6,470,653.8,74.5,0,5,7,0,2026-03-03T17:05:46.229206+05:30
Varanasi,Uttar Pradesh,25.3176,82.9739,28.6,42,0.0,1001.1,6.95,23.0,110,56.9,31.9,4,5,4,0,2026-03-03T17:05:46.229215+05:30
Prayagraj,Uttar Pradesh,25.4358,81.8463,29.0,43,0.0,999.4,6.8,23.0,118,55.3,31.4,4,5,7,0,2026-03-03T17:05:46.229224+05:30
Gorakhpur,Uttar Pradesh,26.7606,83.3732,27.5,44,0.0,1000.6,6.65,16.9,150,102.7,44.2,4,5,4,0,2026-03-03T17:05:46.229231+05:30
Bareilly,Uttar Pradesh,28.367,79.4304,28.1,50,0.0,989.4,6.0,28.8,126,100.8,46.7,4,5,3,1,2026-03-03T17:05:46.229238+05:30
Aligarh,Uttar Pradesh,27.8974,78.088,29.5,33,0.0,988.6,5.9,34.9,629,1076.6,138.3,4,5,3,0,2026-03-03T17:05:46.229244+05:30
Moradabad,Uttar Pradesh,28.8386,78.7733,28.5,40,0.0,986.0,5.8,28.8,133,87.3,39.5,4,5,3,0,2026-03-03T17:05:46.229250+05:30
Saharanpur,Uttar Pradesh,29.9637,77.546,27.6,33,0.0,977.5,5.45,43.2,127,158.8,44.0,4,5,3,0,2026-03-03T17:05:46.229256+05:30
Jhansi,Uttar Pradesh,25.4484,78.5685,32.7,26,0.0,981.3,6.7,26.6,88,47.5,22.7,0,5,7,0,2026-03-03T17:05:49.568456+05:30
Surat,Gujarat,21.1702,72.8311,31.5,47,0.0,1008.4,7.05,27.0,161,52.3,48.9,0,0,4,1,2026-03-03T17:05:49.568490+05:30
Vadodara,Gujarat,22.3072,73.1812,36.9,23,0.0,1005.7,7.15,13.3,154,27.2,23.1,0,5,7,0,2026-03-03T17:05:49.568501+05:30
Rajkot,Gujarat,22.3039,70.8022,35.9,21,0.0,996.0,7.0,17.6,62,16.0,11.1,0,5,10,0,2026-03-03T17:05:49.568511+05:30
Thane,Maharashtra,19.2183,72.9781,30.9,49,0.0,1008.4,7.35,36.7,149,54.9,49.7,0,0,4,1,2026-03-03T17:05:49.568520+05:30
Nagpur,Maharashtra,21.1458,79.0882,34.1,24,0.0,975.0,7.7,17.6,82,28.0,20.0,0,5,7,0,2026-03-03T17:05:49.568528+05:30
Nashik,Maharashtra,19.9975,73.7898,34.3,24,0.0,946.8,7.55,31.0,111,21.4,20.6,0,5,7,0,2026-03-03T17:05:49.568537+05:30
Aurangabad,Maharashtra,19.8762,75.3433,34.5,26,0.0,945.5,8.05,25.2,118,20.5,19.4,0,5,7,0,2026-03-03T17:05:49.568545+05:30
Solapur,Maharashtra,17.6599,75.9064,34.0,30,0.0,958.0,8.25,18.0,124,30.7,30.2,0,5,7,0,2026-03-03T17:05:49.568554+05:30
Kolhapur,Maharashtra,16.705,74.2433,33.7,29,0.0,948.2,8.4,39.2,134,49.9,49.2,0,5,7,0,2026-03-03T17:05:49.568562+05:30
Goa,Goa,15.2993,74.124,29.2,70,0.0,997.8,8.45,34.2,76,29.3,23.6,7,5,7,1,2026-03-03T17:05:49.568571+05:30
Jodhpur,Rajasthan,26.2389,73.0243,35.4,19,0.0,986.2,6.85,15.8,71,52.6,15.2,0,5,10,0,2026-03-03T17:05:49.568579+05:30
Udaipur,Rajasthan,24.5854,73.7125,32.6,24,0.0,949.9,7.45,18.4,75,33.2,16.5,0,5,7,0,2026-03-03T17:05:49.568587+05:30
Kota,Rajasthan,25.2138,75.8648,34.4,20,0.0,981.9,6.85,19.4,87,43.4,20.0,0,5,7,0,2026-03-03T17:05:49.568595+05:30
Bikaner,Rajasthan,28.0229,73.3119,33.8,18,0.0,985.6,6.55,21.6,68,41.8,16.3,0,5,7,0,2026-03-03T17:05:49.568603+05:30
Ajmer,Rajasthan,26.4499,74.6399,32.7,12,0.0,958.5,6.8,25.9,76,36.4,15.3,0,5,7,1,2026-03-03T17:05:49.568611+05:30
Gwalior,Madhya Pradesh,26.2183,78.1828,30.4,42,0.0,986.7,6.45,29.5,127,35.0,19.4,0,5,7,1,2026-03-03T17:05:49.568619+05:30
Indore,Madhya Pradesh,22.7196,75.8577,31.5,30,0.0,950.9,7.4,16.9,90,19.2,15.6,0,5,7,0,2026-03-03T17:05:49.568627+05:30
Bhopal,Madhya Pradesh,23.2599,77.4126,31.5,31,0.0,956.8,7.3,22.3,89,27.7,18.0,0,5,7,0,2026-03-03T17:05:49.568635+05:30
Jabalpur,Madhya Pradesh,23.1815,79.9864,31.7,27,0.0,964.6,7.4,17.6,71,28.6,15.3,0,5,7,0,2026-03-03T17:05:49.568642+05:30
Ujjain,Madhya Pradesh,23.1765,75.7885,31.6,31,0.0,956.7,7.3,15.5,103,23.5,19.0,0,5,7,0,2026-03-03T17:05:49.568651+05:30
Visakhapatnam,Andhra Pradesh,17.6868,83.2185,29.7,54,0.0,1005.3,8.35,34.2,131,50.3,46.1,4,5,4,1,2026-03-03T17:05:49.568659+05:30
Vijayawada,Andhra Pradesh,16.5062,80.648,34.5,35,0.0,1003.2,8.4,27.7,137,47.6,46.2,0,5,4,1,2026-03-03T17:05:49.568687+05:30
Guntur,Andhra Pradesh,16.3067,80.4365,34.3,35,0.0,1004.5,8.4,28.8,128,37.7,36.4,0,5,4,1,2026-03-03T17:05:49.568696+05:30
Nellore,Andhra Pradesh,14.4426,79.9865,32.0,34,0.0,1007.4,8.6,29.2,115,35.2,31.3,0,5,4,0,2026-03-03T17:05:49.568706+05:30
Kurnool,Andhra Pradesh,15.8281,78.0373,35.9,25,0.0,977.2,8.45,29.2,117,27.4,26.3,0,5,10,0,2026-03-03T17:05:49.568715+05:30
Kakinada,Andhra Pradesh,16.9891,82.2475,31.7,41,0.0,1008.4,8.35,34.9,127,41.0,35.4,0,0,4,1,2026-03-03T17:05:49.568723+05:30
Tirupati,Andhra Pradesh,13.6288,79.4192,33.2,28,0.0,992.5,8.75,37.1,151,38.6,36.6,0,5,7,0,2026-03-03T17:05:49.568731+05:30
Warangal,Telangana,17.9689,79.5941,34.2,30,0.0,979.9,8.2,14.0,147,22.9,21.3,0,5,7,0,2026-03-03T17:05:49.568739+05:30
Nizamabad,Telangana,18.6725,78.0941,33.9,30,0.0,966.2,8.1,24.5,103,19.0,16.6,0,5,7,0,2026-03-03T17:05:49.568747+05:30
Mysore,Karnataka,12.2958,76.6396,32.5,24,0.0,928.2,9.15,32.8,132,28.8,28.1,0,5,7,0,2026-03-03T17:05:49.568755+05:30
Mangalore,Karnataka,12.9141,74.856,28.5,77,0.0,1006.0,8.7,29.2,85,26.3,19.5,7,5,4,1,2026-03-03T17:05:49.568763+05:30
Hubli-Dharwad,Karnataka,15.3647,75.124,33.8,29,0.0,940.8,8.6,25.6,117,39.1,38.3,0,5,7,0,2026-03-03T17:05:49.568771+05:30
Belgaum,Karnataka,15.8497,74.4977,33.4,29,0.0,926.1,8.65,32.0,156,44.1,43.3,0,5,7,0,2026-03-03T17:05:52.907402+05:30
Coimbatore,Tamil Nadu,11.0168,76.9558,33.3,24,0.0,961.4,9.15,43.6,124,32.7,31.9,0,5,7,0,2026-03-03T17:05:52.907433+05:30
Madurai,Tamil Nadu,9.9252,78.1198,35.0,23,0.0,992.4,9.1,33.8,113,23.3,21.9,0,5,7,0,2026-03-03T17:05:52.907443+05:30
Trichy,Tamil Nadu,10.7905,78.7047,34.0,28,0.0,999.9,9.0,31.0,113,26.5,24.9,0,5,7,0,2026-03-03T17:05:52.907451+05:30
Salem,Tamil Nadu,11.6643,78.146,34.8,25,0.0,977.0,9.0,40.7,134,31.1,30.0,0,5,7,0,2026-03-03T17:05:52.907458+05:30
Tirunelveli,Tamil Nadu,8.7139,77.7567,33.7,35,0.0,1002.7,9.1,42.5,104,18.6,17.3,0,5,4,1,2026-03-03T17:05:52.907465+05:30
Vellore,Tamil Nadu,12.9165,79.1325,32.4,30,0.0,985.4,8.85,38.5,149,31.4,29.3,0,5,7,0,2026-03-03T17:05:52.907472+05:30
Erode,Tamil Nadu,11.341,77.7172,36.4,22,0.0,988.0,9.05,36.0,118,34.8,33.6,0,5,10,0,2026-03-03T17:05:52.907479+05:30
Kochi,Kerala,9.9312,76.2673,28.3,79,0.0,1007.6,8.95,33.1,108,33.4,31.8,7,5,4,1,2026-03-03T17:05:52.907486+05:30
Thiruvananthapuram,Kerala,8.5241,76.9366,28.3,70,0.0,1007.9,8.95,27.0,132,34.6,32.1,7,5,4,1,2026-03-03T17:05:52.907494+05:30
Kozhikode,Kerala,11.2588,75.7804,29.1,77,0.0,1007.1,8.85,36.4,73,23.9,17.9,7,5,4,1,2026-03-03T17:05:52.907500+05:30
Thrissur,Kerala,10.5276,76.2144,30.3,69,0.0,1005.9,8.9,38.9,106,31.2,30.2,3,5,4,1,2026-03-03T17:05:52.907508+05:30
Kannur,Kerala,11.8745,75.3704,29.7,69,0.0,1006.9,8.8,38.2,70,26.4,21.4,7,5,4,1,2026-03-03T17:05:52.907514+05:30
Patna,Bihar,25.5941,85.1376,28.9,36,0.0,1004.0,7.1,16.9,147,152.7,49.0,4,5,4,0,2026-03-03T17:05:52.907521+05:30
Gaya,Bihar,24.7914,85.0002,26.9,44,0.0,997.4,7.2,23.0,100,64.3,28.2,4,5,7,0,2026-03-03T17:05:52.907527+05:30
Muzaffarpur,Bihar,26.1209,85.3647,28.4,37,0.0,1004.0,7.05,10.4,154,143.4,49.8,4,5,4,0,2026-03-03T17:05:52.907534+05:30
Bhagalpur,Bihar,25.2425,87.0117,26.4,48,0.0,1005.0,7.15,13.0,133,66.8,42.4,4,5,4,0,2026-03-03T17:05:52.907540+05:30
Ranchi,Jharkhand,23.3441,85.3096,27.5,27,0.0,940.6,7.9,40.7,95,51.1,21.4,4,5,7,0,2026-03-03T17:05:52.907546+05:30
Jamshedpur,Jharkhand,22.8046,86.2029,31.7,27,0.0,993.0,7.75,14.4,94,73.3,28.3,0,5,7,0,2026-03-03T17:05:52.907552+05:30
Dhanbad,Jharkhand,23.7957,86.4304,31.9,18,0.0,982.4,7.65,27.7,102,72.2,26.1,0,5,7,0,2026-03-03T17:05:52.907558+05:30
Bokaro,Jharkhand,23.6693,86.1511,30.9,18,0.0,986.4,7.65,32.8,105,66.4,25.8,0,5,7,0,2026-03-03T17:05:52.907564+05:30
Bhubaneswar,Odisha,20.2961,85.8245,34.5,16,0.0,1004.2,8.1,26.6,152,46.9,28.9,0,5,4,0,2026-03-03T17:05:52.907571+05:30
Cuttack,Odisha,20.4625,85.8828,34.3,20,0.0,1006.0,8.1,26.3,152,46.9,28.9,0,5,4,0,2026-03-03T17:05:52.907577+05:30
Rourkela,Odisha,22.2604,84.8536,33.3,25,0.0,987.0,7.7,27.4,93,58.0,24.4,0,5,7,0,2026-03-03T17:05:52.907583+05:30
Raipur,Chhattisgarh,21.2514,81.6296,33.7,20,0.0,976.9,7.8,14.4,116,36.1,24.3,0,5,7,0,2026-03-03T17:05:52.907589+05:30
Bhilai,Chhattisgarh,21.1938,81.3509,33.7,22,0.0,977.2,7.8,13.7,114,37.7,26.2,0,5,7,0,2026-03-03T17:05:52.907595+05:30
Guwahati,Assam,26.1158,91.7086,27.3,47,0.0,1004.7,7.1,22.0,156,93.4,71.7,4,5,4,0,2026-03-03T17:05:52.907601+05:30
Agartala,Tripura,23.8315,91.2868,26.5,63,0.0,1009.0,7.45,15.8,181,81.0,65.7,7,0,4,1,2026-03-03T17:05:52.907607+05:30
Shillong,Meghalaya,25.5788,91.8933,14.9,62,0.0,857.7,7.45,28.4,146,82.9,60.3,3,5,7,0,2026-03-03T17:05:52.907613+05:30
Imphal,Manipur,24.817,93.9368,18.6,58,0.0,924.7,7.65,32.8,161,66.1,58.3,0,5,7,0,2026-03-03T17:05:52.907620+05:30
Aizawl,Mizoram,23.7271,92.7176,20.8,48,0.0,894.3,7.65,32.8,161,46.8,37.5,0,5,7,0,2026-03-03T17:05:52.907626+05:30
Kohima,Nagaland,25.6701,94.1077,14.4,86,0.0,855.9,6.65,45.0,153,72.4,58.8,3,10,7,0,2026-03-03T17:05:52.907632+05:30
Gangtok,Sikkim,27.3314,88.6138,14.7,79,0.0,839.4,7.4,19.4,151,82.0,58.9,3,5,7,0,2026-03-03T17:05:52.907639+05:30
Siliguri,West Bengal,26.7271,88.3953,21.2,71,0.0,998.0,7.1,20.2,164,83.1,54.6,3,5,7,0,2026-03-03T17:05:56.247035+05:30
Durgapur,West Bengal,23.5204,87.3119,31.6,23,0.0,997.5,7.65,26.6,94,74.5,27.4,0,5,7,0,2026-03-03T17:05:56.247068+05:30
Asansol,West Bengal,23.6739,86.9524,31.7,23,0.0,996.0,7.65,22.7,87,75.7,26.3,0,5,7,0,2026-03-03T17:05:56.247080+05:30
Pondicherry,Puducherry,11.9139,79.8145,30.3,48,0.0,1009.6,8.85,28.1,107,32.9,29.0,0,0,4,1,2026-03-03T17:05:56.247090+05:30
Port Blair,Andaman and Nicobar Islands,11.6234,92.7265,27.6,76,0.0,1008.0,8.8,15.5,84,38.2,28.1,7,0,4,1,2026-03-03T17:05:56.247100+05:30
Haridwar,Uttarakhand,29.9457,78.1642,28.7,35,0.0,976.3,5.55,22.3,112,60.3,31.5,4,5,3,0,2026-03-03T17:05:56.247109+05:30
Rishikesh,Uttarakhand,30.0869,78.2676,27.2,52,0.0,969.3,5.6,23.8,103,35.9,28.6,4,5,3,1,2026-03-03T17:05:56.247118+05:30
Nainital,Uttarakhand,29.3919,79.4542,17.9,68,0.0,807.7,6.4,54.7,112,51.9,39.6,3,5,7,0,2026-03-03T17:05:56.247127+05:30
Mussoorie,Uttarakhand,30.4599,78.0664,18.6,60,0.0,804.8,5.95,41.8,112,34.1,28.5,0,5,3,0,2026-03-03T17:05:56.247136+05:30
Dharamshala,Himachal Pradesh,32.219,76.3234,22.7,47,0.0,872.0,6.2,23.4,77,16.1,10.9,0,5,7,0,2026-03-03T17:05:56.247144+05:30
Dalhousie,Himachal Pradesh,32.5387,75.971,21.3,38,0.0,807.2,6.4,19.8,89,26.3,20.8,0,5,7,0,2026-03-03T17:05:56.247153+05:30
Patiala,Punjab,30.3398,76.3869,28.1,38,0.0,981.1,5.6,34.2,218,478.7,73.1,4,5,3,0,2026-03-03T17:05:56.247162+05:30
Bhatinda,Punjab,30.211,74.9455,29.2,39,0.0,987.1,6.25,28.1,134,54.9,36.1,4,5,7,0,2026-03-03T17:05:56.247170+05:30
Rohtak,Haryana,28.8955,76.6066,29.0,38,0.0,985.1,5.8,33.8,452,879.2,109.2,4,5,3,0,2026-03-03T17:05:56.247178+05:30
Panipat,Haryana,29.3909,76.9635,28.6,40,0.0,983.2,5.6,37.4,1007,1624.2,181.6,4,5,3,0,2026-03-03T17:05:56.247186+05:30
Mathura,Uttar Pradesh,27.4924,77.6737,31.2,27,0.0,990.1,6.1,29.9,528,817.7,94.1,0,5,7,0,2026-03-03T17:05:56.247194+05:30
Vrindavan,Uttar Pradesh,27.5823,77.7027,30.4,30,0.0,990.5,6.05,32.4,528,817.7,94.1,0,5,7,0,2026-03-03T17:05:56.247202+05:30
Ayodhya,Uttar Pradesh,26.7922,82.1998,29.0,40,0.0,998.4,6.45,25.6,142,68.5,43.0,4,5,7,0,2026-03-03T17:05:56.247210+05:30
Ratlam,Madhya Pradesh,23.3315,75.0367,32.6,31,0.0,957.3,7.25,13.0,91,23.0,18.3,0,5,7,0,2026-03-03T17:05:56.247219+05:30
Sagar,Madhya Pradesh,23.8388,78.7378,31.2,31,0.0,953.4,7.2,25.6,76,41.3,17.2,0,5,7,0,2026-03-03T17:05:56.247226+05:30
Satna,Madhya Pradesh,24.6005,80.8322,32.1,22,0.0,974.4,7.2,30.2,85,50.8,22.9,0,5,7,0,2026-03-03T17:05:56.247233+05:30
Akola,Maharashtra,20.7002,77.0082,35.7,24,0.0,976.3,7.75,20.2,93,22.8,19.7,0,5,10,0,2026-03-03T17:05:56.247241+05:30
Amravati,Maharashtra,20.9374,77.7796,35.2,26,0.0,968.8,7.75,16.6,88,22.8,18.8,0,5,10,0,2026-03-03T17:05:56.247249+05:30
Latur,Maharashtra,18.4088,76.5604,33.1,28,0.0,941.2,8.2,31.0,128,24.9,24.0,0,5,7,0,2026-03-03T17:05:56.247255+05:30
Nanded,Maharashtra,19.1383,77.3091,35.3,24,0.0,969.8,8.0,19.4,96,17.6,15.4,0,5,10,0,2026-03-03T17:05:56.247262+05:30
Gulbarga,Karnataka,17.3297,76.8343,35.0,27,0.0,959.4,8.3,17.3,129,30.4,29.7,0,5,7,0,2026-03-03T17:05:56.247269+05:30
Bidar,Karnataka,17.9104,77.5199,33.8,22,0.0,936.9,8.25,19.8,106,22.2,20.8,0,5,7,0,2026-03-03T17:05:56.247275+05:30
Hospet,Karnataka,15.2689,76.3909,34.8,26,0.0,955.9,8.6,25.6,129,37.3,36.3,0,5,7,0,2026-03-03T17:05:56.247282+05:30
Tirupur,Tamil Nadu,11.1085,77.3411,35.0,22,0.0,974.7,9.15,33.8,130,38.4,37.5,0,5,7,0,2026-03-03T17:05:56.247288+05:30
Alappuzha,Kerala,9.4981,76.3388,28.3,78,0.0,1007.9,8.95,30.6,122,30.5,28.2,7,5,4,1,2026-03-03T17:05:56.247295+05:30
Munnar,Kerala,10.0889,77.0595,28.7,33,0.0,858.5,9.45,20.9,102,26.6,25.5,4,5,7,0,2026-03-03T17:05:56.247302+05:30
Silchar,Assam,24.8333,92.7789,27.8,49,0.0,1007.3,7.4,20.2,162,69.2,56.5,4,5,4,1,2026-03-03T17:05:56.247309+05:30
Dibrugarh,Assam,27.4728,94.912,25.9,58,0.0,998.1,7.1,11.2,154,65.4,48.1,4,5,7,1,2026-03-03T17:05:56.247316+05:30
