city,state,latitude,longitude,temp,humidity,rain,pressure,uv_index,wind_gusts,aqi,pm10,pm2_5,mosquito_risk,arthritis_risk,migraine_risk,frizz_risk,updated_at
Delhi,Delhi,28.6139,77.209,34.0,21,0.0,979.1,7.4,48.6,540,806.5,127.1,0,5,7,0,2026-04-26T23:11:21.344700+05:30
Mumbai,Maharashtra,19.076,72.8777,28.9,83,0.0,1007.5,7.6,37.1,92,75.4,31.4,7,5,4,1,2026-04-26T23:11:21.344756+05:30
Bangalore,Karnataka,12.9716,77.5946,27.1,43,0.0,912.1,9.55,36.7,125,25.8,23.7,4,5,7,0,2026-04-26T23:11:21.344774+05:30
Hyderabad,Telangana,17.385,78.4867,33.2,30,0.0,952.5,9.25,33.5,115,68.5,61.2,0,5,7,0,2026-04-26T23:11:21.344785+05:30
Chennai,Tamil Nadu,13.0827,80.2707,28.8,82,0.0,1006.9,9.25,49.7,44,19.8,13.3,7,5,4,1,2026-04-26T23:11:21.344795+05:30
Kolkata,West Bengal,22.5726,88.3639,28.5,82,0.0,1003.7,8.9,40.0,60,20.7,15.2,7,5,4,1,2026-04-26T23:11:21.344809+05:30
Pune,Maharashtra,18.5204,73.8567,28.6,63,0.0,947.5,8.35,38.9,155,35.7,25.3,7,5,7,1,2026-04-26T23:11:21.344817+05:30
Ahmedabad,Gujarat,23.0225,72.5714,35.8,15,0.0,999.8,8.2,38.9,63,38.3,18.4,0,5,10,0,2026-04-26T23:11:21.344825+05:30
Jaipur,Rajasthan,26.9124,75.7873,33.9,21,0.0,957.1,8.05,41.8,149,144.4,40.2,0,5,7,0,2026-04-26T23:11:21.344833+05:30
Lucknow,Uttar Pradesh,26.8467,80.9462,34.0,23,0.0,989.4,7.9,52.6,167,512.2,92.4,0,5,7,0,2026-04-26T23:11:21.344842+05:30
Kanpur,Uttar Pradesh,26.4499,80.3319,34.8,21,0.0,987.8,7.9,54.7,535,692.9,101.0,0,5,7,0,2026-04-26T23:11:21.344851+05:30
Chandigarh,Chandigarh,30.7333,76.7794,30.0,24,0.0,964.9,7.4,45.7,91,24.6,18.1,4,5,7,0,2026-04-26T23:11:21.344859+05:30
Srinagar,Jammu and Kashmir,34.0837,74.7973,11.6,86,0.0,838.3,8.6,16.2,78,41.9,33.1,3,10,7,0,2026-04-26T23:11:21.344867+05:30
Jammu,Jammu and Kashmir,32.7266,74.857,28.2,29,0.0,968.4,8.15,33.8,65,43.8,33.1,4,5,7,0,2026-04-26T23:11:21.344877+05:30
Amritsar,Punjab,31.634,74.8723,30.0,29,0.0,976.7,8.1,36.7,85,32.5,18.9,4,5,7,0,2026-04-26T23:11:21.344884+05:30
Ludhiana,Punjab,30.901,75.8573,29.2,33,0.0,974.8,7.65,41.8,81,61.9,27.2,4,5,7,0,2026-04-26T23:11:21.344893+05:30
Jalandhar,Punjab,31.326,75.5762,29.5,30,0.0,975.7,7.85,37.4,88,49.4,29.2,4,5,7,0,2026-04-26T23:11:21.344900+05:30
Dehradun,Uttarakhand,30.6284,78.0322,14.5,51,0.0,826.0,7.8,49.0,81,25.6,13.6,0,5,7,0,2026-04-26T23:11:21.344907+05:30
Shimla,Himachal Pradesh,31.1048,77.1734,15.1,39,0.0,783.0,7.9,52.9,84,27.4,12.8,0,5,7,0,2026-04-26T23:11:21.344914+05:30
Manali,Himachal Pradesh,32.2396,77.1887,8.0,54,0.0,812.3,9.8,45.0,106,25.2,11.1,0,5,7,1,2026-04-26T23:11:21.344921+05:30
Gurgaon,Haryana,28.4595,77.0266,32.3,23,0.0,977.4,7.55,49.7,1474,979.8,136.4,0,5,7,0,2026-04-26T23:11:21.344928+05:30
Noida,Uttar Pradesh,28.5355,77.391,33.9,21,0.0,980.4,7.45,43.9,1474,979.8,136.4,0,5,7,0,2026-04-26T23:11:21.344935+05:30
Ghaziabad,Uttar Pradesh,28.6692,77.4538,33.7,21,0.0,978.7,7.4,47.9,445,760.0,121.5,0,5,7,0,2026-04-26T23:11:21.344942+05:30
Faridabad,Haryana,28.4089,77.3178,34.5,21,0.0,979.8,7.5,53.3,1474,979.8,136.4,0,5,7,0,2026-04-26T23:11:21.344948+05:30
Meerut,Uttar Pradesh,28.9845,77.7064,31.0,26,0.0,977.5,7.3,50.8,445,760.0,121.5,0,5,7,0,2026-04-26T23:11:21.344955+05:30
Agra,Uttar Pradesh,27.1767,78.0081,33.1,27,0.0,983.9,7.8,50.4,939,644.5,78.9,0,5,7,0,2026-04-26T23:11:21.344965+05:30
Varanasi,Uttar Pradesh,25.3176,82.9739,32.0,49,0.0,994.0,8.5,53.3,142,113.9,61.2,0,5,7,1,2026-04-26T23:11:21.344972+05:30
Prayagraj,Uttar Pradesh,25.4358,81.8463,33.5,23,0.0,992.0,8.4,50.8,135,126.2,48.1,0,5,7,0,2026-04-26T23:11:21.344979+05:30
Gorakhpur,Uttar Pradesh,26.7606,83.3732,26.8,66,0.0,995.1,8.35,40.7,157,71.7,54.5,7,5,7,1,2026-04-26T23:11:21.344987+05:30
Bareilly,Uttar Pradesh,28.367,79.4304,31.7,28,0.0,982.4,7.65,54.7,118,230.5,55.8,0,5,7,0,2026-04-26T23:11:21.344996+05:30
Aligarh,Uttar Pradesh,27.8974,78.088,31.5,27,0.0,981.3,7.6,51.8,1032,987.2,154.1,0,5,7,0,2026-04-26T23:11:21.345004+05:30
Moradabad,Uttar Pradesh,28.8386,78.7733,31.0,28,0.0,979.4,7.5,55.8,130,276.6,68.7,0,5,7,0,2026-04-26T23:11:21.345010+05:30
Saharanpur,Uttar Pradesh,29.9637,77.546,30.8,23,0.0,971.4,7.1,52.2,84,121.1,32.8,0,5,7,0,2026-04-26T23:11:21.345016+05:30
Jhansi,Uttar Pradesh,25.4484,78.5685,32.2,26,0.0,975.1,8.3,49.0,91,64.5,25.6,0,5,7,0,2026-04-26T23:11:24.585166+05:30
Surat,Gujarat,21.1702,72.8311,30.3,63,0.0,1004.6,7.85,36.0,116,57.9,32.2,3,5,4,1,2026-04-26T23:11:24.585218+05:30
Vadodara,Gujarat,22.3072,73.1812,33.5,31,0.0,1002.0,8.15,41.4,103,45.4,33.4,0,5,4,0,2026-04-26T23:11:24.585229+05:30
Rajkot,Gujarat,22.3039,70.8022,29.6,41,0.0,993.2,7.85,39.2,59,29.9,14.2,4,5,7,0,2026-04-26T23:11:24.585237+05:30
Thane,Maharashtra,19.2183,72.9781,29.5,76,0.0,1006.8,7.6,32.8,92,75.4,31.4,7,5,4,1,2026-04-26T23:11:24.585290+05:30
Nagpur,Maharashtra,21.1458,79.0882,36.4,17,0.0,970.5,8.9,34.6,136,87.5,44.5,0,5,10,0,2026-04-26T23:11:24.585300+05:30
Nashik,Maharashtra,19.9975,73.7898,30.4,29,0.0,945.0,8.1,36.0,124,47.3,32.1,0,5,7,0,2026-04-26T23:11:24.585309+05:30
Aurangabad,Maharashtra,19.8762,75.3433,34.3,18,0.0,943.2,9.05,32.4,92,22.8,17.6,0,5,7,0,2026-04-26T23:11:24.585318+05:30
Solapur,Maharashtra,17.6599,75.9064,34.7,22,0.0,955.4,9.05,25.2,132,53.2,46.6,0,5,7,0,2026-04-26T23:11:24.585327+05:30
Kolhapur,Maharashtra,16.705,74.2433,25.4,85,0.0,947.8,9.0,50.8,110,25.3,17.8,7,5,7,1,2026-04-26T23:11:24.585336+05:30
Goa,Goa,15.2993,74.124,30.0,78,0.0,997.7,8.95,34.9,88,35.6,25.1,7,5,7,1,2026-04-26T23:11:24.585398+05:30
Jodhpur,Rajasthan,26.2389,73.0243,34.8,21,0.0,979.8,8.3,34.2,82,184.4,28.4,0,5,7,0,2026-04-26T23:11:24.585405+05:30
Udaipur,Rajasthan,24.5854,73.7125,32.3,16,0.0,945.5,8.75,47.9,76,27.1,10.7,0,5,7,0,2026-04-26T23:11:24.585412+05:30
Kota,Rajasthan,25.2138,75.8648,33.3,24,0.0,976.0,8.3,46.8,89,77.5,36.9,0,5,7,0,2026-04-26T23:11:24.585419+05:30
Bikaner,Rajasthan,28.0229,73.3119,34.3,29,0.0,978.4,8.15,37.1,71,54.0,17.9,0,5,7,0,2026-04-26T23:11:24.585426+05:30
Ajmer,Rajasthan,26.4499,74.6399,33.8,21,0.0,952.7,8.25,41.4,66,62.6,22.1,0,5,7,0,2026-04-26T23:11:24.585432+05:30
Gwalior,Madhya Pradesh,26.2183,78.1828,33.9,23,0.0,979.9,8.0,45.4,119,91.5,26.1,0,5,7,0,2026-04-26T23:11:24.585438+05:30
Indore,Madhya Pradesh,22.7196,75.8577,32.5,32,0.0,947.0,8.65,37.4,76,55.4,29.5,0,5,7,0,2026-04-26T23:11:24.585445+05:30
Bhopal,Madhya Pradesh,23.2599,77.4126,32.5,27,0.0,952.2,8.65,37.8,81,71.9,35.7,0,5,7,0,2026-04-26T23:11:24.585452+05:30
Jabalpur,Madhya Pradesh,23.1815,79.9864,31.4,26,0.0,959.5,8.7,42.1,68,76.8,30.4,0,5,7,0,2026-04-26T23:11:24.585500+05:30
Ujjain,Madhya Pradesh,23.1765,75.7885,31.1,26,0.0,952.3,8.55,41.4,73,66.1,37.8,0,5,7,0,2026-04-26T23:11:24.585510+05:30
Visakhapatnam,Andhra Pradesh,17.6868,83.2185,28.0,88,0.0,1003.1,8.95,47.5,56,20.8,14.6,7,5,4,1,2026-04-26T23:11:24.585518+05:30
Vijayawada,Andhra Pradesh,16.5062,80.648,28.0,84,0.0,1002.2,8.9,37.4,57,21.7,16.0,7,5,4,1,2026-04-26T23:11:24.585527+05:30
Guntur,Andhra Pradesh,16.3067,80.4365,27.9,88,0.0,1003.4,8.95,40.7,58,21.3,15.8,7,5,4,1,2026-04-26T23:11:24.585536+05:30
Nellore,Andhra Pradesh,14.4426,79.9865,28.2,81,0.0,1005.2,9.1,43.9,53,16.6,12.7,7,5,4,1,2026-04-26T23:11:24.585545+05:30
Kurnool,Andhra Pradesh,15.8281,78.0373,33.3,29,0.0,975.7,9.2,33.8,115,49.0,42.3,0,5,7,0,2026-04-26T23:11:24.585554+05:30
Kakinada,Andhra Pradesh,16.9891,82.2475,28.2,84,0.0,1007.2,8.85,40.3,49,21.2,13.1,7,5,4,1,2026-04-26T23:11:24.585563+05:30
Tirupati,Andhra Pradesh,13.6288,79.4192,29.0,64,0.0,991.2,9.3,40.3,66,18.7,16.5,7,5,7,1,2026-04-26T23:11:24.585596+05:30
Warangal,Telangana,17.9689,79.5941,31.6,39,0.0,977.5,9.0,35.3,109,32.1,28.3,0,5,7,0,2026-04-26T23:11:24.585602+05:30
Nizamabad,Telangana,18.6725,78.0941,32.1,29,0.0,962.6,8.6,31.3,107,42.7,36.7,0,5,7,0,2026-04-26T23:11:24.585608+05:30
Mysore,Karnataka,12.2958,76.6396,24.9,82,0.0,928.3,9.45,40.0,91,36.6,32.4,3,5,7,1,2026-04-26T23:11:24.585615+05:30
Mangalore,Karnataka,12.9141,74.856,29.8,79,0.0,1006.1,9.05,39.2,81,37.5,28.1,7,5,4,1,2026-04-26T23:11:24.585621+05:30
Hubli-Dharwad,Karnataka,15.3647,75.124,25.8,87,0.0,940.6,8.85,45.7,94,33.9,30.4,7,5,7,1,2026-04-26T23:11:24.585627+05:30
Belgaum,Karnataka,15.8497,74.4977,24.1,96,0.0,925.8,8.85,48.2,106,32.2,27.8,3,5,7,1,2026-04-26T23:11:27.813671+05:30
Coimbatore,Tamil Nadu,11.0168,76.9558,28.2,73,0.0,961.9,9.35,39.6,87,39.3,36.1,7,5,7,1,2026-04-26T23:11:27.813709+05:30
Madurai,Tamil Nadu,9.9252,78.1198,29.5,68,0.0,993.7,9.25,37.4,49,8.8,8.6,7,5,7,1,2026-04-26T23:11:27.813720+05:30
Trichy,Tamil Nadu,10.7905,78.7047,28.6,79,0.0,999.8,9.25,30.6,49,14.6,13.4,7,5,7,1,2026-04-26T23:11:27.813729+05:30
Salem,Tamil Nadu,11.6643,78.146,29.8,58,0.0,977.0,9.35,41.8,86,22.2,21.0,4,5,7,1,2026-04-26T23:11:27.813737+05:30
Tirunelveli,Tamil Nadu,8.7139,77.7567,29.0,71,0.0,1003.6,9.2,37.4,57,11.2,10.7,7,5,4,1,2026-04-26T23:11:27.813745+05:30
Vellore,Tamil Nadu,12.9165,79.1325,28.0,75,0.0,984.2,9.3,34.6,84,33.8,31.4,7,5,7,1,2026-04-26T23:11:27.813753+05:30
Erode,Tamil Nadu,11.341,77.7172,31.9,45,0.0,988.7,9.3,39.2,72,13.5,12.9,0,5,7,1,2026-04-26T23:11:27.813761+05:30
Kochi,Kerala,9.9312,76.2673,29.2,78,0.0,1008.7,9.0,39.2,69,27.8,26.5,7,0,4,1,2026-04-26T23:11:27.813767+05:30
Thiruvananthapuram,Kerala,8.5241,76.9366,27.1,89,0.0,1008.4,8.8,32.4,48,11.9,9.4,7,0,4,1,2026-04-26T23:11:27.813775+05:30
Kozhikode,Kerala,11.2588,75.7804,27.9,89,0.0,1007.5,8.4,38.2,54,20.0,14.7,7,5,4,1,2026-04-26T23:11:27.813782+05:30
Thrissur,Kerala,10.5276,76.2144,28.4,85,0.0,1007.0,9.0,41.0,65,31.1,29.5,7,5,4,1,2026-04-26T23:11:27.813789+05:30
Kannur,Kerala,11.8745,75.3704,29.1,83,0.0,1006.7,9.0,39.6,70,28.6,23.0,7,5,4,1,2026-04-26T23:11:27.813797+05:30
Patna,Bihar,25.5941,85.1376,27.2,66,0.0,998.2,8.65,45.4,173,65.9,57.9,7,5,7,1,2026-04-26T23:11:27.813804+05:30
Gaya,Bihar,24.7914,85.0002,27.8,68,0.0,990.8,8.7,36.7,165,65.9,62.4,7,5,7,1,2026-04-26T23:11:27.813812+05:30
Muzaffarpur,Bihar,26.1209,85.3647,25.2,67,0.0,998.8,8.65,48.6,153,67.8,59.3,7,5,7,1,2026-04-26T23:11:27.813818+05:30
Bhagalpur,Bihar,25.2425,87.0117,26.0,77,0.0,1000.0,8.6,40.3,136,25.1,20.8,7,5,4,1,2026-04-26T23:11:27.813825+05:30
Ranchi,Jharkhand,23.3441,85.3096,25.0,73,0.0,934.7,9.15,44.3,122,113.6,41.9,7,5,7,1,2026-04-26T23:11:27.813831+05:30
Jamshedpur,Jharkhand,22.8046,86.2029,29.0,80,0.0,987.8,8.85,37.8,149,46.0,39.9,7,5,7,1,2026-04-26T23:11:27.813838+05:30
Dhanbad,Jharkhand,23.7957,86.4304,27.5,79,0.0,977.7,8.95,42.5,153,88.7,66.8,7,5,7,1,2026-04-26T23:11:27.813845+05:30
Bokaro,Jharkhand,23.6693,86.1511,28.2,77,0.0,981.2,8.95,41.0,154,95.7,71.2,7,5,7,1,2026-04-26T23:11:27.813851+05:30
Bhubaneswar,Odisha,20.2961,85.8245,27.5,89,0.0,1000.6,9.1,50.4,53,16.2,11.3,7,5,4,1,2026-04-26T23:11:27.813857+05:30
Cuttack,Odisha,20.4625,85.8828,27.6,88,0.0,1002.2,9.1,47.2,53,16.2,11.3,7,5,4,1,2026-04-26T23:11:27.813864+05:30
Rourkela,Odisha,22.2604,84.8536,29.5,69,0.0,981.9,8.65,46.4,184,54.5,39.7,7,5,7,1,2026-04-26T23:11:27.813871+05:30
Raipur,Chhattisgarh,21.2514,81.6296,33.3,23,0.0,971.6,8.95,41.0,129,57.0,52.4,0,5,7,0,2026-04-26T23:11:27.813878+05:30
Bhilai,Chhattisgarh,21.1938,81.3509,32.4,27,0.0,972.1,9.0,44.3,115,48.9,42.5,0,5,7,0,2026-04-26T23:11:27.813885+05:30
Guwahati,Assam,26.1158,91.7086,21.2,94,0.1,1002.3,3.7,40.3,132,61.5,42.3,6,5,0,1,2026-04-26T23:11:27.813892+05:30
Agartala,Tripura,23.8315,91.2868,22.6,97,0.0,1006.1,8.8,32.0,83,20.0,15.3,3,5,4,1,2026-04-26T23:11:27.813899+05:30
Shillong,Meghalaya,25.5788,91.8933,15.8,97,0.1,855.2,4.65,45.4,126,34.5,21.8,6,10,3,0,2026-04-26T23:11:27.813907+05:30
Imphal,Manipur,24.817,93.9368,19.0,96,0.0,923.0,5.7,24.1,153,100.8,67.5,3,10,3,1,2026-04-26T23:11:27.813914+05:30
Aizawl,Mizoram,23.7271,92.7176,16.4,98,0.2,891.3,9.0,34.9,105,35.0,22.0,6,10,7,1,2026-04-26T23:11:27.813921+05:30
Kohima,Nagaland,25.6701,94.1077,16.8,84,0.1,854.3,6.95,32.0,146,65.9,40.2,6,10,7,0,2026-04-26T23:11:27.813928+05:30
Gangtok,Sikkim,27.3314,88.6138,13.5,97,0.0,834.9,6.75,41.0,110,44.4,26.9,3,10,7,0,2026-04-26T23:11:27.813934+05:30
Siliguri,West Bengal,26.7271,88.3953,21.1,87,0.0,992.7,8.4,33.1,120,53.9,36.3,3,5,7,1,2026-04-26T23:11:31.055043+05:30
Durgapur,West Bengal,23.5204,87.3119,27.2,89,0.0,993.1,8.85,35.6,116,36.0,33.8,7,5,7,1,2026-04-26T23:11:31.055078+05:30
Asansol,West Bengal,23.6739,86.9524,26.9,87,0.0,991.5,8.9,38.5,127,41.1,40.2,7,5,7,1,2026-04-26T23:11:31.055088+05:30
Pondicherry,Puducherry,11.9139,79.8145,28.9,82,0.0,1008.2,9.2,41.8,39,17.4,11.6,7,0,4,1,2026-04-26T23:11:31.055096+05:30
Port Blair,Andaman and Nicobar Islands,11.6234,92.7265,27.8,80,0.0,1007.0,9.1,35.3,57,18.5,13.6,7,5,4,1,2026-04-26T23:11:31.055103+05:30
Haridwar,Uttarakhand,29.9457,78.1642,23.5,47,0.0,969.1,7.2,54.0,88,25.1,16.7,0,5,7,0,2026-04-26T23:11:31.055111+05:30
Rishikesh,Uttarakhand,30.0869,78.2676,21.2,49,0.0,961.8,7.3,42.1,97,29.6,15.8,0,5,7,0,2026-04-26T23:11:31.055119+05:30
Nainital,Uttarakhand,29.3919,79.4542,16.3,39,0.0,803.3,8.15,54.4,89,92.9,22.9,0,5,7,0,2026-04-26T23:11:31.055126+05:30
Mussoorie,Uttarakhand,30.4599,78.0664,17.2,37,0.0,801.1,7.7,65.2,97,22.0,16.6,0,5,7,0,2026-04-26T23:11:31.055133+05:30
Dharamshala,Himachal Pradesh,32.219,76.3234,22.9,33,0.0,867.9,8.05,43.2,72,31.1,14.7,0,5,7,0,2026-04-26T23:11:31.055140+05:30
Dalhousie,Himachal Pradesh,32.5387,75.971,13.9,59,0.0,801.4,8.3,41.0,72,39.7,23.5,0,5,7,0,2026-04-26T23:11:31.055148+05:30
Patiala,Punjab,30.3398,76.3869,30.2,27,0.0,974.4,7.3,47.9,378,491.7,71.2,0,5,7,0,2026-04-26T23:11:31.055155+05:30
Bhatinda,Punjab,30.211,74.9455,31.7,25,0.0,979.7,8.0,37.8,88,76.4,29.9,0,5,7,0,2026-04-26T23:11:31.055162+05:30
Rohtak,Haryana,28.8955,76.6066,32.4,23,0.0,977.7,7.45,44.6,684,877.3,127.1,0,5,7,0,2026-04-26T23:11:31.055169+05:30
Panipat,Haryana,29.3909,76.9635,31.2,21,0.0,976.4,7.25,48.6,1441,1601.9,200.2,0,5,7,0,2026-04-26T23:11:31.055175+05:30
Mathura,Uttar Pradesh,27.4924,77.6737,31.9,27,0.0,982.7,7.75,50.8,926,293.4,66.1,0,5,7,0,2026-04-26T23:11:31.055182+05:30
Vrindavan,Uttar Pradesh,27.5823,77.7027,31.6,27,0.0,983.2,7.7,47.9,926,293.4,66.1,0,5,7,0,2026-04-26T23:11:31.055188+05:30
Ayodhya,Uttar Pradesh,26.7922,82.1998,28.8,62,0.0,992.5,8.1,42.8,150,67.3,59.4,7,5,7,1,2026-04-26T23:11:31.055194+05:30
Ratlam,Madhya Pradesh,23.3315,75.0367,32.2,18,0.0,953.2,8.5,39.2,63,55.3,36.0,0,5,7,0,2026-04-26T23:11:31.055201+05:30
Sagar,Madhya Pradesh,23.8388,78.7378,30.5,29,0.0,948.5,8.65,41.4,74,73.6,27.9,0,5,7,0,2026-04-26T23:11:31.055207+05:30
Satna,Madhya Pradesh,24.6005,80.8322,32.0,26,0.0,968.7,8.65,50.0,98,68.9,26.4,0,5,7,0,2026-04-26T23:11:31.055213+05:30
Akola,Maharashtra,20.7002,77.0082,33.6,21,0.0,972.6,8.85,34.2,92,41.7,27.1,0,5,7,0,2026-04-26T23:11:31.055219+05:30
Amravati,Maharashtra,20.9374,77.7796,34.2,20,0.0,965.3,8.85,33.8,111,49.6,33.4,0,5,7,0,2026-04-26T23:11:31.055226+05:30
Latur,Maharashtra,18.4088,76.5604,31.2,24,0.0,938.5,8.95,26.6,115,45.5,37.4,0,5,7,0,2026-04-26T23:11:31.055232+05:30
Nanded,Maharashtra,19.1383,77.3091,32.2,25,0.0,965.9,9.0,29.9,95,29.9,24.6,0,5,7,0,2026-04-26T23:11:31.055238+05:30
Gulbarga,Karnataka,17.3297,76.8343,32.5,30,0.0,957.2,7.9,24.5,154,41.6,38.0,0,5,7,0,2026-04-26T23:11:31.055244+05:30
Bidar,Karnataka,17.9104,77.5199,30.8,36,0.0,934.7,7.95,33.8,126,48.1,44.0,0,5,7,0,2026-04-26T23:11:31.055249+05:30
Hospet,Karnataka,15.2689,76.3909,28.9,59,0.0,955.1,8.65,32.4,163,52.6,48.2,4,5,7,1,2026-04-26T23:11:31.055255+05:30
Tirupur,Tamil Nadu,11.1085,77.3411,29.2,71,0.0,975.1,9.4,29.9,84,22.6,21.0,7,5,7,1,2026-04-26T23:11:31.055261+05:30
Alappuzha,Kerala,9.4981,76.3388,26.5,95,0.0,1009.2,8.55,37.8,62,27.1,23.6,7,0,4,1,2026-04-26T23:11:31.055267+05:30
Munnar,Kerala,10.0889,77.0595,19.5,69,0.0,857.5,9.6,26.6,67,30.9,29.6,3,5,7,0,2026-04-26T23:11:31.055274+05:30
Silchar,Assam,24.8333,92.7789,23.2,96,0.4,1005.2,6.8,27.4,161,88.7,55.8,6,5,4,1,2026-04-26T23:11:31.055281+05:30
Dibrugarh,Assam,27.4728,94.912,21.0,97,0.0,996.3,5.15,20.5,91,65.7,42.6,3,5,3,1,2026-04-26T23:11:31.055287+05:30
