city,state,latitude,longitude,temp,humidity,rain,pressure,uv_index,wind_gusts,aqi,pm10,pm2_5,mosquito_risk,arthritis_risk,migraine_risk,frizz_risk,updated_at
Delhi,Delhi,28.6139,77.209,40.0,15,0.0,977.9,7.4,50.4,578,724.6,85.4,0,5,10,0,2026-04-26T16:20:16.622317+05:30
Mumbai,Maharashtra,19.076,72.8777,36.0,45,0.0,1003.7,7.6,34.9,93,65.9,36.1,0,5,7,1,2026-04-26T16:20:16.622358+05:30
Bangalore,Karnataka,12.9716,77.5946,35.6,21,0.0,910.1,9.6,37.8,132,45.2,30.6,0,5,10,0,2026-04-26T16:20:16.622373+05:30
Hyderabad,Telangana,17.385,78.4867,38.0,22,0.0,950.5,9.3,33.8,116,44.5,36.0,0,5,10,0,2026-04-26T16:20:16.622383+05:30
Chennai,Tamil Nadu,13.0827,80.2707,32.9,53,0.0,1004.3,9.25,51.8,38,20.4,13.2,0,5,4,1,2026-04-26T16:20:16.622393+05:30
Kolkata,West Bengal,22.5726,88.3639,33.0,58,0.0,1001.3,8.9,49.3,63,24.4,15.9,0,5,4,1,2026-04-26T16:20:16.622405+05:30
Pune,Maharashtra,18.5204,73.8567,39.8,13,0.0,945.2,8.45,39.2,126,30.0,22.2,0,5,10,0,2026-04-26T16:20:16.622412+05:30
Ahmedabad,Gujarat,23.0225,72.5714,43.8,10,0.0,996.8,8.2,38.9,65,38.4,14.1,0,5,10,0,2026-04-26T16:20:16.622419+05:30
Jaipur,Rajasthan,26.9124,75.7873,40.5,13,0.0,956.2,8.05,42.5,141,321.3,40.5,0,5,10,0,2026-04-26T16:20:16.622427+05:30
Lucknow,Uttar Pradesh,26.8467,80.9462,42.0,13,0.0,986.5,7.9,51.8,153,207.7,39.2,0,5,10,0,2026-04-26T16:20:16.622434+05:30
Kanpur,Uttar Pradesh,26.4499,80.3319,42.6,12,0.0,985.1,7.9,54.0,430,679.9,76.4,0,5,10,0,2026-04-26T16:20:16.622441+05:30
Chandigarh,Chandigarh,30.7333,76.7794,37.3,15,0.0,964.1,7.4,44.3,78,23.5,10.7,0,5,10,0,2026-04-26T16:20:16.622448+05:30
Srinagar,Jammu and Kashmir,34.0837,74.7973,23.9,39,0.0,842.6,8.6,15.8,80,16.5,6.4,0,5,7,0,2026-04-26T16:20:16.622455+05:30
Jammu,Jammu and Kashmir,32.7266,74.857,37.0,15,0.0,968.1,8.15,34.6,73,27.7,9.6,0,5,10,0,2026-04-26T16:20:16.622462+05:30
Amritsar,Punjab,31.634,74.8723,38.8,15,0.0,976.1,8.1,36.7,93,29.2,11.0,0,5,10,0,2026-04-26T16:20:16.622469+05:30
Ludhiana,Punjab,30.901,75.8573,39.0,14,0.0,973.9,7.65,41.0,82,49.7,12.9,0,5,10,0,2026-04-26T16:20:16.622478+05:30
Jalandhar,Punjab,31.326,75.5762,38.0,15,0.0,975.0,7.85,37.8,90,56.5,14.3,0,5,10,0,2026-04-26T16:20:16.622484+05:30
Dehradun,Uttarakhand,30.6284,78.0322,28.3,15,0.0,829.7,7.8,49.3,72,22.7,7.4,4,5,7,1,2026-04-26T16:20:16.622491+05:30
Shimla,Himachal Pradesh,31.1048,77.1734,22.8,19,0.0,785.9,7.9,52.2,66,23.8,7.9,0,5,7,1,2026-04-26T16:20:16.622498+05:30
Manali,Himachal Pradesh,32.2396,77.1887,21.3,30,0.0,817.9,9.8,45.0,91,20.4,5.9,0,5,7,0,2026-04-26T16:20:16.622505+05:30
Gurgaon,Haryana,28.4595,77.0266,39.2,16,0.0,976.7,7.55,50.8,1573,2086.2,198.8,0,5,10,0,2026-04-26T16:20:16.622511+05:30
Noida,Uttar Pradesh,28.5355,77.391,40.2,15,0.0,978.8,7.45,45.7,1573,2086.2,198.8,0,5,10,0,2026-04-26T16:20:16.622517+05:30
Ghaziabad,Uttar Pradesh,28.6692,77.4538,40.7,14,0.0,977.0,7.4,49.7,445,657.5,78.5,0,5,10,0,2026-04-26T16:20:16.622523+05:30
Faridabad,Haryana,28.4089,77.3178,40.1,15,0.0,978.4,7.5,55.1,1573,2086.2,198.8,0,5,10,0,2026-04-26T16:20:16.622529+05:30
Meerut,Uttar Pradesh,28.9845,77.7064,39.9,15,0.0,975.1,7.35,48.6,445,657.5,78.5,0,5,10,0,2026-04-26T16:20:16.622535+05:30
Agra,Uttar Pradesh,27.1767,78.0081,41.8,13,0.0,982.5,7.8,49.7,1123,1031.9,98.3,0,5,10,0,2026-04-26T16:20:16.622544+05:30
Varanasi,Uttar Pradesh,25.3176,82.9739,43.3,12,0.0,989.6,8.5,45.0,154,125.3,35.9,0,5,10,0,2026-04-26T16:20:16.622550+05:30
Prayagraj,Uttar Pradesh,25.4358,81.8463,42.9,13,0.0,988.6,8.4,50.8,144,132.2,38.4,0,5,10,0,2026-04-26T16:20:16.622557+05:30
Gorakhpur,Uttar Pradesh,26.7606,83.3732,37.3,31,0.0,991.3,8.35,42.5,163,90.8,57.5,0,5,10,1,2026-04-26T16:20:16.622566+05:30
Bareilly,Uttar Pradesh,28.367,79.4304,40.3,16,0.0,980.1,7.65,47.5,113,77.3,27.6,0,5,10,0,2026-04-26T16:20:16.622572+05:30
Aligarh,Uttar Pradesh,27.8974,78.088,40.6,15,0.0,980.0,7.6,52.6,1001,1333.7,134.6,0,5,10,0,2026-04-26T16:20:16.622579+05:30
Moradabad,Uttar Pradesh,28.8386,78.7733,40.3,15,0.0,977.2,7.5,52.6,126,106.9,26.3,0,5,10,0,2026-04-26T16:20:16.622587+05:30
Saharanpur,Uttar Pradesh,29.9637,77.546,38.5,14,0.0,969.8,7.1,51.8,91,129.9,23.7,0,5,10,0,2026-04-26T16:20:16.622593+05:30
Jhansi,Uttar Pradesh,25.4484,78.5685,41.5,14,0.0,973.4,8.3,42.8,93,106.6,25.4,0,5,10,0,2026-04-26T16:20:19.842796+05:30
Surat,Gujarat,21.1702,72.8311,42.5,12,0.0,1001.8,7.85,35.3,109,84.1,51.9,0,5,7,0,2026-04-26T16:20:19.842828+05:30
Vadodara,Gujarat,22.3072,73.1812,44.0,10,0.0,998.8,8.15,42.5,81,36.1,18.7,0,5,10,0,2026-04-26T16:20:19.842839+05:30
Rajkot,Gujarat,22.3039,70.8022,41.6,13,0.0,990.5,7.85,39.2,60,58.2,16.8,0,5,10,0,2026-04-26T16:20:19.842848+05:30
Thane,Maharashtra,19.2183,72.9781,40.8,23,0.0,1002.6,7.55,31.0,93,65.9,36.1,0,5,7,0,2026-04-26T16:20:19.842856+05:30
Nagpur,Maharashtra,21.1458,79.0882,43.2,10,0.0,967.9,8.9,38.5,182,50.5,23.1,0,5,10,0,2026-04-26T16:20:19.842865+05:30
Nashik,Maharashtra,19.9975,73.7898,39.3,15,0.0,943.2,8.1,36.7,101,33.2,21.9,0,5,10,0,2026-04-26T16:20:19.842872+05:30
Aurangabad,Maharashtra,19.8762,75.3433,40.7,11,0.0,941.2,9.05,29.5,105,18.3,8.9,0,5,10,0,2026-04-26T16:20:19.842880+05:30
Solapur,Maharashtra,17.6599,75.9064,40.3,16,0.0,953.5,9.1,24.8,140,42.4,33.1,0,5,10,0,2026-04-26T16:20:19.842888+05:30
Kolhapur,Maharashtra,16.705,74.2433,35.7,26,0.0,945.1,9.0,49.3,133,41.6,35.0,0,5,10,0,2026-04-26T16:20:19.842896+05:30
Goa,Goa,15.2993,74.124,34.7,56,0.0,994.8,8.95,39.6,87,36.6,26.0,0,5,7,1,2026-04-26T16:20:19.842904+05:30
Jodhpur,Rajasthan,26.2389,73.0243,42.3,12,0.0,978.3,8.3,35.6,77,108.7,17.1,0,5,10,0,2026-04-26T16:20:19.842912+05:30
Udaipur,Rajasthan,24.5854,73.7125,38.9,14,0.0,943.9,8.75,29.9,62,15.7,5.6,0,5,10,0,2026-04-26T16:20:19.842920+05:30
Kota,Rajasthan,25.2138,75.8648,41.8,13,0.0,974.5,8.3,32.0,89,103.6,26.1,0,5,10,0,2026-04-26T16:20:19.842928+05:30
Bikaner,Rajasthan,28.0229,73.3119,42.9,12,0.0,977.0,8.15,35.3,74,83.6,19.3,0,5,10,0,2026-04-26T16:20:19.842935+05:30
Ajmer,Rajasthan,26.4499,74.6399,40.2,13,0.0,951.7,8.25,41.0,69,82.9,17.1,0,5,10,0,2026-04-26T16:20:19.842943+05:30
Gwalior,Madhya Pradesh,26.2183,78.1828,41.3,13,0.0,978.3,8.05,49.7,126,128.1,29.6,0,5,10,0,2026-04-26T16:20:19.842950+05:30
Indore,Madhya Pradesh,22.7196,75.8577,35.6,23,0.0,946.2,8.65,49.7,90,49.5,17.3,0,5,10,0,2026-04-26T16:20:19.842958+05:30
Bhopal,Madhya Pradesh,23.2599,77.4126,40.2,14,0.0,950.7,8.65,39.6,113,78.2,24.0,0,5,10,0,2026-04-26T16:20:19.842965+05:30
Jabalpur,Madhya Pradesh,23.1815,79.9864,40.5,14,0.0,957.6,8.7,39.6,96,79.4,20.1,0,5,10,0,2026-04-26T16:20:19.842973+05:30
Ujjain,Madhya Pradesh,23.1765,75.7885,39.5,15,0.0,951.2,8.55,37.4,72,54.1,17.9,0,5,10,0,2026-04-26T16:20:19.842980+05:30
Visakhapatnam,Andhra Pradesh,17.6868,83.2185,31.8,66,0.0,1000.4,9.05,48.2,55,22.9,14.8,3,5,4,1,2026-04-26T16:20:19.842988+05:30
Vijayawada,Andhra Pradesh,16.5062,80.648,37.5,30,0.0,999.0,8.8,39.6,54,30.7,20.4,0,5,10,1,2026-04-26T16:20:19.842996+05:30
Guntur,Andhra Pradesh,16.3067,80.4365,36.3,37,0.0,1000.2,8.9,42.1,55,35.3,23.7,0,5,7,1,2026-04-26T16:20:19.843004+05:30
Nellore,Andhra Pradesh,14.4426,79.9865,34.5,52,0.0,1002.0,9.1,45.0,51,29.3,20.5,0,5,4,1,2026-04-26T16:20:19.843012+05:30
Kurnool,Andhra Pradesh,15.8281,78.0373,41.4,15,0.0,972.4,9.2,33.5,114,41.9,32.6,0,5,10,0,2026-04-26T16:20:19.843020+05:30
Kakinada,Andhra Pradesh,16.9891,82.2475,36.3,43,0.0,1003.6,8.9,42.1,45,21.8,12.2,0,5,7,1,2026-04-26T16:20:19.843028+05:30
Tirupati,Andhra Pradesh,13.6288,79.4192,39.5,20,0.0,987.0,9.35,41.4,63,31.8,24.8,0,5,10,0,2026-04-26T16:20:19.843036+05:30
Warangal,Telangana,17.9689,79.5941,40.0,20,0.0,975.0,8.95,36.7,81,38.1,30.3,0,5,10,0,2026-04-26T16:20:19.843044+05:30
Nizamabad,Telangana,18.6725,78.0941,40.2,15,0.0,961.1,8.75,30.6,137,32.5,22.7,0,5,10,0,2026-04-26T16:20:19.843051+05:30
Mysore,Karnataka,12.2958,76.6396,34.4,27,0.0,926.3,9.45,40.3,120,39.9,26.9,0,5,7,0,2026-04-26T16:20:19.843059+05:30
Mangalore,Karnataka,12.9141,74.856,32.2,66,0.0,1003.4,9.1,37.8,79,31.3,24.3,3,5,4,1,2026-04-26T16:20:19.843067+05:30
Hubli-Dharwad,Karnataka,15.3647,75.124,30.0,51,0.0,939.0,9.05,57.2,123,45.1,37.1,4,5,7,1,2026-04-26T16:20:19.843075+05:30
Belgaum,Karnataka,15.8497,74.4977,31.2,47,0.0,924.4,8.85,45.7,156,44.5,36.6,0,5,7,1,2026-04-26T16:20:23.070719+05:30
Coimbatore,Tamil Nadu,11.0168,76.9558,37.9,20,0.0,958.5,9.35,37.8,106,29.3,21.3,0,5,10,0,2026-04-26T16:20:23.070749+05:30
Madurai,Tamil Nadu,9.9252,78.1198,38.8,25,0.0,988.9,9.25,39.6,53,9.5,8.5,0,5,10,0,2026-04-26T16:20:23.070759+05:30
Trichy,Tamil Nadu,10.7905,78.7047,37.6,30,0.0,995.9,9.25,32.4,51,11.8,10.2,0,5,10,1,2026-04-26T16:20:23.070767+05:30
Salem,Tamil Nadu,11.6643,78.146,38.4,21,0.0,973.6,9.35,41.4,68,22.5,17.7,0,5,10,0,2026-04-26T16:20:23.070775+05:30
Tirunelveli,Tamil Nadu,8.7139,77.7567,36.0,39,0.0,999.5,9.2,37.4,55,11.6,10.9,0,5,10,1,2026-04-26T16:20:23.070783+05:30
Vellore,Tamil Nadu,12.9165,79.1325,38.3,24,0.0,980.9,9.35,37.1,82,31.8,25.5,0,5,10,0,2026-04-26T16:20:23.070791+05:30
Erode,Tamil Nadu,11.341,77.7172,39.0,22,0.0,985.0,9.3,38.9,57,17.8,14.3,0,5,10,0,2026-04-26T16:20:23.070799+05:30
Kochi,Kerala,9.9312,76.2673,31.8,67,0.0,1005.0,9.0,36.7,84,19.7,17.3,3,5,4,1,2026-04-26T16:20:23.070806+05:30
Thiruvananthapuram,Kerala,8.5241,76.9366,30.8,66,0.0,1005.0,8.85,33.1,49,11.3,8.6,3,5,4,1,2026-04-26T16:20:23.070814+05:30
Kozhikode,Kerala,11.2588,75.7804,30.8,77,0.0,1004.5,8.25,34.9,65,12.4,9.8,3,5,4,1,2026-04-26T16:20:23.070820+05:30
Thrissur,Kerala,10.5276,76.2144,31.9,66,0.0,1003.3,9.0,40.0,74,22.2,18.5,3,5,4,1,2026-04-26T16:20:23.070827+05:30
Kannur,Kerala,11.8745,75.3704,30.7,73,0.0,1004.0,9.0,37.4,70,19.2,15.0,3,5,4,1,2026-04-26T16:20:23.070834+05:30
Patna,Bihar,25.5941,85.1376,32.2,53,0.0,995.0,8.65,43.9,167,82.9,61.7,0,5,7,1,2026-04-26T16:20:23.070840+05:30
Gaya,Bihar,24.7914,85.0002,37.5,28,0.0,987.5,8.7,44.3,165,143.4,41.2,0,5,10,0,2026-04-26T16:20:23.070846+05:30
Muzaffarpur,Bihar,26.1209,85.3647,31.0,56,0.0,996.2,8.65,48.6,160,82.2,61.2,0,5,7,1,2026-04-26T16:20:23.070853+05:30
Bhagalpur,Bihar,25.2425,87.0117,34.8,44,0.0,995.4,8.6,38.5,143,77.5,59.8,0,5,7,1,2026-04-26T16:20:23.070859+05:30
Ranchi,Jharkhand,23.3441,85.3096,36.5,18,0.0,934.0,9.2,41.0,151,141.6,31.8,0,5,10,0,2026-04-26T16:20:23.070865+05:30
Jamshedpur,Jharkhand,22.8046,86.2029,41.1,16,0.0,984.3,8.85,41.0,170,82.7,38.1,0,5,10,0,2026-04-26T16:20:23.070871+05:30
Dhanbad,Jharkhand,23.7957,86.4304,35.7,40,0.0,974.1,8.95,43.2,154,156.9,38.2,0,5,10,1,2026-04-26T16:20:23.070878+05:30
Bokaro,Jharkhand,23.6693,86.1511,36.7,27,0.0,977.9,8.95,36.0,160,169.5,37.4,0,5,10,0,2026-04-26T16:20:23.070884+05:30
Bhubaneswar,Odisha,20.2961,85.8245,31.7,69,0.0,998.0,9.05,52.2,56,22.7,16.8,3,5,7,1,2026-04-26T16:20:23.070890+05:30
Cuttack,Odisha,20.4625,85.8828,32.7,65,0.0,999.6,9.05,49.7,56,22.7,16.8,3,5,7,1,2026-04-26T16:20:23.070896+05:30
Rourkela,Odisha,22.2604,84.8536,41.5,15,0.0,979.0,8.6,45.7,207,77.8,31.0,0,5,10,0,2026-04-26T16:20:23.070902+05:30
Raipur,Chhattisgarh,21.2514,81.6296,42.3,13,0.0,969.4,8.95,41.0,182,33.1,26.7,0,5,10,0,2026-04-26T16:20:23.070908+05:30
Bhilai,Chhattisgarh,21.1938,81.3509,41.7,13,0.0,970.1,9.0,44.3,159,30.3,23.7,0,5,10,0,2026-04-26T16:20:23.070914+05:30
Guwahati,Assam,26.1158,91.7086,26.2,73,0.0,998.9,3.8,40.3,141,75.7,48.3,7,5,3,1,2026-04-26T16:20:23.070920+05:30
Agartala,Tripura,23.8315,91.2868,33.3,49,0.0,1001.3,8.8,36.4,109,40.5,26.5,0,5,4,1,2026-04-26T16:20:23.070926+05:30
Shillong,Meghalaya,25.5788,91.8933,19.9,73,0.1,855.0,4.1,45.4,132,78.0,46.8,6,5,3,0,2026-04-26T16:20:23.070933+05:30
Imphal,Manipur,24.817,93.9368,26.7,54,0.0,921.1,5.7,32.4,151,96.9,46.9,4,5,3,1,2026-04-26T16:20:23.070938+05:30
Aizawl,Mizoram,23.7271,92.7176,25.4,53,0.0,891.4,9.0,36.4,116,69.2,33.5,4,5,7,0,2026-04-26T16:20:23.070944+05:30
Kohima,Nagaland,25.6701,94.1077,20.5,76,0.0,853.9,6.95,35.6,152,101.7,55.8,3,5,7,0,2026-04-26T16:20:23.070950+05:30
Gangtok,Sikkim,27.3314,88.6138,17.0,94,0.1,834.7,8.0,42.1,119,40.3,20.1,6,10,7,0,2026-04-26T16:20:23.070957+05:30
Siliguri,West Bengal,26.7271,88.3953,27.7,63,0.0,989.4,8.4,33.1,131,67.5,36.6,7,5,7,1,2026-04-26T16:20:26.302126+05:30
Durgapur,West Bengal,23.5204,87.3119,28.1,80,0.1,989.6,8.9,38.9,122,67.3,55.8,10,5,7,1,2026-04-26T16:20:26.302162+05:30
Asansol,West Bengal,23.6739,86.9524,31.3,65,0.0,988.0,8.95,40.7,132,111.5,49.4,3,5,7,1,2026-04-26T16:20:26.302175+05:30
Pondicherry,Puducherry,11.9139,79.8145,31.5,66,0.0,1005.7,9.2,42.8,32,16.5,10.9,3,5,4,1,2026-04-26T16:20:26.302186+05:30
Port Blair,Andaman and Nicobar Islands,11.6234,92.7265,31.8,59,0.0,1004.8,9.1,34.9,58,18.7,13.5,0,5,4,1,2026-04-26T16:20:26.302196+05:30
Haridwar,Uttarakhand,29.9457,78.1642,37.2,19,0.0,967.5,7.2,45.7,80,44.2,13.1,0,5,10,0,2026-04-26T16:20:26.302205+05:30
Rishikesh,Uttarakhand,30.0869,78.2676,35.8,22,0.0,960.5,7.3,36.0,81,22.6,9.9,0,5,10,0,2026-04-26T16:20:26.302214+05:30
Nainital,Uttarakhand,29.3919,79.4542,23.0,38,0.0,805.4,8.15,52.2,112,34.6,14.6,0,5,7,0,2026-04-26T16:20:26.302223+05:30
Mussoorie,Uttarakhand,30.4599,78.0664,23.9,22,0.0,803.0,7.7,60.8,85,20.6,9.8,0,5,7,0,2026-04-26T16:20:26.302231+05:30
Dharamshala,Himachal Pradesh,32.219,76.3234,27.4,27,0.0,868.4,8.05,44.3,67,31.2,9.4,4,5,7,0,2026-04-26T16:20:26.302239+05:30
Dalhousie,Himachal Pradesh,32.5387,75.971,22.9,31,0.0,805.6,8.3,40.7,69,34.2,11.4,0,5,7,0,2026-04-26T16:20:26.302248+05:30
Patiala,Punjab,30.3398,76.3869,40.0,12,0.0,972.9,7.3,46.4,411,685.5,63.1,0,5,10,0,2026-04-26T16:20:26.302257+05:30
Bhatinda,Punjab,30.211,74.9455,40.7,13,0.0,978.8,8.0,37.4,91,71.9,19.3,0,5,10,0,2026-04-26T16:20:26.302264+05:30
Rohtak,Haryana,28.8955,76.6066,40.0,14,0.0,976.8,7.45,42.5,801,953.7,99.2,0,5,10,0,2026-04-26T16:20:26.302272+05:30
Panipat,Haryana,29.3909,76.9635,41.3,12,0.0,974.3,7.25,49.7,1533,1974.4,175.1,0,5,10,0,2026-04-26T16:20:26.302280+05:30
Mathura,Uttar Pradesh,27.4924,77.6737,40.8,15,0.0,981.6,7.75,48.6,1054,1102.7,105.9,0,5,10,0,2026-04-26T16:20:26.302287+05:30
Vrindavan,Uttar Pradesh,27.5823,77.7027,40.8,15,0.0,982.1,7.7,48.2,1054,1102.7,105.9,0,5,10,0,2026-04-26T16:20:26.302295+05:30
Ayodhya,Uttar Pradesh,26.7922,82.1998,37.0,33,0.0,989.3,8.1,53.3,154,105.9,41.6,0,5,10,1,2026-04-26T16:20:26.302303+05:30
Ratlam,Madhya Pradesh,23.3315,75.0367,40.7,13,0.0,951.8,8.5,39.6,63,44.9,14.8,0,5,10,0,2026-04-26T16:20:26.302311+05:30
Sagar,Madhya Pradesh,23.8388,78.7378,39.3,15,0.0,947.4,8.65,44.3,78,76.8,21.8,0,5,10,0,2026-04-26T16:20:26.302319+05:30
Satna,Madhya Pradesh,24.6005,80.8322,41.2,14,0.0,966.6,8.65,43.2,101,115.7,27.3,0,5,10,0,2026-04-26T16:20:26.302325+05:30
Akola,Maharashtra,20.7002,77.0082,42.8,12,0.0,970.1,8.85,34.2,106,26.5,12.0,0,5,10,0,2026-04-26T16:20:26.302333+05:30
Amravati,Maharashtra,20.9374,77.7796,42.5,10,0.0,962.7,8.85,27.7,112,24.7,11.1,0,5,10,0,2026-04-26T16:20:26.302340+05:30
Latur,Maharashtra,18.4088,76.5604,39.0,13,0.0,937.3,9.0,26.6,120,27.9,20.5,0,5,10,0,2026-04-26T16:20:26.302346+05:30
Nanded,Maharashtra,19.1383,77.3091,41.7,12,0.0,964.5,9.05,29.9,122,20.7,10.7,0,5,10,0,2026-04-26T16:20:26.302352+05:30
Gulbarga,Karnataka,17.3297,76.8343,40.2,16,0.0,955.2,7.8,25.6,140,47.5,38.8,0,5,10,0,2026-04-26T16:20:26.302358+05:30
Bidar,Karnataka,17.9104,77.5199,38.6,19,0.0,933.2,7.95,33.8,142,41.7,32.9,0,5,10,0,2026-04-26T16:20:26.302364+05:30
Hospet,Karnataka,15.2689,76.3909,38.2,22,0.0,952.5,8.9,41.8,116,42.7,34.6,0,5,10,0,2026-04-26T16:20:26.302371+05:30
Tirupur,Tamil Nadu,11.1085,77.3411,39.5,19,0.0,971.2,9.4,31.0,72,20.3,15.7,0,5,10,0,2026-04-26T16:20:26.302377+05:30
Alappuzha,Kerala,9.4981,76.3388,30.9,71,0.0,1005.3,8.95,38.2,78,16.6,14.0,3,5,4,1,2026-04-26T16:20:26.302383+05:30
Munnar,Kerala,10.0889,77.0595,24.7,47,0.0,857.0,9.6,27.0,66,15.6,13.5,0,5,7,0,2026-04-26T16:20:26.302390+05:30
Silchar,Assam,24.8333,92.7789,29.0,71,0.0,1001.6,6.8,21.6,162,104.5,55.5,7,5,4,1,2026-04-26T16:20:26.302397+05:30
Dibrugarh,Assam,27.4728,94.912,26.1,72,0.0,993.4,5.15,25.2,91,43.8,26.8,7,5,3,1,2026-04-26T16:20:26.302403+05:30
