city,state,latitude,longitude,temp,humidity,rain,pressure,uv_index,wind_gusts,aqi,pm10,pm2_5,no2,co,o3,so2,mosquito_risk,arthritis_risk,migraine_risk,frizz_risk,updated_at
Delhi,Delhi,28.6139,77.209,34.8,22,0.0,976.0,7.75,45.0,669,821.4,168.6,22.4,476.0,58.0,10.8,0,5,7,0,2026-05-19T00:23:45.102222+05:30
Mumbai,Maharashtra,19.076,72.8777,29.0,83,0.0,1005.8,7.55,44.6,69,45.1,21.7,8.3,221.0,61.0,5.1,7,5,4,1,2026-05-19T00:23:45.102259+05:30
Bangalore,Karnataka,12.9716,77.5946,22.5,97,0.0,910.7,8.55,32.8,83,26.7,23.8,24.5,362.0,69.0,8.2,3,5,7,1,2026-05-19T00:23:45.102275+05:30
Hyderabad,Telangana,17.385,78.4867,31.1,50,0.0,950.8,9.25,25.6,60,29.8,26.0,16.7,448.0,80.0,8.6,0,5,7,1,2026-05-19T00:23:45.102285+05:30
Chennai,Tamil Nadu,13.0827,80.2707,30.0,81,0.0,1004.4,9.05,45.0,76,20.4,15.5,9.2,326.0,83.0,8.3,7,5,4,1,2026-05-19T00:23:45.102293+05:30
Kolkata,West Bengal,22.5726,88.3639,28.9,90,0.0,1001.2,8.95,34.9,71,22.4,18.5,8.0,293.0,68.0,6.2,7,5,4,1,2026-05-19T00:23:45.102301+05:30
Pune,Maharashtra,18.5204,73.8567,27.0,76,0.0,945.5,8.4,48.6,125,38.8,28.0,15.4,240.0,105.0,24.7,7,5,7,1,2026-05-19T00:23:45.102309+05:30
Ahmedabad,Gujarat,23.0225,72.5714,34.0,32,0.0,997.6,8.05,35.6,65,37.0,21.8,8.0,204.0,69.0,3.9,0,5,7,0,2026-05-19T00:23:45.102316+05:30
Jaipur,Rajasthan,26.9124,75.7873,34.5,21,0.0,955.3,8.25,43.2,159,297.1,57.4,7.7,206.0,78.0,5.4,0,5,7,0,2026-05-19T00:23:45.102327+05:30
Lucknow,Uttar Pradesh,26.8467,80.9462,33.8,41,0.0,986.6,8.2,37.4,183,367.9,101.7,34.9,517.0,56.0,16.6,0,5,7,1,2026-05-19T00:23:45.102334+05:30
Kanpur,Uttar Pradesh,26.4499,80.3319,34.4,35,0.0,985.0,8.25,44.3,359,678.0,139.7,30.7,468.0,60.0,16.4,0,5,7,1,2026-05-19T00:23:45.102340+05:30
Chandigarh,Chandigarh,30.7333,76.7794,31.2,34,0.0,961.8,7.75,38.5,106,42.1,27.6,18.7,448.0,98.0,14.8,0,5,7,0,2026-05-19T00:23:45.102349+05:30
Srinagar,Jammu and Kashmir,34.0837,74.7973,14.4,92,0.0,837.4,8.95,21.2,69,43.2,34.3,32.5,872.0,22.0,1.4,3,10,7,0,2026-05-19T00:23:45.102357+05:30
Jammu,Jammu and Kashmir,32.7266,74.857,27.6,45,0.0,965.3,8.55,29.2,74,39.7,37.0,44.2,693.0,21.0,5.5,4,5,7,0,2026-05-19T00:23:45.102363+05:30
Amritsar,Punjab,31.634,74.8723,31.6,46,0.0,973.5,8.45,24.5,83,80.1,54.9,39.1,723.0,67.0,19.0,0,5,7,1,2026-05-19T00:23:45.102370+05:30
Ludhiana,Punjab,30.901,75.8573,31.9,49,0.0,971.6,8.0,25.9,96,75.2,39.7,15.6,1383.0,74.0,8.1,0,5,7,1,2026-05-19T00:23:45.102376+05:30
Jalandhar,Punjab,31.326,75.5762,31.0,47,0.0,972.7,8.2,25.6,106,81.7,44.2,18.6,1103.0,74.0,10.3,0,5,7,1,2026-05-19T00:23:45.102382+05:30
Dehradun,Uttarakhand,30.6284,78.0322,16.6,75,0.0,825.1,8.2,38.9,103,20.0,18.6,33.1,240.0,69.0,3.8,3,5,7,0,2026-05-19T00:23:45.102388+05:30
Shimla,Himachal Pradesh,31.1048,77.1734,17.6,48,0.0,782.6,8.3,45.7,114,22.1,17.6,18.5,290.0,110.0,5.9,0,5,7,0,2026-05-19T00:23:45.102396+05:30
Manali,Himachal Pradesh,32.2396,77.1887,12.6,40,0.0,812.9,9.9,54.0,45,8.1,5.2,91.8,358.0,11.0,0.0,0,5,7,1,2026-05-19T00:23:45.102403+05:30
Gurgaon,Haryana,28.4595,77.0266,31.9,30,0.0,974.6,7.85,43.6,1310,2011.7,297.1,18.1,301.0,62.0,9.7,0,5,7,0,2026-05-19T00:23:45.102409+05:30
Noida,Uttar Pradesh,28.5355,77.391,32.6,29,0.0,977.1,7.75,34.9,1310,2011.7,297.1,18.1,546.0,62.0,9.7,0,5,7,0,2026-05-19T00:23:45.102416+05:30
Ghaziabad,Uttar Pradesh,28.6692,77.4538,33.5,28,0.0,975.4,7.75,36.0,542,827.0,177.4,28.7,329.0,54.0,18.6,0,5,7,0,2026-05-19T00:23:45.102422+05:30
Faridabad,Haryana,28.4089,77.3178,34.5,23,0.0,976.6,7.8,45.4,1310,2011.7,297.1,18.1,372.0,62.0,9.7,0,5,7,0,2026-05-19T00:23:45.102441+05:30
Meerut,Uttar Pradesh,28.9845,77.7064,31.9,30,0.0,974.2,7.65,37.4,542,827.0,177.4,28.7,449.0,54.0,18.6,0,5,7,0,2026-05-19T00:23:45.102448+05:30
Agra,Uttar Pradesh,27.1767,78.0081,34.2,24,0.0,980.8,8.1,45.0,653,825.2,121.1,17.8,331.0,52.0,7.5,0,5,7,0,2026-05-19T00:23:45.102455+05:30
Varanasi,Uttar Pradesh,25.3176,82.9739,32.9,42,0.0,991.2,8.7,46.4,107,151.8,77.1,45.1,538.0,39.0,19.0,0,5,7,1,2026-05-19T00:23:45.102461+05:30
Prayagraj,Uttar Pradesh,25.4358,81.8463,33.7,36,0.0,989.4,8.6,44.6,135,237.0,94.1,39.4,392.0,50.0,17.7,0,5,7,1,2026-05-19T00:23:45.102468+05:30
Gorakhpur,Uttar Pradesh,26.7606,83.3732,29.8,67,0.0,991.4,8.6,27.4,163,163.0,103.4,41.8,649.0,50.0,19.3,7,5,7,1,2026-05-19T00:23:45.102477+05:30
Bareilly,Uttar Pradesh,28.367,79.4304,29.0,67,0.0,979.4,8.0,33.8,154,82.2,67.8,47.5,737.0,57.0,20.0,7,5,7,1,2026-05-19T00:23:45.102484+05:30
Aligarh,Uttar Pradesh,27.8974,78.088,32.7,34,0.0,978.3,7.9,40.0,781,1233.1,213.7,19.7,318.0,56.0,8.7,0,5,7,0,2026-05-19T00:23:45.102490+05:30
Moradabad,Uttar Pradesh,28.8386,78.7733,30.5,62,0.0,976.4,7.85,38.9,163,270.1,126.7,79.9,1077.0,23.0,27.4,3,5,7,1,2026-05-19T00:23:45.102498+05:30
Saharanpur,Uttar Pradesh,29.9637,77.546,31.1,37,0.0,968.3,7.4,36.0,113,50.8,32.2,17.7,387.0,90.0,12.5,0,5,7,0,2026-05-19T00:23:45.102504+05:30
Jhansi,Uttar Pradesh,25.4484,78.5685,33.9,29,0.0,972.0,8.45,46.4,69,45.6,22.8,6.4,194.0,59.0,3.4,0,5,7,0,2026-05-19T00:23:48.489639+05:30
Surat,Gujarat,21.1702,72.8311,29.6,80,0.0,1002.3,7.25,33.5,92,41.3,28.2,28.1,431.0,40.0,42.8,7,5,4,1,2026-05-19T00:23:48.489665+05:30
Vadodara,Gujarat,22.3072,73.1812,32.0,51,0.0,999.8,7.85,37.1,71,36.3,26.9,24.5,262.0,49.0,18.0,0,5,7,1,2026-05-19T00:23:48.489674+05:30
Rajkot,Gujarat,22.3039,70.8022,27.1,75,0.0,991.4,7.1,40.0,68,40.6,17.4,7.9,154.0,49.0,6.5,7,5,7,1,2026-05-19T00:23:48.489683+05:30
Thane,Maharashtra,19.2183,72.9781,28.9,84,0.0,1005.1,7.6,39.6,69,45.1,21.7,8.3,197.0,61.0,5.1,7,5,4,1,2026-05-19T00:23:48.489690+05:30
Nagpur,Maharashtra,21.1458,79.0882,34.0,37,0.0,969.0,8.95,36.7,78,34.7,27.8,29.0,242.0,64.0,14.5,0,5,7,1,2026-05-19T00:23:48.489697+05:30
Nashik,Maharashtra,19.9975,73.7898,28.1,49,0.0,942.4,6.7,46.4,67,30.3,19.7,12.8,230.0,69.0,3.9,4,5,7,1,2026-05-19T00:23:48.489704+05:30
Aurangabad,Maharashtra,19.8762,75.3433,32.5,30,0.0,940.7,9.0,38.9,65,28.3,20.4,7.3,221.0,120.0,9.4,0,5,7,0,2026-05-19T00:23:48.489710+05:30
Solapur,Maharashtra,17.6599,75.9064,32.0,48,0.0,954.7,8.6,32.8,105,33.4,29.3,10.2,173.0,109.0,5.4,0,5,7,1,2026-05-19T00:23:48.489717+05:30
Kolhapur,Maharashtra,16.705,74.2433,25.3,87,0.0,945.9,8.45,41.4,58,26.9,16.8,7.3,177.0,61.0,3.6,7,5,7,1,2026-05-19T00:23:48.489724+05:30
Goa,Goa,15.2993,74.124,26.8,90,0.0,996.3,7.15,34.9,67,56.1,26.4,7.5,254.0,49.0,2.1,7,5,7,1,2026-05-19T00:23:48.489730+05:30
Jodhpur,Rajasthan,26.2389,73.0243,33.4,18,0.0,978.3,8.35,41.0,140,240.3,49.0,6.9,179.0,73.0,2.8,0,5,7,0,2026-05-19T00:23:48.489736+05:30
Udaipur,Rajasthan,24.5854,73.7125,31.9,20,0.0,943.1,8.85,45.4,57,33.3,15.3,2.8,149.0,84.0,2.8,0,5,7,0,2026-05-19T00:23:48.489743+05:30
Kota,Rajasthan,25.2138,75.8648,34.8,25,0.0,973.6,8.4,36.0,83,71.9,35.4,18.1,242.0,50.0,5.3,0,5,7,0,2026-05-19T00:23:48.489749+05:30
Bikaner,Rajasthan,28.0229,73.3119,33.9,15,0.0,976.3,8.4,41.0,87,185.8,51.7,2.4,144.0,88.0,2.4,0,5,7,0,2026-05-19T00:23:48.489755+05:30
Ajmer,Rajasthan,26.4499,74.6399,32.0,23,0.0,950.9,8.4,42.1,81,62.2,21.3,5.3,206.0,81.0,4.8,0,5,7,0,2026-05-19T00:23:48.489761+05:30
Gwalior,Madhya Pradesh,26.2183,78.1828,35.1,23,0.0,977.1,8.25,47.5,83,41.2,22.5,10.2,200.0,52.0,4.5,0,5,10,0,2026-05-19T00:23:48.489768+05:30
Indore,Madhya Pradesh,22.7196,75.8577,33.8,22,0.0,944.7,8.65,52.2,77,51.6,31.3,14.6,300.0,69.0,8.4,0,5,7,0,2026-05-19T00:23:48.489774+05:30
Bhopal,Madhya Pradesh,23.2599,77.4126,34.0,22,0.0,948.9,8.7,38.9,69,68.7,29.8,9.9,669.0,75.0,6.9,0,5,7,0,2026-05-19T00:23:48.489781+05:30
Jabalpur,Madhya Pradesh,23.1815,79.9864,32.7,34,0.0,957.2,8.85,34.9,86,51.8,27.4,16.8,363.0,70.0,6.3,0,5,7,0,2026-05-19T00:23:48.489788+05:30
Ujjain,Madhya Pradesh,23.1765,75.7885,33.6,22,0.0,949.9,8.4,37.8,67,36.4,22.5,5.6,247.0,84.0,5.2,0,5,7,0,2026-05-19T00:23:48.489795+05:30
Visakhapatnam,Andhra Pradesh,17.6868,83.2185,29.4,86,0.0,1001.2,9.05,47.9,64,21.7,16.1,14.5,284.0,66.0,27.3,7,5,4,1,2026-05-19T00:23:48.489801+05:30
Vijayawada,Andhra Pradesh,16.5062,80.648,29.8,80,0.0,1000.2,8.6,33.1,68,18.6,14.4,5.7,247.0,81.0,5.6,7,5,4,1,2026-05-19T00:23:48.489827+05:30
Guntur,Andhra Pradesh,16.3067,80.4365,29.6,83,0.0,1001.2,9.2,36.0,78,19.8,15.9,5.3,223.0,91.0,4.8,7,5,4,1,2026-05-19T00:23:48.489836+05:30
Nellore,Andhra Pradesh,14.4426,79.9865,31.1,72,0.0,1002.5,9.1,40.7,111,22.2,18.6,7.7,316.0,110.0,11.5,3,5,4,1,2026-05-19T00:23:48.489843+05:30
Kurnool,Andhra Pradesh,15.8281,78.0373,32.7,50,0.0,973.9,8.8,33.5,61,30.6,25.8,20.5,215.0,49.0,4.0,0,5,7,1,2026-05-19T00:23:48.489850+05:30
Kakinada,Andhra Pradesh,16.9891,82.2475,29.7,81,0.0,1005.2,9.1,38.2,55,19.3,12.2,1.9,225.0,75.0,1.4,7,5,4,1,2026-05-19T00:23:48.489857+05:30
Tirupati,Andhra Pradesh,13.6288,79.4192,28.3,77,0.0,988.5,8.6,29.2,71,24.3,22.9,14.0,277.0,102.0,13.7,7,5,7,1,2026-05-19T00:23:48.489863+05:30
Warangal,Telangana,17.9689,79.5941,31.0,56,0.0,975.5,9.15,36.4,70,39.3,36.0,16.1,419.0,84.0,7.7,0,5,7,1,2026-05-19T00:23:48.489869+05:30
Nizamabad,Telangana,18.6725,78.0941,32.0,46,0.0,961.0,9.1,28.1,87,31.7,28.0,9.3,274.0,99.0,4.9,0,5,7,1,2026-05-19T00:23:48.489875+05:30
Mysore,Karnataka,12.2958,76.6396,22.5,92,0.0,927.7,4.5,37.8,53,9.6,8.9,10.6,264.0,64.0,2.8,3,5,3,1,2026-05-19T00:23:48.489881+05:30
Mangalore,Karnataka,12.9141,74.856,24.6,100,0.0,1006.2,3.45,27.0,58,13.1,11.2,11.2,332.0,55.0,4.2,3,5,0,1,2026-05-19T00:23:48.489888+05:30
Hubli-Dharwad,Karnataka,15.3647,75.124,24.4,95,0.0,939.2,8.6,50.0,57,18.3,12.2,10.1,168.0,44.0,2.3,3,5,7,1,2026-05-19T00:23:48.489894+05:30
Belgaum,Karnataka,15.8497,74.4977,23.6,92,0.0,924.1,7.95,49.0,58,27.0,15.5,8.8,136.0,45.0,2.5,3,5,7,1,2026-05-19T00:23:51.820010+05:30
Coimbatore,Tamil Nadu,11.0168,76.9558,24.4,85,0.0,961.2,5.9,52.9,34,4.4,3.9,6.6,195.0,54.0,2.6,3,5,3,1,2026-05-19T00:23:51.820041+05:30
Madurai,Tamil Nadu,9.9252,78.1198,27.9,73,0.0,992.2,8.8,37.8,62,21.8,21.0,36.0,523.0,20.0,7.6,7,5,7,1,2026-05-19T00:23:51.820052+05:30
Trichy,Tamil Nadu,10.7905,78.7047,27.1,85,0.0,998.6,9.0,30.2,58,16.6,16.0,21.4,359.0,46.0,5.1,7,5,7,1,2026-05-19T00:23:51.820060+05:30
Salem,Tamil Nadu,11.6643,78.146,27.1,82,0.0,976.6,8.9,35.6,51,12.3,11.7,15.9,399.0,60.0,6.6,7,5,7,1,2026-05-19T00:23:51.820068+05:30
Tirunelveli,Tamil Nadu,8.7139,77.7567,28.3,75,0.0,1003.1,8.4,26.6,30,12.1,9.5,8.3,230.0,46.0,1.8,7,5,4,1,2026-05-19T00:23:51.820076+05:30
Vellore,Tamil Nadu,12.9165,79.1325,28.1,75,0.0,982.3,9.15,33.8,72,18.9,17.6,12.5,277.0,77.0,8.0,7,5,7,1,2026-05-19T00:23:51.820083+05:30
Erode,Tamil Nadu,11.341,77.7172,26.9,75,0.0,988.3,7.4,36.0,41,10.8,10.2,15.6,233.0,49.0,4.1,7,5,7,1,2026-05-19T00:23:51.820091+05:30
Kochi,Kerala,9.9312,76.2673,25.5,97,0.0,1009.1,6.85,37.8,36,7.3,6.3,9.0,293.0,47.0,2.6,7,0,4,1,2026-05-19T00:23:51.820098+05:30
Thiruvananthapuram,Kerala,8.5241,76.9366,25.2,95,0.2,1008.9,7.6,37.1,37,18.5,10.5,1.6,143.0,59.0,0.6,10,0,4,1,2026-05-19T00:23:51.820106+05:30
Kozhikode,Kerala,11.2588,75.7804,25.1,99,0.0,1008.0,4.2,24.5,34,7.4,6.4,5.5,293.0,61.0,2.7,7,0,0,1,2026-05-19T00:23:51.820113+05:30
Thrissur,Kerala,10.5276,76.2144,24.2,100,0.1,1007.5,5.6,30.2,30,7.2,6.5,9.0,278.0,45.0,3.0,6,5,0,1,2026-05-19T00:23:51.820121+05:30
Kannur,Kerala,11.8745,75.3704,26.0,94,0.0,1006.9,3.05,32.4,43,9.6,8.9,9.9,282.0,51.0,3.3,7,5,0,1,2026-05-19T00:23:51.820128+05:30
Patna,Bihar,25.5941,85.1376,29.2,78,0.0,995.3,8.8,30.6,157,51.9,44.2,13.1,517.0,112.0,15.7,7,5,7,1,2026-05-19T00:23:51.820135+05:30
Gaya,Bihar,24.7914,85.0002,29.6,54,0.0,988.0,8.85,38.2,139,95.7,60.3,14.5,385.0,105.0,15.3,4,5,7,1,2026-05-19T00:23:51.820143+05:30
Muzaffarpur,Bihar,26.1209,85.3647,28.1,80,0.0,995.8,8.8,32.4,157,56.5,49.1,13.4,554.0,105.0,14.7,7,5,7,1,2026-05-19T00:23:51.820150+05:30
Bhagalpur,Bihar,25.2425,87.0117,27.6,88,0.0,996.8,8.8,37.4,142,36.2,32.5,12.3,467.0,87.0,6.9,7,5,7,1,2026-05-19T00:23:51.820157+05:30
Ranchi,Jharkhand,23.3441,85.3096,26.2,58,0.0,933.5,9.25,42.1,132,48.0,35.7,10.3,277.0,113.0,10.3,4,5,7,1,2026-05-19T00:23:51.820164+05:30
Jamshedpur,Jharkhand,22.8046,86.2029,28.7,59,0.0,985.9,9.05,37.8,127,72.2,53.7,25.4,564.0,93.0,32.5,4,5,7,1,2026-05-19T00:23:51.820172+05:30
Dhanbad,Jharkhand,23.7957,86.4304,28.9,61,0.0,974.6,9.0,38.9,158,101.0,84.8,66.5,1040.0,51.0,142.8,7,5,7,1,2026-05-19T00:23:51.820180+05:30
Bokaro,Jharkhand,23.6693,86.1511,27.2,70,0.0,978.3,9.05,37.8,153,94.5,68.0,42.9,889.0,64.0,88.0,7,5,7,1,2026-05-19T00:23:51.820187+05:30
Bhubaneswar,Odisha,20.2961,85.8245,29.5,85,0.0,998.6,9.1,41.0,62,17.3,13.8,5.0,215.0,73.0,4.7,7,5,7,1,2026-05-19T00:23:51.820194+05:30
Cuttack,Odisha,20.4625,85.8828,29.4,86,0.0,1000.2,9.15,31.0,62,17.3,13.8,5.0,227.0,73.0,4.7,7,5,4,1,2026-05-19T00:23:51.820201+05:30
Rourkela,Odisha,22.2604,84.8536,29.7,60,0.0,980.0,8.95,39.2,137,73.6,53.2,23.4,481.0,110.0,18.0,4,5,7,1,2026-05-19T00:23:51.820209+05:30
Raipur,Chhattisgarh,21.2514,81.6296,32.5,39,0.0,970.0,8.95,42.8,109,43.1,40.2,31.2,399.0,72.0,39.5,0,5,7,1,2026-05-19T00:23:51.820215+05:30
Bhilai,Chhattisgarh,21.1938,81.3509,31.8,40,0.0,970.4,8.95,43.2,99,40.2,37.4,30.2,494.0,74.0,40.2,0,5,7,1,2026-05-19T00:23:51.820222+05:30
Guwahati,Assam,26.1158,91.7086,23.0,98,0.0,999.8,8.3,27.7,63,21.6,19.0,9.9,377.0,65.0,3.9,3,5,7,1,2026-05-19T00:23:51.820229+05:30
Agartala,Tripura,23.8315,91.2868,26.2,90,0.0,1002.7,8.9,47.5,75,28.4,22.9,13.1,235.0,39.0,2.2,7,5,4,1,2026-05-19T00:23:51.820236+05:30
Shillong,Meghalaya,25.5788,91.8933,16.6,100,0.0,854.2,7.8,44.3,43,20.7,15.7,9.6,297.0,64.0,4.1,3,10,7,1,2026-05-19T00:23:51.820243+05:30
Imphal,Manipur,24.817,93.9368,20.6,100,0.0,921.0,9.2,36.7,85,21.9,17.1,11.5,938.0,56.0,3.5,3,5,7,1,2026-05-19T00:23:51.820252+05:30
Aizawl,Mizoram,23.7271,92.7176,19.0,92,0.0,889.9,9.1,33.1,74,34.2,22.8,5.7,208.0,68.0,3.6,3,10,7,1,2026-05-19T00:23:51.820258+05:30
Kohima,Nagaland,25.6701,94.1077,16.1,95,0.0,852.3,8.8,33.8,60,19.7,12.6,10.4,280.0,43.0,2.2,3,10,7,0,2026-05-19T00:23:51.820265+05:30
Gangtok,Sikkim,27.3314,88.6138,16.5,97,0.1,835.7,9.05,35.6,77,31.7,27.4,16.6,780.0,72.0,2.1,6,10,7,0,2026-05-19T00:23:51.820272+05:30
Siliguri,West Bengal,26.7271,88.3953,23.8,95,0.0,990.9,8.75,31.3,116,59.1,48.1,12.8,457.0,108.0,6.6,3,5,7,1,2026-05-19T00:23:55.173892+05:30
Durgapur,West Bengal,23.5204,87.3119,28.8,89,0.0,989.9,8.95,37.8,154,73.6,67.8,30.1,523.0,73.0,39.2,7,5,7,1,2026-05-19T00:23:55.173926+05:30
Asansol,West Bengal,23.6739,86.9524,28.5,82,0.0,988.4,8.95,33.5,153,76.6,68.7,47.8,475.0,61.0,65.2,7,5,7,1,2026-05-19T00:23:55.173939+05:30
Pondicherry,Puducherry,11.9139,79.8145,29.0,82,0.0,1006.1,8.85,39.2,66,14.1,11.0,10.0,308.0,66.0,9.3,7,5,4,1,2026-05-19T00:23:55.173953+05:30
Port Blair,Andaman and Nicobar Islands,11.6234,92.7265,25.6,96,0.1,1006.1,8.55,45.7,27,8.2,4.8,0.2,118.0,51.0,0.2,10,5,4,1,2026-05-19T00:23:55.173963+05:30
Haridwar,Uttarakhand,29.9457,78.1642,26.0,69,0.0,966.2,7.55,27.0,101,49.7,34.7,26.2,501.0,65.0,12.4,7,5,7,1,2026-05-19T00:23:55.173972+05:30
Rishikesh,Uttarakhand,30.0869,78.2676,23.4,67,0.0,958.8,7.65,28.8,136,39.3,24.0,15.5,405.0,111.0,9.4,3,5,7,1,2026-05-19T00:23:55.173981+05:30
Nainital,Uttarakhand,29.3919,79.4542,17.7,62,0.0,802.4,8.5,31.3,144,34.0,23.2,12.1,346.0,125.0,7.2,3,5,7,0,2026-05-19T00:23:55.173990+05:30
Mussoorie,Uttarakhand,30.4599,78.0664,17.9,54,0.0,799.5,8.05,45.4,109,34.2,28.9,35.8,313.0,75.0,11.7,0,5,7,0,2026-05-19T00:23:55.173999+05:30
Dharamshala,Himachal Pradesh,32.219,76.3234,24.9,46,0.0,866.6,8.45,40.0,48,14.9,13.0,18.1,262.0,27.0,0.5,0,5,7,0,2026-05-19T00:23:55.174008+05:30
Dalhousie,Himachal Pradesh,32.5387,75.971,17.2,64,0.0,801.6,8.7,41.0,112,25.5,22.4,29.2,474.0,68.0,2.9,3,5,7,0,2026-05-19T00:23:55.174017+05:30
Patiala,Punjab,30.3398,76.3869,32.1,43,0.0,971.1,7.65,35.3,440,256.1,68.7,17.1,560.0,65.0,9.5,0,5,7,1,2026-05-19T00:23:55.174026+05:30
Bhatinda,Punjab,30.211,74.9455,31.3,35,0.0,976.4,8.3,37.8,89,81.5,55.4,34.3,452.0,48.0,9.6,0,5,7,0,2026-05-19T00:23:55.174034+05:30
Rohtak,Haryana,28.8955,76.6066,31.8,29,0.0,974.7,7.75,42.8,838,972.3,163.0,13.2,333.0,65.0,4.0,0,5,7,0,2026-05-19T00:23:55.174042+05:30
Panipat,Haryana,29.3909,76.9635,31.5,31,0.0,973.1,7.6,36.7,1659,2108.5,326.0,14.5,389.0,65.0,6.3,0,5,7,0,2026-05-19T00:23:55.174050+05:30
Mathura,Uttar Pradesh,27.4924,77.6737,33.4,25,0.0,979.9,8.0,42.8,713,912.7,129.9,12.4,318.0,61.0,4.3,0,5,7,0,2026-05-19T00:23:55.174058+05:30
Vrindavan,Uttar Pradesh,27.5823,77.7027,32.0,29,0.0,980.2,8.0,40.0,713,912.7,129.9,12.4,282.0,61.0,4.3,0,5,7,0,2026-05-19T00:23:55.174067+05:30
Ayodhya,Uttar Pradesh,26.7922,82.1998,29.8,54,0.0,988.6,8.35,23.0,161,185.3,94.8,48.2,726.0,45.0,17.4,4,5,7,1,2026-05-19T00:23:55.174075+05:30
Ratlam,Madhya Pradesh,23.3315,75.0367,32.2,26,0.0,951.1,8.55,47.2,61,34.1,19.0,2.8,184.0,99.0,5.2,0,5,7,0,2026-05-19T00:23:55.174084+05:30
Sagar,Madhya Pradesh,23.8388,78.7378,32.5,27,0.0,945.9,8.75,43.6,70,68.0,24.7,11.8,218.0,64.0,3.4,0,5,7,0,2026-05-19T00:23:55.174092+05:30
Satna,Madhya Pradesh,24.6005,80.8322,32.2,33,0.0,965.7,8.75,55.1,79,137.8,40.2,16.2,271.0,68.0,4.9,0,5,7,0,2026-05-19T00:23:55.174100+05:30
Akola,Maharashtra,20.7002,77.0082,35.9,23,0.0,970.3,8.85,31.7,57,42.1,29.6,29.0,277.0,60.0,7.3,0,5,10,0,2026-05-19T00:23:55.174110+05:30
Amravati,Maharashtra,20.9374,77.7796,35.2,31,0.0,963.0,8.9,33.5,59,43.7,33.3,40.2,252.0,42.0,9.0,0,5,10,0,2026-05-19T00:23:55.174119+05:30
Latur,Maharashtra,18.4088,76.5604,31.6,47,0.0,937.0,9.05,31.7,94,34.2,31.4,9.3,365.0,108.0,4.6,0,5,7,1,2026-05-19T00:23:55.174127+05:30
Nanded,Maharashtra,19.1383,77.3091,34.4,37,0.0,964.7,9.0,30.6,75,36.1,32.5,10.3,356.0,100.0,5.9,0,5,7,1,2026-05-19T00:23:55.174136+05:30
Gulbarga,Karnataka,17.3297,76.8343,31.0,61,0.0,955.6,9.05,27.4,81,37.0,32.7,27.1,261.0,70.0,8.2,3,5,7,1,2026-05-19T00:23:55.174144+05:30
Bidar,Karnataka,17.9104,77.5199,30.6,51,0.0,933.0,9.1,32.8,77,35.7,32.2,20.1,300.0,76.0,5.7,0,5,7,1,2026-05-19T00:23:55.174152+05:30
Hospet,Karnataka,15.2689,76.3909,26.0,88,0.0,953.9,8.45,39.2,88,16.5,14.2,11.1,208.0,65.0,2.8,7,5,7,1,2026-05-19T00:23:55.174160+05:30
Tirupur,Tamil Nadu,11.1085,77.3411,25.4,81,0.0,974.5,8.25,51.1,43,9.8,9.2,14.1,180.0,48.0,4.6,7,5,7,1,2026-05-19T00:23:55.174168+05:30
Alappuzha,Kerala,9.4981,76.3388,25.0,100,0.0,1009.2,7.3,39.2,32,10.6,8.3,7.0,129.0,57.0,1.6,7,0,4,1,2026-05-19T00:23:55.174174+05:30
Munnar,Kerala,10.0889,77.0595,17.5,100,0.0,856.7,5.25,26.6,27,4.7,4.6,8.4,142.0,36.0,1.5,3,10,3,1,2026-05-19T00:23:55.174182+05:30
Silchar,Assam,24.8333,92.7789,23.5,100,0.7,1003.2,6.05,22.0,83,43.0,30.0,9.6,269.0,71.0,5.0,6,5,4,1,2026-05-19T00:23:55.174188+05:30
Dibrugarh,Assam,27.4728,94.912,21.6,97,0.0,994.2,7.85,26.6,87,61.0,53.3,35.9,351.0,4.0,2.8,3,5,7,1,2026-05-19T00:23:55.174195+05:30
