city,state,latitude,longitude,temp,humidity,rain,pressure,uv_index,wind_gusts,aqi,pm10,pm2_5,no2,co,o3,so2,mosquito_risk,arthritis_risk,migraine_risk,frizz_risk,updated_at
Delhi,Delhi,28.6139,77.209,34.4,49,0.0,978.3,7.5,33.5,699,609.1,144.8,33.3,343.0,101.0,27.8,0,5,7,1,2026-07-17T09:38:30.833973+05:30
Mumbai,Maharashtra,19.076,72.8777,26.8,83,0.1,1008.4,6.8,40.0,70,29.9,15.3,8.7,300.0,55.0,8.3,10,0,4,1,2026-07-17T09:38:30.834011+05:30
Bangalore,Karnataka,12.9716,77.5946,24.3,70,0.0,913.7,3.25,47.5,61,10.7,6.1,8.4,330.0,40.0,3.8,3,5,3,1,2026-07-17T09:38:30.834024+05:30
Hyderabad,Telangana,17.385,78.4867,26.7,71,0.0,953.3,3.95,38.2,69,16.1,11.4,12.1,238.0,31.0,6.2,7,5,3,1,2026-07-17T09:38:30.834031+05:30
Chennai,Tamil Nadu,13.0827,80.2707,32.9,46,0.0,1007.5,8.05,36.0,79,29.1,21.9,12.8,312.0,80.0,12.4,0,5,4,1,2026-07-17T09:38:30.834037+05:30
Kolkata,West Bengal,22.5726,88.3639,29.9,80,0.0,1000.0,7.2,37.4,59,16.5,13.7,4.4,474.0,118.0,10.0,7,5,4,1,2026-07-17T09:38:30.834043+05:30
Pune,Maharashtra,18.5204,73.8567,26.4,72,0.0,948.0,8.2,46.4,45,9.1,5.3,4.2,159.0,48.0,4.8,7,5,7,1,2026-07-17T09:38:30.834048+05:30
Ahmedabad,Gujarat,23.0225,72.5714,30.8,67,0.0,1000.3,7.9,38.2,73,38.8,17.8,5.3,162.0,51.0,6.6,3,5,4,1,2026-07-17T09:38:30.834053+05:30
Jaipur,Rajasthan,26.9124,75.7873,32.4,50,0.0,957.3,7.65,38.2,304,609.1,96.6,4.8,162.0,77.0,4.5,0,5,7,1,2026-07-17T09:38:30.834059+05:30
Lucknow,Uttar Pradesh,26.8467,80.9462,31.0,77,0.0,989.4,6.15,25.2,158,86.8,46.1,8.3,342.0,112.0,10.2,3,5,7,1,2026-07-17T09:38:30.834067+05:30
Kanpur,Uttar Pradesh,26.4499,80.3319,31.7,70,0.0,987.5,6.8,26.6,171,150.4,65.2,11.6,224.0,110.0,10.5,3,5,7,1,2026-07-17T09:38:30.834072+05:30
Chandigarh,Chandigarh,30.7333,76.7794,32.4,62,0.0,964.3,6.25,31.7,153,64.5,49.8,6.5,685.0,194.0,19.2,3,5,7,1,2026-07-17T09:38:30.834078+05:30
Srinagar,Jammu and Kashmir,34.0837,74.7973,26.9,53,0.0,841.2,9.05,22.0,100,43.8,32.5,5.4,506.0,145.0,5.3,4,5,7,1,2026-07-17T09:38:30.834083+05:30
Jammu,Jammu and Kashmir,32.7266,74.857,29.9,74,0.0,968.2,8.5,27.0,150,85.7,56.3,6.4,359.0,174.0,8.3,7,5,7,1,2026-07-17T09:38:30.834087+05:30
Amritsar,Punjab,31.634,74.8723,32.3,70,0.0,975.9,7.1,20.9,170,122.9,73.1,12.6,507.0,140.0,8.9,3,5,7,1,2026-07-17T09:38:30.834092+05:30
Ludhiana,Punjab,30.901,75.8573,33.8,56,0.0,974.0,7.95,30.6,179,131.3,85.0,17.9,615.0,160.0,14.5,0,5,7,1,2026-07-17T09:38:30.834099+05:30
Jalandhar,Punjab,31.326,75.5762,32.9,65,0.0,975.1,7.55,23.8,186,96.6,81.0,15.7,496.0,172.0,9.9,3,5,7,1,2026-07-17T09:38:30.834105+05:30
Dehradun,Uttarakhand,30.6284,78.0322,23.3,76,0.0,830.1,7.2,29.2,89,31.7,24.5,1.5,286.0,148.0,5.4,3,5,7,1,2026-07-17T09:38:30.834110+05:30
Shimla,Himachal Pradesh,31.1048,77.1734,21.7,57,0.0,785.6,7.0,39.2,105,41.1,26.9,0.3,285.0,154.0,4.5,0,5,7,0,2026-07-17T09:38:30.834115+05:30
Manali,Himachal Pradesh,32.2396,77.1887,24.6,69,0.0,819.3,5.25,33.1,50,12.9,6.2,8.0,220.0,77.0,0.6,3,5,3,1,2026-07-17T09:38:30.834121+05:30
Gurgaon,Haryana,28.4595,77.0266,34.0,49,0.0,977.0,5.75,38.2,509,925.7,178.8,19.3,251.0,82.0,15.8,0,5,3,1,2026-07-17T09:38:30.834126+05:30
Noida,Uttar Pradesh,28.5355,77.391,34.4,52,0.0,979.6,7.65,25.2,509,925.7,178.8,19.3,391.0,82.0,15.8,0,5,7,1,2026-07-17T09:38:30.834131+05:30
Ghaziabad,Uttar Pradesh,28.6692,77.4538,34.4,51,0.0,977.9,5.65,28.8,560,577.4,163.4,34.0,306.0,151.0,38.3,0,5,3,1,2026-07-17T09:38:30.834135+05:30
Faridabad,Haryana,28.4089,77.3178,34.4,49,0.0,979.1,7.7,32.8,509,925.7,178.8,19.3,282.0,82.0,15.8,0,5,7,1,2026-07-17T09:38:30.834140+05:30
Meerut,Uttar Pradesh,28.9845,77.7064,33.1,68,0.0,976.7,7.0,34.6,560,577.4,163.4,34.0,613.0,151.0,38.3,3,5,7,1,2026-07-17T09:38:30.834145+05:30
Agra,Uttar Pradesh,27.1767,78.0081,33.8,52,0.0,983.4,6.95,34.6,147,188.1,58.7,8.4,213.0,93.0,5.8,0,5,7,1,2026-07-17T09:38:30.834149+05:30
Varanasi,Uttar Pradesh,25.3176,82.9739,31.6,73,0.0,993.2,5.45,22.7,162,28.8,22.5,7.7,298.0,114.0,11.6,3,5,3,1,2026-07-17T09:38:30.834154+05:30
Prayagraj,Uttar Pradesh,25.4358,81.8463,31.6,77,0.0,991.9,7.6,25.9,161,71.2,43.5,7.5,252.0,124.0,8.6,3,5,7,1,2026-07-17T09:38:30.834160+05:30
Gorakhpur,Uttar Pradesh,26.7606,83.3732,30.2,81,0.0,993.6,6.7,24.1,83,26.1,25.0,7.0,397.0,101.0,6.1,3,5,7,1,2026-07-17T09:38:30.834165+05:30
Bareilly,Uttar Pradesh,28.367,79.4304,31.0,77,0.0,982.5,7.6,27.4,168,86.4,51.5,8.2,329.0,124.0,15.0,3,5,7,1,2026-07-17T09:38:30.834172+05:30
Aligarh,Uttar Pradesh,27.8974,78.088,32.8,61,0.0,980.9,7.8,26.3,239,609.1,148.1,11.2,240.0,95.0,10.8,3,5,7,1,2026-07-17T09:38:30.834177+05:30
Moradabad,Uttar Pradesh,28.8386,78.7733,31.5,75,0.0,979.4,7.4,26.6,186,79.6,59.8,5.6,359.0,143.0,13.0,3,5,7,1,2026-07-17T09:38:30.834181+05:30
Saharanpur,Uttar Pradesh,29.9637,77.546,31.9,73,0.0,971.1,6.55,33.8,168,114.6,67.8,6.3,674.0,174.0,16.8,3,5,7,1,2026-07-17T09:38:30.834186+05:30
Jhansi,Uttar Pradesh,25.4484,78.5685,32.6,57,0.0,974.7,7.2,32.4,87,53.7,29.8,5.2,175.0,77.0,6.5,0,5,7,1,2026-07-17T09:38:34.191645+05:30
Surat,Gujarat,21.1702,72.8311,28.1,85,0.1,1005.8,7.7,45.4,77,32.4,22.0,18.7,517.0,31.0,54.4,10,5,4,1,2026-07-17T09:38:34.191677+05:30
Vadodara,Gujarat,22.3072,73.1812,29.9,74,0.1,1002.8,6.2,40.7,71,31.9,16.4,6.8,174.0,48.0,9.1,10,5,4,1,2026-07-17T09:38:34.191685+05:30
Rajkot,Gujarat,22.3039,70.8022,29.3,73,0.0,992.4,7.25,43.2,65,31.4,14.3,2.8,109.0,53.0,4.2,7,5,7,1,2026-07-17T09:38:34.191692+05:30
Thane,Maharashtra,19.2183,72.9781,27.5,84,0.1,1007.8,7.3,34.9,70,29.9,15.3,8.7,269.0,55.0,8.3,10,5,4,1,2026-07-17T09:38:34.191698+05:30
Nagpur,Maharashtra,21.1458,79.0882,30.8,58,0.0,971.7,2.05,40.3,89,26.6,20.5,13.0,178.0,58.0,14.6,0,5,3,1,2026-07-17T09:38:34.191705+05:30
Nashik,Maharashtra,19.9975,73.7898,25.4,80,0.1,945.0,7.1,46.1,54,10.7,5.5,6.6,142.0,41.0,7.6,10,5,7,1,2026-07-17T09:38:34.191711+05:30
Aurangabad,Maharashtra,19.8762,75.3433,26.9,70,0.0,943.9,8.0,45.7,60,18.6,9.9,4.7,141.0,52.0,10.1,7,5,7,1,2026-07-17T09:38:34.191716+05:30
Solapur,Maharashtra,17.6599,75.9064,27.6,66,0.0,957.9,7.35,52.6,55,10.2,5.7,2.8,122.0,50.0,2.5,7,5,7,1,2026-07-17T09:38:34.191722+05:30
Kolhapur,Maharashtra,16.705,74.2433,24.2,83,0.0,949.0,8.55,50.4,45,6.8,4.4,3.4,155.0,48.0,2.1,3,5,7,1,2026-07-17T09:38:34.191728+05:30
Goa,Goa,15.2993,74.124,25.1,96,0.0,1000.6,7.75,32.0,64,29.7,13.6,1.7,169.0,54.0,1.1,7,5,4,1,2026-07-17T09:38:34.191734+05:30
Jodhpur,Rajasthan,26.2389,73.0243,32.0,55,0.0,980.4,8.4,41.4,132,231.0,56.8,2.5,115.0,61.0,3.6,0,5,7,1,2026-07-17T09:38:34.191741+05:30
Udaipur,Rajasthan,24.5854,73.7125,28.2,66,0.0,944.8,8.25,37.8,82,48.1,21.2,2.2,110.0,61.0,3.7,7,5,7,1,2026-07-17T09:38:34.191746+05:30
Kota,Rajasthan,25.2138,75.8648,32.7,53,0.0,976.3,8.25,32.8,89,48.3,26.5,6.0,166.0,75.0,10.9,0,5,7,1,2026-07-17T09:38:34.191753+05:30
Bikaner,Rajasthan,28.0229,73.3119,34.3,44,0.0,978.2,8.4,38.5,139,177.0,58.4,1.4,114.0,62.0,3.7,0,5,7,1,2026-07-17T09:38:34.191759+05:30
Ajmer,Rajasthan,26.4499,74.6399,29.8,61,0.0,952.5,8.3,43.9,87,48.5,23.2,3.2,135.0,75.0,4.0,7,5,7,1,2026-07-17T09:38:34.191765+05:30
Gwalior,Madhya Pradesh,26.2183,78.1828,31.0,64,0.0,979.5,6.8,34.6,96,65.4,29.7,4.7,171.0,83.0,4.0,3,5,7,1,2026-07-17T09:38:34.191770+05:30
Indore,Madhya Pradesh,22.7196,75.8577,28.6,64,0.0,947.1,8.55,38.9,76,24.4,13.9,5.8,217.0,57.0,9.4,7,5,7,1,2026-07-17T09:38:34.191776+05:30
Bhopal,Madhya Pradesh,23.2599,77.4126,27.5,72,0.0,952.0,7.3,32.8,84,37.6,22.7,4.5,195.0,80.0,9.0,7,5,7,1,2026-07-17T09:38:34.191782+05:30
Jabalpur,Madhya Pradesh,23.1815,79.9864,26.3,90,0.1,959.5,7.2,37.8,84,40.6,27.6,7.1,276.0,68.0,4.6,10,5,7,1,2026-07-17T09:38:34.191788+05:30
Ujjain,Madhya Pradesh,23.1765,75.7885,28.2,68,0.0,952.6,8.45,37.1,77,29.7,16.1,4.4,176.0,60.0,9.0,7,5,7,1,2026-07-17T09:38:34.191794+05:30
Visakhapatnam,Andhra Pradesh,17.6868,83.2185,31.0,65,0.0,1001.2,7.45,53.6,93,36.8,23.0,14.2,433.0,82.0,31.8,3,5,4,1,2026-07-17T09:38:34.191799+05:30
Vijayawada,Andhra Pradesh,16.5062,80.648,31.9,57,0.0,1001.8,3.05,41.8,81,52.7,30.3,9.5,194.0,67.0,6.9,0,5,0,1,2026-07-17T09:38:34.191806+05:30
Guntur,Andhra Pradesh,16.3067,80.4365,31.5,57,0.0,1003.3,5.95,43.6,78,41.2,25.8,10.4,206.0,62.0,7.0,0,5,0,1,2026-07-17T09:38:34.191811+05:30
Nellore,Andhra Pradesh,14.4426,79.9865,29.8,69,0.0,1005.9,8.45,45.0,69,18.1,9.3,4.3,137.0,57.0,5.3,7,5,4,1,2026-07-17T09:38:34.191817+05:30
Kurnool,Andhra Pradesh,15.8281,78.0373,28.8,65,0.0,977.8,1.5,44.6,63,15.4,8.1,2.9,127.0,54.0,3.7,7,5,3,1,2026-07-17T09:38:34.191823+05:30
Kakinada,Andhra Pradesh,16.9891,82.2475,31.2,60,0.0,1005.8,8.0,49.0,76,54.5,27.5,5.2,227.0,92.0,7.1,0,5,4,1,2026-07-17T09:38:34.191830+05:30
Tirupati,Andhra Pradesh,13.6288,79.4192,31.7,51,0.0,991.4,8.2,42.8,81,19.1,10.9,3.1,142.0,69.0,2.1,0,5,7,1,2026-07-17T09:38:34.191836+05:30
Warangal,Telangana,17.9689,79.5941,28.7,68,0.0,978.1,8.0,34.9,84,43.4,25.6,10.2,251.0,47.0,5.3,7,5,7,1,2026-07-17T09:38:34.191842+05:30
Nizamabad,Telangana,18.6725,78.0941,27.3,75,0.0,964.7,5.6,43.2,75,27.0,17.0,4.2,143.0,68.0,7.7,7,5,3,1,2026-07-17T09:38:34.191847+05:30
Mysore,Karnataka,12.2958,76.6396,21.9,94,0.1,930.4,7.4,48.2,52,8.1,4.2,3.7,127.0,50.0,1.9,6,5,7,1,2026-07-17T09:38:34.191853+05:30
Mangalore,Karnataka,12.9141,74.856,24.2,96,0.1,1010.3,0.9,27.0,56,22.0,9.9,4.5,168.0,50.0,2.9,6,0,0,1,2026-07-17T09:38:34.191859+05:30
Hubli-Dharwad,Karnataka,15.3647,75.124,23.5,85,0.1,942.4,8.05,53.6,40,5.0,2.8,2.8,115.0,49.0,1.1,6,5,7,1,2026-07-17T09:38:34.191865+05:30
Belgaum,Karnataka,15.8497,74.4977,23.2,83,0.0,927.0,8.2,54.4,40,5.9,3.2,3.6,133.0,45.0,1.8,3,5,7,1,2026-07-17T09:38:37.556516+05:30
Coimbatore,Tamil Nadu,11.0168,76.9558,24.5,80,0.0,963.9,8.9,45.4,54,11.6,6.4,2.5,183.0,58.0,2.5,3,5,7,1,2026-07-17T09:38:37.556547+05:30
Madurai,Tamil Nadu,9.9252,78.1198,32.8,45,0.0,994.5,8.45,42.5,76,26.7,15.8,7.7,154.0,85.0,6.3,0,5,7,1,2026-07-17T09:38:37.556576+05:30
Trichy,Tamil Nadu,10.7905,78.7047,31.9,52,0.0,1001.3,8.8,59.4,64,15.5,8.3,3.0,128.0,56.0,3.2,0,5,4,1,2026-07-17T09:38:37.556583+05:30
Salem,Tamil Nadu,11.6643,78.146,26.2,76,0.0,979.5,8.85,49.0,73,27.8,17.5,11.7,153.0,60.0,12.6,7,5,7,1,2026-07-17T09:38:37.556590+05:30
Tirunelveli,Tamil Nadu,8.7139,77.7567,33.0,46,0.0,1004.8,8.6,46.1,56,8.8,4.8,2.2,140.0,58.0,1.6,0,5,4,1,2026-07-17T09:38:37.556597+05:30
Vellore,Tamil Nadu,12.9165,79.1325,30.9,53,0.0,985.2,8.0,50.8,79,14.4,8.8,4.0,160.0,66.0,4.0,0,5,7,1,2026-07-17T09:38:37.556603+05:30
Erode,Tamil Nadu,11.341,77.7172,29.1,59,0.0,991.2,8.85,40.3,62,20.1,11.3,4.4,186.0,64.0,3.3,4,5,7,1,2026-07-17T09:38:37.556609+05:30
Kochi,Kerala,9.9312,76.2673,27.3,82,0.0,1012.4,4.6,40.0,64,21.9,12.3,6.1,196.0,53.0,4.7,7,0,0,1,2026-07-17T09:38:37.556616+05:30
Thiruvananthapuram,Kerala,8.5241,76.9366,28.0,75,0.0,1011.2,8.45,46.1,63,21.9,11.5,4.1,149.0,56.0,2.3,7,0,4,1,2026-07-17T09:38:37.556623+05:30
Kozhikode,Kerala,11.2588,75.7804,25.5,90,0.1,1011.7,6.65,29.9,57,16.4,8.1,1.9,185.0,56.0,2.0,10,0,4,1,2026-07-17T09:38:37.556628+05:30
Thrissur,Kerala,10.5276,76.2144,27.0,82,0.0,1010.8,7.45,36.0,60,16.9,10.5,4.3,206.0,52.0,3.0,7,0,4,1,2026-07-17T09:38:37.556635+05:30
Kannur,Kerala,11.8745,75.3704,24.3,94,0.1,1011.0,1.9,31.3,57,16.1,7.4,3.5,184.0,56.0,2.0,6,0,0,1,2026-07-17T09:38:37.556641+05:30
Patna,Bihar,25.5941,85.1376,31.7,74,0.0,995.8,8.3,28.8,97,28.2,26.3,6.5,307.0,117.0,11.2,3,5,7,1,2026-07-17T09:38:37.556647+05:30
Gaya,Bihar,24.7914,85.0002,31.2,76,0.0,989.2,7.35,23.0,98,22.6,20.9,4.5,297.0,115.0,11.6,3,5,7,1,2026-07-17T09:38:37.556652+05:30
Muzaffarpur,Bihar,26.1209,85.3647,31.7,73,0.0,996.0,7.0,31.7,95,26.5,24.4,5.2,306.0,118.0,8.0,3,5,7,1,2026-07-17T09:38:37.556658+05:30
Bhagalpur,Bihar,25.2425,87.0117,30.9,73,0.0,996.3,7.5,28.4,73,28.4,20.7,5.5,248.0,104.0,11.9,3,5,7,1,2026-07-17T09:38:37.556663+05:30
Ranchi,Jharkhand,23.3441,85.3096,27.9,74,0.1,933.3,7.65,28.4,72,9.1,8.4,6.2,296.0,96.0,14.2,10,5,7,1,2026-07-17T09:38:37.556669+05:30
Jamshedpur,Jharkhand,22.8046,86.2029,30.4,74,0.1,985.0,8.45,24.8,85,19.6,19.2,19.0,264.0,79.0,49.5,6,5,7,1,2026-07-17T09:38:37.556674+05:30
Dhanbad,Jharkhand,23.7957,86.4304,26.4,96,0.3,974.7,7.25,25.6,93,20.8,20.2,23.9,239.0,81.0,62.8,10,5,7,1,2026-07-17T09:38:37.556679+05:30
Bokaro,Jharkhand,23.6693,86.1511,29.1,80,0.1,978.5,8.15,30.6,93,18.0,17.8,19.7,246.0,83.0,57.1,10,5,7,1,2026-07-17T09:38:37.556685+05:30
Bhubaneswar,Odisha,20.2961,85.8245,28.1,84,0.1,998.2,7.75,34.6,77,26.6,16.6,5.2,229.0,96.0,6.1,10,5,7,1,2026-07-17T09:38:37.556690+05:30
Cuttack,Odisha,20.4625,85.8828,28.1,83,0.0,1000.0,6.3,34.9,77,26.6,16.6,5.2,237.0,96.0,6.1,7,5,4,1,2026-07-17T09:38:37.556696+05:30
Rourkela,Odisha,22.2604,84.8536,28.6,78,0.0,980.4,7.9,30.2,76,19.5,16.8,5.0,330.0,97.0,10.7,7,5,7,1,2026-07-17T09:38:37.556701+05:30
Raipur,Chhattisgarh,21.2514,81.6296,25.0,95,0.1,972.3,4.6,37.8,111,40.0,32.7,33.5,446.0,41.0,52.0,10,5,3,1,2026-07-17T09:38:37.556706+05:30
Bhilai,Chhattisgarh,21.1938,81.3509,24.7,95,0.2,972.8,2.7,39.2,104,39.5,32.0,26.9,774.0,43.0,41.8,6,5,3,1,2026-07-17T09:38:37.556711+05:30
Guwahati,Assam,26.1158,91.7086,29.3,83,0.0,998.0,7.35,21.6,57,20.3,13.4,1.8,279.0,101.0,2.9,7,5,7,1,2026-07-17T09:38:37.556717+05:30
Agartala,Tripura,23.8315,91.2868,28.7,82,0.0,1003.4,7.85,51.1,61,11.2,7.8,2.9,165.0,83.0,2.3,7,5,4,1,2026-07-17T09:38:37.556722+05:30
Shillong,Meghalaya,25.5788,91.8933,22.8,79,0.0,856.4,7.9,41.0,41,5.8,3.9,2.5,179.0,89.0,2.7,3,5,7,1,2026-07-17T09:38:37.556727+05:30
Imphal,Manipur,24.817,93.9368,25.9,79,0.2,922.1,3.45,34.9,57,25.3,13.6,1.4,188.0,96.0,3.0,10,5,3,1,2026-07-17T09:38:37.556733+05:30
Aizawl,Mizoram,23.7271,92.7176,21.7,89,0.1,891.5,7.85,47.9,55,20.5,10.5,0.9,127.0,81.0,1.7,6,5,7,1,2026-07-17T09:38:37.556738+05:30
Kohima,Nagaland,25.6701,94.1077,23.3,87,0.0,854.8,6.15,24.5,42,28.5,13.9,0.9,166.0,93.0,2.4,3,5,7,1,2026-07-17T09:38:37.556744+05:30
Gangtok,Sikkim,27.3314,88.6138,22.2,85,0.1,837.5,7.95,31.0,43,6.5,5.3,2.0,216.0,96.0,1.6,6,5,7,1,2026-07-17T09:38:37.556749+05:30
Siliguri,West Bengal,26.7271,88.3953,30.2,76,0.0,989.7,8.2,27.4,68,17.3,12.2,3.1,233.0,106.0,3.5,3,5,7,1,2026-07-17T09:38:40.933968+05:30
Durgapur,West Bengal,23.5204,87.3119,29.8,77,0.0,989.2,8.45,28.4,79,21.9,20.0,16.0,297.0,91.0,32.7,7,5,7,1,2026-07-17T09:38:40.934000+05:30
Asansol,West Bengal,23.6739,86.9524,30.0,74,0.1,987.9,8.35,25.6,77,17.8,16.8,19.6,267.0,88.0,42.3,10,5,7,1,2026-07-17T09:38:40.934009+05:30
Pondicherry,Puducherry,11.9139,79.8145,32.4,51,0.0,1009.1,8.8,38.9,76,26.4,18.2,8.7,194.0,67.0,10.6,0,0,4,1,2026-07-17T09:38:40.934016+05:30
Port Blair,Andaman and Nicobar Islands,11.6234,92.7265,27.7,81,0.1,1010.0,6.4,43.2,46,13.4,6.3,0.4,91.0,48.0,0.4,10,0,4,1,2026-07-17T09:38:40.934022+05:30
Haridwar,Uttarakhand,29.9457,78.1642,30.9,75,0.0,969.6,6.75,28.1,158,161.6,75.2,4.0,351.0,162.0,12.7,3,5,7,1,2026-07-17T09:38:40.934029+05:30
Rishikesh,Uttarakhand,30.0869,78.2676,30.4,74,0.0,962.5,6.7,26.6,131,91.7,49.2,2.2,343.0,161.0,11.8,3,5,7,1,2026-07-17T09:38:40.934035+05:30
Nainital,Uttarakhand,29.3919,79.4542,21.7,70,0.0,805.8,6.8,28.1,131,93.6,44.4,1.9,273.0,154.0,7.8,3,5,7,0,2026-07-17T09:38:40.934041+05:30
Mussoorie,Uttarakhand,30.4599,78.0664,22.6,67,0.0,803.5,6.85,40.7,129,46.6,40.4,2.0,287.0,178.0,12.5,3,5,7,1,2026-07-17T09:38:40.934048+05:30
Dharamshala,Himachal Pradesh,32.219,76.3234,23.5,87,0.0,867.6,8.35,25.2,84,34.3,25.0,0.8,363.0,145.0,2.4,3,5,7,1,2026-07-17T09:38:40.934053+05:30
Dalhousie,Himachal Pradesh,32.5387,75.971,23.0,68,0.0,805.2,7.45,24.5,123,56.7,39.7,2.5,351.0,167.0,4.1,3,5,7,1,2026-07-17T09:38:40.934059+05:30
Patiala,Punjab,30.3398,76.3869,33.3,61,0.0,973.5,6.95,31.3,193,178.8,91.7,12.0,559.0,164.0,14.4,3,5,7,1,2026-07-17T09:38:40.934066+05:30
Bhatinda,Punjab,30.211,74.9455,36.0,43,0.0,979.0,7.4,29.9,178,211.9,84.3,11.7,272.0,121.0,6.4,0,5,10,1,2026-07-17T09:38:40.934072+05:30
Rohtak,Haryana,28.8955,76.6066,33.9,55,0.0,977.0,6.55,33.1,859,1356.0,196.5,8.8,206.0,90.0,3.9,0,5,7,1,2026-07-17T09:38:40.934077+05:30
Panipat,Haryana,29.3909,76.9635,34.0,60,0.0,975.5,6.3,27.7,1232,1709.9,245.9,14.1,467.0,107.0,10.7,0,5,7,1,2026-07-17T09:38:40.934082+05:30
Mathura,Uttar Pradesh,27.4924,77.6737,32.8,58,0.0,982.3,7.05,30.2,590,1248.0,183.9,8.7,228.0,76.0,3.9,0,5,7,1,2026-07-17T09:38:40.934088+05:30
Vrindavan,Uttar Pradesh,27.5823,77.7027,32.6,59,0.0,982.7,7.25,28.8,590,1248.0,183.9,8.7,211.0,76.0,3.9,0,5,7,1,2026-07-17T09:38:40.934093+05:30
Ayodhya,Uttar Pradesh,26.7922,82.1998,30.1,81,0.0,991.6,8.25,22.7,135,17.2,17.1,5.6,341.0,111.0,5.0,3,5,7,1,2026-07-17T09:38:40.934099+05:30
Ratlam,Madhya Pradesh,23.3315,75.0367,27.8,73,0.0,953.4,8.45,37.1,76,31.7,16.7,4.0,129.0,60.0,8.2,7,5,7,1,2026-07-17T09:38:40.934105+05:30
Sagar,Madhya Pradesh,23.8388,78.7378,28.9,68,0.0,947.9,8.0,35.6,85,45.9,27.5,4.1,189.0,86.0,6.3,7,5,7,1,2026-07-17T09:38:40.934110+05:30
Satna,Madhya Pradesh,24.6005,80.8322,30.8,68,0.0,968.0,8.7,34.9,136,90.6,36.4,5.7,213.0,79.0,5.4,3,5,7,1,2026-07-17T09:38:40.934116+05:30
Akola,Maharashtra,20.7002,77.0082,30.4,61,0.0,974.5,8.5,47.5,68,34.9,16.0,4.0,125.0,52.0,8.2,3,5,7,1,2026-07-17T09:38:40.934122+05:30
Amravati,Maharashtra,20.9374,77.7796,29.5,63,0.0,966.4,8.55,42.8,69,33.2,16.1,4.7,122.0,49.0,9.4,7,5,7,1,2026-07-17T09:38:40.934128+05:30
Latur,Maharashtra,18.4088,76.5604,27.1,70,0.0,940.1,7.55,42.8,62,17.6,8.5,2.8,116.0,48.0,3.3,7,5,7,1,2026-07-17T09:38:40.934133+05:30
Nanded,Maharashtra,19.1383,77.3091,28.2,70,0.0,968.5,6.9,32.0,72,26.9,15.2,3.6,135.0,65.0,6.8,7,5,7,1,2026-07-17T09:38:40.934139+05:30
Gulbarga,Karnataka,17.3297,76.8343,28.3,66,0.0,959.5,1.4,47.9,57,12.0,6.8,4.0,129.0,48.0,3.0,7,5,3,1,2026-07-17T09:38:40.934144+05:30
Bidar,Karnataka,17.9104,77.5199,26.9,73,0.0,935.9,2.15,37.4,72,18.6,10.8,6.4,144.0,40.0,3.3,7,5,3,1,2026-07-17T09:38:40.934149+05:30
Hospet,Karnataka,15.2689,76.3909,26.1,72,0.0,957.5,5.5,50.4,47,7.2,3.7,2.0,113.0,52.0,1.9,7,5,3,1,2026-07-17T09:38:40.934154+05:30
Tirupur,Tamil Nadu,11.1085,77.3411,28.9,60,0.0,977.5,8.85,46.4,64,20.7,11.7,4.3,169.0,67.0,3.8,4,5,7,1,2026-07-17T09:38:40.934159+05:30
Alappuzha,Kerala,9.4981,76.3388,27.0,81,0.0,1012.5,7.65,41.0,64,26.4,13.6,4.8,132.0,58.0,3.6,7,0,4,1,2026-07-17T09:38:40.934164+05:30
Munnar,Kerala,10.0889,77.0595,17.3,94,0.1,858.9,7.95,40.7,51,10.4,4.7,2.0,100.0,53.0,1.5,6,10,7,1,2026-07-17T09:38:40.934170+05:30
Silchar,Assam,24.8333,92.7789,29.3,79,0.1,1003.2,8.35,33.8,68,33.5,18.2,1.7,167.0,93.0,4.1,10,5,4,1,2026-07-17T09:38:40.934175+05:30
Dibrugarh,Assam,27.4728,94.912,29.7,79,0.0,991.7,3.65,32.0,50,16.8,11.3,1.6,180.0,96.0,1.9,7,5,3,1,2026-07-17T09:38:40.934181+05:30
