city,state,latitude,longitude,temp,humidity,rain,pressure,uv_index,wind_gusts,aqi,pm10,pm2_5,mosquito_risk,arthritis_risk,migraine_risk,frizz_risk,updated_at
Delhi,Delhi,28.6139,77.209,23.6,70,0.0,982.3,6.6,30.6,132,119.0,56.6,3,5,7,1,2026-04-03T05:08:36.022379+05:30
Mumbai,Maharashtra,19.076,72.8777,27.3,76,0.0,1009.2,7.2,23.8,70,44.6,25.7,7,0,4,1,2026-04-03T05:08:36.022415+05:30
Bangalore,Karnataka,12.9716,77.5946,21.1,78,0.0,911.9,9.6,19.8,56,30.3,29.6,3,5,7,1,2026-04-03T05:08:36.022430+05:30
Hyderabad,Telangana,17.385,78.4867,24.7,70,0.0,954.2,8.9,23.4,68,23.4,20.2,3,5,7,1,2026-04-03T05:08:36.022439+05:30
Chennai,Tamil Nadu,13.0827,80.2707,26.5,88,0.0,1008.4,9.3,34.9,44,14.0,10.9,7,0,4,1,2026-04-03T05:08:36.022448+05:30
Kolkata,West Bengal,22.5726,88.3639,25.9,94,0.0,1006.0,8.65,19.8,69,13.9,12.2,7,5,4,1,2026-04-03T05:08:36.022458+05:30
Pune,Maharashtra,18.5204,73.8567,21.8,100,0.0,948.6,8.35,37.4,124,67.1,62.9,3,5,7,1,2026-04-03T05:08:36.022469+05:30
Ahmedabad,Gujarat,23.0225,72.5714,22.7,77,0.0,1003.9,7.6,40.7,57,34.8,17.8,3,5,4,1,2026-04-03T05:08:36.022477+05:30
Jaipur,Rajasthan,26.9124,75.7873,22.7,58,0.0,960.2,7.5,52.6,119,343.7,55.5,0,5,7,0,2026-04-03T05:08:36.022484+05:30
Lucknow,Uttar Pradesh,26.8467,80.9462,24.8,60,0.0,993.2,6.55,28.1,82,65.4,27.6,0,5,7,1,2026-04-03T05:08:36.022492+05:30
Kanpur,Uttar Pradesh,26.4499,80.3319,25.6,66,0.0,991.4,6.95,25.2,97,122.5,43.2,7,5,7,1,2026-04-03T05:08:36.022499+05:30
Chandigarh,Chandigarh,30.7333,76.7794,21.3,61,0.0,968.2,6.7,58.7,66,21.5,17.9,3,5,7,0,2026-04-03T05:08:36.022508+05:30
Srinagar,Jammu and Kashmir,34.0837,74.7973,10.2,77,0.0,840.4,6.15,32.8,107,52.0,43.5,3,5,7,0,2026-04-03T05:08:36.022515+05:30
Jammu,Jammu and Kashmir,32.7266,74.857,21.0,77,0.0,972.7,5.3,49.7,70,21.2,14.5,3,5,3,1,2026-04-03T05:08:36.022522+05:30
Amritsar,Punjab,31.634,74.8723,20.5,85,0.0,981.7,4.4,44.3,90,42.3,29.4,3,5,3,1,2026-04-03T05:08:36.022528+05:30
Ludhiana,Punjab,30.901,75.8573,21.3,73,0.0,978.8,3.65,41.4,111,39.6,35.7,3,5,3,1,2026-04-03T05:08:36.022534+05:30
Jalandhar,Punjab,31.326,75.5762,20.6,77,0.0,979.7,4.55,48.6,88,48.2,32.1,3,5,3,1,2026-04-03T05:08:36.022542+05:30
Dehradun,Uttarakhand,30.6284,78.0322,15.0,48,0.0,830.5,6.45,49.7,30,4.7,3.1,0,5,7,0,2026-04-03T05:08:36.022550+05:30
Shimla,Himachal Pradesh,31.1048,77.1734,13.8,59,0.0,784.4,7.05,58.3,54,14.9,10.3,0,5,7,0,2026-04-03T05:08:36.022556+05:30
Manali,Himachal Pradesh,32.2396,77.1887,16.6,41,0.0,821.3,7.1,49.7,44,3.5,2.1,0,5,7,0,2026-04-03T05:08:36.022563+05:30
Gurgaon,Haryana,28.4595,77.0266,22.2,76,0.0,980.7,6.75,32.8,243,204.0,60.3,3,5,7,1,2026-04-03T05:08:36.022569+05:30
Noida,Uttar Pradesh,28.5355,77.391,23.5,69,0.0,983.8,6.6,32.8,243,204.0,60.3,3,5,7,1,2026-04-03T05:08:36.022575+05:30
Ghaziabad,Uttar Pradesh,28.6692,77.4538,22.3,74,0.0,981.9,6.6,32.0,114,82.4,54.5,3,5,7,1,2026-04-03T05:08:36.022581+05:30
Faridabad,Haryana,28.4089,77.3178,23.3,64,0.0,983.1,6.65,35.3,243,204.0,60.3,3,5,7,1,2026-04-03T05:08:36.022587+05:30
Meerut,Uttar Pradesh,28.9845,77.7064,21.6,70,0.0,980.4,5.55,30.2,114,82.4,54.5,3,5,3,0,2026-04-03T05:08:36.022593+05:30
Agra,Uttar Pradesh,27.1767,78.0081,25.1,72,0.0,987.1,6.9,38.2,185,204.4,61.2,7,5,7,1,2026-04-03T05:08:36.022599+05:30
Varanasi,Uttar Pradesh,25.3176,82.9739,25.9,61,0.0,997.1,7.8,37.4,89,44.0,37.0,7,5,7,1,2026-04-03T05:08:36.022609+05:30
Prayagraj,Uttar Pradesh,25.4358,81.8463,26.5,64,0.0,995.7,7.15,39.2,82,68.0,44.8,7,5,7,1,2026-04-03T05:08:36.022615+05:30
Gorakhpur,Uttar Pradesh,26.7606,83.3732,22.0,66,0.0,996.6,7.35,39.2,62,33.3,17.2,3,5,7,0,2026-04-03T05:08:36.022621+05:30
Bareilly,Uttar Pradesh,28.367,79.4304,21.0,75,0.0,986.5,6.45,20.2,63,38.3,24.7,3,5,7,1,2026-04-03T05:08:36.022628+05:30
Aligarh,Uttar Pradesh,27.8974,78.088,23.1,66,0.0,985.0,6.7,36.0,115,128.5,43.9,3,5,7,1,2026-04-03T05:08:36.022634+05:30
Moradabad,Uttar Pradesh,28.8386,78.7733,22.1,60,0.0,983.3,6.8,23.8,84,57.4,43.7,0,5,7,0,2026-04-03T05:08:36.022640+05:30
Saharanpur,Uttar Pradesh,29.9637,77.546,20.9,61,0.0,975.2,6.55,40.7,88,28.7,21.8,3,5,7,0,2026-04-03T05:08:36.022645+05:30
Jhansi,Uttar Pradesh,25.4484,78.5685,26.6,44,0.0,978.2,7.9,38.9,66,17.8,16.2,4,5,7,0,2026-04-03T05:08:39.358587+05:30
Surat,Gujarat,21.1702,72.8311,27.0,80,0.0,1007.6,7.65,26.3,95,39.8,29.4,7,5,4,1,2026-04-03T05:08:39.358622+05:30
Vadodara,Gujarat,22.3072,73.1812,25.1,83,0.0,1006.1,7.85,26.6,74,36.4,30.2,7,5,4,1,2026-04-03T05:08:39.358635+05:30
Rajkot,Gujarat,22.3039,70.8022,22.4,84,0.0,996.4,7.55,48.2,63,49.6,20.3,3,5,7,1,2026-04-03T05:08:39.358645+05:30
Thane,Maharashtra,19.2183,72.9781,24.8,84,0.0,1008.8,7.15,34.9,70,44.6,25.7,3,0,4,1,2026-04-03T05:08:39.358653+05:30
Nagpur,Maharashtra,21.1458,79.0882,24.5,72,0.0,974.3,8.7,32.0,89,18.8,17.2,3,5,7,1,2026-04-03T05:08:39.358662+05:30
Nashik,Maharashtra,19.9975,73.7898,21.1,93,0.0,946.1,7.55,32.8,74,36.8,27.4,3,5,7,1,2026-04-03T05:08:39.358670+05:30
Aurangabad,Maharashtra,19.8762,75.3433,22.0,86,0.0,944.9,7.45,31.7,109,44.5,41.1,3,5,7,1,2026-04-03T05:08:39.358678+05:30
Solapur,Maharashtra,17.6599,75.9064,24.2,79,0.0,958.2,8.95,31.0,108,43.7,40.5,3,5,7,1,2026-04-03T05:08:39.358686+05:30
Kolhapur,Maharashtra,16.705,74.2433,21.6,99,0.0,948.5,8.9,35.6,137,70.1,67.8,3,5,7,1,2026-04-03T05:08:39.358694+05:30
Goa,Goa,15.2993,74.124,27.6,85,0.0,998.4,9.0,29.9,77,34.0,31.0,7,5,7,1,2026-04-03T05:08:39.358703+05:30
Jodhpur,Rajasthan,26.2389,73.0243,21.6,69,0.0,983.8,7.4,54.0,111,224.0,59.1,3,5,7,0,2026-04-03T05:08:39.358711+05:30
Udaipur,Rajasthan,24.5854,73.7125,19.9,70,0.0,947.4,8.2,56.9,39,23.1,11.5,3,5,7,0,2026-04-03T05:08:39.358720+05:30
Kota,Rajasthan,25.2138,75.8648,24.3,51,0.0,979.8,7.85,43.6,56,16.5,11.1,0,5,7,0,2026-04-03T05:08:39.358728+05:30
Bikaner,Rajasthan,28.0229,73.3119,22.9,74,0.0,982.1,6.75,48.2,65,44.8,17.5,3,5,7,1,2026-04-03T05:08:39.358761+05:30
Ajmer,Rajasthan,26.4499,74.6399,22.0,70,0.0,955.6,7.6,54.7,60,166.7,40.7,3,5,7,1,2026-04-03T05:08:39.358770+05:30
Gwalior,Madhya Pradesh,26.2183,78.1828,27.9,37,0.0,983.0,7.55,38.5,67,15.8,14.8,4,5,7,0,2026-04-03T05:08:39.358778+05:30
Indore,Madhya Pradesh,22.7196,75.8577,22.6,69,0.0,948.8,8.3,39.6,84,31.7,27.2,3,5,7,1,2026-04-03T05:08:39.358786+05:30
Bhopal,Madhya Pradesh,23.2599,77.4126,23.8,77,0.0,954.8,8.2,32.8,80,21.4,18.9,3,5,7,1,2026-04-03T05:08:39.358794+05:30
Jabalpur,Madhya Pradesh,23.1815,79.9864,26.1,59,0.0,962.6,7.9,22.0,81,25.4,22.8,4,5,7,1,2026-04-03T05:08:39.358802+05:30
Ujjain,Madhya Pradesh,23.1765,75.7885,22.0,66,0.0,954.6,8.2,34.6,74,32.4,28.7,3,5,7,0,2026-04-03T05:08:39.358809+05:30
Visakhapatnam,Andhra Pradesh,17.6868,83.2185,25.8,87,0.0,1004.7,8.8,41.8,52,17.8,15.8,7,5,4,1,2026-04-03T05:08:39.358817+05:30
Vijayawada,Andhra Pradesh,16.5062,80.648,25.2,94,0.0,1004.1,8.65,25.6,48,15.1,13.7,7,5,4,1,2026-04-03T05:08:39.358826+05:30
Guntur,Andhra Pradesh,16.3067,80.4365,25.3,94,0.0,1005.2,8.5,31.0,44,13.0,11.6,7,5,4,1,2026-04-03T05:08:39.358833+05:30
Nellore,Andhra Pradesh,14.4426,79.9865,26.1,90,0.0,1007.0,9.15,33.1,38,11.7,9.4,7,5,4,1,2026-04-03T05:08:39.358843+05:30
Kurnool,Andhra Pradesh,15.8281,78.0373,26.6,59,0.0,977.9,8.85,19.8,50,11.4,9.5,4,5,7,1,2026-04-03T05:08:39.358850+05:30
Kakinada,Andhra Pradesh,16.9891,82.2475,24.7,95,0.0,1008.8,8.85,37.8,33,13.7,11.3,3,0,4,1,2026-04-03T05:08:39.358857+05:30
Tirupati,Andhra Pradesh,13.6288,79.4192,23.7,87,0.0,993.1,9.35,27.7,51,22.9,20.7,3,5,7,1,2026-04-03T05:08:39.358863+05:30
Warangal,Telangana,17.9689,79.5941,25.1,79,0.0,980.5,8.8,16.2,69,19.7,18.7,7,5,7,1,2026-04-03T05:08:39.358869+05:30
Nizamabad,Telangana,18.6725,78.0941,24.2,83,0.0,966.6,8.8,33.8,118,47.7,43.3,3,5,7,1,2026-04-03T05:08:39.358875+05:30
Mysore,Karnataka,12.2958,76.6396,22.3,89,0.0,928.9,9.5,40.7,86,31.5,29.5,3,5,7,1,2026-04-03T05:08:39.358882+05:30
Mangalore,Karnataka,12.9141,74.856,28.3,82,0.0,1006.9,9.2,24.8,74,28.2,25.6,7,5,4,1,2026-04-03T05:08:39.358888+05:30
Hubli-Dharwad,Karnataka,15.3647,75.124,22.4,96,0.0,941.3,9.2,37.1,82,25.0,24.0,3,5,7,1,2026-04-03T05:08:39.358894+05:30
Belgaum,Karnataka,15.8497,74.4977,21.5,95,0.0,925.9,9.25,36.0,95,34.9,33.4,3,5,7,1,2026-04-03T05:08:42.707909+05:30
Coimbatore,Tamil Nadu,11.0168,76.9558,23.3,92,0.0,962.5,9.5,45.7,64,26.0,23.8,3,5,7,1,2026-04-03T05:08:42.707940+05:30
Madurai,Tamil Nadu,9.9252,78.1198,25.3,90,0.0,994.2,8.95,20.9,51,16.7,15.8,7,5,7,1,2026-04-03T05:08:42.707952+05:30
Trichy,Tamil Nadu,10.7905,78.7047,25.4,90,0.0,1001.0,9.35,22.3,54,23.3,21.0,7,5,4,1,2026-04-03T05:08:42.707962+05:30
Salem,Tamil Nadu,11.6643,78.146,25.0,79,0.0,978.4,9.3,26.6,64,18.3,17.7,7,5,7,1,2026-04-03T05:08:42.707971+05:30
Tirunelveli,Tamil Nadu,8.7139,77.7567,25.9,83,0.0,1004.3,9.35,34.2,54,24.7,22.4,7,5,4,1,2026-04-03T05:08:42.707980+05:30
Vellore,Tamil Nadu,12.9165,79.1325,20.6,84,0.0,986.0,9.4,29.2,57,34.6,32.7,3,5,7,1,2026-04-03T05:08:42.707988+05:30
Erode,Tamil Nadu,11.341,77.7172,25.7,83,0.0,990.2,9.4,29.9,42,11.9,10.7,7,5,7,1,2026-04-03T05:08:42.707997+05:30
Kochi,Kerala,9.9312,76.2673,27.6,81,0.0,1009.3,9.25,21.2,72,13.3,12.0,7,0,4,1,2026-04-03T05:08:42.708005+05:30
Thiruvananthapuram,Kerala,8.5241,76.9366,27.6,83,0.0,1008.7,9.2,17.6,59,23.6,19.0,7,0,4,1,2026-04-03T05:08:42.708013+05:30
Kozhikode,Kerala,11.2588,75.7804,27.6,84,0.0,1008.6,9.15,24.8,59,19.8,16.5,7,0,4,1,2026-04-03T05:08:42.708021+05:30
Thrissur,Kerala,10.5276,76.2144,25.6,93,0.0,1007.8,9.2,29.9,67,17.6,16.2,7,5,4,1,2026-04-03T05:08:42.708029+05:30
Kannur,Kerala,11.8745,75.3704,26.9,85,0.0,1007.6,8.75,25.9,73,29.7,27.9,7,5,4,1,2026-04-03T05:08:42.708037+05:30
Patna,Bihar,25.5941,85.1376,24.6,67,0.0,999.9,8.3,33.8,74,34.7,29.2,3,5,7,1,2026-04-03T05:08:42.708045+05:30
Gaya,Bihar,24.7914,85.0002,25.1,59,0.0,993.7,8.4,34.6,74,31.0,24.3,4,5,7,1,2026-04-03T05:08:42.708052+05:30
Muzaffarpur,Bihar,26.1209,85.3647,22.4,67,0.0,999.8,8.25,31.3,71,34.2,25.0,3,5,7,0,2026-04-03T05:08:42.708060+05:30
Bhagalpur,Bihar,25.2425,87.0117,25.0,70,0.0,1000.5,8.3,25.9,64,27.1,20.1,7,5,4,1,2026-04-03T05:08:42.708068+05:30
Ranchi,Jharkhand,23.3441,85.3096,23.1,66,0.0,938.4,8.95,31.7,65,24.0,19.9,3,5,7,1,2026-04-03T05:08:42.708076+05:30
Jamshedpur,Jharkhand,22.8046,86.2029,24.7,84,0.0,991.2,8.8,23.4,101,53.4,43.1,3,5,7,1,2026-04-03T05:08:42.708084+05:30
Dhanbad,Jharkhand,23.7957,86.4304,25.8,65,0.0,979.9,8.7,21.6,148,75.7,71.5,7,5,7,1,2026-04-03T05:08:42.708092+05:30
Bokaro,Jharkhand,23.6693,86.1511,25.5,63,0.0,984.2,8.75,24.8,144,83.1,79.4,7,5,7,1,2026-04-03T05:08:42.708100+05:30
Bhubaneswar,Odisha,20.2961,85.8245,25.0,94,0.0,1003.0,8.95,28.1,51,10.4,8.9,7,5,4,1,2026-04-03T05:08:42.708107+05:30
Cuttack,Odisha,20.4625,85.8828,24.9,93,0.0,1005.0,9.0,35.3,51,10.4,8.9,3,5,4,1,2026-04-03T05:08:42.708115+05:30
Rourkela,Odisha,22.2604,84.8536,25.4,89,0.0,985.6,8.7,23.8,118,57.7,47.0,7,5,7,1,2026-04-03T05:08:42.708122+05:30
Raipur,Chhattisgarh,21.2514,81.6296,26.9,63,0.0,975.5,8.8,29.5,145,67.5,63.1,7,5,7,1,2026-04-03T05:08:42.708131+05:30
Bhilai,Chhattisgarh,21.1938,81.3509,26.4,65,0.0,975.7,8.8,22.7,127,52.6,48.1,7,5,7,1,2026-04-03T05:08:42.708138+05:30
Guwahati,Assam,26.1158,91.7086,23.3,92,0.0,1001.9,8.25,43.6,120,51.7,47.5,3,5,4,1,2026-04-03T05:08:42.708146+05:30
Agartala,Tripura,23.8315,91.2868,25.5,94,0.0,1007.5,8.45,26.3,101,10.5,9.2,7,5,4,1,2026-04-03T05:08:42.708153+05:30
Shillong,Meghalaya,25.5788,91.8933,15.1,85,0.0,856.4,8.55,51.5,105,51.8,44.7,3,10,7,0,2026-04-03T05:08:42.708161+05:30
Imphal,Manipur,24.817,93.9368,18.6,91,0.0,924.3,8.8,62.6,119,27.2,23.3,3,10,7,1,2026-04-03T05:08:42.708170+05:30
Aizawl,Mizoram,23.7271,92.7176,18.3,94,0.0,893.3,8.7,42.1,110,61.5,45.2,3,10,7,1,2026-04-03T05:08:42.708178+05:30
Kohima,Nagaland,25.6701,94.1077,16.4,83,0.0,855.5,8.65,84.6,102,39.5,32.1,3,10,7,0,2026-04-03T05:08:42.708185+05:30
Gangtok,Sikkim,27.3314,88.6138,15.6,84,0.0,837.2,8.55,21.6,86,36.7,29.4,3,10,7,0,2026-04-03T05:08:42.708191+05:30
Siliguri,West Bengal,26.7271,88.3953,22.1,61,0.0,993.6,8.25,20.2,144,82.9,65.7,3,5,7,0,2026-04-03T05:08:46.050372+05:30
Durgapur,West Bengal,23.5204,87.3119,26.6,72,0.0,994.9,8.65,17.6,153,102.9,92.0,7,5,7,1,2026-04-03T05:08:46.050405+05:30
Asansol,West Bengal,23.6739,86.9524,26.7,66,0.0,993.4,8.7,18.0,131,59.3,53.6,7,5,7,1,2026-04-03T05:08:46.050417+05:30
Pondicherry,Puducherry,11.9139,79.8145,22.7,95,0.0,1009.9,9.2,32.8,39,13.1,10.1,3,0,4,1,2026-04-03T05:08:46.050427+05:30
Port Blair,Andaman and Nicobar Islands,11.6234,92.7265,28.7,80,0.0,1006.7,9.25,25.6,36,14.3,7.3,7,5,4,1,2026-04-03T05:08:46.050436+05:30
Haridwar,Uttarakhand,29.9457,78.1642,20.7,59,0.0,974.3,5.9,41.4,59,17.6,14.5,0,5,3,0,2026-04-03T05:08:46.050444+05:30
Rishikesh,Uttarakhand,30.0869,78.2676,21.8,48,0.0,967.5,5.65,37.1,42,12.2,9.9,0,5,3,0,2026-04-03T05:08:46.050452+05:30
Nainital,Uttarakhand,29.3919,79.4542,20.8,28,0.0,808.0,5.25,38.2,52,12.6,10.2,0,5,3,0,2026-04-03T05:08:46.050460+05:30
Mussoorie,Uttarakhand,30.4599,78.0664,18.0,42,0.0,803.9,6.25,62.3,54,14.0,11.8,0,5,7,0,2026-04-03T05:08:46.050468+05:30
Dharamshala,Himachal Pradesh,32.219,76.3234,21.1,41,0.0,868.8,5.45,48.2,34,9.0,6.3,0,5,3,0,2026-04-03T05:08:46.050477+05:30
Dalhousie,Himachal Pradesh,32.5387,75.971,17.7,35,0.0,803.2,5.95,52.9,59,14.6,10.7,0,5,3,0,2026-04-03T05:08:46.050486+05:30
Patiala,Punjab,30.3398,76.3869,21.0,72,0.0,978.2,5.85,48.6,103,163.0,35.4,3,5,3,0,2026-04-03T05:08:46.050495+05:30
Bhatinda,Punjab,30.211,74.9455,20.0,88,0.0,985.1,5.1,42.8,93,94.1,32.6,3,5,3,1,2026-04-03T05:08:46.050504+05:30
Rohtak,Haryana,28.8955,76.6066,21.1,82,0.0,981.2,5.9,40.7,150,229.1,69.6,3,5,3,1,2026-04-03T05:08:46.050512+05:30
Panipat,Haryana,29.3909,76.9635,22.2,70,0.0,979.3,6.25,39.2,149,184.4,51.8,3,5,7,1,2026-04-03T05:08:46.050520+05:30
Mathura,Uttar Pradesh,27.4924,77.6737,23.8,67,0.0,986.1,7.05,39.6,254,263.6,65.4,3,5,7,1,2026-04-03T05:08:46.050527+05:30
Vrindavan,Uttar Pradesh,27.5823,77.7027,23.8,68,0.0,986.6,6.95,40.0,254,263.6,65.4,3,5,7,1,2026-04-03T05:08:46.050533+05:30
Ayodhya,Uttar Pradesh,26.7922,82.1998,23.1,65,0.0,994.8,6.15,25.9,68,39.0,19.8,3,5,7,1,2026-04-03T05:08:46.050539+05:30
Ratlam,Madhya Pradesh,23.3315,75.0367,22.3,66,0.0,955.2,8.15,36.0,69,31.2,27.8,3,5,7,0,2026-04-03T05:08:46.050545+05:30
Sagar,Madhya Pradesh,23.8388,78.7378,26.3,56,0.0,951.3,7.55,29.5,73,22.7,19.3,4,5,7,1,2026-04-03T05:08:46.050551+05:30
Satna,Madhya Pradesh,24.6005,80.8322,28.2,48,0.0,971.8,6.85,37.4,67,27.9,21.5,4,5,7,1,2026-04-03T05:08:46.050558+05:30
Akola,Maharashtra,20.7002,77.0082,23.9,85,0.0,976.3,8.5,31.7,90,36.7,32.8,3,5,7,1,2026-04-03T05:08:46.050564+05:30
Amravati,Maharashtra,20.9374,77.7796,24.1,83,0.0,968.4,8.35,37.8,85,34.3,31.1,3,5,7,1,2026-04-03T05:08:46.050571+05:30
Latur,Maharashtra,18.4088,76.5604,22.1,89,0.0,940.6,8.55,31.0,111,45.5,40.3,3,5,7,1,2026-04-03T05:08:46.050577+05:30
Nanded,Maharashtra,19.1383,77.3091,24.1,91,0.0,970.3,8.35,23.0,110,39.9,36.6,3,5,7,1,2026-04-03T05:08:46.050583+05:30
Gulbarga,Karnataka,17.3297,76.8343,25.6,69,0.0,959.8,8.55,41.4,83,43.5,40.3,7,5,7,1,2026-04-03T05:08:46.050589+05:30
Bidar,Karnataka,17.9104,77.5199,23.0,86,0.0,936.7,8.5,39.2,97,45.9,41.4,3,5,7,1,2026-04-03T05:08:46.050595+05:30
Hospet,Karnataka,15.2689,76.3909,25.6,82,0.0,956.7,9.15,37.1,80,35.0,33.2,7,5,7,1,2026-04-03T05:08:46.050601+05:30
Tirupur,Tamil Nadu,11.1085,77.3411,25.1,89,0.0,976.2,9.5,31.7,57,22.6,20.9,7,5,7,1,2026-04-03T05:08:46.050607+05:30
Alappuzha,Kerala,9.4981,76.3388,27.6,82,0.0,1009.4,9.2,19.1,72,20.1,17.1,7,0,4,1,2026-04-03T05:08:46.050613+05:30
Munnar,Kerala,10.0889,77.0595,19.5,91,0.0,856.6,8.85,30.2,66,21.9,21.0,3,10,7,1,2026-04-03T05:08:46.050620+05:30
Silchar,Assam,24.8333,92.7789,22.5,92,0.0,1006.9,8.5,29.2,151,48.1,39.0,3,5,4,1,2026-04-03T05:08:46.050626+05:30
Dibrugarh,Assam,27.4728,94.912,21.1,96,0.0,997.3,8.3,13.0,98,38.0,34.3,3,5,7,1,2026-04-03T05:08:46.050632+05:30
