city,state,latitude,longitude,temp,humidity,rain,pressure,uv_index,wind_gusts,aqi,pm10,pm2_5,mosquito_risk,arthritis_risk,migraine_risk,frizz_risk,updated_at
Delhi,Delhi,28.6139,77.209,22.5,63,0.0,986.1,6.35,19.4,154,326.9,78.9,3,5,7,0,2026-03-26T02:12:33.709193+05:30
Mumbai,Maharashtra,19.076,72.8777,28.1,82,0.0,1009.0,7.95,28.4,78,32.5,19.4,7,0,4,1,2026-03-26T02:12:33.709244+05:30
Bangalore,Karnataka,12.9716,77.5946,22.3,73,0.0,911.7,9.45,33.1,74,29.0,26.2,3,5,7,1,2026-03-26T02:12:33.709261+05:30
Hyderabad,Telangana,17.385,78.4867,24.3,74,0.0,953.9,9.0,13.0,101,48.8,40.7,3,5,7,1,2026-03-26T02:12:33.709270+05:30
Chennai,Tamil Nadu,13.0827,80.2707,26.2,83,0.0,1008.5,9.2,30.6,53,28.9,18.7,7,0,4,1,2026-03-26T02:12:33.709279+05:30
Kolkata,West Bengal,22.5726,88.3639,25.0,95,0.0,1008.4,8.45,21.2,85,33.5,27.5,7,0,4,1,2026-03-26T02:12:33.709289+05:30
Pune,Maharashtra,18.5204,73.8567,24.8,85,0.0,949.3,8.5,31.3,92,51.0,44.5,3,5,7,1,2026-03-26T02:12:33.709302+05:30
Ahmedabad,Gujarat,23.0225,72.5714,25.6,56,0.0,1003.2,7.9,23.4,70,56.2,44.1,4,5,4,1,2026-03-26T02:12:33.709310+05:30
Jaipur,Rajasthan,26.9124,75.7873,22.7,56,0.0,962.1,7.35,28.4,108,129.5,34.9,0,5,7,0,2026-03-26T02:12:33.709318+05:30
Lucknow,Uttar Pradesh,26.8467,80.9462,21.8,59,0.0,996.3,7.15,33.5,123,350.2,70.1,0,5,7,0,2026-03-26T02:12:33.709326+05:30
Kanpur,Uttar Pradesh,26.4499,80.3319,21.3,70,0.0,994.5,7.15,26.3,172,393.0,78.7,3,5,7,0,2026-03-26T02:12:33.709333+05:30
Chandigarh,Chandigarh,30.7333,76.7794,19.9,68,0.0,971.9,6.5,35.6,78,34.1,27.1,3,5,7,0,2026-03-26T02:12:33.709341+05:30
Srinagar,Jammu and Kashmir,34.0837,74.7973,11.1,76,0.0,842.3,7.55,18.0,91,41.6,34.3,3,5,7,0,2026-03-26T02:12:33.709348+05:30
Jammu,Jammu and Kashmir,32.7266,74.857,21.0,77,0.0,976.7,6.8,30.6,86,44.0,38.1,3,5,7,1,2026-03-26T02:12:33.709355+05:30
Amritsar,Punjab,31.634,74.8723,19.7,86,0.0,985.4,6.15,30.2,115,38.5,31.5,3,10,7,1,2026-03-26T02:12:33.709363+05:30
Ludhiana,Punjab,30.901,75.8573,20.9,77,0.0,982.7,5.95,36.0,126,57.2,50.2,3,5,3,1,2026-03-26T02:12:33.709371+05:30
Jalandhar,Punjab,31.326,75.5762,20.5,81,0.0,984.1,6.4,36.7,120,58.1,44.9,3,5,7,1,2026-03-26T02:12:33.709380+05:30
Dehradun,Uttarakhand,30.6284,78.0322,12.9,85,0.0,831.2,6.85,37.4,80,28.1,23.4,3,10,7,0,2026-03-26T02:12:33.709388+05:30
Shimla,Himachal Pradesh,31.1048,77.1734,11.1,81,0.0,785.1,6.95,51.1,84,39.0,26.1,3,10,7,0,2026-03-26T02:12:33.709395+05:30
Manali,Himachal Pradesh,32.2396,77.1887,13.9,55,0.0,820.7,8.45,28.1,82,28.3,17.3,0,5,7,0,2026-03-26T02:12:33.709403+05:30
Gurgaon,Haryana,28.4595,77.0266,20.3,73,0.0,984.4,6.7,18.7,411,282.2,95.0,3,5,7,0,2026-03-26T02:12:33.709412+05:30
Noida,Uttar Pradesh,28.5355,77.391,21.9,66,0.0,987.6,6.4,19.1,411,282.2,95.0,3,5,7,0,2026-03-26T02:12:33.709419+05:30
Ghaziabad,Uttar Pradesh,28.6692,77.4538,20.4,71,0.0,985.7,6.5,20.9,147,304.5,71.0,3,5,7,0,2026-03-26T02:12:33.709427+05:30
Faridabad,Haryana,28.4089,77.3178,20.7,66,0.0,986.6,6.45,24.8,411,282.2,95.0,3,5,7,0,2026-03-26T02:12:33.709433+05:30
Meerut,Uttar Pradesh,28.9845,77.7064,19.8,69,0.0,984.6,6.45,27.4,147,304.5,71.0,3,5,7,0,2026-03-26T02:12:33.709440+05:30
Agra,Uttar Pradesh,27.1767,78.0081,20.8,61,0.0,990.5,6.95,24.8,382,322.2,109.4,3,5,7,0,2026-03-26T02:12:33.709446+05:30
Varanasi,Uttar Pradesh,25.3176,82.9739,19.5,59,0.0,1000.3,7.8,29.5,101,109.9,41.7,0,5,4,0,2026-03-26T02:12:33.709456+05:30
Prayagraj,Uttar Pradesh,25.4358,81.8463,22.9,50,0.0,998.9,7.65,28.8,102,150.9,44.6,0,5,7,0,2026-03-26T02:12:33.709463+05:30
Gorakhpur,Uttar Pradesh,26.7606,83.3732,18.8,62,0.0,999.7,7.55,18.0,97,49.6,34.5,3,5,7,0,2026-03-26T02:12:33.709472+05:30
Bareilly,Uttar Pradesh,28.367,79.4304,19.5,77,0.0,989.4,6.8,24.1,103,177.0,69.4,3,5,7,0,2026-03-26T02:12:33.709478+05:30
Aligarh,Uttar Pradesh,27.8974,78.088,19.7,68,0.0,988.3,6.75,20.9,351,466.6,114.1,3,5,7,0,2026-03-26T02:12:33.709485+05:30
Moradabad,Uttar Pradesh,28.8386,78.7733,19.3,74,0.0,986.5,6.65,29.2,109,123.4,64.3,3,5,7,0,2026-03-26T02:12:33.709492+05:30
Saharanpur,Uttar Pradesh,29.9637,77.546,19.1,72,0.0,978.2,6.25,38.2,132,139.7,72.6,3,5,7,0,2026-03-26T02:12:33.709498+05:30
Jhansi,Uttar Pradesh,25.4484,78.5685,24.2,41,0.0,980.4,7.6,27.7,110,122.0,34.5,0,5,7,0,2026-03-26T02:12:37.011111+05:30
Surat,Gujarat,21.1702,72.8311,26.1,84,0.0,1007.3,7.75,24.8,93,33.9,24.2,7,5,4,1,2026-03-26T02:12:37.011143+05:30
Vadodara,Gujarat,22.3072,73.1812,26.6,67,0.0,1005.3,7.9,25.6,89,55.3,46.6,7,5,4,1,2026-03-26T02:12:37.011153+05:30
Rajkot,Gujarat,22.3039,70.8022,23.5,79,0.0,996.1,7.75,33.1,47,30.5,11.8,3,5,7,1,2026-03-26T02:12:37.011161+05:30
Thane,Maharashtra,19.2183,72.9781,26.8,79,0.0,1008.5,7.95,40.3,78,32.5,19.4,7,0,4,1,2026-03-26T02:12:37.011170+05:30
Nagpur,Maharashtra,21.1458,79.0882,26.7,58,0.0,974.5,8.45,27.0,85,29.6,22.9,4,5,7,1,2026-03-26T02:12:37.011177+05:30
Nashik,Maharashtra,19.9975,73.7898,24.5,61,0.0,946.5,8.15,21.2,77,47.5,35.5,3,5,7,1,2026-03-26T02:12:37.011185+05:30
Aurangabad,Maharashtra,19.8762,75.3433,25.3,51,0.0,944.7,8.7,23.4,60,35.9,28.5,4,5,7,0,2026-03-26T02:12:37.011192+05:30
Solapur,Maharashtra,17.6599,75.9064,25.5,74,0.0,958.0,8.8,24.1,95,45.8,39.7,7,5,7,1,2026-03-26T02:12:37.011200+05:30
Kolhapur,Maharashtra,16.705,74.2433,23.4,88,0.0,948.5,8.95,27.0,139,92.0,86.1,3,5,7,1,2026-03-26T02:12:37.011208+05:30
Goa,Goa,15.2993,74.124,27.3,85,0.0,997.8,8.75,28.1,97,44.7,34.9,7,5,7,1,2026-03-26T02:12:37.011216+05:30
Jodhpur,Rajasthan,26.2389,73.0243,25.5,45,0.0,984.8,7.45,33.5,67,164.4,27.9,4,5,7,0,2026-03-26T02:12:37.011224+05:30
Udaipur,Rajasthan,24.5854,73.7125,21.9,55,0.0,948.3,8.3,36.7,47,20.4,11.6,0,5,7,0,2026-03-26T02:12:37.011231+05:30
Kota,Rajasthan,25.2138,75.8648,21.2,79,0.0,980.5,7.65,20.9,79,54.9,42.3,3,5,7,1,2026-03-26T02:12:37.011238+05:30
Bikaner,Rajasthan,28.0229,73.3119,24.9,43,0.0,983.6,6.45,30.6,50,98.5,23.3,0,5,7,0,2026-03-26T02:12:37.011246+05:30
Ajmer,Rajasthan,26.4499,74.6399,24.7,48,0.0,956.6,7.5,31.7,68,64.7,32.4,0,5,7,0,2026-03-26T02:12:37.011253+05:30
Gwalior,Madhya Pradesh,26.2183,78.1828,24.5,52,0.0,985.8,7.3,19.8,155,61.5,20.3,0,5,7,0,2026-03-26T02:12:37.011259+05:30
Indore,Madhya Pradesh,22.7196,75.8577,22.7,61,0.0,949.4,8.2,22.0,83,56.2,48.0,3,5,7,0,2026-03-26T02:12:37.011266+05:30
Bhopal,Madhya Pradesh,23.2599,77.4126,24.2,54,0.0,955.1,8.05,26.3,61,31.9,20.3,0,5,7,0,2026-03-26T02:12:37.011273+05:30
Jabalpur,Madhya Pradesh,23.1815,79.9864,24.9,46,0.0,963.2,8.2,22.7,62,47.0,20.9,0,5,7,0,2026-03-26T02:12:37.011281+05:30
Ujjain,Madhya Pradesh,23.1765,75.7885,22.9,57,0.0,955.1,8.1,20.2,87,38.2,31.5,0,5,7,0,2026-03-26T02:12:37.011289+05:30
Visakhapatnam,Andhra Pradesh,17.6868,83.2185,25.7,89,0.0,1005.9,8.95,32.8,70,34.2,25.3,7,5,4,1,2026-03-26T02:12:37.011296+05:30
Vijayawada,Andhra Pradesh,16.5062,80.648,24.5,92,0.0,1004.4,8.95,21.2,60,24.2,18.4,3,5,4,1,2026-03-26T02:12:37.011303+05:30
Guntur,Andhra Pradesh,16.3067,80.4365,24.4,95,0.0,1005.7,9.0,26.6,56,21.8,17.0,3,5,4,1,2026-03-26T02:12:37.011310+05:30
Nellore,Andhra Pradesh,14.4426,79.9865,24.9,90,0.0,1007.6,9.1,30.6,50,21.8,14.8,3,5,4,1,2026-03-26T02:12:37.011318+05:30
Kurnool,Andhra Pradesh,15.8281,78.0373,27.8,57,0.0,977.7,9.0,22.7,91,42.5,34.7,4,5,7,1,2026-03-26T02:12:37.011326+05:30
Kakinada,Andhra Pradesh,16.9891,82.2475,24.2,92,0.0,1009.7,8.95,23.4,56,29.2,18.0,3,0,4,1,2026-03-26T02:12:37.011333+05:30
Tirupati,Andhra Pradesh,13.6288,79.4192,22.9,89,0.0,993.4,9.2,30.6,59,32.5,27.8,3,5,7,1,2026-03-26T02:12:37.011339+05:30
Warangal,Telangana,17.9689,79.5941,26.1,78,0.0,979.6,8.8,25.6,80,26.0,23.0,7,5,7,1,2026-03-26T02:12:37.011347+05:30
Nizamabad,Telangana,18.6725,78.0941,26.1,68,0.0,965.9,8.7,20.5,96,44.6,40.3,7,5,7,1,2026-03-26T02:12:37.011354+05:30
Mysore,Karnataka,12.2958,76.6396,23.6,89,0.0,928.3,9.45,37.1,81,26.2,23.3,3,5,7,1,2026-03-26T02:12:37.011361+05:30
Mangalore,Karnataka,12.9141,74.856,29.3,81,0.0,1006.1,9.05,29.5,101,43.4,38.9,7,5,4,1,2026-03-26T02:12:37.011368+05:30
Hubli-Dharwad,Karnataka,15.3647,75.124,22.7,90,0.0,940.8,9.1,28.4,117,57.6,51.3,3,5,7,1,2026-03-26T02:12:37.011375+05:30
Belgaum,Karnataka,15.8497,74.4977,21.7,94,0.0,925.9,9.0,27.7,113,60.3,52.2,3,5,7,1,2026-03-26T02:12:40.321070+05:30
Coimbatore,Tamil Nadu,11.0168,76.9558,24.9,71,0.0,962.4,9.4,43.9,56,20.0,17.9,3,5,7,1,2026-03-26T02:12:40.321106+05:30
Madurai,Tamil Nadu,9.9252,78.1198,25.1,85,0.0,993.7,9.35,25.2,58,23.6,21.4,7,5,7,1,2026-03-26T02:12:40.321119+05:30
Trichy,Tamil Nadu,10.7905,78.7047,23.5,93,0.0,1000.8,9.3,24.8,59,21.0,16.9,3,5,4,1,2026-03-26T02:12:40.321129+05:30
Salem,Tamil Nadu,11.6643,78.146,24.4,81,0.0,978.1,9.35,31.7,73,36.8,33.5,3,5,7,1,2026-03-26T02:12:40.321139+05:30
Tirunelveli,Tamil Nadu,8.7139,77.7567,26.1,76,0.0,1003.8,9.35,34.9,46,17.1,14.5,7,5,4,1,2026-03-26T02:12:40.321149+05:30
Vellore,Tamil Nadu,12.9165,79.1325,22.6,91,0.0,986.1,9.3,31.3,70,40.2,35.0,3,5,7,1,2026-03-26T02:12:40.321158+05:30
Erode,Tamil Nadu,11.341,77.7172,25.4,84,0.0,990.0,9.35,19.4,53,18.8,16.8,7,5,7,1,2026-03-26T02:12:40.321167+05:30
Kochi,Kerala,9.9312,76.2673,28.4,81,0.0,1008.1,9.2,36.4,83,43.0,40.6,7,0,4,1,2026-03-26T02:12:40.321177+05:30
Thiruvananthapuram,Kerala,8.5241,76.9366,29.0,76,0.0,1007.0,9.2,31.3,94,14.8,11.0,7,5,4,1,2026-03-26T02:12:40.321186+05:30
Kozhikode,Kerala,11.2588,75.7804,29.1,81,0.0,1007.2,9.1,31.3,97,37.4,28.3,7,5,4,1,2026-03-26T02:12:40.321196+05:30
Thrissur,Kerala,10.5276,76.2144,27.4,91,0.0,1006.5,9.15,37.8,85,48.4,42.7,7,5,4,1,2026-03-26T02:12:40.321204+05:30
Kannur,Kerala,11.8745,75.3704,28.8,82,0.0,1006.5,9.1,34.2,100,40.9,35.3,7,5,4,1,2026-03-26T02:12:40.321212+05:30
Patna,Bihar,25.5941,85.1376,21.4,67,0.0,1003.3,8.0,23.8,117,122.9,83.4,3,5,4,0,2026-03-26T02:12:40.321219+05:30
Gaya,Bihar,24.7914,85.0002,22.5,55,0.0,996.8,8.1,23.0,105,77.5,47.0,0,5,7,0,2026-03-26T02:12:40.321227+05:30
Muzaffarpur,Bihar,26.1209,85.3647,21.7,58,0.0,1003.0,7.95,16.6,127,127.1,97.8,0,5,4,0,2026-03-26T02:12:40.321234+05:30
Bhagalpur,Bihar,25.2425,87.0117,23.0,60,0.0,1004.1,8.0,11.9,144,92.4,64.3,0,5,4,0,2026-03-26T02:12:40.321242+05:30
Ranchi,Jharkhand,23.3441,85.3096,21.9,55,0.0,940.1,8.7,34.6,77,50.3,28.3,0,5,7,0,2026-03-26T02:12:40.321249+05:30
Jamshedpur,Jharkhand,22.8046,86.2029,24.8,82,0.0,993.2,8.55,29.9,151,105.0,88.0,3,5,7,1,2026-03-26T02:12:40.321257+05:30
Dhanbad,Jharkhand,23.7957,86.4304,23.8,60,0.0,982.6,8.45,25.9,150,110.4,91.5,0,5,7,0,2026-03-26T02:12:40.321264+05:30
Bokaro,Jharkhand,23.6693,86.1511,23.8,57,0.0,986.7,8.45,23.0,141,105.9,82.9,0,5,7,0,2026-03-26T02:12:40.321271+05:30
Bhubaneswar,Odisha,20.2961,85.8245,25.3,95,0.0,1004.5,8.75,17.6,77,34.1,27.6,7,5,4,1,2026-03-26T02:12:40.321278+05:30
Cuttack,Odisha,20.4625,85.8828,25.3,94,0.0,1006.6,8.8,15.8,77,34.1,27.6,7,5,4,1,2026-03-26T02:12:40.321285+05:30
Rourkela,Odisha,22.2604,84.8536,24.8,87,0.0,987.3,8.45,28.1,120,48.8,38.1,3,5,7,1,2026-03-26T02:12:40.321292+05:30
Raipur,Chhattisgarh,21.2514,81.6296,24.2,73,0.0,976.0,8.5,30.6,132,67.1,60.3,3,5,7,1,2026-03-26T02:12:40.321299+05:30
Bhilai,Chhattisgarh,21.1938,81.3509,24.0,72,0.0,976.5,8.5,24.5,120,74.7,67.5,3,5,7,1,2026-03-26T02:12:40.321306+05:30
Guwahati,Assam,26.1158,91.7086,21.9,88,0.0,1005.9,7.9,23.4,112,54.6,44.4,3,5,4,1,2026-03-26T02:12:40.321313+05:30
Agartala,Tripura,23.8315,91.2868,21.4,97,0.0,1009.0,8.2,22.3,147,71.5,66.1,3,0,4,1,2026-03-26T02:12:40.321321+05:30
Shillong,Meghalaya,25.5788,91.8933,9.3,82,0.0,855.3,8.3,28.8,100,48.8,40.5,3,10,7,0,2026-03-26T02:12:40.321329+05:30
Imphal,Manipur,24.817,93.9368,16.2,83,0.0,925.1,8.55,47.2,122,70.1,53.0,3,10,7,0,2026-03-26T02:12:40.321336+05:30
Aizawl,Mizoram,23.7271,92.7176,17.2,79,0.0,894.2,8.45,33.1,115,63.6,46.3,3,5,7,0,2026-03-26T02:12:40.321344+05:30
Kohima,Nagaland,25.6701,94.1077,12.6,74,0.0,855.7,8.45,52.2,102,58.4,44.7,3,5,7,0,2026-03-26T02:12:40.321351+05:30
Gangtok,Sikkim,27.3314,88.6138,12.1,87,0.0,838.0,8.0,16.6,74,39.1,33.2,3,10,7,0,2026-03-26T02:12:40.321358+05:30
Siliguri,West Bengal,26.7271,88.3953,19.7,67,0.0,997.6,7.9,20.5,147,80.6,65.9,3,5,7,0,2026-03-26T02:12:43.623941+05:30
Durgapur,West Bengal,23.5204,87.3119,23.4,86,0.0,997.9,8.4,24.8,152,102.4,88.2,3,5,7,1,2026-03-26T02:12:43.623972+05:30
Asansol,West Bengal,23.6739,86.9524,24.2,82,0.0,996.5,8.4,16.9,126,80.1,65.2,3,5,7,1,2026-03-26T02:12:43.623981+05:30
Pondicherry,Puducherry,11.9139,79.8145,23.5,94,0.0,1009.8,9.2,27.0,45,26.6,16.5,3,0,4,1,2026-03-26T02:12:43.623989+05:30
Port Blair,Andaman and Nicobar Islands,11.6234,92.7265,27.8,73,0.0,1006.7,9.15,26.3,58,16.7,11.1,7,5,4,1,2026-03-26T02:12:43.623997+05:30
Haridwar,Uttarakhand,29.9457,78.1642,19.8,76,0.0,977.2,6.4,42.5,97,71.9,49.2,3,5,7,0,2026-03-26T02:12:43.624004+05:30
Rishikesh,Uttarakhand,30.0869,78.2676,20.0,72,0.0,970.1,6.45,40.0,95,56.3,34.8,3,5,7,0,2026-03-26T02:12:43.624012+05:30
Nainital,Uttarakhand,29.3919,79.4542,16.5,61,0.0,807.1,7.3,59.8,79,32.5,27.1,3,5,7,0,2026-03-26T02:12:43.624019+05:30
Mussoorie,Uttarakhand,30.4599,78.0664,14.5,74,0.0,803.9,6.8,53.3,84,55.1,40.9,3,5,7,0,2026-03-26T02:12:43.624026+05:30
Dharamshala,Himachal Pradesh,32.219,76.3234,17.9,65,0.0,871.3,7.05,24.1,76,27.6,17.4,3,5,7,0,2026-03-26T02:12:43.624033+05:30
Dalhousie,Himachal Pradesh,32.5387,75.971,15.2,72,0.0,805.6,7.25,23.0,71,38.0,32.2,3,5,7,0,2026-03-26T02:12:43.624041+05:30
Patiala,Punjab,30.3398,76.3869,19.9,76,0.0,981.5,6.05,32.8,134,475.9,72.4,3,5,7,0,2026-03-26T02:12:43.624047+05:30
Bhatinda,Punjab,30.211,74.9455,20.7,80,0.0,987.2,6.25,29.9,125,59.5,25.1,3,5,7,1,2026-03-26T02:12:43.624054+05:30
Rohtak,Haryana,28.8955,76.6066,20.1,75,0.0,985.0,6.5,15.1,166,344.6,85.0,3,5,7,0,2026-03-26T02:12:43.624061+05:30
Panipat,Haryana,29.3909,76.9635,19.8,76,0.0,983.6,6.2,25.9,331,416.3,86.4,3,5,7,0,2026-03-26T02:12:43.624068+05:30
Mathura,Uttar Pradesh,27.4924,77.6737,20.3,67,0.0,989.5,6.9,21.2,330,322.2,91.5,3,5,7,0,2026-03-26T02:12:43.624075+05:30
Vrindavan,Uttar Pradesh,27.5823,77.7027,20.4,64,0.0,990.1,6.85,22.7,330,322.2,91.5,3,5,7,0,2026-03-26T02:12:43.624081+05:30
Ayodhya,Uttar Pradesh,26.7922,82.1998,19.4,58,0.0,998.0,7.3,31.3,99,146.2,46.3,0,5,7,0,2026-03-26T02:12:43.624088+05:30
Ratlam,Madhya Pradesh,23.3315,75.0367,25.2,48,0.0,955.9,8.05,20.9,68,20.2,15.0,4,5,7,0,2026-03-26T02:12:43.624095+05:30
Sagar,Madhya Pradesh,23.8388,78.7378,24.9,44,0.0,951.9,8.05,22.3,57,45.5,15.3,0,5,7,0,2026-03-26T02:12:43.624101+05:30
Satna,Madhya Pradesh,24.6005,80.8322,24.3,44,0.0,973.8,8.05,25.9,86,92.9,26.9,0,5,7,0,2026-03-26T02:12:43.624108+05:30
Akola,Maharashtra,20.7002,77.0082,25.5,64,0.0,975.6,8.4,22.7,52,24.8,19.6,7,5,7,1,2026-03-26T02:12:43.624115+05:30
Amravati,Maharashtra,20.9374,77.7796,24.9,56,0.0,967.9,8.4,28.4,59,29.5,24.0,0,5,7,0,2026-03-26T02:12:43.624122+05:30
Latur,Maharashtra,18.4088,76.5604,23.5,78,0.0,940.6,8.75,24.5,93,50.5,41.9,3,5,7,1,2026-03-26T02:12:43.624128+05:30
Nanded,Maharashtra,19.1383,77.3091,26.3,67,0.0,969.4,8.6,19.8,93,44.1,34.9,7,5,7,1,2026-03-26T02:12:43.624135+05:30
Gulbarga,Karnataka,17.3297,76.8343,25.7,72,0.0,959.5,8.85,14.0,96,54.2,46.8,7,5,7,1,2026-03-26T02:12:43.624141+05:30
Bidar,Karnataka,17.9104,77.5199,24.6,74,0.0,936.2,8.85,20.5,89,42.6,37.8,3,5,7,1,2026-03-26T02:12:43.624147+05:30
Hospet,Karnataka,15.2689,76.3909,26.5,76,0.0,956.6,9.05,24.8,113,45.3,38.0,7,5,7,1,2026-03-26T02:12:43.624153+05:30
Tirupur,Tamil Nadu,11.1085,77.3411,25.4,78,0.0,976.2,9.4,29.5,54,21.4,19.0,7,5,7,1,2026-03-26T02:12:43.624160+05:30
Alappuzha,Kerala,9.4981,76.3388,28.5,81,0.0,1008.2,9.15,31.7,78,36.3,30.7,7,0,4,1,2026-03-26T02:12:43.624166+05:30
Munnar,Kerala,10.0889,77.0595,18.4,79,0.0,855.2,9.7,26.6,58,27.4,23.3,3,5,7,0,2026-03-26T02:12:43.624173+05:30
Silchar,Assam,24.8333,92.7789,21.7,90,0.0,1008.5,8.25,20.2,159,78.5,62.2,3,0,4,1,2026-03-26T02:12:43.624179+05:30
Dibrugarh,Assam,27.4728,94.912,20.3,81,0.0,1000.5,8.05,7.9,72,14.6,14.1,3,5,4,1,2026-03-26T02:12:43.624186+05:30
