city,state,latitude,longitude,temp,humidity,rain,pressure,uv_index,wind_gusts,aqi,pm10,pm2_5,no2,co,o3,so2,mosquito_risk,arthritis_risk,migraine_risk,frizz_risk,updated_at
Delhi,Delhi,28.6139,77.209,32.5,21,0.0,977.3,7.7,39.6,502,713.4,145.3,18.6,164.0,56.0,10.3,0,5,7,0,2026-05-25T03:34:27.326837+05:30
Mumbai,Maharashtra,19.076,72.8777,29.6,79,0.0,1008.4,7.85,44.6,43,17.3,11.3,3.6,211.0,45.0,3.1,7,0,4,1,2026-05-25T03:34:27.326877+05:30
Bangalore,Karnataka,12.9716,77.5946,21.2,97,0.0,911.3,9.15,27.0,61,23.7,22.3,19.5,250.0,43.0,7.3,3,5,7,1,2026-05-25T03:34:27.326893+05:30
Hyderabad,Telangana,17.385,78.4867,30.0,47,0.0,951.5,9.2,37.8,63,16.5,14.3,7.2,236.0,70.0,5.5,4,5,7,1,2026-05-25T03:34:27.326903+05:30
Chennai,Tamil Nadu,13.0827,80.2707,29.9,62,0.0,1004.1,9.05,46.8,75,22.0,20.4,10.6,284.0,74.0,6.9,7,5,4,1,2026-05-25T03:34:27.326911+05:30
Kolkata,West Bengal,22.5726,88.3639,29.5,88,0.0,1002.7,8.95,45.4,89,29.7,24.6,5.5,228.0,84.0,4.6,7,5,4,1,2026-05-25T03:34:27.326919+05:30
Pune,Maharashtra,18.5204,73.8567,23.8,96,0.0,948.2,8.45,42.8,32,9.9,8.5,13.9,153.0,30.0,13.6,3,5,7,1,2026-05-25T03:34:27.326925+05:30
Ahmedabad,Gujarat,23.0225,72.5714,30.0,66,0.0,1001.1,8.15,34.9,50,35.0,17.6,4.2,127.0,48.0,3.5,7,5,4,1,2026-05-25T03:34:27.326932+05:30
Jaipur,Rajasthan,26.9124,75.7873,32.0,32,0.0,956.4,8.25,47.2,258,359.5,71.0,2.6,139.0,65.0,2.5,0,5,7,0,2026-05-25T03:34:27.326944+05:30
Lucknow,Uttar Pradesh,26.8467,80.9462,32.3,33,0.0,987.6,8.1,65.2,254,491.7,112.9,25.2,339.0,45.0,10.1,0,5,7,0,2026-05-25T03:34:27.326951+05:30
Kanpur,Uttar Pradesh,26.4499,80.3319,32.7,29,0.0,986.1,8.25,50.8,469,348.3,75.2,15.6,252.0,49.0,6.6,0,5,7,0,2026-05-25T03:34:27.326958+05:30
Chandigarh,Chandigarh,30.7333,76.7794,24.6,54,0.0,962.2,7.7,32.4,79,55.8,32.7,29.9,284.0,16.0,4.3,0,5,7,0,2026-05-25T03:34:27.326965+05:30
Srinagar,Jammu and Kashmir,34.0837,74.7973,11.1,95,0.0,839.3,8.05,36.7,67,32.5,27.0,20.4,396.0,28.0,1.1,3,10,7,0,2026-05-25T03:34:27.326973+05:30
Jammu,Jammu and Kashmir,32.7266,74.857,22.8,52,0.0,967.4,8.55,40.0,71,21.5,16.7,11.4,179.0,43.0,1.5,0,5,7,0,2026-05-25T03:34:27.326981+05:30
Amritsar,Punjab,31.634,74.8723,28.0,42,0.0,975.0,8.4,27.4,85,50.3,26.5,9.4,516.0,72.0,4.3,4,5,7,0,2026-05-25T03:34:27.326988+05:30
Ludhiana,Punjab,30.901,75.8573,27.8,39,0.0,972.6,8.0,33.1,85,80.3,45.4,23.8,395.0,44.0,11.0,4,5,7,0,2026-05-25T03:34:27.326994+05:30
Jalandhar,Punjab,31.326,75.5762,27.1,43,0.0,973.7,8.15,36.0,93,78.0,35.2,12.2,325.0,60.0,5.0,4,5,7,0,2026-05-25T03:34:27.327000+05:30
Dehradun,Uttarakhand,30.6284,78.0322,13.6,59,0.0,824.7,7.65,50.8,61,37.8,14.5,19.8,194.0,24.0,0.1,0,5,7,0,2026-05-25T03:34:27.327008+05:30
Shimla,Himachal Pradesh,31.1048,77.1734,12.6,51,0.0,779.8,8.25,45.0,67,32.8,16.1,12.1,160.0,52.0,0.5,0,5,7,0,2026-05-25T03:34:27.327020+05:30
Manali,Himachal Pradesh,32.2396,77.1887,10.0,69,0.0,815.2,9.1,49.3,50,1.9,0.8,6.4,140.0,111.0,0.0,3,5,7,0,2026-05-25T03:34:27.327026+05:30
Gurgaon,Haryana,28.4595,77.0266,31.4,24,0.0,975.9,7.8,38.5,1418,3270.8,489.9,4.5,151.0,81.0,5.2,0,5,7,0,2026-05-25T03:34:27.327032+05:30
Noida,Uttar Pradesh,28.5355,77.391,33.0,20,0.0,978.5,7.75,37.4,1418,3270.8,489.9,4.5,118.0,81.0,5.2,0,5,7,0,2026-05-25T03:34:27.327039+05:30
Ghaziabad,Uttar Pradesh,28.6692,77.4538,32.0,24,0.0,976.6,7.75,42.5,455,724.6,152.3,24.4,218.0,46.0,14.7,0,5,7,0,2026-05-25T03:34:27.327045+05:30
Faridabad,Haryana,28.4089,77.3178,33.5,21,0.0,977.9,7.8,40.0,1418,3270.8,489.9,4.5,151.0,81.0,5.2,0,5,7,0,2026-05-25T03:34:27.327050+05:30
Meerut,Uttar Pradesh,28.9845,77.7064,29.7,40,0.0,975.1,7.65,36.7,455,724.6,152.3,24.4,510.0,46.0,14.7,4,5,7,0,2026-05-25T03:34:27.327056+05:30
Agra,Uttar Pradesh,27.1767,78.0081,33.7,27,0.0,982.6,8.05,43.2,864,2302.2,293.4,4.3,147.0,74.0,3.6,0,5,7,0,2026-05-25T03:34:27.327062+05:30
Varanasi,Uttar Pradesh,25.3176,82.9739,32.5,28,0.0,991.8,8.75,49.3,151,85.4,40.9,28.2,457.0,34.0,8.4,0,5,7,0,2026-05-25T03:34:27.327069+05:30
Prayagraj,Uttar Pradesh,25.4358,81.8463,31.1,37,0.0,990.4,8.65,46.8,154,115.9,47.6,29.5,236.0,32.0,8.1,0,5,7,0,2026-05-25T03:34:27.327075+05:30
Gorakhpur,Uttar Pradesh,26.7606,83.3732,28.9,71,0.0,991.9,8.6,33.1,154,80.1,56.8,17.8,541.0,63.0,9.0,7,5,7,1,2026-05-25T03:34:27.327084+05:30
Bareilly,Uttar Pradesh,28.367,79.4304,28.1,55,0.0,980.5,8.05,22.7,153,341.8,100.6,44.0,415.0,32.0,13.3,4,5,7,1,2026-05-25T03:34:27.327090+05:30
Aligarh,Uttar Pradesh,27.8974,78.088,32.2,25,0.0,979.6,7.9,35.3,904,1806.8,286.8,5.1,156.0,75.0,3.5,0,5,7,0,2026-05-25T03:34:27.327096+05:30
Moradabad,Uttar Pradesh,28.8386,78.7733,28.8,42,0.0,977.1,7.85,38.2,157,392.1,122.5,54.5,486.0,17.0,13.9,4,5,7,0,2026-05-25T03:34:27.327102+05:30
Saharanpur,Uttar Pradesh,29.9637,77.546,27.3,41,0.0,969.3,7.35,25.9,104,103.4,63.8,47.2,546.0,8.0,11.1,4,5,7,0,2026-05-25T03:34:27.327108+05:30
Jhansi,Uttar Pradesh,25.4484,78.5685,34.2,24,0.0,973.9,8.45,47.9,90,51.0,28.1,4.3,158.0,62.0,3.0,0,5,7,0,2026-05-25T03:34:30.597149+05:30
Surat,Gujarat,21.1702,72.8311,29.8,81,0.0,1006.2,7.7,43.2,56,19.5,15.1,17.7,278.0,29.0,28.4,7,5,4,1,2026-05-25T03:34:30.597180+05:30
Vadodara,Gujarat,22.3072,73.1812,30.2,78,0.0,1003.2,8.1,40.3,51,17.5,14.7,15.8,220.0,24.0,15.8,3,5,4,1,2026-05-25T03:34:30.597193+05:30
Rajkot,Gujarat,22.3039,70.8022,27.9,79,0.0,993.6,7.75,49.3,54,24.2,15.0,4.5,112.0,45.0,5.5,7,5,7,1,2026-05-25T03:34:30.597203+05:30
Thane,Maharashtra,19.2183,72.9781,28.2,93,0.0,1007.8,7.85,39.6,43,17.3,11.3,3.6,255.0,45.0,3.1,7,5,4,1,2026-05-25T03:34:30.597212+05:30
Nagpur,Maharashtra,21.1458,79.0882,33.9,26,0.0,970.1,8.9,44.3,73,35.9,23.0,10.0,198.0,67.0,8.3,0,5,7,0,2026-05-25T03:34:30.597221+05:30
Nashik,Maharashtra,19.9975,73.7898,24.5,89,0.0,945.8,8.15,42.5,25,10.4,7.7,4.4,134.0,37.0,1.5,3,5,7,1,2026-05-25T03:34:30.597229+05:30
Aurangabad,Maharashtra,19.8762,75.3433,26.7,72,0.0,943.6,9.05,43.6,37,7.9,6.3,8.5,149.0,32.0,5.4,7,5,7,1,2026-05-25T03:34:30.597237+05:30
Solapur,Maharashtra,17.6599,75.9064,27.5,70,0.0,956.8,9.0,37.8,49,10.3,8.7,8.2,162.0,46.0,5.5,7,5,7,1,2026-05-25T03:34:30.597269+05:30
Kolhapur,Maharashtra,16.705,74.2433,23.2,97,0.0,947.9,8.85,44.3,40,9.0,7.4,7.3,156.0,33.0,2.5,3,5,7,1,2026-05-25T03:34:30.597280+05:30
Goa,Goa,15.2993,74.124,26.5,92,0.0,998.4,5.5,29.9,52,25.7,20.8,8.4,401.0,40.0,2.4,7,5,3,1,2026-05-25T03:34:30.597288+05:30
Jodhpur,Rajasthan,26.2389,73.0243,31.4,44,0.0,979.7,8.4,47.2,218,374.4,83.6,2.0,122.0,64.0,2.5,0,5,7,1,2026-05-25T03:34:30.597296+05:30
Udaipur,Rajasthan,24.5854,73.7125,28.2,60,0.0,944.9,8.8,47.2,64,26.1,16.3,2.6,131.0,57.0,2.2,4,5,7,1,2026-05-25T03:34:30.597305+05:30
Kota,Rajasthan,25.2138,75.8648,33.8,36,0.0,976.0,8.4,42.5,85,17.8,12.6,3.9,152.0,58.0,4.5,0,5,7,1,2026-05-25T03:34:30.597313+05:30
Bikaner,Rajasthan,28.0229,73.3119,33.5,31,0.0,977.4,8.4,40.0,176,320.4,132.7,1.1,122.0,87.0,3.1,0,5,7,0,2026-05-25T03:34:30.597321+05:30
Ajmer,Rajasthan,26.4499,74.6399,30.2,38,0.0,951.7,8.35,55.4,96,46.9,23.4,1.9,126.0,66.0,2.2,0,5,7,0,2026-05-25T03:34:30.597329+05:30
Gwalior,Madhya Pradesh,26.2183,78.1828,34.0,26,0.0,978.8,8.25,56.2,94,53.8,25.1,3.1,139.0,72.0,2.2,0,5,7,0,2026-05-25T03:34:30.597337+05:30
Indore,Madhya Pradesh,22.7196,75.8577,29.2,59,0.0,947.3,8.7,42.1,68,20.0,15.9,5.1,168.0,69.0,8.2,4,5,7,1,2026-05-25T03:34:30.597345+05:30
Bhopal,Madhya Pradesh,23.2599,77.4126,32.6,33,0.0,951.7,8.7,41.0,82,31.9,20.1,3.7,166.0,74.0,4.0,0,5,7,0,2026-05-25T03:34:30.597353+05:30
Jabalpur,Madhya Pradesh,23.1815,79.9864,30.5,34,0.0,957.9,8.85,30.6,91,86.1,41.6,23.9,256.0,46.0,4.9,0,5,7,0,2026-05-25T03:34:30.597361+05:30
Ujjain,Madhya Pradesh,23.1765,75.7885,29.6,60,0.0,952.8,8.6,45.4,65,17.4,14.2,5.1,180.0,62.0,8.1,4,5,7,1,2026-05-25T03:34:30.597369+05:30
Visakhapatnam,Andhra Pradesh,17.6868,83.2185,30.1,85,0.0,999.9,9.1,35.6,111,43.7,36.8,30.6,412.0,82.0,39.8,3,5,7,1,2026-05-25T03:34:30.597377+05:30
Vijayawada,Andhra Pradesh,16.5062,80.648,32.5,47,0.0,997.9,9.1,40.7,86,24.3,22.4,10.4,307.0,68.0,5.5,0,5,7,1,2026-05-25T03:34:30.597385+05:30
Guntur,Andhra Pradesh,16.3067,80.4365,32.3,49,0.0,999.1,9.1,42.8,79,21.5,19.4,8.6,239.0,74.0,6.2,0,5,7,1,2026-05-25T03:34:30.597393+05:30
Nellore,Andhra Pradesh,14.4426,79.9865,32.2,49,0.0,1002.3,9.05,40.0,67,22.2,20.1,6.8,173.0,76.0,5.8,0,5,4,1,2026-05-25T03:34:30.597402+05:30
Kurnool,Andhra Pradesh,15.8281,78.0373,28.4,65,0.0,975.8,9.05,52.6,59,17.9,15.8,7.8,176.0,64.0,3.4,7,5,7,1,2026-05-25T03:34:30.597411+05:30
Kakinada,Andhra Pradesh,16.9891,82.2475,31.1,75,0.0,1003.1,9.1,30.2,87,27.8,21.4,3.3,348.0,126.0,3.2,3,5,4,1,2026-05-25T03:34:30.597419+05:30
Tirupati,Andhra Pradesh,13.6288,79.4192,30.3,52,0.0,988.3,9.1,42.5,75,28.6,26.8,14.6,217.0,51.0,3.4,0,5,7,1,2026-05-25T03:34:30.597427+05:30
Warangal,Telangana,17.9689,79.5941,32.9,37,0.0,974.7,8.75,42.8,85,44.8,34.6,17.1,225.0,50.0,4.5,0,5,7,1,2026-05-25T03:34:30.597435+05:30
Nizamabad,Telangana,18.6725,78.0941,31.5,42,0.0,962.5,9.05,38.5,74,24.7,19.0,12.1,225.0,54.0,4.6,0,5,7,1,2026-05-25T03:34:30.597443+05:30
Mysore,Karnataka,12.2958,76.6396,21.9,98,0.0,928.6,9.05,40.3,41,13.5,12.7,10.8,262.0,34.0,2.1,3,5,7,1,2026-05-25T03:34:30.597451+05:30
Mangalore,Karnataka,12.9141,74.856,25.2,97,0.0,1007.3,6.1,29.5,52,25.2,22.2,13.3,320.0,29.0,3.9,7,5,4,1,2026-05-25T03:34:30.597459+05:30
Hubli-Dharwad,Karnataka,15.3647,75.124,23.1,97,0.0,940.7,9.05,52.6,30,9.7,7.7,5.6,143.0,37.0,1.7,3,5,7,1,2026-05-25T03:34:30.597468+05:30
Belgaum,Karnataka,15.8497,74.4977,22.4,98,0.0,925.6,8.8,48.2,34,12.5,10.2,8.2,169.0,29.0,1.1,3,5,7,1,2026-05-25T03:34:33.858129+05:30
Coimbatore,Tamil Nadu,11.0168,76.9558,24.2,89,0.0,961.6,9.05,50.4,30,9.4,8.5,7.2,170.0,37.0,3.1,3,5,7,1,2026-05-25T03:34:33.858160+05:30
Madurai,Tamil Nadu,9.9252,78.1198,27.6,68,0.0,992.3,8.95,33.8,57,26.3,24.4,28.9,174.0,10.0,6.1,7,5,7,1,2026-05-25T03:34:33.858173+05:30
Trichy,Tamil Nadu,10.7905,78.7047,28.2,69,0.0,998.6,8.7,38.5,47,10.1,9.1,10.7,164.0,40.0,3.9,7,5,7,1,2026-05-25T03:34:33.858183+05:30
Salem,Tamil Nadu,11.6643,78.146,27.1,71,0.0,977.0,8.7,37.8,64,28.7,25.3,24.5,185.0,33.0,9.1,7,5,7,1,2026-05-25T03:34:33.858192+05:30
Tirunelveli,Tamil Nadu,8.7139,77.7567,28.6,67,0.0,1002.9,8.85,34.9,24,8.1,6.7,5.3,169.0,39.0,2.5,7,5,4,1,2026-05-25T03:34:33.858201+05:30
Vellore,Tamil Nadu,12.9165,79.1325,28.0,63,0.0,982.6,9.1,42.8,63,22.9,21.9,13.8,221.0,41.0,4.0,7,5,7,1,2026-05-25T03:34:33.858210+05:30
Erode,Tamil Nadu,11.341,77.7172,26.9,75,0.0,988.9,8.8,40.7,48,13.6,11.8,13.7,245.0,29.0,3.7,7,5,7,1,2026-05-25T03:34:33.858218+05:30
Kochi,Kerala,9.9312,76.2673,25.6,94,0.0,1009.2,7.5,30.6,52,18.8,17.0,13.4,222.0,28.0,4.4,7,0,4,1,2026-05-25T03:34:33.858226+05:30
Thiruvananthapuram,Kerala,8.5241,76.9366,24.7,92,0.0,1009.0,8.0,36.0,29,10.2,6.7,3.0,188.0,53.0,1.5,3,0,4,1,2026-05-25T03:34:33.858234+05:30
Kozhikode,Kerala,11.2588,75.7804,24.6,99,0.0,1008.3,8.15,31.7,29,12.2,7.9,2.3,542.0,61.0,1.3,3,0,4,1,2026-05-25T03:34:33.858282+05:30
Thrissur,Kerala,10.5276,76.2144,24.0,99,0.0,1007.7,8.2,33.8,54,17.9,16.5,13.0,258.0,23.0,3.4,3,5,4,1,2026-05-25T03:34:33.858303+05:30
Kannur,Kerala,11.8745,75.3704,25.5,96,0.0,1007.3,8.7,28.4,44,19.8,17.2,14.2,338.0,23.0,2.6,7,5,4,1,2026-05-25T03:34:33.858314+05:30
Patna,Bihar,25.5941,85.1376,28.7,81,0.0,995.2,8.8,32.4,154,51.7,46.6,12.4,430.0,90.0,14.7,7,5,7,1,2026-05-25T03:34:33.858322+05:30
Gaya,Bihar,24.7914,85.0002,28.2,59,0.0,988.3,8.9,30.6,161,178.8,88.9,47.9,440.0,21.0,12.7,4,5,7,1,2026-05-25T03:34:33.858330+05:30
Muzaffarpur,Bihar,26.1209,85.3647,27.2,82,0.0,995.6,8.85,33.1,153,56.8,49.2,12.6,451.0,84.0,14.0,7,5,7,1,2026-05-25T03:34:33.858338+05:30
Bhagalpur,Bihar,25.2425,87.0117,28.1,85,0.0,996.6,8.8,36.4,139,53.4,46.2,15.5,492.0,70.0,17.4,7,5,7,1,2026-05-25T03:34:33.858346+05:30
Ranchi,Jharkhand,23.3441,85.3096,25.4,69,0.0,934.4,9.3,49.3,147,150.4,62.4,20.3,343.0,66.0,11.1,7,5,7,1,2026-05-25T03:34:33.858354+05:30
Jamshedpur,Jharkhand,22.8046,86.2029,28.9,86,0.0,987.4,9.1,40.3,132,49.4,41.7,18.4,302.0,74.0,20.1,7,5,7,1,2026-05-25T03:34:33.858362+05:30
Dhanbad,Jharkhand,23.7957,86.4304,28.0,92,0.0,975.8,9.1,40.3,158,102.4,72.2,47.0,1252.0,52.0,113.0,7,5,7,1,2026-05-25T03:34:33.858370+05:30
Bokaro,Jharkhand,23.6693,86.1511,28.3,68,0.0,979.6,9.1,40.0,161,174.2,86.6,48.6,505.0,25.0,76.6,7,5,7,1,2026-05-25T03:34:33.858378+05:30
Bhubaneswar,Odisha,20.2961,85.8245,29.4,91,0.0,999.3,9.1,43.2,85,32.4,26.9,4.6,217.0,93.0,3.8,7,5,7,1,2026-05-25T03:34:33.858385+05:30
Cuttack,Odisha,20.4625,85.8828,29.5,91,0.0,1001.2,9.2,38.2,85,32.4,26.9,4.6,232.0,93.0,3.8,7,5,4,1,2026-05-25T03:34:33.858394+05:30
Rourkela,Odisha,22.2604,84.8536,28.2,92,0.0,981.8,9.0,46.4,153,140.6,84.5,45.3,253.0,31.0,22.7,7,5,7,1,2026-05-25T03:34:33.858401+05:30
Raipur,Chhattisgarh,21.2514,81.6296,33.5,27,0.0,970.3,8.95,42.1,134,90.3,62.4,47.4,637.0,17.0,33.4,0,5,7,0,2026-05-25T03:34:33.858410+05:30
Bhilai,Chhattisgarh,21.1938,81.3509,32.7,34,0.0,970.6,9.0,27.0,115,88.2,54.2,39.5,678.0,25.0,34.0,0,5,7,0,2026-05-25T03:34:33.858417+05:30
Guwahati,Assam,26.1158,91.7086,22.8,95,0.0,1000.0,8.8,32.4,55,19.4,13.9,6.2,284.0,75.0,2.3,3,5,4,1,2026-05-25T03:34:33.858426+05:30
Agartala,Tripura,23.8315,91.2868,27.0,85,0.0,1004.2,8.8,48.6,62,14.2,11.6,8.9,190.0,56.0,3.2,7,5,4,1,2026-05-25T03:34:33.858434+05:30
Shillong,Meghalaya,25.5788,91.8933,19.4,90,0.0,855.1,8.45,43.6,40,3.2,1.9,4.1,192.0,72.0,2.3,3,10,7,1,2026-05-25T03:34:33.858443+05:30
Imphal,Manipur,24.817,93.9368,21.0,97,0.0,922.5,9.3,30.2,64,11.3,8.8,6.8,349.0,41.0,1.8,3,5,7,1,2026-05-25T03:34:33.858451+05:30
Aizawl,Mizoram,23.7271,92.7176,18.3,95,0.0,891.0,9.1,43.2,48,10.3,6.4,2.5,162.0,49.0,0.7,3,10,7,1,2026-05-25T03:34:33.858459+05:30
Kohima,Nagaland,25.6701,94.1077,17.1,87,0.0,853.0,9.25,33.5,57,11.4,5.8,4.0,194.0,57.0,1.1,3,10,7,0,2026-05-25T03:34:33.858467+05:30
Gangtok,Sikkim,27.3314,88.6138,15.2,87,0.1,834.1,9.2,40.0,74,41.0,21.5,14.3,522.0,48.0,1.7,6,10,7,0,2026-05-25T03:34:33.858475+05:30
Siliguri,West Bengal,26.7271,88.3953,22.5,95,0.0,990.4,8.7,30.6,92,50.8,30.2,10.0,398.0,103.0,4.5,3,5,7,1,2026-05-25T03:34:37.120211+05:30
Durgapur,West Bengal,23.5204,87.3119,29.0,92,0.0,991.2,9.0,39.2,145,38.9,36.3,22.1,502.0,59.0,29.7,7,5,7,1,2026-05-25T03:34:37.120242+05:30
Asansol,West Bengal,23.6739,86.9524,29.1,91,0.0,989.5,9.05,33.1,150,55.2,46.1,27.4,341.0,61.0,43.6,7,5,7,1,2026-05-25T03:34:37.120274+05:30
Pondicherry,Puducherry,11.9139,79.8145,28.1,70,0.0,1006.1,8.8,41.0,73,25.0,22.4,11.3,304.0,71.0,6.4,7,5,4,1,2026-05-25T03:34:37.120285+05:30
Port Blair,Andaman and Nicobar Islands,11.6234,92.7265,25.7,96,0.0,1006.8,8.65,32.8,29,12.6,7.2,0.2,110.0,73.0,0.4,7,5,4,1,2026-05-25T03:34:37.120293+05:30
Haridwar,Uttarakhand,29.9457,78.1642,25.0,49,0.0,967.7,7.5,30.2,84,56.7,38.8,29.1,237.0,24.0,6.3,4,5,7,0,2026-05-25T03:34:37.120301+05:30
Rishikesh,Uttarakhand,30.0869,78.2676,22.0,57,0.0,960.4,7.65,36.4,79,56.2,33.4,13.5,273.0,74.0,6.0,0,5,7,0,2026-05-25T03:34:37.120309+05:30
Nainital,Uttarakhand,29.3919,79.4542,17.5,37,0.0,802.6,8.45,47.9,89,46.8,31.1,21.3,189.0,44.0,3.1,0,5,7,0,2026-05-25T03:34:37.120317+05:30
Mussoorie,Uttarakhand,30.4599,78.0664,18.0,38,0.0,800.6,7.95,54.7,76,57.7,28.6,28.9,164.0,29.0,4.4,0,5,7,0,2026-05-25T03:34:37.120324+05:30
Dharamshala,Himachal Pradesh,32.219,76.3234,22.4,34,0.0,865.8,8.4,43.2,43,9.5,5.0,11.5,135.0,35.0,0.0,0,5,7,0,2026-05-25T03:34:37.120331+05:30
Dalhousie,Himachal Pradesh,32.5387,75.971,12.2,64,0.0,799.0,8.7,43.6,64,17.8,13.0,22.6,200.0,22.0,0.6,3,5,7,0,2026-05-25T03:34:37.120340+05:30
Patiala,Punjab,30.3398,76.3869,28.9,35,0.0,971.8,7.6,31.7,291,93.6,40.6,15.0,414.0,70.0,10.2,4,5,7,0,2026-05-25T03:34:37.120347+05:30
Bhatinda,Punjab,30.211,74.9455,29.8,35,0.0,977.9,8.25,30.2,131,153.2,56.8,19.4,262.0,48.0,6.8,4,5,7,0,2026-05-25T03:34:37.120354+05:30
Rohtak,Haryana,28.8955,76.6066,28.4,43,0.0,975.8,7.75,36.7,600,1143.7,193.7,6.1,172.0,66.0,2.6,4,5,7,0,2026-05-25T03:34:37.120361+05:30
Panipat,Haryana,29.3909,76.9635,29.2,33,0.0,974.3,7.6,28.1,1248,1024.5,198.8,39.0,491.0,23.0,8.4,4,5,7,0,2026-05-25T03:34:37.120367+05:30
Mathura,Uttar Pradesh,27.4924,77.6737,32.8,26,0.0,981.4,8.0,38.2,829,1914.8,241.2,4.0,160.0,77.0,3.3,0,5,7,0,2026-05-25T03:34:37.120374+05:30
Vrindavan,Uttar Pradesh,27.5823,77.7027,32.5,26,0.0,981.7,8.0,36.7,829,1914.8,241.2,4.0,152.0,77.0,3.3,0,5,7,0,2026-05-25T03:34:37.120380+05:30
Ayodhya,Uttar Pradesh,26.7922,82.1998,28.2,60,0.0,989.5,8.35,31.0,160,266.4,96.4,58.0,689.0,13.0,12.5,4,5,7,1,2026-05-25T03:34:37.120387+05:30
Ratlam,Madhya Pradesh,23.3315,75.0367,28.5,64,0.0,953.9,8.55,47.9,61,15.2,12.6,6.4,163.0,51.0,9.9,7,5,7,1,2026-05-25T03:34:37.120394+05:30
Sagar,Madhya Pradesh,23.8388,78.7378,32.1,27,0.0,948.0,8.75,41.0,91,48.3,25.5,5.9,186.0,67.0,3.5,0,5,7,0,2026-05-25T03:34:37.120400+05:30
Satna,Madhya Pradesh,24.6005,80.8322,31.2,30,0.0,966.7,8.35,48.6,93,50.1,27.6,12.0,198.0,64.0,4.7,0,5,7,0,2026-05-25T03:34:37.120407+05:30
Akola,Maharashtra,20.7002,77.0082,31.5,50,0.0,973.3,8.9,47.5,62,18.4,15.1,7.0,149.0,78.0,11.4,0,5,7,1,2026-05-25T03:34:37.120414+05:30
Amravati,Maharashtra,20.9374,77.7796,33.0,34,0.0,965.0,8.2,42.8,64,21.8,16.7,6.8,185.0,79.0,9.6,0,5,7,0,2026-05-25T03:34:37.120422+05:30
Latur,Maharashtra,18.4088,76.5604,27.8,63,0.0,939.2,9.05,36.7,53,8.3,7.4,5.9,156.0,63.0,5.2,7,5,7,1,2026-05-25T03:34:37.120429+05:30
Nanded,Maharashtra,19.1383,77.3091,32.2,42,0.0,966.8,8.95,37.1,59,16.5,12.8,7.8,140.0,59.0,4.6,0,5,7,1,2026-05-25T03:34:37.120436+05:30
Gulbarga,Karnataka,17.3297,76.8343,27.8,66,0.0,957.6,9.05,37.4,54,9.8,8.3,6.8,163.0,58.0,4.6,7,5,7,1,2026-05-25T03:34:37.120442+05:30
Bidar,Karnataka,17.9104,77.5199,28.5,55,0.0,934.3,9.1,41.4,62,13.2,11.6,7.9,157.0,66.0,4.6,4,5,7,1,2026-05-25T03:34:37.120449+05:30
Hospet,Karnataka,15.2689,76.3909,24.8,91,0.0,955.7,9.1,49.7,40,8.9,8.1,8.2,158.0,36.0,2.0,3,5,7,1,2026-05-25T03:34:37.120455+05:30
Tirupur,Tamil Nadu,11.1085,77.3411,24.5,88,0.0,974.9,9.1,51.1,48,16.6,14.6,15.2,145.0,24.0,4.2,3,5,7,1,2026-05-25T03:34:37.120461+05:30
Alappuzha,Kerala,9.4981,76.3388,25.6,97,0.0,1009.4,7.7,29.9,41,13.3,10.4,7.0,195.0,49.0,2.7,7,0,4,1,2026-05-25T03:34:37.120468+05:30
Munnar,Kerala,10.0889,77.0595,16.4,90,0.0,856.2,9.3,28.4,19,7.7,7.2,7.9,149.0,21.0,1.2,3,10,7,0,2026-05-25T03:34:37.120475+05:30
Silchar,Assam,24.8333,92.7789,24.5,94,0.0,1003.8,8.95,36.4,58,30.3,13.9,6.2,258.0,62.0,2.5,3,5,4,1,2026-05-25T03:34:37.120482+05:30
Dibrugarh,Assam,27.4728,94.912,22.5,97,0.3,994.4,8.95,30.2,59,27.6,15.1,8.2,224.0,67.0,1.6,6,5,7,1,2026-05-25T03:34:37.120489+05:30
