city,state,latitude,longitude,temp,humidity,rain,pressure,uv_index,wind_gusts,aqi,pm10,pm2_5,mosquito_risk,arthritis_risk,migraine_risk,frizz_risk,updated_at
Delhi,Delhi,28.6139,77.209,23.3,68,0.0,985.1,6.2,44.6,341,215.1,58.3,3,5,7,1,2026-04-04T01:10:17.273303+05:30
Mumbai,Maharashtra,19.076,72.8777,27.7,77,0.0,1009.7,7.85,19.8,80,54.9,23.1,7,0,4,1,2026-04-04T01:10:17.273349+05:30
Bangalore,Karnataka,12.9716,77.5946,24.1,68,0.0,912.1,9.35,28.8,85,35.5,33.2,3,5,7,1,2026-04-04T01:10:17.273365+05:30
Hyderabad,Telangana,17.385,78.4867,27.5,50,0.0,952.8,8.3,37.4,69,26.1,23.3,4,5,7,1,2026-04-04T01:10:17.273375+05:30
Chennai,Tamil Nadu,13.0827,80.2707,28.0,81,0.0,1007.8,7.95,36.4,43,10.9,7.9,7,5,4,1,2026-04-04T01:10:17.273383+05:30
Kolkata,West Bengal,22.5726,88.3639,26.9,94,0.0,1005.1,8.65,18.4,72,16.9,14.6,7,5,4,1,2026-04-04T01:10:17.273390+05:30
Pune,Maharashtra,18.5204,73.8567,22.8,74,0.0,949.0,8.5,38.9,125,40.2,31.9,3,5,7,1,2026-04-04T01:10:17.273400+05:30
Ahmedabad,Gujarat,23.0225,72.5714,26.3,61,0.0,1003.2,7.35,24.8,65,22.6,12.1,7,5,4,1,2026-04-04T01:10:17.273407+05:30
Jaipur,Rajasthan,26.9124,75.7873,22.7,79,0.0,961.2,7.4,43.2,134,108.3,37.3,3,5,7,1,2026-04-04T01:10:17.273413+05:30
Lucknow,Uttar Pradesh,26.8467,80.9462,25.6,62,0.0,994.2,6.05,34.9,117,238.0,61.7,7,5,7,1,2026-04-04T01:10:17.273419+05:30
Kanpur,Uttar Pradesh,26.4499,80.3319,25.1,70,0.0,992.7,4.55,30.6,171,443.3,78.5,7,5,3,1,2026-04-04T01:10:17.273426+05:30
Chandigarh,Chandigarh,30.7333,76.7794,20.3,81,0.0,970.7,6.15,34.6,79,57.4,36.7,3,5,7,1,2026-04-04T01:10:17.273432+05:30
Srinagar,Jammu and Kashmir,34.0837,74.7973,9.4,92,0.1,841.1,6.65,32.8,91,23.9,21.8,6,10,7,0,2026-04-04T01:10:17.273439+05:30
Jammu,Jammu and Kashmir,32.7266,74.857,18.1,91,0.0,976.5,7.15,21.6,66,33.2,19.4,3,10,7,1,2026-04-04T01:10:17.273447+05:30
Amritsar,Punjab,31.634,74.8723,18.8,95,0.0,983.3,7.1,30.2,80,65.7,24.0,3,10,7,1,2026-04-04T01:10:17.273453+05:30
Ludhiana,Punjab,30.901,75.8573,19.3,91,0.0,981.1,5.6,19.8,99,182.1,50.2,3,10,3,1,2026-04-04T01:10:17.273459+05:30
Jalandhar,Punjab,31.326,75.5762,19.0,92,0.0,982.3,6.3,21.2,85,89.2,36.4,3,10,7,1,2026-04-04T01:10:17.273466+05:30
Dehradun,Uttarakhand,30.6284,78.0322,15.1,72,0.0,831.7,5.05,34.6,52,30.7,15.3,3,5,3,0,2026-04-04T01:10:17.273472+05:30
Shimla,Himachal Pradesh,31.1048,77.1734,13.3,75,0.0,784.9,5.3,50.0,52,28.5,17.0,3,5,3,0,2026-04-04T01:10:17.273478+05:30
Manali,Himachal Pradesh,32.2396,77.1887,13.1,93,0.0,820.5,5.35,30.2,48,7.3,3.3,3,10,3,0,2026-04-04T01:10:17.273483+05:30
Gurgaon,Haryana,28.4595,77.0266,21.4,78,0.0,983.4,6.0,37.4,696,243.1,71.9,3,5,3,1,2026-04-04T01:10:17.273489+05:30
Noida,Uttar Pradesh,28.5355,77.391,23.3,68,0.0,986.6,6.45,43.2,696,243.1,71.9,3,5,7,1,2026-04-04T01:10:17.273494+05:30
Ghaziabad,Uttar Pradesh,28.6692,77.4538,22.3,73,0.0,984.9,6.25,43.2,250,216.5,63.3,3,5,7,1,2026-04-04T01:10:17.273499+05:30
Faridabad,Haryana,28.4089,77.3178,22.2,72,0.0,985.9,6.25,39.2,696,243.1,71.9,3,5,7,1,2026-04-04T01:10:17.273504+05:30
Meerut,Uttar Pradesh,28.9845,77.7064,21.4,77,0.0,983.7,6.05,45.0,250,216.5,63.3,3,5,7,1,2026-04-04T01:10:17.273510+05:30
Agra,Uttar Pradesh,27.1767,78.0081,24.0,64,0.0,989.8,6.5,30.2,675,596.0,82.2,3,5,7,1,2026-04-04T01:10:17.273515+05:30
Varanasi,Uttar Pradesh,25.3176,82.9739,25.7,71,0.0,997.4,7.5,28.1,84,35.5,30.5,7,5,7,1,2026-04-04T01:10:17.273522+05:30
Prayagraj,Uttar Pradesh,25.4358,81.8463,26.8,64,0.0,996.3,6.65,28.8,89,64.5,41.2,7,5,7,1,2026-04-04T01:10:17.273528+05:30
Gorakhpur,Uttar Pradesh,26.7606,83.3732,24.8,67,0.0,996.7,7.25,42.1,80,95.5,36.1,3,5,7,1,2026-04-04T01:10:17.273533+05:30
Bareilly,Uttar Pradesh,28.367,79.4304,23.1,82,0.0,988.4,5.5,27.7,110,119.0,52.3,3,5,3,1,2026-04-04T01:10:17.273538+05:30
Aligarh,Uttar Pradesh,27.8974,78.088,22.7,67,0.0,987.6,6.55,36.0,627,353.0,68.9,3,5,7,1,2026-04-04T01:10:17.273545+05:30
Moradabad,Uttar Pradesh,28.8386,78.7733,22.4,82,0.0,985.6,5.6,53.3,151,168.6,56.5,3,5,3,1,2026-04-04T01:10:17.273550+05:30
Saharanpur,Uttar Pradesh,29.9637,77.546,22.2,77,0.0,977.6,6.1,32.4,134,123.9,63.1,3,5,7,1,2026-04-04T01:10:17.273556+05:30
Jhansi,Uttar Pradesh,25.4484,78.5685,24.1,71,0.0,979.7,7.65,48.6,65,46.0,25.6,3,5,7,1,2026-04-04T01:10:20.598159+05:30
Surat,Gujarat,21.1702,72.8311,26.9,84,0.0,1007.8,7.65,23.4,93,27.8,21.2,7,5,4,1,2026-04-04T01:10:20.598190+05:30
Vadodara,Gujarat,22.3072,73.1812,26.3,83,0.0,1005.4,7.85,25.6,79,62.9,40.9,7,5,4,1,2026-04-04T01:10:20.598199+05:30
Rajkot,Gujarat,22.3039,70.8022,23.5,83,0.0,995.6,7.55,33.1,57,16.8,10.2,3,5,7,1,2026-04-04T01:10:20.598208+05:30
Thane,Maharashtra,19.2183,72.9781,26.2,83,0.0,1009.2,7.85,36.7,80,54.9,23.1,7,0,4,1,2026-04-04T01:10:20.598215+05:30
Nagpur,Maharashtra,21.1458,79.0882,26.2,68,0.0,973.6,8.05,29.9,82,46.6,42.3,7,5,7,1,2026-04-04T01:10:20.598222+05:30
Nashik,Maharashtra,19.9975,73.7898,21.1,86,0.0,946.3,8.15,37.8,66,43.1,21.4,3,5,7,1,2026-04-04T01:10:20.598229+05:30
Aurangabad,Maharashtra,19.8762,75.3433,25.3,60,0.0,944.7,8.7,37.8,100,53.6,46.3,4,5,7,1,2026-04-04T01:10:20.598236+05:30
Solapur,Maharashtra,17.6599,75.9064,24.5,75,0.0,958.2,8.8,21.6,107,45.5,41.4,3,5,7,1,2026-04-04T01:10:20.598243+05:30
Kolhapur,Maharashtra,16.705,74.2433,21.0,95,0.0,948.3,9.0,41.0,126,39.5,36.1,3,5,7,1,2026-04-04T01:10:20.598250+05:30
Goa,Goa,15.2993,74.124,27.9,75,0.0,998.8,8.45,31.7,76,36.7,30.0,7,5,7,1,2026-04-04T01:10:20.598257+05:30
Jodhpur,Rajasthan,26.2389,73.0243,22.5,65,0.0,984.4,7.35,26.6,131,179.3,29.5,3,5,7,0,2026-04-04T01:10:20.598263+05:30
Udaipur,Rajasthan,24.5854,73.7125,21.5,66,0.0,947.2,8.25,37.8,54,36.2,14.0,3,5,7,0,2026-04-04T01:10:20.598271+05:30
Kota,Rajasthan,25.2138,75.8648,25.5,65,0.0,980.1,7.3,40.7,57,43.4,22.8,7,5,7,1,2026-04-04T01:10:20.598277+05:30
Bikaner,Rajasthan,28.0229,73.3119,19.9,77,0.0,983.7,7.1,25.9,63,75.7,24.2,3,5,7,0,2026-04-04T01:10:20.598284+05:30
Ajmer,Rajasthan,26.4499,74.6399,21.9,77,0.0,955.3,6.95,34.9,83,46.2,18.7,3,5,7,1,2026-04-04T01:10:20.598291+05:30
Gwalior,Madhya Pradesh,26.2183,78.1828,23.9,75,0.0,985.1,7.3,31.3,74,185.3,46.3,3,5,7,1,2026-04-04T01:10:20.598297+05:30
Indore,Madhya Pradesh,22.7196,75.8577,23.5,70,0.0,948.9,8.3,40.7,72,29.0,21.0,3,5,7,1,2026-04-04T01:10:20.598304+05:30
Bhopal,Madhya Pradesh,23.2599,77.4126,25.6,56,0.0,954.9,8.25,34.2,69,33.1,28.5,4,5,7,1,2026-04-04T01:10:20.598310+05:30
Jabalpur,Madhya Pradesh,23.1815,79.9864,26.4,64,0.0,962.4,4.25,29.2,76,42.3,37.3,7,5,3,1,2026-04-04T01:10:20.598317+05:30
Ujjain,Madhya Pradesh,23.1765,75.7885,23.5,69,0.0,954.6,8.2,35.6,70,36.7,23.6,3,5,7,1,2026-04-04T01:10:20.598324+05:30
Visakhapatnam,Andhra Pradesh,17.6868,83.2185,26.6,90,0.0,1004.5,8.8,37.8,58,13.9,11.9,7,5,4,1,2026-04-04T01:10:20.598331+05:30
Vijayawada,Andhra Pradesh,16.5062,80.648,26.3,88,0.0,1003.1,8.3,18.0,43,10.9,9.9,7,5,4,1,2026-04-04T01:10:20.598337+05:30
Guntur,Andhra Pradesh,16.3067,80.4365,26.4,90,0.0,1004.2,8.4,16.9,39,10.6,9.6,7,5,4,1,2026-04-04T01:10:20.598344+05:30
Nellore,Andhra Pradesh,14.4426,79.9865,26.6,87,0.0,1006.0,8.65,29.9,41,8.4,6.5,7,5,4,1,2026-04-04T01:10:20.598352+05:30
Kurnool,Andhra Pradesh,15.8281,78.0373,30.3,40,0.0,976.0,8.4,32.0,56,30.5,25.4,0,5,7,0,2026-04-04T01:10:20.598360+05:30
Kakinada,Andhra Pradesh,16.9891,82.2475,26.1,89,0.0,1008.4,8.6,33.1,30,7.5,5.4,7,0,4,1,2026-04-04T01:10:20.598366+05:30
Tirupati,Andhra Pradesh,13.6288,79.4192,25.4,68,0.0,992.7,8.5,29.2,54,16.9,16.2,7,5,7,1,2026-04-04T01:10:20.598373+05:30
Warangal,Telangana,17.9689,79.5941,28.2,63,0.0,978.3,7.7,25.6,72,29.7,28.0,7,5,7,1,2026-04-04T01:10:20.598380+05:30
Nizamabad,Telangana,18.6725,78.0941,25.5,79,0.0,966.1,8.05,32.8,109,62.2,56.6,7,5,7,1,2026-04-04T01:10:20.598386+05:30
Mysore,Karnataka,12.2958,76.6396,23.0,89,0.0,928.5,9.0,29.5,75,26.7,25.3,3,5,7,1,2026-04-04T01:10:20.598393+05:30
Mangalore,Karnataka,12.9141,74.856,28.4,82,0.0,1007.8,7.85,23.4,67,22.6,18.0,7,5,4,1,2026-04-04T01:10:20.598399+05:30
Hubli-Dharwad,Karnataka,15.3647,75.124,23.3,90,0.0,941.5,8.9,31.0,77,23.2,21.5,3,5,7,1,2026-04-04T01:10:20.598407+05:30
Belgaum,Karnataka,15.8497,74.4977,21.7,96,0.0,926.1,8.7,34.6,91,35.4,31.7,3,5,7,1,2026-04-04T01:10:23.926583+05:30
Coimbatore,Tamil Nadu,11.0168,76.9558,25.2,79,0.0,962.6,8.4,45.7,72,27.4,25.6,7,5,7,1,2026-04-04T01:10:23.926614+05:30
Madurai,Tamil Nadu,9.9252,78.1198,25.3,84,0.0,994.4,9.2,21.2,56,25.1,24.3,7,5,7,1,2026-04-04T01:10:23.926625+05:30
Trichy,Tamil Nadu,10.7905,78.7047,27.2,82,0.0,1000.9,8.95,26.3,58,12.2,11.5,7,5,4,1,2026-04-04T01:10:23.926635+05:30
Salem,Tamil Nadu,11.6643,78.146,27.0,75,0.0,978.3,8.6,41.0,78,14.8,14.1,7,5,7,1,2026-04-04T01:10:23.926644+05:30
Tirunelveli,Tamil Nadu,8.7139,77.7567,26.0,91,0.0,1004.6,7.75,19.1,66,25.1,23.6,7,5,4,1,2026-04-04T01:10:23.926653+05:30
Vellore,Tamil Nadu,12.9165,79.1325,26.1,73,0.0,985.4,8.65,30.6,76,21.8,20.7,7,5,7,1,2026-04-04T01:10:23.926661+05:30
Erode,Tamil Nadu,11.341,77.7172,27.5,72,0.0,989.9,8.65,33.5,68,20.8,19.8,7,5,7,1,2026-04-04T01:10:23.926670+05:30
Kochi,Kerala,9.9312,76.2673,27.9,83,0.0,1009.8,9.25,24.5,67,25.0,24.0,7,0,4,1,2026-04-04T01:10:23.926679+05:30
Thiruvananthapuram,Kerala,8.5241,76.9366,28.4,81,0.0,1008.9,8.4,30.6,68,22.2,18.5,7,0,4,1,2026-04-04T01:10:23.926688+05:30
Kozhikode,Kerala,11.2588,75.7804,28.2,80,0.0,1008.8,7.5,28.8,60,20.0,16.4,7,0,4,1,2026-04-04T01:10:23.926696+05:30
Thrissur,Kerala,10.5276,76.2144,27.3,82,0.0,1008.0,8.75,29.9,67,26.5,25.1,7,0,4,1,2026-04-04T01:10:23.926705+05:30
Kannur,Kerala,11.8745,75.3704,27.2,82,0.0,1008.2,7.65,28.1,72,29.1,26.2,7,0,4,1,2026-04-04T01:10:23.926714+05:30
Patna,Bihar,25.5941,85.1376,26.5,66,0.0,999.7,7.85,38.5,86,29.4,22.6,7,5,7,1,2026-04-04T01:10:23.926722+05:30
Gaya,Bihar,24.7914,85.0002,26.0,68,0.0,993.4,8.25,27.4,79,26.7,23.3,7,5,7,1,2026-04-04T01:10:23.926730+05:30
Muzaffarpur,Bihar,26.1209,85.3647,24.9,68,0.0,999.5,8.0,39.6,82,32.0,22.4,3,5,7,1,2026-04-04T01:10:23.926738+05:30
Bhagalpur,Bihar,25.2425,87.0117,25.8,68,0.0,999.8,8.2,28.1,77,28.2,26.1,7,5,7,1,2026-04-04T01:10:23.926746+05:30
Ranchi,Jharkhand,23.3441,85.3096,24.8,59,0.0,938.0,8.1,31.7,69,32.8,26.5,0,5,7,1,2026-04-04T01:10:23.926754+05:30
Jamshedpur,Jharkhand,22.8046,86.2029,27.7,66,0.0,990.2,8.45,26.6,108,41.2,35.9,7,5,7,1,2026-04-04T01:10:23.926762+05:30
Dhanbad,Jharkhand,23.7957,86.4304,28.2,52,0.0,978.9,7.85,25.9,139,48.3,44.2,4,5,7,1,2026-04-04T01:10:23.926771+05:30
Bokaro,Jharkhand,23.6693,86.1511,28.2,51,0.0,983.5,7.7,35.6,138,52.3,48.3,4,5,7,1,2026-04-04T01:10:23.926779+05:30
Bhubaneswar,Odisha,20.2961,85.8245,26.9,93,0.0,1002.6,8.95,27.0,57,15.4,13.6,7,5,4,1,2026-04-04T01:10:23.926787+05:30
Cuttack,Odisha,20.4625,85.8828,27.2,90,0.0,1004.4,9.0,30.2,57,15.4,13.6,7,5,4,1,2026-04-04T01:10:23.926796+05:30
Rourkela,Odisha,22.2604,84.8536,27.3,69,0.0,985.2,8.05,49.7,119,48.8,43.8,7,5,7,1,2026-04-04T01:10:23.926805+05:30
Raipur,Chhattisgarh,21.2514,81.6296,25.6,75,0.0,975.7,8.15,35.6,141,49.6,47.3,7,5,7,1,2026-04-04T01:10:23.926813+05:30
Bhilai,Chhattisgarh,21.1938,81.3509,25.5,74,0.0,976.0,8.1,29.2,109,29.9,27.2,7,5,7,1,2026-04-04T01:10:23.926821+05:30
Guwahati,Assam,26.1158,91.7086,25.0,89,0.0,1000.6,8.25,31.7,142,58.0,53.2,7,5,4,1,2026-04-04T01:10:23.926829+05:30
Agartala,Tripura,23.8315,91.2868,26.6,95,0.0,1004.7,8.5,29.2,69,12.1,10.6,7,5,4,1,2026-04-04T01:10:23.926836+05:30
Shillong,Meghalaya,25.5788,91.8933,16.3,83,0.0,855.8,8.55,57.6,106,44.2,38.2,3,10,7,0,2026-04-04T01:10:23.926843+05:30
Imphal,Manipur,24.817,93.9368,19.6,82,0.0,922.8,8.65,84.6,115,72.4,61.9,3,10,7,1,2026-04-04T01:10:23.926850+05:30
Aizawl,Mizoram,23.7271,92.7176,19.6,84,0.0,891.8,8.65,55.1,116,54.8,43.0,3,10,7,1,2026-04-04T01:10:23.926857+05:30
Kohima,Nagaland,25.6701,94.1077,16.0,85,0.0,854.4,8.55,94.0,98,51.1,44.1,3,10,7,0,2026-04-04T01:10:23.926863+05:30
Gangtok,Sikkim,27.3314,88.6138,16.0,94,0.0,837.0,8.3,18.0,106,47.3,38.5,3,10,7,0,2026-04-04T01:10:23.926888+05:30
Siliguri,West Bengal,26.7271,88.3953,22.4,76,0.0,993.4,8.2,27.7,154,95.7,79.9,3,5,7,1,2026-04-04T01:10:27.254365+05:30
Durgapur,West Bengal,23.5204,87.3119,28.3,75,0.0,993.5,8.55,18.7,159,83.6,78.7,7,5,7,1,2026-04-04T01:10:27.254397+05:30
Asansol,West Bengal,23.6739,86.9524,29.7,65,0.0,992.1,8.35,18.0,135,46.0,41.4,7,5,7,1,2026-04-04T01:10:27.254408+05:30
Pondicherry,Puducherry,11.9139,79.8145,26.5,96,0.0,1009.4,8.4,22.0,47,11.0,7.7,7,0,4,1,2026-04-04T01:10:27.254418+05:30
Port Blair,Andaman and Nicobar Islands,11.6234,92.7265,28.5,75,0.0,1006.4,8.7,21.2,40,19.0,10.3,7,5,4,1,2026-04-04T01:10:27.254426+05:30
Haridwar,Uttarakhand,29.9457,78.1642,21.9,82,0.0,976.3,5.35,34.9,91,58.6,40.5,3,5,3,1,2026-04-04T01:10:27.254435+05:30
Rishikesh,Uttarakhand,30.0869,78.2676,22.5,64,0.0,969.2,5.7,27.4,99,58.7,32.1,3,5,3,0,2026-04-04T01:10:27.254445+05:30
Nainital,Uttarakhand,29.3919,79.4542,19.4,42,0.0,807.9,4.75,36.4,85,49.4,26.3,0,5,3,0,2026-04-04T01:10:27.254453+05:30
Mussoorie,Uttarakhand,30.4599,78.0664,16.7,61,0.0,804.3,4.95,40.7,75,42.1,28.6,3,5,3,0,2026-04-04T01:10:27.254462+05:30
Dharamshala,Himachal Pradesh,32.219,76.3234,15.3,86,0.0,869.6,6.75,46.8,48,6.0,3.1,3,10,7,0,2026-04-04T01:10:27.254470+05:30
Dalhousie,Himachal Pradesh,32.5387,75.971,12.3,82,0.0,803.6,6.3,46.8,54,22.0,10.9,3,10,7,0,2026-04-04T01:10:27.254479+05:30
Patiala,Punjab,30.3398,76.3869,19.7,90,0.0,980.5,5.35,28.4,132,187.7,43.7,3,10,3,1,2026-04-04T01:10:27.254487+05:30
Bhatinda,Punjab,30.211,74.9455,19.0,95,0.0,986.0,6.75,31.0,86,177.4,40.7,3,10,7,1,2026-04-04T01:10:27.254495+05:30
Rohtak,Haryana,28.8955,76.6066,20.7,87,0.0,983.9,6.05,38.9,459,245.9,61.2,3,5,7,1,2026-04-04T01:10:27.254504+05:30
Panipat,Haryana,29.3909,76.9635,20.5,88,0.0,982.5,5.8,34.9,839,631.4,94.1,3,5,3,1,2026-04-04T01:10:27.254512+05:30
Mathura,Uttar Pradesh,27.4924,77.6737,23.0,71,0.0,989.0,6.0,31.7,573,283.1,50.8,3,5,3,1,2026-04-04T01:10:27.254520+05:30
Vrindavan,Uttar Pradesh,27.5823,77.7027,22.7,69,0.0,989.2,5.85,33.1,573,283.1,50.8,3,5,3,1,2026-04-04T01:10:27.254528+05:30
Ayodhya,Uttar Pradesh,26.7922,82.1998,24.3,69,0.0,995.3,7.05,37.4,83,141.1,44.2,3,5,7,1,2026-04-04T01:10:27.254537+05:30
Ratlam,Madhya Pradesh,23.3315,75.0367,24.5,61,0.0,955.4,8.1,35.6,67,38.4,21.4,3,5,7,1,2026-04-04T01:10:27.254545+05:30
Sagar,Madhya Pradesh,23.8388,78.7378,25.1,60,0.0,951.8,8.05,34.6,65,31.4,28.3,4,5,7,1,2026-04-04T01:10:27.254554+05:30
Satna,Madhya Pradesh,24.6005,80.8322,26.2,65,0.0,972.3,6.45,50.4,68,29.6,26.1,7,5,7,1,2026-04-04T01:10:27.254562+05:30
Akola,Maharashtra,20.7002,77.0082,26.5,68,0.0,975.9,7.1,23.0,98,41.3,37.6,7,5,7,1,2026-04-04T01:10:27.254571+05:30
Amravati,Maharashtra,20.9374,77.7796,25.7,69,0.0,967.8,7.15,27.4,96,41.3,37.4,7,5,7,1,2026-04-04T01:10:27.254580+05:30
Latur,Maharashtra,18.4088,76.5604,23.5,80,0.0,940.9,8.9,27.4,98,53.0,46.8,3,5,7,1,2026-04-04T01:10:27.254589+05:30
Nanded,Maharashtra,19.1383,77.3091,24.9,78,0.0,969.7,8.2,28.4,97,38.6,35.3,3,5,7,1,2026-04-04T01:10:27.254596+05:30
Gulbarga,Karnataka,17.3297,76.8343,27.6,60,0.0,959.3,8.55,34.6,89,33.5,30.2,4,5,7,1,2026-04-04T01:10:27.254603+05:30
Bidar,Karnataka,17.9104,77.5199,24.3,78,0.0,935.7,8.4,30.2,91,46.3,41.1,3,5,7,1,2026-04-04T01:10:27.254610+05:30
Hospet,Karnataka,15.2689,76.3909,27.1,75,0.0,956.5,8.5,24.5,91,27.3,26.3,7,5,7,1,2026-04-04T01:10:27.254616+05:30
Tirupur,Tamil Nadu,11.1085,77.3411,26.9,76,0.0,975.9,8.9,33.1,72,26.9,25.6,7,5,7,1,2026-04-04T01:10:27.254623+05:30
Alappuzha,Kerala,9.4981,76.3388,27.7,83,0.0,1009.9,8.75,24.5,64,24.7,21.7,7,0,4,1,2026-04-04T01:10:27.254629+05:30
Munnar,Kerala,10.0889,77.0595,21.0,91,0.0,857.6,9.3,33.8,61,21.9,21.3,3,5,7,1,2026-04-04T01:10:27.254636+05:30
Silchar,Assam,24.8333,92.7789,25.2,84,0.0,1003.8,8.45,36.7,149,80.1,65.7,7,5,4,1,2026-04-04T01:10:27.254643+05:30
Dibrugarh,Assam,27.4728,94.912,22.8,94,0.0,995.8,8.15,13.0,96,36.0,32.6,3,5,7,1,2026-04-04T01:10:27.254649+05:30
