city,state,latitude,longitude,temp,humidity,rain,pressure,uv_index,wind_gusts,aqi,pm10,pm2_5,no2,co,o3,so2,mosquito_risk,arthritis_risk,migraine_risk,frizz_risk,updated_at
Delhi,Delhi,28.6139,77.209,28.8,76,0.0,976.8,7.4,32.0,155,218.9,74.0,31.4,725.0,97.0,33.6,7,5,7,1,2026-07-01T21:14:03.568482+05:30
Mumbai,Maharashtra,19.076,72.8777,26.2,93,0.5,1004.6,0.85,45.4,34,20.7,11.1,9.8,263.0,46.0,5.9,10,5,0,1,2026-07-01T21:14:03.568530+05:30
Bangalore,Karnataka,12.9716,77.5946,22.2,82,0.1,911.2,7.0,56.5,26,4.7,4.3,15.4,379.0,34.0,4.1,6,5,7,1,2026-07-01T21:14:03.568545+05:30
Hyderabad,Telangana,17.385,78.4867,24.8,83,0.1,950.4,6.0,49.3,30,5.7,5.0,9.0,251.0,52.0,4.0,6,5,3,1,2026-07-01T21:14:03.568555+05:30
Chennai,Tamil Nadu,13.0827,80.2707,31.0,59,0.0,1004.8,5.65,49.3,41,19.0,17.5,34.5,570.0,51.0,13.2,0,5,0,1,2026-07-01T21:14:03.568563+05:30
Kolkata,West Bengal,22.5726,88.3639,28.0,90,0.0,1000.6,8.5,24.8,90,34.6,33.4,19.3,735.0,61.0,12.5,7,5,4,1,2026-07-01T21:14:03.568571+05:30
Pune,Maharashtra,18.5204,73.8567,23.0,95,0.2,944.2,3.55,43.2,21,3.4,3.3,10.9,183.0,40.0,5.4,6,5,3,1,2026-07-01T21:14:03.568577+05:30
Ahmedabad,Gujarat,23.0225,72.5714,29.9,74,0.0,995.2,6.35,41.8,52,11.6,8.7,10.6,176.0,58.0,7.5,7,5,7,1,2026-07-01T21:14:03.568584+05:30
Jaipur,Rajasthan,26.9124,75.7873,30.7,66,0.0,953.7,8.2,35.3,137,71.0,37.8,22.9,339.0,53.0,7.7,3,5,7,1,2026-07-01T21:14:03.568590+05:30
Lucknow,Uttar Pradesh,26.8467,80.9462,29.0,87,0.0,987.3,7.35,26.6,110,68.7,49.2,29.3,519.0,69.0,12.2,7,5,7,1,2026-07-01T21:14:03.568600+05:30
Kanpur,Uttar Pradesh,26.4499,80.3319,30.1,77,0.0,985.3,5.6,29.9,111,97.8,43.4,19.8,316.0,85.0,8.2,3,5,3,1,2026-07-01T21:14:03.568606+05:30
Chandigarh,Chandigarh,30.7333,76.7794,25.6,91,0.0,962.8,3.4,37.4,104,113.4,58.2,38.8,875.0,82.0,13.5,7,5,3,1,2026-07-01T21:14:03.568613+05:30
Srinagar,Jammu and Kashmir,34.0837,74.7973,25.8,67,0.0,838.0,9.1,28.4,125,25.4,21.7,17.1,1006.0,97.0,4.0,7,5,7,1,2026-07-01T21:14:03.568619+05:30
Jammu,Jammu and Kashmir,32.7266,74.857,28.3,84,0.0,965.6,8.6,38.5,108,104.3,45.6,20.8,343.0,93.0,4.8,7,5,7,1,2026-07-01T21:14:03.568625+05:30
Amritsar,Punjab,31.634,74.8723,29.9,78,0.0,973.2,8.45,46.4,190,271.9,103.1,17.0,513.0,95.0,7.3,7,5,7,1,2026-07-01T21:14:03.568633+05:30
Ludhiana,Punjab,30.901,75.8573,28.6,79,0.0,971.9,7.15,43.2,179,87.5,46.1,16.6,368.0,107.0,13.2,7,5,7,1,2026-07-01T21:14:03.568640+05:30
Jalandhar,Punjab,31.326,75.5762,29.1,73,0.0,972.8,6.3,41.4,181,122.9,52.0,18.8,485.0,99.0,12.9,7,5,7,1,2026-07-01T21:14:03.568646+05:30
Dehradun,Uttarakhand,30.6284,78.0322,19.0,97,0.1,826.7,5.1,17.6,81,41.1,18.0,15.0,266.0,98.0,3.1,6,10,3,1,2026-07-01T21:14:03.568655+05:30
Shimla,Himachal Pradesh,31.1048,77.1734,16.2,98,0.0,780.8,5.25,16.2,73,79.6,28.6,25.9,579.0,78.0,1.0,3,10,3,0,2026-07-01T21:14:03.568661+05:30
Manali,Himachal Pradesh,32.2396,77.1887,20.3,90,0.0,815.9,6.35,41.0,54,11.7,10.7,109.2,281.0,16.0,0.5,3,5,7,1,2026-07-01T21:14:03.568670+05:30
Gurgaon,Haryana,28.4595,77.0266,29.3,77,0.0,975.2,7.65,33.5,456,624.0,120.1,33.4,937.0,95.0,25.1,7,5,7,1,2026-07-01T21:14:03.568676+05:30
Noida,Uttar Pradesh,28.5355,77.391,28.2,79,0.0,978.2,7.4,26.3,456,624.0,120.1,33.4,707.0,95.0,25.1,7,5,7,1,2026-07-01T21:14:03.568682+05:30
Ghaziabad,Uttar Pradesh,28.6692,77.4538,27.6,81,0.0,976.5,7.25,25.9,107,92.9,54.5,24.6,420.0,78.0,13.8,7,5,7,1,2026-07-01T21:14:03.568688+05:30
Faridabad,Haryana,28.4089,77.3178,28.7,78,0.0,977.6,7.5,29.9,456,624.0,120.1,33.4,512.0,95.0,25.1,7,5,7,1,2026-07-01T21:14:03.568694+05:30
Meerut,Uttar Pradesh,28.9845,77.7064,27.4,89,0.0,975.4,7.2,26.3,107,92.9,54.5,24.6,558.0,78.0,13.8,7,5,7,1,2026-07-01T21:14:03.568700+05:30
Agra,Uttar Pradesh,27.1767,78.0081,29.7,78,0.0,981.5,2.7,28.1,140,138.3,51.7,28.2,639.0,72.0,11.2,7,5,3,1,2026-07-01T21:14:03.568706+05:30
Varanasi,Uttar Pradesh,25.3176,82.9739,27.5,96,0.2,992.3,7.9,23.0,124,28.9,27.6,15.9,795.0,88.0,9.6,10,5,7,1,2026-07-01T21:14:03.568713+05:30
Prayagraj,Uttar Pradesh,25.4358,81.8463,29.6,89,0.0,989.9,8.3,24.5,140,41.0,37.0,15.9,402.0,102.0,9.1,7,5,7,1,2026-07-01T21:14:03.568719+05:30
Gorakhpur,Uttar Pradesh,26.7606,83.3732,28.5,93,0.0,991.8,7.1,26.3,159,70.1,66.6,20.4,479.0,100.0,12.7,7,5,7,1,2026-07-01T21:14:03.568725+05:30
Bareilly,Uttar Pradesh,28.367,79.4304,28.0,89,0.0,980.6,6.05,27.0,125,71.7,51.0,26.5,442.0,74.0,10.1,7,5,7,1,2026-07-01T21:14:03.568736+05:30
Aligarh,Uttar Pradesh,27.8974,78.088,27.9,77,0.0,979.6,6.55,29.2,113,90.1,57.5,43.4,379.0,54.0,20.6,7,5,7,1,2026-07-01T21:14:03.568743+05:30
Moradabad,Uttar Pradesh,28.8386,78.7733,27.2,88,0.0,977.8,7.5,24.5,120,114.1,72.4,33.1,463.0,90.0,21.3,7,5,7,1,2026-07-01T21:14:03.568748+05:30
Saharanpur,Uttar Pradesh,29.9637,77.546,26.4,92,0.0,969.6,6.5,28.8,99,111.5,61.0,23.6,656.0,76.0,9.2,7,5,7,1,2026-07-01T21:14:03.568754+05:30
Jhansi,Uttar Pradesh,25.4484,78.5685,30.5,65,0.0,971.9,8.2,32.8,75,73.8,34.7,17.0,300.0,57.0,6.1,3,5,7,1,2026-07-01T21:14:06.963521+05:30
Surat,Gujarat,21.1702,72.8311,26.1,97,0.2,1000.9,5.55,34.9,64,21.5,16.6,25.5,438.0,29.0,38.1,10,5,0,1,2026-07-01T21:14:06.963558+05:30
Vadodara,Gujarat,22.3072,73.1812,28.1,85,0.0,998.1,6.1,37.4,56,16.5,14.5,21.9,225.0,47.0,17.8,7,5,7,1,2026-07-01T21:14:06.963569+05:30
Rajkot,Gujarat,22.3039,70.8022,27.7,88,0.0,987.5,5.25,35.3,54,37.1,19.3,4.3,159.0,56.0,4.4,7,5,3,1,2026-07-01T21:14:06.963578+05:30
Thane,Maharashtra,19.2183,72.9781,25.3,96,0.4,1003.9,0.6,30.6,34,20.7,11.1,9.8,309.0,46.0,5.9,10,5,0,1,2026-07-01T21:14:06.963586+05:30
Nagpur,Maharashtra,21.1458,79.0882,26.6,96,0.2,968.1,7.35,25.6,55,19.2,17.7,22.7,296.0,48.0,8.7,10,5,7,1,2026-07-01T21:14:06.963594+05:30
Nashik,Maharashtra,19.9975,73.7898,23.2,97,0.0,940.8,2.45,40.0,23,3.3,2.6,9.9,153.0,38.0,2.5,3,5,3,1,2026-07-01T21:14:06.963601+05:30
Aurangabad,Maharashtra,19.8762,75.3433,23.8,94,0.1,939.8,7.5,40.0,27,4.2,3.8,9.3,162.0,44.0,4.1,6,5,7,1,2026-07-01T21:14:06.963608+05:30
Solapur,Maharashtra,17.6599,75.9064,24.1,93,0.1,954.4,7.65,43.2,27,4.8,4.1,6.6,155.0,41.0,2.1,6,5,7,1,2026-07-01T21:14:06.963616+05:30
Kolhapur,Maharashtra,16.705,74.2433,21.8,96,0.2,945.7,7.05,55.1,22,4.6,4.3,7.7,175.0,42.0,2.0,6,5,7,1,2026-07-01T21:14:06.963624+05:30
Goa,Goa,15.2993,74.124,24.0,99,0.5,997.9,3.3,34.6,32,14.3,8.0,2.3,259.0,51.0,0.7,6,5,3,1,2026-07-01T21:14:06.963632+05:30
Jodhpur,Rajasthan,26.2389,73.0243,35.6,40,0.0,974.7,8.4,37.8,133,153.2,40.6,9.0,180.0,59.0,1.9,0,5,10,1,2026-07-01T21:14:06.963639+05:30
Udaipur,Rajasthan,24.5854,73.7125,28.0,73,0.1,940.3,8.75,32.4,55,22.5,14.8,5.5,182.0,71.0,3.3,10,5,7,1,2026-07-01T21:14:06.963647+05:30
Kota,Rajasthan,25.2138,75.8648,30.7,68,0.0,972.1,7.25,24.5,75,50.6,35.9,22.5,343.0,56.0,7.4,3,5,7,1,2026-07-01T21:14:06.963655+05:30
Bikaner,Rajasthan,28.0229,73.3119,36.8,36,0.0,973.0,8.45,39.2,157,82.4,29.7,3.9,144.0,68.0,2.3,0,5,10,1,2026-07-01T21:14:06.963662+05:30
Ajmer,Rajasthan,26.4499,74.6399,31.3,58,0.0,948.3,8.35,42.1,72,31.3,22.3,11.7,227.0,61.0,3.3,0,5,7,1,2026-07-01T21:14:06.963669+05:30
Gwalior,Madhya Pradesh,26.2183,78.1828,28.6,83,0.0,976.9,1.25,33.1,67,55.8,29.1,9.1,290.0,90.0,4.4,7,5,3,1,2026-07-01T21:14:06.963677+05:30
Indore,Madhya Pradesh,22.7196,75.8577,25.3,93,0.0,943.1,7.65,26.6,58,32.5,29.7,26.3,768.0,44.0,7.5,7,5,7,1,2026-07-01T21:14:06.963684+05:30
Bhopal,Madhya Pradesh,23.2599,77.4126,25.9,90,0.0,948.0,7.6,33.1,65,25.3,20.4,11.1,430.0,70.0,3.7,7,5,7,1,2026-07-01T21:14:06.963691+05:30
Jabalpur,Madhya Pradesh,23.1815,79.9864,25.7,95,0.0,956.1,8.25,29.2,64,33.1,22.6,9.3,360.0,78.0,2.6,7,5,7,1,2026-07-01T21:14:06.963697+05:30
Ujjain,Madhya Pradesh,23.1765,75.7885,25.0,95,0.0,948.3,8.05,27.4,57,24.7,21.6,9.5,390.0,66.0,4.3,7,5,7,1,2026-07-01T21:14:06.963704+05:30
Visakhapatnam,Andhra Pradesh,17.6868,83.2185,29.3,75,0.0,998.1,5.45,38.9,70,16.5,15.7,27.5,309.0,52.0,41.7,7,5,3,1,2026-07-01T21:14:06.963711+05:30
Vijayawada,Andhra Pradesh,16.5062,80.648,31.3,61,0.0,998.4,5.2,51.5,48,19.6,17.5,13.7,328.0,50.0,6.8,3,5,3,1,2026-07-01T21:14:06.963718+05:30
Guntur,Andhra Pradesh,16.3067,80.4365,31.8,54,0.0,999.9,4.2,50.4,38,15.8,13.3,10.5,247.0,56.0,6.3,0,5,3,1,2026-07-01T21:14:06.963725+05:30
Nellore,Andhra Pradesh,14.4426,79.9865,32.6,50,0.0,1003.0,3.7,55.8,32,6.5,5.9,8.1,123.0,45.0,2.8,0,5,0,1,2026-07-01T21:14:06.963733+05:30
Kurnool,Andhra Pradesh,15.8281,78.0373,26.8,73,0.0,975.4,3.0,55.1,30,6.0,4.6,7.9,153.0,45.0,1.9,7,5,3,1,2026-07-01T21:14:06.963741+05:30
Kakinada,Andhra Pradesh,16.9891,82.2475,28.4,78,0.0,1002.8,5.0,52.6,50,13.9,11.8,7.7,248.0,75.0,4.5,7,5,0,1,2026-07-01T21:14:06.963748+05:30
Tirupati,Andhra Pradesh,13.6288,79.4192,31.0,52,0.0,989.3,3.55,53.3,25,17.2,16.8,32.1,217.0,11.0,3.7,0,5,3,1,2026-07-01T21:14:06.963756+05:30
Warangal,Telangana,17.9689,79.5941,26.6,83,0.1,975.0,2.3,41.0,36,13.6,12.1,11.2,322.0,52.0,4.3,10,5,3,1,2026-07-01T21:14:06.963763+05:30
Nizamabad,Telangana,18.6725,78.0941,24.5,93,0.2,961.2,1.95,38.9,33,6.1,5.7,6.5,171.0,53.0,2.4,6,5,3,1,2026-07-01T21:14:06.963769+05:30
Mysore,Karnataka,12.2958,76.6396,21.5,93,0.1,928.4,4.8,57.6,24,3.5,3.3,10.6,168.0,36.0,2.0,6,5,3,1,2026-07-01T21:14:06.963776+05:30
Mangalore,Karnataka,12.9141,74.856,25.1,95,0.1,1008.0,1.0,38.9,26,11.3,8.3,8.7,123.0,36.0,2.1,10,0,0,1,2026-07-01T21:14:06.963783+05:30
Hubli-Dharwad,Karnataka,15.3647,75.124,22.0,97,0.3,939.7,5.55,49.7,20,1.9,1.8,6.8,140.0,41.0,1.2,6,5,3,1,2026-07-01T21:14:06.963789+05:30
Belgaum,Karnataka,15.8497,74.4977,20.7,98,0.1,924.0,3.7,46.1,21,1.7,1.6,5.3,117.0,45.0,1.2,6,5,3,1,2026-07-01T21:14:10.265229+05:30
Coimbatore,Tamil Nadu,11.0168,76.9558,23.4,90,0.0,962.0,3.15,57.6,23,6.4,5.5,9.0,216.0,37.0,3.1,3,5,3,1,2026-07-01T21:14:10.265268+05:30
Madurai,Tamil Nadu,9.9252,78.1198,29.9,57,0.0,992.5,8.55,60.1,41,17.9,11.6,14.8,155.0,35.0,4.3,4,5,7,1,2026-07-01T21:14:10.265280+05:30
Trichy,Tamil Nadu,10.7905,78.7047,30.1,55,0.0,999.1,6.0,68.0,26,12.2,7.9,7.4,131.0,41.0,2.8,0,5,3,1,2026-07-01T21:14:10.265289+05:30
Salem,Tamil Nadu,11.6643,78.146,28.1,66,0.0,977.1,2.8,37.1,40,13.2,10.6,15.3,291.0,37.0,6.3,7,5,3,1,2026-07-01T21:14:10.265297+05:30
Tirunelveli,Tamil Nadu,8.7139,77.7567,30.3,57,0.0,1003.6,8.65,40.0,32,13.2,8.7,6.0,156.0,47.0,1.9,0,5,4,1,2026-07-01T21:14:10.265305+05:30
Vellore,Tamil Nadu,12.9165,79.1325,30.3,53,0.0,983.0,3.3,53.3,32,9.7,8.6,12.3,153.0,46.0,3.6,0,5,3,1,2026-07-01T21:14:10.265313+05:30
Erode,Tamil Nadu,11.341,77.7172,27.1,71,0.0,988.9,1.9,41.8,36,12.3,10.1,15.8,207.0,36.0,3.6,7,5,3,1,2026-07-01T21:14:10.265321+05:30
Kochi,Kerala,9.9312,76.2673,25.9,88,0.1,1010.8,3.35,35.6,51,22.0,17.9,22.6,213.0,20.0,4.9,10,0,0,1,2026-07-01T21:14:10.265328+05:30
Thiruvananthapuram,Kerala,8.5241,76.9366,25.8,88,0.0,1009.7,8.25,39.2,42,17.2,9.8,4.5,160.0,46.0,1.5,7,0,4,1,2026-07-01T21:14:10.265336+05:30
Kozhikode,Kerala,11.2588,75.7804,24.0,99,0.2,1010.1,1.6,30.2,23,10.8,6.1,2.0,294.0,49.0,0.9,6,0,0,1,2026-07-01T21:14:10.265343+05:30
Thrissur,Kerala,10.5276,76.2144,24.3,97,0.2,1009.2,2.55,34.2,50,19.8,16.4,15.4,361.0,27.0,4.2,6,0,0,1,2026-07-01T21:14:10.265350+05:30
Kannur,Kerala,11.8745,75.3704,24.6,96,0.2,1009.2,1.6,34.2,27,13.2,9.8,15.3,338.0,29.0,2.7,6,0,0,1,2026-07-01T21:14:10.265358+05:30
Patna,Bihar,25.5941,85.1376,28.4,91,0.0,995.3,8.05,25.9,138,60.8,60.1,29.8,600.0,82.0,17.9,7,5,7,1,2026-07-01T21:14:10.265366+05:30
Gaya,Bihar,24.7914,85.0002,26.6,97,0.2,988.7,8.55,20.5,120,50.1,49.7,16.8,422.0,84.0,12.9,10,5,7,1,2026-07-01T21:14:10.265373+05:30
Muzaffarpur,Bihar,26.1209,85.3647,28.5,91,0.0,995.6,7.6,29.5,148,52.6,51.7,22.9,498.0,90.0,13.3,7,5,7,1,2026-07-01T21:14:10.265379+05:30
Bhagalpur,Bihar,25.2425,87.0117,28.8,87,0.0,996.5,8.15,28.4,130,38.5,38.2,16.1,412.0,98.0,12.9,7,5,7,1,2026-07-01T21:14:10.265387+05:30
Ranchi,Jharkhand,23.3441,85.3096,23.9,96,0.1,933.0,8.95,23.0,88,29.3,29.1,12.8,308.0,91.0,8.5,6,5,7,1,2026-07-01T21:14:10.265394+05:30
Jamshedpur,Jharkhand,22.8046,86.2029,26.8,98,0.0,985.5,9.05,22.3,144,37.4,37.1,23.3,503.0,71.0,21.5,7,5,7,1,2026-07-01T21:14:10.265400+05:30
Dhanbad,Jharkhand,23.7957,86.4304,26.8,96,0.0,974.9,6.2,23.4,165,68.0,67.8,44.2,660.0,89.0,102.9,7,5,7,1,2026-07-01T21:14:10.265407+05:30
Bokaro,Jharkhand,23.6693,86.1511,27.0,90,0.1,978.7,7.55,33.8,189,76.6,76.4,41.5,980.0,107.0,117.0,10,5,7,1,2026-07-01T21:14:10.265414+05:30
Bhubaneswar,Odisha,20.2961,85.8245,27.3,96,0.0,996.5,6.35,21.2,58,21.6,21.0,19.9,466.0,50.0,5.3,7,5,7,1,2026-07-01T21:14:10.265421+05:30
Cuttack,Odisha,20.4625,85.8828,27.3,97,0.1,998.4,4.95,25.6,58,21.6,21.0,19.9,448.0,50.0,5.3,10,5,3,1,2026-07-01T21:14:10.265427+05:30
Rourkela,Odisha,22.2604,84.8536,27.3,92,0.1,979.3,5.55,36.0,104,28.9,28.8,14.2,762.0,106.0,17.8,10,5,3,1,2026-07-01T21:14:10.265434+05:30
Raipur,Chhattisgarh,21.2514,81.6296,26.6,95,0.0,969.3,6.95,32.4,77,21.2,20.7,37.6,450.0,52.0,54.1,7,5,7,1,2026-07-01T21:14:10.265441+05:30
Bhilai,Chhattisgarh,21.1938,81.3509,26.4,92,0.1,969.8,1.95,32.8,70,20.4,19.9,33.0,1180.0,58.0,46.9,10,5,3,1,2026-07-01T21:14:10.265447+05:30
Guwahati,Assam,26.1158,91.7086,26.9,98,0.0,997.7,8.6,22.0,41,20.1,19.9,13.9,310.0,36.0,2.7,7,5,7,1,2026-07-01T21:14:10.265453+05:30
Agartala,Tripura,23.8315,91.2868,27.4,87,0.0,1002.3,8.45,30.6,69,17.0,16.9,14.4,211.0,44.0,2.5,7,5,4,1,2026-07-01T21:14:10.265460+05:30
Shillong,Meghalaya,25.5788,91.8933,20.2,94,0.0,855.4,7.4,24.1,34,9.3,9.2,8.8,392.0,62.0,2.7,3,5,7,1,2026-07-01T21:14:10.265467+05:30
Imphal,Manipur,24.817,93.9368,24.7,93,0.0,920.9,9.2,27.7,32,21.1,20.8,27.4,832.0,33.0,5.2,3,5,7,1,2026-07-01T21:14:10.265474+05:30
Aizawl,Mizoram,23.7271,92.7176,20.9,97,0.1,889.7,8.0,28.8,28,7.9,7.8,12.2,159.0,23.0,1.0,6,5,7,1,2026-07-01T21:14:10.265482+05:30
Kohima,Nagaland,25.6701,94.1077,20.1,97,0.0,853.3,5.45,22.0,27,8.6,8.5,18.2,354.0,20.0,1.5,3,5,3,1,2026-07-01T21:14:10.265488+05:30
Gangtok,Sikkim,27.3314,88.6138,19.4,93,0.1,837.1,7.5,29.9,79,15.1,14.3,9.8,345.0,108.0,2.1,6,10,7,1,2026-07-01T21:14:10.265495+05:30
Siliguri,West Bengal,26.7271,88.3953,27.5,88,0.0,989.2,8.6,27.7,110,47.6,45.2,13.6,576.0,104.0,4.8,7,5,7,1,2026-07-01T21:14:13.713337+05:30
Durgapur,West Bengal,23.5204,87.3119,28.0,94,0.0,989.6,8.6,28.4,158,56.7,56.5,25.5,722.0,105.0,31.4,7,5,7,1,2026-07-01T21:14:13.713375+05:30
Asansol,West Bengal,23.6739,86.9524,27.7,94,0.0,988.3,6.25,31.7,171,56.7,56.5,30.7,703.0,102.0,41.1,7,5,7,1,2026-07-01T21:14:13.713386+05:30
Pondicherry,Puducherry,11.9139,79.8145,32.3,47,0.0,1006.7,1.85,47.5,46,15.5,12.5,16.1,364.0,64.0,15.4,0,5,0,1,2026-07-01T21:14:13.713395+05:30
Port Blair,Andaman and Nicobar Islands,11.6234,92.7265,27.1,85,0.1,1006.6,4.85,49.3,30,10.0,6.0,0.3,98.0,61.0,0.4,10,5,0,1,2026-07-01T21:14:13.713404+05:30
Haridwar,Uttarakhand,29.9457,78.1642,25.6,94,0.0,968.0,4.95,24.5,93,92.7,51.9,21.7,470.0,67.0,8.8,7,5,3,1,2026-07-01T21:14:13.713413+05:30
Rishikesh,Uttarakhand,30.0869,78.2676,25.4,94,0.0,960.7,6.4,13.7,74,79.2,36.0,15.1,356.0,93.0,7.4,7,5,7,1,2026-07-01T21:14:13.713421+05:30
Nainital,Uttarakhand,29.3919,79.4542,17.6,99,0.0,802.5,5.6,20.2,75,43.3,24.4,12.4,397.0,90.0,2.7,3,10,3,1,2026-07-01T21:14:13.713429+05:30
Mussoorie,Uttarakhand,30.4599,78.0664,17.5,98,0.0,799.5,3.9,22.7,90,95.9,44.6,24.2,438.0,76.0,9.6,3,10,3,1,2026-07-01T21:14:13.713436+05:30
Dharamshala,Himachal Pradesh,32.219,76.3234,22.2,97,0.0,864.9,4.7,32.8,71,14.1,7.9,17.3,305.0,69.0,0.9,3,5,3,1,2026-07-01T21:14:13.713444+05:30
Dalhousie,Himachal Pradesh,32.5387,75.971,17.9,98,0.0,801.0,7.55,29.2,116,123.4,39.3,19.0,417.0,114.0,4.4,3,10,7,1,2026-07-01T21:14:13.713452+05:30
Patiala,Punjab,30.3398,76.3869,28.0,79,0.0,971.9,7.3,43.6,257,96.2,50.5,15.1,337.0,105.0,12.6,7,5,7,1,2026-07-01T21:14:13.713460+05:30
Bhatinda,Punjab,30.211,74.9455,33.2,60,0.0,975.9,8.25,34.2,1004,341.8,119.7,19.2,232.0,90.0,7.0,0,5,7,1,2026-07-01T21:14:13.713468+05:30
Rohtak,Haryana,28.8955,76.6066,29.6,74,0.0,975.2,7.6,31.7,656,1091.5,181.6,31.5,382.0,111.0,29.9,7,5,7,1,2026-07-01T21:14:13.713474+05:30
Panipat,Haryana,29.3909,76.9635,27.4,85,0.0,974.1,7.55,30.6,997,2272.4,289.6,17.5,362.0,103.0,19.2,7,5,7,1,2026-07-01T21:14:13.713481+05:30
Mathura,Uttar Pradesh,27.4924,77.6737,30.5,67,0.0,980.7,3.4,37.1,151,176.0,52.5,32.4,611.0,71.0,7.2,3,5,3,1,2026-07-01T21:14:13.713488+05:30
Vrindavan,Uttar Pradesh,27.5823,77.7027,30.2,68,0.0,981.1,4.45,35.6,151,176.0,52.5,32.4,568.0,71.0,7.2,3,5,3,1,2026-07-01T21:14:13.713495+05:30
Ayodhya,Uttar Pradesh,26.7922,82.1998,29.6,88,0.0,989.5,6.4,24.5,139,56.9,52.0,18.2,447.0,96.0,7.9,7,5,7,1,2026-07-01T21:14:13.713501+05:30
Ratlam,Madhya Pradesh,23.3315,75.0367,25.8,90,0.0,949.3,7.35,28.4,54,22.7,20.5,8.9,200.0,62.0,4.1,7,5,7,1,2026-07-01T21:14:13.713507+05:30
Sagar,Madhya Pradesh,23.8388,78.7378,25.2,96,0.0,944.3,8.05,33.5,70,37.7,24.3,14.1,465.0,56.0,2.7,7,5,7,1,2026-07-01T21:14:13.713513+05:30
Satna,Madhya Pradesh,24.6005,80.8322,28.3,85,0.0,965.6,8.2,29.9,73,49.0,30.7,16.1,382.0,57.0,2.6,7,5,7,1,2026-07-01T21:14:13.713520+05:30
Akola,Maharashtra,20.7002,77.0082,26.3,91,0.1,970.8,1.0,37.1,43,13.6,11.7,11.7,181.0,61.0,4.2,10,5,3,1,2026-07-01T21:14:13.713527+05:30
Amravati,Maharashtra,20.9374,77.7796,25.4,95,0.1,962.9,5.4,31.3,45,16.2,13.5,14.0,242.0,57.0,5.4,10,5,3,1,2026-07-01T21:14:13.713534+05:30
Latur,Maharashtra,18.4088,76.5604,23.7,92,0.1,936.3,5.35,45.7,28,3.8,3.5,5.5,156.0,46.0,1.7,6,5,3,1,2026-07-01T21:14:13.713541+05:30
Nanded,Maharashtra,19.1383,77.3091,25.1,93,0.1,964.8,1.95,33.1,32,5.0,4.8,8.1,169.0,46.0,2.4,10,5,3,1,2026-07-01T21:14:13.713548+05:30
Gulbarga,Karnataka,17.3297,76.8343,23.9,94,0.2,956.2,4.75,52.2,28,8.1,5.9,8.4,159.0,46.0,2.8,6,5,3,1,2026-07-01T21:14:13.713554+05:30
Bidar,Karnataka,17.9104,77.5199,23.7,88,0.1,932.4,6.3,48.6,31,5.2,4.6,8.8,157.0,47.0,1.7,6,5,7,1,2026-07-01T21:14:13.713560+05:30
Hospet,Karnataka,15.2689,76.3909,23.2,94,0.1,954.8,4.15,56.9,24,4.3,2.9,6.1,147.0,43.0,1.6,6,5,3,1,2026-07-01T21:14:13.713566+05:30
Tirupur,Tamil Nadu,11.1085,77.3411,24.8,83,0.0,975.1,3.35,59.0,40,13.4,11.3,17.6,198.0,33.0,4.8,3,5,3,1,2026-07-01T21:14:13.713573+05:30
Alappuzha,Kerala,9.4981,76.3388,25.9,91,0.0,1010.7,2.4,34.2,45,19.8,13.5,13.6,92.0,36.0,3.3,7,0,0,1,2026-07-01T21:14:13.713579+05:30
Munnar,Kerala,10.0889,77.0595,16.6,100,0.0,857.4,4.25,46.1,22,11.4,8.2,9.3,92.0,36.0,2.2,3,10,3,1,2026-07-01T21:14:13.713586+05:30
Silchar,Assam,24.8333,92.7789,27.8,96,0.0,1001.2,8.65,26.3,57,24.0,23.7,12.1,398.0,50.0,6.1,7,5,4,1,2026-07-01T21:14:13.713592+05:30
Dibrugarh,Assam,27.4728,94.912,27.3,93,0.0,991.5,8.65,24.5,78,40.0,39.6,27.2,237.0,41.0,4.9,7,5,7,1,2026-07-01T21:14:13.713599+05:30
