city,state,latitude,longitude,temp,humidity,rain,pressure,uv_index,wind_gusts,aqi,pm10,pm2_5,no2,co,o3,so2,mosquito_risk,arthritis_risk,migraine_risk,frizz_risk,updated_at
Delhi,Delhi,28.6139,77.209,28.6,62,0.0,981.7,7.6,50.8,170,208.2,50.4,13.9,479.0,169.0,21.8,7,5,7,1,2026-05-31T16:30:45.267335+05:30
Mumbai,Maharashtra,19.076,72.8777,32.5,64,0.0,1007.2,7.8,40.3,61,27.8,16.9,4.2,154.0,73.0,4.1,3,5,4,1,2026-05-31T16:30:45.267384+05:30
Bangalore,Karnataka,12.9716,77.5946,29.6,53,0.0,911.0,9.25,42.8,82,26.1,18.5,17.0,463.0,99.0,4.4,4,5,7,1,2026-05-31T16:30:45.267401+05:30
Hyderabad,Telangana,17.385,78.4867,36.0,32,0.0,951.0,9.1,55.1,71,53.3,27.4,0.8,207.0,131.0,5.3,0,5,10,1,2026-05-31T16:30:45.267412+05:30
Chennai,Tamil Nadu,13.0827,80.2707,35.2,53,0.0,1003.6,8.2,38.2,86,33.1,25.3,5.3,280.0,162.0,9.0,0,5,7,1,2026-05-31T16:30:45.267422+05:30
Kolkata,West Bengal,22.5726,88.3639,31.2,71,0.1,1002.6,8.95,26.6,153,55.9,36.3,8.6,397.0,128.0,10.6,6,5,4,1,2026-05-31T16:30:45.267432+05:30
Pune,Maharashtra,18.5204,73.8567,31.3,50,0.0,947.5,6.2,42.1,54,44.7,19.4,1.8,136.0,101.0,4.1,0,5,7,1,2026-05-31T16:30:45.267441+05:30
Ahmedabad,Gujarat,23.0225,72.5714,40.2,29,0.0,997.6,8.1,53.3,71,103.1,25.5,1.1,135.0,92.0,3.4,0,5,10,1,2026-05-31T16:30:45.267450+05:30
Jaipur,Rajasthan,26.9124,75.7873,33.0,37,0.1,957.9,8.15,41.4,87,171.4,32.8,1.1,182.0,110.0,2.2,3,5,7,1,2026-05-31T16:30:45.267464+05:30
Lucknow,Uttar Pradesh,26.8467,80.9462,29.5,62,0.1,991.8,8.15,41.0,153,78.9,26.6,1.4,256.0,168.0,5.6,10,5,7,1,2026-05-31T16:30:45.267474+05:30
Kanpur,Uttar Pradesh,26.4499,80.3319,35.1,37,0.0,989.4,8.15,54.7,155,134.1,34.7,1.5,255.0,174.0,7.5,0,5,10,1,2026-05-31T16:30:45.267482+05:30
Chandigarh,Chandigarh,30.7333,76.7794,30.3,41,0.0,968.6,6.25,39.2,134,63.3,29.0,2.0,312.0,174.0,7.2,0,5,7,0,2026-05-31T16:30:45.267491+05:30
Srinagar,Jammu and Kashmir,34.0837,74.7973,27.4,34,0.0,841.6,9.0,27.0,123,50.4,19.8,0.0,277.0,146.0,2.9,4,5,7,0,2026-05-31T16:30:45.267500+05:30
Jammu,Jammu and Kashmir,32.7266,74.857,31.8,38,0.0,972.3,8.5,28.1,152,135.0,45.5,0.8,238.0,177.0,3.6,0,5,7,0,2026-05-31T16:30:45.267528+05:30
Amritsar,Punjab,31.634,74.8723,32.7,38,0.0,979.9,8.3,35.6,134,133.6,36.4,1.1,241.0,159.0,4.7,0,5,7,1,2026-05-31T16:30:45.267536+05:30
Ludhiana,Punjab,30.901,75.8573,32.5,36,0.0,977.8,7.85,38.5,128,125.3,34.6,1.4,318.0,161.0,6.4,0,5,7,0,2026-05-31T16:30:45.267544+05:30
Jalandhar,Punjab,31.326,75.5762,32.8,35,0.0,978.9,8.05,38.2,140,171.8,43.4,1.4,281.0,164.0,6.7,0,5,7,0,2026-05-31T16:30:45.267551+05:30
Dehradun,Uttarakhand,30.6284,78.0322,17.0,82,0.0,831.1,7.55,30.2,131,24.6,13.8,1.4,229.0,145.0,1.9,3,10,7,0,2026-05-31T16:30:45.267559+05:30
Shimla,Himachal Pradesh,31.1048,77.1734,13.2,89,0.0,784.0,3.95,22.3,120,23.9,17.5,3.5,282.0,154.0,2.6,3,10,3,0,2026-05-31T16:30:45.267569+05:30
Manali,Himachal Pradesh,32.2396,77.1887,19.3,66,0.0,819.2,6.85,33.5,129,12.8,6.2,1.5,161.0,161.0,0.3,3,5,7,0,2026-05-31T16:30:45.267577+05:30
Gurgaon,Haryana,28.4595,77.0266,29.9,56,0.0,979.8,7.7,46.4,880,218.9,45.8,8.5,427.0,152.0,11.5,4,5,7,1,2026-05-31T16:30:45.267586+05:30
Noida,Uttar Pradesh,28.5355,77.391,28.5,67,0.0,983.1,7.6,51.5,880,218.9,45.8,8.5,373.0,152.0,11.5,7,5,7,1,2026-05-31T16:30:45.267594+05:30
Ghaziabad,Uttar Pradesh,28.6692,77.4538,27.1,71,0.0,981.6,7.6,54.4,123,127.1,33.9,4.2,321.0,160.0,9.9,7,5,7,1,2026-05-31T16:30:45.267601+05:30
Faridabad,Haryana,28.4089,77.3178,28.0,66,0.0,982.3,7.65,49.7,880,218.9,45.8,8.5,419.0,152.0,11.5,7,5,7,1,2026-05-31T16:30:45.267608+05:30
Meerut,Uttar Pradesh,28.9845,77.7064,26.2,74,0.0,981.1,6.9,35.6,123,127.1,33.9,4.2,302.0,160.0,9.9,7,5,7,1,2026-05-31T16:30:45.267616+05:30
Agra,Uttar Pradesh,27.1767,78.0081,36.0,32,0.0,985.4,7.95,33.1,540,148.1,31.9,1.2,235.0,150.0,3.9,0,5,10,1,2026-05-31T16:30:45.267623+05:30
Varanasi,Uttar Pradesh,25.3176,82.9739,35.2,40,0.0,994.1,8.7,31.0,162,45.9,27.5,0.7,345.0,179.0,6.4,0,5,10,1,2026-05-31T16:30:45.267631+05:30
Prayagraj,Uttar Pradesh,25.4358,81.8463,36.5,32,0.0,992.6,8.55,25.2,162,63.6,24.9,1.1,257.0,173.0,6.1,0,5,10,1,2026-05-31T16:30:45.267639+05:30
Gorakhpur,Uttar Pradesh,26.7606,83.3732,33.8,46,0.0,994.5,8.55,26.3,154,48.7,32.6,1.4,312.0,169.0,7.5,0,5,7,1,2026-05-31T16:30:45.267653+05:30
Bareilly,Uttar Pradesh,28.367,79.4304,31.0,52,0.0,986.1,7.95,33.5,107,18.7,14.3,0.3,263.0,152.0,2.4,0,5,7,1,2026-05-31T16:30:45.267661+05:30
Aligarh,Uttar Pradesh,27.8974,78.088,27.0,71,0.0,984.7,7.75,44.6,167,209.5,41.0,2.0,277.0,160.0,8.6,7,5,7,1,2026-05-31T16:30:45.267668+05:30
Moradabad,Uttar Pradesh,28.8386,78.7733,25.8,82,0.3,983.4,7.75,30.2,116,22.4,15.9,1.3,314.0,152.0,6.8,10,5,7,1,2026-05-31T16:30:45.267676+05:30
Saharanpur,Uttar Pradesh,29.9637,77.546,28.5,59,0.0,975.8,3.9,32.8,126,46.9,23.6,2.8,306.0,149.0,3.6,4,5,3,1,2026-05-31T16:30:45.267683+05:30
Jhansi,Uttar Pradesh,25.4484,78.5685,35.5,32,0.0,975.6,8.4,19.4,118,24.3,12.7,1.3,210.0,148.0,6.4,0,5,10,1,2026-05-31T16:30:51.539442+05:30
Surat,Gujarat,21.1702,72.8311,33.7,57,0.0,1004.6,7.7,49.7,78,36.2,23.8,10.6,200.0,51.0,30.1,0,5,4,1,2026-05-31T16:30:51.539472+05:30
Vadodara,Gujarat,22.3072,73.1812,38.7,32,0.0,1000.6,8.05,43.6,74,81.5,24.7,1.1,139.0,96.0,2.2,0,5,7,1,2026-05-31T16:30:51.539482+05:30
Rajkot,Gujarat,22.3039,70.8022,39.9,28,0.0,990.2,7.7,43.6,68,61.9,26.4,1.1,110.0,97.0,4.2,0,5,10,1,2026-05-31T16:30:51.539491+05:30
Thane,Maharashtra,19.2183,72.9781,33.7,55,0.0,1006.3,7.8,37.1,61,27.8,16.9,4.2,146.0,73.0,4.1,0,5,4,1,2026-05-31T16:30:51.539499+05:30
Nagpur,Maharashtra,21.1458,79.0882,38.2,20,0.0,969.9,8.8,39.6,101,30.2,16.7,7.9,161.0,138.0,22.7,0,5,10,0,2026-05-31T16:30:51.539506+05:30
Nashik,Maharashtra,19.9975,73.7898,31.6,53,0.1,944.8,8.1,46.8,57,36.1,15.4,1.1,119.0,72.0,0.8,3,5,7,1,2026-05-31T16:30:51.539514+05:30
Aurangabad,Maharashtra,19.8762,75.3433,37.4,20,0.0,942.0,8.9,51.8,64,85.9,24.1,0.8,124.0,101.0,1.9,0,5,10,0,2026-05-31T16:30:51.539522+05:30
Solapur,Maharashtra,17.6599,75.9064,37.5,25,0.0,954.9,8.95,62.3,63,56.1,19.0,1.2,124.0,104.0,2.0,0,5,10,0,2026-05-31T16:30:51.539530+05:30
Kolhapur,Maharashtra,16.705,74.2433,32.8,48,0.1,946.9,8.75,47.5,40,24.0,10.8,2.3,131.0,82.0,1.5,3,5,7,1,2026-05-31T16:30:51.539538+05:30
Goa,Goa,15.2993,74.124,33.2,57,0.0,996.4,8.0,33.1,51,13.9,8.7,1.0,118.0,57.0,0.9,0,5,7,1,2026-05-31T16:30:51.539545+05:30
Jodhpur,Rajasthan,26.2389,73.0243,38.0,31,0.0,980.1,8.4,39.6,85,173.2,33.4,0.2,113.0,96.0,1.6,0,5,10,1,2026-05-31T16:30:51.539552+05:30
Udaipur,Rajasthan,24.5854,73.7125,35.7,31,0.0,945.0,8.8,36.7,66,72.6,23.2,0.5,124.0,100.0,2.7,0,5,10,0,2026-05-31T16:30:51.539560+05:30
Kota,Rajasthan,25.2138,75.8648,38.1,24,0.0,976.0,8.3,28.8,66,45.2,17.8,0.8,132.0,128.0,4.5,0,5,10,0,2026-05-31T16:30:51.539567+05:30
Bikaner,Rajasthan,28.0229,73.3119,36.6,33,0.0,979.2,8.35,28.1,59,202.6,43.3,0.3,125.0,102.0,2.6,0,5,10,1,2026-05-31T16:30:51.539575+05:30
Ajmer,Rajasthan,26.4499,74.6399,33.2,39,0.0,953.4,8.3,40.3,53,72.4,22.2,0.8,125.0,106.0,2.0,0,5,7,1,2026-05-31T16:30:51.539582+05:30
Gwalior,Madhya Pradesh,26.2183,78.1828,34.7,36,0.0,980.7,8.1,19.1,105,34.3,14.1,0.6,189.0,139.0,3.2,0,5,7,1,2026-05-31T16:30:51.539589+05:30
Indore,Madhya Pradesh,22.7196,75.8577,36.2,28,0.0,946.4,8.35,67.7,67,60.1,22.9,0.9,157.0,110.0,3.0,0,5,10,0,2026-05-31T16:30:51.539596+05:30
Bhopal,Madhya Pradesh,23.2599,77.4126,36.2,23,0.0,951.5,8.6,42.1,76,35.6,15.5,0.1,155.0,124.0,2.9,0,5,10,0,2026-05-31T16:30:51.539603+05:30
Jabalpur,Madhya Pradesh,23.1815,79.9864,31.5,44,0.0,959.7,8.8,48.6,101,34.2,15.7,1.7,172.0,130.0,2.4,0,5,7,1,2026-05-31T16:30:51.539610+05:30
Ujjain,Madhya Pradesh,23.1765,75.7885,36.2,30,0.0,951.9,8.45,52.6,66,55.5,22.4,0.6,136.0,112.0,3.5,0,5,10,0,2026-05-31T16:30:51.539618+05:30
Visakhapatnam,Andhra Pradesh,17.6868,83.2185,33.7,62,0.0,998.4,8.9,44.6,109,40.5,32.8,15.2,409.0,121.0,40.8,3,5,7,1,2026-05-31T16:30:51.539626+05:30
Vijayawada,Andhra Pradesh,16.5062,80.648,39.0,31,0.0,997.9,9.0,41.4,92,48.3,28.4,3.8,183.0,129.0,5.3,0,5,10,1,2026-05-31T16:30:51.539632+05:30
Guntur,Andhra Pradesh,16.3067,80.4365,38.6,32,0.0,999.2,8.55,45.0,85,48.8,27.4,1.8,188.0,132.0,4.9,0,5,10,1,2026-05-31T16:30:51.539639+05:30
Nellore,Andhra Pradesh,14.4426,79.9865,35.0,58,0.1,1002.2,8.45,33.1,89,32.0,24.3,2.8,155.0,154.0,4.5,3,5,4,1,2026-05-31T16:30:51.539648+05:30
Kurnool,Andhra Pradesh,15.8281,78.0373,37.0,35,0.0,973.8,9.0,55.1,60,41.2,21.2,0.4,133.0,126.0,6.7,0,5,10,1,2026-05-31T16:30:51.539655+05:30
Kakinada,Andhra Pradesh,16.9891,82.2475,37.2,48,0.0,1002.2,9.0,37.8,91,29.4,21.7,2.2,250.0,136.0,3.4,0,5,7,1,2026-05-31T16:30:51.539663+05:30
Tirupati,Andhra Pradesh,13.6288,79.4192,34.0,46,0.1,987.9,9.05,34.9,73,25.6,16.1,6.2,199.0,110.0,3.1,3,5,7,1,2026-05-31T16:30:51.539670+05:30
Warangal,Telangana,17.9689,79.5941,37.3,32,0.0,975.1,8.6,59.0,90,51.5,24.9,0.5,162.0,132.0,4.9,0,5,10,1,2026-05-31T16:30:51.539677+05:30
Nizamabad,Telangana,18.6725,78.0941,37.0,27,0.0,962.0,9.0,40.0,84,66.4,26.6,0.7,135.0,113.0,3.0,0,5,10,0,2026-05-31T16:30:51.539684+05:30
Mysore,Karnataka,12.2958,76.6396,26.4,73,0.2,927.9,9.1,44.6,52,15.7,10.9,4.1,184.0,102.0,1.2,10,5,7,1,2026-05-31T16:30:51.539691+05:30
Mangalore,Karnataka,12.9141,74.856,29.4,81,0.0,1006.2,8.6,29.5,43,10.7,7.3,1.6,150.0,73.0,1.7,7,5,4,1,2026-05-31T16:30:51.539697+05:30
Hubli-Dharwad,Karnataka,15.3647,75.124,33.0,43,0.1,939.7,8.9,43.6,37,14.6,9.0,1.7,145.0,79.0,0.9,3,5,7,1,2026-05-31T16:30:51.539704+05:30
Belgaum,Karnataka,15.8497,74.4977,29.2,59,0.1,925.5,7.55,44.6,35,13.8,8.0,1.8,130.0,74.0,1.2,7,5,7,1,2026-05-31T16:30:55.483902+05:30
Coimbatore,Tamil Nadu,11.0168,76.9558,30.5,60,0.2,960.7,8.1,43.2,42,8.3,6.3,3.1,157.0,82.0,1.9,3,5,7,1,2026-05-31T16:30:55.483932+05:30
Madurai,Tamil Nadu,9.9252,78.1198,35.0,46,0.0,990.2,8.7,33.1,97,36.2,17.2,1.2,165.0,138.0,2.4,0,5,7,1,2026-05-31T16:30:55.483943+05:30
Trichy,Tamil Nadu,10.7905,78.7047,34.2,45,0.0,996.8,8.9,34.2,53,25.6,13.2,4.8,140.0,126.0,3.0,0,5,7,1,2026-05-31T16:30:55.483951+05:30
Salem,Tamil Nadu,11.6643,78.146,33.3,46,0.1,975.6,8.95,47.9,122,31.7,19.9,3.4,188.0,165.0,8.2,3,5,7,1,2026-05-31T16:30:55.483960+05:30
Tirunelveli,Tamil Nadu,8.7139,77.7567,37.7,33,0.0,1000.2,8.35,24.5,35,8.1,4.9,1.7,121.0,75.0,0.8,0,5,7,1,2026-05-31T16:30:55.483967+05:30
Vellore,Tamil Nadu,12.9165,79.1325,33.0,54,0.1,981.8,8.7,37.1,99,28.7,19.4,6.3,191.0,114.0,2.5,3,5,7,1,2026-05-31T16:30:55.483975+05:30
Erode,Tamil Nadu,11.341,77.7172,35.8,38,0.0,986.5,8.5,27.7,68,25.7,13.5,2.7,167.0,131.0,2.0,0,5,10,1,2026-05-31T16:30:55.483982+05:30
Kochi,Kerala,9.9312,76.2673,26.1,87,0.3,1008.8,7.7,32.8,61,9.2,6.1,4.1,124.0,70.0,2.5,10,0,4,1,2026-05-31T16:30:55.483989+05:30
Thiruvananthapuram,Kerala,8.5241,76.9366,27.8,83,0.1,1007.9,7.3,31.3,31,7.0,4.3,1.1,115.0,68.0,0.5,10,5,4,1,2026-05-31T16:30:55.483997+05:30
Kozhikode,Kerala,11.2588,75.7804,27.9,86,0.1,1007.3,8.65,29.2,31,6.0,3.6,0.8,140.0,67.0,0.6,10,5,4,1,2026-05-31T16:30:55.484004+05:30
Thrissur,Kerala,10.5276,76.2144,28.6,79,0.1,1006.3,7.95,32.4,56,11.1,7.5,1.9,89.0,73.0,1.5,10,5,4,1,2026-05-31T16:30:55.484013+05:30
Kannur,Kerala,11.8745,75.3704,27.4,93,0.2,1006.7,7.2,31.0,39,8.2,5.8,1.9,161.0,65.0,1.1,10,5,4,1,2026-05-31T16:30:55.484020+05:30
Patna,Bihar,25.5941,85.1376,33.2,55,0.0,997.2,8.8,33.5,191,79.4,55.9,6.8,371.0,186.0,14.2,0,5,7,1,2026-05-31T16:30:55.484028+05:30
Gaya,Bihar,24.7914,85.0002,33.8,50,0.0,990.6,8.85,21.2,181,69.6,53.4,3.4,291.0,182.0,16.5,0,5,7,1,2026-05-31T16:30:55.484035+05:30
Muzaffarpur,Bihar,26.1209,85.3647,33.5,52,0.0,997.2,8.8,33.5,187,76.8,54.8,7.1,403.0,177.0,13.8,0,5,7,1,2026-05-31T16:30:55.484042+05:30
Bhagalpur,Bihar,25.2425,87.0117,33.5,55,0.0,997.6,8.8,25.9,202,91.3,64.0,5.2,341.0,217.0,26.9,0,5,7,1,2026-05-31T16:30:55.484049+05:30
Ranchi,Jharkhand,23.3441,85.3096,27.9,66,0.0,936.0,9.25,32.4,127,52.3,35.9,1.4,238.0,143.0,5.4,7,5,7,1,2026-05-31T16:30:55.484056+05:30
Jamshedpur,Jharkhand,22.8046,86.2029,26.8,88,0.1,988.4,5.55,36.7,113,54.4,34.8,4.5,384.0,133.0,9.6,10,5,3,1,2026-05-31T16:30:55.484063+05:30
Dhanbad,Jharkhand,23.7957,86.4304,31.7,57,0.0,977.1,8.85,24.5,164,86.8,69.2,17.7,450.0,189.0,54.6,0,5,7,1,2026-05-31T16:30:55.484071+05:30
Bokaro,Jharkhand,23.6693,86.1511,29.9,72,0.0,980.9,9.05,27.0,171,85.9,68.5,18.2,983.0,202.0,64.8,7,5,7,1,2026-05-31T16:30:55.484078+05:30
Bhubaneswar,Odisha,20.2961,85.8245,29.9,84,0.2,999.1,9.05,26.3,102,26.4,20.4,3.8,304.0,127.0,5.4,10,5,7,1,2026-05-31T16:30:55.484085+05:30
Cuttack,Odisha,20.4625,85.8828,29.1,88,0.3,1001.0,9.1,24.5,102,26.4,20.4,3.8,276.0,127.0,5.4,10,5,4,1,2026-05-31T16:30:55.484092+05:30
Rourkela,Odisha,22.2604,84.8536,31.2,62,0.0,981.8,8.35,37.1,151,68.9,46.4,3.4,284.0,181.0,16.2,3,5,7,1,2026-05-31T16:30:55.484099+05:30
Raipur,Chhattisgarh,21.2514,81.6296,39.0,21,0.0,970.7,8.85,31.3,138,42.1,25.8,5.1,226.0,169.0,23.3,0,5,10,0,2026-05-31T16:30:55.484106+05:30
Bhilai,Chhattisgarh,21.1938,81.3509,38.7,21,0.0,971.1,8.95,29.5,131,48.1,28.8,8.4,242.0,166.0,31.1,0,5,10,0,2026-05-31T16:30:55.484114+05:30
Guwahati,Assam,26.1158,91.7086,32.3,60,0.0,997.5,8.75,29.9,80,29.7,18.2,2.5,328.0,113.0,2.0,0,5,7,1,2026-05-31T16:30:55.484121+05:30
Agartala,Tripura,23.8315,91.2868,32.8,59,0.0,1002.1,8.85,23.8,176,53.3,36.2,9.8,328.0,168.0,10.2,0,5,4,1,2026-05-31T16:30:55.484128+05:30
Shillong,Meghalaya,25.5788,91.8933,21.1,97,0.2,856.4,9.05,23.8,65,26.1,17.3,2.6,237.0,117.0,2.8,6,5,7,1,2026-05-31T16:30:55.484135+05:30
Imphal,Manipur,24.817,93.9368,24.4,90,0.1,921.5,9.0,24.5,69,4.1,4.0,3.9,232.0,62.0,1.0,6,5,7,1,2026-05-31T16:30:55.484142+05:30
Aizawl,Mizoram,23.7271,92.7176,23.2,93,0.1,890.6,8.2,27.7,41,20.5,10.8,2.5,220.0,66.0,0.8,6,5,7,1,2026-05-31T16:30:55.484149+05:30
Kohima,Nagaland,25.6701,94.1077,22.0,92,0.0,854.4,2.15,23.0,53,12.7,9.7,3.4,193.0,65.0,0.7,3,5,3,1,2026-05-31T16:30:55.484156+05:30
Gangtok,Sikkim,27.3314,88.6138,23.3,63,0.0,838.1,9.15,42.5,82,29.9,18.8,2.0,229.0,128.0,1.9,3,5,7,0,2026-05-31T16:30:55.484162+05:30
Siliguri,West Bengal,26.7271,88.3953,33.0,57,0.0,988.8,8.65,20.2,143,57.3,35.4,2.7,411.0,154.0,4.9,0,5,7,1,2026-05-31T16:30:58.846412+05:30
Durgapur,West Bengal,23.5204,87.3119,33.2,61,0.0,991.4,8.95,23.8,168,86.8,71.5,17.4,385.0,203.0,53.1,3,5,7,1,2026-05-31T16:30:58.846443+05:30
Asansol,West Bengal,23.6739,86.9524,32.3,67,0.1,990.3,9.0,29.2,159,88.0,72.4,16.8,395.0,195.0,49.2,6,5,7,1,2026-05-31T16:30:58.846454+05:30
Pondicherry,Puducherry,11.9139,79.8145,32.5,68,0.0,1005.0,8.8,38.9,109,34.9,27.6,9.4,207.0,150.0,7.6,3,5,4,1,2026-05-31T16:30:58.846463+05:30
Port Blair,Andaman and Nicobar Islands,11.6234,92.7265,27.7,84,0.1,1005.3,8.0,36.0,36,8.4,5.0,0.4,134.0,75.0,0.4,10,5,4,1,2026-05-31T16:30:58.846471+05:30
Haridwar,Uttarakhand,29.9457,78.1642,28.4,56,0.0,974.2,6.4,27.4,134,33.1,23.0,1.4,235.0,159.0,4.9,4,5,7,1,2026-05-31T16:30:58.846479+05:30
Rishikesh,Uttarakhand,30.0869,78.2676,26.6,63,0.1,966.9,6.85,29.9,130,21.2,16.6,0.9,232.0,158.0,3.7,10,5,7,1,2026-05-31T16:30:58.846487+05:30
Nainital,Uttarakhand,29.3919,79.4542,17.5,72,0.0,806.6,6.15,25.6,102,19.8,11.8,0.7,242.0,145.0,2.2,3,5,7,0,2026-05-31T16:30:58.846495+05:30
Mussoorie,Uttarakhand,30.4599,78.0664,14.1,87,0.0,802.8,7.25,37.4,141,28.2,17.2,2.1,224.0,150.0,3.5,3,10,7,0,2026-05-31T16:30:58.846504+05:30
Dharamshala,Himachal Pradesh,32.219,76.3234,21.3,53,0.0,869.5,7.85,36.7,105,19.2,8.7,0.4,236.0,146.0,0.9,0,5,7,0,2026-05-31T16:30:58.846511+05:30
Dalhousie,Himachal Pradesh,32.5387,75.971,16.9,77,0.0,805.3,7.4,23.0,140,49.6,17.8,1.1,232.0,163.0,2.4,3,5,7,0,2026-05-31T16:30:58.846519+05:30
Patiala,Punjab,30.3398,76.3869,30.1,45,0.0,977.7,7.5,44.6,140,411.6,62.6,1.7,280.0,162.0,7.9,0,5,7,1,2026-05-31T16:30:58.846526+05:30
Bhatinda,Punjab,30.211,74.9455,33.7,39,0.0,982.0,8.2,33.5,184,339.9,67.3,2.7,234.0,178.0,14.2,0,5,7,1,2026-05-31T16:30:58.846533+05:30
Rohtak,Haryana,28.8955,76.6066,30.5,52,0.0,980.4,7.6,47.5,456,329.7,65.9,6.4,319.0,180.0,13.9,0,5,7,1,2026-05-31T16:30:58.846540+05:30
Panipat,Haryana,29.3909,76.9635,28.5,62,0.0,979.7,7.4,32.4,672,245.9,55.1,6.6,291.0,188.0,21.7,7,5,7,1,2026-05-31T16:30:58.846548+05:30
Mathura,Uttar Pradesh,27.4924,77.6737,34.7,35,0.0,984.5,7.9,40.3,506,167.6,34.8,1.2,285.0,148.0,3.0,0,5,7,1,2026-05-31T16:30:58.846555+05:30
Vrindavan,Uttar Pradesh,27.5823,77.7027,34.0,37,0.0,985.0,7.85,39.6,506,167.6,34.8,1.2,272.0,148.0,3.0,0,5,7,1,2026-05-31T16:30:58.846562+05:30
Ayodhya,Uttar Pradesh,26.7922,82.1998,29.4,66,0.0,993.5,8.25,38.5,147,48.9,25.3,1.2,282.0,163.0,4.7,7,5,7,1,2026-05-31T16:30:58.846569+05:30
Ratlam,Madhya Pradesh,23.3315,75.0367,36.2,29,0.0,952.9,8.45,47.2,67,58.4,23.3,0.6,124.0,107.0,3.4,0,5,10,0,2026-05-31T16:30:58.846576+05:30
Sagar,Madhya Pradesh,23.8388,78.7378,33.0,37,0.0,948.6,8.65,49.0,91,17.6,7.5,0.4,144.0,135.0,2.2,0,5,7,1,2026-05-31T16:30:58.846583+05:30
Satna,Madhya Pradesh,24.6005,80.8322,35.5,30,0.0,969.0,8.7,30.6,120,51.0,21.4,0.9,223.0,155.0,5.3,0,5,10,0,2026-05-31T16:30:58.846590+05:30
Akola,Maharashtra,20.7002,77.0082,38.2,22,0.0,972.3,8.7,64.1,71,60.1,23.3,1.4,123.0,116.0,6.1,0,5,10,0,2026-05-31T16:30:58.846598+05:30
Amravati,Maharashtra,20.9374,77.7796,37.7,23,0.0,964.5,8.75,48.6,70,54.4,20.7,1.8,140.0,121.0,6.4,0,5,10,0,2026-05-31T16:30:58.846606+05:30
Latur,Maharashtra,18.4088,76.5604,36.8,19,0.0,938.0,8.95,44.3,64,71.9,22.8,0.0,128.0,103.0,2.0,0,5,10,0,2026-05-31T16:30:58.846613+05:30
Nanded,Maharashtra,19.1383,77.3091,38.2,24,0.0,965.6,8.9,47.2,74,89.2,26.8,0.6,124.0,102.0,1.7,0,5,10,0,2026-05-31T16:30:58.846621+05:30
Gulbarga,Karnataka,17.3297,76.8343,37.5,25,0.0,956.4,8.95,52.2,58,47.5,18.9,0.8,128.0,110.0,2.2,0,5,10,0,2026-05-31T16:30:58.846629+05:30
Bidar,Karnataka,17.9104,77.5199,35.5,31,0.0,933.8,9.0,45.4,72,71.7,26.8,0.0,145.0,118.0,3.5,0,5,10,0,2026-05-31T16:30:58.846636+05:30
Hospet,Karnataka,15.2689,76.3909,34.1,45,0.0,953.8,8.9,52.2,47,24.4,12.6,1.9,141.0,109.0,3.5,0,5,7,1,2026-05-31T16:30:58.846643+05:30
Tirupur,Tamil Nadu,11.1085,77.3411,31.4,54,0.2,973.7,8.45,36.0,61,16.8,10.3,2.9,155.0,115.0,2.4,3,5,7,1,2026-05-31T16:30:58.846651+05:30
Alappuzha,Kerala,9.4981,76.3388,26.5,86,0.1,1008.9,6.4,27.7,41,8.4,5.3,2.8,103.0,65.0,1.2,10,0,4,1,2026-05-31T16:30:58.846659+05:30
Munnar,Kerala,10.0889,77.0595,20.4,92,0.0,857.1,7.8,25.9,42,29.9,13.2,2.4,134.0,88.0,1.6,3,5,7,1,2026-05-31T16:30:58.846666+05:30
Silchar,Assam,24.8333,92.7789,32.5,62,0.0,1000.8,8.2,20.2,111,38.3,22.2,2.0,233.0,111.0,3.6,3,5,4,1,2026-05-31T16:30:58.846673+05:30
Dibrugarh,Assam,27.4728,94.912,29.9,82,0.0,992.0,3.4,22.7,116,17.0,13.7,3.3,215.0,79.0,1.1,7,5,3,1,2026-05-31T16:30:58.846680+05:30
