city,state,latitude,longitude,temp,humidity,rain,pressure,uv_index,wind_gusts,aqi,pm10,pm2_5,mosquito_risk,arthritis_risk,migraine_risk,frizz_risk,updated_at
Delhi,Delhi,28.6139,77.209,20.2,69,0.0,983.8,5.55,33.5,394,542.0,102.2,3,5,3,0,2026-03-14T01:03:11.836136+05:30
Mumbai,Maharashtra,19.076,72.8777,29.1,69,0.0,1008.0,7.7,20.5,139,39.1,29.5,7,0,4,1,2026-03-14T01:03:11.836201+05:30
Bangalore,Karnataka,12.9716,77.5946,22.2,67,0.0,912.2,9.3,24.1,97,39.6,35.7,3,5,7,0,2026-03-14T01:03:11.836219+05:30
Hyderabad,Telangana,17.385,78.4867,23.9,63,0.0,953.8,8.7,32.8,99,32.9,27.9,3,5,7,1,2026-03-14T01:03:11.836229+05:30
Chennai,Tamil Nadu,13.0827,80.2707,25.8,85,0.0,1008.8,9.05,30.2,60,20.7,16.4,7,0,4,1,2026-03-14T01:03:11.836239+05:30
Kolkata,West Bengal,22.5726,88.3639,25.6,89,0.0,1006.3,8.05,33.1,109,23.7,19.5,7,5,4,1,2026-03-14T01:03:11.836248+05:30
Pune,Maharashtra,18.5204,73.8567,23.1,65,0.0,948.1,8.25,43.9,147,54.0,52.0,3,5,7,1,2026-03-14T01:03:11.836261+05:30
Ahmedabad,Gujarat,23.0225,72.5714,25.1,50,0.0,1002.5,7.5,22.3,109,50.1,36.1,4,5,4,0,2026-03-14T01:03:11.836269+05:30
Jaipur,Rajasthan,26.9124,75.7873,23.7,35,0.0,960.3,6.75,26.6,122,289.6,54.6,0,5,7,0,2026-03-14T01:03:11.836277+05:30
Lucknow,Uttar Pradesh,26.8467,80.9462,22.8,64,0.0,993.4,6.7,27.0,156,289.6,72.9,3,5,7,0,2026-03-14T01:03:11.836286+05:30
Kanpur,Uttar Pradesh,26.4499,80.3319,22.2,72,0.0,991.9,6.7,21.2,214,516.0,95.5,3,5,7,1,2026-03-14T01:03:11.836293+05:30
Chandigarh,Chandigarh,30.7333,76.7794,18.4,76,0.0,969.1,4.8,21.2,75,28.2,25.6,3,5,3,0,2026-03-14T01:03:11.836301+05:30
Srinagar,Jammu and Kashmir,34.0837,74.7973,6.5,81,0.0,839.4,6.6,12.6,84,68.9,53.9,3,10,7,0,2026-03-14T01:03:11.836309+05:30
Jammu,Jammu and Kashmir,32.7266,74.857,17.8,68,0.0,973.5,6.35,16.2,69,40.3,37.4,3,5,7,0,2026-03-14T01:03:11.836316+05:30
Amritsar,Punjab,31.634,74.8723,18.3,69,0.0,982.0,6.15,17.6,84,38.9,31.9,3,5,7,0,2026-03-14T01:03:11.836324+05:30
Ludhiana,Punjab,30.901,75.8573,18.8,67,0.0,980.0,5.85,21.6,95,34.0,28.9,3,5,3,0,2026-03-14T01:03:11.836330+05:30
Jalandhar,Punjab,31.326,75.5762,18.7,65,0.0,981.1,6.15,17.6,94,47.1,34.1,3,5,7,0,2026-03-14T01:03:11.836344+05:30
Dehradun,Uttarakhand,30.6284,78.0322,13.3,64,0.0,828.9,5.75,24.1,49,38.4,22.7,3,5,3,0,2026-03-14T01:03:11.836351+05:30
Shimla,Himachal Pradesh,31.1048,77.1734,10.7,66,0.0,782.2,5.55,27.7,53,34.3,24.2,3,5,3,0,2026-03-14T01:03:11.836358+05:30
Manali,Himachal Pradesh,32.2396,77.1887,12.5,29,0.0,818.9,6.5,37.4,44,33.4,17.3,0,5,7,1,2026-03-14T01:03:11.836365+05:30
Gurgaon,Haryana,28.4595,77.0266,17.6,80,0.0,982.2,6.0,31.3,1249,1266.6,173.2,3,5,3,0,2026-03-14T01:03:11.836372+05:30
Noida,Uttar Pradesh,28.5355,77.391,20.2,70,0.0,985.2,5.95,34.2,1249,1266.6,173.2,3,5,3,0,2026-03-14T01:03:11.836379+05:30
Ghaziabad,Uttar Pradesh,28.6692,77.4538,19.3,73,0.0,983.3,5.85,28.8,197,468.5,92.0,3,5,3,0,2026-03-14T01:03:11.836386+05:30
Faridabad,Haryana,28.4089,77.3178,19.1,70,0.0,984.4,6.2,33.8,1249,1266.6,173.2,3,5,7,0,2026-03-14T01:03:11.836395+05:30
Meerut,Uttar Pradesh,28.9845,77.7064,17.9,78,0.0,981.9,5.65,29.2,197,468.5,92.0,3,5,3,0,2026-03-14T01:03:11.836402+05:30
Agra,Uttar Pradesh,27.1767,78.0081,20.5,56,0.0,988.4,6.2,24.1,624,1229.3,164.8,0,5,7,0,2026-03-14T01:03:11.836410+05:30
Varanasi,Uttar Pradesh,25.3176,82.9739,20.8,72,0.0,997.4,7.1,24.1,132,141.6,62.4,3,5,7,0,2026-03-14T01:03:11.836422+05:30
Prayagraj,Uttar Pradesh,25.4358,81.8463,22.6,64,0.0,996.0,7.2,16.2,150,144.8,61.2,3,5,7,0,2026-03-14T01:03:11.836429+05:30
Gorakhpur,Uttar Pradesh,26.7606,83.3732,21.3,68,0.0,996.3,6.45,23.0,176,67.3,41.7,3,5,7,0,2026-03-14T01:03:11.836436+05:30
Bareilly,Uttar Pradesh,28.367,79.4304,19.1,73,0.0,986.8,6.1,24.8,135,140.6,48.0,3,5,7,0,2026-03-14T01:03:11.836442+05:30
Aligarh,Uttar Pradesh,27.8974,78.088,17.3,71,0.0,986.0,6.25,38.2,620,1009.6,156.0,3,5,7,0,2026-03-14T01:03:11.836450+05:30
Moradabad,Uttar Pradesh,28.8386,78.7733,19.0,70,0.0,983.7,6.0,26.6,140,206.3,62.2,3,5,3,0,2026-03-14T01:03:11.836456+05:30
Saharanpur,Uttar Pradesh,29.9637,77.546,18.0,79,0.0,976.0,5.15,23.0,125,99.9,52.5,3,5,3,0,2026-03-14T01:03:11.836462+05:30
Jhansi,Uttar Pradesh,25.4484,78.5685,22.8,63,0.0,978.2,7.15,20.2,77,102.9,42.7,3,5,7,0,2026-03-14T01:03:15.178219+05:30
Surat,Gujarat,21.1702,72.8311,25.1,79,0.0,1006.6,7.35,21.2,143,44.7,37.4,7,5,4,1,2026-03-14T01:03:15.178254+05:30
Vadodara,Gujarat,22.3072,73.1812,26.1,53,0.0,1004.3,7.55,26.3,114,59.8,52.2,4,5,4,0,2026-03-14T01:03:15.178265+05:30
Rajkot,Gujarat,22.3039,70.8022,23.9,51,0.0,995.4,7.35,30.2,84,127.1,36.3,0,5,7,0,2026-03-14T01:03:15.178273+05:30
Thane,Maharashtra,19.2183,72.9781,27.2,65,0.0,1007.5,7.65,33.1,139,39.1,29.5,7,5,4,1,2026-03-14T01:03:15.178281+05:30
Nagpur,Maharashtra,21.1458,79.0882,25.2,52,0.0,972.7,8.1,21.6,88,47.4,44.6,4,5,7,0,2026-03-14T01:03:15.178288+05:30
Nashik,Maharashtra,19.9975,73.7898,24.1,51,0.0,945.6,7.85,37.1,114,35.0,31.7,0,5,7,0,2026-03-14T01:03:15.178296+05:30
Aurangabad,Maharashtra,19.8762,75.3433,24.2,47,0.0,943.5,8.4,24.8,90,39.0,37.3,0,5,7,0,2026-03-14T01:03:15.178303+05:30
Solapur,Maharashtra,17.6599,75.9064,25.9,55,0.0,956.4,8.6,18.4,96,41.8,38.0,4,5,7,1,2026-03-14T01:03:15.178311+05:30
Kolhapur,Maharashtra,16.705,74.2433,21.8,95,0.0,947.9,8.7,39.6,147,62.4,61.0,3,5,7,1,2026-03-14T01:03:15.178318+05:30
Goa,Goa,15.2993,74.124,27.5,84,0.0,998.6,8.75,33.5,131,61.5,56.8,7,5,7,1,2026-03-14T01:03:15.178326+05:30
Jodhpur,Rajasthan,26.2389,73.0243,26.7,41,0.0,982.8,7.15,34.9,90,131.8,35.6,4,5,7,0,2026-03-14T01:03:15.178333+05:30
Udaipur,Rajasthan,24.5854,73.7125,22.5,34,0.0,946.8,7.85,32.8,71,46.1,22.3,0,5,7,0,2026-03-14T01:03:15.178340+05:30
Kota,Rajasthan,25.2138,75.8648,23.0,53,0.0,978.3,6.75,22.0,64,41.6,21.2,0,5,7,0,2026-03-14T01:03:15.178348+05:30
Bikaner,Rajasthan,28.0229,73.3119,24.8,37,0.0,982.4,6.5,22.3,74,21.9,15.1,0,5,7,0,2026-03-14T01:03:15.178355+05:30
Ajmer,Rajasthan,26.4499,74.6399,23.9,31,0.0,954.9,7.25,33.8,78,62.9,28.6,0,5,7,0,2026-03-14T01:03:15.178362+05:30
Gwalior,Madhya Pradesh,26.2183,78.1828,25.0,62,0.0,983.8,6.5,18.7,110,303.6,65.0,7,5,7,1,2026-03-14T01:03:15.178369+05:30
Indore,Madhya Pradesh,22.7196,75.8577,21.4,44,0.0,947.7,7.8,31.0,63,42.3,38.8,0,5,7,0,2026-03-14T01:03:15.178376+05:30
Bhopal,Madhya Pradesh,23.2599,77.4126,20.9,36,0.0,953.4,7.65,29.5,69,26.6,25.8,0,5,7,0,2026-03-14T01:03:15.178383+05:30
Jabalpur,Madhya Pradesh,23.1815,79.9864,23.3,49,0.0,960.9,7.8,24.1,80,26.3,25.9,0,5,7,0,2026-03-14T01:03:15.178391+05:30
Ujjain,Madhya Pradesh,23.1765,75.7885,21.6,47,0.0,953.5,7.7,31.0,63,32.9,30.2,0,5,7,0,2026-03-14T01:03:15.178399+05:30
Visakhapatnam,Andhra Pradesh,17.6868,83.2185,25.5,87,0.0,1005.2,8.65,42.8,79,19.6,16.4,7,5,4,1,2026-03-14T01:03:15.178406+05:30
Vijayawada,Andhra Pradesh,16.5062,80.648,24.7,92,0.0,1004.1,8.75,29.2,83,15.4,13.1,3,5,4,1,2026-03-14T01:03:15.178413+05:30
Guntur,Andhra Pradesh,16.3067,80.4365,24.9,93,0.0,1005.2,8.75,31.7,77,14.0,11.8,3,5,4,1,2026-03-14T01:03:15.178420+05:30
Nellore,Andhra Pradesh,14.4426,79.9865,24.8,95,0.0,1007.4,8.9,31.3,69,15.0,12.3,3,5,4,1,2026-03-14T01:03:15.178427+05:30
Kurnool,Andhra Pradesh,15.8281,78.0373,27.6,49,0.0,977.0,8.75,22.3,109,30.4,27.1,4,5,7,0,2026-03-14T01:03:15.178435+05:30
Kakinada,Andhra Pradesh,16.9891,82.2475,24.5,92,0.0,1009.2,8.7,32.0,69,17.5,13.1,3,0,4,1,2026-03-14T01:03:15.178442+05:30
Tirupati,Andhra Pradesh,13.6288,79.4192,23.7,86,0.0,993.5,9.05,29.5,88,29.8,27.0,3,5,7,1,2026-03-14T01:03:15.178449+05:30
Warangal,Telangana,17.9689,79.5941,24.2,83,0.0,978.9,8.55,29.5,115,26.8,24.9,3,5,7,1,2026-03-14T01:03:15.178457+05:30
Nizamabad,Telangana,18.6725,78.0941,26.9,45,0.0,964.4,8.45,30.6,122,59.8,52.3,4,5,7,0,2026-03-14T01:03:15.178464+05:30
Mysore,Karnataka,12.2958,76.6396,22.1,95,0.0,929.0,9.3,31.3,93,44.0,39.2,3,5,7,1,2026-03-14T01:03:15.178471+05:30
Mangalore,Karnataka,12.9141,74.856,28.7,82,0.0,1007.4,8.95,24.8,115,51.6,44.9,7,5,4,1,2026-03-14T01:03:15.178478+05:30
Hubli-Dharwad,Karnataka,15.3647,75.124,23.0,89,0.0,941.2,8.95,41.8,86,40.2,38.4,3,5,7,1,2026-03-14T01:03:15.178485+05:30
Belgaum,Karnataka,15.8497,74.4977,22.5,94,0.0,925.8,9.0,40.3,118,51.3,47.8,3,5,7,1,2026-03-14T01:03:18.514790+05:30
Coimbatore,Tamil Nadu,11.0168,76.9558,23.3,82,0.0,962.7,9.3,34.2,86,36.1,32.1,3,5,7,1,2026-03-14T01:03:18.514820+05:30
Madurai,Tamil Nadu,9.9252,78.1198,25.1,79,0.0,994.5,9.3,29.5,76,29.5,27.1,7,5,7,1,2026-03-14T01:03:18.514831+05:30
Trichy,Tamil Nadu,10.7905,78.7047,24.1,91,0.0,1001.2,9.2,19.4,79,24.4,22.0,3,5,4,1,2026-03-14T01:03:18.514840+05:30
Salem,Tamil Nadu,11.6643,78.146,23.9,85,0.0,978.2,9.2,15.1,109,45.6,41.3,3,5,7,1,2026-03-14T01:03:18.514848+05:30
Tirunelveli,Tamil Nadu,8.7139,77.7567,24.2,86,0.0,1004.6,9.25,40.7,60,24.0,21.9,3,5,4,1,2026-03-14T01:03:18.514856+05:30
Vellore,Tamil Nadu,12.9165,79.1325,22.7,89,0.0,986.3,9.1,32.0,103,45.8,43.3,3,5,7,1,2026-03-14T01:03:18.514864+05:30
Erode,Tamil Nadu,11.341,77.7172,25.2,80,0.0,990.3,9.2,19.4,84,21.0,19.0,7,5,7,1,2026-03-14T01:03:18.514871+05:30
Kochi,Kerala,9.9312,76.2673,27.0,86,0.0,1009.8,9.1,33.5,81,29.0,28.2,7,0,4,1,2026-03-14T01:03:18.514879+05:30
Thiruvananthapuram,Kerala,8.5241,76.9366,27.5,83,0.0,1008.8,9.1,26.3,73,20.3,15.6,7,0,4,1,2026-03-14T01:03:18.514887+05:30
Kozhikode,Kerala,11.2588,75.7804,27.2,85,0.0,1009.1,9.05,28.8,90,32.0,27.9,7,0,4,1,2026-03-14T01:03:18.514894+05:30
Thrissur,Kerala,10.5276,76.2144,26.1,89,0.0,1008.1,9.1,36.4,98,26.2,25.0,7,0,4,1,2026-03-14T01:03:18.514902+05:30
Kannur,Kerala,11.8745,75.3704,27.6,85,0.0,1008.0,9.0,32.0,104,40.5,36.9,7,0,4,1,2026-03-14T01:03:18.514911+05:30
Patna,Bihar,25.5941,85.1376,24.3,66,0.0,999.8,7.5,19.1,171,146.2,63.6,3,5,7,1,2026-03-14T01:03:18.514919+05:30
Gaya,Bihar,24.7914,85.0002,25.3,49,0.0,993.6,7.6,12.2,148,172.3,64.0,4,5,7,0,2026-03-14T01:03:18.514926+05:30
Muzaffarpur,Bihar,26.1209,85.3647,22.4,88,0.0,999.6,7.15,20.9,173,169.5,110.4,3,5,7,1,2026-03-14T01:03:18.514933+05:30
Bhagalpur,Bihar,25.2425,87.0117,23.4,94,0.0,1000.7,7.45,18.4,164,116.4,81.0,3,5,4,1,2026-03-14T01:03:18.514941+05:30
Ranchi,Jharkhand,23.3441,85.3096,22.3,41,0.0,937.9,8.25,26.6,73,69.4,29.6,0,5,7,0,2026-03-14T01:03:18.514949+05:30
Jamshedpur,Jharkhand,22.8046,86.2029,26.2,59,0.0,990.9,8.1,32.0,147,80.1,61.9,4,5,7,1,2026-03-14T01:03:18.514957+05:30
Dhanbad,Jharkhand,23.7957,86.4304,23.9,53,0.0,979.6,7.65,19.1,161,135.0,66.8,0,5,7,0,2026-03-14T01:03:18.514965+05:30
Bokaro,Jharkhand,23.6693,86.1511,22.6,52,0.0,984.0,7.7,19.8,146,126.7,66.1,0,5,7,0,2026-03-14T01:03:18.514973+05:30
Bhubaneswar,Odisha,20.2961,85.8245,25.5,85,0.0,1003.2,8.4,40.0,90,19.9,17.1,7,5,4,1,2026-03-14T01:03:18.514981+05:30
Cuttack,Odisha,20.4625,85.8828,25.5,86,0.0,1005.0,8.45,38.9,90,19.9,17.1,7,5,4,1,2026-03-14T01:03:18.514989+05:30
Rourkela,Odisha,22.2604,84.8536,22.8,68,0.0,984.6,8.05,28.1,90,62.4,44.8,3,5,7,1,2026-03-14T01:03:18.514995+05:30
Raipur,Chhattisgarh,21.2514,81.6296,24.6,43,0.0,973.9,8.15,37.1,129,51.0,45.4,0,5,7,0,2026-03-14T01:03:18.515002+05:30
Bhilai,Chhattisgarh,21.1938,81.3509,21.6,47,0.0,974.2,8.15,36.0,122,58.0,51.9,0,5,7,0,2026-03-14T01:03:18.515009+05:30
Guwahati,Assam,26.1158,91.7086,21.8,95,0.0,1002.0,7.45,33.8,126,28.3,22.0,3,5,4,1,2026-03-14T01:03:18.515016+05:30
Agartala,Tripura,23.8315,91.2868,22.0,94,0.0,1006.9,7.85,37.4,102,19.4,16.9,3,5,4,1,2026-03-14T01:03:18.515023+05:30
Shillong,Meghalaya,25.5788,91.8933,13.1,90,0.0,854.7,7.8,65.5,93,15.9,11.2,3,10,7,0,2026-03-14T01:03:18.515031+05:30
Imphal,Manipur,24.817,93.9368,16.0,94,0.1,923.8,7.6,81.0,156,58.4,51.5,6,10,7,0,2026-03-14T01:03:18.515038+05:30
Aizawl,Mizoram,23.7271,92.7176,17.4,87,0.0,893.6,8.0,69.1,135,33.1,28.8,3,10,7,0,2026-03-14T01:03:18.515045+05:30
Kohima,Nagaland,25.6701,94.1077,14.3,85,0.0,853.6,6.95,93.2,117,17.6,15.8,3,10,7,0,2026-03-14T01:03:18.515052+05:30
Gangtok,Sikkim,27.3314,88.6138,13.2,93,0.0,834.5,7.55,20.9,87,19.0,18.2,3,10,7,0,2026-03-14T01:03:18.515059+05:30
Siliguri,West Bengal,26.7271,88.3953,18.5,94,0.0,994.0,7.35,24.1,135,53.6,45.4,3,10,7,1,2026-03-14T01:03:21.860909+05:30
Durgapur,West Bengal,23.5204,87.3119,24.6,91,0.0,994.8,7.95,30.6,158,112.7,81.5,3,5,7,1,2026-03-14T01:03:21.860940+05:30
Asansol,West Bengal,23.6739,86.9524,25.4,64,0.0,993.4,7.75,23.0,155,115.5,58.9,7,5,7,1,2026-03-14T01:03:21.860950+05:30
Pondicherry,Puducherry,11.9139,79.8145,24.1,91,0.0,1009.9,9.05,29.9,57,18.9,14.6,3,0,4,1,2026-03-14T01:03:21.860959+05:30
Port Blair,Andaman and Nicobar Islands,11.6234,92.7265,27.7,80,0.0,1007.9,8.95,27.4,66,13.2,10.2,7,5,4,1,2026-03-14T01:03:21.860967+05:30
Haridwar,Uttarakhand,29.9457,78.1642,17.8,84,0.0,974.4,5.55,25.9,84,65.4,51.1,3,10,3,0,2026-03-14T01:03:21.860974+05:30
Rishikesh,Uttarakhand,30.0869,78.2676,18.8,69,0.0,967.0,5.35,23.0,62,41.1,30.0,3,5,3,0,2026-03-14T01:03:21.860982+05:30
Nainital,Uttarakhand,29.3919,79.4542,17.9,32,0.0,805.1,6.1,36.0,79,34.8,27.3,0,5,7,0,2026-03-14T01:03:21.860990+05:30
Mussoorie,Uttarakhand,30.4599,78.0664,15.6,53,0.0,801.9,5.55,28.1,71,52.2,43.5,0,5,3,0,2026-03-14T01:03:21.860997+05:30
Dharamshala,Himachal Pradesh,32.219,76.3234,18.5,27,0.0,868.9,4.6,22.3,47,21.7,13.4,0,5,3,1,2026-03-14T01:03:21.861004+05:30
Dalhousie,Himachal Pradesh,32.5387,75.971,14.8,30,0.0,802.7,5.5,20.2,64,38.2,32.8,0,5,3,1,2026-03-14T01:03:21.861013+05:30
Patiala,Punjab,30.3398,76.3869,17.9,80,0.0,979.1,5.5,18.7,371,434.9,61.5,3,5,3,0,2026-03-14T01:03:21.861020+05:30
Bhatinda,Punjab,30.211,74.9455,19.8,73,0.0,985.2,5.95,17.6,106,47.6,38.0,3,5,3,0,2026-03-14T01:03:21.861027+05:30
Rohtak,Haryana,28.8955,76.6066,17.9,80,0.0,982.8,5.55,25.9,553,581.1,102.9,3,5,3,0,2026-03-14T01:03:21.861035+05:30
Panipat,Haryana,29.3909,76.9635,17.5,80,0.0,981.1,5.35,21.2,1027,1050.5,138.8,3,5,3,0,2026-03-14T01:03:21.861042+05:30
Mathura,Uttar Pradesh,27.4924,77.6737,19.7,59,0.0,987.6,6.15,34.6,751,1378.4,190.9,0,5,7,0,2026-03-14T01:03:21.861049+05:30
Vrindavan,Uttar Pradesh,27.5823,77.7027,18.6,64,0.0,988.0,6.3,38.2,751,1378.4,190.9,3,5,7,0,2026-03-14T01:03:21.861056+05:30
Ayodhya,Uttar Pradesh,26.7922,82.1998,21.3,69,0.0,994.7,6.75,23.8,155,143.9,52.0,3,5,7,0,2026-03-14T01:03:21.861063+05:30
Ratlam,Madhya Pradesh,23.3315,75.0367,25.5,38,0.0,954.6,7.65,35.6,83,26.1,22.8,4,5,7,0,2026-03-14T01:03:21.861070+05:30
Sagar,Madhya Pradesh,23.8388,78.7378,23.4,34,0.0,950.0,7.65,29.2,64,15.7,15.2,0,5,7,0,2026-03-14T01:03:21.861077+05:30
Satna,Madhya Pradesh,24.6005,80.8322,23.2,38,0.0,971.4,7.6,29.2,58,47.5,20.8,0,5,7,0,2026-03-14T01:03:21.861083+05:30
Akola,Maharashtra,20.7002,77.0082,26.6,40,0.0,974.4,8.1,21.2,89,53.1,49.4,4,5,7,0,2026-03-14T01:03:21.861091+05:30
Amravati,Maharashtra,20.9374,77.7796,24.7,49,0.0,966.5,8.1,17.6,92,55.2,50.2,0,5,7,0,2026-03-14T01:03:21.861098+05:30
Latur,Maharashtra,18.4088,76.5604,25.6,47,0.0,939.3,8.5,26.3,106,43.0,37.4,4,5,7,0,2026-03-14T01:03:21.861106+05:30
Nanded,Maharashtra,19.1383,77.3091,28.1,41,0.0,968.1,8.3,24.5,121,51.8,44.2,4,5,7,0,2026-03-14T01:03:21.861112+05:30
Gulbarga,Karnataka,17.3297,76.8343,27.6,46,0.0,958.7,8.6,33.5,102,43.4,37.0,4,5,7,0,2026-03-14T01:03:21.861119+05:30
Bidar,Karnataka,17.9104,77.5199,25.3,46,0.0,935.6,8.55,38.9,98,42.0,35.6,4,5,7,0,2026-03-14T01:03:21.861126+05:30
Hospet,Karnataka,15.2689,76.3909,27.9,54,0.0,956.2,8.9,29.2,105,54.0,44.8,4,5,7,1,2026-03-14T01:03:21.861133+05:30
Tirupur,Tamil Nadu,11.1085,77.3411,25.9,68,0.0,976.6,9.3,28.1,93,25.7,22.6,7,5,7,1,2026-03-14T01:03:21.861139+05:30
Alappuzha,Kerala,9.4981,76.3388,26.8,86,0.0,1009.9,9.1,27.7,82,28.6,25.8,7,0,4,1,2026-03-14T01:03:21.861146+05:30
Munnar,Kerala,10.0889,77.0595,19.3,88,0.0,856.5,9.6,31.7,72,28.9,26.4,3,10,7,1,2026-03-14T01:03:21.861154+05:30
Silchar,Assam,24.8333,92.7789,20.9,95,0.0,1007.6,7.75,36.4,156,47.3,40.9,3,5,4,1,2026-03-14T01:03:21.861161+05:30
Dibrugarh,Assam,27.4728,94.912,20.6,87,0.1,996.5,1.2,19.4,132,39.6,35.7,6,5,3,1,2026-03-14T01:03:21.861168+05:30
