city,state,latitude,longitude,temp,humidity,rain,pressure,uv_index,wind_gusts,aqi,pm10,pm2_5,mosquito_risk,arthritis_risk,migraine_risk,frizz_risk,updated_at
Delhi,Delhi,28.6139,77.209,28.8,41,0.0,989.3,6.3,19.1,166,67.3,30.6,4,5,7,0,2026-03-26T10:39:03.639317+05:30
Mumbai,Maharashtra,19.076,72.8777,29.2,70,0.0,1011.7,7.95,29.5,81,44.7,27.9,7,0,4,1,2026-03-26T10:39:03.639357+05:30
Bangalore,Karnataka,12.9716,77.5946,29.6,36,0.0,915.9,9.45,36.4,75,30.6,20.1,4,5,7,0,2026-03-26T10:39:03.639373+05:30
Hyderabad,Telangana,17.385,78.4867,32.1,42,0.0,958.2,9.0,29.2,98,37.4,27.1,0,5,7,1,2026-03-26T10:39:03.639382+05:30
Chennai,Tamil Nadu,13.0827,80.2707,31.4,55,0.0,1011.8,9.2,31.7,57,29.1,18.9,0,0,4,1,2026-03-26T10:39:03.639391+05:30
Kolkata,West Bengal,22.5726,88.3639,30.4,67,0.0,1011.8,8.45,18.4,120,74.3,59.8,3,0,4,1,2026-03-26T10:39:03.639399+05:30
Pune,Maharashtra,18.5204,73.8567,33.9,32,0.0,952.8,8.5,34.2,95,33.1,24.4,0,5,7,0,2026-03-26T10:39:03.639411+05:30
Ahmedabad,Gujarat,23.0225,72.5714,32.3,40,0.0,1007.6,7.9,26.3,64,48.3,19.6,0,5,4,1,2026-03-26T10:39:03.639419+05:30
Jaipur,Rajasthan,26.9124,75.7873,29.9,34,0.0,966.3,7.25,28.8,91,242.1,38.0,4,5,7,0,2026-03-26T10:39:03.639426+05:30
Lucknow,Uttar Pradesh,26.8467,80.9462,30.4,37,0.0,999.9,7.15,34.2,112,210.5,48.4,0,5,7,0,2026-03-26T10:39:03.639434+05:30
Kanpur,Uttar Pradesh,26.4499,80.3319,29.7,46,0.0,998.3,7.15,25.9,166,348.3,58.1,4,5,7,1,2026-03-26T10:39:03.639440+05:30
Chandigarh,Chandigarh,30.7333,76.7794,27.5,51,0.0,974.9,6.4,32.8,69,23.6,15.0,4,5,7,1,2026-03-26T10:39:03.639448+05:30
Srinagar,Jammu and Kashmir,34.0837,74.7973,12.3,69,0.0,847.2,7.5,16.9,88,29.3,18.3,3,5,7,0,2026-03-26T10:39:03.639455+05:30
Jammu,Jammu and Kashmir,32.7266,74.857,26.0,50,0.0,979.2,7.05,29.2,81,20.7,14.0,4,5,7,0,2026-03-26T10:39:03.639462+05:30
Amritsar,Punjab,31.634,74.8723,25.5,58,0.0,987.7,6.65,33.1,87,26.8,17.3,4,5,7,1,2026-03-26T10:39:03.639468+05:30
Ludhiana,Punjab,30.901,75.8573,27.0,59,0.0,985.3,5.95,32.0,87,30.4,25.3,4,5,3,1,2026-03-26T10:39:03.639474+05:30
Jalandhar,Punjab,31.326,75.5762,25.6,64,0.0,986.6,6.8,32.0,85,34.9,19.5,7,5,7,1,2026-03-26T10:39:03.639483+05:30
Dehradun,Uttarakhand,30.6284,78.0322,19.7,51,0.0,835.7,6.9,41.4,52,13.6,6.0,0,5,7,0,2026-03-26T10:39:03.639490+05:30
Shimla,Himachal Pradesh,31.1048,77.1734,18.5,43,0.0,790.8,6.95,46.8,59,15.8,7.7,0,5,7,0,2026-03-26T10:39:03.639497+05:30
Manali,Himachal Pradesh,32.2396,77.1887,18.1,38,0.0,825.2,8.5,27.7,49,9.6,6.0,0,5,7,0,2026-03-26T10:39:03.639504+05:30
Gurgaon,Haryana,28.4595,77.0266,28.6,48,0.0,987.7,6.45,25.9,361,81.7,36.8,4,5,7,1,2026-03-26T10:39:03.639514+05:30
Noida,Uttar Pradesh,28.5355,77.391,28.9,47,0.0,991.0,6.2,17.3,361,81.7,36.8,4,5,7,1,2026-03-26T10:39:03.639521+05:30
Ghaziabad,Uttar Pradesh,28.6692,77.4538,27.5,51,0.0,989.0,6.5,24.1,139,43.3,23.6,4,5,7,1,2026-03-26T10:39:03.639527+05:30
Faridabad,Haryana,28.4089,77.3178,28.3,53,0.0,990.3,6.0,26.3,361,81.7,36.8,4,5,3,1,2026-03-26T10:39:03.639534+05:30
Meerut,Uttar Pradesh,28.9845,77.7064,28.0,53,0.0,987.7,6.0,28.8,139,43.3,23.6,4,5,3,1,2026-03-26T10:39:03.639540+05:30
Agra,Uttar Pradesh,27.1767,78.0081,31.8,33,0.0,994.6,6.95,22.7,214,259.8,58.3,0,5,7,0,2026-03-26T10:39:03.639547+05:30
Varanasi,Uttar Pradesh,25.3176,82.9739,31.0,38,0.0,1004.0,7.8,29.5,102,167.6,36.1,0,5,4,0,2026-03-26T10:39:03.639556+05:30
Prayagraj,Uttar Pradesh,25.4358,81.8463,30.7,42,0.0,1002.6,7.65,26.3,99,253.3,51.0,0,5,4,1,2026-03-26T10:39:03.639564+05:30
Gorakhpur,Uttar Pradesh,26.7606,83.3732,29.2,42,0.0,1003.7,7.55,13.7,94,120.6,34.3,4,5,4,0,2026-03-26T10:39:03.639570+05:30
Bareilly,Uttar Pradesh,28.367,79.4304,27.2,60,0.0,992.9,6.8,29.9,90,57.5,32.1,4,5,7,1,2026-03-26T10:39:03.639577+05:30
Aligarh,Uttar Pradesh,27.8974,78.088,28.9,51,0.0,992.3,6.5,31.0,263,142.5,41.7,4,5,7,1,2026-03-26T10:39:03.639586+05:30
Moradabad,Uttar Pradesh,28.8386,78.7733,27.6,60,0.0,989.7,6.65,33.1,99,47.0,34.7,4,5,7,1,2026-03-26T10:39:03.639592+05:30
Saharanpur,Uttar Pradesh,29.9637,77.546,27.5,59,0.0,981.5,6.25,36.7,98,32.0,22.1,4,5,7,1,2026-03-26T10:39:03.639598+05:30
Jhansi,Uttar Pradesh,25.4484,78.5685,32.4,31,0.0,984.7,7.6,24.5,87,120.1,29.9,0,5,7,0,2026-03-26T10:39:06.860845+05:30
Surat,Gujarat,21.1702,72.8311,31.1,49,0.0,1011.4,7.7,23.4,92,50.5,33.6,0,0,4,1,2026-03-26T10:39:06.860901+05:30
Vadodara,Gujarat,22.3072,73.1812,33.3,39,0.0,1009.5,7.9,28.8,94,40.9,20.9,0,0,4,1,2026-03-26T10:39:06.860911+05:30
Rajkot,Gujarat,22.3039,70.8022,30.5,39,0.0,1000.2,7.75,32.4,51,65.4,19.8,0,5,4,0,2026-03-26T10:39:06.860918+05:30
Thane,Maharashtra,19.2183,72.9781,33.6,42,0.0,1011.3,7.95,42.1,81,44.7,27.9,0,0,4,1,2026-03-26T10:39:06.860926+05:30
Nagpur,Maharashtra,21.1458,79.0882,32.6,50,0.0,978.5,8.45,22.3,73,49.1,42.1,0,5,7,1,2026-03-26T10:39:06.860933+05:30
Nashik,Maharashtra,19.9975,73.7898,30.4,43,0.0,950.5,8.15,29.9,78,21.9,16.1,0,5,7,1,2026-03-26T10:39:06.860939+05:30
Aurangabad,Maharashtra,19.8762,75.3433,31.9,36,0.0,949.3,8.65,23.0,56,15.8,11.2,0,5,7,0,2026-03-26T10:39:06.860947+05:30
Solapur,Maharashtra,17.6599,75.9064,34.1,39,0.0,961.4,8.85,23.8,111,48.9,39.8,0,5,7,1,2026-03-26T10:39:06.860958+05:30
Kolhapur,Maharashtra,16.705,74.2433,32.5,47,0.0,951.8,8.95,30.6,154,57.0,46.8,0,5,7,1,2026-03-26T10:39:06.860965+05:30
Goa,Goa,15.2993,74.124,33.5,58,0.0,1000.3,8.75,32.4,97,44.0,34.6,0,5,4,1,2026-03-26T10:39:06.860972+05:30
Jodhpur,Rajasthan,26.2389,73.0243,31.2,32,0.0,988.9,7.65,30.6,72,139.2,34.6,0,5,7,0,2026-03-26T10:39:06.860979+05:30
Udaipur,Rajasthan,24.5854,73.7125,31.2,30,0.0,952.7,8.15,38.5,30,16.5,7.1,0,5,7,0,2026-03-26T10:39:06.860986+05:30
Kota,Rajasthan,25.2138,75.8648,32.6,35,0.0,984.8,7.65,16.9,77,37.4,18.6,0,5,7,0,2026-03-26T10:39:06.860993+05:30
Bikaner,Rajasthan,28.0229,73.3119,29.9,35,0.0,987.1,6.85,28.8,47,59.3,20.1,4,5,7,0,2026-03-26T10:39:06.861000+05:30
Ajmer,Rajasthan,26.4499,74.6399,30.3,38,0.0,960.7,7.55,33.5,57,46.0,16.2,0,5,7,0,2026-03-26T10:39:06.861007+05:30
Gwalior,Madhya Pradesh,26.2183,78.1828,32.0,36,0.0,989.9,7.3,23.4,86,227.7,44.2,0,5,7,0,2026-03-26T10:39:06.861013+05:30
Indore,Madhya Pradesh,22.7196,75.8577,31.4,36,0.0,953.8,8.15,30.2,71,12.6,8.2,0,5,7,0,2026-03-26T10:39:06.861020+05:30
Bhopal,Madhya Pradesh,23.2599,77.4126,33.9,29,0.0,959.6,8.1,29.5,50,29.7,10.5,0,5,7,0,2026-03-26T10:39:06.861027+05:30
Jabalpur,Madhya Pradesh,23.1815,79.9864,32.2,36,0.0,967.8,8.2,21.2,58,53.6,15.5,0,5,7,0,2026-03-26T10:39:06.861034+05:30
Ujjain,Madhya Pradesh,23.1765,75.7885,30.9,41,0.0,959.5,8.1,31.7,67,13.4,9.3,0,5,7,1,2026-03-26T10:39:06.861041+05:30
Visakhapatnam,Andhra Pradesh,17.6868,83.2185,32.3,60,0.0,1008.3,8.85,30.2,80,40.0,28.4,0,0,4,1,2026-03-26T10:39:06.861047+05:30
Vijayawada,Andhra Pradesh,16.5062,80.648,30.1,67,0.0,1007.7,9.0,22.0,66,32.0,22.1,3,5,4,1,2026-03-26T10:39:06.861054+05:30
Guntur,Andhra Pradesh,16.3067,80.4365,30.6,65,0.0,1008.6,9.0,27.7,63,29.7,20.3,3,0,4,1,2026-03-26T10:39:06.861061+05:30
Nellore,Andhra Pradesh,14.4426,79.9865,31.5,60,0.0,1010.6,9.1,31.7,54,24.0,16.9,0,0,4,1,2026-03-26T10:39:06.861068+05:30
Kurnool,Andhra Pradesh,15.8281,78.0373,34.2,30,0.0,981.2,9.0,29.2,85,30.2,20.5,0,5,7,0,2026-03-26T10:39:06.861076+05:30
Kakinada,Andhra Pradesh,16.9891,82.2475,32.4,57,0.0,1012.2,8.95,25.6,62,29.2,18.2,0,0,4,1,2026-03-26T10:39:06.861083+05:30
Tirupati,Andhra Pradesh,13.6288,79.4192,30.5,52,0.0,996.5,9.2,36.0,73,30.6,22.5,0,5,7,1,2026-03-26T10:39:06.861089+05:30
Warangal,Telangana,17.9689,79.5941,31.4,52,0.0,983.8,8.8,25.2,86,33.3,23.7,0,5,7,1,2026-03-26T10:39:06.861096+05:30
Nizamabad,Telangana,18.6725,78.0941,34.2,40,0.0,969.4,8.75,25.6,107,48.1,40.9,0,5,7,1,2026-03-26T10:39:06.861102+05:30
Mysore,Karnataka,12.2958,76.6396,30.7,37,0.0,932.2,9.4,38.5,74,31.5,24.0,0,5,7,0,2026-03-26T10:39:06.861110+05:30
Mangalore,Karnataka,12.9141,74.856,29.3,85,0.0,1008.8,9.1,30.6,105,46.1,39.6,7,0,4,1,2026-03-26T10:39:06.861117+05:30
Hubli-Dharwad,Karnataka,15.3647,75.124,31.0,48,0.0,944.7,9.0,32.4,125,31.9,26.0,0,5,7,1,2026-03-26T10:39:06.861124+05:30
Belgaum,Karnataka,15.8497,74.4977,30.9,47,0.0,929.7,9.0,31.7,130,38.2,30.7,0,5,7,1,2026-03-26T10:39:10.081054+05:30
Coimbatore,Tamil Nadu,11.0168,76.9558,30.2,51,0.0,965.5,9.4,42.5,54,22.9,16.4,0,5,7,1,2026-03-26T10:39:10.081084+05:30
Madurai,Tamil Nadu,9.9252,78.1198,30.0,58,0.0,997.1,9.35,27.4,58,26.6,18.7,4,5,7,1,2026-03-26T10:39:10.081094+05:30
Trichy,Tamil Nadu,10.7905,78.7047,30.2,59,0.0,1003.9,9.3,27.4,61,33.2,24.9,0,5,4,1,2026-03-26T10:39:10.081102+05:30
Salem,Tamil Nadu,11.6643,78.146,30.2,57,0.0,981.4,9.35,34.6,83,33.1,27.6,0,5,7,1,2026-03-26T10:39:10.081109+05:30
Tirunelveli,Tamil Nadu,8.7139,77.7567,31.3,51,0.0,1007.0,9.3,40.0,41,14.7,10.0,0,5,4,1,2026-03-26T10:39:10.081116+05:30
Vellore,Tamil Nadu,12.9165,79.1325,29.3,58,0.0,989.4,9.3,34.6,80,23.1,16.2,4,5,7,1,2026-03-26T10:39:10.081123+05:30
Erode,Tamil Nadu,11.341,77.7172,30.4,60,0.0,993.1,9.3,26.3,56,25.1,20.4,0,5,7,1,2026-03-26T10:39:10.081130+05:30
Kochi,Kerala,9.9312,76.2673,29.0,79,0.0,1010.8,9.2,34.2,94,39.6,31.5,7,0,4,1,2026-03-26T10:39:10.081137+05:30
Thiruvananthapuram,Kerala,8.5241,76.9366,29.4,64,0.0,1010.3,9.2,28.8,62,18.6,15.1,7,0,4,1,2026-03-26T10:39:10.081144+05:30
Kozhikode,Kerala,11.2588,75.7804,30.5,75,0.0,1010.0,9.1,30.6,97,51.3,41.4,3,0,4,1,2026-03-26T10:39:10.081151+05:30
Thrissur,Kerala,10.5276,76.2144,34.0,53,0.0,1009.0,9.15,39.2,97,30.4,24.3,0,0,4,1,2026-03-26T10:39:10.081158+05:30
Kannur,Kerala,11.8745,75.3704,32.2,64,0.0,1009.2,9.1,34.6,100,46.9,38.0,3,0,4,1,2026-03-26T10:39:10.081165+05:30
Patna,Bihar,25.5941,85.1376,29.9,44,0.0,1006.6,8.0,24.8,155,73.6,43.5,4,5,4,1,2026-03-26T10:39:10.081171+05:30
Gaya,Bihar,24.7914,85.0002,31.0,42,0.0,1000.0,8.1,26.6,89,64.7,21.4,0,5,4,1,2026-03-26T10:39:10.081178+05:30
Muzaffarpur,Bihar,26.1209,85.3647,28.6,59,0.0,1006.8,7.95,17.6,157,85.0,58.7,4,5,4,1,2026-03-26T10:39:10.081184+05:30
Bhagalpur,Bihar,25.2425,87.0117,29.3,57,0.0,1007.5,8.0,15.1,127,64.0,39.1,4,5,4,1,2026-03-26T10:39:10.081191+05:30
Ranchi,Jharkhand,23.3441,85.3096,29.5,31,0.0,943.9,8.7,36.0,69,52.9,17.4,4,5,7,0,2026-03-26T10:39:10.081198+05:30
Jamshedpur,Jharkhand,22.8046,86.2029,31.4,58,0.0,996.7,8.55,22.0,165,108.5,82.4,0,5,7,1,2026-03-26T10:39:10.081205+05:30
Dhanbad,Jharkhand,23.7957,86.4304,31.3,51,0.0,985.7,8.45,23.8,152,77.1,50.9,0,5,7,1,2026-03-26T10:39:10.081212+05:30
Bokaro,Jharkhand,23.6693,86.1511,30.7,52,0.0,989.9,8.45,22.0,139,70.3,38.5,0,5,7,1,2026-03-26T10:39:10.081219+05:30
Bhubaneswar,Odisha,20.2961,85.8245,31.2,66,0.0,1008.0,8.75,18.0,95,51.3,38.8,3,0,4,1,2026-03-26T10:39:10.081226+05:30
Cuttack,Odisha,20.4625,85.8828,31.0,66,0.0,1010.1,8.8,11.9,95,51.3,38.8,3,0,4,1,2026-03-26T10:39:10.081233+05:30
Rourkela,Odisha,22.2604,84.8536,32.6,47,0.0,990.9,8.45,26.6,116,84.5,61.2,0,5,7,1,2026-03-26T10:39:10.081239+05:30
Raipur,Chhattisgarh,21.2514,81.6296,32.8,40,0.0,980.6,8.5,22.0,146,68.5,52.6,0,5,7,1,2026-03-26T10:39:10.081245+05:30
Bhilai,Chhattisgarh,21.1938,81.3509,32.6,43,0.0,981.0,8.5,19.8,147,68.2,54.9,0,5,7,1,2026-03-26T10:39:10.081252+05:30
Guwahati,Assam,26.1158,91.7086,27.0,70,0.0,1008.4,7.9,23.0,136,70.8,48.4,7,0,4,1,2026-03-26T10:39:10.081258+05:30
Agartala,Tripura,23.8315,91.2868,29.7,66,0.0,1012.1,8.2,20.5,161,96.2,67.8,7,0,4,1,2026-03-26T10:39:10.081264+05:30
Shillong,Meghalaya,25.5788,91.8933,18.8,46,0.0,861.7,8.3,26.6,110,54.5,33.3,0,5,7,0,2026-03-26T10:39:10.081271+05:30
Imphal,Manipur,24.817,93.9368,22.3,55,0.0,928.7,8.55,45.7,130,56.7,36.3,0,5,7,0,2026-03-26T10:39:10.081278+05:30
Aizawl,Mizoram,23.7271,92.7176,25.6,49,0.0,898.8,8.45,34.2,129,67.3,41.2,4,5,7,0,2026-03-26T10:39:10.081285+05:30
Kohima,Nagaland,25.6701,94.1077,18.0,68,0.0,860.3,8.45,47.5,110,53.6,32.2,3,5,7,0,2026-03-26T10:39:10.081291+05:30
Gangtok,Sikkim,27.3314,88.6138,16.8,78,0.0,842.4,7.4,18.7,91,50.4,37.3,3,5,7,0,2026-03-26T10:39:10.081298+05:30
Siliguri,West Bengal,26.7271,88.3953,22.1,71,0.0,1001.2,7.95,32.8,153,80.8,54.1,3,5,4,1,2026-03-26T10:39:13.307749+05:30
Durgapur,West Bengal,23.5204,87.3119,31.2,61,0.0,1001.0,8.4,21.2,160,94.3,71.0,3,5,4,1,2026-03-26T10:39:13.307782+05:30
Asansol,West Bengal,23.6739,86.9524,31.6,58,0.0,999.4,8.4,17.6,150,85.2,60.8,0,5,7,1,2026-03-26T10:39:13.307794+05:30
Pondicherry,Puducherry,11.9139,79.8145,30.8,63,0.0,1012.7,9.2,29.2,51,28.9,17.5,3,0,4,1,2026-03-26T10:39:13.307804+05:30
Port Blair,Andaman and Nicobar Islands,11.6234,92.7265,28.6,75,0.0,1009.3,9.15,26.6,60,13.3,9.0,7,0,4,1,2026-03-26T10:39:13.307814+05:30
Haridwar,Uttarakhand,29.9457,78.1642,29.1,47,0.0,979.9,6.4,48.2,82,23.9,14.5,4,5,7,1,2026-03-26T10:39:13.307823+05:30
Rishikesh,Uttarakhand,30.0869,78.2676,28.5,49,0.0,972.6,6.45,46.1,67,18.5,8.9,4,5,7,1,2026-03-26T10:39:13.307832+05:30
Nainital,Uttarakhand,29.3919,79.4542,22.2,49,0.0,812.2,7.3,65.9,65,21.4,12.5,0,5,7,0,2026-03-26T10:39:13.307840+05:30
Mussoorie,Uttarakhand,30.4599,78.0664,20.3,59,0.0,808.5,6.8,56.2,73,18.5,9.0,0,5,7,0,2026-03-26T10:39:13.307870+05:30
Dharamshala,Himachal Pradesh,32.219,76.3234,22.5,41,0.0,874.5,7.0,23.0,52,10.2,4.8,0,5,7,0,2026-03-26T10:39:13.307880+05:30
Dalhousie,Himachal Pradesh,32.5387,75.971,19.7,42,0.0,809.3,7.15,27.4,70,15.7,7.9,0,5,7,0,2026-03-26T10:39:13.307890+05:30
Patiala,Punjab,30.3398,76.3869,27.6,57,0.0,984.5,6.15,34.9,165,187.2,41.6,4,5,7,1,2026-03-26T10:39:13.307898+05:30
Bhatinda,Punjab,30.211,74.9455,27.1,57,0.0,990.4,6.2,40.7,89,27.1,24.7,4,5,7,1,2026-03-26T10:39:13.307906+05:30
Rohtak,Haryana,28.8955,76.6066,27.5,56,0.0,988.4,6.2,24.5,191,145.3,43.9,4,5,7,1,2026-03-26T10:39:13.307913+05:30
Panipat,Haryana,29.3909,76.9635,27.7,51,0.0,986.8,6.1,20.9,496,261.7,49.6,4,5,7,1,2026-03-26T10:39:13.307920+05:30
Mathura,Uttar Pradesh,27.4924,77.6737,29.5,45,0.0,993.6,6.85,32.0,202,131.8,45.4,4,5,7,1,2026-03-26T10:39:13.307926+05:30
Vrindavan,Uttar Pradesh,27.5823,77.7027,29.1,47,0.0,993.9,6.8,29.5,202,131.8,45.4,4,5,7,1,2026-03-26T10:39:13.307932+05:30
Ayodhya,Uttar Pradesh,26.7922,82.1998,31.1,38,0.0,1001.7,7.3,32.8,93,216.1,53.2,0,5,4,0,2026-03-26T10:39:13.307939+05:30
Ratlam,Madhya Pradesh,23.3315,75.0367,31.5,41,0.0,960.2,8.05,29.5,46,9.9,6.1,0,5,7,1,2026-03-26T10:39:13.307945+05:30
Sagar,Madhya Pradesh,23.8388,78.7378,33.0,27,0.0,956.5,8.05,24.8,51,57.4,15.1,0,5,7,0,2026-03-26T10:39:13.307951+05:30
Satna,Madhya Pradesh,24.6005,80.8322,32.3,28,0.0,978.1,8.05,26.6,75,141.1,26.3,0,5,7,0,2026-03-26T10:39:13.307958+05:30
Akola,Maharashtra,20.7002,77.0082,33.4,33,0.0,980.1,8.4,24.1,55,20.7,15.1,0,5,7,0,2026-03-26T10:39:13.307965+05:30
Amravati,Maharashtra,20.9374,77.7796,35.2,29,0.0,972.4,8.4,23.8,56,23.1,17.1,0,5,10,0,2026-03-26T10:39:13.307972+05:30
Latur,Maharashtra,18.4088,76.5604,32.9,34,0.0,944.5,8.75,35.3,93,46.4,37.3,0,5,7,0,2026-03-26T10:39:13.307979+05:30
Nanded,Maharashtra,19.1383,77.3091,34.9,35,0.0,973.4,8.6,25.6,78,17.8,14.4,0,5,7,1,2026-03-26T10:39:13.307986+05:30
Gulbarga,Karnataka,17.3297,76.8343,33.5,41,0.0,963.1,8.85,16.9,102,41.9,33.4,0,5,7,1,2026-03-26T10:39:13.307992+05:30
Bidar,Karnataka,17.9104,77.5199,32.7,42,0.0,940.4,8.85,20.5,96,41.6,32.8,0,5,7,1,2026-03-26T10:39:13.307999+05:30
Hospet,Karnataka,15.2689,76.3909,31.6,41,0.0,959.9,9.05,28.1,98,28.3,22.3,0,5,7,1,2026-03-26T10:39:13.308005+05:30
Tirupur,Tamil Nadu,11.1085,77.3411,30.3,56,0.0,979.2,9.4,33.1,60,23.6,19.1,0,5,7,1,2026-03-26T10:39:13.308012+05:30
Alappuzha,Kerala,9.4981,76.3388,28.8,79,0.0,1011.0,9.15,29.5,87,35.4,28.7,7,0,4,1,2026-03-26T10:39:13.308018+05:30
Munnar,Kerala,10.0889,77.0595,28.8,44,0.0,861.4,9.7,26.6,57,23.9,15.9,4,5,7,0,2026-03-26T10:39:13.308025+05:30
Silchar,Assam,24.8333,92.7789,28.6,64,0.0,1011.1,8.2,18.7,157,88.9,55.4,7,0,4,1,2026-03-26T10:39:13.308032+05:30
Dibrugarh,Assam,27.4728,94.912,24.9,66,0.0,1002.3,8.05,7.9,90,43.7,31.3,3,5,4,1,2026-03-26T10:39:13.308039+05:30
