city,state,latitude,longitude,temp,humidity,rain,pressure,uv_index,wind_gusts,aqi,pm10,pm2_5,no2,co,o3,so2,mosquito_risk,arthritis_risk,migraine_risk,frizz_risk,updated_at
Delhi,Delhi,28.6139,77.209,28.5,83,0.0,977.5,6.3,38.2,100,38.6,38.5,40.1,833.0,60.0,25.6,7,5,7,1,2026-07-22T22:52:21.806879+05:30
Mumbai,Maharashtra,19.076,72.8777,25.8,90,0.4,1005.7,0.75,61.6,56,36.0,15.5,5.2,155.0,43.0,4.0,10,5,0,1,2026-07-22T22:52:21.806925+05:30
Bangalore,Karnataka,12.9716,77.5946,21.1,91,0.0,912.9,7.45,49.7,33,9.0,7.3,19.9,365.0,23.0,5.8,3,5,7,1,2026-07-22T22:52:21.806941+05:30
Hyderabad,Telangana,17.385,78.4867,23.1,90,0.0,952.2,4.55,47.2,36,12.2,8.7,10.4,248.0,39.0,5.1,3,5,3,1,2026-07-22T22:52:21.806950+05:30
Chennai,Tamil Nadu,13.0827,80.2707,26.6,87,0.0,1008.9,8.4,35.6,75,26.2,20.5,23.3,314.0,61.0,11.8,7,0,4,1,2026-07-22T22:52:21.806959+05:30
Kolkata,West Bengal,22.5726,88.3639,26.1,95,0.0,1003.6,4.75,36.0,56,28.1,23.7,12.3,321.0,58.0,8.6,7,5,0,1,2026-07-22T22:52:21.806967+05:30
Pune,Maharashtra,18.5204,73.8567,22.3,92,0.1,944.8,1.5,60.5,28,23.9,10.9,5.1,129.0,54.0,3.5,6,5,3,1,2026-07-22T22:52:21.806974+05:30
Ahmedabad,Gujarat,23.0225,72.5714,26.8,89,0.0,995.4,6.15,27.0,61,30.0,18.9,20.7,190.0,32.0,5.5,7,5,7,1,2026-07-22T22:52:21.806981+05:30
Jaipur,Rajasthan,26.9124,75.7873,25.4,95,0.2,953.6,6.65,29.9,55,20.4,19.6,23.3,414.0,60.0,8.0,10,5,7,1,2026-07-22T22:52:21.806987+05:30
Lucknow,Uttar Pradesh,26.8467,80.9462,28.0,82,0.0,988.5,6.45,46.4,77,16.7,16.7,9.4,323.0,86.0,6.0,7,5,7,1,2026-07-22T22:52:21.806998+05:30
Kanpur,Uttar Pradesh,26.4499,80.3319,27.9,81,0.0,986.2,6.2,41.8,76,17.6,17.6,10.3,328.0,87.0,6.4,7,5,7,1,2026-07-22T22:52:21.807007+05:30
Chandigarh,Chandigarh,30.7333,76.7794,27.4,85,0.0,963.9,7.4,46.4,87,64.0,63.1,70.3,1365.0,17.0,11.9,7,5,7,1,2026-07-22T22:52:21.807014+05:30
Srinagar,Jammu and Kashmir,34.0837,74.7973,17.2,94,0.0,839.8,2.55,10.8,61,27.8,27.4,40.1,1187.0,14.0,3.1,3,10,3,1,2026-07-22T22:52:21.807021+05:30
Jammu,Jammu and Kashmir,32.7266,74.857,25.2,91,0.1,968.2,4.75,40.7,64,47.6,47.3,64.1,612.0,25.0,9.4,10,5,3,1,2026-07-22T22:52:21.807027+05:30
Amritsar,Punjab,31.634,74.8723,26.1,92,0.0,975.8,1.95,45.0,81,37.4,37.0,29.1,629.0,31.0,7.1,7,5,3,1,2026-07-22T22:52:21.807033+05:30
Ludhiana,Punjab,30.901,75.8573,26.7,91,0.0,973.4,5.95,40.0,101,58.7,58.3,43.5,787.0,26.0,16.8,7,5,3,1,2026-07-22T22:52:21.807040+05:30
Jalandhar,Punjab,31.326,75.5762,26.4,95,0.0,974.5,5.5,42.5,103,48.1,47.6,38.2,1051.0,24.0,8.7,7,5,3,1,2026-07-22T22:52:21.807046+05:30
Dehradun,Uttarakhand,30.6284,78.0322,17.7,99,0.0,827.9,6.55,25.6,34,15.4,15.2,34.1,195.0,29.0,1.0,3,10,7,1,2026-07-22T22:52:21.807052+05:30
Shimla,Himachal Pradesh,31.1048,77.1734,15.1,96,0.0,781.6,5.2,31.0,47,14.6,14.6,31.8,482.0,34.0,0.6,3,10,3,0,2026-07-22T22:52:21.807059+05:30
Manali,Himachal Pradesh,32.2396,77.1887,20.6,92,0.1,818.3,3.75,21.6,37,7.3,7.2,39.7,234.0,21.0,0.5,6,5,3,1,2026-07-22T22:52:21.807068+05:30
Gurgaon,Haryana,28.4595,77.0266,27.7,88,0.0,975.9,6.1,43.2,106,35.6,34.9,38.8,918.0,63.0,22.3,7,5,7,1,2026-07-22T22:52:21.807075+05:30
Noida,Uttar Pradesh,28.5355,77.391,28.4,81,0.0,979.0,6.7,38.5,106,35.6,34.9,38.8,612.0,63.0,22.3,7,5,7,1,2026-07-22T22:52:21.807081+05:30
Ghaziabad,Uttar Pradesh,28.6692,77.4538,28.3,82,0.0,977.2,6.8,42.1,87,35.9,35.7,20.9,402.0,70.0,9.3,7,5,7,1,2026-07-22T22:52:21.807087+05:30
Faridabad,Haryana,28.4089,77.3178,28.1,84,0.0,978.2,6.9,41.4,106,35.6,34.9,38.8,606.0,63.0,22.3,7,5,7,1,2026-07-22T22:52:21.807093+05:30
Meerut,Uttar Pradesh,28.9845,77.7064,28.5,81,0.0,976.3,6.9,45.7,87,35.9,35.7,20.9,376.0,70.0,9.3,7,5,7,1,2026-07-22T22:52:21.807101+05:30
Agra,Uttar Pradesh,27.1767,78.0081,28.5,81,0.0,981.8,6.85,36.4,72,23.4,23.4,22.3,349.0,68.0,9.1,7,5,7,1,2026-07-22T22:52:21.807107+05:30
Varanasi,Uttar Pradesh,25.3176,82.9739,26.5,93,0.0,992.6,8.15,46.8,64,20.9,20.9,16.8,400.0,66.0,12.3,7,5,7,1,2026-07-22T22:52:21.807113+05:30
Prayagraj,Uttar Pradesh,25.4358,81.8463,26.4,95,0.1,990.6,8.1,37.1,70,18.0,18.0,12.4,473.0,85.0,8.7,10,5,7,1,2026-07-22T22:52:21.807120+05:30
Gorakhpur,Uttar Pradesh,26.7606,83.3732,27.9,83,0.0,993.7,6.45,52.6,72,17.6,17.6,10.0,332.0,78.0,5.7,7,5,7,1,2026-07-22T22:52:21.807125+05:30
Bareilly,Uttar Pradesh,28.367,79.4304,28.6,79,0.0,982.3,6.55,43.6,77,20.8,20.7,13.4,286.0,67.0,5.9,7,5,7,1,2026-07-22T22:52:21.807133+05:30
Aligarh,Uttar Pradesh,27.8974,78.088,27.8,87,0.0,980.0,6.9,41.8,83,23.1,23.1,15.9,321.0,82.0,15.1,7,5,7,1,2026-07-22T22:52:21.807139+05:30
Moradabad,Uttar Pradesh,28.8386,78.7733,28.8,76,0.0,979.1,7.7,48.6,75,25.8,25.7,15.1,300.0,71.0,7.4,7,5,7,1,2026-07-22T22:52:21.807145+05:30
Saharanpur,Uttar Pradesh,29.9637,77.546,28.0,86,0.0,971.0,7.35,52.6,79,52.9,51.7,35.5,503.0,35.0,10.3,7,5,7,1,2026-07-22T22:52:21.807165+05:30
Jhansi,Uttar Pradesh,25.4484,78.5685,25.8,97,0.0,971.5,7.35,32.8,58,15.1,15.0,13.3,357.0,71.0,5.5,7,5,7,1,2026-07-22T22:52:25.126348+05:30
Surat,Gujarat,21.1702,72.8311,25.6,96,0.4,1000.8,0.65,31.0,73,28.5,19.7,28.4,523.0,18.0,38.3,10,5,0,1,2026-07-22T22:52:25.126382+05:30
Vadodara,Gujarat,22.3072,73.1812,25.7,97,0.2,997.9,0.95,27.4,63,21.6,15.8,20.3,286.0,39.0,7.0,10,5,3,1,2026-07-22T22:52:25.126393+05:30
Rajkot,Gujarat,22.3039,70.8022,27.1,82,0.0,988.1,3.5,41.4,60,28.6,14.6,7.1,114.0,37.0,5.9,7,5,3,1,2026-07-22T22:52:25.126402+05:30
Thane,Maharashtra,19.2183,72.9781,25.2,95,0.6,1004.8,0.85,46.8,56,36.0,15.5,5.2,174.0,43.0,4.0,10,5,0,1,2026-07-22T22:52:25.126410+05:30
Nagpur,Maharashtra,21.1458,79.0882,24.2,94,0.1,969.0,0.65,41.0,31,4.9,4.6,11.4,198.0,39.0,10.9,6,5,3,1,2026-07-22T22:52:25.126418+05:30
Nashik,Maharashtra,19.9975,73.7898,22.7,95,0.1,940.4,0.55,64.4,18,1.0,1.0,8.1,128.0,34.0,5.0,6,5,3,1,2026-07-22T22:52:25.126425+05:30
Aurangabad,Maharashtra,19.8762,75.3433,23.2,86,0.0,939.9,1.25,67.0,23,2.4,2.3,6.7,151.0,37.0,4.3,3,5,3,1,2026-07-22T22:52:25.126432+05:30
Solapur,Maharashtra,17.6599,75.9064,23.9,84,0.0,956.0,5.8,55.4,25,7.1,4.4,5.5,131.0,39.0,2.4,3,5,3,1,2026-07-22T22:52:25.126439+05:30
Kolhapur,Maharashtra,16.705,74.2433,21.7,96,0.0,947.1,7.25,56.5,24,9.5,5.7,5.0,133.0,42.0,2.0,3,5,7,1,2026-07-22T22:52:25.126446+05:30
Goa,Goa,15.2993,74.124,23.5,98,0.5,999.9,6.5,31.7,56,23.5,12.4,3.1,300.0,38.0,0.9,6,5,7,1,2026-07-22T22:52:25.126453+05:30
Jodhpur,Rajasthan,26.2389,73.0243,26.4,95,0.0,976.0,5.25,20.9,84,65.7,27.4,13.4,229.0,63.0,2.3,7,5,3,1,2026-07-22T22:52:25.126460+05:30
Udaipur,Rajasthan,24.5854,73.7125,24.2,97,0.0,939.4,2.35,24.8,54,16.5,9.1,7.2,193.0,59.0,2.9,3,5,3,1,2026-07-22T22:52:25.126466+05:30
Kota,Rajasthan,25.2138,75.8648,26.2,96,0.0,971.5,8.0,23.8,48,12.3,11.6,14.7,341.0,73.0,5.7,7,5,7,1,2026-07-22T22:52:25.126473+05:30
Bikaner,Rajasthan,28.0229,73.3119,28.4,87,0.0,975.3,5.35,33.8,89,15.9,15.6,5.5,383.0,106.0,4.6,7,5,3,1,2026-07-22T22:52:25.126480+05:30
Ajmer,Rajasthan,26.4499,74.6399,25.3,95,0.0,948.1,7.3,27.0,55,13.7,13.3,16.3,310.0,72.0,3.0,7,5,7,1,2026-07-22T22:52:25.126487+05:30
Gwalior,Madhya Pradesh,26.2183,78.1828,25.9,96,0.1,977.0,7.0,35.6,57,26.1,16.9,11.3,311.0,87.0,5.5,10,5,7,1,2026-07-22T22:52:25.126493+05:30
Indore,Madhya Pradesh,22.7196,75.8577,23.5,96,0.0,941.6,4.3,33.8,44,15.1,13.6,14.3,293.0,49.0,6.0,3,5,3,1,2026-07-22T22:52:25.126500+05:30
Bhopal,Madhya Pradesh,23.2599,77.4126,23.8,97,0.0,947.1,8.05,38.2,39,7.0,6.8,7.7,289.0,67.0,2.3,3,5,7,1,2026-07-22T22:52:25.126507+05:30
Jabalpur,Madhya Pradesh,23.1815,79.9864,24.1,97,0.1,955.7,6.75,28.4,32,7.2,7.0,9.2,183.0,49.0,4.7,6,5,7,1,2026-07-22T22:52:25.126513+05:30
Ujjain,Madhya Pradesh,23.1765,75.7885,23.8,97,0.0,947.2,4.5,30.2,43,14.3,12.7,9.2,289.0,53.0,4.4,3,5,3,1,2026-07-22T22:52:25.126519+05:30
Visakhapatnam,Andhra Pradesh,17.6868,83.2185,27.3,78,0.0,1002.5,8.65,54.4,64,21.6,16.8,18.9,288.0,50.0,30.8,7,5,4,1,2026-07-22T22:52:25.126526+05:30
Vijayawada,Andhra Pradesh,16.5062,80.648,27.5,81,0.0,1002.7,5.75,46.4,58,18.1,12.9,10.2,177.0,41.0,6.2,7,5,0,1,2026-07-22T22:52:25.126532+05:30
Guntur,Andhra Pradesh,16.3067,80.4365,27.6,83,0.0,1004.0,5.75,51.1,54,21.4,13.1,9.5,190.0,41.0,6.2,7,5,0,1,2026-07-22T22:52:25.126539+05:30
Nellore,Andhra Pradesh,14.4426,79.9865,27.8,75,0.0,1006.8,8.05,39.6,64,22.2,13.8,11.6,212.0,50.0,4.9,7,5,4,1,2026-07-22T22:52:25.126547+05:30
Kurnool,Andhra Pradesh,15.8281,78.0373,25.6,74,0.0,977.0,5.2,49.3,36,6.8,5.2,9.1,131.0,37.0,4.3,7,5,3,1,2026-07-22T22:52:25.126555+05:30
Kakinada,Andhra Pradesh,16.9891,82.2475,28.0,84,0.0,1007.1,7.9,56.5,62,21.5,16.2,8.8,331.0,57.0,5.7,7,5,4,1,2026-07-22T22:52:25.126561+05:30
Tirupati,Andhra Pradesh,13.6288,79.4192,26.2,87,0.0,992.4,8.45,38.2,65,18.9,14.6,19.4,374.0,30.0,2.8,7,5,7,1,2026-07-22T22:52:25.126568+05:30
Warangal,Telangana,17.9689,79.5941,25.1,87,0.0,977.7,3.35,40.7,49,14.6,11.9,11.8,222.0,43.0,4.9,7,5,3,1,2026-07-22T22:52:25.126574+05:30
Nizamabad,Telangana,18.6725,78.0941,23.2,95,0.0,962.8,1.85,41.8,36,8.1,6.0,6.3,160.0,41.0,2.9,3,5,3,1,2026-07-22T22:52:25.126581+05:30
Mysore,Karnataka,12.2958,76.6396,21.6,90,0.0,930.3,7.5,51.5,25,7.3,5.5,11.7,156.0,29.0,2.5,3,5,7,1,2026-07-22T22:52:25.126587+05:30
Mangalore,Karnataka,12.9141,74.856,24.1,99,0.1,1009.3,8.2,32.8,48,22.2,13.8,9.6,387.0,30.0,2.7,6,0,4,1,2026-07-22T22:52:25.126593+05:30
Hubli-Dharwad,Karnataka,15.3647,75.124,21.1,98,0.1,941.1,6.5,58.0,20,3.0,2.2,5.1,124.0,36.0,1.2,6,5,7,1,2026-07-22T22:52:25.126600+05:30
Belgaum,Karnataka,15.8497,74.4977,20.7,96,0.1,925.3,8.05,59.0,18,4.2,2.5,3.9,108.0,39.0,1.3,6,5,7,1,2026-07-22T22:52:28.428790+05:30
Coimbatore,Tamil Nadu,11.0168,76.9558,23.8,92,0.0,963.6,8.05,53.3,35,8.8,7.5,11.0,236.0,28.0,3.8,3,5,7,1,2026-07-22T22:52:28.428827+05:30
Madurai,Tamil Nadu,9.9252,78.1198,29.2,67,0.0,994.5,8.2,43.2,73,23.7,16.4,12.5,539.0,65.0,5.6,7,5,7,1,2026-07-22T22:52:28.428838+05:30
Trichy,Tamil Nadu,10.7905,78.7047,29.5,61,0.0,1001.6,7.95,40.3,55,25.1,20.3,22.3,182.0,41.0,5.8,7,5,4,1,2026-07-22T22:52:28.428848+05:30
Salem,Tamil Nadu,11.6643,78.146,26.7,85,0.0,979.3,8.3,38.2,63,24.7,19.9,27.8,328.0,29.0,12.9,7,5,7,1,2026-07-22T22:52:28.428856+05:30
Tirunelveli,Tamil Nadu,8.7139,77.7567,29.4,65,0.0,1005.3,8.65,51.1,43,9.0,7.1,7.3,151.0,41.0,2.5,7,5,4,1,2026-07-22T22:52:28.428863+05:30
Vellore,Tamil Nadu,12.9165,79.1325,27.0,77,0.0,986.2,8.9,62.3,67,21.3,18.5,23.0,246.0,24.0,5.1,7,5,7,1,2026-07-22T22:52:28.428869+05:30
Erode,Tamil Nadu,11.341,77.7172,27.2,73,0.0,991.2,8.3,45.7,53,14.2,12.0,19.2,208.0,28.0,4.4,7,5,7,1,2026-07-22T22:52:28.428877+05:30
Kochi,Kerala,9.9312,76.2673,24.3,97,0.0,1012.0,7.75,27.7,61,20.8,18.5,25.8,188.0,11.0,6.8,3,0,4,1,2026-07-22T22:52:28.428883+05:30
Thiruvananthapuram,Kerala,8.5241,76.9366,25.5,89,0.0,1011.3,8.15,37.1,50,8.9,5.7,4.6,155.0,42.0,1.9,7,0,4,1,2026-07-22T22:52:28.428890+05:30
Kozhikode,Kerala,11.2588,75.7804,24.7,96,0.0,1010.9,7.8,29.2,34,10.9,7.4,3.7,436.0,42.0,2.0,3,0,4,1,2026-07-22T22:52:28.428896+05:30
Thrissur,Kerala,10.5276,76.2144,25.5,93,0.0,1010.2,7.65,33.5,60,31.4,29.0,21.4,450.0,16.0,6.1,7,0,4,1,2026-07-22T22:52:28.428903+05:30
Kannur,Kerala,11.8745,75.3704,24.1,94,0.0,1010.0,7.45,24.8,40,18.0,13.7,18.3,335.0,14.0,3.6,3,0,4,1,2026-07-22T22:52:28.428909+05:30
Patna,Bihar,25.5941,85.1376,27.3,86,0.0,997.0,8.2,47.9,59,14.4,14.4,13.0,275.0,80.0,10.2,7,5,7,1,2026-07-22T22:52:28.428916+05:30
Gaya,Bihar,24.7914,85.0002,27.4,81,0.0,989.8,8.85,44.6,52,13.7,13.7,19.7,442.0,44.0,18.4,7,5,7,1,2026-07-22T22:52:28.428922+05:30
Muzaffarpur,Bihar,26.1209,85.3647,26.6,89,0.0,997.8,7.15,53.3,63,14.7,14.6,11.8,270.0,73.0,7.6,7,5,7,1,2026-07-22T22:52:28.428928+05:30
Bhagalpur,Bihar,25.2425,87.0117,25.8,96,0.1,998.9,7.05,43.6,57,15.9,15.9,14.6,243.0,63.0,10.1,10,5,7,1,2026-07-22T22:52:28.428934+05:30
Ranchi,Jharkhand,23.3441,85.3096,22.6,95,0.0,934.2,6.05,40.7,37,4.5,4.4,9.1,201.0,44.0,8.3,3,5,7,1,2026-07-22T22:52:28.428940+05:30
Jamshedpur,Jharkhand,22.8046,86.2029,25.0,96,0.0,988.2,7.6,23.8,60,20.0,19.5,24.9,370.0,33.0,24.4,7,5,7,1,2026-07-22T22:52:28.428946+05:30
Dhanbad,Jharkhand,23.7957,86.4304,25.5,93,0.0,976.9,7.05,41.0,79,37.4,36.8,52.6,1229.0,9.0,105.3,7,5,7,1,2026-07-22T22:52:28.428953+05:30
Bokaro,Jharkhand,23.6693,86.1511,25.9,86,0.0,980.7,8.65,38.2,77,23.7,23.3,29.4,936.0,29.0,68.7,7,5,7,1,2026-07-22T22:52:28.428959+05:30
Bhubaneswar,Odisha,20.2961,85.8245,26.2,96,0.0,1000.4,7.5,38.9,61,24.9,21.8,10.6,289.0,85.0,9.2,7,5,4,1,2026-07-22T22:52:28.428966+05:30
Cuttack,Odisha,20.4625,85.8828,26.5,95,0.0,1002.2,7.3,32.8,61,24.9,21.8,10.6,372.0,85.0,9.2,7,5,4,1,2026-07-22T22:52:28.428972+05:30
Rourkela,Odisha,22.2604,84.8536,24.4,96,0.3,982.2,1.8,30.6,50,7.0,6.4,7.4,224.0,48.0,3.2,6,5,3,1,2026-07-22T22:52:28.428979+05:30
Raipur,Chhattisgarh,21.2514,81.6296,24.2,94,0.1,971.1,0.6,49.3,54,13.0,10.6,14.8,219.0,41.0,22.3,6,5,3,1,2026-07-22T22:52:28.428986+05:30
Bhilai,Chhattisgarh,21.1938,81.3509,24.2,94,0.1,971.5,0.75,49.0,52,11.4,9.7,14.4,323.0,40.0,21.3,6,5,3,1,2026-07-22T22:52:28.428993+05:30
Guwahati,Assam,26.1158,91.7086,25.5,98,0.1,1000.4,8.65,21.2,44,10.6,10.3,9.3,223.0,40.0,1.9,10,5,4,1,2026-07-22T22:52:28.428999+05:30
Agartala,Tripura,23.8315,91.2868,25.4,92,0.0,1005.3,8.5,39.6,37,7.7,7.3,9.8,192.0,51.0,1.8,7,5,4,1,2026-07-22T22:52:28.429005+05:30
Shillong,Meghalaya,25.5788,91.8933,20.1,90,0.0,857.3,8.45,32.8,28,4.8,4.4,6.7,221.0,48.0,2.1,3,5,7,1,2026-07-22T22:52:28.429010+05:30
Imphal,Manipur,24.817,93.9368,21.4,98,0.0,923.0,8.6,32.4,44,20.1,19.7,19.6,382.0,18.0,3.1,3,5,7,1,2026-07-22T22:52:28.429016+05:30
Aizawl,Mizoram,23.7271,92.7176,19.2,97,0.0,891.7,8.15,40.0,24,2.4,2.1,3.7,140.0,45.0,0.5,3,10,7,1,2026-07-22T22:52:28.429022+05:30
Kohima,Nagaland,25.6701,94.1077,19.8,100,0.1,855.5,7.95,24.1,27,7.7,7.5,13.0,263.0,20.0,0.9,6,10,7,1,2026-07-22T22:52:28.429028+05:30
Gangtok,Sikkim,27.3314,88.6138,18.3,94,0.0,838.4,6.8,32.0,36,4.4,4.3,6.2,230.0,81.0,1.1,3,10,7,1,2026-07-22T22:52:28.429034+05:30
Siliguri,West Bengal,26.7271,88.3953,24.5,98,0.3,992.6,8.6,36.7,56,13.1,12.9,14.4,286.0,70.0,3.6,6,5,7,1,2026-07-22T22:52:31.721556+05:30
Durgapur,West Bengal,23.5204,87.3119,26.0,94,0.0,992.4,8.7,35.6,70,33.2,32.4,38.2,301.0,21.0,40.8,7,5,7,1,2026-07-22T22:52:31.721598+05:30
Asansol,West Bengal,23.6739,86.9524,26.0,92,0.0,990.9,8.4,36.7,66,28.5,27.9,42.8,551.0,15.0,50.8,7,5,7,1,2026-07-22T22:52:31.721614+05:30
Pondicherry,Puducherry,11.9139,79.8145,26.4,90,0.0,1010.4,7.3,40.7,69,32.6,23.8,20.4,245.0,59.0,6.3,7,0,4,1,2026-07-22T22:52:31.721626+05:30
Port Blair,Andaman and Nicobar Islands,11.6234,92.7265,27.5,82,0.0,1008.7,8.6,40.3,48,15.2,8.9,0.2,96.0,45.0,0.5,7,0,4,1,2026-07-22T22:52:31.721634+05:30
Haridwar,Uttarakhand,29.9457,78.1642,27.8,86,0.0,969.5,7.4,39.6,73,41.2,40.3,23.4,353.0,46.0,7.3,7,5,7,1,2026-07-22T22:52:31.721641+05:30
Rishikesh,Uttarakhand,30.0869,78.2676,26.8,88,0.0,962.4,7.25,28.8,57,18.4,18.1,11.1,464.0,67.0,3.5,7,5,7,1,2026-07-22T22:52:31.721648+05:30
Nainital,Uttarakhand,29.3919,79.4542,16.8,93,0.0,803.9,6.45,49.7,55,16.5,16.2,12.2,277.0,60.0,2.3,3,10,7,0,2026-07-22T22:52:31.721655+05:30
Mussoorie,Uttarakhand,30.4599,78.0664,16.3,99,0.0,800.7,7.6,35.3,55,28.2,28.0,45.6,394.0,20.0,7.0,3,10,7,1,2026-07-22T22:52:31.721663+05:30
Dharamshala,Himachal Pradesh,32.219,76.3234,22.6,77,0.0,866.9,6.3,23.8,35,9.3,9.1,23.1,518.0,28.0,1.1,3,5,7,1,2026-07-22T22:52:31.721670+05:30
Dalhousie,Himachal Pradesh,32.5387,75.971,17.9,90,0.0,802.9,1.7,21.2,63,21.0,20.7,33.4,624.0,66.0,3.4,3,10,3,1,2026-07-22T22:52:31.721677+05:30
Patiala,Punjab,30.3398,76.3869,27.9,87,0.0,973.0,6.45,45.4,89,66.6,64.0,41.4,531.0,38.0,11.0,7,5,7,1,2026-07-22T22:52:31.721684+05:30
Bhatinda,Punjab,30.211,74.9455,28.2,89,0.1,978.1,7.65,43.6,88,49.6,49.2,24.9,431.0,60.0,10.7,10,5,7,1,2026-07-22T22:52:31.721691+05:30
Rohtak,Haryana,28.8955,76.6066,28.6,82,0.0,976.3,6.2,42.5,115,41.0,37.7,39.4,492.0,63.0,27.0,7,5,7,1,2026-07-22T22:52:31.721698+05:30
Panipat,Haryana,29.3909,76.9635,28.6,83,0.0,975.0,7.45,41.8,107,40.6,37.4,23.6,446.0,70.0,11.9,7,5,7,1,2026-07-22T22:52:31.721704+05:30
Mathura,Uttar Pradesh,27.4924,77.6737,27.2,89,0.0,980.8,7.2,38.9,85,26.3,24.4,24.8,342.0,67.0,8.7,7,5,7,1,2026-07-22T22:52:31.721710+05:30
Vrindavan,Uttar Pradesh,27.5823,77.7027,27.3,90,0.0,981.3,7.05,38.5,85,26.3,24.4,24.8,357.0,67.0,8.7,7,5,7,1,2026-07-22T22:52:31.721717+05:30
Ayodhya,Uttar Pradesh,26.7922,82.1998,27.6,84,0.0,991.2,8.0,48.6,73,16.8,16.7,9.6,327.0,81.0,4.9,7,5,7,1,2026-07-22T22:52:31.721723+05:30
Ratlam,Madhya Pradesh,23.3315,75.0367,23.8,98,0.0,948.0,0.8,31.7,43,14.2,12.0,8.6,183.0,55.0,5.1,3,5,3,1,2026-07-22T22:52:31.721729+05:30
Sagar,Madhya Pradesh,23.8388,78.7378,23.2,98,0.0,943.8,7.9,24.5,38,6.5,6.5,7.3,209.0,63.0,1.6,3,5,7,1,2026-07-22T22:52:31.721736+05:30
Satna,Madhya Pradesh,24.6005,80.8322,25.2,97,0.0,965.1,7.9,27.7,57,12.6,12.6,8.5,326.0,85.0,6.4,7,5,7,1,2026-07-22T22:52:31.721743+05:30
Akola,Maharashtra,20.7002,77.0082,24.7,86,0.1,970.3,0.8,50.0,23,5.4,4.8,8.6,161.0,37.0,5.2,6,5,3,1,2026-07-22T22:52:31.721750+05:30
Amravati,Maharashtra,20.9374,77.7796,24.0,94,0.0,962.9,1.2,42.1,22,5.7,4.9,8.7,152.0,39.0,5.5,3,5,3,1,2026-07-22T22:52:31.721758+05:30
Latur,Maharashtra,18.4088,76.5604,22.9,89,0.0,937.6,3.75,55.8,24,27.7,12.1,4.9,141.0,44.0,2.0,3,5,3,1,2026-07-22T22:52:31.721765+05:30
Nanded,Maharashtra,19.1383,77.3091,23.7,90,0.2,966.1,0.8,38.2,31,22.9,10.9,6.0,167.0,45.0,3.9,6,5,3,1,2026-07-22T22:52:31.721771+05:30
Gulbarga,Karnataka,17.3297,76.8343,23.8,81,0.0,958.0,2.85,52.6,28,6.8,4.3,7.4,138.0,34.0,2.8,3,5,3,1,2026-07-22T22:52:31.721778+05:30
Bidar,Karnataka,17.9104,77.5199,22.1,94,0.0,933.8,1.7,55.1,30,5.7,4.6,8.5,140.0,35.0,2.6,3,5,3,1,2026-07-22T22:52:31.721784+05:30
Hospet,Karnataka,15.2689,76.3909,23.8,83,0.0,956.5,4.9,58.7,22,4.8,3.4,5.9,125.0,35.0,1.6,3,5,3,1,2026-07-22T22:52:31.721790+05:30
Tirupur,Tamil Nadu,11.1085,77.3411,25.2,84,0.0,977.3,8.15,51.8,55,16.1,13.7,21.2,206.0,27.0,5.8,7,5,7,1,2026-07-22T22:52:31.721796+05:30
Alappuzha,Kerala,9.4981,76.3388,25.8,91,0.0,1012.0,7.25,29.5,58,15.8,12.2,14.1,123.0,33.0,4.5,7,0,4,1,2026-07-22T22:52:31.721802+05:30
Munnar,Kerala,10.0889,77.0595,16.6,98,0.0,858.7,8.05,34.6,41,9.3,8.1,10.2,115.0,30.0,2.1,3,10,7,1,2026-07-22T22:52:31.721809+05:30
Silchar,Assam,24.8333,92.7789,25.8,95,0.1,1004.6,8.75,25.9,52,19.8,18.3,9.0,203.0,58.0,6.6,10,5,4,1,2026-07-22T22:52:31.721815+05:30
Dibrugarh,Assam,27.4728,94.912,25.9,95,0.1,994.5,5.0,22.0,52,8.3,8.1,8.8,269.0,65.0,1.6,10,5,3,1,2026-07-22T22:52:31.721822+05:30
