city,state,latitude,longitude,temp,humidity,rain,pressure,uv_index,wind_gusts,aqi,pm10,pm2_5,no2,co,o3,so2,mosquito_risk,arthritis_risk,migraine_risk,frizz_risk,updated_at
Delhi,Delhi,28.6139,77.209,34.2,45,0.0,976.9,7.75,33.5,244,328.8,93.1,41.1,297.0,74.0,21.2,0,5,7,1,2026-06-24T21:03:31.814383+05:30
Mumbai,Maharashtra,19.076,72.8777,26.6,85,0.0,1006.2,3.6,29.2,50,39.5,14.1,14.0,305.0,48.0,10.5,7,5,0,1,2026-06-24T21:03:31.814475+05:30
Bangalore,Karnataka,12.9716,77.5946,23.3,75,0.0,911.4,7.95,53.6,31,8.3,6.7,16.2,387.0,37.0,4.5,3,5,7,1,2026-06-24T21:03:31.814502+05:30
Hyderabad,Telangana,17.385,78.4867,25.9,78,0.0,951.0,6.8,45.7,38,7.3,6.6,8.7,401.0,62.0,3.2,7,5,7,1,2026-06-24T21:03:31.814527+05:30
Chennai,Tamil Nadu,13.0827,80.2707,28.4,73,0.0,1005.8,8.8,39.2,63,25.8,19.9,17.9,286.0,83.0,9.1,7,5,4,1,2026-06-24T21:03:31.814545+05:30
Kolkata,West Bengal,22.5726,88.3639,29.1,86,0.0,1001.5,8.85,37.4,152,50.4,47.3,12.3,456.0,111.0,14.2,7,5,4,1,2026-06-24T21:03:31.814561+05:30
Pune,Maharashtra,18.5204,73.8567,22.7,85,0.0,945.7,1.0,34.6,22,10.5,8.8,23.5,206.0,28.0,9.4,3,5,3,1,2026-06-24T21:03:31.814576+05:30
Ahmedabad,Gujarat,23.0225,72.5714,31.4,70,0.0,996.5,8.0,42.5,70,48.8,25.2,10.1,150.0,68.0,4.6,3,5,7,1,2026-06-24T21:03:31.814589+05:30
Jaipur,Rajasthan,26.9124,75.7873,30.8,53,0.0,954.4,8.2,49.3,113,125.3,53.6,40.7,1015.0,36.0,13.0,0,5,7,1,2026-06-24T21:03:31.814599+05:30
Lucknow,Uttar Pradesh,26.8467,80.9462,36.6,38,0.0,987.4,8.3,27.4,158,163.0,60.8,16.5,272.0,78.0,6.8,0,5,10,1,2026-06-24T21:03:31.814615+05:30
Kanpur,Uttar Pradesh,26.4499,80.3319,36.2,34,0.0,985.6,8.3,31.7,160,154.1,51.7,18.4,275.0,71.0,6.9,0,5,10,1,2026-06-24T21:03:31.814624+05:30
Chandigarh,Chandigarh,30.7333,76.7794,29.5,64,0.0,962.7,7.8,25.2,186,162.1,71.9,38.6,828.0,125.0,17.5,7,5,7,1,2026-06-24T21:03:31.814632+05:30
Srinagar,Jammu and Kashmir,34.0837,74.7973,22.6,69,0.0,836.6,9.1,22.0,103,23.2,21.3,24.5,1500.0,79.0,3.8,3,5,7,1,2026-06-24T21:03:31.814641+05:30
Jammu,Jammu and Kashmir,32.7266,74.857,33.4,43,0.0,965.8,8.65,31.3,113,54.9,42.1,45.9,606.0,81.0,7.4,0,5,7,1,2026-06-24T21:03:31.814657+05:30
Amritsar,Punjab,31.634,74.8723,31.1,59,0.0,973.2,8.45,41.4,145,78.7,54.9,34.5,514.0,84.0,9.8,0,5,7,1,2026-06-24T21:03:31.814669+05:30
Ludhiana,Punjab,30.901,75.8573,33.6,42,0.0,971.9,8.05,34.9,158,173.2,81.3,41.8,752.0,86.0,11.0,0,5,7,1,2026-06-24T21:03:31.814681+05:30
Jalandhar,Punjab,31.326,75.5762,32.3,50,0.0,972.8,8.25,29.9,154,88.0,52.7,26.3,733.0,101.0,7.8,0,5,7,1,2026-06-24T21:03:31.814692+05:30
Dehradun,Uttarakhand,30.6284,78.0322,16.6,98,0.0,826.2,7.65,27.0,125,27.2,26.1,16.3,228.0,110.0,3.0,3,10,7,1,2026-06-24T21:03:31.814706+05:30
Shimla,Himachal Pradesh,31.1048,77.1734,14.1,97,0.0,780.4,7.7,36.7,154,53.6,39.1,23.8,451.0,116.0,7.5,3,10,7,0,2026-06-24T21:03:31.814719+05:30
Manali,Himachal Pradesh,32.2396,77.1887,16.8,91,0.0,815.5,9.15,36.4,46,24.2,22.2,88.8,286.0,14.0,0.0,3,10,7,0,2026-06-24T21:03:31.814736+05:30
Gurgaon,Haryana,28.4595,77.0266,32.8,44,0.0,975.3,7.8,30.2,637,445.2,107.3,65.3,913.0,46.0,19.2,0,5,7,1,2026-06-24T21:03:31.814752+05:30
Noida,Uttar Pradesh,28.5355,77.391,30.8,61,0.0,978.3,7.75,25.9,637,445.2,107.3,65.3,779.0,46.0,19.2,3,5,7,1,2026-06-24T21:03:31.814762+05:30
Ghaziabad,Uttar Pradesh,28.6692,77.4538,31.2,59,0.0,976.6,7.75,26.3,264,292.4,101.5,34.7,626.0,86.0,20.5,0,5,7,1,2026-06-24T21:03:31.814770+05:30
Faridabad,Haryana,28.4089,77.3178,33.4,44,0.0,977.7,7.8,30.6,637,445.2,107.3,65.3,808.0,46.0,19.2,0,5,7,1,2026-06-24T21:03:31.814779+05:30
Meerut,Uttar Pradesh,28.9845,77.7064,32.2,51,0.0,975.6,7.7,29.9,264,292.4,101.5,34.7,477.0,86.0,20.5,0,5,7,1,2026-06-24T21:03:31.814787+05:30
Agra,Uttar Pradesh,27.1767,78.0081,33.2,42,0.0,981.9,8.1,27.0,386,379.0,99.7,62.4,417.0,33.0,17.3,0,5,7,1,2026-06-24T21:03:31.814796+05:30
Varanasi,Uttar Pradesh,25.3176,82.9739,36.1,37,0.0,991.5,8.75,37.8,111,192.8,87.3,45.1,756.0,70.0,20.9,0,5,10,1,2026-06-24T21:03:31.814806+05:30
Prayagraj,Uttar Pradesh,25.4358,81.8463,36.2,36,0.0,989.8,8.65,37.1,115,142.0,62.9,27.6,317.0,69.0,13.9,0,5,10,1,2026-06-24T21:03:31.814815+05:30
Gorakhpur,Uttar Pradesh,26.7606,83.3732,33.1,52,0.0,991.4,8.6,23.0,157,156.5,89.2,43.9,390.0,75.0,19.7,0,5,7,1,2026-06-24T21:03:31.814823+05:30
Bareilly,Uttar Pradesh,28.367,79.4304,32.0,49,0.0,980.9,7.9,28.4,158,232.8,85.7,22.7,437.0,92.0,12.3,0,5,7,1,2026-06-24T21:03:31.814832+05:30
Aligarh,Uttar Pradesh,27.8974,78.088,31.7,54,0.0,979.7,7.8,25.2,435,547.6,134.6,56.6,560.0,51.0,17.4,0,5,7,1,2026-06-24T21:03:31.814840+05:30
Moradabad,Uttar Pradesh,28.8386,78.7733,32.8,46,0.0,977.8,7.9,25.6,186,237.5,99.7,28.5,416.0,104.0,15.9,0,5,7,1,2026-06-24T21:03:31.814848+05:30
Saharanpur,Uttar Pradesh,29.9637,77.546,30.3,66,0.0,969.6,7.45,29.5,183,162.5,80.6,38.5,645.0,110.0,20.5,3,5,7,1,2026-06-24T21:03:31.814855+05:30
Jhansi,Uttar Pradesh,25.4484,78.5685,33.6,46,0.0,972.3,8.45,30.6,76,54.9,26.4,10.4,347.0,61.0,4.1,0,5,7,1,2026-06-24T21:03:35.046699+05:30
Surat,Gujarat,21.1702,72.8311,28.5,83,0.0,1002.6,7.1,50.4,79,32.5,18.6,20.9,197.0,33.0,33.1,7,5,4,1,2026-06-24T21:03:35.046737+05:30
Vadodara,Gujarat,22.3072,73.1812,29.6,73,0.0,999.6,6.1,55.8,74,33.1,20.9,17.0,170.0,49.0,20.6,7,5,7,1,2026-06-24T21:03:35.046749+05:30
Rajkot,Gujarat,22.3039,70.8022,29.6,74,0.0,989.2,7.5,43.6,67,44.8,20.6,4.2,124.0,55.0,4.1,7,5,7,1,2026-06-24T21:03:35.046757+05:30
Thane,Maharashtra,19.2183,72.9781,25.4,86,0.0,1005.6,3.65,22.3,50,39.5,14.1,14.0,406.0,48.0,10.5,7,5,0,1,2026-06-24T21:03:35.046765+05:30
Nagpur,Maharashtra,21.1458,79.0882,26.7,92,0.1,969.9,8.7,33.1,40,16.8,15.6,23.0,402.0,53.0,18.8,10,5,7,1,2026-06-24T21:03:35.046774+05:30
Nashik,Maharashtra,19.9975,73.7898,22.7,88,0.0,942.7,1.15,39.2,41,25.0,14.2,12.3,211.0,77.0,13.8,3,5,3,1,2026-06-24T21:03:35.046781+05:30
Aurangabad,Maharashtra,19.8762,75.3433,25.3,75,0.0,941.3,7.5,45.7,53,44.2,23.2,10.1,220.0,67.0,6.2,7,5,7,1,2026-06-24T21:03:35.046789+05:30
Solapur,Maharashtra,17.6599,75.9064,27.4,64,0.0,955.4,5.3,48.2,33,4.5,4.3,7.2,187.0,50.0,2.4,7,5,3,1,2026-06-24T21:03:35.046797+05:30
Kolhapur,Maharashtra,16.705,74.2433,22.4,92,0.0,946.6,4.65,49.3,26,7.2,6.4,9.6,199.0,43.0,2.6,3,5,3,1,2026-06-24T21:03:35.046805+05:30
Goa,Goa,15.2993,74.124,24.2,98,0.1,998.0,4.6,29.5,38,18.0,11.0,4.5,229.0,45.0,1.2,6,5,3,1,2026-06-24T21:03:35.046812+05:30
Jodhpur,Rajasthan,26.2389,73.0243,34.9,39,0.0,976.3,8.4,42.1,144,233.3,54.8,8.7,176.0,56.0,2.1,0,5,7,1,2026-06-24T21:03:35.046819+05:30
Udaipur,Rajasthan,24.5854,73.7125,30.9,48,0.0,941.7,8.75,34.6,74,49.7,21.9,5.4,236.0,66.0,2.2,0,5,7,1,2026-06-24T21:03:35.046827+05:30
Kota,Rajasthan,25.2138,75.8648,31.3,56,0.0,973.5,8.3,40.7,82,78.9,42.4,22.3,244.0,58.0,6.9,0,5,7,1,2026-06-24T21:03:35.046834+05:30
Bikaner,Rajasthan,28.0229,73.3119,31.5,58,0.0,974.4,8.45,30.6,156,140.2,45.9,9.3,145.0,58.0,3.2,0,5,7,1,2026-06-24T21:03:35.046840+05:30
Ajmer,Rajasthan,26.4499,74.6399,29.6,60,0.0,949.1,8.3,44.6,90,99.9,36.6,14.5,227.0,57.0,3.6,4,5,7,1,2026-06-24T21:03:35.046847+05:30
Gwalior,Madhya Pradesh,26.2183,78.1828,34.3,37,0.0,977.4,8.25,33.5,99,78.9,31.4,10.6,256.0,61.0,3.9,0,5,7,1,2026-06-24T21:03:35.046854+05:30
Indore,Madhya Pradesh,22.7196,75.8577,25.6,84,0.0,944.5,2.35,45.0,77,23.8,18.7,16.2,561.0,59.0,2.4,7,5,3,1,2026-06-24T21:03:35.046862+05:30
Bhopal,Madhya Pradesh,23.2599,77.4126,24.6,96,0.1,949.9,7.2,48.2,60,31.1,21.9,6.1,379.0,86.0,3.0,6,5,7,1,2026-06-24T21:03:35.046869+05:30
Jabalpur,Madhya Pradesh,23.1815,79.9864,29.0,74,0.0,957.5,8.8,41.0,51,23.9,17.9,7.7,218.0,79.0,3.5,7,5,7,1,2026-06-24T21:03:35.046876+05:30
Ujjain,Madhya Pradesh,23.1765,75.7885,26.3,80,0.1,949.8,2.65,35.3,77,41.8,28.5,10.4,249.0,62.0,4.2,10,5,3,1,2026-06-24T21:03:35.046884+05:30
Visakhapatnam,Andhra Pradesh,17.6868,83.2185,30.6,65,0.0,1000.1,8.75,41.4,71,29.3,24.2,27.7,337.0,63.0,38.3,3,5,4,1,2026-06-24T21:03:35.046892+05:30
Vijayawada,Andhra Pradesh,16.5062,80.648,30.6,66,0.0,999.7,8.1,42.1,61,22.0,19.8,15.2,287.0,49.0,5.5,3,5,7,1,2026-06-24T21:03:35.046899+05:30
Guntur,Andhra Pradesh,16.3067,80.4365,31.0,61,0.1,1000.9,8.3,40.7,55,22.3,20.3,17.8,245.0,45.0,6.2,6,5,4,1,2026-06-24T21:03:35.046906+05:30
Nellore,Andhra Pradesh,14.4426,79.9865,32.7,48,0.0,1003.6,8.7,44.6,48,13.2,9.8,8.1,147.0,49.0,3.6,0,5,4,1,2026-06-24T21:03:35.046914+05:30
Kurnool,Andhra Pradesh,15.8281,78.0373,29.6,57,0.0,975.3,7.05,48.6,33,11.6,7.9,6.3,140.0,57.0,2.2,4,5,7,1,2026-06-24T21:03:35.046924+05:30
Kakinada,Andhra Pradesh,16.9891,82.2475,28.9,73,0.0,1004.4,8.1,38.5,62,18.2,13.9,5.2,439.0,74.0,3.8,7,5,4,1,2026-06-24T21:03:35.046931+05:30
Tirupati,Andhra Pradesh,13.6288,79.4192,26.1,91,0.0,989.6,8.7,40.7,51,15.9,13.2,16.5,190.0,42.0,3.1,7,5,7,1,2026-06-24T21:03:35.046937+05:30
Warangal,Telangana,17.9689,79.5941,25.9,89,0.1,976.3,8.05,37.8,39,14.3,13.2,11.2,363.0,59.0,3.1,10,5,7,1,2026-06-24T21:03:35.046944+05:30
Nizamabad,Telangana,18.6725,78.0941,26.1,74,0.0,962.5,5.05,45.0,33,21.7,14.2,8.5,226.0,60.0,3.9,7,5,3,1,2026-06-24T21:03:35.046950+05:30
Mysore,Karnataka,12.2958,76.6396,22.5,87,0.0,928.5,4.95,49.3,29,5.4,4.5,10.1,141.0,41.0,2.2,3,5,3,1,2026-06-24T21:03:35.046958+05:30
Mangalore,Karnataka,12.9141,74.856,25.9,92,0.0,1007.3,8.25,41.0,42,24.9,15.1,10.2,273.0,34.0,2.4,7,5,4,1,2026-06-24T21:03:35.046964+05:30
Hubli-Dharwad,Karnataka,15.3647,75.124,21.7,94,0.0,940.0,7.85,58.7,25,3.3,2.5,5.6,139.0,43.0,1.1,3,5,7,1,2026-06-24T21:03:35.046971+05:30
Belgaum,Karnataka,15.8497,74.4977,20.9,99,0.0,924.4,6.15,46.1,25,5.7,4.4,7.0,139.0,42.0,1.9,3,5,7,1,2026-06-24T21:03:38.278998+05:30
Coimbatore,Tamil Nadu,11.0168,76.9558,23.7,93,0.0,961.6,8.45,46.1,34,5.3,4.8,8.6,192.0,44.0,3.2,3,5,7,1,2026-06-24T21:03:38.279036+05:30
Madurai,Tamil Nadu,9.9252,78.1198,28.2,72,0.0,992.9,8.0,35.6,65,28.0,25.8,51.8,208.0,7.0,8.5,7,5,7,1,2026-06-24T21:03:38.279048+05:30
Trichy,Tamil Nadu,10.7905,78.7047,27.8,79,0.0,999.6,8.05,46.4,38,17.6,15.0,16.3,141.0,51.0,4.0,7,5,7,1,2026-06-24T21:03:38.279057+05:30
Salem,Tamil Nadu,11.6643,78.146,27.6,71,0.0,977.1,8.75,36.7,56,23.7,19.8,23.7,591.0,57.0,8.0,7,5,7,1,2026-06-24T21:03:38.279066+05:30
Tirunelveli,Tamil Nadu,8.7139,77.7567,29.2,64,0.0,1003.5,8.15,42.8,32,5.2,4.7,6.8,192.0,46.0,1.8,7,5,4,1,2026-06-24T21:03:38.279075+05:30
Vellore,Tamil Nadu,12.9165,79.1325,25.9,90,0.0,983.2,8.2,40.7,47,17.9,14.9,14.5,329.0,53.0,4.3,7,5,7,1,2026-06-24T21:03:38.279083+05:30
Erode,Tamil Nadu,11.341,77.7172,26.7,76,0.0,988.9,8.7,40.3,51,14.1,12.2,18.5,226.0,42.0,3.6,7,5,7,1,2026-06-24T21:03:38.279091+05:30
Kochi,Kerala,9.9312,76.2673,26.5,91,0.0,1010.1,7.15,35.6,48,15.0,12.9,18.8,243.0,22.0,4.7,7,0,4,1,2026-06-24T21:03:38.279101+05:30
Thiruvananthapuram,Kerala,8.5241,76.9366,25.1,94,0.0,1009.8,7.9,43.2,33,8.5,5.5,3.4,181.0,48.0,1.3,7,0,4,1,2026-06-24T21:03:38.279108+05:30
Kozhikode,Kerala,11.2588,75.7804,24.6,99,0.1,1009.2,8.35,34.9,27,7.1,4.6,2.0,324.0,52.0,0.9,6,0,4,1,2026-06-24T21:03:38.279115+05:30
Thrissur,Kerala,10.5276,76.2144,25.1,99,0.0,1008.3,7.6,31.3,51,15.3,13.9,14.9,441.0,26.0,3.6,7,0,4,1,2026-06-24T21:03:38.279123+05:30
Kannur,Kerala,11.8745,75.3704,25.4,96,0.1,1008.3,8.0,34.6,36,11.1,8.4,12.3,421.0,33.0,2.0,10,0,4,1,2026-06-24T21:03:38.279130+05:30
Patna,Bihar,25.5941,85.1376,34.3,51,0.0,994.6,8.8,32.0,161,154.1,96.2,64.9,754.0,50.0,26.4,0,5,7,1,2026-06-24T21:03:38.279137+05:30
Gaya,Bihar,24.7914,85.0002,32.3,56,0.0,988.5,8.9,34.6,126,84.1,54.7,18.6,486.0,74.0,9.9,0,5,7,1,2026-06-24T21:03:38.279145+05:30
Muzaffarpur,Bihar,26.1209,85.3647,31.2,69,0.0,994.7,8.8,30.2,162,111.1,81.5,37.5,823.0,100.0,19.5,3,5,7,1,2026-06-24T21:03:38.279152+05:30
Bhagalpur,Bihar,25.2425,87.0117,31.5,73,0.0,995.7,8.8,26.3,153,118.0,67.5,26.5,595.0,93.0,15.4,3,5,7,1,2026-06-24T21:03:38.279159+05:30
Ranchi,Jharkhand,23.3441,85.3096,24.8,88,0.0,934.1,9.15,33.5,91,22.2,21.1,8.7,248.0,86.0,4.1,3,5,7,1,2026-06-24T21:03:38.279167+05:30
Jamshedpur,Jharkhand,22.8046,86.2029,28.6,84,0.0,986.7,9.05,32.4,127,42.8,38.1,16.1,391.0,103.0,27.7,7,5,7,1,2026-06-24T21:03:38.279174+05:30
Dhanbad,Jharkhand,23.7957,86.4304,29.3,77,0.0,975.7,9.05,29.5,152,73.3,62.9,48.0,623.0,68.0,98.4,7,5,7,1,2026-06-24T21:03:38.279180+05:30
Bokaro,Jharkhand,23.6693,86.1511,29.7,72,0.0,979.5,8.95,32.4,136,53.1,43.2,30.9,204.0,66.0,65.3,7,5,7,1,2026-06-24T21:03:38.279188+05:30
Bhubaneswar,Odisha,20.2961,85.8245,29.0,82,0.0,998.7,8.9,24.1,118,27.1,26.4,13.4,503.0,92.0,8.2,7,5,7,1,2026-06-24T21:03:38.279195+05:30
Cuttack,Odisha,20.4625,85.8828,29.6,80,0.0,1000.3,9.1,30.6,118,27.1,26.4,13.4,519.0,92.0,8.2,7,5,4,1,2026-06-24T21:03:38.279203+05:30
Rourkela,Odisha,22.2604,84.8536,29.2,78,0.0,980.7,8.95,28.8,111,33.9,33.1,11.7,732.0,100.0,7.7,7,5,7,1,2026-06-24T21:03:38.279209+05:30
Raipur,Chhattisgarh,21.2514,81.6296,31.1,57,0.0,971.2,8.9,34.6,59,19.4,19.4,30.8,185.0,44.0,43.4,0,5,7,1,2026-06-24T21:03:38.279216+05:30
Bhilai,Chhattisgarh,21.1938,81.3509,30.9,56,0.0,971.6,8.9,38.2,54,20.4,20.4,32.8,399.0,41.0,45.9,0,5,7,1,2026-06-24T21:03:38.279223+05:30
Guwahati,Assam,26.1158,91.7086,26.4,96,0.1,997.7,8.75,24.5,59,34.2,27.9,13.7,603.0,49.0,2.8,10,5,7,1,2026-06-24T21:03:38.279229+05:30
Agartala,Tripura,23.8315,91.2868,27.2,89,0.0,1002.5,4.85,27.0,71,34.1,29.8,12.2,321.0,80.0,5.8,7,5,0,1,2026-06-24T21:03:38.279235+05:30
Shillong,Meghalaya,25.5788,91.8933,20.0,98,0.0,855.0,8.1,17.6,48,18.8,14.1,8.7,459.0,76.0,2.3,3,5,7,1,2026-06-24T21:03:38.279241+05:30
Imphal,Manipur,24.817,93.9368,23.8,94,0.0,920.4,7.3,19.1,47,22.5,21.2,22.1,609.0,34.0,4.1,3,5,7,1,2026-06-24T21:03:38.279249+05:30
Aizawl,Mizoram,23.7271,92.7176,20.1,94,0.0,889.6,4.7,18.4,38,15.1,11.2,8.5,222.0,49.0,1.0,3,5,3,1,2026-06-24T21:03:38.279255+05:30
Kohima,Nagaland,25.6701,94.1077,20.4,93,0.0,853.4,7.05,27.4,38,14.8,13.4,16.9,412.0,43.0,1.6,3,5,7,1,2026-06-24T21:03:38.279262+05:30
Gangtok,Sikkim,27.3314,88.6138,17.5,95,0.0,834.9,9.2,34.9,86,11.2,9.3,15.0,508.0,93.0,2.9,3,10,7,1,2026-06-24T21:03:38.279268+05:30
Siliguri,West Bengal,26.7271,88.3953,25.8,97,0.1,989.3,8.75,23.8,89,42.8,30.5,15.9,824.0,92.0,4.2,10,5,7,1,2026-06-24T21:03:41.510957+05:30
Durgapur,West Bengal,23.5204,87.3119,28.3,86,0.0,990.6,9.0,27.0,191,75.0,68.7,30.1,741.0,105.0,54.0,7,5,7,1,2026-06-24T21:03:41.510997+05:30
Asansol,West Bengal,23.6739,86.9524,28.7,82,0.0,989.2,9.0,28.1,154,66.1,58.8,30.3,378.0,99.0,51.8,7,5,7,1,2026-06-24T21:03:41.511010+05:30
Pondicherry,Puducherry,11.9139,79.8145,29.3,69,0.0,1007.3,7.9,36.4,80,22.9,18.0,11.6,305.0,91.0,5.2,7,5,4,1,2026-06-24T21:03:41.511018+05:30
Port Blair,Andaman and Nicobar Islands,11.6234,92.7265,26.9,88,0.0,1007.2,8.65,44.6,30,12.7,7.6,0.3,96.0,47.0,0.4,7,5,4,1,2026-06-24T21:03:41.511027+05:30
Haridwar,Uttarakhand,29.9457,78.1642,28.1,73,0.0,968.0,7.6,25.6,179,91.5,55.6,19.3,564.0,130.0,14.3,7,5,7,1,2026-06-24T21:03:41.511034+05:30
Rishikesh,Uttarakhand,30.0869,78.2676,27.1,75,0.0,961.0,7.7,25.9,171,67.8,40.7,9.8,376.0,156.0,10.3,7,5,7,1,2026-06-24T21:03:41.511042+05:30
Nainital,Uttarakhand,29.3919,79.4542,15.4,100,0.0,802.2,8.05,27.4,160,100.4,44.8,11.2,363.0,116.0,7.0,3,10,7,0,2026-06-24T21:03:41.511050+05:30
Mussoorie,Uttarakhand,30.4599,78.0664,15.2,98,0.0,799.1,7.55,31.3,163,56.3,39.0,18.3,352.0,141.0,10.7,3,10,7,0,2026-06-24T21:03:41.511058+05:30
Dharamshala,Himachal Pradesh,32.219,76.3234,21.0,85,0.0,864.9,8.5,34.2,97,15.0,13.2,15.2,408.0,73.0,0.8,3,5,7,1,2026-06-24T21:03:41.511066+05:30
Dalhousie,Himachal Pradesh,32.5387,75.971,16.7,90,0.0,801.3,8.2,33.5,140,40.0,30.5,27.7,642.0,119.0,3.9,3,10,7,0,2026-06-24T21:03:41.511075+05:30
Patiala,Punjab,30.3398,76.3869,32.6,49,0.0,971.8,7.65,35.3,190,344.6,105.5,35.8,566.0,88.0,12.0,0,5,7,1,2026-06-24T21:03:41.511085+05:30
Bhatinda,Punjab,30.211,74.9455,34.0,40,0.0,976.6,8.25,32.4,151,171.8,79.9,46.9,313.0,69.0,16.3,0,5,7,1,2026-06-24T21:03:41.511094+05:30
Rohtak,Haryana,28.8955,76.6066,32.0,57,0.0,975.4,7.75,29.2,274,321.3,96.6,75.6,542.0,21.0,13.9,0,5,7,1,2026-06-24T21:03:41.511101+05:30
Panipat,Haryana,29.3909,76.9635,31.2,61,0.0,974.1,7.6,28.8,587,371.6,107.1,47.6,497.0,53.0,15.6,3,5,7,1,2026-06-24T21:03:41.511108+05:30
Mathura,Uttar Pradesh,27.4924,77.6737,31.4,59,0.0,980.9,8.05,20.2,402,443.3,105.9,83.1,551.0,7.0,9.9,0,5,7,1,2026-06-24T21:03:41.511115+05:30
Vrindavan,Uttar Pradesh,27.5823,77.7027,31.4,57,0.0,981.3,8.0,18.7,402,443.3,105.9,83.1,614.0,7.0,9.9,0,5,7,1,2026-06-24T21:03:41.511122+05:30
Ayodhya,Uttar Pradesh,26.7922,82.1998,31.7,61,0.0,989.5,8.35,28.8,159,149.9,71.0,24.1,358.0,86.0,10.8,3,5,7,1,2026-06-24T21:03:41.511129+05:30
Ratlam,Madhya Pradesh,23.3315,75.0367,25.7,86,0.0,950.5,7.65,44.3,75,45.4,27.2,5.4,180.0,75.0,4.2,7,5,7,1,2026-06-24T21:03:41.511136+05:30
Sagar,Madhya Pradesh,23.8388,78.7378,24.8,89,0.2,946.3,8.65,44.3,61,31.4,22.1,8.4,206.0,76.0,3.2,6,5,7,1,2026-06-24T21:03:41.511148+05:30
Satna,Madhya Pradesh,24.6005,80.8322,30.9,62,0.0,966.7,8.75,28.4,79,44.7,27.4,11.1,203.0,71.0,3.3,3,5,7,1,2026-06-24T21:03:41.511155+05:30
Akola,Maharashtra,20.7002,77.0082,25.5,94,0.1,972.2,8.5,37.8,42,26.3,20.0,12.8,253.0,58.0,5.3,10,5,7,1,2026-06-24T21:03:41.511163+05:30
Amravati,Maharashtra,20.9374,77.7796,24.8,96,0.1,964.2,8.65,36.7,44,19.6,15.0,10.5,207.0,64.0,4.7,6,5,7,1,2026-06-24T21:03:41.511171+05:30
Latur,Maharashtra,18.4088,76.5604,27.2,60,0.0,937.6,2.45,41.8,37,18.0,11.7,6.2,224.0,68.0,2.2,4,5,3,1,2026-06-24T21:03:41.511180+05:30
Nanded,Maharashtra,19.1383,77.3091,24.8,92,0.1,966.1,7.3,37.8,33,30.6,18.9,9.4,301.0,59.0,3.0,6,5,7,1,2026-06-24T21:03:41.511186+05:30
Gulbarga,Karnataka,17.3297,76.8343,27.1,64,0.0,956.7,5.15,46.4,33,4.4,4.0,8.9,145.0,51.0,2.6,7,5,3,1,2026-06-24T21:03:41.511193+05:30
Bidar,Karnataka,17.9104,77.5199,24.9,84,0.0,933.3,7.55,46.4,40,20.8,12.7,8.1,379.0,68.0,4.0,3,5,7,1,2026-06-24T21:03:41.511201+05:30
Hospet,Karnataka,15.2689,76.3909,24.8,78,0.0,955.2,7.3,54.7,28,5.0,3.7,6.0,126.0,44.0,1.7,3,5,7,1,2026-06-24T21:03:41.511208+05:30
Tirupur,Tamil Nadu,11.1085,77.3411,25.0,86,0.0,975.0,8.8,46.4,56,15.4,13.6,21.5,171.0,37.0,4.7,7,5,7,1,2026-06-24T21:03:41.511215+05:30
Alappuzha,Kerala,9.4981,76.3388,26.5,90,0.0,1010.2,7.3,34.6,38,11.1,8.5,9.4,85.0,40.0,2.5,7,0,4,1,2026-06-24T21:03:41.511223+05:30
Munnar,Kerala,10.0889,77.0595,16.6,98,0.0,856.8,7.65,41.4,25,4.8,4.6,9.2,116.0,34.0,1.9,3,10,7,1,2026-06-24T21:03:41.511230+05:30
Silchar,Assam,24.8333,92.7789,27.0,91,0.0,1001.5,8.15,16.9,64,34.8,26.4,10.2,607.0,64.0,5.2,7,5,4,1,2026-06-24T21:03:41.511237+05:30
Dibrugarh,Assam,27.4728,94.912,26.1,96,0.0,991.5,8.95,20.2,63,22.6,21.5,18.0,356.0,51.0,3.0,7,5,7,1,2026-06-24T21:03:41.511244+05:30
