city,state,latitude,longitude,temp,humidity,rain,pressure,uv_index,wind_gusts,aqi,pm10,pm2_5,no2,co,o3,so2,mosquito_risk,arthritis_risk,migraine_risk,frizz_risk,updated_at
Delhi,Delhi,28.6139,77.209,32.0,31,0.0,979.2,7.7,42.5,184,629.6,138.3,32.5,665.0,66.0,20.1,0,5,7,0,2026-05-15T23:12:04.188812+05:30
Mumbai,Maharashtra,19.076,72.8777,29.4,78,0.0,1005.8,6.75,42.1,64,23.3,15.1,6.2,200.0,52.0,3.8,7,5,4,1,2026-05-15T23:12:04.188854+05:30
Bangalore,Karnataka,12.9716,77.5946,28.5,50,0.0,909.2,9.0,41.0,113,65.4,50.6,70.8,729.0,12.0,15.8,4,5,7,1,2026-05-15T23:12:04.188869+05:30
Hyderabad,Telangana,17.385,78.4867,34.0,37,0.0,949.8,8.85,28.1,121,92.4,64.5,45.6,644.0,61.0,13.2,0,5,7,1,2026-05-15T23:12:04.188879+05:30
Chennai,Tamil Nadu,13.0827,80.2707,28.0,86,0.0,1003.9,6.25,37.8,37,12.0,9.2,12.1,194.0,46.0,10.3,7,5,4,1,2026-05-15T23:12:04.188888+05:30
Kolkata,West Bengal,22.5726,88.3639,28.4,89,0.0,1002.5,8.8,36.4,53,16.6,12.3,6.7,227.0,41.0,4.1,7,5,4,1,2026-05-15T23:12:04.188896+05:30
Pune,Maharashtra,18.5204,73.8567,26.7,66,0.0,945.4,8.45,44.3,106,26.0,21.2,17.2,253.0,84.0,21.3,7,5,7,1,2026-05-15T23:12:04.188903+05:30
Ahmedabad,Gujarat,23.0225,72.5714,33.0,43,0.0,998.4,8.15,34.2,48,27.4,13.7,7.0,248.0,66.0,3.3,0,5,7,1,2026-05-15T23:12:04.188910+05:30
Jaipur,Rajasthan,26.9124,75.7873,31.7,29,0.0,956.1,8.25,38.2,139,142.5,54.5,31.4,301.0,50.0,13.6,0,5,7,0,2026-05-15T23:12:04.188922+05:30
Lucknow,Uttar Pradesh,26.8467,80.9462,29.0,68,0.0,989.0,8.2,46.4,135,135.0,68.0,33.6,619.0,56.0,17.3,7,5,7,1,2026-05-15T23:12:04.188929+05:30
Kanpur,Uttar Pradesh,26.4499,80.3319,32.1,48,0.0,987.2,8.2,54.7,150,245.9,72.4,19.0,456.0,73.0,12.7,0,5,7,1,2026-05-15T23:12:04.188935+05:30
Chandigarh,Chandigarh,30.7333,76.7794,24.8,53,0.0,964.2,7.7,38.5,91,36.0,30.7,23.6,767.0,68.0,9.6,0,5,7,0,2026-05-15T23:12:04.188941+05:30
Srinagar,Jammu and Kashmir,34.0837,74.7973,14.0,82,0.0,839.4,8.45,24.5,76,47.5,41.7,39.4,1074.0,31.0,3.4,3,10,7,0,2026-05-15T23:12:04.188949+05:30
Jammu,Jammu and Kashmir,32.7266,74.857,22.8,65,0.0,968.5,8.45,28.4,81,59.4,52.7,53.6,708.0,23.0,7.1,3,5,7,0,2026-05-15T23:12:04.188956+05:30
Amritsar,Punjab,31.634,74.8723,26.3,57,0.0,976.8,8.35,33.5,137,87.8,72.2,35.2,583.0,59.0,11.6,4,5,7,1,2026-05-15T23:12:04.188962+05:30
Ludhiana,Punjab,30.901,75.8573,27.0,53,0.0,974.7,7.95,49.3,121,50.1,44.1,18.0,658.0,83.0,8.9,4,5,7,1,2026-05-15T23:12:04.188968+05:30
Jalandhar,Punjab,31.326,75.5762,25.9,57,0.0,975.5,8.15,45.4,141,78.9,65.2,32.1,672.0,73.0,11.4,4,5,7,1,2026-05-15T23:12:04.188987+05:30
Dehradun,Uttarakhand,30.6284,78.0322,12.6,77,0.0,825.0,7.6,45.4,58,28.7,17.1,28.0,180.0,49.0,0.7,3,5,7,0,2026-05-15T23:12:04.188994+05:30
Shimla,Himachal Pradesh,31.1048,77.1734,10.5,68,0.0,779.1,7.75,38.9,75,36.2,22.6,26.4,350.0,62.0,2.7,3,5,7,0,2026-05-15T23:12:04.189002+05:30
Manali,Himachal Pradesh,32.2396,77.1887,10.0,75,0.0,813.5,9.8,42.8,71,7.4,6.1,33.9,308.0,86.0,0.1,3,5,7,0,2026-05-15T23:12:04.189009+05:30
Gurgaon,Haryana,28.4595,77.0266,29.9,35,0.0,977.5,7.8,44.3,479,689.2,161.6,60.0,1080.0,43.0,30.8,4,5,7,0,2026-05-15T23:12:04.189015+05:30
Noida,Uttar Pradesh,28.5355,77.391,28.5,49,0.0,980.4,7.7,36.4,479,689.2,161.6,60.0,1188.0,43.0,30.8,4,5,7,1,2026-05-15T23:12:04.189022+05:30
Ghaziabad,Uttar Pradesh,28.6692,77.4538,27.0,52,0.0,978.6,7.7,40.7,168,283.1,96.6,24.4,712.0,70.0,16.7,4,5,7,1,2026-05-15T23:12:04.189028+05:30
Faridabad,Haryana,28.4089,77.3178,31.9,34,0.0,980.0,7.75,44.6,479,689.2,161.6,60.0,863.0,43.0,30.8,0,5,7,0,2026-05-15T23:12:04.189034+05:30
Meerut,Uttar Pradesh,28.9845,77.7064,28.8,38,0.0,977.3,7.6,58.7,168,283.1,96.6,24.4,732.0,70.0,16.7,4,5,7,0,2026-05-15T23:12:04.189040+05:30
Agra,Uttar Pradesh,27.1767,78.0081,32.0,36,0.0,983.3,8.05,37.1,552,879.2,158.3,16.7,427.0,95.0,16.6,0,5,7,0,2026-05-15T23:12:04.189046+05:30
Varanasi,Uttar Pradesh,25.3176,82.9739,31.6,56,0.0,993.0,8.7,46.8,123,129.9,71.5,35.7,1327.0,77.0,21.5,0,5,7,1,2026-05-15T23:12:04.189053+05:30
Prayagraj,Uttar Pradesh,25.4358,81.8463,31.2,57,0.0,991.6,8.6,45.4,128,86.1,53.3,22.7,649.0,74.0,14.7,0,5,7,1,2026-05-15T23:12:04.189060+05:30
Gorakhpur,Uttar Pradesh,26.7606,83.3732,29.0,72,0.0,992.6,8.6,27.7,149,106.4,80.3,47.6,476.0,59.0,21.3,7,5,7,1,2026-05-15T23:12:04.189068+05:30
Bareilly,Uttar Pradesh,28.367,79.4304,26.0,71,0.0,981.8,8.0,27.4,153,88.5,56.8,24.5,637.0,86.0,17.9,7,5,7,1,2026-05-15T23:12:04.189074+05:30
Aligarh,Uttar Pradesh,27.8974,78.088,28.4,57,0.0,981.1,7.85,37.1,327,227.7,97.6,27.2,577.0,83.0,20.5,4,5,7,1,2026-05-15T23:12:04.189082+05:30
Moradabad,Uttar Pradesh,28.8386,78.7733,27.9,54,0.0,978.8,7.8,35.3,166,119.7,79.2,41.3,630.0,45.0,14.8,4,5,7,1,2026-05-15T23:12:04.189088+05:30
Saharanpur,Uttar Pradesh,29.9637,77.546,26.6,48,0.0,971.0,7.35,32.8,153,51.9,39.3,22.6,552.0,69.0,11.0,4,5,7,0,2026-05-15T23:12:04.189094+05:30
Jhansi,Uttar Pradesh,25.4484,78.5685,31.8,45,0.0,973.5,8.5,32.0,111,99.2,41.4,9.6,376.0,69.0,6.3,0,5,7,1,2026-05-15T23:12:07.474504+05:30
Surat,Gujarat,21.1702,72.8311,29.7,81,0.0,1003.6,7.55,41.4,82,18.1,14.4,21.2,220.0,29.0,34.4,7,5,4,1,2026-05-15T23:12:07.474535+05:30
Vadodara,Gujarat,22.3072,73.1812,30.4,72,0.0,1001.0,8.1,39.2,55,24.4,19.0,25.3,228.0,34.0,21.4,3,5,4,1,2026-05-15T23:12:07.474546+05:30
Rajkot,Gujarat,22.3039,70.8022,28.9,73,0.0,991.5,7.75,46.8,48,29.0,14.3,6.8,150.0,47.0,6.6,7,5,7,1,2026-05-15T23:12:07.474555+05:30
Thane,Maharashtra,19.2183,72.9781,29.0,80,0.0,1005.2,6.65,39.6,64,23.3,15.1,6.2,188.0,52.0,3.8,7,5,4,1,2026-05-15T23:12:07.474564+05:30
Nagpur,Maharashtra,21.1458,79.0882,36.0,24,0.0,967.9,8.95,48.6,102,40.4,29.3,23.2,347.0,60.0,11.4,0,5,10,0,2026-05-15T23:12:07.474572+05:30
Nashik,Maharashtra,19.9975,73.7898,26.1,71,0.0,943.2,7.85,48.2,54,15.0,11.1,6.2,207.0,54.0,1.4,7,5,7,1,2026-05-15T23:12:07.474580+05:30
Aurangabad,Maharashtra,19.8762,75.3433,31.9,26,0.0,941.7,9.0,37.8,82,24.3,20.5,7.9,217.0,110.0,8.2,0,5,7,0,2026-05-15T23:12:07.474587+05:30
Solapur,Maharashtra,17.6599,75.9064,31.2,38,0.0,953.2,9.0,36.4,102,53.2,38.6,24.8,321.0,62.0,7.8,0,5,7,0,2026-05-15T23:12:07.474594+05:30
Kolhapur,Maharashtra,16.705,74.2433,26.0,78,0.0,944.7,5.4,41.4,74,23.3,19.3,8.9,234.0,70.0,5.0,7,5,3,1,2026-05-15T23:12:07.474602+05:30
Goa,Goa,15.2993,74.124,28.5,81,0.0,994.4,5.5,35.3,70,29.0,21.5,5.3,243.0,60.0,1.6,7,5,3,1,2026-05-15T23:12:07.474609+05:30
Jodhpur,Rajasthan,26.2389,73.0243,32.3,26,0.0,979.0,8.4,36.7,143,212.8,40.9,9.1,262.0,60.0,2.9,0,5,7,0,2026-05-15T23:12:07.474617+05:30
Udaipur,Rajasthan,24.5854,73.7125,29.9,28,0.0,943.7,8.85,39.2,48,31.4,12.3,2.6,171.0,83.0,2.3,4,5,7,0,2026-05-15T23:12:07.474624+05:30
Kota,Rajasthan,25.2138,75.8648,34.8,20,0.0,974.5,8.4,37.4,85,109.0,47.7,21.4,220.0,48.0,7.0,0,5,7,0,2026-05-15T23:12:07.474632+05:30
Bikaner,Rajasthan,28.0229,73.3119,32.7,31,0.0,977.8,8.35,24.8,94,137.4,48.0,4.3,456.0,78.0,2.4,0,5,7,0,2026-05-15T23:12:07.474639+05:30
Ajmer,Rajasthan,26.4499,74.6399,30.2,31,0.0,951.4,8.4,35.3,79,74.0,21.4,5.0,184.0,80.0,3.0,0,5,7,0,2026-05-15T23:12:07.474646+05:30
Gwalior,Madhya Pradesh,26.2183,78.1828,32.5,35,0.0,978.9,8.25,34.2,153,285.9,75.7,9.3,322.0,84.0,8.6,0,5,7,0,2026-05-15T23:12:07.474654+05:30
Indore,Madhya Pradesh,22.7196,75.8577,32.2,24,0.0,945.3,8.7,43.2,56,19.5,13.2,4.8,249.0,97.0,4.6,0,5,7,0,2026-05-15T23:12:07.474661+05:30
Bhopal,Madhya Pradesh,23.2599,77.4126,33.2,23,0.0,949.9,8.75,40.7,75,38.6,21.9,7.6,301.0,71.0,5.0,0,5,7,0,2026-05-15T23:12:07.474669+05:30
Jabalpur,Madhya Pradesh,23.1815,79.9864,33.3,33,0.0,957.6,8.9,36.7,109,51.5,32.1,13.2,269.0,80.0,6.6,0,5,7,0,2026-05-15T23:12:07.474676+05:30
Ujjain,Madhya Pradesh,23.1765,75.7885,31.5,25,0.0,950.8,8.65,40.7,55,21.3,14.1,3.3,245.0,101.0,4.5,0,5,7,0,2026-05-15T23:12:07.474683+05:30
Visakhapatnam,Andhra Pradesh,17.6868,83.2185,29.5,80,0.0,1001.1,7.2,34.9,79,17.7,14.0,23.0,272.0,26.0,43.3,7,5,4,1,2026-05-15T23:12:07.474690+05:30
Vijayawada,Andhra Pradesh,16.5062,80.648,30.0,80,0.0,998.7,8.85,39.6,66,14.6,11.0,6.4,183.0,30.0,5.1,7,5,7,1,2026-05-15T23:12:07.474697+05:30
Guntur,Andhra Pradesh,16.3067,80.4365,30.1,79,0.0,999.8,9.05,37.4,69,14.7,11.5,6.3,186.0,34.0,4.3,3,5,7,1,2026-05-15T23:12:07.474704+05:30
Nellore,Andhra Pradesh,14.4426,79.9865,29.4,84,0.0,1002.3,8.65,37.8,39,11.1,7.5,3.0,130.0,37.0,1.6,7,5,4,1,2026-05-15T23:12:07.474712+05:30
Kurnool,Andhra Pradesh,15.8281,78.0373,34.2,42,0.0,972.8,8.9,32.0,113,78.2,51.9,17.1,485.0,87.0,5.6,0,5,7,1,2026-05-15T23:12:07.474719+05:30
Kakinada,Andhra Pradesh,16.9891,82.2475,29.7,81,0.0,1004.5,9.1,42.1,36,11.0,6.6,1.4,157.0,42.0,0.9,7,5,4,1,2026-05-15T23:12:07.474727+05:30
Tirupati,Andhra Pradesh,13.6288,79.4192,27.5,86,0.0,988.2,8.05,37.1,62,15.8,13.4,19.6,294.0,18.0,10.8,7,5,7,1,2026-05-15T23:12:07.474733+05:30
Warangal,Telangana,17.9689,79.5941,32.4,51,0.0,974.1,8.7,35.3,107,68.5,54.6,17.2,451.0,89.0,7.7,0,5,7,1,2026-05-15T23:12:07.474740+05:30
Nizamabad,Telangana,18.6725,78.0941,31.9,39,0.0,960.0,8.2,33.1,121,95.5,70.1,41.4,533.0,48.0,10.4,0,5,7,1,2026-05-15T23:12:07.474747+05:30
Mysore,Karnataka,12.2958,76.6396,24.1,84,0.0,925.1,8.9,28.8,91,49.0,34.1,24.4,332.0,71.0,5.5,3,5,7,1,2026-05-15T23:12:07.474755+05:30
Mangalore,Karnataka,12.9141,74.856,26.2,97,0.1,1003.6,8.9,49.0,77,28.6,21.1,9.1,210.0,53.0,2.9,10,5,4,1,2026-05-15T23:12:07.474762+05:30
Hubli-Dharwad,Karnataka,15.3647,75.124,26.3,70,0.0,937.4,6.05,43.2,74,18.2,15.5,12.9,297.0,60.0,2.4,7,5,7,1,2026-05-15T23:12:07.474769+05:30
Belgaum,Karnataka,15.8497,74.4977,25.0,83,0.0,922.7,9.1,46.1,64,23.3,19.0,10.0,238.0,65.0,2.9,7,5,7,1,2026-05-15T23:12:10.832334+05:30
Coimbatore,Tamil Nadu,11.0168,76.9558,24.0,91,0.0,958.3,8.45,34.2,69,23.9,17.8,9.5,303.0,78.0,4.0,3,5,7,1,2026-05-15T23:12:10.832367+05:30
Madurai,Tamil Nadu,9.9252,78.1198,27.1,85,0.0,990.0,4.2,25.6,84,46.7,38.5,62.7,696.0,6.0,10.7,7,5,3,1,2026-05-15T23:12:10.832377+05:30
Trichy,Tamil Nadu,10.7905,78.7047,27.2,88,0.0,996.7,1.9,32.8,79,36.2,30.2,25.5,364.0,54.0,7.7,7,5,3,1,2026-05-15T23:12:10.832386+05:30
Salem,Tamil Nadu,11.6643,78.146,26.9,87,0.1,974.1,8.65,25.9,121,55.2,42.0,27.0,565.0,77.0,14.1,10,5,7,1,2026-05-15T23:12:10.832395+05:30
Tirunelveli,Tamil Nadu,8.7139,77.7567,27.6,79,0.0,1000.3,6.65,20.5,45,15.6,13.2,10.2,658.0,63.0,3.1,7,5,4,1,2026-05-15T23:12:10.832403+05:30
Vellore,Tamil Nadu,12.9165,79.1325,26.1,89,0.0,981.7,8.25,33.1,91,36.6,34.6,23.6,296.0,46.0,15.1,7,5,7,1,2026-05-15T23:12:10.832411+05:30
Erode,Tamil Nadu,11.341,77.7172,27.9,77,0.0,985.8,8.45,19.8,92,59.6,42.5,40.5,558.0,57.0,7.9,7,5,7,1,2026-05-15T23:12:10.832418+05:30
Kochi,Kerala,9.9312,76.2673,25.3,91,0.0,1006.7,7.15,35.3,57,30.2,26.1,27.1,315.0,32.0,8.5,7,5,4,1,2026-05-15T23:12:10.832426+05:30
Thiruvananthapuram,Kerala,8.5241,76.9366,24.0,98,0.0,1006.3,4.3,34.2,52,20.3,11.3,2.7,311.0,89.0,1.3,3,5,0,1,2026-05-15T23:12:10.832432+05:30
Kozhikode,Kerala,11.2588,75.7804,24.6,98,0.0,1005.5,8.55,40.0,65,41.3,24.6,3.4,422.0,83.0,2.0,3,5,4,1,2026-05-15T23:12:10.832439+05:30
Thrissur,Kerala,10.5276,76.2144,23.4,98,0.0,1004.8,8.0,34.9,59,26.4,22.7,16.8,385.0,53.0,5.8,3,5,4,1,2026-05-15T23:12:10.832447+05:30
Kannur,Kerala,11.8745,75.3704,25.6,97,0.0,1005.0,8.75,40.3,71,35.5,26.5,18.9,310.0,45.0,3.4,7,5,4,1,2026-05-15T23:12:10.832454+05:30
Patna,Bihar,25.5941,85.1376,28.6,80,0.0,996.3,8.8,22.7,115,71.0,59.6,31.3,653.0,77.0,20.5,7,5,7,1,2026-05-15T23:12:10.832460+05:30
Gaya,Bihar,24.7914,85.0002,29.2,67,0.0,989.8,8.9,32.8,123,90.1,69.4,32.1,823.0,76.0,20.2,7,5,7,1,2026-05-15T23:12:10.832467+05:30
Muzaffarpur,Bihar,26.1209,85.3647,28.0,78,0.0,996.3,8.8,26.6,136,101.0,88.2,45.5,1053.0,62.0,23.1,7,5,7,1,2026-05-15T23:12:10.832474+05:30
Bhagalpur,Bihar,25.2425,87.0117,28.9,83,0.0,997.1,8.8,29.9,135,28.4,27.0,13.7,418.0,99.0,14.2,7,5,7,1,2026-05-15T23:12:10.832481+05:30
Ranchi,Jharkhand,23.3441,85.3096,25.0,66,0.0,934.1,8.85,47.5,110,94.5,70.5,16.5,542.0,93.0,5.9,7,5,7,1,2026-05-15T23:12:10.832487+05:30
Jamshedpur,Jharkhand,22.8046,86.2029,28.9,76,0.0,987.2,9.15,47.9,98,50.6,38.3,20.6,606.0,82.0,23.4,7,5,7,1,2026-05-15T23:12:10.832494+05:30
Dhanbad,Jharkhand,23.7957,86.4304,28.3,76,0.0,976.0,9.05,34.6,119,86.4,75.0,55.5,1106.0,63.0,125.0,7,5,7,1,2026-05-15T23:12:10.832501+05:30
Bokaro,Jharkhand,23.6693,86.1511,28.1,78,0.0,979.7,9.05,46.1,124,110.8,88.5,58.4,3179.0,53.0,101.6,7,5,7,1,2026-05-15T23:12:10.832509+05:30
Bhubaneswar,Odisha,20.2961,85.8245,29.0,86,0.0,1000.0,9.15,42.8,40,10.4,7.8,4.5,172.0,37.0,2.2,7,5,4,1,2026-05-15T23:12:10.832516+05:30
Cuttack,Odisha,20.4625,85.8828,29.2,85,0.0,1001.9,9.2,38.9,40,10.4,7.8,4.5,197.0,37.0,2.2,7,5,4,1,2026-05-15T23:12:10.832523+05:30
Rourkela,Odisha,22.2604,84.8536,29.8,67,0.0,981.3,9.05,44.3,124,123.4,92.9,29.3,956.0,95.0,17.8,7,5,7,1,2026-05-15T23:12:10.832530+05:30
Raipur,Chhattisgarh,21.2514,81.6296,31.4,55,0.0,970.2,8.75,41.0,151,91.3,73.8,51.6,440.0,39.0,43.3,0,5,7,1,2026-05-15T23:12:10.832537+05:30
Bhilai,Chhattisgarh,21.1938,81.3509,30.8,58,0.0,970.7,8.8,42.1,140,80.1,62.9,50.4,513.0,42.0,44.8,0,5,7,1,2026-05-15T23:12:10.832543+05:30
Guwahati,Assam,26.1158,91.7086,23.0,99,0.1,1000.0,8.75,23.0,59,20.9,18.7,9.6,313.0,70.0,3.3,6,5,4,1,2026-05-15T23:12:10.832550+05:30
Agartala,Tripura,23.8315,91.2868,26.9,86,0.0,1003.9,8.9,28.1,51,18.9,15.3,12.6,242.0,36.0,2.1,7,5,4,1,2026-05-15T23:12:10.832556+05:30
Shillong,Meghalaya,25.5788,91.8933,17.8,95,0.0,854.9,9.0,31.3,50,12.0,10.4,9.1,280.0,68.0,3.4,3,10,7,1,2026-05-15T23:12:10.832564+05:30
Imphal,Manipur,24.817,93.9368,20.2,93,0.0,921.4,8.8,34.9,58,42.3,36.8,39.6,899.0,17.0,7.1,3,5,7,1,2026-05-15T23:12:10.832571+05:30
Aizawl,Mizoram,23.7271,92.7176,19.3,88,0.0,890.3,9.1,36.4,35,18.5,11.6,9.2,199.0,49.0,2.1,3,10,7,1,2026-05-15T23:12:10.832577+05:30
Kohima,Nagaland,25.6701,94.1077,15.8,93,0.0,851.9,8.3,26.3,46,18.0,15.1,16.3,323.0,34.0,1.9,3,10,7,0,2026-05-15T23:12:10.832584+05:30
Gangtok,Sikkim,27.3314,88.6138,14.3,99,0.2,834.5,9.05,40.0,74,16.9,13.8,11.1,441.0,110.0,2.7,6,10,7,0,2026-05-15T23:12:10.832591+05:30
Siliguri,West Bengal,26.7271,88.3953,22.5,98,0.0,991.1,8.65,23.4,105,39.3,30.3,11.0,430.0,113.0,4.9,3,5,7,1,2026-05-15T23:12:14.119900+05:30
Durgapur,West Bengal,23.5204,87.3119,27.6,89,0.0,991.4,9.0,51.8,126,44.6,39.7,25.8,614.0,69.0,38.0,7,5,7,1,2026-05-15T23:12:14.119930+05:30
Asansol,West Bengal,23.6739,86.9524,27.8,81,0.0,989.7,9.05,48.6,104,52.6,45.9,27.8,379.0,82.0,45.6,7,5,7,1,2026-05-15T23:12:14.119941+05:30
Pondicherry,Puducherry,11.9139,79.8145,26.6,93,0.0,1005.5,5.0,39.6,70,30.9,25.8,18.6,663.0,67.0,15.1,7,5,0,1,2026-05-15T23:12:14.119949+05:30
Port Blair,Andaman and Nicobar Islands,11.6234,92.7265,27.0,91,0.0,1006.4,6.65,38.9,35,4.7,3.0,0.3,146.0,75.0,0.2,7,5,4,1,2026-05-15T23:12:14.119956+05:30
Haridwar,Uttarakhand,29.9457,78.1642,24.0,78,0.0,969.1,7.45,30.2,113,46.2,37.1,21.9,408.0,69.0,9.5,3,5,7,1,2026-05-15T23:12:14.119964+05:30
Rishikesh,Uttarakhand,30.0869,78.2676,22.1,65,0.0,961.5,7.6,35.3,106,51.7,30.6,13.4,461.0,103.0,6.7,3,5,7,0,2026-05-15T23:12:14.119971+05:30
Nainital,Uttarakhand,29.3919,79.4542,14.1,68,0.0,801.5,8.45,41.0,118,75.2,41.7,14.5,417.0,105.0,8.2,3,5,7,0,2026-05-15T23:12:14.119979+05:30
Mussoorie,Uttarakhand,30.4599,78.0664,14.3,58,0.0,799.1,7.3,56.9,88,56.6,37.6,38.4,281.0,56.0,7.5,0,5,7,0,2026-05-15T23:12:14.119986+05:30
Dharamshala,Himachal Pradesh,32.219,76.3234,20.0,50,0.0,866.2,8.35,41.8,51,19.4,15.4,17.5,258.0,34.0,0.6,0,5,7,0,2026-05-15T23:12:14.119994+05:30
Dalhousie,Himachal Pradesh,32.5387,75.971,11.6,73,0.0,799.5,8.55,43.6,66,45.5,31.4,49.0,523.0,37.0,3.0,3,5,7,0,2026-05-15T23:12:14.120001+05:30
Patiala,Punjab,30.3398,76.3869,27.1,49,0.0,973.9,7.6,40.3,244,428.4,85.4,10.0,386.0,94.0,8.8,4,5,7,0,2026-05-15T23:12:14.120008+05:30
Bhatinda,Punjab,30.211,74.9455,28.9,47,0.0,979.9,8.1,34.6,119,161.6,59.1,8.1,456.0,109.0,7.4,4,5,7,1,2026-05-15T23:12:14.120015+05:30
Rohtak,Haryana,28.8955,76.6066,28.4,41,0.0,977.9,7.7,38.5,380,1277.8,238.4,26.3,440.0,71.0,12.3,4,5,7,0,2026-05-15T23:12:14.120023+05:30
Panipat,Haryana,29.3909,76.9635,27.7,44,0.0,976.2,7.55,45.4,956,1851.5,297.1,12.2,477.0,89.0,7.6,4,5,7,0,2026-05-15T23:12:14.120029+05:30
Mathura,Uttar Pradesh,27.4924,77.6737,29.0,45,0.0,982.5,7.95,38.5,547,555.1,128.5,24.9,546.0,87.0,14.4,4,5,7,0,2026-05-15T23:12:14.120036+05:30
Vrindavan,Uttar Pradesh,27.5823,77.7027,28.5,49,0.0,982.9,7.95,38.2,547,555.1,128.5,24.9,518.0,87.0,14.4,4,5,7,1,2026-05-15T23:12:14.120043+05:30
Ayodhya,Uttar Pradesh,26.7922,82.1998,28.6,72,0.0,990.6,8.35,24.1,150,94.8,65.0,36.9,548.0,65.0,15.5,7,5,7,1,2026-05-15T23:12:14.120050+05:30
Ratlam,Madhya Pradesh,23.3315,75.0367,29.8,32,0.0,951.6,8.55,41.4,52,21.4,14.3,3.4,190.0,98.0,4.6,4,5,7,0,2026-05-15T23:12:14.120057+05:30
Sagar,Madhya Pradesh,23.8388,78.7378,32.2,34,0.0,946.6,8.75,37.8,88,57.0,27.3,6.0,297.0,92.0,6.0,0,5,7,0,2026-05-15T23:12:14.120064+05:30
Satna,Madhya Pradesh,24.6005,80.8322,30.7,46,0.0,967.9,8.8,37.4,102,90.8,37.5,16.6,360.0,83.0,7.0,0,5,7,1,2026-05-15T23:12:14.120071+05:30
Akola,Maharashtra,20.7002,77.0082,35.5,22,0.0,970.8,8.95,47.5,69,22.7,17.2,12.5,196.0,77.0,7.0,0,5,10,0,2026-05-15T23:12:14.120078+05:30
Amravati,Maharashtra,20.9374,77.7796,35.4,20,0.0,962.8,8.95,43.2,78,31.7,21.4,17.2,256.0,65.0,5.8,0,5,10,0,2026-05-15T23:12:14.120086+05:30
Latur,Maharashtra,18.4088,76.5604,30.5,44,0.0,935.9,9.1,41.8,107,57.0,40.9,31.7,518.0,68.0,10.3,0,5,7,1,2026-05-15T23:12:14.120093+05:30
Nanded,Maharashtra,19.1383,77.3091,31.5,44,0.0,963.8,9.05,34.9,114,61.9,46.0,39.9,607.0,38.0,8.6,0,5,7,1,2026-05-15T23:12:14.120100+05:30
Gulbarga,Karnataka,17.3297,76.8343,30.9,53,0.0,954.5,6.05,35.6,116,85.7,56.1,31.3,529.0,62.0,8.6,0,5,7,1,2026-05-15T23:12:14.120106+05:30
Bidar,Karnataka,17.9104,77.5199,30.9,40,0.0,931.8,7.2,34.9,124,83.1,57.4,35.7,731.0,76.0,9.3,0,5,7,0,2026-05-15T23:12:14.120113+05:30
Hospet,Karnataka,15.2689,76.3909,28.9,61,0.0,952.1,9.2,34.6,88,40.5,32.5,19.5,427.0,84.0,4.9,7,5,7,1,2026-05-15T23:12:14.120119+05:30
Tirupur,Tamil Nadu,11.1085,77.3411,25.7,82,0.0,971.9,8.4,32.0,87,44.4,31.5,28.1,279.0,71.0,7.1,7,5,7,1,2026-05-15T23:12:14.120126+05:30
Alappuzha,Kerala,9.4981,76.3388,25.7,99,0.0,1006.7,5.3,36.0,55,37.1,27.7,19.2,154.0,60.0,5.8,7,5,0,1,2026-05-15T23:12:14.120132+05:30
Munnar,Kerala,10.0889,77.0595,18.2,92,0.0,854.3,7.4,28.8,41,13.4,12.3,11.7,216.0,46.0,2.2,3,10,7,1,2026-05-15T23:12:14.120158+05:30
Silchar,Assam,24.8333,92.7789,24.1,96,0.3,1003.0,8.95,29.9,65,35.2,28.4,11.3,362.0,68.0,5.7,6,5,4,1,2026-05-15T23:12:14.120168+05:30
Dibrugarh,Assam,27.4728,94.912,22.4,93,0.0,993.9,7.2,32.4,98,44.7,41.1,32.0,476.0,11.0,2.9,3,5,7,1,2026-05-15T23:12:14.120175+05:30
