city,state,latitude,longitude,temp,humidity,rain,pressure,uv_index,wind_gusts,aqi,pm10,pm2_5,mosquito_risk,arthritis_risk,migraine_risk,frizz_risk,updated_at
Delhi,Delhi,28.6139,77.209,21.1,57,0.0,986.0,7.15,42.1,746,586.7,102.0,0,5,7,0,2026-04-11T04:11:00.297138+05:30
Mumbai,Maharashtra,19.076,72.8777,28.4,80,0.0,1009.4,7.95,24.8,103,67.1,41.0,7,0,4,1,2026-04-11T04:11:00.297184+05:30
Bangalore,Karnataka,12.9716,77.5946,24.2,84,0.0,912.6,9.65,28.8,88,28.9,26.4,3,5,7,1,2026-04-11T04:11:00.297201+05:30
Hyderabad,Telangana,17.385,78.4867,27.1,73,0.0,954.5,9.25,24.5,98,64.5,49.8,7,5,7,1,2026-04-11T04:11:00.297212+05:30
Chennai,Tamil Nadu,13.0827,80.2707,28.1,85,0.0,1008.4,9.15,35.3,61,19.8,13.9,7,0,4,1,2026-04-11T04:11:00.297221+05:30
Kolkata,West Bengal,22.5726,88.3639,23.5,92,0.0,1008.0,8.75,19.1,154,61.0,46.4,3,0,4,1,2026-04-11T04:11:00.297230+05:30
Pune,Maharashtra,18.5204,73.8567,23.7,84,0.0,949.5,8.55,42.8,96,83.4,50.2,3,5,7,1,2026-04-11T04:11:00.297242+05:30
Ahmedabad,Gujarat,23.0225,72.5714,24.9,47,0.0,1004.3,8.05,19.8,73,33.3,27.9,0,5,4,0,2026-04-11T04:11:00.297249+05:30
Jaipur,Rajasthan,26.9124,75.7873,22.9,48,0.0,962.9,7.85,33.8,144,73.1,24.1,0,5,7,0,2026-04-11T04:11:00.297258+05:30
Lucknow,Uttar Pradesh,26.8467,80.9462,20.7,55,0.0,995.5,7.65,43.6,174,568.1,113.9,0,5,7,0,2026-04-11T04:11:00.297266+05:30
Kanpur,Uttar Pradesh,26.4499,80.3319,19.5,64,0.0,994.3,7.7,39.6,440,922.0,140.6,3,5,7,0,2026-04-11T04:11:00.297273+05:30
Chandigarh,Chandigarh,30.7333,76.7794,19.0,66,0.0,971.5,7.1,35.3,51,11.1,11.1,3,5,7,0,2026-04-11T04:11:00.297281+05:30
Srinagar,Jammu and Kashmir,34.0837,74.7973,9.4,73,0.0,841.9,8.05,29.2,76,48.4,39.6,3,5,7,0,2026-04-11T04:11:00.297288+05:30
Jammu,Jammu and Kashmir,32.7266,74.857,19.2,72,0.0,976.2,7.75,22.0,59,33.8,25.1,3,5,7,0,2026-04-11T04:11:00.297295+05:30
Amritsar,Punjab,31.634,74.8723,19.8,75,0.0,984.7,7.7,27.7,63,44.9,14.5,3,5,7,0,2026-04-11T04:11:00.297302+05:30
Ludhiana,Punjab,30.901,75.8573,20.4,65,0.0,982.6,7.2,37.4,61,15.9,15.5,3,5,7,0,2026-04-11T04:11:00.297309+05:30
Jalandhar,Punjab,31.326,75.5762,19.7,72,0.0,984.1,7.5,32.4,67,35.4,14.2,3,5,7,0,2026-04-11T04:11:00.297317+05:30
Dehradun,Uttarakhand,30.6284,78.0322,11.2,58,0.0,828.5,7.55,38.2,42,5.2,5.1,0,5,7,0,2026-04-11T04:11:00.297324+05:30
Shimla,Himachal Pradesh,31.1048,77.1734,9.6,57,0.0,782.9,7.2,46.4,50,9.4,8.7,0,5,7,0,2026-04-11T04:11:00.297330+05:30
Manali,Himachal Pradesh,32.2396,77.1887,11.9,59,0.0,818.3,9.55,36.7,63,16.5,10.8,0,5,7,0,2026-04-11T04:11:00.297337+05:30
Gurgaon,Haryana,28.4595,77.0266,18.8,70,0.0,984.5,7.3,35.6,2094,1430.5,189.1,3,5,7,0,2026-04-11T04:11:00.297344+05:30
Noida,Uttar Pradesh,28.5355,77.391,20.8,60,0.0,987.4,7.2,43.6,2094,1430.5,189.1,0,5,7,0,2026-04-11T04:11:00.297350+05:30
Ghaziabad,Uttar Pradesh,28.6692,77.4538,19.9,63,0.0,985.4,7.15,41.0,578,421.0,75.7,3,5,7,0,2026-04-11T04:11:00.297358+05:30
Faridabad,Haryana,28.4089,77.3178,20.9,59,0.0,986.7,7.25,42.1,2094,1430.5,189.1,0,5,7,0,2026-04-11T04:11:00.297365+05:30
Meerut,Uttar Pradesh,28.9845,77.7064,18.7,68,0.0,983.7,7.05,40.7,578,421.0,75.7,3,5,7,0,2026-04-11T04:11:00.297371+05:30
Agra,Uttar Pradesh,27.1767,78.0081,20.1,61,0.0,990.9,7.55,33.5,1245,1367.2,185.8,3,5,7,0,2026-04-11T04:11:00.297377+05:30
Varanasi,Uttar Pradesh,25.3176,82.9739,19.6,61,0.0,999.9,8.3,39.6,85,191.9,38.9,3,5,7,0,2026-04-11T04:11:00.297386+05:30
Prayagraj,Uttar Pradesh,25.4358,81.8463,21.2,55,0.0,998.5,8.15,41.0,94,283.1,51.8,0,5,7,0,2026-04-11T04:11:00.297393+05:30
Gorakhpur,Uttar Pradesh,26.7606,83.3732,19.8,49,0.0,998.3,8.1,35.3,72,266.4,52.9,0,5,7,0,2026-04-11T04:11:00.297399+05:30
Bareilly,Uttar Pradesh,28.367,79.4304,18.3,70,0.0,988.2,7.45,46.4,93,73.3,34.0,3,5,7,0,2026-04-11T04:11:00.297405+05:30
Aligarh,Uttar Pradesh,27.8974,78.088,18.7,68,0.0,988.3,7.35,44.6,1242,1046.8,156.9,3,5,7,0,2026-04-11T04:11:00.297412+05:30
Moradabad,Uttar Pradesh,28.8386,78.7733,18.3,70,0.0,985.2,7.25,42.1,112,58.2,26.0,3,5,7,0,2026-04-11T04:11:00.297417+05:30
Saharanpur,Uttar Pradesh,29.9637,77.546,19.4,62,0.0,977.5,6.85,41.8,78,31.8,14.9,3,5,7,0,2026-04-11T04:11:00.297426+05:30
Jhansi,Uttar Pradesh,25.4484,78.5685,21.1,50,0.0,981.0,8.1,27.0,68,28.8,10.0,0,5,7,0,2026-04-11T04:11:03.513999+05:30
Surat,Gujarat,21.1702,72.8311,26.2,57,0.0,1007.8,7.8,29.2,125,31.1,28.2,4,5,4,1,2026-04-11T04:11:03.514032+05:30
Vadodara,Gujarat,22.3072,73.1812,24.2,54,0.0,1005.9,8.05,14.4,63,18.0,12.9,0,5,4,0,2026-04-11T04:11:03.514043+05:30
Rajkot,Gujarat,22.3039,70.8022,25.0,71,0.0,996.9,7.75,34.2,68,33.6,23.1,7,5,7,1,2026-04-11T04:11:03.514052+05:30
Thane,Maharashtra,19.2183,72.9781,27.2,82,0.0,1008.8,7.95,38.5,103,67.1,41.0,7,0,4,1,2026-04-11T04:11:03.514059+05:30
Nagpur,Maharashtra,21.1458,79.0882,24.6,45,0.0,975.1,8.75,21.2,70,22.8,15.5,0,5,7,0,2026-04-11T04:11:03.514066+05:30
Nashik,Maharashtra,19.9975,73.7898,24.5,56,0.0,946.8,8.25,34.9,94,71.2,57.7,0,5,7,0,2026-04-11T04:11:03.514073+05:30
Aurangabad,Maharashtra,19.8762,75.3433,25.6,39,0.0,945.2,8.9,32.0,76,36.6,22.8,4,5,7,0,2026-04-11T04:11:03.514080+05:30
Solapur,Maharashtra,17.6599,75.9064,27.9,51,0.0,957.8,9.0,19.1,68,24.2,17.7,4,5,7,1,2026-04-11T04:11:03.514087+05:30
Kolhapur,Maharashtra,16.705,74.2433,21.6,82,0.0,948.3,9.05,43.9,96,71.9,46.3,3,5,7,1,2026-04-11T04:11:03.514094+05:30
Goa,Goa,15.2993,74.124,27.0,85,0.0,998.6,9.05,34.2,95,95.2,42.1,7,5,7,1,2026-04-11T04:11:03.514102+05:30
Jodhpur,Rajasthan,26.2389,73.0243,25.0,37,0.0,985.9,8.05,26.6,63,75.7,17.8,4,5,7,0,2026-04-11T04:11:03.514108+05:30
Udaipur,Rajasthan,24.5854,73.7125,20.6,42,0.0,949.3,8.6,30.2,43,16.2,8.8,0,5,7,0,2026-04-11T04:11:03.514115+05:30
Kota,Rajasthan,25.2138,75.8648,20.3,63,0.0,982.0,8.1,18.0,76,38.2,22.5,3,5,7,0,2026-04-11T04:11:03.514121+05:30
Bikaner,Rajasthan,28.0229,73.3119,25.2,44,0.0,984.8,7.9,33.5,58,22.6,12.4,4,5,7,0,2026-04-11T04:11:03.514128+05:30
Ajmer,Rajasthan,26.4499,74.6399,22.3,42,0.0,957.4,8.0,35.3,78,69.4,22.5,0,5,7,0,2026-04-11T04:11:03.514134+05:30
Gwalior,Madhya Pradesh,26.2183,78.1828,22.2,58,0.0,986.4,7.8,27.7,96,244.0,36.8,0,5,7,0,2026-04-11T04:11:03.514141+05:30
Indore,Madhya Pradesh,22.7196,75.8577,20.3,53,0.0,950.3,8.5,20.9,60,28.6,17.8,0,5,7,0,2026-04-11T04:11:03.514146+05:30
Bhopal,Madhya Pradesh,23.2599,77.4126,21.8,46,0.0,956.4,8.5,24.5,59,22.5,13.2,0,5,7,0,2026-04-11T04:11:03.514152+05:30
Jabalpur,Madhya Pradesh,23.1815,79.9864,23.4,41,0.0,964.3,8.6,19.8,70,29.7,21.7,0,5,7,0,2026-04-11T04:11:03.514159+05:30
Ujjain,Madhya Pradesh,23.1765,75.7885,21.1,50,0.0,956.3,8.4,18.0,61,35.3,22.3,0,5,7,0,2026-04-11T04:11:03.514166+05:30
Visakhapatnam,Andhra Pradesh,17.6868,83.2185,27.3,88,0.0,1005.2,9.15,41.4,91,26.9,21.5,7,5,4,1,2026-04-11T04:11:03.514173+05:30
Vijayawada,Andhra Pradesh,16.5062,80.648,27.5,88,0.0,1004.2,9.2,26.3,78,23.2,19.3,7,5,4,1,2026-04-11T04:11:03.514180+05:30
Guntur,Andhra Pradesh,16.3067,80.4365,27.5,86,0.0,1005.2,9.25,33.8,78,20.5,17.4,7,5,4,1,2026-04-11T04:11:03.514186+05:30
Nellore,Andhra Pradesh,14.4426,79.9865,27.1,87,0.0,1006.6,9.0,41.0,68,18.4,15.0,7,5,4,1,2026-04-11T04:11:03.514194+05:30
Kurnool,Andhra Pradesh,15.8281,78.0373,30.1,55,0.0,977.3,9.25,26.6,86,31.4,29.1,0,5,7,1,2026-04-11T04:11:03.514201+05:30
Kakinada,Andhra Pradesh,16.9891,82.2475,27.4,91,0.0,1009.0,9.2,34.2,67,24.2,17.1,7,0,4,1,2026-04-11T04:11:03.514207+05:30
Tirupati,Andhra Pradesh,13.6288,79.4192,25.1,90,0.0,993.1,9.1,31.3,84,20.4,17.9,7,5,7,1,2026-04-11T04:11:03.514213+05:30
Warangal,Telangana,17.9689,79.5941,27.3,77,0.0,980.0,9.1,25.9,102,56.8,48.0,7,5,7,1,2026-04-11T04:11:03.514219+05:30
Nizamabad,Telangana,18.6725,78.0941,26.1,56,0.0,965.5,9.0,21.2,80,42.1,32.9,4,5,7,1,2026-04-11T04:11:03.514225+05:30
Mysore,Karnataka,12.2958,76.6396,22.8,89,0.0,929.5,9.55,28.8,81,36.0,29.2,3,5,7,1,2026-04-11T04:11:03.514231+05:30
Mangalore,Karnataka,12.9141,74.856,29.5,79,0.0,1007.4,8.6,26.6,74,93.1,33.9,7,5,4,1,2026-04-11T04:11:03.514237+05:30
Hubli-Dharwad,Karnataka,15.3647,75.124,23.5,82,0.0,941.2,9.25,42.1,83,69.8,38.9,3,5,7,1,2026-04-11T04:11:03.514243+05:30
Belgaum,Karnataka,15.8497,74.4977,21.7,89,0.0,925.7,9.3,38.9,87,95.5,45.8,3,5,7,1,2026-04-11T04:11:11.284623+05:30
Coimbatore,Tamil Nadu,11.0168,76.9558,23.7,87,0.0,963.3,8.85,29.5,73,33.6,24.2,3,5,7,1,2026-04-11T04:11:11.284657+05:30
Madurai,Tamil Nadu,9.9252,78.1198,27.1,92,0.0,994.1,8.9,37.4,78,29.0,26.5,7,5,7,1,2026-04-11T04:11:11.284667+05:30
Trichy,Tamil Nadu,10.7905,78.7047,27.4,91,0.0,1001.1,8.9,24.5,66,28.8,24.4,7,5,4,1,2026-04-11T04:11:11.284675+05:30
Salem,Tamil Nadu,11.6643,78.146,27.3,81,0.0,978.7,8.7,20.2,75,19.0,17.0,7,5,7,1,2026-04-11T04:11:11.284683+05:30
Tirunelveli,Tamil Nadu,8.7139,77.7567,25.4,89,0.0,1004.2,9.2,49.3,71,31.4,26.9,7,5,4,1,2026-04-11T04:11:11.284691+05:30
Vellore,Tamil Nadu,12.9165,79.1325,24.7,87,0.0,986.0,9.5,32.4,91,28.2,25.4,3,5,7,1,2026-04-11T04:11:11.284698+05:30
Erode,Tamil Nadu,11.341,77.7172,27.7,83,0.0,990.4,8.1,26.3,66,14.4,12.7,7,5,7,1,2026-04-11T04:11:11.284705+05:30
Kochi,Kerala,9.9312,76.2673,26.5,86,0.0,1010.2,7.35,32.4,72,17.2,14.4,7,0,4,1,2026-04-11T04:11:11.284712+05:30
Thiruvananthapuram,Kerala,8.5241,76.9366,27.6,86,0.0,1008.7,9.05,39.6,67,26.6,15.9,7,0,4,1,2026-04-11T04:11:11.284719+05:30
Kozhikode,Kerala,11.2588,75.7804,27.6,85,0.0,1009.3,9.1,29.9,69,39.1,17.9,7,0,4,1,2026-04-11T04:11:11.284726+05:30
Thrissur,Kerala,10.5276,76.2144,25.8,90,0.0,1008.5,8.55,33.1,74,20.1,15.1,7,0,4,1,2026-04-11T04:11:11.284734+05:30
Kannur,Kerala,11.8745,75.3704,26.5,83,0.0,1008.6,8.15,31.0,70,42.1,18.6,7,0,4,1,2026-04-11T04:11:11.284741+05:30
Patna,Bihar,25.5941,85.1376,21.3,60,0.0,1002.4,8.45,31.3,67,65.9,30.0,0,5,4,0,2026-04-11T04:11:11.284747+05:30
Gaya,Bihar,24.7914,85.0002,22.2,50,0.0,996.3,8.55,33.8,70,40.5,22.7,0,5,7,0,2026-04-11T04:11:11.284754+05:30
Muzaffarpur,Bihar,26.1209,85.3647,19.8,53,0.0,1001.9,8.45,22.7,65,75.2,27.6,0,5,4,0,2026-04-11T04:11:11.284761+05:30
Bhagalpur,Bihar,25.2425,87.0117,20.8,68,0.0,1002.9,8.45,23.8,74,35.4,19.4,3,5,4,0,2026-04-11T04:11:11.284767+05:30
Ranchi,Jharkhand,23.3441,85.3096,19.7,52,0.0,939.3,9.05,33.8,64,39.6,21.0,0,5,7,0,2026-04-11T04:11:11.284773+05:30
Jamshedpur,Jharkhand,22.8046,86.2029,22.7,82,0.0,992.9,8.85,17.6,119,81.3,62.9,3,5,7,1,2026-04-11T04:11:11.284779+05:30
Dhanbad,Jharkhand,23.7957,86.4304,19.8,71,0.0,981.8,8.8,25.9,119,94.3,80.6,3,5,7,0,2026-04-11T04:11:11.284786+05:30
Bokaro,Jharkhand,23.6693,86.1511,21.1,58,0.0,986.3,8.8,27.7,112,88.2,74.7,0,5,7,0,2026-04-11T04:11:11.284792+05:30
Bhubaneswar,Odisha,20.2961,85.8245,26.1,97,0.0,1003.9,9.0,23.4,120,47.5,41.7,7,5,4,1,2026-04-11T04:11:11.284799+05:30
Cuttack,Odisha,20.4625,85.8828,26.4,97,0.0,1006.1,9.05,18.7,120,47.5,41.7,7,5,4,1,2026-04-11T04:11:11.284805+05:30
Rourkela,Odisha,22.2604,84.8536,21.3,85,0.0,987.0,8.75,17.3,78,53.1,40.5,3,5,7,1,2026-04-11T04:11:11.284811+05:30
Raipur,Chhattisgarh,21.2514,81.6296,23.7,46,0.0,976.5,8.85,19.8,109,60.1,47.3,0,5,7,0,2026-04-11T04:11:11.284817+05:30
Bhilai,Chhattisgarh,21.1938,81.3509,22.8,45,0.0,976.8,8.85,17.6,110,54.1,37.8,0,5,7,0,2026-04-11T04:11:11.284824+05:30
Guwahati,Assam,26.1158,91.7086,21.0,89,0.0,1003.9,8.3,20.9,95,45.3,40.2,3,5,4,1,2026-04-11T04:11:11.284829+05:30
Agartala,Tripura,23.8315,91.2868,20.0,100,0.0,1008.4,8.6,26.3,151,62.6,52.6,3,0,4,1,2026-04-11T04:11:11.284836+05:30
Shillong,Meghalaya,25.5788,91.8933,10.6,68,0.0,854.8,8.75,55.8,78,37.3,31.4,3,5,7,0,2026-04-11T04:11:11.284842+05:30
Imphal,Manipur,24.817,93.9368,13.5,86,0.0,923.5,8.95,51.5,89,67.1,49.8,3,10,7,0,2026-04-11T04:11:11.284849+05:30
Aizawl,Mizoram,23.7271,92.7176,13.9,89,0.0,892.5,8.8,40.7,81,52.7,35.6,3,10,7,0,2026-04-11T04:11:11.284856+05:30
Kohima,Nagaland,25.6701,94.1077,10.7,84,0.0,853.4,8.85,77.8,64,39.5,29.9,3,10,7,0,2026-04-11T04:11:11.284863+05:30
Gangtok,Sikkim,27.3314,88.6138,11.1,86,0.0,835.4,8.2,18.7,73,36.8,27.3,3,10,7,0,2026-04-11T04:11:11.284869+05:30
Siliguri,West Bengal,26.7271,88.3953,17.8,65,0.0,995.8,8.35,17.6,109,77.5,59.1,3,5,7,0,2026-04-11T04:11:14.512698+05:30
Durgapur,West Bengal,23.5204,87.3119,23.3,64,0.0,997.0,8.75,20.2,117,75.9,62.6,3,5,7,1,2026-04-11T04:11:14.512731+05:30
Asansol,West Bengal,23.6739,86.9524,23.5,57,0.0,995.8,8.8,21.6,96,60.8,47.4,0,5,7,0,2026-04-11T04:11:14.512742+05:30
Pondicherry,Puducherry,11.9139,79.8145,26.8,95,0.0,1009.8,9.35,36.0,59,18.8,12.9,7,0,4,1,2026-04-11T04:11:14.512750+05:30
Port Blair,Andaman and Nicobar Islands,11.6234,92.7265,28.3,78,0.0,1008.0,9.25,24.1,29,7.1,4.7,7,0,4,1,2026-04-11T04:11:14.512759+05:30
Haridwar,Uttarakhand,29.9457,78.1642,15.6,83,0.0,975.6,7.0,42.8,64,23.6,22.5,3,10,7,0,2026-04-11T04:11:14.512766+05:30
Rishikesh,Uttarakhand,30.0869,78.2676,16.3,76,0.0,968.2,7.05,41.4,52,18.5,13.9,3,5,7,0,2026-04-11T04:11:14.512773+05:30
Nainital,Uttarakhand,29.3919,79.4542,15.7,49,0.0,804.6,7.9,64.8,65,32.2,14.0,0,5,7,0,2026-04-11T04:11:14.512780+05:30
Mussoorie,Uttarakhand,30.4599,78.0664,13.2,52,0.0,801.3,7.45,51.5,56,16.3,15.1,0,5,7,0,2026-04-11T04:11:14.512787+05:30
Dharamshala,Himachal Pradesh,32.219,76.3234,17.2,42,0.0,870.4,7.65,24.5,94,11.5,5.8,0,5,7,0,2026-04-11T04:11:14.512794+05:30
Dalhousie,Himachal Pradesh,32.5387,75.971,12.8,56,0.0,803.5,7.65,20.2,51,15.5,12.9,0,5,7,0,2026-04-11T04:11:14.512801+05:30
Patiala,Punjab,30.3398,76.3869,19.4,66,0.0,981.5,7.05,35.3,776,814.0,84.1,3,5,7,0,2026-04-11T04:11:14.512808+05:30
Bhatinda,Punjab,30.211,74.9455,20.7,64,0.0,987.8,7.4,28.8,65,53.8,17.2,3,5,7,0,2026-04-11T04:11:14.512816+05:30
Rohtak,Haryana,28.8955,76.6066,19.4,64,0.0,984.9,7.2,37.4,1078,910.8,132.2,3,5,7,0,2026-04-11T04:11:14.512822+05:30
Panipat,Haryana,29.3909,76.9635,19.6,63,0.0,983.2,7.0,34.6,2053,1788.1,204.0,3,5,7,0,2026-04-11T04:11:14.512829+05:30
Mathura,Uttar Pradesh,27.4924,77.6737,22.4,52,0.0,989.9,7.5,32.0,1365,1400.7,196.5,0,5,7,0,2026-04-11T04:11:14.512836+05:30
Vrindavan,Uttar Pradesh,27.5823,77.7027,19.3,66,0.0,990.3,7.45,38.2,1365,1400.7,196.5,3,5,7,0,2026-04-11T04:11:14.512842+05:30
Ayodhya,Uttar Pradesh,26.7922,82.1998,19.7,59,0.0,996.7,7.85,45.7,91,425.6,89.6,0,5,7,0,2026-04-11T04:11:14.512849+05:30
Ratlam,Madhya Pradesh,23.3315,75.0367,19.6,64,0.0,956.8,8.35,20.2,53,29.2,17.9,3,5,7,0,2026-04-11T04:11:14.512855+05:30
Sagar,Madhya Pradesh,23.8388,78.7378,21.3,40,0.0,952.8,8.5,26.6,65,21.0,12.3,0,5,7,0,2026-04-11T04:11:14.512862+05:30
Satna,Madhya Pradesh,24.6005,80.8322,21.1,45,0.0,974.1,8.5,33.8,62,34.1,11.8,0,5,7,0,2026-04-11T04:11:14.512868+05:30
Akola,Maharashtra,20.7002,77.0082,26.0,43,0.0,976.8,8.7,24.8,79,33.8,24.2,4,5,7,0,2026-04-11T04:11:14.512875+05:30
Amravati,Maharashtra,20.9374,77.7796,24.2,45,0.0,968.8,8.75,22.3,76,25.9,16.2,0,5,7,0,2026-04-11T04:11:14.512882+05:30
Latur,Maharashtra,18.4088,76.5604,26.0,53,0.0,940.3,9.0,17.6,71,41.2,27.3,4,5,7,0,2026-04-11T04:11:14.512888+05:30
Nanded,Maharashtra,19.1383,77.3091,25.7,59,0.0,969.5,8.9,15.5,79,51.6,41.4,4,5,7,1,2026-04-11T04:11:14.512894+05:30
Gulbarga,Karnataka,17.3297,76.8343,29.0,44,0.0,959.2,9.1,19.8,67,21.1,16.2,4,5,7,0,2026-04-11T04:11:14.512899+05:30
Bidar,Karnataka,17.9104,77.5199,27.0,48,0.0,936.2,9.05,29.2,71,36.7,25.7,4,5,7,0,2026-04-11T04:11:14.512905+05:30
Hospet,Karnataka,15.2689,76.3909,28.0,64,0.0,956.5,9.25,24.1,77,35.4,27.8,7,5,7,1,2026-04-11T04:11:14.512911+05:30
Tirupur,Tamil Nadu,11.1085,77.3411,26.3,77,0.0,976.7,9.25,26.6,75,29.6,23.2,7,5,7,1,2026-04-11T04:11:14.512917+05:30
Alappuzha,Kerala,9.4981,76.3388,26.2,84,0.0,1010.2,7.4,29.9,72,16.3,11.6,7,0,4,1,2026-04-11T04:11:14.512923+05:30
Munnar,Kerala,10.0889,77.0595,20.5,84,0.0,857.1,8.05,37.8,80,30.4,28.5,3,5,7,1,2026-04-11T04:11:14.512930+05:30
Silchar,Assam,24.8333,92.7789,19.0,93,0.0,1007.8,8.6,25.2,129,79.2,57.4,3,10,4,1,2026-04-11T04:11:14.512936+05:30
Dibrugarh,Assam,27.4728,94.912,18.7,100,0.0,998.8,8.4,20.2,97,33.4,26.7,3,10,7,1,2026-04-11T04:11:14.512942+05:30
