city,state,latitude,longitude,temp,humidity,rain,pressure,uv_index,wind_gusts,aqi,pm10,pm2_5,mosquito_risk,arthritis_risk,migraine_risk,frizz_risk,updated_at
Delhi,Delhi,28.6139,77.209,20.9,81,0.0,984.8,6.2,29.2,383,157.9,44.4,3,5,7,1,2026-04-04T04:07:18.768297+05:30
Mumbai,Maharashtra,19.076,72.8777,27.5,77,0.0,1009.2,7.85,20.9,78,46.9,22.2,7,0,4,1,2026-04-04T04:07:18.768345+05:30
Bangalore,Karnataka,12.9716,77.5946,22.0,83,0.0,911.6,9.35,25.9,85,21.0,20.3,3,5,7,1,2026-04-04T04:07:18.768362+05:30
Hyderabad,Telangana,17.385,78.4867,24.9,74,0.0,953.2,8.3,28.8,69,19.2,16.7,3,5,7,1,2026-04-04T04:07:18.768372+05:30
Chennai,Tamil Nadu,13.0827,80.2707,27.4,83,0.0,1006.9,7.95,37.8,46,14.6,10.9,7,5,4,1,2026-04-04T04:07:18.768382+05:30
Kolkata,West Bengal,22.5726,88.3639,26.6,96,0.0,1004.6,8.65,19.1,71,18.9,16.2,7,5,4,1,2026-04-04T04:07:18.768392+05:30
Pune,Maharashtra,18.5204,73.8567,20.9,83,0.0,948.4,8.5,39.2,115,44.4,37.5,3,5,7,1,2026-04-04T04:07:18.768404+05:30
Ahmedabad,Gujarat,23.0225,72.5714,24.7,69,0.0,1003.2,7.35,23.0,65,19.5,9.3,3,5,4,1,2026-04-04T04:07:18.768413+05:30
Jaipur,Rajasthan,26.9124,75.7873,21.9,78,0.0,961.1,7.4,29.2,108,66.1,27.6,3,5,7,1,2026-04-04T04:07:18.768422+05:30
Lucknow,Uttar Pradesh,26.8467,80.9462,24.2,68,0.0,994.1,6.05,40.0,130,303.6,80.8,3,5,7,1,2026-04-04T04:07:18.768430+05:30
Kanpur,Uttar Pradesh,26.4499,80.3319,23.8,75,0.0,992.5,4.55,30.6,187,555.1,106.6,3,5,3,1,2026-04-04T04:07:18.768439+05:30
Chandigarh,Chandigarh,30.7333,76.7794,18.3,88,0.0,970.3,6.15,34.6,88,76.6,34.9,3,10,7,1,2026-04-04T04:07:18.768447+05:30
Srinagar,Jammu and Kashmir,34.0837,74.7973,8.2,91,0.0,840.9,6.65,27.4,81,23.2,19.9,3,10,7,0,2026-04-04T04:07:18.768456+05:30
Jammu,Jammu and Kashmir,32.7266,74.857,17.4,87,0.0,975.1,7.15,31.0,63,27.9,11.8,3,10,7,0,2026-04-04T04:07:18.768464+05:30
Amritsar,Punjab,31.634,74.8723,17.1,96,0.0,983.4,7.1,31.7,79,51.3,28.4,3,10,7,1,2026-04-04T04:07:18.768472+05:30
Ludhiana,Punjab,30.901,75.8573,18.4,88,0.0,981.0,5.6,23.8,119,182.1,61.2,3,10,3,1,2026-04-04T04:07:18.768479+05:30
Jalandhar,Punjab,31.326,75.5762,17.8,87,0.0,982.2,6.3,33.5,94,121.5,43.7,3,10,7,0,2026-04-04T04:07:18.768489+05:30
Dehradun,Uttarakhand,30.6284,78.0322,13.9,69,0.0,830.2,5.05,34.2,39,19.7,11.5,3,5,3,0,2026-04-04T04:07:18.768497+05:30
Shimla,Himachal Pradesh,31.1048,77.1734,11.7,65,0.0,783.4,5.3,48.6,53,24.8,15.5,3,5,3,0,2026-04-04T04:07:18.768505+05:30
Manali,Himachal Pradesh,32.2396,77.1887,12.7,73,0.0,819.0,5.35,29.9,49,1.8,1.1,3,5,3,0,2026-04-04T04:07:18.768513+05:30
Gurgaon,Haryana,28.4595,77.0266,19.9,86,0.0,983.2,6.0,26.6,798,137.4,48.2,3,10,3,1,2026-04-04T04:07:18.768521+05:30
Noida,Uttar Pradesh,28.5355,77.391,20.8,81,0.0,986.4,6.45,29.5,798,137.4,48.2,3,5,7,1,2026-04-04T04:07:18.768529+05:30
Ghaziabad,Uttar Pradesh,28.6692,77.4538,19.9,86,0.0,984.4,6.25,34.6,325,168.1,41.4,3,10,7,1,2026-04-04T04:07:18.768536+05:30
Faridabad,Haryana,28.4089,77.3178,20.3,82,0.0,985.6,6.25,22.7,798,137.4,48.2,3,5,7,1,2026-04-04T04:07:18.768544+05:30
Meerut,Uttar Pradesh,28.9845,77.7064,19.9,89,0.0,982.7,6.05,36.4,325,168.1,41.4,3,10,7,1,2026-04-04T04:07:18.768551+05:30
Agra,Uttar Pradesh,27.1767,78.0081,21.8,73,0.0,989.7,6.5,34.6,843,529.0,79.6,3,5,7,1,2026-04-04T04:07:18.768558+05:30
Varanasi,Uttar Pradesh,25.3176,82.9739,23.8,80,0.0,997.3,7.5,51.1,80,25.9,22.2,3,5,7,1,2026-04-04T04:07:18.768568+05:30
Prayagraj,Uttar Pradesh,25.4358,81.8463,24.7,76,0.0,996.0,6.65,34.2,79,24.5,20.5,3,5,7,1,2026-04-04T04:07:18.768576+05:30
Gorakhpur,Uttar Pradesh,26.7606,83.3732,22.8,75,0.0,996.5,7.25,43.2,70,74.5,34.1,3,5,7,1,2026-04-04T04:07:18.768584+05:30
Bareilly,Uttar Pradesh,28.367,79.4304,22.3,82,0.0,987.3,5.5,32.8,118,115.7,49.2,3,5,3,1,2026-04-04T04:07:18.768591+05:30
Aligarh,Uttar Pradesh,27.8974,78.088,20.8,78,0.0,987.0,6.55,25.6,802,332.5,64.3,3,5,7,1,2026-04-04T04:07:18.768598+05:30
Moradabad,Uttar Pradesh,28.8386,78.7733,21.4,86,0.0,984.5,5.6,35.3,152,136.0,50.2,3,5,3,1,2026-04-04T04:07:18.768606+05:30
Saharanpur,Uttar Pradesh,29.9637,77.546,20.3,87,0.0,977.1,6.1,33.1,151,224.9,75.4,3,5,7,1,2026-04-04T04:07:18.768614+05:30
Jhansi,Uttar Pradesh,25.4484,78.5685,24.8,65,0.0,978.2,7.65,37.4,56,41.3,17.5,3,5,7,1,2026-04-04T04:07:21.984317+05:30
Surat,Gujarat,21.1702,72.8311,26.4,82,0.0,1007.2,7.65,27.0,91,25.0,20.5,7,5,4,1,2026-04-04T04:07:21.984348+05:30
Vadodara,Gujarat,22.3072,73.1812,25.7,92,0.0,1005.0,7.85,22.7,78,50.3,34.1,7,5,4,1,2026-04-04T04:07:21.984360+05:30
Rajkot,Gujarat,22.3039,70.8022,22.0,92,0.0,995.2,7.55,32.8,54,19.9,10.7,3,5,7,1,2026-04-04T04:07:21.984368+05:30
Thane,Maharashtra,19.2183,72.9781,25.3,88,0.0,1008.7,7.85,37.8,78,46.9,22.2,7,0,4,1,2026-04-04T04:07:21.984376+05:30
Nagpur,Maharashtra,21.1458,79.0882,25.3,68,0.0,973.0,8.05,37.8,81,33.8,30.0,7,5,7,1,2026-04-04T04:07:21.984384+05:30
Nashik,Maharashtra,19.9975,73.7898,20.2,86,0.0,945.8,8.15,37.1,63,39.8,20.5,3,5,7,1,2026-04-04T04:07:21.984391+05:30
Aurangabad,Maharashtra,19.8762,75.3433,25.2,55,0.0,944.8,8.7,43.6,84,27.9,14.3,4,5,7,0,2026-04-04T04:07:21.984399+05:30
Solapur,Maharashtra,17.6599,75.9064,24.4,78,0.0,957.6,8.8,25.9,87,29.6,27.7,3,5,7,1,2026-04-04T04:07:21.984407+05:30
Kolhapur,Maharashtra,16.705,74.2433,19.4,100,0.0,947.7,9.0,38.5,112,38.2,35.6,3,10,7,1,2026-04-04T04:07:21.984414+05:30
Goa,Goa,15.2993,74.124,26.9,80,0.0,998.0,8.45,32.8,72,32.5,26.9,7,5,7,1,2026-04-04T04:07:21.984422+05:30
Jodhpur,Rajasthan,26.2389,73.0243,21.4,69,0.0,984.2,7.35,28.8,115,161.6,26.5,3,5,7,0,2026-04-04T04:07:21.984429+05:30
Udaipur,Rajasthan,24.5854,73.7125,20.5,76,0.0,946.8,8.25,37.4,56,44.4,16.5,3,5,7,1,2026-04-04T04:07:21.984436+05:30
Kota,Rajasthan,25.2138,75.8648,25.0,66,0.0,979.9,7.3,36.4,58,46.8,23.7,7,5,7,1,2026-04-04T04:07:21.984443+05:30
Bikaner,Rajasthan,28.0229,73.3119,19.5,78,0.0,983.7,7.1,25.9,65,49.2,24.8,3,5,7,0,2026-04-04T04:07:21.984450+05:30
Ajmer,Rajasthan,26.4499,74.6399,20.9,77,0.0,955.5,6.95,36.4,88,67.3,30.0,3,5,7,1,2026-04-04T04:07:21.984457+05:30
Gwalior,Madhya Pradesh,26.2183,78.1828,24.9,60,0.0,983.9,7.3,27.4,71,247.7,45.5,0,5,7,1,2026-04-04T04:07:21.984465+05:30
Indore,Madhya Pradesh,22.7196,75.8577,22.0,74,0.0,948.3,8.3,36.7,68,32.1,19.3,3,5,7,1,2026-04-04T04:07:21.984472+05:30
Bhopal,Madhya Pradesh,23.2599,77.4126,24.6,59,0.0,954.1,8.25,33.8,63,24.8,22.6,0,5,7,1,2026-04-04T04:07:21.984479+05:30
Jabalpur,Madhya Pradesh,23.1815,79.9864,26.2,60,0.0,962.0,4.25,31.7,73,33.6,29.5,4,5,3,1,2026-04-04T04:07:21.984486+05:30
Ujjain,Madhya Pradesh,23.1765,75.7885,22.4,71,0.0,954.2,8.2,37.8,67,37.8,21.9,3,5,7,1,2026-04-04T04:07:21.984494+05:30
Visakhapatnam,Andhra Pradesh,17.6868,83.2185,26.1,90,0.0,1003.6,8.8,37.8,60,16.2,14.3,7,5,4,1,2026-04-04T04:07:21.984501+05:30
Vijayawada,Andhra Pradesh,16.5062,80.648,25.8,88,0.0,1002.8,8.3,18.0,44,11.1,9.9,7,5,4,1,2026-04-04T04:07:21.984508+05:30
Guntur,Andhra Pradesh,16.3067,80.4365,25.8,91,0.0,1003.7,8.4,21.6,40,10.2,9.1,7,5,4,1,2026-04-04T04:07:21.984516+05:30
Nellore,Andhra Pradesh,14.4426,79.9865,26.5,87,0.0,1005.4,8.65,30.2,41,12.7,10.7,7,5,4,1,2026-04-04T04:07:21.984523+05:30
Kurnool,Andhra Pradesh,15.8281,78.0373,28.2,54,0.0,976.4,8.4,44.3,58,12.7,11.6,4,5,7,1,2026-04-04T04:07:21.984531+05:30
Kakinada,Andhra Pradesh,16.9891,82.2475,25.3,92,0.0,1007.6,8.6,29.5,28,8.7,6.6,7,5,4,1,2026-04-04T04:07:21.984539+05:30
Tirupati,Andhra Pradesh,13.6288,79.4192,24.8,80,0.0,991.8,8.5,25.6,52,19.0,17.5,3,5,7,1,2026-04-04T04:07:21.984546+05:30
Warangal,Telangana,17.9689,79.5941,25.9,79,0.0,979.2,7.7,32.8,71,23.1,21.6,7,5,7,1,2026-04-04T04:07:21.984554+05:30
Nizamabad,Telangana,18.6725,78.0941,24.3,81,0.0,965.5,8.05,32.0,118,69.2,59.8,3,5,7,1,2026-04-04T04:07:21.984561+05:30
Mysore,Karnataka,12.2958,76.6396,22.7,88,0.0,928.3,9.0,32.8,70,20.3,19.3,3,5,7,1,2026-04-04T04:07:21.984568+05:30
Mangalore,Karnataka,12.9141,74.856,28.5,81,0.0,1006.3,7.85,23.8,66,23.8,20.4,7,5,4,1,2026-04-04T04:07:21.984575+05:30
Hubli-Dharwad,Karnataka,15.3647,75.124,22.8,90,0.0,940.6,8.9,32.0,74,23.1,21.2,3,5,7,1,2026-04-04T04:07:21.984582+05:30
Belgaum,Karnataka,15.8497,74.4977,20.3,100,0.0,925.1,8.7,37.1,84,35.3,31.5,3,5,7,1,2026-04-04T04:07:25.201314+05:30
Coimbatore,Tamil Nadu,11.0168,76.9558,24.4,82,0.0,961.6,8.4,43.2,72,25.3,23.7,3,5,7,1,2026-04-04T04:07:25.201344+05:30
Madurai,Tamil Nadu,9.9252,78.1198,25.2,84,0.0,992.6,9.2,29.2,57,20.5,19.9,7,5,7,1,2026-04-04T04:07:25.201354+05:30
Trichy,Tamil Nadu,10.7905,78.7047,26.1,87,0.0,999.3,8.95,24.1,55,10.3,9.8,7,5,7,1,2026-04-04T04:07:25.201363+05:30
Salem,Tamil Nadu,11.6643,78.146,25.8,83,0.0,977.4,8.6,41.8,55,14.9,14.1,7,5,7,1,2026-04-04T04:07:25.201371+05:30
Tirunelveli,Tamil Nadu,8.7139,77.7567,25.6,90,0.0,1002.7,7.75,20.5,66,24.2,22.8,7,5,4,1,2026-04-04T04:07:25.201378+05:30
Vellore,Tamil Nadu,12.9165,79.1325,25.4,82,0.0,984.6,8.65,27.7,71,24.9,21.9,7,5,7,1,2026-04-04T04:07:25.201386+05:30
Erode,Tamil Nadu,11.341,77.7172,27.2,74,0.0,989.0,8.65,42.1,59,25.3,24.3,7,5,7,1,2026-04-04T04:07:25.201394+05:30
Kochi,Kerala,9.9312,76.2673,27.7,81,0.0,1008.4,9.25,23.8,67,21.2,20.5,7,0,4,1,2026-04-04T04:07:25.201401+05:30
Thiruvananthapuram,Kerala,8.5241,76.9366,28.1,83,0.0,1007.3,8.4,26.3,61,19.4,16.5,7,5,4,1,2026-04-04T04:07:25.201409+05:30
Kozhikode,Kerala,11.2588,75.7804,27.0,86,0.0,1008.0,7.5,26.6,56,11.7,9.0,7,0,4,1,2026-04-04T04:07:25.201417+05:30
Thrissur,Kerala,10.5276,76.2144,26.4,86,0.0,1007.1,8.75,29.9,62,15.5,14.6,7,5,4,1,2026-04-04T04:07:25.201425+05:30
Kannur,Kerala,11.8745,75.3704,27.0,85,0.0,1007.0,7.65,27.4,64,22.7,19.4,7,5,4,1,2026-04-04T04:07:25.201432+05:30
Patna,Bihar,25.5941,85.1376,24.7,77,0.0,1000.0,7.85,37.8,86,26.7,23.1,3,5,4,1,2026-04-04T04:07:25.201439+05:30
Gaya,Bihar,24.7914,85.0002,25.4,68,0.0,993.8,8.25,24.1,79,25.7,22.9,7,5,7,1,2026-04-04T04:07:25.201446+05:30
Muzaffarpur,Bihar,26.1209,85.3647,23.3,77,0.0,999.6,8.0,37.1,83,29.3,23.0,3,5,7,1,2026-04-04T04:07:25.201453+05:30
Bhagalpur,Bihar,25.2425,87.0117,24.0,75,0.0,1000.5,8.2,28.1,82,29.3,25.7,3,5,4,1,2026-04-04T04:07:25.201459+05:30
Ranchi,Jharkhand,23.3441,85.3096,23.4,64,0.0,937.8,8.1,46.1,77,29.6,25.8,3,5,7,1,2026-04-04T04:07:25.201466+05:30
Jamshedpur,Jharkhand,22.8046,86.2029,26.2,72,0.0,990.2,8.45,22.0,113,52.3,46.2,7,5,7,1,2026-04-04T04:07:25.201473+05:30
Dhanbad,Jharkhand,23.7957,86.4304,25.8,64,0.0,979.3,7.85,24.1,130,39.0,35.9,7,5,7,1,2026-04-04T04:07:25.201480+05:30
Bokaro,Jharkhand,23.6693,86.1511,25.5,63,0.0,983.7,7.7,25.9,130,40.2,36.9,7,5,7,1,2026-04-04T04:07:25.201487+05:30
Bhubaneswar,Odisha,20.2961,85.8245,26.4,94,0.0,1002.0,8.95,31.7,62,22.6,19.7,7,5,4,1,2026-04-04T04:07:25.201495+05:30
Cuttack,Odisha,20.4625,85.8828,26.6,95,0.0,1003.8,9.0,34.6,62,22.6,19.7,7,5,4,1,2026-04-04T04:07:25.201502+05:30
Rourkela,Odisha,22.2604,84.8536,26.2,75,0.0,984.9,8.05,31.0,114,55.4,48.8,7,5,7,1,2026-04-04T04:07:25.201509+05:30
Raipur,Chhattisgarh,21.2514,81.6296,26.6,65,0.0,975.0,8.15,30.6,120,45.6,41.6,7,5,7,1,2026-04-04T04:07:25.201515+05:30
Bhilai,Chhattisgarh,21.1938,81.3509,26.0,67,0.0,975.2,8.1,28.1,98,42.8,39.1,7,5,7,1,2026-04-04T04:07:25.201522+05:30
Guwahati,Assam,26.1158,91.7086,23.9,92,0.0,1000.9,8.25,32.8,140,48.2,43.3,3,5,4,1,2026-04-04T04:07:25.201529+05:30
Agartala,Tripura,23.8315,91.2868,25.8,94,0.0,1005.4,8.5,29.5,67,7.9,6.9,7,5,4,1,2026-04-04T04:07:25.201536+05:30
Shillong,Meghalaya,25.5788,91.8933,15.5,89,0.0,855.2,8.55,53.6,103,31.3,25.1,3,10,7,0,2026-04-04T04:07:25.201543+05:30
Imphal,Manipur,24.817,93.9368,18.3,85,0.0,922.3,8.65,78.5,125,71.0,59.8,3,10,7,0,2026-04-04T04:07:25.201550+05:30
Aizawl,Mizoram,23.7271,92.7176,18.9,84,0.0,891.4,8.65,50.4,117,52.2,41.0,3,10,7,1,2026-04-04T04:07:25.201557+05:30
Kohima,Nagaland,25.6701,94.1077,15.9,79,0.0,853.8,8.55,86.0,108,60.3,52.5,3,5,7,0,2026-04-04T04:07:25.201564+05:30
Gangtok,Sikkim,27.3314,88.6138,14.9,97,0.0,836.2,8.3,19.4,123,58.9,46.4,3,10,7,0,2026-04-04T04:07:25.201570+05:30
Siliguri,West Bengal,26.7271,88.3953,21.7,77,0.0,993.1,8.2,28.1,159,117.8,94.5,3,5,7,1,2026-04-04T04:07:28.418869+05:30
Durgapur,West Bengal,23.5204,87.3119,27.6,70,0.0,993.9,8.55,19.8,157,49.9,46.7,7,5,7,1,2026-04-04T04:07:28.418899+05:30
Asansol,West Bengal,23.6739,86.9524,28.4,60,0.0,992.6,8.35,18.7,130,36.8,33.8,4,5,7,1,2026-04-04T04:07:28.418910+05:30
Pondicherry,Puducherry,11.9139,79.8145,26.7,95,0.0,1008.2,8.4,27.0,48,14.3,10.3,7,0,4,1,2026-04-04T04:07:28.418919+05:30
Port Blair,Andaman and Nicobar Islands,11.6234,92.7265,28.4,77,0.0,1005.7,8.7,17.6,41,18.1,10.0,7,5,4,1,2026-04-04T04:07:28.418928+05:30
Haridwar,Uttarakhand,29.9457,78.1642,20.9,77,0.0,975.5,5.35,31.0,95,40.3,26.5,3,5,3,1,2026-04-04T04:07:28.418936+05:30
Rishikesh,Uttarakhand,30.0869,78.2676,21.5,62,0.0,968.2,5.7,22.7,74,34.6,20.3,3,5,3,0,2026-04-04T04:07:28.418943+05:30
Nainital,Uttarakhand,29.3919,79.4542,19.0,36,0.0,807.4,4.75,36.4,60,36.9,22.5,0,5,3,0,2026-04-04T04:07:28.418951+05:30
Mussoorie,Uttarakhand,30.4599,78.0664,15.8,58,0.0,803.1,4.95,42.1,67,26.7,18.9,0,5,3,0,2026-04-04T04:07:28.418958+05:30
Dharamshala,Himachal Pradesh,32.219,76.3234,16.2,73,0.0,869.2,6.75,39.6,45,4.6,2.4,3,5,7,0,2026-04-04T04:07:28.418965+05:30
Dalhousie,Himachal Pradesh,32.5387,75.971,11.2,82,0.0,802.4,6.3,52.6,57,18.9,13.0,3,10,7,0,2026-04-04T04:07:28.418973+05:30
Patiala,Punjab,30.3398,76.3869,17.8,91,0.0,980.3,5.35,25.2,173,244.9,60.5,3,10,3,1,2026-04-04T04:07:28.418981+05:30
Bhatinda,Punjab,30.211,74.9455,17.6,97,0.0,986.1,6.75,39.2,82,34.1,26.5,3,10,7,1,2026-04-04T04:07:28.418988+05:30
Rohtak,Haryana,28.8955,76.6066,18.9,91,0.0,983.6,6.05,27.4,430,91.5,39.3,3,10,7,1,2026-04-04T04:07:28.418995+05:30
Panipat,Haryana,29.3909,76.9635,19.1,88,0.0,982.1,5.8,25.2,781,183.0,54.8,3,10,3,1,2026-04-04T04:07:28.419002+05:30
Mathura,Uttar Pradesh,27.4924,77.6737,21.5,76,0.0,988.5,6.0,28.1,688,186.7,43.2,3,5,3,1,2026-04-04T04:07:28.419009+05:30
Vrindavan,Uttar Pradesh,27.5823,77.7027,21.1,76,0.0,989.0,5.85,28.1,688,186.7,43.2,3,5,3,1,2026-04-04T04:07:28.419016+05:30
Ayodhya,Uttar Pradesh,26.7922,82.1998,22.7,72,0.0,995.3,7.05,38.9,84,116.6,47.3,3,5,7,1,2026-04-04T04:07:28.419024+05:30
Ratlam,Madhya Pradesh,23.3315,75.0367,23.9,65,0.0,955.2,8.1,31.7,64,36.6,18.1,3,5,7,1,2026-04-04T04:07:28.419031+05:30
Sagar,Madhya Pradesh,23.8388,78.7378,24.9,60,0.0,950.5,8.05,34.9,59,18.3,15.4,0,5,7,1,2026-04-04T04:07:28.419038+05:30
Satna,Madhya Pradesh,24.6005,80.8322,25.4,69,0.0,971.8,6.45,45.4,68,30.6,27.3,7,5,7,1,2026-04-04T04:07:28.419045+05:30
Akola,Maharashtra,20.7002,77.0082,26.0,57,0.0,975.8,7.1,25.6,92,29.9,26.3,4,5,7,1,2026-04-04T04:07:28.419053+05:30
Amravati,Maharashtra,20.9374,77.7796,25.5,69,0.0,967.5,7.15,21.6,93,34.3,30.2,7,5,7,1,2026-04-04T04:07:28.419060+05:30
Latur,Maharashtra,18.4088,76.5604,23.3,83,0.0,940.2,8.9,27.7,95,41.8,36.6,3,5,7,1,2026-04-04T04:07:28.419067+05:30
Nanded,Maharashtra,19.1383,77.3091,24.1,84,0.0,970.3,8.2,22.3,96,31.7,28.6,3,5,7,1,2026-04-04T04:07:28.419074+05:30
Gulbarga,Karnataka,17.3297,76.8343,25.9,70,0.0,959.0,8.55,32.0,82,29.9,27.4,7,5,7,1,2026-04-04T04:07:28.419081+05:30
Bidar,Karnataka,17.9104,77.5199,23.8,77,0.0,935.6,8.4,30.2,91,42.5,36.7,3,5,7,1,2026-04-04T04:07:28.419088+05:30
Hospet,Karnataka,15.2689,76.3909,26.2,78,0.0,955.8,8.5,21.6,80,20.4,19.5,7,5,7,1,2026-04-04T04:07:28.419095+05:30
Tirupur,Tamil Nadu,11.1085,77.3411,26.4,78,0.0,975.1,8.9,32.0,73,27.0,25.8,7,5,7,1,2026-04-04T04:07:28.419101+05:30
Alappuzha,Kerala,9.4981,76.3388,27.5,80,0.0,1008.4,8.75,23.4,64,19.8,18.6,7,0,4,1,2026-04-04T04:07:28.419109+05:30
Munnar,Kerala,10.0889,77.0595,20.2,92,0.0,856.0,9.3,29.5,58,18.5,17.8,3,5,7,1,2026-04-04T04:07:28.419154+05:30
Silchar,Assam,24.8333,92.7789,24.2,88,0.0,1004.1,8.45,28.4,146,44.0,37.5,3,5,4,1,2026-04-04T04:07:28.419170+05:30
Dibrugarh,Assam,27.4728,94.912,22.3,96,0.0,995.4,8.15,9.7,106,45.2,41.9,3,5,7,1,2026-04-04T04:07:28.419178+05:30
