city,state,latitude,longitude,temp,humidity,rain,pressure,uv_index,wind_gusts,aqi,pm10,pm2_5,mosquito_risk,arthritis_risk,migraine_risk,frizz_risk,updated_at
Delhi,Delhi,28.6139,77.209,30.8,38,0.0,983.3,5.4,24.5,143,196.5,35.3,0,5,3,0,2026-03-31T16:26:37.441742+05:30
Mumbai,Maharashtra,19.076,72.8777,27.8,76,0.0,1006.5,8.0,25.2,65,25.8,15.7,7,5,4,1,2026-03-31T16:26:37.441787+05:30
Bangalore,Karnataka,12.9716,77.5946,33.4,23,0.0,910.0,9.55,32.0,115,29.7,23.1,0,5,7,0,2026-03-31T16:26:37.441803+05:30
Hyderabad,Telangana,17.385,78.4867,31.7,49,0.0,952.4,9.05,37.4,122,45.5,38.3,0,5,7,1,2026-03-31T16:26:37.441812+05:30
Chennai,Tamil Nadu,13.0827,80.2707,31.3,57,0.0,1006.0,9.25,29.2,49,14.6,10.9,0,5,4,1,2026-03-31T16:26:37.441821+05:30
Kolkata,West Bengal,22.5726,88.3639,29.1,76,0.0,1005.5,7.6,27.0,90,37.7,31.5,7,5,4,1,2026-03-31T16:26:37.441830+05:30
Pune,Maharashtra,18.5204,73.8567,33.8,45,0.0,946.8,8.55,28.4,102,40.0,29.6,0,5,7,1,2026-03-31T16:26:37.441842+05:30
Ahmedabad,Gujarat,23.0225,72.5714,36.4,32,0.0,999.3,7.8,27.0,61,33.3,13.2,0,5,10,1,2026-03-31T16:26:37.441850+05:30
Jaipur,Rajasthan,26.9124,75.7873,27.5,55,0.0,960.7,7.45,42.8,62,139.2,18.6,4,5,7,1,2026-03-31T16:26:37.441858+05:30
Lucknow,Uttar Pradesh,26.8467,80.9462,35.6,25,0.0,992.5,7.3,27.0,154,118.5,26.0,0,5,10,0,2026-03-31T16:26:37.441866+05:30
Kanpur,Uttar Pradesh,26.4499,80.3319,33.5,32,0.0,991.3,7.25,23.8,534,282.2,33.9,0,5,7,0,2026-03-31T16:26:37.441874+05:30
Chandigarh,Chandigarh,30.7333,76.7794,29.3,40,0.0,969.1,6.05,23.4,107,68.2,23.6,4,5,7,0,2026-03-31T16:26:37.441882+05:30
Srinagar,Jammu and Kashmir,34.0837,74.7973,16.6,57,0.0,842.4,7.65,16.9,71,14.6,6.8,0,5,7,0,2026-03-31T16:26:37.441891+05:30
Jammu,Jammu and Kashmir,32.7266,74.857,31.2,25,0.0,972.8,6.8,38.2,68,64.7,19.1,0,5,7,0,2026-03-31T16:26:37.441899+05:30
Amritsar,Punjab,31.634,74.8723,29.0,38,0.0,981.1,6.35,27.4,122,94.5,28.2,4,5,7,0,2026-03-31T16:26:37.441906+05:30
Ludhiana,Punjab,30.901,75.8573,30.4,32,0.0,979.0,6.35,25.9,277,142.5,32.4,0,5,7,0,2026-03-31T16:26:37.441913+05:30
Jalandhar,Punjab,31.326,75.5762,29.8,33,0.0,980.1,6.35,22.0,180,119.7,32.4,4,5,7,0,2026-03-31T16:26:37.441921+05:30
Dehradun,Uttarakhand,30.6284,78.0322,20.3,39,0.0,831.1,6.5,34.9,47,18.6,6.8,0,5,7,0,2026-03-31T16:26:37.441927+05:30
Shimla,Himachal Pradesh,31.1048,77.1734,17.6,53,0.0,786.0,6.5,32.0,53,34.5,13.8,0,5,7,0,2026-03-31T16:26:37.441934+05:30
Manali,Himachal Pradesh,32.2396,77.1887,17.8,65,0.0,821.1,9.0,38.2,69,6.8,2.8,3,5,7,0,2026-03-31T16:26:37.441941+05:30
Gurgaon,Haryana,28.4595,77.0266,30.8,37,0.0,981.8,5.95,25.6,242,380.9,48.3,0,5,3,0,2026-03-31T16:26:37.441947+05:30
Noida,Uttar Pradesh,28.5355,77.391,31.3,37,0.0,984.8,5.7,26.3,242,380.9,48.3,0,5,3,0,2026-03-31T16:26:37.441954+05:30
Ghaziabad,Uttar Pradesh,28.6692,77.4538,30.9,36,0.0,983.1,5.6,22.7,133,167.2,36.6,0,5,3,0,2026-03-31T16:26:37.441960+05:30
Faridabad,Haryana,28.4089,77.3178,31.2,35,0.0,984.0,5.95,29.9,242,380.9,48.3,0,5,3,0,2026-03-31T16:26:37.441966+05:30
Meerut,Uttar Pradesh,28.9845,77.7064,31.6,30,0.0,981.6,5.8,22.3,133,167.2,36.6,0,5,3,0,2026-03-31T16:26:37.441974+05:30
Agra,Uttar Pradesh,27.1767,78.0081,30.7,43,0.0,988.5,7.15,34.2,443,506.6,44.6,0,5,7,1,2026-03-31T16:26:37.441981+05:30
Varanasi,Uttar Pradesh,25.3176,82.9739,36.1,27,0.0,996.2,7.65,22.7,132,128.1,42.1,0,5,10,0,2026-03-31T16:26:37.441990+05:30
Prayagraj,Uttar Pradesh,25.4358,81.8463,36.0,27,0.0,994.7,7.8,19.8,150,128.5,39.1,0,5,10,0,2026-03-31T16:26:37.441996+05:30
Gorakhpur,Uttar Pradesh,26.7606,83.3732,33.9,37,0.0,996.0,7.45,22.0,159,53.3,27.1,0,5,7,1,2026-03-31T16:26:37.442003+05:30
Bareilly,Uttar Pradesh,28.367,79.4304,32.8,32,0.0,986.4,6.4,32.0,98,48.7,15.6,0,5,7,0,2026-03-31T16:26:37.442010+05:30
Aligarh,Uttar Pradesh,27.8974,78.088,31.6,38,0.0,985.6,6.45,25.2,475,299.0,40.4,0,5,7,0,2026-03-31T16:26:37.442016+05:30
Moradabad,Uttar Pradesh,28.8386,78.7733,31.7,30,0.0,983.3,6.3,28.4,108,63.8,19.3,0,5,7,0,2026-03-31T16:26:37.442022+05:30
Saharanpur,Uttar Pradesh,29.9637,77.546,30.1,32,0.0,975.6,5.7,25.2,152,129.0,34.3,0,5,3,0,2026-03-31T16:26:37.442028+05:30
Jhansi,Uttar Pradesh,25.4484,78.5685,35.3,23,0.0,977.0,7.75,56.2,48,23.6,10.6,0,5,10,0,2026-03-31T16:26:40.697982+05:30
Surat,Gujarat,21.1702,72.8311,30.3,64,0.0,1005.0,7.8,28.4,86,41.2,33.5,3,5,4,1,2026-03-31T16:26:40.698017+05:30
Vadodara,Gujarat,22.3072,73.1812,36.8,32,0.0,1001.6,8.0,27.4,76,23.0,12.9,0,5,7,1,2026-03-31T16:26:40.698029+05:30
Rajkot,Gujarat,22.3039,70.8022,34.6,33,0.0,992.1,7.75,34.2,60,69.6,24.7,0,5,7,0,2026-03-31T16:26:40.698037+05:30
Thane,Maharashtra,19.2183,72.9781,29.9,64,0.0,1006.1,8.05,37.1,65,25.8,15.7,7,5,4,1,2026-03-31T16:26:40.698044+05:30
Nagpur,Maharashtra,21.1458,79.0882,35.1,33,0.0,971.7,8.3,20.2,60,27.2,19.6,0,5,10,1,2026-03-31T16:26:40.698051+05:30
Nashik,Maharashtra,19.9975,73.7898,33.2,39,0.0,943.8,8.25,31.0,68,23.1,14.2,0,5,7,1,2026-03-31T16:26:40.698058+05:30
Aurangabad,Maharashtra,19.8762,75.3433,34.1,30,0.0,942.7,8.75,27.7,67,29.3,20.9,0,5,7,0,2026-03-31T16:26:40.698065+05:30
Solapur,Maharashtra,17.6599,75.9064,34.6,31,0.0,955.5,8.9,24.8,95,40.0,30.5,0,5,7,0,2026-03-31T16:26:40.698073+05:30
Kolhapur,Maharashtra,16.705,74.2433,31.5,46,0.0,946.4,8.9,26.6,95,41.0,32.8,0,5,7,1,2026-03-31T16:26:40.698079+05:30
Goa,Goa,15.2993,74.124,31.6,63,0.0,995.3,9.0,34.2,76,37.4,25.0,3,5,7,1,2026-03-31T16:26:40.698086+05:30
Jodhpur,Rajasthan,26.2389,73.0243,34.5,29,0.0,981.1,7.7,38.5,71,112.7,19.8,0,5,7,0,2026-03-31T16:26:40.698093+05:30
Udaipur,Rajasthan,24.5854,73.7125,32.4,29,0.0,945.3,8.35,37.4,41,19.8,8.8,0,5,7,0,2026-03-31T16:26:40.698100+05:30
Kota,Rajasthan,25.2138,75.8648,33.8,33,0.0,977.0,7.8,40.0,49,16.2,9.4,0,5,7,0,2026-03-31T16:26:40.698106+05:30
Bikaner,Rajasthan,28.0229,73.3119,34.6,20,0.0,980.2,7.35,38.5,61,55.4,16.9,0,5,7,0,2026-03-31T16:26:40.698113+05:30
Ajmer,Rajasthan,26.4499,74.6399,30.1,43,0.0,954.1,7.7,38.5,40,21.4,9.1,0,5,7,1,2026-03-31T16:26:40.698120+05:30
Gwalior,Madhya Pradesh,26.2183,78.1828,25.2,71,0.0,984.6,7.45,38.9,43,12.3,5.0,7,5,7,1,2026-03-31T16:26:40.698126+05:30
Indore,Madhya Pradesh,22.7196,75.8577,34.9,24,0.0,946.2,8.3,25.6,72,22.2,15.9,0,5,7,0,2026-03-31T16:26:40.698132+05:30
Bhopal,Madhya Pradesh,23.2599,77.4126,35.9,22,0.0,952.0,8.25,26.6,58,19.3,12.4,0,5,10,0,2026-03-31T16:26:40.698139+05:30
Jabalpur,Madhya Pradesh,23.1815,79.9864,34.5,30,0.0,960.5,8.35,37.4,62,65.4,16.5,0,5,7,0,2026-03-31T16:26:40.698145+05:30
Ujjain,Madhya Pradesh,23.1765,75.7885,35.0,26,0.0,952.0,8.2,25.6,56,25.5,17.8,0,5,7,0,2026-03-31T16:26:40.698153+05:30
Visakhapatnam,Andhra Pradesh,17.6868,83.2185,31.2,57,0.0,1002.8,9.05,35.6,64,24.4,20.3,0,5,4,1,2026-03-31T16:26:40.698160+05:30
Vijayawada,Andhra Pradesh,16.5062,80.648,34.2,47,0.0,1000.9,9.05,22.7,58,25.0,20.0,0,5,4,1,2026-03-31T16:26:40.698167+05:30
Guntur,Andhra Pradesh,16.3067,80.4365,34.7,46,0.0,1002.0,9.1,28.8,60,24.2,19.2,0,5,4,1,2026-03-31T16:26:40.698173+05:30
Nellore,Andhra Pradesh,14.4426,79.9865,32.2,53,0.0,1004.6,9.2,28.1,54,19.8,15.4,0,5,4,1,2026-03-31T16:26:40.698181+05:30
Kurnool,Andhra Pradesh,15.8281,78.0373,36.2,35,0.0,974.6,9.1,33.1,86,33.8,27.0,0,5,10,1,2026-03-31T16:26:40.698188+05:30
Kakinada,Andhra Pradesh,16.9891,82.2475,32.7,58,0.0,1006.2,9.05,33.8,49,18.2,13.1,0,5,4,1,2026-03-31T16:26:40.698195+05:30
Tirupati,Andhra Pradesh,13.6288,79.4192,35.2,32,0.0,989.2,9.3,37.1,77,25.9,20.5,0,5,10,0,2026-03-31T16:26:40.698201+05:30
Warangal,Telangana,17.9689,79.5941,32.3,53,0.0,977.8,8.9,26.3,119,57.7,46.3,0,5,7,1,2026-03-31T16:26:40.698208+05:30
Nizamabad,Telangana,18.6725,78.0941,34.1,37,0.0,963.4,8.8,33.5,98,50.9,40.4,0,5,7,1,2026-03-31T16:26:40.698214+05:30
Mysore,Karnataka,12.2958,76.6396,32.1,35,0.0,926.1,9.5,28.4,122,29.2,23.1,0,5,7,0,2026-03-31T16:26:40.698220+05:30
Mangalore,Karnataka,12.9141,74.856,29.7,78,0.0,1003.6,8.8,27.0,93,25.8,19.8,7,5,4,1,2026-03-31T16:26:40.698226+05:30
Hubli-Dharwad,Karnataka,15.3647,75.124,28.0,60,0.0,939.3,9.05,28.1,92,42.6,35.4,4,5,7,1,2026-03-31T16:26:40.698233+05:30
Belgaum,Karnataka,15.8497,74.4977,28.7,57,0.0,924.3,9.1,36.0,94,45.5,36.0,4,5,7,1,2026-03-31T16:26:43.951440+05:30
Coimbatore,Tamil Nadu,11.0168,76.9558,35.4,24,0.0,958.9,9.5,38.9,99,16.4,11.7,0,5,10,0,2026-03-31T16:26:43.951470+05:30
Madurai,Tamil Nadu,9.9252,78.1198,36.8,31,0.0,989.6,9.25,32.4,67,17.1,11.0,0,5,10,1,2026-03-31T16:26:43.951480+05:30
Trichy,Tamil Nadu,10.7905,78.7047,35.5,39,0.0,996.8,9.35,25.9,57,16.9,12.7,0,5,10,1,2026-03-31T16:26:43.951488+05:30
Salem,Tamil Nadu,11.6643,78.146,36.7,25,0.0,974.3,9.45,36.0,76,25.2,16.7,0,5,10,0,2026-03-31T16:26:43.951496+05:30
Tirunelveli,Tamil Nadu,8.7139,77.7567,34.2,45,0.0,999.9,8.65,46.4,88,19.0,15.7,0,5,7,1,2026-03-31T16:26:43.951503+05:30
Vellore,Tamil Nadu,12.9165,79.1325,34.5,34,0.0,982.5,9.35,33.5,96,25.4,19.6,0,5,7,1,2026-03-31T16:26:43.951530+05:30
Erode,Tamil Nadu,11.341,77.7172,37.4,28,0.0,985.4,9.4,27.0,55,17.4,11.7,0,5,10,0,2026-03-31T16:26:43.951539+05:30
Kochi,Kerala,9.9312,76.2673,30.1,76,0.0,1005.0,9.2,28.4,131,42.6,37.3,3,5,4,1,2026-03-31T16:26:43.951546+05:30
Thiruvananthapuram,Kerala,8.5241,76.9366,29.7,75,0.0,1004.9,9.05,26.6,106,28.3,24.3,7,5,4,1,2026-03-31T16:26:43.951553+05:30
Kozhikode,Kerala,11.2588,75.7804,30.9,75,0.0,1004.6,8.95,28.8,127,36.0,30.2,3,5,4,1,2026-03-31T16:26:43.951559+05:30
Thrissur,Kerala,10.5276,76.2144,32.8,63,0.0,1003.6,8.7,36.7,130,34.1,28.3,3,5,4,1,2026-03-31T16:26:43.951567+05:30
Kannur,Kerala,11.8745,75.3704,31.8,69,0.0,1003.9,8.75,28.8,114,26.6,21.2,3,5,4,1,2026-03-31T16:26:43.951574+05:30
Patna,Bihar,25.5941,85.1376,31.2,57,0.0,1000.1,8.0,23.0,165,88.9,45.6,0,5,4,1,2026-03-31T16:26:43.951580+05:30
Gaya,Bihar,24.7914,85.0002,33.7,37,0.0,992.8,8.2,18.0,139,64.7,27.0,0,5,7,1,2026-03-31T16:26:43.951586+05:30
Muzaffarpur,Bihar,26.1209,85.3647,30.0,61,0.0,1000.3,7.8,26.6,171,92.9,52.9,7,5,4,1,2026-03-31T16:26:43.951592+05:30
Bhagalpur,Bihar,25.2425,87.0117,30.4,61,0.0,1000.7,8.15,21.6,163,92.9,69.8,3,5,4,1,2026-03-31T16:26:43.951598+05:30
Ranchi,Jharkhand,23.3441,85.3096,25.2,68,0.0,938.2,8.45,23.8,98,28.6,10.1,7,5,7,1,2026-03-31T16:26:43.951604+05:30
Jamshedpur,Jharkhand,22.8046,86.2029,33.5,44,0.0,989.5,8.65,27.0,145,56.2,37.6,0,5,7,1,2026-03-31T16:26:43.951611+05:30
Dhanbad,Jharkhand,23.7957,86.4304,29.4,58,0.0,979.3,8.55,27.0,165,58.0,34.1,4,5,7,1,2026-03-31T16:26:43.951617+05:30
Bokaro,Jharkhand,23.6693,86.1511,28.8,69,0.0,983.4,8.55,25.2,161,47.4,24.6,7,5,7,1,2026-03-31T16:26:43.951623+05:30
Bhubaneswar,Odisha,20.2961,85.8245,33.3,53,0.0,1001.5,8.85,26.6,116,54.7,44.9,0,5,4,1,2026-03-31T16:26:43.951630+05:30
Cuttack,Odisha,20.4625,85.8828,32.3,59,0.0,1003.4,8.9,30.6,116,54.7,44.9,0,5,4,1,2026-03-31T16:26:43.951636+05:30
Rourkela,Odisha,22.2604,84.8536,34.3,38,0.0,983.8,8.3,16.9,103,38.0,21.2,0,5,7,1,2026-03-31T16:26:43.951642+05:30
Raipur,Chhattisgarh,21.2514,81.6296,35.4,28,0.0,973.6,7.0,33.1,113,137.8,39.0,0,5,10,0,2026-03-31T16:26:43.951649+05:30
Bhilai,Chhattisgarh,21.1938,81.3509,35.5,27,0.0,973.9,8.35,29.2,90,107.1,35.7,0,5,10,0,2026-03-31T16:26:43.951655+05:30
Guwahati,Assam,26.1158,91.7086,27.4,70,0.0,1001.4,8.0,19.8,126,44.8,31.3,7,5,4,1,2026-03-31T16:26:43.951662+05:30
Agartala,Tripura,23.8315,91.2868,26.1,85,0.0,1006.5,8.3,20.9,101,25.0,22.4,7,5,4,1,2026-03-31T16:26:43.951669+05:30
Shillong,Meghalaya,25.5788,91.8933,17.1,77,0.0,856.5,8.35,39.6,101,27.8,18.8,3,5,7,0,2026-03-31T16:26:43.951675+05:30
Imphal,Manipur,24.817,93.9368,19.8,86,0.0,923.6,8.6,59.4,71,19.4,15.7,3,10,7,1,2026-03-31T16:26:43.951682+05:30
Aizawl,Mizoram,23.7271,92.7176,20.8,84,0.0,893.3,8.55,40.7,123,43.1,35.0,3,5,7,1,2026-03-31T16:26:43.951689+05:30
Kohima,Nagaland,25.6701,94.1077,17.4,86,0.0,855.2,8.45,78.1,72,15.8,10.6,3,10,7,0,2026-03-31T16:26:43.951695+05:30
Gangtok,Sikkim,27.3314,88.6138,18.0,79,0.0,837.5,8.15,19.4,132,25.4,20.1,3,5,7,0,2026-03-31T16:26:43.951702+05:30
Siliguri,West Bengal,26.7271,88.3953,23.5,70,0.0,994.0,7.5,20.5,162,73.3,54.1,3,5,7,1,2026-03-31T16:26:47.209565+05:30
Durgapur,West Bengal,23.5204,87.3119,31.1,62,0.0,994.3,8.5,20.9,159,85.4,65.0,3,5,7,1,2026-03-31T16:26:47.209597+05:30
Asansol,West Bengal,23.6739,86.9524,31.5,53,0.0,992.7,8.5,16.2,157,68.7,45.8,0,5,7,1,2026-03-31T16:26:47.209608+05:30
Pondicherry,Puducherry,11.9139,79.8145,32.2,56,0.0,1006.5,9.25,27.4,43,13.9,9.9,0,5,4,1,2026-03-31T16:26:47.209618+05:30
Port Blair,Andaman and Nicobar Islands,11.6234,92.7265,28.0,81,0.0,1006.8,9.15,12.2,41,6.0,4.7,7,5,4,1,2026-03-31T16:26:47.209628+05:30
Haridwar,Uttarakhand,29.9457,78.1642,31.0,29,0.0,974.0,6.0,25.2,93,71.7,23.5,0,5,3,0,2026-03-31T16:26:47.209637+05:30
Rishikesh,Uttarakhand,30.0869,78.2676,30.2,28,0.0,966.8,6.1,25.2,66,40.5,14.1,0,5,7,0,2026-03-31T16:26:47.209646+05:30
Nainital,Uttarakhand,29.3919,79.4542,24.1,26,0.0,808.3,7.4,44.3,74,34.0,12.0,0,5,7,0,2026-03-31T16:26:47.209654+05:30
Mussoorie,Uttarakhand,30.4599,78.0664,21.1,36,0.0,804.2,6.4,32.0,66,40.0,14.2,0,5,7,0,2026-03-31T16:26:47.209661+05:30
Dharamshala,Himachal Pradesh,32.219,76.3234,23.6,42,0.0,870.1,6.65,22.7,46,21.1,6.4,0,5,7,0,2026-03-31T16:26:47.209669+05:30
Dalhousie,Himachal Pradesh,32.5387,75.971,21.6,35,0.0,805.4,6.95,27.4,66,48.3,14.1,0,5,7,0,2026-03-31T16:26:47.209678+05:30
Patiala,Punjab,30.3398,76.3869,30.5,33,0.0,978.7,5.3,19.8,387,523.4,58.6,0,5,3,0,2026-03-31T16:26:47.209686+05:30
Bhatinda,Punjab,30.211,74.9455,29.5,44,0.0,984.2,6.15,31.7,116,110.8,27.4,4,5,7,0,2026-03-31T16:26:47.209693+05:30
Rohtak,Haryana,28.8955,76.6066,29.8,42,0.0,982.4,6.2,25.9,127,198.4,28.8,4,5,7,0,2026-03-31T16:26:47.209701+05:30
Panipat,Haryana,29.3909,76.9635,30.9,29,0.0,980.7,5.25,17.3,150,317.6,42.1,0,5,3,0,2026-03-31T16:26:47.209708+05:30
Mathura,Uttar Pradesh,27.4924,77.6737,31.3,41,0.0,987.1,6.9,24.1,165,266.4,29.6,0,5,7,1,2026-03-31T16:26:47.209716+05:30
Vrindavan,Uttar Pradesh,27.5823,77.7027,31.6,39,0.0,987.4,6.8,24.8,165,266.4,29.6,0,5,7,0,2026-03-31T16:26:47.209723+05:30
Ayodhya,Uttar Pradesh,26.7922,82.1998,35.4,25,0.0,994.2,7.15,25.2,129,48.5,20.8,0,5,10,0,2026-03-31T16:26:47.209731+05:30
Ratlam,Madhya Pradesh,23.3315,75.0367,35.3,28,0.0,952.9,8.1,29.5,51,21.9,14.6,0,5,10,0,2026-03-31T16:26:47.209739+05:30
Sagar,Madhya Pradesh,23.8388,78.7378,34.9,27,0.0,948.8,8.2,32.0,49,17.6,7.2,0,5,7,0,2026-03-31T16:26:47.209746+05:30
Satna,Madhya Pradesh,24.6005,80.8322,35.7,24,0.0,970.6,8.2,22.7,131,97.3,22.1,0,5,10,0,2026-03-31T16:26:47.209754+05:30
Akola,Maharashtra,20.7002,77.0082,37.5,24,0.0,972.8,8.55,18.0,73,16.6,12.8,0,5,10,0,2026-03-31T16:26:47.209763+05:30
Amravati,Maharashtra,20.9374,77.7796,36.8,25,0.0,965.4,8.55,17.3,71,14.1,11.1,0,5,10,0,2026-03-31T16:26:47.209771+05:30
Latur,Maharashtra,18.4088,76.5604,33.8,30,0.0,938.6,8.85,29.2,89,39.1,28.5,0,5,7,0,2026-03-31T16:26:47.209779+05:30
Nanded,Maharashtra,19.1383,77.3091,36.0,30,0.0,966.8,8.7,23.0,81,36.3,26.8,0,5,10,0,2026-03-31T16:26:47.209786+05:30
Gulbarga,Karnataka,17.3297,76.8343,34.9,33,0.0,956.9,8.95,28.1,110,46.3,37.6,0,5,7,1,2026-03-31T16:26:47.209794+05:30
Bidar,Karnataka,17.9104,77.5199,32.9,38,0.0,934.4,8.95,34.6,110,56.8,44.6,0,5,7,1,2026-03-31T16:26:47.209802+05:30
Hospet,Karnataka,15.2689,76.3909,33.3,43,0.0,953.9,8.8,40.3,131,47.8,42.0,0,5,7,1,2026-03-31T16:26:47.209810+05:30
Tirupur,Tamil Nadu,11.1085,77.3411,36.5,27,0.0,972.0,9.5,30.6,77,16.8,12.0,0,5,10,0,2026-03-31T16:26:47.209818+05:30
Alappuzha,Kerala,9.4981,76.3388,29.9,76,0.0,1005.2,9.2,24.8,168,43.8,39.5,7,5,4,1,2026-03-31T16:26:47.209825+05:30
Munnar,Kerala,10.0889,77.0595,22.7,84,0.5,855.5,9.75,29.9,78,17.9,12.5,6,5,7,1,2026-03-31T16:26:47.209833+05:30
Silchar,Assam,24.8333,92.7789,24.7,85,0.0,1006.1,8.35,25.6,84,17.3,14.3,3,5,4,1,2026-03-31T16:26:47.209841+05:30
Dibrugarh,Assam,27.4728,94.912,27.6,61,0.0,995.2,8.15,16.2,89,19.2,14.1,7,5,7,1,2026-03-31T16:26:47.209849+05:30
