city,state,latitude,longitude,temp,humidity,rain,pressure,uv_index,wind_gusts,aqi,pm10,pm2_5,mosquito_risk,arthritis_risk,migraine_risk,frizz_risk,updated_at
Delhi,Delhi,28.6139,77.209,22.7,78,0.0,982.7,5.05,39.2,342,198.8,58.1,3,5,3,1,2026-04-07T20:42:19.186854+05:30
Mumbai,Maharashtra,19.076,72.8777,28.5,74,0.0,1010.7,7.95,20.9,81,63.3,19.4,7,0,4,1,2026-04-07T20:42:19.186894+05:30
Bangalore,Karnataka,12.9716,77.5946,28.8,32,0.0,912.2,9.65,28.8,71,22.7,20.0,4,5,7,0,2026-04-07T20:42:19.186909+05:30
Hyderabad,Telangana,17.385,78.4867,32.2,25,0.0,952.7,9.15,30.6,134,38.6,33.9,0,5,7,0,2026-04-07T20:42:19.186919+05:30
Chennai,Tamil Nadu,13.0827,80.2707,29.3,84,0.0,1007.0,9.35,38.5,136,31.4,25.3,7,5,4,1,2026-04-07T20:42:19.186928+05:30
Kolkata,West Bengal,22.5726,88.3639,25.4,83,0.0,1008.1,8.65,20.9,124,23.7,21.7,7,0,4,1,2026-04-07T20:42:19.186936+05:30
Pune,Maharashtra,18.5204,73.8567,25.6,62,0.0,950.2,8.55,41.0,101,46.8,24.7,7,5,7,1,2026-04-07T20:42:19.186947+05:30
Ahmedabad,Gujarat,23.0225,72.5714,27.5,69,0.0,1002.0,7.95,43.9,62,40.0,18.5,7,5,4,1,2026-04-07T20:42:19.186974+05:30
Jaipur,Rajasthan,26.9124,75.7873,21.5,74,0.0,958.2,5.7,42.8,170,243.1,44.5,3,5,3,1,2026-04-07T20:42:19.186985+05:30
Lucknow,Uttar Pradesh,26.8467,80.9462,24.6,59,0.0,994.6,7.45,43.9,119,71.9,35.0,0,5,7,0,2026-04-07T20:42:19.186993+05:30
Kanpur,Uttar Pradesh,26.4499,80.3319,21.3,75,0.0,992.8,7.45,55.1,126,71.7,24.7,3,5,7,1,2026-04-07T20:42:19.187003+05:30
Chandigarh,Chandigarh,30.7333,76.7794,20.2,84,0.0,968.1,4.55,48.6,102,50.9,23.6,3,5,3,1,2026-04-07T20:42:19.187010+05:30
Srinagar,Jammu and Kashmir,34.0837,74.7973,12.0,66,0.0,835.2,7.1,36.4,75,21.7,18.0,3,5,7,0,2026-04-07T20:42:19.187017+05:30
Jammu,Jammu and Kashmir,32.7266,74.857,18.7,86,0.3,971.9,5.5,41.8,67,37.1,20.4,6,10,3,1,2026-04-07T20:42:19.187024+05:30
Amritsar,Punjab,31.634,74.8723,18.0,89,0.0,980.1,3.0,46.4,107,167.6,47.0,3,10,3,1,2026-04-07T20:42:19.187031+05:30
Ludhiana,Punjab,30.901,75.8573,19.8,89,0.2,978.0,3.55,52.2,139,182.5,48.3,6,10,3,1,2026-04-07T20:42:19.187038+05:30
Jalandhar,Punjab,31.326,75.5762,18.8,93,0.7,979.3,4.25,47.2,126,154.6,44.9,6,10,3,1,2026-04-07T20:42:19.187046+05:30
Dehradun,Uttarakhand,30.6284,78.0322,12.3,76,0.0,827.9,6.35,36.4,89,33.2,12.9,3,5,7,0,2026-04-07T20:42:19.187053+05:30
Shimla,Himachal Pradesh,31.1048,77.1734,12.0,57,0.0,781.1,6.35,46.4,85,26.7,11.7,0,5,7,0,2026-04-07T20:42:19.187060+05:30
Manali,Himachal Pradesh,32.2396,77.1887,10.8,95,0.1,815.3,8.95,29.2,138,12.1,9.0,6,10,7,0,2026-04-07T20:42:19.187066+05:30
Gurgaon,Haryana,28.4595,77.0266,22.4,76,0.0,981.0,3.75,39.2,896,411.6,87.1,3,5,3,1,2026-04-07T20:42:19.187073+05:30
Noida,Uttar Pradesh,28.5355,77.391,22.3,81,0.0,984.1,4.95,40.0,896,411.6,87.1,3,5,3,1,2026-04-07T20:42:19.187079+05:30
Ghaziabad,Uttar Pradesh,28.6692,77.4538,21.6,82,0.0,982.5,5.3,37.1,167,135.5,41.9,3,5,3,1,2026-04-07T20:42:19.187086+05:30
Faridabad,Haryana,28.4089,77.3178,22.2,77,0.0,983.3,5.4,37.4,896,411.6,87.1,3,5,3,1,2026-04-07T20:42:19.187092+05:30
Meerut,Uttar Pradesh,28.9845,77.7064,20.6,86,0.0,981.3,5.65,37.1,167,135.5,41.9,3,5,3,1,2026-04-07T20:42:19.187098+05:30
Agra,Uttar Pradesh,27.1767,78.0081,23.3,71,0.0,987.3,5.6,37.1,411,709.7,85.0,3,5,3,1,2026-04-07T20:42:19.187104+05:30
Varanasi,Uttar Pradesh,25.3176,82.9739,27.8,42,0.0,997.7,8.05,55.8,120,101.3,43.8,4,5,7,0,2026-04-07T20:42:19.187113+05:30
Prayagraj,Uttar Pradesh,25.4358,81.8463,21.7,87,0.8,999.2,7.95,69.5,130,88.2,37.4,6,5,7,1,2026-04-07T20:42:19.187120+05:30
Gorakhpur,Uttar Pradesh,26.7606,83.3732,26.7,37,0.0,997.1,7.85,27.0,118,68.5,30.5,4,5,7,0,2026-04-07T20:42:19.187127+05:30
Bareilly,Uttar Pradesh,28.367,79.4304,23.5,70,0.0,986.8,7.05,37.1,98,53.7,28.6,3,5,7,1,2026-04-07T20:42:19.187133+05:30
Aligarh,Uttar Pradesh,27.8974,78.088,21.2,79,0.0,985.3,6.0,32.4,287,138.3,40.0,3,5,3,1,2026-04-07T20:42:19.187140+05:30
Moradabad,Uttar Pradesh,28.8386,78.7733,22.6,74,0.0,983.6,6.95,30.2,93,65.0,26.5,3,5,7,1,2026-04-07T20:42:19.187149+05:30
Saharanpur,Uttar Pradesh,29.9637,77.546,20.2,81,0.0,975.6,4.3,35.3,104,92.4,40.5,3,5,3,1,2026-04-07T20:42:19.187154+05:30
Jhansi,Uttar Pradesh,25.4484,78.5685,23.2,60,0.0,977.6,7.75,47.2,110,54.4,26.0,0,5,7,0,2026-04-07T20:42:22.527563+05:30
Surat,Gujarat,21.1702,72.8311,27.7,77,0.0,1008.0,7.7,45.0,68,34.1,19.5,7,0,4,1,2026-04-07T20:42:22.527592+05:30
Vadodara,Gujarat,22.3072,73.1812,28.0,76,0.0,1004.8,7.95,46.4,62,51.7,24.8,7,5,4,1,2026-04-07T20:42:22.527602+05:30
Rajkot,Gujarat,22.3039,70.8022,27.3,70,0.0,995.1,7.7,46.8,55,30.5,14.6,7,5,7,1,2026-04-07T20:42:22.527610+05:30
Thane,Maharashtra,19.2183,72.9781,27.8,73,0.0,1010.1,7.95,33.8,81,63.3,19.4,7,0,4,1,2026-04-07T20:42:22.527617+05:30
Nagpur,Maharashtra,21.1458,79.0882,27.3,48,0.0,972.1,8.7,22.3,119,30.6,25.5,4,5,7,0,2026-04-07T20:42:22.527625+05:30
Nashik,Maharashtra,19.9975,73.7898,23.6,77,0.0,947.3,8.2,40.7,59,42.5,15.4,3,5,7,1,2026-04-07T20:42:22.527631+05:30
Aurangabad,Maharashtra,19.8762,75.3433,28.5,35,0.0,944.7,8.85,36.7,60,56.3,23.1,4,5,7,0,2026-04-07T20:42:22.527638+05:30
Solapur,Maharashtra,17.6599,75.9064,31.7,32,0.0,956.9,9.0,30.2,94,39.8,21.9,0,5,7,0,2026-04-07T20:42:22.527645+05:30
Kolhapur,Maharashtra,16.705,74.2433,23.7,69,0.0,949.2,9.0,45.7,76,19.3,14.1,3,5,7,1,2026-04-07T20:42:22.527652+05:30
Goa,Goa,15.2993,74.124,27.9,68,0.0,1000.3,9.0,33.1,55,24.2,13.8,7,5,4,1,2026-04-07T20:42:22.527659+05:30
Jodhpur,Rajasthan,26.2389,73.0243,22.7,77,0.0,980.5,7.9,47.2,119,328.8,67.1,3,5,7,1,2026-04-07T20:42:22.527665+05:30
Udaipur,Rajasthan,24.5854,73.7125,23.4,75,0.0,945.0,8.5,55.1,55,60.5,26.7,3,5,7,1,2026-04-07T20:42:22.527672+05:30
Kota,Rajasthan,25.2138,75.8648,26.1,60,0.0,977.2,7.9,42.8,68,30.9,17.9,4,5,7,1,2026-04-07T20:42:22.527679+05:30
Bikaner,Rajasthan,28.0229,73.3119,24.2,63,0.0,979.7,6.6,36.4,92,62.6,19.5,3,5,7,1,2026-04-07T20:42:22.527685+05:30
Ajmer,Rajasthan,26.4499,74.6399,20.6,83,0.0,952.0,7.8,52.6,58,98.7,24.7,3,5,7,1,2026-04-07T20:42:22.527691+05:30
Gwalior,Madhya Pradesh,26.2183,78.1828,25.2,60,0.0,982.5,7.25,37.8,101,71.2,29.2,4,5,7,1,2026-04-07T20:42:22.527697+05:30
Indore,Madhya Pradesh,22.7196,75.8577,27.1,43,0.0,947.7,8.4,42.8,67,58.2,25.9,4,5,7,0,2026-04-07T20:42:22.527704+05:30
Bhopal,Madhya Pradesh,23.2599,77.4126,27.6,33,0.0,952.7,8.35,45.7,64,58.1,26.3,4,5,7,0,2026-04-07T20:42:22.527711+05:30
Jabalpur,Madhya Pradesh,23.1815,79.9864,30.3,28,0.0,960.2,8.5,38.2,114,24.8,22.1,0,5,7,0,2026-04-07T20:42:22.527717+05:30
Ujjain,Madhya Pradesh,23.1765,75.7885,27.2,44,0.0,953.2,8.3,45.7,64,51.0,23.9,4,5,7,0,2026-04-07T20:42:22.527724+05:30
Visakhapatnam,Andhra Pradesh,17.6868,83.2185,27.9,86,0.0,1004.5,9.1,33.5,76,26.4,21.4,7,5,4,1,2026-04-07T20:42:22.527731+05:30
Vijayawada,Andhra Pradesh,16.5062,80.648,30.4,71,0.0,1001.8,9.15,31.7,131,49.6,46.9,3,5,4,1,2026-04-07T20:42:22.527738+05:30
Guntur,Andhra Pradesh,16.3067,80.4365,29.1,81,0.0,1003.3,9.2,31.7,121,49.4,47.1,7,5,4,1,2026-04-07T20:42:22.527744+05:30
Nellore,Andhra Pradesh,14.4426,79.9865,28.9,87,0.0,1005.5,9.3,37.4,164,37.5,33.5,7,5,4,1,2026-04-07T20:42:22.527751+05:30
Kurnool,Andhra Pradesh,15.8281,78.0373,32.8,27,0.0,976.0,9.2,25.2,158,39.0,32.2,0,5,7,0,2026-04-07T20:42:22.527759+05:30
Kakinada,Andhra Pradesh,16.9891,82.2475,28.3,84,0.0,1007.7,9.1,27.0,60,29.0,22.4,7,5,4,1,2026-04-07T20:42:22.527767+05:30
Tirupati,Andhra Pradesh,13.6288,79.4192,30.2,74,0.0,991.5,9.4,29.5,131,42.4,40.7,3,5,7,1,2026-04-07T20:42:22.527773+05:30
Warangal,Telangana,17.9689,79.5941,32.3,44,0.0,977.7,9.05,33.5,127,51.3,46.4,0,5,7,1,2026-04-07T20:42:22.527780+05:30
Nizamabad,Telangana,18.6725,78.0941,29.3,40,0.0,964.5,8.95,28.4,105,38.3,27.3,4,5,7,0,2026-04-07T20:42:22.527786+05:30
Mysore,Karnataka,12.2958,76.6396,26.3,65,0.0,929.5,9.55,37.1,64,14.2,12.4,7,5,7,1,2026-04-07T20:42:22.527792+05:30
Mangalore,Karnataka,12.9141,74.856,29.0,70,0.0,1008.8,9.15,31.0,58,21.6,12.4,7,0,4,1,2026-04-07T20:42:22.527798+05:30
Hubli-Dharwad,Karnataka,15.3647,75.124,24.0,73,0.0,942.1,9.2,41.4,103,11.8,9.4,3,5,7,1,2026-04-07T20:42:22.527805+05:30
Siliguri,West Bengal,26.7271,88.3953,21.9,53,0.0,995.4,8.1,32.8,94,37.5,31.3,0,5,7,0,2026-04-07T20:43:05.815440+05:30
Durgapur,West Bengal,23.5204,87.3119,24.3,79,0.0,996.8,8.45,29.5,150,44.7,42.7,3,5,7,1,2026-04-07T20:43:05.815470+05:30
Asansol,West Bengal,23.6739,86.9524,24.7,74,0.0,995.1,8.65,36.4,136,42.0,40.4,3,5,7,1,2026-04-07T20:43:05.815479+05:30
Pondicherry,Puducherry,11.9139,79.8145,29.1,86,0.0,1008.0,8.9,31.3,117,28.8,22.2,7,0,4,1,2026-04-07T20:43:05.815487+05:30
Port Blair,Andaman and Nicobar Islands,11.6234,92.7265,29.2,70,0.0,1008.9,9.25,13.0,29,4.2,2.9,7,0,4,1,2026-04-07T20:43:05.815494+05:30
Haridwar,Uttarakhand,29.9457,78.1642,21.4,72,0.0,974.3,5.3,41.4,111,46.1,24.4,3,5,3,1,2026-04-07T20:43:05.815501+05:30
Rishikesh,Uttarakhand,30.0869,78.2676,20.5,71,0.0,967.0,6.4,28.4,113,35.4,18.1,3,5,7,0,2026-04-07T20:43:05.815508+05:30
Nainital,Uttarakhand,29.3919,79.4542,16.8,59,0.0,805.0,5.85,40.0,112,34.1,18.8,0,5,3,0,2026-04-07T20:43:05.815515+05:30
Mussoorie,Uttarakhand,30.4599,78.0664,12.9,74,0.0,800.1,5.2,42.1,94,31.9,16.5,3,5,3,0,2026-04-07T20:43:05.815521+05:30
Dharamshala,Himachal Pradesh,32.219,76.3234,15.2,81,0.1,865.4,6.4,37.4,87,16.6,11.1,6,10,7,0,2026-04-07T20:43:05.815529+05:30
Dalhousie,Himachal Pradesh,32.5387,75.971,11.5,86,0.1,799.2,5.3,33.1,80,36.3,21.7,6,10,3,0,2026-04-07T20:43:05.815538+05:30
Patiala,Punjab,30.3398,76.3869,20.3,84,0.0,978.0,5.8,47.5,237,179.3,46.4,3,5,3,1,2026-04-07T20:43:05.815546+05:30
Bhatinda,Punjab,30.211,74.9455,18.6,91,0.0,982.8,4.2,52.2,108,73.6,22.4,3,10,3,1,2026-04-07T20:43:05.815552+05:30
Rohtak,Haryana,28.8955,76.6066,19.4,87,0.0,982.0,5.15,41.0,457,218.4,58.4,3,10,3,1,2026-04-07T20:43:05.815559+05:30
Panipat,Haryana,29.3909,76.9635,20.0,87,0.0,980.5,4.7,49.7,627,220.7,56.1,3,5,3,1,2026-04-07T20:43:05.815566+05:30
Mathura,Uttar Pradesh,27.4924,77.6737,22.9,68,0.0,987.1,6.2,34.9,482,274.7,55.4,3,5,7,1,2026-04-07T20:43:05.815572+05:30
Vrindavan,Uttar Pradesh,27.5823,77.7027,22.7,69,0.0,987.2,5.8,38.2,482,274.7,55.4,3,5,3,1,2026-04-07T20:43:05.815578+05:30
Ayodhya,Uttar Pradesh,26.7922,82.1998,26.6,42,0.0,995.6,7.6,52.9,108,69.4,27.9,4,5,7,0,2026-04-07T20:43:05.815585+05:30
Ratlam,Madhya Pradesh,23.3315,75.0367,26.0,64,0.0,954.3,8.25,50.4,60,51.1,22.9,7,5,7,1,2026-04-07T20:43:05.815591+05:30
Sagar,Madhya Pradesh,23.8388,78.7378,27.8,33,0.0,948.9,8.35,37.4,88,39.6,18.2,4,5,7,0,2026-04-07T20:43:05.815598+05:30
Satna,Madhya Pradesh,24.6005,80.8322,27.1,40,0.0,971.7,8.3,32.4,123,27.6,17.5,4,5,7,0,2026-04-07T20:43:05.815605+05:30
Akola,Maharashtra,20.7002,77.0082,30.2,33,0.0,975.2,8.65,36.0,86,52.0,23.1,0,5,7,0,2026-04-07T20:43:05.815611+05:30
Amravati,Maharashtra,20.9374,77.7796,29.6,37,0.0,967.0,8.7,33.5,92,39.3,19.7,4,5,7,0,2026-04-07T20:43:05.815617+05:30
Latur,Maharashtra,18.4088,76.5604,27.1,35,0.0,940.0,8.95,27.0,70,37.0,20.5,4,5,7,0,2026-04-07T20:43:05.815624+05:30
Nanded,Maharashtra,19.1383,77.3091,29.2,42,0.0,968.6,8.85,25.2,84,40.4,22.9,4,5,7,0,2026-04-07T20:43:05.815630+05:30
Gulbarga,Karnataka,17.3297,76.8343,32.4,26,0.0,958.5,9.05,29.2,119,26.7,18.2,0,5,7,0,2026-04-07T20:43:05.815637+05:30
Bidar,Karnataka,17.9104,77.5199,30.4,32,0.0,935.7,9.0,30.2,129,28.4,19.6,0,5,7,0,2026-04-07T20:43:05.815643+05:30
Hospet,Karnataka,15.2689,76.3909,31.9,31,0.0,955.9,9.25,31.7,92,34.2,27.9,0,5,7,0,2026-04-07T20:43:05.815650+05:30
Tirupur,Tamil Nadu,11.1085,77.3411,28.7,57,0.0,975.5,9.5,45.4,85,25.0,21.6,4,5,7,1,2026-04-07T20:43:05.815656+05:30
Alappuzha,Kerala,9.4981,76.3388,29.5,71,0.0,1010.6,8.7,41.8,66,29.0,17.8,7,0,4,1,2026-04-07T20:43:05.815662+05:30
Munnar,Kerala,10.0889,77.0595,21.3,90,0.0,858.5,9.0,40.3,63,22.9,19.6,3,5,7,1,2026-04-07T20:43:05.815669+05:30
Silchar,Assam,24.8333,92.7789,24.5,79,0.0,1007.7,8.3,26.3,152,44.0,40.2,3,5,4,1,2026-04-07T20:43:05.815675+05:30
Dibrugarh,Assam,27.4728,94.912,21.3,86,0.0,999.4,7.4,31.0,85,45.3,39.7,3,5,7,1,2026-04-07T20:43:05.815681+05:30
