city,state,latitude,longitude,temp,humidity,rain,pressure,uv_index,wind_gusts,aqi,pm10,pm2_5,no2,co,o3,so2,mosquito_risk,arthritis_risk,migraine_risk,frizz_risk,updated_at
Delhi,Delhi,28.6139,77.209,35.5,38,0.0,977.9,7.8,42.5,541,776.7,140.2,21.8,316.0,93.0,13.1,0,5,10,1,2026-06-20T19:53:51.043842+05:30
Mumbai,Maharashtra,19.076,72.8777,30.6,64,0.0,1007.7,7.75,41.0,52,19.6,11.1,7.6,164.0,45.0,5.2,3,5,4,1,2026-06-20T19:53:51.043882+05:30
Bangalore,Karnataka,12.9716,77.5946,24.0,86,0.0,912.1,8.0,30.2,63,58.3,49.5,70.4,1292.0,11.0,16.5,3,5,7,1,2026-06-20T19:53:51.043898+05:30
Hyderabad,Telangana,17.385,78.4867,30.0,53,0.1,952.8,8.4,39.6,84,34.0,28.1,21.4,387.0,82.0,8.3,7,5,7,1,2026-06-20T19:53:51.043927+05:30
Chennai,Tamil Nadu,13.0827,80.2707,30.5,78,0.0,1006.6,7.85,29.2,153,39.7,32.8,17.8,328.0,133.0,13.6,3,5,4,1,2026-06-20T19:53:51.043937+05:30
Kolkata,West Bengal,22.5726,88.3639,29.6,84,0.0,1002.9,8.45,28.8,161,44.2,41.8,10.5,533.0,115.0,10.1,7,5,4,1,2026-06-20T19:53:51.043945+05:30
Pune,Maharashtra,18.5204,73.8567,27.7,64,0.0,947.9,7.55,46.4,44,14.2,8.9,4.8,138.0,65.0,4.0,7,5,7,1,2026-06-20T19:53:51.043951+05:30
Ahmedabad,Gujarat,23.0225,72.5714,33.8,50,0.0,999.1,8.05,36.7,73,50.6,22.4,10.9,177.0,64.0,4.5,0,5,7,1,2026-06-20T19:53:51.043958+05:30
Jaipur,Rajasthan,26.9124,75.7873,30.7,58,0.0,956.9,8.2,40.0,138,88.9,40.0,14.2,250.0,61.0,5.1,0,5,7,1,2026-06-20T19:53:51.043964+05:30
Lucknow,Uttar Pradesh,26.8467,80.9462,36.2,37,0.0,988.0,8.35,41.4,186,355.8,86.6,6.6,210.0,133.0,8.9,0,5,10,1,2026-06-20T19:53:51.043975+05:30
Kanpur,Uttar Pradesh,26.4499,80.3319,36.8,35,0.0,986.8,8.3,41.8,262,622.1,110.8,6.6,207.0,129.0,9.0,0,5,10,1,2026-06-20T19:53:51.043982+05:30
Chandigarh,Chandigarh,30.7333,76.7794,31.4,48,0.0,963.7,7.8,35.3,149,33.9,29.3,15.1,489.0,125.0,8.0,0,5,7,1,2026-06-20T19:53:51.043989+05:30
Srinagar,Jammu and Kashmir,34.0837,74.7973,17.6,96,0.0,841.8,9.05,28.8,80,19.9,14.9,15.8,786.0,87.0,2.7,3,10,7,1,2026-06-20T19:53:51.043996+05:30
Jammu,Jammu and Kashmir,32.7266,74.857,33.6,31,0.0,967.8,8.6,33.5,116,41.0,29.5,24.2,366.0,112.0,4.9,0,5,7,0,2026-06-20T19:53:51.044003+05:30
Amritsar,Punjab,31.634,74.8723,31.2,53,0.0,975.5,8.45,24.1,158,51.0,39.9,21.1,476.0,114.0,9.7,0,5,7,1,2026-06-20T19:53:51.044009+05:30
Ludhiana,Punjab,30.901,75.8573,33.7,40,0.0,973.7,8.0,34.9,139,103.8,48.2,15.6,515.0,122.0,5.8,0,5,7,1,2026-06-20T19:53:51.044015+05:30
Jalandhar,Punjab,31.326,75.5762,33.0,43,0.0,974.7,8.25,32.8,151,66.4,42.1,18.5,764.0,119.0,6.2,0,5,7,1,2026-06-20T19:53:51.044021+05:30
Dehradun,Uttarakhand,30.6284,78.0322,19.7,77,0.0,828.4,8.25,26.6,125,36.3,29.9,15.7,288.0,120.0,3.2,3,5,7,0,2026-06-20T19:53:51.044027+05:30
Shimla,Himachal Pradesh,31.1048,77.1734,16.5,72,0.0,782.9,8.25,32.0,111,30.4,20.8,9.2,295.0,121.0,4.1,3,5,7,0,2026-06-20T19:53:51.044036+05:30
Manali,Himachal Pradesh,32.2396,77.1887,19.6,60,0.0,818.0,9.5,40.0,145,6.8,5.1,70.5,236.0,89.0,0.4,0,5,7,0,2026-06-20T19:53:51.044044+05:30
Gurgaon,Haryana,28.4595,77.0266,34.5,40,0.0,976.4,7.9,41.0,850,1285.2,204.9,27.5,465.0,81.0,11.5,0,5,7,1,2026-06-20T19:53:51.044050+05:30
Noida,Uttar Pradesh,28.5355,77.391,34.8,40,0.0,979.1,7.85,36.4,850,1285.2,204.9,27.5,503.0,81.0,11.5,0,5,7,1,2026-06-20T19:53:51.044056+05:30
Ghaziabad,Uttar Pradesh,28.6692,77.4538,33.3,52,0.0,977.3,7.8,40.7,431,577.4,120.1,18.0,307.0,103.0,15.0,0,5,7,1,2026-06-20T19:53:51.044063+05:30
Faridabad,Haryana,28.4089,77.3178,36.0,35,0.0,978.6,7.85,42.1,850,1285.2,204.9,27.5,468.0,81.0,11.5,0,5,10,1,2026-06-20T19:53:51.044068+05:30
Meerut,Uttar Pradesh,28.9845,77.7064,32.8,56,0.0,976.3,7.75,43.6,431,577.4,120.1,18.0,256.0,103.0,15.0,0,5,7,1,2026-06-20T19:53:51.044075+05:30
Agra,Uttar Pradesh,27.1767,78.0081,35.2,39,0.0,983.3,8.15,38.9,621,491.7,94.3,21.1,169.0,70.0,7.7,0,5,10,1,2026-06-20T19:53:51.044080+05:30
Varanasi,Uttar Pradesh,25.3176,82.9739,35.7,44,0.0,992.5,8.8,37.8,111,101.5,47.8,13.1,317.0,92.0,8.6,0,5,10,1,2026-06-20T19:53:51.044087+05:30
Prayagraj,Uttar Pradesh,25.4358,81.8463,37.4,35,0.0,990.8,8.7,32.8,122,63.6,30.7,8.0,185.0,88.0,5.9,0,5,10,1,2026-06-20T19:53:51.044093+05:30
Gorakhpur,Uttar Pradesh,26.7606,83.3732,32.7,62,0.0,991.6,8.65,32.8,164,191.4,90.3,21.5,278.0,109.0,14.7,3,5,7,1,2026-06-20T19:53:51.044099+05:30
Bareilly,Uttar Pradesh,28.367,79.4304,33.5,50,0.0,981.2,8.15,33.8,161,115.5,51.0,9.5,297.0,131.0,9.4,0,5,7,1,2026-06-20T19:53:51.044110+05:30
Aligarh,Uttar Pradesh,27.8974,78.088,33.9,46,0.0,980.4,8.0,44.3,515,728.3,134.6,18.5,254.0,96.0,9.6,0,5,7,1,2026-06-20T19:53:51.044117+05:30
Moradabad,Uttar Pradesh,28.8386,78.7733,33.6,50,0.0,978.1,7.95,43.6,173,277.5,83.4,13.5,378.0,114.0,9.4,0,5,7,1,2026-06-20T19:53:51.044122+05:30
Saharanpur,Uttar Pradesh,29.9637,77.546,31.2,55,0.0,970.1,7.55,35.6,161,383.7,90.6,10.8,372.0,129.0,10.1,0,5,7,1,2026-06-20T19:53:51.044128+05:30
Jhansi,Uttar Pradesh,25.4484,78.5685,34.4,41,0.0,974.4,8.4,31.7,79,70.3,32.2,5.5,175.0,73.0,3.1,0,5,7,1,2026-06-20T19:53:54.383545+05:30
Surat,Gujarat,21.1702,72.8311,29.8,75,0.0,1005.2,7.6,42.8,63,21.1,14.7,16.1,241.0,34.0,29.2,7,5,4,1,2026-06-20T19:53:54.383579+05:30
Vadodara,Gujarat,22.3072,73.1812,32.4,54,0.0,1001.7,7.35,39.6,62,27.1,16.5,9.8,148.0,61.0,8.7,0,5,4,1,2026-06-20T19:53:54.383591+05:30
Rajkot,Gujarat,22.3039,70.8022,33.1,47,0.0,991.8,7.55,41.0,64,52.3,20.1,2.9,108.0,64.0,3.1,0,5,7,1,2026-06-20T19:53:54.383602+05:30
Thane,Maharashtra,19.2183,72.9781,30.5,63,0.0,1007.1,7.7,39.2,52,19.6,11.1,7.6,162.0,45.0,5.2,3,5,4,1,2026-06-20T19:53:54.383611+05:30
Nagpur,Maharashtra,21.1458,79.0882,36.4,27,0.0,971.1,8.9,42.8,78,24.3,17.4,11.5,171.0,86.0,12.5,0,5,10,0,2026-06-20T19:53:54.383620+05:30
Nashik,Maharashtra,19.9975,73.7898,27.9,64,0.0,945.0,8.05,43.2,39,14.6,8.6,2.7,116.0,56.0,1.2,7,5,7,1,2026-06-20T19:53:54.383628+05:30
Aurangabad,Maharashtra,19.8762,75.3433,32.9,36,0.0,943.0,9.0,35.3,47,15.4,10.8,3.8,143.0,99.0,4.0,0,5,7,0,2026-06-20T19:53:54.383635+05:30
Solapur,Maharashtra,17.6599,75.9064,30.9,53,0.1,955.9,8.4,36.0,59,21.3,14.0,4.7,212.0,100.0,2.5,3,5,7,1,2026-06-20T19:53:54.383644+05:30
Kolhapur,Maharashtra,16.705,74.2433,26.5,68,0.0,948.2,8.45,40.7,47,13.6,9.3,3.8,149.0,61.0,1.7,7,5,7,1,2026-06-20T19:53:54.383651+05:30
Goa,Goa,15.2993,74.124,28.1,80,0.0,998.4,8.05,27.0,59,20.7,11.9,2.2,240.0,48.0,1.2,7,5,7,1,2026-06-20T19:53:54.383658+05:30
Jodhpur,Rajasthan,26.2389,73.0243,34.9,39,0.0,979.1,8.4,38.9,109,160.7,41.0,5.0,134.0,66.0,1.9,0,5,7,1,2026-06-20T19:53:54.383666+05:30
Udaipur,Rajasthan,24.5854,73.7125,29.7,55,0.0,944.3,8.8,36.4,77,44.9,21.0,3.6,145.0,75.0,2.8,4,5,7,1,2026-06-20T19:53:54.383673+05:30
Kota,Rajasthan,25.2138,75.8648,28.6,80,0.0,976.3,8.35,37.4,91,76.8,35.5,9.0,286.0,72.0,5.2,7,5,7,1,2026-06-20T19:53:54.383679+05:30
Bikaner,Rajasthan,28.0229,73.3119,33.4,52,0.0,977.6,8.45,31.3,112,121.5,39.9,3.8,188.0,67.0,1.7,0,5,7,1,2026-06-20T19:53:54.383686+05:30
Ajmer,Rajasthan,26.4499,74.6399,30.4,52,0.0,951.9,8.35,45.0,83,55.8,26.5,6.0,155.0,71.0,2.8,0,5,7,1,2026-06-20T19:53:54.383692+05:30
Gwalior,Madhya Pradesh,26.2183,78.1828,34.4,42,0.0,979.6,7.7,36.4,88,96.9,40.4,6.2,147.0,77.0,3.1,0,5,7,1,2026-06-20T19:53:54.383700+05:30
Indore,Madhya Pradesh,22.7196,75.8577,31.0,50,0.0,946.8,7.9,39.6,72,36.2,27.8,14.3,364.0,62.0,4.2,0,5,7,1,2026-06-20T19:53:54.383706+05:30
Bhopal,Madhya Pradesh,23.2599,77.4126,28.4,74,0.0,951.8,8.65,38.5,72,30.2,21.7,8.5,303.0,71.0,3.6,7,5,7,1,2026-06-20T19:53:54.383712+05:30
Jabalpur,Madhya Pradesh,23.1815,79.9864,32.6,46,0.0,959.1,8.35,32.8,73,42.5,26.4,6.6,186.0,87.0,4.1,0,5,7,1,2026-06-20T19:53:54.383719+05:30
Ujjain,Madhya Pradesh,23.1765,75.7885,29.7,61,0.0,952.1,8.55,41.8,73,45.6,27.0,7.1,446.0,74.0,3.8,7,5,7,1,2026-06-20T19:53:54.383726+05:30
Visakhapatnam,Andhra Pradesh,17.6868,83.2185,27.8,99,0.0,1002.3,8.65,36.4,157,65.2,58.9,36.7,330.0,124.0,75.9,7,5,4,1,2026-06-20T19:53:54.383733+05:30
Vijayawada,Andhra Pradesh,16.5062,80.648,32.4,64,0.0,1000.6,8.55,30.6,84,50.3,44.8,20.7,390.0,81.0,7.9,3,5,4,1,2026-06-20T19:53:54.383740+05:30
Guntur,Andhra Pradesh,16.3067,80.4365,32.2,63,0.0,1001.9,8.0,31.3,82,51.0,45.1,21.0,236.0,77.0,7.1,3,5,4,1,2026-06-20T19:53:54.383747+05:30
Nellore,Andhra Pradesh,14.4426,79.9865,31.2,64,0.0,1004.7,7.7,30.6,75,32.2,25.1,7.6,237.0,112.0,6.9,3,5,4,1,2026-06-20T19:53:54.383754+05:30
Kurnool,Andhra Pradesh,15.8281,78.0373,31.4,53,0.0,975.9,5.35,31.7,67,34.2,26.3,17.6,345.0,91.0,11.6,0,5,3,1,2026-06-20T19:53:54.383762+05:30
Kakinada,Andhra Pradesh,16.9891,82.2475,31.2,69,0.0,1005.6,7.1,37.1,125,28.0,22.2,5.4,307.0,123.0,5.3,3,5,4,1,2026-06-20T19:53:54.383769+05:30
Tirupati,Andhra Pradesh,13.6288,79.4192,29.1,69,0.0,991.0,7.95,21.6,66,22.1,19.0,14.8,263.0,77.0,3.3,7,5,7,1,2026-06-20T19:53:54.383776+05:30
Warangal,Telangana,17.9689,79.5941,34.9,39,0.0,977.1,6.6,38.2,121,44.4,37.0,20.1,240.0,81.0,8.4,0,5,7,1,2026-06-20T19:53:54.383782+05:30
Nizamabad,Telangana,18.6725,78.0941,30.8,54,0.0,963.7,8.95,33.8,74,22.5,16.2,5.7,468.0,90.0,3.3,0,5,7,1,2026-06-20T19:53:54.383789+05:30
Mysore,Karnataka,12.2958,76.6396,24.8,76,0.0,928.9,8.25,35.6,58,29.6,18.5,18.6,192.0,51.0,3.0,3,5,7,1,2026-06-20T19:53:54.383795+05:30
Mangalore,Karnataka,12.9141,74.856,27.8,83,0.0,1007.3,7.8,31.3,76,7.9,5.5,4.4,234.0,43.0,1.5,7,5,4,1,2026-06-20T19:53:54.383802+05:30
Hubli-Dharwad,Karnataka,15.3647,75.124,25.8,74,0.0,941.3,8.15,41.8,44,20.3,10.6,4.1,131.0,54.0,1.2,7,5,7,1,2026-06-20T19:53:54.383809+05:30
Belgaum,Karnataka,15.8497,74.4977,24.2,77,0.0,926.1,8.9,34.9,50,19.0,10.2,3.8,129.0,56.0,2.1,3,5,7,1,2026-06-20T19:53:57.723615+05:30
Coimbatore,Tamil Nadu,11.0168,76.9558,26.9,72,0.0,962.5,8.25,40.7,58,26.1,16.8,8.3,202.0,66.0,3.2,7,5,7,1,2026-06-20T19:53:57.723650+05:30
Madurai,Tamil Nadu,9.9252,78.1198,31.0,57,0.0,993.5,8.65,29.5,64,26.1,18.9,13.9,321.0,83.0,4.6,0,5,7,1,2026-06-20T19:53:57.723663+05:30
Trichy,Tamil Nadu,10.7905,78.7047,29.4,81,0.0,1000.2,8.4,33.5,65,24.7,18.0,10.0,313.0,87.0,3.8,7,5,4,1,2026-06-20T19:53:57.723674+05:30
Salem,Tamil Nadu,11.6643,78.146,28.0,79,0.0,977.6,8.2,19.8,88,36.7,26.4,18.0,604.0,98.0,10.0,7,5,7,1,2026-06-20T19:53:57.723684+05:30
Tirunelveli,Tamil Nadu,8.7139,77.7567,31.7,50,0.0,1003.6,8.6,24.1,62,19.1,12.8,5.5,195.0,63.0,1.8,0,5,4,1,2026-06-20T19:53:57.723693+05:30
Vellore,Tamil Nadu,12.9165,79.1325,27.5,77,0.0,984.7,7.8,32.0,71,22.1,20.0,12.9,266.0,83.0,3.3,7,5,7,1,2026-06-20T19:53:57.723703+05:30
Erode,Tamil Nadu,11.341,77.7172,29.6,69,0.0,989.5,8.25,24.5,67,31.5,21.0,13.3,562.0,80.0,3.5,7,5,7,1,2026-06-20T19:53:57.723711+05:30
Kochi,Kerala,9.9312,76.2673,27.7,87,0.0,1010.0,8.5,25.6,107,19.3,15.4,22.0,156.0,34.0,5.9,7,0,4,1,2026-06-20T19:53:57.723721+05:30
Thiruvananthapuram,Kerala,8.5241,76.9366,27.2,85,0.0,1009.9,8.25,34.2,58,11.1,6.7,2.8,260.0,56.0,1.0,7,0,4,1,2026-06-20T19:53:57.723730+05:30
Kozhikode,Kerala,11.2588,75.7804,26.6,93,0.0,1009.0,8.0,28.8,54,7.7,4.8,1.3,336.0,53.0,0.8,7,0,4,1,2026-06-20T19:53:57.723739+05:30
Thrissur,Kerala,10.5276,76.2144,27.0,88,0.0,1008.4,8.4,23.8,115,19.7,14.7,13.5,422.0,42.0,3.9,7,0,4,1,2026-06-20T19:53:57.723748+05:30
Kannur,Kerala,11.8745,75.3704,26.4,95,0.0,1008.3,7.8,34.2,73,11.5,8.0,6.6,212.0,43.0,1.6,7,0,4,1,2026-06-20T19:53:57.723757+05:30
Patna,Bihar,25.5941,85.1376,34.0,64,0.0,995.4,8.85,25.6,156,121.5,79.2,33.5,366.0,88.0,16.2,3,5,7,1,2026-06-20T19:53:57.723765+05:30
Gaya,Bihar,24.7914,85.0002,33.7,54,0.0,989.2,8.8,29.5,101,111.5,59.8,12.7,386.0,97.0,8.3,0,5,7,1,2026-06-20T19:53:57.723774+05:30
Muzaffarpur,Bihar,26.1209,85.3647,31.4,79,0.0,995.4,8.85,29.9,178,120.1,89.6,23.4,681.0,122.0,17.1,3,5,7,1,2026-06-20T19:53:57.723780+05:30
Bhagalpur,Bihar,25.2425,87.0117,31.6,74,0.0,996.6,8.8,24.8,156,110.4,65.4,19.2,297.0,112.0,12.4,3,5,7,1,2026-06-20T19:53:57.723787+05:30
Ranchi,Jharkhand,23.3441,85.3096,26.5,80,0.0,935.8,9.2,29.5,104,31.8,26.2,8.3,245.0,93.0,2.5,7,5,7,1,2026-06-20T19:53:57.723794+05:30
Jamshedpur,Jharkhand,22.8046,86.2029,31.7,70,0.0,987.6,8.6,32.8,156,64.3,49.2,13.9,362.0,116.0,16.4,3,5,7,1,2026-06-20T19:53:57.723800+05:30
Dhanbad,Jharkhand,23.7957,86.4304,30.4,75,0.0,976.8,8.9,27.4,164,76.6,62.6,34.8,757.0,102.0,84.1,3,5,7,1,2026-06-20T19:53:57.723807+05:30
Bokaro,Jharkhand,23.6693,86.1511,30.4,76,0.0,980.5,9.05,21.2,152,61.0,46.9,21.9,203.0,103.0,55.5,3,5,7,1,2026-06-20T19:53:57.723814+05:30
Bhubaneswar,Odisha,20.2961,85.8245,29.3,88,0.0,1000.2,8.85,38.5,116,35.4,32.7,10.5,481.0,112.0,7.8,7,5,4,1,2026-06-20T19:53:57.723821+05:30
Cuttack,Odisha,20.4625,85.8828,29.5,84,0.0,1001.9,9.15,32.0,116,35.4,32.7,10.5,560.0,112.0,7.8,7,5,4,1,2026-06-20T19:53:57.723827+05:30
Rourkela,Odisha,22.2604,84.8536,29.4,77,0.0,982.4,8.8,29.9,135,49.1,36.2,12.7,765.0,120.0,9.8,7,5,7,1,2026-06-20T19:53:57.723834+05:30
Raipur,Chhattisgarh,21.2514,81.6296,35.0,33,0.0,971.8,8.65,32.0,104,34.5,29.3,27.2,223.0,84.0,42.1,0,5,7,1,2026-06-20T19:53:57.723841+05:30
Bhilai,Chhattisgarh,21.1938,81.3509,35.9,30,0.0,972.3,8.95,34.9,104,35.7,29.2,24.2,789.0,82.0,33.7,0,5,10,0,2026-06-20T19:53:57.723848+05:30
Guwahati,Assam,26.1158,91.7086,26.4,97,0.0,998.4,8.7,29.5,141,49.7,44.0,12.4,467.0,70.0,4.1,7,5,7,1,2026-06-20T19:53:57.723855+05:30
Agartala,Tripura,23.8315,91.2868,26.9,93,0.0,1004.4,8.65,34.2,84,20.0,18.9,11.4,210.0,64.0,2.5,7,5,4,1,2026-06-20T19:53:57.723862+05:30
Shillong,Meghalaya,25.5788,91.8933,19.5,92,0.0,856.0,6.25,29.9,76,30.6,26.4,8.2,231.0,92.0,2.7,3,10,7,1,2026-06-20T19:53:57.723868+05:30
Imphal,Manipur,24.817,93.9368,23.9,85,0.0,922.2,9.25,34.6,72,31.4,27.2,18.4,409.0,55.0,4.5,3,5,7,1,2026-06-20T19:53:57.723875+05:30
Aizawl,Mizoram,23.7271,92.7176,21.1,86,0.0,892.0,8.55,37.4,56,13.4,11.6,3.5,158.0,70.0,1.3,3,5,7,1,2026-06-20T19:53:57.723881+05:30
Kohima,Nagaland,25.6701,94.1077,20.0,94,0.0,854.5,9.0,27.7,54,16.2,11.8,9.4,354.0,63.0,2.1,3,5,7,1,2026-06-20T19:53:57.723888+05:30
Gangtok,Sikkim,27.3314,88.6138,18.8,96,0.3,836.0,8.0,30.2,102,14.4,13.3,9.1,399.0,119.0,5.5,6,10,7,1,2026-06-20T19:53:57.723895+05:30
Siliguri,West Bengal,26.7271,88.3953,25.4,98,0.0,989.5,8.65,19.8,154,53.8,46.4,13.9,580.0,107.0,8.2,7,5,7,1,2026-06-20T19:54:01.066298+05:30
Durgapur,West Bengal,23.5204,87.3119,28.2,88,0.0,991.6,8.9,38.5,199,103.6,88.7,27.1,641.0,125.0,48.9,7,5,7,1,2026-06-20T19:54:01.066331+05:30
Asansol,West Bengal,23.6739,86.9524,28.6,85,0.0,990.3,8.95,38.5,185,86.4,71.2,29.5,432.0,118.0,54.0,7,5,7,1,2026-06-20T19:54:01.066342+05:30
Pondicherry,Puducherry,11.9139,79.8145,29.0,83,0.0,1008.3,7.95,33.8,130,31.2,23.5,10.1,342.0,115.0,3.9,7,0,4,1,2026-06-20T19:54:01.066351+05:30
Port Blair,Andaman and Nicobar Islands,11.6234,92.7265,27.5,83,0.0,1009.4,8.75,33.8,39,40.5,17.9,0.4,107.0,48.0,0.5,7,0,4,1,2026-06-20T19:54:01.066359+05:30
Haridwar,Uttarakhand,29.9457,78.1642,30.7,62,0.0,968.4,7.65,31.0,158,184.4,56.7,8.7,318.0,136.0,10.3,3,5,7,1,2026-06-20T19:54:01.066367+05:30
Rishikesh,Uttarakhand,30.0869,78.2676,30.2,62,0.0,961.4,7.75,29.2,149,84.5,38.4,6.4,363.0,147.0,8.7,3,5,7,1,2026-06-20T19:54:01.066375+05:30
Nainital,Uttarakhand,29.3919,79.4542,18.0,84,0.0,803.7,6.75,29.5,138,64.3,35.4,7.3,335.0,127.0,6.5,3,10,7,0,2026-06-20T19:54:01.066382+05:30
Mussoorie,Uttarakhand,30.4599,78.0664,17.3,83,0.0,801.0,8.15,39.6,149,48.1,33.9,10.8,359.0,138.0,7.9,3,10,7,0,2026-06-20T19:54:01.066389+05:30
Dharamshala,Himachal Pradesh,32.219,76.3234,22.0,75,0.0,866.6,8.45,43.9,97,22.1,15.9,8.3,353.0,103.0,1.0,3,5,7,1,2026-06-20T19:54:01.066396+05:30
Dalhousie,Himachal Pradesh,32.5387,75.971,16.0,97,0.0,802.0,8.75,30.6,108,27.2,19.2,15.4,394.0,132.0,2.1,3,10,7,0,2026-06-20T19:54:01.066404+05:30
Patiala,Punjab,30.3398,76.3869,33.0,47,0.0,973.1,7.7,35.3,429,1024.5,166.2,10.4,379.0,121.0,6.5,0,5,7,1,2026-06-20T19:54:01.066411+05:30
Bhatinda,Punjab,30.211,74.9455,34.1,41,0.0,978.9,8.35,26.6,144,64.0,38.6,14.6,303.0,102.0,7.4,0,5,7,1,2026-06-20T19:54:01.066418+05:30
Rohtak,Haryana,28.8955,76.6066,32.8,49,0.0,976.5,7.8,33.5,554,879.2,150.4,25.4,315.0,78.0,7.5,0,5,7,1,2026-06-20T19:54:01.066424+05:30
Panipat,Haryana,29.3909,76.9635,32.6,51,0.0,975.2,7.65,34.2,1488,2779.1,386.5,14.7,279.0,102.0,8.7,0,5,7,1,2026-06-20T19:54:01.066431+05:30
Mathura,Uttar Pradesh,27.4924,77.6737,32.8,47,0.0,982.1,8.1,35.3,335,439.6,88.2,26.7,206.0,59.0,5.0,0,5,7,1,2026-06-20T19:54:01.066438+05:30
Vrindavan,Uttar Pradesh,27.5823,77.7027,32.7,47,0.0,982.4,8.05,36.0,335,439.6,88.2,26.7,220.0,59.0,5.0,0,5,7,1,2026-06-20T19:54:01.066444+05:30
Ayodhya,Uttar Pradesh,26.7922,82.1998,33.5,58,0.0,989.4,8.4,33.1,161,224.9,84.3,10.4,265.0,104.0,8.6,0,5,7,1,2026-06-20T19:54:01.066451+05:30
Ratlam,Madhya Pradesh,23.3315,75.0367,29.9,58,0.0,953.1,8.45,37.1,72,41.4,23.3,2.7,144.0,83.0,3.9,4,5,7,1,2026-06-20T19:54:01.066458+05:30
Sagar,Madhya Pradesh,23.8388,78.7378,29.9,55,0.0,948.2,8.75,44.6,73,37.7,23.4,3.8,158.0,88.0,2.3,4,5,7,1,2026-06-20T19:54:01.066465+05:30
Satna,Madhya Pradesh,24.6005,80.8322,34.7,40,0.0,967.8,8.8,33.1,64,54.5,25.7,5.6,177.0,89.0,3.0,0,5,7,1,2026-06-20T19:54:01.066472+05:30
Akola,Maharashtra,20.7002,77.0082,30.5,61,0.0,973.6,8.8,41.8,53,22.2,14.7,6.5,153.0,91.0,5.9,3,5,7,1,2026-06-20T19:54:01.066480+05:30
Amravati,Maharashtra,20.9374,77.7796,33.8,38,0.0,965.7,8.8,45.7,55,22.6,15.1,7.4,212.0,87.0,6.1,0,5,7,1,2026-06-20T19:54:01.066487+05:30
Latur,Maharashtra,18.4088,76.5604,33.0,38,0.0,938.8,8.95,34.6,57,25.7,17.9,9.4,222.0,86.0,3.2,0,5,7,1,2026-06-20T19:54:01.066494+05:30
Nanded,Maharashtra,19.1383,77.3091,32.8,47,0.0,967.1,8.9,33.1,64,22.6,16.1,9.3,175.0,87.0,2.9,0,5,7,1,2026-06-20T19:54:01.066501+05:30
Gulbarga,Karnataka,17.3297,76.8343,32.8,41,0.0,957.9,8.5,33.8,70,24.2,17.6,14.3,301.0,83.0,4.0,0,5,7,1,2026-06-20T19:54:01.066507+05:30
Bidar,Karnataka,17.9104,77.5199,30.6,51,0.0,934.9,8.5,33.1,73,23.1,20.3,14.9,243.0,78.0,3.0,0,5,7,1,2026-06-20T19:54:01.066513+05:30
Hospet,Karnataka,15.2689,76.3909,29.5,52,0.0,955.3,8.3,34.6,51,24.3,14.5,7.3,214.0,78.0,1.8,4,5,7,1,2026-06-20T19:54:01.066520+05:30
Tirupur,Tamil Nadu,11.1085,77.3411,27.6,71,0.0,975.7,8.3,38.9,68,32.6,22.1,14.3,188.0,74.0,4.5,7,5,7,1,2026-06-20T19:54:01.066526+05:30
Alappuzha,Kerala,9.4981,76.3388,28.0,85,0.0,1010.2,8.5,31.0,77,13.4,9.7,10.4,87.0,43.0,2.8,7,0,4,1,2026-06-20T19:54:01.066532+05:30
Munnar,Kerala,10.0889,77.0595,16.6,99,0.0,857.3,8.95,29.5,55,34.7,22.2,11.9,157.0,54.0,2.7,3,10,7,1,2026-06-20T19:54:01.066539+05:30
Silchar,Assam,24.8333,92.7789,25.7,98,0.1,1003.8,8.4,31.3,90,41.2,35.7,9.6,292.0,90.0,5.2,10,5,4,1,2026-06-20T19:54:01.066546+05:30
Dibrugarh,Assam,27.4728,94.912,26.0,97,0.0,992.9,8.45,27.7,83,48.7,37.3,10.2,288.0,82.0,3.0,7,5,7,1,2026-06-20T19:54:01.066553+05:30
