city,state,latitude,longitude,temp,humidity,rain,pressure,uv_index,wind_gusts,aqi,pm10,pm2_5,no2,co,o3,so2,mosquito_risk,arthritis_risk,migraine_risk,frizz_risk,updated_at
Delhi,Delhi,28.6139,77.209,34.5,38,0.0,977.4,7.6,46.4,391,491.7,78.9,6.7,457.0,211.0,19.8,0,5,7,1,2026-05-03T15:37:51.092665+05:30
Mumbai,Maharashtra,19.076,72.8777,32.3,62,0.0,1005.3,7.85,39.6,72,44.6,22.0,5.5,217.0,107.0,19.1,3,5,4,1,2026-05-03T15:37:51.092707+05:30
Bangalore,Karnataka,12.9716,77.5946,33.2,28,0.0,910.0,7.5,29.2,73,41.6,16.3,6.1,284.0,143.0,4.5,0,5,7,0,2026-05-03T15:37:51.092723+05:30
Hyderabad,Telangana,17.385,78.4867,38.7,16,0.0,949.3,9.25,33.8,80,44.6,15.5,0.9,233.0,135.0,4.6,0,5,10,0,2026-05-03T15:37:51.092734+05:30
Chennai,Tamil Nadu,13.0827,80.2707,35.9,48,0.0,1001.4,8.6,52.2,94,32.9,23.9,3.3,263.0,150.0,5.8,0,5,7,1,2026-05-03T15:37:51.092765+05:30
Kolkata,West Bengal,22.5726,88.3639,31.7,64,0.0,1001.7,8.95,41.8,74,22.6,18.8,5.5,410.0,137.0,8.7,3,5,4,1,2026-05-03T15:37:51.092775+05:30
Pune,Maharashtra,18.5204,73.8567,36.8,20,0.0,945.5,8.5,48.6,62,67.1,17.8,1.5,173.0,123.0,2.8,0,5,10,0,2026-05-03T15:37:51.092783+05:30
Ahmedabad,Gujarat,23.0225,72.5714,42.0,14,0.0,994.3,8.1,46.8,60,37.7,11.2,1.6,172.0,131.0,3.2,0,5,10,0,2026-05-03T15:37:51.092795+05:30
Jaipur,Rajasthan,26.9124,75.7873,39.0,16,0.0,953.6,8.15,42.5,112,210.9,32.9,0.4,162.0,137.0,3.6,0,5,10,0,2026-05-03T15:37:51.092802+05:30
Lucknow,Uttar Pradesh,26.8467,80.9462,35.6,38,0.0,988.3,8.1,54.4,158,73.6,36.6,2.8,326.0,195.0,10.4,0,5,10,1,2026-05-03T15:37:51.092811+05:30
Kanpur,Uttar Pradesh,26.4499,80.3319,37.8,27,0.0,985.9,8.1,84.2,167,156.9,38.3,2.3,305.0,189.0,9.7,0,5,10,0,2026-05-03T15:37:51.092819+05:30
Chandigarh,Chandigarh,30.7333,76.7794,33.1,33,0.0,963.3,7.6,62.3,168,109.9,28.2,2.0,309.0,175.0,7.7,0,5,7,0,2026-05-03T15:37:51.092827+05:30
Srinagar,Jammu and Kashmir,34.0837,74.7973,15.9,81,0.0,840.5,8.75,46.1,88,34.6,13.5,2.9,248.0,136.0,2.0,3,10,7,0,2026-05-03T15:37:51.092835+05:30
Jammu,Jammu and Kashmir,32.7266,74.857,34.1,21,0.0,968.2,8.15,29.2,100,41.2,15.1,1.0,341.0,158.0,3.0,0,5,7,0,2026-05-03T15:37:51.092845+05:30
Amritsar,Punjab,31.634,74.8723,34.3,25,0.0,975.4,8.2,50.4,126,126.2,29.5,1.5,275.0,157.0,5.9,0,5,7,0,2026-05-03T15:37:51.092852+05:30
Ludhiana,Punjab,30.901,75.8573,35.8,27,0.0,972.2,7.85,50.0,155,425.6,65.0,2.2,355.0,179.0,8.9,0,5,10,0,2026-05-03T15:37:51.092859+05:30
Jalandhar,Punjab,31.326,75.5762,35.5,26,0.0,973.9,8.05,53.3,147,202.1,42.3,2.1,351.0,174.0,8.6,0,5,10,0,2026-05-03T15:37:51.092866+05:30
Dehradun,Uttarakhand,30.6284,78.0322,23.1,41,0.0,828.9,7.75,43.2,121,72.9,25.1,1.3,222.0,159.0,5.4,0,5,7,0,2026-05-03T15:37:51.092875+05:30
Shimla,Himachal Pradesh,31.1048,77.1734,21.4,23,0.0,784.2,8.0,43.6,119,58.2,19.7,0.7,191.0,166.0,6.4,0,5,7,1,2026-05-03T15:37:51.092882+05:30
Manali,Himachal Pradesh,32.2396,77.1887,15.6,67,0.0,816.7,9.7,40.7,136,23.6,8.9,1.2,157.0,168.0,0.6,3,5,7,0,2026-05-03T15:37:51.092890+05:30
Gurgaon,Haryana,28.4595,77.0266,34.1,37,0.0,975.7,7.7,33.5,1090,933.2,107.3,5.8,397.0,172.0,11.2,0,5,7,1,2026-05-03T15:37:51.092897+05:30
Noida,Uttar Pradesh,28.5355,77.391,32.8,47,0.0,979.2,7.6,35.6,1090,933.2,107.3,5.8,405.0,172.0,11.2,0,5,7,1,2026-05-03T15:37:51.092904+05:30
Ghaziabad,Uttar Pradesh,28.6692,77.4538,32.0,50,0.0,977.7,7.6,41.4,243,453.6,68.0,3.5,307.0,187.0,8.5,0,5,7,1,2026-05-03T15:37:51.092911+05:30
Faridabad,Haryana,28.4089,77.3178,33.2,44,0.0,978.3,7.65,44.6,1090,933.2,107.3,5.8,388.0,172.0,11.2,0,5,7,1,2026-05-03T15:37:51.092918+05:30
Meerut,Uttar Pradesh,28.9845,77.7064,31.1,56,0.0,976.6,7.5,49.3,243,453.6,68.0,3.5,322.0,187.0,8.5,0,5,7,1,2026-05-03T15:37:51.092925+05:30
Agra,Uttar Pradesh,27.1767,78.0081,39.2,21,0.0,981.4,7.95,61.9,667,223.1,32.9,3.2,215.0,142.0,5.1,0,5,10,0,2026-05-03T15:37:51.092932+05:30
Varanasi,Uttar Pradesh,25.3176,82.9739,36.0,35,0.0,992.3,8.65,49.0,168,95.0,39.7,2.3,360.0,200.0,13.9,0,5,10,1,2026-05-03T15:37:51.092939+05:30
Prayagraj,Uttar Pradesh,25.4358,81.8463,37.0,30,0.0,990.4,8.5,65.2,172,80.3,35.3,2.7,303.0,201.0,10.8,0,5,10,1,2026-05-03T15:37:51.092949+05:30
Gorakhpur,Uttar Pradesh,26.7606,83.3732,32.5,45,0.0,993.5,7.95,37.8,139,143.4,40.5,1.9,315.0,181.0,4.5,0,5,7,1,2026-05-03T15:37:51.092956+05:30
Bareilly,Uttar Pradesh,28.367,79.4304,25.5,72,0.0,984.7,7.9,51.1,158,281.3,53.9,2.4,338.0,196.0,13.3,7,5,7,1,2026-05-03T15:37:51.092963+05:30
Aligarh,Uttar Pradesh,27.8974,78.088,28.0,58,0.0,981.1,7.75,50.8,589,590.5,76.6,2.5,277.0,177.0,12.8,4,5,7,1,2026-05-03T15:37:51.092971+05:30
Moradabad,Uttar Pradesh,28.8386,78.7733,27.6,64,0.0,980.1,7.75,46.8,163,141.6,43.2,3.9,316.0,197.0,15.0,7,5,7,1,2026-05-03T15:37:51.092978+05:30
Saharanpur,Uttar Pradesh,29.9637,77.546,31.2,50,0.0,971.7,7.05,46.8,155,221.2,51.2,3.0,329.0,182.0,13.3,0,5,7,1,2026-05-03T15:37:51.092984+05:30
Jhansi,Uttar Pradesh,25.4484,78.5685,39.2,20,0.0,971.7,8.4,37.1,80,82.0,20.7,1.3,153.0,131.0,8.3,0,5,10,0,2026-05-03T15:37:54.468603+05:30
Surat,Gujarat,21.1702,72.8311,33.7,55,0.0,1002.0,7.7,56.5,64,30.3,16.5,10.6,232.0,76.0,28.5,0,5,4,1,2026-05-03T15:37:54.468636+05:30
Vadodara,Gujarat,22.3072,73.1812,39.0,28,0.0,997.8,8.05,52.9,56,23.6,10.7,1.6,169.0,129.0,3.6,0,5,10,1,2026-05-03T15:37:54.468649+05:30
Rajkot,Gujarat,22.3039,70.8022,40.2,22,0.0,987.5,7.7,50.8,51,49.0,13.4,1.1,143.0,118.0,4.5,0,5,10,0,2026-05-03T15:37:54.468660+05:30
Thane,Maharashtra,19.2183,72.9781,35.3,44,0.0,1004.1,7.9,39.2,72,44.6,22.0,5.5,210.0,107.0,19.1,0,5,7,1,2026-05-03T15:37:54.468670+05:30
Nagpur,Maharashtra,21.1458,79.0882,40.5,13,0.0,967.8,8.9,39.2,116,61.2,19.6,3.9,152.0,154.0,17.6,0,5,10,0,2026-05-03T15:37:54.468680+05:30
Nashik,Maharashtra,19.9975,73.7898,36.0,20,0.0,942.7,8.15,49.3,65,52.9,15.5,0.8,148.0,112.0,3.5,0,5,10,0,2026-05-03T15:37:54.468689+05:30
Aurangabad,Maharashtra,19.8762,75.3433,39.0,12,0.0,940.3,9.05,50.0,55,62.6,15.2,0.8,153.0,121.0,1.9,0,5,10,0,2026-05-03T15:37:54.468699+05:30
Solapur,Maharashtra,17.6599,75.9064,40.5,11,0.0,952.7,9.1,41.4,56,72.9,16.8,0.7,140.0,120.0,1.9,0,5,10,0,2026-05-03T15:37:54.468709+05:30
Kolhapur,Maharashtra,16.705,74.2433,36.8,20,0.0,945.4,8.95,47.9,63,45.6,15.1,1.7,156.0,109.0,1.4,0,5,10,0,2026-05-03T15:37:54.468719+05:30
Goa,Goa,15.2993,74.124,35.0,47,0.0,995.2,8.9,37.8,69,50.5,15.6,0.6,145.0,81.0,0.9,0,5,7,1,2026-05-03T15:37:54.468729+05:30
Jodhpur,Rajasthan,26.2389,73.0243,40.6,18,0.0,974.9,8.3,57.2,136,236.1,32.5,0.8,165.0,137.0,4.2,0,5,10,0,2026-05-03T15:37:54.468757+05:30
Udaipur,Rajasthan,24.5854,73.7125,36.8,20,0.0,941.3,8.8,39.2,60,47.5,12.6,0.6,149.0,128.0,3.0,0,5,10,0,2026-05-03T15:37:54.468767+05:30
Kota,Rajasthan,25.2138,75.8648,41.0,13,0.0,971.6,8.35,52.2,73,102.2,23.7,1.0,151.0,139.0,3.8,0,5,10,0,2026-05-03T15:37:54.468775+05:30
Bikaner,Rajasthan,28.0229,73.3119,42.2,8,0.0,972.9,8.25,46.4,71,102.9,19.8,0.3,151.0,139.0,4.2,0,5,10,0,2026-05-03T15:37:54.468783+05:30
Ajmer,Rajasthan,26.4499,74.6399,39.6,11,0.0,948.3,8.3,55.4,70,57.0,14.5,0.6,151.0,134.0,3.3,0,5,10,0,2026-05-03T15:37:54.468790+05:30
Gwalior,Madhya Pradesh,26.2183,78.1828,40.0,17,0.0,976.5,8.15,37.1,88,78.0,18.5,0.8,142.0,126.0,2.5,0,5,10,0,2026-05-03T15:37:54.468797+05:30
Indore,Madhya Pradesh,22.7196,75.8577,38.6,13,0.0,943.4,8.7,44.3,55,49.5,12.1,0.9,160.0,127.0,2.5,0,5,10,0,2026-05-03T15:37:54.468804+05:30
Bhopal,Madhya Pradesh,23.2599,77.4126,39.5,15,0.0,948.3,8.7,34.6,68,97.8,20.0,0.5,160.0,125.0,2.7,0,5,10,0,2026-05-03T15:37:54.468811+05:30
Jabalpur,Madhya Pradesh,23.1815,79.9864,39.5,16,0.0,956.1,8.85,28.4,79,74.3,18.6,1.2,155.0,128.0,3.7,0,5,10,0,2026-05-03T15:37:54.468818+05:30
Ujjain,Madhya Pradesh,23.1765,75.7885,39.1,14,0.0,948.6,8.6,41.4,54,53.3,13.0,0.6,141.0,128.0,2.9,0,5,10,0,2026-05-03T15:37:54.468829+05:30
Visakhapatnam,Andhra Pradesh,17.6868,83.2185,33.2,66,0.0,998.6,9.15,47.5,63,29.5,23.4,9.0,318.0,104.0,9.0,3,5,7,1,2026-05-03T15:37:54.468837+05:30
Vijayawada,Andhra Pradesh,16.5062,80.648,37.7,40,0.0,996.2,9.15,33.5,118,42.5,29.3,3.5,279.0,176.0,8.1,0,5,10,1,2026-05-03T15:37:54.468845+05:30
Guntur,Andhra Pradesh,16.3067,80.4365,43.0,18,0.0,996.5,9.2,38.2,128,40.4,24.9,3.0,244.0,170.0,5.4,0,5,10,0,2026-05-03T15:37:54.468852+05:30
Nellore,Andhra Pradesh,14.4426,79.9865,38.3,37,0.0,999.2,9.2,43.6,125,40.4,24.4,2.0,275.0,176.0,5.6,0,5,10,1,2026-05-03T15:37:54.468860+05:30
Kurnool,Andhra Pradesh,15.8281,78.0373,41.6,16,0.0,971.6,9.15,41.4,74,40.3,17.7,0.7,162.0,159.0,7.0,0,5,10,0,2026-05-03T15:37:54.468867+05:30
Kakinada,Andhra Pradesh,16.9891,82.2475,36.8,52,0.0,1000.9,9.15,39.6,58,27.1,20.0,1.6,229.0,107.0,2.6,0,5,7,1,2026-05-03T15:37:54.468874+05:30
Tirupati,Andhra Pradesh,13.6288,79.4192,41.3,19,0.0,985.1,7.2,52.2,110,34.3,15.8,3.1,183.0,153.0,3.0,0,5,10,0,2026-05-03T15:37:54.468881+05:30
Warangal,Telangana,17.9689,79.5941,39.7,23,0.0,973.5,9.15,38.9,118,49.9,21.5,1.1,217.0,165.0,7.9,0,5,10,0,2026-05-03T15:37:54.468888+05:30
Nizamabad,Telangana,18.6725,78.0941,40.2,13,0.0,960.0,9.1,43.6,69,46.4,15.1,0.6,172.0,119.0,1.7,0,5,10,0,2026-05-03T15:37:54.468896+05:30
Mysore,Karnataka,12.2958,76.6396,34.5,24,0.0,926.5,8.9,33.8,68,46.7,17.2,3.4,188.0,131.0,1.7,0,5,7,0,2026-05-03T15:37:54.468902+05:30
Mangalore,Karnataka,12.9141,74.856,32.5,55,0.0,1004.5,9.0,44.6,67,57.3,16.7,1.0,139.0,80.0,0.9,0,5,4,1,2026-05-03T15:37:54.468909+05:30
Hubli-Dharwad,Karnataka,15.3647,75.124,35.3,30,0.0,938.8,9.15,44.3,59,54.0,17.1,1.6,171.0,118.0,1.4,0,5,10,0,2026-05-03T15:37:54.468916+05:30
Belgaum,Karnataka,15.8497,74.4977,33.8,29,0.0,924.2,9.15,46.8,60,44.8,14.8,1.3,152.0,102.0,1.4,0,5,7,0,2026-05-03T15:37:57.848609+05:30
Coimbatore,Tamil Nadu,11.0168,76.9558,34.5,40,0.0,958.7,9.3,49.0,68,26.0,14.3,1.9,207.0,117.0,1.9,0,5,7,1,2026-05-03T15:37:57.848639+05:30
Madurai,Tamil Nadu,9.9252,78.1198,39.5,27,0.0,988.1,8.85,58.7,129,35.7,27.1,2.8,271.0,176.0,2.8,0,5,10,1,2026-05-03T15:37:57.848650+05:30
Trichy,Tamil Nadu,10.7905,78.7047,39.7,28,0.0,994.3,9.2,45.0,91,33.4,25.2,2.6,218.0,163.0,3.1,0,5,10,1,2026-05-03T15:37:57.848659+05:30
Salem,Tamil Nadu,11.6643,78.146,38.0,27,0.0,973.1,9.25,36.4,127,32.1,21.6,2.8,169.0,183.0,8.5,0,5,10,0,2026-05-03T15:37:57.848666+05:30
Tirunelveli,Tamil Nadu,8.7139,77.7567,28.6,73,0.3,1000.3,8.4,37.4,73,23.7,18.4,2.2,219.0,117.0,0.9,10,5,4,1,2026-05-03T15:37:57.848674+05:30
Vellore,Tamil Nadu,12.9165,79.1325,41.3,18,0.0,979.0,9.3,39.2,100,29.5,15.3,3.0,172.0,147.0,2.7,0,5,10,0,2026-05-03T15:37:57.848681+05:30
Erode,Tamil Nadu,11.341,77.7172,40.9,20,0.0,983.8,9.25,50.4,85,27.5,17.7,2.8,204.0,155.0,1.4,0,5,10,0,2026-05-03T15:37:57.848689+05:30
Kochi,Kerala,9.9312,76.2673,30.6,76,0.0,1005.9,9.05,35.6,92,27.0,15.5,4.7,159.0,96.0,1.5,3,5,4,1,2026-05-03T15:37:57.848695+05:30
Thiruvananthapuram,Kerala,8.5241,76.9366,30.6,70,0.0,1005.5,8.75,38.2,55,22.2,14.2,1.3,150.0,85.0,0.6,3,5,4,1,2026-05-03T15:37:57.848702+05:30
Kozhikode,Kerala,11.2588,75.7804,30.9,71,0.0,1005.1,9.0,42.8,65,63.6,19.2,0.5,147.0,82.0,0.8,3,5,4,1,2026-05-03T15:37:57.848708+05:30
Thrissur,Kerala,10.5276,76.2144,32.0,65,0.1,1004.2,8.95,34.6,89,28.2,14.7,1.8,158.0,91.0,1.0,6,5,4,1,2026-05-03T15:37:57.848716+05:30
Kannur,Kerala,11.8745,75.3704,32.1,59,0.0,1004.7,8.95,46.8,65,59.6,18.9,1.1,140.0,88.0,1.0,0,5,4,1,2026-05-03T15:37:57.848722+05:30
Patna,Bihar,25.5941,85.1376,31.2,57,0.0,996.4,8.3,41.8,159,72.9,51.7,3.8,378.0,209.0,10.2,0,5,7,1,2026-05-03T15:37:57.848728+05:30
Gaya,Bihar,24.7914,85.0002,33.8,46,0.0,989.3,8.8,38.2,175,101.3,48.4,2.6,365.0,203.0,13.0,0,5,7,1,2026-05-03T15:37:57.848764+05:30
Muzaffarpur,Bihar,26.1209,85.3647,28.6,67,0.0,997.2,8.7,41.4,135,69.8,44.8,3.8,368.0,187.0,6.2,7,5,7,1,2026-05-03T15:37:57.848775+05:30
Bhagalpur,Bihar,25.2425,87.0117,27.1,70,0.0,998.4,8.7,41.8,124,68.7,46.6,4.9,353.0,182.0,5.2,7,5,7,1,2026-05-03T15:37:57.848782+05:30
Ranchi,Jharkhand,23.3441,85.3096,32.8,28,0.0,934.2,9.25,29.2,125,114.6,27.0,2.3,190.0,158.0,4.6,0,5,7,0,2026-05-03T15:37:57.848789+05:30
Jamshedpur,Jharkhand,22.8046,86.2029,36.8,28,0.0,985.7,9.05,32.8,167,71.7,50.9,4.2,319.0,227.0,20.4,0,5,10,0,2026-05-03T15:37:57.848795+05:30
Dhanbad,Jharkhand,23.7957,86.4304,30.0,61,0.0,976.5,9.0,30.6,156,89.2,66.6,18.5,345.0,221.0,57.4,7,5,7,1,2026-05-03T15:37:57.848802+05:30
Bokaro,Jharkhand,23.6693,86.1511,27.7,72,0.0,980.2,9.0,28.4,158,101.5,67.5,17.6,502.0,241.0,66.9,7,5,7,1,2026-05-03T15:37:57.848808+05:30
Bhubaneswar,Odisha,20.2961,85.8245,32.2,59,0.0,998.4,9.1,33.5,67,32.0,20.3,3.1,229.0,139.0,5.2,0,5,7,1,2026-05-03T15:37:57.848814+05:30
Cuttack,Odisha,20.4625,85.8828,33.0,58,0.0,1000.0,9.15,31.7,67,32.0,20.3,3.1,264.0,139.0,5.2,0,5,4,1,2026-05-03T15:37:57.848821+05:30
Rourkela,Odisha,22.2604,84.8536,37.3,24,0.0,979.8,8.95,38.5,145,61.0,18.3,3.6,221.0,157.0,12.1,0,5,10,0,2026-05-03T15:37:57.848827+05:30
Raipur,Chhattisgarh,21.2514,81.6296,40.2,17,0.0,969.2,9.0,32.4,109,53.0,21.0,6.4,174.0,158.0,4.4,0,5,10,0,2026-05-03T15:37:57.848833+05:30
Bhilai,Chhattisgarh,21.1938,81.3509,39.5,18,0.0,969.7,9.0,34.6,82,52.0,20.2,6.4,311.0,139.0,4.0,0,5,10,0,2026-05-03T15:37:57.848839+05:30
Guwahati,Assam,26.1158,91.7086,28.0,64,0.0,998.9,5.5,25.2,67,10.4,8.1,2.0,289.0,115.0,0.9,7,5,3,1,2026-05-03T15:37:57.848845+05:30
Agartala,Tripura,23.8315,91.2868,28.5,71,0.0,1003.5,8.7,35.3,58,7.3,6.5,4.6,183.0,110.0,1.9,7,5,4,1,2026-05-03T15:37:57.848852+05:30
Shillong,Meghalaya,25.5788,91.8933,18.9,76,0.0,855.0,7.6,24.1,66,13.7,8.7,2.0,254.0,120.0,1.1,3,5,7,0,2026-05-03T15:37:57.848860+05:30
Imphal,Manipur,24.817,93.9368,23.9,65,0.0,921.5,9.15,36.0,61,19.2,10.7,1.6,226.0,107.0,0.8,3,5,7,1,2026-05-03T15:37:57.848869+05:30
Aizawl,Mizoram,23.7271,92.7176,20.7,79,0.0,891.2,8.5,47.5,42,12.5,7.9,1.5,166.0,91.0,0.7,3,5,7,1,2026-05-03T15:37:57.848876+05:30
Kohima,Nagaland,25.6701,94.1077,18.2,83,0.1,853.3,3.75,24.8,44,10.5,6.4,1.4,229.0,102.0,0.3,6,10,3,0,2026-05-03T15:37:57.848882+05:30
Gangtok,Sikkim,27.3314,88.6138,17.8,71,0.0,835.8,6.6,43.2,71,12.8,10.2,1.9,252.0,128.0,1.1,3,5,7,0,2026-05-03T15:37:57.848889+05:30
Siliguri,West Bengal,26.7271,88.3953,27.8,64,0.0,990.7,8.15,28.1,94,21.0,14.5,4.2,368.0,138.0,1.6,7,5,7,1,2026-05-03T15:38:01.705881+05:30
Durgapur,West Bengal,23.5204,87.3119,31.7,57,0.0,990.9,8.9,29.9,143,67.3,51.7,12.2,326.0,179.0,31.0,0,5,7,1,2026-05-03T15:38:01.705913+05:30
Asansol,West Bengal,23.6739,86.9524,32.4,54,0.0,989.6,8.95,29.5,151,76.1,59.3,12.5,309.0,207.0,38.3,0,5,7,1,2026-05-03T15:38:01.705924+05:30
Pondicherry,Puducherry,11.9139,79.8145,33.9,61,0.0,1003.3,8.45,47.9,111,34.1,27.5,2.5,244.0,166.0,6.9,3,5,4,1,2026-05-03T15:38:01.705933+05:30
Port Blair,Andaman and Nicobar Islands,11.6234,92.7265,32.0,55,0.2,1004.9,8.9,25.6,30,8.0,5.8,0.6,152.0,63.0,0.4,3,5,4,1,2026-05-03T15:38:01.705941+05:30
Haridwar,Uttarakhand,29.9457,78.1642,31.2,44,0.0,970.1,7.25,41.4,153,199.8,47.4,1.9,271.0,185.0,12.8,0,5,7,1,2026-05-03T15:38:01.705949+05:30
Rishikesh,Uttarakhand,30.0869,78.2676,31.0,43,0.0,962.5,7.45,37.4,157,210.5,45.9,0.9,257.0,182.0,11.1,0,5,7,1,2026-05-03T15:38:01.705956+05:30
Nainital,Uttarakhand,29.3919,79.4542,17.2,69,0.0,803.6,8.4,40.0,160,197.4,42.7,1.4,246.0,170.0,7.7,3,5,7,0,2026-05-03T15:38:01.705964+05:30
Mussoorie,Uttarakhand,30.4599,78.0664,20.7,41,0.0,801.9,7.65,46.4,157,149.5,36.1,1.1,217.0,170.0,8.5,0,5,7,0,2026-05-03T15:38:01.705971+05:30
Dharamshala,Himachal Pradesh,32.219,76.3234,25.5,27,0.0,866.8,7.7,45.0,118,37.8,13.1,0.5,194.0,157.0,2.9,4,5,7,0,2026-05-03T15:38:01.705978+05:30
Dalhousie,Himachal Pradesh,32.5387,75.971,21.4,29,0.0,803.7,8.2,48.2,120,51.9,18.7,0.8,216.0,167.0,4.4,0,5,7,0,2026-05-03T15:38:01.705986+05:30
Patiala,Punjab,30.3398,76.3869,31.8,42,0.0,973.2,7.5,62.3,602,957.4,106.6,1.9,303.0,186.0,11.4,0,5,7,1,2026-05-03T15:38:01.705994+05:30
Bhatinda,Punjab,30.211,74.9455,37.9,25,0.0,976.8,8.15,56.5,179,601.6,80.8,2.3,221.0,153.0,8.6,0,5,10,0,2026-05-03T15:38:01.706001+05:30
Rohtak,Haryana,28.8955,76.6066,36.0,26,0.0,975.5,7.6,42.1,633,530.9,79.4,3.5,360.0,200.0,13.0,0,5,10,0,2026-05-03T15:38:01.706009+05:30
Panipat,Haryana,29.3909,76.9635,30.8,53,0.0,975.0,7.45,54.0,1030,1080.3,120.6,5.2,302.0,212.0,20.5,0,5,7,1,2026-05-03T15:38:01.706016+05:30
Mathura,Uttar Pradesh,27.4924,77.6737,30.4,48,0.0,982.1,7.9,57.6,695,282.2,41.4,4.2,258.0,148.0,4.9,0,5,7,1,2026-05-03T15:38:01.706023+05:30
Vrindavan,Uttar Pradesh,27.5823,77.7027,30.8,44,0.0,982.4,7.9,58.3,695,282.2,41.4,4.2,266.0,148.0,4.9,0,5,7,1,2026-05-03T15:38:01.706029+05:30
Ayodhya,Uttar Pradesh,26.7922,82.1998,33.9,42,0.0,991.0,8.25,45.7,149,83.1,32.8,2.0,314.0,187.0,7.8,0,5,7,1,2026-05-03T15:38:01.706036+05:30
Ratlam,Madhya Pradesh,23.3315,75.0367,37.9,19,0.0,949.7,8.5,47.9,53,36.7,11.2,0.6,154.0,134.0,3.3,0,5,10,0,2026-05-03T15:38:01.706044+05:30
Sagar,Madhya Pradesh,23.8388,78.7378,38.7,17,0.0,945.0,8.7,33.5,68,64.5,15.9,0.4,143.0,125.0,2.5,0,5,10,0,2026-05-03T15:38:01.706050+05:30
Satna,Madhya Pradesh,24.6005,80.8322,38.3,19,0.0,965.8,8.7,61.6,81,69.4,19.4,0.6,150.0,131.0,3.5,0,5,10,0,2026-05-03T15:38:01.706057+05:30
Akola,Maharashtra,20.7002,77.0082,40.8,13,0.0,969.6,8.85,42.1,58,60.1,14.8,1.1,138.0,123.0,6.9,0,5,10,0,2026-05-03T15:38:01.706065+05:30
Amravati,Maharashtra,20.9374,77.7796,40.6,12,0.0,961.9,8.85,41.4,59,59.4,15.6,1.4,136.0,122.0,5.8,0,5,10,0,2026-05-03T15:38:01.706072+05:30
Latur,Maharashtra,18.4088,76.5604,39.8,11,0.0,936.0,9.05,39.6,61,79.4,17.2,0.4,137.0,117.0,2.9,0,5,10,0,2026-05-03T15:38:01.706080+05:30
Nanded,Maharashtra,19.1383,77.3091,41.2,11,0.0,963.3,9.0,37.8,59,66.1,16.3,0.6,142.0,117.0,1.1,0,5,10,0,2026-05-03T15:38:01.706087+05:30
Gulbarga,Karnataka,17.3297,76.8343,41.0,12,0.0,954.0,9.1,42.1,57,48.1,14.5,0.9,150.0,130.0,3.1,0,5,10,0,2026-05-03T15:38:01.706094+05:30
Bidar,Karnataka,17.9104,77.5199,39.8,12,0.0,931.9,9.15,37.4,67,44.5,15.1,0.9,139.0,126.0,3.6,0,5,10,0,2026-05-03T15:38:01.706100+05:30
Hospet,Karnataka,15.2689,76.3909,38.2,19,0.0,952.2,9.2,37.8,59,59.3,18.7,1.5,167.0,131.0,2.5,0,5,10,0,2026-05-03T15:38:01.706107+05:30
Tirupur,Tamil Nadu,11.1085,77.3411,37.1,32,0.0,971.1,9.35,47.9,82,25.6,15.6,3.0,208.0,141.0,2.0,0,5,10,1,2026-05-03T15:38:01.706114+05:30
Alappuzha,Kerala,9.4981,76.3388,30.3,76,0.0,1006.0,9.0,34.2,80,31.1,17.7,3.2,129.0,90.0,2.0,3,5,4,1,2026-05-03T15:38:01.706121+05:30
Munnar,Kerala,10.0889,77.0595,20.5,88,0.1,856.1,8.7,28.4,69,24.0,17.1,1.9,185.0,118.0,1.0,6,5,7,1,2026-05-03T15:38:01.706128+05:30
Silchar,Assam,24.8333,92.7789,28.4,66,0.0,1002.8,8.35,28.1,53,23.0,12.5,2.3,224.0,103.0,2.5,7,5,4,1,2026-05-03T15:38:01.706135+05:30
Dibrugarh,Assam,27.4728,94.912,27.1,61,0.0,993.6,6.3,22.3,61,10.6,8.8,3.3,220.0,108.0,1.1,7,5,7,1,2026-05-03T15:38:01.706142+05:30
