city,state,latitude,longitude,temp,humidity,rain,pressure,uv_index,wind_gusts,aqi,pm10,pm2_5,mosquito_risk,arthritis_risk,migraine_risk,frizz_risk,updated_at
Delhi,Delhi,28.6139,77.209,36.3,19,0.0,981.4,7.25,22.0,198,302.7,36.2,0,5,10,0,2026-04-14T16:36:24.156780+05:30
Mumbai,Maharashtra,19.076,72.8777,30.4,74,0.0,1006.4,8.0,24.5,198,90.3,33.3,3,5,4,1,2026-04-14T16:36:24.156820+05:30
Bangalore,Karnataka,12.9716,77.5946,36.3,18,0.0,910.7,9.65,29.5,151,26.5,19.2,0,5,10,0,2026-04-14T16:36:24.156836+05:30
Hyderabad,Telangana,17.385,78.4867,39.5,22,0.0,950.7,9.25,25.6,134,45.4,33.8,0,5,10,0,2026-04-14T16:36:24.156845+05:30
Chennai,Tamil Nadu,13.0827,80.2707,34.1,51,0.0,1005.1,9.35,32.0,43,12.8,8.5,0,5,4,1,2026-04-14T16:36:24.156854+05:30
Kolkata,West Bengal,22.5726,88.3639,34.0,56,0.0,1003.0,8.85,29.2,137,85.2,41.4,0,5,4,1,2026-04-14T16:36:24.156863+05:30
Pune,Maharashtra,18.5204,73.8567,38.7,20,0.0,947.1,8.6,42.8,131,24.4,15.0,0,5,10,0,2026-04-14T16:36:24.156894+05:30
Ahmedabad,Gujarat,23.0225,72.5714,40.9,16,0.0,999.3,8.15,33.5,74,62.2,15.3,0,5,10,0,2026-04-14T16:36:24.156904+05:30
Jaipur,Rajasthan,26.9124,75.7873,38.1,14,0.0,957.9,7.9,31.7,112,118.3,17.9,0,5,10,0,2026-04-14T16:36:24.156912+05:30
Lucknow,Uttar Pradesh,26.8467,80.9462,37.8,17,0.0,990.9,7.75,34.6,146,110.4,19.3,0,5,10,0,2026-04-14T16:36:24.156919+05:30
Kanpur,Uttar Pradesh,26.4499,80.3319,36.6,21,0.0,989.9,7.75,28.4,197,343.7,37.1,0,5,10,0,2026-04-14T16:36:24.156927+05:30
Chandigarh,Chandigarh,30.7333,76.7794,34.3,18,0.0,967.9,7.2,28.8,145,13.2,10.1,0,5,7,0,2026-04-14T16:36:24.156935+05:30
Srinagar,Jammu and Kashmir,34.0837,74.7973,22.6,26,0.0,843.2,8.2,18.4,126,20.4,8.2,0,5,7,0,2026-04-14T16:36:24.156943+05:30
Jammu,Jammu and Kashmir,32.7266,74.857,34.0,22,0.0,972.2,7.85,29.5,109,16.3,9.1,0,5,7,0,2026-04-14T16:36:24.156950+05:30
Amritsar,Punjab,31.634,74.8723,34.2,24,0.0,980.2,7.8,24.1,151,16.3,9.3,0,5,7,0,2026-04-14T16:36:24.156957+05:30
Ludhiana,Punjab,30.901,75.8573,35.2,20,0.0,977.8,7.4,28.4,127,23.2,9.0,0,5,10,0,2026-04-14T16:36:24.156963+05:30
Jalandhar,Punjab,31.326,75.5762,34.5,21,0.0,979.1,7.55,24.1,137,30.0,10.3,0,5,7,0,2026-04-14T16:36:24.156972+05:30
Dehradun,Uttarakhand,30.6284,78.0322,22.5,35,0.0,831.6,7.6,36.7,121,14.6,8.2,0,5,7,0,2026-04-14T16:36:24.156979+05:30
Shimla,Himachal Pradesh,31.1048,77.1734,20.1,38,0.0,786.9,7.7,43.9,125,14.6,8.1,0,5,7,0,2026-04-14T16:36:24.156985+05:30
Manali,Himachal Pradesh,32.2396,77.1887,20.9,45,0.0,822.1,9.5,29.9,143,18.3,6.2,0,5,7,0,2026-04-14T16:36:24.156994+05:30
Gurgaon,Haryana,28.4595,77.0266,36.1,21,0.0,979.9,7.4,14.4,658,694.8,69.4,0,5,10,0,2026-04-14T16:36:24.157000+05:30
Noida,Uttar Pradesh,28.5355,77.391,36.5,19,0.0,982.8,7.3,21.6,658,694.8,69.4,0,5,10,0,2026-04-14T16:36:24.157006+05:30
Ghaziabad,Uttar Pradesh,28.6692,77.4538,36.2,20,0.0,981.1,7.25,24.1,163,255.2,34.8,0,5,10,0,2026-04-14T16:36:24.157013+05:30
Faridabad,Haryana,28.4089,77.3178,36.4,18,0.0,982.2,7.35,17.6,658,694.8,69.4,0,5,10,0,2026-04-14T16:36:24.157020+05:30
Meerut,Uttar Pradesh,28.9845,77.7064,36.5,18,0.0,979.7,7.15,32.0,163,255.2,34.8,0,5,10,0,2026-04-14T16:36:24.157026+05:30
Agra,Uttar Pradesh,27.1767,78.0081,37.6,19,0.0,985.7,7.7,23.4,468,412.6,47.0,0,5,10,0,2026-04-14T16:36:24.157033+05:30
Varanasi,Uttar Pradesh,25.3176,82.9739,38.8,11,0.0,994.6,8.4,34.2,151,124.3,24.2,0,5,10,0,2026-04-14T16:36:24.157042+05:30
Prayagraj,Uttar Pradesh,25.4358,81.8463,38.0,15,0.0,993.9,8.3,31.3,152,114.6,21.8,0,5,10,0,2026-04-14T16:36:24.157050+05:30
Gorakhpur,Uttar Pradesh,26.7606,83.3732,37.2,14,0.0,994.1,8.2,21.6,153,50.4,18.7,0,5,10,0,2026-04-14T16:36:24.157057+05:30
Bareilly,Uttar Pradesh,28.367,79.4304,36.9,17,0.0,984.5,7.55,36.0,135,23.6,9.9,0,5,10,0,2026-04-14T16:36:24.157063+05:30
Aligarh,Uttar Pradesh,27.8974,78.088,37.3,17,0.0,983.7,7.45,30.2,468,448.9,54.2,0,5,10,0,2026-04-14T16:36:24.157069+05:30
Moradabad,Uttar Pradesh,28.8386,78.7733,36.3,17,0.0,981.6,7.35,35.6,128,41.6,12.8,0,5,10,0,2026-04-14T16:36:24.157076+05:30
Saharanpur,Uttar Pradesh,29.9637,77.546,34.6,19,0.0,974.3,6.9,32.0,136,156.5,23.2,0,5,7,0,2026-04-14T16:36:24.157081+05:30
Jhansi,Uttar Pradesh,25.4484,78.5685,39.8,12,0.0,975.5,8.2,28.1,128,51.3,11.4,0,5,10,0,2026-04-14T16:36:27.375395+05:30
Surat,Gujarat,21.1702,72.8311,33.9,42,0.0,1005.5,7.8,23.8,122,84.1,40.3,0,5,4,1,2026-04-14T16:36:27.375427+05:30
Vadodara,Gujarat,22.3072,73.1812,40.0,16,0.0,1002.0,8.1,31.0,90,46.0,15.3,0,5,7,0,2026-04-14T16:36:27.375438+05:30
Rajkot,Gujarat,22.3039,70.8022,38.1,18,0.0,993.0,7.85,33.8,57,58.0,16.3,0,5,10,0,2026-04-14T16:36:27.375447+05:30
Thane,Maharashtra,19.2183,72.9781,33.2,55,0.0,1006.1,8.0,36.4,198,90.3,33.3,0,5,4,1,2026-04-14T16:36:27.375455+05:30
Nagpur,Maharashtra,21.1458,79.0882,39.0,23,0.0,970.1,8.85,15.1,167,42.0,19.4,0,5,10,0,2026-04-14T16:36:27.375464+05:30
Nashik,Maharashtra,19.9975,73.7898,36.5,24,0.0,945.2,8.25,34.6,109,27.3,11.4,0,5,10,0,2026-04-14T16:36:27.375472+05:30
Aurangabad,Maharashtra,19.8762,75.3433,39.4,12,0.0,942.8,8.95,33.1,136,17.1,9.6,0,5,10,0,2026-04-14T16:36:27.375480+05:30
Solapur,Maharashtra,17.6599,75.9064,40.9,16,0.0,954.6,9.05,28.4,133,18.8,13.4,0,5,10,0,2026-04-14T16:36:27.375488+05:30
Kolhapur,Maharashtra,16.705,74.2433,35.7,39,0.0,946.2,9.05,42.1,112,27.5,19.2,0,5,10,1,2026-04-14T16:36:27.375496+05:30
Goa,Goa,15.2993,74.124,31.5,64,0.0,995.6,9.05,33.5,80,44.7,24.3,3,5,7,1,2026-04-14T16:36:27.375504+05:30
Jodhpur,Rajasthan,26.2389,73.0243,38.2,17,0.0,980.9,8.15,27.0,67,107.1,18.4,0,5,10,0,2026-04-14T16:36:27.375512+05:30
Udaipur,Rajasthan,24.5854,73.7125,36.3,15,0.0,945.9,8.7,40.0,48,57.3,14.3,0,5,10,0,2026-04-14T16:36:27.375520+05:30
Kota,Rajasthan,25.2138,75.8648,40.4,13,0.0,976.0,8.2,27.0,131,28.7,9.5,0,5,10,0,2026-04-14T16:36:27.375527+05:30
Bikaner,Rajasthan,28.0229,73.3119,40.1,11,0.0,979.2,8.0,32.4,55,101.7,20.5,0,5,10,0,2026-04-14T16:36:27.375535+05:30
Ajmer,Rajasthan,26.4499,74.6399,37.2,17,0.0,953.3,8.1,35.6,75,28.5,9.7,0,5,10,0,2026-04-14T16:36:27.375542+05:30
Gwalior,Madhya Pradesh,26.2183,78.1828,38.0,16,0.0,981.3,7.95,40.0,133,85.0,16.4,0,5,10,0,2026-04-14T16:36:27.375551+05:30
Indore,Madhya Pradesh,22.7196,75.8577,36.7,23,0.0,947.3,8.55,34.2,133,24.4,13.9,0,5,10,0,2026-04-14T16:36:27.375558+05:30
Bhopal,Madhya Pradesh,23.2599,77.4126,39.2,13,0.0,952.1,8.55,31.7,125,53.3,16.9,0,5,10,0,2026-04-14T16:36:27.375566+05:30
Jabalpur,Madhya Pradesh,23.1815,79.9864,37.9,20,0.0,959.6,8.65,16.6,134,75.0,17.7,0,5,10,0,2026-04-14T16:36:27.375574+05:30
Ujjain,Madhya Pradesh,23.1765,75.7885,36.7,21,0.0,953.1,8.45,33.5,102,32.4,14.8,0,5,10,0,2026-04-14T16:36:27.375582+05:30
Visakhapatnam,Andhra Pradesh,17.6868,83.2185,30.9,66,0.0,1001.4,9.15,39.6,65,28.6,18.9,3,5,4,1,2026-04-14T16:36:27.375589+05:30
Vijayawada,Andhra Pradesh,16.5062,80.648,37.1,35,0.0,999.9,9.2,28.1,57,25.1,16.3,0,5,10,1,2026-04-14T16:36:27.375597+05:30
Guntur,Andhra Pradesh,16.3067,80.4365,36.2,38,0.0,1001.2,9.25,31.0,59,28.2,18.9,0,5,7,1,2026-04-14T16:36:27.375605+05:30
Nellore,Andhra Pradesh,14.4426,79.9865,34.8,53,0.0,1003.2,9.3,31.7,52,24.0,17.2,0,5,4,1,2026-04-14T16:36:27.375613+05:30
Kurnool,Andhra Pradesh,15.8281,78.0373,41.4,21,0.0,973.2,9.25,22.7,119,41.7,29.5,0,5,10,0,2026-04-14T16:36:27.375622+05:30
Kakinada,Andhra Pradesh,16.9891,82.2475,35.3,47,0.0,1005.2,9.2,30.2,55,23.8,14.0,0,5,7,1,2026-04-14T16:36:27.375630+05:30
Tirupati,Andhra Pradesh,13.6288,79.4192,37.8,22,0.0,989.1,9.4,32.4,64,25.8,20.0,0,5,10,0,2026-04-14T16:36:27.375637+05:30
Warangal,Telangana,17.9689,79.5941,39.3,31,0.0,975.3,9.15,24.8,83,40.5,29.5,0,5,10,1,2026-04-14T16:36:27.375645+05:30
Nizamabad,Telangana,18.6725,78.0941,40.3,19,0.0,962.2,9.1,25.6,119,23.5,14.1,0,5,10,0,2026-04-14T16:36:27.375653+05:30
Mysore,Karnataka,12.2958,76.6396,36.7,23,0.0,926.7,9.5,41.4,155,30.3,22.0,0,5,10,0,2026-04-14T16:36:27.375661+05:30
Mangalore,Karnataka,12.9141,74.856,29.7,81,0.0,1003.7,9.15,25.6,89,38.0,22.9,7,5,4,1,2026-04-14T16:36:27.375668+05:30
Hubli-Dharwad,Karnataka,15.3647,75.124,38.2,23,0.0,938.6,9.25,41.4,114,32.0,22.2,0,5,10,0,2026-04-14T16:36:27.375676+05:30
Belgaum,Karnataka,15.8497,74.4977,34.9,38,0.0,924.5,9.3,41.8,123,31.7,22.6,0,5,7,1,2026-04-14T16:36:30.595420+05:30
Coimbatore,Tamil Nadu,11.0168,76.9558,37.6,25,0.0,959.2,8.95,38.9,135,23.1,15.9,0,5,10,0,2026-04-14T16:36:30.595459+05:30
Madurai,Tamil Nadu,9.9252,78.1198,38.5,28,0.0,989.7,9.35,39.6,84,19.8,13.3,0,5,10,1,2026-04-14T16:36:30.595469+05:30
Trichy,Tamil Nadu,10.7905,78.7047,37.9,29,0.0,996.6,9.4,25.2,64,13.5,10.8,0,5,10,1,2026-04-14T16:36:30.595478+05:30
Salem,Tamil Nadu,11.6643,78.146,39.2,22,0.0,974.3,9.45,19.4,96,22.9,13.0,0,5,10,0,2026-04-14T16:36:30.595486+05:30
Tirunelveli,Tamil Nadu,8.7139,77.7567,34.8,49,0.0,1000.5,9.3,40.3,95,25.6,19.2,0,5,4,1,2026-04-14T16:36:30.595493+05:30
Vellore,Tamil Nadu,12.9165,79.1325,37.1,25,0.0,982.3,9.45,30.6,82,29.6,24.5,0,5,10,0,2026-04-14T16:36:30.595500+05:30
Erode,Tamil Nadu,11.341,77.7172,39.1,28,0.0,985.6,9.3,26.6,83,20.4,12.1,0,5,10,1,2026-04-14T16:36:30.595508+05:30
Kochi,Kerala,9.9312,76.2673,29.9,80,0.0,1005.5,8.8,29.2,96,40.2,28.3,7,5,4,1,2026-04-14T16:36:30.595515+05:30
Thiruvananthapuram,Kerala,8.5241,76.9366,29.8,80,0.0,1005.5,9.1,23.0,78,28.6,17.7,7,5,4,1,2026-04-14T16:36:30.595523+05:30
Kozhikode,Kerala,11.2588,75.7804,30.9,78,0.0,1005.0,9.15,28.4,88,45.8,31.2,3,5,4,1,2026-04-14T16:36:30.595530+05:30
Thrissur,Kerala,10.5276,76.2144,33.0,64,0.0,1003.7,8.7,38.9,91,39.5,27.7,3,5,4,1,2026-04-14T16:36:30.595538+05:30
Kannur,Kerala,11.8745,75.3704,31.8,72,0.0,1004.3,9.15,31.3,93,42.0,29.3,3,5,4,1,2026-04-14T16:36:30.595545+05:30
Patna,Bihar,25.5941,85.1376,36.1,20,0.0,997.3,8.55,26.3,168,151.3,29.5,0,5,10,0,2026-04-14T16:36:30.595552+05:30
Gaya,Bihar,24.7914,85.0002,35.6,25,0.0,990.9,8.6,20.9,157,164.4,29.6,0,5,10,0,2026-04-14T16:36:30.595559+05:30
Muzaffarpur,Bihar,26.1209,85.3647,34.3,32,0.0,997.5,8.5,18.7,180,112.9,26.9,0,5,7,0,2026-04-14T16:36:30.595566+05:30
Bhagalpur,Bihar,25.2425,87.0117,32.4,41,0.0,998.5,8.55,16.9,178,84.1,25.6,0,5,7,1,2026-04-14T16:36:30.595574+05:30
Ranchi,Jharkhand,23.3441,85.3096,34.0,15,0.0,936.6,9.1,32.8,142,85.0,15.2,0,5,7,0,2026-04-14T16:36:30.595581+05:30
Jamshedpur,Jharkhand,22.8046,86.2029,36.0,28,0.0,988.1,8.95,16.9,169,83.1,22.0,0,5,10,0,2026-04-14T16:36:30.595588+05:30
Dhanbad,Jharkhand,23.7957,86.4304,36.7,19,0.0,977.1,8.9,19.4,144,144.8,31.1,0,5,10,0,2026-04-14T16:36:30.595596+05:30
Bokaro,Jharkhand,23.6693,86.1511,37.2,13,0.0,981.0,8.9,26.3,150,135.5,28.5,0,5,10,0,2026-04-14T16:36:30.595603+05:30
Bhubaneswar,Odisha,20.2961,85.8245,32.9,64,0.0,1000.2,9.05,25.6,95,53.2,38.6,3,5,4,1,2026-04-14T16:36:30.595610+05:30
Cuttack,Odisha,20.4625,85.8828,31.1,72,0.0,1002.6,9.1,24.8,95,53.2,38.6,3,5,4,1,2026-04-14T16:36:30.595617+05:30
Rourkela,Odisha,22.2604,84.8536,38.0,17,0.0,982.2,8.85,21.6,149,75.4,18.2,0,5,10,0,2026-04-14T16:36:30.595624+05:30
Raipur,Chhattisgarh,21.2514,81.6296,40.2,18,0.0,971.3,8.9,17.6,169,87.5,37.5,0,5,10,0,2026-04-14T16:36:30.595631+05:30
Bhilai,Chhattisgarh,21.1938,81.3509,39.9,20,0.0,971.6,8.9,14.0,154,64.0,32.7,0,5,10,0,2026-04-14T16:36:30.595638+05:30
Guwahati,Assam,26.1158,91.7086,29.4,60,0.0,999.0,8.5,28.1,125,70.5,43.9,4,5,7,1,2026-04-14T16:36:30.595644+05:30
Agartala,Tripura,23.8315,91.2868,30.8,67,0.0,1003.6,8.65,27.7,103,49.8,41.6,3,5,4,1,2026-04-14T16:36:30.595652+05:30
Shillong,Meghalaya,25.5788,91.8933,18.4,62,0.0,855.2,8.9,52.6,112,58.4,38.0,3,5,7,0,2026-04-14T16:36:30.595659+05:30
Imphal,Manipur,24.817,93.9368,22.8,69,0.0,921.9,8.8,70.6,127,56.8,36.8,3,5,7,1,2026-04-14T16:36:30.595666+05:30
Aizawl,Mizoram,23.7271,92.7176,25.1,59,0.0,892.6,8.95,45.0,120,67.3,46.3,4,5,7,1,2026-04-14T16:36:30.595673+05:30
Kohima,Nagaland,25.6701,94.1077,19.4,66,0.0,854.0,8.2,70.9,114,56.8,36.0,3,5,7,0,2026-04-14T16:36:30.595680+05:30
Gangtok,Sikkim,27.3314,88.6138,14.9,93,0.0,835.5,8.65,15.5,139,65.7,36.8,3,10,7,0,2026-04-14T16:36:30.595687+05:30
Siliguri,West Bengal,26.7271,88.3953,24.3,69,0.0,992.3,8.45,34.2,156,88.5,48.7,3,5,7,1,2026-04-14T16:36:33.813851+05:30
Durgapur,West Bengal,23.5204,87.3119,36.2,23,0.0,992.1,8.8,17.3,162,107.1,28.3,0,5,10,0,2026-04-14T16:36:33.813930+05:30
Asansol,West Bengal,23.6739,86.9524,36.1,20,0.0,990.7,8.85,18.7,143,131.3,30.2,0,5,10,0,2026-04-14T16:36:33.813947+05:30
Pondicherry,Puducherry,11.9139,79.8145,35.1,49,0.0,1005.9,9.3,27.0,40,10.7,7.0,0,5,7,1,2026-04-14T16:36:33.813959+05:30
Port Blair,Andaman and Nicobar Islands,11.6234,92.7265,29.5,72,0.0,1006.3,8.5,22.3,63,31.5,20.4,7,5,4,1,2026-04-14T16:36:33.813972+05:30
Haridwar,Uttarakhand,29.9457,78.1642,34.3,19,0.0,972.7,7.0,34.9,128,59.3,13.6,0,5,7,0,2026-04-14T16:36:33.813984+05:30
Rishikesh,Uttarakhand,30.0869,78.2676,32.8,21,0.0,965.8,7.1,36.7,116,18.5,8.1,0,5,7,0,2026-04-14T16:36:33.813996+05:30
Nainital,Uttarakhand,29.3919,79.4542,26.0,18,0.0,808.4,7.95,60.1,140,16.8,7.8,4,5,7,1,2026-04-14T16:36:33.814007+05:30
Mussoorie,Uttarakhand,30.4599,78.0664,23.1,32,0.0,804.7,7.5,44.6,128,21.1,9.9,0,5,7,0,2026-04-14T16:36:33.814018+05:30
Dharamshala,Himachal Pradesh,32.219,76.3234,25.7,37,0.0,870.4,7.75,24.5,124,15.4,8.0,4,5,7,0,2026-04-14T16:36:33.814028+05:30
Dalhousie,Himachal Pradesh,32.5387,75.971,24.4,32,0.0,806.5,8.0,23.0,130,16.4,9.0,0,5,7,0,2026-04-14T16:36:33.814039+05:30
Patiala,Punjab,30.3398,76.3869,35.7,18,0.0,977.0,7.1,31.7,253,540.2,48.7,0,5,10,0,2026-04-14T16:36:33.814050+05:30
Bhatinda,Punjab,30.211,74.9455,37.1,18,0.0,982.4,7.75,31.3,131,29.6,8.5,0,5,10,0,2026-04-14T16:36:33.814060+05:30
Rohtak,Haryana,28.8955,76.6066,37.1,16,0.0,980.2,7.3,25.6,290,414.4,41.7,0,5,10,0,2026-04-14T16:36:33.814070+05:30
Panipat,Haryana,29.3909,76.9635,36.5,17,0.0,978.8,7.1,31.7,612,1084.1,93.6,0,5,10,0,2026-04-14T16:36:33.814080+05:30
Mathura,Uttar Pradesh,27.4924,77.6737,36.5,21,0.0,984.9,7.6,23.0,538,298.0,41.9,0,5,10,0,2026-04-14T16:36:33.814091+05:30
Vrindavan,Uttar Pradesh,27.5823,77.7027,36.9,18,0.0,985.4,7.55,24.1,538,298.0,41.9,0,5,10,0,2026-04-14T16:36:33.814101+05:30
Ayodhya,Uttar Pradesh,26.7922,82.1998,38.5,12,0.0,992.4,7.95,38.2,133,23.4,10.0,0,5,10,0,2026-04-14T16:36:33.814111+05:30
Ratlam,Madhya Pradesh,23.3315,75.0367,34.7,31,0.0,954.0,8.4,33.1,91,33.1,12.3,0,5,7,0,2026-04-14T16:36:33.814121+05:30
Sagar,Madhya Pradesh,23.8388,78.7378,38.5,13,0.0,949.0,8.55,27.7,135,42.0,11.6,0,5,10,0,2026-04-14T16:36:33.814128+05:30
Satna,Madhya Pradesh,24.6005,80.8322,38.9,11,0.0,969.5,8.6,26.6,131,55.1,11.9,0,5,10,0,2026-04-14T16:36:33.814136+05:30
Akola,Maharashtra,20.7002,77.0082,41.1,11,0.0,972.5,8.8,28.1,143,16.5,10.3,0,5,10,0,2026-04-14T16:36:33.814144+05:30
Amravati,Maharashtra,20.9374,77.7796,40.5,16,0.0,964.6,8.8,22.7,142,26.2,13.7,0,5,10,0,2026-04-14T16:36:33.814153+05:30
Latur,Maharashtra,18.4088,76.5604,37.7,21,0.0,938.5,9.05,30.2,136,18.1,13.1,0,5,10,0,2026-04-14T16:36:33.814160+05:30
Nanded,Maharashtra,19.1383,77.3091,39.7,19,0.0,966.2,8.95,20.5,133,19.7,11.6,0,5,10,0,2026-04-14T16:36:33.814168+05:30
Gulbarga,Karnataka,17.3297,76.8343,41.5,15,0.0,955.8,9.1,22.7,149,35.7,27.7,0,5,10,0,2026-04-14T16:36:33.814176+05:30
Bidar,Karnataka,17.9104,77.5199,39.1,18,0.0,933.8,9.1,24.8,132,23.5,17.0,0,5,10,0,2026-04-14T16:36:33.814183+05:30
Hospet,Karnataka,15.2689,76.3909,38.0,28,0.0,953.3,9.25,24.5,147,49.7,37.6,0,5,10,1,2026-04-14T16:36:33.814190+05:30
Tirupur,Tamil Nadu,11.1085,77.3411,39.2,21,0.0,972.1,9.35,31.0,125,21.8,14.1,0,5,10,0,2026-04-14T16:36:33.814198+05:30
Alappuzha,Kerala,9.4981,76.3388,29.9,80,0.0,1005.8,8.9,24.8,96,43.7,28.6,7,5,4,1,2026-04-14T16:36:33.814206+05:30
Munnar,Kerala,10.0889,77.0595,29.7,51,0.0,857.7,9.75,31.0,80,23.9,14.4,4,5,7,1,2026-04-14T16:36:33.814214+05:30
Silchar,Assam,24.8333,92.7789,30.2,63,0.0,1002.7,8.7,32.8,148,66.1,49.8,3,5,4,1,2026-04-14T16:36:33.814222+05:30
Dibrugarh,Assam,27.4728,94.912,26.8,66,0.0,993.8,8.55,33.1,105,65.4,32.9,7,5,7,1,2026-04-14T16:36:33.814229+05:30
