city,state,latitude,longitude,temp,humidity,rain,pressure,uv_index,wind_gusts,aqi,pm10,pm2_5,no2,co,o3,so2,mosquito_risk,arthritis_risk,migraine_risk,frizz_risk,updated_at
Delhi,Delhi,28.6139,77.209,27.2,55,0.0,983.6,7.65,27.4,157,244.0,70.3,16.8,456.0,103.0,23.3,4,5,7,1,2026-05-11T05:25:06.928603+05:30
Mumbai,Maharashtra,19.076,72.8777,28.8,80,0.0,1004.7,7.9,50.0,91,49.5,24.7,21.1,473.0,55.0,15.9,7,5,4,1,2026-05-11T05:25:06.928655+05:30
Bangalore,Karnataka,12.9716,77.5946,21.5,95,0.0,909.3,8.0,41.0,61,25.0,23.9,13.5,244.0,52.0,7.6,3,5,7,1,2026-05-11T05:25:06.928672+05:30
Hyderabad,Telangana,17.385,78.4867,25.1,75,0.0,951.8,9.25,40.0,59,7.6,5.6,8.0,174.0,38.0,2.9,7,5,7,1,2026-05-11T05:25:06.928684+05:30
Chennai,Tamil Nadu,13.0827,80.2707,26.9,86,0.0,1004.6,8.6,40.0,20,7.8,6.5,10.5,362.0,33.0,2.7,7,5,4,1,2026-05-11T05:25:06.928694+05:30
Kolkata,West Bengal,22.5726,88.3639,22.6,94,0.0,1008.0,8.8,38.5,155,136.0,129.5,60.9,552.0,6.0,23.4,3,0,4,1,2026-05-11T05:25:06.928703+05:30
Pune,Maharashtra,18.5204,73.8567,26.2,63,0.0,945.2,8.5,39.6,68,37.3,28.3,30.2,306.0,49.0,15.5,7,5,7,1,2026-05-11T05:25:06.928711+05:30
Ahmedabad,Gujarat,23.0225,72.5714,31.8,35,0.0,998.8,8.15,35.6,61,25.3,12.6,3.9,171.0,59.0,4.4,0,5,7,0,2026-05-11T05:25:06.928723+05:30
Jaipur,Rajasthan,26.9124,75.7873,27.3,52,0.0,959.0,8.2,44.3,176,341.8,68.7,4.3,369.0,109.0,8.7,4,5,7,1,2026-05-11T05:25:06.928731+05:30
Lucknow,Uttar Pradesh,26.8467,80.9462,25.5,62,0.0,994.3,8.15,28.8,111,43.7,37.7,14.9,395.0,79.0,10.2,7,5,7,1,2026-05-11T05:25:06.928740+05:30
Kanpur,Uttar Pradesh,26.4499,80.3319,26.6,55,0.0,992.0,8.15,32.4,134,134.6,40.4,10.7,367.0,87.0,9.4,4,5,7,1,2026-05-11T05:25:06.928750+05:30
Chandigarh,Chandigarh,30.7333,76.7794,24.6,72,0.0,968.6,7.65,42.5,149,86.6,56.1,13.1,349.0,88.0,8.9,3,5,7,1,2026-05-11T05:25:06.928757+05:30
Srinagar,Jammu and Kashmir,34.0837,74.7973,13.1,94,0.0,842.1,8.85,32.8,107,58.6,38.4,15.1,355.0,63.0,3.5,3,10,7,0,2026-05-11T05:25:06.928766+05:30
Jammu,Jammu and Kashmir,32.7266,74.857,23.6,78,0.0,972.2,8.45,31.7,157,93.1,57.4,21.7,393.0,24.0,3.5,3,5,7,1,2026-05-11T05:25:06.928773+05:30
Amritsar,Punjab,31.634,74.8723,25.1,73,0.0,980.7,8.35,49.7,172,197.0,73.1,6.5,512.0,102.0,15.4,7,5,7,1,2026-05-11T05:25:06.928780+05:30
Ludhiana,Punjab,30.901,75.8573,26.6,65,0.0,978.5,7.9,36.7,176,283.1,78.2,8.1,488.0,101.0,8.5,7,5,7,1,2026-05-11T05:25:06.928787+05:30
Jalandhar,Punjab,31.326,75.5762,25.4,73,0.0,979.8,8.1,34.2,168,199.8,72.2,8.3,566.0,98.0,15.2,7,5,7,1,2026-05-11T05:25:06.928795+05:30
Dehradun,Uttarakhand,30.6284,78.0322,13.1,99,0.0,830.2,5.55,31.7,101,51.6,31.5,23.8,314.0,15.0,0.1,3,10,3,0,2026-05-11T05:25:06.928805+05:30
Shimla,Himachal Pradesh,31.1048,77.1734,12.9,86,0.0,784.0,6.35,42.5,152,129.0,65.7,18.4,351.0,78.0,8.3,3,10,7,0,2026-05-11T05:25:06.928813+05:30
Manali,Himachal Pradesh,32.2396,77.1887,12.4,78,0.1,818.4,9.5,37.1,60,22.8,13.9,30.6,194.0,100.0,0.3,6,5,7,0,2026-05-11T05:25:06.928820+05:30
Gurgaon,Haryana,28.4595,77.0266,26.2,57,0.0,981.7,7.75,31.3,694,761.8,118.3,13.2,401.0,98.0,19.3,4,5,7,1,2026-05-11T05:25:06.928827+05:30
Noida,Uttar Pradesh,28.5355,77.391,24.5,68,0.0,984.9,7.65,24.8,694,761.8,118.3,13.2,453.0,98.0,19.3,3,5,7,1,2026-05-11T05:25:06.928834+05:30
Ghaziabad,Uttar Pradesh,28.6692,77.4538,25.1,65,0.0,983.2,7.65,28.1,146,158.3,57.3,10.1,438.0,99.0,16.2,7,5,7,1,2026-05-11T05:25:06.928840+05:30
Faridabad,Haryana,28.4089,77.3178,26.2,60,0.0,984.2,7.7,25.6,694,761.8,118.3,13.2,421.0,98.0,19.3,4,5,7,1,2026-05-11T05:25:06.928847+05:30
Meerut,Uttar Pradesh,28.9845,77.7064,24.8,69,0.0,982.0,7.55,28.8,146,158.3,57.3,10.1,442.0,99.0,16.2,3,5,7,1,2026-05-11T05:25:06.928853+05:30
Agra,Uttar Pradesh,27.1767,78.0081,26.5,58,0.0,987.5,8.0,25.2,365,434.0,70.8,7.0,373.0,95.0,10.5,4,5,7,1,2026-05-11T05:25:06.928860+05:30
Varanasi,Uttar Pradesh,25.3176,82.9739,24.8,75,0.0,997.9,8.65,25.6,111,59.3,51.0,15.0,464.0,95.0,18.0,3,5,7,1,2026-05-11T05:25:06.928866+05:30
Prayagraj,Uttar Pradesh,25.4358,81.8463,25.8,59,0.0,996.2,8.55,27.0,116,58.0,50.5,15.6,464.0,94.0,16.4,4,5,7,1,2026-05-11T05:25:06.928876+05:30
Gorakhpur,Uttar Pradesh,26.7606,83.3732,24.0,71,0.0,998.7,8.5,31.0,102,54.1,47.6,14.3,488.0,87.0,12.6,3,5,7,1,2026-05-11T05:25:06.928882+05:30
Bareilly,Uttar Pradesh,28.367,79.4304,23.8,72,0.0,987.7,7.95,25.2,106,38.8,30.0,13.3,337.0,74.0,4.4,3,5,7,1,2026-05-11T05:25:06.928904+05:30
Aligarh,Uttar Pradesh,27.8974,78.088,25.5,62,0.0,985.7,7.8,29.2,186,294.3,66.1,11.0,365.0,78.0,13.7,7,5,7,1,2026-05-11T05:25:06.928912+05:30
Moradabad,Uttar Pradesh,28.8386,78.7733,24.0,73,0.0,984.7,7.75,26.3,125,49.4,42.0,16.0,374.0,75.0,6.4,3,5,7,1,2026-05-11T05:25:06.928918+05:30
Saharanpur,Uttar Pradesh,29.9637,77.546,24.6,71,0.0,976.1,7.35,32.0,150,82.0,61.0,25.7,494.0,39.0,8.1,3,5,7,1,2026-05-11T05:25:06.928924+05:30
Jhansi,Uttar Pradesh,25.4484,78.5685,26.1,59,0.0,977.1,8.45,31.3,113,48.4,35.0,4.5,355.0,96.0,8.9,4,5,7,1,2026-05-11T05:25:10.173576+05:30
Surat,Gujarat,21.1702,72.8311,29.5,50,0.0,1003.2,7.75,33.8,101,38.5,24.7,27.8,199.0,46.0,42.2,4,5,4,1,2026-05-11T05:25:10.173614+05:30
Vadodara,Gujarat,22.3072,73.1812,30.8,25,0.0,1000.9,8.1,35.6,76,26.1,14.9,8.5,184.0,54.0,7.7,0,5,4,0,2026-05-11T05:25:10.173625+05:30
Rajkot,Gujarat,22.3039,70.8022,25.5,96,0.0,991.8,7.7,39.2,53,35.2,11.6,6.3,144.0,54.0,4.6,7,5,7,1,2026-05-11T05:25:10.173634+05:30
Thane,Maharashtra,19.2183,72.9781,28.0,78,0.0,1004.1,7.9,47.2,91,49.5,24.7,21.1,516.0,55.0,15.9,7,5,4,1,2026-05-11T05:25:10.173642+05:30
Nagpur,Maharashtra,21.1458,79.0882,28.3,49,0.0,971.9,8.95,34.9,98,60.8,42.6,21.2,314.0,57.0,9.6,4,5,7,1,2026-05-11T05:25:10.173650+05:30
Nashik,Maharashtra,19.9975,73.7898,27.5,39,0.0,942.5,8.2,44.6,67,49.2,28.2,27.0,251.0,61.0,20.7,4,5,7,0,2026-05-11T05:25:10.173656+05:30
Aurangabad,Maharashtra,19.8762,75.3433,29.9,30,0.0,941.4,9.05,43.2,64,33.2,14.6,7.5,203.0,98.0,8.6,4,5,7,0,2026-05-11T05:25:10.173663+05:30
Solapur,Maharashtra,17.6599,75.9064,29.1,44,0.0,954.5,9.05,31.3,71,32.7,23.5,13.0,269.0,66.0,10.3,4,5,7,0,2026-05-11T05:25:10.173671+05:30
Kolhapur,Maharashtra,16.705,74.2433,24.9,76,0.0,945.2,7.75,48.6,105,42.1,33.2,22.8,204.0,36.0,6.8,3,5,7,1,2026-05-11T05:25:10.173678+05:30
Goa,Goa,15.2993,74.124,26.8,96,0.0,994.4,8.9,36.4,85,58.4,39.9,13.0,354.0,57.0,2.3,7,5,7,1,2026-05-11T05:25:10.173685+05:30
Jodhpur,Rajasthan,26.2389,73.0243,30.7,24,0.0,979.7,8.4,36.0,77,249.6,39.5,5.0,207.0,56.0,3.2,0,5,7,0,2026-05-11T05:25:10.173692+05:30
Udaipur,Rajasthan,24.5854,73.7125,29.6,24,0.0,944.2,8.85,33.8,43,52.4,14.4,5.8,235.0,54.0,4.8,4,5,7,0,2026-05-11T05:25:10.173700+05:30
Kota,Rajasthan,25.2138,75.8648,28.5,45,0.0,976.7,8.4,23.8,96,74.5,35.4,3.4,330.0,101.0,11.6,4,5,7,0,2026-05-11T05:25:10.173707+05:30
Bikaner,Rajasthan,28.0229,73.3119,28.8,38,0.0,978.4,8.3,68.4,105,63.1,32.6,3.9,315.0,76.0,5.5,4,5,7,0,2026-05-11T05:25:10.173713+05:30
Ajmer,Rajasthan,26.4499,74.6399,27.2,49,0.0,952.9,8.35,40.0,103,106.6,36.4,4.0,363.0,82.0,4.7,4,5,7,0,2026-05-11T05:25:10.173720+05:30
Gwalior,Madhya Pradesh,26.2183,78.1828,26.5,57,0.0,982.6,8.2,25.9,121,64.5,36.7,4.3,333.0,104.0,8.8,4,5,7,1,2026-05-11T05:25:10.173726+05:30
Indore,Madhya Pradesh,22.7196,75.8577,27.6,30,0.0,946.4,8.7,38.5,72,76.1,33.9,4.9,281.0,99.0,14.9,4,5,7,0,2026-05-11T05:25:10.173732+05:30
Bhopal,Madhya Pradesh,23.2599,77.4126,26.4,50,0.0,952.1,8.7,41.4,76,63.8,30.9,3.4,312.0,108.0,5.6,4,5,7,0,2026-05-11T05:25:10.173738+05:30
Jabalpur,Madhya Pradesh,23.1815,79.9864,24.2,57,0.0,959.9,8.85,34.2,84,47.1,29.6,11.1,316.0,83.0,8.0,0,5,7,0,2026-05-11T05:25:10.173744+05:30
Ujjain,Madhya Pradesh,23.1765,75.7885,27.0,34,0.0,951.8,8.65,44.3,73,75.0,37.1,6.2,295.0,94.0,18.1,4,5,7,0,2026-05-11T05:25:10.173752+05:30
Visakhapatnam,Andhra Pradesh,17.6868,83.2185,24.1,97,0.0,1003.0,9.1,39.6,73,34.3,31.5,36.9,1547.0,9.0,7.9,3,5,4,1,2026-05-11T05:25:10.173758+05:30
Vijayawada,Andhra Pradesh,16.5062,80.648,27.0,87,0.0,1001.1,9.0,39.6,46,19.2,17.7,14.4,185.0,24.0,4.2,7,5,4,1,2026-05-11T05:25:10.173764+05:30
Guntur,Andhra Pradesh,16.3067,80.4365,27.1,85,0.0,1002.2,9.1,35.3,47,14.3,13.1,13.8,175.0,24.0,5.9,7,5,4,1,2026-05-11T05:25:10.173771+05:30
Nellore,Andhra Pradesh,14.4426,79.9865,24.9,99,0.0,1003.7,9.15,36.4,21,6.3,4.6,4.7,291.0,40.0,2.7,3,5,4,1,2026-05-11T05:25:10.173778+05:30
Kurnool,Andhra Pradesh,15.8281,78.0373,26.9,70,0.0,975.2,8.15,39.2,49,4.8,3.6,4.9,154.0,34.0,1.5,7,5,7,1,2026-05-11T05:25:10.173785+05:30
Kakinada,Andhra Pradesh,16.9891,82.2475,25.9,90,0.0,1006.4,9.05,41.0,27,9.9,7.1,5.2,176.0,52.0,3.1,7,5,4,1,2026-05-11T05:25:10.173791+05:30
Tirupati,Andhra Pradesh,13.6288,79.4192,23.6,95,0.0,988.8,9.2,40.7,41,19.6,18.2,30.6,365.0,0.0,7.9,3,5,7,1,2026-05-11T05:25:10.173797+05:30
Warangal,Telangana,17.9689,79.5941,25.5,86,0.0,977.6,9.15,42.8,62,7.5,6.7,9.5,168.0,32.0,9.3,7,5,7,1,2026-05-11T05:25:10.173804+05:30
Nizamabad,Telangana,18.6725,78.0941,26.4,70,0.0,962.9,9.15,34.6,75,21.1,18.3,8.3,197.0,70.0,6.2,7,5,7,1,2026-05-11T05:25:10.173809+05:30
Mysore,Karnataka,12.2958,76.6396,22.2,97,0.0,925.9,9.3,40.7,62,26.7,23.8,22.9,245.0,48.0,8.4,3,5,7,1,2026-05-11T05:25:10.173815+05:30
Mangalore,Karnataka,12.9141,74.856,24.6,95,0.0,1004.2,8.45,40.7,65,25.7,19.5,9.0,232.0,63.0,4.3,3,5,4,1,2026-05-11T05:25:10.173822+05:30
Hubli-Dharwad,Karnataka,15.3647,75.124,25.2,70,0.0,938.0,9.1,50.4,73,32.7,28.4,7.4,238.0,73.0,2.1,7,5,7,1,2026-05-11T05:25:10.173829+05:30
Belgaum,Karnataka,15.8497,74.4977,23.4,80,0.0,922.8,8.8,48.6,93,40.2,25.2,14.1,228.0,63.0,6.6,3,5,7,1,2026-05-11T05:25:13.416065+05:30
Coimbatore,Tamil Nadu,11.0168,76.9558,22.8,100,0.0,959.1,9.25,30.2,63,37.1,33.4,21.8,462.0,41.0,8.4,3,5,7,1,2026-05-11T05:25:13.416108+05:30
Madurai,Tamil Nadu,9.9252,78.1198,24.7,93,0.0,990.3,9.1,33.8,60,31.5,30.5,34.7,305.0,6.0,6.7,3,5,7,1,2026-05-11T05:25:13.416124+05:30
Trichy,Tamil Nadu,10.7905,78.7047,25.1,98,0.0,996.8,9.15,27.0,65,41.7,40.9,48.4,420.0,0.0,9.1,7,5,7,1,2026-05-11T05:25:13.416136+05:30
Salem,Tamil Nadu,11.6643,78.146,24.4,96,0.0,974.8,9.2,35.6,62,32.5,31.2,28.2,418.0,34.0,13.5,3,5,7,1,2026-05-11T05:25:13.416148+05:30
Tirunelveli,Tamil Nadu,8.7139,77.7567,25.5,90,0.0,1000.5,9.05,24.1,49,14.8,14.6,13.2,448.0,26.0,2.1,7,5,4,1,2026-05-11T05:25:13.416159+05:30
Vellore,Tamil Nadu,12.9165,79.1325,23.4,99,0.0,982.1,9.1,32.4,55,18.9,17.3,20.1,375.0,17.0,7.4,3,5,7,1,2026-05-11T05:25:13.416171+05:30
Erode,Tamil Nadu,11.341,77.7172,25.1,91,0.0,986.7,9.15,20.2,63,31.7,30.2,31.6,461.0,38.0,10.5,7,5,7,1,2026-05-11T05:25:13.416184+05:30
Kochi,Kerala,9.9312,76.2673,25.6,94,0.0,1006.1,8.95,30.6,65,23.6,23.3,22.0,343.0,14.0,5.0,7,5,4,1,2026-05-11T05:25:13.416192+05:30
Thiruvananthapuram,Kerala,8.5241,76.9366,24.3,98,0.0,1005.5,8.85,30.6,42,7.0,6.3,4.7,278.0,85.0,2.7,3,5,4,1,2026-05-11T05:25:13.416201+05:30
Kozhikode,Kerala,11.2588,75.7804,24.2,96,0.0,1005.7,8.95,33.1,48,13.6,11.4,4.3,297.0,99.0,4.4,3,5,4,1,2026-05-11T05:25:13.416208+05:30
Thrissur,Kerala,10.5276,76.2144,24.2,97,0.0,1004.6,8.95,27.7,65,31.4,31.0,19.0,452.0,35.0,3.7,3,5,4,1,2026-05-11T05:25:13.416216+05:30
Kannur,Kerala,11.8745,75.3704,24.8,92,0.0,1004.9,8.85,33.1,53,15.2,12.6,6.7,278.0,70.0,2.4,3,5,4,1,2026-05-11T05:25:13.416224+05:30
Patna,Bihar,25.5941,85.1376,23.7,79,0.0,1001.8,8.7,28.1,128,68.5,61.5,15.3,383.0,92.0,14.9,3,5,4,1,2026-05-11T05:25:13.416232+05:30
Gaya,Bihar,24.7914,85.0002,23.9,75,0.0,994.7,8.8,23.8,117,68.5,59.8,20.5,417.0,69.0,27.2,3,5,7,1,2026-05-11T05:25:13.416239+05:30
Muzaffarpur,Bihar,26.1209,85.3647,23.0,83,0.0,1002.2,8.7,27.4,130,66.6,60.3,16.8,534.0,79.0,12.9,3,5,4,1,2026-05-11T05:25:13.416245+05:30
Bhagalpur,Bihar,25.2425,87.0117,22.8,89,0.0,1003.3,8.6,40.3,138,66.6,58.8,16.0,440.0,110.0,17.1,3,5,4,1,2026-05-11T05:25:13.416251+05:30
Ranchi,Jharkhand,23.3441,85.3096,20.2,89,0.0,937.9,9.25,33.8,93,60.5,41.6,13.3,251.0,90.0,20.0,3,5,7,1,2026-05-11T05:25:13.416258+05:30
Jamshedpur,Jharkhand,22.8046,86.2029,21.6,93,0.0,992.2,9.0,30.6,118,68.2,59.8,47.2,461.0,29.0,31.4,3,5,7,1,2026-05-11T05:25:13.416264+05:30
Dhanbad,Jharkhand,23.7957,86.4304,21.6,88,0.0,981.3,8.95,30.2,162,107.8,99.9,64.0,482.0,25.0,74.4,3,5,7,1,2026-05-11T05:25:13.416271+05:30
Bokaro,Jharkhand,23.6693,86.1511,21.4,92,0.0,985.1,9.0,31.7,157,112.9,102.4,67.2,2927.0,22.0,71.9,3,5,7,1,2026-05-11T05:25:13.416278+05:30
Bhubaneswar,Odisha,20.2961,85.8245,25.0,93,0.0,1003.1,9.1,33.1,77,59.3,53.8,35.0,347.0,16.0,10.7,7,5,4,1,2026-05-11T05:25:13.416284+05:30
Cuttack,Odisha,20.4625,85.8828,25.1,93,0.0,1004.9,9.15,34.2,77,59.3,53.8,35.0,330.0,16.0,10.7,7,5,4,1,2026-05-11T05:25:13.416290+05:30
Rourkela,Odisha,22.2604,84.8536,22.6,85,0.0,986.0,8.95,43.6,118,70.3,54.0,29.6,354.0,69.0,52.0,3,5,7,1,2026-05-11T05:25:13.416297+05:30
Raipur,Chhattisgarh,21.2514,81.6296,27.1,57,0.0,973.9,9.0,29.5,106,40.9,32.5,22.5,295.0,65.0,5.6,4,5,7,1,2026-05-11T05:25:13.416304+05:30
Bhilai,Chhattisgarh,21.1938,81.3509,26.1,62,0.0,974.3,9.0,30.6,116,51.5,40.0,36.3,253.0,49.0,6.4,7,5,7,1,2026-05-11T05:25:13.416310+05:30
Guwahati,Assam,26.1158,91.7086,21.2,90,0.0,1004.2,8.2,25.9,97,29.4,22.5,7.4,312.0,59.0,1.2,3,5,4,1,2026-05-11T05:25:13.416316+05:30
Agartala,Tripura,23.8315,91.2868,22.6,97,0.0,1008.8,8.8,20.5,128,53.6,50.1,14.1,367.0,72.0,6.3,3,0,4,1,2026-05-11T05:25:13.416322+05:30
Shillong,Meghalaya,25.5788,91.8933,14.8,88,0.0,857.3,8.4,27.4,87,28.9,21.9,8.9,345.0,56.0,2.2,3,10,7,0,2026-05-11T05:25:13.416329+05:30
Imphal,Manipur,24.817,93.9368,18.4,91,0.0,924.6,8.65,35.6,98,40.5,34.6,27.1,282.0,22.0,4.0,3,10,7,1,2026-05-11T05:25:13.416336+05:30
Aizawl,Mizoram,23.7271,92.7176,15.1,97,0.0,892.7,9.0,31.3,100,18.0,15.0,2.3,422.0,78.0,1.2,3,10,7,0,2026-05-11T05:25:13.416343+05:30
Kohima,Nagaland,25.6701,94.1077,15.8,94,0.0,856.1,6.15,25.9,64,13.2,9.1,3.7,281.0,76.0,0.9,3,10,7,0,2026-05-11T05:25:13.416350+05:30
Gangtok,Sikkim,27.3314,88.6138,9.4,97,0.0,835.7,8.95,45.7,52,15.9,12.4,9.5,128.0,77.0,1.3,3,10,7,0,2026-05-11T05:25:13.416356+05:30
Siliguri,West Bengal,26.7271,88.3953,20.0,80,0.0,995.5,8.55,26.3,95,54.6,42.3,29.6,505.0,48.0,5.8,3,5,7,1,2026-05-11T05:25:16.672735+05:30
Durgapur,West Bengal,23.5204,87.3119,21.5,96,0.0,997.1,8.9,42.1,173,135.5,125.3,42.4,867.0,54.0,42.6,3,5,7,1,2026-05-11T05:25:16.672771+05:30
Asansol,West Bengal,23.6739,86.9524,21.5,99,0.0,995.5,8.95,25.9,164,106.2,98.3,44.3,745.0,42.0,56.9,3,5,7,1,2026-05-11T05:25:16.672783+05:30
Pondicherry,Puducherry,11.9139,79.8145,26.0,93,0.0,1005.5,9.1,31.3,21,6.5,5.1,5.3,306.0,41.0,0.6,7,5,4,1,2026-05-11T05:25:16.672792+05:30
Port Blair,Andaman and Nicobar Islands,11.6234,92.7265,26.6,89,0.0,1005.8,8.85,32.0,30,3.3,2.2,0.3,141.0,66.0,0.1,7,5,4,1,2026-05-11T05:25:16.672801+05:30
Haridwar,Uttarakhand,29.9457,78.1642,21.8,81,0.0,974.7,7.45,33.1,138,65.4,51.5,26.4,347.0,32.0,4.5,3,5,7,1,2026-05-11T05:25:16.672808+05:30
Rishikesh,Uttarakhand,30.0869,78.2676,20.2,86,0.0,967.5,6.15,27.4,117,71.2,46.9,15.7,402.0,58.0,2.7,3,5,7,1,2026-05-11T05:25:16.672816+05:30
Nainital,Uttarakhand,29.3919,79.4542,13.4,87,0.0,806.3,4.4,31.7,99,51.6,40.9,20.5,276.0,58.0,4.6,3,10,3,0,2026-05-11T05:25:16.672823+05:30
Mussoorie,Uttarakhand,30.4599,78.0664,13.2,95,0.0,803.5,4.85,38.2,130,73.3,50.2,33.2,308.0,18.0,6.0,3,10,3,0,2026-05-11T05:25:16.672831+05:30
Dharamshala,Himachal Pradesh,32.219,76.3234,16.5,91,0.1,867.0,8.35,38.5,99,48.5,23.7,10.0,322.0,52.0,0.5,6,10,7,0,2026-05-11T05:25:16.672838+05:30
Dalhousie,Himachal Pradesh,32.5387,75.971,11.7,98,0.0,802.3,8.6,31.0,152,100.6,52.2,24.6,364.0,28.0,2.0,3,10,7,0,2026-05-11T05:25:16.672846+05:30
Patiala,Punjab,30.3398,76.3869,25.6,68,0.0,978.3,7.55,34.9,474,685.5,104.3,6.7,484.0,105.0,9.4,7,5,7,1,2026-05-11T05:25:16.672854+05:30
Bhatinda,Punjab,30.211,74.9455,27.7,57,0.0,982.8,8.2,55.1,431,683.6,147.1,6.1,364.0,113.0,14.9,4,5,7,1,2026-05-11T05:25:16.672861+05:30
Rohtak,Haryana,28.8955,76.6066,26.1,59,0.0,982.0,7.65,28.4,365,523.4,97.1,16.1,498.0,103.0,25.1,4,5,7,1,2026-05-11T05:25:16.672868+05:30
Panipat,Haryana,29.3909,76.9635,25.1,65,0.0,980.8,7.5,28.8,632,860.5,120.1,13.6,434.0,99.0,18.3,7,5,7,1,2026-05-11T05:25:16.672875+05:30
Mathura,Uttar Pradesh,27.4924,77.6737,25.9,61,0.0,986.7,7.95,26.6,379,470.3,82.4,9.0,342.0,75.0,9.3,7,5,7,1,2026-05-11T05:25:16.672882+05:30
Vrindavan,Uttar Pradesh,27.5823,77.7027,26.0,60,0.0,987.1,7.9,27.7,379,470.3,82.4,9.0,342.0,75.0,9.3,4,5,7,1,2026-05-11T05:25:16.672906+05:30
Ayodhya,Uttar Pradesh,26.7922,82.1998,23.6,70,0.0,996.7,8.3,33.5,118,57.7,52.5,18.4,433.0,73.0,10.5,3,5,7,1,2026-05-11T05:25:16.672913+05:30
Ratlam,Madhya Pradesh,23.3315,75.0367,27.5,33,0.0,952.1,8.55,34.9,65,73.3,38.6,7.4,325.0,87.0,15.2,4,5,7,0,2026-05-11T05:25:16.672921+05:30
Sagar,Madhya Pradesh,23.8388,78.7378,25.2,52,0.0,949.1,8.75,41.0,85,37.1,26.8,6.4,310.0,119.0,8.8,4,5,7,0,2026-05-11T05:25:16.672928+05:30
Satna,Madhya Pradesh,24.6005,80.8322,25.1,53,0.0,970.6,8.75,32.0,108,41.0,30.3,9.9,335.0,113.0,8.7,4,5,7,0,2026-05-11T05:25:16.672935+05:30
Akola,Maharashtra,20.7002,77.0082,28.1,38,0.0,972.7,8.9,44.6,87,63.3,36.0,33.0,333.0,18.0,4.9,4,5,7,0,2026-05-11T05:25:16.672942+05:30
Amravati,Maharashtra,20.9374,77.7796,28.2,40,0.0,965.5,8.9,43.2,88,64.3,36.8,32.3,335.0,26.0,6.3,4,5,7,0,2026-05-11T05:25:16.672949+05:30
Latur,Maharashtra,18.4088,76.5604,27.2,51,0.0,937.9,9.05,40.0,78,32.7,22.4,11.6,282.0,70.0,7.6,4,5,7,1,2026-05-11T05:25:16.672956+05:30
Nanded,Maharashtra,19.1383,77.3091,27.4,52,0.0,966.6,9.0,34.2,83,30.6,24.1,12.1,305.0,66.0,5.9,4,5,7,1,2026-05-11T05:25:16.672963+05:30
Gulbarga,Karnataka,17.3297,76.8343,27.6,55,0.0,956.8,9.1,34.2,63,20.5,16.5,9.2,209.0,62.0,7.1,4,5,7,1,2026-05-11T05:25:16.672969+05:30
Bidar,Karnataka,17.9104,77.5199,25.1,68,0.0,933.6,9.15,34.2,68,17.6,14.8,7.3,219.0,67.0,3.9,7,5,7,1,2026-05-11T05:25:16.672975+05:30
Hospet,Karnataka,15.2689,76.3909,24.2,75,0.0,953.2,9.15,31.7,67,29.8,22.7,15.0,251.0,53.0,5.1,3,5,7,1,2026-05-11T05:25:16.672981+05:30
Tirupur,Tamil Nadu,11.1085,77.3411,24.5,97,0.0,972.8,9.25,29.5,70,44.6,41.8,42.1,392.0,25.0,12.1,3,5,7,1,2026-05-11T05:25:16.672987+05:30
Alappuzha,Kerala,9.4981,76.3388,24.8,97,0.0,1006.3,8.8,32.4,56,16.9,16.2,13.7,256.0,55.0,5.3,3,5,4,1,2026-05-11T05:25:16.672994+05:30
Munnar,Kerala,10.0889,77.0595,15.9,88,0.0,853.1,9.45,22.0,42,12.7,11.9,9.2,184.0,33.0,1.4,3,10,7,0,2026-05-11T05:25:16.673001+05:30
Silchar,Assam,24.8333,92.7789,22.1,98,0.1,1008.6,8.8,22.7,150,49.9,43.1,9.7,577.0,76.0,7.0,6,0,4,1,2026-05-11T05:25:16.673007+05:30
Dibrugarh,Assam,27.4728,94.912,21.9,98,0.5,999.3,4.35,24.1,74,26.7,23.1,11.9,310.0,56.0,1.4,6,5,3,1,2026-05-11T05:25:16.673014+05:30
