city,state,latitude,longitude,temp,humidity,rain,pressure,uv_index,wind_gusts,aqi,pm10,pm2_5,mosquito_risk,arthritis_risk,migraine_risk,frizz_risk,updated_at
Delhi,Delhi,28.6139,77.209,18.7,82,0.0,985.9,6.1,53.6,158,361.4,58.9,3,10,7,0,2026-03-16T01:00:52.314633+05:30
Mumbai,Maharashtra,19.076,72.8777,27.1,86,0.0,1009.7,7.7,18.4,104,61.7,29.3,7,0,4,1,2026-03-16T01:00:52.314668+05:30
Bangalore,Karnataka,12.9716,77.5946,21.8,64,0.0,912.1,9.35,28.4,82,27.4,26.8,3,5,7,0,2026-03-16T01:00:52.314682+05:30
Hyderabad,Telangana,17.385,78.4867,23.2,71,0.0,954.0,8.75,29.5,91,29.1,25.8,3,5,7,1,2026-03-16T01:00:52.314691+05:30
Chennai,Tamil Nadu,13.0827,80.2707,25.5,82,0.0,1008.8,9.1,33.1,42,10.8,8.0,7,0,4,1,2026-03-16T01:00:52.314699+05:30
Kolkata,West Bengal,22.5726,88.3639,25.1,92,0.0,1006.3,8.05,32.8,59,22.4,18.3,7,5,4,1,2026-03-16T01:00:52.314707+05:30
Pune,Maharashtra,18.5204,73.8567,19.6,69,0.0,949.1,8.25,40.3,121,48.1,36.1,3,5,7,0,2026-03-16T01:00:52.314718+05:30
Ahmedabad,Gujarat,23.0225,72.5714,23.6,60,0.0,1003.0,7.15,27.0,71,50.1,26.6,0,5,4,0,2026-03-16T01:00:52.314725+05:30
Jaipur,Rajasthan,26.9124,75.7873,24.8,24,0.0,959.4,6.9,34.9,125,115.0,30.5,0,5,7,0,2026-03-16T01:00:52.314732+05:30
Lucknow,Uttar Pradesh,26.8467,80.9462,19.4,73,0.0,994.8,6.65,65.9,110,35.7,28.5,3,5,7,0,2026-03-16T01:00:52.314739+05:30
Kanpur,Uttar Pradesh,26.4499,80.3319,19.7,73,0.0,992.7,6.7,41.0,158,183.5,39.1,3,5,7,0,2026-03-16T01:00:52.314745+05:30
Chandigarh,Chandigarh,30.7333,76.7794,15.3,90,0.0,971.4,5.9,51.8,74,22.9,16.7,3,10,3,0,2026-03-16T01:00:52.314752+05:30
Srinagar,Jammu and Kashmir,34.0837,74.7973,5.2,96,0.0,838.1,4.2,25.6,83,9.7,9.5,3,10,3,0,2026-03-16T01:00:52.314758+05:30
Jammu,Jammu and Kashmir,32.7266,74.857,14.1,92,0.0,974.7,4.9,41.8,89,37.0,24.7,3,10,3,0,2026-03-16T01:00:52.314764+05:30
Amritsar,Punjab,31.634,74.8723,14.0,95,0.0,983.0,6.45,31.3,104,36.3,19.5,3,10,7,0,2026-03-16T01:00:52.314771+05:30
Ludhiana,Punjab,30.901,75.8573,15.1,95,0.0,981.1,6.2,43.9,110,100.8,37.1,3,10,7,0,2026-03-16T01:00:52.314776+05:30
Jalandhar,Punjab,31.326,75.5762,14.4,92,0.0,982.3,6.3,42.1,104,31.1,20.5,3,10,7,0,2026-03-16T01:00:52.314787+05:30
Dehradun,Uttarakhand,30.6284,78.0322,9.1,83,0.0,828.7,6.3,40.3,53,25.6,8.3,3,10,7,0,2026-03-16T01:00:52.314793+05:30
Shimla,Himachal Pradesh,31.1048,77.1734,6.7,85,0.0,781.3,6.3,50.4,57,15.8,7.4,3,10,7,0,2026-03-16T01:00:52.314799+05:30
Manali,Himachal Pradesh,32.2396,77.1887,8.1,91,0.7,815.2,7.1,37.1,48,8.4,3.6,6,10,7,0,2026-03-16T01:00:52.314806+05:30
Gurgaon,Haryana,28.4595,77.0266,18.1,85,0.0,983.9,6.2,42.5,1240,2019.1,231.4,3,10,7,0,2026-03-16T01:00:52.314812+05:30
Noida,Uttar Pradesh,28.5355,77.391,19.1,79,0.0,987.3,6.15,45.4,1240,2019.1,231.4,3,5,7,0,2026-03-16T01:00:52.314818+05:30
Ghaziabad,Uttar Pradesh,28.6692,77.4538,17.9,88,0.0,986.3,6.1,58.7,147,248.7,41.0,3,10,7,0,2026-03-16T01:00:52.314824+05:30
Faridabad,Haryana,28.4089,77.3178,18.8,79,0.0,985.8,6.15,39.2,1240,2019.1,231.4,3,5,7,0,2026-03-16T01:00:52.314830+05:30
Meerut,Uttar Pradesh,28.9845,77.7064,17.5,86,0.0,985.2,6.0,59.4,147,248.7,41.0,3,10,3,0,2026-03-16T01:00:52.314836+05:30
Agra,Uttar Pradesh,27.1767,78.0081,18.6,87,0.0,988.4,6.5,38.2,866,942.5,123.9,3,10,7,1,2026-03-16T01:00:52.314842+05:30
Varanasi,Uttar Pradesh,25.3176,82.9739,21.7,70,0.0,999.1,7.35,37.1,143,64.3,51.6,3,5,7,0,2026-03-16T01:00:52.314850+05:30
Prayagraj,Uttar Pradesh,25.4358,81.8463,21.3,71,0.0,997.4,7.2,36.0,119,37.5,29.5,3,5,7,0,2026-03-16T01:00:52.314856+05:30
Gorakhpur,Uttar Pradesh,26.7606,83.3732,20.2,67,0.0,998.4,6.85,33.5,151,75.9,62.2,3,5,7,0,2026-03-16T01:00:52.314862+05:30
Bareilly,Uttar Pradesh,28.367,79.4304,18.4,91,0.0,987.4,6.3,74.5,132,33.9,19.2,3,10,7,1,2026-03-16T01:00:52.314868+05:30
Aligarh,Uttar Pradesh,27.8974,78.088,17.8,87,0.0,985.9,6.25,37.8,177,655.7,88.7,3,10,7,0,2026-03-16T01:00:52.314874+05:30
Moradabad,Uttar Pradesh,28.8386,78.7733,18.2,88,0.0,985.8,6.15,85.0,135,38.5,21.4,3,10,7,1,2026-03-16T01:00:52.314882+05:30
Saharanpur,Uttar Pradesh,29.9637,77.546,15.5,88,0.0,979.6,5.75,37.8,131,38.1,22.7,3,10,3,0,2026-03-16T01:00:52.314887+05:30
Jhansi,Uttar Pradesh,25.4484,78.5685,22.4,66,0.0,977.5,7.15,34.9,80,44.7,23.7,3,5,7,0,2026-03-16T01:00:55.642718+05:30
Surat,Gujarat,21.1702,72.8311,26.0,87,0.0,1007.7,7.4,26.3,127,45.2,26.8,7,5,4,1,2026-03-16T01:00:55.642746+05:30
Vadodara,Gujarat,22.3072,73.1812,25.0,78,0.0,1005.2,7.1,23.4,89,41.4,28.6,7,5,4,1,2026-03-16T01:00:55.642758+05:30
Rajkot,Gujarat,22.3039,70.8022,24.6,76,0.0,995.6,7.3,31.3,69,39.6,20.9,3,5,7,1,2026-03-16T01:00:55.642768+05:30
Thane,Maharashtra,19.2183,72.9781,25.2,92,0.0,1009.2,7.7,31.3,104,61.7,29.3,7,0,4,1,2026-03-16T01:00:55.642777+05:30
Nagpur,Maharashtra,21.1458,79.0882,26.4,61,0.0,973.2,7.95,22.0,108,39.0,35.5,7,5,7,1,2026-03-16T01:00:55.642785+05:30
Nashik,Maharashtra,19.9975,73.7898,20.4,66,0.0,945.8,7.7,29.5,72,65.7,32.9,3,5,7,0,2026-03-16T01:00:55.642793+05:30
Aurangabad,Maharashtra,19.8762,75.3433,24.1,53,0.0,944.6,8.05,27.0,75,39.8,26.8,0,5,7,0,2026-03-16T01:00:55.642801+05:30
Solapur,Maharashtra,17.6599,75.9064,24.5,53,0.0,957.9,8.65,23.0,105,49.8,45.5,0,5,7,0,2026-03-16T01:00:55.642809+05:30
Kolhapur,Maharashtra,16.705,74.2433,21.5,74,0.0,948.7,8.75,38.2,125,40.4,30.6,3,5,7,1,2026-03-16T01:00:55.642816+05:30
Goa,Goa,15.2993,74.124,27.8,78,0.0,999.4,8.8,31.7,116,53.3,37.7,7,5,7,1,2026-03-16T01:00:55.642824+05:30
Jodhpur,Rajasthan,26.2389,73.0243,25.1,23,0.0,983.3,7.2,36.7,107,199.3,33.5,4,5,7,0,2026-03-16T01:00:55.642832+05:30
Udaipur,Rajasthan,24.5854,73.7125,22.6,24,0.0,946.9,7.85,34.6,64,42.5,14.7,0,5,7,0,2026-03-16T01:00:55.642840+05:30
Kota,Rajasthan,25.2138,75.8648,22.3,38,0.0,978.1,7.2,29.2,65,38.2,22.4,0,5,7,0,2026-03-16T01:00:55.642848+05:30
Bikaner,Rajasthan,28.0229,73.3119,25.4,33,0.0,982.1,6.9,25.9,53,15.3,6.8,4,5,7,0,2026-03-16T01:00:55.642855+05:30
Ajmer,Rajasthan,26.4499,74.6399,24.1,38,0.0,954.7,7.15,39.2,75,57.6,22.2,0,5,7,0,2026-03-16T01:00:55.642863+05:30
Gwalior,Madhya Pradesh,26.2183,78.1828,22.3,69,0.0,983.2,6.85,32.4,105,115.9,40.3,3,5,7,1,2026-03-16T01:00:55.642871+05:30
Indore,Madhya Pradesh,22.7196,75.8577,22.4,46,0.0,948.0,7.75,32.4,65,32.0,19.6,0,5,7,0,2026-03-16T01:00:55.642878+05:30
Bhopal,Madhya Pradesh,23.2599,77.4126,22.0,51,0.0,953.2,7.65,32.0,61,38.8,22.4,0,5,7,0,2026-03-16T01:00:55.642886+05:30
Jabalpur,Madhya Pradesh,23.1815,79.9864,23.7,55,0.0,960.8,7.8,38.2,65,29.7,21.8,0,5,7,0,2026-03-16T01:00:55.642893+05:30
Ujjain,Madhya Pradesh,23.1765,75.7885,22.5,48,0.0,953.6,7.65,31.0,69,31.9,18.1,0,5,7,0,2026-03-16T01:00:55.642901+05:30
Visakhapatnam,Andhra Pradesh,17.6868,83.2185,25.2,87,0.0,1006.5,8.7,42.1,63,20.0,16.0,7,5,4,1,2026-03-16T01:00:55.642908+05:30
Vijayawada,Andhra Pradesh,16.5062,80.648,24.2,90,0.0,1005.0,8.8,27.7,56,16.4,14.1,3,5,4,1,2026-03-16T01:00:55.642916+05:30
Guntur,Andhra Pradesh,16.3067,80.4365,24.1,89,0.0,1006.0,8.8,29.2,53,13.9,11.9,3,5,4,1,2026-03-16T01:00:55.642923+05:30
Nellore,Andhra Pradesh,14.4426,79.9865,24.5,89,0.0,1007.7,8.95,32.8,51,8.3,6.7,3,5,4,1,2026-03-16T01:00:55.642932+05:30
Kurnool,Andhra Pradesh,15.8281,78.0373,27.3,48,0.0,977.8,8.55,21.6,84,27.4,24.6,4,5,7,0,2026-03-16T01:00:55.642977+05:30
Kakinada,Andhra Pradesh,16.9891,82.2475,23.5,90,0.0,1010.3,8.7,29.9,57,16.7,12.0,3,0,4,1,2026-03-16T01:00:55.642990+05:30
Tirupati,Andhra Pradesh,13.6288,79.4192,23.3,88,0.0,993.5,9.1,24.5,66,20.0,18.6,3,5,7,1,2026-03-16T01:00:55.642996+05:30
Warangal,Telangana,17.9689,79.5941,25.2,78,0.0,979.6,8.6,33.1,74,18.2,17.1,7,5,7,1,2026-03-16T01:00:55.643003+05:30
Nizamabad,Telangana,18.6725,78.0941,26.1,56,0.0,965.1,8.45,27.0,125,51.2,45.8,4,5,7,1,2026-03-16T01:00:55.643008+05:30
Mysore,Karnataka,12.2958,76.6396,21.8,89,0.0,929.0,9.35,32.8,90,34.5,32.1,3,5,7,1,2026-03-16T01:00:55.643014+05:30
Mangalore,Karnataka,12.9141,74.856,28.9,78,0.0,1007.9,9.0,24.5,83,29.3,25.1,7,5,4,1,2026-03-16T01:00:55.643020+05:30
Hubli-Dharwad,Karnataka,15.3647,75.124,22.8,88,0.0,942.0,8.95,37.4,109,36.0,34.2,3,5,7,1,2026-03-16T01:00:55.643025+05:30
Belgaum,Karnataka,15.8497,74.4977,21.9,95,0.0,926.6,9.0,37.4,118,45.3,34.1,3,5,7,1,2026-03-16T01:00:58.972773+05:30
Coimbatore,Tamil Nadu,11.0168,76.9558,23.5,89,0.0,962.7,9.3,42.5,70,32.9,30.3,3,5,7,1,2026-03-16T01:00:58.972800+05:30
Madurai,Tamil Nadu,9.9252,78.1198,25.0,78,0.0,994.7,9.3,19.1,53,14.8,13.9,7,5,7,1,2026-03-16T01:00:58.972812+05:30
Trichy,Tamil Nadu,10.7905,78.7047,24.8,92,0.0,1001.3,9.2,21.2,52,12.0,10.9,3,5,4,1,2026-03-16T01:00:58.972822+05:30
Salem,Tamil Nadu,11.6643,78.146,24.4,85,0.0,978.4,9.25,13.7,70,21.2,20.6,3,5,7,1,2026-03-16T01:00:58.972831+05:30
Tirunelveli,Tamil Nadu,8.7139,77.7567,25.9,82,0.0,1004.6,9.3,46.1,50,16.7,15.4,7,5,4,1,2026-03-16T01:00:58.972839+05:30
Vellore,Tamil Nadu,12.9165,79.1325,22.6,79,0.0,986.1,9.15,36.7,88,32.7,30.9,3,5,7,1,2026-03-16T01:00:58.972846+05:30
Erode,Tamil Nadu,11.341,77.7172,25.5,78,0.0,990.6,9.25,24.5,50,11.1,10.4,7,5,7,1,2026-03-16T01:00:58.972853+05:30
Kochi,Kerala,9.9312,76.2673,27.8,79,0.0,1009.9,9.1,34.6,75,45.4,44.7,7,0,4,1,2026-03-16T01:00:58.972861+05:30
Thiruvananthapuram,Kerala,8.5241,76.9366,27.8,80,0.0,1008.9,9.15,30.6,60,11.7,8.9,7,0,4,1,2026-03-16T01:00:58.972868+05:30
Kozhikode,Kerala,11.2588,75.7804,27.9,83,0.0,1009.0,9.0,29.2,67,25.6,21.5,7,0,4,1,2026-03-16T01:00:58.972876+05:30
Thrissur,Kerala,10.5276,76.2144,26.9,86,0.0,1008.1,9.05,37.8,74,39.9,38.0,7,0,4,1,2026-03-16T01:00:58.972884+05:30
Kannur,Kerala,11.8745,75.3704,27.4,84,0.0,1008.3,9.0,31.7,79,25.6,22.6,7,0,4,1,2026-03-16T01:00:58.972892+05:30
Patna,Bihar,25.5941,85.1376,23.3,83,0.0,1001.6,7.55,38.2,159,81.7,66.1,3,5,4,1,2026-03-16T01:00:58.972899+05:30
Gaya,Bihar,24.7914,85.0002,22.3,82,0.0,995.0,7.65,68.0,138,58.0,43.7,3,5,7,1,2026-03-16T01:00:58.972907+05:30
Muzaffarpur,Bihar,26.1209,85.3647,21.2,83,0.0,1001.9,7.5,29.9,160,98.0,82.0,3,5,4,1,2026-03-16T01:00:58.972915+05:30
Bhagalpur,Bihar,25.2425,87.0117,23.2,89,0.0,1002.4,7.55,41.8,151,71.2,57.7,3,5,4,1,2026-03-16T01:00:58.972923+05:30
Ranchi,Jharkhand,23.3441,85.3096,20.8,88,0.0,938.2,7.7,62.6,137,51.7,46.7,3,5,7,1,2026-03-16T01:00:58.972930+05:30
Jamshedpur,Jharkhand,22.8046,86.2029,23.8,82,0.0,991.5,8.05,55.4,129,62.4,54.7,3,5,7,1,2026-03-16T01:00:58.972938+05:30
Dhanbad,Jharkhand,23.7957,86.4304,23.3,82,0.0,979.8,7.55,32.0,161,78.5,72.6,3,5,7,1,2026-03-16T01:00:58.973001+05:30
Bokaro,Jharkhand,23.6693,86.1511,23.8,75,0.0,983.9,7.25,31.7,154,68.5,62.4,3,5,7,1,2026-03-16T01:00:58.973013+05:30
Bhubaneswar,Odisha,20.2961,85.8245,25.2,86,0.0,1004.3,8.5,37.8,57,15.1,12.3,7,5,4,1,2026-03-16T01:00:58.973022+05:30
Cuttack,Odisha,20.4625,85.8828,25.0,88,0.0,1006.2,8.5,40.7,57,15.1,12.3,7,5,4,1,2026-03-16T01:00:58.973030+05:30
Rourkela,Odisha,22.2604,84.8536,25.1,80,0.0,986.0,8.0,52.2,149,63.3,55.6,7,5,7,1,2026-03-16T01:00:58.973037+05:30
Raipur,Chhattisgarh,21.2514,81.6296,24.1,66,0.0,975.5,8.25,46.4,135,56.6,51.8,3,5,7,1,2026-03-16T01:00:58.973045+05:30
Bhilai,Chhattisgarh,21.1938,81.3509,25.1,65,0.0,975.7,8.25,45.0,129,56.9,52.0,7,5,7,1,2026-03-16T01:00:58.973053+05:30
Guwahati,Assam,26.1158,91.7086,20.6,91,0.0,1004.2,7.15,34.2,67,20.1,16.7,3,5,4,1,2026-03-16T01:00:58.973061+05:30
Agartala,Tripura,23.8315,91.2868,21.2,95,0.0,1008.7,7.85,45.0,56,15.3,13.5,3,0,4,1,2026-03-16T01:00:58.973069+05:30
Shillong,Meghalaya,25.5788,91.8933,12.4,95,0.0,855.3,7.9,69.8,52,6.1,5.5,3,10,7,0,2026-03-16T01:00:58.973077+05:30
Imphal,Manipur,24.817,93.9368,14.7,95,2.0,925.0,8.15,77.4,83,44.0,37.1,6,10,7,0,2026-03-16T01:00:58.973085+05:30
Aizawl,Mizoram,23.7271,92.7176,15.7,89,0.0,893.8,8.1,63.0,79,26.9,20.7,3,10,7,0,2026-03-16T01:00:58.973093+05:30
Kohima,Nagaland,25.6701,94.1077,14.2,78,0.0,854.4,7.05,96.5,69,33.5,27.5,3,5,7,0,2026-03-16T01:00:58.973102+05:30
Gangtok,Sikkim,27.3314,88.6138,11.6,78,0.0,834.9,7.8,20.9,102,62.2,40.6,3,5,7,0,2026-03-16T01:00:58.973109+05:30
Siliguri,West Bengal,26.7271,88.3953,19.0,85,0.0,994.6,6.75,30.6,129,89.6,62.9,3,10,7,1,2026-03-16T01:01:02.305021+05:30
Durgapur,West Bengal,23.5204,87.3119,23.6,93,0.0,995.3,7.85,42.5,138,78.5,74.3,3,5,7,1,2026-03-16T01:01:02.305049+05:30
Asansol,West Bengal,23.6739,86.9524,23.8,90,0.0,993.9,7.8,35.6,150,72.2,67.1,3,5,7,1,2026-03-16T01:01:02.305061+05:30
Pondicherry,Puducherry,11.9139,79.8145,24.3,93,0.0,1010.0,9.05,32.0,33,8.7,5.9,3,0,4,1,2026-03-16T01:01:02.305070+05:30
Port Blair,Andaman and Nicobar Islands,11.6234,92.7265,27.7,79,0.0,1007.9,9.0,20.2,76,15.5,12.5,7,5,4,1,2026-03-16T01:01:02.305079+05:30
Haridwar,Uttarakhand,29.9457,78.1642,17.5,79,0.2,978.7,5.85,36.0,81,26.6,18.0,6,5,3,0,2026-03-16T01:01:02.305087+05:30
Rishikesh,Uttarakhand,30.0869,78.2676,17.0,77,0.0,970.7,5.95,29.5,66,25.6,15.0,3,5,3,0,2026-03-16T01:01:02.305096+05:30
Nainital,Uttarakhand,29.3919,79.4542,15.2,47,0.0,804.3,6.75,83.9,72,26.0,15.5,0,5,7,0,2026-03-16T01:01:02.305104+05:30
Mussoorie,Uttarakhand,30.4599,78.0664,10.5,73,0.0,801.3,6.25,47.9,72,25.4,15.3,3,5,7,0,2026-03-16T01:01:02.305112+05:30
Dharamshala,Himachal Pradesh,32.219,76.3234,12.4,74,0.0,867.8,6.05,32.8,45,8.8,4.1,3,5,7,0,2026-03-16T01:01:02.305120+05:30
Dalhousie,Himachal Pradesh,32.5387,75.971,9.0,67,0.0,800.6,3.9,31.7,72,41.1,27.5,3,5,3,0,2026-03-16T01:01:02.305129+05:30
Patiala,Punjab,30.3398,76.3869,14.9,89,0.0,980.7,5.9,43.6,105,120.1,32.4,3,10,3,0,2026-03-16T01:01:02.305137+05:30
Bhatinda,Punjab,30.211,74.9455,15.5,93,0.0,985.2,6.6,32.0,104,245.9,60.3,3,10,7,0,2026-03-16T01:01:02.305145+05:30
Rohtak,Haryana,28.8955,76.6066,17.2,87,0.0,984.3,6.15,46.4,303,638.9,90.6,3,10,7,0,2026-03-16T01:01:02.305153+05:30
Panipat,Haryana,29.3909,76.9635,16.4,88,0.0,983.3,5.9,45.0,179,814.0,92.2,3,10,3,0,2026-03-16T01:01:02.305161+05:30
Mathura,Uttar Pradesh,27.4924,77.6737,18.0,90,0.0,987.6,6.4,34.6,342,815.8,104.3,3,10,7,1,2026-03-16T01:01:02.305169+05:30
Vrindavan,Uttar Pradesh,27.5823,77.7027,17.9,88,0.0,988.0,6.35,37.1,342,815.8,104.3,3,10,7,0,2026-03-16T01:01:02.305176+05:30
Ayodhya,Uttar Pradesh,26.7922,82.1998,19.7,71,0.0,996.7,6.6,51.5,113,44.6,34.1,3,5,7,0,2026-03-16T01:01:02.305184+05:30
Ratlam,Madhya Pradesh,23.3315,75.0367,25.3,42,0.0,954.7,7.6,34.9,66,33.8,18.0,4,5,7,0,2026-03-16T01:01:02.305192+05:30
Sagar,Madhya Pradesh,23.8388,78.7378,24.7,39,0.0,949.1,7.6,30.2,57,27.2,17.0,0,5,7,0,2026-03-16T01:01:02.305200+05:30
Satna,Madhya Pradesh,24.6005,80.8322,24.0,60,0.0,971.7,7.6,42.1,75,47.5,32.8,0,5,7,0,2026-03-16T01:01:02.305207+05:30
Akola,Maharashtra,20.7002,77.0082,26.4,47,0.0,975.0,8.0,24.8,87,32.6,22.5,4,5,7,0,2026-03-16T01:01:02.305216+05:30
Amravati,Maharashtra,20.9374,77.7796,24.1,57,0.0,967.0,7.8,30.2,85,32.0,24.4,0,5,7,0,2026-03-16T01:01:02.305224+05:30
Latur,Maharashtra,18.4088,76.5604,24.4,51,0.0,940.1,8.55,20.2,106,44.7,38.1,0,5,7,0,2026-03-16T01:01:02.305232+05:30
Nanded,Maharashtra,19.1383,77.3091,25.2,58,0.0,968.7,8.25,20.2,123,67.8,60.1,4,5,7,1,2026-03-16T01:01:02.305239+05:30
Gulbarga,Karnataka,17.3297,76.8343,25.7,59,0.0,959.5,8.65,34.6,118,43.9,38.0,4,5,7,1,2026-03-16T01:01:02.305246+05:30
Bidar,Karnataka,17.9104,77.5199,23.9,64,0.0,936.1,8.65,32.0,102,40.2,34.3,3,5,7,1,2026-03-16T01:01:02.305254+05:30
Hospet,Karnataka,15.2689,76.3909,26.2,76,0.0,957.1,8.9,21.2,116,59.0,53.1,7,5,7,1,2026-03-16T01:01:02.305261+05:30
Tirupur,Tamil Nadu,11.1085,77.3411,25.4,84,0.0,976.4,9.3,46.1,58,19.6,18.5,7,5,7,1,2026-03-16T01:01:02.305268+05:30
Alappuzha,Kerala,9.4981,76.3388,26.8,86,0.0,1010.2,9.1,30.6,70,33.1,31.2,7,0,4,1,2026-03-16T01:01:02.305276+05:30
Munnar,Kerala,10.0889,77.0595,19.1,88,0.0,856.8,9.6,32.4,60,29.1,26.8,3,10,7,1,2026-03-16T01:01:02.305284+05:30
Silchar,Assam,24.8333,92.7789,20.0,94,0.0,1008.8,7.9,42.5,90,40.3,37.4,3,0,4,1,2026-03-16T01:01:02.305291+05:30
Dibrugarh,Assam,27.4728,94.912,18.3,93,0.0,997.8,5.0,29.5,72,31.1,23.3,3,10,3,1,2026-03-16T01:01:02.305298+05:30
