city,state,latitude,longitude,temp,humidity,rain,pressure,uv_index,wind_gusts,aqi,pm10,pm2_5,no2,co,o3,so2,mosquito_risk,arthritis_risk,migraine_risk,frizz_risk,updated_at
Delhi,Delhi,28.6139,77.209,26.0,66,0.0,985.6,7.55,34.9,444,359.5,64.7,18.7,667.0,127.0,22.1,7,5,7,1,2026-05-08T08:55:13.366113+05:30
Mumbai,Maharashtra,19.076,72.8777,30.8,67,0.0,1008.4,7.85,45.0,93,83.8,29.7,16.3,385.0,73.0,28.9,3,0,4,1,2026-05-08T08:55:13.366148+05:30
Bangalore,Karnataka,12.9716,77.5946,25.8,69,0.0,912.7,9.45,40.0,58,12.8,11.8,9.8,464.0,56.0,7.5,7,5,7,1,2026-05-08T08:55:13.366163+05:30
Hyderabad,Telangana,17.385,78.4867,27.5,65,0.0,955.5,9.25,34.9,54,10.5,8.3,6.1,381.0,59.0,7.5,7,5,7,1,2026-05-08T08:55:13.366173+05:30
Chennai,Tamil Nadu,13.0827,80.2707,29.1,71,0.0,1008.3,7.4,40.0,22,5.0,3.7,4.7,150.0,51.0,3.7,7,0,4,1,2026-05-08T08:55:13.366181+05:30
Kolkata,West Bengal,22.5726,88.3639,28.8,78,0.0,1009.8,8.9,42.1,139,44.0,41.3,10.3,520.0,134.0,22.1,7,0,4,1,2026-05-08T08:55:13.366189+05:30
Pune,Maharashtra,18.5204,73.8567,29.7,51,0.0,949.5,8.45,38.2,110,86.6,44.8,16.4,417.0,108.0,24.8,4,5,7,1,2026-05-08T08:55:13.366196+05:30
Ahmedabad,Gujarat,23.0225,72.5714,31.8,28,0.0,1001.7,8.1,31.7,90,21.5,13.9,7.8,335.0,77.0,6.0,0,5,4,0,2026-05-08T08:55:13.366207+05:30
Jaipur,Rajasthan,26.9124,75.7873,26.8,45,0.0,960.3,8.1,33.1,151,210.0,43.0,6.3,423.0,109.0,7.4,4,5,7,0,2026-05-08T08:55:13.366215+05:30
Lucknow,Uttar Pradesh,26.8467,80.9462,27.3,62,0.0,997.3,8.05,26.3,98,58.3,35.9,8.9,431.0,127.0,11.4,7,5,7,1,2026-05-08T08:55:13.366222+05:30
Kanpur,Uttar Pradesh,26.4499,80.3319,26.8,68,0.0,995.3,8.05,28.1,133,249.6,44.0,6.4,407.0,136.0,10.1,7,5,7,1,2026-05-08T08:55:13.366229+05:30
Chandigarh,Chandigarh,30.7333,76.7794,26.5,49,0.0,971.9,7.55,35.3,87,68.0,28.2,5.5,418.0,165.0,8.9,4,5,7,0,2026-05-08T08:55:13.366237+05:30
Srinagar,Jammu and Kashmir,34.0837,74.7973,16.0,58,0.0,843.9,8.8,19.4,80,45.8,23.3,7.1,427.0,107.0,4.7,0,5,7,0,2026-05-08T08:55:13.366245+05:30
Jammu,Jammu and Kashmir,32.7266,74.857,27.0,51,0.0,975.2,8.35,32.8,91,48.2,30.9,8.9,323.0,157.0,6.9,4,5,7,0,2026-05-08T08:55:13.366252+05:30
Amritsar,Punjab,31.634,74.8723,26.6,56,0.0,983.1,8.25,29.2,136,292.4,65.0,4.7,377.0,130.0,10.9,4,5,7,1,2026-05-08T08:55:13.366259+05:30
Ludhiana,Punjab,30.901,75.8573,26.0,62,0.0,981.1,7.8,28.8,196,190.9,51.1,7.2,447.0,131.0,12.4,7,5,7,1,2026-05-08T08:55:13.366265+05:30
Jalandhar,Punjab,31.326,75.5762,26.0,60,0.0,982.4,8.0,30.6,137,180.7,50.3,6.9,413.0,129.0,12.0,4,5,7,1,2026-05-08T08:55:13.366272+05:30
Dehradun,Uttarakhand,30.6284,78.0322,17.5,59,0.0,833.2,7.45,23.4,64,26.8,13.4,1.7,178.0,156.0,0.6,0,5,7,0,2026-05-08T08:55:13.366281+05:30
Shimla,Himachal Pradesh,31.1048,77.1734,15.4,58,0.0,786.5,7.3,22.7,70,59.5,20.5,1.9,204.0,170.0,1.6,0,5,7,0,2026-05-08T08:55:13.366288+05:30
Manali,Himachal Pradesh,32.2396,77.1887,17.3,38,0.0,818.4,9.55,36.4,52,22.9,5.2,9.1,216.0,105.0,0.5,0,5,7,0,2026-05-08T08:55:13.366294+05:30
Gurgaon,Haryana,28.4595,77.0266,26.0,65,0.0,983.8,7.65,38.9,1989,1583.2,180.7,15.9,504.0,123.0,26.4,7,5,7,1,2026-05-08T08:55:13.366301+05:30
Noida,Uttar Pradesh,28.5355,77.391,26.3,67,0.0,987.3,7.6,33.8,1989,1583.2,180.7,15.9,509.0,123.0,26.4,7,5,7,1,2026-05-08T08:55:13.366308+05:30
Ghaziabad,Uttar Pradesh,28.6692,77.4538,26.4,66,0.0,985.6,7.55,35.6,175,227.2,42.5,6.6,362.0,127.0,10.1,7,5,7,1,2026-05-08T08:55:13.366315+05:30
Faridabad,Haryana,28.4089,77.3178,25.6,69,0.0,986.4,7.6,34.9,1989,1583.2,180.7,15.9,452.0,123.0,26.4,7,5,7,1,2026-05-08T08:55:13.366323+05:30
Meerut,Uttar Pradesh,28.9845,77.7064,25.8,70,0.0,984.6,7.45,36.0,175,227.2,42.5,6.6,393.0,127.0,10.1,7,5,7,1,2026-05-08T08:55:13.366329+05:30
Agra,Uttar Pradesh,27.1767,78.0081,26.1,60,0.0,990.1,7.9,33.8,1292,540.2,87.8,5.9,373.0,133.0,11.0,4,5,7,1,2026-05-08T08:55:13.366336+05:30
Varanasi,Uttar Pradesh,25.3176,82.9739,29.8,56,0.0,1000.6,8.55,52.6,91,45.5,35.9,9.1,903.0,149.0,19.9,4,5,4,1,2026-05-08T08:55:13.366343+05:30
Prayagraj,Uttar Pradesh,25.4358,81.8463,29.0,57,0.0,999.0,8.45,28.1,91,43.2,31.5,9.0,494.0,139.0,14.1,4,5,7,1,2026-05-08T08:55:13.366351+05:30
Gorakhpur,Uttar Pradesh,26.7606,83.3732,27.3,60,0.0,1001.8,8.4,36.4,106,31.0,25.6,5.5,518.0,139.0,7.6,4,5,4,1,2026-05-08T08:55:13.366358+05:30
Bareilly,Uttar Pradesh,28.367,79.4304,26.9,63,0.0,990.7,7.85,27.4,86,62.2,24.4,5.4,382.0,134.0,7.3,7,5,7,1,2026-05-08T08:55:13.366364+05:30
Aligarh,Uttar Pradesh,27.8974,78.088,26.3,63,0.0,988.6,7.7,35.6,764,696.6,89.9,7.0,345.0,126.0,19.8,7,5,7,1,2026-05-08T08:55:13.366371+05:30
Moradabad,Uttar Pradesh,28.8386,78.7733,26.1,67,0.0,987.5,7.65,31.0,92,37.1,26.3,6.9,383.0,130.0,7.0,7,5,7,1,2026-05-08T08:55:13.366377+05:30
Saharanpur,Uttar Pradesh,29.9637,77.546,25.2,66,0.0,979.0,7.25,31.7,113,66.4,38.8,7.2,380.0,148.0,10.5,7,5,7,1,2026-05-08T08:55:13.366383+05:30
Jhansi,Uttar Pradesh,25.4484,78.5685,26.2,56,0.0,980.0,8.35,33.1,64,34.7,22.9,3.9,271.0,123.0,14.6,4,5,7,1,2026-05-08T08:55:16.590373+05:30
Surat,Gujarat,21.1702,72.8311,31.5,70,0.0,1006.6,7.7,35.6,130,73.3,53.1,45.0,307.0,30.0,142.6,3,5,4,1,2026-05-08T08:55:16.590399+05:30
Vadodara,Gujarat,22.3072,73.1812,32.3,28,0.0,1004.2,8.05,31.3,99,37.0,23.1,11.6,426.0,77.0,9.9,0,5,4,0,2026-05-08T08:55:16.590408+05:30
Rajkot,Gujarat,22.3039,70.8022,28.5,70,0.0,994.3,7.7,46.8,60,32.6,14.6,5.0,197.0,64.0,6.7,7,5,7,1,2026-05-08T08:55:16.590416+05:30
Thane,Maharashtra,19.2183,72.9781,30.9,65,0.0,1008.0,7.85,42.1,93,83.8,29.7,16.3,252.0,73.0,28.9,3,0,4,1,2026-05-08T08:55:16.590422+05:30
Nagpur,Maharashtra,21.1458,79.0882,31.2,45,0.0,976.3,8.9,34.6,139,48.3,39.2,13.2,310.0,153.0,15.6,0,5,7,1,2026-05-08T08:55:16.590429+05:30
Nashik,Maharashtra,19.9975,73.7898,28.9,51,0.0,946.9,8.15,41.0,98,100.4,29.2,5.2,284.0,119.0,5.5,4,5,7,1,2026-05-08T08:55:16.590435+05:30
Aurangabad,Maharashtra,19.8762,75.3433,30.5,40,0.0,946.0,9.0,30.6,83,63.8,31.1,5.6,300.0,135.0,18.4,0,5,7,0,2026-05-08T08:55:16.590442+05:30
Solapur,Maharashtra,17.6599,75.9064,29.6,48,0.0,959.0,9.05,32.4,90,22.3,17.3,5.8,240.0,104.0,7.0,4,5,7,1,2026-05-08T08:55:16.590448+05:30
Kolhapur,Maharashtra,16.705,74.2433,28.0,50,0.0,949.0,8.9,46.8,132,69.8,50.9,13.3,347.0,122.0,8.1,4,5,7,1,2026-05-08T08:55:16.590454+05:30
Goa,Goa,15.2993,74.124,28.5,79,0.0,998.0,8.9,41.0,106,67.3,41.8,5.6,234.0,107.0,5.7,7,5,7,1,2026-05-08T08:55:16.590461+05:30
Jodhpur,Rajasthan,26.2389,73.0243,31.5,36,0.0,982.9,8.3,36.0,120,341.8,62.4,3.2,211.0,81.0,3.0,0,5,7,0,2026-05-08T08:55:16.590467+05:30
Udaipur,Rajasthan,24.5854,73.7125,31.2,32,0.0,946.9,8.75,32.0,67,47.7,14.6,2.5,219.0,109.0,2.6,0,5,7,0,2026-05-08T08:55:16.590473+05:30
Kota,Rajasthan,25.2138,75.8648,31.7,35,0.0,979.4,8.35,37.4,71,56.0,25.7,5.2,321.0,100.0,5.1,0,5,7,0,2026-05-08T08:55:16.590479+05:30
Bikaner,Rajasthan,28.0229,73.3119,28.7,37,0.0,981.5,8.25,31.0,62,40.9,24.6,2.7,413.0,109.0,7.0,4,5,7,0,2026-05-08T08:55:16.590486+05:30
Ajmer,Rajasthan,26.4499,74.6399,30.0,27,0.0,954.7,8.25,69.8,63,50.3,16.9,3.0,210.0,98.0,6.1,4,5,7,0,2026-05-08T08:55:16.590492+05:30
Gwalior,Madhya Pradesh,26.2183,78.1828,26.1,61,0.0,985.3,8.15,36.0,83,44.7,27.4,3.1,284.0,127.0,9.9,7,5,7,1,2026-05-08T08:55:16.590498+05:30
Indore,Madhya Pradesh,22.7196,75.8577,31.9,28,0.0,949.2,8.65,24.1,73,63.1,26.4,5.7,389.0,122.0,7.2,0,5,7,0,2026-05-08T08:55:16.590504+05:30
Bhopal,Madhya Pradesh,23.2599,77.4126,31.5,33,0.0,954.9,8.65,40.7,66,42.6,28.9,3.1,408.0,144.0,10.9,0,5,7,0,2026-05-08T08:55:16.590509+05:30
Jabalpur,Madhya Pradesh,23.1815,79.9864,32.3,31,0.0,963.3,8.8,44.6,55,33.2,25.2,4.4,234.0,161.0,6.7,0,5,7,0,2026-05-08T08:55:16.590515+05:30
Ujjain,Madhya Pradesh,23.1765,75.7885,32.1,26,0.0,954.7,8.55,26.3,71,70.5,29.1,4.4,256.0,112.0,5.8,0,5,7,0,2026-05-08T08:55:16.590522+05:30
Visakhapatnam,Andhra Pradesh,17.6868,83.2185,30.5,67,0.0,1006.4,9.15,35.3,65,25.3,22.3,20.6,1261.0,27.0,21.5,3,5,4,1,2026-05-08T08:55:16.590528+05:30
Vijayawada,Andhra Pradesh,16.5062,80.648,31.9,62,0.0,1004.7,9.2,43.2,51,11.9,9.7,4.3,157.0,44.0,6.9,3,5,4,1,2026-05-08T08:55:16.590533+05:30
Guntur,Andhra Pradesh,16.3067,80.4365,32.1,60,0.0,1005.8,9.2,40.7,51,11.5,9.3,4.4,167.0,45.0,7.1,0,5,4,1,2026-05-08T08:55:16.590539+05:30
Nellore,Andhra Pradesh,14.4426,79.9865,30.1,68,0.0,1007.6,9.2,40.7,26,7.2,5.1,2.4,135.0,48.0,2.9,3,5,4,1,2026-05-08T08:55:16.590546+05:30
Kurnool,Andhra Pradesh,15.8281,78.0373,30.8,57,0.0,978.9,9.15,46.1,42,6.1,4.6,1.9,145.0,51.0,1.6,0,5,7,1,2026-05-08T08:55:16.590553+05:30
Kakinada,Andhra Pradesh,16.9891,82.2475,29.5,73,0.0,1009.8,9.15,42.1,28,8.9,6.1,1.0,156.0,50.0,0.6,7,0,4,1,2026-05-08T08:55:16.590559+05:30
Tirupati,Andhra Pradesh,13.6288,79.4192,27.0,76,0.0,992.8,8.25,41.8,37,6.3,4.9,2.6,150.0,49.0,1.1,7,5,7,1,2026-05-08T08:55:16.590565+05:30
Warangal,Telangana,17.9689,79.5941,30.5,58,0.0,981.2,9.15,32.8,64,10.9,9.6,5.7,203.0,51.0,11.1,0,5,7,1,2026-05-08T08:55:16.590571+05:30
Nizamabad,Telangana,18.6725,78.0941,30.8,49,0.0,967.2,9.05,32.8,86,19.9,17.3,6.3,267.0,91.0,7.9,0,5,7,1,2026-05-08T08:55:16.590577+05:30
Mysore,Karnataka,12.2958,76.6396,26.5,68,0.0,929.3,9.35,33.8,79,19.6,18.7,7.3,313.0,92.0,10.1,7,5,7,1,2026-05-08T08:55:16.590583+05:30
Mangalore,Karnataka,12.9141,74.856,28.1,78,0.0,1006.7,9.0,36.0,72,46.4,27.1,4.8,266.0,105.0,3.3,7,5,4,1,2026-05-08T08:55:16.590588+05:30
Hubli-Dharwad,Karnataka,15.3647,75.124,28.1,51,0.0,942.0,9.05,38.2,92,29.0,25.6,8.8,288.0,97.0,8.0,4,5,7,1,2026-05-08T08:55:16.590595+05:30
Belgaum,Karnataka,15.8497,74.4977,27.5,48,0.0,927.1,8.9,36.7,99,45.3,34.5,8.0,274.0,115.0,7.3,4,5,7,0,2026-05-08T08:55:19.814641+05:30
Coimbatore,Tamil Nadu,11.0168,76.9558,26.6,77,0.0,962.1,9.25,34.6,65,14.7,13.9,5.7,278.0,99.0,9.3,7,5,7,1,2026-05-08T08:55:19.814663+05:30
Madurai,Tamil Nadu,9.9252,78.1198,28.2,78,0.0,993.1,8.4,43.2,55,10.2,9.7,9.1,331.0,77.0,5.5,7,5,7,1,2026-05-08T08:55:19.814673+05:30
Trichy,Tamil Nadu,10.7905,78.7047,27.5,80,0.0,1000.3,8.45,35.6,49,7.9,7.2,10.8,249.0,35.0,19.6,7,5,4,1,2026-05-08T08:55:19.814681+05:30
Salem,Tamil Nadu,11.6643,78.146,27.1,77,0.0,978.0,7.15,38.5,68,15.0,14.5,12.5,255.0,65.0,27.3,7,5,7,1,2026-05-08T08:55:19.814687+05:30
Tirunelveli,Tamil Nadu,8.7139,77.7567,29.8,67,0.0,1003.2,7.95,35.3,59,8.5,7.9,4.7,245.0,82.0,2.5,7,5,4,1,2026-05-08T08:55:19.814694+05:30
Vellore,Tamil Nadu,12.9165,79.1325,27.1,75,0.0,986.1,7.95,48.2,43,10.4,8.7,7.5,198.0,42.0,11.6,7,5,7,1,2026-05-08T08:55:19.814700+05:30
Erode,Tamil Nadu,11.341,77.7172,27.2,77,0.0,989.9,8.9,36.7,54,13.4,13.0,8.7,294.0,79.0,11.4,7,5,7,1,2026-05-08T08:55:19.814706+05:30
Kochi,Kerala,9.9312,76.2673,27.8,83,0.0,1007.5,8.9,28.4,61,19.3,17.4,10.1,372.0,84.0,4.5,7,5,4,1,2026-05-08T08:55:19.814712+05:30
Thiruvananthapuram,Kerala,8.5241,76.9366,27.4,84,0.0,1006.8,8.75,25.6,52,11.7,9.9,5.8,378.0,94.0,3.9,7,5,4,1,2026-05-08T08:55:19.814719+05:30
Kozhikode,Kerala,11.2588,75.7804,28.1,85,0.0,1007.7,8.7,30.2,65,31.9,25.1,3.8,377.0,123.0,5.2,7,5,4,1,2026-05-08T08:55:19.814725+05:30
Thrissur,Kerala,10.5276,76.2144,28.5,83,0.0,1006.1,8.95,27.0,70,23.2,21.7,7.8,337.0,82.0,4.6,7,5,4,1,2026-05-08T08:55:19.814732+05:30
Kannur,Kerala,11.8745,75.3704,29.1,74,0.0,1007.2,9.0,37.4,73,42.5,27.7,5.3,288.0,101.0,2.5,7,5,4,1,2026-05-08T08:55:19.814738+05:30
Patna,Bihar,25.5941,85.1376,27.8,68,0.0,1004.6,8.7,34.9,121,48.5,42.6,10.3,495.0,157.0,20.0,7,5,4,1,2026-05-08T08:55:19.814744+05:30
Gaya,Bihar,24.7914,85.0002,30.5,53,0.0,997.0,8.75,46.4,118,55.3,49.2,6.7,701.0,169.0,27.5,0,5,7,1,2026-05-08T08:55:19.814751+05:30
Muzaffarpur,Bihar,26.1209,85.3647,25.5,71,0.0,1005.4,8.45,32.4,125,42.8,38.2,9.7,554.0,147.0,14.3,7,5,4,1,2026-05-08T08:55:19.814757+05:30
Bhagalpur,Bihar,25.2425,87.0117,28.0,67,0.0,1005.8,8.7,28.4,157,59.1,52.4,8.6,352.0,164.0,17.3,7,5,4,1,2026-05-08T08:55:19.814763+05:30
Ranchi,Jharkhand,23.3441,85.3096,26.8,62,0.0,941.6,9.2,53.6,103,27.9,23.6,3.9,282.0,127.0,19.2,7,5,7,1,2026-05-08T08:55:19.814769+05:30
Jamshedpur,Jharkhand,22.8046,86.2029,29.4,60,0.0,994.8,8.9,44.3,130,35.9,32.5,13.3,644.0,105.0,33.1,4,5,7,1,2026-05-08T08:55:19.814775+05:30
Dhanbad,Jharkhand,23.7957,86.4304,27.8,69,0.0,983.8,9.0,43.6,168,85.7,81.5,51.6,1839.0,93.0,123.8,7,5,7,1,2026-05-08T08:55:19.814781+05:30
Bokaro,Jharkhand,23.6693,86.1511,29.1,62,0.0,987.6,9.0,42.5,162,75.9,71.2,39.0,3302.0,114.0,106.3,7,5,7,1,2026-05-08T08:55:19.814788+05:30
Bhubaneswar,Odisha,20.2961,85.8245,29.6,75,0.0,1006.0,8.75,31.0,50,9.9,7.0,2.7,176.0,48.0,3.8,7,5,4,1,2026-05-08T08:55:19.814794+05:30
Cuttack,Odisha,20.4625,85.8828,30.0,73,0.0,1007.8,9.0,30.2,50,9.9,7.0,2.7,190.0,48.0,3.8,7,5,4,1,2026-05-08T08:55:19.814800+05:30
Rourkela,Odisha,22.2604,84.8536,30.0,61,0.0,989.0,8.7,45.4,111,41.0,36.8,11.3,679.0,143.0,70.8,7,5,7,1,2026-05-08T08:55:19.814806+05:30
Raipur,Chhattisgarh,21.2514,81.6296,31.7,34,0.0,977.7,8.95,28.8,116,54.1,48.7,35.2,350.0,133.0,11.4,0,5,7,0,2026-05-08T08:55:19.814812+05:30
Bhilai,Chhattisgarh,21.1938,81.3509,30.9,33,0.0,978.3,8.95,27.4,98,62.2,56.3,62.0,317.0,104.0,14.8,0,5,7,0,2026-05-08T08:55:19.814819+05:30
Guwahati,Assam,26.1158,91.7086,25.4,77,0.0,1007.4,8.65,24.5,102,38.1,29.2,2.0,360.0,150.0,3.4,7,5,4,1,2026-05-08T08:55:19.814825+05:30
Agartala,Tripura,23.8315,91.2868,28.9,73,0.0,1010.6,8.85,19.4,154,40.4,36.4,7.2,332.0,177.0,4.3,7,0,4,1,2026-05-08T08:55:19.814831+05:30
Shillong,Meghalaya,25.5788,91.8933,21.6,50,0.0,862.1,8.9,19.1,82,31.1,21.4,1.0,268.0,150.0,2.6,0,5,7,0,2026-05-08T08:55:19.814837+05:30
Imphal,Manipur,24.817,93.9368,25.1,66,0.0,927.8,9.2,29.5,117,24.2,18.3,1.4,288.0,138.0,2.8,7,5,7,1,2026-05-08T08:55:19.814843+05:30
Aizawl,Mizoram,23.7271,92.7176,24.4,58,0.0,897.2,9.05,24.5,78,27.5,19.8,0.8,212.0,107.0,1.0,0,5,7,0,2026-05-08T08:55:19.814850+05:30
Kohima,Nagaland,25.6701,94.1077,22.2,61,0.1,860.6,9.15,30.2,88,31.0,21.0,0.8,222.0,133.0,2.2,6,5,7,0,2026-05-08T08:55:19.814856+05:30
Gangtok,Sikkim,27.3314,88.6138,17.7,50,0.0,842.1,9.0,38.9,70,29.2,17.9,1.6,271.0,129.0,0.7,0,5,7,0,2026-05-08T08:55:19.814884+05:30
Siliguri,West Bengal,26.7271,88.3953,26.8,64,0.0,997.8,8.6,24.1,113,41.3,28.3,4.0,546.0,141.0,3.4,7,5,7,1,2026-05-08T08:55:23.050344+05:30
Durgapur,West Bengal,23.5204,87.3119,27.5,79,0.0,999.0,8.65,49.0,163,82.4,78.9,36.7,520.0,114.0,91.5,7,5,7,1,2026-05-08T08:55:23.050375+05:30
Asansol,West Bengal,23.6739,86.9524,28.1,74,0.0,997.6,8.95,47.5,162,80.1,76.4,36.5,441.0,106.0,97.2,7,5,7,1,2026-05-08T08:55:23.050388+05:30
Pondicherry,Puducherry,11.9139,79.8145,27.2,83,0.0,1009.2,9.0,34.9,21,5.7,4.1,2.8,146.0,45.0,0.6,7,0,4,1,2026-05-08T08:55:23.050398+05:30
Port Blair,Andaman and Nicobar Islands,11.6234,92.7265,28.8,78,0.1,1007.8,9.1,39.6,32,7.6,6.1,0.6,140.0,73.0,2.4,10,5,4,1,2026-05-08T08:55:23.050407+05:30
Haridwar,Uttarakhand,29.9457,78.1642,25.9,61,0.0,977.7,7.25,29.2,101,47.6,24.6,2.9,269.0,157.0,5.0,7,5,7,1,2026-05-08T08:55:23.050417+05:30
Rishikesh,Uttarakhand,30.0869,78.2676,25.4,54,0.0,970.4,7.2,24.1,85,35.3,18.1,1.3,243.0,159.0,2.3,4,5,7,0,2026-05-08T08:55:23.050426+05:30
Nainital,Uttarakhand,29.3919,79.4542,14.6,69,0.0,807.9,8.0,25.6,67,14.1,7.4,2.1,212.0,147.0,1.2,3,5,7,0,2026-05-08T08:55:23.050434+05:30
Mussoorie,Uttarakhand,30.4599,78.0664,16.3,59,0.0,805.5,7.6,26.6,93,40.3,21.5,2.4,227.0,158.0,6.1,0,5,7,0,2026-05-08T08:55:23.050443+05:30
Dharamshala,Himachal Pradesh,32.219,76.3234,19.0,68,0.0,870.6,8.2,32.8,54,44.0,11.7,1.2,256.0,129.0,1.2,3,5,7,0,2026-05-08T08:55:23.050452+05:30
Dalhousie,Himachal Pradesh,32.5387,75.971,16.2,61,0.0,806.0,8.45,34.2,75,45.5,25.1,3.6,222.0,163.0,5.9,3,5,7,0,2026-05-08T08:55:23.050461+05:30
Patiala,Punjab,30.3398,76.3869,26.3,62,0.0,980.8,7.5,33.5,815,571.8,76.8,6.1,367.0,134.0,14.1,7,5,7,1,2026-05-08T08:55:23.050467+05:30
Bhatinda,Punjab,30.211,74.9455,27.4,58,0.0,985.4,8.1,31.3,859,733.9,137.4,5.6,358.0,134.0,20.5,4,5,7,1,2026-05-08T08:55:23.050474+05:30
Rohtak,Haryana,28.8955,76.6066,26.7,62,0.0,984.0,7.6,36.4,895,696.6,98.5,16.4,429.0,129.0,25.1,7,5,7,1,2026-05-08T08:55:23.050480+05:30
Panipat,Haryana,29.3909,76.9635,26.2,66,0.0,983.1,7.45,36.4,1518,1117.6,119.2,10.8,390.0,125.0,15.9,7,5,7,1,2026-05-08T08:55:23.050486+05:30
Mathura,Uttar Pradesh,27.4924,77.6737,26.5,57,0.0,989.4,7.85,38.2,1368,1166.0,137.4,5.9,346.0,130.0,12.9,4,5,7,1,2026-05-08T08:55:23.050492+05:30
Vrindavan,Uttar Pradesh,27.5823,77.7027,26.6,56,0.0,989.9,7.85,38.2,1368,1166.0,137.4,5.9,339.0,130.0,12.9,4,5,7,1,2026-05-08T08:55:23.050499+05:30
Ayodhya,Uttar Pradesh,26.7922,82.1998,27.7,60,0.0,999.5,8.2,25.2,100,48.4,35.0,7.5,424.0,130.0,8.5,4,5,7,1,2026-05-08T08:55:23.050505+05:30
Ratlam,Madhya Pradesh,23.3315,75.0367,33.0,23,0.0,955.3,8.5,27.4,62,64.0,25.1,2.8,241.0,124.0,8.4,0,5,7,0,2026-05-08T08:55:23.050511+05:30
Sagar,Madhya Pradesh,23.8388,78.7378,31.4,32,0.0,951.7,8.65,35.3,45,25.4,18.9,3.8,253.0,142.0,8.0,0,5,7,0,2026-05-08T08:55:23.050517+05:30
Satna,Madhya Pradesh,24.6005,80.8322,29.6,43,0.0,974.2,8.7,40.0,71,37.1,22.8,7.9,297.0,119.0,16.0,4,5,7,0,2026-05-08T08:55:23.050523+05:30
Akola,Maharashtra,20.7002,77.0082,32.3,41,0.0,977.0,8.85,26.3,86,44.4,30.4,7.9,312.0,115.0,9.0,0,5,7,1,2026-05-08T08:55:23.050530+05:30
Amravati,Maharashtra,20.9374,77.7796,31.5,43,0.0,969.7,8.85,27.0,90,43.1,30.7,8.7,271.0,114.0,8.9,0,5,7,1,2026-05-08T08:55:23.050536+05:30
Latur,Maharashtra,18.4088,76.5604,30.3,44,0.0,942.1,8.3,30.2,90,22.1,15.9,3.9,245.0,120.0,3.6,0,5,7,1,2026-05-08T08:55:23.050542+05:30
Nanded,Maharashtra,19.1383,77.3091,31.5,45,0.0,971.0,8.95,25.2,86,35.0,28.0,8.8,326.0,114.0,5.5,0,5,7,1,2026-05-08T08:55:23.050548+05:30
Gulbarga,Karnataka,17.3297,76.8343,29.5,55,0.0,960.8,9.05,32.8,70,11.2,9.1,6.4,203.0,70.0,7.4,4,5,7,1,2026-05-08T08:55:23.050554+05:30
Bidar,Karnataka,17.9104,77.5199,30.0,51,0.0,937.8,9.1,33.1,80,15.5,12.9,5.6,237.0,83.0,6.2,4,5,7,1,2026-05-08T08:55:23.050560+05:30
Hospet,Karnataka,15.2689,76.3909,28.5,62,0.0,957.5,9.15,40.3,75,9.4,8.6,7.9,211.0,63.0,11.3,7,5,7,1,2026-05-08T08:55:23.050566+05:30
Tirupur,Tamil Nadu,11.1085,77.3411,25.6,84,0.0,975.8,9.15,32.4,65,13.8,13.2,7.2,275.0,93.0,8.8,7,5,7,1,2026-05-08T08:55:23.050572+05:30
Alappuzha,Kerala,9.4981,76.3388,28.5,76,0.0,1007.5,8.85,33.1,55,17.4,15.0,8.6,276.0,105.0,6.4,7,5,4,1,2026-05-08T08:55:23.050577+05:30
Munnar,Kerala,10.0889,77.0595,21.2,75,0.0,857.3,9.25,22.7,51,7.0,6.5,3.2,216.0,88.0,2.1,3,5,7,1,2026-05-08T08:55:23.050583+05:30
Silchar,Assam,24.8333,92.7789,30.0,65,0.0,1009.1,8.85,22.3,127,35.9,29.0,2.0,291.0,137.0,5.0,7,0,4,1,2026-05-08T08:55:23.050589+05:30
Dibrugarh,Assam,27.4728,94.912,26.0,67,0.0,1001.1,8.8,50.0,81,30.3,22.1,2.6,257.0,126.0,1.3,7,5,4,1,2026-05-08T08:55:23.050595+05:30
