city,state,latitude,longitude,temp,humidity,rain,pressure,uv_index,wind_gusts,aqi,pm10,pm2_5,mosquito_risk,arthritis_risk,migraine_risk,frizz_risk,updated_at
Delhi,Delhi,28.6139,77.209,20.4,67,0.0,984.3,6.2,27.0,153,138.3,66.6,3,5,7,0,2026-03-18T03:11:11.975794+05:30
Mumbai,Maharashtra,19.076,72.8777,26.5,76,0.0,1008.3,7.7,22.0,93,53.2,22.4,7,0,4,1,2026-03-18T03:11:11.975835+05:30
Bangalore,Karnataka,12.9716,77.5946,19.8,85,0.0,910.4,9.4,24.8,116,50.8,47.8,3,10,7,1,2026-03-18T03:11:11.975850+05:30
Hyderabad,Telangana,17.385,78.4867,22.4,77,0.0,953.4,8.65,43.9,74,10.7,10.0,3,5,7,1,2026-03-18T03:11:11.975860+05:30
Chennai,Tamil Nadu,13.0827,80.2707,26.1,86,0.0,1007.8,9.1,30.6,32,10.3,7.4,7,5,4,1,2026-03-18T03:11:11.975868+05:30
Kolkata,West Bengal,22.5726,88.3639,23.5,93,0.0,1007.9,8.1,31.7,64,12.5,9.9,3,5,4,1,2026-03-18T03:11:11.975876+05:30
Pune,Maharashtra,18.5204,73.8567,17.9,88,0.0,947.2,8.3,40.7,91,80.1,51.5,3,10,7,0,2026-03-18T03:11:11.975888+05:30
Ahmedabad,Gujarat,23.0225,72.5714,23.3,65,0.0,1001.7,7.55,15.8,71,37.4,21.7,3,5,4,1,2026-03-18T03:11:11.975895+05:30
Jaipur,Rajasthan,26.9124,75.7873,22.5,52,0.0,959.8,6.75,25.6,188,357.6,71.9,0,5,7,0,2026-03-18T03:11:11.975903+05:30
Lucknow,Uttar Pradesh,26.8467,80.9462,21.7,64,0.0,994.1,6.7,27.0,92,63.3,32.1,3,5,7,0,2026-03-18T03:11:11.975910+05:30
Kanpur,Uttar Pradesh,26.4499,80.3319,20.9,69,0.0,992.3,6.7,22.3,113,118.5,39.6,3,5,7,0,2026-03-18T03:11:11.975917+05:30
Chandigarh,Chandigarh,30.7333,76.7794,14.8,88,0.0,970.0,6.05,27.0,86,60.1,34.2,3,10,7,0,2026-03-18T03:11:11.975925+05:30
Srinagar,Jammu and Kashmir,34.0837,74.7973,6.0,80,0.0,841.2,2.9,22.0,120,97.3,78.5,3,5,3,0,2026-03-18T03:11:11.975931+05:30
Jammu,Jammu and Kashmir,32.7266,74.857,16.7,80,0.0,974.5,4.4,20.9,84,48.8,37.4,3,5,3,0,2026-03-18T03:11:11.975938+05:30
Amritsar,Punjab,31.634,74.8723,15.2,80,0.0,982.9,3.35,22.0,114,142.0,82.0,3,5,3,0,2026-03-18T03:11:11.975945+05:30
Ludhiana,Punjab,30.901,75.8573,15.9,81,0.0,980.5,5.95,29.5,122,153.2,85.4,3,10,3,0,2026-03-18T03:11:11.975951+05:30
Jalandhar,Punjab,31.326,75.5762,15.8,81,0.0,981.8,5.2,24.8,102,119.2,61.0,3,10,3,0,2026-03-18T03:11:11.975960+05:30
Dehradun,Uttarakhand,30.6284,78.0322,9.7,46,0.0,827.8,6.2,26.3,51,19.0,10.0,0,5,7,1,2026-03-18T03:11:11.975967+05:30
Shimla,Himachal Pradesh,31.1048,77.1734,8.9,46,0.0,781.5,5.3,37.4,60,32.1,16.5,0,5,3,1,2026-03-18T03:11:11.975974+05:30
Manali,Himachal Pradesh,32.2396,77.1887,10.1,52,0.0,817.9,5.7,23.8,44,18.2,9.8,0,5,3,0,2026-03-18T03:11:11.975980+05:30
Gurgaon,Haryana,28.4595,77.0266,17.4,84,0.0,982.6,6.3,23.8,354,233.3,81.7,3,10,7,0,2026-03-18T03:11:11.975987+05:30
Noida,Uttar Pradesh,28.5355,77.391,20.3,69,0.0,985.8,6.2,23.8,354,233.3,81.7,3,5,7,0,2026-03-18T03:11:11.975994+05:30
Ghaziabad,Uttar Pradesh,28.6692,77.4538,18.4,73,0.0,983.8,6.2,22.7,127,102.2,69.6,3,5,7,0,2026-03-18T03:11:11.976000+05:30
Faridabad,Haryana,28.4089,77.3178,18.5,82,0.0,985.0,6.25,21.2,354,233.3,81.7,3,10,7,0,2026-03-18T03:11:11.976007+05:30
Meerut,Uttar Pradesh,28.9845,77.7064,16.8,76,0.0,982.4,5.95,20.5,127,102.2,69.6,3,5,3,0,2026-03-18T03:11:11.976014+05:30
Agra,Uttar Pradesh,27.1767,78.0081,20.1,74,0.0,988.7,6.6,23.4,431,404.2,80.1,3,5,7,0,2026-03-18T03:11:11.976020+05:30
Varanasi,Uttar Pradesh,25.3176,82.9739,22.0,66,0.0,997.6,6.95,24.1,124,63.1,44.1,3,5,7,0,2026-03-18T03:11:11.976035+05:30
Prayagraj,Uttar Pradesh,25.4358,81.8463,21.8,69,0.0,996.0,6.95,26.3,110,74.0,53.1,3,5,7,0,2026-03-18T03:11:11.976042+05:30
Gorakhpur,Uttar Pradesh,26.7606,83.3732,19.9,64,0.0,997.1,6.85,22.3,108,96.2,66.1,3,5,7,0,2026-03-18T03:11:11.976048+05:30
Bareilly,Uttar Pradesh,28.367,79.4304,17.4,74,0.0,987.5,6.4,23.8,96,70.8,44.1,3,5,7,0,2026-03-18T03:11:11.976056+05:30
Aligarh,Uttar Pradesh,27.8974,78.088,19.1,73,0.0,986.5,6.35,20.9,147,168.1,59.8,3,5,7,0,2026-03-18T03:11:11.976063+05:30
Moradabad,Uttar Pradesh,28.8386,78.7733,17.1,77,0.0,984.3,6.2,21.6,125,115.5,63.1,3,5,7,0,2026-03-18T03:11:11.976069+05:30
Saharanpur,Uttar Pradesh,29.9637,77.546,14.8,82,0.0,976.9,5.6,39.2,106,85.7,54.5,3,10,3,0,2026-03-18T03:11:11.976075+05:30
Jhansi,Uttar Pradesh,25.4484,78.5685,21.9,64,0.0,977.3,7.1,32.0,64,71.7,25.9,3,5,7,0,2026-03-18T03:11:15.335053+05:30
Surat,Gujarat,21.1702,72.8311,24.2,90,0.0,1006.5,7.45,24.5,89,39.0,24.7,3,5,4,1,2026-03-18T03:11:15.335084+05:30
Vadodara,Gujarat,22.3072,73.1812,22.4,85,0.0,1004.2,7.6,24.1,74,40.2,26.4,3,5,4,1,2026-03-18T03:11:15.335094+05:30
Rajkot,Gujarat,22.3039,70.8022,24.0,80,0.0,994.2,7.05,40.3,55,21.5,12.0,3,5,7,1,2026-03-18T03:11:15.335102+05:30
Thane,Maharashtra,19.2183,72.9781,22.9,92,0.0,1007.8,7.7,33.8,93,53.2,22.4,3,5,4,1,2026-03-18T03:11:15.335109+05:30
Nagpur,Maharashtra,21.1458,79.0882,23.5,71,0.0,973.2,7.85,36.7,93,38.1,34.8,3,5,7,1,2026-03-18T03:11:15.335116+05:30
Nashik,Maharashtra,19.9975,73.7898,20.1,79,0.0,944.6,7.95,31.7,73,53.0,27.0,3,5,7,1,2026-03-18T03:11:15.335123+05:30
Aurangabad,Maharashtra,19.8762,75.3433,22.0,56,0.0,943.2,8.45,26.3,66,41.7,24.6,0,5,7,0,2026-03-18T03:11:15.335130+05:30
Solapur,Maharashtra,17.6599,75.9064,23.0,63,0.0,956.2,8.65,42.1,107,43.2,39.7,3,5,7,0,2026-03-18T03:11:15.335137+05:30
Kolhapur,Maharashtra,16.705,74.2433,18.6,87,0.0,946.8,8.35,46.4,89,64.3,44.5,3,10,7,1,2026-03-18T03:11:15.335144+05:30
Goa,Goa,15.2993,74.124,25.2,79,0.0,997.8,8.7,23.4,75,74.3,35.5,7,5,7,1,2026-03-18T03:11:15.335151+05:30
Jodhpur,Rajasthan,26.2389,73.0243,22.4,38,0.0,982.8,7.1,39.6,120,111.5,34.7,0,5,7,0,2026-03-18T03:11:15.335159+05:30
Udaipur,Rajasthan,24.5854,73.7125,20.5,47,0.0,945.7,7.95,27.0,45,33.3,14.3,0,5,7,0,2026-03-18T03:11:15.335166+05:30
Kota,Rajasthan,25.2138,75.8648,21.5,53,0.0,978.2,7.3,16.6,78,51.8,30.5,0,5,7,0,2026-03-18T03:11:15.335173+05:30
Bikaner,Rajasthan,28.0229,73.3119,21.0,48,0.0,982.4,5.25,33.1,88,113.2,27.9,0,5,3,0,2026-03-18T03:11:15.335179+05:30
Ajmer,Rajasthan,26.4499,74.6399,22.7,47,0.0,954.4,7.05,26.3,132,167.6,47.7,0,5,7,0,2026-03-18T03:11:15.335186+05:30
Gwalior,Madhya Pradesh,26.2183,78.1828,23.3,68,0.0,983.3,6.9,24.5,107,226.8,54.7,3,5,7,1,2026-03-18T03:11:15.335193+05:30
Indore,Madhya Pradesh,22.7196,75.8577,21.6,45,0.0,946.8,7.85,21.2,60,23.6,18.5,0,5,7,0,2026-03-18T03:11:15.335200+05:30
Bhopal,Madhya Pradesh,23.2599,77.4126,21.3,51,0.0,952.5,7.7,31.0,52,38.6,29.3,0,5,7,0,2026-03-18T03:11:15.335207+05:30
Jabalpur,Madhya Pradesh,23.1815,79.9864,23.8,44,0.0,960.8,7.8,29.5,54,21.9,16.3,0,5,7,0,2026-03-18T03:11:15.335213+05:30
Ujjain,Madhya Pradesh,23.1765,75.7885,21.8,46,0.0,952.6,7.75,19.8,60,25.8,19.6,0,5,7,0,2026-03-18T03:11:15.335220+05:30
Visakhapatnam,Andhra Pradesh,17.6868,83.2185,23.9,89,0.0,1005.5,8.05,34.9,54,16.4,14.2,3,5,4,1,2026-03-18T03:11:15.335227+05:30
Vijayawada,Andhra Pradesh,16.5062,80.648,24.6,87,0.0,1004.1,8.55,24.1,48,12.7,11.1,3,5,4,1,2026-03-18T03:11:15.335234+05:30
Guntur,Andhra Pradesh,16.3067,80.4365,24.7,89,0.0,1005.3,8.7,30.6,44,11.0,9.5,3,5,4,1,2026-03-18T03:11:15.335241+05:30
Nellore,Andhra Pradesh,14.4426,79.9865,25.7,85,0.0,1007.0,9.0,32.0,36,8.1,5.8,7,5,4,1,2026-03-18T03:11:15.335249+05:30
Kurnool,Andhra Pradesh,15.8281,78.0373,26.2,63,0.0,977.0,8.85,41.8,70,8.5,7.5,7,5,7,1,2026-03-18T03:11:15.335273+05:30
Kakinada,Andhra Pradesh,16.9891,82.2475,22.9,94,0.0,1009.2,8.65,30.2,36,11.1,8.6,3,0,4,1,2026-03-18T03:11:15.335282+05:30
Tirupati,Andhra Pradesh,13.6288,79.4192,22.6,86,0.0,992.7,9.1,31.3,55,19.8,17.7,3,5,7,1,2026-03-18T03:11:15.335289+05:30
Warangal,Telangana,17.9689,79.5941,23.3,83,0.0,979.5,7.6,32.4,61,15.3,14.3,3,5,7,1,2026-03-18T03:11:15.335295+05:30
Nizamabad,Telangana,18.6725,78.0941,24.9,68,0.0,964.8,8.05,38.9,119,30.4,28.0,3,5,7,1,2026-03-18T03:11:15.335302+05:30
Mysore,Karnataka,12.2958,76.6396,19.6,88,0.0,927.3,9.35,20.5,119,57.2,53.9,3,10,7,1,2026-03-18T03:11:15.335310+05:30
Mangalore,Karnataka,12.9141,74.856,28.3,78,0.0,1005.7,9.0,18.0,88,45.2,38.1,7,5,4,1,2026-03-18T03:11:15.335317+05:30
Hubli-Dharwad,Karnataka,15.3647,75.124,21.0,90,0.0,940.0,8.95,32.0,86,51.2,45.3,3,5,7,1,2026-03-18T03:11:15.335324+05:30
Belgaum,Karnataka,15.8497,74.4977,20.0,97,0.0,924.5,8.85,36.4,77,58.8,34.7,3,5,7,1,2026-03-18T03:11:18.690517+05:30
Coimbatore,Tamil Nadu,11.0168,76.9558,21.7,82,0.0,961.4,9.35,28.1,98,40.3,38.1,3,5,7,1,2026-03-18T03:11:18.690544+05:30
Madurai,Tamil Nadu,9.9252,78.1198,23.7,85,0.0,992.9,7.9,25.6,56,26.3,25.3,3,5,7,1,2026-03-18T03:11:18.690554+05:30
Trichy,Tamil Nadu,10.7905,78.7047,25.2,89,0.0,999.9,8.75,24.8,50,18.7,16.4,7,5,7,1,2026-03-18T03:11:18.690562+05:30
Salem,Tamil Nadu,11.6643,78.146,23.6,83,0.0,977.5,9.2,21.6,74,19.6,17.9,3,5,7,1,2026-03-18T03:11:18.690568+05:30
Tirunelveli,Tamil Nadu,8.7139,77.7567,23.7,91,0.0,1002.9,6.7,27.0,66,30.0,28.9,3,5,4,1,2026-03-18T03:11:18.690575+05:30
Vellore,Tamil Nadu,12.9165,79.1325,21.9,90,0.0,985.3,9.2,33.5,63,25.4,23.5,3,5,7,1,2026-03-18T03:11:18.690582+05:30
Erode,Tamil Nadu,11.341,77.7172,23.2,79,0.0,989.4,9.2,23.0,51,9.7,8.6,3,5,7,1,2026-03-18T03:11:18.690590+05:30
Kochi,Kerala,9.9312,76.2673,27.0,83,0.0,1007.9,9.1,25.6,97,41.4,40.6,7,5,4,1,2026-03-18T03:11:18.690597+05:30
Thiruvananthapuram,Kerala,8.5241,76.9366,27.1,78,0.0,1007.0,7.9,14.8,58,21.4,20.4,7,5,4,1,2026-03-18T03:11:18.690603+05:30
Kozhikode,Kerala,11.2588,75.7804,25.9,86,0.0,1007.8,8.95,27.4,103,35.3,30.6,7,5,4,1,2026-03-18T03:11:18.690609+05:30
Thrissur,Kerala,10.5276,76.2144,24.9,89,0.0,1006.5,8.05,31.7,96,44.9,43.3,3,5,4,1,2026-03-18T03:11:18.690616+05:30
Kannur,Kerala,11.8745,75.3704,25.8,83,0.0,1006.6,9.05,28.1,106,40.3,36.7,7,5,4,1,2026-03-18T03:11:18.690623+05:30
Patna,Bihar,25.5941,85.1376,23.9,68,0.0,1000.8,7.35,20.2,151,108.7,84.5,3,5,4,1,2026-03-18T03:11:18.690629+05:30
Gaya,Bihar,24.7914,85.0002,22.6,61,0.0,993.9,6.9,26.6,93,51.6,42.5,3,5,7,0,2026-03-18T03:11:18.690636+05:30
Muzaffarpur,Bihar,26.1209,85.3647,21.1,75,0.0,1000.9,7.5,20.2,153,125.7,100.6,3,5,4,1,2026-03-18T03:11:18.690642+05:30
Bhagalpur,Bihar,25.2425,87.0117,23.5,80,0.0,1001.6,7.45,22.7,141,65.4,51.1,3,5,4,1,2026-03-18T03:11:18.690649+05:30
Ranchi,Jharkhand,23.3441,85.3096,20.2,79,0.0,938.1,8.25,36.4,135,59.3,50.4,3,5,7,1,2026-03-18T03:11:18.690655+05:30
Jamshedpur,Jharkhand,22.8046,86.2029,22.6,80,0.0,992.3,8.1,31.7,152,77.5,65.0,3,5,7,1,2026-03-18T03:11:18.690661+05:30
Dhanbad,Jharkhand,23.7957,86.4304,23.2,71,0.0,980.4,8.05,38.5,153,103.6,90.3,3,5,7,1,2026-03-18T03:11:18.690668+05:30
Bokaro,Jharkhand,23.6693,86.1511,23.2,69,0.0,984.5,8.05,48.2,144,100.8,85.9,3,5,7,1,2026-03-18T03:11:18.690674+05:30
Bhubaneswar,Odisha,20.2961,85.8245,24.1,90,0.0,1004.1,8.4,31.3,53,11.7,9.7,3,5,4,1,2026-03-18T03:11:18.690680+05:30
Cuttack,Odisha,20.4625,85.8828,23.8,93,0.0,1006.2,8.5,21.6,53,11.7,9.7,3,5,4,1,2026-03-18T03:11:18.690686+05:30
Rourkela,Odisha,22.2604,84.8536,22.5,81,0.0,986.5,8.05,36.7,154,74.5,62.9,3,5,7,1,2026-03-18T03:11:18.690692+05:30
Raipur,Chhattisgarh,21.2514,81.6296,21.2,75,0.0,977.0,7.7,48.2,132,50.8,45.9,3,5,7,1,2026-03-18T03:11:18.690699+05:30
Bhilai,Chhattisgarh,21.1938,81.3509,20.6,81,0.0,977.0,7.65,42.5,123,48.1,43.7,3,5,7,1,2026-03-18T03:11:18.690705+05:30
Guwahati,Assam,26.1158,91.7086,20.0,87,0.0,1003.4,7.45,38.9,92,47.5,39.5,3,5,4,1,2026-03-18T03:11:18.690711+05:30
Agartala,Tripura,23.8315,91.2868,22.1,96,0.0,1007.6,7.85,27.0,72,9.6,8.1,3,5,4,1,2026-03-18T03:11:18.690718+05:30
Shillong,Meghalaya,25.5788,91.8933,12.4,91,0.0,854.9,7.85,61.9,88,40.3,36.4,3,10,7,0,2026-03-18T03:11:18.690724+05:30
Imphal,Manipur,24.817,93.9368,14.8,92,0.0,924.3,8.15,66.2,98,55.3,46.9,3,10,7,0,2026-03-18T03:11:18.690731+05:30
Aizawl,Mizoram,23.7271,92.7176,16.0,91,0.0,893.1,8.05,44.3,91,46.7,40.4,3,10,7,0,2026-03-18T03:11:18.690739+05:30
Kohima,Nagaland,25.6701,94.1077,13.8,72,0.0,854.3,7.95,96.1,82,42.7,34.5,3,5,7,0,2026-03-18T03:11:18.690745+05:30
Gangtok,Sikkim,27.3314,88.6138,10.7,64,0.0,835.3,7.85,22.7,80,24.9,15.4,3,5,7,0,2026-03-18T03:11:18.690751+05:30
Siliguri,West Bengal,26.7271,88.3953,18.8,60,0.0,995.0,7.5,33.8,126,56.6,43.0,0,5,7,0,2026-03-18T03:11:22.052027+05:30
Durgapur,West Bengal,23.5204,87.3119,23.4,89,0.0,995.8,7.9,34.9,152,82.4,74.3,3,5,7,1,2026-03-18T03:11:22.052055+05:30
Asansol,West Bengal,23.6739,86.9524,24.2,75,0.0,994.2,7.85,42.5,151,81.3,70.5,3,5,7,1,2026-03-18T03:11:22.052064+05:30
Pondicherry,Puducherry,11.9139,79.8145,24.7,97,0.0,1008.9,9.1,26.6,25,9.8,6.4,3,0,4,1,2026-03-18T03:11:22.052072+05:30
Port Blair,Andaman and Nicobar Islands,11.6234,92.7265,27.9,80,0.0,1007.1,9.05,23.0,55,15.5,12.4,7,5,4,1,2026-03-18T03:11:22.052079+05:30
Haridwar,Uttarakhand,29.9457,78.1642,15.4,67,0.0,975.5,5.55,27.0,74,46.0,29.6,3,5,3,0,2026-03-18T03:11:22.052086+05:30
Rishikesh,Uttarakhand,30.0869,78.2676,15.7,53,0.0,968.0,5.7,17.3,63,52.0,22.3,0,5,3,0,2026-03-18T03:11:22.052094+05:30
Nainital,Uttarakhand,29.3919,79.4542,16.0,31,0.0,805.2,6.85,31.7,64,37.0,19.8,0,5,7,1,2026-03-18T03:11:22.052101+05:30
Mussoorie,Uttarakhand,30.4599,78.0664,12.3,42,0.0,800.8,5.75,32.0,69,37.7,22.7,0,5,3,1,2026-03-18T03:11:22.052108+05:30
Dharamshala,Himachal Pradesh,32.219,76.3234,16.5,26,0.0,868.6,5.0,23.0,53,11.2,4.7,0,5,3,1,2026-03-18T03:11:22.052114+05:30
Dalhousie,Himachal Pradesh,32.5387,75.971,12.4,34,0.0,801.9,4.35,31.3,74,55.5,30.7,0,5,3,1,2026-03-18T03:11:22.052121+05:30
Patiala,Punjab,30.3398,76.3869,14.2,91,0.0,979.7,4.85,28.1,134,166.7,81.0,3,10,3,0,2026-03-18T03:11:22.052128+05:30
Bhatinda,Punjab,30.211,74.9455,15.3,75,0.0,985.6,5.45,27.0,110,226.3,77.3,3,5,3,0,2026-03-18T03:11:22.052135+05:30
Rohtak,Haryana,28.8955,76.6066,16.3,90,0.0,983.0,5.75,31.7,178,231.0,81.3,3,10,3,0,2026-03-18T03:11:22.052142+05:30
Panipat,Haryana,29.3909,76.9635,15.3,91,0.0,981.6,5.1,36.0,172,256.1,89.6,3,10,3,0,2026-03-18T03:11:22.052149+05:30
Mathura,Uttar Pradesh,27.4924,77.6737,19.5,74,0.0,987.9,6.5,19.1,366,267.3,68.7,3,5,7,0,2026-03-18T03:11:22.052155+05:30
Vrindavan,Uttar Pradesh,27.5823,77.7027,19.0,76,0.0,988.4,6.45,19.4,366,267.3,68.7,3,5,7,0,2026-03-18T03:11:22.052162+05:30
Ayodhya,Uttar Pradesh,26.7922,82.1998,21.2,59,0.0,995.6,6.9,34.2,101,72.6,34.9,0,5,7,0,2026-03-18T03:11:22.052168+05:30
Ratlam,Madhya Pradesh,23.3315,75.0367,23.6,39,0.0,953.6,7.7,25.2,56,28.2,18.9,0,5,7,0,2026-03-18T03:11:22.052175+05:30
Sagar,Madhya Pradesh,23.8388,78.7378,21.0,49,0.0,948.7,7.7,35.6,42,18.3,12.9,0,5,7,0,2026-03-18T03:11:22.052181+05:30
Satna,Madhya Pradesh,24.6005,80.8322,23.2,52,0.0,970.3,7.6,30.2,80,43.0,24.9,0,5,7,0,2026-03-18T03:11:22.052188+05:30
Akola,Maharashtra,20.7002,77.0082,24.1,45,0.0,974.2,8.15,29.2,75,42.7,34.2,0,5,7,0,2026-03-18T03:11:22.052194+05:30
Amravati,Maharashtra,20.9374,77.7796,24.8,54,0.0,966.2,8.15,52.9,80,41.3,34.7,0,5,7,0,2026-03-18T03:11:22.052201+05:30
Latur,Maharashtra,18.4088,76.5604,21.6,71,0.0,939.2,8.55,34.2,114,41.4,36.6,3,5,7,1,2026-03-18T03:11:22.052207+05:30
Nanded,Maharashtra,19.1383,77.3091,24.0,61,0.0,968.2,8.4,32.8,99,40.0,36.3,3,5,7,0,2026-03-18T03:11:22.052214+05:30
Gulbarga,Karnataka,17.3297,76.8343,23.4,72,0.0,959.1,7.2,46.4,114,38.5,35.2,3,5,7,1,2026-03-18T03:11:22.052220+05:30
Bidar,Karnataka,17.9104,77.5199,23.2,68,0.0,935.2,6.95,43.9,106,32.4,29.5,3,5,7,1,2026-03-18T03:11:22.052226+05:30
Hospet,Karnataka,15.2689,76.3909,22.9,79,0.0,955.5,8.95,25.9,105,68.5,63.1,3,5,7,1,2026-03-18T03:11:22.052231+05:30
Tirupur,Tamil Nadu,11.1085,77.3411,24.1,81,0.0,975.3,9.35,22.0,75,24.0,22.3,3,5,7,1,2026-03-18T03:11:22.052237+05:30
Alappuzha,Kerala,9.4981,76.3388,26.8,85,0.0,1008.0,8.95,20.9,84,33.3,31.8,7,0,4,1,2026-03-18T03:11:22.052244+05:30
Munnar,Kerala,10.0889,77.0595,17.8,91,0.0,854.6,9.6,30.2,71,27.8,26.7,3,10,7,1,2026-03-18T03:11:22.052251+05:30
Silchar,Assam,24.8333,92.7789,19.3,89,0.0,1008.9,7.8,43.6,101,61.7,52.3,3,5,4,1,2026-03-18T03:11:22.052286+05:30
Dibrugarh,Assam,27.4728,94.912,18.8,88,0.0,998.9,7.55,28.1,96,34.1,27.6,3,10,7,1,2026-03-18T03:11:22.052295+05:30
