city,state,latitude,longitude,temp,humidity,rain,pressure,uv_index,wind_gusts,aqi,pm10,pm2_5,mosquito_risk,arthritis_risk,migraine_risk,frizz_risk,updated_at
Delhi,Delhi,28.6139,77.209,29.9,34,0.0,982.1,7.3,24.5,180,290.6,69.6,4,5,7,0,2026-04-16T22:48:49.370811+05:30
Mumbai,Maharashtra,19.076,72.8777,29.0,73,0.0,1007.9,8.0,19.1,80,56.8,23.3,7,5,4,1,2026-04-16T22:48:49.370854+05:30
Bangalore,Karnataka,12.9716,77.5946,27.2,57,0.0,912.5,9.6,32.8,100,30.0,27.8,4,5,7,1,2026-04-16T22:48:49.370868+05:30
Hyderabad,Telangana,17.385,78.4867,30.2,50,0.0,952.7,9.2,41.8,124,39.0,36.2,0,5,7,1,2026-04-16T22:48:49.370877+05:30
Chennai,Tamil Nadu,13.0827,80.2707,28.8,84,0.0,1006.9,9.3,34.2,34,11.6,8.1,7,5,4,1,2026-04-16T22:48:49.370885+05:30
Kolkata,West Bengal,22.5726,88.3639,26.3,92,0.0,1006.5,8.85,30.6,75,23.5,19.6,7,5,4,1,2026-04-16T22:48:49.370892+05:30
Pune,Maharashtra,18.5204,73.8567,26.4,62,0.0,948.1,8.6,46.4,162,34.8,29.2,7,5,7,1,2026-04-16T22:48:49.370901+05:30
Ahmedabad,Gujarat,23.0225,72.5714,32.0,45,0.0,1000.6,8.15,18.0,77,57.6,35.4,0,5,4,1,2026-04-16T22:48:49.370907+05:30
Jaipur,Rajasthan,26.9124,75.7873,30.8,32,0.0,958.5,7.95,26.6,125,134.6,40.5,0,5,7,0,2026-04-16T22:48:49.370913+05:30
Lucknow,Uttar Pradesh,26.8467,80.9462,29.5,36,0.0,992.8,7.8,23.8,102,120.6,40.5,4,5,7,0,2026-04-16T22:48:49.370920+05:30
Kanpur,Uttar Pradesh,26.4499,80.3319,30.3,34,0.0,990.3,7.8,21.2,144,236.6,52.4,0,5,7,0,2026-04-16T22:48:49.370926+05:30
Chandigarh,Chandigarh,30.7333,76.7794,23.1,49,0.0,968.1,7.1,25.6,111,25.6,21.0,0,5,7,0,2026-04-16T22:48:49.370933+05:30
Srinagar,Jammu and Kashmir,34.0837,74.7973,12.8,78,0.0,844.1,8.0,21.6,72,61.2,45.1,3,5,7,0,2026-04-16T22:48:49.370939+05:30
Jammu,Jammu and Kashmir,32.7266,74.857,25.4,53,0.0,972.4,7.6,39.2,58,32.2,27.8,4,5,7,0,2026-04-16T22:48:49.370945+05:30
Amritsar,Punjab,31.634,74.8723,26.4,49,0.0,979.8,7.65,34.9,109,21.5,17.9,4,5,7,0,2026-04-16T22:48:49.370950+05:30
Ludhiana,Punjab,30.901,75.8573,27.8,38,0.0,977.9,7.15,24.8,76,28.1,25.8,4,5,7,0,2026-04-16T22:48:49.370955+05:30
Jalandhar,Punjab,31.326,75.5762,25.3,50,0.0,978.7,7.2,25.6,84,27.6,16.6,4,5,7,0,2026-04-16T22:48:49.370962+05:30
Dehradun,Uttarakhand,30.6284,78.0322,16.4,61,0.0,831.4,7.1,31.0,96,20.0,14.3,3,5,7,0,2026-04-16T22:48:49.370967+05:30
Shimla,Himachal Pradesh,31.1048,77.1734,14.8,44,0.0,785.6,7.4,41.0,123,19.3,14.1,0,5,7,0,2026-04-16T22:48:49.370972+05:30
Manali,Himachal Pradesh,32.2396,77.1887,15.9,52,0.0,822.5,8.7,32.0,126,21.0,15.7,0,5,7,0,2026-04-16T22:48:49.370979+05:30
Gurgaon,Haryana,28.4595,77.0266,26.2,48,0.0,980.1,7.45,20.9,430,314.8,75.4,4,5,7,0,2026-04-16T22:48:49.370984+05:30
Noida,Uttar Pradesh,28.5355,77.391,29.0,39,0.0,983.6,7.35,25.6,430,314.8,75.4,4,5,7,0,2026-04-16T22:48:49.370990+05:30
Ghaziabad,Uttar Pradesh,28.6692,77.4538,27.0,41,0.0,981.5,7.35,22.7,128,220.3,65.4,4,5,7,0,2026-04-16T22:48:49.370995+05:30
Faridabad,Haryana,28.4089,77.3178,29.4,41,0.0,982.8,7.4,29.9,430,314.8,75.4,4,5,7,0,2026-04-16T22:48:49.371000+05:30
Meerut,Uttar Pradesh,28.9845,77.7064,25.3,43,0.0,980.3,7.2,28.1,128,220.3,65.4,4,5,7,0,2026-04-16T22:48:49.371005+05:30
Agra,Uttar Pradesh,27.1767,78.0081,27.9,39,0.0,986.2,7.7,25.6,427,323.2,83.4,4,5,7,0,2026-04-16T22:48:49.371010+05:30
Varanasi,Uttar Pradesh,25.3176,82.9739,27.5,40,0.0,996.8,8.4,20.5,103,162.5,63.8,4,5,7,0,2026-04-16T22:48:49.371017+05:30
Prayagraj,Uttar Pradesh,25.4358,81.8463,29.3,39,0.0,995.0,8.3,29.5,102,101.0,40.6,4,5,7,0,2026-04-16T22:48:49.371023+05:30
Gorakhpur,Uttar Pradesh,26.7606,83.3732,27.0,67,0.0,997.2,8.25,31.3,130,87.5,58.8,7,5,7,1,2026-04-16T22:48:49.371028+05:30
Bareilly,Uttar Pradesh,28.367,79.4304,26.9,45,0.0,985.8,7.6,25.6,82,46.2,35.9,4,5,7,0,2026-04-16T22:48:49.371033+05:30
Aligarh,Uttar Pradesh,27.8974,78.088,27.0,41,0.0,984.3,7.5,28.8,171,204.0,78.5,4,5,7,0,2026-04-16T22:48:49.371039+05:30
Moradabad,Uttar Pradesh,28.8386,78.7733,25.6,48,0.0,982.7,7.45,27.0,88,62.6,52.0,4,5,7,0,2026-04-16T22:48:49.371044+05:30
Saharanpur,Uttar Pradesh,29.9637,77.546,25.5,44,0.0,975.1,7.0,26.3,78,33.9,25.7,4,5,7,0,2026-04-16T22:48:49.371052+05:30
Jhansi,Uttar Pradesh,25.4484,78.5685,30.3,40,0.0,977.0,8.2,32.4,109,110.1,27.4,0,5,7,0,2026-04-16T22:48:52.675247+05:30
Surat,Gujarat,21.1702,72.8311,27.0,86,0.0,1006.1,7.8,27.7,83,46.3,30.4,7,5,4,1,2026-04-16T22:48:52.675281+05:30
Vadodara,Gujarat,22.3072,73.1812,28.5,61,0.0,1002.9,7.9,23.8,110,33.5,27.9,7,5,4,1,2026-04-16T22:48:52.675292+05:30
Rajkot,Gujarat,22.3039,70.8022,26.7,65,0.0,993.6,7.75,33.1,78,68.0,19.9,7,5,7,1,2026-04-16T22:48:52.675302+05:30
Thane,Maharashtra,19.2183,72.9781,27.0,79,0.0,1007.4,8.0,31.0,80,56.8,23.3,7,5,4,1,2026-04-16T22:48:52.675310+05:30
Nagpur,Maharashtra,21.1458,79.0882,29.8,40,0.0,970.8,8.85,22.7,93,26.3,19.6,4,5,7,0,2026-04-16T22:48:52.675319+05:30
Nashik,Maharashtra,19.9975,73.7898,24.9,65,0.0,945.2,8.3,32.0,57,31.1,20.4,3,5,7,1,2026-04-16T22:48:52.675328+05:30
Aurangabad,Maharashtra,19.8762,75.3433,30.2,35,0.0,943.6,8.95,31.3,77,22.2,16.4,0,5,7,0,2026-04-16T22:48:52.675337+05:30
Solapur,Maharashtra,17.6599,75.9064,31.4,29,0.0,955.4,9.05,23.0,84,30.9,26.1,0,5,7,0,2026-04-16T22:48:52.675346+05:30
Kolhapur,Maharashtra,16.705,74.2433,23.4,87,0.0,947.6,9.0,43.2,83,21.9,17.4,3,5,7,1,2026-04-16T22:48:52.675354+05:30
Goa,Goa,15.2993,74.124,28.4,78,0.0,997.8,9.0,28.4,73,31.3,23.0,7,5,7,1,2026-04-16T22:48:52.675362+05:30
Jodhpur,Rajasthan,26.2389,73.0243,30.1,42,0.0,980.9,7.55,31.7,77,174.6,31.7,0,5,7,0,2026-04-16T22:48:52.675371+05:30
Udaipur,Rajasthan,24.5854,73.7125,29.0,45,0.0,946.4,8.7,26.6,76,47.1,19.0,4,5,7,0,2026-04-16T22:48:52.675379+05:30
Kota,Rajasthan,25.2138,75.8648,32.0,40,0.0,977.0,8.2,14.8,122,93.1,33.5,0,5,7,1,2026-04-16T22:48:52.675387+05:30
Bikaner,Rajasthan,28.0229,73.3119,32.2,31,0.0,979.2,7.5,23.0,87,45.2,18.0,0,5,7,0,2026-04-16T22:48:52.675395+05:30
Ajmer,Rajasthan,26.4499,74.6399,30.2,37,0.0,953.4,8.15,26.6,91,82.0,36.1,0,5,7,0,2026-04-16T22:48:52.675403+05:30
Gwalior,Madhya Pradesh,26.2183,78.1828,31.6,31,0.0,981.9,7.95,34.6,140,138.8,31.9,0,5,7,0,2026-04-16T22:48:52.675411+05:30
Indore,Madhya Pradesh,22.7196,75.8577,28.3,54,0.0,947.2,8.55,25.9,76,57.2,38.3,4,5,7,1,2026-04-16T22:48:52.675420+05:30
Bhopal,Madhya Pradesh,23.2599,77.4126,31.5,39,0.0,952.3,8.55,20.9,78,53.4,33.5,0,5,7,0,2026-04-16T22:48:52.675428+05:30
Jabalpur,Madhya Pradesh,23.1815,79.9864,30.0,40,0.0,959.9,8.7,22.7,121,49.5,28.2,4,5,7,0,2026-04-16T22:48:52.675436+05:30
Ujjain,Madhya Pradesh,23.1765,75.7885,28.7,54,0.0,952.8,8.5,26.6,76,71.2,51.6,4,5,7,1,2026-04-16T22:48:52.675444+05:30
Visakhapatnam,Andhra Pradesh,17.6868,83.2185,28.1,85,0.0,1003.7,9.15,43.9,46,13.4,10.4,7,5,4,1,2026-04-16T22:48:52.675453+05:30
Vijayawada,Andhra Pradesh,16.5062,80.648,27.4,87,0.0,1002.1,9.2,29.5,44,13.2,11.3,7,5,4,1,2026-04-16T22:48:52.675461+05:30
Guntur,Andhra Pradesh,16.3067,80.4365,27.5,88,0.0,1003.4,9.2,32.4,58,13.9,12.0,7,5,4,1,2026-04-16T22:48:52.675468+05:30
Nellore,Andhra Pradesh,14.4426,79.9865,28.6,83,0.0,1005.1,9.25,34.2,65,10.2,8.6,7,5,4,1,2026-04-16T22:48:52.675475+05:30
Kurnool,Andhra Pradesh,15.8281,78.0373,32.3,50,0.0,975.7,9.2,31.0,122,38.1,34.3,0,5,7,1,2026-04-16T22:48:52.675483+05:30
Kakinada,Andhra Pradesh,16.9891,82.2475,27.5,87,0.0,1007.7,9.15,34.9,28,11.1,7.7,7,5,4,1,2026-04-16T22:48:52.675490+05:30
Tirupati,Andhra Pradesh,13.6288,79.4192,28.9,76,0.0,992.0,9.35,33.8,87,14.8,13.6,7,5,7,1,2026-04-16T22:48:52.675496+05:30
Warangal,Telangana,17.9689,79.5941,31.1,67,0.0,977.5,9.1,34.2,115,25.6,24.3,3,5,7,1,2026-04-16T22:48:52.675503+05:30
Nizamabad,Telangana,18.6725,78.0941,32.5,38,0.0,963.6,9.05,25.9,84,42.5,32.8,0,5,7,1,2026-04-16T22:48:52.675509+05:30
Mysore,Karnataka,12.2958,76.6396,25.5,80,0.0,929.3,9.5,42.1,98,29.3,26.4,7,5,7,1,2026-04-16T22:48:52.675516+05:30
Mangalore,Karnataka,12.9141,74.856,30.3,79,0.0,1006.5,8.7,21.6,87,51.1,22.3,3,5,4,1,2026-04-16T22:48:52.675523+05:30
Hubli-Dharwad,Karnataka,15.3647,75.124,25.5,79,0.0,940.7,9.2,33.8,97,23.0,14.2,7,5,7,1,2026-04-16T22:48:52.675530+05:30
Belgaum,Karnataka,15.8497,74.4977,22.9,94,0.0,925.4,9.25,36.0,74,20.8,16.6,3,5,7,1,2026-04-16T22:48:55.983135+05:30
Coimbatore,Tamil Nadu,11.0168,76.9558,26.3,82,0.0,962.4,9.45,37.8,98,48.2,43.7,7,5,7,1,2026-04-16T22:48:55.983170+05:30
Madurai,Tamil Nadu,9.9252,78.1198,29.1,75,0.0,993.7,9.25,45.7,62,21.7,19.8,7,5,7,1,2026-04-16T22:48:55.983182+05:30
Trichy,Tamil Nadu,10.7905,78.7047,29.0,79,0.0,999.8,9.35,25.2,52,17.2,16.2,7,5,7,1,2026-04-16T22:48:55.983191+05:30
Salem,Tamil Nadu,11.6643,78.146,28.0,69,0.0,977.1,9.45,26.3,84,26.0,23.0,7,5,7,1,2026-04-16T22:48:55.983199+05:30
Tirunelveli,Tamil Nadu,8.7139,77.7567,29.4,67,0.0,1003.6,8.85,52.2,79,30.9,25.8,7,5,4,1,2026-04-16T22:48:55.983207+05:30
Vellore,Tamil Nadu,12.9165,79.1325,27.8,82,0.0,984.9,9.4,32.4,88,28.8,27.7,7,5,7,1,2026-04-16T22:48:55.983216+05:30
Erode,Tamil Nadu,11.341,77.7172,30.7,55,0.0,988.8,9.4,30.2,83,18.2,16.1,0,5,7,1,2026-04-16T22:48:55.983225+05:30
Kochi,Kerala,9.9312,76.2673,29.0,80,0.0,1009.2,9.2,29.9,103,43.4,38.4,7,0,4,1,2026-04-16T22:48:55.983233+05:30
Thiruvananthapuram,Kerala,8.5241,76.9366,29.2,82,0.0,1008.4,9.15,32.8,80,41.2,28.5,7,0,4,1,2026-04-16T22:48:55.983242+05:30
Kozhikode,Kerala,11.2588,75.7804,30.4,77,0.0,1008.0,9.15,31.7,89,53.7,31.5,3,0,4,1,2026-04-16T22:48:55.983250+05:30
Thrissur,Kerala,10.5276,76.2144,29.4,82,0.0,1007.2,9.15,34.6,105,56.9,45.8,7,5,4,1,2026-04-16T22:48:55.983260+05:30
Kannur,Kerala,11.8745,75.3704,30.0,78,0.0,1007.3,9.15,32.4,93,53.1,36.2,7,5,4,1,2026-04-16T22:48:55.983268+05:30
Patna,Bihar,25.5941,85.1376,28.1,77,0.0,1001.3,8.55,34.2,160,59.6,56.6,7,5,4,1,2026-04-16T22:48:55.983276+05:30
Gaya,Bihar,24.7914,85.0002,27.2,83,0.0,994.2,8.65,23.0,134,59.8,55.1,7,5,7,1,2026-04-16T22:48:55.983285+05:30
Muzaffarpur,Bihar,26.1209,85.3647,26.5,80,0.0,1001.6,8.5,35.3,153,62.2,58.0,7,5,4,1,2026-04-16T22:48:55.983293+05:30
Bhagalpur,Bihar,25.2425,87.0117,26.1,88,0.0,1002.9,8.55,30.6,151,40.2,36.3,7,5,4,1,2026-04-16T22:48:55.983301+05:30
Ranchi,Jharkhand,23.3441,85.3096,23.9,93,0.0,938.3,9.15,39.6,142,60.3,51.9,3,5,7,1,2026-04-16T22:48:55.983309+05:30
Jamshedpur,Jharkhand,22.8046,86.2029,27.5,89,0.0,991.0,8.95,31.0,171,19.3,18.2,7,5,7,1,2026-04-16T22:48:55.983317+05:30
Dhanbad,Jharkhand,23.7957,86.4304,26.5,82,0.0,980.7,8.9,29.2,182,56.5,53.8,7,5,7,1,2026-04-16T22:48:55.983325+05:30
Bokaro,Jharkhand,23.6693,86.1511,25.6,91,0.0,984.8,8.95,28.8,179,63.3,61.7,7,5,7,1,2026-04-16T22:48:55.983334+05:30
Bhubaneswar,Odisha,20.2961,85.8245,27.2,89,0.0,1002.3,9.1,39.6,50,12.0,9.2,7,5,4,1,2026-04-16T22:48:55.983342+05:30
Cuttack,Odisha,20.4625,85.8828,27.4,88,0.0,1004.1,9.15,37.1,50,12.0,9.2,7,5,4,1,2026-04-16T22:48:55.983350+05:30
Rourkela,Odisha,22.2604,84.8536,28.7,76,0.0,984.6,8.9,50.4,123,50.4,45.1,7,5,7,1,2026-04-16T22:48:55.983359+05:30
Raipur,Chhattisgarh,21.2514,81.6296,31.1,38,0.0,972.2,8.95,32.0,112,45.2,39.6,0,5,7,0,2026-04-16T22:48:55.983367+05:30
Bhilai,Chhattisgarh,21.1938,81.3509,29.1,48,0.0,972.5,8.95,29.2,102,32.9,27.0,4,5,7,1,2026-04-16T22:48:55.983375+05:30
Guwahati,Assam,26.1158,91.7086,27.3,72,0.0,1004.1,8.45,24.5,135,91.7,67.5,7,5,4,1,2026-04-16T22:48:55.983383+05:30
Agartala,Tripura,23.8315,91.2868,24.1,92,0.0,1008.7,8.7,27.4,142,85.2,70.3,3,0,4,1,2026-04-16T22:48:55.983391+05:30
Shillong,Meghalaya,25.5788,91.8933,14.0,95,0.0,857.6,7.75,43.2,115,57.2,44.0,3,10,7,0,2026-04-16T22:48:55.983400+05:30
Imphal,Manipur,24.817,93.9368,18.9,77,0.0,925.3,9.05,69.5,124,85.7,64.5,3,5,7,0,2026-04-16T22:48:55.983408+05:30
Aizawl,Mizoram,23.7271,92.7176,19.3,83,0.0,894.2,8.95,37.4,140,92.4,66.1,3,10,7,1,2026-04-16T22:48:55.983416+05:30
Kohima,Nagaland,25.6701,94.1077,16.0,77,0.0,857.1,8.5,57.2,107,81.7,53.0,3,5,7,0,2026-04-16T22:48:55.983424+05:30
Gangtok,Sikkim,27.3314,88.6138,15.6,95,0.0,839.9,8.8,19.4,107,54.2,39.8,3,10,7,0,2026-04-16T22:48:55.983432+05:30
Siliguri,West Bengal,26.7271,88.3953,21.6,79,0.0,997.4,8.45,24.8,161,94.8,65.2,3,5,7,1,2026-04-16T22:48:59.299333+05:30
Durgapur,West Bengal,23.5204,87.3119,26.3,88,0.0,996.0,8.85,27.4,138,53.2,48.8,7,5,7,1,2026-04-16T22:48:59.299367+05:30
Asansol,West Bengal,23.6739,86.9524,26.7,84,0.0,994.6,8.9,28.1,151,49.5,46.2,7,5,7,1,2026-04-16T22:48:59.299378+05:30
Pondicherry,Puducherry,11.9139,79.8145,27.7,93,0.0,1008.3,9.25,25.9,34,9.6,6.3,7,0,4,1,2026-04-16T22:48:59.299387+05:30
Port Blair,Andaman and Nicobar Islands,11.6234,92.7265,29.5,72,0.0,1007.3,9.2,13.3,63,26.5,18.0,7,5,4,1,2026-04-16T22:48:59.299397+05:30
Haridwar,Uttarakhand,29.9457,78.1642,22.3,64,0.0,973.9,7.05,30.6,79,35.6,23.9,3,5,7,0,2026-04-16T22:48:59.299407+05:30
Rishikesh,Uttarakhand,30.0869,78.2676,21.9,63,0.0,967.2,7.1,31.7,89,27.0,14.7,3,5,7,0,2026-04-16T22:48:59.299416+05:30
Nainital,Uttarakhand,29.3919,79.4542,22.2,23,0.0,808.3,8.1,38.9,111,22.9,15.0,0,5,7,0,2026-04-16T22:48:59.299424+05:30
Mussoorie,Uttarakhand,30.4599,78.0664,18.6,52,0.0,804.3,6.7,39.2,104,34.9,22.5,0,5,7,0,2026-04-16T22:48:59.299432+05:30
Dharamshala,Himachal Pradesh,32.219,76.3234,23.2,37,0.0,871.0,7.55,25.2,107,17.9,11.0,0,5,7,0,2026-04-16T22:48:59.299440+05:30
Dalhousie,Himachal Pradesh,32.5387,75.971,20.2,34,0.0,806.0,7.8,25.6,93,29.2,23.1,0,5,7,0,2026-04-16T22:48:59.299448+05:30
Patiala,Punjab,30.3398,76.3869,25.2,50,0.0,977.3,7.2,23.0,101,85.2,37.6,4,5,7,0,2026-04-16T22:48:59.299454+05:30
Bhatinda,Punjab,30.211,74.9455,29.0,34,0.0,982.0,7.25,19.8,95,78.5,27.0,4,5,7,0,2026-04-16T22:48:59.299462+05:30
Rohtak,Haryana,28.8955,76.6066,23.2,56,0.0,980.3,7.3,26.6,302,404.2,77.5,0,5,7,0,2026-04-16T22:48:59.299469+05:30
Panipat,Haryana,29.3909,76.9635,25.0,45,0.0,979.2,7.15,25.9,277,756.2,101.3,4,5,7,0,2026-04-16T22:48:59.299476+05:30
Mathura,Uttar Pradesh,27.4924,77.6737,26.8,40,0.0,985.5,7.65,27.0,343,258.0,78.2,4,5,7,0,2026-04-16T22:48:59.299483+05:30
Vrindavan,Uttar Pradesh,27.5823,77.7027,27.2,40,0.0,986.0,7.6,24.8,343,258.0,78.2,4,5,7,0,2026-04-16T22:48:59.299489+05:30
Ayodhya,Uttar Pradesh,26.7922,82.1998,26.2,42,0.0,994.6,8.0,23.8,90,77.5,41.2,4,5,7,0,2026-04-16T22:48:59.299496+05:30
Ratlam,Madhya Pradesh,23.3315,75.0367,27.5,64,0.0,953.6,8.45,29.5,75,44.4,30.6,7,5,7,1,2026-04-16T22:48:59.299503+05:30
Sagar,Madhya Pradesh,23.8388,78.7378,30.5,42,0.0,949.0,8.55,19.4,120,64.7,19.2,0,5,7,1,2026-04-16T22:48:59.299510+05:30
Satna,Madhya Pradesh,24.6005,80.8322,29.6,40,0.0,971.1,8.6,25.6,119,124.8,23.7,4,5,7,0,2026-04-16T22:48:59.299517+05:30
Akola,Maharashtra,20.7002,77.0082,30.1,41,0.0,973.3,8.8,26.3,84,25.9,19.4,0,5,7,0,2026-04-16T22:48:59.299525+05:30
Amravati,Maharashtra,20.9374,77.7796,29.3,45,0.0,965.0,8.8,22.0,79,22.5,16.9,4,5,7,1,2026-04-16T22:48:59.299533+05:30
Latur,Maharashtra,18.4088,76.5604,27.7,42,0.0,938.5,9.05,23.0,82,22.2,17.5,4,5,7,0,2026-04-16T22:48:59.299540+05:30
Nanded,Maharashtra,19.1383,77.3091,30.5,41,0.0,966.7,8.95,17.3,70,46.6,37.1,0,5,7,0,2026-04-16T22:48:59.299547+05:30
Gulbarga,Karnataka,17.3297,76.8343,32.9,39,0.0,957.7,9.1,22.3,165,35.2,32.2,0,5,7,1,2026-04-16T22:48:59.299553+05:30
Bidar,Karnataka,17.9104,77.5199,30.8,46,0.0,935.1,9.1,34.2,111,48.9,43.1,0,5,7,1,2026-04-16T22:48:59.299560+05:30
Hospet,Karnataka,15.2689,76.3909,30.2,59,0.0,955.3,9.25,35.3,126,57.4,49.5,0,5,7,1,2026-04-16T22:48:59.299567+05:30
Tirupur,Tamil Nadu,11.1085,77.3411,28.5,68,0.0,975.6,9.45,32.4,97,24.4,21.1,7,5,7,1,2026-04-16T22:48:59.299573+05:30
Alappuzha,Kerala,9.4981,76.3388,29.1,81,0.0,1009.4,9.05,28.8,96,44.1,34.0,7,0,4,1,2026-04-16T22:48:59.299579+05:30
Munnar,Kerala,10.0889,77.0595,22.8,86,0.0,858.0,9.05,37.1,75,38.9,34.8,3,5,7,1,2026-04-16T22:48:59.299585+05:30
Silchar,Assam,24.8333,92.7789,24.4,89,0.0,1007.0,8.7,27.4,142,113.9,85.0,3,5,4,1,2026-04-16T22:48:59.299591+05:30
Dibrugarh,Assam,27.4728,94.912,24.2,81,0.0,998.5,8.55,7.9,136,95.0,63.6,3,5,7,1,2026-04-16T22:48:59.299596+05:30
