city,state,latitude,longitude,temp,humidity,rain,pressure,uv_index,wind_gusts,aqi,pm10,pm2_5,no2,co,o3,so2,mosquito_risk,arthritis_risk,migraine_risk,frizz_risk,updated_at
Delhi,Delhi,28.6139,77.209,38.9,30,0.0,976.2,7.8,42.1,534,622.1,120.6,13.1,275.0,148.0,16.0,0,5,10,1,2026-06-09T10:39:10.189820+05:30
Mumbai,Maharashtra,19.076,72.8777,31.7,67,0.1,1007.3,7.45,44.3,83,78.2,29.7,6.7,207.0,99.0,9.5,6,5,4,1,2026-06-09T10:39:10.189859+05:30
Bangalore,Karnataka,12.9716,77.5946,26.8,62,0.1,912.9,7.0,54.7,19,2.6,2.4,4.7,247.0,63.0,2.9,10,5,7,1,2026-06-09T10:39:10.189874+05:30
Hyderabad,Telangana,17.385,78.4867,31.7,54,0.0,952.1,8.2,47.5,62,29.2,16.4,4.6,254.0,87.0,5.5,0,5,7,1,2026-06-09T10:39:10.189884+05:30
Chennai,Tamil Nadu,13.0827,80.2707,36.0,40,0.0,1005.4,7.85,50.0,50,7.5,6.6,6.2,179.0,83.0,10.5,0,5,7,1,2026-06-09T10:39:10.189892+05:30
Kolkata,West Bengal,22.5726,88.3639,34.6,62,0.0,999.5,8.95,34.2,128,79.6,59.8,4.3,509.0,194.0,17.5,3,5,7,1,2026-06-09T10:39:10.189900+05:30
Pune,Maharashtra,18.5204,73.8567,31.1,51,0.0,947.9,7.15,45.7,50,35.4,13.0,2.8,148.0,80.0,4.8,0,5,7,1,2026-06-09T10:39:10.189906+05:30
Ahmedabad,Gujarat,23.0225,72.5714,35.7,46,0.0,998.8,8.1,43.6,86,83.8,33.2,2.7,149.0,87.0,6.2,0,5,10,1,2026-06-09T10:39:10.189913+05:30
Jaipur,Rajasthan,26.9124,75.7873,36.0,42,0.0,955.7,8.25,44.6,143,347.4,70.3,2.0,159.0,99.0,3.7,0,5,10,1,2026-06-09T10:39:10.189924+05:30
Lucknow,Uttar Pradesh,26.8467,80.9462,38.6,32,0.0,986.3,8.3,46.1,156,176.5,60.8,6.9,230.0,171.0,11.4,0,5,10,1,2026-06-09T10:39:10.189930+05:30
Kanpur,Uttar Pradesh,26.4499,80.3319,39.5,30,0.0,984.7,8.35,57.2,255,495.5,74.7,4.3,195.0,135.0,7.3,0,5,10,1,2026-06-09T10:39:10.189937+05:30
Chandigarh,Chandigarh,30.7333,76.7794,35.4,32,0.0,962.4,7.8,33.8,79,34.3,21.7,4.7,521.0,197.0,11.4,0,5,10,1,2026-06-09T10:39:10.189944+05:30
Srinagar,Jammu and Kashmir,34.0837,74.7973,24.5,45,0.0,840.9,9.0,16.6,73,19.2,11.4,3.2,390.0,152.0,4.1,0,5,7,0,2026-06-09T10:39:10.189951+05:30
Jammu,Jammu and Kashmir,32.7266,74.857,37.5,21,0.0,965.8,8.6,34.6,74,29.3,18.1,5.6,276.0,176.0,5.1,0,5,10,0,2026-06-09T10:39:10.189959+05:30
Amritsar,Punjab,31.634,74.8723,38.5,27,0.0,973.4,8.45,26.6,114,61.7,35.0,5.7,462.0,175.0,10.6,0,5,10,1,2026-06-09T10:39:10.189965+05:30
Ludhiana,Punjab,30.901,75.8573,38.8,22,0.0,971.7,8.0,35.6,108,37.0,28.2,7.0,527.0,191.0,13.0,0,5,10,0,2026-06-09T10:39:10.189972+05:30
Jalandhar,Punjab,31.326,75.5762,38.9,23,0.0,972.7,8.25,32.8,103,34.8,24.6,5.1,480.0,191.0,8.6,0,5,10,0,2026-06-09T10:39:10.189978+05:30
Dehradun,Uttarakhand,30.6284,78.0322,26.3,37,0.0,829.8,8.25,44.6,56,17.6,12.0,0.7,190.0,162.0,2.0,4,5,7,0,2026-06-09T10:39:10.189984+05:30
Shimla,Himachal Pradesh,31.1048,77.1734,24.2,27,0.0,785.8,8.35,51.1,60,17.7,11.6,0.3,197.0,166.0,2.3,0,5,7,0,2026-06-09T10:39:10.189994+05:30
Manali,Himachal Pradesh,32.2396,77.1887,25.5,37,0.0,818.4,9.0,34.2,52,9.9,7.7,6.1,149.0,139.0,0.5,4,5,7,0,2026-06-09T10:39:10.190001+05:30
Gurgaon,Haryana,28.4595,77.0266,38.1,33,0.0,974.9,7.9,42.8,1112,2801.4,363.2,8.7,210.0,117.0,12.2,0,5,10,1,2026-06-09T10:39:10.190007+05:30
Noida,Uttar Pradesh,28.5355,77.391,38.5,32,0.0,977.4,7.85,36.0,1112,2801.4,363.2,8.7,296.0,117.0,12.2,0,5,10,1,2026-06-09T10:39:10.190013+05:30
Ghaziabad,Uttar Pradesh,28.6692,77.4538,38.0,31,0.0,975.7,7.85,40.0,430,439.6,112.5,17.0,327.0,211.0,30.0,0,5,10,1,2026-06-09T10:39:10.190020+05:30
Faridabad,Haryana,28.4089,77.3178,38.4,33,0.0,976.8,7.9,44.3,1112,2801.4,363.2,8.7,230.0,117.0,12.2,0,5,10,1,2026-06-09T10:39:10.190027+05:30
Meerut,Uttar Pradesh,28.9845,77.7064,36.2,39,0.0,974.6,7.75,37.1,430,439.6,112.5,17.0,483.0,211.0,30.0,0,5,10,1,2026-06-09T10:39:10.190033+05:30
Agra,Uttar Pradesh,27.1767,78.0081,38.7,37,0.0,981.4,8.15,51.5,668,1803.0,206.3,4.2,185.0,110.0,5.4,0,5,10,1,2026-06-09T10:39:10.190039+05:30
Varanasi,Uttar Pradesh,25.3176,82.9739,39.8,28,0.0,990.8,8.8,43.9,127,63.8,27.7,3.2,220.0,126.0,7.5,0,5,10,1,2026-06-09T10:39:10.190046+05:30
Prayagraj,Uttar Pradesh,25.4358,81.8463,39.8,31,0.0,989.1,8.7,47.2,127,54.6,28.2,3.6,179.0,129.0,7.6,0,5,10,1,2026-06-09T10:39:10.190053+05:30
Gorakhpur,Uttar Pradesh,26.7606,83.3732,35.1,49,0.0,990.7,8.7,25.6,155,145.8,83.6,5.5,537.0,202.0,15.5,0,5,10,1,2026-06-09T10:39:10.190061+05:30
Bareilly,Uttar Pradesh,28.367,79.4304,35.5,43,0.0,979.8,8.15,27.0,155,158.3,57.4,3.9,448.0,204.0,14.2,0,5,10,1,2026-06-09T10:39:10.190067+05:30
Aligarh,Uttar Pradesh,27.8974,78.088,37.5,40,0.0,978.8,8.0,47.9,607,1356.0,204.4,9.9,230.0,137.0,13.8,0,5,10,1,2026-06-09T10:39:10.190074+05:30
Moradabad,Uttar Pradesh,28.8386,78.7733,37.1,35,0.0,976.8,7.95,37.8,164,119.0,59.1,9.2,512.0,226.0,20.6,0,5,10,1,2026-06-09T10:39:10.190080+05:30
Saharanpur,Uttar Pradesh,29.9637,77.546,34.2,47,0.0,969.2,7.5,32.4,113,73.1,40.0,7.0,426.0,211.0,12.0,0,5,7,1,2026-06-09T10:39:10.190087+05:30
Jhansi,Uttar Pradesh,25.4484,78.5685,38.2,38,0.0,972.8,8.25,48.2,76,46.9,23.8,1.7,155.0,108.0,5.4,0,5,10,1,2026-06-09T10:39:13.558932+05:30
Surat,Gujarat,21.1702,72.8311,34.3,55,0.0,1004.4,7.6,51.5,81,68.2,27.9,11.4,315.0,65.0,34.1,0,5,4,1,2026-06-09T10:39:13.558965+05:30
Vadodara,Gujarat,22.3072,73.1812,35.3,50,0.0,1001.3,8.05,47.5,82,77.3,30.0,2.4,149.0,86.0,3.7,0,5,7,1,2026-06-09T10:39:13.558977+05:30
Rajkot,Gujarat,22.3039,70.8022,34.8,49,0.0,991.2,7.5,49.3,85,70.3,29.7,1.5,110.0,81.0,3.8,0,5,7,1,2026-06-09T10:39:13.558987+05:30
Thane,Maharashtra,19.2183,72.9781,32.5,63,0.1,1006.6,7.2,41.0,83,78.2,29.7,6.7,191.0,99.0,9.5,6,5,4,1,2026-06-09T10:39:13.558995+05:30
Nagpur,Maharashtra,21.1458,79.0882,37.1,35,0.0,970.3,8.25,43.2,94,61.5,34.0,7.1,171.0,133.0,22.9,0,5,10,1,2026-06-09T10:39:13.559003+05:30
Nashik,Maharashtra,19.9975,73.7898,31.5,52,0.0,944.9,7.8,47.5,72,36.8,14.2,2.9,148.0,75.0,5.0,0,5,7,1,2026-06-09T10:39:13.559010+05:30
Aurangabad,Maharashtra,19.8762,75.3433,32.5,48,0.0,943.5,9.0,47.5,73,54.5,21.0,2.1,134.0,88.0,5.9,0,5,7,1,2026-06-09T10:39:13.559018+05:30
Solapur,Maharashtra,17.6599,75.9064,31.9,53,0.0,956.9,5.75,53.3,61,34.3,13.9,1.8,119.0,78.0,1.9,0,5,3,1,2026-06-09T10:39:13.559025+05:30
Kolhapur,Maharashtra,16.705,74.2433,26.8,72,0.0,948.6,7.15,44.3,28,12.5,7.3,3.9,135.0,64.0,2.1,7,5,7,1,2026-06-09T10:39:13.559032+05:30
Goa,Goa,15.2993,74.124,28.9,74,0.0,999.5,3.95,29.2,25,7.3,4.0,1.9,140.0,61.0,1.0,7,5,3,1,2026-06-09T10:39:13.559040+05:30
Jodhpur,Rajasthan,26.2389,73.0243,34.1,51,0.0,978.3,8.45,49.0,152,257.0,58.7,1.2,119.0,81.0,2.5,0,5,7,1,2026-06-09T10:39:13.559047+05:30
Udaipur,Rajasthan,24.5854,73.7125,31.9,53,0.0,943.9,8.85,45.0,77,80.8,30.9,0.9,119.0,81.0,3.0,0,5,7,1,2026-06-09T10:39:13.559054+05:30
Kota,Rajasthan,25.2138,75.8648,36.2,45,0.0,974.7,8.4,38.5,83,56.9,31.3,2.6,147.0,106.0,9.1,0,5,10,1,2026-06-09T10:39:13.559061+05:30
Bikaner,Rajasthan,28.0229,73.3119,37.9,37,0.0,975.8,8.45,42.1,135,126.2,51.1,0.8,119.0,89.0,4.4,0,5,10,1,2026-06-09T10:39:13.559068+05:30
Ajmer,Rajasthan,26.4499,74.6399,32.6,54,0.0,950.8,8.35,52.9,91,61.5,30.9,1.4,134.0,94.0,3.6,0,5,7,1,2026-06-09T10:39:13.559075+05:30
Gwalior,Madhya Pradesh,26.2183,78.1828,38.3,38,0.0,977.6,8.25,51.1,87,62.9,26.7,1.7,157.0,100.0,3.7,0,5,10,1,2026-06-09T10:39:13.559081+05:30
Indore,Madhya Pradesh,22.7196,75.8577,33.4,51,0.0,946.0,8.65,50.4,82,52.4,30.4,2.5,180.0,88.0,6.6,0,5,7,1,2026-06-09T10:39:13.559088+05:30
Bhopal,Madhya Pradesh,23.2599,77.4126,34.9,48,0.0,950.9,8.7,39.6,86,55.5,30.3,1.7,176.0,101.0,8.1,0,5,7,1,2026-06-09T10:39:13.559096+05:30
Jabalpur,Madhya Pradesh,23.1815,79.9864,36.5,40,0.0,958.1,8.85,34.9,78,45.5,27.7,2.1,176.0,127.0,7.0,0,5,10,1,2026-06-09T10:39:13.559103+05:30
Ujjain,Madhya Pradesh,23.1765,75.7885,32.9,55,0.0,951.4,8.6,48.2,81,52.9,30.6,2.0,154.0,87.0,6.7,0,5,7,1,2026-06-09T10:39:13.559110+05:30
Visakhapatnam,Andhra Pradesh,17.6868,83.2185,37.1,45,0.0,998.3,8.0,36.0,88,52.5,38.0,13.4,472.0,155.0,43.4,0,5,10,1,2026-06-09T10:39:13.559117+05:30
Vijayawada,Andhra Pradesh,16.5062,80.648,35.6,49,0.0,999.6,5.7,41.4,66,23.8,15.8,4.6,193.0,94.0,9.1,0,5,6,1,2026-06-09T10:39:13.559124+05:30
Guntur,Andhra Pradesh,16.3067,80.4365,34.9,51,0.0,1001.0,6.95,40.0,61,23.0,14.6,4.1,186.0,92.0,7.9,0,5,4,1,2026-06-09T10:39:13.559131+05:30
Nellore,Andhra Pradesh,14.4426,79.9865,34.7,47,0.0,1003.7,7.1,48.6,39,6.9,4.9,2.4,130.0,87.0,4.5,0,5,4,1,2026-06-09T10:39:13.559138+05:30
Kurnool,Andhra Pradesh,15.8281,78.0373,32.4,55,0.0,976.6,7.0,41.0,43,12.7,6.3,2.1,153.0,79.0,4.5,0,5,7,1,2026-06-09T10:39:13.559146+05:30
Kakinada,Andhra Pradesh,16.9891,82.2475,35.3,51,0.0,1003.2,7.95,46.8,69,29.6,22.2,3.6,241.0,133.0,8.1,0,5,7,1,2026-06-09T10:39:13.559153+05:30
Tirupati,Andhra Pradesh,13.6288,79.4192,35.0,41,0.0,989.7,7.65,46.1,26,4.7,3.3,1.7,117.0,76.0,1.4,0,5,7,1,2026-06-09T10:39:13.559160+05:30
Warangal,Telangana,17.9689,79.5941,34.4,48,0.0,976.0,5.2,52.9,76,48.5,29.5,3.4,185.0,107.0,5.3,0,5,3,1,2026-06-09T10:39:13.559167+05:30
Nizamabad,Telangana,18.6725,78.0941,34.1,43,0.0,963.2,8.95,41.0,88,75.9,33.9,2.1,150.0,105.0,6.4,0,5,7,1,2026-06-09T10:39:13.559174+05:30
Mysore,Karnataka,12.2958,76.6396,25.2,74,0.1,930.2,7.4,57.2,20,2.8,2.6,4.5,138.0,58.0,1.8,10,5,7,1,2026-06-09T10:39:13.559181+05:30
Mangalore,Karnataka,12.9141,74.856,25.7,96,0.2,1009.2,7.25,33.5,32,13.0,6.1,2.8,141.0,55.0,1.3,10,0,4,1,2026-06-09T10:39:13.559188+05:30
Hubli-Dharwad,Karnataka,15.3647,75.124,26.3,74,0.0,942.0,4.9,44.6,21,2.3,1.8,3.4,118.0,53.0,0.8,7,5,3,1,2026-06-09T10:39:13.559195+05:30
Belgaum,Karnataka,15.8497,74.4977,25.3,74,0.0,926.7,6.25,41.0,22,4.1,2.6,3.6,119.0,57.0,1.7,7,5,7,1,2026-06-09T10:39:16.918561+05:30
Coimbatore,Tamil Nadu,11.0168,76.9558,24.9,82,0.0,963.3,7.05,52.9,20,2.6,2.2,3.2,161.0,56.0,1.7,3,5,7,1,2026-06-09T10:39:16.918591+05:30
Madurai,Tamil Nadu,9.9252,78.1198,34.6,43,0.0,993.4,7.9,78.1,28,4.6,3.8,2.8,115.0,66.0,2.6,0,5,7,1,2026-06-09T10:39:16.918601+05:30
Trichy,Tamil Nadu,10.7905,78.7047,34.6,45,0.0,999.8,8.15,77.8,20,7.8,6.0,3.0,117.0,76.0,2.8,0,5,7,1,2026-06-09T10:39:16.918609+05:30
Salem,Tamil Nadu,11.6643,78.146,33.2,46,0.0,978.1,7.05,42.8,25,5.8,5.3,5.2,155.0,71.0,7.9,0,5,7,1,2026-06-09T10:39:16.918617+05:30
Tirunelveli,Tamil Nadu,8.7139,77.7567,33.0,50,0.0,1005.0,6.85,53.3,16,4.7,2.9,2.1,122.0,50.0,1.0,0,5,4,1,2026-06-09T10:39:16.918625+05:30
Vellore,Tamil Nadu,12.9165,79.1325,34.9,42,0.0,983.6,8.35,49.7,22,3.6,3.4,3.9,122.0,57.0,3.2,0,5,7,1,2026-06-09T10:39:16.918632+05:30
Erode,Tamil Nadu,11.341,77.7172,33.2,47,0.0,989.7,7.05,58.7,18,3.7,3.1,3.3,146.0,64.0,2.1,0,5,7,1,2026-06-09T10:39:16.918639+05:30
Kochi,Kerala,9.9312,76.2673,26.7,88,0.2,1012.6,8.4,50.4,36,10.4,6.3,5.2,109.0,47.0,2.3,10,0,4,1,2026-06-09T10:39:16.918646+05:30
Thiruvananthapuram,Kerala,8.5241,76.9366,27.9,82,0.0,1011.6,7.85,53.6,33,14.6,7.8,1.3,95.0,48.0,0.6,7,0,4,1,2026-06-09T10:39:16.918653+05:30
Kozhikode,Kerala,11.2588,75.7804,26.3,94,0.3,1011.4,6.7,41.4,28,9.2,4.7,0.6,110.0,63.0,0.4,10,0,4,1,2026-06-09T10:39:16.918659+05:30
Thrissur,Kerala,10.5276,76.2144,26.2,94,0.3,1010.8,8.2,44.3,32,7.9,5.1,3.2,123.0,53.0,1.6,10,0,4,1,2026-06-09T10:39:16.918667+05:30
Kannur,Kerala,11.8745,75.3704,26.1,96,0.3,1010.1,7.6,42.1,24,8.3,4.0,2.7,133.0,57.0,0.8,10,0,4,1,2026-06-09T10:39:16.918674+05:30
Patna,Bihar,25.5941,85.1376,35.3,55,0.0,994.1,8.85,24.8,173,130.9,79.9,9.2,465.0,225.0,18.8,0,5,10,1,2026-06-09T10:39:16.918682+05:30
Gaya,Bihar,24.7914,85.0002,38.1,33,0.0,987.9,8.15,32.0,154,108.7,45.6,2.9,221.0,151.0,12.8,0,5,10,1,2026-06-09T10:39:16.918689+05:30
Muzaffarpur,Bihar,26.1209,85.3647,33.4,63,0.0,994.3,8.85,30.6,174,110.6,83.4,6.0,522.0,226.0,20.2,3,5,7,1,2026-06-09T10:39:16.918696+05:30
Bhagalpur,Bihar,25.2425,87.0117,34.6,62,0.0,995.1,8.85,33.8,155,77.5,65.2,6.2,562.0,215.0,25.2,3,5,7,1,2026-06-09T10:39:16.918702+05:30
Ranchi,Jharkhand,23.3441,85.3096,33.9,35,0.0,934.3,9.25,32.8,129,91.3,37.5,2.7,220.0,140.0,9.8,0,5,7,1,2026-06-09T10:39:16.918709+05:30
Jamshedpur,Jharkhand,22.8046,86.2029,34.6,52,0.0,985.2,8.9,30.2,146,75.9,51.6,6.3,342.0,183.0,29.3,0,5,7,1,2026-06-09T10:39:16.918716+05:30
Dhanbad,Jharkhand,23.7957,86.4304,37.5,35,0.0,974.3,8.9,32.4,159,123.9,59.1,15.3,259.0,155.0,46.9,0,5,10,1,2026-06-09T10:39:16.918723+05:30
Bokaro,Jharkhand,23.6693,86.1511,36.9,37,0.0,978.1,8.75,32.4,163,127.1,55.1,11.5,247.0,160.0,42.4,0,5,10,1,2026-06-09T10:39:16.918730+05:30
Bhubaneswar,Odisha,20.2961,85.8245,36.0,51,0.0,996.8,8.15,33.8,119,56.7,42.0,4.0,277.0,177.0,13.0,0,5,10,1,2026-06-09T10:39:16.918737+05:30
Cuttack,Odisha,20.4625,85.8828,35.1,56,0.0,998.6,9.0,28.4,119,56.7,42.0,4.0,330.0,177.0,13.0,0,5,10,1,2026-06-09T10:39:16.918744+05:30
Rourkela,Odisha,22.2604,84.8536,36.0,42,0.0,980.4,8.5,33.5,125,72.4,38.4,3.9,272.0,145.0,10.2,0,5,10,1,2026-06-09T10:39:16.918751+05:30
Raipur,Chhattisgarh,21.2514,81.6296,35.9,42,0.0,971.2,8.15,32.0,117,64.5,40.5,12.3,306.0,123.0,42.2,0,5,10,1,2026-06-09T10:39:16.918758+05:30
Bhilai,Chhattisgarh,21.1938,81.3509,34.8,46,0.0,971.6,8.35,33.5,108,64.3,39.3,10.7,548.0,121.0,37.0,0,5,7,1,2026-06-09T10:39:16.918765+05:30
Guwahati,Assam,26.1158,91.7086,29.3,76,0.1,997.1,8.8,36.7,90,26.1,20.4,1.8,362.0,127.0,4.1,10,5,7,1,2026-06-09T10:39:16.918772+05:30
Agartala,Tripura,23.8315,91.2868,29.0,80,0.0,1002.1,8.85,34.6,69,22.7,17.2,3.8,216.0,113.0,2.7,7,5,4,1,2026-06-09T10:39:16.918779+05:30
Shillong,Meghalaya,25.5788,91.8933,22.8,76,0.1,855.4,8.1,29.5,56,23.1,15.8,1.7,296.0,124.0,3.9,6,5,7,1,2026-06-09T10:39:16.918785+05:30
Imphal,Manipur,24.817,93.9368,24.9,85,0.1,920.3,8.9,29.5,63,28.7,18.2,1.2,225.0,122.0,3.4,6,5,7,1,2026-06-09T10:39:16.918807+05:30
Aizawl,Mizoram,23.7271,92.7176,24.0,70,0.0,890.5,8.9,36.4,42,39.6,25.3,0.8,198.0,113.0,3.3,3,5,7,1,2026-06-09T10:39:16.918815+05:30
Kohima,Nagaland,25.6701,94.1077,21.2,93,0.2,852.8,9.15,24.1,39,6.4,4.5,0.8,214.0,113.0,2.3,6,5,7,1,2026-06-09T10:39:16.918822+05:30
Gangtok,Sikkim,27.3314,88.6138,23.8,58,0.0,836.3,9.25,35.3,88,29.3,21.3,1.0,275.0,154.0,3.9,0,5,7,0,2026-06-09T10:39:16.918829+05:30
Siliguri,West Bengal,26.7271,88.3953,29.9,68,0.0,988.3,8.7,24.5,116,54.9,38.5,2.1,423.0,168.0,7.0,7,5,7,1,2026-06-09T10:39:20.278650+05:30
Durgapur,West Bengal,23.5204,87.3119,35.5,53,0.0,988.5,9.0,26.3,161,110.1,87.1,22.1,545.0,232.0,82.6,0,5,10,1,2026-06-09T10:39:20.278684+05:30
Asansol,West Bengal,23.6739,86.9524,36.3,45,0.0,987.2,8.85,27.0,156,115.3,71.5,19.0,520.0,178.0,59.4,0,5,10,1,2026-06-09T10:39:20.278694+05:30
Pondicherry,Puducherry,11.9139,79.8145,34.7,49,0.0,1007.3,7.75,46.1,41,8.4,7.0,6.5,158.0,60.0,12.0,0,5,4,1,2026-06-09T10:39:20.278702+05:30
Port Blair,Andaman and Nicobar Islands,11.6234,92.7265,26.3,94,0.0,1007.9,8.6,48.6,23,7.0,4.1,0.3,88.0,51.0,0.4,7,5,4,1,2026-06-09T10:39:20.278710+05:30
Haridwar,Uttarakhand,29.9457,78.1642,34.9,42,0.0,967.6,7.65,32.4,90,46.4,26.0,2.4,293.0,199.0,9.6,0,5,7,1,2026-06-09T10:39:20.278718+05:30
Rishikesh,Uttarakhand,30.0869,78.2676,34.8,39,0.0,960.6,7.75,31.0,73,21.9,17.1,1.0,237.0,183.0,7.1,0,5,7,1,2026-06-09T10:39:20.278725+05:30
Nainital,Uttarakhand,29.3919,79.4542,25.0,34,0.0,806.0,8.55,46.8,75,22.7,17.2,0.7,205.0,178.0,5.6,4,5,7,0,2026-06-09T10:39:20.278732+05:30
Mussoorie,Uttarakhand,30.4599,78.0664,23.9,37,0.0,803.1,8.15,50.0,75,19.5,16.2,1.9,187.0,180.0,5.7,0,5,7,0,2026-06-09T10:39:20.278740+05:30
Dharamshala,Himachal Pradesh,32.219,76.3234,27.8,38,0.0,867.0,8.5,43.9,52,13.6,9.1,0.3,211.0,159.0,1.5,4,5,7,0,2026-06-09T10:39:20.278747+05:30
Dalhousie,Himachal Pradesh,32.5387,75.971,25.0,37,0.0,804.9,8.75,38.5,67,21.1,14.5,1.4,214.0,179.0,2.8,4,5,7,0,2026-06-09T10:39:20.278756+05:30
Patiala,Punjab,30.3398,76.3869,38.0,27,0.0,971.5,7.65,37.8,281,350.2,80.6,6.0,359.0,189.0,13.7,0,5,10,0,2026-06-09T10:39:20.278763+05:30
Bhatinda,Punjab,30.211,74.9455,39.8,23,0.0,976.9,8.35,25.9,99,80.1,40.9,6.8,279.0,179.0,17.2,0,5,10,0,2026-06-09T10:39:20.278770+05:30
Rohtak,Haryana,28.8955,76.6066,37.2,33,0.0,975.2,7.85,32.0,643,1162.3,170.4,4.0,188.0,114.0,4.9,0,5,10,1,2026-06-09T10:39:20.278777+05:30
Panipat,Haryana,29.3909,76.9635,37.7,33,0.0,973.6,7.7,32.8,924,1050.5,150.9,10.2,385.0,143.0,17.8,0,5,10,1,2026-06-09T10:39:20.278784+05:30
Mathura,Uttar Pradesh,27.4924,77.6737,37.9,41,0.0,980.2,8.1,46.4,573,1531.1,187.7,4.1,193.0,98.0,4.8,0,5,10,1,2026-06-09T10:39:20.278791+05:30
Vrindavan,Uttar Pradesh,27.5823,77.7027,38.2,39,0.0,980.6,8.05,46.8,573,1531.1,187.7,4.1,183.0,98.0,4.8,0,5,10,1,2026-06-09T10:39:20.278797+05:30
Ayodhya,Uttar Pradesh,26.7922,82.1998,35.9,40,0.0,988.3,8.45,18.4,152,190.9,71.0,6.7,324.0,185.0,11.3,0,5,10,1,2026-06-09T10:39:20.278804+05:30
Ratlam,Madhya Pradesh,23.3315,75.0367,32.5,56,0.0,952.7,8.55,43.2,80,54.7,31.1,1.9,130.0,85.0,6.1,0,5,7,1,2026-06-09T10:39:20.278811+05:30
Sagar,Madhya Pradesh,23.8388,78.7378,35.6,43,0.0,947.3,8.55,41.4,78,46.9,26.4,1.3,171.0,116.0,7.1,0,5,10,1,2026-06-09T10:39:20.278818+05:30
Satna,Madhya Pradesh,24.6005,80.8322,37.7,37,0.0,966.6,8.75,49.7,79,46.2,25.3,1.9,159.0,124.0,6.3,0,5,10,1,2026-06-09T10:39:20.278825+05:30
Akola,Maharashtra,20.7002,77.0082,35.5,43,0.0,973.1,8.8,43.2,79,60.8,26.8,2.3,132.0,88.0,7.4,0,5,10,1,2026-06-09T10:39:20.278833+05:30
Amravati,Maharashtra,20.9374,77.7796,35.0,44,0.0,965.3,8.85,42.8,82,58.7,27.2,2.7,137.0,91.0,8.6,0,5,7,1,2026-06-09T10:39:20.278841+05:30
Latur,Maharashtra,18.4088,76.5604,31.9,53,0.0,939.4,7.95,43.6,72,47.7,19.7,1.7,133.0,83.0,3.8,0,5,7,1,2026-06-09T10:39:20.278848+05:30
Nanded,Maharashtra,19.1383,77.3091,34.5,43,0.0,967.1,8.9,45.4,86,74.5,31.1,2.2,149.0,97.0,4.8,0,5,7,1,2026-06-09T10:39:20.278855+05:30
Gulbarga,Karnataka,17.3297,76.8343,31.2,59,0.0,958.3,8.8,40.3,58,28.9,13.0,2.9,129.0,75.0,2.6,0,5,7,1,2026-06-09T10:39:20.278862+05:30
Bidar,Karnataka,17.9104,77.5199,31.3,55,0.0,935.0,8.8,54.7,75,47.3,22.9,3.3,139.0,86.0,4.8,0,5,7,1,2026-06-09T10:39:20.278869+05:30
Hospet,Karnataka,15.2689,76.3909,28.1,68,0.0,956.9,2.85,47.5,21,2.8,2.2,3.1,130.0,56.0,1.7,7,5,3,1,2026-06-09T10:39:20.278875+05:30
Tirupur,Tamil Nadu,11.1085,77.3411,27.6,69,0.0,976.6,6.85,64.1,17,4.2,3.6,3.9,139.0,63.0,2.8,7,5,7,1,2026-06-09T10:39:20.278882+05:30
Alappuzha,Kerala,9.4981,76.3388,26.5,91,0.2,1012.7,7.8,50.4,33,13.8,7.3,2.7,85.0,54.0,1.3,10,0,4,1,2026-06-09T10:39:20.278889+05:30
Munnar,Kerala,10.0889,77.0595,17.0,98,0.4,858.2,7.6,61.2,16,2.2,1.8,3.0,98.0,51.0,1.5,6,10,7,1,2026-06-09T10:39:20.278896+05:30
Silchar,Assam,24.8333,92.7789,26.9,89,0.1,1001.8,8.95,29.5,70,32.0,21.0,1.4,279.0,113.0,4.1,10,5,4,1,2026-06-09T10:39:20.278903+05:30
Dibrugarh,Assam,27.4728,94.912,30.6,70,0.0,990.7,7.7,27.7,91,18.1,14.9,1.6,247.0,130.0,2.3,3,5,7,1,2026-06-09T10:39:20.278910+05:30
