city,state,latitude,longitude,temp,humidity,rain,pressure,uv_index,wind_gusts,aqi,pm10,pm2_5,mosquito_risk,arthritis_risk,migraine_risk,frizz_risk,updated_at
Delhi,Delhi,28.6139,77.209,25.1,62,0.0,986.2,3.95,33.1,119,98.5,35.7,7,5,3,1,2026-03-19T15:20:19.243012+05:30
Mumbai,Maharashtra,19.076,72.8777,27.1,71,0.0,1009.9,7.75,20.2,77,39.3,28.6,7,0,4,1,2026-03-19T15:20:19.243051+05:30
Bangalore,Karnataka,12.9716,77.5946,30.2,35,0.0,911.8,9.35,24.1,93,28.2,23.7,0,5,7,0,2026-03-19T15:20:19.243066+05:30
Hyderabad,Telangana,17.385,78.4867,30.6,40,0.0,954.0,8.75,33.5,80,25.6,18.2,0,5,7,0,2026-03-19T15:20:19.243076+05:30
Chennai,Tamil Nadu,13.0827,80.2707,30.5,63,0.0,1007.7,9.1,28.8,46,15.8,12.5,3,5,4,1,2026-03-19T15:20:19.243085+05:30
Kolkata,West Bengal,22.5726,88.3639,30.1,60,0.0,1007.1,7.7,25.2,91,54.7,46.6,0,5,4,1,2026-03-19T15:20:19.243093+05:30
Pune,Maharashtra,18.5204,73.8567,32.5,30,0.0,949.3,8.3,34.9,128,39.2,27.1,0,5,7,0,2026-03-19T15:20:19.243106+05:30
Ahmedabad,Gujarat,23.0225,72.5714,34.0,29,0.0,1003.2,7.55,49.7,69,28.7,19.8,0,5,4,0,2026-03-19T15:20:19.243114+05:30
Jaipur,Rajasthan,26.9124,75.7873,27.3,47,0.0,961.4,7.05,34.2,136,135.0,30.7,4,5,7,0,2026-03-19T15:20:19.243121+05:30
Lucknow,Uttar Pradesh,26.8467,80.9462,33.6,24,0.0,994.5,6.8,28.1,95,44.7,15.7,0,5,7,0,2026-03-19T15:20:19.243129+05:30
Kanpur,Uttar Pradesh,26.4499,80.3319,33.2,31,0.0,992.6,6.85,26.6,121,216.5,32.5,0,5,7,0,2026-03-19T15:20:19.243135+05:30
Chandigarh,Chandigarh,30.7333,76.7794,20.2,75,0.1,972.6,3.9,15.8,60,67.5,22.1,6,5,3,0,2026-03-19T15:20:19.243159+05:30
Srinagar,Jammu and Kashmir,34.0837,74.7973,8.5,85,0.2,841.2,0.95,15.1,89,18.3,16.6,6,10,3,0,2026-03-19T15:20:19.243168+05:30
Jammu,Jammu and Kashmir,32.7266,74.857,20.6,73,0.0,976.9,3.0,35.3,58,54.7,18.2,3,5,3,0,2026-03-19T15:20:19.243175+05:30
Amritsar,Punjab,31.634,74.8723,18.2,88,0.0,985.0,2.45,24.8,83,115.5,39.0,3,10,3,1,2026-03-19T15:20:19.243182+05:30
Ludhiana,Punjab,30.901,75.8573,18.5,81,0.2,983.0,1.6,20.9,77,59.0,26.4,6,10,3,0,2026-03-19T15:20:19.243189+05:30
Jalandhar,Punjab,31.326,75.5762,17.9,88,0.1,984.4,2.7,20.2,77,75.7,30.4,6,10,3,0,2026-03-19T15:20:19.243199+05:30
Dehradun,Uttarakhand,30.6284,78.0322,12.7,79,0.4,831.0,5.3,28.8,42,26.5,7.6,6,5,3,0,2026-03-19T15:20:19.243206+05:30
Shimla,Himachal Pradesh,31.1048,77.1734,11.2,83,0.1,783.9,3.7,36.4,44,24.7,8.3,6,10,3,0,2026-03-19T15:20:19.243215+05:30
Manali,Himachal Pradesh,32.2396,77.1887,11.3,88,0.1,817.6,4.3,23.8,47,6.4,3.5,6,10,3,0,2026-03-19T15:20:19.243222+05:30
Gurgaon,Haryana,28.4595,77.0266,23.4,75,0.0,984.8,5.05,29.9,144,514.1,65.9,3,5,3,1,2026-03-19T15:20:19.243229+05:30
Noida,Uttar Pradesh,28.5355,77.391,25.2,63,0.0,987.6,4.25,32.8,144,514.1,65.9,7,5,3,1,2026-03-19T15:20:19.243236+05:30
Ghaziabad,Uttar Pradesh,28.6692,77.4538,25.1,62,0.0,986.1,4.2,34.2,106,78.7,23.2,7,5,3,1,2026-03-19T15:20:19.243243+05:30
Faridabad,Haryana,28.4089,77.3178,24.8,65,0.0,986.8,5.9,33.5,144,514.1,65.9,3,5,3,1,2026-03-19T15:20:19.243250+05:30
Meerut,Uttar Pradesh,28.9845,77.7064,25.3,58,0.0,984.7,3.35,34.6,106,78.7,23.2,4,5,3,1,2026-03-19T15:20:19.243256+05:30
Agra,Uttar Pradesh,27.1767,78.0081,32.7,29,0.0,989.2,6.7,37.8,652,828.9,81.3,0,5,7,0,2026-03-19T15:20:19.243263+05:30
Varanasi,Uttar Pradesh,25.3176,82.9739,34.5,32,0.0,997.9,7.5,19.8,124,49.4,32.9,0,5,7,0,2026-03-19T15:20:19.243272+05:30
Prayagraj,Uttar Pradesh,25.4358,81.8463,34.5,31,0.0,995.8,7.35,22.0,107,55.5,25.7,0,5,7,0,2026-03-19T15:20:19.243280+05:30
Gorakhpur,Uttar Pradesh,26.7606,83.3732,34.2,26,0.0,997.3,7.2,20.9,125,53.8,20.5,0,5,7,0,2026-03-19T15:20:19.243286+05:30
Bareilly,Uttar Pradesh,28.367,79.4304,28.7,42,0.0,989.6,6.15,34.9,82,29.3,11.6,4,5,7,0,2026-03-19T15:20:19.243292+05:30
Aligarh,Uttar Pradesh,27.8974,78.088,29.1,40,0.0,988.0,6.4,37.1,160,318.5,45.9,4,5,7,0,2026-03-19T15:20:19.243299+05:30
Moradabad,Uttar Pradesh,28.8386,78.7733,27.2,48,0.0,986.8,5.5,46.1,111,55.3,18.9,4,5,3,0,2026-03-19T15:20:19.243305+05:30
Saharanpur,Uttar Pradesh,29.9637,77.546,20.0,78,0.4,979.9,3.55,22.7,72,71.7,22.9,6,5,3,1,2026-03-19T15:20:19.243311+05:30
Jhansi,Uttar Pradesh,25.4484,78.5685,34.4,24,0.0,977.6,7.3,38.9,85,53.7,27.4,0,5,7,0,2026-03-19T15:20:22.472435+05:30
Surat,Gujarat,21.1702,72.8311,29.2,50,0.0,1008.3,7.45,28.1,77,28.5,21.3,4,0,4,1,2026-03-19T15:20:22.472465+05:30
Vadodara,Gujarat,22.3072,73.1812,35.1,32,0.0,1004.9,7.35,47.9,63,18.3,13.3,0,5,7,0,2026-03-19T15:20:22.472475+05:30
Rajkot,Gujarat,22.3039,70.8022,28.8,52,0.0,997.1,7.4,51.5,47,40.0,17.6,4,5,7,1,2026-03-19T15:20:22.472484+05:30
Thane,Maharashtra,19.2183,72.9781,29.5,59,0.0,1009.3,7.75,33.5,77,39.3,28.6,4,0,4,1,2026-03-19T15:20:22.472492+05:30
Nagpur,Maharashtra,21.1458,79.0882,32.9,33,0.0,973.8,7.85,26.3,106,48.3,38.0,0,5,7,0,2026-03-19T15:20:22.472500+05:30
Nashik,Maharashtra,19.9975,73.7898,28.9,44,0.0,946.9,7.95,28.8,56,20.6,15.5,4,5,7,0,2026-03-19T15:20:22.472508+05:30
Aurangabad,Maharashtra,19.8762,75.3433,29.5,37,0.0,945.2,8.45,41.8,82,31.9,20.4,4,5,7,0,2026-03-19T15:20:22.472516+05:30
Solapur,Maharashtra,17.6599,75.9064,27.7,51,0.0,958.5,8.65,39.6,78,30.4,20.7,4,5,7,1,2026-03-19T15:20:22.472524+05:30
Kolhapur,Maharashtra,16.705,74.2433,31.0,33,0.0,948.8,8.8,49.0,116,33.9,23.6,0,5,7,0,2026-03-19T15:20:22.472531+05:30
Goa,Goa,15.2993,74.124,31.0,57,0.0,999.3,8.8,33.1,80,32.9,21.1,0,5,7,1,2026-03-19T15:20:22.472539+05:30
Jodhpur,Rajasthan,26.2389,73.0243,28.4,44,0.0,984.9,6.8,44.6,69,124.8,25.4,4,5,7,0,2026-03-19T15:20:22.472546+05:30
Udaipur,Rajasthan,24.5854,73.7125,26.2,49,0.0,948.0,6.6,49.3,47,54.6,16.4,4,5,7,0,2026-03-19T15:20:22.472553+05:30
Kota,Rajasthan,25.2138,75.8648,29.2,44,0.0,980.4,7.35,32.8,86,96.4,35.3,4,5,7,0,2026-03-19T15:20:22.472561+05:30
Bikaner,Rajasthan,28.0229,73.3119,24.1,62,0.0,984.8,5.9,31.0,64,96.6,22.9,3,5,3,1,2026-03-19T15:20:22.472568+05:30
Ajmer,Rajasthan,26.4499,74.6399,27.5,45,0.0,955.9,5.2,30.2,67,84.1,20.7,4,5,3,0,2026-03-19T15:20:22.472575+05:30
Gwalior,Madhya Pradesh,26.2183,78.1828,32.1,33,0.0,984.0,7.0,30.2,136,127.1,35.6,0,5,7,0,2026-03-19T15:20:22.472583+05:30
Indore,Madhya Pradesh,22.7196,75.8577,33.6,16,0.0,948.2,7.9,33.5,74,26.5,19.3,0,5,7,0,2026-03-19T15:20:22.472591+05:30
Bhopal,Madhya Pradesh,23.2599,77.4126,33.1,20,0.0,954.6,7.8,35.6,71,21.9,17.3,0,5,7,0,2026-03-19T15:20:22.472598+05:30
Jabalpur,Madhya Pradesh,23.1815,79.9864,33.6,23,0.0,961.8,7.9,34.6,75,29.0,22.2,0,5,7,0,2026-03-19T15:20:22.472605+05:30
Ujjain,Madhya Pradesh,23.1765,75.7885,32.6,22,0.0,954.0,7.8,29.2,56,19.2,14.2,0,5,7,0,2026-03-19T15:20:22.472613+05:30
Visakhapatnam,Andhra Pradesh,17.6868,83.2185,30.9,53,0.0,1004.9,7.8,32.8,66,17.9,13.8,0,5,4,1,2026-03-19T15:20:22.472621+05:30
Vijayawada,Andhra Pradesh,16.5062,80.648,30.3,53,0.0,1003.9,8.35,28.8,64,14.9,10.8,0,5,4,1,2026-03-19T15:20:22.472628+05:30
Guntur,Andhra Pradesh,16.3067,80.4365,27.3,69,0.0,1005.5,8.4,31.3,64,18.3,10.7,7,5,4,1,2026-03-19T15:20:22.472636+05:30
Nellore,Andhra Pradesh,14.4426,79.9865,31.2,55,0.0,1006.5,9.0,27.0,37,14.6,10.6,0,5,4,1,2026-03-19T15:20:22.472643+05:30
Kurnool,Andhra Pradesh,15.8281,78.0373,32.5,35,0.0,977.4,8.85,33.1,61,16.0,11.2,0,5,7,0,2026-03-19T15:20:22.472652+05:30
Kakinada,Andhra Pradesh,16.9891,82.2475,31.0,51,0.0,1008.4,8.5,23.0,41,11.3,8.3,0,0,4,1,2026-03-19T15:20:22.472659+05:30
Tirupati,Andhra Pradesh,13.6288,79.4192,29.7,55,0.0,991.6,9.1,21.6,60,15.1,11.5,4,5,7,1,2026-03-19T15:20:22.472666+05:30
Warangal,Telangana,17.9689,79.5941,29.9,52,0.0,979.9,8.0,19.8,146,35.0,27.1,4,5,7,1,2026-03-19T15:20:22.472673+05:30
Nizamabad,Telangana,18.6725,78.0941,32.3,31,0.0,965.4,8.45,19.4,112,28.6,21.0,0,5,7,0,2026-03-19T15:20:22.472681+05:30
Mysore,Karnataka,12.2958,76.6396,32.2,27,0.0,928.2,9.35,36.4,97,26.7,23.5,0,5,7,0,2026-03-19T15:20:22.472688+05:30
Mangalore,Karnataka,12.9141,74.856,28.4,75,0.0,1007.2,8.95,26.6,96,23.9,18.0,7,5,4,1,2026-03-19T15:20:22.472695+05:30
Hubli-Dharwad,Karnataka,15.3647,75.124,31.2,33,0.0,941.5,8.95,32.4,94,33.4,26.1,0,5,7,0,2026-03-19T15:20:22.472703+05:30
Belgaum,Karnataka,15.8497,74.4977,29.5,37,0.0,926.7,9.0,37.4,99,34.2,23.1,4,5,7,0,2026-03-19T15:20:25.699366+05:30
Coimbatore,Tamil Nadu,11.0168,76.9558,32.0,46,0.0,961.4,9.3,47.9,68,18.4,14.9,0,5,7,1,2026-03-19T15:20:25.699399+05:30
Madurai,Tamil Nadu,9.9252,78.1198,34.2,42,0.0,992.0,9.25,23.0,50,13.4,11.3,0,5,7,1,2026-03-19T15:20:25.699413+05:30
Trichy,Tamil Nadu,10.7905,78.7047,35.2,39,0.0,998.2,9.2,29.5,52,17.9,14.9,0,5,10,1,2026-03-19T15:20:25.699424+05:30
Salem,Tamil Nadu,11.6643,78.146,35.2,33,0.0,976.1,9.25,25.6,74,22.5,19.8,0,5,10,1,2026-03-19T15:20:25.699433+05:30
Tirunelveli,Tamil Nadu,8.7139,77.7567,32.7,48,0.0,1002.8,8.5,23.0,64,20.1,18.5,0,5,4,1,2026-03-19T15:20:25.699441+05:30
Vellore,Tamil Nadu,12.9165,79.1325,31.9,49,0.0,984.2,9.15,28.1,57,17.0,10.9,0,5,7,1,2026-03-19T15:20:25.699448+05:30
Erode,Tamil Nadu,11.341,77.7172,35.7,35,0.0,987.4,9.25,36.7,61,15.0,13.2,0,5,10,1,2026-03-19T15:20:25.699456+05:30
Kochi,Kerala,9.9312,76.2673,28.9,74,0.0,1008.4,9.1,29.2,68,15.4,13.9,7,0,4,1,2026-03-19T15:20:25.699463+05:30
Thiruvananthapuram,Kerala,8.5241,76.9366,28.6,77,0.0,1007.5,8.1,27.7,72,13.1,12.4,7,5,4,1,2026-03-19T15:20:25.699471+05:30
Kozhikode,Kerala,11.2588,75.7804,29.7,71,0.0,1007.8,9.05,31.0,80,11.9,10.4,7,5,4,1,2026-03-19T15:20:25.699478+05:30
Thrissur,Kerala,10.5276,76.2144,32.3,58,0.0,1006.7,9.1,34.6,63,14.6,13.3,0,5,4,1,2026-03-19T15:20:25.699487+05:30
Kannur,Kerala,11.8745,75.3704,30.8,63,0.0,1007.4,9.0,35.3,64,19.3,15.0,3,5,4,1,2026-03-19T15:20:25.699494+05:30
Patna,Bihar,25.5941,85.1376,32.0,40,0.0,1001.5,7.25,21.6,163,68.5,47.3,0,5,4,1,2026-03-19T15:20:25.699502+05:30
Gaya,Bihar,24.7914,85.0002,32.8,39,0.0,994.2,7.55,20.5,116,46.1,35.3,0,5,7,1,2026-03-19T15:20:25.699509+05:30
Muzaffarpur,Bihar,26.1209,85.3647,31.6,38,0.0,1001.4,7.0,23.4,162,68.0,40.5,0,5,4,0,2026-03-19T15:20:25.699517+05:30
Bhagalpur,Bihar,25.2425,87.0117,30.1,53,0.0,1002.2,6.95,27.4,133,62.4,53.8,0,5,4,1,2026-03-19T15:20:25.699524+05:30
Ranchi,Jharkhand,23.3441,85.3096,30.3,31,0.0,938.7,6.75,38.5,96,38.6,28.5,0,5,7,0,2026-03-19T15:20:25.699532+05:30
Jamshedpur,Jharkhand,22.8046,86.2029,34.4,30,0.0,990.8,7.7,30.6,136,47.1,36.0,0,5,7,0,2026-03-19T15:20:25.699539+05:30
Dhanbad,Jharkhand,23.7957,86.4304,34.0,25,0.0,979.9,7.2,20.5,157,48.3,38.0,0,5,7,0,2026-03-19T15:20:25.699547+05:30
Bokaro,Jharkhand,23.6693,86.1511,33.5,25,0.0,984.0,7.15,41.0,143,41.4,31.4,0,5,7,0,2026-03-19T15:20:25.699554+05:30
Bhubaneswar,Odisha,20.2961,85.8245,32.6,51,0.0,1003.1,7.95,20.9,86,34.1,26.1,0,5,4,1,2026-03-19T15:20:25.699562+05:30
Cuttack,Odisha,20.4625,85.8828,32.0,48,0.0,1005.3,7.9,24.8,86,34.1,26.1,0,5,4,1,2026-03-19T15:20:25.699569+05:30
Rourkela,Odisha,22.2604,84.8536,33.2,35,0.0,985.4,7.15,24.8,123,53.1,42.7,0,5,7,0,2026-03-19T15:20:25.699576+05:30
Raipur,Chhattisgarh,21.2514,81.6296,33.6,31,0.0,974.9,7.75,25.9,139,53.2,43.2,0,5,7,0,2026-03-19T15:20:25.699584+05:30
Bhilai,Chhattisgarh,21.1938,81.3509,33.0,33,0.0,975.6,7.6,24.8,142,50.3,39.7,0,5,7,0,2026-03-19T15:20:25.699591+05:30
Guwahati,Assam,26.1158,91.7086,27.8,58,0.0,1003.2,7.5,25.2,115,49.7,34.2,4,5,4,1,2026-03-19T15:20:25.699598+05:30
Agartala,Tripura,23.8315,91.2868,30.5,49,0.0,1007.5,7.85,23.0,90,30.3,25.6,0,5,4,1,2026-03-19T15:20:25.699606+05:30
Shillong,Meghalaya,25.5788,91.8933,17.5,55,0.0,857.4,7.15,47.2,90,46.0,27.0,0,5,7,0,2026-03-19T15:20:25.699613+05:30
Imphal,Manipur,24.817,93.9368,21.5,62,0.0,924.3,8.25,60.8,94,38.8,22.8,3,5,7,0,2026-03-19T15:20:25.699620+05:30
Aizawl,Mizoram,23.7271,92.7176,24.5,51,0.0,894.9,8.05,38.5,75,33.2,23.5,0,5,7,0,2026-03-19T15:20:25.699628+05:30
Kohima,Nagaland,25.6701,94.1077,16.6,82,0.0,855.9,7.95,86.8,85,40.9,23.7,3,10,7,0,2026-03-19T15:20:25.699635+05:30
Gangtok,Sikkim,27.3314,88.6138,17.6,65,0.0,837.9,7.7,20.2,102,54.7,35.7,3,5,7,0,2026-03-19T15:20:25.699643+05:30
Siliguri,West Bengal,26.7271,88.3953,22.9,73,0.0,995.4,7.4,24.8,143,71.0,53.1,3,5,7,1,2026-03-19T15:20:28.931108+05:30
Durgapur,West Bengal,23.5204,87.3119,32.0,40,0.0,995.5,7.75,26.3,149,67.5,56.2,0,5,7,1,2026-03-19T15:20:28.931176+05:30
Asansol,West Bengal,23.6739,86.9524,33.2,33,0.0,993.8,7.65,31.0,153,54.8,44.2,0,5,7,0,2026-03-19T15:20:28.931196+05:30
Pondicherry,Puducherry,11.9139,79.8145,31.7,62,0.0,1008.1,9.1,28.4,37,14.4,10.6,3,0,4,1,2026-03-19T15:20:28.931207+05:30
Port Blair,Andaman and Nicobar Islands,11.6234,92.7265,27.2,81,0.0,1007.6,9.05,22.0,52,16.6,12.9,7,5,4,1,2026-03-19T15:20:28.931218+05:30
Haridwar,Uttarakhand,29.9457,78.1642,23.9,63,0.0,978.4,3.9,24.8,67,68.9,19.7,3,5,3,1,2026-03-19T15:20:28.931228+05:30
Rishikesh,Uttarakhand,30.0869,78.2676,24.7,50,0.1,971.0,4.2,24.5,63,48.9,12.9,3,5,3,0,2026-03-19T15:20:28.931238+05:30
Nainital,Uttarakhand,29.3919,79.4542,18.8,54,0.0,808.4,5.75,55.4,75,55.6,14.1,0,5,3,0,2026-03-19T15:20:28.931251+05:30
Mussoorie,Uttarakhand,30.4599,78.0664,13.5,82,0.3,803.5,5.1,38.9,61,66.1,18.6,6,10,3,0,2026-03-19T15:20:28.931261+05:30
Dharamshala,Himachal Pradesh,32.219,76.3234,14.5,88,0.2,869.6,3.8,29.9,48,20.8,8.4,6,10,3,0,2026-03-19T15:20:28.931271+05:30
Dalhousie,Himachal Pradesh,32.5387,75.971,11.7,91,0.0,803.1,4.55,25.2,56,61.0,20.3,3,10,3,0,2026-03-19T15:20:28.931282+05:30
Patiala,Punjab,30.3398,76.3869,20.4,79,0.0,982.3,3.85,21.6,93,53.8,24.6,3,5,3,1,2026-03-19T15:20:28.931291+05:30
Bhatinda,Punjab,30.211,74.9455,20.8,85,0.0,986.9,1.4,20.9,87,83.1,31.2,3,5,3,1,2026-03-19T15:20:28.931301+05:30
Rohtak,Haryana,28.8955,76.6066,22.1,78,0.0,985.5,4.9,28.1,131,112.2,40.5,3,5,3,1,2026-03-19T15:20:28.931310+05:30
Panipat,Haryana,29.3909,76.9635,22.3,74,0.0,984.3,3.65,32.8,122,98.7,42.3,3,5,3,1,2026-03-19T15:20:28.931319+05:30
Mathura,Uttar Pradesh,27.4924,77.6737,28.8,40,0.0,989.4,6.6,37.4,133,453.6,58.6,4,5,7,0,2026-03-19T15:20:28.931328+05:30
Vrindavan,Uttar Pradesh,27.5823,77.7027,28.5,42,0.0,990.2,6.55,40.7,133,453.6,58.6,4,5,7,0,2026-03-19T15:20:28.931337+05:30
Ayodhya,Uttar Pradesh,26.7922,82.1998,35.2,21,0.0,995.6,6.9,32.4,120,51.0,20.4,0,5,10,0,2026-03-19T15:20:28.931347+05:30
Ratlam,Madhya Pradesh,23.3315,75.0367,31.8,27,0.0,955.1,7.75,31.7,56,17.3,13.4,0,5,7,0,2026-03-19T15:20:28.931356+05:30
Sagar,Madhya Pradesh,23.8388,78.7378,32.7,20,0.0,951.1,7.75,45.0,73,15.4,11.6,0,5,7,0,2026-03-19T15:20:28.931365+05:30
Satna,Madhya Pradesh,24.6005,80.8322,34.8,21,0.0,971.5,7.7,42.5,98,29.8,18.3,0,5,7,0,2026-03-19T15:20:28.931374+05:30
Akola,Maharashtra,20.7002,77.0082,33.4,27,0.0,975.8,8.2,26.3,95,36.2,27.2,0,5,7,0,2026-03-19T15:20:28.931385+05:30
Amravati,Maharashtra,20.9374,77.7796,33.8,28,0.0,967.9,8.15,33.8,98,39.1,29.1,0,5,7,0,2026-03-19T15:20:28.931395+05:30
Latur,Maharashtra,18.4088,76.5604,24.8,59,0.0,941.3,8.55,45.7,88,30.6,21.0,0,5,7,1,2026-03-19T15:20:28.931404+05:30
Nanded,Maharashtra,19.1383,77.3091,33.4,27,0.0,968.9,8.4,48.6,95,34.1,25.5,0,5,7,0,2026-03-19T15:20:28.931413+05:30
Gulbarga,Karnataka,17.3297,76.8343,30.7,38,0.0,959.9,8.65,23.4,83,25.5,18.2,0,5,7,0,2026-03-19T15:20:28.931422+05:30
Bidar,Karnataka,17.9104,77.5199,28.3,44,0.0,936.5,8.6,31.3,87,24.8,17.1,4,5,7,0,2026-03-19T15:20:28.931432+05:30
Hospet,Karnataka,15.2689,76.3909,31.6,37,0.0,956.3,8.9,21.2,94,33.1,26.6,0,5,7,0,2026-03-19T15:20:28.931441+05:30
Tirupur,Tamil Nadu,11.1085,77.3411,35.0,32,0.0,974.2,9.35,34.9,71,20.1,16.9,0,5,7,0,2026-03-19T15:20:28.931450+05:30
Alappuzha,Kerala,9.4981,76.3388,28.8,76,0.0,1008.6,9.1,27.4,76,15.7,14.1,7,0,4,1,2026-03-19T15:20:28.931459+05:30
Munnar,Kerala,10.0889,77.0595,26.7,61,0.0,858.5,9.6,38.9,63,12.7,11.6,7,5,7,1,2026-03-19T15:20:28.931468+05:30
Silchar,Assam,24.8333,92.7789,30.0,50,0.0,1006.3,7.9,21.2,97,36.6,28.4,4,5,4,1,2026-03-19T15:20:28.931478+05:30
Dibrugarh,Assam,27.4728,94.912,22.6,73,0.0,998.9,6.3,23.4,95,39.1,24.7,3,5,7,1,2026-03-19T15:20:28.931488+05:30
