city,state,latitude,longitude,temp,humidity,rain,pressure,uv_index,wind_gusts,aqi,pm10,pm2_5,no2,co,o3,so2,mosquito_risk,arthritis_risk,migraine_risk,frizz_risk,updated_at
Delhi,Delhi,28.6139,77.209,32.9,34,0.0,982.4,7.55,28.4,206,176.0,48.1,14.8,487.0,185.0,23.2,0,5,7,0,2026-05-09T19:11:51.879529+05:30
Mumbai,Maharashtra,19.076,72.8777,31.7,62,0.0,1005.4,7.85,48.2,129,45.4,23.5,15.2,310.0,102.0,9.0,3,5,4,1,2026-05-09T19:11:51.879587+05:30
Bangalore,Karnataka,12.9716,77.5946,24.8,77,0.0,910.7,9.45,44.3,49,10.0,9.7,22.1,407.0,54.0,5.7,3,5,7,1,2026-05-09T19:11:51.879605+05:30
Hyderabad,Telangana,17.385,78.4867,33.3,32,0.0,952.4,9.05,28.1,111,19.7,14.2,8.1,343.0,132.0,5.2,0,5,7,0,2026-05-09T19:11:51.879616+05:30
Chennai,Tamil Nadu,13.0827,80.2707,28.1,80,0.0,1006.1,8.35,34.9,25,5.7,3.9,5.1,194.0,44.0,3.6,7,5,4,1,2026-05-09T19:11:51.879626+05:30
Kolkata,West Bengal,22.5726,88.3639,26.6,84,0.0,1006.8,8.9,49.3,200,64.7,58.4,16.8,746.0,139.0,16.4,7,5,4,1,2026-05-09T19:11:51.879636+05:30
Pune,Maharashtra,18.5204,73.8567,35.0,21,0.0,946.4,8.5,32.4,155,50.6,29.5,7.9,267.0,154.0,7.3,0,5,7,0,2026-05-09T19:11:51.879645+05:30
Ahmedabad,Gujarat,23.0225,72.5714,41.2,11,0.0,998.6,8.1,32.0,86,31.9,14.3,9.0,232.0,114.0,4.1,0,5,10,0,2026-05-09T19:11:51.879656+05:30
Jaipur,Rajasthan,26.9124,75.7873,34.8,24,0.0,958.6,8.15,29.9,160,136.0,34.3,9.0,356.0,143.0,6.2,0,5,7,0,2026-05-09T19:11:51.879667+05:30
Lucknow,Uttar Pradesh,26.8467,80.9462,27.9,58,0.0,993.9,8.0,35.3,165,57.4,36.8,9.3,379.0,147.0,11.1,4,5,7,1,2026-05-09T19:11:51.879676+05:30
Kanpur,Uttar Pradesh,26.4499,80.3319,29.3,50,0.0,991.6,8.05,37.1,192,239.3,51.6,5.8,320.0,160.0,9.4,4,5,7,1,2026-05-09T19:11:51.879685+05:30
Chandigarh,Chandigarh,30.7333,76.7794,30.8,39,0.0,968.3,7.6,28.4,187,159.3,41.2,11.9,679.0,170.0,12.1,0,5,7,0,2026-05-09T19:11:51.879693+05:30
Srinagar,Jammu and Kashmir,34.0837,74.7973,21.2,57,0.0,840.7,8.85,18.0,124,44.9,15.0,13.1,746.0,128.0,3.1,0,5,7,0,2026-05-09T19:11:51.879702+05:30
Jammu,Jammu and Kashmir,32.7266,74.857,31.6,36,0.0,971.8,8.4,32.4,177,122.9,44.6,12.2,426.0,157.0,7.1,0,5,7,0,2026-05-09T19:11:51.879710+05:30
Amritsar,Punjab,31.634,74.8723,33.2,36,0.0,979.5,8.3,24.8,188,272.9,65.4,7.8,420.0,177.0,11.7,0,5,7,1,2026-05-09T19:11:51.879718+05:30
Ludhiana,Punjab,30.901,75.8573,32.0,42,0.0,977.9,7.9,34.2,175,231.0,58.1,8.7,357.0,149.0,4.9,0,5,7,1,2026-05-09T19:11:51.879726+05:30
Jalandhar,Punjab,31.326,75.5762,31.0,51,0.0,978.7,8.05,25.9,177,228.6,59.3,10.0,506.0,153.0,8.1,0,5,7,1,2026-05-09T19:11:51.879734+05:30
Dehradun,Uttarakhand,30.6284,78.0322,16.5,78,0.0,831.0,8.0,28.8,134,49.5,22.8,6.1,249.0,155.0,2.9,3,5,7,0,2026-05-09T19:11:51.879744+05:30
Shimla,Himachal Pradesh,31.1048,77.1734,14.7,71,0.0,785.0,8.05,37.1,160,110.4,39.2,5.5,275.0,180.0,15.4,3,5,7,0,2026-05-09T19:11:51.879752+05:30
Manali,Himachal Pradesh,32.2396,77.1887,13.8,78,0.0,818.0,10.1,39.2,142,37.0,8.9,10.0,274.0,154.0,0.6,3,5,7,0,2026-05-09T19:11:51.879760+05:30
Gurgaon,Haryana,28.4595,77.0266,32.2,40,0.0,980.6,7.65,27.4,929,439.6,74.0,15.5,473.0,187.0,23.3,0,5,7,1,2026-05-09T19:11:51.879767+05:30
Noida,Uttar Pradesh,28.5355,77.391,30.1,47,0.0,983.9,7.6,25.9,929,439.6,74.0,15.5,445.0,187.0,23.3,0,5,7,1,2026-05-09T19:11:51.879775+05:30
Ghaziabad,Uttar Pradesh,28.6692,77.4538,30.0,47,0.0,982.4,7.55,28.1,171,151.3,40.6,6.7,335.0,158.0,8.4,4,5,7,1,2026-05-09T19:11:51.879782+05:30
Faridabad,Haryana,28.4089,77.3178,31.5,40,0.0,983.2,7.6,27.4,929,439.6,74.0,15.5,501.0,187.0,23.3,0,5,7,1,2026-05-09T19:11:51.879789+05:30
Meerut,Uttar Pradesh,28.9845,77.7064,28.1,63,0.0,981.3,7.45,30.2,171,151.3,40.6,6.7,360.0,158.0,8.4,7,5,7,1,2026-05-09T19:11:51.879796+05:30
Agra,Uttar Pradesh,27.1767,78.0081,30.2,48,0.0,986.9,7.9,25.6,927,933.2,112.0,6.2,375.0,155.0,9.8,0,5,7,1,2026-05-09T19:11:51.879804+05:30
Varanasi,Uttar Pradesh,25.3176,82.9739,27.9,60,0.0,997.5,8.55,41.4,204,63.1,46.6,8.1,528.0,184.0,18.5,4,5,7,1,2026-05-09T19:11:51.879833+05:30
Prayagraj,Uttar Pradesh,25.4358,81.8463,28.8,53,0.0,995.7,8.35,38.2,201,59.6,44.4,7.6,403.0,176.0,13.7,4,5,7,1,2026-05-09T19:11:51.879848+05:30
Gorakhpur,Uttar Pradesh,26.7606,83.3732,26.2,64,0.0,998.5,8.4,37.4,176,57.4,42.7,7.7,402.0,161.0,8.8,7,5,7,1,2026-05-09T19:11:51.879857+05:30
Bareilly,Uttar Pradesh,28.367,79.4304,27.5,56,0.0,986.8,7.75,33.5,164,66.4,29.8,9.3,356.0,143.0,8.8,4,5,7,1,2026-05-09T19:11:51.879865+05:30
Aligarh,Uttar Pradesh,27.8974,78.088,30.0,48,0.0,985.1,7.7,32.0,447,406.1,65.2,5.3,325.0,164.0,11.7,4,5,7,1,2026-05-09T19:11:51.879872+05:30
Moradabad,Uttar Pradesh,28.8386,78.7733,28.0,58,0.0,983.8,7.65,32.8,181,107.8,41.6,10.6,395.0,159.0,14.1,4,5,7,1,2026-05-09T19:11:51.879880+05:30
Saharanpur,Uttar Pradesh,29.9637,77.546,27.5,57,0.0,975.5,7.3,33.5,169,59.8,35.9,14.0,446.0,145.0,10.3,4,5,7,1,2026-05-09T19:11:51.879888+05:30
Jhansi,Uttar Pradesh,25.4484,78.5685,31.0,40,0.0,976.3,8.35,47.5,171,101.0,32.9,3.1,261.0,151.0,11.5,0,5,7,0,2026-05-09T19:11:55.172888+05:30
Surat,Gujarat,21.1702,72.8311,34.5,36,0.0,1003.4,7.7,37.4,106,58.9,46.2,62.7,322.0,61.0,88.8,0,5,4,1,2026-05-09T19:11:55.172924+05:30
Vadodara,Gujarat,22.3072,73.1812,40.2,13,0.0,1000.5,8.05,32.4,135,35.7,20.5,15.1,403.0,140.0,9.2,0,5,7,0,2026-05-09T19:11:55.172936+05:30
Rajkot,Gujarat,22.3039,70.8022,35.8,20,0.0,992.0,7.7,40.7,88,40.3,13.9,3.0,167.0,126.0,6.4,0,5,10,0,2026-05-09T19:11:55.172946+05:30
Thane,Maharashtra,19.2183,72.9781,32.9,50,0.0,1004.7,7.85,46.8,129,45.4,23.5,15.2,257.0,102.0,9.0,0,5,4,1,2026-05-09T19:11:55.172956+05:30
Nagpur,Maharashtra,21.1458,79.0882,31.0,38,0.0,972.1,8.9,73.4,164,54.5,28.5,17.3,251.0,136.0,20.6,0,5,7,0,2026-05-09T19:11:55.172965+05:30
Nashik,Maharashtra,19.9975,73.7898,35.2,18,0.0,943.5,8.15,50.4,120,38.9,21.9,3.1,193.0,148.0,7.4,0,5,10,0,2026-05-09T19:11:55.172975+05:30
Aurangabad,Maharashtra,19.8762,75.3433,36.2,15,0.0,942.5,9.05,34.2,141,30.9,14.3,3.0,268.0,142.0,5.2,0,5,10,0,2026-05-09T19:11:55.172984+05:30
Solapur,Maharashtra,17.6599,75.9064,35.5,22,0.0,955.1,9.05,32.0,137,36.6,22.8,3.1,258.0,154.0,5.1,0,5,10,0,2026-05-09T19:11:55.172993+05:30
Kolhapur,Maharashtra,16.705,74.2433,30.5,47,0.0,945.9,8.9,40.0,124,43.5,35.3,16.3,260.0,126.0,5.5,0,5,7,1,2026-05-09T19:11:55.173002+05:30
Goa,Goa,15.2993,74.124,31.7,67,0.0,994.8,8.75,42.1,84,38.5,22.9,3.0,222.0,113.0,3.7,3,5,7,1,2026-05-09T19:11:55.173011+05:30
Jodhpur,Rajasthan,26.2389,73.0243,39.4,14,0.0,980.2,8.35,42.8,132,98.3,23.1,6.1,192.0,127.0,4.1,0,5,10,0,2026-05-09T19:11:55.173020+05:30
Udaipur,Rajasthan,24.5854,73.7125,34.5,17,0.0,945.5,8.8,44.3,73,41.1,11.4,2.2,162.0,119.0,2.8,0,5,7,0,2026-05-09T19:11:55.173029+05:30
Kota,Rajasthan,25.2138,75.8648,35.5,25,0.0,976.3,8.35,46.1,132,50.3,21.3,3.7,320.0,144.0,5.4,0,5,10,0,2026-05-09T19:11:55.173038+05:30
Bikaner,Rajasthan,28.0229,73.3119,38.1,15,0.0,979.5,8.25,26.3,158,154.6,38.5,1.8,335.0,148.0,8.2,0,5,10,0,2026-05-09T19:11:55.173046+05:30
Ajmer,Rajasthan,26.4499,74.6399,34.6,19,0.0,953.5,8.3,45.7,141,71.7,24.2,2.9,263.0,147.0,3.7,0,5,7,0,2026-05-09T19:11:55.173055+05:30
Gwalior,Madhya Pradesh,26.2183,78.1828,31.3,37,0.0,981.5,8.1,25.9,162,213.3,49.2,2.6,288.0,157.0,7.0,0,5,7,0,2026-05-09T19:11:55.173063+05:30
Indore,Madhya Pradesh,22.7196,75.8577,36.2,13,0.0,946.5,8.6,45.4,100,30.9,10.3,3.1,233.0,123.0,2.9,0,5,10,0,2026-05-09T19:11:55.173071+05:30
Bhopal,Madhya Pradesh,23.2599,77.4126,34.7,21,0.0,952.1,8.65,43.6,107,36.3,11.7,2.2,231.0,126.0,3.3,0,5,7,0,2026-05-09T19:11:55.173080+05:30
Jabalpur,Madhya Pradesh,23.1815,79.9864,32.7,32,0.0,959.7,8.8,39.2,145,39.6,21.3,7.2,198.0,126.0,5.3,0,5,7,0,2026-05-09T19:11:55.173089+05:30
Ujjain,Madhya Pradesh,23.1765,75.7885,36.0,13,0.0,952.0,8.55,45.7,90,31.5,11.7,2.6,201.0,117.0,3.2,0,5,10,0,2026-05-09T19:11:55.173098+05:30
Visakhapatnam,Andhra Pradesh,17.6868,83.2185,29.2,71,0.0,1004.2,9.1,33.8,76,13.1,11.3,20.3,393.0,29.0,13.2,7,5,4,1,2026-05-09T19:11:55.173107+05:30
Vijayawada,Andhra Pradesh,16.5062,80.648,31.4,61,0.0,1001.8,9.2,40.3,46,8.2,7.0,4.2,150.0,67.0,5.8,3,5,4,1,2026-05-09T19:11:55.173116+05:30
Guntur,Andhra Pradesh,16.3067,80.4365,32.2,55,0.0,1002.9,9.2,33.1,44,11.3,9.7,3.9,163.0,86.0,5.4,0,5,4,1,2026-05-09T19:11:55.173124+05:30
Nellore,Andhra Pradesh,14.4426,79.9865,29.4,71,0.0,1005.1,9.2,39.6,28,5.4,3.7,2.2,128.0,48.0,1.7,7,5,4,1,2026-05-09T19:11:55.173133+05:30
Kurnool,Andhra Pradesh,15.8281,78.0373,35.0,32,0.0,974.8,9.15,36.0,49,13.4,9.3,3.5,169.0,108.0,1.7,0,5,7,0,2026-05-09T19:11:55.173142+05:30
Kakinada,Andhra Pradesh,16.9891,82.2475,28.6,79,0.0,1007.3,9.15,36.7,26,6.0,4.1,1.1,160.0,48.0,0.5,7,5,4,1,2026-05-09T19:11:55.173151+05:30
Tirupati,Andhra Pradesh,13.6288,79.4192,28.8,67,0.0,990.4,7.35,40.3,27,6.4,5.5,7.9,165.0,45.0,1.4,7,5,7,1,2026-05-09T19:11:55.173160+05:30
Warangal,Telangana,17.9689,79.5941,33.0,39,0.0,977.5,9.15,32.0,105,33.5,23.7,7.6,242.0,130.0,6.5,0,5,7,1,2026-05-09T19:11:55.173168+05:30
Nizamabad,Telangana,18.6725,78.0941,33.3,30,0.0,963.3,9.1,31.0,136,42.0,23.1,9.6,224.0,140.0,4.8,0,5,7,0,2026-05-09T19:11:55.173177+05:30
Mysore,Karnataka,12.2958,76.6396,22.3,96,0.3,926.9,9.4,42.8,59,19.4,17.7,7.3,211.0,91.0,3.7,6,5,7,1,2026-05-09T19:11:55.173186+05:30
Mangalore,Karnataka,12.9141,74.856,28.3,86,0.0,1004.5,8.0,37.4,75,29.0,16.6,5.1,237.0,95.0,2.0,7,5,4,1,2026-05-09T19:11:55.173194+05:30
Hubli-Dharwad,Karnataka,15.3647,75.124,34.0,22,0.0,938.6,9.15,45.0,111,14.6,10.5,6.6,223.0,139.0,2.6,0,5,7,0,2026-05-09T19:11:55.173203+05:30
Belgaum,Karnataka,15.8497,74.4977,30.5,37,0.0,924.2,9.15,36.4,125,36.6,26.1,9.7,214.0,137.0,4.2,0,5,7,0,2026-05-09T19:11:58.465000+05:30
Coimbatore,Tamil Nadu,11.0168,76.9558,24.4,89,0.1,960.5,7.75,28.8,64,17.7,16.6,8.8,389.0,94.0,4.9,6,5,7,1,2026-05-09T19:11:58.465035+05:30
Madurai,Tamil Nadu,9.9252,78.1198,27.0,85,0.0,991.7,4.7,44.3,66,13.1,12.8,12.8,328.0,79.0,10.8,7,5,3,1,2026-05-09T19:11:58.465047+05:30
Trichy,Tamil Nadu,10.7905,78.7047,26.6,86,0.0,998.6,3.2,33.8,39,11.9,11.8,18.4,315.0,64.0,25.0,7,5,3,1,2026-05-09T19:11:58.465057+05:30
Salem,Tamil Nadu,11.6643,78.146,26.5,79,0.0,976.1,8.25,33.1,49,11.2,10.9,10.7,358.0,91.0,11.0,7,5,7,1,2026-05-09T19:11:58.465066+05:30
Tirunelveli,Tamil Nadu,8.7139,77.7567,27.1,87,0.0,1001.6,4.75,29.2,58,15.4,14.9,10.4,189.0,72.0,4.7,7,5,0,1,2026-05-09T19:11:58.465076+05:30
Vellore,Tamil Nadu,12.9165,79.1325,24.5,91,0.1,983.8,6.85,37.4,44,11.8,11.6,11.7,204.0,70.0,10.3,6,5,7,1,2026-05-09T19:11:58.465085+05:30
Erode,Tamil Nadu,11.341,77.7172,27.3,85,0.0,987.7,8.1,41.8,59,14.8,14.3,12.2,391.0,80.0,6.3,7,5,7,1,2026-05-09T19:11:58.465093+05:30
Kochi,Kerala,9.9312,76.2673,26.0,92,0.0,1007.2,7.85,29.9,89,23.6,22.4,16.4,337.0,72.0,3.1,7,5,4,1,2026-05-09T19:11:58.465102+05:30
Thiruvananthapuram,Kerala,8.5241,76.9366,26.9,85,0.1,1006.2,4.7,28.4,67,10.4,7.5,3.4,271.0,111.0,1.3,10,5,0,1,2026-05-09T19:11:58.465110+05:30
Kozhikode,Kerala,11.2588,75.7804,26.1,93,0.0,1006.4,8.5,34.9,62,12.9,8.1,1.3,404.0,108.0,0.8,7,5,4,1,2026-05-09T19:11:58.465118+05:30
Thrissur,Kerala,10.5276,76.2144,25.3,96,0.1,1005.9,8.25,25.9,78,23.4,22.3,9.5,550.0,86.0,2.5,10,5,4,1,2026-05-09T19:11:58.465127+05:30
Kannur,Kerala,11.8745,75.3704,26.6,90,0.0,1005.5,8.95,34.2,70,22.2,15.1,9.5,323.0,87.0,1.9,7,5,4,1,2026-05-09T19:11:58.465136+05:30
Patna,Bihar,25.5941,85.1376,26.8,73,0.0,1001.3,8.4,35.6,203,64.3,55.6,12.9,477.0,172.0,19.2,7,5,4,1,2026-05-09T19:11:58.465145+05:30
Gaya,Bihar,24.7914,85.0002,26.1,63,0.0,994.4,8.55,34.2,203,59.5,43.3,6.6,470.0,177.0,18.3,7,5,7,1,2026-05-09T19:11:58.465153+05:30
Muzaffarpur,Bihar,26.1209,85.3647,26.5,68,0.0,1001.7,8.65,34.9,193,67.3,58.6,14.5,428.0,154.0,16.6,7,5,4,1,2026-05-09T19:11:58.465161+05:30
Bhagalpur,Bihar,25.2425,87.0117,22.3,90,0.1,1004.2,8.7,43.2,204,66.6,53.0,10.6,388.0,172.0,12.7,6,5,4,1,2026-05-09T19:11:58.465169+05:30
Ranchi,Jharkhand,23.3441,85.3096,22.2,79,0.0,937.9,9.2,45.0,162,67.5,39.1,9.7,270.0,135.0,8.7,3,5,7,1,2026-05-09T19:11:58.465178+05:30
Jamshedpur,Jharkhand,22.8046,86.2029,24.4,81,0.0,992.2,8.85,37.1,184,49.7,36.7,10.8,525.0,158.0,24.0,3,5,7,1,2026-05-09T19:11:58.465186+05:30
Dhanbad,Jharkhand,23.7957,86.4304,23.8,86,0.1,981.4,8.95,29.5,188,78.9,64.3,28.5,787.0,171.0,52.1,6,5,7,1,2026-05-09T19:11:58.465194+05:30
Bokaro,Jharkhand,23.6693,86.1511,23.5,91,0.0,985.2,9.0,52.2,204,85.7,64.5,24.9,574.0,161.0,46.2,3,5,7,1,2026-05-09T19:11:58.465203+05:30
Bhubaneswar,Odisha,20.2961,85.8245,28.5,77,0.0,1003.8,9.1,33.8,49,18.7,14.7,9.9,235.0,76.0,4.9,7,5,4,1,2026-05-09T19:11:58.465211+05:30
Cuttack,Odisha,20.4625,85.8828,29.1,68,0.0,1005.4,9.15,42.5,49,18.7,14.7,9.9,253.0,76.0,4.9,7,5,4,1,2026-05-09T19:11:58.465219+05:30
Rourkela,Odisha,22.2604,84.8536,28.8,60,0.0,985.5,8.7,38.9,191,66.1,41.6,12.9,318.0,155.0,27.8,4,5,7,1,2026-05-09T19:11:58.465227+05:30
Raipur,Chhattisgarh,21.2514,81.6296,31.6,34,0.0,974.2,8.95,40.0,187,41.4,28.0,19.6,272.0,142.0,6.4,0,5,7,0,2026-05-09T19:11:58.465236+05:30
Bhilai,Chhattisgarh,21.1938,81.3509,32.2,35,0.0,974.6,8.95,42.8,161,38.9,25.7,22.3,257.0,128.0,6.0,0,5,7,0,2026-05-09T19:11:58.465243+05:30
Guwahati,Assam,26.1158,91.7086,25.2,81,0.0,1002.8,8.65,24.1,105,31.8,26.3,6.8,354.0,96.0,2.1,7,5,4,1,2026-05-09T19:11:58.465252+05:30
Agartala,Tripura,23.8315,91.2868,27.5,74,0.0,1007.0,8.8,20.2,201,74.3,63.1,24.4,573.0,133.0,6.3,7,5,4,1,2026-05-09T19:11:58.465260+05:30
Shillong,Meghalaya,25.5788,91.8933,17.1,78,0.0,858.0,8.4,24.1,112,37.3,26.5,8.3,424.0,108.0,2.7,3,5,7,0,2026-05-09T19:11:58.465268+05:30
Imphal,Manipur,24.817,93.9368,23.0,69,0.0,924.0,9.2,28.1,96,38.3,27.5,13.9,578.0,90.0,3.6,3,5,7,1,2026-05-09T19:11:58.465277+05:30
Aizawl,Mizoram,23.7271,92.7176,21.2,61,0.0,893.3,9.0,27.4,113,51.9,32.6,7.1,323.0,111.0,4.7,3,5,7,0,2026-05-09T19:11:58.465285+05:30
Kohima,Nagaland,25.6701,94.1077,17.0,87,0.0,856.1,9.15,32.4,97,33.6,24.3,8.6,382.0,99.0,1.8,3,10,7,0,2026-05-09T19:11:58.465294+05:30
Gangtok,Sikkim,27.3314,88.6138,14.4,80,0.0,837.9,8.95,41.8,93,28.3,17.5,9.6,303.0,112.0,1.7,3,5,7,0,2026-05-09T19:11:58.465302+05:30
Siliguri,West Bengal,26.7271,88.3953,25.1,72,0.0,994.3,8.55,29.5,122,48.5,32.6,12.7,1424.0,133.0,4.0,7,5,7,1,2026-05-09T19:12:01.755381+05:30
Durgapur,West Bengal,23.5204,87.3119,24.6,87,0.0,997.0,8.9,43.9,158,60.8,50.6,23.7,569.0,139.0,43.0,3,5,7,1,2026-05-09T19:12:01.755416+05:30
Asansol,West Bengal,23.6739,86.9524,21.8,94,0.1,996.4,8.9,38.9,151,59.3,50.1,24.9,443.0,143.0,47.3,6,5,7,1,2026-05-09T19:12:01.755427+05:30
Pondicherry,Puducherry,11.9139,79.8145,26.6,90,0.1,1007.3,2.2,38.2,26,4.7,3.2,3.0,186.0,45.0,0.4,10,5,0,1,2026-05-09T19:12:01.755438+05:30
Port Blair,Andaman and Nicobar Islands,11.6234,92.7265,25.5,95,0.0,1007.0,8.1,43.6,27,2.5,1.7,0.7,248.0,56.0,0.1,7,5,4,1,2026-05-09T19:12:01.755447+05:30
Haridwar,Uttarakhand,29.9457,78.1642,27.9,59,0.0,974.1,7.4,28.1,167,63.1,32.9,9.2,313.0,152.0,8.1,4,5,7,1,2026-05-09T19:12:01.755456+05:30
Rishikesh,Uttarakhand,30.0869,78.2676,25.8,62,0.0,966.7,7.5,26.6,165,54.8,26.1,3.8,314.0,166.0,6.6,7,5,7,1,2026-05-09T19:12:01.755465+05:30
Nainital,Uttarakhand,29.3919,79.4542,13.8,85,0.0,805.4,7.9,31.3,140,39.7,21.5,5.5,278.0,144.0,4.1,3,10,7,0,2026-05-09T19:12:01.755474+05:30
Mussoorie,Uttarakhand,30.4599,78.0664,14.6,82,0.0,803.2,7.85,41.4,160,48.5,26.1,6.5,281.0,168.0,9.1,3,10,7,0,2026-05-09T19:12:01.755483+05:30
Dharamshala,Himachal Pradesh,32.219,76.3234,20.7,72,0.0,869.7,8.25,36.7,150,66.1,34.8,4.3,300.0,160.0,4.6,3,5,7,0,2026-05-09T19:12:01.755493+05:30
Dalhousie,Himachal Pradesh,32.5387,75.971,16.6,79,0.0,805.5,8.5,36.7,174,93.4,44.7,10.0,394.0,164.0,7.0,3,5,7,0,2026-05-09T19:12:01.755502+05:30
Patiala,Punjab,30.3398,76.3869,31.7,37,0.0,977.1,7.5,29.2,215,258.0,55.2,6.0,285.0,162.0,7.1,0,5,7,0,2026-05-09T19:12:01.755511+05:30
Bhatinda,Punjab,30.211,74.9455,34.5,30,0.0,982.4,8.2,25.6,468,355.8,75.7,8.0,324.0,183.0,19.5,0,5,7,0,2026-05-09T19:12:01.755519+05:30
Rohtak,Haryana,28.8955,76.6066,31.5,38,0.0,980.9,7.6,27.4,308,354.8,64.3,10.5,354.0,200.0,20.3,0,5,7,0,2026-05-09T19:12:01.755527+05:30
Panipat,Haryana,29.3909,76.9635,29.4,51,0.0,980.0,7.45,33.1,550,607.2,82.9,7.8,354.0,189.0,19.6,4,5,7,1,2026-05-09T19:12:01.755535+05:30
Mathura,Uttar Pradesh,27.4924,77.6737,30.6,40,0.0,986.0,7.85,27.0,768,642.6,85.0,6.4,331.0,159.0,8.7,0,5,7,0,2026-05-09T19:12:01.755544+05:30
Vrindavan,Uttar Pradesh,27.5823,77.7027,30.6,38,0.0,986.4,7.8,27.4,768,642.6,85.0,6.4,335.0,159.0,8.7,0,5,7,0,2026-05-09T19:12:01.755553+05:30
Ayodhya,Uttar Pradesh,26.7922,82.1998,27.0,62,0.0,995.9,8.15,38.9,154,65.7,41.6,12.2,378.0,142.0,8.8,7,5,7,1,2026-05-09T19:12:01.755562+05:30
Ratlam,Madhya Pradesh,23.3315,75.0367,34.1,19,0.0,952.8,8.5,38.2,90,30.2,10.0,1.7,187.0,119.0,2.8,0,5,7,0,2026-05-09T19:12:01.755570+05:30
Sagar,Madhya Pradesh,23.8388,78.7378,33.2,22,0.0,948.7,8.65,43.9,128,36.4,15.8,1.5,191.0,151.0,6.5,0,5,7,0,2026-05-09T19:12:01.755578+05:30
Satna,Madhya Pradesh,24.6005,80.8322,30.4,37,0.0,970.4,8.65,55.8,177,48.3,29.3,3.3,254.0,185.0,9.2,0,5,7,0,2026-05-09T19:12:01.755586+05:30
Akola,Maharashtra,20.7002,77.0082,36.5,17,0.0,972.5,8.85,36.0,154,60.1,21.7,8.0,205.0,145.0,12.2,0,5,10,0,2026-05-09T19:12:01.755595+05:30
Amravati,Maharashtra,20.9374,77.7796,35.9,22,0.0,965.5,8.85,32.8,151,58.4,22.1,10.1,230.0,145.0,7.4,0,5,10,0,2026-05-09T19:12:01.755604+05:30
Latur,Maharashtra,18.4088,76.5604,33.5,24,0.0,938.6,9.05,35.3,143,46.1,28.6,5.2,210.0,155.0,13.8,0,5,7,0,2026-05-09T19:12:01.755612+05:30
Nanded,Maharashtra,19.1383,77.3091,34.9,24,0.0,966.6,9.0,25.9,145,55.2,28.6,4.7,264.0,148.0,5.3,0,5,7,0,2026-05-09T19:12:01.755620+05:30
Gulbarga,Karnataka,17.3297,76.8343,35.0,24,0.0,956.8,8.9,36.0,124,22.6,15.0,5.4,227.0,149.0,3.7,0,5,7,0,2026-05-09T19:12:01.755628+05:30
Bidar,Karnataka,17.9104,77.5199,32.0,31,0.0,934.5,8.75,35.3,125,27.7,17.6,7.4,244.0,139.0,3.3,0,5,7,0,2026-05-09T19:12:01.755643+05:30
Hospet,Karnataka,15.2689,76.3909,31.9,34,0.0,953.2,9.2,36.0,88,14.4,11.0,8.1,289.0,133.0,5.9,0,5,7,0,2026-05-09T19:12:01.755651+05:30
Tirupur,Tamil Nadu,11.1085,77.3411,26.3,80,0.1,974.3,7.95,39.2,81,19.4,18.7,10.6,354.0,102.0,7.0,10,5,7,1,2026-05-09T19:12:01.755659+05:30
Alappuzha,Kerala,9.4981,76.3388,27.2,83,0.1,1007.1,7.8,30.6,106,21.5,18.7,12.4,182.0,99.0,3.6,10,5,4,1,2026-05-09T19:12:01.755668+05:30
Munnar,Kerala,10.0889,77.0595,18.4,96,0.0,855.3,5.9,21.2,52,17.3,16.5,7.5,230.0,69.0,2.4,3,10,3,1,2026-05-09T19:12:01.755676+05:30
Silchar,Assam,24.8333,92.7789,26.8,72,0.0,1005.4,8.7,16.9,135,67.5,48.2,11.6,471.0,112.0,9.4,7,5,4,1,2026-05-09T19:12:01.755685+05:30
Dibrugarh,Assam,27.4728,94.912,26.0,79,0.0,996.4,8.7,19.4,116,46.7,39.6,15.3,450.0,107.0,3.9,7,5,7,1,2026-05-09T19:12:01.755693+05:30
