city,state,latitude,longitude,temp,humidity,rain,pressure,uv_index,wind_gusts,aqi,pm10,pm2_5,mosquito_risk,arthritis_risk,migraine_risk,frizz_risk,updated_at
Delhi,Delhi,28.6139,77.209,20.5,67,0.0,983.9,6.9,28.1,174,452.6,95.9,3,5,7,0,2026-04-06T04:05:21.078554+05:30
Mumbai,Maharashtra,19.076,72.8777,27.8,62,0.0,1009.9,7.95,23.4,64,27.1,15.5,7,0,4,1,2026-04-06T04:05:21.078592+05:30
Bangalore,Karnataka,12.9716,77.5946,23.0,80,0.0,910.9,9.6,29.9,91,23.3,21.7,3,5,7,1,2026-04-06T04:05:21.078608+05:30
Hyderabad,Telangana,17.385,78.4867,26.5,66,0.0,952.0,9.2,33.5,123,64.3,54.8,7,5,7,1,2026-04-06T04:05:21.078618+05:30
Chennai,Tamil Nadu,13.0827,80.2707,27.7,87,0.0,1006.4,9.35,26.6,60,17.1,12.5,7,5,4,1,2026-04-06T04:05:21.078626+05:30
Kolkata,West Bengal,22.5726,88.3639,23.3,92,0.0,1005.7,8.65,17.6,135,56.1,51.6,3,5,4,1,2026-04-06T04:05:21.078635+05:30
Pune,Maharashtra,18.5204,73.8567,20.1,74,0.0,948.6,8.55,32.0,67,31.0,21.5,3,5,7,0,2026-04-06T04:05:21.078647+05:30
Ahmedabad,Gujarat,23.0225,72.5714,23.9,51,0.0,1003.2,7.95,28.4,64,40.3,33.1,0,5,4,0,2026-04-06T04:05:21.078654+05:30
Jaipur,Rajasthan,26.9124,75.7873,21.7,54,0.0,960.2,7.55,30.6,103,183.5,32.4,0,5,7,0,2026-04-06T04:05:21.078662+05:30
Lucknow,Uttar Pradesh,26.8467,80.9462,21.0,74,0.0,994.0,7.45,32.0,90,106.4,39.1,3,5,7,1,2026-04-06T04:05:21.078669+05:30
Kanpur,Uttar Pradesh,26.4499,80.3319,20.5,81,0.0,992.4,7.45,33.1,113,214.2,50.4,3,5,7,1,2026-04-06T04:05:21.078676+05:30
Chandigarh,Chandigarh,30.7333,76.7794,18.1,70,0.0,969.5,6.85,17.3,66,26.4,23.6,3,5,7,0,2026-04-06T04:05:21.078684+05:30
Srinagar,Jammu and Kashmir,34.0837,74.7973,5.1,85,0.0,836.4,7.95,22.7,86,44.9,37.7,3,10,7,0,2026-04-06T04:05:21.078691+05:30
Jammu,Jammu and Kashmir,32.7266,74.857,16.4,71,0.0,973.2,7.55,21.6,69,43.7,36.6,3,5,7,0,2026-04-06T04:05:21.078698+05:30
Amritsar,Punjab,31.634,74.8723,17.1,80,0.0,981.6,7.5,14.8,98,85.9,68.5,3,5,7,0,2026-04-06T04:05:21.078704+05:30
Ludhiana,Punjab,30.901,75.8573,18.8,71,0.0,979.8,7.1,19.4,97,64.0,56.0,3,5,7,0,2026-04-06T04:05:21.078711+05:30
Jalandhar,Punjab,31.326,75.5762,16.9,87,0.0,980.9,7.25,15.8,84,58.1,44.1,3,10,7,0,2026-04-06T04:05:21.078719+05:30
Dehradun,Uttarakhand,30.6284,78.0322,9.1,81,0.0,826.9,6.65,28.1,40,18.9,11.0,3,10,7,0,2026-04-06T04:05:21.078725+05:30
Shimla,Himachal Pradesh,31.1048,77.1734,7.8,75,0.0,780.3,6.55,28.4,42,22.5,13.6,3,5,7,0,2026-04-06T04:05:21.078732+05:30
Manali,Himachal Pradesh,32.2396,77.1887,10.9,63,0.0,815.4,9.6,25.9,37,25.4,18.2,3,5,7,0,2026-04-06T04:05:21.078738+05:30
Gurgaon,Haryana,28.4595,77.0266,18.1,77,0.0,982.2,7.05,27.7,569,609.1,113.4,3,5,7,0,2026-04-06T04:05:21.078745+05:30
Noida,Uttar Pradesh,28.5355,77.391,20.6,68,0.0,985.5,6.95,28.4,569,609.1,113.4,3,5,7,0,2026-04-06T04:05:21.078751+05:30
Ghaziabad,Uttar Pradesh,28.6692,77.4538,19.5,74,0.0,983.5,6.9,28.4,131,270.1,65.4,3,5,7,0,2026-04-06T04:05:21.078758+05:30
Faridabad,Haryana,28.4089,77.3178,19.1,72,0.0,984.6,7.0,27.4,569,609.1,113.4,3,5,7,0,2026-04-06T04:05:21.078765+05:30
Meerut,Uttar Pradesh,28.9845,77.7064,17.9,78,0.0,982.1,6.8,24.8,131,270.1,65.4,3,5,7,0,2026-04-06T04:05:21.078771+05:30
Agra,Uttar Pradesh,27.1767,78.0081,19.2,81,0.0,988.7,7.3,27.4,170,433.1,85.9,3,10,7,0,2026-04-06T04:05:21.078777+05:30
Varanasi,Uttar Pradesh,25.3176,82.9739,22.7,75,0.0,998.1,7.9,24.8,89,38.0,32.2,3,5,7,1,2026-04-06T04:05:21.078785+05:30
Prayagraj,Uttar Pradesh,25.4358,81.8463,23.4,73,0.0,996.5,7.55,23.8,71,56.1,25.3,3,5,7,1,2026-04-06T04:05:21.078792+05:30
Gorakhpur,Uttar Pradesh,26.7606,83.3732,21.9,66,0.0,996.9,7.7,31.7,69,34.3,23.2,3,5,7,0,2026-04-06T04:05:21.078798+05:30
Bareilly,Uttar Pradesh,28.367,79.4304,18.1,87,0.0,987.5,7.2,27.7,86,49.1,34.5,3,10,7,0,2026-04-06T04:05:21.078805+05:30
Aligarh,Uttar Pradesh,27.8974,78.088,17.7,83,0.0,986.4,7.1,27.4,182,610.9,116.9,3,10,7,0,2026-04-06T04:05:21.078813+05:30
Moradabad,Uttar Pradesh,28.8386,78.7733,18.1,87,0.0,984.4,7.0,27.4,99,74.7,54.5,3,10,7,0,2026-04-06T04:05:21.078820+05:30
Saharanpur,Uttar Pradesh,29.9637,77.546,17.8,78,0.0,976.4,6.6,22.3,81,86.1,58.3,3,5,7,0,2026-04-06T04:05:21.078826+05:30
Jhansi,Uttar Pradesh,25.4484,78.5685,21.0,78,0.0,978.1,7.9,24.1,56,132.2,31.8,3,5,7,1,2026-04-06T04:05:24.297106+05:30
Surat,Gujarat,21.1702,72.8311,26.0,73,0.0,1007.9,7.7,28.8,79,25.6,17.5,7,5,4,1,2026-04-06T04:05:24.297133+05:30
Vadodara,Gujarat,22.3072,73.1812,25.0,77,0.0,1005.3,7.95,29.2,75,25.8,20.7,7,5,4,1,2026-04-06T04:05:24.297143+05:30
Rajkot,Gujarat,22.3039,70.8022,22.5,85,0.0,996.1,7.7,38.9,46,24.3,9.9,3,5,7,1,2026-04-06T04:05:24.297151+05:30
Thane,Maharashtra,19.2183,72.9781,26.2,65,0.0,1009.4,7.95,37.8,64,27.1,15.5,7,0,4,1,2026-04-06T04:05:24.297159+05:30
Nagpur,Maharashtra,21.1458,79.0882,24.6,58,0.0,972.1,8.65,24.1,72,23.1,18.7,0,5,7,0,2026-04-06T04:05:24.297166+05:30
Nashik,Maharashtra,19.9975,73.7898,18.4,83,0.0,945.9,8.2,32.8,56,29.3,16.4,3,10,7,0,2026-04-06T04:05:24.297174+05:30
Aurangabad,Maharashtra,19.8762,75.3433,22.1,67,0.0,944.0,8.9,28.1,54,15.9,10.1,3,5,7,0,2026-04-06T04:05:24.297180+05:30
Solapur,Maharashtra,17.6599,75.9064,23.8,65,0.0,956.8,9.0,34.9,51,16.8,13.1,3,5,7,1,2026-04-06T04:05:24.297187+05:30
Kolhapur,Maharashtra,16.705,74.2433,17.5,86,0.0,947.5,9.0,39.6,68,37.7,26.1,3,10,7,0,2026-04-06T04:05:24.297193+05:30
Goa,Goa,15.2993,74.124,25.4,83,0.0,998.7,9.0,38.9,66,46.9,25.7,7,5,7,1,2026-04-06T04:05:24.297200+05:30
Jodhpur,Rajasthan,26.2389,73.0243,23.2,46,0.0,983.6,7.85,34.9,68,135.5,21.5,0,5,7,0,2026-04-06T04:05:24.297206+05:30
Udaipur,Rajasthan,24.5854,73.7125,19.1,52,0.0,946.6,8.4,34.9,44,15.4,8.2,0,5,7,0,2026-04-06T04:05:24.297213+05:30
Kota,Rajasthan,25.2138,75.8648,22.2,46,0.0,978.9,7.85,26.3,65,57.7,21.3,0,5,7,0,2026-04-06T04:05:24.297219+05:30
Bikaner,Rajasthan,28.0229,73.3119,22.4,53,0.0,982.4,7.65,27.4,44,43.5,11.5,0,5,7,0,2026-04-06T04:05:24.297226+05:30
Ajmer,Rajasthan,26.4499,74.6399,21.0,56,0.0,954.6,7.75,27.4,52,19.6,12.7,0,5,7,0,2026-04-06T04:05:24.297235+05:30
Gwalior,Madhya Pradesh,26.2183,78.1828,21.3,80,0.0,983.7,7.6,25.9,70,156.0,34.6,3,5,7,1,2026-04-06T04:05:24.297241+05:30
Indore,Madhya Pradesh,22.7196,75.8577,21.3,56,0.0,947.7,8.3,28.1,58,13.2,11.4,0,5,7,0,2026-04-06T04:05:24.297247+05:30
Bhopal,Madhya Pradesh,23.2599,77.4126,21.8,53,0.0,953.2,8.3,29.9,45,18.3,9.4,0,5,7,0,2026-04-06T04:05:24.297253+05:30
Jabalpur,Madhya Pradesh,23.1815,79.9864,25.7,45,0.0,960.7,7.9,27.4,68,19.9,15.7,4,5,7,0,2026-04-06T04:05:24.297259+05:30
Ujjain,Madhya Pradesh,23.1765,75.7885,21.4,57,0.0,953.7,8.2,28.4,47,9.6,7.9,0,5,7,0,2026-04-06T04:05:24.297265+05:30
Visakhapatnam,Andhra Pradesh,17.6868,83.2185,25.4,88,0.0,1004.0,9.1,37.1,98,58.2,52.5,7,5,4,1,2026-04-06T04:05:24.297272+05:30
Vijayawada,Andhra Pradesh,16.5062,80.648,27.1,91,0.0,1001.7,9.15,31.3,84,19.4,17.2,7,5,4,1,2026-04-06T04:05:24.297278+05:30
Guntur,Andhra Pradesh,16.3067,80.4365,27.5,91,0.0,1002.8,9.2,32.0,90,19.8,17.3,7,5,4,1,2026-04-06T04:05:24.297284+05:30
Nellore,Andhra Pradesh,14.4426,79.9865,27.8,87,0.0,1004.6,9.15,33.1,64,15.0,12.6,7,5,4,1,2026-04-06T04:05:24.297290+05:30
Kurnool,Andhra Pradesh,15.8281,78.0373,29.1,51,0.0,975.9,9.2,36.4,108,51.3,44.8,4,5,7,1,2026-04-06T04:05:24.297297+05:30
Kakinada,Andhra Pradesh,16.9891,82.2475,26.2,93,0.0,1007.0,8.55,24.8,64,21.6,15.4,7,5,4,1,2026-04-06T04:05:24.297303+05:30
Tirupati,Andhra Pradesh,13.6288,79.4192,26.0,91,0.0,990.9,8.7,23.8,86,28.6,27.6,7,5,7,1,2026-04-06T04:05:24.297310+05:30
Warangal,Telangana,17.9689,79.5941,26.7,73,0.0,977.0,8.35,36.7,151,71.9,63.1,7,5,7,1,2026-04-06T04:05:24.297316+05:30
Nizamabad,Telangana,18.6725,78.0941,26.2,58,0.0,964.2,8.95,29.2,102,42.4,34.1,4,5,7,1,2026-04-06T04:05:24.297322+05:30
Mysore,Karnataka,12.2958,76.6396,22.7,85,0.0,928.0,9.55,38.5,75,24.0,21.5,3,5,7,1,2026-04-06T04:05:24.297328+05:30
Mangalore,Karnataka,12.9141,74.856,29.3,73,0.0,1006.9,9.2,41.0,59,37.5,19.3,7,5,4,1,2026-04-06T04:05:24.297334+05:30
Hubli-Dharwad,Karnataka,15.3647,75.124,19.8,86,0.0,940.1,9.2,34.9,56,25.0,14.8,3,10,7,1,2026-04-06T04:05:24.297341+05:30
Belgaum,Karnataka,15.8497,74.4977,18.2,81,0.0,924.6,9.25,36.0,59,36.4,20.9,3,10,7,0,2026-04-06T04:05:27.519802+05:30
Coimbatore,Tamil Nadu,11.0168,76.9558,25.0,82,0.0,961.5,9.5,51.1,72,28.9,25.0,7,5,7,1,2026-04-06T04:05:27.519831+05:30
Madurai,Tamil Nadu,9.9252,78.1198,27.5,79,0.0,992.0,9.4,27.7,90,49.9,46.8,7,5,7,1,2026-04-06T04:05:27.519873+05:30
Trichy,Tamil Nadu,10.7905,78.7047,27.0,88,0.0,999.3,9.4,24.1,94,29.9,28.1,7,5,7,1,2026-04-06T04:05:27.519884+05:30
Salem,Tamil Nadu,11.6643,78.146,26.6,78,0.0,977.1,8.7,38.9,86,22.3,21.0,7,5,7,1,2026-04-06T04:05:27.519892+05:30
Tirunelveli,Tamil Nadu,8.7139,77.7567,27.6,71,0.0,1002.0,3.8,23.4,59,15.9,13.8,7,5,0,1,2026-04-06T04:05:27.519900+05:30
Vellore,Tamil Nadu,12.9165,79.1325,25.8,82,0.0,983.8,9.45,25.2,113,30.3,28.7,7,5,7,1,2026-04-06T04:05:27.519908+05:30
Erode,Tamil Nadu,11.341,77.7172,27.2,83,0.0,988.6,9.45,32.4,76,25.4,22.7,7,5,7,1,2026-04-06T04:05:27.519916+05:30
Kochi,Kerala,9.9312,76.2673,28.7,81,0.0,1008.6,8.1,37.8,65,28.8,24.3,7,0,4,1,2026-04-06T04:05:27.519923+05:30
Thiruvananthapuram,Kerala,8.5241,76.9366,28.3,85,0.0,1007.7,6.3,39.6,52,22.9,15.8,7,5,4,1,2026-04-06T04:05:27.519930+05:30
Kozhikode,Kerala,11.2588,75.7804,29.0,79,0.0,1007.7,9.15,40.3,58,27.1,15.3,7,5,4,1,2026-04-06T04:05:27.519937+05:30
Thrissur,Kerala,10.5276,76.2144,27.6,84,0.0,1006.9,9.15,40.7,65,33.6,25.7,7,5,4,1,2026-04-06T04:05:27.519944+05:30
Kannur,Kerala,11.8745,75.3704,27.7,83,0.0,1007.1,9.2,48.2,60,26.7,14.1,7,5,4,1,2026-04-06T04:05:27.519950+05:30
Patna,Bihar,25.5941,85.1376,24.4,61,0.0,1000.1,7.9,30.2,63,25.7,21.7,3,5,4,1,2026-04-06T04:05:27.519957+05:30
Gaya,Bihar,24.7914,85.0002,24.2,68,0.0,994.5,6.6,21.6,66,26.5,20.6,3,5,7,1,2026-04-06T04:05:27.519963+05:30
Muzaffarpur,Bihar,26.1209,85.3647,23.0,58,0.0,999.6,7.7,24.5,64,29.8,26.0,0,5,7,0,2026-04-06T04:05:27.519970+05:30
Bhagalpur,Bihar,25.2425,87.0117,24.6,63,0.0,1000.5,6.4,28.8,61,18.6,15.1,3,5,4,1,2026-04-06T04:05:27.519976+05:30
Ranchi,Jharkhand,23.3441,85.3096,21.4,81,0.0,937.2,8.0,27.4,80,51.8,45.1,3,5,7,1,2026-04-06T04:05:27.519983+05:30
Jamshedpur,Jharkhand,22.8046,86.2029,24.1,88,0.0,990.5,8.55,35.6,111,56.8,52.3,3,5,7,1,2026-04-06T04:05:27.519989+05:30
Dhanbad,Jharkhand,23.7957,86.4304,24.9,66,0.0,979.3,8.5,35.6,100,62.6,54.4,3,5,7,1,2026-04-06T04:05:27.519996+05:30
Bokaro,Jharkhand,23.6693,86.1511,24.4,69,0.0,983.7,7.85,35.6,91,62.9,53.3,3,5,7,1,2026-04-06T04:05:27.520002+05:30
Bhubaneswar,Odisha,20.2961,85.8245,25.5,96,0.0,1002.4,8.95,34.6,88,18.0,14.2,7,5,4,1,2026-04-06T04:05:27.520009+05:30
Cuttack,Odisha,20.4625,85.8828,25.1,94,0.0,1004.5,8.95,31.0,88,18.0,14.2,7,5,4,1,2026-04-06T04:05:27.520015+05:30
Rourkela,Odisha,22.2604,84.8536,24.7,92,0.0,985.2,8.35,38.5,107,66.1,60.1,3,5,7,1,2026-04-06T04:05:27.520021+05:30
Raipur,Chhattisgarh,21.2514,81.6296,24.9,70,0.0,974.0,8.5,26.6,128,43.3,40.2,3,5,7,1,2026-04-06T04:05:27.520027+05:30
Bhilai,Chhattisgarh,21.1938,81.3509,24.8,71,0.0,974.4,8.65,25.6,128,55.4,50.9,3,5,7,1,2026-04-06T04:05:27.520033+05:30
Guwahati,Assam,26.1158,91.7086,23.7,84,0.0,1000.2,8.25,41.0,103,44.0,38.2,3,5,4,1,2026-04-06T04:05:27.520039+05:30
Agartala,Tripura,23.8315,91.2868,23.0,96,0.0,1006.1,8.5,16.2,124,74.5,69.6,3,5,4,1,2026-04-06T04:05:27.520046+05:30
Shillong,Meghalaya,25.5788,91.8933,12.5,85,0.0,854.0,8.65,54.4,95,29.5,24.6,3,10,7,0,2026-04-06T04:05:27.520052+05:30
Imphal,Manipur,24.817,93.9368,17.4,81,0.0,922.4,8.85,52.6,147,75.7,66.6,3,10,7,0,2026-04-06T04:05:27.520059+05:30
Aizawl,Mizoram,23.7271,92.7176,15.9,90,0.0,891.2,8.75,33.1,149,67.8,59.4,3,10,7,0,2026-04-06T04:05:27.520066+05:30
Kohima,Nagaland,25.6701,94.1077,15.2,58,0.0,853.2,8.75,76.0,111,47.6,39.6,0,5,7,0,2026-04-06T04:05:27.520072+05:30
Gangtok,Sikkim,27.3314,88.6138,12.5,85,0.0,835.1,8.55,18.7,83,18.9,14.9,3,10,7,0,2026-04-06T04:05:27.520078+05:30
Siliguri,West Bengal,26.7271,88.3953,21.0,55,0.0,992.7,8.1,29.5,127,27.5,25.2,0,5,7,0,2026-04-06T04:05:30.749356+05:30
Durgapur,West Bengal,23.5204,87.3119,24.0,85,0.0,994.5,8.45,25.9,98,63.8,59.4,3,5,7,1,2026-04-06T04:05:30.749385+05:30
Asansol,West Bengal,23.6739,86.9524,24.5,81,0.0,992.9,8.45,23.4,92,55.9,49.7,3,5,7,1,2026-04-06T04:05:30.749397+05:30
Pondicherry,Puducherry,11.9139,79.8145,26.1,91,0.0,1007.7,9.0,24.8,63,23.5,19.8,7,5,4,1,2026-04-06T04:05:30.749406+05:30
Port Blair,Andaman and Nicobar Islands,11.6234,92.7265,28.9,73,0.0,1006.6,9.2,19.4,28,10.1,6.4,7,5,4,1,2026-04-06T04:05:30.749415+05:30
Haridwar,Uttarakhand,29.9457,78.1642,18.0,73,0.0,975.0,6.7,23.4,66,33.2,28.2,3,5,7,0,2026-04-06T04:05:30.749423+05:30
Rishikesh,Uttarakhand,30.0869,78.2676,17.6,69,0.0,967.6,6.8,25.6,53,20.7,14.8,3,5,7,0,2026-04-06T04:05:30.749431+05:30
Nainital,Uttarakhand,29.3919,79.4542,14.1,68,0.0,803.8,5.75,31.0,58,21.6,15.6,3,5,3,0,2026-04-06T04:05:30.749438+05:30
Mussoorie,Uttarakhand,30.4599,78.0664,11.6,66,0.0,800.0,5.35,29.9,56,28.1,22.2,3,5,3,0,2026-04-06T04:05:30.749446+05:30
Dharamshala,Himachal Pradesh,32.219,76.3234,15.3,52,0.0,867.3,7.45,23.8,41,14.9,7.5,0,5,7,0,2026-04-06T04:05:30.749453+05:30
Dalhousie,Himachal Pradesh,32.5387,75.971,11.0,57,0.0,800.3,6.9,20.9,59,28.6,20.4,0,5,7,0,2026-04-06T04:05:30.749462+05:30
Patiala,Punjab,30.3398,76.3869,17.1,81,0.0,979.1,6.8,20.9,119,55.5,43.0,3,10,7,0,2026-04-06T04:05:30.749470+05:30
Bhatinda,Punjab,30.211,74.9455,18.7,74,0.0,984.6,7.45,23.8,94,57.9,54.1,3,5,7,0,2026-04-06T04:05:30.749477+05:30
Rohtak,Haryana,28.8955,76.6066,17.7,77,0.0,982.6,6.95,29.5,308,555.1,104.3,3,5,7,0,2026-04-06T04:05:30.749485+05:30
Panipat,Haryana,29.3909,76.9635,16.9,83,0.0,981.1,6.75,22.7,466,440.5,92.7,3,10,7,0,2026-04-06T04:05:30.749493+05:30
Mathura,Uttar Pradesh,27.4924,77.6737,19.9,76,0.0,987.6,7.2,26.6,230,836.3,129.0,3,5,7,0,2026-04-06T04:05:30.749501+05:30
Vrindavan,Uttar Pradesh,27.5823,77.7027,18.9,79,0.0,988.0,7.2,26.6,230,836.3,129.0,3,5,7,0,2026-04-06T04:05:30.749508+05:30
Ayodhya,Uttar Pradesh,26.7922,82.1998,21.2,70,0.0,995.4,7.35,32.4,77,72.6,36.6,3,5,7,0,2026-04-06T04:05:30.749515+05:30
Ratlam,Madhya Pradesh,23.3315,75.0367,23.7,49,0.0,954.7,8.2,31.3,49,8.1,5.9,0,5,7,0,2026-04-06T04:05:30.749523+05:30
Sagar,Madhya Pradesh,23.8388,78.7378,23.3,52,0.0,949.5,8.3,21.2,47,22.6,9.6,0,5,7,0,2026-04-06T04:05:30.749530+05:30
Satna,Madhya Pradesh,24.6005,80.8322,24.2,69,0.0,971.3,8.0,25.2,56,70.1,20.1,3,5,7,1,2026-04-06T04:05:30.749538+05:30
Akola,Maharashtra,20.7002,77.0082,23.6,59,0.0,975.0,8.65,29.2,57,20.8,14.9,0,5,7,0,2026-04-06T04:05:30.749546+05:30
Amravati,Maharashtra,20.9374,77.7796,23.7,59,0.0,966.8,8.7,27.0,56,19.8,13.9,0,5,7,0,2026-04-06T04:05:30.749554+05:30
Latur,Maharashtra,18.4088,76.5604,22.3,64,0.0,939.3,9.0,29.9,66,24.7,18.9,3,5,7,0,2026-04-06T04:05:30.749561+05:30
Nanded,Maharashtra,19.1383,77.3091,23.9,65,0.0,968.3,8.85,24.8,71,20.3,16.4,3,5,7,1,2026-04-06T04:05:30.749568+05:30
Gulbarga,Karnataka,17.3297,76.8343,26.7,48,0.0,958.2,9.05,32.0,65,9.9,8.9,4,5,7,0,2026-04-06T04:05:30.749575+05:30
Bidar,Karnataka,17.9104,77.5199,25.7,48,0.0,934.8,9.05,28.4,92,50.8,37.5,4,5,7,0,2026-04-06T04:05:30.749583+05:30
Hospet,Karnataka,15.2689,76.3909,25.6,66,0.0,955.5,9.25,31.3,56,15.3,11.9,7,5,7,1,2026-04-06T04:05:30.749590+05:30
Tirupur,Tamil Nadu,11.1085,77.3411,25.9,85,0.0,974.8,9.55,40.0,77,30.3,27.6,7,5,7,1,2026-04-06T04:05:30.749597+05:30
Alappuzha,Kerala,9.4981,76.3388,28.6,82,0.0,1008.7,5.6,34.2,61,27.8,20.1,7,0,0,1,2026-04-06T04:05:30.749605+05:30
Munnar,Kerala,10.0889,77.0595,20.2,94,0.0,856.2,7.5,34.9,65,20.8,18.5,3,5,7,1,2026-04-06T04:05:30.749612+05:30
Silchar,Assam,24.8333,92.7789,22.2,97,0.0,1005.3,8.5,20.5,155,80.3,67.1,3,5,4,1,2026-04-06T04:05:30.749620+05:30
Dibrugarh,Assam,27.4728,94.912,21.4,92,0.0,994.4,8.3,38.2,115,52.3,38.9,3,5,7,1,2026-04-06T04:05:30.749627+05:30
