city,state,latitude,longitude,temp,humidity,rain,pressure,uv_index,wind_gusts,aqi,pm10,pm2_5,no2,co,o3,so2,mosquito_risk,arthritis_risk,migraine_risk,frizz_risk,updated_at
Delhi,Delhi,28.6139,77.209,33.9,22,0.0,977.1,7.75,36.7,490,713.4,158.8,29.2,478.0,63.0,15.8,0,5,7,0,2026-05-27T02:25:29.112960+05:30
Mumbai,Maharashtra,19.076,72.8777,30.4,72,0.0,1008.6,7.8,40.0,42,13.3,9.0,5.9,193.0,43.0,4.1,3,0,4,1,2026-05-27T02:25:29.113002+05:30
Bangalore,Karnataka,12.9716,77.5946,22.0,90,0.0,911.3,9.25,30.6,83,34.7,31.7,34.6,516.0,45.0,8.5,3,5,7,1,2026-05-27T02:25:29.113017+05:30
Hyderabad,Telangana,17.385,78.4867,30.0,54,0.0,952.0,8.85,40.3,102,35.6,29.2,28.7,324.0,61.0,11.3,4,5,7,1,2026-05-27T02:25:29.113027+05:30
Chennai,Tamil Nadu,13.0827,80.2707,30.4,54,0.0,1004.5,8.55,36.0,83,26.1,22.5,16.6,221.0,66.0,12.4,0,5,4,1,2026-05-27T02:25:29.113035+05:30
Kolkata,West Bengal,22.5726,88.3639,29.2,87,0.0,1002.4,8.9,38.9,120,44.7,37.8,5.2,260.0,90.0,5.2,7,5,4,1,2026-05-27T02:25:29.113044+05:30
Pune,Maharashtra,18.5204,73.8567,24.7,89,0.0,948.4,8.4,41.0,39,10.8,8.4,11.3,158.0,39.0,10.7,3,5,7,1,2026-05-27T02:25:29.113050+05:30
Ahmedabad,Gujarat,23.0225,72.5714,31.2,59,0.0,1000.4,8.15,36.0,82,37.3,18.8,4.5,155.0,58.0,4.1,0,5,4,1,2026-05-27T02:25:29.113057+05:30
Jaipur,Rajasthan,26.9124,75.7873,33.5,29,0.0,955.5,8.25,48.2,160,373.5,73.6,5.8,173.0,78.0,4.7,0,5,7,0,2026-05-27T02:25:29.113069+05:30
Lucknow,Uttar Pradesh,26.8467,80.9462,30.3,38,0.0,987.6,8.2,29.9,172,431.2,103.1,29.1,413.0,63.0,11.9,0,5,7,0,2026-05-27T02:25:29.113076+05:30
Kanpur,Uttar Pradesh,26.4499,80.3319,32.7,26,0.0,985.8,8.2,36.0,452,653.8,126.7,19.5,473.0,73.0,9.5,0,5,7,0,2026-05-27T02:25:29.113082+05:30
Chandigarh,Chandigarh,30.7333,76.7794,28.5,23,0.0,962.1,7.8,41.0,60,24.7,20.7,23.7,366.0,60.0,7.4,4,5,7,0,2026-05-27T02:25:29.113089+05:30
Srinagar,Jammu and Kashmir,34.0837,74.7973,10.9,92,0.0,839.8,9.0,23.0,70,50.1,44.6,32.3,516.0,43.0,3.7,3,10,7,0,2026-05-27T02:25:29.113096+05:30
Jammu,Jammu and Kashmir,32.7266,74.857,26.0,34,0.0,967.0,8.6,48.6,65,27.9,24.2,32.8,496.0,24.0,3.2,4,5,7,0,2026-05-27T02:25:29.113104+05:30
Amritsar,Punjab,31.634,74.8723,28.7,32,0.0,975.5,8.45,31.3,86,74.3,67.3,64.0,529.0,18.0,12.2,4,5,7,0,2026-05-27T02:25:29.113110+05:30
Ludhiana,Punjab,30.901,75.8573,29.7,26,0.0,973.0,8.05,38.9,67,35.4,32.5,24.9,527.0,54.0,7.3,4,5,7,0,2026-05-27T02:25:29.113116+05:30
Jalandhar,Punjab,31.326,75.5762,28.8,27,0.0,974.1,8.25,36.4,78,56.1,46.1,37.7,457.0,50.0,8.7,4,5,7,0,2026-05-27T02:25:29.113123+05:30
Dehradun,Uttarakhand,30.6284,78.0322,13.7,52,0.0,824.3,8.2,41.8,54,20.2,14.3,30.7,180.0,34.0,0.8,0,5,7,0,2026-05-27T02:25:29.113129+05:30
Shimla,Himachal Pradesh,31.1048,77.1734,13.7,35,0.0,780.2,8.3,54.7,68,25.6,14.6,19.4,179.0,89.0,1.9,0,5,7,1,2026-05-27T02:25:29.113142+05:30
Manali,Himachal Pradesh,32.2396,77.1887,10.2,45,0.0,812.8,9.65,50.0,62,16.1,13.1,47.5,231.0,82.0,0.1,0,5,7,1,2026-05-27T02:25:29.113148+05:30
Gurgaon,Haryana,28.4595,77.0266,30.7,32,0.0,975.4,7.85,36.4,969,601.6,130.4,49.8,502.0,44.0,25.2,0,5,7,0,2026-05-27T02:25:29.113154+05:30
Noida,Uttar Pradesh,28.5355,77.391,32.3,27,0.0,978.3,7.75,30.2,969,601.6,130.4,49.8,571.0,44.0,25.2,0,5,7,0,2026-05-27T02:25:29.113161+05:30
Ghaziabad,Uttar Pradesh,28.6692,77.4538,30.9,30,0.0,976.6,7.75,35.3,332,555.1,131.3,20.3,378.0,74.0,13.1,0,5,7,0,2026-05-27T02:25:29.113167+05:30
Faridabad,Haryana,28.4089,77.3178,33.5,21,0.0,977.7,7.8,38.5,969,601.6,130.4,49.8,824.0,44.0,25.2,0,5,7,0,2026-05-27T02:25:29.113174+05:30
Meerut,Uttar Pradesh,28.9845,77.7064,31.6,21,0.0,975.1,7.7,27.4,332,555.1,131.3,20.3,307.0,74.0,13.1,0,5,7,0,2026-05-27T02:25:29.113180+05:30
Agra,Uttar Pradesh,27.1767,78.0081,32.4,32,0.0,982.1,8.1,37.1,861,290.6,103.4,58.8,557.0,25.0,20.7,0,5,7,0,2026-05-27T02:25:29.113186+05:30
Varanasi,Uttar Pradesh,25.3176,82.9739,30.5,62,0.0,992.2,8.7,36.0,144,59.6,49.6,19.6,462.0,89.0,18.4,3,5,7,1,2026-05-27T02:25:29.113193+05:30
Prayagraj,Uttar Pradesh,25.4358,81.8463,31.1,47,0.0,990.4,8.55,52.6,151,126.7,62.6,35.1,513.0,62.0,15.7,0,5,7,1,2026-05-27T02:25:29.113199+05:30
Gorakhpur,Uttar Pradesh,26.7606,83.3732,25.0,77,0.0,993.7,8.55,37.4,110,55.4,36.6,14.4,352.0,89.0,6.7,7,5,7,1,2026-05-27T02:25:29.113227+05:30
Bareilly,Uttar Pradesh,28.367,79.4304,28.3,36,0.0,980.4,8.0,31.3,151,221.2,69.4,33.2,394.0,53.0,12.0,4,5,7,0,2026-05-27T02:25:29.113236+05:30
Aligarh,Uttar Pradesh,27.8974,78.088,30.6,31,0.0,979.6,7.9,33.8,675,447.0,118.5,51.5,483.0,25.0,14.2,0,5,7,0,2026-05-27T02:25:29.113243+05:30
Moradabad,Uttar Pradesh,28.8386,78.7733,29.9,24,0.0,977.2,7.85,33.1,157,272.9,80.1,24.0,353.0,59.0,9.5,4,5,7,0,2026-05-27T02:25:29.113250+05:30
Saharanpur,Uttar Pradesh,29.9637,77.546,30.1,19,0.0,968.9,7.5,35.3,90,30.5,18.6,13.5,230.0,82.0,8.4,0,5,7,0,2026-05-27T02:25:29.113256+05:30
Jhansi,Uttar Pradesh,25.4484,78.5685,32.7,27,0.0,973.3,8.45,52.6,85,65.4,36.7,16.3,214.0,44.0,5.2,0,5,7,0,2026-05-27T02:25:32.395930+05:30
Surat,Gujarat,21.1702,72.8311,29.3,80,0.0,1006.3,7.7,45.7,66,44.6,22.1,16.4,222.0,37.0,28.0,7,5,4,1,2026-05-27T02:25:32.395964+05:30
Vadodara,Gujarat,22.3072,73.1812,29.9,77,0.0,1003.0,8.05,40.7,70,32.7,19.3,16.3,217.0,32.0,18.0,7,5,4,1,2026-05-27T02:25:32.395976+05:30
Rajkot,Gujarat,22.3039,70.8022,28.1,78,0.0,993.2,7.75,47.5,69,40.0,18.7,5.0,119.0,44.0,5.5,7,5,7,1,2026-05-27T02:25:32.395986+05:30
Thane,Maharashtra,19.2183,72.9781,29.1,82,0.0,1008.0,7.85,38.2,42,13.3,9.0,5.9,350.0,43.0,4.1,7,0,4,1,2026-05-27T02:25:32.395996+05:30
Nagpur,Maharashtra,21.1458,79.0882,34.7,34,0.0,969.4,8.9,44.3,79,42.3,27.5,11.7,294.0,70.0,7.4,0,5,7,1,2026-05-27T02:25:32.396005+05:30
Nashik,Maharashtra,19.9975,73.7898,24.5,90,0.0,945.6,8.15,40.0,25,7.8,5.9,6.5,134.0,35.0,2.6,3,5,7,1,2026-05-27T02:25:32.396014+05:30
Aurangabad,Maharashtra,19.8762,75.3433,28.5,67,0.0,943.7,9.0,41.0,42,9.4,7.1,7.5,156.0,46.0,5.3,7,5,7,1,2026-05-27T02:25:32.396023+05:30
Solapur,Maharashtra,17.6599,75.9064,29.6,61,0.0,957.0,8.95,38.9,51,13.9,11.7,10.5,237.0,47.0,2.9,7,5,7,1,2026-05-27T02:25:32.396033+05:30
Kolhapur,Maharashtra,16.705,74.2433,24.5,91,0.0,948.5,8.8,41.8,30,8.1,6.5,6.4,150.0,39.0,2.6,3,5,7,1,2026-05-27T02:25:32.396041+05:30
Goa,Goa,15.2993,74.124,26.9,97,0.1,999.1,5.85,29.2,44,21.7,19.6,11.4,409.0,35.0,2.3,10,5,3,1,2026-05-27T02:25:32.396050+05:30
Jodhpur,Rajasthan,26.2389,73.0243,33.6,40,0.0,979.0,8.4,43.2,163,207.7,47.5,5.0,146.0,62.0,2.9,0,5,7,1,2026-05-27T02:25:32.396059+05:30
Udaipur,Rajasthan,24.5854,73.7125,29.9,53,0.0,944.5,8.85,43.2,90,45.6,21.8,3.6,148.0,72.0,2.9,4,5,7,1,2026-05-27T02:25:32.396068+05:30
Kota,Rajasthan,25.2138,75.8648,34.3,27,0.0,975.1,8.4,44.3,97,61.5,32.8,5.7,173.0,72.0,6.5,0,5,7,0,2026-05-27T02:25:32.396076+05:30
Bikaner,Rajasthan,28.0229,73.3119,32.0,27,0.0,976.8,8.4,41.8,155,204.9,67.5,3.4,138.0,63.0,2.3,0,5,7,0,2026-05-27T02:25:32.396085+05:30
Ajmer,Rajasthan,26.4499,74.6399,31.4,38,0.0,951.2,8.4,58.0,93,108.0,32.1,4.7,174.0,81.0,4.6,0,5,7,0,2026-05-27T02:25:32.396094+05:30
Gwalior,Madhya Pradesh,26.2183,78.1828,33.0,26,0.0,977.8,8.25,54.7,106,97.1,40.9,13.5,213.0,59.0,6.7,0,5,7,0,2026-05-27T02:25:32.396102+05:30
Indore,Madhya Pradesh,22.7196,75.8577,30.1,42,0.0,946.8,8.65,47.9,71,40.5,26.0,5.2,241.0,89.0,8.3,0,5,7,0,2026-05-27T02:25:32.396110+05:30
Bhopal,Madhya Pradesh,23.2599,77.4126,32.7,33,0.0,950.9,8.65,42.8,69,40.5,25.1,4.7,204.0,74.0,4.9,0,5,7,0,2026-05-27T02:25:32.396119+05:30
Jabalpur,Madhya Pradesh,23.1815,79.9864,31.5,28,0.0,957.2,8.85,40.0,80,65.9,35.6,20.6,271.0,51.0,5.6,0,5,7,0,2026-05-27T02:25:32.396127+05:30
Ujjain,Madhya Pradesh,23.1765,75.7885,30.7,40,0.0,952.3,8.6,49.3,74,41.0,26.2,4.6,238.0,84.0,9.2,0,5,7,0,2026-05-27T02:25:32.396136+05:30
Visakhapatnam,Andhra Pradesh,17.6868,83.2185,30.8,82,0.0,999.3,9.05,31.7,131,51.2,40.2,36.4,308.0,96.0,50.6,3,5,7,1,2026-05-27T02:25:32.396144+05:30
Vijayawada,Andhra Pradesh,16.5062,80.648,32.0,55,0.0,999.1,9.05,39.2,142,40.3,35.3,14.3,274.0,79.0,5.9,0,5,7,1,2026-05-27T02:25:32.396153+05:30
Guntur,Andhra Pradesh,16.3067,80.4365,31.5,55,0.0,1000.2,9.05,40.3,135,41.4,35.6,13.8,250.0,76.0,5.3,0,5,4,1,2026-05-27T02:25:32.396162+05:30
Nellore,Andhra Pradesh,14.4426,79.9865,30.4,58,0.0,1002.6,9.05,56.2,94,20.6,17.3,6.1,239.0,95.0,5.5,0,5,4,1,2026-05-27T02:25:32.396171+05:30
Kurnool,Andhra Pradesh,15.8281,78.0373,29.5,59,0.0,975.9,8.75,40.3,58,14.1,12.5,10.4,187.0,70.0,4.1,4,5,7,1,2026-05-27T02:25:32.396181+05:30
Kakinada,Andhra Pradesh,16.9891,82.2475,31.1,74,0.0,1003.6,9.0,40.3,110,39.9,30.5,5.6,280.0,129.0,4.7,3,5,4,1,2026-05-27T02:25:32.396190+05:30
Tirupati,Andhra Pradesh,13.6288,79.4192,28.5,59,0.0,988.5,9.05,27.7,81,24.7,21.7,17.4,198.0,55.0,3.1,4,5,7,1,2026-05-27T02:25:32.396198+05:30
Warangal,Telangana,17.9689,79.5941,32.1,45,0.0,976.0,9.05,43.6,117,69.4,51.9,23.4,326.0,45.0,5.0,0,5,7,1,2026-05-27T02:25:32.396206+05:30
Nizamabad,Telangana,18.6725,78.0941,28.1,65,0.0,963.6,9.0,35.6,93,63.6,39.5,17.5,315.0,60.0,6.4,7,5,7,1,2026-05-27T02:25:32.396239+05:30
Mysore,Karnataka,12.2958,76.6396,22.6,91,0.0,928.3,9.15,43.6,57,13.6,12.7,14.3,200.0,49.0,3.1,3,5,7,1,2026-05-27T02:25:32.396247+05:30
Mangalore,Karnataka,12.9141,74.856,25.9,97,0.0,1007.8,7.4,28.8,59,15.7,13.1,11.3,361.0,38.0,3.9,7,5,4,1,2026-05-27T02:25:32.396254+05:30
Hubli-Dharwad,Karnataka,15.3647,75.124,24.1,96,0.0,941.5,7.55,39.6,27,5.1,4.3,4.8,164.0,45.0,1.2,3,5,7,1,2026-05-27T02:25:32.396261+05:30
Belgaum,Karnataka,15.8497,74.4977,23.7,94,0.0,926.6,9.0,37.4,25,7.5,6.0,5.3,136.0,43.0,1.5,3,5,7,1,2026-05-27T02:25:35.669830+05:30
Coimbatore,Tamil Nadu,11.0168,76.9558,24.9,87,0.0,961.5,8.4,53.3,43,7.6,6.4,6.1,169.0,55.0,3.5,3,5,7,1,2026-05-27T02:25:35.669858+05:30
Madurai,Tamil Nadu,9.9252,78.1198,28.1,71,0.0,992.3,8.55,26.6,101,50.1,44.5,37.6,242.0,17.0,6.9,7,5,7,1,2026-05-27T02:25:35.669870+05:30
Trichy,Tamil Nadu,10.7905,78.7047,29.1,66,0.0,998.7,8.3,42.8,62,24.2,21.7,18.5,236.0,47.0,5.2,7,5,7,1,2026-05-27T02:25:35.669879+05:30
Salem,Tamil Nadu,11.6643,78.146,28.5,67,0.0,977.1,8.4,35.3,76,27.8,23.8,24.2,273.0,45.0,8.3,7,5,7,1,2026-05-27T02:25:35.669887+05:30
Tirunelveli,Tamil Nadu,8.7139,77.7567,29.3,65,0.0,1003.1,8.85,29.9,30,9.5,8.0,8.6,177.0,40.0,2.3,7,5,4,1,2026-05-27T02:25:35.669895+05:30
Vellore,Tamil Nadu,12.9165,79.1325,27.6,64,0.0,982.7,8.55,36.0,97,33.8,31.3,18.6,254.0,48.0,5.2,7,5,7,1,2026-05-27T02:25:35.669902+05:30
Erode,Tamil Nadu,11.341,77.7172,28.1,73,0.0,988.7,8.95,46.1,57,13.9,12.8,18.3,213.0,39.0,4.6,7,5,7,1,2026-05-27T02:25:35.669910+05:30
Kochi,Kerala,9.9312,76.2673,25.9,98,0.0,1009.9,7.95,29.5,57,22.1,20.5,25.1,270.0,13.0,6.0,7,0,4,1,2026-05-27T02:25:35.669917+05:30
Thiruvananthapuram,Kerala,8.5241,76.9366,24.2,98,0.0,1009.5,7.8,34.2,29,7.4,4.3,2.1,345.0,55.0,0.7,3,0,4,1,2026-05-27T02:25:35.669924+05:30
Kozhikode,Kerala,11.2588,75.7804,25.5,100,0.0,1009.1,6.8,29.5,29,8.8,6.0,2.4,497.0,60.0,1.2,7,0,4,1,2026-05-27T02:25:35.669931+05:30
Thrissur,Kerala,10.5276,76.2144,25.2,96,0.0,1008.3,7.95,30.2,55,19.2,17.8,18.9,265.0,22.0,5.9,7,0,4,1,2026-05-27T02:25:35.669940+05:30
Kannur,Kerala,11.8745,75.3704,26.0,96,0.0,1008.2,8.15,31.0,64,19.7,17.8,19.5,219.0,24.0,3.8,7,0,4,1,2026-05-27T02:25:35.669947+05:30
Patna,Bihar,25.5941,85.1376,25.8,80,0.0,996.3,8.75,44.3,101,47.4,39.1,16.5,409.0,81.0,15.7,7,5,7,1,2026-05-27T02:25:35.669955+05:30
Gaya,Bihar,24.7914,85.0002,29.4,75,0.0,989.0,8.85,37.8,129,48.5,42.5,14.6,438.0,93.0,16.2,7,5,7,1,2026-05-27T02:25:35.669963+05:30
Muzaffarpur,Bihar,26.1209,85.3647,24.3,92,0.0,996.7,8.75,45.4,93,46.9,39.6,18.8,414.0,67.0,13.6,3,5,7,1,2026-05-27T02:25:35.669971+05:30
Bhagalpur,Bihar,25.2425,87.0117,23.2,95,0.4,998.3,8.7,42.5,91,57.2,42.0,9.2,422.0,105.0,9.6,6,5,7,1,2026-05-27T02:25:35.669979+05:30
Ranchi,Jharkhand,23.3441,85.3096,25.2,94,0.0,933.9,9.0,45.7,98,72.4,37.4,15.4,328.0,77.0,9.6,7,5,7,1,2026-05-27T02:25:35.669987+05:30
Jamshedpur,Jharkhand,22.8046,86.2029,29.0,92,0.0,986.7,9.0,54.4,154,92.9,69.8,24.7,625.0,74.0,22.5,7,5,7,1,2026-05-27T02:25:35.669994+05:30
Dhanbad,Jharkhand,23.7957,86.4304,29.0,87,0.0,975.8,8.85,38.5,163,105.7,92.4,57.2,313.0,40.0,149.4,7,5,7,1,2026-05-27T02:25:35.670001+05:30
Bokaro,Jharkhand,23.6693,86.1511,28.6,91,0.0,979.4,8.85,39.6,156,129.9,98.7,60.1,1714.0,18.0,118.3,7,5,7,1,2026-05-27T02:25:35.670008+05:30
Bhubaneswar,Odisha,20.2961,85.8245,29.4,92,0.0,998.8,9.05,41.0,117,27.0,21.2,4.3,189.0,83.0,4.7,7,5,7,1,2026-05-27T02:25:35.670015+05:30
Cuttack,Odisha,20.4625,85.8828,29.5,92,0.0,1000.5,9.1,54.4,117,27.0,21.2,4.3,206.0,83.0,4.7,7,5,4,1,2026-05-27T02:25:35.670023+05:30
Rourkela,Odisha,22.2604,84.8536,29.6,73,0.0,980.9,8.95,49.3,152,100.8,67.8,33.8,278.0,60.0,16.9,7,5,7,1,2026-05-27T02:25:35.670030+05:30
Raipur,Chhattisgarh,21.2514,81.6296,33.5,30,0.0,970.4,8.95,39.2,115,52.7,37.8,30.1,415.0,64.0,47.3,0,5,7,0,2026-05-27T02:25:35.670037+05:30
Bhilai,Chhattisgarh,21.1938,81.3509,32.5,34,0.0,971.1,8.95,42.8,106,51.1,36.0,22.4,593.0,71.0,35.2,0,5,7,0,2026-05-27T02:25:35.670044+05:30
Guwahati,Assam,26.1158,91.7086,23.4,98,0.0,1001.0,8.7,22.7,60,22.1,13.7,6.7,388.0,70.0,2.5,3,5,4,1,2026-05-27T02:25:35.670052+05:30
Agartala,Tripura,23.8315,91.2868,23.5,93,0.0,1005.1,8.45,42.1,81,25.9,18.5,10.9,224.0,51.0,1.9,3,5,4,1,2026-05-27T02:25:35.670059+05:30
Shillong,Meghalaya,25.5788,91.8933,16.5,96,0.2,855.5,8.45,36.7,39,2.9,1.8,4.7,200.0,80.0,2.1,6,10,7,0,2026-05-27T02:25:35.670066+05:30
Imphal,Manipur,24.817,93.9368,18.9,96,0.0,922.0,9.25,32.8,80,40.6,25.5,14.1,395.0,56.0,3.1,3,10,7,1,2026-05-27T02:25:35.670074+05:30
Aizawl,Mizoram,23.7271,92.7176,15.3,93,0.0,890.5,9.05,33.8,69,40.5,23.8,3.7,166.0,62.0,1.5,3,10,7,0,2026-05-27T02:25:35.670081+05:30
Kohima,Nagaland,25.6701,94.1077,15.4,80,0.0,853.1,9.25,31.7,48,23.7,12.2,4.9,222.0,69.0,1.4,3,5,7,0,2026-05-27T02:25:35.670088+05:30
Gangtok,Sikkim,27.3314,88.6138,14.3,94,0.1,835.5,9.15,37.1,79,23.4,8.9,4.9,512.0,125.0,2.3,6,10,7,0,2026-05-27T02:25:35.670095+05:30
Siliguri,West Bengal,26.7271,88.3953,21.6,94,0.0,992.1,8.65,28.8,85,31.8,21.7,15.8,365.0,82.0,3.5,3,5,7,1,2026-05-27T02:25:38.948658+05:30
Durgapur,West Bengal,23.5204,87.3119,28.9,91,0.0,990.7,8.9,36.4,158,51.2,47.1,22.4,351.0,56.0,31.6,7,5,7,1,2026-05-27T02:25:38.948690+05:30
Asansol,West Bengal,23.6739,86.9524,29.0,91,0.0,989.2,8.95,33.5,161,56.1,51.7,23.8,657.0,62.0,31.7,7,5,7,1,2026-05-27T02:25:38.948702+05:30
Pondicherry,Puducherry,11.9139,79.8145,28.9,83,0.0,1006.2,6.3,43.9,77,10.9,8.9,12.1,200.0,50.0,9.2,7,5,4,1,2026-05-27T02:25:38.948711+05:30
Port Blair,Andaman and Nicobar Islands,11.6234,92.7265,26.1,90,0.0,1005.9,8.15,39.2,30,14.6,8.4,0.2,103.0,66.0,0.4,7,5,4,1,2026-05-27T02:25:38.948719+05:30
Haridwar,Uttarakhand,29.9457,78.1642,24.5,36,0.0,966.5,7.55,39.2,78,13.9,13.0,12.3,245.0,89.0,7.6,0,5,7,0,2026-05-27T02:25:38.948727+05:30
Rishikesh,Uttarakhand,30.0869,78.2676,21.8,45,0.0,959.4,7.65,36.7,101,17.8,15.1,14.3,286.0,98.0,6.1,0,5,7,0,2026-05-27T02:25:38.948735+05:30
Nainital,Uttarakhand,29.3919,79.4542,15.5,34,0.0,801.3,8.5,32.8,101,74.7,23.6,15.8,247.0,99.0,5.2,0,5,7,1,2026-05-27T02:25:38.948743+05:30
Mussoorie,Uttarakhand,30.4599,78.0664,17.5,32,0.0,799.9,8.1,52.6,72,22.5,18.6,29.6,155.0,58.0,5.3,0,5,7,0,2026-05-27T02:25:38.948750+05:30
Dharamshala,Himachal Pradesh,32.219,76.3234,22.4,34,0.0,865.8,8.5,46.8,42,13.6,10.9,13.2,195.0,45.0,0.2,0,5,7,0,2026-05-27T02:25:38.948757+05:30
Dalhousie,Himachal Pradesh,32.5387,75.971,11.0,64,0.0,798.3,8.7,42.8,54,26.2,23.1,47.4,333.0,9.0,1.6,3,5,7,0,2026-05-27T02:25:38.948765+05:30
Patiala,Punjab,30.3398,76.3869,29.5,24,0.0,972.2,7.7,40.7,446,323.2,61.0,15.8,308.0,67.0,6.8,4,5,7,0,2026-05-27T02:25:38.948772+05:30
Bhatinda,Punjab,30.211,74.9455,30.6,33,0.0,978.7,8.35,29.9,78,39.7,34.2,23.4,354.0,80.0,10.4,0,5,7,0,2026-05-27T02:25:38.948780+05:30
Rohtak,Haryana,28.8955,76.6066,29.6,33,0.0,975.8,7.8,33.5,624,922.0,177.9,29.1,372.0,62.0,9.9,4,5,7,0,2026-05-27T02:25:38.948787+05:30
Panipat,Haryana,29.3909,76.9635,30.8,22,0.0,974.2,7.6,37.8,1433,1363.5,233.3,16.1,286.0,74.0,6.5,0,5,7,0,2026-05-27T02:25:38.948794+05:30
Mathura,Uttar Pradesh,27.4924,77.6737,31.7,30,0.0,981.1,8.0,34.9,619,223.1,88.7,73.4,541.0,5.0,12.4,0,5,7,0,2026-05-27T02:25:38.948801+05:30
Vrindavan,Uttar Pradesh,27.5823,77.7027,30.6,35,0.0,981.3,8.0,33.5,619,223.1,88.7,73.4,463.0,5.0,12.4,0,5,7,0,2026-05-27T02:25:38.948808+05:30
Ayodhya,Uttar Pradesh,26.7922,82.1998,27.5,64,0.0,991.0,8.3,36.0,138,50.3,35.3,9.9,395.0,114.0,9.4,7,5,7,1,2026-05-27T02:25:38.948816+05:30
Ratlam,Madhya Pradesh,23.3315,75.0367,29.1,57,0.0,953.5,8.55,47.2,74,32.6,22.7,5.6,236.0,73.0,11.4,4,5,7,1,2026-05-27T02:25:38.948823+05:30
Sagar,Madhya Pradesh,23.8388,78.7378,33.0,22,0.0,947.1,8.7,46.1,83,58.0,31.9,15.1,193.0,49.0,4.2,0,5,7,0,2026-05-27T02:25:38.948830+05:30
Satna,Madhya Pradesh,24.6005,80.8322,31.3,28,0.0,966.4,8.75,53.3,79,112.9,33.6,24.1,241.0,70.0,4.5,0,5,7,0,2026-05-27T02:25:38.948837+05:30
Akola,Maharashtra,20.7002,77.0082,33.0,43,0.0,972.9,8.85,46.4,58,23.9,18.3,8.6,241.0,88.0,11.8,0,5,7,1,2026-05-27T02:25:38.948845+05:30
Amravati,Maharashtra,20.9374,77.7796,34.0,36,0.0,964.6,8.85,45.4,61,24.3,17.9,10.2,215.0,78.0,10.2,0,5,7,1,2026-05-27T02:25:38.948853+05:30
Latur,Maharashtra,18.4088,76.5604,27.9,64,0.1,939.3,9.0,37.8,73,16.2,13.7,8.6,191.0,81.0,5.7,10,5,7,1,2026-05-27T02:25:38.948860+05:30
Nanded,Maharashtra,19.1383,77.3091,28.6,64,0.0,966.8,8.95,37.8,77,40.5,26.8,11.1,233.0,74.0,5.3,7,5,7,1,2026-05-27T02:25:38.948868+05:30
Gulbarga,Karnataka,17.3297,76.8343,29.9,57,0.0,958.2,8.4,41.8,54,11.7,10.1,10.2,236.0,60.0,3.3,4,5,7,1,2026-05-27T02:25:38.948875+05:30
Bidar,Karnataka,17.9104,77.5199,28.6,54,0.0,934.8,8.85,46.8,94,41.6,34.1,22.5,215.0,58.0,4.9,4,5,7,1,2026-05-27T02:25:38.948882+05:30
Hospet,Karnataka,15.2689,76.3909,25.6,86,0.0,956.1,6.05,40.3,35,10.9,10.4,12.8,173.0,40.0,2.0,7,5,7,1,2026-05-27T02:25:38.948888+05:30
Tirupur,Tamil Nadu,11.1085,77.3411,25.9,85,0.0,974.8,8.2,57.2,58,17.1,15.7,21.4,167.0,35.0,5.3,7,5,7,1,2026-05-27T02:25:38.948895+05:30
Alappuzha,Kerala,9.4981,76.3388,25.9,98,0.0,1010.2,8.25,29.5,45,18.4,16.3,11.9,167.0,45.0,3.2,7,0,4,1,2026-05-27T02:25:38.948902+05:30
Munnar,Kerala,10.0889,77.0595,18.0,100,0.1,857.5,8.65,28.1,43,9.3,9.1,9.6,142.0,31.0,1.6,6,10,7,1,2026-05-27T02:25:38.948910+05:30
Silchar,Assam,24.8333,92.7789,23.4,99,0.0,1004.6,8.85,31.0,78,35.6,20.4,5.5,225.0,84.0,2.5,3,5,4,1,2026-05-27T02:25:38.948917+05:30
Dibrugarh,Assam,27.4728,94.912,23.0,96,0.0,994.7,7.0,27.7,81,19.8,15.3,15.3,201.0,33.0,1.1,3,5,7,1,2026-05-27T02:25:38.948924+05:30
