city,state,latitude,longitude,temp,humidity,rain,pressure,uv_index,wind_gusts,aqi,pm10,pm2_5,no2,co,o3,so2,mosquito_risk,arthritis_risk,migraine_risk,frizz_risk,updated_at
Delhi,Delhi,28.6139,77.209,34.2,42,0.0,976.7,7.8,40.3,201,211.4,78.7,38.7,1237.0,105.0,23.7,0,5,7,1,2026-06-04T21:03:09.818878+05:30
Mumbai,Maharashtra,19.076,72.8777,30.9,67,0.0,1005.3,7.7,40.0,61,31.0,13.3,8.5,191.0,47.0,6.7,3,5,4,1,2026-06-04T21:03:09.818933+05:30
Bangalore,Karnataka,12.9716,77.5946,22.5,94,0.0,910.8,9.1,44.6,33,11.8,10.7,29.6,813.0,33.0,6.8,3,5,7,1,2026-06-04T21:03:09.818950+05:30
Hyderabad,Telangana,17.385,78.4867,31.5,50,0.0,950.5,9.0,37.1,67,38.1,29.7,33.0,683.0,51.0,7.4,0,5,7,1,2026-06-04T21:03:09.818959+05:30
Chennai,Tamil Nadu,13.0827,80.2707,31.1,69,0.1,1004.5,8.65,41.8,91,24.3,18.7,10.8,345.0,101.0,7.6,6,5,4,1,2026-06-04T21:03:09.818968+05:30
Kolkata,West Bengal,22.5726,88.3639,28.6,91,0.0,1001.0,8.95,38.5,129,93.6,87.5,40.8,808.0,57.0,24.0,7,5,4,1,2026-06-04T21:03:09.818976+05:30
Pune,Maharashtra,18.5204,73.8567,25.8,78,0.0,945.8,8.35,52.6,57,8.3,5.8,7.9,163.0,59.0,6.1,7,5,7,1,2026-06-04T21:03:09.818984+05:30
Ahmedabad,Gujarat,23.0225,72.5714,34.0,56,0.0,996.0,8.05,36.7,81,34.5,21.8,12.7,179.0,65.0,7.1,0,5,7,1,2026-06-04T21:03:09.818991+05:30
Jaipur,Rajasthan,26.9124,75.7873,27.6,65,0.2,955.1,8.25,45.0,122,73.6,31.1,15.7,538.0,63.0,6.8,10,5,7,1,2026-06-04T21:03:09.819003+05:30
Lucknow,Uttar Pradesh,26.8467,80.9462,34.0,39,0.0,987.3,8.0,28.4,155,99.0,61.2,40.8,439.0,64.0,17.3,0,5,7,1,2026-06-04T21:03:09.819011+05:30
Kanpur,Uttar Pradesh,26.4499,80.3319,34.4,37,0.0,985.7,8.3,35.3,152,121.1,52.2,31.9,692.0,68.0,11.6,0,5,7,1,2026-06-04T21:03:09.819018+05:30
Chandigarh,Chandigarh,30.7333,76.7794,29.4,56,0.0,962.1,7.8,41.8,153,105.9,66.4,50.3,842.0,95.0,16.2,4,5,7,1,2026-06-04T21:03:09.819026+05:30
Srinagar,Jammu and Kashmir,34.0837,74.7973,16.3,85,0.0,839.7,9.05,34.9,80,35.7,29.6,33.1,393.0,57.0,4.9,3,10,7,0,2026-06-04T21:03:09.819034+05:30
Jammu,Jammu and Kashmir,32.7266,74.857,29.2,51,0.0,966.4,8.6,55.1,105,75.2,45.3,38.7,591.0,77.0,7.4,4,5,7,1,2026-06-04T21:03:09.819042+05:30
Amritsar,Punjab,31.634,74.8723,30.9,48,0.0,973.7,8.45,55.1,156,53.7,39.6,9.9,852.0,124.0,7.1,0,5,7,1,2026-06-04T21:03:09.819048+05:30
Ludhiana,Punjab,30.901,75.8573,31.5,45,0.0,971.9,8.05,40.0,154,59.4,41.2,11.3,683.0,120.0,8.2,0,5,7,1,2026-06-04T21:03:09.819055+05:30
Jalandhar,Punjab,31.326,75.5762,32.8,42,0.0,973.1,8.25,31.0,152,50.3,39.0,10.2,1156.0,121.0,6.6,0,5,7,1,2026-06-04T21:03:09.819062+05:30
Dehradun,Uttarakhand,30.6284,78.0322,15.8,96,0.0,826.4,7.7,28.1,115,36.8,19.2,12.4,223.0,106.0,1.8,3,10,7,0,2026-06-04T21:03:09.819069+05:30
Shimla,Himachal Pradesh,31.1048,77.1734,13.8,93,0.0,780.1,6.65,36.0,136,39.6,31.1,12.3,473.0,120.0,0.5,3,10,7,0,2026-06-04T21:03:09.819078+05:30
Manali,Himachal Pradesh,32.2396,77.1887,15.7,83,0.0,815.0,9.2,33.5,120,3.0,2.6,34.2,401.0,107.0,0.2,3,10,7,0,2026-06-04T21:03:09.819085+05:30
Gurgaon,Haryana,28.4595,77.0266,33.0,40,0.0,974.9,7.9,41.0,477,368.8,108.7,65.0,879.0,62.0,21.6,0,5,7,1,2026-06-04T21:03:09.819092+05:30
Noida,Uttar Pradesh,28.5355,77.391,30.3,62,0.0,978.0,7.85,36.4,477,368.8,108.7,65.0,2018.0,62.0,21.6,3,5,7,1,2026-06-04T21:03:09.819101+05:30
Ghaziabad,Uttar Pradesh,28.6692,77.4538,29.2,66,0.0,976.1,7.8,37.4,184,207.2,83.1,33.0,740.0,97.0,17.7,7,5,7,1,2026-06-04T21:03:09.819107+05:30
Faridabad,Haryana,28.4089,77.3178,33.5,42,0.0,977.3,7.85,42.8,477,368.8,108.7,65.0,1403.0,62.0,21.6,0,5,7,1,2026-06-04T21:03:09.819116+05:30
Meerut,Uttar Pradesh,28.9845,77.7064,29.8,64,0.0,975.1,7.7,42.1,184,207.2,83.1,33.0,476.0,97.0,17.7,7,5,7,1,2026-06-04T21:03:09.819123+05:30
Agra,Uttar Pradesh,27.1767,78.0081,33.3,44,0.0,981.2,8.15,29.5,219,170.0,70.8,52.2,881.0,54.0,16.8,0,5,7,1,2026-06-04T21:03:09.819129+05:30
Varanasi,Uttar Pradesh,25.3176,82.9739,35.2,38,0.0,991.5,8.45,36.0,139,87.8,60.8,37.1,899.0,77.0,17.6,0,5,10,1,2026-06-04T21:03:09.819137+05:30
Prayagraj,Uttar Pradesh,25.4358,81.8463,34.5,41,0.0,989.9,8.55,25.6,139,80.6,52.7,34.5,585.0,67.0,17.0,0,5,7,1,2026-06-04T21:03:09.819144+05:30
Gorakhpur,Uttar Pradesh,26.7606,83.3732,30.3,64,0.0,991.2,8.35,21.6,152,88.2,54.2,28.0,330.0,69.0,12.1,3,5,7,1,2026-06-04T21:03:09.819152+05:30
Bareilly,Uttar Pradesh,28.367,79.4304,30.8,56,0.0,980.3,8.15,47.2,150,104.1,55.8,27.9,499.0,88.0,13.4,0,5,7,1,2026-06-04T21:03:09.819159+05:30
Aligarh,Uttar Pradesh,27.8974,78.088,31.0,53,0.0,978.7,8.0,35.3,153,173.2,78.5,51.5,708.0,43.0,17.7,0,5,7,1,2026-06-04T21:03:09.819165+05:30
Moradabad,Uttar Pradesh,28.8386,78.7733,31.0,57,0.0,977.4,7.95,50.8,159,169.5,77.8,36.3,525.0,90.0,19.2,0,5,7,1,2026-06-04T21:03:09.819172+05:30
Saharanpur,Uttar Pradesh,29.9637,77.546,29.5,58,0.0,969.4,7.5,39.6,138,151.3,72.2,38.5,442.0,89.0,18.0,4,5,7,1,2026-06-04T21:03:09.819178+05:30
Jhansi,Uttar Pradesh,25.4484,78.5685,31.4,47,0.0,971.9,8.5,30.2,84,56.2,27.6,10.0,171.0,71.0,5.6,0,5,7,1,2026-06-04T21:03:13.432324+05:30
Surat,Gujarat,21.1702,72.8311,30.0,80,0.0,1002.4,7.6,47.9,75,43.8,24.4,22.0,198.0,34.0,36.8,7,5,4,1,2026-06-04T21:03:13.432355+05:30
Vadodara,Gujarat,22.3072,73.1812,31.4,66,0.0,999.1,8.0,42.8,82,40.5,23.3,13.3,157.0,52.0,16.3,3,5,7,1,2026-06-04T21:03:13.432365+05:30
Rajkot,Gujarat,22.3039,70.8022,31.7,61,0.0,988.7,7.55,47.2,67,38.5,18.8,2.9,118.0,58.0,2.5,3,5,7,1,2026-06-04T21:03:13.432374+05:30
Thane,Maharashtra,19.2183,72.9781,30.5,70,0.0,1004.7,7.7,37.1,61,31.0,13.3,8.5,196.0,47.0,6.7,3,5,4,1,2026-06-04T21:03:13.432381+05:30
Nagpur,Maharashtra,21.1458,79.0882,36.6,29,0.0,968.4,8.9,38.9,97,64.7,36.4,18.1,246.0,75.0,14.3,0,5,10,0,2026-06-04T21:03:13.432390+05:30
Nashik,Maharashtra,19.9975,73.7898,26.9,76,0.0,942.7,8.1,38.2,64,26.0,13.7,4.4,145.0,67.0,2.9,7,5,7,1,2026-06-04T21:03:13.432398+05:30
Aurangabad,Maharashtra,19.8762,75.3433,30.6,48,0.0,941.0,9.0,49.0,74,41.0,23.9,8.9,177.0,96.0,6.0,0,5,7,1,2026-06-04T21:03:13.432406+05:30
Solapur,Maharashtra,17.6599,75.9064,27.4,70,0.0,954.6,9.0,46.4,62,22.1,14.0,6.5,166.0,84.0,2.5,7,5,7,1,2026-06-04T21:03:13.432414+05:30
Kolhapur,Maharashtra,16.705,74.2433,24.2,92,0.0,945.7,8.8,52.2,47,10.9,9.4,10.2,182.0,47.0,3.1,3,5,7,1,2026-06-04T21:03:13.432421+05:30
Goa,Goa,15.2993,74.124,25.8,93,0.0,996.6,8.4,35.6,36,10.9,6.9,3.5,286.0,55.0,0.8,7,5,7,1,2026-06-04T21:03:13.432429+05:30
Jodhpur,Rajasthan,26.2389,73.0243,31.0,55,0.0,976.0,8.45,51.1,125,224.4,54.0,6.1,227.0,70.0,2.4,0,5,7,1,2026-06-04T21:03:13.432437+05:30
Udaipur,Rajasthan,24.5854,73.7125,29.8,57,0.0,942.2,8.8,43.2,80,37.3,22.2,4.9,177.0,91.0,5.6,4,5,7,1,2026-06-04T21:03:13.432444+05:30
Kota,Rajasthan,25.2138,75.8648,32.2,50,0.0,973.5,8.4,49.0,86,35.9,21.6,5.5,295.0,85.0,4.9,0,5,7,1,2026-06-04T21:03:13.432477+05:30
Bikaner,Rajasthan,28.0229,73.3119,32.7,36,0.0,974.5,8.4,63.7,116,221.7,67.3,2.3,152.0,78.0,3.3,0,5,7,0,2026-06-04T21:03:13.432486+05:30
Ajmer,Rajasthan,26.4499,74.6399,29.0,54,0.0,949.4,8.35,46.8,79,36.1,21.1,6.7,190.0,75.0,3.9,4,5,7,1,2026-06-04T21:03:13.432493+05:30
Gwalior,Madhya Pradesh,26.2183,78.1828,32.4,42,0.0,977.2,8.3,33.1,94,59.1,28.2,5.6,186.0,85.0,4.0,0,5,7,1,2026-06-04T21:03:13.432501+05:30
Indore,Madhya Pradesh,22.7196,75.8577,28.5,69,0.0,944.5,8.65,54.7,87,40.9,29.6,15.9,270.0,63.0,7.2,7,5,7,1,2026-06-04T21:03:13.432508+05:30
Bhopal,Madhya Pradesh,23.2599,77.4126,29.0,58,0.0,950.0,8.7,37.8,86,43.0,26.7,8.1,209.0,78.0,5.3,4,5,7,1,2026-06-04T21:03:13.432515+05:30
Jabalpur,Madhya Pradesh,23.1815,79.9864,31.0,51,0.0,956.4,8.85,28.8,85,76.6,39.1,22.4,392.0,81.0,8.0,0,5,7,1,2026-06-04T21:03:13.432523+05:30
Ujjain,Madhya Pradesh,23.1765,75.7885,29.4,63,0.0,950.1,8.6,43.9,85,39.2,25.8,4.2,246.0,86.0,5.2,7,5,7,1,2026-06-04T21:03:13.432531+05:30
Visakhapatnam,Andhra Pradesh,17.6868,83.2185,32.9,65,0.0,998.6,9.05,41.0,143,48.3,42.5,37.6,457.0,111.0,52.7,3,5,7,1,2026-06-04T21:03:13.432538+05:30
Vijayawada,Andhra Pradesh,16.5062,80.648,32.2,59,0.0,998.5,9.05,46.1,89,42.0,38.9,21.6,307.0,67.0,8.2,0,5,7,1,2026-06-04T21:03:13.432547+05:30
Guntur,Andhra Pradesh,16.3067,80.4365,31.6,68,0.0,999.8,9.05,39.6,83,30.9,28.1,17.2,369.0,71.0,6.7,3,5,7,1,2026-06-04T21:03:13.432554+05:30
Nellore,Andhra Pradesh,14.4426,79.9865,31.5,67,0.0,1002.5,9.0,40.0,81,23.2,18.7,6.2,210.0,119.0,4.4,3,5,4,1,2026-06-04T21:03:13.432562+05:30
Kurnool,Andhra Pradesh,15.8281,78.0373,27.9,72,0.0,974.8,8.9,33.8,58,27.5,19.1,13.1,187.0,78.0,6.2,7,5,7,1,2026-06-04T21:03:13.432570+05:30
Kakinada,Andhra Pradesh,16.9891,82.2475,31.8,65,0.0,1002.7,9.05,52.2,139,33.9,28.1,7.9,495.0,129.0,5.9,3,5,4,1,2026-06-04T21:03:13.432577+05:30
Tirupati,Andhra Pradesh,13.6288,79.4192,29.6,70,0.0,988.6,8.45,31.7,47,29.3,25.5,38.5,361.0,33.0,4.8,7,5,7,1,2026-06-04T21:03:13.432584+05:30
Warangal,Telangana,17.9689,79.5941,30.6,62,0.0,974.6,9.05,38.9,75,41.0,32.5,16.0,618.0,70.0,5.6,3,5,7,1,2026-06-04T21:03:13.432591+05:30
Nizamabad,Telangana,18.6725,78.0941,31.1,54,0.0,961.1,8.9,38.9,74,54.9,38.1,18.6,350.0,72.0,6.6,0,5,7,1,2026-06-04T21:03:13.432598+05:30
Mysore,Karnataka,12.2958,76.6396,23.3,84,0.0,928.1,8.2,50.0,32,5.2,4.4,8.7,158.0,45.0,2.0,3,5,7,1,2026-06-04T21:03:13.432605+05:30
Mangalore,Karnataka,12.9141,74.856,25.5,94,0.1,1006.9,8.45,37.1,30,14.5,10.5,10.1,194.0,36.0,2.7,10,5,4,1,2026-06-04T21:03:13.432612+05:30
Hubli-Dharwad,Karnataka,15.3647,75.124,23.4,91,0.0,939.5,8.85,45.4,29,3.4,2.8,6.5,134.0,45.0,1.1,3,5,7,1,2026-06-04T21:03:13.432619+05:30
Belgaum,Karnataka,15.8497,74.4977,22.5,93,0.0,924.0,8.95,47.2,32,4.6,3.8,6.7,143.0,47.0,1.8,3,5,7,1,2026-06-04T21:03:16.805667+05:30
Coimbatore,Tamil Nadu,11.0168,76.9558,24.0,91,0.0,961.4,8.5,53.6,30,4.0,3.5,7.2,195.0,42.0,2.5,3,5,7,1,2026-06-04T21:03:16.805699+05:30
Madurai,Tamil Nadu,9.9252,78.1198,28.4,74,0.0,992.4,8.2,48.2,41,14.7,13.6,28.0,154.0,30.0,6.4,7,5,7,1,2026-06-04T21:03:16.805710+05:30
Trichy,Tamil Nadu,10.7905,78.7047,29.9,69,0.0,999.0,8.25,49.7,38,10.3,8.9,13.5,266.0,50.0,4.0,7,5,7,1,2026-06-04T21:03:16.805720+05:30
Salem,Tamil Nadu,11.6643,78.146,26.8,84,0.0,976.7,8.1,38.2,46,12.3,10.3,16.1,277.0,52.0,5.3,7,5,7,1,2026-06-04T21:03:16.805730+05:30
Tirunelveli,Tamil Nadu,8.7139,77.7567,28.8,71,0.0,1003.3,8.15,41.8,24,5.1,4.3,7.2,170.0,37.0,1.3,7,5,4,1,2026-06-04T21:03:16.805739+05:30
Vellore,Tamil Nadu,12.9165,79.1325,30.8,59,0.0,982.4,8.2,47.2,52,14.0,10.7,9.1,236.0,71.0,2.9,0,5,7,1,2026-06-04T21:03:16.805748+05:30
Erode,Tamil Nadu,11.341,77.7172,26.7,78,0.0,988.3,8.6,49.3,37,6.8,6.0,11.5,174.0,43.0,3.1,7,5,7,1,2026-06-04T21:03:16.805756+05:30
Kochi,Kerala,9.9312,76.2673,25.8,93,0.2,1010.4,8.1,38.5,35,14.4,10.8,14.8,122.0,30.0,3.4,10,0,4,1,2026-06-04T21:03:16.805764+05:30
Thiruvananthapuram,Kerala,8.5241,76.9366,24.8,96,0.3,1009.8,7.35,42.8,25,12.0,6.0,1.7,101.0,52.0,0.4,6,0,4,1,2026-06-04T21:03:16.805772+05:30
Kozhikode,Kerala,11.2588,75.7804,25.0,96,0.3,1009.4,8.6,36.0,27,12.2,5.7,1.9,173.0,56.0,0.7,10,0,4,1,2026-06-04T21:03:16.805780+05:30
Thrissur,Kerala,10.5276,76.2144,25.0,98,0.3,1008.8,8.6,30.2,37,13.7,10.7,11.8,211.0,33.0,2.8,10,0,4,1,2026-06-04T21:03:16.805788+05:30
Kannur,Kerala,11.8745,75.3704,25.3,95,0.1,1007.9,8.65,36.0,24,17.0,12.6,18.7,182.0,26.0,3.0,10,5,4,1,2026-06-04T21:03:16.805796+05:30
Patna,Bihar,25.5941,85.1376,32.1,65,0.0,994.5,8.85,19.4,162,90.8,76.4,52.7,776.0,54.0,21.7,3,5,7,1,2026-06-04T21:03:16.805804+05:30
Gaya,Bihar,24.7914,85.0002,32.1,55,0.0,988.3,8.65,29.9,152,91.7,75.7,38.3,862.0,82.0,19.7,0,5,7,1,2026-06-04T21:03:16.805812+05:30
Muzaffarpur,Bihar,26.1209,85.3647,30.5,66,0.0,994.4,8.65,23.4,166,105.5,89.4,53.5,772.0,63.0,21.9,3,5,7,1,2026-06-04T21:03:16.805819+05:30
Bhagalpur,Bihar,25.2425,87.0117,32.1,63,0.0,995.3,8.75,41.0,165,78.0,68.9,15.5,565.0,135.0,16.6,3,5,7,1,2026-06-04T21:03:16.805827+05:30
Ranchi,Jharkhand,23.3441,85.3096,26.2,74,0.0,933.7,9.05,27.0,136,49.9,41.4,13.8,355.0,98.0,7.8,7,5,7,1,2026-06-04T21:03:16.805834+05:30
Jamshedpur,Jharkhand,22.8046,86.2029,30.1,71,0.1,986.0,9.1,30.2,176,80.1,68.5,29.3,795.0,98.0,17.9,6,5,7,1,2026-06-04T21:03:16.805842+05:30
Dhanbad,Jharkhand,23.7957,86.4304,30.8,59,0.0,975.1,8.9,31.7,167,136.0,121.5,81.0,1200.0,52.0,235.5,0,5,7,1,2026-06-04T21:03:16.805850+05:30
Bokaro,Jharkhand,23.6693,86.1511,28.2,76,0.0,978.9,8.9,38.5,155,123.9,109.2,65.5,1153.0,62.0,195.5,7,5,7,1,2026-06-04T21:03:16.805858+05:30
Bhubaneswar,Odisha,20.2961,85.8245,30.5,89,0.0,997.4,9.05,34.6,122,45.9,40.6,16.8,821.0,95.0,8.4,3,5,7,1,2026-06-04T21:03:16.805865+05:30
Cuttack,Odisha,20.4625,85.8828,30.3,84,0.0,999.2,9.15,38.9,122,45.9,40.6,16.8,595.0,95.0,8.4,3,5,7,1,2026-06-04T21:03:16.805873+05:30
Rourkela,Odisha,22.2604,84.8536,27.0,90,0.0,980.4,9.05,46.1,157,72.4,61.0,25.1,401.0,122.0,16.9,7,5,7,1,2026-06-04T21:03:16.805881+05:30
Raipur,Chhattisgarh,21.2514,81.6296,34.9,35,0.0,969.5,8.55,38.2,114,57.0,47.0,42.7,305.0,64.0,62.3,0,5,7,1,2026-06-04T21:03:16.805889+05:30
Bhilai,Chhattisgarh,21.1938,81.3509,33.4,41,0.0,970.0,8.5,38.9,107,64.3,50.5,42.7,822.0,64.0,51.0,0,5,7,1,2026-06-04T21:03:16.805897+05:30
Guwahati,Assam,26.1158,91.7086,24.3,99,0.1,998.8,8.85,35.3,114,49.5,46.6,10.0,436.0,80.0,4.9,6,5,7,1,2026-06-04T21:03:16.805905+05:30
Agartala,Tripura,23.8315,91.2868,29.0,81,0.0,1002.1,8.85,29.5,100,59.0,55.3,24.9,483.0,72.0,4.9,7,5,4,1,2026-06-04T21:03:16.805913+05:30
Shillong,Meghalaya,25.5788,91.8933,19.2,95,0.0,855.0,7.15,28.8,82,18.9,17.6,7.3,521.0,99.0,3.9,3,10,7,1,2026-06-04T21:03:16.805920+05:30
Imphal,Manipur,24.817,93.9368,23.6,90,0.0,920.5,9.25,30.2,97,47.1,42.8,20.3,1020.0,47.0,5.1,3,5,7,1,2026-06-04T21:03:16.805928+05:30
Aizawl,Mizoram,23.7271,92.7176,21.5,96,0.1,890.3,9.1,24.5,84,25.5,22.4,11.5,274.0,43.0,1.9,6,5,7,1,2026-06-04T21:03:16.805936+05:30
Kohima,Nagaland,25.6701,94.1077,19.2,95,0.1,852.9,8.9,30.2,73,21.5,19.4,12.1,481.0,59.0,2.0,6,10,7,1,2026-06-04T21:03:16.805944+05:30
Gangtok,Sikkim,27.3314,88.6138,17.9,86,0.2,835.0,9.25,40.7,94,11.8,10.4,8.3,471.0,128.0,2.7,6,10,7,0,2026-06-04T21:03:16.805952+05:30
Siliguri,West Bengal,26.7271,88.3953,24.8,97,0.1,988.7,8.8,31.7,156,36.6,32.6,9.8,647.0,124.0,4.9,6,5,7,1,2026-06-04T21:03:20.188167+05:30
Durgapur,West Bengal,23.5204,87.3119,28.5,83,0.0,990.0,8.85,25.6,219,91.5,85.7,28.2,491.0,120.0,43.3,7,5,7,1,2026-06-04T21:03:20.188199+05:30
Asansol,West Bengal,23.6739,86.9524,29.7,74,0.0,988.6,8.85,28.8,201,98.5,87.5,46.2,756.0,85.0,59.1,7,5,7,1,2026-06-04T21:03:20.188211+05:30
Pondicherry,Puducherry,11.9139,79.8145,30.2,74,0.0,1006.3,8.05,43.2,94,19.3,15.9,15.6,238.0,79.0,8.2,3,5,4,1,2026-06-04T21:03:20.188220+05:30
Port Blair,Andaman and Nicobar Islands,11.6234,92.7265,26.0,94,0.1,1006.0,1.45,34.9,27,7.1,4.4,0.3,102.0,64.0,0.3,10,5,0,1,2026-06-04T21:03:20.188229+05:30
Haridwar,Uttarakhand,29.9457,78.1642,29.7,66,0.0,968.1,7.65,40.0,134,136.9,59.8,23.8,311.0,105.0,11.5,7,5,7,1,2026-06-04T21:03:20.188238+05:30
Rishikesh,Uttarakhand,30.0869,78.2676,27.3,62,0.0,960.9,7.75,35.6,128,115.9,40.3,7.7,390.0,127.0,6.4,7,5,7,1,2026-06-04T21:03:20.188246+05:30
Nainital,Uttarakhand,29.3919,79.4542,15.1,92,0.0,802.0,7.2,28.1,158,52.0,29.3,10.8,341.0,130.0,8.8,3,10,7,0,2026-06-04T21:03:20.188254+05:30
Mussoorie,Uttarakhand,30.4599,78.0664,14.6,94,0.0,799.0,7.6,34.6,122,67.8,32.6,22.2,266.0,91.0,6.9,3,10,7,0,2026-06-04T21:03:20.188262+05:30
Dharamshala,Himachal Pradesh,32.219,76.3234,22.3,56,0.0,865.5,8.55,41.8,100,14.6,10.0,11.4,465.0,98.0,0.9,0,5,7,0,2026-06-04T21:03:20.188270+05:30
Dalhousie,Himachal Pradesh,32.5387,75.971,15.0,95,0.0,800.4,6.7,36.7,134,45.5,26.0,16.8,482.0,124.0,3.6,3,10,7,0,2026-06-04T21:03:20.188279+05:30
Patiala,Punjab,30.3398,76.3869,31.8,47,0.0,971.5,7.7,42.8,195,145.8,57.5,12.8,500.0,112.0,10.3,0,5,7,1,2026-06-04T21:03:20.188287+05:30
Bhatinda,Punjab,30.211,74.9455,30.9,51,0.0,976.8,8.35,43.2,165,71.2,49.9,18.5,473.0,111.0,13.5,0,5,7,1,2026-06-04T21:03:20.188295+05:30
Rohtak,Haryana,28.8955,76.6066,31.5,47,0.0,975.1,7.8,30.2,181,248.7,79.6,48.0,532.0,61.0,9.7,0,5,7,1,2026-06-04T21:03:20.188303+05:30
Panipat,Haryana,29.3909,76.9635,29.6,62,0.0,973.9,7.65,40.0,431,288.7,97.6,40.5,502.0,81.0,15.3,7,5,7,1,2026-06-04T21:03:20.188312+05:30
Mathura,Uttar Pradesh,27.4924,77.6737,31.7,50,0.0,980.0,8.1,34.2,188,284.1,71.2,51.4,900.0,52.0,9.0,0,5,7,1,2026-06-04T21:03:20.188320+05:30
Vrindavan,Uttar Pradesh,27.5823,77.7027,31.8,50,0.0,980.5,8.05,36.7,188,284.1,71.2,51.4,955.0,52.0,9.0,0,5,7,1,2026-06-04T21:03:20.188328+05:30
Ayodhya,Uttar Pradesh,26.7922,82.1998,31.6,59,0.0,989.3,8.05,18.7,153,104.8,59.0,35.6,605.0,69.0,13.1,0,5,7,1,2026-06-04T21:03:20.188336+05:30
Ratlam,Madhya Pradesh,23.3315,75.0367,29.2,68,0.0,950.8,8.5,44.6,84,38.5,25.8,3.4,179.0,89.0,5.1,7,5,7,1,2026-06-04T21:03:20.188344+05:30
Sagar,Madhya Pradesh,23.8388,78.7378,29.3,50,0.0,946.1,8.75,49.3,81,60.8,29.2,14.3,324.0,81.0,5.2,4,5,7,1,2026-06-04T21:03:20.188352+05:30
Satna,Madhya Pradesh,24.6005,80.8322,31.5,43,0.0,966.0,8.35,25.6,85,60.3,31.1,19.0,332.0,89.0,5.8,0,5,7,1,2026-06-04T21:03:20.188359+05:30
Akola,Maharashtra,20.7002,77.0082,32.7,44,0.1,970.9,8.85,65.9,77,51.8,28.2,10.9,219.0,82.0,5.7,3,5,7,1,2026-06-04T21:03:20.188368+05:30
Amravati,Maharashtra,20.9374,77.7796,35.5,31,0.0,962.9,8.85,48.2,80,61.9,33.6,17.4,192.0,70.0,7.6,0,5,10,0,2026-06-04T21:03:20.188376+05:30
Latur,Maharashtra,18.4088,76.5604,29.4,58,0.0,936.7,9.0,35.6,63,45.3,27.1,12.1,211.0,70.0,3.6,4,5,7,1,2026-06-04T21:03:20.188384+05:30
Nanded,Maharashtra,19.1383,77.3091,31.0,56,0.1,964.8,8.75,36.7,77,55.3,32.8,13.1,311.0,83.0,6.1,3,5,7,1,2026-06-04T21:03:20.188392+05:30
Gulbarga,Karnataka,17.3297,76.8343,28.4,64,0.0,956.1,9.0,46.1,61,22.8,15.4,12.7,171.0,73.0,2.9,7,5,7,1,2026-06-04T21:03:20.188399+05:30
Bidar,Karnataka,17.9104,77.5199,28.0,66,0.0,932.4,9.0,37.4,68,21.5,17.5,11.1,316.0,80.0,1.4,7,5,7,1,2026-06-04T21:03:20.188407+05:30
Hospet,Karnataka,15.2689,76.3909,27.1,71,0.0,954.5,9.0,42.5,36,5.2,4.5,8.4,163.0,51.0,1.7,7,5,7,1,2026-06-04T21:03:20.188415+05:30
Tirupur,Tamil Nadu,11.1085,77.3411,24.8,87,0.0,974.5,8.3,56.5,36,8.0,7.0,12.0,175.0,44.0,4.1,3,5,7,1,2026-06-04T21:03:20.188422+05:30
Alappuzha,Kerala,9.4981,76.3388,26.4,92,0.1,1010.2,5.15,39.2,29,14.4,8.4,5.8,89.0,45.0,1.4,10,0,0,1,2026-06-04T21:03:20.188430+05:30
Munnar,Kerala,10.0889,77.0595,17.4,100,0.3,857.1,6.8,38.2,27,3.9,3.7,8.2,143.0,35.0,1.8,6,10,7,1,2026-06-04T21:03:20.188439+05:30
Silchar,Assam,24.8333,92.7789,27.6,92,0.0,1001.3,8.95,18.0,122,71.7,63.6,19.9,628.0,67.0,10.3,7,5,4,1,2026-06-04T21:03:20.188465+05:30
Dibrugarh,Assam,27.4728,94.912,24.7,89,0.0,992.4,7.35,34.6,86,41.1,39.9,20.9,331.0,45.0,3.2,3,5,7,1,2026-06-04T21:03:20.188475+05:30
