city,state,latitude,longitude,temp,humidity,rain,pressure,uv_index,wind_gusts,aqi,pm10,pm2_5,no2,co,o3,so2,mosquito_risk,arthritis_risk,migraine_risk,frizz_risk,updated_at
Delhi,Delhi,28.6139,77.209,29.9,84,0.0,977.9,6.7,29.9,298,201.2,90.6,40.9,433.0,46.0,26.6,7,5,7,1,2026-07-20T00:48:30.970395+05:30
Mumbai,Maharashtra,19.076,72.8777,25.3,93,0.1,1007.0,7.7,45.0,58,21.5,9.3,6.2,157.0,46.0,5.1,10,5,4,1,2026-07-20T00:48:30.970443+05:30
Bangalore,Karnataka,12.9716,77.5946,21.4,89,0.0,911.8,8.5,51.1,48,8.0,6.2,9.2,210.0,40.0,4.1,3,5,7,1,2026-07-20T00:48:30.970459+05:30
Hyderabad,Telangana,17.385,78.4867,23.5,89,0.0,951.6,5.05,49.0,37,11.6,7.8,6.2,168.0,47.0,3.5,3,5,3,1,2026-07-20T00:48:30.970469+05:30
Chennai,Tamil Nadu,13.0827,80.2707,28.8,80,0.0,1005.6,7.75,37.1,74,29.1,19.0,11.1,236.0,74.0,9.9,7,5,4,1,2026-07-20T00:48:30.970478+05:30
Kolkata,West Bengal,22.5726,88.3639,27.7,89,0.0,1002.1,3.5,29.9,61,24.3,18.5,6.4,235.0,80.0,5.1,7,5,0,1,2026-07-20T00:48:30.970486+05:30
Pune,Maharashtra,18.5204,73.8567,23.2,88,0.0,946.3,8.05,47.2,21,2.4,2.1,7.5,141.0,34.0,5.7,3,5,7,1,2026-07-20T00:48:30.970493+05:30
Ahmedabad,Gujarat,23.0225,72.5714,27.6,86,0.0,998.0,6.1,34.6,64,23.5,13.4,7.5,152.0,48.0,4.7,7,5,7,1,2026-07-20T00:48:30.970500+05:30
Jaipur,Rajasthan,26.9124,75.7873,29.7,67,0.0,955.4,5.35,29.5,124,94.1,31.8,15.1,225.0,52.0,5.6,7,5,3,1,2026-07-20T00:48:30.970507+05:30
Lucknow,Uttar Pradesh,26.8467,80.9462,26.2,98,0.6,989.3,6.15,26.6,144,65.7,41.1,20.5,346.0,51.0,7.2,10,5,7,1,2026-07-20T00:48:30.970520+05:30
Kanpur,Uttar Pradesh,26.4499,80.3319,27.9,96,0.1,987.4,5.45,32.4,133,44.0,26.3,16.9,295.0,51.0,4.5,10,5,3,1,2026-07-20T00:48:30.970531+05:30
Chandigarh,Chandigarh,30.7333,76.7794,27.3,93,0.0,963.8,1.6,29.9,153,101.7,68.9,50.7,379.0,24.0,13.5,7,5,3,1,2026-07-20T00:48:30.970539+05:30
Srinagar,Jammu and Kashmir,34.0837,74.7973,23.5,95,0.0,838.6,8.7,20.9,70,30.7,30.2,26.0,756.0,23.0,2.7,3,5,7,1,2026-07-20T00:48:30.970546+05:30
Jammu,Jammu and Kashmir,32.7266,74.857,28.7,88,0.0,966.7,6.85,22.3,138,82.7,42.4,17.9,296.0,63.0,4.9,7,5,7,1,2026-07-20T00:48:30.970553+05:30
Amritsar,Punjab,31.634,74.8723,29.7,82,0.0,974.4,6.85,36.7,172,122.0,73.3,18.6,597.0,67.0,13.3,7,5,7,1,2026-07-20T00:48:30.970560+05:30
Ludhiana,Punjab,30.901,75.8573,30.3,84,0.0,972.7,7.0,35.3,180,132.7,76.1,32.5,560.0,42.0,16.6,3,5,7,1,2026-07-20T00:48:30.970566+05:30
Jalandhar,Punjab,31.326,75.5762,30.1,81,0.0,973.6,7.9,36.0,169,102.7,65.2,29.4,605.0,39.0,18.1,3,5,7,1,2026-07-20T00:48:30.970573+05:30
Dehradun,Uttarakhand,30.6284,78.0322,19.0,99,0.2,828.4,2.65,19.4,61,41.2,20.0,16.1,243.0,66.0,2.1,6,10,3,1,2026-07-20T00:48:30.970580+05:30
Shimla,Himachal Pradesh,31.1048,77.1734,17.7,91,0.0,783.5,2.75,26.6,68,33.1,19.9,20.7,266.0,43.0,2.5,3,10,3,1,2026-07-20T00:48:30.970586+05:30
Manali,Himachal Pradesh,32.2396,77.1887,20.5,97,0.0,817.9,7.8,31.0,47,9.1,8.4,30.6,239.0,23.0,0.7,3,5,7,1,2026-07-20T00:48:30.970599+05:30
Gurgaon,Haryana,28.4595,77.0266,29.9,79,0.0,976.2,6.75,25.2,245,597.9,130.4,34.7,270.0,30.0,14.3,7,5,7,1,2026-07-20T00:48:30.970606+05:30
Noida,Uttar Pradesh,28.5355,77.391,28.7,94,0.0,979.3,6.95,35.6,245,597.9,130.4,34.7,375.0,30.0,14.3,7,5,7,1,2026-07-20T00:48:30.970612+05:30
Ghaziabad,Uttar Pradesh,28.6692,77.4538,28.5,96,0.0,977.6,7.4,32.0,189,109.4,65.2,14.0,416.0,78.0,10.1,7,5,7,1,2026-07-20T00:48:30.970619+05:30
Faridabad,Haryana,28.4089,77.3178,28.6,94,0.0,978.6,6.85,36.7,245,597.9,130.4,34.7,350.0,30.0,14.3,7,5,7,1,2026-07-20T00:48:30.970625+05:30
Meerut,Uttar Pradesh,28.9845,77.7064,26.7,96,0.1,976.7,5.25,30.6,189,109.4,65.2,14.0,484.0,78.0,10.1,10,5,3,1,2026-07-20T00:48:30.970632+05:30
Agra,Uttar Pradesh,27.1767,78.0081,28.8,88,0.0,983.0,4.35,30.2,155,43.3,33.3,20.7,217.0,44.0,7.5,7,5,3,1,2026-07-20T00:48:30.970639+05:30
Varanasi,Uttar Pradesh,25.3176,82.9739,26.0,99,0.2,993.2,6.9,25.9,106,51.6,44.7,21.3,765.0,53.0,9.3,10,5,7,1,2026-07-20T00:48:30.970646+05:30
Prayagraj,Uttar Pradesh,25.4358,81.8463,28.2,92,0.0,991.5,7.6,29.9,124,67.3,49.4,24.9,285.0,40.0,11.0,7,5,7,1,2026-07-20T00:48:30.970655+05:30
Gorakhpur,Uttar Pradesh,26.7606,83.3732,25.7,97,0.1,993.6,7.65,24.1,67,25.1,25.0,12.8,350.0,74.0,7.8,10,5,7,1,2026-07-20T00:48:30.970662+05:30
Bareilly,Uttar Pradesh,28.367,79.4304,25.9,97,0.0,982.6,7.05,27.4,131,52.5,34.1,16.1,320.0,63.0,7.9,7,5,7,1,2026-07-20T00:48:30.970670+05:30
Aligarh,Uttar Pradesh,27.8974,78.088,28.4,88,0.0,980.8,5.85,21.6,180,142.5,71.7,31.7,281.0,33.0,9.6,7,5,3,1,2026-07-20T00:48:30.970678+05:30
Moradabad,Uttar Pradesh,28.8386,78.7733,26.8,95,0.1,979.2,5.3,24.8,149,55.2,29.3,12.0,383.0,82.0,7.1,10,5,3,1,2026-07-20T00:48:30.970684+05:30
Saharanpur,Uttar Pradesh,29.9637,77.546,27.1,92,0.1,971.5,5.3,27.0,170,88.0,46.6,7.4,374.0,113.0,8.6,10,5,3,1,2026-07-20T00:48:30.970691+05:30
Jhansi,Uttar Pradesh,25.4484,78.5685,27.8,95,0.2,973.7,1.55,29.5,83,30.7,23.2,11.7,233.0,56.0,7.5,10,5,3,1,2026-07-20T00:48:34.260739+05:30
Surat,Gujarat,21.1702,72.8311,26.5,91,0.1,1003.5,7.3,49.3,67,20.7,13.9,18.5,257.0,29.0,29.4,10,5,4,1,2026-07-20T00:48:34.260771+05:30
Vadodara,Gujarat,22.3072,73.1812,26.6,89,0.2,1000.8,7.65,45.0,64,15.3,11.3,15.2,149.0,28.0,14.7,10,5,4,1,2026-07-20T00:48:34.260782+05:30
Rajkot,Gujarat,22.3039,70.8022,26.8,85,0.0,989.7,6.8,51.1,59,20.5,11.0,5.6,111.0,38.0,4.9,7,5,7,1,2026-07-20T00:48:34.260791+05:30
Thane,Maharashtra,19.2183,72.9781,24.8,98,0.2,1006.2,7.35,42.8,58,21.5,9.3,6.2,178.0,46.0,5.1,6,5,4,1,2026-07-20T00:48:34.260799+05:30
Nagpur,Maharashtra,21.1458,79.0882,26.1,98,0.0,969.7,6.95,34.6,63,22.9,16.5,16.3,247.0,42.0,10.2,7,5,7,1,2026-07-20T00:48:34.260807+05:30
Nashik,Maharashtra,19.9975,73.7898,22.5,96,0.0,942.8,7.95,51.8,24,3.1,2.4,9.6,140.0,33.0,7.7,3,5,7,1,2026-07-20T00:48:34.260815+05:30
Aurangabad,Maharashtra,19.8762,75.3433,23.1,94,0.0,941.7,7.2,48.2,32,4.2,3.4,8.9,178.0,34.0,8.7,3,5,7,1,2026-07-20T00:48:34.260822+05:30
Solapur,Maharashtra,17.6599,75.9064,24.0,94,0.1,956.1,5.45,53.3,39,6.2,4.8,6.0,154.0,32.0,2.5,6,5,3,1,2026-07-20T00:48:34.260830+05:30
Kolhapur,Maharashtra,16.705,74.2433,22.5,93,0.0,947.0,7.05,53.6,27,3.3,3.0,4.6,155.0,37.0,2.2,3,5,7,1,2026-07-20T00:48:34.260837+05:30
Goa,Goa,15.2993,74.124,24.0,98,0.0,998.3,7.75,36.0,62,26.5,13.9,4.4,277.0,41.0,1.4,3,5,7,1,2026-07-20T00:48:34.260844+05:30
Jodhpur,Rajasthan,26.2389,73.0243,31.6,55,0.0,977.5,7.8,40.0,97,94.5,27.2,8.5,132.0,47.0,2.4,0,5,7,1,2026-07-20T00:48:34.260852+05:30
Udaipur,Rajasthan,24.5854,73.7125,26.0,76,0.0,942.5,7.2,29.5,65,24.9,16.1,8.1,149.0,67.0,11.4,7,5,7,1,2026-07-20T00:48:34.260859+05:30
Kota,Rajasthan,25.2138,75.8648,30.4,64,0.0,974.4,2.25,21.6,74,21.1,16.5,10.0,227.0,62.0,5.2,3,5,3,1,2026-07-20T00:48:34.260867+05:30
Bikaner,Rajasthan,28.0229,73.3119,33.4,45,0.0,975.8,7.7,39.6,117,177.9,46.4,2.0,115.0,63.0,1.6,0,5,7,1,2026-07-20T00:48:34.260875+05:30
Ajmer,Rajasthan,26.4499,74.6399,29.4,66,0.0,950.2,7.25,37.4,69,22.5,16.3,12.7,202.0,47.0,4.8,7,5,7,1,2026-07-20T00:48:34.260882+05:30
Gwalior,Madhya Pradesh,26.2183,78.1828,28.1,95,0.2,978.9,0.5,24.1,89,29.6,21.7,9.2,184.0,62.0,7.4,10,5,3,1,2026-07-20T00:48:34.260890+05:30
Indore,Madhya Pradesh,22.7196,75.8577,25.7,85,0.0,944.7,6.0,37.1,60,18.5,14.7,10.4,270.0,51.0,6.6,7,5,3,1,2026-07-20T00:48:34.260898+05:30
Bhopal,Madhya Pradesh,23.2599,77.4126,26.5,89,0.0,949.8,4.75,29.2,67,22.5,18.6,11.7,340.0,47.0,4.1,7,5,3,1,2026-07-20T00:48:34.260905+05:30
Jabalpur,Madhya Pradesh,23.1815,79.9864,25.5,94,0.0,957.5,4.7,25.9,82,37.3,28.1,10.1,312.0,59.0,3.7,7,5,3,1,2026-07-20T00:48:34.260913+05:30
Ujjain,Madhya Pradesh,23.1765,75.7885,25.7,87,0.1,950.3,4.25,34.2,60,19.0,15.3,8.3,274.0,57.0,5.9,10,5,3,1,2026-07-20T00:48:34.260921+05:30
Visakhapatnam,Andhra Pradesh,17.6868,83.2185,27.4,98,0.0,999.4,8.0,38.2,85,21.2,18.6,21.7,289.0,51.0,31.2,7,5,7,1,2026-07-20T00:48:34.260929+05:30
Vijayawada,Andhra Pradesh,16.5062,80.648,28.8,74,0.0,1000.3,6.5,41.4,63,17.3,15.0,13.9,183.0,47.0,4.7,7,5,4,1,2026-07-20T00:48:34.260936+05:30
Guntur,Andhra Pradesh,16.3067,80.4365,29.6,66,0.0,1001.5,7.1,51.8,58,15.8,12.9,13.0,193.0,43.0,4.4,7,5,4,1,2026-07-20T00:48:34.260944+05:30
Nellore,Andhra Pradesh,14.4426,79.9865,29.4,66,0.0,1004.8,8.1,34.9,61,26.0,16.5,11.0,341.0,39.0,4.6,7,5,4,1,2026-07-20T00:48:34.260952+05:30
Kurnool,Andhra Pradesh,15.8281,78.0373,24.8,93,0.1,976.3,7.1,70.2,48,19.3,11.7,6.8,156.0,45.0,3.6,6,5,7,1,2026-07-20T00:48:34.260960+05:30
Kakinada,Andhra Pradesh,16.9891,82.2475,28.4,76,0.0,1004.1,8.55,46.8,62,22.5,18.4,6.8,300.0,79.0,4.6,7,5,4,1,2026-07-20T00:48:34.260968+05:30
Tirupati,Andhra Pradesh,13.6288,79.4192,26.8,80,0.0,990.4,3.6,34.9,62,25.0,17.5,17.4,163.0,26.0,2.6,7,5,3,1,2026-07-20T00:48:34.260975+05:30
Warangal,Telangana,17.9689,79.5941,26.2,83,0.0,976.5,4.85,40.7,54,17.7,13.0,7.7,163.0,50.0,2.8,7,5,3,1,2026-07-20T00:48:34.260982+05:30
Nizamabad,Telangana,18.6725,78.0941,23.6,95,0.0,963.0,4.15,45.4,52,14.5,10.7,8.9,162.0,41.0,5.2,3,5,3,1,2026-07-20T00:48:34.260989+05:30
Mysore,Karnataka,12.2958,76.6396,21.5,92,0.0,929.3,8.85,49.3,37,4.5,3.6,5.6,128.0,37.0,2.1,3,5,7,1,2026-07-20T00:48:34.260996+05:30
Mangalore,Karnataka,12.9141,74.856,23.8,99,0.1,1008.5,8.6,39.6,55,21.0,11.1,5.2,213.0,36.0,1.8,6,0,4,1,2026-07-20T00:48:34.261003+05:30
Hubli-Dharwad,Karnataka,15.3647,75.124,22.1,95,0.0,940.7,5.85,57.6,25,2.7,1.9,3.6,110.0,37.0,1.2,3,5,3,1,2026-07-20T00:48:34.261011+05:30
Belgaum,Karnataka,15.8497,74.4977,21.0,99,0.0,925.0,7.95,54.0,22,1.9,1.6,4.4,119.0,37.0,1.6,3,5,7,1,2026-07-20T00:48:37.555736+05:30
Coimbatore,Tamil Nadu,11.0168,76.9558,23.3,94,0.0,962.3,8.75,51.5,41,5.1,3.8,5.5,176.0,35.0,2.9,3,5,7,1,2026-07-20T00:48:37.555769+05:30
Madurai,Tamil Nadu,9.9252,78.1198,28.8,63,0.0,993.3,5.65,37.4,71,31.5,24.9,33.7,143.0,11.0,8.1,7,5,3,1,2026-07-20T00:48:37.555780+05:30
Trichy,Tamil Nadu,10.7905,78.7047,28.7,63,0.0,1000.0,6.85,51.5,53,13.8,10.0,9.8,122.0,43.0,4.0,7,5,4,1,2026-07-20T00:48:37.555789+05:30
Salem,Tamil Nadu,11.6643,78.146,25.1,94,0.0,977.8,7.7,31.7,60,19.0,14.4,16.6,473.0,31.0,6.0,7,5,7,1,2026-07-20T00:48:37.555798+05:30
Tirunelveli,Tamil Nadu,8.7139,77.7567,28.7,66,0.0,1004.1,7.8,44.3,34,5.1,3.9,5.1,151.0,38.0,2.1,7,5,4,1,2026-07-20T00:48:37.555806+05:30
Vellore,Tamil Nadu,12.9165,79.1325,27.3,78,0.0,983.6,8.05,43.9,66,28.4,18.3,14.2,188.0,37.0,3.5,7,5,7,1,2026-07-20T00:48:37.555813+05:30
Erode,Tamil Nadu,11.341,77.7172,26.2,79,0.0,989.7,8.05,33.8,54,14.4,11.7,15.0,158.0,27.0,4.1,7,5,7,1,2026-07-20T00:48:37.555821+05:30
Kochi,Kerala,9.9312,76.2673,25.0,95,0.0,1011.2,8.35,35.3,53,11.5,7.6,7.7,136.0,31.0,3.1,7,0,4,1,2026-07-20T00:48:37.555828+05:30
Thiruvananthapuram,Kerala,8.5241,76.9366,23.9,99,0.0,1010.8,7.1,45.0,48,15.0,7.7,2.4,117.0,50.0,0.9,3,0,4,1,2026-07-20T00:48:37.555836+05:30
Kozhikode,Kerala,11.2588,75.7804,23.9,99,0.1,1010.3,8.3,32.4,39,16.6,6.9,1.1,166.0,50.0,0.8,6,0,4,1,2026-07-20T00:48:37.555843+05:30
Thrissur,Kerala,10.5276,76.2144,24.4,99,0.0,1009.4,8.25,37.4,51,6.5,4.8,6.1,200.0,34.0,2.2,3,0,4,1,2026-07-20T00:48:37.555851+05:30
Kannur,Kerala,11.8745,75.3704,23.3,98,0.1,1009.6,8.75,28.8,50,16.5,8.9,5.7,178.0,34.0,1.8,6,0,4,1,2026-07-20T00:48:37.555857+05:30
Patna,Bihar,25.5941,85.1376,26.6,97,0.1,996.3,8.35,23.4,81,35.2,35.0,17.8,363.0,66.0,11.4,10,5,7,1,2026-07-20T00:48:37.555865+05:30
Gaya,Bihar,24.7914,85.0002,25.7,98,0.3,990.2,3.4,21.6,70,21.6,21.0,14.4,426.0,60.0,7.3,10,5,3,1,2026-07-20T00:48:37.555873+05:30
Muzaffarpur,Bihar,26.1209,85.3647,26.1,97,0.2,996.8,7.15,27.7,72,30.7,30.6,14.9,365.0,76.0,10.4,10,5,7,1,2026-07-20T00:48:37.555880+05:30
Bhagalpur,Bihar,25.2425,87.0117,26.5,96,0.3,997.8,1.55,33.8,77,26.0,25.4,11.6,312.0,77.0,10.1,10,5,3,1,2026-07-20T00:48:37.555887+05:30
Ranchi,Jharkhand,23.3441,85.3096,23.2,98,0.0,934.1,4.1,26.3,74,32.0,28.9,8.0,327.0,96.0,15.3,3,5,3,1,2026-07-20T00:48:37.555894+05:30
Jamshedpur,Jharkhand,22.8046,86.2029,25.8,99,0.1,986.8,3.65,24.1,91,26.3,25.7,21.4,664.0,50.0,22.7,10,5,3,1,2026-07-20T00:48:37.555901+05:30
Dhanbad,Jharkhand,23.7957,86.4304,25.4,99,0.2,976.5,3.25,27.4,144,59.8,58.7,51.4,602.0,26.0,127.3,10,5,3,1,2026-07-20T00:48:37.555908+05:30
Bokaro,Jharkhand,23.6693,86.1511,25.2,99,0.4,980.5,3.15,23.8,145,62.6,61.7,42.6,2530.0,43.0,117.6,10,5,3,1,2026-07-20T00:48:37.555915+05:30
Bhubaneswar,Odisha,20.2961,85.8245,27.3,97,0.0,997.8,8.5,27.7,84,48.4,41.4,10.7,391.0,108.0,8.5,7,5,7,1,2026-07-20T00:48:37.555922+05:30
Cuttack,Odisha,20.4625,85.8828,27.6,97,0.0,999.6,8.6,22.0,84,48.4,41.4,10.7,441.0,108.0,8.5,7,5,7,1,2026-07-20T00:48:37.555929+05:30
Rourkela,Odisha,22.2604,84.8536,25.5,99,0.3,981.1,8.05,28.8,81,32.1,26.5,6.9,286.0,94.0,6.7,10,5,7,1,2026-07-20T00:48:37.555936+05:30
Raipur,Chhattisgarh,21.2514,81.6296,26.0,90,0.0,970.6,7.3,31.7,91,43.2,37.1,37.8,600.0,42.0,47.1,7,5,7,1,2026-07-20T00:48:37.555944+05:30
Bhilai,Chhattisgarh,21.1938,81.3509,25.8,93,0.0,971.2,7.9,32.4,83,37.6,31.1,29.8,1029.0,48.0,35.5,7,5,7,1,2026-07-20T00:48:37.555951+05:30
Guwahati,Assam,26.1158,91.7086,24.8,98,0.2,999.6,1.7,22.0,58,13.4,13.0,9.2,226.0,39.0,2.4,6,5,3,1,2026-07-20T00:48:37.555957+05:30
Agartala,Tripura,23.8315,91.2868,25.3,96,0.0,1004.0,7.6,35.6,52,12.1,10.4,10.4,166.0,37.0,3.3,7,5,4,1,2026-07-20T00:48:37.555964+05:30
Shillong,Meghalaya,25.5788,91.8933,19.3,98,0.0,855.9,1.8,19.1,25,1.0,1.0,6.1,186.0,42.0,2.0,3,10,3,1,2026-07-20T00:48:37.555971+05:30
Imphal,Manipur,24.817,93.9368,21.7,99,0.0,921.9,1.1,26.3,44,10.2,9.2,9.0,351.0,27.0,1.7,3,5,3,1,2026-07-20T00:48:37.555978+05:30
Aizawl,Mizoram,23.7271,92.7176,18.7,98,0.3,890.7,0.65,20.2,45,16.7,10.3,3.8,125.0,34.0,0.6,6,10,3,1,2026-07-20T00:48:37.555985+05:30
Kohima,Nagaland,25.6701,94.1077,20.1,93,0.5,854.3,2.15,21.2,21,2.6,2.6,5.0,203.0,38.0,0.2,6,5,3,1,2026-07-20T00:48:37.555992+05:30
Gangtok,Sikkim,27.3314,88.6138,18.7,97,0.4,837.2,3.8,28.8,34,3.7,3.6,4.1,200.0,82.0,0.9,6,10,3,1,2026-07-20T00:48:37.555999+05:30
Siliguri,West Bengal,26.7271,88.3953,24.5,99,0.3,991.6,2.5,24.1,51,11.1,10.9,9.1,254.0,65.0,2.3,6,5,3,1,2026-07-20T00:48:40.871974+05:30
Durgapur,West Bengal,23.5204,87.3119,26.1,97,0.0,991.1,5.5,30.2,108,29.9,28.5,21.6,297.0,51.0,27.9,7,5,3,1,2026-07-20T00:48:40.872007+05:30
Asansol,West Bengal,23.6739,86.9524,26.1,97,0.2,990.1,1.6,24.8,108,25.8,24.9,24.1,621.0,49.0,30.8,10,5,3,1,2026-07-20T00:48:40.872018+05:30
Pondicherry,Puducherry,11.9139,79.8145,29.0,68,0.0,1007.5,8.0,38.5,72,26.0,17.1,13.8,186.0,56.0,12.9,7,5,4,1,2026-07-20T00:48:40.872027+05:30
Port Blair,Andaman and Nicobar Islands,11.6234,92.7265,26.7,87,0.0,1007.0,8.35,44.3,54,21.0,11.4,0.2,81.0,43.0,0.4,7,5,4,1,2026-07-20T00:48:40.872035+05:30
Haridwar,Uttarakhand,29.9457,78.1642,25.7,98,0.0,970.0,2.2,25.2,161,85.2,41.9,5.8,249.0,116.0,8.8,7,5,3,1,2026-07-20T00:48:40.872043+05:30
Rishikesh,Uttarakhand,30.0869,78.2676,25.1,96,0.2,962.6,0.6,17.3,152,100.8,38.1,4.6,238.0,107.0,8.4,10,5,3,1,2026-07-20T00:48:40.872051+05:30
Nainital,Uttarakhand,29.3919,79.4542,17.2,100,0.1,803.8,6.4,34.6,64,13.1,7.8,5.5,241.0,97.0,1.7,6,10,7,1,2026-07-20T00:48:40.872059+05:30
Mussoorie,Uttarakhand,30.4599,78.0664,17.5,100,0.8,801.1,0.8,28.4,122,122.9,51.1,8.6,252.0,105.0,10.1,6,10,3,1,2026-07-20T00:48:40.872067+05:30
Dharamshala,Himachal Pradesh,32.219,76.3234,22.2,99,0.0,866.3,5.95,27.7,39,11.1,7.3,9.9,378.0,61.0,1.0,3,5,3,1,2026-07-20T00:48:40.872074+05:30
Dalhousie,Himachal Pradesh,32.5387,75.971,19.1,99,0.2,803.4,3.05,25.6,88,65.2,27.5,9.1,328.0,83.0,2.5,6,10,3,1,2026-07-20T00:48:40.872082+05:30
Patiala,Punjab,30.3398,76.3869,28.4,91,0.0,972.9,5.05,35.6,199,130.4,87.5,32.1,443.0,56.0,13.5,7,5,3,1,2026-07-20T00:48:40.872090+05:30
Bhatinda,Punjab,30.211,74.9455,32.5,65,0.0,977.2,5.9,34.2,182,292.4,114.1,24.3,347.0,55.0,8.8,3,5,3,1,2026-07-20T00:48:40.872097+05:30
Rohtak,Haryana,28.8955,76.6066,30.3,75,0.0,976.0,4.55,23.4,485,536.4,126.2,47.3,565.0,18.0,10.7,3,5,3,1,2026-07-20T00:48:40.872104+05:30
Panipat,Haryana,29.3909,76.9635,29.0,91,0.0,975.1,6.8,32.8,885,3010.0,403.3,28.6,480.0,63.0,13.4,7,5,7,1,2026-07-20T00:48:40.872112+05:30
Mathura,Uttar Pradesh,27.4924,77.6737,29.1,85,0.0,982.0,1.1,25.6,191,484.3,81.5,20.2,218.0,49.0,4.5,7,5,3,1,2026-07-20T00:48:40.872119+05:30
Vrindavan,Uttar Pradesh,27.5823,77.7027,29.1,84,0.0,982.4,1.8,28.8,191,484.3,81.5,20.2,224.0,49.0,4.5,7,5,3,1,2026-07-20T00:48:40.872127+05:30
Ayodhya,Uttar Pradesh,26.7922,82.1998,25.6,97,0.1,991.4,7.75,23.4,74,21.1,20.7,15.9,368.0,73.0,5.5,10,5,7,1,2026-07-20T00:48:40.872134+05:30
Ratlam,Madhya Pradesh,23.3315,75.0367,25.6,84,0.0,951.2,5.25,35.3,59,15.2,12.3,7.6,179.0,60.0,7.7,7,5,3,1,2026-07-20T00:48:40.872161+05:30
Sagar,Madhya Pradesh,23.8388,78.7378,25.4,93,0.0,946.2,5.95,29.5,76,25.0,18.9,8.0,285.0,61.0,2.6,7,5,3,1,2026-07-20T00:48:40.872169+05:30
Satna,Madhya Pradesh,24.6005,80.8322,25.8,98,0.0,967.1,1.75,29.9,85,42.4,28.1,15.7,258.0,42.0,4.3,7,5,3,1,2026-07-20T00:48:40.872177+05:30
Akola,Maharashtra,20.7002,77.0082,26.2,84,0.0,972.4,8.3,42.5,46,7.5,6.5,9.5,144.0,41.0,7.4,7,5,7,1,2026-07-20T00:48:40.872185+05:30
Amravati,Maharashtra,20.9374,77.7796,26.2,88,0.0,964.4,7.65,41.8,49,7.2,6.1,9.3,152.0,43.0,7.7,7,5,7,1,2026-07-20T00:48:40.872194+05:30
Latur,Maharashtra,18.4088,76.5604,23.0,95,0.0,938.2,1.0,50.8,36,4.3,3.7,5.1,130.0,38.0,2.0,3,5,3,1,2026-07-20T00:48:40.872201+05:30
Nanded,Maharashtra,19.1383,77.3091,23.7,95,0.2,967.1,2.2,41.8,50,10.9,8.5,7.9,164.0,39.0,3.9,6,5,3,1,2026-07-20T00:48:40.872209+05:30
Gulbarga,Karnataka,17.3297,76.8343,23.4,96,0.1,957.6,5.3,54.4,36,7.7,5.3,6.5,148.0,34.0,2.8,6,5,3,1,2026-07-20T00:48:40.872216+05:30
Bidar,Karnataka,17.9104,77.5199,22.3,97,0.0,933.6,2.4,48.6,46,9.9,7.2,6.1,135.0,43.0,1.7,3,5,3,1,2026-07-20T00:48:40.872223+05:30
Hospet,Karnataka,15.2689,76.3909,23.5,88,0.0,955.7,6.8,54.7,35,3.4,2.4,4.2,118.0,36.0,1.6,3,5,7,1,2026-07-20T00:48:40.872230+05:30
Tirupur,Tamil Nadu,11.1085,77.3411,24.1,91,0.0,976.1,7.35,51.8,57,16.8,13.7,18.2,137.0,23.0,5.4,3,5,7,1,2026-07-20T00:48:40.872237+05:30
Alappuzha,Kerala,9.4981,76.3388,25.0,94,0.2,1011.5,8.4,37.8,51,14.1,8.1,4.7,89.0,41.0,2.2,10,0,4,1,2026-07-20T00:48:40.872244+05:30
Munnar,Kerala,10.0889,77.0595,16.3,100,0.0,857.5,8.0,41.0,27,3.9,3.2,4.7,101.0,32.0,1.7,3,10,7,1,2026-07-20T00:48:40.872251+05:30
Silchar,Assam,24.8333,92.7789,25.6,96,0.2,1003.8,1.15,21.2,60,18.1,13.7,5.7,225.0,47.0,3.4,10,5,0,1,2026-07-20T00:48:40.872258+05:30
Dibrugarh,Assam,27.4728,94.912,24.7,97,0.0,993.7,8.35,27.0,51,12.8,12.4,12.8,239.0,33.0,1.8,3,5,7,1,2026-07-20T00:48:40.872265+05:30
