city,state,latitude,longitude,temp,humidity,rain,pressure,uv_index,wind_gusts,aqi,pm10,pm2_5,mosquito_risk,arthritis_risk,migraine_risk,frizz_risk,updated_at
Delhi,Delhi,28.6139,77.209,21.3,62,0.0,983.7,6.15,38.9,154,138.8,44.4,3,5,7,0,2026-04-07T03:10:42.788315+05:30
Mumbai,Maharashtra,19.076,72.8777,27.5,67,0.0,1010.3,7.95,22.0,63,32.0,17.3,7,0,4,1,2026-04-07T03:10:42.788350+05:30
Bangalore,Karnataka,12.9716,77.5946,22.9,80,0.0,911.9,9.6,28.1,60,17.1,14.6,3,5,7,1,2026-04-07T03:10:42.788365+05:30
Hyderabad,Telangana,17.385,78.4867,25.1,79,0.0,952.4,9.2,32.8,86,35.0,29.7,7,5,7,1,2026-04-07T03:10:42.788374+05:30
Chennai,Tamil Nadu,13.0827,80.2707,28.0,89,0.0,1007.0,9.35,34.9,62,23.6,17.8,7,5,4,1,2026-04-07T03:10:42.788383+05:30
Kolkata,West Bengal,22.5726,88.3639,24.7,91,0.0,1006.3,8.45,20.5,147,63.3,60.1,3,5,4,1,2026-04-07T03:10:42.788391+05:30
Pune,Maharashtra,18.5204,73.8567,20.6,89,0.0,949.1,8.55,37.4,90,26.7,22.1,3,5,7,1,2026-04-07T03:10:42.788402+05:30
Ahmedabad,Gujarat,23.0225,72.5714,24.0,72,0.0,1003.3,7.9,45.7,55,38.4,15.7,3,5,4,1,2026-04-07T03:10:42.788409+05:30
Jaipur,Rajasthan,26.9124,75.7873,20.6,62,0.0,959.7,4.6,43.2,112,217.5,42.0,3,5,3,0,2026-04-07T03:10:42.788417+05:30
Lucknow,Uttar Pradesh,26.8467,80.9462,21.9,61,0.0,994.4,7.4,24.8,100,217.5,48.2,3,5,7,0,2026-04-07T03:10:42.788424+05:30
Kanpur,Uttar Pradesh,26.4499,80.3319,21.1,73,0.0,992.4,7.25,19.4,139,230.5,50.3,3,5,7,1,2026-04-07T03:10:42.788430+05:30
Chandigarh,Chandigarh,30.7333,76.7794,20.6,55,0.0,969.3,6.65,52.2,60,15.0,13.9,0,5,7,0,2026-04-07T03:10:42.788438+05:30
Srinagar,Jammu and Kashmir,34.0837,74.7973,7.2,92,0.0,837.1,7.7,28.4,86,56.0,52.0,3,10,7,0,2026-04-07T03:10:42.788445+05:30
Jammu,Jammu and Kashmir,32.7266,74.857,19.5,66,0.0,972.3,7.05,51.1,78,25.8,23.8,3,5,7,0,2026-04-07T03:10:42.788451+05:30
Amritsar,Punjab,31.634,74.8723,19.0,69,0.0,980.0,5.85,47.9,94,34.1,30.7,3,5,3,0,2026-04-07T03:10:42.788458+05:30
Ludhiana,Punjab,30.901,75.8573,20.6,58,0.0,979.1,6.15,55.8,102,44.8,37.1,0,5,7,0,2026-04-07T03:10:42.788464+05:30
Jalandhar,Punjab,31.326,75.5762,19.3,66,0.0,980.2,6.5,61.9,95,50.4,45.8,3,5,7,0,2026-04-07T03:10:42.788472+05:30
Dehradun,Uttarakhand,30.6284,78.0322,10.9,71,0.0,828.6,6.75,34.9,38,14.2,10.9,3,5,7,0,2026-04-07T03:10:42.788478+05:30
Shimla,Himachal Pradesh,31.1048,77.1734,9.3,67,0.0,781.8,6.75,57.2,51,11.6,9.1,3,5,7,0,2026-04-07T03:10:42.788484+05:30
Manali,Himachal Pradesh,32.2396,77.1887,10.8,63,0.0,816.4,9.4,31.0,51,8.3,7.4,3,5,7,0,2026-04-07T03:10:42.788490+05:30
Gurgaon,Haryana,28.4595,77.0266,19.8,70,0.0,982.1,5.7,40.3,387,162.1,52.5,3,5,3,0,2026-04-07T03:10:42.788496+05:30
Noida,Uttar Pradesh,28.5355,77.391,21.5,61,0.0,985.3,6.25,40.7,387,162.1,52.5,3,5,7,0,2026-04-07T03:10:42.788502+05:30
Ghaziabad,Uttar Pradesh,28.6692,77.4538,20.7,65,0.0,983.5,6.05,41.4,150,170.0,49.6,3,5,7,0,2026-04-07T03:10:42.788508+05:30
Faridabad,Haryana,28.4089,77.3178,20.5,64,0.0,984.5,6.6,37.8,387,162.1,52.5,3,5,7,0,2026-04-07T03:10:42.788514+05:30
Meerut,Uttar Pradesh,28.9845,77.7064,19.4,70,0.0,982.5,6.15,41.0,150,170.0,49.6,3,5,7,0,2026-04-07T03:10:42.788520+05:30
Agra,Uttar Pradesh,27.1767,78.0081,20.1,75,0.0,989.0,6.3,32.4,356,382.8,68.5,3,5,7,0,2026-04-07T03:10:42.788525+05:30
Varanasi,Uttar Pradesh,25.3176,82.9739,22.0,61,0.0,998.3,8.05,28.4,84,72.4,34.5,3,5,7,0,2026-04-07T03:10:42.788533+05:30
Prayagraj,Uttar Pradesh,25.4358,81.8463,23.7,54,0.0,996.8,7.9,22.7,89,112.7,42.6,0,5,7,0,2026-04-07T03:10:42.788541+05:30
Gorakhpur,Uttar Pradesh,26.7606,83.3732,21.0,67,0.0,997.9,7.85,23.4,70,53.2,28.3,3,5,7,0,2026-04-07T03:10:42.788547+05:30
Bareilly,Uttar Pradesh,28.367,79.4304,19.3,70,0.0,988.3,7.2,28.8,90,144.8,58.9,3,5,7,0,2026-04-07T03:10:42.788553+05:30
Aligarh,Uttar Pradesh,27.8974,78.088,19.5,69,0.0,986.2,6.6,45.0,283,258.0,57.0,3,5,7,0,2026-04-07T03:10:42.788559+05:30
Moradabad,Uttar Pradesh,28.8386,78.7733,19.3,71,0.0,984.9,7.0,42.5,120,179.7,78.9,3,5,7,0,2026-04-07T03:10:42.788565+05:30
Saharanpur,Uttar Pradesh,29.9637,77.546,18.9,67,0.0,977.2,6.45,47.2,103,89.4,57.0,3,5,7,0,2026-04-07T03:10:42.788570+05:30
Jhansi,Uttar Pradesh,25.4484,78.5685,19.4,74,0.0,978.8,7.8,39.2,79,71.0,26.3,3,5,7,0,2026-04-07T03:10:46.087795+05:30
Surat,Gujarat,21.1702,72.8311,25.8,75,0.0,1008.4,7.75,38.2,73,28.2,20.1,7,0,4,1,2026-04-07T03:10:46.087825+05:30
Vadodara,Gujarat,22.3072,73.1812,25.5,73,0.0,1005.6,8.0,41.4,60,15.6,11.8,7,5,4,1,2026-04-07T03:10:46.087835+05:30
Rajkot,Gujarat,22.3039,70.8022,23.2,81,0.0,995.3,7.7,51.1,54,30.7,15.1,3,5,7,1,2026-04-07T03:10:46.087842+05:30
Thane,Maharashtra,19.2183,72.9781,25.9,73,0.0,1009.7,7.95,37.8,63,32.0,17.3,7,0,4,1,2026-04-07T03:10:46.087849+05:30
Nagpur,Maharashtra,21.1458,79.0882,24.5,51,0.0,972.2,8.75,24.8,55,21.4,17.9,0,5,7,0,2026-04-07T03:10:46.087855+05:30
Nashik,Maharashtra,19.9975,73.7898,19.6,90,0.0,946.3,8.2,38.9,52,26.0,13.7,3,10,7,1,2026-04-07T03:10:46.087861+05:30
Aurangabad,Maharashtra,19.8762,75.3433,22.4,65,0.0,944.5,8.9,36.4,54,17.8,12.7,3,5,7,0,2026-04-07T03:10:46.087867+05:30
Solapur,Maharashtra,17.6599,75.9064,24.4,61,0.0,957.5,9.0,25.2,52,17.2,15.7,3,5,7,1,2026-04-07T03:10:46.087874+05:30
Kolhapur,Maharashtra,16.705,74.2433,17.3,92,0.0,948.1,9.05,39.6,60,21.4,17.6,3,10,7,0,2026-04-07T03:10:46.087879+05:30
Goa,Goa,15.2993,74.124,25.3,78,0.0,999.4,9.0,34.2,62,29.4,20.7,7,5,7,1,2026-04-07T03:10:46.087885+05:30
Jodhpur,Rajasthan,26.2389,73.0243,20.9,71,0.0,983.4,7.9,61.9,93,146.2,25.8,3,5,7,0,2026-04-07T03:10:46.087891+05:30
Udaipur,Rajasthan,24.5854,73.7125,21.0,51,0.0,945.8,8.5,56.5,50,24.1,11.3,0,5,7,0,2026-04-07T03:10:46.087897+05:30
Kota,Rajasthan,25.2138,75.8648,23.2,51,0.0,978.9,7.15,46.1,73,75.4,38.5,0,5,7,0,2026-04-07T03:10:46.087903+05:30
Bikaner,Rajasthan,28.0229,73.3119,21.9,54,0.0,980.0,7.65,40.3,62,272.9,62.4,0,5,7,0,2026-04-07T03:10:46.087908+05:30
Ajmer,Rajasthan,26.4499,74.6399,21.6,48,0.0,953.8,7.25,54.4,60,21.1,12.5,0,5,7,0,2026-04-07T03:10:46.087914+05:30
Gwalior,Madhya Pradesh,26.2183,78.1828,20.9,73,0.0,984.4,7.25,47.5,85,300.8,53.4,3,5,7,0,2026-04-07T03:10:46.087920+05:30
Indore,Madhya Pradesh,22.7196,75.8577,20.9,59,0.0,948.0,8.4,39.6,56,20.9,16.4,0,5,7,0,2026-04-07T03:10:46.087925+05:30
Bhopal,Madhya Pradesh,23.2599,77.4126,22.4,46,0.0,953.8,8.4,38.2,52,36.7,22.9,0,5,7,0,2026-04-07T03:10:46.087931+05:30
Jabalpur,Madhya Pradesh,23.1815,79.9864,24.4,47,0.0,961.2,8.5,36.7,60,43.2,30.3,0,5,7,0,2026-04-07T03:10:46.087936+05:30
Ujjain,Madhya Pradesh,23.1765,75.7885,21.2,58,0.0,954.0,8.3,40.0,52,19.7,15.3,0,5,7,0,2026-04-07T03:10:46.087942+05:30
Visakhapatnam,Andhra Pradesh,17.6868,83.2185,26.4,92,0.0,1003.6,9.1,37.8,94,30.2,26.5,7,5,4,1,2026-04-07T03:10:46.087948+05:30
Vijayawada,Andhra Pradesh,16.5062,80.648,26.8,91,0.0,1002.5,9.2,33.1,68,21.6,19.2,7,5,4,1,2026-04-07T03:10:46.087954+05:30
Guntur,Andhra Pradesh,16.3067,80.4365,27.1,93,0.0,1003.5,9.2,29.9,78,21.4,19.2,7,5,4,1,2026-04-07T03:10:46.087960+05:30
Nellore,Andhra Pradesh,14.4426,79.9865,27.5,90,0.0,1005.3,9.3,37.8,72,20.4,17.5,7,5,4,1,2026-04-07T03:10:46.087966+05:30
Kurnool,Andhra Pradesh,15.8281,78.0373,27.5,37,0.0,976.4,9.2,25.2,70,23.5,19.2,4,5,7,0,2026-04-07T03:10:46.087972+05:30
Kakinada,Andhra Pradesh,16.9891,82.2475,26.3,93,0.0,1007.3,9.15,28.1,56,19.7,14.6,7,5,4,1,2026-04-07T03:10:46.087978+05:30
Tirupati,Andhra Pradesh,13.6288,79.4192,26.7,89,0.0,991.7,9.4,29.2,97,33.4,31.8,7,5,7,1,2026-04-07T03:10:46.087984+05:30
Warangal,Telangana,17.9689,79.5941,26.5,84,0.0,978.3,9.05,29.5,109,50.1,45.6,7,5,7,1,2026-04-07T03:10:46.087989+05:30
Nizamabad,Telangana,18.6725,78.0941,25.6,54,0.0,964.3,9.0,29.9,65,27.6,22.7,4,5,7,0,2026-04-07T03:10:46.087995+05:30
Mysore,Karnataka,12.2958,76.6396,21.7,89,0.0,928.8,9.55,38.5,61,18.0,14.8,3,5,7,1,2026-04-07T03:10:46.088001+05:30
Mangalore,Karnataka,12.9141,74.856,28.9,72,0.0,1008.0,9.15,34.6,60,31.5,18.8,7,0,4,1,2026-04-07T03:10:46.088006+05:30
Hubli-Dharwad,Karnataka,15.3647,75.124,18.7,90,0.0,940.8,9.2,36.7,46,20.4,13.2,3,10,7,1,2026-04-07T03:10:46.088012+05:30
Belgaum,Karnataka,15.8497,74.4977,17.6,88,0.0,925.4,9.25,33.5,56,22.7,17.8,3,10,7,0,2026-04-07T03:10:49.389465+05:30
Coimbatore,Tamil Nadu,11.0168,76.9558,24.4,77,0.0,962.0,9.35,56.5,67,28.3,21.2,3,5,7,1,2026-04-07T03:10:49.389496+05:30
Madurai,Tamil Nadu,9.9252,78.1198,27.4,91,0.0,992.9,8.05,31.0,83,28.5,26.7,7,5,7,1,2026-04-07T03:10:49.389509+05:30
Trichy,Tamil Nadu,10.7905,78.7047,27.0,89,0.0,999.8,9.05,30.2,86,36.4,34.5,7,5,7,1,2026-04-07T03:10:49.389518+05:30
Salem,Tamil Nadu,11.6643,78.146,27.3,77,0.0,977.7,9.45,32.0,69,25.3,21.4,7,5,7,1,2026-04-07T03:10:49.389527+05:30
Tirunelveli,Tamil Nadu,8.7139,77.7567,27.2,78,0.0,1002.9,8.75,24.1,60,28.2,21.4,7,5,4,1,2026-04-07T03:10:49.389535+05:30
Vellore,Tamil Nadu,12.9165,79.1325,26.3,85,0.0,984.8,9.45,28.8,109,39.8,38.0,7,5,7,1,2026-04-07T03:10:49.389544+05:30
Erode,Tamil Nadu,11.341,77.7172,28.0,70,0.0,989.2,9.45,38.9,66,23.9,19.0,7,5,7,1,2026-04-07T03:10:49.389552+05:30
Kochi,Kerala,9.9312,76.2673,29.1,75,0.0,1009.5,8.9,42.1,68,28.2,20.8,7,0,4,1,2026-04-07T03:10:49.389560+05:30
Thiruvananthapuram,Kerala,8.5241,76.9366,28.6,81,0.0,1008.3,8.8,52.9,60,30.3,17.9,7,0,4,1,2026-04-07T03:10:49.389568+05:30
Kozhikode,Kerala,11.2588,75.7804,28.3,78,0.0,1009.0,9.15,38.2,61,27.5,15.3,7,0,4,1,2026-04-07T03:10:49.389576+05:30
Thrissur,Kerala,10.5276,76.2144,27.2,82,0.0,1007.9,9.2,41.8,68,30.4,20.6,7,5,4,1,2026-04-07T03:10:49.389584+05:30
Kannur,Kerala,11.8745,75.3704,27.2,80,0.0,1008.5,9.15,40.3,58,25.1,15.0,7,0,4,1,2026-04-07T03:10:49.389592+05:30
Patna,Bihar,25.5941,85.1376,23.5,65,0.0,1000.7,8.2,24.5,74,39.6,31.0,3,5,4,1,2026-04-07T03:10:49.389599+05:30
Gaya,Bihar,24.7914,85.0002,22.8,75,0.0,994.6,8.3,23.4,70,34.9,26.8,3,5,7,1,2026-04-07T03:10:49.389607+05:30
Muzaffarpur,Bihar,26.1209,85.3647,22.4,68,0.0,1000.9,8.15,22.0,78,53.3,43.0,3,5,4,1,2026-04-07T03:10:49.389614+05:30
Bhagalpur,Bihar,25.2425,87.0117,22.3,78,0.0,1001.6,8.05,25.2,65,26.3,19.7,3,5,4,1,2026-04-07T03:10:49.389622+05:30
Ranchi,Jharkhand,23.3441,85.3096,20.0,84,0.0,937.8,8.9,36.0,72,32.6,23.8,3,5,7,1,2026-04-07T03:10:49.389629+05:30
Jamshedpur,Jharkhand,22.8046,86.2029,22.8,87,0.0,991.7,8.75,25.2,108,45.4,37.6,3,5,7,1,2026-04-07T03:10:49.389637+05:30
Dhanbad,Jharkhand,23.7957,86.4304,23.4,75,0.0,980.1,8.65,32.8,127,95.5,85.7,3,5,7,1,2026-04-07T03:10:49.389644+05:30
Bokaro,Jharkhand,23.6693,86.1511,22.6,79,0.0,984.4,8.65,33.1,111,75.7,65.9,3,5,7,1,2026-04-07T03:10:49.389652+05:30
Bhubaneswar,Odisha,20.2961,85.8245,24.5,95,0.0,1002.2,8.95,39.6,77,43.3,41.0,3,5,4,1,2026-04-07T03:10:49.389659+05:30
Cuttack,Odisha,20.4625,85.8828,24.2,97,0.0,1004.2,9.0,34.9,77,43.3,41.0,3,5,4,1,2026-04-07T03:10:49.389667+05:30
Rourkela,Odisha,22.2604,84.8536,21.2,87,0.0,986.5,8.7,25.2,104,46.0,39.0,3,5,7,1,2026-04-07T03:10:49.389674+05:30
Raipur,Chhattisgarh,21.2514,81.6296,24.7,75,0.0,974.4,8.8,26.3,117,63.3,54.9,3,5,7,1,2026-04-07T03:10:49.389682+05:30
Bhilai,Chhattisgarh,21.1938,81.3509,24.6,78,0.0,974.7,8.8,24.1,115,67.8,61.2,3,5,7,1,2026-04-07T03:10:49.389689+05:30
Guwahati,Assam,26.1158,91.7086,23.6,86,0.0,1001.6,6.8,29.2,98,36.1,32.4,3,5,4,1,2026-04-07T03:10:49.389696+05:30
Agartala,Tripura,23.8315,91.2868,24.3,89,0.0,1007.0,8.0,30.2,161,85.2,80.8,3,5,4,1,2026-04-07T03:10:49.389704+05:30
Shillong,Meghalaya,25.5788,91.8933,13.5,81,0.0,855.1,5.0,36.7,90,35.4,30.7,3,10,3,0,2026-04-07T03:10:49.389712+05:30
Imphal,Manipur,24.817,93.9368,18.4,77,0.0,922.8,3.6,42.5,117,54.7,49.2,3,5,3,0,2026-04-07T03:10:49.389719+05:30
Aizawl,Mizoram,23.7271,92.7176,18.8,77,0.0,891.8,5.35,52.2,130,54.0,48.8,3,5,3,0,2026-04-07T03:10:49.389727+05:30
Kohima,Nagaland,25.6701,94.1077,16.1,71,0.0,854.4,3.8,61.6,84,39.3,33.5,3,5,3,0,2026-04-07T03:10:49.389735+05:30
Gangtok,Sikkim,27.3314,88.6138,11.7,63,0.0,835.1,8.45,24.1,59,23.9,20.4,3,5,7,0,2026-04-07T03:10:49.389742+05:30
Siliguri,West Bengal,26.7271,88.3953,21.1,58,0.0,993.8,8.1,24.1,80,34.3,30.9,0,5,7,0,2026-04-07T03:10:52.695274+05:30
Durgapur,West Bengal,23.5204,87.3119,24.0,87,0.0,995.3,8.6,28.4,129,81.0,71.7,3,5,7,1,2026-04-07T03:10:52.695299+05:30
Asansol,West Bengal,23.6739,86.9524,24.9,81,0.0,993.9,8.65,14.8,121,74.0,65.7,3,5,7,1,2026-04-07T03:10:52.695309+05:30
Pondicherry,Puducherry,11.9139,79.8145,26.8,94,0.0,1008.2,8.85,26.6,69,28.0,23.4,7,0,4,1,2026-04-07T03:10:52.695316+05:30
Port Blair,Andaman and Nicobar Islands,11.6234,92.7265,28.4,73,0.0,1007.7,9.2,13.3,28,9.3,5.9,7,5,4,1,2026-04-07T03:10:52.695322+05:30
Haridwar,Uttarakhand,29.9457,78.1642,19.8,65,0.0,975.9,6.2,44.6,65,30.4,24.6,3,5,7,0,2026-04-07T03:10:52.695328+05:30
Rishikesh,Uttarakhand,30.0869,78.2676,19.6,62,0.0,968.7,6.25,31.0,52,24.7,16.8,3,5,7,0,2026-04-07T03:10:52.695334+05:30
Nainital,Uttarakhand,29.3919,79.4542,14.9,58,0.0,805.3,5.9,34.6,54,14.7,11.1,0,5,3,0,2026-04-07T03:10:52.695340+05:30
Mussoorie,Uttarakhand,30.4599,78.0664,13.1,61,0.0,801.6,6.6,38.9,59,25.9,22.5,3,5,7,0,2026-04-07T03:10:52.695346+05:30
Dharamshala,Himachal Pradesh,32.219,76.3234,16.7,53,0.0,867.6,7.4,43.2,44,5.5,4.7,0,5,7,0,2026-04-07T03:10:52.695352+05:30
Dalhousie,Himachal Pradesh,32.5387,75.971,12.8,54,0.0,801.1,5.85,43.2,60,21.9,20.3,0,5,3,0,2026-04-07T03:10:52.695358+05:30
Patiala,Punjab,30.3398,76.3869,19.4,63,0.0,979.3,5.9,47.5,109,82.9,47.4,3,5,3,0,2026-04-07T03:10:52.695364+05:30
Bhatinda,Punjab,30.211,74.9455,19.6,76,0.0,983.2,6.3,63.7,87,43.5,25.3,3,5,7,0,2026-04-07T03:10:52.695369+05:30
Rohtak,Haryana,28.8955,76.6066,19.8,69,0.0,982.2,5.0,45.4,172,115.7,40.4,3,5,3,0,2026-04-07T03:10:52.695375+05:30
Panipat,Haryana,29.3909,76.9635,19.0,71,0.0,981.2,5.85,42.8,310,258.9,51.2,3,5,3,0,2026-04-07T03:10:52.695381+05:30
Mathura,Uttar Pradesh,27.4924,77.6737,20.9,67,0.0,987.8,6.1,36.7,295,197.4,54.2,3,5,7,0,2026-04-07T03:10:52.695387+05:30
Vrindavan,Uttar Pradesh,27.5823,77.7027,19.2,73,0.0,988.1,5.7,36.0,295,197.4,54.2,3,5,3,0,2026-04-07T03:10:52.695392+05:30
Ayodhya,Uttar Pradesh,26.7922,82.1998,21.5,59,0.0,996.1,7.6,26.6,84,138.8,36.7,0,5,7,0,2026-04-07T03:10:52.695398+05:30
Ratlam,Madhya Pradesh,23.3315,75.0367,21.7,66,0.0,955.0,8.25,41.8,64,18.9,14.0,3,5,7,0,2026-04-07T03:10:52.695403+05:30
Sagar,Madhya Pradesh,23.8388,78.7378,22.9,58,0.0,950.0,8.35,33.8,52,49.8,17.8,0,5,7,0,2026-04-07T03:10:52.695409+05:30
Satna,Madhya Pradesh,24.6005,80.8322,23.4,49,0.0,971.7,8.0,18.7,73,73.8,24.7,0,5,7,0,2026-04-07T03:10:52.695415+05:30
Akola,Maharashtra,20.7002,77.0082,24.7,54,0.0,975.3,8.7,31.0,64,19.2,15.8,0,5,7,0,2026-04-07T03:10:52.695421+05:30
Amravati,Maharashtra,20.9374,77.7796,24.3,54,0.0,967.0,8.7,28.8,59,20.6,17.0,0,5,7,0,2026-04-07T03:10:52.695427+05:30
Latur,Maharashtra,18.4088,76.5604,22.1,58,0.0,939.5,9.0,27.4,59,28.3,22.8,0,5,7,0,2026-04-07T03:10:52.695433+05:30
Nanded,Maharashtra,19.1383,77.3091,23.2,61,0.0,968.3,8.85,24.8,58,28.5,23.7,3,5,7,0,2026-04-07T03:10:52.695438+05:30
Gulbarga,Karnataka,17.3297,76.8343,26.2,44,0.0,958.6,9.05,28.1,50,11.1,9.6,4,5,7,0,2026-04-07T03:10:52.695444+05:30
Bidar,Karnataka,17.9104,77.5199,24.6,43,0.0,934.9,9.05,33.1,65,27.6,22.6,0,5,7,0,2026-04-07T03:10:52.695449+05:30
Hospet,Karnataka,15.2689,76.3909,24.2,69,0.0,956.4,9.25,29.5,43,17.1,12.3,3,5,7,1,2026-04-07T03:10:52.695455+05:30
Tirupur,Tamil Nadu,11.1085,77.3411,25.6,78,0.0,975.2,9.5,47.5,71,27.4,22.5,7,5,7,1,2026-04-07T03:10:52.695461+05:30
Alappuzha,Kerala,9.4981,76.3388,29.3,74,0.0,1009.5,8.65,41.8,68,31.3,19.7,7,0,4,1,2026-04-07T03:10:52.695466+05:30
Munnar,Kerala,10.0889,77.0595,20.4,99,0.0,857.2,9.75,39.2,61,31.8,25.5,3,5,7,1,2026-04-07T03:10:52.695472+05:30
Silchar,Assam,24.8333,92.7789,24.1,82,0.0,1004.4,6.7,27.4,153,62.2,53.6,3,5,4,1,2026-04-07T03:10:52.695478+05:30
Dibrugarh,Assam,27.4728,94.912,21.6,90,0.0,996.3,5.55,25.2,86,15.0,12.1,3,5,3,1,2026-04-07T03:10:52.695483+05:30
