city,state,latitude,longitude,temp,humidity,rain,pressure,uv_index,wind_gusts,aqi,pm10,pm2_5,no2,co,o3,so2,mosquito_risk,arthritis_risk,migraine_risk,frizz_risk,updated_at
Delhi,Delhi,28.6139,77.209,39.7,18,0.0,979.3,7.7,41.4,280,258.0,62.9,3.6,304.0,175.0,15.0,0,5,10,0,2026-05-16T14:19:34.765390+05:30
Mumbai,Maharashtra,19.076,72.8777,33.2,59,0.0,1004.1,7.85,49.0,60,34.1,16.6,4.1,173.0,93.0,5.2,0,5,4,1,2026-05-16T14:19:34.765436+05:30
Bangalore,Karnataka,12.9716,77.5946,33.0,33,0.0,908.8,8.8,37.1,139,85.7,48.2,3.8,311.0,182.0,9.3,0,5,7,0,2026-05-16T14:19:34.765451+05:30
Hyderabad,Telangana,17.385,78.4867,38.0,32,0.0,949.4,9.3,29.5,150,79.4,46.9,1.7,357.0,157.0,6.8,0,5,10,1,2026-05-16T14:19:34.765461+05:30
Chennai,Tamil Nadu,13.0827,80.2707,31.2,69,0.0,1002.2,8.85,28.1,37,13.7,10.2,6.8,170.0,94.0,13.8,3,5,4,1,2026-05-16T14:19:34.765469+05:30
Kolkata,West Bengal,22.5726,88.3639,34.9,58,0.0,1000.6,9.0,37.4,60,38.8,22.8,1.7,249.0,106.0,6.0,0,5,4,1,2026-05-16T14:19:34.765476+05:30
Pune,Maharashtra,18.5204,73.8567,38.4,23,0.0,944.6,8.5,38.2,67,33.9,20.4,1.7,190.0,143.0,7.2,0,5,10,0,2026-05-16T14:19:34.765483+05:30
Ahmedabad,Gujarat,23.0225,72.5714,40.2,22,0.0,997.5,8.15,31.0,52,56.8,17.6,1.2,165.0,104.0,3.1,0,5,10,0,2026-05-16T14:19:34.765489+05:30
Jaipur,Rajasthan,26.9124,75.7873,39.8,17,0.0,956.8,8.25,24.5,158,216.5,43.8,0.9,201.0,151.0,6.7,0,5,10,0,2026-05-16T14:19:34.765514+05:30
Lucknow,Uttar Pradesh,26.8467,80.9462,39.5,23,0.0,988.6,8.2,32.0,154,264.5,66.1,0.6,265.0,190.0,16.2,0,5,10,0,2026-05-16T14:19:34.765521+05:30
Kanpur,Uttar Pradesh,26.4499,80.3319,40.0,23,0.0,987.0,8.2,32.8,152,339.9,68.0,0.8,257.0,184.0,14.4,0,5,10,0,2026-05-16T14:19:34.765527+05:30
Chandigarh,Chandigarh,30.7333,76.7794,35.7,26,0.0,965.8,7.7,38.5,85,48.9,22.8,1.5,213.0,160.0,8.9,0,5,10,0,2026-05-16T14:19:34.765536+05:30
Srinagar,Jammu and Kashmir,34.0837,74.7973,25.0,41,0.1,843.0,8.9,37.4,101,22.2,12.3,1.0,302.0,146.0,2.3,7,5,7,0,2026-05-16T14:19:34.765543+05:30
Jammu,Jammu and Kashmir,32.7266,74.857,35.5,24,0.0,970.1,8.45,25.9,97,19.7,10.9,0.9,216.0,148.0,2.0,0,5,10,0,2026-05-16T14:19:34.765549+05:30
Amritsar,Punjab,31.634,74.8723,36.9,25,0.0,977.8,8.35,23.4,130,32.0,16.6,1.4,252.0,179.0,7.7,0,5,10,0,2026-05-16T14:19:34.765555+05:30
Ludhiana,Punjab,30.901,75.8573,37.3,22,0.0,975.7,7.95,38.2,114,49.6,23.4,0.8,280.0,153.0,3.3,0,5,10,0,2026-05-16T14:19:34.765561+05:30
Jalandhar,Punjab,31.326,75.5762,36.8,23,0.0,976.9,8.15,30.2,132,47.6,21.9,0.8,303.0,166.0,4.8,0,5,10,0,2026-05-16T14:19:34.765566+05:30
Dehradun,Uttarakhand,30.6284,78.0322,24.0,41,0.1,831.2,8.1,41.4,55,34.1,13.7,0.6,193.0,140.0,2.3,3,5,7,0,2026-05-16T14:19:34.765572+05:30
Shimla,Himachal Pradesh,31.1048,77.1734,21.1,36,0.1,786.3,8.2,45.7,65,46.9,16.7,0.6,157.0,136.0,3.2,3,5,7,0,2026-05-16T14:19:34.765581+05:30
Manali,Himachal Pradesh,32.2396,77.1887,19.8,48,0.1,818.6,9.9,38.9,79,18.6,9.4,0.8,144.0,156.0,0.4,3,5,7,0,2026-05-16T14:19:34.765587+05:30
Gurgaon,Haryana,28.4595,77.0266,39.1,19,0.0,978.0,7.8,37.1,518,659.4,103.1,4.0,261.0,187.0,16.7,0,5,10,0,2026-05-16T14:19:34.765595+05:30
Noida,Uttar Pradesh,28.5355,77.391,38.8,22,0.0,980.3,7.7,29.2,518,659.4,103.1,4.0,330.0,187.0,16.7,0,5,10,0,2026-05-16T14:19:34.765600+05:30
Ghaziabad,Uttar Pradesh,28.6692,77.4538,37.7,26,0.0,978.9,7.7,34.9,167,182.5,55.1,3.2,270.0,189.0,18.8,0,5,10,0,2026-05-16T14:19:34.765606+05:30
Faridabad,Haryana,28.4089,77.3178,39.4,18,0.0,979.8,7.75,41.0,518,659.4,103.1,4.0,280.0,187.0,16.7,0,5,10,0,2026-05-16T14:19:34.765612+05:30
Meerut,Uttar Pradesh,28.9845,77.7064,37.5,25,0.0,977.9,7.6,39.6,167,182.5,55.1,3.2,263.0,189.0,18.8,0,5,10,0,2026-05-16T14:19:34.765618+05:30
Agra,Uttar Pradesh,27.1767,78.0081,40.1,20,0.0,983.5,8.05,29.5,354,451.7,73.3,0.6,272.0,169.0,8.7,0,5,10,0,2026-05-16T14:19:34.765624+05:30
Varanasi,Uttar Pradesh,25.3176,82.9739,40.3,22,0.0,991.9,8.7,36.0,157,162.5,44.5,0.7,272.0,158.0,7.6,0,5,10,0,2026-05-16T14:19:34.765630+05:30
Prayagraj,Uttar Pradesh,25.4358,81.8463,40.7,22,0.0,990.5,8.6,33.8,155,194.2,52.0,0.8,267.0,179.0,11.0,0,5,10,0,2026-05-16T14:19:34.765636+05:30
Gorakhpur,Uttar Pradesh,26.7606,83.3732,36.8,37,0.0,991.7,8.55,30.2,156,100.6,50.3,1.3,325.0,192.0,11.1,0,5,10,1,2026-05-16T14:19:34.765645+05:30
Bareilly,Uttar Pradesh,28.367,79.4304,36.1,32,0.0,982.5,8.0,31.0,152,59.6,33.1,0.8,282.0,182.0,11.1,0,5,10,1,2026-05-16T14:19:34.765651+05:30
Aligarh,Uttar Pradesh,27.8974,78.088,38.3,23,0.0,981.6,7.85,33.5,205,422.8,80.8,2.0,289.0,201.0,21.5,0,5,10,0,2026-05-16T14:19:34.765657+05:30
Moradabad,Uttar Pradesh,28.8386,78.7733,36.8,29,0.0,979.6,7.85,37.8,158,50.1,36.4,1.5,277.0,196.0,14.2,0,5,10,0,2026-05-16T14:19:34.765663+05:30
Saharanpur,Uttar Pradesh,29.9637,77.546,35.6,28,0.0,972.2,7.4,36.7,130,65.7,36.9,1.6,246.0,192.0,14.4,0,5,10,0,2026-05-16T14:19:34.765669+05:30
Jhansi,Uttar Pradesh,25.4484,78.5685,40.7,19,0.0,973.9,8.5,25.6,92,73.3,23.5,0.9,197.0,144.0,8.2,0,5,10,0,2026-05-16T14:19:38.061217+05:30
Surat,Gujarat,21.1702,72.8311,39.3,22,0.0,1002.1,7.75,36.7,72,77.5,41.2,17.0,164.0,117.0,59.2,0,5,7,0,2026-05-16T14:19:38.061251+05:30
Vadodara,Gujarat,22.3072,73.1812,40.5,21,0.0,999.3,8.1,36.0,57,60.8,24.7,1.9,175.0,133.0,8.4,0,5,10,0,2026-05-16T14:19:38.061261+05:30
Rajkot,Gujarat,22.3039,70.8022,40.0,21,0.0,990.3,7.75,42.1,51,55.4,16.5,0.9,126.0,102.0,4.4,0,5,10,0,2026-05-16T14:19:38.061271+05:30
Thane,Maharashtra,19.2183,72.9781,36.1,51,0.0,1003.0,7.9,42.8,60,34.1,16.6,4.1,148.0,93.0,5.2,0,5,7,1,2026-05-16T14:19:38.061279+05:30
Nagpur,Maharashtra,21.1458,79.0882,43.0,15,0.0,967.7,8.95,37.4,91,70.5,35.4,5.0,223.0,184.0,22.0,0,5,10,0,2026-05-16T14:19:38.061287+05:30
Nashik,Maharashtra,19.9975,73.7898,37.7,29,0.0,942.6,8.2,36.7,44,26.3,14.2,0.9,141.0,105.0,2.4,0,5,10,1,2026-05-16T14:19:38.061293+05:30
Aurangabad,Maharashtra,19.8762,75.3433,38.8,20,0.0,941.0,9.1,37.8,53,25.0,14.4,0.9,157.0,119.0,3.3,0,5,10,0,2026-05-16T14:19:38.061300+05:30
Solapur,Maharashtra,17.6599,75.9064,40.3,18,0.0,952.9,8.65,29.2,78,27.1,18.8,1.3,170.0,159.0,6.8,0,5,10,0,2026-05-16T14:19:38.061307+05:30
Kolhapur,Maharashtra,16.705,74.2433,37.0,25,0.0,944.3,8.75,46.1,65,36.3,21.8,1.8,204.0,153.0,5.7,0,5,10,0,2026-05-16T14:19:38.061314+05:30
Goa,Goa,15.2993,74.124,35.3,50,0.0,993.6,8.9,36.0,66,24.2,15.4,0.6,127.0,74.0,1.1,0,5,10,1,2026-05-16T14:19:38.061322+05:30
Jodhpur,Rajasthan,26.2389,73.0243,40.6,19,0.0,979.0,8.4,33.8,117,172.8,33.8,0.5,140.0,110.0,2.5,0,5,10,0,2026-05-16T14:19:38.061328+05:30
Udaipur,Rajasthan,24.5854,73.7125,37.4,20,0.0,943.8,8.85,33.1,49,49.0,15.8,0.4,127.0,100.0,2.6,0,5,10,0,2026-05-16T14:19:38.061335+05:30
Kota,Rajasthan,25.2138,75.8648,42.0,15,0.0,974.0,8.45,36.4,63,100.4,24.0,0.6,135.0,120.0,4.3,0,5,10,0,2026-05-16T14:19:38.061360+05:30
Bikaner,Rajasthan,28.0229,73.3119,41.2,15,0.0,978.1,8.4,27.4,96,260.8,48.9,0.2,154.0,111.0,3.3,0,5,10,0,2026-05-16T14:19:38.061367+05:30
Ajmer,Rajasthan,26.4499,74.6399,38.4,18,0.0,951.8,8.4,24.8,74,129.0,31.5,0.5,142.0,115.0,2.7,0,5,10,0,2026-05-16T14:19:38.061375+05:30
Gwalior,Madhya Pradesh,26.2183,78.1828,41.0,17,0.0,978.8,8.25,34.6,113,120.1,30.0,0.4,180.0,138.0,5.3,0,5,10,0,2026-05-16T14:19:38.061382+05:30
Indore,Madhya Pradesh,22.7196,75.8577,39.3,17,0.0,945.2,8.7,36.0,48,27.9,13.3,0.8,168.0,126.0,2.9,0,5,10,0,2026-05-16T14:19:38.061388+05:30
Bhopal,Madhya Pradesh,23.2599,77.4126,41.0,15,0.0,949.8,8.7,40.7,58,49.1,18.6,0.7,164.0,131.0,4.8,0,5,10,0,2026-05-16T14:19:38.061395+05:30
Jabalpur,Madhya Pradesh,23.1815,79.9864,41.1,18,0.0,957.1,8.85,33.5,106,56.9,23.6,0.6,176.0,141.0,5.6,0,5,10,0,2026-05-16T14:19:38.061401+05:30
Ujjain,Madhya Pradesh,23.1765,75.7885,39.7,15,0.0,950.5,8.65,39.2,48,28.3,13.0,0.5,142.0,119.0,2.5,0,5,10,0,2026-05-16T14:19:38.061409+05:30
Visakhapatnam,Andhra Pradesh,17.6868,83.2185,33.5,59,0.0,999.5,9.15,40.7,63,24.6,16.3,7.9,237.0,88.0,28.4,0,5,7,1,2026-05-16T14:19:38.061416+05:30
Vijayawada,Andhra Pradesh,16.5062,80.648,35.9,49,0.1,997.7,8.85,36.0,66,30.2,18.7,2.0,183.0,107.0,5.6,3,5,10,1,2026-05-16T14:19:38.061423+05:30
Guntur,Andhra Pradesh,16.3067,80.4365,36.6,47,0.1,998.8,8.9,34.9,70,34.5,20.0,1.7,268.0,107.0,3.8,3,5,10,1,2026-05-16T14:19:38.061430+05:30
Nellore,Andhra Pradesh,14.4426,79.9865,36.5,46,0.0,1000.5,7.65,36.4,38,20.9,13.1,1.5,133.0,113.0,4.3,0,5,7,1,2026-05-16T14:19:38.061438+05:30
Kurnool,Andhra Pradesh,15.8281,78.0373,38.9,32,0.0,972.1,8.25,31.3,123,70.8,38.0,1.1,217.0,141.0,7.4,0,5,10,1,2026-05-16T14:19:38.061446+05:30
Kakinada,Andhra Pradesh,16.9891,82.2475,35.5,52,0.0,1002.8,9.15,37.4,37,13.9,8.8,0.7,152.0,82.0,1.1,0,5,7,1,2026-05-16T14:19:38.061453+05:30
Tirupati,Andhra Pradesh,13.6288,79.4192,35.2,43,0.0,986.0,9.25,32.8,52,22.9,12.6,2.0,159.0,130.0,8.6,0,5,10,1,2026-05-16T14:19:38.061459+05:30
Warangal,Telangana,17.9689,79.5941,37.5,39,0.0,974.3,9.1,35.6,126,48.3,30.2,2.1,212.0,112.0,6.7,0,5,10,1,2026-05-16T14:19:38.061465+05:30
Nizamabad,Telangana,18.6725,78.0941,39.6,20,0.0,960.4,9.0,30.2,124,16.6,13.1,0.8,170.0,156.0,6.0,0,5,10,0,2026-05-16T14:19:38.061472+05:30
Mysore,Karnataka,12.2958,76.6396,29.8,57,0.0,925.1,8.0,37.1,98,62.4,37.7,2.7,255.0,165.0,5.5,4,5,7,1,2026-05-16T14:19:38.061480+05:30
Mangalore,Karnataka,12.9141,74.856,29.6,78,0.0,1002.8,7.7,38.2,63,28.4,18.3,1.1,153.0,79.0,1.3,7,5,4,1,2026-05-16T14:19:38.061487+05:30
Hubli-Dharwad,Karnataka,15.3647,75.124,34.8,35,0.0,937.4,8.2,43.9,73,28.1,18.3,1.5,205.0,149.0,3.6,0,5,7,1,2026-05-16T14:19:38.061494+05:30
Belgaum,Karnataka,15.8497,74.4977,35.7,24,0.0,923.1,9.2,42.8,67,32.4,19.0,1.5,194.0,133.0,4.2,0,5,10,0,2026-05-16T14:19:41.359904+05:30
Coimbatore,Tamil Nadu,11.0168,76.9558,31.0,56,0.0,957.3,9.05,34.6,81,57.2,30.7,2.0,232.0,135.0,5.6,0,5,7,1,2026-05-16T14:19:41.359938+05:30
Madurai,Tamil Nadu,9.9252,78.1198,34.3,43,0.0,987.4,8.75,24.5,84,61.9,31.3,2.0,235.0,168.0,5.1,0,5,7,1,2026-05-16T14:19:41.359949+05:30
Trichy,Tamil Nadu,10.7905,78.7047,33.7,48,0.0,994.0,2.7,34.9,84,48.3,28.2,3.4,254.0,148.0,7.3,0,5,3,1,2026-05-16T14:19:41.359958+05:30
Salem,Tamil Nadu,11.6643,78.146,33.3,45,0.0,972.5,8.95,28.4,129,78.5,42.0,5.9,319.0,179.0,21.8,0,5,7,1,2026-05-16T14:19:41.359967+05:30
Tirunelveli,Tamil Nadu,8.7139,77.7567,37.0,30,0.0,997.1,8.3,31.7,52,33.3,16.4,0.9,212.0,121.0,2.0,0,5,10,1,2026-05-16T14:19:41.359974+05:30
Vellore,Tamil Nadu,12.9165,79.1325,34.0,45,0.0,979.4,9.25,24.5,90,34.8,16.4,0.9,272.0,115.0,4.9,0,5,7,1,2026-05-16T14:19:41.359982+05:30
Erode,Tamil Nadu,11.341,77.7172,33.8,46,0.0,983.9,6.85,23.8,91,68.5,36.3,3.5,277.0,160.0,6.3,0,5,7,1,2026-05-16T14:19:41.359989+05:30
Kochi,Kerala,9.9312,76.2673,29.6,76,0.0,1004.4,7.3,32.0,65,18.9,12.7,2.8,231.0,124.0,4.7,7,5,4,1,2026-05-16T14:19:41.359997+05:30
Thiruvananthapuram,Kerala,8.5241,76.9366,28.0,81,0.2,1003.9,7.25,36.0,52,22.3,13.1,1.0,169.0,113.0,1.4,10,5,4,1,2026-05-16T14:19:41.360004+05:30
Kozhikode,Kerala,11.2588,75.7804,30.5,71,0.0,1003.6,8.3,42.1,64,15.8,8.8,0.6,190.0,102.0,1.1,3,5,4,1,2026-05-16T14:19:41.360012+05:30
Thrissur,Kerala,10.5276,76.2144,30.2,71,0.0,1002.6,8.7,33.8,67,15.7,11.0,1.9,230.0,112.0,3.1,3,5,4,1,2026-05-16T14:19:41.360019+05:30
Kannur,Kerala,11.8745,75.3704,29.0,80,0.0,1003.2,8.7,39.6,67,23.2,14.8,1.5,194.0,95.0,1.8,7,5,4,1,2026-05-16T14:19:41.360026+05:30
Patna,Bihar,25.5941,85.1376,36.5,42,0.0,994.7,8.8,24.8,147,89.9,53.7,1.1,352.0,200.0,13.5,0,5,10,1,2026-05-16T14:19:41.360033+05:30
Gaya,Bihar,24.7914,85.0002,38.2,29,0.0,988.4,8.85,33.5,153,107.6,40.0,0.6,309.0,171.0,8.8,0,5,10,1,2026-05-16T14:19:41.360040+05:30
Muzaffarpur,Bihar,26.1209,85.3647,34.8,51,0.0,995.1,8.8,30.6,150,80.3,56.0,1.3,351.0,203.0,14.4,0,5,7,1,2026-05-16T14:19:41.360046+05:30
Bhagalpur,Bihar,25.2425,87.0117,34.3,54,0.0,995.9,8.8,29.9,134,77.5,56.5,3.8,350.0,205.0,24.2,0,5,7,1,2026-05-16T14:19:41.360053+05:30
Ranchi,Jharkhand,23.3441,85.3096,35.5,26,0.0,934.4,9.3,38.5,151,78.2,41.0,0.8,228.0,159.0,12.3,0,5,10,0,2026-05-16T14:19:41.360059+05:30
Jamshedpur,Jharkhand,22.8046,86.2029,38.0,32,0.0,985.5,9.15,35.3,133,82.0,56.9,2.1,243.0,202.0,23.4,0,5,10,1,2026-05-16T14:19:41.360066+05:30
Dhanbad,Jharkhand,23.7957,86.4304,37.2,30,0.0,974.7,9.05,24.5,162,112.2,66.1,5.0,310.0,211.0,33.7,0,5,10,1,2026-05-16T14:19:41.360073+05:30
Bokaro,Jharkhand,23.6693,86.1511,37.2,33,0.0,978.4,9.1,26.3,158,97.3,47.8,6.1,319.0,185.0,32.4,0,5,10,1,2026-05-16T14:19:41.360079+05:30
Bhubaneswar,Odisha,20.2961,85.8245,36.5,47,0.0,997.6,9.2,44.6,47,26.5,13.2,1.2,175.0,82.0,3.0,0,5,10,1,2026-05-16T14:19:41.360086+05:30
Cuttack,Odisha,20.4625,85.8828,36.9,47,0.0,999.1,9.25,43.6,47,26.5,13.2,1.2,187.0,82.0,3.0,0,5,10,1,2026-05-16T14:19:41.360093+05:30
Rourkela,Odisha,22.2604,84.8536,38.0,39,0.0,979.7,8.55,30.6,152,68.5,46.9,1.2,252.0,184.0,13.3,0,5,10,1,2026-05-16T14:19:41.360099+05:30
Raipur,Chhattisgarh,21.2514,81.6296,40.2,26,0.0,969.8,9.05,50.4,157,88.5,58.6,4.0,384.0,195.0,26.7,0,5,10,1,2026-05-16T14:19:41.360106+05:30
Bhilai,Chhattisgarh,21.1938,81.3509,39.8,28,0.0,970.2,9.05,52.9,155,81.0,53.6,4.5,503.0,182.0,28.1,0,5,10,1,2026-05-16T14:19:41.360112+05:30
Guwahati,Assam,26.1158,91.7086,28.5,73,0.1,996.4,6.9,31.7,85,18.7,14.5,1.0,257.0,127.0,2.3,10,5,7,1,2026-05-16T14:19:41.360119+05:30
Agartala,Tripura,23.8315,91.2868,28.7,86,0.1,1001.7,6.8,34.2,70,39.0,21.0,3.1,187.0,121.0,2.3,10,5,4,1,2026-05-16T14:19:41.360126+05:30
Shillong,Meghalaya,25.5788,91.8933,21.3,91,0.1,854.1,8.1,43.9,46,9.0,5.9,1.3,242.0,110.0,3.0,6,5,7,1,2026-05-16T14:19:41.360133+05:30
Imphal,Manipur,24.817,93.9368,29.0,55,0.0,919.7,8.75,28.8,83,32.9,17.1,0.5,182.0,109.0,3.1,4,5,7,1,2026-05-16T14:19:41.360140+05:30
Aizawl,Mizoram,23.7271,92.7176,25.5,65,0.0,889.5,9.15,43.6,57,35.7,15.7,0.4,158.0,99.0,2.2,7,5,7,1,2026-05-16T14:19:41.360146+05:30
Kohima,Nagaland,25.6701,94.1077,21.6,87,0.0,852.4,9.2,29.2,58,24.1,14.1,0.6,224.0,109.0,2.5,3,5,7,1,2026-05-16T14:19:41.360152+05:30
Gangtok,Sikkim,27.3314,88.6138,18.4,86,0.1,834.1,9.1,37.4,82,17.8,13.0,0.8,279.0,140.0,3.2,6,10,7,0,2026-05-16T14:19:41.360159+05:30
Siliguri,West Bengal,26.7271,88.3953,28.6,72,0.2,988.2,8.65,24.1,105,38.8,28.0,1.5,325.0,147.0,4.8,10,5,7,1,2026-05-16T14:19:44.644021+05:30
Durgapur,West Bengal,23.5204,87.3119,36.8,44,0.0,989.6,9.05,32.8,145,104.8,87.1,12.1,508.0,253.0,64.1,0,5,10,1,2026-05-16T14:19:44.644056+05:30
Asansol,West Bengal,23.6739,86.9524,37.7,35,0.0,988.0,9.05,27.4,153,114.1,82.0,8.4,476.0,236.0,46.5,0,5,10,1,2026-05-16T14:19:44.644066+05:30
Pondicherry,Puducherry,11.9139,79.8145,29.7,81,0.1,1003.5,9.05,30.2,79,29.5,22.9,3.1,208.0,143.0,11.8,10,5,4,1,2026-05-16T14:19:44.644075+05:30
Port Blair,Andaman and Nicobar Islands,11.6234,92.7265,28.2,83,0.1,1004.5,5.6,41.4,28,9.4,5.8,0.3,131.0,56.0,0.2,10,5,0,1,2026-05-16T14:19:44.644083+05:30
Haridwar,Uttarakhand,29.9457,78.1642,35.2,30,0.0,970.5,7.5,34.2,90,40.6,25.8,1.1,249.0,173.0,8.4,0,5,10,0,2026-05-16T14:19:44.644091+05:30
Rishikesh,Uttarakhand,30.0869,78.2676,34.7,30,0.0,963.2,7.6,29.9,81,38.5,19.3,0.6,216.0,149.0,3.8,0,5,7,0,2026-05-16T14:19:44.644098+05:30
Nainital,Uttarakhand,29.3919,79.4542,22.4,42,0.0,806.3,8.45,38.2,88,40.4,23.1,1.2,199.0,169.0,9.5,0,5,7,0,2026-05-16T14:19:44.644105+05:30
Mussoorie,Uttarakhand,30.4599,78.0664,21.4,45,0.0,803.8,8.0,47.5,75,35.6,21.4,1.0,190.0,169.0,6.8,0,5,7,0,2026-05-16T14:19:44.644112+05:30
Dharamshala,Himachal Pradesh,32.219,76.3234,24.9,44,0.1,869.3,8.35,40.3,54,31.7,12.0,0.3,175.0,132.0,0.8,3,5,7,0,2026-05-16T14:19:44.644118+05:30
Dalhousie,Himachal Pradesh,32.5387,75.971,21.9,39,0.0,806.4,8.6,40.7,73,27.0,13.0,0.9,163.0,144.0,1.4,0,5,7,0,2026-05-16T14:19:44.644125+05:30
Patiala,Punjab,30.3398,76.3869,37.7,21,0.0,974.8,7.6,38.2,210,512.2,71.9,0.9,232.0,156.0,5.7,0,5,10,0,2026-05-16T14:19:44.644133+05:30
Bhatinda,Punjab,30.211,74.9455,38.4,19,0.0,980.6,8.25,32.4,114,74.0,24.9,1.7,279.0,161.0,11.2,0,5,10,0,2026-05-16T14:19:44.644140+05:30
Rohtak,Haryana,28.8955,76.6066,38.8,21,0.0,978.1,7.75,40.7,421,356.7,65.9,0.8,250.0,156.0,6.1,0,5,10,0,2026-05-16T14:19:44.644147+05:30
Panipat,Haryana,29.3909,76.9635,38.0,22,0.0,976.6,7.55,40.0,730,976.0,123.9,2.0,232.0,155.0,11.9,0,5,10,0,2026-05-16T14:19:44.644154+05:30
Mathura,Uttar Pradesh,27.4924,77.6737,39.5,20,0.0,982.7,8.0,29.5,379,407.0,69.8,0.7,249.0,162.0,9.6,0,5,10,0,2026-05-16T14:19:44.644161+05:30
Vrindavan,Uttar Pradesh,27.5823,77.7027,39.2,21,0.0,983.1,7.95,28.4,379,407.0,69.8,0.7,245.0,162.0,9.6,0,5,10,0,2026-05-16T14:19:44.644168+05:30
Ayodhya,Uttar Pradesh,26.7922,82.1998,37.5,33,0.0,990.1,8.35,29.9,160,172.8,53.8,0.7,310.0,179.0,9.9,0,5,10,1,2026-05-16T14:19:44.644175+05:30
Ratlam,Madhya Pradesh,23.3315,75.0367,38.0,21,0.0,951.9,8.55,34.9,49,32.8,14.3,0.3,131.0,115.0,2.3,0,5,10,0,2026-05-16T14:19:44.644182+05:30
Sagar,Madhya Pradesh,23.8388,78.7378,40.8,16,0.0,946.6,8.75,36.0,83,44.2,16.8,0.5,215.0,135.0,4.1,0,5,10,0,2026-05-16T14:19:44.644190+05:30
Satna,Madhya Pradesh,24.6005,80.8322,40.0,18,0.0,967.4,8.75,32.8,115,66.1,21.5,0.4,182.0,128.0,3.3,0,5,10,0,2026-05-16T14:19:44.644197+05:30
Akola,Maharashtra,20.7002,77.0082,42.6,15,0.0,969.9,8.15,43.2,55,25.3,12.3,1.3,165.0,133.0,6.0,0,5,10,0,2026-05-16T14:19:44.644205+05:30
Amravati,Maharashtra,20.9374,77.7796,42.8,12,0.0,962.2,8.9,38.9,60,27.5,13.0,1.5,175.0,136.0,7.0,0,5,10,0,2026-05-16T14:19:44.644213+05:30
Latur,Maharashtra,18.4088,76.5604,39.1,19,0.0,936.7,8.7,36.4,74,22.1,15.1,1.2,162.0,154.0,7.4,0,5,10,0,2026-05-16T14:19:44.644220+05:30
Nanded,Maharashtra,19.1383,77.3091,41.1,18,0.0,964.1,8.4,28.1,80,21.9,15.1,1.2,166.0,152.0,7.2,0,5,10,0,2026-05-16T14:19:44.644227+05:30
Gulbarga,Karnataka,17.3297,76.8343,39.4,20,0.0,954.4,8.2,35.6,118,56.5,36.1,2.3,182.0,166.0,11.0,0,5,10,0,2026-05-16T14:19:44.644233+05:30
Bidar,Karnataka,17.9104,77.5199,37.7,21,0.0,932.5,9.1,30.2,129,29.5,20.2,1.5,187.0,156.0,6.0,0,5,10,0,2026-05-16T14:19:44.644240+05:30
Hospet,Karnataka,15.2689,76.3909,35.3,36,0.0,951.6,8.0,36.7,88,33.2,23.5,2.2,247.0,159.0,7.9,0,5,10,1,2026-05-16T14:19:44.644246+05:30
Tirupur,Tamil Nadu,11.1085,77.3411,34.4,40,0.0,970.4,6.85,33.1,94,61.7,33.8,3.1,244.0,154.0,6.2,0,5,7,1,2026-05-16T14:19:44.644253+05:30
Alappuzha,Kerala,9.4981,76.3388,26.0,93,0.3,1005.0,8.55,32.8,61,19.2,12.2,1.9,155.0,129.0,3.4,10,5,4,1,2026-05-16T14:19:44.644260+05:30
Munnar,Kerala,10.0889,77.0595,20.2,85,0.0,853.9,4.6,23.8,60,44.1,19.5,1.1,203.0,111.0,2.7,3,5,3,1,2026-05-16T14:19:44.644267+05:30
Silchar,Assam,24.8333,92.7789,27.8,89,1.0,1000.8,8.75,25.6,75,25.9,12.9,1.1,175.0,102.0,3.4,10,5,4,1,2026-05-16T14:19:44.644273+05:30
Dibrugarh,Assam,27.4728,94.912,29.5,61,0.0,991.1,8.9,26.3,98,34.9,21.6,0.5,209.0,133.0,2.0,7,5,7,1,2026-05-16T14:19:44.644280+05:30
