city,state,latitude,longitude,temp,humidity,rain,pressure,uv_index,wind_gusts,aqi,pm10,pm2_5,mosquito_risk,arthritis_risk,migraine_risk,frizz_risk,updated_at
Delhi,Delhi,28.6139,77.209,20.1,74,0.0,986.2,6.9,35.6,138,294.3,58.1,3,5,7,0,2026-04-08T20:43:06.813836+05:30
Mumbai,Maharashtra,19.076,72.8777,28.6,77,0.0,1009.5,7.9,20.2,77,62.6,18.5,7,0,4,1,2026-04-08T20:43:06.813869+05:30
Bangalore,Karnataka,12.9716,77.5946,29.3,31,0.0,912.4,9.6,26.6,164,46.1,44.5,4,5,7,0,2026-04-08T20:43:06.813883+05:30
Hyderabad,Telangana,17.385,78.4867,32.6,34,0.0,953.0,9.15,23.4,92,89.9,49.9,0,5,7,0,2026-04-08T20:43:06.813892+05:30
Chennai,Tamil Nadu,13.0827,80.2707,29.4,83,0.0,1007.8,9.35,35.6,77,28.0,22.1,7,5,4,1,2026-04-08T20:43:06.813900+05:30
Kolkata,West Bengal,22.5726,88.3639,25.6,85,0.0,1008.0,8.7,24.8,86,29.6,27.4,7,0,4,1,2026-04-08T20:43:06.813907+05:30
Pune,Maharashtra,18.5204,73.8567,25.9,76,0.0,949.5,8.5,41.0,75,52.3,21.2,7,5,7,1,2026-04-08T20:43:06.813918+05:30
Ahmedabad,Gujarat,23.0225,72.5714,30.5,26,0.0,1001.2,8.0,31.3,68,43.4,26.7,0,5,4,0,2026-04-08T20:43:06.813925+05:30
Jaipur,Rajasthan,26.9124,75.7873,25.1,44,0.0,960.4,7.65,35.6,114,171.8,37.5,4,5,7,0,2026-04-08T20:43:06.813931+05:30
Lucknow,Uttar Pradesh,26.8467,80.9462,20.9,81,0.0,997.6,6.95,41.0,97,58.7,40.4,3,5,7,1,2026-04-08T20:43:06.813938+05:30
Kanpur,Uttar Pradesh,26.4499,80.3319,20.8,80,0.0,995.4,7.45,35.3,118,461.9,70.3,3,5,7,1,2026-04-08T20:43:06.813944+05:30
Chandigarh,Chandigarh,30.7333,76.7794,17.9,87,0.0,972.0,6.85,30.6,83,39.7,28.9,3,10,7,0,2026-04-08T20:43:06.813950+05:30
Srinagar,Jammu and Kashmir,34.0837,74.7973,7.8,88,0.0,838.1,1.3,16.6,79,18.9,18.6,3,10,3,0,2026-04-08T20:43:06.813957+05:30
Jammu,Jammu and Kashmir,32.7266,74.857,17.3,88,0.0,975.6,7.3,27.7,89,33.3,27.0,3,10,7,0,2026-04-08T20:43:06.813963+05:30
Amritsar,Punjab,31.634,74.8723,17.3,88,0.0,984.0,7.45,18.0,107,37.0,26.4,3,10,7,0,2026-04-08T20:43:06.813969+05:30
Ludhiana,Punjab,30.901,75.8573,17.2,85,0.0,982.6,6.95,23.8,88,53.0,36.1,3,10,7,0,2026-04-08T20:43:06.813975+05:30
Jalandhar,Punjab,31.326,75.5762,17.1,85,0.0,983.4,7.05,22.7,94,42.7,27.6,3,10,7,0,2026-04-08T20:43:06.813982+05:30
Dehradun,Uttarakhand,30.6284,78.0322,8.6,87,0.0,827.9,6.1,42.5,86,6.4,4.3,3,10,7,0,2026-04-08T20:43:06.813989+05:30
Shimla,Himachal Pradesh,31.1048,77.1734,6.9,91,0.0,780.9,1.2,41.0,84,7.7,6.5,3,10,3,0,2026-04-08T20:43:06.813994+05:30
Manali,Himachal Pradesh,32.2396,77.1887,9.5,97,0.0,814.9,5.45,29.9,123,5.1,5.0,3,10,3,0,2026-04-08T20:43:06.814000+05:30
Gurgaon,Haryana,28.4595,77.0266,20.7,70,0.0,984.0,7.05,27.7,430,1844.0,202.1,3,5,7,0,2026-04-08T20:43:06.814006+05:30
Noida,Uttar Pradesh,28.5355,77.391,19.9,76,0.0,987.7,6.95,36.7,430,1844.0,202.1,3,5,7,0,2026-04-08T20:43:06.814011+05:30
Ghaziabad,Uttar Pradesh,28.6692,77.4538,19.0,81,0.0,985.9,6.9,34.9,113,56.6,36.8,3,10,7,0,2026-04-08T20:43:06.814017+05:30
Faridabad,Haryana,28.4089,77.3178,20.3,77,0.0,986.7,7.0,30.2,430,1844.0,202.1,3,5,7,1,2026-04-08T20:43:06.814022+05:30
Meerut,Uttar Pradesh,28.9845,77.7064,18.2,88,0.0,984.9,6.7,30.2,113,56.6,36.8,3,10,7,1,2026-04-08T20:43:06.814028+05:30
Agra,Uttar Pradesh,27.1767,78.0081,22.9,65,0.0,989.9,7.35,29.5,356,1639.1,165.3,3,5,7,0,2026-04-08T20:43:06.814034+05:30
Varanasi,Uttar Pradesh,25.3176,82.9739,24.6,62,0.0,1000.4,7.3,36.7,126,46.7,33.8,3,5,4,1,2026-04-08T20:43:06.814042+05:30
Prayagraj,Uttar Pradesh,25.4358,81.8463,24.5,64,0.0,998.6,8.0,33.8,135,45.4,30.5,3,5,7,1,2026-04-08T20:43:06.814048+05:30
Gorakhpur,Uttar Pradesh,26.7606,83.3732,20.0,76,0.0,1001.6,7.4,38.5,95,58.8,47.4,3,5,4,0,2026-04-08T20:43:06.814054+05:30
Bareilly,Uttar Pradesh,28.367,79.4304,18.6,89,0.0,991.0,7.15,31.7,95,63.3,37.4,3,10,7,1,2026-04-08T20:43:06.814060+05:30
Aligarh,Uttar Pradesh,27.8974,78.088,20.9,73,0.0,988.3,7.1,25.9,172,584.9,74.0,3,5,7,0,2026-04-08T20:43:06.814065+05:30
Moradabad,Uttar Pradesh,28.8386,78.7733,18.4,90,0.0,987.6,6.95,27.4,101,66.8,47.4,3,10,7,1,2026-04-08T20:43:06.814071+05:30
Saharanpur,Uttar Pradesh,29.9637,77.546,17.2,89,0.0,979.3,6.2,29.9,87,64.5,49.7,3,10,7,0,2026-04-08T20:43:06.814078+05:30
Jhansi,Uttar Pradesh,25.4484,78.5685,25.8,31,0.0,979.3,7.95,42.8,90,50.9,18.0,4,5,7,0,2026-04-08T20:43:10.031527+05:30
Surat,Gujarat,21.1702,72.8311,27.4,82,0.0,1007.0,7.7,38.5,68,43.9,20.0,7,5,4,1,2026-04-08T20:43:10.031547+05:30
Vadodara,Gujarat,22.3072,73.1812,28.6,63,0.0,1003.6,7.95,38.5,64,48.0,26.8,7,5,4,1,2026-04-08T20:43:10.031556+05:30
Rajkot,Gujarat,22.3039,70.8022,28.4,44,0.0,993.9,7.7,38.9,95,17.6,12.2,4,5,7,0,2026-04-08T20:43:10.031563+05:30
Thane,Maharashtra,19.2183,72.9781,28.0,75,0.0,1008.9,7.9,36.0,77,62.6,18.5,7,0,4,1,2026-04-08T20:43:10.031570+05:30
Nagpur,Maharashtra,21.1458,79.0882,28.1,53,0.0,972.3,8.7,37.8,84,63.6,30.5,4,5,7,1,2026-04-08T20:43:10.031576+05:30
Nashik,Maharashtra,19.9975,73.7898,24.5,77,0.0,946.4,8.2,42.1,65,39.6,15.0,3,5,7,1,2026-04-08T20:43:10.031582+05:30
Aurangabad,Maharashtra,19.8762,75.3433,28.2,32,0.0,944.4,8.85,46.1,63,41.2,19.4,4,5,7,0,2026-04-08T20:43:10.031588+05:30
Solapur,Maharashtra,17.6599,75.9064,32.5,27,0.0,956.5,8.95,29.9,73,45.4,21.7,0,5,7,0,2026-04-08T20:43:10.031594+05:30
Kolhapur,Maharashtra,16.705,74.2433,24.9,62,0.0,948.8,8.95,43.9,74,53.6,27.1,3,5,7,1,2026-04-08T20:43:10.031600+05:30
Goa,Goa,15.2993,74.124,27.9,78,0.0,999.2,9.0,38.5,66,59.6,20.6,7,5,7,1,2026-04-08T20:43:10.031606+05:30
Jodhpur,Rajasthan,26.2389,73.0243,26.3,47,0.0,982.8,7.9,29.2,101,191.9,44.1,4,5,7,0,2026-04-08T20:43:10.031612+05:30
Udaipur,Rajasthan,24.5854,73.7125,24.8,39,0.0,946.4,8.5,36.0,91,46.9,16.9,0,5,7,0,2026-04-08T20:43:10.031617+05:30
Kota,Rajasthan,25.2138,75.8648,26.4,41,0.0,979.2,7.95,34.2,104,140.6,49.4,4,5,7,0,2026-04-08T20:43:10.031623+05:30
Bikaner,Rajasthan,28.0229,73.3119,26.8,27,0.0,982.8,7.7,30.2,83,84.5,20.8,4,5,7,0,2026-04-08T20:43:10.031629+05:30
Ajmer,Rajasthan,26.4499,74.6399,24.6,44,0.0,954.9,7.85,34.9,98,88.0,26.8,0,5,7,0,2026-04-08T20:43:10.031634+05:30
Gwalior,Madhya Pradesh,26.2183,78.1828,25.2,54,0.0,984.7,7.65,35.6,88,98.3,29.6,4,5,7,0,2026-04-08T20:43:10.031640+05:30
Indore,Madhya Pradesh,22.7196,75.8577,24.6,46,0.0,947.8,8.4,50.0,73,41.6,24.0,0,5,7,0,2026-04-08T20:43:10.031646+05:30
Bhopal,Madhya Pradesh,23.2599,77.4126,27.2,35,0.0,953.7,8.4,53.6,73,31.5,20.0,4,5,7,0,2026-04-08T20:43:10.031651+05:30
Jabalpur,Madhya Pradesh,23.1815,79.9864,27.9,51,0.0,961.7,8.5,46.8,96,75.0,40.5,4,5,7,1,2026-04-08T20:43:10.031656+05:30
Ujjain,Madhya Pradesh,23.1765,75.7885,25.0,46,0.0,953.7,8.3,45.4,67,38.3,23.6,4,5,7,0,2026-04-08T20:43:10.031662+05:30
Visakhapatnam,Andhra Pradesh,17.6868,83.2185,28.0,87,0.0,1004.5,9.1,37.8,80,32.6,29.7,7,5,4,1,2026-04-08T20:43:10.031668+05:30
Vijayawada,Andhra Pradesh,16.5062,80.648,30.8,67,0.0,1002.5,9.15,26.6,128,42.5,40.2,3,5,4,1,2026-04-08T20:43:10.031673+05:30
Guntur,Andhra Pradesh,16.3067,80.4365,29.0,81,0.0,1003.9,9.15,27.7,142,41.2,39.0,7,5,4,1,2026-04-08T20:43:10.031679+05:30
Nellore,Andhra Pradesh,14.4426,79.9865,29.1,83,0.0,1006.1,9.25,35.6,142,31.2,27.4,7,5,4,1,2026-04-08T20:43:10.031685+05:30
Kurnool,Andhra Pradesh,15.8281,78.0373,33.5,27,0.0,976.0,9.15,23.0,96,58.7,28.7,0,5,7,0,2026-04-08T20:43:10.031691+05:30
Kakinada,Andhra Pradesh,16.9891,82.2475,28.9,81,0.0,1007.9,9.1,29.2,75,29.2,25.6,7,5,4,1,2026-04-08T20:43:10.031697+05:30
Tirupati,Andhra Pradesh,13.6288,79.4192,29.8,67,0.0,992.2,9.4,34.6,146,40.3,38.1,7,5,7,1,2026-04-08T20:43:10.031702+05:30
Warangal,Telangana,17.9689,79.5941,31.4,44,0.0,977.7,9.0,25.2,104,103.8,59.0,0,5,7,1,2026-04-08T20:43:10.031708+05:30
Nizamabad,Telangana,18.6725,78.0941,31.5,40,0.0,964.1,8.95,27.0,85,120.6,61.0,0,5,7,1,2026-04-08T20:43:10.031713+05:30
Mysore,Karnataka,12.2958,76.6396,26.9,66,0.0,929.5,9.45,42.1,110,14.7,14.0,7,5,7,1,2026-04-08T20:43:10.031719+05:30
Mangalore,Karnataka,12.9141,74.856,29.1,78,0.0,1008.0,9.15,33.5,59,69.6,24.1,7,0,4,1,2026-04-08T20:43:10.031724+05:30
Hubli-Dharwad,Karnataka,15.3647,75.124,26.6,71,0.0,941.5,9.2,37.8,93,35.3,19.8,7,5,7,1,2026-04-08T20:43:10.031730+05:30
Belgaum,Karnataka,15.8497,74.4977,24.2,72,0.0,926.6,9.2,41.4,69,46.1,21.6,3,5,7,1,2026-04-08T20:43:13.247412+05:30
Coimbatore,Tamil Nadu,11.0168,76.9558,26.7,61,0.0,962.7,9.45,55.1,84,18.0,15.8,7,5,7,1,2026-04-08T20:43:13.247438+05:30
Madurai,Tamil Nadu,9.9252,78.1198,30.1,68,0.0,994.5,9.35,27.7,119,40.2,35.6,3,5,7,1,2026-04-08T20:43:13.247450+05:30
Trichy,Tamil Nadu,10.7905,78.7047,30.9,70,0.0,999.9,8.7,28.1,95,33.9,30.9,3,5,7,1,2026-04-08T20:43:13.247459+05:30
Salem,Tamil Nadu,11.6643,78.146,33.4,44,0.0,976.9,9.45,34.2,165,30.5,27.6,0,5,7,1,2026-04-08T20:43:13.247468+05:30
Tirunelveli,Tamil Nadu,8.7139,77.7567,28.3,74,0.0,1004.7,9.25,36.4,124,44.8,36.6,7,5,4,1,2026-04-08T20:43:13.247477+05:30
Vellore,Tamil Nadu,12.9165,79.1325,31.0,62,0.0,984.6,9.2,41.4,141,45.1,42.3,3,5,7,1,2026-04-08T20:43:13.247485+05:30
Erode,Tamil Nadu,11.341,77.7172,34.2,40,0.0,988.4,9.4,30.2,113,32.0,28.9,0,5,7,1,2026-04-08T20:43:13.247493+05:30
Kochi,Kerala,9.9312,76.2673,30.0,70,0.0,1009.9,9.2,36.4,60,27.0,20.5,7,0,4,1,2026-04-08T20:43:13.247501+05:30
Thiruvananthapuram,Kerala,8.5241,76.9366,29.8,73,0.0,1009.6,9.2,45.0,55,24.9,13.2,7,0,4,1,2026-04-08T20:43:13.247509+05:30
Kozhikode,Kerala,11.2588,75.7804,29.4,76,0.0,1009.0,9.15,31.0,50,22.5,12.7,7,0,4,1,2026-04-08T20:43:13.247515+05:30
Thrissur,Kerala,10.5276,76.2144,28.9,74,0.0,1008.3,9.2,37.1,60,20.4,14.7,7,0,4,1,2026-04-08T20:43:13.247522+05:30
Kannur,Kerala,11.8745,75.3704,29.0,73,0.0,1008.3,9.15,36.0,55,45.2,19.2,7,0,4,1,2026-04-08T20:43:13.247528+05:30
Patna,Bihar,25.5941,85.1376,23.1,82,0.0,1003.7,6.65,29.2,131,51.0,40.3,3,5,4,1,2026-04-08T20:43:13.247534+05:30
Gaya,Bihar,24.7914,85.0002,23.6,78,0.0,996.0,8.25,28.1,167,47.6,36.3,3,5,7,1,2026-04-08T20:43:13.247540+05:30
Muzaffarpur,Bihar,26.1209,85.3647,21.4,84,0.0,1004.0,7.0,36.7,128,54.1,41.9,3,5,4,1,2026-04-08T20:43:13.247545+05:30
Bhagalpur,Bihar,25.2425,87.0117,24.4,89,0.0,1003.9,8.3,29.2,183,56.8,47.5,3,5,4,1,2026-04-08T20:43:13.247551+05:30
Ranchi,Jharkhand,23.3441,85.3096,21.9,78,0.0,938.9,8.65,39.2,149,80.1,47.0,3,5,7,1,2026-04-08T20:43:13.247557+05:30
Jamshedpur,Jharkhand,22.8046,86.2029,24.1,85,0.0,993.4,8.8,32.4,172,44.2,40.4,3,5,7,1,2026-04-08T20:43:13.247563+05:30
Dhanbad,Jharkhand,23.7957,86.4304,23.3,83,0.0,982.2,8.7,29.9,175,68.2,63.8,3,5,7,1,2026-04-08T20:43:13.247569+05:30
Bokaro,Jharkhand,23.6693,86.1511,23.0,86,0.0,986.3,8.7,30.2,176,79.6,72.2,3,5,7,1,2026-04-08T20:43:13.247575+05:30
Bhubaneswar,Odisha,20.2961,85.8245,27.2,86,0.0,1003.4,8.95,33.1,69,26.6,25.0,7,5,4,1,2026-04-08T20:43:13.247580+05:30
Cuttack,Odisha,20.4625,85.8828,27.6,84,0.0,1005.5,9.0,33.1,69,26.6,25.0,7,5,4,1,2026-04-08T20:43:13.247586+05:30
Rourkela,Odisha,22.2604,84.8536,27.4,78,0.0,985.3,8.75,32.0,161,68.2,52.9,7,5,7,1,2026-04-08T20:43:13.247592+05:30
Raipur,Chhattisgarh,21.2514,81.6296,31.8,31,0.0,973.9,8.3,37.4,106,89.2,48.0,0,5,7,0,2026-04-08T20:43:13.247598+05:30
Bhilai,Chhattisgarh,21.1938,81.3509,31.5,35,0.0,974.3,8.5,36.7,92,85.0,42.3,0,5,7,0,2026-04-08T20:43:13.247604+05:30
Guwahati,Assam,26.1158,91.7086,24.1,79,0.0,1005.1,8.15,24.1,92,43.9,38.6,3,5,4,1,2026-04-08T20:43:13.247609+05:30
Agartala,Tripura,23.8315,91.2868,25.7,75,0.0,1008.3,8.45,11.9,168,43.3,40.9,7,0,4,1,2026-04-08T20:43:13.247615+05:30
Shillong,Meghalaya,25.5788,91.8933,13.3,92,0.0,857.3,7.8,40.3,103,31.9,26.8,3,10,7,0,2026-04-08T20:43:13.247622+05:30
Imphal,Manipur,24.817,93.9368,17.3,78,0.0,925.3,8.65,42.8,73,32.1,28.3,3,5,7,0,2026-04-08T20:43:13.247628+05:30
Aizawl,Mizoram,23.7271,92.7176,19.1,71,0.0,894.3,8.7,34.9,65,29.1,24.5,3,5,7,0,2026-04-08T20:43:13.247634+05:30
Kohima,Nagaland,25.6701,94.1077,14.0,77,0.0,855.9,8.0,57.2,69,25.3,21.4,3,5,7,0,2026-04-08T20:43:13.247639+05:30
Gangtok,Sikkim,27.3314,88.6138,12.6,95,0.6,838.3,7.4,16.9,100,25.4,20.8,6,10,7,0,2026-04-08T20:43:13.247645+05:30
Siliguri,West Bengal,26.7271,88.3953,19.8,81,0.0,997.2,7.9,25.2,109,49.2,42.5,3,10,7,1,2026-04-08T20:43:16.465779+05:30
Durgapur,West Bengal,23.5204,87.3119,24.9,84,0.0,998.0,8.65,21.6,154,64.7,58.8,3,5,7,1,2026-04-08T20:43:16.465805+05:30
Asansol,West Bengal,23.6739,86.9524,24.7,83,0.0,996.4,8.7,22.3,159,65.2,59.8,3,5,7,1,2026-04-08T20:43:16.465813+05:30
Pondicherry,Puducherry,11.9139,79.8145,28.8,86,0.0,1008.7,9.3,26.6,77,30.0,23.0,7,0,4,1,2026-04-08T20:43:16.465821+05:30
Port Blair,Andaman and Nicobar Islands,11.6234,92.7265,28.8,78,0.0,1009.5,9.2,7.9,31,7.9,5.4,7,0,4,1,2026-04-08T20:43:16.465827+05:30
Haridwar,Uttarakhand,29.9457,78.1642,17.9,89,0.0,978.0,5.7,25.2,77,43.3,34.8,3,10,3,0,2026-04-08T20:43:16.465834+05:30
Rishikesh,Uttarakhand,30.0869,78.2676,17.1,88,0.0,970.3,4.4,24.5,77,23.1,13.6,3,10,3,0,2026-04-08T20:43:16.465840+05:30
Nainital,Uttarakhand,29.3919,79.4542,11.6,87,0.0,804.5,6.5,55.4,69,35.0,20.4,3,10,7,0,2026-04-08T20:43:16.465846+05:30
Mussoorie,Uttarakhand,30.4599,78.0664,9.2,84,0.0,800.1,6.6,50.0,83,27.1,19.0,3,10,7,0,2026-04-08T20:43:16.465852+05:30
Dharamshala,Himachal Pradesh,32.219,76.3234,12.0,81,0.0,867.6,5.6,32.4,90,4.9,4.4,3,10,3,0,2026-04-08T20:43:16.465858+05:30
Dalhousie,Himachal Pradesh,32.5387,75.971,8.7,75,0.0,800.2,4.7,34.9,84,30.2,23.7,3,5,3,0,2026-04-08T20:43:16.465864+05:30
Patiala,Punjab,30.3398,76.3869,17.9,87,0.0,981.7,6.65,27.7,88,46.8,32.7,3,10,7,0,2026-04-08T20:43:16.465870+05:30
Bhatinda,Punjab,30.211,74.9455,21.1,57,0.0,986.3,7.45,32.0,110,55.1,35.0,0,5,7,0,2026-04-08T20:43:16.465876+05:30
Rohtak,Haryana,28.8955,76.6066,20.1,70,0.0,984.5,6.95,28.1,151,478.7,74.7,3,5,7,0,2026-04-08T20:43:16.465881+05:30
Panipat,Haryana,29.3909,76.9635,17.9,85,0.0,983.6,6.75,30.2,123,271.0,51.9,3,10,7,0,2026-04-08T20:43:16.465887+05:30
Mathura,Uttar Pradesh,27.4924,77.6737,21.7,70,0.0,989.0,7.25,31.3,193,1374.6,133.2,3,5,7,0,2026-04-08T20:43:16.465892+05:30
Vrindavan,Uttar Pradesh,27.5823,77.7027,21.1,72,0.0,989.5,7.25,28.4,193,1374.6,133.2,3,5,7,0,2026-04-08T20:43:16.465897+05:30
Ayodhya,Uttar Pradesh,26.7922,82.1998,20.9,78,0.0,999.6,7.65,35.3,89,58.1,39.7,3,5,7,1,2026-04-08T20:43:16.465903+05:30
Ratlam,Madhya Pradesh,23.3315,75.0367,26.0,51,0.0,954.6,8.25,45.0,71,31.4,17.8,4,5,7,0,2026-04-08T20:43:16.465909+05:30
Sagar,Madhya Pradesh,23.8388,78.7378,27.2,33,0.0,950.5,7.7,47.2,71,51.6,22.7,4,5,7,0,2026-04-08T20:43:16.465914+05:30
Satna,Madhya Pradesh,24.6005,80.8322,25.2,61,0.0,972.7,8.4,37.1,74,48.4,22.8,7,5,7,1,2026-04-08T20:43:16.465920+05:30
Akola,Maharashtra,20.7002,77.0082,30.2,37,0.0,975.1,8.7,40.7,69,44.9,21.1,0,5,7,0,2026-04-08T20:43:16.465926+05:30
Amravati,Maharashtra,20.9374,77.7796,28.9,34,0.0,966.8,8.7,41.0,69,46.2,21.1,4,5,7,0,2026-04-08T20:43:16.465933+05:30
Latur,Maharashtra,18.4088,76.5604,28.3,42,0.0,939.3,8.95,33.5,76,44.0,23.1,4,5,7,0,2026-04-08T20:43:16.465939+05:30
Nanded,Maharashtra,19.1383,77.3091,29.5,43,0.0,967.8,8.85,31.7,81,61.5,25.6,4,5,7,0,2026-04-08T20:43:16.465944+05:30
Gulbarga,Karnataka,17.3297,76.8343,33.1,24,0.0,958.1,9.0,32.4,74,66.8,30.6,0,5,7,0,2026-04-08T20:43:16.465950+05:30
Bidar,Karnataka,17.9104,77.5199,30.9,29,0.0,935.4,9.0,31.7,79,76.6,36.8,0,5,7,0,2026-04-08T20:43:16.465955+05:30
Hospet,Karnataka,15.2689,76.3909,32.6,38,0.0,955.7,9.2,27.0,138,39.3,26.4,0,5,7,1,2026-04-08T20:43:16.465961+05:30
Tirupur,Tamil Nadu,11.1085,77.3411,30.2,51,0.0,975.3,9.5,41.8,125,21.7,19.7,0,5,7,1,2026-04-08T20:43:16.465966+05:30
Alappuzha,Kerala,9.4981,76.3388,29.7,73,0.0,1010.2,8.9,32.0,58,26.4,16.8,7,0,4,1,2026-04-08T20:43:16.465972+05:30
Munnar,Kerala,10.0889,77.0595,22.4,87,0.0,858.8,9.5,37.4,65,24.2,21.0,3,5,7,1,2026-04-08T20:43:16.465978+05:30
Silchar,Assam,24.8333,92.7789,25.5,71,0.0,1007.3,8.45,23.0,93,56.1,52.4,7,5,4,1,2026-04-08T20:43:16.465983+05:30
Dibrugarh,Assam,27.4728,94.912,23.1,82,0.0,999.5,8.0,13.0,63,47.6,38.3,3,5,7,1,2026-04-08T20:43:16.465989+05:30
