city,state,latitude,longitude,temp,humidity,rain,pressure,uv_index,wind_gusts,aqi,pm10,pm2_5,mosquito_risk,arthritis_risk,migraine_risk,frizz_risk,updated_at
Delhi,Delhi,28.6139,77.209,28.6,40,0.0,982.0,7.2,29.2,161,249.6,70.1,4,5,7,0,2026-04-19T22:16:06.891199+05:30
Mumbai,Maharashtra,19.076,72.8777,29.7,73,0.0,1008.4,7.9,25.9,82,38.1,20.3,7,0,4,1,2026-04-19T22:16:06.891246+05:30
Bangalore,Karnataka,12.9716,77.5946,27.1,48,0.0,912.5,9.55,28.8,124,28.8,25.5,4,5,7,0,2026-04-19T22:16:06.891261+05:30
Hyderabad,Telangana,17.385,78.4867,29.2,59,0.0,953.3,9.25,21.2,126,68.9,58.0,4,5,7,1,2026-04-19T22:16:06.891271+05:30
Chennai,Tamil Nadu,13.0827,80.2707,28.8,83,0.0,1007.7,9.3,36.0,35,13.4,9.1,7,5,4,1,2026-04-19T22:16:06.891281+05:30
Kolkata,West Bengal,22.5726,88.3639,28.2,89,0.0,1004.9,8.9,32.4,77,27.9,23.0,7,5,4,1,2026-04-19T22:16:06.891294+05:30
Pune,Maharashtra,18.5204,73.8567,29.4,55,0.0,949.9,8.6,37.1,161,54.6,49.1,4,5,7,1,2026-04-19T22:16:06.891303+05:30
Ahmedabad,Gujarat,23.0225,72.5714,30.3,34,0.0,1001.9,8.0,25.6,68,26.2,18.6,0,5,4,0,2026-04-19T22:16:06.891313+05:30
Jaipur,Rajasthan,26.9124,75.7873,30.7,18,0.0,959.2,7.8,40.3,109,139.2,32.1,0,5,7,0,2026-04-19T22:16:06.891320+05:30
Lucknow,Uttar Pradesh,26.8467,80.9462,31.1,38,0.0,991.0,7.9,37.4,132,165.8,45.6,0,5,7,0,2026-04-19T22:16:06.891328+05:30
Kanpur,Uttar Pradesh,26.4499,80.3319,29.1,57,0.0,989.6,7.9,23.4,190,266.4,54.6,4,5,7,1,2026-04-19T22:16:06.891335+05:30
Chandigarh,Chandigarh,30.7333,76.7794,24.8,51,0.0,968.1,6.05,33.8,103,41.2,20.9,0,5,7,0,2026-04-19T22:16:06.891342+05:30
Srinagar,Jammu and Kashmir,34.0837,74.7973,11.3,88,0.0,844.3,7.35,19.1,64,53.2,36.2,3,10,7,0,2026-04-19T22:16:06.891349+05:30
Jammu,Jammu and Kashmir,32.7266,74.857,24.4,53,0.0,973.1,5.65,32.4,61,72.2,39.2,0,5,3,0,2026-04-19T22:16:06.891356+05:30
Amritsar,Punjab,31.634,74.8723,25.2,54,0.0,981.0,7.45,25.9,88,78.2,36.1,4,5,7,0,2026-04-19T22:16:06.891363+05:30
Ludhiana,Punjab,30.901,75.8573,27.7,45,0.0,978.4,7.35,42.5,93,65.2,25.7,4,5,7,0,2026-04-19T22:16:06.891372+05:30
Jalandhar,Punjab,31.326,75.5762,26.1,46,0.0,979.6,6.6,28.1,94,77.3,25.8,4,5,7,0,2026-04-19T22:16:06.891378+05:30
Dehradun,Uttarakhand,30.6284,78.0322,17.5,52,0.0,832.0,6.3,46.1,74,40.6,14.7,0,5,7,0,2026-04-19T22:16:06.891384+05:30
Shimla,Himachal Pradesh,31.1048,77.1734,16.4,52,0.0,786.4,6.7,45.7,96,43.1,15.3,0,5,7,0,2026-04-19T22:16:06.891391+05:30
Manali,Himachal Pradesh,32.2396,77.1887,14.9,58,0.0,823.5,6.95,40.7,81,16.6,7.1,0,5,7,0,2026-04-19T22:16:06.891397+05:30
Gurgaon,Haryana,28.4595,77.0266,26.2,49,0.0,980.2,7.35,27.4,537,748.8,112.0,4,5,7,0,2026-04-19T22:16:06.891403+05:30
Noida,Uttar Pradesh,28.5355,77.391,28.0,43,0.0,983.5,7.35,27.7,537,748.8,112.0,4,5,7,0,2026-04-19T22:16:06.891409+05:30
Ghaziabad,Uttar Pradesh,28.6692,77.4538,27.5,45,0.0,981.6,7.3,26.3,151,170.0,69.8,4,5,7,0,2026-04-19T22:16:06.891415+05:30
Faridabad,Haryana,28.4089,77.3178,28.3,38,0.0,982.8,7.3,28.8,537,748.8,112.0,4,5,7,0,2026-04-19T22:16:06.891422+05:30
Meerut,Uttar Pradesh,28.9845,77.7064,26.6,46,0.0,980.3,7.05,28.8,151,170.0,69.8,4,5,7,0,2026-04-19T22:16:06.891427+05:30
Agra,Uttar Pradesh,27.1767,78.0081,28.3,45,0.0,986.1,7.55,27.7,422,502.9,103.1,4,5,7,0,2026-04-19T22:16:06.891436+05:30
Varanasi,Uttar Pradesh,25.3176,82.9739,30.6,37,0.0,994.9,8.45,29.5,115,110.8,51.6,0,5,7,0,2026-04-19T22:16:06.891442+05:30
Prayagraj,Uttar Pradesh,25.4358,81.8463,32.2,38,0.0,993.8,8.35,29.9,109,91.3,37.6,0,5,7,0,2026-04-19T22:16:06.891450+05:30
Gorakhpur,Uttar Pradesh,26.7606,83.3732,30.0,64,0.0,994.9,8.3,32.4,144,84.5,42.6,7,5,7,1,2026-04-19T22:16:06.891456+05:30
Bareilly,Uttar Pradesh,28.367,79.4304,28.0,53,0.0,985.0,7.35,32.8,110,38.1,20.6,4,5,7,1,2026-04-19T22:16:06.891462+05:30
Aligarh,Uttar Pradesh,27.8974,78.088,28.7,36,0.0,984.1,7.5,39.6,236,398.6,72.2,4,5,7,0,2026-04-19T22:16:06.891467+05:30
Moradabad,Uttar Pradesh,28.8386,78.7733,27.1,51,0.0,982.3,7.35,37.1,118,74.3,37.5,4,5,7,1,2026-04-19T22:16:06.891473+05:30
Saharanpur,Uttar Pradesh,29.9637,77.546,25.5,58,0.0,974.7,6.5,39.2,102,91.0,38.3,4,5,7,1,2026-04-19T22:16:06.891481+05:30
Jhansi,Uttar Pradesh,25.4484,78.5685,31.0,41,0.0,976.5,8.25,32.0,82,23.6,16.0,0,5,7,1,2026-04-19T22:16:10.111897+05:30
Surat,Gujarat,21.1702,72.8311,27.8,79,0.0,1006.4,7.75,25.2,95,39.5,29.5,7,5,4,1,2026-04-19T22:16:10.111932+05:30
Vadodara,Gujarat,22.3072,73.1812,30.6,45,0.0,1003.9,8.15,29.9,102,58.4,46.2,0,5,4,1,2026-04-19T22:16:10.111943+05:30
Rajkot,Gujarat,22.3039,70.8022,27.1,46,0.0,994.8,7.25,26.3,82,24.2,13.5,4,5,7,0,2026-04-19T22:16:10.111951+05:30
Thane,Maharashtra,19.2183,72.9781,28.1,80,0.0,1007.8,8.05,37.4,82,38.1,20.3,7,5,4,1,2026-04-19T22:16:10.111958+05:30
Nagpur,Maharashtra,21.1458,79.0882,30.7,49,0.0,972.6,8.9,21.6,123,28.8,26.1,0,5,7,1,2026-04-19T22:16:10.111965+05:30
Nashik,Maharashtra,19.9975,73.7898,27.8,46,0.0,946.7,8.05,33.5,123,45.1,36.3,4,5,7,0,2026-04-19T22:16:10.111971+05:30
Aurangabad,Maharashtra,19.8762,75.3433,30.4,46,0.0,945.2,9.0,46.8,132,44.8,39.5,0,5,7,1,2026-04-19T22:16:10.111978+05:30
Solapur,Maharashtra,17.6599,75.9064,28.6,63,0.0,958.1,8.75,52.6,151,68.5,61.2,7,5,7,1,2026-04-19T22:16:10.111985+05:30
Kolhapur,Maharashtra,16.705,74.2433,25.4,86,0.0,949.2,9.0,44.6,122,41.7,36.0,7,5,7,1,2026-04-19T22:16:10.111991+05:30
Goa,Goa,15.2993,74.124,29.3,79,0.0,998.6,9.0,28.8,86,53.0,29.3,7,5,7,1,2026-04-19T22:16:10.111998+05:30
Jodhpur,Rajasthan,26.2389,73.0243,30.5,32,0.0,982.3,8.15,28.4,98,154.1,25.1,0,5,7,0,2026-04-19T22:16:10.112005+05:30
Udaipur,Rajasthan,24.5854,73.7125,28.4,36,0.0,947.4,8.6,40.3,82,17.7,8.8,4,5,7,0,2026-04-19T22:16:10.112012+05:30
Kota,Rajasthan,25.2138,75.8648,31.3,33,0.0,977.9,8.2,36.7,88,31.3,29.6,0,5,7,0,2026-04-19T22:16:10.112019+05:30
Bikaner,Rajasthan,28.0229,73.3119,31.7,30,0.0,981.1,7.9,25.2,93,43.5,13.8,0,5,7,0,2026-04-19T22:16:10.112025+05:30
Ajmer,Rajasthan,26.4499,74.6399,27.9,28,0.0,954.3,7.65,32.4,89,29.7,14.6,4,5,7,0,2026-04-19T22:16:10.112031+05:30
Gwalior,Madhya Pradesh,26.2183,78.1828,29.6,43,0.0,981.6,7.6,29.9,89,22.5,13.3,4,5,7,0,2026-04-19T22:16:10.112038+05:30
Indore,Madhya Pradesh,22.7196,75.8577,28.9,48,0.0,948.8,8.6,31.0,98,40.2,36.3,4,5,7,1,2026-04-19T22:16:10.112044+05:30
Bhopal,Madhya Pradesh,23.2599,77.4126,31.1,34,0.0,953.7,8.6,34.9,112,27.6,20.5,0,5,7,0,2026-04-19T22:16:10.112050+05:30
Jabalpur,Madhya Pradesh,23.1815,79.9864,30.7,42,0.0,960.6,8.75,21.2,107,34.8,25.9,0,5,7,1,2026-04-19T22:16:10.112056+05:30
Ujjain,Madhya Pradesh,23.1765,75.7885,29.8,44,0.0,954.3,8.5,33.5,90,29.7,27.1,4,5,7,1,2026-04-19T22:16:10.112063+05:30
Visakhapatnam,Andhra Pradesh,17.6868,83.2185,27.8,88,0.0,1004.7,9.15,36.7,61,18.9,13.2,7,5,4,1,2026-04-19T22:16:10.112070+05:30
Vijayawada,Andhra Pradesh,16.5062,80.648,28.3,79,0.0,1003.5,9.2,31.0,53,15.3,12.1,7,5,4,1,2026-04-19T22:16:10.112076+05:30
Guntur,Andhra Pradesh,16.3067,80.4365,27.9,85,0.0,1004.5,9.25,34.6,56,15.9,12.6,7,5,4,1,2026-04-19T22:16:10.112082+05:30
Nellore,Andhra Pradesh,14.4426,79.9865,28.8,81,0.0,1005.9,9.25,33.8,66,11.6,8.9,7,5,4,1,2026-04-19T22:16:10.112089+05:30
Kurnool,Andhra Pradesh,15.8281,78.0373,33.3,43,0.0,976.7,9.2,32.4,119,55.3,45.5,0,5,7,1,2026-04-19T22:16:10.112096+05:30
Kakinada,Andhra Pradesh,16.9891,82.2475,27.5,85,0.0,1008.4,9.2,32.0,48,16.1,9.8,7,0,4,1,2026-04-19T22:16:10.112102+05:30
Tirupati,Andhra Pradesh,13.6288,79.4192,29.6,67,0.0,992.3,9.35,34.6,97,18.9,17.4,7,5,7,1,2026-04-19T22:16:10.112108+05:30
Warangal,Telangana,17.9689,79.5941,31.8,58,0.0,978.5,9.15,30.6,102,41.3,37.6,0,5,7,1,2026-04-19T22:16:10.112113+05:30
Nizamabad,Telangana,18.6725,78.0941,30.0,55,0.0,966.1,8.95,36.4,128,69.6,61.7,4,5,7,1,2026-04-19T22:16:10.112119+05:30
Mysore,Karnataka,12.2958,76.6396,24.9,81,0.0,929.3,9.45,46.1,110,38.2,34.7,3,5,7,1,2026-04-19T22:16:10.112125+05:30
Mangalore,Karnataka,12.9141,74.856,30.2,77,0.0,1007.3,9.1,22.3,73,46.9,28.3,3,5,4,1,2026-04-19T22:16:10.112131+05:30
Hubli-Dharwad,Karnataka,15.3647,75.124,25.5,85,0.0,941.7,9.2,29.5,96,34.6,27.4,7,5,7,1,2026-04-19T22:16:10.112137+05:30
Belgaum,Karnataka,15.8497,74.4977,24.1,92,0.0,926.6,9.25,32.4,94,44.9,35.4,3,5,7,1,2026-04-19T22:16:13.334613+05:30
Coimbatore,Tamil Nadu,11.0168,76.9558,25.9,81,0.0,962.7,9.4,51.8,109,50.3,47.4,7,5,7,1,2026-04-19T22:16:13.334691+05:30
Madurai,Tamil Nadu,9.9252,78.1198,29.3,72,0.0,994.1,9.3,40.0,94,15.8,14.5,7,5,7,1,2026-04-19T22:16:13.334702+05:30
Trichy,Tamil Nadu,10.7905,78.7047,29.1,78,0.0,1000.2,9.3,23.0,59,17.2,16.2,7,5,4,1,2026-04-19T22:16:13.334710+05:30
Salem,Tamil Nadu,11.6643,78.146,29.4,56,0.0,977.2,9.35,21.6,103,23.6,20.3,4,5,7,1,2026-04-19T22:16:13.334717+05:30
Tirunelveli,Tamil Nadu,8.7139,77.7567,29.4,65,0.0,1004.1,9.25,51.5,86,18.4,15.5,7,5,4,1,2026-04-19T22:16:13.334724+05:30
Vellore,Tamil Nadu,12.9165,79.1325,27.6,76,0.0,985.1,9.4,29.9,93,27.5,25.6,7,5,7,1,2026-04-19T22:16:13.334731+05:30
Erode,Tamil Nadu,11.341,77.7172,32.0,43,0.0,989.0,9.35,28.4,115,21.7,18.3,0,5,7,1,2026-04-19T22:16:13.334739+05:30
Kochi,Kerala,9.9312,76.2673,28.3,82,0.0,1009.9,9.1,25.2,65,33.9,30.0,7,0,4,1,2026-04-19T22:16:13.334746+05:30
Thiruvananthapuram,Kerala,8.5241,76.9366,28.9,81,0.0,1008.9,9.1,27.4,67,24.0,15.9,7,0,4,1,2026-04-19T22:16:13.334753+05:30
Kozhikode,Kerala,11.2588,75.7804,29.8,80,0.0,1008.5,9.1,31.3,64,35.4,22.1,7,0,4,1,2026-04-19T22:16:13.334760+05:30
Thrissur,Kerala,10.5276,76.2144,29.1,83,0.0,1007.8,9.15,33.8,65,31.8,26.0,7,5,4,1,2026-04-19T22:16:13.334767+05:30
Kannur,Kerala,11.8745,75.3704,30.1,79,0.0,1007.8,9.1,34.2,69,35.2,26.8,3,5,4,1,2026-04-19T22:16:13.334774+05:30
Patna,Bihar,25.5941,85.1376,30.5,67,0.0,998.6,8.6,27.0,161,67.5,55.1,3,5,7,1,2026-04-19T22:16:13.334781+05:30
Gaya,Bihar,24.7914,85.0002,29.8,49,0.0,991.7,8.7,34.9,122,73.6,45.2,4,5,7,1,2026-04-19T22:16:13.334787+05:30
Muzaffarpur,Bihar,26.1209,85.3647,28.5,76,0.0,998.8,8.6,29.5,151,71.7,57.6,7,5,7,1,2026-04-19T22:16:13.334793+05:30
Bhagalpur,Bihar,25.2425,87.0117,28.1,81,0.0,1000.0,8.6,27.0,181,51.6,47.7,7,5,4,1,2026-04-19T22:16:13.334800+05:30
Ranchi,Jharkhand,23.3441,85.3096,29.2,33,0.0,937.7,9.15,45.0,119,79.4,32.2,4,5,7,0,2026-04-19T22:16:13.334806+05:30
Jamshedpur,Jharkhand,22.8046,86.2029,30.7,74,0.0,989.5,9.0,35.3,177,65.0,55.9,3,5,7,1,2026-04-19T22:16:13.334813+05:30
Dhanbad,Jharkhand,23.7957,86.4304,31.0,74,0.0,978.6,8.95,33.8,156,106.4,77.3,3,5,7,1,2026-04-19T22:16:13.334819+05:30
Bokaro,Jharkhand,23.6693,86.1511,30.2,79,0.0,982.6,8.95,42.1,140,112.7,69.2,3,5,7,1,2026-04-19T22:16:13.334825+05:30
Bhubaneswar,Odisha,20.2961,85.8245,27.6,90,0.0,1002.6,9.1,34.2,69,23.4,18.9,7,5,4,1,2026-04-19T22:16:13.334832+05:30
Cuttack,Odisha,20.4625,85.8828,27.9,87,0.0,1004.2,9.15,34.6,69,23.4,18.9,7,5,4,1,2026-04-19T22:16:13.334838+05:30
Rourkela,Odisha,22.2604,84.8536,31.2,65,0.0,984.1,8.9,38.9,201,71.0,56.9,3,5,7,1,2026-04-19T22:16:13.334844+05:30
Raipur,Chhattisgarh,21.2514,81.6296,32.6,42,0.0,973.4,8.95,33.8,145,52.7,50.4,0,5,7,1,2026-04-19T22:16:13.334850+05:30
Bhilai,Chhattisgarh,21.1938,81.3509,31.7,46,0.0,973.5,8.95,32.0,134,41.8,39.2,0,5,7,1,2026-04-19T22:16:13.334856+05:30
Guwahati,Assam,26.1158,91.7086,24.7,90,0.0,1002.0,8.55,29.2,112,42.7,37.7,3,5,4,1,2026-04-19T22:16:13.334862+05:30
Agartala,Tripura,23.8315,91.2868,26.2,88,0.0,1006.3,8.75,25.2,110,46.2,40.2,7,5,4,1,2026-04-19T22:16:13.334867+05:30
Shillong,Meghalaya,25.5788,91.8933,16.0,88,0.0,856.7,8.15,48.2,80,32.5,28.0,3,10,7,0,2026-04-19T22:16:13.334874+05:30
Imphal,Manipur,24.817,93.9368,19.9,85,0.0,924.1,8.85,61.2,149,64.0,53.3,3,10,7,1,2026-04-19T22:16:13.334880+05:30
Aizawl,Mizoram,23.7271,92.7176,20.6,85,0.0,893.4,8.3,42.1,151,77.1,65.0,3,5,7,1,2026-04-19T22:16:13.334886+05:30
Kohima,Nagaland,25.6701,94.1077,17.1,85,0.0,855.6,8.7,50.8,115,27.2,20.8,3,10,7,0,2026-04-19T22:16:13.334892+05:30
Gangtok,Sikkim,27.3314,88.6138,16.8,92,0.0,838.4,8.9,23.4,76,22.8,20.7,3,10,7,0,2026-04-19T22:16:13.334898+05:30
Siliguri,West Bengal,26.7271,88.3953,22.2,84,0.0,994.9,8.4,21.2,116,44.1,38.8,3,5,7,1,2026-04-19T22:16:16.559267+05:30
Durgapur,West Bengal,23.5204,87.3119,29.3,87,0.0,993.7,8.9,28.1,199,66.4,61.5,7,5,7,1,2026-04-19T22:16:16.559301+05:30
Asansol,West Bengal,23.6739,86.9524,30.1,82,0.0,992.2,8.9,33.8,154,76.1,58.7,3,5,7,1,2026-04-19T22:16:16.559312+05:30
Pondicherry,Puducherry,11.9139,79.8145,27.7,92,0.0,1008.9,9.25,31.0,35,11.9,7.9,7,0,4,1,2026-04-19T22:16:16.559321+05:30
Port Blair,Andaman and Nicobar Islands,11.6234,92.7265,29.3,77,0.0,1008.8,9.15,13.0,52,13.0,10.7,7,0,4,1,2026-04-19T22:16:16.559328+05:30
Haridwar,Uttarakhand,29.9457,78.1642,25.1,62,0.0,973.4,6.25,28.8,94,61.5,27.3,7,5,7,1,2026-04-19T22:16:16.559335+05:30
Rishikesh,Uttarakhand,30.0869,78.2676,24.0,57,0.0,966.4,6.55,31.7,104,68.0,21.3,0,5,7,0,2026-04-19T22:16:16.559342+05:30
Nainital,Uttarakhand,29.3919,79.4542,24.0,28,0.0,808.5,7.8,70.9,108,49.2,19.3,0,5,7,0,2026-04-19T22:16:16.559349+05:30
Mussoorie,Uttarakhand,30.4599,78.0664,19.8,46,0.0,804.7,6.6,45.7,102,71.9,28.3,0,5,7,0,2026-04-19T22:16:16.559356+05:30
Dharamshala,Himachal Pradesh,32.219,76.3234,22.9,27,0.0,870.9,6.1,38.5,69,31.2,13.2,0,5,7,0,2026-04-19T22:16:16.559364+05:30
Dalhousie,Himachal Pradesh,32.5387,75.971,19.2,30,0.0,805.7,6.8,35.3,60,51.5,24.7,0,5,7,0,2026-04-19T22:16:16.559371+05:30
Patiala,Punjab,30.3398,76.3869,26.3,47,0.0,977.7,6.65,45.0,199,704.1,83.8,4,5,7,0,2026-04-19T22:16:16.559378+05:30
Bhatinda,Punjab,30.211,74.9455,27.5,43,0.0,983.5,7.85,41.0,121,64.0,24.3,4,5,7,0,2026-04-19T22:16:16.559384+05:30
Rohtak,Haryana,28.8955,76.6066,25.7,51,0.0,980.6,7.05,43.9,192,409.8,77.1,4,5,7,0,2026-04-19T22:16:16.559391+05:30
Panipat,Haryana,29.3909,76.9635,26.3,48,0.0,979.4,6.3,53.6,406,871.7,114.6,4,5,7,0,2026-04-19T22:16:16.559397+05:30
Mathura,Uttar Pradesh,27.4924,77.6737,29.5,37,0.0,985.2,7.65,44.3,350,685.5,102.4,4,5,7,0,2026-04-19T22:16:16.559404+05:30
Vrindavan,Uttar Pradesh,27.5823,77.7027,27.5,41,0.0,985.8,7.65,43.9,350,685.5,102.4,4,5,7,0,2026-04-19T22:16:16.559410+05:30
Ayodhya,Uttar Pradesh,26.7922,82.1998,30.8,36,0.0,992.8,8.05,40.0,121,81.0,28.1,0,5,7,0,2026-04-19T22:16:16.559417+05:30
Ratlam,Madhya Pradesh,23.3315,75.0367,29.5,52,0.0,955.1,8.45,27.4,109,20.0,17.0,4,5,7,1,2026-04-19T22:16:16.559423+05:30
Sagar,Madhya Pradesh,23.8388,78.7378,31.2,33,0.0,950.0,8.6,38.2,115,30.7,19.8,0,5,7,0,2026-04-19T22:16:16.559429+05:30
Satna,Madhya Pradesh,24.6005,80.8322,32.0,40,0.0,970.2,8.6,32.8,109,28.6,13.8,0,5,7,1,2026-04-19T22:16:16.559435+05:30
Akola,Maharashtra,20.7002,77.0082,32.0,48,0.0,974.9,8.85,32.0,112,39.2,35.3,0,5,7,1,2026-04-19T22:16:16.559442+05:30
Amravati,Maharashtra,20.9374,77.7796,30.2,49,0.0,966.9,8.85,15.8,103,39.8,35.3,0,5,7,1,2026-04-19T22:16:16.559449+05:30
Latur,Maharashtra,18.4088,76.5604,27.3,61,0.0,940.8,9.1,23.4,152,78.0,70.3,7,5,7,1,2026-04-19T22:16:16.559456+05:30
Nanded,Maharashtra,19.1383,77.3091,29.5,53,0.0,968.5,9.0,22.7,112,58.7,52.0,4,5,7,1,2026-04-19T22:16:16.559462+05:30
Gulbarga,Karnataka,17.3297,76.8343,29.2,55,0.0,959.1,9.1,56.5,153,56.2,51.3,4,5,7,1,2026-04-19T22:16:16.559468+05:30
Bidar,Karnataka,17.9104,77.5199,29.2,55,0.0,936.4,9.15,40.7,149,58.1,52.7,4,5,7,1,2026-04-19T22:16:16.559474+05:30
Hospet,Karnataka,15.2689,76.3909,29.5,69,0.0,956.8,9.25,28.1,161,38.2,35.0,7,5,7,1,2026-04-19T22:16:16.559480+05:30
Tirupur,Tamil Nadu,11.1085,77.3411,27.9,74,0.0,975.8,9.4,34.9,121,35.6,31.5,7,5,7,1,2026-04-19T22:16:16.559486+05:30
Alappuzha,Kerala,9.4981,76.3388,28.7,82,0.0,1009.9,9.1,23.4,74,35.5,28.1,7,0,4,1,2026-04-19T22:16:16.559492+05:30
Munnar,Kerala,10.0889,77.0595,22.3,97,0.0,858.3,9.65,39.6,78,37.7,34.7,3,5,7,1,2026-04-19T22:16:16.559498+05:30
Silchar,Assam,24.8333,92.7789,25.6,87,0.0,1005.4,8.8,24.8,153,84.1,72.2,7,5,4,1,2026-04-19T22:16:16.559504+05:30
Dibrugarh,Assam,27.4728,94.912,25.3,88,0.0,995.4,8.65,19.4,142,81.0,61.0,7,5,7,1,2026-04-19T22:16:16.559510+05:30
