city,state,latitude,longitude,temp,humidity,rain,pressure,uv_index,wind_gusts,aqi,pm10,pm2_5,no2,co,o3,so2,mosquito_risk,arthritis_risk,migraine_risk,frizz_risk,updated_at
Delhi,Delhi,28.6139,77.209,29.6,36,0.0,975.8,7.75,42.8,629,642.6,165.8,21.4,346.0,52.0,13.4,4,5,7,0,2026-05-18T04:34:09.559947+05:30
Mumbai,Maharashtra,19.076,72.8777,28.2,88,0.0,1003.9,7.65,46.4,64,48.8,19.4,9.5,245.0,54.0,4.5,7,5,4,1,2026-05-18T04:34:09.559990+05:30
Bangalore,Karnataka,12.9716,77.5946,23.0,85,0.0,907.8,6.15,42.8,85,22.8,18.9,11.9,283.0,59.0,6.7,3,5,7,1,2026-05-18T04:34:09.560003+05:30
Hyderabad,Telangana,17.385,78.4867,28.0,64,0.0,949.0,9.25,33.5,65,16.4,14.6,11.2,229.0,56.0,5.4,7,5,7,1,2026-05-18T04:34:09.560011+05:30
Chennai,Tamil Nadu,13.0827,80.2707,28.1,81,0.0,1002.5,8.65,46.1,70,18.6,13.9,10.5,212.0,77.0,15.6,7,5,4,1,2026-05-18T04:34:09.560019+05:30
Kolkata,West Bengal,22.5726,88.3639,28.5,89,0.0,1000.6,8.95,35.6,62,16.7,12.8,8.0,226.0,53.0,6.0,7,5,4,1,2026-05-18T04:34:09.560026+05:30
Pune,Maharashtra,18.5204,73.8567,24.1,86,0.0,943.6,8.45,48.6,70,37.5,25.9,21.1,215.0,46.0,24.5,3,5,7,1,2026-05-18T04:34:09.560031+05:30
Ahmedabad,Gujarat,23.0225,72.5714,31.9,36,0.0,997.4,8.15,36.0,63,28.8,14.9,4.1,134.0,60.0,4.2,0,5,7,0,2026-05-18T04:34:09.560038+05:30
Jaipur,Rajasthan,26.9124,75.7873,31.1,30,0.0,954.2,8.25,43.6,116,232.4,47.4,5.6,185.0,57.0,4.2,0,5,7,0,2026-05-18T04:34:09.560047+05:30
Lucknow,Uttar Pradesh,26.8467,80.9462,31.2,36,0.0,986.0,8.2,32.0,163,256.1,83.1,15.9,308.0,45.0,8.0,0,5,7,0,2026-05-18T04:34:09.560053+05:30
Kanpur,Uttar Pradesh,26.4499,80.3319,31.5,33,0.0,984.7,8.25,40.0,342,215.6,56.6,11.6,273.0,48.0,6.1,0,5,7,0,2026-05-18T04:34:09.560059+05:30
Chandigarh,Chandigarh,30.7333,76.7794,26.1,44,0.0,960.8,7.75,37.1,65,21.0,20.1,13.1,290.0,61.0,6.7,4,5,7,0,2026-05-18T04:34:09.560065+05:30
Srinagar,Jammu and Kashmir,34.0837,74.7973,11.4,86,0.0,837.2,8.95,19.1,80,44.4,40.6,20.8,193.0,33.0,1.0,3,10,7,0,2026-05-18T04:34:09.560072+05:30
Jammu,Jammu and Kashmir,32.7266,74.857,22.4,61,0.0,964.2,8.55,29.9,70,32.2,30.2,26.9,338.0,0.0,1.3,3,5,7,0,2026-05-18T04:34:09.560078+05:30
Amritsar,Punjab,31.634,74.8723,27.4,52,0.0,973.0,8.45,24.5,89,45.8,34.5,21.8,478.0,45.0,7.9,4,5,7,1,2026-05-18T04:34:09.560083+05:30
Ludhiana,Punjab,30.901,75.8573,26.5,53,0.0,971.2,8.0,27.4,88,59.1,38.4,13.7,502.0,55.0,8.2,4,5,7,0,2026-05-18T04:34:09.560089+05:30
Jalandhar,Punjab,31.326,75.5762,26.0,52,0.0,972.1,8.2,25.6,100,80.8,50.3,23.5,484.0,34.0,8.9,4,5,7,0,2026-05-18T04:34:09.560095+05:30
Dehradun,Uttarakhand,30.6284,78.0322,11.9,80,0.0,821.6,8.2,38.9,49,11.4,9.5,20.5,249.0,3.0,0.1,3,5,7,0,2026-05-18T04:34:09.560100+05:30
Shimla,Himachal Pradesh,31.1048,77.1734,12.7,56,0.0,777.4,8.3,45.4,54,23.2,17.4,16.8,179.0,62.0,1.4,0,5,7,0,2026-05-18T04:34:09.560108+05:30
Manali,Himachal Pradesh,32.2396,77.1887,9.2,37,0.0,808.9,9.6,47.5,67,3.3,2.0,5.4,158.0,121.0,0.0,0,5,7,1,2026-05-18T04:34:09.560118+05:30
Gurgaon,Haryana,28.4595,77.0266,27.4,43,0.0,974.3,7.85,42.5,1042,910.8,171.4,18.9,322.0,47.0,12.2,4,5,7,0,2026-05-18T04:34:09.560123+05:30
Noida,Uttar Pradesh,28.5355,77.391,28.0,41,0.0,976.9,7.75,33.5,1042,910.8,171.4,18.9,348.0,47.0,12.2,4,5,7,0,2026-05-18T04:34:09.560128+05:30
Ghaziabad,Uttar Pradesh,28.6692,77.4538,27.9,41,0.0,975.2,7.75,35.6,516,586.7,160.7,20.4,387.0,55.0,14.8,4,5,7,0,2026-05-18T04:34:09.560133+05:30
Faridabad,Haryana,28.4089,77.3178,29.6,36,0.0,976.4,7.8,43.6,1042,910.8,171.4,18.9,336.0,47.0,12.2,4,5,7,0,2026-05-18T04:34:09.560139+05:30
Meerut,Uttar Pradesh,28.9845,77.7064,28.4,39,0.0,973.6,7.65,38.5,516,586.7,160.7,20.4,374.0,55.0,14.8,4,5,7,0,2026-05-18T04:34:09.560144+05:30
Agra,Uttar Pradesh,27.1767,78.0081,29.1,39,0.0,980.7,8.1,40.7,510,202.6,53.1,16.6,304.0,24.0,6.0,4,5,7,0,2026-05-18T04:34:09.560150+05:30
Varanasi,Uttar Pradesh,25.3176,82.9739,30.2,39,0.0,990.8,8.7,45.7,129,142.5,46.8,22.3,346.0,48.0,9.9,0,5,7,0,2026-05-18T04:34:09.560155+05:30
Prayagraj,Uttar Pradesh,25.4358,81.8463,29.6,41,0.0,989.1,8.6,46.4,140,184.9,57.4,25.1,263.0,39.0,8.5,4,5,7,0,2026-05-18T04:34:09.560160+05:30
Gorakhpur,Uttar Pradesh,26.7606,83.3732,25.9,82,0.0,990.6,8.6,31.7,140,136.4,69.6,38.1,578.0,28.0,11.8,7,5,7,1,2026-05-18T04:34:09.560167+05:30
Bareilly,Uttar Pradesh,28.367,79.4304,25.3,64,0.0,978.7,8.05,35.6,139,336.2,107.1,24.9,390.0,35.0,11.6,7,5,7,1,2026-05-18T04:34:09.560172+05:30
Aligarh,Uttar Pradesh,27.8974,78.088,27.1,49,0.0,978.0,7.9,37.8,641,605.4,144.8,20.1,383.0,38.0,11.9,4,5,7,0,2026-05-18T04:34:09.560177+05:30
Moradabad,Uttar Pradesh,28.8386,78.7733,27.0,45,0.0,975.5,7.85,38.2,156,291.5,107.6,21.8,385.0,39.0,9.5,4,5,7,0,2026-05-18T04:34:09.560183+05:30
Saharanpur,Uttar Pradesh,29.9637,77.546,26.9,45,0.0,967.5,7.4,36.4,97,94.8,44.0,22.8,350.0,52.0,9.5,4,5,7,0,2026-05-18T04:34:09.560187+05:30
Jhansi,Uttar Pradesh,25.4484,78.5685,30.1,33,0.0,971.6,8.5,44.6,117,56.5,23.7,4.1,213.0,64.0,2.2,0,5,7,0,2026-05-18T04:34:12.948322+05:30
Surat,Gujarat,21.1702,72.8311,28.1,93,0.0,1001.7,7.25,37.4,91,43.5,29.6,29.6,329.0,27.0,35.8,7,5,4,1,2026-05-18T04:34:12.948353+05:30
Vadodara,Gujarat,22.3072,73.1812,31.6,33,0.0,999.3,8.1,35.6,73,29.7,19.3,9.1,170.0,50.0,7.4,0,5,7,0,2026-05-18T04:34:12.948361+05:30
Rajkot,Gujarat,22.3039,70.8022,25.6,91,0.0,990.4,7.75,39.6,59,24.2,10.2,6.3,118.0,43.0,4.1,7,5,7,1,2026-05-18T04:34:12.948368+05:30
Thane,Maharashtra,19.2183,72.9781,28.0,88,0.0,1003.3,7.55,40.3,64,48.8,19.4,9.5,191.0,54.0,4.5,7,5,4,1,2026-05-18T04:34:12.948375+05:30
Nagpur,Maharashtra,21.1458,79.0882,32.6,40,0.0,968.2,8.95,36.4,85,39.9,35.3,33.7,283.0,37.0,16.5,0,5,7,1,2026-05-18T04:34:12.948380+05:30
Nashik,Maharashtra,19.9975,73.7898,25.1,63,0.0,941.3,7.7,42.5,63,47.3,24.4,20.8,168.0,32.0,3.2,7,5,7,1,2026-05-18T04:34:12.948386+05:30
Aurangabad,Maharashtra,19.8762,75.3433,29.9,32,0.0,939.4,9.05,32.4,55,32.2,19.2,13.0,195.0,73.0,6.2,4,5,7,0,2026-05-18T04:34:12.948393+05:30
Solapur,Maharashtra,17.6599,75.9064,30.2,51,0.0,952.4,9.05,51.5,72,27.8,23.7,13.7,240.0,55.0,6.6,0,5,7,1,2026-05-18T04:34:12.948399+05:30
Kolhapur,Maharashtra,16.705,74.2433,24.4,95,0.0,944.0,8.5,44.3,58,24.2,15.7,7.5,160.0,47.0,3.0,3,5,7,1,2026-05-18T04:34:12.948406+05:30
Goa,Goa,15.2993,74.124,27.1,95,0.0,993.6,6.15,33.8,60,51.8,27.6,7.9,344.0,51.0,2.3,7,5,7,1,2026-05-18T04:34:12.948412+05:30
Jodhpur,Rajasthan,26.2389,73.0243,31.6,23,0.0,977.9,8.35,42.8,85,278.5,65.0,3.2,153.0,64.0,3.1,0,5,7,0,2026-05-18T04:34:12.948419+05:30
Udaipur,Rajasthan,24.5854,73.7125,31.3,20,0.0,942.5,8.85,45.0,59,39.0,16.8,2.9,134.0,63.0,3.4,0,5,7,0,2026-05-18T04:34:12.948425+05:30
Kota,Rajasthan,25.2138,75.8648,33.0,27,0.0,972.9,8.4,36.7,110,100.6,34.7,8.8,186.0,50.0,4.4,0,5,7,0,2026-05-18T04:34:12.948431+05:30
Bikaner,Rajasthan,28.0229,73.3119,32.2,24,0.0,975.8,8.4,42.5,84,170.0,49.5,1.3,136.0,78.0,2.2,0,5,7,0,2026-05-18T04:34:12.948437+05:30
Ajmer,Rajasthan,26.4499,74.6399,30.4,32,0.0,950.0,8.4,41.8,78,71.2,22.9,2.9,177.0,82.0,5.4,0,5,7,0,2026-05-18T04:34:12.948443+05:30
Gwalior,Madhya Pradesh,26.2183,78.1828,32.5,27,0.0,976.6,8.3,46.8,163,54.2,23.6,5.6,174.0,61.0,3.2,0,5,7,0,2026-05-18T04:34:12.948449+05:30
Indore,Madhya Pradesh,22.7196,75.8577,30.9,32,0.0,943.4,8.5,37.8,66,34.6,21.4,5.9,232.0,58.0,5.2,0,5,7,0,2026-05-18T04:34:12.948454+05:30
Bhopal,Madhya Pradesh,23.2599,77.4126,31.1,28,0.0,948.1,8.7,46.4,62,38.9,29.7,14.7,377.0,40.0,6.0,0,5,7,0,2026-05-18T04:34:12.948460+05:30
Jabalpur,Madhya Pradesh,23.1815,79.9864,29.5,44,0.0,956.5,8.85,35.3,84,78.7,40.7,36.9,277.0,22.0,6.3,4,5,7,0,2026-05-18T04:34:12.948466+05:30
Ujjain,Madhya Pradesh,23.1765,75.7885,30.2,32,0.0,948.8,8.6,37.8,68,32.5,20.3,4.8,338.0,56.0,4.2,0,5,7,0,2026-05-18T04:34:12.948472+05:30
Visakhapatnam,Andhra Pradesh,17.6868,83.2185,28.6,86,0.0,999.7,9.0,47.5,61,26.9,19.4,16.6,322.0,57.0,30.2,7,5,7,1,2026-05-18T04:34:12.948478+05:30
Vijayawada,Andhra Pradesh,16.5062,80.648,29.3,81,0.0,998.2,8.5,38.9,55,22.1,16.8,6.5,214.0,73.0,3.5,7,5,7,1,2026-05-18T04:34:12.948483+05:30
Guntur,Andhra Pradesh,16.3067,80.4365,29.6,79,0.0,999.3,8.95,34.2,53,21.9,16.6,5.8,206.0,77.0,2.3,7,5,7,1,2026-05-18T04:34:12.948489+05:30
Nellore,Andhra Pradesh,14.4426,79.9865,29.0,82,0.0,1000.8,9.15,41.0,67,22.9,19.2,9.7,224.0,76.0,16.5,7,5,4,1,2026-05-18T04:34:12.948495+05:30
Kurnool,Andhra Pradesh,15.8281,78.0373,29.9,62,0.0,972.2,9.15,36.4,60,17.6,15.9,4.9,218.0,85.0,6.3,7,5,7,1,2026-05-18T04:34:12.948502+05:30
Kakinada,Andhra Pradesh,16.9891,82.2475,29.1,83,0.0,1003.5,8.7,42.1,53,26.5,16.8,1.9,226.0,85.0,1.6,7,5,4,1,2026-05-18T04:34:12.948508+05:30
Tirupati,Andhra Pradesh,13.6288,79.4192,27.1,85,0.0,986.5,9.1,34.2,76,24.3,21.5,13.4,291.0,59.0,16.7,7,5,7,1,2026-05-18T04:34:12.948513+05:30
Warangal,Telangana,17.9689,79.5941,28.1,73,0.0,974.0,9.15,32.4,67,17.4,14.8,9.0,257.0,55.0,6.7,7,5,7,1,2026-05-18T04:34:12.948519+05:30
Nizamabad,Telangana,18.6725,78.0941,29.7,55,0.0,960.4,9.15,32.0,84,25.6,21.5,10.9,285.0,69.0,5.9,4,5,7,1,2026-05-18T04:34:12.948539+05:30
Mysore,Karnataka,12.2958,76.6396,22.9,95,0.0,924.5,4.15,38.9,66,7.4,6.5,7.1,217.0,55.0,2.6,3,5,3,1,2026-05-18T04:34:12.948545+05:30
Mangalore,Karnataka,12.9141,74.856,25.1,97,0.3,1003.0,6.9,40.0,57,18.0,12.2,6.8,218.0,43.0,3.0,10,5,4,1,2026-05-18T04:34:12.948552+05:30
Hubli-Dharwad,Karnataka,15.3647,75.124,24.4,93,0.0,936.6,8.85,40.3,55,19.8,10.7,3.3,150.0,51.0,1.8,3,5,7,1,2026-05-18T04:34:12.948558+05:30
Belgaum,Karnataka,15.8497,74.4977,22.9,98,0.0,921.4,9.05,45.4,56,25.4,14.4,5.5,140.0,46.0,1.7,3,5,7,1,2026-05-18T04:34:16.349052+05:30
Coimbatore,Tamil Nadu,11.0168,76.9558,23.8,98,0.0,957.6,7.65,48.6,43,4.7,3.7,4.7,172.0,58.0,2.6,3,5,7,1,2026-05-18T04:34:16.349083+05:30
Madurai,Tamil Nadu,9.9252,78.1198,27.0,80,0.0,989.3,7.4,42.1,81,36.0,32.4,40.7,217.0,0.0,7.1,7,5,7,1,2026-05-18T04:34:16.349092+05:30
Trichy,Tamil Nadu,10.7905,78.7047,26.5,94,0.0,995.8,7.7,31.0,77,22.6,20.2,16.6,259.0,45.0,4.5,7,5,7,1,2026-05-18T04:34:16.349099+05:30
Salem,Tamil Nadu,11.6643,78.146,25.5,95,0.0,973.5,7.25,35.3,80,24.2,21.2,14.3,229.0,53.0,5.0,7,5,7,1,2026-05-18T04:34:16.349107+05:30
Tirunelveli,Tamil Nadu,8.7139,77.7567,27.4,81,0.0,999.8,8.85,25.6,27,4.3,3.9,4.1,227.0,52.0,1.5,7,5,7,1,2026-05-18T04:34:16.349113+05:30
Vellore,Tamil Nadu,12.9165,79.1325,26.9,83,0.0,979.8,7.9,34.6,86,28.0,24.1,10.1,321.0,58.0,6.3,7,5,7,1,2026-05-18T04:34:16.349120+05:30
Erode,Tamil Nadu,11.341,77.7172,25.8,93,0.0,985.2,7.9,38.9,62,12.6,11.2,13.7,181.0,39.0,4.2,7,5,7,1,2026-05-18T04:34:16.349126+05:30
Kochi,Kerala,9.9312,76.2673,25.3,97,0.1,1005.8,8.15,30.6,51,13.1,11.4,11.9,202.0,32.0,3.9,10,5,4,1,2026-05-18T04:34:16.349133+05:30
Thiruvananthapuram,Kerala,8.5241,76.9366,24.0,99,0.0,1005.5,6.9,34.2,34,9.8,6.3,2.6,250.0,67.0,1.3,3,5,4,1,2026-05-18T04:34:16.349139+05:30
Kozhikode,Kerala,11.2588,75.7804,24.4,99,0.1,1004.7,3.0,27.7,46,10.9,6.4,1.3,194.0,71.0,1.0,6,5,0,1,2026-05-18T04:34:16.349145+05:30
Thrissur,Kerala,10.5276,76.2144,24.1,99,0.4,1004.1,6.25,28.4,49,12.0,10.6,11.6,226.0,33.0,4.1,6,5,4,1,2026-05-18T04:34:16.349152+05:30
Kannur,Kerala,11.8745,75.3704,25.2,98,0.1,1003.9,2.4,31.7,54,9.4,7.1,5.1,226.0,55.0,2.2,10,5,0,1,2026-05-18T04:34:16.349158+05:30
Patna,Bihar,25.5941,85.1376,27.1,86,0.0,994.1,8.8,27.7,151,73.3,63.3,36.6,505.0,25.0,14.7,7,5,7,1,2026-05-18T04:34:16.349163+05:30
Gaya,Bihar,24.7914,85.0002,27.1,45,0.0,987.5,8.85,42.8,132,75.9,39.2,19.2,300.0,56.0,13.8,4,5,7,0,2026-05-18T04:34:16.349169+05:30
Muzaffarpur,Bihar,26.1209,85.3647,26.0,89,0.0,994.4,8.85,35.6,155,57.2,52.9,20.0,495.0,57.0,13.2,7,5,7,1,2026-05-18T04:34:16.349175+05:30
Bhagalpur,Bihar,25.2425,87.0117,26.2,93,0.0,995.3,8.8,34.9,139,58.8,55.8,15.1,570.0,56.0,6.8,7,5,7,1,2026-05-18T04:34:16.349180+05:30
Ranchi,Jharkhand,23.3441,85.3096,24.5,64,0.0,933.2,9.25,39.2,136,72.9,59.8,10.9,334.0,104.0,14.3,3,5,7,1,2026-05-18T04:34:16.349185+05:30
Jamshedpur,Jharkhand,22.8046,86.2029,27.0,75,0.0,985.8,9.05,37.4,138,56.1,47.5,17.0,291.0,83.0,28.0,7,5,7,1,2026-05-18T04:34:16.349191+05:30
Dhanbad,Jharkhand,23.7957,86.4304,26.6,65,0.0,974.4,9.0,36.4,152,97.3,82.2,44.4,265.0,51.0,111.5,7,5,7,1,2026-05-18T04:34:16.349197+05:30
Bokaro,Jharkhand,23.6693,86.1511,26.6,63,0.0,978.3,9.05,37.4,148,88.9,71.2,40.0,295.0,33.0,76.5,7,5,7,1,2026-05-18T04:34:16.349202+05:30
Bhubaneswar,Odisha,20.2961,85.8245,28.5,89,0.0,997.8,9.1,43.6,56,15.0,12.5,6.6,193.0,57.0,5.3,7,5,7,1,2026-05-18T04:34:16.349207+05:30
Cuttack,Odisha,20.4625,85.8828,28.5,89,0.0,999.5,9.15,41.8,56,15.0,12.5,6.6,202.0,57.0,5.3,7,5,7,1,2026-05-18T04:34:16.349212+05:30
Rourkela,Odisha,22.2604,84.8536,27.4,83,0.0,980.7,8.95,38.9,153,81.0,64.7,20.6,269.0,70.0,17.9,7,5,7,1,2026-05-18T04:34:16.349218+05:30
Raipur,Chhattisgarh,21.2514,81.6296,29.6,54,0.0,970.3,8.95,40.7,115,47.5,40.3,28.6,479.0,48.0,33.6,4,5,7,1,2026-05-18T04:34:16.349223+05:30
Bhilai,Chhattisgarh,21.1938,81.3509,29.1,62,0.0,970.7,9.0,39.2,100,39.9,34.2,24.9,779.0,61.0,36.1,7,5,7,1,2026-05-18T04:34:16.349227+05:30
Guwahati,Assam,26.1158,91.7086,22.1,98,0.4,998.7,8.6,33.1,64,18.8,15.0,5.7,290.0,84.0,3.0,6,5,7,1,2026-05-18T04:34:16.349233+05:30
Agartala,Tripura,23.8315,91.2868,26.4,92,0.0,1002.2,8.9,41.4,67,17.8,12.6,8.7,180.0,40.0,1.9,7,5,4,1,2026-05-18T04:34:16.349238+05:30
Shillong,Meghalaya,25.5788,91.8933,18.5,93,0.0,853.4,5.95,40.0,48,9.4,5.5,3.8,225.0,99.0,4.9,3,10,3,1,2026-05-18T04:34:16.349242+05:30
Imphal,Manipur,24.817,93.9368,20.4,94,0.0,919.7,8.8,36.4,62,18.8,16.3,9.9,452.0,19.0,2.2,3,5,7,1,2026-05-18T04:34:16.349248+05:30
Aizawl,Mizoram,23.7271,92.7176,17.8,97,0.0,889.0,9.05,39.6,59,26.8,16.7,4.2,150.0,53.0,3.2,3,10,7,1,2026-05-18T04:34:16.349253+05:30
Kohima,Nagaland,25.6701,94.1077,16.2,94,0.1,850.6,5.7,29.5,55,16.8,13.6,5.1,215.0,36.0,1.4,6,10,3,0,2026-05-18T04:34:16.349258+05:30
Gangtok,Sikkim,27.3314,88.6138,14.5,84,0.0,832.5,9.15,39.2,65,14.8,13.2,10.6,599.0,59.0,1.5,3,10,7,0,2026-05-18T04:34:16.349263+05:30
Siliguri,West Bengal,26.7271,88.3953,22.0,96,0.0,989.6,8.75,29.9,96,50.2,42.0,15.9,345.0,80.0,6.9,3,5,7,1,2026-05-18T04:34:19.738077+05:30
Durgapur,West Bengal,23.5204,87.3119,27.5,85,0.0,989.4,8.95,33.5,145,68.2,61.2,31.1,743.0,60.0,49.6,7,5,7,1,2026-05-18T04:34:19.738110+05:30
Asansol,West Bengal,23.6739,86.9524,27.4,76,0.0,987.9,9.0,34.9,145,80.8,70.1,34.3,568.0,59.0,60.0,7,5,7,1,2026-05-18T04:34:19.738119+05:30
Pondicherry,Puducherry,11.9139,79.8145,27.2,89,0.0,1004.0,8.4,40.0,70,15.4,12.5,9.3,273.0,70.0,10.4,7,5,4,1,2026-05-18T04:34:19.738126+05:30
Port Blair,Andaman and Nicobar Islands,11.6234,92.7265,27.1,90,0.0,1003.9,8.95,45.7,21,7.3,4.3,0.3,96.0,46.0,0.2,7,5,4,1,2026-05-18T04:34:19.738133+05:30
Haridwar,Uttarakhand,29.9457,78.1642,21.6,76,0.0,965.3,7.55,27.4,79,34.7,33.6,35.4,299.0,7.0,4.6,3,5,7,1,2026-05-18T04:34:19.738140+05:30
Rishikesh,Uttarakhand,30.0869,78.2676,19.7,76,0.0,957.7,7.65,28.1,67,28.3,25.4,21.0,313.0,40.0,4.2,3,5,7,0,2026-05-18T04:34:19.738146+05:30
Nainital,Uttarakhand,29.3919,79.4542,15.4,57,0.0,799.6,8.5,29.9,67,26.8,22.4,19.8,245.0,70.0,4.8,0,5,7,0,2026-05-18T04:34:19.738152+05:30
Mussoorie,Uttarakhand,30.4599,78.0664,16.3,54,0.0,797.3,8.05,45.4,68,25.3,23.5,33.1,207.0,9.0,3.7,0,5,7,0,2026-05-18T04:34:19.738159+05:30
Dharamshala,Himachal Pradesh,32.219,76.3234,22.2,37,0.0,863.4,8.45,41.4,41,4.6,3.6,6.9,174.0,61.0,0.0,0,5,7,0,2026-05-18T04:34:19.738165+05:30
Dalhousie,Himachal Pradesh,32.5387,75.971,10.6,74,0.0,795.1,8.7,39.6,63,14.0,12.6,11.5,239.0,45.0,0.4,3,5,7,0,2026-05-18T04:34:19.738171+05:30
Patiala,Punjab,30.3398,76.3869,27.5,47,0.0,970.5,7.65,33.8,624,696.6,117.1,9.5,439.0,68.0,8.2,4,5,7,0,2026-05-18T04:34:19.738177+05:30
Bhatinda,Punjab,30.211,74.9455,28.7,51,0.0,976.2,8.3,40.3,85,55.2,31.7,9.0,382.0,82.0,7.0,4,5,7,1,2026-05-18T04:34:19.738182+05:30
Rohtak,Haryana,28.8955,76.6066,26.6,48,0.0,974.5,7.75,41.8,766,631.4,149.5,18.2,338.0,47.0,7.2,4,5,7,0,2026-05-18T04:34:19.738189+05:30
Panipat,Haryana,29.3909,76.9635,27.6,46,0.0,972.6,7.6,34.6,1826,1732.3,294.3,10.9,387.0,69.0,9.2,4,5,7,0,2026-05-18T04:34:19.738194+05:30
Mathura,Uttar Pradesh,27.4924,77.6737,28.8,40,0.0,979.6,8.0,38.2,498,210.5,53.9,12.9,314.0,36.0,5.1,4,5,7,0,2026-05-18T04:34:19.738201+05:30
Vrindavan,Uttar Pradesh,27.5823,77.7027,28.0,44,0.0,979.9,8.0,36.4,498,210.5,53.9,12.9,294.0,36.0,5.1,4,5,7,0,2026-05-18T04:34:19.738207+05:30
Ayodhya,Uttar Pradesh,26.7922,82.1998,26.9,66,0.0,988.4,8.35,24.8,152,308.3,96.4,27.8,438.0,37.0,10.1,7,5,7,1,2026-05-18T04:34:19.738213+05:30
Ratlam,Madhya Pradesh,23.3315,75.0367,29.0,38,0.0,949.9,8.55,44.6,63,30.5,17.8,3.7,218.0,59.0,3.6,4,5,7,0,2026-05-18T04:34:19.738219+05:30
Sagar,Madhya Pradesh,23.8388,78.7378,30.1,32,0.0,945.0,8.75,42.8,85,84.5,30.6,17.0,257.0,56.0,3.9,0,5,7,0,2026-05-18T04:34:19.738225+05:30
Satna,Madhya Pradesh,24.6005,80.8322,29.5,34,0.0,965.5,8.8,53.6,101,91.7,35.9,25.8,277.0,40.0,4.5,4,5,7,0,2026-05-18T04:34:19.738231+05:30
Akola,Maharashtra,20.7002,77.0082,32.5,30,0.0,970.0,8.9,31.3,53,22.7,13.9,8.9,194.0,70.0,8.4,0,5,7,0,2026-05-18T04:34:19.738238+05:30
Amravati,Maharashtra,20.9374,77.7796,31.9,28,0.0,962.4,8.9,28.4,61,23.2,15.7,15.4,252.0,54.0,7.4,0,5,7,0,2026-05-18T04:34:19.738245+05:30
Latur,Maharashtra,18.4088,76.5604,29.9,53,0.0,935.9,8.9,34.9,73,33.6,28.6,14.0,255.0,66.0,8.0,4,5,7,1,2026-05-18T04:34:19.738251+05:30
Nanded,Maharashtra,19.1383,77.3091,31.8,48,0.0,964.1,9.0,29.5,74,40.4,34.3,22.0,302.0,45.0,5.7,0,5,7,1,2026-05-18T04:34:19.738257+05:30
Gulbarga,Karnataka,17.3297,76.8343,29.8,55,0.0,954.4,9.1,38.5,87,32.5,27.2,13.2,221.0,63.0,11.1,4,5,7,1,2026-05-18T04:34:19.738262+05:30
Bidar,Karnataka,17.9104,77.5199,28.6,54,0.0,931.6,9.1,29.5,87,23.7,19.7,10.6,255.0,67.0,4.6,4,5,7,1,2026-05-18T04:34:19.738267+05:30
Hospet,Karnataka,15.2689,76.3909,25.5,93,0.0,951.3,8.85,49.0,69,12.8,10.0,9.4,200.0,36.0,2.1,7,5,7,1,2026-05-18T04:34:19.738273+05:30
Tirupur,Tamil Nadu,11.1085,77.3411,24.6,92,0.0,971.2,4.6,47.5,64,14.0,12.4,13.8,161.0,39.0,4.5,3,5,3,1,2026-05-18T04:34:19.738278+05:30
Alappuzha,Kerala,9.4981,76.3388,25.0,99,0.0,1005.9,6.0,30.6,44,10.2,7.5,5.8,198.0,55.0,1.6,7,5,0,1,2026-05-18T04:34:19.738283+05:30
Munnar,Kerala,10.0889,77.0595,18.0,99,0.0,853.8,5.8,25.2,27,5.4,5.2,5.8,173.0,36.0,1.4,3,10,3,1,2026-05-18T04:34:19.738289+05:30
Silchar,Assam,24.8333,92.7789,24.4,97,0.1,1001.8,8.7,28.4,54,17.6,12.0,7.7,265.0,54.0,3.1,6,5,4,1,2026-05-18T04:34:19.738294+05:30
Dibrugarh,Assam,27.4728,94.912,21.5,99,0.4,993.1,7.1,24.5,67,16.8,12.6,9.8,253.0,59.0,1.0,6,5,7,1,2026-05-18T04:34:19.738300+05:30
