city,state,latitude,longitude,temp,humidity,rain,pressure,uv_index,wind_gusts,aqi,pm10,pm2_5,no2,co,o3,so2,mosquito_risk,arthritis_risk,migraine_risk,frizz_risk,updated_at
Delhi,Delhi,28.6139,77.209,39.7,29,0.0,974.4,7.75,32.4,164,234.2,72.4,6.8,281.0,162.0,12.1,0,5,10,1,2026-06-27T17:06:36.455106+05:30
Mumbai,Maharashtra,19.076,72.8777,30.1,73,0.0,1003.5,7.4,31.3,62,29.5,18.0,6.7,174.0,98.0,7.8,3,5,4,1,2026-06-27T17:06:36.455164+05:30
Bangalore,Karnataka,12.9716,77.5946,24.4,78,0.1,908.6,9.2,41.0,42,19.5,9.3,16.6,344.0,64.0,2.8,6,5,7,1,2026-06-27T17:06:36.455180+05:30
Hyderabad,Telangana,17.385,78.4867,27.1,80,0.1,948.8,7.75,35.6,84,40.7,25.1,7.1,367.0,119.0,4.6,10,5,7,1,2026-06-27T17:06:36.455190+05:30
Chennai,Tamil Nadu,13.0827,80.2707,32.6,60,0.0,1001.3,8.2,46.4,79,33.8,22.8,4.9,265.0,128.0,6.2,0,5,4,1,2026-06-27T17:06:36.455198+05:30
Kolkata,West Bengal,22.5726,88.3639,31.0,76,0.0,999.4,8.85,32.4,78,19.0,15.4,5.1,354.0,93.0,5.4,3,5,7,1,2026-06-27T17:06:36.455205+05:30
Pune,Maharashtra,18.5204,73.8567,27.9,69,0.0,943.8,8.2,46.4,50,24.2,13.2,5.0,142.0,92.0,4.9,7,5,7,1,2026-06-27T17:06:36.455212+05:30
Ahmedabad,Gujarat,23.0225,72.5714,39.6,31,0.0,994.8,8.05,33.5,75,62.4,22.9,1.5,137.0,99.0,3.0,0,5,10,1,2026-06-27T17:06:36.455219+05:30
Jaipur,Rajasthan,26.9124,75.7873,37.5,32,0.0,953.1,8.2,28.1,130,110.4,33.8,0.2,166.0,109.0,2.4,0,5,10,1,2026-06-27T17:06:36.455225+05:30
Lucknow,Uttar Pradesh,26.8467,80.9462,39.6,33,0.0,984.4,8.3,27.7,147,116.2,46.0,1.5,211.0,172.0,7.0,0,5,10,1,2026-06-27T17:06:36.455236+05:30
Kanpur,Uttar Pradesh,26.4499,80.3319,40.1,32,0.0,982.7,8.3,33.1,127,131.8,45.1,1.5,185.0,159.0,5.6,0,5,10,1,2026-06-27T17:06:36.455242+05:30
Chandigarh,Chandigarh,30.7333,76.7794,37.3,37,0.0,961.5,7.8,29.9,163,92.2,52.7,1.8,340.0,183.0,9.6,0,5,10,1,2026-06-27T17:06:36.455249+05:30
Srinagar,Jammu and Kashmir,34.0837,74.7973,31.8,30,0.0,840.4,9.1,25.6,119,22.8,16.1,0.6,300.0,151.0,1.8,0,5,7,0,2026-06-27T17:06:36.455255+05:30
Jammu,Jammu and Kashmir,32.7266,74.857,37.8,36,0.0,965.3,8.65,31.0,145,68.2,37.4,0.0,286.0,175.0,3.4,0,5,10,1,2026-06-27T17:06:36.455262+05:30
Amritsar,Punjab,31.634,74.8723,36.5,47,0.0,972.9,8.45,16.2,171,87.1,55.5,1.2,329.0,195.0,8.1,0,5,10,1,2026-06-27T17:06:36.455268+05:30
Ludhiana,Punjab,30.901,75.8573,38.5,37,0.0,970.6,8.05,28.4,157,117.6,55.5,0.9,316.0,173.0,7.6,0,5,10,1,2026-06-27T17:06:36.455274+05:30
Jalandhar,Punjab,31.326,75.5762,38.3,37,0.0,971.7,8.25,28.8,162,101.3,55.3,1.2,334.0,176.0,7.2,0,5,10,1,2026-06-27T17:06:36.455283+05:30
Dehradun,Uttarakhand,30.6284,78.0322,23.6,69,0.2,829.3,8.25,35.6,105,52.3,30.5,3.1,230.0,142.0,3.7,6,5,7,1,2026-06-27T17:06:36.455290+05:30
Shimla,Himachal Pradesh,31.1048,77.1734,22.0,60,0.0,784.5,7.35,33.8,126,64.0,41.0,0.2,241.0,174.0,11.0,0,5,7,0,2026-06-27T17:06:36.455296+05:30
Manali,Himachal Pradesh,32.2396,77.1887,21.5,93,0.1,817.6,8.7,35.3,63,25.3,23.1,26.7,181.0,103.0,0.5,6,5,7,1,2026-06-27T17:06:36.455308+05:30
Gurgaon,Haryana,28.4595,77.0266,38.4,32,0.0,973.2,7.8,29.9,193,549.5,99.2,5.1,210.0,166.0,9.8,0,5,10,1,2026-06-27T17:06:36.455314+05:30
Noida,Uttar Pradesh,28.5355,77.391,38.5,37,0.0,975.5,7.8,23.4,193,549.5,99.2,5.1,335.0,166.0,9.8,0,5,10,1,2026-06-27T17:06:36.455320+05:30
Ghaziabad,Uttar Pradesh,28.6692,77.4538,37.8,36,0.0,974.2,7.75,20.2,179,218.4,76.6,5.6,275.0,207.0,19.2,0,5,10,1,2026-06-27T17:06:36.455326+05:30
Faridabad,Haryana,28.4089,77.3178,39.4,28,0.0,974.9,7.8,31.0,193,549.5,99.2,5.1,218.0,166.0,9.8,0,5,10,1,2026-06-27T17:06:36.455332+05:30
Meerut,Uttar Pradesh,28.9845,77.7064,38.2,35,0.0,973.2,7.7,27.0,179,218.4,76.6,5.6,215.0,207.0,19.2,0,5,10,1,2026-06-27T17:06:36.455338+05:30
Agra,Uttar Pradesh,27.1767,78.0081,39.3,30,0.0,979.2,8.1,32.4,135,170.9,44.5,0.9,174.0,142.0,2.6,0,5,10,1,2026-06-27T17:06:36.455346+05:30
Varanasi,Uttar Pradesh,25.3176,82.9739,38.7,40,0.0,988.7,8.8,25.6,146,43.1,38.5,0.1,198.0,180.0,8.4,0,5,10,1,2026-06-27T17:06:36.455352+05:30
Prayagraj,Uttar Pradesh,25.4358,81.8463,39.0,38,0.0,987.2,8.7,37.1,123,62.6,31.5,0.0,184.0,162.0,5.0,0,5,10,1,2026-06-27T17:06:36.455358+05:30
Gorakhpur,Uttar Pradesh,26.7606,83.3732,36.5,48,0.0,988.5,8.65,30.2,183,64.7,44.0,2.6,277.0,170.0,6.2,0,5,10,1,2026-06-27T17:06:36.455364+05:30
Bareilly,Uttar Pradesh,28.367,79.4304,38.9,31,0.0,977.8,8.1,25.2,169,99.4,45.5,2.1,250.0,183.0,7.7,0,5,10,1,2026-06-27T17:06:36.455371+05:30
Aligarh,Uttar Pradesh,27.8974,78.088,38.3,36,0.0,977.0,7.95,31.7,164,350.2,83.1,2.2,182.0,192.0,13.1,0,5,10,1,2026-06-27T17:06:36.455378+05:30
Moradabad,Uttar Pradesh,28.8386,78.7733,38.6,33,0.0,975.2,7.95,31.0,187,135.0,51.1,1.6,299.0,180.0,10.3,0,5,10,1,2026-06-27T17:06:36.455384+05:30
Saharanpur,Uttar Pradesh,29.9637,77.546,37.0,38,0.0,968.0,7.45,28.4,169,128.1,54.2,2.8,286.0,180.0,13.4,0,5,10,1,2026-06-27T17:06:36.455389+05:30
Jhansi,Uttar Pradesh,25.4484,78.5685,38.1,38,0.0,970.0,8.35,46.8,89,71.2,31.2,0.8,146.0,116.0,4.9,0,5,10,1,2026-06-27T17:06:39.673571+05:30
Surat,Gujarat,21.1702,72.8311,33.6,54,0.0,1000.9,7.6,38.9,86,53.0,28.2,14.7,222.0,56.0,40.5,0,5,4,1,2026-06-27T17:06:39.673599+05:30
Vadodara,Gujarat,22.3072,73.1812,38.0,37,0.0,997.3,8.0,37.8,80,66.6,28.6,2.0,144.0,113.0,4.3,0,5,10,1,2026-06-27T17:06:39.673610+05:30
Rajkot,Gujarat,22.3039,70.8022,36.6,38,0.1,987.7,7.55,45.7,67,77.3,25.4,1.3,106.0,107.0,4.1,3,5,10,1,2026-06-27T17:06:39.673618+05:30
Thane,Maharashtra,19.2183,72.9781,30.8,69,0.0,1002.9,6.5,30.6,62,29.5,18.0,6.7,155.0,98.0,7.8,3,5,4,1,2026-06-27T17:06:39.673626+05:30
Nagpur,Maharashtra,21.1458,79.0882,30.1,75,0.0,967.6,8.85,30.6,101,40.5,38.4,11.4,246.0,150.0,30.4,3,5,7,1,2026-06-27T17:06:39.673633+05:30
Nashik,Maharashtra,19.9975,73.7898,29.8,58,0.0,941.1,7.6,31.3,59,25.8,12.9,1.8,135.0,90.0,1.5,4,5,7,1,2026-06-27T17:06:39.673641+05:30
Aurangabad,Maharashtra,19.8762,75.3433,25.3,92,0.4,939.4,7.85,41.4,69,58.2,25.5,1.4,171.0,100.0,2.4,10,5,7,1,2026-06-27T17:06:39.673648+05:30
Solapur,Maharashtra,17.6599,75.9064,28.8,75,0.1,952.3,2.95,29.2,52,41.6,18.7,2.0,121.0,107.0,3.5,10,5,3,1,2026-06-27T17:06:39.673656+05:30
Kolhapur,Maharashtra,16.705,74.2433,27.0,73,0.1,943.9,7.4,40.3,33,7.9,5.7,4.1,126.0,59.0,1.5,10,5,7,1,2026-06-27T17:06:39.673664+05:30
Goa,Goa,15.2993,74.124,28.5,84,0.0,994.3,5.4,27.4,52,9.6,5.6,1.8,142.0,54.0,0.8,7,5,3,1,2026-06-27T17:06:39.673671+05:30
Jodhpur,Rajasthan,26.2389,73.0243,38.7,35,0.0,975.6,8.45,32.8,98,156.5,40.5,0.7,121.0,92.0,2.2,0,5,10,1,2026-06-27T17:06:39.673678+05:30
Udaipur,Rajasthan,24.5854,73.7125,29.7,70,0.0,941.9,8.2,33.8,65,49.4,22.4,1.4,123.0,85.0,1.7,7,5,7,1,2026-06-27T17:06:39.673686+05:30
Kota,Rajasthan,25.2138,75.8648,37.9,38,0.0,971.3,8.35,37.4,86,67.5,27.1,1.1,142.0,108.0,2.8,0,5,10,1,2026-06-27T17:06:39.673693+05:30
Bikaner,Rajasthan,28.0229,73.3119,40.7,27,0.0,973.7,8.45,33.1,97,88.2,30.5,0.2,127.0,92.0,2.6,0,5,10,1,2026-06-27T17:06:39.673700+05:30
Ajmer,Rajasthan,26.4499,74.6399,35.3,41,0.0,948.5,8.35,38.2,85,95.7,32.8,1.0,141.0,97.0,1.7,0,5,10,1,2026-06-27T17:06:39.673708+05:30
Gwalior,Madhya Pradesh,26.2183,78.1828,39.6,31,0.0,974.8,8.25,52.2,84,69.6,28.8,0.0,141.0,123.0,1.7,0,5,10,1,2026-06-27T17:06:39.673716+05:30
Indore,Madhya Pradesh,22.7196,75.8577,28.2,76,0.2,943.3,8.5,31.7,89,49.6,27.4,4.7,315.0,102.0,3.8,10,5,7,1,2026-06-27T17:06:39.673724+05:30
Bhopal,Madhya Pradesh,23.2599,77.4126,27.8,86,0.1,948.1,8.65,38.5,83,45.6,26.3,4.4,254.0,101.0,2.6,10,5,7,1,2026-06-27T17:06:39.673731+05:30
Jabalpur,Madhya Pradesh,23.1815,79.9864,35.0,47,0.0,954.9,8.85,28.8,79,17.9,15.3,1.2,193.0,137.0,2.6,0,5,7,1,2026-06-27T17:06:39.673739+05:30
Ujjain,Madhya Pradesh,23.1765,75.7885,28.3,78,0.1,948.9,8.5,32.8,86,52.6,27.3,1.7,229.0,101.0,2.9,10,5,7,1,2026-06-27T17:06:39.673747+05:30
Visakhapatnam,Andhra Pradesh,17.6868,83.2185,31.0,74,0.0,997.6,8.3,35.3,94,33.1,25.2,11.0,337.0,124.0,28.8,3,5,7,1,2026-06-27T17:06:39.673754+05:30
Vijayawada,Andhra Pradesh,16.5062,80.648,31.8,69,0.0,996.5,8.45,35.3,76,38.2,24.2,2.1,193.0,119.0,4.6,3,5,7,1,2026-06-27T17:06:39.673761+05:30
Guntur,Andhra Pradesh,16.3067,80.4365,33.3,58,0.0,997.6,7.7,40.3,76,37.0,22.5,0.3,187.0,120.0,3.8,0,5,7,1,2026-06-27T17:06:39.673769+05:30
Nellore,Andhra Pradesh,14.4426,79.9865,36.0,44,0.0,999.0,8.7,43.9,66,30.6,20.4,2.8,161.0,120.0,3.8,0,5,10,1,2026-06-27T17:06:39.673777+05:30
Kurnool,Andhra Pradesh,15.8281,78.0373,33.9,47,0.0,971.0,6.55,36.4,58,45.6,22.6,1.7,156.0,118.0,7.6,0,5,7,1,2026-06-27T17:06:39.673785+05:30
Kakinada,Andhra Pradesh,16.9891,82.2475,30.8,73,0.1,1001.3,6.6,41.8,85,36.1,24.7,1.6,218.0,121.0,4.0,6,5,4,1,2026-06-27T17:06:39.673793+05:30
Tirupati,Andhra Pradesh,13.6288,79.4192,35.5,39,0.0,984.9,8.7,42.1,59,23.1,12.1,8.6,167.0,73.0,1.4,0,5,10,1,2026-06-27T17:06:39.673800+05:30
Warangal,Telangana,17.9689,79.5941,28.6,81,0.0,973.7,8.8,36.0,88,52.4,30.5,2.4,183.0,123.0,4.5,7,5,7,1,2026-06-27T17:06:39.673807+05:30
Nizamabad,Telangana,18.6725,78.0941,27.3,83,0.1,960.1,8.15,36.7,99,54.1,31.3,3.8,161.0,98.0,3.4,10,5,7,1,2026-06-27T17:06:39.673815+05:30
Mysore,Karnataka,12.2958,76.6396,24.5,87,0.1,925.3,8.4,42.8,33,10.6,6.0,5.3,150.0,73.0,1.3,6,5,7,1,2026-06-27T17:06:39.673822+05:30
Mangalore,Karnataka,12.9141,74.856,28.2,80,0.0,1004.0,8.7,34.6,45,10.8,5.9,2.0,125.0,54.0,1.1,7,5,4,1,2026-06-27T17:06:39.673830+05:30
Hubli-Dharwad,Karnataka,15.3647,75.124,27.4,69,0.0,937.1,7.1,42.8,28,8.3,4.7,3.5,142.0,57.0,0.7,7,5,7,1,2026-06-27T17:06:39.673837+05:30
Belgaum,Karnataka,15.8497,74.4977,25.6,75,0.0,922.1,8.45,42.5,27,4.4,3.3,3.6,115.0,55.0,1.3,7,5,7,1,2026-06-27T17:06:42.888850+05:30
Coimbatore,Tamil Nadu,11.0168,76.9558,29.5,62,0.0,958.4,8.8,48.6,35,9.5,6.5,4.3,151.0,70.0,1.7,7,5,7,1,2026-06-27T17:06:42.888878+05:30
Madurai,Tamil Nadu,9.9252,78.1198,33.8,47,0.1,988.5,8.7,53.6,68,29.5,14.3,2.5,161.0,112.0,1.9,3,5,7,1,2026-06-27T17:06:42.888888+05:30
Trichy,Tamil Nadu,10.7905,78.7047,35.7,40,0.1,994.4,7.8,38.9,48,31.8,13.8,2.2,123.0,94.0,1.8,3,5,10,1,2026-06-27T17:06:42.888897+05:30
Salem,Tamil Nadu,11.6643,78.146,34.1,48,0.0,972.4,8.25,27.7,56,26.9,13.8,6.2,148.0,98.0,4.8,0,5,7,1,2026-06-27T17:06:42.888905+05:30
Tirunelveli,Tamil Nadu,8.7139,77.7567,34.4,46,0.1,999.1,8.65,36.4,38,11.1,7.7,2.3,116.0,85.0,1.5,3,5,7,1,2026-06-27T17:06:42.888912+05:30
Vellore,Tamil Nadu,12.9165,79.1325,34.9,41,0.0,978.5,8.95,41.8,59,28.5,13.7,6.4,166.0,88.0,1.9,0,5,7,1,2026-06-27T17:06:42.888919+05:30
Erode,Tamil Nadu,11.341,77.7172,35.0,41,0.1,984.1,8.4,42.5,52,20.7,11.2,4.4,161.0,101.0,1.9,3,5,7,1,2026-06-27T17:06:42.888927+05:30
Kochi,Kerala,9.9312,76.2673,28.5,79,0.0,1006.6,8.55,32.0,58,13.9,8.7,3.1,122.0,65.0,2.3,7,5,4,1,2026-06-27T17:06:42.888934+05:30
Thiruvananthapuram,Kerala,8.5241,76.9366,27.5,84,0.0,1006.4,8.3,39.6,42,13.1,7.2,1.9,99.0,62.0,0.9,7,5,4,1,2026-06-27T17:06:42.888941+05:30
Kozhikode,Kerala,11.2588,75.7804,27.9,83,0.0,1005.6,8.6,37.8,32,11.8,5.9,0.6,104.0,58.0,0.7,7,5,4,1,2026-06-27T17:06:42.888947+05:30
Thrissur,Kerala,10.5276,76.2144,28.1,83,0.1,1005.0,8.55,36.0,61,12.0,7.5,2.6,130.0,59.0,1.4,10,5,4,1,2026-06-27T17:06:42.888954+05:30
Kannur,Kerala,11.8745,75.3704,27.5,87,0.0,1004.7,8.5,36.0,44,12.2,6.5,2.7,109.0,53.0,0.9,7,5,4,1,2026-06-27T17:06:42.888961+05:30
Patna,Bihar,25.5941,85.1376,36.3,52,0.0,992.2,8.6,32.8,187,57.5,43.7,5.9,311.0,178.0,8.5,0,5,10,1,2026-06-27T17:06:42.888968+05:30
Gaya,Bihar,24.7914,85.0002,35.6,52,0.0,986.0,8.9,25.2,147,43.7,39.8,1.4,253.0,171.0,8.6,0,5,10,1,2026-06-27T17:06:42.888975+05:30
Muzaffarpur,Bihar,26.1209,85.3647,34.9,59,0.0,991.9,8.6,31.0,201,62.6,47.8,10.2,338.0,176.0,11.2,0,5,7,1,2026-06-27T17:06:42.888982+05:30
Bhagalpur,Bihar,25.2425,87.0117,33.8,66,0.1,993.2,7.7,26.6,160,58.6,46.2,4.9,238.0,179.0,16.5,6,5,7,1,2026-06-27T17:06:42.888989+05:30
Ranchi,Jharkhand,23.3441,85.3096,27.0,84,0.0,932.3,9.0,24.5,144,45.2,41.4,2.3,237.0,153.0,7.6,7,5,7,1,2026-06-27T17:06:42.888996+05:30
Jamshedpur,Jharkhand,22.8046,86.2029,29.2,83,0.0,984.5,9.1,40.7,156,56.0,51.5,5.6,514.0,185.0,18.3,7,5,7,1,2026-06-27T17:06:42.889003+05:30
Dhanbad,Jharkhand,23.7957,86.4304,32.7,62,0.0,973.2,8.85,29.5,160,76.6,73.3,16.2,810.0,230.0,61.5,3,5,7,1,2026-06-27T17:06:42.889010+05:30
Bokaro,Jharkhand,23.6693,86.1511,33.3,58,0.0,976.8,9.1,27.4,167,67.5,64.5,13.8,436.0,195.0,50.0,0,5,7,1,2026-06-27T17:06:42.889017+05:30
Bhubaneswar,Odisha,20.2961,85.8245,29.7,83,0.0,996.5,9.0,33.5,83,25.0,20.5,4.6,230.0,124.0,6.2,7,5,7,1,2026-06-27T17:06:42.889023+05:30
Cuttack,Odisha,20.4625,85.8828,29.6,83,0.0,998.3,8.9,29.2,83,25.0,20.5,4.6,244.0,124.0,6.2,7,5,7,1,2026-06-27T17:06:42.889030+05:30
Rourkela,Odisha,22.2604,84.8536,32.3,66,0.0,978.7,8.95,41.0,140,33.9,30.5,2.6,418.0,167.0,7.5,3,5,7,1,2026-06-27T17:06:42.889036+05:30
Raipur,Chhattisgarh,21.2514,81.6296,35.9,42,0.0,967.8,8.9,40.3,114,42.7,41.0,7.3,194.0,176.0,30.4,0,5,10,1,2026-06-27T17:06:42.889043+05:30
Bhilai,Chhattisgarh,21.1938,81.3509,34.6,48,0.0,968.5,8.95,33.5,108,45.5,44.1,9.9,189.0,167.0,40.9,0,5,7,1,2026-06-27T17:06:42.889049+05:30
Guwahati,Assam,26.1158,91.7086,31.3,77,0.0,993.1,8.7,40.3,81,26.3,21.2,3.6,273.0,99.0,2.3,3,5,7,1,2026-06-27T17:06:42.889056+05:30
Agartala,Tripura,23.8315,91.2868,30.1,84,0.0,999.6,8.05,30.6,61,16.4,13.6,5.8,155.0,86.0,1.8,3,5,7,1,2026-06-27T17:06:42.889062+05:30
Shillong,Meghalaya,25.5788,91.8933,24.4,71,0.0,854.0,6.65,29.9,54,17.5,15.3,5.2,203.0,88.0,1.8,3,5,7,1,2026-06-27T17:06:42.889069+05:30
Imphal,Manipur,24.817,93.9368,27.6,72,0.0,918.1,8.05,31.0,60,11.2,8.9,1.6,184.0,78.0,1.3,7,5,7,1,2026-06-27T17:06:42.889075+05:30
Aizawl,Mizoram,23.7271,92.7176,23.5,85,0.0,888.4,9.05,27.0,46,9.8,8.0,2.8,136.0,63.0,0.8,3,5,7,1,2026-06-27T17:06:42.889082+05:30
Kohima,Nagaland,25.6701,94.1077,22.7,94,0.0,851.9,8.0,24.8,52,10.0,8.4,3.0,164.0,81.0,1.2,3,5,7,1,2026-06-27T17:06:42.889089+05:30
Gangtok,Sikkim,27.3314,88.6138,21.3,94,0.2,834.0,8.8,39.6,108,8.3,7.6,3.1,324.0,138.0,2.9,6,5,7,1,2026-06-27T17:06:42.889095+05:30
Siliguri,West Bengal,26.7271,88.3953,29.7,79,0.0,985.1,8.7,20.2,122,33.5,29.4,8.0,528.0,138.0,7.5,7,5,7,1,2026-06-27T17:06:46.115075+05:30
Durgapur,West Bengal,23.5204,87.3119,31.5,76,0.0,988.2,8.85,27.4,147,59.6,53.9,18.1,324.0,156.0,44.4,3,5,7,1,2026-06-27T17:06:46.115106+05:30
Asansol,West Bengal,23.6739,86.9524,32.0,71,0.0,986.8,8.9,35.6,133,65.7,61.2,15.9,314.0,186.0,44.7,3,5,7,1,2026-06-27T17:06:46.115117+05:30
Pondicherry,Puducherry,11.9139,79.8145,31.4,70,0.0,1002.9,8.35,48.2,75,36.1,25.3,7.7,262.0,121.0,5.9,3,5,4,1,2026-06-27T17:06:46.115149+05:30
Port Blair,Andaman and Nicobar Islands,11.6234,92.7265,25.9,96,0.0,1006.1,8.65,40.0,20,4.1,2.5,0.5,103.0,40.0,0.2,7,5,4,1,2026-06-27T17:06:46.115159+05:30
Haridwar,Uttarakhand,29.9457,78.1642,37.2,39,0.0,966.2,7.6,29.9,150,95.9,47.8,1.7,284.0,181.0,10.8,0,5,10,1,2026-06-27T17:06:46.115168+05:30
Rishikesh,Uttarakhand,30.0869,78.2676,36.2,40,0.0,959.3,7.7,29.5,117,86.8,39.1,0.5,260.0,167.0,7.1,0,5,10,1,2026-06-27T17:06:46.115176+05:30
Nainital,Uttarakhand,29.3919,79.4542,23.3,60,0.0,804.7,6.85,28.8,143,95.2,39.5,1.3,221.0,179.0,8.6,0,5,7,0,2026-06-27T17:06:46.115184+05:30
Mussoorie,Uttarakhand,30.4599,78.0664,21.7,71,0.0,802.0,8.15,39.2,129,83.4,44.7,1.3,223.0,168.0,8.5,3,5,7,1,2026-06-27T17:06:46.115192+05:30
Dharamshala,Himachal Pradesh,32.219,76.3234,26.2,69,0.1,866.5,8.5,34.9,94,34.3,18.6,0.4,251.0,143.0,1.9,10,5,7,1,2026-06-27T17:06:46.115200+05:30
Dalhousie,Himachal Pradesh,32.5387,75.971,22.3,73,0.0,804.3,8.3,33.1,135,74.3,39.8,1.8,248.0,165.0,4.0,3,5,7,1,2026-06-27T17:06:46.115209+05:30
Patiala,Punjab,30.3398,76.3869,37.9,37,0.0,970.4,7.7,27.4,161,322.2,77.5,0.9,242.0,161.0,6.8,0,5,10,1,2026-06-27T17:06:46.115217+05:30
Bhatinda,Punjab,30.211,74.9455,38.3,38,0.0,975.3,8.3,24.8,154,97.3,51.0,2.9,248.0,165.0,11.2,0,5,10,1,2026-06-27T17:06:46.115225+05:30
Rohtak,Haryana,28.8955,76.6066,37.5,37,0.0,973.6,7.75,26.3,172,248.7,61.5,1.0,202.0,131.0,3.7,0,5,10,1,2026-06-27T17:06:46.115233+05:30
Panipat,Haryana,29.3909,76.9635,37.7,37,0.0,972.2,7.65,23.4,411,369.7,76.8,2.8,181.0,145.0,11.5,0,5,10,1,2026-06-27T17:06:46.115241+05:30
Mathura,Uttar Pradesh,27.4924,77.6737,38.5,34,0.0,978.3,8.05,34.6,150,270.1,61.0,0.0,169.0,141.0,2.6,0,5,10,1,2026-06-27T17:06:46.115248+05:30
Vrindavan,Uttar Pradesh,27.5823,77.7027,37.9,37,0.0,978.6,8.0,34.6,150,270.1,61.0,0.0,170.0,141.0,2.6,0,5,10,1,2026-06-27T17:06:46.115256+05:30
Ayodhya,Uttar Pradesh,26.7922,82.1998,37.4,44,0.0,986.4,8.4,29.2,133,95.9,43.9,0.0,212.0,164.0,5.4,0,5,10,1,2026-06-27T17:06:46.115264+05:30
Ratlam,Madhya Pradesh,23.3315,75.0367,28.8,80,0.1,949.7,8.45,31.3,81,49.5,25.7,1.4,167.0,94.0,2.1,10,5,7,1,2026-06-27T17:06:46.115273+05:30
Sagar,Madhya Pradesh,23.8388,78.7378,33.9,50,0.1,943.9,8.7,38.2,63,48.9,25.7,2.6,161.0,109.0,2.8,3,5,7,1,2026-06-27T17:06:46.115280+05:30
Satna,Madhya Pradesh,24.6005,80.8322,36.3,43,0.0,964.1,8.8,33.1,75,57.2,24.2,0.0,172.0,131.0,2.4,0,5,10,1,2026-06-27T17:06:46.115289+05:30
Akola,Maharashtra,20.7002,77.0082,30.4,70,0.1,969.9,8.25,38.9,85,58.7,33.3,3.3,175.0,103.0,6.2,6,5,7,1,2026-06-27T17:06:46.115297+05:30
Amravati,Maharashtra,20.9374,77.7796,29.0,76,0.0,962.3,8.4,39.2,81,45.1,26.7,4.2,203.0,107.0,7.0,7,5,7,1,2026-06-27T17:06:46.115306+05:30
Latur,Maharashtra,18.4088,76.5604,28.6,69,0.1,935.5,7.0,30.6,84,58.6,27.6,0.7,141.0,104.0,3.8,10,5,7,1,2026-06-27T17:06:46.115314+05:30
Nanded,Maharashtra,19.1383,77.3091,29.2,73,0.0,963.8,4.9,37.4,96,68.0,34.0,1.2,187.0,107.0,3.9,7,5,3,1,2026-06-27T17:06:46.115322+05:30
Gulbarga,Karnataka,17.3297,76.8343,30.6,57,0.0,954.0,5.7,31.7,54,42.7,20.4,3.3,154.0,102.0,3.1,0,5,3,1,2026-06-27T17:06:46.115329+05:30
Bidar,Karnataka,17.9104,77.5199,25.0,93,0.2,931.1,4.45,36.0,88,49.2,27.5,3.9,163.0,109.0,4.4,10,5,3,1,2026-06-27T17:06:46.115337+05:30
Hospet,Karnataka,15.2689,76.3909,25.9,86,0.1,951.8,7.5,38.9,32,14.0,7.4,3.1,140.0,73.0,1.6,10,5,7,1,2026-06-27T17:06:46.115345+05:30
Tirupur,Tamil Nadu,11.1085,77.3411,32.0,55,0.1,971.3,8.85,48.2,55,16.5,10.2,4.0,144.0,98.0,2.4,3,5,7,1,2026-06-27T17:06:46.115353+05:30
Alappuzha,Kerala,9.4981,76.3388,29.0,78,0.0,1006.7,8.5,33.5,52,16.0,9.4,3.7,91.0,67.0,2.1,7,5,4,1,2026-06-27T17:06:46.115361+05:30
Munnar,Kerala,10.0889,77.0595,19.7,89,0.0,855.5,9.05,32.8,29,10.3,6.7,2.7,102.0,60.0,0.8,3,10,7,1,2026-06-27T17:06:46.115369+05:30
Silchar,Assam,24.8333,92.7789,29.9,80,0.2,998.3,8.75,30.6,83,15.1,12.5,3.4,222.0,82.0,2.4,10,5,7,1,2026-06-27T17:06:46.115377+05:30
Dibrugarh,Assam,27.4728,94.912,27.9,89,0.0,988.1,7.9,35.3,74,25.7,22.4,5.6,274.0,106.0,2.0,7,5,7,1,2026-06-27T17:06:46.115384+05:30
