city,state,latitude,longitude,temp,humidity,rain,pressure,uv_index,wind_gusts,aqi,pm10,pm2_5,mosquito_risk,arthritis_risk,migraine_risk,frizz_risk,updated_at
Delhi,Delhi,28.6139,77.209,34.8,26,0.0,979.8,7.0,46.4,565,431.2,123.4,0,5,7,0,2026-04-28T09:27:58.499759+05:30
Mumbai,Maharashtra,19.076,72.8777,30.6,68,0.0,1008.1,8.0,40.0,89,65.7,39.0,3,0,4,1,2026-04-28T09:27:58.499821+05:30
Bangalore,Karnataka,12.9716,77.5946,28.2,59,0.0,913.0,9.1,38.9,88,41.9,36.7,4,5,7,1,2026-04-28T09:27:58.499839+05:30
Hyderabad,Telangana,17.385,78.4867,33.2,39,0.0,953.5,8.95,42.1,104,37.7,32.2,0,5,7,1,2026-04-28T09:27:58.499850+05:30
Chennai,Tamil Nadu,13.0827,80.2707,33.0,58,0.0,1007.1,8.5,54.7,53,14.3,10.3,0,5,4,1,2026-04-28T09:27:58.499861+05:30
Kolkata,West Bengal,22.5726,88.3639,33.3,65,0.0,1002.3,8.85,42.8,60,30.7,25.8,3,5,4,1,2026-04-28T09:27:58.499871+05:30
Pune,Maharashtra,18.5204,73.8567,31.5,31,0.0,948.8,8.6,40.7,72,49.0,25.9,0,5,7,0,2026-04-28T09:27:58.499885+05:30
Ahmedabad,Gujarat,23.0225,72.5714,32.3,34,0.0,1000.8,8.2,47.5,42,21.4,11.2,0,5,4,0,2026-04-28T09:27:58.499894+05:30
Jaipur,Rajasthan,26.9124,75.7873,34.0,25,0.0,958.2,8.1,37.8,156,276.6,37.6,0,5,7,0,2026-04-28T09:27:58.499902+05:30
Lucknow,Uttar Pradesh,26.8467,80.9462,32.2,51,0.0,990.4,7.9,42.1,137,61.7,51.9,0,5,7,1,2026-04-28T09:27:58.499911+05:30
Kanpur,Uttar Pradesh,26.4499,80.3319,34.3,41,0.0,988.7,7.95,35.6,180,188.6,55.4,0,5,7,1,2026-04-28T09:27:58.499918+05:30
Chandigarh,Chandigarh,30.7333,76.7794,32.8,27,0.0,965.0,4.1,38.2,42,15.9,12.7,0,5,3,0,2026-04-28T09:27:58.499927+05:30
Srinagar,Jammu and Kashmir,34.0837,74.7973,17.4,62,0.0,840.2,4.65,33.5,76,35.2,27.2,3,5,3,0,2026-04-28T09:27:58.499936+05:30
Jammu,Jammu and Kashmir,32.7266,74.857,30.6,35,0.0,968.7,6.75,48.6,55,22.3,20.1,0,5,7,0,2026-04-28T09:27:58.499944+05:30
Amritsar,Punjab,31.634,74.8723,32.8,30,0.0,976.6,6.5,30.2,80,49.0,34.3,0,5,7,0,2026-04-28T09:27:58.499952+05:30
Ludhiana,Punjab,30.901,75.8573,32.1,32,0.0,974.7,7.1,41.0,70,32.6,30.6,0,5,7,0,2026-04-28T09:27:58.499960+05:30
Jalandhar,Punjab,31.326,75.5762,32.0,34,0.0,975.7,6.65,28.8,75,46.9,34.7,0,5,7,0,2026-04-28T09:27:58.499969+05:30
Dehradun,Uttarakhand,30.6284,78.0322,23.3,31,0.0,831.1,6.3,43.6,34,5.8,4.5,0,5,7,0,2026-04-28T09:27:58.499977+05:30
Shimla,Himachal Pradesh,31.1048,77.1734,20.7,31,0.0,785.6,3.5,38.2,35,6.8,4.8,0,5,3,0,2026-04-28T09:27:58.499985+05:30
Manali,Himachal Pradesh,32.2396,77.1887,18.7,40,0.0,817.7,8.75,47.9,51,10.7,7.1,0,5,7,0,2026-04-28T09:27:58.499992+05:30
Gurgaon,Haryana,28.4595,77.0266,33.8,30,0.0,978.5,7.15,43.6,1190,1020.7,143.4,0,5,7,0,2026-04-28T09:27:58.499999+05:30
Noida,Uttar Pradesh,28.5355,77.391,34.7,27,0.0,981.1,7.0,42.8,1190,1020.7,143.4,0,5,7,0,2026-04-28T09:27:58.500007+05:30
Ghaziabad,Uttar Pradesh,28.6692,77.4538,33.8,29,0.0,979.5,7.0,49.0,461,393.9,119.7,0,5,7,0,2026-04-28T09:27:58.500016+05:30
Faridabad,Haryana,28.4089,77.3178,35.0,25,0.0,980.4,7.35,50.4,1190,1020.7,143.4,0,5,7,0,2026-04-28T09:27:58.500022+05:30
Meerut,Uttar Pradesh,28.9845,77.7064,30.9,38,0.0,978.5,6.6,45.4,461,393.9,119.7,0,5,7,0,2026-04-28T09:27:58.500029+05:30
Agra,Uttar Pradesh,27.1767,78.0081,35.0,27,0.0,984.9,7.85,38.9,631,609.1,86.4,0,5,7,0,2026-04-28T09:27:58.500036+05:30
Varanasi,Uttar Pradesh,25.3176,82.9739,31.8,56,0.0,994.4,8.5,54.7,124,59.3,44.5,0,5,7,1,2026-04-28T09:27:58.500047+05:30
Prayagraj,Uttar Pradesh,25.4358,81.8463,33.7,48,0.0,992.5,8.4,40.3,127,60.3,45.4,0,5,7,1,2026-04-28T09:27:58.500054+05:30
Gorakhpur,Uttar Pradesh,26.7606,83.3732,29.3,58,0.0,995.4,8.3,35.6,130,35.9,26.9,4,5,7,1,2026-04-28T09:27:58.500061+05:30
Bareilly,Uttar Pradesh,28.367,79.4304,31.1,48,0.0,984.1,7.75,46.8,101,62.2,43.1,0,5,7,1,2026-04-28T09:27:58.500068+05:30
Aligarh,Uttar Pradesh,27.8974,78.088,34.7,27,0.0,982.3,7.65,66.6,695,612.8,139.7,0,5,7,0,2026-04-28T09:27:58.500075+05:30
Moradabad,Uttar Pradesh,28.8386,78.7733,30.9,47,0.0,981.4,6.55,45.7,131,78.5,46.2,0,5,7,1,2026-04-28T09:27:58.500084+05:30
Saharanpur,Uttar Pradesh,29.9637,77.546,30.9,37,0.0,972.1,7.0,45.4,73,35.3,33.1,0,5,7,0,2026-04-28T09:27:58.500091+05:30
Jhansi,Uttar Pradesh,25.4484,78.5685,36.2,21,0.0,975.9,8.3,33.8,56,25.6,14.0,0,5,10,0,2026-04-28T09:28:01.739653+05:30
Surat,Gujarat,21.1702,72.8311,34.0,47,0.0,1005.4,7.9,44.6,86,61.0,42.4,0,5,4,1,2026-04-28T09:28:01.739695+05:30
Vadodara,Gujarat,22.3072,73.1812,34.2,35,0.0,1003.1,8.15,43.2,67,35.9,21.9,0,5,4,1,2026-04-28T09:28:01.739705+05:30
Rajkot,Gujarat,22.3039,70.8022,33.2,39,0.0,992.5,7.9,51.5,44,16.9,8.4,0,5,7,1,2026-04-28T09:28:01.739714+05:30
Thane,Maharashtra,19.2183,72.9781,31.1,61,0.0,1007.4,8.05,37.4,89,65.7,39.0,3,5,4,1,2026-04-28T09:28:01.739721+05:30
Nagpur,Maharashtra,21.1458,79.0882,36.8,19,0.0,972.5,8.85,52.2,92,23.9,20.8,0,5,10,0,2026-04-28T09:28:01.739729+05:30
Nashik,Maharashtra,19.9975,73.7898,32.8,24,0.0,945.9,8.3,43.6,75,44.9,17.2,0,5,7,0,2026-04-28T09:28:01.739736+05:30
Aurangabad,Maharashtra,19.8762,75.3433,34.5,21,0.0,944.7,9.0,43.9,69,37.1,17.2,0,5,7,0,2026-04-28T09:28:01.739743+05:30
Solapur,Maharashtra,17.6599,75.9064,34.5,35,0.0,957.2,9.1,36.4,81,32.2,25.4,0,5,7,1,2026-04-28T09:28:01.739750+05:30
Kolhapur,Maharashtra,16.705,74.2433,30.5,53,0.0,948.5,9.0,51.5,72,54.0,29.5,0,5,7,1,2026-04-28T09:28:01.739756+05:30
Goa,Goa,15.2993,74.124,31.4,70,0.0,997.8,8.95,45.0,62,46.3,17.7,3,5,7,1,2026-04-28T09:28:01.739763+05:30
Jodhpur,Rajasthan,26.2389,73.0243,32.0,33,0.0,980.3,8.3,47.9,129,163.4,26.1,0,5,7,0,2026-04-28T09:28:01.739770+05:30
Udaipur,Rajasthan,24.5854,73.7125,32.1,25,0.0,945.4,8.75,48.2,33,34.0,10.4,0,5,7,0,2026-04-28T09:28:01.739777+05:30
Kota,Rajasthan,25.2138,75.8648,36.0,19,0.0,977.0,8.3,34.9,52,14.1,9.7,0,5,10,0,2026-04-28T09:28:01.739783+05:30
Bikaner,Rajasthan,28.0229,73.3119,33.9,27,0.0,978.0,8.15,56.9,68,260.8,70.3,0,5,7,0,2026-04-28T09:28:01.739791+05:30
Ajmer,Rajasthan,26.4499,74.6399,32.7,25,0.0,953.2,8.25,44.3,60,52.2,14.1,0,5,7,0,2026-04-28T09:28:01.739798+05:30
Gwalior,Madhya Pradesh,26.2183,78.1828,35.6,23,0.0,980.8,8.05,40.7,72,25.1,13.2,0,5,10,0,2026-04-28T09:28:01.739804+05:30
Indore,Madhya Pradesh,22.7196,75.8577,33.8,25,0.0,948.0,8.6,55.4,51,25.8,15.2,0,5,7,0,2026-04-28T09:28:01.739810+05:30
Bhopal,Madhya Pradesh,23.2599,77.4126,35.6,19,0.0,953.0,8.6,48.6,48,21.5,15.7,0,5,10,0,2026-04-28T09:28:01.739818+05:30
Jabalpur,Madhya Pradesh,23.1815,79.9864,36.8,16,0.0,960.0,8.75,41.0,60,13.4,11.2,0,5,10,0,2026-04-28T09:28:01.739824+05:30
Ujjain,Madhya Pradesh,23.1765,75.7885,33.8,25,0.0,953.5,8.55,55.4,52,27.9,16.6,0,5,7,0,2026-04-28T09:28:01.739832+05:30
Visakhapatnam,Andhra Pradesh,17.6868,83.2185,32.5,60,0.0,1003.2,7.65,56.5,70,31.1,21.4,0,5,4,1,2026-04-28T09:28:01.739839+05:30
Vijayawada,Andhra Pradesh,16.5062,80.648,33.9,58,0.0,1002.4,8.95,39.6,67,20.3,13.8,0,5,4,1,2026-04-28T09:28:01.739845+05:30
Guntur,Andhra Pradesh,16.3067,80.4365,33.9,55,0.0,1003.4,9.0,41.8,68,18.7,13.6,0,5,4,1,2026-04-28T09:28:01.739852+05:30
Nellore,Andhra Pradesh,14.4426,79.9865,33.2,56,0.0,1005.4,9.1,49.3,61,13.8,11.3,0,5,4,1,2026-04-28T09:28:01.739859+05:30
Kurnool,Andhra Pradesh,15.8281,78.0373,36.2,35,0.0,976.5,9.2,42.8,97,31.3,28.8,0,5,10,1,2026-04-28T09:28:01.739866+05:30
Kakinada,Andhra Pradesh,16.9891,82.2475,33.5,56,0.0,1007.4,9.2,45.4,64,29.0,17.2,0,5,4,1,2026-04-28T09:28:01.739872+05:30
Tirupati,Andhra Pradesh,13.6288,79.4192,32.8,52,0.0,991.0,8.6,40.0,67,20.2,18.9,0,5,7,1,2026-04-28T09:28:01.739878+05:30
Warangal,Telangana,17.9689,79.5941,32.2,59,0.0,978.6,8.8,43.6,86,23.3,20.7,0,5,7,1,2026-04-28T09:28:01.739884+05:30
Nizamabad,Telangana,18.6725,78.0941,36.2,22,0.0,964.5,8.95,42.5,101,55.5,49.7,0,5,10,0,2026-04-28T09:28:01.739890+05:30
Mysore,Karnataka,12.2958,76.6396,28.5,63,0.0,929.3,9.05,35.3,96,33.9,28.7,7,5,7,1,2026-04-28T09:28:01.739897+05:30
Mangalore,Karnataka,12.9141,74.856,31.4,66,0.1,1006.9,8.7,41.0,75,32.0,24.5,6,5,4,1,2026-04-28T09:28:01.739904+05:30
Hubli-Dharwad,Karnataka,15.3647,75.124,29.3,64,0.0,941.7,9.2,31.3,77,21.3,16.2,7,5,7,1,2026-04-28T09:28:01.739911+05:30
Belgaum,Karnataka,15.8497,74.4977,29.4,60,0.0,926.6,9.25,42.1,75,33.3,24.3,4,5,7,1,2026-04-28T09:28:04.973225+05:30
Coimbatore,Tamil Nadu,11.0168,76.9558,30.0,61,0.0,962.1,7.75,51.5,73,16.6,14.5,7,5,7,1,2026-04-28T09:28:04.973262+05:30
Madurai,Tamil Nadu,9.9252,78.1198,33.7,44,0.0,993.0,8.55,50.8,54,23.2,21.8,0,5,7,1,2026-04-28T09:28:04.973273+05:30
Trichy,Tamil Nadu,10.7905,78.7047,33.2,49,0.0,999.8,8.25,44.3,49,15.6,14.3,0,5,7,1,2026-04-28T09:28:04.973281+05:30
Salem,Tamil Nadu,11.6643,78.146,32.3,53,0.0,977.6,8.85,34.9,59,14.1,12.9,0,5,7,1,2026-04-28T09:28:04.973289+05:30
Tirunelveli,Tamil Nadu,8.7139,77.7567,33.6,50,0.0,1002.8,9.15,45.4,63,18.6,16.5,0,5,4,1,2026-04-28T09:28:04.973296+05:30
Vellore,Tamil Nadu,12.9165,79.1325,32.9,51,0.0,984.5,8.3,38.5,76,16.9,15.8,0,5,7,1,2026-04-28T09:28:04.973304+05:30
Erode,Tamil Nadu,11.341,77.7172,32.2,59,0.0,989.1,8.35,53.3,64,23.5,21.6,0,5,7,1,2026-04-28T09:28:04.973312+05:30
Kochi,Kerala,9.9312,76.2673,29.8,73,0.0,1008.6,7.45,38.9,75,15.1,13.7,7,0,4,1,2026-04-28T09:28:04.973319+05:30
Thiruvananthapuram,Kerala,8.5241,76.9366,29.8,73,0.0,1007.9,8.4,36.0,63,24.3,20.6,7,5,4,1,2026-04-28T09:28:04.973343+05:30
Kozhikode,Kerala,11.2588,75.7804,29.4,81,0.0,1007.7,5.2,37.4,66,23.0,17.5,7,5,0,1,2026-04-28T09:28:04.973352+05:30
Thrissur,Kerala,10.5276,76.2144,30.0,72,0.0,1006.9,7.0,38.2,72,14.0,12.6,7,5,4,1,2026-04-28T09:28:04.973361+05:30
Kannur,Kerala,11.8745,75.3704,29.0,83,0.0,1007.3,8.25,44.3,76,29.9,22.8,7,5,4,1,2026-04-28T09:28:04.973369+05:30
Patna,Bihar,25.5941,85.1376,28.9,67,0.0,998.3,8.6,34.2,103,40.2,31.1,7,5,7,1,2026-04-28T09:28:04.973376+05:30
Gaya,Bihar,24.7914,85.0002,31.9,58,0.0,991.0,8.7,34.2,109,37.8,31.7,0,5,7,1,2026-04-28T09:28:04.973383+05:30
Muzaffarpur,Bihar,26.1209,85.3647,28.4,65,0.0,998.8,8.3,33.5,99,36.8,27.9,7,5,7,1,2026-04-28T09:28:04.973390+05:30
Bhagalpur,Bihar,25.2425,87.0117,29.3,67,0.0,999.3,8.6,32.0,86,37.4,27.4,7,5,7,1,2026-04-28T09:28:04.973397+05:30
Ranchi,Jharkhand,23.3441,85.3096,34.0,28,0.0,936.3,8.95,50.4,97,50.4,27.5,0,5,7,0,2026-04-28T09:28:04.973405+05:30
Jamshedpur,Jharkhand,22.8046,86.2029,35.0,41,0.0,987.7,9.0,50.8,105,55.3,47.4,0,5,7,1,2026-04-28T09:28:04.973413+05:30
Dhanbad,Jharkhand,23.7957,86.4304,32.2,58,0.0,977.1,8.95,38.2,128,64.0,53.6,0,5,7,1,2026-04-28T09:28:04.973419+05:30
Bokaro,Jharkhand,23.6693,86.1511,32.6,57,0.0,980.9,8.95,50.8,121,61.2,51.8,0,5,7,1,2026-04-28T09:28:04.973425+05:30
Bhubaneswar,Odisha,20.2961,85.8245,33.2,64,0.0,1000.5,9.1,42.5,62,27.1,22.1,3,5,4,1,2026-04-28T09:28:04.973432+05:30
Cuttack,Odisha,20.4625,85.8828,33.5,62,0.0,1002.2,9.15,43.9,62,27.1,22.1,3,5,4,1,2026-04-28T09:28:04.973437+05:30
Rourkela,Odisha,22.2604,84.8536,35.8,34,0.0,982.7,8.85,54.7,90,60.8,36.8,0,5,10,1,2026-04-28T09:28:04.973444+05:30
Raipur,Chhattisgarh,21.2514,81.6296,36.0,38,0.0,973.3,8.9,43.6,89,37.3,34.9,0,5,10,1,2026-04-28T09:28:04.973450+05:30
Bhilai,Chhattisgarh,21.1938,81.3509,35.1,42,0.0,973.9,8.95,49.3,91,34.7,32.7,0,5,10,1,2026-04-28T09:28:04.973456+05:30
Guwahati,Assam,26.1158,91.7086,26.0,74,0.0,1000.8,7.35,32.4,90,15.4,11.8,7,5,4,1,2026-04-28T09:28:04.973462+05:30
Agartala,Tripura,23.8315,91.2868,25.2,88,0.1,1004.3,8.0,52.9,66,26.2,18.7,10,5,4,1,2026-04-28T09:28:04.973468+05:30
Shillong,Meghalaya,25.5788,91.8933,19.4,81,0.0,856.5,8.8,28.4,52,2.8,1.6,3,10,7,1,2026-04-28T09:28:04.973476+05:30
Imphal,Manipur,24.817,93.9368,20.5,86,0.0,923.6,6.4,27.0,104,36.7,29.5,3,5,7,1,2026-04-28T09:28:04.973483+05:30
Aizawl,Mizoram,23.7271,92.7176,20.3,78,0.1,891.8,7.9,52.9,84,41.4,22.5,6,5,7,1,2026-04-28T09:28:04.973489+05:30
Kohima,Nagaland,25.6701,94.1077,21.0,74,0.1,855.3,7.6,29.9,81,2.0,2.0,6,5,7,1,2026-04-28T09:28:04.973495+05:30
Gangtok,Sikkim,27.3314,88.6138,19.3,64,0.0,836.8,7.0,40.7,85,38.8,27.0,3,5,7,0,2026-04-28T09:28:04.973501+05:30
Siliguri,West Bengal,26.7271,88.3953,27.0,67,0.0,992.2,8.25,29.9,94,47.4,28.5,7,5,7,1,2026-04-28T09:28:08.213616+05:30
Durgapur,West Bengal,23.5204,87.3119,30.7,74,0.0,991.7,8.85,31.3,130,60.1,51.7,3,5,7,1,2026-04-28T09:28:08.213651+05:30
Asansol,West Bengal,23.6739,86.9524,31.2,66,0.0,990.5,8.9,30.2,117,56.9,47.5,3,5,7,1,2026-04-28T09:28:08.213662+05:30
Pondicherry,Puducherry,11.9139,79.8145,32.0,62,0.0,1008.5,8.75,47.9,46,13.4,11.1,3,0,4,1,2026-04-28T09:28:08.213670+05:30
Port Blair,Andaman and Nicobar Islands,11.6234,92.7265,33.9,49,0.0,1007.9,9.1,27.4,50,16.8,12.7,0,5,4,1,2026-04-28T09:28:08.213679+05:30
Haridwar,Uttarakhand,29.9457,78.1642,28.4,44,0.0,971.2,7.1,40.3,56,19.7,18.0,4,5,7,0,2026-04-28T09:28:08.213687+05:30
Rishikesh,Uttarakhand,30.0869,78.2676,29.8,39,0.0,963.8,5.9,32.4,52,18.7,15.0,4,5,3,0,2026-04-28T09:28:08.213695+05:30
Nainital,Uttarakhand,29.3919,79.4542,22.2,34,0.0,807.0,7.0,48.2,64,29.9,19.4,0,5,7,0,2026-04-28T09:28:08.213703+05:30
Mussoorie,Uttarakhand,30.4599,78.0664,21.4,33,0.0,804.0,5.15,42.8,48,12.3,11.9,0,5,3,0,2026-04-28T09:28:08.213710+05:30
Dharamshala,Himachal Pradesh,32.219,76.3234,25.1,37,0.0,868.0,6.75,43.9,32,14.4,7.1,4,5,7,0,2026-04-28T09:28:08.213717+05:30
Dalhousie,Himachal Pradesh,32.5387,75.971,21.4,40,0.0,804.7,5.3,38.5,42,17.6,11.5,0,5,3,0,2026-04-28T09:28:08.213725+05:30
Patiala,Punjab,30.3398,76.3869,31.5,33,0.0,974.3,6.4,51.5,372,238.0,47.1,0,5,7,0,2026-04-28T09:28:08.213732+05:30
Bhatinda,Punjab,30.211,74.9455,34.0,28,0.0,979.9,7.8,60.5,89,63.6,39.0,0,5,7,0,2026-04-28T09:28:08.213739+05:30
Rohtak,Haryana,28.8955,76.6066,33.9,29,0.0,978.7,7.05,58.0,655,521.5,107.1,0,5,7,0,2026-04-28T09:28:08.213746+05:30
Panipat,Haryana,29.3909,76.9635,33.6,28,0.0,977.1,6.7,49.3,1110,858.7,148.5,0,5,7,0,2026-04-28T09:28:08.213753+05:30
Mathura,Uttar Pradesh,27.4924,77.6737,34.7,28,0.0,983.8,7.75,42.5,596,545.8,82.0,0,5,7,0,2026-04-28T09:28:08.213759+05:30
Vrindavan,Uttar Pradesh,27.5823,77.7027,34.7,28,0.0,984.2,7.75,43.9,596,545.8,82.0,0,5,7,0,2026-04-28T09:28:08.213767+05:30
Ayodhya,Uttar Pradesh,26.7922,82.1998,30.4,53,0.0,992.9,8.1,51.5,127,46.4,36.9,0,5,7,1,2026-04-28T09:28:08.213774+05:30
Ratlam,Madhya Pradesh,23.3315,75.0367,32.7,29,0.0,954.3,8.45,49.7,52,30.9,16.2,0,5,7,0,2026-04-28T09:28:08.213781+05:30
Sagar,Madhya Pradesh,23.8388,78.7378,34.8,18,0.0,948.8,8.6,45.7,48,11.0,8.0,0,5,7,0,2026-04-28T09:28:08.213787+05:30
Satna,Madhya Pradesh,24.6005,80.8322,37.0,21,0.0,968.5,8.65,44.6,55,22.6,11.8,0,5,10,0,2026-04-28T09:28:08.213794+05:30
Akola,Maharashtra,20.7002,77.0082,35.3,27,0.0,974.7,8.4,41.4,64,31.0,21.7,0,5,10,0,2026-04-28T09:28:08.213802+05:30
Amravati,Maharashtra,20.9374,77.7796,36.8,17,0.0,966.9,8.85,46.1,62,27.0,19.7,0,5,10,0,2026-04-28T09:28:08.213810+05:30
Latur,Maharashtra,18.4088,76.5604,36.0,20,0.0,940.5,8.75,35.6,80,34.0,26.5,0,5,10,0,2026-04-28T09:28:08.213816+05:30
Nanded,Maharashtra,19.1383,77.3091,36.8,19,0.0,968.5,8.75,35.6,74,30.0,26.0,0,5,10,0,2026-04-28T09:28:08.213823+05:30
Gulbarga,Karnataka,17.3297,76.8343,34.6,34,0.0,958.4,9.1,33.5,92,28.2,22.5,0,5,7,1,2026-04-28T09:28:08.213829+05:30
Bidar,Karnataka,17.9104,77.5199,35.8,26,0.0,936.0,8.45,37.4,97,43.7,37.8,0,5,10,0,2026-04-28T09:28:08.213836+05:30
Hospet,Karnataka,15.2689,76.3909,30.0,63,0.0,956.5,9.25,36.7,93,22.5,19.8,7,5,7,1,2026-04-28T09:28:08.213842+05:30
Tirupur,Tamil Nadu,11.1085,77.3411,32.0,56,0.0,975.3,7.95,40.3,79,22.5,21.0,0,5,7,1,2026-04-28T09:28:08.213849+05:30
Alappuzha,Kerala,9.4981,76.3388,29.5,78,0.0,1008.7,7.55,36.4,75,18.2,16.0,7,0,4,1,2026-04-28T09:28:08.213855+05:30
Munnar,Kerala,10.0889,77.0595,22.5,71,0.0,858.4,8.55,26.6,80,27.8,25.5,3,5,7,1,2026-04-28T09:28:08.213862+05:30
Silchar,Assam,24.8333,92.7789,22.9,92,0.4,1005.3,3.1,31.3,107,22.8,21.7,6,5,0,1,2026-04-28T09:28:08.213868+05:30
Dibrugarh,Assam,27.4728,94.912,25.4,72,0.1,995.7,7.8,17.3,111,59.8,35.7,10,5,7,1,2026-04-28T09:28:08.213875+05:30
