city,state,latitude,longitude,temp,humidity,rain,pressure,uv_index,wind_gusts,aqi,pm10,pm2_5,no2,co,o3,so2,mosquito_risk,arthritis_risk,migraine_risk,frizz_risk,updated_at
Delhi,Delhi,28.6139,77.209,32.1,39,0.0,978.1,7.6,43.6,491,504.8,79.4,13.6,691.0,157.0,18.6,0,5,7,1,2026-05-03T18:47:37.102217+05:30
Mumbai,Maharashtra,19.076,72.8777,29.6,75,0.0,1005.4,7.85,41.0,70,37.1,17.6,9.3,245.0,72.0,16.6,7,5,4,1,2026-05-03T18:47:37.102267+05:30
Bangalore,Karnataka,12.9716,77.5946,29.2,51,0.0,909.8,7.85,29.2,99,65.7,36.2,44.3,462.0,92.0,12.2,4,5,7,1,2026-05-03T18:47:37.102289+05:30
Hyderabad,Telangana,17.385,78.4867,36.7,18,0.0,949.7,9.25,33.8,87,46.0,21.8,20.5,409.0,100.0,8.0,0,5,10,0,2026-05-03T18:47:37.102301+05:30
Chennai,Tamil Nadu,13.0827,80.2707,32.2,64,0.0,1003.4,8.65,51.1,163,36.7,29.9,7.1,268.0,169.0,7.3,3,5,4,1,2026-05-03T18:47:37.102312+05:30
Kolkata,West Bengal,22.5726,88.3639,24.3,92,0.0,1003.9,8.95,42.8,176,88.7,70.3,18.5,576.0,134.0,20.6,3,5,4,1,2026-05-03T18:47:37.102321+05:30
Pune,Maharashtra,18.5204,73.8567,31.0,40,0.0,945.9,8.5,47.9,64,41.4,13.1,4.3,200.0,99.0,3.7,0,5,7,0,2026-05-03T18:47:37.102329+05:30
Ahmedabad,Gujarat,23.0225,72.5714,34.7,48,0.0,994.8,8.1,47.5,80,52.9,15.2,4.3,191.0,114.0,3.9,0,5,7,1,2026-05-03T18:47:37.102340+05:30
Jaipur,Rajasthan,26.9124,75.7873,35.6,19,0.0,953.3,8.15,43.2,115,89.4,23.8,12.2,227.0,113.0,4.6,0,5,10,0,2026-05-03T18:47:37.102349+05:30
Lucknow,Uttar Pradesh,26.8467,80.9462,28.8,63,0.0,990.6,8.1,36.4,164,48.5,35.4,5.6,353.0,160.0,9.8,7,5,7,1,2026-05-03T18:47:37.102357+05:30
Kanpur,Uttar Pradesh,26.4499,80.3319,32.2,43,0.0,988.1,8.1,38.2,176,139.2,39.7,5.1,324.0,165.0,9.7,0,5,7,1,2026-05-03T18:47:37.102365+05:30
Chandigarh,Chandigarh,30.7333,76.7794,28.0,45,0.0,965.5,7.6,62.3,167,116.4,34.1,7.8,407.0,150.0,8.4,4,5,7,0,2026-05-03T18:47:37.102373+05:30
Srinagar,Jammu and Kashmir,34.0837,74.7973,13.1,92,0.0,839.9,8.75,38.9,89,27.5,14.9,9.1,434.0,110.0,3.4,3,10,7,0,2026-05-03T18:47:37.102384+05:30
Jammu,Jammu and Kashmir,32.7266,74.857,29.8,33,0.0,968.9,8.25,32.4,151,44.8,20.1,4.7,336.0,153.0,4.1,4,5,7,0,2026-05-03T18:47:37.102392+05:30
Amritsar,Punjab,31.634,74.8723,29.0,42,0.0,977.5,8.1,51.5,165,159.7,45.3,2.7,367.0,160.0,7.4,4,5,7,0,2026-05-03T18:47:37.102400+05:30
Ludhiana,Punjab,30.901,75.8573,30.4,33,0.0,974.7,7.85,47.9,165,347.4,66.1,6.3,455.0,149.0,8.9,0,5,7,0,2026-05-03T18:47:37.102408+05:30
Jalandhar,Punjab,31.326,75.5762,29.5,35,0.0,976.2,8.05,49.7,171,197.4,50.2,5.7,475.0,154.0,8.6,4,5,7,0,2026-05-03T18:47:37.102415+05:30
Dehradun,Uttarakhand,30.6284,78.0322,17.0,70,0.0,828.1,7.45,42.5,121,64.5,25.9,8.9,241.0,130.0,2.9,3,5,7,0,2026-05-03T18:47:37.102425+05:30
Shimla,Himachal Pradesh,31.1048,77.1734,14.2,60,0.0,782.2,7.65,42.1,140,78.9,25.2,6.7,261.0,156.0,10.8,0,5,7,0,2026-05-03T18:47:37.102433+05:30
Manali,Himachal Pradesh,32.2396,77.1887,10.1,90,0.0,814.3,9.7,40.7,137,23.4,11.3,8.3,219.0,144.0,0.9,3,10,7,0,2026-05-03T18:47:37.102441+05:30
Gurgaon,Haryana,28.4595,77.0266,31.6,39,0.0,976.2,7.7,45.7,1353,1747.2,188.6,12.5,575.0,144.0,14.5,0,5,7,0,2026-05-03T18:47:37.102448+05:30
Noida,Uttar Pradesh,28.5355,77.391,30.7,46,0.0,979.5,7.6,45.4,1353,1747.2,188.6,12.5,531.0,144.0,14.5,0,5,7,1,2026-05-03T18:47:37.102455+05:30
Ghaziabad,Uttar Pradesh,28.6692,77.4538,30.5,47,0.0,978.1,7.6,50.4,324,376.3,65.4,6.1,343.0,155.0,9.3,0,5,7,1,2026-05-03T18:47:37.102462+05:30
Faridabad,Haryana,28.4089,77.3178,31.5,41,0.0,978.8,7.65,49.0,1353,1747.2,188.6,12.5,548.0,144.0,14.5,0,5,7,1,2026-05-03T18:47:37.102469+05:30
Meerut,Uttar Pradesh,28.9845,77.7064,29.0,55,0.0,977.3,7.45,47.5,324,376.3,65.4,6.1,373.0,155.0,9.3,4,5,7,1,2026-05-03T18:47:37.102476+05:30
Agra,Uttar Pradesh,27.1767,78.0081,30.2,48,0.0,982.7,7.95,69.8,824,278.5,56.6,11.2,279.0,129.0,10.5,0,5,7,1,2026-05-03T18:47:37.102483+05:30
Varanasi,Uttar Pradesh,25.3176,82.9739,31.3,51,0.0,994.2,8.65,36.4,203,71.0,53.1,7.4,451.0,195.0,19.0,0,5,7,1,2026-05-03T18:47:37.102491+05:30
Prayagraj,Uttar Pradesh,25.4358,81.8463,31.2,50,0.0,992.2,8.5,36.0,201,58.1,43.4,6.5,342.0,183.0,13.2,0,5,7,1,2026-05-03T18:47:37.102500+05:30
Gorakhpur,Uttar Pradesh,26.7606,83.3732,27.2,61,0.0,995.4,7.95,37.8,159,56.9,36.0,4.6,350.0,161.0,3.8,7,5,7,1,2026-05-03T18:47:37.102507+05:30
Bareilly,Uttar Pradesh,28.367,79.4304,29.8,49,0.0,983.1,7.9,42.1,171,256.1,55.6,6.4,332.0,159.0,13.2,4,5,7,1,2026-05-03T18:47:37.102514+05:30
Aligarh,Uttar Pradesh,27.8974,78.088,29.7,51,0.0,980.7,7.75,50.4,746,575.6,86.4,5.1,276.0,149.0,10.6,4,5,7,1,2026-05-03T18:47:37.102521+05:30
Moradabad,Uttar Pradesh,28.8386,78.7733,29.2,53,0.0,979.9,7.7,46.8,174,158.3,48.8,9.6,344.0,148.0,14.3,4,5,7,1,2026-05-03T18:47:37.102527+05:30
Saharanpur,Uttar Pradesh,29.9637,77.546,27.4,63,0.0,972.2,7.3,45.4,155,117.1,42.4,12.5,415.0,128.0,10.6,7,5,7,1,2026-05-03T18:47:37.102533+05:30
Jhansi,Uttar Pradesh,25.4484,78.5685,34.8,29,0.0,972.5,8.4,29.5,136,87.5,28.8,3.5,214.0,142.0,19.1,0,5,7,0,2026-05-03T18:47:40.489719+05:30
Surat,Gujarat,21.1702,72.8311,29.8,74,0.0,1001.6,7.7,55.8,62,25.0,15.3,14.1,230.0,62.0,27.4,7,5,4,1,2026-05-03T18:47:40.489755+05:30
Vadodara,Gujarat,22.3072,73.1812,32.9,49,0.0,998.0,8.05,51.8,71,20.3,12.1,6.3,212.0,101.0,9.4,0,5,7,1,2026-05-03T18:47:40.489766+05:30
Rajkot,Gujarat,22.3039,70.8022,35.5,36,0.0,987.6,7.7,51.1,62,39.5,13.5,2.7,152.0,104.0,5.3,0,5,10,1,2026-05-03T18:47:40.489774+05:30
Thane,Maharashtra,19.2183,72.9781,30.6,64,0.0,1004.7,7.9,39.6,70,37.1,17.6,9.3,245.0,72.0,16.6,3,5,4,1,2026-05-03T18:47:40.489782+05:30
Nagpur,Maharashtra,21.1458,79.0882,37.8,16,0.0,967.8,8.9,37.1,102,69.4,22.1,10.8,201.0,109.0,13.1,0,5,10,0,2026-05-03T18:47:40.489790+05:30
Nashik,Maharashtra,19.9975,73.7898,30.6,34,0.0,942.6,8.15,49.0,67,32.0,11.4,2.9,166.0,93.0,4.0,0,5,7,0,2026-05-03T18:47:40.489796+05:30
Aurangabad,Maharashtra,19.8762,75.3433,35.0,16,0.0,940.3,9.05,50.8,72,43.2,13.9,2.2,164.0,114.0,3.3,0,5,7,0,2026-05-03T18:47:40.489804+05:30
Solapur,Maharashtra,17.6599,75.9064,37.2,11,0.0,952.8,9.1,40.7,64,41.8,12.6,4.0,207.0,107.0,1.8,0,5,10,0,2026-05-03T18:47:40.489812+05:30
Kolhapur,Maharashtra,16.705,74.2433,29.4,54,0.0,946.0,8.95,47.2,62,38.9,15.9,4.7,175.0,94.0,2.2,4,5,7,1,2026-05-03T18:47:40.489819+05:30
Goa,Goa,15.2993,74.124,30.8,65,0.0,996.4,8.9,36.7,67,46.8,14.7,2.0,156.0,71.0,1.0,3,5,7,1,2026-05-03T18:47:40.489827+05:30
Jodhpur,Rajasthan,26.2389,73.0243,31.3,45,0.0,976.7,8.3,69.8,123,181.1,29.4,2.6,197.0,125.0,3.2,0,5,7,1,2026-05-03T18:47:40.489834+05:30
Udaipur,Rajasthan,24.5854,73.7125,33.0,27,0.0,941.1,8.8,39.2,85,34.9,12.3,1.5,159.0,128.0,3.7,0,5,7,0,2026-05-03T18:47:40.489841+05:30
Kota,Rajasthan,25.2138,75.8648,35.7,23,0.0,971.5,8.35,37.8,94,86.6,24.4,4.4,180.0,114.0,3.8,0,5,10,0,2026-05-03T18:47:40.489848+05:30
Bikaner,Rajasthan,28.0229,73.3119,37.0,15,0.0,974.8,8.25,44.3,99,147.6,27.7,1.4,178.0,126.0,4.5,0,5,10,0,2026-05-03T18:47:40.489855+05:30
Ajmer,Rajasthan,26.4499,74.6399,36.2,14,0.0,948.7,8.3,45.4,96,53.0,16.3,3.9,166.0,118.0,3.2,0,5,10,0,2026-05-03T18:47:40.489861+05:30
Gwalior,Madhya Pradesh,26.2183,78.1828,35.6,25,0.0,977.4,8.15,42.8,112,87.8,25.4,3.2,213.0,124.0,5.0,0,5,10,0,2026-05-03T18:47:40.489868+05:30
Indore,Madhya Pradesh,22.7196,75.8577,35.5,16,0.0,943.4,8.7,41.8,79,18.3,9.5,3.7,214.0,124.0,4.2,0,5,10,0,2026-05-03T18:47:40.489874+05:30
Bhopal,Madhya Pradesh,23.2599,77.4126,36.4,17,0.0,948.2,8.65,32.4,78,68.0,18.9,3.8,206.0,108.0,3.1,0,5,10,0,2026-05-03T18:47:40.489881+05:30
Jabalpur,Madhya Pradesh,23.1815,79.9864,34.0,18,0.0,955.9,8.85,29.2,91,70.1,22.5,9.6,181.0,104.0,4.2,0,5,7,0,2026-05-03T18:47:40.489887+05:30
Ujjain,Madhya Pradesh,23.1765,75.7885,35.5,20,0.0,948.6,8.6,42.5,78,17.9,10.2,2.1,178.0,125.0,4.1,0,5,10,0,2026-05-03T18:47:40.489895+05:30
Visakhapatnam,Andhra Pradesh,17.6868,83.2185,28.8,85,0.0,1001.1,9.15,47.5,65,29.5,23.9,19.3,334.0,83.0,9.5,7,5,4,1,2026-05-03T18:47:40.489902+05:30
Vijayawada,Andhra Pradesh,16.5062,80.648,34.2,53,0.0,998.5,9.15,29.2,167,44.6,36.3,7.8,281.0,156.0,8.5,0,5,7,1,2026-05-03T18:47:40.489909+05:30
Guntur,Andhra Pradesh,16.3067,80.4365,35.2,45,0.0,999.5,9.2,34.6,152,48.5,34.0,9.6,300.0,131.0,7.1,0,5,10,1,2026-05-03T18:47:40.489917+05:30
Nellore,Andhra Pradesh,14.4426,79.9865,32.0,67,0.0,1001.3,9.2,37.1,156,36.1,25.6,3.3,249.0,163.0,5.0,3,5,4,1,2026-05-03T18:47:40.489925+05:30
Kurnool,Andhra Pradesh,15.8281,78.0373,36.8,20,0.0,972.6,9.15,41.4,100,44.4,18.9,7.4,218.0,118.0,5.6,0,5,10,0,2026-05-03T18:47:40.489933+05:30
Kakinada,Andhra Pradesh,16.9891,82.2475,30.4,77,0.0,1004.1,9.15,33.1,59,30.7,22.1,2.1,244.0,112.0,2.7,3,5,4,1,2026-05-03T18:47:40.489940+05:30
Tirupati,Andhra Pradesh,13.6288,79.4192,34.2,36,0.0,987.4,7.25,27.4,115,41.2,22.0,10.3,229.0,125.0,4.2,0,5,7,1,2026-05-03T18:47:40.489947+05:30
Warangal,Telangana,17.9689,79.5941,35.3,28,0.0,974.6,9.15,38.9,121,57.6,27.6,10.9,291.0,114.0,10.7,0,5,10,0,2026-05-03T18:47:40.489954+05:30
Nizamabad,Telangana,18.6725,78.0941,36.0,18,0.0,960.0,9.1,44.6,73,71.9,23.1,6.7,230.0,111.0,3.3,0,5,10,0,2026-05-03T18:47:40.489960+05:30
Mysore,Karnataka,12.2958,76.6396,28.5,55,0.0,926.9,8.95,36.7,79,45.2,20.9,10.2,206.0,111.0,2.5,4,5,7,1,2026-05-03T18:47:40.489967+05:30
Mangalore,Karnataka,12.9141,74.856,30.3,65,0.0,1005.2,9.0,42.8,69,60.1,17.0,2.0,150.0,71.0,1.1,3,5,4,1,2026-05-03T18:47:40.489974+05:30
Hubli-Dharwad,Karnataka,15.3647,75.124,29.6,57,0.0,939.0,9.15,44.6,58,37.5,15.7,3.9,180.0,103.0,1.6,4,5,7,1,2026-05-03T18:47:40.489981+05:30
Belgaum,Karnataka,15.8497,74.4977,27.2,67,0.0,924.5,9.15,45.0,59,33.4,13.5,4.2,165.0,80.0,1.9,7,5,7,1,2026-05-03T18:47:43.860719+05:30
Coimbatore,Tamil Nadu,11.0168,76.9558,29.4,62,0.0,959.9,9.25,49.0,65,24.3,15.5,5.7,206.0,91.0,2.7,7,5,7,1,2026-05-03T18:47:43.860755+05:30
Madurai,Tamil Nadu,9.9252,78.1198,33.5,43,0.0,990.5,8.9,33.1,144,29.7,24.9,7.8,372.0,136.0,3.2,0,5,7,1,2026-05-03T18:47:43.860767+05:30
Trichy,Tamil Nadu,10.7905,78.7047,35.5,37,0.0,996.1,9.2,40.0,129,30.7,26.4,6.2,255.0,145.0,3.2,0,5,10,1,2026-05-03T18:47:43.860776+05:30
Salem,Tamil Nadu,11.6643,78.146,36.0,27,0.0,974.0,9.25,42.1,163,31.0,21.7,10.2,200.0,153.0,11.7,0,5,10,0,2026-05-03T18:47:43.860784+05:30
Tirunelveli,Tamil Nadu,8.7139,77.7567,34.0,47,0.0,1000.5,8.15,36.0,73,20.8,17.4,4.6,243.0,92.0,1.6,0,5,4,1,2026-05-03T18:47:43.860792+05:30
Vellore,Tamil Nadu,12.9165,79.1325,36.8,25,0.0,980.6,9.3,38.9,110,32.9,21.5,8.7,224.0,127.0,3.4,0,5,10,0,2026-05-03T18:47:43.860799+05:30
Erode,Tamil Nadu,11.341,77.7172,35.8,28,0.0,985.7,9.25,46.1,111,26.7,17.7,6.8,234.0,125.0,1.7,0,5,10,0,2026-05-03T18:47:43.860806+05:30
Kochi,Kerala,9.9312,76.2673,29.4,79,0.0,1007.4,9.05,32.0,95,37.8,23.1,17.1,165.0,65.0,3.4,7,5,4,1,2026-05-03T18:47:43.860814+05:30
Thiruvananthapuram,Kerala,8.5241,76.9366,28.6,78,0.0,1006.8,8.65,36.0,56,22.0,14.2,2.0,258.0,75.0,0.7,7,5,4,1,2026-05-03T18:47:43.860821+05:30
Kozhikode,Kerala,11.2588,75.7804,29.2,75,0.0,1006.3,9.0,42.1,65,61.7,18.5,0.9,154.0,73.0,0.4,7,5,4,1,2026-05-03T18:47:43.860828+05:30
Thrissur,Kerala,10.5276,76.2144,29.2,70,0.0,1005.9,8.75,36.7,94,36.0,19.6,8.0,183.0,70.0,1.9,7,5,4,1,2026-05-03T18:47:43.860836+05:30
Kannur,Kerala,11.8745,75.3704,30.2,64,0.0,1005.6,9.0,46.8,67,59.8,18.5,2.2,151.0,73.0,0.8,3,5,4,1,2026-05-03T18:47:43.860842+05:30
Patna,Bihar,25.5941,85.1376,27.2,75,0.0,998.2,8.55,41.8,187,72.2,60.8,9.2,406.0,175.0,8.7,7,5,7,1,2026-05-03T18:47:43.860849+05:30
Gaya,Bihar,24.7914,85.0002,29.0,64,0.0,990.8,8.7,41.0,206,71.9,57.7,5.8,398.0,188.0,11.5,7,5,7,1,2026-05-03T18:47:43.860855+05:30
Muzaffarpur,Bihar,26.1209,85.3647,26.5,75,0.0,998.7,8.7,41.4,153,58.9,48.7,11.1,431.0,145.0,7.1,7,5,7,1,2026-05-03T18:47:43.860861+05:30
Bhagalpur,Bihar,25.2425,87.0117,25.1,78,0.0,999.8,8.65,41.8,161,70.8,54.8,10.6,361.0,154.0,8.8,7,5,7,1,2026-05-03T18:47:43.860867+05:30
Ranchi,Jharkhand,23.3441,85.3096,26.9,52,0.0,934.5,9.25,29.2,125,54.5,27.0,6.4,658.0,134.0,10.6,4,5,7,1,2026-05-03T18:47:43.860874+05:30
Jamshedpur,Jharkhand,22.8046,86.2029,27.6,68,0.0,988.3,9.05,38.5,206,60.5,43.8,7.6,471.0,168.0,16.7,7,5,7,1,2026-05-03T18:47:43.860880+05:30
Dhanbad,Jharkhand,23.7957,86.4304,25.5,81,0.0,977.5,9.0,30.2,200,89.2,75.4,28.5,339.0,174.0,63.5,7,5,7,1,2026-05-03T18:47:43.860887+05:30
Bokaro,Jharkhand,23.6693,86.1511,25.4,78,0.0,981.1,9.0,39.2,218,94.1,79.4,28.1,394.0,211.0,77.4,7,5,7,1,2026-05-03T18:47:43.860893+05:30
Bhubaneswar,Odisha,20.2961,85.8245,28.1,81,0.0,999.9,9.1,41.4,108,26.8,22.0,6.9,256.0,108.0,5.4,7,5,7,1,2026-05-03T18:47:43.860900+05:30
Cuttack,Odisha,20.4625,85.8828,28.6,77,0.0,1001.7,9.15,41.0,108,26.8,22.0,6.9,316.0,108.0,5.4,7,5,4,1,2026-05-03T18:47:43.860906+05:30
Rourkela,Odisha,22.2604,84.8536,31.1,45,0.0,981.5,8.95,38.5,167,78.7,44.8,16.3,340.0,143.0,27.1,0,5,7,1,2026-05-03T18:47:43.860913+05:30
Raipur,Chhattisgarh,21.2514,81.6296,36.3,19,0.0,970.0,9.0,32.4,173,60.3,35.7,23.2,318.0,122.0,8.5,0,5,10,0,2026-05-03T18:47:43.860919+05:30
Bhilai,Chhattisgarh,21.1938,81.3509,35.7,21,0.0,970.3,9.0,35.6,137,52.7,27.4,19.4,634.0,113.0,6.4,0,5,10,0,2026-05-03T18:47:43.860925+05:30
Guwahati,Assam,26.1158,91.7086,21.1,100,0.1,1002.7,7.2,19.1,66,13.5,11.5,6.5,290.0,88.0,1.5,6,5,4,1,2026-05-03T18:47:43.860931+05:30
Agartala,Tripura,23.8315,91.2868,24.8,93,0.0,1005.7,8.7,36.7,61,23.4,21.7,13.1,228.0,77.0,2.5,3,5,4,1,2026-05-03T18:47:43.860938+05:30
Shillong,Meghalaya,25.5788,91.8933,15.2,92,0.0,855.7,6.5,24.8,68,14.3,11.4,7.6,423.0,95.0,1.5,3,10,7,0,2026-05-03T18:47:43.860944+05:30
Imphal,Manipur,24.817,93.9368,19.5,93,0.0,923.4,9.15,37.8,63,31.1,21.1,10.8,437.0,77.0,2.8,3,10,7,1,2026-05-03T18:47:43.860951+05:30
Aizawl,Mizoram,23.7271,92.7176,18.3,89,0.0,892.2,8.5,55.1,42,15.4,11.3,4.6,211.0,66.0,0.7,3,10,7,1,2026-05-03T18:47:43.860957+05:30
Kohima,Nagaland,25.6701,94.1077,15.1,96,0.0,854.4,4.25,24.8,48,14.1,10.5,5.9,313.0,84.0,0.7,3,10,3,0,2026-05-03T18:47:43.860964+05:30
Gangtok,Sikkim,27.3314,88.6138,14.2,90,0.1,836.1,7.95,42.1,89,13.0,11.8,6.1,343.0,122.0,1.3,6,10,7,0,2026-05-03T18:47:43.860970+05:30
Siliguri,West Bengal,26.7271,88.3953,23.1,85,0.0,992.8,8.15,28.1,105,20.4,17.6,10.8,561.0,118.0,2.6,3,5,7,1,2026-05-03T18:47:47.187176+05:30
Durgapur,West Bengal,23.5204,87.3119,26.1,86,0.1,993.5,8.9,32.8,145,70.3,59.5,22.7,376.0,134.0,38.1,10,5,7,1,2026-05-03T18:47:47.187214+05:30
Asansol,West Bengal,23.6739,86.9524,26.1,84,0.0,991.5,8.95,29.2,162,77.5,65.9,25.7,357.0,149.0,50.4,7,5,7,1,2026-05-03T18:47:47.187227+05:30
Pondicherry,Puducherry,11.9139,79.8145,30.7,83,0.0,1004.5,8.55,44.3,187,32.9,25.9,5.3,230.0,155.0,2.3,3,5,4,1,2026-05-03T18:47:47.187236+05:30
Port Blair,Andaman and Nicobar Islands,11.6234,92.7265,29.3,70,0.0,1006.8,8.9,25.6,28,5.4,3.8,0.7,173.0,55.0,0.4,7,5,4,1,2026-05-03T18:47:47.187244+05:30
Haridwar,Uttarakhand,29.9457,78.1642,27.0,60,0.0,970.8,7.35,40.0,157,128.1,40.7,8.5,334.0,136.0,8.2,4,5,7,1,2026-05-03T18:47:47.187252+05:30
Rishikesh,Uttarakhand,30.0869,78.2676,25.6,67,0.0,963.6,7.45,37.4,152,145.8,37.8,4.8,324.0,145.0,6.4,7,5,7,1,2026-05-03T18:47:47.187260+05:30
Nainital,Uttarakhand,29.3919,79.4542,14.1,90,0.0,802.9,8.4,34.9,149,126.2,37.1,3.1,263.0,148.0,4.2,3,10,7,0,2026-05-03T18:47:47.187267+05:30
Mussoorie,Uttarakhand,30.4599,78.0664,14.9,72,0.0,800.3,7.3,53.3,152,121.1,36.2,9.7,293.0,140.0,8.3,3,5,7,0,2026-05-03T18:47:47.187275+05:30
Dharamshala,Himachal Pradesh,32.219,76.3234,17.4,70,0.0,867.1,6.85,41.4,125,47.8,18.9,4.1,221.0,146.0,4.1,3,5,7,0,2026-05-03T18:47:47.187282+05:30
Dalhousie,Himachal Pradesh,32.5387,75.971,14.7,65,0.0,801.7,7.95,48.2,141,55.5,21.4,8.7,287.0,148.0,4.5,3,5,7,0,2026-05-03T18:47:47.187290+05:30
Patiala,Punjab,30.3398,76.3869,31.1,41,0.0,974.5,7.5,63.0,740,743.2,97.3,5.5,350.0,152.0,9.5,0,5,7,1,2026-05-03T18:47:47.187297+05:30
Bhatinda,Punjab,30.211,74.9455,26.1,58,0.0,978.4,8.15,56.5,309,717.1,113.2,5.0,300.0,153.0,13.0,4,5,7,1,2026-05-03T18:47:47.187304+05:30
Rohtak,Haryana,28.8955,76.6066,31.4,42,0.0,976.8,7.65,52.6,760,610.9,103.4,8.0,353.0,166.0,14.3,0,5,7,1,2026-05-03T18:47:47.187310+05:30
Panipat,Haryana,29.3909,76.9635,29.4,54,0.0,976.5,7.45,54.0,1223,1274.0,150.4,8.1,361.0,172.0,17.0,4,5,7,1,2026-05-03T18:47:47.187317+05:30
Mathura,Uttar Pradesh,27.4924,77.6737,29.3,54,0.0,981.7,7.9,60.8,860,408.9,66.8,9.7,286.0,130.0,6.8,4,5,7,1,2026-05-03T18:47:47.187324+05:30
Vrindavan,Uttar Pradesh,27.5823,77.7027,29.1,55,0.0,982.1,7.9,59.4,860,408.9,66.8,9.7,278.0,130.0,6.8,4,5,7,1,2026-05-03T18:47:47.187330+05:30
Ayodhya,Uttar Pradesh,26.7922,82.1998,28.7,55,0.0,993.3,8.25,40.7,161,48.4,38.0,5.2,333.0,163.0,5.0,4,5,7,1,2026-05-03T18:47:47.187337+05:30
Ratlam,Madhya Pradesh,23.3315,75.0367,34.5,24,0.0,949.5,8.5,47.2,87,16.4,9.1,1.2,164.0,130.0,4.1,0,5,7,0,2026-05-03T18:47:47.187344+05:30
Sagar,Madhya Pradesh,23.8388,78.7378,31.7,30,0.0,945.3,8.7,39.6,78,83.8,22.2,2.5,193.0,110.0,2.6,0,5,7,0,2026-05-03T18:47:47.187350+05:30
Satna,Madhya Pradesh,24.6005,80.8322,32.5,38,0.0,966.7,8.7,27.7,120,53.2,21.5,3.8,206.0,135.0,5.1,0,5,7,1,2026-05-03T18:47:47.187357+05:30
Akola,Maharashtra,20.7002,77.0082,36.8,13,0.0,969.6,8.85,41.4,72,38.1,12.9,3.7,219.0,120.0,8.5,0,5,10,0,2026-05-03T18:47:47.187364+05:30
Amravati,Maharashtra,20.9374,77.7796,36.9,12,0.0,962.3,8.85,42.1,74,43.0,13.8,4.0,152.0,116.0,7.4,0,5,10,0,2026-05-03T18:47:47.187372+05:30
Latur,Maharashtra,18.4088,76.5604,36.0,13,0.0,935.6,9.05,40.0,63,46.1,14.0,5.1,159.0,103.0,4.0,0,5,10,0,2026-05-03T18:47:47.187379+05:30
Nanded,Maharashtra,19.1383,77.3091,37.0,11,0.0,963.2,9.0,36.0,71,53.0,15.5,5.3,199.0,104.0,1.9,0,5,10,0,2026-05-03T18:47:47.187385+05:30
Gulbarga,Karnataka,17.3297,76.8343,37.5,13,0.0,954.1,9.1,41.4,78,63.6,17.3,9.5,178.0,105.0,3.0,0,5,10,0,2026-05-03T18:47:47.187391+05:30
Bidar,Karnataka,17.9104,77.5199,35.0,17,0.0,931.7,9.15,37.4,77,75.7,25.0,8.8,331.0,108.0,4.6,0,5,7,0,2026-05-03T18:47:47.187398+05:30
Hospet,Karnataka,15.2689,76.3909,32.3,30,0.0,951.9,9.2,36.7,70,58.6,23.6,15.4,255.0,103.0,2.9,0,5,7,0,2026-05-03T18:47:47.187404+05:30
Tirupur,Tamil Nadu,11.1085,77.3411,30.8,58,0.0,972.6,9.35,51.8,92,27.9,18.3,7.4,204.0,110.0,2.8,0,5,7,1,2026-05-03T18:47:47.187410+05:30
Alappuzha,Kerala,9.4981,76.3388,29.2,79,0.0,1007.5,9.0,36.0,83,38.2,22.4,8.8,127.0,70.0,2.4,7,5,4,1,2026-05-03T18:47:47.187416+05:30
Munnar,Kerala,10.0889,77.0595,18.5,97,0.0,856.2,9.3,28.1,69,24.9,17.9,5.2,206.0,92.0,1.5,3,10,7,1,2026-05-03T18:47:47.187423+05:30
Silchar,Assam,24.8333,92.7789,22.1,96,0.0,1006.5,8.35,36.4,55,42.0,28.2,7.2,282.0,89.0,4.7,3,5,4,1,2026-05-03T18:47:47.187429+05:30
Dibrugarh,Assam,27.4728,94.912,23.5,84,0.0,997.1,8.2,21.6,60,16.5,15.8,9.4,313.0,73.0,1.5,3,5,7,1,2026-05-03T18:47:47.187435+05:30
