city,state,latitude,longitude,temp,humidity,rain,pressure,uv_index,wind_gusts,aqi,pm10,pm2_5,mosquito_risk,arthritis_risk,migraine_risk,frizz_risk,updated_at
Delhi,Delhi,28.6139,77.209,22.3,60,0.0,988.6,5.8,39.2,244,373.5,90.3,0,5,3,0,2026-03-03T09:58:34.867620+05:30
Mumbai,Maharashtra,19.076,72.8777,26.5,76,0.0,1013.1,7.35,28.8,92,44.9,37.4,7,0,4,1,2026-03-03T09:58:34.867657+05:30
Bangalore,Karnataka,12.9716,77.5946,26.3,34,0.0,916.0,9.1,38.2,118,37.7,36.9,4,5,7,0,2026-03-03T09:58:34.867673+05:30
Hyderabad,Telangana,17.385,78.4867,28.7,51,0.0,958.7,8.35,23.8,146,51.2,49.9,4,5,7,1,2026-03-03T09:58:34.867682+05:30
Chennai,Tamil Nadu,13.0827,80.2707,29.0,60,0.0,1012.5,8.8,29.5,120,45.3,40.9,4,0,4,1,2026-03-03T09:58:34.867691+05:30
Kolkata,West Bengal,22.5726,88.3639,28.3,56,0.0,1012.3,7.7,20.5,178,137.4,122.9,4,0,4,1,2026-03-03T09:58:34.867700+05:30
Pune,Maharashtra,18.5204,73.8567,29.3,37,0.0,953.8,7.9,33.1,84,28.8,27.6,4,5,7,0,2026-03-03T09:58:34.867712+05:30
Ahmedabad,Gujarat,23.0225,72.5714,27.4,47,0.0,1008.4,7.15,15.5,102,34.0,28.0,4,0,4,0,2026-03-03T09:58:34.867720+05:30
Jaipur,Rajasthan,26.9124,75.7873,27.3,37,0.0,966.2,6.6,31.0,98,131.3,51.9,4,5,7,0,2026-03-03T09:58:34.867728+05:30
Lucknow,Uttar Pradesh,26.8467,80.9462,23.2,59,0.0,999.1,6.3,38.5,153,197.4,71.0,0,5,7,0,2026-03-03T09:58:34.867736+05:30
Kanpur,Uttar Pradesh,26.4499,80.3319,23.9,63,0.0,997.7,6.3,31.7,182,293.4,76.1,3,5,7,1,2026-03-03T09:58:34.867744+05:30
Chandigarh,Chandigarh,30.7333,76.7794,21.2,64,0.0,972.8,5.7,35.6,80,35.6,31.9,3,5,3,0,2026-03-03T09:58:34.867751+05:30
Srinagar,Jammu and Kashmir,34.0837,74.7973,10.7,55,0.0,846.3,6.6,15.8,141,56.9,45.9,0,5,7,0,2026-03-03T09:58:34.867759+05:30
Jammu,Jammu and Kashmir,32.7266,74.857,21.1,72,0.0,976.5,6.3,23.8,101,37.3,35.2,3,5,7,0,2026-03-03T09:58:34.867766+05:30
Amritsar,Punjab,31.634,74.8723,20.9,64,0.0,985.7,6.25,29.5,94,42.3,38.6,3,5,7,0,2026-03-03T09:58:34.867772+05:30
Ludhiana,Punjab,30.901,75.8573,20.7,60,0.0,983.7,5.9,31.7,142,66.1,53.0,0,5,3,0,2026-03-03T09:58:34.867779+05:30
Jalandhar,Punjab,31.326,75.5762,20.1,60,0.0,984.8,6.1,27.0,144,85.9,61.0,0,5,7,0,2026-03-03T09:58:34.867787+05:30
Dehradun,Uttarakhand,30.6284,78.0322,18.1,41,0.0,832.0,6.05,31.3,57,10.6,7.4,0,5,7,0,2026-03-03T09:58:34.867794+05:30
Shimla,Himachal Pradesh,31.1048,77.1734,16.7,40,0.0,787.6,6.1,44.3,72,25.6,18.2,0,5,7,0,2026-03-03T09:58:34.867801+05:30
Manali,Himachal Pradesh,32.2396,77.1887,20.5,9,0.0,823.2,7.45,34.6,53,13.8,10.8,0,5,7,1,2026-03-03T09:58:34.867808+05:30
Gurgaon,Haryana,28.4595,77.0266,22.5,64,0.0,987.2,5.9,36.0,989,1341.1,195.1,3,5,3,0,2026-03-03T09:58:34.867816+05:30
Noida,Uttar Pradesh,28.5355,77.391,22.8,57,0.0,989.9,5.85,38.5,989,1341.1,195.1,0,5,3,0,2026-03-03T09:58:34.867822+05:30
Ghaziabad,Uttar Pradesh,28.6692,77.4538,21.9,64,0.0,987.8,5.8,38.2,187,316.6,80.6,3,5,3,0,2026-03-03T09:58:34.867829+05:30
Faridabad,Haryana,28.4089,77.3178,22.5,63,0.0,989.3,5.85,35.3,989,1341.1,195.1,3,5,3,0,2026-03-03T09:58:34.867835+05:30
Meerut,Uttar Pradesh,28.9845,77.7064,22.6,58,0.0,986.0,5.65,43.9,187,316.6,80.6,0,5,3,0,2026-03-03T09:58:34.867842+05:30
Agra,Uttar Pradesh,27.1767,78.0081,25.3,57,0.0,994.0,6.15,31.0,431,474.0,86.1,4,5,7,1,2026-03-03T09:58:34.867848+05:30
Varanasi,Uttar Pradesh,25.3176,82.9739,24.5,65,0.0,1003.7,6.95,25.6,94,154.1,45.2,3,5,4,1,2026-03-03T09:58:34.867860+05:30
Prayagraj,Uttar Pradesh,25.4358,81.8463,24.8,64,0.0,1002.3,6.8,25.6,113,180.2,54.6,3,5,4,1,2026-03-03T09:58:34.867868+05:30
Gorakhpur,Uttar Pradesh,26.7606,83.3732,22.3,70,0.0,1002.6,6.7,19.4,142,201.6,69.8,3,5,4,1,2026-03-03T09:58:34.867875+05:30
Bareilly,Uttar Pradesh,28.367,79.4304,21.3,69,0.0,991.4,6.0,32.0,125,86.6,56.2,3,5,3,0,2026-03-03T09:58:34.867881+05:30
Aligarh,Uttar Pradesh,27.8974,78.088,23.5,60,0.0,991.1,5.95,37.1,557,715.3,129.9,0,5,3,0,2026-03-03T09:58:34.867888+05:30
Moradabad,Uttar Pradesh,28.8386,78.7733,21.2,67,0.0,987.9,5.85,31.7,132,90.1,52.4,3,5,3,0,2026-03-03T09:58:34.867894+05:30
Saharanpur,Uttar Pradesh,29.9637,77.546,21.1,68,0.0,979.2,5.45,47.9,116,114.3,57.5,3,5,3,0,2026-03-03T09:58:34.867900+05:30
Jhansi,Uttar Pradesh,25.4484,78.5685,26.5,51,0.0,984.5,6.75,27.0,79,173.2,45.2,4,5,7,0,2026-03-03T09:58:38.243954+05:30
Surat,Gujarat,21.1702,72.8311,27.3,49,0.0,1012.3,7.05,26.3,160,103.6,97.3,4,0,4,0,2026-03-03T09:58:38.243987+05:30
Vadodara,Gujarat,22.3072,73.1812,27.8,49,0.0,1010.6,7.15,13.3,155,68.2,64.3,4,0,4,1,2026-03-03T09:58:38.243998+05:30
Rajkot,Gujarat,22.3039,70.8022,25.7,60,0.0,1000.4,7.0,18.0,65,26.4,16.9,4,5,4,1,2026-03-03T09:58:38.244006+05:30
Thane,Maharashtra,19.2183,72.9781,28.3,53,0.0,1012.8,7.35,39.6,92,44.9,37.4,4,0,4,1,2026-03-03T09:58:38.244014+05:30
Nagpur,Maharashtra,21.1458,79.0882,28.2,41,0.0,980.2,7.75,18.0,69,27.5,21.4,4,5,7,0,2026-03-03T09:58:38.244021+05:30
Nashik,Maharashtra,19.9975,73.7898,27.8,35,0.0,951.2,7.55,32.0,85,33.4,31.9,4,5,7,0,2026-03-03T09:58:38.244028+05:30
Aurangabad,Maharashtra,19.8762,75.3433,28.6,37,0.0,950.0,8.05,25.2,75,23.7,22.0,4,5,7,0,2026-03-03T09:58:38.244036+05:30
Solapur,Maharashtra,17.6599,75.9064,28.0,50,0.0,962.8,8.3,18.0,121,39.8,39.3,4,5,7,1,2026-03-03T09:58:38.244044+05:30
Kolhapur,Maharashtra,16.705,74.2433,27.8,48,0.0,952.5,8.4,41.4,121,46.9,46.0,4,5,7,0,2026-03-03T09:58:38.244051+05:30
Goa,Goa,15.2993,74.124,28.3,67,0.0,1001.8,8.4,35.6,73,27.5,22.8,7,5,4,1,2026-03-03T09:58:38.244058+05:30
Jodhpur,Rajasthan,26.2389,73.0243,26.3,42,0.0,989.7,6.85,15.5,75,39.7,21.6,4,5,7,0,2026-03-03T09:58:38.244065+05:30
Udaipur,Rajasthan,24.5854,73.7125,27.6,36,0.0,952.6,7.45,18.7,66,34.8,17.7,4,5,7,0,2026-03-03T09:58:38.244072+05:30
Kota,Rajasthan,25.2138,75.8648,26.5,49,0.0,985.3,6.85,21.2,87,47.4,32.2,4,5,7,0,2026-03-03T09:58:38.244079+05:30
Bikaner,Rajasthan,28.0229,73.3119,24.4,55,0.0,988.5,6.55,20.9,69,42.5,24.3,0,5,7,0,2026-03-03T09:58:38.244086+05:30
Ajmer,Rajasthan,26.4499,74.6399,27.1,41,0.0,960.6,6.8,25.6,73,87.1,32.6,4,5,7,0,2026-03-03T09:58:38.244092+05:30
Gwalior,Madhya Pradesh,26.2183,78.1828,27.2,55,0.0,989.6,6.45,29.5,126,125.3,44.9,4,5,7,1,2026-03-03T09:58:38.244099+05:30
Indore,Madhya Pradesh,22.7196,75.8577,26.7,51,0.0,954.1,7.45,16.6,91,37.3,30.7,4,5,7,0,2026-03-03T09:58:38.244106+05:30
Bhopal,Madhya Pradesh,23.2599,77.4126,28.5,47,0.0,959.9,7.3,23.8,80,35.7,22.6,4,5,7,1,2026-03-03T09:58:38.244112+05:30
Jabalpur,Madhya Pradesh,23.1815,79.9864,26.2,50,0.0,968.2,7.4,21.6,71,33.4,22.7,4,5,7,0,2026-03-03T09:58:38.244119+05:30
Ujjain,Madhya Pradesh,23.1765,75.7885,25.7,58,0.0,959.9,7.35,15.5,105,43.7,40.3,4,5,7,1,2026-03-03T09:58:38.244126+05:30
Visakhapatnam,Andhra Pradesh,17.6868,83.2185,29.8,50,0.0,1008.8,8.35,36.0,131,63.3,61.2,4,0,4,1,2026-03-03T09:58:38.244133+05:30
Vijayawada,Andhra Pradesh,16.5062,80.648,28.3,62,0.0,1008.3,8.4,25.9,141,52.3,49.5,7,0,4,1,2026-03-03T09:58:38.244139+05:30
Guntur,Andhra Pradesh,16.3067,80.4365,29.1,53,0.0,1009.4,8.4,28.4,134,49.6,47.1,4,0,4,1,2026-03-03T09:58:38.244146+05:30
Nellore,Andhra Pradesh,14.4426,79.9865,29.6,53,0.0,1011.2,8.65,29.2,117,48.1,44.9,4,0,4,1,2026-03-03T09:58:38.244154+05:30
Kurnool,Andhra Pradesh,15.8281,78.0373,30.7,39,0.0,982.1,8.45,28.8,124,49.7,48.2,0,5,7,0,2026-03-03T09:58:38.244161+05:30
Kakinada,Andhra Pradesh,16.9891,82.2475,30.2,53,0.0,1012.7,8.35,35.3,128,51.7,48.5,0,0,4,1,2026-03-03T09:58:38.244168+05:30
Tirupati,Andhra Pradesh,13.6288,79.4192,30.0,33,0.0,996.8,8.75,36.0,153,47.8,45.2,4,5,7,0,2026-03-03T09:58:38.244175+05:30
Warangal,Telangana,17.9689,79.5941,28.3,62,0.0,984.5,8.2,16.2,152,53.2,52.3,7,5,7,1,2026-03-03T09:58:38.244182+05:30
Nizamabad,Telangana,18.6725,78.0941,29.0,41,0.0,970.7,8.1,26.3,91,28.9,27.0,4,5,7,0,2026-03-03T09:58:38.244189+05:30
Mysore,Karnataka,12.2958,76.6396,26.2,59,0.0,932.7,9.15,33.8,137,49.6,48.4,4,5,7,1,2026-03-03T09:58:38.244195+05:30
Mangalore,Karnataka,12.9141,74.856,27.7,81,0.0,1010.5,8.75,28.8,60,23.2,17.7,7,0,4,1,2026-03-03T09:58:38.244202+05:30
Hubli-Dharwad,Karnataka,15.3647,75.124,27.6,56,0.0,945.4,8.6,29.2,88,32.9,31.8,4,5,7,1,2026-03-03T09:58:38.244209+05:30
Belgaum,Karnataka,15.8497,74.4977,27.4,50,0.0,930.0,8.65,33.5,81,31.8,30.2,4,5,7,1,2026-03-03T09:58:41.594700+05:30
Coimbatore,Tamil Nadu,11.0168,76.9558,27.7,54,0.0,966.4,9.15,42.1,131,41.9,40.9,4,5,7,1,2026-03-03T09:58:41.594728+05:30
Madurai,Tamil Nadu,9.9252,78.1198,27.5,65,0.0,998.3,9.1,32.4,119,41.2,38.2,7,5,7,1,2026-03-03T09:58:41.594737+05:30
Trichy,Tamil Nadu,10.7905,78.7047,27.2,65,0.0,1005.3,9.0,29.9,121,45.4,41.2,7,5,4,1,2026-03-03T09:58:41.594745+05:30
Salem,Tamil Nadu,11.6643,78.146,27.9,65,0.0,982.3,9.0,38.5,137,51.3,49.6,7,5,7,1,2026-03-03T09:58:41.594751+05:30
Tirunelveli,Tamil Nadu,8.7139,77.7567,28.3,60,0.0,1008.7,9.1,40.0,113,32.9,30.9,4,0,4,1,2026-03-03T09:58:41.594758+05:30
Vellore,Tamil Nadu,12.9165,79.1325,28.8,38,0.0,989.8,8.9,38.2,151,47.0,44.5,4,5,7,0,2026-03-03T09:58:41.594764+05:30
Erode,Tamil Nadu,11.341,77.7172,28.1,61,0.0,994.2,9.05,33.5,119,44.4,42.3,7,5,7,1,2026-03-03T09:58:41.594770+05:30
Kochi,Kerala,9.9312,76.2673,27.9,77,0.0,1012.5,8.95,32.8,106,36.1,33.9,7,0,4,1,2026-03-03T09:58:41.594781+05:30
Thiruvananthapuram,Kerala,8.5241,76.9366,27.0,83,0.0,1012.0,9.0,27.4,81,35.4,33.1,7,0,4,1,2026-03-03T09:58:41.594789+05:30
Kozhikode,Kerala,11.2588,75.7804,28.6,70,0.0,1011.8,8.85,34.2,64,26.5,24.2,7,0,4,1,2026-03-03T09:58:41.594798+05:30
Thrissur,Kerala,10.5276,76.2144,30.2,66,0.0,1010.9,8.95,42.5,105,35.9,33.9,3,0,4,1,2026-03-03T09:58:41.594808+05:30
Kannur,Kerala,11.8745,75.3704,29.3,61,0.0,1011.1,8.85,36.4,61,20.3,17.1,7,0,4,1,2026-03-03T09:58:41.594814+05:30
Patna,Bihar,25.5941,85.1376,24.2,59,0.0,1006.3,7.15,19.4,132,115.0,62.9,0,5,4,0,2026-03-03T09:58:41.594820+05:30
Gaya,Bihar,24.7914,85.0002,25.5,57,0.0,999.8,7.25,25.9,90,73.1,30.9,4,5,7,1,2026-03-03T09:58:41.594826+05:30
Muzaffarpur,Bihar,26.1209,85.3647,23.7,57,0.0,1006.5,7.1,11.2,151,116.9,73.3,0,5,4,0,2026-03-03T09:58:41.594832+05:30
Bhagalpur,Bihar,25.2425,87.0117,24.1,65,0.0,1007.6,7.15,14.4,119,79.9,52.9,3,5,4,1,2026-03-03T09:58:41.594838+05:30
Ranchi,Jharkhand,23.3441,85.3096,26.0,31,0.0,943.5,7.9,44.3,61,122.5,31.7,4,5,7,0,2026-03-03T09:58:41.594844+05:30
Jamshedpur,Jharkhand,22.8046,86.2029,27.0,40,0.0,997.7,7.75,14.4,94,55.8,34.5,4,5,7,0,2026-03-03T09:58:41.594850+05:30
Dhanbad,Jharkhand,23.7957,86.4304,28.4,27,0.0,986.1,7.65,32.8,96,65.9,43.7,4,5,7,0,2026-03-03T09:58:41.594855+05:30
Bokaro,Jharkhand,23.6693,86.1511,28.5,28,0.0,990.0,7.65,36.4,99,68.0,41.6,4,5,7,0,2026-03-03T09:58:41.594861+05:30
Bhubaneswar,Odisha,20.2961,85.8245,30.4,58,0.0,1008.3,8.1,27.0,155,73.3,63.8,0,0,4,1,2026-03-03T09:58:41.594867+05:30
Cuttack,Odisha,20.4625,85.8828,31.2,50,0.0,1010.3,8.1,25.2,155,73.3,63.8,0,0,4,1,2026-03-03T09:58:41.594873+05:30
Rourkela,Odisha,22.2604,84.8536,27.6,39,0.0,991.8,7.7,25.9,78,55.2,32.8,4,5,7,0,2026-03-03T09:58:41.594879+05:30
Raipur,Chhattisgarh,21.2514,81.6296,28.1,37,0.0,981.6,7.8,14.4,115,51.9,41.7,4,5,7,0,2026-03-03T09:58:41.594885+05:30
Bhilai,Chhattisgarh,21.1938,81.3509,28.1,40,0.0,981.9,7.8,13.7,112,57.5,47.8,4,5,7,0,2026-03-03T09:58:41.594890+05:30
Guwahati,Assam,26.1158,91.7086,25.1,70,0.0,1008.4,7.1,22.0,153,94.5,74.5,7,0,4,1,2026-03-03T09:58:41.594896+05:30
Agartala,Tripura,23.8315,91.2868,26.7,74,0.0,1012.1,7.45,15.8,178,87.5,85.7,7,0,4,1,2026-03-03T09:58:41.594902+05:30
Shillong,Meghalaya,25.5788,91.8933,16.7,30,0.0,860.4,7.45,28.1,128,81.7,58.3,0,5,7,1,2026-03-03T09:58:41.594908+05:30
Imphal,Manipur,24.817,93.9368,19.4,62,0.0,928.1,7.6,28.8,158,85.0,76.1,3,5,7,0,2026-03-03T09:58:41.594914+05:30
Aizawl,Mizoram,23.7271,92.7176,21.8,58,0.0,897.7,7.65,32.8,162,71.9,65.7,0,5,7,0,2026-03-03T09:58:41.594921+05:30
Kohima,Nagaland,25.6701,94.1077,15.5,60,0.0,858.8,6.5,45.0,150,83.8,63.6,0,5,7,0,2026-03-03T09:58:41.594927+05:30
Gangtok,Sikkim,27.3314,88.6138,15.4,67,0.0,841.1,7.4,18.4,147,52.9,38.3,3,5,7,0,2026-03-03T09:58:41.594933+05:30
Siliguri,West Bengal,26.7271,88.3953,21.8,65,0.0,1000.2,7.1,20.2,166,99.2,69.4,3,5,4,0,2026-03-03T09:58:44.941342+05:30
Durgapur,West Bengal,23.5204,87.3119,30.1,24,0.0,1001.3,7.65,28.4,84,69.2,45.3,0,5,4,0,2026-03-03T09:58:44.941369+05:30
Asansol,West Bengal,23.6739,86.9524,29.9,25,0.0,999.8,7.65,23.8,79,61.9,42.3,4,5,7,0,2026-03-03T09:58:44.941378+05:30
Pondicherry,Puducherry,11.9139,79.8145,28.0,69,0.0,1013.7,8.85,25.9,110,49.0,44.8,7,0,4,1,2026-03-03T09:58:44.941385+05:30
Port Blair,Andaman and Nicobar Islands,11.6234,92.7265,26.9,75,0.0,1011.0,8.8,17.6,84,38.5,27.5,7,0,4,1,2026-03-03T09:58:44.941392+05:30
Haridwar,Uttarakhand,29.9457,78.1642,22.1,58,0.0,977.6,5.55,23.0,97,32.5,29.6,0,5,3,0,2026-03-03T09:58:44.941399+05:30
Rishikesh,Uttarakhand,30.0869,78.2676,23.6,57,0.0,970.0,5.6,23.8,75,23.6,21.8,0,5,3,0,2026-03-03T09:58:44.941405+05:30
Nainital,Uttarakhand,29.3919,79.4542,18.5,54,0.0,807.8,6.45,51.5,81,35.0,27.7,0,5,7,0,2026-03-03T09:58:44.941412+05:30
Mussoorie,Uttarakhand,30.4599,78.0664,18.2,45,0.0,804.5,5.95,40.0,78,20.4,19.8,0,5,3,0,2026-03-03T09:58:44.941418+05:30
Dharamshala,Himachal Pradesh,32.219,76.3234,21.5,35,0.0,871.8,6.2,23.0,52,9.4,5.4,0,5,7,0,2026-03-03T09:58:44.941425+05:30
Dalhousie,Himachal Pradesh,32.5387,75.971,19.8,21,0.0,807.0,6.4,20.5,92,25.4,21.5,0,5,7,1,2026-03-03T09:58:44.941431+05:30
Patiala,Punjab,30.3398,76.3869,21.4,60,0.0,982.9,5.6,36.4,174,402.3,79.4,0,5,3,0,2026-03-03T09:58:44.941438+05:30
Bhatinda,Punjab,30.211,74.9455,22.4,63,0.0,989.5,6.25,30.2,143,72.6,58.8,3,5,7,0,2026-03-03T09:58:44.941445+05:30
Rohtak,Haryana,28.8955,76.6066,22.3,62,0.0,987.5,5.8,36.4,364,506.6,99.9,3,5,3,0,2026-03-03T09:58:44.941451+05:30
Panipat,Haryana,29.3909,76.9635,22.0,63,0.0,985.5,5.6,40.7,873,1065.4,159.3,3,5,3,0,2026-03-03T09:58:44.941458+05:30
Mathura,Uttar Pradesh,27.4924,77.6737,25.6,53,0.0,992.9,6.1,30.6,472,545.8,90.6,4,5,7,0,2026-03-03T09:58:44.941464+05:30
Vrindavan,Uttar Pradesh,27.5823,77.7027,24.9,56,0.0,993.2,6.05,33.8,472,545.8,90.6,0,5,7,0,2026-03-03T09:58:44.941470+05:30
Ayodhya,Uttar Pradesh,26.7922,82.1998,23.0,60,0.0,1000.9,6.45,28.8,142,165.8,63.3,0,5,4,0,2026-03-03T09:58:44.941476+05:30
Ratlam,Madhya Pradesh,23.3315,75.0367,26.2,52,0.0,960.7,7.3,12.2,92,34.9,29.7,4,5,7,0,2026-03-03T09:58:44.941482+05:30
Sagar,Madhya Pradesh,23.8388,78.7378,27.2,46,0.0,956.6,7.25,27.4,63,27.0,17.2,4,5,7,0,2026-03-03T09:58:44.941488+05:30
Satna,Madhya Pradesh,24.6005,80.8322,27.3,44,0.0,977.9,7.2,33.1,67,184.9,39.9,4,5,7,0,2026-03-03T09:58:44.941494+05:30
Akola,Maharashtra,20.7002,77.0082,28.4,45,0.0,981.7,7.8,20.2,77,29.2,23.7,4,5,7,0,2026-03-03T09:58:44.941500+05:30
Amravati,Maharashtra,20.9374,77.7796,29.8,36,0.0,974.2,7.75,16.6,75,28.8,22.5,4,5,7,0,2026-03-03T09:58:44.941507+05:30
Latur,Maharashtra,18.4088,76.5604,27.8,40,0.0,945.5,8.2,31.0,84,27.3,26.8,4,5,7,0,2026-03-03T09:58:44.941513+05:30
Nanded,Maharashtra,19.1383,77.3091,29.0,38,0.0,974.9,8.0,20.9,96,27.0,24.6,4,5,7,0,2026-03-03T09:58:44.941519+05:30
Gulbarga,Karnataka,17.3297,76.8343,29.8,46,0.0,964.2,8.3,18.7,136,48.1,47.3,4,5,7,1,2026-03-03T09:58:44.941525+05:30
Bidar,Karnataka,17.9104,77.5199,28.7,48,0.0,941.1,8.25,21.6,110,49.0,48.1,4,5,7,1,2026-03-03T09:58:44.941531+05:30
Hospet,Karnataka,15.2689,76.3909,27.5,64,0.0,960.8,8.6,26.3,107,42.4,41.8,7,5,7,1,2026-03-03T09:58:44.941536+05:30
Tirupur,Tamil Nadu,11.1085,77.3411,28.0,50,0.0,980.2,9.15,31.7,132,45.1,43.8,4,5,7,1,2026-03-03T09:58:44.941542+05:30
Alappuzha,Kerala,9.4981,76.3388,27.5,78,0.0,1012.7,8.95,28.4,95,37.3,34.7,7,0,4,1,2026-03-03T09:58:44.941548+05:30
Munnar,Kerala,10.0889,77.0595,24.7,57,0.0,861.0,9.45,20.2,106,34.8,33.9,0,5,7,0,2026-03-03T09:58:44.941554+05:30
Silchar,Assam,24.8333,92.7789,26.4,64,0.0,1011.3,7.4,20.2,160,97.6,81.0,7,0,4,1,2026-03-03T09:58:44.941560+05:30
Dibrugarh,Assam,27.4728,94.912,23.2,71,0.0,1003.1,7.1,11.2,157,82.9,57.3,3,5,4,1,2026-03-03T09:58:44.941566+05:30
