city,state,latitude,longitude,temp,humidity,rain,pressure,uv_index,wind_gusts,aqi,pm10,pm2_5,no2,co,o3,so2,mosquito_risk,arthritis_risk,migraine_risk,frizz_risk,updated_at
Delhi,Delhi,28.6139,77.209,37.4,25,0.0,978.9,7.75,43.6,293,895.9,160.2,11.7,361.0,94.0,12.1,0,5,10,0,2026-05-21T09:31:51.539460+05:30
Mumbai,Maharashtra,19.076,72.8777,32.2,60,0.0,1008.2,6.2,40.7,55,22.2,13.6,8.1,240.0,66.0,8.3,0,0,4,1,2026-05-21T09:31:51.539494+05:30
Bangalore,Karnataka,12.9716,77.5946,26.5,72,0.0,912.8,9.35,38.2,40,8.6,7.5,8.4,497.0,73.0,4.9,7,5,7,1,2026-05-21T09:31:51.539509+05:30
Hyderabad,Telangana,17.385,78.4867,34.8,39,0.0,952.8,8.6,34.2,95,37.7,27.8,6.1,338.0,110.0,8.7,0,5,7,1,2026-05-21T09:31:51.539518+05:30
Chennai,Tamil Nadu,13.0827,80.2707,36.2,45,0.0,1004.5,8.65,44.3,63,18.9,16.2,12.5,345.0,104.0,9.8,0,5,7,1,2026-05-21T09:31:51.539527+05:30
Kolkata,West Bengal,22.5726,88.3639,33.3,70,0.0,1002.7,8.95,29.9,109,73.3,41.9,3.1,463.0,127.0,8.9,3,5,4,1,2026-05-21T09:31:51.539534+05:30
Pune,Maharashtra,18.5204,73.8567,30.1,55,0.0,948.6,7.7,57.6,58,22.4,13.6,5.6,180.0,73.0,9.1,0,5,7,1,2026-05-21T09:31:51.539541+05:30
Ahmedabad,Gujarat,23.0225,72.5714,32.5,53,0.0,1001.8,8.15,32.4,69,64.7,23.6,3.9,188.0,75.0,4.4,0,5,4,1,2026-05-21T09:31:51.539547+05:30
Jaipur,Rajasthan,26.9124,75.7873,35.8,17,0.0,958.2,8.25,46.4,166,476.8,88.7,2.8,173.0,91.0,4.9,0,5,10,0,2026-05-21T09:31:51.539554+05:30
Lucknow,Uttar Pradesh,26.8467,80.9462,38.2,24,0.0,989.6,8.25,33.1,156,265.4,76.6,10.4,255.0,151.0,14.2,0,5,10,0,2026-05-21T09:31:51.539561+05:30
Kanpur,Uttar Pradesh,26.4499,80.3319,38.0,24,0.0,988.2,8.25,38.9,195,370.7,70.1,5.2,176.0,116.0,6.4,0,5,10,0,2026-05-21T09:31:51.539572+05:30
Chandigarh,Chandigarh,30.7333,76.7794,37.2,21,0.0,964.7,7.75,33.5,97,88.9,37.6,9.0,625.0,172.0,18.7,0,5,10,0,2026-05-21T09:31:51.539579+05:30
Srinagar,Jammu and Kashmir,34.0837,74.7973,15.9,89,0.1,845.3,8.9,32.4,74,46.9,20.5,8.5,330.0,99.0,4.2,6,10,7,0,2026-05-21T09:31:51.539586+05:30
Jammu,Jammu and Kashmir,32.7266,74.857,29.8,40,0.1,969.1,8.55,44.6,85,40.9,21.5,11.7,258.0,89.0,3.7,7,5,7,0,2026-05-21T09:31:51.539593+05:30
Amritsar,Punjab,31.634,74.8723,35.0,25,0.0,976.9,8.4,49.0,96,57.4,31.4,13.9,369.0,105.0,7.3,0,5,7,0,2026-05-21T09:31:51.539600+05:30
Ludhiana,Punjab,30.901,75.8573,34.5,29,0.0,974.4,8.05,34.2,143,109.9,50.9,13.6,580.0,138.0,17.9,0,5,7,0,2026-05-21T09:31:51.539609+05:30
Jalandhar,Punjab,31.326,75.5762,34.5,29,0.0,975.9,8.2,38.5,104,111.1,45.4,11.9,747.0,141.0,10.4,0,5,7,0,2026-05-21T09:31:51.539631+05:30
Dehradun,Uttarakhand,30.6284,78.0322,27.2,27,0.0,832.7,8.15,44.6,69,56.7,20.0,0.8,169.0,154.0,6.0,4,5,7,0,2026-05-21T09:31:51.539637+05:30
Shimla,Himachal Pradesh,31.1048,77.1734,25.5,19,0.0,788.4,8.3,47.9,69,59.0,19.0,0.9,181.0,154.0,4.8,4,5,7,0,2026-05-21T09:31:51.539643+05:30
Manali,Himachal Pradesh,32.2396,77.1887,25.2,27,0.0,821.8,9.65,42.8,54,18.8,5.9,7.3,160.0,121.0,0.4,4,5,7,0,2026-05-21T09:31:51.539650+05:30
Gurgaon,Haryana,28.4595,77.0266,37.0,26,0.0,977.8,7.85,47.5,1244,3248.5,434.9,10.6,274.0,94.0,10.8,0,5,10,0,2026-05-21T09:31:51.539658+05:30
Noida,Uttar Pradesh,28.5355,77.391,37.5,26,0.0,980.1,7.75,39.2,1244,3248.5,434.9,10.6,418.0,94.0,10.8,0,5,10,0,2026-05-21T09:31:51.539664+05:30
Ghaziabad,Uttar Pradesh,28.6692,77.4538,37.5,25,0.0,978.3,7.75,40.7,283,707.8,131.8,9.9,298.0,109.0,15.8,0,5,10,0,2026-05-21T09:31:51.539671+05:30
Faridabad,Haryana,28.4089,77.3178,37.2,26,0.0,979.6,7.8,46.8,1244,3248.5,434.9,10.6,304.0,94.0,10.8,0,5,10,0,2026-05-21T09:31:51.539677+05:30
Meerut,Uttar Pradesh,28.9845,77.7064,36.1,29,0.0,977.2,7.65,33.1,283,707.8,131.8,9.9,287.0,109.0,15.8,0,5,10,0,2026-05-21T09:31:51.539683+05:30
Agra,Uttar Pradesh,27.1767,78.0081,37.2,24,0.0,984.4,8.1,43.6,759,1031.9,129.0,5.3,219.0,100.0,6.7,0,5,10,0,2026-05-21T09:31:51.539689+05:30
Varanasi,Uttar Pradesh,25.3176,82.9739,39.3,37,0.0,993.3,8.75,41.8,153,122.5,55.4,12.4,487.0,153.0,25.2,0,5,10,1,2026-05-21T09:31:51.539696+05:30
Prayagraj,Uttar Pradesh,25.4358,81.8463,38.8,28,0.0,992.0,8.65,36.7,154,139.2,72.6,13.1,292.0,156.0,19.4,0,5,10,1,2026-05-21T09:31:51.539703+05:30
Gorakhpur,Uttar Pradesh,26.7606,83.3732,34.2,58,0.0,994.0,8.65,29.2,157,96.2,74.0,6.1,434.0,163.0,16.6,0,5,7,1,2026-05-21T09:31:51.539709+05:30
Bareilly,Uttar Pradesh,28.367,79.4304,34.2,34,0.0,982.6,8.05,23.8,157,388.4,106.2,9.4,369.0,132.0,11.4,0,5,7,1,2026-05-21T09:31:51.539715+05:30
Aligarh,Uttar Pradesh,27.8974,78.088,36.5,31,0.0,981.6,7.9,40.0,685,1303.9,207.7,7.0,220.0,101.0,9.6,0,5,10,1,2026-05-21T09:31:51.539723+05:30
Moradabad,Uttar Pradesh,28.8386,78.7733,35.2,33,0.0,979.4,7.75,25.2,170,398.6,124.3,23.1,507.0,150.0,20.9,0,5,10,1,2026-05-21T09:31:51.539729+05:30
Saharanpur,Uttar Pradesh,29.9637,77.546,34.6,36,0.0,971.4,7.1,29.5,160,236.1,85.9,20.9,519.0,167.0,11.6,0,5,7,1,2026-05-21T09:31:51.539735+05:30
Jhansi,Uttar Pradesh,25.4484,78.5685,37.5,21,0.0,975.9,8.5,45.7,51,50.3,20.0,2.2,164.0,86.0,3.5,0,5,10,0,2026-05-21T09:32:05.301857+05:30
Surat,Gujarat,21.1702,72.8311,32.9,59,0.0,1006.4,7.75,36.7,66,45.9,22.9,19.9,438.0,44.0,58.6,0,5,4,1,2026-05-21T09:32:05.301884+05:30
Vadodara,Gujarat,22.3072,73.1812,34.0,43,0.0,1003.9,8.15,36.4,66,64.0,25.8,5.7,215.0,75.0,10.0,0,5,4,1,2026-05-21T09:32:05.301895+05:30
Rajkot,Gujarat,22.3039,70.8022,31.5,59,0.0,993.9,7.75,47.9,65,54.6,19.3,3.1,135.0,68.0,6.5,0,5,7,1,2026-05-21T09:32:05.301903+05:30
Thane,Maharashtra,19.2183,72.9781,33.7,53,0.0,1007.5,6.95,38.9,55,22.2,13.6,8.1,210.0,66.0,8.3,0,5,4,1,2026-05-21T09:32:05.301910+05:30
Nagpur,Maharashtra,21.1458,79.0882,39.2,18,0.0,971.5,8.95,42.1,63,35.4,17.2,6.1,191.0,113.0,14.5,0,5,10,0,2026-05-21T09:32:05.301917+05:30
Nashik,Maharashtra,19.9975,73.7898,30.3,53,0.0,946.0,6.15,36.7,52,24.3,11.4,2.9,139.0,61.0,2.7,0,5,7,1,2026-05-21T09:32:05.301924+05:30
Aurangabad,Maharashtra,19.8762,75.3433,33.0,38,0.0,944.5,9.0,38.2,64,30.9,14.7,4.2,147.0,73.0,5.5,0,5,7,1,2026-05-21T09:32:05.301931+05:30
Solapur,Maharashtra,17.6599,75.9064,32.5,48,0.0,957.7,9.05,39.2,76,28.4,17.7,3.7,159.0,86.0,4.5,0,5,7,1,2026-05-21T09:32:05.301938+05:30
Kolhapur,Maharashtra,16.705,74.2433,29.0,63,0.0,948.8,8.9,42.8,64,27.3,16.0,3.8,168.0,79.0,3.0,7,5,7,1,2026-05-21T09:32:05.301945+05:30
Goa,Goa,15.2993,74.124,30.1,73,0.1,998.6,4.55,28.8,45,8.7,6.2,1.2,178.0,81.0,1.3,6,5,3,1,2026-05-21T09:32:05.301953+05:30
Jodhpur,Rajasthan,26.2389,73.0243,33.5,31,0.0,981.4,8.45,46.1,166,248.7,53.3,2.6,149.0,84.0,5.0,0,5,7,0,2026-05-21T09:32:05.301960+05:30
Udaipur,Rajasthan,24.5854,73.7125,33.2,18,0.0,946.7,8.85,40.0,69,94.5,27.8,1.4,136.0,89.0,4.1,0,5,7,0,2026-05-21T09:32:05.301967+05:30
Kota,Rajasthan,25.2138,75.8648,37.2,19,0.0,977.6,8.45,44.3,61,68.0,26.8,2.5,152.0,86.0,4.6,0,5,10,0,2026-05-21T09:32:05.301974+05:30
Bikaner,Rajasthan,28.0229,73.3119,34.0,23,0.0,979.6,8.4,31.3,154,284.1,108.5,1.2,153.0,100.0,4.3,0,5,7,0,2026-05-21T09:32:05.301980+05:30
Ajmer,Rajasthan,26.4499,74.6399,33.0,23,0.0,953.9,8.4,54.0,78,117.6,40.3,2.2,150.0,88.0,4.9,0,5,7,0,2026-05-21T09:32:05.301987+05:30
Gwalior,Madhya Pradesh,26.2183,78.1828,37.5,20,0.0,980.6,8.25,54.0,56,60.8,24.8,1.8,151.0,87.0,3.5,0,5,10,0,2026-05-21T09:32:05.301994+05:30
Indore,Madhya Pradesh,22.7196,75.8577,33.8,36,0.0,948.3,8.7,39.6,66,50.2,22.7,4.3,221.0,76.0,9.7,0,5,7,1,2026-05-21T09:32:05.302001+05:30
Bhopal,Madhya Pradesh,23.2599,77.4126,36.2,23,0.0,953.2,8.7,42.5,60,39.0,20.1,2.9,191.0,96.0,8.3,0,5,10,0,2026-05-21T09:32:05.302007+05:30
Jabalpur,Madhya Pradesh,23.1815,79.9864,38.0,18,0.0,960.7,8.9,33.1,69,34.7,15.3,2.3,162.0,105.0,4.3,0,5,10,0,2026-05-21T09:32:05.302015+05:30
Ujjain,Madhya Pradesh,23.1765,75.7885,34.0,36,0.0,953.9,8.65,36.0,66,50.1,22.4,3.9,184.0,72.0,10.5,0,5,7,1,2026-05-21T09:32:05.302022+05:30
Visakhapatnam,Andhra Pradesh,17.6868,83.2185,38.0,43,0.0,999.2,9.05,37.4,113,65.7,56.0,20.0,570.0,142.0,52.2,0,5,10,1,2026-05-21T09:32:05.302029+05:30
Vijayawada,Andhra Pradesh,16.5062,80.648,38.6,35,0.0,999.0,9.15,39.6,137,40.3,31.4,6.1,236.0,126.0,12.4,0,5,10,1,2026-05-21T09:32:05.302036+05:30
Guntur,Andhra Pradesh,16.3067,80.4365,38.8,35,0.0,1000.3,9.15,41.4,117,39.7,29.5,5.3,237.0,118.0,10.0,0,5,7,1,2026-05-21T09:32:05.302043+05:30
Nellore,Andhra Pradesh,14.4426,79.9865,37.2,42,0.0,1003.1,9.1,45.4,78,13.1,10.4,4.1,169.0,105.0,6.7,0,5,7,1,2026-05-21T09:32:05.302050+05:30
Kurnool,Andhra Pradesh,15.8281,78.0373,34.0,51,0.0,976.7,8.8,47.2,73,26.9,17.5,4.9,177.0,93.0,7.7,0,5,7,1,2026-05-21T09:32:05.302058+05:30
Kakinada,Andhra Pradesh,16.9891,82.2475,37.8,46,0.0,1003.3,9.1,36.4,93,47.5,39.2,5.3,319.0,149.0,7.8,0,5,7,1,2026-05-21T09:32:05.302064+05:30
Tirupati,Andhra Pradesh,13.6288,79.4192,36.2,41,0.0,989.0,9.15,42.8,58,11.4,9.4,3.4,194.0,108.0,2.5,0,5,10,1,2026-05-21T09:32:05.302071+05:30
Warangal,Telangana,17.9689,79.5941,37.5,30,0.0,976.4,9.0,41.4,124,45.4,36.2,4.8,279.0,128.0,9.5,0,5,10,1,2026-05-21T09:32:05.302077+05:30
Nizamabad,Telangana,18.6725,78.0941,37.1,31,0.0,964.0,9.1,34.2,93,29.9,19.4,3.7,188.0,113.0,8.2,0,5,10,1,2026-05-21T09:32:05.302084+05:30
Mysore,Karnataka,12.2958,76.6396,29.0,58,0.0,930.0,5.9,47.2,31,5.5,4.6,3.9,163.0,68.0,1.9,4,5,3,1,2026-05-21T09:32:05.302091+05:30
Mangalore,Karnataka,12.9141,74.856,29.5,79,0.0,1007.7,8.85,31.3,54,10.0,7.9,4.0,250.0,67.0,2.9,7,5,4,1,2026-05-21T09:32:05.302098+05:30
Hubli-Dharwad,Karnataka,15.3647,75.124,28.5,64,0.0,942.1,7.95,47.5,25,4.0,3.2,3.0,156.0,69.0,0.9,7,5,7,1,2026-05-21T09:32:05.302105+05:30
Belgaum,Karnataka,15.8497,74.4977,27.6,65,0.0,927.0,6.55,41.8,61,20.3,11.8,2.8,139.0,78.0,2.3,7,5,7,1,2026-05-21T09:32:17.388374+05:30
Coimbatore,Tamil Nadu,11.0168,76.9558,30.5,62,0.0,962.4,9.1,55.4,26,4.5,3.7,2.8,169.0,65.0,2.3,3,5,7,1,2026-05-21T09:32:17.388402+05:30
Madurai,Tamil Nadu,9.9252,78.1198,32.9,56,0.0,992.8,9.0,46.8,69,13.0,10.9,7.5,181.0,90.0,5.0,0,5,7,1,2026-05-21T09:32:17.388412+05:30
Trichy,Tamil Nadu,10.7905,78.7047,32.2,63,0.0,998.9,9.0,44.3,36,9.1,7.2,4.2,143.0,67.0,3.8,3,5,7,1,2026-05-21T09:32:17.388420+05:30
Salem,Tamil Nadu,11.6643,78.146,31.5,56,0.0,977.7,9.1,51.5,53,15.1,13.3,8.0,194.0,94.0,14.8,0,5,7,1,2026-05-21T09:32:17.388427+05:30
Tirunelveli,Tamil Nadu,8.7139,77.7567,33.8,52,0.0,1003.2,8.9,43.6,24,3.3,2.7,1.8,148.0,59.0,1.0,0,5,4,1,2026-05-21T09:32:17.388435+05:30
Vellore,Tamil Nadu,12.9165,79.1325,34.0,49,0.0,982.8,8.65,45.0,44,10.3,9.3,4.9,225.0,104.0,4.4,0,5,7,1,2026-05-21T09:32:17.388442+05:30
Erode,Tamil Nadu,11.341,77.7172,33.0,47,0.0,989.2,9.05,57.2,43,9.3,7.9,5.3,202.0,77.0,3.2,0,5,7,1,2026-05-21T09:32:17.388449+05:30
Kochi,Kerala,9.9312,76.2673,29.1,82,0.0,1009.9,7.65,43.9,60,10.2,8.3,5.8,186.0,60.0,3.9,7,0,4,1,2026-05-21T09:32:17.388456+05:30
Thiruvananthapuram,Kerala,8.5241,76.9366,28.4,82,0.0,1009.7,7.2,54.4,24,10.1,5.8,1.4,107.0,52.0,0.5,7,0,4,1,2026-05-21T09:32:17.388463+05:30
Kozhikode,Kerala,11.2588,75.7804,29.1,82,0.0,1009.2,8.8,27.4,26,4.5,2.9,0.9,172.0,58.0,0.6,7,0,4,1,2026-05-21T09:32:17.388470+05:30
Thrissur,Kerala,10.5276,76.2144,29.4,79,0.0,1008.3,8.65,34.2,55,8.8,7.5,4.3,235.0,64.0,4.0,7,0,4,1,2026-05-21T09:32:17.388478+05:30
Kannur,Kerala,11.8745,75.3704,29.5,77,0.0,1008.3,8.85,24.8,34,5.4,4.2,2.4,177.0,64.0,1.9,7,0,4,1,2026-05-21T09:32:17.388485+05:30
Patna,Bihar,25.5941,85.1376,34.6,62,0.0,997.0,8.9,29.2,158,83.1,67.1,7.2,446.0,167.0,25.1,3,5,7,1,2026-05-21T09:32:17.388492+05:30
Gaya,Bihar,24.7914,85.0002,37.0,44,0.0,990.2,8.9,29.2,159,121.1,74.7,6.2,411.0,167.0,24.1,0,5,10,1,2026-05-21T09:32:17.388499+05:30
Muzaffarpur,Bihar,26.1209,85.3647,33.0,67,0.0,997.5,8.9,29.2,158,71.5,59.8,6.5,427.0,162.0,20.5,3,5,7,1,2026-05-21T09:32:17.388506+05:30
Bhagalpur,Bihar,25.2425,87.0117,32.2,67,0.0,998.4,8.85,33.5,148,65.9,51.5,9.5,414.0,134.0,25.1,3,5,7,1,2026-05-21T09:32:17.388513+05:30
Ranchi,Jharkhand,23.3441,85.3096,34.0,40,0.0,936.7,9.3,38.5,143,132.2,52.3,2.6,309.0,159.0,23.6,0,5,7,1,2026-05-21T09:32:17.388520+05:30
Jamshedpur,Jharkhand,22.8046,86.2029,35.6,51,0.0,987.7,9.1,33.1,152,105.7,62.4,11.7,788.0,160.0,42.4,0,5,10,1,2026-05-21T09:32:17.388527+05:30
Dhanbad,Jharkhand,23.7957,86.4304,35.7,52,0.0,977.0,9.1,32.0,167,109.2,77.5,37.7,1136.0,114.0,113.2,0,5,10,1,2026-05-21T09:32:17.388534+05:30
Bokaro,Jharkhand,23.6693,86.1511,36.0,51,0.0,980.7,9.1,31.0,167,128.5,86.4,35.8,1213.0,125.0,110.9,0,5,10,1,2026-05-21T09:32:17.388541+05:30
Bhubaneswar,Odisha,20.2961,85.8245,36.8,55,0.0,998.2,9.15,34.6,117,58.0,45.4,4.2,474.0,144.0,13.7,0,5,10,1,2026-05-21T09:32:17.388548+05:30
Cuttack,Odisha,20.4625,85.8828,35.2,64,0.0,1000.0,9.2,36.0,117,58.0,45.4,4.2,526.0,144.0,13.7,3,5,7,1,2026-05-21T09:32:17.388555+05:30
Rourkela,Odisha,22.2604,84.8536,36.3,41,0.0,982.0,9.0,28.1,141,152.7,63.8,11.1,500.0,159.0,25.7,0,5,10,1,2026-05-21T09:32:17.388562+05:30
Raipur,Chhattisgarh,21.2514,81.6296,38.5,27,0.0,971.5,9.0,38.9,153,50.4,40.5,23.9,561.0,113.0,56.5,0,5,10,1,2026-05-21T09:32:17.388569+05:30
Bhilai,Chhattisgarh,21.1938,81.3509,38.0,26,0.0,971.9,9.0,39.2,151,29.3,23.4,17.5,783.0,105.0,45.0,0,5,10,0,2026-05-21T09:32:17.388576+05:30
Guwahati,Assam,26.1158,91.7086,29.9,74,0.0,1000.5,8.8,25.9,114,52.9,37.5,2.4,360.0,127.0,4.8,7,5,4,1,2026-05-21T09:32:17.388583+05:30
Agartala,Tripura,23.8315,91.2868,31.7,74,0.0,1004.2,8.9,24.8,91,39.6,25.6,4.9,224.0,97.0,3.6,3,5,4,1,2026-05-21T09:32:17.388590+05:30
Shillong,Meghalaya,25.5788,91.8933,24.6,69,0.0,858.6,8.65,20.2,85,40.5,24.9,1.2,230.0,122.0,3.7,3,5,7,1,2026-05-21T09:32:17.388597+05:30
Imphal,Manipur,24.817,93.9368,29.1,62,0.0,923.0,9.3,30.6,126,65.7,34.3,0.2,253.0,129.0,3.9,7,5,7,1,2026-05-21T09:32:17.388604+05:30
Aizawl,Mizoram,23.7271,92.7176,27.5,61,0.0,893.1,8.5,29.5,97,36.1,21.6,0.3,171.0,115.0,2.6,7,5,7,1,2026-05-21T09:32:17.388611+05:30
Kohima,Nagaland,25.6701,94.1077,25.4,72,0.0,857.0,9.15,24.5,92,61.9,33.9,0.2,222.0,120.0,3.3,7,5,7,1,2026-05-21T09:32:17.388617+05:30
Gangtok,Sikkim,27.3314,88.6138,22.6,68,0.0,839.2,9.2,34.9,84,44.9,26.3,0.8,332.0,133.0,3.4,3,5,7,1,2026-05-21T09:32:17.388624+05:30
Siliguri,West Bengal,26.7271,88.3953,29.5,73,0.0,991.6,8.75,31.3,150,79.4,49.5,1.3,355.0,161.0,6.5,7,5,7,1,2026-05-21T09:32:29.022921+05:30
Durgapur,West Bengal,23.5204,87.3119,34.2,68,0.0,991.7,9.0,25.6,164,77.3,57.0,21.6,812.0,124.0,66.4,3,5,7,1,2026-05-21T09:32:29.022951+05:30
Asansol,West Bengal,23.6739,86.9524,34.6,65,0.0,990.3,9.05,24.5,163,78.2,57.0,21.9,542.0,120.0,64.7,3,5,7,1,2026-05-21T09:32:29.022962+05:30
Pondicherry,Puducherry,11.9139,79.8145,32.7,62,0.0,1006.2,7.55,43.2,67,21.0,18.1,10.4,314.0,96.0,9.8,3,5,4,1,2026-05-21T09:32:29.022971+05:30
Port Blair,Andaman and Nicobar Islands,11.6234,92.7265,28.7,81,0.1,1007.0,8.9,35.6,29,6.9,4.6,0.4,108.0,68.0,0.4,10,5,4,1,2026-05-21T09:32:29.022980+05:30
Haridwar,Uttarakhand,29.9457,78.1642,35.1,32,0.0,969.9,7.3,25.9,121,200.2,52.2,3.8,281.0,175.0,9.4,0,5,10,1,2026-05-21T09:32:29.022988+05:30
Rishikesh,Uttarakhand,30.0869,78.2676,35.2,29,0.0,962.8,7.5,28.8,89,212.3,42.4,1.5,246.0,159.0,6.7,0,5,10,0,2026-05-21T09:32:29.022997+05:30
Nainital,Uttarakhand,29.3919,79.4542,26.2,28,0.0,808.8,8.5,34.2,96,244.9,46.0,0.9,177.0,153.0,5.3,4,5,7,0,2026-05-21T09:32:29.023005+05:30
Mussoorie,Uttarakhand,30.4599,78.0664,25.8,25,0.0,806.1,7.9,50.0,96,109.7,31.2,3.1,172.0,176.0,7.0,4,5,7,0,2026-05-21T09:32:29.023013+05:30
Dharamshala,Himachal Pradesh,32.219,76.3234,29.5,22,0.0,870.0,8.45,50.0,59,53.1,13.2,1.1,195.0,121.0,2.0,4,5,7,0,2026-05-21T09:32:29.023021+05:30
Dalhousie,Himachal Pradesh,32.5387,75.971,25.5,23,0.0,807.9,8.65,37.1,74,59.3,18.9,4.5,217.0,141.0,2.6,4,5,7,0,2026-05-21T09:32:29.023030+05:30
Patiala,Punjab,30.3398,76.3869,36.0,27,0.0,973.8,7.65,34.6,172,446.1,105.9,13.4,358.0,139.0,12.6,0,5,10,0,2026-05-21T09:32:29.023038+05:30
Bhatinda,Punjab,30.211,74.9455,36.0,28,0.0,979.7,8.3,34.2,98,107.8,41.2,9.3,365.0,103.0,9.5,0,5,10,0,2026-05-21T09:32:29.023045+05:30
Rohtak,Haryana,28.8955,76.6066,36.9,27,0.0,977.7,7.8,45.0,518,1579.5,227.7,5.8,202.0,89.0,4.8,0,5,10,0,2026-05-21T09:32:29.023053+05:30
Panipat,Haryana,29.3909,76.9635,37.3,24,0.0,976.1,7.5,34.2,924,3062.2,381.8,5.7,348.0,85.0,7.9,0,5,10,0,2026-05-21T09:32:29.023061+05:30
Mathura,Uttar Pradesh,27.4924,77.6737,37.3,25,0.0,983.2,8.05,44.3,685,1374.6,171.8,5.2,205.0,91.0,4.9,0,5,10,0,2026-05-21T09:32:29.023069+05:30
Vrindavan,Uttar Pradesh,27.5823,77.7027,37.1,26,0.0,983.6,8.0,42.1,685,1374.6,171.8,5.2,196.0,91.0,4.9,0,5,10,0,2026-05-21T09:32:29.023076+05:30
Ayodhya,Uttar Pradesh,26.7922,82.1998,34.6,60,0.0,991.6,8.4,29.5,157,110.4,79.4,5.1,524.0,166.0,16.9,0,5,7,1,2026-05-21T09:32:29.023084+05:30
Ratlam,Madhya Pradesh,23.3315,75.0367,32.8,44,0.0,955.0,8.55,35.3,65,50.2,21.9,4.1,163.0,70.0,11.0,0,5,7,1,2026-05-21T09:32:29.023092+05:30
Sagar,Madhya Pradesh,23.8388,78.7378,37.5,15,0.0,949.7,8.75,47.2,48,46.8,17.3,1.9,145.0,96.0,4.6,0,5,10,0,2026-05-21T09:32:29.023100+05:30
Satna,Madhya Pradesh,24.6005,80.8322,38.2,19,0.0,969.3,8.8,41.8,77,22.2,11.8,2.6,160.0,106.0,5.5,0,5,10,0,2026-05-21T09:32:29.023107+05:30
Akola,Maharashtra,20.7002,77.0082,36.0,35,0.0,974.1,8.9,42.1,74,40.2,20.8,3.5,158.0,108.0,11.8,0,5,10,1,2026-05-21T09:32:29.023116+05:30
Amravati,Maharashtra,20.9374,77.7796,37.5,25,0.0,966.3,8.9,38.2,73,37.1,20.4,3.8,176.0,118.0,13.1,0,5,10,0,2026-05-21T09:32:29.023124+05:30
Latur,Maharashtra,18.4088,76.5604,34.0,40,0.0,940.3,9.05,37.8,92,32.4,21.2,4.4,185.0,101.0,9.8,0,5,7,1,2026-05-21T09:32:29.023132+05:30
Nanded,Maharashtra,19.1383,77.3091,37.2,31,0.0,967.8,9.0,42.8,86,28.3,17.3,3.9,184.0,103.0,5.6,0,5,10,1,2026-05-21T09:32:29.023139+05:30
Gulbarga,Karnataka,17.3297,76.8343,33.0,49,0.0,958.9,9.05,39.6,81,29.8,19.4,4.6,177.0,88.0,5.2,0,5,7,1,2026-05-21T09:32:29.023147+05:30
Bidar,Karnataka,17.9104,77.5199,33.5,45,0.0,935.9,9.1,37.4,92,32.0,23.2,4.8,212.0,121.0,10.0,0,5,7,1,2026-05-21T09:32:29.023154+05:30
Hospet,Karnataka,15.2689,76.3909,28.6,68,0.0,957.1,8.85,49.0,35,6.4,4.9,3.1,167.0,70.0,2.0,7,5,7,1,2026-05-21T09:32:29.023181+05:30
Tirupur,Tamil Nadu,11.1085,77.3411,32.1,57,0.0,975.5,9.1,53.6,48,8.6,7.4,5.2,182.0,76.0,3.3,0,5,7,1,2026-05-21T09:32:29.023191+05:30
Alappuzha,Kerala,9.4981,76.3388,28.9,83,0.1,1010.1,8.45,46.4,42,9.6,6.6,3.6,100.0,56.0,2.0,10,0,4,1,2026-05-21T09:32:29.023200+05:30
Munnar,Kerala,10.0889,77.0595,21.4,84,0.0,859.2,9.3,30.6,27,4.1,3.3,1.7,100.0,62.0,1.2,3,5,7,1,2026-05-21T09:32:29.023208+05:30
Silchar,Assam,24.8333,92.7789,31.6,68,0.0,1003.2,8.95,25.2,141,40.9,27.4,1.0,243.0,118.0,5.1,3,5,4,1,2026-05-21T09:32:29.023216+05:30
Dibrugarh,Assam,27.4728,94.912,30.4,69,0.0,994.4,8.95,18.7,89,31.8,19.9,0.5,275.0,134.0,1.7,3,5,7,1,2026-05-21T09:32:29.023223+05:30
