city,state,latitude,longitude,temp,humidity,rain,pressure,uv_index,wind_gusts,aqi,pm10,pm2_5,no2,co,o3,so2,mosquito_risk,arthritis_risk,migraine_risk,frizz_risk,updated_at
Delhi,Delhi,28.6139,77.209,32.2,41,0.0,984.7,7.65,28.1,156,311.1,75.4,21.7,686.0,133.0,25.9,0,5,7,1,2026-05-11T09:19:58.425022+05:30
Mumbai,Maharashtra,19.076,72.8777,33.8,53,0.0,1006.9,7.9,52.9,90,60.8,36.7,30.5,625.0,80.0,38.2,0,5,4,1,2026-05-11T09:19:58.425070+05:30
Bangalore,Karnataka,12.9716,77.5946,26.7,63,0.0,913.0,8.0,43.9,64,30.6,24.5,17.2,747.0,70.0,11.7,7,5,7,1,2026-05-11T09:19:58.425087+05:30
Hyderabad,Telangana,17.385,78.4867,29.2,59,0.0,954.8,9.25,35.6,58,13.7,8.6,5.6,394.0,59.0,4.3,4,5,7,1,2026-05-11T09:19:58.425098+05:30
Chennai,Tamil Nadu,13.0827,80.2707,31.5,61,0.0,1007.1,8.6,43.2,20,6.5,5.2,7.0,225.0,46.0,10.1,3,5,4,1,2026-05-11T09:19:58.425111+05:30
Kolkata,West Bengal,22.5726,88.3639,27.9,74,0.0,1009.6,8.8,42.8,156,39.0,34.0,11.2,435.0,107.0,16.6,7,0,4,1,2026-05-11T09:19:58.425121+05:30
Pune,Maharashtra,18.5204,73.8567,33.5,28,0.0,948.6,8.5,38.2,68,42.6,26.4,14.5,425.0,130.0,21.7,0,5,7,0,2026-05-11T09:19:58.425130+05:30
Ahmedabad,Gujarat,23.0225,72.5714,34.5,31,0.0,1001.3,8.15,33.5,62,43.8,18.3,6.6,287.0,73.0,6.4,0,5,4,0,2026-05-11T09:19:58.425141+05:30
Jaipur,Rajasthan,26.9124,75.7873,32.1,39,0.0,961.7,8.2,35.6,172,257.0,56.7,5.0,405.0,134.0,9.7,0,5,7,1,2026-05-11T09:19:58.425149+05:30
Lucknow,Uttar Pradesh,26.8467,80.9462,31.4,45,0.0,995.9,8.15,28.8,111,58.3,48.9,8.7,457.0,141.0,15.4,0,5,7,1,2026-05-11T09:19:58.425158+05:30
Kanpur,Uttar Pradesh,26.4499,80.3319,32.4,38,0.0,993.8,8.15,34.6,129,206.8,53.3,7.5,424.0,144.0,15.6,0,5,7,1,2026-05-11T09:19:58.425166+05:30
Chandigarh,Chandigarh,30.7333,76.7794,31.4,42,0.0,971.4,7.65,37.1,150,91.0,49.1,5.5,387.0,175.0,9.9,0,5,7,1,2026-05-11T09:19:58.425175+05:30
Srinagar,Jammu and Kashmir,34.0837,74.7973,17.9,74,0.0,845.7,8.85,37.4,100,47.8,28.6,6.4,499.0,116.0,5.5,3,5,7,0,2026-05-11T09:19:58.425184+05:30
Jammu,Jammu and Kashmir,32.7266,74.857,29.5,53,0.0,975.6,8.45,45.4,156,72.6,43.7,16.5,393.0,88.0,4.9,4,5,7,1,2026-05-11T09:19:58.425194+05:30
Amritsar,Punjab,31.634,74.8723,29.7,56,0.0,983.0,8.35,44.3,169,339.0,89.6,5.5,475.0,131.0,16.0,4,5,7,1,2026-05-11T09:19:58.425201+05:30
Ludhiana,Punjab,30.901,75.8573,31.5,46,0.0,980.7,7.9,36.4,179,241.2,68.9,7.6,521.0,132.0,9.8,0,5,7,1,2026-05-11T09:19:58.425209+05:30
Jalandhar,Punjab,31.326,75.5762,31.1,48,0.0,981.5,8.1,36.0,161,220.3,71.7,7.7,505.0,126.0,13.1,0,5,7,1,2026-05-11T09:19:58.425215+05:30
Dehradun,Uttarakhand,30.6284,78.0322,16.2,90,0.1,833.6,5.55,30.2,105,93.8,45.9,2.1,284.0,156.0,4.7,6,10,3,0,2026-05-11T09:19:58.425226+05:30
Shimla,Himachal Pradesh,31.1048,77.1734,17.4,69,0.0,788.6,6.35,47.2,154,144.4,59.6,2.5,325.0,178.0,11.1,3,5,7,0,2026-05-11T09:19:58.425233+05:30
Manali,Himachal Pradesh,32.2396,77.1887,18.6,48,0.0,821.4,9.5,36.7,60,17.2,7.1,16.3,183.0,132.0,0.9,0,5,7,0,2026-05-11T09:19:58.425240+05:30
Gurgaon,Haryana,28.4595,77.0266,31.8,43,0.0,983.0,7.75,32.4,753,1002.1,140.2,16.6,526.0,129.0,20.4,0,5,7,1,2026-05-11T09:19:58.425248+05:30
Noida,Uttar Pradesh,28.5355,77.391,31.5,46,0.0,986.3,7.65,26.3,753,1002.1,140.2,16.6,588.0,129.0,20.4,0,5,7,1,2026-05-11T09:19:58.425254+05:30
Ghaziabad,Uttar Pradesh,28.6692,77.4538,31.6,45,0.0,984.6,7.65,29.9,144,211.9,54.6,8.5,394.0,125.0,11.5,0,5,7,1,2026-05-11T09:19:58.425262+05:30
Faridabad,Haryana,28.4089,77.3178,31.2,44,0.0,985.5,7.7,25.9,753,1002.1,140.2,16.6,519.0,129.0,20.4,0,5,7,1,2026-05-11T09:19:58.425268+05:30
Meerut,Uttar Pradesh,28.9845,77.7064,30.2,55,0.0,983.8,7.55,30.6,144,211.9,54.6,8.5,428.0,125.0,11.5,0,5,7,1,2026-05-11T09:19:58.425275+05:30
Agra,Uttar Pradesh,27.1767,78.0081,32.0,43,0.0,989.5,8.0,26.6,409,564.4,83.6,7.1,426.0,135.0,15.6,0,5,7,1,2026-05-11T09:19:58.425282+05:30
Varanasi,Uttar Pradesh,25.3176,82.9739,31.5,48,0.0,999.4,8.65,28.4,115,67.8,53.0,8.5,519.0,154.0,23.5,0,5,7,1,2026-05-11T09:19:58.425290+05:30
Prayagraj,Uttar Pradesh,25.4358,81.8463,31.9,46,0.0,997.5,8.55,28.1,117,64.0,52.9,9.0,478.0,152.0,21.2,0,5,7,1,2026-05-11T09:19:58.425299+05:30
Gorakhpur,Uttar Pradesh,26.7606,83.3732,30.1,54,0.0,1000.3,8.5,32.8,105,58.2,46.4,5.9,549.0,157.0,13.7,0,5,4,1,2026-05-11T09:19:58.425306+05:30
Bareilly,Uttar Pradesh,28.367,79.4304,30.1,51,0.0,989.4,7.95,27.4,106,55.6,36.4,8.8,405.0,128.0,9.9,0,5,7,1,2026-05-11T09:19:58.425312+05:30
Aligarh,Uttar Pradesh,27.8974,78.088,31.7,45,0.0,987.6,7.8,29.2,195,403.3,75.9,7.0,390.0,129.0,14.2,0,5,7,1,2026-05-11T09:19:58.425320+05:30
Moradabad,Uttar Pradesh,28.8386,78.7733,29.6,56,0.0,986.4,7.75,28.1,123,45.3,35.6,8.1,442.0,131.0,7.7,4,5,7,1,2026-05-11T09:19:58.425326+05:30
Saharanpur,Uttar Pradesh,29.9637,77.546,29.5,54,0.0,978.6,7.35,30.2,151,75.7,51.8,9.7,422.0,145.0,9.4,4,5,7,1,2026-05-11T09:19:58.425333+05:30
Jhansi,Uttar Pradesh,25.4484,78.5685,32.8,38,0.0,979.5,8.45,31.0,110,47.8,33.4,3.3,352.0,140.0,13.2,0,5,7,1,2026-05-11T09:20:19.563637+05:30
Surat,Gujarat,21.1702,72.8311,35.5,28,0.0,1005.6,7.75,35.3,101,49.7,36.0,32.1,250.0,50.0,78.8,0,5,7,0,2026-05-11T09:20:19.563668+05:30
Vadodara,Gujarat,22.3072,73.1812,35.5,24,0.0,1003.5,8.1,33.5,71,34.9,19.7,8.7,309.0,80.0,8.6,0,5,7,0,2026-05-11T09:20:19.563679+05:30
Rajkot,Gujarat,22.3039,70.8022,32.0,57,0.0,994.0,7.7,42.8,53,42.8,13.5,5.0,161.0,69.0,4.5,0,5,7,1,2026-05-11T09:20:19.563687+05:30
Thane,Maharashtra,19.2183,72.9781,34.5,45,0.0,1006.4,7.9,52.9,90,60.8,36.7,30.5,482.0,80.0,38.2,0,5,4,1,2026-05-11T09:20:19.563695+05:30
Nagpur,Maharashtra,21.1458,79.0882,33.6,41,0.0,974.6,8.95,36.0,101,34.3,27.9,12.8,295.0,113.0,27.2,0,5,7,1,2026-05-11T09:20:19.563703+05:30
Nashik,Maharashtra,19.9975,73.7898,35.6,21,0.0,945.9,8.2,43.2,68,41.9,19.9,10.6,204.0,106.0,26.2,0,5,10,0,2026-05-11T09:20:19.563711+05:30
Aurangabad,Maharashtra,19.8762,75.3433,35.0,20,0.0,944.7,9.05,45.0,59,41.7,17.5,5.0,239.0,127.0,10.7,0,5,7,0,2026-05-11T09:20:19.563718+05:30
Solapur,Maharashtra,17.6599,75.9064,33.8,37,0.0,957.9,9.05,33.5,70,32.7,22.6,5.9,301.0,103.0,8.7,0,5,7,1,2026-05-11T09:20:19.563726+05:30
Kolhapur,Maharashtra,16.705,74.2433,31.0,53,0.0,948.5,7.75,50.8,97,44.2,28.5,9.8,255.0,99.0,7.1,0,5,7,1,2026-05-11T09:20:19.563733+05:30
Goa,Goa,15.2993,74.124,32.2,65,0.0,997.3,8.9,37.4,88,42.6,20.7,2.5,241.0,83.0,1.7,3,5,7,1,2026-05-11T09:20:19.563741+05:30
Jodhpur,Rajasthan,26.2389,73.0243,34.3,20,0.0,983.5,8.4,38.9,87,309.2,53.1,5.9,258.0,98.0,4.1,0,5,7,0,2026-05-11T09:20:19.563748+05:30
Udaipur,Rajasthan,24.5854,73.7125,34.8,23,0.0,947.4,8.85,38.9,48,53.2,14.6,3.3,176.0,104.0,6.6,0,5,7,0,2026-05-11T09:20:19.563755+05:30
Kota,Rajasthan,25.2138,75.8648,34.5,34,0.0,979.7,8.4,31.3,100,82.9,37.5,3.7,359.0,123.0,12.0,0,5,7,1,2026-05-11T09:20:19.563762+05:30
Bikaner,Rajasthan,28.0229,73.3119,35.8,18,0.0,981.1,8.3,47.9,97,83.1,31.3,3.6,378.0,108.0,5.9,0,5,10,0,2026-05-11T09:20:19.563769+05:30
Ajmer,Rajasthan,26.4499,74.6399,32.5,34,0.0,956.0,8.35,40.3,100,92.7,36.3,3.5,361.0,115.0,9.8,0,5,7,0,2026-05-11T09:20:19.563776+05:30
Gwalior,Madhya Pradesh,26.2183,78.1828,32.2,41,0.0,984.9,8.2,26.6,116,47.8,34.9,3.6,354.0,132.0,12.7,0,5,7,1,2026-05-11T09:20:19.563783+05:30
Indore,Madhya Pradesh,22.7196,75.8577,35.8,22,0.0,949.0,8.7,45.0,79,88.0,33.3,4.5,420.0,129.0,7.0,0,5,10,0,2026-05-11T09:20:19.563790+05:30
Bhopal,Madhya Pradesh,23.2599,77.4126,35.0,29,0.0,954.6,8.7,35.6,80,47.8,28.2,3.3,421.0,139.0,9.1,0,5,7,0,2026-05-11T09:20:19.563797+05:30
Jabalpur,Madhya Pradesh,23.1815,79.9864,33.6,33,0.0,962.4,8.85,37.1,85,47.8,32.8,4.2,318.0,139.0,11.9,0,5,7,0,2026-05-11T09:20:19.563803+05:30
Ujjain,Madhya Pradesh,23.1765,75.7885,36.2,23,0.0,954.6,8.65,41.4,83,85.7,37.7,4.7,324.0,116.0,15.3,0,5,10,0,2026-05-11T09:20:19.563811+05:30
Visakhapatnam,Andhra Pradesh,17.6868,83.2185,31.2,61,0.0,1005.2,9.1,39.2,75,27.1,23.7,33.3,906.0,26.0,28.2,3,5,4,1,2026-05-11T09:20:19.563819+05:30
Vijayawada,Andhra Pradesh,16.5062,80.648,32.2,59,0.0,1003.5,9.0,34.6,48,10.9,8.4,4.3,161.0,57.0,6.9,0,5,4,1,2026-05-11T09:20:19.563825+05:30
Guntur,Andhra Pradesh,16.3067,80.4365,33.0,55,0.0,1004.5,9.1,32.4,48,10.4,8.0,4.1,163.0,55.0,7.0,0,5,4,1,2026-05-11T09:20:19.563832+05:30
Nellore,Andhra Pradesh,14.4426,79.9865,32.2,61,0.0,1006.2,9.15,38.9,20,6.1,4.6,3.8,145.0,50.0,4.7,3,5,4,1,2026-05-11T09:20:19.563839+05:30
Kurnool,Andhra Pradesh,15.8281,78.0373,32.4,47,0.0,978.1,8.15,39.2,49,7.4,5.4,2.6,160.0,53.0,3.1,0,5,7,1,2026-05-11T09:20:19.563847+05:30
Kakinada,Andhra Pradesh,16.9891,82.2475,30.5,67,0.0,1008.6,9.05,40.0,26,11.0,7.7,5.9,181.0,57.0,4.6,3,0,4,1,2026-05-11T09:20:19.563854+05:30
Tirupati,Andhra Pradesh,13.6288,79.4192,31.4,54,0.0,991.6,9.2,45.7,39,8.4,6.7,4.0,181.0,53.0,4.5,0,5,7,1,2026-05-11T09:20:19.563860+05:30
Warangal,Telangana,17.9689,79.5941,30.5,60,0.0,980.2,9.15,43.6,61,10.4,8.2,4.7,172.0,49.0,8.8,0,5,7,1,2026-05-11T09:20:19.563867+05:30
Nizamabad,Telangana,18.6725,78.0941,32.1,50,0.0,965.9,9.15,32.0,73,16.3,12.4,4.5,209.0,80.0,4.7,0,5,7,1,2026-05-11T09:20:19.563874+05:30
Mysore,Karnataka,12.2958,76.6396,27.5,68,0.0,929.4,9.3,37.8,65,28.2,24.9,10.2,266.0,107.0,8.1,7,5,7,1,2026-05-11T09:20:19.563881+05:30
Mangalore,Karnataka,12.9141,74.856,29.0,81,0.0,1006.9,8.45,36.0,65,23.8,17.4,5.3,286.0,95.0,4.6,7,5,4,1,2026-05-11T09:20:19.563888+05:30
Hubli-Dharwad,Karnataka,15.3647,75.124,33.0,35,0.0,941.2,9.1,46.4,76,41.2,27.8,4.9,277.0,119.0,3.5,0,5,7,0,2026-05-11T09:20:19.563894+05:30
Belgaum,Karnataka,15.8497,74.4977,30.9,38,0.0,926.5,8.8,51.1,83,38.0,21.3,5.0,213.0,110.0,6.6,0,5,7,0,2026-05-11T09:20:22.787979+05:30
Coimbatore,Tamil Nadu,11.0168,76.9558,27.6,75,0.0,962.3,9.25,30.2,70,28.4,22.2,6.2,441.0,125.0,10.7,7,5,7,1,2026-05-11T09:20:22.788012+05:30
Madurai,Tamil Nadu,9.9252,78.1198,30.3,67,0.0,993.0,9.1,34.9,66,22.1,20.9,12.1,334.0,101.0,10.4,3,5,7,1,2026-05-11T09:20:22.788022+05:30
Trichy,Tamil Nadu,10.7905,78.7047,30.2,68,0.0,1000.0,9.15,29.5,74,14.7,14.0,13.7,260.0,46.0,25.8,3,5,4,1,2026-05-11T09:20:22.788030+05:30
Salem,Tamil Nadu,11.6643,78.146,29.2,70,0.0,977.8,9.2,32.4,67,21.2,20.1,13.5,252.0,87.0,29.1,7,5,7,1,2026-05-11T09:20:22.788038+05:30
Tirunelveli,Tamil Nadu,8.7139,77.7567,31.8,58,0.0,1002.8,9.05,31.3,50,11.5,11.4,5.8,327.0,100.0,1.7,0,5,4,1,2026-05-11T09:20:22.788045+05:30
Vellore,Tamil Nadu,12.9165,79.1325,29.8,64,0.0,984.9,9.1,32.4,54,12.4,11.6,6.2,186.0,47.0,11.9,7,5,7,1,2026-05-11T09:20:22.788053+05:30
Erode,Tamil Nadu,11.341,77.7172,29.7,69,0.0,989.5,9.15,24.1,68,23.5,21.8,9.4,397.0,94.0,11.4,7,5,7,1,2026-05-11T09:20:22.788060+05:30
Kochi,Kerala,9.9312,76.2673,28.5,82,0.0,1008.9,8.95,31.7,66,19.0,18.2,9.3,359.0,101.0,6.2,7,0,4,1,2026-05-11T09:20:22.788067+05:30
Thiruvananthapuram,Kerala,8.5241,76.9366,28.5,79,0.0,1008.0,8.85,36.7,40,10.8,10.0,5.6,338.0,86.0,4.0,7,0,4,1,2026-05-11T09:20:22.788074+05:30
Kozhikode,Kerala,11.2588,75.7804,28.6,82,0.0,1008.2,8.95,33.1,47,12.8,11.1,3.4,372.0,109.0,4.5,7,0,4,1,2026-05-11T09:20:22.788081+05:30
Thrissur,Kerala,10.5276,76.2144,29.0,77,0.0,1007.3,8.95,27.7,68,17.0,16.3,5.9,382.0,104.0,3.5,7,5,4,1,2026-05-11T09:20:22.788089+05:30
Kannur,Kerala,11.8745,75.3704,29.2,72,0.0,1007.5,8.85,30.2,53,17.7,13.4,4.4,268.0,101.0,2.6,7,5,4,1,2026-05-11T09:20:22.788096+05:30
Patna,Bihar,25.5941,85.1376,29.5,58,0.0,1003.5,8.7,27.4,136,75.4,63.6,8.6,554.0,171.0,31.9,4,5,4,1,2026-05-11T09:20:22.788104+05:30
Gaya,Bihar,24.7914,85.0002,31.0,56,0.0,996.4,8.8,28.4,126,71.5,54.2,6.4,465.0,165.0,35.8,0,5,7,1,2026-05-11T09:20:22.788112+05:30
Muzaffarpur,Bihar,26.1209,85.3647,28.9,64,0.0,1003.8,8.7,27.0,135,71.7,61.0,8.4,503.0,165.0,23.0,7,5,4,1,2026-05-11T09:20:22.788119+05:30
Bhagalpur,Bihar,25.2425,87.0117,29.0,61,0.0,1004.8,8.6,27.0,141,70.8,59.8,9.1,407.0,174.0,26.9,7,5,4,1,2026-05-11T09:20:22.788126+05:30
Ranchi,Jharkhand,23.3441,85.3096,27.9,60,0.0,940.5,9.25,32.4,95,43.1,27.8,3.5,200.0,142.0,31.8,4,5,7,1,2026-05-11T09:20:22.788132+05:30
Jamshedpur,Jharkhand,22.8046,86.2029,28.9,64,0.0,994.1,9.0,29.2,119,34.1,28.0,12.5,214.0,124.0,38.9,7,5,7,1,2026-05-11T09:20:22.788139+05:30
Dhanbad,Jharkhand,23.7957,86.4304,28.5,61,0.0,983.0,8.95,28.8,162,75.2,63.8,41.4,851.0,111.0,100.0,7,5,7,1,2026-05-11T09:20:22.788146+05:30
Bokaro,Jharkhand,23.6693,86.1511,28.9,63,0.0,986.7,9.0,31.3,159,71.7,55.5,33.1,1247.0,133.0,86.4,7,5,7,1,2026-05-11T09:20:22.788152+05:30
Bhubaneswar,Odisha,20.2961,85.8245,30.8,65,0.0,1005.1,9.1,35.6,81,20.6,15.3,5.7,205.0,80.0,9.2,3,5,4,1,2026-05-11T09:20:22.788159+05:30
Cuttack,Odisha,20.4625,85.8828,30.5,67,0.0,1006.9,9.15,37.1,81,20.6,15.3,5.7,197.0,80.0,9.2,3,5,4,1,2026-05-11T09:20:22.788166+05:30
Rourkela,Odisha,22.2604,84.8536,30.2,61,0.0,987.7,8.95,33.8,117,39.1,31.1,9.3,215.0,116.0,85.9,3,5,7,1,2026-05-11T09:20:22.788172+05:30
Raipur,Chhattisgarh,21.2514,81.6296,32.3,45,0.0,976.7,9.0,29.9,103,50.3,35.9,21.8,375.0,121.0,8.8,0,5,7,1,2026-05-11T09:20:22.788179+05:30
Bhilai,Chhattisgarh,21.1938,81.3509,31.2,53,0.0,977.1,9.0,30.2,114,55.9,40.5,33.2,1098.0,112.0,8.5,0,5,7,1,2026-05-11T09:20:22.788185+05:30
Guwahati,Assam,26.1158,91.7086,26.4,72,0.0,1005.8,8.2,30.2,94,38.0,25.8,1.8,356.0,133.0,1.9,7,5,4,1,2026-05-11T09:20:22.788192+05:30
Agartala,Tripura,23.8315,91.2868,26.8,75,0.0,1010.1,8.8,21.6,126,42.8,36.7,7.8,330.0,131.0,2.7,7,0,4,1,2026-05-11T09:20:22.788200+05:30
Shillong,Meghalaya,25.5788,91.8933,19.9,65,0.1,860.3,8.4,23.4,85,38.9,24.2,1.4,269.0,145.0,3.2,6,5,7,0,2026-05-11T09:20:22.788207+05:30
Imphal,Manipur,24.817,93.9368,21.0,79,0.0,926.8,8.65,33.8,96,40.5,28.5,1.6,312.0,131.0,5.2,3,5,7,1,2026-05-11T09:20:22.788214+05:30
Aizawl,Mizoram,23.7271,92.7176,21.6,67,0.0,896.1,9.0,41.4,93,30.3,23.6,1.0,322.0,139.0,1.1,3,5,7,0,2026-05-11T09:20:22.788221+05:30
Kohima,Nagaland,25.6701,94.1077,17.4,90,0.1,858.4,6.15,18.7,63,28.4,18.3,1.7,253.0,127.0,1.7,6,10,7,0,2026-05-11T09:20:22.788228+05:30
Gangtok,Sikkim,27.3314,88.6138,21.1,40,0.0,841.4,8.95,46.1,51,18.2,8.1,1.1,199.0,129.0,0.9,0,5,7,0,2026-05-11T09:20:22.788235+05:30
Siliguri,West Bengal,26.7271,88.3953,26.9,70,0.0,996.9,8.55,24.5,94,43.3,28.3,4.4,508.0,135.0,3.6,7,5,7,1,2026-05-11T09:20:26.012882+05:30
Durgapur,West Bengal,23.5204,87.3119,27.5,73,0.0,998.5,8.9,31.7,175,80.8,73.1,28.3,634.0,118.0,71.3,7,5,7,1,2026-05-11T09:20:26.012914+05:30
Asansol,West Bengal,23.6739,86.9524,28.6,64,0.0,997.1,8.95,26.6,165,72.4,64.3,30.8,312.0,110.0,82.7,7,5,7,1,2026-05-11T09:20:26.012925+05:30
Pondicherry,Puducherry,11.9139,79.8145,29.5,75,0.0,1008.3,9.1,32.4,20,6.7,5.3,4.4,233.0,46.0,1.8,7,0,4,1,2026-05-11T09:20:26.012935+05:30
Port Blair,Andaman and Nicobar Islands,11.6234,92.7265,28.8,80,0.0,1008.1,8.85,32.4,31,3.8,2.5,0.5,142.0,68.0,0.1,7,0,4,1,2026-05-11T09:20:26.012942+05:30
Haridwar,Uttarakhand,29.9457,78.1642,30.9,47,0.0,976.8,7.45,35.3,138,71.0,43.3,4.5,330.0,155.0,6.3,0,5,7,1,2026-05-11T09:20:26.012951+05:30
Rishikesh,Uttarakhand,30.0869,78.2676,29.8,51,0.0,969.5,6.15,25.2,117,71.9,38.4,2.0,340.0,170.0,5.6,4,5,7,1,2026-05-11T09:20:26.012959+05:30
Nainital,Uttarakhand,29.3919,79.4542,18.4,67,0.1,809.6,4.4,32.8,101,68.0,34.1,1.7,257.0,162.0,4.4,6,5,3,0,2026-05-11T09:20:26.012967+05:30
Mussoorie,Uttarakhand,30.4599,78.0664,15.6,81,0.1,806.2,4.85,41.0,131,81.0,42.0,2.9,304.0,168.0,7.0,6,10,3,0,2026-05-11T09:20:26.012975+05:30
Dharamshala,Himachal Pradesh,32.219,76.3234,22.6,56,0.0,872.7,8.35,37.8,102,108.3,35.6,1.9,337.0,143.0,3.2,0,5,7,0,2026-05-11T09:20:26.012984+05:30
Dalhousie,Himachal Pradesh,32.5387,75.971,18.4,68,0.0,808.1,8.6,32.8,153,154.1,52.5,12.1,333.0,125.0,4.6,3,5,7,0,2026-05-11T09:20:26.012992+05:30
Patiala,Punjab,30.3398,76.3869,31.0,47,0.0,980.3,7.55,52.6,513,629.6,96.4,6.4,441.0,139.0,11.9,0,5,7,1,2026-05-11T09:20:26.012999+05:30
Bhatinda,Punjab,30.211,74.9455,33.8,37,0.0,985.1,8.2,59.4,461,763.7,151.8,6.8,421.0,133.0,22.6,0,5,7,1,2026-05-11T09:20:26.013006+05:30
Rohtak,Haryana,28.8955,76.6066,32.8,40,0.0,983.3,7.65,31.3,382,579.3,105.5,16.5,446.0,139.0,27.6,0,5,7,1,2026-05-11T09:20:26.013013+05:30
Panipat,Haryana,29.3909,76.9635,31.2,47,0.0,982.6,7.5,29.5,671,1013.3,132.7,12.8,434.0,137.0,24.3,0,5,7,1,2026-05-11T09:20:26.013021+05:30
Mathura,Uttar Pradesh,27.4924,77.6737,32.0,44,0.0,988.5,7.95,27.7,420,542.0,83.6,7.6,423.0,131.0,12.2,0,5,7,1,2026-05-11T09:20:26.013028+05:30
Vrindavan,Uttar Pradesh,27.5823,77.7027,32.2,43,0.0,989.0,7.9,28.8,420,542.0,83.6,7.6,421.0,131.0,12.2,0,5,7,1,2026-05-11T09:20:26.013035+05:30
Ayodhya,Uttar Pradesh,26.7922,82.1998,30.4,50,0.0,998.1,8.3,32.8,119,62.2,52.9,7.1,451.0,146.0,15.0,0,5,7,1,2026-05-11T09:20:26.013042+05:30
Ratlam,Madhya Pradesh,23.3315,75.0367,35.7,19,0.0,955.3,8.55,34.2,77,88.5,37.5,3.2,293.0,137.0,21.4,0,5,10,0,2026-05-11T09:20:26.013050+05:30
Sagar,Madhya Pradesh,23.8388,78.7378,33.5,30,0.0,951.6,8.75,40.0,82,49.2,28.0,3.5,315.0,147.0,13.2,0,5,7,0,2026-05-11T09:20:26.013058+05:30
Satna,Madhya Pradesh,24.6005,80.8322,32.2,37,0.0,972.4,8.75,31.3,85,53.9,35.3,5.3,287.0,156.0,18.7,0,5,7,0,2026-05-11T09:20:26.013066+05:30
Akola,Maharashtra,20.7002,77.0082,35.7,30,0.0,975.1,8.9,36.4,87,37.5,28.9,11.7,312.0,110.0,7.7,0,5,10,0,2026-05-11T09:20:26.013073+05:30
Amravati,Maharashtra,20.9374,77.7796,34.4,34,0.0,968.0,8.9,42.1,89,35.2,27.6,10.2,285.0,107.0,6.9,0,5,7,1,2026-05-11T09:20:26.013081+05:30
Latur,Maharashtra,18.4088,76.5604,33.7,34,0.0,941.0,9.05,38.2,75,28.8,20.1,4.5,226.0,99.0,7.5,0,5,7,0,2026-05-11T09:20:26.013089+05:30
Nanded,Maharashtra,19.1383,77.3091,34.0,38,0.0,969.4,9.0,32.0,79,27.1,20.7,5.6,255.0,105.0,6.2,0,5,7,1,2026-05-11T09:20:26.013095+05:30
Gulbarga,Karnataka,17.3297,76.8343,33.5,36,0.0,959.7,9.1,31.0,63,12.3,9.1,4.9,210.0,77.0,9.4,0,5,7,1,2026-05-11T09:20:26.013102+05:30
Bidar,Karnataka,17.9104,77.5199,31.1,45,0.0,937.1,9.15,32.4,66,13.9,9.6,4.4,192.0,81.0,3.4,0,5,7,1,2026-05-11T09:20:26.013108+05:30
Hospet,Karnataka,15.2689,76.3909,30.9,49,0.0,956.6,9.15,32.4,72,36.1,26.1,9.6,208.0,96.0,7.5,0,5,7,1,2026-05-11T09:20:26.013115+05:30
Tirupur,Tamil Nadu,11.1085,77.3411,29.8,66,0.0,975.7,9.25,31.3,79,29.9,26.2,9.8,430.0,114.0,13.0,7,5,7,1,2026-05-11T09:20:26.013121+05:30
Alappuzha,Kerala,9.4981,76.3388,29.0,77,0.0,1009.0,8.8,34.2,56,14.7,13.9,7.4,321.0,101.0,7.1,7,0,4,1,2026-05-11T09:20:26.013127+05:30
Munnar,Kerala,10.0889,77.0595,21.7,70,0.0,858.0,9.45,19.4,48,13.2,12.0,3.2,195.0,104.0,2.3,3,5,7,0,2026-05-11T09:20:26.013135+05:30
Silchar,Assam,24.8333,92.7789,25.9,78,0.0,1009.3,8.8,24.8,142,31.4,25.3,2.4,382.0,146.0,4.8,7,0,4,1,2026-05-11T09:20:26.013142+05:30
Dibrugarh,Assam,27.4728,94.912,22.3,92,0.1,1001.2,4.35,22.0,70,26.4,17.1,3.8,306.0,107.0,1.7,6,5,0,1,2026-05-11T09:20:26.013148+05:30
