city,state,latitude,longitude,temp,humidity,rain,pressure,uv_index,wind_gusts,aqi,pm10,pm2_5,no2,co,o3,so2,mosquito_risk,arthritis_risk,migraine_risk,frizz_risk,updated_at
Delhi,Delhi,28.6139,77.209,25.1,72,0.0,982.2,7.45,46.1,519,584.9,95.2,15.1,533.0,127.0,21.3,7,5,7,1,2026-05-04T09:01:21.213653+05:30
Mumbai,Maharashtra,19.076,72.8777,30.7,65,0.0,1007.6,7.85,41.4,66,38.0,17.2,10.5,251.0,70.0,17.9,3,5,4,1,2026-05-04T09:01:21.213700+05:30
Bangalore,Karnataka,12.9716,77.5946,27.1,63,0.0,913.2,9.45,30.6,77,51.7,26.0,14.4,576.0,73.0,10.0,7,5,7,1,2026-05-04T09:01:21.213715+05:30
Hyderabad,Telangana,17.385,78.4867,31.5,34,0.0,953.6,9.25,30.2,80,37.7,23.1,14.1,377.0,88.0,10.3,0,5,7,0,2026-05-04T09:01:21.213724+05:30
Chennai,Tamil Nadu,13.0827,80.2707,31.7,71,0.0,1006.2,9.25,47.9,78,24.9,20.1,10.3,312.0,96.0,11.3,3,5,4,1,2026-05-04T09:01:21.213732+05:30
Kolkata,West Bengal,22.5726,88.3639,29.6,72,0.0,1008.6,7.0,25.6,109,35.6,23.7,4.4,378.0,104.0,7.8,7,0,4,1,2026-05-04T09:01:21.213740+05:30
Pune,Maharashtra,18.5204,73.8567,27.6,57,0.0,947.9,8.45,49.0,59,46.1,18.0,7.6,265.0,75.0,8.7,4,5,7,1,2026-05-04T09:01:21.213747+05:30
Ahmedabad,Gujarat,23.0225,72.5714,30.4,63,0.0,999.7,8.05,42.8,53,27.9,12.0,5.0,218.0,71.0,7.3,3,5,7,1,2026-05-04T09:01:21.213756+05:30
Jaipur,Rajasthan,26.9124,75.7873,27.7,53,0.0,957.9,8.05,58.0,156,462.9,72.4,4.2,331.0,150.0,10.1,4,5,7,1,2026-05-04T09:01:21.213763+05:30
Lucknow,Uttar Pradesh,26.8467,80.9462,24.2,84,0.0,996.7,8.05,48.2,86,43.9,34.7,6.0,432.0,134.0,10.6,3,5,7,1,2026-05-04T09:01:21.213770+05:30
Kanpur,Uttar Pradesh,26.4499,80.3319,23.0,90,0.0,994.1,8.05,51.1,201,204.0,54.6,6.8,357.0,131.0,10.3,3,5,7,1,2026-05-04T09:01:21.213776+05:30
Chandigarh,Chandigarh,30.7333,76.7794,27.1,50,0.0,968.6,7.5,50.4,96,75.0,25.7,11.6,368.0,114.0,7.4,4,5,7,0,2026-05-04T09:01:21.213783+05:30
Srinagar,Jammu and Kashmir,34.0837,74.7973,12.8,83,0.0,842.3,6.8,33.5,70,21.2,17.5,6.5,324.0,109.0,2.3,3,10,7,0,2026-05-04T09:01:21.213791+05:30
Jammu,Jammu and Kashmir,32.7266,74.857,27.6,40,0.0,972.6,7.65,47.9,70,26.5,18.3,11.3,302.0,94.0,3.1,4,5,7,0,2026-05-04T09:01:21.213798+05:30
Amritsar,Punjab,31.634,74.8723,26.0,59,0.0,980.3,8.1,55.4,126,112.9,29.8,4.5,329.0,131.0,8.6,4,5,7,1,2026-05-04T09:01:21.213804+05:30
Ludhiana,Punjab,30.901,75.8573,26.0,55,0.0,979.1,7.45,55.8,196,100.4,36.1,9.0,315.0,120.0,14.5,4,5,7,1,2026-05-04T09:01:21.213811+05:30
Jalandhar,Punjab,31.326,75.5762,25.2,60,0.0,979.7,7.45,58.3,133,106.9,32.6,8.1,311.0,124.0,19.9,4,5,7,1,2026-05-04T09:01:21.213817+05:30
Dehradun,Uttarakhand,30.6284,78.0322,17.9,56,0.0,831.6,7.15,35.3,57,20.1,7.4,7.2,210.0,97.0,0.5,0,5,7,0,2026-05-04T09:01:21.213824+05:30
Shimla,Himachal Pradesh,31.1048,77.1734,16.4,45,0.0,784.9,7.8,35.6,57,49.4,12.4,5.9,203.0,118.0,1.2,0,5,7,0,2026-05-04T09:01:21.213830+05:30
Manali,Himachal Pradesh,32.2396,77.1887,14.8,45,0.0,817.0,5.9,34.2,91,27.7,5.2,7.1,209.0,132.0,0.9,0,5,3,0,2026-05-04T09:01:21.213836+05:30
Gurgaon,Haryana,28.4595,77.0266,26.5,64,0.0,980.1,7.6,54.4,2037,1732.3,213.7,12.8,459.0,135.0,17.5,7,5,7,1,2026-05-04T09:01:21.213843+05:30
Noida,Uttar Pradesh,28.5355,77.391,26.2,65,0.0,983.9,7.5,47.5,2037,1732.3,213.7,12.8,404.0,135.0,17.5,7,5,7,1,2026-05-04T09:01:21.213849+05:30
Ghaziabad,Uttar Pradesh,28.6692,77.4538,25.9,67,0.0,982.3,7.45,51.8,289,339.9,59.4,5.8,327.0,128.0,9.9,7,5,7,1,2026-05-04T09:01:21.213855+05:30
Faridabad,Haryana,28.4089,77.3178,25.9,67,0.0,982.9,7.55,50.4,2037,1732.3,213.7,12.8,386.0,135.0,17.5,7,5,7,1,2026-05-04T09:01:21.213863+05:30
Meerut,Uttar Pradesh,28.9845,77.7064,25.1,69,0.0,981.6,7.4,58.7,289,339.9,59.4,5.8,320.0,128.0,9.9,7,5,7,1,2026-05-04T09:01:21.213869+05:30
Agra,Uttar Pradesh,27.1767,78.0081,27.2,63,0.0,987.4,7.9,56.2,904,2004.2,201.2,5.5,327.0,139.0,11.5,7,5,7,1,2026-05-04T09:01:21.213875+05:30
Varanasi,Uttar Pradesh,25.3176,82.9739,29.8,63,0.0,998.5,8.6,44.3,134,53.4,45.6,7.4,461.0,137.0,19.9,7,5,7,1,2026-05-04T09:01:21.213881+05:30
Prayagraj,Uttar Pradesh,25.4358,81.8463,30.4,60,0.0,996.0,8.5,45.0,117,53.6,45.1,6.8,415.0,142.0,15.0,0,5,7,1,2026-05-04T09:01:21.213888+05:30
Gorakhpur,Uttar Pradesh,26.7606,83.3732,28.8,61,0.0,1000.4,8.45,43.6,83,36.7,29.7,5.0,329.0,132.0,7.9,7,5,4,1,2026-05-04T09:01:21.213894+05:30
Bareilly,Uttar Pradesh,28.367,79.4304,23.7,77,0.1,989.5,7.8,52.2,111,195.6,45.9,10.2,343.0,95.0,8.4,6,5,7,1,2026-05-04T09:01:21.213899+05:30
Aligarh,Uttar Pradesh,27.8974,78.088,27.1,62,0.0,985.3,7.7,53.3,765,419.1,66.1,4.1,331.0,139.0,10.5,7,5,7,1,2026-05-04T09:01:21.213905+05:30
Moradabad,Uttar Pradesh,28.8386,78.7733,26.6,59,0.0,985.2,6.5,59.0,106,115.0,39.6,9.6,335.0,102.0,9.2,4,5,7,1,2026-05-04T09:01:21.213911+05:30
Saharanpur,Uttar Pradesh,29.9637,77.546,25.0,61,0.0,976.0,7.05,56.9,140,60.5,35.9,6.7,306.0,125.0,11.0,7,5,7,1,2026-05-04T09:01:21.213916+05:30
Jhansi,Uttar Pradesh,25.4484,78.5685,29.2,55,0.0,977.2,8.35,51.8,96,40.7,31.3,3.4,330.0,138.0,15.4,4,5,7,1,2026-05-04T09:01:24.561285+05:30
Surat,Gujarat,21.1702,72.8311,31.5,61,0.0,1005.0,7.7,49.0,59,31.1,16.3,14.8,249.0,66.0,30.1,3,5,4,1,2026-05-04T09:01:24.561317+05:30
Vadodara,Gujarat,22.3072,73.1812,31.2,60,0.0,1002.4,8.05,43.9,52,28.3,13.5,7.8,192.0,70.0,11.6,0,5,4,1,2026-05-04T09:01:24.561327+05:30
Rajkot,Gujarat,22.3039,70.8022,30.1,65,0.0,991.4,7.7,43.2,44,39.0,12.1,2.5,164.0,77.0,4.1,3,5,7,1,2026-05-04T09:01:24.561336+05:30
Thane,Maharashtra,19.2183,72.9781,31.4,62,0.0,1006.9,7.9,38.9,66,38.0,17.2,10.5,262.0,70.0,17.9,3,5,4,1,2026-05-04T09:01:24.561345+05:30
Nagpur,Maharashtra,21.1458,79.0882,35.0,22,0.0,972.7,8.95,47.5,67,15.4,14.3,8.5,268.0,121.0,20.3,0,5,7,0,2026-05-04T09:01:24.561353+05:30
Nashik,Maharashtra,19.9975,73.7898,27.4,62,0.0,944.9,8.2,44.3,60,31.3,15.8,8.0,197.0,64.0,7.4,7,5,7,1,2026-05-04T09:01:24.561361+05:30
Aurangabad,Maharashtra,19.8762,75.3433,27.9,50,0.0,943.7,9.05,40.3,53,39.3,16.1,6.7,221.0,76.0,11.4,4,5,7,1,2026-05-04T09:01:24.561368+05:30
Solapur,Maharashtra,17.6599,75.9064,30.5,34,0.0,957.6,9.1,32.0,55,39.5,13.8,4.1,222.0,79.0,4.6,0,5,7,0,2026-05-04T09:01:24.561376+05:30
Kolhapur,Maharashtra,16.705,74.2433,27.6,60,0.0,948.5,8.95,46.1,60,40.6,18.9,6.1,202.0,68.0,2.0,4,5,7,1,2026-05-04T09:01:24.561384+05:30
Goa,Goa,15.2993,74.124,31.1,62,0.0,998.7,8.9,37.1,67,50.9,18.4,2.3,166.0,70.0,1.6,3,5,7,1,2026-05-04T09:01:24.561391+05:30
Jodhpur,Rajasthan,26.2389,73.0243,31.4,53,0.0,979.0,8.25,42.8,105,61.9,17.3,4.1,203.0,88.0,5.6,0,5,7,1,2026-05-04T09:01:24.561398+05:30
Udaipur,Rajasthan,24.5854,73.7125,29.0,56,0.0,944.5,8.75,42.5,48,34.5,13.9,4.2,187.0,78.0,10.7,4,5,7,1,2026-05-04T09:01:24.561406+05:30
Kota,Rajasthan,25.2138,75.8648,31.6,51,0.0,976.8,8.25,70.2,65,21.2,13.5,4.3,242.0,84.0,10.7,0,5,7,1,2026-05-04T09:01:24.561413+05:30
Bikaner,Rajasthan,28.0229,73.3119,31.7,29,0.0,978.2,8.15,63.0,83,94.3,30.4,2.5,213.0,105.0,5.3,0,5,7,0,2026-05-04T09:01:24.561420+05:30
Ajmer,Rajasthan,26.4499,74.6399,30.0,32,0.0,952.6,8.2,46.8,68,109.7,36.8,3.7,203.0,112.0,6.1,4,5,7,0,2026-05-04T09:01:24.561428+05:30
Gwalior,Madhya Pradesh,26.2183,78.1828,26.7,67,0.0,982.5,8.1,54.7,89,92.7,37.5,2.7,316.0,136.0,8.7,7,5,7,1,2026-05-04T09:01:24.561435+05:30
Indore,Madhya Pradesh,22.7196,75.8577,29.3,55,0.0,947.1,8.6,34.9,48,26.1,13.2,4.2,254.0,75.0,9.8,4,5,7,1,2026-05-04T09:01:24.561442+05:30
Bhopal,Madhya Pradesh,23.2599,77.4126,31.5,42,0.0,952.8,8.65,49.0,65,16.4,11.7,2.7,231.0,101.0,7.9,0,5,7,1,2026-05-04T09:01:24.561449+05:30
Jabalpur,Madhya Pradesh,23.1815,79.9864,32.8,30,0.0,961.0,7.95,39.2,64,41.9,19.6,6.6,265.0,127.0,9.9,0,5,7,0,2026-05-04T09:01:24.561456+05:30
Ujjain,Madhya Pradesh,23.1765,75.7885,29.8,58,0.0,952.6,8.55,35.6,46,24.6,12.6,3.1,198.0,71.0,9.4,4,5,7,1,2026-05-04T09:01:24.561464+05:30
Visakhapatnam,Andhra Pradesh,17.6868,83.2185,31.2,68,0.0,1004.2,9.1,33.1,74,29.9,22.4,15.7,361.0,81.0,9.1,3,5,4,1,2026-05-04T09:01:24.561471+05:30
Vijayawada,Andhra Pradesh,16.5062,80.648,33.1,64,0.0,1002.2,9.15,56.9,92,29.9,24.6,3.1,225.0,139.0,6.9,3,5,4,1,2026-05-04T09:01:24.561478+05:30
Guntur,Andhra Pradesh,16.3067,80.4365,33.6,62,0.0,1003.1,9.2,40.3,91,32.8,27.1,2.9,252.0,145.0,6.0,3,5,4,1,2026-05-04T09:01:24.561486+05:30
Nellore,Andhra Pradesh,14.4426,79.9865,35.5,40,0.0,1004.5,9.2,42.5,83,31.4,26.0,6.6,290.0,120.0,15.0,0,5,7,1,2026-05-04T09:01:24.561494+05:30
Kurnool,Andhra Pradesh,15.8281,78.0373,33.8,34,0.0,976.9,9.15,43.2,66,32.2,14.5,5.5,199.0,79.0,6.3,0,5,7,0,2026-05-04T09:01:24.561502+05:30
Kakinada,Andhra Pradesh,16.9891,82.2475,31.5,71,0.0,1007.5,9.1,31.7,66,27.8,19.3,1.4,220.0,100.0,1.2,3,5,4,1,2026-05-04T09:01:24.561509+05:30
Tirupati,Andhra Pradesh,13.6288,79.4192,35.5,33,0.0,990.3,9.3,60.8,81,35.0,28.6,8.9,277.0,104.0,14.3,0,5,10,1,2026-05-04T09:01:24.561517+05:30
Warangal,Telangana,17.9689,79.5941,31.2,55,0.0,978.9,9.15,41.8,97,40.6,32.7,5.5,301.0,139.0,12.4,0,5,7,1,2026-05-04T09:01:24.561540+05:30
Nizamabad,Telangana,18.6725,78.0941,33.2,24,0.0,965.1,9.15,31.3,75,29.8,15.7,5.5,229.0,98.0,8.2,0,5,7,0,2026-05-04T09:01:24.561548+05:30
Mysore,Karnataka,12.2958,76.6396,27.0,65,0.0,930.1,9.4,35.3,65,43.4,19.3,5.3,202.0,74.0,1.6,7,5,7,1,2026-05-04T09:01:24.561556+05:30
Mangalore,Karnataka,12.9141,74.856,30.8,66,0.0,1007.7,9.05,45.7,69,65.7,21.3,3.4,187.0,69.0,2.1,3,5,4,1,2026-05-04T09:01:24.561563+05:30
Hubli-Dharwad,Karnataka,15.3647,75.124,27.5,60,0.0,942.0,9.15,49.0,56,41.6,14.6,3.3,192.0,72.0,1.4,4,5,7,1,2026-05-04T09:01:24.561571+05:30
Belgaum,Karnataka,15.8497,74.4977,26.4,57,0.0,926.8,9.15,42.5,57,45.9,16.3,3.9,180.0,74.0,1.9,4,5,7,1,2026-05-04T09:01:27.931328+05:30
Coimbatore,Tamil Nadu,11.0168,76.9558,30.2,62,0.0,962.5,9.35,46.1,64,50.2,20.4,3.7,253.0,85.0,2.8,3,5,7,1,2026-05-04T09:01:27.931362+05:30
Madurai,Tamil Nadu,9.9252,78.1198,33.8,46,0.0,993.2,6.85,49.7,89,42.5,31.3,13.0,274.0,135.0,8.4,0,5,7,1,2026-05-04T09:01:27.931374+05:30
Trichy,Tamil Nadu,10.7905,78.7047,33.3,50,0.0,999.6,9.0,41.8,75,41.1,20.6,6.2,184.0,73.0,5.5,0,5,7,1,2026-05-04T09:01:27.931384+05:30
Salem,Tamil Nadu,11.6643,78.146,30.8,60,0.0,978.0,9.3,61.2,77,46.0,25.7,11.1,270.0,86.0,15.2,0,5,7,1,2026-05-04T09:01:27.931394+05:30
Tirunelveli,Tamil Nadu,8.7139,77.7567,33.0,49,0.0,1003.5,8.65,34.2,71,46.2,23.3,4.3,217.0,81.0,1.8,0,5,4,1,2026-05-04T09:01:27.931404+05:30
Vellore,Tamil Nadu,12.9165,79.1325,34.7,38,0.0,984.1,8.95,40.7,83,42.6,27.8,8.4,247.0,108.0,8.8,0,5,7,1,2026-05-04T09:01:27.931412+05:30
Erode,Tamil Nadu,11.341,77.7172,32.8,51,0.0,989.4,9.3,56.9,66,46.1,22.2,6.9,253.0,81.0,2.8,0,5,7,1,2026-05-04T09:01:27.931420+05:30
Kochi,Kerala,9.9312,76.2673,29.6,75,0.0,1009.5,9.0,28.8,101,70.3,33.5,12.7,255.0,67.0,4.4,7,0,4,1,2026-05-04T09:01:27.931428+05:30
Thiruvananthapuram,Kerala,8.5241,76.9366,29.2,77,0.0,1008.9,8.9,37.8,61,52.0,27.5,6.4,234.0,74.0,4.4,7,0,4,1,2026-05-04T09:01:27.931435+05:30
Kozhikode,Kerala,11.2588,75.7804,29.5,80,0.0,1008.5,9.0,41.4,69,69.8,20.7,1.4,289.0,70.0,1.5,7,0,4,1,2026-05-04T09:01:27.931443+05:30
Thrissur,Kerala,10.5276,76.2144,30.0,74,0.0,1007.7,9.05,31.7,89,75.0,31.4,7.2,261.0,67.0,3.2,7,5,4,1,2026-05-04T09:01:27.931451+05:30
Kannur,Kerala,11.8745,75.3704,31.0,66,0.1,1008.0,9.0,46.4,69,66.6,22.1,3.9,176.0,63.0,1.8,6,0,4,1,2026-05-04T09:01:27.931459+05:30
Patna,Bihar,25.5941,85.1376,28.5,67,0.0,1003.2,8.7,47.9,128,54.4,43.2,6.9,327.0,135.0,12.9,7,5,4,1,2026-05-04T09:01:27.931466+05:30
Gaya,Bihar,24.7914,85.0002,30.0,63,0.0,995.7,8.8,45.7,145,49.2,41.2,4.3,400.0,128.0,9.9,7,5,7,1,2026-05-04T09:01:27.931473+05:30
Muzaffarpur,Bihar,26.1209,85.3647,27.5,69,0.0,1004.0,8.7,47.5,108,51.7,41.3,6.4,313.0,123.0,9.0,7,5,4,1,2026-05-04T09:01:27.931481+05:30
Bhagalpur,Bihar,25.2425,87.0117,27.6,68,0.0,1005.2,8.7,36.7,119,29.3,23.5,8.2,254.0,112.0,7.0,7,5,4,1,2026-05-04T09:01:27.931488+05:30
Ranchi,Jharkhand,23.3441,85.3096,27.9,55,0.0,940.2,8.25,37.8,95,55.9,46.1,18.8,471.0,133.0,45.9,4,5,7,1,2026-05-04T09:01:27.931495+05:30
Jamshedpur,Jharkhand,22.8046,86.2029,31.1,60,0.0,992.9,9.05,40.3,110,43.2,32.5,8.6,347.0,121.0,21.6,0,5,7,1,2026-05-04T09:01:27.931503+05:30
Dhanbad,Jharkhand,23.7957,86.4304,27.4,79,0.0,982.7,9.0,41.0,151,49.5,43.7,22.7,374.0,93.0,46.6,7,5,7,1,2026-05-04T09:01:27.931510+05:30
Bokaro,Jharkhand,23.6693,86.1511,29.2,69,0.0,986.3,9.0,43.9,153,55.1,49.4,29.4,397.0,80.0,60.7,7,5,7,1,2026-05-04T09:01:27.931534+05:30
Bhubaneswar,Odisha,20.2961,85.8245,31.1,64,0.0,1003.6,9.1,38.9,71,25.4,19.4,2.7,192.0,95.0,3.6,3,5,4,1,2026-05-04T09:01:27.931543+05:30
Cuttack,Odisha,20.4625,85.8828,31.1,64,0.0,1005.5,9.15,37.1,71,25.4,19.4,2.7,200.0,95.0,3.6,3,5,4,1,2026-05-04T09:01:27.931552+05:30
Rourkela,Odisha,22.2604,84.8536,30.4,64,0.0,986.6,8.7,36.0,106,53.7,40.6,10.2,314.0,151.0,60.5,3,5,7,1,2026-05-04T09:01:27.931560+05:30
Raipur,Chhattisgarh,21.2514,81.6296,32.7,43,0.0,975.0,9.0,37.1,99,63.3,47.7,25.7,674.0,175.0,9.2,0,5,7,1,2026-05-04T09:01:27.931567+05:30
Bhilai,Chhattisgarh,21.1938,81.3509,31.6,51,0.0,975.4,9.0,36.7,108,59.3,45.6,22.7,813.0,146.0,8.1,0,5,7,1,2026-05-04T09:01:27.931575+05:30
Guwahati,Assam,26.1158,91.7086,26.0,75,0.0,1006.5,8.65,29.2,74,38.3,27.3,2.7,340.0,113.0,2.8,7,5,4,1,2026-05-04T09:01:27.931583+05:30
Agartala,Tripura,23.8315,91.2868,24.9,87,0.2,1010.8,8.85,31.3,51,15.3,11.6,7.8,187.0,78.0,1.5,6,0,4,1,2026-05-04T09:01:27.931591+05:30
Shillong,Meghalaya,25.5788,91.8933,20.5,64,0.0,861.2,9.05,27.0,62,42.5,19.6,1.8,236.0,113.0,1.7,3,5,7,0,2026-05-04T09:01:27.931599+05:30
Imphal,Manipur,24.817,93.9368,23.2,73,0.0,927.9,9.15,23.4,91,32.9,19.7,2.1,287.0,92.0,1.6,3,5,7,1,2026-05-04T09:01:27.931607+05:30
Aizawl,Mizoram,23.7271,92.7176,23.1,65,0.0,896.8,9.05,26.6,32,8.9,4.7,1.4,187.0,83.0,0.4,3,5,7,1,2026-05-04T09:01:27.931615+05:30
Kohima,Nagaland,25.6701,94.1077,21.5,68,0.1,859.8,9.05,27.7,64,41.4,17.2,1.0,205.0,110.0,1.0,6,5,7,0,2026-05-04T09:01:27.931622+05:30
Gangtok,Sikkim,27.3314,88.6138,16.4,88,0.1,840.9,8.85,31.7,59,17.0,12.5,1.8,277.0,123.0,0.8,6,10,7,0,2026-05-04T09:01:27.931630+05:30
Siliguri,West Bengal,26.7271,88.3953,26.9,65,0.0,998.1,8.55,32.4,80,33.2,24.5,2.9,372.0,134.0,2.4,7,5,7,1,2026-05-04T09:01:31.281144+05:30
Durgapur,West Bengal,23.5204,87.3119,24.1,95,0.2,998.6,8.95,43.9,132,38.5,33.1,17.8,350.0,104.0,30.1,6,5,7,1,2026-05-04T09:01:31.281179+05:30
Asansol,West Bengal,23.6739,86.9524,26.5,84,0.0,996.7,9.0,42.8,141,39.2,34.2,19.0,345.0,97.0,32.3,7,5,7,1,2026-05-04T09:01:31.281191+05:30
Pondicherry,Puducherry,11.9139,79.8145,31.1,76,0.0,1007.7,8.25,45.7,75,20.3,16.7,7.9,248.0,87.0,7.7,3,5,4,1,2026-05-04T09:01:31.281202+05:30
Port Blair,Andaman and Nicobar Islands,11.6234,92.7265,33.5,51,0.0,1009.0,9.15,34.6,26,7.3,5.3,0.5,166.0,60.0,0.9,0,0,4,1,2026-05-04T09:01:31.281212+05:30
Haridwar,Uttarakhand,29.9457,78.1642,26.7,56,0.0,975.0,7.1,43.9,123,58.0,30.0,4.9,287.0,120.0,7.4,4,5,7,1,2026-05-04T09:01:31.281220+05:30
Rishikesh,Uttarakhand,30.0869,78.2676,25.9,55,0.0,967.6,7.2,41.0,109,51.7,24.6,4.3,269.0,120.0,4.2,4,5,7,1,2026-05-04T09:01:31.281228+05:30
Nainital,Uttarakhand,29.3919,79.4542,12.5,78,0.0,805.7,5.15,37.4,106,86.8,32.6,7.6,291.0,110.0,3.3,3,5,3,0,2026-05-04T09:01:31.281236+05:30
Mussoorie,Uttarakhand,30.4599,78.0664,15.8,55,0.0,803.8,7.2,45.4,90,42.8,19.1,9.8,237.0,104.0,5.3,0,5,7,0,2026-05-04T09:01:31.281243+05:30
Dharamshala,Himachal Pradesh,32.219,76.3234,19.7,48,0.0,868.8,4.45,58.0,69,38.4,9.7,4.2,317.0,117.0,0.4,0,5,3,0,2026-05-04T09:01:31.281251+05:30
Dalhousie,Himachal Pradesh,32.5387,75.971,15.2,67,0.0,803.9,5.2,41.0,62,65.4,23.3,10.3,413.0,109.0,0.6,3,5,3,0,2026-05-04T09:01:31.281260+05:30
Patiala,Punjab,30.3398,76.3869,27.0,53,0.0,978.0,7.35,56.2,700,125.3,37.6,5.4,313.0,141.0,13.1,4,5,7,1,2026-05-04T09:01:31.281267+05:30
Bhatinda,Punjab,30.211,74.9455,27.4,53,0.0,982.7,7.95,56.5,630,555.1,99.0,5.5,368.0,140.0,15.7,4,5,7,1,2026-05-04T09:01:31.281274+05:30
Rohtak,Haryana,28.8955,76.6066,27.1,58,0.0,980.9,7.5,51.1,896,1546.0,187.7,13.5,343.0,130.0,22.0,4,5,7,1,2026-05-04T09:01:31.281282+05:30
Panipat,Haryana,29.3909,76.9635,26.2,62,0.0,980.3,7.35,54.0,1363,95.9,328.8,7.5,318.0,128.0,15.0,7,5,7,1,2026-05-04T09:01:31.281289+05:30
Mathura,Uttar Pradesh,27.4924,77.6737,27.9,60,0.0,986.2,7.8,54.7,941,1419.3,152.7,6.0,329.0,140.0,11.0,4,5,7,1,2026-05-04T09:01:31.281296+05:30
Vrindavan,Uttar Pradesh,27.5823,77.7027,28.0,59,0.0,986.6,7.8,54.0,941,1419.3,152.7,6.0,334.0,140.0,11.0,4,5,7,1,2026-05-04T09:01:31.281301+05:30
Ayodhya,Uttar Pradesh,26.7922,82.1998,28.5,61,0.0,997.5,8.2,43.6,86,32.8,26.7,5.2,418.0,131.0,8.6,7,5,7,1,2026-05-04T09:01:31.281307+05:30
Ratlam,Madhya Pradesh,23.3315,75.0367,28.6,63,0.0,953.6,8.5,38.2,41,24.9,12.4,2.9,167.0,71.0,9.0,7,5,7,1,2026-05-04T09:01:31.281313+05:30
Sagar,Madhya Pradesh,23.8388,78.7378,32.5,31,0.0,949.3,8.6,37.4,64,48.1,19.6,4.3,228.0,120.0,10.9,0,5,7,0,2026-05-04T09:01:31.281319+05:30
Satna,Madhya Pradesh,24.6005,80.8322,31.3,47,0.0,970.2,8.25,50.0,83,58.9,40.4,8.4,312.0,138.0,21.8,0,5,7,1,2026-05-04T09:01:31.281325+05:30
Akola,Maharashtra,20.7002,77.0082,31.5,37,0.0,974.5,8.85,33.5,52,29.3,12.6,4.8,199.0,82.0,14.4,0,5,7,0,2026-05-04T09:01:31.281331+05:30
Amravati,Maharashtra,20.9374,77.7796,32.0,28,0.0,966.9,8.9,34.2,54,26.7,11.6,4.8,199.0,87.0,12.0,0,5,7,0,2026-05-04T09:01:31.281338+05:30
Latur,Maharashtra,18.4088,76.5604,31.1,24,0.0,940.3,9.1,40.7,60,41.3,13.4,4.2,206.0,79.0,4.8,0,5,7,0,2026-05-04T09:01:31.281344+05:30
Nanded,Maharashtra,19.1383,77.3091,32.9,26,0.0,968.7,9.0,29.9,61,36.4,15.3,5.5,224.0,92.0,8.1,0,5,7,0,2026-05-04T09:01:31.281349+05:30
Gulbarga,Karnataka,17.3297,76.8343,32.2,27,0.0,959.3,9.1,40.0,57,34.0,13.4,5.3,215.0,78.0,5.1,0,5,7,0,2026-05-04T09:01:31.281355+05:30
Bidar,Karnataka,17.9104,77.5199,32.8,18,0.0,936.4,9.15,30.6,78,39.2,16.4,6.6,231.0,92.0,8.6,0,5,7,0,2026-05-04T09:01:31.281361+05:30
Hospet,Karnataka,15.2689,76.3909,28.0,62,0.0,957.1,9.2,36.7,59,34.7,14.1,4.1,193.0,68.0,2.4,7,5,7,1,2026-05-04T09:01:31.281366+05:30
Tirupur,Tamil Nadu,11.1085,77.3411,31.3,59,0.0,975.7,9.4,49.7,68,50.4,23.9,6.9,240.0,90.0,3.5,0,5,7,1,2026-05-04T09:01:31.281372+05:30
Alappuzha,Kerala,9.4981,76.3388,30.6,69,0.0,1009.4,8.55,32.0,82,68.2,32.9,11.7,443.0,72.0,5.8,3,0,4,1,2026-05-04T09:01:31.281378+05:30
Munnar,Kerala,10.0889,77.0595,22.4,67,0.0,858.9,8.8,27.0,75,51.3,20.4,2.7,206.0,76.0,1.1,3,5,7,0,2026-05-04T09:01:31.281383+05:30
Silchar,Assam,24.8333,92.7789,27.4,74,0.0,1009.8,8.85,30.2,91,38.4,24.6,4.1,274.0,90.0,4.7,7,0,4,1,2026-05-04T09:01:31.281389+05:30
Dibrugarh,Assam,27.4728,94.912,25.0,79,0.0,1001.0,8.8,21.6,84,27.4,22.2,1.6,291.0,111.0,1.1,7,5,4,1,2026-05-04T09:01:31.281394+05:30
