city,state,latitude,longitude,temp,humidity,rain,pressure,uv_index,wind_gusts,aqi,pm10,pm2_5,mosquito_risk,arthritis_risk,migraine_risk,frizz_risk,updated_at
Delhi,Delhi,28.6139,77.209,34.6,26,0.0,985.5,6.0,25.9,165,245.9,44.0,0,5,3,0,2026-03-08T15:58:55.005055+05:30
Mumbai,Maharashtra,19.076,72.8777,28.0,69,0.0,1006.8,7.5,25.6,173,54.8,52.4,7,5,4,1,2026-03-08T15:58:55.005093+05:30
Bangalore,Karnataka,12.9716,77.5946,33.0,20,0.0,911.2,9.25,28.4,131,38.6,30.4,0,5,7,0,2026-03-08T15:58:55.005108+05:30
Hyderabad,Telangana,17.385,78.4867,36.3,22,0.0,952.8,8.55,24.5,133,33.5,23.6,0,5,10,0,2026-03-08T15:58:55.005118+05:30
Chennai,Tamil Nadu,13.0827,80.2707,31.7,53,0.0,1007.2,8.95,32.4,78,38.8,25.7,0,5,4,1,2026-03-08T15:58:55.005127+05:30
Kolkata,West Bengal,22.5726,88.3639,28.9,66,0.0,1008.5,7.25,15.8,151,66.8,56.3,7,0,4,1,2026-03-08T15:58:55.005135+05:30
Pune,Maharashtra,18.5204,73.8567,38.7,17,0.0,948.1,8.05,30.6,108,13.4,11.9,0,5,10,0,2026-03-08T15:58:55.005147+05:30
Ahmedabad,Gujarat,23.0225,72.5714,38.6,16,0.0,1003.5,7.35,21.2,101,13.2,11.4,0,5,7,0,2026-03-08T15:58:55.005154+05:30
Jaipur,Rajasthan,26.9124,75.7873,37.5,9,0.0,962.7,6.8,25.9,84,120.6,18.6,0,5,10,1,2026-03-08T15:58:55.005162+05:30
Lucknow,Uttar Pradesh,26.8467,80.9462,32.4,42,0.0,996.0,6.5,19.4,181,112.7,65.7,0,5,7,1,2026-03-08T15:58:55.005169+05:30
Kanpur,Uttar Pradesh,26.4499,80.3319,32.7,39,0.0,994.3,6.5,16.9,175,153.2,61.5,0,5,7,1,2026-03-08T15:58:55.005176+05:30
Chandigarh,Chandigarh,30.7333,76.7794,32.0,37,0.0,971.5,5.9,28.1,153,52.5,36.3,0,5,3,0,2026-03-08T15:58:55.005184+05:30
Srinagar,Jammu and Kashmir,34.0837,74.7973,21.8,31,0.0,847.8,6.8,17.6,136,39.6,18.2,0,5,7,0,2026-03-08T15:58:55.005191+05:30
Jammu,Jammu and Kashmir,32.7266,74.857,32.2,39,0.0,976.0,6.4,25.2,126,43.8,24.6,0,5,7,1,2026-03-08T15:58:55.005199+05:30
Amritsar,Punjab,31.634,74.8723,32.4,42,0.0,984.1,6.4,19.1,165,61.2,37.8,0,5,7,1,2026-03-08T15:58:55.005205+05:30
Ludhiana,Punjab,30.901,75.8573,32.7,39,0.0,981.7,6.15,25.2,172,68.7,49.6,0,5,7,1,2026-03-08T15:58:55.005212+05:30
Jalandhar,Punjab,31.326,75.5762,32.5,39,0.0,983.0,6.3,23.4,171,85.7,44.4,0,5,7,1,2026-03-08T15:58:55.005220+05:30
Dehradun,Uttarakhand,30.6284,78.0322,22.0,65,0.0,834.3,6.3,37.1,99,27.8,15.3,3,5,7,0,2026-03-08T15:58:55.005227+05:30
Shimla,Himachal Pradesh,31.1048,77.1734,21.0,50,0.0,790.1,6.35,46.4,117,27.5,12.9,0,5,7,0,2026-03-08T15:58:55.005233+05:30
Manali,Himachal Pradesh,32.2396,77.1887,23.8,25,0.0,825.5,8.05,30.6,79,22.5,8.8,0,5,7,0,2026-03-08T15:58:55.005239+05:30
Gurgaon,Haryana,28.4595,77.0266,34.8,25,0.0,984.0,6.1,20.5,182,933.2,92.7,0,5,7,0,2026-03-08T15:58:55.005246+05:30
Noida,Uttar Pradesh,28.5355,77.391,35.2,23,0.0,986.9,6.0,25.9,182,933.2,92.7,0,5,6,0,2026-03-08T15:58:55.005252+05:30
Ghaziabad,Uttar Pradesh,28.6692,77.4538,34.2,29,0.0,985.0,6.0,25.6,167,158.3,43.1,0,5,3,0,2026-03-08T15:58:55.005258+05:30
Faridabad,Haryana,28.4089,77.3178,34.7,24,0.0,986.2,6.05,22.0,182,933.2,92.7,0,5,7,0,2026-03-08T15:58:55.005264+05:30
Meerut,Uttar Pradesh,28.9845,77.7064,33.7,36,0.0,983.7,5.85,28.4,167,158.3,43.1,0,5,3,1,2026-03-08T15:58:55.005270+05:30
Agra,Uttar Pradesh,27.1767,78.0081,36.7,22,0.0,989.9,6.4,20.9,157,389.3,45.3,0,5,10,0,2026-03-08T15:58:55.005276+05:30
Varanasi,Uttar Pradesh,25.3176,82.9739,31.7,50,0.0,1000.0,7.2,11.2,173,82.9,69.2,0,5,4,1,2026-03-08T15:58:55.005285+05:30
Prayagraj,Uttar Pradesh,25.4358,81.8463,31.3,49,0.0,998.6,7.05,13.3,179,90.3,73.3,0,5,7,1,2026-03-08T15:58:55.005291+05:30
Gorakhpur,Uttar Pradesh,26.7606,83.3732,31.1,47,0.0,999.7,6.9,13.7,174,76.8,68.0,0,5,7,1,2026-03-08T15:58:55.005297+05:30
Bareilly,Uttar Pradesh,28.367,79.4304,32.4,41,0.0,989.0,6.2,21.6,172,98.7,54.0,0,5,7,1,2026-03-08T15:58:55.005306+05:30
Aligarh,Uttar Pradesh,27.8974,78.088,35.3,26,0.0,987.8,6.1,24.5,171,333.4,67.3,0,5,10,0,2026-03-08T15:58:55.005313+05:30
Moradabad,Uttar Pradesh,28.8386,78.7733,32.8,37,0.0,985.7,6.05,25.2,182,100.4,64.3,0,5,7,1,2026-03-08T15:58:55.005319+05:30
Saharanpur,Uttar Pradesh,29.9637,77.546,32.6,35,0.0,977.8,5.65,34.2,172,95.7,54.5,0,5,3,0,2026-03-08T15:58:55.005344+05:30
Jhansi,Uttar Pradesh,25.4484,78.5685,36.1,16,0.0,980.5,7.0,26.3,105,44.4,19.3,0,5,10,0,2026-03-08T15:58:58.345394+05:30
Surat,Gujarat,21.1702,72.8311,36.8,29,0.0,1006.6,7.25,27.0,150,35.4,34.2,0,5,7,0,2026-03-08T15:58:58.345428+05:30
Vadodara,Gujarat,22.3072,73.1812,40.2,17,0.0,1004.9,7.35,19.4,101,9.2,8.7,0,5,7,0,2026-03-08T15:58:58.345440+05:30
Rajkot,Gujarat,22.3039,70.8022,36.2,27,0.0,995.9,7.15,22.3,72,23.2,14.1,0,5,10,0,2026-03-08T15:58:58.345450+05:30
Thane,Maharashtra,19.2183,72.9781,33.0,45,0.0,1006.7,7.5,33.1,173,54.8,52.4,0,5,4,1,2026-03-08T15:58:58.345459+05:30
Nagpur,Maharashtra,21.1458,79.0882,36.8,16,0.0,973.5,7.9,25.6,100,32.1,20.9,0,5,10,0,2026-03-08T15:58:58.345468+05:30
Nashik,Maharashtra,19.9975,73.7898,37.7,15,0.0,945.9,7.7,27.7,106,12.6,11.7,0,5,10,0,2026-03-08T15:58:58.345476+05:30
Aurangabad,Maharashtra,19.8762,75.3433,37.5,14,0.0,944.5,8.2,31.7,99,17.4,11.8,0,5,10,0,2026-03-08T15:58:58.345484+05:30
Solapur,Maharashtra,17.6599,75.9064,36.8,19,0.0,956.6,8.45,19.8,115,19.9,15.3,0,5,10,0,2026-03-08T15:58:58.345494+05:30
Kolhapur,Maharashtra,16.705,74.2433,36.3,17,0.0,947.1,8.6,37.1,139,24.9,20.1,0,5,10,0,2026-03-08T15:58:58.345503+05:30
Goa,Goa,15.2993,74.124,30.2,68,0.0,996.2,8.65,35.6,131,32.9,30.0,3,5,7,1,2026-03-08T15:58:58.345512+05:30
Jodhpur,Rajasthan,26.2389,73.0243,37.4,17,0.0,985.7,7.05,18.7,63,21.7,6.4,0,5,10,0,2026-03-08T15:58:58.345520+05:30
Udaipur,Rajasthan,24.5854,73.7125,37.0,16,0.0,949.5,7.7,19.8,66,5.3,4.6,0,5,10,0,2026-03-08T15:58:58.345529+05:30
Kota,Rajasthan,25.2138,75.8648,37.6,17,0.0,981.2,7.1,11.2,88,8.6,7.5,0,5,10,0,2026-03-08T15:58:58.345537+05:30
Bikaner,Rajasthan,28.0229,73.3119,36.8,16,0.0,984.6,6.75,19.4,58,103.1,17.5,0,5,10,0,2026-03-08T15:58:58.345543+05:30
Ajmer,Rajasthan,26.4499,74.6399,36.2,13,0.0,957.9,7.05,23.0,68,25.4,7.4,0,5,10,0,2026-03-08T15:58:58.345550+05:30
Gwalior,Madhya Pradesh,26.2183,78.1828,34.8,23,0.0,985.9,6.7,23.4,97,31.7,12.6,0,5,7,0,2026-03-08T15:58:58.345556+05:30
Indore,Madhya Pradesh,22.7196,75.8577,35.6,16,0.0,950.4,7.65,23.0,86,12.6,10.7,0,5,10,0,2026-03-08T15:58:58.345563+05:30
Bhopal,Madhya Pradesh,23.2599,77.4126,35.2,20,0.0,956.1,7.5,22.7,78,27.2,12.6,0,5,10,0,2026-03-08T15:58:58.345569+05:30
Jabalpur,Madhya Pradesh,23.1815,79.9864,33.5,28,0.0,963.5,7.6,24.8,121,64.3,36.1,0,5,7,0,2026-03-08T15:58:58.345575+05:30
Ujjain,Madhya Pradesh,23.1765,75.7885,35.1,19,0.0,956.2,7.55,19.1,99,13.9,12.7,0,5,10,0,2026-03-08T15:58:58.345582+05:30
Visakhapatnam,Andhra Pradesh,17.6868,83.2185,29.7,61,0.0,1004.7,8.2,38.9,95,37.0,28.6,7,5,4,1,2026-03-08T15:58:58.345589+05:30
Vijayawada,Andhra Pradesh,16.5062,80.648,33.9,45,0.0,1002.1,8.6,28.4,98,41.0,31.2,0,5,4,1,2026-03-08T15:58:58.345595+05:30
Guntur,Andhra Pradesh,16.3067,80.4365,33.2,46,0.0,1003.7,8.6,27.4,96,41.1,30.7,0,5,4,1,2026-03-08T15:58:58.345602+05:30
Nellore,Andhra Pradesh,14.4426,79.9865,32.5,50,0.0,1005.5,8.8,33.1,88,43.5,32.0,0,5,4,1,2026-03-08T15:58:58.345609+05:30
Kurnool,Andhra Pradesh,15.8281,78.0373,37.9,17,0.0,975.7,8.6,25.6,121,41.8,30.4,0,5,10,0,2026-03-08T15:58:58.345617+05:30
Kakinada,Andhra Pradesh,16.9891,82.2475,31.3,54,0.0,1007.9,8.55,33.8,81,35.0,24.0,0,5,4,1,2026-03-08T15:58:58.345623+05:30
Tirupati,Andhra Pradesh,13.6288,79.4192,35.9,24,0.0,990.1,8.95,31.3,116,45.4,34.5,0,5,10,0,2026-03-08T15:58:58.345629+05:30
Warangal,Telangana,17.9689,79.5941,34.7,37,0.0,978.5,8.35,27.7,120,47.4,35.6,0,5,7,1,2026-03-08T15:58:58.345636+05:30
Nizamabad,Telangana,18.6725,78.0941,35.5,24,0.0,964.8,8.25,31.0,111,31.7,19.4,0,5,10,0,2026-03-08T15:58:58.345641+05:30
Mysore,Karnataka,12.2958,76.6396,33.6,25,0.0,927.6,9.25,29.9,131,38.2,30.6,0,5,7,0,2026-03-08T15:58:58.345648+05:30
Mangalore,Karnataka,12.9141,74.856,28.7,79,0.0,1004.8,8.85,25.2,109,37.5,34.2,7,5,4,1,2026-03-08T15:58:58.345654+05:30
Hubli-Dharwad,Karnataka,15.3647,75.124,36.7,16,0.0,939.8,8.8,27.7,133,30.2,24.0,0,5,10,0,2026-03-08T15:58:58.345660+05:30
Belgaum,Karnataka,15.8497,74.4977,36.2,15,0.0,925.2,8.85,33.8,145,25.7,21.2,0,5,10,0,2026-03-08T15:59:01.684507+05:30
Coimbatore,Tamil Nadu,11.0168,76.9558,34.8,25,0.0,960.0,9.2,40.0,130,35.0,27.4,0,5,7,0,2026-03-08T15:59:01.684537+05:30
Madurai,Tamil Nadu,9.9252,78.1198,36.1,30,0.0,990.6,9.15,28.8,101,40.9,31.7,0,5,10,0,2026-03-08T15:59:01.684548+05:30
Trichy,Tamil Nadu,10.7905,78.7047,36.3,28,0.0,997.7,9.05,31.0,97,44.2,32.8,0,5,10,0,2026-03-08T15:59:01.684557+05:30
Salem,Tamil Nadu,11.6643,78.146,35.6,28,0.0,975.4,9.1,22.0,114,44.6,34.0,0,5,10,0,2026-03-08T15:59:01.684565+05:30
Tirunelveli,Tamil Nadu,8.7139,77.7567,36.1,32,0.0,1000.8,9.15,41.0,107,40.5,31.7,0,5,7,1,2026-03-08T15:59:01.684572+05:30
Vellore,Tamil Nadu,12.9165,79.1325,34.7,24,0.0,983.5,9.0,35.6,139,49.1,38.2,0,5,7,0,2026-03-08T15:59:01.684580+05:30
Erode,Tamil Nadu,11.341,77.7172,36.8,26,0.0,986.8,9.1,22.3,90,41.6,32.7,0,5,10,0,2026-03-08T15:59:01.684587+05:30
Kochi,Kerala,9.9312,76.2673,28.7,79,0.0,1006.2,8.9,35.6,141,47.5,43.9,7,5,4,1,2026-03-08T15:59:01.684594+05:30
Thiruvananthapuram,Kerala,8.5241,76.9366,28.7,80,0.0,1005.8,9.05,31.7,92,27.4,25.0,7,5,4,1,2026-03-08T15:59:01.684602+05:30
Kozhikode,Kerala,11.2588,75.7804,29.7,73,0.0,1006.0,8.95,29.5,94,22.2,20.4,7,5,4,1,2026-03-08T15:59:01.684609+05:30
Thrissur,Kerala,10.5276,76.2144,32.2,63,0.0,1004.6,9.0,36.7,132,39.9,34.2,3,5,4,1,2026-03-08T15:59:01.684617+05:30
Kannur,Kerala,11.8745,75.3704,30.4,69,0.0,1005.5,8.9,28.4,109,31.4,28.9,3,5,4,1,2026-03-08T15:59:01.684624+05:30
Patna,Bihar,25.5941,85.1376,31.7,44,0.0,1003.0,7.35,18.0,172,95.2,80.3,0,5,4,1,2026-03-08T15:59:01.684631+05:30
Gaya,Bihar,24.7914,85.0002,30.7,54,0.0,996.0,7.45,17.6,159,82.9,70.3,0,5,7,1,2026-03-08T15:59:01.684638+05:30
Muzaffarpur,Bihar,26.1209,85.3647,30.9,45,0.0,1003.3,7.3,19.1,176,95.0,80.8,0,5,4,1,2026-03-08T15:59:01.684645+05:30
Bhagalpur,Bihar,25.2425,87.0117,29.7,52,0.0,1004.1,7.35,15.8,163,96.9,74.5,4,5,4,1,2026-03-08T15:59:01.684653+05:30
Ranchi,Jharkhand,23.3441,85.3096,31.1,33,0.0,939.4,8.1,23.0,160,92.9,68.5,0,5,7,0,2026-03-08T15:59:01.684662+05:30
Jamshedpur,Jharkhand,22.8046,86.2029,32.0,47,0.0,992.3,8.0,20.9,156,99.9,80.1,0,5,7,1,2026-03-08T15:59:01.684673+05:30
Dhanbad,Jharkhand,23.7957,86.4304,31.5,38,0.0,981.8,7.85,22.7,167,105.2,87.1,0,5,7,0,2026-03-08T15:59:01.684683+05:30
Bokaro,Jharkhand,23.6693,86.1511,31.3,41,0.0,985.8,7.85,17.6,169,99.9,81.0,0,5,7,1,2026-03-08T15:59:01.684691+05:30
Bhubaneswar,Odisha,20.2961,85.8245,31.6,52,0.0,1003.9,8.2,32.4,125,46.9,35.4,0,5,4,1,2026-03-08T15:59:01.684698+05:30
Cuttack,Odisha,20.4625,85.8828,33.1,46,0.0,1005.4,8.3,27.7,125,46.9,35.4,0,5,4,1,2026-03-08T15:59:01.684705+05:30
Rourkela,Odisha,22.2604,84.8536,34.8,28,0.0,985.6,7.9,22.7,164,106.9,76.4,0,5,7,0,2026-03-08T15:59:01.684712+05:30
Raipur,Chhattisgarh,21.2514,81.6296,35.8,22,0.0,975.0,8.0,23.4,156,74.5,57.9,0,5,10,0,2026-03-08T15:59:01.684719+05:30
Bhilai,Chhattisgarh,21.1938,81.3509,36.2,22,0.0,975.3,8.0,23.4,153,65.7,50.8,0,5,10,0,2026-03-08T15:59:01.684726+05:30
Guwahati,Assam,26.1158,91.7086,30.1,48,0.0,1003.6,7.3,22.7,153,68.9,53.4,0,5,4,1,2026-03-08T15:59:01.684733+05:30
Agartala,Tripura,23.8315,91.2868,29.4,54,0.0,1008.8,7.6,18.7,153,59.8,47.7,4,0,4,1,2026-03-08T15:59:01.684740+05:30
Shillong,Meghalaya,25.5788,91.8933,16.1,71,0.0,858.3,7.35,26.6,127,47.1,36.8,3,5,7,0,2026-03-08T15:59:01.684748+05:30
Imphal,Manipur,24.817,93.9368,23.5,57,0.0,925.0,7.9,32.0,161,63.8,56.0,0,5,7,0,2026-03-08T15:59:01.684755+05:30
Aizawl,Mizoram,23.7271,92.7176,23.5,57,0.0,895.2,7.85,31.0,153,56.7,48.2,0,5,7,0,2026-03-08T15:59:01.684761+05:30
Kohima,Nagaland,25.6701,94.1077,17.6,80,0.0,857.2,7.0,51.8,162,80.6,71.7,3,5,7,0,2026-03-08T15:59:01.684769+05:30
Gangtok,Sikkim,27.3314,88.6138,16.8,73,0.0,840.3,5.1,16.2,156,49.7,37.7,3,5,3,0,2026-03-08T15:59:01.684777+05:30
Siliguri,West Bengal,26.7271,88.3953,24.2,61,0.0,997.6,7.3,15.8,158,74.0,53.4,3,5,7,1,2026-03-08T15:59:05.035599+05:30
Durgapur,West Bengal,23.5204,87.3119,32.2,38,0.0,997.0,7.85,20.9,161,101.7,86.1,0,5,7,1,2026-03-08T15:59:05.035629+05:30
Asansol,West Bengal,23.6739,86.9524,32.2,39,0.0,995.6,7.85,19.8,159,99.2,83.1,0,5,7,1,2026-03-08T15:59:05.035640+05:30
Pondicherry,Puducherry,11.9139,79.8145,33.7,46,0.0,1007.5,8.95,32.4,76,33.4,20.7,0,5,4,1,2026-03-08T15:59:05.035649+05:30
Port Blair,Andaman and Nicobar Islands,11.6234,92.7265,27.3,76,0.0,1007.5,8.9,25.2,88,34.7,26.6,7,5,4,1,2026-03-08T15:59:05.035658+05:30
Haridwar,Uttarakhand,29.9457,78.1642,32.1,44,0.0,976.4,5.8,26.6,160,67.8,50.2,0,5,3,1,2026-03-08T15:59:05.035666+05:30
Rishikesh,Uttarakhand,30.0869,78.2676,30.8,48,0.0,969.4,5.85,22.3,158,64.3,42.5,0,5,3,1,2026-03-08T15:59:05.035673+05:30
Nainital,Uttarakhand,29.3919,79.4542,22.7,63,0.0,810.1,6.65,63.0,157,85.2,58.1,3,5,7,0,2026-03-08T15:59:05.035681+05:30
Mussoorie,Uttarakhand,30.4599,78.0664,22.2,59,0.0,807.2,6.2,48.6,156,66.4,52.2,0,5,7,0,2026-03-08T15:59:05.035689+05:30
Dharamshala,Himachal Pradesh,32.219,76.3234,26.7,41,0.0,874.1,6.4,24.8,61,34.0,13.5,4,5,7,0,2026-03-08T15:59:05.035697+05:30
Dalhousie,Himachal Pradesh,32.5387,75.971,25.6,38,0.0,810.0,6.65,23.4,107,40.5,20.4,4,5,7,0,2026-03-08T15:59:05.035705+05:30
Patiala,Punjab,30.3398,76.3869,32.9,39,0.0,980.9,5.65,26.3,166,415.4,76.4,0,5,3,1,2026-03-08T15:59:05.035713+05:30
Bhatinda,Punjab,30.211,74.9455,34.5,31,0.0,986.7,6.5,16.9,151,82.0,37.1,0,5,7,0,2026-03-08T15:59:05.035720+05:30
Rohtak,Haryana,28.8955,76.6066,34.5,26,0.0,984.4,6.05,20.9,169,319.4,43.8,0,5,7,0,2026-03-08T15:59:05.035728+05:30
Panipat,Haryana,29.3909,76.9635,33.9,33,0.0,982.8,5.8,26.3,169,678.0,76.8,0,5,3,0,2026-03-08T15:59:05.035735+05:30
Mathura,Uttar Pradesh,27.4924,77.6737,36.4,20,0.0,989.0,6.3,22.7,156,292.4,39.6,0,5,10,0,2026-03-08T15:59:05.035743+05:30
Vrindavan,Uttar Pradesh,27.5823,77.7027,35.9,22,0.0,989.5,6.25,23.8,156,292.4,39.6,0,5,10,0,2026-03-08T15:59:05.035750+05:30
Ayodhya,Uttar Pradesh,26.7922,82.1998,31.6,44,0.0,998.0,6.65,11.2,183,99.2,76.6,0,5,7,1,2026-03-08T15:59:05.035757+05:30
Ratlam,Madhya Pradesh,23.3315,75.0367,35.7,25,0.0,956.9,7.5,21.6,91,11.6,11.1,0,5,10,0,2026-03-08T15:59:05.035765+05:30
Sagar,Madhya Pradesh,23.8388,78.7378,34.7,23,0.0,952.6,7.45,21.6,89,33.5,15.3,0,5,7,0,2026-03-08T15:59:05.035772+05:30
Satna,Madhya Pradesh,24.6005,80.8322,34.5,25,0.0,973.5,7.4,25.2,160,66.1,43.0,0,5,7,0,2026-03-08T15:59:05.035779+05:30
Akola,Maharashtra,20.7002,77.0082,38.5,17,0.0,974.9,7.95,16.2,81,24.5,14.9,0,5,10,0,2026-03-08T15:59:05.035787+05:30
Amravati,Maharashtra,20.9374,77.7796,38.3,16,0.0,967.5,7.9,20.5,79,24.3,14.1,0,5,10,0,2026-03-08T15:59:05.035795+05:30
Latur,Maharashtra,18.4088,76.5604,35.8,19,0.0,939.9,8.4,24.1,124,23.1,18.3,0,5,10,0,2026-03-08T15:59:05.035803+05:30
Nanded,Maharashtra,19.1383,77.3091,38.3,16,0.0,968.2,8.15,25.2,98,25.9,15.9,0,5,10,0,2026-03-08T15:59:05.035810+05:30
Gulbarga,Karnataka,17.3297,76.8343,38.2,16,0.0,957.8,8.5,28.4,124,26.8,19.2,0,5,10,0,2026-03-08T15:59:05.035817+05:30
Bidar,Karnataka,17.9104,77.5199,36.0,17,0.0,935.6,8.4,29.5,121,29.0,19.4,0,5,10,0,2026-03-08T15:59:05.035824+05:30
Hospet,Karnataka,15.2689,76.3909,36.2,20,0.0,954.7,8.75,25.6,134,37.3,27.6,0,5,10,0,2026-03-08T15:59:05.035831+05:30
Tirupur,Tamil Nadu,11.1085,77.3411,36.4,23,0.0,973.3,9.2,29.2,117,41.2,32.6,0,5,10,0,2026-03-08T15:59:05.035838+05:30
Alappuzha,Kerala,9.4981,76.3388,28.6,80,0.0,1006.4,8.95,32.0,142,46.7,43.0,7,5,4,1,2026-03-08T15:59:05.035845+05:30
Munnar,Kerala,10.0889,77.0595,29.4,39,0.0,857.5,9.5,21.2,106,38.8,29.7,4,5,7,0,2026-03-08T15:59:05.035852+05:30
Silchar,Assam,24.8333,92.7789,30.9,49,0.0,1006.4,7.6,19.4,163,66.4,56.8,0,5,4,1,2026-03-08T15:59:05.035859+05:30
Dibrugarh,Assam,27.4728,94.912,29.0,54,0.0,997.5,6.3,24.8,164,93.8,75.0,4,5,7,1,2026-03-08T15:59:05.035866+05:30
