city,state,latitude,longitude,temp,humidity,rain,pressure,uv_index,wind_gusts,aqi,pm10,pm2_5,no2,co,o3,so2,mosquito_risk,arthritis_risk,migraine_risk,frizz_risk,updated_at
Delhi,Delhi,28.6139,77.209,36.0,22,0.0,980.8,7.7,42.8,606,599.8,177.0,19.3,519.0,92.0,17.9,0,5,10,0,2026-05-24T09:24:28.150048+05:30
Mumbai,Maharashtra,19.076,72.8777,32.1,65,0.0,1011.4,6.95,45.4,41,13.4,9.5,5.7,305.0,61.0,6.2,3,0,4,1,2026-05-24T09:24:28.150094+05:30
Bangalore,Karnataka,12.9716,77.5946,25.5,75,0.0,914.9,9.0,38.9,51,9.7,8.1,7.3,326.0,52.0,4.0,7,5,7,1,2026-05-24T09:24:28.150110+05:30
Hyderabad,Telangana,17.385,78.4867,32.5,53,0.0,955.0,9.25,46.8,80,19.0,16.8,5.8,319.0,87.0,5.8,0,5,7,1,2026-05-24T09:24:28.150119+05:30
Chennai,Tamil Nadu,13.0827,80.2707,31.5,61,0.0,1007.0,9.0,57.2,81,22.6,19.2,11.4,261.0,77.0,10.7,3,5,4,1,2026-05-24T09:24:28.150127+05:30
Kolkata,West Bengal,22.5726,88.3639,33.3,67,0.0,1004.3,8.95,43.2,96,44.6,31.0,3.0,300.0,120.0,7.2,3,5,4,1,2026-05-24T09:24:28.150136+05:30
Pune,Maharashtra,18.5204,73.8567,30.2,60,0.0,951.6,8.35,49.3,39,7.5,5.5,4.2,188.0,57.0,5.7,0,5,7,1,2026-05-24T09:24:28.150142+05:30
Ahmedabad,Gujarat,23.0225,72.5714,32.7,60,0.0,1004.3,8.15,38.2,64,23.6,16.6,3.6,151.0,54.0,4.1,0,5,4,1,2026-05-24T09:24:28.150149+05:30
Jaipur,Rajasthan,26.9124,75.7873,36.1,23,0.0,959.7,8.25,50.0,188,501.1,105.9,3.2,167.0,70.0,5.3,0,5,10,0,2026-05-24T09:24:28.150160+05:30
Lucknow,Uttar Pradesh,26.8467,80.9462,37.2,23,0.0,990.5,8.2,47.9,171,467.5,122.0,10.8,316.0,112.0,11.6,0,5,10,0,2026-05-24T09:24:28.150167+05:30
Kanpur,Uttar Pradesh,26.4499,80.3319,38.1,22,0.0,989.1,8.2,46.1,526,454.5,105.5,8.4,291.0,103.0,9.0,0,5,10,0,2026-05-24T09:24:28.150174+05:30
Chandigarh,Chandigarh,30.7333,76.7794,36.2,19,0.0,965.3,7.75,47.5,78,38.5,20.3,6.7,473.0,129.0,8.8,0,5,10,0,2026-05-24T09:24:28.150181+05:30
Srinagar,Jammu and Kashmir,34.0837,74.7973,17.7,63,0.0,844.3,8.45,27.7,78,34.9,26.1,7.0,377.0,86.0,2.2,3,5,7,0,2026-05-24T09:24:28.150188+05:30
Jammu,Jammu and Kashmir,32.7266,74.857,31.2,36,0.0,970.6,8.55,38.2,69,26.1,19.2,9.9,296.0,85.0,2.7,0,5,7,0,2026-05-24T09:24:28.150194+05:30
Amritsar,Punjab,31.634,74.8723,32.2,35,0.0,978.3,8.45,29.9,99,39.0,25.0,10.0,373.0,97.0,5.3,0,5,7,0,2026-05-24T09:24:28.150201+05:30
Ludhiana,Punjab,30.901,75.8573,33.8,28,0.0,976.1,8.0,26.3,86,35.6,24.1,8.5,413.0,106.0,6.8,0,5,7,0,2026-05-24T09:24:28.150207+05:30
Jalandhar,Punjab,31.326,75.5762,32.5,32,0.0,977.1,8.2,25.9,90,51.0,31.0,9.6,444.0,107.0,5.6,0,5,7,0,2026-05-24T09:24:28.150213+05:30
Dehradun,Uttarakhand,30.6284,78.0322,25.5,27,0.0,832.3,8.15,50.8,62,54.1,15.3,1.7,153.0,118.0,0.2,4,5,7,0,2026-05-24T09:24:28.150219+05:30
Shimla,Himachal Pradesh,31.1048,77.1734,22.6,21,0.0,788.2,8.25,70.2,65,39.7,12.7,1.6,147.0,126.0,1.1,0,5,7,1,2026-05-24T09:24:28.150228+05:30
Manali,Himachal Pradesh,32.2396,77.1887,23.3,24,0.0,821.5,9.05,48.6,49,22.6,5.8,6.3,163.0,117.0,0.2,0,5,7,0,2026-05-24T09:24:28.150235+05:30
Gurgaon,Haryana,28.4595,77.0266,35.1,28,0.0,979.4,7.85,43.2,1037,1136.2,239.3,20.8,431.0,90.0,18.8,0,5,10,0,2026-05-24T09:24:28.150241+05:30
Noida,Uttar Pradesh,28.5355,77.391,36.6,22,0.0,982.0,7.75,38.9,1037,1136.2,239.3,20.8,540.0,90.0,18.8,0,5,10,0,2026-05-24T09:24:28.150248+05:30
Ghaziabad,Uttar Pradesh,28.6692,77.4538,36.4,22,0.0,980.2,7.75,41.8,425,508.5,157.9,14.7,381.0,109.0,17.5,0,5,10,0,2026-05-24T09:24:28.150254+05:30
Faridabad,Haryana,28.4089,77.3178,36.3,22,0.0,981.5,7.8,42.5,1037,1136.2,239.3,20.8,465.0,90.0,18.8,0,5,10,0,2026-05-24T09:24:28.150261+05:30
Meerut,Uttar Pradesh,28.9845,77.7064,34.7,28,0.0,978.6,7.65,43.9,425,508.5,157.9,14.7,345.0,109.0,17.5,0,5,7,0,2026-05-24T09:24:28.150271+05:30
Agra,Uttar Pradesh,27.1767,78.0081,36.8,26,0.0,985.6,8.05,40.3,762,1128.8,185.8,15.0,335.0,82.0,11.0,0,5,10,0,2026-05-24T09:24:28.150278+05:30
Varanasi,Uttar Pradesh,25.3176,82.9739,38.3,23,0.0,994.6,8.7,47.5,150,251.5,62.9,13.8,365.0,113.0,14.9,0,5,10,0,2026-05-24T09:24:28.150284+05:30
Prayagraj,Uttar Pradesh,25.4358,81.8463,38.5,22,0.0,993.3,8.6,46.8,151,314.8,76.8,14.0,275.0,114.0,14.6,0,5,10,0,2026-05-24T09:24:28.150291+05:30
Gorakhpur,Uttar Pradesh,26.7606,83.3732,33.8,55,0.0,994.3,8.6,34.9,151,119.7,77.3,13.7,561.0,129.0,16.2,0,5,7,1,2026-05-24T09:24:28.150299+05:30
Bareilly,Uttar Pradesh,28.367,79.4304,33.7,30,0.0,983.5,8.05,42.8,126,100.4,56.5,14.0,339.0,109.0,12.0,0,5,7,0,2026-05-24T09:24:28.150306+05:30
Aligarh,Uttar Pradesh,27.8974,78.088,36.1,26,0.0,983.2,7.9,39.6,697,946.2,222.1,18.8,348.0,82.0,17.7,0,5,10,0,2026-05-24T09:24:28.150311+05:30
Moradabad,Uttar Pradesh,28.8386,78.7733,33.1,29,0.0,980.6,7.85,48.2,126,124.3,60.8,11.1,358.0,105.0,10.4,0,5,7,0,2026-05-24T09:24:28.150318+05:30
Saharanpur,Uttar Pradesh,29.9637,77.546,33.3,28,0.0,972.5,7.4,47.2,90,54.5,28.8,8.9,320.0,106.0,9.2,0,5,7,0,2026-05-24T09:24:28.150324+05:30
Jhansi,Uttar Pradesh,25.4484,78.5685,37.1,25,0.0,976.8,8.45,44.6,93,59.8,26.6,2.1,157.0,78.0,3.3,0,5,10,0,2026-05-24T09:24:31.471333+05:30
Surat,Gujarat,21.1702,72.8311,33.2,63,0.0,1009.2,7.7,43.2,56,18.5,14.4,11.6,318.0,38.0,33.2,3,0,4,1,2026-05-24T09:24:31.471369+05:30
Vadodara,Gujarat,22.3072,73.1812,34.3,52,0.0,1006.4,8.1,45.7,56,18.5,13.6,4.2,154.0,50.0,5.9,0,5,4,1,2026-05-24T09:24:31.471380+05:30
Rajkot,Gujarat,22.3039,70.8022,32.0,59,0.0,996.7,7.7,48.2,63,20.1,12.8,2.4,116.0,53.0,4.4,0,5,7,1,2026-05-24T09:24:31.471389+05:30
Thane,Maharashtra,19.2183,72.9781,32.3,65,0.1,1010.8,7.4,41.0,41,13.4,9.5,5.7,216.0,61.0,6.2,6,0,4,1,2026-05-24T09:24:31.471397+05:30
Nagpur,Maharashtra,21.1458,79.0882,38.5,22,0.0,972.9,8.9,43.9,66,37.6,21.8,6.3,194.0,97.0,12.4,0,5,10,0,2026-05-24T09:24:31.471404+05:30
Nashik,Maharashtra,19.9975,73.7898,29.6,66,0.0,949.0,8.0,38.5,36,7.6,5.4,2.8,131.0,56.0,2.2,7,5,7,1,2026-05-24T09:24:31.471412+05:30
Aurangabad,Maharashtra,19.8762,75.3433,31.3,56,0.0,947.2,9.0,44.3,52,11.1,8.1,5.2,147.0,56.0,9.7,0,5,7,1,2026-05-24T09:24:31.471420+05:30
Solapur,Maharashtra,17.6599,75.9064,31.8,57,0.0,960.2,9.0,47.5,66,11.5,8.5,3.4,174.0,65.0,3.1,0,5,7,1,2026-05-24T09:24:31.471428+05:30
Kolhapur,Maharashtra,16.705,74.2433,27.6,72,0.0,951.5,8.9,46.4,40,8.6,6.7,3.1,166.0,51.0,1.9,7,5,7,1,2026-05-24T09:24:31.471435+05:30
Goa,Goa,15.2993,74.124,30.1,76,0.1,1001.7,8.2,37.4,36,16.6,11.9,2.3,184.0,60.0,1.3,6,5,4,1,2026-05-24T09:24:31.471443+05:30
Jodhpur,Rajasthan,26.2389,73.0243,33.7,37,0.0,983.3,8.4,55.4,185,369.7,85.0,2.2,126.0,61.0,3.8,0,5,7,1,2026-05-24T09:24:31.471450+05:30
Udaipur,Rajasthan,24.5854,73.7125,33.6,30,0.0,947.8,8.8,52.6,83,69.2,26.3,1.9,136.0,71.0,4.4,0,5,7,0,2026-05-24T09:24:31.471457+05:30
Kota,Rajasthan,25.2138,75.8648,37.8,21,0.0,979.0,8.4,43.6,92,57.7,25.8,2.8,156.0,72.0,4.0,0,5,10,0,2026-05-24T09:24:31.471464+05:30
Bikaner,Rajasthan,28.0229,73.3119,36.5,14,0.0,980.0,8.45,56.5,134,472.2,152.7,1.3,142.0,87.0,4.7,0,5,10,0,2026-05-24T09:24:31.471471+05:30
Ajmer,Rajasthan,26.4499,74.6399,33.1,33,0.0,955.3,8.4,61.2,112,181.1,58.1,2.0,140.0,65.0,4.1,0,5,7,0,2026-05-24T09:24:31.471478+05:30
Gwalior,Madhya Pradesh,26.2183,78.1828,37.0,24,0.0,981.6,8.25,43.6,107,109.4,39.3,4.1,164.0,79.0,5.4,0,5,10,0,2026-05-24T09:24:31.471486+05:30
Indore,Madhya Pradesh,22.7196,75.8577,32.7,52,0.0,950.1,8.7,45.0,65,17.7,12.6,5.9,206.0,58.0,12.2,0,5,7,1,2026-05-24T09:24:31.471493+05:30
Bhopal,Madhya Pradesh,23.2599,77.4126,36.3,23,0.0,954.7,8.7,47.2,78,42.4,22.0,2.8,197.0,88.0,5.8,0,5,10,0,2026-05-24T09:24:31.471500+05:30
Jabalpur,Madhya Pradesh,23.1815,79.9864,38.5,20,0.0,961.6,8.85,39.2,71,51.7,27.8,4.5,226.0,97.0,5.2,0,5,10,0,2026-05-24T09:24:31.471507+05:30
Ujjain,Madhya Pradesh,23.1765,75.7885,33.2,51,0.0,955.6,8.6,46.1,68,17.3,12.5,5.3,174.0,56.0,11.1,0,5,7,1,2026-05-24T09:24:31.471515+05:30
Visakhapatnam,Andhra Pradesh,17.6868,83.2185,35.4,63,0.0,1001.3,9.1,33.5,114,58.6,50.2,33.3,1922.0,104.0,71.3,3,5,7,1,2026-05-24T09:24:31.471521+05:30
Vijayawada,Andhra Pradesh,16.5062,80.648,37.0,41,0.0,1001.3,9.1,46.1,106,37.0,32.0,5.1,214.0,112.0,6.8,0,5,7,1,2026-05-24T09:24:31.471528+05:30
Guntur,Andhra Pradesh,16.3067,80.4365,36.7,43,0.0,1002.6,9.15,49.0,97,36.8,31.4,4.5,207.0,113.0,6.1,0,5,7,1,2026-05-24T09:24:31.471535+05:30
Nellore,Andhra Pradesh,14.4426,79.9865,34.2,54,0.0,1005.2,8.6,45.0,64,10.6,9.5,6.6,189.0,66.0,8.2,0,5,4,1,2026-05-24T09:24:31.471542+05:30
Kurnool,Andhra Pradesh,15.8281,78.0373,32.4,55,0.0,978.9,9.05,62.6,61,9.6,8.3,7.3,218.0,50.0,4.1,0,5,7,1,2026-05-24T09:24:31.471550+05:30
Kakinada,Andhra Pradesh,16.9891,82.2475,36.7,50,0.0,1004.7,9.1,35.6,83,37.5,32.9,5.6,310.0,124.0,7.3,0,5,7,1,2026-05-24T09:24:31.471558+05:30
Tirupati,Andhra Pradesh,13.6288,79.4192,32.8,55,0.0,991.8,8.8,42.5,69,9.7,8.1,3.6,167.0,73.0,2.0,0,5,7,1,2026-05-24T09:24:31.471564+05:30
Warangal,Telangana,17.9689,79.5941,36.4,38,0.0,978.2,9.15,53.3,105,26.8,24.5,3.9,224.0,105.0,5.4,0,5,10,1,2026-05-24T09:24:31.471572+05:30
Nizamabad,Telangana,18.6725,78.0941,35.0,42,0.0,966.6,9.1,45.0,80,19.7,16.8,4.3,168.0,96.0,7.2,0,5,7,1,2026-05-24T09:24:31.471581+05:30
Mysore,Karnataka,12.2958,76.6396,27.5,64,0.0,932.3,7.85,41.0,41,7.0,6.0,4.0,157.0,56.0,1.6,7,5,7,1,2026-05-24T09:24:31.471588+05:30
Mangalore,Karnataka,12.9141,74.856,26.9,89,0.0,1010.9,8.05,37.4,53,16.8,12.1,4.9,224.0,56.0,3.4,7,0,4,1,2026-05-24T09:24:31.471596+05:30
Hubli-Dharwad,Karnataka,15.3647,75.124,27.8,69,0.0,944.4,8.95,47.2,22,3.4,2.6,2.3,141.0,52.0,0.8,7,5,7,1,2026-05-24T09:24:31.471603+05:30
Belgaum,Karnataka,15.8497,74.4977,27.5,68,0.0,929.5,9.05,41.4,22,3.5,2.8,3.2,134.0,50.0,1.9,7,5,7,1,2026-05-24T09:24:34.772677+05:30
Coimbatore,Tamil Nadu,11.0168,76.9558,27.8,72,0.0,964.9,7.55,46.4,34,10.9,7.6,3.7,178.0,64.0,2.6,7,5,7,1,2026-05-24T09:24:34.772714+05:30
Madurai,Tamil Nadu,9.9252,78.1198,33.6,48,0.0,995.1,8.95,42.8,61,11.1,9.0,7.3,160.0,72.0,4.6,0,5,7,1,2026-05-24T09:24:34.772725+05:30
Trichy,Tamil Nadu,10.7905,78.7047,32.5,57,0.0,1001.4,8.5,48.2,53,9.3,7.4,4.0,141.0,61.0,3.4,0,5,4,1,2026-05-24T09:24:34.772734+05:30
Salem,Tamil Nadu,11.6643,78.146,31.3,56,0.0,980.1,8.45,56.5,66,20.3,15.7,13.2,179.0,57.0,12.7,0,5,7,1,2026-05-24T09:24:34.772743+05:30
Tirunelveli,Tamil Nadu,8.7139,77.7567,34.0,49,0.0,1005.2,8.85,39.2,29,7.4,5.6,2.8,149.0,58.0,1.9,0,5,4,1,2026-05-24T09:24:34.772752+05:30
Vellore,Tamil Nadu,12.9165,79.1325,31.1,59,0.0,985.8,9.0,55.1,67,11.0,9.5,5.3,185.0,68.0,3.7,0,5,7,1,2026-05-24T09:24:34.772759+05:30
Erode,Tamil Nadu,11.341,77.7172,31.5,59,0.0,991.9,8.45,38.9,51,12.3,9.9,7.2,225.0,57.0,3.0,0,5,7,1,2026-05-24T09:24:34.772768+05:30
Kochi,Kerala,9.9312,76.2673,25.5,95,0.1,1013.8,8.6,31.7,55,15.0,11.4,9.3,229.0,42.0,3.5,10,0,4,1,2026-05-24T09:24:34.772776+05:30
Thiruvananthapuram,Kerala,8.5241,76.9366,26.3,89,0.0,1012.7,8.4,46.1,38,15.1,8.5,2.3,185.0,59.0,1.1,7,0,4,1,2026-05-24T09:24:34.772783+05:30
Kozhikode,Kerala,11.2588,75.7804,27.6,87,0.0,1012.2,7.4,35.6,33,11.1,7.0,1.5,156.0,63.0,1.1,7,0,4,1,2026-05-24T09:24:34.772790+05:30
Thrissur,Kerala,10.5276,76.2144,26.0,95,0.1,1011.9,7.4,33.8,57,15.9,12.3,6.6,224.0,48.0,3.0,10,0,4,1,2026-05-24T09:24:34.772798+05:30
Kannur,Kerala,11.8745,75.3704,28.5,80,0.0,1011.1,8.45,36.7,47,13.9,10.0,6.1,187.0,56.0,2.5,7,0,4,1,2026-05-24T09:24:34.772806+05:30
Patna,Bihar,25.5941,85.1376,34.2,56,0.0,997.4,8.8,31.7,164,93.4,62.2,10.3,388.0,135.0,17.0,0,5,7,1,2026-05-24T09:24:34.772813+05:30
Gaya,Bihar,24.7914,85.0002,37.8,26,0.0,991.1,8.85,31.7,157,103.6,53.4,10.5,307.0,131.0,10.8,0,5,10,0,2026-05-24T09:24:34.772821+05:30
Muzaffarpur,Bihar,26.1209,85.3647,31.5,71,0.0,997.6,8.8,28.4,160,70.3,51.6,6.7,493.0,132.0,14.5,3,5,7,1,2026-05-24T09:24:34.772828+05:30
Bhagalpur,Bihar,25.2425,87.0117,33.7,69,0.0,998.2,8.8,25.9,153,61.2,48.1,10.1,494.0,109.0,28.2,3,5,7,1,2026-05-24T09:24:34.772834+05:30
Ranchi,Jharkhand,23.3441,85.3096,32.6,51,0.0,937.6,9.3,27.0,110,65.4,45.3,6.0,267.0,149.0,21.7,0,5,7,1,2026-05-24T09:24:34.772841+05:30
Jamshedpur,Jharkhand,22.8046,86.2029,35.0,54,0.0,988.8,9.1,37.1,151,57.0,43.4,8.6,322.0,133.0,29.9,0,5,7,1,2026-05-24T09:24:34.772848+05:30
Dhanbad,Jharkhand,23.7957,86.4304,35.8,40,0.0,977.8,9.0,31.7,158,79.4,65.0,29.8,525.0,117.0,81.9,0,5,10,1,2026-05-24T09:24:34.772855+05:30
Bokaro,Jharkhand,23.6693,86.1511,36.3,40,0.0,981.6,9.05,33.1,159,83.1,53.7,16.8,357.0,135.0,45.3,0,5,10,1,2026-05-24T09:24:34.772861+05:30
Bhubaneswar,Odisha,20.2961,85.8245,34.0,67,0.0,1000.8,9.1,41.8,88,44.0,34.7,2.5,263.0,143.0,6.3,3,5,4,1,2026-05-24T09:24:34.772868+05:30
Cuttack,Odisha,20.4625,85.8828,33.5,70,0.0,1002.7,9.15,38.2,88,44.0,34.7,2.5,285.0,143.0,6.3,3,5,4,1,2026-05-24T09:24:34.772875+05:30
Rourkela,Odisha,22.2604,84.8536,34.8,56,0.0,983.4,9.0,38.5,139,64.3,50.3,8.0,352.0,149.0,31.7,0,5,7,1,2026-05-24T09:24:34.772881+05:30
Raipur,Chhattisgarh,21.2514,81.6296,39.2,17,0.0,973.3,8.95,47.2,106,70.5,53.3,41.8,294.0,66.0,83.0,0,5,10,0,2026-05-24T09:24:34.772888+05:30
Bhilai,Chhattisgarh,21.1938,81.3509,38.1,20,0.0,973.8,9.0,28.4,94,63.6,41.7,27.9,401.0,79.0,63.4,0,5,10,0,2026-05-24T09:24:34.772894+05:30
Guwahati,Assam,26.1158,91.7086,26.4,78,0.0,1000.9,8.65,29.2,69,22.8,13.9,2.7,309.0,95.0,2.8,7,5,4,1,2026-05-24T09:24:34.772917+05:30
Agartala,Tripura,23.8315,91.2868,30.2,77,0.1,1005.5,8.7,46.8,79,16.2,12.7,4.2,208.0,74.0,2.5,6,5,4,1,2026-05-24T09:24:34.772924+05:30
Shillong,Meghalaya,25.5788,91.8933,23.6,72,0.0,858.2,9.1,49.0,50,4.5,2.4,3.2,181.0,74.0,2.6,3,5,7,1,2026-05-24T09:24:34.772931+05:30
Imphal,Manipur,24.817,93.9368,27.9,61,0.0,924.4,9.3,36.4,69,38.3,17.1,1.5,251.0,91.0,2.3,7,5,7,1,2026-05-24T09:24:34.772939+05:30
Aizawl,Mizoram,23.7271,92.7176,26.5,58,0.0,894.3,8.75,42.5,73,22.8,12.2,0.6,167.0,74.0,0.8,4,5,7,1,2026-05-24T09:24:34.772946+05:30
Kohima,Nagaland,25.6701,94.1077,24.5,66,0.0,857.0,9.25,29.9,45,28.2,11.6,0.7,209.0,87.0,1.8,3,5,7,1,2026-05-24T09:24:34.772952+05:30
Gangtok,Sikkim,27.3314,88.6138,22.8,55,0.0,838.7,9.1,36.0,76,55.2,21.0,1.8,316.0,144.0,3.5,0,5,7,0,2026-05-24T09:24:34.772960+05:30
Siliguri,West Bengal,26.7271,88.3953,28.7,71,0.0,991.4,8.7,28.1,82,71.0,35.2,3.9,423.0,153.0,5.4,7,5,7,1,2026-05-24T09:24:38.091137+05:30
Durgapur,West Bengal,23.5204,87.3119,33.0,73,0.0,992.7,8.95,36.0,154,58.9,48.9,18.5,575.0,104.0,52.4,3,5,7,1,2026-05-24T09:24:38.091174+05:30
Asansol,West Bengal,23.6739,86.9524,34.0,66,0.0,991.2,9.0,38.2,152,67.5,57.7,23.0,408.0,108.0,60.8,3,5,7,1,2026-05-24T09:24:38.091185+05:30
Pondicherry,Puducherry,11.9139,79.8145,31.8,63,0.0,1009.3,7.4,34.9,88,25.0,20.5,12.1,269.0,65.0,5.6,3,0,4,1,2026-05-24T09:24:38.091194+05:30
Port Blair,Andaman and Nicobar Islands,11.6234,92.7265,29.8,80,0.1,1009.1,8.85,32.4,33,10.0,5.8,0.3,108.0,63.0,0.4,10,0,4,1,2026-05-24T09:24:38.091202+05:30
Haridwar,Uttarakhand,29.9457,78.1642,32.7,34,0.0,970.9,7.55,51.8,78,44.4,25.5,6.4,323.0,133.0,6.5,0,5,7,0,2026-05-24T09:24:38.091210+05:30
Rishikesh,Uttarakhand,30.0869,78.2676,32.8,31,0.0,963.8,7.65,47.2,79,50.4,25.3,2.4,288.0,141.0,5.4,0,5,7,0,2026-05-24T09:24:38.091217+05:30
Nainital,Uttarakhand,29.3919,79.4542,24.0,26,0.0,807.7,8.5,51.1,82,47.6,22.1,3.0,158.0,140.0,5.3,0,5,7,0,2026-05-24T09:24:38.091225+05:30
Mussoorie,Uttarakhand,30.4599,78.0664,24.1,22,0.0,805.4,8.05,69.5,74,54.0,22.2,3.6,150.0,137.0,3.9,0,5,7,0,2026-05-24T09:24:38.091231+05:30
Dharamshala,Himachal Pradesh,32.219,76.3234,26.9,28,0.0,870.1,8.45,46.8,52,30.2,8.9,1.4,189.0,112.0,0.4,4,5,7,0,2026-05-24T09:24:38.091239+05:30
Dalhousie,Himachal Pradesh,32.5387,75.971,23.6,24,0.0,807.6,8.65,46.8,70,44.0,16.1,4.6,180.0,112.0,0.9,0,5,7,0,2026-05-24T09:24:38.091246+05:30
Patiala,Punjab,30.3398,76.3869,35.3,25,0.0,975.5,7.65,34.9,477,412.6,69.6,7.2,349.0,101.0,7.0,0,5,10,0,2026-05-24T09:24:38.091255+05:30
Bhatinda,Punjab,30.211,74.9455,36.4,23,0.0,981.4,8.3,31.0,94,53.8,32.9,10.3,448.0,94.0,7.1,0,5,10,0,2026-05-24T09:24:38.091263+05:30
Rohtak,Haryana,28.8955,76.6066,36.0,26,0.0,979.8,7.75,36.4,781,627.7,164.8,13.1,353.0,90.0,9.3,0,5,10,0,2026-05-24T09:24:38.091269+05:30
Panipat,Haryana,29.3909,76.9635,36.2,25,0.0,977.6,7.6,42.8,1612,1210.7,229.1,9.6,328.0,91.0,9.5,0,5,10,0,2026-05-24T09:24:38.091275+05:30
Mathura,Uttar Pradesh,27.4924,77.6737,37.5,22,0.0,984.7,8.0,39.6,650,1076.6,208.2,12.3,326.0,75.0,8.3,0,5,10,0,2026-05-24T09:24:38.091282+05:30
Vrindavan,Uttar Pradesh,27.5823,77.7027,37.2,23,0.0,985.1,8.0,36.7,650,1076.6,208.2,12.3,319.0,75.0,8.3,0,5,10,0,2026-05-24T09:24:38.091289+05:30
Ayodhya,Uttar Pradesh,26.7922,82.1998,35.2,33,0.0,992.2,8.35,34.6,153,285.9,85.7,13.9,340.0,106.0,13.7,0,5,10,1,2026-05-24T09:24:38.091296+05:30
Ratlam,Madhya Pradesh,23.3315,75.0367,32.5,53,0.0,956.7,8.55,50.4,67,15.9,11.8,5.0,146.0,55.0,10.5,0,5,7,1,2026-05-24T09:24:38.091303+05:30
Sagar,Madhya Pradesh,23.8388,78.7378,37.2,20,0.0,950.9,8.75,49.3,77,51.8,25.4,3.6,193.0,89.0,7.9,0,5,10,0,2026-05-24T09:24:38.091309+05:30
Satna,Madhya Pradesh,24.6005,80.8322,38.2,21,0.0,970.2,8.8,46.1,130,395.8,70.8,5.7,174.0,121.0,9.7,0,5,10,0,2026-05-24T09:24:38.091316+05:30
Akola,Maharashtra,20.7002,77.0082,34.3,46,0.0,976.9,8.85,50.8,58,15.3,11.4,4.0,146.0,76.0,10.8,0,5,7,1,2026-05-24T09:24:38.091323+05:30
Amravati,Maharashtra,20.9374,77.7796,35.5,36,0.0,968.5,8.85,50.8,60,16.9,13.4,4.4,175.0,89.0,13.6,0,5,10,1,2026-05-24T09:24:38.091332+05:30
Latur,Maharashtra,18.4088,76.5604,31.9,52,0.0,942.7,9.05,48.6,69,14.8,11.5,3.4,194.0,85.0,8.5,0,5,7,1,2026-05-24T09:24:38.091338+05:30
Nanded,Maharashtra,19.1383,77.3091,35.0,41,0.0,970.5,8.95,41.8,62,19.3,14.1,3.6,166.0,89.0,5.1,0,5,7,1,2026-05-24T09:24:38.091345+05:30
Gulbarga,Karnataka,17.3297,76.8343,32.3,55,0.0,961.5,8.8,58.3,69,10.9,8.1,4.2,180.0,64.0,3.2,0,5,7,1,2026-05-24T09:24:38.091352+05:30
Bidar,Karnataka,17.9104,77.5199,31.8,56,0.0,938.3,9.1,40.7,82,17.3,15.0,4.6,223.0,87.0,6.2,0,5,7,1,2026-05-24T09:24:38.091359+05:30
Hospet,Karnataka,15.2689,76.3909,28.8,69,0.0,959.1,9.1,50.8,36,5.2,4.0,2.8,152.0,49.0,1.5,7,5,7,1,2026-05-24T09:24:38.091365+05:30
Tirupur,Tamil Nadu,11.1085,77.3411,29.6,66,0.0,978.3,8.35,42.8,51,13.0,10.2,7.0,163.0,61.0,3.3,7,5,7,1,2026-05-24T09:24:38.091371+05:30
Alappuzha,Kerala,9.4981,76.3388,26.0,93,0.3,1013.8,8.4,32.4,49,16.9,11.1,6.5,97.0,55.0,2.5,10,0,4,1,2026-05-24T09:24:38.091378+05:30
Munnar,Kerala,10.0889,77.0595,19.2,98,0.1,860.9,8.9,29.9,26,6.3,4.9,2.3,113.0,54.0,1.1,6,10,7,1,2026-05-24T09:24:38.091384+05:30
Silchar,Assam,24.8333,92.7789,27.2,82,0.1,1005.7,8.95,42.1,63,31.9,15.8,2.2,202.0,81.0,2.7,10,5,4,1,2026-05-24T09:24:38.091391+05:30
Dibrugarh,Assam,27.4728,94.912,24.0,97,0.3,995.1,6.65,39.6,58,21.4,13.2,2.9,248.0,102.0,1.4,6,5,7,1,2026-05-24T09:24:38.091398+05:30
