city,state,latitude,longitude,temp,humidity,rain,pressure,uv_index,wind_gusts,aqi,pm10,pm2_5,mosquito_risk,arthritis_risk,migraine_risk,frizz_risk,updated_at
Delhi,Delhi,28.6139,77.209,34.1,35,0.0,984.6,7.0,19.1,153,153.7,51.8,0,5,7,1,2026-04-18T10:39:30.903808+05:30
Mumbai,Maharashtra,19.076,72.8777,29.3,80,0.0,1008.9,6.95,24.1,97,100.1,42.6,7,0,4,1,2026-04-18T10:39:30.903852+05:30
Bangalore,Karnataka,12.9716,77.5946,30.0,54,0.0,913.9,8.9,34.6,98,46.6,37.7,4,5,7,1,2026-04-18T10:39:30.903867+05:30
Hyderabad,Telangana,17.385,78.4867,36.4,27,0.0,955.0,9.25,47.2,92,37.8,31.9,0,5,10,0,2026-04-18T10:39:30.903877+05:30
Chennai,Tamil Nadu,13.0827,80.2707,33.6,56,0.0,1008.5,8.65,31.7,44,15.0,9.5,0,0,4,1,2026-04-18T10:39:30.903886+05:30
Kolkata,West Bengal,22.5726,88.3639,32.3,71,0.0,1007.2,8.85,26.3,65,37.7,29.3,3,5,4,1,2026-04-18T10:39:30.903898+05:30
Pune,Maharashtra,18.5204,73.8567,34.6,33,0.0,950.0,8.6,30.2,89,29.3,18.9,0,5,7,0,2026-04-18T10:39:30.903907+05:30
Ahmedabad,Gujarat,23.0225,72.5714,34.0,38,0.0,1003.9,8.15,26.6,63,45.6,17.2,0,5,4,1,2026-04-18T10:39:30.903916+05:30
Jaipur,Rajasthan,26.9124,75.7873,35.9,25,0.0,961.9,7.95,30.2,179,324.1,56.5,0,5,10,0,2026-04-18T10:39:30.903924+05:30
Lucknow,Uttar Pradesh,26.8467,80.9462,35.2,33,0.0,994.2,7.85,31.3,124,82.7,29.4,0,5,10,1,2026-04-18T10:39:30.903932+05:30
Kanpur,Uttar Pradesh,26.4499,80.3319,34.9,43,0.0,992.7,7.85,25.2,110,170.0,38.5,0,5,7,1,2026-04-18T10:39:30.903939+05:30
Chandigarh,Chandigarh,30.7333,76.7794,32.0,38,0.0,970.9,7.15,21.2,58,51.3,15.4,0,5,7,0,2026-04-18T10:39:30.903946+05:30
Srinagar,Jammu and Kashmir,34.0837,74.7973,15.2,77,0.0,847.4,6.85,28.8,74,32.8,12.9,3,5,7,0,2026-04-18T10:39:30.903954+05:30
Jammu,Jammu and Kashmir,32.7266,74.857,28.6,43,0.0,976.3,6.9,37.8,58,39.0,12.9,4,5,7,0,2026-04-18T10:39:30.903961+05:30
Amritsar,Punjab,31.634,74.8723,31.3,38,0.0,984.0,6.75,42.5,60,49.0,16.5,0,5,7,0,2026-04-18T10:39:30.903968+05:30
Ludhiana,Punjab,30.901,75.8573,32.7,31,0.0,981.3,7.2,28.1,65,34.9,18.4,0,5,7,0,2026-04-18T10:39:30.903976+05:30
Jalandhar,Punjab,31.326,75.5762,32.9,31,0.0,982.6,6.45,42.1,59,61.0,20.1,0,5,7,0,2026-04-18T10:39:30.903983+05:30
Dehradun,Uttarakhand,30.6284,78.0322,25.8,28,0.0,836.0,7.65,42.1,36,33.6,8.1,4,5,7,0,2026-04-18T10:39:30.903990+05:30
Shimla,Himachal Pradesh,31.1048,77.1734,24.5,28,0.0,791.9,7.2,44.6,42,36.6,8.9,0,5,7,0,2026-04-18T10:39:30.903997+05:30
Manali,Himachal Pradesh,32.2396,77.1887,21.6,36,0.0,827.5,8.35,25.2,49,46.7,8.5,0,5,7,0,2026-04-18T10:39:30.904004+05:30
Gurgaon,Haryana,28.4595,77.0266,33.7,40,0.0,983.2,7.0,22.7,527,311.1,74.7,0,5,7,1,2026-04-18T10:39:30.904010+05:30
Noida,Uttar Pradesh,28.5355,77.391,34.2,36,0.0,986.2,7.1,21.2,527,311.1,74.7,0,5,7,1,2026-04-18T10:39:30.904016+05:30
Ghaziabad,Uttar Pradesh,28.6692,77.4538,33.3,41,0.0,984.6,6.95,14.0,129,96.2,37.1,0,5,7,1,2026-04-18T10:39:30.904023+05:30
Faridabad,Haryana,28.4089,77.3178,34.8,33,0.0,985.5,6.9,25.9,527,311.1,74.7,0,5,7,1,2026-04-18T10:39:30.904049+05:30
Meerut,Uttar Pradesh,28.9845,77.7064,33.9,39,0.0,983.2,6.75,20.2,129,96.2,37.1,0,5,7,1,2026-04-18T10:39:30.904057+05:30
Agra,Uttar Pradesh,27.1767,78.0081,35.0,36,0.0,989.1,7.7,20.9,604,278.5,63.6,0,5,7,1,2026-04-18T10:39:30.904066+05:30
Varanasi,Uttar Pradesh,25.3176,82.9739,36.7,31,0.0,998.1,8.0,27.7,110,99.9,30.9,0,5,10,1,2026-04-18T10:39:30.904075+05:30
Prayagraj,Uttar Pradesh,25.4358,81.8463,36.3,31,0.0,996.8,7.95,28.1,106,76.6,33.5,0,5,10,1,2026-04-18T10:39:30.904082+05:30
Gorakhpur,Uttar Pradesh,26.7606,83.3732,33.8,54,0.0,997.6,8.2,32.0,155,78.2,62.9,0,5,7,1,2026-04-18T10:39:30.904089+05:30
Bareilly,Uttar Pradesh,28.367,79.4304,34.2,37,0.0,988.0,7.6,29.9,77,40.6,24.2,0,5,7,1,2026-04-18T10:39:30.904095+05:30
Aligarh,Uttar Pradesh,27.8974,78.088,36.7,25,0.0,987.0,7.35,25.6,172,182.5,42.8,0,5,10,0,2026-04-18T10:39:30.904102+05:30
Moradabad,Uttar Pradesh,28.8386,78.7733,34.0,38,0.0,985.1,7.45,27.4,88,39.5,25.0,0,5,7,1,2026-04-18T10:39:30.904108+05:30
Saharanpur,Uttar Pradesh,29.9637,77.546,32.7,35,0.0,977.7,7.0,21.2,101,37.3,17.9,0,5,7,0,2026-04-18T10:39:30.904113+05:30
Jhansi,Uttar Pradesh,25.4484,78.5685,36.9,28,0.0,979.3,7.75,25.9,78,73.8,21.7,0,5,10,0,2026-04-18T10:39:34.166233+05:30
Surat,Gujarat,21.1702,72.8311,31.8,56,0.0,1007.8,7.85,28.8,117,59.8,39.3,0,5,4,1,2026-04-18T10:39:34.166264+05:30
Vadodara,Gujarat,22.3072,73.1812,34.5,41,0.0,1005.8,8.15,19.8,91,53.2,23.6,0,5,4,1,2026-04-18T10:39:34.166274+05:30
Rajkot,Gujarat,22.3039,70.8022,32.1,40,0.0,996.1,7.85,29.2,60,75.2,18.0,0,5,7,1,2026-04-18T10:39:34.166281+05:30
Thane,Maharashtra,19.2183,72.9781,31.2,65,0.0,1008.6,7.8,33.5,97,100.1,42.6,3,0,4,1,2026-04-18T10:39:34.166289+05:30
Nagpur,Maharashtra,21.1458,79.0882,36.4,27,0.0,974.0,7.55,21.2,96,45.5,34.3,0,5,10,0,2026-04-18T10:39:34.166297+05:30
Nashik,Maharashtra,19.9975,73.7898,32.0,28,0.0,947.5,7.9,25.9,73,41.9,17.9,0,5,7,0,2026-04-18T10:39:34.166304+05:30
Aurangabad,Maharashtra,19.8762,75.3433,34.3,29,0.0,946.2,8.4,29.2,56,17.5,10.0,0,5,7,0,2026-04-18T10:39:34.166311+05:30
Solapur,Maharashtra,17.6599,75.9064,36.2,33,0.0,958.5,3.9,20.9,114,42.5,36.2,0,5,6,1,2026-04-18T10:39:34.166318+05:30
Kolhapur,Maharashtra,16.705,74.2433,33.3,40,0.0,949.4,8.95,43.9,80,40.7,31.7,0,5,7,1,2026-04-18T10:39:34.166325+05:30
Goa,Goa,15.2993,74.124,31.5,65,0.0,998.6,9.05,27.7,69,52.6,22.6,3,5,7,1,2026-04-18T10:39:34.166332+05:30
Jodhpur,Rajasthan,26.2389,73.0243,33.8,37,0.0,984.8,8.15,30.2,92,255.2,55.1,0,5,7,1,2026-04-18T10:39:34.166339+05:30
Udaipur,Rajasthan,24.5854,73.7125,33.8,36,0.0,949.2,8.7,29.5,34,44.0,14.0,0,5,7,1,2026-04-18T10:39:34.166346+05:30
Kota,Rajasthan,25.2138,75.8648,37.1,24,0.0,980.0,8.25,23.0,59,59.5,16.1,0,5,10,0,2026-04-18T10:39:34.166353+05:30
Bikaner,Rajasthan,28.0229,73.3119,35.4,32,0.0,982.3,7.25,29.9,71,110.8,26.7,0,5,10,1,2026-04-18T10:39:34.166359+05:30
Ajmer,Rajasthan,26.4499,74.6399,33.3,36,0.0,957.0,8.15,33.5,53,75.4,18.2,0,5,7,1,2026-04-18T10:39:34.166366+05:30
Gwalior,Madhya Pradesh,26.2183,78.1828,37.3,27,0.0,984.5,7.95,25.2,119,137.4,32.5,0,5,10,0,2026-04-18T10:39:34.166373+05:30
Indore,Madhya Pradesh,22.7196,75.8577,33.7,26,0.0,950.5,8.2,25.6,60,15.9,8.3,0,5,7,0,2026-04-18T10:39:34.166379+05:30
Bhopal,Madhya Pradesh,23.2599,77.4126,35.7,23,0.0,955.7,7.75,23.8,65,12.0,9.0,0,5,10,0,2026-04-18T10:39:34.166386+05:30
Jabalpur,Madhya Pradesh,23.1815,79.9864,35.2,32,0.0,962.7,8.05,27.0,71,55.3,17.8,0,5,10,0,2026-04-18T10:39:34.166393+05:30
Ujjain,Madhya Pradesh,23.1765,75.7885,34.0,25,0.0,956.1,8.45,23.8,59,19.4,10.0,0,5,7,0,2026-04-18T10:39:34.166400+05:30
Visakhapatnam,Andhra Pradesh,17.6868,83.2185,32.3,65,0.0,1005.1,9.15,35.3,57,31.4,21.1,3,5,4,1,2026-04-18T10:39:34.166407+05:30
Vijayawada,Andhra Pradesh,16.5062,80.648,32.6,64,0.0,1003.9,9.2,25.6,54,25.0,15.6,3,5,4,1,2026-04-18T10:39:34.166414+05:30
Guntur,Andhra Pradesh,16.3067,80.4365,33.2,61,0.0,1004.9,9.25,29.5,58,23.6,15.3,3,5,4,1,2026-04-18T10:39:34.166421+05:30
Nellore,Andhra Pradesh,14.4426,79.9865,34.1,54,0.0,1006.5,8.75,32.0,56,18.0,12.7,0,5,4,1,2026-04-18T10:39:34.166428+05:30
Kurnool,Andhra Pradesh,15.8281,78.0373,37.4,35,0.0,977.7,9.2,31.3,88,39.7,33.4,0,5,10,1,2026-04-18T10:39:34.166437+05:30
Kakinada,Andhra Pradesh,16.9891,82.2475,33.5,61,0.0,1008.6,9.15,27.0,48,27.6,16.5,3,0,4,1,2026-04-18T10:39:34.166444+05:30
Tirupati,Andhra Pradesh,13.6288,79.4192,32.7,59,0.0,993.2,8.65,32.0,71,16.7,12.4,0,5,7,1,2026-04-18T10:39:34.166455+05:30
Warangal,Telangana,17.9689,79.5941,32.7,57,0.0,980.4,9.0,27.0,84,28.9,24.2,0,5,7,1,2026-04-18T10:39:34.166461+05:30
Nizamabad,Telangana,18.6725,78.0941,37.3,30,0.0,966.3,8.75,31.3,115,42.5,37.1,0,5,10,1,2026-04-18T10:39:34.166468+05:30
Mysore,Karnataka,12.2958,76.6396,31.0,51,0.0,930.3,8.95,40.3,94,41.1,33.2,0,5,7,1,2026-04-18T10:39:34.166475+05:30
Mangalore,Karnataka,12.9141,74.856,29.5,79,0.0,1007.4,9.1,21.6,68,31.3,18.5,7,5,4,1,2026-04-18T10:39:34.166482+05:30
Hubli-Dharwad,Karnataka,15.3647,75.124,28.7,72,0.0,942.5,9.25,29.5,70,24.8,17.3,7,5,7,1,2026-04-18T10:39:34.166489+05:30
Belgaum,Karnataka,15.8497,74.4977,30.6,48,0.0,927.3,9.3,29.2,68,39.0,26.0,0,5,7,1,2026-04-18T10:39:37.424781+05:30
Coimbatore,Tamil Nadu,11.0168,76.9558,32.2,54,0.0,963.4,9.25,30.2,105,38.0,30.0,0,5,7,1,2026-04-18T10:39:37.424811+05:30
Madurai,Tamil Nadu,9.9252,78.1198,33.4,49,0.0,994.4,9.35,32.8,80,19.7,16.4,0,5,7,1,2026-04-18T10:39:37.424820+05:30
Trichy,Tamil Nadu,10.7905,78.7047,32.8,58,0.0,1001.1,9.35,18.4,71,13.8,10.0,0,5,4,1,2026-04-18T10:39:37.424829+05:30
Salem,Tamil Nadu,11.6643,78.146,32.3,61,0.0,978.9,9.4,18.4,88,27.1,21.8,3,5,7,1,2026-04-18T10:39:37.424837+05:30
Tirunelveli,Tamil Nadu,8.7139,77.7567,35.1,44,0.0,1004.2,9.25,48.2,95,23.8,20.0,0,5,7,1,2026-04-18T10:39:37.424845+05:30
Vellore,Tamil Nadu,12.9165,79.1325,31.3,63,0.0,986.2,9.05,27.0,95,20.0,15.9,3,5,7,1,2026-04-18T10:39:37.424852+05:30
Erode,Tamil Nadu,11.341,77.7172,34.1,54,0.0,990.3,9.3,25.6,76,24.0,19.2,0,5,7,1,2026-04-18T10:39:37.424859+05:30
Kochi,Kerala,9.9312,76.2673,29.1,82,0.0,1009.4,9.15,28.8,94,35.6,24.7,7,0,4,1,2026-04-18T10:39:37.424866+05:30
Thiruvananthapuram,Kerala,8.5241,76.9366,28.9,83,0.0,1008.6,9.1,26.6,82,41.9,29.3,7,0,4,1,2026-04-18T10:39:37.424874+05:30
Kozhikode,Kerala,11.2588,75.7804,31.2,73,0.0,1008.4,8.5,29.9,79,28.2,19.4,3,0,4,1,2026-04-18T10:39:37.424880+05:30
Thrissur,Kerala,10.5276,76.2144,33.2,64,0.0,1007.6,8.65,37.8,87,36.0,25.4,3,5,4,1,2026-04-18T10:39:37.424887+05:30
Kannur,Kerala,11.8745,75.3704,32.4,65,0.0,1007.6,8.65,31.3,75,34.2,23.5,3,5,4,1,2026-04-18T10:39:37.424894+05:30
Patna,Bihar,25.5941,85.1376,34.3,59,0.0,1000.4,8.6,27.4,151,73.8,62.6,0,5,4,1,2026-04-18T10:39:37.424901+05:30
Gaya,Bihar,24.7914,85.0002,37.5,32,0.0,993.7,8.6,33.1,114,63.6,32.5,0,5,10,1,2026-04-18T10:39:37.424907+05:30
Muzaffarpur,Bihar,26.1209,85.3647,33.3,62,0.0,1000.8,8.6,31.0,153,76.8,68.7,3,5,4,1,2026-04-18T10:39:37.424914+05:30
Bhagalpur,Bihar,25.2425,87.0117,32.7,70,0.0,1001.3,8.4,31.3,155,57.6,50.6,3,5,4,1,2026-04-18T10:39:37.424920+05:30
Ranchi,Jharkhand,23.3441,85.3096,34.3,37,0.0,940.2,9.15,38.5,83,65.9,25.2,0,5,7,1,2026-04-18T10:39:37.424927+05:30
Jamshedpur,Jharkhand,22.8046,86.2029,33.5,65,0.0,992.1,9.0,45.4,95,53.3,46.6,3,5,7,1,2026-04-18T10:39:37.424933+05:30
Dhanbad,Jharkhand,23.7957,86.4304,34.1,58,0.0,980.7,8.95,33.8,150,66.6,58.7,0,5,7,1,2026-04-18T10:39:37.424940+05:30
Bokaro,Jharkhand,23.6693,86.1511,34.1,58,0.0,984.8,8.95,37.4,154,69.4,53.0,0,5,7,1,2026-04-18T10:39:37.424947+05:30
Bhubaneswar,Odisha,20.2961,85.8245,33.1,66,0.0,1004.1,8.65,30.6,60,29.8,20.9,3,5,4,1,2026-04-18T10:39:37.424954+05:30
Cuttack,Odisha,20.4625,85.8828,34.0,64,0.0,1006.0,8.75,29.9,60,29.8,20.9,3,5,4,1,2026-04-18T10:39:37.424961+05:30
Rourkela,Odisha,22.2604,84.8536,36.3,52,0.0,986.3,8.45,48.2,131,68.0,52.7,0,5,10,1,2026-04-18T10:39:37.424967+05:30
Raipur,Chhattisgarh,21.2514,81.6296,37.5,39,0.0,975.5,8.95,34.6,123,52.4,44.9,0,5,10,1,2026-04-18T10:39:37.424974+05:30
Bhilai,Chhattisgarh,21.1938,81.3509,36.8,43,0.0,975.9,8.95,36.7,135,50.5,45.9,0,5,10,1,2026-04-18T10:39:37.424980+05:30
Guwahati,Assam,26.1158,91.7086,30.6,69,0.0,1003.4,8.5,23.8,151,66.1,46.3,3,5,4,1,2026-04-18T10:39:37.424987+05:30
Agartala,Tripura,23.8315,91.2868,31.4,71,0.0,1008.4,8.7,19.8,132,28.5,21.5,3,0,4,1,2026-04-18T10:39:37.424993+05:30
Shillong,Meghalaya,25.5788,91.8933,22.2,46,0.0,860.3,7.95,28.8,134,65.2,41.2,0,5,7,0,2026-04-18T10:39:37.425000+05:30
Imphal,Manipur,24.817,93.9368,24.7,67,0.0,926.2,9.1,45.7,158,65.4,38.3,3,5,7,1,2026-04-18T10:39:37.425007+05:30
Aizawl,Mizoram,23.7271,92.7176,27.9,49,0.0,896.5,8.9,34.2,133,64.7,34.6,4,5,7,1,2026-04-18T10:39:37.425013+05:30
Kohima,Nagaland,25.6701,94.1077,20.3,85,0.0,858.6,8.45,48.6,136,76.4,47.6,3,5,7,1,2026-04-18T10:39:37.425020+05:30
Gangtok,Sikkim,27.3314,88.6138,19.8,80,0.0,841.3,8.85,20.2,130,50.9,31.5,3,5,7,1,2026-04-18T10:39:37.425027+05:30
Siliguri,West Bengal,26.7271,88.3953,24.8,79,0.0,996.9,6.55,19.8,164,105.9,64.5,3,5,7,1,2026-04-18T10:39:40.693809+05:30
Durgapur,West Bengal,23.5204,87.3119,33.7,63,0.0,995.9,8.85,52.9,117,48.1,44.4,3,5,7,1,2026-04-18T10:39:40.693840+05:30
Asansol,West Bengal,23.6739,86.9524,34.0,62,0.0,994.4,8.9,49.3,118,51.6,48.2,3,5,7,1,2026-04-18T10:39:40.693850+05:30
Pondicherry,Puducherry,11.9139,79.8145,32.6,63,0.0,1009.8,8.7,26.3,39,13.9,8.7,3,0,4,1,2026-04-18T10:39:40.693858+05:30
Port Blair,Andaman and Nicobar Islands,11.6234,92.7265,29.1,71,0.0,1008.3,9.2,10.4,43,17.9,13.0,7,0,4,1,2026-04-18T10:39:40.693867+05:30
Haridwar,Uttarakhand,29.9457,78.1642,33.6,34,0.0,976.0,7.0,30.2,62,32.5,12.0,0,5,7,0,2026-04-18T10:39:40.693875+05:30
Rishikesh,Uttarakhand,30.0869,78.2676,33.7,31,0.0,969.0,7.2,36.0,54,34.7,9.2,0,5,7,0,2026-04-18T10:39:40.693883+05:30
Nainital,Uttarakhand,29.3919,79.4542,29.8,23,0.0,812.8,7.9,60.5,56,42.8,11.9,4,5,7,0,2026-04-18T10:39:40.693891+05:30
Mussoorie,Uttarakhand,30.4599,78.0664,27.3,26,0.0,809.4,7.55,42.8,57,37.5,9.7,4,5,7,0,2026-04-18T10:39:40.693898+05:30
Dharamshala,Himachal Pradesh,32.219,76.3234,27.1,35,0.0,873.9,6.9,38.9,38,36.0,8.4,4,5,7,0,2026-04-18T10:39:40.693905+05:30
Dalhousie,Himachal Pradesh,32.5387,75.971,20.0,45,0.0,808.9,6.95,36.0,53,35.3,9.6,0,5,7,0,2026-04-18T10:39:40.693913+05:30
Patiala,Punjab,30.3398,76.3869,31.6,37,0.0,980.4,7.0,19.4,135,260.8,41.7,0,5,7,0,2026-04-18T10:39:40.693921+05:30
Bhatinda,Punjab,30.211,74.9455,33.4,29,0.0,986.1,7.65,32.8,76,74.5,19.6,0,5,7,0,2026-04-18T10:39:40.693927+05:30
Rohtak,Haryana,28.8955,76.6066,32.5,44,0.0,983.6,6.9,15.8,338,249.6,65.4,0,5,7,1,2026-04-18T10:39:40.693935+05:30
Panipat,Haryana,29.3909,76.9635,33.2,40,0.0,982.5,7.05,11.2,588,290.6,61.5,0,5,7,1,2026-04-18T10:39:40.693942+05:30
Mathura,Uttar Pradesh,27.4924,77.6737,35.4,34,0.0,988.3,7.6,24.5,529,175.1,44.9,0,5,10,1,2026-04-18T10:39:40.693949+05:30
Vrindavan,Uttar Pradesh,27.5823,77.7027,35.7,32,0.0,988.7,7.45,25.6,529,175.1,44.9,0,5,10,1,2026-04-18T10:39:40.693956+05:30
Ayodhya,Uttar Pradesh,26.7922,82.1998,35.0,40,0.0,995.9,7.75,37.8,143,89.6,52.0,0,5,7,1,2026-04-18T10:39:40.693963+05:30
Ratlam,Madhya Pradesh,23.3315,75.0367,31.5,41,0.0,956.7,8.2,23.4,52,22.9,10.4,0,5,7,1,2026-04-18T10:39:40.693970+05:30
Sagar,Madhya Pradesh,23.8388,78.7378,36.6,30,0.0,952.0,8.0,31.0,65,53.0,18.7,0,5,10,1,2026-04-18T10:39:40.693977+05:30
Satna,Madhya Pradesh,24.6005,80.8322,38.0,20,0.0,972.7,8.45,20.2,68,74.3,22.1,0,5,10,0,2026-04-18T10:39:40.693984+05:30
Akola,Maharashtra,20.7002,77.0082,36.7,25,0.0,976.3,8.4,29.9,65,19.8,12.7,0,5,10,0,2026-04-18T10:39:40.693991+05:30
Amravati,Maharashtra,20.9374,77.7796,36.1,27,0.0,968.6,7.95,17.3,66,19.5,12.5,0,5,10,0,2026-04-18T10:39:40.693999+05:30
Latur,Maharashtra,18.4088,76.5604,33.2,35,0.0,942.1,8.95,14.4,107,29.9,21.7,0,5,7,0,2026-04-18T10:39:40.694006+05:30
Nanded,Maharashtra,19.1383,77.3091,35.5,33,0.0,970.0,8.7,18.0,87,25.3,16.4,0,5,10,1,2026-04-18T10:39:40.694013+05:30
Gulbarga,Karnataka,17.3297,76.8343,35.6,35,0.0,960.3,9.05,46.8,90,40.3,35.4,0,5,10,1,2026-04-18T10:39:40.694019+05:30
Bidar,Karnataka,17.9104,77.5199,34.8,37,0.0,937.7,9.05,34.2,100,37.1,31.5,0,5,7,1,2026-04-18T10:39:40.694027+05:30
Hospet,Karnataka,15.2689,76.3909,30.7,62,0.0,957.2,9.25,21.2,98,26.4,21.1,3,5,7,1,2026-04-18T10:39:40.694054+05:30
Tirupur,Tamil Nadu,11.1085,77.3411,33.3,53,0.0,976.6,9.25,31.3,88,31.5,25.8,0,5,7,1,2026-04-18T10:39:40.694063+05:30
Alappuzha,Kerala,9.4981,76.3388,29.3,80,0.0,1009.5,9.05,25.2,99,38.4,27.0,7,0,4,1,2026-04-18T10:39:40.694070+05:30
Munnar,Kerala,10.0889,77.0595,28.3,56,0.0,860.1,9.7,23.8,92,30.9,23.1,4,5,7,1,2026-04-18T10:39:40.694078+05:30
Silchar,Assam,24.8333,92.7789,30.4,66,0.0,1007.4,8.75,21.6,161,68.7,49.1,3,5,4,1,2026-04-18T10:39:40.694085+05:30
Dibrugarh,Assam,27.4728,94.912,29.5,70,0.0,997.4,8.65,13.7,131,68.0,45.2,7,5,7,1,2026-04-18T10:39:40.694093+05:30
