city,state,latitude,longitude,temp,humidity,rain,pressure,uv_index,wind_gusts,aqi,pm10,pm2_5,no2,co,o3,so2,mosquito_risk,arthritis_risk,migraine_risk,frizz_risk,updated_at
Delhi,Delhi,28.6139,77.209,30.5,64,0.0,977.9,7.8,27.7,246,434.9,131.3,67.9,835.0,25.0,30.8,3,5,7,1,2026-06-14T21:54:29.669533+05:30
Mumbai,Maharashtra,19.076,72.8777,30.2,73,0.0,1008.4,7.7,49.3,67,33.6,16.5,3.5,142.0,49.0,3.0,3,0,4,1,2026-06-14T21:54:29.669570+05:30
Bangalore,Karnataka,12.9716,77.5946,23.3,77,0.0,912.4,7.85,41.8,47,14.6,10.7,19.0,442.0,42.0,6.0,3,5,7,1,2026-06-14T21:54:29.669585+05:30
Hyderabad,Telangana,17.385,78.4867,27.9,67,0.0,951.2,3.85,40.3,81,86.8,49.8,39.6,883.0,37.0,12.1,7,5,3,1,2026-06-14T21:54:29.669595+05:30
Chennai,Tamil Nadu,13.0827,80.2707,30.1,69,0.0,1005.9,8.9,43.6,99,34.7,22.5,10.7,254.0,103.0,7.7,3,5,4,1,2026-06-14T21:54:29.669603+05:30
Kolkata,West Bengal,22.5726,88.3639,28.0,89,0.0,1002.4,9.0,41.4,121,41.8,38.6,14.3,423.0,81.0,11.0,7,5,4,1,2026-06-14T21:54:29.669612+05:30
Pune,Maharashtra,18.5204,73.8567,25.5,80,0.0,948.5,8.3,53.3,55,19.7,12.0,6.8,140.0,50.0,7.6,7,5,7,1,2026-06-14T21:54:29.669619+05:30
Ahmedabad,Gujarat,23.0225,72.5714,33.9,44,0.0,999.2,8.05,46.8,68,40.9,18.7,3.2,131.0,68.0,3.0,0,5,7,1,2026-06-14T21:54:29.669626+05:30
Jaipur,Rajasthan,26.9124,75.7873,28.5,63,0.0,955.7,8.2,36.7,131,120.1,49.6,15.1,325.0,57.0,6.6,7,5,7,1,2026-06-14T21:54:29.669637+05:30
Lucknow,Uttar Pradesh,26.8467,80.9462,29.9,72,0.0,988.6,8.35,30.2,156,317.6,99.4,22.4,516.0,69.0,12.7,7,5,7,1,2026-06-14T21:54:29.669645+05:30
Kanpur,Uttar Pradesh,26.4499,80.3319,34.2,41,0.0,987.1,8.3,34.9,195,430.3,104.1,24.8,399.0,60.0,10.0,0,5,7,1,2026-06-14T21:54:29.669651+05:30
Chandigarh,Chandigarh,30.7333,76.7794,26.9,67,0.0,963.2,7.8,21.6,108,46.3,35.2,32.5,729.0,86.0,14.8,7,5,7,1,2026-06-14T21:54:29.669658+05:30
Srinagar,Jammu and Kashmir,34.0837,74.7973,17.8,79,0.0,838.8,9.0,18.0,81,33.6,29.1,23.5,773.0,65.0,3.5,3,5,7,0,2026-06-14T21:54:29.669665+05:30
Jammu,Jammu and Kashmir,32.7266,74.857,30.8,38,0.0,967.0,8.6,26.3,117,43.8,34.7,39.5,443.0,74.0,6.0,0,5,7,0,2026-06-14T21:54:29.669672+05:30
Amritsar,Punjab,31.634,74.8723,27.9,71,0.0,974.8,8.4,19.1,106,76.4,61.7,56.2,674.0,54.0,11.0,7,5,7,1,2026-06-14T21:54:29.669679+05:30
Ludhiana,Punjab,30.901,75.8573,29.5,60,0.0,972.8,8.05,18.4,107,104.1,57.6,42.2,718.0,48.0,8.4,4,5,7,1,2026-06-14T21:54:29.669685+05:30
Jalandhar,Punjab,31.326,75.5762,29.1,69,0.0,973.9,8.2,22.3,99,53.9,40.7,31.5,840.0,64.0,5.7,7,5,7,1,2026-06-14T21:54:29.669691+05:30
Dehradun,Uttarakhand,30.6284,78.0322,16.3,82,0.0,826.6,8.3,32.8,68,19.0,11.2,13.2,228.0,85.0,0.8,3,10,7,0,2026-06-14T21:54:29.669701+05:30
Shimla,Himachal Pradesh,31.1048,77.1734,13.8,77,0.0,780.8,8.35,33.8,108,31.4,21.4,18.9,284.0,83.0,4.5,3,5,7,0,2026-06-14T21:54:29.669709+05:30
Manali,Himachal Pradesh,32.2396,77.1887,14.9,81,0.0,815.2,10.0,42.5,84,3.4,3.0,29.4,208.0,91.0,0.1,3,10,7,0,2026-06-14T21:54:29.669716+05:30
Gurgaon,Haryana,28.4595,77.0266,30.0,62,0.0,976.3,7.85,29.5,418,480.6,130.9,67.4,669.0,28.0,29.5,7,5,7,1,2026-06-14T21:54:29.669723+05:30
Noida,Uttar Pradesh,28.5355,77.391,29.4,64,0.0,979.2,7.85,26.3,418,480.6,130.9,67.4,1140.0,28.0,29.5,7,5,7,1,2026-06-14T21:54:29.669730+05:30
Ghaziabad,Uttar Pradesh,28.6692,77.4538,28.9,70,0.0,977.4,7.8,25.9,188,437.7,131.3,43.8,524.0,53.0,20.6,7,5,7,1,2026-06-14T21:54:29.669736+05:30
Faridabad,Haryana,28.4089,77.3178,30.4,62,0.0,978.6,7.85,31.0,418,480.6,130.9,67.4,1205.0,28.0,29.5,3,5,7,1,2026-06-14T21:54:29.669743+05:30
Meerut,Uttar Pradesh,28.9845,77.7064,28.7,69,0.0,976.1,7.7,30.6,188,437.7,131.3,43.8,445.0,53.0,20.6,7,5,7,1,2026-06-14T21:54:29.669749+05:30
Agra,Uttar Pradesh,27.1767,78.0081,32.6,45,0.0,983.1,8.15,32.8,295,348.3,83.6,34.3,353.0,44.0,12.1,0,5,7,1,2026-06-14T21:54:29.669755+05:30
Varanasi,Uttar Pradesh,25.3176,82.9739,33.1,57,0.0,993.3,8.8,37.1,168,142.5,71.2,31.8,520.0,74.0,18.1,0,5,7,1,2026-06-14T21:54:29.669762+05:30
Prayagraj,Uttar Pradesh,25.4358,81.8463,33.4,45,0.0,991.5,8.7,35.3,164,172.8,79.4,38.5,592.0,60.0,18.9,0,5,7,1,2026-06-14T21:54:29.669768+05:30
Gorakhpur,Uttar Pradesh,26.7606,83.3732,29.8,67,0.0,992.5,8.7,29.2,152,85.0,63.1,36.3,410.0,64.0,17.1,7,5,7,1,2026-06-14T21:54:29.669780+05:30
Bareilly,Uttar Pradesh,28.367,79.4304,28.5,67,0.0,981.5,8.15,35.3,159,150.4,68.5,20.0,313.0,82.0,12.6,7,5,7,1,2026-06-14T21:54:29.669786+05:30
Aligarh,Uttar Pradesh,27.8974,78.088,29.9,62,0.0,980.4,8.0,36.7,360,491.7,133.6,33.9,446.0,70.0,15.4,7,5,7,1,2026-06-14T21:54:29.669792+05:30
Moradabad,Uttar Pradesh,28.8386,78.7733,29.0,70,0.0,978.2,7.95,38.5,160,235.2,105.7,45.0,475.0,44.0,15.2,7,5,7,1,2026-06-14T21:54:29.669798+05:30
Saharanpur,Uttar Pradesh,29.9637,77.546,27.8,63,0.0,970.1,7.55,27.7,151,131.8,63.3,32.2,555.0,67.0,14.6,7,5,7,1,2026-06-14T21:54:29.669806+05:30
Jhansi,Uttar Pradesh,25.4484,78.5685,31.0,51,0.0,974.4,8.5,54.0,89,82.4,36.1,7.3,162.0,63.0,4.0,0,5,7,1,2026-06-14T21:54:33.032120+05:30
Surat,Gujarat,21.1702,72.8311,30.1,80,0.0,1004.6,7.55,57.2,75,34.3,21.1,15.5,223.0,38.0,25.8,3,5,4,1,2026-06-14T21:54:33.032148+05:30
Vadodara,Gujarat,22.3072,73.1812,31.6,64,0.0,1001.4,8.0,49.3,76,33.5,22.5,15.3,160.0,46.0,14.6,3,5,4,1,2026-06-14T21:54:33.032158+05:30
Rajkot,Gujarat,22.3039,70.8022,30.8,60,0.0,992.3,7.55,57.2,67,38.0,15.5,3.9,104.0,53.0,4.4,0,5,7,1,2026-06-14T21:54:33.032166+05:30
Thane,Maharashtra,19.2183,72.9781,29.5,78,0.0,1007.7,7.65,45.0,67,33.6,16.5,3.5,138.0,49.0,3.0,7,5,4,1,2026-06-14T21:54:33.032174+05:30
Nagpur,Maharashtra,21.1458,79.0882,31.5,51,0.0,970.9,8.9,43.9,109,79.6,42.7,17.7,441.0,62.0,15.4,0,5,7,1,2026-06-14T21:54:33.032181+05:30
Nashik,Maharashtra,19.9975,73.7898,26.1,74,0.0,945.3,8.05,55.4,57,28.0,14.3,2.4,117.0,49.0,1.3,7,5,7,1,2026-06-14T21:54:33.032220+05:30
Aurangabad,Maharashtra,19.8762,75.3433,29.7,48,0.0,944.0,8.95,56.2,59,34.6,17.6,4.1,124.0,59.0,3.6,4,5,7,1,2026-06-14T21:54:33.032231+05:30
Solapur,Maharashtra,17.6599,75.9064,30.8,50,0.0,956.8,8.9,52.2,63,34.3,19.7,3.7,128.0,85.0,4.1,0,5,7,1,2026-06-14T21:54:33.032238+05:30
Kolhapur,Maharashtra,16.705,74.2433,24.8,84,0.0,948.8,8.75,49.3,44,18.9,11.9,5.9,170.0,44.0,2.8,3,5,7,1,2026-06-14T21:54:33.032246+05:30
Goa,Goa,15.2993,74.124,28.2,80,0.0,999.0,6.65,34.6,63,37.8,20.0,4.1,488.0,45.0,1.7,7,5,7,1,2026-06-14T21:54:33.032253+05:30
Jodhpur,Rajasthan,26.2389,73.0243,34.3,39,0.0,978.6,8.45,45.4,160,226.3,54.7,5.2,167.0,65.0,3.3,0,5,7,1,2026-06-14T21:54:33.032260+05:30
Udaipur,Rajasthan,24.5854,73.7125,30.1,50,0.0,943.9,8.85,48.6,77,44.5,20.4,3.7,139.0,65.0,2.3,0,5,7,1,2026-06-14T21:54:33.032267+05:30
Kota,Rajasthan,25.2138,75.8648,27.5,71,0.0,976.4,8.35,41.8,110,77.8,38.4,7.4,218.0,70.0,4.6,7,5,7,1,2026-06-14T21:54:33.032277+05:30
Bikaner,Rajasthan,28.0229,73.3119,34.3,32,0.0,975.8,8.45,35.6,152,227.7,79.4,2.8,171.0,79.0,3.3,0,5,7,0,2026-06-14T21:54:33.032287+05:30
Ajmer,Rajasthan,26.4499,74.6399,28.6,65,0.0,950.5,8.35,39.6,114,127.6,46.9,6.5,224.0,70.0,3.8,7,5,7,1,2026-06-14T21:54:33.032294+05:30
Gwalior,Madhya Pradesh,26.2183,78.1828,31.7,42,0.0,979.3,8.3,50.8,100,99.0,41.3,7.7,144.0,65.0,3.8,0,5,7,1,2026-06-14T21:54:33.032302+05:30
Indore,Madhya Pradesh,22.7196,75.8577,27.7,60,0.0,946.7,8.6,47.9,80,80.6,40.9,9.8,657.0,65.0,6.4,4,5,7,1,2026-06-14T21:54:33.032308+05:30
Bhopal,Madhya Pradesh,23.2599,77.4126,27.6,72,0.0,951.5,8.65,52.6,99,61.2,37.5,15.5,341.0,53.0,5.2,7,5,7,1,2026-06-14T21:54:33.032315+05:30
Jabalpur,Madhya Pradesh,23.1815,79.9864,29.7,55,0.0,958.9,8.75,28.1,94,71.0,37.5,8.1,297.0,76.0,4.1,4,5,7,1,2026-06-14T21:54:33.032321+05:30
Ujjain,Madhya Pradesh,23.1765,75.7885,29.0,54,0.0,952.2,8.55,55.4,79,88.9,38.5,4.2,477.0,81.0,5.1,4,5,7,1,2026-06-14T21:54:33.032328+05:30
Visakhapatnam,Andhra Pradesh,17.6868,83.2185,30.9,72,0.0,999.6,8.95,41.0,107,68.0,48.0,29.1,670.0,67.0,39.3,3,5,7,1,2026-06-14T21:54:33.032335+05:30
Vijayawada,Andhra Pradesh,16.5062,80.648,30.2,68,0.0,999.7,5.7,45.0,90,48.4,38.2,16.6,342.0,52.0,7.8,3,5,3,1,2026-06-14T21:54:33.032342+05:30
Guntur,Andhra Pradesh,16.3067,80.4365,29.8,66,0.0,1000.9,3.25,46.8,85,41.9,33.1,16.1,355.0,52.0,7.0,7,5,0,1,2026-06-14T21:54:33.032349+05:30
Nellore,Andhra Pradesh,14.4426,79.9865,30.0,64,0.0,1004.0,8.45,45.0,66,53.4,34.7,14.1,401.0,75.0,6.8,7,5,4,1,2026-06-14T21:54:33.032356+05:30
Kurnool,Andhra Pradesh,15.8281,78.0373,28.6,64,0.0,974.9,1.45,39.6,72,81.5,42.1,22.2,248.0,64.0,9.6,7,5,3,1,2026-06-14T21:54:33.032364+05:30
Kakinada,Andhra Pradesh,16.9891,82.2475,30.4,69,0.0,1003.9,8.8,46.1,92,57.4,40.0,10.0,388.0,85.0,7.4,3,5,4,1,2026-06-14T21:54:33.032370+05:30
Tirupati,Andhra Pradesh,13.6288,79.4192,28.5,66,0.0,989.9,7.85,37.1,64,60.5,42.7,35.3,520.0,33.0,6.7,7,5,7,1,2026-06-14T21:54:33.032377+05:30
Warangal,Telangana,17.9689,79.5941,29.6,65,0.0,976.1,8.6,41.8,107,81.5,57.3,30.0,286.0,35.0,8.5,7,5,7,1,2026-06-14T21:54:33.032383+05:30
Nizamabad,Telangana,18.6725,78.0941,30.0,50,0.0,962.3,8.9,41.8,85,85.7,40.5,15.5,485.0,53.0,4.5,4,5,7,1,2026-06-14T21:54:33.032389+05:30
Mysore,Karnataka,12.2958,76.6396,22.7,86,0.0,929.7,8.8,40.3,33,10.3,8.3,12.5,182.0,39.0,2.9,3,5,7,1,2026-06-14T21:54:33.032396+05:30
Mangalore,Karnataka,12.9141,74.856,26.6,90,0.0,1008.5,8.2,31.3,53,28.6,18.4,12.3,326.0,32.0,4.2,7,0,4,1,2026-06-14T21:54:33.032403+05:30
Hubli-Dharwad,Karnataka,15.3647,75.124,24.1,86,0.0,941.6,5.45,49.7,43,17.2,9.6,5.0,147.0,47.0,1.7,3,5,3,1,2026-06-14T21:54:33.032410+05:30
Belgaum,Karnataka,15.8497,74.4977,23.0,88,0.0,926.6,6.55,50.0,40,21.8,12.8,7.1,132.0,37.0,1.7,3,5,7,1,2026-06-14T21:54:36.386323+05:30
Coimbatore,Tamil Nadu,11.0168,76.9558,25.0,87,0.0,962.9,8.65,51.5,31,11.2,8.6,8.4,207.0,42.0,3.3,7,5,7,1,2026-06-14T21:54:36.386355+05:30
Madurai,Tamil Nadu,9.9252,78.1198,31.0,57,0.0,993.3,8.8,42.1,59,24.6,18.2,26.3,200.0,25.0,6.4,0,5,7,1,2026-06-14T21:54:36.386365+05:30
Trichy,Tamil Nadu,10.7905,78.7047,31.5,54,0.0,1000.2,7.9,58.0,53,26.0,19.2,16.3,142.0,55.0,5.3,0,5,4,1,2026-06-14T21:54:36.386375+05:30
Salem,Tamil Nadu,11.6643,78.146,27.9,74,0.0,978.1,8.75,32.8,59,24.4,13.6,11.8,438.0,54.0,8.6,7,5,7,1,2026-06-14T21:54:36.386383+05:30
Tirunelveli,Tamil Nadu,8.7139,77.7567,28.9,66,0.0,1003.9,8.3,47.9,42,14.4,9.7,5.3,161.0,52.0,2.2,7,5,4,1,2026-06-14T21:54:36.386392+05:30
Vellore,Tamil Nadu,12.9165,79.1325,28.7,65,0.0,983.6,8.55,48.6,61,31.8,20.4,10.8,299.0,66.0,3.3,7,5,7,1,2026-06-14T21:54:36.386400+05:30
Erode,Tamil Nadu,11.341,77.7172,27.6,75,0.0,989.8,8.35,45.7,47,14.3,10.4,9.6,189.0,51.0,3.3,7,5,7,1,2026-06-14T21:54:36.386407+05:30
Kochi,Kerala,9.9312,76.2673,26.9,90,0.0,1010.8,8.35,32.4,59,31.0,25.8,21.6,259.0,21.0,6.6,7,0,4,1,2026-06-14T21:54:36.386414+05:30
Thiruvananthapuram,Kerala,8.5241,76.9366,26.2,89,0.0,1010.0,7.95,42.5,44,21.4,11.3,3.1,150.0,53.0,1.5,7,0,4,1,2026-06-14T21:54:36.386422+05:30
Kozhikode,Kerala,11.2588,75.7804,25.9,92,0.0,1009.8,8.3,32.8,30,23.9,11.0,1.7,266.0,58.0,1.2,7,0,4,1,2026-06-14T21:54:36.386429+05:30
Thrissur,Kerala,10.5276,76.2144,26.1,92,0.0,1009.1,8.5,33.1,59,27.5,21.5,14.1,314.0,31.0,4.7,7,0,4,1,2026-06-14T21:54:36.386438+05:30
Kannur,Kerala,11.8745,75.3704,26.7,89,0.0,1009.1,7.95,31.3,46,23.3,14.6,12.0,310.0,32.0,3.0,7,0,4,1,2026-06-14T21:54:36.386445+05:30
Patna,Bihar,25.5941,85.1376,29.8,80,0.0,995.9,8.9,28.8,170,119.7,84.1,45.1,755.0,59.0,22.6,7,5,7,1,2026-06-14T21:54:36.386452+05:30
Gaya,Bihar,24.7914,85.0002,30.2,63,0.0,989.6,8.9,30.6,165,127.1,88.0,31.1,789.0,82.0,17.4,3,5,7,1,2026-06-14T21:54:36.386460+05:30
Muzaffarpur,Bihar,26.1209,85.3647,30.3,75,0.0,995.9,8.85,22.7,170,128.1,95.9,46.2,750.0,56.0,20.9,3,5,7,1,2026-06-14T21:54:36.386468+05:30
Bhagalpur,Bihar,25.2425,87.0117,30.7,78,0.0,996.5,8.8,22.0,157,107.3,84.8,21.6,579.0,103.0,16.0,3,5,7,1,2026-06-14T21:54:36.386476+05:30
Ranchi,Jharkhand,23.3441,85.3096,24.7,75,0.0,934.7,7.75,40.7,131,58.2,43.7,9.1,231.0,97.0,4.8,3,5,7,1,2026-06-14T21:54:36.386483+05:30
Jamshedpur,Jharkhand,22.8046,86.2029,26.8,89,0.0,987.3,8.9,37.4,163,65.0,52.0,16.0,301.0,104.0,23.5,7,5,7,1,2026-06-14T21:54:36.386491+05:30
Dhanbad,Jharkhand,23.7957,86.4304,29.0,69,0.0,976.2,8.9,22.7,169,112.9,91.5,41.4,909.0,104.0,104.6,7,5,7,1,2026-06-14T21:54:36.386498+05:30
Bokaro,Jharkhand,23.6693,86.1511,28.3,74,0.0,979.8,8.9,31.3,165,103.8,75.0,32.7,341.0,104.0,83.8,7,5,7,1,2026-06-14T21:54:36.386505+05:30
Bhubaneswar,Odisha,20.2961,85.8245,28.3,91,0.0,998.8,8.95,37.1,112,73.3,63.3,29.4,635.0,70.0,13.1,7,5,7,1,2026-06-14T21:54:36.386512+05:30
Cuttack,Odisha,20.4625,85.8828,28.1,95,0.0,1000.5,8.8,41.0,112,73.3,63.3,29.4,569.0,70.0,13.1,7,5,4,1,2026-06-14T21:54:36.386519+05:30
Rourkela,Odisha,22.2604,84.8536,27.0,92,0.0,981.9,8.75,36.4,148,68.7,48.0,14.4,428.0,86.0,6.3,7,5,7,1,2026-06-14T21:54:36.386526+05:30
Raipur,Chhattisgarh,21.2514,81.6296,29.0,67,0.1,971.7,8.95,47.9,140,96.4,67.1,49.5,267.0,37.0,56.4,10,5,7,1,2026-06-14T21:54:36.386533+05:30
Bhilai,Chhattisgarh,21.1938,81.3509,27.7,76,0.2,972.2,8.95,40.3,135,104.3,69.2,49.0,694.0,42.0,50.0,10,5,7,1,2026-06-14T21:54:36.386540+05:30
Guwahati,Assam,26.1158,91.7086,26.2,95,0.1,998.5,8.7,25.2,67,27.7,25.7,10.1,556.0,61.0,3.6,10,5,7,1,2026-06-14T21:54:36.386547+05:30
Agartala,Tripura,23.8315,91.2868,25.9,95,0.0,1003.6,8.15,34.6,65,22.6,21.1,12.4,243.0,59.0,2.8,7,5,4,1,2026-06-14T21:54:36.386554+05:30
Shillong,Meghalaya,25.5788,91.8933,19.3,93,0.0,855.7,9.0,22.3,47,6.7,6.2,5.6,298.0,90.0,3.0,3,10,7,1,2026-06-14T21:54:36.386561+05:30
Imphal,Manipur,24.817,93.9368,23.4,88,0.0,921.2,8.85,31.0,66,39.2,36.8,21.1,438.0,35.0,5.1,3,5,7,1,2026-06-14T21:54:36.386568+05:30
Aizawl,Mizoram,23.7271,92.7176,19.7,92,0.0,890.7,9.0,36.7,51,16.2,13.0,4.1,177.0,60.0,1.5,3,10,7,1,2026-06-14T21:54:36.386575+05:30
Kohima,Nagaland,25.6701,94.1077,19.6,92,0.1,853.7,8.8,23.8,37,10.8,9.9,8.6,317.0,41.0,1.3,6,10,7,1,2026-06-14T21:54:36.386582+05:30
Gangtok,Sikkim,27.3314,88.6138,17.7,93,0.1,835.7,8.8,38.2,68,8.9,8.0,9.2,430.0,97.0,1.7,6,10,7,1,2026-06-14T21:54:36.386589+05:30
Siliguri,West Bengal,26.7271,88.3953,24.5,97,0.3,989.8,8.7,23.0,91,32.7,27.6,12.9,662.0,95.0,4.8,6,5,7,1,2026-06-14T21:54:39.765821+05:30
Durgapur,West Bengal,23.5204,87.3119,28.7,80,0.0,991.2,9.05,30.2,202,77.1,74.3,30.1,626.0,82.0,47.9,7,5,7,1,2026-06-14T21:54:39.765852+05:30
Asansol,West Bengal,23.6739,86.9524,29.0,78,0.0,989.6,8.9,32.0,166,88.0,79.9,30.0,467.0,99.0,49.6,7,5,7,1,2026-06-14T21:54:39.765863+05:30
Pondicherry,Puducherry,11.9139,79.8145,27.5,82,0.0,1007.9,8.05,45.7,74,32.8,21.7,10.8,286.0,90.0,8.8,7,5,4,1,2026-06-14T21:54:39.765872+05:30
Port Blair,Andaman and Nicobar Islands,11.6234,92.7265,27.9,83,0.0,1008.8,7.45,42.8,35,15.0,8.6,0.3,89.0,43.0,0.4,7,0,4,1,2026-06-14T21:54:39.765881+05:30
Haridwar,Uttarakhand,29.9457,78.1642,27.6,72,0.0,968.5,7.65,30.6,110,50.8,38.3,19.1,396.0,75.0,9.1,7,5,7,1,2026-06-14T21:54:39.765889+05:30
Rishikesh,Uttarakhand,30.0869,78.2676,26.0,70,0.0,961.3,7.75,24.8,107,39.1,25.4,11.2,345.0,109.0,7.0,7,5,7,1,2026-06-14T21:54:39.765897+05:30
Nainital,Uttarakhand,29.3919,79.4542,14.6,86,0.0,801.7,8.6,41.4,96,138.8,50.5,10.4,277.0,94.0,5.7,3,10,7,0,2026-06-14T21:54:39.765905+05:30
Mussoorie,Uttarakhand,30.4599,78.0664,14.7,83,0.0,799.2,8.15,45.4,92,33.1,23.3,21.0,284.0,82.0,6.0,3,10,7,0,2026-06-14T21:54:39.765913+05:30
Dharamshala,Himachal Pradesh,32.219,76.3234,19.6,64,0.0,865.0,8.5,42.8,64,17.9,12.2,13.2,241.0,65.0,0.5,3,5,7,0,2026-06-14T21:54:39.765920+05:30
Dalhousie,Himachal Pradesh,32.5387,75.971,14.2,76,0.0,800.2,8.75,37.8,92,42.7,22.5,21.3,400.0,95.0,2.4,3,5,7,0,2026-06-14T21:54:39.765929+05:30
Patiala,Punjab,30.3398,76.3869,28.4,61,0.0,972.5,7.7,23.8,157,241.2,67.3,26.4,485.0,68.0,9.2,7,5,7,1,2026-06-14T21:54:39.765936+05:30
Bhatinda,Punjab,30.211,74.9455,32.2,48,0.0,977.6,8.3,33.1,106,39.1,32.0,31.0,453.0,68.0,9.3,0,5,7,1,2026-06-14T21:54:39.765943+05:30
Rohtak,Haryana,28.8955,76.6066,29.6,65,0.0,976.4,7.8,31.3,434,431.2,116.9,51.3,606.0,36.0,14.2,7,5,7,1,2026-06-14T21:54:39.765950+05:30
Panipat,Haryana,29.3909,76.9635,29.0,58,0.0,974.8,7.65,34.9,624,743.2,153.2,27.4,317.0,54.0,8.7,4,5,7,1,2026-06-14T21:54:39.765958+05:30
Mathura,Uttar Pradesh,27.4924,77.6737,30.0,57,0.0,981.7,8.1,29.9,281,644.5,100.4,31.4,393.0,46.0,5.5,4,5,7,1,2026-06-14T21:54:39.765965+05:30
Vrindavan,Uttar Pradesh,27.5823,77.7027,30.4,55,0.0,982.2,8.05,31.7,281,644.5,100.4,31.4,361.0,46.0,5.5,0,5,7,1,2026-06-14T21:54:39.765973+05:30
Ayodhya,Uttar Pradesh,26.7922,82.1998,29.4,71,0.0,990.4,8.4,30.6,150,150.4,68.9,26.3,439.0,72.0,12.5,7,5,7,1,2026-06-14T21:54:39.765979+05:30
Ratlam,Madhya Pradesh,23.3315,75.0367,31.4,43,0.0,952.8,8.5,46.8,79,75.0,33.5,2.5,155.0,91.0,5.5,0,5,7,1,2026-06-14T21:54:39.765987+05:30
Sagar,Madhya Pradesh,23.8388,78.7378,28.1,61,0.0,948.2,8.75,53.3,85,50.6,29.5,6.2,170.0,78.0,3.2,7,5,7,1,2026-06-14T21:54:39.765993+05:30
Satna,Madhya Pradesh,24.6005,80.8322,30.8,52,0.0,967.6,8.8,35.3,107,96.6,41.4,14.4,234.0,70.0,3.7,0,5,7,1,2026-06-14T21:54:39.766000+05:30
Akola,Maharashtra,20.7002,77.0082,29.5,58,0.0,973.8,8.8,52.6,72,58.8,33.1,13.2,176.0,59.0,4.5,4,5,7,1,2026-06-14T21:54:39.766008+05:30
Amravati,Maharashtra,20.9374,77.7796,31.9,45,0.0,965.7,8.85,56.5,74,65.0,34.6,12.5,208.0,63.0,5.3,0,5,7,1,2026-06-14T21:54:39.766015+05:30
Latur,Maharashtra,18.4088,76.5604,30.7,36,0.0,938.7,8.9,42.1,76,42.4,22.9,5.1,186.0,80.0,3.0,0,5,7,0,2026-06-14T21:54:39.766023+05:30
Nanded,Maharashtra,19.1383,77.3091,32.3,37,0.0,966.2,8.85,43.6,76,98.7,39.8,13.3,264.0,57.0,3.6,0,5,7,0,2026-06-14T21:54:39.766031+05:30
Gulbarga,Karnataka,17.3297,76.8343,30.7,40,0.0,957.3,8.9,41.0,68,42.3,23.7,12.0,144.0,65.0,4.1,0,5,7,0,2026-06-14T21:54:39.766039+05:30
Bidar,Karnataka,17.9104,77.5199,28.2,53,0.0,933.6,8.85,38.5,84,96.4,39.7,17.8,322.0,61.0,5.5,4,5,7,1,2026-06-14T21:54:39.766046+05:30
Hospet,Karnataka,15.2689,76.3909,27.0,71,0.0,956.0,8.65,47.9,52,12.8,8.6,4.9,149.0,50.0,1.7,7,5,7,1,2026-06-14T21:54:39.766054+05:30
Tirupur,Tamil Nadu,11.1085,77.3411,26.4,79,0.0,976.2,8.45,53.6,48,15.8,11.9,11.6,179.0,45.0,4.4,7,5,7,1,2026-06-14T21:54:39.766060+05:30
Alappuzha,Kerala,9.4981,76.3388,26.5,93,0.0,1010.9,8.15,36.7,49,21.6,15.0,10.8,92.0,45.0,3.6,7,0,4,1,2026-06-14T21:54:39.766067+05:30
Munnar,Kerala,10.0889,77.0595,16.1,95,0.0,857.3,8.55,37.4,34,11.9,8.9,7.3,120.0,37.0,1.9,3,10,7,0,2026-06-14T21:54:39.766075+05:30
Silchar,Assam,24.8333,92.7789,25.7,97,0.1,1003.3,8.8,35.6,69,29.6,26.1,10.5,351.0,67.0,4.6,10,5,4,1,2026-06-14T21:54:39.766082+05:30
Dibrugarh,Assam,27.4728,94.912,25.6,98,0.0,992.6,8.3,22.0,67,17.2,15.8,7.2,268.0,82.0,1.5,7,5,7,1,2026-06-14T21:54:39.766089+05:30
