city,state,latitude,longitude,temp,humidity,rain,pressure,uv_index,wind_gusts,aqi,pm10,pm2_5,mosquito_risk,arthritis_risk,migraine_risk,frizz_risk,updated_at
Delhi,Delhi,28.6139,77.209,20.4,84,0.0,988.1,6.4,26.3,155,76.6,59.5,3,5,7,1,2026-03-23T23:23:29.426430+05:30
Mumbai,Maharashtra,19.076,72.8777,29.0,69,0.0,1009.7,7.9,23.0,155,48.9,36.4,7,0,4,1,2026-03-23T23:23:29.426471+05:30
Bangalore,Karnataka,12.9716,77.5946,23.8,61,0.0,913.0,9.45,25.6,93,32.1,28.5,3,5,7,0,2026-03-23T23:23:29.426487+05:30
Hyderabad,Telangana,17.385,78.4867,26.8,54,0.0,955.0,8.9,24.5,91,43.0,35.6,4,5,7,1,2026-03-23T23:23:29.426496+05:30
Chennai,Tamil Nadu,13.0827,80.2707,27.2,78,0.0,1009.9,9.2,31.7,36,11.8,7.6,7,0,4,1,2026-03-23T23:23:29.426505+05:30
Kolkata,West Bengal,22.5726,88.3639,23.3,84,0.0,1010.0,8.3,20.5,154,56.6,51.9,3,0,4,1,2026-03-23T23:23:29.426513+05:30
Pune,Maharashtra,18.5204,73.8567,25.2,55,0.0,950.1,8.45,45.4,110,32.0,28.7,4,5,7,0,2026-03-23T23:23:29.426526+05:30
Ahmedabad,Gujarat,23.0225,72.5714,26.8,51,0.0,1004.8,7.85,32.4,85,52.6,37.4,4,5,4,0,2026-03-23T23:23:29.426533+05:30
Jaipur,Rajasthan,26.9124,75.7873,21.2,79,0.0,963.2,7.25,40.3,116,168.6,57.0,3,5,7,1,2026-03-23T23:23:29.426541+05:30
Lucknow,Uttar Pradesh,26.8467,80.9462,22.2,70,0.0,998.5,6.6,37.8,155,76.1,42.6,3,5,7,1,2026-03-23T23:23:29.426549+05:30
Kanpur,Uttar Pradesh,26.4499,80.3319,21.2,75,0.0,996.6,4.7,29.2,239,305.5,64.7,3,5,3,1,2026-03-23T23:23:29.426557+05:30
Chandigarh,Chandigarh,30.7333,76.7794,18.5,76,0.0,972.6,6.45,27.4,96,62.6,52.7,3,5,7,0,2026-03-23T23:23:29.426565+05:30
Srinagar,Jammu and Kashmir,34.0837,74.7973,7.8,94,0.0,842.3,6.3,19.8,96,46.8,43.2,3,10,7,0,2026-03-23T23:23:29.426572+05:30
Jammu,Jammu and Kashmir,32.7266,74.857,18.5,82,0.0,976.4,7.0,16.2,85,54.8,50.4,3,10,7,0,2026-03-23T23:23:29.426579+05:30
Amritsar,Punjab,31.634,74.8723,19.3,75,0.0,984.5,7.05,16.9,128,57.3,48.8,3,5,7,0,2026-03-23T23:23:29.426586+05:30
Ludhiana,Punjab,30.901,75.8573,19.8,74,0.0,983.0,6.65,23.4,140,86.4,71.2,3,5,7,0,2026-03-23T23:23:29.426592+05:30
Jalandhar,Punjab,31.326,75.5762,18.9,79,0.0,983.8,6.85,23.0,136,66.4,57.3,3,5,7,0,2026-03-23T23:23:29.426601+05:30
Dehradun,Uttarakhand,30.6284,78.0322,9.9,86,0.0,830.2,6.85,21.6,75,30.3,24.3,3,10,7,0,2026-03-23T23:23:29.426607+05:30
Shimla,Himachal Pradesh,31.1048,77.1734,8.5,84,0.0,783.4,6.9,33.1,73,48.9,43.1,3,10,7,0,2026-03-23T23:23:29.426613+05:30
Manali,Himachal Pradesh,32.2396,77.1887,11.1,59,0.0,818.5,8.85,27.7,97,17.6,13.3,0,5,7,0,2026-03-23T23:23:29.426621+05:30
Gurgaon,Haryana,28.4595,77.0266,20.6,88,0.0,986.1,6.55,18.4,195,111.8,65.0,3,5,7,1,2026-03-23T23:23:29.426628+05:30
Noida,Uttar Pradesh,28.5355,77.391,20.0,85,0.0,989.8,6.4,29.5,195,111.8,65.0,3,5,7,1,2026-03-23T23:23:29.426635+05:30
Ghaziabad,Uttar Pradesh,28.6692,77.4538,19.0,87,0.0,987.8,6.35,34.2,153,75.9,63.8,3,10,7,1,2026-03-23T23:23:29.426641+05:30
Faridabad,Haryana,28.4089,77.3178,20.0,86,0.0,988.8,6.4,24.5,195,111.8,65.0,3,5,7,1,2026-03-23T23:23:29.426650+05:30
Meerut,Uttar Pradesh,28.9845,77.7064,18.2,92,0.0,986.3,6.25,30.2,153,75.9,63.8,3,10,7,1,2026-03-23T23:23:29.426657+05:30
Agra,Uttar Pradesh,27.1767,78.0081,20.1,84,0.0,992.3,5.15,24.8,190,259.8,70.3,3,5,3,1,2026-03-23T23:23:29.426664+05:30
Varanasi,Uttar Pradesh,25.3176,82.9739,23.0,63,0.0,1001.9,7.65,27.4,124,120.1,57.0,3,5,4,0,2026-03-23T23:23:29.426673+05:30
Prayagraj,Uttar Pradesh,25.4358,81.8463,24.1,63,0.0,1000.7,7.55,20.5,123,73.6,38.8,3,5,4,1,2026-03-23T23:23:29.426679+05:30
Gorakhpur,Uttar Pradesh,26.7606,83.3732,21.3,81,0.0,1002.2,7.4,23.0,145,61.0,38.5,3,5,4,1,2026-03-23T23:23:29.426688+05:30
Bareilly,Uttar Pradesh,28.367,79.4304,19.6,91,0.0,992.0,5.25,25.2,108,53.4,31.0,3,10,3,1,2026-03-23T23:23:29.426695+05:30
Aligarh,Uttar Pradesh,27.8974,78.088,19.1,93,0.0,990.5,4.35,20.9,154,145.3,65.4,3,10,3,1,2026-03-23T23:23:29.426701+05:30
Moradabad,Uttar Pradesh,28.8386,78.7733,18.5,94,0.0,988.7,5.9,27.4,129,65.7,51.8,3,10,3,1,2026-03-23T23:23:29.426707+05:30
Saharanpur,Uttar Pradesh,29.9637,77.546,17.7,91,0.0,980.3,6.2,25.2,149,77.5,59.8,3,10,7,1,2026-03-23T23:23:29.426713+05:30
Jhansi,Uttar Pradesh,25.4484,78.5685,21.8,75,0.0,981.6,7.4,33.1,81,102.7,43.5,3,5,7,1,2026-03-23T23:23:32.649960+05:30
Surat,Gujarat,21.1702,72.8311,27.4,60,0.0,1008.4,7.65,25.6,119,113.9,89.4,4,0,4,1,2026-03-23T23:23:32.650024+05:30
Vadodara,Gujarat,22.3072,73.1812,27.7,46,0.0,1006.4,7.85,25.9,86,78.5,49.7,4,5,4,0,2026-03-23T23:23:32.650038+05:30
Rajkot,Gujarat,22.3039,70.8022,24.9,45,0.0,997.4,7.7,35.6,65,20.0,18.3,0,5,7,0,2026-03-23T23:23:32.650048+05:30
Thane,Maharashtra,19.2183,72.9781,27.4,63,0.0,1009.1,7.9,37.8,155,48.9,36.4,7,0,4,1,2026-03-23T23:23:32.650057+05:30
Nagpur,Maharashtra,21.1458,79.0882,26.7,45,0.0,975.0,8.1,20.5,113,61.7,53.2,4,5,7,0,2026-03-23T23:23:32.650067+05:30
Nashik,Maharashtra,19.9975,73.7898,24.5,60,0.0,947.5,8.15,36.4,94,42.5,24.4,0,5,7,1,2026-03-23T23:23:32.650080+05:30
Aurangabad,Maharashtra,19.8762,75.3433,25.1,49,0.0,945.3,8.65,27.0,76,28.3,22.6,4,5,7,0,2026-03-23T23:23:32.650089+05:30
Solapur,Maharashtra,17.6599,75.9064,26.9,57,0.0,958.1,8.8,27.4,85,42.4,35.2,4,5,7,1,2026-03-23T23:23:32.650098+05:30
Kolhapur,Maharashtra,16.705,74.2433,21.7,83,0.0,949.0,8.85,34.9,99,55.6,50.5,3,5,7,1,2026-03-23T23:23:32.650106+05:30
Goa,Goa,15.2993,74.124,28.2,79,0.0,999.5,8.9,33.8,87,48.1,33.9,7,5,7,1,2026-03-23T23:23:32.650112+05:30
Jodhpur,Rajasthan,26.2389,73.0243,27.2,44,0.0,985.8,7.5,27.4,74,57.9,22.5,4,5,7,0,2026-03-23T23:23:32.650119+05:30
Udaipur,Rajasthan,24.5854,73.7125,23.8,51,0.0,949.5,7.55,38.5,57,39.1,19.8,0,5,7,0,2026-03-23T23:23:32.650126+05:30
Kota,Rajasthan,25.2138,75.8648,23.9,70,0.0,981.9,7.1,34.2,78,82.9,31.7,3,5,7,1,2026-03-23T23:23:32.650132+05:30
Bikaner,Rajasthan,28.0229,73.3119,26.6,49,0.0,984.8,7.25,15.8,73,44.9,20.7,4,5,7,0,2026-03-23T23:23:32.650139+05:30
Ajmer,Rajasthan,26.4499,74.6399,23.7,59,0.0,957.6,7.5,31.7,65,71.2,31.7,0,5,7,0,2026-03-23T23:23:32.650146+05:30
Gwalior,Madhya Pradesh,26.2183,78.1828,21.7,81,0.0,987.3,4.35,31.7,100,79.2,38.8,3,5,3,1,2026-03-23T23:23:32.650152+05:30
Indore,Madhya Pradesh,22.7196,75.8577,22.8,55,0.0,949.9,8.1,26.6,62,34.2,22.7,0,5,7,0,2026-03-23T23:23:32.650159+05:30
Bhopal,Madhya Pradesh,23.2599,77.4126,24.4,53,0.0,955.7,8.0,33.8,56,29.7,17.6,0,5,7,0,2026-03-23T23:23:32.650165+05:30
Jabalpur,Madhya Pradesh,23.1815,79.9864,24.6,57,0.0,964.5,7.8,20.9,61,38.3,27.5,0,5,7,0,2026-03-23T23:23:32.650172+05:30
Ujjain,Madhya Pradesh,23.1765,75.7885,22.5,57,0.0,955.5,8.0,25.6,79,30.0,18.4,0,5,7,0,2026-03-23T23:23:32.650179+05:30
Visakhapatnam,Andhra Pradesh,17.6868,83.2185,25.4,87,0.0,1007.1,8.85,33.8,93,29.5,22.1,7,5,4,1,2026-03-23T23:23:32.650186+05:30
Vijayawada,Andhra Pradesh,16.5062,80.648,25.6,84,0.0,1005.6,8.95,23.0,69,31.0,26.5,7,5,4,1,2026-03-23T23:23:32.650193+05:30
Guntur,Andhra Pradesh,16.3067,80.4365,25.3,86,0.0,1006.7,8.95,27.0,67,27.2,23.6,7,5,4,1,2026-03-23T23:23:32.650200+05:30
Nellore,Andhra Pradesh,14.4426,79.9865,25.8,85,0.0,1008.6,9.1,28.4,44,10.2,6.4,7,0,4,1,2026-03-23T23:23:32.650207+05:30
Kurnool,Andhra Pradesh,15.8281,78.0373,29.6,44,0.0,978.0,8.95,25.9,68,33.2,26.3,4,5,7,1,2026-03-23T23:23:32.650215+05:30
Kakinada,Andhra Pradesh,16.9891,82.2475,24.9,88,0.0,1010.6,8.9,30.6,58,20.4,12.3,3,0,4,1,2026-03-23T23:23:32.650222+05:30
Tirupati,Andhra Pradesh,13.6288,79.4192,25.3,80,0.0,994.6,9.2,27.0,68,20.3,17.1,7,5,7,1,2026-03-23T23:23:32.650228+05:30
Warangal,Telangana,17.9689,79.5941,27.2,59,0.0,980.4,8.8,24.1,113,43.2,38.9,4,5,7,1,2026-03-23T23:23:32.650235+05:30
Nizamabad,Telangana,18.6725,78.0941,27.6,47,0.0,966.1,8.7,25.2,128,68.5,60.5,4,5,7,0,2026-03-23T23:23:32.650241+05:30
Mysore,Karnataka,12.2958,76.6396,24.7,72,0.0,929.8,9.4,26.6,112,38.1,32.0,3,5,7,1,2026-03-23T23:23:32.650248+05:30
Mangalore,Karnataka,12.9141,74.856,29.5,77,0.0,1008.4,9.05,26.6,74,28.5,22.2,7,0,4,1,2026-03-23T23:23:32.650255+05:30
Hubli-Dharwad,Karnataka,15.3647,75.124,24.0,84,0.0,942.1,9.1,31.3,118,20.2,18.5,3,5,7,1,2026-03-23T23:23:32.650262+05:30
Belgaum,Karnataka,15.8497,74.4977,22.9,88,0.0,927.0,9.15,41.8,115,32.2,27.7,3,5,7,1,2026-03-23T23:23:35.868868+05:30
Coimbatore,Tamil Nadu,11.0168,76.9558,23.9,77,0.0,963.7,9.4,37.1,85,31.9,26.5,3,5,7,1,2026-03-23T23:23:35.868901+05:30
Madurai,Tamil Nadu,9.9252,78.1198,26.5,77,0.0,995.6,9.35,30.6,63,19.4,16.8,7,5,7,1,2026-03-23T23:23:35.868913+05:30
Trichy,Tamil Nadu,10.7905,78.7047,25.6,83,0.0,1002.3,9.3,23.8,58,17.9,15.7,7,5,4,1,2026-03-23T23:23:35.868923+05:30
Salem,Tamil Nadu,11.6643,78.146,26.8,73,0.0,979.1,9.35,27.4,93,35.5,30.4,7,5,7,1,2026-03-23T23:23:35.868932+05:30
Tirunelveli,Tamil Nadu,8.7139,77.7567,27.0,70,0.0,1005.6,9.3,33.1,64,22.8,19.2,7,5,4,1,2026-03-23T23:23:35.868940+05:30
Vellore,Tamil Nadu,12.9165,79.1325,25.3,75,0.0,987.3,9.25,30.6,75,27.6,24.4,7,5,7,1,2026-03-23T23:23:35.868948+05:30
Erode,Tamil Nadu,11.341,77.7172,27.4,70,0.0,990.8,9.35,18.4,72,23.7,19.7,7,5,7,1,2026-03-23T23:23:35.868955+05:30
Kochi,Kerala,9.9312,76.2673,28.0,82,0.0,1010.5,9.15,33.5,92,47.5,42.1,7,0,4,1,2026-03-23T23:23:35.868991+05:30
Thiruvananthapuram,Kerala,8.5241,76.9366,29.0,77,0.0,1009.6,9.15,24.1,104,24.5,16.4,7,0,4,1,2026-03-23T23:23:35.869003+05:30
Kozhikode,Kerala,11.2588,75.7804,29.8,75,0.0,1009.2,9.1,28.4,66,27.1,16.0,7,0,4,1,2026-03-23T23:23:35.869012+05:30
Thrissur,Kerala,10.5276,76.2144,28.2,82,0.0,1008.7,9.1,38.9,85,41.3,32.5,7,0,4,1,2026-03-23T23:23:35.869021+05:30
Kannur,Kerala,11.8745,75.3704,29.2,76,0.0,1008.6,9.1,27.4,68,23.0,16.5,7,0,4,1,2026-03-23T23:23:35.869029+05:30
Patna,Bihar,25.5941,85.1376,24.0,62,0.0,1004.4,7.85,20.9,150,143.9,92.4,3,5,4,1,2026-03-23T23:23:35.869036+05:30
Gaya,Bihar,24.7914,85.0002,23.2,64,0.0,997.7,7.95,17.6,104,117.1,51.6,3,5,7,0,2026-03-23T23:23:35.869045+05:30
Muzaffarpur,Bihar,26.1209,85.3647,21.9,76,0.0,1004.9,7.8,15.8,152,151.3,112.7,3,5,4,1,2026-03-23T23:23:35.869056+05:30
Bhagalpur,Bihar,25.2425,87.0117,22.4,76,0.0,1005.4,7.85,14.4,135,60.1,55.9,3,5,4,1,2026-03-23T23:23:35.869064+05:30
Ranchi,Jharkhand,23.3441,85.3096,20.9,55,0.0,940.7,8.55,27.7,72,45.6,21.2,0,5,7,0,2026-03-23T23:23:35.869072+05:30
Jamshedpur,Jharkhand,22.8046,86.2029,25.8,51,0.0,994.5,8.4,18.7,144,77.8,62.9,4,5,7,0,2026-03-23T23:23:35.869080+05:30
Dhanbad,Jharkhand,23.7957,86.4304,22.1,69,0.0,983.4,8.3,16.9,155,101.5,82.9,3,5,7,1,2026-03-23T23:23:35.869087+05:30
Bokaro,Jharkhand,23.6693,86.1511,24.3,55,0.0,987.8,8.3,18.7,154,100.4,76.4,0,5,7,0,2026-03-23T23:23:35.869094+05:30
Bhubaneswar,Odisha,20.2961,85.8245,25.6,87,0.0,1006.0,8.65,29.5,127,21.9,19.0,7,5,4,1,2026-03-23T23:23:35.869101+05:30
Cuttack,Odisha,20.4625,85.8828,25.3,90,0.0,1008.1,8.7,25.9,127,21.9,19.0,7,0,4,1,2026-03-23T23:23:35.869107+05:30
Rourkela,Odisha,22.2604,84.8536,20.5,82,0.0,987.8,8.3,19.1,90,57.9,40.3,3,5,7,1,2026-03-23T23:23:35.869114+05:30
Raipur,Chhattisgarh,21.2514,81.6296,26.6,44,0.0,976.7,8.45,18.7,122,47.3,36.1,4,5,7,0,2026-03-23T23:23:35.869120+05:30
Bhilai,Chhattisgarh,21.1938,81.3509,26.5,45,0.0,977.0,8.45,16.6,128,51.8,41.4,4,5,7,0,2026-03-23T23:23:35.869127+05:30
Guwahati,Assam,26.1158,91.7086,21.7,83,0.0,1006.1,7.6,20.9,75,33.4,31.8,3,5,4,1,2026-03-23T23:23:35.869133+05:30
Agartala,Tripura,23.8315,91.2868,22.6,69,0.0,1010.4,8.05,13.3,157,94.3,90.6,3,0,4,1,2026-03-23T23:23:35.869140+05:30
Shillong,Meghalaya,25.5788,91.8933,9.0,88,0.0,855.8,7.15,25.2,68,24.9,23.6,3,10,7,0,2026-03-23T23:23:35.869146+05:30
Imphal,Manipur,24.817,93.9368,14.6,85,0.0,926.0,8.35,36.7,77,40.0,38.2,3,10,7,0,2026-03-23T23:23:35.869153+05:30
Aizawl,Mizoram,23.7271,92.7176,14.7,74,0.0,894.5,8.3,33.5,74,36.1,32.6,3,5,7,0,2026-03-23T23:23:35.869159+05:30
Kohima,Nagaland,25.6701,94.1077,12.1,96,0.0,856.0,8.0,39.2,67,29.9,27.2,3,10,7,0,2026-03-23T23:23:35.869166+05:30
Gangtok,Sikkim,27.3314,88.6138,11.3,97,0.3,838.0,6.5,18.7,77,23.7,23.2,6,10,7,0,2026-03-23T23:23:35.869172+05:30
Siliguri,West Bengal,26.7271,88.3953,18.3,68,0.0,998.2,7.1,20.5,102,46.2,44.7,3,5,7,0,2026-03-23T23:23:39.093126+05:30
Durgapur,West Bengal,23.5204,87.3119,23.7,67,0.0,998.9,8.25,16.2,158,99.4,92.2,3,5,7,1,2026-03-23T23:23:39.093155+05:30
Asansol,West Bengal,23.6739,86.9524,24.4,60,0.0,997.5,8.25,16.6,133,71.7,60.3,0,5,7,1,2026-03-23T23:23:39.093165+05:30
Pondicherry,Puducherry,11.9139,79.8145,25.5,89,0.0,1011.0,9.15,29.2,30,10.2,6.3,7,0,4,1,2026-03-23T23:23:39.093173+05:30
Port Blair,Andaman and Nicobar Islands,11.6234,92.7265,28.1,77,0.0,1008.4,9.1,23.4,31,5.7,3.6,7,0,4,1,2026-03-23T23:23:39.093181+05:30
Haridwar,Uttarakhand,29.9457,78.1642,18.0,94,0.0,979.2,6.35,24.8,108,75.4,58.2,3,10,7,1,2026-03-23T23:23:39.093189+05:30
Rishikesh,Uttarakhand,30.0869,78.2676,17.9,86,0.0,971.7,6.4,21.2,97,65.7,43.4,3,10,7,0,2026-03-23T23:23:39.093196+05:30
Nainital,Uttarakhand,29.3919,79.4542,13.5,77,0.0,806.7,7.0,45.0,76,55.1,43.0,3,5,7,0,2026-03-23T23:23:39.093204+05:30
Mussoorie,Uttarakhand,30.4599,78.0664,11.5,75,0.0,802.9,6.65,24.5,87,59.5,49.7,3,5,7,0,2026-03-23T23:23:39.093211+05:30
Dharamshala,Himachal Pradesh,32.219,76.3234,15.5,58,0.0,870.1,6.95,19.4,99,26.4,21.0,0,5,7,0,2026-03-23T23:23:39.093218+05:30
Dalhousie,Himachal Pradesh,32.5387,75.971,11.8,65,0.0,803.3,7.15,17.3,78,45.8,41.1,3,5,7,0,2026-03-23T23:23:39.093226+05:30
Patiala,Punjab,30.3398,76.3869,19.0,80,0.0,982.3,6.3,23.8,135,76.8,60.5,3,5,7,0,2026-03-23T23:23:39.093233+05:30
Bhatinda,Punjab,30.211,74.9455,21.0,73,0.0,987.7,7.0,18.4,135,84.3,60.5,3,5,7,0,2026-03-23T23:23:39.093240+05:30
Rohtak,Haryana,28.8955,76.6066,20.4,87,0.0,986.2,6.45,20.5,150,70.3,50.6,3,5,7,1,2026-03-23T23:23:39.093247+05:30
Panipat,Haryana,29.3909,76.9635,18.7,92,0.0,985.0,6.3,23.0,151,91.3,65.9,3,10,7,1,2026-03-23T23:23:39.093254+05:30
Mathura,Uttar Pradesh,27.4924,77.6737,20.1,87,0.0,991.3,5.9,20.2,175,114.6,67.1,3,5,3,1,2026-03-23T23:23:39.093261+05:30
Vrindavan,Uttar Pradesh,27.5823,77.7027,19.7,89,0.0,991.9,6.05,19.8,175,114.6,67.1,3,10,7,1,2026-03-23T23:23:39.093268+05:30
Ayodhya,Uttar Pradesh,26.7922,82.1998,22.0,68,0.0,1000.1,7.1,29.2,143,60.3,39.6,3,5,4,0,2026-03-23T23:23:39.093276+05:30
Ratlam,Madhya Pradesh,23.3315,75.0367,25.2,50,0.0,956.5,7.95,29.2,73,28.7,16.2,4,5,7,0,2026-03-23T23:23:39.093284+05:30
Sagar,Madhya Pradesh,23.8388,78.7378,24.5,53,0.0,953.2,8.0,31.0,63,40.2,25.0,0,5,7,0,2026-03-23T23:23:39.093291+05:30
Satna,Madhya Pradesh,24.6005,80.8322,23.8,57,0.0,975.4,7.95,23.4,66,56.0,23.4,0,5,7,0,2026-03-23T23:23:39.093298+05:30
Akola,Maharashtra,20.7002,77.0082,26.0,59,0.0,976.5,8.35,16.6,96,38.5,33.4,4,5,7,1,2026-03-23T23:23:39.093305+05:30
Amravati,Maharashtra,20.9374,77.7796,25.2,54,0.0,968.6,8.35,22.0,102,39.2,34.2,4,5,7,0,2026-03-23T23:23:39.093313+05:30
Latur,Maharashtra,18.4088,76.5604,25.8,51,0.0,940.8,8.6,22.3,95,36.8,31.9,4,5,7,0,2026-03-23T23:23:39.093320+05:30
Nanded,Maharashtra,19.1383,77.3091,26.9,52,0.0,969.8,8.55,18.0,99,69.4,60.3,4,5,7,1,2026-03-23T23:23:39.093326+05:30
Gulbarga,Karnataka,17.3297,76.8343,28.2,51,0.0,959.7,8.8,26.3,108,43.7,34.6,4,5,7,1,2026-03-23T23:23:39.093334+05:30
Bidar,Karnataka,17.9104,77.5199,27.9,55,0.0,936.8,8.8,22.7,112,62.4,51.1,4,5,7,1,2026-03-23T23:23:39.093347+05:30
Hospet,Karnataka,15.2689,76.3909,28.6,60,0.0,956.8,9.05,19.1,127,45.3,37.4,4,5,7,1,2026-03-23T23:23:39.093354+05:30
Tirupur,Tamil Nadu,11.1085,77.3411,27.8,52,0.0,977.2,9.4,31.3,74,29.6,23.5,4,5,7,1,2026-03-23T23:23:39.093361+05:30
Alappuzha,Kerala,9.4981,76.3388,28.9,77,0.0,1010.6,9.15,33.1,100,48.8,35.9,7,0,4,1,2026-03-23T23:23:39.093368+05:30
Munnar,Kerala,10.0889,77.0595,21.2,79,0.0,858.4,9.65,29.5,72,37.8,29.6,3,5,7,1,2026-03-23T23:23:39.093375+05:30
Silchar,Assam,24.8333,92.7789,20.5,82,0.0,1009.6,8.05,18.7,120,71.7,68.7,3,0,4,1,2026-03-23T23:23:39.093382+05:30
Dibrugarh,Assam,27.4728,94.912,20.6,94,0.0,1000.8,7.75,14.8,66,30.3,29.9,3,5,4,1,2026-03-23T23:23:39.093389+05:30
