city,state,latitude,longitude,temp,humidity,rain,pressure,uv_index,wind_gusts,aqi,pm10,pm2_5,no2,co,o3,so2,mosquito_risk,arthritis_risk,migraine_risk,frizz_risk,updated_at
Delhi,Delhi,28.6139,77.209,39.8,16,0.0,977.3,7.7,43.6,628,577.4,98.3,21.8,312.0,104.0,12.8,0,5,10,0,2026-05-24T19:11:32.606312+05:30
Mumbai,Maharashtra,19.076,72.8777,30.9,69,0.0,1008.3,6.75,42.8,39,13.4,9.4,5.7,247.0,51.0,4.2,3,0,4,1,2026-05-24T19:11:32.606358+05:30
Bangalore,Karnataka,12.9716,77.5946,22.0,95,0.3,912.9,4.75,34.6,53,21.5,19.4,17.4,384.0,79.0,5.5,6,5,3,1,2026-05-24T19:11:32.606374+05:30
Hyderabad,Telangana,17.385,78.4867,35.1,29,0.0,951.8,9.2,47.5,78,21.9,16.5,8.8,228.0,101.0,5.7,0,5,10,0,2026-05-24T19:11:32.606385+05:30
Chennai,Tamil Nadu,13.0827,80.2707,32.0,64,0.0,1004.8,8.6,55.8,133,29.3,23.9,8.6,273.0,143.0,8.1,3,5,4,1,2026-05-24T19:11:32.606393+05:30
Kolkata,West Bengal,22.5726,88.3639,30.1,87,0.8,1002.9,8.95,38.2,93,45.3,36.0,5.3,316.0,105.0,6.9,6,5,4,1,2026-05-24T19:11:32.606401+05:30
Pune,Maharashtra,18.5204,73.8567,28.1,69,0.0,948.5,8.1,52.2,42,11.4,9.4,4.7,189.0,80.0,6.1,7,5,7,1,2026-05-24T19:11:32.606408+05:30
Ahmedabad,Gujarat,23.0225,72.5714,39.7,28,0.0,999.1,8.15,37.1,54,11.8,8.4,2.3,147.0,69.0,2.0,0,5,10,1,2026-05-24T19:11:32.606414+05:30
Jaipur,Rajasthan,26.9124,75.7873,39.0,15,0.0,956.9,8.25,50.0,197,407.0,79.2,2.5,154.0,101.0,3.0,0,5,10,0,2026-05-24T19:11:32.606425+05:30
Lucknow,Uttar Pradesh,26.8467,80.9462,38.9,21,0.0,987.7,8.2,49.0,189,375.3,82.7,6.5,231.0,133.0,8.8,0,5,10,0,2026-05-24T19:11:32.606432+05:30
Kanpur,Uttar Pradesh,26.4499,80.3319,39.5,19,0.0,986.4,8.2,43.2,507,670.6,109.7,6.0,212.0,128.0,7.6,0,5,10,0,2026-05-24T19:11:32.606439+05:30
Chandigarh,Chandigarh,30.7333,76.7794,34.7,26,0.0,963.7,7.75,51.5,107,54.7,26.2,8.2,374.0,126.0,7.9,0,5,7,0,2026-05-24T19:11:32.606446+05:30
Srinagar,Jammu and Kashmir,34.0837,74.7973,20.6,54,0.0,842.4,8.7,25.2,90,17.6,10.4,5.3,423.0,105.0,2.0,0,5,7,0,2026-05-24T19:11:32.606453+05:30
Jammu,Jammu and Kashmir,32.7266,74.857,34.8,22,0.0,968.0,8.55,35.3,93,66.8,26.6,8.9,230.0,117.0,4.6,0,5,7,0,2026-05-24T19:11:32.606459+05:30
Amritsar,Punjab,31.634,74.8723,35.2,27,0.0,975.5,8.4,49.3,98,59.0,27.6,11.0,272.0,107.0,4.5,0,5,10,0,2026-05-24T19:11:32.606466+05:30
Ludhiana,Punjab,30.901,75.8573,36.2,24,0.0,973.1,8.0,40.7,108,77.3,29.6,7.4,271.0,115.0,4.5,0,5,10,0,2026-05-24T19:11:32.606477+05:30
Jalandhar,Punjab,31.326,75.5762,35.8,22,0.0,974.3,8.2,54.7,109,65.7,29.6,10.4,364.0,116.0,4.3,0,5,10,0,2026-05-24T19:11:32.606483+05:30
Dehradun,Uttarakhand,30.6284,78.0322,23.3,40,0.0,830.0,8.2,44.3,72,78.5,20.5,5.9,148.0,106.0,1.8,0,5,7,0,2026-05-24T19:11:32.606490+05:30
Shimla,Himachal Pradesh,31.1048,77.1734,19.0,36,0.0,784.7,8.25,65.5,76,90.3,24.3,4.1,174.0,110.0,2.8,0,5,7,0,2026-05-24T19:11:32.606499+05:30
Manali,Himachal Pradesh,32.2396,77.1887,15.4,80,0.0,819.1,9.65,45.0,101,25.6,8.8,7.4,152.0,127.0,0.7,3,5,7,0,2026-05-24T19:11:32.606505+05:30
Gurgaon,Haryana,28.4595,77.0266,38.0,19,0.0,975.7,7.8,42.5,1170,1046.8,171.4,21.6,425.0,91.0,10.8,0,5,10,0,2026-05-24T19:11:32.606511+05:30
Noida,Uttar Pradesh,28.5355,77.391,38.4,21,0.0,978.5,7.75,40.7,1170,1046.8,171.4,21.6,339.0,91.0,10.8,0,5,10,0,2026-05-24T19:11:32.606518+05:30
Ghaziabad,Uttar Pradesh,28.6692,77.4538,38.2,21,0.0,976.9,7.7,45.7,457,525.3,91.0,14.0,258.0,124.0,14.2,0,5,10,0,2026-05-24T19:11:32.606524+05:30
Faridabad,Haryana,28.4089,77.3178,40.0,20,0.0,978.0,7.8,46.4,1170,1046.8,171.4,21.6,363.0,91.0,10.8,0,5,10,0,2026-05-24T19:11:32.606530+05:30
Meerut,Uttar Pradesh,28.9845,77.7064,36.5,28,0.0,975.9,7.65,51.1,457,525.3,91.0,14.0,248.0,124.0,14.2,0,5,10,0,2026-05-24T19:11:32.606537+05:30
Agra,Uttar Pradesh,27.1767,78.0081,39.7,18,0.0,982.5,8.05,46.1,752,739.5,118.7,15.6,269.0,93.0,8.4,0,5,10,0,2026-05-24T19:11:32.606543+05:30
Varanasi,Uttar Pradesh,25.3176,82.9739,39.7,17,0.0,991.5,8.75,49.3,153,98.5,40.7,8.3,359.0,120.0,8.9,0,5,10,0,2026-05-24T19:11:32.606549+05:30
Prayagraj,Uttar Pradesh,25.4358,81.8463,38.4,19,0.0,990.2,8.6,45.0,154,115.5,39.1,6.2,201.0,124.0,7.8,0,5,10,0,2026-05-24T19:11:32.606555+05:30
Gorakhpur,Uttar Pradesh,26.7606,83.3732,35.0,35,0.0,991.2,8.6,35.3,179,74.5,44.2,9.8,248.0,129.0,9.1,0,5,7,1,2026-05-24T19:11:32.606564+05:30
Bareilly,Uttar Pradesh,28.367,79.4304,36.0,26,0.0,981.1,8.05,43.6,162,104.8,43.4,7.6,230.0,142.0,9.8,0,5,10,0,2026-05-24T19:11:32.606570+05:30
Aligarh,Uttar Pradesh,27.8974,78.088,37.0,27,0.0,980.1,7.9,50.8,782,918.3,153.2,13.2,243.0,104.0,8.5,0,5,10,0,2026-05-24T19:11:32.606577+05:30
Moradabad,Uttar Pradesh,28.8386,78.7733,36.5,24,0.0,978.1,7.85,51.1,147,227.7,61.9,9.5,253.0,122.0,8.2,0,5,10,0,2026-05-24T19:11:32.606583+05:30
Saharanpur,Uttar Pradesh,29.9637,77.546,35.4,24,0.0,970.4,7.4,56.5,122,177.0,46.1,10.8,246.0,116.0,10.0,0,5,10,0,2026-05-24T19:11:32.606589+05:30
Jhansi,Uttar Pradesh,25.4484,78.5685,39.0,18,0.0,974.0,8.45,45.7,91,58.4,29.3,2.9,155.0,99.0,3.8,0,5,10,0,2026-05-24T19:11:35.856228+05:30
Surat,Gujarat,21.1702,72.8311,31.8,69,0.0,1005.4,7.65,45.0,54,21.3,16.7,16.3,257.0,36.0,35.4,3,5,4,1,2026-05-24T19:11:35.856266+05:30
Vadodara,Gujarat,22.3072,73.1812,36.5,45,0.0,1001.6,8.1,43.6,50,14.3,9.5,4.5,146.0,79.0,5.8,0,5,7,1,2026-05-24T19:11:35.856277+05:30
Rajkot,Gujarat,22.3039,70.8022,34.1,54,0.0,992.8,7.7,49.0,56,19.7,13.5,2.4,121.0,79.0,4.9,0,5,7,1,2026-05-24T19:11:35.856285+05:30
Thane,Maharashtra,19.2183,72.9781,31.4,66,0.0,1007.7,7.1,40.3,39,13.4,9.4,5.7,207.0,51.0,4.2,3,5,4,1,2026-05-24T19:11:35.856293+05:30
Nagpur,Maharashtra,21.1458,79.0882,40.9,15,0.0,969.4,8.9,47.2,96,44.6,23.1,6.5,167.0,116.0,11.7,0,5,10,0,2026-05-24T19:11:35.856301+05:30
Nashik,Maharashtra,19.9975,73.7898,28.5,70,0.0,945.9,8.1,42.5,32,7.8,5.4,1.7,134.0,56.0,0.7,7,5,7,1,2026-05-24T19:11:35.856308+05:30
Aurangabad,Maharashtra,19.8762,75.3433,35.9,25,0.0,943.2,8.95,43.2,48,22.7,11.4,1.8,152.0,94.0,1.4,0,5,10,0,2026-05-24T19:11:35.856315+05:30
Solapur,Maharashtra,17.6599,75.9064,33.6,40,0.0,956.1,9.0,41.0,64,18.0,12.7,3.3,164.0,97.0,2.8,0,5,7,1,2026-05-24T19:11:35.856323+05:30
Kolhapur,Maharashtra,16.705,74.2433,27.8,71,0.0,947.9,8.75,39.2,40,13.6,10.5,3.9,158.0,70.0,2.0,7,5,7,1,2026-05-24T19:11:35.856330+05:30
Goa,Goa,15.2993,74.124,29.0,77,0.0,998.1,5.75,28.8,45,14.8,10.0,1.9,152.0,54.0,1.0,7,5,3,1,2026-05-24T19:11:35.856337+05:30
Jodhpur,Rajasthan,26.2389,73.0243,38.8,19,0.0,979.3,8.45,54.7,194,419.1,74.3,1.7,129.0,98.0,1.9,0,5,10,0,2026-05-24T19:11:35.856344+05:30
Udaipur,Rajasthan,24.5854,73.7125,35.3,28,0.0,945.3,8.8,54.0,71,34.3,14.3,1.1,135.0,85.0,1.6,0,5,10,0,2026-05-24T19:11:35.856351+05:30
Kota,Rajasthan,25.2138,75.8648,40.1,15,0.0,975.1,8.4,42.8,89,88.0,32.1,3.3,154.0,98.0,3.8,0,5,10,0,2026-05-24T19:11:35.856358+05:30
Bikaner,Rajasthan,28.0229,73.3119,41.6,12,0.0,975.8,8.45,59.8,154,323.2,107.1,0.6,124.0,100.0,1.5,0,5,10,0,2026-05-24T19:11:35.856365+05:30
Ajmer,Rajasthan,26.4499,74.6399,36.0,23,0.0,952.2,8.4,62.6,99,114.3,34.9,1.5,137.0,101.0,1.9,0,5,10,0,2026-05-24T19:11:35.856371+05:30
Gwalior,Madhya Pradesh,26.2183,78.1828,40.2,17,0.0,978.7,8.25,46.1,104,68.5,32.0,2.5,157.0,102.0,3.3,0,5,10,0,2026-05-24T19:11:35.856378+05:30
Indore,Madhya Pradesh,22.7196,75.8577,36.5,25,0.0,947.1,8.7,44.6,66,58.3,24.2,2.2,188.0,109.0,3.9,0,5,10,0,2026-05-24T19:11:35.856384+05:30
Bhopal,Madhya Pradesh,23.2599,77.4126,38.3,16,0.0,951.2,8.7,45.7,78,76.8,29.0,2.5,165.0,104.0,2.9,0,5,10,0,2026-05-24T19:11:35.856391+05:30
Jabalpur,Madhya Pradesh,23.1815,79.9864,38.0,17,0.0,958.2,8.85,38.9,84,84.5,31.2,3.5,147.0,106.0,3.1,0,5,10,0,2026-05-24T19:11:35.856397+05:30
Ujjain,Madhya Pradesh,23.1765,75.7885,36.9,24,0.0,952.5,8.6,45.4,66,52.0,21.4,1.3,169.0,106.0,3.9,0,5,10,0,2026-05-24T19:11:35.856405+05:30
Visakhapatnam,Andhra Pradesh,17.6868,83.2185,32.5,72,0.0,999.0,8.9,32.8,172,56.3,50.3,29.1,588.0,141.0,59.9,3,5,7,1,2026-05-24T19:11:35.856411+05:30
Vijayawada,Andhra Pradesh,16.5062,80.648,38.5,32,0.0,997.6,9.1,49.3,119,41.1,33.5,9.5,317.0,114.0,7.4,0,5,10,1,2026-05-24T19:11:35.856418+05:30
Guntur,Andhra Pradesh,16.3067,80.4365,37.2,38,0.0,999.1,9.15,49.0,110,36.3,28.2,8.2,341.0,112.0,6.5,0,5,10,1,2026-05-24T19:11:35.856425+05:30
Nellore,Andhra Pradesh,14.4426,79.9865,33.5,52,0.0,1002.7,9.05,45.0,111,29.0,24.0,4.4,200.0,135.0,4.4,0,5,4,1,2026-05-24T19:11:35.856432+05:30
Kurnool,Andhra Pradesh,15.8281,78.0373,34.0,49,0.0,974.9,9.0,47.2,75,21.4,17.3,4.8,207.0,116.0,7.5,0,5,7,1,2026-05-24T19:11:35.856439+05:30
Kakinada,Andhra Pradesh,16.9891,82.2475,35.0,62,0.0,1001.9,8.8,36.4,157,34.5,26.4,3.3,311.0,137.0,2.8,3,5,4,1,2026-05-24T19:11:35.856446+05:30
Tirupati,Andhra Pradesh,13.6288,79.4192,32.5,56,0.0,989.2,9.1,42.5,117,38.9,34.9,9.0,217.0,127.0,4.9,0,5,7,1,2026-05-24T19:11:35.856452+05:30
Warangal,Telangana,17.9689,79.5941,37.2,27,0.0,975.0,9.0,49.3,105,42.1,27.9,6.7,279.0,115.0,6.6,0,5,10,0,2026-05-24T19:11:35.856459+05:30
Nizamabad,Telangana,18.6725,78.0941,37.0,24,0.0,962.4,9.1,45.4,77,37.1,17.5,3.7,219.0,102.0,2.9,0,5,10,0,2026-05-24T19:11:35.856465+05:30
Mysore,Karnataka,12.2958,76.6396,23.7,91,0.1,929.6,9.0,37.8,39,12.7,11.1,10.8,194.0,71.0,2.7,6,5,7,1,2026-05-24T19:11:35.856472+05:30
Mangalore,Karnataka,12.9141,74.856,27.8,83,0.0,1007.8,7.7,36.7,54,12.8,8.4,3.5,153.0,56.0,1.8,7,5,4,1,2026-05-24T19:11:35.856478+05:30
Hubli-Dharwad,Karnataka,15.3647,75.124,27.9,68,0.0,941.1,8.95,35.6,35,11.1,8.4,3.4,171.0,66.0,1.3,7,5,7,1,2026-05-24T19:11:35.856485+05:30
Belgaum,Karnataka,15.8497,74.4977,27.8,65,0.0,926.2,9.1,39.6,35,11.1,8.7,4.6,151.0,57.0,1.6,7,5,7,1,2026-05-24T19:11:39.117166+05:30
Coimbatore,Tamil Nadu,11.0168,76.9558,25.7,85,0.1,962.8,8.5,49.7,37,7.9,6.8,5.1,199.0,64.0,2.3,10,5,7,1,2026-05-24T19:11:39.117204+05:30
Madurai,Tamil Nadu,9.9252,78.1198,31.8,57,0.0,992.5,8.85,63.7,60,18.6,14.8,8.8,182.0,77.0,2.8,0,5,7,1,2026-05-24T19:11:39.117216+05:30
Trichy,Tamil Nadu,10.7905,78.7047,30.3,65,0.0,999.7,8.3,52.6,53,22.1,17.9,7.9,190.0,88.0,3.5,3,5,7,1,2026-05-24T19:11:39.117225+05:30
Salem,Tamil Nadu,11.6643,78.146,25.2,92,0.4,978.4,8.9,33.5,64,22.9,18.9,9.8,204.0,83.0,5.9,10,5,7,1,2026-05-24T19:11:39.117235+05:30
Tirunelveli,Tamil Nadu,8.7139,77.7567,31.2,55,0.0,1003.0,8.8,39.2,35,7.3,5.7,3.1,155.0,67.0,1.3,0,5,4,1,2026-05-24T19:11:39.117244+05:30
Vellore,Tamil Nadu,12.9165,79.1325,30.2,61,0.0,983.6,9.1,47.2,64,32.8,29.3,8.3,251.0,96.0,3.2,3,5,7,1,2026-05-24T19:11:39.117252+05:30
Erode,Tamil Nadu,11.341,77.7172,26.0,90,0.6,990.5,8.95,52.6,50,11.9,9.8,8.3,235.0,76.0,2.3,10,5,7,1,2026-05-24T19:11:39.117259+05:30
Kochi,Kerala,9.9312,76.2673,26.2,94,0.1,1010.8,8.5,39.2,51,12.7,10.5,12.3,182.0,41.0,4.0,10,0,4,1,2026-05-24T19:11:39.117267+05:30
Thiruvananthapuram,Kerala,8.5241,76.9366,25.0,97,0.0,1010.1,8.4,46.4,32,10.6,6.3,2.2,178.0,60.0,0.8,7,0,4,1,2026-05-24T19:11:39.117274+05:30
Kozhikode,Kerala,11.2588,75.7804,25.8,98,0.0,1009.5,8.05,42.1,32,9.7,5.8,1.1,164.0,63.0,0.8,7,0,4,1,2026-05-24T19:11:39.117282+05:30
Thrissur,Kerala,10.5276,76.2144,25.9,95,0.0,1009.1,8.15,36.4,53,13.0,11.3,8.5,244.0,46.0,2.7,7,0,4,1,2026-05-24T19:11:39.117290+05:30
Kannur,Kerala,11.8745,75.3704,26.5,96,0.0,1008.5,6.6,40.7,48,11.8,8.0,4.0,203.0,56.0,1.5,7,0,4,1,2026-05-24T19:11:39.117296+05:30
Patna,Bihar,25.5941,85.1376,33.2,65,0.0,994.8,8.8,30.2,191,146.7,70.3,16.2,343.0,140.0,14.5,3,5,7,1,2026-05-24T19:11:39.117304+05:30
Gaya,Bihar,24.7914,85.0002,35.5,30,0.0,988.1,8.85,31.7,157,259.8,79.6,19.6,352.0,108.0,12.4,0,5,10,0,2026-05-24T19:11:39.117311+05:30
Muzaffarpur,Bihar,26.1209,85.3647,31.7,67,0.0,995.3,8.8,29.9,196,108.7,69.4,15.3,445.0,156.0,16.8,3,5,7,1,2026-05-24T19:11:39.117318+05:30
Bhagalpur,Bihar,25.2425,87.0117,32.6,70,0.0,996.0,8.8,24.1,178,92.0,51.6,8.3,358.0,159.0,15.9,3,5,7,1,2026-05-24T19:11:39.117325+05:30
Ranchi,Jharkhand,23.3441,85.3096,30.1,50,0.0,934.6,9.25,22.7,124,161.6,53.9,12.0,320.0,103.0,6.6,0,5,7,1,2026-05-24T19:11:39.117332+05:30
Jamshedpur,Jharkhand,22.8046,86.2029,32.5,55,0.0,986.5,9.1,38.5,190,98.7,51.2,9.2,309.0,145.0,16.5,0,5,7,1,2026-05-24T19:11:39.117340+05:30
Dhanbad,Jharkhand,23.7957,86.4304,33.9,43,0.0,975.6,9.0,30.2,183,193.7,92.0,38.7,257.0,112.0,95.8,0,5,7,1,2026-05-24T19:11:39.117347+05:30
Bokaro,Jharkhand,23.6693,86.1511,34.5,39,0.0,979.1,9.05,26.6,164,269.2,91.3,33.2,637.0,106.0,86.5,0,5,7,1,2026-05-24T19:11:39.117355+05:30
Bhubaneswar,Odisha,20.2961,85.8245,30.5,84,0.0,999.1,9.1,41.8,107,29.9,23.6,4.3,251.0,96.0,4.2,3,5,7,1,2026-05-24T19:11:39.117363+05:30
Cuttack,Odisha,20.4625,85.8828,30.8,83,0.0,1000.7,9.2,39.2,107,29.9,23.6,4.3,260.0,96.0,4.2,3,5,4,1,2026-05-24T19:11:39.117369+05:30
Rourkela,Odisha,22.2604,84.8536,34.8,42,0.0,980.2,8.95,42.5,161,163.4,70.5,15.2,360.0,119.0,11.6,0,5,7,1,2026-05-24T19:11:39.117376+05:30
Raipur,Chhattisgarh,21.2514,81.6296,39.5,20,0.0,970.0,8.95,37.4,113,99.4,57.6,27.6,184.0,75.0,33.3,0,5,10,0,2026-05-24T19:11:39.117384+05:30
Bhilai,Chhattisgarh,21.1938,81.3509,37.1,29,0.0,970.1,8.95,29.5,105,87.3,50.1,26.2,370.0,79.0,35.7,0,5,10,0,2026-05-24T19:11:39.117392+05:30
Guwahati,Assam,26.1158,91.7086,24.6,94,0.1,999.1,8.75,27.7,63,25.0,20.0,5.8,331.0,85.0,3.8,6,5,7,1,2026-05-24T19:11:39.117399+05:30
Agartala,Tripura,23.8315,91.2868,27.2,91,0.0,1004.4,7.15,37.8,73,29.9,20.1,8.8,210.0,69.0,2.0,7,5,4,1,2026-05-24T19:11:39.117407+05:30
Shillong,Meghalaya,25.5788,91.8933,19.4,94,0.0,856.0,9.15,49.0,49,17.4,12.4,4.3,231.0,94.0,2.8,3,10,7,1,2026-05-24T19:11:39.117415+05:30
Imphal,Manipur,24.817,93.9368,23.9,81,0.0,922.5,9.05,36.7,78,32.8,21.8,8.3,352.0,55.0,2.3,3,5,7,1,2026-05-24T19:11:39.117422+05:30
Aizawl,Mizoram,23.7271,92.7176,20.7,93,0.0,891.9,8.65,38.9,65,19.8,10.9,2.7,189.0,77.0,1.3,3,5,7,1,2026-05-24T19:11:39.117428+05:30
Kohima,Nagaland,25.6701,94.1077,19.1,90,0.0,853.9,9.3,34.2,57,34.3,16.2,4.5,272.0,67.0,1.6,3,10,7,1,2026-05-24T19:11:39.117435+05:30
Gangtok,Sikkim,27.3314,88.6138,16.9,86,0.1,836.2,8.8,38.2,103,54.5,27.0,4.8,339.0,127.0,3.5,6,10,7,0,2026-05-24T19:11:39.117442+05:30
Siliguri,West Bengal,26.7271,88.3953,26.8,81,0.0,990.1,8.7,24.1,128,65.0,38.8,6.9,580.0,138.0,8.1,7,5,7,1,2026-05-24T19:11:42.365716+05:30
Durgapur,West Bengal,23.5204,87.3119,30.0,81,0.0,990.9,8.9,32.8,208,82.7,68.2,21.2,446.0,151.0,44.8,7,5,7,1,2026-05-24T19:11:42.365751+05:30
Asansol,West Bengal,23.6739,86.9524,31.2,73,0.0,989.1,8.9,32.8,205,100.8,68.0,23.1,470.0,139.0,40.4,3,5,7,1,2026-05-24T19:11:42.365762+05:30
Pondicherry,Puducherry,11.9139,79.8145,31.5,71,0.0,1006.9,8.75,36.7,113,33.1,26.8,13.1,268.0,140.0,16.2,3,5,4,1,2026-05-24T19:11:42.365770+05:30
Port Blair,Andaman and Nicobar Islands,11.6234,92.7265,26.4,93,0.0,1008.2,8.9,36.7,29,8.2,4.8,0.5,112.0,59.0,0.4,7,0,4,1,2026-05-24T19:11:42.365778+05:30
Haridwar,Uttarakhand,29.9457,78.1642,34.3,25,0.0,968.7,7.55,64.1,130,73.1,28.5,5.9,202.0,128.0,8.6,0,5,7,0,2026-05-24T19:11:42.365787+05:30
Rishikesh,Uttarakhand,30.0869,78.2676,32.4,29,0.0,961.7,7.65,52.2,122,52.7,22.8,2.8,193.0,133.0,6.2,0,5,7,0,2026-05-24T19:11:42.365795+05:30
Nainital,Uttarakhand,29.3919,79.4542,19.9,42,0.0,804.9,8.5,51.5,153,111.8,34.2,3.3,200.0,147.0,6.6,0,5,7,0,2026-05-24T19:11:42.365803+05:30
Mussoorie,Uttarakhand,30.4599,78.0664,20.1,43,0.0,802.6,8.05,63.0,101,45.5,22.1,4.3,168.0,127.0,5.7,0,5,7,0,2026-05-24T19:11:42.365811+05:30
Dharamshala,Himachal Pradesh,32.219,76.3234,23.4,48,0.0,867.3,8.4,43.9,77,42.1,13.3,3.8,171.0,101.0,1.7,0,5,7,0,2026-05-24T19:11:42.365818+05:30
Dalhousie,Himachal Pradesh,32.5387,75.971,19.9,39,0.0,804.5,8.65,36.0,88,62.6,20.4,7.7,195.0,116.0,3.0,0,5,7,0,2026-05-24T19:11:42.365826+05:30
Patiala,Punjab,30.3398,76.3869,37.0,21,0.0,972.2,7.65,50.8,476,199.3,47.6,7.4,197.0,108.0,4.7,0,5,10,0,2026-05-24T19:11:42.365834+05:30
Bhatinda,Punjab,30.211,74.9455,37.4,23,0.0,977.2,8.3,28.1,153,104.3,43.8,7.5,185.0,120.0,10.6,0,5,10,0,2026-05-24T19:11:42.365841+05:30
Rohtak,Haryana,28.8955,76.6066,37.3,21,0.0,975.3,7.75,38.9,795,599.8,104.5,19.8,394.0,87.0,6.5,0,5,10,0,2026-05-24T19:11:42.365848+05:30
Panipat,Haryana,29.3909,76.9635,36.3,26,0.0,974.2,7.6,44.6,1627,1099.0,162.5,15.1,234.0,97.0,8.7,0,5,10,0,2026-05-24T19:11:42.365855+05:30
Mathura,Uttar Pradesh,27.4924,77.6737,39.2,19,0.0,981.3,8.0,45.7,645,668.7,111.8,15.7,220.0,89.0,5.0,0,5,10,0,2026-05-24T19:11:42.365883+05:30
Vrindavan,Uttar Pradesh,27.5823,77.7027,38.5,20,0.0,981.7,8.0,45.0,645,668.7,111.8,15.7,246.0,89.0,5.0,0,5,10,0,2026-05-24T19:11:42.365890+05:30
Ayodhya,Uttar Pradesh,26.7922,82.1998,34.8,37,0.0,989.4,8.35,33.1,156,115.9,47.8,7.6,299.0,134.0,8.7,0,5,7,1,2026-05-24T19:11:42.365897+05:30
Ratlam,Madhya Pradesh,23.3315,75.0367,35.7,31,0.0,953.8,8.55,49.7,62,50.1,21.2,1.1,136.0,106.0,4.0,0,5,10,1,2026-05-24T19:11:42.365904+05:30
Sagar,Madhya Pradesh,23.8388,78.7378,37.4,16,0.0,947.8,8.75,45.7,84,79.9,30.3,3.4,158.0,109.0,3.4,0,5,10,0,2026-05-24T19:11:42.365911+05:30
Satna,Madhya Pradesh,24.6005,80.8322,37.2,22,0.0,967.4,8.8,47.2,112,53.4,24.2,3.5,186.0,114.0,3.2,0,5,10,0,2026-05-24T19:11:42.365918+05:30
Akola,Maharashtra,20.7002,77.0082,38.5,23,0.0,972.5,8.85,51.5,61,42.7,19.3,4.2,189.0,107.0,5.1,0,5,10,0,2026-05-24T19:11:42.365926+05:30
Amravati,Maharashtra,20.9374,77.7796,39.5,17,0.0,964.6,8.85,47.5,67,43.5,19.9,5.1,145.0,106.0,5.9,0,5,10,0,2026-05-24T19:11:42.365935+05:30
Latur,Maharashtra,18.4088,76.5604,33.5,31,0.0,938.8,9.05,38.9,65,22.7,12.1,3.4,210.0,117.0,3.4,0,5,7,0,2026-05-24T19:11:42.365942+05:30
Nanded,Maharashtra,19.1383,77.3091,36.8,24,0.0,966.2,9.0,38.9,59,31.0,15.3,4.0,162.0,101.0,2.5,0,5,10,0,2026-05-24T19:11:42.365949+05:30
Gulbarga,Karnataka,17.3297,76.8343,32.5,44,0.0,957.3,8.2,45.4,67,23.0,16.5,5.1,201.0,97.0,2.9,0,5,7,1,2026-05-24T19:11:42.365956+05:30
Bidar,Karnataka,17.9104,77.5199,32.8,38,0.0,934.3,9.1,46.4,78,21.5,13.6,7.0,212.0,107.0,4.7,0,5,7,1,2026-05-24T19:11:42.365963+05:30
Hospet,Karnataka,15.2689,76.3909,28.6,62,0.0,955.3,8.95,40.0,39,19.6,16.3,4.9,211.0,91.0,2.2,7,5,7,1,2026-05-24T19:11:42.365970+05:30
Tirupur,Tamil Nadu,11.1085,77.3411,27.8,73,0.0,976.4,8.9,52.2,50,12.4,10.3,8.2,189.0,72.0,3.2,7,5,7,1,2026-05-24T19:11:42.365977+05:30
Alappuzha,Kerala,9.4981,76.3388,26.0,91,0.1,1011.0,8.45,37.4,42,12.6,9.1,7.5,102.0,52.0,2.3,10,0,4,1,2026-05-24T19:11:42.365985+05:30
Munnar,Kerala,10.0889,77.0595,17.9,100,0.0,857.8,8.65,31.3,30,4.2,3.9,4.9,147.0,54.0,1.2,3,10,7,1,2026-05-24T19:11:42.365995+05:30
Silchar,Assam,24.8333,92.7789,27.5,89,0.0,1003.9,8.95,31.0,65,32.0,19.9,4.7,311.0,79.0,4.0,7,5,4,1,2026-05-24T19:11:42.366003+05:30
Dibrugarh,Assam,27.4728,94.912,24.5,87,0.0,993.9,8.45,37.1,63,34.0,23.5,7.1,231.0,80.0,2.0,3,5,7,1,2026-05-24T19:11:42.366010+05:30
