city,state,latitude,longitude,temp,humidity,rain,pressure,uv_index,wind_gusts,aqi,pm10,pm2_5,no2,co,o3,so2,mosquito_risk,arthritis_risk,migraine_risk,frizz_risk,updated_at
Delhi,Delhi,28.6139,77.209,31.1,53,0.0,979.8,7.65,51.5,243,237.0,87.3,53.7,873.0,75.0,35.5,0,5,7,1,2026-05-12T21:50:40.889562+05:30
Mumbai,Maharashtra,19.076,72.8777,29.9,80,0.0,1004.5,7.9,47.5,88,37.4,17.1,9.2,256.0,74.0,9.4,7,5,4,1,2026-05-12T21:50:40.889610+05:30
Bangalore,Karnataka,12.9716,77.5946,27.1,55,0.0,911.0,8.95,43.6,85,27.8,21.3,32.8,417.0,65.0,9.2,4,5,7,1,2026-05-12T21:50:40.889631+05:30
Hyderabad,Telangana,17.385,78.4867,30.2,57,0.0,951.9,8.7,29.5,109,46.4,30.9,19.7,346.0,91.0,9.7,0,5,7,1,2026-05-12T21:50:40.889641+05:30
Chennai,Tamil Nadu,13.0827,80.2707,29.6,75,0.0,1005.2,9.2,43.9,27,7.9,5.8,7.6,132.0,36.0,2.4,7,5,4,1,2026-05-12T21:50:40.889651+05:30
Kolkata,West Bengal,22.5726,88.3639,27.3,81,0.0,1006.4,8.95,31.0,80,34.0,30.7,18.0,461.0,31.0,9.5,7,5,4,1,2026-05-12T21:50:40.889660+05:30
Pune,Maharashtra,18.5204,73.8567,29.9,55,0.0,945.6,8.5,56.5,141,32.1,21.4,15.2,275.0,128.0,19.0,4,5,7,1,2026-05-12T21:50:40.889668+05:30
Ahmedabad,Gujarat,23.0225,72.5714,40.3,19,0.0,996.9,8.15,30.2,77,63.8,45.8,44.2,372.0,58.0,18.2,0,5,10,0,2026-05-12T21:50:40.889678+05:30
Jaipur,Rajasthan,26.9124,75.7873,33.2,27,0.0,957.1,8.2,51.5,151,453.6,78.9,14.4,343.0,92.0,6.7,0,5,7,0,2026-05-12T21:50:40.889702+05:30
Lucknow,Uttar Pradesh,26.8467,80.9462,31.2,52,0.0,991.0,8.15,25.2,167,69.8,52.3,14.1,534.0,123.0,14.0,0,5,7,1,2026-05-12T21:50:40.889710+05:30
Kanpur,Uttar Pradesh,26.4499,80.3319,32.8,42,0.0,988.9,8.15,28.8,173,377.2,74.0,10.5,494.0,132.0,12.0,0,5,7,1,2026-05-12T21:50:40.889719+05:30
Chandigarh,Chandigarh,30.7333,76.7794,25.5,66,0.0,965.5,7.65,43.2,154,88.5,54.7,31.1,1861.0,93.0,19.8,7,5,7,1,2026-05-12T21:50:40.889727+05:30
Srinagar,Jammu and Kashmir,34.0837,74.7973,12.7,90,0.0,841.8,8.85,28.1,95,39.8,25.8,18.7,646.0,82.0,1.4,3,10,7,0,2026-05-12T21:50:40.889738+05:30
Jammu,Jammu and Kashmir,32.7266,74.857,25.7,57,0.0,969.9,8.45,50.8,114,136.0,73.3,37.3,822.0,76.0,8.5,4,5,7,1,2026-05-12T21:50:40.889746+05:30
Amritsar,Punjab,31.634,74.8723,27.8,60,0.0,977.5,8.35,43.2,154,103.6,58.2,11.4,711.0,104.0,7.9,4,5,7,1,2026-05-12T21:50:40.889753+05:30
Ludhiana,Punjab,30.901,75.8573,29.2,53,0.0,975.2,7.95,28.8,167,108.0,83.4,29.4,669.0,92.0,24.1,4,5,7,1,2026-05-12T21:50:40.889760+05:30
Jalandhar,Punjab,31.326,75.5762,28.1,57,0.0,976.2,8.1,27.0,156,98.5,59.3,19.7,656.0,90.0,11.9,4,5,7,1,2026-05-12T21:50:40.889767+05:30
Dehradun,Uttarakhand,30.6284,78.0322,14.4,100,0.0,827.6,8.1,33.8,100,69.6,31.4,27.3,344.0,91.0,3.3,3,10,7,0,2026-05-12T21:50:40.889777+05:30
Shimla,Himachal Pradesh,31.1048,77.1734,12.0,71,0.0,781.2,8.2,40.7,107,79.4,33.9,23.6,463.0,94.0,7.3,3,5,7,0,2026-05-12T21:50:40.889784+05:30
Manali,Himachal Pradesh,32.2396,77.1887,8.8,85,0.0,814.7,9.25,37.4,92,10.0,6.3,31.5,257.0,95.0,0.2,3,10,7,0,2026-05-12T21:50:40.889792+05:30
Gurgaon,Haryana,28.4595,77.0266,30.5,54,0.0,978.0,7.8,53.3,909,521.5,128.5,68.1,980.0,70.0,39.8,0,5,7,1,2026-05-12T21:50:40.889799+05:30
Noida,Uttar Pradesh,28.5355,77.391,27.9,70,0.0,981.0,7.7,49.7,909,521.5,128.5,68.1,1066.0,70.0,39.8,7,5,7,1,2026-05-12T21:50:40.889805+05:30
Ghaziabad,Uttar Pradesh,28.6692,77.4538,28.1,68,0.0,979.3,7.65,45.7,155,142.0,64.3,22.4,619.0,92.0,12.9,7,5,7,1,2026-05-12T21:50:40.889812+05:30
Faridabad,Haryana,28.4089,77.3178,30.1,58,0.0,980.4,7.75,59.8,909,521.5,128.5,68.1,1198.0,70.0,39.8,0,5,7,1,2026-05-12T21:50:40.889819+05:30
Meerut,Uttar Pradesh,28.9845,77.7064,28.8,66,0.0,978.3,7.6,42.8,155,142.0,64.3,22.4,566.0,92.0,12.9,7,5,7,1,2026-05-12T21:50:40.889825+05:30
Agra,Uttar Pradesh,27.1767,78.0081,32.2,45,0.0,984.0,7.85,31.3,549,802.8,137.8,23.4,570.0,100.0,23.4,0,5,7,1,2026-05-12T21:50:40.889831+05:30
Varanasi,Uttar Pradesh,25.3176,82.9739,31.6,52,0.0,995.5,8.7,32.0,169,66.4,57.6,16.4,473.0,126.0,19.9,0,5,7,1,2026-05-12T21:50:40.889839+05:30
Prayagraj,Uttar Pradesh,25.4358,81.8463,32.8,45,0.0,993.6,8.55,34.9,159,64.7,51.8,17.1,526.0,108.0,14.2,0,5,7,1,2026-05-12T21:50:40.889848+05:30
Gorakhpur,Uttar Pradesh,26.7606,83.3732,27.8,70,0.0,996.1,8.5,43.9,149,46.1,40.4,10.6,485.0,120.0,7.9,7,5,7,1,2026-05-12T21:50:40.889854+05:30
Bareilly,Uttar Pradesh,28.367,79.4304,28.0,70,0.0,984.0,7.95,32.8,164,63.6,47.3,11.6,577.0,114.0,9.2,7,5,7,1,2026-05-12T21:50:40.889861+05:30
Aligarh,Uttar Pradesh,27.8974,78.088,29.5,58,0.0,982.1,7.85,57.2,366,299.9,85.4,25.8,599.0,98.0,22.7,4,5,7,1,2026-05-12T21:50:40.889868+05:30
Moradabad,Uttar Pradesh,28.8386,78.7733,28.0,71,0.0,980.7,7.8,30.2,156,88.5,52.6,16.8,687.0,119.0,12.9,7,5,7,1,2026-05-12T21:50:40.889875+05:30
Saharanpur,Uttar Pradesh,29.9637,77.546,28.0,65,0.0,972.8,7.4,37.4,150,194.2,100.8,45.4,925.0,73.0,23.7,7,5,7,1,2026-05-12T21:50:40.889881+05:30
Jhansi,Uttar Pradesh,25.4484,78.5685,32.0,46,0.0,974.3,8.45,30.2,96,68.7,30.6,9.2,386.0,82.0,9.6,0,5,7,1,2026-05-12T21:50:44.141178+05:30
Surat,Gujarat,21.1702,72.8311,31.3,71,0.0,1002.0,7.75,34.9,98,34.5,22.7,35.6,519.0,42.0,48.0,3,5,4,1,2026-05-12T21:50:44.141213+05:30
Vadodara,Gujarat,22.3072,73.1812,37.6,22,0.0,999.3,8.1,28.1,122,46.3,34.3,37.3,360.0,77.0,18.4,0,5,10,0,2026-05-12T21:50:44.141225+05:30
Rajkot,Gujarat,22.3039,70.8022,31.6,56,0.0,990.6,7.75,50.0,77,30.0,14.0,6.7,182.0,81.0,8.2,0,5,7,1,2026-05-12T21:50:44.141234+05:30
Thane,Maharashtra,19.2183,72.9781,30.0,77,0.0,1004.0,7.9,42.5,88,37.4,17.1,9.2,222.0,74.0,9.4,7,5,4,1,2026-05-12T21:50:44.141242+05:30
Nagpur,Maharashtra,21.1458,79.0882,34.9,31,0.0,970.5,8.95,40.3,148,97.3,46.2,28.8,305.0,91.0,23.9,0,5,7,0,2026-05-12T21:50:44.141249+05:30
Nashik,Maharashtra,19.9975,73.7898,30.5,36,0.0,942.9,8.2,52.2,126,33.6,18.6,9.6,281.0,98.0,6.4,0,5,7,0,2026-05-12T21:50:44.141257+05:30
Aurangabad,Maharashtra,19.8762,75.3433,34.6,22,0.0,941.1,9.05,42.1,126,62.9,32.7,21.9,409.0,95.0,13.3,0,5,7,0,2026-05-12T21:50:44.141264+05:30
Solapur,Maharashtra,17.6599,75.9064,33.9,33,0.0,954.6,8.35,37.4,132,39.1,25.5,10.2,432.0,111.0,6.0,0,5,7,0,2026-05-12T21:50:44.141272+05:30
Kolhapur,Maharashtra,16.705,74.2433,27.6,70,0.0,945.7,8.35,48.6,80,31.7,18.2,10.9,246.0,71.0,5.2,7,5,7,1,2026-05-12T21:50:44.141279+05:30
Goa,Goa,15.2993,74.124,29.2,79,0.0,995.3,8.9,31.0,78,48.5,22.6,9.1,243.0,59.0,2.5,7,5,7,1,2026-05-12T21:50:44.141286+05:30
Jodhpur,Rajasthan,26.2389,73.0243,35.7,22,0.0,978.5,8.35,44.3,118,220.7,33.8,6.1,223.0,107.0,2.9,0,5,10,0,2026-05-12T21:50:44.141293+05:30
Udaipur,Rajasthan,24.5854,73.7125,33.5,23,0.0,944.1,8.85,33.1,93,22.8,13.5,3.9,217.0,115.0,2.6,0,5,7,0,2026-05-12T21:50:44.141300+05:30
Kota,Rajasthan,25.2138,75.8648,36.1,21,0.0,975.1,8.4,38.5,87,62.4,29.3,15.7,457.0,74.0,5.7,0,5,10,0,2026-05-12T21:50:44.141308+05:30
Bikaner,Rajasthan,28.0229,73.3119,33.5,32,0.0,976.9,8.35,46.8,89,127.6,31.3,4.6,332.0,91.0,5.5,0,5,7,0,2026-05-12T21:50:44.141315+05:30
Ajmer,Rajasthan,26.4499,74.6399,33.8,22,0.0,951.4,8.35,52.2,84,59.8,18.5,7.2,214.0,96.0,3.9,0,5,7,0,2026-05-12T21:50:44.141322+05:30
Gwalior,Madhya Pradesh,26.2183,78.1828,32.2,41,0.0,979.3,7.7,32.8,103,170.9,48.9,6.5,534.0,112.0,9.8,0,5,7,1,2026-05-12T21:50:44.141328+05:30
Indore,Madhya Pradesh,22.7196,75.8577,35.9,20,0.0,945.6,8.65,37.1,100,68.9,29.7,8.4,566.0,97.0,7.2,0,5,10,0,2026-05-12T21:50:44.141335+05:30
Bhopal,Madhya Pradesh,23.2599,77.4126,34.5,23,0.0,951.0,8.7,40.0,103,95.2,36.9,10.8,380.0,87.0,7.7,0,5,7,0,2026-05-12T21:50:44.141342+05:30
Jabalpur,Madhya Pradesh,23.1815,79.9864,33.0,28,0.0,959.1,8.85,39.2,96,105.9,40.9,23.4,288.0,84.0,8.1,0,5,7,0,2026-05-12T21:50:44.141349+05:30
Ujjain,Madhya Pradesh,23.1765,75.7885,35.0,19,0.0,951.1,8.6,34.6,98,74.0,33.5,12.0,549.0,96.0,7.8,0,5,7,0,2026-05-12T21:50:44.141357+05:30
Visakhapatnam,Andhra Pradesh,17.6868,83.2185,29.0,75,0.0,1003.2,9.1,41.8,63,17.5,14.6,21.8,809.0,26.0,6.1,7,5,4,1,2026-05-12T21:50:44.141364+05:30
Vijayawada,Andhra Pradesh,16.5062,80.648,29.5,74,0.0,1001.4,9.15,38.2,53,9.8,7.8,7.0,157.0,38.0,6.7,7,5,4,1,2026-05-12T21:50:44.141370+05:30
Guntur,Andhra Pradesh,16.3067,80.4365,29.6,73,0.0,1002.5,9.2,38.9,55,10.6,8.5,7.2,155.0,45.0,7.6,7,5,4,1,2026-05-12T21:50:44.141377+05:30
Nellore,Andhra Pradesh,14.4426,79.9865,29.2,75,0.0,1004.4,9.15,37.4,28,7.6,5.3,3.4,182.0,36.0,2.2,7,5,4,1,2026-05-12T21:50:44.141384+05:30
Kurnool,Andhra Pradesh,15.8281,78.0373,33.3,44,0.0,974.8,9.15,37.8,79,45.5,28.3,13.5,232.0,81.0,4.5,0,5,7,1,2026-05-12T21:50:44.141391+05:30
Kakinada,Andhra Pradesh,16.9891,82.2475,29.1,76,0.0,1006.6,9.1,40.7,26,7.7,4.6,1.1,175.0,48.0,0.6,7,5,4,1,2026-05-12T21:50:44.141397+05:30
Tirupati,Andhra Pradesh,13.6288,79.4192,28.0,76,0.0,989.7,9.25,37.8,53,12.8,10.7,14.5,183.0,24.0,2.5,7,5,7,1,2026-05-12T21:50:44.141404+05:30
Warangal,Telangana,17.9689,79.5941,31.2,56,0.0,977.1,8.6,41.0,106,45.1,33.6,11.9,385.0,103.0,9.3,0,5,7,1,2026-05-12T21:50:44.141410+05:30
Nizamabad,Telangana,18.6725,78.0941,32.2,42,0.0,962.5,9.05,35.6,116,43.4,30.6,10.4,401.0,102.0,7.9,0,5,7,1,2026-05-12T21:50:44.141416+05:30
Mysore,Karnataka,12.2958,76.6396,25.2,70,0.0,927.0,8.85,29.9,122,44.2,31.8,32.8,819.0,83.0,7.6,7,5,7,1,2026-05-12T21:50:44.141423+05:30
Mangalore,Karnataka,12.9141,74.856,27.1,98,0.0,1004.7,8.95,41.4,89,47.5,27.6,12.8,295.0,55.0,4.3,7,5,4,1,2026-05-12T21:50:44.141429+05:30
Hubli-Dharwad,Karnataka,15.3647,75.124,26.8,77,0.0,939.1,9.1,36.7,119,34.7,22.9,11.1,221.0,79.0,3.7,7,5,7,1,2026-05-12T21:50:44.141436+05:30
Belgaum,Karnataka,15.8497,74.4977,26.1,78,0.0,924.3,8.2,37.1,97,31.2,18.9,14.6,195.0,52.0,4.5,7,5,7,1,2026-05-12T21:50:47.408257+05:30
Coimbatore,Tamil Nadu,11.0168,76.9558,26.5,79,0.0,960.1,9.05,25.6,114,30.9,25.5,19.6,329.0,76.0,5.5,7,5,7,1,2026-05-12T21:50:47.408294+05:30
Madurai,Tamil Nadu,9.9252,78.1198,28.5,80,0.0,991.5,9.05,42.5,89,28.2,25.5,27.9,267.0,65.0,11.6,7,5,7,1,2026-05-12T21:50:47.408306+05:30
Trichy,Tamil Nadu,10.7905,78.7047,27.1,83,0.0,997.7,9.1,33.5,68,22.6,21.9,22.2,294.0,47.0,15.0,7,5,7,1,2026-05-12T21:50:47.408315+05:30
Salem,Tamil Nadu,11.6643,78.146,29.2,63,0.0,975.1,8.8,31.0,121,31.2,25.0,22.2,332.0,73.0,8.6,7,5,7,1,2026-05-12T21:50:47.408324+05:30
Tirunelveli,Tamil Nadu,8.7139,77.7567,29.6,72,0.0,1001.1,9.0,42.5,99,31.5,27.8,16.9,345.0,66.0,4.0,7,5,4,1,2026-05-12T21:50:47.408331+05:30
Vellore,Tamil Nadu,12.9165,79.1325,28.0,75,0.0,983.0,9.1,33.5,69,20.5,18.6,20.9,249.0,41.0,11.3,7,5,7,1,2026-05-12T21:50:47.408339+05:30
Erode,Tamil Nadu,11.341,77.7172,30.4,56,0.0,986.8,9.15,24.5,154,39.5,31.2,28.9,510.0,79.0,9.5,0,5,7,1,2026-05-12T21:50:47.408346+05:30
Kochi,Kerala,9.9312,76.2673,25.6,96,0.0,1007.9,7.9,37.1,88,33.5,26.3,23.0,241.0,60.0,5.2,7,5,4,1,2026-05-12T21:50:47.408353+05:30
Thiruvananthapuram,Kerala,8.5241,76.9366,25.0,93,0.0,1007.0,8.55,36.7,69,29.1,18.9,4.2,252.0,104.0,2.3,7,5,4,1,2026-05-12T21:50:47.408360+05:30
Kozhikode,Kerala,11.2588,75.7804,27.0,90,0.0,1006.2,8.7,41.8,69,46.9,23.6,2.7,335.0,95.0,1.8,7,5,4,1,2026-05-12T21:50:47.408368+05:30
Thrissur,Kerala,10.5276,76.2144,24.5,97,0.0,1006.3,8.7,35.6,90,37.5,29.8,18.1,373.0,56.0,3.7,3,5,4,1,2026-05-12T21:50:47.408376+05:30
Kannur,Kerala,11.8745,75.3704,26.5,97,0.0,1005.2,8.95,48.6,79,46.4,30.2,25.3,257.0,46.0,4.0,7,5,4,1,2026-05-12T21:50:47.408383+05:30
Patna,Bihar,25.5941,85.1376,26.6,81,0.0,999.4,8.65,35.3,176,64.3,56.9,13.2,445.0,129.0,13.9,7,5,7,1,2026-05-12T21:50:47.408391+05:30
Gaya,Bihar,24.7914,85.0002,28.5,67,0.0,992.2,8.65,29.5,184,66.1,56.8,9.3,406.0,139.0,16.3,7,5,7,1,2026-05-12T21:50:47.408397+05:30
Muzaffarpur,Bihar,26.1209,85.3647,25.6,89,0.0,999.8,8.75,43.6,159,59.5,54.0,13.3,428.0,120.0,10.5,7,5,7,1,2026-05-12T21:50:47.408404+05:30
Bhagalpur,Bihar,25.2425,87.0117,24.4,95,0.1,1001.3,8.6,35.6,143,50.9,45.2,18.0,296.0,94.0,13.9,6,5,4,1,2026-05-12T21:50:47.408411+05:30
Ranchi,Jharkhand,23.3441,85.3096,23.8,78,0.0,936.7,9.1,35.3,113,60.5,44.2,7.9,299.0,121.0,14.8,3,5,7,1,2026-05-12T21:50:47.408418+05:30
Jamshedpur,Jharkhand,22.8046,86.2029,26.8,79,0.0,990.3,9.1,36.4,118,59.4,48.0,19.7,527.0,76.0,15.5,7,5,7,1,2026-05-12T21:50:47.408425+05:30
Dhanbad,Jharkhand,23.7957,86.4304,25.4,88,0.0,979.4,9.05,31.0,128,88.0,78.2,62.8,334.0,48.0,68.5,7,5,7,1,2026-05-12T21:50:47.408433+05:30
Bokaro,Jharkhand,23.6693,86.1511,25.8,88,0.0,983.1,9.05,32.0,131,92.0,78.5,54.6,1422.0,66.0,69.9,7,5,7,1,2026-05-12T21:50:47.408441+05:30
Bhubaneswar,Odisha,20.2961,85.8245,27.2,83,0.0,1002.9,9.15,37.4,61,14.4,11.4,8.3,283.0,42.0,3.4,7,5,4,1,2026-05-12T21:50:47.408448+05:30
Cuttack,Odisha,20.4625,85.8828,27.5,82,0.0,1004.7,9.2,34.6,61,14.4,11.4,8.3,277.0,42.0,3.4,7,5,4,1,2026-05-12T21:50:47.408456+05:30
Rourkela,Odisha,22.2604,84.8536,29.8,59,0.0,983.8,9.0,42.1,137,56.3,47.4,12.1,447.0,125.0,51.4,4,5,7,1,2026-05-12T21:50:47.408462+05:30
Raipur,Chhattisgarh,21.2514,81.6296,32.8,40,0.0,972.0,9.0,32.0,173,72.6,46.8,27.9,435.0,100.0,8.5,0,5,7,1,2026-05-12T21:50:47.408469+05:30
Bhilai,Chhattisgarh,21.1938,81.3509,32.7,42,0.0,972.4,9.0,33.1,148,72.9,47.8,36.1,590.0,87.0,9.4,0,5,7,1,2026-05-12T21:50:47.408475+05:30
Guwahati,Assam,26.1158,91.7086,24.0,88,0.0,1002.4,8.65,23.0,85,36.6,33.9,14.9,413.0,44.0,2.4,3,5,4,1,2026-05-12T21:50:47.408481+05:30
Agartala,Tripura,23.8315,91.2868,25.0,85,0.0,1007.2,8.85,19.8,89,86.4,82.2,54.8,682.0,53.0,7.4,7,5,4,1,2026-05-12T21:50:47.408488+05:30
Shillong,Meghalaya,25.5788,91.8933,15.8,95,0.0,856.6,5.2,22.3,82,29.6,27.8,16.1,589.0,59.0,2.1,3,10,3,0,2026-05-12T21:50:47.408494+05:30
Imphal,Manipur,24.817,93.9368,20.0,88,0.0,923.3,9.2,24.5,91,53.7,47.7,29.0,775.0,62.0,6.5,3,5,7,1,2026-05-12T21:50:47.408501+05:30
Aizawl,Mizoram,23.7271,92.7176,18.7,89,0.0,892.9,9.05,21.2,67,39.8,33.6,15.9,439.0,53.0,1.7,3,10,7,1,2026-05-12T21:50:47.408507+05:30
Kohima,Nagaland,25.6701,94.1077,14.5,97,0.1,854.2,8.3,29.5,65,28.2,23.6,12.3,431.0,87.0,2.2,6,10,7,0,2026-05-12T21:50:47.408514+05:30
Gangtok,Sikkim,27.3314,88.6138,14.0,98,0.3,837.0,9.05,39.6,68,25.4,22.5,19.2,536.0,82.0,1.3,6,10,7,0,2026-05-12T21:50:47.408520+05:30
Siliguri,West Bengal,26.7271,88.3953,23.0,86,0.0,993.7,8.25,26.3,121,61.5,55.5,35.3,1015.0,67.0,5.4,3,5,7,1,2026-05-12T21:50:50.658462+05:30
Durgapur,West Bengal,23.5204,87.3119,26.1,90,0.0,994.9,9.0,28.4,109,60.5,55.5,31.4,363.0,61.0,30.6,7,5,7,1,2026-05-12T21:50:50.658498+05:30
Asansol,West Bengal,23.6739,86.9524,25.3,90,0.0,993.3,9.0,28.8,101,68.2,61.0,43.3,599.0,48.0,44.0,7,5,7,1,2026-05-12T21:50:50.658510+05:30
Pondicherry,Puducherry,11.9139,79.8145,28.4,85,0.0,1006.3,9.1,37.1,29,7.4,5.2,3.4,324.0,35.0,0.4,7,5,4,1,2026-05-12T21:50:50.658520+05:30
Port Blair,Andaman and Nicobar Islands,11.6234,92.7265,26.2,95,0.0,1007.0,2.15,29.2,24,2.8,1.9,0.4,163.0,48.0,0.1,7,5,0,1,2026-05-12T21:50:50.658528+05:30
Haridwar,Uttarakhand,29.9457,78.1642,26.2,74,0.0,971.1,7.45,24.5,160,185.3,80.6,26.1,542.0,109.0,17.3,7,5,7,1,2026-05-12T21:50:50.658536+05:30
Rishikesh,Uttarakhand,30.0869,78.2676,25.3,72,0.0,964.0,7.55,20.5,160,155.1,58.8,11.5,519.0,137.0,11.7,7,5,7,1,2026-05-12T21:50:50.658543+05:30
Nainital,Uttarakhand,29.3919,79.4542,12.8,100,0.0,803.1,7.95,42.1,144,87.5,45.4,15.9,412.0,105.0,8.3,3,10,7,0,2026-05-12T21:50:50.658550+05:30
Mussoorie,Uttarakhand,30.4599,78.0664,13.2,99,0.0,800.0,7.95,50.8,152,145.8,60.1,23.4,423.0,118.0,16.7,3,10,7,0,2026-05-12T21:50:50.658558+05:30
Dharamshala,Himachal Pradesh,32.219,76.3234,19.1,62,0.0,867.2,8.35,45.7,88,30.7,19.2,12.6,361.0,69.0,1.0,3,5,7,0,2026-05-12T21:50:50.658566+05:30
Dalhousie,Himachal Pradesh,32.5387,75.971,13.1,75,0.0,801.4,8.6,37.8,116,67.5,36.7,23.0,612.0,85.0,3.1,3,5,7,0,2026-05-12T21:50:50.658574+05:30
Patiala,Punjab,30.3398,76.3869,28.7,62,0.0,974.8,7.55,40.7,363,245.9,97.6,27.0,671.0,109.0,19.7,7,5,7,1,2026-05-12T21:50:50.658581+05:30
Bhatinda,Punjab,30.211,74.9455,30.5,49,0.0,980.0,8.2,35.6,348,698.5,140.6,13.6,382.0,121.0,18.3,0,5,7,1,2026-05-12T21:50:50.658588+05:30
Rohtak,Haryana,28.8955,76.6066,28.9,62,0.0,978.2,7.7,55.8,520,437.7,115.9,48.1,537.0,91.0,40.0,7,5,7,1,2026-05-12T21:50:50.658595+05:30
Panipat,Haryana,29.3909,76.9635,28.1,67,0.0,977.0,7.55,41.8,796,321.3,94.8,30.0,675.0,93.0,19.0,7,5,7,1,2026-05-12T21:50:50.658602+05:30
Mathura,Uttar Pradesh,27.4924,77.6737,30.1,58,0.0,983.1,7.95,35.3,556,592.3,113.4,31.8,508.0,96.0,17.6,0,5,7,1,2026-05-12T21:50:50.658609+05:30
Vrindavan,Uttar Pradesh,27.5823,77.7027,30.0,57,0.0,983.5,7.95,35.6,556,592.3,113.4,31.8,503.0,96.0,17.6,4,5,7,1,2026-05-12T21:50:50.658616+05:30
Ayodhya,Uttar Pradesh,26.7922,82.1998,28.9,61,0.0,993.7,8.3,36.4,134,66.8,55.4,25.5,444.0,90.0,10.9,7,5,7,1,2026-05-12T21:50:50.658623+05:30
Ratlam,Madhya Pradesh,23.3315,75.0367,33.5,22,0.0,951.7,8.55,42.8,96,56.7,28.6,7.4,208.0,90.0,6.9,0,5,7,0,2026-05-12T21:50:50.658630+05:30
Sagar,Madhya Pradesh,23.8388,78.7378,32.7,32,0.0,948.1,8.75,41.4,102,89.4,30.9,12.4,331.0,90.0,7.3,0,5,7,0,2026-05-12T21:50:50.658637+05:30
Satna,Madhya Pradesh,24.6005,80.8322,31.5,42,0.0,969.0,8.75,31.7,137,71.2,39.1,9.0,365.0,120.0,8.5,0,5,7,1,2026-05-12T21:50:50.658643+05:30
Akola,Maharashtra,20.7002,77.0082,36.5,25,0.0,971.4,8.9,33.5,127,65.4,27.5,15.2,503.0,99.0,6.4,0,5,10,0,2026-05-12T21:50:50.658651+05:30
Amravati,Maharashtra,20.9374,77.7796,35.0,27,0.0,964.1,8.9,43.6,121,82.7,34.0,23.5,379.0,86.0,6.2,0,5,7,0,2026-05-12T21:50:50.658658+05:30
Latur,Maharashtra,18.4088,76.5604,33.2,30,0.0,937.7,9.05,42.8,122,42.6,27.2,11.7,277.0,99.0,8.0,0,5,7,0,2026-05-12T21:50:50.658665+05:30
Nanded,Maharashtra,19.1383,77.3091,33.4,36,0.0,965.5,9.0,31.0,103,43.4,28.8,14.2,313.0,88.0,5.4,0,5,7,1,2026-05-12T21:50:50.658672+05:30
Gulbarga,Karnataka,17.3297,76.8343,33.0,34,0.0,956.3,8.7,33.1,131,36.9,24.4,13.4,306.0,105.0,7.0,0,5,7,0,2026-05-12T21:50:50.658678+05:30
Bidar,Karnataka,17.9104,77.5199,30.8,43,0.0,933.9,9.15,38.5,113,48.3,31.3,15.1,338.0,97.0,5.9,0,5,7,1,2026-05-12T21:50:50.658702+05:30
Hospet,Karnataka,15.2689,76.3909,30.5,51,0.0,953.4,9.2,28.4,133,55.2,37.1,30.3,511.0,85.0,10.3,0,5,7,1,2026-05-12T21:50:50.658710+05:30
Tirupur,Tamil Nadu,11.1085,77.3411,29.0,66,0.0,973.2,9.25,31.3,145,49.0,38.8,37.8,535.0,80.0,9.4,7,5,7,1,2026-05-12T21:50:50.658716+05:30
Alappuzha,Kerala,9.4981,76.3388,25.1,96,0.0,1007.7,8.75,33.8,76,34.8,23.0,11.1,208.0,88.0,4.0,7,5,4,1,2026-05-12T21:50:50.658724+05:30
Munnar,Kerala,10.0889,77.0595,18.5,98,0.0,855.8,9.25,22.0,85,31.5,26.5,14.2,377.0,67.0,3.0,3,10,7,1,2026-05-12T21:50:50.658731+05:30
Silchar,Assam,24.8333,92.7789,25.2,86,0.0,1005.8,8.85,21.2,94,67.3,63.1,24.6,606.0,65.0,11.9,7,5,4,1,2026-05-12T21:50:50.658738+05:30
Dibrugarh,Assam,27.4728,94.912,23.9,83,0.0,996.4,8.8,19.1,85,46.2,41.8,25.4,645.0,62.0,4.3,3,5,7,1,2026-05-12T21:50:50.658745+05:30
