city,state,latitude,longitude,temp,humidity,rain,pressure,uv_index,wind_gusts,aqi,pm10,pm2_5,no2,co,o3,so2,mosquito_risk,arthritis_risk,migraine_risk,frizz_risk,updated_at
Delhi,Delhi,28.6139,77.209,31.1,71,0.0,976.4,6.2,33.8,458,637.0,195.6,65.9,345.0,2.0,24.7,3,5,7,1,2026-07-17T02:32:41.988535+05:30
Mumbai,Maharashtra,19.076,72.8777,26.1,93,0.2,1006.5,7.65,40.0,68,23.2,11.1,7.5,157.0,43.0,6.7,10,5,4,1,2026-07-17T02:32:41.988584+05:30
Bangalore,Karnataka,12.9716,77.5946,21.7,82,0.0,911.5,8.45,50.8,66,11.2,7.3,8.6,163.0,39.0,4.0,3,5,7,1,2026-07-17T02:32:41.988600+05:30
Hyderabad,Telangana,17.385,78.4867,26.6,67,0.0,951.0,1.7,42.5,65,27.4,15.5,8.9,186.0,47.0,5.3,7,5,3,1,2026-07-17T02:32:41.988611+05:30
Chennai,Tamil Nadu,13.0827,80.2707,30.0,67,0.0,1004.8,8.3,41.8,79,28.4,21.6,14.3,228.0,60.0,10.6,7,5,4,1,2026-07-17T02:32:41.988621+05:30
Kolkata,West Bengal,22.5726,88.3639,27.3,89,0.0,997.5,7.2,37.8,62,24.1,20.0,9.4,406.0,79.0,7.7,7,5,7,1,2026-07-17T02:32:41.988630+05:30
Pune,Maharashtra,18.5204,73.8567,23.6,89,0.0,946.2,7.6,48.2,47,5.7,4.4,8.5,148.0,32.0,7.1,3,5,7,1,2026-07-17T02:32:41.988649+05:30
Ahmedabad,Gujarat,23.0225,72.5714,28.7,75,0.0,998.3,5.9,37.4,79,25.0,16.3,11.6,177.0,35.0,4.3,7,5,3,1,2026-07-17T02:32:41.988659+05:30
Jaipur,Rajasthan,26.9124,75.7873,30.2,55,0.0,954.8,8.05,40.0,285,674.3,120.6,8.9,196.0,55.0,4.3,0,5,7,1,2026-07-17T02:32:41.988667+05:30
Lucknow,Uttar Pradesh,26.8467,80.9462,28.9,91,0.0,987.3,6.65,28.4,159,64.0,46.7,14.3,494.0,77.0,7.5,7,5,7,1,2026-07-17T02:32:41.988675+05:30
Kanpur,Uttar Pradesh,26.4499,80.3319,29.4,86,0.0,985.2,8.05,20.2,163,87.3,51.2,13.3,267.0,76.0,5.8,7,5,7,1,2026-07-17T02:32:41.988683+05:30
Chandigarh,Chandigarh,30.7333,76.7794,27.3,84,0.0,962.3,6.85,34.6,154,76.6,69.6,41.0,930.0,42.0,12.7,7,5,7,1,2026-07-17T02:32:41.988691+05:30
Srinagar,Jammu and Kashmir,34.0837,74.7973,21.5,83,0.0,837.3,9.05,23.4,92,46.1,43.2,34.8,640.0,8.0,2.5,3,5,7,1,2026-07-17T02:32:41.988699+05:30
Jammu,Jammu and Kashmir,32.7266,74.857,27.8,88,0.2,966.2,8.6,23.8,148,65.0,57.3,41.0,415.0,30.0,5.0,10,5,7,1,2026-07-17T02:32:41.988706+05:30
Amritsar,Punjab,31.634,74.8723,29.0,83,0.0,973.9,8.3,22.3,173,157.4,131.3,81.6,748.0,8.0,13.0,7,5,7,1,2026-07-17T02:32:41.988714+05:30
Ludhiana,Punjab,30.901,75.8573,29.5,86,0.0,972.0,7.95,30.6,171,163.9,116.2,63.7,1612.0,18.0,10.7,7,5,7,1,2026-07-17T02:32:41.988737+05:30
Jalandhar,Punjab,31.326,75.5762,28.2,90,0.0,973.0,8.25,24.8,180,176.0,142.0,89.5,1468.0,1.0,11.3,7,5,7,1,2026-07-17T02:32:41.988747+05:30
Dehradun,Uttarakhand,30.6284,78.0322,18.1,100,0.0,826.7,6.6,27.0,87,54.8,43.2,24.8,338.0,67.0,5.1,3,10,7,1,2026-07-17T02:32:41.988755+05:30
Shimla,Himachal Pradesh,31.1048,77.1734,14.3,99,0.0,780.4,6.65,39.6,99,56.8,42.6,12.3,368.0,87.0,4.5,3,10,7,0,2026-07-17T02:32:41.988763+05:30
Manali,Himachal Pradesh,32.2396,77.1887,19.4,82,0.0,816.6,5.25,32.8,44,15.5,11.2,21.0,327.0,70.0,0.0,3,10,3,1,2026-07-17T02:32:41.988770+05:30
Gurgaon,Haryana,28.4595,77.0266,30.8,60,0.0,975.0,6.15,35.6,435,674.3,168.1,34.5,257.0,27.0,12.5,0,5,7,1,2026-07-17T02:32:41.988777+05:30
Noida,Uttar Pradesh,28.5355,77.391,30.0,83,0.0,977.7,6.35,25.9,435,674.3,168.1,34.5,392.0,27.0,12.5,7,5,7,1,2026-07-17T02:32:41.988784+05:30
Ghaziabad,Uttar Pradesh,28.6692,77.4538,28.8,83,0.0,975.9,5.8,30.2,335,694.8,207.7,76.4,756.0,0.0,29.9,7,5,3,1,2026-07-17T02:32:41.988791+05:30
Faridabad,Haryana,28.4089,77.3178,30.9,70,0.0,977.1,6.35,33.5,435,674.3,168.1,34.5,268.0,27.0,12.5,3,5,7,1,2026-07-17T02:32:41.988798+05:30
Meerut,Uttar Pradesh,28.9845,77.7064,29.8,80,0.0,974.8,7.6,29.9,335,694.8,207.7,76.4,1222.0,0.0,29.9,7,5,7,1,2026-07-17T02:32:41.988805+05:30
Agra,Uttar Pradesh,27.1767,78.0081,31.6,56,0.0,981.4,6.8,34.9,150,76.4,40.7,15.2,200.0,53.0,5.6,0,5,7,1,2026-07-17T02:32:41.988812+05:30
Varanasi,Uttar Pradesh,25.3176,82.9739,26.9,96,0.1,991.5,5.2,18.0,172,57.3,35.9,9.8,658.0,105.0,7.5,10,5,3,1,2026-07-17T02:32:41.988824+05:30
Prayagraj,Uttar Pradesh,25.4358,81.8463,28.9,92,0.0,989.7,7.9,29.9,163,74.7,45.5,12.0,268.0,90.0,7.8,7,5,7,1,2026-07-17T02:32:41.988832+05:30
Gorakhpur,Uttar Pradesh,26.7606,83.3732,26.9,95,0.1,991.8,7.2,28.4,110,24.8,24.2,13.3,667.0,80.0,3.9,10,5,7,1,2026-07-17T02:32:41.988839+05:30
Bareilly,Uttar Pradesh,28.367,79.4304,28.3,93,0.0,980.6,6.8,28.8,170,79.2,56.2,12.8,446.0,86.0,12.1,7,5,7,1,2026-07-17T02:32:41.988846+05:30
Aligarh,Uttar Pradesh,27.8974,78.088,29.8,71,0.0,978.8,7.35,27.4,260,504.8,130.9,23.0,282.0,38.0,5.8,7,5,7,1,2026-07-17T02:32:41.988853+05:30
Moradabad,Uttar Pradesh,28.8386,78.7733,28.4,92,0.0,977.4,7.15,31.0,188,249.6,129.5,49.3,489.0,24.0,14.2,7,5,7,1,2026-07-17T02:32:41.988860+05:30
Saharanpur,Uttar Pradesh,29.9637,77.546,28.3,83,0.0,969.2,7.3,32.8,168,220.7,115.7,50.7,714.0,39.0,17.4,7,5,7,1,2026-07-17T02:32:41.988867+05:30
Jhansi,Uttar Pradesh,25.4484,78.5685,29.7,67,0.0,972.3,7.25,42.8,87,46.4,26.4,9.7,174.0,63.0,6.5,7,5,7,1,2026-07-17T02:32:45.574006+05:30
Surat,Gujarat,21.1702,72.8311,26.8,91,0.1,1003.5,7.7,48.2,74,23.5,16.8,24.7,282.0,20.0,37.8,10,5,4,1,2026-07-17T02:32:45.574040+05:30
Vadodara,Gujarat,22.3072,73.1812,28.1,85,0.0,1000.7,5.5,40.0,70,18.7,13.9,19.0,132.0,25.0,18.9,7,5,0,1,2026-07-17T02:32:45.574051+05:30
Rajkot,Gujarat,22.3039,70.8022,26.6,87,0.0,990.5,6.4,44.3,62,14.3,8.4,7.4,103.0,31.0,4.4,7,5,7,1,2026-07-17T02:32:45.574059+05:30
Thane,Maharashtra,19.2183,72.9781,24.9,98,0.1,1005.9,7.0,37.4,68,23.2,11.1,7.5,161.0,43.0,6.7,6,5,4,1,2026-07-17T02:32:45.574068+05:30
Nagpur,Maharashtra,21.1458,79.0882,29.0,66,0.0,969.2,0.85,35.6,80,31.9,20.8,11.1,222.0,52.0,9.3,7,5,3,1,2026-07-17T02:32:45.574076+05:30
Nashik,Maharashtra,19.9975,73.7898,23.2,94,0.0,943.0,7.4,47.5,55,9.3,6.2,12.8,133.0,28.0,15.2,3,5,7,1,2026-07-17T02:32:45.574083+05:30
Aurangabad,Maharashtra,19.8762,75.3433,23.5,89,0.0,942.0,8.15,51.8,57,13.0,9.1,9.4,169.0,46.0,13.2,3,5,7,1,2026-07-17T02:32:45.574091+05:30
Solapur,Maharashtra,17.6599,75.9064,26.6,69,0.0,955.8,6.7,42.8,51,10.9,7.2,6.0,151.0,38.0,2.5,7,5,7,1,2026-07-17T02:32:45.574099+05:30
Kolhapur,Maharashtra,16.705,74.2433,23.0,90,0.0,946.8,7.6,49.7,49,5.5,4.2,5.0,115.0,38.0,2.5,3,5,7,1,2026-07-17T02:32:45.574106+05:30
Goa,Goa,15.2993,74.124,24.3,98,0.1,998.3,7.1,34.6,66,24.7,13.0,3.2,319.0,45.0,1.1,6,5,7,1,2026-07-17T02:32:45.574113+05:30
Jodhpur,Rajasthan,26.2389,73.0243,30.4,59,0.0,978.1,8.4,42.1,142,119.2,31.8,6.0,127.0,54.0,2.1,0,5,7,1,2026-07-17T02:32:45.574120+05:30
Udaipur,Rajasthan,24.5854,73.7125,24.9,81,0.0,942.6,8.65,39.2,82,36.7,21.8,12.5,161.0,45.0,11.9,3,5,7,1,2026-07-17T02:32:45.574128+05:30
Kota,Rajasthan,25.2138,75.8648,30.3,57,0.0,974.3,8.2,33.1,84,44.9,27.1,7.6,180.0,72.0,7.2,0,5,7,1,2026-07-17T02:32:45.574135+05:30
Bikaner,Rajasthan,28.0229,73.3119,32.4,46,0.0,976.0,8.45,37.8,145,200.7,65.2,2.7,115.0,62.0,4.1,0,5,7,1,2026-07-17T02:32:45.574142+05:30
Ajmer,Rajasthan,26.4499,74.6399,28.1,61,0.0,950.3,8.15,45.4,91,48.7,24.9,8.9,134.0,53.0,4.4,7,5,7,1,2026-07-17T02:32:45.574150+05:30
Gwalior,Madhya Pradesh,26.2183,78.1828,29.8,67,0.0,977.2,5.95,41.8,101,52.7,27.6,10.3,135.0,54.0,2.8,7,5,3,1,2026-07-17T02:32:45.574157+05:30
Indore,Madhya Pradesh,22.7196,75.8577,25.2,82,0.0,945.0,8.55,43.6,71,22.8,19.0,8.5,188.0,72.0,12.1,7,5,7,1,2026-07-17T02:32:45.574164+05:30
Bhopal,Madhya Pradesh,23.2599,77.4126,27.6,67,0.0,949.7,7.65,36.0,78,38.9,26.5,8.7,287.0,61.0,5.0,7,5,7,1,2026-07-17T02:32:45.574171+05:30
Jabalpur,Madhya Pradesh,23.1815,79.9864,25.5,96,0.1,956.7,6.05,34.9,90,42.3,24.7,8.4,284.0,63.0,4.0,10,5,7,1,2026-07-17T02:32:45.574178+05:30
Ujjain,Madhya Pradesh,23.1765,75.7885,25.4,82,0.0,950.6,8.45,38.5,74,22.2,18.3,8.2,231.0,67.0,12.5,7,5,7,1,2026-07-17T02:32:45.574186+05:30
Visakhapatnam,Andhra Pradesh,17.6868,83.2185,28.8,74,0.0,998.7,8.35,52.2,86,33.2,23.6,19.6,256.0,63.0,36.1,7,5,7,1,2026-07-17T02:32:45.574193+05:30
Vijayawada,Andhra Pradesh,16.5062,80.648,28.5,77,0.0,999.4,3.2,42.8,72,31.8,21.5,9.5,200.0,59.0,4.0,7,5,3,1,2026-07-17T02:32:45.574200+05:30
Guntur,Andhra Pradesh,16.3067,80.4365,29.2,68,0.0,1000.9,3.5,42.8,71,32.5,22.8,13.3,179.0,50.0,4.9,7,5,0,1,2026-07-17T02:32:45.574207+05:30
Nellore,Andhra Pradesh,14.4426,79.9865,29.8,64,0.0,1003.9,6.8,49.3,72,39.5,21.9,9.0,143.0,53.0,6.9,7,5,4,1,2026-07-17T02:32:45.574215+05:30
Kurnool,Andhra Pradesh,15.8281,78.0373,25.0,89,0.1,975.7,8.3,47.2,63,18.4,11.6,8.1,137.0,46.0,2.6,10,5,7,1,2026-07-17T02:32:45.574223+05:30
Kakinada,Andhra Pradesh,16.9891,82.2475,28.0,75,0.0,1003.5,8.7,46.8,77,33.1,22.2,7.6,281.0,78.0,7.0,7,5,4,1,2026-07-17T02:32:45.574231+05:30
Tirupati,Andhra Pradesh,13.6288,79.4192,29.8,49,0.0,989.5,8.35,37.8,81,38.5,27.1,24.2,218.0,29.0,2.8,4,5,7,1,2026-07-17T02:32:45.574238+05:30
Warangal,Telangana,17.9689,79.5941,27.7,74,0.0,975.5,7.0,37.8,67,34.5,22.1,12.9,217.0,44.0,5.2,7,5,7,1,2026-07-17T02:32:45.574245+05:30
Nizamabad,Telangana,18.6725,78.0941,26.8,68,0.0,962.1,3.2,40.0,65,32.8,18.7,8.3,163.0,52.0,7.1,7,5,3,1,2026-07-17T02:32:45.574252+05:30
Mysore,Karnataka,12.2958,76.6396,21.2,91,0.0,928.4,3.75,46.4,60,8.3,5.4,6.2,103.0,38.0,2.1,3,5,3,1,2026-07-17T02:32:45.574259+05:30
Mangalore,Karnataka,12.9141,74.856,24.4,94,0.1,1008.3,0.95,37.8,66,27.3,13.9,6.9,135.0,39.0,2.4,6,0,0,1,2026-07-17T02:32:45.574266+05:30
Hubli-Dharwad,Karnataka,15.3647,75.124,22.2,93,0.0,940.3,8.1,52.6,48,3.1,1.7,2.3,104.0,45.0,1.2,3,5,7,1,2026-07-17T02:32:45.574274+05:30
Belgaum,Karnataka,15.8497,74.4977,21.2,95,0.0,924.8,8.7,50.8,44,5.7,3.5,3.6,122.0,42.0,2.3,3,5,7,1,2026-07-17T02:32:48.844982+05:30
Coimbatore,Tamil Nadu,11.0168,76.9558,23.5,87,0.0,961.3,8.75,51.5,58,18.2,10.3,6.9,181.0,34.0,3.1,3,5,7,1,2026-07-17T02:32:48.845015+05:30
Madurai,Tamil Nadu,9.9252,78.1198,28.0,64,0.0,992.6,8.55,43.6,80,27.5,23.0,34.3,135.0,7.0,6.1,7,5,7,1,2026-07-17T02:32:48.845025+05:30
Trichy,Tamil Nadu,10.7905,78.7047,28.1,64,0.0,999.3,8.8,56.9,67,22.6,13.5,10.2,115.0,34.0,3.9,7,5,7,1,2026-07-17T02:32:48.845034+05:30
Salem,Tamil Nadu,11.6643,78.146,25.1,81,0.0,977.2,8.9,31.7,76,32.1,22.9,24.3,144.0,25.0,7.1,7,5,7,1,2026-07-17T02:32:48.845042+05:30
Tirunelveli,Tamil Nadu,8.7139,77.7567,27.8,67,0.0,1003.1,7.85,50.0,59,19.3,11.4,7.1,135.0,36.0,2.7,7,5,4,1,2026-07-17T02:32:48.845049+05:30
Vellore,Tamil Nadu,12.9165,79.1325,29.4,52,0.0,983.0,8.1,41.8,78,21.9,14.4,11.3,161.0,47.0,4.6,4,5,7,1,2026-07-17T02:32:48.845057+05:30
Erode,Tamil Nadu,11.341,77.7172,26.3,73,0.0,988.9,8.85,34.2,65,22.8,15.2,14.6,162.0,32.0,4.0,7,5,7,1,2026-07-17T02:32:48.845063+05:30
Kochi,Kerala,9.9312,76.2673,26.5,90,0.0,1009.9,8.0,37.8,72,17.1,10.6,9.8,99.0,31.0,3.8,7,0,4,1,2026-07-17T02:32:48.845071+05:30
Thiruvananthapuram,Kerala,8.5241,76.9366,24.6,94,0.0,1009.6,8.1,47.9,66,26.0,12.2,3.8,129.0,48.0,1.8,3,0,4,1,2026-07-17T02:32:48.845079+05:30
Kozhikode,Kerala,11.2588,75.7804,24.6,95,0.2,1009.5,7.9,37.8,59,20.4,8.3,1.5,145.0,53.0,1.1,6,0,4,1,2026-07-17T02:32:48.845085+05:30
Thrissur,Kerala,10.5276,76.2144,25.5,88,0.0,1008.3,7.7,38.2,67,12.6,8.0,7.3,162.0,34.0,2.7,7,0,4,1,2026-07-17T02:32:48.845093+05:30
Kannur,Kerala,11.8745,75.3704,24.0,98,0.3,1008.7,2.2,31.7,63,22.2,10.6,6.6,209.0,38.0,1.6,6,0,0,1,2026-07-17T02:32:48.845101+05:30
Patna,Bihar,25.5941,85.1376,27.7,93,0.0,994.1,8.25,30.6,101,40.7,39.7,19.5,400.0,60.0,8.8,7,5,7,1,2026-07-17T02:32:48.845108+05:30
Gaya,Bihar,24.7914,85.0002,26.8,98,0.0,987.4,8.7,27.4,90,25.5,24.9,11.7,340.0,71.0,4.9,7,5,7,1,2026-07-17T02:32:48.845114+05:30
Muzaffarpur,Bihar,26.1209,85.3647,27.3,94,0.0,994.4,7.2,38.2,97,48.8,47.6,25.5,634.0,44.0,8.8,7,5,7,1,2026-07-17T02:32:48.845121+05:30
Bhagalpur,Bihar,25.2425,87.0117,28.3,85,0.0,994.7,7.55,33.1,78,24.9,23.7,11.8,259.0,73.0,5.5,7,5,7,1,2026-07-17T02:32:48.845127+05:30
Ranchi,Jharkhand,23.3441,85.3096,23.4,99,0.0,931.1,7.75,29.9,60,14.4,14.0,9.2,255.0,79.0,7.2,3,5,7,1,2026-07-17T02:32:48.845134+05:30
Jamshedpur,Jharkhand,22.8046,86.2029,25.8,98,0.0,983.1,8.35,23.4,88,41.9,40.7,40.8,214.0,39.0,58.1,7,5,7,1,2026-07-17T02:32:48.845141+05:30
Dhanbad,Jharkhand,23.7957,86.4304,26.7,90,0.0,972.7,7.85,25.6,97,41.6,40.5,37.4,206.0,43.0,94.1,7,5,7,1,2026-07-17T02:32:48.845147+05:30
Bokaro,Jharkhand,23.6693,86.1511,26.3,94,0.0,976.6,7.35,19.4,94,44.9,43.2,36.6,225.0,48.0,92.7,7,5,7,1,2026-07-17T02:32:48.845155+05:30
Bhubaneswar,Odisha,20.2961,85.8245,25.0,96,0.1,996.1,7.0,40.0,69,18.0,13.4,7.6,250.0,77.0,5.7,10,5,7,1,2026-07-17T02:32:48.845162+05:30
Cuttack,Odisha,20.4625,85.8828,25.4,96,0.0,997.7,7.85,37.4,69,18.0,13.4,7.6,275.0,77.0,5.7,7,5,7,1,2026-07-17T02:32:48.845169+05:30
Rourkela,Odisha,22.2604,84.8536,24.7,99,0.1,978.7,5.85,32.8,69,28.6,19.6,7.0,260.0,75.0,2.0,6,5,3,1,2026-07-17T02:32:48.845176+05:30
Raipur,Chhattisgarh,21.2514,81.6296,24.9,98,0.1,970.2,1.95,38.9,123,51.2,38.9,35.2,421.0,37.0,58.1,6,5,3,1,2026-07-17T02:32:48.845182+05:30
Bhilai,Chhattisgarh,21.1938,81.3509,25.0,98,0.3,970.6,1.75,41.0,110,49.2,35.4,26.0,605.0,41.0,41.0,10,5,3,1,2026-07-17T02:32:48.845189+05:30
Guwahati,Assam,26.1158,91.7086,26.4,94,0.0,997.0,7.8,21.6,55,4.5,4.0,9.0,258.0,37.0,1.2,7,5,7,1,2026-07-17T02:32:48.845196+05:30
Agartala,Tripura,23.8315,91.2868,26.2,89,0.0,1001.8,8.25,51.8,60,15.0,11.7,6.6,162.0,67.0,3.3,7,5,4,1,2026-07-17T02:32:48.845202+05:30
Shillong,Meghalaya,25.5788,91.8933,20.3,98,0.1,854.5,8.4,41.4,36,1.7,1.3,4.2,155.0,63.0,2.0,6,5,7,1,2026-07-17T02:32:48.845209+05:30
Imphal,Manipur,24.817,93.9368,22.5,96,0.3,920.1,7.6,32.8,54,12.5,8.6,3.9,465.0,54.0,1.9,6,5,7,1,2026-07-17T02:32:48.845215+05:30
Aizawl,Mizoram,23.7271,92.7176,19.4,91,0.0,889.3,7.7,52.2,52,13.8,8.6,1.9,143.0,63.0,1.8,3,10,7,1,2026-07-17T02:32:48.845222+05:30
Kohima,Nagaland,25.6701,94.1077,19.5,94,0.0,852.7,4.55,23.8,40,4.5,3.3,2.8,214.0,56.0,0.9,3,10,3,1,2026-07-17T02:32:48.845229+05:30
Gangtok,Sikkim,27.3314,88.6138,18.2,99,0.1,835.2,7.5,31.3,43,7.0,6.2,4.6,367.0,84.0,2.0,6,10,7,1,2026-07-17T02:32:48.845236+05:30
Siliguri,West Bengal,26.7271,88.3953,27.0,82,0.0,987.8,6.65,29.5,58,22.5,19.7,8.9,218.0,86.0,4.3,7,5,7,1,2026-07-17T02:32:52.111203+05:30
Durgapur,West Bengal,23.5204,87.3119,26.5,97,0.0,987.4,8.55,32.0,81,31.5,29.8,30.6,281.0,42.0,31.6,7,5,7,1,2026-07-17T02:32:52.111235+05:30
Asansol,West Bengal,23.6739,86.9524,26.8,93,0.0,986.0,8.3,35.3,80,27.6,27.0,28.5,210.0,43.0,29.6,7,5,7,1,2026-07-17T02:32:52.111246+05:30
Pondicherry,Puducherry,11.9139,79.8145,28.4,72,0.0,1007.0,8.65,41.0,77,19.5,13.5,9.0,208.0,53.0,7.1,7,5,4,1,2026-07-17T02:32:52.111255+05:30
Port Blair,Andaman and Nicobar Islands,11.6234,92.7265,27.0,87,0.0,1007.1,7.8,39.2,46,13.2,6.9,0.1,86.0,44.0,0.4,7,5,4,1,2026-07-17T02:32:52.111264+05:30
Haridwar,Uttarakhand,29.9457,78.1642,28.5,83,0.0,967.5,7.5,27.4,144,126.2,95.7,38.6,441.0,51.0,15.1,7,5,7,1,2026-07-17T02:32:52.111272+05:30
Rishikesh,Uttarakhand,30.0869,78.2676,26.5,86,0.0,960.3,7.4,25.9,113,83.4,63.6,14.2,380.0,111.0,11.2,7,5,7,1,2026-07-17T02:32:52.111280+05:30
Nainital,Uttarakhand,29.3919,79.4542,17.3,98,0.1,802.6,6.35,28.4,120,60.1,33.3,6.0,290.0,118.0,5.9,6,10,7,1,2026-07-17T02:32:52.111288+05:30
Mussoorie,Uttarakhand,30.4599,78.0664,17.5,100,0.0,800.2,6.65,39.2,115,67.1,59.3,18.1,370.0,112.0,13.3,3,10,7,1,2026-07-17T02:32:52.111295+05:30
Dharamshala,Himachal Pradesh,32.219,76.3234,22.2,82,0.0,865.6,7.9,23.4,70,31.0,26.1,17.7,286.0,28.0,0.5,3,5,7,1,2026-07-17T02:32:52.111303+05:30
Dalhousie,Himachal Pradesh,32.5387,75.971,16.1,98,0.0,800.9,7.55,24.1,112,51.0,40.9,20.1,652.0,103.0,3.8,3,10,7,0,2026-07-17T02:32:52.111312+05:30
Patiala,Punjab,30.3398,76.3869,28.5,85,0.0,971.5,6.8,29.9,185,389.3,164.4,69.9,1239.0,3.0,10.6,7,5,7,1,2026-07-17T02:32:52.111319+05:30
Bhatinda,Punjab,30.211,74.9455,31.8,65,0.0,977.0,8.15,29.2,171,164.4,81.3,37.4,707.0,28.0,4.2,3,5,7,1,2026-07-17T02:32:52.111326+05:30
Rohtak,Haryana,28.8955,76.6066,29.7,81,0.0,975.3,6.55,30.6,653,510.4,153.7,48.2,335.0,6.0,6.1,7,5,7,1,2026-07-17T02:32:52.111333+05:30
Panipat,Haryana,29.3909,76.9635,28.9,80,0.0,973.9,6.8,29.9,1176,784.2,213.7,64.9,1019.0,0.0,9.9,7,5,7,1,2026-07-17T02:32:52.111340+05:30
Mathura,Uttar Pradesh,27.4924,77.6737,30.6,61,0.0,980.4,7.1,29.5,493,1020.7,162.5,17.9,239.0,47.0,5.1,3,5,7,1,2026-07-17T02:32:52.111347+05:30
Vrindavan,Uttar Pradesh,27.5823,77.7027,30.5,63,0.0,980.8,7.2,29.2,493,1020.7,162.5,17.9,239.0,47.0,5.1,3,5,7,1,2026-07-17T02:32:52.111353+05:30
Ayodhya,Uttar Pradesh,26.7922,82.1998,27.6,95,0.0,989.5,7.8,24.8,166,62.9,53.7,17.1,601.0,67.0,6.5,7,5,7,1,2026-07-17T02:32:52.111360+05:30
Ratlam,Madhya Pradesh,23.3315,75.0367,25.0,86,0.0,951.5,8.45,38.2,73,18.9,15.4,9.5,202.0,57.0,15.5,7,5,7,1,2026-07-17T02:32:52.111367+05:30
Sagar,Madhya Pradesh,23.8388,78.7378,24.6,94,0.0,945.6,6.8,36.7,80,35.4,23.7,8.8,251.0,62.0,5.2,3,5,7,1,2026-07-17T02:32:52.111374+05:30
Satna,Madhya Pradesh,24.6005,80.8322,27.3,84,0.0,965.7,7.15,36.0,125,38.3,27.6,13.0,196.0,46.0,3.7,7,5,7,1,2026-07-17T02:32:52.111382+05:30
Akola,Maharashtra,20.7002,77.0082,28.7,66,0.0,972.2,8.65,41.4,62,18.1,12.0,8.8,148.0,47.0,9.6,7,5,7,1,2026-07-17T02:32:52.111390+05:30
Amravati,Maharashtra,20.9374,77.7796,28.9,64,0.0,963.9,7.4,45.0,63,18.7,12.4,9.0,143.0,54.0,10.9,7,5,7,1,2026-07-17T02:32:52.111397+05:30
Latur,Maharashtra,18.4088,76.5604,24.4,83,0.0,937.7,8.25,38.9,56,11.7,8.2,7.2,160.0,40.0,3.4,3,5,7,1,2026-07-17T02:32:52.111405+05:30
Nanded,Maharashtra,19.1383,77.3091,26.9,72,0.0,966.2,3.1,37.1,63,22.5,15.0,6.4,176.0,55.0,4.0,7,5,3,1,2026-07-17T02:32:52.111412+05:30
Gulbarga,Karnataka,17.3297,76.8343,24.9,90,0.1,956.9,7.7,45.7,53,11.2,7.5,7.1,132.0,41.0,3.2,6,5,7,1,2026-07-17T02:32:52.111418+05:30
Bidar,Karnataka,17.9104,77.5199,24.8,78,0.0,933.3,1.8,38.2,61,21.3,13.1,7.1,140.0,49.0,2.6,3,5,3,1,2026-07-17T02:32:52.111424+05:30
Hospet,Karnataka,15.2689,76.3909,24.0,84,0.0,955.3,8.6,51.8,52,8.0,4.5,3.5,106.0,41.0,1.6,3,5,7,1,2026-07-17T02:32:52.111431+05:30
Tirupur,Tamil Nadu,11.1085,77.3411,24.8,82,0.0,975.1,8.85,42.5,67,26.4,17.8,17.9,142.0,26.0,4.9,3,5,7,1,2026-07-17T02:32:52.111438+05:30
Alappuzha,Kerala,9.4981,76.3388,27.0,85,0.0,1010.0,8.55,40.0,69,24.3,12.7,6.5,87.0,43.0,3.3,7,0,4,1,2026-07-17T02:32:52.111444+05:30
Munnar,Kerala,10.0889,77.0595,14.9,88,0.0,855.9,8.85,41.4,55,13.2,8.5,7.8,102.0,27.0,2.0,3,10,7,0,2026-07-17T02:32:52.111451+05:30
Silchar,Assam,24.8333,92.7789,25.9,98,0.0,1001.7,8.75,33.5,60,22.7,14.9,6.9,278.0,58.0,4.0,7,5,4,1,2026-07-17T02:32:52.111458+05:30
Dibrugarh,Assam,27.4728,94.912,25.8,98,0.1,990.5,6.8,33.5,47,5.6,5.3,4.8,172.0,78.0,1.1,10,5,7,1,2026-07-17T02:32:52.111465+05:30
