city,state,latitude,longitude,temp,humidity,rain,pressure,uv_index,wind_gusts,aqi,pm10,pm2_5,no2,co,o3,so2,mosquito_risk,arthritis_risk,migraine_risk,frizz_risk,updated_at
Delhi,Delhi,28.6139,77.209,36.6,43,0.0,975.0,7.7,34.2,594,1210.7,196.0,5.4,231.0,120.0,10.5,0,5,10,1,2026-07-18T15:06:06.042742+05:30
Mumbai,Maharashtra,19.076,72.8777,28.9,75,0.1,1005.9,6.05,46.4,67,32.4,17.6,5.6,152.0,76.0,6.2,10,5,4,1,2026-07-18T15:06:06.042790+05:30
Bangalore,Karnataka,12.9716,77.5946,27.9,51,0.1,910.5,4.6,46.1,39,20.5,8.9,5.0,203.0,63.0,2.2,7,5,3,1,2026-07-18T15:06:06.042805+05:30
Hyderabad,Telangana,17.385,78.4867,27.0,71,0.0,949.9,3.45,42.5,58,25.7,14.1,3.9,249.0,79.0,3.7,7,5,3,1,2026-07-18T15:06:06.042815+05:30
Chennai,Tamil Nadu,13.0827,80.2707,31.4,62,0.1,1003.9,6.7,34.9,64,28.3,17.3,5.5,245.0,98.0,5.7,6,5,4,1,2026-07-18T15:06:06.042824+05:30
Kolkata,West Bengal,22.5726,88.3639,31.5,72,0.1,998.1,8.15,38.9,68,16.5,12.6,2.1,294.0,118.0,5.8,6,5,7,1,2026-07-18T15:06:06.042832+05:30
Pune,Maharashtra,18.5204,73.8567,27.3,68,0.0,945.6,8.05,45.7,36,13.3,7.3,4.2,130.0,55.0,4.0,7,5,7,1,2026-07-18T15:06:06.042839+05:30
Ahmedabad,Gujarat,23.0225,72.5714,35.2,45,0.3,995.9,6.6,36.4,72,33.8,13.9,1.9,126.0,85.0,3.2,3,5,10,1,2026-07-18T15:06:06.042846+05:30
Jaipur,Rajasthan,26.9124,75.7873,36.7,39,0.0,953.7,7.35,37.8,193,111.3,34.5,1.5,140.0,101.0,2.8,0,5,10,1,2026-07-18T15:06:06.042853+05:30
Lucknow,Uttar Pradesh,26.8467,80.9462,28.8,91,0.2,986.3,7.05,26.6,161,174.2,60.8,2.5,283.0,161.0,7.2,10,5,7,1,2026-07-18T15:06:06.042864+05:30
Kanpur,Uttar Pradesh,26.4499,80.3319,31.9,75,0.0,984.2,7.6,36.4,168,184.9,68.0,2.7,204.0,169.0,7.6,3,5,7,1,2026-07-18T15:06:06.042871+05:30
Chandigarh,Chandigarh,30.7333,76.7794,35.0,52,0.0,960.9,7.7,30.2,151,196.5,69.2,2.5,354.0,169.0,10.7,0,5,7,1,2026-07-18T15:06:06.042880+05:30
Srinagar,Jammu and Kashmir,34.0837,74.7973,34.8,34,0.0,838.4,9.05,22.7,104,31.9,21.9,1.6,327.0,157.0,2.8,0,5,7,1,2026-07-18T15:06:06.042888+05:30
Jammu,Jammu and Kashmir,32.7266,74.857,34.9,58,0.1,964.7,8.4,27.0,152,107.8,53.1,2.1,260.0,158.0,5.9,3,5,7,1,2026-07-18T15:06:06.042894+05:30
Amritsar,Punjab,31.634,74.8723,37.2,46,0.0,971.9,6.75,17.3,171,166.2,62.6,2.7,271.0,183.0,8.7,0,5,10,1,2026-07-18T15:06:06.042902+05:30
Ludhiana,Punjab,30.901,75.8573,38.2,39,0.0,970.2,7.75,24.8,176,215.1,70.8,2.4,305.0,154.0,6.0,0,5,10,1,2026-07-18T15:06:06.042909+05:30
Jalandhar,Punjab,31.326,75.5762,36.8,47,0.0,971.2,8.25,18.7,173,215.1,71.0,2.4,269.0,162.0,5.8,0,5,10,1,2026-07-18T15:06:06.042915+05:30
Dehradun,Uttarakhand,30.6284,78.0322,22.1,95,0.0,827.5,7.15,25.9,94,31.9,20.5,2.8,261.0,130.0,3.2,3,5,7,1,2026-07-18T15:06:06.042922+05:30
Shimla,Himachal Pradesh,31.1048,77.1734,23.1,62,0.0,784.1,7.4,42.8,98,57.9,29.2,1.5,187.0,143.0,9.5,3,5,7,0,2026-07-18T15:06:06.042929+05:30
Manali,Himachal Pradesh,32.2396,77.1887,25.8,77,0.1,817.8,7.05,31.3,57,11.8,7.5,1.2,240.0,140.0,1.1,10,5,7,1,2026-07-18T15:06:06.042937+05:30
Gurgaon,Haryana,28.4595,77.0266,37.2,39,0.0,973.6,7.75,38.5,535,1046.8,169.0,4.8,182.0,131.0,9.2,0,5,10,1,2026-07-18T15:06:06.042943+05:30
Noida,Uttar Pradesh,28.5355,77.391,36.2,47,0.0,976.2,7.7,30.6,535,1046.8,169.0,4.8,264.0,131.0,9.2,0,5,10,1,2026-07-18T15:06:06.042950+05:30
Ghaziabad,Uttar Pradesh,28.6692,77.4538,35.3,51,0.0,974.6,7.7,29.2,510,899.7,169.5,4.9,190.0,147.0,15.6,0,5,10,1,2026-07-18T15:06:06.042956+05:30
Faridabad,Haryana,28.4089,77.3178,37.2,40,0.0,975.7,7.6,38.9,535,1046.8,169.0,4.8,202.0,131.0,9.2,0,5,10,1,2026-07-18T15:06:06.042963+05:30
Meerut,Uttar Pradesh,28.9845,77.7064,35.0,56,0.0,973.3,7.6,27.0,510,899.7,169.5,4.9,207.0,147.0,15.6,0,5,7,1,2026-07-18T15:06:06.042969+05:30
Agra,Uttar Pradesh,27.1767,78.0081,37.2,41,0.0,980.0,7.6,40.0,164,407.0,80.3,2.4,144.0,119.0,3.7,0,5,10,1,2026-07-18T15:06:06.042976+05:30
Varanasi,Uttar Pradesh,25.3176,82.9739,32.2,72,0.0,989.1,7.4,19.4,92,20.6,19.9,3.1,289.0,158.0,6.0,3,5,7,1,2026-07-18T15:06:06.042983+05:30
Prayagraj,Uttar Pradesh,25.4358,81.8463,30.8,82,0.3,988.0,6.45,34.9,120,60.3,31.7,2.2,184.0,175.0,6.5,6,5,7,1,2026-07-18T15:06:06.042990+05:30
Gorakhpur,Uttar Pradesh,26.7606,83.3732,32.3,71,0.0,989.5,7.85,26.3,101,19.8,19.1,2.6,293.0,132.0,3.3,3,5,7,1,2026-07-18T15:06:06.042997+05:30
Bareilly,Uttar Pradesh,28.367,79.4304,32.3,75,0.0,979.0,5.65,29.9,158,158.8,63.3,4.3,424.0,166.0,12.3,3,5,3,1,2026-07-18T15:06:06.043005+05:30
Aligarh,Uttar Pradesh,27.8974,78.088,35.5,52,0.0,977.7,6.85,27.4,255,655.7,132.2,3.1,189.0,155.0,10.7,0,5,10,1,2026-07-18T15:06:06.043012+05:30
Moradabad,Uttar Pradesh,28.8386,78.7733,33.4,70,0.0,975.6,7.25,34.2,172,244.9,80.6,4.7,298.0,168.0,14.3,3,5,7,1,2026-07-18T15:06:06.043018+05:30
Saharanpur,Uttar Pradesh,29.9637,77.546,34.6,57,0.0,967.6,7.25,32.8,183,438.7,131.8,5.0,366.0,223.0,16.2,0,5,7,1,2026-07-18T15:06:06.043025+05:30
Jhansi,Uttar Pradesh,25.4484,78.5685,36.3,47,0.0,970.8,7.0,43.6,99,61.5,25.4,1.8,128.0,107.0,4.2,0,5,10,1,2026-07-18T15:06:09.424167+05:30
Surat,Gujarat,21.1702,72.8311,30.7,70,0.0,1002.2,7.35,43.2,73,29.9,20.0,11.9,241.0,57.0,35.9,3,5,4,1,2026-07-18T15:06:09.424200+05:30
Vadodara,Gujarat,22.3072,73.1812,33.6,55,0.0,998.8,5.75,41.0,69,28.6,13.7,1.9,137.0,89.0,3.3,0,5,3,1,2026-07-18T15:06:09.424212+05:30
Rajkot,Gujarat,22.3039,70.8022,33.7,51,0.1,988.4,6.05,47.2,62,44.7,19.3,1.3,101.0,81.0,4.6,3,5,7,1,2026-07-18T15:06:09.424221+05:30
Thane,Maharashtra,19.2183,72.9781,28.8,76,0.1,1005.1,6.5,35.6,67,32.4,17.6,5.6,150.0,76.0,6.2,10,5,4,1,2026-07-18T15:06:09.424229+05:30
Nagpur,Maharashtra,21.1458,79.0882,28.3,80,0.1,968.3,1.1,34.6,73,21.5,15.4,5.8,217.0,96.0,17.3,10,5,3,1,2026-07-18T15:06:09.424238+05:30
Nashik,Maharashtra,19.9975,73.7898,25.1,86,0.2,942.1,6.6,43.9,37,13.7,7.3,3.5,123.0,51.0,1.1,10,5,7,1,2026-07-18T15:06:09.424246+05:30
Aurangabad,Maharashtra,19.8762,75.3433,27.5,67,0.1,940.7,7.0,40.7,45,14.4,8.2,3.4,131.0,67.0,4.5,10,5,7,1,2026-07-18T15:06:09.424253+05:30
Solapur,Maharashtra,17.6599,75.9064,28.8,63,0.1,954.5,3.15,34.9,49,21.0,9.3,1.4,118.0,73.0,2.1,10,5,3,1,2026-07-18T15:06:09.424261+05:30
Kolhapur,Maharashtra,16.705,74.2433,25.6,76,0.0,946.4,4.4,45.4,37,9.1,5.5,1.9,117.0,60.0,1.8,7,5,3,1,2026-07-18T15:06:09.424269+05:30
Goa,Goa,15.2993,74.124,27.9,82,0.2,997.4,7.3,32.0,64,24.6,13.0,0.9,113.0,54.0,1.2,10,5,7,1,2026-07-18T15:06:09.424277+05:30
Jodhpur,Rajasthan,26.2389,73.0243,36.6,37,0.0,976.2,8.4,45.4,134,187.2,40.5,0.8,108.0,78.0,1.7,0,5,10,1,2026-07-18T15:06:09.424285+05:30
Udaipur,Rajasthan,24.5854,73.7125,32.2,47,0.0,941.3,7.75,36.4,75,52.4,19.5,0.9,109.0,72.0,2.2,0,5,7,1,2026-07-18T15:06:09.424292+05:30
Kota,Rajasthan,25.2138,75.8648,36.8,42,0.0,972.2,8.3,32.4,90,60.5,29.0,1.3,126.0,116.0,5.5,0,5,10,1,2026-07-18T15:06:09.424300+05:30
Bikaner,Rajasthan,28.0229,73.3119,38.9,33,0.0,974.0,8.35,37.8,122,130.9,44.5,0.4,105.0,79.0,2.5,0,5,10,1,2026-07-18T15:06:09.424307+05:30
Ajmer,Rajasthan,26.4499,74.6399,34.3,43,0.0,949.0,7.95,43.2,79,65.4,28.1,1.0,113.0,90.0,2.4,0,5,7,1,2026-07-18T15:06:09.424315+05:30
Gwalior,Madhya Pradesh,26.2183,78.1828,37.0,43,0.0,975.9,3.4,37.1,112,93.6,30.7,1.2,130.0,106.0,2.1,0,5,6,1,2026-07-18T15:06:09.424323+05:30
Indore,Madhya Pradesh,22.7196,75.8577,31.4,54,0.0,943.8,6.1,38.2,73,34.7,17.5,2.7,172.0,90.0,4.3,0,5,7,1,2026-07-18T15:06:09.424330+05:30
Bhopal,Madhya Pradesh,23.2599,77.4126,33.3,51,0.0,948.3,6.5,38.5,84,56.8,27.8,1.4,166.0,108.0,5.4,0,5,7,1,2026-07-18T15:06:09.424338+05:30
Jabalpur,Madhya Pradesh,23.1815,79.9864,27.2,92,0.1,955.5,8.2,34.9,85,85.7,34.9,1.5,213.0,118.0,5.1,10,5,7,1,2026-07-18T15:06:09.424365+05:30
Ujjain,Madhya Pradesh,23.1765,75.7885,31.3,59,0.0,948.9,7.2,36.4,73,47.1,23.4,1.4,144.0,96.0,4.2,0,5,7,1,2026-07-18T15:06:09.424375+05:30
Visakhapatnam,Andhra Pradesh,17.6868,83.2185,31.3,71,0.1,996.9,5.6,39.6,87,32.1,23.6,7.0,321.0,147.0,24.8,6,5,3,1,2026-07-18T15:06:09.424384+05:30
Vijayawada,Andhra Pradesh,16.5062,80.648,32.6,60,0.0,997.5,4.8,38.9,72,22.6,13.0,1.9,158.0,95.0,4.0,0,5,3,1,2026-07-18T15:06:09.424392+05:30
Guntur,Andhra Pradesh,16.3067,80.4365,33.6,54,0.0,998.9,3.8,43.6,69,25.1,13.3,1.4,180.0,90.0,3.3,0,5,3,1,2026-07-18T15:06:09.424399+05:30
Nellore,Andhra Pradesh,14.4426,79.9865,34.3,48,0.0,1001.7,2.55,42.8,58,28.7,15.1,3.3,118.0,86.0,4.9,0,5,0,1,2026-07-18T15:06:09.424408+05:30
Kurnool,Andhra Pradesh,15.8281,78.0373,30.9,59,0.0,973.8,4.85,42.8,53,39.0,16.9,2.1,116.0,81.0,6.9,0,5,3,1,2026-07-18T15:06:09.424416+05:30
Kakinada,Andhra Pradesh,16.9891,82.2475,33.5,60,0.0,1001.0,7.65,47.2,78,27.1,17.7,2.3,162.0,123.0,4.4,0,5,4,1,2026-07-18T15:06:09.424423+05:30
Tirupati,Andhra Pradesh,13.6288,79.4192,32.3,52,0.0,987.9,3.9,38.9,53,25.6,11.0,1.2,105.0,70.0,1.2,0,5,3,1,2026-07-18T15:06:09.424431+05:30
Warangal,Telangana,17.9689,79.5941,26.3,93,0.4,974.4,4.15,38.2,69,35.7,17.5,1.7,142.0,84.0,3.2,10,5,3,1,2026-07-18T15:06:09.424439+05:30
Nizamabad,Telangana,18.6725,78.0941,29.9,62,0.1,960.8,1.1,42.1,66,31.2,14.6,1.3,135.0,79.0,3.7,10,5,3,1,2026-07-18T15:06:09.424447+05:30
Mysore,Karnataka,12.2958,76.6396,29.5,50,0.0,927.7,3.35,50.0,29,12.8,6.2,2.5,120.0,69.0,1.4,4,5,3,1,2026-07-18T15:06:09.424454+05:30
Mangalore,Karnataka,12.9141,74.856,26.9,80,0.1,1007.3,4.25,40.0,58,24.6,13.2,1.3,107.0,58.0,1.7,10,5,0,1,2026-07-18T15:06:09.424462+05:30
Hubli-Dharwad,Karnataka,15.3647,75.124,27.4,67,0.0,939.6,7.95,49.7,22,9.5,5.2,1.6,127.0,57.0,1.2,7,5,7,1,2026-07-18T15:06:09.424469+05:30
Belgaum,Karnataka,15.8497,74.4977,25.2,72,0.0,924.5,7.0,48.6,27,6.8,3.6,1.5,102.0,49.0,1.2,7,5,7,1,2026-07-18T15:06:12.798112+05:30
Coimbatore,Tamil Nadu,11.0168,76.9558,30.7,51,0.1,960.5,7.0,44.6,44,12.5,7.5,1.6,150.0,75.0,1.9,3,5,7,1,2026-07-18T15:06:12.798146+05:30
Madurai,Tamil Nadu,9.9252,78.1198,36.9,35,0.0,990.4,7.7,30.6,67,35.7,14.7,2.2,161.0,102.0,2.4,0,5,10,1,2026-07-18T15:06:12.798158+05:30
Trichy,Tamil Nadu,10.7905,78.7047,36.2,35,0.0,996.9,7.25,54.7,54,25.0,11.8,1.8,120.0,85.0,2.1,0,5,10,1,2026-07-18T15:06:12.798168+05:30
Salem,Tamil Nadu,11.6643,78.146,32.3,50,0.1,975.0,6.8,34.9,67,24.8,12.9,2.5,142.0,98.0,4.9,3,5,7,1,2026-07-18T15:06:12.798177+05:30
Tirunelveli,Tamil Nadu,8.7139,77.7567,35.5,39,0.1,1001.3,8.7,54.0,50,11.9,9.1,1.4,117.0,90.0,1.7,3,5,7,1,2026-07-18T15:06:12.798185+05:30
Vellore,Tamil Nadu,12.9165,79.1325,34.1,42,0.0,980.8,7.4,41.4,50,33.4,14.5,1.8,121.0,78.0,1.8,0,5,7,1,2026-07-18T15:06:12.798194+05:30
Erode,Tamil Nadu,11.341,77.7172,32.3,50,0.1,986.6,6.35,39.2,58,21.4,12.0,2.2,152.0,101.0,2.3,3,5,7,1,2026-07-18T15:06:12.798203+05:30
Kochi,Kerala,9.9312,76.2673,28.7,74,0.0,1009.2,7.7,42.5,59,16.5,9.5,2.3,111.0,64.0,2.6,7,0,4,1,2026-07-18T15:06:12.798212+05:30
Thiruvananthapuram,Kerala,8.5241,76.9366,29.0,72,0.0,1008.4,8.5,48.2,62,20.7,12.7,1.8,95.0,79.0,1.4,7,0,4,1,2026-07-18T15:06:12.798220+05:30
Kozhikode,Kerala,11.2588,75.7804,29.6,71,0.0,1007.9,7.65,36.0,54,14.6,7.6,0.6,119.0,60.0,1.1,7,5,4,1,2026-07-18T15:06:12.798229+05:30
Thrissur,Kerala,10.5276,76.2144,29.7,67,0.0,1007.2,7.25,38.5,59,13.6,8.0,1.4,102.0,61.0,1.7,7,5,4,1,2026-07-18T15:06:12.798238+05:30
Kannur,Kerala,11.8745,75.3704,29.1,77,0.0,1007.3,7.65,33.1,54,17.3,10.0,1.2,131.0,69.0,1.6,7,5,4,1,2026-07-18T15:06:12.798246+05:30
Patna,Bihar,25.5941,85.1376,32.9,70,0.0,992.2,6.7,26.3,90,22.9,22.8,5.0,309.0,152.0,14.1,3,5,7,1,2026-07-18T15:06:12.798254+05:30
Gaya,Bihar,24.7914,85.0002,32.4,73,0.0,985.5,5.4,22.0,107,24.0,23.7,2.6,308.0,151.0,9.3,3,5,3,1,2026-07-18T15:06:12.798262+05:30
Muzaffarpur,Bihar,26.1209,85.3647,30.4,86,0.0,992.3,7.35,28.4,84,22.8,22.6,5.3,304.0,137.0,10.5,3,5,7,1,2026-07-18T15:06:12.798272+05:30
Bhagalpur,Bihar,25.2425,87.0117,31.4,76,0.0,993.0,7.85,34.9,75,21.1,20.4,6.3,331.0,142.0,20.6,3,5,7,1,2026-07-18T15:06:12.798316+05:30
Ranchi,Jharkhand,23.3441,85.3096,27.7,82,0.1,931.0,8.7,26.6,66,11.3,10.9,2.2,273.0,127.0,6.6,10,5,7,1,2026-07-18T15:06:12.798327+05:30
Jamshedpur,Jharkhand,22.8046,86.2029,30.0,84,0.1,983.0,8.4,21.6,89,24.0,22.1,2.8,419.0,156.0,16.8,10,5,7,1,2026-07-18T15:06:12.798336+05:30
Dhanbad,Jharkhand,23.7957,86.4304,28.8,87,0.4,972.2,7.6,31.0,147,31.2,30.2,18.4,537.0,131.0,50.9,10,5,7,1,2026-07-18T15:06:12.798362+05:30
Bokaro,Jharkhand,23.6693,86.1511,27.9,89,0.1,976.0,7.7,28.8,121,28.7,28.1,27.7,666.0,110.0,64.2,10,5,7,1,2026-07-18T15:06:12.798372+05:30
Bhubaneswar,Odisha,20.2961,85.8245,29.7,80,0.1,995.1,7.55,35.3,68,17.6,12.3,2.5,203.0,116.0,4.6,10,5,7,1,2026-07-18T15:06:12.798381+05:30
Cuttack,Odisha,20.4625,85.8828,29.1,89,0.0,996.8,8.4,35.6,68,17.6,12.3,2.5,254.0,116.0,4.6,7,5,7,1,2026-07-18T15:06:12.798389+05:30
Rourkela,Odisha,22.2604,84.8536,28.4,87,0.2,977.6,7.45,27.4,73,14.1,13.4,2.2,280.0,145.0,10.5,10,5,7,1,2026-07-18T15:06:12.798397+05:30
Raipur,Chhattisgarh,21.2514,81.6296,28.5,82,0.1,967.9,6.95,42.8,85,33.4,24.1,21.4,176.0,77.0,31.7,10,5,7,1,2026-07-18T15:06:12.798405+05:30
Bhilai,Chhattisgarh,21.1938,81.3509,27.5,88,0.3,968.6,6.2,36.0,81,30.0,22.7,18.6,515.0,84.0,32.2,10,5,7,1,2026-07-18T15:06:12.798414+05:30
Guwahati,Assam,26.1158,91.7086,28.7,97,0.1,995.1,7.15,20.2,53,7.2,6.5,1.7,275.0,94.0,1.1,10,5,7,1,2026-07-18T15:06:12.798422+05:30
Agartala,Tripura,23.8315,91.2868,31.4,69,0.0,1000.3,8.05,43.2,53,11.6,8.2,2.3,134.0,91.0,1.2,3,5,4,1,2026-07-18T15:06:12.798430+05:30
Shillong,Meghalaya,25.5788,91.8933,23.8,79,0.1,854.5,2.9,41.4,33,4.8,4.1,1.9,134.0,84.0,1.3,6,5,3,1,2026-07-18T15:06:12.798439+05:30
Imphal,Manipur,24.817,93.9368,27.5,70,0.0,919.2,4.05,28.4,60,9.1,6.8,3.9,150.0,66.0,1.3,7,5,3,1,2026-07-18T15:06:12.798448+05:30
Aizawl,Mizoram,23.7271,92.7176,25.4,66,0.0,889.5,7.35,40.3,54,10.9,7.6,0.8,117.0,67.0,0.7,7,5,7,1,2026-07-18T15:06:12.798456+05:30
Kohima,Nagaland,25.6701,94.1077,22.5,92,0.1,852.5,2.55,24.8,42,7.0,4.7,2.0,142.0,70.0,0.9,6,5,3,1,2026-07-18T15:06:12.798464+05:30
Gangtok,Sikkim,27.3314,88.6138,22.3,86,0.1,835.4,2.6,24.8,40,2.0,1.9,2.8,220.0,87.0,1.5,6,5,3,1,2026-07-18T15:06:12.798473+05:30
Siliguri,West Bengal,26.7271,88.3953,27.4,91,0.1,986.8,6.2,31.0,67,8.5,8.1,5.7,338.0,93.0,3.1,10,5,7,1,2026-07-18T15:06:16.194582+05:30
Durgapur,West Bengal,23.5204,87.3119,30.2,86,0.1,987.0,7.85,28.4,104,27.8,26.5,10.1,277.0,144.0,34.7,6,5,7,1,2026-07-18T15:06:16.194616+05:30
Asansol,West Bengal,23.6739,86.9524,29.7,86,0.1,985.7,8.3,29.2,111,30.6,29.3,10.7,618.0,146.0,38.0,10,5,7,1,2026-07-18T15:06:16.194629+05:30
Pondicherry,Puducherry,11.9139,79.8145,31.1,73,0.0,1005.5,5.9,33.5,70,35.2,24.0,6.2,172.0,116.0,12.2,3,5,0,1,2026-07-18T15:06:16.194640+05:30
Port Blair,Andaman and Nicobar Islands,11.6234,92.7265,30.0,68,0.1,1006.2,8.45,38.2,43,21.8,10.5,0.2,96.0,47.0,0.5,10,5,4,1,2026-07-18T15:06:16.194649+05:30
Haridwar,Uttarakhand,29.9457,78.1642,31.7,76,0.0,966.3,7.45,28.4,168,255.2,92.2,3.1,378.0,195.0,13.8,3,5,7,1,2026-07-18T15:06:16.194659+05:30
Rishikesh,Uttarakhand,30.0869,78.2676,30.9,79,0.2,959.2,7.0,28.1,156,199.8,68.7,1.6,331.0,161.0,11.9,6,5,7,1,2026-07-18T15:06:16.194668+05:30
Nainital,Uttarakhand,29.3919,79.4542,19.5,95,0.2,802.5,6.05,26.3,99,47.5,19.7,3.2,268.0,139.0,6.7,6,10,7,1,2026-07-18T15:06:16.194677+05:30
Mussoorie,Uttarakhand,30.4599,78.0664,20.2,97,0.2,800.4,6.2,33.8,150,106.4,49.2,3.9,265.0,146.0,7.1,6,5,7,1,2026-07-18T15:06:16.194686+05:30
Dharamshala,Himachal Pradesh,32.219,76.3234,24.5,92,0.2,865.2,8.4,27.4,70,40.5,19.2,0.8,256.0,128.0,3.1,6,5,7,1,2026-07-18T15:06:16.194695+05:30
Dalhousie,Himachal Pradesh,32.5387,75.971,22.5,83,0.1,803.2,8.6,21.6,108,102.0,48.0,2.0,231.0,139.0,5.7,6,5,7,1,2026-07-18T15:06:16.194705+05:30
Patiala,Punjab,30.3398,76.3869,36.2,50,0.0,970.0,6.7,23.4,183,555.1,112.0,2.5,280.0,158.0,8.0,0,5,10,1,2026-07-18T15:06:16.194714+05:30
Bhatinda,Punjab,30.211,74.9455,39.6,34,0.0,975.1,8.25,32.4,172,184.9,60.8,2.4,139.0,124.0,6.4,0,5,10,1,2026-07-18T15:06:16.194723+05:30
Rohtak,Haryana,28.8955,76.6066,36.7,44,0.0,973.7,7.65,34.2,820,1806.8,238.4,3.1,168.0,100.0,4.6,0,5,10,1,2026-07-18T15:06:16.194731+05:30
Panipat,Haryana,29.3909,76.9635,35.4,53,0.0,972.1,5.5,28.1,1206,2421.4,457.3,6.2,161.0,90.0,11.6,0,5,6,1,2026-07-18T15:06:16.194740+05:30
Mathura,Uttar Pradesh,27.4924,77.6737,36.2,45,0.0,979.0,7.9,32.0,557,754.4,122.9,2.4,150.0,111.0,3.1,0,5,10,1,2026-07-18T15:06:16.194748+05:30
Vrindavan,Uttar Pradesh,27.5823,77.7027,36.0,47,0.0,979.4,7.55,31.3,557,754.4,122.9,2.4,150.0,111.0,3.1,0,5,10,1,2026-07-18T15:06:16.194756+05:30
Ayodhya,Uttar Pradesh,26.7922,82.1998,32.7,67,0.0,987.6,6.85,19.4,93,21.9,20.7,1.9,364.0,155.0,3.9,3,5,7,1,2026-07-18T15:06:16.194765+05:30
Ratlam,Madhya Pradesh,23.3315,75.0367,32.0,56,0.0,949.8,7.4,34.2,71,46.7,23.1,1.1,118.0,99.0,4.2,0,5,7,1,2026-07-18T15:06:16.194773+05:30
Sagar,Madhya Pradesh,23.8388,78.7378,31.5,59,0.0,944.6,7.25,37.8,91,83.8,32.8,1.1,148.0,113.0,4.6,0,5,7,1,2026-07-18T15:06:16.194781+05:30
Satna,Madhya Pradesh,24.6005,80.8322,28.2,83,0.4,964.6,8.15,40.3,109,169.0,54.1,1.1,151.0,121.0,4.1,10,5,7,1,2026-07-18T15:06:16.194789+05:30
Akola,Maharashtra,20.7002,77.0082,29.9,62,0.0,971.1,5.55,33.8,58,25.4,13.2,4.2,124.0,61.0,9.3,7,5,3,1,2026-07-18T15:06:16.194798+05:30
Amravati,Maharashtra,20.9374,77.7796,26.4,94,0.3,962.9,2.3,39.6,60,24.9,13.4,5.1,121.0,59.0,10.2,10,5,3,1,2026-07-18T15:06:16.194807+05:30
Latur,Maharashtra,18.4088,76.5604,27.0,74,0.1,936.8,2.2,34.9,52,21.9,10.0,1.1,130.0,67.0,2.2,10,5,3,1,2026-07-18T15:06:16.194816+05:30
Nanded,Maharashtra,19.1383,77.3091,27.5,82,0.2,964.8,1.65,38.9,62,23.5,11.0,1.9,134.0,63.0,3.0,10,5,3,1,2026-07-18T15:06:16.194824+05:30
Gulbarga,Karnataka,17.3297,76.8343,26.7,81,0.2,956.0,2.35,38.2,50,33.2,13.0,1.7,124.0,76.0,2.2,10,5,3,1,2026-07-18T15:06:16.194833+05:30
Bidar,Karnataka,17.9104,77.5199,24.2,91,0.4,932.3,2.3,36.4,59,30.7,14.7,1.8,130.0,77.0,3.8,6,5,3,1,2026-07-18T15:06:16.194841+05:30
Hospet,Karnataka,15.2689,76.3909,29.1,60,0.2,953.7,4.95,49.3,25,26.2,9.5,1.7,113.0,66.0,1.7,7,5,3,1,2026-07-18T15:06:16.194849+05:30
Tirupur,Tamil Nadu,11.1085,77.3411,32.1,51,0.1,973.5,6.75,50.8,60,18.9,11.2,2.2,140.0,96.0,2.7,3,5,7,1,2026-07-18T15:06:16.194857+05:30
Alappuzha,Kerala,9.4981,76.3388,28.2,76,0.1,1009.5,7.9,41.0,59,19.6,11.5,2.4,87.0,70.0,2.5,10,0,4,1,2026-07-18T15:06:16.194865+05:30
Munnar,Kerala,10.0889,77.0595,19.3,84,0.1,857.3,7.4,42.5,34,9.8,5.2,1.0,98.0,66.0,1.3,6,10,7,1,2026-07-18T15:06:16.194873+05:30
Silchar,Assam,24.8333,92.7789,31.7,68,0.1,999.1,8.55,32.0,70,15.5,11.5,2.0,141.0,77.0,2.4,6,5,7,1,2026-07-18T15:06:16.194883+05:30
Dibrugarh,Assam,27.4728,94.912,26.7,97,0.2,988.8,1.8,33.8,63,15.3,13.4,7.4,189.0,59.0,1.5,10,5,3,1,2026-07-18T15:06:16.194891+05:30
