city,state,latitude,longitude,temp,humidity,rain,pressure,uv_index,wind_gusts,aqi,pm10,pm2_5,no2,co,o3,so2,mosquito_risk,arthritis_risk,migraine_risk,frizz_risk,updated_at
Delhi,Delhi,28.6139,77.209,30.2,52,0.0,983.0,7.45,46.1,510,638.9,90.8,5.2,375.0,186.0,17.6,0,5,7,1,2026-05-04T12:11:12.073904+05:30
Mumbai,Maharashtra,19.076,72.8777,32.5,58,0.0,1007.6,7.85,41.4,65,44.9,21.7,4.8,203.0,113.0,19.3,0,5,4,1,2026-05-04T12:11:12.073954+05:30
Bangalore,Karnataka,12.9716,77.5946,33.2,30,0.0,912.9,9.5,30.6,78,48.2,22.3,4.0,271.0,156.0,6.7,0,5,7,0,2026-05-04T12:11:12.073972+05:30
Hyderabad,Telangana,17.385,78.4867,37.2,16,0.0,952.8,9.25,30.2,81,40.5,19.5,3.4,223.0,181.0,9.5,0,5,10,0,2026-05-04T12:11:12.073990+05:30
Chennai,Tamil Nadu,13.0827,80.2707,33.8,69,0.0,1005.4,9.25,47.9,76,30.7,22.2,3.3,221.0,144.0,9.5,3,5,4,1,2026-05-04T12:11:12.074000+05:30
Kolkata,West Bengal,22.5726,88.3639,31.5,67,0.0,1007.7,8.95,25.6,106,41.1,24.7,2.1,300.0,125.0,7.4,3,5,4,1,2026-05-04T12:11:12.074010+05:30
Pune,Maharashtra,18.5204,73.8567,35.0,22,0.0,947.8,8.45,49.0,59,60.3,15.7,1.8,169.0,117.0,4.6,0,5,7,0,2026-05-04T12:11:12.074019+05:30
Ahmedabad,Gujarat,23.0225,72.5714,36.3,40,0.0,999.1,8.05,42.8,53,49.7,17.7,2.3,189.0,116.0,7.9,0,5,10,1,2026-05-04T12:11:12.074031+05:30
Jaipur,Rajasthan,26.9124,75.7873,34.0,34,0.0,958.4,8.05,58.0,171,353.0,54.2,1.7,279.0,163.0,9.6,0,5,7,0,2026-05-04T12:11:12.074039+05:30
Lucknow,Uttar Pradesh,26.8467,80.9462,26.0,78,0.1,995.5,7.7,48.2,87,54.7,34.9,2.1,391.0,181.0,8.3,10,5,7,1,2026-05-04T12:11:12.074048+05:30
Kanpur,Uttar Pradesh,26.4499,80.3319,29.1,65,0.0,992.8,8.05,51.1,187,401.4,68.2,2.4,352.0,192.0,9.9,7,5,7,1,2026-05-04T12:11:12.074056+05:30
Chandigarh,Chandigarh,30.7333,76.7794,29.2,35,0.0,970.5,7.5,50.4,89,118.3,28.1,2.9,316.0,152.0,4.8,4,5,7,0,2026-05-04T12:11:12.074065+05:30
Srinagar,Jammu and Kashmir,34.0837,74.7973,17.8,63,0.0,842.8,6.3,33.5,69,14.5,10.2,1.8,248.0,152.0,2.7,3,5,7,0,2026-05-04T12:11:12.074074+05:30
Jammu,Jammu and Kashmir,32.7266,74.857,24.7,60,0.0,974.5,8.2,47.9,71,77.1,20.8,2.1,294.0,151.0,3.4,0,5,7,1,2026-05-04T12:11:12.074084+05:30
Amritsar,Punjab,31.634,74.8723,31.5,35,0.0,980.8,8.05,55.4,125,204.0,42.5,1.9,313.0,157.0,9.8,0,5,7,0,2026-05-04T12:11:12.074092+05:30
Ludhiana,Punjab,30.901,75.8573,29.5,41,0.0,979.7,7.4,55.8,164,105.2,32.4,5.0,310.0,147.0,10.7,4,5,7,0,2026-05-04T12:11:12.074099+05:30
Jalandhar,Punjab,31.326,75.5762,29.9,39,0.0,980.3,7.8,58.3,120,136.0,36.2,5.9,301.0,146.0,19.3,4,5,7,0,2026-05-04T12:11:12.074106+05:30
Dehradun,Uttarakhand,30.6284,78.0322,20.4,49,0.0,832.6,7.25,35.3,56,87.3,17.8,1.4,196.0,141.0,2.2,0,5,7,0,2026-05-04T12:11:12.074116+05:30
Shimla,Himachal Pradesh,31.1048,77.1734,15.1,51,0.0,785.9,8.0,35.6,62,155.5,28.1,1.5,221.0,146.0,2.1,0,5,7,0,2026-05-04T12:11:12.074123+05:30
Manali,Himachal Pradesh,32.2396,77.1887,14.9,47,0.0,818.4,9.95,34.2,97,65.7,12.0,1.2,169.0,163.0,1.6,0,5,7,0,2026-05-04T12:11:12.074130+05:30
Gurgaon,Haryana,28.4595,77.0266,31.0,49,0.0,981.2,7.6,54.4,2051,1676.4,197.0,4.8,305.0,182.0,14.9,0,5,7,1,2026-05-04T12:11:12.074138+05:30
Noida,Uttar Pradesh,28.5355,77.391,30.9,50,0.0,985.0,7.5,47.5,2051,1676.4,197.0,4.8,342.0,182.0,14.9,0,5,7,1,2026-05-04T12:11:12.074145+05:30
Ghaziabad,Uttar Pradesh,28.6692,77.4538,30.5,52,0.0,983.3,7.45,51.8,277,568.1,70.8,2.5,312.0,170.0,8.9,0,5,7,1,2026-05-04T12:11:12.074152+05:30
Faridabad,Haryana,28.4089,77.3178,30.0,52,0.0,984.1,7.5,50.4,2051,1676.4,197.0,4.8,309.0,182.0,14.9,4,5,7,1,2026-05-04T12:11:12.074159+05:30
Meerut,Uttar Pradesh,28.9845,77.7064,29.1,56,0.0,982.4,7.4,58.7,277,568.1,70.8,2.5,318.0,170.0,8.9,4,5,7,1,2026-05-04T12:11:12.074166+05:30
Agra,Uttar Pradesh,27.1767,78.0081,31.4,50,0.0,987.1,7.25,56.2,939,1262.9,126.2,1.8,313.0,174.0,9.3,0,5,7,1,2026-05-04T12:11:12.074173+05:30
Varanasi,Uttar Pradesh,25.3176,82.9739,34.8,43,0.0,997.0,8.65,44.3,136,71.9,50.2,2.6,380.0,208.0,21.9,0,5,7,1,2026-05-04T12:11:12.074181+05:30
Prayagraj,Uttar Pradesh,25.4358,81.8463,29.5,60,0.0,997.3,8.5,45.0,119,63.3,48.0,2.4,405.0,208.0,16.0,4,5,7,1,2026-05-04T12:11:12.074191+05:30
Gorakhpur,Uttar Pradesh,26.7606,83.3732,32.7,48,0.0,998.9,8.45,43.6,85,53.4,32.1,1.7,322.0,172.0,4.8,0,5,7,1,2026-05-04T12:11:12.074197+05:30
Bareilly,Uttar Pradesh,28.367,79.4304,28.5,57,0.0,988.9,7.1,52.2,110,52.6,28.1,4.0,327.0,142.0,9.1,4,5,7,1,2026-05-04T12:11:12.074204+05:30
Aligarh,Uttar Pradesh,27.8974,78.088,30.8,52,0.0,985.6,7.7,53.3,674,1020.7,105.9,2.1,318.0,170.0,10.5,0,5,7,1,2026-05-04T12:11:12.074211+05:30
Moradabad,Uttar Pradesh,28.8386,78.7733,30.2,48,0.0,985.1,7.55,59.0,105,50.6,25.1,3.5,301.0,155.0,7.1,0,5,7,1,2026-05-04T12:11:12.074218+05:30
Saharanpur,Uttar Pradesh,29.9637,77.546,30.1,38,0.0,976.6,7.05,56.9,132,79.4,29.0,2.0,283.0,159.0,7.2,0,5,7,0,2026-05-04T12:11:12.074224+05:30
Jhansi,Uttar Pradesh,25.4484,78.5685,35.2,36,0.0,976.9,8.35,51.8,105,60.1,39.8,2.3,252.0,187.0,20.6,0,5,10,1,2026-05-04T12:11:15.309273+05:30
Surat,Gujarat,21.1702,72.8311,34.0,50,0.0,1004.9,7.7,49.0,58,39.7,17.9,9.4,235.0,81.0,26.5,0,5,4,1,2026-05-04T12:11:15.309326+05:30
Vadodara,Gujarat,22.3072,73.1812,36.5,39,0.0,1001.5,8.05,43.9,51,45.9,18.3,2.1,164.0,114.0,6.4,0,5,7,1,2026-05-04T12:11:15.309336+05:30
Rajkot,Gujarat,22.3039,70.8022,37.4,34,0.0,991.2,7.7,43.2,46,47.1,16.3,1.2,156.0,109.0,5.3,0,5,10,1,2026-05-04T12:11:15.309346+05:30
Thane,Maharashtra,19.2183,72.9781,35.0,45,0.0,1006.4,7.85,38.9,65,44.9,21.7,4.8,213.0,113.0,19.3,0,5,4,1,2026-05-04T12:11:15.309354+05:30
Nagpur,Maharashtra,21.1458,79.0882,39.9,15,0.0,972.0,8.9,47.5,66,23.7,22.4,10.2,201.0,189.0,42.1,0,5,10,0,2026-05-04T12:11:15.309363+05:30
Nashik,Maharashtra,19.9975,73.7898,33.1,36,0.0,945.2,8.15,44.3,59,40.0,17.1,2.2,180.0,123.0,5.9,0,5,7,1,2026-05-04T12:11:15.309370+05:30
Aurangabad,Maharashtra,19.8762,75.3433,35.5,21,0.0,943.8,9.05,40.3,54,59.5,16.1,1.4,168.0,129.0,4.6,0,5,10,0,2026-05-04T12:11:15.309377+05:30
Solapur,Maharashtra,17.6599,75.9064,37.0,17,0.0,957.0,9.05,32.0,54,49.4,13.6,1.2,176.0,117.0,2.3,0,5,10,0,2026-05-04T12:11:15.309384+05:30
Kolhapur,Maharashtra,16.705,74.2433,35.0,26,0.0,948.4,8.95,46.1,59,54.4,18.2,1.9,160.0,111.0,1.8,0,5,7,0,2026-05-04T12:11:15.309392+05:30
Goa,Goa,15.2993,74.124,36.0,43,0.0,997.7,8.9,37.1,67,50.6,17.4,0.8,172.0,84.0,1.2,0,5,10,1,2026-05-04T12:11:15.309399+05:30
Jodhpur,Rajasthan,26.2389,73.0243,37.8,30,0.0,978.9,8.25,42.8,99,134.1,26.3,1.4,177.0,135.0,5.6,0,5,10,1,2026-05-04T12:11:15.309406+05:30
Udaipur,Rajasthan,24.5854,73.7125,34.8,34,0.0,944.7,8.75,42.5,49,75.2,20.9,1.2,181.0,126.0,6.9,0,5,7,1,2026-05-04T12:11:15.309414+05:30
Kota,Rajasthan,25.2138,75.8648,37.2,31,0.0,976.5,8.25,70.2,64,45.6,17.4,1.8,187.0,139.0,9.3,0,5,10,1,2026-05-04T12:11:15.309421+05:30
Bikaner,Rajasthan,28.0229,73.3119,38.7,14,0.0,978.1,8.1,63.0,81,168.1,31.4,1.0,180.0,145.0,9.3,0,5,10,0,2026-05-04T12:11:15.309428+05:30
Ajmer,Rajasthan,26.4499,74.6399,35.8,26,0.0,952.7,8.2,46.8,70,87.5,23.4,1.1,161.0,142.0,4.6,0,5,10,0,2026-05-04T12:11:15.309435+05:30
Gwalior,Madhya Pradesh,26.2183,78.1828,32.8,48,0.0,982.3,7.9,54.7,95,56.5,34.6,1.3,192.0,175.0,9.1,0,5,7,1,2026-05-04T12:11:15.309442+05:30
Indore,Madhya Pradesh,22.7196,75.8577,36.0,23,0.0,947.1,8.6,34.9,47,39.0,14.6,1.3,190.0,121.0,5.9,0,5,10,0,2026-05-04T12:11:15.309448+05:30
Bhopal,Madhya Pradesh,23.2599,77.4126,37.2,19,0.0,952.4,8.65,49.0,62,18.7,10.1,1.0,182.0,131.0,6.1,0,5,10,0,2026-05-04T12:11:15.309456+05:30
Jabalpur,Madhya Pradesh,23.1815,79.9864,38.5,19,0.0,960.4,8.2,39.2,65,49.4,18.9,2.1,178.0,178.0,9.4,0,5,10,0,2026-05-04T12:11:15.309462+05:30
Ujjain,Madhya Pradesh,23.1765,75.7885,36.2,28,0.0,952.5,8.55,35.6,46,44.4,16.5,1.0,174.0,113.0,6.8,0,5,10,0,2026-05-04T12:11:15.309470+05:30
Visakhapatnam,Andhra Pradesh,17.6868,83.2185,33.7,57,0.0,1003.3,7.6,33.1,75,30.9,22.2,9.2,298.0,94.0,11.1,0,5,4,1,2026-05-04T12:11:15.309477+05:30
Vijayawada,Andhra Pradesh,16.5062,80.648,37.7,45,0.0,1000.6,9.15,56.9,91,41.7,29.5,1.8,242.0,170.0,9.9,0,5,7,1,2026-05-04T12:11:15.309483+05:30
Guntur,Andhra Pradesh,16.3067,80.4365,39.5,34,0.0,1001.5,9.2,40.3,94,43.2,29.9,1.7,258.0,174.0,7.7,0,5,7,1,2026-05-04T12:11:15.309490+05:30
Nellore,Andhra Pradesh,14.4426,79.9865,40.5,27,0.0,1002.9,9.15,42.5,83,36.9,25.6,2.5,191.0,176.0,11.1,0,5,7,1,2026-05-04T12:11:15.309498+05:30
Kurnool,Andhra Pradesh,15.8281,78.0373,39.8,15,0.0,975.9,9.15,43.2,66,48.8,16.8,2.0,187.0,134.0,7.8,0,5,10,0,2026-05-04T12:11:15.309505+05:30
Kakinada,Andhra Pradesh,16.9891,82.2475,32.2,69,0.1,1006.7,9.1,31.7,67,28.0,19.6,0.9,220.0,105.0,1.3,6,5,4,1,2026-05-04T12:11:15.309513+05:30
Tirupati,Andhra Pradesh,13.6288,79.4192,40.2,22,0.0,988.8,9.1,60.8,82,39.5,20.4,2.2,177.0,162.0,4.8,0,5,10,0,2026-05-04T12:11:15.309520+05:30
Warangal,Telangana,17.9689,79.5941,37.3,32,0.0,977.7,9.15,41.8,98,48.3,34.3,1.9,260.0,180.0,10.8,0,5,10,1,2026-05-04T12:11:15.309526+05:30
Nizamabad,Telangana,18.6725,78.0941,38.0,13,0.0,964.3,9.1,31.3,75,44.9,15.5,1.5,176.0,134.0,4.1,0,5,10,0,2026-05-04T12:11:15.309533+05:30
Mysore,Karnataka,12.2958,76.6396,33.0,38,0.0,929.5,9.4,35.3,66,46.1,20.0,2.2,197.0,132.0,2.0,0,5,7,1,2026-05-04T12:11:15.309539+05:30
Mangalore,Karnataka,12.9141,74.856,32.8,58,0.1,1006.8,9.05,45.7,68,59.6,19.2,1.1,151.0,88.0,1.3,3,5,4,1,2026-05-04T12:11:15.309546+05:30
Hubli-Dharwad,Karnataka,15.3647,75.124,34.7,27,0.0,941.9,9.15,49.0,56,50.3,15.3,1.5,171.0,104.0,1.3,0,5,7,0,2026-05-04T12:11:15.309553+05:30
Belgaum,Karnataka,15.8497,74.4977,32.8,32,0.0,927.1,9.15,42.5,56,51.0,15.3,1.4,151.0,100.0,2.2,0,5,7,0,2026-05-04T12:11:18.551390+05:30
Coimbatore,Tamil Nadu,11.0168,76.9558,36.0,37,0.0,961.5,9.35,46.1,65,48.8,19.7,1.4,206.0,120.0,2.3,0,5,10,1,2026-05-04T12:11:18.551431+05:30
Madurai,Tamil Nadu,9.9252,78.1198,39.2,30,0.0,991.6,5.8,49.7,91,39.3,27.2,3.5,213.0,200.0,5.1,0,5,6,1,2026-05-04T12:11:18.551444+05:30
Trichy,Tamil Nadu,10.7905,78.7047,38.0,34,0.0,998.1,9.25,41.8,76,42.0,19.9,1.9,186.0,128.0,3.9,0,5,10,1,2026-05-04T12:11:18.551453+05:30
Salem,Tamil Nadu,11.6643,78.146,36.6,35,0.0,976.4,8.8,61.2,77,53.4,25.0,3.7,204.0,178.0,14.2,0,5,10,1,2026-05-04T12:11:18.551462+05:30
Tirunelveli,Tamil Nadu,8.7139,77.7567,38.6,29,0.0,1001.6,8.0,34.2,72,57.3,21.6,1.2,184.0,102.0,0.9,0,5,7,1,2026-05-04T12:11:18.551471+05:30
Vellore,Tamil Nadu,12.9165,79.1325,40.5,22,0.0,982.4,8.9,40.7,83,49.7,24.4,2.7,203.0,179.0,4.8,0,5,10,0,2026-05-04T12:11:18.551478+05:30
Erode,Tamil Nadu,11.341,77.7172,38.6,30,0.0,987.8,9.25,56.9,67,47.3,21.3,2.2,235.0,146.0,1.8,0,5,10,1,2026-05-04T12:11:18.551486+05:30
Kochi,Kerala,9.9312,76.2673,31.3,69,0.0,1008.6,9.05,28.8,103,73.1,30.4,3.0,186.0,111.0,2.5,3,0,4,1,2026-05-04T12:11:18.551494+05:30
Thiruvananthapuram,Kerala,8.5241,76.9366,32.0,59,0.0,1008.0,8.0,37.8,65,65.0,28.9,1.7,160.0,120.0,2.9,0,0,4,1,2026-05-04T12:11:18.551501+05:30
Kozhikode,Kerala,11.2588,75.7804,32.2,67,0.0,1007.3,9.0,41.4,70,66.4,21.2,0.7,179.0,83.0,1.5,3,5,4,1,2026-05-04T12:11:18.551508+05:30
Thrissur,Kerala,10.5276,76.2144,32.2,64,0.0,1006.7,9.05,31.7,91,63.6,25.8,1.7,166.0,101.0,2.0,3,5,4,1,2026-05-04T12:11:18.551517+05:30
Kannur,Kerala,11.8745,75.3704,32.8,62,0.0,1006.8,9.0,46.4,69,61.7,20.5,1.3,160.0,87.0,1.2,3,5,4,1,2026-05-04T12:11:18.551525+05:30
Patna,Bihar,25.5941,85.1376,32.4,54,0.0,1002.0,8.7,47.9,125,62.9,49.2,2.9,271.0,184.0,12.5,0,5,4,1,2026-05-04T12:11:18.551532+05:30
Gaya,Bihar,24.7914,85.0002,35.3,42,0.0,994.4,8.8,45.7,140,59.3,45.8,2.2,302.0,185.0,9.8,0,5,10,1,2026-05-04T12:11:18.551539+05:30
Muzaffarpur,Bihar,26.1209,85.3647,31.1,56,0.0,1002.6,8.7,47.5,109,57.6,43.9,2.9,292.0,171.0,7.8,0,5,4,1,2026-05-04T12:11:18.551545+05:30
Bhagalpur,Bihar,25.2425,87.0117,32.1,51,0.0,1003.8,8.7,36.7,113,37.4,28.6,4.4,240.0,156.0,4.6,0,5,4,1,2026-05-04T12:11:18.551553+05:30
Ranchi,Jharkhand,23.3441,85.3096,31.8,40,0.0,939.6,9.15,37.8,100,52.7,36.6,2.5,345.0,214.0,23.7,0,5,7,1,2026-05-04T12:11:18.551560+05:30
Jamshedpur,Jharkhand,22.8046,86.2029,35.2,40,0.0,991.9,9.05,40.3,108,52.7,38.5,2.9,256.0,195.0,19.7,0,5,10,1,2026-05-04T12:11:18.551567+05:30
Dhanbad,Jharkhand,23.7957,86.4304,27.6,74,0.0,982.3,9.0,41.0,151,65.9,54.5,13.4,299.0,178.0,44.0,7,5,7,1,2026-05-04T12:11:18.551574+05:30
Bokaro,Jharkhand,23.6693,86.1511,31.2,61,0.0,985.7,9.0,43.9,153,73.8,60.1,15.0,322.0,201.0,57.4,3,5,7,1,2026-05-04T12:11:18.551581+05:30
Bhubaneswar,Odisha,20.2961,85.8245,34.0,52,0.0,1003.0,9.1,38.9,70,30.6,21.8,1.5,188.0,118.0,3.6,0,5,4,1,2026-05-04T12:11:18.551588+05:30
Cuttack,Odisha,20.4625,85.8828,34.7,49,0.0,1004.7,9.15,37.1,70,30.6,21.8,1.5,200.0,118.0,3.6,0,5,4,1,2026-05-04T12:11:18.551594+05:30
Rourkela,Odisha,22.2604,84.8536,35.8,39,0.0,985.3,9.0,36.0,110,65.2,45.3,3.2,539.0,216.0,39.4,0,5,10,1,2026-05-04T12:11:18.551601+05:30
Raipur,Chhattisgarh,21.2514,81.6296,37.9,30,0.0,974.0,8.95,37.1,102,57.3,34.6,5.4,356.0,194.0,10.1,0,5,10,1,2026-05-04T12:11:18.551607+05:30
Bhilai,Chhattisgarh,21.1938,81.3509,37.7,30,0.0,974.4,9.0,36.7,110,51.8,29.6,5.5,446.0,178.0,10.6,0,5,10,1,2026-05-04T12:11:18.551613+05:30
Guwahati,Assam,26.1158,91.7086,28.4,64,0.0,1004.5,8.65,29.2,79,37.3,23.5,1.2,255.0,126.0,1.5,7,5,4,1,2026-05-04T12:11:18.551620+05:30
Agartala,Tripura,23.8315,91.2868,28.0,76,0.0,1009.2,8.85,31.3,51,10.7,8.2,4.2,197.0,109.0,1.0,7,0,4,1,2026-05-04T12:11:18.551627+05:30
Shillong,Meghalaya,25.5788,91.8933,20.1,66,0.1,860.1,9.05,27.0,65,32.9,16.5,0.9,199.0,122.0,1.8,6,5,7,0,2026-05-04T12:11:18.551634+05:30
Imphal,Manipur,24.817,93.9368,26.2,60,0.0,926.2,6.85,23.4,94,20.6,13.0,0.9,221.0,106.0,0.8,4,5,7,1,2026-05-04T12:11:18.551641+05:30
Aizawl,Mizoram,23.7271,92.7176,25.7,56,0.0,895.9,8.45,26.6,32,10.5,6.3,0.5,174.0,95.0,0.3,4,5,7,1,2026-05-04T12:11:18.551648+05:30
Kohima,Nagaland,25.6701,94.1077,20.4,74,0.0,858.8,8.9,27.7,68,41.9,19.2,0.7,241.0,118.0,1.0,3,5,7,0,2026-05-04T12:11:18.551654+05:30
Gangtok,Sikkim,27.3314,88.6138,19.2,73,0.0,841.0,7.25,31.7,61,22.1,14.4,0.7,226.0,131.0,0.6,3,5,7,0,2026-05-04T12:11:18.551660+05:30
Siliguri,West Bengal,26.7271,88.3953,29.0,58,0.0,996.5,8.5,32.4,85,30.7,20.8,1.2,278.0,138.0,1.6,4,5,7,1,2026-05-04T12:11:21.803132+05:30
Durgapur,West Bengal,23.5204,87.3119,27.8,76,0.0,997.7,8.95,43.9,128,53.0,41.3,9.3,249.0,157.0,27.2,7,5,7,1,2026-05-04T12:11:21.803168+05:30
Asansol,West Bengal,23.6739,86.9524,27.7,73,0.0,996.1,9.0,42.8,137,57.5,46.1,10.0,269.0,160.0,30.3,7,5,7,1,2026-05-04T12:11:21.803180+05:30
Pondicherry,Puducherry,11.9139,79.8145,33.0,69,0.0,1006.8,8.4,45.7,73,32.7,24.9,3.0,235.0,147.0,12.0,3,5,4,1,2026-05-04T12:11:21.803189+05:30
Port Blair,Andaman and Nicobar Islands,11.6234,92.7265,34.0,47,0.0,1007.7,9.1,34.6,27,9.1,7.2,0.3,149.0,56.0,4.8,0,5,4,1,2026-05-04T12:11:21.803196+05:30
Haridwar,Uttarakhand,29.9457,78.1642,31.4,36,0.0,974.8,6.85,43.9,115,68.5,24.6,1.6,260.0,150.0,4.6,0,5,7,0,2026-05-04T12:11:21.803204+05:30
Rishikesh,Uttarakhand,30.0869,78.2676,32.2,29,0.0,967.3,6.65,41.0,101,51.0,20.1,1.2,217.0,141.0,2.8,0,5,7,0,2026-05-04T12:11:21.803211+05:30
Nainital,Uttarakhand,29.3919,79.4542,19.2,42,0.0,808.8,7.85,37.4,101,56.0,26.8,2.9,251.0,140.0,2.9,0,5,7,0,2026-05-04T12:11:21.803219+05:30
Mussoorie,Uttarakhand,30.4599,78.0664,20.1,39,0.0,805.7,7.2,45.4,86,90.8,22.9,1.6,218.0,154.0,5.3,0,5,7,0,2026-05-04T12:11:21.803226+05:30
Dharamshala,Himachal Pradesh,32.219,76.3234,20.0,48,0.0,870.1,8.0,58.0,83,139.2,24.1,0.9,201.0,155.0,2.0,0,5,7,0,2026-05-04T12:11:21.803233+05:30
Dalhousie,Himachal Pradesh,32.5387,75.971,14.2,69,0.0,804.7,6.65,41.0,66,167.2,31.5,2.0,225.0,155.0,2.9,3,5,7,0,2026-05-04T12:11:21.803241+05:30
Patiala,Punjab,30.3398,76.3869,29.6,47,0.0,979.3,7.4,56.2,526,97.8,26.7,3.1,285.0,155.0,7.8,4,5,7,1,2026-05-04T12:11:21.803248+05:30
Bhatinda,Punjab,30.211,74.9455,33.2,32,0.0,982.8,8.0,56.5,605,773.0,118.3,3.4,288.0,183.0,18.6,0,5,7,0,2026-05-04T12:11:21.803255+05:30
Rohtak,Haryana,28.8955,76.6066,32.0,40,0.0,981.7,7.5,51.1,948,1382.1,159.7,4.7,364.0,205.0,20.7,0,5,7,1,2026-05-04T12:11:21.803261+05:30
Panipat,Haryana,29.3909,76.9635,30.0,51,0.0,980.8,7.35,54.0,1273,2764.2,251.5,3.3,292.0,184.0,13.8,4,5,7,1,2026-05-04T12:11:21.803268+05:30
Mathura,Uttar Pradesh,27.4924,77.6737,32.1,48,0.0,986.1,7.8,54.7,955,1777.0,170.4,1.7,293.0,174.0,8.5,0,5,7,1,2026-05-04T12:11:21.803275+05:30
Vrindavan,Uttar Pradesh,27.5823,77.7027,32.4,46,0.0,986.4,7.8,54.0,955,1777.0,170.4,1.7,289.0,174.0,8.5,0,5,7,1,2026-05-04T12:11:21.803282+05:30
Ayodhya,Uttar Pradesh,26.7922,82.1998,23.2,92,0.0,999.4,7.8,43.6,86,53.4,31.1,1.7,342.0,175.0,5.7,3,5,7,1,2026-05-04T12:11:21.803289+05:30
Ratlam,Madhya Pradesh,23.3315,75.0367,34.7,36,0.0,953.5,8.45,38.2,42,44.5,16.0,1.0,164.0,109.0,5.9,0,5,7,1,2026-05-04T12:11:21.803295+05:30
Sagar,Madhya Pradesh,23.8388,78.7378,36.8,24,0.0,949.5,8.65,37.4,64,59.3,19.2,1.3,194.0,151.0,6.2,0,5,10,0,2026-05-04T12:11:21.803302+05:30
Satna,Madhya Pradesh,24.6005,80.8322,34.4,35,0.0,971.1,8.2,50.0,94,74.7,32.1,2.2,246.0,184.0,13.1,0,5,7,1,2026-05-04T12:11:21.803308+05:30
Akola,Maharashtra,20.7002,77.0082,37.5,22,0.0,974.0,8.85,33.5,51,34.1,13.4,1.9,168.0,127.0,15.0,0,5,10,0,2026-05-04T12:11:21.803334+05:30
Amravati,Maharashtra,20.9374,77.7796,38.0,18,0.0,966.5,8.9,34.2,53,32.5,12.8,2.5,171.0,129.0,10.5,0,5,10,0,2026-05-04T12:11:21.803342+05:30
Latur,Maharashtra,18.4088,76.5604,37.5,12,0.0,939.8,9.1,40.7,59,48.1,12.4,1.0,150.0,113.0,4.0,0,5,10,0,2026-05-04T12:11:21.803350+05:30
Nanded,Maharashtra,19.1383,77.3091,38.8,13,0.0,967.8,9.0,29.9,60,49.1,15.3,1.4,180.0,126.0,3.4,0,5,10,0,2026-05-04T12:11:21.803356+05:30
Gulbarga,Karnataka,17.3297,76.8343,38.5,12,0.0,958.3,9.1,40.0,56,48.3,14.5,1.7,159.0,123.0,3.2,0,5,10,0,2026-05-04T12:11:21.803362+05:30
Bidar,Karnataka,17.9104,77.5199,37.5,13,0.0,935.7,9.15,30.6,78,50.2,15.9,1.7,167.0,129.0,6.2,0,5,10,0,2026-05-04T12:11:21.803369+05:30
Hospet,Karnataka,15.2689,76.3909,34.2,34,0.0,956.4,9.2,36.7,59,49.7,15.9,2.0,185.0,110.0,1.8,0,5,7,1,2026-05-04T12:11:21.803375+05:30
Tirupur,Tamil Nadu,11.1085,77.3411,37.7,32,0.0,974.3,9.35,49.7,69,50.3,21.8,2.2,205.0,144.0,2.4,0,5,10,1,2026-05-04T12:11:21.803382+05:30
Alappuzha,Kerala,9.4981,76.3388,32.2,59,0.0,1008.6,8.95,32.0,84,79.9,34.9,2.9,145.0,133.0,4.8,0,0,4,1,2026-05-04T12:11:21.803388+05:30
Munnar,Kerala,10.0889,77.0595,23.2,70,0.0,858.8,7.7,27.0,76,43.3,18.0,0.9,170.0,105.0,0.8,3,5,7,1,2026-05-04T12:11:21.803395+05:30
Silchar,Assam,24.8333,92.7789,27.9,69,0.0,1008.2,6.1,30.2,94,22.6,16.0,1.5,200.0,106.0,3.5,7,0,4,1,2026-05-04T12:11:21.803402+05:30
Dibrugarh,Assam,27.4728,94.912,28.0,68,0.0,998.7,8.7,21.6,88,26.1,20.4,1.0,217.0,115.0,1.1,7,5,7,1,2026-05-04T12:11:21.803408+05:30
