city,state,latitude,longitude,temp,humidity,rain,pressure,uv_index,wind_gusts,aqi,pm10,pm2_5,mosquito_risk,arthritis_risk,migraine_risk,frizz_risk,updated_at
Delhi,Delhi,28.6139,77.209,17.8,89,0.0,984.4,3.7,21.2,145,155.1,62.4,3,10,3,0,2026-03-20T04:02:24.789963+05:30
Mumbai,Maharashtra,19.076,72.8777,26.5,69,0.0,1009.1,7.8,24.8,67,53.0,26.7,7,0,4,1,2026-03-20T04:02:24.790000+05:30
Bangalore,Karnataka,12.9716,77.5946,20.1,87,0.0,911.2,9.4,16.9,100,29.3,26.0,3,5,7,1,2026-03-20T04:02:24.790015+05:30
Hyderabad,Telangana,17.385,78.4867,20.6,88,0.0,953.0,8.8,25.2,66,21.4,18.9,3,5,7,1,2026-03-20T04:02:24.790024+05:30
Chennai,Tamil Nadu,13.0827,80.2707,25.6,88,0.0,1008.0,9.15,33.5,33,8.7,6.8,7,0,4,1,2026-03-20T04:02:24.790032+05:30
Kolkata,West Bengal,22.5726,88.3639,24.3,94,0.0,1007.5,7.95,39.6,74,23.5,19.4,3,5,4,1,2026-03-20T04:02:24.790040+05:30
Pune,Maharashtra,18.5204,73.8567,19.2,88,0.0,948.2,8.35,36.7,90,30.9,22.2,3,10,7,1,2026-03-20T04:02:24.790052+05:30
Ahmedabad,Gujarat,23.0225,72.5714,20.0,92,0.0,1003.8,7.65,33.8,59,60.1,32.5,3,5,4,1,2026-03-20T04:02:24.790060+05:30
Jaipur,Rajasthan,26.9124,75.7873,18.2,90,0.1,960.6,6.05,25.2,115,86.8,27.2,6,10,7,1,2026-03-20T04:02:24.790067+05:30
Lucknow,Uttar Pradesh,26.8467,80.9462,22.8,60,0.0,994.0,6.0,43.6,92,51.7,31.2,0,5,3,0,2026-03-20T04:02:24.790074+05:30
Kanpur,Uttar Pradesh,26.4499,80.3319,21.7,73,0.0,991.7,5.55,43.6,115,78.5,38.4,3,5,3,1,2026-03-20T04:02:24.790081+05:30
Chandigarh,Chandigarh,30.7333,76.7794,15.6,100,0.0,970.1,0.4,25.2,87,40.5,24.7,3,10,3,0,2026-03-20T04:02:24.790089+05:30
Srinagar,Jammu and Kashmir,34.0837,74.7973,6.0,96,0.3,837.3,4.9,12.6,102,14.1,13.9,6,10,3,0,2026-03-20T04:02:24.790096+05:30
Jammu,Jammu and Kashmir,32.7266,74.857,16.2,98,0.0,975.0,4.2,20.9,84,64.7,42.3,3,10,3,0,2026-03-20T04:02:24.790103+05:30
Amritsar,Punjab,31.634,74.8723,14.9,98,0.0,983.3,4.15,19.4,91,53.6,39.5,3,10,3,0,2026-03-20T04:02:24.790110+05:30
Ludhiana,Punjab,30.901,75.8573,15.1,100,0.0,980.7,2.85,17.3,104,55.1,30.0,3,10,3,0,2026-03-20T04:02:24.790117+05:30
Jalandhar,Punjab,31.326,75.5762,14.7,99,0.0,982.1,2.3,18.0,92,42.3,24.3,3,10,3,0,2026-03-20T04:02:24.790125+05:30
Dehradun,Uttarakhand,30.6284,78.0322,10.1,81,0.0,827.9,0.35,34.6,45,32.4,11.1,3,10,3,0,2026-03-20T04:02:24.790132+05:30
Shimla,Himachal Pradesh,31.1048,77.1734,8.0,84,0.0,779.9,0.5,40.7,41,29.6,9.3,3,10,3,0,2026-03-20T04:02:24.790138+05:30
Manali,Himachal Pradesh,32.2396,77.1887,10.3,99,0.8,813.6,3.2,28.8,45,2.2,1.9,6,10,3,0,2026-03-20T04:02:24.790144+05:30
Gurgaon,Haryana,28.4595,77.0266,16.5,97,0.0,982.8,3.65,18.0,156,157.9,60.1,3,10,3,0,2026-03-20T04:02:24.790150+05:30
Noida,Uttar Pradesh,28.5355,77.391,18.0,88,0.0,985.9,4.05,21.6,156,157.9,60.1,3,10,3,0,2026-03-20T04:02:24.790156+05:30
Ghaziabad,Uttar Pradesh,28.6692,77.4538,17.2,91,0.0,984.0,4.45,20.2,126,119.0,59.4,3,10,3,0,2026-03-20T04:02:24.790162+05:30
Faridabad,Haryana,28.4089,77.3178,17.5,90,0.0,985.2,4.15,19.4,156,157.9,60.1,3,10,3,0,2026-03-20T04:02:24.790168+05:30
Meerut,Uttar Pradesh,28.9845,77.7064,16.8,92,0.0,982.7,3.6,24.8,126,119.0,59.4,3,10,3,0,2026-03-20T04:02:24.790173+05:30
Agra,Uttar Pradesh,27.1767,78.0081,18.4,91,0.0,988.9,5.6,27.4,666,905.2,110.8,3,10,3,1,2026-03-20T04:02:24.790179+05:30
Varanasi,Uttar Pradesh,25.3176,82.9739,22.9,67,0.0,997.4,7.5,43.9,104,66.6,53.6,3,5,7,1,2026-03-20T04:02:24.790188+05:30
Prayagraj,Uttar Pradesh,25.4358,81.8463,23.9,59,0.0,996.0,4.95,51.5,106,58.7,42.6,0,5,3,0,2026-03-20T04:02:24.790195+05:30
Gorakhpur,Uttar Pradesh,26.7606,83.3732,17.1,92,0.0,997.2,7.1,42.1,123,113.2,74.0,3,10,7,0,2026-03-20T04:02:24.790203+05:30
Bareilly,Uttar Pradesh,28.367,79.4304,18.8,80,0.0,988.4,3.6,35.6,85,47.5,32.4,3,5,3,0,2026-03-20T04:02:24.790210+05:30
Aligarh,Uttar Pradesh,27.8974,78.088,17.6,85,0.0,986.8,4.7,23.4,139,122.0,45.3,3,10,3,0,2026-03-20T04:02:24.790216+05:30
Moradabad,Uttar Pradesh,28.8386,78.7733,18.4,79,0.0,984.8,2.75,25.6,93,53.1,29.0,3,5,3,0,2026-03-20T04:02:24.790221+05:30
Saharanpur,Uttar Pradesh,29.9637,77.546,16.0,87,0.0,976.9,1.15,23.8,114,73.3,53.7,3,10,3,0,2026-03-20T04:02:24.790227+05:30
Jhansi,Uttar Pradesh,25.4484,78.5685,20.9,77,0.0,978.6,5.1,29.5,82,114.8,45.9,3,5,3,1,2026-03-20T04:02:28.014507+05:30
Surat,Gujarat,21.1702,72.8311,22.8,85,0.0,1007.5,7.5,26.3,89,56.5,45.3,3,5,4,1,2026-03-20T04:02:28.014528+05:30
Vadodara,Gujarat,22.3072,73.1812,21.0,89,0.0,1005.9,7.65,30.6,55,48.9,22.6,3,5,4,1,2026-03-20T04:02:28.014537+05:30
Rajkot,Gujarat,22.3039,70.8022,19.7,92,0.0,996.1,7.5,30.2,60,65.9,25.0,3,10,7,1,2026-03-20T04:02:28.014544+05:30
Thane,Maharashtra,19.2183,72.9781,23.7,85,0.0,1008.6,7.8,36.7,67,53.0,26.7,3,0,4,1,2026-03-20T04:02:28.014551+05:30
Nagpur,Maharashtra,21.1458,79.0882,21.5,76,0.0,974.5,7.55,39.2,110,55.2,45.3,3,5,7,1,2026-03-20T04:02:28.014558+05:30
Nashik,Maharashtra,19.9975,73.7898,19.3,89,0.0,945.1,8.0,33.5,54,23.9,16.4,3,10,7,1,2026-03-20T04:02:28.014565+05:30
Aurangabad,Maharashtra,19.8762,75.3433,21.6,63,0.0,943.8,8.5,34.9,77,37.7,25.6,3,5,7,0,2026-03-20T04:02:28.014572+05:30
Solapur,Maharashtra,17.6599,75.9064,22.4,68,0.0,956.8,8.7,28.8,75,48.1,33.2,3,5,7,1,2026-03-20T04:02:28.014579+05:30
Kolhapur,Maharashtra,16.705,74.2433,17.7,91,0.0,947.2,8.85,44.3,87,37.8,33.1,3,10,7,1,2026-03-20T04:02:28.014586+05:30
Goa,Goa,15.2993,74.124,24.9,84,0.0,998.0,8.85,40.0,66,28.5,21.2,3,5,7,1,2026-03-20T04:02:28.014592+05:30
Jodhpur,Rajasthan,26.2389,73.0243,19.2,86,0.0,984.9,7.25,18.7,72,73.8,22.2,3,10,7,1,2026-03-20T04:02:28.014599+05:30
Udaipur,Rajasthan,24.5854,73.7125,17.8,70,0.0,946.3,7.95,30.6,58,53.1,19.0,3,5,7,0,2026-03-20T04:02:28.014605+05:30
Kota,Rajasthan,25.2138,75.8648,21.3,74,0.0,979.9,6.25,31.7,75,39.2,17.5,3,5,7,1,2026-03-20T04:02:28.014612+05:30
Bikaner,Rajasthan,28.0229,73.3119,19.1,89,0.0,983.9,6.9,17.3,68,28.3,16.8,3,10,7,1,2026-03-20T04:02:28.014618+05:30
Ajmer,Rajasthan,26.4499,74.6399,18.8,90,0.0,954.8,6.6,28.1,73,41.3,17.4,3,10,7,1,2026-03-20T04:02:28.014624+05:30
Gwalior,Madhya Pradesh,26.2183,78.1828,19.9,89,0.0,984.3,4.55,29.5,132,204.0,62.4,3,10,3,1,2026-03-20T04:02:28.014631+05:30
Indore,Madhya Pradesh,22.7196,75.8577,19.3,77,0.0,948.3,7.9,37.4,57,46.4,19.0,3,5,7,0,2026-03-20T04:02:28.014637+05:30
Bhopal,Madhya Pradesh,23.2599,77.4126,19.5,69,0.0,953.5,7.8,35.6,70,29.9,23.1,3,5,7,0,2026-03-20T04:02:28.014644+05:30
Jabalpur,Madhya Pradesh,23.1815,79.9864,21.4,64,0.0,962.5,5.1,29.9,74,23.1,19.0,3,5,3,0,2026-03-20T04:02:28.014650+05:30
Ujjain,Madhya Pradesh,23.1765,75.7885,19.8,78,0.0,954.1,7.8,40.3,55,50.5,20.1,3,5,7,0,2026-03-20T04:02:28.014657+05:30
Visakhapatnam,Andhra Pradesh,17.6868,83.2185,22.4,89,0.0,1005.0,8.75,37.4,67,24.8,21.7,3,5,4,1,2026-03-20T04:02:28.014663+05:30
Vijayawada,Andhra Pradesh,16.5062,80.648,23.2,93,0.0,1003.7,8.85,24.1,61,23.3,21.0,3,5,4,1,2026-03-20T04:02:28.014670+05:30
Guntur,Andhra Pradesh,16.3067,80.4365,23.2,94,0.0,1004.8,8.85,35.6,56,18.5,16.8,3,5,4,1,2026-03-20T04:02:28.014676+05:30
Nellore,Andhra Pradesh,14.4426,79.9865,24.6,91,0.0,1006.8,9.0,32.0,33,8.0,6.4,3,5,4,1,2026-03-20T04:02:28.014683+05:30
Kurnool,Andhra Pradesh,15.8281,78.0373,23.9,74,0.0,977.3,8.85,18.7,60,22.4,19.4,3,5,7,1,2026-03-20T04:02:28.014691+05:30
Kakinada,Andhra Pradesh,16.9891,82.2475,20.9,91,0.0,1008.9,8.8,27.7,42,18.0,14.9,3,0,4,1,2026-03-20T04:02:28.014697+05:30
Tirupati,Andhra Pradesh,13.6288,79.4192,22.8,90,0.0,992.7,9.15,20.5,49,17.3,15.7,3,5,7,1,2026-03-20T04:02:28.014704+05:30
Warangal,Telangana,17.9689,79.5941,21.8,89,0.0,979.1,8.65,25.6,109,17.5,16.5,3,5,7,1,2026-03-20T04:02:28.014711+05:30
Nizamabad,Telangana,18.6725,78.0941,21.3,78,0.0,965.4,8.55,25.2,95,39.6,35.0,3,5,7,1,2026-03-20T04:02:28.014717+05:30
Mysore,Karnataka,12.2958,76.6396,21.3,88,0.0,927.9,9.4,36.0,82,27.5,25.8,3,5,7,1,2026-03-20T04:02:28.014723+05:30
Mangalore,Karnataka,12.9141,74.856,28.5,77,0.0,1006.6,9.05,27.0,70,29.8,25.5,7,5,4,1,2026-03-20T04:02:28.014730+05:30
Hubli-Dharwad,Karnataka,15.3647,75.124,19.8,95,0.0,940.1,9.0,40.7,80,27.6,22.2,3,10,7,1,2026-03-20T04:02:28.014737+05:30
Belgaum,Karnataka,15.8497,74.4977,18.6,95,0.0,924.7,9.1,44.3,78,33.8,28.2,3,10,7,1,2026-03-20T04:02:31.238163+05:30
Coimbatore,Tamil Nadu,11.0168,76.9558,22.4,89,0.0,961.9,9.35,36.7,62,21.8,21.0,3,5,7,1,2026-03-20T04:02:31.238190+05:30
Madurai,Tamil Nadu,9.9252,78.1198,23.3,85,0.0,993.7,9.3,24.8,57,12.7,12.1,3,5,7,1,2026-03-20T04:02:31.238202+05:30
Trichy,Tamil Nadu,10.7905,78.7047,22.8,86,0.0,1001.3,9.25,20.2,58,17.4,15.8,3,5,4,1,2026-03-20T04:02:31.238212+05:30
Salem,Tamil Nadu,11.6643,78.146,22.5,89,0.0,978.6,9.3,20.9,77,25.4,21.3,3,5,7,1,2026-03-20T04:02:31.238221+05:30
Tirunelveli,Tamil Nadu,8.7139,77.7567,24.0,92,0.0,1003.3,9.25,41.4,59,27.0,25.8,3,5,4,1,2026-03-20T04:02:31.238229+05:30
Vellore,Tamil Nadu,12.9165,79.1325,22.8,91,0.0,985.7,9.2,24.1,61,26.4,24.7,3,5,7,1,2026-03-20T04:02:31.238237+05:30
Erode,Tamil Nadu,11.341,77.7172,22.8,80,0.0,990.4,9.3,26.6,71,26.4,21.8,3,5,7,1,2026-03-20T04:02:31.238245+05:30
Kochi,Kerala,9.9312,76.2673,27.9,79,0.0,1008.5,9.15,33.8,59,25.9,24.6,7,0,4,1,2026-03-20T04:02:31.238254+05:30
Thiruvananthapuram,Kerala,8.5241,76.9366,27.9,78,0.0,1007.6,9.15,25.9,45,14.0,11.6,7,5,4,1,2026-03-20T04:02:31.238262+05:30
Kozhikode,Kerala,11.2588,75.7804,27.7,81,0.0,1007.7,9.05,32.4,51,24.7,15.1,7,5,4,1,2026-03-20T04:02:31.238270+05:30
Thrissur,Kerala,10.5276,76.2144,25.6,91,0.0,1006.9,9.15,37.8,56,33.4,30.9,7,5,4,1,2026-03-20T04:02:31.238280+05:30
Kannur,Kerala,11.8745,75.3704,26.8,84,0.0,1007.1,9.05,37.4,56,21.8,17.6,7,5,4,1,2026-03-20T04:02:31.238288+05:30
Patna,Bihar,25.5941,85.1376,23.5,82,0.0,1000.8,7.7,33.1,159,82.2,74.0,3,5,4,1,2026-03-20T04:02:31.238295+05:30
Gaya,Bihar,24.7914,85.0002,22.1,72,0.0,994.2,7.8,20.2,126,46.2,41.7,3,5,7,1,2026-03-20T04:02:31.238303+05:30
Muzaffarpur,Bihar,26.1209,85.3647,21.1,91,0.0,1001.3,7.65,40.3,162,107.3,92.9,3,5,4,1,2026-03-20T04:02:31.238312+05:30
Bhagalpur,Bihar,25.2425,87.0117,22.6,95,0.0,1002.6,7.75,33.8,134,61.0,56.8,3,5,4,1,2026-03-20T04:02:31.238320+05:30
Ranchi,Jharkhand,23.3441,85.3096,20.8,65,0.0,938.0,6.9,35.3,86,40.7,33.9,3,5,7,0,2026-03-20T04:02:31.238329+05:30
Jamshedpur,Jharkhand,22.8046,86.2029,25.3,62,0.0,991.9,7.85,32.0,118,54.8,47.4,7,5,7,1,2026-03-20T04:02:31.238338+05:30
Dhanbad,Jharkhand,23.7957,86.4304,23.7,67,0.0,980.5,8.2,43.6,155,98.7,92.0,3,5,7,1,2026-03-20T04:02:31.238347+05:30
Bokaro,Jharkhand,23.6693,86.1511,22.1,65,0.0,984.7,8.2,40.3,143,97.1,89.6,3,5,7,0,2026-03-20T04:02:31.238356+05:30
Bhubaneswar,Odisha,20.2961,85.8245,24.4,92,0.0,1003.7,8.55,30.6,77,17.1,14.4,3,5,4,1,2026-03-20T04:02:31.238366+05:30
Cuttack,Odisha,20.4625,85.8828,24.1,95,0.0,1005.8,8.6,35.3,77,17.1,14.4,3,5,4,1,2026-03-20T04:02:31.238374+05:30
Rourkela,Odisha,22.2604,84.8536,22.4,80,0.0,986.3,8.2,38.9,114,54.1,46.8,3,5,7,1,2026-03-20T04:02:31.238383+05:30
Raipur,Chhattisgarh,21.2514,81.6296,22.0,73,0.0,975.6,7.3,28.1,146,47.3,43.5,3,5,7,1,2026-03-20T04:02:31.238390+05:30
Bhilai,Chhattisgarh,21.1938,81.3509,21.5,74,0.0,975.9,6.95,27.4,147,45.8,42.7,3,5,7,1,2026-03-20T04:02:31.238396+05:30
Guwahati,Assam,26.1158,91.7086,21.4,90,0.0,1004.8,7.6,26.6,90,42.4,34.9,3,5,4,1,2026-03-20T04:02:31.238403+05:30
Agartala,Tripura,23.8315,91.2868,21.6,93,0.0,1008.0,7.1,29.2,88,32.6,31.5,3,0,4,1,2026-03-20T04:02:31.238410+05:30
Shillong,Meghalaya,25.5788,91.8933,10.7,88,0.0,854.9,6.9,31.7,76,31.1,27.8,3,10,7,0,2026-03-20T04:02:31.238416+05:30
Imphal,Manipur,24.817,93.9368,15.3,86,0.0,924.3,7.75,43.9,86,48.7,41.9,3,10,7,0,2026-03-20T04:02:31.238423+05:30
Aizawl,Mizoram,23.7271,92.7176,15.8,83,0.0,892.6,7.2,40.0,72,29.9,27.0,3,10,7,0,2026-03-20T04:02:31.238429+05:30
Kohima,Nagaland,25.6701,94.1077,12.9,80,0.0,855.0,7.85,64.8,69,31.5,24.3,3,5,7,0,2026-03-20T04:02:31.238436+05:30
Gangtok,Sikkim,27.3314,88.6138,12.2,89,0.0,836.2,7.95,20.5,99,47.8,36.6,3,10,7,0,2026-03-20T04:02:31.238443+05:30
Siliguri,West Bengal,26.7271,88.3953,18.0,85,0.0,996.9,7.65,22.3,145,93.4,68.7,3,10,7,0,2026-03-20T04:02:34.464583+05:30
Durgapur,West Bengal,23.5204,87.3119,23.7,88,0.0,996.1,8.15,47.5,151,76.8,70.8,3,5,7,1,2026-03-20T04:02:34.464604+05:30
Asansol,West Bengal,23.6739,86.9524,24.3,82,0.0,994.6,8.15,46.4,152,68.0,61.7,3,5,7,1,2026-03-20T04:02:34.464613+05:30
Pondicherry,Puducherry,11.9139,79.8145,24.2,92,0.0,1009.8,9.1,25.6,35,6.6,5.1,3,0,4,1,2026-03-20T04:02:34.464620+05:30
Port Blair,Andaman and Nicobar Islands,11.6234,92.7265,27.9,77,0.0,1007.3,9.1,11.9,49,13.8,10.7,7,5,4,1,2026-03-20T04:02:34.464627+05:30
Haridwar,Uttarakhand,29.9457,78.1642,18.8,72,0.0,975.8,2.35,27.7,77,28.1,17.9,3,5,3,0,2026-03-20T04:02:34.464633+05:30
Rishikesh,Uttarakhand,30.0869,78.2676,18.7,67,0.0,968.6,2.45,27.7,65,31.5,15.2,3,5,3,0,2026-03-20T04:02:34.464640+05:30
Nainital,Uttarakhand,29.3919,79.4542,13.8,69,0.0,804.5,1.75,72.4,67,26.5,15.8,3,5,3,0,2026-03-20T04:02:34.464646+05:30
Mussoorie,Uttarakhand,30.4599,78.0664,11.3,74,0.0,800.3,0.6,46.8,65,36.4,14.8,3,5,3,0,2026-03-20T04:02:34.464652+05:30
Dharamshala,Himachal Pradesh,32.219,76.3234,12.1,81,1.0,866.3,1.45,26.3,43,4.1,3.5,6,10,3,0,2026-03-20T04:02:34.464658+05:30
Dalhousie,Himachal Pradesh,32.5387,75.971,8.7,86,0.9,799.1,2.15,24.5,72,13.4,10.6,6,10,3,0,2026-03-20T04:02:34.464665+05:30
Patiala,Punjab,30.3398,76.3869,14.9,100,0.0,979.8,1.1,18.4,101,42.8,21.9,3,10,3,0,2026-03-20T04:02:34.464671+05:30
Bhatinda,Punjab,30.211,74.9455,16.6,99,0.0,985.8,3.95,20.5,91,66.6,52.7,3,10,3,1,2026-03-20T04:02:34.464677+05:30
Rohtak,Haryana,28.8955,76.6066,16.3,99,0.0,983.3,2.1,12.2,145,147.6,57.4,3,10,3,1,2026-03-20T04:02:34.464683+05:30
Panipat,Haryana,29.3909,76.9635,15.2,99,0.0,981.9,1.85,15.5,151,141.1,63.3,3,10,3,0,2026-03-20T04:02:34.464690+05:30
Mathura,Uttar Pradesh,27.4924,77.6737,17.6,92,0.0,988.2,5.75,23.0,140,122.5,56.0,3,10,3,1,2026-03-20T04:02:34.464696+05:30
Vrindavan,Uttar Pradesh,27.5823,77.7027,17.4,91,0.0,988.6,5.65,22.3,140,122.5,56.0,3,10,3,0,2026-03-20T04:02:34.464701+05:30
Ayodhya,Uttar Pradesh,26.7922,82.1998,20.5,65,0.0,996.3,6.55,32.8,123,77.1,56.9,3,5,7,0,2026-03-20T04:02:34.464707+05:30
Ratlam,Madhya Pradesh,23.3315,75.0367,20.7,78,0.0,954.8,7.75,37.8,52,52.7,20.1,3,5,7,1,2026-03-20T04:02:34.464714+05:30
Sagar,Madhya Pradesh,23.8388,78.7378,20.9,64,0.0,949.8,6.9,29.9,56,32.8,18.8,3,5,7,0,2026-03-20T04:02:34.464719+05:30
Satna,Madhya Pradesh,24.6005,80.8322,25.4,36,0.0,971.3,6.05,49.0,70,27.8,21.9,4,5,7,0,2026-03-20T04:02:34.464726+05:30
Akola,Maharashtra,20.7002,77.0082,22.2,76,0.0,975.9,8.2,24.1,88,28.6,17.9,3,5,7,1,2026-03-20T04:02:34.464732+05:30
Amravati,Maharashtra,20.9374,77.7796,22.2,74,0.0,968.2,8.0,21.2,94,26.3,17.3,3,5,7,1,2026-03-20T04:02:34.464739+05:30
Latur,Maharashtra,18.4088,76.5604,20.6,70,0.0,939.0,8.6,29.2,78,46.9,30.9,3,5,7,0,2026-03-20T04:02:34.464773+05:30
Nanded,Maharashtra,19.1383,77.3091,22.1,75,0.0,969.0,8.4,26.6,84,27.3,20.2,3,5,7,1,2026-03-20T04:02:34.464781+05:30
Gulbarga,Karnataka,17.3297,76.8343,22.8,63,0.0,958.6,8.7,24.5,74,38.1,24.1,3,5,7,0,2026-03-20T04:02:34.464787+05:30
Bidar,Karnataka,17.9104,77.5199,21.7,66,0.0,935.0,8.65,24.5,79,31.3,23.1,3,5,7,0,2026-03-20T04:02:34.464793+05:30
Hospet,Karnataka,15.2689,76.3909,24.2,75,0.0,955.9,8.95,21.2,75,28.2,21.6,3,5,7,1,2026-03-20T04:02:34.464799+05:30
Tirupur,Tamil Nadu,11.1085,77.3411,23.3,84,0.0,976.1,9.4,28.1,70,31.3,24.6,3,5,7,1,2026-03-20T04:02:34.464805+05:30
Alappuzha,Kerala,9.4981,76.3388,28.0,81,0.0,1008.5,9.15,30.6,58,23.1,20.5,7,0,4,1,2026-03-20T04:02:34.464811+05:30
Munnar,Kerala,10.0889,77.0595,17.6,89,0.0,855.2,9.65,38.9,48,16.6,15.4,3,10,7,0,2026-03-20T04:02:34.464818+05:30
Silchar,Assam,24.8333,92.7789,21.9,80,0.0,1006.6,7.3,23.4,98,44.2,40.7,3,5,4,1,2026-03-20T04:02:34.464825+05:30
Dibrugarh,Assam,27.4728,94.912,19.2,93,0.0,999.8,6.2,13.3,85,32.0,27.4,3,10,7,1,2026-03-20T04:02:34.464833+05:30
