city,state,latitude,longitude,temp,humidity,rain,pressure,uv_index,wind_gusts,aqi,pm10,pm2_5,no2,co,o3,so2,mosquito_risk,arthritis_risk,migraine_risk,frizz_risk,updated_at
Delhi,Delhi,28.6139,77.209,29.1,45,0.0,978.0,7.7,38.9,255,416.3,123.9,32.5,927.0,46.0,18.4,4,5,7,1,2026-05-16T04:27:09.650840+05:30
Mumbai,Maharashtra,19.076,72.8777,29.2,73,0.0,1004.2,7.9,49.0,61,20.8,12.3,3.0,149.0,43.0,2.3,7,5,4,1,2026-05-16T04:27:09.650880+05:30
Bangalore,Karnataka,12.9716,77.5946,24.5,69,0.0,907.3,8.3,33.8,113,52.6,41.1,33.8,468.0,34.0,11.2,3,5,7,1,2026-05-16T04:27:09.650893+05:30
Hyderabad,Telangana,17.385,78.4867,30.2,50,0.0,948.1,9.25,27.7,131,52.2,39.0,16.0,322.0,68.0,7.0,0,5,7,1,2026-05-16T04:27:09.650901+05:30
Chennai,Tamil Nadu,13.0827,80.2707,26.4,96,0.0,1001.7,9.0,32.8,37,17.3,14.4,19.9,377.0,40.0,17.8,7,5,4,1,2026-05-16T04:27:09.650908+05:30
Kolkata,West Bengal,22.5726,88.3639,28.2,89,0.0,1001.4,9.0,34.9,53,14.1,10.0,6.4,174.0,38.0,4.0,7,5,4,1,2026-05-16T04:27:09.650915+05:30
Pune,Maharashtra,18.5204,73.8567,23.5,89,0.0,943.7,8.5,38.2,69,24.7,19.6,23.8,237.0,36.0,25.6,3,5,7,1,2026-05-16T04:27:09.650920+05:30
Ahmedabad,Gujarat,23.0225,72.5714,29.1,65,0.0,997.7,8.15,32.0,50,25.9,13.4,4.2,135.0,43.0,2.7,7,5,7,1,2026-05-16T04:27:09.650925+05:30
Jaipur,Rajasthan,26.9124,75.7873,28.4,36,0.0,955.1,8.25,29.5,135,123.9,43.3,16.3,348.0,38.0,6.2,4,5,7,0,2026-05-16T04:27:09.650934+05:30
Lucknow,Uttar Pradesh,26.8467,80.9462,27.0,79,0.0,987.8,8.2,30.6,145,190.9,72.9,39.3,578.0,34.0,16.7,7,5,7,1,2026-05-16T04:27:09.650939+05:30
Kanpur,Uttar Pradesh,26.4499,80.3319,28.1,61,0.0,986.1,8.2,31.3,152,234.7,77.1,28.9,538.0,43.0,14.9,7,5,7,1,2026-05-16T04:27:09.650944+05:30
Chandigarh,Chandigarh,30.7333,76.7794,24.4,45,0.0,962.6,7.7,41.0,84,33.2,27.1,24.4,288.0,32.0,5.2,0,5,7,0,2026-05-16T04:27:09.650951+05:30
Srinagar,Jammu and Kashmir,34.0837,74.7973,9.9,100,0.0,838.0,8.85,22.0,74,39.6,35.6,24.2,453.0,15.0,0.8,3,10,7,0,2026-05-16T04:27:09.650958+05:30
Jammu,Jammu and Kashmir,32.7266,74.857,20.1,74,0.0,966.4,8.5,26.3,83,32.0,29.2,30.9,262.0,10.0,1.3,3,5,7,0,2026-05-16T04:27:09.650964+05:30
Amritsar,Punjab,31.634,74.8723,24.5,62,0.0,975.5,8.35,22.7,136,58.8,50.4,19.9,447.0,64.0,9.8,3,5,7,1,2026-05-16T04:27:09.650969+05:30
Ludhiana,Punjab,30.901,75.8573,24.9,62,0.0,973.3,8.0,42.5,115,47.7,41.3,12.5,460.0,74.0,7.8,3,5,7,1,2026-05-16T04:27:09.650974+05:30
Jalandhar,Punjab,31.326,75.5762,24.1,64,0.0,974.2,8.15,30.2,137,83.6,59.6,16.0,461.0,64.0,8.3,3,5,7,1,2026-05-16T04:27:09.650982+05:30
Dehradun,Uttarakhand,30.6284,78.0322,9.7,94,0.0,822.4,8.1,40.3,55,11.8,8.7,19.3,196.0,25.0,0.0,3,10,7,0,2026-05-16T04:27:09.650988+05:30
Shimla,Himachal Pradesh,31.1048,77.1734,9.8,64,0.0,777.3,8.2,48.2,64,32.0,23.1,24.5,177.0,28.0,0.1,3,5,7,0,2026-05-16T04:27:09.650995+05:30
Manali,Himachal Pradesh,32.2396,77.1887,8.0,60,0.0,810.7,9.75,37.8,44,3.7,2.8,11.7,189.0,110.0,0.0,0,5,7,0,2026-05-16T04:27:09.651002+05:30
Gurgaon,Haryana,28.4595,77.0266,26.5,54,0.0,976.3,7.8,37.4,507,514.1,137.4,40.7,980.0,39.0,30.3,4,5,7,1,2026-05-16T04:27:09.651007+05:30
Noida,Uttar Pradesh,28.5355,77.391,27.5,53,0.0,979.3,7.7,29.5,507,514.1,137.4,40.7,898.0,39.0,30.3,4,5,7,1,2026-05-16T04:27:09.651012+05:30
Ghaziabad,Uttar Pradesh,28.6692,77.4538,25.1,62,0.0,977.4,7.7,36.4,172,258.9,86.8,23.3,882.0,55.0,15.6,7,5,7,1,2026-05-16T04:27:09.651018+05:30
Faridabad,Haryana,28.4089,77.3178,28.4,47,0.0,978.6,7.75,40.0,507,514.1,137.4,40.7,786.0,39.0,30.3,4,5,7,0,2026-05-16T04:27:09.651022+05:30
Meerut,Uttar Pradesh,28.9845,77.7064,26.1,47,0.0,976.1,7.6,37.4,172,258.9,86.8,23.3,537.0,55.0,15.6,4,5,7,0,2026-05-16T04:27:09.651028+05:30
Agra,Uttar Pradesh,27.1767,78.0081,27.8,50,0.0,982.3,8.05,29.2,528,412.6,108.5,15.3,421.0,61.0,13.9,4,5,7,1,2026-05-16T04:27:09.651033+05:30
Varanasi,Uttar Pradesh,25.3176,82.9739,28.1,62,0.0,991.9,8.7,37.1,139,143.9,85.0,53.9,1115.0,29.0,19.1,7,5,7,1,2026-05-16T04:27:09.651038+05:30
Prayagraj,Uttar Pradesh,25.4358,81.8463,28.4,65,0.0,990.4,8.6,32.0,135,109.9,72.9,55.7,592.0,16.0,15.8,7,5,7,1,2026-05-16T04:27:09.651043+05:30
Gorakhpur,Uttar Pradesh,26.7606,83.3732,25.6,80,0.0,991.9,8.55,28.8,153,85.9,73.1,44.1,705.0,27.0,12.5,7,5,7,1,2026-05-16T04:27:09.651050+05:30
Bareilly,Uttar Pradesh,28.367,79.4304,23.7,78,0.0,981.1,8.0,29.2,152,104.8,72.9,34.4,531.0,38.0,13.9,3,5,7,1,2026-05-16T04:27:09.651054+05:30
Aligarh,Uttar Pradesh,27.8974,78.088,25.2,65,0.0,980.0,7.85,28.8,318,236.1,108.5,33.6,526.0,44.0,18.5,7,5,7,1,2026-05-16T04:27:09.651059+05:30
Moradabad,Uttar Pradesh,28.8386,78.7733,24.9,59,0.0,978.1,7.8,36.7,160,89.2,61.5,30.3,563.0,36.0,10.7,0,5,7,1,2026-05-16T04:27:09.651064+05:30
Saharanpur,Uttar Pradesh,29.9637,77.546,23.4,62,0.0,969.5,7.35,37.4,150,72.2,58.4,46.8,518.0,16.0,10.8,3,5,7,0,2026-05-16T04:27:09.651069+05:30
Jhansi,Uttar Pradesh,25.4484,78.5685,28.7,49,0.0,972.4,8.5,33.5,121,243.1,63.6,7.1,394.0,62.0,6.0,4,5,7,1,2026-05-16T04:27:13.011697+05:30
Surat,Gujarat,21.1702,72.8311,29.8,72,0.0,1002.1,7.75,37.1,77,25.8,18.9,27.2,341.0,20.0,42.3,7,5,4,1,2026-05-16T04:27:13.011730+05:30
Vadodara,Gujarat,22.3072,73.1812,28.8,83,0.0,999.9,8.1,33.5,55,19.9,14.6,17.9,210.0,23.0,17.9,7,5,7,1,2026-05-16T04:27:13.011739+05:30
Rajkot,Gujarat,22.3039,70.8022,26.7,80,0.0,990.3,7.75,42.5,50,19.6,9.8,6.3,117.0,39.0,7.0,7,5,7,1,2026-05-16T04:27:13.011746+05:30
Thane,Maharashtra,19.2183,72.9781,28.4,81,0.0,1003.7,7.9,43.6,61,20.8,12.3,3.0,137.0,43.0,2.3,7,5,4,1,2026-05-16T04:27:13.011753+05:30
Nagpur,Maharashtra,21.1458,79.0882,31.7,29,0.0,967.0,8.95,38.2,91,34.6,23.1,16.7,279.0,54.0,7.1,0,5,7,0,2026-05-16T04:27:13.011759+05:30
Nashik,Maharashtra,19.9975,73.7898,23.8,88,0.0,941.7,8.2,37.1,50,13.0,9.0,4.4,133.0,40.0,0.8,3,5,7,1,2026-05-16T04:27:13.011765+05:30
Aurangabad,Maharashtra,19.8762,75.3433,27.9,39,0.0,939.2,9.1,36.4,58,13.3,10.6,11.3,162.0,52.0,4.1,4,5,7,0,2026-05-16T04:27:13.011771+05:30
Solapur,Maharashtra,17.6599,75.9064,28.5,49,0.0,951.9,8.6,31.7,98,37.5,31.0,25.5,170.0,37.0,6.4,4,5,7,1,2026-05-16T04:27:13.011777+05:30
Kolhapur,Maharashtra,16.705,74.2433,23.6,85,0.0,942.9,8.55,49.3,67,20.5,16.6,11.7,219.0,45.0,4.4,3,5,7,1,2026-05-16T04:27:13.011784+05:30
Goa,Goa,15.2993,74.124,27.8,85,0.0,993.1,8.9,39.2,71,39.8,32.5,11.2,226.0,47.0,2.1,7,5,7,1,2026-05-16T04:27:13.011790+05:30
Jodhpur,Rajasthan,26.2389,73.0243,30.6,34,0.0,977.9,8.45,32.8,134,90.8,22.8,6.4,158.0,43.0,1.9,0,5,7,0,2026-05-16T04:27:13.011796+05:30
Udaipur,Rajasthan,24.5854,73.7125,27.5,41,0.0,942.3,8.85,31.0,47,28.6,13.9,3.1,143.0,65.0,2.8,4,5,7,0,2026-05-16T04:27:13.011802+05:30
Kota,Rajasthan,25.2138,75.8648,30.9,25,0.0,973.7,8.45,34.2,83,37.3,13.7,3.5,156.0,65.0,3.4,0,5,7,0,2026-05-16T04:27:13.011807+05:30
Bikaner,Rajasthan,28.0229,73.3119,28.9,38,0.0,976.9,8.4,27.7,114,281.3,69.8,5.0,278.0,56.0,1.8,4,5,7,0,2026-05-16T04:27:13.011813+05:30
Ajmer,Rajasthan,26.4499,74.6399,28.2,34,0.0,950.0,8.4,32.4,78,101.5,25.0,4.1,170.0,62.0,3.5,4,5,7,0,2026-05-16T04:27:13.011819+05:30
Gwalior,Madhya Pradesh,26.2183,78.1828,28.5,47,0.0,977.9,8.25,37.4,156,301.7,78.9,8.1,315.0,66.0,7.9,4,5,7,1,2026-05-16T04:27:13.011825+05:30
Indore,Madhya Pradesh,22.7196,75.8577,28.4,35,0.0,944.2,8.7,36.4,55,19.6,12.3,3.9,193.0,100.0,6.9,4,5,7,0,2026-05-16T04:27:13.011830+05:30
Bhopal,Madhya Pradesh,23.2599,77.4126,30.9,25,0.0,949.2,8.75,37.4,66,20.0,14.8,4.7,192.0,68.0,4.4,0,5,7,0,2026-05-16T04:27:13.011837+05:30
Jabalpur,Madhya Pradesh,23.1815,79.9864,29.0,45,0.0,956.0,8.9,34.2,102,53.9,31.1,13.1,311.0,63.0,7.8,4,5,7,0,2026-05-16T04:27:13.011844+05:30
Ujjain,Madhya Pradesh,23.1765,75.7885,28.6,30,0.0,949.7,8.65,42.8,54,22.7,13.9,4.3,192.0,85.0,6.3,4,5,7,0,2026-05-16T04:27:13.011850+05:30
Visakhapatnam,Andhra Pradesh,17.6868,83.2185,28.4,88,0.0,999.3,9.2,40.0,75,21.0,17.5,23.2,471.0,22.0,47.7,7,5,7,1,2026-05-16T04:27:13.011855+05:30
Vijayawada,Andhra Pradesh,16.5062,80.648,29.1,85,0.0,997.5,9.0,32.0,65,13.2,10.8,8.5,189.0,25.0,4.3,7,5,7,1,2026-05-16T04:27:13.011861+05:30
Guntur,Andhra Pradesh,16.3067,80.4365,29.1,84,0.0,998.6,8.85,33.8,67,12.2,9.5,6.8,145.0,28.0,3.2,7,5,7,1,2026-05-16T04:27:13.011867+05:30
Nellore,Andhra Pradesh,14.4426,79.9865,28.2,87,0.0,1000.2,8.75,37.1,36,9.4,7.6,12.0,153.0,25.0,10.0,7,5,4,1,2026-05-16T04:27:13.011873+05:30
Kurnool,Andhra Pradesh,15.8281,78.0373,31.3,51,0.0,970.9,6.3,33.5,118,36.1,25.5,9.3,178.0,58.0,4.7,0,5,7,1,2026-05-16T04:27:13.011880+05:30
Kakinada,Andhra Pradesh,16.9891,82.2475,29.0,86,0.0,1002.8,9.15,38.9,34,10.0,5.9,1.7,146.0,47.0,1.0,7,5,4,1,2026-05-16T04:27:13.011885+05:30
Tirupati,Andhra Pradesh,13.6288,79.4192,26.7,91,0.0,985.8,8.45,25.2,58,21.2,18.7,29.8,242.0,13.0,18.8,7,5,7,1,2026-05-16T04:27:13.011891+05:30
Warangal,Telangana,17.9689,79.5941,28.4,79,0.0,973.6,8.4,42.5,111,23.3,19.1,11.2,224.0,45.0,11.4,7,5,7,1,2026-05-16T04:27:13.011897+05:30
Nizamabad,Telangana,18.6725,78.0941,28.8,50,0.0,959.2,8.4,33.1,133,83.4,63.1,42.8,552.0,20.0,6.5,4,5,7,1,2026-05-16T04:27:13.011902+05:30
Mysore,Karnataka,12.2958,76.6396,23.6,83,0.0,923.3,7.0,42.5,89,39.5,30.2,10.2,280.0,81.0,3.1,3,5,7,1,2026-05-16T04:27:13.011907+05:30
Mangalore,Karnataka,12.9141,74.856,25.7,98,0.2,1002.4,8.4,45.7,72,26.1,19.6,8.5,178.0,50.0,2.6,10,5,4,1,2026-05-16T04:27:13.011913+05:30
Hubli-Dharwad,Karnataka,15.3647,75.124,23.9,95,0.0,935.8,9.1,41.0,75,16.9,13.9,8.0,279.0,46.0,1.8,3,5,7,1,2026-05-16T04:27:13.011918+05:30
Belgaum,Karnataka,15.8497,74.4977,23.2,83,0.0,920.8,9.2,43.6,65,28.9,24.7,19.2,241.0,31.0,2.9,3,5,7,1,2026-05-16T04:27:16.377360+05:30
Coimbatore,Tamil Nadu,11.0168,76.9558,24.8,92,0.0,956.6,8.0,37.4,72,25.7,17.2,11.2,255.0,55.0,4.0,3,5,7,1,2026-05-16T04:27:16.377390+05:30
Madurai,Tamil Nadu,9.9252,78.1198,26.4,86,0.0,988.0,9.05,43.6,85,46.0,39.2,48.0,440.0,0.0,6.3,7,5,7,1,2026-05-16T04:27:16.377402+05:30
Trichy,Tamil Nadu,10.7905,78.7047,25.6,91,0.0,994.5,9.1,31.3,80,37.0,28.9,26.3,407.0,34.0,6.5,7,5,7,1,2026-05-16T04:27:16.377410+05:30
Salem,Tamil Nadu,11.6643,78.146,25.7,91,0.0,972.1,8.95,22.7,113,31.9,27.0,19.3,444.0,62.0,10.7,7,5,7,1,2026-05-16T04:27:16.377416+05:30
Tirunelveli,Tamil Nadu,8.7139,77.7567,26.4,87,0.0,998.4,8.9,23.8,48,14.6,11.9,6.9,243.0,56.0,3.3,7,5,7,1,2026-05-16T04:27:16.377423+05:30
Vellore,Tamil Nadu,12.9165,79.1325,26.5,89,0.0,979.2,8.35,33.1,93,53.4,50.6,19.2,299.0,34.0,14.3,7,5,7,1,2026-05-16T04:27:16.377429+05:30
Erode,Tamil Nadu,11.341,77.7172,25.8,90,0.0,984.0,8.8,36.4,95,36.8,28.1,30.5,238.0,38.0,4.7,7,5,7,1,2026-05-16T04:27:16.377435+05:30
Kochi,Kerala,9.9312,76.2673,25.6,94,0.1,1004.2,7.7,31.7,62,22.2,20.4,22.2,308.0,26.0,6.8,10,5,4,1,2026-05-16T04:27:16.377441+05:30
Thiruvananthapuram,Kerala,8.5241,76.9366,24.5,99,0.0,1004.1,8.75,33.5,50,24.2,14.1,3.5,252.0,87.0,2.1,3,5,4,1,2026-05-16T04:27:16.377448+05:30
Kozhikode,Kerala,11.2588,75.7804,25.3,96,0.0,1003.0,8.35,37.1,69,37.5,24.2,4.1,352.0,76.0,2.3,7,5,4,1,2026-05-16T04:27:16.377454+05:30
Thrissur,Kerala,10.5276,76.2144,25.6,93,0.0,1002.2,7.5,29.2,60,16.4,14.9,14.8,231.0,36.0,4.8,7,5,4,1,2026-05-16T04:27:16.377460+05:30
Kannur,Kerala,11.8745,75.3704,24.9,99,0.1,1002.9,8.25,37.4,73,31.8,25.1,12.2,188.0,43.0,2.9,6,5,4,1,2026-05-16T04:27:16.377466+05:30
Patna,Bihar,25.5941,85.1376,27.1,82,0.0,995.5,8.8,28.1,125,57.5,53.4,22.6,564.0,59.0,17.3,7,5,7,1,2026-05-16T04:27:16.377472+05:30
Gaya,Bihar,24.7914,85.0002,26.0,70,0.0,988.6,8.85,31.7,142,88.5,69.4,37.7,731.0,37.0,14.4,7,5,7,1,2026-05-16T04:27:16.377478+05:30
Muzaffarpur,Bihar,26.1209,85.3647,25.8,85,0.0,995.9,8.8,33.8,145,59.8,56.1,21.9,738.0,62.0,17.2,7,5,7,1,2026-05-16T04:27:16.377484+05:30
Bhagalpur,Bihar,25.2425,87.0117,26.1,91,0.0,996.8,8.8,32.0,101,49.1,45.4,18.5,426.0,62.0,17.3,7,5,7,1,2026-05-16T04:27:16.377489+05:30
Ranchi,Jharkhand,23.3441,85.3096,23.4,74,0.0,933.2,9.3,34.2,127,75.9,60.1,12.8,450.0,93.0,17.7,3,5,7,1,2026-05-16T04:27:16.377494+05:30
Jamshedpur,Jharkhand,22.8046,86.2029,26.1,82,0.0,986.3,9.1,26.6,97,44.8,36.0,19.9,395.0,65.0,23.6,7,5,7,1,2026-05-16T04:27:16.377499+05:30
Dhanbad,Jharkhand,23.7957,86.4304,25.7,76,0.0,974.8,9.05,25.2,142,84.3,70.5,47.5,2931.0,51.0,105.8,7,5,7,1,2026-05-16T04:27:16.377504+05:30
Bokaro,Jharkhand,23.6693,86.1511,26.4,70,0.0,978.6,9.1,29.2,150,99.0,82.7,40.6,1283.0,44.0,65.3,7,5,7,1,2026-05-16T04:27:16.377509+05:30
Bhubaneswar,Odisha,20.2961,85.8245,28.7,85,0.0,998.3,9.15,43.6,40,10.4,8.0,5.2,141.0,35.0,2.3,7,5,7,1,2026-05-16T04:27:16.377514+05:30
Cuttack,Odisha,20.4625,85.8828,28.8,86,0.0,1000.1,9.15,43.6,40,10.4,8.0,5.2,152.0,35.0,2.3,7,5,4,1,2026-05-16T04:27:16.377519+05:30
Rourkela,Odisha,22.2604,84.8536,26.9,78,0.0,980.4,8.85,35.6,133,50.1,38.0,18.0,200.0,59.0,18.7,7,5,7,1,2026-05-16T04:27:16.377525+05:30
Raipur,Chhattisgarh,21.2514,81.6296,30.1,55,0.0,969.2,9.05,38.2,152,84.8,72.6,44.5,445.0,23.0,30.1,0,5,7,1,2026-05-16T04:27:16.377530+05:30
Bhilai,Chhattisgarh,21.1938,81.3509,29.8,60,0.0,969.6,9.05,43.6,147,100.8,85.7,62.9,414.0,9.0,50.9,4,5,7,1,2026-05-16T04:27:16.377535+05:30
Guwahati,Assam,26.1158,91.7086,22.5,98,0.0,998.6,7.75,27.0,56,11.2,8.7,4.8,316.0,86.0,2.0,3,5,7,1,2026-05-16T04:27:16.377540+05:30
Agartala,Tripura,23.8315,91.2868,25.0,96,0.0,1002.9,6.4,33.1,52,12.3,10.5,15.1,167.0,13.0,1.9,7,5,4,1,2026-05-16T04:27:16.377545+05:30
Shillong,Meghalaya,25.5788,91.8933,18.2,94,0.0,853.9,4.55,36.7,43,7.6,4.7,4.0,204.0,84.0,2.4,3,10,3,1,2026-05-16T04:27:16.377550+05:30
Imphal,Manipur,24.817,93.9368,19.7,87,0.0,920.6,8.75,27.0,56,17.1,14.7,12.6,416.0,35.0,2.3,3,10,7,1,2026-05-16T04:27:16.377555+05:30
Aizawl,Mizoram,23.7271,92.7176,16.3,98,0.0,888.5,8.9,34.6,36,13.6,9.5,8.0,139.0,31.0,2.1,3,10,7,1,2026-05-16T04:27:16.377560+05:30
Kohima,Nagaland,25.6701,94.1077,15.1,92,0.0,851.0,9.25,28.1,35,4.9,3.1,3.0,262.0,73.0,1.6,3,10,7,0,2026-05-16T04:27:16.377566+05:30
Gangtok,Sikkim,27.3314,88.6138,13.6,96,0.1,832.8,9.1,38.2,59,11.0,9.0,5.6,457.0,121.0,3.0,6,10,7,0,2026-05-16T04:27:16.377571+05:30
Siliguri,West Bengal,26.7271,88.3953,21.7,99,0.0,990.4,8.4,24.8,95,27.0,21.7,8.5,360.0,113.0,3.1,3,5,7,1,2026-05-16T04:27:19.750456+05:30
Durgapur,West Bengal,23.5204,87.3119,27.0,95,0.0,990.1,9.05,34.2,116,41.8,37.1,34.8,593.0,24.0,42.9,7,5,7,1,2026-05-16T04:27:19.750487+05:30
Asansol,West Bengal,23.6739,86.9524,26.4,97,0.0,988.7,9.05,35.3,117,61.7,52.9,40.3,348.0,41.0,62.6,7,5,7,1,2026-05-16T04:27:19.750497+05:30
Pondicherry,Puducherry,11.9139,79.8145,25.9,96,0.0,1003.2,8.55,40.3,75,45.4,35.5,17.7,589.0,58.0,23.6,7,5,4,1,2026-05-16T04:27:19.750505+05:30
Port Blair,Andaman and Nicobar Islands,11.6234,92.7265,24.6,97,0.2,1005.0,6.25,45.7,34,5.4,3.4,0.2,135.0,69.0,0.2,6,5,4,1,2026-05-16T04:27:19.750512+05:30
Haridwar,Uttarakhand,29.9457,78.1642,21.0,74,0.0,967.8,7.5,32.8,112,51.0,43.4,39.8,289.0,7.0,4.2,3,5,7,1,2026-05-16T04:27:19.750519+05:30
Rishikesh,Uttarakhand,30.0869,78.2676,19.1,80,0.0,960.3,7.6,32.0,89,51.6,33.6,21.4,307.0,52.0,3.7,3,5,7,0,2026-05-16T04:27:19.750525+05:30
Nainital,Uttarakhand,29.3919,79.4542,13.0,67,0.0,800.2,8.45,37.4,108,56.6,38.3,24.7,266.0,52.0,4.2,3,5,7,0,2026-05-16T04:27:19.750530+05:30
Mussoorie,Uttarakhand,30.4599,78.0664,14.6,53,0.0,798.2,8.0,51.8,86,38.0,28.8,40.1,186.0,13.0,3.5,0,5,7,0,2026-05-16T04:27:19.750536+05:30
Dharamshala,Himachal Pradesh,32.219,76.3234,18.9,52,0.0,864.0,8.35,41.4,50,8.7,6.9,11.8,195.0,37.0,0.1,0,5,7,0,2026-05-16T04:27:19.750542+05:30
Dalhousie,Himachal Pradesh,32.5387,75.971,8.9,86,0.0,796.0,8.6,42.1,66,24.0,20.0,32.5,254.0,7.0,0.6,3,10,7,0,2026-05-16T04:27:19.750548+05:30
Patiala,Punjab,30.3398,76.3869,25.2,58,0.0,972.7,7.6,40.7,320,491.7,83.6,10.6,453.0,73.0,8.1,4,5,7,1,2026-05-16T04:27:19.750555+05:30
Bhatinda,Punjab,30.211,74.9455,26.1,59,0.0,978.4,8.25,31.7,128,75.2,47.4,11.4,486.0,65.0,6.1,4,5,7,1,2026-05-16T04:27:19.750561+05:30
Rohtak,Haryana,28.8955,76.6066,25.7,56,0.0,976.4,7.75,36.7,491,614.7,157.4,29.6,580.0,46.0,11.7,4,5,7,1,2026-05-16T04:27:19.750567+05:30
Panipat,Haryana,29.3909,76.9635,25.6,54,0.0,974.9,7.55,34.9,1116,888.5,177.4,15.8,365.0,58.0,8.2,4,5,7,0,2026-05-16T04:27:19.750572+05:30
Mathura,Uttar Pradesh,27.4924,77.6737,26.1,57,0.0,981.6,8.0,29.2,504,285.0,106.6,21.4,478.0,58.0,14.4,4,5,7,1,2026-05-16T04:27:19.750577+05:30
Vrindavan,Uttar Pradesh,27.5823,77.7027,25.6,61,0.0,981.9,8.0,28.4,504,285.0,106.6,21.4,506.0,58.0,14.4,7,5,7,1,2026-05-16T04:27:19.750582+05:30
Ayodhya,Uttar Pradesh,26.7922,82.1998,25.8,86,0.0,989.7,8.35,28.1,151,118.3,87.1,58.1,606.0,11.0,13.4,7,5,7,1,2026-05-16T04:27:19.750588+05:30
Ratlam,Madhya Pradesh,23.3315,75.0367,26.6,49,0.0,950.8,8.55,32.0,52,23.1,14.6,5.6,182.0,71.0,7.4,4,5,7,0,2026-05-16T04:27:19.750593+05:30
Sagar,Madhya Pradesh,23.8388,78.7378,29.9,38,0.0,945.3,8.75,35.6,87,79.4,34.2,20.1,288.0,63.0,6.6,4,5,7,0,2026-05-16T04:27:19.750599+05:30
Satna,Madhya Pradesh,24.6005,80.8322,28.8,50,0.0,966.4,8.8,40.3,103,86.4,42.7,20.1,379.0,61.0,9.9,4,5,7,1,2026-05-16T04:27:19.750618+05:30
Akola,Maharashtra,20.7002,77.0082,31.5,30,0.0,970.1,8.9,43.6,62,17.1,13.7,7.7,179.0,75.0,6.2,0,5,7,0,2026-05-16T04:27:19.750625+05:30
Amravati,Maharashtra,20.9374,77.7796,31.4,29,0.0,961.7,8.9,38.5,66,17.0,13.2,7.4,188.0,75.0,5.1,0,5,7,0,2026-05-16T04:27:19.750632+05:30
Latur,Maharashtra,18.4088,76.5604,27.6,43,0.0,934.9,8.0,34.9,101,35.3,27.8,32.9,303.0,45.0,6.8,4,5,7,0,2026-05-16T04:27:19.750638+05:30
Nanded,Maharashtra,19.1383,77.3091,29.0,40,0.0,963.2,8.05,29.9,104,27.0,22.2,22.1,476.0,44.0,6.3,4,5,7,0,2026-05-16T04:27:19.750643+05:30
Gulbarga,Karnataka,17.3297,76.8343,28.8,51,0.0,953.0,9.0,35.3,123,87.5,56.2,37.3,352.0,37.0,7.9,4,5,7,1,2026-05-16T04:27:19.750649+05:30
Bidar,Karnataka,17.9104,77.5199,27.9,51,0.0,930.3,8.85,33.5,131,95.2,69.2,60.8,349.0,15.0,7.1,4,5,7,1,2026-05-16T04:27:19.750654+05:30
Hospet,Karnataka,15.2689,76.3909,27.3,67,0.0,950.5,8.3,46.8,88,28.3,21.7,13.4,257.0,59.0,2.5,7,5,7,1,2026-05-16T04:27:19.750660+05:30
Tirupur,Tamil Nadu,11.1085,77.3411,25.9,85,0.0,969.9,8.9,40.3,89,37.3,28.1,26.8,216.0,51.0,6.8,7,5,7,1,2026-05-16T04:27:19.750665+05:30
Alappuzha,Kerala,9.4981,76.3388,25.5,98,0.0,1004.0,5.55,31.0,60,30.4,22.4,15.4,199.0,56.0,6.3,7,5,0,1,2026-05-16T04:27:19.750671+05:30
Munnar,Kerala,10.0889,77.0595,17.1,60,0.0,851.8,6.25,28.4,45,12.3,11.5,8.7,206.0,41.0,1.6,0,5,7,0,2026-05-16T04:27:19.750677+05:30
Silchar,Assam,24.8333,92.7789,22.8,96,0.2,1002.2,8.95,29.5,55,14.3,10.9,6.1,212.0,62.0,2.8,6,5,4,1,2026-05-16T04:27:19.750683+05:30
Dibrugarh,Assam,27.4728,94.912,21.9,96,0.0,993.6,7.75,35.3,85,30.0,27.7,25.5,236.0,9.0,1.0,3,5,7,1,2026-05-16T04:27:19.750688+05:30
