city,state,latitude,longitude,temp,humidity,rain,pressure,uv_index,wind_gusts,aqi,pm10,pm2_5,mosquito_risk,arthritis_risk,migraine_risk,frizz_risk,updated_at
Delhi,Delhi,28.6139,77.209,15.5,100,0.0,987.1,6.3,28.1,138,93.4,81.5,3,10,7,0,2026-03-21T03:03:53.519177+05:30
Mumbai,Maharashtra,19.076,72.8777,26.2,79,0.0,1009.6,7.85,28.8,82,56.3,24.3,7,0,4,1,2026-03-21T03:03:53.519214+05:30
Bangalore,Karnataka,12.9716,77.5946,21.6,83,0.0,910.4,9.4,18.7,78,33.6,29.6,3,5,7,1,2026-03-21T03:03:53.519230+05:30
Hyderabad,Telangana,17.385,78.4867,23.1,77,0.0,952.7,8.75,32.4,88,36.8,29.5,3,5,7,1,2026-03-21T03:03:53.519240+05:30
Chennai,Tamil Nadu,13.0827,80.2707,26.1,90,0.0,1007.2,9.15,34.2,37,12.9,9.6,7,5,4,1,2026-03-21T03:03:53.519248+05:30
Kolkata,West Bengal,22.5726,88.3639,22.0,93,0.0,1008.9,3.9,24.8,73,16.6,13.4,3,0,0,1,2026-03-21T03:03:53.519261+05:30
Pune,Maharashtra,18.5204,73.8567,20.5,84,0.0,948.3,8.45,22.0,80,50.9,37.0,3,5,7,1,2026-03-21T03:03:53.519273+05:30
Ahmedabad,Gujarat,23.0225,72.5714,20.4,70,0.0,1004.4,7.5,19.4,81,63.3,35.7,3,5,4,0,2026-03-21T03:03:53.519282+05:30
Jaipur,Rajasthan,26.9124,75.7873,16.6,89,0.0,962.6,6.65,25.6,65,36.9,19.4,3,10,7,0,2026-03-21T03:03:53.519289+05:30
Lucknow,Uttar Pradesh,26.8467,80.9462,19.5,88,0.0,996.9,6.8,27.0,121,71.0,48.0,3,10,7,1,2026-03-21T03:03:53.519297+05:30
Kanpur,Uttar Pradesh,26.4499,80.3319,18.6,93,0.0,995.4,6.15,25.2,134,68.9,44.5,3,10,7,1,2026-03-21T03:03:53.519304+05:30
Chandigarh,Chandigarh,30.7333,76.7794,13.1,100,0.0,972.6,6.35,27.7,95,48.8,40.3,3,10,7,0,2026-03-21T03:03:53.519311+05:30
Srinagar,Jammu and Kashmir,34.0837,74.7973,4.9,92,0.0,838.9,6.6,13.3,73,9.5,9.5,3,10,7,0,2026-03-21T03:03:53.519318+05:30
Jammu,Jammu and Kashmir,32.7266,74.857,13.6,95,0.0,977.0,6.35,22.7,93,49.5,45.2,3,10,7,0,2026-03-21T03:03:53.519325+05:30
Amritsar,Punjab,31.634,74.8723,12.6,98,0.0,985.2,6.15,19.1,98,84.5,70.1,3,10,7,0,2026-03-21T03:03:53.519331+05:30
Ludhiana,Punjab,30.901,75.8573,14.3,100,0.0,983.3,5.5,23.4,106,95.2,74.5,3,10,3,0,2026-03-21T03:03:53.519338+05:30
Jalandhar,Punjab,31.326,75.5762,13.9,99,0.0,984.4,6.3,22.3,84,86.8,72.2,3,10,7,0,2026-03-21T03:03:53.519346+05:30
Dehradun,Uttarakhand,30.6284,78.0322,6.6,84,0.0,826.8,6.2,22.3,45,1.6,1.5,3,10,7,0,2026-03-21T03:03:53.519353+05:30
Shimla,Himachal Pradesh,31.1048,77.1734,3.8,86,0.0,779.1,6.2,28.4,40,3.4,3.3,3,10,7,0,2026-03-21T03:03:53.519359+05:30
Manali,Himachal Pradesh,32.2396,77.1887,5.9,63,0.0,811.9,8.75,29.5,32,7.2,7.2,3,5,7,1,2026-03-21T03:03:53.519366+05:30
Gurgaon,Haryana,28.4595,77.0266,14.4,100,0.0,985.6,6.25,24.1,149,93.1,83.1,3,10,7,0,2026-03-21T03:03:53.519372+05:30
Noida,Uttar Pradesh,28.5355,77.391,15.4,99,0.0,988.7,6.1,27.4,149,93.1,83.1,3,10,7,0,2026-03-21T03:03:53.519378+05:30
Ghaziabad,Uttar Pradesh,28.6692,77.4538,15.2,100,0.0,987.0,6.3,28.4,137,74.3,63.6,3,10,7,0,2026-03-21T03:03:53.519385+05:30
Faridabad,Haryana,28.4089,77.3178,13.8,100,0.0,987.8,6.05,26.3,149,93.1,83.1,3,10,7,0,2026-03-21T03:03:53.519391+05:30
Meerut,Uttar Pradesh,28.9845,77.7064,14.6,100,0.0,985.6,6.25,29.5,137,74.3,63.6,3,10,7,0,2026-03-21T03:03:53.519397+05:30
Agra,Uttar Pradesh,27.1767,78.0081,14.6,97,0.0,992.0,6.8,32.0,156,59.8,49.9,3,10,7,0,2026-03-21T03:03:53.519403+05:30
Varanasi,Uttar Pradesh,25.3176,82.9739,20.2,93,0.0,1000.2,6.9,24.5,97,44.0,36.6,3,5,4,1,2026-03-21T03:03:53.519412+05:30
Prayagraj,Uttar Pradesh,25.4358,81.8463,20.0,93,0.2,999.6,6.85,26.6,91,56.6,40.0,6,5,7,1,2026-03-21T03:03:53.519419+05:30
Gorakhpur,Uttar Pradesh,26.7606,83.3732,18.2,85,0.0,1000.0,5.65,26.3,139,66.8,56.2,3,10,0,0,2026-03-21T03:03:53.519428+05:30
Bareilly,Uttar Pradesh,28.367,79.4304,16.4,99,0.0,990.4,6.6,23.0,89,43.4,31.9,3,10,7,1,2026-03-21T03:03:53.519435+05:30
Aligarh,Uttar Pradesh,27.8974,78.088,14.7,100,0.0,989.7,6.55,28.8,115,69.4,60.3,3,10,7,0,2026-03-21T03:03:53.519441+05:30
Moradabad,Uttar Pradesh,28.8386,78.7733,16.0,99,0.0,987.3,6.45,25.6,102,55.9,45.2,3,10,7,0,2026-03-21T03:03:53.519447+05:30
Saharanpur,Uttar Pradesh,29.9637,77.546,13.6,100,0.0,980.1,5.95,32.8,131,87.3,76.1,3,10,3,0,2026-03-21T03:03:53.519453+05:30
Jhansi,Uttar Pradesh,25.4484,78.5685,17.3,96,0.0,981.6,7.4,28.1,114,41.3,26.7,3,10,7,1,2026-03-21T03:03:56.813861+05:30
Surat,Gujarat,21.1702,72.8311,23.6,93,0.0,1008.6,7.55,27.0,110,62.4,39.8,3,0,4,1,2026-03-21T03:03:56.813894+05:30
Vadodara,Gujarat,22.3072,73.1812,22.1,60,0.0,1006.6,7.55,13.0,85,40.2,24.8,0,5,4,0,2026-03-21T03:03:56.813907+05:30
Rajkot,Gujarat,22.3039,70.8022,21.3,85,0.0,996.3,7.3,18.4,88,103.8,38.0,3,5,7,1,2026-03-21T03:03:56.813917+05:30
Thane,Maharashtra,19.2183,72.9781,23.5,83,0.0,1009.1,7.85,42.5,82,56.3,24.3,3,0,4,1,2026-03-21T03:03:56.813926+05:30
Nagpur,Maharashtra,21.1458,79.0882,21.3,81,0.0,974.8,8.3,23.4,78,62.4,29.7,3,5,7,1,2026-03-21T03:03:56.813935+05:30
Nashik,Maharashtra,19.9975,73.7898,20.3,82,0.0,946.2,8.05,18.7,61,60.1,26.9,3,5,7,1,2026-03-21T03:03:56.813943+05:30
Aurangabad,Maharashtra,19.8762,75.3433,22.3,66,0.0,944.7,8.6,23.0,71,48.3,26.5,3,5,7,0,2026-03-21T03:03:56.813951+05:30
Solapur,Maharashtra,17.6599,75.9064,24.6,49,0.0,956.9,8.75,34.2,86,33.4,26.4,0,5,7,0,2026-03-21T03:03:56.813959+05:30
Kolhapur,Maharashtra,16.705,74.2433,17.1,87,0.0,946.8,8.85,34.6,84,40.4,33.5,3,10,7,0,2026-03-21T03:03:56.813968+05:30
Goa,Goa,15.2993,74.124,24.8,84,0.0,997.3,8.85,34.9,69,53.3,34.3,3,5,7,1,2026-03-21T03:03:56.813976+05:30
Jodhpur,Rajasthan,26.2389,73.0243,21.6,62,0.0,985.5,6.8,17.3,73,65.2,32.0,3,5,7,0,2026-03-21T03:03:56.814008+05:30
Udaipur,Rajasthan,24.5854,73.7125,17.3,64,0.0,948.0,7.4,12.6,58,51.6,18.9,3,5,7,0,2026-03-21T03:03:56.814018+05:30
Kota,Rajasthan,25.2138,75.8648,17.9,85,0.0,982.1,7.35,18.4,60,27.2,18.3,3,10,7,0,2026-03-21T03:03:56.814027+05:30
Bikaner,Rajasthan,28.0229,73.3119,20.9,57,0.0,984.3,6.8,27.0,61,30.0,18.7,0,5,7,0,2026-03-21T03:03:56.814035+05:30
Ajmer,Rajasthan,26.4499,74.6399,19.1,68,0.0,956.7,7.1,22.7,62,39.6,29.6,3,5,7,0,2026-03-21T03:03:56.814043+05:30
Gwalior,Madhya Pradesh,26.2183,78.1828,17.0,95,0.0,987.1,7.1,29.5,106,38.2,29.9,3,10,7,1,2026-03-21T03:03:56.814051+05:30
Indore,Madhya Pradesh,22.7196,75.8577,17.1,82,0.0,949.0,8.0,22.7,71,27.2,19.0,3,10,7,0,2026-03-21T03:03:56.814059+05:30
Bhopal,Madhya Pradesh,23.2599,77.4126,17.1,85,0.0,955.1,7.9,25.2,72,41.2,25.1,3,10,7,0,2026-03-21T03:03:56.814067+05:30
Jabalpur,Madhya Pradesh,23.1815,79.9864,19.3,85,0.0,963.3,8.0,30.2,63,44.5,28.3,3,10,7,1,2026-03-21T03:03:56.814075+05:30
Ujjain,Madhya Pradesh,23.1765,75.7885,17.8,84,0.0,955.1,7.85,19.1,70,32.5,22.3,3,10,7,0,2026-03-21T03:03:56.814083+05:30
Visakhapatnam,Andhra Pradesh,17.6868,83.2185,22.4,89,0.0,1004.6,8.8,34.6,69,37.0,33.1,3,5,4,1,2026-03-21T03:03:56.814092+05:30
Vijayawada,Andhra Pradesh,16.5062,80.648,23.8,93,0.0,1003.3,8.9,31.3,62,14.4,13.0,3,5,4,1,2026-03-21T03:03:56.814100+05:30
Guntur,Andhra Pradesh,16.3067,80.4365,24.3,95,0.0,1004.4,8.9,30.6,60,11.5,10.3,3,5,4,1,2026-03-21T03:03:56.814108+05:30
Nellore,Andhra Pradesh,14.4426,79.9865,25.0,93,0.0,1006.1,9.05,31.7,34,8.0,5.8,7,5,4,1,2026-03-21T03:03:56.814117+05:30
Kurnool,Andhra Pradesh,15.8281,78.0373,25.3,70,0.0,976.2,8.9,23.4,66,35.5,28.8,7,5,7,1,2026-03-21T03:03:56.814126+05:30
Kakinada,Andhra Pradesh,16.9891,82.2475,21.6,96,0.0,1008.4,8.8,27.0,48,15.3,12.6,3,0,4,1,2026-03-21T03:03:56.814134+05:30
Tirupati,Andhra Pradesh,13.6288,79.4192,24.0,91,0.0,991.9,9.15,28.8,62,32.1,30.9,3,5,7,1,2026-03-21T03:03:56.814142+05:30
Warangal,Telangana,17.9689,79.5941,22.7,81,0.0,979.3,8.7,19.1,104,53.9,47.5,3,5,7,1,2026-03-21T03:03:56.814150+05:30
Nizamabad,Telangana,18.6725,78.0941,23.8,76,0.0,964.8,8.6,25.2,96,67.3,51.9,3,5,7,1,2026-03-21T03:03:56.814157+05:30
Mysore,Karnataka,12.2958,76.6396,21.6,88,0.0,927.1,9.4,29.2,82,41.8,36.8,3,5,7,1,2026-03-21T03:03:56.814165+05:30
Mangalore,Karnataka,12.9141,74.856,29.0,76,0.0,1005.7,9.05,28.1,67,27.9,22.2,7,5,4,1,2026-03-21T03:03:56.814174+05:30
Hubli-Dharwad,Karnataka,15.3647,75.124,20.1,82,0.0,939.6,9.05,33.8,71,25.3,20.4,3,5,7,1,2026-03-21T03:03:56.814182+05:30
Belgaum,Karnataka,15.8497,74.4977,19.8,78,0.0,924.3,9.1,39.2,73,48.0,35.0,3,5,7,0,2026-03-21T03:04:00.098556+05:30
Coimbatore,Tamil Nadu,11.0168,76.9558,22.4,90,0.0,961.0,9.4,33.8,71,39.7,35.4,3,5,7,1,2026-03-21T03:04:00.098586+05:30
Madurai,Tamil Nadu,9.9252,78.1198,23.9,89,0.0,992.8,9.35,41.8,66,40.4,37.0,3,5,7,1,2026-03-21T03:04:00.098596+05:30
Trichy,Tamil Nadu,10.7905,78.7047,24.9,94,0.0,999.6,8.45,30.2,64,25.2,24.8,3,5,7,1,2026-03-21T03:04:00.098605+05:30
Salem,Tamil Nadu,11.6643,78.146,24.9,89,0.0,976.9,9.2,21.2,76,34.1,29.3,3,5,7,1,2026-03-21T03:04:00.098614+05:30
Tirunelveli,Tamil Nadu,8.7139,77.7567,23.9,90,0.0,1003.0,9.3,34.2,66,44.7,41.2,3,5,4,1,2026-03-21T03:04:00.098622+05:30
Vellore,Tamil Nadu,12.9165,79.1325,22.9,94,0.0,984.6,9.25,32.8,67,43.3,42.3,3,5,7,1,2026-03-21T03:04:00.098629+05:30
Erode,Tamil Nadu,11.341,77.7172,25.6,83,0.0,988.7,9.3,31.7,67,22.4,18.8,7,5,7,1,2026-03-21T03:04:00.098637+05:30
Kochi,Kerala,9.9312,76.2673,28.6,72,0.0,1007.7,9.15,32.0,74,40.5,38.0,7,5,4,1,2026-03-21T03:04:00.098644+05:30
Thiruvananthapuram,Kerala,8.5241,76.9366,27.8,81,0.0,1007.1,8.05,25.6,71,24.4,19.3,7,5,4,1,2026-03-21T03:04:00.098652+05:30
Kozhikode,Kerala,11.2588,75.7804,28.4,79,0.0,1007.0,9.1,28.4,57,20.0,14.2,7,5,4,1,2026-03-21T03:04:00.098659+05:30
Thrissur,Kerala,10.5276,76.2144,26.4,85,0.0,1006.2,9.1,35.6,72,44.2,41.2,7,5,4,1,2026-03-21T03:04:00.098666+05:30
Kannur,Kerala,11.8745,75.3704,27.5,83,0.0,1006.1,9.1,35.6,61,29.0,25.0,7,5,4,1,2026-03-21T03:04:00.098673+05:30
Patna,Bihar,25.5941,85.1376,21.3,89,0.0,1003.3,3.0,22.3,152,61.9,59.5,3,5,0,1,2026-03-21T03:04:00.098680+05:30
Gaya,Bihar,24.7914,85.0002,21.1,89,0.0,996.0,6.95,30.6,109,66.1,57.5,3,5,7,1,2026-03-21T03:04:00.098687+05:30
Muzaffarpur,Bihar,26.1209,85.3647,20.0,92,0.0,1003.5,2.6,25.2,154,60.5,57.7,3,5,0,1,2026-03-21T03:04:00.098694+05:30
Bhagalpur,Bihar,25.2425,87.0117,20.9,95,0.0,1003.9,3.3,27.4,139,55.8,53.6,3,5,0,1,2026-03-21T03:04:00.098701+05:30
Ranchi,Jharkhand,23.3441,85.3096,18.4,88,0.0,938.8,7.6,39.2,94,41.2,33.8,3,10,7,1,2026-03-21T03:04:00.098708+05:30
Jamshedpur,Jharkhand,22.8046,86.2029,22.3,87,0.0,992.9,7.65,35.3,125,70.1,62.9,3,5,7,1,2026-03-21T03:04:00.098715+05:30
Dhanbad,Jharkhand,23.7957,86.4304,21.7,83,0.0,981.6,6.3,33.5,153,66.8,60.1,3,5,7,1,2026-03-21T03:04:00.098722+05:30
Bokaro,Jharkhand,23.6693,86.1511,21.0,88,0.0,985.9,7.35,37.8,140,66.1,57.6,3,5,7,1,2026-03-21T03:04:00.098730+05:30
Bhubaneswar,Odisha,20.2961,85.8245,23.3,91,0.0,1003.9,8.55,32.8,64,18.5,15.7,3,5,4,1,2026-03-21T03:04:00.098736+05:30
Cuttack,Odisha,20.4625,85.8828,23.4,91,0.0,1006.3,8.6,25.2,64,18.5,15.7,3,5,4,1,2026-03-21T03:04:00.098744+05:30
Rourkela,Odisha,22.2604,84.8536,20.9,86,0.1,987.4,8.2,39.2,120,62.9,53.1,6,5,7,1,2026-03-21T03:04:00.098751+05:30
Raipur,Chhattisgarh,21.2514,81.6296,20.5,83,0.0,975.6,8.35,34.6,108,65.0,52.5,3,5,7,1,2026-03-21T03:04:00.098757+05:30
Bhilai,Chhattisgarh,21.1938,81.3509,20.6,85,0.0,975.9,8.35,33.1,98,61.0,46.4,3,5,7,1,2026-03-21T03:04:00.098764+05:30
Guwahati,Assam,26.1158,91.7086,22.5,90,0.0,1005.3,5.9,21.6,97,45.3,36.7,3,5,0,1,2026-03-21T03:04:00.098771+05:30
Agartala,Tripura,23.8315,91.2868,21.6,98,0.0,1008.9,7.05,24.8,95,47.6,45.1,3,0,4,1,2026-03-21T03:04:00.098778+05:30
Shillong,Meghalaya,25.5788,91.8933,11.3,74,0.0,855.8,5.45,39.6,78,27.6,23.0,3,5,3,0,2026-03-21T03:04:00.098785+05:30
Imphal,Manipur,24.817,93.9368,15.7,66,0.0,924.8,7.6,27.0,89,45.5,37.0,3,5,7,0,2026-03-21T03:04:00.098792+05:30
Aizawl,Mizoram,23.7271,92.7176,14.2,89,0.0,892.5,6.85,31.0,94,57.2,46.9,3,10,7,0,2026-03-21T03:04:00.098799+05:30
Kohima,Nagaland,25.6701,94.1077,13.8,51,0.0,855.6,6.65,57.6,79,39.3,28.8,0,5,7,0,2026-03-21T03:04:00.098806+05:30
Gangtok,Sikkim,27.3314,88.6138,11.8,95,1.0,838.2,4.2,20.2,81,9.9,8.1,6,10,3,0,2026-03-21T03:04:00.098813+05:30
Siliguri,West Bengal,26.7271,88.3953,18.2,86,0.2,998.4,6.65,33.1,146,48.5,42.1,6,10,7,0,2026-03-21T03:04:03.378785+05:30
Durgapur,West Bengal,23.5204,87.3119,22.1,88,0.0,997.5,6.2,22.7,151,54.9,51.7,3,5,7,1,2026-03-21T03:04:03.378813+05:30
Asansol,West Bengal,23.6739,86.9524,22.4,86,0.0,995.9,5.8,26.6,145,56.7,51.9,3,5,3,1,2026-03-21T03:04:03.378824+05:30
Pondicherry,Puducherry,11.9139,79.8145,24.9,98,0.0,1008.5,9.15,30.2,48,11.9,8.6,3,0,4,1,2026-03-21T03:04:03.378834+05:30
Port Blair,Andaman and Nicobar Islands,11.6234,92.7265,28.0,76,0.0,1007.0,9.1,14.0,42,16.4,12.1,7,5,4,1,2026-03-21T03:04:03.378843+05:30
Haridwar,Uttarakhand,29.9457,78.1642,14.0,98,0.0,977.8,6.2,27.7,75,28.3,26.0,3,10,7,0,2026-03-21T03:04:03.378852+05:30
Rishikesh,Uttarakhand,30.0869,78.2676,14.2,88,0.0,969.9,6.25,24.5,67,20.8,18.7,3,10,7,0,2026-03-21T03:04:03.378861+05:30
Nainital,Uttarakhand,29.3919,79.4542,10.8,81,0.0,803.1,6.05,28.4,66,15.6,11.9,3,10,7,0,2026-03-21T03:04:03.378869+05:30
Mussoorie,Uttarakhand,30.4599,78.0664,7.9,79,0.0,799.1,6.2,29.9,60,6.4,6.4,3,5,7,0,2026-03-21T03:04:03.378877+05:30
Dharamshala,Himachal Pradesh,32.219,76.3234,11.2,64,0.0,867.7,6.1,20.9,40,5.8,5.0,3,5,7,0,2026-03-21T03:04:03.378885+05:30
Dalhousie,Himachal Pradesh,32.5387,75.971,7.2,77,0.0,800.1,6.4,20.2,62,36.8,28.6,3,5,7,0,2026-03-21T03:04:03.378894+05:30
Patiala,Punjab,30.3398,76.3869,13.9,100,0.0,982.7,6.2,25.6,112,122.9,98.7,3,10,7,0,2026-03-21T03:04:03.378902+05:30
Bhatinda,Punjab,30.211,74.9455,14.0,96,0.0,987.8,6.05,19.4,122,61.2,49.4,3,10,7,0,2026-03-21T03:04:03.378910+05:30
Rohtak,Haryana,28.8955,76.6066,14.5,100,0.0,986.3,6.1,23.4,137,126.7,111.3,3,10,7,0,2026-03-21T03:04:03.378919+05:30
Panipat,Haryana,29.3909,76.9635,13.4,100,0.0,984.8,6.1,26.3,135,118.3,101.5,3,10,7,0,2026-03-21T03:04:03.378927+05:30
Mathura,Uttar Pradesh,27.4924,77.6737,14.3,99,0.0,991.0,6.7,27.4,108,63.1,55.6,3,10,7,0,2026-03-21T03:04:03.378935+05:30
Vrindavan,Uttar Pradesh,27.5823,77.7027,14.0,100,0.0,991.5,6.65,29.2,108,63.1,55.6,3,10,7,0,2026-03-21T03:04:03.378943+05:30
Ayodhya,Uttar Pradesh,26.7922,82.1998,18.9,91,0.0,998.3,6.8,23.4,122,54.7,37.7,3,10,7,1,2026-03-21T03:04:03.378951+05:30
Ratlam,Madhya Pradesh,23.3315,75.0367,19.8,69,0.0,955.8,7.5,22.7,67,32.0,19.3,3,5,7,0,2026-03-21T03:04:03.378959+05:30
Sagar,Madhya Pradesh,23.8388,78.7378,17.5,93,0.0,951.9,7.85,26.3,68,64.3,30.5,3,10,7,1,2026-03-21T03:04:03.378967+05:30
Satna,Madhya Pradesh,24.6005,80.8322,18.8,92,0.0,974.2,7.8,36.0,64,34.5,24.8,3,10,7,1,2026-03-21T03:04:03.378975+05:30
Akola,Maharashtra,20.7002,77.0082,23.5,65,0.0,976.4,8.25,17.3,70,47.8,21.1,3,5,7,1,2026-03-21T03:04:03.379001+05:30
Amravati,Maharashtra,20.9374,77.7796,23.0,62,0.0,968.3,8.25,23.4,69,47.6,21.8,3,5,7,0,2026-03-21T03:04:03.379010+05:30
Latur,Maharashtra,18.4088,76.5604,22.3,56,0.0,939.6,8.7,33.8,90,39.9,25.4,0,5,7,0,2026-03-21T03:04:03.379019+05:30
Nanded,Maharashtra,19.1383,77.3091,24.5,60,0.0,969.4,8.5,25.6,76,42.5,30.6,0,5,7,1,2026-03-21T03:04:03.379027+05:30
Gulbarga,Karnataka,17.3297,76.8343,25.6,50,0.0,957.7,8.75,34.6,77,33.2,25.0,4,5,7,0,2026-03-21T03:04:03.379035+05:30
Bidar,Karnataka,17.9104,77.5199,23.3,61,0.0,934.3,8.75,22.7,84,46.6,33.9,3,5,7,0,2026-03-21T03:04:03.379043+05:30
Hospet,Karnataka,15.2689,76.3909,24.5,62,0.0,955.0,9.0,19.1,73,52.3,44.4,3,5,7,1,2026-03-21T03:04:03.379051+05:30
Tirupur,Tamil Nadu,11.1085,77.3411,24.1,77,0.0,974.8,9.4,28.8,76,34.3,30.4,3,5,7,1,2026-03-21T03:04:03.379059+05:30
Alappuzha,Kerala,9.4981,76.3388,28.6,71,0.0,1007.9,9.15,28.4,72,40.7,35.7,7,5,4,1,2026-03-21T03:04:03.379068+05:30
Munnar,Kerala,10.0889,77.0595,17.8,89,0.0,854.7,9.6,29.9,57,26.0,22.8,3,10,7,0,2026-03-21T03:04:03.379076+05:30
Silchar,Assam,24.8333,92.7789,21.5,80,0.0,1007.4,7.15,30.6,103,59.8,52.3,3,5,4,1,2026-03-21T03:04:03.379084+05:30
Dibrugarh,Assam,27.4728,94.912,21.2,87,0.0,999.9,6.65,11.5,87,21.1,17.7,3,5,7,1,2026-03-21T03:04:03.379092+05:30
