city,state,latitude,longitude,temp,humidity,rain,pressure,uv_index,wind_gusts,aqi,pm10,pm2_5,mosquito_risk,arthritis_risk,migraine_risk,frizz_risk,updated_at
Delhi,Delhi,28.6139,77.209,34.2,25,0.0,980.3,7.4,31.0,244,211.9,60.5,0,5,7,0,2026-04-23T21:26:58.419685+05:30
Mumbai,Maharashtra,19.076,72.8777,30.0,73,0.0,1006.3,8.05,25.9,126,36.4,30.6,7,5,4,1,2026-04-23T21:26:58.419733+05:30
Bangalore,Karnataka,12.9716,77.5946,28.3,42,0.0,910.9,9.4,33.1,128,25.5,22.4,4,5,7,0,2026-04-23T21:26:58.419750+05:30
Hyderabad,Telangana,17.385,78.4867,30.5,49,0.0,952.4,8.85,42.5,160,46.3,41.3,0,5,7,1,2026-04-23T21:26:58.419764+05:30
Chennai,Tamil Nadu,13.0827,80.2707,29.5,80,0.0,1005.9,9.3,33.1,30,8.9,6.1,7,5,4,1,2026-04-23T21:26:58.419775+05:30
Kolkata,West Bengal,22.5726,88.3639,28.8,86,0.0,1003.9,8.85,23.4,101,31.5,29.0,7,5,4,1,2026-04-23T21:26:58.419790+05:30
Pune,Maharashtra,18.5204,73.8567,29.2,51,0.0,947.7,8.65,38.5,136,45.4,40.7,4,5,7,1,2026-04-23T21:26:58.419800+05:30
Ahmedabad,Gujarat,23.0225,72.5714,33.5,29,0.0,999.9,8.2,29.5,52,49.9,22.4,0,5,7,0,2026-04-23T21:26:58.419811+05:30
Jaipur,Rajasthan,26.9124,75.7873,31.9,22,0.0,958.1,8.05,29.9,117,64.0,23.5,0,5,7,0,2026-04-23T21:26:58.419823+05:30
Lucknow,Uttar Pradesh,26.8467,80.9462,32.2,28,0.0,990.4,7.85,38.5,188,247.7,50.8,0,5,7,0,2026-04-23T21:26:58.419834+05:30
Kanpur,Uttar Pradesh,26.4499,80.3319,29.5,43,0.0,988.8,7.9,29.5,373,264.5,48.0,4,5,7,0,2026-04-23T21:26:58.419845+05:30
Chandigarh,Chandigarh,30.7333,76.7794,29.5,53,0.0,965.8,7.4,32.4,142,35.0,25.3,4,5,7,1,2026-04-23T21:26:58.419855+05:30
Srinagar,Jammu and Kashmir,34.0837,74.7973,17.1,78,0.0,842.7,6.85,17.3,74,56.2,43.3,3,5,7,0,2026-04-23T21:26:58.419865+05:30
Jammu,Jammu and Kashmir,32.7266,74.857,28.6,66,0.0,970.6,8.2,37.1,106,66.4,40.7,7,5,7,1,2026-04-23T21:26:58.419875+05:30
Amritsar,Punjab,31.634,74.8723,28.6,56,0.0,978.6,7.55,34.6,145,41.4,24.7,4,5,7,1,2026-04-23T21:26:58.419884+05:30
Ludhiana,Punjab,30.901,75.8573,31.7,35,0.0,976.2,7.7,34.6,114,44.5,27.0,0,5,7,0,2026-04-23T21:26:58.419893+05:30
Jalandhar,Punjab,31.326,75.5762,29.9,43,0.0,977.5,7.9,25.9,122,68.9,27.0,4,5,7,0,2026-04-23T21:26:58.419900+05:30
Dehradun,Uttarakhand,30.6284,78.0322,19.4,61,0.0,830.9,7.85,36.7,137,34.0,23.3,3,5,7,0,2026-04-23T21:26:58.419906+05:30
Shimla,Himachal Pradesh,31.1048,77.1734,17.9,47,0.0,785.7,7.9,49.7,130,31.5,19.2,0,5,7,0,2026-04-23T21:26:58.419913+05:30
Manali,Himachal Pradesh,32.2396,77.1887,18.7,72,0.0,823.0,9.85,34.9,147,22.1,12.8,3,5,7,0,2026-04-23T21:26:58.419919+05:30
Gurgaon,Haryana,28.4595,77.0266,32.8,27,0.0,978.6,7.5,24.5,846,216.1,62.2,0,5,7,0,2026-04-23T21:26:58.419925+05:30
Noida,Uttar Pradesh,28.5355,77.391,32.9,31,0.0,981.7,7.4,31.7,846,216.1,62.2,0,5,7,0,2026-04-23T21:26:58.419931+05:30
Ghaziabad,Uttar Pradesh,28.6692,77.4538,33.0,31,0.0,979.8,7.4,30.6,192,205.4,64.0,0,5,7,0,2026-04-23T21:26:58.419936+05:30
Faridabad,Haryana,28.4089,77.3178,31.7,32,0.0,981.0,7.45,29.9,846,216.1,62.2,0,5,7,0,2026-04-23T21:26:58.419942+05:30
Meerut,Uttar Pradesh,28.9845,77.7064,29.7,39,0.0,978.4,7.3,29.9,192,205.4,64.0,4,5,7,0,2026-04-23T21:26:58.419948+05:30
Agra,Uttar Pradesh,27.1767,78.0081,28.7,32,0.0,985.1,7.75,32.0,560,122.5,48.8,4,5,7,0,2026-04-23T21:26:58.419956+05:30
Varanasi,Uttar Pradesh,25.3176,82.9739,31.8,28,0.0,994.2,8.45,35.3,142,193.7,54.4,0,5,7,0,2026-04-23T21:26:58.419969+05:30
Prayagraj,Uttar Pradesh,25.4358,81.8463,33.3,31,0.0,993.1,8.35,31.0,140,175.1,51.8,0,5,7,0,2026-04-23T21:26:58.419975+05:30
Gorakhpur,Uttar Pradesh,26.7606,83.3732,32.2,31,0.0,993.6,8.25,31.3,157,50.4,35.5,0,5,7,0,2026-04-23T21:26:58.419981+05:30
Bareilly,Uttar Pradesh,28.367,79.4304,30.3,38,0.0,983.4,7.65,29.9,164,85.4,35.3,0,5,7,0,2026-04-23T21:26:58.419987+05:30
Aligarh,Uttar Pradesh,27.8974,78.088,29.0,35,0.0,982.7,7.55,31.3,518,491.7,61.7,4,5,7,0,2026-04-23T21:26:58.419994+05:30
Moradabad,Uttar Pradesh,28.8386,78.7733,30.2,37,0.0,980.4,7.5,32.0,152,76.1,42.3,0,5,7,0,2026-04-23T21:26:58.419999+05:30
Saharanpur,Uttar Pradesh,29.9637,77.546,28.1,51,0.0,972.3,7.1,33.8,138,81.3,43.3,4,5,7,1,2026-04-23T21:26:58.420005+05:30
Jhansi,Uttar Pradesh,25.4484,78.5685,32.8,27,0.0,976.2,8.25,30.6,92,22.6,21.0,0,5,7,0,2026-04-23T21:27:01.729710+05:30
Surat,Gujarat,21.1702,72.8311,28.9,71,0.0,1004.8,7.9,23.4,95,68.5,63.6,7,5,4,1,2026-04-23T21:27:01.729743+05:30
Vadodara,Gujarat,22.3072,73.1812,32.9,39,0.0,1001.8,8.15,26.6,127,50.1,39.3,0,5,4,1,2026-04-23T21:27:01.729754+05:30
Rajkot,Gujarat,22.3039,70.8022,29.1,57,0.0,993.3,7.9,33.8,68,25.2,10.6,4,5,7,1,2026-04-23T21:27:01.729763+05:30
Thane,Maharashtra,19.2183,72.9781,29.3,68,0.0,1005.8,8.05,37.4,126,36.4,30.6,7,5,4,1,2026-04-23T21:27:01.729772+05:30
Nagpur,Maharashtra,21.1458,79.0882,32.6,43,0.0,971.3,8.95,24.8,120,43.9,39.8,0,5,7,1,2026-04-23T21:27:01.729782+05:30
Nashik,Maharashtra,19.9975,73.7898,29.0,52,0.0,945.2,8.3,29.5,136,30.6,27.6,4,5,7,1,2026-04-23T21:27:01.729791+05:30
Aurangabad,Maharashtra,19.8762,75.3433,31.5,33,0.0,943.5,9.05,33.8,135,33.1,28.9,0,5,7,0,2026-04-23T21:27:01.729799+05:30
Solapur,Maharashtra,17.6599,75.9064,29.7,51,0.0,956.9,9.1,36.4,159,41.0,36.8,4,5,7,1,2026-04-23T21:27:01.729809+05:30
Kolhapur,Maharashtra,16.705,74.2433,25.1,81,0.0,947.4,9.05,47.9,143,61.2,58.0,7,5,7,1,2026-04-23T21:27:01.729818+05:30
Goa,Goa,15.2993,74.124,29.7,79,0.0,995.8,9.0,31.7,86,37.7,26.7,7,5,7,1,2026-04-23T21:27:01.729826+05:30
Jodhpur,Rajasthan,26.2389,73.0243,33.5,30,0.0,980.8,8.25,22.3,77,62.4,19.7,0,5,7,0,2026-04-23T21:27:01.729835+05:30
Udaipur,Rajasthan,24.5854,73.7125,29.3,38,0.0,946.3,8.8,32.0,49,42.7,13.3,4,5,7,0,2026-04-23T21:27:01.729843+05:30
Kota,Rajasthan,25.2138,75.8648,31.5,23,0.0,976.2,8.25,33.8,115,22.9,19.6,0,5,7,0,2026-04-23T21:27:01.729851+05:30
Bikaner,Rajasthan,28.0229,73.3119,35.3,26,0.0,979.3,8.15,23.4,77,59.4,19.2,0,5,10,0,2026-04-23T21:27:01.729860+05:30
Ajmer,Rajasthan,26.4499,74.6399,31.1,31,0.0,953.2,8.2,26.6,87,19.5,13.2,0,5,7,0,2026-04-23T21:27:01.729868+05:30
Gwalior,Madhya Pradesh,26.2183,78.1828,31.4,32,0.0,981.0,8.0,37.8,80,12.9,11.6,0,5,7,0,2026-04-23T21:27:01.729876+05:30
Indore,Madhya Pradesh,22.7196,75.8577,29.6,33,0.0,947.5,8.55,37.1,123,30.7,28.2,4,5,7,0,2026-04-23T21:27:01.729885+05:30
Bhopal,Madhya Pradesh,23.2599,77.4126,30.6,31,0.0,952.6,8.45,28.4,112,28.8,25.8,0,5,7,0,2026-04-23T21:27:01.729893+05:30
Jabalpur,Madhya Pradesh,23.1815,79.9864,30.4,36,0.0,959.9,8.8,25.2,104,36.1,31.7,0,5,7,0,2026-04-23T21:27:01.729901+05:30
Ujjain,Madhya Pradesh,23.1765,75.7885,30.1,31,0.0,953.2,8.55,36.7,118,22.9,21.1,0,5,7,0,2026-04-23T21:27:01.729909+05:30
Visakhapatnam,Andhra Pradesh,17.6868,83.2185,28.4,81,0.0,1002.2,9.2,35.3,66,19.3,14.7,7,5,4,1,2026-04-23T21:27:01.729916+05:30
Vijayawada,Andhra Pradesh,16.5062,80.648,29.5,68,0.0,1001.4,9.25,24.8,56,15.7,12.7,7,5,4,1,2026-04-23T21:27:01.729922+05:30
Guntur,Andhra Pradesh,16.3067,80.4365,28.7,79,0.0,1002.7,9.3,29.9,57,17.6,14.5,7,5,4,1,2026-04-23T21:27:01.729929+05:30
Nellore,Andhra Pradesh,14.4426,79.9865,28.7,78,0.0,1004.3,9.3,32.0,57,10.8,8.0,7,5,4,1,2026-04-23T21:27:01.729936+05:30
Kurnool,Andhra Pradesh,15.8281,78.0373,33.7,40,0.0,975.2,8.9,32.8,134,34.5,30.9,0,5,7,1,2026-04-23T21:27:01.729944+05:30
Kakinada,Andhra Pradesh,16.9891,82.2475,29.1,78,0.0,1006.3,9.25,29.2,44,14.3,9.1,7,5,4,1,2026-04-23T21:27:01.729950+05:30
Tirupati,Andhra Pradesh,13.6288,79.4192,31.0,61,0.0,990.6,9.35,33.8,81,17.5,16.1,3,5,7,1,2026-04-23T21:27:01.729957+05:30
Warangal,Telangana,17.9689,79.5941,32.8,51,0.0,976.8,8.55,20.5,155,53.2,48.2,0,5,7,1,2026-04-23T21:27:01.729963+05:30
Nizamabad,Telangana,18.6725,78.0941,32.4,41,0.0,963.6,8.6,28.4,134,62.6,56.1,0,5,7,1,2026-04-23T21:27:01.729970+05:30
Mysore,Karnataka,12.2958,76.6396,26.5,76,0.0,927.4,9.3,39.6,145,29.6,26.1,7,5,7,1,2026-04-23T21:27:01.729976+05:30
Mangalore,Karnataka,12.9141,74.856,30.6,78,0.0,1004.9,8.95,27.0,89,35.6,26.5,3,5,4,1,2026-04-23T21:27:01.729982+05:30
Hubli-Dharwad,Karnataka,15.3647,75.124,27.0,64,0.0,939.7,9.25,44.3,162,40.3,37.5,7,5,7,1,2026-04-23T21:27:01.729989+05:30
Belgaum,Karnataka,15.8497,74.4977,25.9,81,0.0,924.9,9.25,39.2,158,37.1,33.9,7,5,7,1,2026-04-23T21:27:05.042120+05:30
Coimbatore,Tamil Nadu,11.0168,76.9558,26.7,77,0.0,960.9,9.4,35.6,113,34.7,30.7,7,5,7,1,2026-04-23T21:27:05.042151+05:30
Madurai,Tamil Nadu,9.9252,78.1198,29.6,69,0.0,992.1,9.3,37.4,86,8.3,7.8,7,5,7,1,2026-04-23T21:27:05.042163+05:30
Trichy,Tamil Nadu,10.7905,78.7047,30.1,64,0.0,998.3,9.3,22.3,74,10.2,9.9,3,5,7,1,2026-04-23T21:27:05.042173+05:30
Salem,Tamil Nadu,11.6643,78.146,30.8,55,0.0,975.6,9.4,31.0,104,22.4,20.0,0,5,7,1,2026-04-23T21:27:05.042181+05:30
Tirunelveli,Tamil Nadu,8.7139,77.7567,29.7,68,0.0,1002.0,9.25,38.5,98,18.8,17.6,7,5,4,1,2026-04-23T21:27:05.042190+05:30
Vellore,Tamil Nadu,12.9165,79.1325,29.9,65,0.0,983.4,9.4,30.6,78,21.7,20.6,7,5,7,1,2026-04-23T21:27:05.042199+05:30
Erode,Tamil Nadu,11.341,77.7172,32.7,40,0.0,987.0,9.35,30.6,93,17.7,15.4,0,5,7,1,2026-04-23T21:27:05.042207+05:30
Kochi,Kerala,9.9312,76.2673,29.7,80,0.0,1007.5,9.1,29.9,77,24.4,22.5,7,5,4,1,2026-04-23T21:27:05.042216+05:30
Thiruvananthapuram,Kerala,8.5241,76.9366,28.9,80,0.0,1006.9,8.55,21.2,69,20.3,15.5,7,5,4,1,2026-04-23T21:27:05.042225+05:30
Kozhikode,Kerala,11.2588,75.7804,29.8,81,0.0,1006.4,9.1,28.1,80,33.4,23.7,7,5,4,1,2026-04-23T21:27:05.042234+05:30
Thrissur,Kerala,10.5276,76.2144,29.5,81,0.0,1005.7,9.15,35.3,88,23.8,20.7,7,5,4,1,2026-04-23T21:27:05.042243+05:30
Kannur,Kerala,11.8745,75.3704,29.6,80,0.0,1005.7,9.1,31.3,97,37.5,28.3,7,5,4,1,2026-04-23T21:27:05.042251+05:30
Patna,Bihar,25.5941,85.1376,31.5,45,0.0,997.0,8.6,22.3,180,109.9,59.8,0,5,7,1,2026-04-23T21:27:05.042260+05:30
Gaya,Bihar,24.7914,85.0002,31.0,41,0.0,990.8,8.55,34.9,151,203.5,66.4,0,5,7,1,2026-04-23T21:27:05.042268+05:30
Muzaffarpur,Bihar,26.1209,85.3647,29.5,62,0.0,997.3,8.6,25.9,167,105.7,66.1,7,5,7,1,2026-04-23T21:27:05.042276+05:30
Bhagalpur,Bihar,25.2425,87.0117,31.4,51,0.0,998.5,8.6,19.1,205,161.1,72.2,0,5,7,1,2026-04-23T21:27:05.042283+05:30
Ranchi,Jharkhand,23.3441,85.3096,28.8,23,0.0,936.8,8.8,36.7,100,118.3,34.3,4,5,7,0,2026-04-23T21:27:05.042292+05:30
Jamshedpur,Jharkhand,22.8046,86.2029,32.1,46,0.0,987.9,8.85,16.9,169,102.7,47.1,0,5,7,1,2026-04-23T21:27:05.042299+05:30
Dhanbad,Jharkhand,23.7957,86.4304,32.8,23,0.0,977.8,8.8,35.3,161,184.9,69.2,0,5,7,0,2026-04-23T21:27:05.042306+05:30
Bokaro,Jharkhand,23.6693,86.1511,32.5,29,0.0,981.9,8.65,38.2,155,211.4,74.7,0,5,7,0,2026-04-23T21:27:05.042312+05:30
Bhubaneswar,Odisha,20.2961,85.8245,28.1,86,0.0,1000.6,9.15,36.0,158,22.4,20.2,7,5,4,1,2026-04-23T21:27:05.042319+05:30
Cuttack,Odisha,20.4625,85.8828,29.6,75,0.0,1002.2,9.2,50.0,158,22.4,20.2,7,5,4,1,2026-04-23T21:27:05.042326+05:30
Rourkela,Odisha,22.2604,84.8536,33.0,42,0.0,982.1,8.9,22.7,140,78.5,34.2,0,5,7,1,2026-04-23T21:27:05.042333+05:30
Raipur,Chhattisgarh,21.2514,81.6296,33.4,29,0.0,972.2,7.9,29.5,141,34.5,33.2,0,5,7,0,2026-04-23T21:27:05.042339+05:30
Bhilai,Chhattisgarh,21.1938,81.3509,32.2,33,0.0,972.5,7.7,25.9,118,49.0,46.7,0,5,7,0,2026-04-23T21:27:05.042345+05:30
Guwahati,Assam,26.1158,91.7086,27.8,85,0.0,1000.2,8.55,20.9,104,95.9,65.2,7,5,4,1,2026-04-23T21:27:05.042352+05:30
Agartala,Tripura,23.8315,91.2868,29.7,76,0.0,1004.0,8.4,20.5,97,94.8,62.6,7,5,4,1,2026-04-23T21:27:05.042358+05:30
Shillong,Meghalaya,25.5788,91.8933,15.7,94,0.0,856.1,8.95,36.0,104,60.3,41.1,3,10,7,0,2026-04-23T21:27:05.042365+05:30
Imphal,Manipur,24.817,93.9368,20.9,78,0.0,923.5,9.15,50.0,124,102.4,59.8,3,5,7,1,2026-04-23T21:27:05.042372+05:30
Aizawl,Mizoram,23.7271,92.7176,22.7,74,0.0,892.6,8.95,35.3,121,133.2,56.8,3,5,7,1,2026-04-23T21:27:05.042378+05:30
Kohima,Nagaland,25.6701,94.1077,18.0,95,0.0,855.9,9.05,50.0,126,80.6,49.5,3,10,7,1,2026-04-23T21:27:05.042385+05:30
Gangtok,Sikkim,27.3314,88.6138,18.8,96,0.0,838.9,8.9,21.6,140,72.6,50.1,3,10,7,1,2026-04-23T21:27:05.042392+05:30
Siliguri,West Bengal,26.7271,88.3953,24.4,81,0.0,993.4,8.5,22.3,150,86.6,53.1,3,5,7,1,2026-04-23T21:27:08.364372+05:30
Durgapur,West Bengal,23.5204,87.3119,31.6,71,0.0,992.8,8.95,25.6,157,161.6,84.5,3,5,7,1,2026-04-23T21:27:08.364404+05:30
Asansol,West Bengal,23.6739,86.9524,32.8,61,0.0,991.2,8.95,28.4,155,139.7,51.6,3,5,7,1,2026-04-23T21:27:08.364415+05:30
Pondicherry,Puducherry,11.9139,79.8145,27.8,89,0.0,1007.1,9.25,29.5,24,8.3,5.4,7,5,4,1,2026-04-23T21:27:08.364425+05:30
Port Blair,Andaman and Nicobar Islands,11.6234,92.7265,30.0,71,0.0,1006.5,9.15,18.4,34,13.6,6.4,7,5,4,1,2026-04-23T21:27:08.364434+05:30
Haridwar,Uttarakhand,29.9457,78.1642,26.7,58,0.0,971.4,7.2,38.5,148,47.1,31.5,4,5,7,1,2026-04-23T21:27:08.364443+05:30
Rishikesh,Uttarakhand,30.0869,78.2676,25.3,60,0.0,964.6,7.3,36.4,152,39.9,24.3,4,5,7,1,2026-04-23T21:27:08.364452+05:30
Nainital,Uttarakhand,29.3919,79.4542,24.6,33,0.0,807.6,8.15,53.6,154,35.6,26.1,0,5,7,0,2026-04-23T21:27:08.364461+05:30
Mussoorie,Uttarakhand,30.4599,78.0664,21.7,49,0.0,804.0,7.7,42.5,161,46.7,28.3,0,5,7,0,2026-04-23T21:27:08.364469+05:30
Dharamshala,Himachal Pradesh,32.219,76.3234,25.2,41,0.0,869.6,8.05,33.1,99,27.1,15.9,4,5,7,0,2026-04-23T21:27:08.364478+05:30
Dalhousie,Himachal Pradesh,32.5387,75.971,22.7,39,0.0,805.4,8.35,30.2,109,39.8,26.8,0,5,7,0,2026-04-23T21:27:08.364488+05:30
Patiala,Punjab,30.3398,76.3869,31.1,50,0.0,975.1,7.3,20.2,163,97.8,40.4,0,5,7,1,2026-04-23T21:27:08.364496+05:30
Bhatinda,Punjab,30.211,74.9455,32.5,29,0.0,980.9,8.0,28.1,119,40.2,22.4,0,5,7,0,2026-04-23T21:27:08.364504+05:30
Rohtak,Haryana,28.8955,76.6066,28.8,50,0.0,978.8,7.45,23.8,370,198.4,52.4,4,5,7,1,2026-04-23T21:27:08.364512+05:30
Panipat,Haryana,29.3909,76.9635,31.5,40,0.0,977.5,7.25,21.2,679,281.3,68.7,0,5,7,1,2026-04-23T21:27:08.364521+05:30
Mathura,Uttar Pradesh,27.4924,77.6737,27.7,34,0.0,983.8,7.7,27.0,464,193.2,37.7,4,5,7,0,2026-04-23T21:27:08.364529+05:30
Vrindavan,Uttar Pradesh,27.5823,77.7027,27.9,32,0.0,984.2,7.65,27.4,464,193.2,37.7,4,5,7,0,2026-04-23T21:27:08.364537+05:30
Ayodhya,Uttar Pradesh,26.7922,82.1998,31.1,31,0.0,992.0,8.05,40.3,154,103.8,36.7,0,5,7,0,2026-04-23T21:27:08.364546+05:30
Ratlam,Madhya Pradesh,23.3315,75.0367,30.2,41,0.0,953.7,8.5,33.8,122,19.2,16.7,0,5,7,0,2026-04-23T21:27:08.364554+05:30
Sagar,Madhya Pradesh,23.8388,78.7378,31.6,29,0.0,949.1,8.65,32.0,116,24.0,21.5,0,5,7,0,2026-04-23T21:27:08.364563+05:30
Satna,Madhya Pradesh,24.6005,80.8322,33.0,24,0.0,969.1,8.65,28.1,107,41.3,21.1,0,5,7,0,2026-04-23T21:27:08.364571+05:30
Akola,Maharashtra,20.7002,77.0082,33.8,29,0.0,973.0,8.85,31.0,139,40.7,35.7,0,5,7,0,2026-04-23T21:27:08.364580+05:30
Amravati,Maharashtra,20.9374,77.7796,32.2,39,0.0,965.2,8.7,16.9,139,36.7,31.4,0,5,7,1,2026-04-23T21:27:08.364589+05:30
Latur,Maharashtra,18.4088,76.5604,28.8,51,0.0,939.1,9.1,41.0,161,47.4,42.5,4,5,7,1,2026-04-23T21:27:08.364598+05:30
Nanded,Maharashtra,19.1383,77.3091,32.1,39,0.0,966.6,9.05,27.7,136,54.7,48.9,0,5,7,1,2026-04-23T21:27:08.364605+05:30
Gulbarga,Karnataka,17.3297,76.8343,30.5,49,0.0,957.8,8.65,65.9,167,49.0,43.3,0,5,7,1,2026-04-23T21:27:08.364614+05:30
Bidar,Karnataka,17.9104,77.5199,30.0,49,0.0,934.7,7.95,29.9,148,59.8,53.7,4,5,7,1,2026-04-23T21:27:08.364621+05:30
Hospet,Karnataka,15.2689,76.3909,29.5,55,0.0,954.3,8.95,31.7,167,45.3,41.0,4,5,7,1,2026-04-23T21:27:08.364629+05:30
Tirupur,Tamil Nadu,11.1085,77.3411,31.1,52,0.0,973.9,9.45,31.7,103,25.4,21.2,0,5,7,1,2026-04-23T21:27:08.364637+05:30
Alappuzha,Kerala,9.4981,76.3388,28.6,82,0.0,1007.9,9.1,27.4,79,27.8,23.5,7,5,4,1,2026-04-23T21:27:08.364645+05:30
Munnar,Kerala,10.0889,77.0595,22.3,95,0.0,856.5,9.65,33.8,86,24.4,22.5,3,5,7,1,2026-04-23T21:27:08.364675+05:30
Silchar,Assam,24.8333,92.7789,27.4,83,0.0,1003.7,8.7,19.1,138,136.4,82.9,7,5,4,1,2026-04-23T21:27:08.364684+05:30
Dibrugarh,Assam,27.4728,94.912,27.2,78,0.0,994.8,8.65,11.2,72,44.0,39.0,7,5,7,1,2026-04-23T21:27:08.364692+05:30
