city,state,latitude,longitude,temp,humidity,rain,pressure,uv_index,wind_gusts,aqi,pm10,pm2_5,no2,co,o3,so2,mosquito_risk,arthritis_risk,migraine_risk,frizz_risk,updated_at
Delhi,Delhi,28.6139,77.209,27.7,56,0.0,980.5,7.4,45.0,438,363.2,80.6,17.7,481.0,99.0,20.6,4,5,7,1,2026-05-30T03:23:14.725049+05:30
Mumbai,Maharashtra,19.076,72.8777,30.2,73,0.0,1007.1,7.8,43.9,63,25.6,15.1,4.0,124.0,52.0,3.9,3,5,4,1,2026-05-30T03:23:14.725099+05:30
Bangalore,Karnataka,12.9716,77.5946,21.6,96,0.0,910.9,8.55,32.0,54,13.7,13.2,20.3,320.0,48.0,6.0,3,5,7,1,2026-05-30T03:23:14.725116+05:30
Hyderabad,Telangana,17.385,78.4867,29.4,53,0.0,951.0,8.85,41.4,61,16.6,14.3,10.2,235.0,71.0,5.9,4,5,7,1,2026-05-30T03:23:14.725126+05:30
Chennai,Tamil Nadu,13.0827,80.2707,29.8,60,0.0,1004.0,9.0,40.3,79,27.0,21.7,13.9,396.0,78.0,9.6,4,5,4,1,2026-05-30T03:23:14.725136+05:30
Kolkata,West Bengal,22.5726,88.3639,23.9,92,0.0,1005.1,8.9,29.9,113,90.1,73.6,32.2,758.0,37.0,12.5,3,5,4,1,2026-05-30T03:23:14.725145+05:30
Pune,Maharashtra,18.5204,73.8567,25.3,83,0.0,947.1,8.35,47.2,41,15.5,10.8,8.5,133.0,40.0,6.8,7,5,7,1,2026-05-30T03:23:14.725152+05:30
Ahmedabad,Gujarat,23.0225,72.5714,30.7,61,0.0,998.9,8.1,48.2,73,34.0,18.9,4.4,124.0,46.0,4.4,3,5,7,1,2026-05-30T03:23:14.725159+05:30
Jaipur,Rajasthan,26.9124,75.7873,26.0,63,0.0,956.5,8.15,58.7,119,216.5,58.9,6.0,269.0,88.0,4.4,7,5,7,1,2026-05-30T03:23:14.725170+05:30
Lucknow,Uttar Pradesh,26.8467,80.9462,25.6,75,0.0,991.6,8.1,36.7,99,32.4,27.6,9.4,353.0,111.0,10.5,7,5,7,1,2026-05-30T03:23:14.725178+05:30
Kanpur,Uttar Pradesh,26.4499,80.3319,26.9,70,0.0,990.1,8.1,42.5,147,51.2,34.1,9.7,319.0,106.0,10.4,7,5,7,1,2026-05-30T03:23:14.725185+05:30
Chandigarh,Chandigarh,30.7333,76.7794,29.1,37,0.0,966.6,7.7,38.2,110,45.8,31.5,10.3,288.0,120.0,6.0,4,5,7,0,2026-05-30T03:23:14.725193+05:30
Srinagar,Jammu and Kashmir,34.0837,74.7973,11.9,98,0.0,839.0,8.95,26.6,69,48.0,45.2,31.0,386.0,20.0,0.3,3,10,7,0,2026-05-30T03:23:14.725200+05:30
Jammu,Jammu and Kashmir,32.7266,74.857,27.7,38,0.0,970.7,8.5,47.2,150,97.6,66.6,40.5,352.0,31.0,4.5,4,5,7,0,2026-05-30T03:23:14.725208+05:30
Amritsar,Punjab,31.634,74.8723,28.1,48,0.0,977.8,8.35,74.9,239,358.6,101.0,8.4,381.0,118.0,15.1,4,5,7,1,2026-05-30T03:23:14.725215+05:30
Ludhiana,Punjab,30.901,75.8573,28.5,44,0.0,975.9,7.95,63.0,600,401.4,94.5,6.7,326.0,129.0,12.8,4,5,7,0,2026-05-30T03:23:14.725223+05:30
Jalandhar,Punjab,31.326,75.5762,28.2,43,0.0,977.0,8.15,58.3,470,366.0,101.5,11.4,317.0,102.0,15.7,4,5,7,0,2026-05-30T03:23:14.725231+05:30
Dehradun,Uttarakhand,30.6284,78.0322,12.6,95,0.0,828.0,7.95,27.4,104,64.7,47.6,26.6,264.0,62.0,2.0,3,10,7,0,2026-05-30T03:23:14.725237+05:30
Shimla,Himachal Pradesh,31.1048,77.1734,9.4,85,0.0,780.0,7.2,31.0,90,43.8,36.1,17.3,420.0,73.0,0.8,3,10,7,0,2026-05-30T03:23:14.725248+05:30
Manali,Himachal Pradesh,32.2396,77.1887,10.0,89,0.0,815.1,7.55,32.4,47,7.6,5.9,40.6,309.0,74.0,0.0,3,10,7,0,2026-05-30T03:23:14.725255+05:30
Gurgaon,Haryana,28.4595,77.0266,26.1,69,0.0,978.7,6.75,63.0,1163,512.2,109.0,19.3,430.0,77.0,14.5,7,5,7,1,2026-05-30T03:23:14.725263+05:30
Noida,Uttar Pradesh,28.5355,77.391,26.1,63,0.0,982.2,7.55,52.6,1163,512.2,109.0,19.3,380.0,77.0,14.5,7,5,7,1,2026-05-30T03:23:14.725270+05:30
Ghaziabad,Uttar Pradesh,28.6692,77.4538,27.0,57,0.0,980.5,7.65,65.9,207,170.9,52.5,7.9,336.0,112.0,10.7,4,5,7,1,2026-05-30T03:23:14.725292+05:30
Faridabad,Haryana,28.4089,77.3178,26.7,61,0.0,981.4,7.2,49.0,1163,512.2,109.0,19.3,409.0,77.0,14.5,7,5,7,1,2026-05-30T03:23:14.725299+05:30
Meerut,Uttar Pradesh,28.9845,77.7064,26.4,64,0.0,979.5,7.55,49.7,207,170.9,52.5,7.9,311.0,112.0,10.7,7,5,7,1,2026-05-30T03:23:14.725305+05:30
Agra,Uttar Pradesh,27.1767,78.0081,26.6,70,0.0,985.4,7.95,63.0,631,75.0,38.2,7.8,328.0,105.0,6.6,7,5,7,1,2026-05-30T03:23:14.725311+05:30
Varanasi,Uttar Pradesh,25.3176,82.9739,24.4,83,0.0,995.7,8.7,27.4,120,31.0,29.0,9.9,377.0,116.0,15.3,3,5,7,1,2026-05-30T03:23:14.725318+05:30
Prayagraj,Uttar Pradesh,25.4358,81.8463,26.0,78,0.0,994.1,8.4,28.8,114,37.3,32.6,10.6,409.0,118.0,12.5,7,5,7,1,2026-05-30T03:23:14.725325+05:30
Gorakhpur,Uttar Pradesh,26.7606,83.3732,23.8,90,0.0,996.1,8.25,40.7,83,35.3,29.7,16.6,450.0,73.0,5.4,3,5,7,1,2026-05-30T03:23:14.725333+05:30
Bareilly,Uttar Pradesh,28.367,79.4304,26.6,75,0.0,985.5,7.9,30.2,91,31.4,25.3,8.7,291.0,108.0,5.9,7,5,7,1,2026-05-30T03:23:14.725340+05:30
Aligarh,Uttar Pradesh,27.8974,78.088,26.5,67,0.0,983.4,7.8,56.5,509,450.8,83.8,9.1,359.0,99.0,9.0,7,5,7,1,2026-05-30T03:23:14.725347+05:30
Moradabad,Uttar Pradesh,28.8386,78.7733,27.6,64,0.0,982.3,7.75,42.1,89,40.9,30.3,11.4,308.0,106.0,7.3,7,5,7,1,2026-05-30T03:23:14.725353+05:30
Saharanpur,Uttar Pradesh,29.9637,77.546,26.2,55,0.0,974.3,7.4,44.6,105,50.4,35.3,8.8,328.0,116.0,6.8,4,5,7,1,2026-05-30T03:23:14.725360+05:30
Jhansi,Uttar Pradesh,25.4484,78.5685,29.1,53,0.0,975.4,8.35,67.3,99,76.1,35.9,4.4,309.0,118.0,6.0,4,5,7,1,2026-05-30T03:23:18.147524+05:30
Surat,Gujarat,21.1702,72.8311,29.5,75,0.0,1004.5,7.7,60.8,81,49.2,26.9,11.8,218.0,43.0,21.2,7,5,4,1,2026-05-30T03:23:18.147559+05:30
Vadodara,Gujarat,22.3072,73.1812,29.4,71,0.0,1001.8,8.05,56.9,78,38.6,22.3,6.6,121.0,44.0,7.0,7,5,4,1,2026-05-30T03:23:18.147570+05:30
Rajkot,Gujarat,22.3039,70.8022,28.2,78,0.0,991.0,7.7,56.5,67,35.6,17.8,2.5,103.0,47.0,2.5,7,5,7,1,2026-05-30T03:23:18.147578+05:30
Thane,Maharashtra,19.2183,72.9781,30.0,74,0.0,1006.5,7.8,41.4,63,25.6,15.1,4.0,136.0,52.0,3.9,7,5,4,1,2026-05-30T03:23:18.147586+05:30
Nagpur,Maharashtra,21.1458,79.0882,33.3,31,0.0,969.8,8.9,50.0,68,34.0,23.1,17.3,269.0,41.0,7.0,0,5,7,0,2026-05-30T03:23:18.147594+05:30
Nashik,Maharashtra,19.9975,73.7898,24.7,87,0.0,943.8,8.1,55.4,57,22.2,14.2,9.8,124.0,39.0,9.2,3,5,7,1,2026-05-30T03:23:18.147601+05:30
Aurangabad,Maharashtra,19.8762,75.3433,25.6,78,0.0,942.7,8.95,52.9,57,28.2,18.1,11.4,159.0,54.0,14.1,7,5,7,1,2026-05-30T03:23:18.147608+05:30
Solapur,Maharashtra,17.6599,75.9064,27.9,65,0.0,956.2,8.95,36.4,42,12.7,9.4,5.5,166.0,51.0,1.9,7,5,7,1,2026-05-30T03:23:18.147616+05:30
Kolhapur,Maharashtra,16.705,74.2433,24.6,89,0.0,947.2,8.75,45.4,35,11.0,8.3,5.5,150.0,41.0,2.1,3,5,7,1,2026-05-30T03:23:18.147623+05:30
Goa,Goa,15.2993,74.124,26.6,100,0.1,997.6,7.25,27.0,54,24.1,18.5,6.1,369.0,45.0,1.9,10,5,7,1,2026-05-30T03:23:18.147630+05:30
Jodhpur,Rajasthan,26.2389,73.0243,32.3,52,0.0,977.8,8.35,48.6,222,416.3,86.6,1.9,147.0,65.0,2.6,0,5,7,1,2026-05-30T03:23:18.147637+05:30
Udaipur,Rajasthan,24.5854,73.7125,28.4,55,0.0,943.5,8.75,44.3,73,32.6,19.0,2.4,133.0,64.0,2.3,4,5,7,1,2026-05-30T03:23:18.147644+05:30
Kota,Rajasthan,25.2138,75.8648,29.4,53,0.0,974.6,8.3,68.8,83,55.5,27.8,4.0,156.0,96.0,4.3,4,5,7,1,2026-05-30T03:23:18.147651+05:30
Bikaner,Rajasthan,28.0229,73.3119,31.3,42,0.0,976.0,8.35,41.4,157,68.7,33.6,2.6,152.0,97.0,2.6,0,5,7,1,2026-05-30T03:23:18.147658+05:30
Ajmer,Rajasthan,26.4499,74.6399,26.4,58,0.0,950.7,8.3,61.2,92,72.9,33.8,3.7,184.0,91.0,2.6,4,5,7,1,2026-05-30T03:23:18.147664+05:30
Gwalior,Madhya Pradesh,26.2183,78.1828,27.8,62,0.0,980.5,8.15,42.5,147,104.1,43.0,5.1,299.0,105.0,5.5,7,5,7,1,2026-05-30T03:23:18.147671+05:30
Indore,Madhya Pradesh,22.7196,75.8577,26.5,70,0.0,945.9,8.6,45.7,81,40.0,23.9,4.9,139.0,67.0,9.0,7,5,7,1,2026-05-30T03:23:18.147679+05:30
Bhopal,Madhya Pradesh,23.2599,77.4126,27.4,60,0.0,950.6,8.65,63.7,76,37.0,25.4,4.2,227.0,84.0,6.4,4,5,7,1,2026-05-30T03:23:18.147686+05:30
Jabalpur,Madhya Pradesh,23.1815,79.9864,24.6,82,0.1,960.0,8.85,42.8,71,39.1,23.0,5.5,284.0,77.0,3.9,6,5,7,1,2026-05-30T03:23:18.147693+05:30
Ujjain,Madhya Pradesh,23.1765,75.7885,25.3,74,0.0,951.2,8.55,52.6,79,38.4,23.2,4.7,139.0,60.0,9.1,7,5,7,1,2026-05-30T03:23:18.147700+05:30
Visakhapatnam,Andhra Pradesh,17.6868,83.2185,29.9,87,0.0,999.5,9.0,41.8,122,48.1,39.6,37.9,782.0,77.0,51.0,7,5,7,1,2026-05-30T03:23:18.147706+05:30
Vijayawada,Andhra Pradesh,16.5062,80.648,31.5,58,0.0,998.0,9.05,38.5,83,21.9,19.6,11.1,259.0,66.0,4.1,0,5,7,1,2026-05-30T03:23:18.147713+05:30
Guntur,Andhra Pradesh,16.3067,80.4365,30.9,59,0.0,999.0,8.95,43.2,79,20.0,18.3,13.2,216.0,60.0,4.5,0,5,7,1,2026-05-30T03:23:18.147720+05:30
Nellore,Andhra Pradesh,14.4426,79.9865,29.0,77,0.0,1001.6,7.35,51.8,67,19.6,15.7,7.4,224.0,84.0,4.7,7,5,4,1,2026-05-30T03:23:18.147727+05:30
Kurnool,Andhra Pradesh,15.8281,78.0373,29.1,71,0.0,975.3,8.95,40.0,51,11.8,10.4,10.8,180.0,55.0,7.2,7,5,7,1,2026-05-30T03:23:18.147735+05:30
Kakinada,Andhra Pradesh,16.9891,82.2475,30.5,78,0.0,1003.0,8.6,36.7,92,28.8,21.9,3.5,292.0,142.0,4.2,3,5,4,1,2026-05-30T03:23:18.147741+05:30
Tirupati,Andhra Pradesh,13.6288,79.4192,28.4,59,0.0,987.8,7.85,36.7,64,19.6,16.2,12.1,202.0,61.0,2.4,4,5,7,1,2026-05-30T03:23:18.147748+05:30
Warangal,Telangana,17.9689,79.5941,31.2,50,0.0,974.6,9.05,45.7,80,29.6,27.5,20.1,329.0,59.0,6.8,0,5,7,1,2026-05-30T03:23:18.147754+05:30
Nizamabad,Telangana,18.6725,78.0941,29.9,46,0.0,961.8,9.0,39.6,67,31.9,27.9,21.7,371.0,56.0,5.8,4,5,7,1,2026-05-30T03:23:18.147760+05:30
Mysore,Karnataka,12.2958,76.6396,22.2,95,0.0,928.1,8.55,40.7,31,6.3,5.9,8.2,154.0,45.0,2.2,3,5,7,1,2026-05-30T03:23:18.147766+05:30
Mangalore,Karnataka,12.9141,74.856,23.6,98,0.2,1007.2,6.65,33.1,39,9.5,6.9,5.4,197.0,59.0,1.8,6,5,4,1,2026-05-30T03:23:18.147773+05:30
Hubli-Dharwad,Karnataka,15.3647,75.124,24.0,94,0.0,940.4,8.5,40.3,34,6.3,4.9,4.0,148.0,48.0,1.2,3,5,7,1,2026-05-30T03:23:18.147779+05:30
Belgaum,Karnataka,15.8497,74.4977,23.5,94,0.0,925.4,8.5,41.0,33,7.5,5.6,2.9,147.0,47.0,1.3,3,5,7,1,2026-05-30T03:23:21.416253+05:30
Coimbatore,Tamil Nadu,11.0168,76.9558,24.5,88,0.0,961.1,8.45,50.4,24,4.6,3.9,4.7,135.0,46.0,2.2,3,5,7,1,2026-05-30T03:23:21.416306+05:30
Madurai,Tamil Nadu,9.9252,78.1198,28.4,68,0.0,992.2,8.35,29.9,64,24.6,23.7,42.0,148.0,2.0,6.3,7,5,7,1,2026-05-30T03:23:21.416318+05:30
Trichy,Tamil Nadu,10.7905,78.7047,28.5,71,0.0,998.3,7.95,45.4,43,4.7,4.4,8.2,138.0,40.0,3.4,7,5,7,1,2026-05-30T03:23:21.416326+05:30
Salem,Tamil Nadu,11.6643,78.146,24.8,86,0.0,976.8,8.15,47.5,55,21.9,19.1,23.6,194.0,37.0,7.9,3,5,7,1,2026-05-30T03:23:21.416334+05:30
Tirunelveli,Tamil Nadu,8.7139,77.7567,28.2,68,0.0,1002.4,8.2,41.0,19,5.2,4.6,6.8,142.0,30.0,2.1,7,5,4,1,2026-05-30T03:23:21.416342+05:30
Vellore,Tamil Nadu,12.9165,79.1325,27.6,68,0.0,981.7,9.05,43.6,65,21.8,19.3,13.1,219.0,58.0,3.1,7,5,7,1,2026-05-30T03:23:21.416350+05:30
Erode,Tamil Nadu,11.341,77.7172,25.9,89,0.0,988.3,8.9,45.4,35,9.5,8.7,13.9,229.0,32.0,3.7,7,5,7,1,2026-05-30T03:23:21.416357+05:30
Kochi,Kerala,9.9312,76.2673,25.0,94,0.0,1009.9,7.55,32.0,38,10.2,8.7,11.5,179.0,30.0,3.3,7,0,4,1,2026-05-30T03:23:21.416365+05:30
Thiruvananthapuram,Kerala,8.5241,76.9366,23.5,99,0.1,1009.5,7.6,41.0,20,9.4,4.7,1.7,135.0,44.0,0.6,6,0,4,1,2026-05-30T03:23:21.416372+05:30
Kozhikode,Kerala,11.2588,75.7804,24.4,99,0.0,1008.7,8.1,37.1,28,5.8,3.6,1.1,152.0,61.0,0.5,3,0,4,1,2026-05-30T03:23:21.416379+05:30
Thrissur,Kerala,10.5276,76.2144,24.0,99,0.0,1008.2,7.35,35.3,41,10.3,9.1,11.2,195.0,29.0,4.0,3,0,4,1,2026-05-30T03:23:21.416386+05:30
Kannur,Kerala,11.8745,75.3704,24.3,98,0.0,1007.8,7.75,33.5,29,7.2,5.8,6.8,182.0,42.0,1.9,3,5,4,1,2026-05-30T03:23:21.416393+05:30
Patna,Bihar,25.5941,85.1376,23.5,90,0.0,999.2,8.75,33.1,94,48.8,43.9,17.2,366.0,78.0,15.5,3,5,7,1,2026-05-30T03:23:21.416400+05:30
Gaya,Bihar,24.7914,85.0002,24.2,88,0.0,992.0,8.8,24.8,99,50.4,44.9,15.9,406.0,76.0,27.8,3,5,7,1,2026-05-30T03:23:21.416407+05:30
Muzaffarpur,Bihar,26.1209,85.3647,24.0,89,0.0,999.4,8.75,34.9,101,58.3,50.9,20.5,415.0,64.0,14.3,3,5,7,1,2026-05-30T03:23:21.416415+05:30
Bhagalpur,Bihar,25.2425,87.0117,24.2,90,0.0,1000.1,8.75,25.2,102,47.0,36.4,10.7,358.0,111.0,13.2,3,5,4,1,2026-05-30T03:23:21.416421+05:30
Ranchi,Jharkhand,23.3441,85.3096,21.4,96,0.0,935.5,9.25,31.7,109,78.0,64.5,18.3,332.0,78.0,13.3,3,5,7,1,2026-05-30T03:23:21.416429+05:30
Jamshedpur,Jharkhand,22.8046,86.2029,24.2,92,0.0,989.3,9.05,28.4,111,87.8,68.0,36.1,431.0,32.0,17.6,3,5,7,1,2026-05-30T03:23:21.416436+05:30
Dhanbad,Jharkhand,23.7957,86.4304,22.8,89,0.0,978.6,9.0,28.8,154,115.3,102.0,57.5,806.0,29.0,148.8,3,5,7,1,2026-05-30T03:23:21.416443+05:30
Bokaro,Jharkhand,23.6693,86.1511,23.0,93,0.0,982.5,9.05,25.9,153,125.7,109.9,68.8,1047.0,11.0,165.4,3,5,7,1,2026-05-30T03:23:21.416450+05:30
Bhubaneswar,Odisha,20.2961,85.8245,28.0,92,0.0,999.8,9.0,38.2,105,51.8,43.5,15.7,348.0,61.0,6.6,7,5,7,1,2026-05-30T03:23:21.416456+05:30
Cuttack,Odisha,20.4625,85.8828,27.6,91,0.0,1001.7,9.05,37.1,105,51.8,43.5,15.7,384.0,61.0,6.6,7,5,4,1,2026-05-30T03:23:21.416463+05:30
Rourkela,Odisha,22.2604,84.8536,26.5,85,0.0,982.7,8.95,48.2,130,92.2,77.5,34.8,352.0,50.0,26.0,7,5,7,1,2026-05-30T03:23:21.416470+05:30
Raipur,Chhattisgarh,21.2514,81.6296,30.0,56,0.0,970.3,8.95,47.2,97,60.3,46.6,23.0,380.0,86.0,29.1,4,5,7,1,2026-05-30T03:23:21.416476+05:30
Bhilai,Chhattisgarh,21.1938,81.3509,29.8,55,0.0,970.8,8.95,70.6,83,46.8,38.1,34.0,479.0,46.0,40.2,4,5,7,1,2026-05-30T03:23:21.416482+05:30
Guwahati,Assam,26.1158,91.7086,23.9,91,0.0,1000.0,8.75,17.6,126,63.8,54.4,21.0,386.0,12.0,1.1,3,5,4,1,2026-05-30T03:23:21.416488+05:30
Agartala,Tripura,23.8315,91.2868,23.8,97,0.0,1004.8,8.85,21.6,153,123.4,105.9,81.0,476.0,11.0,10.2,3,5,4,1,2026-05-30T03:23:21.416495+05:30
Shillong,Meghalaya,25.5788,91.8933,17.9,62,0.0,855.7,8.65,23.0,82,32.0,25.2,11.5,221.0,36.0,1.2,3,5,7,0,2026-05-30T03:23:21.416501+05:30
Imphal,Manipur,24.817,93.9368,22.4,90,0.1,922.2,9.25,22.3,132,88.7,67.1,34.6,423.0,7.0,4.8,6,5,7,1,2026-05-30T03:23:21.416508+05:30
Aizawl,Mizoram,23.7271,92.7176,20.3,90,0.0,890.3,8.15,16.9,92,70.3,38.1,17.7,337.0,38.0,3.5,3,5,7,1,2026-05-30T03:23:21.416515+05:30
Kohima,Nagaland,25.6701,94.1077,17.0,90,0.0,853.9,8.7,24.5,99,48.3,34.1,12.0,254.0,28.0,0.8,3,10,7,0,2026-05-30T03:23:21.416522+05:30
Gangtok,Sikkim,27.3314,88.6138,15.3,82,0.0,836.8,9.0,32.4,65,35.5,26.6,15.1,595.0,55.0,1.7,3,10,7,0,2026-05-30T03:23:21.416528+05:30
Siliguri,West Bengal,26.7271,88.3953,22.9,95,0.1,993.0,8.7,40.0,117,80.8,57.0,22.5,532.0,88.0,6.5,6,5,7,1,2026-05-30T03:23:24.704338+05:30
Durgapur,West Bengal,23.5204,87.3119,22.1,99,0.0,994.0,8.95,17.3,149,84.1,75.4,40.9,787.0,50.0,36.7,3,5,7,1,2026-05-30T03:23:24.704375+05:30
Asansol,West Bengal,23.6739,86.9524,22.8,93,0.0,992.6,8.95,26.3,150,93.4,82.7,46.1,628.0,41.0,50.6,3,5,7,1,2026-05-30T03:23:24.704386+05:30
Pondicherry,Puducherry,11.9139,79.8145,28.5,83,0.0,1005.8,8.9,57.6,68,21.5,18.4,17.2,297.0,53.0,9.5,7,5,4,1,2026-05-30T03:23:24.704395+05:30
Port Blair,Andaman and Nicobar Islands,11.6234,92.7265,26.7,90,0.0,1005.5,8.8,33.5,31,12.5,7.1,0.2,116.0,73.0,0.5,7,5,4,1,2026-05-30T03:23:24.704403+05:30
Haridwar,Uttarakhand,29.9457,78.1642,23.9,69,0.0,972.7,7.5,25.2,95,42.4,33.9,11.0,433.0,96.0,4.7,3,5,7,1,2026-05-30T03:23:24.704411+05:30
Rishikesh,Uttarakhand,30.0869,78.2676,21.9,82,0.0,965.3,7.6,36.0,120,52.4,35.2,6.6,519.0,135.0,4.2,3,5,7,1,2026-05-30T03:23:24.704418+05:30
Nainital,Uttarakhand,29.3919,79.4542,11.4,87,0.0,802.7,7.85,27.0,67,21.8,14.8,10.8,321.0,96.0,1.6,3,10,7,0,2026-05-30T03:23:24.704425+05:30
Mussoorie,Uttarakhand,30.4599,78.0664,11.3,90,0.0,800.3,7.75,26.6,98,54.9,38.2,12.1,288.0,119.0,3.5,3,10,7,0,2026-05-30T03:23:24.704432+05:30
Dharamshala,Himachal Pradesh,32.219,76.3234,20.4,49,0.0,868.1,7.9,36.7,62,22.9,12.3,13.9,296.0,45.0,0.1,0,5,7,0,2026-05-30T03:23:24.704439+05:30
Dalhousie,Himachal Pradesh,32.5387,75.971,11.8,71,0.0,801.3,8.4,34.6,113,58.1,32.8,43.3,304.0,20.0,1.7,3,5,7,0,2026-05-30T03:23:24.704447+05:30
Patiala,Punjab,30.3398,76.3869,27.4,46,0.0,975.8,7.55,49.0,1372,2294.8,271.0,4.6,321.0,142.0,9.7,4,5,7,0,2026-05-30T03:23:24.704453+05:30
Bhatinda,Punjab,30.211,74.9455,29.0,56,0.0,979.8,7.7,59.8,689,750.6,192.3,7.9,351.0,123.0,13.3,4,5,7,1,2026-05-30T03:23:24.704460+05:30
Rohtak,Haryana,28.8955,76.6066,27.0,69,0.0,978.7,6.95,66.6,764,1009.6,163.9,25.9,445.0,75.0,22.7,7,5,7,1,2026-05-30T03:23:24.704467+05:30
Panipat,Haryana,29.3909,76.9635,27.0,51,0.0,978.0,7.5,52.6,1512,530.9,92.4,10.9,318.0,107.0,13.6,4,5,7,1,2026-05-30T03:23:24.704473+05:30
Mathura,Uttar Pradesh,27.4924,77.6737,26.1,69,0.0,984.4,7.9,68.4,374,169.5,49.8,9.8,332.0,94.0,5.8,7,5,7,1,2026-05-30T03:23:24.704480+05:30
Vrindavan,Uttar Pradesh,27.5823,77.7027,26.3,68,0.0,984.9,7.85,68.8,374,169.5,49.8,9.8,334.0,94.0,5.8,7,5,7,1,2026-05-30T03:23:24.704487+05:30
Ayodhya,Uttar Pradesh,26.7922,82.1998,23.5,83,0.0,994.2,7.8,35.3,92,30.2,26.4,16.8,431.0,77.0,6.2,3,5,7,1,2026-05-30T03:23:24.704493+05:30
Ratlam,Madhya Pradesh,23.3315,75.0367,27.3,77,0.0,952.3,8.45,43.9,78,37.8,22.4,5.6,133.0,50.0,9.6,7,5,7,1,2026-05-30T03:23:24.704500+05:30
Sagar,Madhya Pradesh,23.8388,78.7378,25.3,75,0.0,947.0,8.65,41.8,71,49.5,27.4,6.2,233.0,77.0,4.4,7,5,7,1,2026-05-30T03:23:24.704507+05:30
Satna,Madhya Pradesh,24.6005,80.8322,26.1,69,0.1,969.8,8.75,37.1,98,44.9,36.6,6.6,330.0,133.0,14.2,10,5,7,1,2026-05-30T03:23:24.704514+05:30
Akola,Maharashtra,20.7002,77.0082,30.5,51,0.0,972.8,8.8,48.2,68,40.3,21.3,7.3,157.0,58.0,6.8,0,5,7,1,2026-05-30T03:23:24.704522+05:30
Amravati,Maharashtra,20.9374,77.7796,32.0,27,0.0,964.9,8.8,49.3,67,42.8,22.2,7.4,150.0,64.0,6.8,0,5,7,0,2026-05-30T03:23:24.704530+05:30
Latur,Maharashtra,18.4088,76.5604,27.6,62,0.0,938.0,8.95,39.2,49,18.8,14.6,6.2,173.0,83.0,7.5,7,5,7,1,2026-05-30T03:23:24.704537+05:30
Nanded,Maharashtra,19.1383,77.3091,31.6,40,0.0,966.3,8.9,40.3,63,23.7,18.4,11.8,158.0,63.0,5.0,0,5,7,1,2026-05-30T03:23:24.704543+05:30
Gulbarga,Karnataka,17.3297,76.8343,28.6,60,0.0,957.2,8.95,40.3,40,11.5,8.9,6.3,147.0,53.0,2.7,4,5,7,1,2026-05-30T03:23:24.704549+05:30
Bidar,Karnataka,17.9104,77.5199,27.9,57,0.0,933.6,9.0,34.9,59,16.1,13.5,12.6,197.0,65.0,3.7,4,5,7,1,2026-05-30T03:23:24.704556+05:30
Hospet,Karnataka,15.2689,76.3909,25.2,88,0.0,955.1,8.75,42.5,39,6.0,5.2,5.4,141.0,48.0,1.5,7,5,7,1,2026-05-30T03:23:24.704563+05:30
Tirupur,Tamil Nadu,11.1085,77.3411,25.9,82,0.0,974.4,8.5,50.4,37,11.1,10.2,15.4,133.0,32.0,4.0,7,5,7,1,2026-05-30T03:23:24.704570+05:30
Alappuzha,Kerala,9.4981,76.3388,24.6,97,0.1,1010.1,7.85,27.7,29,8.4,6.3,6.9,157.0,43.0,1.4,6,0,4,1,2026-05-30T03:23:24.704576+05:30
Munnar,Kerala,10.0889,77.0595,17.9,100,0.2,856.7,8.7,28.1,21,6.3,6.0,8.5,107.0,25.0,1.7,6,10,7,1,2026-05-30T03:23:24.704583+05:30
Silchar,Assam,24.8333,92.7789,24.9,93,0.0,1002.4,8.9,24.1,151,84.5,69.4,28.1,1021.0,7.0,3.9,3,5,4,1,2026-05-30T03:23:24.704590+05:30
Dibrugarh,Assam,27.4728,94.912,26.4,89,0.0,993.7,7.45,16.9,133,74.3,55.4,35.1,812.0,5.0,1.8,7,5,7,1,2026-05-30T03:23:24.704596+05:30
