city,state,latitude,longitude,temp,humidity,rain,pressure,uv_index,wind_gusts,aqi,pm10,pm2_5,mosquito_risk,arthritis_risk,migraine_risk,frizz_risk,updated_at
Delhi,Delhi,28.6139,77.209,18.3,60,0.0,983.2,5.7,29.2,161,205.8,69.8,0,5,3,0,2026-03-01T02:54:46.841241+05:30
Mumbai,Maharashtra,19.076,72.8777,26.0,68,0.0,1008.2,7.25,20.9,69,28.5,21.1,7,0,4,1,2026-03-01T02:54:46.841282+05:30
Bangalore,Karnataka,12.9716,77.5946,20.2,77,0.0,909.0,9.05,24.1,115,62.2,61.2,3,5,7,0,2026-03-01T02:54:46.841297+05:30
Hyderabad,Telangana,17.385,78.4867,22.4,78,0.0,951.3,8.3,23.4,108,45.5,44.8,3,5,7,1,2026-03-01T02:54:46.841306+05:30
Chennai,Tamil Nadu,13.0827,80.2707,23.9,91,0.0,1006.1,8.8,32.8,143,54.4,50.3,3,5,4,1,2026-03-01T02:54:46.841315+05:30
Kolkata,West Bengal,22.5726,88.3639,22.2,97,0.0,1005.2,7.6,22.3,107,20.5,18.7,3,5,4,1,2026-03-01T02:54:46.841323+05:30
Pune,Maharashtra,18.5204,73.8567,16.4,95,0.0,946.5,7.85,36.7,64,38.4,35.6,3,10,7,0,2026-03-01T02:54:46.841335+05:30
Ahmedabad,Gujarat,23.0225,72.5714,21.8,59,0.0,1002.4,7.05,19.4,83,76.8,71.0,0,5,4,0,2026-03-01T02:54:46.841343+05:30
Jaipur,Rajasthan,26.9124,75.7873,20.9,55,0.0,959.3,6.45,26.3,78,101.5,37.8,0,5,7,0,2026-03-01T02:54:46.841351+05:30
Lucknow,Uttar Pradesh,26.8467,80.9462,18.2,67,0.0,992.8,6.2,37.4,147,126.7,64.0,3,5,7,0,2026-03-01T02:54:46.841358+05:30
Kanpur,Uttar Pradesh,26.4499,80.3319,17.7,72,0.0,991.0,6.2,32.4,142,116.2,65.4,3,5,7,0,2026-03-01T02:54:46.841365+05:30
Chandigarh,Chandigarh,30.7333,76.7794,15.3,66,0.0,968.4,5.6,32.8,96,47.4,36.8,3,5,3,0,2026-03-01T02:54:46.841372+05:30
Srinagar,Jammu and Kashmir,34.0837,74.7973,3.7,75,0.0,836.4,6.45,15.1,120,88.9,71.5,3,5,7,1,2026-03-01T02:54:46.841378+05:30
Jammu,Jammu and Kashmir,32.7266,74.857,16.1,68,0.0,972.8,6.15,24.8,94,50.3,44.2,3,5,7,0,2026-03-01T02:54:46.841385+05:30
Amritsar,Punjab,31.634,74.8723,16.5,74,0.0,981.3,6.1,21.2,151,74.5,51.1,3,5,7,0,2026-03-01T02:54:46.841392+05:30
Ludhiana,Punjab,30.901,75.8573,17.6,71,0.0,979.1,5.85,27.7,158,106.4,91.5,3,5,3,0,2026-03-01T02:54:46.841398+05:30
Jalandhar,Punjab,31.326,75.5762,16.4,75,0.0,980.2,5.95,23.8,153,118.7,100.1,3,5,3,0,2026-03-01T02:54:46.841407+05:30
Dehradun,Uttarakhand,30.6284,78.0322,8.8,50,0.0,825.8,5.95,34.2,65,32.5,23.0,0,5,3,1,2026-03-01T02:54:46.841415+05:30
Shimla,Himachal Pradesh,31.1048,77.1734,6.3,58,0.0,778.7,6.0,50.4,68,53.9,27.1,0,5,3,1,2026-03-01T02:54:46.841422+05:30
Manali,Himachal Pradesh,32.2396,77.1887,10.2,25,0.0,815.3,7.3,30.2,42,21.4,14.9,0,5,7,1,2026-03-01T02:54:46.841428+05:30
Gurgaon,Haryana,28.4595,77.0266,14.4,75,0.0,981.4,5.8,27.0,164,365.1,88.0,3,5,3,0,2026-03-01T02:54:46.841435+05:30
Noida,Uttar Pradesh,28.5355,77.391,18.1,61,0.0,984.8,5.75,28.8,164,365.1,88.0,3,5,3,0,2026-03-01T02:54:46.841442+05:30
Ghaziabad,Uttar Pradesh,28.6692,77.4538,16.5,69,0.0,982.8,5.7,26.6,157,163.4,58.8,3,5,3,0,2026-03-01T02:54:46.841449+05:30
Faridabad,Haryana,28.4089,77.3178,14.8,75,0.0,983.8,5.75,25.9,164,365.1,88.0,3,5,3,0,2026-03-01T02:54:46.841455+05:30
Meerut,Uttar Pradesh,28.9845,77.7064,15.2,76,0.0,981.4,5.6,31.7,157,163.4,58.8,3,5,3,0,2026-03-01T02:54:46.841463+05:30
Agra,Uttar Pradesh,27.1767,78.0081,17.2,73,0.0,987.9,6.05,20.9,140,221.7,63.1,3,5,7,0,2026-03-01T02:54:46.841470+05:30
Varanasi,Uttar Pradesh,25.3176,82.9739,18.6,72,0.0,996.7,6.85,28.4,110,68.7,58.8,3,5,7,0,2026-03-01T02:54:46.841479+05:30
Prayagraj,Uttar Pradesh,25.4358,81.8463,19.2,68,0.0,995.3,6.75,27.7,126,89.2,60.3,3,5,7,0,2026-03-01T02:54:46.841486+05:30
Gorakhpur,Uttar Pradesh,26.7606,83.3732,16.7,79,0.0,995.9,6.55,31.7,124,65.9,41.6,3,5,7,0,2026-03-01T02:54:46.841492+05:30
Bareilly,Uttar Pradesh,28.367,79.4304,15.4,78,0.0,986.3,5.85,34.6,150,69.6,52.2,3,5,3,0,2026-03-01T02:54:46.841501+05:30
Aligarh,Uttar Pradesh,27.8974,78.088,14.4,74,0.0,985.6,5.8,28.4,155,297.1,74.3,3,5,3,0,2026-03-01T02:54:46.841507+05:30
Moradabad,Uttar Pradesh,28.8386,78.7733,15.1,78,0.0,983.3,5.7,33.1,150,76.4,47.0,3,5,3,0,2026-03-01T02:54:46.841513+05:30
Saharanpur,Uttar Pradesh,29.9637,77.546,14.4,82,0.0,975.3,5.35,40.3,145,97.6,72.9,3,10,3,0,2026-03-01T02:54:46.841519+05:30
Jhansi,Uttar Pradesh,25.4484,78.5685,17.2,68,0.0,977.0,6.65,25.6,81,13.8,12.0,3,5,7,0,2026-03-01T02:54:50.107973+05:30
Surat,Gujarat,21.1702,72.8311,23.2,81,0.0,1006.7,6.95,25.9,90,36.6,28.2,3,5,4,1,2026-03-01T02:54:50.108005+05:30
Vadodara,Gujarat,22.3072,73.1812,21.9,76,0.0,1004.5,7.1,14.0,95,53.4,50.3,3,5,4,1,2026-03-01T02:54:50.108017+05:30
Rajkot,Gujarat,22.3039,70.8022,20.4,86,0.0,994.9,6.9,22.3,62,58.9,18.5,3,5,7,1,2026-03-01T02:54:50.108027+05:30
Thane,Maharashtra,19.2183,72.9781,22.1,86,0.0,1007.8,7.25,34.2,69,28.5,21.1,3,5,4,1,2026-03-01T02:54:50.108035+05:30
Nagpur,Maharashtra,21.1458,79.0882,21.1,77,0.0,971.5,7.65,25.9,150,47.1,46.7,3,5,7,1,2026-03-01T02:54:50.108043+05:30
Nashik,Maharashtra,19.9975,73.7898,18.8,74,0.0,944.4,7.45,26.6,62,38.1,35.0,3,5,7,0,2026-03-01T02:54:50.108051+05:30
Aurangabad,Maharashtra,19.8762,75.3433,20.5,67,0.0,942.6,8.0,26.3,55,24.0,21.5,3,5,7,0,2026-03-01T02:54:50.108059+05:30
Solapur,Maharashtra,17.6599,75.9064,21.5,69,0.0,955.2,8.25,19.1,63,34.7,34.3,3,5,7,0,2026-03-01T02:54:50.108068+05:30
Kolhapur,Maharashtra,16.705,74.2433,16.0,81,0.0,945.2,8.35,40.0,53,21.9,18.8,3,10,7,0,2026-03-01T02:54:50.108076+05:30
Goa,Goa,15.2993,74.124,22.5,86,0.0,996.5,8.4,35.3,44,24.9,19.2,3,5,7,1,2026-03-01T02:54:50.108085+05:30
Jodhpur,Rajasthan,26.2389,73.0243,20.2,62,0.0,982.3,6.75,20.2,79,67.5,27.3,3,5,7,0,2026-03-01T02:54:50.108093+05:30
Udaipur,Rajasthan,24.5854,73.7125,16.4,66,0.0,945.4,7.35,29.2,69,29.9,21.7,3,5,7,0,2026-03-01T02:54:50.108100+05:30
Kota,Rajasthan,25.2138,75.8648,18.1,69,0.0,978.0,6.8,20.9,69,32.9,31.8,3,5,7,0,2026-03-01T02:54:50.108107+05:30
Bikaner,Rajasthan,28.0229,73.3119,21.5,46,0.0,981.8,6.45,14.4,63,42.3,20.7,0,5,7,0,2026-03-01T02:54:50.108113+05:30
Ajmer,Rajasthan,26.4499,74.6399,19.2,53,0.0,953.7,6.7,22.7,63,49.5,26.8,0,5,7,0,2026-03-01T02:54:50.108120+05:30
Gwalior,Madhya Pradesh,26.2183,78.1828,18.8,63,0.0,982.8,6.35,26.6,82,54.8,37.1,3,5,7,0,2026-03-01T02:54:50.108127+05:30
Indore,Madhya Pradesh,22.7196,75.8577,16.6,78,0.0,946.7,7.35,21.2,70,38.5,37.4,3,5,7,0,2026-03-01T02:54:50.108133+05:30
Bhopal,Madhya Pradesh,23.2599,77.4126,17.2,76,0.0,952.4,7.2,23.0,81,21.5,20.7,3,5,7,0,2026-03-01T02:54:50.108141+05:30
Jabalpur,Madhya Pradesh,23.1815,79.9864,23.1,54,0.0,960.2,7.3,33.1,120,28.8,28.5,0,5,7,0,2026-03-01T02:54:50.108147+05:30
Ujjain,Madhya Pradesh,23.1765,75.7885,16.4,78,0.0,952.6,7.25,20.5,83,39.2,37.7,3,5,7,0,2026-03-01T02:54:50.108155+05:30
Visakhapatnam,Andhra Pradesh,17.6868,83.2185,23.9,88,0.0,1003.3,8.3,40.7,102,58.1,55.1,3,5,4,1,2026-03-01T02:54:50.108161+05:30
Vijayawada,Andhra Pradesh,16.5062,80.648,23.7,91,0.0,1001.8,8.4,26.3,132,60.1,57.9,3,5,4,1,2026-03-01T02:54:50.108168+05:30
Guntur,Andhra Pradesh,16.3067,80.4365,24.0,90,0.0,1002.9,8.4,29.9,122,56.7,55.1,3,5,4,1,2026-03-01T02:54:50.108175+05:30
Nellore,Andhra Pradesh,14.4426,79.9865,23.3,91,0.0,1004.5,8.6,30.6,119,52.2,50.6,3,5,4,1,2026-03-01T02:54:50.108182+05:30
Kurnool,Andhra Pradesh,15.8281,78.0373,25.1,60,0.0,974.7,8.4,24.1,95,38.2,37.7,4,5,7,1,2026-03-01T02:54:50.108189+05:30
Kakinada,Andhra Pradesh,16.9891,82.2475,22.7,94,0.0,1007.0,8.35,35.3,114,63.3,58.8,3,5,4,1,2026-03-01T02:54:50.108196+05:30
Tirupati,Andhra Pradesh,13.6288,79.4192,21.7,75,0.0,990.4,8.75,26.3,136,68.7,67.5,3,5,7,1,2026-03-01T02:54:50.108203+05:30
Warangal,Telangana,17.9689,79.5941,23.5,79,0.0,977.0,8.1,29.9,119,46.3,45.6,3,5,7,1,2026-03-01T02:54:50.108209+05:30
Nizamabad,Telangana,18.6725,78.0941,24.5,65,0.0,962.8,8.0,18.7,107,42.4,42.0,3,5,7,1,2026-03-01T02:54:50.108215+05:30
Mysore,Karnataka,12.2958,76.6396,20.9,89,0.0,925.8,9.1,34.6,117,31.4,31.1,3,5,7,1,2026-03-01T02:54:50.108221+05:30
Mangalore,Karnataka,12.9141,74.856,27.8,73,0.0,1004.8,8.65,32.0,47,16.8,12.9,7,5,4,1,2026-03-01T02:54:50.108228+05:30
Hubli-Dharwad,Karnataka,15.3647,75.124,18.6,73,0.0,938.3,8.6,35.6,54,13.8,11.4,3,5,7,0,2026-03-01T02:54:50.108234+05:30
Belgaum,Karnataka,15.8497,74.4977,18.5,56,0.0,922.5,8.65,40.7,46,23.7,19.4,0,5,7,0,2026-03-01T02:54:53.377365+05:30
Coimbatore,Tamil Nadu,11.0168,76.9558,21.3,92,0.0,959.8,9.1,32.4,130,45.9,45.4,3,5,7,1,2026-03-01T02:54:53.377394+05:30
Madurai,Tamil Nadu,9.9252,78.1198,22.9,93,0.0,991.5,9.0,28.4,144,65.9,64.7,3,5,7,1,2026-03-01T02:54:53.377404+05:30
Trichy,Tamil Nadu,10.7905,78.7047,22.7,93,0.0,998.4,8.95,25.9,147,60.1,57.9,3,5,7,1,2026-03-01T02:54:53.377413+05:30
Salem,Tamil Nadu,11.6643,78.146,24.2,82,0.0,975.8,8.95,27.4,127,56.7,55.5,3,5,7,1,2026-03-01T02:54:53.377420+05:30
Tirunelveli,Tamil Nadu,8.7139,77.7567,23.9,87,0.0,1001.3,9.05,43.2,140,62.9,62.2,3,5,4,1,2026-03-01T02:54:53.377427+05:30
Vellore,Tamil Nadu,12.9165,79.1325,20.9,81,0.0,983.4,8.85,37.1,151,79.4,78.0,3,5,7,1,2026-03-01T02:54:53.377434+05:30
Erode,Tamil Nadu,11.341,77.7172,24.6,75,0.0,987.7,8.95,27.7,114,52.7,51.6,3,5,7,1,2026-03-01T02:54:53.377441+05:30
Kochi,Kerala,9.9312,76.2673,26.9,80,0.0,1006.7,8.9,39.2,116,42.3,42.0,7,5,4,1,2026-03-01T02:54:53.377448+05:30
Thiruvananthapuram,Kerala,8.5241,76.9366,27.0,84,0.0,1005.5,8.95,25.6,123,36.2,36.0,7,5,4,1,2026-03-01T02:54:53.377455+05:30
Kozhikode,Kerala,11.2588,75.7804,27.9,76,0.0,1005.6,8.75,32.4,68,18.6,14.0,7,5,4,1,2026-03-01T02:54:53.377462+05:30
Thrissur,Kerala,10.5276,76.2144,25.1,89,0.0,1004.9,8.85,40.3,123,55.9,55.5,7,5,4,1,2026-03-01T02:54:53.377470+05:30
Kannur,Kerala,11.8745,75.3704,26.5,79,0.0,1004.9,8.75,37.1,52,13.9,11.1,7,5,4,1,2026-03-01T02:54:53.377477+05:30
Patna,Bihar,25.5941,85.1376,20.0,69,0.0,999.5,7.0,26.3,119,56.5,48.4,3,5,7,0,2026-03-01T02:54:53.377484+05:30
Gaya,Bihar,24.7914,85.0002,21.9,53,0.0,992.9,7.1,15.5,83,51.8,46.4,0,5,7,0,2026-03-01T02:54:53.377490+05:30
Muzaffarpur,Bihar,26.1209,85.3647,17.5,79,0.0,999.2,6.95,31.3,133,57.2,45.3,3,5,7,0,2026-03-01T02:54:53.377497+05:30
Bhagalpur,Bihar,25.2425,87.0117,19.8,55,0.0,1000.1,7.05,25.2,100,51.6,35.0,0,5,4,0,2026-03-01T02:54:53.377503+05:30
Ranchi,Jharkhand,23.3441,85.3096,19.8,48,0.0,936.3,7.75,22.3,73,47.4,44.4,0,5,7,0,2026-03-01T02:54:53.377509+05:30
Jamshedpur,Jharkhand,22.8046,86.2029,19.5,78,0.0,990.0,7.7,11.2,116,71.5,66.4,3,5,7,0,2026-03-01T02:54:53.377516+05:30
Dhanbad,Jharkhand,23.7957,86.4304,20.2,52,0.0,978.6,7.55,24.1,128,87.3,77.5,0,5,7,0,2026-03-01T02:54:53.377522+05:30
Bokaro,Jharkhand,23.6693,86.1511,20.5,45,0.0,982.9,7.55,23.0,121,84.3,77.8,0,5,7,0,2026-03-01T02:54:53.377528+05:30
Bhubaneswar,Odisha,20.2961,85.8245,23.5,95,0.0,1001.6,8.05,32.0,83,25.7,24.4,3,5,4,1,2026-03-01T02:54:53.377535+05:30
Cuttack,Odisha,20.4625,85.8828,22.9,97,0.0,1003.4,8.05,32.4,83,25.7,24.4,3,5,4,1,2026-03-01T02:54:53.377542+05:30
Rourkela,Odisha,22.2604,84.8536,22.8,52,0.0,983.8,7.6,25.6,89,55.3,53.8,0,5,7,0,2026-03-01T02:54:53.377548+05:30
Raipur,Chhattisgarh,21.2514,81.6296,24.7,56,0.0,973.0,7.7,27.0,157,108.3,107.3,0,5,7,0,2026-03-01T02:54:53.377554+05:30
Bhilai,Chhattisgarh,21.1938,81.3509,22.0,71,0.0,973.1,7.75,28.4,157,102.2,101.3,3,5,7,1,2026-03-01T02:54:53.377561+05:30
Guwahati,Assam,26.1158,91.7086,20.3,85,0.0,1001.4,7.0,32.8,159,77.5,68.9,3,5,4,1,2026-03-01T02:54:53.377567+05:30
Agartala,Tripura,23.8315,91.2868,17.5,88,0.0,1005.4,7.35,22.7,157,50.5,42.6,3,10,4,0,2026-03-01T02:54:53.377574+05:30
Shillong,Meghalaya,25.5788,91.8933,8.3,65,0.0,851.0,7.35,48.6,153,68.5,47.5,3,5,7,0,2026-03-01T02:54:53.377580+05:30
Imphal,Manipur,24.817,93.9368,13.8,68,0.0,920.8,7.55,56.2,141,70.8,57.5,3,5,7,0,2026-03-01T02:54:53.377587+05:30
Aizawl,Mizoram,23.7271,92.7176,13.5,72,0.0,889.8,7.55,41.4,120,56.3,45.8,3,5,7,0,2026-03-01T02:54:53.377594+05:30
Kohima,Nagaland,25.6701,94.1077,11.3,70,0.0,850.9,7.4,72.7,144,60.3,55.2,3,5,7,0,2026-03-01T02:54:53.377601+05:30
Gangtok,Sikkim,27.3314,88.6138,9.4,83,0.0,831.9,5.0,14.0,123,47.6,39.1,3,10,3,0,2026-03-01T02:54:53.377608+05:30
Siliguri,West Bengal,26.7271,88.3953,17.8,57,0.0,992.3,7.0,23.4,168,119.7,102.9,0,5,7,0,2026-03-01T02:54:56.646374+05:30
Durgapur,West Bengal,23.5204,87.3119,19.8,75,0.0,993.9,7.55,26.6,120,80.8,71.5,3,5,7,0,2026-03-01T02:54:56.646403+05:30
Asansol,West Bengal,23.6739,86.9524,21.0,61,0.0,992.5,7.55,22.7,100,67.1,55.8,3,5,7,0,2026-03-01T02:54:56.646412+05:30
Pondicherry,Puducherry,11.9139,79.8145,22.3,99,0.0,1007.4,8.8,28.8,132,50.5,46.6,3,5,4,1,2026-03-01T02:54:56.646420+05:30
Port Blair,Andaman and Nicobar Islands,11.6234,92.7265,27.0,75,0.0,1004.7,8.75,23.0,90,28.8,25.3,7,5,4,1,2026-03-01T02:54:56.646427+05:30
Haridwar,Uttarakhand,29.9457,78.1642,14.7,78,0.0,973.9,5.45,38.2,110,61.7,54.6,3,5,3,0,2026-03-01T02:54:56.646434+05:30
Rishikesh,Uttarakhand,30.0869,78.2676,15.0,69,0.0,966.5,5.5,34.6,96,54.2,41.1,3,5,3,0,2026-03-01T02:54:56.646441+05:30
Nainital,Uttarakhand,29.3919,79.4542,13.6,44,0.0,802.4,6.35,46.1,83,42.5,28.7,0,5,7,0,2026-03-01T02:54:56.646448+05:30
Mussoorie,Uttarakhand,30.4599,78.0664,11.4,58,0.0,798.9,5.85,42.1,95,46.7,39.9,0,5,3,0,2026-03-01T02:54:56.646455+05:30
Dharamshala,Himachal Pradesh,32.219,76.3234,15.7,43,0.0,867.1,6.05,27.0,57,29.4,14.0,0,5,7,0,2026-03-01T02:54:56.646462+05:30
Dalhousie,Himachal Pradesh,32.5387,75.971,12.3,38,0.0,800.7,6.25,28.8,82,46.3,37.6,0,5,7,1,2026-03-01T02:54:56.646470+05:30
Patiala,Punjab,30.3398,76.3869,15.3,86,0.0,978.0,5.55,29.9,158,121.1,75.7,3,10,3,0,2026-03-01T02:54:56.646478+05:30
Bhatinda,Punjab,30.211,74.9455,15.5,82,0.0,984.2,6.2,22.0,152,89.6,61.5,3,10,7,0,2026-03-01T02:54:56.646485+05:30
Rohtak,Haryana,28.8955,76.6066,15.1,75,0.0,981.9,5.7,29.2,164,235.6,77.8,3,5,3,0,2026-03-01T02:54:56.646491+05:30
Panipat,Haryana,29.3909,76.9635,14.8,82,0.0,980.4,5.5,28.8,174,357.6,84.1,3,10,3,0,2026-03-01T02:54:56.646497+05:30
Mathura,Uttar Pradesh,27.4924,77.6737,15.8,72,0.0,986.9,5.95,22.7,141,347.4,81.7,3,5,3,0,2026-03-01T02:54:56.646504+05:30
Vrindavan,Uttar Pradesh,27.5823,77.7027,15.2,73,0.0,987.4,5.95,26.3,141,347.4,81.7,3,5,3,0,2026-03-01T02:54:56.646510+05:30
Ayodhya,Uttar Pradesh,26.7922,82.1998,17.0,77,0.0,994.4,6.35,34.9,133,84.8,51.1,3,5,7,0,2026-03-01T02:54:56.646516+05:30
Ratlam,Madhya Pradesh,23.3315,75.0367,20.1,64,0.0,953.8,7.2,27.0,73,26.7,24.5,3,5,7,0,2026-03-01T02:54:56.646522+05:30
Sagar,Madhya Pradesh,23.8388,78.7378,20.1,61,0.0,948.7,7.15,21.6,71,16.7,16.3,3,5,7,0,2026-03-01T02:54:56.646527+05:30
Satna,Madhya Pradesh,24.6005,80.8322,20.9,55,0.0,970.4,7.1,31.7,84,46.3,42.8,0,5,7,0,2026-03-01T02:54:56.646533+05:30
Akola,Maharashtra,20.7002,77.0082,21.6,63,0.0,974.0,7.7,29.2,91,23.9,22.4,3,5,7,0,2026-03-01T02:54:56.646540+05:30
Amravati,Maharashtra,20.9374,77.7796,22.2,65,0.0,965.7,7.65,26.6,112,29.0,27.9,3,5,7,0,2026-03-01T02:54:56.646547+05:30
Latur,Maharashtra,18.4088,76.5604,21.5,62,0.0,937.0,8.15,21.6,70,34.3,33.8,3,5,7,0,2026-03-01T02:54:56.646553+05:30
Nanded,Maharashtra,19.1383,77.3091,23.2,63,0.0,966.5,7.9,17.6,88,38.8,38.2,3,5,7,0,2026-03-01T02:54:56.646559+05:30
Gulbarga,Karnataka,17.3297,76.8343,23.5,69,0.0,956.1,8.25,15.5,78,34.2,33.9,3,5,7,1,2026-03-01T02:54:56.646564+05:30
Bidar,Karnataka,17.9104,77.5199,23.6,68,0.0,933.1,8.2,20.5,99,41.0,40.6,3,5,7,1,2026-03-01T02:54:56.646570+05:30
Hospet,Karnataka,15.2689,76.3909,24.5,57,0.0,954.1,8.55,24.8,104,25.3,24.9,0,5,7,0,2026-03-01T02:54:56.646576+05:30
Tirupur,Tamil Nadu,11.1085,77.3411,23.5,86,0.0,973.6,9.1,21.2,131,52.7,52.2,3,5,7,1,2026-03-01T02:54:56.646582+05:30
Alappuzha,Kerala,9.4981,76.3388,26.5,85,0.0,1006.7,8.9,36.4,101,38.0,37.4,7,5,4,1,2026-03-01T02:54:56.646588+05:30
Munnar,Kerala,10.0889,77.0595,19.0,91,0.0,853.8,9.4,27.4,115,42.8,41.9,3,10,7,1,2026-03-01T02:54:56.646595+05:30
Silchar,Assam,24.8333,92.7789,16.8,83,0.0,1004.5,7.3,19.4,155,79.2,63.8,3,10,4,0,2026-03-01T02:54:56.646601+05:30
Dibrugarh,Assam,27.4728,94.912,18.8,87,0.0,996.1,7.05,19.1,130,25.2,23.2,3,10,7,1,2026-03-01T02:54:56.646607+05:30
