city,state,latitude,longitude,temp,humidity,rain,pressure,uv_index,wind_gusts,aqi,pm10,pm2_5,no2,co,o3,so2,mosquito_risk,arthritis_risk,migraine_risk,frizz_risk,updated_at
Delhi,Delhi,28.6139,77.209,33.2,49,0.0,978.4,7.7,37.8,487,551.3,105.7,17.1,550.0,181.0,27.7,0,5,7,1,2026-05-29T17:46:24.303413+05:30
Mumbai,Maharashtra,19.076,72.8777,31.8,65,0.0,1006.4,7.8,41.8,62,40.3,20.5,7.3,186.0,67.0,5.8,3,5,4,1,2026-05-29T17:46:24.303456+05:30
Bangalore,Karnataka,12.9716,77.5946,27.6,64,0.1,910.6,7.0,29.5,70,24.7,18.9,37.2,680.0,80.0,5.2,10,5,7,1,2026-05-29T17:46:24.303472+05:30
Hyderabad,Telangana,17.385,78.4867,36.5,29,0.0,950.3,9.1,39.6,83,14.4,11.1,6.1,300.0,133.0,4.2,0,5,10,0,2026-05-29T17:46:24.303481+05:30
Chennai,Tamil Nadu,13.0827,80.2707,34.1,58,0.0,1003.3,8.85,42.1,185,34.3,25.9,7.1,315.0,178.0,9.1,0,5,4,1,2026-05-29T17:46:24.303490+05:30
Kolkata,West Bengal,22.5726,88.3639,26.2,93,0.0,1000.9,8.9,56.9,97,55.1,36.1,8.1,524.0,97.0,7.4,7,5,4,1,2026-05-29T17:46:24.303497+05:30
Pune,Maharashtra,18.5204,73.8567,31.6,47,0.0,946.7,8.4,48.2,45,20.5,13.0,3.2,166.0,105.0,5.5,0,5,7,1,2026-05-29T17:46:24.303504+05:30
Ahmedabad,Gujarat,23.0225,72.5714,41.4,26,0.0,995.0,8.1,47.9,73,55.5,24.0,2.3,151.0,97.0,3.0,0,5,10,1,2026-05-29T17:46:24.303512+05:30
Jaipur,Rajasthan,26.9124,75.7873,38.6,22,0.0,953.7,8.2,54.7,110,207.2,44.0,2.2,227.0,106.0,3.4,0,5,10,0,2026-05-29T17:46:24.303523+05:30
Lucknow,Uttar Pradesh,26.8467,80.9462,33.2,45,0.0,990.8,8.15,47.5,162,61.9,35.0,3.6,335.0,170.0,8.4,0,5,7,1,2026-05-29T17:46:24.303531+05:30
Kanpur,Uttar Pradesh,26.4499,80.3319,35.0,39,0.0,988.3,8.2,37.1,163,196.5,48.0,3.6,293.0,169.0,8.9,0,5,7,1,2026-05-29T17:46:24.303537+05:30
Chandigarh,Chandigarh,30.7333,76.7794,33.9,29,0.0,965.5,7.7,56.9,175,111.1,35.5,4.5,476.0,182.0,9.6,0,5,7,0,2026-05-29T17:46:24.303544+05:30
Srinagar,Jammu and Kashmir,34.0837,74.7973,25.5,29,0.0,841.6,8.9,28.1,114,16.9,8.5,3.0,270.0,147.0,2.0,4,5,7,0,2026-05-29T17:46:24.303551+05:30
Jammu,Jammu and Kashmir,32.7266,74.857,33.0,30,0.0,968.8,8.5,45.7,153,126.7,46.4,4.2,315.0,168.0,5.1,0,5,7,0,2026-05-29T17:46:24.303558+05:30
Amritsar,Punjab,31.634,74.8723,34.5,29,0.0,976.7,8.4,46.1,167,461.0,105.0,3.4,301.0,175.0,9.9,0,5,7,0,2026-05-29T17:46:24.303565+05:30
Ludhiana,Punjab,30.901,75.8573,34.4,33,0.0,974.9,7.95,52.6,527,979.8,153.7,3.0,299.0,176.0,10.6,0,5,7,0,2026-05-29T17:46:24.303572+05:30
Jalandhar,Punjab,31.326,75.5762,34.2,31,0.0,975.6,8.15,47.2,375,855.0,150.4,2.9,294.0,176.0,9.4,0,5,7,0,2026-05-29T17:46:24.303580+05:30
Dehradun,Uttarakhand,30.6284,78.0322,20.0,59,0.0,830.6,8.1,36.0,148,60.8,36.8,6.9,215.0,156.0,3.2,0,5,7,0,2026-05-29T17:46:24.303587+05:30
Shimla,Himachal Pradesh,31.1048,77.1734,18.0,50,0.0,784.9,7.65,30.6,168,69.4,33.9,3.1,372.0,181.0,8.0,0,5,7,0,2026-05-29T17:46:24.303596+05:30
Manali,Himachal Pradesh,32.2396,77.1887,16.4,92,0.0,817.8,9.35,41.4,130,21.1,9.5,5.5,167.0,157.0,0.7,3,10,7,0,2026-05-29T17:46:24.303602+05:30
Gurgaon,Haryana,28.4595,77.0266,30.8,59,0.0,977.0,7.8,40.3,1146,1192.1,168.6,13.4,447.0,151.0,15.1,0,5,7,1,2026-05-29T17:46:24.303609+05:30
Noida,Uttar Pradesh,28.5355,77.391,32.5,53,0.0,979.7,7.7,36.4,1146,1192.1,168.6,13.4,466.0,151.0,15.1,0,5,7,1,2026-05-29T17:46:24.303616+05:30
Ghaziabad,Uttar Pradesh,28.6692,77.4538,32.5,52,0.0,978.4,7.7,40.7,307,275.7,62.4,6.3,277.0,158.0,11.9,0,5,7,1,2026-05-29T17:46:24.303622+05:30
Faridabad,Haryana,28.4089,77.3178,33.0,48,0.0,979.0,7.75,37.4,1146,1192.1,168.6,13.4,467.0,151.0,15.1,0,5,7,1,2026-05-29T17:46:24.303628+05:30
Meerut,Uttar Pradesh,28.9845,77.7064,30.2,58,0.0,978.0,7.6,56.2,307,275.7,62.4,6.3,323.0,158.0,11.9,0,5,7,1,2026-05-29T17:46:24.303636+05:30
Agra,Uttar Pradesh,27.1767,78.0081,35.5,39,0.0,982.8,8.05,63.0,815,1154.8,143.4,5.3,242.0,142.0,6.6,0,5,10,1,2026-05-29T17:46:24.303642+05:30
Varanasi,Uttar Pradesh,25.3176,82.9739,32.3,55,0.0,993.7,8.7,45.7,178,61.0,40.5,4.4,458.0,189.0,13.7,0,5,7,1,2026-05-29T17:46:24.303649+05:30
Prayagraj,Uttar Pradesh,25.4358,81.8463,34.5,43,0.0,991.9,8.6,38.5,175,67.1,39.5,3.9,441.0,176.0,10.3,0,5,7,1,2026-05-29T17:46:24.303655+05:30
Gorakhpur,Uttar Pradesh,26.7606,83.3732,29.1,67,0.0,995.0,8.35,47.5,151,41.6,29.5,5.2,283.0,160.0,8.6,7,5,7,1,2026-05-29T17:46:24.303664+05:30
Bareilly,Uttar Pradesh,28.367,79.4304,32.2,48,0.0,984.3,7.95,48.6,145,103.4,34.9,3.6,291.0,166.0,9.2,0,5,7,1,2026-05-29T17:46:24.303670+05:30
Aligarh,Uttar Pradesh,27.8974,78.088,29.0,67,0.0,981.5,7.85,44.3,575,458.2,85.7,6.3,319.0,156.0,13.1,7,5,7,1,2026-05-29T17:46:24.303677+05:30
Moradabad,Uttar Pradesh,28.8386,78.7733,32.5,46,0.0,981.0,7.8,51.1,156,72.6,31.3,5.4,299.0,167.0,12.1,0,5,7,1,2026-05-29T17:46:24.303683+05:30
Saharanpur,Uttar Pradesh,29.9637,77.546,31.0,50,0.0,972.9,7.45,49.0,154,65.4,30.7,4.4,277.0,161.0,7.8,0,5,7,1,2026-05-29T17:46:24.303689+05:30
Jhansi,Uttar Pradesh,25.4484,78.5685,37.2,33,0.0,973.2,8.45,77.8,88,107.3,34.6,3.1,151.0,112.0,7.2,0,5,10,1,2026-05-29T17:46:27.549558+05:30
Surat,Gujarat,21.1702,72.8311,31.7,65,0.0,1002.7,7.65,58.0,82,53.7,27.2,11.4,179.0,46.0,27.8,3,5,4,1,2026-05-29T17:46:27.549590+05:30
Vadodara,Gujarat,22.3072,73.1812,35.5,48,0.0,998.4,8.05,54.0,78,49.7,27.4,3.8,160.0,98.0,7.9,0,5,10,1,2026-05-29T17:46:27.549601+05:30
Rajkot,Gujarat,22.3039,70.8022,36.4,40,0.0,988.9,7.7,55.8,71,46.1,21.4,1.7,115.0,81.0,3.7,0,5,10,1,2026-05-29T17:46:27.549609+05:30
Thane,Maharashtra,19.2183,72.9781,33.0,57,0.0,1005.6,7.8,40.3,62,40.3,20.5,7.3,174.0,67.0,5.8,0,5,4,1,2026-05-29T17:46:27.549618+05:30
Nagpur,Maharashtra,21.1458,79.0882,41.0,20,0.0,967.7,8.85,53.6,102,32.8,18.0,5.7,160.0,109.0,11.8,0,5,10,0,2026-05-29T17:46:27.549626+05:30
Nashik,Maharashtra,19.9975,73.7898,32.1,41,0.0,943.5,8.1,51.8,56,40.2,17.1,1.7,130.0,76.0,1.0,0,5,7,1,2026-05-29T17:46:27.549634+05:30
Aurangabad,Maharashtra,19.8762,75.3433,37.2,26,0.0,941.1,8.95,45.7,54,27.7,13.6,1.6,141.0,105.0,2.3,0,5,10,0,2026-05-29T17:46:27.549641+05:30
Solapur,Maharashtra,17.6599,75.9064,37.6,26,0.0,954.2,8.95,37.1,49,15.5,8.8,1.9,144.0,119.0,1.7,0,5,10,0,2026-05-29T17:46:27.549649+05:30
Kolhapur,Maharashtra,16.705,74.2433,30.9,53,0.0,946.8,8.8,47.2,42,15.4,9.8,2.6,136.0,89.0,1.6,0,5,7,1,2026-05-29T17:46:27.549657+05:30
Goa,Goa,15.2993,74.124,31.1,69,0.0,996.8,5.5,30.6,52,15.5,10.4,1.2,136.0,58.0,0.9,3,5,3,1,2026-05-29T17:46:27.549665+05:30
Jodhpur,Rajasthan,26.2389,73.0243,40.2,26,0.0,975.3,8.4,49.7,281,414.4,73.1,1.3,138.0,104.0,3.5,0,5,10,1,2026-05-29T17:46:27.549672+05:30
Udaipur,Rajasthan,24.5854,73.7125,35.3,40,0.0,941.4,8.8,52.2,68,57.6,22.8,0.9,120.0,96.0,2.5,0,5,10,1,2026-05-29T17:46:27.549680+05:30
Kota,Rajasthan,25.2138,75.8648,40.1,21,0.0,972.4,8.4,45.0,73,51.7,25.9,2.5,143.0,108.0,5.5,0,5,10,0,2026-05-29T17:46:27.549687+05:30
Bikaner,Rajasthan,28.0229,73.3119,42.3,14,0.0,972.9,8.4,72.4,162,112.2,42.6,0.5,155.0,122.0,2.5,0,5,10,0,2026-05-29T17:46:27.549695+05:30
Ajmer,Rajasthan,26.4499,74.6399,36.8,25,0.0,949.2,8.35,70.9,82,146.2,35.2,1.3,135.0,107.0,2.6,0,5,10,0,2026-05-29T17:46:27.549702+05:30
Gwalior,Madhya Pradesh,26.2183,78.1828,35.6,38,0.0,977.8,8.25,59.0,153,116.9,35.5,2.0,188.0,119.0,5.0,0,5,10,1,2026-05-29T17:46:27.549709+05:30
Indore,Madhya Pradesh,22.7196,75.8577,37.0,29,0.0,943.7,8.6,52.2,72,55.9,27.1,1.9,178.0,109.0,4.5,0,5,10,0,2026-05-29T17:46:27.549716+05:30
Bhopal,Madhya Pradesh,23.2599,77.4126,39.1,22,0.0,948.8,8.65,47.5,67,54.7,25.3,1.3,156.0,105.0,3.6,0,5,10,0,2026-05-29T17:46:27.549724+05:30
Jabalpur,Madhya Pradesh,23.1815,79.9864,39.5,20,0.0,956.4,8.8,33.8,118,43.2,20.1,2.3,144.0,119.0,4.5,0,5,10,0,2026-05-29T17:46:27.549732+05:30
Ujjain,Madhya Pradesh,23.1765,75.7885,37.5,29,0.0,948.9,8.55,51.8,71,52.5,25.3,1.1,142.0,106.0,3.7,0,5,10,1,2026-05-29T17:46:27.549739+05:30
Visakhapatnam,Andhra Pradesh,17.6868,83.2185,34.0,58,0.0,998.2,9.0,49.0,182,49.1,42.5,25.5,681.0,171.0,52.5,0,5,7,1,2026-05-29T17:46:27.549747+05:30
Vijayawada,Andhra Pradesh,16.5062,80.648,38.5,37,0.0,996.7,9.0,51.5,119,30.7,27.0,10.0,219.0,127.0,7.5,0,5,10,1,2026-05-29T17:46:27.549755+05:30
Guntur,Andhra Pradesh,16.3067,80.4365,37.5,39,0.0,998.2,9.0,50.8,113,27.3,21.6,5.8,202.0,134.0,6.8,0,5,10,1,2026-05-29T17:46:27.549762+05:30
Nellore,Andhra Pradesh,14.4426,79.9865,30.2,69,0.0,1002.3,8.95,50.0,98,30.4,22.2,6.8,224.0,143.0,5.5,3,5,4,1,2026-05-29T17:46:27.549771+05:30
Kurnool,Andhra Pradesh,15.8281,78.0373,34.0,50,0.0,974.0,8.65,43.6,63,18.6,12.5,2.6,162.0,136.0,7.9,0,5,7,1,2026-05-29T17:46:27.549779+05:30
Kakinada,Andhra Pradesh,16.9891,82.2475,38.7,40,0.0,1000.7,9.0,59.8,156,28.9,21.0,4.3,349.0,146.0,3.8,0,5,7,1,2026-05-29T17:46:27.549786+05:30
Tirupati,Andhra Pradesh,13.6288,79.4192,31.2,65,0.1,988.4,8.8,35.6,84,25.0,17.0,8.9,256.0,118.0,4.2,6,5,7,1,2026-05-29T17:46:27.549794+05:30
Warangal,Telangana,17.9689,79.5941,36.5,40,0.0,974.1,9.0,42.1,106,31.5,21.1,5.0,227.0,121.0,4.8,0,5,10,1,2026-05-29T17:46:27.549801+05:30
Nizamabad,Telangana,18.6725,78.0941,37.3,31,0.0,960.6,8.95,38.9,101,23.6,14.2,1.8,164.0,138.0,4.6,0,5,10,1,2026-05-29T17:46:27.549808+05:30
Mysore,Karnataka,12.2958,76.6396,26.6,72,0.0,928.0,8.3,47.5,48,9.4,7.2,5.4,198.0,101.0,1.6,7,5,7,1,2026-05-29T17:46:27.549816+05:30
Mangalore,Karnataka,12.9141,74.856,27.1,88,0.1,1006.7,7.9,33.1,45,8.0,5.1,2.5,130.0,65.0,1.1,10,5,4,1,2026-05-29T17:46:27.549824+05:30
Hubli-Dharwad,Karnataka,15.3647,75.124,30.5,59,0.0,939.7,8.5,43.6,42,13.3,9.5,3.1,145.0,83.0,1.1,0,5,7,1,2026-05-29T17:46:27.549832+05:30
Belgaum,Karnataka,15.8497,74.4977,27.4,74,0.0,925.2,8.95,46.4,37,12.2,8.9,2.7,128.0,67.0,1.3,7,5,7,1,2026-05-29T17:46:30.816428+05:30
Coimbatore,Tamil Nadu,11.0168,76.9558,29.0,65,0.0,960.9,8.05,58.0,40,3.7,3.1,4.2,159.0,73.0,1.6,7,5,7,1,2026-05-29T17:46:30.816459+05:30
Madurai,Tamil Nadu,9.9252,78.1198,31.6,61,0.0,990.8,8.75,29.9,65,15.1,10.2,5.4,214.0,111.0,2.3,3,5,7,1,2026-05-29T17:46:30.816470+05:30
Trichy,Tamil Nadu,10.7905,78.7047,34.8,48,0.1,996.5,8.05,37.1,54,16.9,12.2,9.1,199.0,113.0,3.2,3,5,7,1,2026-05-29T17:46:30.816479+05:30
Salem,Tamil Nadu,11.6643,78.146,36.6,31,0.0,974.5,7.6,42.8,101,18.7,12.2,5.1,185.0,139.0,6.8,0,5,10,1,2026-05-29T17:46:30.816488+05:30
Tirunelveli,Tamil Nadu,8.7139,77.7567,33.0,50,0.0,1001.4,8.65,41.4,29,5.3,3.9,3.1,123.0,56.0,1.0,0,5,4,1,2026-05-29T17:46:30.816497+05:30
Vellore,Tamil Nadu,12.9165,79.1325,33.4,49,0.0,981.5,8.6,36.4,92,31.1,21.7,13.0,249.0,99.0,3.6,0,5,7,1,2026-05-29T17:46:30.816505+05:30
Erode,Tamil Nadu,11.341,77.7172,33.2,51,0.0,986.4,8.05,54.7,54,8.8,6.9,5.4,201.0,101.0,2.2,0,5,7,1,2026-05-29T17:46:30.816512+05:30
Kochi,Kerala,9.9312,76.2673,28.1,80,0.0,1009.1,8.05,33.8,43,6.5,4.8,5.5,141.0,54.0,2.5,7,0,4,1,2026-05-29T17:46:30.816520+05:30
Thiruvananthapuram,Kerala,8.5241,76.9366,26.4,88,0.1,1008.9,7.8,38.2,23,10.2,5.2,2.0,134.0,47.0,0.6,10,0,4,1,2026-05-29T17:46:30.816528+05:30
Kozhikode,Kerala,11.2588,75.7804,26.7,95,0.1,1008.3,7.6,38.2,32,5.5,3.3,0.8,154.0,67.0,0.5,10,0,4,1,2026-05-29T17:46:30.816536+05:30
Thrissur,Kerala,10.5276,76.2144,26.8,94,0.1,1007.5,7.8,36.0,44,7.5,5.8,4.8,166.0,59.0,2.1,10,5,4,1,2026-05-29T17:46:30.816544+05:30
Kannur,Kerala,11.8745,75.3704,27.5,88,0.2,1007.4,7.9,35.6,34,6.8,4.4,2.9,120.0,66.0,0.8,10,5,4,1,2026-05-29T17:46:30.816552+05:30
Patna,Bihar,25.5941,85.1376,29.0,74,0.0,997.4,8.75,54.0,108,33.9,27.1,7.1,320.0,168.0,12.8,7,5,7,1,2026-05-29T17:46:30.816559+05:30
Gaya,Bihar,24.7914,85.0002,29.7,64,0.0,990.4,8.85,40.3,122,30.3,25.7,7.1,315.0,154.0,14.0,7,5,7,1,2026-05-29T17:46:30.816566+05:30
Muzaffarpur,Bihar,26.1209,85.3647,29.0,77,0.0,997.6,8.75,43.2,112,43.1,32.7,7.9,311.0,155.0,12.0,7,5,7,1,2026-05-29T17:46:30.816573+05:30
Bhagalpur,Bihar,25.2425,87.0117,29.0,75,0.0,997.9,8.7,34.9,138,58.2,39.7,11.0,340.0,147.0,17.4,7,5,7,1,2026-05-29T17:46:30.816579+05:30
Ranchi,Jharkhand,23.3441,85.3096,27.8,63,0.0,934.9,9.2,50.4,170,50.8,39.9,9.9,671.0,160.0,21.7,7,5,7,1,2026-05-29T17:46:30.816586+05:30
Jamshedpur,Jharkhand,22.8046,86.2029,28.7,76,0.0,987.4,9.05,55.4,134,53.9,36.4,14.4,437.0,105.0,17.4,7,5,7,1,2026-05-29T17:46:30.816593+05:30
Dhanbad,Jharkhand,23.7957,86.4304,28.1,81,0.0,976.4,9.0,36.7,135,70.3,57.0,46.8,399.0,98.0,94.8,7,5,7,1,2026-05-29T17:46:30.816600+05:30
Bokaro,Jharkhand,23.6693,86.1511,29.5,74,0.0,979.9,9.0,36.0,133,68.9,54.4,46.4,558.0,100.0,101.8,7,5,7,1,2026-05-29T17:46:30.816607+05:30
Bhubaneswar,Odisha,20.2961,85.8245,28.6,90,0.0,999.0,9.05,32.4,129,45.9,36.6,4.3,430.0,116.0,6.4,7,5,7,1,2026-05-29T17:46:30.816614+05:30
Cuttack,Odisha,20.4625,85.8828,29.0,89,0.0,1000.7,9.1,30.6,129,45.9,36.6,4.3,320.0,116.0,6.4,7,5,4,1,2026-05-29T17:46:30.816621+05:30
Rourkela,Odisha,22.2604,84.8536,32.5,54,0.0,981.4,8.95,46.1,196,55.9,44.2,7.2,326.0,186.0,19.4,0,5,7,1,2026-05-29T17:46:30.816628+05:30
Raipur,Chhattisgarh,21.2514,81.6296,39.8,21,0.0,969.2,8.9,36.7,146,41.8,27.3,12.7,229.0,146.0,32.2,0,5,10,0,2026-05-29T17:46:30.816635+05:30
Bhilai,Chhattisgarh,21.1938,81.3509,38.9,21,0.0,969.3,8.9,51.8,120,34.0,23.4,14.1,301.0,129.0,28.7,0,5,10,0,2026-05-29T17:46:30.816642+05:30
Guwahati,Assam,26.1158,91.7086,29.4,79,0.0,998.4,8.7,27.7,119,55.5,38.1,5.9,463.0,101.0,2.9,7,5,7,1,2026-05-29T17:46:30.816649+05:30
Agartala,Tripura,23.8315,91.2868,30.6,79,0.0,1002.9,8.8,18.0,184,63.1,41.7,18.4,356.0,167.0,6.0,3,5,4,1,2026-05-29T17:46:30.816656+05:30
Shillong,Meghalaya,25.5788,91.8933,20.7,85,0.0,856.7,9.1,25.9,89,40.3,27.2,6.2,277.0,103.0,2.5,3,5,7,1,2026-05-29T17:46:30.816663+05:30
Imphal,Manipur,24.817,93.9368,27.2,58,0.0,921.1,9.25,19.8,130,73.6,33.8,11.0,416.0,98.0,3.6,4,5,7,1,2026-05-29T17:46:30.816670+05:30
Aizawl,Mizoram,23.7271,92.7176,24.1,74,0.0,891.1,9.05,27.0,82,61.0,31.0,5.5,221.0,83.0,2.7,3,5,7,1,2026-05-29T17:46:30.816677+05:30
Kohima,Nagaland,25.6701,94.1077,21.2,89,0.0,855.1,8.7,28.4,104,46.6,27.7,5.1,257.0,93.0,2.0,3,5,7,1,2026-05-29T17:46:30.816684+05:30
Gangtok,Sikkim,27.3314,88.6138,19.4,75,0.0,837.2,9.0,34.9,92,31.8,18.7,3.2,287.0,127.0,1.7,3,5,7,0,2026-05-29T17:46:30.816691+05:30
Siliguri,West Bengal,26.7271,88.3953,29.7,69,0.0,989.5,8.7,29.9,119,54.4,30.0,5.6,668.0,139.0,3.0,7,5,7,1,2026-05-29T17:46:34.087306+05:30
Durgapur,West Bengal,23.5204,87.3119,26.2,90,0.0,991.4,8.95,50.0,150,66.4,55.4,31.9,453.0,129.0,50.1,7,5,7,1,2026-05-29T17:46:34.087365+05:30
Asansol,West Bengal,23.6739,86.9524,27.4,84,0.0,990.2,8.95,38.2,135,65.4,53.3,32.8,398.0,117.0,53.2,7,5,7,1,2026-05-29T17:46:34.087381+05:30
Pondicherry,Puducherry,11.9139,79.8145,30.5,78,0.0,1005.0,8.8,42.1,136,38.0,29.1,20.0,258.0,143.0,9.9,3,5,4,1,2026-05-29T17:46:34.087390+05:30
Port Blair,Andaman and Nicobar Islands,11.6234,92.7265,27.6,85,0.0,1005.3,8.85,41.0,35,10.7,6.3,0.5,138.0,68.0,0.4,7,5,4,1,2026-05-29T17:46:34.087399+05:30
Haridwar,Uttarakhand,29.9457,78.1642,31.7,45,0.0,971.8,7.5,46.8,158,62.2,27.2,2.5,255.0,169.0,7.7,0,5,7,1,2026-05-29T17:46:34.087408+05:30
Rishikesh,Uttarakhand,30.0869,78.2676,31.1,38,0.0,964.7,7.6,38.2,154,59.6,27.1,1.8,265.0,170.0,6.1,0,5,7,0,2026-05-29T17:46:34.087417+05:30
Nainital,Uttarakhand,29.3919,79.4542,14.6,90,0.0,805.2,8.4,37.4,137,49.1,20.5,1.6,388.0,156.0,5.1,3,10,7,0,2026-05-29T17:46:34.087426+05:30
Mussoorie,Uttarakhand,30.4599,78.0664,17.3,75,0.0,802.9,8.05,34.6,163,54.7,26.5,3.5,266.0,173.0,5.8,3,5,7,0,2026-05-29T17:46:34.087434+05:30
Dharamshala,Himachal Pradesh,32.219,76.3234,21.1,65,0.1,867.8,8.45,33.8,134,75.2,24.0,1.3,262.0,159.0,3.1,6,5,7,0,2026-05-29T17:46:34.087442+05:30
Dalhousie,Himachal Pradesh,32.5387,75.971,19.3,50,0.0,804.6,8.65,34.2,168,160.2,48.0,3.3,264.0,174.0,6.7,0,5,7,0,2026-05-29T17:46:34.087451+05:30
Patiala,Punjab,30.3398,76.3869,33.0,43,0.0,974.3,7.6,51.5,1257,1013.3,137.8,3.0,263.0,184.0,12.4,0,5,7,1,2026-05-29T17:46:34.087459+05:30
Bhatinda,Punjab,30.211,74.9455,30.5,49,0.0,978.7,8.25,54.0,673,575.6,111.5,6.8,230.0,149.0,11.4,0,5,7,1,2026-05-29T17:46:34.087467+05:30
Rohtak,Haryana,28.8955,76.6066,32.0,49,0.0,977.5,7.7,40.0,766,594.2,108.5,9.6,350.0,183.0,16.9,0,5,7,1,2026-05-29T17:46:34.087475+05:30
Panipat,Haryana,29.3909,76.9635,31.1,54,0.0,976.8,7.6,47.2,1608,443.3,88.0,6.8,292.0,190.0,18.0,0,5,7,1,2026-05-29T17:46:34.087482+05:30
Mathura,Uttar Pradesh,27.4924,77.6737,33.0,50,0.1,981.8,7.95,55.1,390,724.6,103.6,5.7,305.0,144.0,6.0,3,5,7,1,2026-05-29T17:46:34.087490+05:30
Vrindavan,Uttar Pradesh,27.5823,77.7027,31.8,57,0.2,982.4,7.95,54.4,390,724.6,103.6,5.7,308.0,144.0,6.0,3,5,7,1,2026-05-29T17:46:34.087498+05:30
Ayodhya,Uttar Pradesh,26.7922,82.1998,30.4,59,0.0,993.0,8.3,45.0,153,43.7,32.7,4.2,292.0,168.0,10.2,0,5,7,1,2026-05-29T17:46:34.087506+05:30
Ratlam,Madhya Pradesh,23.3315,75.0367,36.8,31,0.0,949.9,8.5,53.3,71,51.7,25.3,0.9,134.0,108.0,3.9,0,5,10,1,2026-05-29T17:46:34.087514+05:30
Sagar,Madhya Pradesh,23.8388,78.7378,37.2,25,0.0,945.9,8.7,35.6,80,65.4,26.7,1.0,138.0,110.0,3.2,0,5,10,0,2026-05-29T17:46:34.087522+05:30
Satna,Madhya Pradesh,24.6005,80.8322,36.5,31,0.0,967.2,8.75,32.0,103,86.4,27.0,1.5,223.0,127.0,3.4,0,5,10,1,2026-05-29T17:46:34.087530+05:30
Akola,Maharashtra,20.7002,77.0082,39.7,22,0.0,970.1,8.8,49.3,62,39.7,17.5,2.4,137.0,111.0,5.5,0,5,10,0,2026-05-29T17:46:34.087538+05:30
Amravati,Maharashtra,20.9374,77.7796,39.8,19,0.0,962.5,8.8,46.4,62,36.8,16.2,2.8,136.0,108.0,5.5,0,5,10,0,2026-05-29T17:46:34.087547+05:30
Latur,Maharashtra,18.4088,76.5604,36.9,25,0.0,936.8,8.95,37.8,48,15.3,8.3,1.4,145.0,117.0,1.4,0,5,10,0,2026-05-29T17:46:34.087555+05:30
Nanded,Maharashtra,19.1383,77.3091,39.1,23,0.0,964.1,8.9,39.2,86,25.1,14.1,2.0,153.0,130.0,3.8,0,5,10,0,2026-05-29T17:46:34.087563+05:30
Gulbarga,Karnataka,17.3297,76.8343,37.0,28,0.0,955.8,8.95,40.3,50,16.1,9.1,2.7,160.0,121.0,2.1,0,5,10,0,2026-05-29T17:46:34.087570+05:30
Bidar,Karnataka,17.9104,77.5199,35.0,33,0.0,932.9,9.0,40.0,72,15.1,9.4,3.0,188.0,127.0,3.2,0,5,7,1,2026-05-29T17:46:34.087578+05:30
Hospet,Karnataka,15.2689,76.3909,32.5,52,0.0,953.4,8.15,45.7,47,28.3,15.3,3.4,205.0,115.0,2.9,0,5,7,1,2026-05-29T17:46:34.087585+05:30
Tirupur,Tamil Nadu,11.1085,77.3411,30.9,58,0.0,973.5,7.7,62.3,48,7.7,6.1,5.0,149.0,91.0,2.4,0,5,7,1,2026-05-29T17:46:34.087593+05:30
Alappuzha,Kerala,9.4981,76.3388,27.9,84,0.0,1009.3,8.15,38.2,31,7.4,5.0,4.7,104.0,55.0,1.4,7,0,4,1,2026-05-29T17:46:34.087601+05:30
Munnar,Kerala,10.0889,77.0595,18.4,100,0.4,857.2,5.1,28.4,34,3.4,3.0,4.3,151.0,71.0,1.2,6,10,3,1,2026-05-29T17:46:34.087609+05:30
Silchar,Assam,24.8333,92.7789,31.1,73,0.0,1001.2,8.9,20.5,150,70.3,41.1,5.8,469.0,126.0,6.2,3,5,4,1,2026-05-29T17:46:34.087617+05:30
Dibrugarh,Assam,27.4728,94.912,29.5,73,0.0,992.0,8.85,13.0,135,61.0,35.9,8.5,332.0,100.0,2.5,7,5,7,1,2026-05-29T17:46:34.087625+05:30
