city,state,latitude,longitude,temp,humidity,rain,pressure,uv_index,wind_gusts,aqi,pm10,pm2_5,no2,co,o3,so2,mosquito_risk,arthritis_risk,migraine_risk,frizz_risk,updated_at
Delhi,Delhi,28.6139,77.209,39.1,26,0.0,974.7,7.8,35.3,182,318.5,63.8,3.7,211.0,154.0,10.2,0,5,10,0,2026-06-23T15:15:46.790852+05:30
Mumbai,Maharashtra,19.076,72.8777,27.4,83,0.0,1003.5,6.35,35.3,40,14.1,11.3,5.8,192.0,100.0,9.4,7,5,4,1,2026-06-23T15:15:46.790892+05:30
Bangalore,Karnataka,12.9716,77.5946,29.6,51,0.0,909.2,8.05,52.2,23,5.3,3.8,3.1,234.0,77.0,2.1,4,5,7,1,2026-06-23T15:15:46.790906+05:30
Hyderabad,Telangana,17.385,78.4867,34.0,44,0.0,948.1,8.95,48.2,34,6.1,5.2,2.4,202.0,74.0,1.8,0,5,7,1,2026-06-23T15:15:46.790916+05:30
Chennai,Tamil Nadu,13.0827,80.2707,33.1,61,0.0,1002.4,7.9,37.1,53,24.7,19.5,3.3,253.0,152.0,6.6,3,5,4,1,2026-06-23T15:15:46.790925+05:30
Kolkata,West Bengal,22.5726,88.3639,30.1,81,0.3,997.9,8.8,26.3,118,64.0,45.4,5.6,327.0,159.0,12.4,6,5,7,1,2026-06-23T15:15:46.790932+05:30
Pune,Maharashtra,18.5204,73.8567,24.9,87,0.2,942.8,5.3,36.4,25,2.6,2.5,2.4,137.0,72.0,3.0,6,5,3,1,2026-06-23T15:15:46.790939+05:30
Ahmedabad,Gujarat,23.0225,72.5714,38.7,32,0.0,993.9,8.0,42.1,64,99.9,26.8,1.5,135.0,90.0,3.1,0,5,10,1,2026-06-23T15:15:46.790946+05:30
Jaipur,Rajasthan,26.9124,75.7873,37.5,29,0.0,953.1,8.2,35.6,142,140.2,35.7,1.1,144.0,100.0,3.1,0,5,10,1,2026-06-23T15:15:46.790952+05:30
Lucknow,Uttar Pradesh,26.8467,80.9462,39.5,26,0.0,984.3,8.25,40.3,151,270.1,54.5,1.3,161.0,150.0,7.1,0,5,10,1,2026-06-23T15:15:46.790962+05:30
Kanpur,Uttar Pradesh,26.4499,80.3319,39.8,26,0.0,982.9,8.25,43.6,197,282.2,49.7,1.3,166.0,140.0,4.9,0,5,10,1,2026-06-23T15:15:46.790969+05:30
Chandigarh,Chandigarh,30.7333,76.7794,36.5,29,0.0,960.8,7.8,36.0,112,24.7,20.5,2.1,279.0,182.0,8.8,0,5,10,0,2026-06-23T15:15:46.790976+05:30
Srinagar,Jammu and Kashmir,34.0837,74.7973,26.6,44,0.0,838.2,9.1,18.7,75,17.0,12.4,1.5,301.0,153.0,3.0,4,5,7,0,2026-06-23T15:15:46.790982+05:30
Jammu,Jammu and Kashmir,32.7266,74.857,37.8,24,0.0,964.3,8.65,35.6,77,18.4,12.5,1.6,221.0,150.0,1.9,0,5,10,0,2026-06-23T15:15:46.790989+05:30
Amritsar,Punjab,31.634,74.8723,36.3,34,0.0,972.2,8.5,18.4,141,50.5,28.1,1.9,271.0,184.0,8.9,0,5,10,1,2026-06-23T15:15:46.790995+05:30
Ludhiana,Punjab,30.901,75.8573,38.1,27,0.0,970.2,8.05,32.4,106,41.7,24.8,1.7,276.0,166.0,6.0,0,5,10,0,2026-06-23T15:15:46.791002+05:30
Jalandhar,Punjab,31.326,75.5762,37.8,28,0.0,971.3,8.25,27.7,120,48.0,26.0,1.7,290.0,173.0,6.5,0,5,10,0,2026-06-23T15:15:46.791008+05:30
Dehradun,Uttarakhand,30.6284,78.0322,21.9,63,0.2,827.4,8.2,32.4,81,23.4,17.6,1.3,216.0,147.0,3.2,6,5,7,0,2026-06-23T15:15:46.791015+05:30
Shimla,Himachal Pradesh,31.1048,77.1734,21.1,47,0.0,782.6,8.35,40.3,83,20.0,14.3,1.0,179.0,152.0,5.2,0,5,7,0,2026-06-23T15:15:46.791024+05:30
Manali,Himachal Pradesh,32.2396,77.1887,22.9,53,0.1,816.0,9.75,36.4,91,9.8,8.8,3.3,120.0,150.0,0.2,3,5,7,0,2026-06-23T15:15:46.791033+05:30
Gurgaon,Haryana,28.4595,77.0266,38.5,28,0.0,973.3,7.85,47.9,381,380.0,69.6,3.5,165.0,145.0,7.9,0,5,10,1,2026-06-23T15:15:46.791039+05:30
Noida,Uttar Pradesh,28.5355,77.391,38.5,28,0.0,975.9,7.8,27.7,381,380.0,69.6,3.5,222.0,145.0,7.9,0,5,10,1,2026-06-23T15:15:46.791045+05:30
Ghaziabad,Uttar Pradesh,28.6692,77.4538,38.2,28,0.0,974.3,7.8,29.2,164,233.3,57.7,3.1,179.0,179.0,13.7,0,5,10,1,2026-06-23T15:15:46.791051+05:30
Faridabad,Haryana,28.4089,77.3178,38.8,26,0.0,975.4,7.85,41.0,381,380.0,69.6,3.5,177.0,145.0,7.9,0,5,10,0,2026-06-23T15:15:46.791057+05:30
Meerut,Uttar Pradesh,28.9845,77.7064,36.7,36,0.0,973.4,7.7,34.9,164,233.3,57.7,3.1,189.0,179.0,13.7,0,5,10,1,2026-06-23T15:15:46.791063+05:30
Agra,Uttar Pradesh,27.1767,78.0081,39.2,27,0.0,979.5,8.1,33.1,612,817.7,97.1,1.6,143.0,127.0,3.3,0,5,10,1,2026-06-23T15:15:46.791070+05:30
Varanasi,Uttar Pradesh,25.3176,82.9739,39.6,27,0.0,988.1,8.75,41.8,126,165.3,48.5,1.6,207.0,151.0,6.5,0,5,10,1,2026-06-23T15:15:46.791094+05:30
Prayagraj,Uttar Pradesh,25.4358,81.8463,39.8,26,0.0,986.7,8.55,41.4,136,129.5,41.4,1.4,144.0,135.0,4.5,0,5,10,1,2026-06-23T15:15:46.791103+05:30
Gorakhpur,Uttar Pradesh,26.7606,83.3732,36.8,42,0.0,987.6,8.65,37.1,164,120.1,49.6,1.7,220.0,170.0,8.1,0,5,10,1,2026-06-23T15:15:46.791109+05:30
Bareilly,Uttar Pradesh,28.367,79.4304,37.8,30,0.0,978.1,8.1,32.8,156,82.9,37.7,1.7,224.0,178.0,8.7,0,5,10,1,2026-06-23T15:15:46.791118+05:30
Aligarh,Uttar Pradesh,27.8974,78.088,37.6,32,0.0,977.4,7.95,31.7,374,616.5,94.3,2.1,162.0,162.0,9.1,0,5,10,1,2026-06-23T15:15:46.791125+05:30
Moradabad,Uttar Pradesh,28.8386,78.7733,37.3,33,0.0,975.3,7.95,37.8,158,49.4,31.5,2.1,237.0,181.0,8.2,0,5,10,1,2026-06-23T15:15:46.791131+05:30
Saharanpur,Uttar Pradesh,29.9637,77.546,36.0,34,0.0,967.6,7.45,34.2,160,132.2,36.2,2.3,265.0,182.0,10.2,0,5,10,1,2026-06-23T15:15:46.791137+05:30
Jhansi,Uttar Pradesh,25.4484,78.5685,38.6,27,0.0,970.3,8.45,37.1,93,70.1,27.5,1.0,129.0,107.0,4.3,0,5,10,1,2026-06-23T15:15:50.022620+05:30
Surat,Gujarat,21.1702,72.8311,31.6,67,0.0,1000.1,4.65,41.8,64,34.5,21.8,14.2,310.0,60.0,45.8,3,5,0,1,2026-06-23T15:15:50.022652+05:30
Vadodara,Gujarat,22.3072,73.1812,38.2,35,0.0,996.3,6.45,44.3,58,64.0,24.8,1.6,142.0,102.0,3.8,0,5,10,1,2026-06-23T15:15:50.022662+05:30
Rajkot,Gujarat,22.3039,70.8022,37.7,38,0.0,986.6,7.55,44.3,71,86.1,28.4,1.1,109.0,102.0,5.1,0,5,10,1,2026-06-23T15:15:50.022671+05:30
Thane,Maharashtra,19.2183,72.9781,26.8,90,0.2,1002.7,6.5,31.0,40,14.1,11.3,5.8,198.0,100.0,9.4,10,5,4,1,2026-06-23T15:15:50.022680+05:30
Nagpur,Maharashtra,21.1458,79.0882,31.8,60,0.0,966.3,8.15,54.0,55,16.6,15.7,4.4,165.0,145.0,18.7,0,5,7,1,2026-06-23T15:15:50.022688+05:30
Nashik,Maharashtra,19.9975,73.7898,26.5,81,0.1,940.1,7.8,38.2,28,5.9,5.1,1.5,132.0,93.0,2.8,10,5,7,1,2026-06-23T15:15:50.022697+05:30
Aurangabad,Maharashtra,19.8762,75.3433,28.7,68,0.2,938.2,8.1,32.0,31,6.6,5.4,1.3,129.0,85.0,2.6,10,5,7,1,2026-06-23T15:15:50.022704+05:30
Solapur,Maharashtra,17.6599,75.9064,29.0,71,0.1,952.7,8.0,56.9,26,3.0,2.8,1.4,114.0,66.0,0.8,10,5,7,1,2026-06-23T15:15:50.022712+05:30
Kolhapur,Maharashtra,16.705,74.2433,23.9,94,0.8,943.9,8.5,56.9,24,3.8,2.9,1.4,141.0,64.0,1.1,6,5,7,1,2026-06-23T15:15:50.022720+05:30
Goa,Goa,15.2993,74.124,24.0,97,0.3,996.3,7.0,35.3,30,15.7,8.4,1.1,146.0,55.0,0.6,6,5,7,1,2026-06-23T15:15:50.022727+05:30
Jodhpur,Rajasthan,26.2389,73.0243,38.0,31,0.0,975.5,8.4,37.1,127,212.8,43.1,0.6,112.0,87.0,1.7,0,5,10,1,2026-06-23T15:15:50.022735+05:30
Udaipur,Rajasthan,24.5854,73.7125,34.7,34,0.0,940.5,8.8,35.6,65,67.3,21.1,0.6,112.0,92.0,2.1,0,5,7,1,2026-06-23T15:15:50.022743+05:30
Kota,Rajasthan,25.2138,75.8648,37.1,36,0.0,971.4,8.35,34.6,84,85.7,29.6,1.0,131.0,105.0,4.0,0,5,10,1,2026-06-23T15:15:50.022750+05:30
Bikaner,Rajasthan,28.0229,73.3119,39.5,29,0.0,973.8,8.5,35.3,122,179.7,49.4,0.3,111.0,81.0,1.9,0,5,10,1,2026-06-23T15:15:50.022758+05:30
Ajmer,Rajasthan,26.4499,74.6399,34.5,38,0.0,948.4,8.35,45.7,94,112.7,34.0,0.7,116.0,91.0,2.4,0,5,7,1,2026-06-23T15:15:50.022766+05:30
Gwalior,Madhya Pradesh,26.2183,78.1828,39.2,26,0.0,975.4,8.25,42.1,108,97.3,31.4,0.7,134.0,104.0,2.0,0,5,10,1,2026-06-23T15:15:50.022773+05:30
Indore,Madhya Pradesh,22.7196,75.8577,30.4,57,0.1,942.1,5.95,38.2,61,47.0,23.7,2.0,236.0,99.0,3.4,3,5,3,1,2026-06-23T15:15:50.022781+05:30
Bhopal,Madhya Pradesh,23.2599,77.4126,27.1,79,0.3,948.0,7.85,38.2,58,50.5,28.8,1.4,189.0,96.0,2.3,10,5,7,1,2026-06-23T15:15:50.022789+05:30
Jabalpur,Madhya Pradesh,23.1815,79.9864,35.5,41,0.0,955.0,8.5,34.6,78,39.9,20.5,0.9,158.0,102.0,2.4,0,5,10,1,2026-06-23T15:15:50.022797+05:30
Ujjain,Madhya Pradesh,23.1765,75.7885,34.4,41,0.1,947.4,7.8,35.6,63,58.9,25.7,1.2,156.0,99.0,4.0,3,5,7,1,2026-06-23T15:15:50.022805+05:30
Visakhapatnam,Andhra Pradesh,17.6868,83.2185,31.9,66,0.0,997.5,8.65,32.4,87,22.4,21.7,22.0,391.0,102.0,46.6,3,5,7,1,2026-06-23T15:15:50.022813+05:30
Vijayawada,Andhra Pradesh,16.5062,80.648,36.1,47,0.0,996.4,8.85,38.5,76,10.1,8.8,1.7,141.0,100.0,4.8,0,5,10,1,2026-06-23T15:15:50.022820+05:30
Guntur,Andhra Pradesh,16.3067,80.4365,35.6,46,0.0,997.6,8.9,39.2,67,8.9,7.4,1.5,134.0,91.0,4.0,0,5,10,1,2026-06-23T15:15:50.022828+05:30
Nellore,Andhra Pradesh,14.4426,79.9865,34.2,53,0.0,1000.6,8.9,37.1,45,8.7,7.5,2.6,113.0,97.0,5.2,0,5,4,1,2026-06-23T15:15:50.022837+05:30
Kurnool,Andhra Pradesh,15.8281,78.0373,34.3,45,0.0,972.1,8.6,46.1,24,3.2,2.5,1.2,110.0,65.0,0.9,0,5,7,1,2026-06-23T15:15:50.022845+05:30
Kakinada,Andhra Pradesh,16.9891,82.2475,29.9,80,0.1,1001.9,8.5,42.1,70,18.3,17.6,3.3,180.0,142.0,6.0,10,5,4,1,2026-06-23T15:15:50.022853+05:30
Tirupati,Andhra Pradesh,13.6288,79.4192,33.6,50,0.1,986.2,7.7,37.8,40,6.3,4.3,1.4,107.0,76.0,0.8,3,5,7,1,2026-06-23T15:15:50.022861+05:30
Warangal,Telangana,17.9689,79.5941,35.1,48,0.0,972.6,8.7,37.1,51,7.4,6.2,1.4,136.0,90.0,1.4,0,5,10,1,2026-06-23T15:15:50.022869+05:30
Nizamabad,Telangana,18.6725,78.0941,33.6,46,0.0,958.6,8.65,59.0,32,6.6,6.0,1.5,127.0,85.0,2.8,0,5,7,1,2026-06-23T15:15:50.022877+05:30
Mysore,Karnataka,12.2958,76.6396,27.0,66,0.0,926.2,8.4,47.2,25,5.0,3.3,1.8,119.0,71.0,1.2,7,5,7,1,2026-06-23T15:15:50.022885+05:30
Mangalore,Karnataka,12.9141,74.856,26.8,86,0.0,1005.7,8.15,36.7,27,12.5,6.9,1.8,107.0,54.0,1.2,7,5,4,1,2026-06-23T15:15:50.022893+05:30
Hubli-Dharwad,Karnataka,15.3647,75.124,27.0,68,0.1,938.1,7.4,63.4,24,2.8,1.9,1.4,101.0,62.0,0.7,10,5,7,1,2026-06-23T15:15:50.022901+05:30
Belgaum,Karnataka,15.8497,74.4977,22.6,100,0.4,922.3,8.55,51.5,23,3.2,1.8,1.4,109.0,54.0,0.8,6,5,7,1,2026-06-23T15:15:53.241970+05:30
Coimbatore,Tamil Nadu,11.0168,76.9558,29.2,63,0.0,959.4,7.95,51.5,26,5.1,3.6,1.7,151.0,66.0,1.4,7,5,7,1,2026-06-23T15:15:53.242003+05:30
Madurai,Tamil Nadu,9.9252,78.1198,34.5,44,0.1,989.8,8.25,44.6,63,11.4,8.1,2.0,124.0,108.0,2.4,3,5,7,1,2026-06-23T15:15:53.242014+05:30
Trichy,Tamil Nadu,10.7905,78.7047,31.3,61,0.2,996.2,7.9,52.9,29,6.4,4.4,1.4,107.0,85.0,1.6,6,5,7,1,2026-06-23T15:15:53.242024+05:30
Salem,Tamil Nadu,11.6643,78.146,28.4,83,0.4,974.5,8.25,43.9,38,6.7,5.5,2.3,149.0,97.0,4.8,10,5,7,1,2026-06-23T15:15:53.242033+05:30
Tirunelveli,Tamil Nadu,8.7139,77.7567,34.0,48,0.0,1000.4,3.2,43.9,26,7.0,5.0,1.5,115.0,78.0,1.3,0,5,0,1,2026-06-23T15:15:53.242041+05:30
Vellore,Tamil Nadu,12.9165,79.1325,34.8,44,0.0,979.7,7.8,41.4,32,6.7,5.1,1.5,151.0,92.0,1.7,0,5,7,1,2026-06-23T15:15:53.242049+05:30
Erode,Tamil Nadu,11.341,77.7172,29.0,68,0.0,986.8,7.8,32.8,29,6.4,4.7,1.8,156.0,89.0,1.5,7,5,7,1,2026-06-23T15:15:53.242056+05:30
Kochi,Kerala,9.9312,76.2673,27.3,81,0.1,1008.3,8.15,37.4,38,8.7,5.7,2.6,104.0,61.0,1.9,10,0,4,1,2026-06-23T15:15:53.242064+05:30
Thiruvananthapuram,Kerala,8.5241,76.9366,27.0,83,0.1,1007.4,7.8,46.8,27,11.5,6.7,1.1,100.0,66.0,0.8,10,5,4,1,2026-06-23T15:15:53.242071+05:30
Kozhikode,Kerala,11.2588,75.7804,27.3,84,0.1,1007.2,7.25,35.6,26,8.0,4.6,0.6,105.0,61.0,0.6,10,5,4,1,2026-06-23T15:15:53.242099+05:30
Thrissur,Kerala,10.5276,76.2144,27.3,84,0.1,1006.3,7.35,35.3,38,7.7,5.5,2.0,103.0,57.0,1.1,10,5,4,1,2026-06-23T15:15:53.242110+05:30
Kannur,Kerala,11.8745,75.3704,25.1,96,0.1,1006.9,5.05,34.9,24,7.3,4.1,1.3,106.0,56.0,0.8,10,5,0,1,2026-06-23T15:15:53.242117+05:30
Patna,Bihar,25.5941,85.1376,37.5,41,0.0,990.3,8.6,32.0,153,161.1,58.1,2.0,238.0,179.0,8.9,0,5,10,1,2026-06-23T15:15:53.242124+05:30
Gaya,Bihar,24.7914,85.0002,37.9,34,0.0,984.5,8.8,37.4,107,159.3,47.7,1.4,204.0,144.0,5.6,0,5,10,1,2026-06-23T15:15:53.242132+05:30
Muzaffarpur,Bihar,26.1209,85.3647,35.1,58,0.0,990.4,8.85,26.3,160,157.4,65.4,2.5,287.0,199.0,12.2,0,5,10,1,2026-06-23T15:15:53.242139+05:30
Bhagalpur,Bihar,25.2425,87.0117,35.0,57,0.0,991.3,8.75,22.3,140,119.7,51.8,3.1,229.0,184.0,16.3,0,5,7,1,2026-06-23T15:15:53.242145+05:30
Ranchi,Jharkhand,23.3441,85.3096,32.8,43,0.0,931.2,9.2,37.8,87,109.7,36.0,1.3,148.0,135.0,6.9,0,5,7,1,2026-06-23T15:15:53.242152+05:30
Jamshedpur,Jharkhand,22.8046,86.2029,36.3,43,0.0,982.1,9.1,43.2,114,78.7,44.5,3.3,174.0,183.0,20.5,0,5,10,1,2026-06-23T15:15:53.242159+05:30
Dhanbad,Jharkhand,23.7957,86.4304,36.7,38,0.0,971.1,9.1,27.0,155,115.0,50.4,7.4,149.0,169.0,33.0,0,5,10,1,2026-06-23T15:15:53.242166+05:30
Bokaro,Jharkhand,23.6693,86.1511,36.7,36,0.0,974.8,8.85,29.9,140,120.6,49.2,8.2,153.0,161.0,35.7,0,5,10,1,2026-06-23T15:15:53.242172+05:30
Bhubaneswar,Odisha,20.2961,85.8245,31.3,71,0.0,995.4,5.5,33.1,80,26.7,23.3,5.1,283.0,131.0,9.3,3,5,3,1,2026-06-23T15:15:53.242179+05:30
Cuttack,Odisha,20.4625,85.8828,31.7,71,0.0,996.9,5.7,36.7,80,26.7,23.3,5.1,292.0,131.0,9.3,3,5,3,1,2026-06-23T15:15:53.242186+05:30
Rourkela,Odisha,22.2604,84.8536,34.6,52,0.0,977.0,9.0,38.5,101,68.2,38.1,1.7,252.0,159.0,12.0,0,5,7,1,2026-06-23T15:15:53.242192+05:30
Raipur,Chhattisgarh,21.2514,81.6296,33.9,49,0.2,968.4,8.95,45.0,82,33.9,27.0,5.5,259.0,151.0,27.7,3,5,7,1,2026-06-23T15:15:53.242199+05:30
Bhilai,Chhattisgarh,21.1938,81.3509,33.2,52,0.1,968.8,8.95,44.3,77,22.1,19.2,5.9,424.0,135.0,23.4,3,5,7,1,2026-06-23T15:15:53.242206+05:30
Guwahati,Assam,26.1158,91.7086,26.9,92,0.3,993.0,8.75,29.9,79,14.2,12.7,2.6,287.0,104.0,2.9,10,5,7,1,2026-06-23T15:15:53.242213+05:30
Agartala,Tripura,23.8315,91.2868,33.3,62,0.0,996.9,8.05,38.2,70,18.5,15.3,3.0,183.0,152.0,2.7,3,5,7,1,2026-06-23T15:15:53.242219+05:30
Shillong,Meghalaya,25.5788,91.8933,23.7,77,0.1,851.9,7.9,29.2,55,16.2,11.1,1.9,212.0,112.0,2.2,6,5,7,1,2026-06-23T15:15:53.242226+05:30
Imphal,Manipur,24.817,93.9368,25.2,92,0.2,916.1,8.75,29.2,67,12.9,7.5,1.5,198.0,96.0,1.0,10,5,7,1,2026-06-23T15:15:53.242234+05:30
Aizawl,Mizoram,23.7271,92.7176,22.4,94,0.3,886.1,8.3,28.1,40,4.1,3.1,0.8,155.0,90.0,0.3,6,5,7,1,2026-06-23T15:15:53.242240+05:30
Kohima,Nagaland,25.6701,94.1077,22.3,94,0.0,849.7,7.3,22.3,53,11.5,8.0,1.6,184.0,91.0,1.1,3,5,7,1,2026-06-23T15:15:53.242247+05:30
Gangtok,Sikkim,27.3314,88.6138,20.7,92,0.1,831.9,9.1,34.9,92,7.0,5.7,1.2,316.0,142.0,4.1,6,5,7,1,2026-06-23T15:15:53.242253+05:30
Siliguri,West Bengal,26.7271,88.3953,31.3,64,0.1,983.6,8.75,20.9,109,15.8,12.3,2.2,403.0,153.0,8.0,6,5,7,1,2026-06-23T15:15:56.465655+05:30
Durgapur,West Bengal,23.5204,87.3119,34.6,61,0.0,985.6,9.0,29.2,161,127.6,74.0,15.2,318.0,200.0,62.2,3,5,7,1,2026-06-23T15:15:56.465687+05:30
Asansol,West Bengal,23.6739,86.9524,34.6,56,0.0,984.3,9.05,30.6,155,122.0,61.2,12.1,200.0,177.0,47.2,0,5,7,1,2026-06-23T15:15:56.465701+05:30
Pondicherry,Puducherry,11.9139,79.8145,32.7,63,0.0,1003.8,7.3,40.3,58,25.4,22.2,2.5,211.0,157.0,11.8,3,5,4,1,2026-06-23T15:15:56.465711+05:30
Port Blair,Andaman and Nicobar Islands,11.6234,92.7265,29.7,73,0.0,1004.4,8.75,45.0,22,7.5,4.4,0.2,87.0,41.0,0.4,7,5,4,1,2026-06-23T15:15:56.465720+05:30
Haridwar,Uttarakhand,29.9457,78.1642,36.0,34,0.0,965.9,7.6,28.4,129,40.0,23.2,1.6,291.0,179.0,8.1,0,5,10,1,2026-06-23T15:15:56.465729+05:30
Rishikesh,Uttarakhand,30.0869,78.2676,35.3,35,0.0,958.7,7.75,23.4,124,26.0,20.3,0.9,277.0,167.0,6.1,0,5,10,1,2026-06-23T15:15:56.465738+05:30
Nainital,Uttarakhand,29.3919,79.4542,21.3,57,0.0,803.2,8.4,33.8,112,80.3,31.5,1.2,247.0,165.0,7.6,0,5,7,0,2026-06-23T15:15:56.465747+05:30
Mussoorie,Uttarakhand,30.4599,78.0664,20.9,57,0.1,800.5,8.15,40.0,111,24.9,20.3,1.5,194.0,174.0,6.8,3,5,7,0,2026-06-23T15:15:56.465756+05:30
Dharamshala,Himachal Pradesh,32.219,76.3234,26.4,46,0.0,865.0,8.55,40.7,85,14.1,10.0,0.8,204.0,134.0,0.8,4,5,7,0,2026-06-23T15:15:56.465765+05:30
Dalhousie,Himachal Pradesh,32.5387,75.971,19.9,70,0.2,801.3,8.8,37.8,92,19.8,13.8,1.4,186.0,154.0,1.8,6,5,7,0,2026-06-23T15:15:56.465774+05:30
Patiala,Punjab,30.3398,76.3869,37.2,30,0.0,970.0,7.7,32.4,300,234.2,47.3,1.5,233.0,167.0,7.0,0,5,10,1,2026-06-23T15:15:56.465783+05:30
Bhatinda,Punjab,30.211,74.9455,37.4,31,0.0,975.7,8.3,28.8,116,99.7,35.7,2.2,139.0,154.0,10.9,0,5,10,1,2026-06-23T15:15:56.465792+05:30
Rohtak,Haryana,28.8955,76.6066,37.1,32,0.0,973.7,7.75,33.1,242,670.6,91.0,1.8,161.0,134.0,4.5,0,5,10,1,2026-06-23T15:15:56.465800+05:30
Panipat,Haryana,29.3909,76.9635,37.4,32,0.0,972.1,7.65,32.4,1036,1337.4,150.9,2.4,183.0,145.0,9.7,0,5,10,1,2026-06-23T15:15:56.465808+05:30
Mathura,Uttar Pradesh,27.4924,77.6737,38.4,31,0.0,978.6,8.05,39.2,451,430.3,65.0,1.6,146.0,125.0,2.9,0,5,10,1,2026-06-23T15:15:56.465816+05:30
Vrindavan,Uttar Pradesh,27.5823,77.7027,38.0,32,0.0,978.9,8.05,38.5,451,430.3,65.0,1.6,143.0,125.0,2.9,0,5,10,1,2026-06-23T15:15:56.465824+05:30
Ayodhya,Uttar Pradesh,26.7922,82.1998,37.8,34,0.0,985.7,8.4,36.0,156,131.8,40.5,1.3,164.0,153.0,7.0,0,5,10,1,2026-06-23T15:15:56.465832+05:30
Ratlam,Madhya Pradesh,23.3315,75.0367,33.1,48,0.0,948.3,7.65,34.2,61,68.0,28.6,1.0,125.0,101.0,3.9,0,5,7,1,2026-06-23T15:15:56.465840+05:30
Sagar,Madhya Pradesh,23.8388,78.7378,32.3,50,0.1,944.1,6.3,38.9,78,62.4,29.8,0.9,145.0,108.0,2.4,3,5,7,1,2026-06-23T15:15:56.465848+05:30
Satna,Madhya Pradesh,24.6005,80.8322,37.8,30,0.0,963.7,8.8,39.2,93,89.2,37.5,0.8,137.0,117.0,4.0,0,5,10,1,2026-06-23T15:15:56.465856+05:30
Akola,Maharashtra,20.7002,77.0082,35.0,47,0.0,968.1,8.8,37.1,35,7.9,7.3,1.5,125.0,106.0,6.2,0,5,7,1,2026-06-23T15:15:56.465865+05:30
Amravati,Maharashtra,20.9374,77.7796,34.0,49,0.0,960.7,8.6,38.9,37,10.2,9.7,2.0,134.0,107.0,6.8,0,5,7,1,2026-06-23T15:15:56.465874+05:30
Latur,Maharashtra,18.4088,76.5604,27.5,76,0.1,935.0,5.5,47.9,26,3.9,3.4,1.2,117.0,65.0,0.5,10,5,3,1,2026-06-23T15:15:56.465882+05:30
Nanded,Maharashtra,19.1383,77.3091,33.7,48,0.1,961.7,7.0,43.2,32,3.8,3.4,1.2,131.0,79.0,0.9,3,5,7,1,2026-06-23T15:15:56.465890+05:30
Gulbarga,Karnataka,17.3297,76.8343,26.5,84,0.3,954.0,6.1,64.4,26,3.6,3.3,1.9,116.0,67.0,1.2,10,5,7,1,2026-06-23T15:15:56.465898+05:30
Bidar,Karnataka,17.9104,77.5199,31.6,52,0.0,930.4,7.7,59.0,27,5.6,4.5,2.0,126.0,72.0,0.7,0,5,7,1,2026-06-23T15:15:56.465906+05:30
Hospet,Karnataka,15.2689,76.3909,29.7,60,0.1,952.3,7.8,55.4,26,5.5,3.2,1.3,118.0,67.0,1.1,7,5,7,1,2026-06-23T15:15:56.465914+05:30
Tirupur,Tamil Nadu,11.1085,77.3411,31.3,58,0.1,972.3,8.1,51.1,32,6.3,4.7,2.0,128.0,82.0,1.8,3,5,7,1,2026-06-23T15:15:56.465922+05:30
Alappuzha,Kerala,9.4981,76.3388,28.5,78,0.0,1008.1,4.95,38.9,31,12.0,7.5,1.9,86.0,72.0,1.8,7,0,0,1,2026-06-23T15:15:56.465930+05:30
Munnar,Kerala,10.0889,77.0595,19.0,88,0.0,856.1,8.6,41.0,23,5.3,3.3,1.1,99.0,59.0,0.8,3,10,7,1,2026-06-23T15:15:56.465938+05:30
Silchar,Assam,24.8333,92.7789,32.6,67,0.0,995.5,8.8,23.4,83,12.3,9.8,1.3,200.0,118.0,2.9,3,5,7,1,2026-06-23T15:15:56.465946+05:30
Dibrugarh,Assam,27.4728,94.912,30.7,70,0.1,985.9,4.8,20.5,79,24.6,17.8,1.3,197.0,127.0,1.6,6,5,3,1,2026-06-23T15:15:56.465955+05:30
