city,state,latitude,longitude,temp,humidity,rain,pressure,uv_index,wind_gusts,aqi,pm10,pm2_5,mosquito_risk,arthritis_risk,migraine_risk,frizz_risk,updated_at
Delhi,Delhi,28.6139,77.209,24.1,65,0.0,990.1,7.05,23.8,125,128.5,63.3,3,5,7,1,2026-04-09T10:42:41.140595+05:30
Mumbai,Maharashtra,19.076,72.8777,28.0,74,0.0,1012.6,7.95,19.1,77,115.9,36.1,7,0,4,1,2026-04-09T10:42:41.140636+05:30
Bangalore,Karnataka,12.9716,77.5946,29.9,49,0.0,916.2,9.2,27.4,71,22.2,13.4,4,5,7,1,2026-04-09T10:42:41.140652+05:30
Hyderabad,Telangana,17.385,78.4867,33.8,31,0.0,956.7,9.2,27.7,99,44.5,29.3,0,5,7,0,2026-04-09T10:42:41.140662+05:30
Chennai,Tamil Nadu,13.0827,80.2707,34.4,54,0.0,1010.3,9.35,38.9,68,26.3,20.1,0,0,4,1,2026-04-09T10:42:41.140671+05:30
Kolkata,West Bengal,22.5726,88.3639,25.0,85,0.0,1011.2,8.7,14.4,76,25.1,21.2,7,0,4,1,2026-04-09T10:42:41.140680+05:30
Pune,Maharashtra,18.5204,73.8567,30.0,51,0.0,952.5,8.55,34.2,76,132.7,30.5,4,5,7,1,2026-04-09T10:42:41.140692+05:30
Ahmedabad,Gujarat,23.0225,72.5714,30.5,51,0.0,1006.6,8.0,17.3,75,48.1,22.5,0,5,4,1,2026-04-09T10:42:41.140699+05:30
Jaipur,Rajasthan,26.9124,75.7873,25.3,56,0.0,965.6,7.7,27.0,161,207.7,41.3,4,5,7,0,2026-04-09T10:42:41.140707+05:30
Lucknow,Uttar Pradesh,26.8467,80.9462,26.8,50,0.0,1000.2,7.55,32.8,133,112.2,40.2,4,5,4,0,2026-04-09T10:42:41.140714+05:30
Kanpur,Uttar Pradesh,26.4499,80.3319,26.1,58,0.0,998.3,7.6,32.4,134,159.7,43.8,4,5,7,1,2026-04-09T10:42:41.140720+05:30
Chandigarh,Chandigarh,30.7333,76.7794,22.9,57,0.0,976.3,7.05,24.1,67,27.5,13.4,0,5,7,0,2026-04-09T10:42:41.140728+05:30
Srinagar,Jammu and Kashmir,34.0837,74.7973,10.2,77,0.0,843.6,7.95,22.0,39,10.3,8.4,3,5,7,0,2026-04-09T10:42:41.140735+05:30
Jammu,Jammu and Kashmir,32.7266,74.857,21.4,66,0.0,980.8,7.65,27.4,68,15.5,8.7,3,5,7,0,2026-04-09T10:42:41.140742+05:30
Amritsar,Punjab,31.634,74.8723,20.8,72,0.0,989.1,7.6,18.4,79,49.7,24.3,3,5,7,0,2026-04-09T10:42:41.140748+05:30
Ludhiana,Punjab,30.901,75.8573,22.5,64,0.0,986.7,7.25,19.8,94,58.1,30.3,3,5,7,0,2026-04-09T10:42:41.140754+05:30
Jalandhar,Punjab,31.326,75.5762,21.7,65,0.0,988.2,7.4,21.2,91,48.4,24.0,3,5,7,0,2026-04-09T10:42:41.140762+05:30
Dehradun,Uttarakhand,30.6284,78.0322,13.4,61,0.0,833.0,7.4,23.4,32,7.6,2.9,3,5,7,0,2026-04-09T10:42:41.140768+05:30
Shimla,Himachal Pradesh,31.1048,77.1734,11.9,64,0.0,786.9,7.5,27.0,41,9.2,4.0,3,5,7,0,2026-04-09T10:42:41.140777+05:30
Manali,Himachal Pradesh,32.2396,77.1887,12.6,53,0.0,819.9,9.75,24.8,88,4.8,3.6,0,5,7,0,2026-04-09T10:42:41.140784+05:30
Gurgaon,Haryana,28.4595,77.0266,24.2,71,0.0,988.4,7.15,17.3,141,237.0,62.4,3,5,7,1,2026-04-09T10:42:41.140790+05:30
Noida,Uttar Pradesh,28.5355,77.391,24.0,68,0.0,991.7,7.1,22.7,141,237.0,62.4,3,5,7,1,2026-04-09T10:42:41.140797+05:30
Ghaziabad,Uttar Pradesh,28.6692,77.4538,23.5,70,0.0,989.9,7.05,23.8,108,116.6,47.8,3,5,7,1,2026-04-09T10:42:41.140803+05:30
Faridabad,Haryana,28.4089,77.3178,23.8,71,0.0,990.9,7.15,19.4,141,237.0,62.4,3,5,7,1,2026-04-09T10:42:41.140809+05:30
Meerut,Uttar Pradesh,28.9845,77.7064,23.9,68,0.0,988.7,6.95,29.2,108,116.6,47.8,3,5,7,1,2026-04-09T10:42:41.140815+05:30
Agra,Uttar Pradesh,27.1767,78.0081,25.6,65,0.0,994.6,7.45,17.3,516,270.1,64.0,7,5,7,1,2026-04-09T10:42:41.140822+05:30
Varanasi,Uttar Pradesh,25.3176,82.9739,27.9,53,0.0,1003.7,8.2,29.2,116,71.2,34.7,4,5,4,1,2026-04-09T10:42:41.140831+05:30
Prayagraj,Uttar Pradesh,25.4358,81.8463,27.6,57,0.0,1002.3,8.05,31.0,117,77.8,35.5,4,5,4,1,2026-04-09T10:42:41.140837+05:30
Gorakhpur,Uttar Pradesh,26.7606,83.3732,27.6,42,0.0,1003.7,7.95,31.0,151,70.8,34.1,4,5,4,0,2026-04-09T10:42:41.140844+05:30
Bareilly,Uttar Pradesh,28.367,79.4304,25.0,61,0.0,993.8,7.3,33.1,99,73.1,31.1,7,5,7,1,2026-04-09T10:42:41.140851+05:30
Aligarh,Uttar Pradesh,27.8974,78.088,25.1,66,0.0,992.5,7.2,26.6,109,141.6,53.4,7,5,7,1,2026-04-09T10:42:41.140859+05:30
Moradabad,Uttar Pradesh,28.8386,78.7733,24.2,66,0.0,990.9,7.15,30.6,109,69.6,33.1,3,5,7,1,2026-04-09T10:42:41.140865+05:30
Saharanpur,Uttar Pradesh,29.9637,77.546,23.5,57,0.0,983.1,6.75,27.4,96,38.0,21.1,0,5,7,0,2026-04-09T10:42:41.140871+05:30
Jhansi,Uttar Pradesh,25.4484,78.5685,27.6,51,0.0,984.0,8.0,25.2,92,114.3,33.4,4,5,7,1,2026-04-09T10:42:44.413769+05:30
Surat,Gujarat,21.1702,72.8311,28.5,62,0.0,1011.6,7.7,28.1,77,96.4,36.9,7,0,4,1,2026-04-09T10:42:44.413798+05:30
Vadodara,Gujarat,22.3072,73.1812,29.9,54,0.0,1009.0,8.0,20.5,67,42.3,22.8,4,0,4,1,2026-04-09T10:42:44.413807+05:30
Rajkot,Gujarat,22.3039,70.8022,28.4,60,0.0,998.6,7.7,21.2,60,65.2,25.5,4,5,7,1,2026-04-09T10:42:44.413816+05:30
Thane,Maharashtra,19.2183,72.9781,30.4,59,0.0,1012.0,7.95,33.8,77,115.9,36.1,0,0,4,1,2026-04-09T10:42:44.413823+05:30
Nagpur,Maharashtra,21.1458,79.0882,30.9,42,0.0,977.3,8.75,20.5,89,70.5,32.1,0,5,7,1,2026-04-09T10:42:44.413830+05:30
Nashik,Maharashtra,19.9975,73.7898,27.6,55,0.0,949.7,8.2,27.0,66,99.0,24.3,4,5,7,1,2026-04-09T10:42:44.413836+05:30
Aurangabad,Maharashtra,19.8762,75.3433,29.3,45,0.0,948.4,8.9,28.8,66,75.9,22.2,4,5,7,1,2026-04-09T10:42:44.413843+05:30
Solapur,Maharashtra,17.6599,75.9064,31.7,36,0.0,961.4,8.95,23.0,71,115.0,34.6,0,5,7,0,2026-04-09T10:42:44.413850+05:30
Kolhapur,Maharashtra,16.705,74.2433,28.9,54,0.0,951.9,9.0,38.9,79,109.9,29.6,4,5,7,1,2026-04-09T10:42:44.413857+05:30
Goa,Goa,15.2993,74.124,31.1,59,0.0,1002.1,8.95,35.3,73,64.7,20.9,0,5,4,1,2026-04-09T10:42:44.413865+05:30
Jodhpur,Rajasthan,26.2389,73.0243,28.8,37,0.0,988.7,7.95,26.3,97,103.6,22.2,4,5,7,0,2026-04-09T10:42:44.413872+05:30
Udaipur,Rajasthan,24.5854,73.7125,29.4,21,0.0,951.3,8.5,39.6,68,87.3,22.9,4,5,7,0,2026-04-09T10:42:44.413879+05:30
Kota,Rajasthan,25.2138,75.8648,27.7,49,0.0,984.2,8.0,21.6,118,78.7,28.5,4,5,7,0,2026-04-09T10:42:44.413885+05:30
Bikaner,Rajasthan,28.0229,73.3119,28.0,30,0.0,988.0,7.8,21.2,82,211.9,47.0,4,5,7,0,2026-04-09T10:42:44.413892+05:30
Ajmer,Rajasthan,26.4499,74.6399,26.9,53,0.0,959.7,7.95,27.4,78,85.4,25.6,4,5,7,1,2026-04-09T10:42:44.413899+05:30
Gwalior,Madhya Pradesh,26.2183,78.1828,23.9,68,0.0,989.7,7.75,34.6,109,184.4,50.1,3,5,7,1,2026-04-09T10:42:44.413906+05:30
Indore,Madhya Pradesh,22.7196,75.8577,28.2,60,0.0,952.6,8.4,23.4,79,46.2,20.8,4,5,7,1,2026-04-09T10:42:44.413913+05:30
Bhopal,Madhya Pradesh,23.2599,77.4126,29.6,37,0.0,958.4,8.4,26.6,69,68.9,23.1,4,5,7,0,2026-04-09T10:42:44.413920+05:30
Jabalpur,Madhya Pradesh,23.1815,79.9864,29.1,45,0.0,966.4,8.55,26.6,132,76.8,26.5,4,5,7,0,2026-04-09T10:42:44.413926+05:30
Ujjain,Madhya Pradesh,23.1765,75.7885,28.4,59,0.0,958.3,8.35,20.5,75,45.9,19.7,4,5,7,1,2026-04-09T10:42:44.413933+05:30
Visakhapatnam,Andhra Pradesh,17.6868,83.2185,33.4,57,0.0,1006.4,9.1,44.6,97,35.9,32.9,0,5,4,1,2026-04-09T10:42:44.413939+05:30
Vijayawada,Andhra Pradesh,16.5062,80.648,33.6,58,0.0,1005.5,9.15,33.1,92,30.3,26.9,0,5,4,1,2026-04-09T10:42:44.413946+05:30
Guntur,Andhra Pradesh,16.3067,80.4365,33.3,60,0.0,1006.7,9.0,33.8,93,31.9,29.2,0,5,4,1,2026-04-09T10:42:44.413952+05:30
Nellore,Andhra Pradesh,14.4426,79.9865,35.5,51,0.0,1008.0,9.3,35.3,80,30.7,28.3,0,0,7,1,2026-04-09T10:42:44.413960+05:30
Kurnool,Andhra Pradesh,15.8281,78.0373,35.6,28,0.0,979.8,9.2,27.7,78,41.9,31.5,0,5,10,0,2026-04-09T10:42:44.413986+05:30
Kakinada,Andhra Pradesh,16.9891,82.2475,34.5,53,0.0,1010.3,9.15,30.6,81,29.8,23.8,0,0,4,1,2026-04-09T10:42:44.413997+05:30
Tirupati,Andhra Pradesh,13.6288,79.4192,32.7,60,0.0,995.2,8.75,29.9,99,38.0,35.0,0,5,7,1,2026-04-09T10:42:44.414008+05:30
Warangal,Telangana,17.9689,79.5941,32.0,62,0.0,982.0,9.05,24.5,104,30.6,28.6,3,5,7,1,2026-04-09T10:42:44.414014+05:30
Nizamabad,Telangana,18.6725,78.0941,31.6,40,0.0,968.9,8.95,25.9,90,63.1,26.6,0,5,7,1,2026-04-09T10:42:44.414021+05:30
Mysore,Karnataka,12.2958,76.6396,29.8,48,0.0,933.0,9.55,37.1,48,19.7,12.7,4,5,7,1,2026-04-09T10:42:44.414028+05:30
Mangalore,Karnataka,12.9141,74.856,29.0,76,0.0,1011.1,9.15,34.2,74,67.1,24.0,7,0,4,1,2026-04-09T10:42:44.414034+05:30
Hubli-Dharwad,Karnataka,15.3647,75.124,28.9,54,0.0,945.3,9.2,40.3,67,77.8,23.7,4,5,7,1,2026-04-09T10:42:44.414040+05:30
Belgaum,Karnataka,15.8497,74.4977,27.5,55,0.0,929.8,9.2,36.4,76,110.1,24.5,4,5,7,1,2026-04-09T10:42:47.686740+05:30
Coimbatore,Tamil Nadu,11.0168,76.9558,31.7,50,0.0,965.9,9.5,38.9,44,15.4,8.9,0,5,7,1,2026-04-09T10:42:47.686774+05:30
Madurai,Tamil Nadu,9.9252,78.1198,32.5,57,0.0,996.6,9.4,21.6,92,38.0,32.5,0,5,7,1,2026-04-09T10:42:47.686787+05:30
Trichy,Tamil Nadu,10.7905,78.7047,32.4,61,0.0,1003.4,9.4,20.9,79,28.9,23.7,3,5,4,1,2026-04-09T10:42:47.686798+05:30
Salem,Tamil Nadu,11.6643,78.146,30.9,62,0.0,981.5,9.3,36.4,74,21.4,18.9,3,5,7,1,2026-04-09T10:42:47.686807+05:30
Tirunelveli,Tamil Nadu,8.7139,77.7567,33.4,51,0.0,1006.4,8.9,32.0,68,18.2,14.0,0,5,4,1,2026-04-09T10:42:47.686817+05:30
Vellore,Tamil Nadu,12.9165,79.1325,32.3,58,0.0,988.5,9.45,19.4,118,36.0,32.2,0,5,7,1,2026-04-09T10:42:47.686825+05:30
Erode,Tamil Nadu,11.341,77.7172,32.6,56,0.0,993.0,8.85,22.0,59,13.6,10.4,0,5,7,1,2026-04-09T10:42:47.686833+05:30
Kochi,Kerala,9.9312,76.2673,28.5,78,0.0,1012.6,8.55,25.2,66,26.1,17.6,7,0,4,1,2026-04-09T10:42:47.686841+05:30
Thiruvananthapuram,Kerala,8.5241,76.9366,28.6,78,0.0,1011.6,9.1,30.6,51,24.3,16.4,7,0,4,1,2026-04-09T10:42:47.686848+05:30
Kozhikode,Kerala,11.2588,75.7804,30.4,71,0.0,1011.8,9.15,25.9,61,66.4,25.0,3,0,4,1,2026-04-09T10:42:47.686855+05:30
Thrissur,Kerala,10.5276,76.2144,31.3,65,0.0,1011.1,8.6,28.8,62,27.2,16.2,3,0,4,1,2026-04-09T10:42:47.686862+05:30
Kannur,Kerala,11.8745,75.3704,31.2,61,0.0,1011.3,9.15,32.8,67,69.2,24.9,3,0,4,1,2026-04-09T10:42:47.686869+05:30
Patna,Bihar,25.5941,85.1376,27.9,56,0.0,1005.9,8.3,27.4,108,57.9,34.0,4,5,4,1,2026-04-09T10:42:47.686875+05:30
Gaya,Bihar,24.7914,85.0002,26.9,64,0.0,999.3,8.4,22.7,112,88.7,45.3,7,5,7,1,2026-04-09T10:42:47.686882+05:30
Muzaffarpur,Bihar,26.1209,85.3647,27.6,54,0.0,1006.0,8.25,20.5,119,57.9,35.7,4,5,4,1,2026-04-09T10:42:47.686888+05:30
Bhagalpur,Bihar,25.2425,87.0117,26.4,67,0.0,1006.7,8.3,23.4,99,23.3,19.5,7,5,4,1,2026-04-09T10:42:47.686894+05:30
Ranchi,Jharkhand,23.3441,85.3096,25.6,60,0.0,941.9,8.95,32.4,125,71.2,26.4,4,5,7,1,2026-04-09T10:42:47.686900+05:30
Jamshedpur,Jharkhand,22.8046,86.2029,26.2,73,0.0,995.9,8.8,15.8,106,129.5,61.5,7,5,7,1,2026-04-09T10:42:47.686906+05:30
Dhanbad,Jharkhand,23.7957,86.4304,27.6,58,0.0,984.4,8.5,24.5,151,115.0,49.6,4,5,7,1,2026-04-09T10:42:47.686913+05:30
Bokaro,Jharkhand,23.6693,86.1511,26.9,64,0.0,988.6,8.3,22.7,154,110.6,49.2,7,5,7,1,2026-04-09T10:42:47.686919+05:30
Bhubaneswar,Odisha,20.2961,85.8245,31.3,66,0.0,1005.7,9.0,32.8,81,44.5,38.2,3,5,4,1,2026-04-09T10:42:47.686925+05:30
Cuttack,Odisha,20.4625,85.8828,31.1,68,0.0,1007.9,9.05,31.7,81,44.5,38.2,3,5,4,1,2026-04-09T10:42:47.686931+05:30
Rourkela,Odisha,22.2604,84.8536,27.5,70,0.0,989.6,8.75,20.2,128,151.3,61.9,7,5,7,1,2026-04-09T10:42:47.686938+05:30
Raipur,Chhattisgarh,21.2514,81.6296,30.8,47,0.0,978.9,8.85,27.0,110,107.6,44.2,0,5,7,1,2026-04-09T10:42:47.686943+05:30
Bhilai,Chhattisgarh,21.1938,81.3509,31.1,46,0.0,979.4,8.85,25.9,111,106.9,48.3,0,5,7,1,2026-04-09T10:42:47.686949+05:30
Guwahati,Assam,26.1158,91.7086,26.5,72,0.0,1006.4,7.85,22.3,76,37.1,30.9,7,5,4,1,2026-04-09T10:42:47.686955+05:30
Agartala,Tripura,23.8315,91.2868,24.7,85,0.0,1011.4,8.45,18.7,111,24.4,22.4,3,0,4,1,2026-04-09T10:42:47.686961+05:30
Shillong,Meghalaya,25.5788,91.8933,14.3,80,0.1,858.9,8.2,45.4,63,34.0,26.6,6,5,7,0,2026-04-09T10:42:47.686987+05:30
Imphal,Manipur,24.817,93.9368,20.6,76,0.0,926.8,8.15,53.3,75,23.1,15.9,3,5,7,1,2026-04-09T10:42:47.686996+05:30
Aizawl,Mizoram,23.7271,92.7176,22.6,68,0.0,896.9,8.05,49.3,67,25.7,20.5,3,5,7,1,2026-04-09T10:42:47.687002+05:30
Kohima,Nagaland,25.6701,94.1077,17.1,83,0.0,858.0,8.1,70.6,56,27.0,15.4,3,10,7,0,2026-04-09T10:42:47.687009+05:30
Gangtok,Sikkim,27.3314,88.6138,15.5,72,0.0,840.3,8.1,20.5,80,17.2,13.1,3,5,7,0,2026-04-09T10:42:47.687015+05:30
Siliguri,West Bengal,26.7271,88.3953,22.0,75,0.0,999.1,8.05,21.6,93,25.4,19.7,3,5,7,1,2026-04-09T10:42:50.960656+05:30
Durgapur,West Bengal,23.5204,87.3119,26.5,70,0.0,1000.0,8.7,18.0,125,87.5,42.0,7,5,4,1,2026-04-09T10:42:50.960691+05:30
Asansol,West Bengal,23.6739,86.9524,27.2,65,0.0,998.4,8.7,19.8,126,111.1,45.9,7,5,7,1,2026-04-09T10:42:50.960703+05:30
Pondicherry,Puducherry,11.9139,79.8145,33.8,59,0.0,1011.6,9.3,29.9,68,26.2,21.2,0,0,4,1,2026-04-09T10:42:50.960714+05:30
Port Blair,Andaman and Nicobar Islands,11.6234,92.7265,28.5,79,0.0,1011.1,9.25,12.2,30,7.7,6.1,7,0,4,1,2026-04-09T10:42:50.960724+05:30
Haridwar,Uttarakhand,29.9457,78.1642,24.4,53,0.0,981.5,6.9,30.2,67,18.5,10.2,0,5,7,0,2026-04-09T10:42:50.960733+05:30
Rishikesh,Uttarakhand,30.0869,78.2676,23.5,53,0.0,974.0,6.95,29.9,51,16.9,6.7,0,5,7,0,2026-04-09T10:42:50.960743+05:30
Nainital,Uttarakhand,29.3919,79.4542,16.5,59,0.0,809.3,7.8,40.7,55,41.3,14.0,0,5,7,0,2026-04-09T10:42:50.960752+05:30
Mussoorie,Uttarakhand,30.4599,78.0664,14.2,63,0.0,805.7,7.25,27.7,62,13.7,6.8,3,5,7,0,2026-04-09T10:42:50.960761+05:30
Dharamshala,Himachal Pradesh,32.219,76.3234,16.7,66,0.0,873.0,7.5,19.8,79,9.5,3.4,3,5,7,0,2026-04-09T10:42:50.960770+05:30
Dalhousie,Himachal Pradesh,32.5387,75.971,14.5,55,0.0,806.8,7.7,18.4,57,23.3,8.3,0,5,7,0,2026-04-09T10:42:50.960779+05:30
Patiala,Punjab,30.3398,76.3869,23.3,64,0.0,985.8,6.9,25.2,80,99.2,31.5,3,5,7,1,2026-04-09T10:42:50.960787+05:30
Bhatinda,Punjab,30.211,74.9455,24.1,63,0.0,991.2,7.6,25.6,96,98.3,45.5,3,5,7,1,2026-04-09T10:42:50.960795+05:30
Rohtak,Haryana,28.8955,76.6066,24.4,66,0.0,988.8,7.05,19.4,142,164.4,59.5,3,5,7,1,2026-04-09T10:42:50.960803+05:30
Panipat,Haryana,29.3909,76.9635,24.7,60,0.0,987.7,6.9,22.3,124,174.2,59.4,0,5,7,1,2026-04-09T10:42:50.960811+05:30
Mathura,Uttar Pradesh,27.4924,77.6737,25.0,66,0.0,993.7,7.35,25.2,295,203.5,57.0,7,5,7,1,2026-04-09T10:42:50.960819+05:30
Vrindavan,Uttar Pradesh,27.5823,77.7027,24.6,69,0.0,994.2,7.35,24.8,295,203.5,57.0,3,5,7,1,2026-04-09T10:42:50.960828+05:30
Ayodhya,Uttar Pradesh,26.7922,82.1998,27.8,42,0.0,1001.8,7.7,32.8,123,86.1,35.5,4,5,4,0,2026-04-09T10:42:50.960836+05:30
Ratlam,Madhya Pradesh,23.3315,75.0367,28.0,67,0.0,959.0,8.25,26.6,66,44.6,18.7,7,5,7,1,2026-04-09T10:42:50.960844+05:30
Sagar,Madhya Pradesh,23.8388,78.7378,29.4,38,0.0,955.2,8.4,27.0,68,76.1,22.7,4,5,7,0,2026-04-09T10:42:50.960853+05:30
Satna,Madhya Pradesh,24.6005,80.8322,27.6,51,0.0,976.9,8.4,25.2,85,76.6,22.1,4,5,7,1,2026-04-09T10:42:50.960862+05:30
Akola,Maharashtra,20.7002,77.0082,31.8,45,0.0,979.4,8.7,25.6,71,62.9,25.4,0,5,7,1,2026-04-09T10:42:50.960871+05:30
Amravati,Maharashtra,20.9374,77.7796,32.4,32,0.0,971.5,8.7,17.6,70,52.6,23.0,0,5,7,0,2026-04-09T10:42:50.960880+05:30
Latur,Maharashtra,18.4088,76.5604,29.4,39,0.0,944.1,8.95,28.4,74,120.1,36.6,4,5,7,0,2026-04-09T10:42:50.960889+05:30
Nanded,Maharashtra,19.1383,77.3091,31.5,42,0.0,973.1,8.85,20.2,75,79.9,28.5,0,5,7,1,2026-04-09T10:42:50.960897+05:30
Gulbarga,Karnataka,17.3297,76.8343,33.3,31,0.0,962.6,9.05,31.3,75,63.1,25.7,0,5,7,0,2026-04-09T10:42:50.960905+05:30
Bidar,Karnataka,17.9104,77.5199,31.2,35,0.0,939.6,9.05,32.4,91,59.6,24.3,0,5,7,0,2026-04-09T10:42:50.960913+05:30
Hospet,Karnataka,15.2689,76.3909,30.4,47,0.0,960.0,9.2,22.7,66,87.3,27.1,0,5,7,1,2026-04-09T10:42:50.960920+05:30
Tirupur,Tamil Nadu,11.1085,77.3411,32.8,48,0.0,979.3,9.1,34.2,55,17.1,12.1,0,5,7,1,2026-04-09T10:42:50.960929+05:30
Alappuzha,Kerala,9.4981,76.3388,28.5,80,0.0,1012.6,8.65,24.5,60,30.2,20.6,7,0,4,1,2026-04-09T10:42:50.960937+05:30
Munnar,Kerala,10.0889,77.0595,26.5,66,0.0,861.8,7.85,33.8,62,21.0,16.1,7,5,7,1,2026-04-09T10:42:50.960946+05:30
Silchar,Assam,24.8333,92.7789,23.5,81,0.0,1010.4,4.65,24.1,85,30.0,22.4,3,0,0,1,2026-04-09T10:42:50.960954+05:30
Dibrugarh,Assam,27.4728,94.912,22.7,78,0.0,1001.3,6.2,25.9,92,37.5,24.9,3,5,4,1,2026-04-09T10:42:50.960962+05:30
