city,state,latitude,longitude,temp,humidity,rain,pressure,uv_index,wind_gusts,aqi,pm10,pm2_5,no2,co,o3,so2,mosquito_risk,arthritis_risk,migraine_risk,frizz_risk,updated_at
Delhi,Delhi,28.6139,77.209,33.2,58,0.0,975.0,7.75,37.8,350,700.4,158.8,61.0,1116.0,40.0,31.0,0,5,7,1,2026-06-29T23:09:28.072947+05:30
Mumbai,Maharashtra,19.076,72.8777,26.1,93,0.2,1006.2,4.2,32.0,47,13.0,7.9,9.9,368.0,46.0,7.3,10,5,0,1,2026-06-29T23:09:28.072998+05:30
Bangalore,Karnataka,12.9716,77.5946,20.8,98,0.0,911.7,7.85,49.0,32,6.0,4.9,11.2,255.0,42.0,3.6,3,5,7,1,2026-06-29T23:09:28.073014+05:30
Hyderabad,Telangana,17.385,78.4867,24.5,87,0.0,951.1,7.7,34.9,34,6.6,6.5,10.5,272.0,57.0,4.8,3,5,7,1,2026-06-29T23:09:28.073024+05:30
Chennai,Tamil Nadu,13.0827,80.2707,28.5,75,0.0,1006.1,8.5,34.9,64,19.8,15.8,10.9,248.0,95.0,7.6,7,5,4,1,2026-06-29T23:09:28.073034+05:30
Kolkata,West Bengal,22.5726,88.3639,28.3,95,0.0,1001.0,8.35,25.9,101,65.2,64.3,23.2,757.0,65.0,15.5,7,5,4,1,2026-06-29T23:09:28.073042+05:30
Pune,Maharashtra,18.5204,73.8567,23.3,96,0.1,945.8,7.3,38.5,21,6.1,5.6,12.4,190.0,35.0,7.5,6,5,7,1,2026-06-29T23:09:28.073049+05:30
Ahmedabad,Gujarat,23.0225,72.5714,31.0,70,0.0,996.7,8.05,42.8,59,27.9,17.7,8.6,173.0,61.0,5.3,3,5,7,1,2026-06-29T23:09:28.073057+05:30
Jaipur,Rajasthan,26.9124,75.7873,31.5,58,0.0,953.7,8.2,34.6,156,246.8,55.4,15.0,251.0,50.0,6.0,0,5,7,1,2026-06-29T23:09:28.073064+05:30
Lucknow,Uttar Pradesh,26.8467,80.9462,30.4,79,0.0,986.8,7.85,32.8,143,83.1,51.8,16.3,304.0,94.0,10.3,3,5,7,1,2026-06-29T23:09:28.073074+05:30
Kanpur,Uttar Pradesh,26.4499,80.3319,30.8,80,0.0,984.8,8.25,41.4,139,137.8,64.5,17.5,306.0,84.0,8.6,3,5,7,1,2026-06-29T23:09:28.073080+05:30
Chandigarh,Chandigarh,30.7333,76.7794,30.0,68,0.0,961.1,7.85,34.2,126,56.9,51.0,39.4,718.0,54.0,14.0,7,5,7,1,2026-06-29T23:09:28.073087+05:30
Srinagar,Jammu and Kashmir,34.0837,74.7973,25.3,56,0.0,835.8,9.1,24.1,92,57.2,49.9,38.5,1024.0,51.0,4.1,4,5,7,0,2026-06-29T23:09:28.073094+05:30
Jammu,Jammu and Kashmir,32.7266,74.857,31.9,68,0.0,964.1,8.65,40.7,112,61.0,46.8,27.5,414.0,80.0,8.2,3,5,7,1,2026-06-29T23:09:28.073100+05:30
Amritsar,Punjab,31.634,74.8723,31.5,70,0.0,971.4,8.5,34.6,139,102.9,62.6,43.9,509.0,38.0,10.3,3,5,7,1,2026-06-29T23:09:28.073107+05:30
Ludhiana,Punjab,30.901,75.8573,32.9,62,0.0,970.0,8.0,38.2,156,163.4,94.3,56.9,825.0,36.0,13.3,3,5,7,1,2026-06-29T23:09:28.073113+05:30
Jalandhar,Punjab,31.326,75.5762,32.2,64,0.0,970.9,8.25,40.7,151,119.2,65.0,40.9,481.0,44.0,6.9,3,5,7,1,2026-06-29T23:09:28.073119+05:30
Dehradun,Uttarakhand,30.6284,78.0322,19.2,99,0.1,827.4,6.45,31.3,74,30.5,26.4,21.5,264.0,78.0,0.9,6,10,7,1,2026-06-29T23:09:28.073126+05:30
Shimla,Himachal Pradesh,31.1048,77.1734,16.2,95,0.0,780.9,6.5,37.8,79,30.4,25.6,12.5,398.0,101.0,2.0,3,10,7,0,2026-06-29T23:09:28.073132+05:30
Manali,Himachal Pradesh,32.2396,77.1887,20.4,92,0.0,816.9,8.9,36.7,52,18.4,14.2,84.0,330.0,8.0,0.2,3,5,7,1,2026-06-29T23:09:28.073142+05:30
Gurgaon,Haryana,28.4595,77.0266,32.4,61,0.0,973.3,7.85,43.2,556,737.6,162.5,67.4,969.0,26.0,24.6,3,5,7,1,2026-06-29T23:09:28.073149+05:30
Noida,Uttar Pradesh,28.5355,77.391,31.4,69,0.0,976.4,7.8,27.0,556,737.6,162.5,67.4,869.0,26.0,24.6,3,5,7,1,2026-06-29T23:09:28.073155+05:30
Ghaziabad,Uttar Pradesh,28.6692,77.4538,31.0,78,0.0,974.6,7.8,29.5,175,575.6,162.5,50.7,855.0,61.0,25.4,3,5,7,1,2026-06-29T23:09:28.073164+05:30
Faridabad,Haryana,28.4089,77.3178,32.4,61,0.0,975.7,7.85,37.8,556,737.6,162.5,67.4,1061.0,26.0,24.6,3,5,7,1,2026-06-29T23:09:28.073171+05:30
Meerut,Uttar Pradesh,28.9845,77.7064,32.2,73,0.0,973.8,7.65,28.8,175,575.6,162.5,50.7,531.0,61.0,25.4,3,5,7,1,2026-06-29T23:09:28.073177+05:30
Agra,Uttar Pradesh,27.1767,78.0081,34.2,53,0.0,980.2,8.1,43.9,481,287.8,90.1,23.6,358.0,52.0,8.4,0,5,7,1,2026-06-29T23:09:28.073184+05:30
Varanasi,Uttar Pradesh,25.3176,82.9739,32.9,65,0.0,991.0,7.3,37.8,80,30.6,28.9,21.1,382.0,57.0,8.8,3,5,7,1,2026-06-29T23:09:28.073190+05:30
Prayagraj,Uttar Pradesh,25.4358,81.8463,29.1,89,0.0,989.7,8.7,40.7,79,47.1,38.8,21.2,276.0,70.0,9.8,7,5,7,1,2026-06-29T23:09:28.073197+05:30
Gorakhpur,Uttar Pradesh,26.7606,83.3732,28.7,77,0.0,991.4,8.3,45.0,131,62.2,57.9,16.6,474.0,82.0,9.1,7,5,7,1,2026-06-29T23:09:28.073203+05:30
Bareilly,Uttar Pradesh,28.367,79.4304,27.6,90,0.1,980.3,7.55,34.2,125,48.0,37.6,11.4,382.0,102.0,6.1,10,5,7,1,2026-06-29T23:09:28.073212+05:30
Aligarh,Uttar Pradesh,27.8974,78.088,32.3,58,0.0,977.6,7.95,43.6,287,287.8,105.5,25.5,437.0,67.0,10.6,0,5,7,1,2026-06-29T23:09:28.073218+05:30
Moradabad,Uttar Pradesh,28.8386,78.7733,27.3,93,0.3,977.2,7.55,32.4,164,57.0,49.8,14.7,456.0,113.0,9.8,10,5,7,1,2026-06-29T23:09:28.073224+05:30
Saharanpur,Uttar Pradesh,29.9637,77.546,30.8,79,0.1,968.5,7.45,36.7,155,83.8,66.4,32.0,699.0,71.0,16.1,6,5,7,1,2026-06-29T23:09:28.073232+05:30
Jhansi,Uttar Pradesh,25.4484,78.5685,32.1,62,0.0,971.7,7.85,42.8,78,50.3,27.3,8.2,194.0,70.0,4.9,3,5,7,1,2026-06-29T23:09:31.345308+05:30
Surat,Gujarat,21.1702,72.8311,29.7,75,0.0,1002.6,4.85,48.6,68,20.8,14.4,17.8,242.0,35.0,29.4,7,5,0,1,2026-06-29T23:09:31.345346+05:30
Vadodara,Gujarat,22.3072,73.1812,30.0,72,0.0,999.6,6.05,45.7,62,24.8,16.7,16.1,200.0,38.0,19.3,7,5,7,1,2026-06-29T23:09:31.345357+05:30
Rajkot,Gujarat,22.3039,70.8022,30.3,62,0.0,989.6,7.55,50.0,57,30.5,15.7,4.4,115.0,49.0,4.2,3,5,7,1,2026-06-29T23:09:31.345366+05:30
Thane,Maharashtra,19.2183,72.9781,24.9,98,0.1,1005.6,3.45,26.3,47,13.0,7.9,9.9,285.0,46.0,7.3,6,5,0,1,2026-06-29T23:09:31.345374+05:30
Nagpur,Maharashtra,21.1458,79.0882,25.8,94,0.0,969.0,7.6,36.0,72,25.5,22.4,14.9,335.0,67.0,10.7,7,5,7,1,2026-06-29T23:09:31.345383+05:30
Nashik,Maharashtra,19.9975,73.7898,23.4,92,0.0,942.5,6.55,43.9,31,7.1,5.1,10.5,150.0,46.0,8.8,3,5,7,1,2026-06-29T23:09:31.345391+05:30
Aurangabad,Maharashtra,19.8762,75.3433,24.6,89,0.0,941.4,7.15,40.0,44,10.4,9.3,10.4,185.0,59.0,8.3,3,5,7,1,2026-06-29T23:09:31.345398+05:30
Solapur,Maharashtra,17.6599,75.9064,24.7,89,0.0,955.7,6.5,51.1,29,6.5,5.7,7.2,166.0,42.0,2.5,3,5,7,1,2026-06-29T23:09:31.345405+05:30
Kolhapur,Maharashtra,16.705,74.2433,22.9,95,0.0,946.9,7.9,36.7,24,5.1,4.9,6.5,153.0,42.0,2.2,3,5,7,1,2026-06-29T23:09:31.345412+05:30
Goa,Goa,15.2993,74.124,23.8,99,0.5,998.9,4.2,31.0,28,14.2,10.1,3.5,243.0,49.0,0.8,6,5,3,1,2026-06-29T23:09:31.345419+05:30
Jodhpur,Rajasthan,26.2389,73.0243,33.8,42,0.0,975.9,8.4,46.8,143,252.4,56.1,5.6,155.0,59.0,1.8,0,5,7,1,2026-06-29T23:09:31.345427+05:30
Udaipur,Rajasthan,24.5854,73.7125,28.6,62,0.0,941.3,8.8,36.0,60,25.4,15.9,5.6,151.0,72.0,3.5,7,5,7,1,2026-06-29T23:09:31.345435+05:30
Kota,Rajasthan,25.2138,75.8648,29.9,69,0.0,972.8,6.4,35.6,68,31.0,22.2,9.2,195.0,66.0,5.4,7,5,7,1,2026-06-29T23:09:31.345442+05:30
Bikaner,Rajasthan,28.0229,73.3119,35.5,36,0.0,973.3,8.45,40.3,147,179.3,55.2,2.8,131.0,70.0,2.8,0,5,10,1,2026-06-29T23:09:31.345449+05:30
Ajmer,Rajasthan,26.4499,74.6399,30.8,49,0.0,948.9,8.35,49.0,79,31.4,18.9,9.7,172.0,56.0,4.0,0,5,7,1,2026-06-29T23:09:31.345457+05:30
Gwalior,Madhya Pradesh,26.2183,78.1828,32.9,56,0.0,976.4,7.45,46.8,95,86.6,36.4,9.3,173.0,58.0,4.0,0,5,7,1,2026-06-29T23:09:31.345464+05:30
Indore,Madhya Pradesh,22.7196,75.8577,25.0,93,0.0,943.7,8.25,35.6,77,27.0,23.6,13.5,345.0,65.0,6.4,7,5,7,1,2026-06-29T23:09:31.345470+05:30
Bhopal,Madhya Pradesh,23.2599,77.4126,25.9,94,0.0,949.2,8.55,30.2,74,24.0,20.4,7.5,301.0,68.0,3.7,7,5,7,1,2026-06-29T23:09:31.345477+05:30
Jabalpur,Madhya Pradesh,23.1815,79.9864,27.6,82,0.0,957.1,7.95,32.0,65,21.1,17.4,8.8,244.0,71.0,3.2,7,5,7,1,2026-06-29T23:09:31.345484+05:30
Ujjain,Madhya Pradesh,23.1765,75.7885,25.6,89,0.0,949.3,7.55,36.0,77,28.9,23.8,7.5,291.0,70.0,4.3,7,5,7,1,2026-06-29T23:09:31.345491+05:30
Visakhapatnam,Andhra Pradesh,17.6868,83.2185,28.9,85,0.0,999.9,8.5,50.8,72,25.9,22.2,25.8,268.0,69.0,38.2,7,5,7,1,2026-06-29T23:09:31.345499+05:30
Vijayawada,Andhra Pradesh,16.5062,80.648,29.7,70,0.0,999.2,7.7,47.9,54,23.4,21.5,16.9,274.0,47.0,5.7,7,5,7,1,2026-06-29T23:09:31.345505+05:30
Guntur,Andhra Pradesh,16.3067,80.4365,30.2,63,0.0,1000.5,7.8,41.4,50,17.2,16.5,16.1,221.0,45.0,6.0,3,5,4,1,2026-06-29T23:09:31.345513+05:30
Nellore,Andhra Pradesh,14.4426,79.9865,26.1,92,0.2,1004.9,8.55,38.9,59,16.1,13.7,8.9,151.0,85.0,4.8,10,5,4,1,2026-06-29T23:09:31.345535+05:30
Kurnool,Andhra Pradesh,15.8281,78.0373,25.6,88,0.1,976.1,5.75,53.6,35,5.9,5.2,8.6,188.0,51.0,2.6,10,5,3,1,2026-06-29T23:09:31.345544+05:30
Kakinada,Andhra Pradesh,16.9891,82.2475,28.5,83,0.0,1003.9,7.15,50.8,55,21.0,15.9,4.8,246.0,82.0,3.6,7,5,4,1,2026-06-29T23:09:31.345552+05:30
Tirupati,Andhra Pradesh,13.6288,79.4192,25.8,88,0.0,990.3,8.35,37.4,43,21.7,20.5,33.7,189.0,30.0,3.7,7,5,7,1,2026-06-29T23:09:31.345559+05:30
Warangal,Telangana,17.9689,79.5941,27.2,79,0.0,975.5,5.75,28.1,51,15.2,14.6,10.5,233.0,61.0,3.4,7,5,3,1,2026-06-29T23:09:31.345565+05:30
Nizamabad,Telangana,18.6725,78.0941,24.4,97,0.3,962.1,5.7,32.8,55,9.1,8.6,7.7,230.0,70.0,4.4,6,5,3,1,2026-06-29T23:09:31.345572+05:30
Mysore,Karnataka,12.2958,76.6396,21.6,95,0.0,929.2,7.7,56.2,29,4.0,3.2,6.3,138.0,44.0,1.7,3,5,7,1,2026-06-29T23:09:31.345578+05:30
Mangalore,Karnataka,12.9141,74.856,25.0,95,0.7,1008.7,7.7,48.2,26,12.6,8.1,4.9,172.0,45.0,1.4,10,0,4,1,2026-06-29T23:09:31.345585+05:30
Hubli-Dharwad,Karnataka,15.3647,75.124,22.4,96,0.0,940.5,8.0,45.4,24,1.7,1.6,5.4,132.0,42.0,1.0,3,5,7,1,2026-06-29T23:09:31.345591+05:30
Belgaum,Karnataka,15.8497,74.4977,21.4,98,0.0,925.0,7.8,46.1,22,2.8,2.7,5.9,118.0,42.0,1.4,3,5,7,1,2026-06-29T23:09:34.597883+05:30
Coimbatore,Tamil Nadu,11.0168,76.9558,24.1,84,0.0,962.5,8.55,63.4,26,6.9,5.3,7.4,199.0,38.0,2.8,3,5,7,1,2026-06-29T23:09:34.597922+05:30
Madurai,Tamil Nadu,9.9252,78.1198,28.5,64,0.0,993.1,8.75,51.8,51,31.0,29.3,41.4,168.0,3.0,9.8,7,5,7,1,2026-06-29T23:09:34.597934+05:30
Trichy,Tamil Nadu,10.7905,78.7047,28.4,64,0.0,999.6,8.8,63.4,33,10.9,8.4,7.9,123.0,46.0,3.1,7,5,7,1,2026-06-29T23:09:34.597943+05:30
Salem,Tamil Nadu,11.6643,78.146,24.9,94,0.0,977.8,8.65,35.3,39,14.2,11.8,16.4,367.0,45.0,6.6,3,5,7,1,2026-06-29T23:09:34.597952+05:30
Tirunelveli,Tamil Nadu,8.7139,77.7567,28.9,60,0.0,1004.2,8.55,53.3,29,6.7,4.9,5.4,157.0,45.0,1.8,4,5,4,1,2026-06-29T23:09:34.597960+05:30
Vellore,Tamil Nadu,12.9165,79.1325,26.0,81,0.0,983.7,8.85,38.5,39,16.6,15.6,17.7,192.0,48.0,4.4,7,5,7,1,2026-06-29T23:09:34.597967+05:30
Erode,Tamil Nadu,11.341,77.7172,25.0,87,0.0,989.6,8.8,54.4,33,14.0,11.7,16.3,202.0,35.0,3.8,7,5,7,1,2026-06-29T23:09:34.597975+05:30
Kochi,Kerala,9.9312,76.2673,25.3,94,0.1,1011.6,8.25,41.4,31,13.6,10.5,13.6,259.0,29.0,3.7,10,0,4,1,2026-06-29T23:09:34.597982+05:30
Thiruvananthapuram,Kerala,8.5241,76.9366,24.9,90,0.0,1010.5,8.35,51.8,26,15.5,8.5,3.5,215.0,48.0,1.4,3,0,4,1,2026-06-29T23:09:34.597989+05:30
Kozhikode,Kerala,11.2588,75.7804,23.8,98,0.1,1010.9,8.5,42.1,27,17.0,7.8,1.1,222.0,53.0,0.5,6,0,4,1,2026-06-29T23:09:34.597996+05:30
Thrissur,Kerala,10.5276,76.2144,24.3,100,0.0,1009.9,8.5,38.5,27,13.6,10.7,7.3,326.0,38.0,2.3,3,0,4,1,2026-06-29T23:09:34.598004+05:30
Kannur,Kerala,11.8745,75.3704,24.6,95,0.5,1009.9,7.85,46.4,26,12.4,7.6,5.9,203.0,40.0,1.3,6,0,4,1,2026-06-29T23:09:34.598011+05:30
Patna,Bihar,25.5941,85.1376,28.5,92,0.0,995.0,7.6,31.7,132,45.6,44.5,20.7,372.0,80.0,13.4,7,5,7,1,2026-06-29T23:09:34.598018+05:30
Gaya,Bihar,24.7914,85.0002,28.9,88,0.2,988.7,8.5,35.3,101,30.5,29.6,13.4,361.0,77.0,7.5,10,5,7,1,2026-06-29T23:09:34.598025+05:30
Muzaffarpur,Bihar,26.1209,85.3647,26.8,97,0.1,995.5,8.55,26.3,132,55.6,53.4,19.0,375.0,94.0,13.5,10,5,7,1,2026-06-29T23:09:34.598033+05:30
Bhagalpur,Bihar,25.2425,87.0117,27.4,95,0.1,996.4,6.35,23.0,142,64.7,63.1,20.5,356.0,79.0,15.5,10,5,7,1,2026-06-29T23:09:34.598040+05:30
Ranchi,Jharkhand,23.3441,85.3096,25.7,90,0.0,933.9,8.9,39.2,108,36.9,36.2,12.9,307.0,81.0,4.5,7,5,7,1,2026-06-29T23:09:34.598046+05:30
Jamshedpur,Jharkhand,22.8046,86.2029,27.3,91,0.0,986.1,8.75,37.1,126,59.6,58.8,28.5,524.0,56.0,25.2,7,5,7,1,2026-06-29T23:09:34.598053+05:30
Dhanbad,Jharkhand,23.7957,86.4304,28.4,87,0.0,975.2,8.45,33.1,154,96.6,96.2,71.7,843.0,34.0,215.9,7,5,7,1,2026-06-29T23:09:34.598060+05:30
Bokaro,Jharkhand,23.6693,86.1511,28.5,89,0.0,979.1,8.7,37.8,141,79.4,78.5,46.0,393.0,64.0,164.7,7,5,7,1,2026-06-29T23:09:34.598067+05:30
Bhubaneswar,Odisha,20.2961,85.8245,28.6,89,0.0,998.0,7.65,36.4,82,25.1,23.2,8.6,290.0,96.0,7.5,7,5,7,1,2026-06-29T23:09:34.598074+05:30
Cuttack,Odisha,20.4625,85.8828,29.0,87,0.0,999.7,7.85,43.9,82,25.1,23.2,8.6,340.0,96.0,7.5,7,5,7,1,2026-06-29T23:09:34.598081+05:30
Rourkela,Odisha,22.2604,84.8536,27.1,90,0.0,980.8,8.45,37.4,110,55.9,54.4,23.8,558.0,79.0,18.9,7,5,7,1,2026-06-29T23:09:34.598089+05:30
Raipur,Chhattisgarh,21.2514,81.6296,27.3,93,0.0,970.5,8.85,36.7,85,33.2,30.5,22.9,646.0,82.0,43.3,7,5,7,1,2026-06-29T23:09:34.598096+05:30
Bhilai,Chhattisgarh,21.1938,81.3509,27.3,90,0.1,970.8,8.55,40.7,83,32.6,29.6,18.9,736.0,89.0,37.7,10,5,7,1,2026-06-29T23:09:34.598103+05:30
Guwahati,Assam,26.1158,91.7086,26.1,98,0.1,997.9,4.95,25.2,54,17.6,17.2,12.1,491.0,49.0,2.7,10,5,3,1,2026-06-29T23:09:34.598109+05:30
Agartala,Tripura,23.8315,91.2868,26.4,94,0.0,1002.4,7.25,34.2,51,20.7,20.3,14.6,269.0,44.0,2.6,7,5,4,1,2026-06-29T23:09:34.598115+05:30
Shillong,Meghalaya,25.5788,91.8933,20.1,98,0.0,855.1,7.25,26.6,30,4.3,4.2,6.7,262.0,63.0,1.9,3,5,7,1,2026-06-29T23:09:34.598121+05:30
Imphal,Manipur,24.817,93.9368,23.5,92,0.0,920.7,8.6,26.3,37,9.8,9.7,10.6,381.0,32.0,2.2,3,5,7,1,2026-06-29T23:09:34.598128+05:30
Aizawl,Mizoram,23.7271,92.7176,20.2,95,0.0,889.3,8.7,33.1,24,4.3,4.1,5.2,149.0,40.0,0.7,3,5,7,1,2026-06-29T23:09:34.598135+05:30
Kohima,Nagaland,25.6701,94.1077,20.6,91,0.1,853.4,7.4,23.4,23,6.5,6.3,8.2,266.0,36.0,1.1,6,5,7,1,2026-06-29T23:09:34.598141+05:30
Gangtok,Sikkim,27.3314,88.6138,18.6,99,0.1,835.7,6.6,27.7,67,10.6,10.2,5.8,315.0,112.0,2.1,6,10,7,1,2026-06-29T23:09:34.598148+05:30
Siliguri,West Bengal,26.7271,88.3953,24.9,96,0.1,989.2,7.75,30.2,73,27.4,26.2,11.3,468.0,108.0,4.4,6,5,7,1,2026-06-29T23:09:37.850905+05:30
Durgapur,West Bengal,23.5204,87.3119,27.6,92,0.0,990.2,8.65,28.4,158,77.3,76.8,43.2,722.0,57.0,66.1,7,5,7,1,2026-06-29T23:09:37.850944+05:30
Asansol,West Bengal,23.6739,86.9524,28.0,90,0.0,988.9,8.25,31.3,153,69.8,69.2,48.4,386.0,53.0,78.6,7,5,7,1,2026-06-29T23:09:37.850957+05:30
Pondicherry,Puducherry,11.9139,79.8145,28.1,82,0.1,1007.8,8.8,45.0,56,16.2,13.2,13.7,277.0,67.0,7.5,10,5,4,1,2026-06-29T23:09:37.850966+05:30
Port Blair,Andaman and Nicobar Islands,11.6234,92.7265,26.5,89,0.0,1006.9,5.65,42.8,26,11.8,7.2,0.2,89.0,49.0,0.2,7,5,0,1,2026-06-29T23:09:37.850975+05:30
Haridwar,Uttarakhand,29.9457,78.1642,29.3,76,0.0,967.5,7.4,37.8,128,48.7,44.6,17.9,364.0,70.0,8.9,7,5,7,1,2026-06-29T23:09:37.850983+05:30
Rishikesh,Uttarakhand,30.0869,78.2676,28.5,83,0.0,960.3,6.25,27.0,101,34.5,29.8,15.2,356.0,65.0,4.5,7,5,7,1,2026-06-29T23:09:37.850991+05:30
Nainital,Uttarakhand,29.3919,79.4542,17.2,97,0.0,802.5,5.6,31.0,144,40.9,29.9,6.5,364.0,127.0,4.5,3,10,3,1,2026-06-29T23:09:37.850999+05:30
Mussoorie,Uttarakhand,30.4599,78.0664,17.5,99,0.0,800.1,6.05,41.4,95,35.2,32.4,23.9,366.0,64.0,6.1,3,10,7,1,2026-06-29T23:09:37.851006+05:30
Dharamshala,Himachal Pradesh,32.219,76.3234,23.1,92,0.0,864.7,8.05,32.8,67,24.4,21.5,17.2,381.0,57.0,0.7,3,5,7,1,2026-06-29T23:09:37.851014+05:30
Dalhousie,Himachal Pradesh,32.5387,75.971,18.3,94,0.0,801.2,8.45,31.7,116,41.2,32.4,16.0,699.0,111.0,3.8,3,10,7,1,2026-06-29T23:09:37.851021+05:30
Patiala,Punjab,30.3398,76.3869,32.6,63,0.0,969.8,7.45,51.1,171,529.0,157.4,63.1,566.0,35.0,15.6,3,5,7,1,2026-06-29T23:09:37.851028+05:30
Bhatinda,Punjab,30.211,74.9455,34.8,49,0.0,974.2,8.1,32.0,151,153.7,98.7,69.5,464.0,18.0,10.3,0,5,7,1,2026-06-29T23:09:37.851035+05:30
Rohtak,Haryana,28.8955,76.6066,32.6,60,0.0,973.4,7.75,37.1,608,564.4,143.4,58.8,726.0,30.0,15.4,0,5,7,1,2026-06-29T23:09:37.851042+05:30
Panipat,Haryana,29.3909,76.9635,31.6,77,0.0,972.3,7.5,28.1,800,877.3,196.0,58.5,690.0,29.0,13.4,3,5,7,1,2026-06-29T23:09:37.851049+05:30
Mathura,Uttar Pradesh,27.4924,77.6737,32.5,59,0.0,978.9,8.05,40.7,459,154.1,58.1,25.5,316.0,51.0,5.6,0,5,7,1,2026-06-29T23:09:37.851056+05:30
Vrindavan,Uttar Pradesh,27.5823,77.7027,31.9,62,0.0,979.3,8.0,38.9,459,154.1,58.1,25.5,303.0,51.0,5.6,3,5,7,1,2026-06-29T23:09:37.851062+05:30
Ayodhya,Uttar Pradesh,26.7922,82.1998,27.9,86,0.4,989.5,8.4,28.1,128,53.0,45.9,20.2,461.0,77.0,7.4,10,5,7,1,2026-06-29T23:09:37.851069+05:30
Ratlam,Madhya Pradesh,23.3315,75.0367,26.4,84,0.0,950.4,7.65,35.6,75,28.9,23.1,6.5,207.0,76.0,4.9,7,5,7,1,2026-06-29T23:09:37.851076+05:30
Sagar,Madhya Pradesh,23.8388,78.7378,27.5,79,0.0,945.5,7.45,34.2,67,24.6,19.1,7.1,190.0,76.0,3.5,7,5,7,1,2026-06-29T23:09:37.851083+05:30
Satna,Madhya Pradesh,24.6005,80.8322,29.9,76,0.0,965.9,8.8,37.8,74,30.2,20.5,10.8,364.0,71.0,3.5,7,5,7,1,2026-06-29T23:09:37.851090+05:30
Akola,Maharashtra,20.7002,77.0082,26.9,86,0.0,971.7,6.95,32.8,60,19.2,15.6,10.2,169.0,69.0,3.4,7,5,7,1,2026-06-29T23:09:37.851098+05:30
Amravati,Maharashtra,20.9374,77.7796,27.2,82,0.0,963.6,5.95,33.5,61,16.9,14.0,9.6,193.0,70.0,3.4,7,5,3,1,2026-06-29T23:09:37.851105+05:30
Latur,Maharashtra,18.4088,76.5604,24.7,86,0.0,937.5,6.3,33.5,37,6.6,5.8,7.1,179.0,45.0,2.3,3,5,7,1,2026-06-29T23:09:37.851113+05:30
Nanded,Maharashtra,19.1383,77.3091,25.2,95,0.4,966.2,8.25,25.6,52,10.7,10.1,9.4,224.0,64.0,5.7,10,5,7,1,2026-06-29T23:09:37.851120+05:30
Gulbarga,Karnataka,17.3297,76.8343,24.9,87,0.0,957.2,6.25,43.9,30,6.9,6.0,9.8,167.0,46.0,3.0,3,5,7,1,2026-06-29T23:09:37.851127+05:30
Bidar,Karnataka,17.9104,77.5199,23.8,95,0.3,933.2,7.4,31.3,41,5.6,5.5,9.3,175.0,51.0,1.9,6,5,7,1,2026-06-29T23:09:37.851134+05:30
Hospet,Karnataka,15.2689,76.3909,23.6,90,0.0,955.6,7.65,45.7,27,2.9,2.5,5.6,127.0,43.0,1.5,3,5,7,1,2026-06-29T23:09:37.851140+05:30
Tirupur,Tamil Nadu,11.1085,77.3411,24.4,87,0.0,975.8,8.9,65.5,38,15.8,14.0,20.8,182.0,28.0,5.1,3,5,7,1,2026-06-29T23:09:37.851147+05:30
Alappuzha,Kerala,9.4981,76.3388,25.7,96,0.0,1011.5,8.35,41.0,29,13.6,8.3,7.1,89.0,43.0,2.2,7,0,4,1,2026-06-29T23:09:37.851154+05:30
Munnar,Kerala,10.0889,77.0595,16.4,98,0.1,858.0,7.7,45.0,23,4.5,4.0,7.5,95.0,33.0,1.8,6,10,7,1,2026-06-29T23:09:37.851160+05:30
Silchar,Assam,24.8333,92.7789,26.6,97,0.1,1001.5,8.3,25.2,44,18.2,17.6,9.8,241.0,50.0,4.4,10,5,4,1,2026-06-29T23:09:37.851167+05:30
Dibrugarh,Assam,27.4728,94.912,26.2,94,0.0,991.4,3.6,27.0,47,16.8,16.5,16.5,382.0,30.0,1.5,7,5,3,1,2026-06-29T23:09:37.851173+05:30
