city,state,latitude,longitude,temp,humidity,rain,pressure,uv_index,wind_gusts,aqi,pm10,pm2_5,no2,co,o3,so2,mosquito_risk,arthritis_risk,migraine_risk,frizz_risk,updated_at
Delhi,Delhi,28.6139,77.209,36.6,33,0.0,976.8,7.7,37.4,479,657.5,101.3,5.3,247.0,147.0,9.8,0,5,10,1,2026-06-22T16:10:56.327656+05:30
Mumbai,Maharashtra,19.076,72.8777,31.7,59,0.1,1004.4,7.7,42.8,37,14.6,11.7,5.3,165.0,100.0,9.8,3,5,4,1,2026-06-22T16:10:56.327704+05:30
Bangalore,Karnataka,12.9716,77.5946,23.1,90,0.4,909.5,8.5,37.8,32,4.1,3.4,6.9,303.0,77.0,2.6,6,5,7,1,2026-06-22T16:10:56.327721+05:30
Hyderabad,Telangana,17.385,78.4867,34.0,44,0.0,949.4,9.05,60.5,53,7.7,6.7,2.0,234.0,95.0,2.9,0,5,7,1,2026-06-22T16:10:56.327732+05:30
Chennai,Tamil Nadu,13.0827,80.2707,31.9,70,0.0,1003.7,8.45,34.2,69,23.6,18.5,3.9,247.0,132.0,6.7,3,5,4,1,2026-06-22T16:10:56.327741+05:30
Kolkata,West Bengal,22.5726,88.3639,26.1,97,0.6,1000.3,7.9,33.5,123,36.2,32.5,6.5,458.0,135.0,9.1,10,5,4,1,2026-06-22T16:10:56.327749+05:30
Pune,Maharashtra,18.5204,73.8567,27.4,71,0.1,944.9,8.0,43.6,29,7.9,5.8,2.2,139.0,75.0,2.6,10,5,7,1,2026-06-22T16:10:56.327756+05:30
Ahmedabad,Gujarat,23.0225,72.5714,36.2,41,0.0,996.2,8.0,40.0,71,61.7,18.7,1.3,132.0,86.0,3.0,0,5,10,1,2026-06-22T16:10:56.327763+05:30
Jaipur,Rajasthan,26.9124,75.7873,36.5,31,0.0,954.6,8.2,38.2,119,196.5,46.6,0.5,145.0,96.0,2.4,0,5,10,1,2026-06-22T16:10:56.327769+05:30
Lucknow,Uttar Pradesh,26.8467,80.9462,39.3,26,0.0,985.5,8.25,38.5,174,240.3,54.4,1.4,155.0,129.0,4.7,0,5,10,1,2026-06-22T16:10:56.327780+05:30
Kanpur,Uttar Pradesh,26.4499,80.3319,39.2,27,0.1,984.2,8.3,42.5,209,391.2,61.9,1.4,144.0,116.0,3.0,3,5,10,1,2026-06-22T16:10:56.327786+05:30
Chandigarh,Chandigarh,30.7333,76.7794,33.2,38,0.0,963.1,6.15,33.1,119,33.1,22.4,2.2,348.0,169.0,9.1,0,5,7,1,2026-06-22T16:10:56.327792+05:30
Srinagar,Jammu and Kashmir,34.0837,74.7973,22.4,60,0.0,840.8,8.2,26.6,83,17.5,11.9,1.5,290.0,143.0,2.1,0,5,7,0,2026-06-22T16:10:56.327799+05:30
Jammu,Jammu and Kashmir,32.7266,74.857,35.6,28,0.0,967.6,8.55,32.4,98,37.5,20.6,1.0,259.0,150.0,2.5,0,5,10,0,2026-06-22T16:10:56.327808+05:30
Amritsar,Punjab,31.634,74.8723,33.0,44,0.0,975.5,8.45,27.4,125,60.5,36.6,2.0,232.0,178.0,7.4,0,5,7,1,2026-06-22T16:10:56.327814+05:30
Ludhiana,Punjab,30.901,75.8573,34.8,36,0.0,973.1,7.8,42.5,128,48.7,27.8,1.7,264.0,157.0,3.3,0,5,7,1,2026-06-22T16:10:56.327821+05:30
Jalandhar,Punjab,31.326,75.5762,35.2,35,0.0,974.1,8.25,28.4,133,65.4,30.5,1.6,288.0,165.0,3.8,0,5,10,1,2026-06-22T16:10:56.327829+05:30
Dehradun,Uttarakhand,30.6284,78.0322,25.2,44,0.0,829.0,7.7,23.8,85,36.7,14.8,0.4,259.0,141.0,1.9,4,5,7,0,2026-06-22T16:10:56.327836+05:30
Shimla,Himachal Pradesh,31.1048,77.1734,20.6,47,0.0,783.9,6.9,15.5,85,27.8,15.2,0.6,225.0,141.0,2.9,0,5,7,0,2026-06-22T16:10:56.327842+05:30
Manali,Himachal Pradesh,32.2396,77.1887,17.7,82,0.0,817.4,8.85,43.2,104,7.1,5.5,3.9,135.0,153.0,0.4,3,10,7,0,2026-06-22T16:10:56.327851+05:30
Gurgaon,Haryana,28.4595,77.0266,35.4,37,0.0,975.6,7.85,39.6,943,599.8,94.1,5.1,174.0,158.0,10.0,0,5,10,1,2026-06-22T16:10:56.327857+05:30
Noida,Uttar Pradesh,28.5355,77.391,36.1,37,0.1,977.9,7.8,35.3,943,599.8,94.1,5.1,271.0,158.0,10.0,3,5,10,1,2026-06-22T16:10:56.327864+05:30
Ghaziabad,Uttar Pradesh,28.6692,77.4538,34.8,44,0.2,976.4,7.8,38.2,406,451.7,86.4,4.1,214.0,164.0,12.1,3,5,7,1,2026-06-22T16:10:56.327870+05:30
Faridabad,Haryana,28.4089,77.3178,36.7,33,0.0,977.4,7.85,42.1,943,599.8,94.1,5.1,195.0,158.0,10.0,0,5,10,1,2026-06-22T16:10:56.327877+05:30
Meerut,Uttar Pradesh,28.9845,77.7064,34.9,42,0.0,975.2,7.6,41.8,406,451.7,86.4,4.1,172.0,164.0,12.1,0,5,7,1,2026-06-22T16:10:56.327883+05:30
Agra,Uttar Pradesh,27.1767,78.0081,37.9,28,0.0,981.1,8.1,38.2,419,1113.9,128.1,1.6,145.0,114.0,2.5,0,5,10,1,2026-06-22T16:10:56.327889+05:30
Varanasi,Uttar Pradesh,25.3176,82.9739,39.0,32,0.0,989.3,8.55,37.1,109,110.6,39.3,1.8,159.0,139.0,5.9,0,5,10,1,2026-06-22T16:10:56.327896+05:30
Prayagraj,Uttar Pradesh,25.4358,81.8463,39.9,28,0.0,987.8,8.75,39.2,107,108.5,35.6,1.6,134.0,129.0,4.8,0,5,10,1,2026-06-22T16:10:56.327903+05:30
Gorakhpur,Uttar Pradesh,26.7606,83.3732,37.0,47,0.0,988.6,8.7,41.4,161,180.7,65.0,1.7,191.0,166.0,8.5,0,5,10,1,2026-06-22T16:10:56.327909+05:30
Bareilly,Uttar Pradesh,28.367,79.4304,32.7,53,0.0,979.9,8.1,38.2,163,244.9,66.4,1.6,171.0,158.0,8.1,0,5,7,1,2026-06-22T16:10:56.327918+05:30
Aligarh,Uttar Pradesh,27.8974,78.088,36.2,35,0.0,979.2,7.95,42.1,538,754.4,118.5,3.1,156.0,173.0,12.3,0,5,10,1,2026-06-22T16:10:56.327924+05:30
Moradabad,Uttar Pradesh,28.8386,78.7733,35.7,41,0.0,976.7,7.95,39.2,170,130.9,51.9,2.3,207.0,158.0,7.7,0,5,10,1,2026-06-22T16:10:56.327931+05:30
Saharanpur,Uttar Pradesh,29.9637,77.546,33.9,45,0.0,969.3,7.25,31.7,154,105.2,30.9,3.1,235.0,164.0,10.3,0,5,7,1,2026-06-22T16:10:56.327938+05:30
Jhansi,Uttar Pradesh,25.4484,78.5685,38.4,30,0.0,971.7,8.45,42.5,86,114.1,29.8,0.9,123.0,93.0,2.6,0,5,10,1,2026-06-22T16:10:59.555879+05:30
Surat,Gujarat,21.1702,72.8311,32.8,58,0.0,1002.0,5.95,45.7,59,19.6,15.9,13.7,219.0,47.0,41.3,0,5,0,1,2026-06-22T16:10:59.555915+05:30
Vadodara,Gujarat,22.3072,73.1812,36.8,40,0.0,998.3,7.85,44.6,52,23.2,12.6,1.8,137.0,94.0,3.3,0,5,10,1,2026-06-22T16:10:59.555926+05:30
Rajkot,Gujarat,22.3039,70.8022,37.3,33,0.0,987.9,7.55,45.7,68,90.8,27.5,1.1,108.0,90.0,3.3,0,5,10,1,2026-06-22T16:10:59.555935+05:30
Thane,Maharashtra,19.2183,72.9781,32.8,56,0.0,1003.7,7.7,41.0,37,14.6,11.7,5.3,171.0,100.0,9.8,0,5,4,1,2026-06-22T16:10:59.555943+05:30
Nagpur,Maharashtra,21.1458,79.0882,35.1,41,0.2,968.1,8.2,46.8,67,32.8,21.8,6.4,126.0,99.0,12.4,3,5,10,1,2026-06-22T16:10:59.555951+05:30
Nashik,Maharashtra,19.9975,73.7898,27.7,75,0.2,942.3,7.4,43.9,29,5.8,5.7,2.5,129.0,89.0,4.8,10,5,7,1,2026-06-22T16:10:59.555959+05:30
Aurangabad,Maharashtra,19.8762,75.3433,29.7,56,0.1,940.4,8.8,61.6,37,9.1,8.3,1.9,119.0,92.0,3.3,7,5,7,1,2026-06-22T16:10:59.555967+05:30
Solapur,Maharashtra,17.6599,75.9064,33.7,45,0.1,952.8,8.9,51.5,29,5.2,3.9,1.1,112.0,77.0,1.0,3,5,7,1,2026-06-22T16:10:59.555974+05:30
Kolhapur,Maharashtra,16.705,74.2433,27.0,73,0.3,945.1,8.8,43.9,26,4.0,3.4,1.9,128.0,62.0,1.0,10,5,7,1,2026-06-22T16:10:59.555981+05:30
Goa,Goa,15.2993,74.124,26.5,94,0.2,996.3,7.4,34.2,25,7.8,4.8,0.9,109.0,52.0,0.5,10,5,7,1,2026-06-22T16:10:59.555989+05:30
Jodhpur,Rajasthan,26.2389,73.0243,37.9,29,0.0,976.9,8.4,38.2,131,197.0,40.0,0.4,111.0,88.0,1.2,0,5,10,1,2026-06-22T16:10:59.555996+05:30
Udaipur,Rajasthan,24.5854,73.7125,34.0,38,0.0,942.3,8.8,35.3,73,59.0,19.0,0.6,111.0,83.0,1.7,0,5,7,1,2026-06-22T16:10:59.556003+05:30
Kota,Rajasthan,25.2138,75.8648,37.3,33,0.0,973.0,8.35,38.5,95,82.7,31.0,0.6,124.0,110.0,4.1,0,5,10,1,2026-06-22T16:10:59.556009+05:30
Bikaner,Rajasthan,28.0229,73.3119,38.7,28,0.0,975.5,8.45,33.5,150,154.6,42.4,0.2,105.0,93.0,1.6,0,5,10,1,2026-06-22T16:10:59.556016+05:30
Ajmer,Rajasthan,26.4499,74.6399,34.0,40,0.0,949.8,8.35,43.6,95,84.8,30.5,0.4,115.0,97.0,2.1,0,5,7,1,2026-06-22T16:10:59.556023+05:30
Gwalior,Madhya Pradesh,26.2183,78.1828,37.7,33,0.0,976.8,8.25,41.8,83,156.9,39.5,0.6,134.0,96.0,1.8,0,5,10,1,2026-06-22T16:10:59.556030+05:30
Indore,Madhya Pradesh,22.7196,75.8577,31.6,52,0.0,944.5,7.85,57.6,77,29.5,16.6,2.5,154.0,82.0,3.1,0,5,7,1,2026-06-22T16:10:59.556037+05:30
Bhopal,Madhya Pradesh,23.2599,77.4126,28.9,63,0.2,949.6,8.65,50.0,89,35.0,17.3,1.2,163.0,92.0,3.5,10,5,7,1,2026-06-22T16:10:59.556044+05:30
Jabalpur,Madhya Pradesh,23.1815,79.9864,34.9,39,0.0,956.5,8.3,38.9,84,73.6,34.9,0.8,142.0,115.0,2.9,0,5,7,1,2026-06-22T16:10:59.556051+05:30
Ujjain,Madhya Pradesh,23.1765,75.7885,31.2,56,0.0,950.1,7.8,63.4,75,44.4,21.5,0.8,124.0,87.0,2.7,0,5,7,1,2026-06-22T16:10:59.556058+05:30
Visakhapatnam,Andhra Pradesh,17.6868,83.2185,31.9,68,0.0,999.5,4.7,51.8,84,33.2,28.4,16.2,381.0,132.0,34.8,3,5,3,1,2026-06-22T16:10:59.556065+05:30
Vijayawada,Andhra Pradesh,16.5062,80.648,32.6,66,0.0,998.4,5.65,32.0,82,20.4,18.2,3.2,149.0,116.0,5.5,3,5,3,1,2026-06-22T16:10:59.556071+05:30
Guntur,Andhra Pradesh,16.3067,80.4365,35.0,50,0.0,999.3,4.65,31.7,78,16.7,15.1,3.1,173.0,110.0,4.8,0,5,3,1,2026-06-22T16:10:59.556078+05:30
Nellore,Andhra Pradesh,14.4426,79.9865,31.6,73,0.1,1001.8,8.1,39.2,75,25.1,20.7,3.3,146.0,146.0,5.3,6,5,4,1,2026-06-22T16:10:59.556086+05:30
Kurnool,Andhra Pradesh,15.8281,78.0373,35.5,44,0.0,972.5,8.95,46.4,44,4.5,3.7,0.8,119.0,80.0,1.3,0,5,10,1,2026-06-22T16:10:59.556094+05:30
Kakinada,Andhra Pradesh,16.9891,82.2475,31.6,70,0.0,1003.6,8.15,53.6,93,33.5,26.0,2.4,211.0,145.0,7.4,3,5,4,1,2026-06-22T16:10:59.556101+05:30
Tirupati,Andhra Pradesh,13.6288,79.4192,29.0,78,0.1,988.1,8.9,35.3,78,10.0,8.7,3.6,130.0,97.0,1.7,10,5,7,1,2026-06-22T16:10:59.556108+05:30
Warangal,Telangana,17.9689,79.5941,32.5,60,0.0,974.6,8.4,32.8,64,11.3,10.3,1.5,160.0,108.0,2.7,0,5,7,1,2026-06-22T16:10:59.556115+05:30
Nizamabad,Telangana,18.6725,78.0941,35.0,41,0.0,960.7,8.3,54.7,53,8.9,7.9,1.6,129.0,95.0,1.9,0,5,7,1,2026-06-22T16:10:59.556121+05:30
Mysore,Karnataka,12.2958,76.6396,27.9,63,0.1,926.6,8.45,45.0,29,3.6,2.7,2.4,128.0,71.0,1.2,10,5,7,1,2026-06-22T16:10:59.556128+05:30
Mangalore,Karnataka,12.9141,74.856,27.0,83,0.1,1005.7,8.5,37.8,27,6.9,4.6,1.3,108.0,59.0,1.2,10,5,4,1,2026-06-22T16:10:59.556134+05:30
Hubli-Dharwad,Karnataka,15.3647,75.124,27.4,67,0.1,938.3,8.9,54.0,25,3.1,2.2,1.7,108.0,59.0,0.7,10,5,7,1,2026-06-22T16:10:59.556140+05:30
Belgaum,Karnataka,15.8497,74.4977,25.7,76,0.0,923.5,9.0,47.5,24,3.2,2.6,2.1,108.0,55.0,1.1,7,5,7,1,2026-06-22T16:11:02.778710+05:30
Coimbatore,Tamil Nadu,11.0168,76.9558,29.0,65,0.1,960.3,8.75,54.0,27,4.2,3.4,2.1,144.0,65.0,1.6,10,5,7,1,2026-06-22T16:11:02.778747+05:30
Madurai,Tamil Nadu,9.9252,78.1198,29.8,68,0.2,991.3,7.5,37.4,56,6.1,5.2,2.4,141.0,98.0,2.1,10,5,7,1,2026-06-22T16:11:02.778758+05:30
Trichy,Tamil Nadu,10.7905,78.7047,31.8,61,0.0,996.7,8.3,37.1,47,5.6,4.3,2.3,149.0,83.0,1.8,3,5,7,1,2026-06-22T16:11:02.778767+05:30
Salem,Tamil Nadu,11.6643,78.146,28.8,77,0.1,975.0,8.05,31.7,43,6.4,6.0,2.9,158.0,102.0,5.7,10,5,7,1,2026-06-22T16:11:02.778775+05:30
Tirunelveli,Tamil Nadu,8.7139,77.7567,32.1,59,0.1,1001.5,7.85,31.0,29,4.0,3.4,1.9,110.0,71.0,0.8,3,5,4,1,2026-06-22T16:11:02.778784+05:30
Vellore,Tamil Nadu,12.9165,79.1325,32.1,60,0.0,981.3,8.95,29.5,75,6.3,5.4,1.8,146.0,99.0,2.1,0,5,7,1,2026-06-22T16:11:02.778792+05:30
Erode,Tamil Nadu,11.341,77.7172,31.9,56,0.1,986.3,8.7,36.0,33,5.2,4.5,2.9,159.0,84.0,1.8,3,5,7,1,2026-06-22T16:11:02.778799+05:30
Kochi,Kerala,9.9312,76.2673,27.2,84,0.1,1008.7,8.25,31.7,35,10.7,7.3,3.1,114.0,72.0,2.8,10,0,4,1,2026-06-22T16:11:02.778806+05:30
Thiruvananthapuram,Kerala,8.5241,76.9366,26.3,87,0.1,1008.6,7.8,32.8,28,7.8,4.7,1.1,94.0,64.0,0.6,10,0,4,1,2026-06-22T16:11:02.778813+05:30
Kozhikode,Kerala,11.2588,75.7804,27.5,83,0.0,1007.3,7.9,31.7,25,4.9,3.0,0.5,113.0,58.0,0.7,7,5,4,1,2026-06-22T16:11:02.778820+05:30
Thrissur,Kerala,10.5276,76.2144,25.5,96,0.1,1007.1,7.8,29.5,34,8.2,5.6,2.1,102.0,61.0,1.6,10,5,4,1,2026-06-22T16:11:02.778828+05:30
Kannur,Kerala,11.8745,75.3704,27.5,81,0.0,1006.4,8.55,33.5,25,4.6,3.0,1.2,118.0,55.0,0.9,7,5,4,1,2026-06-22T16:11:02.778835+05:30
Patna,Bihar,25.5941,85.1376,35.3,53,0.0,992.1,8.4,33.8,153,113.6,44.4,3.9,208.0,155.0,6.0,0,5,10,1,2026-06-22T16:11:02.778842+05:30
Gaya,Bihar,24.7914,85.0002,35.5,49,0.0,986.4,8.65,40.3,115,71.9,31.1,2.9,199.0,133.0,5.9,0,5,10,1,2026-06-22T16:11:02.778849+05:30
Muzaffarpur,Bihar,26.1209,85.3647,34.1,63,0.0,992.0,7.8,36.7,156,126.7,60.1,5.1,259.0,196.0,11.7,3,5,7,1,2026-06-22T16:11:02.778856+05:30
Bhagalpur,Bihar,25.2425,87.0117,32.2,72,0.0,993.3,8.7,30.2,141,113.6,47.8,3.2,183.0,170.0,10.8,3,5,7,1,2026-06-22T16:11:02.778863+05:30
Ranchi,Jharkhand,23.3441,85.3096,29.5,64,0.0,932.7,7.8,36.7,95,38.5,27.1,3.6,157.0,118.0,4.3,7,5,7,1,2026-06-22T16:11:02.778869+05:30
Jamshedpur,Jharkhand,22.8046,86.2029,28.3,91,0.1,984.5,5.45,45.4,115,49.0,38.0,4.7,282.0,170.0,17.3,10,5,3,1,2026-06-22T16:11:02.778876+05:30
Dhanbad,Jharkhand,23.7957,86.4304,29.0,79,0.0,973.5,5.15,39.2,151,91.3,50.8,17.0,360.0,151.0,55.6,7,5,3,1,2026-06-22T16:11:02.778883+05:30
Bokaro,Jharkhand,23.6693,86.1511,30.5,74,0.0,977.1,6.0,38.2,121,66.1,39.3,13.3,138.0,145.0,42.8,3,5,3,1,2026-06-22T16:11:02.778891+05:30
Bhubaneswar,Odisha,20.2961,85.8245,30.7,79,0.0,997.3,6.9,48.6,89,26.3,22.5,5.1,229.0,126.0,7.2,3,5,7,1,2026-06-22T16:11:02.778898+05:30
Cuttack,Odisha,20.4625,85.8828,31.2,76,0.0,998.8,8.55,42.8,89,26.3,22.5,5.1,232.0,126.0,7.2,3,5,7,1,2026-06-22T16:11:02.778904+05:30
Rourkela,Odisha,22.2604,84.8536,31.4,68,0.0,979.2,8.35,36.0,115,53.9,39.6,3.2,210.0,183.0,15.4,3,5,7,1,2026-06-22T16:11:02.778911+05:30
Raipur,Chhattisgarh,21.2514,81.6296,34.7,45,0.0,970.0,8.95,50.8,87,56.1,34.9,10.3,144.0,115.0,27.5,0,5,7,1,2026-06-22T16:11:02.778917+05:30
Bhilai,Chhattisgarh,21.1938,81.3509,34.8,44,0.0,970.3,8.95,56.9,85,56.2,33.2,10.1,252.0,111.0,24.9,0,5,7,1,2026-06-22T16:11:02.778923+05:30
Guwahati,Assam,26.1158,91.7086,27.4,93,0.1,994.6,7.75,28.8,62,23.5,19.1,2.9,335.0,105.0,2.8,10,5,7,1,2026-06-22T16:11:02.778930+05:30
Agartala,Tripura,23.8315,91.2868,28.1,89,0.1,1000.1,7.95,27.4,59,28.1,22.0,6.5,200.0,109.0,3.0,10,5,4,1,2026-06-22T16:11:02.778937+05:30
Shillong,Meghalaya,25.5788,91.8933,23.2,74,0.1,853.5,5.65,26.6,47,22.4,13.6,2.6,201.0,106.0,1.7,6,5,3,1,2026-06-22T16:11:02.778943+05:30
Imphal,Manipur,24.817,93.9368,26.1,84,0.1,917.8,5.35,29.5,73,15.4,12.1,2.1,208.0,84.0,1.1,10,5,3,1,2026-06-22T16:11:02.778950+05:30
Aizawl,Mizoram,23.7271,92.7176,20.9,95,0.2,887.9,7.6,28.8,35,2.2,2.1,1.5,163.0,77.0,0.3,6,5,7,1,2026-06-22T16:11:02.778957+05:30
Kohima,Nagaland,25.6701,94.1077,21.7,95,0.0,851.1,6.75,26.6,53,16.4,11.7,1.9,186.0,90.0,1.0,3,5,7,1,2026-06-22T16:11:02.778964+05:30
Gangtok,Sikkim,27.3314,88.6138,20.1,93,0.1,833.3,7.5,27.7,68,5.0,4.1,4.1,299.0,115.0,1.9,6,5,7,1,2026-06-22T16:11:02.778971+05:30
Siliguri,West Bengal,26.7271,88.3953,29.2,77,0.0,985.4,7.9,20.2,68,47.6,33.5,5.9,458.0,131.0,8.1,7,5,7,1,2026-06-22T16:11:06.002245+05:30
Durgapur,West Bengal,23.5204,87.3119,31.9,67,0.0,988.1,8.95,37.1,155,84.8,57.2,18.0,418.0,171.0,59.4,3,5,7,1,2026-06-22T16:11:06.002281+05:30
Asansol,West Bengal,23.6739,86.9524,31.1,67,0.0,986.9,6.4,43.9,152,97.8,55.4,16.4,223.0,162.0,51.2,3,5,7,1,2026-06-22T16:11:06.002293+05:30
Pondicherry,Puducherry,11.9139,79.8145,29.5,82,0.0,1005.3,8.55,43.9,58,22.6,18.6,4.9,171.0,131.0,9.4,7,5,4,1,2026-06-22T16:11:06.002302+05:30
Port Blair,Andaman and Nicobar Islands,11.6234,92.7265,29.5,72,0.0,1006.4,8.5,38.9,30,11.0,6.4,0.3,97.0,42.0,0.5,7,5,4,1,2026-06-22T16:11:06.002310+05:30
Haridwar,Uttarakhand,29.9457,78.1642,33.9,49,0.0,967.3,7.6,22.3,145,45.3,25.1,1.7,282.0,167.0,8.2,0,5,7,1,2026-06-22T16:11:06.002318+05:30
Rishikesh,Uttarakhand,30.0869,78.2676,33.3,45,0.0,960.3,7.75,24.1,135,49.7,25.6,1.0,284.0,168.0,6.2,0,5,7,1,2026-06-22T16:11:06.002342+05:30
Nainital,Uttarakhand,29.3919,79.4542,22.1,59,0.1,804.3,6.85,26.6,139,124.8,42.7,1.2,264.0,160.0,6.3,3,5,7,0,2026-06-22T16:11:06.002350+05:30
Mussoorie,Uttarakhand,30.4599,78.0664,22.6,47,0.0,802.1,7.6,29.9,113,37.7,22.8,1.2,264.0,159.0,5.6,0,5,7,0,2026-06-22T16:11:06.002357+05:30
Dharamshala,Himachal Pradesh,32.219,76.3234,25.2,45,0.0,866.8,8.45,45.7,81,15.0,8.9,0.6,250.0,131.0,0.6,4,5,7,0,2026-06-22T16:11:06.002363+05:30
Dalhousie,Himachal Pradesh,32.5387,75.971,21.7,53,0.0,804.3,7.8,31.3,99,27.9,16.4,1.0,210.0,145.0,1.1,0,5,7,0,2026-06-22T16:11:06.002371+05:30
Patiala,Punjab,30.3398,76.3869,33.8,35,0.0,972.8,6.7,37.4,191,646.3,86.8,1.9,213.0,154.0,5.1,0,5,7,1,2026-06-22T16:11:06.002378+05:30
Bhatinda,Punjab,30.211,74.9455,34.4,43,0.0,978.6,8.3,33.5,104,81.3,36.4,2.0,144.0,163.0,13.6,0,5,7,1,2026-06-22T16:11:06.002385+05:30
Rohtak,Haryana,28.8955,76.6066,34.1,41,0.0,976.1,6.95,39.6,543,860.5,110.4,2.6,158.0,135.0,4.0,0,5,7,1,2026-06-22T16:11:06.002391+05:30
Panipat,Haryana,29.3909,76.9635,33.9,45,0.0,974.4,7.5,36.4,1491,1929.7,212.8,3.2,159.0,133.0,7.9,0,5,7,1,2026-06-22T16:11:06.002397+05:30
Mathura,Uttar Pradesh,27.4924,77.6737,36.4,30,0.0,980.5,8.05,32.4,435,920.1,111.3,2.6,139.0,124.0,3.5,0,5,10,1,2026-06-22T16:11:06.002404+05:30
Vrindavan,Uttar Pradesh,27.5823,77.7027,36.1,33,0.0,980.8,8.0,32.4,435,920.1,111.3,2.6,135.0,124.0,3.5,0,5,10,1,2026-06-22T16:11:06.002410+05:30
Ayodhya,Uttar Pradesh,26.7922,82.1998,36.0,49,0.3,986.7,8.05,35.6,160,265.4,63.8,1.6,166.0,147.0,8.5,3,5,10,1,2026-06-22T16:11:06.002417+05:30
Ratlam,Madhya Pradesh,23.3315,75.0367,33.7,47,0.0,950.5,7.8,41.4,69,50.3,24.7,0.7,115.0,84.0,2.2,0,5,7,1,2026-06-22T16:11:06.002424+05:30
Sagar,Madhya Pradesh,23.8388,78.7378,35.8,35,0.0,945.3,8.7,46.1,92,89.6,37.1,0.6,132.0,107.0,3.1,0,5,10,1,2026-06-22T16:11:06.002430+05:30
Satna,Madhya Pradesh,24.6005,80.8322,36.8,35,0.0,965.3,8.8,40.0,80,65.4,27.5,0.6,128.0,106.0,2.1,0,5,10,1,2026-06-22T16:11:06.002436+05:30
Akola,Maharashtra,20.7002,77.0082,35.3,43,0.0,970.6,8.85,58.3,56,12.2,9.1,1.4,111.0,103.0,5.5,0,5,10,1,2026-06-22T16:11:06.002445+05:30
Amravati,Maharashtra,20.9374,77.7796,33.5,47,0.1,963.1,8.6,49.7,59,13.8,11.3,1.8,112.0,106.0,6.7,3,5,7,1,2026-06-22T16:11:06.002453+05:30
Latur,Maharashtra,18.4088,76.5604,34.1,44,0.0,935.8,8.9,42.1,35,4.5,3.8,1.0,110.0,75.0,0.6,0,5,7,1,2026-06-22T16:11:06.002461+05:30
Nanded,Maharashtra,19.1383,77.3091,36.8,37,0.0,963.8,8.85,45.4,55,11.9,10.5,1.7,127.0,99.0,2.9,0,5,10,1,2026-06-22T16:11:06.002468+05:30
Gulbarga,Karnataka,17.3297,76.8343,35.4,40,0.0,954.5,8.9,52.2,32,4.3,3.6,1.5,116.0,83.0,1.5,0,5,10,1,2026-06-22T16:11:06.002475+05:30
Bidar,Karnataka,17.9104,77.5199,32.9,48,0.0,932.1,8.25,50.0,48,8.4,7.0,1.3,128.0,98.0,1.3,0,5,7,1,2026-06-22T16:11:06.002481+05:30
Hospet,Karnataka,15.2689,76.3909,31.7,53,0.0,952.1,8.95,50.8,28,3.5,2.7,1.9,117.0,68.0,1.4,0,5,7,1,2026-06-22T16:11:06.002488+05:30
Tirupur,Tamil Nadu,11.1085,77.3411,31.7,55,0.0,972.8,8.7,55.1,34,5.4,4.7,3.0,140.0,82.0,2.2,0,5,7,1,2026-06-22T16:11:06.002494+05:30
Alappuzha,Kerala,9.4981,76.3388,26.9,85,0.1,1008.8,6.15,32.8,29,11.0,7.6,2.7,88.0,68.0,2.0,10,0,4,1,2026-06-22T16:11:06.002500+05:30
Munnar,Kerala,10.0889,77.0595,17.8,100,0.3,856.1,8.45,29.9,26,5.1,4.1,1.8,101.0,69.0,1.3,6,10,7,1,2026-06-22T16:11:06.002507+05:30
Silchar,Assam,24.8333,92.7789,29.7,77,0.1,998.3,7.4,32.0,80,17.4,13.7,2.0,212.0,94.0,2.1,10,5,7,1,2026-06-22T16:11:06.002514+05:30
Dibrugarh,Assam,27.4728,94.912,29.4,78,0.1,988.1,7.15,24.8,72,25.1,18.0,3.6,216.0,110.0,1.9,10,5,7,1,2026-06-22T16:11:06.002520+05:30
