city,state,latitude,longitude,temp,humidity,rain,pressure,uv_index,wind_gusts,aqi,pm10,pm2_5,mosquito_risk,arthritis_risk,migraine_risk,frizz_risk,updated_at
Delhi,Delhi,28.6139,77.209,25.1,65,0.0,987.1,5.6,34.9,196,162.5,46.4,7,5,3,1,2026-04-04T10:22:58.759388+05:30
Mumbai,Maharashtra,19.076,72.8777,27.6,72,0.0,1011.6,7.9,19.8,75,35.9,19.0,7,0,4,1,2026-04-04T10:22:58.759425+05:30
Bangalore,Karnataka,12.9716,77.5946,25.8,68,0.0,914.5,9.05,25.9,80,25.6,23.3,7,5,7,1,2026-04-04T10:22:58.759439+05:30
Hyderabad,Telangana,17.385,78.4867,31.3,48,0.0,956.3,8.1,30.6,71,16.8,14.0,0,5,7,1,2026-04-04T10:22:58.759448+05:30
Chennai,Tamil Nadu,13.0827,80.2707,33.4,53,0.0,1009.3,8.75,33.8,47,17.8,14.1,0,0,4,1,2026-04-04T10:22:58.759456+05:30
Kolkata,West Bengal,22.5726,88.3639,32.8,68,0.0,1007.0,8.6,20.2,77,53.4,48.2,3,5,4,1,2026-04-04T10:22:58.759465+05:30
Pune,Maharashtra,18.5204,73.8567,30.5,36,0.0,951.5,8.5,40.0,99,39.6,20.0,0,5,7,0,2026-04-04T10:22:58.759477+05:30
Ahmedabad,Gujarat,23.0225,72.5714,28.8,39,0.0,1006.5,7.65,24.5,57,27.3,12.3,4,5,4,0,2026-04-04T10:22:58.759484+05:30
Jaipur,Rajasthan,26.9124,75.7873,26.9,49,0.0,963.1,7.0,30.6,90,79.4,26.4,4,5,7,0,2026-04-04T10:22:58.759492+05:30
Lucknow,Uttar Pradesh,26.8467,80.9462,31.8,46,0.0,996.2,6.5,37.1,152,273.8,84.1,0,5,7,1,2026-04-04T10:22:58.759500+05:30
Kanpur,Uttar Pradesh,26.4499,80.3319,29.1,61,0.0,995.1,5.95,31.0,265,463.8,105.5,7,5,3,1,2026-04-04T10:22:58.759507+05:30
Chandigarh,Chandigarh,30.7333,76.7794,25.9,55,0.0,973.0,5.6,36.7,98,147.6,36.4,4,5,3,1,2026-04-04T10:22:58.759514+05:30
Srinagar,Jammu and Kashmir,34.0837,74.7973,10.5,89,0.1,842.2,6.25,26.3,70,11.3,10.4,6,10,7,0,2026-04-04T10:22:58.759521+05:30
Jammu,Jammu and Kashmir,32.7266,74.857,19.9,82,0.0,977.7,6.85,30.6,60,31.1,11.7,3,10,7,1,2026-04-04T10:22:58.759529+05:30
Amritsar,Punjab,31.634,74.8723,20.5,81,0.0,985.6,7.15,21.2,79,128.1,30.5,3,5,7,1,2026-04-04T10:22:58.759536+05:30
Ludhiana,Punjab,30.901,75.8573,23.4,70,0.0,983.8,6.15,28.1,134,164.8,49.8,3,5,7,1,2026-04-04T10:22:58.759543+05:30
Jalandhar,Punjab,31.326,75.5762,21.1,80,0.0,984.8,6.5,25.2,102,118.5,38.4,3,5,7,1,2026-04-04T10:22:58.759551+05:30
Dehradun,Uttarakhand,30.6284,78.0322,17.9,55,0.0,833.7,5.4,35.3,45,14.4,5.9,0,5,3,0,2026-04-04T10:22:58.759558+05:30
Shimla,Himachal Pradesh,31.1048,77.1734,15.2,65,0.0,787.3,4.5,50.4,56,12.5,5.8,3,5,3,0,2026-04-04T10:22:58.759565+05:30
Manali,Himachal Pradesh,32.2396,77.1887,15.3,63,0.0,821.1,6.7,30.2,48,9.7,3.4,3,5,7,0,2026-04-04T10:22:58.759571+05:30
Gurgaon,Haryana,28.4595,77.0266,25.1,65,0.0,985.5,5.9,34.2,558,358.6,65.2,7,5,3,1,2026-04-04T10:22:58.759579+05:30
Noida,Uttar Pradesh,28.5355,77.391,24.7,67,0.0,988.6,5.8,31.7,558,358.6,65.2,3,5,3,1,2026-04-04T10:22:58.759586+05:30
Ghaziabad,Uttar Pradesh,28.6692,77.4538,24.5,70,0.0,986.8,5.75,27.0,230,189.5,53.3,3,5,3,1,2026-04-04T10:22:58.759592+05:30
Faridabad,Haryana,28.4089,77.3178,25.3,63,0.0,987.6,5.75,35.3,558,358.6,65.2,7,5,3,1,2026-04-04T10:22:58.759598+05:30
Meerut,Uttar Pradesh,28.9845,77.7064,24.1,76,0.0,985.7,5.75,32.4,230,189.5,53.3,3,5,3,1,2026-04-04T10:22:58.759604+05:30
Agra,Uttar Pradesh,27.1767,78.0081,26.5,58,0.0,991.0,6.05,34.6,667,419.1,67.8,4,5,7,1,2026-04-04T10:22:58.759613+05:30
Varanasi,Uttar Pradesh,25.3176,82.9739,32.3,54,0.0,999.5,6.75,33.1,76,65.7,30.4,0,5,7,1,2026-04-04T10:22:58.759621+05:30
Prayagraj,Uttar Pradesh,25.4358,81.8463,32.4,50,0.0,998.3,4.95,32.8,71,225.8,56.0,0,5,3,1,2026-04-04T10:22:58.759628+05:30
Gorakhpur,Uttar Pradesh,26.7606,83.3732,34.0,33,0.0,998.3,6.95,45.7,78,81.3,40.9,0,5,7,0,2026-04-04T10:22:58.759634+05:30
Bareilly,Uttar Pradesh,28.367,79.4304,27.0,63,0.0,990.7,5.15,30.6,128,69.6,40.5,7,5,3,1,2026-04-04T10:22:58.759641+05:30
Aligarh,Uttar Pradesh,27.8974,78.088,25.9,62,0.0,989.4,5.5,29.2,635,334.3,64.3,7,5,3,1,2026-04-04T10:22:58.759647+05:30
Moradabad,Uttar Pradesh,28.8386,78.7733,25.0,76,0.0,988.0,5.25,30.6,152,97.3,48.0,7,5,3,1,2026-04-04T10:22:58.759652+05:30
Saharanpur,Uttar Pradesh,29.9637,77.546,26.3,62,0.0,979.8,6.15,38.5,157,206.8,64.3,7,5,7,1,2026-04-04T10:22:58.759658+05:30
Jhansi,Uttar Pradesh,25.4484,78.5685,28.7,53,0.0,981.5,6.8,38.2,61,274.7,49.1,4,5,7,1,2026-04-04T10:23:02.047788+05:30
Surat,Gujarat,21.1702,72.8311,28.0,67,0.0,1010.5,7.55,25.6,84,40.2,24.2,7,0,4,1,2026-04-04T10:23:02.047819+05:30
Vadodara,Gujarat,22.3072,73.1812,29.6,47,0.0,1008.3,7.85,25.9,75,32.7,15.1,4,0,4,1,2026-04-04T10:23:02.047831+05:30
Rajkot,Gujarat,22.3039,70.8022,26.8,64,0.0,998.5,7.55,32.0,48,44.4,15.7,7,5,7,1,2026-04-04T10:23:02.047841+05:30
Thane,Maharashtra,19.2183,72.9781,29.6,61,0.0,1011.1,7.9,35.6,75,35.9,19.0,7,0,4,1,2026-04-04T10:23:02.047850+05:30
Nagpur,Maharashtra,21.1458,79.0882,27.9,61,0.0,977.2,7.1,29.5,86,38.6,32.2,7,5,7,1,2026-04-04T10:23:02.047859+05:30
Nashik,Maharashtra,19.9975,73.7898,26.6,57,0.0,948.8,8.15,37.8,59,30.6,12.6,4,5,7,1,2026-04-04T10:23:02.047867+05:30
Aurangabad,Maharashtra,19.8762,75.3433,29.5,45,0.0,947.4,8.8,35.6,72,44.5,15.9,4,5,7,1,2026-04-04T10:23:02.047875+05:30
Solapur,Maharashtra,17.6599,75.9064,29.5,58,0.0,960.1,8.95,22.7,80,43.9,37.7,4,5,7,1,2026-04-04T10:23:02.047884+05:30
Kolhapur,Maharashtra,16.705,74.2433,28.8,50,0.0,951.1,8.25,41.0,104,39.7,35.6,4,5,7,1,2026-04-04T10:23:02.047892+05:30
Goa,Goa,15.2993,74.124,30.6,55,0.0,1000.6,8.75,33.8,72,24.8,19.9,0,5,4,1,2026-04-04T10:23:02.047901+05:30
Jodhpur,Rajasthan,26.2389,73.0243,26.9,49,0.0,986.8,7.65,28.8,106,104.1,20.6,4,5,7,0,2026-04-04T10:23:02.047910+05:30
Udaipur,Rajasthan,24.5854,73.7125,24.6,56,0.0,949.6,8.3,37.4,57,26.7,9.7,0,5,7,0,2026-04-04T10:23:02.047918+05:30
Kota,Rajasthan,25.2138,75.8648,29.2,51,0.0,982.1,7.8,40.7,65,52.4,22.1,4,5,7,1,2026-04-04T10:23:02.047926+05:30
Bikaner,Rajasthan,28.0229,73.3119,26.7,40,0.0,985.7,7.05,29.9,71,215.1,36.4,4,5,7,0,2026-04-04T10:23:02.047935+05:30
Ajmer,Rajasthan,26.4499,74.6399,24.6,65,0.0,958.1,7.3,36.7,77,65.9,19.9,3,5,7,1,2026-04-04T10:23:02.047944+05:30
Gwalior,Madhya Pradesh,26.2183,78.1828,27.6,53,0.0,986.9,7.15,33.1,93,329.7,58.4,4,5,7,1,2026-04-04T10:23:02.047956+05:30
Indore,Madhya Pradesh,22.7196,75.8577,27.8,51,0.0,951.5,8.3,43.9,64,49.1,18.5,4,5,7,1,2026-04-04T10:23:02.047964+05:30
Bhopal,Madhya Pradesh,23.2599,77.4126,29.8,45,0.0,957.1,8.3,40.0,65,30.2,17.5,4,5,7,1,2026-04-04T10:23:02.047972+05:30
Jabalpur,Madhya Pradesh,23.1815,79.9864,28.8,52,0.0,965.6,5.05,30.6,78,32.9,28.5,4,5,3,1,2026-04-04T10:23:02.047980+05:30
Ujjain,Madhya Pradesh,23.1765,75.7885,27.5,53,0.0,957.3,8.2,37.4,65,44.2,15.8,4,5,7,1,2026-04-04T10:23:02.047988+05:30
Visakhapatnam,Andhra Pradesh,17.6868,83.2185,32.2,60,0.0,1005.9,8.15,38.2,61,21.8,18.9,0,5,4,1,2026-04-04T10:23:02.047996+05:30
Vijayawada,Andhra Pradesh,16.5062,80.648,30.6,67,0.0,1005.4,8.5,19.8,43,13.5,10.5,3,5,4,1,2026-04-04T10:23:02.048004+05:30
Guntur,Andhra Pradesh,16.3067,80.4365,30.8,63,0.0,1006.7,8.55,26.3,40,13.3,10.5,3,5,4,1,2026-04-04T10:23:02.048012+05:30
Nellore,Andhra Pradesh,14.4426,79.9865,31.9,57,0.0,1008.0,8.55,31.3,44,17.5,14.8,0,0,4,1,2026-04-04T10:23:02.048020+05:30
Kurnool,Andhra Pradesh,15.8281,78.0373,33.1,46,0.0,979.0,7.75,22.0,60,14.9,14.1,0,5,7,1,2026-04-04T10:23:02.048029+05:30
Kakinada,Andhra Pradesh,16.9891,82.2475,31.8,60,0.0,1009.8,8.65,33.5,27,11.1,8.9,0,0,4,1,2026-04-04T10:23:02.048038+05:30
Tirupati,Andhra Pradesh,13.6288,79.4192,32.4,56,0.0,993.8,8.85,23.4,54,22.3,21.0,0,5,7,1,2026-04-04T10:23:02.048045+05:30
Warangal,Telangana,17.9689,79.5941,31.2,58,0.0,981.9,7.4,28.8,75,25.1,22.2,0,5,7,1,2026-04-04T10:23:02.048053+05:30
Nizamabad,Telangana,18.6725,78.0941,27.3,64,0.0,968.4,8.6,27.0,120,45.2,38.1,7,5,7,1,2026-04-04T10:23:02.048060+05:30
Mysore,Karnataka,12.2958,76.6396,26.9,65,0.0,931.4,9.5,31.7,67,21.4,19.3,7,5,7,1,2026-04-04T10:23:02.048066+05:30
Mangalore,Karnataka,12.9141,74.856,28.2,79,0.0,1009.6,8.15,19.8,64,19.2,15.5,7,0,4,1,2026-04-04T10:23:02.048072+05:30
Hubli-Dharwad,Karnataka,15.3647,75.124,28.7,56,0.0,943.8,9.05,37.1,73,25.1,21.6,4,5,7,1,2026-04-04T10:23:02.048078+05:30
Belgaum,Karnataka,15.8497,74.4977,27.8,52,0.0,928.7,8.9,35.6,83,24.9,20.4,4,5,7,1,2026-04-04T10:23:05.331296+05:30
Coimbatore,Tamil Nadu,11.0168,76.9558,29.3,62,0.0,964.8,9.25,48.6,71,18.5,17.1,7,5,7,1,2026-04-04T10:23:05.331366+05:30
Madurai,Tamil Nadu,9.9252,78.1198,31.7,55,0.0,995.7,8.65,26.3,60,23.7,22.3,0,5,7,1,2026-04-04T10:23:05.331381+05:30
Trichy,Tamil Nadu,10.7905,78.7047,31.9,60,0.0,1002.3,9.25,18.7,50,16.5,15.4,0,5,4,1,2026-04-04T10:23:05.331391+05:30
Salem,Tamil Nadu,11.6643,78.146,31.1,59,0.0,980.1,8.7,29.9,54,24.6,22.9,0,5,7,1,2026-04-04T10:23:05.331401+05:30
Tirunelveli,Tamil Nadu,8.7139,77.7567,32.1,55,0.0,1005.6,7.75,21.2,66,15.5,13.9,0,5,4,1,2026-04-04T10:23:05.331414+05:30
Vellore,Tamil Nadu,12.9165,79.1325,30.6,60,0.0,987.2,8.35,26.6,69,20.1,19.0,0,5,7,1,2026-04-04T10:23:05.331422+05:30
Erode,Tamil Nadu,11.341,77.7172,32.8,54,0.0,991.4,8.8,24.1,66,24.2,22.4,0,5,7,1,2026-04-04T10:23:05.331430+05:30
Kochi,Kerala,9.9312,76.2673,27.8,83,0.0,1011.5,8.85,20.5,68,21.3,19.7,7,0,4,1,2026-04-04T10:23:05.331439+05:30
Thiruvananthapuram,Kerala,8.5241,76.9366,28.1,81,0.0,1010.4,8.0,26.3,60,19.2,16.7,7,0,4,1,2026-04-04T10:23:05.331447+05:30
Kozhikode,Kerala,11.2588,75.7804,28.3,76,0.0,1010.8,8.2,24.5,50,10.3,8.9,7,0,4,1,2026-04-04T10:23:05.331455+05:30
Thrissur,Kerala,10.5276,76.2144,29.8,71,0.0,1010.0,8.65,28.1,61,17.3,15.8,7,0,4,1,2026-04-04T10:23:05.331464+05:30
Kannur,Kerala,11.8745,75.3704,28.8,75,0.0,1010.0,8.85,23.0,59,17.5,14.6,7,0,4,1,2026-04-04T10:23:05.331472+05:30
Patna,Bihar,25.5941,85.1376,33.6,45,0.0,1001.5,7.9,39.6,77,65.0,29.6,0,5,4,1,2026-04-04T10:23:05.331480+05:30
Gaya,Bihar,24.7914,85.0002,34.3,39,0.0,995.4,8.4,27.4,78,42.1,23.6,0,5,7,1,2026-04-04T10:23:05.331488+05:30
Muzaffarpur,Bihar,26.1209,85.3647,33.2,46,0.0,1001.0,7.85,40.3,77,69.8,32.0,0,5,4,1,2026-04-04T10:23:05.331497+05:30
Bhagalpur,Bihar,25.2425,87.0117,32.0,55,0.0,1001.9,8.2,31.7,82,42.4,26.0,0,5,4,1,2026-04-04T10:23:05.331505+05:30
Ranchi,Jharkhand,23.3441,85.3096,32.1,36,0.0,940.9,8.0,41.0,79,27.6,23.2,0,5,7,0,2026-04-04T10:23:05.331513+05:30
Jamshedpur,Jharkhand,22.8046,86.2029,34.3,40,0.0,992.6,8.5,20.5,109,41.3,36.1,0,5,7,1,2026-04-04T10:23:05.331520+05:30
Dhanbad,Jharkhand,23.7957,86.4304,35.0,28,0.0,981.7,8.25,25.9,106,33.8,27.6,0,5,7,0,2026-04-04T10:23:05.331528+05:30
Bokaro,Jharkhand,23.6693,86.1511,34.0,36,0.0,985.8,8.3,28.8,105,36.7,29.4,0,5,7,1,2026-04-04T10:23:05.331536+05:30
Bhubaneswar,Odisha,20.2961,85.8245,34.0,57,0.0,1004.2,8.95,25.2,68,36.4,30.9,0,5,4,1,2026-04-04T10:23:05.331545+05:30
Cuttack,Odisha,20.4625,85.8828,34.4,56,0.0,1005.9,9.0,32.8,68,36.4,30.9,0,5,4,1,2026-04-04T10:23:05.331552+05:30
Rourkela,Odisha,22.2604,84.8536,34.6,40,0.0,987.2,8.15,39.6,113,50.5,44.5,0,5,7,1,2026-04-04T10:23:05.331560+05:30
Raipur,Chhattisgarh,21.2514,81.6296,30.4,49,0.0,978.5,6.75,41.4,114,47.7,42.4,0,5,7,1,2026-04-04T10:23:05.331567+05:30
Bhilai,Chhattisgarh,21.1938,81.3509,30.3,52,0.0,978.7,8.1,37.8,95,40.4,35.0,0,5,7,1,2026-04-04T10:23:05.331575+05:30
Guwahati,Assam,26.1158,91.7086,27.5,78,0.0,1002.3,8.0,38.2,133,50.9,41.2,7,5,4,1,2026-04-04T10:23:05.331583+05:30
Agartala,Tripura,23.8315,91.2868,31.1,69,0.0,1007.3,8.5,28.1,66,23.7,19.8,3,5,4,1,2026-04-04T10:23:05.331591+05:30
Shillong,Meghalaya,25.5788,91.8933,21.9,53,0.0,858.9,8.5,56.5,93,37.8,28.3,0,5,7,0,2026-04-04T10:23:05.331599+05:30
Imphal,Manipur,24.817,93.9368,22.4,78,0.0,925.2,8.7,78.1,134,30.5,23.3,3,5,7,1,2026-04-04T10:23:05.331607+05:30
Aizawl,Mizoram,23.7271,92.7176,26.3,65,0.0,896.0,8.7,55.1,110,31.8,22.2,7,5,7,1,2026-04-04T10:23:05.331615+05:30
Kohima,Nagaland,25.6701,94.1077,21.8,60,0.0,857.7,8.2,79.9,116,40.0,28.9,0,5,7,0,2026-04-04T10:23:05.331623+05:30
Gangtok,Sikkim,27.3314,88.6138,20.2,81,0.0,839.4,8.4,17.6,129,45.1,32.8,3,5,7,1,2026-04-04T10:23:05.331631+05:30
Siliguri,West Bengal,26.7271,88.3953,25.8,75,0.0,994.5,8.25,27.0,161,89.2,65.7,7,5,7,1,2026-04-04T10:23:08.621024+05:30
Durgapur,West Bengal,23.5204,87.3119,34.3,38,0.0,996.5,8.55,16.2,141,27.9,25.0,0,5,7,1,2026-04-04T10:23:08.621055+05:30
Asansol,West Bengal,23.6739,86.9524,34.3,37,0.0,995.1,8.3,17.6,108,30.0,25.4,0,5,7,1,2026-04-04T10:23:08.621067+05:30
Pondicherry,Puducherry,11.9139,79.8145,32.5,63,0.0,1010.5,9.05,21.6,49,11.6,10.4,3,0,4,1,2026-04-04T10:23:08.621077+05:30
Port Blair,Andaman and Nicobar Islands,11.6234,92.7265,28.3,75,0.0,1008.5,8.7,16.9,42,18.6,10.2,7,0,4,1,2026-04-04T10:23:08.621086+05:30
Haridwar,Uttarakhand,29.9457,78.1642,25.6,63,0.0,978.7,4.85,34.6,100,75.2,29.0,7,5,3,1,2026-04-04T10:23:08.621094+05:30
Rishikesh,Uttarakhand,30.0869,78.2676,26.9,51,0.0,971.2,4.95,31.0,70,16.5,6.2,4,5,3,0,2026-04-04T10:23:08.621103+05:30
Nainital,Uttarakhand,29.3919,79.4542,21.8,43,0.0,810.9,3.5,39.2,64,24.6,12.1,0,5,3,0,2026-04-04T10:23:08.621111+05:30
Mussoorie,Uttarakhand,30.4599,78.0664,19.0,54,0.0,806.7,5.5,46.4,70,19.4,11.5,0,5,3,0,2026-04-04T10:23:08.621119+05:30
Dharamshala,Himachal Pradesh,32.219,76.3234,16.0,89,0.1,871.4,7.0,49.3,44,13.2,4.1,6,10,7,0,2026-04-04T10:23:08.621128+05:30
Dalhousie,Himachal Pradesh,32.5387,75.971,11.9,86,0.0,804.2,6.85,52.6,60,36.0,16.4,3,10,7,0,2026-04-04T10:23:08.621138+05:30
Patiala,Punjab,30.3398,76.3869,25.4,58,0.0,982.8,6.1,25.2,187,274.7,59.3,4,5,7,1,2026-04-04T10:23:08.621146+05:30
Bhatinda,Punjab,30.211,74.9455,22.3,77,0.0,988.3,6.7,45.0,77,58.9,22.6,3,5,7,1,2026-04-04T10:23:08.621153+05:30
Rohtak,Haryana,28.8955,76.6066,25.8,62,0.0,986.2,6.2,31.0,165,106.9,35.0,7,5,7,1,2026-04-04T10:23:08.621161+05:30
Panipat,Haryana,29.3909,76.9635,26.0,60,0.0,984.9,5.35,28.8,434,176.0,41.8,4,5,3,1,2026-04-04T10:23:08.621169+05:30
Mathura,Uttar Pradesh,27.4924,77.6737,26.5,58,0.0,990.6,5.35,38.5,431,312.0,53.3,4,5,3,1,2026-04-04T10:23:08.621176+05:30
Vrindavan,Uttar Pradesh,27.5823,77.7027,26.6,57,0.0,991.2,5.65,29.5,431,312.0,53.3,4,5,3,1,2026-04-04T10:23:08.621184+05:30
Ayodhya,Uttar Pradesh,26.7922,82.1998,32.9,40,0.0,997.1,6.5,40.3,98,163.4,63.6,0,5,7,1,2026-04-04T10:23:08.621192+05:30
Ratlam,Madhya Pradesh,23.3315,75.0367,26.3,58,0.0,958.0,8.1,36.7,60,40.5,15.0,4,5,7,1,2026-04-04T10:23:08.621199+05:30
Sagar,Madhya Pradesh,23.8388,78.7378,31.9,34,0.0,953.7,6.95,39.6,59,23.0,19.0,0,5,7,0,2026-04-04T10:23:08.621208+05:30
Satna,Madhya Pradesh,24.6005,80.8322,32.1,48,0.0,974.4,3.4,37.1,71,47.7,28.8,0,5,3,1,2026-04-04T10:23:08.621216+05:30
Akola,Maharashtra,20.7002,77.0082,30.8,49,0.0,978.6,7.6,25.6,89,29.5,24.0,0,5,7,1,2026-04-04T10:23:08.621225+05:30
Amravati,Maharashtra,20.9374,77.7796,31.0,44,0.0,971.0,6.3,24.5,93,28.9,24.7,0,5,7,1,2026-04-04T10:23:08.621233+05:30
Latur,Maharashtra,18.4088,76.5604,27.9,58,0.0,943.1,8.7,29.5,94,41.2,35.5,4,5,7,1,2026-04-04T10:23:08.621241+05:30
Nanded,Maharashtra,19.1383,77.3091,29.0,60,0.0,972.3,8.65,19.8,90,37.6,31.8,4,5,7,1,2026-04-04T10:23:08.621249+05:30
Gulbarga,Karnataka,17.3297,76.8343,30.9,49,0.0,961.7,8.75,32.0,77,31.7,26.3,0,5,7,1,2026-04-04T10:23:08.621256+05:30
Bidar,Karnataka,17.9104,77.5199,28.7,56,0.0,938.8,8.75,31.3,90,44.2,36.4,4,5,7,1,2026-04-04T10:23:08.621264+05:30
Hospet,Karnataka,15.2689,76.3909,28.4,63,0.0,958.6,8.05,33.5,72,25.3,22.3,7,5,7,1,2026-04-04T10:23:08.621272+05:30
Tirupur,Tamil Nadu,11.1085,77.3411,31.9,53,0.0,977.8,9.05,39.6,74,24.6,22.9,0,5,7,1,2026-04-04T10:23:08.621279+05:30
Alappuzha,Kerala,9.4981,76.3388,28.2,79,0.0,1011.5,8.6,22.0,65,19.5,18.0,7,0,4,1,2026-04-04T10:23:08.621287+05:30
Munnar,Kerala,10.0889,77.0595,25.4,70,0.0,860.5,7.3,32.8,57,15.3,14.2,7,5,7,1,2026-04-04T10:23:08.621295+05:30
Silchar,Assam,24.8333,92.7789,26.0,83,0.0,1007.3,8.55,37.4,138,40.9,31.5,7,5,4,1,2026-04-04T10:23:08.621303+05:30
Dibrugarh,Assam,27.4728,94.912,26.0,81,0.0,996.8,8.2,14.4,108,45.1,34.0,7,5,7,1,2026-04-04T10:23:08.621334+05:30
