city,state,latitude,longitude,temp,humidity,rain,pressure,uv_index,wind_gusts,aqi,pm10,pm2_5,mosquito_risk,arthritis_risk,migraine_risk,frizz_risk,updated_at
Delhi,Delhi,28.6139,77.209,34.3,22,0.0,978.6,7.35,34.6,422,538.3,70.8,0,5,7,0,2026-04-22T19:19:15.766603+05:30
Mumbai,Maharashtra,19.076,72.8777,29.7,66,0.0,1006.4,8.05,23.8,136,32.7,22.9,7,5,4,1,2026-04-22T19:19:15.766654+05:30
Bangalore,Karnataka,12.9716,77.5946,31.1,20,0.0,910.3,9.6,29.5,147,21.9,18.9,0,5,7,0,2026-04-22T19:19:15.766668+05:30
Hyderabad,Telangana,17.385,78.4867,32.9,37,0.0,952.8,9.3,34.6,174,46.8,42.4,0,5,7,1,2026-04-22T19:19:15.766678+05:30
Chennai,Tamil Nadu,13.0827,80.2707,29.9,74,0.0,1005.1,9.15,32.0,38,9.1,6.3,7,5,4,1,2026-04-22T19:19:15.766685+05:30
Kolkata,West Bengal,22.5726,88.3639,30.6,78,0.0,1002.1,8.95,28.8,172,102.2,70.3,3,5,4,1,2026-04-22T19:19:15.766695+05:30
Pune,Maharashtra,18.5204,73.8567,32.3,50,0.0,947.3,8.6,41.4,178,42.4,36.2,0,5,7,1,2026-04-22T19:19:15.766702+05:30
Ahmedabad,Gujarat,23.0225,72.5714,35.0,32,0.0,999.4,8.2,26.3,71,17.8,11.8,0,5,7,0,2026-04-22T19:19:15.766708+05:30
Jaipur,Rajasthan,26.9124,75.7873,35.1,11,0.0,957.6,8.0,35.3,139,181.6,24.4,0,5,10,0,2026-04-22T19:19:15.766714+05:30
Lucknow,Uttar Pradesh,26.8467,80.9462,34.8,28,0.0,988.9,7.85,42.8,276,275.7,52.7,0,5,7,0,2026-04-22T19:19:15.766721+05:30
Kanpur,Uttar Pradesh,26.4499,80.3319,33.0,27,0.0,987.3,7.9,40.0,432,564.4,75.2,0,5,7,0,2026-04-22T19:19:15.766727+05:30
Chandigarh,Chandigarh,30.7333,76.7794,30.5,35,0.0,964.2,7.35,32.4,150,20.7,14.6,0,5,7,0,2026-04-22T19:19:15.766733+05:30
Srinagar,Jammu and Kashmir,34.0837,74.7973,20.6,69,0.0,840.9,8.5,16.2,102,24.8,14.3,3,5,7,0,2026-04-22T19:19:15.766739+05:30
Jammu,Jammu and Kashmir,32.7266,74.857,32.5,37,0.0,968.4,8.1,29.2,145,29.6,21.2,0,5,7,0,2026-04-22T19:19:15.766745+05:30
Amritsar,Punjab,31.634,74.8723,33.3,32,0.0,976.1,8.0,30.2,172,37.6,23.2,0,5,7,0,2026-04-22T19:19:15.766751+05:30
Ludhiana,Punjab,30.901,75.8573,35.0,23,0.0,974.2,7.65,30.6,135,46.1,20.7,0,5,7,0,2026-04-22T19:19:15.766758+05:30
Jalandhar,Punjab,31.326,75.5762,33.9,27,0.0,975.3,7.8,32.0,154,52.2,21.2,0,5,7,0,2026-04-22T19:19:15.766764+05:30
Dehradun,Uttarakhand,30.6284,78.0322,22.2,41,0.0,830.0,7.75,31.3,139,17.9,11.8,0,5,7,0,2026-04-22T19:19:15.766770+05:30
Shimla,Himachal Pradesh,31.1048,77.1734,20.2,34,0.0,785.5,7.85,52.6,134,19.2,10.7,0,5,7,0,2026-04-22T19:19:15.766778+05:30
Manali,Himachal Pradesh,32.2396,77.1887,22.2,62,0.0,822.5,9.8,34.2,137,23.1,11.7,3,5,7,0,2026-04-22T19:19:15.766783+05:30
Gurgaon,Haryana,28.4595,77.0266,32.0,30,0.0,976.9,7.45,31.0,1028,1195.8,132.2,0,5,7,0,2026-04-22T19:19:15.766789+05:30
Noida,Uttar Pradesh,28.5355,77.391,34.2,23,0.0,980.0,7.4,36.0,1028,1195.8,132.2,0,5,7,0,2026-04-22T19:19:15.766795+05:30
Ghaziabad,Uttar Pradesh,28.6692,77.4538,33.5,25,0.0,978.3,7.35,34.6,330,433.1,62.6,0,5,7,0,2026-04-22T19:19:15.766801+05:30
Faridabad,Haryana,28.4089,77.3178,34.4,22,0.0,979.5,7.4,35.6,1028,1195.8,132.2,0,5,7,0,2026-04-22T19:19:15.766806+05:30
Meerut,Uttar Pradesh,28.9845,77.7064,31.9,34,0.0,977.0,7.25,38.5,330,433.1,62.6,0,5,7,0,2026-04-22T19:19:15.766811+05:30
Agra,Uttar Pradesh,27.1767,78.0081,33.7,28,0.0,983.3,7.75,38.2,709,556.9,69.4,0,5,7,0,2026-04-22T19:19:15.766819+05:30
Varanasi,Uttar Pradesh,25.3176,82.9739,35.2,18,0.0,992.8,8.5,39.2,143,74.7,25.1,0,5,10,0,2026-04-22T19:19:15.766825+05:30
Prayagraj,Uttar Pradesh,25.4358,81.8463,35.0,23,0.0,991.6,8.4,36.0,135,102.9,27.6,0,5,7,0,2026-04-22T19:19:15.766830+05:30
Gorakhpur,Uttar Pradesh,26.7606,83.3732,34.6,16,0.0,992.0,8.25,38.5,156,47.6,21.9,0,5,7,0,2026-04-22T19:19:15.766837+05:30
Bareilly,Uttar Pradesh,28.367,79.4304,32.8,29,0.0,982.1,7.6,41.4,160,29.6,18.5,0,5,7,0,2026-04-22T19:19:15.766843+05:30
Aligarh,Uttar Pradesh,27.8974,78.088,33.7,23,0.0,981.1,7.5,36.7,717,795.3,102.0,0,5,7,0,2026-04-22T19:19:15.766849+05:30
Moradabad,Uttar Pradesh,28.8386,78.7733,32.7,29,0.0,979.1,7.45,39.2,150,134.1,33.3,0,5,7,0,2026-04-22T19:19:15.766854+05:30
Saharanpur,Uttar Pradesh,29.9637,77.546,31.5,35,0.0,971.1,7.0,34.6,154,135.0,31.3,0,5,7,0,2026-04-22T19:19:15.766859+05:30
Jhansi,Uttar Pradesh,25.4484,78.5685,35.9,9,0.0,974.7,8.3,34.6,99,28.7,10.2,0,5,10,1,2026-04-22T19:19:19.111532+05:30
Surat,Gujarat,21.1702,72.8311,29.3,60,0.0,1004.6,7.9,24.5,110,60.5,56.8,4,5,4,1,2026-04-22T19:19:19.111562+05:30
Vadodara,Gujarat,22.3072,73.1812,34.8,25,0.0,1001.6,8.15,29.9,123,30.4,25.1,0,5,4,0,2026-04-22T19:19:19.111572+05:30
Rajkot,Gujarat,22.3039,70.8022,33.0,39,0.0,992.3,7.85,32.0,77,21.2,10.2,0,5,7,1,2026-04-22T19:19:19.111580+05:30
Thane,Maharashtra,19.2183,72.9781,29.6,63,0.0,1005.9,8.05,37.4,136,32.7,22.9,7,5,4,1,2026-04-22T19:19:19.111588+05:30
Nagpur,Maharashtra,21.1458,79.0882,34.6,28,0.0,970.2,8.6,30.6,134,19.8,17.6,0,5,7,0,2026-04-22T19:19:19.111596+05:30
Nashik,Maharashtra,19.9975,73.7898,30.9,40,0.0,944.6,8.35,37.4,144,35.2,29.1,0,5,7,0,2026-04-22T19:19:19.111605+05:30
Aurangabad,Maharashtra,19.8762,75.3433,34.3,25,0.0,942.6,9.05,38.9,143,29.6,23.5,0,5,7,0,2026-04-22T19:19:19.111612+05:30
Solapur,Maharashtra,17.6599,75.9064,33.4,35,0.0,955.2,9.1,20.5,159,35.6,30.9,0,5,7,0,2026-04-22T19:19:19.111619+05:30
Kolhapur,Maharashtra,16.705,74.2433,29.2,64,0.0,946.6,9.05,34.6,164,39.2,36.2,7,5,7,1,2026-04-22T19:19:19.111627+05:30
Goa,Goa,15.2993,74.124,29.7,75,0.0,995.3,9.0,32.8,83,33.2,22.2,7,5,7,1,2026-04-22T19:19:19.111634+05:30
Jodhpur,Rajasthan,26.2389,73.0243,33.7,20,0.0,980.2,8.2,33.1,90,174.6,21.2,0,5,7,0,2026-04-22T19:19:19.111641+05:30
Udaipur,Rajasthan,24.5854,73.7125,30.9,19,0.0,945.7,8.75,46.8,82,15.7,11.8,0,5,7,0,2026-04-22T19:19:19.111648+05:30
Kota,Rajasthan,25.2138,75.8648,36.4,13,0.0,975.6,8.25,35.3,98,14.6,12.3,0,5,10,0,2026-04-22T19:19:19.111655+05:30
Bikaner,Rajasthan,28.0229,73.3119,37.4,16,0.0,978.0,8.05,32.4,85,67.3,15.9,0,5,10,0,2026-04-22T19:19:19.111662+05:30
Ajmer,Rajasthan,26.4499,74.6399,32.6,16,0.0,952.9,8.2,40.3,88,12.5,7.7,0,5,7,0,2026-04-22T19:19:19.111669+05:30
Gwalior,Madhya Pradesh,26.2183,78.1828,34.6,17,0.0,980.0,8.0,38.2,110,39.7,13.4,0,5,7,0,2026-04-22T19:19:19.111676+05:30
Indore,Madhya Pradesh,22.7196,75.8577,32.1,27,0.0,946.8,8.65,40.0,102,20.4,17.2,0,5,7,0,2026-04-22T19:19:19.111683+05:30
Bhopal,Madhya Pradesh,23.2599,77.4126,33.2,24,0.0,952.1,8.7,38.5,99,18.6,16.2,0,5,7,0,2026-04-22T19:19:19.111690+05:30
Jabalpur,Madhya Pradesh,23.1815,79.9864,32.7,30,0.0,959.0,8.8,33.1,116,14.2,11.9,0,5,7,0,2026-04-22T19:19:19.111697+05:30
Ujjain,Madhya Pradesh,23.1765,75.7885,32.8,25,0.0,952.6,8.6,38.2,92,20.0,17.4,0,5,7,0,2026-04-22T19:19:19.111705+05:30
Visakhapatnam,Andhra Pradesh,17.6868,83.2185,28.6,79,0.0,1001.3,8.95,38.5,62,22.3,18.6,7,5,4,1,2026-04-22T19:19:19.111711+05:30
Vijayawada,Andhra Pradesh,16.5062,80.648,32.7,47,0.0,999.9,9.25,28.1,80,24.7,22.5,0,5,7,1,2026-04-22T19:19:19.111718+05:30
Guntur,Andhra Pradesh,16.3067,80.4365,30.9,56,0.0,1001.3,9.25,33.1,100,28.3,25.3,0,5,4,1,2026-04-22T19:19:19.111726+05:30
Nellore,Andhra Pradesh,14.4426,79.9865,29.8,68,0.0,1003.3,9.25,32.0,86,12.3,9.4,7,5,4,1,2026-04-22T19:19:19.111733+05:30
Kurnool,Andhra Pradesh,15.8281,78.0373,35.5,33,0.0,975.1,9.25,25.6,156,39.7,34.6,0,5,10,1,2026-04-22T19:19:19.111741+05:30
Kakinada,Andhra Pradesh,16.9891,82.2475,30.6,65,0.0,1004.7,8.8,28.1,42,12.8,9.0,3,5,4,1,2026-04-22T19:19:19.111748+05:30
Tirupati,Andhra Pradesh,13.6288,79.4192,32.8,42,0.0,989.4,9.35,33.8,95,21.4,19.5,0,5,7,1,2026-04-22T19:19:19.111754+05:30
Warangal,Telangana,17.9689,79.5941,36.2,37,0.0,976.0,9.2,24.1,166,55.2,48.9,0,5,10,1,2026-04-22T19:19:19.111761+05:30
Nizamabad,Telangana,18.6725,78.0941,34.5,32,0.0,962.4,8.9,33.5,149,43.3,36.2,0,5,7,0,2026-04-22T19:19:19.111768+05:30
Mysore,Karnataka,12.2958,76.6396,32.4,29,0.0,926.4,9.45,35.6,158,23.6,19.7,0,5,7,0,2026-04-22T19:19:19.111775+05:30
Mangalore,Karnataka,12.9141,74.856,30.5,79,0.0,1004.3,9.1,28.8,102,30.3,23.0,3,5,4,1,2026-04-22T19:19:19.111781+05:30
Hubli-Dharwad,Karnataka,15.3647,75.124,29.7,47,0.0,939.2,9.2,37.1,171,33.4,29.7,4,5,7,1,2026-04-22T19:19:19.111788+05:30
Belgaum,Karnataka,15.8497,74.4977,28.2,66,0.0,924.7,9.25,36.0,170,38.0,32.9,7,5,7,1,2026-04-22T19:19:22.438351+05:30
Coimbatore,Tamil Nadu,11.0168,76.9558,29.4,65,0.0,959.8,9.35,37.4,135,20.1,17.8,7,5,7,1,2026-04-22T19:19:22.438381+05:30
Madurai,Tamil Nadu,9.9252,78.1198,32.5,55,0.0,990.5,9.3,38.9,85,11.5,9.9,0,5,7,1,2026-04-22T19:19:22.438391+05:30
Trichy,Tamil Nadu,10.7905,78.7047,32.8,53,0.0,997.1,9.2,23.0,81,13.4,12.4,0,5,7,1,2026-04-22T19:19:22.438398+05:30
Salem,Tamil Nadu,11.6643,78.146,33.0,35,0.0,974.8,9.1,27.7,115,13.7,12.3,0,5,7,0,2026-04-22T19:19:22.438406+05:30
Tirunelveli,Tamil Nadu,8.7139,77.7567,30.9,62,0.0,1000.7,9.25,37.8,102,20.0,18.6,3,5,4,1,2026-04-22T19:19:22.438413+05:30
Vellore,Tamil Nadu,12.9165,79.1325,31.5,43,0.0,982.5,9.35,30.2,93,21.3,20.0,0,5,7,1,2026-04-22T19:19:22.438421+05:30
Erode,Tamil Nadu,11.341,77.7172,35.2,37,0.0,985.9,9.2,24.8,98,14.1,12.7,0,5,10,1,2026-04-22T19:19:22.438428+05:30
Kochi,Kerala,9.9312,76.2673,30.0,80,0.0,1005.9,8.9,31.3,97,24.2,20.7,7,5,4,1,2026-04-22T19:19:22.438435+05:30
Thiruvananthapuram,Kerala,8.5241,76.9366,29.1,81,0.0,1005.8,8.95,28.1,102,19.9,15.6,7,5,4,1,2026-04-22T19:19:22.438442+05:30
Kozhikode,Kerala,11.2588,75.7804,30.6,78,0.0,1005.3,9.1,32.0,71,22.4,18.2,3,5,4,1,2026-04-22T19:19:22.438449+05:30
Thrissur,Kerala,10.5276,76.2144,30.2,77,0.0,1004.5,9.1,39.6,91,21.8,19.3,3,5,4,1,2026-04-22T19:19:22.438456+05:30
Kannur,Kerala,11.8745,75.3704,30.6,74,0.0,1004.7,9.05,34.6,109,29.7,24.0,3,5,4,1,2026-04-22T19:19:22.438463+05:30
Patna,Bihar,25.5941,85.1376,34.6,26,0.0,995.2,8.65,40.7,154,142.0,44.7,0,5,7,0,2026-04-22T19:19:22.438470+05:30
Gaya,Bihar,24.7914,85.0002,34.8,26,0.0,989.2,8.75,35.3,156,139.2,39.0,0,5,7,0,2026-04-22T19:19:22.438476+05:30
Muzaffarpur,Bihar,26.1209,85.3647,32.0,38,0.0,995.4,8.6,18.0,151,163.9,53.6,0,5,7,0,2026-04-22T19:19:22.438483+05:30
Bhagalpur,Bihar,25.2425,87.0117,31.2,49,0.0,996.5,8.7,20.5,172,155.5,49.1,0,5,7,1,2026-04-22T19:19:22.438489+05:30
Ranchi,Jharkhand,23.3441,85.3096,31.7,20,0.0,935.5,9.25,39.2,146,70.3,23.7,0,5,7,0,2026-04-22T19:19:22.438496+05:30
Jamshedpur,Jharkhand,22.8046,86.2029,36.0,34,0.0,986.1,9.05,23.4,198,162.5,44.4,0,5,10,1,2026-04-22T19:19:22.438503+05:30
Dhanbad,Jharkhand,23.7957,86.4304,36.4,16,0.0,975.6,9.0,29.5,153,137.4,58.8,0,5,10,0,2026-04-22T19:19:22.438509+05:30
Bokaro,Jharkhand,23.6693,86.1511,34.6,17,0.0,979.8,9.0,37.8,155,131.3,55.6,0,5,7,0,2026-04-22T19:19:22.438516+05:30
Bhubaneswar,Odisha,20.2961,85.8245,29.7,71,0.0,999.0,9.15,37.4,203,36.4,33.8,7,5,7,1,2026-04-22T19:19:22.438523+05:30
Cuttack,Odisha,20.4625,85.8828,32.2,59,0.0,1000.8,9.2,38.5,203,36.4,33.8,0,5,4,1,2026-04-22T19:19:22.438530+05:30
Rourkela,Odisha,22.2604,84.8536,35.2,24,0.0,980.4,9.0,33.1,180,78.5,34.3,0,5,10,0,2026-04-22T19:19:22.438537+05:30
Raipur,Chhattisgarh,21.2514,81.6296,36.6,18,0.0,971.2,8.95,33.5,166,39.5,31.4,0,5,10,0,2026-04-22T19:19:22.438543+05:30
Bhilai,Chhattisgarh,21.1938,81.3509,35.1,23,0.0,971.4,9.0,30.2,151,32.4,25.8,0,5,10,0,2026-04-22T19:19:22.438550+05:30
Guwahati,Assam,26.1158,91.7086,28.4,81,0.0,999.6,8.6,36.7,116,57.4,35.6,7,5,7,1,2026-04-22T19:19:22.438556+05:30
Agartala,Tripura,23.8315,91.2868,30.4,72,0.0,1002.8,8.85,31.3,84,42.5,36.9,3,5,4,1,2026-04-22T19:19:22.438563+05:30
Shillong,Meghalaya,25.5788,91.8933,16.6,80,0.0,855.7,9.05,75.2,81,46.7,26.0,3,5,7,0,2026-04-22T19:19:22.438569+05:30
Imphal,Manipur,24.817,93.9368,21.9,79,0.0,922.5,9.2,80.6,132,58.9,32.0,3,5,7,1,2026-04-22T19:19:22.438576+05:30
Aizawl,Mizoram,23.7271,92.7176,23.0,81,0.0,891.8,9.05,54.0,98,53.9,34.6,3,5,7,1,2026-04-22T19:19:22.438581+05:30
Kohima,Nagaland,25.6701,94.1077,17.1,92,0.0,854.6,9.15,88.2,106,43.9,21.0,3,10,7,0,2026-04-22T19:19:22.438586+05:30
Gangtok,Sikkim,27.3314,88.6138,18.4,83,0.0,837.4,8.9,20.2,141,66.6,39.2,3,10,7,0,2026-04-22T19:19:22.438592+05:30
Siliguri,West Bengal,26.7271,88.3953,25.4,72,0.0,991.2,8.5,22.7,150,83.1,54.4,7,5,7,1,2026-04-22T19:19:25.759330+05:30
Durgapur,West Bengal,23.5204,87.3119,34.3,46,0.0,990.9,8.95,28.8,168,169.0,64.5,0,5,7,1,2026-04-22T19:19:25.759361+05:30
Asansol,West Bengal,23.6739,86.9524,35.6,34,0.0,989.3,9.0,26.3,151,136.0,48.1,0,5,10,1,2026-04-22T19:19:25.759370+05:30
Pondicherry,Puducherry,11.9139,79.8145,29.2,78,0.0,1006.3,8.95,28.1,31,6.6,4.3,7,5,4,1,2026-04-22T19:19:25.759379+05:30
Port Blair,Andaman and Nicobar Islands,11.6234,92.7265,29.9,71,0.0,1006.0,9.15,23.4,35,10.9,8.2,7,5,4,1,2026-04-22T19:19:25.759387+05:30
Haridwar,Uttarakhand,29.9457,78.1642,30.6,36,0.0,969.9,7.15,34.6,159,63.6,20.5,0,5,7,0,2026-04-22T19:19:25.759395+05:30
Rishikesh,Uttarakhand,30.0869,78.2676,29.2,45,0.0,963.2,7.25,32.8,152,30.6,15.3,4,5,7,1,2026-04-22T19:19:25.759403+05:30
Nainital,Uttarakhand,29.3919,79.4542,24.6,31,0.0,806.3,8.05,44.6,153,31.9,16.1,0,5,7,0,2026-04-22T19:19:25.759411+05:30
Mussoorie,Uttarakhand,30.4599,78.0664,22.7,41,0.0,802.9,7.65,40.0,158,26.4,15.0,0,5,7,0,2026-04-22T19:19:25.759418+05:30
Dharamshala,Himachal Pradesh,32.219,76.3234,26.6,40,0.0,868.4,7.95,30.2,127,20.4,12.3,4,5,7,0,2026-04-22T19:19:25.759425+05:30
Dalhousie,Himachal Pradesh,32.5387,75.971,25.3,32,0.0,804.5,8.2,24.8,154,24.3,15.5,4,5,7,0,2026-04-22T19:19:25.759433+05:30
Patiala,Punjab,30.3398,76.3869,33.3,36,0.0,973.5,7.25,27.0,206,409.8,51.7,0,5,7,1,2026-04-22T19:19:25.759440+05:30
Bhatinda,Punjab,30.211,74.9455,36.2,18,0.0,978.8,7.85,30.2,144,35.0,18.1,0,5,10,0,2026-04-22T19:19:25.759447+05:30
Rohtak,Haryana,28.8955,76.6066,31.4,28,0.0,977.3,7.4,35.6,536,517.8,68.0,0,5,7,0,2026-04-22T19:19:25.759454+05:30
Panipat,Haryana,29.3909,76.9635,32.4,33,0.0,975.9,7.2,33.5,892,935.0,108.7,0,5,7,0,2026-04-22T19:19:25.759461+05:30
Mathura,Uttar Pradesh,27.4924,77.6737,33.7,23,0.0,982.0,7.7,37.8,722,713.4,85.9,0,5,7,0,2026-04-22T19:19:25.759469+05:30
Vrindavan,Uttar Pradesh,27.5823,77.7027,34.1,28,0.0,982.7,7.65,36.4,722,713.4,85.9,0,5,7,0,2026-04-22T19:19:25.759476+05:30
Ayodhya,Uttar Pradesh,26.7922,82.1998,34.6,22,0.0,990.2,8.05,44.3,156,84.3,29.0,0,5,7,0,2026-04-22T19:19:25.759483+05:30
Ratlam,Madhya Pradesh,23.3315,75.0367,30.6,38,0.0,953.3,8.45,30.6,93,19.3,16.2,0,5,7,0,2026-04-22T19:19:25.759491+05:30
Sagar,Madhya Pradesh,23.8388,78.7378,33.6,21,0.0,948.4,8.65,38.2,110,9.3,7.9,0,5,7,0,2026-04-22T19:19:25.759498+05:30
Satna,Madhya Pradesh,24.6005,80.8322,34.9,18,0.0,967.9,8.7,40.0,116,39.2,13.4,0,5,7,0,2026-04-22T19:19:25.759505+05:30
Akola,Maharashtra,20.7002,77.0082,36.5,23,0.0,972.4,8.9,26.6,122,28.1,23.0,0,5,10,0,2026-04-22T19:19:25.759512+05:30
Amravati,Maharashtra,20.9374,77.7796,34.6,31,0.0,964.5,8.8,22.0,123,28.1,22.8,0,5,7,0,2026-04-22T19:19:25.759520+05:30
Latur,Maharashtra,18.4088,76.5604,32.2,36,0.0,938.1,8.35,29.2,155,37.5,32.9,0,5,7,0,2026-04-22T19:19:25.759528+05:30
Nanded,Maharashtra,19.1383,77.3091,34.8,42,0.0,966.0,9.0,21.2,149,33.6,28.8,0,5,7,1,2026-04-22T19:19:25.759534+05:30
Gulbarga,Karnataka,17.3297,76.8343,33.4,34,0.0,957.1,9.15,25.9,161,30.3,26.6,0,5,7,0,2026-04-22T19:19:25.759541+05:30
Bidar,Karnataka,17.9104,77.5199,32.1,35,0.0,934.4,7.6,26.3,152,41.8,36.4,0,5,7,0,2026-04-22T19:19:25.759548+05:30
Hospet,Karnataka,15.2689,76.3909,33.6,38,0.0,953.9,9.25,25.9,184,39.9,35.2,0,5,7,1,2026-04-22T19:19:25.759555+05:30
Tirupur,Tamil Nadu,11.1085,77.3411,34.6,36,0.0,972.5,9.25,28.1,124,16.6,14.8,0,5,7,1,2026-04-22T19:19:25.759562+05:30
Alappuzha,Kerala,9.4981,76.3388,29.8,81,0.0,1006.2,8.8,28.1,102,25.6,20.8,7,5,4,1,2026-04-22T19:19:25.759569+05:30
Munnar,Kerala,10.0889,77.0595,24.1,81,0.0,856.2,9.65,31.0,89,19.4,17.2,3,5,7,1,2026-04-22T19:19:25.759576+05:30
Silchar,Assam,24.8333,92.7789,28.6,76,0.0,1002.6,8.85,46.4,150,56.8,40.7,7,5,4,1,2026-04-22T19:19:25.759583+05:30
Dibrugarh,Assam,27.4728,94.912,23.8,87,0.0,995.4,8.6,20.9,86,18.9,16.6,3,5,7,1,2026-04-22T19:19:25.759590+05:30
