city,state,latitude,longitude,temp,humidity,rain,pressure,uv_index,wind_gusts,aqi,pm10,pm2_5,no2,co,o3,so2,mosquito_risk,arthritis_risk,migraine_risk,frizz_risk,updated_at
Delhi,Delhi,28.6139,77.209,36.2,42,0.0,977.2,7.7,24.5,181,746.9,158.3,6.0,254.0,165.0,14.4,0,5,10,1,2026-07-15T13:47:20.306826+05:30
Mumbai,Maharashtra,19.076,72.8777,28.2,77,0.0,1007.7,7.6,42.5,70,44.7,22.3,5.6,187.0,88.0,10.1,7,5,4,1,2026-07-15T13:47:20.306867+05:30
Bangalore,Karnataka,12.9716,77.5946,31.5,30,0.0,912.3,9.15,42.5,64,15.8,10.7,2.7,221.0,98.0,2.7,0,5,7,0,2026-07-15T13:47:20.306882+05:30
Hyderabad,Telangana,17.385,78.4867,33.0,39,0.0,951.6,9.05,44.3,76,46.0,20.7,1.8,185.0,96.0,3.0,0,5,7,1,2026-07-15T13:47:20.306892+05:30
Chennai,Tamil Nadu,13.0827,80.2707,37.9,33,0.0,1003.7,8.75,37.8,89,46.2,31.7,7.1,238.0,150.0,9.7,0,5,7,1,2026-07-15T13:47:20.306900+05:30
Kolkata,West Bengal,22.5726,88.3639,29.8,83,0.0,996.9,7.65,34.2,125,13.5,12.5,6.1,237.0,107.0,6.5,7,5,7,1,2026-07-15T13:47:20.306908+05:30
Pune,Maharashtra,18.5204,73.8567,28.1,65,0.0,947.2,8.05,46.4,55,14.6,6.4,2.1,140.0,62.0,3.2,7,5,7,1,2026-07-15T13:47:20.306915+05:30
Ahmedabad,Gujarat,23.0225,72.5714,36.2,42,0.0,997.7,7.0,40.7,66,35.3,14.5,1.8,127.0,85.0,3.9,0,5,10,1,2026-07-15T13:47:20.306921+05:30
Jaipur,Rajasthan,26.9124,75.7873,33.0,49,0.0,956.2,7.65,38.2,371,523.4,93.4,2.3,136.0,82.0,4.1,0,5,7,1,2026-07-15T13:47:20.306928+05:30
Lucknow,Uttar Pradesh,26.8467,80.9462,34.5,55,0.0,987.4,7.05,23.0,166,189.5,66.4,1.4,195.0,148.0,7.2,0,5,7,1,2026-07-15T13:47:20.306939+05:30
Kanpur,Uttar Pradesh,26.4499,80.3319,35.2,47,0.1,985.9,7.6,36.7,155,149.0,49.8,1.5,165.0,135.0,5.2,3,5,10,1,2026-07-15T13:47:20.306946+05:30
Chandigarh,Chandigarh,30.7333,76.7794,34.9,50,0.0,963.0,7.7,29.9,166,113.9,75.7,2.9,424.0,230.0,16.9,0,5,7,1,2026-07-15T13:47:20.306953+05:30
Srinagar,Jammu and Kashmir,34.0837,74.7973,29.4,39,0.0,840.4,8.95,24.5,83,34.6,18.2,1.2,290.0,166.0,3.2,4,5,7,0,2026-07-15T13:47:20.306962+05:30
Jammu,Jammu and Kashmir,32.7266,74.857,31.3,57,0.0,967.2,8.55,16.6,154,78.9,51.9,1.8,351.0,204.0,6.8,0,5,7,1,2026-07-15T13:47:20.306968+05:30
Amritsar,Punjab,31.634,74.8723,34.2,52,0.0,975.0,8.35,20.5,191,115.9,62.4,2.5,471.0,181.0,8.2,0,5,7,1,2026-07-15T13:47:20.306974+05:30
Ludhiana,Punjab,30.901,75.8573,35.8,46,0.0,972.7,7.95,24.5,192,148.1,77.5,2.1,350.0,188.0,7.7,0,5,10,1,2026-07-15T13:47:20.306980+05:30
Jalandhar,Punjab,31.326,75.5762,35.3,49,0.0,973.7,8.15,18.7,200,129.9,77.1,2.2,476.0,209.0,8.4,0,5,10,1,2026-07-15T13:47:20.306986+05:30
Dehradun,Uttarakhand,30.6284,78.0322,23.6,73,0.0,829.6,7.5,25.2,99,54.4,29.7,1.0,294.0,153.0,3.8,3,5,7,1,2026-07-15T13:47:20.306992+05:30
Shimla,Himachal Pradesh,31.1048,77.1734,23.8,45,0.0,785.9,8.2,39.2,106,71.0,40.7,1.0,209.0,162.0,8.2,0,5,7,0,2026-07-15T13:47:20.306998+05:30
Manali,Himachal Pradesh,32.2396,77.1887,26.8,60,0.1,819.9,9.55,30.2,65,17.6,8.5,0.5,153.0,155.0,1.2,7,5,7,1,2026-07-15T13:47:20.307006+05:30
Gurgaon,Haryana,28.4595,77.0266,35.8,44,0.0,975.8,7.75,29.9,191,1020.7,193.2,6.1,172.0,138.0,13.3,0,5,10,1,2026-07-15T13:47:20.307012+05:30
Noida,Uttar Pradesh,28.5355,77.391,36.1,45,0.0,978.6,7.7,29.9,191,1020.7,193.2,6.1,263.0,138.0,13.3,0,5,10,1,2026-07-15T13:47:20.307020+05:30
Ghaziabad,Uttar Pradesh,28.6692,77.4538,35.8,47,0.0,976.7,7.7,32.0,175,355.8,115.9,7.7,240.0,200.0,22.9,0,5,10,1,2026-07-15T13:47:20.307027+05:30
Faridabad,Haryana,28.4089,77.3178,36.1,43,0.0,977.9,7.75,27.4,191,1020.7,193.2,6.1,212.0,138.0,13.3,0,5,10,1,2026-07-15T13:47:20.307033+05:30
Meerut,Uttar Pradesh,28.9845,77.7064,34.7,53,0.0,975.6,7.55,38.2,175,355.8,115.9,7.7,236.0,200.0,22.9,0,5,7,1,2026-07-15T13:47:20.307039+05:30
Agra,Uttar Pradesh,27.1767,78.0081,33.4,57,0.0,982.7,7.95,32.4,151,171.8,56.0,2.7,147.0,113.0,4.7,0,5,7,1,2026-07-15T13:47:20.307045+05:30
Varanasi,Uttar Pradesh,25.3176,82.9739,33.8,66,0.0,991.2,8.55,29.2,176,195.1,81.0,2.1,215.0,166.0,9.4,3,5,7,1,2026-07-15T13:47:20.307052+05:30
Prayagraj,Uttar Pradesh,25.4358,81.8463,34.6,60,0.0,990.0,8.6,30.2,168,168.1,65.0,1.6,154.0,150.0,7.7,0,5,7,1,2026-07-15T13:47:20.307059+05:30
Gorakhpur,Uttar Pradesh,26.7606,83.3732,32.9,67,0.0,990.9,8.4,28.4,161,145.8,55.4,2.5,263.0,144.0,5.2,3,5,7,1,2026-07-15T13:47:20.307065+05:30
Bareilly,Uttar Pradesh,28.367,79.4304,34.3,58,0.0,980.6,8.0,22.0,169,247.7,91.5,1.5,290.0,176.0,10.5,0,5,7,1,2026-07-15T13:47:20.307074+05:30
Aligarh,Uttar Pradesh,27.8974,78.088,33.2,63,0.0,980.2,7.75,31.0,161,536.4,125.3,3.1,161.0,153.0,10.7,3,5,7,1,2026-07-15T13:47:20.307080+05:30
Moradabad,Uttar Pradesh,28.8386,78.7733,34.4,56,0.0,977.5,7.8,27.4,174,301.7,102.2,2.5,306.0,187.0,17.7,0,5,7,1,2026-07-15T13:47:20.307086+05:30
Saharanpur,Uttar Pradesh,29.9637,77.546,33.8,55,0.0,969.7,7.35,25.2,187,219.8,100.8,2.9,393.0,217.0,19.5,0,5,7,1,2026-07-15T13:47:20.307092+05:30
Jhansi,Uttar Pradesh,25.4484,78.5685,34.2,53,0.0,973.5,6.45,42.5,122,118.3,39.2,1.2,126.0,100.0,4.0,0,5,7,1,2026-07-15T13:47:23.706864+05:30
Surat,Gujarat,21.1702,72.8311,30.9,68,0.0,1003.9,7.75,47.2,72,40.9,22.1,12.0,190.0,47.0,39.5,3,5,4,1,2026-07-15T13:47:23.706895+05:30
Vadodara,Gujarat,22.3072,73.1812,34.3,50,0.0,1000.5,7.0,42.1,65,52.4,20.4,2.1,142.0,81.0,4.2,0,5,4,1,2026-07-15T13:47:23.706905+05:30
Rajkot,Gujarat,22.3039,70.8022,35.0,47,0.0,989.9,5.7,43.2,55,40.4,17.1,1.0,103.0,78.0,3.6,0,5,3,1,2026-07-15T13:47:23.706913+05:30
Thane,Maharashtra,19.2183,72.9781,29.0,74,0.0,1006.8,6.9,36.4,70,44.7,22.3,5.6,183.0,88.0,10.1,7,5,4,1,2026-07-15T13:47:23.706921+05:30
Nagpur,Maharashtra,21.1458,79.0882,34.3,45,0.0,969.8,7.5,40.0,92,55.2,26.6,5.1,138.0,106.0,19.1,0,5,7,1,2026-07-15T13:47:23.706928+05:30
Nashik,Maharashtra,19.9975,73.7898,26.8,72,0.2,943.8,7.6,44.6,55,33.8,13.1,1.9,144.0,76.0,3.4,10,5,7,1,2026-07-15T13:47:23.706936+05:30
Aurangabad,Maharashtra,19.8762,75.3433,30.6,54,0.0,942.4,8.85,44.3,59,36.9,14.0,1.3,111.0,78.0,3.8,0,5,7,1,2026-07-15T13:47:23.706944+05:30
Solapur,Maharashtra,17.6599,75.9064,31.7,50,0.2,956.0,8.85,63.0,62,31.5,12.0,1.0,106.0,75.0,1.5,3,5,7,1,2026-07-15T13:47:23.706951+05:30
Kolhapur,Maharashtra,16.705,74.2433,25.3,77,0.0,947.8,8.3,45.0,56,20.1,9.6,1.6,119.0,65.0,1.6,7,5,7,1,2026-07-15T13:47:23.706958+05:30
Goa,Goa,15.2993,74.124,29.4,71,0.1,998.7,7.8,32.8,77,43.0,19.4,0.5,114.0,60.0,1.1,10,5,7,1,2026-07-15T13:47:23.706970+05:30
Jodhpur,Rajasthan,26.2389,73.0243,35.9,40,0.0,978.5,8.35,39.2,166,151.8,36.3,0.8,108.0,78.0,1.9,0,5,10,1,2026-07-15T13:47:23.706983+05:30
Udaipur,Rajasthan,24.5854,73.7125,31.1,52,0.0,943.5,8.05,37.1,71,41.8,13.8,0.8,105.0,74.0,2.4,0,5,7,1,2026-07-15T13:47:23.706996+05:30
Kota,Rajasthan,25.2138,75.8648,34.2,47,0.0,974.9,8.3,34.9,93,134.6,38.9,1.2,122.0,96.0,4.9,0,5,7,1,2026-07-15T13:47:23.707004+05:30
Bikaner,Rajasthan,28.0229,73.3119,38.3,33,0.0,976.2,8.4,36.7,164,234.2,62.6,0.4,103.0,74.0,2.1,0,5,10,1,2026-07-15T13:47:23.707012+05:30
Ajmer,Rajasthan,26.4499,74.6399,32.2,49,0.0,951.3,8.35,46.1,98,154.6,39.6,1.1,113.0,82.0,2.6,0,5,7,1,2026-07-15T13:47:23.707019+05:30
Gwalior,Madhya Pradesh,26.2183,78.1828,33.3,56,0.0,978.7,7.6,40.0,134,132.7,41.2,1.6,144.0,87.0,2.3,0,5,7,1,2026-07-15T13:47:23.707026+05:30
Indore,Madhya Pradesh,22.7196,75.8577,31.7,52,0.0,945.7,8.6,38.2,69,36.4,15.7,1.4,168.0,89.0,3.6,0,5,7,1,2026-07-15T13:47:23.707032+05:30
Bhopal,Madhya Pradesh,23.2599,77.4126,31.8,57,0.0,950.9,6.7,43.6,82,60.8,23.2,1.0,162.0,94.0,4.0,0,5,7,1,2026-07-15T13:47:23.707039+05:30
Jabalpur,Madhya Pradesh,23.1815,79.9864,31.3,59,0.0,957.4,8.7,33.1,105,91.0,36.8,1.2,157.0,105.0,4.2,0,5,7,1,2026-07-15T13:47:23.707046+05:30
Ujjain,Madhya Pradesh,23.1765,75.7885,31.1,57,0.0,951.2,8.5,36.7,69,37.1,15.3,1.0,136.0,82.0,3.4,0,5,7,1,2026-07-15T13:47:23.707053+05:30
Visakhapatnam,Andhra Pradesh,17.6868,83.2185,36.6,41,0.0,997.1,8.5,36.7,135,85.9,52.7,18.7,344.0,129.0,50.5,0,5,10,1,2026-07-15T13:47:23.707061+05:30
Vijayawada,Andhra Pradesh,16.5062,80.648,37.0,35,0.0,998.6,8.95,47.5,95,33.5,23.6,1.3,165.0,132.0,5.8,0,5,10,1,2026-07-15T13:47:23.707067+05:30
Guntur,Andhra Pradesh,16.3067,80.4365,37.3,32,0.0,999.9,8.8,49.0,90,32.0,21.1,1.1,142.0,123.0,4.6,0,5,10,1,2026-07-15T13:47:23.707074+05:30
Nellore,Andhra Pradesh,14.4426,79.9865,38.0,31,0.0,1002.3,8.8,51.1,85,31.5,17.2,2.8,120.0,106.0,5.9,0,5,7,1,2026-07-15T13:47:23.707082+05:30
Kurnool,Andhra Pradesh,15.8281,78.0373,36.4,30,0.0,975.2,8.95,62.6,64,53.0,21.7,1.4,122.0,96.0,6.0,0,5,10,0,2026-07-15T13:47:23.707090+05:30
Kakinada,Andhra Pradesh,16.9891,82.2475,36.3,42,0.0,1001.9,6.15,52.6,98,49.7,33.2,2.1,176.0,148.0,7.0,0,5,7,1,2026-07-15T13:47:23.707098+05:30
Tirupati,Andhra Pradesh,13.6288,79.4192,37.7,26,0.0,988.4,8.9,40.0,86,31.8,15.0,0.3,111.0,92.0,1.7,0,5,10,0,2026-07-15T13:47:23.707105+05:30
Warangal,Telangana,17.9689,79.5941,33.2,42,0.0,976.2,8.85,45.4,91,42.7,22.5,1.2,136.0,106.0,4.3,0,5,7,1,2026-07-15T13:47:23.707112+05:30
Nizamabad,Telangana,18.6725,78.0941,31.7,49,0.0,963.0,8.85,40.0,84,36.4,16.9,0.9,119.0,90.0,3.6,0,5,7,1,2026-07-15T13:47:23.707119+05:30
Mysore,Karnataka,12.2958,76.6396,31.1,41,0.0,928.8,9.05,41.0,60,19.8,12.1,1.5,133.0,92.0,1.6,0,5,7,1,2026-07-15T13:47:23.707126+05:30
Mangalore,Karnataka,12.9141,74.856,29.6,70,0.0,1007.8,8.7,36.4,68,34.2,16.7,1.1,100.0,68.0,1.9,7,5,4,1,2026-07-15T13:47:23.707133+05:30
Hubli-Dharwad,Karnataka,15.3647,75.124,29.3,55,0.0,941.0,7.55,49.0,55,21.4,10.6,1.0,109.0,69.0,0.9,4,5,7,1,2026-07-15T13:47:23.707139+05:30
Belgaum,Karnataka,15.8497,74.4977,25.8,71,0.0,925.9,8.4,49.0,54,25.0,11.8,1.1,109.0,64.0,1.7,7,5,7,1,2026-07-15T13:47:27.080532+05:30
Coimbatore,Tamil Nadu,11.0168,76.9558,33.6,40,0.0,961.4,8.25,49.7,60,26.7,13.2,1.2,141.0,85.0,1.9,0,5,7,1,2026-07-15T13:47:27.080564+05:30
Madurai,Tamil Nadu,9.9252,78.1198,39.5,23,0.0,990.6,8.05,32.4,83,49.5,23.8,1.9,121.0,136.0,3.7,0,5,10,0,2026-07-15T13:47:27.080576+05:30
Trichy,Tamil Nadu,10.7905,78.7047,38.7,28,0.0,996.9,8.5,47.2,70,35.9,17.5,1.4,130.0,102.0,2.1,0,5,10,1,2026-07-15T13:47:27.080585+05:30
Salem,Tamil Nadu,11.6643,78.146,34.6,42,0.0,975.8,8.8,20.9,76,44.9,20.8,2.6,118.0,120.0,7.1,0,5,7,1,2026-07-15T13:47:27.080593+05:30
Tirunelveli,Tamil Nadu,8.7139,77.7567,39.1,24,0.0,1001.0,7.95,44.3,55,15.7,8.8,1.1,122.0,85.0,1.4,0,5,7,0,2026-07-15T13:47:27.080601+05:30
Vellore,Tamil Nadu,12.9165,79.1325,38.1,24,0.0,981.7,8.95,43.2,94,47.8,20.5,1.2,127.0,111.0,2.2,0,5,10,0,2026-07-15T13:47:27.080608+05:30
Erode,Tamil Nadu,11.341,77.7172,38.6,23,0.0,987.0,8.4,45.0,65,38.3,17.2,1.9,152.0,102.0,2.1,0,5,10,0,2026-07-15T13:47:27.080616+05:30
Kochi,Kerala,9.9312,76.2673,29.4,73,0.0,1009.7,8.35,38.5,64,24.4,14.7,1.9,108.0,78.0,2.6,7,0,4,1,2026-07-15T13:47:27.080624+05:30
Thiruvananthapuram,Kerala,8.5241,76.9366,28.9,75,0.0,1008.7,8.05,47.5,59,25.6,14.8,1.8,100.0,75.0,1.3,7,0,4,1,2026-07-15T13:47:27.080632+05:30
Kozhikode,Kerala,11.2588,75.7804,29.0,76,0.0,1009.0,8.15,38.9,61,28.9,15.8,0.6,110.0,77.0,1.8,7,0,4,1,2026-07-15T13:47:27.080639+05:30
Thrissur,Kerala,10.5276,76.2144,30.2,68,0.0,1008.0,8.65,37.8,62,23.9,14.6,1.3,106.0,76.0,2.1,3,0,4,1,2026-07-15T13:47:27.080647+05:30
Kannur,Kerala,11.8745,75.3704,30.4,66,0.0,1008.3,7.85,39.6,64,26.7,14.4,0.9,101.0,69.0,1.5,3,0,4,1,2026-07-15T13:47:27.080654+05:30
Patna,Bihar,25.5941,85.1376,34.0,65,0.1,993.1,8.25,34.2,159,70.1,35.2,4.6,313.0,158.0,10.7,6,5,7,1,2026-07-15T13:47:27.080662+05:30
Gaya,Bihar,24.7914,85.0002,33.8,65,0.0,986.7,8.45,26.6,161,126.2,55.3,2.0,317.0,147.0,6.6,3,5,7,1,2026-07-15T13:47:27.080669+05:30
Muzaffarpur,Bihar,26.1209,85.3647,33.8,65,0.0,993.1,7.35,20.5,154,36.1,22.9,4.3,379.0,157.0,9.9,3,5,7,1,2026-07-15T13:47:27.080676+05:30
Bhagalpur,Bihar,25.2425,87.0117,34.8,59,0.0,993.4,7.95,29.9,92,32.2,27.5,4.7,276.0,159.0,21.9,0,5,7,1,2026-07-15T13:47:27.080683+05:30
Ranchi,Jharkhand,23.3441,85.3096,26.3,82,0.2,931.8,8.5,33.8,159,149.9,61.2,1.9,215.0,150.0,12.4,10,5,7,1,2026-07-15T13:47:27.080691+05:30
Jamshedpur,Jharkhand,22.8046,86.2029,28.9,85,0.1,983.3,7.75,32.0,172,62.2,49.1,19.7,505.0,159.0,42.7,10,5,7,1,2026-07-15T13:47:27.080699+05:30
Dhanbad,Jharkhand,23.7957,86.4304,32.2,70,0.0,972.6,8.6,29.9,191,69.2,52.5,18.9,248.0,172.0,49.1,3,5,7,1,2026-07-15T13:47:27.080706+05:30
Bokaro,Jharkhand,23.6693,86.1511,31.6,75,0.1,976.4,8.35,29.2,192,111.1,57.3,20.2,256.0,149.0,54.0,6,5,7,1,2026-07-15T13:47:27.080714+05:30
Bhubaneswar,Odisha,20.2961,85.8245,31.2,73,0.0,993.9,4.95,40.0,140,79.2,44.6,9.0,257.0,100.0,13.6,3,5,3,1,2026-07-15T13:47:27.080721+05:30
Cuttack,Odisha,20.4625,85.8828,30.5,75,0.1,995.5,5.55,36.4,140,79.2,44.6,9.0,234.0,100.0,13.6,6,5,3,1,2026-07-15T13:47:27.080728+05:30
Rourkela,Odisha,22.2604,84.8536,32.6,66,0.2,977.7,7.8,33.5,155,136.4,58.8,2.5,214.0,150.0,10.5,6,5,7,1,2026-07-15T13:47:27.080735+05:30
Raipur,Chhattisgarh,21.2514,81.6296,33.6,51,0.0,969.9,8.0,32.8,143,103.1,50.8,7.8,144.0,126.0,32.0,0,5,7,1,2026-07-15T13:47:27.080743+05:30
Bhilai,Chhattisgarh,21.1938,81.3509,33.0,52,0.0,970.4,8.35,32.4,124,99.7,45.3,7.2,287.0,117.0,25.9,0,5,7,1,2026-07-15T13:47:27.080750+05:30
Guwahati,Assam,26.1158,91.7086,28.5,91,0.4,993.9,7.85,24.5,47,6.6,6.4,1.9,225.0,95.0,1.3,10,5,7,1,2026-07-15T13:47:27.080758+05:30
Agartala,Tripura,23.8315,91.2868,27.7,98,0.2,998.8,8.4,34.6,75,11.9,10.9,3.4,150.0,147.0,1.3,10,5,7,1,2026-07-15T13:47:27.080765+05:30
Shillong,Meghalaya,25.5788,91.8933,24.3,82,0.1,853.7,7.1,27.4,39,5.6,5.0,2.6,185.0,77.0,1.5,6,5,7,1,2026-07-15T13:47:27.080773+05:30
Imphal,Manipur,24.817,93.9368,30.3,65,0.1,917.8,8.15,28.8,57,4.6,3.8,0.8,151.0,79.0,1.0,6,5,7,1,2026-07-15T13:47:27.080780+05:30
Aizawl,Mizoram,23.7271,92.7176,24.4,84,0.1,886.9,9.0,38.5,41,6.6,5.8,1.0,131.0,75.0,0.5,6,5,7,1,2026-07-15T13:47:27.080787+05:30
Kohima,Nagaland,25.6701,94.1077,25.4,81,0.1,851.8,7.25,26.6,51,5.3,4.6,0.9,156.0,83.0,0.7,10,5,7,1,2026-07-15T13:47:27.080795+05:30
Gangtok,Sikkim,27.3314,88.6138,23.5,71,0.1,835.9,7.8,32.0,49,5.1,4.7,1.2,224.0,113.0,0.9,6,5,7,1,2026-07-15T13:47:27.080802+05:30
Siliguri,West Bengal,26.7271,88.3953,31.8,79,0.1,985.6,6.95,22.0,72,15.0,13.9,1.6,355.0,134.0,2.1,6,5,7,1,2026-07-15T13:47:30.463860+05:30
Durgapur,West Bengal,23.5204,87.3119,32.7,66,0.2,986.9,9.0,31.0,155,29.3,27.4,8.5,247.0,154.0,32.0,6,5,7,1,2026-07-15T13:47:30.463894+05:30
Asansol,West Bengal,23.6739,86.9524,33.4,67,0.0,985.5,8.15,28.4,156,44.4,38.1,8.1,267.0,173.0,32.1,3,5,7,1,2026-07-15T13:47:30.463908+05:30
Pondicherry,Puducherry,11.9139,79.8145,37.9,35,0.0,1005.2,7.9,51.1,78,44.9,30.2,3.6,163.0,169.0,8.9,0,5,7,1,2026-07-15T13:47:30.463920+05:30
Port Blair,Andaman and Nicobar Islands,11.6234,92.7265,26.5,94,0.3,1005.9,8.4,55.8,43,27.5,10.8,0.3,91.0,49.0,0.5,10,5,4,1,2026-07-15T13:47:30.463931+05:30
Haridwar,Uttarakhand,29.9457,78.1642,33.9,57,0.1,968.2,7.5,24.5,176,171.4,78.5,1.8,424.0,188.0,13.8,3,5,7,1,2026-07-15T13:47:30.463942+05:30
Rishikesh,Uttarakhand,30.0869,78.2676,32.6,63,0.0,961.2,7.6,23.8,165,134.6,62.2,1.0,332.0,162.0,8.3,3,5,7,1,2026-07-15T13:47:30.463952+05:30
Nainital,Uttarakhand,29.3919,79.4542,22.0,80,0.0,804.6,7.55,25.6,170,163.9,70.5,1.4,264.0,159.0,8.2,3,5,7,1,2026-07-15T13:47:30.463962+05:30
Mussoorie,Uttarakhand,30.4599,78.0664,22.4,73,0.0,802.7,7.3,35.3,157,112.9,57.3,1.4,300.0,176.0,10.2,3,5,7,1,2026-07-15T13:47:30.463972+05:30
Dharamshala,Himachal Pradesh,32.219,76.3234,26.6,62,0.0,867.5,8.4,34.2,66,46.0,23.6,0.6,293.0,146.0,1.7,7,5,7,1,2026-07-15T13:47:30.463982+05:30
Dalhousie,Himachal Pradesh,32.5387,75.971,22.7,69,0.1,804.7,8.55,29.5,152,76.8,43.0,1.5,285.0,178.0,3.5,6,5,7,1,2026-07-15T13:47:30.463992+05:30
Patiala,Punjab,30.3398,76.3869,35.3,51,0.0,972.2,7.6,25.2,207,256.1,100.1,2.2,417.0,188.0,9.6,0,5,10,1,2026-07-15T13:47:30.464002+05:30
Bhatinda,Punjab,30.211,74.9455,38.4,36,0.0,977.6,8.25,28.1,176,321.3,98.7,2.4,157.0,151.0,10.8,0,5,10,1,2026-07-15T13:47:30.464011+05:30
Rohtak,Haryana,28.8955,76.6066,36.0,44,0.0,976.0,7.65,33.1,346,1177.2,200.2,1.7,160.0,123.0,5.5,0,5,10,1,2026-07-15T13:47:30.464021+05:30
Panipat,Haryana,29.3909,76.9635,35.0,52,0.0,974.4,7.55,25.9,492,1076.6,189.1,3.0,241.0,154.0,13.7,0,5,7,1,2026-07-15T13:47:30.464030+05:30
Mathura,Uttar Pradesh,27.4924,77.6737,33.8,56,0.0,981.6,7.85,38.2,216,1341.1,193.2,2.8,163.0,105.0,4.1,0,5,7,1,2026-07-15T13:47:30.464040+05:30
Vrindavan,Uttar Pradesh,27.5823,77.7027,33.7,56,0.0,982.0,7.9,31.0,216,1341.1,193.2,2.8,174.0,105.0,4.1,0,5,7,1,2026-07-15T13:47:30.464049+05:30
Ayodhya,Uttar Pradesh,26.7922,82.1998,32.8,69,0.0,989.4,6.55,20.5,182,216.5,88.0,1.9,373.0,164.0,6.4,3,5,7,1,2026-07-15T13:47:30.464059+05:30
Ratlam,Madhya Pradesh,23.3315,75.0367,30.4,59,0.0,951.9,7.3,37.4,67,39.3,15.7,0.9,113.0,82.0,3.4,0,5,7,1,2026-07-15T13:47:30.464068+05:30
Sagar,Madhya Pradesh,23.8388,78.7378,31.1,56,0.0,946.7,7.05,40.0,99,83.6,32.6,0.8,128.0,99.0,3.9,0,5,7,1,2026-07-15T13:47:30.464078+05:30
Satna,Madhya Pradesh,24.6005,80.8322,33.7,55,0.0,966.3,8.75,31.3,125,99.0,40.6,0.9,137.0,114.0,4.2,0,5,7,1,2026-07-15T13:47:30.464087+05:30
Akola,Maharashtra,20.7002,77.0082,33.4,49,0.0,972.6,7.95,42.5,68,29.5,13.1,1.4,110.0,88.0,5.9,0,5,7,1,2026-07-15T13:47:30.464097+05:30
Amravati,Maharashtra,20.9374,77.7796,32.9,51,0.0,964.7,7.4,41.4,70,29.5,13.9,1.8,113.0,90.0,7.0,0,5,7,1,2026-07-15T13:47:30.464108+05:30
Latur,Maharashtra,18.4088,76.5604,24.3,81,0.6,938.7,8.95,41.4,65,38.6,14.3,1.0,109.0,68.0,1.6,6,5,7,1,2026-07-15T13:47:30.464118+05:30
Nanded,Maharashtra,19.1383,77.3091,32.5,48,0.0,966.6,8.6,38.5,76,26.4,12.8,0.8,119.0,85.0,2.9,0,5,7,1,2026-07-15T13:47:30.464129+05:30
Gulbarga,Karnataka,17.3297,76.8343,33.4,41,0.0,957.4,8.8,54.4,62,38.9,14.2,1.0,113.0,82.0,2.0,0,5,7,1,2026-07-15T13:47:30.464139+05:30
Bidar,Karnataka,17.9104,77.5199,30.3,48,0.1,934.2,9.0,43.9,75,43.1,17.5,1.0,119.0,84.0,2.5,3,5,7,1,2026-07-15T13:47:30.464148+05:30
Hospet,Karnataka,15.2689,76.3909,33.1,37,0.0,955.3,8.4,43.9,57,29.8,13.6,1.1,113.0,89.0,1.8,0,5,7,1,2026-07-15T13:47:30.464158+05:30
Tirupur,Tamil Nadu,11.1085,77.3411,36.0,37,0.0,974.0,8.55,56.9,67,34.7,16.2,1.9,147.0,99.0,2.4,0,5,10,1,2026-07-15T13:47:30.464167+05:30
Alappuzha,Kerala,9.4981,76.3388,29.4,72,0.0,1009.7,8.35,38.5,62,26.5,15.3,2.1,92.0,78.0,2.6,7,0,4,1,2026-07-15T13:47:30.464176+05:30
Munnar,Kerala,10.0889,77.0595,22.4,70,0.0,858.6,8.45,36.4,52,19.0,9.4,0.8,99.0,75.0,1.2,3,5,7,1,2026-07-15T13:47:30.464186+05:30
Silchar,Assam,24.8333,92.7789,35.1,62,0.0,995.7,8.85,23.0,60,14.5,12.9,1.4,190.0,125.0,3.8,3,5,10,1,2026-07-15T13:47:30.464195+05:30
Dibrugarh,Assam,27.4728,94.912,33.0,70,0.0,986.9,7.65,22.0,58,5.4,5.3,1.2,174.0,100.0,0.9,3,5,7,1,2026-07-15T13:47:30.464204+05:30
