city,state,latitude,longitude,temp,humidity,rain,pressure,uv_index,wind_gusts,aqi,pm10,pm2_5,mosquito_risk,arthritis_risk,migraine_risk,frizz_risk,updated_at
Delhi,Delhi,28.6139,77.209,19.3,66,0.0,989.0,7.15,40.3,151,346.5,73.8,3,5,7,0,2026-04-10T03:18:39.453825+05:30
Mumbai,Maharashtra,19.076,72.8777,28.2,67,0.0,1009.9,7.95,27.4,91,144.8,35.0,7,0,4,1,2026-04-10T03:18:39.453874+05:30
Bangalore,Karnataka,12.9716,77.5946,23.5,80,0.0,912.6,9.65,26.3,77,35.0,29.5,3,5,7,1,2026-04-10T03:18:39.453889+05:30
Hyderabad,Telangana,17.385,78.4867,27.0,69,0.0,954.4,9.2,20.5,92,52.7,36.9,7,5,7,1,2026-04-10T03:18:39.453898+05:30
Chennai,Tamil Nadu,13.0827,80.2707,28.6,86,0.0,1007.6,9.35,37.4,64,24.0,18.2,7,5,4,1,2026-04-10T03:18:39.453906+05:30
Kolkata,West Bengal,22.5726,88.3639,21.4,100,0.0,1009.0,8.7,25.9,98,67.3,58.4,3,0,4,1,2026-04-10T03:18:39.453914+05:30
Pune,Maharashtra,18.5204,73.8567,21.7,78,0.0,949.7,8.55,33.8,97,121.5,49.6,3,5,7,1,2026-04-10T03:18:39.453924+05:30
Ahmedabad,Gujarat,23.0225,72.5714,25.6,58,0.0,1005.5,8.0,32.0,93,89.2,58.0,4,5,4,1,2026-04-10T03:18:39.453931+05:30
Jaipur,Rajasthan,26.9124,75.7873,21.2,40,0.0,964.8,7.8,28.8,137,400.5,61.0,0,5,7,0,2026-04-10T03:18:39.453938+05:30
Lucknow,Uttar Pradesh,26.8467,80.9462,20.3,59,0.0,998.2,7.65,43.2,112,109.0,35.3,0,5,7,0,2026-04-10T03:18:39.453944+05:30
Kanpur,Uttar Pradesh,26.4499,80.3319,21.0,59,0.0,996.8,7.65,38.9,145,264.5,51.8,0,5,7,0,2026-04-10T03:18:39.453950+05:30
Chandigarh,Chandigarh,30.7333,76.7794,15.9,79,0.0,974.4,7.15,43.2,73,36.8,33.1,3,5,7,0,2026-04-10T03:18:39.453957+05:30
Srinagar,Jammu and Kashmir,34.0837,74.7973,4.6,86,0.0,842.5,8.1,14.0,58,17.2,15.8,3,10,7,0,2026-04-10T03:18:39.453964+05:30
Jammu,Jammu and Kashmir,32.7266,74.857,14.2,83,0.0,979.9,7.75,34.2,76,35.3,31.9,3,10,7,0,2026-04-10T03:18:39.453971+05:30
Amritsar,Punjab,31.634,74.8723,15.6,82,0.0,988.3,7.7,29.9,86,43.5,38.2,3,10,7,0,2026-04-10T03:18:39.453977+05:30
Ludhiana,Punjab,30.901,75.8573,16.8,76,0.0,985.6,7.3,33.5,92,37.7,34.1,3,5,7,0,2026-04-10T03:18:39.453982+05:30
Jalandhar,Punjab,31.326,75.5762,16.2,79,0.0,987.1,7.5,31.7,88,55.9,45.3,3,5,7,0,2026-04-10T03:18:39.453990+05:30
Dehradun,Uttarakhand,30.6284,78.0322,7.8,74,0.0,829.3,7.55,29.9,45,15.2,12.4,3,5,7,0,2026-04-10T03:18:39.453996+05:30
Shimla,Himachal Pradesh,31.1048,77.1734,5.6,79,0.0,782.5,7.6,50.8,67,41.7,33.4,3,5,7,0,2026-04-10T03:18:39.454002+05:30
Manali,Himachal Pradesh,32.2396,77.1887,10.5,47,0.0,818.2,9.85,29.5,78,10.7,9.6,0,5,7,1,2026-04-10T03:18:39.454007+05:30
Gurgaon,Haryana,28.4595,77.0266,17.4,76,0.0,987.5,7.25,37.8,528,1035.6,147.1,3,5,7,0,2026-04-10T03:18:39.454013+05:30
Noida,Uttar Pradesh,28.5355,77.391,19.1,68,0.0,990.5,7.2,39.6,528,1035.6,147.1,3,5,7,0,2026-04-10T03:18:39.454019+05:30
Ghaziabad,Uttar Pradesh,28.6692,77.4538,18.0,72,0.0,988.6,7.15,40.3,129,219.3,52.5,3,5,7,0,2026-04-10T03:18:39.454025+05:30
Faridabad,Haryana,28.4089,77.3178,18.4,70,0.0,989.7,7.2,38.2,528,1035.6,147.1,3,5,7,0,2026-04-10T03:18:39.454030+05:30
Meerut,Uttar Pradesh,28.9845,77.7064,16.9,74,0.0,986.9,7.05,43.2,129,219.3,52.5,3,5,7,0,2026-04-10T03:18:39.454036+05:30
Agra,Uttar Pradesh,27.1767,78.0081,19.3,66,0.0,993.4,7.5,38.9,398,709.7,104.8,3,5,7,0,2026-04-10T03:18:39.454041+05:30
Varanasi,Uttar Pradesh,25.3176,82.9739,20.6,59,0.0,1002.2,8.2,38.9,97,89.4,32.5,0,5,4,0,2026-04-10T03:18:39.454049+05:30
Prayagraj,Uttar Pradesh,25.4358,81.8463,22.6,56,0.0,1000.9,8.1,34.2,97,119.7,34.2,0,5,4,0,2026-04-10T03:18:39.454055+05:30
Gorakhpur,Uttar Pradesh,26.7606,83.3732,19.0,57,0.0,1000.7,8.05,50.8,108,49.2,22.5,0,5,4,0,2026-04-10T03:18:39.454061+05:30
Bareilly,Uttar Pradesh,28.367,79.4304,17.3,73,0.0,991.6,7.4,39.2,76,45.3,28.9,3,5,7,0,2026-04-10T03:18:39.454068+05:30
Aligarh,Uttar Pradesh,27.8974,78.088,17.6,70,0.0,991.1,7.3,42.5,169,529.0,85.2,3,5,7,0,2026-04-10T03:18:39.454074+05:30
Moradabad,Uttar Pradesh,28.8386,78.7733,16.9,74,0.0,988.7,7.25,41.0,88,52.9,34.9,3,5,7,0,2026-04-10T03:18:39.454079+05:30
Saharanpur,Uttar Pradesh,29.9637,77.546,15.7,74,0.0,980.9,6.85,53.3,87,57.5,39.1,3,5,7,0,2026-04-10T03:18:39.454084+05:30
Jhansi,Uttar Pradesh,25.4484,78.5685,21.7,59,0.0,982.7,8.05,32.8,99,182.1,36.1,0,5,7,0,2026-04-10T03:18:42.752901+05:30
Surat,Gujarat,21.1702,72.8311,25.1,81,0.0,1008.9,7.75,20.2,112,99.9,48.2,7,0,4,1,2026-04-10T03:18:42.752931+05:30
Vadodara,Gujarat,22.3072,73.1812,24.9,72,0.0,1007.3,8.0,28.1,75,68.5,42.8,3,5,4,1,2026-04-10T03:18:42.752940+05:30
Rajkot,Gujarat,22.3039,70.8022,24.3,77,0.0,997.6,7.75,22.0,73,53.0,23.9,3,5,7,1,2026-04-10T03:18:42.752948+05:30
Thane,Maharashtra,19.2183,72.9781,24.7,72,0.0,1009.4,7.95,38.5,91,144.8,35.0,3,0,4,1,2026-04-10T03:18:42.752955+05:30
Nagpur,Maharashtra,21.1458,79.0882,25.4,50,0.0,975.1,8.7,22.0,81,38.2,24.4,4,5,7,0,2026-04-10T03:18:42.752963+05:30
Nashik,Maharashtra,19.9975,73.7898,22.0,59,0.0,947.2,8.2,30.6,79,122.5,41.8,0,5,7,0,2026-04-10T03:18:42.752971+05:30
Aurangabad,Maharashtra,19.8762,75.3433,24.7,62,0.0,945.9,8.9,30.6,68,44.6,24.6,3,5,7,1,2026-04-10T03:18:42.752977+05:30
Solapur,Maharashtra,17.6599,75.9064,26.6,47,0.0,958.4,8.95,23.4,90,61.7,33.3,4,5,7,0,2026-04-10T03:18:42.752985+05:30
Kolhapur,Maharashtra,16.705,74.2433,19.1,100,0.0,948.7,9.0,37.1,82,63.3,30.7,3,10,7,1,2026-04-10T03:18:42.752993+05:30
Goa,Goa,15.2993,74.124,26.0,87,0.0,998.8,9.0,34.6,70,66.1,23.1,7,5,7,1,2026-04-10T03:18:42.752999+05:30
Jodhpur,Rajasthan,26.2389,73.0243,20.6,43,0.0,988.2,8.05,25.2,71,65.0,15.8,0,5,7,0,2026-04-10T03:18:42.753006+05:30
Udaipur,Rajasthan,24.5854,73.7125,20.6,40,0.0,950.5,8.55,29.2,66,48.7,12.4,0,5,7,0,2026-04-10T03:18:42.753013+05:30
Kota,Rajasthan,25.2138,75.8648,19.5,60,0.0,983.5,8.0,19.1,93,71.2,27.6,0,5,7,0,2026-04-10T03:18:42.753019+05:30
Bikaner,Rajasthan,28.0229,73.3119,22.3,45,0.0,988.5,7.8,20.9,80,41.3,22.0,0,5,7,0,2026-04-10T03:18:42.753026+05:30
Ajmer,Rajasthan,26.4499,74.6399,19.9,41,0.0,959.4,8.0,22.0,72,44.5,16.8,0,5,7,0,2026-04-10T03:18:42.753032+05:30
Gwalior,Madhya Pradesh,26.2183,78.1828,22.6,62,0.0,988.2,7.75,34.2,117,343.7,60.3,3,5,7,0,2026-04-10T03:18:42.753039+05:30
Indore,Madhya Pradesh,22.7196,75.8577,20.8,54,0.0,950.9,8.4,25.2,82,53.4,28.3,0,5,7,0,2026-04-10T03:18:42.753045+05:30
Bhopal,Madhya Pradesh,23.2599,77.4126,22.5,43,0.0,956.9,8.4,25.6,77,54.5,27.0,0,5,7,0,2026-04-10T03:18:42.753052+05:30
Jabalpur,Madhya Pradesh,23.1815,79.9864,22.1,57,0.0,964.6,8.55,22.7,95,66.6,26.2,0,5,7,0,2026-04-10T03:18:42.753058+05:30
Ujjain,Madhya Pradesh,23.1765,75.7885,21.1,48,0.0,957.1,8.35,27.7,80,49.4,22.0,0,5,7,0,2026-04-10T03:18:42.753065+05:30
Visakhapatnam,Andhra Pradesh,17.6868,83.2185,27.4,92,0.0,1004.3,9.1,36.7,88,33.9,28.9,7,5,4,1,2026-04-10T03:18:42.753072+05:30
Vijayawada,Andhra Pradesh,16.5062,80.648,27.8,90,0.0,1003.7,9.2,31.7,73,21.0,17.4,7,5,4,1,2026-04-10T03:18:42.753079+05:30
Guntur,Andhra Pradesh,16.3067,80.4365,28.0,91,0.0,1004.8,9.25,37.1,77,19.6,16.8,7,5,4,1,2026-04-10T03:18:42.753085+05:30
Nellore,Andhra Pradesh,14.4426,79.9865,28.3,86,0.0,1006.3,9.3,34.2,73,21.8,18.7,7,5,4,1,2026-04-10T03:18:42.753093+05:30
Kurnool,Andhra Pradesh,15.8281,78.0373,28.5,66,0.0,977.3,9.2,19.8,81,34.9,25.9,7,5,7,1,2026-04-10T03:18:42.753101+05:30
Kakinada,Andhra Pradesh,16.9891,82.2475,26.6,96,0.0,1008.3,9.15,36.0,70,23.6,17.3,7,0,4,1,2026-04-10T03:18:42.753107+05:30
Tirupati,Andhra Pradesh,13.6288,79.4192,26.9,89,0.0,992.5,9.45,29.9,93,30.0,28.6,7,5,7,1,2026-04-10T03:18:42.753114+05:30
Warangal,Telangana,17.9689,79.5941,27.4,79,0.0,979.8,9.05,24.5,116,73.8,58.7,7,5,7,1,2026-04-10T03:18:42.753120+05:30
Nizamabad,Telangana,18.6725,78.0941,25.8,49,0.0,965.6,8.95,27.7,95,114.8,47.4,4,5,7,0,2026-04-10T03:18:42.753127+05:30
Mysore,Karnataka,12.2958,76.6396,23.8,86,0.0,929.1,9.55,30.6,60,31.3,21.8,3,5,7,1,2026-04-10T03:18:42.753133+05:30
Mangalore,Karnataka,12.9141,74.856,29.2,78,0.0,1007.3,9.2,31.0,71,50.9,18.9,7,5,4,1,2026-04-10T03:18:42.753140+05:30
Hubli-Dharwad,Karnataka,15.3647,75.124,21.7,90,0.0,941.4,9.2,38.5,68,44.9,18.5,3,5,7,1,2026-04-10T03:18:42.753148+05:30
Belgaum,Karnataka,15.8497,74.4977,19.8,93,0.0,926.0,9.25,37.8,75,68.0,25.6,3,10,7,1,2026-04-10T03:18:46.057805+05:30
Coimbatore,Tamil Nadu,11.0168,76.9558,24.6,88,0.0,962.9,9.5,34.9,55,39.5,26.1,3,5,7,1,2026-04-10T03:18:46.057833+05:30
Madurai,Tamil Nadu,9.9252,78.1198,27.0,76,0.0,993.3,9.4,40.0,95,39.1,37.1,7,5,7,1,2026-04-10T03:18:46.057841+05:30
Trichy,Tamil Nadu,10.7905,78.7047,26.7,91,0.0,1000.3,9.2,29.2,70,20.4,18.5,7,5,4,1,2026-04-10T03:18:46.057848+05:30
Salem,Tamil Nadu,11.6643,78.146,25.1,85,0.0,978.5,9.45,20.2,80,24.7,23.2,7,5,7,1,2026-04-10T03:18:46.057854+05:30
Tirunelveli,Tamil Nadu,8.7139,77.7567,26.5,80,0.0,1003.1,9.25,37.1,68,27.0,24.2,7,5,4,1,2026-04-10T03:18:46.057861+05:30
Vellore,Tamil Nadu,12.9165,79.1325,27.1,88,0.0,985.2,9.5,33.1,99,35.7,34.1,7,5,7,1,2026-04-10T03:18:46.057867+05:30
Erode,Tamil Nadu,11.341,77.7172,27.0,82,0.0,990.2,9.45,30.2,68,30.0,26.8,7,5,7,1,2026-04-10T03:18:46.057873+05:30
Kochi,Kerala,9.9312,76.2673,28.9,81,0.0,1009.0,9.25,34.6,68,34.3,28.5,7,0,4,1,2026-04-10T03:18:46.057879+05:30
Thiruvananthapuram,Kerala,8.5241,76.9366,28.3,84,0.0,1007.7,9.2,31.3,57,36.3,20.0,7,5,4,1,2026-04-10T03:18:46.057885+05:30
Kozhikode,Kerala,11.2588,75.7804,29.1,82,0.0,1008.4,9.15,30.2,71,56.3,22.5,7,0,4,1,2026-04-10T03:18:46.057891+05:30
Thrissur,Kerala,10.5276,76.2144,26.7,90,0.0,1007.9,9.2,37.8,69,46.6,33.2,7,5,4,1,2026-04-10T03:18:46.057898+05:30
Kannur,Kerala,11.8745,75.3704,27.7,84,0.0,1007.7,9.15,36.0,71,43.5,19.7,7,5,4,1,2026-04-10T03:18:46.057904+05:30
Patna,Bihar,25.5941,85.1376,21.6,52,0.0,1004.1,8.35,39.6,98,32.5,21.9,0,5,4,0,2026-04-10T03:18:46.057910+05:30
Gaya,Bihar,24.7914,85.0002,21.1,58,0.0,997.9,8.45,38.9,104,54.1,37.7,0,5,7,0,2026-04-10T03:18:46.057915+05:30
Muzaffarpur,Bihar,26.1209,85.3647,19.5,63,0.0,1003.7,8.35,40.7,92,31.4,21.5,3,5,4,0,2026-04-10T03:18:46.057921+05:30
Bhagalpur,Bihar,25.2425,87.0117,21.3,87,0.0,1004.4,8.4,35.3,106,77.8,63.1,3,5,4,1,2026-04-10T03:18:46.057926+05:30
Ranchi,Jharkhand,23.3441,85.3096,19.5,59,0.0,940.3,9.0,39.2,93,47.1,25.4,0,5,7,0,2026-04-10T03:18:46.057932+05:30
Jamshedpur,Jharkhand,22.8046,86.2029,23.2,90,0.0,994.1,8.85,20.5,116,90.8,65.7,3,5,7,1,2026-04-10T03:18:46.057938+05:30
Dhanbad,Jharkhand,23.7957,86.4304,20.9,73,0.0,982.7,8.75,36.7,133,89.2,68.9,3,5,7,0,2026-04-10T03:18:46.057943+05:30
Bokaro,Jharkhand,23.6693,86.1511,21.2,72,0.0,987.2,8.8,39.2,129,86.6,63.1,3,5,7,0,2026-04-10T03:18:46.057949+05:30
Bhubaneswar,Odisha,20.2961,85.8245,25.5,97,0.0,1004.6,9.0,25.6,98,52.7,45.5,7,5,4,1,2026-04-10T03:18:46.057955+05:30
Cuttack,Odisha,20.4625,85.8828,24.9,96,0.0,1006.9,9.05,26.6,98,52.7,45.5,3,5,4,1,2026-04-10T03:18:46.057960+05:30
Rourkela,Odisha,22.2604,84.8536,24.1,80,0.0,988.1,8.75,23.4,111,42.5,25.9,3,5,7,1,2026-04-10T03:18:46.057966+05:30
Raipur,Chhattisgarh,21.2514,81.6296,25.1,45,0.0,977.0,8.8,25.9,138,83.6,61.5,4,5,7,0,2026-04-10T03:18:46.057972+05:30
Bhilai,Chhattisgarh,21.1938,81.3509,24.5,47,0.0,977.3,8.8,24.5,141,74.0,55.3,0,5,7,0,2026-04-10T03:18:46.057977+05:30
Guwahati,Assam,26.1158,91.7086,20.9,91,0.0,1004.8,8.25,36.4,78,15.6,12.2,3,5,4,1,2026-04-10T03:18:46.057983+05:30
Agartala,Tripura,23.8315,91.2868,20.7,100,0.0,1009.4,8.55,25.9,118,40.3,38.4,3,0,4,1,2026-04-10T03:18:46.057988+05:30
Shillong,Meghalaya,25.5788,91.8933,11.1,89,0.0,854.9,6.45,46.1,77,26.7,21.7,3,10,7,0,2026-04-10T03:18:46.057994+05:30
Imphal,Manipur,24.817,93.9368,15.2,93,0.0,924.0,8.9,59.4,97,40.9,38.4,3,10,7,0,2026-04-10T03:18:46.057999+05:30
Aizawl,Mizoram,23.7271,92.7176,15.9,98,0.0,893.5,8.8,47.9,70,18.9,14.5,3,10,7,0,2026-04-10T03:18:46.058005+05:30
Kohima,Nagaland,25.6701,94.1077,12.3,90,0.0,853.8,8.8,64.4,66,13.8,11.1,3,10,7,0,2026-04-10T03:18:46.058011+05:30
Gangtok,Sikkim,27.3314,88.6138,10.3,85,0.0,835.0,8.5,15.1,83,14.6,11.7,3,10,7,0,2026-04-10T03:18:46.058016+05:30
Siliguri,West Bengal,26.7271,88.3953,17.4,75,0.0,996.1,8.2,32.0,80,41.0,34.7,3,5,7,0,2026-04-10T03:18:49.372907+05:30
Durgapur,West Bengal,23.5204,87.3119,22.6,93,0.0,998.2,8.7,23.0,152,117.6,90.8,3,5,7,1,2026-04-10T03:18:49.372937+05:30
Asansol,West Bengal,23.6739,86.9524,23.0,90,0.0,996.7,8.75,25.6,136,83.8,61.7,3,5,7,1,2026-04-10T03:18:49.372947+05:30
Pondicherry,Puducherry,11.9139,79.8145,27.1,94,0.0,1009.1,9.35,33.1,69,25.3,19.2,7,0,4,1,2026-04-10T03:18:49.372956+05:30
Port Blair,Andaman and Nicobar Islands,11.6234,92.7265,28.2,79,0.0,1007.9,8.75,23.4,31,6.9,5.0,7,5,4,1,2026-04-10T03:18:49.372964+05:30
Haridwar,Uttarakhand,29.9457,78.1642,14.5,83,0.0,979.1,6.95,48.6,70,37.0,34.1,3,10,7,0,2026-04-10T03:18:49.372973+05:30
Rishikesh,Uttarakhand,30.0869,78.2676,14.6,76,0.0,971.5,7.05,36.7,82,35.0,23.5,3,5,7,0,2026-04-10T03:18:49.372980+05:30
Nainital,Uttarakhand,29.3919,79.4542,12.8,49,0.0,805.8,7.9,69.1,77,27.4,17.5,0,5,7,0,2026-04-10T03:18:49.372988+05:30
Mussoorie,Uttarakhand,30.4599,78.0664,9.8,67,0.0,802.0,7.4,34.6,64,37.4,29.5,3,5,7,0,2026-04-10T03:18:49.372996+05:30
Dharamshala,Himachal Pradesh,32.219,76.3234,13.6,45,0.0,871.4,7.6,28.4,81,4.4,3.5,0,5,7,0,2026-04-10T03:18:49.373003+05:30
Dalhousie,Himachal Pradesh,32.5387,75.971,9.0,50,0.0,803.8,7.85,21.2,63,28.9,25.6,0,5,7,1,2026-04-10T03:18:49.373011+05:30
Patiala,Punjab,30.3398,76.3869,16.4,77,0.0,984.5,7.0,38.9,145,472.2,66.6,3,5,7,0,2026-04-10T03:18:49.373018+05:30
Bhatinda,Punjab,30.211,74.9455,16.9,79,0.0,991.2,7.65,33.5,93,53.7,43.2,3,5,7,0,2026-04-10T03:18:49.373025+05:30
Rohtak,Haryana,28.8955,76.6066,17.1,75,0.0,988.1,7.15,39.2,199,573.7,99.2,3,5,7,0,2026-04-10T03:18:49.373032+05:30
Panipat,Haryana,29.3909,76.9635,16.7,74,0.0,986.2,7.0,42.5,484,1173.5,144.8,3,5,7,0,2026-04-10T03:18:49.373039+05:30
Mathura,Uttar Pradesh,27.4924,77.6737,19.0,68,0.0,992.5,7.45,36.4,240,795.3,129.0,3,5,7,0,2026-04-10T03:18:49.373046+05:30
Vrindavan,Uttar Pradesh,27.5823,77.7027,18.6,69,0.0,993.0,7.4,39.6,240,795.3,129.0,3,5,7,0,2026-04-10T03:18:49.373053+05:30
Ayodhya,Uttar Pradesh,26.7922,82.1998,19.0,60,0.0,999.5,7.8,49.0,96,73.6,27.8,0,5,7,0,2026-04-10T03:18:49.373060+05:30
Ratlam,Madhya Pradesh,23.3315,75.0367,21.8,46,0.0,957.8,8.3,30.2,71,45.9,19.4,0,5,7,0,2026-04-10T03:18:49.373067+05:30
Sagar,Madhya Pradesh,23.8388,78.7378,22.2,51,0.0,953.8,8.4,29.5,82,83.6,29.6,0,5,7,0,2026-04-10T03:18:49.373074+05:30
Satna,Madhya Pradesh,24.6005,80.8322,22.7,51,0.0,975.8,8.45,35.3,84,223.5,38.2,0,5,7,0,2026-04-10T03:18:49.373081+05:30
Akola,Maharashtra,20.7002,77.0082,25.6,65,0.0,977.2,8.7,21.6,73,45.1,29.2,7,5,7,1,2026-04-10T03:18:49.373089+05:30
Amravati,Maharashtra,20.9374,77.7796,25.8,54,0.0,969.2,8.7,27.0,72,49.2,31.3,4,5,7,0,2026-04-10T03:18:49.373097+05:30
Latur,Maharashtra,18.4088,76.5604,22.6,61,0.0,940.9,8.95,29.9,93,72.6,30.5,3,5,7,0,2026-04-10T03:18:49.373104+05:30
Nanded,Maharashtra,19.1383,77.3091,24.7,64,0.0,969.9,8.85,21.6,91,44.2,27.4,3,5,7,1,2026-04-10T03:18:49.373112+05:30
Gulbarga,Karnataka,17.3297,76.8343,26.6,48,0.0,959.6,9.05,28.1,78,72.2,34.7,4,5,7,0,2026-04-10T03:18:49.373118+05:30
Bidar,Karnataka,17.9104,77.5199,25.4,55,0.0,936.2,9.05,25.9,86,114.3,43.0,4,5,7,0,2026-04-10T03:18:49.373125+05:30
Hospet,Karnataka,15.2689,76.3909,26.4,71,0.0,956.3,9.25,32.4,76,32.7,17.3,7,5,7,1,2026-04-10T03:18:49.373132+05:30
Tirupur,Tamil Nadu,11.1085,77.3411,25.8,82,0.0,976.4,9.5,29.9,62,38.2,28.1,7,5,7,1,2026-04-10T03:18:49.373138+05:30
Alappuzha,Kerala,9.4981,76.3388,29.0,81,0.0,1008.8,9.2,28.4,67,44.9,25.6,7,0,4,1,2026-04-10T03:18:49.373145+05:30
Munnar,Kerala,10.0889,77.0595,20.7,90,0.0,857.0,7.25,27.7,66,25.3,22.8,3,5,7,1,2026-04-10T03:18:49.373152+05:30
Silchar,Assam,24.8333,92.7789,19.9,95,0.0,1008.8,8.55,33.5,115,60.1,55.1,3,5,4,1,2026-04-10T03:18:49.373159+05:30
Dibrugarh,Assam,27.4728,94.912,20.2,84,0.0,998.2,8.1,18.4,76,19.5,15.5,3,5,7,1,2026-04-10T03:18:49.373166+05:30
