city,state,latitude,longitude,temp,humidity,rain,pressure,uv_index,wind_gusts,aqi,pm10,pm2_5,no2,co,o3,so2,mosquito_risk,arthritis_risk,migraine_risk,frizz_risk,updated_at
Delhi,Delhi,28.6139,77.209,30.3,75,0.0,972.4,7.0,34.2,103,18.0,17.8,17.2,682.0,123.0,21.0,3,5,7,1,2026-07-24T17:50:55.554080+05:30
Mumbai,Maharashtra,19.076,72.8777,27.8,84,0.1,1001.7,7.55,64.8,61,33.8,15.0,9.1,196.0,45.0,5.4,10,5,4,1,2026-07-24T17:50:55.554125+05:30
Bangalore,Karnataka,12.9716,77.5946,25.3,72,0.0,909.9,8.9,61.2,52,50.1,23.5,11.5,406.0,64.0,2.6,7,5,7,1,2026-07-24T17:50:55.554142+05:30
Hyderabad,Telangana,17.385,78.4867,29.0,61,0.0,947.9,8.65,63.7,65,28.0,14.6,4.5,331.0,78.0,2.7,7,5,7,1,2026-07-24T17:50:55.554153+05:30
Chennai,Tamil Nadu,13.0827,80.2707,30.4,76,0.0,1002.6,7.95,35.3,83,32.5,21.1,6.7,229.0,115.0,5.6,3,5,4,1,2026-07-24T17:50:55.554163+05:30
Kolkata,West Bengal,22.5726,88.3639,27.6,86,0.1,997.3,6.3,28.4,70,27.6,25.3,12.8,574.0,79.0,7.9,10,5,7,1,2026-07-24T17:50:55.554172+05:30
Pune,Maharashtra,18.5204,73.8567,24.3,88,0.0,941.8,5.0,65.2,23,7.7,5.0,5.3,156.0,42.0,2.9,3,5,3,1,2026-07-24T17:50:55.554179+05:30
Ahmedabad,Gujarat,23.0225,72.5714,26.9,84,0.0,991.2,1.45,42.5,44,9.5,5.8,13.2,222.0,37.0,2.7,7,5,3,1,2026-07-24T17:50:55.554186+05:30
Jaipur,Rajasthan,26.9124,75.7873,29.9,67,0.1,948.7,7.2,27.0,71,9.5,9.3,4.1,286.0,109.0,5.0,10,5,7,1,2026-07-24T17:50:55.554193+05:30
Lucknow,Uttar Pradesh,26.8467,80.9462,29.1,86,0.1,984.5,8.0,24.5,71,18.6,18.2,8.6,235.0,89.0,5.9,10,5,7,1,2026-07-24T17:50:55.554204+05:30
Kanpur,Uttar Pradesh,26.4499,80.3319,32.1,64,0.0,982.1,7.55,27.0,61,12.4,11.6,5.0,190.0,97.0,4.8,3,5,7,1,2026-07-24T17:50:55.554211+05:30
Chandigarh,Chandigarh,30.7333,76.7794,29.9,76,0.0,959.2,7.4,26.6,144,20.0,19.8,6.6,405.0,150.0,6.6,7,5,7,1,2026-07-24T17:50:55.554220+05:30
Srinagar,Jammu and Kashmir,34.0837,74.7973,22.0,69,0.0,837.6,6.1,17.6,78,17.0,16.9,10.5,318.0,82.0,3.6,3,5,7,1,2026-07-24T17:50:55.554227+05:30
Jammu,Jammu and Kashmir,32.7266,74.857,31.0,64,0.0,963.0,8.35,31.7,97,15.1,14.6,4.6,275.0,113.0,2.2,3,5,7,1,2026-07-24T17:50:55.554234+05:30
Amritsar,Punjab,31.634,74.8723,29.5,76,0.0,970.6,8.35,29.5,99,24.6,24.4,5.4,355.0,141.0,5.2,7,5,7,1,2026-07-24T17:50:55.554242+05:30
Ludhiana,Punjab,30.901,75.8573,32.4,68,0.0,968.5,7.85,31.3,128,24.8,24.7,7.6,349.0,145.0,8.2,3,5,7,1,2026-07-24T17:50:55.554248+05:30
Jalandhar,Punjab,31.326,75.5762,31.9,71,0.0,969.3,8.05,23.0,144,25.1,25.0,6.0,363.0,149.0,6.5,3,5,7,1,2026-07-24T17:50:55.554255+05:30
Dehradun,Uttarakhand,30.6284,78.0322,21.3,90,0.0,825.6,7.55,26.6,55,8.1,8.0,5.0,169.0,103.0,1.3,3,5,7,1,2026-07-24T17:50:55.554262+05:30
Shimla,Himachal Pradesh,31.1048,77.1734,19.6,86,0.1,780.5,6.15,22.0,58,9.7,9.5,6.9,229.0,114.0,3.5,6,10,7,1,2026-07-24T17:50:55.554269+05:30
Manali,Himachal Pradesh,32.2396,77.1887,23.3,85,0.0,815.2,9.4,29.5,44,3.4,3.3,3.7,156.0,91.0,0.7,3,5,7,1,2026-07-24T17:50:55.554277+05:30
Gurgaon,Haryana,28.4595,77.0266,30.3,77,0.1,970.7,6.75,38.9,85,14.6,14.3,12.0,478.0,126.0,12.0,6,5,7,1,2026-07-24T17:50:55.554284+05:30
Noida,Uttar Pradesh,28.5355,77.391,30.6,77,0.0,973.9,6.1,36.7,85,14.6,14.3,12.0,376.0,126.0,12.0,3,5,7,1,2026-07-24T17:50:55.554291+05:30
Ghaziabad,Uttar Pradesh,28.6692,77.4538,30.3,79,0.0,972.3,5.3,39.2,79,13.3,13.2,6.3,240.0,117.0,8.9,3,5,3,1,2026-07-24T17:50:55.554298+05:30
Faridabad,Haryana,28.4089,77.3178,30.4,78,0.1,973.2,5.55,38.9,85,14.6,14.3,12.0,357.0,126.0,12.0,6,5,3,1,2026-07-24T17:50:55.554304+05:30
Meerut,Uttar Pradesh,28.9845,77.7064,29.2,81,0.0,971.5,6.25,44.3,79,13.3,13.2,6.3,270.0,117.0,8.9,7,5,7,1,2026-07-24T17:50:55.554310+05:30
Agra,Uttar Pradesh,27.1767,78.0081,32.8,62,0.0,976.8,6.7,27.7,83,11.4,10.6,4.8,216.0,109.0,4.3,3,5,7,1,2026-07-24T17:50:55.554316+05:30
Varanasi,Uttar Pradesh,25.3176,82.9739,30.5,81,0.1,988.3,7.5,21.2,82,17.4,16.4,4.9,463.0,122.0,8.4,6,5,7,1,2026-07-24T17:50:55.554323+05:30
Prayagraj,Uttar Pradesh,25.4358,81.8463,32.1,66,0.0,986.4,8.45,19.8,66,18.2,17.2,4.8,205.0,124.0,7.9,3,5,7,1,2026-07-24T17:50:55.554329+05:30
Gorakhpur,Uttar Pradesh,26.7606,83.3732,29.3,84,0.0,988.8,6.9,27.4,99,28.7,28.6,10.5,324.0,98.0,4.5,7,5,7,1,2026-07-24T17:50:55.554351+05:30
Bareilly,Uttar Pradesh,28.367,79.4304,28.3,87,0.1,977.8,6.8,38.9,79,17.7,17.6,8.5,294.0,92.0,7.3,10,5,7,1,2026-07-24T17:50:55.554360+05:30
Aligarh,Uttar Pradesh,27.8974,78.088,30.4,73,0.0,975.1,5.4,31.7,84,13.9,13.2,4.3,195.0,123.0,7.7,3,5,3,1,2026-07-24T17:50:55.554366+05:30
Moradabad,Uttar Pradesh,28.8386,78.7733,27.7,93,0.0,974.3,7.1,44.6,91,20.0,20.0,8.0,318.0,104.0,6.5,7,5,7,1,2026-07-24T17:50:55.554373+05:30
Saharanpur,Uttar Pradesh,29.9637,77.546,30.4,75,0.0,966.1,7.25,43.9,97,19.8,19.8,5.9,295.0,120.0,5.0,3,5,7,1,2026-07-24T17:50:55.554379+05:30
Jhansi,Uttar Pradesh,25.4484,78.5685,31.9,61,0.0,967.7,7.0,32.4,57,6.5,5.7,3.3,156.0,90.0,5.5,3,5,7,1,2026-07-24T17:50:59.028108+05:30
Surat,Gujarat,21.1702,72.8311,26.7,90,0.3,997.3,5.75,55.4,64,36.7,21.0,20.7,259.0,34.0,35.4,10,5,3,1,2026-07-24T17:50:59.028144+05:30
Vadodara,Gujarat,22.3072,73.1812,28.6,76,0.0,994.0,2.0,50.4,38,12.7,8.8,9.8,226.0,49.0,4.5,7,5,3,1,2026-07-24T17:50:59.028155+05:30
Rajkot,Gujarat,22.3039,70.8022,25.8,95,0.1,983.7,0.9,49.0,40,13.2,7.3,8.2,119.0,44.0,4.9,10,5,3,1,2026-07-24T17:50:59.028163+05:30
Thane,Maharashtra,19.2183,72.9781,27.1,86,0.2,1001.0,7.65,52.9,61,33.8,15.0,9.1,194.0,45.0,5.4,10,5,4,1,2026-07-24T17:50:59.028171+05:30
Nagpur,Maharashtra,21.1458,79.0882,27.9,79,0.0,965.7,8.5,47.5,54,16.4,9.8,7.4,176.0,74.0,12.8,7,5,7,1,2026-07-24T17:50:59.028179+05:30
Nashik,Maharashtra,19.9975,73.7898,24.0,92,0.1,938.0,6.65,59.8,23,11.7,6.7,5.4,141.0,48.0,3.1,6,5,7,1,2026-07-24T17:50:59.028187+05:30
Aurangabad,Maharashtra,19.8762,75.3433,27.1,71,0.1,936.9,6.55,62.3,32,10.0,6.2,2.7,116.0,68.0,4.5,10,5,7,1,2026-07-24T17:50:59.028195+05:30
Solapur,Maharashtra,17.6599,75.9064,29.3,59,0.0,951.9,5.95,64.8,39,18.4,7.4,1.5,107.0,56.0,1.2,4,5,3,1,2026-07-24T17:50:59.028202+05:30
Kolhapur,Maharashtra,16.705,74.2433,23.6,91,0.0,943.6,8.9,67.0,31,9.4,6.2,3.5,128.0,42.0,1.4,3,5,7,1,2026-07-24T17:50:59.028209+05:30
Goa,Goa,15.2993,74.124,25.8,95,0.1,996.0,8.65,41.4,82,22.9,11.2,1.6,143.0,44.0,0.9,10,5,7,1,2026-07-24T17:50:59.028216+05:30
Jodhpur,Rajasthan,26.2389,73.0243,26.9,95,0.3,971.9,7.3,26.3,83,20.7,18.7,3.8,314.0,136.0,2.4,10,5,7,1,2026-07-24T17:50:59.028223+05:30
Udaipur,Rajasthan,24.5854,73.7125,25.6,88,0.1,934.9,7.2,32.0,54,3.9,3.8,4.4,249.0,76.0,4.5,10,5,7,1,2026-07-24T17:50:59.028230+05:30
Kota,Rajasthan,25.2138,75.8648,29.9,65,0.0,967.2,7.5,38.5,60,4.8,4.7,2.9,230.0,101.0,5.0,7,5,7,1,2026-07-24T17:50:59.028237+05:30
Bikaner,Rajasthan,28.0229,73.3119,32.6,63,0.0,970.0,8.0,27.0,116,28.3,26.8,2.4,286.0,138.0,4.8,3,5,7,1,2026-07-24T17:50:59.028243+05:30
Ajmer,Rajasthan,26.4499,74.6399,27.9,80,0.1,943.5,8.1,25.2,75,14.3,14.0,2.5,233.0,118.0,3.3,10,5,7,1,2026-07-24T17:50:59.028250+05:30
Gwalior,Madhya Pradesh,26.2183,78.1828,32.1,61,0.0,972.3,7.2,28.1,66,5.7,5.4,2.2,152.0,95.0,2.7,3,5,7,1,2026-07-24T17:50:59.028256+05:30
Indore,Madhya Pradesh,22.7196,75.8577,27.8,73,0.0,938.6,6.35,51.1,38,14.3,9.3,4.9,190.0,73.0,4.3,7,5,7,1,2026-07-24T17:50:59.028263+05:30
Bhopal,Madhya Pradesh,23.2599,77.4126,27.3,77,0.0,944.3,8.1,42.5,40,12.8,6.9,2.1,169.0,75.0,2.8,7,5,7,1,2026-07-24T17:50:59.028270+05:30
Jabalpur,Madhya Pradesh,23.1815,79.9864,30.0,68,0.0,952.8,7.75,30.6,52,10.8,6.7,2.8,148.0,80.0,3.2,7,5,7,1,2026-07-24T17:50:59.028276+05:30
Ujjain,Madhya Pradesh,23.1765,75.7885,26.9,75,0.0,943.8,4.95,58.3,36,14.3,8.0,2.3,146.0,75.0,2.6,7,5,3,1,2026-07-24T17:50:59.028283+05:30
Visakhapatnam,Andhra Pradesh,17.6868,83.2185,30.7,76,0.0,996.2,8.6,43.6,77,34.9,23.1,13.7,289.0,84.0,27.5,3,5,7,1,2026-07-24T17:50:59.028290+05:30
Vijayawada,Andhra Pradesh,16.5062,80.648,29.9,63,0.0,996.4,8.8,42.1,74,31.2,16.8,5.0,147.0,69.0,5.1,7,5,7,1,2026-07-24T17:50:59.028296+05:30
Guntur,Andhra Pradesh,16.3067,80.4365,33.6,48,0.0,997.8,9.0,47.5,74,31.0,16.1,4.8,134.0,69.0,5.2,0,5,7,1,2026-07-24T17:50:59.028303+05:30
Nellore,Andhra Pradesh,14.4426,79.9865,33.1,45,0.0,1000.7,8.5,42.8,72,37.5,20.1,3.4,134.0,110.0,2.9,0,5,4,1,2026-07-24T17:50:59.028310+05:30
Kurnool,Andhra Pradesh,15.8281,78.0373,31.5,51,0.0,972.3,6.85,51.1,64,25.4,11.3,2.0,120.0,70.0,1.4,0,5,7,1,2026-07-24T17:50:59.028318+05:30
Kakinada,Andhra Pradesh,16.9891,82.2475,32.9,63,0.0,1000.7,9.0,57.2,71,36.1,20.2,3.7,170.0,88.0,3.2,3,5,4,1,2026-07-24T17:50:59.028325+05:30
Tirupati,Andhra Pradesh,13.6288,79.4192,31.3,49,0.0,987.1,8.0,33.5,68,65.9,29.6,14.4,173.0,62.0,1.7,0,5,7,1,2026-07-24T17:50:59.028332+05:30
Warangal,Telangana,17.9689,79.5941,30.9,60,0.0,972.4,8.7,46.1,70,23.3,12.3,4.2,160.0,74.0,2.4,0,5,7,1,2026-07-24T17:50:59.028355+05:30
Nizamabad,Telangana,18.6725,78.0941,26.8,79,0.1,958.5,7.45,52.6,56,18.5,9.3,3.5,149.0,64.0,2.5,10,5,7,1,2026-07-24T17:50:59.028363+05:30
Mysore,Karnataka,12.2958,76.6396,25.8,61,0.0,926.9,8.6,45.7,51,64.5,26.5,4.3,195.0,76.0,1.3,7,5,7,1,2026-07-24T17:50:59.028369+05:30
Mangalore,Karnataka,12.9141,74.856,26.4,87,0.0,1006.2,8.7,41.0,56,16.0,7.9,3.6,139.0,41.0,1.5,7,5,4,1,2026-07-24T17:50:59.028376+05:30
Hubli-Dharwad,Karnataka,15.3647,75.124,23.8,83,0.0,938.1,8.7,64.8,54,8.4,4.7,3.2,112.0,46.0,1.0,3,5,7,1,2026-07-24T17:50:59.028383+05:30
Belgaum,Karnataka,15.8497,74.4977,22.1,94,0.0,922.3,9.0,63.4,46,7.6,4.4,2.2,112.0,39.0,1.2,3,5,7,1,2026-07-24T17:51:02.338036+05:30
Coimbatore,Tamil Nadu,11.0168,76.9558,29.4,60,0.0,959.4,8.95,48.6,39,30.5,13.1,3.1,143.0,67.0,2.1,4,5,7,1,2026-07-24T17:51:02.338072+05:30
Madurai,Tamil Nadu,9.9252,78.1198,36.6,41,0.0,989.0,8.85,28.4,64,25.1,12.1,3.8,150.0,104.0,2.4,0,5,10,1,2026-07-24T17:51:02.338084+05:30
Trichy,Tamil Nadu,10.7905,78.7047,36.4,33,0.1,995.3,8.75,44.3,50,17.8,8.6,2.8,129.0,77.0,1.8,3,5,10,1,2026-07-24T17:51:02.338093+05:30
Salem,Tamil Nadu,11.6643,78.146,31.4,58,0.0,974.0,8.35,29.9,60,20.4,11.4,7.0,147.0,83.0,6.1,0,5,7,1,2026-07-24T17:51:02.338101+05:30
Tirunelveli,Tamil Nadu,8.7139,77.7567,34.1,41,0.0,999.8,8.75,46.4,40,8.8,6.2,2.2,123.0,66.0,1.6,0,5,7,1,2026-07-24T17:51:02.338108+05:30
Vellore,Tamil Nadu,12.9165,79.1325,26.2,87,0.4,980.8,7.4,40.3,75,31.4,17.2,8.4,333.0,76.0,2.4,10,5,7,1,2026-07-24T17:51:02.338116+05:30
Erode,Tamil Nadu,11.341,77.7172,34.2,41,0.0,985.6,8.5,38.9,51,17.1,9.6,4.8,173.0,83.0,1.9,0,5,7,1,2026-07-24T17:51:02.338123+05:30
Kochi,Kerala,9.9312,76.2673,28.1,83,0.0,1007.8,8.55,29.5,57,12.3,8.0,4.2,129.0,58.0,2.8,7,5,4,1,2026-07-24T17:51:02.338130+05:30
Thiruvananthapuram,Kerala,8.5241,76.9366,27.7,82,0.0,1007.0,8.55,42.8,52,14.4,9.2,3.8,111.0,59.0,1.3,7,5,4,1,2026-07-24T17:51:02.338138+05:30
Kozhikode,Kerala,11.2588,75.7804,27.1,85,0.0,1007.5,8.65,34.6,39,15.2,7.5,0.8,114.0,52.0,0.9,7,5,4,1,2026-07-24T17:51:02.338145+05:30
Thrissur,Kerala,10.5276,76.2144,27.9,82,0.0,1006.2,8.65,36.4,53,13.5,8.1,2.6,110.0,54.0,1.8,7,5,4,1,2026-07-24T17:51:02.338152+05:30
Kannur,Kerala,11.8745,75.3704,27.1,84,0.0,1006.7,8.7,35.6,50,20.2,8.7,2.8,130.0,47.0,0.9,7,5,4,1,2026-07-24T17:51:02.338159+05:30
Patna,Bihar,25.5941,85.1376,28.3,88,0.0,992.0,5.7,19.1,115,31.1,31.0,9.2,354.0,137.0,14.0,7,5,3,1,2026-07-24T17:51:02.338167+05:30
Gaya,Bihar,24.7914,85.0002,29.5,81,0.1,985.5,8.15,24.5,97,27.5,27.4,5.0,246.0,145.0,9.9,10,5,7,1,2026-07-24T17:51:02.338173+05:30
Muzaffarpur,Bihar,26.1209,85.3647,29.7,78,0.0,992.1,6.65,25.2,94,31.3,31.1,9.7,347.0,124.0,10.4,7,5,7,1,2026-07-24T17:51:02.338180+05:30
Bhagalpur,Bihar,25.2425,87.0117,30.2,80,0.0,992.6,6.35,30.2,83,19.8,19.7,9.1,316.0,99.0,7.3,3,5,7,1,2026-07-24T17:51:02.338187+05:30
Ranchi,Jharkhand,23.3441,85.3096,25.2,87,0.0,930.3,6.45,31.7,58,11.7,11.3,6.5,204.0,82.0,6.7,7,5,7,1,2026-07-24T17:51:02.338194+05:30
Jamshedpur,Jharkhand,22.8046,86.2029,26.6,97,0.1,982.4,7.15,31.7,70,16.8,16.0,9.2,326.0,84.0,10.4,10,5,7,1,2026-07-24T17:51:02.338200+05:30
Dhanbad,Jharkhand,23.7957,86.4304,26.1,95,0.1,971.3,6.6,27.0,89,31.7,31.4,27.5,272.0,102.0,60.6,10,5,7,1,2026-07-24T17:51:02.338207+05:30
Bokaro,Jharkhand,23.6693,86.1511,27.0,87,0.3,975.4,8.25,27.0,79,31.1,30.9,27.9,194.0,80.0,67.6,10,5,7,1,2026-07-24T17:51:02.338214+05:30
Bhubaneswar,Odisha,20.2961,85.8245,27.2,93,0.2,995.6,8.75,37.4,71,26.5,21.0,10.0,329.0,77.0,4.5,10,5,7,1,2026-07-24T17:51:02.338221+05:30
Cuttack,Odisha,20.4625,85.8828,27.3,90,0.2,997.3,8.5,41.4,71,26.5,21.0,10.0,294.0,77.0,4.5,10,5,7,1,2026-07-24T17:51:02.338227+05:30
Rourkela,Odisha,22.2604,84.8536,28.3,78,0.0,977.3,8.15,42.8,68,27.0,24.9,8.3,366.0,94.0,14.7,7,5,7,1,2026-07-24T17:51:02.338234+05:30
Raipur,Chhattisgarh,21.2514,81.6296,29.5,71,0.1,967.3,7.1,44.3,74,16.3,13.7,13.6,420.0,71.0,30.4,10,5,7,1,2026-07-24T17:51:02.338241+05:30
Bhilai,Chhattisgarh,21.1938,81.3509,28.7,73,0.0,967.8,7.95,49.3,71,14.3,11.7,12.1,718.0,71.0,27.1,7,5,7,1,2026-07-24T17:51:02.338248+05:30
Guwahati,Assam,26.1158,91.7086,27.9,93,0.0,994.0,8.35,19.8,53,8.0,7.9,5.8,276.0,67.0,1.3,7,5,7,1,2026-07-24T17:51:02.338254+05:30
Agartala,Tripura,23.8315,91.2868,28.5,80,0.0,998.6,7.35,37.8,51,7.2,6.7,6.4,181.0,68.0,1.6,7,5,7,1,2026-07-24T17:51:02.338260+05:30
Shillong,Meghalaya,25.5788,91.8933,22.6,75,0.0,853.2,5.85,28.8,36,5.0,4.8,6.5,193.0,65.0,1.5,3,5,3,1,2026-07-24T17:51:02.338266+05:30
Imphal,Manipur,24.817,93.9368,25.8,80,0.0,917.8,9.05,20.2,40,6.6,6.2,7.8,245.0,68.0,1.9,7,5,7,1,2026-07-24T17:51:02.338272+05:30
Aizawl,Mizoram,23.7271,92.7176,22.5,81,0.0,887.3,8.5,34.9,30,5.0,3.8,3.9,127.0,46.0,0.5,3,5,7,1,2026-07-24T17:51:02.338279+05:30
Kohima,Nagaland,25.6701,94.1077,21.7,91,0.1,851.2,8.65,22.7,33,4.5,4.2,4.9,181.0,60.0,0.8,6,5,7,1,2026-07-24T17:51:02.338286+05:30
Gangtok,Sikkim,27.3314,88.6138,20.1,90,0.1,834.3,7.5,34.6,44,4.3,4.2,5.7,207.0,83.0,1.1,6,5,7,1,2026-07-24T17:51:02.338292+05:30
Siliguri,West Bengal,26.7271,88.3953,29.1,82,0.0,985.6,7.65,28.8,64,14.3,13.6,6.5,473.0,92.0,3.0,7,5,7,1,2026-07-24T17:51:05.707443+05:30
Durgapur,West Bengal,23.5204,87.3119,26.6,97,0.0,986.5,7.9,24.8,104,59.4,59.0,29.1,765.0,150.0,67.6,7,5,7,1,2026-07-24T17:51:05.707481+05:30
Asansol,West Bengal,23.6739,86.9524,27.6,88,0.1,984.9,8.05,29.5,87,34.5,34.3,24.9,299.0,126.0,47.5,10,5,7,1,2026-07-24T17:51:05.707493+05:30
Pondicherry,Puducherry,11.9139,79.8145,31.2,67,0.1,1004.2,8.2,41.4,75,32.5,23.3,7.0,203.0,118.0,4.7,6,5,4,1,2026-07-24T17:51:05.707503+05:30
Port Blair,Andaman and Nicobar Islands,11.6234,92.7265,28.1,78,0.0,1005.0,8.75,44.3,40,14.1,8.4,0.5,105.0,43.0,0.5,7,5,4,1,2026-07-24T17:51:05.707511+05:30
Haridwar,Uttarakhand,29.9457,78.1642,30.3,75,0.0,964.8,6.3,36.7,92,17.2,17.2,3.7,262.0,122.0,4.8,3,5,7,1,2026-07-24T17:51:05.707518+05:30
Rishikesh,Uttarakhand,30.0869,78.2676,28.8,87,0.0,957.7,6.0,26.3,80,12.9,12.9,2.8,216.0,113.0,3.1,7,5,3,1,2026-07-24T17:51:05.707527+05:30
Nainital,Uttarakhand,29.3919,79.4542,20.6,77,0.0,802.1,7.6,42.1,65,14.1,14.1,2.6,191.0,106.0,2.3,3,5,7,1,2026-07-24T17:51:05.707534+05:30
Mussoorie,Uttarakhand,30.4599,78.0664,19.8,90,0.0,798.7,6.1,31.7,93,12.0,12.0,7.5,236.0,101.0,2.6,3,10,7,1,2026-07-24T17:51:05.707542+05:30
Dharamshala,Himachal Pradesh,32.219,76.3234,23.6,90,0.0,862.9,6.9,32.4,45,4.6,4.5,1.5,261.0,104.0,0.8,3,5,7,1,2026-07-24T17:51:05.707550+05:30
Dalhousie,Himachal Pradesh,32.5387,75.971,21.8,76,0.0,800.8,8.6,28.8,80,11.9,11.6,3.3,223.0,128.0,1.5,3,5,7,1,2026-07-24T17:51:05.707558+05:30
Patiala,Punjab,30.3398,76.3869,30.1,76,0.0,967.9,7.3,36.4,112,22.4,22.3,6.6,299.0,126.0,6.4,3,5,7,1,2026-07-24T17:51:05.707565+05:30
Bhatinda,Punjab,30.211,74.9455,28.1,88,0.1,973.0,7.95,32.0,150,27.6,27.6,8.1,338.0,132.0,9.3,10,5,7,1,2026-07-24T17:51:05.707572+05:30
Rohtak,Haryana,28.8955,76.6066,30.7,76,0.0,970.9,4.5,34.6,128,18.3,17.7,10.6,351.0,142.0,15.2,3,5,3,1,2026-07-24T17:51:05.707579+05:30
Panipat,Haryana,29.3909,76.9635,30.3,77,0.0,970.1,5.6,42.8,124,18.7,18.7,9.8,277.0,123.0,11.6,3,5,3,1,2026-07-24T17:51:05.707586+05:30
Mathura,Uttar Pradesh,27.4924,77.6737,32.0,66,0.0,975.9,6.5,28.4,83,12.2,11.8,4.3,233.0,121.0,3.5,3,5,7,1,2026-07-24T17:51:05.707592+05:30
Vrindavan,Uttar Pradesh,27.5823,77.7027,31.9,67,0.0,976.3,6.5,28.4,83,12.2,11.8,4.3,229.0,121.0,3.5,3,5,7,1,2026-07-24T17:51:05.707599+05:30
Ayodhya,Uttar Pradesh,26.7922,82.1998,28.9,86,0.0,986.7,7.1,22.7,95,23.6,23.5,5.5,278.0,118.0,5.8,7,5,7,1,2026-07-24T17:51:05.707606+05:30
Ratlam,Madhya Pradesh,23.3315,75.0367,26.9,72,0.0,944.6,4.75,54.0,33,13.3,7.2,1.7,122.0,75.0,2.5,7,5,3,1,2026-07-24T17:51:05.707613+05:30
Sagar,Madhya Pradesh,23.8388,78.7378,29.0,67,0.0,941.0,7.55,36.0,36,10.6,5.9,1.7,132.0,75.0,2.1,7,5,7,1,2026-07-24T17:51:05.707619+05:30
Satna,Madhya Pradesh,24.6005,80.8322,31.0,65,0.0,962.0,7.25,29.5,47,5.9,5.3,2.3,152.0,86.0,3.5,3,5,7,1,2026-07-24T17:51:05.707626+05:30
Akola,Maharashtra,20.7002,77.0082,26.7,89,0.0,967.5,7.55,54.4,35,12.7,7.3,4.6,131.0,70.0,4.5,7,5,7,1,2026-07-24T17:51:05.707634+05:30
Amravati,Maharashtra,20.9374,77.7796,25.9,92,0.0,959.8,7.5,49.7,39,13.0,7.3,4.7,136.0,69.0,4.6,7,5,7,1,2026-07-24T17:51:05.707642+05:30
Latur,Maharashtra,18.4088,76.5604,27.2,66,0.0,934.0,6.3,58.7,31,12.5,5.5,1.3,116.0,56.0,1.0,7,5,7,1,2026-07-24T17:51:05.707649+05:30
Nanded,Maharashtra,19.1383,77.3091,28.0,81,0.0,961.9,7.05,52.6,42,15.6,8.7,5.3,185.0,59.0,2.2,7,5,7,1,2026-07-24T17:51:05.707656+05:30
Gulbarga,Karnataka,17.3297,76.8343,29.8,55,0.0,953.6,6.7,62.6,56,20.7,9.3,2.5,129.0,64.0,1.6,4,5,7,1,2026-07-24T17:51:05.707662+05:30
Bidar,Karnataka,17.9104,77.5199,28.0,64,0.0,930.2,4.25,61.2,56,25.4,11.6,4.3,156.0,61.0,1.3,7,5,3,1,2026-07-24T17:51:05.707669+05:30
Hospet,Karnataka,15.2689,76.3909,28.5,61,0.0,952.6,8.95,59.0,55,9.0,4.9,2.4,112.0,51.0,1.4,7,5,7,1,2026-07-24T17:51:05.707676+05:30
Tirupur,Tamil Nadu,11.1085,77.3411,31.3,55,0.0,972.2,8.9,52.6,53,21.3,11.4,4.7,142.0,81.0,2.5,0,5,7,1,2026-07-24T17:51:05.707683+05:30
Alappuzha,Kerala,9.4981,76.3388,28.2,83,0.0,1007.7,8.65,30.6,56,15.3,10.5,5.7,94.0,63.0,3.0,7,5,4,1,2026-07-24T17:51:05.707689+05:30
Munnar,Kerala,10.0889,77.0595,18.7,92,0.0,856.2,9.05,36.4,34,11.7,6.1,1.9,108.0,58.0,1.3,3,10,7,1,2026-07-24T17:51:05.707696+05:30
Silchar,Assam,24.8333,92.7789,28.3,83,0.1,997.9,8.75,23.4,55,12.4,10.9,3.9,202.0,84.0,3.8,10,5,7,1,2026-07-24T17:51:05.707702+05:30
Dibrugarh,Assam,27.4728,94.912,31.2,76,0.0,987.0,8.4,24.1,55,10.4,10.0,5.9,207.0,86.0,1.7,3,5,7,1,2026-07-24T17:51:05.707709+05:30
