city,state,latitude,longitude,temp,humidity,rain,pressure,uv_index,wind_gusts,aqi,pm10,pm2_5,no2,co,o3,so2,mosquito_risk,arthritis_risk,migraine_risk,frizz_risk,updated_at
Delhi,Delhi,28.6139,77.209,39.5,23,0.0,979.4,7.75,45.4,484,750.6,159.3,8.1,254.0,121.0,12.6,0,5,10,0,2026-05-25T10:52:07.689933+05:30
Mumbai,Maharashtra,19.076,72.8777,32.3,67,0.0,1010.1,7.8,46.1,51,24.1,16.9,4.4,192.0,75.0,5.6,3,0,4,1,2026-05-25T10:52:07.689971+05:30
Bangalore,Karnataka,12.9716,77.5946,28.9,56,0.0,914.5,8.1,35.3,60,14.8,12.9,6.4,432.0,110.0,4.8,4,5,7,1,2026-05-25T10:52:07.689987+05:30
Hyderabad,Telangana,17.385,78.4867,36.3,34,0.0,954.3,9.2,37.4,56,30.3,20.1,3.5,247.0,122.0,7.3,0,5,10,1,2026-05-25T10:52:07.689996+05:30
Chennai,Tamil Nadu,13.0827,80.2707,37.8,41,0.0,1006.2,9.05,47.5,77,25.0,22.7,8.0,357.0,146.0,10.3,0,5,7,1,2026-05-25T10:52:07.690004+05:30
Kolkata,West Bengal,22.5726,88.3639,35.0,61,0.0,1003.6,8.95,46.8,107,46.3,36.1,2.1,267.0,124.0,6.4,3,5,4,1,2026-05-25T10:52:07.690012+05:30
Pune,Maharashtra,18.5204,73.8567,32.0,54,0.0,950.3,8.45,45.0,37,18.1,11.9,3.1,197.0,86.0,7.2,0,5,7,1,2026-05-25T10:52:07.690019+05:30
Ahmedabad,Gujarat,23.0225,72.5714,34.8,46,0.0,1003.0,8.15,36.4,47,54.0,21.1,2.3,159.0,79.0,4.6,0,5,4,1,2026-05-25T10:52:07.690025+05:30
Jaipur,Rajasthan,26.9124,75.7873,37.3,25,0.0,958.7,8.25,48.2,214,360.4,75.7,1.6,158.0,97.0,3.9,0,5,10,0,2026-05-25T10:52:07.690037+05:30
Lucknow,Uttar Pradesh,26.8467,80.9462,40.0,19,0.0,990.1,8.2,64.4,200,467.5,96.2,5.2,197.0,142.0,8.5,0,5,10,0,2026-05-25T10:52:07.690044+05:30
Kanpur,Uttar Pradesh,26.4499,80.3319,40.3,20,0.0,988.8,8.2,46.1,471,674.3,93.4,2.4,152.0,112.0,5.2,0,5,10,0,2026-05-25T10:52:07.690053+05:30
Chandigarh,Chandigarh,30.7333,76.7794,38.0,19,0.0,965.5,7.75,23.8,91,82.2,28.3,4.1,352.0,157.0,11.6,0,5,10,0,2026-05-25T10:52:07.690061+05:30
Srinagar,Jammu and Kashmir,34.0837,74.7973,19.6,51,0.0,843.9,8.95,42.5,63,31.2,13.0,2.4,237.0,124.0,2.4,0,5,7,0,2026-05-25T10:52:07.690068+05:30
Jammu,Jammu and Kashmir,32.7266,74.857,36.3,19,0.0,969.6,8.55,32.8,81,38.8,16.7,4.1,206.0,127.0,2.2,0,5,10,0,2026-05-25T10:52:07.690074+05:30
Amritsar,Punjab,31.634,74.8723,36.3,26,0.0,977.4,8.4,23.0,85,56.3,24.6,4.7,335.0,132.0,4.1,0,5,10,0,2026-05-25T10:52:07.690080+05:30
Ludhiana,Punjab,30.901,75.8573,38.0,21,0.0,975.0,8.0,31.3,84,67.5,25.6,4.0,387.0,138.0,6.4,0,5,10,0,2026-05-25T10:52:07.690086+05:30
Jalandhar,Punjab,31.326,75.5762,37.5,21,0.0,975.9,8.2,32.0,81,69.2,25.0,3.4,383.0,136.0,4.0,0,5,10,0,2026-05-25T10:52:07.690092+05:30
Dehradun,Uttarakhand,30.6284,78.0322,27.6,23,0.0,833.3,7.8,36.7,61,89.9,21.2,0.6,155.0,120.0,1.8,4,5,7,0,2026-05-25T10:52:07.690098+05:30
Shimla,Himachal Pradesh,31.1048,77.1734,24.8,20,0.0,788.3,8.25,42.1,67,74.0,17.7,0.5,166.0,125.0,1.6,0,5,7,0,2026-05-25T10:52:07.690106+05:30
Manali,Himachal Pradesh,32.2396,77.1887,22.6,28,0.0,821.7,9.4,47.2,46,28.8,7.3,4.0,139.0,122.0,0.8,0,5,7,0,2026-05-25T10:52:07.690115+05:30
Gurgaon,Haryana,28.4595,77.0266,39.2,24,0.0,978.0,7.8,46.4,1786,2645.0,366.0,6.4,195.0,117.0,10.0,0,5,10,0,2026-05-25T10:52:07.690121+05:30
Noida,Uttar Pradesh,28.5355,77.391,39.8,23,0.0,980.8,7.75,40.0,1786,2645.0,366.0,6.4,251.0,117.0,10.0,0,5,10,0,2026-05-25T10:52:07.690127+05:30
Ghaziabad,Uttar Pradesh,28.6692,77.4538,39.5,22,0.0,979.2,7.75,38.2,430,549.5,129.5,8.0,245.0,147.0,18.0,0,5,10,0,2026-05-25T10:52:07.690133+05:30
Faridabad,Haryana,28.4089,77.3178,39.2,23,0.0,980.1,7.8,46.8,1786,2645.0,366.0,6.4,208.0,117.0,10.0,0,5,10,0,2026-05-25T10:52:07.690139+05:30
Meerut,Uttar Pradesh,28.9845,77.7064,37.8,25,0.0,978.3,7.65,37.1,430,549.5,129.5,8.0,205.0,147.0,18.0,0,5,10,0,2026-05-25T10:52:07.690145+05:30
Agra,Uttar Pradesh,27.1767,78.0081,39.7,24,0.0,985.0,8.05,43.2,1289,1728.5,194.2,2.6,159.0,103.0,4.2,0,5,10,0,2026-05-25T10:52:07.690151+05:30
Varanasi,Uttar Pradesh,25.3176,82.9739,41.2,18,0.0,993.9,8.75,49.3,151,116.9,42.4,6.4,269.0,169.0,11.3,0,5,10,0,2026-05-25T10:52:07.690157+05:30
Prayagraj,Uttar Pradesh,25.4358,81.8463,41.0,17,0.0,992.9,8.65,47.2,153,147.6,42.3,5.9,177.0,148.0,9.0,0,5,10,0,2026-05-25T10:52:07.690164+05:30
Gorakhpur,Uttar Pradesh,26.7606,83.3732,35.0,50,0.0,994.2,8.6,34.6,144,113.6,73.6,3.4,463.0,180.0,14.7,0,5,7,1,2026-05-25T10:52:07.690172+05:30
Bareilly,Uttar Pradesh,28.367,79.4304,35.8,34,0.0,983.6,8.05,20.5,128,273.8,75.2,5.7,374.0,194.0,12.2,0,5,10,1,2026-05-25T10:52:07.690178+05:30
Aligarh,Uttar Pradesh,27.8974,78.088,38.7,25,0.0,982.5,7.9,37.1,955,1695.0,255.2,3.8,173.0,120.0,8.9,0,5,10,0,2026-05-25T10:52:07.690184+05:30
Moradabad,Uttar Pradesh,28.8386,78.7733,36.2,32,0.0,980.7,7.85,28.4,152,184.4,62.2,8.4,419.0,195.0,16.6,0,5,10,1,2026-05-25T10:52:07.690190+05:30
Saharanpur,Uttar Pradesh,29.9637,77.546,37.1,26,0.0,972.5,7.35,21.2,114,91.7,39.8,6.9,327.0,185.0,12.1,0,5,10,0,2026-05-25T10:52:07.690196+05:30
Jhansi,Uttar Pradesh,25.4484,78.5685,39.8,23,0.0,976.7,8.45,48.6,67,21.6,12.0,1.4,146.0,96.0,4.0,0,5,10,0,2026-05-25T10:52:10.940039+05:30
Surat,Gujarat,21.1702,72.8311,34.4,55,0.0,1008.1,7.7,45.0,57,20.8,16.2,11.7,407.0,49.0,36.7,0,0,4,1,2026-05-25T10:52:10.940067+05:30
Vadodara,Gujarat,22.3072,73.1812,36.5,42,0.0,1005.0,8.1,42.5,52,16.7,12.2,2.7,165.0,74.0,5.3,0,5,7,1,2026-05-25T10:52:10.940077+05:30
Rajkot,Gujarat,22.3039,70.8022,35.0,45,0.0,995.4,7.75,49.7,47,38.8,17.5,1.7,122.0,78.0,4.7,0,5,7,1,2026-05-25T10:52:10.940085+05:30
Thane,Maharashtra,19.2183,72.9781,33.5,62,0.0,1009.2,7.8,40.3,51,24.1,16.9,4.4,175.0,75.0,5.6,3,0,4,1,2026-05-25T10:52:10.940092+05:30
Nagpur,Maharashtra,21.1458,79.0882,41.8,17,0.0,972.6,8.85,43.9,73,52.6,24.4,4.8,176.0,134.0,16.3,0,5,10,0,2026-05-25T10:52:10.940099+05:30
Nashik,Maharashtra,19.9975,73.7898,32.3,53,0.0,947.7,8.15,40.3,30,14.8,9.8,1.7,131.0,67.0,1.6,0,5,7,1,2026-05-25T10:52:10.940106+05:30
Aurangabad,Maharashtra,19.8762,75.3433,35.8,37,0.0,946.0,9.0,40.3,47,14.4,9.4,1.5,143.0,79.0,2.6,0,5,10,1,2026-05-25T10:52:10.940112+05:30
Solapur,Maharashtra,17.6599,75.9064,34.5,45,0.0,959.2,9.0,33.8,54,22.7,14.2,2.2,165.0,98.0,5.9,0,5,7,1,2026-05-25T10:52:10.940119+05:30
Kolhapur,Maharashtra,16.705,74.2433,31.3,57,0.0,950.7,8.8,42.1,39,14.8,9.3,2.0,149.0,75.0,1.9,0,5,7,1,2026-05-25T10:52:10.940125+05:30
Goa,Goa,15.2993,74.124,31.5,70,0.0,1000.7,8.75,27.7,49,12.6,8.4,0.8,150.0,62.0,1.4,3,5,4,1,2026-05-25T10:52:10.940132+05:30
Jodhpur,Rajasthan,26.2389,73.0243,33.4,45,0.0,982.0,8.4,46.4,236,438.7,89.2,1.2,125.0,78.0,3.6,0,5,7,1,2026-05-25T10:52:10.940138+05:30
Udaipur,Rajasthan,24.5854,73.7125,33.8,32,0.0,947.5,8.8,47.2,58,118.0,38.6,1.0,130.0,86.0,2.5,0,5,7,0,2026-05-25T10:52:10.940145+05:30
Kota,Rajasthan,25.2138,75.8648,39.4,25,0.0,978.3,8.4,41.0,66,18.4,12.3,1.7,146.0,88.0,5.4,0,5,10,0,2026-05-25T10:52:10.940152+05:30
Bikaner,Rajasthan,28.0229,73.3119,37.2,29,0.0,979.1,8.4,40.3,179,356.7,140.6,0.7,144.0,81.0,3.9,0,5,10,1,2026-05-25T10:52:10.940159+05:30
Ajmer,Rajasthan,26.4499,74.6399,34.2,33,0.0,954.0,8.35,54.7,79,128.1,49.1,1.2,138.0,92.0,3.8,0,5,7,0,2026-05-25T10:52:10.940166+05:30
Gwalior,Madhya Pradesh,26.2183,78.1828,39.3,23,0.0,981.5,8.25,57.2,68,38.3,17.7,1.1,136.0,91.0,2.4,0,5,10,0,2026-05-25T10:52:10.940172+05:30
Indore,Madhya Pradesh,22.7196,75.8577,36.9,32,0.0,949.5,8.65,40.3,64,21.7,14.2,2.7,184.0,93.0,9.3,0,5,10,1,2026-05-25T10:52:10.940179+05:30
Bhopal,Madhya Pradesh,23.2599,77.4126,39.5,23,0.0,954.2,8.7,40.0,73,34.5,16.3,1.6,176.0,102.0,6.5,0,5,10,0,2026-05-25T10:52:10.940185+05:30
Jabalpur,Madhya Pradesh,23.1815,79.9864,40.5,20,0.0,961.4,8.85,32.0,82,41.8,18.6,1.6,161.0,116.0,4.4,0,5,10,0,2026-05-25T10:52:10.940192+05:30
Ujjain,Madhya Pradesh,23.1765,75.7885,37.0,33,0.0,955.0,8.6,44.6,63,20.5,13.6,2.4,157.0,89.0,9.5,0,5,10,1,2026-05-25T10:52:10.940199+05:30
Visakhapatnam,Andhra Pradesh,17.6868,83.2185,35.8,60,0.0,1001.6,8.7,33.5,145,57.9,47.1,25.1,773.0,130.0,62.7,0,5,7,1,2026-05-25T10:52:10.940206+05:30
Vijayawada,Andhra Pradesh,16.5062,80.648,39.7,31,0.0,1000.4,9.1,38.2,92,26.5,21.8,3.4,223.0,137.0,8.8,0,5,7,1,2026-05-25T10:52:10.940212+05:30
Guntur,Andhra Pradesh,16.3067,80.4365,39.7,31,0.0,1001.7,9.1,41.4,74,26.4,20.7,3.2,208.0,129.0,8.3,0,5,7,1,2026-05-25T10:52:10.940218+05:30
Nellore,Andhra Pradesh,14.4426,79.9865,37.8,41,0.0,1004.7,9.05,44.6,73,15.4,13.3,2.9,176.0,123.0,6.6,0,5,7,1,2026-05-25T10:52:10.940225+05:30
Kurnool,Andhra Pradesh,15.8281,78.0373,34.5,51,0.0,978.2,9.05,40.7,51,17.7,12.9,3.2,192.0,101.0,9.5,0,5,7,1,2026-05-25T10:52:10.940232+05:30
Kakinada,Andhra Pradesh,16.9891,82.2475,38.5,45,0.0,1004.6,9.1,32.0,100,36.4,29.7,3.6,440.0,155.0,5.6,0,5,7,1,2026-05-25T10:52:10.940239+05:30
Tirupati,Andhra Pradesh,13.6288,79.4192,37.3,40,0.0,990.7,9.1,30.6,87,15.7,13.6,2.5,334.0,121.0,3.0,0,5,10,1,2026-05-25T10:52:10.940245+05:30
Warangal,Telangana,17.9689,79.5941,38.6,29,0.0,978.0,9.05,43.6,84,38.1,27.0,3.5,229.0,132.0,9.4,0,5,10,1,2026-05-25T10:52:10.940251+05:30
Nizamabad,Telangana,18.6725,78.0941,38.1,29,0.0,965.6,9.1,36.7,70,28.8,17.9,1.7,161.0,107.0,5.3,0,5,10,1,2026-05-25T10:52:10.940257+05:30
Mysore,Karnataka,12.2958,76.6396,30.3,52,0.0,931.4,8.9,36.7,50,13.8,10.6,3.1,171.0,98.0,2.4,0,5,7,1,2026-05-25T10:52:10.940263+05:30
Mangalore,Karnataka,12.9141,74.856,30.0,75,0.0,1009.6,7.4,32.8,59,19.8,13.5,2.6,195.0,72.0,3.3,7,0,4,1,2026-05-25T10:52:10.940269+05:30
Hubli-Dharwad,Karnataka,15.3647,75.124,30.9,56,0.0,944.1,9.0,42.8,31,13.0,8.3,1.6,155.0,75.0,1.2,0,5,7,1,2026-05-25T10:52:10.940276+05:30
Belgaum,Karnataka,15.8497,74.4977,29.7,62,0.0,929.2,9.0,36.7,34,13.6,8.6,1.6,139.0,70.0,1.3,7,5,7,1,2026-05-25T10:52:14.183888+05:30
Coimbatore,Tamil Nadu,11.0168,76.9558,31.0,54,0.0,964.3,8.45,53.6,27,14.4,9.8,1.9,183.0,90.0,2.3,0,5,7,1,2026-05-25T10:52:14.183919+05:30
Madurai,Tamil Nadu,9.9252,78.1198,34.7,42,0.0,994.4,8.95,32.0,66,12.6,9.8,4.2,163.0,104.0,4.1,0,5,7,1,2026-05-25T10:52:14.183929+05:30
Trichy,Tamil Nadu,10.7905,78.7047,32.1,54,0.0,1000.9,8.85,45.4,47,11.5,8.5,2.7,142.0,87.0,3.3,0,5,4,1,2026-05-25T10:52:14.183938+05:30
Salem,Tamil Nadu,11.6643,78.146,32.8,49,0.0,979.0,8.95,32.4,68,17.1,14.4,5.4,210.0,120.0,13.3,0,5,7,1,2026-05-25T10:52:14.183945+05:30
Tirunelveli,Tamil Nadu,8.7139,77.7567,36.8,37,0.0,1004.3,8.85,33.5,26,7.0,5.2,1.8,144.0,75.0,1.4,0,5,7,1,2026-05-25T10:52:14.183953+05:30
Vellore,Tamil Nadu,12.9165,79.1325,36.0,42,0.0,984.5,9.1,53.3,73,18.6,16.8,3.3,218.0,129.0,4.4,0,5,10,1,2026-05-25T10:52:14.183960+05:30
Erode,Tamil Nadu,11.341,77.7172,33.8,42,0.0,990.7,8.95,43.6,47,14.3,10.4,3.6,186.0,97.0,2.5,0,5,7,1,2026-05-25T10:52:14.183967+05:30
Kochi,Kerala,9.9312,76.2673,29.4,79,0.1,1011.6,4.35,31.0,55,12.9,10.8,10.3,217.0,64.0,6.7,10,0,0,1,2026-05-25T10:52:14.183975+05:30
Thiruvananthapuram,Kerala,8.5241,76.9366,28.2,81,0.1,1011.1,7.6,34.2,33,12.7,8.9,2.6,168.0,70.0,2.2,10,0,4,1,2026-05-25T10:52:14.183982+05:30
Kozhikode,Kerala,11.2588,75.7804,30.1,77,0.0,1010.7,8.0,35.3,36,16.9,11.0,1.3,194.0,72.0,2.1,3,0,4,1,2026-05-25T10:52:14.183989+05:30
Thrissur,Kerala,10.5276,76.2144,29.9,76,0.0,1009.8,7.85,32.8,51,11.9,9.4,3.6,194.0,76.0,3.6,7,0,4,1,2026-05-25T10:52:14.183996+05:30
Kannur,Kerala,11.8745,75.3704,30.3,72,0.1,1010.0,8.2,36.0,53,21.8,14.7,2.7,191.0,81.0,2.9,6,0,4,1,2026-05-25T10:52:14.184003+05:30
Patna,Bihar,25.5941,85.1376,35.3,54,0.0,997.2,8.8,30.2,155,99.9,70.1,4.5,437.0,185.0,19.5,0,5,10,1,2026-05-25T10:52:14.184010+05:30
Gaya,Bihar,24.7914,85.0002,39.3,25,0.0,990.5,8.9,29.5,155,123.9,65.2,7.6,293.0,195.0,12.5,0,5,10,0,2026-05-25T10:52:14.184017+05:30
Muzaffarpur,Bihar,26.1209,85.3647,33.0,67,0.0,997.6,8.85,36.7,155,97.6,73.3,4.1,406.0,182.0,20.1,3,5,7,1,2026-05-25T10:52:14.184024+05:30
Bhagalpur,Bihar,25.2425,87.0117,33.0,67,0.0,998.3,8.8,34.2,154,62.6,49.8,7.4,411.0,139.0,16.9,3,5,7,1,2026-05-25T10:52:14.184031+05:30
Ranchi,Jharkhand,23.3441,85.3096,35.0,38,0.0,937.5,9.3,49.0,140,80.6,33.9,2.4,233.0,157.0,15.1,0,5,7,1,2026-05-25T10:52:14.184038+05:30
Jamshedpur,Jharkhand,22.8046,86.2029,37.4,48,0.0,988.3,9.1,40.7,119,56.0,41.8,4.7,292.0,186.0,26.3,0,5,10,1,2026-05-25T10:52:14.184045+05:30
Dhanbad,Jharkhand,23.7957,86.4304,39.1,32,0.0,977.2,9.05,39.2,154,86.8,54.6,16.0,274.0,182.0,63.5,0,5,10,1,2026-05-25T10:52:14.184052+05:30
Bokaro,Jharkhand,23.6693,86.1511,38.9,36,0.0,980.9,9.1,38.9,153,91.7,46.1,10.6,278.0,174.0,41.1,0,5,10,1,2026-05-25T10:52:14.184059+05:30
Bhubaneswar,Odisha,20.2961,85.8245,35.7,56,0.0,1000.9,9.1,45.7,94,61.2,50.8,2.0,241.0,142.0,5.3,0,5,7,1,2026-05-25T10:52:14.184066+05:30
Cuttack,Odisha,20.4625,85.8828,34.9,63,0.0,1002.7,9.15,39.2,94,61.2,50.8,2.0,265.0,142.0,5.3,3,5,4,1,2026-05-25T10:52:14.184073+05:30
Rourkela,Odisha,22.2604,84.8536,37.1,51,0.0,983.4,9.0,44.6,145,41.6,31.9,2.9,287.0,163.0,16.1,0,5,10,1,2026-05-25T10:52:14.184080+05:30
Raipur,Chhattisgarh,21.2514,81.6296,42.5,15,0.0,973.5,8.95,34.9,146,92.7,45.9,17.7,297.0,135.0,45.1,0,5,10,0,2026-05-25T10:52:14.184087+05:30
Bhilai,Chhattisgarh,21.1938,81.3509,41.0,18,0.0,974.1,8.95,23.4,130,90.8,52.2,31.3,330.0,116.0,79.6,0,5,10,0,2026-05-25T10:52:14.184094+05:30
Guwahati,Assam,26.1158,91.7086,24.4,97,0.3,1002.1,8.8,27.0,80,15.4,9.2,2.4,280.0,105.0,2.4,6,5,4,1,2026-05-25T10:52:14.184102+05:30
Agartala,Tripura,23.8315,91.2868,31.5,72,0.1,1004.8,8.25,52.6,65,32.5,23.7,7.3,180.0,83.0,3.5,6,5,4,1,2026-05-25T10:52:14.184108+05:30
Shillong,Meghalaya,25.5788,91.8933,22.9,81,0.1,858.5,7.8,44.3,53,16.5,6.2,2.4,198.0,99.0,2.6,6,5,7,1,2026-05-25T10:52:14.184115+05:30
Imphal,Manipur,24.817,93.9368,29.9,55,0.0,924.2,9.3,34.2,89,56.1,20.9,0.7,196.0,107.0,2.5,4,5,7,1,2026-05-25T10:52:14.184122+05:30
Aizawl,Mizoram,23.7271,92.7176,26.4,61,0.1,893.9,9.15,42.8,58,23.0,12.7,0.6,158.0,88.0,1.5,10,5,7,1,2026-05-25T10:52:14.184129+05:30
Kohima,Nagaland,25.6701,94.1077,23.0,78,0.0,856.4,9.3,28.1,65,36.0,13.4,0.5,209.0,105.0,1.6,3,5,7,1,2026-05-25T10:52:14.184136+05:30
Gangtok,Sikkim,27.3314,88.6138,24.0,47,0.0,839.0,9.15,39.2,83,44.0,23.8,0.8,289.0,148.0,3.8,0,5,7,0,2026-05-25T10:52:14.184143+05:30
Siliguri,West Bengal,26.7271,88.3953,30.8,64,0.0,991.4,8.7,26.3,128,73.8,43.9,2.3,346.0,156.0,6.8,3,5,7,1,2026-05-25T10:52:17.436671+05:30
Durgapur,West Bengal,23.5204,87.3119,34.8,65,0.0,992.1,9.0,40.7,152,66.1,56.1,14.6,765.0,188.0,59.7,3,5,7,1,2026-05-25T10:52:17.436703+05:30
Asansol,West Bengal,23.6739,86.9524,36.2,57,0.0,990.6,9.05,39.6,152,74.7,55.9,15.2,382.0,192.0,61.5,0,5,10,1,2026-05-25T10:52:17.436715+05:30
Pondicherry,Puducherry,11.9139,79.8145,33.7,57,0.0,1008.3,8.95,44.3,75,25.4,22.4,6.4,289.0,127.0,11.3,0,0,4,1,2026-05-25T10:52:17.436777+05:30
Port Blair,Andaman and Nicobar Islands,11.6234,92.7265,27.5,89,0.2,1010.2,8.9,38.2,35,10.2,5.9,0.4,120.0,78.0,0.4,10,0,4,1,2026-05-25T10:52:17.436790+05:30
Haridwar,Uttarakhand,29.9457,78.1642,36.5,25,0.0,971.0,7.5,28.4,87,86.4,32.7,2.3,275.0,163.0,6.4,0,5,10,0,2026-05-25T10:52:17.436800+05:30
Rishikesh,Uttarakhand,30.0869,78.2676,36.8,23,0.0,963.9,7.6,24.8,80,127.1,29.9,1.4,186.0,142.0,3.7,0,5,10,0,2026-05-25T10:52:17.436809+05:30
Nainital,Uttarakhand,29.3919,79.4542,25.9,26,0.0,809.5,8.45,47.5,78,132.2,33.2,0.6,192.0,155.0,5.3,4,5,7,0,2026-05-25T10:52:17.436818+05:30
Mussoorie,Uttarakhand,30.4599,78.0664,25.5,21,0.0,806.5,8.05,54.0,78,98.0,26.4,1.7,166.0,144.0,3.9,4,5,7,0,2026-05-25T10:52:17.436827+05:30
Dharamshala,Himachal Pradesh,32.219,76.3234,27.8,25,0.0,869.7,8.45,42.5,43,28.6,9.3,0.4,159.0,129.0,1.1,4,5,7,0,2026-05-25T10:52:17.436834+05:30
Dalhousie,Himachal Pradesh,32.5387,75.971,21.9,34,0.1,807.2,8.7,44.6,64,48.7,15.6,1.2,168.0,135.0,1.7,3,5,7,0,2026-05-25T10:52:17.436842+05:30
Patiala,Punjab,30.3398,76.3869,39.3,17,0.0,974.6,7.6,32.8,138,187.2,43.2,4.3,300.0,148.0,10.7,0,5,10,0,2026-05-25T10:52:17.436849+05:30
Bhatinda,Punjab,30.211,74.9455,39.0,17,0.0,979.9,8.3,31.0,105,83.4,27.4,3.8,256.0,139.0,11.5,0,5,10,0,2026-05-25T10:52:17.436855+05:30
Rohtak,Haryana,28.8955,76.6066,38.8,26,0.0,978.1,7.75,40.3,574,1315.0,210.0,3.6,174.0,106.0,4.9,0,5,10,0,2026-05-25T10:52:17.436862+05:30
Panipat,Haryana,29.3909,76.9635,39.4,18,0.0,976.8,7.6,32.4,880,1583.2,227.7,9.7,174.0,112.0,21.1,0,5,10,0,2026-05-25T10:52:17.436868+05:30
Mathura,Uttar Pradesh,27.4924,77.6737,39.8,24,0.0,983.7,8.0,42.5,1115,1464.0,172.3,2.5,167.0,100.0,3.5,0,5,10,0,2026-05-25T10:52:17.436874+05:30
Vrindavan,Uttar Pradesh,27.5823,77.7027,39.5,25,0.0,984.1,8.0,39.2,1115,1464.0,172.3,2.5,162.0,100.0,3.5,0,5,10,0,2026-05-25T10:52:17.436881+05:30
Ayodhya,Uttar Pradesh,26.7922,82.1998,35.9,48,0.0,992.1,8.35,31.0,151,149.0,62.9,3.9,471.0,197.0,16.5,0,5,10,1,2026-05-25T10:52:17.436887+05:30
Ratlam,Madhya Pradesh,23.3315,75.0367,35.5,36,0.0,956.1,8.55,46.4,61,21.1,13.8,2.4,139.0,86.0,9.5,0,5,10,1,2026-05-25T10:52:17.436894+05:30
Sagar,Madhya Pradesh,23.8388,78.7378,39.8,21,0.0,950.5,8.75,42.5,74,32.8,13.3,1.0,146.0,102.0,2.9,0,5,10,0,2026-05-25T10:52:17.436901+05:30
Satna,Madhya Pradesh,24.6005,80.8322,40.2,21,0.0,970.1,8.4,46.8,73,26.3,14.3,1.5,151.0,110.0,4.2,0,5,10,0,2026-05-25T10:52:17.436907+05:30
Akola,Maharashtra,20.7002,77.0082,37.9,37,0.0,975.7,7.75,45.7,64,18.5,12.3,2.3,139.0,93.0,8.3,0,5,10,1,2026-05-25T10:52:17.436915+05:30
Amravati,Maharashtra,20.9374,77.7796,39.5,28,0.0,967.7,8.85,40.3,67,22.8,14.3,2.7,159.0,101.0,9.8,0,5,10,1,2026-05-25T10:52:17.436922+05:30
Latur,Maharashtra,18.4088,76.5604,35.5,37,0.0,941.8,9.0,40.3,57,25.0,14.6,1.9,149.0,98.0,4.5,0,5,10,1,2026-05-25T10:52:17.436929+05:30
Nanded,Maharashtra,19.1383,77.3091,38.2,32,0.0,969.3,8.95,36.4,62,22.2,14.1,1.7,161.0,99.0,3.6,0,5,10,1,2026-05-25T10:52:17.436936+05:30
Gulbarga,Karnataka,17.3297,76.8343,35.0,43,0.0,960.4,9.05,37.4,54,24.3,15.3,2.8,170.0,105.0,6.3,0,5,7,1,2026-05-25T10:52:17.436942+05:30
Bidar,Karnataka,17.9104,77.5199,35.8,35,0.0,937.5,9.05,38.9,60,30.6,18.0,2.4,162.0,108.0,5.5,0,5,10,1,2026-05-25T10:52:17.436949+05:30
Hospet,Karnataka,15.2689,76.3909,30.8,60,0.0,958.4,9.1,43.2,41,12.3,8.5,2.0,169.0,77.0,2.8,0,5,7,1,2026-05-25T10:52:17.436955+05:30
Tirupur,Tamil Nadu,11.1085,77.3411,32.0,51,0.0,977.3,8.75,56.2,46,15.3,11.1,3.6,170.0,97.0,3.1,0,5,7,1,2026-05-25T10:52:17.436961+05:30
Alappuzha,Kerala,9.4981,76.3388,29.5,78,0.0,1011.6,7.55,30.6,42,11.2,9.1,7.0,148.0,63.0,4.4,7,0,4,1,2026-05-25T10:52:17.436968+05:30
Munnar,Kerala,10.0889,77.0595,21.9,72,0.0,860.6,8.85,31.0,18,7.2,4.9,1.8,125.0,67.0,0.9,3,5,7,1,2026-05-25T10:52:17.436975+05:30
Silchar,Assam,24.8333,92.7789,29.9,74,0.1,1004.8,8.85,32.0,79,30.3,15.2,1.5,195.0,87.0,2.2,10,5,4,1,2026-05-25T10:52:17.436982+05:30
Dibrugarh,Assam,27.4728,94.912,26.1,82,0.2,996.5,8.95,21.6,82,64.7,28.5,0.8,232.0,121.0,2.5,10,5,7,1,2026-05-25T10:52:17.436989+05:30
