city,state,latitude,longitude,temp,humidity,rain,pressure,uv_index,wind_gusts,aqi,pm10,pm2_5,mosquito_risk,arthritis_risk,migraine_risk,frizz_risk,updated_at
Delhi,Delhi,28.6139,77.209,19.5,87,0.0,982.9,6.95,24.5,280,96.2,36.6,3,10,7,1,2026-04-08T00:39:13.734089+05:30
Mumbai,Maharashtra,19.076,72.8777,28.5,74,0.0,1010.5,7.95,22.0,72,76.1,21.6,7,0,4,1,2026-04-08T00:39:13.734121+05:30
Bangalore,Karnataka,12.9716,77.5946,23.7,58,0.0,912.1,9.65,23.0,51,15.8,13.6,0,5,7,0,2026-04-08T00:39:13.734135+05:30
Hyderabad,Telangana,17.385,78.4867,28.7,39,0.0,953.3,9.15,27.7,73,39.2,31.4,4,5,7,0,2026-04-08T00:39:13.734166+05:30
Chennai,Tamil Nadu,13.0827,80.2707,29.1,86,0.0,1007.2,9.15,35.3,95,30.9,24.3,7,5,4,1,2026-04-08T00:39:13.734175+05:30
Kolkata,West Bengal,22.5726,88.3639,23.3,95,0.0,1007.1,8.7,27.0,104,20.3,18.0,3,5,4,1,2026-04-08T00:39:13.734183+05:30
Pune,Maharashtra,18.5204,73.8567,22.2,77,0.0,950.1,8.55,39.2,76,47.6,25.1,3,5,7,1,2026-04-08T00:39:13.734196+05:30
Ahmedabad,Gujarat,23.0225,72.5714,26.6,72,0.0,1001.5,8.0,34.2,62,24.3,12.1,7,5,4,1,2026-04-08T00:39:13.734203+05:30
Jaipur,Rajasthan,26.9124,75.7873,19.6,86,0.0,958.7,7.65,32.8,155,87.3,27.6,3,10,7,1,2026-04-08T00:39:13.734210+05:30
Lucknow,Uttar Pradesh,26.8467,80.9462,21.8,75,0.0,993.6,7.45,32.0,110,57.9,29.0,3,5,7,1,2026-04-08T00:39:13.734217+05:30
Kanpur,Uttar Pradesh,26.4499,80.3319,21.3,77,0.0,992.1,7.5,28.8,115,121.1,30.9,3,5,7,1,2026-04-08T00:39:13.734223+05:30
Chandigarh,Chandigarh,30.7333,76.7794,17.5,89,0.0,969.1,4.75,24.5,74,29.1,11.5,3,10,3,0,2026-04-08T00:39:13.734230+05:30
Srinagar,Jammu and Kashmir,34.0837,74.7973,9.8,89,0.1,834.8,5.8,22.7,66,15.5,15.1,6,10,3,0,2026-04-08T00:39:13.734237+05:30
Jammu,Jammu and Kashmir,32.7266,74.857,17.7,87,0.1,972.7,3.5,25.6,62,45.2,16.0,6,10,3,0,2026-04-08T00:39:13.734245+05:30
Amritsar,Punjab,31.634,74.8723,16.3,93,0.0,980.8,5.95,20.5,106,75.2,29.3,3,10,3,0,2026-04-08T00:39:13.734251+05:30
Ludhiana,Punjab,30.901,75.8573,16.9,86,0.0,979.6,4.85,26.3,139,82.7,30.9,3,10,3,0,2026-04-08T00:39:13.734257+05:30
Jalandhar,Punjab,31.326,75.5762,16.9,88,0.0,980.5,5.4,23.8,126,100.1,32.7,3,10,3,0,2026-04-08T00:39:13.734265+05:30
Dehradun,Uttarakhand,30.6284,78.0322,11.5,79,0.0,827.5,2.7,38.2,53,35.6,15.1,3,5,3,0,2026-04-08T00:39:13.734271+05:30
Shimla,Himachal Pradesh,31.1048,77.1734,10.2,69,0.0,780.6,6.45,38.2,66,23.7,11.0,3,5,7,0,2026-04-08T00:39:13.734277+05:30
Manali,Himachal Pradesh,32.2396,77.1887,10.3,96,0.1,813.7,8.2,23.0,86,14.5,11.4,6,10,7,0,2026-04-08T00:39:13.734285+05:30
Gurgaon,Haryana,28.4595,77.0266,19.8,94,0.0,981.0,7.05,23.8,842,127.1,40.3,3,10,7,1,2026-04-08T00:39:13.734291+05:30
Noida,Uttar Pradesh,28.5355,77.391,19.3,90,0.0,984.7,6.95,25.2,842,127.1,40.3,3,10,7,1,2026-04-08T00:39:13.734297+05:30
Ghaziabad,Uttar Pradesh,28.6692,77.4538,18.5,92,0.0,982.7,6.9,23.0,157,84.5,33.3,3,10,7,1,2026-04-08T00:39:13.734303+05:30
Faridabad,Haryana,28.4089,77.3178,19.2,94,0.1,983.8,7.0,27.0,842,127.1,40.3,6,10,7,1,2026-04-08T00:39:13.734310+05:30
Meerut,Uttar Pradesh,28.9845,77.7064,18.6,94,0.0,981.2,6.2,29.5,157,84.5,33.3,3,10,7,1,2026-04-08T00:39:13.734315+05:30
Agra,Uttar Pradesh,27.1767,78.0081,20.0,91,0.1,987.6,7.35,22.7,401,108.3,34.6,6,5,7,1,2026-04-08T00:39:13.734322+05:30
Varanasi,Uttar Pradesh,25.3176,82.9739,24.2,59,0.0,998.3,6.0,36.7,86,63.3,26.7,0,5,3,0,2026-04-08T00:39:13.734330+05:30
Prayagraj,Uttar Pradesh,25.4358,81.8463,22.6,71,0.0,996.3,7.65,29.5,90,52.7,21.2,3,5,7,1,2026-04-08T00:39:13.734336+05:30
Gorakhpur,Uttar Pradesh,26.7606,83.3732,24.1,62,0.0,998.8,4.85,31.3,73,54.6,24.7,3,5,3,1,2026-04-08T00:39:13.734342+05:30
Bareilly,Uttar Pradesh,28.367,79.4304,20.0,89,0.0,986.4,7.2,28.4,68,42.1,25.5,3,5,7,1,2026-04-08T00:39:13.734350+05:30
Aligarh,Uttar Pradesh,27.8974,78.088,19.0,96,0.0,985.5,7.1,28.1,217,92.4,35.7,3,10,7,1,2026-04-08T00:39:13.734356+05:30
Moradabad,Uttar Pradesh,28.8386,78.7733,19.2,90,0.0,983.6,6.25,31.0,83,69.4,34.0,3,10,7,1,2026-04-08T00:39:13.734361+05:30
Saharanpur,Uttar Pradesh,29.9637,77.546,17.9,90,0.0,976.0,6.45,28.4,77,76.8,28.0,3,10,7,1,2026-04-08T00:39:13.734367+05:30
Jhansi,Uttar Pradesh,25.4484,78.5685,21.4,75,0.0,978.8,7.95,34.2,67,48.1,25.7,3,5,7,1,2026-04-08T00:39:16.950778+05:30
Surat,Gujarat,21.1702,72.8311,27.3,81,0.0,1007.7,7.7,41.4,68,32.4,17.5,7,5,4,1,2026-04-08T00:39:16.950803+05:30
Vadodara,Gujarat,22.3072,73.1812,26.7,88,0.0,1004.2,8.0,36.7,64,34.9,20.7,7,5,4,1,2026-04-08T00:39:16.950815+05:30
Rajkot,Gujarat,22.3039,70.8022,25.3,84,0.0,994.6,7.7,38.9,56,25.1,11.7,7,5,7,1,2026-04-08T00:39:16.950825+05:30
Thane,Maharashtra,19.2183,72.9781,26.9,80,0.0,1010.0,7.95,36.0,72,76.1,21.6,7,0,4,1,2026-04-08T00:39:16.950833+05:30
Nagpur,Maharashtra,21.1458,79.0882,24.4,59,0.0,972.7,8.75,37.1,65,37.4,27.7,0,5,7,0,2026-04-08T00:39:16.950841+05:30
Nashik,Maharashtra,19.9975,73.7898,21.7,89,0.0,947.0,8.2,42.5,59,40.5,14.7,3,5,7,1,2026-04-08T00:39:16.950849+05:30
Aurangabad,Maharashtra,19.8762,75.3433,24.0,67,0.0,945.1,8.9,47.5,60,44.8,17.7,3,5,7,1,2026-04-08T00:39:16.950857+05:30
Solapur,Maharashtra,17.6599,75.9064,27.7,35,0.0,957.7,9.0,30.6,62,37.6,24.6,4,5,7,0,2026-04-08T00:39:16.950866+05:30
Kolhapur,Maharashtra,16.705,74.2433,21.2,87,0.0,949.0,9.0,42.5,59,23.6,15.5,3,5,7,1,2026-04-08T00:39:16.950874+05:30
Goa,Goa,15.2993,74.124,27.2,73,0.0,1000.0,9.0,39.6,55,35.4,17.4,7,5,4,1,2026-04-08T00:39:16.950882+05:30
Jodhpur,Rajasthan,26.2389,73.0243,21.5,86,0.0,981.3,7.9,33.8,128,320.4,66.4,3,5,7,1,2026-04-08T00:39:16.950889+05:30
Udaipur,Rajasthan,24.5854,73.7125,22.0,79,0.0,944.2,8.5,33.8,61,40.6,20.7,3,5,7,1,2026-04-08T00:39:16.950897+05:30
Kota,Rajasthan,25.2138,75.8648,22.0,79,0.0,977.2,7.95,29.9,65,47.7,24.6,3,5,7,1,2026-04-08T00:39:16.950905+05:30
Bikaner,Rajasthan,28.0229,73.3119,21.1,76,0.0,980.7,7.7,27.0,87,40.2,17.1,3,5,7,1,2026-04-08T00:39:16.950912+05:30
Ajmer,Rajasthan,26.4499,74.6399,19.6,84,0.0,951.9,7.85,33.1,66,185.3,43.4,3,10,7,1,2026-04-08T00:39:16.950920+05:30
Gwalior,Madhya Pradesh,26.2183,78.1828,21.4,84,0.0,983.2,7.65,25.2,75,80.6,28.0,3,5,7,1,2026-04-08T00:39:16.950928+05:30
Indore,Madhya Pradesh,22.7196,75.8577,23.9,74,0.0,947.6,8.4,46.8,67,44.1,21.0,3,5,7,1,2026-04-08T00:39:16.950936+05:30
Bhopal,Madhya Pradesh,23.2599,77.4126,24.8,50,0.0,952.7,8.3,50.0,63,43.1,23.1,0,5,7,0,2026-04-08T00:39:16.950944+05:30
Jabalpur,Madhya Pradesh,23.1815,79.9864,26.1,41,0.0,960.2,7.95,42.5,81,36.8,26.4,4,5,7,0,2026-04-08T00:39:16.950951+05:30
Ujjain,Madhya Pradesh,23.1765,75.7885,23.5,74,0.0,953.1,8.3,49.7,65,44.8,20.4,3,5,7,1,2026-04-08T00:39:16.950959+05:30
Visakhapatnam,Andhra Pradesh,17.6868,83.2185,27.5,89,0.0,1004.1,9.1,42.8,75,27.9,23.0,7,5,4,1,2026-04-08T00:39:16.950966+05:30
Vijayawada,Andhra Pradesh,16.5062,80.648,28.2,88,0.0,1002.3,9.15,27.4,103,45.4,42.4,7,5,4,1,2026-04-08T00:39:16.950972+05:30
Guntur,Andhra Pradesh,16.3067,80.4365,28.2,89,0.0,1003.3,9.2,27.4,98,44.9,42.3,7,5,4,1,2026-04-08T00:39:16.950978+05:30
Nellore,Andhra Pradesh,14.4426,79.9865,28.3,89,0.0,1005.3,9.3,38.9,115,31.5,28.4,7,5,4,1,2026-04-08T00:39:16.950984+05:30
Kurnool,Andhra Pradesh,15.8281,78.0373,29.2,34,0.0,976.1,9.15,25.9,94,38.3,30.9,4,5,7,0,2026-04-08T00:39:16.950990+05:30
Kakinada,Andhra Pradesh,16.9891,82.2475,27.7,92,0.0,1007.3,9.15,28.4,63,34.3,27.2,7,5,4,1,2026-04-08T00:39:16.950996+05:30
Tirupati,Andhra Pradesh,13.6288,79.4192,27.9,86,0.0,992.1,9.4,25.6,95,47.4,45.2,7,5,7,1,2026-04-08T00:39:16.951001+05:30
Warangal,Telangana,17.9689,79.5941,29.6,54,0.0,978.3,9.05,25.9,106,58.9,52.4,4,5,7,1,2026-04-08T00:39:16.951007+05:30
Nizamabad,Telangana,18.6725,78.0941,26.8,52,0.0,964.7,9.0,27.4,69,50.6,28.8,4,5,7,1,2026-04-08T00:39:16.951013+05:30
Mysore,Karnataka,12.2958,76.6396,21.9,86,0.0,929.2,9.55,42.5,45,17.9,15.3,3,5,7,1,2026-04-08T00:39:16.951018+05:30
Mangalore,Karnataka,12.9141,74.856,29.0,68,0.0,1008.4,9.15,31.7,58,21.5,13.7,7,0,4,1,2026-04-08T00:39:16.951024+05:30
Hubli-Dharwad,Karnataka,15.3647,75.124,21.4,92,0.0,941.8,9.2,41.4,53,14.1,10.2,3,5,7,1,2026-04-08T00:39:16.951029+05:30
Siliguri,West Bengal,26.7271,88.3953,20.9,55,0.0,995.5,7.9,22.0,79,32.6,28.7,0,5,7,0,2026-04-08T00:40:17.338411+05:30
Durgapur,West Bengal,23.5204,87.3119,23.2,86,0.0,995.9,8.65,24.8,120,35.3,33.6,3,5,7,1,2026-04-08T00:40:17.338443+05:30
Asansol,West Bengal,23.6739,86.9524,23.4,83,0.0,994.3,8.7,33.1,106,40.2,37.6,3,5,7,1,2026-04-08T00:40:17.338456+05:30
Pondicherry,Puducherry,11.9139,79.8145,28.5,91,0.0,1008.6,9.3,24.8,85,30.6,23.2,7,0,4,1,2026-04-08T00:40:17.338464+05:30
Port Blair,Andaman and Nicobar Islands,11.6234,92.7265,28.9,73,0.0,1007.9,8.95,11.9,26,4.0,2.7,7,5,4,1,2026-04-08T00:40:17.338471+05:30
Haridwar,Uttarakhand,29.9457,78.1642,19.3,87,0.0,974.5,4.15,26.6,64,43.2,22.2,3,10,3,1,2026-04-08T00:40:17.338477+05:30
Rishikesh,Uttarakhand,30.0869,78.2676,18.4,76,0.0,967.0,4.4,29.9,65,52.9,22.5,3,5,3,0,2026-04-08T00:40:17.338483+05:30
Nainital,Uttarakhand,29.3919,79.4542,16.4,53,0.0,804.5,4.95,65.2,62,36.2,19.4,0,5,3,0,2026-04-08T00:40:17.338490+05:30
Mussoorie,Uttarakhand,30.4599,78.0664,11.9,72,0.0,799.5,3.5,54.4,55,39.9,17.3,3,5,3,0,2026-04-08T00:40:17.338496+05:30
Dharamshala,Himachal Pradesh,32.219,76.3234,13.3,88,1.1,866.0,3.25,36.4,65,11.1,8.1,6,10,3,0,2026-04-08T00:40:17.338502+05:30
Dalhousie,Himachal Pradesh,32.5387,75.971,10.3,92,1.3,799.5,1.45,38.2,55,32.1,20.9,6,10,3,0,2026-04-08T00:40:17.338511+05:30
Patiala,Punjab,30.3398,76.3869,17.3,89,0.0,979.1,2.7,23.4,235,56.7,25.1,3,10,3,0,2026-04-08T00:40:17.338517+05:30
Bhatinda,Punjab,30.211,74.9455,17.3,95,0.0,983.5,7.4,20.5,109,59.6,22.7,3,10,7,1,2026-04-08T00:40:17.338523+05:30
Rohtak,Haryana,28.8955,76.6066,18.6,93,0.0,981.3,6.95,25.9,372,128.5,43.8,3,10,7,1,2026-04-08T00:40:17.338529+05:30
Panipat,Haryana,29.3909,76.9635,17.8,94,0.0,980.1,5.65,24.1,540,87.1,35.7,3,10,3,1,2026-04-08T00:40:17.338535+05:30
Mathura,Uttar Pradesh,27.4924,77.6737,19.7,92,0.3,987.3,7.3,27.0,484,135.0,40.9,6,10,7,1,2026-04-08T00:40:17.338540+05:30
Vrindavan,Uttar Pradesh,27.5823,77.7027,19.3,93,0.0,987.6,7.25,27.4,484,135.0,40.9,3,10,7,1,2026-04-08T00:40:17.338546+05:30
Ayodhya,Uttar Pradesh,26.7922,82.1998,21.6,74,0.0,996.2,7.25,38.2,90,53.6,22.6,3,5,7,1,2026-04-08T00:40:17.338552+05:30
Ratlam,Madhya Pradesh,23.3315,75.0367,23.5,84,0.0,953.7,8.25,50.4,65,52.2,22.0,3,5,7,1,2026-04-08T00:40:17.338557+05:30
Sagar,Madhya Pradesh,23.8388,78.7378,25.2,43,0.0,948.9,8.3,46.1,55,49.5,21.4,4,5,7,0,2026-04-08T00:40:17.338563+05:30
Satna,Madhya Pradesh,24.6005,80.8322,23.6,56,0.0,970.7,8.35,42.8,63,47.6,20.5,0,5,7,0,2026-04-08T00:40:17.338568+05:30
Akola,Maharashtra,20.7002,77.0082,26.4,53,0.0,975.5,8.7,46.1,63,65.2,26.8,4,5,7,1,2026-04-08T00:40:17.338574+05:30
Amravati,Maharashtra,20.9374,77.7796,25.2,54,0.0,967.3,8.7,43.2,58,60.5,24.8,4,5,7,0,2026-04-08T00:40:17.338580+05:30
Latur,Maharashtra,18.4088,76.5604,24.2,51,0.0,940.1,9.0,34.9,64,60.5,34.8,0,5,7,0,2026-04-08T00:40:17.338585+05:30
Nanded,Maharashtra,19.1383,77.3091,26.6,50,0.0,968.9,8.9,33.5,68,59.4,35.3,4,5,7,0,2026-04-08T00:40:17.338591+05:30
Gulbarga,Karnataka,17.3297,76.8343,28.7,34,0.0,958.5,9.05,29.9,55,27.2,16.9,4,5,7,0,2026-04-08T00:40:17.338597+05:30
Bidar,Karnataka,17.9104,77.5199,26.5,43,0.0,935.5,9.05,28.8,68,48.4,26.4,4,5,7,0,2026-04-08T00:40:17.338602+05:30
Hospet,Karnataka,15.2689,76.3909,26.1,68,0.0,956.9,9.25,29.2,48,11.3,9.5,7,5,7,1,2026-04-08T00:40:17.338608+05:30
Tirupur,Tamil Nadu,11.1085,77.3411,25.6,74,0.0,975.3,9.5,40.3,63,23.7,20.5,7,5,7,1,2026-04-08T00:40:17.338613+05:30
Alappuzha,Kerala,9.4981,76.3388,29.4,71,0.0,1010.2,9.2,32.0,63,27.0,17.1,7,0,4,1,2026-04-08T00:40:17.338619+05:30
Munnar,Kerala,10.0889,77.0595,19.9,99,0.0,857.5,7.15,39.2,61,22.1,19.4,3,10,7,1,2026-04-08T00:40:17.338625+05:30
Silchar,Assam,24.8333,92.7789,22.6,84,0.0,1006.6,8.45,27.7,138,53.7,49.1,3,5,4,1,2026-04-08T00:40:17.338630+05:30
Dibrugarh,Assam,27.4728,94.912,20.4,88,0.0,998.8,8.25,14.0,87,25.6,22.6,3,5,7,1,2026-04-08T00:40:17.338635+05:30
