city,state,latitude,longitude,temp,humidity,rain,pressure,uv_index,wind_gusts,aqi,pm10,pm2_5,no2,co,o3,so2,mosquito_risk,arthritis_risk,migraine_risk,frizz_risk,updated_at
Delhi,Delhi,28.6139,77.209,32.2,40,0.0,977.7,7.8,38.2,174,471.2,125.7,87.5,729.0,7.0,31.0,0,5,7,1,2026-06-07T01:41:21.316179+05:30
Mumbai,Maharashtra,19.076,72.8777,30.9,68,0.0,1006.6,7.55,40.0,73,38.3,16.1,7.4,152.0,45.0,6.8,3,5,4,1,2026-06-07T01:41:21.316220+05:30
Bangalore,Karnataka,12.9716,77.5946,21.3,92,0.0,910.9,7.35,37.4,20,5.0,5.0,15.8,278.0,29.0,4.5,3,5,7,1,2026-06-07T01:41:21.316235+05:30
Hyderabad,Telangana,17.385,78.4867,27.2,68,0.0,951.4,7.5,38.5,94,29.6,23.5,18.2,234.0,66.0,8.2,7,5,7,1,2026-06-07T01:41:21.316246+05:30
Chennai,Tamil Nadu,13.0827,80.2707,32.5,49,0.0,1004.4,7.65,46.4,54,15.1,13.6,19.5,258.0,46.0,10.6,0,5,4,1,2026-06-07T01:41:21.316254+05:30
Kolkata,West Bengal,22.5726,88.3639,27.8,95,0.0,1001.7,8.7,28.4,119,46.6,42.7,18.9,317.0,63.0,9.0,7,5,4,1,2026-06-07T01:41:21.316262+05:30
Pune,Maharashtra,18.5204,73.8567,25.4,85,0.0,946.6,8.35,49.3,51,17.2,9.8,8.5,128.0,41.0,7.3,7,5,7,1,2026-06-07T01:41:21.316270+05:30
Ahmedabad,Gujarat,23.0225,72.5714,32.1,60,0.0,998.5,8.05,40.3,88,34.3,20.4,8.1,145.0,49.0,5.4,0,5,7,1,2026-06-07T01:41:21.316277+05:30
Jaipur,Rajasthan,26.9124,75.7873,30.5,48,0.0,955.5,8.2,34.9,122,254.3,63.6,6.2,244.0,68.0,3.9,0,5,7,1,2026-06-07T01:41:21.316288+05:30
Lucknow,Uttar Pradesh,26.8467,80.9462,29.8,64,0.0,988.8,8.35,35.6,156,68.2,62.6,33.2,435.0,48.0,12.9,7,5,7,1,2026-06-07T01:41:21.316295+05:30
Kanpur,Uttar Pradesh,26.4499,80.3319,31.2,58,0.0,986.9,8.3,34.2,198,166.7,74.0,39.2,439.0,40.0,12.6,0,5,7,1,2026-06-07T01:41:21.316302+05:30
Chandigarh,Chandigarh,30.7333,76.7794,25.6,47,0.0,962.5,7.8,27.0,96,31.9,27.2,28.3,764.0,57.0,8.9,4,5,7,0,2026-06-07T01:41:21.316309+05:30
Srinagar,Jammu and Kashmir,34.0837,74.7973,14.0,96,0.0,838.8,9.0,29.9,67,38.5,36.9,34.0,731.0,12.0,1.8,3,10,7,0,2026-06-07T01:41:21.316316+05:30
Jammu,Jammu and Kashmir,32.7266,74.857,24.9,55,0.0,966.3,8.6,30.2,75,28.5,26.3,33.7,364.0,29.0,3.0,0,5,7,0,2026-06-07T01:41:21.316322+05:30
Amritsar,Punjab,31.634,74.8723,29.9,40,0.0,974.7,8.5,25.9,138,77.8,70.5,58.2,939.0,19.0,8.8,4,5,7,0,2026-06-07T01:41:21.316329+05:30
Ludhiana,Punjab,30.901,75.8573,30.3,40,0.0,972.9,8.05,30.2,150,70.8,58.0,43.8,1063.0,51.0,9.6,0,5,7,0,2026-06-07T01:41:21.316335+05:30
Jalandhar,Punjab,31.326,75.5762,29.9,39,0.0,973.8,8.25,28.4,138,66.8,60.8,50.7,804.0,39.0,9.5,4,5,7,0,2026-06-07T01:41:21.316341+05:30
Dehradun,Uttarakhand,30.6284,78.0322,16.3,71,0.0,826.9,8.25,41.8,58,20.1,16.3,32.3,207.0,22.0,0.9,3,5,7,0,2026-06-07T01:41:21.316348+05:30
Shimla,Himachal Pradesh,31.1048,77.1734,13.9,52,0.0,780.9,8.35,39.2,61,20.6,16.1,25.2,243.0,42.0,1.5,0,5,7,0,2026-06-07T01:41:21.316356+05:30
Manali,Himachal Pradesh,32.2396,77.1887,12.5,58,0.0,814.0,9.3,35.3,42,5.5,4.8,35.5,279.0,100.0,0.0,0,5,7,0,2026-06-07T01:41:21.316362+05:30
Gurgaon,Haryana,28.4595,77.0266,30.1,48,0.0,976.1,7.9,29.9,270,387.4,127.1,93.4,689.0,0.0,31.1,0,5,7,1,2026-06-07T01:41:21.316370+05:30
Noida,Uttar Pradesh,28.5355,77.391,30.5,47,0.0,978.9,7.85,33.8,270,387.4,127.1,93.4,795.0,0.0,31.1,0,5,7,1,2026-06-07T01:41:21.316377+05:30
Ghaziabad,Uttar Pradesh,28.6692,77.4538,30.4,49,0.0,977.1,7.8,29.5,170,402.3,122.0,75.6,1112.0,16.0,26.6,0,5,7,1,2026-06-07T01:41:21.316385+05:30
Faridabad,Haryana,28.4089,77.3178,31.5,42,0.0,978.4,7.85,36.0,270,387.4,127.1,93.4,674.0,0.0,31.1,0,5,7,1,2026-06-07T01:41:21.316391+05:30
Meerut,Uttar Pradesh,28.9845,77.7064,29.4,52,0.0,976.0,7.7,31.7,170,402.3,122.0,75.6,619.0,16.0,26.6,4,5,7,1,2026-06-07T01:41:21.316398+05:30
Agra,Uttar Pradesh,27.1767,78.0081,29.8,45,0.0,982.9,8.15,33.1,358,360.4,110.1,76.9,639.0,4.0,19.7,4,5,7,1,2026-06-07T01:41:21.316404+05:30
Varanasi,Uttar Pradesh,25.3176,82.9739,29.3,66,0.0,992.6,8.8,36.0,157,89.2,73.6,38.0,1122.0,35.0,13.8,7,5,7,1,2026-06-07T01:41:21.316411+05:30
Prayagraj,Uttar Pradesh,25.4358,81.8463,30.7,59,0.0,991.0,8.7,37.4,155,152.3,91.3,49.9,569.0,31.0,19.9,0,5,7,1,2026-06-07T01:41:21.316417+05:30
Gorakhpur,Uttar Pradesh,26.7606,83.3732,28.1,79,0.0,993.0,8.7,24.8,160,71.0,58.9,21.5,573.0,60.0,9.0,7,5,7,1,2026-06-07T01:41:21.316429+05:30
Bareilly,Uttar Pradesh,28.367,79.4304,27.3,71,0.0,982.1,8.1,33.5,148,46.9,41.0,20.3,737.0,59.0,4.1,7,5,7,1,2026-06-07T01:41:21.316436+05:30
Aligarh,Uttar Pradesh,27.8974,78.088,28.4,61,0.0,980.3,7.95,25.9,224,359.5,124.3,81.7,744.0,10.0,19.9,7,5,7,1,2026-06-07T01:41:21.316442+05:30
Moradabad,Uttar Pradesh,28.8386,78.7733,29.2,50,0.0,979.1,7.95,37.8,163,162.1,99.4,66.5,882.0,21.0,18.6,4,5,7,1,2026-06-07T01:41:21.316449+05:30
Saharanpur,Uttar Pradesh,29.9637,77.546,26.6,64,0.0,970.1,7.5,28.8,140,120.6,68.2,45.9,465.0,44.0,14.2,7,5,7,1,2026-06-07T01:41:21.316456+05:30
Jhansi,Uttar Pradesh,25.4484,78.5685,29.4,50,0.0,973.5,8.5,40.7,78,51.6,29.4,13.9,197.0,37.0,3.7,4,5,7,1,2026-06-07T01:41:25.093001+05:30
Surat,Gujarat,21.1702,72.8311,30.0,82,0.0,1004.2,7.15,45.7,87,38.8,18.6,13.6,230.0,37.0,23.7,7,5,4,1,2026-06-07T01:41:25.093034+05:30
Vadodara,Gujarat,22.3072,73.1812,30.6,77,0.0,1001.1,7.75,45.4,88,31.9,18.6,15.3,176.0,32.0,18.0,3,5,4,1,2026-06-07T01:41:25.093045+05:30
Rajkot,Gujarat,22.3039,70.8022,29.1,75,0.0,991.0,6.75,47.2,78,35.2,16.3,4.7,112.0,45.0,4.6,7,5,7,1,2026-06-07T01:41:25.093054+05:30
Thane,Maharashtra,19.2183,72.9781,30.5,70,0.0,1006.0,7.6,37.8,73,38.3,16.1,7.4,161.0,45.0,6.8,3,5,4,1,2026-06-07T01:41:25.093063+05:30
Nagpur,Maharashtra,21.1458,79.0882,32.6,42,0.0,969.7,8.9,47.2,70,46.7,28.6,14.8,233.0,61.0,7.8,0,5,7,1,2026-06-07T01:41:25.093070+05:30
Nashik,Maharashtra,19.9975,73.7898,25.1,87,0.0,944.0,8.05,40.3,62,24.3,12.9,7.2,122.0,42.0,4.9,7,5,7,1,2026-06-07T01:41:25.093078+05:30
Aurangabad,Maharashtra,19.8762,75.3433,28.5,62,0.0,942.5,8.95,44.3,65,30.9,18.0,6.5,126.0,53.0,5.9,7,5,7,1,2026-06-07T01:41:25.093086+05:30
Solapur,Maharashtra,17.6599,75.9064,28.5,66,0.0,955.5,8.8,38.9,60,11.5,8.9,8.7,164.0,45.0,2.4,7,5,7,1,2026-06-07T01:41:25.093094+05:30
Kolhapur,Maharashtra,16.705,74.2433,24.1,89,0.0,946.9,3.85,45.4,37,7.5,5.9,4.1,117.0,45.0,1.1,3,5,3,1,2026-06-07T01:41:25.093102+05:30
Goa,Goa,15.2993,74.124,26.1,96,0.0,996.9,1.45,26.3,35,18.7,12.6,5.7,220.0,45.0,1.2,7,5,3,1,2026-06-07T01:41:25.093111+05:30
Jodhpur,Rajasthan,26.2389,73.0243,33.3,49,0.0,978.1,8.4,39.6,129,94.1,32.4,7.1,180.0,55.0,2.0,0,5,7,1,2026-06-07T01:41:25.093118+05:30
Udaipur,Rajasthan,24.5854,73.7125,29.5,52,0.0,943.6,8.8,34.6,93,56.8,31.5,6.8,175.0,70.0,8.4,4,5,7,1,2026-06-07T01:41:25.093126+05:30
Kota,Rajasthan,25.2138,75.8648,31.3,51,0.0,974.4,8.4,33.1,96,60.8,35.6,14.3,289.0,56.0,5.3,0,5,7,1,2026-06-07T01:41:25.093134+05:30
Bikaner,Rajasthan,28.0229,73.3119,32.9,36,0.0,976.1,8.45,36.7,108,102.2,35.7,2.3,130.0,79.0,3.1,0,5,7,0,2026-06-07T01:41:25.093142+05:30
Ajmer,Rajasthan,26.4499,74.6399,29.6,53,0.0,950.5,8.35,43.2,104,93.6,33.8,5.5,173.0,62.0,2.1,4,5,7,1,2026-06-07T01:41:25.093149+05:30
Gwalior,Madhya Pradesh,26.2183,78.1828,30.3,42,0.0,978.6,8.3,34.2,122,135.5,48.1,24.2,238.0,37.0,7.0,0,5,7,0,2026-06-07T01:41:25.093157+05:30
Indore,Madhya Pradesh,22.7196,75.8577,28.6,61,0.0,945.7,8.65,35.6,91,65.7,45.2,14.2,322.0,57.0,7.7,7,5,7,1,2026-06-07T01:41:25.093164+05:30
Bhopal,Madhya Pradesh,23.2599,77.4126,28.0,62,0.0,950.7,8.7,30.6,89,47.3,29.8,9.1,335.0,62.0,4.8,7,5,7,1,2026-06-07T01:41:25.093172+05:30
Jabalpur,Madhya Pradesh,23.1815,79.9864,29.0,56,0.0,958.0,8.15,34.6,104,136.0,60.1,38.0,305.0,40.0,8.2,4,5,7,1,2026-06-07T01:41:25.093179+05:30
Ujjain,Madhya Pradesh,23.1765,75.7885,28.5,62,0.0,951.0,8.6,35.6,88,53.3,33.1,4.2,314.0,81.0,6.4,7,5,7,1,2026-06-07T01:41:25.093187+05:30
Visakhapatnam,Andhra Pradesh,17.6868,83.2185,30.3,81,0.0,999.4,8.1,42.1,108,30.2,23.8,14.9,293.0,88.0,25.8,3,5,7,1,2026-06-07T01:41:25.093195+05:30
Vijayawada,Andhra Pradesh,16.5062,80.648,31.8,65,0.0,998.6,8.3,36.0,85,24.0,19.6,6.0,210.0,96.0,4.5,3,5,7,1,2026-06-07T01:41:25.093203+05:30
Guntur,Andhra Pradesh,16.3067,80.4365,31.5,63,0.0,1000.0,8.15,32.4,84,28.8,23.5,7.8,197.0,84.0,2.8,3,5,4,1,2026-06-07T01:41:25.093210+05:30
Nellore,Andhra Pradesh,14.4426,79.9865,30.1,62,0.0,1003.2,7.55,39.2,54,15.3,12.7,5.9,155.0,80.0,2.9,3,5,4,1,2026-06-07T01:41:25.093219+05:30
Kurnool,Andhra Pradesh,15.8281,78.0373,24.6,93,0.3,975.7,8.45,38.9,66,19.6,15.3,9.4,183.0,72.0,2.8,6,5,7,1,2026-06-07T01:41:25.093228+05:30
Kakinada,Andhra Pradesh,16.9891,82.2475,30.1,79,0.0,1003.5,8.15,38.9,76,26.7,19.0,1.8,189.0,115.0,3.2,3,5,4,1,2026-06-07T01:41:25.093236+05:30
Tirupati,Andhra Pradesh,13.6288,79.4192,29.1,59,0.0,988.8,8.75,35.3,36,8.5,8.3,15.6,180.0,34.0,1.7,4,5,7,1,2026-06-07T01:41:25.093244+05:30
Warangal,Telangana,17.9689,79.5941,30.7,48,0.0,975.0,8.75,36.0,101,53.2,41.7,22.1,367.0,46.0,5.3,0,5,7,1,2026-06-07T01:41:25.093251+05:30
Nizamabad,Telangana,18.6725,78.0941,30.2,53,0.0,961.7,8.65,38.5,86,49.5,34.1,16.9,274.0,58.0,4.2,0,5,7,1,2026-06-07T01:41:25.093259+05:30
Mysore,Karnataka,12.2958,76.6396,21.1,98,0.1,927.9,6.9,36.0,19,3.1,3.0,8.0,171.0,39.0,1.5,6,5,7,1,2026-06-07T01:41:25.093267+05:30
Mangalore,Karnataka,12.9141,74.856,24.1,99,0.1,1006.8,2.0,27.7,23,6.5,5.5,8.3,179.0,43.0,1.8,6,5,0,1,2026-06-07T01:41:25.093275+05:30
Hubli-Dharwad,Karnataka,15.3647,75.124,22.9,98,0.0,939.5,1.85,43.2,25,3.0,2.0,3.4,127.0,46.0,0.9,3,5,3,1,2026-06-07T01:41:25.093283+05:30
Belgaum,Karnataka,15.8497,74.4977,22.2,99,0.0,924.3,6.65,37.8,25,3.2,2.5,3.2,106.0,47.0,1.3,3,5,7,1,2026-06-07T01:41:28.905375+05:30
Coimbatore,Tamil Nadu,11.0168,76.9558,23.6,89,0.0,961.4,5.55,58.7,17,1.5,1.4,4.4,154.0,38.0,1.8,3,5,3,1,2026-06-07T01:41:28.905410+05:30
Madurai,Tamil Nadu,9.9252,78.1198,29.3,60,0.0,992.6,8.7,65.9,25,6.1,5.0,7.4,129.0,36.0,2.7,4,5,7,1,2026-06-07T01:41:28.905424+05:30
Trichy,Tamil Nadu,10.7905,78.7047,29.2,60,0.0,998.9,7.95,43.2,28,4.0,3.2,6.1,123.0,33.0,2.3,4,5,7,1,2026-06-07T01:41:28.905434+05:30
Salem,Tamil Nadu,11.6643,78.146,25.8,79,0.0,977.0,8.75,47.5,33,8.2,7.5,15.6,198.0,28.0,5.8,7,5,7,1,2026-06-07T01:41:28.905444+05:30
Tirunelveli,Tamil Nadu,8.7139,77.7567,27.8,74,0.0,1003.9,7.85,49.0,19,4.6,3.2,5.0,159.0,35.0,1.1,7,5,4,1,2026-06-07T01:41:28.905453+05:30
Vellore,Tamil Nadu,12.9165,79.1325,28.8,57,0.0,982.7,8.9,40.3,26,6.7,6.3,12.8,208.0,40.0,4.0,4,5,7,1,2026-06-07T01:41:28.905462+05:30
Erode,Tamil Nadu,11.341,77.7172,25.7,80,0.0,988.8,8.65,52.9,23,4.9,4.5,9.7,137.0,32.0,2.8,7,5,7,1,2026-06-07T01:41:28.905472+05:30
Kochi,Kerala,9.9312,76.2673,26.0,91,0.2,1009.8,6.65,46.1,36,11.5,7.9,9.8,90.0,30.0,2.5,10,0,4,1,2026-06-07T01:41:28.905481+05:30
Thiruvananthapuram,Kerala,8.5241,76.9366,25.5,94,0.1,1009.9,7.95,48.2,25,12.2,5.7,1.8,84.0,44.0,0.5,10,0,4,1,2026-06-07T01:41:28.905490+05:30
Kozhikode,Kerala,11.2588,75.7804,24.9,98,0.4,1008.5,4.55,24.8,26,6.2,3.1,0.9,123.0,58.0,0.3,6,0,0,1,2026-06-07T01:41:28.905499+05:30
Thrissur,Kerala,10.5276,76.2144,24.7,97,0.2,1008.0,6.05,40.7,36,10.1,7.7,9.0,223.0,31.0,2.3,6,0,4,1,2026-06-07T01:41:28.905509+05:30
Kannur,Kerala,11.8745,75.3704,24.9,98,0.6,1007.6,3.0,26.6,20,2.1,1.5,5.4,184.0,47.0,1.0,6,5,0,1,2026-06-07T01:41:28.905517+05:30
Patna,Bihar,25.5941,85.1376,25.5,95,0.2,996.7,8.7,27.4,159,74.7,67.8,15.3,476.0,99.0,9.1,10,5,7,1,2026-06-07T01:41:28.905526+05:30
Gaya,Bihar,24.7914,85.0002,28.6,73,0.0,989.8,8.85,25.9,154,62.2,54.7,9.8,451.0,106.0,5.5,7,5,7,1,2026-06-07T01:41:28.905534+05:30
Muzaffarpur,Bihar,26.1209,85.3647,25.8,89,0.0,997.0,8.6,36.4,158,86.1,80.3,20.5,492.0,80.0,11.7,7,5,7,1,2026-06-07T01:41:28.905543+05:30
Bhagalpur,Bihar,25.2425,87.0117,28.4,80,0.0,997.5,8.85,34.6,154,66.4,60.3,10.2,335.0,126.0,13.5,7,5,7,1,2026-06-07T01:41:28.905551+05:30
Ranchi,Jharkhand,23.3441,85.3096,24.8,86,0.0,934.3,8.9,35.3,143,74.3,62.2,20.5,347.0,62.0,7.8,3,5,7,1,2026-06-07T01:41:28.905559+05:30
Jamshedpur,Jharkhand,22.8046,86.2029,28.0,92,0.0,986.7,9.05,31.7,159,109.9,96.6,39.4,729.0,62.0,52.0,7,5,7,1,2026-06-07T01:41:28.905567+05:30
Dhanbad,Jharkhand,23.7957,86.4304,28.1,90,0.0,976.2,7.85,52.6,174,110.8,100.8,46.1,311.0,67.0,82.8,7,5,7,1,2026-06-07T01:41:28.905576+05:30
Bokaro,Jharkhand,23.6693,86.1511,28.6,87,0.0,980.0,8.6,37.8,165,104.3,92.4,45.4,295.0,68.0,76.6,7,5,7,1,2026-06-07T01:41:28.905584+05:30
Bhubaneswar,Odisha,20.2961,85.8245,27.7,97,0.0,997.5,8.9,28.1,136,40.6,35.3,9.4,533.0,102.0,6.7,7,5,7,1,2026-06-07T01:41:28.905592+05:30
Cuttack,Odisha,20.4625,85.8828,28.1,94,0.0,999.4,9.15,33.5,136,40.6,35.3,9.4,586.0,102.0,6.7,7,5,7,1,2026-06-07T01:41:28.905601+05:30
Rourkela,Odisha,22.2604,84.8536,28.1,83,0.1,981.2,9.05,28.1,154,94.1,74.3,17.5,410.0,97.0,20.6,10,5,7,1,2026-06-07T01:41:28.905610+05:30
Raipur,Chhattisgarh,21.2514,81.6296,32.0,45,0.0,970.3,8.45,34.6,115,72.4,56.6,62.5,357.0,9.0,55.2,0,5,7,1,2026-06-07T01:41:28.905619+05:30
Bhilai,Chhattisgarh,21.1938,81.3509,31.1,48,0.0,970.9,8.55,33.5,101,74.7,51.3,48.9,441.0,18.0,44.6,0,5,7,1,2026-06-07T01:41:28.905627+05:30
Guwahati,Assam,26.1158,91.7086,25.7,94,0.0,997.8,8.8,31.0,85,35.4,33.4,13.5,420.0,42.0,2.6,7,5,7,1,2026-06-07T01:41:28.905636+05:30
Agartala,Tripura,23.8315,91.2868,26.6,99,0.0,1002.3,5.15,27.4,145,30.3,27.5,11.5,220.0,73.0,2.5,7,5,0,1,2026-06-07T01:41:28.905643+05:30
Shillong,Meghalaya,25.5788,91.8933,18.0,98,0.0,854.0,8.5,24.5,74,29.6,27.4,5.8,242.0,97.0,3.3,3,10,7,1,2026-06-07T01:41:28.905650+05:30
Imphal,Manipur,24.817,93.9368,22.6,92,0.0,919.5,9.05,31.0,112,41.0,39.2,18.3,645.0,22.0,2.1,3,5,7,1,2026-06-07T01:41:28.905656+05:30
Aizawl,Mizoram,23.7271,92.7176,20.0,93,0.0,889.2,9.05,29.9,105,29.5,26.1,4.9,211.0,61.0,2.9,3,5,7,1,2026-06-07T01:41:28.905663+05:30
Kohima,Nagaland,25.6701,94.1077,17.9,98,0.0,852.1,9.1,33.5,69,24.3,21.9,8.8,295.0,36.0,0.8,3,10,7,1,2026-06-07T01:41:28.905669+05:30
Gangtok,Sikkim,27.3314,88.6138,16.5,94,0.2,835.6,9.1,38.9,73,22.5,19.3,9.0,491.0,109.0,3.2,6,10,7,0,2026-06-07T01:41:28.905675+05:30
Siliguri,West Bengal,26.7271,88.3953,24.7,94,0.0,990.0,8.7,20.9,96,43.9,37.4,11.2,686.0,111.0,4.4,3,5,7,1,2026-06-07T01:41:32.734245+05:30
Durgapur,West Bengal,23.5204,87.3119,27.5,92,0.0,991.1,8.95,24.5,165,87.5,82.4,33.3,891.0,64.0,36.5,7,5,7,1,2026-06-07T01:41:32.734276+05:30
Asansol,West Bengal,23.6739,86.9524,27.7,90,0.0,989.7,8.85,29.2,166,92.4,85.2,31.3,828.0,69.0,39.1,7,5,7,1,2026-06-07T01:41:32.734287+05:30
Pondicherry,Puducherry,11.9139,79.8145,30.1,58,0.0,1006.5,8.5,53.3,58,16.5,13.7,19.2,203.0,33.0,7.1,0,5,4,1,2026-06-07T01:41:32.734296+05:30
Port Blair,Andaman and Nicobar Islands,11.6234,92.7265,27.1,93,0.0,1006.2,5.75,40.7,27,10.2,6.1,0.2,90.0,60.0,0.4,7,5,0,1,2026-06-07T01:41:32.734304+05:30
Haridwar,Uttarakhand,29.9457,78.1642,26.8,62,0.0,969.0,7.65,23.0,116,68.0,58.1,40.9,388.0,40.0,11.0,7,5,7,1,2026-06-07T01:41:32.734312+05:30
Rishikesh,Uttarakhand,30.0869,78.2676,23.1,82,0.0,961.6,7.75,27.4,89,41.0,32.2,20.2,329.0,85.0,6.3,3,5,7,1,2026-06-07T01:41:32.734319+05:30
Nainital,Uttarakhand,29.3919,79.4542,15.4,78,0.0,803.2,8.6,43.9,93,54.1,39.6,31.6,315.0,40.0,3.0,3,5,7,0,2026-06-07T01:41:32.734327+05:30
Mussoorie,Uttarakhand,30.4599,78.0664,14.9,75,0.0,799.6,8.15,47.9,91,46.1,37.0,40.0,266.0,47.0,8.3,3,5,7,0,2026-06-07T01:41:32.734335+05:30
Dharamshala,Himachal Pradesh,32.219,76.3234,22.0,44,0.0,865.8,8.5,40.3,41,10.1,8.9,16.6,215.0,28.0,0.1,0,5,7,0,2026-06-07T01:41:32.734342+05:30
Dalhousie,Himachal Pradesh,32.5387,75.971,12.1,72,0.0,798.7,8.75,38.2,67,30.2,27.1,46.2,348.0,18.0,1.9,3,5,7,0,2026-06-07T01:41:32.734350+05:30
Patiala,Punjab,30.3398,76.3869,29.8,37,0.0,972.5,7.7,28.1,156,74.3,55.6,29.8,953.0,47.0,8.6,4,5,7,0,2026-06-07T01:41:32.734357+05:30
Bhatinda,Punjab,30.211,74.9455,31.7,40,0.0,977.8,8.35,24.1,153,92.4,59.4,38.1,420.0,53.0,11.5,0,5,7,1,2026-06-07T01:41:32.734365+05:30
Rohtak,Haryana,28.8955,76.6066,29.1,51,0.0,976.2,7.8,28.4,191,445.2,125.3,89.6,459.0,2.0,20.9,4,5,7,1,2026-06-07T01:41:32.734371+05:30
Panipat,Haryana,29.3909,76.9635,29.3,54,0.0,974.7,7.65,32.8,347,486.2,117.8,50.6,429.0,31.0,9.2,4,5,7,1,2026-06-07T01:41:32.734378+05:30
Mathura,Uttar Pradesh,27.4924,77.6737,27.2,66,0.0,981.6,8.1,25.6,202,331.6,95.5,67.7,515.0,7.0,9.0,7,5,7,1,2026-06-07T01:41:32.734385+05:30
Vrindavan,Uttar Pradesh,27.5823,77.7027,27.6,62,0.0,982.1,8.05,29.5,202,331.6,95.5,67.7,479.0,7.0,9.0,7,5,7,1,2026-06-07T01:41:32.734392+05:30
Ayodhya,Uttar Pradesh,26.7922,82.1998,28.1,82,0.0,990.9,8.4,25.2,154,109.0,66.8,29.1,666.0,49.0,9.1,7,5,7,1,2026-06-07T01:41:32.734399+05:30
Ratlam,Madhya Pradesh,23.3315,75.0367,28.3,65,0.0,952.3,8.5,40.3,87,52.3,33.1,5.2,186.0,75.0,9.7,7,5,7,1,2026-06-07T01:41:32.734406+05:30
Sagar,Madhya Pradesh,23.8388,78.7378,28.2,55,0.0,946.7,8.75,35.6,67,47.1,27.7,15.8,197.0,54.0,4.3,4,5,7,1,2026-06-07T01:41:32.734412+05:30
Satna,Madhya Pradesh,24.6005,80.8322,29.6,57,0.0,966.9,8.8,36.7,145,198.8,69.8,37.8,368.0,41.0,6.0,4,5,7,1,2026-06-07T01:41:32.734419+05:30
Akola,Maharashtra,20.7002,77.0082,27.6,69,0.1,972.6,8.8,40.3,83,60.5,37.1,23.7,352.0,49.0,6.9,10,5,7,1,2026-06-07T01:41:32.734428+05:30
Amravati,Maharashtra,20.9374,77.7796,28.1,65,0.0,964.1,8.85,40.7,84,65.2,39.5,28.3,201.0,40.0,6.0,7,5,7,1,2026-06-07T01:41:32.734436+05:30
Latur,Maharashtra,18.4088,76.5604,28.0,61,0.0,937.5,8.95,44.3,71,21.3,15.1,6.5,193.0,71.0,5.2,7,5,7,1,2026-06-07T01:41:32.734444+05:30
Nanded,Maharashtra,19.1383,77.3091,30.2,55,0.0,965.0,8.9,42.8,81,48.1,31.0,22.8,370.0,47.0,4.6,0,5,7,1,2026-06-07T01:41:32.734451+05:30
Gulbarga,Karnataka,17.3297,76.8343,27.1,74,0.0,957.1,8.65,35.6,62,11.4,9.0,9.1,189.0,54.0,2.5,7,5,7,1,2026-06-07T01:41:32.734458+05:30
Bidar,Karnataka,17.9104,77.5199,27.3,67,0.0,933.7,7.65,34.6,86,31.5,23.6,20.7,187.0,49.0,3.1,7,5,7,1,2026-06-07T01:41:32.734465+05:30
Hospet,Karnataka,15.2689,76.3909,24.0,94,0.1,955.1,7.6,53.6,29,4.3,3.7,5.0,162.0,47.0,1.2,6,5,7,1,2026-06-07T01:41:32.734473+05:30
Tirupur,Tamil Nadu,11.1085,77.3411,25.1,81,0.0,974.9,7.15,61.9,25,5.5,5.2,11.0,125.0,30.0,3.4,7,5,7,1,2026-06-07T01:41:32.734480+05:30
Alappuzha,Kerala,9.4981,76.3388,26.0,92,0.0,1010.2,6.7,47.9,33,13.6,7.1,3.8,80.0,43.0,0.9,7,0,4,1,2026-06-07T01:41:32.734487+05:30
Munnar,Kerala,10.0889,77.0595,17.1,100,0.4,856.7,1.0,47.2,18,2.0,1.9,6.6,90.0,28.0,1.6,6,10,3,1,2026-06-07T01:41:32.734494+05:30
Silchar,Assam,24.8333,92.7789,25.3,99,0.0,1001.7,8.95,24.1,146,52.0,46.1,10.1,473.0,96.0,4.4,7,5,4,1,2026-06-07T01:41:32.734501+05:30
Dibrugarh,Assam,27.4728,94.912,26.4,93,0.1,991.3,8.5,22.7,109,20.4,19.0,13.7,318.0,47.0,1.1,10,5,7,1,2026-06-07T01:41:32.734508+05:30
