city,state,latitude,longitude,temp,humidity,rain,pressure,uv_index,wind_gusts,aqi,pm10,pm2_5,no2,co,o3,so2,mosquito_risk,arthritis_risk,migraine_risk,frizz_risk,updated_at
Delhi,Delhi,28.6139,77.209,30.9,68,0.0,976.5,7.7,30.2,492,390.2,125.3,41.4,342.0,20.0,15.3,3,5,7,1,2026-07-18T03:30:54.194111+05:30
Mumbai,Maharashtra,19.076,72.8777,25.3,96,0.0,1006.1,7.25,37.1,66,28.2,12.5,5.7,123.0,47.0,5.3,7,5,4,1,2026-07-18T03:30:54.194160+05:30
Bangalore,Karnataka,12.9716,77.5946,20.4,92,0.0,910.3,5.05,47.5,38,7.8,5.1,6.7,147.0,38.0,3.4,3,5,3,1,2026-07-18T03:30:54.194175+05:30
Hyderabad,Telangana,17.385,78.4867,23.9,90,0.0,950.5,2.7,43.6,60,14.8,9.9,9.0,170.0,39.0,4.7,3,5,3,1,2026-07-18T03:30:54.194185+05:30
Chennai,Tamil Nadu,13.0827,80.2707,25.8,92,0.1,1005.3,5.15,40.0,73,17.5,14.2,24.5,218.0,24.0,11.5,10,5,0,1,2026-07-18T03:30:54.194194+05:30
Kolkata,West Bengal,22.5726,88.3639,26.3,96,0.0,1000.0,8.2,37.1,69,14.5,12.9,10.3,237.0,69.0,6.9,7,5,4,1,2026-07-18T03:30:54.194203+05:30
Pune,Maharashtra,18.5204,73.8567,23.0,89,0.0,945.8,7.7,45.7,39,3.8,3.0,7.7,118.0,35.0,7.0,3,5,7,1,2026-07-18T03:30:54.194210+05:30
Ahmedabad,Gujarat,23.0225,72.5714,28.7,77,0.0,998.1,5.5,34.6,69,23.6,13.7,7.6,126.0,36.0,5.0,7,5,3,1,2026-07-18T03:30:54.194217+05:30
Jaipur,Rajasthan,26.9124,75.7873,30.2,56,0.0,954.7,7.25,36.0,277,516.0,88.7,11.4,172.0,45.0,4.8,0,5,7,1,2026-07-18T03:30:54.194224+05:30
Lucknow,Uttar Pradesh,26.8467,80.9462,27.7,90,0.0,987.0,8.2,26.3,164,141.6,71.2,19.0,398.0,61.0,9.3,7,5,7,1,2026-07-18T03:30:54.194235+05:30
Kanpur,Uttar Pradesh,26.4499,80.3319,28.9,88,0.0,985.1,8.15,25.6,165,142.5,73.6,28.6,347.0,34.0,7.5,7,5,7,1,2026-07-18T03:30:54.194243+05:30
Chandigarh,Chandigarh,30.7333,76.7794,28.5,75,0.0,962.1,5.8,27.7,152,71.9,62.6,31.0,750.0,53.0,13.6,7,5,3,1,2026-07-18T03:30:54.194250+05:30
Srinagar,Jammu and Kashmir,34.0837,74.7973,21.9,81,0.0,837.6,9.05,25.9,100,56.1,51.9,39.7,600.0,14.0,2.8,3,5,7,1,2026-07-18T03:30:54.194256+05:30
Jammu,Jammu and Kashmir,32.7266,74.857,28.6,82,0.0,966.2,8.6,25.2,153,70.8,51.8,29.4,413.0,33.0,4.5,7,5,7,1,2026-07-18T03:30:54.194263+05:30
Amritsar,Punjab,31.634,74.8723,28.4,91,0.0,973.7,8.25,20.5,170,217.0,114.1,69.8,559.0,1.0,11.6,7,5,7,1,2026-07-18T03:30:54.194271+05:30
Ludhiana,Punjab,30.901,75.8573,29.1,85,0.0,971.8,5.8,22.0,179,204.0,141.6,80.0,1267.0,0.0,12.5,7,5,3,1,2026-07-18T03:30:54.194277+05:30
Jalandhar,Punjab,31.326,75.5762,28.8,86,0.0,972.8,8.2,18.7,175,166.2,107.8,60.6,1308.0,1.0,6.6,7,5,7,1,2026-07-18T03:30:54.194283+05:30
Dehradun,Uttarakhand,30.6284,78.0322,19.5,99,0.0,827.4,6.75,25.2,101,40.2,34.2,8.3,342.0,127.0,7.7,3,10,7,1,2026-07-18T03:30:54.194289+05:30
Shimla,Himachal Pradesh,31.1048,77.1734,17.0,90,0.0,782.3,5.65,36.0,104,37.5,27.1,8.1,245.0,89.0,2.9,3,10,3,0,2026-07-18T03:30:54.194298+05:30
Manali,Himachal Pradesh,32.2396,77.1887,20.9,87,0.0,817.0,6.45,29.5,51,15.2,12.6,16.5,238.0,38.0,0.0,3,5,7,1,2026-07-18T03:30:54.194306+05:30
Gurgaon,Haryana,28.4595,77.0266,30.6,67,0.0,975.0,6.9,33.8,526,339.9,102.2,21.0,313.0,40.0,8.2,3,5,7,1,2026-07-18T03:30:54.194313+05:30
Noida,Uttar Pradesh,28.5355,77.391,30.4,74,0.0,977.8,7.7,25.6,526,339.9,102.2,21.0,368.0,40.0,8.2,3,5,7,1,2026-07-18T03:30:54.194319+05:30
Ghaziabad,Uttar Pradesh,28.6692,77.4538,29.8,79,0.0,976.0,7.7,26.3,436,480.6,162.1,61.8,888.0,3.0,21.5,7,5,7,1,2026-07-18T03:30:54.194325+05:30
Faridabad,Haryana,28.4089,77.3178,31.1,66,0.0,977.2,6.5,29.9,526,339.9,102.2,21.0,301.0,40.0,8.2,3,5,7,1,2026-07-18T03:30:54.194331+05:30
Meerut,Uttar Pradesh,28.9845,77.7064,29.3,82,0.0,974.7,7.35,24.5,436,480.6,162.1,61.8,868.0,3.0,21.5,7,5,7,1,2026-07-18T03:30:54.194337+05:30
Agra,Uttar Pradesh,27.1767,78.0081,31.1,67,0.0,981.1,6.9,31.0,156,37.7,27.0,14.1,195.0,53.0,5.2,3,5,7,1,2026-07-18T03:30:54.194344+05:30
Varanasi,Uttar Pradesh,25.3176,82.9739,26.5,96,0.0,992.1,6.55,22.0,125,69.6,46.1,15.2,373.0,74.0,9.5,7,5,7,1,2026-07-18T03:30:54.194350+05:30
Prayagraj,Uttar Pradesh,25.4358,81.8463,27.9,95,0.0,989.7,5.8,27.7,154,93.4,52.6,15.9,258.0,72.0,8.2,7,5,3,1,2026-07-18T03:30:54.194357+05:30
Gorakhpur,Uttar Pradesh,26.7606,83.3732,26.5,97,0.2,991.4,4.55,25.9,81,21.0,20.8,20.4,373.0,49.0,5.1,10,5,3,1,2026-07-18T03:30:54.194364+05:30
Bareilly,Uttar Pradesh,28.367,79.4304,27.2,97,0.0,980.8,8.0,29.5,159,55.2,44.5,18.1,446.0,67.0,6.6,7,5,7,1,2026-07-18T03:30:54.194372+05:30
Aligarh,Uttar Pradesh,27.8974,78.088,29.3,81,0.0,978.7,6.9,27.7,385,326.0,105.5,21.2,328.0,37.0,5.4,7,5,7,1,2026-07-18T03:30:54.194379+05:30
Moradabad,Uttar Pradesh,28.8386,78.7733,27.0,96,0.0,977.7,7.85,24.1,173,103.1,64.0,18.6,449.0,75.0,10.5,7,5,7,1,2026-07-18T03:30:54.194385+05:30
Saharanpur,Uttar Pradesh,29.9637,77.546,27.9,96,0.0,969.3,7.35,32.4,173,235.2,112.9,35.7,645.0,35.0,12.2,7,5,7,1,2026-07-18T03:30:54.194391+05:30
Jhansi,Uttar Pradesh,25.4484,78.5685,26.3,94,0.1,973.1,7.3,37.4,94,36.6,23.6,10.0,186.0,62.0,10.0,10,5,7,1,2026-07-18T03:30:57.457948+05:30
Surat,Gujarat,21.1702,72.8311,26.1,90,0.0,1003.5,7.35,44.6,71,24.9,17.4,23.4,335.0,22.0,34.7,7,5,4,1,2026-07-18T03:30:57.457985+05:30
Vadodara,Gujarat,22.3072,73.1812,28.2,79,0.0,1000.5,6.35,40.0,68,20.4,13.5,12.1,146.0,30.0,8.1,7,5,4,1,2026-07-18T03:30:57.457997+05:30
Rajkot,Gujarat,22.3039,70.8022,26.4,87,0.0,990.5,7.1,48.6,60,14.3,8.2,5.3,99.0,38.0,4.8,7,5,7,1,2026-07-18T03:30:57.458035+05:30
Thane,Maharashtra,19.2183,72.9781,24.5,99,0.3,1005.7,7.2,37.1,66,28.2,12.5,5.7,146.0,47.0,5.3,6,5,4,1,2026-07-18T03:30:57.458046+05:30
Nagpur,Maharashtra,21.1458,79.0882,25.1,93,0.1,969.4,1.75,31.7,82,20.5,15.1,11.6,202.0,45.0,9.0,10,5,3,1,2026-07-18T03:30:57.458056+05:30
Nashik,Maharashtra,19.9975,73.7898,22.6,95,0.0,942.6,6.4,42.1,38,4.6,3.3,11.2,127.0,29.0,10.8,3,5,7,1,2026-07-18T03:30:57.458065+05:30
Aurangabad,Maharashtra,19.8762,75.3433,23.1,93,0.0,941.6,8.35,38.9,51,5.3,4.2,9.2,161.0,35.0,11.8,3,5,7,1,2026-07-18T03:30:57.458074+05:30
Solapur,Maharashtra,17.6599,75.9064,24.1,87,0.0,955.4,3.15,37.4,51,6.7,5.2,5.9,140.0,36.0,2.5,3,5,3,1,2026-07-18T03:30:57.458082+05:30
Kolhapur,Maharashtra,16.705,74.2433,22.5,92,0.0,946.6,8.1,48.2,31,4.6,3.0,3.0,109.0,44.0,1.9,3,5,7,1,2026-07-18T03:30:57.458092+05:30
Goa,Goa,15.2993,74.124,24.0,97,0.1,997.6,7.35,36.0,60,27.5,13.7,3.2,264.0,45.0,1.2,6,5,7,1,2026-07-18T03:30:57.458102+05:30
Jodhpur,Rajasthan,26.2389,73.0243,30.3,57,0.0,977.7,8.45,43.9,127,176.0,42.4,5.4,127.0,50.0,2.4,0,5,7,1,2026-07-18T03:30:57.458111+05:30
Udaipur,Rajasthan,24.5854,73.7125,25.5,76,0.0,942.2,8.3,34.9,71,28.5,17.5,8.9,151.0,47.0,6.8,7,5,7,1,2026-07-18T03:30:57.458120+05:30
Kota,Rajasthan,25.2138,75.8648,30.5,58,0.0,973.7,7.9,32.4,82,33.9,21.2,7.8,172.0,69.0,7.8,0,5,7,1,2026-07-18T03:30:57.458129+05:30
Bikaner,Rajasthan,28.0229,73.3119,31.9,51,0.0,975.7,8.3,40.3,130,182.1,58.0,2.9,112.0,54.0,4.1,0,5,7,1,2026-07-18T03:30:57.458138+05:30
Ajmer,Rajasthan,26.4499,74.6399,27.9,65,0.0,950.1,8.25,43.2,76,23.6,15.3,8.1,139.0,52.0,4.1,7,5,7,1,2026-07-18T03:30:57.458146+05:30
Gwalior,Madhya Pradesh,26.2183,78.1828,28.3,79,0.0,977.2,6.7,31.3,107,34.0,21.0,8.9,140.0,61.0,3.7,7,5,7,1,2026-07-18T03:30:57.458155+05:30
Indore,Madhya Pradesh,22.7196,75.8577,25.0,86,0.0,944.4,5.35,37.4,70,15.6,12.1,8.5,181.0,55.0,10.5,7,5,3,1,2026-07-18T03:30:57.458163+05:30
Bhopal,Madhya Pradesh,23.2599,77.4126,25.9,84,0.0,949.3,1.85,32.8,79,28.7,21.4,9.1,251.0,58.0,5.9,7,5,3,1,2026-07-18T03:30:57.458172+05:30
Jabalpur,Madhya Pradesh,23.1815,79.9864,24.1,96,0.3,957.3,8.8,32.8,82,28.3,20.2,6.7,212.0,65.0,4.6,6,5,7,1,2026-07-18T03:30:57.458180+05:30
Ujjain,Madhya Pradesh,23.1765,75.7885,25.4,85,0.0,950.0,8.2,37.8,71,19.4,13.5,8.4,231.0,51.0,10.8,7,5,7,1,2026-07-18T03:30:57.458189+05:30
Visakhapatnam,Andhra Pradesh,17.6868,83.2185,27.3,83,0.0,998.7,8.05,39.2,85,28.8,23.5,21.2,297.0,47.0,32.7,7,5,7,1,2026-07-18T03:30:57.458198+05:30
Vijayawada,Andhra Pradesh,16.5062,80.648,26.1,95,0.1,999.6,2.4,42.8,82,21.2,13.7,9.0,202.0,46.0,3.5,10,5,3,1,2026-07-18T03:30:57.458206+05:30
Guntur,Andhra Pradesh,16.3067,80.4365,26.1,88,0.0,1000.7,1.3,46.4,78,20.1,12.7,9.2,185.0,44.0,4.7,7,5,0,1,2026-07-18T03:30:57.458215+05:30
Nellore,Andhra Pradesh,14.4426,79.9865,26.6,83,0.1,1003.6,0.65,47.2,51,16.2,9.6,8.4,133.0,43.0,5.0,10,5,0,1,2026-07-18T03:30:57.458224+05:30
Kurnool,Andhra Pradesh,15.8281,78.0373,26.1,76,0.0,975.2,5.65,46.4,54,9.2,6.5,9.2,154.0,36.0,2.0,7,5,3,1,2026-07-18T03:30:57.458234+05:30
Kakinada,Andhra Pradesh,16.9891,82.2475,28.2,78,0.0,1003.6,5.45,42.1,83,19.9,13.3,6.7,264.0,72.0,5.0,7,5,0,1,2026-07-18T03:30:57.458243+05:30
Tirupati,Andhra Pradesh,13.6288,79.4192,26.0,83,0.0,989.1,1.4,39.2,63,15.7,12.8,24.1,164.0,11.0,2.7,7,5,3,1,2026-07-18T03:30:57.458251+05:30
Warangal,Telangana,17.9689,79.5941,25.1,91,0.1,975.2,8.5,39.6,81,26.3,16.9,10.5,190.0,41.0,4.3,10,5,7,1,2026-07-18T03:30:57.458260+05:30
Nizamabad,Telangana,18.6725,78.0941,24.2,93,0.0,962.0,0.9,44.6,74,17.6,12.3,9.3,165.0,47.0,7.7,3,5,3,1,2026-07-18T03:30:57.458268+05:30
Mysore,Karnataka,12.2958,76.6396,21.6,88,0.0,927.9,4.25,53.6,27,10.1,6.1,4.7,109.0,40.0,1.9,3,5,3,1,2026-07-18T03:30:57.458276+05:30
Mangalore,Karnataka,12.9141,74.856,23.8,98,0.0,1007.2,3.55,32.8,57,21.8,12.6,6.7,168.0,36.0,2.8,3,5,0,1,2026-07-18T03:30:57.458285+05:30
Hubli-Dharwad,Karnataka,15.3647,75.124,22.0,93,0.0,939.7,8.1,50.0,20,3.1,1.9,2.0,104.0,45.0,1.2,3,5,7,1,2026-07-18T03:30:57.458293+05:30
Belgaum,Karnataka,15.8497,74.4977,21.2,95,0.0,924.4,8.5,48.6,21,3.8,2.5,3.2,107.0,42.0,1.8,3,5,7,1,2026-07-18T03:31:00.702503+05:30
Coimbatore,Tamil Nadu,11.0168,76.9558,22.3,94,0.0,961.2,6.6,49.7,42,11.6,7.4,6.5,175.0,33.0,3.0,3,5,7,1,2026-07-18T03:31:00.702544+05:30
Madurai,Tamil Nadu,9.9252,78.1198,28.3,59,0.0,992.3,7.85,34.9,69,23.5,16.0,17.5,147.0,31.0,6.2,4,5,7,1,2026-07-18T03:31:00.702556+05:30
Trichy,Tamil Nadu,10.7905,78.7047,28.2,64,0.0,998.9,7.35,41.8,53,12.3,7.8,6.8,108.0,35.0,3.2,7,5,7,1,2026-07-18T03:31:00.702565+05:30
Salem,Tamil Nadu,11.6643,78.146,24.6,86,0.0,976.8,6.55,34.2,68,21.5,16.8,21.9,324.0,22.0,7.7,3,5,7,1,2026-07-18T03:31:00.702574+05:30
Tirunelveli,Tamil Nadu,8.7139,77.7567,28.0,65,0.0,1003.5,8.7,46.8,43,8.6,6.4,6.9,142.0,36.0,2.6,7,5,4,1,2026-07-18T03:31:00.702583+05:30
Vellore,Tamil Nadu,12.9165,79.1325,25.3,91,0.1,983.0,3.35,42.1,49,9.1,6.9,10.9,144.0,36.0,4.1,10,5,3,1,2026-07-18T03:31:00.702592+05:30
Erode,Tamil Nadu,11.341,77.7172,25.0,79,0.0,988.7,5.9,44.3,54,14.5,11.2,13.4,163.0,32.0,4.3,7,5,3,1,2026-07-18T03:31:00.702601+05:30
Kochi,Kerala,9.9312,76.2673,23.9,95,0.1,1010.4,8.05,42.8,55,14.3,11.0,13.8,167.0,17.0,4.7,6,0,4,1,2026-07-18T03:31:00.702611+05:30
Thiruvananthapuram,Kerala,8.5241,76.9366,23.8,99,0.0,1009.2,8.35,42.5,57,14.6,7.9,3.8,128.0,48.0,2.1,3,0,4,1,2026-07-18T03:31:00.702619+05:30
Kozhikode,Kerala,11.2588,75.7804,23.9,97,0.0,1009.1,8.55,34.9,51,19.7,9.6,2.6,320.0,53.0,1.7,3,0,4,1,2026-07-18T03:31:00.702627+05:30
Thrissur,Kerala,10.5276,76.2144,23.4,99,0.0,1008.5,7.85,38.5,54,12.0,9.5,12.2,184.0,17.0,3.6,3,0,4,1,2026-07-18T03:31:00.702636+05:30
Kannur,Kerala,11.8745,75.3704,23.9,97,0.0,1008.1,5.1,32.0,52,16.6,9.9,12.3,211.0,24.0,2.7,3,0,0,1,2026-07-18T03:31:00.702644+05:30
Patna,Bihar,25.5941,85.1376,27.2,94,0.2,994.5,7.4,27.0,94,27.8,27.1,14.5,277.0,63.0,8.2,10,5,7,1,2026-07-18T03:31:00.702653+05:30
Gaya,Bihar,24.7914,85.0002,26.1,98,0.1,988.0,8.2,24.1,91,26.6,26.2,11.7,428.0,81.0,6.5,10,5,7,1,2026-07-18T03:31:00.702661+05:30
Muzaffarpur,Bihar,26.1209,85.3647,27.2,94,0.0,994.3,8.15,29.2,90,29.0,28.3,14.1,263.0,66.0,7.1,7,5,7,1,2026-07-18T03:31:00.702670+05:30
Bhagalpur,Bihar,25.2425,87.0117,26.8,96,0.1,995.1,7.4,27.4,71,27.9,27.9,16.0,355.0,56.0,14.8,10,5,7,1,2026-07-18T03:31:00.702678+05:30
Ranchi,Jharkhand,23.3441,85.3096,23.0,98,0.0,931.2,9.2,24.8,69,14.1,13.4,6.5,280.0,85.0,3.9,3,5,7,1,2026-07-18T03:31:00.702686+05:30
Jamshedpur,Jharkhand,22.8046,86.2029,25.6,99,0.0,984.0,8.4,25.9,97,36.8,36.1,28.0,316.0,42.0,23.7,7,5,7,1,2026-07-18T03:31:00.702695+05:30
Dhanbad,Jharkhand,23.7957,86.4304,25.4,99,0.0,972.8,7.7,27.0,130,89.2,88.2,66.4,271.0,16.0,168.4,7,5,7,1,2026-07-18T03:31:00.702704+05:30
Bokaro,Jharkhand,23.6693,86.1511,25.7,97,0.1,976.7,7.7,29.9,103,54.6,53.7,34.6,549.0,52.0,124.4,10,5,7,1,2026-07-18T03:31:00.702712+05:30
Bhubaneswar,Odisha,20.2961,85.8245,25.3,99,0.2,997.2,8.35,31.7,68,20.9,17.7,8.1,280.0,77.0,5.6,10,5,7,1,2026-07-18T03:31:00.702721+05:30
Cuttack,Odisha,20.4625,85.8828,25.5,98,0.1,998.9,8.05,33.5,68,20.9,17.7,8.1,250.0,77.0,5.6,10,5,7,1,2026-07-18T03:31:00.702729+05:30
Rourkela,Odisha,22.2604,84.8536,25.5,98,0.0,978.7,7.6,25.6,69,23.1,20.7,12.2,276.0,53.0,6.5,7,5,7,1,2026-07-18T03:31:00.702737+05:30
Raipur,Chhattisgarh,21.2514,81.6296,23.5,96,0.3,969.8,6.75,36.0,90,28.6,24.1,27.5,215.0,41.0,33.9,6,5,7,1,2026-07-18T03:31:00.702746+05:30
Bhilai,Chhattisgarh,21.1938,81.3509,23.3,96,0.1,970.3,8.2,39.2,84,26.3,23.2,23.1,496.0,39.0,28.6,6,5,7,1,2026-07-18T03:31:00.702754+05:30
Guwahati,Assam,26.1158,91.7086,25.0,99,0.0,997.0,6.8,20.9,54,10.8,10.1,7.8,263.0,51.0,2.1,7,5,7,1,2026-07-18T03:31:00.702763+05:30
Agartala,Tripura,23.8315,91.2868,25.5,92,0.1,1003.1,8.0,45.7,52,10.9,8.6,6.0,139.0,66.0,2.0,10,5,4,1,2026-07-18T03:31:00.702770+05:30
Shillong,Meghalaya,25.5788,91.8933,19.7,96,0.1,853.6,3.35,38.2,24,0.8,0.8,4.7,141.0,43.0,1.9,6,10,3,1,2026-07-18T03:31:00.702779+05:30
Imphal,Manipur,24.817,93.9368,22.4,98,0.0,920.3,7.35,34.2,61,14.9,9.6,3.4,313.0,57.0,1.7,3,5,7,1,2026-07-18T03:31:00.702787+05:30
Aizawl,Mizoram,23.7271,92.7176,20.3,86,0.0,890.2,7.75,42.8,53,5.1,3.5,1.3,117.0,57.0,1.0,3,5,7,1,2026-07-18T03:31:00.702795+05:30
Kohima,Nagaland,25.6701,94.1077,20.5,91,0.0,852.6,5.1,28.1,51,5.2,4.2,4.1,190.0,45.0,1.0,3,5,3,1,2026-07-18T03:31:00.702803+05:30
Gangtok,Sikkim,27.3314,88.6138,18.6,100,0.0,834.5,7.8,23.0,45,3.7,3.1,3.5,257.0,96.0,1.9,3,10,7,1,2026-07-18T03:31:00.702812+05:30
Siliguri,West Bengal,26.7271,88.3953,25.4,97,0.3,988.6,3.55,38.5,66,21.1,17.4,7.3,240.0,88.0,3.4,10,5,3,1,2026-07-18T03:31:03.957419+05:30
Durgapur,West Bengal,23.5204,87.3119,26.4,97,0.0,988.5,8.65,31.3,92,44.1,43.8,38.6,822.0,32.0,46.6,7,5,7,1,2026-07-18T03:31:03.957456+05:30
Asansol,West Bengal,23.6739,86.9524,26.2,98,0.0,986.8,7.8,29.5,93,50.6,50.4,49.7,350.0,26.0,69.4,7,5,7,1,2026-07-18T03:31:03.957470+05:30
Pondicherry,Puducherry,11.9139,79.8145,27.1,83,0.0,1007.0,5.45,41.8,70,22.4,16.6,15.7,244.0,38.0,11.2,7,5,0,1,2026-07-18T03:31:03.957481+05:30
Port Blair,Andaman and Nicobar Islands,11.6234,92.7265,26.7,85,0.0,1007.7,8.7,40.3,40,18.9,8.6,0.1,88.0,46.0,0.4,7,5,4,1,2026-07-18T03:31:03.957491+05:30
Haridwar,Uttarakhand,29.9457,78.1642,27.3,93,0.0,967.9,7.4,29.2,164,77.8,69.6,13.7,383.0,93.0,11.9,7,5,7,1,2026-07-18T03:31:03.957501+05:30
Rishikesh,Uttarakhand,30.0869,78.2676,26.6,94,0.2,960.9,7.0,29.2,147,64.0,45.8,3.9,288.0,151.0,9.8,10,5,7,1,2026-07-18T03:31:03.957511+05:30
Nainital,Uttarakhand,29.3919,79.4542,17.8,98,0.0,802.6,7.9,23.8,131,29.0,18.3,7.9,285.0,117.0,4.1,3,10,7,1,2026-07-18T03:31:03.957521+05:30
Mussoorie,Uttarakhand,30.4599,78.0664,18.0,100,0.0,800.3,7.4,27.7,144,71.5,52.9,5.6,345.0,153.0,12.7,3,10,7,1,2026-07-18T03:31:03.957530+05:30
Dharamshala,Himachal Pradesh,32.219,76.3234,22.3,96,0.0,865.5,8.45,24.1,66,9.6,7.5,7.8,370.0,61.0,0.8,3,5,7,1,2026-07-18T03:31:03.957539+05:30
Dalhousie,Himachal Pradesh,32.5387,75.971,18.7,100,0.1,802.6,8.65,23.4,108,47.3,29.7,7.1,289.0,119.0,3.0,6,10,7,1,2026-07-18T03:31:03.957550+05:30
Patiala,Punjab,30.3398,76.3869,28.7,86,0.0,971.5,7.6,22.7,192,217.5,127.1,68.9,909.0,12.0,13.2,7,5,7,1,2026-07-18T03:31:03.957559+05:30
Bhatinda,Punjab,30.211,74.9455,31.9,57,0.0,976.7,7.65,31.3,176,163.4,95.0,58.9,457.0,12.0,8.4,0,5,7,1,2026-07-18T03:31:03.957569+05:30
Rohtak,Haryana,28.8955,76.6066,30.4,64,0.0,975.1,7.65,31.3,636,489.9,118.0,30.3,269.0,27.0,4.5,3,5,7,1,2026-07-18T03:31:03.957580+05:30
Panipat,Haryana,29.3909,76.9635,29.2,75,0.0,973.5,6.9,28.1,1068,504.8,156.9,54.1,683.0,3.0,7.0,7,5,7,1,2026-07-18T03:31:03.957590+05:30
Mathura,Uttar Pradesh,27.4924,77.6737,30.0,70,0.0,980.1,7.65,27.0,671,659.4,113.4,19.8,234.0,41.0,5.1,7,5,7,1,2026-07-18T03:31:03.957601+05:30
Vrindavan,Uttar Pradesh,27.5823,77.7027,29.9,72,0.0,980.5,7.5,26.3,671,659.4,113.4,19.8,253.0,41.0,5.1,7,5,7,1,2026-07-18T03:31:03.957611+05:30
Ayodhya,Uttar Pradesh,26.7922,82.1998,27.7,96,0.0,989.1,6.3,20.9,112,49.1,38.8,14.3,651.0,75.0,5.6,7,5,7,1,2026-07-18T03:31:03.957623+05:30
Ratlam,Madhya Pradesh,23.3315,75.0367,24.9,90,0.0,951.0,8.05,33.8,69,18.9,12.4,9.2,211.0,45.0,12.1,3,5,7,1,2026-07-18T03:31:03.957633+05:30
Sagar,Madhya Pradesh,23.8388,78.7378,24.3,96,0.2,945.6,7.1,34.9,86,31.3,21.9,7.2,241.0,63.0,4.8,6,5,7,1,2026-07-18T03:31:03.957644+05:30
Satna,Madhya Pradesh,24.6005,80.8322,26.3,91,0.0,965.4,7.95,35.3,103,53.8,32.0,9.3,198.0,62.0,5.8,7,5,7,1,2026-07-18T03:31:03.957653+05:30
Akola,Maharashtra,20.7002,77.0082,25.9,93,0.2,971.9,2.6,39.6,62,13.5,8.9,8.9,145.0,32.0,7.0,10,5,3,1,2026-07-18T03:31:03.957661+05:30
Amravati,Maharashtra,20.9374,77.7796,25.1,90,0.0,963.9,0.95,40.0,65,12.9,8.7,10.0,150.0,31.0,7.7,7,5,3,1,2026-07-18T03:31:03.957670+05:30
Latur,Maharashtra,18.4088,76.5604,23.6,87,0.0,937.3,2.3,36.0,54,9.3,6.5,6.1,154.0,37.0,3.3,3,5,3,1,2026-07-18T03:31:03.957678+05:30
Nanded,Maharashtra,19.1383,77.3091,24.5,94,0.1,965.8,1.3,33.8,65,15.4,11.2,7.4,182.0,48.0,5.0,6,5,3,1,2026-07-18T03:31:03.957686+05:30
Gulbarga,Karnataka,17.3297,76.8343,24.0,90,0.0,956.7,3.7,42.5,52,5.7,4.4,5.9,139.0,38.0,2.9,3,5,3,1,2026-07-18T03:31:03.957693+05:30
Bidar,Karnataka,17.9104,77.5199,23.4,90,0.0,932.9,2.9,40.3,66,17.0,11.3,7.3,150.0,42.0,3.0,3,5,3,1,2026-07-18T03:31:03.957701+05:30
Hospet,Karnataka,15.2689,76.3909,23.7,85,0.0,955.1,5.75,54.4,29,5.0,3.0,2.9,109.0,43.0,1.5,3,5,3,1,2026-07-18T03:31:03.957709+05:30
Tirupur,Tamil Nadu,11.1085,77.3411,23.2,89,0.0,974.8,4.35,51.1,57,17.8,13.7,16.5,148.0,26.0,5.3,3,5,3,1,2026-07-18T03:31:03.957717+05:30
Alappuzha,Kerala,9.4981,76.3388,24.4,93,0.1,1010.4,7.6,42.5,57,12.7,8.0,7.9,99.0,38.0,3.9,6,0,4,1,2026-07-18T03:31:03.957724+05:30
Munnar,Kerala,10.0889,77.0595,15.8,100,0.0,856.1,8.2,40.7,27,5.0,3.4,4.6,90.0,29.0,1.2,3,10,7,0,2026-07-18T03:31:03.957733+05:30
Silchar,Assam,24.8333,92.7789,26.2,94,0.0,1002.3,8.05,30.6,68,17.3,11.6,5.0,251.0,64.0,3.0,7,5,4,1,2026-07-18T03:31:03.957740+05:30
Dibrugarh,Assam,27.4728,94.912,25.5,98,0.0,991.0,0.95,33.5,54,14.4,12.1,6.6,176.0,59.0,2.1,7,5,3,1,2026-07-18T03:31:03.957748+05:30
