city,state,latitude,longitude,temp,humidity,rain,pressure,uv_index,wind_gusts,aqi,pm10,pm2_5,no2,co,o3,so2,mosquito_risk,arthritis_risk,migraine_risk,frizz_risk,updated_at
Delhi,Delhi,28.6139,77.209,39.6,17,0.0,977.8,7.7,41.4,278,436.8,77.1,4.9,294.0,151.0,10.3,0,5,10,0,2026-05-16T15:48:34.569449+05:30
Mumbai,Maharashtra,19.076,72.8777,32.2,65,0.0,1002.9,7.85,49.0,60,36.0,16.0,5.5,186.0,83.0,4.4,3,5,4,1,2026-05-16T15:48:34.569494+05:30
Bangalore,Karnataka,12.9716,77.5946,33.0,27,0.0,907.1,8.8,37.1,143,85.0,47.7,5.9,314.0,172.0,7.7,0,5,7,0,2026-05-16T15:48:34.569509+05:30
Hyderabad,Telangana,17.385,78.4867,35.7,33,0.0,947.9,9.3,29.5,150,81.5,47.6,3.6,364.0,155.0,6.5,0,5,10,1,2026-05-16T15:48:34.569522+05:30
Chennai,Tamil Nadu,13.0827,80.2707,30.5,71,0.0,1000.9,8.85,28.1,40,14.3,10.5,7.4,172.0,89.0,13.0,3,5,4,1,2026-05-16T15:48:34.569532+05:30
Kolkata,West Bengal,22.5726,88.3639,33.2,65,0.0,999.4,9.0,37.4,61,34.9,20.4,2.8,246.0,90.0,5.4,3,5,7,1,2026-05-16T15:48:34.569541+05:30
Pune,Maharashtra,18.5204,73.8567,37.9,26,0.0,943.6,8.5,38.2,67,31.9,19.8,2.0,190.0,146.0,5.9,0,5,10,0,2026-05-16T15:48:34.569548+05:30
Ahmedabad,Gujarat,23.0225,72.5714,40.7,18,0.0,995.9,8.15,31.0,54,55.2,16.1,1.2,155.0,107.0,2.4,0,5,10,0,2026-05-16T15:48:34.569555+05:30
Jaipur,Rajasthan,26.9124,75.7873,40.0,15,0.0,955.5,8.25,24.5,158,190.9,39.2,0.6,189.0,142.0,4.6,0,5,10,0,2026-05-16T15:48:34.569566+05:30
Lucknow,Uttar Pradesh,26.8467,80.9462,39.3,23,0.0,987.0,8.2,32.0,155,232.4,60.5,2.6,264.0,163.0,12.4,0,5,10,0,2026-05-16T15:48:34.569574+05:30
Kanpur,Uttar Pradesh,26.4499,80.3319,40.4,20,0.0,985.4,8.2,32.8,153,380.0,68.5,1.9,236.0,162.0,11.1,0,5,10,0,2026-05-16T15:48:34.569580+05:30
Chandigarh,Chandigarh,30.7333,76.7794,35.5,27,0.0,964.5,7.7,38.5,112,46.9,20.7,1.9,254.0,155.0,7.4,0,5,10,0,2026-05-16T15:48:34.569587+05:30
Srinagar,Jammu and Kashmir,34.0837,74.7973,21.0,52,0.0,841.8,8.9,37.4,101,19.6,10.9,1.5,280.0,138.0,1.7,0,5,7,0,2026-05-16T15:48:34.569597+05:30
Jammu,Jammu and Kashmir,32.7266,74.857,34.9,25,0.0,968.8,8.45,25.9,96,34.0,13.7,0.4,208.0,144.0,2.0,0,5,7,0,2026-05-16T15:48:34.569604+05:30
Amritsar,Punjab,31.634,74.8723,37.0,23,0.0,976.3,8.35,23.4,126,47.0,18.7,1.2,226.0,173.0,6.8,0,5,10,0,2026-05-16T15:48:34.569610+05:30
Ludhiana,Punjab,30.901,75.8573,36.8,24,0.0,974.5,7.95,38.2,113,62.9,22.5,1.1,268.0,150.0,2.9,0,5,10,0,2026-05-16T15:48:34.569616+05:30
Jalandhar,Punjab,31.326,75.5762,36.6,23,0.0,975.4,8.15,30.2,131,57.5,22.4,1.5,283.0,162.0,4.5,0,5,10,0,2026-05-16T15:48:34.569623+05:30
Dehradun,Uttarakhand,30.6284,78.0322,22.5,51,0.1,830.2,8.1,41.4,77,39.6,16.3,0.1,197.0,144.0,3.4,3,5,7,0,2026-05-16T15:48:34.569630+05:30
Shimla,Himachal Pradesh,31.1048,77.1734,20.8,35,0.0,785.4,8.2,45.7,85,54.2,18.5,0.6,163.0,136.0,3.4,0,5,7,0,2026-05-16T15:48:34.569638+05:30
Manali,Himachal Pradesh,32.2396,77.1887,19.0,54,0.0,817.9,9.9,38.9,99,19.5,9.9,0.0,138.0,162.0,0.4,0,5,7,0,2026-05-16T15:48:34.569645+05:30
Gurgaon,Haryana,28.4595,77.0266,39.1,18,0.0,976.6,7.8,37.1,528,1076.6,140.2,4.3,299.0,159.0,9.6,0,5,10,0,2026-05-16T15:48:34.569651+05:30
Noida,Uttar Pradesh,28.5355,77.391,38.7,21,0.0,979.0,7.7,29.2,528,1076.6,140.2,4.3,326.0,159.0,9.6,0,5,10,0,2026-05-16T15:48:34.569657+05:30
Ghaziabad,Uttar Pradesh,28.6692,77.4538,37.9,22,0.0,977.5,7.7,34.9,166,323.2,68.2,3.2,255.0,169.0,13.5,0,5,10,0,2026-05-16T15:48:34.569663+05:30
Faridabad,Haryana,28.4089,77.3178,39.3,17,0.0,978.4,7.75,41.0,528,1076.6,140.2,4.3,256.0,159.0,9.6,0,5,10,0,2026-05-16T15:48:34.569669+05:30
Meerut,Uttar Pradesh,28.9845,77.7064,37.9,21,0.0,976.5,7.6,39.6,166,323.2,68.2,3.2,241.0,169.0,13.5,0,5,10,0,2026-05-16T15:48:34.569678+05:30
Agra,Uttar Pradesh,27.1767,78.0081,40.2,18,0.0,982.2,8.05,29.5,351,508.5,73.3,3.6,245.0,145.0,7.2,0,5,10,0,2026-05-16T15:48:34.569685+05:30
Varanasi,Uttar Pradesh,25.3176,82.9739,40.2,20,0.0,990.5,8.7,36.0,157,153.2,42.8,1.9,262.0,148.0,7.2,0,5,10,0,2026-05-16T15:48:34.569692+05:30
Prayagraj,Uttar Pradesh,25.4358,81.8463,40.2,22,0.0,989.3,8.6,33.8,156,180.7,49.0,1.7,234.0,162.0,10.7,0,5,10,0,2026-05-16T15:48:34.569698+05:30
Gorakhpur,Uttar Pradesh,26.7606,83.3732,36.7,37,0.0,990.1,8.55,30.2,157,91.5,41.6,2.0,318.0,169.0,8.2,0,5,10,1,2026-05-16T15:48:34.569706+05:30
Bareilly,Uttar Pradesh,28.367,79.4304,35.8,34,0.0,981.1,8.0,31.0,151,48.3,31.3,2.0,264.0,167.0,9.4,0,5,10,1,2026-05-16T15:48:34.569713+05:30
Aligarh,Uttar Pradesh,27.8974,78.088,38.4,22,0.0,980.2,7.85,33.5,204,584.9,91.0,2.5,288.0,190.0,16.1,0,5,10,0,2026-05-16T15:48:34.569719+05:30
Moradabad,Uttar Pradesh,28.8386,78.7733,36.8,31,0.0,978.3,7.85,37.8,157,54.9,33.6,2.7,267.0,167.0,9.3,0,5,10,1,2026-05-16T15:48:34.569725+05:30
Saharanpur,Uttar Pradesh,29.9637,77.546,35.5,27,0.0,970.9,7.4,36.7,131,115.3,39.9,4.0,222.0,169.0,12.9,0,5,10,0,2026-05-16T15:48:34.569731+05:30
Jhansi,Uttar Pradesh,25.4484,78.5685,40.2,19,0.0,972.6,8.5,25.6,89,64.0,21.0,1.2,185.0,129.0,5.5,0,5,10,0,2026-05-16T15:48:37.944863+05:30
Surat,Gujarat,21.1702,72.8311,39.5,18,0.0,1000.7,7.75,36.7,74,73.6,42.5,21.3,177.0,113.0,61.4,0,5,7,0,2026-05-16T15:48:37.944894+05:30
Vadodara,Gujarat,22.3072,73.1812,41.0,20,0.0,997.8,8.1,36.0,59,55.5,22.6,1.3,174.0,141.0,7.2,0,5,10,0,2026-05-16T15:48:37.944905+05:30
Rajkot,Gujarat,22.3039,70.8022,39.7,18,0.0,989.2,7.75,42.1,52,59.4,16.8,0.8,126.0,105.0,3.8,0,5,10,0,2026-05-16T15:48:37.944914+05:30
Thane,Maharashtra,19.2183,72.9781,35.0,54,0.0,1001.8,7.9,42.8,60,36.0,16.0,5.5,159.0,83.0,4.4,0,5,4,1,2026-05-16T15:48:37.944922+05:30
Nagpur,Maharashtra,21.1458,79.0882,43.0,16,0.0,966.8,8.95,37.4,117,71.0,36.8,4.9,197.0,179.0,19.2,0,5,10,0,2026-05-16T15:48:37.944929+05:30
Nashik,Maharashtra,19.9975,73.7898,37.3,27,0.0,941.4,8.2,36.7,46,31.0,17.1,1.1,150.0,120.0,3.8,0,5,10,0,2026-05-16T15:48:37.944937+05:30
Aurangabad,Maharashtra,19.8762,75.3433,39.0,20,0.0,940.1,9.1,37.8,53,28.3,15.9,1.0,165.0,123.0,3.0,0,5,10,0,2026-05-16T15:48:37.944945+05:30
Solapur,Maharashtra,17.6599,75.9064,40.5,17,0.0,951.4,8.65,29.2,86,25.0,17.3,0.6,157.0,156.0,6.3,0,5,10,0,2026-05-16T15:48:37.944953+05:30
Kolhapur,Maharashtra,16.705,74.2433,33.6,35,0.1,942.7,8.75,46.1,65,36.1,21.9,2.5,186.0,147.0,5.3,3,5,7,0,2026-05-16T15:48:37.944961+05:30
Goa,Goa,15.2993,74.124,33.0,59,0.0,992.3,8.9,36.0,65,24.5,15.3,0.9,113.0,68.0,0.9,0,5,7,1,2026-05-16T15:48:37.944969+05:30
Jodhpur,Rajasthan,26.2389,73.0243,40.5,19,0.0,977.7,8.4,33.8,114,147.1,29.7,0.3,135.0,112.0,2.3,0,5,10,0,2026-05-16T15:48:37.944977+05:30
Udaipur,Rajasthan,24.5854,73.7125,37.5,21,0.0,942.7,8.85,33.1,50,45.8,15.4,0.4,128.0,102.0,2.6,0,5,10,0,2026-05-16T15:48:37.944984+05:30
Kota,Rajasthan,25.2138,75.8648,41.8,15,0.0,972.5,8.45,36.4,62,80.6,21.1,0.3,135.0,126.0,4.6,0,5,10,0,2026-05-16T15:48:37.944991+05:30
Bikaner,Rajasthan,28.0229,73.3119,41.2,14,0.0,976.8,8.4,27.4,97,217.9,41.8,0.1,150.0,107.0,2.2,0,5,10,0,2026-05-16T15:48:37.944998+05:30
Ajmer,Rajasthan,26.4499,74.6399,38.6,18,0.0,950.7,8.4,24.8,73,119.2,30.2,0.1,145.0,119.0,2.4,0,5,10,0,2026-05-16T15:48:37.945005+05:30
Gwalior,Madhya Pradesh,26.2183,78.1828,40.3,17,0.0,977.7,8.25,34.6,111,115.9,29.0,1.1,173.0,126.0,3.5,0,5,10,0,2026-05-16T15:48:37.945013+05:30
Indore,Madhya Pradesh,22.7196,75.8577,39.0,17,0.0,944.1,8.7,36.0,48,27.9,13.8,1.0,171.0,125.0,2.7,0,5,10,0,2026-05-16T15:48:37.945020+05:30
Bhopal,Madhya Pradesh,23.2599,77.4126,40.8,14,0.0,948.7,8.7,40.7,65,38.9,15.4,0.5,176.0,130.0,4.0,0,5,10,0,2026-05-16T15:48:37.945027+05:30
Jabalpur,Madhya Pradesh,23.1815,79.9864,40.8,18,0.0,956.0,8.85,33.5,105,49.5,20.6,0.7,166.0,138.0,5.0,0,5,10,0,2026-05-16T15:48:37.945034+05:30
Ujjain,Madhya Pradesh,23.1765,75.7885,39.8,14,0.0,949.3,8.65,39.2,47,27.5,12.9,0.6,141.0,118.0,2.3,0,5,10,0,2026-05-16T15:48:37.945042+05:30
Visakhapatnam,Andhra Pradesh,17.6868,83.2185,32.9,65,0.0,998.7,9.15,40.7,62,19.7,14.3,8.7,254.0,81.0,26.8,3,5,7,1,2026-05-16T15:48:37.945049+05:30
Vijayawada,Andhra Pradesh,16.5062,80.648,36.0,46,0.0,996.2,8.85,36.0,64,30.6,20.4,3.2,183.0,106.0,5.9,0,5,10,1,2026-05-16T15:48:37.945056+05:30
Guntur,Andhra Pradesh,16.3067,80.4365,37.4,45,0.0,997.4,8.9,34.9,68,50.2,29.9,2.5,284.0,109.0,3.7,0,5,10,1,2026-05-16T15:48:37.945064+05:30
Nellore,Andhra Pradesh,14.4426,79.9865,34.5,54,0.0,999.6,7.65,36.4,43,18.9,11.2,1.7,130.0,102.0,2.6,0,5,7,1,2026-05-16T15:48:37.945072+05:30
Kurnool,Andhra Pradesh,15.8281,78.0373,37.3,35,0.1,971.4,8.25,31.3,122,75.4,41.2,1.5,216.0,135.0,5.8,3,5,10,1,2026-05-16T15:48:37.945079+05:30
Kakinada,Andhra Pradesh,16.9891,82.2475,34.2,59,0.0,1001.7,9.15,37.4,37,13.1,8.3,1.0,158.0,78.0,1.1,0,5,4,1,2026-05-16T15:48:37.945087+05:30
Tirupati,Andhra Pradesh,13.6288,79.4192,36.0,37,0.0,984.5,9.25,32.8,52,21.9,13.6,2.7,153.0,137.0,8.8,0,5,10,1,2026-05-16T15:48:37.945093+05:30
Warangal,Telangana,17.9689,79.5941,37.3,40,0.0,972.8,9.1,35.6,123,49.4,31.3,2.8,216.0,113.0,6.6,0,5,10,1,2026-05-16T15:48:37.945100+05:30
Nizamabad,Telangana,18.6725,78.0941,39.6,19,0.0,959.2,9.0,30.2,119,19.5,13.0,0.4,166.0,149.0,5.0,0,5,10,0,2026-05-16T15:48:37.945107+05:30
Mysore,Karnataka,12.2958,76.6396,29.8,60,0.0,924.7,8.0,37.1,99,65.7,39.2,4.4,285.0,163.0,5.6,4,5,7,1,2026-05-16T15:48:37.945114+05:30
Mangalore,Karnataka,12.9141,74.856,29.3,82,0.0,1001.7,7.7,38.2,62,28.0,17.8,2.4,171.0,69.0,1.2,7,5,4,1,2026-05-16T15:48:37.945121+05:30
Hubli-Dharwad,Karnataka,15.3647,75.124,34.9,31,0.0,935.5,8.2,43.9,70,30.3,19.6,2.4,219.0,146.0,3.3,0,5,7,0,2026-05-16T15:48:37.945128+05:30
Belgaum,Karnataka,15.8497,74.4977,30.7,51,0.1,921.3,9.2,42.8,66,32.2,19.2,2.1,190.0,128.0,3.8,3,5,7,1,2026-05-16T15:48:41.346191+05:30
Coimbatore,Tamil Nadu,11.0168,76.9558,31.1,52,0.0,956.1,9.05,34.6,82,59.3,32.1,3.2,254.0,131.0,5.2,0,5,7,1,2026-05-16T15:48:41.346222+05:30
Madurai,Tamil Nadu,9.9252,78.1198,34.5,45,0.0,986.8,8.75,24.5,91,65.0,32.0,6.7,266.0,154.0,5.3,0,5,7,1,2026-05-16T15:48:41.346233+05:30
Trichy,Tamil Nadu,10.7905,78.7047,34.1,56,0.0,993.2,2.7,34.9,85,50.5,28.9,4.2,287.0,155.0,6.7,0,5,3,1,2026-05-16T15:48:41.346242+05:30
Salem,Tamil Nadu,11.6643,78.146,33.4,47,0.0,970.9,8.95,28.4,130,81.0,42.1,5.4,333.0,184.0,20.2,0,5,7,1,2026-05-16T15:48:41.346250+05:30
Tirunelveli,Tamil Nadu,8.7139,77.7567,36.2,32,0.0,996.4,8.3,31.7,53,32.9,16.2,2.4,244.0,114.0,1.7,0,5,10,1,2026-05-16T15:48:41.346258+05:30
Vellore,Tamil Nadu,12.9165,79.1325,33.7,46,0.0,978.1,9.25,24.5,90,30.5,15.3,2.0,229.0,120.0,5.0,0,5,7,1,2026-05-16T15:48:41.346287+05:30
Erode,Tamil Nadu,11.341,77.7172,34.4,43,0.0,982.2,6.85,23.8,91,77.3,39.0,5.2,306.0,159.0,6.2,0,5,7,1,2026-05-16T15:48:41.346296+05:30
Kochi,Kerala,9.9312,76.2673,29.2,78,0.1,1003.9,7.3,32.0,66,16.4,11.4,4.5,226.0,111.0,4.1,10,5,4,1,2026-05-16T15:48:41.346304+05:30
Thiruvananthapuram,Kerala,8.5241,76.9366,27.1,83,0.1,1003.4,7.25,36.0,53,20.1,11.7,1.4,180.0,110.0,1.2,10,5,4,1,2026-05-16T15:48:41.346311+05:30
Kozhikode,Kerala,11.2588,75.7804,30.2,72,0.1,1002.5,8.3,42.1,62,13.9,8.2,0.8,176.0,97.0,1.1,6,5,4,1,2026-05-16T15:48:41.346318+05:30
Thrissur,Kerala,10.5276,76.2144,30.1,72,0.0,1001.8,8.7,33.8,67,14.1,9.7,2.6,226.0,104.0,2.3,3,5,4,1,2026-05-16T15:48:41.346326+05:30
Kannur,Kerala,11.8745,75.3704,29.2,85,0.3,1002.6,8.7,39.6,65,23.8,15.8,3.1,179.0,86.0,1.6,10,5,4,1,2026-05-16T15:48:41.346334+05:30
Patna,Bihar,25.5941,85.1376,36.5,41,0.0,993.3,8.8,24.8,148,96.2,49.7,5.6,365.0,175.0,11.0,0,5,10,1,2026-05-16T15:48:41.346341+05:30
Gaya,Bihar,24.7914,85.0002,37.8,28,0.0,986.9,8.85,33.5,152,101.5,37.4,2.0,298.0,154.0,7.2,0,5,10,0,2026-05-16T15:48:41.346348+05:30
Muzaffarpur,Bihar,26.1209,85.3647,34.5,50,0.0,993.6,8.8,30.6,151,90.1,55.4,6.8,392.0,181.0,13.3,0,5,7,1,2026-05-16T15:48:41.346355+05:30
Bhagalpur,Bihar,25.2425,87.0117,34.2,55,0.0,994.4,8.8,29.9,140,80.8,57.6,5.5,349.0,205.0,23.1,0,5,7,1,2026-05-16T15:48:41.346362+05:30
Ranchi,Jharkhand,23.3441,85.3096,34.8,26,0.0,933.2,9.3,38.5,151,70.5,35.4,2.6,265.0,142.0,8.1,0,5,7,0,2026-05-16T15:48:41.346369+05:30
Jamshedpur,Jharkhand,22.8046,86.2029,36.2,36,0.0,983.9,9.15,35.3,136,87.1,56.8,4.7,275.0,181.0,19.5,0,5,10,1,2026-05-16T15:48:41.346376+05:30
Dhanbad,Jharkhand,23.7957,86.4304,36.9,34,0.0,973.2,9.05,24.5,163,96.6,45.2,12.6,308.0,164.0,36.0,0,5,10,1,2026-05-16T15:48:41.346383+05:30
Bokaro,Jharkhand,23.6693,86.1511,36.6,38,0.0,976.8,9.1,26.3,158,84.1,35.4,10.0,327.0,153.0,38.3,0,5,10,1,2026-05-16T15:48:41.346390+05:30
Bhubaneswar,Odisha,20.2961,85.8245,34.7,56,0.0,996.6,9.2,44.6,46,22.8,11.1,2.0,171.0,70.0,2.5,0,5,7,1,2026-05-16T15:48:41.346397+05:30
Cuttack,Odisha,20.4625,85.8828,35.5,54,0.0,998.0,9.25,43.6,46,22.8,11.1,2.0,185.0,70.0,2.5,0,5,10,1,2026-05-16T15:48:41.346404+05:30
Rourkela,Odisha,22.2604,84.8536,35.9,38,0.0,979.0,8.55,30.6,152,71.9,49.9,4.5,289.0,166.0,11.4,0,5,10,1,2026-05-16T15:48:41.346411+05:30
Raipur,Chhattisgarh,21.2514,81.6296,40.2,27,0.0,968.2,9.05,50.4,157,92.4,58.9,7.5,325.0,177.0,26.4,0,5,10,1,2026-05-16T15:48:41.346418+05:30
Bhilai,Chhattisgarh,21.1938,81.3509,39.5,29,0.0,968.9,9.05,52.9,156,85.4,54.0,8.3,536.0,170.0,29.8,0,5,10,1,2026-05-16T15:48:41.346425+05:30
Guwahati,Assam,26.1158,91.7086,28.9,74,0.2,995.3,6.9,31.7,84,19.5,14.7,2.2,287.0,121.0,2.5,10,5,7,1,2026-05-16T15:48:41.346432+05:30
Agartala,Tripura,23.8315,91.2868,29.9,80,0.0,999.7,6.8,34.2,72,37.6,21.3,5.6,186.0,118.0,2.6,7,5,7,1,2026-05-16T15:48:41.346439+05:30
Shillong,Meghalaya,25.5788,91.8933,21.1,72,0.0,852.7,8.1,43.9,44,13.2,8.8,2.4,258.0,112.0,3.0,3,5,7,0,2026-05-16T15:48:41.346445+05:30
Imphal,Manipur,24.817,93.9368,26.6,64,0.0,918.8,8.75,28.8,85,26.7,14.7,2.3,199.0,98.0,2.9,7,5,7,1,2026-05-16T15:48:41.346453+05:30
Aizawl,Mizoram,23.7271,92.7176,24.2,77,0.0,888.9,9.15,43.6,58,29.2,13.9,1.5,163.0,95.0,2.3,3,5,7,1,2026-05-16T15:48:41.346459+05:30
Kohima,Nagaland,25.6701,94.1077,20.4,96,0.1,851.3,9.2,29.2,59,28.2,15.6,1.5,221.0,105.0,2.6,6,5,7,1,2026-05-16T15:48:41.346466+05:30
Gangtok,Sikkim,27.3314,88.6138,18.2,91,0.0,833.4,9.1,37.4,103,20.3,15.8,2.1,293.0,136.0,2.4,3,10,7,1,2026-05-16T15:48:41.346474+05:30
Siliguri,West Bengal,26.7271,88.3953,27.6,74,0.0,987.0,8.65,24.1,118,31.2,23.4,3.7,438.0,138.0,4.2,7,5,7,1,2026-05-16T15:48:44.709862+05:30
Durgapur,West Bengal,23.5204,87.3119,36.5,45,0.0,988.2,9.05,32.8,150,109.2,87.1,14.2,573.0,252.0,56.3,0,5,10,1,2026-05-16T15:48:44.709895+05:30
Asansol,West Bengal,23.6739,86.9524,37.2,34,0.0,986.6,9.05,27.4,158,107.3,66.8,13.2,493.0,206.0,35.5,0,5,10,1,2026-05-16T15:48:44.709907+05:30
Pondicherry,Puducherry,11.9139,79.8145,29.3,77,0.0,1002.2,9.05,30.2,80,34.5,27.5,3.5,215.0,156.0,12.3,7,5,4,1,2026-05-16T15:48:44.709916+05:30
Port Blair,Andaman and Nicobar Islands,11.6234,92.7265,27.5,86,0.0,1002.9,5.6,41.4,27,8.6,5.4,0.4,135.0,57.0,0.2,7,5,0,1,2026-05-16T15:48:44.709925+05:30
Haridwar,Uttarakhand,29.9457,78.1642,35.2,29,0.0,969.2,7.5,34.2,122,48.8,30.2,1.8,235.0,168.0,9.2,0,5,10,0,2026-05-16T15:48:44.709933+05:30
Rishikesh,Uttarakhand,30.0869,78.2676,34.7,29,0.0,962.1,7.6,29.9,104,40.9,21.5,0.6,214.0,155.0,5.4,0,5,7,0,2026-05-16T15:48:44.709942+05:30
Nainital,Uttarakhand,29.3919,79.4542,21.4,41,0.0,804.9,8.45,38.2,123,48.2,26.6,1.5,201.0,169.0,10.0,0,5,7,0,2026-05-16T15:48:44.709950+05:30
Mussoorie,Uttarakhand,30.4599,78.0664,19.5,56,0.1,802.3,8.0,47.5,113,41.4,26.5,1.1,190.0,168.0,7.4,3,5,7,0,2026-05-16T15:48:44.709958+05:30
Dharamshala,Himachal Pradesh,32.219,76.3234,24.4,49,0.1,868.4,8.35,40.3,79,31.3,11.9,0.1,174.0,133.0,0.9,3,5,7,0,2026-05-16T15:48:44.709966+05:30
Dalhousie,Himachal Pradesh,32.5387,75.971,21.5,40,0.0,805.5,8.6,40.7,91,28.5,13.3,0.8,155.0,147.0,1.4,0,5,7,0,2026-05-16T15:48:44.709974+05:30
Patiala,Punjab,30.3398,76.3869,37.6,21,0.0,973.7,7.6,38.2,208,633.3,79.4,1.2,225.0,147.0,4.2,0,5,10,0,2026-05-16T15:48:44.709981+05:30
Bhatinda,Punjab,30.211,74.9455,38.3,23,0.0,979.2,8.25,32.4,111,80.6,25.8,1.5,255.0,145.0,7.1,0,5,10,0,2026-05-16T15:48:44.709988+05:30
Rohtak,Haryana,28.8955,76.6066,38.5,21,0.0,977.0,7.75,40.7,424,609.1,86.8,2.3,248.0,137.0,5.0,0,5,10,0,2026-05-16T15:48:44.709996+05:30
Panipat,Haryana,29.3909,76.9635,38.0,21,0.0,975.4,7.55,40.0,754,1385.8,159.7,2.5,221.0,138.0,8.5,0,5,10,0,2026-05-16T15:48:44.710004+05:30
Mathura,Uttar Pradesh,27.4924,77.6737,39.4,19,0.0,981.3,8.0,29.5,372,532.7,77.5,2.3,235.0,145.0,7.2,0,5,10,0,2026-05-16T15:48:44.710012+05:30
Vrindavan,Uttar Pradesh,27.5823,77.7027,39.0,21,0.0,981.7,7.95,28.4,372,532.7,77.5,2.3,245.0,145.0,7.2,0,5,10,0,2026-05-16T15:48:44.710019+05:30
Ayodhya,Uttar Pradesh,26.7922,82.1998,37.3,32,0.0,988.4,8.35,29.9,160,144.4,46.3,1.6,293.0,162.0,9.0,0,5,10,1,2026-05-16T15:48:44.710026+05:30
Ratlam,Madhya Pradesh,23.3315,75.0367,37.7,22,0.0,950.9,8.55,34.9,50,31.2,13.6,0.5,131.0,114.0,2.1,0,5,10,0,2026-05-16T15:48:44.710034+05:30
Sagar,Madhya Pradesh,23.8388,78.7378,40.1,15,0.0,945.5,8.75,36.0,80,37.0,15.1,0.4,193.0,131.0,3.0,0,5,10,0,2026-05-16T15:48:44.710041+05:30
Satna,Madhya Pradesh,24.6005,80.8322,39.5,19,0.0,965.9,8.75,32.8,112,66.1,22.3,0.5,179.0,127.0,3.2,0,5,10,0,2026-05-16T15:48:44.710048+05:30
Akola,Maharashtra,20.7002,77.0082,42.6,15,0.0,969.0,8.15,43.2,74,29.2,13.0,1.1,164.0,132.0,4.9,0,5,10,0,2026-05-16T15:48:44.710056+05:30
Amravati,Maharashtra,20.9374,77.7796,43.2,12,0.0,961.0,8.9,38.9,81,31.7,13.4,1.0,170.0,135.0,6.2,0,5,10,0,2026-05-16T15:48:44.710064+05:30
Latur,Maharashtra,18.4088,76.5604,39.0,18,0.0,935.2,8.7,36.4,85,24.4,15.9,1.1,162.0,154.0,6.8,0,5,10,0,2026-05-16T15:48:44.710072+05:30
Nanded,Maharashtra,19.1383,77.3091,41.0,16,0.0,962.7,8.4,28.1,111,25.3,14.8,0.4,153.0,146.0,5.3,0,5,10,0,2026-05-16T15:48:44.710079+05:30
Gulbarga,Karnataka,17.3297,76.8343,39.3,19,0.0,953.0,8.2,35.6,117,48.7,30.4,1.7,177.0,164.0,8.6,0,5,10,0,2026-05-16T15:48:44.710085+05:30
Bidar,Karnataka,17.9104,77.5199,37.8,21,0.0,931.2,9.1,30.2,125,29.8,19.6,1.2,188.0,153.0,5.3,0,5,10,0,2026-05-16T15:48:44.710092+05:30
Hospet,Karnataka,15.2689,76.3909,35.0,37,0.0,950.1,8.0,36.7,86,51.9,33.3,3.0,252.0,168.0,10.0,0,5,7,1,2026-05-16T15:48:44.710099+05:30
Tirupur,Tamil Nadu,11.1085,77.3411,35.2,37,0.0,968.8,6.85,33.1,94,65.0,35.0,5.4,258.0,150.0,5.8,0,5,10,1,2026-05-16T15:48:44.710106+05:30
Alappuzha,Kerala,9.4981,76.3388,25.4,96,0.4,1004.4,8.55,32.8,62,16.6,11.0,4.1,161.0,116.0,3.2,10,5,4,1,2026-05-16T15:48:44.710113+05:30
Munnar,Kerala,10.0889,77.0595,20.7,82,0.1,853.6,4.6,23.8,61,43.3,22.1,3.1,204.0,101.0,2.5,6,5,3,1,2026-05-16T15:48:44.710120+05:30
Silchar,Assam,24.8333,92.7789,27.0,86,0.0,999.5,8.75,25.6,77,23.9,12.8,1.7,206.0,106.0,3.5,7,5,7,1,2026-05-16T15:48:44.710128+05:30
Dibrugarh,Assam,27.4728,94.912,29.5,64,0.0,990.1,8.9,26.3,99,31.4,20.8,2.8,224.0,121.0,2.3,7,5,7,1,2026-05-16T15:48:44.710135+05:30
