city,state,latitude,longitude,temp,humidity,rain,pressure,uv_index,wind_gusts,aqi,pm10,pm2_5,mosquito_risk,arthritis_risk,migraine_risk,frizz_risk,updated_at
Delhi,Delhi,28.6139,77.209,18.3,63,0.0,982.8,5.7,29.5,161,214.2,72.9,3,5,3,0,2026-03-01T03:56:24.695654+05:30
Mumbai,Maharashtra,19.076,72.8777,25.9,70,0.0,1007.7,7.25,23.0,70,29.7,21.9,7,5,4,1,2026-03-01T03:56:24.695696+05:30
Bangalore,Karnataka,12.9716,77.5946,20.6,80,0.0,909.2,9.05,25.2,127,66.6,65.4,3,5,7,1,2026-03-01T03:56:24.695727+05:30
Hyderabad,Telangana,17.385,78.4867,22.5,77,0.0,950.9,8.3,24.5,113,49.4,48.5,3,5,7,1,2026-03-01T03:56:24.695738+05:30
Chennai,Tamil Nadu,13.0827,80.2707,24.0,91,0.0,1006.4,8.8,33.1,148,57.6,53.4,3,5,4,1,2026-03-01T03:56:24.695747+05:30
Kolkata,West Bengal,22.5726,88.3639,22.5,97,0.0,1005.6,7.6,25.9,101,23.2,21.1,3,5,4,1,2026-03-01T03:56:24.695756+05:30
Pune,Maharashtra,18.5204,73.8567,15.5,94,0.0,946.0,7.85,34.9,64,40.9,37.6,3,10,7,0,2026-03-01T03:56:24.695768+05:30
Ahmedabad,Gujarat,23.0225,72.5714,20.7,64,0.0,1002.2,7.05,20.9,87,60.1,54.1,3,5,4,0,2026-03-01T03:56:24.695776+05:30
Jaipur,Rajasthan,26.9124,75.7873,20.8,59,0.0,958.9,6.45,25.9,75,91.0,37.5,0,5,7,0,2026-03-01T03:56:24.695784+05:30
Lucknow,Uttar Pradesh,26.8467,80.9462,17.8,73,0.0,992.7,6.2,37.1,145,98.3,58.7,3,5,7,0,2026-03-01T03:56:24.695791+05:30
Kanpur,Uttar Pradesh,26.4499,80.3319,16.9,81,0.0,991.1,6.2,31.0,151,144.4,76.4,3,10,7,0,2026-03-01T03:56:24.695799+05:30
Chandigarh,Chandigarh,30.7333,76.7794,15.2,68,0.0,968.0,5.6,32.0,93,41.8,30.6,3,5,3,0,2026-03-01T03:56:24.695807+05:30
Srinagar,Jammu and Kashmir,34.0837,74.7973,3.3,76,0.0,835.8,6.45,15.5,128,95.0,69.4,3,5,7,1,2026-03-01T03:56:24.695815+05:30
Jammu,Jammu and Kashmir,32.7266,74.857,14.8,75,0.0,972.4,6.15,24.1,94,48.9,40.5,3,5,7,0,2026-03-01T03:56:24.695822+05:30
Amritsar,Punjab,31.634,74.8723,16.3,79,0.0,981.0,6.1,20.5,150,79.2,56.6,3,5,7,0,2026-03-01T03:56:24.695829+05:30
Ludhiana,Punjab,30.901,75.8573,17.8,73,0.0,978.6,5.85,27.0,157,90.1,74.5,3,5,3,0,2026-03-01T03:56:24.695835+05:30
Jalandhar,Punjab,31.326,75.5762,16.2,79,0.0,979.9,5.95,23.4,152,105.9,85.4,3,5,3,0,2026-03-01T03:56:24.695843+05:30
Dehradun,Uttarakhand,30.6284,78.0322,8.3,45,0.0,825.0,5.95,34.2,65,31.5,22.2,0,5,3,1,2026-03-01T03:56:24.695850+05:30
Shimla,Himachal Pradesh,31.1048,77.1734,6.0,58,0.0,778.1,6.0,50.8,68,52.0,27.2,0,5,3,1,2026-03-01T03:56:24.695857+05:30
Manali,Himachal Pradesh,32.2396,77.1887,9.6,17,0.0,814.3,7.3,38.5,43,20.8,14.1,0,5,7,1,2026-03-01T03:56:24.695864+05:30
Gurgaon,Haryana,28.4595,77.0266,14.4,80,0.0,981.0,5.8,25.9,168,406.1,94.5,3,5,3,0,2026-03-01T03:56:24.695871+05:30
Noida,Uttar Pradesh,28.5355,77.391,18.1,64,0.0,984.4,5.75,28.8,168,406.1,94.5,3,5,3,0,2026-03-01T03:56:24.695878+05:30
Ghaziabad,Uttar Pradesh,28.6692,77.4538,16.6,70,0.0,982.4,5.7,27.4,157,163.0,61.7,3,5,3,0,2026-03-01T03:56:24.695885+05:30
Faridabad,Haryana,28.4089,77.3178,15.2,77,0.0,983.4,5.75,25.6,168,406.1,94.5,3,5,3,0,2026-03-01T03:56:24.695891+05:30
Meerut,Uttar Pradesh,28.9845,77.7064,14.9,80,0.0,980.9,5.6,32.0,157,163.0,61.7,3,5,3,0,2026-03-01T03:56:24.695898+05:30
Agra,Uttar Pradesh,27.1767,78.0081,16.0,79,0.0,987.8,6.05,21.6,148,398.6,80.8,3,5,7,0,2026-03-01T03:56:24.695905+05:30
Varanasi,Uttar Pradesh,25.3176,82.9739,18.8,77,0.0,996.7,6.85,27.7,113,84.8,62.6,3,5,7,0,2026-03-01T03:56:24.695914+05:30
Prayagraj,Uttar Pradesh,25.4358,81.8463,19.2,74,0.0,995.2,6.75,24.5,127,95.5,62.4,3,5,7,0,2026-03-01T03:56:24.695924+05:30
Gorakhpur,Uttar Pradesh,26.7606,83.3732,17.0,81,0.0,995.5,6.55,34.2,126,71.2,47.4,3,10,7,0,2026-03-01T03:56:24.695931+05:30
Bareilly,Uttar Pradesh,28.367,79.4304,15.4,82,0.0,985.9,5.85,33.1,147,73.8,43.5,3,10,3,0,2026-03-01T03:56:24.695938+05:30
Aligarh,Uttar Pradesh,27.8974,78.088,14.9,78,0.0,985.3,5.8,27.4,155,294.3,75.9,3,5,3,0,2026-03-01T03:56:24.695944+05:30
Moradabad,Uttar Pradesh,28.8386,78.7733,15.3,81,0.0,982.8,5.7,33.5,144,95.7,54.4,3,10,3,0,2026-03-01T03:56:24.695952+05:30
Saharanpur,Uttar Pradesh,29.9637,77.546,14.5,81,0.0,974.9,5.35,40.3,141,83.8,67.5,3,10,3,0,2026-03-01T03:56:24.695958+05:30
Jhansi,Uttar Pradesh,25.4484,78.5685,18.7,64,0.0,977.0,6.65,23.0,79,27.0,19.3,3,5,7,0,2026-03-01T03:56:27.914881+05:30
Surat,Gujarat,21.1702,72.8311,23.0,79,0.0,1006.2,6.95,26.6,92,37.4,27.0,3,5,4,1,2026-03-01T03:56:27.914914+05:30
Vadodara,Gujarat,22.3072,73.1812,21.4,78,0.0,1004.1,7.1,11.9,104,54.0,49.7,3,5,4,1,2026-03-01T03:56:27.914924+05:30
Rajkot,Gujarat,22.3039,70.8022,19.9,88,0.0,994.5,6.9,23.4,61,51.2,16.1,3,10,7,1,2026-03-01T03:56:27.914933+05:30
Thane,Maharashtra,19.2183,72.9781,22.1,86,0.0,1007.2,7.25,35.3,70,29.7,21.9,3,5,4,1,2026-03-01T03:56:27.914941+05:30
Nagpur,Maharashtra,21.1458,79.0882,21.1,80,0.0,971.3,7.65,26.6,152,43.5,43.1,3,5,7,1,2026-03-01T03:56:27.914948+05:30
Nashik,Maharashtra,19.9975,73.7898,18.5,73,0.0,943.7,7.45,27.0,64,44.0,41.0,3,5,7,0,2026-03-01T03:56:27.914955+05:30
Aurangabad,Maharashtra,19.8762,75.3433,19.9,66,0.0,942.1,8.0,27.0,54,23.2,21.6,3,5,7,0,2026-03-01T03:56:27.914962+05:30
Solapur,Maharashtra,17.6599,75.9064,20.6,73,0.0,955.0,8.25,18.4,69,28.5,28.2,3,5,7,0,2026-03-01T03:56:27.914970+05:30
Kolhapur,Maharashtra,16.705,74.2433,15.4,85,0.0,944.8,8.35,38.2,53,23.0,20.2,3,10,7,0,2026-03-01T03:56:27.914977+05:30
Goa,Goa,15.2993,74.124,22.3,87,0.0,996.4,8.4,34.6,43,22.4,18.0,3,5,7,1,2026-03-01T03:56:27.914984+05:30
Jodhpur,Rajasthan,26.2389,73.0243,20.4,63,0.0,981.9,6.75,18.7,71,60.1,18.0,3,5,7,0,2026-03-01T03:56:27.914992+05:30
Udaipur,Rajasthan,24.5854,73.7125,16.2,68,0.0,945.0,7.35,27.7,65,21.0,16.2,3,5,7,0,2026-03-01T03:56:27.914999+05:30
Kota,Rajasthan,25.2138,75.8648,17.8,67,0.0,977.6,6.8,18.4,68,31.2,29.4,3,5,7,0,2026-03-01T03:56:27.915006+05:30
Bikaner,Rajasthan,28.0229,73.3119,21.3,50,0.0,981.5,6.45,15.8,59,49.8,23.7,0,5,7,0,2026-03-01T03:56:27.915013+05:30
Ajmer,Rajasthan,26.4499,74.6399,19.4,61,0.0,953.3,6.7,20.2,66,43.5,31.8,3,5,7,0,2026-03-01T03:56:27.915020+05:30
Gwalior,Madhya Pradesh,26.2183,78.1828,19.7,71,0.0,982.6,6.35,24.8,86,65.2,37.3,3,5,7,0,2026-03-01T03:56:27.915027+05:30
Indore,Madhya Pradesh,22.7196,75.8577,16.5,78,0.0,946.4,7.35,19.4,66,33.9,32.4,3,5,7,0,2026-03-01T03:56:27.915034+05:30
Bhopal,Madhya Pradesh,23.2599,77.4126,16.9,76,0.0,952.2,7.2,23.0,77,16.6,16.1,3,5,7,0,2026-03-01T03:56:27.915041+05:30
Jabalpur,Madhya Pradesh,23.1815,79.9864,22.8,57,0.0,960.1,7.3,30.6,119,30.4,30.0,0,5,7,0,2026-03-01T03:56:27.915048+05:30
Ujjain,Madhya Pradesh,23.1765,75.7885,16.5,78,0.0,952.3,7.25,19.4,79,34.8,32.6,3,5,7,0,2026-03-01T03:56:27.915056+05:30
Visakhapatnam,Andhra Pradesh,17.6868,83.2185,23.7,90,0.0,1003.3,8.3,39.6,112,64.7,62.2,3,5,4,1,2026-03-01T03:56:27.915063+05:30
Vijayawada,Andhra Pradesh,16.5062,80.648,23.8,91,0.0,1001.8,8.4,25.9,138,62.6,60.5,3,5,4,1,2026-03-01T03:56:27.915070+05:30
Guntur,Andhra Pradesh,16.3067,80.4365,24.2,91,0.0,1002.8,8.4,29.2,129,58.7,56.9,3,5,4,1,2026-03-01T03:56:27.915077+05:30
Nellore,Andhra Pradesh,14.4426,79.9865,23.6,92,0.0,1004.9,8.6,29.2,125,58.4,56.5,3,5,4,1,2026-03-01T03:56:27.915085+05:30
Kurnool,Andhra Pradesh,15.8281,78.0373,25.2,59,0.0,974.6,8.4,21.6,100,46.2,45.4,4,5,7,1,2026-03-01T03:56:27.915093+05:30
Kakinada,Andhra Pradesh,16.9891,82.2475,22.2,95,0.0,1007.0,8.35,34.9,123,69.4,65.0,3,5,4,1,2026-03-01T03:56:27.915100+05:30
Tirupati,Andhra Pradesh,13.6288,79.4192,21.6,75,0.0,990.6,8.75,27.0,141,74.0,72.4,3,5,7,1,2026-03-01T03:56:27.915107+05:30
Warangal,Telangana,17.9689,79.5941,23.2,80,0.0,976.9,8.1,30.2,124,51.8,51.2,3,5,7,1,2026-03-01T03:56:27.915113+05:30
Nizamabad,Telangana,18.6725,78.0941,23.5,70,0.0,962.5,8.0,19.1,116,54.2,53.8,3,5,7,1,2026-03-01T03:56:27.915120+05:30
Mysore,Karnataka,12.2958,76.6396,21.1,89,0.0,926.1,9.1,37.4,128,40.4,39.6,3,5,7,1,2026-03-01T03:56:27.915126+05:30
Mangalore,Karnataka,12.9141,74.856,27.8,74,0.0,1004.8,8.65,32.4,47,15.0,11.9,7,5,4,1,2026-03-01T03:56:27.915134+05:30
Hubli-Dharwad,Karnataka,15.3647,75.124,18.5,75,0.0,938.1,8.6,32.4,51,16.4,14.4,3,5,7,0,2026-03-01T03:56:27.915141+05:30
Belgaum,Karnataka,15.8497,74.4977,17.8,57,0.0,922.2,8.65,38.5,48,24.0,20.5,0,5,7,0,2026-03-01T03:56:31.135311+05:30
Coimbatore,Tamil Nadu,11.0168,76.9558,21.6,93,0.0,960.0,9.1,34.2,140,65.4,64.7,3,5,7,1,2026-03-01T03:56:31.135342+05:30
Madurai,Tamil Nadu,9.9252,78.1198,22.8,93,0.0,991.6,9.0,24.1,150,70.5,68.9,3,5,7,1,2026-03-01T03:56:31.135353+05:30
Trichy,Tamil Nadu,10.7905,78.7047,22.4,94,0.0,998.7,8.95,25.6,150,66.8,64.3,3,5,7,1,2026-03-01T03:56:31.135361+05:30
Salem,Tamil Nadu,11.6643,78.146,24.1,82,0.0,976.0,8.95,27.0,137,63.3,61.9,3,5,7,1,2026-03-01T03:56:31.135369+05:30
Tirunelveli,Tamil Nadu,8.7139,77.7567,23.6,88,0.0,1001.5,9.05,40.7,142,61.7,61.0,3,5,4,1,2026-03-01T03:56:31.135377+05:30
Vellore,Tamil Nadu,12.9165,79.1325,20.6,84,0.0,983.6,8.85,36.0,152,82.2,80.3,3,5,7,1,2026-03-01T03:56:31.135383+05:30
Erode,Tamil Nadu,11.341,77.7172,24.5,76,0.0,987.8,8.95,25.2,124,58.7,57.2,3,5,7,1,2026-03-01T03:56:31.135390+05:30
Kochi,Kerala,9.9312,76.2673,27.1,79,0.0,1006.7,8.9,38.5,115,36.6,36.3,7,5,4,1,2026-03-01T03:56:31.135396+05:30
Thiruvananthapuram,Kerala,8.5241,76.9366,27.0,84,0.0,1005.6,8.95,25.6,94,29.9,29.1,7,5,4,1,2026-03-01T03:56:31.135404+05:30
Kozhikode,Kerala,11.2588,75.7804,28.1,73,0.0,1005.7,8.75,32.8,69,17.6,13.9,7,5,4,1,2026-03-01T03:56:31.135411+05:30
Thrissur,Kerala,10.5276,76.2144,25.2,89,0.0,1005.0,8.85,39.6,115,38.1,37.8,7,5,4,1,2026-03-01T03:56:31.135418+05:30
Kannur,Kerala,11.8745,75.3704,26.2,79,0.0,1005.0,8.75,38.5,52,13.5,11.4,7,5,4,1,2026-03-01T03:56:31.135425+05:30
Patna,Bihar,25.5941,85.1376,20.4,73,0.0,999.6,7.0,29.2,119,62.9,45.9,3,5,7,0,2026-03-01T03:56:31.135432+05:30
Gaya,Bihar,24.7914,85.0002,20.7,64,0.0,993.2,7.1,20.5,85,53.8,41.8,3,5,7,0,2026-03-01T03:56:31.135438+05:30
Muzaffarpur,Bihar,26.1209,85.3647,17.8,79,0.0,999.3,6.95,32.8,132,60.5,44.5,3,5,7,0,2026-03-01T03:56:31.135444+05:30
Bhagalpur,Bihar,25.2425,87.0117,20.5,63,0.0,1000.1,7.05,24.5,96,54.7,34.5,3,5,4,0,2026-03-01T03:56:31.135451+05:30
Ranchi,Jharkhand,23.3441,85.3096,20.2,48,0.0,936.5,7.75,22.0,70,40.4,36.1,0,5,7,0,2026-03-01T03:56:31.135457+05:30
Jamshedpur,Jharkhand,22.8046,86.2029,20.1,85,0.0,990.2,7.7,12.6,113,78.9,73.6,3,5,7,1,2026-03-01T03:56:31.135464+05:30
Dhanbad,Jharkhand,23.7957,86.4304,19.4,62,0.0,979.0,7.55,31.0,135,102.4,93.1,3,5,7,0,2026-03-01T03:56:31.135470+05:30
Bokaro,Jharkhand,23.6693,86.1511,20.0,53,0.0,983.3,7.55,26.3,128,98.0,91.3,0,5,7,0,2026-03-01T03:56:31.135476+05:30
Bhubaneswar,Odisha,20.2961,85.8245,23.5,93,0.0,1001.8,8.05,32.0,92,39.9,38.5,3,5,4,1,2026-03-01T03:56:31.135483+05:30
Cuttack,Odisha,20.4625,85.8828,23.3,97,0.0,1003.8,8.05,33.1,92,39.9,38.5,3,5,4,1,2026-03-01T03:56:31.135489+05:30
Rourkela,Odisha,22.2604,84.8536,21.4,64,0.0,983.9,7.6,25.6,89,54.0,52.6,3,5,7,0,2026-03-01T03:56:31.135495+05:30
Raipur,Chhattisgarh,21.2514,81.6296,23.6,62,0.0,972.9,7.7,25.9,156,81.7,81.0,3,5,7,0,2026-03-01T03:56:31.135501+05:30
Bhilai,Chhattisgarh,21.1938,81.3509,21.5,77,0.0,973.1,7.75,26.6,157,85.4,84.8,3,5,7,1,2026-03-01T03:56:31.135507+05:30
Guwahati,Assam,26.1158,91.7086,20.3,85,0.0,1001.4,7.0,28.8,162,91.3,80.6,3,5,4,1,2026-03-01T03:56:31.135513+05:30
Agartala,Tripura,23.8315,91.2868,17.5,86,0.0,1006.0,7.35,24.1,156,50.3,42.6,3,10,4,0,2026-03-01T03:56:31.135520+05:30
Shillong,Meghalaya,25.5788,91.8933,8.1,65,0.0,851.3,7.35,50.4,156,69.4,46.3,3,5,7,0,2026-03-01T03:56:31.135526+05:30
Imphal,Manipur,24.817,93.9368,12.8,73,0.0,921.0,7.55,53.3,150,90.6,76.4,3,5,7,0,2026-03-01T03:56:31.135532+05:30
Aizawl,Mizoram,23.7271,92.7176,13.2,74,0.0,890.1,7.55,38.2,124,65.9,55.6,3,5,7,0,2026-03-01T03:56:31.135538+05:30
Kohima,Nagaland,25.6701,94.1077,10.7,72,0.0,851.1,7.4,79.9,152,75.4,69.4,3,5,7,0,2026-03-01T03:56:31.135545+05:30
Gangtok,Sikkim,27.3314,88.6138,9.6,83,0.1,832.0,5.0,12.2,141,57.5,45.2,6,10,3,0,2026-03-01T03:56:31.135551+05:30
Siliguri,West Bengal,26.7271,88.3953,16.3,65,0.0,992.7,7.0,22.7,170,138.8,112.5,3,5,7,0,2026-03-01T03:56:34.357258+05:30
Durgapur,West Bengal,23.5204,87.3119,20.6,80,0.0,994.3,7.55,27.7,116,67.3,61.9,3,5,7,1,2026-03-01T03:56:34.357288+05:30
Asansol,West Bengal,23.6739,86.9524,21.0,68,0.0,992.8,7.55,26.3,100,63.8,54.9,3,5,7,0,2026-03-01T03:56:34.357297+05:30
Pondicherry,Puducherry,11.9139,79.8145,22.5,99,0.0,1007.6,8.8,29.2,137,55.3,51.2,3,5,4,1,2026-03-01T03:56:34.357305+05:30
Port Blair,Andaman and Nicobar Islands,11.6234,92.7265,26.7,70,0.0,1005.1,8.75,25.9,95,26.2,22.9,7,5,4,1,2026-03-01T03:56:34.357313+05:30
Haridwar,Uttarakhand,29.9457,78.1642,14.8,76,0.0,973.4,5.45,40.0,108,55.4,49.1,3,5,3,0,2026-03-01T03:56:34.357320+05:30
Rishikesh,Uttarakhand,30.0869,78.2676,14.7,68,0.0,966.0,5.5,36.7,95,46.9,38.0,3,5,3,0,2026-03-01T03:56:34.357327+05:30
Nainital,Uttarakhand,29.3919,79.4542,13.3,46,0.0,801.8,6.35,47.2,85,41.9,30.5,0,5,7,0,2026-03-01T03:56:34.357335+05:30
Mussoorie,Uttarakhand,30.4599,78.0664,11.0,49,0.0,798.2,5.85,42.5,91,39.8,33.4,0,5,3,0,2026-03-01T03:56:34.357342+05:30
Dharamshala,Himachal Pradesh,32.219,76.3234,15.2,44,0.0,866.5,6.05,27.0,57,23.6,12.1,0,5,7,0,2026-03-01T03:56:34.357350+05:30
Dalhousie,Himachal Pradesh,32.5387,75.971,11.8,36,0.0,800.1,6.25,27.4,84,40.4,32.9,0,5,7,1,2026-03-01T03:56:34.357358+05:30
Patiala,Punjab,30.3398,76.3869,15.6,87,0.0,977.8,5.55,29.2,158,222.6,72.4,3,10,3,0,2026-03-01T03:56:34.357365+05:30
Bhatinda,Punjab,30.211,74.9455,15.0,88,0.0,983.8,6.2,20.5,150,82.4,62.4,3,10,7,0,2026-03-01T03:56:34.357372+05:30
Rohtak,Haryana,28.8955,76.6066,15.2,77,0.0,981.5,5.7,27.4,164,262.6,84.1,3,5,3,0,2026-03-01T03:56:34.357379+05:30
Panipat,Haryana,29.3909,76.9635,14.4,85,0.0,980.0,5.5,28.8,192,456.3,93.6,3,10,3,0,2026-03-01T03:56:34.357386+05:30
Mathura,Uttar Pradesh,27.4924,77.6737,15.6,76,0.0,986.8,5.95,23.0,149,401.4,92.2,3,5,3,0,2026-03-01T03:56:34.357392+05:30
Vrindavan,Uttar Pradesh,27.5823,77.7027,15.3,78,0.0,987.2,5.95,25.2,149,401.4,92.2,3,5,3,0,2026-03-01T03:56:34.357399+05:30
Ayodhya,Uttar Pradesh,26.7922,82.1998,16.9,82,0.0,994.3,6.35,36.0,132,82.0,54.1,3,10,7,0,2026-03-01T03:56:34.357406+05:30
Ratlam,Madhya Pradesh,23.3315,75.0367,19.8,65,0.0,953.4,7.2,27.7,74,29.5,26.6,3,5,7,0,2026-03-01T03:56:34.357413+05:30
Sagar,Madhya Pradesh,23.8388,78.7378,20.0,63,0.0,948.4,7.15,19.8,67,12.6,12.5,3,5,7,0,2026-03-01T03:56:34.357420+05:30
Satna,Madhya Pradesh,24.6005,80.8322,20.6,61,0.0,970.2,7.1,28.1,90,61.9,47.5,3,5,7,0,2026-03-01T03:56:34.357427+05:30
Akola,Maharashtra,20.7002,77.0082,21.4,65,0.0,973.7,7.7,28.8,85,17.8,17.0,3,5,7,0,2026-03-01T03:56:34.357434+05:30
Amravati,Maharashtra,20.9374,77.7796,22.0,65,0.0,965.5,7.65,27.0,102,20.5,19.8,3,5,7,0,2026-03-01T03:56:34.357441+05:30
Latur,Maharashtra,18.4088,76.5604,21.3,61,0.0,937.0,8.15,27.0,68,34.8,34.6,3,5,7,0,2026-03-01T03:56:34.357448+05:30
Nanded,Maharashtra,19.1383,77.3091,21.7,67,0.0,966.4,7.9,17.6,82,32.8,32.4,3,5,7,0,2026-03-01T03:56:34.357455+05:30
Gulbarga,Karnataka,17.3297,76.8343,23.4,67,0.0,956.2,8.25,15.5,81,36.4,36.1,3,5,7,1,2026-03-01T03:56:34.357461+05:30
Bidar,Karnataka,17.9104,77.5199,23.1,67,0.0,932.8,8.2,18.0,106,45.3,44.8,3,5,7,1,2026-03-01T03:56:34.357467+05:30
Hospet,Karnataka,15.2689,76.3909,24.1,60,0.0,953.9,8.55,24.5,102,20.0,19.7,0,5,7,0,2026-03-01T03:56:34.357474+05:30
Tirupur,Tamil Nadu,11.1085,77.3411,23.7,88,0.0,973.7,9.1,20.2,144,68.2,67.3,3,5,7,1,2026-03-01T03:56:34.357480+05:30
Alappuzha,Kerala,9.4981,76.3388,26.9,83,0.0,1006.7,8.9,34.6,100,33.1,32.1,7,5,4,1,2026-03-01T03:56:34.357486+05:30
Munnar,Kerala,10.0889,77.0595,17.9,92,0.0,853.4,9.4,28.1,126,55.6,54.4,3,10,7,1,2026-03-01T03:56:34.357493+05:30
Silchar,Assam,24.8333,92.7789,17.3,83,0.0,1005.0,7.3,22.3,157,91.0,76.8,3,10,4,0,2026-03-01T03:56:34.357500+05:30
Dibrugarh,Assam,27.4728,94.912,18.3,88,0.0,996.4,7.05,16.2,152,68.7,65.9,3,10,7,1,2026-03-01T03:56:34.357506+05:30
