city,state,latitude,longitude,temp,humidity,rain,pressure,uv_index,wind_gusts,aqi,pm10,pm2_5,mosquito_risk,arthritis_risk,migraine_risk,frizz_risk,updated_at
Delhi,Delhi,28.6139,77.209,29.5,43,0.0,985.4,7.2,34.9,319,264.5,47.5,4,5,7,0,2026-04-12T10:57:04.338191+05:30
Mumbai,Maharashtra,19.076,72.8777,28.9,77,0.0,1008.3,8.0,22.7,120,75.7,58.1,7,0,4,1,2026-04-12T10:57:04.338238+05:30
Bangalore,Karnataka,12.9716,77.5946,30.9,47,0.0,913.7,9.65,31.7,87,40.2,29.6,0,5,7,1,2026-04-12T10:57:04.338253+05:30
Hyderabad,Telangana,17.385,78.4867,36.8,31,0.0,954.7,9.25,28.1,94,36.1,25.7,0,5,10,1,2026-04-12T10:57:04.338263+05:30
Chennai,Tamil Nadu,13.0827,80.2707,33.8,54,0.0,1008.4,9.4,34.9,52,21.8,13.0,0,0,4,1,2026-04-12T10:57:04.338272+05:30
Kolkata,West Bengal,22.5726,88.3639,33.1,62,0.0,1006.5,8.75,23.0,134,79.4,45.1,3,5,4,1,2026-04-12T10:57:04.338285+05:30
Pune,Maharashtra,18.5204,73.8567,35.6,29,0.0,949.8,8.55,41.8,109,38.0,26.2,0,5,10,0,2026-04-12T10:57:04.338296+05:30
Ahmedabad,Gujarat,23.0225,72.5714,36.3,26,0.0,1002.9,8.1,21.2,100,140.2,36.4,0,5,7,0,2026-04-12T10:57:04.338304+05:30
Jaipur,Rajasthan,26.9124,75.7873,32.0,22,0.0,962.5,7.85,29.5,157,408.9,64.0,0,5,7,0,2026-04-12T10:57:04.338312+05:30
Lucknow,Uttar Pradesh,26.8467,80.9462,31.7,33,0.0,994.6,7.7,31.7,166,206.3,45.2,0,5,7,0,2026-04-12T10:57:04.338320+05:30
Kanpur,Uttar Pradesh,26.4499,80.3319,30.3,45,0.0,992.8,7.75,25.2,485,344.6,59.4,0,5,7,1,2026-04-12T10:57:04.338327+05:30
Chandigarh,Chandigarh,30.7333,76.7794,27.0,45,0.0,971.2,7.1,31.7,73,63.3,20.7,4,5,7,0,2026-04-12T10:57:04.338336+05:30
Srinagar,Jammu and Kashmir,34.0837,74.7973,14.2,60,0.0,843.6,8.05,14.0,78,27.3,15.7,0,5,7,0,2026-04-12T10:57:04.338343+05:30
Jammu,Jammu and Kashmir,32.7266,74.857,26.8,44,0.0,975.7,7.8,26.3,74,25.1,11.6,4,5,7,0,2026-04-12T10:57:04.338351+05:30
Amritsar,Punjab,31.634,74.8723,26.1,51,0.0,984.1,7.75,25.2,85,49.8,19.0,4,5,7,0,2026-04-12T10:57:04.338358+05:30
Ludhiana,Punjab,30.901,75.8573,27.5,45,0.0,981.6,7.35,30.2,77,67.8,23.6,4,5,7,0,2026-04-12T10:57:04.338366+05:30
Jalandhar,Punjab,31.326,75.5762,26.8,46,0.0,982.9,7.55,27.0,78,87.1,26.0,4,5,7,0,2026-04-12T10:57:04.338374+05:30
Dehradun,Uttarakhand,30.6284,78.0322,18.7,42,0.0,831.4,7.45,36.0,41,34.8,8.6,0,5,7,0,2026-04-12T10:57:04.338382+05:30
Shimla,Himachal Pradesh,31.1048,77.1734,16.7,52,0.0,786.1,7.65,43.2,58,40.5,10.0,0,5,7,0,2026-04-12T10:57:04.338390+05:30
Manali,Himachal Pradesh,32.2396,77.1887,17.7,46,0.0,820.4,9.9,25.6,108,8.8,4.4,0,5,7,0,2026-04-12T10:57:04.338397+05:30
Gurgaon,Haryana,28.4595,77.0266,29.3,46,0.0,984.0,7.3,33.5,785,1296.4,142.0,4,5,7,1,2026-04-12T10:57:04.338404+05:30
Noida,Uttar Pradesh,28.5355,77.391,29.9,42,0.0,986.8,7.25,34.2,785,1296.4,142.0,4,5,7,0,2026-04-12T10:57:04.338411+05:30
Ghaziabad,Uttar Pradesh,28.6692,77.4538,29.4,46,0.0,984.9,7.2,33.1,185,240.3,46.2,4,5,7,1,2026-04-12T10:57:04.338417+05:30
Faridabad,Haryana,28.4089,77.3178,29.9,42,0.0,986.2,7.3,33.5,785,1296.4,142.0,4,5,7,0,2026-04-12T10:57:04.338424+05:30
Meerut,Uttar Pradesh,28.9845,77.7064,29.4,45,0.0,983.5,7.1,33.8,185,240.3,46.2,4,5,7,1,2026-04-12T10:57:04.338431+05:30
Agra,Uttar Pradesh,27.1767,78.0081,30.8,42,0.0,989.9,7.6,33.5,457,413.5,69.2,0,5,7,1,2026-04-12T10:57:04.338438+05:30
Varanasi,Uttar Pradesh,25.3176,82.9739,35.0,28,0.0,998.3,8.35,28.8,131,385.6,63.3,0,5,7,0,2026-04-12T10:57:04.338447+05:30
Prayagraj,Uttar Pradesh,25.4358,81.8463,34.1,29,0.0,996.8,8.2,26.3,153,339.9,61.7,0,5,7,0,2026-04-12T10:57:04.338454+05:30
Gorakhpur,Uttar Pradesh,26.7606,83.3732,31.7,36,0.0,997.4,8.15,38.9,105,124.8,33.5,0,5,7,0,2026-04-12T10:57:04.338463+05:30
Bareilly,Uttar Pradesh,28.367,79.4304,31.5,34,0.0,987.8,7.45,35.6,81,109.4,29.7,0,5,7,0,2026-04-12T10:57:04.338470+05:30
Aligarh,Uttar Pradesh,27.8974,78.088,31.3,38,0.0,987.6,7.4,34.6,444,663.1,92.9,0,5,7,0,2026-04-12T10:57:04.338477+05:30
Moradabad,Uttar Pradesh,28.8386,78.7733,30.0,41,0.0,985.1,7.3,36.0,94,131.3,34.8,4,5,7,0,2026-04-12T10:57:04.338483+05:30
Saharanpur,Uttar Pradesh,29.9637,77.546,28.4,44,0.0,977.7,6.9,34.2,99,68.0,25.7,4,5,7,0,2026-04-12T10:57:04.338489+05:30
Jhansi,Uttar Pradesh,25.4484,78.5685,34.5,27,0.0,978.9,8.15,36.0,54,68.9,21.3,0,5,7,0,2026-04-12T10:57:07.683768+05:30
Surat,Gujarat,21.1702,72.8311,33.0,47,0.0,1007.0,7.8,27.0,150,75.7,47.0,0,5,4,1,2026-04-12T10:57:07.683802+05:30
Vadodara,Gujarat,22.3072,73.1812,34.5,38,0.0,1005.0,8.05,19.8,112,76.4,39.9,0,5,4,1,2026-04-12T10:57:07.683813+05:30
Rajkot,Gujarat,22.3039,70.8022,32.6,46,0.0,995.7,7.8,25.6,72,92.7,31.8,0,5,7,1,2026-04-12T10:57:07.683823+05:30
Thane,Maharashtra,19.2183,72.9781,34.8,39,0.0,1007.8,8.0,36.4,120,75.7,58.1,0,5,4,1,2026-04-12T10:57:07.683831+05:30
Nagpur,Maharashtra,21.1458,79.0882,33.6,32,0.0,975.1,8.8,16.6,64,25.4,17.2,0,5,7,0,2026-04-12T10:57:07.683839+05:30
Nashik,Maharashtra,19.9975,73.7898,33.0,28,0.0,947.1,8.25,28.1,114,45.8,27.8,0,5,7,0,2026-04-12T10:57:07.683847+05:30
Aurangabad,Maharashtra,19.8762,75.3433,35.9,21,0.0,945.8,8.95,28.4,82,35.9,21.5,0,5,10,0,2026-04-12T10:57:07.683855+05:30
Solapur,Maharashtra,17.6599,75.9064,37.1,24,0.0,958.3,9.05,27.0,84,41.8,32.2,0,5,10,0,2026-04-12T10:57:07.683864+05:30
Kolhapur,Maharashtra,16.705,74.2433,33.5,36,0.0,949.2,9.05,45.7,94,41.9,33.2,0,5,7,1,2026-04-12T10:57:07.683898+05:30
Goa,Goa,15.2993,74.124,31.8,63,0.0,998.4,9.05,31.0,106,51.7,31.7,3,5,7,1,2026-04-12T10:57:07.683906+05:30
Jodhpur,Rajasthan,26.2389,73.0243,31.5,32,0.0,986.2,8.1,16.2,94,170.9,34.7,0,5,7,0,2026-04-12T10:57:07.683913+05:30
Udaipur,Rajasthan,24.5854,73.7125,31.9,26,0.0,949.2,8.65,26.3,43,138.3,22.2,0,5,7,0,2026-04-12T10:57:07.683920+05:30
Kota,Rajasthan,25.2138,75.8648,31.0,42,0.0,981.1,8.15,22.7,59,86.1,25.8,0,5,7,1,2026-04-12T10:57:07.683926+05:30
Bikaner,Rajasthan,28.0229,73.3119,31.3,26,0.0,985.1,7.95,21.6,69,90.8,24.4,0,5,7,0,2026-04-12T10:57:07.683933+05:30
Ajmer,Rajasthan,26.4499,74.6399,31.7,20,0.0,957.4,8.1,26.3,67,268.2,49.6,0,5,7,0,2026-04-12T10:57:07.683939+05:30
Gwalior,Madhya Pradesh,26.2183,78.1828,31.0,42,0.0,985.1,7.85,31.7,89,413.5,65.0,0,5,7,1,2026-04-12T10:57:07.683946+05:30
Indore,Madhya Pradesh,22.7196,75.8577,34.0,25,0.0,949.7,8.55,27.7,81,21.7,11.3,0,5,7,0,2026-04-12T10:57:07.683953+05:30
Bhopal,Madhya Pradesh,23.2599,77.4126,35.2,24,0.0,955.3,8.5,32.4,70,18.2,12.5,0,5,10,0,2026-04-12T10:57:07.683959+05:30
Jabalpur,Madhya Pradesh,23.1815,79.9864,35.0,24,0.0,962.9,8.65,34.2,83,29.6,12.2,0,5,7,0,2026-04-12T10:57:07.683966+05:30
Ujjain,Madhya Pradesh,23.1765,75.7885,34.2,27,0.0,955.4,8.45,26.3,71,28.1,12.8,0,5,7,0,2026-04-12T10:57:07.683973+05:30
Visakhapatnam,Andhra Pradesh,17.6868,83.2185,34.0,57,0.0,1004.7,9.2,38.9,84,37.5,27.2,0,5,4,1,2026-04-12T10:57:07.683979+05:30
Vijayawada,Andhra Pradesh,16.5062,80.648,34.0,58,0.0,1003.6,9.25,36.0,66,27.1,16.6,0,5,4,1,2026-04-12T10:57:07.683986+05:30
Guntur,Andhra Pradesh,16.3067,80.4365,34.3,57,0.0,1004.6,9.25,36.0,65,24.7,15.2,0,5,4,1,2026-04-12T10:57:07.683992+05:30
Nellore,Andhra Pradesh,14.4426,79.9865,35.5,48,0.0,1006.3,9.35,34.9,57,29.0,20.5,0,5,7,1,2026-04-12T10:57:07.683999+05:30
Kurnool,Andhra Pradesh,15.8281,78.0373,37.2,32,0.0,977.7,9.25,30.6,77,31.9,23.8,0,5,10,1,2026-04-12T10:57:07.684007+05:30
Kakinada,Andhra Pradesh,16.9891,82.2475,35.0,53,0.0,1008.4,9.2,36.7,59,25.8,14.3,0,0,4,1,2026-04-12T10:57:07.684013+05:30
Tirupati,Andhra Pradesh,13.6288,79.4192,33.8,52,0.0,993.0,9.45,34.9,69,30.9,22.0,0,5,7,1,2026-04-12T10:57:07.684019+05:30
Warangal,Telangana,17.9689,79.5941,34.5,52,0.0,979.9,9.1,29.5,101,29.9,21.7,0,5,7,1,2026-04-12T10:57:07.684026+05:30
Nizamabad,Telangana,18.6725,78.0941,37.0,34,0.0,965.9,9.05,25.6,132,48.5,37.4,0,5,10,1,2026-04-12T10:57:07.684032+05:30
Mysore,Karnataka,12.2958,76.6396,31.0,53,0.0,930.0,9.5,37.4,101,39.3,29.5,0,5,7,1,2026-04-12T10:57:07.684038+05:30
Mangalore,Karnataka,12.9141,74.856,29.2,76,0.0,1007.1,9.2,22.3,93,74.3,35.5,7,5,4,1,2026-04-12T10:57:07.684045+05:30
Hubli-Dharwad,Karnataka,15.3647,75.124,33.1,43,0.0,942.3,9.25,37.4,92,43.9,29.3,0,5,7,1,2026-04-12T10:57:07.684051+05:30
Belgaum,Karnataka,15.8497,74.4977,32.6,35,0.0,927.3,9.3,46.1,94,38.6,24.8,0,5,7,0,2026-04-12T10:57:11.028667+05:30
Coimbatore,Tamil Nadu,11.0168,76.9558,31.9,57,0.0,963.3,9.5,38.9,98,38.0,29.0,0,5,7,1,2026-04-12T10:57:11.028696+05:30
Madurai,Tamil Nadu,9.9252,78.1198,33.5,51,0.0,994.2,9.4,32.0,91,32.5,23.0,0,5,7,1,2026-04-12T10:57:11.028706+05:30
Trichy,Tamil Nadu,10.7905,78.7047,32.5,57,0.0,1001.1,9.4,26.3,75,20.6,14.6,0,5,4,1,2026-04-12T10:57:11.028714+05:30
Salem,Tamil Nadu,11.6643,78.146,32.8,56,0.0,978.6,9.45,25.9,83,33.9,22.2,0,5,7,1,2026-04-12T10:57:11.028722+05:30
Tirunelveli,Tamil Nadu,8.7139,77.7567,34.5,48,0.0,1004.0,9.35,40.7,88,30.5,22.4,0,5,4,1,2026-04-12T10:57:11.028729+05:30
Vellore,Tamil Nadu,12.9165,79.1325,33.2,50,0.0,986.0,9.5,32.8,86,32.9,23.9,0,5,7,1,2026-04-12T10:57:11.028735+05:30
Erode,Tamil Nadu,11.341,77.7172,33.8,54,0.0,990.1,9.45,29.2,75,31.1,21.3,0,5,7,1,2026-04-12T10:57:11.028742+05:30
Kochi,Kerala,9.9312,76.2673,29.1,81,0.0,1009.0,9.2,30.6,93,55.3,30.6,7,0,4,1,2026-04-12T10:57:11.028750+05:30
Thiruvananthapuram,Kerala,8.5241,76.9366,28.9,84,0.0,1008.2,9.2,21.6,75,61.2,31.1,7,0,4,1,2026-04-12T10:57:11.028757+05:30
Kozhikode,Kerala,11.2588,75.7804,31.0,70,0.0,1008.2,8.85,31.7,78,65.2,31.4,3,0,4,1,2026-04-12T10:57:11.028764+05:30
Thrissur,Kerala,10.5276,76.2144,32.4,66,0.0,1007.4,9.0,34.9,86,52.6,27.7,3,5,4,1,2026-04-12T10:57:11.028772+05:30
Kannur,Kerala,11.8745,75.3704,31.4,66,0.0,1007.5,9.2,33.5,97,81.0,37.7,3,5,4,1,2026-04-12T10:57:11.028778+05:30
Patna,Bihar,25.5941,85.1376,32.8,34,0.0,1000.6,8.45,40.3,127,178.3,44.6,0,5,4,0,2026-04-12T10:57:11.028785+05:30
Gaya,Bihar,24.7914,85.0002,34.4,28,0.0,994.2,8.55,32.8,106,241.2,45.4,0,5,7,0,2026-04-12T10:57:11.028791+05:30
Muzaffarpur,Bihar,26.1209,85.3647,31.2,45,0.0,1000.5,8.45,40.3,154,133.2,45.8,0,5,4,1,2026-04-12T10:57:11.028798+05:30
Bhagalpur,Bihar,25.2425,87.0117,30.8,49,0.0,1001.0,8.5,32.0,151,136.4,48.8,0,5,4,1,2026-04-12T10:57:11.028804+05:30
Ranchi,Jharkhand,23.3441,85.3096,31.6,25,0.0,939.9,9.1,37.1,86,116.6,23.5,0,5,7,0,2026-04-12T10:57:11.028810+05:30
Jamshedpur,Jharkhand,22.8046,86.2029,32.9,39,0.0,992.3,8.9,19.4,113,227.2,49.1,0,5,7,1,2026-04-12T10:57:11.028816+05:30
Dhanbad,Jharkhand,23.7957,86.4304,34.6,25,0.0,980.6,8.85,37.8,141,264.5,51.9,0,5,7,0,2026-04-12T10:57:11.028823+05:30
Bokaro,Jharkhand,23.6693,86.1511,34.1,25,0.0,984.8,8.85,34.9,132,254.3,49.6,0,5,7,0,2026-04-12T10:57:11.028829+05:30
Bhubaneswar,Odisha,20.2961,85.8245,32.9,70,0.0,1003.9,9.05,33.1,112,49.2,38.0,3,5,4,1,2026-04-12T10:57:11.028836+05:30
Cuttack,Odisha,20.4625,85.8828,34.2,59,0.0,1005.7,9.1,34.9,112,49.2,38.0,0,5,4,1,2026-04-12T10:57:11.028842+05:30
Rourkela,Odisha,22.2604,84.8536,34.2,29,0.0,986.9,8.85,22.0,121,116.4,36.2,0,5,7,0,2026-04-12T10:57:11.028849+05:30
Raipur,Chhattisgarh,21.2514,81.6296,36.0,20,0.0,976.2,8.85,20.9,115,35.6,29.1,0,5,10,0,2026-04-12T10:57:11.028856+05:30
Bhilai,Chhattisgarh,21.1938,81.3509,35.6,23,0.0,976.6,8.9,18.4,124,52.0,43.7,0,5,10,0,2026-04-12T10:57:11.028863+05:30
Guwahati,Assam,26.1158,91.7086,27.2,72,0.0,1001.8,8.35,34.6,109,83.8,40.5,7,5,4,1,2026-04-12T10:57:11.028869+05:30
Agartala,Tripura,23.8315,91.2868,32.2,61,0.0,1005.9,8.6,32.8,105,67.3,45.8,3,5,4,1,2026-04-12T10:57:11.028898+05:30
Shillong,Meghalaya,25.5788,91.8933,19.0,49,0.0,857.0,6.6,67.0,103,101.0,34.6,0,5,7,0,2026-04-12T10:57:11.028905+05:30
Imphal,Manipur,24.817,93.9368,21.7,60,0.0,923.9,8.95,70.2,95,43.1,30.3,0,5,7,0,2026-04-12T10:57:11.028912+05:30
Aizawl,Mizoram,23.7271,92.7176,26.2,42,0.0,894.6,8.85,52.6,92,78.9,25.9,4,5,7,0,2026-04-12T10:57:11.028919+05:30
Kohima,Nagaland,25.6701,94.1077,19.9,48,0.0,855.8,8.9,93.6,89,66.4,26.0,0,5,7,0,2026-04-12T10:57:11.028925+05:30
Gangtok,Sikkim,27.3314,88.6138,15.2,84,0.1,837.0,7.8,13.7,105,51.5,18.3,6,10,7,0,2026-04-12T10:57:11.028932+05:30
Siliguri,West Bengal,26.7271,88.3953,24.5,59,0.0,994.0,7.4,26.6,127,78.7,30.2,0,5,7,0,2026-04-12T10:57:14.375865+05:30
Durgapur,West Bengal,23.5204,87.3119,33.3,38,0.0,995.9,8.8,23.4,150,237.5,50.6,0,5,7,1,2026-04-12T10:57:14.375937+05:30
Asansol,West Bengal,23.6739,86.9524,33.5,36,0.0,994.2,8.85,27.4,132,256.1,51.5,0,5,7,1,2026-04-12T10:57:14.375949+05:30
Pondicherry,Puducherry,11.9139,79.8145,33.1,58,0.0,1009.6,9.35,29.2,55,17.8,10.1,0,0,4,1,2026-04-12T10:57:14.375957+05:30
Port Blair,Andaman and Nicobar Islands,11.6234,92.7265,29.3,79,0.0,1007.3,9.25,14.4,43,33.5,16.9,7,5,4,1,2026-04-12T10:57:14.375969+05:30
Haridwar,Uttarakhand,29.9457,78.1642,28.7,42,0.0,976.0,7.0,34.2,75,86.1,22.5,4,5,7,0,2026-04-12T10:57:14.375977+05:30
Rishikesh,Uttarakhand,30.0869,78.2676,28.3,37,0.0,968.5,7.1,35.3,61,84.8,17.8,4,5,7,0,2026-04-12T10:57:14.375984+05:30
Nainital,Uttarakhand,29.3919,79.4542,22.5,34,0.0,808.2,7.95,52.2,58,84.8,18.9,0,5,7,0,2026-04-12T10:57:14.375991+05:30
Mussoorie,Uttarakhand,30.4599,78.0664,19.7,44,0.0,804.4,7.35,41.0,61,83.4,18.4,0,5,7,0,2026-04-12T10:57:14.375998+05:30
Dharamshala,Himachal Pradesh,32.219,76.3234,21.1,54,0.0,870.8,7.7,23.8,60,17.5,4.4,0,5,7,0,2026-04-12T10:57:14.376004+05:30
Dalhousie,Himachal Pradesh,32.5387,75.971,19.2,45,0.0,805.6,7.95,21.2,64,45.2,13.7,0,5,7,0,2026-04-12T10:57:14.376012+05:30
Patiala,Punjab,30.3398,76.3869,27.7,45,0.0,980.8,6.85,32.0,174,413.5,52.6,4,5,7,0,2026-04-12T10:57:14.376019+05:30
Bhatinda,Punjab,30.211,74.9455,28.9,39,0.0,986.7,7.75,32.4,85,83.1,23.5,4,5,7,0,2026-04-12T10:57:14.376026+05:30
Rohtak,Haryana,28.8955,76.6066,30.0,37,0.0,984.3,7.25,36.0,536,352.0,50.6,4,5,7,0,2026-04-12T10:57:14.376032+05:30
Panipat,Haryana,29.3909,76.9635,29.2,42,0.0,982.8,7.05,33.8,937,661.2,72.2,4,5,7,0,2026-04-12T10:57:14.376038+05:30
Mathura,Uttar Pradesh,27.4924,77.6737,30.9,42,0.0,989.2,7.55,29.5,445,676.1,96.2,0,5,7,1,2026-04-12T10:57:14.376044+05:30
Vrindavan,Uttar Pradesh,27.5823,77.7027,30.7,41,0.0,989.5,7.5,33.1,445,676.1,96.2,0,5,7,0,2026-04-12T10:57:14.376051+05:30
Ayodhya,Uttar Pradesh,26.7922,82.1998,34.0,25,0.0,995.9,7.9,38.2,118,152.3,36.6,0,5,7,0,2026-04-12T10:57:14.376057+05:30
Ratlam,Madhya Pradesh,23.3315,75.0367,32.6,36,0.0,956.4,8.35,25.2,55,35.0,13.7,0,5,7,0,2026-04-12T10:57:14.376063+05:30
Sagar,Madhya Pradesh,23.8388,78.7378,35.7,20,0.0,951.7,8.5,32.8,53,15.8,7.3,0,5,10,0,2026-04-12T10:57:14.376070+05:30
Satna,Madhya Pradesh,24.6005,80.8322,36.6,21,0.0,971.8,8.5,40.0,92,110.6,27.4,0,5,10,0,2026-04-12T10:57:14.376077+05:30
Akola,Maharashtra,20.7002,77.0082,35.8,23,0.0,976.4,8.75,24.1,73,28.5,19.8,0,5,10,0,2026-04-12T10:57:14.376083+05:30
Amravati,Maharashtra,20.9374,77.7796,35.5,24,0.0,968.9,8.75,20.5,74,23.0,14.8,0,5,10,0,2026-04-12T10:57:14.376090+05:30
Latur,Maharashtra,18.4088,76.5604,34.2,26,0.0,941.8,9.05,24.5,82,42.1,30.0,0,5,7,0,2026-04-12T10:57:14.376096+05:30
Nanded,Maharashtra,19.1383,77.3091,35.1,28,0.0,970.2,8.95,14.8,96,38.5,27.3,0,5,10,0,2026-04-12T10:57:14.376102+05:30
Gulbarga,Karnataka,17.3297,76.8343,36.6,35,0.0,959.8,9.1,28.4,90,31.7,24.2,0,5,10,1,2026-04-12T10:57:14.376108+05:30
Bidar,Karnataka,17.9104,77.5199,35.1,37,0.0,937.3,9.1,26.6,88,37.0,26.9,0,5,10,1,2026-04-12T10:57:14.376114+05:30
Hospet,Karnataka,15.2689,76.3909,31.3,59,0.0,956.9,9.3,24.8,97,44.2,34.6,0,5,7,1,2026-04-12T10:57:14.376120+05:30
Tirupur,Tamil Nadu,11.1085,77.3411,33.5,51,0.0,976.6,9.5,31.0,90,36.0,27.4,0,5,7,1,2026-04-12T10:57:14.376126+05:30
Alappuzha,Kerala,9.4981,76.3388,29.3,81,0.0,1009.1,9.2,26.6,93,64.0,35.4,7,0,4,1,2026-04-12T10:57:14.376132+05:30
Munnar,Kerala,10.0889,77.0595,29.1,51,0.0,859.8,9.7,27.7,94,32.1,20.7,4,5,7,1,2026-04-12T10:57:14.376139+05:30
Silchar,Assam,24.8333,92.7789,24.5,79,0.0,1006.5,8.65,49.7,128,68.0,42.7,3,5,4,1,2026-04-12T10:57:14.376145+05:30
Dibrugarh,Assam,27.4728,94.912,22.3,81,0.0,996.9,8.1,33.5,94,56.2,39.5,3,5,7,1,2026-04-12T10:57:14.376151+05:30
