city,state,latitude,longitude,temp,humidity,rain,pressure,uv_index,wind_gusts,aqi,pm10,pm2_5,no2,co,o3,so2,mosquito_risk,arthritis_risk,migraine_risk,frizz_risk,updated_at
Delhi,Delhi,28.6139,77.209,35.0,34,0.0,982.1,7.65,51.8,161,453.6,88.2,18.6,603.0,167.0,27.7,0,5,7,1,2026-05-12T10:07:10.492153+05:30
Mumbai,Maharashtra,19.076,72.8777,33.2,59,0.0,1006.6,7.9,46.8,92,71.5,35.0,21.0,430.0,101.0,41.1,0,5,4,1,2026-05-12T10:07:10.492191+05:30
Bangalore,Karnataka,12.9716,77.5946,29.8,37,0.0,911.7,8.75,39.2,74,27.0,18.2,16.7,594.0,113.0,16.2,4,5,7,0,2026-05-12T10:07:10.492208+05:30
Hyderabad,Telangana,17.385,78.4867,31.8,46,0.0,953.2,8.6,34.9,59,23.3,13.6,5.6,429.0,105.0,5.5,0,5,7,1,2026-05-12T10:07:10.492223+05:30
Chennai,Tamil Nadu,13.0827,80.2707,32.5,58,0.0,1005.3,9.2,41.0,24,7.5,5.0,3.1,143.0,49.0,4.7,0,5,4,1,2026-05-12T10:07:10.492231+05:30
Kolkata,West Bengal,22.5726,88.3639,31.4,60,0.0,1007.2,9.0,25.2,83,25.6,18.4,3.3,306.0,103.0,7.9,0,5,4,1,2026-05-12T10:07:10.492240+05:30
Pune,Maharashtra,18.5204,73.8567,35.1,23,0.0,947.2,8.5,58.0,63,48.2,20.1,9.7,294.0,114.0,16.3,0,5,10,0,2026-05-12T10:07:10.492248+05:30
Ahmedabad,Gujarat,23.0225,72.5714,35.8,32,0.0,1000.3,8.15,30.2,61,34.7,16.4,5.2,281.0,94.0,6.6,0,5,7,1,2026-05-12T10:07:10.492258+05:30
Jaipur,Rajasthan,26.9124,75.7873,35.7,24,0.0,959.0,8.2,54.0,134,275.7,58.2,4.5,383.0,137.0,11.2,0,5,10,0,2026-05-12T10:07:10.492266+05:30
Lucknow,Uttar Pradesh,26.8467,80.9462,33.2,45,0.0,993.8,8.15,32.4,90,55.5,49.7,6.9,448.0,174.0,18.8,0,5,7,1,2026-05-12T10:07:10.492275+05:30
Kanpur,Uttar Pradesh,26.4499,80.3319,35.3,32,0.0,991.7,8.2,32.8,104,178.8,55.2,5.5,417.0,172.0,17.7,0,5,10,0,2026-05-12T10:07:10.492282+05:30
Chandigarh,Chandigarh,30.7333,76.7794,26.4,71,0.0,969.6,7.65,37.1,136,102.2,46.9,4.2,401.0,199.0,12.9,7,5,7,1,2026-05-12T10:07:10.492290+05:30
Srinagar,Jammu and Kashmir,34.0837,74.7973,16.6,68,0.0,843.3,8.5,31.0,93,47.3,25.4,5.7,315.0,114.0,3.9,3,5,7,0,2026-05-12T10:07:10.492298+05:30
Jammu,Jammu and Kashmir,32.7266,74.857,25.1,63,0.0,974.1,8.45,50.8,128,47.1,25.8,10.0,297.0,109.0,3.2,7,5,7,1,2026-05-12T10:07:10.492306+05:30
Amritsar,Punjab,31.634,74.8723,29.8,50,0.0,981.2,8.35,52.9,160,118.0,63.6,4.7,376.0,157.0,18.6,4,5,7,1,2026-05-12T10:07:10.492313+05:30
Ludhiana,Punjab,30.901,75.8573,29.8,54,0.0,978.9,7.95,52.6,163,219.3,66.4,6.9,468.0,160.0,19.1,4,5,7,1,2026-05-12T10:07:10.492322+05:30
Jalandhar,Punjab,31.326,75.5762,29.6,52,0.0,980.2,8.1,57.2,161,134.6,67.8,6.2,544.0,167.0,27.4,4,5,7,1,2026-05-12T10:07:10.492329+05:30
Dehradun,Uttarakhand,30.6284,78.0322,18.8,78,0.1,832.8,8.1,36.0,78,54.0,27.0,1.1,294.0,165.0,3.7,6,5,7,0,2026-05-12T10:07:10.492338+05:30
Shimla,Himachal Pradesh,31.1048,77.1734,18.1,54,0.0,787.2,8.15,34.6,114,66.4,27.4,0.7,288.0,172.0,3.5,0,5,7,0,2026-05-12T10:07:10.492346+05:30
Manali,Himachal Pradesh,32.2396,77.1887,15.7,58,0.1,820.2,8.85,36.7,61,17.3,9.2,5.4,249.0,136.0,0.7,3,5,7,0,2026-05-12T10:07:10.492353+05:30
Gurgaon,Haryana,28.4595,77.0266,34.5,36,0.0,980.4,7.8,43.6,521,1337.4,159.7,13.1,501.0,151.0,18.1,0,5,7,1,2026-05-12T10:07:10.492360+05:30
Noida,Uttar Pradesh,28.5355,77.391,34.2,39,0.0,983.7,7.7,54.0,521,1337.4,159.7,13.1,507.0,151.0,18.1,0,5,7,1,2026-05-12T10:07:10.492367+05:30
Ghaziabad,Uttar Pradesh,28.6692,77.4538,34.0,40,0.0,982.2,7.65,56.9,155,305.5,68.7,7.3,374.0,153.0,14.7,0,5,7,1,2026-05-12T10:07:10.492374+05:30
Faridabad,Haryana,28.4089,77.3178,34.0,37,0.0,983.0,7.7,58.7,521,1337.4,159.7,13.1,470.0,151.0,18.1,0,5,7,1,2026-05-12T10:07:10.492381+05:30
Meerut,Uttar Pradesh,28.9845,77.7064,31.7,52,0.0,981.4,7.6,46.8,155,305.5,68.7,7.3,403.0,153.0,14.7,0,5,7,1,2026-05-12T10:07:10.492388+05:30
Agra,Uttar Pradesh,27.1767,78.0081,35.0,34,0.0,987.2,8.05,37.4,345,538.3,68.2,5.6,409.0,148.0,10.6,0,5,7,1,2026-05-12T10:07:10.492395+05:30
Varanasi,Uttar Pradesh,25.3176,82.9739,34.8,42,0.0,996.8,8.7,30.2,126,71.0,53.3,6.4,438.0,173.0,29.3,0,5,7,1,2026-05-12T10:07:10.492403+05:30
Prayagraj,Uttar Pradesh,25.4358,81.8463,35.4,38,0.0,995.3,8.55,30.6,111,59.5,50.2,6.5,453.0,178.0,25.6,0,5,10,1,2026-05-12T10:07:10.492412+05:30
Gorakhpur,Uttar Pradesh,26.7606,83.3732,29.7,58,0.0,998.7,8.5,44.3,108,54.4,49.9,4.6,392.0,165.0,15.5,4,5,7,1,2026-05-12T10:07:10.492419+05:30
Bareilly,Uttar Pradesh,28.367,79.4304,32.3,45,0.0,987.9,7.95,40.3,125,66.8,38.1,4.9,367.0,161.0,9.3,0,5,7,1,2026-05-12T10:07:10.492426+05:30
Aligarh,Uttar Pradesh,27.8974,78.088,34.1,37,0.0,985.3,7.85,37.1,208,465.7,75.0,5.4,379.0,148.0,16.2,0,5,7,1,2026-05-12T10:07:10.492433+05:30
Moradabad,Uttar Pradesh,28.8386,78.7733,31.7,49,0.0,984.7,7.8,42.8,149,55.6,43.2,6.7,377.0,156.0,10.5,0,5,7,1,2026-05-12T10:07:10.492440+05:30
Saharanpur,Uttar Pradesh,29.9637,77.546,28.4,63,0.0,977.4,7.4,40.7,133,82.7,48.7,6.0,378.0,170.0,12.9,7,5,7,1,2026-05-12T10:07:10.492446+05:30
Jhansi,Uttar Pradesh,25.4484,78.5685,36.2,30,0.0,977.4,8.45,26.6,109,50.6,28.8,3.0,335.0,154.0,16.1,0,5,10,0,2026-05-12T10:07:13.849127+05:30
Surat,Gujarat,21.1702,72.8311,37.7,23,0.0,1004.8,7.75,36.0,95,64.3,43.9,44.2,268.0,53.0,121.0,0,5,7,0,2026-05-12T10:07:13.849153+05:30
Vadodara,Gujarat,22.3072,73.1812,36.5,33,0.0,1002.5,8.1,27.4,78,34.6,19.8,8.3,322.0,112.0,10.7,0,5,7,1,2026-05-12T10:07:13.849162+05:30
Rajkot,Gujarat,22.3039,70.8022,33.4,50,0.0,992.8,7.75,50.0,52,39.1,13.7,3.6,163.0,86.0,5.6,0,5,7,1,2026-05-12T10:07:13.849170+05:30
Thane,Maharashtra,19.2183,72.9781,34.8,50,0.0,1005.9,7.9,42.5,92,71.5,35.0,21.0,372.0,101.0,41.1,0,5,4,1,2026-05-12T10:07:13.849176+05:30
Nagpur,Maharashtra,21.1458,79.0882,36.8,30,0.0,972.7,8.95,34.9,116,47.0,34.7,12.7,308.0,178.0,34.5,0,5,10,1,2026-05-12T10:07:13.849183+05:30
Nashik,Maharashtra,19.9975,73.7898,35.2,28,0.0,945.0,8.2,47.9,66,45.5,19.8,3.8,233.0,117.0,7.0,0,5,10,0,2026-05-12T10:07:13.849190+05:30
Aurangabad,Maharashtra,19.8762,75.3433,37.4,19,0.0,943.4,9.05,38.2,65,23.7,15.1,4.1,337.0,150.0,14.1,0,5,10,0,2026-05-12T10:07:13.849196+05:30
Solapur,Maharashtra,17.6599,75.9064,35.8,32,0.0,955.9,8.8,39.2,68,29.7,19.9,4.0,283.0,129.0,9.2,0,5,10,1,2026-05-12T10:07:13.849203+05:30
Kolhapur,Maharashtra,16.705,74.2433,32.8,39,0.0,947.3,7.95,57.2,73,50.4,23.8,4.9,219.0,93.0,3.1,0,5,7,1,2026-05-12T10:07:13.849210+05:30
Goa,Goa,15.2993,74.124,33.5,59,0.0,996.2,8.75,34.9,80,54.2,20.8,1.5,178.0,84.0,2.2,0,5,7,1,2026-05-12T10:07:13.849216+05:30
Jodhpur,Rajasthan,26.2389,73.0243,37.1,28,0.0,981.6,8.05,43.9,113,240.3,56.8,2.4,179.0,107.0,2.6,0,5,10,0,2026-05-12T10:07:13.849223+05:30
Udaipur,Rajasthan,24.5854,73.7125,38.3,15,0.0,946.2,8.85,34.9,41,23.2,10.0,2.3,192.0,126.0,4.6,0,5,10,0,2026-05-12T10:07:13.849230+05:30
Kota,Rajasthan,25.2138,75.8648,38.8,19,0.0,977.8,8.4,38.9,99,82.4,42.5,3.4,349.0,146.0,16.1,0,5,10,0,2026-05-12T10:07:13.849236+05:30
Bikaner,Rajasthan,28.0229,73.3119,38.0,24,0.0,979.5,8.3,41.4,78,68.0,25.4,1.7,231.0,108.0,6.1,0,5,10,0,2026-05-12T10:07:13.849243+05:30
Ajmer,Rajasthan,26.4499,74.6399,36.0,23,0.0,954.2,8.35,54.4,73,78.7,21.0,3.3,215.0,106.0,3.1,0,5,10,0,2026-05-12T10:07:13.849249+05:30
Gwalior,Madhya Pradesh,26.2183,78.1828,35.7,31,0.0,982.4,8.25,49.7,114,53.1,27.3,2.7,338.0,149.0,10.5,0,5,10,1,2026-05-12T10:07:13.849256+05:30
Indore,Madhya Pradesh,22.7196,75.8577,38.5,18,0.0,947.8,8.7,37.8,77,73.6,30.4,3.7,345.0,145.0,9.0,0,5,10,0,2026-05-12T10:07:13.849262+05:30
Bhopal,Madhya Pradesh,23.2599,77.4126,37.2,24,0.0,953.6,8.7,33.8,90,68.5,31.8,2.2,385.0,160.0,7.5,0,5,10,0,2026-05-12T10:07:13.849268+05:30
Jabalpur,Madhya Pradesh,23.1815,79.9864,36.8,26,0.0,961.0,8.9,38.2,91,74.0,41.9,4.6,304.0,172.0,19.0,0,5,10,0,2026-05-12T10:07:13.849274+05:30
Ujjain,Madhya Pradesh,23.1765,75.7885,39.2,15,0.0,953.4,8.6,33.5,82,87.1,32.7,3.6,287.0,134.0,9.6,0,5,10,0,2026-05-12T10:07:13.849281+05:30
Visakhapatnam,Andhra Pradesh,17.6868,83.2185,32.8,56,0.0,1003.1,8.8,38.2,64,19.6,14.9,21.6,833.0,45.0,21.1,0,5,4,1,2026-05-12T10:07:13.849287+05:30
Vijayawada,Andhra Pradesh,16.5062,80.648,33.9,51,0.0,1001.5,9.15,40.0,55,16.6,11.1,2.4,157.0,80.0,6.6,0,5,4,1,2026-05-12T10:07:13.849294+05:30
Guntur,Andhra Pradesh,16.3067,80.4365,34.2,51,0.0,1002.6,9.2,38.2,56,15.9,11.5,2.5,168.0,81.0,7.4,0,5,4,1,2026-05-12T10:07:13.849300+05:30
Nellore,Andhra Pradesh,14.4426,79.9865,33.3,56,0.0,1004.3,9.15,38.9,30,10.9,6.2,1.0,114.0,63.0,2.6,0,5,4,1,2026-05-12T10:07:13.849308+05:30
Kurnool,Andhra Pradesh,15.8281,78.0373,34.9,36,0.0,976.2,8.9,40.7,52,16.1,8.7,2.0,165.0,92.0,4.7,0,5,7,1,2026-05-12T10:07:13.849315+05:30
Kakinada,Andhra Pradesh,16.9891,82.2475,31.9,61,0.0,1006.7,9.1,41.4,25,12.5,7.9,4.3,245.0,66.0,3.3,3,5,4,1,2026-05-12T10:07:13.849321+05:30
Tirupati,Andhra Pradesh,13.6288,79.4192,32.4,50,0.0,989.8,9.25,39.2,54,12.0,7.9,0.9,140.0,76.0,2.5,0,5,7,1,2026-05-12T10:07:13.849327+05:30
Warangal,Telangana,17.9689,79.5941,32.8,54,0.0,978.4,8.65,41.0,63,15.7,11.9,4.8,174.0,77.0,10.8,0,5,7,1,2026-05-12T10:07:13.849334+05:30
Nizamabad,Telangana,18.6725,78.0941,35.3,34,0.0,964.1,9.15,31.0,68,26.4,19.6,4.8,226.0,127.0,6.8,0,5,10,1,2026-05-12T10:07:13.849340+05:30
Mysore,Karnataka,12.2958,76.6396,29.8,50,0.0,928.0,8.95,34.9,83,32.5,26.8,7.7,371.0,126.0,3.4,4,5,7,1,2026-05-12T10:07:13.849346+05:30
Mangalore,Karnataka,12.9141,74.856,31.6,70,0.0,1004.5,8.7,36.0,88,44.1,23.9,4.2,225.0,113.0,3.1,3,5,4,1,2026-05-12T10:07:13.849352+05:30
Hubli-Dharwad,Karnataka,15.3647,75.124,32.2,46,0.0,940.3,9.15,44.6,70,43.2,19.7,3.1,223.0,103.0,2.6,0,5,7,1,2026-05-12T10:07:13.849359+05:30
Belgaum,Karnataka,15.8497,74.4977,31.2,42,0.0,925.7,8.45,38.5,69,49.9,19.6,3.3,196.0,100.0,3.6,0,5,7,1,2026-05-12T10:07:17.203885+05:30
Coimbatore,Tamil Nadu,11.0168,76.9558,29.9,66,0.0,960.5,8.55,27.7,72,30.4,20.3,3.9,405.0,148.0,8.2,7,5,7,1,2026-05-12T10:07:17.203919+05:30
Madurai,Tamil Nadu,9.9252,78.1198,31.9,61,0.0,991.2,8.75,37.8,81,26.9,24.2,6.4,315.0,127.0,14.3,3,5,7,1,2026-05-12T10:07:17.203932+05:30
Trichy,Tamil Nadu,10.7905,78.7047,31.8,63,0.0,997.8,8.75,31.3,68,20.4,17.7,5.7,261.0,87.0,22.1,3,5,7,1,2026-05-12T10:07:17.203942+05:30
Salem,Tamil Nadu,11.6643,78.146,30.5,62,0.0,976.0,7.55,32.4,87,29.7,25.7,8.6,246.0,131.0,25.0,3,5,7,1,2026-05-12T10:07:17.203952+05:30
Tirunelveli,Tamil Nadu,8.7139,77.7567,33.8,51,0.0,1001.0,9.0,36.7,64,23.1,19.3,3.4,246.0,122.0,1.6,0,5,4,1,2026-05-12T10:07:17.203961+05:30
Vellore,Tamil Nadu,12.9165,79.1325,31.3,55,0.0,983.1,9.1,30.6,69,15.0,10.9,3.8,171.0,85.0,11.0,0,5,7,1,2026-05-12T10:07:17.203970+05:30
Erode,Tamil Nadu,11.341,77.7172,30.8,66,0.0,987.6,9.15,21.6,89,36.9,30.0,8.8,317.0,148.0,4.1,3,5,7,1,2026-05-12T10:07:17.203978+05:30
Kochi,Kerala,9.9312,76.2673,30.2,79,0.0,1006.9,8.5,32.4,84,26.8,22.5,6.3,278.0,99.0,3.0,3,5,4,1,2026-05-12T10:07:17.203986+05:30
Thiruvananthapuram,Kerala,8.5241,76.9366,30.4,74,0.0,1006.1,8.65,36.7,50,24.0,20.5,4.9,285.0,115.0,4.5,3,5,4,1,2026-05-12T10:07:17.203994+05:30
Kozhikode,Kerala,11.2588,75.7804,31.2,68,0.0,1005.5,8.5,37.1,60,29.4,18.9,1.9,276.0,110.0,2.7,3,5,4,1,2026-05-12T10:07:17.204003+05:30
Thrissur,Kerala,10.5276,76.2144,30.7,72,0.0,1005.1,8.75,34.6,83,27.6,22.4,3.8,289.0,101.0,2.4,3,5,4,1,2026-05-12T10:07:17.204012+05:30
Kannur,Kerala,11.8745,75.3704,32.3,61,0.0,1004.8,8.95,46.1,71,33.9,20.3,3.7,281.0,110.0,2.2,3,5,4,1,2026-05-12T10:07:17.204020+05:30
Patna,Bihar,25.5941,85.1376,29.5,66,0.0,1001.5,8.7,40.7,123,49.0,45.3,6.2,338.0,156.0,19.1,7,5,4,1,2026-05-12T10:07:17.204029+05:30
Gaya,Bihar,24.7914,85.0002,33.2,50,0.0,993.9,8.65,38.9,107,60.1,41.4,8.7,340.0,156.0,37.0,0,5,7,1,2026-05-12T10:07:17.204037+05:30
Muzaffarpur,Bihar,26.1209,85.3647,28.1,70,0.0,1002.0,8.75,40.3,117,46.1,42.6,5.2,345.0,154.0,12.7,7,5,4,1,2026-05-12T10:07:17.204045+05:30
Bhagalpur,Bihar,25.2425,87.0117,27.5,70,0.0,1003.5,8.1,36.0,135,41.3,37.6,8.1,332.0,133.0,12.8,7,5,4,1,2026-05-12T10:07:17.204053+05:30
Ranchi,Jharkhand,23.3441,85.3096,29.0,61,0.0,939.0,9.1,33.5,124,53.7,38.2,3.2,235.0,159.0,33.7,7,5,7,1,2026-05-12T10:07:17.204061+05:30
Jamshedpur,Jharkhand,22.8046,86.2029,33.3,50,0.0,991.7,9.1,40.0,72,32.0,26.3,11.1,494.0,112.0,40.6,0,5,7,1,2026-05-12T10:07:17.204070+05:30
Dhanbad,Jharkhand,23.7957,86.4304,32.3,53,0.0,980.8,8.95,28.4,113,53.6,45.4,33.2,628.0,80.0,77.1,0,5,7,1,2026-05-12T10:07:17.204078+05:30
Bokaro,Jharkhand,23.6693,86.1511,32.7,54,0.0,984.5,8.9,30.2,126,61.7,47.6,31.7,1034.0,113.0,82.8,0,5,7,1,2026-05-12T10:07:17.204087+05:30
Bhubaneswar,Odisha,20.2961,85.8245,32.3,59,0.0,1003.4,9.15,32.0,66,19.4,12.5,1.7,201.0,80.0,4.8,0,5,4,1,2026-05-12T10:07:17.204095+05:30
Cuttack,Odisha,20.4625,85.8828,32.2,61,0.0,1005.2,9.2,31.3,66,19.4,12.5,1.7,189.0,80.0,4.8,3,5,4,1,2026-05-12T10:07:17.204103+05:30
Rourkela,Odisha,22.2604,84.8536,33.0,51,0.0,985.7,9.05,34.2,107,37.3,30.7,5.3,212.0,112.0,50.1,0,5,7,1,2026-05-12T10:07:17.204111+05:30
Raipur,Chhattisgarh,21.2514,81.6296,34.8,40,0.0,974.6,9.0,31.7,107,47.3,33.6,21.3,664.0,186.0,8.6,0,5,7,1,2026-05-12T10:07:17.204120+05:30
Bhilai,Chhattisgarh,21.1938,81.3509,34.2,44,0.0,974.9,9.0,32.0,100,37.7,28.4,24.2,905.0,149.0,7.8,0,5,7,1,2026-05-12T10:07:17.204129+05:30
Guwahati,Assam,26.1158,91.7086,28.0,67,0.0,1003.7,8.65,23.4,81,28.6,23.6,1.1,317.0,133.0,1.8,7,5,4,1,2026-05-12T10:07:17.204137+05:30
Agartala,Tripura,23.8315,91.2868,28.6,70,0.1,1008.3,8.85,19.8,89,30.9,26.7,5.1,240.0,131.0,2.1,10,0,4,1,2026-05-12T10:07:17.204146+05:30
Shillong,Meghalaya,25.5788,91.8933,22.6,53,0.0,859.5,6.5,22.3,70,25.0,18.5,0.7,431.0,144.0,1.1,0,5,7,0,2026-05-12T10:07:17.204155+05:30
Imphal,Manipur,24.817,93.9368,24.7,62,0.0,925.2,9.2,20.9,82,27.9,20.8,0.3,300.0,133.0,1.6,3,5,7,1,2026-05-12T10:07:17.204164+05:30
Aizawl,Mizoram,23.7271,92.7176,24.2,54,0.0,894.8,9.05,23.4,70,19.5,15.9,0.6,295.0,106.0,0.4,0,5,7,0,2026-05-12T10:07:17.204172+05:30
Kohima,Nagaland,25.6701,94.1077,22.5,54,0.0,857.6,7.4,29.9,57,22.1,16.2,0.2,257.0,131.0,1.1,0,5,7,0,2026-05-12T10:07:17.204181+05:30
Gangtok,Sikkim,27.3314,88.6138,20.1,62,0.0,840.1,9.05,37.8,75,31.5,19.4,0.6,279.0,139.0,1.5,3,5,7,0,2026-05-12T10:07:17.204190+05:30
Siliguri,West Bengal,26.7271,88.3953,26.3,69,0.0,996.0,8.55,24.8,111,55.5,36.6,0.6,405.0,148.0,2.5,7,5,7,1,2026-05-12T10:07:20.565312+05:30
Durgapur,West Bengal,23.5204,87.3119,30.5,70,0.0,996.3,9.0,28.1,103,31.2,27.2,17.0,205.0,70.0,38.1,3,5,7,1,2026-05-12T10:07:20.565347+05:30
Asansol,West Bengal,23.6739,86.9524,31.6,62,0.0,994.7,8.9,29.9,94,37.5,31.9,18.9,434.0,67.0,42.7,3,5,7,1,2026-05-12T10:07:20.565360+05:30
Pondicherry,Puducherry,11.9139,79.8145,30.1,74,0.0,1006.4,8.35,33.5,35,13.2,10.9,10.7,190.0,47.0,12.6,3,5,4,1,2026-05-12T10:07:20.565371+05:30
Port Blair,Andaman and Nicobar Islands,11.6234,92.7265,30.2,73,0.0,1006.0,3.9,35.6,25,7.1,5.0,0.5,116.0,53.0,0.1,3,5,0,1,2026-05-12T10:07:20.565381+05:30
Haridwar,Uttarakhand,29.9457,78.1642,31.7,48,0.0,975.1,7.3,29.5,114,85.2,45.2,3.2,332.0,169.0,10.6,0,5,7,1,2026-05-12T10:07:20.565391+05:30
Rishikesh,Uttarakhand,30.0869,78.2676,30.9,48,0.0,968.1,7.45,30.2,108,98.7,42.4,1.5,295.0,174.0,8.1,0,5,7,1,2026-05-12T10:07:20.565400+05:30
Nainital,Uttarakhand,29.3919,79.4542,17.2,72,0.0,808.3,8.45,34.6,113,63.6,36.1,1.0,287.0,163.0,3.9,3,5,7,0,2026-05-12T10:07:20.565409+05:30
Mussoorie,Uttarakhand,30.4599,78.0664,17.2,74,0.1,805.5,7.95,43.2,104,94.5,44.1,1.9,312.0,182.0,10.8,6,5,7,0,2026-05-12T10:07:20.565419+05:30
Dharamshala,Himachal Pradesh,32.219,76.3234,20.1,69,0.1,870.8,8.35,41.0,87,53.0,19.3,1.1,250.0,132.0,1.4,6,5,7,0,2026-05-12T10:07:20.565429+05:30
Dalhousie,Himachal Pradesh,32.5387,75.971,14.3,72,0.0,804.6,8.5,50.0,140,85.9,37.4,6.2,303.0,135.0,2.2,3,5,7,0,2026-05-12T10:07:20.565439+05:30
Patiala,Punjab,30.3398,76.3869,28.8,56,0.0,978.5,7.6,58.7,295,735.7,105.0,5.5,390.0,165.0,13.7,4,5,7,1,2026-05-12T10:07:20.565449+05:30
Bhatinda,Punjab,30.211,74.9455,34.2,42,0.0,982.1,8.2,41.8,203,346.5,79.9,4.3,446.0,163.0,20.7,0,5,7,1,2026-05-12T10:07:20.565460+05:30
Rohtak,Haryana,28.8955,76.6066,35.3,35,0.0,980.2,7.7,49.0,233,696.6,112.7,13.7,452.0,165.0,23.6,0,5,10,1,2026-05-12T10:07:20.565469+05:30
Panipat,Haryana,29.3909,76.9635,33.3,46,0.0,979.9,7.55,58.0,475,1233.1,150.4,11.6,416.0,168.0,23.9,0,5,7,1,2026-05-12T10:07:20.565480+05:30
Mathura,Uttar Pradesh,27.4924,77.6737,34.7,35,0.0,986.2,7.95,41.0,357,635.2,81.5,5.8,405.0,146.0,9.0,0,5,7,1,2026-05-12T10:07:20.565490+05:30
Vrindavan,Uttar Pradesh,27.5823,77.7027,34.8,34,0.0,986.6,7.95,33.8,357,635.2,81.5,5.8,407.0,146.0,9.0,0,5,7,1,2026-05-12T10:07:20.565499+05:30
Ayodhya,Uttar Pradesh,26.7922,82.1998,30.9,53,0.0,996.3,8.3,41.0,106,53.9,48.9,4.4,495.0,167.0,16.3,0,5,7,1,2026-05-12T10:07:20.565509+05:30
Ratlam,Madhya Pradesh,23.3315,75.0367,38.2,17,0.0,954.4,8.55,28.4,67,65.4,23.2,2.6,239.0,128.0,7.7,0,5,10,0,2026-05-12T10:07:20.565518+05:30
Sagar,Madhya Pradesh,23.8388,78.7378,36.1,26,0.0,950.5,8.75,29.9,94,64.3,31.5,2.3,278.0,173.0,10.9,0,5,10,0,2026-05-12T10:07:20.565525+05:30
Satna,Madhya Pradesh,24.6005,80.8322,35.7,29,0.0,971.0,8.75,36.4,94,62.4,39.5,3.2,373.0,175.0,14.7,0,5,10,0,2026-05-12T10:07:20.565532+05:30
Akola,Maharashtra,20.7002,77.0082,38.0,28,0.0,973.6,8.9,35.6,83,28.9,21.8,6.6,282.0,145.0,11.7,0,5,10,1,2026-05-12T10:07:20.565540+05:30
Amravati,Maharashtra,20.9374,77.7796,36.8,29,0.0,966.9,8.9,40.0,85,27.5,21.0,6.7,261.0,143.0,7.0,0,5,10,1,2026-05-12T10:07:20.565547+05:30
Latur,Maharashtra,18.4088,76.5604,36.0,30,0.0,939.0,9.0,35.3,66,26.8,18.2,4.3,235.0,130.0,11.3,0,5,10,0,2026-05-12T10:07:20.565555+05:30
Nanded,Maharashtra,19.1383,77.3091,37.4,28,0.0,967.3,9.05,33.8,68,25.6,17.5,5.2,253.0,136.0,9.7,0,5,10,1,2026-05-12T10:07:20.565562+05:30
Gulbarga,Karnataka,17.3297,76.8343,35.8,31,0.0,957.7,8.85,34.9,59,24.7,17.6,5.4,232.0,124.0,9.8,0,5,10,1,2026-05-12T10:07:20.565568+05:30
Bidar,Karnataka,17.9104,77.5199,34.3,33,0.0,935.5,9.15,36.7,63,19.9,13.5,4.4,206.0,121.0,6.2,0,5,7,0,2026-05-12T10:07:20.565576+05:30
Hospet,Karnataka,15.2689,76.3909,30.9,63,0.0,955.3,9.15,28.4,67,36.9,20.3,3.9,212.0,106.0,3.7,3,5,7,1,2026-05-12T10:07:20.565583+05:30
Tirupur,Tamil Nadu,11.1085,77.3411,31.0,58,0.0,973.9,9.0,28.1,88,39.2,30.4,9.4,365.0,158.0,9.2,0,5,7,1,2026-05-12T10:07:20.565590+05:30
Alappuzha,Kerala,9.4981,76.3388,30.8,73,0.0,1006.9,8.15,32.8,69,27.4,23.1,6.9,312.0,110.0,4.9,3,5,4,1,2026-05-12T10:07:20.565618+05:30
Munnar,Kerala,10.0889,77.0595,24.2,43,0.0,857.3,7.85,20.9,76,26.4,18.5,1.6,215.0,126.0,1.7,0,5,7,0,2026-05-12T10:07:20.565626+05:30
Silchar,Assam,24.8333,92.7789,29.2,63,0.0,1006.9,8.85,20.9,101,35.0,28.8,1.1,338.0,151.0,5.5,7,5,4,1,2026-05-12T10:07:20.565633+05:30
Dibrugarh,Assam,27.4728,94.912,27.9,59,0.0,997.2,8.8,19.1,84,20.4,14.5,0.2,252.0,136.0,1.6,4,5,7,1,2026-05-12T10:07:20.565640+05:30
