city,state,latitude,longitude,temp,humidity,rain,pressure,uv_index,wind_gusts,aqi,pm10,pm2_5,mosquito_risk,arthritis_risk,migraine_risk,frizz_risk,updated_at
Delhi,Delhi,28.6139,77.209,39.5,16,0.0,984.4,7.4,47.9,340,254.3,64.0,0,5,10,0,2026-04-25T10:44:58.912870+05:30
Mumbai,Maharashtra,19.076,72.8777,35.9,32,0.0,1009.0,8.0,42.8,79,39.2,26.1,0,0,7,1,2026-04-25T10:44:58.912910+05:30
Bangalore,Karnataka,12.9716,77.5946,32.0,28,0.0,914.9,8.95,38.5,74,27.0,21.4,0,5,7,0,2026-04-25T10:44:58.912926+05:30
Hyderabad,Telangana,17.385,78.4867,35.7,26,0.0,956.1,9.3,36.4,122,49.4,40.7,0,5,10,0,2026-04-25T10:44:58.912937+05:30
Chennai,Tamil Nadu,13.0827,80.2707,34.5,52,0.0,1008.8,8.95,48.6,30,12.6,8.8,0,0,4,1,2026-04-25T10:44:58.912946+05:30
Kolkata,West Bengal,22.5726,88.3639,35.9,51,0.0,1007.2,8.55,41.0,79,45.2,35.4,0,5,7,1,2026-04-25T10:44:58.912958+05:30
Pune,Maharashtra,18.5204,73.8567,36.4,15,0.0,950.8,8.35,32.8,101,27.9,19.9,0,5,10,0,2026-04-25T10:44:58.912967+05:30
Ahmedabad,Gujarat,23.0225,72.5714,35.9,33,0.0,1003.7,8.2,24.1,61,64.7,19.4,0,5,7,1,2026-04-25T10:44:58.912974+05:30
Jaipur,Rajasthan,26.9124,75.7873,38.8,14,0.0,962.6,8.05,26.3,125,272.9,49.8,0,5,10,0,2026-04-25T10:44:58.912982+05:30
Lucknow,Uttar Pradesh,26.8467,80.9462,39.3,14,0.0,993.8,7.9,38.9,125,183.9,50.4,0,5,10,0,2026-04-25T10:44:58.912990+05:30
Kanpur,Uttar Pradesh,26.4499,80.3319,40.2,16,0.0,991.9,7.9,43.6,140,257.0,44.4,0,5,10,0,2026-04-25T10:44:58.912997+05:30
Chandigarh,Chandigarh,30.7333,76.7794,38.8,15,0.0,970.1,7.3,52.2,67,77.1,19.8,0,5,10,0,2026-04-25T10:44:58.913005+05:30
Srinagar,Jammu and Kashmir,34.0837,74.7973,15.4,71,0.0,848.1,8.55,36.4,71,61.0,15.9,3,5,7,0,2026-04-25T10:44:58.913012+05:30
Jammu,Jammu and Kashmir,32.7266,74.857,36.2,21,0.0,974.5,8.2,43.9,77,75.0,22.0,0,5,10,0,2026-04-25T10:44:58.913022+05:30
Amritsar,Punjab,31.634,74.8723,36.2,22,0.0,982.3,8.1,37.1,84,118.7,35.5,0,5,10,0,2026-04-25T10:44:58.913029+05:30
Ludhiana,Punjab,30.901,75.8573,36.8,22,0.0,980.2,7.7,46.8,76,107.6,30.7,0,5,10,0,2026-04-25T10:44:58.913037+05:30
Jalandhar,Punjab,31.326,75.5762,36.0,23,0.0,981.1,7.9,38.2,85,131.8,37.0,0,5,10,0,2026-04-25T10:44:58.913044+05:30
Dehradun,Uttarakhand,30.6284,78.0322,26.7,28,0.0,836.4,7.85,49.0,54,30.2,9.7,4,5,7,0,2026-04-25T10:44:58.913050+05:30
Shimla,Himachal Pradesh,31.1048,77.1734,23.4,24,0.0,791.5,7.5,58.0,56,60.3,12.9,0,5,7,0,2026-04-25T10:44:58.913058+05:30
Manali,Himachal Pradesh,32.2396,77.1887,21.5,31,0.0,823.5,8.05,43.9,63,33.8,9.6,0,5,7,0,2026-04-25T10:44:58.913064+05:30
Gurgaon,Haryana,28.4595,77.0266,37.8,19,0.0,983.1,7.55,49.7,868,648.2,101.0,0,5,10,0,2026-04-25T10:44:58.913072+05:30
Noida,Uttar Pradesh,28.5355,77.391,39.5,17,0.0,985.6,7.45,38.5,868,648.2,101.0,0,5,10,0,2026-04-25T10:44:58.913078+05:30
Ghaziabad,Uttar Pradesh,28.6692,77.4538,39.7,16,0.0,983.9,7.4,43.6,175,155.5,47.8,0,5,10,0,2026-04-25T10:44:58.913084+05:30
Faridabad,Haryana,28.4089,77.3178,39.2,16,0.0,984.9,7.45,51.8,868,648.2,101.0,0,5,10,0,2026-04-25T10:44:58.913090+05:30
Meerut,Uttar Pradesh,28.9845,77.7064,35.7,31,0.0,982.7,7.35,38.2,175,155.5,47.8,0,5,10,0,2026-04-25T10:44:58.913096+05:30
Agra,Uttar Pradesh,27.1767,78.0081,39.7,18,0.0,988.9,7.8,40.3,249,797.2,127.6,0,5,10,0,2026-04-25T10:44:58.913104+05:30
Varanasi,Uttar Pradesh,25.3176,82.9739,39.9,12,0.0,998.1,8.5,39.2,125,143.4,38.8,0,5,10,0,2026-04-25T10:44:58.913111+05:30
Prayagraj,Uttar Pradesh,25.4358,81.8463,39.5,16,0.0,996.9,8.4,34.9,94,132.7,34.5,0,5,10,0,2026-04-25T10:44:58.913118+05:30
Gorakhpur,Uttar Pradesh,26.7606,83.3732,36.7,42,0.0,998.2,8.35,46.4,153,105.9,67.3,0,5,10,1,2026-04-25T10:44:58.913127+05:30
Bareilly,Uttar Pradesh,28.367,79.4304,37.7,24,0.0,987.4,7.7,42.5,118,88.2,35.9,0,5,10,0,2026-04-25T10:44:58.913133+05:30
Aligarh,Uttar Pradesh,27.8974,78.088,39.7,17,0.0,986.8,7.6,43.9,342,363.2,72.6,0,5,10,0,2026-04-25T10:44:58.913140+05:30
Moradabad,Uttar Pradesh,28.8386,78.7733,35.5,28,0.0,984.5,7.5,45.4,157,64.5,48.3,0,5,10,0,2026-04-25T10:44:58.913146+05:30
Saharanpur,Uttar Pradesh,29.9637,77.546,34.8,29,0.0,977.0,7.05,56.5,100,44.4,26.5,0,5,7,0,2026-04-25T10:44:58.913152+05:30
Jhansi,Uttar Pradesh,25.4484,78.5685,40.3,15,0.0,979.4,8.3,33.5,55,53.9,15.5,0,5,10,0,2026-04-25T10:45:03.120067+05:30
Surat,Gujarat,21.1702,72.8311,38.2,26,0.0,1007.6,7.85,37.4,99,61.7,39.9,0,5,7,0,2026-04-25T10:45:03.120095+05:30
Vadodara,Gujarat,22.3072,73.1812,36.8,28,0.0,1005.7,8.15,31.3,80,56.8,24.0,0,5,7,0,2026-04-25T10:45:03.120104+05:30
Rajkot,Gujarat,22.3039,70.8022,35.7,36,0.0,996.1,7.9,37.1,45,61.2,17.1,0,5,10,1,2026-04-25T10:45:03.120112+05:30
Thane,Maharashtra,19.2183,72.9781,39.0,21,0.0,1008.1,8.0,41.4,79,39.2,26.1,0,0,7,0,2026-04-25T10:45:03.120119+05:30
Nagpur,Maharashtra,21.1458,79.0882,39.8,13,0.0,975.2,8.9,45.7,95,32.8,26.5,0,5,10,0,2026-04-25T10:45:03.120126+05:30
Nashik,Maharashtra,19.9975,73.7898,37.9,14,0.0,948.3,8.25,32.4,79,28.7,13.6,0,5,10,0,2026-04-25T10:45:03.120132+05:30
Aurangabad,Maharashtra,19.8762,75.3433,38.3,13,0.0,947.1,8.95,35.6,71,32.5,14.8,0,5,10,0,2026-04-25T10:45:03.120139+05:30
Solapur,Maharashtra,17.6599,75.9064,38.1,19,0.0,959.3,8.8,37.4,116,49.4,40.5,0,5,10,0,2026-04-25T10:45:03.120146+05:30
Kolhapur,Maharashtra,16.705,74.2433,36.5,22,0.0,950.2,9.05,35.6,150,52.0,44.9,0,5,10,0,2026-04-25T10:45:03.120152+05:30
Goa,Goa,15.2993,74.124,36.2,48,0.0,998.0,9.0,33.1,76,29.9,23.9,0,5,10,1,2026-04-25T10:45:03.120158+05:30
Jodhpur,Rajasthan,26.2389,73.0243,37.8,23,0.0,985.0,8.3,28.4,95,304.5,57.9,0,5,10,0,2026-04-25T10:45:03.120165+05:30
Udaipur,Rajasthan,24.5854,73.7125,38.0,17,0.0,949.5,8.8,41.8,55,76.4,18.7,0,5,10,0,2026-04-25T10:45:03.120171+05:30
Kota,Rajasthan,25.2138,75.8648,39.2,18,0.0,980.6,8.3,30.2,65,103.6,28.1,0,5,10,0,2026-04-25T10:45:03.120178+05:30
Bikaner,Rajasthan,28.0229,73.3119,40.2,14,0.0,983.4,8.15,28.4,68,89.4,25.2,0,5,10,0,2026-04-25T10:45:03.120183+05:30
Ajmer,Rajasthan,26.4499,74.6399,37.7,16,0.0,957.9,8.25,28.4,68,148.1,34.7,0,5,10,0,2026-04-25T10:45:03.120189+05:30
Gwalior,Madhya Pradesh,26.2183,78.1828,40.0,15,0.0,984.4,8.05,39.2,73,290.6,61.2,0,5,10,0,2026-04-25T10:45:03.120195+05:30
Indore,Madhya Pradesh,22.7196,75.8577,38.3,14,0.0,951.0,8.6,30.2,53,34.5,12.0,0,5,10,0,2026-04-25T10:45:03.120200+05:30
Bhopal,Madhya Pradesh,23.2599,77.4126,39.0,13,0.0,956.4,8.65,33.8,56,32.4,11.7,0,5,10,0,2026-04-25T10:45:03.120206+05:30
Jabalpur,Madhya Pradesh,23.1815,79.9864,40.0,12,0.0,963.8,8.75,30.6,56,19.8,11.9,0,5,10,0,2026-04-25T10:45:03.120212+05:30
Ujjain,Madhya Pradesh,23.1765,75.7885,38.7,15,0.0,956.4,8.55,28.1,54,49.9,16.2,0,5,10,0,2026-04-25T10:45:03.120219+05:30
Visakhapatnam,Andhra Pradesh,17.6868,83.2185,34.3,53,0.0,1005.3,8.5,43.2,61,22.4,17.2,0,5,4,1,2026-04-25T10:45:03.120225+05:30
Vijayawada,Andhra Pradesh,16.5062,80.648,36.2,48,0.0,1004.1,8.35,33.5,52,18.4,13.1,0,5,7,1,2026-04-25T10:45:03.120231+05:30
Guntur,Andhra Pradesh,16.3067,80.4365,36.5,46,0.0,1005.3,8.35,36.7,55,16.7,12.4,0,5,7,1,2026-04-25T10:45:03.120236+05:30
Nellore,Andhra Pradesh,14.4426,79.9865,37.2,39,0.0,1007.1,9.1,42.8,41,12.8,10.3,0,5,7,1,2026-04-25T10:45:03.120243+05:30
Kurnool,Andhra Pradesh,15.8281,78.0373,38.9,23,0.0,978.4,8.8,34.2,80,28.2,23.2,0,5,10,0,2026-04-25T10:45:03.120251+05:30
Kakinada,Andhra Pradesh,16.9891,82.2475,36.5,41,0.0,1009.0,8.55,38.9,41,16.1,10.8,0,0,7,1,2026-04-25T10:45:03.120257+05:30
Tirupati,Andhra Pradesh,13.6288,79.4192,35.8,38,0.0,992.6,9.35,36.7,58,12.3,10.9,0,5,10,1,2026-04-25T10:45:03.120263+05:30
Warangal,Telangana,17.9689,79.5941,36.8,34,0.0,981.0,9.2,30.2,113,29.7,24.4,0,5,10,1,2026-04-25T10:45:03.120269+05:30
Nizamabad,Telangana,18.6725,78.0941,37.8,22,0.0,967.3,8.6,30.2,120,41.3,35.9,0,5,10,0,2026-04-25T10:45:03.120275+05:30
Mysore,Karnataka,12.2958,76.6396,31.9,36,0.0,930.9,7.55,45.4,90,24.4,20.8,0,5,7,0,2026-04-25T10:45:03.120281+05:30
Mangalore,Karnataka,12.9141,74.856,34.3,58,0.0,1006.7,9.15,42.1,65,25.6,21.1,0,5,4,1,2026-04-25T10:45:03.120286+05:30
Hubli-Dharwad,Karnataka,15.3647,75.124,36.2,24,0.0,942.9,9.05,37.1,102,45.6,40.0,0,5,10,0,2026-04-25T10:45:03.120293+05:30
Belgaum,Karnataka,15.8497,74.4977,35.1,24,0.0,928.4,9.2,35.6,110,49.5,39.8,0,5,10,0,2026-04-25T10:45:06.388529+05:30
Coimbatore,Tamil Nadu,11.0168,76.9558,33.8,38,0.0,963.6,8.9,45.4,75,13.0,10.6,0,5,7,1,2026-04-25T10:45:06.388560+05:30
Madurai,Tamil Nadu,9.9252,78.1198,35.0,44,0.0,994.5,9.25,41.4,52,12.1,11.3,0,5,7,1,2026-04-25T10:45:06.388570+05:30
Trichy,Tamil Nadu,10.7905,78.7047,34.3,49,0.0,1001.2,8.6,33.8,49,10.9,9.8,0,5,4,1,2026-04-25T10:45:06.388578+05:30
Salem,Tamil Nadu,11.6643,78.146,34.8,38,0.0,979.0,9.15,41.4,59,11.4,10.3,0,5,7,1,2026-04-25T10:45:06.388586+05:30
Tirunelveli,Tamil Nadu,8.7139,77.7567,35.0,45,0.0,1004.3,9.2,38.9,66,13.4,12.4,0,5,4,1,2026-04-25T10:45:06.388593+05:30
Vellore,Tamil Nadu,12.9165,79.1325,35.3,38,0.0,986.2,9.25,35.6,81,15.5,14.3,0,5,10,1,2026-04-25T10:45:06.388600+05:30
Erode,Tamil Nadu,11.341,77.7172,35.2,38,0.0,990.6,9.05,42.8,49,7.7,7.0,0,5,10,1,2026-04-25T10:45:06.388630+05:30
Kochi,Kerala,9.9312,76.2673,32.8,59,0.0,1009.2,8.9,39.6,94,29.4,26.3,0,0,4,1,2026-04-25T10:45:06.388638+05:30
Thiruvananthapuram,Kerala,8.5241,76.9366,31.9,63,0.0,1008.7,9.05,30.6,58,20.9,18.2,3,0,4,1,2026-04-25T10:45:06.388645+05:30
Kozhikode,Kerala,11.2588,75.7804,33.0,64,0.0,1008.0,8.25,37.8,65,28.1,24.4,3,0,4,1,2026-04-25T10:45:06.388652+05:30
Thrissur,Kerala,10.5276,76.2144,34.2,53,0.0,1007.3,8.85,47.2,91,23.1,20.5,0,5,4,1,2026-04-25T10:45:06.388659+05:30
Kannur,Kerala,11.8745,75.3704,33.7,60,0.0,1007.4,7.9,41.4,73,25.8,22.0,0,5,4,1,2026-04-25T10:45:06.388665+05:30
Patna,Bihar,25.5941,85.1376,37.3,43,0.0,1001.0,8.65,52.9,151,93.1,66.6,0,5,7,1,2026-04-25T10:45:06.388671+05:30
Gaya,Bihar,24.7914,85.0002,39.5,18,0.0,994.3,8.7,54.4,109,106.9,43.3,0,5,10,0,2026-04-25T10:45:06.388678+05:30
Muzaffarpur,Bihar,26.1209,85.3647,34.0,57,0.0,1001.6,8.65,47.9,154,90.3,67.5,0,5,4,1,2026-04-25T10:45:06.388684+05:30
Bhagalpur,Bihar,25.2425,87.0117,36.3,52,0.0,1002.2,8.6,49.0,154,92.2,56.1,0,5,7,1,2026-04-25T10:45:06.388689+05:30
Ranchi,Jharkhand,23.3441,85.3096,35.5,22,0.0,940.7,9.2,34.2,106,70.5,43.1,0,5,10,0,2026-04-25T10:45:06.388696+05:30
Jamshedpur,Jharkhand,22.8046,86.2029,39.5,25,0.0,991.9,8.75,34.9,139,76.1,59.4,0,5,10,0,2026-04-25T10:45:06.388702+05:30
Dhanbad,Jharkhand,23.7957,86.4304,38.2,29,0.0,981.1,8.95,40.0,156,85.4,73.3,0,5,10,1,2026-04-25T10:45:06.388708+05:30
Bokaro,Jharkhand,23.6693,86.1511,38.8,24,0.0,984.9,8.95,38.9,157,87.5,69.6,0,5,10,0,2026-04-25T10:45:06.388714+05:30
Bhubaneswar,Odisha,20.2961,85.8245,34.3,62,0.0,1004.2,8.8,40.3,69,27.8,21.7,3,5,4,1,2026-04-25T10:45:06.388721+05:30
Cuttack,Odisha,20.4625,85.8828,34.0,63,0.0,1005.9,8.9,37.8,69,27.8,21.7,3,5,4,1,2026-04-25T10:45:06.388727+05:30
Rourkela,Odisha,22.2604,84.8536,38.5,30,0.0,986.5,8.65,39.6,137,67.1,52.6,0,5,10,1,2026-04-25T10:45:06.388732+05:30
Raipur,Chhattisgarh,21.2514,81.6296,39.3,17,0.0,976.3,8.95,31.3,115,53.0,49.4,0,5,10,0,2026-04-25T10:45:06.388739+05:30
Bhilai,Chhattisgarh,21.1938,81.3509,38.8,18,0.0,976.7,9.0,37.1,115,48.7,44.4,0,5,10,0,2026-04-25T10:45:06.388745+05:30
Guwahati,Assam,26.1158,91.7086,28.7,69,0.0,1004.6,8.55,42.1,160,108.7,64.0,7,5,4,1,2026-04-25T10:45:06.388751+05:30
Agartala,Tripura,23.8315,91.2868,35.0,49,0.0,1007.8,8.75,26.3,153,58.0,38.3,0,5,4,1,2026-04-25T10:45:06.388757+05:30
Shillong,Meghalaya,25.5788,91.8933,26.2,40,0.0,861.8,8.2,27.4,145,100.6,47.8,4,5,7,0,2026-04-25T10:45:06.388763+05:30
Imphal,Manipur,24.817,93.9368,30.7,41,0.0,926.5,9.1,33.5,155,100.1,44.9,0,5,7,0,2026-04-25T10:45:06.388769+05:30
Aizawl,Mizoram,23.7271,92.7176,32.6,22,0.0,897.1,8.95,36.7,121,107.6,38.3,0,5,7,0,2026-04-25T10:45:06.388775+05:30
Kohima,Nagaland,25.6701,94.1077,22.5,76,0.0,859.6,8.45,36.4,154,111.3,53.6,3,5,7,1,2026-04-25T10:45:06.388781+05:30
Gangtok,Sikkim,27.3314,88.6138,22.7,50,0.0,841.6,8.9,44.3,99,35.2,22.4,0,5,7,0,2026-04-25T10:45:06.388787+05:30
Siliguri,West Bengal,26.7271,88.3953,23.6,91,0.3,997.5,8.45,40.0,151,68.0,41.8,6,5,7,1,2026-04-25T10:45:09.651863+05:30
Durgapur,West Bengal,23.5204,87.3119,35.8,52,0.0,996.0,8.9,39.2,143,75.9,56.3,0,5,10,1,2026-04-25T10:45:09.651896+05:30
Asansol,West Bengal,23.6739,86.9524,37.1,42,0.0,994.4,8.95,45.0,142,73.3,60.8,0,5,10,1,2026-04-25T10:45:09.651906+05:30
Pondicherry,Puducherry,11.9139,79.8145,32.7,61,0.0,1010.1,9.05,43.9,24,11.4,7.7,3,0,4,1,2026-04-25T10:45:09.651915+05:30
Port Blair,Andaman and Nicobar Islands,11.6234,92.7265,33.8,51,0.0,1008.6,9.15,27.4,34,16.9,9.5,0,0,4,1,2026-04-25T10:45:09.651922+05:30
Haridwar,Uttarakhand,29.9457,78.1642,34.5,33,0.0,975.3,7.2,20.5,78,33.3,20.1,0,5,7,0,2026-04-25T10:45:09.651930+05:30
Rishikesh,Uttarakhand,30.0869,78.2676,35.3,28,0.0,968.1,7.35,26.3,64,37.0,18.9,0,5,10,0,2026-04-25T10:45:09.651938+05:30
Nainital,Uttarakhand,29.3919,79.4542,24.8,31,0.0,811.8,8.15,40.7,75,39.9,17.4,0,5,7,0,2026-04-25T10:45:09.651946+05:30
Mussoorie,Uttarakhand,30.4599,78.0664,24.7,27,0.0,809.6,7.75,51.8,67,38.3,15.7,0,5,7,0,2026-04-25T10:45:09.651953+05:30
Dharamshala,Himachal Pradesh,32.219,76.3234,27.9,27,0.0,874.1,7.8,55.1,47,45.2,9.9,4,5,7,0,2026-04-25T10:45:09.651960+05:30
Dalhousie,Himachal Pradesh,32.5387,75.971,23.9,29,0.0,810.9,8.3,44.3,57,68.5,15.9,0,5,7,0,2026-04-25T10:45:09.651967+05:30
Patiala,Punjab,30.3398,76.3869,39.8,14,0.0,979.4,7.35,51.8,405,289.6,44.0,0,5,10,0,2026-04-25T10:45:09.651974+05:30
Bhatinda,Punjab,30.211,74.9455,39.8,16,0.0,985.2,8.0,51.5,84,108.3,31.1,0,5,10,0,2026-04-25T10:45:09.651981+05:30
Rohtak,Haryana,28.8955,76.6066,39.5,17,0.0,983.2,7.35,49.7,568,380.9,78.9,0,5,10,0,2026-04-25T10:45:09.651988+05:30
Panipat,Haryana,29.3909,76.9635,40.5,14,0.0,981.6,7.3,48.6,977,506.6,81.0,0,5,10,0,2026-04-25T10:45:09.651995+05:30
Mathura,Uttar Pradesh,27.4924,77.6737,39.9,17,0.0,988.0,7.75,44.6,354,704.1,116.2,0,5,10,0,2026-04-25T10:45:09.652002+05:30
Vrindavan,Uttar Pradesh,27.5823,77.7027,39.8,17,0.0,988.5,7.7,43.9,354,704.1,116.2,0,5,10,0,2026-04-25T10:45:09.652009+05:30
Ayodhya,Uttar Pradesh,26.7922,82.1998,38.9,26,0.0,995.8,8.05,43.6,136,148.5,56.3,0,5,10,1,2026-04-25T10:45:09.652016+05:30
Ratlam,Madhya Pradesh,23.3315,75.0367,38.5,17,0.0,957.3,8.45,29.5,53,50.4,15.3,0,5,10,0,2026-04-25T10:45:09.652023+05:30
Sagar,Madhya Pradesh,23.8388,78.7378,39.0,13,0.0,953.0,8.65,28.4,47,17.6,10.7,0,5,10,0,2026-04-25T10:45:09.652030+05:30
Satna,Madhya Pradesh,24.6005,80.8322,40.2,11,0.0,973.2,8.65,37.4,57,160.2,28.8,0,5,10,0,2026-04-25T10:45:09.652036+05:30
Akola,Maharashtra,20.7002,77.0082,39.5,14,0.0,977.4,8.35,25.6,74,31.3,14.0,0,5,10,0,2026-04-25T10:45:09.652045+05:30
Amravati,Maharashtra,20.9374,77.7796,39.5,14,0.0,969.7,8.65,29.2,77,31.3,13.0,0,5,10,0,2026-04-25T10:45:09.652052+05:30
Latur,Maharashtra,18.4088,76.5604,37.8,16,0.0,942.7,9.1,32.0,105,32.8,25.8,0,5,10,0,2026-04-25T10:45:09.652060+05:30
Nanded,Maharashtra,19.1383,77.3091,39.6,15,0.0,970.6,9.0,32.4,108,31.5,23.7,0,5,10,0,2026-04-25T10:45:09.652067+05:30
Gulbarga,Karnataka,17.3297,76.8343,37.0,25,0.0,961.2,8.9,29.9,117,48.8,39.7,0,5,10,0,2026-04-25T10:45:09.652073+05:30
Bidar,Karnataka,17.9104,77.5199,35.9,25,0.0,938.9,8.5,25.2,120,48.3,40.7,0,5,10,0,2026-04-25T10:45:09.652080+05:30
Hospet,Karnataka,15.2689,76.3909,34.3,44,0.0,957.8,9.3,28.1,96,29.8,25.2,0,5,7,1,2026-04-25T10:45:09.652087+05:30
Tirupur,Tamil Nadu,11.1085,77.3411,35.1,35,0.0,976.8,9.05,37.8,56,9.5,8.4,0,5,10,1,2026-04-25T10:45:09.652094+05:30
Alappuzha,Kerala,9.4981,76.3388,32.0,66,0.0,1009.3,9.1,38.5,88,30.3,27.2,3,0,4,1,2026-04-25T10:45:09.652101+05:30
Munnar,Kerala,10.0889,77.0595,24.7,48,0.0,859.9,9.6,25.9,62,6.7,5.7,0,5,7,0,2026-04-25T10:45:09.652108+05:30
Silchar,Assam,24.8333,92.7789,34.2,51,0.0,1006.2,8.7,22.0,159,135.5,55.1,0,5,4,1,2026-04-25T10:45:09.652115+05:30
Dibrugarh,Assam,27.4728,94.912,26.0,78,0.0,999.2,8.65,39.6,95,38.2,21.2,7,5,7,1,2026-04-25T10:45:09.652122+05:30
