city,state,latitude,longitude,temp,humidity,rain,pressure,uv_index,wind_gusts,aqi,pm10,pm2_5,no2,co,o3,so2,mosquito_risk,arthritis_risk,migraine_risk,frizz_risk,updated_at
Delhi,Delhi,28.6139,77.209,35.0,49,0.0,975.9,7.7,26.3,175,741.3,157.4,17.6,365.0,108.0,12.6,0,5,7,1,2026-07-15T17:46:58.470601+05:30
Mumbai,Maharashtra,19.076,72.8777,25.6,88,0.1,1006.6,7.75,48.2,69,57.6,22.3,11.8,209.0,63.0,10.9,10,5,4,1,2026-07-15T17:46:58.470653+05:30
Bangalore,Karnataka,12.9716,77.5946,29.6,37,0.0,911.0,9.15,42.1,62,12.3,8.8,9.5,318.0,85.0,2.7,4,5,7,0,2026-07-15T17:46:58.470667+05:30
Hyderabad,Telangana,17.385,78.4867,29.6,51,0.0,950.7,8.95,46.1,78,35.9,17.3,4.5,301.0,88.0,2.8,4,5,7,1,2026-07-15T17:46:58.470675+05:30
Chennai,Tamil Nadu,13.0827,80.2707,33.6,57,0.0,1003.3,8.75,37.8,133,40.5,25.8,6.0,278.0,150.0,5.3,0,5,4,1,2026-07-15T17:46:58.470682+05:30
Kolkata,West Bengal,22.5726,88.3639,29.4,80,0.0,997.0,7.3,38.2,116,16.2,15.4,11.3,512.0,100.0,10.5,7,5,7,1,2026-07-15T17:46:58.470689+05:30
Pune,Maharashtra,18.5204,73.8567,25.5,75,0.0,946.2,8.1,49.7,55,14.3,6.8,4.5,157.0,55.0,3.6,7,5,7,1,2026-07-15T17:46:58.470694+05:30
Ahmedabad,Gujarat,23.0225,72.5714,29.4,71,0.0,997.7,7.0,45.4,66,70.8,24.4,3.9,169.0,79.0,3.2,7,5,7,1,2026-07-15T17:46:58.470700+05:30
Jaipur,Rajasthan,26.9124,75.7873,33.3,48,0.0,954.7,7.85,38.2,339,350.2,67.5,3.6,152.0,97.0,3.3,0,5,7,1,2026-07-15T17:46:58.470705+05:30
Lucknow,Uttar Pradesh,26.8467,80.9462,32.4,68,0.0,986.5,7.05,24.1,166,151.3,63.1,5.9,286.0,129.0,6.8,3,5,7,1,2026-07-15T17:46:58.470713+05:30
Kanpur,Uttar Pradesh,26.4499,80.3319,33.4,60,0.0,984.9,7.6,36.7,158,158.3,66.4,6.2,186.0,117.0,5.5,0,5,7,1,2026-07-15T17:46:58.470718+05:30
Chandigarh,Chandigarh,30.7333,76.7794,32.6,62,0.0,962.2,7.7,32.4,208,91.5,62.9,6.5,701.0,202.0,13.4,3,5,7,1,2026-07-15T17:46:58.470724+05:30
Srinagar,Jammu and Kashmir,34.0837,74.7973,29.1,40,0.0,839.4,8.8,20.2,133,29.7,15.2,3.1,324.0,150.0,2.2,4,5,7,0,2026-07-15T17:46:58.470729+05:30
Jammu,Jammu and Kashmir,32.7266,74.857,31.7,53,0.0,966.5,8.55,16.9,167,61.2,40.2,5.4,429.0,173.0,4.1,0,5,7,1,2026-07-15T17:46:58.470733+05:30
Amritsar,Punjab,31.634,74.8723,32.8,63,0.0,974.3,8.35,22.0,191,142.0,66.1,6.8,485.0,168.0,8.9,3,5,7,1,2026-07-15T17:46:58.470738+05:30
Ludhiana,Punjab,30.901,75.8573,33.5,57,0.0,972.1,7.9,27.0,189,108.3,63.8,7.0,366.0,141.0,5.5,0,5,7,1,2026-07-15T17:46:58.470742+05:30
Jalandhar,Punjab,31.326,75.5762,33.0,61,0.0,973.1,8.15,23.4,194,120.1,65.2,7.3,445.0,149.0,5.1,3,5,7,1,2026-07-15T17:46:58.470746+05:30
Dehradun,Uttarakhand,30.6284,78.0322,21.1,94,0.1,828.1,7.75,26.6,127,52.4,34.8,2.9,320.0,166.0,6.0,6,5,7,1,2026-07-15T17:46:58.470751+05:30
Shimla,Himachal Pradesh,31.1048,77.1734,20.3,70,0.0,783.9,8.2,39.6,136,58.7,38.5,2.4,278.0,185.0,10.6,3,5,7,0,2026-07-15T17:46:58.470757+05:30
Manali,Himachal Pradesh,32.2396,77.1887,23.1,77,0.0,818.2,9.5,31.3,117,17.1,8.2,2.8,163.0,142.0,1.2,3,5,7,1,2026-07-15T17:46:58.470763+05:30
Gurgaon,Haryana,28.4595,77.0266,34.2,54,0.0,974.5,7.75,29.9,188,765.5,160.7,18.9,410.0,103.0,9.6,0,5,7,1,2026-07-15T17:46:58.470768+05:30
Noida,Uttar Pradesh,28.5355,77.391,34.6,55,0.0,977.2,7.7,29.9,188,765.5,160.7,18.9,467.0,103.0,9.6,0,5,7,1,2026-07-15T17:46:58.470772+05:30
Ghaziabad,Uttar Pradesh,28.6692,77.4538,34.2,60,0.0,975.5,7.65,32.0,171,497.3,134.1,13.6,251.0,130.0,15.8,0,5,7,1,2026-07-15T17:46:58.470778+05:30
Faridabad,Haryana,28.4089,77.3178,35.0,48,0.0,976.7,7.7,28.4,188,765.5,160.7,18.9,266.0,103.0,9.6,0,5,7,1,2026-07-15T17:46:58.470783+05:30
Meerut,Uttar Pradesh,28.9845,77.7064,33.5,63,0.0,974.4,7.6,38.2,171,497.3,134.1,13.6,233.0,130.0,15.8,3,5,7,1,2026-07-15T17:46:58.470788+05:30
Agra,Uttar Pradesh,27.1767,78.0081,33.8,54,0.0,981.1,6.85,34.2,153,159.3,57.2,5.6,169.0,97.0,3.9,0,5,7,1,2026-07-15T17:46:58.470793+05:30
Varanasi,Uttar Pradesh,25.3176,82.9739,33.4,65,0.0,990.2,8.55,28.1,181,167.2,76.4,8.5,385.0,123.0,8.6,3,5,7,1,2026-07-15T17:46:58.470798+05:30
Prayagraj,Uttar Pradesh,25.4358,81.8463,33.5,63,0.0,988.9,8.55,26.6,172,109.7,55.8,7.4,228.0,117.0,7.5,3,5,7,1,2026-07-15T17:46:58.470802+05:30
Gorakhpur,Uttar Pradesh,26.7606,83.3732,30.6,80,0.0,990.3,8.45,23.0,160,116.2,54.7,8.2,338.0,120.0,4.9,3,5,7,1,2026-07-15T17:46:58.470807+05:30
Bareilly,Uttar Pradesh,28.367,79.4304,33.2,66,0.0,979.5,8.0,22.7,163,109.4,64.3,7.0,323.0,154.0,11.0,3,5,7,1,2026-07-15T17:46:58.470813+05:30
Aligarh,Uttar Pradesh,27.8974,78.088,33.0,64,0.0,978.7,7.7,34.6,159,403.3,107.6,7.2,201.0,124.0,6.9,3,5,7,1,2026-07-15T17:46:58.470818+05:30
Moradabad,Uttar Pradesh,28.8386,78.7733,33.3,65,0.0,976.4,7.8,28.1,168,137.4,77.1,7.5,323.0,164.0,10.9,3,5,7,1,2026-07-15T17:46:58.470822+05:30
Saharanpur,Uttar Pradesh,29.9637,77.546,32.8,67,0.0,968.6,7.35,32.8,186,194.6,82.0,8.7,474.0,168.0,12.9,3,5,7,1,2026-07-15T17:46:58.470827+05:30
Jhansi,Uttar Pradesh,25.4484,78.5685,32.7,56,0.0,972.2,7.5,42.5,125,98.7,40.3,3.5,160.0,86.0,3.2,0,5,7,1,2026-07-15T17:47:01.929357+05:30
Surat,Gujarat,21.1702,72.8311,29.6,74,0.0,1003.0,7.7,43.2,71,30.0,18.6,14.7,175.0,38.0,35.3,7,5,4,1,2026-07-15T17:47:01.929401+05:30
Vadodara,Gujarat,22.3072,73.1812,31.7,61,0.0,999.9,7.0,42.8,66,37.7,20.9,7.8,168.0,80.0,12.3,3,5,7,1,2026-07-15T17:47:01.929409+05:30
Rajkot,Gujarat,22.3039,70.8022,32.9,49,0.0,988.9,4.7,45.7,56,42.5,18.9,2.5,111.0,66.0,3.2,0,5,3,1,2026-07-15T17:47:01.929415+05:30
Thane,Maharashtra,19.2183,72.9781,26.3,87,0.0,1005.9,7.4,35.6,69,57.6,22.3,11.8,219.0,63.0,10.9,7,5,4,1,2026-07-15T17:47:01.929421+05:30
Nagpur,Maharashtra,21.1458,79.0882,31.3,56,0.0,968.7,7.5,40.0,94,64.5,30.4,12.5,195.0,81.0,20.2,0,5,7,1,2026-07-15T17:47:01.929426+05:30
Nashik,Maharashtra,19.9975,73.7898,24.1,85,0.0,942.9,7.5,46.8,54,23.6,9.5,4.3,131.0,63.0,3.6,3,5,7,1,2026-07-15T17:47:01.929431+05:30
Aurangabad,Maharashtra,19.8762,75.3433,27.4,65,0.0,941.6,8.85,44.3,58,25.3,12.5,2.4,147.0,84.0,4.0,7,5,7,1,2026-07-15T17:47:01.929436+05:30
Solapur,Maharashtra,17.6599,75.9064,29.0,59,0.0,955.1,8.85,52.2,62,24.6,12.7,4.0,149.0,68.0,1.7,4,5,7,1,2026-07-15T17:47:01.929442+05:30
Kolhapur,Maharashtra,16.705,74.2433,24.9,79,0.0,946.8,7.7,46.1,55,16.1,8.9,3.6,139.0,58.0,1.8,3,5,7,1,2026-07-15T17:47:01.929447+05:30
Goa,Goa,15.2993,74.124,28.9,69,0.0,997.5,7.25,34.6,75,39.6,18.2,1.3,130.0,56.0,1.1,7,5,7,1,2026-07-15T17:47:01.929452+05:30
Jodhpur,Rajasthan,26.2389,73.0243,35.2,38,0.0,977.1,8.2,38.2,152,175.1,31.0,1.7,117.0,78.0,1.5,0,5,10,1,2026-07-15T17:47:01.929457+05:30
Udaipur,Rajasthan,24.5854,73.7125,29.9,56,0.0,942.3,8.8,37.1,71,46.0,17.1,1.5,122.0,82.0,2.4,4,5,7,1,2026-07-15T17:47:01.929462+05:30
Kota,Rajasthan,25.2138,75.8648,34.0,46,0.0,973.3,8.25,34.9,94,79.6,29.2,2.8,146.0,102.0,5.2,0,5,7,1,2026-07-15T17:47:01.929467+05:30
Bikaner,Rajasthan,28.0229,73.3119,37.3,33,0.0,975.3,8.4,36.7,160,203.5,51.7,0.7,111.0,86.0,2.4,0,5,10,1,2026-07-15T17:47:01.929472+05:30
Ajmer,Rajasthan,26.4499,74.6399,31.9,47,0.0,949.9,8.3,46.1,97,86.1,28.9,2.0,126.0,91.0,2.5,0,5,7,1,2026-07-15T17:47:01.929477+05:30
Gwalior,Madhya Pradesh,26.2183,78.1828,31.7,63,0.0,977.2,8.15,39.2,147,143.4,45.8,2.6,147.0,90.0,2.1,3,5,7,1,2026-07-15T17:47:01.929483+05:30
Indore,Madhya Pradesh,22.7196,75.8577,30.4,54,0.0,944.4,8.55,38.9,68,42.3,18.6,3.4,227.0,91.0,3.6,0,5,7,1,2026-07-15T17:47:01.929488+05:30
Bhopal,Madhya Pradesh,23.2599,77.4126,30.3,59,0.0,949.3,5.35,43.6,86,76.6,29.3,3.8,197.0,82.0,3.0,0,5,3,1,2026-07-15T17:47:01.929493+05:30
Jabalpur,Madhya Pradesh,23.1815,79.9864,30.1,68,0.0,956.6,8.65,33.1,112,125.3,49.6,3.7,174.0,92.0,4.2,3,5,7,1,2026-07-15T17:47:01.929497+05:30
Ujjain,Madhya Pradesh,23.1765,75.7885,30.2,59,0.0,949.7,8.5,36.7,69,47.0,19.2,2.1,166.0,88.0,3.2,0,5,7,1,2026-07-15T17:47:01.929503+05:30
Visakhapatnam,Andhra Pradesh,17.6868,83.2185,32.3,64,0.0,997.6,8.65,36.7,129,51.3,34.3,19.3,385.0,96.0,38.7,3,5,7,1,2026-07-15T17:47:01.929507+05:30
Vijayawada,Andhra Pradesh,16.5062,80.648,35.0,36,0.0,997.8,8.55,48.2,92,32.5,21.2,4.8,172.0,107.0,4.6,0,5,7,1,2026-07-15T17:47:01.929512+05:30
Guntur,Andhra Pradesh,16.3067,80.4365,35.5,32,0.0,999.0,8.8,49.0,88,38.6,22.6,4.6,224.0,103.0,3.9,0,5,10,1,2026-07-15T17:47:01.929517+05:30
Nellore,Andhra Pradesh,14.4426,79.9865,36.1,32,0.0,1001.6,8.55,51.1,80,24.3,14.4,4.8,158.0,111.0,4.4,0,5,7,1,2026-07-15T17:47:01.929523+05:30
Kurnool,Andhra Pradesh,15.8281,78.0373,35.2,32,0.0,973.5,8.9,64.4,67,62.2,24.6,2.2,123.0,101.0,6.3,0,5,10,1,2026-07-15T17:47:01.929530+05:30
Kakinada,Andhra Pradesh,16.9891,82.2475,33.1,51,0.0,1002.2,6.15,52.6,99,35.3,24.6,4.6,220.0,127.0,6.3,0,5,4,1,2026-07-15T17:47:01.929535+05:30
Tirupati,Andhra Pradesh,13.6288,79.4192,35.9,30,0.0,987.5,8.85,40.0,82,22.9,15.7,11.6,132.0,95.0,2.0,0,5,10,0,2026-07-15T17:47:01.929539+05:30
Warangal,Telangana,17.9689,79.5941,31.5,50,0.0,974.9,8.7,45.4,92,44.2,25.1,6.8,153.0,75.0,3.6,0,5,7,1,2026-07-15T17:47:01.929543+05:30
Nizamabad,Telangana,18.6725,78.0941,30.7,52,0.0,961.5,8.9,40.0,85,36.1,17.9,2.2,137.0,93.0,3.1,0,5,7,1,2026-07-15T17:47:01.929548+05:30
Mysore,Karnataka,12.2958,76.6396,28.1,54,0.0,927.8,9.0,41.0,58,12.7,8.6,3.8,152.0,93.0,1.6,4,5,7,1,2026-07-15T17:47:01.929553+05:30
Mangalore,Karnataka,12.9141,74.856,28.5,74,0.0,1007.0,8.75,35.6,67,45.6,20.8,2.0,113.0,58.0,1.5,7,5,4,1,2026-07-15T17:47:01.929557+05:30
Hubli-Dharwad,Karnataka,15.3647,75.124,26.9,62,0.0,939.8,8.1,48.2,54,27.3,13.7,2.4,123.0,61.0,1.0,7,5,7,1,2026-07-15T17:47:01.929562+05:30
Belgaum,Karnataka,15.8497,74.4977,24.2,76,0.0,924.8,8.55,47.2,54,17.9,9.7,3.4,116.0,53.0,1.6,3,5,7,1,2026-07-15T17:47:05.236415+05:30
Coimbatore,Tamil Nadu,11.0168,76.9558,30.2,53,0.0,960.1,8.6,50.8,59,17.6,11.8,2.8,159.0,84.0,2.2,0,5,7,1,2026-07-15T17:47:05.236446+05:30
Madurai,Tamil Nadu,9.9252,78.1198,37.5,25,0.0,989.7,7.75,36.0,85,59.3,24.7,4.7,152.0,111.0,2.8,0,5,10,0,2026-07-15T17:47:05.236455+05:30
Trichy,Tamil Nadu,10.7905,78.7047,37.2,27,0.0,996.2,8.3,47.2,71,43.2,19.7,3.7,131.0,104.0,2.3,0,5,10,0,2026-07-15T17:47:05.236462+05:30
Salem,Tamil Nadu,11.6643,78.146,33.4,51,0.0,974.4,8.7,24.5,77,42.4,18.7,4.8,238.0,104.0,4.8,0,5,7,1,2026-07-15T17:47:05.236469+05:30
Tirunelveli,Tamil Nadu,8.7139,77.7567,34.9,38,0.0,999.9,8.0,45.4,57,21.7,13.3,2.9,137.0,83.0,1.8,0,5,7,1,2026-07-15T17:47:05.236475+05:30
Vellore,Tamil Nadu,12.9165,79.1325,36.3,25,0.0,981.0,8.95,43.2,91,29.0,17.2,7.3,150.0,103.0,2.3,0,5,10,0,2026-07-15T17:47:05.236481+05:30
Erode,Tamil Nadu,11.341,77.7172,34.3,39,0.0,986.1,8.45,43.9,66,31.2,16.0,4.8,170.0,103.0,2.3,0,5,7,1,2026-07-15T17:47:05.236485+05:30
Kochi,Kerala,9.9312,76.2673,28.0,81,0.0,1008.7,8.4,37.8,66,24.3,14.5,4.3,118.0,61.0,2.3,7,0,4,1,2026-07-15T17:47:05.236490+05:30
Thiruvananthapuram,Kerala,8.5241,76.9366,27.3,82,0.0,1008.0,8.0,48.2,60,27.0,15.0,4.2,115.0,59.0,1.1,7,0,4,1,2026-07-15T17:47:05.236495+05:30
Kozhikode,Kerala,11.2588,75.7804,28.2,79,0.0,1007.8,8.2,37.4,61,33.3,15.7,0.8,110.0,60.0,1.0,7,5,4,1,2026-07-15T17:47:05.236500+05:30
Thrissur,Kerala,10.5276,76.2144,28.1,77,0.0,1007.0,8.3,35.6,63,22.2,13.4,3.0,112.0,62.0,1.7,7,5,4,1,2026-07-15T17:47:05.236506+05:30
Kannur,Kerala,11.8745,75.3704,28.8,73,0.0,1007.3,7.25,39.2,64,43.2,20.1,2.0,108.0,59.0,1.2,7,5,4,1,2026-07-15T17:47:05.236511+05:30
Patna,Bihar,25.5941,85.1376,29.1,92,0.1,993.6,8.25,34.2,165,90.1,53.0,11.4,394.0,133.0,8.6,10,5,7,1,2026-07-15T17:47:05.236515+05:30
Gaya,Bihar,24.7914,85.0002,30.1,83,0.1,987.0,8.5,26.6,163,108.5,56.5,7.9,378.0,122.0,6.9,6,5,7,1,2026-07-15T17:47:05.236520+05:30
Muzaffarpur,Bihar,26.1209,85.3647,28.8,90,0.2,993.7,7.35,22.0,162,62.4,44.8,13.4,420.0,119.0,9.1,10,5,7,1,2026-07-15T17:47:05.236525+05:30
Bhagalpur,Bihar,25.2425,87.0117,32.1,70,0.0,993.6,7.95,21.6,143,29.3,27.8,11.8,324.0,111.0,13.0,3,5,7,1,2026-07-15T17:47:05.236529+05:30
Ranchi,Jharkhand,23.3441,85.3096,25.8,86,0.0,932.2,8.5,32.4,159,88.2,41.4,4.8,240.0,137.0,9.6,7,5,7,1,2026-07-15T17:47:05.236534+05:30
Jamshedpur,Jharkhand,22.8046,86.2029,27.4,96,0.1,983.5,7.75,31.7,167,42.5,39.5,12.5,416.0,133.0,34.5,10,5,7,1,2026-07-15T17:47:05.236539+05:30
Dhanbad,Jharkhand,23.7957,86.4304,31.0,73,0.0,972.5,8.6,29.9,187,53.2,48.1,22.8,257.0,129.0,65.2,3,5,7,1,2026-07-15T17:47:05.236544+05:30
Bokaro,Jharkhand,23.6693,86.1511,30.1,81,0.0,976.5,8.35,28.8,190,85.4,57.4,24.4,277.0,116.0,71.4,3,5,7,1,2026-07-15T17:47:05.236549+05:30
Bhubaneswar,Odisha,20.2961,85.8245,26.8,94,0.2,994.5,5.9,37.8,142,71.7,44.9,13.8,408.0,98.0,19.3,10,5,3,1,2026-07-15T17:47:05.236553+05:30
Cuttack,Odisha,20.4625,85.8828,27.8,91,0.1,996.3,6.95,37.1,142,71.7,44.9,13.8,266.0,98.0,19.3,10,5,7,1,2026-07-15T17:47:05.236558+05:30
Rourkela,Odisha,22.2604,84.8536,25.9,96,0.2,978.5,7.8,40.0,159,87.5,47.0,7.9,373.0,103.0,6.0,10,5,7,1,2026-07-15T17:47:05.236562+05:30
Raipur,Chhattisgarh,21.2514,81.6296,30.6,71,0.0,969.2,8.0,30.2,144,91.7,48.8,25.0,172.0,81.0,50.3,3,5,7,1,2026-07-15T17:47:05.236567+05:30
Bhilai,Chhattisgarh,21.1938,81.3509,30.7,61,0.0,969.7,8.35,31.0,126,83.1,42.6,19.8,456.0,87.0,39.5,3,5,7,1,2026-07-15T17:47:05.236571+05:30
Guwahati,Assam,26.1158,91.7086,27.6,95,0.0,995.0,7.85,23.4,43,7.7,7.6,5.7,299.0,69.0,1.2,7,5,7,1,2026-07-15T17:47:05.236576+05:30
Agartala,Tripura,23.8315,91.2868,29.8,79,0.1,999.3,8.7,31.7,92,15.0,13.1,9.9,188.0,71.0,1.5,10,5,7,1,2026-07-15T17:47:05.236580+05:30
Shillong,Meghalaya,25.5788,91.8933,23.2,78,0.0,854.2,7.1,27.4,40,7.0,6.5,7.0,217.0,71.0,1.6,3,5,7,1,2026-07-15T17:47:05.236585+05:30
Imphal,Manipur,24.817,93.9368,26.6,81,0.1,918.6,8.65,24.1,56,5.8,4.8,3.6,253.0,67.0,1.2,10,5,7,1,2026-07-15T17:47:05.236589+05:30
Aizawl,Mizoram,23.7271,92.7176,21.8,97,0.0,887.8,9.0,30.6,42,4.9,4.7,4.6,158.0,56.0,0.5,3,5,7,1,2026-07-15T17:47:05.236594+05:30
Kohima,Nagaland,25.6701,94.1077,21.5,96,0.1,851.8,7.25,26.6,51,6.6,6.0,4.3,200.0,72.0,0.8,6,5,7,1,2026-07-15T17:47:05.236599+05:30
Gangtok,Sikkim,27.3314,88.6138,20.8,93,0.0,835.1,8.55,33.1,47,6.9,6.7,5.3,247.0,100.0,1.2,3,5,7,1,2026-07-15T17:47:05.236604+05:30
Siliguri,West Bengal,26.7271,88.3953,27.9,93,0.0,986.4,6.95,23.4,81,19.7,18.5,6.3,639.0,118.0,2.4,7,5,7,1,2026-07-15T17:47:08.651353+05:30
Durgapur,West Bengal,23.5204,87.3119,30.7,76,0.1,987.0,9.0,31.0,153,25.1,24.0,16.7,372.0,108.0,29.3,6,5,7,1,2026-07-15T17:47:08.651387+05:30
Asansol,West Bengal,23.6739,86.9524,30.9,79,0.0,985.7,8.15,26.3,155,30.7,29.7,16.7,348.0,111.0,25.3,3,5,7,1,2026-07-15T17:47:08.651396+05:30
Pondicherry,Puducherry,11.9139,79.8145,32.7,66,0.0,1004.2,8.15,43.9,135,52.4,37.0,21.3,267.0,160.0,8.3,3,5,4,1,2026-07-15T17:47:08.651402+05:30
Port Blair,Andaman and Nicobar Islands,11.6234,92.7265,26.0,91,0.1,1006.3,8.35,55.4,46,31.7,12.7,0.6,102.0,51.0,0.4,10,5,4,1,2026-07-15T17:47:08.651408+05:30
Haridwar,Uttarakhand,29.9457,78.1642,30.9,78,0.0,967.1,7.45,25.2,177,115.0,74.3,4.6,401.0,200.0,14.2,3,5,7,1,2026-07-15T17:47:08.651415+05:30
Rishikesh,Uttarakhand,30.0869,78.2676,29.3,90,0.0,960.2,7.55,23.8,159,98.3,63.6,2.5,406.0,189.0,11.5,7,5,7,1,2026-07-15T17:47:08.651421+05:30
Nainital,Uttarakhand,29.3919,79.4542,20.0,96,0.0,803.5,7.55,27.0,161,95.0,53.0,3.8,273.0,171.0,11.8,3,5,7,1,2026-07-15T17:47:08.651427+05:30
Mussoorie,Uttarakhand,30.4599,78.0664,19.8,93,0.0,801.0,7.85,33.1,164,89.4,63.8,3.9,320.0,200.0,10.9,3,10,7,1,2026-07-15T17:47:08.651431+05:30
Dharamshala,Himachal Pradesh,32.219,76.3234,24.4,84,0.0,866.4,8.4,36.0,116,42.3,25.0,1.5,314.0,150.0,2.1,3,5,7,1,2026-07-15T17:47:08.651436+05:30
Dalhousie,Himachal Pradesh,32.5387,75.971,20.6,84,0.0,803.4,8.4,30.6,154,60.1,39.3,3.4,329.0,181.0,3.4,3,5,7,1,2026-07-15T17:47:08.651441+05:30
Patiala,Punjab,30.3398,76.3869,33.2,63,0.0,971.4,7.6,29.2,192,400.5,102.4,6.9,346.0,136.0,6.0,3,5,7,1,2026-07-15T17:47:08.651446+05:30
Bhatinda,Punjab,30.211,74.9455,36.4,43,0.0,976.9,8.2,25.9,173,233.3,75.0,5.0,198.0,118.0,7.8,0,5,10,1,2026-07-15T17:47:08.651451+05:30
Rohtak,Haryana,28.8955,76.6066,34.2,58,0.0,974.7,7.65,33.1,318,983.5,175.6,13.3,288.0,101.0,4.9,0,5,7,1,2026-07-15T17:47:08.651457+05:30
Panipat,Haryana,29.3909,76.9635,33.4,63,0.0,973.4,7.5,28.1,563,2279.9,307.3,9.5,248.0,102.0,9.1,3,5,7,1,2026-07-15T17:47:08.651462+05:30
Mathura,Uttar Pradesh,27.4924,77.6737,33.6,61,0.0,980.0,7.65,38.2,175,1184.6,166.7,6.9,224.0,109.0,3.5,3,5,7,1,2026-07-15T17:47:08.651466+05:30
Vrindavan,Uttar Pradesh,27.5823,77.7027,33.8,58,0.0,980.5,7.65,31.0,175,1184.6,166.7,6.9,209.0,109.0,3.5,0,5,7,1,2026-07-15T17:47:08.651471+05:30
Ayodhya,Uttar Pradesh,26.7922,82.1998,31.7,76,0.0,988.3,7.05,25.2,184,140.6,69.2,7.1,391.0,130.0,5.7,3,5,7,1,2026-07-15T17:47:08.651476+05:30
Ratlam,Madhya Pradesh,23.3315,75.0367,30.4,55,0.0,950.7,7.3,36.4,67,48.5,19.5,1.7,130.0,91.0,3.2,0,5,7,1,2026-07-15T17:47:08.651481+05:30
Sagar,Madhya Pradesh,23.8388,78.7378,30.7,57,0.0,945.4,6.65,40.0,103,80.6,36.8,3.8,138.0,79.0,2.9,0,5,7,1,2026-07-15T17:47:08.651485+05:30
Satna,Madhya Pradesh,24.6005,80.8322,32.4,57,0.0,965.3,8.7,31.3,130,92.2,44.7,4.0,151.0,92.0,2.6,0,5,7,1,2026-07-15T17:47:08.651490+05:30
Akola,Maharashtra,20.7002,77.0082,31.7,55,0.0,971.1,7.95,42.8,69,43.7,19.1,3.0,120.0,96.0,6.4,0,5,7,1,2026-07-15T17:47:08.651495+05:30
Amravati,Maharashtra,20.9374,77.7796,31.8,54,0.0,963.2,7.4,41.4,71,43.2,19.2,3.7,133.0,93.0,7.4,0,5,7,1,2026-07-15T17:47:08.651501+05:30
Latur,Maharashtra,18.4088,76.5604,26.7,70,0.2,937.4,8.9,42.8,63,22.3,10.9,2.2,135.0,72.0,1.3,10,5,7,1,2026-07-15T17:47:08.651506+05:30
Nanded,Maharashtra,19.1383,77.3091,26.6,77,0.1,965.9,8.85,42.1,76,38.4,17.1,2.2,141.0,87.0,2.3,10,5,7,1,2026-07-15T17:47:08.651511+05:30
Gulbarga,Karnataka,17.3297,76.8343,26.2,74,0.0,956.9,8.75,62.6,64,36.9,16.8,4.6,143.0,74.0,2.1,7,5,7,1,2026-07-15T17:47:08.651517+05:30
Bidar,Karnataka,17.9104,77.5199,24.5,83,0.1,933.3,9.0,44.6,77,32.2,15.5,3.8,177.0,81.0,2.5,6,5,7,1,2026-07-15T17:47:08.651521+05:30
Hospet,Karnataka,15.2689,76.3909,30.8,44,0.0,954.0,8.5,43.9,57,18.2,10.0,3.4,122.0,79.0,1.5,0,5,7,1,2026-07-15T17:47:08.651526+05:30
Tirupur,Tamil Nadu,11.1085,77.3411,31.3,52,0.0,972.8,8.8,52.6,67,29.4,15.7,4.5,153.0,98.0,2.8,0,5,7,1,2026-07-15T17:47:08.651531+05:30
Alappuzha,Kerala,9.4981,76.3388,28.1,81,0.0,1008.8,8.25,39.2,64,26.4,14.9,4.7,93.0,61.0,2.0,7,0,4,1,2026-07-15T17:47:08.651535+05:30
Munnar,Kerala,10.0889,77.0595,19.0,91,0.0,857.0,8.4,36.4,54,26.4,13.7,2.4,115.0,74.0,1.5,3,10,7,1,2026-07-15T17:47:08.651541+05:30
Silchar,Assam,24.8333,92.7789,30.1,85,0.0,998.2,8.85,25.2,67,16.7,15.8,5.0,214.0,79.0,2.7,3,5,7,1,2026-07-15T17:47:08.651546+05:30
Dibrugarh,Assam,27.4728,94.912,29.8,86,0.0,988.2,7.3,22.0,56,10.5,10.4,5.4,250.0,89.0,1.7,7,5,7,1,2026-07-15T17:47:08.651551+05:30
