city,state,latitude,longitude,temp,humidity,rain,pressure,uv_index,wind_gusts,aqi,pm10,pm2_5,no2,co,o3,so2,mosquito_risk,arthritis_risk,migraine_risk,frizz_risk,updated_at
Delhi,Delhi,28.6139,77.209,34.2,35,0.0,978.8,7.6,46.4,376,551.3,86.1,5.0,377.0,230.0,23.6,0,5,7,1,2026-05-03T14:18:36.692298+05:30
Mumbai,Maharashtra,19.076,72.8777,32.9,59,0.0,1006.2,7.85,39.6,72,51.1,26.3,4.6,207.0,127.0,22.8,0,5,4,1,2026-05-03T14:18:36.692349+05:30
Bangalore,Karnataka,12.9716,77.5946,34.0,26,0.0,910.9,7.5,29.2,73,41.8,16.5,2.2,252.0,145.0,4.5,0,5,7,0,2026-05-03T14:18:36.692370+05:30
Hyderabad,Telangana,17.385,78.4867,39.2,16,0.0,950.1,9.25,33.8,66,43.0,15.8,1.7,210.0,147.0,6.5,0,5,10,0,2026-05-03T14:18:36.692382+05:30
Chennai,Tamil Nadu,13.0827,80.2707,36.5,46,0.0,1002.1,8.6,52.2,63,32.5,23.3,2.3,271.0,158.0,6.5,0,5,7,1,2026-05-03T14:18:36.692391+05:30
Kolkata,West Bengal,22.5726,88.3639,32.1,63,0.0,1002.4,8.95,41.8,75,26.3,21.5,3.2,332.0,149.0,8.4,3,5,4,1,2026-05-03T14:18:36.692400+05:30
Pune,Maharashtra,18.5204,73.8567,37.2,19,0.0,946.7,8.5,48.6,63,65.4,17.0,1.2,162.0,123.0,3.2,0,5,10,0,2026-05-03T14:18:36.692408+05:30
Ahmedabad,Gujarat,23.0225,72.5714,41.0,17,0.0,995.7,8.1,46.8,62,34.5,12.1,1.4,172.0,133.0,4.4,0,5,10,0,2026-05-03T14:18:36.692436+05:30
Jaipur,Rajasthan,26.9124,75.7873,39.2,15,0.0,954.4,8.15,42.5,111,249.6,39.0,0.9,161.0,141.0,4.5,0,5,10,0,2026-05-03T14:18:36.692451+05:30
Lucknow,Uttar Pradesh,26.8467,80.9462,35.3,39,0.0,989.5,8.1,54.4,119,65.7,36.4,1.4,334.0,201.0,10.9,0,5,10,1,2026-05-03T14:18:36.692467+05:30
Kanpur,Uttar Pradesh,26.4499,80.3319,37.6,28,0.0,987.1,8.1,84.2,136,234.7,48.5,1.4,337.0,206.0,12.1,0,5,10,1,2026-05-03T14:18:36.692482+05:30
Chandigarh,Chandigarh,30.7333,76.7794,32.8,35,0.0,964.5,7.6,62.3,138,112.9,30.3,1.6,287.0,186.0,10.0,0,5,7,0,2026-05-03T14:18:36.692491+05:30
Srinagar,Jammu and Kashmir,34.0837,74.7973,18.6,66,0.0,839.9,8.75,46.1,73,37.8,12.6,1.8,213.0,143.0,1.8,3,5,7,0,2026-05-03T14:18:36.692499+05:30
Jammu,Jammu and Kashmir,32.7266,74.857,34.7,21,0.0,968.8,8.15,29.2,61,41.0,14.6,1.0,332.0,162.0,2.9,0,5,7,0,2026-05-03T14:18:36.692506+05:30
Amritsar,Punjab,31.634,74.8723,36.7,23,0.0,975.7,8.2,50.4,92,120.1,29.9,1.0,292.0,169.0,8.6,0,5,10,0,2026-05-03T14:18:36.692514+05:30
Ludhiana,Punjab,30.901,75.8573,35.7,28,0.0,973.5,7.85,50.0,142,504.8,74.7,1.2,306.0,195.0,11.7,0,5,10,0,2026-05-03T14:18:36.692521+05:30
Jalandhar,Punjab,31.326,75.5762,35.7,28,0.0,974.6,8.05,53.3,114,287.8,58.8,1.2,283.0,194.0,12.5,0,5,10,0,2026-05-03T14:18:36.692529+05:30
Dehradun,Uttarakhand,30.6284,78.0322,23.4,39,0.0,830.1,7.75,43.2,81,77.5,21.2,0.5,226.0,163.0,6.0,0,5,7,0,2026-05-03T14:18:36.692539+05:30
Shimla,Himachal Pradesh,31.1048,77.1734,21.7,24,0.0,785.1,8.0,43.6,87,51.3,16.1,0.9,186.0,162.0,4.2,0,5,7,0,2026-05-03T14:18:36.692547+05:30
Manali,Himachal Pradesh,32.2396,77.1887,19.1,45,0.0,816.8,9.7,40.7,124,21.5,7.7,0.2,140.0,169.0,0.4,0,5,7,0,2026-05-03T14:18:36.692556+05:30
Gurgaon,Haryana,28.4595,77.0266,30.7,45,0.0,977.4,7.7,33.5,1070,1192.1,136.4,3.1,336.0,196.0,14.1,0,5,7,1,2026-05-03T14:18:36.692563+05:30
Noida,Uttar Pradesh,28.5355,77.391,31.9,49,0.0,980.7,7.6,35.6,1070,1192.1,136.4,3.1,343.0,196.0,14.1,0,5,7,1,2026-05-03T14:18:36.692572+05:30
Ghaziabad,Uttar Pradesh,28.6692,77.4538,31.4,52,0.0,979.1,7.6,41.4,231,436.8,66.1,2.4,314.0,199.0,9.9,0,5,7,1,2026-05-03T14:18:36.692586+05:30
Faridabad,Haryana,28.4089,77.3178,31.7,48,0.0,979.9,7.65,44.6,1070,1192.1,136.4,3.1,321.0,196.0,14.1,0,5,7,1,2026-05-03T14:18:36.692600+05:30
Meerut,Uttar Pradesh,28.9845,77.7064,30.6,57,0.0,978.1,7.5,49.3,231,436.8,66.1,2.4,317.0,199.0,9.9,0,5,7,1,2026-05-03T14:18:36.692610+05:30
Agra,Uttar Pradesh,27.1767,78.0081,39.2,22,0.0,982.1,7.95,61.9,674,474.0,57.6,1.2,233.0,167.0,8.5,0,5,10,0,2026-05-03T14:18:36.692618+05:30
Varanasi,Uttar Pradesh,25.3176,82.9739,36.3,35,0.0,993.5,8.65,49.0,128,87.5,41.0,1.7,381.0,206.0,15.4,0,5,10,1,2026-05-03T14:18:36.692625+05:30
Prayagraj,Uttar Pradesh,25.4358,81.8463,37.0,32,0.0,991.5,8.5,65.2,130,72.2,38.3,1.8,332.0,214.0,12.7,0,5,10,1,2026-05-03T14:18:36.692635+05:30
Gorakhpur,Uttar Pradesh,26.7606,83.3732,32.5,46,0.0,994.6,7.95,37.8,113,89.6,34.3,1.4,309.0,180.0,4.7,0,5,7,1,2026-05-03T14:18:36.692642+05:30
Bareilly,Uttar Pradesh,28.367,79.4304,34.5,39,0.0,983.4,7.9,51.1,129,239.3,50.9,1.5,350.0,201.0,12.6,0,5,7,1,2026-05-03T14:18:36.692649+05:30
Aligarh,Uttar Pradesh,27.8974,78.088,36.3,29,0.0,981.5,7.75,50.8,564,877.3,104.1,1.8,315.0,190.0,14.3,0,5,10,0,2026-05-03T14:18:36.692656+05:30
Moradabad,Uttar Pradesh,28.8386,78.7733,30.0,52,0.0,980.8,7.75,46.8,129,96.4,38.0,1.8,326.0,210.0,14.8,4,5,7,1,2026-05-03T14:18:36.692663+05:30
Saharanpur,Uttar Pradesh,29.9637,77.546,30.8,51,0.0,971.9,7.05,46.8,138,227.2,50.1,1.2,309.0,192.0,15.0,0,5,7,1,2026-05-03T14:18:36.692670+05:30
Jhansi,Uttar Pradesh,25.4484,78.5685,39.0,21,0.0,972.7,8.4,37.1,76,96.4,25.6,1.1,164.0,143.0,14.3,0,5,10,0,2026-05-03T14:18:39.929859+05:30
Surat,Gujarat,21.1702,72.8311,34.3,52,0.0,1003.2,7.7,56.5,64,34.1,17.8,9.3,234.0,82.0,28.9,0,5,4,1,2026-05-03T14:18:39.929888+05:30
Vadodara,Gujarat,22.3072,73.1812,38.9,28,0.0,999.1,8.05,52.9,58,27.4,12.7,1.4,159.0,130.0,5.5,0,5,10,1,2026-05-03T14:18:39.929898+05:30
Rajkot,Gujarat,22.3039,70.8022,40.3,22,0.0,988.6,7.7,50.8,53,35.7,11.5,0.9,145.0,119.0,4.8,0,5,10,0,2026-05-03T14:18:39.929906+05:30
Thane,Maharashtra,19.2183,72.9781,36.5,39,0.0,1005.0,7.9,39.2,72,51.1,26.3,4.6,215.0,127.0,22.8,0,5,7,1,2026-05-03T14:18:39.929914+05:30
Nagpur,Maharashtra,21.1458,79.0882,40.7,13,0.0,968.7,8.9,39.2,74,67.1,24.7,5.4,158.0,171.0,27.5,0,5,10,0,2026-05-03T14:18:39.929922+05:30
Nashik,Maharashtra,19.9975,73.7898,36.2,22,0.0,943.8,8.15,49.3,65,55.9,17.8,0.9,156.0,121.0,4.2,0,5,10,0,2026-05-03T14:18:39.929929+05:30
Aurangabad,Maharashtra,19.8762,75.3433,39.2,13,0.0,941.4,9.05,50.0,56,61.2,13.7,0.7,151.0,124.0,2.0,0,5,10,0,2026-05-03T14:18:39.929936+05:30
Solapur,Maharashtra,17.6599,75.9064,40.8,12,0.0,953.8,9.1,41.4,56,74.5,17.1,0.9,150.0,119.0,2.3,0,5,10,0,2026-05-03T14:18:39.929944+05:30
Kolhapur,Maharashtra,16.705,74.2433,37.5,19,0.0,946.2,8.95,47.9,63,50.1,16.8,1.4,153.0,113.0,1.5,0,5,10,0,2026-05-03T14:18:39.929951+05:30
Goa,Goa,15.2993,74.124,35.5,47,0.0,996.1,8.9,37.8,69,53.9,16.9,0.6,154.0,85.0,1.1,0,5,10,1,2026-05-03T14:18:39.929959+05:30
Jodhpur,Rajasthan,26.2389,73.0243,39.8,22,0.0,976.2,8.3,57.2,136,271.9,38.1,0.8,166.0,136.0,4.8,0,5,10,0,2026-05-03T14:18:39.929966+05:30
Udaipur,Rajasthan,24.5854,73.7125,36.8,22,0.0,942.1,8.8,39.2,62,39.2,12.7,0.6,150.0,125.0,3.4,0,5,10,0,2026-05-03T14:18:39.929973+05:30
Kota,Rajasthan,25.2138,75.8648,40.7,15,0.0,972.7,8.35,52.2,73,85.7,24.1,1.0,159.0,144.0,5.0,0,5,10,0,2026-05-03T14:18:39.929980+05:30
Bikaner,Rajasthan,28.0229,73.3119,42.5,8,0.0,974.0,8.25,46.4,71,132.2,21.8,0.4,176.0,140.0,7.5,0,5,10,0,2026-05-03T14:18:39.929987+05:30
Ajmer,Rajasthan,26.4499,74.6399,39.3,13,0.0,949.2,8.3,55.4,71,72.4,20.8,0.6,155.0,132.0,4.1,0,5,10,0,2026-05-03T14:18:39.929995+05:30
Gwalior,Madhya Pradesh,26.2183,78.1828,39.4,19,0.0,977.5,8.15,37.1,89,81.5,19.9,0.4,175.0,130.0,3.7,0,5,10,0,2026-05-03T14:18:39.930002+05:30
Indore,Madhya Pradesh,22.7196,75.8577,39.0,13,0.0,944.3,8.7,44.3,56,66.1,14.5,0.9,162.0,124.0,3.7,0,5,10,0,2026-05-03T14:18:39.930009+05:30
Bhopal,Madhya Pradesh,23.2599,77.4126,39.7,15,0.0,949.3,8.7,34.6,68,106.6,21.2,0.7,161.0,125.0,4.0,0,5,10,0,2026-05-03T14:18:39.930016+05:30
Jabalpur,Madhya Pradesh,23.1815,79.9864,39.4,16,0.0,957.2,8.85,28.4,68,89.2,21.7,0.7,164.0,136.0,4.7,0,5,10,0,2026-05-03T14:18:39.930023+05:30
Ujjain,Madhya Pradesh,23.1765,75.7885,39.4,13,0.0,949.5,8.6,41.4,55,57.7,14.1,0.6,148.0,124.0,4.2,0,5,10,0,2026-05-03T14:18:39.930030+05:30
Visakhapatnam,Andhra Pradesh,17.6868,83.2185,34.1,63,0.0,999.2,9.15,47.5,62,27.3,21.6,5.1,292.0,109.0,8.5,3,5,7,1,2026-05-03T14:18:39.930037+05:30
Vijayawada,Andhra Pradesh,16.5062,80.648,40.7,33,0.0,996.3,9.15,33.5,74,41.7,30.6,1.8,282.0,183.0,8.6,0,5,10,1,2026-05-03T14:18:39.930044+05:30
Guntur,Andhra Pradesh,16.3067,80.4365,42.7,19,0.0,997.4,9.2,38.2,85,41.4,28.5,1.6,230.0,181.0,6.5,0,5,10,0,2026-05-03T14:18:39.930051+05:30
Nellore,Andhra Pradesh,14.4426,79.9865,42.0,23,0.0,999.6,9.2,43.6,86,40.3,21.3,2.0,243.0,183.0,6.4,0,5,10,1,2026-05-03T14:18:39.930059+05:30
Kurnool,Andhra Pradesh,15.8281,78.0373,41.9,16,0.0,972.5,9.15,41.4,62,38.8,18.2,1.4,172.0,158.0,8.6,0,5,10,0,2026-05-03T14:18:39.930067+05:30
Kakinada,Andhra Pradesh,16.9891,82.2475,37.0,50,0.0,1001.7,9.15,39.6,57,26.9,19.8,1.1,223.0,108.0,2.7,0,5,7,1,2026-05-03T14:18:39.930074+05:30
Tirupati,Andhra Pradesh,13.6288,79.4192,41.6,19,0.0,986.0,7.2,52.2,86,35.4,16.4,1.3,176.0,163.0,3.0,0,5,10,0,2026-05-03T14:18:39.930081+05:30
Warangal,Telangana,17.9689,79.5941,40.3,23,0.0,974.4,9.15,38.9,88,41.4,22.6,1.6,233.0,172.0,8.9,0,5,10,0,2026-05-03T14:18:39.930088+05:30
Nizamabad,Telangana,18.6725,78.0941,39.8,15,0.0,961.1,9.1,43.6,70,44.6,14.9,0.9,172.0,122.0,3.1,0,5,10,0,2026-05-03T14:18:39.930095+05:30
Mysore,Karnataka,12.2958,76.6396,34.6,25,0.0,927.4,8.9,33.8,67,55.5,20.0,1.4,181.0,130.0,1.8,0,5,7,0,2026-05-03T14:18:39.930102+05:30
Mangalore,Karnataka,12.9141,74.856,33.0,54,0.0,1005.0,9.0,44.6,67,63.6,18.7,0.7,139.0,87.0,1.0,0,5,4,1,2026-05-03T14:18:39.930109+05:30
Hubli-Dharwad,Karnataka,15.3647,75.124,35.5,31,0.0,939.4,9.15,44.3,59,56.1,16.8,1.3,169.0,117.0,1.4,0,5,10,0,2026-05-03T14:18:39.930116+05:30
Belgaum,Karnataka,15.8497,74.4977,34.7,28,0.0,925.1,9.15,46.8,61,48.0,15.2,1.1,152.0,106.0,1.7,0,5,7,0,2026-05-03T14:18:43.174276+05:30
Coimbatore,Tamil Nadu,11.0168,76.9558,35.4,39,0.0,959.5,9.3,49.0,68,24.5,14.1,1.2,201.0,122.0,1.9,0,5,10,1,2026-05-03T14:18:43.174310+05:30
Madurai,Tamil Nadu,9.9252,78.1198,40.8,25,0.0,988.7,8.85,58.7,86,35.0,27.2,1.8,230.0,186.0,2.8,0,5,10,1,2026-05-03T14:18:43.174324+05:30
Trichy,Tamil Nadu,10.7905,78.7047,39.8,29,0.0,995.3,9.2,45.0,84,31.3,23.9,1.4,199.0,161.0,3.0,0,5,10,1,2026-05-03T14:18:43.174334+05:30
Salem,Tamil Nadu,11.6643,78.146,38.1,28,0.0,974.0,9.25,36.4,88,34.3,24.1,2.5,165.0,187.0,8.5,0,5,10,1,2026-05-03T14:18:43.174343+05:30
Tirunelveli,Tamil Nadu,8.7139,77.7567,40.0,28,0.0,999.2,8.4,37.4,73,23.9,18.3,1.3,206.0,123.0,0.9,0,5,10,1,2026-05-03T14:18:43.174353+05:30
Vellore,Tamil Nadu,12.9165,79.1325,41.7,19,0.0,979.8,9.3,39.2,99,29.3,15.1,1.0,173.0,154.0,2.6,0,5,10,0,2026-05-03T14:18:43.174363+05:30
Erode,Tamil Nadu,11.341,77.7172,40.8,21,0.0,984.8,9.25,50.4,77,29.2,19.9,1.5,205.0,156.0,1.6,0,5,10,0,2026-05-03T14:18:43.174372+05:30
Kochi,Kerala,9.9312,76.2673,30.9,76,0.0,1006.6,9.05,35.6,91,28.4,17.3,1.0,160.0,113.0,1.7,3,5,4,1,2026-05-03T14:18:43.174381+05:30
Thiruvananthapuram,Kerala,8.5241,76.9366,30.8,70,0.0,1006.0,8.75,38.2,55,20.8,13.4,1.0,162.0,92.0,0.9,3,5,4,1,2026-05-03T14:18:43.174390+05:30
Kozhikode,Kerala,11.2588,75.7804,31.3,70,0.0,1005.8,9.0,42.8,64,66.4,21.4,0.5,150.0,90.0,1.3,3,5,4,1,2026-05-03T14:18:43.174399+05:30
Thrissur,Kerala,10.5276,76.2144,32.3,63,0.1,1004.8,8.95,34.6,89,25.4,14.7,0.8,172.0,99.0,1.2,6,5,4,1,2026-05-03T14:18:43.174409+05:30
Kannur,Kerala,11.8745,75.3704,32.8,55,0.0,1005.4,8.95,46.8,64,63.8,20.5,0.8,146.0,95.0,1.2,0,5,4,1,2026-05-03T14:18:43.174417+05:30
Patna,Bihar,25.5941,85.1376,31.2,57,0.0,997.6,8.3,41.8,111,71.2,50.6,2.2,395.0,208.0,10.9,0,5,7,1,2026-05-03T14:18:43.174453+05:30
Gaya,Bihar,24.7914,85.0002,33.6,48,0.0,990.4,8.8,38.2,142,78.2,48.2,1.6,371.0,212.0,15.8,0,5,7,1,2026-05-03T14:18:43.174463+05:30
Muzaffarpur,Bihar,26.1209,85.3647,28.1,68,0.0,998.5,8.7,41.4,98,65.7,44.0,2.1,353.0,187.0,5.6,7,5,7,1,2026-05-03T14:18:43.174472+05:30
Bhagalpur,Bihar,25.2425,87.0117,27.0,70,0.0,999.3,8.7,41.8,124,64.7,43.0,3.7,353.0,177.0,3.3,7,5,7,1,2026-05-03T14:18:43.174481+05:30
Ranchi,Jharkhand,23.3441,85.3096,33.5,28,0.0,935.0,9.25,29.2,88,90.8,22.2,0.8,186.0,168.0,5.2,0,5,7,0,2026-05-03T14:18:43.174490+05:30
Jamshedpur,Jharkhand,22.8046,86.2029,37.0,29,0.0,986.7,9.05,32.8,117,72.4,52.4,3.7,272.0,243.0,29.8,0,5,10,1,2026-05-03T14:18:43.174499+05:30
Dhanbad,Jharkhand,23.7957,86.4304,32.2,54,0.0,976.9,9.0,30.6,156,79.4,58.7,14.0,362.0,221.0,56.5,0,5,7,1,2026-05-03T14:18:43.174508+05:30
Bokaro,Jharkhand,23.6693,86.1511,33.8,48,0.0,980.4,9.0,28.4,156,88.7,65.9,16.1,526.0,235.0,74.6,0,5,7,1,2026-05-03T14:18:43.174516+05:30
Bhubaneswar,Odisha,20.2961,85.8245,32.5,60,0.0,999.4,9.1,33.5,63,27.8,19.7,1.6,205.0,149.0,5.1,0,5,7,1,2026-05-03T14:18:43.174525+05:30
Cuttack,Odisha,20.4625,85.8828,33.3,55,0.0,1000.9,9.15,31.7,63,27.8,19.7,1.6,216.0,149.0,5.1,0,5,4,1,2026-05-03T14:18:43.174534+05:30
Rourkela,Odisha,22.2604,84.8536,37.2,27,0.0,980.9,8.95,38.5,101,54.1,20.5,0.9,205.0,173.0,17.3,0,5,10,0,2026-05-03T14:18:43.174544+05:30
Raipur,Chhattisgarh,21.2514,81.6296,40.5,17,0.0,970.3,9.0,32.4,84,55.5,21.2,3.6,239.0,168.0,4.7,0,5,10,0,2026-05-03T14:18:43.174554+05:30
Bhilai,Chhattisgarh,21.1938,81.3509,39.8,19,0.0,970.7,9.0,34.6,82,53.4,20.0,3.7,356.0,145.0,4.0,0,5,10,0,2026-05-03T14:18:43.174563+05:30
Guwahati,Assam,26.1158,91.7086,28.0,64,0.0,999.4,5.5,25.2,70,10.7,7.9,0.8,274.0,121.0,0.8,7,5,3,1,2026-05-03T14:18:43.174573+05:30
Agartala,Tripura,23.8315,91.2868,28.8,71,0.0,1004.4,8.7,35.3,58,15.3,11.0,3.2,171.0,118.0,1.5,7,5,4,1,2026-05-03T14:18:43.174582+05:30
Shillong,Meghalaya,25.5788,91.8933,19.3,74,0.0,855.5,7.6,24.1,50,14.4,8.3,1.1,242.0,120.0,0.9,3,5,7,0,2026-05-03T14:18:43.174592+05:30
Imphal,Manipur,24.817,93.9368,24.8,62,0.0,921.6,9.15,36.0,61,16.2,8.9,0.6,201.0,113.0,0.6,3,5,7,1,2026-05-03T14:18:43.174602+05:30
Aizawl,Mizoram,23.7271,92.7176,21.5,74,0.1,891.9,8.5,47.5,37,19.9,9.4,0.8,154.0,100.0,0.6,6,5,7,1,2026-05-03T14:18:43.174611+05:30
Kohima,Nagaland,25.6701,94.1077,19.8,76,0.1,853.8,3.75,24.8,41,6.0,3.8,0.6,213.0,100.0,0.2,6,5,3,0,2026-05-03T14:18:43.174620+05:30
Gangtok,Sikkim,27.3314,88.6138,18.9,60,0.0,836.5,6.6,43.2,59,10.0,8.1,0.9,242.0,127.0,0.9,0,5,7,0,2026-05-03T14:18:43.174628+05:30
Siliguri,West Bengal,26.7271,88.3953,28.5,61,0.0,991.5,8.15,28.1,73,18.5,12.8,0.7,275.0,145.0,1.5,7,5,7,1,2026-05-03T14:18:46.467925+05:30
Durgapur,West Bengal,23.5204,87.3119,32.0,56,0.0,991.9,8.9,29.9,147,71.9,54.2,9.4,336.0,194.0,34.2,0,5,7,1,2026-05-03T14:18:46.467956+05:30
Asansol,West Bengal,23.6739,86.9524,32.5,53,0.0,990.4,8.95,29.5,152,76.4,57.3,8.8,302.0,213.0,36.9,0,5,7,1,2026-05-03T14:18:46.467967+05:30
Pondicherry,Puducherry,11.9139,79.8145,34.9,57,0.0,1003.9,8.45,47.9,71,35.5,30.6,2.1,244.0,180.0,11.7,0,5,4,1,2026-05-03T14:18:46.467976+05:30
Port Blair,Andaman and Nicobar Islands,11.6234,92.7265,33.0,52,0.2,1005.5,8.9,25.6,32,7.9,5.7,0.4,147.0,63.0,0.4,3,5,4,1,2026-05-03T14:18:46.467984+05:30
Haridwar,Uttarakhand,29.9457,78.1642,30.9,47,0.0,970.7,7.25,41.4,116,255.2,52.7,0.8,256.0,192.0,14.5,0,5,7,1,2026-05-03T14:18:46.467992+05:30
Rishikesh,Uttarakhand,30.0869,78.2676,30.1,47,0.0,963.5,7.45,37.4,117,246.8,49.4,0.7,255.0,189.0,12.3,0,5,7,1,2026-05-03T14:18:46.467999+05:30
Nainital,Uttarakhand,29.3919,79.4542,13.8,89,0.1,803.2,8.4,40.0,130,212.3,45.9,0.5,257.0,179.0,8.9,6,10,7,0,2026-05-03T14:18:46.468007+05:30
Mussoorie,Uttarakhand,30.4599,78.0664,21.0,38,0.0,803.0,7.65,46.4,107,168.6,38.9,0.7,222.0,182.0,10.9,0,5,7,0,2026-05-03T14:18:46.468015+05:30
Dharamshala,Himachal Pradesh,32.219,76.3234,26.0,26,0.0,867.8,7.7,45.0,99,35.5,10.8,0.4,193.0,156.0,2.3,4,5,7,0,2026-05-03T14:18:46.468022+05:30
Dalhousie,Himachal Pradesh,32.5387,75.971,21.4,30,0.0,804.4,8.2,48.2,86,41.3,13.9,0.8,214.0,165.0,3.6,0,5,7,0,2026-05-03T14:18:46.468031+05:30
Patiala,Punjab,30.3398,76.3869,34.9,33,0.0,973.1,7.5,62.3,554,935.0,108.0,1.5,301.0,195.0,13.5,0,5,7,1,2026-05-03T14:18:46.468038+05:30
Bhatinda,Punjab,30.211,74.9455,37.3,27,0.0,977.4,8.15,56.5,161,506.6,78.0,1.9,235.0,172.0,12.9,0,5,10,0,2026-05-03T14:18:46.468045+05:30
Rohtak,Haryana,28.8955,76.6066,35.8,25,0.0,976.8,7.6,42.1,623,638.9,95.0,2.6,401.0,221.0,17.1,0,5,10,0,2026-05-03T14:18:46.468053+05:30
Panipat,Haryana,29.3909,76.9635,31.4,49,0.0,976.9,7.45,54.0,1016,953.7,112.9,3.8,302.0,224.0,21.6,0,5,7,1,2026-05-03T14:18:46.468061+05:30
Mathura,Uttar Pradesh,27.4924,77.6737,38.7,24,0.0,981.4,7.9,57.6,696,640.7,76.4,1.0,277.0,172.0,8.0,0,5,10,0,2026-05-03T14:18:46.468068+05:30
Vrindavan,Uttar Pradesh,27.5823,77.7027,38.7,24,0.0,982.0,7.9,58.3,696,640.7,76.4,1.0,293.0,172.0,8.0,0,5,10,0,2026-05-03T14:18:46.468076+05:30
Ayodhya,Uttar Pradesh,26.7922,82.1998,34.1,42,0.0,992.1,8.25,45.7,117,58.8,31.2,1.3,319.0,190.0,7.6,0,5,7,1,2026-05-03T14:18:46.468083+05:30
Ratlam,Madhya Pradesh,23.3315,75.0367,37.9,21,0.0,950.7,8.5,47.9,53,37.7,11.6,0.6,154.0,130.0,4.5,0,5,10,0,2026-05-03T14:18:46.468092+05:30
Sagar,Madhya Pradesh,23.8388,78.7378,38.9,17,0.0,946.0,8.7,33.5,68,82.0,18.7,0.7,146.0,129.0,4.1,0,5,10,0,2026-05-03T14:18:46.468099+05:30
Satna,Madhya Pradesh,24.6005,80.8322,38.5,20,0.0,966.9,8.7,61.6,61,66.4,19.0,0.6,159.0,138.0,3.9,0,5,10,0,2026-05-03T14:18:46.468107+05:30
Akola,Maharashtra,20.7002,77.0082,40.7,13,0.0,970.7,8.85,42.1,59,71.0,16.9,1.1,150.0,120.0,8.6,0,5,10,0,2026-05-03T14:18:46.468114+05:30
Amravati,Maharashtra,20.9374,77.7796,40.2,13,0.0,963.1,8.85,41.4,59,80.1,19.1,1.4,144.0,120.0,6.8,0,5,10,0,2026-05-03T14:18:46.468122+05:30
Latur,Maharashtra,18.4088,76.5604,40.0,11,0.0,937.1,9.05,39.6,60,81.5,17.7,0.7,138.0,115.0,3.9,0,5,10,0,2026-05-03T14:18:46.468129+05:30
Nanded,Maharashtra,19.1383,77.3091,41.1,13,0.0,964.5,9.0,37.8,58,63.6,16.7,0.9,160.0,120.0,1.8,0,5,10,0,2026-05-03T14:18:46.468137+05:30
Gulbarga,Karnataka,17.3297,76.8343,40.5,13,0.0,955.1,9.1,42.1,57,46.4,14.8,1.3,154.0,130.0,3.6,0,5,10,0,2026-05-03T14:18:46.468144+05:30
Bidar,Karnataka,17.9104,77.5199,39.3,14,0.0,933.0,9.15,37.4,67,40.6,14.4,1.0,154.0,125.0,3.8,0,5,10,0,2026-05-03T14:18:46.468151+05:30
Hospet,Karnataka,15.2689,76.3909,38.0,20,0.0,953.3,9.2,37.8,58,58.6,18.2,1.4,168.0,125.0,2.2,0,5,10,0,2026-05-03T14:18:46.468158+05:30
Tirupur,Tamil Nadu,11.1085,77.3411,39.2,25,0.0,971.8,9.35,47.9,78,27.0,17.5,1.5,208.0,148.0,2.1,0,5,10,0,2026-05-03T14:18:46.468165+05:30
Alappuzha,Kerala,9.4981,76.3388,31.2,70,0.0,1006.7,9.0,34.2,81,29.5,17.8,1.4,128.0,103.0,2.4,3,5,4,1,2026-05-03T14:18:46.468172+05:30
Munnar,Kerala,10.0889,77.0595,23.2,77,0.0,857.2,8.7,28.4,69,25.1,17.6,0.8,182.0,124.0,0.8,3,5,7,1,2026-05-03T14:18:46.468179+05:30
Silchar,Assam,24.8333,92.7789,28.5,65,0.0,1003.6,8.35,28.1,53,17.4,10.1,0.8,201.0,108.0,2.0,7,5,4,1,2026-05-03T14:18:46.468186+05:30
Dibrugarh,Assam,27.4728,94.912,27.1,62,0.0,994.0,6.3,22.3,62,10.1,8.2,0.5,215.0,119.0,0.8,7,5,7,1,2026-05-03T14:18:46.468194+05:30
