city,state,latitude,longitude,temp,humidity,rain,pressure,uv_index,wind_gusts,aqi,pm10,pm2_5,no2,co,o3,so2,mosquito_risk,arthritis_risk,migraine_risk,frizz_risk,updated_at
Delhi,Delhi,28.6139,77.209,29.4,51,0.0,979.9,7.65,42.5,158,342.7,83.8,22.4,586.0,110.0,21.3,4,5,7,1,2026-05-12T01:26:37.406128+05:30
Mumbai,Maharashtra,19.076,72.8777,29.1,77,0.0,1004.9,7.9,45.7,86,62.4,26.2,17.8,555.0,60.0,14.0,7,5,4,1,2026-05-12T01:26:37.406181+05:30
Bangalore,Karnataka,12.9716,77.5946,24.4,54,0.0,909.7,8.5,41.0,69,30.6,23.9,34.9,330.0,48.0,9.9,0,5,7,0,2026-05-12T01:26:37.406199+05:30
Hyderabad,Telangana,17.385,78.4867,27.9,58,0.0,951.0,9.0,34.6,69,28.1,21.1,10.4,348.0,86.0,7.3,4,5,7,1,2026-05-12T01:26:37.406215+05:30
Chennai,Tamil Nadu,13.0827,80.2707,28.4,79,0.0,1004.6,9.2,38.5,25,8.4,6.5,8.1,120.0,37.0,1.8,7,5,4,1,2026-05-12T01:26:37.406225+05:30
Kolkata,West Bengal,22.5726,88.3639,25.7,88,0.0,1006.1,9.0,29.5,129,47.1,42.7,22.4,350.0,28.0,8.7,7,5,4,1,2026-05-12T01:26:37.406235+05:30
Pune,Maharashtra,18.5204,73.8567,28.0,39,0.0,944.9,8.5,58.0,84,30.5,21.4,18.8,298.0,89.0,18.0,4,5,7,0,2026-05-12T01:26:37.406244+05:30
Ahmedabad,Gujarat,23.0225,72.5714,34.5,19,0.0,998.1,8.15,28.8,63,20.8,13.0,7.7,216.0,77.0,6.7,0,5,7,0,2026-05-12T01:26:37.406255+05:30
Jaipur,Rajasthan,26.9124,75.7873,29.5,42,0.0,956.6,8.2,50.0,148,258.9,59.8,22.5,446.0,72.0,12.3,4,5,7,0,2026-05-12T01:26:37.406263+05:30
Lucknow,Uttar Pradesh,26.8467,80.9462,28.4,46,0.0,991.9,8.15,31.3,97,39.5,33.2,15.6,473.0,87.0,9.8,4,5,7,0,2026-05-12T01:26:37.406272+05:30
Kanpur,Uttar Pradesh,26.4499,80.3319,28.7,47,0.0,990.0,8.15,30.6,122,169.0,40.9,10.4,385.0,98.0,7.2,4,5,7,1,2026-05-12T01:26:37.406280+05:30
Chandigarh,Chandigarh,30.7333,76.7794,21.8,82,0.0,965.2,7.65,39.2,145,71.9,57.0,27.5,958.0,64.0,12.3,3,5,7,1,2026-05-12T01:26:37.406289+05:30
Srinagar,Jammu and Kashmir,34.0837,74.7973,12.3,95,0.0,839.8,8.6,35.6,97,61.5,48.4,30.3,741.0,26.0,2.4,3,10,7,0,2026-05-12T01:26:37.406298+05:30
Jammu,Jammu and Kashmir,32.7266,74.857,24.2,72,0.0,970.2,8.45,29.9,142,47.6,40.4,20.2,742.0,49.0,3.7,3,5,7,1,2026-05-12T01:26:37.406307+05:30
Amritsar,Punjab,31.634,74.8723,25.6,70,0.0,977.8,8.35,50.0,159,109.0,65.0,10.1,771.0,90.0,9.6,7,5,7,1,2026-05-12T01:26:37.406315+05:30
Ludhiana,Punjab,30.901,75.8573,25.8,67,0.0,975.7,7.9,45.7,164,129.0,80.3,18.8,821.0,82.0,19.9,7,5,7,1,2026-05-12T01:26:37.406322+05:30
Jalandhar,Punjab,31.326,75.5762,24.2,78,0.0,976.5,8.1,34.2,158,115.9,70.1,14.3,922.0,95.0,14.6,3,5,7,1,2026-05-12T01:26:37.406329+05:30
Dehradun,Uttarakhand,30.6284,78.0322,11.7,100,0.0,826.3,8.1,32.4,104,58.7,39.8,31.1,321.0,53.0,1.6,3,10,7,0,2026-05-12T01:26:37.406338+05:30
Shimla,Himachal Pradesh,31.1048,77.1734,11.0,83,0.0,780.4,8.2,31.3,150,68.2,48.5,20.6,470.0,81.0,4.7,3,10,7,0,2026-05-12T01:26:37.406345+05:30
Manali,Himachal Pradesh,32.2396,77.1887,9.0,66,0.0,813.3,8.9,42.5,85,12.0,8.4,45.6,309.0,78.0,0.1,3,5,7,0,2026-05-12T01:26:37.406352+05:30
Gurgaon,Haryana,28.4595,77.0266,28.1,54,0.0,978.0,7.75,38.5,622,1438.0,188.6,16.5,492.0,116.0,18.6,4,5,7,1,2026-05-12T01:26:37.406362+05:30
Noida,Uttar Pradesh,28.5355,77.391,26.1,64,0.0,981.2,7.7,48.2,622,1438.0,188.6,16.5,546.0,116.0,18.6,7,5,7,1,2026-05-12T01:26:37.406369+05:30
Ghaziabad,Uttar Pradesh,28.6692,77.4538,26.9,60,0.0,979.5,7.65,32.8,152,211.9,63.1,9.5,446.0,114.0,12.4,4,5,7,1,2026-05-12T01:26:37.406377+05:30
Faridabad,Haryana,28.4089,77.3178,28.2,54,0.0,980.6,7.7,44.6,622,1438.0,188.6,16.5,552.0,116.0,18.6,4,5,7,1,2026-05-12T01:26:37.406383+05:30
Meerut,Uttar Pradesh,28.9845,77.7064,25.3,74,0.0,978.3,7.6,34.9,152,211.9,63.1,9.5,504.0,114.0,12.4,7,5,7,1,2026-05-12T01:26:37.406390+05:30
Agra,Uttar Pradesh,27.1767,78.0081,29.4,47,0.0,984.5,8.05,41.8,403,875.4,116.4,8.6,494.0,111.0,12.5,4,5,7,1,2026-05-12T01:26:37.406396+05:30
Varanasi,Uttar Pradesh,25.3176,82.9739,28.2,54,0.0,996.1,8.7,29.9,123,49.2,45.6,11.8,456.0,135.0,21.3,4,5,7,1,2026-05-12T01:26:37.406403+05:30
Prayagraj,Uttar Pradesh,25.4358,81.8463,28.9,46,0.0,994.5,8.55,32.4,110,41.4,38.0,16.0,386.0,98.0,13.7,4,5,7,0,2026-05-12T01:26:37.406412+05:30
Gorakhpur,Uttar Pradesh,26.7606,83.3732,25.9,63,0.0,996.5,8.55,41.4,93,41.4,39.2,12.2,438.0,126.0,15.8,7,5,7,1,2026-05-12T01:26:37.406419+05:30
Bareilly,Uttar Pradesh,28.367,79.4304,25.5,68,0.0,984.7,7.95,30.6,108,56.8,43.9,12.8,415.0,94.0,7.0,7,5,7,1,2026-05-12T01:26:37.406426+05:30
Aligarh,Uttar Pradesh,27.8974,78.088,27.5,58,0.0,982.3,7.85,28.8,188,516.0,87.8,9.1,473.0,110.0,12.4,4,5,7,1,2026-05-12T01:26:37.406432+05:30
Moradabad,Uttar Pradesh,28.8386,78.7733,25.2,72,0.0,981.1,7.8,37.4,126,68.0,54.7,13.8,504.0,121.0,11.4,7,5,7,1,2026-05-12T01:26:37.406439+05:30
Saharanpur,Uttar Pradesh,29.9637,77.546,24.4,74,0.0,972.8,7.2,37.4,143,67.5,54.5,20.7,459.0,86.0,11.8,3,5,7,1,2026-05-12T01:26:37.406445+05:30
Jhansi,Uttar Pradesh,25.4484,78.5685,28.6,47,0.0,975.2,8.45,26.3,114,88.2,39.6,3.6,365.0,119.0,7.8,4,5,7,1,2026-05-12T01:26:40.654929+05:30
Surat,Gujarat,21.1702,72.8311,32.3,44,0.0,1001.6,7.75,33.8,98,30.0,20.4,25.5,324.0,57.0,39.4,0,5,4,1,2026-05-12T01:26:40.654965+05:30
Vadodara,Gujarat,22.3072,73.1812,33.6,35,0.0,999.4,8.1,28.1,95,42.8,28.0,19.6,318.0,87.0,19.5,0,5,7,0,2026-05-12T01:26:40.654977+05:30
Rajkot,Gujarat,22.3039,70.8022,27.4,74,0.0,991.5,7.75,49.0,54,28.3,11.5,6.4,174.0,59.0,6.7,7,5,7,1,2026-05-12T01:26:40.654986+05:30
Thane,Maharashtra,19.2183,72.9781,29.0,74,0.0,1004.3,7.9,40.0,86,62.4,26.2,17.8,405.0,60.0,14.0,7,5,4,1,2026-05-12T01:26:40.654995+05:30
Nagpur,Maharashtra,21.1458,79.0882,31.6,36,0.0,970.3,8.95,38.2,111,94.8,58.2,42.9,334.0,38.0,22.9,0,5,7,0,2026-05-12T01:26:40.655002+05:30
Nashik,Maharashtra,19.9975,73.7898,28.0,37,0.0,942.5,8.2,46.1,96,47.4,30.6,27.4,235.0,80.0,18.0,4,5,7,0,2026-05-12T01:26:40.655010+05:30
Aurangabad,Maharashtra,19.8762,75.3433,32.0,23,0.0,940.7,9.1,37.4,102,55.4,33.3,28.9,320.0,86.0,12.8,0,5,7,0,2026-05-12T01:26:40.655017+05:30
Solapur,Maharashtra,17.6599,75.9064,31.5,35,0.0,954.1,9.1,35.3,87,29.2,22.4,12.2,351.0,85.0,8.3,0,5,7,0,2026-05-12T01:26:40.655025+05:30
Kolhapur,Maharashtra,16.705,74.2433,24.9,87,0.0,945.5,8.75,57.6,79,31.2,20.4,11.0,225.0,69.0,5.7,3,5,7,1,2026-05-12T01:26:40.655032+05:30
Goa,Goa,15.2993,74.124,27.5,94,0.0,995.1,8.85,33.8,79,58.3,30.2,11.0,337.0,60.0,3.1,7,5,7,1,2026-05-12T01:26:40.655040+05:30
Jodhpur,Rajasthan,26.2389,73.0243,34.2,18,0.0,978.8,8.3,42.5,124,186.7,28.5,3.5,187.0,92.0,2.7,0,5,7,0,2026-05-12T01:26:40.655047+05:30
Udaipur,Rajasthan,24.5854,73.7125,29.5,25,0.0,943.3,8.85,34.9,51,33.4,13.8,5.8,293.0,72.0,4.3,4,5,7,0,2026-05-12T01:26:40.655055+05:30
Kota,Rajasthan,25.2138,75.8648,29.9,32,0.0,975.0,8.4,44.3,99,150.9,48.9,15.7,597.0,72.0,13.6,4,5,7,0,2026-05-12T01:26:40.655062+05:30
Bikaner,Rajasthan,28.0229,73.3119,32.2,26,0.0,976.7,8.35,38.2,85,51.2,17.8,6.1,268.0,63.0,4.7,0,5,7,0,2026-05-12T01:26:40.655069+05:30
Ajmer,Rajasthan,26.4499,74.6399,30.5,22,0.0,951.3,8.35,55.1,89,115.0,37.0,17.7,420.0,56.0,7.2,0,5,7,0,2026-05-12T01:26:40.655076+05:30
Gwalior,Madhya Pradesh,26.2183,78.1828,29.5,43,0.0,980.0,8.25,37.8,116,122.0,43.9,4.2,383.0,119.0,8.2,4,5,7,0,2026-05-12T01:26:40.655083+05:30
Indore,Madhya Pradesh,22.7196,75.8577,32.5,22,0.0,945.2,8.7,29.9,80,60.3,36.9,16.0,405.0,71.0,10.3,0,5,7,0,2026-05-12T01:26:40.655089+05:30
Bhopal,Madhya Pradesh,23.2599,77.4126,30.0,35,0.0,951.1,8.7,39.2,89,87.3,41.8,15.3,327.0,69.0,7.9,4,5,7,0,2026-05-12T01:26:40.655095+05:30
Jabalpur,Madhya Pradesh,23.1815,79.9864,29.1,38,0.0,959.3,8.9,36.4,96,54.1,34.7,7.5,290.0,118.0,7.5,4,5,7,0,2026-05-12T01:26:40.655102+05:30
Ujjain,Madhya Pradesh,23.1765,75.7885,31.5,23,0.0,950.3,8.6,28.8,80,70.1,39.5,14.6,303.0,62.0,8.5,0,5,7,0,2026-05-12T01:26:40.655109+05:30
Visakhapatnam,Andhra Pradesh,17.6868,83.2185,26.5,91,0.0,1002.4,8.1,37.1,67,21.1,19.2,22.4,1114.0,27.0,5.7,7,5,4,1,2026-05-12T01:26:40.655115+05:30
Vijayawada,Andhra Pradesh,16.5062,80.648,28.0,80,0.0,1000.6,9.15,33.5,51,10.7,9.1,8.3,172.0,36.0,5.3,7,5,4,1,2026-05-12T01:26:40.655121+05:30
Guntur,Andhra Pradesh,16.3067,80.4365,28.0,82,0.0,1001.8,9.2,40.3,52,10.2,8.4,9.1,156.0,38.0,7.7,7,5,4,1,2026-05-12T01:26:40.655128+05:30
Nellore,Andhra Pradesh,14.4426,79.9865,26.4,90,0.0,1003.6,9.2,37.4,26,8.4,6.3,5.0,196.0,40.0,2.4,7,5,4,1,2026-05-12T01:26:40.655136+05:30
Kurnool,Andhra Pradesh,15.8281,78.0373,29.1,55,0.0,974.1,7.45,40.0,52,18.3,13.2,5.5,162.0,75.0,2.3,4,5,7,1,2026-05-12T01:26:40.655143+05:30
Kakinada,Andhra Pradesh,16.9891,82.2475,27.6,85,0.0,1005.9,8.65,40.3,26,6.0,3.4,1.0,161.0,54.0,0.4,7,5,4,1,2026-05-12T01:26:40.655149+05:30
Tirupati,Andhra Pradesh,13.6288,79.4192,25.4,90,0.0,989.2,9.25,36.7,50,19.1,16.8,25.5,260.0,13.0,3.4,7,5,7,1,2026-05-12T01:26:40.655156+05:30
Warangal,Telangana,17.9689,79.5941,27.8,71,0.0,976.2,8.95,39.2,74,22.2,18.8,9.2,233.0,87.0,10.3,7,5,7,1,2026-05-12T01:26:40.655162+05:30
Nizamabad,Telangana,18.6725,78.0941,28.9,49,0.0,961.5,9.15,29.2,79,37.7,29.2,16.9,263.0,68.0,5.5,4,5,7,1,2026-05-12T01:26:40.655168+05:30
Mysore,Karnataka,12.2958,76.6396,22.6,88,0.0,926.1,5.85,38.2,76,38.4,31.0,26.8,338.0,62.0,4.4,3,5,3,1,2026-05-12T01:26:40.655174+05:30
Mangalore,Karnataka,12.9141,74.856,27.2,92,0.0,1004.3,8.2,36.0,71,39.5,30.9,17.5,605.0,55.0,6.3,7,5,4,1,2026-05-12T01:26:40.655180+05:30
Hubli-Dharwad,Karnataka,15.3647,75.124,24.6,92,0.0,938.3,9.1,45.4,80,24.4,13.9,3.6,200.0,65.0,1.1,3,5,7,1,2026-05-12T01:26:40.655187+05:30
Belgaum,Karnataka,15.8497,74.4977,24.0,92,0.0,923.5,9.15,45.0,75,35.3,19.0,9.0,177.0,56.0,2.5,3,5,7,1,2026-05-12T01:26:43.889868+05:30
Coimbatore,Tamil Nadu,11.0168,76.9558,24.0,94,0.0,959.0,8.7,32.0,72,38.5,29.3,18.4,375.0,52.0,4.6,3,5,7,1,2026-05-12T01:26:43.889905+05:30
Madurai,Tamil Nadu,9.9252,78.1198,26.5,91,0.0,990.2,8.6,34.6,85,41.7,38.3,31.7,342.0,46.0,11.0,7,5,7,1,2026-05-12T01:26:43.889918+05:30
Trichy,Tamil Nadu,10.7905,78.7047,26.4,90,0.0,997.2,8.15,24.1,75,22.2,21.4,28.2,415.0,24.0,12.6,7,5,7,1,2026-05-12T01:26:43.889927+05:30
Salem,Tamil Nadu,11.6643,78.146,25.4,85,0.0,974.8,6.9,26.3,81,36.1,31.7,34.1,381.0,32.0,11.3,7,5,7,1,2026-05-12T01:26:43.889935+05:30
Tirunelveli,Tamil Nadu,8.7139,77.7567,27.3,75,0.0,999.8,9.0,38.9,57,21.1,20.3,16.9,447.0,34.0,2.2,7,5,7,1,2026-05-12T01:26:43.889944+05:30
Vellore,Tamil Nadu,12.9165,79.1325,25.0,91,0.0,982.5,9.25,30.6,60,36.8,34.1,33.9,368.0,15.0,14.0,7,5,7,1,2026-05-12T01:26:43.889952+05:30
Erode,Tamil Nadu,11.341,77.7172,26.5,73,0.0,986.5,5.9,20.9,85,43.7,36.9,39.4,408.0,42.0,6.5,7,5,3,1,2026-05-12T01:26:43.889960+05:30
Kochi,Kerala,9.9312,76.2673,26.1,93,0.0,1006.2,7.75,36.0,65,27.4,26.0,18.3,593.0,49.0,4.3,7,5,4,1,2026-05-12T01:26:43.889968+05:30
Thiruvananthapuram,Kerala,8.5241,76.9366,26.1,90,0.0,1005.3,8.6,38.2,45,14.4,10.5,4.6,337.0,92.0,2.5,7,5,4,1,2026-05-12T01:26:43.889976+05:30
Kozhikode,Kerala,11.2588,75.7804,26.0,93,0.0,1005.2,8.9,39.2,50,16.1,12.2,3.7,660.0,101.0,2.2,7,5,4,1,2026-05-12T01:26:43.889984+05:30
Thrissur,Kerala,10.5276,76.2144,24.9,99,0.0,1004.4,2.45,31.0,67,27.8,25.9,15.2,527.0,54.0,3.7,3,5,0,1,2026-05-12T01:26:43.889992+05:30
Kannur,Kerala,11.8745,75.3704,25.6,89,0.0,1004.6,8.65,41.8,56,28.2,25.6,26.4,490.0,38.0,4.4,7,5,4,1,2026-05-12T01:26:43.890000+05:30
Patna,Bihar,25.5941,85.1376,26.4,67,0.0,999.8,8.55,35.6,153,47.5,44.8,13.3,399.0,119.0,17.4,7,5,7,1,2026-05-12T01:26:43.890007+05:30
Gaya,Bihar,24.7914,85.0002,27.0,65,0.0,992.6,8.6,34.9,146,41.7,37.5,15.4,278.0,110.0,35.9,7,5,7,1,2026-05-12T01:26:43.890014+05:30
Muzaffarpur,Bihar,26.1209,85.3647,25.4,67,0.0,1000.3,8.75,38.5,117,44.7,42.3,13.7,452.0,116.0,15.3,7,5,4,1,2026-05-12T01:26:43.890021+05:30
Bhagalpur,Bihar,25.2425,87.0117,25.6,82,0.0,1001.7,7.75,28.4,123,50.4,47.0,13.4,282.0,111.0,14.3,7,5,4,1,2026-05-12T01:26:43.890028+05:30
Ranchi,Jharkhand,23.3441,85.3096,22.8,81,0.0,936.9,9.3,31.7,102,55.5,41.2,10.2,230.0,108.0,16.3,3,5,7,1,2026-05-12T01:26:43.890036+05:30
Jamshedpur,Jharkhand,22.8046,86.2029,25.5,84,0.0,990.7,9.1,39.6,89,36.0,32.6,24.7,214.0,47.0,24.2,7,5,7,1,2026-05-12T01:26:43.890044+05:30
Dhanbad,Jharkhand,23.7957,86.4304,25.6,83,0.0,979.9,9.05,37.8,150,52.3,49.9,58.6,235.0,31.0,64.7,7,5,7,1,2026-05-12T01:26:43.890050+05:30
Bokaro,Jharkhand,23.6693,86.1511,25.5,84,0.0,983.6,9.1,36.0,150,56.2,54.0,53.7,1524.0,42.0,60.9,7,5,7,1,2026-05-12T01:26:43.890058+05:30
Bhubaneswar,Odisha,20.2961,85.8245,26.3,91,0.0,1002.2,9.15,33.5,70,26.8,24.0,23.1,365.0,22.0,6.0,7,5,4,1,2026-05-12T01:26:43.890064+05:30
Cuttack,Odisha,20.4625,85.8828,26.2,92,0.0,1004.0,9.2,37.4,70,26.8,24.0,23.1,307.0,22.0,6.0,7,5,4,1,2026-05-12T01:26:43.890071+05:30
Rourkela,Odisha,22.2604,84.8536,26.8,78,0.0,984.0,9.0,35.6,107,64.7,48.9,21.0,274.0,88.0,48.2,7,5,7,1,2026-05-12T01:26:43.890078+05:30
Raipur,Chhattisgarh,21.2514,81.6296,29.7,43,0.0,971.6,9.05,31.7,103,57.7,39.7,22.4,353.0,84.0,6.1,4,5,7,0,2026-05-12T01:26:43.890085+05:30
Bhilai,Chhattisgarh,21.1938,81.3509,29.0,45,0.0,971.9,9.05,31.3,103,57.0,39.2,29.9,339.0,70.0,6.8,4,5,7,0,2026-05-12T01:26:43.890091+05:30
Guwahati,Assam,26.1158,91.7086,21.2,93,0.0,1003.5,8.65,25.2,75,49.4,46.8,21.5,466.0,34.0,3.0,3,5,4,1,2026-05-12T01:26:43.890098+05:30
Agartala,Tripura,23.8315,91.2868,22.1,94,0.0,1007.4,8.85,14.4,102,34.5,31.3,13.7,359.0,71.0,1.9,3,5,4,1,2026-05-12T01:26:43.890105+05:30
Shillong,Meghalaya,25.5788,91.8933,13.3,96,0.0,855.7,6.75,20.9,70,27.5,24.3,15.7,473.0,45.0,0.9,3,10,7,0,2026-05-12T01:26:43.890112+05:30
Imphal,Manipur,24.817,93.9368,16.5,95,0.0,923.4,9.2,21.2,72,40.2,37.8,26.9,664.0,31.0,3.2,3,10,7,0,2026-05-12T01:26:43.890119+05:30
Aizawl,Mizoram,23.7271,92.7176,15.3,100,0.0,892.0,9.05,26.6,72,21.1,19.0,14.4,390.0,17.0,0.4,3,10,7,0,2026-05-12T01:26:43.890126+05:30
Kohima,Nagaland,25.6701,94.1077,13.4,92,0.0,854.1,8.9,29.5,49,9.5,8.4,9.3,308.0,48.0,0.9,3,10,7,0,2026-05-12T01:26:43.890133+05:30
Gangtok,Sikkim,27.3314,88.6138,12.1,81,0.0,836.6,9.0,40.7,62,38.8,30.5,21.4,501.0,53.0,1.3,3,10,7,0,2026-05-12T01:26:43.890139+05:30
Siliguri,West Bengal,26.7271,88.3953,22.5,86,0.0,995.6,8.5,24.5,92,65.2,50.2,27.5,402.0,81.0,5.6,3,5,7,1,2026-05-12T01:26:47.140472+05:30
Durgapur,West Bengal,23.5204,87.3119,25.3,93,0.0,995.2,9.0,27.4,149,51.0,48.1,31.8,250.0,51.0,32.8,7,5,7,1,2026-05-12T01:26:47.140509+05:30
Asansol,West Bengal,23.6739,86.9524,25.0,90,0.0,993.7,9.05,31.7,133,39.7,37.0,32.5,478.0,49.0,41.5,7,5,7,1,2026-05-12T01:26:47.140520+05:30
Pondicherry,Puducherry,11.9139,79.8145,27.5,87,0.0,1005.7,8.85,30.6,32,7.7,5.6,5.3,199.0,37.0,1.4,7,5,4,1,2026-05-12T01:26:47.140530+05:30
Port Blair,Andaman and Nicobar Islands,11.6234,92.7265,25.8,97,0.2,1005.2,8.15,35.6,26,2.2,1.7,0.4,173.0,55.0,0.1,10,5,4,1,2026-05-12T01:26:47.140539+05:30
Haridwar,Uttarakhand,29.9457,78.1642,22.6,81,0.0,971.1,7.2,32.4,126,63.1,50.3,17.3,400.0,79.0,8.2,3,5,7,1,2026-05-12T01:26:47.140547+05:30
Rishikesh,Uttarakhand,30.0869,78.2676,20.3,89,0.0,963.9,7.35,20.9,116,65.2,45.6,13.9,373.0,81.0,4.5,3,5,7,1,2026-05-12T01:26:47.140555+05:30
Nainital,Uttarakhand,29.3919,79.4542,12.7,91,0.0,803.4,8.25,44.3,107,52.7,41.4,20.9,350.0,72.0,6.5,3,10,7,0,2026-05-12T01:26:47.140563+05:30
Mussoorie,Uttarakhand,30.4599,78.0664,11.8,92,0.0,799.7,7.95,44.3,126,72.2,53.7,26.2,413.0,84.0,11.2,3,10,7,0,2026-05-12T01:26:47.140571+05:30
Dharamshala,Himachal Pradesh,32.219,76.3234,21.0,45,0.0,867.5,8.35,35.6,89,34.9,21.1,12.5,306.0,45.0,0.1,0,5,7,0,2026-05-12T01:26:47.140578+05:30
Dalhousie,Himachal Pradesh,32.5387,75.971,11.1,76,0.0,799.7,8.55,43.2,151,68.7,47.5,38.6,592.0,25.0,1.9,3,5,7,0,2026-05-12T01:26:47.140586+05:30
Patiala,Punjab,30.3398,76.3869,25.5,73,0.0,975.0,7.6,47.5,428,222.6,83.8,13.4,571.0,114.0,23.3,7,5,7,1,2026-05-12T01:26:47.140594+05:30
Bhatinda,Punjab,30.211,74.9455,28.2,56,0.0,980.5,8.2,40.7,415,285.9,81.5,7.2,460.0,111.0,12.0,4,5,7,1,2026-05-12T01:26:47.140602+05:30
Rohtak,Haryana,28.8955,76.6066,27.5,59,0.0,978.3,7.7,45.0,249,568.1,108.3,19.8,525.0,129.0,27.1,4,5,7,1,2026-05-12T01:26:47.140609+05:30
Panipat,Haryana,29.3909,76.9635,25.2,72,0.0,977.0,7.55,38.2,500,638.9,114.6,18.1,541.0,118.0,18.6,7,5,7,1,2026-05-12T01:26:47.140616+05:30
Mathura,Uttar Pradesh,27.4924,77.6737,27.6,55,0.0,983.2,7.95,28.4,381,778.6,115.3,9.2,482.0,108.0,11.7,4,5,7,1,2026-05-12T01:26:47.140642+05:30
Vrindavan,Uttar Pradesh,27.5823,77.7027,27.9,55,0.0,983.7,7.95,29.9,381,778.6,115.3,9.2,474.0,108.0,11.7,4,5,7,1,2026-05-12T01:26:47.140649+05:30
Ayodhya,Uttar Pradesh,26.7922,82.1998,24.7,62,0.0,994.2,8.3,36.4,105,64.0,57.4,43.2,433.0,58.0,13.7,3,5,7,1,2026-05-12T01:26:47.140656+05:30
Ratlam,Madhya Pradesh,23.3315,75.0367,30.1,27,0.0,951.7,8.55,31.0,72,63.3,27.2,6.7,329.0,77.0,7.3,0,5,7,0,2026-05-12T01:26:47.140663+05:30
Sagar,Madhya Pradesh,23.8388,78.7378,27.9,46,0.0,948.1,8.75,33.1,99,63.3,36.7,5.8,345.0,119.0,7.1,4,5,7,0,2026-05-12T01:26:47.140669+05:30
Satna,Madhya Pradesh,24.6005,80.8322,27.4,45,0.0,969.7,8.75,35.3,136,46.1,33.2,9.4,304.0,121.0,10.8,4,5,7,0,2026-05-12T01:26:47.140676+05:30
Akola,Maharashtra,20.7002,77.0082,32.5,29,0.0,970.9,8.95,34.6,90,62.2,34.8,20.6,316.0,63.0,7.2,0,5,7,0,2026-05-12T01:26:47.140684+05:30
Amravati,Maharashtra,20.9374,77.7796,32.2,31,0.0,963.8,8.95,38.2,92,72.2,37.4,24.9,299.0,64.0,9.2,0,5,7,0,2026-05-12T01:26:47.140692+05:30
Latur,Maharashtra,18.4088,76.5604,29.7,37,0.0,937.0,9.1,38.9,86,37.5,26.0,14.3,283.0,84.0,7.4,4,5,7,0,2026-05-12T01:26:47.140700+05:30
Nanded,Maharashtra,19.1383,77.3091,30.5,41,0.0,965.5,9.05,29.9,80,56.6,37.1,23.2,306.0,60.0,6.8,0,5,7,0,2026-05-12T01:26:47.140707+05:30
Gulbarga,Karnataka,17.3297,76.8343,29.6,42,0.0,955.6,8.8,28.4,81,31.3,21.0,13.4,305.0,81.0,9.9,4,5,7,0,2026-05-12T01:26:47.140714+05:30
Bidar,Karnataka,17.9104,77.5199,27.7,47,0.0,932.7,9.15,36.0,67,36.9,27.4,16.4,294.0,75.0,7.0,4,5,7,0,2026-05-12T01:26:47.140720+05:30
Hospet,Karnataka,15.2689,76.3909,26.2,81,0.0,953.8,9.2,27.7,79,30.7,21.2,16.4,271.0,72.0,8.0,7,5,7,1,2026-05-12T01:26:47.140727+05:30
Tirupur,Tamil Nadu,11.1085,77.3411,25.5,85,0.0,972.5,9.0,31.7,85,38.4,31.0,27.5,304.0,50.0,6.7,7,5,7,1,2026-05-12T01:26:47.140733+05:30
Alappuzha,Kerala,9.4981,76.3388,26.6,91,0.0,1006.3,8.55,34.2,54,20.1,16.9,13.6,243.0,79.0,4.5,7,5,4,1,2026-05-12T01:26:47.140739+05:30
Munnar,Kerala,10.0889,77.0595,17.0,79,0.0,853.8,8.4,19.1,63,28.5,26.3,16.2,295.0,29.0,1.9,3,5,7,0,2026-05-12T01:26:47.140747+05:30
Silchar,Assam,24.8333,92.7789,22.2,98,0.0,1006.7,8.85,22.3,104,45.5,38.5,9.2,543.0,103.0,5.4,3,5,4,1,2026-05-12T01:26:47.140753+05:30
Dibrugarh,Assam,27.4728,94.912,20.0,94,0.0,997.6,8.75,19.4,73,46.1,42.6,38.5,510.0,9.0,3.3,3,5,7,1,2026-05-12T01:26:47.140760+05:30
