city,state,latitude,longitude,temp,humidity,rain,pressure,uv_index,wind_gusts,aqi,pm10,pm2_5,mosquito_risk,arthritis_risk,migraine_risk,frizz_risk,updated_at
Delhi,Delhi,28.6139,77.209,22.1,82,0.0,984.0,5.25,27.0,217,370.7,95.2,3,5,3,1,2026-03-13T02:09:28.426557+05:30
Mumbai,Maharashtra,19.076,72.8777,28.4,75,0.0,1007.7,7.65,24.8,159,38.3,35.7,7,5,4,1,2026-03-13T02:09:28.426598+05:30
Bangalore,Karnataka,12.9716,77.5946,21.4,63,0.0,911.2,9.3,31.0,74,24.0,21.7,3,5,7,0,2026-03-13T02:09:28.426613+05:30
Hyderabad,Telangana,17.385,78.4867,23.5,56,0.0,952.5,8.65,24.1,97,41.0,31.1,0,5,7,0,2026-03-13T02:09:28.426623+05:30
Chennai,Tamil Nadu,13.0827,80.2707,24.6,95,0.0,1007.5,9.05,30.2,77,25.5,21.5,3,5,4,1,2026-03-13T02:09:28.426632+05:30
Kolkata,West Bengal,22.5726,88.3639,24.1,96,0.0,1006.8,8.0,29.2,137,33.5,30.2,3,5,4,1,2026-03-13T02:09:28.426640+05:30
Pune,Maharashtra,18.5204,73.8567,23.6,63,0.0,948.0,8.2,28.4,141,78.9,76.6,3,5,7,1,2026-03-13T02:09:28.426652+05:30
Ahmedabad,Gujarat,23.0225,72.5714,24.1,42,0.0,1002.8,7.5,23.4,79,80.1,64.3,0,5,4,0,2026-03-13T02:09:28.426659+05:30
Jaipur,Rajasthan,26.9124,75.7873,23.1,24,0.0,960.5,6.95,35.6,103,125.3,30.9,0,5,7,0,2026-03-13T02:09:28.426667+05:30
Lucknow,Uttar Pradesh,26.8467,80.9462,24.5,53,0.0,993.3,6.05,27.0,156,398.6,95.9,0,5,7,0,2026-03-13T02:09:28.426675+05:30
Kanpur,Uttar Pradesh,26.4499,80.3319,23.7,67,0.0,991.8,6.15,20.2,231,446.1,100.8,3,5,7,1,2026-03-13T02:09:28.426682+05:30
Chandigarh,Chandigarh,30.7333,76.7794,18.5,81,0.0,969.6,5.1,23.8,97,51.1,43.1,3,10,3,0,2026-03-13T02:09:28.426689+05:30
Srinagar,Jammu and Kashmir,34.0837,74.7973,6.1,97,0.0,842.0,6.9,14.0,74,29.3,27.9,3,10,7,0,2026-03-13T02:09:28.426697+05:30
Jammu,Jammu and Kashmir,32.7266,74.857,17.3,86,0.0,975.1,6.65,26.6,84,38.1,31.4,3,10,7,0,2026-03-13T02:09:28.426704+05:30
Amritsar,Punjab,31.634,74.8723,17.7,89,0.0,983.2,6.15,24.1,141,57.6,35.7,3,10,7,0,2026-03-13T02:09:28.426710+05:30
Ludhiana,Punjab,30.901,75.8573,19.6,82,0.0,980.6,5.15,26.6,142,48.9,33.9,3,10,3,1,2026-03-13T02:09:28.426717+05:30
Jalandhar,Punjab,31.326,75.5762,18.9,83,0.0,982.0,6.15,27.0,127,64.3,34.2,3,10,7,0,2026-03-13T02:09:28.426726+05:30
Dehradun,Uttarakhand,30.6284,78.0322,12.2,60,0.0,829.4,5.95,27.0,53,18.3,8.9,0,5,3,0,2026-03-13T02:09:28.426733+05:30
Shimla,Himachal Pradesh,31.1048,77.1734,9.9,72,0.0,782.6,5.6,34.9,68,32.6,18.6,3,5,3,0,2026-03-13T02:09:28.426740+05:30
Manali,Himachal Pradesh,32.2396,77.1887,11.7,35,0.0,819.4,7.95,44.3,43,8.8,4.6,0,5,7,1,2026-03-13T02:09:28.426747+05:30
Gurgaon,Haryana,28.4595,77.0266,19.9,91,0.0,982.6,5.55,24.5,811,895.9,149.5,3,10,3,1,2026-03-13T02:09:28.426754+05:30
Noida,Uttar Pradesh,28.5355,77.391,22.2,80,0.0,985.4,5.75,26.6,811,895.9,149.5,3,5,3,1,2026-03-13T02:09:28.426760+05:30
Ghaziabad,Uttar Pradesh,28.6692,77.4538,21.1,83,0.0,983.3,5.85,25.9,176,339.0,93.6,3,5,3,1,2026-03-13T02:09:28.426767+05:30
Faridabad,Haryana,28.4089,77.3178,20.8,84,0.0,984.6,5.6,27.0,811,895.9,149.5,3,5,3,1,2026-03-13T02:09:28.426773+05:30
Meerut,Uttar Pradesh,28.9845,77.7064,20.3,84,0.0,981.9,5.25,25.9,176,339.0,93.6,3,5,3,1,2026-03-13T02:09:28.426779+05:30
Agra,Uttar Pradesh,27.1767,78.0081,19.3,58,0.0,988.4,5.95,20.5,331,211.9,90.1,0,5,3,0,2026-03-13T02:09:28.426786+05:30
Varanasi,Uttar Pradesh,25.3176,82.9739,20.9,70,0.0,997.6,7.05,21.2,108,119.7,54.6,3,5,7,0,2026-03-13T02:09:28.426795+05:30
Prayagraj,Uttar Pradesh,25.4358,81.8463,23.7,55,0.0,996.0,6.85,16.9,120,198.8,70.5,0,5,7,0,2026-03-13T02:09:28.426802+05:30
Gorakhpur,Uttar Pradesh,26.7606,83.3732,21.4,83,0.0,997.2,6.95,30.2,192,144.8,132.7,3,5,7,1,2026-03-13T02:09:28.426809+05:30
Bareilly,Uttar Pradesh,28.367,79.4304,20.2,77,0.0,986.9,6.05,27.4,150,415.4,105.2,3,5,7,1,2026-03-13T02:09:28.426815+05:30
Aligarh,Uttar Pradesh,27.8974,78.088,19.4,77,0.0,985.9,5.6,26.6,473,562.5,134.1,3,5,3,0,2026-03-13T02:09:28.426821+05:30
Moradabad,Uttar Pradesh,28.8386,78.7733,20.7,79,0.0,983.8,5.25,27.7,151,183.0,71.0,3,5,3,1,2026-03-13T02:09:28.426830+05:30
Saharanpur,Uttar Pradesh,29.9637,77.546,18.7,83,0.0,976.4,4.9,23.8,155,253.3,102.4,3,10,3,0,2026-03-13T02:09:28.426836+05:30
Jhansi,Uttar Pradesh,25.4484,78.5685,22.3,42,0.0,977.9,7.0,20.5,52,12.2,12.0,0,5,7,0,2026-03-13T02:09:31.741754+05:30
Surat,Gujarat,21.1702,72.8311,25.9,70,0.0,1006.4,7.35,27.0,140,49.6,48.2,7,5,4,1,2026-03-13T02:09:31.741784+05:30
Vadodara,Gujarat,22.3072,73.1812,27.2,31,0.0,1004.2,7.5,23.4,93,60.3,56.9,4,5,4,0,2026-03-13T02:09:31.741794+05:30
Rajkot,Gujarat,22.3039,70.8022,23.6,68,0.0,995.2,7.3,36.4,61,75.0,31.0,3,5,7,1,2026-03-13T02:09:31.741802+05:30
Thane,Maharashtra,19.2183,72.9781,26.1,79,0.0,1007.2,7.65,37.8,159,38.3,35.7,7,5,4,1,2026-03-13T02:09:31.741809+05:30
Nagpur,Maharashtra,21.1458,79.0882,23.8,55,0.0,972.5,8.05,21.2,87,25.3,21.2,0,5,7,0,2026-03-13T02:09:31.741817+05:30
Nashik,Maharashtra,19.9975,73.7898,24.7,43,0.0,945.4,7.85,35.6,88,28.7,27.0,0,5,7,0,2026-03-13T02:09:31.741824+05:30
Aurangabad,Maharashtra,19.8762,75.3433,24.5,35,0.0,943.6,8.35,21.2,74,31.5,30.4,0,5,7,0,2026-03-13T02:09:31.741830+05:30
Solapur,Maharashtra,17.6599,75.9064,24.6,65,0.0,956.1,8.6,13.0,96,35.4,32.1,3,5,7,1,2026-03-13T02:09:31.741839+05:30
Kolhapur,Maharashtra,16.705,74.2433,21.9,72,0.0,947.1,8.7,44.6,152,82.2,79.4,3,5,7,1,2026-03-13T02:09:31.741846+05:30
Goa,Goa,15.2993,74.124,25.9,94,0.0,997.0,8.7,32.8,140,64.7,58.1,7,5,7,1,2026-03-13T02:09:31.741852+05:30
Jodhpur,Rajasthan,26.2389,73.0243,24.4,37,0.0,983.9,7.2,22.3,73,131.8,32.6,0,5,7,0,2026-03-13T02:09:31.741859+05:30
Udaipur,Rajasthan,24.5854,73.7125,21.7,26,0.0,947.4,7.65,34.9,47,26.8,13.2,0,5,7,0,2026-03-13T02:09:31.741865+05:30
Kota,Rajasthan,25.2138,75.8648,20.7,47,0.0,978.9,6.8,14.8,73,28.6,26.9,0,5,7,0,2026-03-13T02:09:31.741872+05:30
Bikaner,Rajasthan,28.0229,73.3119,24.2,60,0.0,983.6,6.1,24.1,102,62.9,32.1,0,5,7,0,2026-03-13T02:09:31.741879+05:30
Ajmer,Rajasthan,26.4499,74.6399,22.8,39,0.0,955.5,6.7,20.9,58,28.2,13.4,0,5,7,0,2026-03-13T02:09:31.741886+05:30
Gwalior,Madhya Pradesh,26.2183,78.1828,24.0,35,0.0,983.6,6.35,19.1,51,15.3,10.9,0,5,7,0,2026-03-13T02:09:31.741892+05:30
Indore,Madhya Pradesh,22.7196,75.8577,19.9,44,0.0,947.9,7.8,31.7,77,24.4,23.7,0,5,7,0,2026-03-13T02:09:31.741898+05:30
Bhopal,Madhya Pradesh,23.2599,77.4126,20.7,50,0.0,953.5,7.65,27.0,63,33.9,31.1,0,5,7,0,2026-03-13T02:09:31.741904+05:30
Jabalpur,Madhya Pradesh,23.1815,79.9864,23.4,46,0.0,961.0,7.75,22.0,79,49.9,33.8,0,5,7,0,2026-03-13T02:09:31.741911+05:30
Ujjain,Madhya Pradesh,23.1765,75.7885,20.6,43,0.0,953.6,7.7,22.7,87,16.6,15.7,0,5,7,0,2026-03-13T02:09:31.741918+05:30
Visakhapatnam,Andhra Pradesh,17.6868,83.2185,25.0,92,0.0,1003.9,8.65,39.2,92,34.5,30.6,7,5,4,1,2026-03-13T02:09:31.741925+05:30
Vijayawada,Andhra Pradesh,16.5062,80.648,24.8,92,0.0,1002.5,8.75,28.8,76,27.9,25.5,3,5,4,1,2026-03-13T02:09:31.741931+05:30
Guntur,Andhra Pradesh,16.3067,80.4365,24.0,95,0.0,1003.6,8.75,32.0,73,23.9,21.7,3,5,4,1,2026-03-13T02:09:31.741938+05:30
Nellore,Andhra Pradesh,14.4426,79.9865,23.9,94,0.0,1005.8,8.9,31.7,72,21.0,19.5,3,5,4,1,2026-03-13T02:09:31.741945+05:30
Kurnool,Andhra Pradesh,15.8281,78.0373,26.8,48,0.0,976.1,8.75,20.2,76,32.9,28.5,4,5,7,0,2026-03-13T02:09:31.741952+05:30
Kakinada,Andhra Pradesh,16.9891,82.2475,23.6,95,0.0,1007.6,8.7,31.3,71,29.5,24.8,3,5,4,1,2026-03-13T02:09:31.741958+05:30
Tirupati,Andhra Pradesh,13.6288,79.4192,23.2,84,0.0,992.0,9.05,33.1,105,46.2,44.8,3,5,7,1,2026-03-13T02:09:31.741965+05:30
Warangal,Telangana,17.9689,79.5941,24.2,56,0.0,977.5,8.5,24.8,105,41.3,36.0,0,5,7,0,2026-03-13T02:09:31.741971+05:30
Nizamabad,Telangana,18.6725,78.0941,25.6,54,0.0,963.7,8.4,29.2,105,62.4,55.9,4,5,7,0,2026-03-13T02:09:31.741977+05:30
Mysore,Karnataka,12.2958,76.6396,21.1,61,0.0,927.5,9.3,33.1,66,21.8,19.9,3,5,7,0,2026-03-13T02:09:31.741984+05:30
Mangalore,Karnataka,12.9141,74.856,29.3,78,0.0,1006.0,8.95,25.9,106,50.4,43.8,7,5,4,1,2026-03-13T02:09:31.741990+05:30
Hubli-Dharwad,Karnataka,15.3647,75.124,20.8,59,0.0,939.7,8.9,31.3,81,26.4,22.8,0,5,7,0,2026-03-13T02:09:31.741997+05:30
Belgaum,Karnataka,15.8497,74.4977,23.1,56,0.0,924.8,8.95,44.6,107,61.2,54.5,0,5,7,0,2026-03-13T02:09:35.055783+05:30
Coimbatore,Tamil Nadu,11.0168,76.9558,23.6,69,0.0,961.6,9.25,43.9,72,28.5,27.9,3,5,7,1,2026-03-13T02:09:35.055815+05:30
Madurai,Tamil Nadu,9.9252,78.1198,25.1,90,0.0,993.5,9.25,24.8,72,26.9,25.5,7,5,7,1,2026-03-13T02:09:35.055827+05:30
Trichy,Tamil Nadu,10.7905,78.7047,24.3,97,0.0,1000.2,9.15,21.6,81,31.1,28.1,3,5,4,1,2026-03-13T02:09:35.055837+05:30
Salem,Tamil Nadu,11.6643,78.146,23.7,88,0.0,977.2,9.2,23.4,80,37.8,36.6,3,5,7,1,2026-03-13T02:09:35.055845+05:30
Tirunelveli,Tamil Nadu,8.7139,77.7567,25.1,83,0.0,1003.5,9.2,37.1,60,20.5,18.5,7,5,4,1,2026-03-13T02:09:35.055854+05:30
Vellore,Tamil Nadu,12.9165,79.1325,22.6,95,0.0,985.0,9.1,34.2,94,50.4,49.0,3,5,7,1,2026-03-13T02:09:35.055862+05:30
Erode,Tamil Nadu,11.341,77.7172,24.6,90,0.0,989.2,9.15,20.9,75,24.3,23.5,3,5,7,1,2026-03-13T02:09:35.055871+05:30
Kochi,Kerala,9.9312,76.2673,27.1,86,0.0,1008.4,9.1,33.8,92,38.0,37.0,7,0,4,1,2026-03-13T02:09:35.055879+05:30
Thiruvananthapuram,Kerala,8.5241,76.9366,27.4,83,0.0,1007.5,9.1,30.2,60,17.5,13.0,7,5,4,1,2026-03-13T02:09:35.055888+05:30
Kozhikode,Kerala,11.2588,75.7804,28.4,81,0.0,1007.3,9.0,25.9,99,35.2,31.0,7,5,4,1,2026-03-13T02:09:35.055896+05:30
Thrissur,Kerala,10.5276,76.2144,26.2,89,0.0,1006.7,9.05,36.7,94,40.0,38.6,7,5,4,1,2026-03-13T02:09:35.055904+05:30
Kannur,Kerala,11.8745,75.3704,28.1,85,0.0,1006.6,9.0,29.2,98,45.2,40.7,7,5,4,1,2026-03-13T02:09:35.055911+05:30
Patna,Bihar,25.5941,85.1376,24.1,88,0.0,1000.5,7.1,25.2,193,139.7,133.2,3,5,4,1,2026-03-13T02:09:35.055919+05:30
Gaya,Bihar,24.7914,85.0002,25.1,50,0.0,993.8,7.3,21.2,164,188.6,75.7,4,5,7,0,2026-03-13T02:09:35.055927+05:30
Muzaffarpur,Bihar,26.1209,85.3647,22.5,92,0.0,1000.6,7.4,24.1,215,130.4,123.4,3,5,4,1,2026-03-13T02:09:35.055934+05:30
Bhagalpur,Bihar,25.2425,87.0117,22.8,90,0.0,1001.9,7.5,27.0,182,104.3,99.2,3,5,4,1,2026-03-13T02:09:35.055942+05:30
Ranchi,Jharkhand,23.3441,85.3096,21.8,48,0.0,937.8,8.2,31.7,148,120.6,39.7,0,5,7,0,2026-03-13T02:09:35.055950+05:30
Jamshedpur,Jharkhand,22.8046,86.2029,24.9,89,0.0,991.3,8.1,17.6,164,47.6,45.3,3,5,7,1,2026-03-13T02:09:35.055958+05:30
Dhanbad,Jharkhand,23.7957,86.4304,24.0,92,0.0,980.1,8.0,27.7,184,114.6,110.8,3,5,7,1,2026-03-13T02:09:35.055965+05:30
Bokaro,Jharkhand,23.6693,86.1511,23.2,67,0.0,984.3,8.0,29.9,172,128.1,75.0,3,5,7,1,2026-03-13T02:09:35.055972+05:30
Bhubaneswar,Odisha,20.2961,85.8245,25.5,92,0.0,1002.8,8.4,36.4,124,35.9,31.1,7,5,4,1,2026-03-13T02:09:35.055978+05:30
Cuttack,Odisha,20.4625,85.8828,25.3,94,0.0,1004.8,8.4,30.2,124,35.9,31.1,7,5,4,1,2026-03-13T02:09:35.055984+05:30
Rourkela,Odisha,22.2604,84.8536,25.1,60,0.0,984.8,8.0,25.6,150,89.4,39.8,4,5,7,1,2026-03-13T02:09:35.055990+05:30
Raipur,Chhattisgarh,21.2514,81.6296,24.3,47,0.0,973.8,8.15,15.5,154,73.6,54.8,0,5,7,0,2026-03-13T02:09:35.055996+05:30
Bhilai,Chhattisgarh,21.1938,81.3509,23.4,47,0.0,974.2,8.15,12.2,145,79.6,59.8,0,5,7,0,2026-03-13T02:09:35.056002+05:30
Guwahati,Assam,26.1158,91.7086,23.5,93,0.0,1002.7,7.25,28.4,154,69.8,66.4,3,5,4,1,2026-03-13T02:09:35.056008+05:30
Agartala,Tripura,23.8315,91.2868,21.6,92,0.0,1007.2,7.7,25.9,152,46.4,43.9,3,5,4,1,2026-03-13T02:09:35.056014+05:30
Shillong,Meghalaya,25.5788,91.8933,12.3,92,0.0,855.0,6.9,57.2,151,69.8,63.8,3,10,7,0,2026-03-13T02:09:35.056020+05:30
Imphal,Manipur,24.817,93.9368,16.3,94,0.0,924.3,7.8,69.5,166,74.0,71.0,3,10,7,0,2026-03-13T02:09:35.056027+05:30
Aizawl,Mizoram,23.7271,92.7176,16.0,87,0.0,892.6,6.8,66.2,182,126.2,115.9,3,10,7,0,2026-03-13T02:09:35.056033+05:30
Kohima,Nagaland,25.6701,94.1077,14.2,86,0.0,854.5,5.95,78.1,151,52.7,50.3,3,10,3,0,2026-03-13T02:09:35.056040+05:30
Gangtok,Sikkim,27.3314,88.6138,14.0,96,0.0,836.7,6.45,17.6,89,35.6,32.9,3,10,7,0,2026-03-13T02:09:35.056045+05:30
Siliguri,West Bengal,26.7271,88.3953,19.6,83,0.0,995.1,7.4,29.2,159,66.6,60.3,3,10,7,1,2026-03-13T02:09:38.372143+05:30
Durgapur,West Bengal,23.5204,87.3119,24.5,92,0.0,995.7,7.9,23.8,182,95.2,89.4,3,5,7,1,2026-03-13T02:09:38.372181+05:30
Asansol,West Bengal,23.6739,86.9524,24.9,91,0.0,994.1,7.95,23.0,180,90.1,85.2,3,5,7,1,2026-03-13T02:09:38.372219+05:30
Pondicherry,Puducherry,11.9139,79.8145,23.7,99,0.0,1008.9,9.05,28.4,70,23.1,18.5,3,0,4,1,2026-03-13T02:09:38.372228+05:30
Port Blair,Andaman and Nicobar Islands,11.6234,92.7265,27.3,84,0.0,1006.8,8.95,23.8,47,16.0,13.1,7,5,4,1,2026-03-13T02:09:38.372237+05:30
Haridwar,Uttarakhand,29.9457,78.1642,19.0,72,0.0,974.8,5.3,26.3,105,74.0,45.6,3,5,3,0,2026-03-13T02:09:38.372244+05:30
Rishikesh,Uttarakhand,30.0869,78.2676,18.9,58,0.0,967.7,5.65,24.8,78,42.5,26.8,0,5,3,0,2026-03-13T02:09:38.372251+05:30
Nainital,Uttarakhand,29.3919,79.4542,18.6,44,0.0,806.3,6.35,46.8,92,89.6,36.1,0,5,7,0,2026-03-13T02:09:38.372258+05:30
Mussoorie,Uttarakhand,30.4599,78.0664,15.5,45,0.0,802.7,5.45,29.5,83,35.3,28.9,0,5,3,0,2026-03-13T02:09:38.372265+05:30
Dharamshala,Himachal Pradesh,32.219,76.3234,17.8,47,0.0,869.7,5.9,25.2,48,8.5,4.6,0,5,3,0,2026-03-13T02:09:38.372271+05:30
Dalhousie,Himachal Pradesh,32.5387,75.971,14.2,50,0.0,803.8,6.1,30.6,68,22.5,17.2,0,5,7,0,2026-03-13T02:09:38.372278+05:30
Patiala,Punjab,30.3398,76.3869,18.9,86,0.0,979.6,4.95,23.0,155,400.5,70.8,3,10,3,1,2026-03-13T02:09:38.372285+05:30
Bhatinda,Punjab,30.211,74.9455,19.3,88,0.0,985.7,5.9,25.2,152,71.2,44.8,3,10,3,1,2026-03-13T02:09:38.372292+05:30
Rohtak,Haryana,28.8955,76.6066,20.2,88,0.0,983.1,4.85,23.8,281,439.6,99.7,3,5,3,1,2026-03-13T02:09:38.372299+05:30
Panipat,Haryana,29.3909,76.9635,19.5,87,0.0,981.3,4.6,23.4,366,774.9,127.1,3,10,3,1,2026-03-13T02:09:38.372306+05:30
Mathura,Uttar Pradesh,27.4924,77.6737,20.3,63,0.0,987.6,6.4,24.8,226,225.8,74.7,3,5,7,0,2026-03-13T02:09:38.372312+05:30
Vrindavan,Uttar Pradesh,27.5823,77.7027,18.2,78,0.0,988.1,6.1,25.9,226,225.8,74.7,3,5,7,0,2026-03-13T02:09:38.372318+05:30
Ayodhya,Uttar Pradesh,26.7922,82.1998,21.0,72,0.0,995.1,6.35,28.8,153,169.5,80.8,3,5,7,0,2026-03-13T02:09:38.372324+05:30
Ratlam,Madhya Pradesh,23.3315,75.0367,24.0,31,0.0,954.8,7.6,25.6,72,15.7,14.1,0,5,7,0,2026-03-13T02:09:38.372331+05:30
Sagar,Madhya Pradesh,23.8388,78.7378,22.5,41,0.0,950.2,7.6,25.9,56,26.1,21.0,0,5,7,0,2026-03-13T02:09:38.372337+05:30
Satna,Madhya Pradesh,24.6005,80.8322,23.2,44,0.0,971.6,7.4,29.5,59,28.9,22.6,0,5,7,0,2026-03-13T02:09:38.372343+05:30
Akola,Maharashtra,20.7002,77.0082,23.8,57,0.0,974.5,8.05,18.7,93,42.1,34.9,0,5,7,0,2026-03-13T02:09:38.372350+05:30
Amravati,Maharashtra,20.9374,77.7796,22.4,54,0.0,966.4,8.0,20.5,97,49.9,41.4,0,5,7,0,2026-03-13T02:09:38.372357+05:30
Latur,Maharashtra,18.4088,76.5604,23.7,47,0.0,938.9,8.5,23.4,88,46.8,40.9,0,5,7,0,2026-03-13T02:09:38.372363+05:30
Nanded,Maharashtra,19.1383,77.3091,26.0,50,0.0,967.8,8.3,14.0,101,68.9,63.1,4,5,7,0,2026-03-13T02:09:38.372369+05:30
Gulbarga,Karnataka,17.3297,76.8343,27.6,47,0.0,958.1,8.6,34.2,94,36.4,30.9,4,5,7,0,2026-03-13T02:09:38.372375+05:30
Bidar,Karnataka,17.9104,77.5199,24.8,50,0.0,934.9,8.55,31.3,99,45.6,38.6,0,5,7,0,2026-03-13T02:09:38.372381+05:30
Hospet,Karnataka,15.2689,76.3909,26.7,51,0.0,955.2,8.9,23.0,78,43.0,37.0,4,5,7,0,2026-03-13T02:09:38.372387+05:30
Tirupur,Tamil Nadu,11.1085,77.3411,25.1,76,0.0,975.5,9.25,29.5,79,28.0,27.2,7,5,7,1,2026-03-13T02:09:38.372393+05:30
Alappuzha,Kerala,9.4981,76.3388,27.2,85,0.0,1008.4,9.1,27.7,86,38.8,36.3,7,0,4,1,2026-03-13T02:09:38.372399+05:30
Munnar,Kerala,10.0889,77.0595,19.1,80,0.0,855.3,9.55,27.0,70,27.9,27.0,3,5,7,0,2026-03-13T02:09:38.372406+05:30
Silchar,Assam,24.8333,92.7789,21.6,94,0.0,1007.4,7.75,34.2,179,131.8,122.9,3,5,4,1,2026-03-13T02:09:38.372412+05:30
Dibrugarh,Assam,27.4728,94.912,22.1,86,0.0,997.5,3.6,24.8,115,32.5,31.3,3,5,3,1,2026-03-13T02:09:38.372418+05:30
