city,state,latitude,longitude,temp,humidity,rain,pressure,uv_index,wind_gusts,aqi,pm10,pm2_5,no2,co,o3,so2,mosquito_risk,arthritis_risk,migraine_risk,frizz_risk,updated_at
Delhi,Delhi,28.6139,77.209,30.9,71,0.0,974.7,7.55,29.5,432,361.4,137.4,81.3,1741.0,17.0,28.2,3,5,7,1,2026-07-13T22:06:10.214500+05:30
Mumbai,Maharashtra,19.076,72.8777,28.1,81,0.0,1007.9,6.6,50.0,58,26.8,15.3,8.2,215.0,43.0,6.4,7,5,4,1,2026-07-13T22:06:10.214553+05:30
Bangalore,Karnataka,12.9716,77.5946,24.6,63,0.0,912.2,8.55,46.4,57,19.8,13.7,20.9,369.0,43.0,6.0,3,5,7,1,2026-07-13T22:06:10.214567+05:30
Hyderabad,Telangana,17.385,78.4867,29.9,54,0.0,951.0,9.05,46.4,59,18.5,14.4,11.4,349.0,66.0,5.1,4,5,7,1,2026-07-13T22:06:10.214576+05:30
Chennai,Tamil Nadu,13.0827,80.2707,31.0,69,0.0,1004.2,8.55,42.5,79,39.1,24.2,10.5,222.0,99.0,6.0,3,5,4,1,2026-07-13T22:06:10.214584+05:30
Kolkata,West Bengal,22.5726,88.3639,27.4,96,0.1,999.4,7.4,25.6,151,81.7,72.6,20.8,654.0,65.0,18.9,10,5,7,1,2026-07-13T22:06:10.214592+05:30
Pune,Maharashtra,18.5204,73.8567,23.2,88,0.0,947.4,8.3,50.8,44,15.1,10.5,10.2,183.0,36.0,6.5,3,5,7,1,2026-07-13T22:06:10.214597+05:30
Ahmedabad,Gujarat,23.0225,72.5714,31.2,60,0.0,997.8,8.15,50.8,62,32.0,18.0,7.2,153.0,55.0,4.3,0,5,7,1,2026-07-13T22:06:10.214604+05:30
Jaipur,Rajasthan,26.9124,75.7873,30.5,59,0.0,953.5,8.15,32.8,384,446.1,97.8,17.0,240.0,52.0,6.4,0,5,7,1,2026-07-13T22:06:10.214610+05:30
Lucknow,Uttar Pradesh,26.8467,80.9462,30.7,70,0.0,985.9,7.9,37.1,125,81.0,45.4,16.6,301.0,64.0,8.7,3,5,7,1,2026-07-13T22:06:10.214618+05:30
Kanpur,Uttar Pradesh,26.4499,80.3319,31.0,67,0.0,984.5,8.15,39.2,114,83.8,38.4,12.5,179.0,71.0,8.1,3,5,7,1,2026-07-13T22:06:10.214624+05:30
Chandigarh,Chandigarh,30.7333,76.7794,28.8,82,0.0,960.8,7.7,32.8,161,179.3,101.0,46.8,1072.0,76.0,20.6,7,5,7,1,2026-07-13T22:06:10.214630+05:30
Srinagar,Jammu and Kashmir,34.0837,74.7973,20.7,78,0.0,837.2,8.9,17.3,84,24.8,20.4,19.1,839.0,77.0,3.8,3,5,7,1,2026-07-13T22:06:10.214635+05:30
Jammu,Jammu and Kashmir,32.7266,74.857,27.4,84,0.0,964.0,8.55,18.0,151,117.6,84.5,54.9,907.0,80.0,10.7,7,5,7,1,2026-07-13T22:06:10.214640+05:30
Amritsar,Punjab,31.634,74.8723,27.8,91,0.0,972.0,8.4,19.8,181,234.2,141.1,71.2,1013.0,65.0,21.2,7,5,7,1,2026-07-13T22:06:10.214646+05:30
Ludhiana,Punjab,30.901,75.8573,29.0,88,0.0,970.2,7.9,27.7,168,156.9,107.6,43.1,1357.0,50.0,9.5,7,5,7,1,2026-07-13T22:06:10.214651+05:30
Jalandhar,Punjab,31.326,75.5762,28.3,92,0.0,971.2,8.15,24.1,170,153.2,106.6,46.3,1232.0,56.0,10.9,7,5,7,1,2026-07-13T22:06:10.214655+05:30
Dehradun,Uttarakhand,30.6284,78.0322,18.7,100,0.1,825.8,8.15,33.8,99,123.4,56.6,17.0,218.0,118.0,6.3,6,10,7,1,2026-07-13T22:06:10.214661+05:30
Shimla,Himachal Pradesh,31.1048,77.1734,15.9,96,0.0,780.2,8.25,37.1,119,124.8,60.5,17.6,455.0,121.0,9.5,3,10,7,0,2026-07-13T22:06:10.214667+05:30
Manali,Himachal Pradesh,32.2396,77.1887,19.2,81,0.0,814.9,9.55,34.9,89,32.6,19.0,60.6,238.0,67.0,1.4,3,10,7,0,2026-07-13T22:06:10.214673+05:30
Gurgaon,Haryana,28.4595,77.0266,30.4,76,0.0,973.3,7.7,33.5,548,715.3,166.7,53.3,1248.0,30.0,16.3,3,5,7,1,2026-07-13T22:06:10.214680+05:30
Noida,Uttar Pradesh,28.5355,77.391,30.7,75,0.0,976.1,7.65,28.4,548,715.3,166.7,53.3,931.0,30.0,16.3,3,5,7,1,2026-07-13T22:06:10.214685+05:30
Ghaziabad,Uttar Pradesh,28.6692,77.4538,31.0,73,0.0,974.4,7.6,26.3,347,395.8,145.8,62.7,1265.0,40.0,25.3,3,5,7,1,2026-07-13T22:06:10.214690+05:30
Faridabad,Haryana,28.4089,77.3178,30.8,74,0.0,975.5,7.7,32.0,548,715.3,166.7,53.3,780.0,30.0,16.3,3,5,7,1,2026-07-13T22:06:10.214695+05:30
Meerut,Uttar Pradesh,28.9845,77.7064,30.5,80,0.0,973.3,7.55,31.3,347,395.8,145.8,62.7,502.0,40.0,25.3,3,5,7,1,2026-07-13T22:06:10.214701+05:30
Agra,Uttar Pradesh,27.1767,78.0081,30.7,70,0.0,980.2,7.45,39.6,133,207.2,58.4,16.0,318.0,60.0,6.4,3,5,7,1,2026-07-13T22:06:10.214706+05:30
Varanasi,Uttar Pradesh,25.3176,82.9739,30.5,78,0.0,990.5,5.05,33.5,114,82.2,49.9,19.9,418.0,55.0,11.8,3,5,3,1,2026-07-13T22:06:10.214712+05:30
Prayagraj,Uttar Pradesh,25.4358,81.8463,31.0,68,0.0,989.0,6.0,37.8,108,62.6,40.0,14.2,248.0,64.0,9.4,3,5,3,1,2026-07-13T22:06:10.214717+05:30
Gorakhpur,Uttar Pradesh,26.7606,83.3732,25.4,98,0.3,991.2,3.25,39.6,152,87.8,49.1,16.5,349.0,81.0,7.8,10,5,3,1,2026-07-13T22:06:10.214722+05:30
Bareilly,Uttar Pradesh,28.367,79.4304,30.6,72,0.0,978.7,8.0,36.0,180,182.5,85.7,21.4,314.0,72.0,10.2,3,5,7,1,2026-07-13T22:06:10.214728+05:30
Aligarh,Uttar Pradesh,27.8974,78.088,30.4,72,0.0,977.7,7.6,35.3,497,404.2,99.2,18.5,315.0,62.0,6.2,3,5,7,1,2026-07-13T22:06:10.214733+05:30
Moradabad,Uttar Pradesh,28.8386,78.7733,30.4,74,0.0,975.5,7.8,35.3,202,231.9,115.7,37.3,443.0,54.0,14.4,3,5,7,1,2026-07-13T22:06:10.214737+05:30
Saharanpur,Uttar Pradesh,29.9637,77.546,29.8,80,0.0,967.6,7.35,34.2,188,348.3,129.9,48.3,447.0,53.0,19.6,7,5,7,1,2026-07-13T22:06:10.214742+05:30
Jhansi,Uttar Pradesh,25.4484,78.5685,29.8,65,0.0,971.5,8.0,40.0,97,119.2,50.5,7.7,181.0,78.0,8.2,7,5,7,1,2026-07-13T22:06:13.585542+05:30
Surat,Gujarat,21.1702,72.8311,28.7,79,0.0,1004.7,6.75,63.7,63,32.7,21.1,15.4,239.0,35.0,25.1,7,5,4,1,2026-07-13T22:06:13.585575+05:30
Vadodara,Gujarat,22.3072,73.1812,28.7,79,0.0,1001.1,7.8,56.5,58,26.1,17.5,11.6,138.0,41.0,10.0,7,5,4,1,2026-07-13T22:06:13.585582+05:30
Rajkot,Gujarat,22.3039,70.8022,28.1,74,0.0,990.6,7.15,56.9,58,31.8,16.4,4.0,112.0,44.0,3.3,7,5,7,1,2026-07-13T22:06:13.585588+05:30
Thane,Maharashtra,19.2183,72.9781,27.4,84,0.0,1007.2,7.75,46.1,58,26.8,15.3,8.2,263.0,43.0,6.4,7,5,4,1,2026-07-13T22:06:13.585594+05:30
Nagpur,Maharashtra,21.1458,79.0882,29.3,62,0.0,969.1,7.95,42.1,87,61.7,35.6,20.7,333.0,38.0,10.9,7,5,7,1,2026-07-13T22:06:13.585599+05:30
Nashik,Maharashtra,19.9975,73.7898,23.3,91,0.0,944.1,8.1,58.7,48,13.7,10.0,10.0,155.0,41.0,6.9,3,5,7,1,2026-07-13T22:06:13.585605+05:30
Aurangabad,Maharashtra,19.8762,75.3433,25.1,76,0.0,942.9,8.9,52.9,53,19.8,14.0,7.0,164.0,65.0,8.4,7,5,7,1,2026-07-13T22:06:13.585610+05:30
Solapur,Maharashtra,17.6599,75.9064,27.1,61,0.0,956.6,8.9,45.4,51,15.1,10.7,5.2,158.0,54.0,2.4,7,5,7,1,2026-07-13T22:06:13.585616+05:30
Kolhapur,Maharashtra,16.705,74.2433,22.2,94,0.0,948.0,8.9,50.0,43,14.9,11.0,8.0,169.0,37.0,3.2,3,5,7,1,2026-07-13T22:06:13.585621+05:30
Goa,Goa,15.2993,74.124,26.3,89,0.0,999.2,7.2,33.8,57,24.1,15.6,5.1,291.0,43.0,2.0,7,5,7,1,2026-07-13T22:06:13.585626+05:30
Jodhpur,Rajasthan,26.2389,73.0243,33.4,46,0.0,975.5,8.4,49.3,179,376.3,87.1,6.4,137.0,58.0,2.6,0,5,7,1,2026-07-13T22:06:13.585631+05:30
Udaipur,Rajasthan,24.5854,73.7125,27.0,66,0.0,941.4,8.7,50.0,71,35.3,19.0,4.2,117.0,74.0,3.6,7,5,7,1,2026-07-13T22:06:13.585636+05:30
Kota,Rajasthan,25.2138,75.8648,30.5,59,0.0,972.9,8.3,38.5,94,49.1,27.4,8.1,166.0,73.0,6.3,0,5,7,1,2026-07-13T22:06:13.585640+05:30
Bikaner,Rajasthan,28.0229,73.3119,34.0,47,0.0,973.9,8.45,35.6,166,206.8,64.5,3.1,122.0,72.0,3.7,0,5,7,1,2026-07-13T22:06:13.585645+05:30
Ajmer,Rajasthan,26.4499,74.6399,29.3,60,0.0,948.4,8.35,47.9,100,52.4,24.9,8.0,147.0,64.0,3.9,4,5,7,1,2026-07-13T22:06:13.585650+05:30
Gwalior,Madhya Pradesh,26.2183,78.1828,29.5,69,0.0,976.3,8.2,43.2,98,135.0,52.3,7.8,170.0,71.0,4.8,7,5,7,1,2026-07-13T22:06:13.585655+05:30
Indore,Madhya Pradesh,22.7196,75.8577,26.1,77,0.0,944.8,8.05,52.6,67,30.3,20.8,8.4,219.0,71.0,7.7,7,5,7,1,2026-07-13T22:06:13.585659+05:30
Bhopal,Madhya Pradesh,23.2599,77.4126,27.3,72,0.0,949.2,7.9,42.5,78,50.2,28.5,7.8,253.0,66.0,4.7,7,5,7,1,2026-07-13T22:06:13.585664+05:30
Jabalpur,Madhya Pradesh,23.1815,79.9864,27.5,73,0.0,956.7,8.05,38.2,90,71.5,33.4,7.2,239.0,68.0,5.4,7,5,7,1,2026-07-13T22:06:13.585669+05:30
Ujjain,Madhya Pradesh,23.1765,75.7885,26.8,74,0.0,950.2,8.5,51.8,65,28.8,20.0,5.8,206.0,71.0,6.4,7,5,7,1,2026-07-13T22:06:13.585674+05:30
Visakhapatnam,Andhra Pradesh,17.6868,83.2185,30.4,68,0.0,998.0,8.35,32.4,108,54.8,36.2,31.8,345.0,50.0,45.7,3,5,7,1,2026-07-13T22:06:13.585679+05:30
Vijayawada,Andhra Pradesh,16.5062,80.648,31.9,57,0.0,998.3,8.9,50.8,83,45.1,32.1,18.3,292.0,48.0,8.4,0,5,7,1,2026-07-13T22:06:13.585684+05:30
Guntur,Andhra Pradesh,16.3067,80.4365,32.7,52,0.0,999.6,8.65,49.7,80,41.7,31.5,20.0,349.0,45.0,8.2,0,5,7,1,2026-07-13T22:06:13.585689+05:30
Nellore,Andhra Pradesh,14.4426,79.9865,32.8,46,0.0,1002.4,8.75,51.1,70,39.5,24.1,9.7,343.0,75.0,4.4,0,5,4,1,2026-07-13T22:06:13.585694+05:30
Kurnool,Andhra Pradesh,15.8281,78.0373,32.0,42,0.0,975.1,8.85,48.2,58,15.5,10.9,7.6,144.0,73.0,6.4,0,5,7,1,2026-07-13T22:06:13.585701+05:30
Kakinada,Andhra Pradesh,16.9891,82.2475,30.6,66,0.0,1002.3,7.25,39.2,83,50.5,26.7,8.7,261.0,73.0,6.0,3,5,4,1,2026-07-13T22:06:13.585705+05:30
Tirupati,Andhra Pradesh,13.6288,79.4192,30.4,50,0.0,988.5,8.75,44.3,84,84.1,57.7,60.1,284.0,21.0,7.8,0,5,7,1,2026-07-13T22:06:13.585710+05:30
Warangal,Telangana,17.9689,79.5941,28.9,68,0.0,975.1,8.7,43.6,75,27.4,22.6,13.3,284.0,53.0,5.4,7,5,7,1,2026-07-13T22:06:13.585714+05:30
Nizamabad,Telangana,18.6725,78.0941,29.1,58,0.0,961.9,8.9,46.1,62,21.8,16.4,8.9,216.0,67.0,5.4,4,5,7,1,2026-07-13T22:06:13.585719+05:30
Mysore,Karnataka,12.2958,76.6396,22.9,79,0.0,929.1,8.5,42.5,51,11.3,8.3,10.7,177.0,48.0,2.8,3,5,7,1,2026-07-13T22:06:13.585723+05:30
Mangalore,Karnataka,12.9141,74.856,26.9,85,0.0,1008.4,8.1,44.3,55,19.3,11.9,6.9,164.0,38.0,2.6,7,0,4,1,2026-07-13T22:06:13.585728+05:30
Hubli-Dharwad,Karnataka,15.3647,75.124,22.3,90,0.0,941.2,8.95,47.9,41,12.3,8.4,7.2,146.0,40.0,1.9,3,5,7,1,2026-07-13T22:06:13.585733+05:30
Belgaum,Karnataka,15.8497,74.4977,20.7,98,0.0,925.8,9.0,46.4,38,14.2,9.6,7.7,137.0,35.0,2.2,3,5,7,1,2026-07-13T22:06:16.950976+05:30
Coimbatore,Tamil Nadu,11.0168,76.9558,24.7,89,0.0,961.9,8.1,55.1,52,12.3,10.2,11.2,194.0,33.0,3.8,3,5,7,1,2026-07-13T22:06:16.951006+05:30
Madurai,Tamil Nadu,9.9252,78.1198,31.4,55,0.0,992.3,8.2,40.0,65,35.4,19.6,17.9,159.0,51.0,5.8,0,5,7,1,2026-07-13T22:06:16.951014+05:30
Trichy,Tamil Nadu,10.7905,78.7047,30.9,57,0.0,998.7,7.95,50.0,63,40.4,30.3,25.0,139.0,38.0,6.8,0,5,7,1,2026-07-13T22:06:16.951021+05:30
Salem,Tamil Nadu,11.6643,78.146,27.4,76,0.0,977.0,8.35,29.2,69,22.8,15.4,14.4,308.0,50.0,5.7,7,5,7,1,2026-07-13T22:06:16.951027+05:30
Tirunelveli,Tamil Nadu,8.7139,77.7567,30.0,58,0.0,1002.3,8.45,43.9,47,12.5,8.4,5.7,146.0,46.0,2.2,4,5,4,1,2026-07-13T22:06:16.951033+05:30
Vellore,Tamil Nadu,12.9165,79.1325,33.0,39,0.0,982.4,8.65,42.5,73,51.2,35.5,30.9,209.0,34.0,6.4,0,5,7,1,2026-07-13T22:06:16.951039+05:30
Erode,Tamil Nadu,11.341,77.7172,28.2,71,0.0,988.6,8.45,50.0,60,23.6,16.6,19.4,187.0,35.0,4.2,7,5,7,1,2026-07-13T22:06:16.951045+05:30
Kochi,Kerala,9.9312,76.2673,27.7,83,0.0,1010.6,8.55,42.1,55,19.5,14.4,13.5,127.0,28.0,4.2,7,0,4,1,2026-07-13T22:06:16.951050+05:30
Thiruvananthapuram,Kerala,8.5241,76.9366,26.3,89,0.0,1009.8,8.35,51.5,53,17.2,9.7,4.4,130.0,43.0,1.6,7,0,4,1,2026-07-13T22:06:16.951055+05:30
Kozhikode,Kerala,11.2588,75.7804,26.7,86,0.0,1009.4,8.55,48.2,52,21.2,10.7,1.9,142.0,49.0,1.3,7,0,4,1,2026-07-13T22:06:16.951061+05:30
Thrissur,Kerala,10.5276,76.2144,26.7,86,0.0,1008.8,8.3,41.0,54,17.5,12.4,8.5,171.0,33.0,3.1,7,0,4,1,2026-07-13T22:06:16.951066+05:30
Kannur,Kerala,11.8745,75.3704,27.1,85,0.0,1008.6,8.45,47.5,52,18.0,10.7,7.4,183.0,36.0,2.2,7,0,4,1,2026-07-13T22:06:16.951072+05:30
Patna,Bihar,25.5941,85.1376,27.5,96,0.0,994.5,7.55,32.0,151,98.0,70.1,32.8,604.0,48.0,14.4,7,5,7,1,2026-07-13T22:06:16.951077+05:30
Gaya,Bihar,24.7914,85.0002,28.9,85,0.1,987.6,5.15,35.6,129,80.3,53.7,19.8,545.0,50.0,9.3,10,5,3,1,2026-07-13T22:06:16.951082+05:30
Muzaffarpur,Bihar,26.1209,85.3647,26.8,96,0.2,994.6,8.05,24.1,151,91.0,60.5,27.2,434.0,64.0,12.5,10,5,7,1,2026-07-13T22:06:16.951087+05:30
Bhagalpur,Bihar,25.2425,87.0117,28.2,94,0.0,995.2,5.25,27.0,145,106.2,71.2,36.0,460.0,34.0,20.7,7,5,3,1,2026-07-13T22:06:16.951091+05:30
Ranchi,Jharkhand,23.3441,85.3096,25.8,85,0.0,932.2,8.3,33.1,118,111.3,64.7,29.3,702.0,46.0,11.4,7,5,7,1,2026-07-13T22:06:16.951096+05:30
Jamshedpur,Jharkhand,22.8046,86.2029,27.6,92,0.0,984.8,8.45,29.5,137,101.3,64.5,29.4,490.0,60.0,35.5,7,5,7,1,2026-07-13T22:06:16.951101+05:30
Dhanbad,Jharkhand,23.7957,86.4304,27.1,95,0.0,974.0,6.1,29.5,160,105.5,81.7,64.5,886.0,21.0,175.3,7,5,7,1,2026-07-13T22:06:16.951106+05:30
Bokaro,Jharkhand,23.6693,86.1511,27.5,94,0.0,977.8,8.05,26.6,157,119.7,85.4,52.9,2706.0,32.0,159.6,7,5,7,1,2026-07-13T22:06:16.951111+05:30
Bhubaneswar,Odisha,20.2961,85.8245,28.7,87,0.0,996.0,6.75,34.9,112,91.5,63.3,34.4,700.0,42.0,21.0,7,5,7,1,2026-07-13T22:06:16.951115+05:30
Cuttack,Odisha,20.4625,85.8828,29.2,87,0.0,998.0,7.9,36.0,112,91.5,63.3,34.4,491.0,42.0,21.0,7,5,7,1,2026-07-13T22:06:16.951120+05:30
Rourkela,Odisha,22.2604,84.8536,29.1,84,0.0,978.3,8.4,25.9,107,103.4,58.2,20.3,613.0,65.0,9.6,7,5,7,1,2026-07-13T22:06:16.951125+05:30
Raipur,Chhattisgarh,21.2514,81.6296,29.2,69,0.0,969.6,7.0,39.2,118,83.6,46.8,31.4,442.0,56.0,52.9,7,5,7,1,2026-07-13T22:06:16.951130+05:30
Bhilai,Chhattisgarh,21.1938,81.3509,28.9,71,0.0,970.2,6.45,42.5,110,79.6,42.4,22.8,727.0,67.0,40.0,7,5,7,1,2026-07-13T22:06:16.951135+05:30
Guwahati,Assam,26.1158,91.7086,25.8,99,0.0,996.1,2.1,20.5,58,20.0,19.2,11.3,265.0,38.0,2.7,7,5,3,1,2026-07-13T22:06:16.951140+05:30
Agartala,Tripura,23.8315,91.2868,26.7,95,0.0,1000.1,1.0,30.6,61,11.2,10.9,8.5,279.0,56.0,2.4,7,5,0,1,2026-07-13T22:06:16.951145+05:30
Shillong,Meghalaya,25.5788,91.8933,19.8,95,0.0,853.2,2.2,25.6,38,11.6,9.9,11.4,451.0,46.0,3.2,3,10,3,1,2026-07-13T22:06:16.951150+05:30
Imphal,Manipur,24.817,93.9368,24.1,95,0.0,918.7,7.65,26.3,50,24.4,23.5,25.3,736.0,26.0,4.8,3,5,7,1,2026-07-13T22:06:16.951155+05:30
Aizawl,Mizoram,23.7271,92.7176,20.9,98,0.0,887.5,2.25,21.6,56,7.6,7.1,9.8,213.0,31.0,1.0,3,5,3,1,2026-07-13T22:06:16.951159+05:30
Kohima,Nagaland,25.6701,94.1077,20.2,93,0.0,851.1,8.05,27.7,33,9.5,9.4,13.3,235.0,28.0,1.5,3,5,7,1,2026-07-13T22:06:16.951164+05:30
Gangtok,Sikkim,27.3314,88.6138,19.0,99,0.1,834.9,1.65,25.2,48,4.7,4.6,6.7,301.0,99.0,1.2,6,10,3,1,2026-07-13T22:06:16.951170+05:30
Siliguri,West Bengal,26.7271,88.3953,27.0,84,0.0,987.3,3.95,37.1,53,14.9,14.6,13.3,472.0,93.0,3.7,7,5,3,1,2026-07-13T22:06:20.315286+05:30
Durgapur,West Bengal,23.5204,87.3119,26.7,98,0.1,988.9,6.45,34.6,152,84.3,67.5,39.1,862.0,41.0,36.1,10,5,7,1,2026-07-13T22:06:20.315317+05:30
Asansol,West Bengal,23.6739,86.9524,27.1,97,0.0,987.5,2.55,29.9,144,74.7,55.5,42.1,493.0,37.0,41.8,7,5,3,1,2026-07-13T22:06:20.315326+05:30
Pondicherry,Puducherry,11.9139,79.8145,30.6,76,0.0,1005.9,8.6,47.2,67,43.4,25.0,13.8,165.0,84.0,8.2,3,5,4,1,2026-07-13T22:06:20.315333+05:30
Port Blair,Andaman and Nicobar Islands,11.6234,92.7265,28.0,80,0.0,1005.8,8.6,59.0,50,21.1,8.7,0.3,86.0,50.0,0.4,7,5,4,1,2026-07-13T22:06:20.315340+05:30
Haridwar,Uttarakhand,29.9457,78.1642,29.4,84,0.0,966.1,7.5,30.6,190,252.4,115.7,33.0,465.0,82.0,17.8,7,5,7,1,2026-07-13T22:06:20.315346+05:30
Rishikesh,Uttarakhand,30.0869,78.2676,28.4,82,0.0,959.1,7.6,29.2,168,211.9,89.6,12.4,342.0,114.0,11.4,7,5,7,1,2026-07-13T22:06:20.315352+05:30
Nainital,Uttarakhand,29.3919,79.4542,17.3,99,0.0,801.2,8.5,35.3,164,150.4,73.3,12.1,236.0,85.0,7.6,3,10,7,1,2026-07-13T22:06:20.315357+05:30
Mussoorie,Uttarakhand,30.4599,78.0664,17.3,98,0.1,798.8,8.0,44.6,167,199.8,90.1,25.2,367.0,105.0,13.4,6,10,7,1,2026-07-13T22:06:20.315362+05:30
Dharamshala,Himachal Pradesh,32.219,76.3234,21.9,80,0.0,863.4,8.4,31.3,74,61.2,33.3,17.9,440.0,71.0,2.6,3,5,7,1,2026-07-13T22:06:20.315367+05:30
Dalhousie,Himachal Pradesh,32.5387,75.971,16.3,95,0.0,799.1,8.65,28.1,114,115.5,67.5,39.3,708.0,102.0,6.0,3,10,7,0,2026-07-13T22:06:20.315373+05:30
Patiala,Punjab,30.3398,76.3869,29.8,80,0.0,969.8,7.5,37.1,174,228.2,117.1,47.9,694.0,45.0,11.1,7,5,7,1,2026-07-13T22:06:20.315410+05:30
Bhatinda,Punjab,30.211,74.9455,31.9,68,0.0,975.1,8.25,27.0,176,269.2,119.2,45.0,427.0,60.0,17.0,3,5,7,1,2026-07-13T22:06:20.315426+05:30
Rohtak,Haryana,28.8955,76.6066,31.6,62,0.0,973.5,7.55,27.7,570,332.5,108.0,50.5,445.0,32.0,8.2,3,5,7,1,2026-07-13T22:06:20.315434+05:30
Panipat,Haryana,29.3909,76.9635,30.6,80,0.0,972.0,7.5,32.0,509,323.2,118.5,44.1,564.0,39.0,10.0,3,5,7,1,2026-07-13T22:06:20.315440+05:30
Mathura,Uttar Pradesh,27.4924,77.6737,31.4,64,0.0,979.1,7.2,37.4,729,1195.8,170.0,16.6,244.0,63.0,4.7,3,5,7,1,2026-07-13T22:06:20.315445+05:30
Vrindavan,Uttar Pradesh,27.5823,77.7027,31.6,64,0.0,979.4,7.3,36.7,729,1195.8,170.0,16.6,258.0,63.0,4.7,3,5,7,1,2026-07-13T22:06:20.315450+05:30
Ayodhya,Uttar Pradesh,26.7922,82.1998,27.4,92,0.0,988.4,7.9,28.1,140,85.2,51.9,15.1,369.0,70.0,6.8,7,5,7,1,2026-07-13T22:06:20.315455+05:30
Ratlam,Madhya Pradesh,23.3315,75.0367,26.6,79,0.0,951.2,8.5,53.3,62,25.6,18.1,5.2,153.0,71.0,7.0,7,5,7,1,2026-07-13T22:06:20.315461+05:30
Sagar,Madhya Pradesh,23.8388,78.7378,27.8,66,0.0,945.2,6.95,43.6,89,72.4,33.3,5.6,183.0,71.0,3.7,7,5,7,1,2026-07-13T22:06:20.315466+05:30
Satna,Madhya Pradesh,24.6005,80.8322,29.8,66,0.0,965.6,8.0,42.5,95,61.5,31.9,8.3,194.0,63.0,4.1,7,5,7,1,2026-07-13T22:06:20.315471+05:30
Akola,Maharashtra,20.7002,77.0082,29.3,65,0.0,972.1,8.7,47.5,61,19.8,13.4,7.8,174.0,62.0,7.0,7,5,7,1,2026-07-13T22:06:20.315477+05:30
Amravati,Maharashtra,20.9374,77.7796,29.2,60,0.0,964.0,7.7,53.6,64,20.1,13.2,8.2,162.0,67.0,8.1,4,5,7,1,2026-07-13T22:06:20.315483+05:30
Latur,Maharashtra,18.4088,76.5604,26.6,63,0.0,938.5,8.85,47.5,52,17.7,12.6,4.7,149.0,67.0,3.0,7,5,7,1,2026-07-13T22:06:20.315489+05:30
Nanded,Maharashtra,19.1383,77.3091,29.5,56,0.0,966.1,8.55,43.9,58,21.8,16.1,6.4,168.0,79.0,4.9,4,5,7,1,2026-07-13T22:06:20.315494+05:30
Gulbarga,Karnataka,17.3297,76.8343,28.2,58,0.0,957.6,8.8,48.6,53,14.5,10.4,7.3,172.0,58.0,2.9,4,5,7,1,2026-07-13T22:06:20.315499+05:30
Bidar,Karnataka,17.9104,77.5199,27.8,60,0.0,933.8,8.95,46.1,56,16.9,12.9,9.7,158.0,65.0,2.8,4,5,7,1,2026-07-13T22:06:20.315504+05:30
Hospet,Karnataka,15.2689,76.3909,26.0,66,0.0,956.2,8.9,47.5,49,12.5,8.6,5.9,144.0,50.0,2.0,7,5,7,1,2026-07-13T22:06:20.315509+05:30
Tirupur,Tamil Nadu,11.1085,77.3411,25.7,84,0.0,975.4,8.15,57.2,61,27.9,20.0,24.3,171.0,29.0,5.8,7,5,7,1,2026-07-13T22:06:20.315513+05:30
Alappuzha,Kerala,9.4981,76.3388,27.8,83,0.0,1010.7,8.5,43.6,55,19.7,11.6,7.5,85.0,42.0,2.8,7,0,4,1,2026-07-13T22:06:20.315519+05:30
Munnar,Kerala,10.0889,77.0595,17.8,100,0.0,857.8,8.7,35.3,37,11.2,9.1,10.9,123.0,29.0,2.3,3,10,7,1,2026-07-13T22:06:20.315524+05:30
Silchar,Assam,24.8333,92.7789,26.7,97,0.1,999.2,4.2,19.4,75,28.9,25.1,9.5,274.0,63.0,5.2,10,5,3,1,2026-07-13T22:06:20.315529+05:30
Dibrugarh,Assam,27.4728,94.912,27.5,89,0.0,989.0,8.9,20.2,52,29.2,28.6,22.4,484.0,45.0,4.2,7,5,7,1,2026-07-13T22:06:20.315534+05:30
