city,state,latitude,longitude,temp,humidity,rain,pressure,uv_index,wind_gusts,aqi,pm10,pm2_5,no2,co,o3,so2,mosquito_risk,arthritis_risk,migraine_risk,frizz_risk,updated_at
Delhi,Delhi,28.6139,77.209,26.7,91,0.0,977.9,6.6,37.4,72,20.2,20.1,22.0,506.0,72.0,19.0,7,5,7,1,2026-07-22T00:57:16.188273+05:30
Mumbai,Maharashtra,19.076,72.8777,26.5,90,0.2,1005.4,2.8,54.7,62,29.8,13.2,5.0,186.0,44.0,3.8,10,5,0,1,2026-07-22T00:57:16.188321+05:30
Bangalore,Karnataka,12.9716,77.5946,21.0,88,0.0,911.7,8.75,49.7,39,8.5,6.8,15.7,279.0,29.0,5.2,3,5,7,1,2026-07-22T00:57:16.188337+05:30
Hyderabad,Telangana,17.385,78.4867,23.4,89,0.0,951.1,3.55,56.2,50,11.0,7.4,8.0,196.0,41.0,4.2,3,5,3,1,2026-07-22T00:57:16.188347+05:30
Chennai,Tamil Nadu,13.0827,80.2707,28.9,80,0.0,1006.3,8.0,37.8,75,29.2,20.3,11.0,275.0,81.0,8.1,7,5,4,1,2026-07-22T00:57:16.188357+05:30
Kolkata,West Bengal,22.5726,88.3639,26.0,93,0.2,1001.8,1.6,31.3,59,21.6,20.3,14.8,427.0,51.0,9.0,10,5,0,1,2026-07-22T00:57:16.188365+05:30
Pune,Maharashtra,18.5204,73.8567,22.6,94,0.1,944.6,5.4,52.6,24,3.3,2.1,4.3,126.0,41.0,2.9,6,5,3,1,2026-07-22T00:57:16.188373+05:30
Ahmedabad,Gujarat,23.0225,72.5714,27.7,84,0.0,996.0,2.25,29.2,63,19.4,11.9,11.6,173.0,37.0,4.6,7,5,3,1,2026-07-22T00:57:16.188381+05:30
Jaipur,Rajasthan,26.9124,75.7873,26.0,94,0.0,953.9,7.45,29.2,61,34.9,19.8,21.1,480.0,49.0,5.8,7,5,7,1,2026-07-22T00:57:16.188389+05:30
Lucknow,Uttar Pradesh,26.8467,80.9462,27.4,88,0.0,989.0,6.6,48.6,69,27.0,26.5,9.6,338.0,96.0,8.3,7,5,7,1,2026-07-22T00:57:16.188400+05:30
Kanpur,Uttar Pradesh,26.4499,80.3319,27.3,90,0.0,986.8,7.35,43.9,66,21.5,21.4,9.1,351.0,102.0,8.5,7,5,7,1,2026-07-22T00:57:16.188408+05:30
Chandigarh,Chandigarh,30.7333,76.7794,27.9,79,0.0,965.0,5.7,38.5,68,24.4,24.4,26.3,334.0,54.0,8.2,7,5,3,1,2026-07-22T00:57:16.188415+05:30
Srinagar,Jammu and Kashmir,34.0837,74.7973,19.2,96,0.2,840.1,8.85,17.3,58,26.7,26.0,41.4,593.0,24.0,6.5,6,10,7,1,2026-07-22T00:57:16.188422+05:30
Jammu,Jammu and Kashmir,32.7266,74.857,24.2,89,0.0,968.4,2.75,36.7,82,26.0,20.9,26.9,549.0,56.0,4.0,3,5,3,1,2026-07-22T00:57:16.188429+05:30
Amritsar,Punjab,31.634,74.8723,26.2,84,0.0,976.1,6.25,33.8,88,36.2,35.9,25.3,668.0,62.0,9.0,7,5,7,1,2026-07-22T00:57:16.188436+05:30
Ludhiana,Punjab,30.901,75.8573,27.9,90,0.0,974.2,7.1,34.9,77,29.5,29.5,22.8,780.0,71.0,11.5,7,5,7,1,2026-07-22T00:57:16.188443+05:30
Jalandhar,Punjab,31.326,75.5762,27.1,89,0.0,975.3,3.25,37.8,78,39.8,39.8,31.6,840.0,56.0,15.6,7,5,3,1,2026-07-22T00:57:16.188450+05:30
Dehradun,Uttarakhand,30.6284,78.0322,17.5,98,0.1,828.9,5.95,22.3,46,6.9,6.8,13.6,212.0,86.0,1.5,6,10,3,1,2026-07-22T00:57:16.188458+05:30
Shimla,Himachal Pradesh,31.1048,77.1734,15.2,99,0.1,782.8,3.05,28.8,42,3.3,3.2,10.9,362.0,80.0,1.2,6,10,3,0,2026-07-22T00:57:16.188464+05:30
Manali,Himachal Pradesh,32.2396,77.1887,19.6,90,0.0,818.0,6.05,26.6,30,3.3,3.3,32.0,285.0,29.0,0.1,3,10,7,1,2026-07-22T00:57:16.188474+05:30
Gurgaon,Haryana,28.4595,77.0266,26.3,95,0.0,976.0,5.75,40.7,70,18.4,18.3,19.8,464.0,74.0,13.8,7,5,3,1,2026-07-22T00:57:16.188481+05:30
Noida,Uttar Pradesh,28.5355,77.391,26.5,94,0.0,979.5,6.6,35.3,70,18.4,18.3,19.8,446.0,74.0,13.8,7,5,7,1,2026-07-22T00:57:16.188488+05:30
Ghaziabad,Uttar Pradesh,28.6692,77.4538,26.3,94,0.0,977.9,6.8,38.9,63,19.8,19.8,13.0,406.0,81.0,10.4,7,5,7,1,2026-07-22T00:57:16.188496+05:30
Faridabad,Haryana,28.4089,77.3178,26.3,95,0.0,978.6,6.4,38.5,70,18.4,18.3,19.8,451.0,74.0,13.8,7,5,7,1,2026-07-22T00:57:16.188503+05:30
Meerut,Uttar Pradesh,28.9845,77.7064,26.5,91,0.0,977.1,6.9,41.8,63,19.8,19.8,13.0,412.0,81.0,10.4,7,5,7,1,2026-07-22T00:57:16.188510+05:30
Agra,Uttar Pradesh,27.1767,78.0081,26.8,95,0.0,982.1,7.25,36.4,64,12.2,11.8,12.8,358.0,88.0,6.7,7,5,7,1,2026-07-22T00:57:16.188517+05:30
Varanasi,Uttar Pradesh,25.3176,82.9739,26.2,91,0.0,992.8,5.95,50.4,75,21.8,21.5,12.9,411.0,69.0,7.8,7,5,3,1,2026-07-22T00:57:16.188524+05:30
Prayagraj,Uttar Pradesh,25.4358,81.8463,26.1,95,0.0,990.9,7.65,41.8,72,26.4,26.1,12.4,480.0,81.0,6.8,7,5,7,1,2026-07-22T00:57:16.188531+05:30
Gorakhpur,Uttar Pradesh,26.7606,83.3732,25.6,93,0.0,994.0,6.2,51.8,71,28.0,27.8,14.0,384.0,67.0,7.9,7,5,7,1,2026-07-22T00:57:16.188538+05:30
Bareilly,Uttar Pradesh,28.367,79.4304,27.0,91,0.0,983.0,7.5,40.0,59,19.2,19.1,11.8,388.0,69.0,5.4,7,5,7,1,2026-07-22T00:57:16.188546+05:30
Aligarh,Uttar Pradesh,27.8974,78.088,26.3,95,0.0,980.4,6.9,40.3,63,19.7,19.7,12.9,406.0,86.0,10.3,7,5,7,1,2026-07-22T00:57:16.188553+05:30
Moradabad,Uttar Pradesh,28.8386,78.7733,27.0,88,0.0,979.9,7.7,44.6,60,17.8,17.7,10.9,357.0,78.0,6.3,7,5,7,1,2026-07-22T00:57:16.188561+05:30
Saharanpur,Uttar Pradesh,29.9637,77.546,27.3,84,0.0,972.0,7.35,40.0,69,21.3,21.2,16.3,436.0,59.0,8.2,7,5,7,1,2026-07-22T00:57:16.188567+05:30
Jhansi,Uttar Pradesh,25.4484,78.5685,26.7,91,0.0,971.9,7.2,36.4,68,29.1,22.9,16.6,297.0,61.0,7.1,7,5,7,1,2026-07-22T00:57:19.616403+05:30
Surat,Gujarat,21.1702,72.8311,26.1,94,0.1,1001.7,1.05,40.3,70,20.0,14.0,18.2,312.0,29.0,27.2,10,5,0,1,2026-07-22T00:57:19.616433+05:30
Vadodara,Gujarat,22.3072,73.1812,26.2,94,0.0,998.7,1.25,37.1,60,14.6,9.9,12.4,175.0,34.0,5.7,7,5,3,1,2026-07-22T00:57:19.616443+05:30
Rajkot,Gujarat,22.3039,70.8022,26.5,87,0.0,988.7,5.05,49.3,57,15.1,8.5,5.5,110.0,40.0,5.1,7,5,3,1,2026-07-22T00:57:19.616452+05:30
Thane,Maharashtra,19.2183,72.9781,25.3,95,0.1,1004.7,3.25,42.5,62,29.8,13.2,5.0,185.0,44.0,3.8,10,5,0,1,2026-07-22T00:57:19.616460+05:30
Nagpur,Maharashtra,21.1458,79.0882,24.3,96,0.1,968.2,0.6,46.1,43,8.1,7.5,12.8,197.0,37.0,8.7,6,5,3,1,2026-07-22T00:57:19.616468+05:30
Nashik,Maharashtra,19.9975,73.7898,22.6,96,0.4,940.8,2.5,58.7,21,1.1,0.9,6.5,131.0,40.0,3.3,6,5,3,1,2026-07-22T00:57:19.616476+05:30
Aurangabad,Maharashtra,19.8762,75.3433,22.6,95,0.1,940.0,1.45,67.3,26,2.7,2.3,7.8,137.0,37.0,5.6,6,5,3,1,2026-07-22T00:57:19.616483+05:30
Solapur,Maharashtra,17.6599,75.9064,23.7,92,0.0,955.2,1.55,61.6,32,4.3,3.2,5.2,126.0,35.0,2.2,3,5,3,1,2026-07-22T00:57:19.616491+05:30
Kolhapur,Maharashtra,16.705,74.2433,21.9,96,0.0,946.5,5.7,50.0,30,5.1,3.4,4.2,108.0,37.0,1.9,3,5,3,1,2026-07-22T00:57:19.616499+05:30
Goa,Goa,15.2993,74.124,23.4,99,0.0,998.3,7.6,38.5,57,26.5,13.8,4.4,225.0,33.0,1.2,3,5,7,1,2026-07-22T00:57:19.616506+05:30
Jodhpur,Rajasthan,26.2389,73.0243,27.8,89,0.1,976.3,6.8,25.6,90,32.5,18.3,12.7,217.0,52.0,2.1,10,5,7,1,2026-07-22T00:57:19.616514+05:30
Udaipur,Rajasthan,24.5854,73.7125,24.3,97,0.3,940.3,1.05,33.8,54,20.3,13.1,7.8,172.0,57.0,6.2,6,5,3,1,2026-07-22T00:57:19.616521+05:30
Kota,Rajasthan,25.2138,75.8648,26.1,93,0.0,972.4,8.0,24.8,56,12.8,11.6,11.4,380.0,59.0,5.1,7,5,7,1,2026-07-22T00:57:19.616528+05:30
Bikaner,Rajasthan,28.0229,73.3119,27.5,89,0.1,975.1,6.6,27.0,81,34.0,15.2,3.6,138.0,77.0,2.1,10,5,7,1,2026-07-22T00:57:19.616536+05:30
Ajmer,Rajasthan,26.4499,74.6399,25.1,95,0.0,948.6,7.2,28.4,61,22.1,15.3,13.5,201.0,54.0,3.6,7,5,7,1,2026-07-22T00:57:19.616543+05:30
Gwalior,Madhya Pradesh,26.2183,78.1828,26.4,92,0.2,977.2,6.15,35.6,60,14.2,10.4,9.7,257.0,76.0,2.7,10,5,7,1,2026-07-22T00:57:19.616550+05:30
Indore,Madhya Pradesh,22.7196,75.8577,23.8,95,0.1,942.2,2.85,46.4,53,9.8,8.5,12.0,271.0,42.0,5.7,6,5,3,1,2026-07-22T00:57:19.616558+05:30
Bhopal,Madhya Pradesh,23.2599,77.4126,23.7,96,0.0,947.4,6.85,24.8,49,11.5,10.0,9.9,271.0,41.0,4.0,3,5,7,1,2026-07-22T00:57:19.616566+05:30
Jabalpur,Madhya Pradesh,23.1815,79.9864,24.2,97,0.0,955.4,6.55,16.9,42,6.9,6.6,9.0,237.0,44.0,3.2,3,5,7,1,2026-07-22T00:57:19.616573+05:30
Ujjain,Madhya Pradesh,23.1765,75.7885,23.8,95,0.1,947.8,2.15,39.6,53,9.9,8.1,9.0,246.0,46.0,5.9,6,5,3,1,2026-07-22T00:57:19.616581+05:30
Visakhapatnam,Andhra Pradesh,17.6868,83.2185,26.5,84,0.0,1000.0,5.5,56.5,58,19.6,14.8,23.7,300.0,28.0,34.7,7,5,0,1,2026-07-22T00:57:19.616589+05:30
Vijayawada,Andhra Pradesh,16.5062,80.648,26.9,89,0.1,1000.7,7.7,46.8,64,29.8,20.0,14.6,251.0,35.0,8.7,10,5,4,1,2026-07-22T00:57:19.616597+05:30
Guntur,Andhra Pradesh,16.3067,80.4365,28.7,67,0.0,1002.1,8.05,51.1,62,22.2,14.0,10.5,279.0,46.0,7.6,7,5,4,1,2026-07-22T00:57:19.616604+05:30
Nellore,Andhra Pradesh,14.4426,79.9865,28.8,76,0.0,1004.9,8.15,37.8,59,43.4,26.3,15.6,206.0,47.0,7.5,7,5,4,1,2026-07-22T00:57:19.616613+05:30
Kurnool,Andhra Pradesh,15.8281,78.0373,25.6,80,0.0,976.2,3.75,54.4,51,9.8,6.8,7.9,217.0,39.0,2.5,7,5,3,1,2026-07-22T00:57:19.616621+05:30
Kakinada,Andhra Pradesh,16.9891,82.2475,28.7,71,0.0,1004.8,8.25,58.7,54,31.2,17.6,9.7,171.0,45.0,6.8,7,5,4,1,2026-07-22T00:57:19.616651+05:30
Tirupati,Andhra Pradesh,13.6288,79.4192,26.5,90,0.0,990.7,9.0,40.3,63,39.8,29.2,34.5,336.0,17.0,5.3,7,5,7,1,2026-07-22T00:57:19.616659+05:30
Warangal,Telangana,17.9689,79.5941,24.3,91,0.2,976.2,1.8,45.0,51,15.5,11.5,10.1,178.0,45.0,3.9,6,5,3,1,2026-07-22T00:57:19.616667+05:30
Nizamabad,Telangana,18.6725,78.0941,23.5,96,0.2,961.9,2.2,50.4,47,8.6,6.7,7.0,155.0,38.0,3.3,6,5,3,1,2026-07-22T00:57:19.616674+05:30
Mysore,Karnataka,12.2958,76.6396,21.4,94,0.0,929.2,8.0,53.6,31,7.0,5.3,8.9,134.0,31.0,2.5,3,5,7,1,2026-07-22T00:57:19.616682+05:30
Mangalore,Karnataka,12.9141,74.856,24.2,99,0.0,1008.1,6.3,36.0,55,19.2,13.8,11.7,224.0,23.0,3.8,3,0,4,1,2026-07-22T00:57:19.616690+05:30
Hubli-Dharwad,Karnataka,15.3647,75.124,22.1,96,0.1,940.1,1.1,63.7,20,4.5,2.5,4.0,119.0,34.0,1.3,6,5,3,1,2026-07-22T00:57:19.616698+05:30
Belgaum,Karnataka,15.8497,74.4977,20.7,99,0.0,924.7,4.75,60.8,22,4.5,2.5,3.7,101.0,37.0,1.8,3,5,3,1,2026-07-22T00:57:23.164608+05:30
Coimbatore,Tamil Nadu,11.0168,76.9558,23.5,95,0.0,962.4,8.5,52.9,41,9.9,8.4,11.0,213.0,24.0,4.0,3,5,7,1,2026-07-22T00:57:23.164661+05:30
Madurai,Tamil Nadu,9.9252,78.1198,29.4,64,0.0,993.1,8.5,45.7,59,28.2,20.3,26.8,233.0,24.0,6.9,7,5,7,1,2026-07-22T00:57:23.164673+05:30
Trichy,Tamil Nadu,10.7905,78.7047,28.9,66,0.0,999.8,8.75,43.9,52,13.6,10.7,11.4,178.0,34.0,4.6,7,5,7,1,2026-07-22T00:57:23.164682+05:30
Salem,Tamil Nadu,11.6643,78.146,25.8,80,0.0,977.9,8.55,46.4,59,18.5,13.8,17.4,522.0,30.0,7.3,7,5,7,1,2026-07-22T00:57:23.164690+05:30
Tirunelveli,Tamil Nadu,8.7139,77.7567,29.2,64,0.0,1003.8,8.45,45.7,42,6.1,4.7,6.9,147.0,32.0,2.5,7,5,4,1,2026-07-22T00:57:23.164699+05:30
Vellore,Tamil Nadu,12.9165,79.1325,27.1,85,0.0,984.2,8.95,49.0,73,41.0,28.9,27.4,596.0,27.0,7.8,7,5,7,1,2026-07-22T00:57:23.164707+05:30
Erode,Tamil Nadu,11.341,77.7172,26.7,76,0.0,989.7,8.4,45.7,55,18.6,14.4,18.9,169.0,23.0,4.9,7,5,7,1,2026-07-22T00:57:23.164714+05:30
Kochi,Kerala,9.9312,76.2673,26.5,94,0.0,1010.6,8.55,38.2,56,19.9,16.1,19.3,190.0,13.0,5.9,7,0,4,1,2026-07-22T00:57:23.164722+05:30
Thiruvananthapuram,Kerala,8.5241,76.9366,25.1,93,0.0,1010.3,7.9,38.5,55,12.8,7.4,4.2,162.0,38.0,1.8,7,0,4,1,2026-07-22T00:57:23.164729+05:30
Kozhikode,Kerala,11.2588,75.7804,24.7,96,0.0,1010.1,6.75,36.4,37,14.0,7.7,2.8,153.0,42.0,1.8,3,0,4,1,2026-07-22T00:57:23.164736+05:30
Thrissur,Kerala,10.5276,76.2144,25.1,95,0.0,1008.9,8.3,35.6,55,18.0,15.4,15.4,260.0,14.0,4.7,7,0,4,1,2026-07-22T00:57:23.164744+05:30
Kannur,Kerala,11.8745,75.3704,24.6,98,0.0,1008.9,8.15,33.5,48,12.5,7.8,11.2,338.0,22.0,2.9,3,0,4,1,2026-07-22T00:57:23.164751+05:30
Patna,Bihar,25.5941,85.1376,25.9,96,0.2,996.8,6.5,50.8,74,17.7,17.6,12.5,243.0,64.0,8.2,10,5,7,1,2026-07-22T00:57:23.164758+05:30
Gaya,Bihar,24.7914,85.0002,25.3,96,0.2,989.6,8.3,47.2,65,10.8,10.8,12.2,294.0,50.0,7.8,10,5,7,1,2026-07-22T00:57:23.164765+05:30
Muzaffarpur,Bihar,26.1209,85.3647,27.6,81,0.0,997.3,8.0,56.9,76,21.2,21.1,12.8,298.0,65.0,7.3,7,5,7,1,2026-07-22T00:57:23.164773+05:30
Bhagalpur,Bihar,25.2425,87.0117,25.9,96,0.0,998.1,7.55,43.2,64,14.2,14.1,13.1,204.0,53.0,7.5,7,5,7,1,2026-07-22T00:57:23.164780+05:30
Ranchi,Jharkhand,23.3441,85.3096,22.7,98,0.0,932.7,4.85,43.9,54,7.3,7.3,12.1,342.0,71.0,15.4,3,5,3,1,2026-07-22T00:57:23.164788+05:30
Jamshedpur,Jharkhand,22.8046,86.2029,24.5,97,0.0,986.0,3.25,28.4,56,25.5,25.0,32.2,442.0,33.0,22.7,3,5,3,1,2026-07-22T00:57:23.164795+05:30
Dhanbad,Jharkhand,23.7957,86.4304,24.4,96,0.3,975.7,7.6,41.8,87,55.8,54.9,52.6,262.0,17.0,134.0,6,5,7,1,2026-07-22T00:57:23.164802+05:30
Bokaro,Jharkhand,23.6693,86.1511,24.6,94,0.0,979.3,8.65,37.1,92,52.7,51.5,62.8,236.0,5.0,145.1,3,5,7,1,2026-07-22T00:57:23.164810+05:30
Bhubaneswar,Odisha,20.2961,85.8245,25.0,97,0.5,997.4,3.35,44.6,77,31.1,30.5,25.0,379.0,34.0,6.6,10,5,3,1,2026-07-22T00:57:23.164817+05:30
Cuttack,Odisha,20.4625,85.8828,25.6,96,0.4,999.3,4.15,37.4,77,31.1,30.5,25.0,389.0,34.0,6.6,10,5,3,1,2026-07-22T00:57:23.164824+05:30
Rourkela,Odisha,22.2604,84.8536,24.2,98,0.6,979.8,0.85,33.5,69,16.2,16.1,18.1,345.0,59.0,16.8,6,5,3,1,2026-07-22T00:57:23.164831+05:30
Raipur,Chhattisgarh,21.2514,81.6296,24.2,96,0.4,969.6,0.6,49.3,69,11.5,10.8,22.0,325.0,27.0,30.8,6,5,3,1,2026-07-22T00:57:23.164838+05:30
Bhilai,Chhattisgarh,21.1938,81.3509,24.0,97,0.3,970.0,1.5,52.6,63,10.4,9.7,19.5,433.0,29.0,26.8,6,5,3,1,2026-07-22T00:57:23.164845+05:30
Guwahati,Assam,26.1158,91.7086,26.2,95,0.1,999.6,7.05,24.5,50,16.6,16.3,16.9,318.0,22.0,3.3,10,5,7,1,2026-07-22T00:57:23.164853+05:30
Agartala,Tripura,23.8315,91.2868,24.9,99,0.0,1004.4,7.6,37.8,49,7.3,6.9,10.3,169.0,32.0,2.4,3,5,4,1,2026-07-22T00:57:23.164860+05:30
Shillong,Meghalaya,25.5788,91.8933,18.7,98,0.2,856.4,5.3,27.7,23,5.6,5.4,6.7,187.0,45.0,2.3,6,10,3,1,2026-07-22T00:57:23.164868+05:30
Imphal,Manipur,24.817,93.9368,21.9,96,0.0,922.6,7.5,29.2,51,17.7,17.3,16.2,307.0,30.0,3.0,3,5,7,1,2026-07-22T00:57:23.164876+05:30
Aizawl,Mizoram,23.7271,92.7176,20.0,95,0.1,891.4,8.7,32.0,24,7.1,6.6,11.6,156.0,11.0,0.6,6,5,7,1,2026-07-22T00:57:23.164883+05:30
Kohima,Nagaland,25.6701,94.1077,19.4,92,0.0,854.3,8.65,24.8,26,3.7,3.6,6.2,180.0,38.0,0.6,3,10,7,1,2026-07-22T00:57:23.164890+05:30
Gangtok,Sikkim,27.3314,88.6138,18.0,98,0.0,837.5,5.85,28.8,31,5.0,4.8,6.9,262.0,66.0,1.2,3,10,3,1,2026-07-22T00:57:23.164897+05:30
Siliguri,West Bengal,26.7271,88.3953,26.7,82,0.0,990.8,8.05,30.2,49,11.1,10.6,13.6,467.0,61.0,3.7,7,5,7,1,2026-07-22T00:57:26.778169+05:30
Durgapur,West Bengal,23.5204,87.3119,25.2,98,0.1,990.9,8.55,39.6,76,33.3,32.7,33.0,328.0,39.0,34.1,10,5,7,1,2026-07-22T00:57:26.778201+05:30
Asansol,West Bengal,23.6739,86.9524,25.0,96,0.3,989.5,8.5,40.3,72,31.9,31.3,40.8,380.0,31.0,46.1,10,5,7,1,2026-07-22T00:57:26.778212+05:30
Pondicherry,Puducherry,11.9139,79.8145,28.6,75,0.0,1008.1,7.2,40.3,78,19.9,13.5,9.3,202.0,61.0,7.6,7,0,4,1,2026-07-22T00:57:26.778221+05:30
Port Blair,Andaman and Nicobar Islands,11.6234,92.7265,27.2,85,0.0,1007.6,8.0,42.5,46,12.1,6.9,0.2,89.0,50.0,0.4,7,5,4,1,2026-07-22T00:57:26.778230+05:30
Haridwar,Uttarakhand,29.9457,78.1642,26.9,89,0.0,970.6,7.4,33.1,69,28.2,27.7,20.8,299.0,48.0,7.1,7,5,7,1,2026-07-22T00:57:26.778238+05:30
Rishikesh,Uttarakhand,30.0869,78.2676,25.2,95,0.0,963.3,7.2,24.8,49,12.5,12.5,9.8,450.0,72.0,4.0,7,5,7,1,2026-07-22T00:57:26.778246+05:30
Nainital,Uttarakhand,29.3919,79.4542,15.8,98,0.0,804.0,7.3,49.7,38,9.3,9.2,8.5,223.0,63.0,1.9,3,10,7,0,2026-07-22T00:57:26.778254+05:30
Mussoorie,Uttarakhand,30.4599,78.0664,16.6,100,0.1,801.9,5.3,26.3,51,16.9,16.8,21.0,307.0,68.0,4.8,6,10,3,1,2026-07-22T00:57:26.778263+05:30
Dharamshala,Himachal Pradesh,32.219,76.3234,21.0,95,0.1,866.9,1.75,27.4,37,8.2,7.7,13.2,439.0,78.0,1.0,6,5,3,1,2026-07-22T00:57:26.778270+05:30
Dalhousie,Himachal Pradesh,32.5387,75.971,17.1,96,0.5,803.4,0.75,23.8,62,17.6,13.4,18.8,713.0,88.0,3.7,6,10,3,1,2026-07-22T00:57:26.778279+05:30
Patiala,Punjab,30.3398,76.3869,27.9,85,0.0,973.8,6.0,38.9,72,18.0,18.0,14.6,479.0,78.0,10.5,7,5,3,1,2026-07-22T00:57:26.778286+05:30
Bhatinda,Punjab,30.211,74.9455,29.1,81,0.0,978.4,7.5,33.1,128,24.4,24.4,16.7,438.0,84.0,9.7,7,5,7,1,2026-07-22T00:57:26.778293+05:30
Rohtak,Haryana,28.8955,76.6066,27.0,93,0.0,976.2,6.35,41.4,73,19.7,19.6,25.7,590.0,66.0,20.5,7,5,7,1,2026-07-22T00:57:26.778300+05:30
Panipat,Haryana,29.3909,76.9635,27.5,85,0.0,975.7,7.4,39.2,70,18.1,18.1,18.1,431.0,74.0,14.7,7,5,7,1,2026-07-22T00:57:26.778307+05:30
Mathura,Uttar Pradesh,27.4924,77.6737,26.6,95,0.0,981.2,7.0,38.9,57,12.0,11.7,11.0,332.0,89.0,4.0,7,5,7,1,2026-07-22T00:57:26.778314+05:30
Vrindavan,Uttar Pradesh,27.5823,77.7027,26.6,95,0.0,981.7,6.95,37.8,57,12.0,11.7,11.0,331.0,89.0,4.0,7,5,7,1,2026-07-22T00:57:26.778321+05:30
Ayodhya,Uttar Pradesh,26.7922,82.1998,27.8,81,0.0,991.4,6.4,50.0,71,30.0,29.8,12.2,366.0,79.0,7.7,7,5,7,1,2026-07-22T00:57:26.778328+05:30
Ratlam,Madhya Pradesh,23.3315,75.0367,23.2,99,0.2,948.8,0.1,36.4,51,9.2,7.0,8.7,166.0,44.0,5.8,6,5,3,1,2026-07-22T00:57:26.778336+05:30
Sagar,Madhya Pradesh,23.8388,78.7378,23.7,97,0.0,943.8,7.6,27.0,42,6.6,6.5,9.4,216.0,48.0,2.4,3,5,7,1,2026-07-22T00:57:26.778343+05:30
Satna,Madhya Pradesh,24.6005,80.8322,24.8,97,0.0,965.5,7.15,33.5,57,12.0,11.2,8.3,275.0,81.0,5.0,3,5,7,1,2026-07-22T00:57:26.778349+05:30
Akola,Maharashtra,20.7002,77.0082,24.6,94,0.4,970.8,2.2,41.4,31,5.0,4.2,7.9,150.0,39.0,3.9,6,5,3,1,2026-07-22T00:57:26.778357+05:30
Amravati,Maharashtra,20.9374,77.7796,24.0,96,0.1,962.6,1.1,50.8,32,5.4,4.4,7.9,150.0,42.0,4.1,6,5,3,1,2026-07-22T00:57:26.778365+05:30
Latur,Maharashtra,18.4088,76.5604,22.8,94,0.3,937.0,1.8,60.1,34,3.7,3.0,4.9,134.0,35.0,1.8,6,5,3,1,2026-07-22T00:57:26.778373+05:30
Nanded,Maharashtra,19.1383,77.3091,24.2,93,0.2,965.4,1.35,47.5,43,5.4,4.2,6.9,150.0,35.0,3.5,6,5,3,1,2026-07-22T00:57:26.778380+05:30
Gulbarga,Karnataka,17.3297,76.8343,23.2,93,0.2,957.0,1.3,64.4,42,5.8,3.9,6.5,135.0,33.0,2.8,6,5,3,1,2026-07-22T00:57:26.778387+05:30
Bidar,Karnataka,17.9104,77.5199,22.4,96,0.4,933.1,2.4,66.6,38,6.9,4.8,6.6,135.0,35.0,2.4,6,5,3,1,2026-07-22T00:57:26.778394+05:30
Hospet,Karnataka,15.2689,76.3909,23.8,86,0.0,955.6,8.0,60.1,27,6.0,3.6,4.3,119.0,35.0,1.6,3,5,7,1,2026-07-22T00:57:26.778401+05:30
Tirupur,Tamil Nadu,11.1085,77.3411,25.0,87,0.0,976.0,8.2,56.2,58,23.5,18.6,24.1,173.0,19.0,6.5,7,5,7,1,2026-07-22T00:57:26.778408+05:30
Alappuzha,Kerala,9.4981,76.3388,26.6,91,0.0,1010.7,8.35,36.4,55,17.9,12.7,12.2,102.0,29.0,4.4,7,0,4,1,2026-07-22T00:57:26.778415+05:30
Munnar,Kerala,10.0889,77.0595,15.7,88,0.0,857.0,9.05,34.9,35,7.5,6.2,8.9,114.0,23.0,2.2,3,10,7,0,2026-07-22T00:57:26.778422+05:30
Silchar,Assam,24.8333,92.7789,25.0,96,0.1,1004.4,8.75,20.5,60,24.2,22.8,13.0,195.0,50.0,7.4,10,5,4,1,2026-07-22T00:57:26.778430+05:30
Dibrugarh,Assam,27.4728,94.912,25.3,97,0.3,994.1,3.7,25.2,69,12.3,11.8,8.2,222.0,62.0,1.3,10,5,3,1,2026-07-22T00:57:26.778437+05:30
