city,state,latitude,longitude,temp,humidity,rain,pressure,uv_index,wind_gusts,aqi,pm10,pm2_5,no2,co,o3,so2,mosquito_risk,arthritis_risk,migraine_risk,frizz_risk,updated_at
Delhi,Delhi,28.6139,77.209,29.8,64,0.0,978.0,7.75,39.2,168,244.9,99.0,64.6,971.0,36.0,37.4,7,5,7,1,2026-06-06T01:35:04.904594+05:30
Mumbai,Maharashtra,19.076,72.8777,28.2,88,0.1,1005.1,7.75,41.8,72,40.0,17.8,6.2,164.0,47.0,5.3,10,5,4,1,2026-06-06T01:35:04.904640+05:30
Bangalore,Karnataka,12.9716,77.5946,21.1,92,0.0,909.6,8.45,38.2,19,4.1,3.4,7.9,232.0,37.0,3.6,3,5,7,1,2026-06-06T01:35:04.904656+05:30
Hyderabad,Telangana,17.385,78.4867,27.2,76,0.0,949.6,9.15,38.9,67,18.5,14.8,9.6,234.0,79.0,5.3,7,5,7,1,2026-06-06T01:35:04.904666+05:30
Chennai,Tamil Nadu,13.0827,80.2707,31.7,60,0.0,1003.2,8.95,42.1,53,12.1,10.7,20.4,361.0,40.0,9.4,0,5,4,1,2026-06-06T01:35:04.904674+05:30
Kolkata,West Bengal,22.5726,88.3639,28.4,90,0.0,1000.6,8.1,28.4,137,48.7,44.7,13.8,575.0,73.0,7.6,7,5,4,1,2026-06-06T01:35:04.904683+05:30
Pune,Maharashtra,18.5204,73.8567,25.5,85,0.0,945.2,8.35,42.5,43,18.6,11.4,10.7,141.0,35.0,7.8,7,5,7,1,2026-06-06T01:35:04.904690+05:30
Ahmedabad,Gujarat,23.0225,72.5714,32.6,59,0.0,997.3,8.05,35.3,84,53.0,25.8,6.1,172.0,57.0,4.9,0,5,7,1,2026-06-06T01:35:04.904696+05:30
Jaipur,Rajasthan,26.9124,75.7873,28.3,53,0.0,955.2,8.25,28.8,117,134.1,58.7,27.3,259.0,37.0,11.0,4,5,7,1,2026-06-06T01:35:04.904708+05:30
Lucknow,Uttar Pradesh,26.8467,80.9462,30.1,65,0.0,988.0,8.3,41.4,155,224.0,90.8,21.8,448.0,72.0,15.3,3,5,7,1,2026-06-06T01:35:04.904715+05:30
Kanpur,Uttar Pradesh,26.4499,80.3319,30.9,59,0.0,986.8,8.3,34.6,159,256.1,87.3,26.6,390.0,44.0,10.1,0,5,7,1,2026-06-06T01:35:04.904722+05:30
Chandigarh,Chandigarh,30.7333,76.7794,24.6,84,0.0,963.4,7.8,28.8,134,97.1,70.8,57.0,1049.0,21.0,10.2,3,5,7,1,2026-06-06T01:35:04.904730+05:30
Srinagar,Jammu and Kashmir,34.0837,74.7973,13.8,99,0.0,840.2,9.0,20.2,80,43.7,41.1,27.8,861.0,28.0,0.0,3,10,7,0,2026-06-06T01:35:04.904737+05:30
Jammu,Jammu and Kashmir,32.7266,74.857,22.9,74,0.0,966.9,8.6,28.4,108,47.6,41.6,50.2,505.0,3.0,3.5,3,5,7,1,2026-06-06T01:35:04.904744+05:30
Amritsar,Punjab,31.634,74.8723,28.2,54,0.0,975.2,8.45,20.9,136,112.0,94.5,76.3,741.0,13.0,13.6,4,5,7,1,2026-06-06T01:35:04.904750+05:30
Ludhiana,Punjab,30.901,75.8573,29.1,56,0.0,973.3,8.05,26.6,150,123.9,83.6,49.1,700.0,57.0,14.3,4,5,7,1,2026-06-06T01:35:04.904757+05:30
Jalandhar,Punjab,31.326,75.5762,28.8,58,0.0,974.1,8.25,22.3,142,109.2,89.6,69.3,1044.0,20.0,10.7,4,5,7,1,2026-06-06T01:35:04.904763+05:30
Dehradun,Uttarakhand,30.6284,78.0322,13.4,90,0.0,825.0,8.2,36.7,69,36.2,24.8,29.6,242.0,35.0,0.6,3,10,7,0,2026-06-06T01:35:04.904770+05:30
Shimla,Himachal Pradesh,31.1048,77.1734,12.7,73,0.0,780.2,8.35,41.8,90,81.0,42.3,21.6,280.0,86.0,4.1,3,5,7,0,2026-06-06T01:35:04.904779+05:30
Manali,Himachal Pradesh,32.2396,77.1887,11.7,92,0.0,814.4,9.45,37.1,53,4.7,4.6,16.7,241.0,116.0,0.0,3,10,7,0,2026-06-06T01:35:04.904787+05:30
Gurgaon,Haryana,28.4595,77.0266,28.2,63,0.0,976.3,7.85,33.5,403,530.9,113.9,40.5,1010.0,52.0,15.5,7,5,7,1,2026-06-06T01:35:04.904794+05:30
Noida,Uttar Pradesh,28.5355,77.391,27.2,83,0.0,979.3,7.8,18.7,403,530.9,113.9,40.5,1535.0,52.0,15.5,7,5,7,1,2026-06-06T01:35:04.904800+05:30
Ghaziabad,Uttar Pradesh,28.6692,77.4538,26.2,90,0.0,977.6,7.75,25.9,165,195.1,93.1,38.9,809.0,53.0,16.4,7,5,7,1,2026-06-06T01:35:04.904807+05:30
Faridabad,Haryana,28.4089,77.3178,28.5,73,0.0,978.6,7.8,34.2,403,530.9,113.9,40.5,1020.0,52.0,15.5,7,5,7,1,2026-06-06T01:35:04.904814+05:30
Meerut,Uttar Pradesh,28.9845,77.7064,26.9,81,0.0,976.2,7.7,28.1,165,195.1,93.1,38.9,847.0,53.0,16.4,7,5,7,1,2026-06-06T01:35:04.904822+05:30
Agra,Uttar Pradesh,27.1767,78.0081,27.9,75,0.0,982.8,8.1,26.6,152,390.2,124.3,58.3,674.0,35.0,22.0,7,5,7,1,2026-06-06T01:35:04.904829+05:30
Varanasi,Uttar Pradesh,25.3176,82.9739,25.1,91,0.3,992.8,7.2,58.0,136,77.8,50.1,17.4,979.0,83.0,14.9,10,5,7,1,2026-06-06T01:35:04.904836+05:30
Prayagraj,Uttar Pradesh,25.4358,81.8463,31.2,57,0.0,990.2,8.35,43.6,145,115.3,58.1,14.0,350.0,92.0,10.6,0,5,7,1,2026-06-06T01:35:04.904843+05:30
Gorakhpur,Uttar Pradesh,26.7606,83.3732,29.0,75,0.0,991.2,8.7,25.9,158,90.1,68.0,34.5,805.0,52.0,12.1,7,5,7,1,2026-06-06T01:35:04.904856+05:30
Bareilly,Uttar Pradesh,28.367,79.4304,27.7,79,0.0,981.8,8.1,21.2,133,80.6,67.1,25.9,488.0,80.0,19.0,7,5,7,1,2026-06-06T01:35:04.904862+05:30
Aligarh,Uttar Pradesh,27.8974,78.088,27.4,83,0.0,980.6,7.95,25.2,347,300.8,121.5,47.1,746.0,49.0,22.4,7,5,7,1,2026-06-06T01:35:04.904868+05:30
Moradabad,Uttar Pradesh,28.8386,78.7733,27.2,80,0.0,978.5,7.9,29.9,157,179.7,141.1,80.1,650.0,34.0,26.9,7,5,7,1,2026-06-06T01:35:04.904874+05:30
Saharanpur,Uttar Pradesh,29.9637,77.546,25.7,81,0.0,970.4,7.5,25.2,153,142.5,99.4,52.0,729.0,36.0,14.3,7,5,7,1,2026-06-06T01:35:04.904880+05:30
Jhansi,Uttar Pradesh,25.4484,78.5685,29.1,54,0.0,973.5,8.45,29.9,75,53.8,30.5,20.6,214.0,35.0,5.4,4,5,7,1,2026-06-06T01:35:08.205728+05:30
Surat,Gujarat,21.1702,72.8311,29.9,82,0.0,1002.7,7.6,45.4,88,47.5,24.9,15.3,254.0,37.0,26.4,7,5,4,1,2026-06-06T01:35:08.205762+05:30
Vadodara,Gujarat,22.3072,73.1812,30.9,70,0.0,999.8,8.0,40.0,81,37.7,23.5,16.0,142.0,32.0,16.7,3,5,7,1,2026-06-06T01:35:08.205774+05:30
Rajkot,Gujarat,22.3039,70.8022,29.7,69,0.0,989.7,7.6,43.6,79,41.1,20.0,4.5,106.0,46.0,4.4,7,5,7,1,2026-06-06T01:35:08.205784+05:30
Thane,Maharashtra,19.2183,72.9781,28.5,86,0.0,1004.4,7.75,40.0,72,40.0,17.8,6.2,181.0,47.0,5.3,7,5,4,1,2026-06-06T01:35:08.205793+05:30
Nagpur,Maharashtra,21.1458,79.0882,32.0,37,0.0,968.5,8.9,45.4,95,55.8,35.9,21.0,304.0,45.0,10.5,0,5,7,0,2026-06-06T01:35:08.205803+05:30
Nashik,Maharashtra,19.9975,73.7898,25.3,88,0.0,942.6,8.05,37.8,57,25.9,13.9,6.4,123.0,42.0,3.5,7,5,7,1,2026-06-06T01:35:08.205812+05:30
Aurangabad,Maharashtra,19.8762,75.3433,28.0,67,0.0,941.3,8.95,40.7,63,25.8,15.7,6.3,133.0,48.0,5.2,7,5,7,1,2026-06-06T01:35:08.205822+05:30
Solapur,Maharashtra,17.6599,75.9064,22.8,94,0.0,955.0,8.95,51.5,55,17.2,13.0,12.4,192.0,43.0,2.9,3,5,7,1,2026-06-06T01:35:08.205831+05:30
Kolhapur,Maharashtra,16.705,74.2433,24.7,86,0.0,945.5,8.75,45.7,33,7.3,5.8,5.8,117.0,43.0,2.3,3,5,7,1,2026-06-06T01:35:08.205839+05:30
Goa,Goa,15.2993,74.124,25.9,95,0.0,995.7,7.7,26.6,28,14.3,10.0,4.4,424.0,50.0,1.0,7,5,7,1,2026-06-06T01:35:08.205848+05:30
Jodhpur,Rajasthan,26.2389,73.0243,31.5,56,0.0,977.2,8.45,32.8,150,102.7,34.5,7.7,132.0,51.0,2.6,0,5,7,1,2026-06-06T01:35:08.205857+05:30
Udaipur,Rajasthan,24.5854,73.7125,28.4,61,0.0,942.4,8.8,28.4,81,73.8,30.6,7.5,236.0,58.0,2.8,7,5,7,1,2026-06-06T01:35:08.205866+05:30
Kota,Rajasthan,25.2138,75.8648,28.2,59,0.0,974.4,8.4,29.9,98,80.1,42.8,14.1,275.0,57.0,6.7,4,5,7,1,2026-06-06T01:35:08.205875+05:30
Bikaner,Rajasthan,28.0229,73.3119,29.7,50,0.0,975.6,8.5,27.7,144,122.5,43.3,5.0,219.0,57.0,3.3,4,5,7,1,2026-06-06T01:35:08.205883+05:30
Ajmer,Rajasthan,26.4499,74.6399,28.0,62,0.0,949.9,8.35,33.8,96,113.6,46.3,15.7,189.0,38.0,3.8,7,5,7,1,2026-06-06T01:35:08.205891+05:30
Gwalior,Madhya Pradesh,26.2183,78.1828,27.9,63,0.0,978.6,8.25,47.2,83,118.5,44.4,23.1,197.0,51.0,7.6,7,5,7,1,2026-06-06T01:35:08.205900+05:30
Indore,Madhya Pradesh,22.7196,75.8577,27.0,72,0.0,944.1,8.65,31.7,94,72.9,54.0,21.3,458.0,36.0,8.7,7,5,7,1,2026-06-06T01:35:08.205909+05:30
Bhopal,Madhya Pradesh,23.2599,77.4126,27.2,63,0.0,949.4,8.65,36.0,94,67.5,39.2,17.3,318.0,43.0,5.2,7,5,7,1,2026-06-06T01:35:08.205917+05:30
Jabalpur,Madhya Pradesh,23.1815,79.9864,28.7,56,0.0,956.9,8.85,37.8,84,77.3,38.5,15.0,254.0,46.0,3.7,4,5,7,1,2026-06-06T01:35:08.205926+05:30
Ujjain,Madhya Pradesh,23.1765,75.7885,28.3,65,0.0,949.6,8.6,34.2,90,57.5,39.0,8.0,306.0,62.0,6.5,7,5,7,1,2026-06-06T01:35:08.205936+05:30
Visakhapatnam,Andhra Pradesh,17.6868,83.2185,30.1,86,0.0,997.2,9.0,39.2,92,33.4,28.6,29.5,409.0,70.0,36.4,3,5,7,1,2026-06-06T01:35:08.205945+05:30
Vijayawada,Andhra Pradesh,16.5062,80.648,31.6,60,0.0,997.3,9.0,34.6,61,11.4,10.0,7.0,238.0,68.0,3.3,0,5,7,1,2026-06-06T01:35:08.205953+05:30
Guntur,Andhra Pradesh,16.3067,80.4365,30.7,62,0.0,998.7,9.0,33.8,57,12.1,10.8,8.0,183.0,69.0,3.1,3,5,7,1,2026-06-06T01:35:08.205962+05:30
Nellore,Andhra Pradesh,14.4426,79.9865,30.3,60,0.0,1001.9,8.6,38.9,39,8.9,6.8,8.0,178.0,46.0,2.7,0,5,4,1,2026-06-06T01:35:08.205972+05:30
Kurnool,Andhra Pradesh,15.8281,78.0373,28.3,68,0.0,974.0,7.9,57.2,38,6.3,5.8,13.3,182.0,37.0,5.3,7,5,7,1,2026-06-06T01:35:08.205981+05:30
Kakinada,Andhra Pradesh,16.9891,82.2475,30.3,71,0.0,1001.6,9.05,39.2,66,16.5,11.8,2.8,341.0,101.0,3.0,3,5,4,1,2026-06-06T01:35:08.205990+05:30
Tirupati,Andhra Pradesh,13.6288,79.4192,28.4,67,0.0,987.6,8.8,31.0,43,16.6,15.4,24.6,237.0,17.0,3.1,7,5,7,1,2026-06-06T01:35:08.205998+05:30
Warangal,Telangana,17.9689,79.5941,29.3,62,0.0,973.7,7.55,31.7,97,56.0,41.4,12.9,309.0,68.0,5.8,7,5,7,1,2026-06-06T01:35:08.206007+05:30
Nizamabad,Telangana,18.6725,78.0941,29.6,58,0.0,960.5,8.95,36.0,94,41.0,30.4,13.4,224.0,70.0,4.9,4,5,7,1,2026-06-06T01:35:08.206015+05:30
Mysore,Karnataka,12.2958,76.6396,22.2,88,0.0,926.8,7.7,41.8,21,3.1,2.6,5.6,142.0,38.0,1.6,3,5,7,1,2026-06-06T01:35:08.206023+05:30
Mangalore,Karnataka,12.9141,74.856,24.2,99,0.3,1005.7,0.9,30.2,24,8.2,5.0,2.4,136.0,53.0,1.1,6,5,0,1,2026-06-06T01:35:08.206031+05:30
Hubli-Dharwad,Karnataka,15.3647,75.124,23.7,90,0.0,938.6,8.0,36.7,23,2.9,2.0,2.8,120.0,50.0,0.7,3,5,7,1,2026-06-06T01:35:08.206040+05:30
Belgaum,Karnataka,15.8497,74.4977,22.7,94,0.0,923.2,8.9,37.8,25,4.2,3.0,3.9,116.0,49.0,2.0,3,5,7,1,2026-06-06T01:35:11.500065+05:30
Coimbatore,Tamil Nadu,11.0168,76.9558,24.0,89,0.0,960.3,8.85,59.0,17,3.7,2.8,5.2,175.0,35.0,2.0,3,5,7,1,2026-06-06T01:35:11.500097+05:30
Madurai,Tamil Nadu,9.9252,78.1198,29.3,57,0.0,991.3,8.4,68.0,20,4.7,4.6,8.8,156.0,27.0,3.4,4,5,7,1,2026-06-06T01:35:11.500108+05:30
Trichy,Tamil Nadu,10.7905,78.7047,29.1,57,0.0,997.6,8.7,47.5,18,5.3,4.2,8.1,122.0,29.0,2.9,4,5,7,1,2026-06-06T01:35:11.500118+05:30
Salem,Tamil Nadu,11.6643,78.146,27.2,70,0.0,975.9,8.85,42.1,30,9.7,8.9,16.8,203.0,24.0,5.6,7,5,7,1,2026-06-06T01:35:11.500127+05:30
Tirunelveli,Tamil Nadu,8.7139,77.7567,28.8,66,0.0,1002.3,8.25,49.0,15,4.8,3.9,7.8,122.0,26.0,1.8,7,5,4,1,2026-06-06T01:35:11.500136+05:30
Vellore,Tamil Nadu,12.9165,79.1325,28.8,59,0.0,981.4,8.95,50.0,40,18.0,16.9,21.7,164.0,21.0,5.2,4,5,7,1,2026-06-06T01:35:11.500144+05:30
Erode,Tamil Nadu,11.341,77.7172,26.5,75,0.0,987.4,8.8,55.4,18,6.4,5.7,10.6,156.0,29.0,3.5,7,5,7,1,2026-06-06T01:35:11.500153+05:30
Kochi,Kerala,9.9312,76.2673,25.1,93,0.1,1009.1,7.95,36.7,41,15.1,9.8,13.9,97.0,24.0,3.2,10,0,4,1,2026-06-06T01:35:11.500161+05:30
Thiruvananthapuram,Kerala,8.5241,76.9366,24.6,100,0.1,1008.3,7.5,46.1,25,13.9,6.6,1.3,89.0,43.0,0.4,6,0,4,1,2026-06-06T01:35:11.500169+05:30
Kozhikode,Kerala,11.2588,75.7804,23.7,100,0.0,1007.5,0.9,29.9,24,19.4,7.8,0.9,163.0,57.0,0.4,3,5,0,1,2026-06-06T01:35:11.500177+05:30
Thrissur,Kerala,10.5276,76.2144,24.7,99,0.1,1006.9,7.85,31.7,36,14.8,9.7,11.8,232.0,26.0,2.9,6,5,4,1,2026-06-06T01:35:11.500186+05:30
Kannur,Kerala,11.8745,75.3704,24.8,96,0.1,1006.4,0.55,22.7,25,13.3,7.0,3.9,196.0,46.0,1.0,6,5,0,1,2026-06-06T01:35:11.500194+05:30
Patna,Bihar,25.5941,85.1376,29.6,71,0.0,994.6,8.9,23.8,171,88.2,82.7,11.3,442.0,121.0,17.0,7,5,7,1,2026-06-06T01:35:11.500202+05:30
Gaya,Bihar,24.7914,85.0002,29.0,67,0.0,987.8,8.7,31.0,159,95.2,82.2,26.7,522.0,59.0,11.8,7,5,7,1,2026-06-06T01:35:11.500209+05:30
Muzaffarpur,Bihar,26.1209,85.3647,28.7,72,0.0,995.1,8.9,28.4,169,79.4,74.7,11.6,438.0,113.0,14.1,7,5,7,1,2026-06-06T01:35:11.500216+05:30
Bhagalpur,Bihar,25.2425,87.0117,28.2,82,0.0,996.4,8.9,33.1,164,82.7,78.5,18.4,398.0,80.0,14.8,7,5,7,1,2026-06-06T01:35:11.500224+05:30
Ranchi,Jharkhand,23.3441,85.3096,25.6,77,0.0,932.9,8.8,25.9,114,63.6,49.1,16.6,284.0,73.0,5.4,7,5,7,1,2026-06-06T01:35:11.500232+05:30
Jamshedpur,Jharkhand,22.8046,86.2029,28.8,86,0.0,985.2,7.55,36.4,152,69.8,63.6,23.5,490.0,77.0,21.1,7,5,7,1,2026-06-06T01:35:11.500239+05:30
Dhanbad,Jharkhand,23.7957,86.4304,28.7,83,0.0,974.9,7.2,33.8,167,97.1,91.7,63.5,787.0,42.0,158.8,7,5,7,1,2026-06-06T01:35:11.500247+05:30
Bokaro,Jharkhand,23.6693,86.1511,28.0,90,0.0,978.5,8.55,34.6,161,103.6,92.0,58.2,603.0,40.0,123.6,7,5,7,1,2026-06-06T01:35:11.500255+05:30
Bhubaneswar,Odisha,20.2961,85.8245,29.7,89,0.0,996.1,9.1,29.9,111,38.5,36.2,8.9,360.0,115.0,8.6,7,5,7,1,2026-06-06T01:35:11.500262+05:30
Cuttack,Odisha,20.4625,85.8828,29.9,88,0.0,998.0,9.15,29.2,111,38.5,36.2,8.9,425.0,115.0,8.6,7,5,7,1,2026-06-06T01:35:11.500270+05:30
Rourkela,Odisha,22.2604,84.8536,29.4,67,0.0,979.6,8.8,42.5,141,105.2,86.8,31.7,390.0,61.0,21.7,7,5,7,1,2026-06-06T01:35:11.500278+05:30
Raipur,Chhattisgarh,21.2514,81.6296,32.8,39,0.0,968.9,9.0,38.5,113,60.5,42.4,39.6,550.0,45.0,57.3,0,5,7,1,2026-06-06T01:35:11.500286+05:30
Bhilai,Chhattisgarh,21.1938,81.3509,31.5,45,0.0,969.2,9.0,43.6,110,56.1,36.8,30.2,667.0,49.0,40.7,0,5,7,1,2026-06-06T01:35:11.500293+05:30
Guwahati,Assam,26.1158,91.7086,25.7,96,0.0,997.7,8.8,24.5,93,36.1,32.8,8.7,486.0,68.0,2.5,7,5,7,1,2026-06-06T01:35:11.500301+05:30
Agartala,Tripura,23.8315,91.2868,25.2,97,0.0,1001.9,8.85,19.1,111,38.3,36.3,20.6,650.0,59.0,3.5,7,5,4,1,2026-06-06T01:35:11.500309+05:30
Shillong,Meghalaya,25.5788,91.8933,17.1,100,0.0,853.3,8.85,21.6,69,23.1,21.3,7.2,297.0,65.0,2.2,3,10,7,1,2026-06-06T01:35:11.500317+05:30
Imphal,Manipur,24.817,93.9368,22.0,95,0.0,919.3,9.25,30.6,129,75.4,72.4,31.4,860.0,9.0,2.0,3,5,7,1,2026-06-06T01:35:11.500324+05:30
Aizawl,Mizoram,23.7271,92.7176,19.7,98,0.0,888.3,8.35,26.6,103,35.7,31.4,4.7,367.0,67.0,1.8,3,10,7,1,2026-06-06T01:35:11.500332+05:30
Kohima,Nagaland,25.6701,94.1077,17.7,95,0.0,851.6,9.05,25.2,67,25.0,23.7,14.7,294.0,13.0,0.3,3,10,7,1,2026-06-06T01:35:11.500341+05:30
Gangtok,Sikkim,27.3314,88.6138,17.3,93,0.1,835.1,9.2,36.7,58,8.2,7.7,10.0,383.0,87.0,2.2,6,10,7,1,2026-06-06T01:35:11.500348+05:30
Siliguri,West Bengal,26.7271,88.3953,23.4,99,0.1,989.7,8.8,22.0,130,40.4,35.5,12.8,374.0,107.0,4.2,6,5,7,1,2026-06-06T01:35:14.804563+05:30
Durgapur,West Bengal,23.5204,87.3119,27.8,93,0.0,989.8,9.05,34.9,166,74.0,71.7,26.7,660.0,68.0,37.6,7,5,7,1,2026-06-06T01:35:14.804596+05:30
Asansol,West Bengal,23.6739,86.9524,27.8,93,0.0,988.4,8.9,35.3,164,60.8,58.7,22.3,645.0,83.0,36.3,7,5,7,1,2026-06-06T01:35:14.804607+05:30
Pondicherry,Puducherry,11.9139,79.8145,29.7,61,0.0,1004.9,8.85,44.3,51,14.1,12.7,16.3,352.0,48.0,4.0,7,5,4,1,2026-06-06T01:35:14.804617+05:30
Port Blair,Andaman and Nicobar Islands,11.6234,92.7265,26.2,98,0.0,1003.6,5.65,47.5,26,6.1,3.9,0.2,91.0,60.0,0.2,7,5,0,1,2026-06-06T01:35:14.804627+05:30
Haridwar,Uttarakhand,29.9457,78.1642,24.0,79,0.0,968.7,7.6,23.4,136,130.4,82.2,41.4,373.0,58.0,11.7,3,5,7,1,2026-06-06T01:35:14.804636+05:30
Rishikesh,Uttarakhand,30.0869,78.2676,22.3,81,0.0,961.5,7.7,28.1,114,79.9,41.4,14.1,400.0,104.0,5.1,3,5,7,1,2026-06-06T01:35:14.804645+05:30
Nainital,Uttarakhand,29.3919,79.4542,13.2,89,0.0,800.9,8.05,25.6,88,47.1,37.4,27.8,311.0,45.0,3.2,3,10,7,0,2026-06-06T01:35:14.804654+05:30
Mussoorie,Uttarakhand,30.4599,78.0664,14.1,72,0.0,798.5,8.1,42.8,94,68.5,45.1,46.3,256.0,39.0,7.6,3,5,7,0,2026-06-06T01:35:14.804663+05:30
Dharamshala,Himachal Pradesh,32.219,76.3234,21.1,58,0.0,865.8,8.5,38.5,50,13.1,11.6,13.1,232.0,49.0,0.0,0,5,7,0,2026-06-06T01:35:14.804672+05:30
Dalhousie,Himachal Pradesh,32.5387,75.971,12.3,80,0.0,799.3,8.75,32.4,74,39.0,35.3,44.6,357.0,0.0,0.4,3,5,7,0,2026-06-06T01:35:14.804681+05:30
Patiala,Punjab,30.3398,76.3869,27.8,66,0.0,972.8,7.7,30.6,155,197.0,83.6,27.6,860.0,51.0,10.1,7,5,7,1,2026-06-06T01:35:14.804690+05:30
Bhatinda,Punjab,30.211,74.9455,31.1,47,0.0,978.1,8.35,21.6,160,133.2,78.0,58.5,447.0,33.0,11.8,0,5,7,1,2026-06-06T01:35:14.804698+05:30
Rohtak,Haryana,28.8955,76.6066,28.0,68,0.0,976.4,7.8,26.6,175,329.7,78.5,35.3,629.0,48.0,10.3,7,5,7,1,2026-06-06T01:35:14.804707+05:30
Panipat,Haryana,29.3909,76.9635,26.8,85,0.0,975.0,7.65,35.6,435,300.8,101.3,53.2,777.0,20.0,11.9,7,5,7,1,2026-06-06T01:35:14.804716+05:30
Mathura,Uttar Pradesh,27.4924,77.6737,27.3,75,0.0,981.8,8.05,24.5,189,309.2,89.4,51.5,723.0,36.0,11.2,7,5,7,1,2026-06-06T01:35:14.804724+05:30
Vrindavan,Uttar Pradesh,27.5823,77.7027,27.6,74,0.0,982.1,8.05,24.8,189,309.2,89.4,51.5,912.0,36.0,11.2,7,5,7,1,2026-06-06T01:35:14.804733+05:30
Ayodhya,Uttar Pradesh,26.7922,82.1998,28.2,80,0.0,989.3,8.35,30.2,156,87.1,58.2,15.4,517.0,92.0,11.5,7,5,7,1,2026-06-06T01:35:14.804741+05:30
Ratlam,Madhya Pradesh,23.3315,75.0367,28.5,67,0.0,950.9,8.55,37.4,86,49.4,32.7,5.7,222.0,65.0,8.2,7,5,7,1,2026-06-06T01:35:14.804750+05:30
Sagar,Madhya Pradesh,23.8388,78.7378,26.9,59,0.0,945.9,8.7,40.7,83,39.5,24.2,12.9,186.0,49.0,2.8,4,5,7,1,2026-06-06T01:35:14.804758+05:30
Satna,Madhya Pradesh,24.6005,80.8322,29.4,55,0.0,966.6,8.6,31.7,105,58.7,34.7,12.0,152.0,57.0,3.0,4,5,7,1,2026-06-06T01:35:14.804767+05:30
Akola,Maharashtra,20.7002,77.0082,30.0,55,0.0,971.5,8.8,54.7,83,38.5,25.3,11.2,181.0,64.0,7.4,4,5,7,1,2026-06-06T01:35:14.804777+05:30
Amravati,Maharashtra,20.9374,77.7796,31.7,42,0.0,963.0,8.85,47.2,90,42.0,27.3,18.8,310.0,44.0,5.8,0,5,7,1,2026-06-06T01:35:14.804786+05:30
Latur,Maharashtra,18.4088,76.5604,26.9,67,0.0,936.5,7.0,45.4,65,24.2,17.1,8.8,198.0,72.0,4.4,7,5,7,1,2026-06-06T01:35:14.804795+05:30
Nanded,Maharashtra,19.1383,77.3091,31.7,46,0.0,964.4,8.9,34.6,87,40.4,26.6,11.1,179.0,77.0,8.6,0,5,7,1,2026-06-06T01:35:14.804803+05:30
Gulbarga,Karnataka,17.3297,76.8343,25.6,81,0.0,955.2,9.0,60.1,55,22.0,15.8,12.7,195.0,55.0,3.4,7,5,7,1,2026-06-06T01:35:14.804812+05:30
Bidar,Karnataka,17.9104,77.5199,26.2,68,0.0,932.1,8.7,44.6,78,32.8,22.7,13.4,176.0,69.0,3.5,7,5,7,1,2026-06-06T01:35:14.804821+05:30
Hospet,Karnataka,15.2689,76.3909,24.8,85,0.0,953.6,6.9,46.1,22,4.3,3.6,8.0,152.0,39.0,1.6,3,5,7,1,2026-06-06T01:35:14.804830+05:30
Tirupur,Tamil Nadu,11.1085,77.3411,25.4,82,0.0,973.8,8.9,65.5,20,7.8,7.0,12.1,144.0,27.0,4.0,7,5,7,1,2026-06-06T01:35:14.804838+05:30
Alappuzha,Kerala,9.4981,76.3388,25.7,91,0.1,1009.0,8.0,40.7,33,17.1,8.1,5.5,84.0,40.0,1.2,10,0,4,1,2026-06-06T01:35:14.804846+05:30
Munnar,Kerala,10.0889,77.0595,17.0,98,0.0,855.9,8.45,46.8,15,1.2,1.1,5.7,103.0,27.0,1.8,3,10,7,1,2026-06-06T01:35:14.804855+05:30
Silchar,Assam,24.8333,92.7789,25.3,100,0.0,1000.4,8.95,21.6,99,71.9,64.5,22.8,985.0,59.0,10.1,7,5,4,1,2026-06-06T01:35:14.804864+05:30
Dibrugarh,Assam,27.4728,94.912,25.0,90,0.0,991.4,8.95,28.8,97,48.4,46.1,28.6,614.0,21.0,2.6,7,5,7,1,2026-06-06T01:35:14.804872+05:30
