city,state,latitude,longitude,temp,humidity,rain,pressure,uv_index,wind_gusts,aqi,pm10,pm2_5,mosquito_risk,arthritis_risk,migraine_risk,frizz_risk,updated_at
Delhi,Delhi,28.6139,77.209,25.9,47,0.0,980.6,7.4,30.2,362,440.5,85.2,4,5,7,0,2026-04-23T05:24:04.182954+05:30
Mumbai,Maharashtra,19.076,72.8777,29.0,76,0.0,1006.5,8.05,24.1,82,35.4,22.4,7,5,4,1,2026-04-23T05:24:04.183004+05:30
Bangalore,Karnataka,12.9716,77.5946,23.1,71,0.0,909.5,8.95,29.2,73,27.6,25.0,3,5,7,1,2026-04-23T05:24:04.183020+05:30
Hyderabad,Telangana,17.385,78.4867,27.0,64,0.0,951.4,8.95,44.6,128,40.6,35.5,7,5,7,1,2026-04-23T05:24:04.183031+05:30
Chennai,Tamil Nadu,13.0827,80.2707,28.3,86,0.0,1005.0,9.3,35.3,32,10.6,7.3,7,5,4,1,2026-04-23T05:24:04.183041+05:30
Kolkata,West Bengal,22.5726,88.3639,27.3,94,0.0,1003.4,8.85,27.4,83,27.3,23.3,7,5,4,1,2026-04-23T05:24:04.183056+05:30
Pune,Maharashtra,18.5204,73.8567,24.6,79,0.0,947.0,8.65,28.4,112,58.2,48.7,3,5,7,1,2026-04-23T05:24:04.183064+05:30
Ahmedabad,Gujarat,23.0225,72.5714,24.5,67,0.0,1001.4,8.2,27.4,44,16.4,9.2,3,5,4,1,2026-04-23T05:24:04.183071+05:30
Jaipur,Rajasthan,26.9124,75.7873,25.8,26,0.0,958.6,8.05,29.2,147,265.4,36.9,4,5,7,0,2026-04-23T05:24:04.183079+05:30
Lucknow,Uttar Pradesh,26.8467,80.9462,25.8,54,0.0,990.7,7.85,36.7,203,356.7,74.3,4,5,7,0,2026-04-23T05:24:04.183086+05:30
Kanpur,Uttar Pradesh,26.4499,80.3319,24.7,61,0.0,989.0,7.85,31.3,418,420.0,73.1,3,5,7,1,2026-04-23T05:24:04.183094+05:30
Chandigarh,Chandigarh,30.7333,76.7794,22.2,55,0.0,964.9,7.4,30.2,57,18.9,15.8,0,5,7,0,2026-04-23T05:24:04.183102+05:30
Srinagar,Jammu and Kashmir,34.0837,74.7973,10.6,83,0.0,839.3,7.35,18.4,70,31.3,25.2,3,10,7,0,2026-04-23T05:24:04.183110+05:30
Jammu,Jammu and Kashmir,32.7266,74.857,22.6,64,0.0,969.4,8.2,28.1,66,16.9,15.1,3,5,7,0,2026-04-23T05:24:04.183117+05:30
Amritsar,Punjab,31.634,74.8723,24.0,61,0.0,977.4,8.1,32.8,94,53.8,45.6,3,5,7,0,2026-04-23T05:24:04.183123+05:30
Ludhiana,Punjab,30.901,75.8573,25.6,50,0.0,975.7,7.7,15.5,80,40.2,38.1,4,5,7,0,2026-04-23T05:24:04.183131+05:30
Jalandhar,Punjab,31.326,75.5762,23.2,58,0.0,976.4,7.9,23.4,86,41.4,37.1,0,5,7,0,2026-04-23T05:24:04.183138+05:30
Dehradun,Uttarakhand,30.6284,78.0322,17.3,51,0.0,829.0,7.85,35.6,45,11.7,9.0,0,5,7,0,2026-04-23T05:24:04.183145+05:30
Shimla,Himachal Pradesh,31.1048,77.1734,14.3,53,0.0,782.7,7.9,52.6,50,25.3,16.8,0,5,7,0,2026-04-23T05:24:04.183151+05:30
Manali,Himachal Pradesh,32.2396,77.1887,18.4,35,0.0,820.4,9.3,32.8,49,25.2,15.4,0,5,7,0,2026-04-23T05:24:04.183158+05:30
Gurgaon,Haryana,28.4595,77.0266,23.8,53,0.0,979.0,7.5,24.8,1005,1497.6,179.3,0,5,7,0,2026-04-23T05:24:04.183165+05:30
Noida,Uttar Pradesh,28.5355,77.391,25.5,49,0.0,982.0,7.4,31.7,1005,1497.6,179.3,4,5,7,0,2026-04-23T05:24:04.183171+05:30
Ghaziabad,Uttar Pradesh,28.6692,77.4538,25.2,48,0.0,979.9,7.4,30.6,280,385.6,82.9,4,5,7,0,2026-04-23T05:24:04.183177+05:30
Faridabad,Haryana,28.4089,77.3178,27.7,34,0.0,981.3,7.45,31.7,1005,1497.6,179.3,4,5,7,0,2026-04-23T05:24:04.183184+05:30
Meerut,Uttar Pradesh,28.9845,77.7064,23.4,59,0.0,978.3,7.3,28.1,280,385.6,82.9,0,5,7,0,2026-04-23T05:24:04.183190+05:30
Agra,Uttar Pradesh,27.1767,78.0081,24.2,63,0.0,985.3,7.75,29.5,707,843.8,93.4,3,5,7,1,2026-04-23T05:24:04.183199+05:30
Varanasi,Uttar Pradesh,25.3176,82.9739,24.8,48,0.0,995.0,8.5,34.2,116,135.5,44.8,0,5,7,0,2026-04-23T05:24:04.183205+05:30
Prayagraj,Uttar Pradesh,25.4358,81.8463,26.7,50,0.0,993.8,8.35,31.7,128,206.3,60.8,4,5,7,0,2026-04-23T05:24:04.183212+05:30
Gorakhpur,Uttar Pradesh,26.7606,83.3732,23.3,48,0.0,994.3,8.25,28.4,114,181.1,55.1,0,5,7,0,2026-04-23T05:24:04.183218+05:30
Bareilly,Uttar Pradesh,28.367,79.4304,23.2,62,0.0,983.9,7.65,31.3,97,180.7,49.5,3,5,7,0,2026-04-23T05:24:04.183225+05:30
Aligarh,Uttar Pradesh,27.8974,78.088,23.7,51,0.0,982.6,7.55,32.0,622,674.3,113.6,0,5,7,0,2026-04-23T05:24:04.183231+05:30
Moradabad,Uttar Pradesh,28.8386,78.7733,24.3,58,0.0,980.3,7.5,33.1,116,155.5,53.4,0,5,7,0,2026-04-23T05:24:04.183243+05:30
Saharanpur,Uttar Pradesh,29.9637,77.546,20.9,70,0.0,972.3,7.1,33.8,92,48.4,32.1,3,5,7,0,2026-04-23T05:24:04.183249+05:30
Jhansi,Uttar Pradesh,25.4484,78.5685,27.6,29,0.0,976.3,8.25,32.4,47,7.7,7.3,4,5,7,0,2026-04-23T05:24:07.402472+05:30
Surat,Gujarat,21.1702,72.8311,25.7,91,0.0,1005.3,7.9,22.0,101,34.1,28.3,7,5,4,1,2026-04-23T05:24:07.402510+05:30
Vadodara,Gujarat,22.3072,73.1812,26.3,57,0.0,1003.4,8.2,25.6,78,28.4,25.0,4,5,4,1,2026-04-23T05:24:07.402521+05:30
Rajkot,Gujarat,22.3039,70.8022,23.6,93,0.0,993.6,7.9,28.4,53,16.4,9.6,3,5,7,1,2026-04-23T05:24:07.402530+05:30
Thane,Maharashtra,19.2183,72.9781,26.5,80,0.0,1006.0,8.05,37.8,82,35.4,22.4,7,5,4,1,2026-04-23T05:24:07.402538+05:30
Nagpur,Maharashtra,21.1458,79.0882,27.8,45,0.0,971.2,8.95,24.8,79,29.9,25.6,4,5,7,0,2026-04-23T05:24:07.402545+05:30
Nashik,Maharashtra,19.9975,73.7898,24.9,49,0.0,944.7,8.35,30.6,90,50.8,36.8,0,5,7,0,2026-04-23T05:24:07.402552+05:30
Aurangabad,Maharashtra,19.8762,75.3433,27.8,36,0.0,943.2,9.05,36.7,86,37.1,29.8,4,5,7,0,2026-04-23T05:24:07.402559+05:30
Solapur,Maharashtra,17.6599,75.9064,26.3,72,0.0,955.3,9.1,35.3,108,42.6,38.6,7,5,7,1,2026-04-23T05:24:07.402566+05:30
Kolhapur,Maharashtra,16.705,74.2433,23.6,89,0.0,945.7,9.05,39.6,111,59.5,55.8,3,5,7,1,2026-04-23T05:24:07.402573+05:30
Goa,Goa,15.2993,74.124,27.7,88,0.0,994.9,9.0,29.9,84,50.2,41.7,7,5,7,1,2026-04-23T05:24:07.402580+05:30
Jodhpur,Rajasthan,26.2389,73.0243,26.2,45,0.0,981.2,8.25,23.8,86,97.6,16.0,4,5,7,0,2026-04-23T05:24:07.402587+05:30
Udaipur,Rajasthan,24.5854,73.7125,23.5,53,0.0,945.7,8.8,26.3,41,15.4,9.3,0,5,7,0,2026-04-23T05:24:07.402593+05:30
Kota,Rajasthan,25.2138,75.8648,26.7,38,0.0,978.0,8.25,32.0,44,17.1,15.0,4,5,7,0,2026-04-23T05:24:07.402600+05:30
Bikaner,Rajasthan,28.0229,73.3119,29.5,34,0.0,979.2,8.15,35.6,71,53.0,12.4,4,5,7,0,2026-04-23T05:24:07.402606+05:30
Ajmer,Rajasthan,26.4499,74.6399,23.9,40,0.0,953.3,8.2,31.0,42,6.8,6.1,0,5,7,0,2026-04-23T05:24:07.402612+05:30
Gwalior,Madhya Pradesh,26.2183,78.1828,27.9,29,0.0,981.6,8.0,38.2,52,14.5,7.3,4,5,7,0,2026-04-23T05:24:07.402618+05:30
Indore,Madhya Pradesh,22.7196,75.8577,24.5,45,0.0,947.2,8.55,29.5,60,21.1,19.1,0,5,7,0,2026-04-23T05:24:07.402624+05:30
Bhopal,Madhya Pradesh,23.2599,77.4126,24.5,41,0.0,952.9,8.65,31.7,55,22.6,21.0,0,5,7,0,2026-04-23T05:24:07.402630+05:30
Jabalpur,Madhya Pradesh,23.1815,79.9864,27.9,37,0.0,960.4,8.8,27.0,63,30.4,28.7,4,5,7,0,2026-04-23T05:24:07.402636+05:30
Ujjain,Madhya Pradesh,23.1765,75.7885,25.2,44,0.0,953.1,8.6,33.8,63,23.5,21.2,4,5,7,0,2026-04-23T05:24:07.402643+05:30
Visakhapatnam,Andhra Pradesh,17.6868,83.2185,26.8,89,0.0,1000.8,9.25,36.0,63,23.4,20.1,7,5,4,1,2026-04-23T05:24:07.402650+05:30
Vijayawada,Andhra Pradesh,16.5062,80.648,26.9,90,0.0,1000.4,9.15,25.6,61,16.4,13.3,7,5,4,1,2026-04-23T05:24:07.402656+05:30
Guntur,Andhra Pradesh,16.3067,80.4365,26.9,90,0.0,1001.6,9.0,28.8,65,15.5,12.4,7,5,4,1,2026-04-23T05:24:07.402662+05:30
Nellore,Andhra Pradesh,14.4426,79.9865,26.4,93,0.0,1003.5,9.3,32.8,48,10.3,8.3,7,5,4,1,2026-04-23T05:24:07.402669+05:30
Kurnool,Andhra Pradesh,15.8281,78.0373,29.9,56,0.0,974.3,8.8,47.9,102,32.6,29.3,4,5,7,1,2026-04-23T05:24:07.402675+05:30
Kakinada,Andhra Pradesh,16.9891,82.2475,26.7,93,0.0,1005.2,9.25,31.7,44,17.1,11.7,7,5,4,1,2026-04-23T05:24:07.402683+05:30
Tirupati,Andhra Pradesh,13.6288,79.4192,24.9,86,0.0,990.0,9.15,32.8,67,20.8,18.5,3,5,7,1,2026-04-23T05:24:07.402690+05:30
Warangal,Telangana,17.9689,79.5941,28.0,67,0.0,976.6,8.5,20.5,117,32.8,30.9,7,5,7,1,2026-04-23T05:24:07.402696+05:30
Nizamabad,Telangana,18.6725,78.0941,28.3,60,0.0,962.9,8.4,36.0,115,47.4,44.1,4,5,7,1,2026-04-23T05:24:07.402701+05:30
Mysore,Karnataka,12.2958,76.6396,23.5,93,0.0,926.4,8.9,37.4,78,40.5,38.2,3,5,7,1,2026-04-23T05:24:07.402708+05:30
Mangalore,Karnataka,12.9141,74.856,29.2,84,0.0,1003.9,8.95,25.6,82,38.4,32.1,7,5,4,1,2026-04-23T05:24:07.402714+05:30
Hubli-Dharwad,Karnataka,15.3647,75.124,24.7,79,0.0,939.2,9.25,52.9,101,38.3,34.8,3,5,7,1,2026-04-23T05:24:07.402720+05:30
Belgaum,Karnataka,15.8497,74.4977,23.4,83,0.0,923.2,9.25,38.5,99,48.2,42.8,3,5,7,1,2026-04-23T05:24:10.621949+05:30
Coimbatore,Tamil Nadu,11.0168,76.9558,24.2,89,0.0,959.7,9.3,32.0,79,51.2,49.2,3,5,7,1,2026-04-23T05:24:10.621989+05:30
Madurai,Tamil Nadu,9.9252,78.1198,27.1,92,0.0,990.9,9.3,32.0,52,21.2,20.4,7,5,7,1,2026-04-23T05:24:10.622000+05:30
Trichy,Tamil Nadu,10.7905,78.7047,27.7,92,0.0,997.6,9.3,20.9,53,17.8,16.6,7,5,7,1,2026-04-23T05:24:10.622008+05:30
Salem,Tamil Nadu,11.6643,78.146,25.6,89,0.0,975.3,9.4,27.0,66,21.0,20.4,7,5,7,1,2026-04-23T05:24:10.622017+05:30
Tirunelveli,Tamil Nadu,8.7139,77.7567,26.4,86,0.0,1000.8,9.25,36.4,67,30.5,28.1,7,5,4,1,2026-04-23T05:24:10.622024+05:30
Vellore,Tamil Nadu,12.9165,79.1325,24.1,89,0.0,982.8,9.4,29.9,79,38.4,36.7,3,5,7,1,2026-04-23T05:24:10.622032+05:30
Erode,Tamil Nadu,11.341,77.7172,27.3,86,0.0,987.0,9.35,28.1,51,7.0,6.5,7,5,7,1,2026-04-23T05:24:10.622040+05:30
Kochi,Kerala,9.9312,76.2673,28.6,84,0.0,1005.9,9.05,28.8,75,31.1,28.2,7,5,4,1,2026-04-23T05:24:10.622048+05:30
Thiruvananthapuram,Kerala,8.5241,76.9366,28.6,83,0.0,1005.0,8.8,18.4,58,20.7,16.8,7,5,4,1,2026-04-23T05:24:10.622055+05:30
Kozhikode,Kerala,11.2588,75.7804,29.0,84,0.0,1005.1,8.85,29.2,67,33.6,27.6,7,5,4,1,2026-04-23T05:24:10.622062+05:30
Thrissur,Kerala,10.5276,76.2144,27.6,90,0.0,1004.4,9.05,36.0,77,36.6,34.2,7,5,4,1,2026-04-23T05:24:10.622069+05:30
Kannur,Kerala,11.8745,75.3704,28.5,83,0.0,1004.2,8.9,31.7,82,35.2,30.6,7,5,4,1,2026-04-23T05:24:10.622077+05:30
Patna,Bihar,25.5941,85.1376,25.5,67,0.0,997.4,8.6,21.2,135,104.5,62.9,7,5,7,1,2026-04-23T05:24:10.622082+05:30
Gaya,Bihar,24.7914,85.0002,26.9,49,0.0,990.6,8.55,30.2,130,94.3,46.2,4,5,7,0,2026-04-23T05:24:10.622089+05:30
Muzaffarpur,Bihar,26.1209,85.3647,23.6,87,0.0,997.6,8.6,26.6,148,76.8,54.5,3,5,7,1,2026-04-23T05:24:10.622095+05:30
Bhagalpur,Bihar,25.2425,87.0117,24.5,91,0.0,998.3,8.65,18.0,123,65.4,52.0,3,5,7,1,2026-04-23T05:24:10.622102+05:30
Ranchi,Jharkhand,23.3441,85.3096,25.9,39,0.0,936.3,8.7,32.4,89,125.3,42.8,4,5,7,0,2026-04-23T05:24:10.622109+05:30
Jamshedpur,Jharkhand,22.8046,86.2029,27.6,80,0.0,988.3,8.85,19.4,138,118.5,85.9,7,5,7,1,2026-04-23T05:24:10.622116+05:30
Dhanbad,Jharkhand,23.7957,86.4304,27.8,76,0.0,977.2,8.65,32.8,157,180.2,123.9,7,5,7,1,2026-04-23T05:24:10.622122+05:30
Bokaro,Jharkhand,23.6693,86.1511,24.4,58,0.0,981.5,8.55,33.1,152,187.2,99.4,0,5,7,0,2026-04-23T05:24:10.622130+05:30
Bhubaneswar,Odisha,20.2961,85.8245,26.6,96,0.0,1000.0,9.2,32.8,84,22.8,20.4,7,5,4,1,2026-04-23T05:24:10.622136+05:30
Cuttack,Odisha,20.4625,85.8828,27.0,92,0.0,1001.8,9.25,26.3,84,22.8,20.4,7,5,4,1,2026-04-23T05:24:10.622142+05:30
Rourkela,Odisha,22.2604,84.8536,25.9,72,0.0,982.6,8.95,20.2,99,68.9,38.8,7,5,7,1,2026-04-23T05:24:10.622148+05:30
Raipur,Chhattisgarh,21.2514,81.6296,29.1,49,0.0,972.3,8.15,23.0,112,65.9,56.2,4,5,7,1,2026-04-23T05:24:10.622158+05:30
Bhilai,Chhattisgarh,21.1938,81.3509,28.3,54,0.0,972.6,7.85,22.7,104,59.0,49.6,4,5,7,1,2026-04-23T05:24:10.622165+05:30
Guwahati,Assam,26.1158,91.7086,24.3,91,0.0,1001.2,8.55,18.4,99,39.5,27.5,3,5,4,1,2026-04-23T05:24:10.622171+05:30
Agartala,Tripura,23.8315,91.2868,26.1,95,0.0,1004.9,8.3,19.8,80,19.7,17.8,7,5,4,1,2026-04-23T05:24:10.622178+05:30
Shillong,Meghalaya,25.5788,91.8933,15.1,92,0.0,855.3,8.95,37.1,72,53.1,28.8,3,10,7,0,2026-04-23T05:24:10.622184+05:30
Imphal,Manipur,24.817,93.9368,19.5,87,0.0,922.4,9.05,51.1,117,74.7,51.7,3,10,7,1,2026-04-23T05:24:10.622190+05:30
Aizawl,Mizoram,23.7271,92.7176,19.4,94,0.0,891.6,8.9,34.9,104,62.4,43.8,3,10,7,1,2026-04-23T05:24:10.622196+05:30
Kohima,Nagaland,25.6701,94.1077,16.5,79,0.0,854.3,9.1,50.0,97,63.1,34.2,3,5,7,0,2026-04-23T05:24:10.622202+05:30
Gangtok,Sikkim,27.3314,88.6138,15.7,70,0.0,835.8,8.9,21.6,85,37.5,24.7,3,5,7,0,2026-04-23T05:24:10.622208+05:30
Siliguri,West Bengal,26.7271,88.3953,22.4,72,0.0,992.9,8.5,22.7,134,95.9,69.6,3,5,7,1,2026-04-23T05:24:13.847592+05:30
Durgapur,West Bengal,23.5204,87.3119,27.0,88,0.0,992.4,8.95,29.5,156,78.2,69.4,7,5,7,1,2026-04-23T05:24:13.847628+05:30
Asansol,West Bengal,23.6739,86.9524,27.8,81,0.0,990.8,8.9,31.7,152,106.9,84.8,7,5,7,1,2026-04-23T05:24:13.847640+05:30
Pondicherry,Puducherry,11.9139,79.8145,27.0,95,0.0,1006.3,9.25,28.8,26,8.4,5.7,7,5,4,1,2026-04-23T05:24:13.847649+05:30
Port Blair,Andaman and Nicobar Islands,11.6234,92.7265,30.3,69,0.0,1004.8,9.15,22.0,30,8.6,4.9,3,5,4,1,2026-04-23T05:24:13.847657+05:30
Haridwar,Uttarakhand,29.9457,78.1642,21.2,67,0.0,970.9,7.2,36.7,70,28.1,26.6,3,5,7,0,2026-04-23T05:24:13.847665+05:30
Rishikesh,Uttarakhand,30.0869,78.2676,22.4,63,0.0,964.1,7.3,35.3,60,27.9,24.2,3,5,7,0,2026-04-23T05:24:13.847672+05:30
Nainital,Uttarakhand,29.3919,79.4542,22.2,36,0.0,806.0,8.15,40.3,64,22.2,18.1,0,5,7,0,2026-04-23T05:24:13.847680+05:30
Mussoorie,Uttarakhand,30.4599,78.0664,19.7,47,0.0,802.1,7.7,37.8,63,21.5,19.7,0,5,7,0,2026-04-23T05:24:13.847687+05:30
Dharamshala,Himachal Pradesh,32.219,76.3234,23.7,42,0.0,868.3,8.1,32.0,45,14.1,8.1,0,5,7,0,2026-04-23T05:24:13.847694+05:30
Dalhousie,Himachal Pradesh,32.5387,75.971,20.2,41,0.0,803.2,8.35,30.6,58,17.6,14.9,0,5,7,0,2026-04-23T05:24:13.847702+05:30
Patiala,Punjab,30.3398,76.3869,22.9,58,0.0,974.9,7.3,16.9,262,133.2,47.4,0,5,7,0,2026-04-23T05:24:13.847709+05:30
Bhatinda,Punjab,30.211,74.9455,27.7,48,0.0,980.3,8.0,24.8,79,55.4,36.1,4,5,7,0,2026-04-23T05:24:13.847717+05:30
Rohtak,Haryana,28.8955,76.6066,23.7,49,0.0,979.0,7.45,24.5,474,489.9,72.6,0,5,7,0,2026-04-23T05:24:13.847724+05:30
Panipat,Haryana,29.3909,76.9635,24.3,59,0.0,977.1,7.25,21.2,880,892.2,122.0,0,5,7,0,2026-04-23T05:24:13.847730+05:30
Mathura,Uttar Pradesh,27.4924,77.6737,27.6,37,0.0,984.2,7.7,25.2,669,588.6,77.3,4,5,7,0,2026-04-23T05:24:13.847737+05:30
Vrindavan,Uttar Pradesh,27.5823,77.7027,25.5,46,0.0,984.5,7.65,27.4,669,588.6,77.3,4,5,7,0,2026-04-23T05:24:13.847743+05:30
Ayodhya,Uttar Pradesh,26.7922,82.1998,23.1,48,0.0,992.4,8.05,37.1,142,251.5,60.3,0,5,7,0,2026-04-23T05:24:13.847749+05:30
Ratlam,Madhya Pradesh,23.3315,75.0367,26.1,41,0.0,953.7,8.5,33.1,62,26.3,22.9,4,5,7,0,2026-04-23T05:24:13.847756+05:30
Sagar,Madhya Pradesh,23.8388,78.7378,25.9,37,0.0,949.4,8.65,34.6,45,14.6,14.0,4,5,7,0,2026-04-23T05:24:13.847762+05:30
Satna,Madhya Pradesh,24.6005,80.8322,26.1,44,0.0,969.5,8.65,30.6,64,17.8,14.3,4,5,7,0,2026-04-23T05:24:13.847769+05:30
Akola,Maharashtra,20.7002,77.0082,27.4,54,0.0,973.7,8.85,27.4,78,27.8,24.3,4,5,7,1,2026-04-23T05:24:13.847776+05:30
Amravati,Maharashtra,20.9374,77.7796,29.0,42,0.0,965.7,8.9,18.4,79,26.8,23.6,4,5,7,0,2026-04-23T05:24:13.847784+05:30
Latur,Maharashtra,18.4088,76.5604,24.1,69,0.0,938.1,8.95,43.6,117,48.2,41.7,3,5,7,1,2026-04-23T05:24:13.847790+05:30
Nanded,Maharashtra,19.1383,77.3091,27.1,62,0.0,967.0,9.05,33.1,114,66.4,60.8,7,5,7,1,2026-04-23T05:24:13.847798+05:30
Gulbarga,Karnataka,17.3297,76.8343,27.9,59,0.0,956.7,9.0,32.0,97,42.6,39.2,4,5,7,1,2026-04-23T05:24:13.847805+05:30
Bidar,Karnataka,17.9104,77.5199,27.9,55,0.0,933.8,7.85,37.4,113,47.7,44.1,4,5,7,1,2026-04-23T05:24:13.847811+05:30
Hospet,Karnataka,15.2689,76.3909,26.5,69,0.0,954.0,9.05,25.9,100,35.5,32.6,7,5,7,1,2026-04-23T05:24:13.847818+05:30
Tirupur,Tamil Nadu,11.1085,77.3411,26.5,76,0.0,973.3,9.35,32.4,66,28.4,26.9,7,5,7,1,2026-04-23T05:24:13.847824+05:30
Alappuzha,Kerala,9.4981,76.3388,28.3,83,0.0,1006.0,9.0,26.6,76,33.9,29.2,7,5,4,1,2026-04-23T05:24:13.847830+05:30
Munnar,Kerala,10.0889,77.0595,21.3,74,0.0,854.6,9.65,22.3,71,27.4,26.4,3,5,7,1,2026-04-23T05:24:13.847837+05:30
Silchar,Assam,24.8333,92.7789,24.0,93,0.0,1004.2,8.8,24.5,122,64.0,43.7,3,5,4,1,2026-04-23T05:24:13.847844+05:30
Dibrugarh,Assam,27.4728,94.912,22.1,96,0.0,996.5,8.65,10.8,71,39.1,36.2,3,5,7,1,2026-04-23T05:24:13.847850+05:30
