city,state,latitude,longitude,temp,humidity,rain,pressure,uv_index,wind_gusts,aqi,pm10,pm2_5,mosquito_risk,arthritis_risk,migraine_risk,frizz_risk,updated_at
Delhi,Delhi,28.6139,77.209,27.4,35,0.0,981.2,6.15,24.5,158,222.1,59.1,4,5,7,0,2026-04-17T02:23:15.458957+05:30
Mumbai,Maharashtra,19.076,72.8777,28.5,75,0.0,1007.4,7.05,21.2,79,57.0,22.1,7,5,4,1,2026-04-17T02:23:15.458994+05:30
Bangalore,Karnataka,12.9716,77.5946,25.0,69,0.0,910.9,9.55,34.9,82,28.2,26.0,7,5,7,1,2026-04-17T02:23:15.459010+05:30
Hyderabad,Telangana,17.385,78.4867,28.4,61,0.0,951.9,9.2,45.7,86,23.6,22.5,7,5,7,1,2026-04-17T02:23:15.459020+05:30
Chennai,Tamil Nadu,13.0827,80.2707,27.7,91,0.0,1005.7,8.7,33.8,31,11.2,7.7,7,5,4,1,2026-04-17T02:23:15.459028+05:30
Kolkata,West Bengal,22.5726,88.3639,25.9,95,0.0,1006.0,8.9,22.7,73,21.0,16.8,7,5,4,1,2026-04-17T02:23:15.459040+05:30
Pune,Maharashtra,18.5204,73.8567,23.0,78,0.0,947.1,7.75,44.3,119,36.3,27.5,3,5,7,1,2026-04-17T02:23:15.459048+05:30
Ahmedabad,Gujarat,23.0225,72.5714,28.3,58,0.0,1000.5,7.75,21.2,74,33.8,18.2,4,5,4,1,2026-04-17T02:23:15.459055+05:30
Jaipur,Rajasthan,26.9124,75.7873,28.4,33,0.0,958.4,6.4,31.0,121,125.7,35.7,4,5,7,0,2026-04-17T02:23:15.459063+05:30
Lucknow,Uttar Pradesh,26.8467,80.9462,25.2,44,0.0,992.0,7.05,24.1,103,154.1,43.1,4,5,7,0,2026-04-17T02:23:15.459070+05:30
Kanpur,Uttar Pradesh,26.4499,80.3319,25.2,53,0.0,990.0,7.4,15.8,144,227.2,56.6,4,5,7,0,2026-04-17T02:23:15.459078+05:30
Chandigarh,Chandigarh,30.7333,76.7794,21.3,51,0.0,966.8,7.2,51.8,53,18.6,16.5,0,5,7,0,2026-04-17T02:23:15.459087+05:30
Srinagar,Jammu and Kashmir,34.0837,74.7973,10.6,91,0.0,842.9,5.1,25.2,73,38.3,25.0,3,10,3,0,2026-04-17T02:23:15.459094+05:30
Jammu,Jammu and Kashmir,32.7266,74.857,25.6,41,0.0,971.6,5.2,42.1,56,15.6,11.9,4,5,3,0,2026-04-17T02:23:15.459102+05:30
Amritsar,Punjab,31.634,74.8723,22.6,61,0.0,979.0,7.1,47.9,66,21.9,17.6,3,5,7,0,2026-04-17T02:23:15.459109+05:30
Ludhiana,Punjab,30.901,75.8573,23.9,44,0.0,976.9,6.7,42.1,73,27.8,24.6,0,5,7,0,2026-04-17T02:23:15.459117+05:30
Jalandhar,Punjab,31.326,75.5762,22.2,52,0.0,978.0,6.1,41.0,64,22.9,15.4,0,5,7,0,2026-04-17T02:23:15.459124+05:30
Dehradun,Uttarakhand,30.6284,78.0322,15.7,51,0.0,830.6,6.6,40.7,46,12.8,11.3,0,5,7,0,2026-04-17T02:23:15.459130+05:30
Shimla,Himachal Pradesh,31.1048,77.1734,14.1,49,0.0,784.7,6.85,42.5,78,18.5,14.6,0,5,7,0,2026-04-17T02:23:15.459137+05:30
Manali,Himachal Pradesh,32.2396,77.1887,15.9,45,0.0,821.9,8.05,29.5,79,13.8,11.3,0,5,7,0,2026-04-17T02:23:15.459143+05:30
Gurgaon,Haryana,28.4595,77.0266,24.8,45,0.0,979.4,6.1,29.5,393,325.0,89.4,0,5,7,0,2026-04-17T02:23:15.459149+05:30
Noida,Uttar Pradesh,28.5355,77.391,26.7,39,0.0,982.7,6.0,23.4,393,325.0,89.4,4,5,3,0,2026-04-17T02:23:15.459156+05:30
Ghaziabad,Uttar Pradesh,28.6692,77.4538,24.9,45,0.0,980.8,5.95,25.6,123,188.1,57.2,0,5,3,0,2026-04-17T02:23:15.459162+05:30
Faridabad,Haryana,28.4089,77.3178,26.5,40,0.0,982.1,6.25,22.3,393,325.0,89.4,4,5,7,0,2026-04-17T02:23:15.459168+05:30
Meerut,Uttar Pradesh,28.9845,77.7064,23.7,45,0.0,979.5,6.05,28.4,123,188.1,57.2,0,5,7,0,2026-04-17T02:23:15.459174+05:30
Agra,Uttar Pradesh,27.1767,78.0081,25.9,48,0.0,985.9,6.25,26.3,398,283.1,76.8,4,5,7,0,2026-04-17T02:23:15.459183+05:30
Varanasi,Uttar Pradesh,25.3176,82.9739,26.0,82,0.0,996.3,8.4,22.0,110,137.8,53.8,7,5,7,1,2026-04-17T02:23:15.459189+05:30
Prayagraj,Uttar Pradesh,25.4358,81.8463,26.0,46,0.0,994.5,8.25,23.4,95,66.1,30.2,4,5,7,0,2026-04-17T02:23:15.459198+05:30
Gorakhpur,Uttar Pradesh,26.7606,83.3732,25.5,79,0.0,997.2,7.65,28.4,139,70.3,58.9,7,5,7,1,2026-04-17T02:23:15.459205+05:30
Bareilly,Uttar Pradesh,28.367,79.4304,23.1,53,0.0,985.3,7.45,24.8,75,48.0,41.4,0,5,7,0,2026-04-17T02:23:15.459211+05:30
Aligarh,Uttar Pradesh,27.8974,78.088,24.2,47,0.0,983.7,7.15,25.2,151,203.0,75.0,0,5,7,0,2026-04-17T02:23:15.459217+05:30
Moradabad,Uttar Pradesh,28.8386,78.7733,23.8,51,0.0,982.0,6.65,26.3,90,61.0,50.8,0,5,7,0,2026-04-17T02:23:15.459223+05:30
Saharanpur,Uttar Pradesh,29.9637,77.546,20.4,67,0.0,974.2,6.3,24.5,74,38.2,33.3,3,5,7,0,2026-04-17T02:23:15.459229+05:30
Jhansi,Uttar Pradesh,25.4484,78.5685,29.4,37,0.0,976.1,8.15,32.0,94,103.1,24.7,4,5,7,0,2026-04-17T02:23:18.683888+05:30
Surat,Gujarat,21.1702,72.8311,26.9,90,0.0,1005.2,7.5,19.4,84,40.6,26.7,7,5,4,1,2026-04-17T02:23:18.683916+05:30
Vadodara,Gujarat,22.3072,73.1812,25.7,86,0.0,1002.9,7.25,18.7,74,29.9,24.2,7,5,4,1,2026-04-17T02:23:18.683925+05:30
Rajkot,Gujarat,22.3039,70.8022,24.5,75,0.0,993.2,7.65,25.2,64,71.0,19.6,3,5,7,1,2026-04-17T02:23:18.683933+05:30
Thane,Maharashtra,19.2183,72.9781,25.4,87,0.0,1007.0,7.05,33.5,79,57.0,22.1,7,5,4,1,2026-04-17T02:23:18.683939+05:30
Nagpur,Maharashtra,21.1458,79.0882,26.8,56,0.0,970.4,8.85,18.4,61,28.3,21.5,4,5,7,1,2026-04-17T02:23:18.683945+05:30
Nashik,Maharashtra,19.9975,73.7898,22.5,74,0.0,944.4,7.4,31.3,57,39.3,23.1,3,5,7,1,2026-04-17T02:23:18.683952+05:30
Aurangabad,Maharashtra,19.8762,75.3433,27.1,49,0.0,942.7,8.25,28.8,47,20.1,15.3,4,5,7,0,2026-04-17T02:23:18.683958+05:30
Solapur,Maharashtra,17.6599,75.9064,27.1,46,0.0,955.3,8.6,19.1,60,31.1,28.4,4,5,7,0,2026-04-17T02:23:18.683965+05:30
Kolhapur,Maharashtra,16.705,74.2433,21.2,94,0.0,946.2,8.5,40.3,69,24.5,19.2,3,5,7,1,2026-04-17T02:23:18.683972+05:30
Goa,Goa,15.2993,74.124,27.6,83,0.0,997.0,8.5,31.3,72,34.0,25.0,7,5,7,1,2026-04-17T02:23:18.683978+05:30
Jodhpur,Rajasthan,26.2389,73.0243,28.2,50,0.0,980.9,8.05,28.8,75,180.2,35.9,4,5,7,1,2026-04-17T02:23:18.683984+05:30
Udaipur,Rajasthan,24.5854,73.7125,27.3,48,0.0,945.8,8.0,25.6,68,60.8,20.9,4,5,7,0,2026-04-17T02:23:18.683990+05:30
Kota,Rajasthan,25.2138,75.8648,28.8,46,0.0,976.6,7.4,25.2,82,89.4,33.9,4,5,7,1,2026-04-17T02:23:18.683996+05:30
Bikaner,Rajasthan,28.0229,73.3119,29.4,33,0.0,978.8,8.0,26.3,54,72.4,20.7,4,5,7,0,2026-04-17T02:23:18.684003+05:30
Ajmer,Rajasthan,26.4499,74.6399,27.9,43,0.0,953.1,7.55,31.0,66,88.5,34.7,4,5,7,0,2026-04-17T02:23:18.684009+05:30
Gwalior,Madhya Pradesh,26.2183,78.1828,27.0,46,0.0,981.4,7.15,27.4,133,120.6,27.6,4,5,7,0,2026-04-17T02:23:18.684014+05:30
Indore,Madhya Pradesh,22.7196,75.8577,25.8,63,0.0,946.5,7.7,26.6,75,35.6,25.5,7,5,7,1,2026-04-17T02:23:18.684020+05:30
Bhopal,Madhya Pradesh,23.2599,77.4126,29.0,45,0.0,951.8,7.8,25.6,74,61.9,34.3,4,5,7,0,2026-04-17T02:23:18.684027+05:30
Jabalpur,Madhya Pradesh,23.1815,79.9864,26.0,52,0.0,959.3,8.25,26.6,81,53.9,20.8,4,5,7,0,2026-04-17T02:23:18.684032+05:30
Ujjain,Madhya Pradesh,23.1765,75.7885,26.1,61,0.0,952.3,7.8,25.2,81,36.7,26.1,7,5,7,1,2026-04-17T02:23:18.684039+05:30
Visakhapatnam,Andhra Pradesh,17.6868,83.2185,27.4,87,0.0,1002.1,9.2,39.2,46,13.4,10.7,7,5,4,1,2026-04-17T02:23:18.684045+05:30
Vijayawada,Andhra Pradesh,16.5062,80.648,26.8,92,0.0,1001.4,9.2,25.2,46,11.3,9.2,7,5,4,1,2026-04-17T02:23:18.684051+05:30
Guntur,Andhra Pradesh,16.3067,80.4365,27.0,91,0.0,1002.3,9.2,28.4,52,11.2,9.1,7,5,4,1,2026-04-17T02:23:18.684057+05:30
Nellore,Andhra Pradesh,14.4426,79.9865,27.2,88,0.0,1003.7,9.3,31.0,51,10.2,8.4,7,5,4,1,2026-04-17T02:23:18.684063+05:30
Kurnool,Andhra Pradesh,15.8281,78.0373,31.5,49,0.0,974.9,9.15,27.0,78,21.9,20.7,0,5,7,1,2026-04-17T02:23:18.684070+05:30
Kakinada,Andhra Pradesh,16.9891,82.2475,27.2,90,0.0,1006.2,9.2,29.9,29,11.2,7.5,7,5,4,1,2026-04-17T02:23:18.684076+05:30
Tirupati,Andhra Pradesh,13.6288,79.4192,26.3,88,0.0,990.4,9.25,33.1,67,14.6,13.1,7,5,7,1,2026-04-17T02:23:18.684082+05:30
Warangal,Telangana,17.9689,79.5941,28.2,72,0.0,976.7,9.1,25.2,73,19.2,18.3,7,5,7,1,2026-04-17T02:23:18.684088+05:30
Nizamabad,Telangana,18.6725,78.0941,31.1,49,0.0,962.7,8.95,25.9,82,45.5,39.0,0,5,7,1,2026-04-17T02:23:18.684094+05:30
Mysore,Karnataka,12.2958,76.6396,24.0,87,0.0,927.7,9.3,38.9,81,34.5,30.9,3,5,7,1,2026-04-17T02:23:18.684099+05:30
Mangalore,Karnataka,12.9141,74.856,29.7,81,0.0,1005.7,8.95,26.6,86,50.8,22.1,7,5,4,1,2026-04-17T02:23:18.684105+05:30
Hubli-Dharwad,Karnataka,15.3647,75.124,23.9,90,0.0,939.8,9.2,37.1,61,22.4,13.6,3,5,7,1,2026-04-17T02:23:18.684111+05:30
Belgaum,Karnataka,15.8497,74.4977,21.1,98,0.0,924.2,8.75,35.6,61,25.0,18.8,3,5,7,1,2026-04-17T02:23:21.909416+05:30
Coimbatore,Tamil Nadu,11.0168,76.9558,25.5,85,0.0,960.7,9.05,38.9,97,55.5,49.8,7,5,7,1,2026-04-17T02:23:21.909447+05:30
Madurai,Tamil Nadu,9.9252,78.1198,27.0,87,0.0,991.9,8.8,29.2,65,29.5,27.1,7,5,7,1,2026-04-17T02:23:21.909458+05:30
Trichy,Tamil Nadu,10.7905,78.7047,27.0,88,0.0,998.5,8.45,18.7,53,20.5,18.7,7,5,7,1,2026-04-17T02:23:21.909466+05:30
Salem,Tamil Nadu,11.6643,78.146,26.2,84,0.0,976.2,8.35,20.9,63,24.9,22.7,7,5,7,1,2026-04-17T02:23:21.909474+05:30
Tirunelveli,Tamil Nadu,8.7139,77.7567,26.6,77,0.0,1001.7,8.85,45.0,73,33.3,28.0,7,5,4,1,2026-04-17T02:23:21.909482+05:30
Vellore,Tamil Nadu,12.9165,79.1325,25.8,94,0.0,983.5,9.4,31.7,82,31.1,29.9,7,5,7,1,2026-04-17T02:23:21.909490+05:30
Erode,Tamil Nadu,11.341,77.7172,28.5,73,0.0,987.7,8.7,27.4,68,16.0,14.8,7,5,7,1,2026-04-17T02:23:21.909497+05:30
Kochi,Kerala,9.9312,76.2673,28.8,82,0.0,1007.3,8.35,32.4,101,41.3,37.3,7,5,4,1,2026-04-17T02:23:21.909548+05:30
Thiruvananthapuram,Kerala,8.5241,76.9366,28.5,82,0.0,1006.5,8.75,35.6,81,39.8,28.7,7,5,4,1,2026-04-17T02:23:21.909558+05:30
Kozhikode,Kerala,11.2588,75.7804,29.7,82,0.0,1006.7,9.05,29.2,90,54.6,32.0,7,5,4,1,2026-04-17T02:23:21.909566+05:30
Thrissur,Kerala,10.5276,76.2144,28.0,87,0.0,1005.7,8.6,38.2,105,52.3,40.6,7,5,4,1,2026-04-17T02:23:21.909575+05:30
Kannur,Kerala,11.8745,75.3704,29.2,80,0.0,1006.1,8.85,31.7,95,61.7,39.6,7,5,4,1,2026-04-17T02:23:21.909583+05:30
Patna,Bihar,25.5941,85.1376,26.2,84,0.0,1000.8,8.55,29.5,151,49.5,46.9,7,5,4,1,2026-04-17T02:23:21.909590+05:30
Gaya,Bihar,24.7914,85.0002,25.8,88,0.0,993.6,8.65,22.3,113,58.4,56.0,7,5,7,1,2026-04-17T02:23:21.909598+05:30
Muzaffarpur,Bihar,26.1209,85.3647,24.5,90,0.0,1001.4,8.3,27.4,152,50.2,47.4,3,5,4,1,2026-04-17T02:23:21.909605+05:30
Bhagalpur,Bihar,25.2425,87.0117,25.1,91,0.0,1002.0,8.6,23.8,145,42.6,38.1,7,5,4,1,2026-04-17T02:23:21.909613+05:30
Ranchi,Jharkhand,23.3441,85.3096,23.1,98,0.0,937.8,9.15,30.6,115,49.1,47.5,3,5,7,1,2026-04-17T02:23:21.909620+05:30
Jamshedpur,Jharkhand,22.8046,86.2029,26.9,93,0.0,990.6,8.95,27.0,130,22.1,20.5,7,5,7,1,2026-04-17T02:23:21.909627+05:30
Dhanbad,Jharkhand,23.7957,86.4304,25.9,85,0.0,980.4,8.9,23.0,160,85.0,81.7,7,5,7,1,2026-04-17T02:23:21.909634+05:30
Bokaro,Jharkhand,23.6693,86.1511,25.2,94,0.0,984.5,8.95,24.1,161,98.0,95.5,7,5,7,1,2026-04-17T02:23:21.909642+05:30
Bhubaneswar,Odisha,20.2961,85.8245,26.7,88,0.0,1001.0,9.1,30.6,48,10.7,7.9,7,5,4,1,2026-04-17T02:23:21.909649+05:30
Cuttack,Odisha,20.4625,85.8828,27.0,87,0.0,1003.1,9.15,30.2,48,10.7,7.9,7,5,4,1,2026-04-17T02:23:21.909655+05:30
Rourkela,Odisha,22.2604,84.8536,27.4,85,0.0,984.4,8.9,39.2,115,40.7,39.7,7,5,7,1,2026-04-17T02:23:21.909662+05:30
Raipur,Chhattisgarh,21.2514,81.6296,28.8,42,0.0,972.1,8.95,29.2,88,48.3,41.4,4,5,7,0,2026-04-17T02:23:21.909670+05:30
Bhilai,Chhattisgarh,21.1938,81.3509,28.5,46,0.0,972.5,8.95,28.8,72,38.1,30.3,4,5,7,0,2026-04-17T02:23:21.909677+05:30
Guwahati,Assam,26.1158,91.7086,25.9,79,0.0,1002.8,8.55,24.5,139,93.8,69.2,7,5,4,1,2026-04-17T02:23:21.909684+05:30
Agartala,Tripura,23.8315,91.2868,23.2,92,0.0,1007.2,8.75,19.4,148,72.4,60.5,3,5,4,1,2026-04-17T02:23:21.909691+05:30
Shillong,Meghalaya,25.5788,91.8933,13.6,93,0.0,856.3,6.65,25.6,114,48.9,35.9,3,10,7,0,2026-04-17T02:23:21.909699+05:30
Imphal,Manipur,24.817,93.9368,18.2,80,0.0,924.1,9.1,38.2,130,80.1,61.0,3,5,7,0,2026-04-17T02:23:21.909706+05:30
Aizawl,Mizoram,23.7271,92.7176,18.4,86,0.0,892.8,9.0,36.0,143,78.7,59.0,3,10,7,0,2026-04-17T02:23:21.909713+05:30
Kohima,Nagaland,25.6701,94.1077,15.7,79,0.0,855.7,8.25,49.7,114,69.4,48.8,3,5,7,0,2026-04-17T02:23:21.909720+05:30
Gangtok,Sikkim,27.3314,88.6138,15.3,94,0.0,838.5,8.85,20.9,99,48.5,36.3,3,10,7,0,2026-04-17T02:23:21.909727+05:30
Siliguri,West Bengal,26.7271,88.3953,21.4,74,0.0,995.9,8.5,20.9,158,94.5,65.9,3,5,7,1,2026-04-17T02:23:25.136944+05:30
Durgapur,West Bengal,23.5204,87.3119,25.7,92,0.0,995.5,8.85,20.9,136,55.6,52.0,7,5,7,1,2026-04-17T02:23:25.136972+05:30
Asansol,West Bengal,23.6739,86.9524,26.2,89,0.0,994.1,8.85,21.2,151,55.8,52.7,7,5,7,1,2026-04-17T02:23:25.136981+05:30
Pondicherry,Puducherry,11.9139,79.8145,27.1,95,0.0,1007.1,8.85,29.5,29,9.5,6.2,7,5,4,1,2026-04-17T02:23:25.136988+05:30
Port Blair,Andaman and Nicobar Islands,11.6234,92.7265,29.4,70,0.0,1005.7,9.2,24.8,63,23.7,16.2,7,5,4,1,2026-04-17T02:23:25.136996+05:30
Haridwar,Uttarakhand,29.9457,78.1642,21.0,67,0.0,973.2,6.1,22.3,57,27.4,22.7,3,5,7,0,2026-04-17T02:23:25.137003+05:30
Rishikesh,Uttarakhand,30.0869,78.2676,21.2,65,0.0,966.4,6.3,22.7,59,25.0,16.0,3,5,7,0,2026-04-17T02:23:25.137009+05:30
Nainital,Uttarakhand,29.3919,79.4542,21.6,20,0.0,807.4,7.4,47.5,65,16.8,12.1,0,5,7,1,2026-04-17T02:23:25.137016+05:30
Mussoorie,Uttarakhand,30.4599,78.0664,18.6,51,0.0,803.8,6.7,44.6,52,24.4,20.8,0,5,7,0,2026-04-17T02:23:25.137023+05:30
Dharamshala,Himachal Pradesh,32.219,76.3234,23.2,26,0.0,870.0,7.35,29.2,67,12.4,8.2,0,5,7,0,2026-04-17T02:23:25.137029+05:30
Dalhousie,Himachal Pradesh,32.5387,75.971,19.6,28,0.0,804.9,6.85,34.2,45,18.7,16.5,0,5,7,0,2026-04-17T02:23:25.137036+05:30
Patiala,Punjab,30.3398,76.3869,21.8,54,0.0,976.3,7.1,47.2,107,241.2,42.6,0,5,7,0,2026-04-17T02:23:25.137043+05:30
Bhatinda,Punjab,30.211,74.9455,25.7,44,0.0,981.5,7.75,53.3,70,106.2,25.8,4,5,7,0,2026-04-17T02:23:25.137049+05:30
Rohtak,Haryana,28.8955,76.6066,21.0,60,0.0,979.6,6.4,34.2,246,355.8,73.6,0,5,7,0,2026-04-17T02:23:25.137055+05:30
Panipat,Haryana,29.3909,76.9635,23.1,50,0.0,978.5,6.45,26.6,280,359.5,64.0,0,5,7,0,2026-04-17T02:23:25.137060+05:30
Mathura,Uttar Pradesh,27.4924,77.6737,24.8,47,0.0,984.8,7.1,25.2,283,252.4,79.2,0,5,7,0,2026-04-17T02:23:25.137066+05:30
Vrindavan,Uttar Pradesh,27.5823,77.7027,24.7,46,0.0,985.3,7.05,24.1,283,252.4,79.2,0,5,7,0,2026-04-17T02:23:25.137072+05:30
Ayodhya,Uttar Pradesh,26.7922,82.1998,24.2,72,0.0,994.6,7.25,31.0,94,74.5,41.0,3,5,7,1,2026-04-17T02:23:25.137077+05:30
Ratlam,Madhya Pradesh,23.3315,75.0367,26.4,60,0.0,953.0,7.9,29.2,72,36.3,23.9,4,5,7,1,2026-04-17T02:23:25.137083+05:30
Sagar,Madhya Pradesh,23.8388,78.7378,28.8,41,0.0,948.8,7.8,23.4,91,62.6,18.0,4,5,7,0,2026-04-17T02:23:25.137089+05:30
Satna,Madhya Pradesh,24.6005,80.8322,27.6,39,0.0,969.8,8.6,23.4,79,156.0,26.5,4,5,7,0,2026-04-17T02:23:25.137094+05:30
Akola,Maharashtra,20.7002,77.0082,27.7,51,0.0,972.8,7.9,19.4,60,27.1,19.2,4,5,7,1,2026-04-17T02:23:25.137101+05:30
Amravati,Maharashtra,20.9374,77.7796,26.9,57,0.0,964.8,8.1,17.6,59,26.1,19.4,4,5,7,1,2026-04-17T02:23:25.137107+05:30
Latur,Maharashtra,18.4088,76.5604,25.8,47,0.0,938.3,8.7,29.5,54,26.6,20.9,4,5,7,0,2026-04-17T02:23:25.137113+05:30
Nanded,Maharashtra,19.1383,77.3091,26.3,45,0.0,966.4,8.9,17.3,64,38.4,29.2,4,5,7,0,2026-04-17T02:23:25.137119+05:30
Gulbarga,Karnataka,17.3297,76.8343,30.5,47,0.0,957.1,8.55,28.1,131,33.8,30.4,0,5,7,1,2026-04-17T02:23:25.137125+05:30
Bidar,Karnataka,17.9104,77.5199,29.1,50,0.0,934.0,9.05,21.2,96,43.2,39.8,4,5,7,1,2026-04-17T02:23:25.137130+05:30
Hospet,Karnataka,15.2689,76.3909,27.6,77,0.0,955.2,9.25,26.6,83,34.2,29.5,7,5,7,1,2026-04-17T02:23:25.137136+05:30
Tirupur,Tamil Nadu,11.1085,77.3411,27.0,82,0.0,974.0,8.95,29.9,77,31.2,27.2,7,5,7,1,2026-04-17T02:23:25.137141+05:30
Alappuzha,Kerala,9.4981,76.3388,29.0,81,0.0,1007.3,8.15,33.5,95,47.4,37.1,7,5,4,1,2026-04-17T02:23:25.137147+05:30
Munnar,Kerala,10.0889,77.0595,21.5,89,0.0,855.8,9.3,23.8,74,39.3,35.4,3,5,7,1,2026-04-17T02:23:25.137153+05:30
Silchar,Assam,24.8333,92.7789,23.4,93,0.0,1006.1,8.75,19.4,150,70.5,52.9,3,5,4,1,2026-04-17T02:23:25.137160+05:30
Dibrugarh,Assam,27.4728,94.912,23.0,84,0.0,997.4,8.65,10.8,135,71.5,50.3,3,5,7,1,2026-04-17T02:23:25.137165+05:30
