city,state,latitude,longitude,temp,humidity,rain,pressure,uv_index,wind_gusts,aqi,pm10,pm2_5,mosquito_risk,arthritis_risk,migraine_risk,frizz_risk,updated_at
Delhi,Delhi,28.6139,77.209,22.7,66,0.0,984.1,6.15,38.2,158,413.5,65.0,3,5,7,0,2026-03-15T20:04:12.751578+05:30
Mumbai,Maharashtra,19.076,72.8777,27.7,76,0.0,1010.7,7.7,19.8,140,67.8,30.3,7,0,4,1,2026-03-15T20:04:12.751615+05:30
Bangalore,Karnataka,12.9716,77.5946,26.8,43,0.0,912.7,9.3,19.1,155,32.6,30.4,4,5,7,0,2026-03-15T20:04:12.751631+05:30
Hyderabad,Telangana,17.385,78.4867,25.7,65,0.0,955.7,8.7,29.2,133,57.2,46.3,7,5,7,1,2026-03-15T20:04:12.751641+05:30
Chennai,Tamil Nadu,13.0827,80.2707,27.1,74,0.0,1010.0,9.05,32.0,46,9.4,6.9,7,0,4,1,2026-03-15T20:04:12.751650+05:30
Kolkata,West Bengal,22.5726,88.3639,25.7,82,0.0,1009.3,7.9,36.4,58,21.4,16.8,7,0,4,1,2026-03-15T20:04:12.751658+05:30
Pune,Maharashtra,18.5204,73.8567,26.4,36,0.0,950.2,8.25,41.8,147,34.6,28.7,4,5,7,0,2026-03-15T20:04:12.751670+05:30
Ahmedabad,Gujarat,23.0225,72.5714,30.4,21,0.0,1002.6,7.5,27.7,68,54.7,23.3,0,5,4,0,2026-03-15T20:04:12.751678+05:30
Jaipur,Rajasthan,26.9124,75.7873,27.8,23,0.0,959.2,6.95,46.4,126,161.1,34.6,4,5,7,0,2026-03-15T20:04:12.751687+05:30
Lucknow,Uttar Pradesh,26.8467,80.9462,21.6,69,0.0,996.2,6.5,49.0,132,30.2,22.2,3,5,7,0,2026-03-15T20:04:12.751694+05:30
Kanpur,Uttar Pradesh,26.4499,80.3319,21.8,67,0.0,994.0,6.6,41.8,148,519.7,68.9,3,5,7,0,2026-03-15T20:04:12.751700+05:30
Chandigarh,Chandigarh,30.7333,76.7794,17.8,90,0.0,970.3,6.0,38.2,82,46.9,23.9,3,10,3,1,2026-03-15T20:04:12.751707+05:30
Srinagar,Jammu and Kashmir,34.0837,74.7973,6.8,90,0.2,836.9,4.95,27.7,97,15.8,15.5,6,10,3,0,2026-03-15T20:04:12.751715+05:30
Jammu,Jammu and Kashmir,32.7266,74.857,16.8,91,0.0,974.2,2.9,49.0,93,38.1,26.5,3,10,3,0,2026-03-15T20:04:12.751722+05:30
Amritsar,Punjab,31.634,74.8723,15.6,95,0.0,982.3,3.5,34.2,119,45.4,30.0,3,10,3,0,2026-03-15T20:04:12.751728+05:30
Ludhiana,Punjab,30.901,75.8573,16.6,92,0.0,980.1,5.15,33.1,125,92.2,36.7,3,10,3,0,2026-03-15T20:04:12.751734+05:30
Jalandhar,Punjab,31.326,75.5762,16.2,93,0.0,981.3,5.05,31.0,118,48.8,30.2,3,10,3,0,2026-03-15T20:04:12.751761+05:30
Dehradun,Uttarakhand,30.6284,78.0322,10.4,81,0.0,829.0,5.25,34.2,66,20.7,9.6,3,10,3,0,2026-03-15T20:04:12.751768+05:30
Shimla,Himachal Pradesh,31.1048,77.1734,7.9,80,0.0,781.7,5.95,56.2,64,20.1,11.0,3,5,3,0,2026-03-15T20:04:12.751775+05:30
Manali,Himachal Pradesh,32.2396,77.1887,10.0,95,0.1,814.9,6.9,37.8,50,1.0,0.9,6,10,7,0,2026-03-15T20:04:12.751781+05:30
Gurgaon,Haryana,28.4595,77.0266,21.5,70,0.0,982.2,6.25,45.4,795,3002.6,316.6,3,5,7,0,2026-03-15T20:04:12.751788+05:30
Noida,Uttar Pradesh,28.5355,77.391,22.5,68,0.0,985.7,6.15,36.7,795,3002.6,316.6,3,5,7,1,2026-03-15T20:04:12.751794+05:30
Ghaziabad,Uttar Pradesh,28.6692,77.4538,21.1,74,0.0,984.1,6.15,34.9,155,316.6,51.7,3,5,7,1,2026-03-15T20:04:12.751800+05:30
Faridabad,Haryana,28.4089,77.3178,21.8,68,0.0,984.9,6.2,39.6,795,3002.6,316.6,3,5,7,0,2026-03-15T20:04:12.751807+05:30
Meerut,Uttar Pradesh,28.9845,77.7064,19.1,83,0.0,983.0,6.0,27.7,155,316.6,51.7,3,10,3,1,2026-03-15T20:04:12.751812+05:30
Agra,Uttar Pradesh,27.1767,78.0081,22.9,68,0.0,988.7,6.6,36.7,614,2078.7,215.1,3,5,7,1,2026-03-15T20:04:12.751819+05:30
Varanasi,Uttar Pradesh,25.3176,82.9739,26.1,49,0.0,998.9,7.35,32.4,149,65.2,48.8,4,5,7,0,2026-03-15T20:04:12.751828+05:30
Prayagraj,Uttar Pradesh,25.4358,81.8463,25.3,49,0.0,997.5,7.25,42.8,129,46.9,35.6,4,5,7,0,2026-03-15T20:04:12.751835+05:30
Gorakhpur,Uttar Pradesh,26.7606,83.3732,21.2,70,0.0,1000.2,7.1,40.3,153,67.8,52.6,3,5,4,0,2026-03-15T20:04:12.751844+05:30
Bareilly,Uttar Pradesh,28.367,79.4304,20.2,85,0.0,989.7,6.35,34.6,149,57.9,40.0,3,5,7,1,2026-03-15T20:04:12.751850+05:30
Aligarh,Uttar Pradesh,27.8974,78.088,21.5,74,0.0,987.1,6.3,40.7,164,117.8,43.9,3,5,7,1,2026-03-15T20:04:12.751856+05:30
Moradabad,Uttar Pradesh,28.8386,78.7733,20.8,71,0.0,986.2,6.2,29.5,154,56.9,34.2,3,5,7,0,2026-03-15T20:04:12.751862+05:30
Saharanpur,Uttar Pradesh,29.9637,77.546,18.1,87,0.0,977.8,5.8,33.5,151,49.9,27.9,3,10,3,0,2026-03-15T20:04:12.751868+05:30
Jhansi,Uttar Pradesh,25.4484,78.5685,25.3,51,0.0,978.5,7.2,31.7,84,60.3,23.3,4,5,7,0,2026-03-15T20:04:16.034876+05:30
Surat,Gujarat,21.1702,72.8311,26.4,82,0.0,1008.2,7.4,25.2,133,63.1,41.4,7,0,4,1,2026-03-15T20:04:16.034906+05:30
Vadodara,Gujarat,22.3072,73.1812,30.5,38,0.0,1004.8,7.5,25.9,89,68.9,37.6,0,5,4,0,2026-03-15T20:04:16.034917+05:30
Rajkot,Gujarat,22.3039,70.8022,29.6,39,0.0,995.2,7.35,31.0,68,54.0,21.2,4,5,7,0,2026-03-15T20:04:16.034926+05:30
Thane,Maharashtra,19.2183,72.9781,26.8,77,0.0,1010.1,7.7,33.8,140,67.8,30.3,7,0,4,1,2026-03-15T20:04:16.034934+05:30
Nagpur,Maharashtra,21.1458,79.0882,29.6,40,0.0,973.8,8.15,22.3,161,34.3,31.4,4,5,7,0,2026-03-15T20:04:16.034941+05:30
Nashik,Maharashtra,19.9975,73.7898,24.2,44,0.0,947.2,7.9,40.7,80,36.3,17.9,0,5,7,0,2026-03-15T20:04:16.034948+05:30
Aurangabad,Maharashtra,19.8762,75.3433,28.8,30,0.0,945.2,8.4,31.0,120,31.1,25.2,4,5,7,0,2026-03-15T20:04:16.034956+05:30
Solapur,Maharashtra,17.6599,75.9064,28.0,44,0.0,957.7,8.65,24.1,158,50.2,43.7,4,5,7,0,2026-03-15T20:04:16.034963+05:30
Kolhapur,Maharashtra,16.705,74.2433,25.3,59,0.0,949.5,8.7,38.9,136,39.2,33.1,4,5,7,1,2026-03-15T20:04:16.034970+05:30
Goa,Goa,15.2993,74.124,28.3,73,0.0,1000.0,8.75,32.0,121,40.9,31.8,7,5,4,1,2026-03-15T20:04:16.034978+05:30
Jodhpur,Rajasthan,26.2389,73.0243,30.4,16,0.0,982.3,7.25,27.4,113,116.2,23.8,0,5,7,0,2026-03-15T20:04:16.034986+05:30
Udaipur,Rajasthan,24.5854,73.7125,26.9,18,0.0,947.1,7.85,38.2,64,35.7,13.7,4,5,7,0,2026-03-15T20:04:16.034994+05:30
Kota,Rajasthan,25.2138,75.8648,29.0,32,0.0,977.9,7.3,35.3,64,45.6,24.6,4,5,7,0,2026-03-15T20:04:16.035001+05:30
Bikaner,Rajasthan,28.0229,73.3119,29.3,16,0.0,981.6,6.9,41.4,64,16.6,7.4,4,5,7,0,2026-03-15T20:04:16.035008+05:30
Ajmer,Rajasthan,26.4499,74.6399,26.9,26,0.0,953.9,7.25,37.4,75,49.5,20.3,4,5,7,0,2026-03-15T20:04:16.035015+05:30
Gwalior,Madhya Pradesh,26.2183,78.1828,23.8,69,0.0,983.8,6.9,45.4,104,66.1,30.5,3,5,7,1,2026-03-15T20:04:16.035022+05:30
Indore,Madhya Pradesh,22.7196,75.8577,26.3,35,0.0,948.7,7.8,35.6,74,40.7,23.2,4,5,7,0,2026-03-15T20:04:16.035029+05:30
Bhopal,Madhya Pradesh,23.2599,77.4126,26.8,36,0.0,954.1,7.7,42.8,74,28.3,17.4,4,5,7,0,2026-03-15T20:04:16.035036+05:30
Jabalpur,Madhya Pradesh,23.1815,79.9864,26.5,45,0.0,961.6,7.8,38.2,107,26.7,20.6,4,5,7,0,2026-03-15T20:04:16.035043+05:30
Ujjain,Madhya Pradesh,23.1765,75.7885,25.8,39,0.0,954.5,7.7,34.6,66,44.8,25.1,4,5,7,0,2026-03-15T20:04:16.035051+05:30
Visakhapatnam,Andhra Pradesh,17.6868,83.2185,25.9,81,0.0,1007.2,8.65,40.0,64,21.4,16.8,7,5,4,1,2026-03-15T20:04:16.035058+05:30
Vijayawada,Andhra Pradesh,16.5062,80.648,26.5,73,0.0,1005.2,8.75,29.2,58,15.1,12.8,7,5,4,1,2026-03-15T20:04:16.035065+05:30
Guntur,Andhra Pradesh,16.3067,80.4365,25.9,78,0.0,1006.5,8.75,30.2,55,14.7,12.4,7,5,4,1,2026-03-15T20:04:16.035072+05:30
Nellore,Andhra Pradesh,14.4426,79.9865,26.3,79,0.0,1008.3,8.95,29.9,59,10.7,8.4,7,0,4,1,2026-03-15T20:04:16.035080+05:30
Kurnool,Andhra Pradesh,15.8281,78.0373,31.9,41,0.0,977.9,8.75,20.2,143,46.8,38.0,0,5,7,1,2026-03-15T20:04:16.035088+05:30
Kakinada,Andhra Pradesh,16.9891,82.2475,25.3,81,0.0,1010.8,8.7,31.7,58,16.4,11.3,7,0,4,1,2026-03-15T20:04:16.035096+05:30
Tirupati,Andhra Pradesh,13.6288,79.4192,27.8,57,0.0,993.7,9.05,29.5,78,15.5,14.6,4,5,7,1,2026-03-15T20:04:16.035103+05:30
Warangal,Telangana,17.9689,79.5941,28.8,54,0.0,980.6,8.55,31.7,86,39.3,33.5,4,5,7,1,2026-03-15T20:04:16.035110+05:30
Nizamabad,Telangana,18.6725,78.0941,27.9,51,0.0,965.9,8.4,33.1,140,74.7,64.3,4,5,7,1,2026-03-15T20:04:16.035117+05:30
Mysore,Karnataka,12.2958,76.6396,27.0,45,0.0,929.6,9.3,33.5,161,41.9,37.0,4,5,7,0,2026-03-15T20:04:16.035124+05:30
Mangalore,Karnataka,12.9141,74.856,29.1,79,0.0,1008.7,8.95,27.7,88,23.9,19.5,7,0,4,1,2026-03-15T20:04:16.035131+05:30
Hubli-Dharwad,Karnataka,15.3647,75.124,24.7,80,0.0,942.4,8.95,43.2,153,41.0,38.8,3,5,7,1,2026-03-15T20:04:16.035138+05:30
Belgaum,Karnataka,15.8497,74.4977,23.8,80,0.0,927.4,9.0,40.0,140,38.8,34.6,3,5,7,1,2026-03-15T20:04:19.321204+05:30
Coimbatore,Tamil Nadu,11.0168,76.9558,26.3,73,0.0,963.4,9.3,32.8,112,22.8,19.6,7,5,7,1,2026-03-15T20:04:19.321236+05:30
Madurai,Tamil Nadu,9.9252,78.1198,29.9,50,0.0,994.5,9.25,23.4,76,12.9,12.1,4,5,7,1,2026-03-15T20:04:19.321248+05:30
Trichy,Tamil Nadu,10.7905,78.7047,28.7,59,0.0,1001.5,9.15,20.2,56,12.8,12.2,4,5,4,1,2026-03-15T20:04:19.321258+05:30
Salem,Tamil Nadu,11.6643,78.146,29.1,49,0.0,978.8,9.2,14.8,106,19.2,17.8,4,5,7,1,2026-03-15T20:04:19.321267+05:30
Tirunelveli,Tamil Nadu,8.7139,77.7567,28.4,70,0.0,1005.1,9.25,40.0,70,8.4,7.8,7,5,4,1,2026-03-15T20:04:19.321275+05:30
Vellore,Tamil Nadu,12.9165,79.1325,27.1,57,0.0,986.8,9.1,31.0,92,18.5,17.6,4,5,7,1,2026-03-15T20:04:19.321284+05:30
Erode,Tamil Nadu,11.341,77.7172,30.9,45,0.0,990.0,9.2,20.5,80,16.9,15.5,0,5,7,1,2026-03-15T20:04:19.321292+05:30
Kochi,Kerala,9.9312,76.2673,28.8,76,0.0,1010.5,9.1,34.2,105,22.8,21.2,7,0,4,1,2026-03-15T20:04:19.321300+05:30
Thiruvananthapuram,Kerala,8.5241,76.9366,28.7,74,0.0,1010.0,9.1,27.0,89,11.4,8.1,7,0,4,1,2026-03-15T20:04:19.321309+05:30
Kozhikode,Kerala,11.2588,75.7804,29.1,76,0.0,1009.5,9.0,32.8,71,21.7,18.0,7,0,4,1,2026-03-15T20:04:19.321317+05:30
Thrissur,Kerala,10.5276,76.2144,28.1,79,0.0,1008.9,9.05,40.0,96,20.4,19.0,7,0,4,1,2026-03-15T20:04:19.321326+05:30
Kannur,Kerala,11.8745,75.3704,28.5,78,0.0,1009.1,8.95,33.5,85,28.0,23.9,7,0,4,1,2026-03-15T20:04:19.321334+05:30
Patna,Bihar,25.5941,85.1376,26.8,60,0.0,1002.1,7.55,27.4,163,68.9,54.1,4,5,4,1,2026-03-15T20:04:19.321342+05:30
Gaya,Bihar,24.7914,85.0002,25.1,67,0.0,995.0,7.65,28.8,143,85.0,56.0,7,5,7,1,2026-03-15T20:04:19.321350+05:30
Muzaffarpur,Bihar,26.1209,85.3647,23.9,72,0.0,1002.4,7.5,38.5,161,75.7,61.0,3,5,4,1,2026-03-15T20:04:19.321358+05:30
Bhagalpur,Bihar,25.2425,87.0117,26.6,74,0.0,1002.9,7.55,32.4,174,77.8,57.9,7,5,4,1,2026-03-15T20:04:19.321366+05:30
Ranchi,Jharkhand,23.3441,85.3096,22.4,74,0.0,939.4,8.3,45.7,180,46.7,43.8,3,5,7,1,2026-03-15T20:04:19.321374+05:30
Jamshedpur,Jharkhand,22.8046,86.2029,25.3,76,0.0,993.5,8.15,37.4,185,52.5,47.8,7,5,7,1,2026-03-15T20:04:19.321382+05:30
Dhanbad,Jharkhand,23.7957,86.4304,25.3,74,0.0,982.0,8.0,31.7,190,71.9,68.5,7,5,7,1,2026-03-15T20:04:19.321390+05:30
Bokaro,Jharkhand,23.6693,86.1511,25.6,70,0.0,985.8,8.0,25.9,171,65.7,61.2,7,5,7,1,2026-03-15T20:04:19.321399+05:30
Bhubaneswar,Odisha,20.2961,85.8245,25.7,83,0.0,1006.4,8.5,42.5,56,19.4,15.9,7,5,4,1,2026-03-15T20:04:19.321407+05:30
Cuttack,Odisha,20.4625,85.8828,26.3,78,0.0,1008.4,8.5,37.4,56,19.4,15.9,7,0,4,1,2026-03-15T20:04:19.321415+05:30
Rourkela,Odisha,22.2604,84.8536,26.0,71,0.0,987.3,8.1,55.4,204,51.9,47.6,7,5,7,1,2026-03-15T20:04:19.321423+05:30
Raipur,Chhattisgarh,21.2514,81.6296,28.3,43,0.0,975.4,8.2,35.6,151,57.5,51.9,4,5,7,0,2026-03-15T20:04:19.321431+05:30
Bhilai,Chhattisgarh,21.1938,81.3509,27.8,44,0.0,975.6,8.2,36.7,141,57.6,52.2,4,5,7,0,2026-03-15T20:04:19.321439+05:30
Guwahati,Assam,26.1158,91.7086,22.4,88,0.0,1004.8,7.4,39.6,76,27.5,22.6,3,5,4,1,2026-03-15T20:04:19.321448+05:30
Agartala,Tripura,23.8315,91.2868,22.7,93,0.0,1011.8,7.75,35.3,54,26.5,24.0,3,0,4,1,2026-03-15T20:04:19.321456+05:30
Shillong,Meghalaya,25.5788,91.8933,12.8,94,0.0,857.3,7.85,79.9,58,14.3,11.6,3,10,7,0,2026-03-15T20:04:19.321465+05:30
Imphal,Manipur,24.817,93.9368,16.2,82,0.0,926.1,8.15,70.2,84,42.0,35.5,3,10,7,0,2026-03-15T20:04:19.321473+05:30
Aizawl,Mizoram,23.7271,92.7176,16.1,87,0.0,895.2,8.1,55.8,84,31.2,26.0,3,10,7,0,2026-03-15T20:04:19.321480+05:30
Kohima,Nagaland,25.6701,94.1077,14.6,71,0.0,856.3,7.8,111.2,67,33.3,26.3,3,5,7,0,2026-03-15T20:04:19.321486+05:30
Gangtok,Sikkim,27.3314,88.6138,13.1,83,0.0,836.4,7.05,20.9,93,54.2,36.8,3,10,7,0,2026-03-15T20:04:19.321492+05:30
Siliguri,West Bengal,26.7271,88.3953,19.4,87,0.0,996.1,7.45,32.0,124,61.2,45.4,3,10,7,1,2026-03-15T20:04:22.606838+05:30
Durgapur,West Bengal,23.5204,87.3119,24.2,82,0.0,997.9,8.05,36.4,169,63.3,58.8,3,5,7,1,2026-03-15T20:04:22.606864+05:30
Asansol,West Bengal,23.6739,86.9524,25.0,79,0.0,996.1,8.05,33.5,194,60.5,56.9,7,5,7,1,2026-03-15T20:04:22.606874+05:30
Pondicherry,Puducherry,11.9139,79.8145,25.3,85,0.0,1011.1,9.0,28.1,37,6.8,4.8,7,0,4,1,2026-03-15T20:04:22.606881+05:30
Port Blair,Andaman and Nicobar Islands,11.6234,92.7265,27.6,80,0.0,1010.0,8.95,21.6,70,14.3,11.6,7,0,4,1,2026-03-15T20:04:22.606886+05:30
Haridwar,Uttarakhand,29.9457,78.1642,18.9,84,0.0,976.8,5.85,33.1,90,40.0,22.5,3,10,3,1,2026-03-15T20:04:22.606892+05:30
Rishikesh,Uttarakhand,30.0869,78.2676,18.3,78,0.0,969.5,5.65,36.7,68,34.7,17.6,3,5,3,0,2026-03-15T20:04:22.606898+05:30
Nainital,Uttarakhand,29.3919,79.4542,13.5,80,0.0,806.0,5.35,58.7,80,34.8,18.2,3,5,3,0,2026-03-15T20:04:22.606905+05:30
Mussoorie,Uttarakhand,30.4599,78.0664,10.9,75,0.0,801.1,5.35,46.8,78,33.2,18.8,3,5,3,0,2026-03-15T20:04:22.606911+05:30
Dharamshala,Himachal Pradesh,32.219,76.3234,13.0,79,0.0,867.3,4.15,40.7,48,7.2,5.2,3,5,3,0,2026-03-15T20:04:22.606917+05:30
Dalhousie,Himachal Pradesh,32.5387,75.971,9.4,87,0.0,800.0,3.65,32.8,75,38.1,25.4,3,10,3,0,2026-03-15T20:04:22.606924+05:30
Patiala,Punjab,30.3398,76.3869,18.1,92,0.0,979.9,5.9,33.1,124,49.9,26.8,3,10,3,1,2026-03-15T20:04:22.606930+05:30
Bhatinda,Punjab,30.211,74.9455,17.6,88,0.0,984.8,6.4,46.8,99,123.9,35.7,3,10,7,0,2026-03-15T20:04:22.606937+05:30
Rohtak,Haryana,28.8955,76.6066,20.3,81,0.0,982.4,6.15,39.2,193,868.0,103.6,3,5,7,1,2026-03-15T20:04:22.606943+05:30
Panipat,Haryana,29.3909,76.9635,19.5,84,0.0,981.7,5.95,27.4,176,467.5,61.5,3,10,3,1,2026-03-15T20:04:22.606949+05:30
Mathura,Uttar Pradesh,27.4924,77.6737,23.5,58,0.0,987.8,6.5,37.1,335,100.1,34.3,0,5,7,0,2026-03-15T20:04:22.606955+05:30
Vrindavan,Uttar Pradesh,27.5823,77.7027,22.6,68,0.0,988.4,6.45,38.2,335,100.1,34.3,3,5,7,1,2026-03-15T20:04:22.606960+05:30
Ayodhya,Uttar Pradesh,26.7922,82.1998,21.4,66,0.0,998.5,6.9,47.2,122,55.9,40.6,3,5,7,0,2026-03-15T20:04:22.606966+05:30
Ratlam,Madhya Pradesh,23.3315,75.0367,27.5,31,0.0,955.4,7.65,38.5,66,35.3,18.0,4,5,7,0,2026-03-15T20:04:22.606972+05:30
Sagar,Madhya Pradesh,23.8388,78.7378,26.1,41,0.0,950.6,7.65,36.7,73,25.0,14.6,4,5,7,0,2026-03-15T20:04:22.606978+05:30
Satna,Madhya Pradesh,24.6005,80.8322,26.6,54,0.0,972.1,7.6,51.1,109,28.2,17.0,4,5,7,1,2026-03-15T20:04:22.606983+05:30
Akola,Maharashtra,20.7002,77.0082,30.3,29,0.0,975.4,8.15,29.2,128,33.8,29.0,0,5,7,0,2026-03-15T20:04:22.606990+05:30
Amravati,Maharashtra,20.9374,77.7796,28.8,38,0.0,967.6,8.1,27.7,132,34.7,30.2,4,5,7,0,2026-03-15T20:04:22.606996+05:30
Latur,Maharashtra,18.4088,76.5604,26.7,39,0.0,940.6,8.55,25.6,154,38.6,34.7,4,5,7,0,2026-03-15T20:04:22.607002+05:30
Nanded,Maharashtra,19.1383,77.3091,30.2,36,0.0,969.2,8.35,19.1,160,50.2,43.5,0,5,7,0,2026-03-15T20:04:22.607007+05:30
Gulbarga,Karnataka,17.3297,76.8343,28.8,48,0.0,959.3,8.6,31.0,168,47.3,40.5,4,5,7,1,2026-03-15T20:04:22.607013+05:30
Bidar,Karnataka,17.9104,77.5199,25.5,59,0.0,936.8,7.65,34.9,160,54.6,45.8,4,5,7,1,2026-03-15T20:04:22.607018+05:30
Hospet,Karnataka,15.2689,76.3909,28.7,53,0.0,957.0,8.9,31.3,164,54.0,46.4,4,5,7,1,2026-03-15T20:04:22.607024+05:30
Tirupur,Tamil Nadu,11.1085,77.3411,30.5,39,0.0,976.3,9.3,28.4,93,23.2,20.9,0,5,7,0,2026-03-15T20:04:22.607030+05:30
Alappuzha,Kerala,9.4981,76.3388,28.8,77,0.0,1010.7,9.05,30.2,110,21.0,18.0,7,0,4,1,2026-03-15T20:04:22.607035+05:30
Munnar,Kerala,10.0889,77.0595,20.8,87,0.0,858.2,9.55,34.9,76,22.2,20.3,3,5,7,1,2026-03-15T20:04:22.607041+05:30
Silchar,Assam,24.8333,92.7789,21.3,90,0.0,1010.6,7.8,42.5,102,33.5,31.1,3,0,4,1,2026-03-15T20:04:22.607047+05:30
Dibrugarh,Assam,27.4728,94.912,18.7,93,0.3,999.7,4.5,40.0,70,33.8,28.1,6,10,3,1,2026-03-15T20:04:22.607053+05:30
