city,state,latitude,longitude,temp,humidity,rain,pressure,uv_index,wind_gusts,aqi,pm10,pm2_5,mosquito_risk,arthritis_risk,migraine_risk,frizz_risk,updated_at
Delhi,Delhi,28.6139,77.209,23.3,55,0.0,984.9,5.75,29.2,361,821.4,122.5,0,5,3,0,2026-03-13T21:16:28.323643+05:30
Mumbai,Maharashtra,19.076,72.8777,29.5,65,0.0,1007.9,7.65,23.8,218,25.6,22.2,7,5,4,1,2026-03-13T21:16:28.323683+05:30
Bangalore,Karnataka,12.9716,77.5946,25.1,48,0.0,912.7,9.3,28.8,119,41.4,37.0,4,5,7,0,2026-03-13T21:16:28.323698+05:30
Hyderabad,Telangana,17.385,78.4867,27.7,37,0.0,953.7,8.65,19.1,166,39.6,31.5,4,5,7,0,2026-03-13T21:16:28.323708+05:30
Chennai,Tamil Nadu,13.0827,80.2707,27.0,83,0.0,1009.2,9.05,32.4,61,19.3,14.8,7,0,4,1,2026-03-13T21:16:28.323717+05:30
Kolkata,West Bengal,22.5726,88.3639,26.3,87,0.0,1007.0,8.0,29.2,121,29.8,26.1,7,5,4,1,2026-03-13T21:16:28.323726+05:30
Pune,Maharashtra,18.5204,73.8567,28.1,46,0.0,948.9,8.2,36.0,151,35.9,34.5,4,5,7,0,2026-03-13T21:16:28.323738+05:30
Ahmedabad,Gujarat,23.0225,72.5714,29.1,41,0.0,1002.1,7.45,22.3,109,56.1,39.6,4,5,4,0,2026-03-13T21:16:28.323745+05:30
Jaipur,Rajasthan,26.9124,75.7873,26.8,34,0.0,961.1,6.95,23.8,114,191.4,44.7,4,5,7,0,2026-03-13T21:16:28.323753+05:30
Lucknow,Uttar Pradesh,26.8467,80.9462,26.4,54,0.0,994.4,6.05,28.4,165,192.3,61.7,4,5,7,1,2026-03-13T21:16:28.323760+05:30
Kanpur,Uttar Pradesh,26.4499,80.3319,25.1,62,0.0,992.4,6.35,18.7,238,267.3,68.2,7,5,7,1,2026-03-13T21:16:28.323768+05:30
Chandigarh,Chandigarh,30.7333,76.7794,20.0,70,0.0,970.0,5.35,29.5,80,27.9,24.9,3,5,3,0,2026-03-13T21:16:28.323776+05:30
Srinagar,Jammu and Kashmir,34.0837,74.7973,9.0,73,0.0,840.2,6.75,15.1,88,63.8,48.5,3,5,7,0,2026-03-13T21:16:28.323783+05:30
Jammu,Jammu and Kashmir,32.7266,74.857,21.7,55,0.0,974.1,6.45,24.8,72,39.6,32.8,0,5,7,0,2026-03-13T21:16:28.323790+05:30
Amritsar,Punjab,31.634,74.8723,20.3,62,0.0,982.6,5.85,25.6,90,31.7,25.0,3,5,3,0,2026-03-13T21:16:28.323796+05:30
Ludhiana,Punjab,30.901,75.8573,21.6,66,0.0,980.6,5.7,27.7,101,40.6,27.6,3,5,3,0,2026-03-13T21:16:28.323802+05:30
Jalandhar,Punjab,31.326,75.5762,21.3,62,0.0,981.7,5.7,25.6,99,42.6,26.9,3,5,3,0,2026-03-13T21:16:28.323811+05:30
Dehradun,Uttarakhand,30.6284,78.0322,14.0,75,0.0,829.4,5.7,28.8,72,41.2,23.2,3,5,3,0,2026-03-13T21:16:28.323818+05:30
Shimla,Himachal Pradesh,31.1048,77.1734,11.1,70,0.0,783.1,5.15,39.2,68,28.6,19.7,3,5,3,0,2026-03-13T21:16:28.323825+05:30
Manali,Himachal Pradesh,32.2396,77.1887,12.8,31,0.0,819.7,8.05,38.5,84,26.4,11.1,0,5,7,1,2026-03-13T21:16:28.323831+05:30
Gurgaon,Haryana,28.4595,77.0266,20.9,63,0.0,983.2,6.15,28.1,1137,1952.1,231.4,3,5,7,0,2026-03-13T21:16:28.323838+05:30
Noida,Uttar Pradesh,28.5355,77.391,23.1,56,0.0,986.3,5.95,28.8,1137,1952.1,231.4,0,5,3,0,2026-03-13T21:16:28.323845+05:30
Ghaziabad,Uttar Pradesh,28.6692,77.4538,22.2,61,0.0,984.4,5.75,27.7,188,594.2,98.3,3,5,3,0,2026-03-13T21:16:28.323852+05:30
Faridabad,Haryana,28.4089,77.3178,21.7,56,0.0,985.5,6.2,27.7,1137,1952.1,231.4,0,5,7,0,2026-03-13T21:16:28.323858+05:30
Meerut,Uttar Pradesh,28.9845,77.7064,20.5,67,0.0,983.0,4.85,27.7,188,594.2,98.3,3,5,3,0,2026-03-13T21:16:28.323865+05:30
Agra,Uttar Pradesh,27.1767,78.0081,23.3,48,0.0,989.0,6.25,24.8,545,722.7,106.2,0,5,7,0,2026-03-13T21:16:28.323871+05:30
Varanasi,Uttar Pradesh,25.3176,82.9739,24.5,58,0.0,998.4,7.35,25.2,125,142.5,56.9,0,5,7,0,2026-03-13T21:16:28.323880+05:30
Prayagraj,Uttar Pradesh,25.4358,81.8463,26.1,55,0.0,996.6,7.1,21.6,150,116.4,48.8,4,5,7,1,2026-03-13T21:16:28.323888+05:30
Gorakhpur,Uttar Pradesh,26.7606,83.3732,24.1,64,0.0,997.4,7.05,28.4,182,69.8,46.2,3,5,7,1,2026-03-13T21:16:28.323895+05:30
Bareilly,Uttar Pradesh,28.367,79.4304,21.3,63,0.0,987.7,6.35,26.6,151,65.2,38.6,3,5,7,0,2026-03-13T21:16:28.323901+05:30
Aligarh,Uttar Pradesh,27.8974,78.088,20.5,57,0.0,987.1,5.9,28.8,594,994.7,146.7,0,5,3,0,2026-03-13T21:16:28.323908+05:30
Moradabad,Uttar Pradesh,28.8386,78.7733,21.5,64,0.0,984.7,5.75,27.4,144,103.6,42.4,3,5,3,0,2026-03-13T21:16:28.323914+05:30
Saharanpur,Uttar Pradesh,29.9637,77.546,20.5,67,0.0,976.6,4.95,27.4,134,172.8,51.2,3,5,3,0,2026-03-13T21:16:28.323924+05:30
Jhansi,Uttar Pradesh,25.4484,78.5685,25.8,56,0.0,978.8,6.75,20.9,81,83.8,36.0,4,5,7,1,2026-03-13T21:16:31.575396+05:30
Surat,Gujarat,21.1702,72.8311,27.1,63,0.0,1006.3,7.35,23.8,146,84.1,78.0,7,5,4,1,2026-03-13T21:16:31.575423+05:30
Vadodara,Gujarat,22.3072,73.1812,31.2,32,0.0,1003.8,7.5,23.8,153,62.6,52.5,0,5,4,0,2026-03-13T21:16:31.575432+05:30
Rajkot,Gujarat,22.3039,70.8022,28.4,30,0.0,995.1,7.3,29.5,98,40.9,21.0,4,5,7,0,2026-03-13T21:16:31.575439+05:30
Thane,Maharashtra,19.2183,72.9781,29.0,52,0.0,1007.3,7.65,38.2,218,25.6,22.2,4,5,4,1,2026-03-13T21:16:31.575446+05:30
Nagpur,Maharashtra,21.1458,79.0882,27.6,38,0.0,972.6,8.05,19.4,127,44.6,40.3,4,5,7,0,2026-03-13T21:16:31.575453+05:30
Nashik,Maharashtra,19.9975,73.7898,27.7,37,0.0,946.2,7.85,34.9,149,29.0,27.2,4,5,7,0,2026-03-13T21:16:31.575460+05:30
Aurangabad,Maharashtra,19.8762,75.3433,28.3,39,0.0,944.3,8.35,29.5,155,30.5,28.8,4,5,7,0,2026-03-13T21:16:31.575466+05:30
Solapur,Maharashtra,17.6599,75.9064,28.3,41,0.0,956.5,8.6,24.1,158,44.4,38.6,4,5,7,0,2026-03-13T21:16:31.575472+05:30
Kolhapur,Maharashtra,16.705,74.2433,25.2,79,0.0,948.4,8.7,47.9,151,57.4,55.2,7,5,7,1,2026-03-13T21:16:31.575478+05:30
Goa,Goa,15.2993,74.124,28.1,81,0.0,998.4,8.7,31.3,134,48.0,43.1,7,5,7,1,2026-03-13T21:16:31.575485+05:30
Jodhpur,Rajasthan,26.2389,73.0243,28.2,38,0.0,983.3,6.8,18.7,85,161.6,35.6,4,5,7,0,2026-03-13T21:16:31.575490+05:30
Udaipur,Rajasthan,24.5854,73.7125,25.7,27,0.0,947.5,7.8,30.2,95,26.0,16.1,4,5,7,0,2026-03-13T21:16:31.575496+05:30
Kota,Rajasthan,25.2138,75.8648,27.5,39,0.0,978.7,7.1,17.6,96,34.7,18.1,4,5,7,0,2026-03-13T21:16:31.575502+05:30
Bikaner,Rajasthan,28.0229,73.3119,28.5,29,0.0,982.9,6.75,24.8,92,21.5,15.5,4,5,7,0,2026-03-13T21:16:31.575508+05:30
Ajmer,Rajasthan,26.4499,74.6399,25.0,38,0.0,955.2,7.05,22.0,83,108.3,37.3,4,5,7,0,2026-03-13T21:16:31.575514+05:30
Gwalior,Madhya Pradesh,26.2183,78.1828,26.3,65,0.0,984.2,6.8,21.2,103,156.5,49.5,7,5,7,1,2026-03-13T21:16:31.575519+05:30
Indore,Madhya Pradesh,22.7196,75.8577,24.3,35,0.0,948.4,7.75,32.4,101,36.0,32.2,0,5,7,0,2026-03-13T21:16:31.575525+05:30
Bhopal,Madhya Pradesh,23.2599,77.4126,25.2,30,0.0,953.9,7.55,31.0,108,19.4,19.0,4,5,7,0,2026-03-13T21:16:31.575530+05:30
Jabalpur,Madhya Pradesh,23.1815,79.9864,27.0,48,0.0,962.0,7.75,20.2,125,27.2,25.8,4,5,7,0,2026-03-13T21:16:31.575536+05:30
Ujjain,Madhya Pradesh,23.1765,75.7885,24.2,37,0.0,954.3,7.65,26.3,83,45.3,39.6,0,5,7,0,2026-03-13T21:16:31.575542+05:30
Visakhapatnam,Andhra Pradesh,17.6868,83.2185,26.2,84,0.0,1006.2,8.65,40.3,83,20.9,17.4,7,5,4,1,2026-03-13T21:16:31.575548+05:30
Vijayawada,Andhra Pradesh,16.5062,80.648,26.4,83,0.0,1004.5,8.75,31.3,88,17.3,15.2,7,5,4,1,2026-03-13T21:16:31.575554+05:30
Guntur,Andhra Pradesh,16.3067,80.4365,26.0,86,0.0,1005.6,8.75,33.8,82,17.0,14.8,7,5,4,1,2026-03-13T21:16:31.575560+05:30
Nellore,Andhra Pradesh,14.4426,79.9865,26.3,87,0.0,1007.7,8.9,30.2,71,15.4,12.2,7,5,4,1,2026-03-13T21:16:31.575566+05:30
Kurnool,Andhra Pradesh,15.8281,78.0373,31.3,32,0.0,977.1,8.7,23.8,161,64.3,51.3,0,5,7,0,2026-03-13T21:16:31.575573+05:30
Kakinada,Andhra Pradesh,16.9891,82.2475,25.4,88,0.0,1010.0,8.65,34.6,73,15.2,11.4,7,0,4,1,2026-03-13T21:16:31.575578+05:30
Tirupati,Andhra Pradesh,13.6288,79.4192,27.3,67,0.0,993.5,9.05,33.5,93,22.4,20.2,7,5,7,1,2026-03-13T21:16:31.575584+05:30
Warangal,Telangana,17.9689,79.5941,27.4,53,0.0,978.8,8.5,28.8,131,53.9,45.5,4,5,7,1,2026-03-13T21:16:31.575590+05:30
Nizamabad,Telangana,18.6725,78.0941,26.2,45,0.0,964.3,8.4,19.1,161,62.6,52.2,4,5,7,0,2026-03-13T21:16:31.575595+05:30
Mysore,Karnataka,12.2958,76.6396,26.0,46,0.0,928.8,9.3,29.9,123,39.6,35.5,4,5,7,0,2026-03-13T21:16:31.575601+05:30
Mangalore,Karnataka,12.9141,74.856,28.8,82,0.0,1007.5,8.95,23.0,116,44.5,38.1,7,5,4,1,2026-03-13T21:16:31.575607+05:30
Hubli-Dharwad,Karnataka,15.3647,75.124,26.4,67,0.0,941.2,8.9,29.2,157,33.9,31.1,7,5,7,1,2026-03-13T21:16:31.575613+05:30
Belgaum,Karnataka,15.8497,74.4977,24.7,81,0.0,926.3,8.95,41.0,154,47.6,45.3,3,5,7,1,2026-03-13T21:16:34.833387+05:30
Coimbatore,Tamil Nadu,11.0168,76.9558,24.8,75,0.0,962.9,9.3,42.8,101,37.1,32.1,3,5,7,1,2026-03-13T21:16:34.833417+05:30
Madurai,Tamil Nadu,9.9252,78.1198,28.4,57,0.0,994.2,9.25,26.6,79,21.5,19.4,4,5,7,1,2026-03-13T21:16:34.833429+05:30
Trichy,Tamil Nadu,10.7905,78.7047,27.3,75,0.0,1001.2,9.15,23.0,82,21.4,20.0,7,5,4,1,2026-03-13T21:16:34.833438+05:30
Salem,Tamil Nadu,11.6643,78.146,27.4,59,0.0,978.2,9.2,24.8,115,41.7,36.3,4,5,7,1,2026-03-13T21:16:34.833446+05:30
Tirunelveli,Tamil Nadu,8.7139,77.7567,27.2,69,0.0,1004.5,9.2,29.9,62,15.2,13.6,7,5,4,1,2026-03-13T21:16:34.833453+05:30
Vellore,Tamil Nadu,12.9165,79.1325,26.3,72,0.0,986.4,9.1,33.1,106,26.1,24.0,7,5,7,1,2026-03-13T21:16:34.833462+05:30
Erode,Tamil Nadu,11.341,77.7172,29.1,57,0.0,989.7,9.15,23.8,86,32.1,28.4,4,5,7,1,2026-03-13T21:16:34.833470+05:30
Kochi,Kerala,9.9312,76.2673,28.2,81,0.0,1009.8,9.1,33.8,135,28.5,26.7,7,0,4,1,2026-03-13T21:16:34.833477+05:30
Thiruvananthapuram,Kerala,8.5241,76.9366,27.6,83,0.0,1009.2,9.1,24.1,93,21.1,16.4,7,0,4,1,2026-03-13T21:16:34.833484+05:30
Kozhikode,Kerala,11.2588,75.7804,28.7,81,0.0,1008.8,9.0,29.9,92,28.1,24.5,7,0,4,1,2026-03-13T21:16:34.833490+05:30
Thrissur,Kerala,10.5276,76.2144,27.9,82,0.0,1008.0,9.05,37.1,113,26.7,24.6,7,0,4,1,2026-03-13T21:16:34.833497+05:30
Kannur,Kerala,11.8745,75.3704,29.0,80,0.0,1007.7,9.0,28.1,106,38.1,32.9,7,5,4,1,2026-03-13T21:16:34.833503+05:30
Patna,Bihar,25.5941,85.1376,26.7,61,0.0,1000.7,7.5,23.0,177,150.4,60.3,7,5,4,1,2026-03-13T21:16:34.833509+05:30
Gaya,Bihar,24.7914,85.0002,27.4,51,0.0,994.7,7.6,19.4,146,175.1,57.7,4,5,7,1,2026-03-13T21:16:34.833515+05:30
Muzaffarpur,Bihar,26.1209,85.3647,25.7,73,0.0,1000.5,7.45,24.8,178,162.5,83.6,7,5,4,1,2026-03-13T21:16:34.833520+05:30
Bhagalpur,Bihar,25.2425,87.0117,26.8,72,0.0,1001.7,7.5,26.6,166,190.9,95.0,7,5,4,1,2026-03-13T21:16:34.833526+05:30
Ranchi,Jharkhand,23.3441,85.3096,23.5,35,0.0,938.7,8.2,26.3,101,29.2,20.3,0,5,7,0,2026-03-13T21:16:34.833533+05:30
Jamshedpur,Jharkhand,22.8046,86.2029,28.1,53,0.0,990.9,8.05,16.6,153,58.7,37.5,4,5,7,1,2026-03-13T21:16:34.833539+05:30
Dhanbad,Jharkhand,23.7957,86.4304,27.8,36,0.0,980.4,7.95,26.3,165,90.3,60.5,4,5,7,0,2026-03-13T21:16:34.833546+05:30
Bokaro,Jharkhand,23.6693,86.1511,27.9,42,0.0,984.7,7.95,26.6,150,82.7,56.9,4,5,7,0,2026-03-13T21:16:34.833552+05:30
Bhubaneswar,Odisha,20.2961,85.8245,26.0,87,0.0,1004.6,8.4,33.5,96,25.3,22.4,7,5,4,1,2026-03-13T21:16:34.833558+05:30
Cuttack,Odisha,20.4625,85.8828,26.2,85,0.0,1006.3,8.4,28.1,96,25.3,22.4,7,5,4,1,2026-03-13T21:16:34.833564+05:30
Rourkela,Odisha,22.2604,84.8536,26.2,56,0.0,985.2,8.0,19.4,131,58.0,36.0,4,5,7,1,2026-03-13T21:16:34.833570+05:30
Raipur,Chhattisgarh,21.2514,81.6296,28.7,34,0.0,974.6,8.15,18.0,149,50.1,43.8,4,5,7,0,2026-03-13T21:16:34.833576+05:30
Bhilai,Chhattisgarh,21.1938,81.3509,27.5,40,0.0,974.8,8.15,14.8,132,47.3,41.7,4,5,7,0,2026-03-13T21:16:34.833581+05:30
Guwahati,Assam,26.1158,91.7086,22.4,91,0.0,1003.6,6.6,29.9,151,32.8,26.8,3,5,4,1,2026-03-13T21:16:34.833587+05:30
Agartala,Tripura,23.8315,91.2868,23.2,89,0.0,1008.2,7.6,32.8,122,42.5,38.2,3,0,4,1,2026-03-13T21:16:34.833593+05:30
Shillong,Meghalaya,25.5788,91.8933,13.3,88,0.0,856.1,7.0,54.7,116,23.9,18.5,3,10,7,0,2026-03-13T21:16:34.833599+05:30
Imphal,Manipur,24.817,93.9368,16.5,93,0.0,925.1,7.3,61.2,157,72.2,64.5,3,10,7,0,2026-03-13T21:16:34.833605+05:30
Aizawl,Mizoram,23.7271,92.7176,17.7,87,0.0,894.2,7.15,76.0,144,44.9,41.4,3,10,7,0,2026-03-13T21:16:34.833611+05:30
Kohima,Nagaland,25.6701,94.1077,14.4,84,0.0,855.2,6.25,82.8,134,31.5,28.2,3,10,7,0,2026-03-13T21:16:34.833617+05:30
Gangtok,Sikkim,27.3314,88.6138,14.2,95,0.1,836.6,5.15,15.8,97,29.6,28.4,6,10,3,0,2026-03-13T21:16:34.833623+05:30
Siliguri,West Bengal,26.7271,88.3953,19.4,90,0.0,995.2,7.3,29.5,151,45.3,40.6,3,10,7,1,2026-03-13T21:16:38.088096+05:30
Durgapur,West Bengal,23.5204,87.3119,29.2,45,0.0,995.7,7.95,26.3,161,89.2,66.6,4,5,7,1,2026-03-13T21:16:38.088126+05:30
Asansol,West Bengal,23.6739,86.9524,29.0,42,0.0,994.2,7.95,23.4,162,75.4,45.6,4,5,7,0,2026-03-13T21:16:38.088137+05:30
Pondicherry,Puducherry,11.9139,79.8145,25.3,92,0.0,1010.3,9.0,27.7,59,18.9,14.2,7,0,4,1,2026-03-13T21:16:38.088146+05:30
Port Blair,Andaman and Nicobar Islands,11.6234,92.7265,28.0,80,0.0,1009.0,8.95,21.6,63,11.0,8.5,7,0,4,1,2026-03-13T21:16:38.088154+05:30
Haridwar,Uttarakhand,29.9457,78.1642,21.5,68,0.0,975.2,5.6,29.5,86,91.0,40.3,3,5,3,0,2026-03-13T21:16:38.088162+05:30
Rishikesh,Uttarakhand,30.0869,78.2676,20.3,71,0.0,967.9,5.8,30.2,80,37.4,24.7,3,5,3,0,2026-03-13T21:16:38.088171+05:30
Nainital,Uttarakhand,29.3919,79.4542,17.6,38,0.0,806.1,6.55,44.3,101,34.1,26.8,0,5,7,0,2026-03-13T21:16:38.088178+05:30
Mussoorie,Uttarakhand,30.4599,78.0664,15.7,61,0.0,802.4,5.75,30.6,81,51.2,37.1,3,5,3,0,2026-03-13T21:16:38.088186+05:30
Dharamshala,Himachal Pradesh,32.219,76.3234,18.8,47,0.0,869.8,6.0,24.8,78,23.9,16.4,0,5,3,0,2026-03-13T21:16:38.088194+05:30
Dalhousie,Himachal Pradesh,32.5387,75.971,14.8,56,0.0,803.4,6.4,31.0,73,36.1,28.3,0,5,7,0,2026-03-13T21:16:38.088203+05:30
Patiala,Punjab,30.3398,76.3869,19.6,74,0.0,979.8,5.2,27.0,371,542.0,75.2,3,5,3,0,2026-03-13T21:16:38.088211+05:30
Bhatinda,Punjab,30.211,74.9455,21.8,67,0.0,985.7,6.25,27.7,114,47.4,39.2,3,5,7,0,2026-03-13T21:16:38.088219+05:30
Rohtak,Haryana,28.8955,76.6066,20.8,68,0.0,983.6,5.3,26.6,540,987.2,136.4,3,5,3,0,2026-03-13T21:16:38.088226+05:30
Panipat,Haryana,29.3909,76.9635,19.7,74,0.0,982.0,4.9,24.8,1008,1445.4,177.0,3,5,3,0,2026-03-13T21:16:38.088234+05:30
Mathura,Uttar Pradesh,27.4924,77.6737,22.5,48,0.0,988.4,5.65,25.6,665,1069.2,135.0,0,5,3,0,2026-03-13T21:16:38.088241+05:30
Vrindavan,Uttar Pradesh,27.5823,77.7027,21.1,54,0.0,988.8,5.75,28.8,665,1069.2,135.0,0,5,3,0,2026-03-13T21:16:38.088248+05:30
Ayodhya,Uttar Pradesh,26.7922,82.1998,24.2,59,0.0,996.0,6.35,30.2,156,67.1,42.6,0,5,7,0,2026-03-13T21:16:38.088284+05:30
Ratlam,Madhya Pradesh,23.3315,75.0367,27.7,35,0.0,955.3,7.6,30.6,106,26.8,23.5,4,5,7,0,2026-03-13T21:16:38.088293+05:30
Sagar,Madhya Pradesh,23.8388,78.7378,27.7,32,0.0,950.8,7.6,29.2,109,14.1,13.3,4,5,7,0,2026-03-13T21:16:38.088301+05:30
Satna,Madhya Pradesh,24.6005,80.8322,26.5,29,0.0,972.3,7.2,29.9,95,27.9,14.2,4,5,7,0,2026-03-13T21:16:38.088308+05:30
Akola,Maharashtra,20.7002,77.0082,28.6,40,0.0,974.8,8.05,24.8,162,37.5,33.9,4,5,7,0,2026-03-13T21:16:38.088317+05:30
Amravati,Maharashtra,20.9374,77.7796,29.6,32,0.0,967.0,8.0,15.1,160,38.8,34.0,4,5,7,0,2026-03-13T21:16:38.088325+05:30
Latur,Maharashtra,18.4088,76.5604,26.8,50,0.0,939.8,8.5,21.2,152,39.1,35.5,4,5,7,0,2026-03-13T21:16:38.088332+05:30
Nanded,Maharashtra,19.1383,77.3091,30.6,34,0.0,968.2,8.25,21.6,166,59.0,52.4,0,5,7,0,2026-03-13T21:16:38.088340+05:30
Gulbarga,Karnataka,17.3297,76.8343,30.4,37,0.0,958.6,8.6,32.0,167,39.2,33.4,0,5,7,0,2026-03-13T21:16:38.088347+05:30
Bidar,Karnataka,17.9104,77.5199,27.9,35,0.0,935.4,8.55,26.6,158,44.2,36.0,4,5,7,0,2026-03-13T21:16:38.088355+05:30
Hospet,Karnataka,15.2689,76.3909,30.5,44,0.0,955.7,8.9,24.1,165,41.0,35.4,0,5,7,1,2026-03-13T21:16:38.088362+05:30
Tirupur,Tamil Nadu,11.1085,77.3411,29.1,47,0.0,976.1,9.3,30.6,101,41.1,36.0,4,5,7,1,2026-03-13T21:16:38.088370+05:30
Alappuzha,Kerala,9.4981,76.3388,28.0,81,0.0,1010.0,9.1,28.1,135,23.8,20.5,7,0,4,1,2026-03-13T21:16:38.088377+05:30
Munnar,Kerala,10.0889,77.0595,22.2,80,0.0,857.8,9.55,24.5,73,27.9,25.6,3,5,7,1,2026-03-13T21:16:38.088385+05:30
Silchar,Assam,24.8333,92.7789,21.2,93,0.0,1009.0,7.75,42.8,161,46.7,39.7,3,0,4,1,2026-03-13T21:16:38.088392+05:30
Dibrugarh,Assam,27.4728,94.912,20.9,86,0.0,997.3,5.5,25.2,145,52.7,48.1,3,5,3,1,2026-03-13T21:16:38.088400+05:30
