city,state,latitude,longitude,temp,humidity,rain,pressure,uv_index,wind_gusts,aqi,pm10,pm2_5,mosquito_risk,arthritis_risk,migraine_risk,frizz_risk,updated_at
Delhi,Delhi,28.6139,77.209,23.0,75,0.0,984.8,5.6,35.3,132,160.2,48.7,3,5,3,1,2026-04-04T20:06:06.714611+05:30
Mumbai,Maharashtra,19.076,72.8777,27.4,78,0.0,1009.5,7.9,20.9,73,44.5,17.8,7,0,4,1,2026-04-04T20:06:06.714650+05:30
Bangalore,Karnataka,12.9716,77.5946,26.4,64,0.0,912.3,9.1,24.5,152,48.5,45.3,7,5,7,1,2026-04-04T20:06:06.714666+05:30
Hyderabad,Telangana,17.385,78.4867,27.8,61,0.0,953.6,7.95,43.9,163,51.7,43.0,7,5,7,1,2026-04-04T20:06:06.714676+05:30
Chennai,Tamil Nadu,13.0827,80.2707,29.4,78,0.0,1006.8,8.75,31.0,82,17.9,14.3,7,5,4,1,2026-04-04T20:06:06.714685+05:30
Kolkata,West Bengal,22.5726,88.3639,29.5,77,0.0,1004.3,8.55,20.5,201,70.1,65.2,7,5,4,1,2026-04-04T20:06:06.714693+05:30
Pune,Maharashtra,18.5204,73.8567,25.9,63,0.0,948.9,8.5,40.0,132,28.6,24.4,7,5,7,1,2026-04-04T20:06:06.714705+05:30
Ahmedabad,Gujarat,23.0225,72.5714,29.4,36,0.0,1002.4,7.5,24.8,73,21.3,12.6,4,5,4,0,2026-04-04T20:06:06.714714+05:30
Jaipur,Rajasthan,26.9124,75.7873,23.6,68,0.0,960.4,7.45,41.4,80,166.7,32.2,3,5,7,1,2026-04-04T20:06:06.714721+05:30
Lucknow,Uttar Pradesh,26.8467,80.9462,26.0,61,0.0,994.7,6.3,52.2,155,198.4,55.2,7,5,7,1,2026-04-04T20:06:06.714729+05:30
Kanpur,Uttar Pradesh,26.4499,80.3319,24.5,73,0.0,993.4,6.75,39.6,265,450.8,73.8,3,5,7,1,2026-04-04T20:06:06.714737+05:30
Chandigarh,Chandigarh,30.7333,76.7794,20.2,87,0.0,970.9,5.9,28.8,92,90.3,38.3,3,5,3,1,2026-04-04T20:06:06.714745+05:30
Srinagar,Jammu and Kashmir,34.0837,74.7973,8.4,83,0.0,840.3,5.25,29.5,64,28.2,25.4,3,10,3,0,2026-04-04T20:06:06.714753+05:30
Jammu,Jammu and Kashmir,32.7266,74.857,19.1,79,0.0,974.8,6.55,46.4,61,104.3,38.8,3,5,7,0,2026-04-04T20:06:06.714760+05:30
Amritsar,Punjab,31.634,74.8723,18.2,94,0.0,983.4,6.15,32.0,84,71.7,31.1,3,10,7,1,2026-04-04T20:06:06.714767+05:30
Ludhiana,Punjab,30.901,75.8573,19.9,82,0.0,981.2,6.7,28.4,122,93.6,35.5,3,10,7,1,2026-04-04T20:06:06.714774+05:30
Jalandhar,Punjab,31.326,75.5762,18.7,89,0.0,982.6,6.75,34.2,104,93.8,30.2,3,10,7,1,2026-04-04T20:06:06.714782+05:30
Dehradun,Uttarakhand,30.6284,78.0322,13.5,63,0.0,829.7,3.85,34.2,51,23.2,10.8,3,5,3,0,2026-04-04T20:06:06.714790+05:30
Shimla,Himachal Pradesh,31.1048,77.1734,11.6,91,0.0,783.2,5.55,49.7,57,26.5,14.4,3,10,3,0,2026-04-04T20:06:06.714797+05:30
Manali,Himachal Pradesh,32.2396,77.1887,13.1,61,0.0,817.7,7.2,31.3,74,15.1,5.6,3,5,7,0,2026-04-04T20:06:06.714804+05:30
Gurgaon,Haryana,28.4595,77.0266,20.4,85,0.0,983.7,6.2,28.8,497,109.0,42.3,3,5,7,1,2026-04-04T20:06:06.714811+05:30
Noida,Uttar Pradesh,28.5355,77.391,23.4,77,0.0,986.4,5.7,29.9,497,109.0,42.3,3,5,3,1,2026-04-04T20:06:06.714817+05:30
Ghaziabad,Uttar Pradesh,28.6692,77.4538,22.4,82,0.0,984.3,5.55,29.9,144,219.3,50.5,3,5,3,1,2026-04-04T20:06:06.714823+05:30
Faridabad,Haryana,28.4089,77.3178,22.0,74,0.0,985.9,5.8,29.5,497,109.0,42.3,3,5,3,1,2026-04-04T20:06:06.714829+05:30
Meerut,Uttar Pradesh,28.9845,77.7064,21.2,87,0.0,982.9,6.45,46.4,144,219.3,50.5,3,5,7,1,2026-04-04T20:06:06.714836+05:30
Agra,Uttar Pradesh,27.1767,78.0081,22.8,79,0.0,989.3,6.8,35.6,546,291.5,60.5,3,5,7,1,2026-04-04T20:06:06.714842+05:30
Varanasi,Uttar Pradesh,25.3176,82.9739,28.2,67,0.0,997.4,6.05,24.8,84,35.5,32.1,7,5,7,1,2026-04-04T20:06:06.714851+05:30
Prayagraj,Uttar Pradesh,25.4358,81.8463,25.5,76,0.0,997.4,5.45,37.1,95,67.3,37.4,7,5,3,1,2026-04-04T20:06:06.714860+05:30
Gorakhpur,Uttar Pradesh,26.7606,83.3732,29.7,42,0.0,995.7,6.8,37.1,102,77.5,39.0,4,5,7,0,2026-04-04T20:06:06.714867+05:30
Bareilly,Uttar Pradesh,28.367,79.4304,24.8,73,0.0,987.7,5.35,24.5,104,34.5,23.2,3,5,3,1,2026-04-04T20:06:06.714873+05:30
Aligarh,Uttar Pradesh,27.8974,78.088,23.1,77,0.0,986.8,5.3,40.7,565,1050.5,130.4,3,5,3,1,2026-04-04T20:06:06.714880+05:30
Moradabad,Uttar Pradesh,28.8386,78.7733,21.8,84,0.0,984.9,6.0,31.0,122,58.4,27.9,3,5,3,1,2026-04-04T20:06:06.714886+05:30
Saharanpur,Uttar Pradesh,29.9637,77.546,22.0,82,0.0,977.2,5.6,29.5,150,110.4,40.9,3,5,3,1,2026-04-04T20:06:06.714892+05:30
Jhansi,Uttar Pradesh,25.4484,78.5685,27.1,58,0.0,979.4,7.15,45.0,82,30.0,15.3,4,5,7,1,2026-04-04T20:06:10.001737+05:30
Surat,Gujarat,21.1702,72.8311,26.9,77,0.0,1007.4,7.6,25.6,77,42.7,25.0,7,5,4,1,2026-04-04T20:06:10.001770+05:30
Vadodara,Gujarat,22.3072,73.1812,29.4,46,0.0,1004.1,7.85,25.9,76,51.0,25.8,4,5,4,1,2026-04-04T20:06:10.001783+05:30
Rajkot,Gujarat,22.3039,70.8022,27.4,26,0.0,995.1,7.55,34.9,103,20.5,13.3,4,5,7,0,2026-04-04T20:06:10.001792+05:30
Thane,Maharashtra,19.2183,72.9781,26.8,78,0.0,1008.9,7.9,36.7,73,44.5,17.8,7,0,4,1,2026-04-04T20:06:10.001801+05:30
Nagpur,Maharashtra,21.1458,79.0882,25.8,71,0.0,974.6,7.65,35.3,153,51.3,46.4,7,5,7,1,2026-04-04T20:06:10.001810+05:30
Nashik,Maharashtra,19.9975,73.7898,24.4,67,0.0,946.1,8.15,37.4,57,24.7,10.5,3,5,7,1,2026-04-04T20:06:10.001818+05:30
Aurangabad,Maharashtra,19.8762,75.3433,28.9,41,0.0,943.5,8.85,36.7,89,20.6,13.8,4,5,7,0,2026-04-04T20:06:10.001826+05:30
Solapur,Maharashtra,17.6599,75.9064,31.7,44,0.0,956.4,8.9,22.0,136,33.1,26.7,0,5,7,1,2026-04-04T20:06:10.001835+05:30
Kolhapur,Maharashtra,16.705,74.2433,24.6,67,0.0,948.3,8.95,44.6,93,26.8,21.1,3,5,7,1,2026-04-04T20:06:10.001843+05:30
Goa,Goa,15.2993,74.124,28.0,74,0.0,999.1,8.15,36.4,65,33.8,15.2,7,5,7,1,2026-04-04T20:06:10.001851+05:30
Jodhpur,Rajasthan,26.2389,73.0243,26.3,36,0.0,983.6,7.6,28.4,95,139.7,22.4,4,5,7,0,2026-04-04T20:06:10.001858+05:30
Udaipur,Rajasthan,24.5854,73.7125,23.8,34,0.0,946.8,7.5,37.8,58,12.5,7.0,0,5,7,0,2026-04-04T20:06:10.001867+05:30
Kota,Rajasthan,25.2138,75.8648,27.1,52,0.0,978.6,7.8,34.2,67,33.2,14.7,4,5,7,1,2026-04-04T20:06:10.001874+05:30
Bikaner,Rajasthan,28.0229,73.3119,25.2,41,0.0,983.3,7.15,30.2,95,24.4,10.5,4,5,7,0,2026-04-04T20:06:10.001882+05:30
Ajmer,Rajasthan,26.4499,74.6399,24.6,42,0.0,955.1,7.65,36.0,74,20.7,10.5,0,5,7,0,2026-04-04T20:06:10.001890+05:30
Gwalior,Madhya Pradesh,26.2183,78.1828,23.6,73,0.0,985.0,7.3,29.5,107,52.3,18.8,3,5,7,1,2026-04-04T20:06:10.001897+05:30
Indore,Madhya Pradesh,22.7196,75.8577,24.5,69,0.0,948.2,8.35,38.9,66,24.5,15.1,3,5,7,1,2026-04-04T20:06:10.001905+05:30
Bhopal,Madhya Pradesh,23.2599,77.4126,25.7,61,0.0,954.3,8.3,34.6,74,30.9,19.8,7,5,7,1,2026-04-04T20:06:10.001912+05:30
Jabalpur,Madhya Pradesh,23.1815,79.9864,28.0,57,0.0,962.7,6.8,30.6,81,25.0,21.6,4,5,7,1,2026-04-04T20:06:10.001920+05:30
Ujjain,Madhya Pradesh,23.1765,75.7885,24.8,68,0.0,954.1,8.25,33.8,63,34.8,17.2,3,5,7,1,2026-04-04T20:06:10.001928+05:30
Visakhapatnam,Andhra Pradesh,17.6868,83.2185,27.7,78,0.0,1003.7,8.4,36.7,60,17.3,14.2,7,5,4,1,2026-04-04T20:06:10.001935+05:30
Vijayawada,Andhra Pradesh,16.5062,80.648,30.0,58,0.0,1002.3,8.8,19.8,69,29.0,27.6,4,5,4,1,2026-04-04T20:06:10.001943+05:30
Guntur,Andhra Pradesh,16.3067,80.4365,29.0,61,0.0,1003.4,8.6,30.6,74,30.6,28.4,7,5,4,1,2026-04-04T20:06:10.001950+05:30
Nellore,Andhra Pradesh,14.4426,79.9865,28.3,83,0.0,1005.4,8.75,31.0,85,18.7,15.9,7,5,4,1,2026-04-04T20:06:10.001958+05:30
Kurnool,Andhra Pradesh,15.8281,78.0373,33.8,38,0.0,975.9,8.15,22.0,142,26.4,21.7,0,5,7,1,2026-04-04T20:06:10.001968+05:30
Kakinada,Andhra Pradesh,16.9891,82.2475,28.5,67,0.0,1007.3,8.5,34.6,36,12.3,9.3,7,5,4,1,2026-04-04T20:06:10.001977+05:30
Tirupati,Andhra Pradesh,13.6288,79.4192,30.0,59,0.0,991.4,8.8,26.3,99,27.9,25.9,4,5,7,1,2026-04-04T20:06:10.001983+05:30
Warangal,Telangana,17.9689,79.5941,25.7,77,0.0,979.8,8.0,37.1,160,62.6,54.8,7,5,7,1,2026-04-04T20:06:10.001989+05:30
Nizamabad,Telangana,18.6725,78.0941,28.7,63,0.0,965.2,8.2,29.2,126,65.0,56.9,7,5,7,1,2026-04-04T20:06:10.001996+05:30
Mysore,Karnataka,12.2958,76.6396,24.8,77,0.0,929.4,9.05,32.0,127,24.3,22.9,3,5,7,1,2026-04-04T20:06:10.002003+05:30
Mangalore,Karnataka,12.9141,74.856,29.1,78,0.0,1008.2,8.1,20.5,60,20.2,15.7,7,0,4,1,2026-04-04T20:06:10.002009+05:30
Hubli-Dharwad,Karnataka,15.3647,75.124,26.6,67,0.0,941.3,8.6,41.8,116,21.8,19.3,7,5,7,1,2026-04-04T20:06:10.002016+05:30
Belgaum,Karnataka,15.8497,74.4977,24.0,77,0.0,926.2,9.1,37.8,85,20.3,13.5,3,5,7,1,2026-04-04T20:06:13.279845+05:30
Coimbatore,Tamil Nadu,11.0168,76.9558,25.4,78,0.0,962.8,8.95,50.4,93,16.0,15.3,7,5,7,1,2026-04-04T20:06:13.279874+05:30
Madurai,Tamil Nadu,9.9252,78.1198,29.0,67,0.0,993.8,8.6,28.1,142,31.5,29.9,7,5,7,1,2026-04-04T20:06:13.279884+05:30
Trichy,Tamil Nadu,10.7905,78.7047,29.2,67,0.0,1000.3,9.15,29.9,111,28.2,27.0,7,5,4,1,2026-04-04T20:06:13.279893+05:30
Salem,Tamil Nadu,11.6643,78.146,28.3,69,0.0,977.8,8.5,41.0,173,35.0,31.2,7,5,7,1,2026-04-04T20:06:13.279900+05:30
Tirunelveli,Tamil Nadu,8.7139,77.7567,29.3,67,0.0,1003.5,8.45,24.5,61,18.5,17.7,7,5,4,1,2026-04-04T20:06:13.279908+05:30
Vellore,Tamil Nadu,12.9165,79.1325,28.6,68,0.0,984.9,8.75,26.6,136,34.0,32.1,7,5,7,1,2026-04-04T20:06:13.279915+05:30
Erode,Tamil Nadu,11.341,77.7172,28.1,75,0.0,989.3,8.8,39.6,149,23.5,21.9,7,5,7,1,2026-04-04T20:06:13.279922+05:30
Kochi,Kerala,9.9312,76.2673,28.7,80,0.0,1009.9,8.7,21.2,67,14.7,13.1,7,0,4,1,2026-04-04T20:06:13.279930+05:30
Thiruvananthapuram,Kerala,8.5241,76.9366,29.0,80,0.0,1009.0,8.55,29.5,67,14.4,10.2,7,0,4,1,2026-04-04T20:06:13.279937+05:30
Kozhikode,Kerala,11.2588,75.7804,29.1,78,0.0,1009.1,8.25,26.3,57,15.0,10.9,7,0,4,1,2026-04-04T20:06:13.279943+05:30
Thrissur,Kerala,10.5276,76.2144,28.0,83,0.0,1008.2,8.5,28.1,57,18.8,17.6,7,0,4,1,2026-04-04T20:06:13.279950+05:30
Kannur,Kerala,11.8745,75.3704,28.0,80,0.0,1008.8,8.2,24.1,66,13.2,10.5,7,0,4,1,2026-04-04T20:06:13.279957+05:30
Patna,Bihar,25.5941,85.1376,30.3,53,0.0,998.4,7.95,34.6,123,38.5,26.1,0,5,7,1,2026-04-04T20:06:13.279963+05:30
Gaya,Bihar,24.7914,85.0002,29.1,52,0.0,992.7,8.4,22.7,113,27.4,23.3,4,5,7,1,2026-04-04T20:06:13.279970+05:30
Muzaffarpur,Bihar,26.1209,85.3647,29.3,44,0.0,997.9,7.9,32.8,117,56.3,31.9,4,5,7,0,2026-04-04T20:06:13.279976+05:30
Bhagalpur,Bihar,25.2425,87.0117,28.9,59,0.0,998.7,8.25,27.0,144,44.9,26.2,4,5,7,1,2026-04-04T20:06:13.279983+05:30
Ranchi,Jharkhand,23.3441,85.3096,25.6,57,0.0,937.7,8.2,37.8,114,22.4,20.1,4,5,7,1,2026-04-04T20:06:13.279989+05:30
Jamshedpur,Jharkhand,22.8046,86.2029,32.8,39,0.0,989.4,8.5,21.2,147,35.4,31.4,0,5,7,1,2026-04-04T20:06:13.279995+05:30
Dhanbad,Jharkhand,23.7957,86.4304,32.1,33,0.0,978.5,8.55,19.8,103,29.3,26.0,0,5,7,0,2026-04-04T20:06:13.280001+05:30
Bokaro,Jharkhand,23.6693,86.1511,31.7,35,0.0,982.9,8.15,20.2,106,26.0,23.1,0,5,7,0,2026-04-04T20:06:13.280008+05:30
Bhubaneswar,Odisha,20.2961,85.8245,28.3,82,0.0,1002.4,8.95,26.3,164,28.8,26.1,7,5,4,1,2026-04-04T20:06:13.280014+05:30
Cuttack,Odisha,20.4625,85.8828,29.7,73,0.0,1004.3,9.0,31.7,164,28.8,26.1,7,5,4,1,2026-04-04T20:06:13.280041+05:30
Rourkela,Odisha,22.2604,84.8536,27.5,65,0.0,985.3,8.45,59.4,148,34.9,31.9,7,5,7,1,2026-04-04T20:06:13.280048+05:30
Raipur,Chhattisgarh,21.2514,81.6296,28.8,61,0.0,975.7,7.75,41.4,145,68.5,60.8,7,5,7,1,2026-04-04T20:06:13.280054+05:30
Bhilai,Chhattisgarh,21.1938,81.3509,28.5,67,0.0,976.1,8.15,37.8,119,51.3,45.4,7,5,7,1,2026-04-04T20:06:13.280061+05:30
Guwahati,Assam,26.1158,91.7086,27.0,83,0.0,999.7,8.25,31.0,122,62.9,54.2,7,5,7,1,2026-04-04T20:06:13.280068+05:30
Agartala,Tripura,23.8315,91.2868,28.7,79,0.0,1004.1,8.45,25.6,131,47.8,44.2,7,5,4,1,2026-04-04T20:06:13.280075+05:30
Shillong,Meghalaya,25.5788,91.8933,16.0,89,0.0,855.4,8.4,55.1,101,38.3,33.8,3,10,7,0,2026-04-04T20:06:13.280082+05:30
Imphal,Manipur,24.817,93.9368,20.3,75,0.0,922.4,8.75,76.0,124,52.5,43.2,3,5,7,0,2026-04-04T20:06:13.280089+05:30
Aizawl,Mizoram,23.7271,92.7176,21.5,80,0.0,892.3,8.55,55.1,116,45.1,38.1,3,5,7,1,2026-04-04T20:06:13.280095+05:30
Kohima,Nagaland,25.6701,94.1077,17.3,81,0.0,854.1,8.55,74.2,100,43.5,34.5,3,10,7,0,2026-04-04T20:06:13.280101+05:30
Gangtok,Sikkim,27.3314,88.6138,17.3,91,0.0,836.3,8.45,18.4,129,56.5,46.9,3,10,7,0,2026-04-04T20:06:13.280107+05:30
Siliguri,West Bengal,26.7271,88.3953,23.7,78,0.0,991.7,8.2,28.8,161,83.1,67.8,3,5,7,1,2026-04-04T20:06:16.563548+05:30
Durgapur,West Bengal,23.5204,87.3119,31.8,47,0.0,992.8,8.35,15.8,113,56.0,53.7,0,5,7,1,2026-04-04T20:06:16.563577+05:30
Asansol,West Bengal,23.6739,86.9524,32.7,46,0.0,991.5,8.45,15.5,101,38.8,35.0,0,5,7,1,2026-04-04T20:06:16.563587+05:30
Pondicherry,Puducherry,11.9139,79.8145,28.7,87,0.0,1008.0,8.9,23.8,78,14.3,10.3,7,0,4,1,2026-04-04T20:06:16.563595+05:30
Port Blair,Andaman and Nicobar Islands,11.6234,92.7265,29.0,71,0.0,1007.1,8.75,18.7,45,16.8,9.8,7,5,4,1,2026-04-04T20:06:16.563603+05:30
Haridwar,Uttarakhand,29.9457,78.1642,20.7,83,0.0,975.5,5.55,37.1,92,50.1,24.7,3,5,3,1,2026-04-04T20:06:16.563610+05:30
Rishikesh,Uttarakhand,30.0869,78.2676,21.2,65,0.0,968.1,6.05,25.6,61,30.4,14.0,3,5,7,0,2026-04-04T20:06:16.563618+05:30
Nainital,Uttarakhand,29.3919,79.4542,17.7,52,0.0,806.1,4.95,39.2,72,31.3,18.0,0,5,3,0,2026-04-04T20:06:16.563625+05:30
Mussoorie,Uttarakhand,30.4599,78.0664,14.7,58,0.0,802.2,5.1,47.2,65,32.2,16.1,0,5,3,0,2026-04-04T20:06:16.563632+05:30
Dharamshala,Himachal Pradesh,32.219,76.3234,14.7,82,0.0,869.3,5.7,47.5,50,11.6,7.4,3,10,3,0,2026-04-04T20:06:16.563639+05:30
Dalhousie,Himachal Pradesh,32.5387,75.971,11.1,84,0.2,802.5,5.65,52.6,68,74.3,28.2,6,10,3,0,2026-04-04T20:06:16.563648+05:30
Patiala,Punjab,30.3398,76.3869,21.4,77,0.0,980.1,5.4,27.4,172,228.2,43.5,3,5,3,1,2026-04-04T20:06:16.563654+05:30
Bhatinda,Punjab,30.211,74.9455,19.8,83,0.0,986.3,6.95,32.8,89,69.2,27.1,3,10,7,1,2026-04-04T20:06:16.563661+05:30
Rohtak,Haryana,28.8955,76.6066,20.6,80,0.0,983.9,6.55,24.5,93,129.5,47.4,3,5,7,1,2026-04-04T20:06:16.563668+05:30
Panipat,Haryana,29.3909,76.9635,21.8,79,0.0,982.1,5.75,27.0,202,370.7,65.7,3,5,3,1,2026-04-04T20:06:16.563675+05:30
Mathura,Uttar Pradesh,27.4924,77.6737,21.9,82,0.0,988.2,5.25,40.7,446,547.6,80.3,3,5,3,1,2026-04-04T20:06:16.563682+05:30
Vrindavan,Uttar Pradesh,27.5823,77.7027,21.7,81,0.0,988.6,5.45,45.7,446,547.6,80.3,3,5,3,1,2026-04-04T20:06:16.563689+05:30
Ayodhya,Uttar Pradesh,26.7922,82.1998,28.0,56,0.0,994.9,7.2,35.3,119,106.6,46.6,4,5,7,1,2026-04-04T20:06:16.563696+05:30
Ratlam,Madhya Pradesh,23.3315,75.0367,25.9,54,0.0,954.8,8.1,36.7,61,41.9,18.0,4,5,7,0,2026-04-04T20:06:16.563703+05:30
Sagar,Madhya Pradesh,23.8388,78.7378,24.4,65,0.0,951.4,8.3,36.0,71,22.7,15.4,3,5,7,1,2026-04-04T20:06:16.563710+05:30
Satna,Madhya Pradesh,24.6005,80.8322,27.9,54,0.0,973.1,5.05,28.8,90,21.8,17.3,4,5,3,1,2026-04-04T20:06:16.563717+05:30
Akola,Maharashtra,20.7002,77.0082,31.2,38,0.0,975.0,7.25,25.6,117,39.9,33.6,0,5,7,0,2026-04-04T20:06:16.563725+05:30
Amravati,Maharashtra,20.9374,77.7796,28.3,58,0.0,967.6,7.7,41.4,116,39.6,33.6,4,5,7,1,2026-04-04T20:06:16.563732+05:30
Latur,Maharashtra,18.4088,76.5604,28.0,55,0.0,939.3,8.9,28.8,129,44.7,37.4,4,5,7,1,2026-04-04T20:06:16.563738+05:30
Nanded,Maharashtra,19.1383,77.3091,29.5,56,0.0,968.2,8.25,21.2,118,39.6,34.0,4,5,7,1,2026-04-04T20:06:16.563745+05:30
Gulbarga,Karnataka,17.3297,76.8343,30.2,53,0.0,958.5,8.45,32.0,164,49.9,41.0,0,5,7,1,2026-04-04T20:06:16.563750+05:30
Bidar,Karnataka,17.9104,77.5199,29.2,55,0.0,935.8,8.6,31.3,141,52.3,44.9,4,5,7,1,2026-04-04T20:06:16.563757+05:30
Hospet,Karnataka,15.2689,76.3909,31.5,46,0.0,955.8,8.1,22.7,141,44.0,36.1,0,5,7,1,2026-04-04T20:06:16.563762+05:30
Tirupur,Tamil Nadu,11.1085,77.3411,28.2,70,0.0,975.9,8.6,31.3,128,21.2,20.0,7,5,7,1,2026-04-04T20:06:16.563769+05:30
Alappuzha,Kerala,9.4981,76.3388,28.7,81,0.0,1010.0,9.15,21.6,74,16.0,13.0,7,0,4,1,2026-04-04T20:06:16.563776+05:30
Munnar,Kerala,10.0889,77.0595,20.9,97,0.0,857.9,6.2,33.5,61,16.8,16.2,3,5,7,1,2026-04-04T20:06:16.563783+05:30
Silchar,Assam,24.8333,92.7789,26.8,82,0.0,1003.5,8.45,26.6,133,80.8,70.1,7,5,4,1,2026-04-04T20:06:16.563790+05:30
Dibrugarh,Assam,27.4728,94.912,25.1,86,0.0,994.3,8.3,14.8,110,60.8,53.0,7,5,7,1,2026-04-04T20:06:16.563797+05:30
