city,state,latitude,longitude,temp,humidity,rain,pressure,uv_index,wind_gusts,aqi,pm10,pm2_5,no2,co,o3,so2,mosquito_risk,arthritis_risk,migraine_risk,frizz_risk,updated_at
Delhi,Delhi,28.6139,77.209,37.3,38,0.0,974.5,7.75,35.3,168,232.8,87.5,24.9,431.0,108.0,20.6,0,5,10,1,2026-06-28T20:49:26.441078+05:30
Mumbai,Maharashtra,19.076,72.8777,26.0,93,0.3,1005.6,7.5,35.6,55,18.7,10.1,6.9,273.0,46.0,4.5,10,5,4,1,2026-06-28T20:49:26.441121+05:30
Bangalore,Karnataka,12.9716,77.5946,23.1,80,0.0,909.8,8.1,55.8,39,5.9,5.6,13.6,376.0,42.0,5.1,3,5,7,1,2026-06-28T20:49:26.441138+05:30
Hyderabad,Telangana,17.385,78.4867,26.4,83,0.0,949.7,8.55,41.4,58,22.9,21.5,29.1,316.0,47.0,8.8,7,5,7,1,2026-06-28T20:49:26.441148+05:30
Chennai,Tamil Nadu,13.0827,80.2707,25.3,96,0.6,1005.5,8.9,40.7,83,29.5,21.2,6.2,259.0,106.0,6.4,10,5,4,1,2026-06-28T20:49:26.441157+05:30
Kolkata,West Bengal,22.5726,88.3639,28.7,88,0.0,1000.4,8.85,33.1,70,30.3,25.9,8.5,323.0,69.0,7.5,7,5,4,1,2026-06-28T20:49:26.441165+05:30
Pune,Maharashtra,18.5204,73.8567,23.8,93,0.0,945.1,6.1,43.6,39,7.8,7.2,12.2,166.0,52.0,7.3,3,5,7,1,2026-06-28T20:49:26.441172+05:30
Ahmedabad,Gujarat,23.0225,72.5714,34.3,49,0.0,995.6,7.6,34.9,71,44.1,22.9,9.9,153.0,64.0,4.6,0,5,7,1,2026-06-28T20:49:26.441179+05:30
Jaipur,Rajasthan,26.9124,75.7873,34.5,44,0.0,953.1,7.55,36.0,144,86.1,43.7,14.0,339.0,53.0,6.4,0,5,7,1,2026-06-28T20:49:26.441185+05:30
Lucknow,Uttar Pradesh,26.8467,80.9462,36.3,44,0.0,985.6,8.3,33.8,111,122.5,54.2,19.7,219.0,73.0,9.5,0,5,10,1,2026-06-28T20:49:26.441196+05:30
Kanpur,Uttar Pradesh,26.4499,80.3319,37.7,39,0.0,983.9,8.3,31.3,107,123.4,44.2,14.6,242.0,75.0,6.3,0,5,10,1,2026-06-28T20:49:26.441203+05:30
Chandigarh,Chandigarh,30.7333,76.7794,32.2,61,0.0,960.1,7.8,28.1,167,57.5,50.9,23.3,522.0,95.0,11.3,3,5,7,1,2026-06-28T20:49:26.441210+05:30
Srinagar,Jammu and Kashmir,34.0837,74.7973,28.5,46,0.0,837.7,9.1,28.1,98,34.9,29.4,21.8,472.0,71.0,3.3,4,5,7,0,2026-06-28T20:49:26.441217+05:30
Jammu,Jammu and Kashmir,32.7266,74.857,35.3,46,0.0,963.1,8.65,31.0,117,59.5,46.2,21.8,408.0,82.0,6.7,0,5,10,1,2026-06-28T20:49:26.441224+05:30
Amritsar,Punjab,31.634,74.8723,32.4,75,0.0,970.6,8.5,44.6,157,84.3,69.2,40.7,667.0,80.0,12.0,3,5,7,1,2026-06-28T20:49:26.441231+05:30
Ludhiana,Punjab,30.901,75.8573,34.7,56,0.0,969.3,8.0,60.8,164,71.7,60.8,22.3,473.0,101.0,8.4,0,5,7,1,2026-06-28T20:49:26.441237+05:30
Jalandhar,Punjab,31.326,75.5762,33.0,70,0.0,970.1,8.25,56.9,165,88.0,68.2,27.3,556.0,99.0,8.3,3,5,7,1,2026-06-28T20:49:26.441243+05:30
Dehradun,Uttarakhand,30.6284,78.0322,19.5,93,0.0,826.2,7.05,34.9,117,42.0,31.4,12.9,264.0,111.0,3.0,3,10,7,1,2026-06-28T20:49:26.441252+05:30
Shimla,Himachal Pradesh,31.1048,77.1734,17.8,85,0.0,781.2,7.5,32.0,127,45.2,37.3,18.4,404.0,77.0,2.5,3,10,7,0,2026-06-28T20:49:26.441259+05:30
Manali,Himachal Pradesh,32.2396,77.1887,19.0,96,0.0,815.5,9.05,35.3,56,35.7,31.2,76.5,288.0,29.0,0.0,3,10,7,1,2026-06-28T20:49:26.441268+05:30
Gurgaon,Haryana,28.4595,77.0266,35.0,49,0.0,973.1,7.8,37.1,173,301.7,92.2,30.0,566.0,109.0,19.6,0,5,7,1,2026-06-28T20:49:26.441275+05:30
Noida,Uttar Pradesh,28.5355,77.391,33.5,65,0.0,975.7,7.8,23.4,173,301.7,92.2,30.0,819.0,109.0,19.6,3,5,7,1,2026-06-28T20:49:26.441281+05:30
Ghaziabad,Uttar Pradesh,28.6692,77.4538,34.4,56,0.0,974.0,7.75,26.3,190,157.4,81.5,23.8,565.0,124.0,23.2,0,5,7,1,2026-06-28T20:49:26.441287+05:30
Faridabad,Haryana,28.4089,77.3178,36.6,38,0.0,975.1,7.8,28.8,173,301.7,92.2,30.0,723.0,109.0,19.6,0,5,10,1,2026-06-28T20:49:26.441293+05:30
Meerut,Uttar Pradesh,28.9845,77.7064,35.1,50,0.0,972.9,7.6,28.1,190,157.4,81.5,23.8,398.0,124.0,23.2,0,5,10,1,2026-06-28T20:49:26.441300+05:30
Agra,Uttar Pradesh,27.1767,78.0081,35.6,47,0.0,979.3,7.9,44.3,197,266.4,71.7,27.1,254.0,57.0,10.9,0,5,10,1,2026-06-28T20:49:26.441306+05:30
Varanasi,Uttar Pradesh,25.3176,82.9739,34.8,56,0.0,990.5,8.8,33.8,118,84.8,66.8,31.0,510.0,70.0,14.0,0,5,7,1,2026-06-28T20:49:26.441313+05:30
Prayagraj,Uttar Pradesh,25.4358,81.8463,35.6,47,0.0,988.7,8.7,34.9,109,61.0,40.5,14.0,231.0,89.0,9.4,0,5,10,1,2026-06-28T20:49:26.441319+05:30
Gorakhpur,Uttar Pradesh,26.7606,83.3732,31.7,73,0.0,990.0,8.4,33.5,156,87.8,70.3,37.9,561.0,41.0,12.2,3,5,7,1,2026-06-28T20:49:26.441325+05:30
Bareilly,Uttar Pradesh,28.367,79.4304,34.3,56,0.0,978.4,8.1,24.1,153,82.2,51.3,19.8,468.0,80.0,7.4,0,5,7,1,2026-06-28T20:49:26.441335+05:30
Aligarh,Uttar Pradesh,27.8974,78.088,34.8,59,0.0,976.8,7.35,30.6,170,282.2,92.0,35.9,544.0,60.0,11.9,0,5,7,1,2026-06-28T20:49:26.441341+05:30
Moradabad,Uttar Pradesh,28.8386,78.7733,36.1,49,0.0,975.1,7.7,28.8,164,154.6,71.9,21.0,523.0,104.0,12.6,0,5,10,1,2026-06-28T20:49:26.441347+05:30
Saharanpur,Uttar Pradesh,29.9637,77.546,33.0,62,0.0,966.9,7.45,44.3,180,130.4,91.5,34.3,453.0,123.0,21.7,3,5,7,1,2026-06-28T20:49:26.441354+05:30
Jhansi,Uttar Pradesh,25.4484,78.5685,34.6,48,0.0,970.9,3.75,47.2,74,38.0,22.8,7.6,194.0,65.0,3.3,0,5,3,1,2026-06-28T20:49:29.692958+05:30
Surat,Gujarat,21.1702,72.8311,30.7,72,0.0,1002.0,7.55,44.3,77,38.6,22.1,19.3,182.0,37.0,33.0,3,5,4,1,2026-06-28T20:49:29.692996+05:30
Vadodara,Gujarat,22.3072,73.1812,32.2,59,0.1,998.5,8.0,44.3,75,41.4,24.3,13.6,133.0,62.0,15.9,3,5,7,1,2026-06-28T20:49:29.693008+05:30
Rajkot,Gujarat,22.3039,70.8022,32.3,58,0.0,988.7,7.55,39.6,66,30.7,15.0,3.8,112.0,64.0,5.0,0,5,7,1,2026-06-28T20:49:29.693016+05:30
Thane,Maharashtra,19.2183,72.9781,25.1,97,0.3,1005.1,5.15,25.9,55,18.7,10.1,6.9,261.0,46.0,4.5,10,5,0,1,2026-06-28T20:49:29.693025+05:30
Nagpur,Maharashtra,21.1458,79.0882,29.0,82,0.0,968.6,8.85,38.9,96,38.9,33.5,15.7,405.0,80.0,18.8,7,5,7,1,2026-06-28T20:49:29.693032+05:30
Nashik,Maharashtra,19.9975,73.7898,24.6,88,0.0,942.1,7.35,36.7,50,15.3,8.6,5.5,157.0,51.0,1.7,3,5,7,1,2026-06-28T20:49:29.693040+05:30
Aurangabad,Maharashtra,19.8762,75.3433,26.5,75,0.0,940.6,6.9,28.8,60,27.9,19.4,11.1,185.0,54.0,3.8,7,5,7,1,2026-06-28T20:49:29.693046+05:30
Solapur,Maharashtra,17.6599,75.9064,25.0,93,0.2,954.7,8.55,27.7,47,10.7,8.6,5.6,163.0,76.0,2.0,10,5,7,1,2026-06-28T20:49:29.693054+05:30
Kolhapur,Maharashtra,16.705,74.2433,23.3,93,0.0,945.2,7.2,42.8,27,5.0,4.8,6.6,154.0,39.0,2.4,3,5,7,1,2026-06-28T20:49:29.693062+05:30
Goa,Goa,15.2993,74.124,24.6,99,0.1,996.6,4.55,31.3,31,13.2,7.9,2.6,201.0,52.0,0.9,6,5,3,1,2026-06-28T20:49:29.693068+05:30
Jodhpur,Rajasthan,26.2389,73.0243,35.4,37,0.0,975.4,8.4,38.9,131,236.1,51.2,5.0,139.0,64.0,1.7,0,5,10,1,2026-06-28T20:49:29.693075+05:30
Udaipur,Rajasthan,24.5854,73.7125,28.4,76,0.0,940.7,8.65,28.1,66,33.3,18.0,5.9,165.0,65.0,2.2,7,5,7,1,2026-06-28T20:49:29.693083+05:30
Kota,Rajasthan,25.2138,75.8648,31.7,62,0.0,972.6,8.3,36.7,74,26.5,17.4,5.1,193.0,75.0,3.2,3,5,7,1,2026-06-28T20:49:29.693090+05:30
Bikaner,Rajasthan,28.0229,73.3119,37.7,33,0.0,973.1,8.45,37.4,121,98.5,39.0,2.6,134.0,67.0,2.1,0,5,10,1,2026-06-28T20:49:29.693097+05:30
Ajmer,Rajasthan,26.4499,74.6399,32.6,49,0.0,948.4,8.35,47.2,94,77.3,36.0,6.8,181.0,62.0,3.5,0,5,7,1,2026-06-28T20:49:29.693103+05:30
Gwalior,Madhya Pradesh,26.2183,78.1828,34.1,53,0.0,975.7,8.25,52.2,83,94.1,41.1,7.2,179.0,71.0,4.6,0,5,7,1,2026-06-28T20:49:29.693110+05:30
Indore,Madhya Pradesh,22.7196,75.8577,27.2,75,0.0,943.4,8.3,34.6,85,50.8,34.8,13.5,460.0,62.0,6.3,7,5,7,1,2026-06-28T20:49:29.693117+05:30
Bhopal,Madhya Pradesh,23.2599,77.4126,27.9,88,0.0,948.6,8.5,37.1,86,37.0,28.8,7.3,299.0,77.0,3.9,7,5,7,1,2026-06-28T20:49:29.693123+05:30
Jabalpur,Madhya Pradesh,23.1815,79.9864,30.7,66,0.0,956.3,8.85,25.6,80,30.9,26.5,8.1,252.0,93.0,3.9,3,5,7,1,2026-06-28T20:49:29.693130+05:30
Ujjain,Madhya Pradesh,23.1765,75.7885,27.8,74,0.0,948.9,8.5,37.1,80,39.3,27.1,6.5,407.0,68.0,3.2,7,5,7,1,2026-06-28T20:49:29.693138+05:30
Visakhapatnam,Andhra Pradesh,17.6868,83.2185,28.6,89,0.0,999.7,8.25,46.1,79,32.6,26.1,21.1,268.0,87.0,34.5,7,5,7,1,2026-06-28T20:49:29.693145+05:30
Vijayawada,Andhra Pradesh,16.5062,80.648,30.8,74,0.0,998.1,7.45,40.3,82,29.5,27.0,12.5,442.0,72.0,7.7,3,5,7,1,2026-06-28T20:49:29.693152+05:30
Guntur,Andhra Pradesh,16.3067,80.4365,31.2,70,0.0,999.4,6.6,44.3,76,27.7,25.0,13.2,596.0,67.0,6.1,3,5,7,1,2026-06-28T20:49:29.693159+05:30
Nellore,Andhra Pradesh,14.4426,79.9865,27.5,90,0.3,1002.9,8.1,33.1,67,24.9,19.7,4.9,270.0,119.0,6.7,10,5,4,1,2026-06-28T20:49:29.693167+05:30
Kurnool,Andhra Pradesh,15.8281,78.0373,25.6,91,0.1,974.3,7.65,55.8,44,7.2,6.9,9.1,169.0,53.0,7.6,10,5,7,1,2026-06-28T20:49:29.693175+05:30
Kakinada,Andhra Pradesh,16.9891,82.2475,29.1,91,0.0,1003.3,6.85,37.4,78,31.8,23.3,3.1,285.0,121.0,4.9,7,5,4,1,2026-06-28T20:49:29.693182+05:30
Tirupati,Andhra Pradesh,13.6288,79.4192,26.1,95,0.0,988.5,8.75,37.4,56,25.2,19.6,18.0,241.0,53.0,3.6,7,5,7,1,2026-06-28T20:49:29.693189+05:30
Warangal,Telangana,17.9689,79.5941,27.9,81,0.0,975.1,8.2,25.9,74,30.6,27.0,16.0,384.0,49.0,4.8,7,5,7,1,2026-06-28T20:49:29.693195+05:30
Nizamabad,Telangana,18.6725,78.0941,26.1,95,0.0,961.2,8.4,36.0,86,39.0,32.6,18.0,297.0,54.0,4.9,7,5,7,1,2026-06-28T20:49:29.693202+05:30
Mysore,Karnataka,12.2958,76.6396,23.1,86,0.0,927.1,7.45,56.2,28,3.1,2.9,6.5,138.0,42.0,1.7,3,5,7,1,2026-06-28T20:49:29.693209+05:30
Mangalore,Karnataka,12.9141,74.856,25.2,94,0.1,1006.2,8.1,45.0,39,10.7,7.3,4.7,163.0,45.0,1.6,10,5,4,1,2026-06-28T20:49:29.693216+05:30
Hubli-Dharwad,Karnataka,15.3647,75.124,22.9,96,0.0,938.5,7.75,40.3,24,3.5,2.9,5.1,128.0,42.0,1.4,3,5,7,1,2026-06-28T20:49:29.693223+05:30
Belgaum,Karnataka,15.8497,74.4977,21.9,98,0.0,923.2,7.2,45.0,24,4.9,3.6,4.4,123.0,42.0,1.2,3,5,7,1,2026-06-28T20:49:32.960636+05:30
Coimbatore,Tamil Nadu,11.0168,76.9558,23.8,90,0.0,960.0,8.9,60.8,27,4.1,3.7,6.2,163.0,38.0,2.3,3,5,7,1,2026-06-28T20:49:32.960670+05:30
Madurai,Tamil Nadu,9.9252,78.1198,29.7,57,0.0,991.0,8.8,57.6,65,14.5,11.5,16.9,130.0,35.0,4.6,4,5,7,1,2026-06-28T20:49:32.960681+05:30
Trichy,Tamil Nadu,10.7905,78.7047,26.3,97,0.0,998.2,8.65,49.3,48,13.8,10.7,7.9,117.0,70.0,2.7,7,5,7,1,2026-06-28T20:49:32.960690+05:30
Salem,Tamil Nadu,11.6643,78.146,26.2,91,0.0,975.5,8.85,43.6,54,11.9,9.1,9.7,354.0,60.0,6.7,7,5,7,1,2026-06-28T20:49:32.960698+05:30
Tirunelveli,Tamil Nadu,8.7139,77.7567,30.1,59,0.0,1001.9,8.65,46.4,33,4.6,3.8,4.7,120.0,43.0,1.3,0,5,4,1,2026-06-28T20:49:32.960705+05:30
Vellore,Tamil Nadu,12.9165,79.1325,27.3,91,0.0,982.1,8.95,31.0,58,16.6,12.6,7.7,185.0,73.0,3.4,7,5,7,1,2026-06-28T20:49:32.960712+05:30
Erode,Tamil Nadu,11.341,77.7172,27.6,72,0.0,987.4,8.85,51.1,43,8.2,7.0,9.4,167.0,44.0,2.5,7,5,7,1,2026-06-28T20:49:32.960720+05:30
Kochi,Kerala,9.9312,76.2673,24.9,94,0.3,1009.3,8.55,43.9,49,11.8,8.9,10.0,123.0,32.0,3.0,6,0,4,1,2026-06-28T20:49:32.960727+05:30
Thiruvananthapuram,Kerala,8.5241,76.9366,24.6,96,0.1,1008.9,7.65,46.8,37,11.4,6.3,2.5,118.0,51.0,0.8,6,0,4,1,2026-06-28T20:49:32.960734+05:30
Kozhikode,Kerala,11.2588,75.7804,24.0,98,0.3,1008.3,8.55,39.2,35,11.5,6.0,1.0,158.0,55.0,0.5,6,0,4,1,2026-06-28T20:49:32.960740+05:30
Thrissur,Kerala,10.5276,76.2144,24.4,99,0.1,1007.2,8.55,39.2,51,12.3,9.9,7.9,179.0,34.0,2.3,6,5,4,1,2026-06-28T20:49:32.960748+05:30
Kannur,Kerala,11.8745,75.3704,24.8,97,0.3,1006.9,8.6,41.8,40,11.1,7.3,5.0,156.0,43.0,1.2,6,5,4,1,2026-06-28T20:49:32.960754+05:30
Patna,Bihar,25.5941,85.1376,32.9,71,0.0,993.3,7.55,35.3,153,80.8,71.9,31.2,322.0,84.0,16.2,3,5,7,1,2026-06-28T20:49:32.960760+05:30
Gaya,Bihar,24.7914,85.0002,32.9,65,0.0,986.9,8.6,35.6,120,70.3,65.9,31.4,289.0,67.0,15.1,3,5,7,1,2026-06-28T20:49:32.960767+05:30
Muzaffarpur,Bihar,26.1209,85.3647,29.1,89,0.0,993.6,8.2,29.5,157,79.6,73.6,29.9,457.0,85.0,15.0,7,5,7,1,2026-06-28T20:49:32.960773+05:30
Bhagalpur,Bihar,25.2425,87.0117,31.7,74,0.3,994.2,7.75,30.6,149,50.6,48.3,13.4,305.0,114.0,14.2,6,5,7,1,2026-06-28T20:49:32.960780+05:30
Ranchi,Jharkhand,23.3441,85.3096,25.9,87,0.0,932.8,9.0,31.3,115,44.7,43.9,11.1,261.0,94.0,7.2,7,5,7,1,2026-06-28T20:49:32.960786+05:30
Jamshedpur,Jharkhand,22.8046,86.2029,29.7,83,0.0,985.1,8.85,31.3,159,48.5,47.1,17.0,700.0,109.0,26.0,7,5,7,1,2026-06-28T20:49:32.960792+05:30
Dhanbad,Jharkhand,23.7957,86.4304,30.2,80,0.0,973.9,8.85,38.9,155,67.1,66.1,42.6,828.0,87.0,111.7,3,5,7,1,2026-06-28T20:49:32.960798+05:30
Bokaro,Jharkhand,23.6693,86.1511,30.9,73,0.0,977.8,8.95,35.3,153,52.9,52.0,27.7,634.0,90.0,71.4,3,5,7,1,2026-06-28T20:49:32.960805+05:30
Bhubaneswar,Odisha,20.2961,85.8245,28.1,93,0.0,997.6,8.35,35.3,115,36.4,35.3,9.6,210.0,112.0,8.5,7,5,7,1,2026-06-28T20:49:32.960812+05:30
Cuttack,Odisha,20.4625,85.8828,28.3,96,0.0,999.3,8.85,27.4,115,36.4,35.3,9.6,259.0,112.0,8.5,7,5,7,1,2026-06-28T20:49:32.960818+05:30
Rourkela,Odisha,22.2604,84.8536,29.5,78,0.0,979.8,9.0,31.3,149,49.4,47.4,12.0,525.0,138.0,21.9,7,5,7,1,2026-06-28T20:49:32.960825+05:30
Raipur,Chhattisgarh,21.2514,81.6296,27.4,93,0.0,969.7,8.95,31.0,114,41.1,38.3,23.9,436.0,81.0,46.3,7,5,7,1,2026-06-28T20:49:32.960831+05:30
Bhilai,Chhattisgarh,21.1938,81.3509,28.0,87,0.0,970.3,8.65,31.3,111,38.5,35.5,21.2,1102.0,86.0,40.7,7,5,7,1,2026-06-28T20:49:32.960837+05:30
Guwahati,Assam,26.1158,91.7086,28.0,91,0.0,995.4,7.05,46.4,66,18.6,17.9,7.8,318.0,63.0,3.0,7,5,7,1,2026-06-28T20:49:32.960843+05:30
Agartala,Tripura,23.8315,91.2868,28.6,82,0.0,1001.8,7.5,40.7,49,12.7,11.7,7.8,190.0,45.0,1.9,7,5,4,1,2026-06-28T20:49:32.960849+05:30
Shillong,Meghalaya,25.5788,91.8933,21.2,92,0.0,854.4,6.65,42.1,38,8.6,8.4,6.1,207.0,68.0,1.5,3,5,7,1,2026-06-28T20:49:32.960855+05:30
Imphal,Manipur,24.817,93.9368,24.7,88,0.0,919.8,8.85,36.7,51,19.4,19.1,14.5,350.0,26.0,3.4,3,5,7,1,2026-06-28T20:49:32.960861+05:30
Aizawl,Mizoram,23.7271,92.7176,20.9,90,0.0,890.0,8.35,34.2,30,5.2,4.8,3.1,129.0,53.0,1.0,3,5,7,1,2026-06-28T20:49:32.960868+05:30
Kohima,Nagaland,25.6701,94.1077,20.6,96,0.0,852.3,9.0,28.8,36,12.0,11.4,9.7,327.0,36.0,1.7,3,5,7,1,2026-06-28T20:49:32.960874+05:30
Gangtok,Sikkim,27.3314,88.6138,19.1,93,1.4,834.2,5.95,36.0,65,13.4,12.3,11.3,340.0,93.0,2.6,6,10,3,1,2026-06-28T20:49:32.960880+05:30
Siliguri,West Bengal,26.7271,88.3953,26.3,98,0.1,987.3,6.9,27.0,78,33.4,30.6,13.0,547.0,100.0,5.2,10,5,7,1,2026-06-28T20:49:36.224920+05:30
Durgapur,West Bengal,23.5204,87.3119,29.7,86,0.0,989.0,8.85,30.2,163,77.8,76.6,28.7,616.0,112.0,62.3,7,5,7,1,2026-06-28T20:49:36.224956+05:30
Asansol,West Bengal,23.6739,86.9524,30.1,82,0.0,987.6,8.85,36.7,158,66.1,65.2,31.4,429.0,104.0,67.1,3,5,7,1,2026-06-28T20:49:36.224968+05:30
Pondicherry,Puducherry,11.9139,79.8145,28.5,79,0.0,1006.8,8.7,43.9,81,25.2,17.6,6.3,213.0,95.0,4.4,7,5,4,1,2026-06-28T20:49:36.224977+05:30
Port Blair,Andaman and Nicobar Islands,11.6234,92.7265,25.6,96,0.0,1007.3,3.8,39.6,21,8.0,4.8,0.3,88.0,48.0,0.2,7,5,0,1,2026-06-28T20:49:36.224986+05:30
Haridwar,Uttarakhand,29.9457,78.1642,31.7,64,0.0,965.6,7.6,36.7,168,92.2,66.4,11.7,326.0,150.0,12.3,3,5,7,1,2026-06-28T20:49:36.224994+05:30
Rishikesh,Uttarakhand,30.0869,78.2676,29.7,72,0.0,958.6,7.7,26.3,136,78.9,50.6,9.9,308.0,111.0,6.3,7,5,7,1,2026-06-28T20:49:36.225001+05:30
Nainital,Uttarakhand,29.3919,79.4542,17.9,100,0.0,802.2,8.0,32.0,151,99.0,47.1,5.8,359.0,138.0,9.6,3,10,7,1,2026-06-28T20:49:36.225009+05:30
Mussoorie,Uttarakhand,30.4599,78.0664,18.7,89,0.0,799.6,7.35,39.2,157,75.7,53.6,9.7,378.0,138.0,8.2,3,10,7,1,2026-06-28T20:49:36.225016+05:30
Dharamshala,Himachal Pradesh,32.219,76.3234,23.5,85,0.0,864.1,7.55,33.8,84,16.5,13.9,11.2,362.0,75.0,0.7,3,5,7,1,2026-06-28T20:49:36.225023+05:30
Dalhousie,Himachal Pradesh,32.5387,75.971,18.5,94,0.0,800.6,7.85,30.2,125,47.3,35.7,15.2,552.0,122.0,3.5,3,10,7,1,2026-06-28T20:49:36.225030+05:30
Patiala,Punjab,30.3398,76.3869,34.7,53,0.0,969.2,7.6,38.2,169,114.1,63.1,17.0,497.0,94.0,7.4,0,5,7,1,2026-06-28T20:49:36.225038+05:30
Bhatinda,Punjab,30.211,74.9455,35.7,54,0.0,974.2,8.3,46.1,158,81.3,60.3,40.7,439.0,59.0,9.1,0,5,10,1,2026-06-28T20:49:36.225045+05:30
Rohtak,Haryana,28.8955,76.6066,33.6,60,0.0,973.0,7.75,36.7,166,233.3,84.1,22.3,563.0,98.0,11.1,0,5,7,1,2026-06-28T20:49:36.225053+05:30
Panipat,Haryana,29.3909,76.9635,33.7,62,0.0,971.6,7.6,33.8,181,288.7,91.5,20.1,517.0,98.0,10.0,3,5,7,1,2026-06-28T20:49:36.225060+05:30
Mathura,Uttar Pradesh,27.4924,77.6737,34.6,55,0.0,978.2,7.45,32.4,194,144.8,63.3,43.2,474.0,48.0,8.1,0,5,7,1,2026-06-28T20:49:36.225066+05:30
Vrindavan,Uttar Pradesh,27.5823,77.7027,34.1,59,0.0,978.5,7.4,28.8,194,144.8,63.3,43.2,432.0,48.0,8.1,0,5,7,1,2026-06-28T20:49:36.225073+05:30
Ayodhya,Uttar Pradesh,26.7922,82.1998,31.9,74,0.0,987.9,8.45,22.0,136,103.4,71.2,36.8,409.0,53.0,11.1,3,5,7,1,2026-06-28T20:49:36.225079+05:30
Ratlam,Madhya Pradesh,23.3315,75.0367,27.1,77,0.0,949.6,8.4,31.0,78,43.1,27.8,5.5,303.0,71.0,3.5,7,5,7,1,2026-06-28T20:49:36.225086+05:30
Sagar,Madhya Pradesh,23.8388,78.7378,28.6,74,0.0,945.1,8.4,36.0,74,31.9,22.6,6.3,194.0,78.0,2.3,7,5,7,1,2026-06-28T20:49:36.225093+05:30
Satna,Madhya Pradesh,24.6005,80.8322,33.5,53,0.0,965.3,8.8,32.0,75,43.3,28.8,11.0,265.0,71.0,3.7,0,5,7,1,2026-06-28T20:49:36.225100+05:30
Akola,Maharashtra,20.7002,77.0082,28.7,78,0.0,970.6,8.2,31.7,81,37.8,26.5,14.3,184.0,59.0,5.9,7,5,7,1,2026-06-28T20:49:36.225107+05:30
Amravati,Maharashtra,20.9374,77.7796,28.2,79,0.0,962.9,8.05,26.6,78,37.4,28.0,15.4,220.0,60.0,7.1,7,5,7,1,2026-06-28T20:49:36.225114+05:30
Latur,Maharashtra,18.4088,76.5604,24.3,93,0.1,936.6,8.1,38.9,77,17.4,13.8,5.4,205.0,82.0,1.9,6,5,7,1,2026-06-28T20:49:36.225121+05:30
Nanded,Maharashtra,19.1383,77.3091,26.5,93,0.2,965.0,7.2,36.0,73,22.1,16.6,6.7,242.0,85.0,2.8,10,5,7,1,2026-06-28T20:49:36.225127+05:30
Gulbarga,Karnataka,17.3297,76.8343,24.6,94,0.2,956.0,7.95,26.3,51,9.0,7.1,7.3,163.0,66.0,1.9,6,5,7,1,2026-06-28T20:49:36.225133+05:30
Bidar,Karnataka,17.9104,77.5199,24.2,96,0.0,932.4,8.15,26.3,60,13.4,11.4,9.0,191.0,75.0,1.4,3,5,7,1,2026-06-28T20:49:36.225141+05:30
Hospet,Karnataka,15.2689,76.3909,23.9,93,0.0,953.5,8.9,47.2,28,4.4,3.5,5.3,141.0,44.0,1.5,3,5,7,1,2026-06-28T20:49:36.225147+05:30
Tirupur,Tamil Nadu,11.1085,77.3411,24.9,85,0.0,973.2,8.9,63.4,45,9.2,8.3,12.0,143.0,39.0,3.6,3,5,7,1,2026-06-28T20:49:36.225153+05:30
Alappuzha,Kerala,9.4981,76.3388,25.9,95,0.1,1009.3,8.5,42.1,45,13.6,8.6,5.7,87.0,44.0,1.8,10,0,4,1,2026-06-28T20:49:36.225159+05:30
Munnar,Kerala,10.0889,77.0595,17.2,100,0.1,856.0,8.25,41.4,25,3.2,3.0,6.3,95.0,35.0,1.3,6,10,7,1,2026-06-28T20:49:36.225165+05:30
Silchar,Assam,24.8333,92.7789,26.3,96,0.1,1001.5,8.3,31.7,55,21.6,21.1,11.2,222.0,46.0,4.7,10,5,4,1,2026-06-28T20:49:36.225173+05:30
Dibrugarh,Assam,27.4728,94.912,25.1,96,0.0,989.8,3.95,40.3,58,13.5,12.6,8.0,201.0,64.0,1.4,7,5,3,1,2026-06-28T20:49:36.225179+05:30
