city,state,latitude,longitude,temp,humidity,rain,pressure,uv_index,wind_gusts,aqi,pm10,pm2_5,no2,co,o3,so2,mosquito_risk,arthritis_risk,migraine_risk,frizz_risk,updated_at
Delhi,Delhi,28.6139,77.209,28.7,75,0.0,972.8,7.65,25.9,728,534.6,152.7,43.8,202.0,25.0,16.2,7,5,7,1,2026-07-13T04:22:31.752149+05:30
Mumbai,Maharashtra,19.076,72.8777,27.5,84,0.0,1004.9,4.35,49.7,52,17.9,10.2,4.1,100.0,45.0,4.1,7,5,0,1,2026-07-13T04:22:31.752190+05:30
Bangalore,Karnataka,12.9716,77.5946,19.8,93,0.0,909.3,8.9,48.6,51,16.1,8.6,7.0,130.0,34.0,3.6,3,10,7,1,2026-07-13T04:22:31.752209+05:30
Hyderabad,Telangana,17.385,78.4867,25.5,68,0.0,948.9,8.95,47.5,60,27.1,15.0,5.6,124.0,40.0,3.8,7,5,7,1,2026-07-13T04:22:31.752250+05:30
Chennai,Tamil Nadu,13.0827,80.2707,29.6,66,0.0,1002.1,7.5,40.7,68,27.8,19.6,14.6,195.0,46.0,9.1,7,5,4,1,2026-07-13T04:22:31.752260+05:30
Kolkata,West Bengal,22.5726,88.3639,28.0,90,0.0,996.5,5.7,22.0,141,72.9,59.1,17.3,403.0,55.0,10.0,7,5,3,1,2026-07-13T04:22:31.752268+05:30
Pune,Maharashtra,18.5204,73.8567,23.1,88,0.0,944.1,8.4,53.3,35,7.6,4.1,4.0,93.0,38.0,4.2,3,5,7,1,2026-07-13T04:22:31.752275+05:30
Ahmedabad,Gujarat,23.0225,72.5714,27.5,79,0.0,995.5,8.15,48.6,66,22.6,11.8,5.1,109.0,39.0,3.6,7,5,7,1,2026-07-13T04:22:31.752281+05:30
Jaipur,Rajasthan,26.9124,75.7873,28.1,68,0.0,950.9,8.2,36.7,366,489.9,94.8,8.5,129.0,50.0,4.7,7,5,7,1,2026-07-13T04:22:31.752288+05:30
Lucknow,Uttar Pradesh,26.8467,80.9462,28.8,74,0.0,982.8,8.2,36.4,119,74.3,38.8,10.7,182.0,62.0,7.2,7,5,7,1,2026-07-13T04:22:31.752298+05:30
Kanpur,Uttar Pradesh,26.4499,80.3319,29.6,70,0.0,981.6,8.2,37.8,109,88.5,38.2,12.3,180.0,54.0,8.2,7,5,7,1,2026-07-13T04:22:31.752305+05:30
Chandigarh,Chandigarh,30.7333,76.7794,26.5,72,0.0,958.1,7.7,24.8,157,101.7,65.2,34.5,365.0,32.0,9.9,7,5,7,1,2026-07-13T04:22:31.752312+05:30
Srinagar,Jammu and Kashmir,34.0837,74.7973,15.9,98,0.0,836.2,8.9,22.0,55,45.3,41.6,17.5,376.0,55.0,1.9,3,10,7,0,2026-07-13T04:22:31.752319+05:30
Jammu,Jammu and Kashmir,32.7266,74.857,25.5,86,0.0,962.7,8.55,24.1,136,75.0,54.8,44.4,523.0,1.0,3.6,7,5,7,1,2026-07-13T04:22:31.752326+05:30
Amritsar,Punjab,31.634,74.8723,26.0,90,0.0,970.4,8.45,18.4,165,171.4,118.5,53.4,680.0,14.0,7.3,7,5,7,1,2026-07-13T04:22:31.752332+05:30
Ludhiana,Punjab,30.901,75.8573,26.1,96,0.0,968.1,7.9,23.0,168,126.2,89.2,38.7,425.0,39.0,8.6,7,5,7,1,2026-07-13T04:22:31.752341+05:30
Jalandhar,Punjab,31.326,75.5762,26.1,90,0.0,969.1,8.15,20.9,161,125.3,88.2,41.1,461.0,34.0,6.8,7,5,7,1,2026-07-13T04:22:31.752347+05:30
Dehradun,Uttarakhand,30.6284,78.0322,17.6,96,0.0,822.8,8.15,28.8,82,52.3,30.5,14.3,238.0,69.0,1.9,3,10,7,1,2026-07-13T04:22:31.752353+05:30
Shimla,Himachal Pradesh,31.1048,77.1734,16.6,69,0.0,778.0,8.25,35.6,95,63.6,34.9,13.5,218.0,67.0,3.4,3,5,7,0,2026-07-13T04:22:31.752358+05:30
Manali,Himachal Pradesh,32.2396,77.1887,17.1,81,0.1,811.8,9.35,32.4,48,3.4,3.2,8.3,199.0,103.0,0.0,6,10,7,0,2026-07-13T04:22:31.752367+05:30
Gurgaon,Haryana,28.4595,77.0266,28.5,74,0.0,971.4,7.6,30.2,741,780.4,159.7,22.5,207.0,42.0,9.3,7,5,7,1,2026-07-13T04:22:31.752374+05:30
Noida,Uttar Pradesh,28.5355,77.391,29.1,74,0.0,974.2,7.65,24.8,741,780.4,159.7,22.5,215.0,42.0,9.3,7,5,7,1,2026-07-13T04:22:31.752380+05:30
Ghaziabad,Uttar Pradesh,28.6692,77.4538,29.0,78,0.0,972.4,7.6,26.6,586,523.4,180.2,55.5,239.0,16.0,23.4,7,5,7,1,2026-07-13T04:22:31.752387+05:30
Faridabad,Haryana,28.4089,77.3178,29.0,73,0.0,973.5,7.65,27.7,741,780.4,159.7,22.5,205.0,42.0,9.3,7,5,7,1,2026-07-13T04:22:31.752393+05:30
Meerut,Uttar Pradesh,28.9845,77.7064,27.9,85,0.0,971.1,7.25,28.1,586,523.4,180.2,55.5,452.0,16.0,23.4,7,5,7,1,2026-07-13T04:22:31.752399+05:30
Agra,Uttar Pradesh,27.1767,78.0081,29.2,70,0.0,977.8,8.0,38.9,134,163.0,42.0,15.9,198.0,43.0,5.0,7,5,7,1,2026-07-13T04:22:31.752405+05:30
Varanasi,Uttar Pradesh,25.3176,82.9739,29.1,70,0.0,987.7,8.7,36.0,99,53.4,35.2,11.6,179.0,49.0,6.9,7,5,7,1,2026-07-13T04:22:31.752412+05:30
Prayagraj,Uttar Pradesh,25.4358,81.8463,29.4,68,0.0,986.4,8.55,40.7,96,54.6,34.8,11.1,169.0,51.0,5.7,7,5,7,1,2026-07-13T04:22:31.752418+05:30
Gorakhpur,Uttar Pradesh,26.7606,83.3732,26.8,96,0.0,986.6,8.45,28.8,134,65.9,48.3,31.7,227.0,18.0,6.4,7,5,7,1,2026-07-13T04:22:31.752424+05:30
Bareilly,Uttar Pradesh,28.367,79.4304,28.1,87,0.0,976.0,8.0,29.2,175,168.6,72.6,24.2,344.0,29.0,6.0,7,5,7,1,2026-07-13T04:22:31.752432+05:30
Aligarh,Uttar Pradesh,27.8974,78.088,29.3,70,0.0,975.3,7.85,32.8,569,752.5,172.8,13.5,205.0,51.0,4.8,7,5,7,1,2026-07-13T04:22:31.752439+05:30
Moradabad,Uttar Pradesh,28.8386,78.7733,27.6,92,0.0,973.0,7.85,38.2,325,434.9,169.5,30.7,386.0,30.0,14.4,7,5,7,1,2026-07-13T04:22:31.752445+05:30
Saharanpur,Uttar Pradesh,29.9637,77.546,25.8,83,0.0,965.1,7.35,28.1,177,316.6,137.8,48.7,313.0,19.0,13.9,7,5,7,1,2026-07-13T04:22:31.752451+05:30
Jhansi,Uttar Pradesh,25.4484,78.5685,28.9,69,0.0,969.7,8.45,43.6,89,56.9,33.9,7.5,141.0,66.0,10.2,7,5,7,1,2026-07-13T04:22:35.123849+05:30
Surat,Gujarat,21.1702,72.8311,28.2,82,0.0,1001.3,7.05,61.2,57,16.7,11.1,11.9,181.0,36.0,20.6,7,5,4,1,2026-07-13T04:22:35.123880+05:30
Vadodara,Gujarat,22.3072,73.1812,27.4,83,0.0,998.4,7.9,56.5,58,14.3,8.3,5.4,94.0,40.0,5.1,7,5,7,1,2026-07-13T04:22:35.123890+05:30
Rajkot,Gujarat,22.3039,70.8022,26.6,82,0.0,987.3,7.7,56.9,56,20.8,9.9,2.9,88.0,43.0,2.4,7,5,7,1,2026-07-13T04:22:35.123899+05:30
Thane,Maharashtra,19.2183,72.9781,26.7,88,0.0,1004.3,5.1,45.4,52,17.9,10.2,4.1,114.0,45.0,4.1,7,5,0,1,2026-07-13T04:22:35.123907+05:30
Nagpur,Maharashtra,21.1458,79.0882,27.0,75,0.0,967.2,8.7,41.4,80,49.9,29.4,10.5,200.0,41.0,7.0,7,5,7,1,2026-07-13T04:22:35.123915+05:30
Nashik,Maharashtra,19.9975,73.7898,22.7,93,0.0,940.8,8.1,57.2,35,8.9,5.6,6.8,104.0,31.0,5.2,3,5,7,1,2026-07-13T04:22:35.123923+05:30
Aurangabad,Maharashtra,19.8762,75.3433,23.0,91,0.0,939.5,8.95,50.0,53,17.1,8.4,7.9,119.0,32.0,9.2,3,5,7,1,2026-07-13T04:22:35.123931+05:30
Solapur,Maharashtra,17.6599,75.9064,23.7,84,0.0,953.9,8.9,44.6,50,15.1,8.4,5.8,117.0,31.0,2.5,3,5,7,1,2026-07-13T04:22:35.123938+05:30
Kolhapur,Maharashtra,16.705,74.2433,23.0,94,0.0,945.3,8.9,50.4,34,7.9,4.4,2.4,101.0,39.0,1.7,3,5,7,1,2026-07-13T04:22:35.123945+05:30
Goa,Goa,15.2993,74.124,25.2,96,0.1,996.7,6.1,39.6,52,24.7,13.2,3.2,245.0,38.0,1.1,10,5,7,1,2026-07-13T04:22:35.123952+05:30
Jodhpur,Rajasthan,26.2389,73.0243,28.0,72,0.0,974.2,8.45,47.2,157,289.6,62.6,2.7,99.0,50.0,2.4,7,5,7,1,2026-07-13T04:22:35.123959+05:30
Udaipur,Rajasthan,24.5854,73.7125,24.1,84,0.0,938.9,8.45,48.6,75,31.0,14.4,4.1,107.0,44.0,4.0,3,5,7,1,2026-07-13T04:22:35.123967+05:30
Kota,Rajasthan,25.2138,75.8648,27.9,79,0.0,970.9,8.3,42.8,87,38.2,23.3,7.2,124.0,48.0,7.8,7,5,7,1,2026-07-13T04:22:35.123975+05:30
Bikaner,Rajasthan,28.0229,73.3119,30.7,61,0.0,971.5,8.45,36.7,160,229.6,80.6,2.4,96.0,52.0,3.5,3,5,7,1,2026-07-13T04:22:35.123982+05:30
Ajmer,Rajasthan,26.4499,74.6399,26.0,75,0.0,946.1,8.35,52.6,83,44.2,24.9,4.7,103.0,57.0,3.8,7,5,7,1,2026-07-13T04:22:35.123989+05:30
Gwalior,Madhya Pradesh,26.2183,78.1828,28.5,72,0.0,974.3,8.2,43.2,86,51.8,31.1,6.7,139.0,64.0,6.8,7,5,7,1,2026-07-13T04:22:35.123996+05:30
Indore,Madhya Pradesh,22.7196,75.8577,24.1,89,0.0,942.3,8.6,55.4,68,18.4,10.4,7.2,133.0,34.0,7.8,3,5,7,1,2026-07-13T04:22:35.124003+05:30
Bhopal,Madhya Pradesh,23.2599,77.4126,25.2,86,0.0,947.0,7.9,44.3,77,23.9,13.7,5.8,152.0,46.0,6.0,7,5,7,1,2026-07-13T04:22:35.124011+05:30
Jabalpur,Madhya Pradesh,23.1815,79.9864,25.9,83,0.0,954.6,6.7,36.4,80,54.8,33.4,6.3,209.0,61.0,4.9,7,5,7,1,2026-07-13T04:22:35.124018+05:30
Ujjain,Madhya Pradesh,23.1765,75.7885,24.8,87,0.0,947.7,7.95,52.9,68,18.7,10.7,7.3,147.0,34.0,8.3,3,5,7,1,2026-07-13T04:22:35.124026+05:30
Visakhapatnam,Andhra Pradesh,17.6868,83.2185,28.6,67,0.0,996.2,8.2,31.7,96,55.3,33.3,22.0,299.0,38.0,34.1,7,5,7,1,2026-07-13T04:22:35.124033+05:30
Vijayawada,Andhra Pradesh,16.5062,80.648,30.7,51,0.0,996.4,8.7,49.7,83,40.7,28.7,13.9,310.0,43.0,5.3,0,5,7,1,2026-07-13T04:22:35.124041+05:30
Guntur,Andhra Pradesh,16.3067,80.4365,31.6,47,0.0,997.7,8.25,47.9,79,39.1,26.5,14.1,294.0,37.0,5.8,0,5,7,1,2026-07-13T04:22:35.124048+05:30
Nellore,Andhra Pradesh,14.4426,79.9865,30.8,53,0.0,1000.7,8.7,49.7,65,30.4,19.0,11.4,185.0,48.0,7.8,0,5,4,1,2026-07-13T04:22:35.124056+05:30
Kurnool,Andhra Pradesh,15.8281,78.0373,26.5,71,0.0,973.7,8.9,49.3,56,24.0,12.7,6.7,117.0,35.0,3.8,7,5,7,1,2026-07-13T04:22:35.124064+05:30
Kakinada,Andhra Pradesh,16.9891,82.2475,28.5,72,0.0,1000.5,6.45,44.6,85,47.4,28.5,8.0,270.0,66.0,4.5,7,5,4,1,2026-07-13T04:22:35.124072+05:30
Tirupati,Andhra Pradesh,13.6288,79.4192,28.1,61,0.0,986.7,8.3,39.6,78,31.3,18.2,12.4,98.0,31.0,1.9,7,5,7,1,2026-07-13T04:22:35.124078+05:30
Warangal,Telangana,17.9689,79.5941,28.3,62,0.0,973.1,8.75,45.0,78,29.6,19.2,8.5,117.0,43.0,3.2,7,5,7,1,2026-07-13T04:22:35.124085+05:30
Nizamabad,Telangana,18.6725,78.0941,25.7,73,0.0,960.1,8.8,46.1,65,24.6,14.0,6.8,118.0,42.0,6.2,7,5,7,1,2026-07-13T04:22:35.124092+05:30
Mysore,Karnataka,12.2958,76.6396,20.4,96,0.0,926.6,9.0,44.6,45,12.8,6.7,5.1,105.0,34.0,2.0,3,5,7,1,2026-07-13T04:22:35.124099+05:30
Mangalore,Karnataka,12.9141,74.856,25.5,97,0.0,1006.0,8.7,47.2,46,21.9,11.6,4.6,97.0,30.0,2.0,7,5,4,1,2026-07-13T04:22:35.124106+05:30
Hubli-Dharwad,Karnataka,15.3647,75.124,22.0,94,0.0,938.6,8.95,50.8,32,13.4,6.9,2.9,98.0,36.0,1.5,3,5,7,1,2026-07-13T04:22:35.124113+05:30
Belgaum,Karnataka,15.8497,74.4977,21.5,95,0.0,923.4,9.0,50.8,29,8.4,4.8,3.1,97.0,37.0,1.7,3,5,7,1,2026-07-13T04:22:38.480918+05:30
Coimbatore,Tamil Nadu,11.0168,76.9558,23.4,94,0.0,959.5,8.45,54.4,43,17.6,9.1,6.5,135.0,26.0,2.7,3,5,7,1,2026-07-13T04:22:38.480950+05:30
Madurai,Tamil Nadu,9.9252,78.1198,26.8,67,0.0,990.1,8.65,43.2,62,15.8,13.0,17.2,106.0,11.0,4.3,7,5,7,1,2026-07-13T04:22:38.480961+05:30
Trichy,Tamil Nadu,10.7905,78.7047,27.4,70,0.0,996.5,8.25,52.6,58,19.7,9.3,3.3,94.0,40.0,2.3,7,5,7,1,2026-07-13T04:22:38.480969+05:30
Salem,Tamil Nadu,11.6643,78.146,24.0,90,0.0,975.1,8.75,34.6,64,30.6,19.8,18.3,124.0,19.0,5.5,3,5,7,1,2026-07-13T04:22:38.480978+05:30
Tirunelveli,Tamil Nadu,8.7139,77.7567,27.7,66,0.0,1000.3,8.2,50.8,32,14.7,7.6,4.1,113.0,34.0,1.9,7,5,4,1,2026-07-13T04:22:38.480986+05:30
Vellore,Tamil Nadu,12.9165,79.1325,28.0,60,0.0,980.5,8.05,47.2,67,24.2,13.7,6.9,127.0,41.0,3.7,4,5,7,1,2026-07-13T04:22:38.480995+05:30
Erode,Tamil Nadu,11.341,77.7172,25.3,82,0.0,986.9,8.45,52.6,54,22.8,13.0,10.5,150.0,27.0,3.4,7,5,7,1,2026-07-13T04:22:38.481002+05:30
Kochi,Kerala,9.9312,76.2673,26.5,88,0.0,1008.2,8.1,46.1,46,18.5,10.5,6.5,87.0,26.0,2.6,7,0,4,1,2026-07-13T04:22:38.481010+05:30
Thiruvananthapuram,Kerala,8.5241,76.9366,24.4,95,0.0,1007.4,8.0,51.5,40,18.8,9.5,3.0,139.0,39.0,1.4,3,5,4,1,2026-07-13T04:22:38.481016+05:30
Kozhikode,Kerala,11.2588,75.7804,24.5,98,0.0,1007.4,8.35,45.4,40,22.5,9.3,1.4,124.0,45.0,1.0,3,5,4,1,2026-07-13T04:22:38.481024+05:30
Thrissur,Kerala,10.5276,76.2144,25.3,91,0.0,1006.5,7.8,46.4,44,19.2,10.5,4.8,153.0,31.0,2.3,7,5,4,1,2026-07-13T04:22:38.481031+05:30
Kannur,Kerala,11.8745,75.3704,24.9,98,0.1,1006.7,8.75,46.4,43,23.8,11.4,3.7,129.0,32.0,1.8,6,5,4,1,2026-07-13T04:22:38.481039+05:30
Patna,Bihar,25.5941,85.1376,26.8,94,0.0,990.5,8.0,21.2,146,112.5,78.7,35.9,239.0,21.0,11.4,7,5,7,1,2026-07-13T04:22:38.481046+05:30
Gaya,Bihar,24.7914,85.0002,28.8,77,0.0,984.2,4.85,28.1,124,73.3,52.5,19.2,224.0,35.0,8.8,7,5,3,1,2026-07-13T04:22:38.481053+05:30
Muzaffarpur,Bihar,26.1209,85.3647,26.9,98,0.1,990.8,8.2,26.3,143,97.3,61.7,24.7,368.0,39.0,8.1,10,5,7,1,2026-07-13T04:22:38.481060+05:30
Bhagalpur,Bihar,25.2425,87.0117,26.9,95,0.0,992.0,3.8,25.6,130,75.7,54.5,26.2,361.0,22.0,6.7,7,5,3,1,2026-07-13T04:22:38.481067+05:30
Ranchi,Jharkhand,23.3441,85.3096,25.4,80,0.0,929.7,8.0,31.0,100,75.0,46.2,14.2,200.0,48.0,13.2,7,5,7,1,2026-07-13T04:22:38.481074+05:30
Jamshedpur,Jharkhand,22.8046,86.2029,26.7,90,0.0,982.0,7.7,27.4,121,66.6,47.0,19.2,216.0,51.0,25.2,7,5,7,1,2026-07-13T04:22:38.481082+05:30
Dhanbad,Jharkhand,23.7957,86.4304,27.0,92,0.0,970.7,4.55,20.9,155,132.2,97.6,58.5,342.0,8.0,145.3,7,5,3,1,2026-07-13T04:22:38.481089+05:30
Bokaro,Jharkhand,23.6693,86.1511,27.9,80,0.0,974.7,5.1,24.8,152,111.5,82.9,36.1,180.0,23.0,112.3,7,5,3,1,2026-07-13T04:22:38.481097+05:30
Bhubaneswar,Odisha,20.2961,85.8245,28.5,82,0.0,993.8,7.5,26.6,110,53.4,34.0,8.4,289.0,66.0,6.1,7,5,7,1,2026-07-13T04:22:38.481105+05:30
Cuttack,Odisha,20.4625,85.8828,28.9,82,0.0,995.6,7.8,27.7,110,53.4,34.0,8.4,280.0,66.0,6.1,7,5,7,1,2026-07-13T04:22:38.481112+05:30
Rourkela,Odisha,22.2604,84.8536,27.8,77,0.0,976.6,8.9,23.4,101,53.7,34.3,16.8,280.0,40.0,18.1,7,5,7,1,2026-07-13T04:22:38.481119+05:30
Raipur,Chhattisgarh,21.2514,81.6296,26.6,78,0.0,967.7,8.65,37.8,97,63.6,39.8,30.0,434.0,32.0,48.5,7,5,7,1,2026-07-13T04:22:38.481126+05:30
Bhilai,Chhattisgarh,21.1938,81.3509,26.4,79,0.0,968.2,8.8,39.2,92,63.6,37.5,23.3,599.0,35.0,36.3,7,5,7,1,2026-07-13T04:22:38.481133+05:30
Guwahati,Assam,26.1158,91.7086,25.8,99,0.1,992.7,1.75,23.8,50,11.1,10.5,5.8,272.0,58.0,2.1,10,5,3,1,2026-07-13T04:22:38.481141+05:30
Agartala,Tripura,23.8315,91.2868,25.2,98,0.0,997.7,1.75,31.0,78,22.8,19.0,6.6,184.0,85.0,2.9,7,5,3,1,2026-07-13T04:22:38.481148+05:30
Shillong,Meghalaya,25.5788,91.8933,20.2,98,0.0,850.7,0.9,26.3,34,1.1,0.9,3.0,246.0,71.0,3.4,3,5,3,1,2026-07-13T04:22:38.481155+05:30
Imphal,Manipur,24.817,93.9368,22.9,98,0.0,916.8,2.6,20.2,51,13.7,13.0,8.6,258.0,34.0,2.3,3,5,3,1,2026-07-13T04:22:38.481162+05:30
Aizawl,Mizoram,23.7271,92.7176,19.8,96,0.0,885.4,0.95,22.0,56,24.3,15.7,5.0,164.0,27.0,1.9,3,10,3,1,2026-07-13T04:22:38.481169+05:30
Kohima,Nagaland,25.6701,94.1077,20.8,95,0.1,849.8,7.1,24.5,28,7.6,7.0,6.4,205.0,32.0,1.2,6,5,7,1,2026-07-13T04:22:38.481176+05:30
Gangtok,Sikkim,27.3314,88.6138,18.8,97,0.1,830.9,1.8,25.2,49,3.4,3.4,2.7,316.0,103.0,0.3,6,10,3,1,2026-07-13T04:22:38.481183+05:30
Siliguri,West Bengal,26.7271,88.3953,25.8,96,0.3,983.6,0.6,31.3,44,8.4,8.2,8.6,324.0,72.0,2.3,10,5,3,1,2026-07-13T04:22:41.855562+05:30
Durgapur,West Bengal,23.5204,87.3119,27.1,95,0.0,985.6,4.1,27.4,152,64.0,53.1,32.0,373.0,40.0,42.2,7,5,3,1,2026-07-13T04:22:41.855596+05:30
Asansol,West Bengal,23.6739,86.9524,27.4,96,0.0,984.2,2.55,24.8,145,81.0,60.3,45.6,862.0,18.0,55.1,7,5,3,1,2026-07-13T04:22:41.855607+05:30
Pondicherry,Puducherry,11.9139,79.8145,29.2,64,0.0,1004.1,8.0,48.2,64,16.9,12.2,11.3,171.0,43.0,6.2,7,5,4,1,2026-07-13T04:22:41.855616+05:30
Port Blair,Andaman and Nicobar Islands,11.6234,92.7265,26.4,86,0.1,1004.1,8.75,58.0,49,23.6,10.2,0.1,86.0,50.0,0.4,10,5,4,1,2026-07-13T04:22:41.855625+05:30
Haridwar,Uttarakhand,29.9457,78.1642,25.6,96,0.0,963.6,7.5,23.8,170,324.1,156.5,60.3,301.0,25.0,21.4,7,5,7,1,2026-07-13T04:22:41.855633+05:30
Rishikesh,Uttarakhand,30.0869,78.2676,24.7,93,0.0,956.2,7.6,27.7,158,211.4,81.0,6.4,250.0,120.0,12.8,3,5,7,1,2026-07-13T04:22:41.855641+05:30
Nainital,Uttarakhand,29.3919,79.4542,15.3,99,0.0,797.3,8.5,35.6,158,152.3,63.8,13.4,282.0,82.0,5.5,3,10,7,0,2026-07-13T04:22:41.855649+05:30
Mussoorie,Uttarakhand,30.4599,78.0664,15.3,100,0.0,795.0,8.0,43.2,156,178.8,79.9,11.8,252.0,107.0,13.3,3,10,7,0,2026-07-13T04:22:41.855657+05:30
Dharamshala,Himachal Pradesh,32.219,76.3234,21.4,71,0.0,861.4,8.35,36.0,62,25.3,19.3,13.0,207.0,24.0,0.2,3,5,7,0,2026-07-13T04:22:41.855664+05:30
Dalhousie,Himachal Pradesh,32.5387,75.971,16.2,85,0.0,797.1,8.65,31.7,96,50.4,39.8,31.8,295.0,13.0,1.2,3,10,7,0,2026-07-13T04:22:41.855672+05:30
Patiala,Punjab,30.3398,76.3869,27.1,91,0.0,967.8,7.5,24.5,170,146.2,96.4,37.8,451.0,34.0,7.8,7,5,7,1,2026-07-13T04:22:41.855680+05:30
Bhatinda,Punjab,30.211,74.9455,28.0,83,0.0,973.1,8.25,22.3,278,160.7,91.7,27.0,379.0,54.0,10.2,7,5,7,1,2026-07-13T04:22:41.855687+05:30
Rohtak,Haryana,28.8955,76.6066,28.3,75,0.0,971.7,7.6,28.1,1136,925.7,162.1,21.9,214.0,36.0,3.1,7,5,7,1,2026-07-13T04:22:41.855694+05:30
Panipat,Haryana,29.3909,76.9635,27.5,82,0.0,970.1,7.45,25.2,1520,746.9,186.7,45.2,386.0,20.0,6.7,7,5,7,1,2026-07-13T04:22:41.855701+05:30
Mathura,Uttar Pradesh,27.4924,77.6737,29.4,68,0.0,976.7,7.9,34.2,878,730.2,113.6,17.4,205.0,42.0,4.7,7,5,7,1,2026-07-13T04:22:41.855709+05:30
Vrindavan,Uttar Pradesh,27.5823,77.7027,29.8,66,0.0,977.0,7.85,33.1,878,730.2,113.6,17.4,194.0,42.0,4.7,7,5,7,1,2026-07-13T04:22:41.855715+05:30
Ayodhya,Uttar Pradesh,26.7922,82.1998,28.0,89,0.0,984.8,8.35,33.8,126,57.7,38.6,15.5,521.0,49.0,7.7,7,5,7,1,2026-07-13T04:22:41.855723+05:30
Ratlam,Madhya Pradesh,23.3315,75.0367,24.0,94,0.0,948.5,8.05,52.2,65,18.9,10.9,7.4,123.0,35.0,8.5,3,5,7,1,2026-07-13T04:22:41.855730+05:30
Sagar,Madhya Pradesh,23.8388,78.7378,25.7,82,0.0,943.4,8.65,47.5,81,47.6,30.9,5.5,166.0,62.0,5.2,7,5,7,1,2026-07-13T04:22:41.855737+05:30
Satna,Madhya Pradesh,24.6005,80.8322,27.4,75,0.0,963.3,8.7,41.8,84,50.9,30.3,6.1,170.0,60.0,4.0,7,5,7,1,2026-07-13T04:22:41.855744+05:30
Akola,Maharashtra,20.7002,77.0082,26.5,77,0.0,970.1,8.75,48.2,65,21.1,11.4,7.4,106.0,39.0,8.2,7,5,7,1,2026-07-13T04:22:41.855752+05:30
Amravati,Maharashtra,20.9374,77.7796,26.2,76,0.0,962.0,8.75,54.4,67,22.4,12.4,7.7,124.0,40.0,8.8,7,5,7,1,2026-07-13T04:22:41.855760+05:30
Latur,Maharashtra,18.4088,76.5604,23.0,85,0.0,935.6,8.9,43.6,52,19.6,9.0,4.9,118.0,34.0,2.8,3,5,7,1,2026-07-13T04:22:41.855767+05:30
Nanded,Maharashtra,19.1383,77.3091,25.7,75,0.0,964.3,8.85,41.4,61,21.7,11.7,5.5,113.0,37.0,3.1,7,5,7,1,2026-07-13T04:22:41.855774+05:30
Gulbarga,Karnataka,17.3297,76.8343,23.8,81,0.0,955.1,8.8,49.3,52,19.8,10.2,5.6,109.0,33.0,2.8,3,5,7,1,2026-07-13T04:22:41.855781+05:30
Bidar,Karnataka,17.9104,77.5199,23.5,79,0.0,931.2,8.95,45.4,57,24.0,11.9,4.7,117.0,36.0,2.1,3,5,7,1,2026-07-13T04:22:41.855788+05:30
Hospet,Karnataka,15.2689,76.3909,23.2,88,0.0,953.4,8.9,50.8,39,11.9,5.9,3.8,102.0,35.0,1.8,3,5,7,1,2026-07-13T04:22:41.855794+05:30
Tirupur,Tamil Nadu,11.1085,77.3411,24.3,88,0.0,973.3,8.35,59.4,57,26.4,15.4,12.7,127.0,21.0,3.9,3,5,7,1,2026-07-13T04:22:41.855801+05:30
Alappuzha,Kerala,9.4981,76.3388,26.1,92,0.1,1008.4,7.95,46.1,45,21.7,10.6,4.1,79.0,36.0,2.3,10,0,4,1,2026-07-13T04:22:41.855808+05:30
Munnar,Kerala,10.0889,77.0595,16.4,100,0.0,854.9,8.7,37.1,29,6.3,3.5,4.7,89.0,24.0,1.4,3,10,7,1,2026-07-13T04:22:41.855815+05:30
Silchar,Assam,24.8333,92.7789,26.5,97,0.0,997.2,0.5,17.6,76,45.8,31.5,10.2,229.0,60.0,8.1,7,5,3,1,2026-07-13T04:22:41.855822+05:30
Dibrugarh,Assam,27.4728,94.912,25.9,99,0.1,987.7,8.9,20.2,48,7.6,7.5,8.1,236.0,55.0,0.8,10,5,7,1,2026-07-13T04:22:41.855829+05:30
