city,state,latitude,longitude,temp,humidity,rain,pressure,uv_index,wind_gusts,aqi,pm10,pm2_5,mosquito_risk,arthritis_risk,migraine_risk,frizz_risk,updated_at
Delhi,Delhi,28.6139,77.209,32.1,35,0.0,987.0,5.85,37.1,293,385.6,71.2,0,5,3,0,2026-03-04T14:13:13.221950+05:30
Mumbai,Maharashtra,19.076,72.8777,28.3,73,0.0,1010.2,7.4,24.8,135,53.6,51.9,7,0,4,1,2026-03-04T14:13:13.221988+05:30
Bangalore,Karnataka,12.9716,77.5946,31.6,26,0.0,914.2,9.1,35.3,96,30.6,29.3,0,5,7,0,2026-03-04T14:13:13.222003+05:30
Hyderabad,Telangana,17.385,78.4867,34.5,23,0.0,956.3,8.4,27.4,112,19.8,17.4,0,5,7,0,2026-03-04T14:13:13.222013+05:30
Chennai,Tamil Nadu,13.0827,80.2707,33.5,37,0.0,1009.8,8.8,28.4,114,30.2,26.5,0,0,4,1,2026-03-04T14:13:13.222021+05:30
Kolkata,West Bengal,22.5726,88.3639,31.4,39,0.0,1007.9,7.75,21.2,165,81.5,43.3,0,5,4,0,2026-03-04T14:13:13.222030+05:30
Pune,Maharashtra,18.5204,73.8567,36.7,21,0.0,951.5,7.95,31.3,77,17.3,16.6,0,5,10,0,2026-03-04T14:13:13.222041+05:30
Ahmedabad,Gujarat,23.0225,72.5714,37.6,20,0.0,1006.5,7.2,16.6,79,30.4,18.0,0,5,7,0,2026-03-04T14:13:13.222048+05:30
Jaipur,Rajasthan,26.9124,75.7873,35.6,14,0.0,965.2,6.6,34.6,90,138.3,27.3,0,5,10,0,2026-03-04T14:13:13.222055+05:30
Lucknow,Uttar Pradesh,26.8467,80.9462,30.4,41,0.0,997.5,6.35,26.6,156,181.1,65.7,0,5,7,0,2026-03-04T14:13:13.222062+05:30
Kanpur,Uttar Pradesh,26.4499,80.3319,31.0,39,0.0,996.0,6.35,28.8,175,234.2,63.6,0,5,7,0,2026-03-04T14:13:13.222069+05:30
Chandigarh,Chandigarh,30.7333,76.7794,31.1,32,0.0,972.5,5.75,36.0,84,29.8,21.2,0,5,3,0,2026-03-04T14:13:13.222076+05:30
Srinagar,Jammu and Kashmir,34.0837,74.7973,20.9,27,0.0,849.0,6.2,16.9,142,51.6,31.2,0,5,7,0,2026-03-04T14:13:13.222084+05:30
Jammu,Jammu and Kashmir,32.7266,74.857,30.7,37,0.0,977.3,6.35,25.6,96,33.6,24.0,0,5,7,0,2026-03-04T14:13:13.222091+05:30
Amritsar,Punjab,31.634,74.8723,31.2,40,0.0,985.6,6.3,23.4,137,56.3,39.0,0,5,7,0,2026-03-04T14:13:13.222097+05:30
Ludhiana,Punjab,30.901,75.8573,31.1,40,0.0,983.1,6.0,30.2,152,61.0,45.1,0,5,3,0,2026-03-04T14:13:13.222104+05:30
Jalandhar,Punjab,31.326,75.5762,30.8,40,0.0,984.2,6.15,28.8,153,67.5,40.0,0,5,7,0,2026-03-04T14:13:13.222112+05:30
Dehradun,Uttarakhand,30.6284,78.0322,23.3,40,0.0,834.5,6.1,31.3,59,18.7,10.2,0,5,7,0,2026-03-04T14:13:13.222119+05:30
Shimla,Himachal Pradesh,31.1048,77.1734,22.4,30,0.0,790.9,6.15,52.6,68,18.6,8.6,0,5,7,0,2026-03-04T14:13:13.222126+05:30
Manali,Himachal Pradesh,32.2396,77.1887,26.8,16,0.0,826.7,7.8,32.8,49,18.4,8.3,4,5,7,1,2026-03-04T14:13:13.222132+05:30
Gurgaon,Haryana,28.4595,77.0266,32.3,34,0.0,985.7,5.95,35.6,1109,1378.4,151.8,0,5,3,0,2026-03-04T14:13:13.222139+05:30
Noida,Uttar Pradesh,28.5355,77.391,32.6,34,0.0,988.5,5.85,36.4,1109,1378.4,151.8,0,5,3,0,2026-03-04T14:13:13.222146+05:30
Ghaziabad,Uttar Pradesh,28.6692,77.4538,31.7,39,0.0,986.5,5.85,33.8,219,249.6,57.0,0,5,3,0,2026-03-04T14:13:13.222152+05:30
Faridabad,Haryana,28.4089,77.3178,31.9,35,0.0,987.9,5.9,34.2,1109,1378.4,151.8,0,5,3,0,2026-03-04T14:13:13.222159+05:30
Meerut,Uttar Pradesh,28.9845,77.7064,31.7,38,0.0,985.0,5.7,35.6,219,249.6,57.0,0,5,3,0,2026-03-04T14:13:13.222165+05:30
Agra,Uttar Pradesh,27.1767,78.0081,34.0,26,0.0,992.2,6.2,35.3,319,440.5,59.6,0,5,7,0,2026-03-04T14:13:13.222171+05:30
Varanasi,Uttar Pradesh,25.3176,82.9739,30.4,42,0.0,1001.7,7.0,19.8,145,265.4,64.5,0,5,4,1,2026-03-04T14:13:13.222179+05:30
Prayagraj,Uttar Pradesh,25.4358,81.8463,31.1,37,0.0,1000.3,6.9,25.9,150,232.4,65.4,0,5,4,0,2026-03-04T14:13:13.222186+05:30
Gorakhpur,Uttar Pradesh,26.7606,83.3732,29.3,48,0.0,1001.5,6.75,10.1,165,114.3,61.9,4,5,4,1,2026-03-04T14:13:13.222193+05:30
Bareilly,Uttar Pradesh,28.367,79.4304,28.6,49,0.0,990.7,6.05,19.1,161,114.8,55.8,4,5,7,1,2026-03-04T14:13:13.222203+05:30
Aligarh,Uttar Pradesh,27.8974,78.088,32.4,36,0.0,989.6,5.95,33.1,628,592.3,99.0,0,5,3,0,2026-03-04T14:13:13.222210+05:30
Moradabad,Uttar Pradesh,28.8386,78.7733,29.4,43,0.0,987.2,5.85,22.3,156,84.1,53.8,4,5,3,0,2026-03-04T14:13:13.222216+05:30
Saharanpur,Uttar Pradesh,29.9637,77.546,31.7,29,0.0,978.4,5.5,45.7,149,79.2,39.6,0,5,3,0,2026-03-04T14:13:13.222221+05:30
Jhansi,Uttar Pradesh,25.4484,78.5685,34.9,20,0.0,982.7,6.8,32.0,60,26.0,14.8,0,5,7,0,2026-03-04T14:13:16.531618+05:30
Surat,Gujarat,21.1702,72.8311,35.9,29,0.0,1009.9,7.1,25.2,151,51.1,44.6,0,0,7,0,2026-03-04T14:13:16.531648+05:30
Vadodara,Gujarat,22.3072,73.1812,38.2,21,0.0,1008.2,7.2,18.0,139,30.6,20.0,0,0,7,0,2026-03-04T14:13:16.531658+05:30
Rajkot,Gujarat,22.3039,70.8022,36.5,22,0.0,998.9,7.0,24.8,63,23.9,19.0,0,5,10,0,2026-03-04T14:13:16.531666+05:30
Thane,Maharashtra,19.2183,72.9781,37.3,27,0.0,1009.7,7.35,35.6,135,53.6,51.9,0,0,7,0,2026-03-04T14:13:16.531674+05:30
Nagpur,Maharashtra,21.1458,79.0882,35.2,23,0.0,977.0,7.75,23.4,67,19.6,13.5,0,5,10,0,2026-03-04T14:13:16.531681+05:30
Nashik,Maharashtra,19.9975,73.7898,35.2,19,0.0,949.4,7.55,23.4,82,17.1,16.5,0,5,10,0,2026-03-04T14:13:16.531688+05:30
Aurangabad,Maharashtra,19.8762,75.3433,34.9,21,0.0,947.9,8.1,22.7,75,18.9,17.8,0,5,7,0,2026-03-04T14:13:16.531694+05:30
Solapur,Maharashtra,17.6599,75.9064,35.0,27,0.0,960.0,8.35,18.7,73,18.4,17.3,0,5,7,0,2026-03-04T14:13:16.531701+05:30
Kolhapur,Maharashtra,16.705,74.2433,34.7,25,0.0,950.2,8.45,37.4,158,29.1,28.3,0,5,7,0,2026-03-04T14:13:16.531707+05:30
Goa,Goa,15.2993,74.124,31.4,64,0.0,999.5,8.5,34.9,110,40.5,37.6,3,5,7,1,2026-03-04T14:13:16.531714+05:30
Jodhpur,Rajasthan,26.2389,73.0243,36.2,19,0.0,988.7,6.9,18.7,80,120.6,26.4,0,5,10,0,2026-03-04T14:13:16.531720+05:30
Udaipur,Rajasthan,24.5854,73.7125,34.5,20,0.0,952.3,7.5,23.4,58,33.3,12.9,0,5,7,0,2026-03-04T14:13:16.531727+05:30
Kota,Rajasthan,25.2138,75.8648,35.9,17,0.0,984.0,6.9,17.3,83,29.5,14.2,0,5,10,0,2026-03-04T14:13:16.531733+05:30
Bikaner,Rajasthan,28.0229,73.3119,34.2,25,0.0,987.7,6.6,26.3,66,53.1,19.8,0,5,7,0,2026-03-04T14:13:16.531740+05:30
Ajmer,Rajasthan,26.4499,74.6399,34.5,20,0.0,960.5,6.85,25.2,69,47.0,16.6,0,5,7,0,2026-03-04T14:13:16.531747+05:30
Gwalior,Madhya Pradesh,26.2183,78.1828,33.0,28,0.0,988.1,6.55,31.0,77,31.3,18.1,0,5,7,0,2026-03-04T14:13:16.531753+05:30
Indore,Madhya Pradesh,22.7196,75.8577,33.5,24,0.0,953.0,7.45,17.6,80,24.2,14.1,0,5,7,0,2026-03-04T14:13:16.531759+05:30
Bhopal,Madhya Pradesh,23.2599,77.4126,33.7,22,0.0,958.7,7.35,22.0,74,17.3,9.6,0,5,7,0,2026-03-04T14:13:16.531766+05:30
Jabalpur,Madhya Pradesh,23.1815,79.9864,32.6,30,0.0,966.0,7.45,24.5,71,25.8,13.3,0,5,7,0,2026-03-04T14:13:16.531772+05:30
Ujjain,Madhya Pradesh,23.1765,75.7885,33.4,26,0.0,958.8,7.4,16.2,101,26.7,15.5,0,5,7,0,2026-03-04T14:13:16.531778+05:30
Visakhapatnam,Andhra Pradesh,17.6868,83.2185,33.9,41,0.0,1006.1,8.4,37.1,138,49.2,44.7,0,5,4,1,2026-03-04T14:13:16.531785+05:30
Vijayawada,Andhra Pradesh,16.5062,80.648,34.6,39,0.0,1005.0,8.45,20.5,128,44.0,40.9,0,5,4,1,2026-03-04T14:13:16.531791+05:30
Guntur,Andhra Pradesh,16.3067,80.4365,35.6,34,0.0,1006.0,8.45,25.6,117,40.3,37.5,0,5,7,1,2026-03-04T14:13:16.531798+05:30
Nellore,Andhra Pradesh,14.4426,79.9865,36.2,27,0.0,1008.0,8.65,29.9,116,40.6,38.0,0,0,7,0,2026-03-04T14:13:16.531805+05:30
Kurnool,Andhra Pradesh,15.8281,78.0373,36.9,21,0.0,979.2,8.5,26.3,97,30.2,28.3,0,5,10,0,2026-03-04T14:13:16.531813+05:30
Kakinada,Andhra Pradesh,16.9891,82.2475,35.6,36,0.0,1009.5,8.4,33.8,106,39.2,33.5,0,0,7,1,2026-03-04T14:13:16.531820+05:30
Tirupati,Andhra Pradesh,13.6288,79.4192,35.1,25,0.0,993.6,8.8,32.4,149,38.1,36.0,0,5,10,0,2026-03-04T14:13:16.531826+05:30
Warangal,Telangana,17.9689,79.5941,35.0,28,0.0,981.7,8.25,23.8,117,36.6,33.9,0,5,7,0,2026-03-04T14:13:16.531833+05:30
Nizamabad,Telangana,18.6725,78.0941,35.1,22,0.0,968.3,8.1,28.1,72,20.8,17.3,0,5,10,0,2026-03-04T14:13:16.531839+05:30
Mysore,Karnataka,12.2958,76.6396,33.0,19,0.0,930.5,9.15,39.2,97,28.6,27.3,0,5,7,0,2026-03-04T14:13:16.531845+05:30
Mangalore,Karnataka,12.9141,74.856,28.0,86,0.0,1007.5,8.75,30.2,85,40.4,35.7,7,5,4,1,2026-03-04T14:13:16.531852+05:30
Hubli-Dharwad,Karnataka,15.3647,75.124,34.4,29,0.0,943.1,8.65,24.5,93,29.3,28.5,0,5,7,0,2026-03-04T14:13:16.531859+05:30
Belgaum,Karnataka,15.8497,74.4977,34.1,26,0.0,928.2,8.75,32.0,132,29.6,28.8,0,5,7,0,2026-03-04T14:13:19.839601+05:30
Coimbatore,Tamil Nadu,11.0168,76.9558,33.0,28,0.0,963.7,9.15,41.0,98,30.6,28.6,0,5,7,0,2026-03-04T14:13:19.839631+05:30
Madurai,Tamil Nadu,9.9252,78.1198,34.8,30,0.0,994.3,9.1,24.1,96,19.4,17.9,0,5,7,0,2026-03-04T14:13:19.839641+05:30
Trichy,Tamil Nadu,10.7905,78.7047,35.1,26,0.0,1001.3,9.0,28.8,104,22.5,20.8,0,5,7,0,2026-03-04T14:13:19.839649+05:30
Salem,Tamil Nadu,11.6643,78.146,36.3,22,0.0,978.7,9.05,35.6,121,36.2,34.0,0,5,10,0,2026-03-04T14:13:19.839656+05:30
Tirunelveli,Tamil Nadu,8.7139,77.7567,35.2,30,0.0,1004.7,9.15,38.9,86,15.7,14.6,0,5,7,0,2026-03-04T14:13:19.839662+05:30
Vellore,Tamil Nadu,12.9165,79.1325,34.3,24,0.0,986.8,8.9,36.7,142,32.8,30.6,0,5,7,0,2026-03-04T14:13:19.839670+05:30
Erode,Tamil Nadu,11.341,77.7172,35.2,31,0.0,990.5,9.05,28.8,100,38.3,36.4,0,5,10,0,2026-03-04T14:13:19.839676+05:30
Kochi,Kerala,9.9312,76.2673,28.2,73,0.0,1009.9,8.95,32.8,105,33.9,32.0,7,0,4,1,2026-03-04T14:13:19.839683+05:30
Thiruvananthapuram,Kerala,8.5241,76.9366,28.1,68,0.0,1009.3,9.0,27.4,99,35.3,32.7,7,0,4,1,2026-03-04T14:13:19.839691+05:30
Kozhikode,Kerala,11.2588,75.7804,29.6,72,0.0,1009.2,8.85,30.6,89,43.4,39.0,7,0,4,1,2026-03-04T14:13:19.839697+05:30
Thrissur,Kerala,10.5276,76.2144,33.5,52,0.0,1007.9,8.95,38.9,114,36.2,34.6,0,5,4,1,2026-03-04T14:13:19.839704+05:30
Kannur,Kerala,11.8745,75.3704,30.7,66,0.0,1008.2,8.85,35.3,82,39.6,35.7,3,0,4,1,2026-03-04T14:13:19.839711+05:30
Patna,Bihar,25.5941,85.1376,30.4,37,0.0,1004.5,7.2,15.5,165,101.0,57.5,0,5,4,0,2026-03-04T14:13:19.839718+05:30
Gaya,Bihar,24.7914,85.0002,29.6,42,0.0,997.9,7.25,18.4,139,187.2,52.6,4,5,7,0,2026-03-04T14:13:19.839724+05:30
Muzaffarpur,Bihar,26.1209,85.3647,30.8,36,0.0,1004.4,7.15,12.2,167,96.4,59.0,0,5,4,0,2026-03-04T14:13:19.839731+05:30
Bhagalpur,Bihar,25.2425,87.0117,29.5,40,0.0,1004.9,7.2,9.4,159,91.3,47.7,4,5,4,0,2026-03-04T14:13:19.839737+05:30
Ranchi,Jharkhand,23.3441,85.3096,29.4,23,0.0,941.1,7.9,31.3,90,93.1,25.5,4,5,7,0,2026-03-04T14:13:19.839743+05:30
Jamshedpur,Jharkhand,22.8046,86.2029,32.4,24,0.0,993.7,7.85,24.5,121,104.5,40.9,0,5,7,0,2026-03-04T14:13:19.839749+05:30
Dhanbad,Jharkhand,23.7957,86.4304,32.6,21,0.0,982.8,7.7,25.2,130,134.6,44.6,0,5,7,0,2026-03-04T14:13:19.839756+05:30
Bokaro,Jharkhand,23.6693,86.1511,31.8,26,0.0,986.9,7.7,26.6,138,158.3,47.3,0,5,7,0,2026-03-04T14:13:19.839762+05:30
Bhubaneswar,Odisha,20.2961,85.8245,36.7,20,0.0,1004.1,8.15,26.6,153,71.0,50.1,0,5,7,0,2026-03-04T14:13:19.839768+05:30
Cuttack,Odisha,20.4625,85.8828,36.9,13,0.0,1006.2,8.15,27.7,153,71.0,50.1,0,5,7,0,2026-03-04T14:13:19.839774+05:30
Rourkela,Odisha,22.2604,84.8536,33.8,24,0.0,987.8,7.75,21.6,95,48.8,27.5,0,5,7,0,2026-03-04T14:13:19.839780+05:30
Raipur,Chhattisgarh,21.2514,81.6296,35.1,19,0.0,978.1,7.8,23.4,137,24.2,13.8,0,5,10,0,2026-03-04T14:13:19.839786+05:30
Bhilai,Chhattisgarh,21.1938,81.3509,35.7,21,0.0,978.5,7.8,20.5,118,22.8,13.6,0,5,10,0,2026-03-04T14:13:19.839793+05:30
Guwahati,Assam,26.1158,91.7086,29.4,49,0.0,1003.6,7.1,16.6,153,51.3,41.7,4,5,4,1,2026-03-04T14:13:19.839799+05:30
Agartala,Tripura,23.8315,91.2868,29.3,47,0.0,1008.2,7.5,21.6,162,69.6,46.9,4,0,4,1,2026-03-04T14:13:19.839805+05:30
Shillong,Meghalaya,25.5788,91.8933,18.1,47,0.0,857.9,7.5,29.2,150,52.5,41.7,0,5,7,0,2026-03-04T14:13:19.839811+05:30
Imphal,Manipur,24.817,93.9368,23.8,42,0.0,924.5,7.7,21.2,131,41.3,34.2,0,5,7,0,2026-03-04T14:13:19.839818+05:30
Aizawl,Mizoram,23.7271,92.7176,22.8,43,0.0,894.4,7.7,24.5,154,58.0,45.9,0,5,7,0,2026-03-04T14:13:19.839824+05:30
Kohima,Nagaland,25.6701,94.1077,18.1,62,0.0,856.5,7.55,39.2,145,51.8,42.7,3,5,7,0,2026-03-04T14:13:19.839830+05:30
Gangtok,Sikkim,27.3314,88.6138,19.9,49,0.0,840.8,7.45,20.9,151,56.6,41.8,0,5,7,0,2026-03-04T14:13:19.839836+05:30
Siliguri,West Bengal,26.7271,88.3953,25.1,59,0.0,997.1,7.1,20.5,159,63.1,43.3,4,5,7,1,2026-03-04T14:13:23.156306+05:30
Durgapur,West Bengal,23.5204,87.3119,33.3,24,0.0,997.6,7.7,22.3,107,99.2,43.2,0,5,7,0,2026-03-04T14:13:23.156337+05:30
Asansol,West Bengal,23.6739,86.9524,32.8,22,0.0,996.5,7.7,23.0,97,115.7,43.0,0,5,7,0,2026-03-04T14:13:23.156349+05:30
Pondicherry,Puducherry,11.9139,79.8145,33.8,41,0.0,1010.4,8.85,27.4,101,26.0,22.3,0,0,4,1,2026-03-04T14:13:23.156359+05:30
Port Blair,Andaman and Nicobar Islands,11.6234,92.7265,27.5,72,0.0,1007.6,8.85,26.3,88,47.7,38.6,7,5,4,1,2026-03-04T14:13:23.156368+05:30
Haridwar,Uttarakhand,29.9457,78.1642,28.8,43,0.0,977.4,5.6,19.1,123,40.9,32.1,4,5,3,0,2026-03-04T14:13:23.156377+05:30
Rishikesh,Uttarakhand,30.0869,78.2676,29.0,43,0.0,970.0,5.65,24.1,100,38.1,27.5,4,5,3,0,2026-03-04T14:13:23.156386+05:30
Nainital,Uttarakhand,29.3919,79.4542,20.4,70,0.0,809.5,6.45,57.2,136,70.3,42.4,3,5,7,0,2026-03-04T14:13:23.156394+05:30
Mussoorie,Uttarakhand,30.4599,78.0664,22.0,47,0.0,807.0,6.0,37.8,94,34.1,27.6,0,5,3,0,2026-03-04T14:13:23.156402+05:30
Dharamshala,Himachal Pradesh,32.219,76.3234,26.4,38,0.0,874.3,6.25,29.5,48,18.3,8.1,4,5,7,0,2026-03-04T14:13:23.156409+05:30
Dalhousie,Himachal Pradesh,32.5387,75.971,26.4,24,0.0,810.7,6.45,24.1,84,22.0,15.0,4,5,7,0,2026-03-04T14:13:23.156419+05:30
Patiala,Punjab,30.3398,76.3869,31.4,39,0.0,982.2,5.65,32.8,199,347.4,68.0,0,5,3,0,2026-03-04T14:13:23.156427+05:30
Bhatinda,Punjab,30.211,74.9455,32.5,38,0.0,988.5,6.3,25.6,152,70.5,41.4,0,5,7,1,2026-03-04T14:13:23.156435+05:30
Rohtak,Haryana,28.8955,76.6066,32.3,34,0.0,986.1,5.85,34.6,383,545.8,79.4,0,5,3,0,2026-03-04T14:13:23.156443+05:30
Panipat,Haryana,29.3909,76.9635,32.1,36,0.0,984.2,5.65,34.2,953,1147.4,132.7,0,5,3,0,2026-03-04T14:13:23.156450+05:30
Mathura,Uttar Pradesh,27.4924,77.6737,33.1,31,0.0,991.3,6.1,32.8,401,553.2,71.0,0,5,7,0,2026-03-04T14:13:23.156458+05:30
Vrindavan,Uttar Pradesh,27.5823,77.7027,32.8,32,0.0,991.6,6.1,34.9,401,553.2,71.0,0,5,7,0,2026-03-04T14:13:23.156466+05:30
Ayodhya,Uttar Pradesh,26.7922,82.1998,30.0,44,0.0,999.4,6.5,9.7,160,202.1,68.0,4,5,7,1,2026-03-04T14:13:23.156474+05:30
Ratlam,Madhya Pradesh,23.3315,75.0367,34.0,26,0.0,959.6,7.35,18.0,98,26.1,15.7,0,5,7,0,2026-03-04T14:13:23.156482+05:30
Sagar,Madhya Pradesh,23.8388,78.7378,33.1,19,0.0,955.1,7.25,27.0,63,20.9,9.4,0,5,7,0,2026-03-04T14:13:23.156489+05:30
Satna,Madhya Pradesh,24.6005,80.8322,34.2,18,0.0,975.7,7.25,36.7,64,35.0,18.2,0,5,7,0,2026-03-04T14:13:23.156497+05:30
Akola,Maharashtra,20.7002,77.0082,36.3,21,0.0,978.9,7.8,14.4,73,21.9,18.1,0,5,10,0,2026-03-04T14:13:23.156506+05:30
Amravati,Maharashtra,20.9374,77.7796,36.3,23,0.0,971.1,7.75,16.2,68,19.7,15.4,0,5,10,0,2026-03-04T14:13:23.156515+05:30
Latur,Maharashtra,18.4088,76.5604,34.4,23,0.0,943.3,8.25,20.5,79,20.5,18.7,0,5,7,0,2026-03-04T14:13:23.156523+05:30
Nanded,Maharashtra,19.1383,77.3091,36.3,24,0.0,971.9,8.0,14.4,81,19.4,16.1,0,5,10,0,2026-03-04T14:13:23.156531+05:30
Gulbarga,Karnataka,17.3297,76.8343,36.8,19,0.0,961.4,8.35,25.2,84,19.6,18.4,0,5,10,0,2026-03-04T14:13:23.156538+05:30
Bidar,Karnataka,17.9104,77.5199,34.5,22,0.0,938.9,8.3,26.6,87,17.3,15.1,0,5,7,0,2026-03-04T14:13:23.156545+05:30
Hospet,Karnataka,15.2689,76.3909,34.8,26,0.0,958.1,8.65,25.2,99,25.4,24.6,0,5,7,0,2026-03-04T14:13:23.156553+05:30
Tirupur,Tamil Nadu,11.1085,77.3411,34.9,24,0.0,977.0,9.15,31.0,107,40.7,38.8,0,5,7,0,2026-03-04T14:13:23.156560+05:30
Alappuzha,Kerala,9.4981,76.3388,28.0,77,0.0,1010.1,8.95,32.4,104,37.7,35.7,7,0,4,1,2026-03-04T14:13:23.156568+05:30
Munnar,Kerala,10.0889,77.0595,29.9,34,0.0,860.2,9.45,22.0,86,22.4,21.5,4,5,7,0,2026-03-04T14:13:23.156576+05:30
Silchar,Assam,24.8333,92.7789,31.3,34,0.0,1006.2,7.45,15.8,148,42.0,32.9,0,5,4,0,2026-03-04T14:13:23.156584+05:30
Dibrugarh,Assam,27.4728,94.912,27.5,53,0.0,997.6,7.15,9.0,136,65.4,48.9,4,5,7,1,2026-03-04T14:13:23.156591+05:30
