city,state,latitude,longitude,temp,humidity,rain,pressure,uv_index,wind_gusts,aqi,pm10,pm2_5,mosquito_risk,arthritis_risk,migraine_risk,frizz_risk,updated_at
Delhi,Delhi,28.6139,77.209,32.4,36,0.0,983.0,5.85,34.6,407,741.3,112.9,0,5,3,0,2026-03-05T17:06:24.366428+05:30
Mumbai,Maharashtra,19.076,72.8777,29.5,58,0.0,1007.5,7.4,26.6,162,38.2,36.3,4,5,4,1,2026-03-05T17:06:24.366476+05:30
Bangalore,Karnataka,12.9716,77.5946,31.0,22,0.0,911.4,9.15,31.3,125,23.9,22.4,0,5,7,0,2026-03-05T17:06:24.366490+05:30
Hyderabad,Telangana,17.385,78.4867,34.6,21,0.0,952.8,8.45,27.4,147,17.9,15.9,0,5,7,0,2026-03-05T17:06:24.366499+05:30
Chennai,Tamil Nadu,13.0827,80.2707,31.2,48,0.0,1006.5,8.85,31.3,100,29.0,25.0,0,5,4,1,2026-03-05T17:06:24.366507+05:30
Kolkata,West Bengal,22.5726,88.3639,30.0,43,0.0,1005.2,7.8,10.8,206,79.2,61.9,4,5,4,1,2026-03-05T17:06:24.366515+05:30
Pune,Maharashtra,18.5204,73.8567,36.7,17,0.0,948.3,7.95,31.3,100,15.8,14.3,0,5,10,0,2026-03-05T17:06:24.366526+05:30
Ahmedabad,Gujarat,23.0225,72.5714,36.1,13,0.0,1003.3,7.15,28.4,65,18.4,17.3,0,5,7,0,2026-03-05T17:06:24.366532+05:30
Jaipur,Rajasthan,26.9124,75.7873,35.4,17,0.0,961.0,6.65,34.9,91,180.2,30.3,0,5,10,0,2026-03-05T17:06:24.366539+05:30
Lucknow,Uttar Pradesh,26.8467,80.9462,31.1,43,0.0,993.2,6.4,15.1,164,222.6,69.4,0,5,7,1,2026-03-05T17:06:24.366546+05:30
Kanpur,Uttar Pradesh,26.4499,80.3319,31.8,38,0.0,991.2,6.4,28.4,176,318.5,71.7,0,5,7,0,2026-03-05T17:06:24.366552+05:30
Chandigarh,Chandigarh,30.7333,76.7794,29.8,43,0.0,968.9,5.75,31.0,93,44.1,33.9,4,5,3,0,2026-03-05T17:06:24.366559+05:30
Srinagar,Jammu and Kashmir,34.0837,74.7973,21.7,43,0.0,844.9,6.75,14.4,151,27.0,14.4,0,5,7,0,2026-03-05T17:06:24.366565+05:30
Jammu,Jammu and Kashmir,32.7266,74.857,30.9,47,0.0,972.8,6.4,23.8,103,50.2,28.2,0,5,7,1,2026-03-05T17:06:24.366571+05:30
Amritsar,Punjab,31.634,74.8723,30.2,47,0.0,981.3,6.35,22.7,149,51.2,26.8,0,5,7,1,2026-03-05T17:06:24.366577+05:30
Ludhiana,Punjab,30.901,75.8573,31.0,42,0.0,979.3,6.0,25.6,156,105.9,49.4,0,5,3,1,2026-03-05T17:06:24.366583+05:30
Jalandhar,Punjab,31.326,75.5762,30.6,44,0.0,980.3,6.2,24.1,157,88.9,38.9,0,5,7,1,2026-03-05T17:06:24.366590+05:30
Dehradun,Uttarakhand,30.6284,78.0322,19.8,72,0.0,831.3,6.15,31.7,66,20.8,12.7,3,5,7,0,2026-03-05T17:06:24.366596+05:30
Shimla,Himachal Pradesh,31.1048,77.1734,20.9,44,0.0,788.1,6.2,55.1,65,24.7,12.4,0,5,7,0,2026-03-05T17:06:24.366601+05:30
Manali,Himachal Pradesh,32.2396,77.1887,24.8,33,0.0,824.6,7.8,36.7,75,20.7,10.3,0,5,7,0,2026-03-05T17:06:24.366607+05:30
Gurgaon,Haryana,28.4595,77.0266,31.6,39,0.0,981.6,5.95,33.5,1483,2183.0,239.3,0,5,3,0,2026-03-05T17:06:24.366613+05:30
Noida,Uttar Pradesh,28.5355,77.391,32.7,35,0.0,984.4,5.85,34.6,1483,2183.0,239.3,0,5,3,0,2026-03-05T17:06:24.366618+05:30
Ghaziabad,Uttar Pradesh,28.6692,77.4538,32.0,39,0.0,982.5,5.8,31.7,276,532.7,92.9,0,5,3,1,2026-03-05T17:06:24.366624+05:30
Faridabad,Haryana,28.4089,77.3178,31.5,38,0.0,983.8,5.9,33.1,1483,2183.0,239.3,0,5,3,0,2026-03-05T17:06:24.366629+05:30
Meerut,Uttar Pradesh,28.9845,77.7064,31.7,37,0.0,981.0,5.7,30.6,276,532.7,92.9,0,5,3,0,2026-03-05T17:06:24.366635+05:30
Agra,Uttar Pradesh,27.1767,78.0081,33.8,27,0.0,987.7,6.2,37.8,469,933.2,111.1,0,5,7,0,2026-03-05T17:06:24.366640+05:30
Varanasi,Uttar Pradesh,25.3176,82.9739,29.4,48,0.0,997.5,7.05,16.6,156,204.9,63.6,4,5,7,1,2026-03-05T17:06:24.366649+05:30
Prayagraj,Uttar Pradesh,25.4358,81.8463,30.1,47,0.0,995.7,6.9,19.4,155,220.7,65.4,0,5,7,1,2026-03-05T17:06:24.366656+05:30
Gorakhpur,Uttar Pradesh,26.7606,83.3732,28.8,50,0.0,997.5,6.75,11.2,174,110.8,66.6,4,5,7,1,2026-03-05T17:06:24.366661+05:30
Bareilly,Uttar Pradesh,28.367,79.4304,29.3,54,0.0,986.6,6.05,14.0,169,149.9,70.3,4,5,7,1,2026-03-05T17:06:24.366666+05:30
Aligarh,Uttar Pradesh,27.8974,78.088,32.3,35,0.0,985.3,5.95,35.3,720,1058.0,155.1,0,5,3,0,2026-03-05T17:06:24.366672+05:30
Moradabad,Uttar Pradesh,28.8386,78.7733,29.6,51,0.0,983.3,5.85,18.0,172,148.1,74.5,4,5,3,1,2026-03-05T17:06:24.366677+05:30
Saharanpur,Uttar Pradesh,29.9637,77.546,30.7,38,0.0,975.0,5.5,23.4,155,222.6,62.4,0,5,3,0,2026-03-05T17:06:24.366683+05:30
Jhansi,Uttar Pradesh,25.4484,78.5685,34.2,22,0.0,978.3,6.85,35.3,61,31.9,15.8,0,5,7,0,2026-03-05T17:06:27.619174+05:30
Surat,Gujarat,21.1702,72.8311,34.8,25,0.0,1007.1,7.1,29.5,112,31.7,29.3,0,5,4,0,2026-03-05T17:06:27.619206+05:30
Vadodara,Gujarat,22.3072,73.1812,37.9,17,0.0,1004.6,7.2,24.5,84,23.1,19.9,0,5,7,0,2026-03-05T17:06:27.619216+05:30
Rajkot,Gujarat,22.3039,70.8022,34.1,19,0.0,996.3,7.05,36.4,73,21.7,20.7,0,5,7,0,2026-03-05T17:06:27.619226+05:30
Thane,Maharashtra,19.2183,72.9781,34.5,32,0.0,1007.2,7.4,41.4,162,38.2,36.3,0,5,4,0,2026-03-05T17:06:27.619235+05:30
Nagpur,Maharashtra,21.1458,79.0882,35.5,16,0.0,972.7,7.8,27.0,82,17.2,10.1,0,5,10,0,2026-03-05T17:06:27.619244+05:30
Nashik,Maharashtra,19.9975,73.7898,33.9,20,0.0,946.1,7.55,37.4,91,18.0,14.8,0,5,7,0,2026-03-05T17:06:27.619253+05:30
Aurangabad,Maharashtra,19.8762,75.3433,34.8,19,0.0,944.6,8.1,30.2,96,19.1,16.4,0,5,7,0,2026-03-05T17:06:27.619261+05:30
Solapur,Maharashtra,17.6599,75.9064,34.9,21,0.0,956.8,8.35,19.1,120,20.3,18.3,0,5,7,0,2026-03-05T17:06:27.619270+05:30
Kolhapur,Maharashtra,16.705,74.2433,34.6,20,0.0,947.4,8.5,34.6,152,22.9,21.4,0,5,7,0,2026-03-05T17:06:27.619296+05:30
Goa,Goa,15.2993,74.124,29.5,70,0.0,996.7,8.55,36.0,152,54.1,50.9,7,5,7,1,2026-03-05T17:06:27.619306+05:30
Jodhpur,Rajasthan,26.2389,73.0243,35.4,16,0.0,984.8,6.9,24.1,81,61.9,13.0,0,5,10,0,2026-03-05T17:06:27.619315+05:30
Udaipur,Rajasthan,24.5854,73.7125,33.5,17,0.0,948.5,7.55,25.9,66,12.2,9.8,0,5,7,0,2026-03-05T17:06:27.619323+05:30
Kota,Rajasthan,25.2138,75.8648,35.6,21,0.0,979.4,6.95,28.8,74,58.9,18.5,0,5,10,0,2026-03-05T17:06:27.619332+05:30
Bikaner,Rajasthan,28.0229,73.3119,35.2,19,0.0,983.5,6.6,20.9,66,60.8,15.1,0,5,10,0,2026-03-05T17:06:27.619340+05:30
Ajmer,Rajasthan,26.4499,74.6399,34.1,20,0.0,956.3,6.9,25.6,70,53.0,17.1,0,5,7,0,2026-03-05T17:06:27.619349+05:30
Gwalior,Madhya Pradesh,26.2183,78.1828,32.2,34,0.0,983.3,6.55,32.8,66,43.5,19.6,0,5,7,0,2026-03-05T17:06:27.619358+05:30
Indore,Madhya Pradesh,22.7196,75.8577,32.3,21,0.0,949.5,7.5,25.2,78,22.9,12.0,0,5,7,0,2026-03-05T17:06:27.619366+05:30
Bhopal,Madhya Pradesh,23.2599,77.4126,32.3,24,0.0,954.9,7.35,29.5,81,29.7,13.3,0,5,7,0,2026-03-05T17:06:27.619374+05:30
Jabalpur,Madhya Pradesh,23.1815,79.9864,33.3,25,0.0,961.7,7.5,30.2,62,28.9,13.7,0,5,7,0,2026-03-05T17:06:27.619381+05:30
Ujjain,Madhya Pradesh,23.1765,75.7885,32.1,26,0.0,955.2,7.4,23.0,107,24.4,13.4,0,5,7,0,2026-03-05T17:06:27.619389+05:30
Visakhapatnam,Andhra Pradesh,17.6868,83.2185,30.9,59,0.0,1001.5,8.45,33.1,131,48.8,45.5,0,5,4,1,2026-03-05T17:06:27.619396+05:30
Vijayawada,Andhra Pradesh,16.5062,80.648,34.7,31,0.0,1000.8,8.5,17.3,114,25.4,23.3,0,5,4,0,2026-03-05T17:06:27.619403+05:30
Guntur,Andhra Pradesh,16.3067,80.4365,35.2,25,0.0,1002.1,8.5,20.9,110,20.5,18.3,0,5,7,0,2026-03-05T17:06:27.619410+05:30
Nellore,Andhra Pradesh,14.4426,79.9865,34.5,32,0.0,1004.3,8.7,28.4,119,30.7,27.4,0,5,4,0,2026-03-05T17:06:27.619418+05:30
Kurnool,Andhra Pradesh,15.8281,78.0373,36.6,18,0.0,975.6,8.5,27.0,119,15.8,14.0,0,5,10,0,2026-03-05T17:06:27.619427+05:30
Kakinada,Andhra Pradesh,16.9891,82.2475,35.7,29,0.0,1004.5,8.45,27.4,103,32.9,29.5,0,5,7,0,2026-03-05T17:06:27.619433+05:30
Tirupati,Andhra Pradesh,13.6288,79.4192,34.3,23,0.0,990.2,8.8,29.5,129,28.4,24.6,0,5,7,0,2026-03-05T17:06:27.619440+05:30
Warangal,Telangana,17.9689,79.5941,34.4,22,0.0,978.0,8.3,27.4,131,16.5,13.2,0,5,7,0,2026-03-05T17:06:27.619447+05:30
Nizamabad,Telangana,18.6725,78.0941,34.5,24,0.0,964.5,8.15,22.3,98,12.6,10.5,0,5,7,0,2026-03-05T17:06:27.619453+05:30
Mysore,Karnataka,12.2958,76.6396,31.9,27,0.0,927.7,9.15,24.5,139,29.7,28.7,0,5,7,0,2026-03-05T17:06:27.619460+05:30
Mangalore,Karnataka,12.9141,74.856,28.6,81,0.0,1004.9,8.75,30.2,132,45.1,41.6,7,5,4,1,2026-03-05T17:06:27.619467+05:30
Hubli-Dharwad,Karnataka,15.3647,75.124,34.5,21,0.0,940.0,8.7,29.2,145,23.3,21.9,0,5,7,0,2026-03-05T17:06:27.619474+05:30
Belgaum,Karnataka,15.8497,74.4977,33.5,23,0.0,925.5,8.75,36.7,151,22.8,21.0,0,5,7,0,2026-03-05T17:06:30.879944+05:30
Coimbatore,Tamil Nadu,11.0168,76.9558,33.7,22,0.0,960.4,9.15,34.2,127,24.9,24.2,0,5,7,0,2026-03-05T17:06:30.879976+05:30
Madurai,Tamil Nadu,9.9252,78.1198,35.8,22,0.0,991.0,9.1,29.9,94,28.9,26.7,0,5,10,0,2026-03-05T17:06:30.879987+05:30
Trichy,Tamil Nadu,10.7905,78.7047,34.1,31,0.0,998.3,9.0,33.8,90,34.3,31.2,0,5,7,0,2026-03-05T17:06:30.879997+05:30
Salem,Tamil Nadu,11.6643,78.146,36.5,18,0.0,975.2,9.05,19.8,129,25.7,23.7,0,5,10,0,2026-03-05T17:06:30.880006+05:30
Tirunelveli,Tamil Nadu,8.7139,77.7567,36.4,23,0.0,1001.4,9.15,48.6,88,15.7,14.6,0,5,7,0,2026-03-05T17:06:30.880020+05:30
Vellore,Tamil Nadu,12.9165,79.1325,33.8,22,0.0,983.3,8.9,29.2,120,34.2,29.8,0,5,7,0,2026-03-05T17:06:30.880032+05:30
Erode,Tamil Nadu,11.341,77.7172,35.6,31,0.0,986.9,9.05,19.8,111,29.6,28.3,0,5,10,0,2026-03-05T17:06:30.880044+05:30
Kochi,Kerala,9.9312,76.2673,28.4,77,0.0,1006.9,8.95,38.2,145,43.0,40.6,7,5,4,1,2026-03-05T17:06:30.880056+05:30
Thiruvananthapuram,Kerala,8.5241,76.9366,28.3,75,0.0,1007.0,9.0,32.8,130,31.8,29.0,7,5,4,1,2026-03-05T17:06:30.880069+05:30
Kozhikode,Kerala,11.2588,75.7804,29.0,78,0.0,1006.4,8.85,30.6,127,44.4,39.7,7,5,4,1,2026-03-05T17:06:30.880078+05:30
Thrissur,Kerala,10.5276,76.2144,30.1,70,0.0,1005.4,8.9,36.7,142,36.0,34.1,3,5,4,1,2026-03-05T17:06:30.880088+05:30
Kannur,Kerala,11.8745,75.3704,29.5,74,0.0,1005.8,8.85,37.4,134,45.5,41.6,7,5,4,1,2026-03-05T17:06:30.880096+05:30
Patna,Bihar,25.5941,85.1376,29.9,42,0.0,1000.7,7.2,14.4,172,115.7,57.2,4,5,4,0,2026-03-05T17:06:30.880105+05:30
Gaya,Bihar,24.7914,85.0002,27.7,55,0.0,994.1,7.3,12.6,152,138.3,49.2,4,5,7,1,2026-03-05T17:06:30.880114+05:30
Muzaffarpur,Bihar,26.1209,85.3647,29.7,42,0.0,1000.7,7.15,15.5,180,88.9,58.8,4,5,4,0,2026-03-05T17:06:30.880122+05:30
Bhagalpur,Bihar,25.2425,87.0117,28.3,48,0.0,1001.5,7.25,14.0,167,72.9,54.8,4,5,4,1,2026-03-05T17:06:30.880129+05:30
Ranchi,Jharkhand,23.3441,85.3096,27.9,35,0.0,937.3,7.95,19.1,144,100.1,38.6,4,5,7,0,2026-03-05T17:06:30.880136+05:30
Jamshedpur,Jharkhand,22.8046,86.2029,31.9,28,0.0,989.7,7.85,11.2,166,104.8,57.9,0,5,7,0,2026-03-05T17:06:30.880143+05:30
Dhanbad,Jharkhand,23.7957,86.4304,31.8,26,0.0,979.1,7.75,16.2,173,118.7,72.2,0,5,7,0,2026-03-05T17:06:30.880150+05:30
Bokaro,Jharkhand,23.6693,86.1511,31.1,30,0.0,983.1,7.75,13.3,169,121.5,75.2,0,5,7,0,2026-03-05T17:06:30.880158+05:30
Bhubaneswar,Odisha,20.2961,85.8245,34.9,20,0.0,1000.2,8.15,25.2,161,84.5,45.5,0,5,4,0,2026-03-05T17:06:30.880165+05:30
Cuttack,Odisha,20.4625,85.8828,34.6,20,0.0,1002.2,8.2,26.6,161,84.5,45.5,0,5,4,0,2026-03-05T17:06:30.880172+05:30
Rourkela,Odisha,22.2604,84.8536,33.1,29,0.0,983.3,7.75,23.0,124,127.6,39.7,0,5,7,0,2026-03-05T17:06:30.880179+05:30
Raipur,Chhattisgarh,21.2514,81.6296,36.2,16,0.0,973.6,7.85,27.7,115,28.1,15.7,0,5,10,0,2026-03-05T17:06:30.880186+05:30
Bhilai,Chhattisgarh,21.1938,81.3509,36.2,16,0.0,974.0,7.85,27.7,96,27.8,14.6,0,5,10,0,2026-03-05T17:06:30.880193+05:30
Guwahati,Assam,26.1158,91.7086,29.3,51,0.0,1001.0,7.15,18.0,140,42.6,36.9,4,5,4,1,2026-03-05T17:06:30.880199+05:30
Agartala,Tripura,23.8315,91.2868,28.5,53,0.0,1005.4,7.55,16.2,181,65.7,53.4,4,5,4,1,2026-03-05T17:06:30.880207+05:30
Shillong,Meghalaya,25.5788,91.8933,17.5,62,0.0,856.6,7.55,15.8,125,48.8,40.5,3,5,7,0,2026-03-05T17:06:30.880214+05:30
Imphal,Manipur,24.817,93.9368,21.8,53,0.0,922.6,7.75,23.0,150,34.6,29.8,0,5,7,0,2026-03-05T17:06:30.880221+05:30
Aizawl,Mizoram,23.7271,92.7176,23.3,45,0.0,892.3,7.7,23.8,156,59.8,50.9,0,5,7,0,2026-03-05T17:06:30.880228+05:30
Kohima,Nagaland,25.6701,94.1077,16.8,79,0.0,854.6,7.6,36.7,140,36.0,31.3,3,5,7,0,2026-03-05T17:06:30.880235+05:30
Gangtok,Sikkim,27.3314,88.6138,18.4,67,0.0,838.5,7.5,21.2,124,31.0,26.9,3,5,7,0,2026-03-05T17:06:30.880241+05:30
Siliguri,West Bengal,26.7271,88.3953,24.9,56,0.0,994.4,7.15,22.3,142,38.5,31.5,0,5,7,0,2026-03-05T17:06:34.138545+05:30
Durgapur,West Bengal,23.5204,87.3119,31.6,31,0.0,994.3,7.7,20.2,177,101.5,61.2,0,5,7,0,2026-03-05T17:06:34.138577+05:30
Asansol,West Bengal,23.6739,86.9524,31.7,30,0.0,992.9,7.7,15.1,176,118.7,65.7,0,5,7,0,2026-03-05T17:06:34.138588+05:30
Pondicherry,Puducherry,11.9139,79.8145,32.2,44,0.0,1007.3,8.85,24.5,82,19.7,16.9,0,5,4,1,2026-03-05T17:06:34.138598+05:30
Port Blair,Andaman and Nicobar Islands,11.6234,92.7265,27.2,72,0.0,1006.2,8.8,23.4,65,18.3,13.2,7,5,4,1,2026-03-05T17:06:34.138608+05:30
Haridwar,Uttarakhand,29.9457,78.1642,29.1,54,0.0,974.2,5.65,21.6,138,81.0,42.7,4,5,3,1,2026-03-05T17:06:34.138617+05:30
Rishikesh,Uttarakhand,30.0869,78.2676,28.1,54,0.0,967.1,5.7,20.9,126,75.2,44.7,4,5,3,1,2026-03-05T17:06:34.138627+05:30
Nainital,Uttarakhand,29.3919,79.4542,19.8,70,0.0,806.5,6.5,53.6,153,101.5,61.0,3,5,7,0,2026-03-05T17:06:34.138636+05:30
Mussoorie,Uttarakhand,30.4599,78.0664,19.6,69,0.0,803.7,6.0,37.1,126,56.9,40.3,3,5,3,0,2026-03-05T17:06:34.138645+05:30
Dharamshala,Himachal Pradesh,32.219,76.3234,25.8,46,0.0,871.3,6.3,24.5,50,23.6,11.3,4,5,7,0,2026-03-05T17:06:34.138653+05:30
Dalhousie,Himachal Pradesh,32.5387,75.971,24.6,42,0.0,807.2,6.45,21.2,83,38.6,22.2,0,5,7,0,2026-03-05T17:06:34.138662+05:30
Patiala,Punjab,30.3398,76.3869,30.9,43,0.0,978.5,5.65,28.4,355,601.6,94.8,0,5,3,1,2026-03-05T17:06:34.138671+05:30
Bhatinda,Punjab,30.211,74.9455,32.2,42,0.0,984.5,6.35,27.0,137,65.0,39.5,0,5,7,1,2026-03-05T17:06:34.138679+05:30
Rohtak,Haryana,28.8955,76.6066,31.6,40,0.0,982.2,5.85,33.1,556,1017.0,129.5,0,5,3,1,2026-03-05T17:06:34.138687+05:30
Panipat,Haryana,29.3909,76.9635,31.5,40,0.0,980.4,5.65,32.4,1252,1665.2,189.5,0,5,3,1,2026-03-05T17:06:34.138696+05:30
Mathura,Uttar Pradesh,27.4924,77.6737,33.2,31,0.0,986.8,6.1,34.9,628,1233.1,144.8,0,5,7,0,2026-03-05T17:06:34.138703+05:30
Vrindavan,Uttar Pradesh,27.5823,77.7027,32.9,32,0.0,987.3,6.1,37.1,628,1233.1,144.8,0,5,7,0,2026-03-05T17:06:34.138711+05:30
Ayodhya,Uttar Pradesh,26.7922,82.1998,29.7,47,0.0,995.4,6.55,10.1,177,131.8,69.4,4,5,7,1,2026-03-05T17:06:34.138720+05:30
Ratlam,Madhya Pradesh,23.3315,75.0367,32.8,23,0.0,956.1,7.35,23.0,95,21.5,12.7,0,5,7,0,2026-03-05T17:06:34.138728+05:30
Sagar,Madhya Pradesh,23.8388,78.7378,32.2,25,0.0,950.9,7.3,31.7,69,38.6,12.7,0,5,7,0,2026-03-05T17:06:34.138736+05:30
Satna,Madhya Pradesh,24.6005,80.8322,33.2,24,0.0,971.3,7.3,40.0,82,52.5,24.7,0,5,7,0,2026-03-05T17:06:34.138742+05:30
Akola,Maharashtra,20.7002,77.0082,36.3,15,0.0,974.9,7.8,26.6,87,19.1,12.3,0,5,10,0,2026-03-05T17:06:34.138750+05:30
Amravati,Maharashtra,20.9374,77.7796,36.6,11,0.0,967.1,7.75,16.9,84,19.0,12.3,0,5,10,0,2026-03-05T17:06:34.138758+05:30
Latur,Maharashtra,18.4088,76.5604,33.7,17,0.0,940.0,8.25,32.0,121,19.4,17.2,0,5,7,0,2026-03-05T17:06:34.138765+05:30
Nanded,Maharashtra,19.1383,77.3091,35.9,17,0.0,968.3,8.05,25.2,102,13.5,11.4,0,5,10,0,2026-03-05T17:06:34.138772+05:30
Gulbarga,Karnataka,17.3297,76.8343,36.0,19,0.0,958.1,8.35,22.3,124,14.7,13.1,0,5,10,0,2026-03-05T17:06:34.138778+05:30
Bidar,Karnataka,17.9104,77.5199,34.2,19,0.0,935.5,8.3,24.8,114,14.6,12.8,0,5,7,0,2026-03-05T17:06:34.138784+05:30
Hospet,Karnataka,15.2689,76.3909,35.4,17,0.0,954.9,8.7,25.9,132,25.0,23.4,0,5,10,0,2026-03-05T17:06:34.138791+05:30
Tirupur,Tamil Nadu,11.1085,77.3411,35.2,19,0.0,973.7,9.15,29.2,123,28.5,27.5,0,5,10,0,2026-03-05T17:06:34.138797+05:30
Alappuzha,Kerala,9.4981,76.3388,28.4,75,0.0,1007.1,8.95,35.3,121,39.9,36.8,7,5,4,1,2026-03-05T17:06:34.138804+05:30
Munnar,Kerala,10.0889,77.0595,28.6,43,0.0,857.8,9.45,23.4,103,21.2,20.4,4,5,7,0,2026-03-05T17:06:34.138811+05:30
Silchar,Assam,24.8333,92.7789,29.7,44,0.0,1003.7,7.5,13.7,151,52.6,44.7,4,5,4,1,2026-03-05T17:06:34.138817+05:30
Dibrugarh,Assam,27.4728,94.912,28.0,52,0.0,994.6,7.2,14.4,119,30.9,27.2,4,5,7,1,2026-03-05T17:06:34.138824+05:30
