city,state,latitude,longitude,temp,humidity,rain,pressure,uv_index,wind_gusts,aqi,pm10,pm2_5,no2,co,o3,so2,mosquito_risk,arthritis_risk,migraine_risk,frizz_risk,updated_at
Delhi,Delhi,28.6139,77.209,27.7,82,0.0,979.8,7.75,25.9,229,220.7,115.7,96.4,1330.0,33.0,41.4,7,5,7,1,2026-06-13T21:45:20.756119+05:30
Mumbai,Maharashtra,19.076,72.8777,30.9,68,0.0,1008.6,6.5,51.5,72,46.1,21.1,5.9,168.0,48.0,4.0,3,0,4,1,2026-06-13T21:45:20.756165+05:30
Bangalore,Karnataka,12.9716,77.5946,23.2,91,0.0,913.2,8.45,37.8,45,18.9,15.4,28.2,585.0,42.0,5.9,3,5,7,1,2026-06-13T21:45:20.756181+05:30
Hyderabad,Telangana,17.385,78.4867,27.6,82,0.0,952.4,6.4,38.2,85,50.8,31.8,24.8,812.0,57.0,7.1,7,5,7,1,2026-06-13T21:45:20.756191+05:30
Chennai,Tamil Nadu,13.0827,80.2707,30.1,70,0.0,1007.3,4.95,38.9,95,30.7,23.6,15.7,327.0,101.0,7.8,3,5,0,1,2026-06-13T21:45:20.756199+05:30
Kolkata,West Bengal,22.5726,88.3639,28.0,93,0.0,1003.0,8.9,40.7,118,50.8,47.1,18.7,590.0,67.0,10.3,7,5,4,1,2026-06-13T21:45:20.756206+05:30
Pune,Maharashtra,18.5204,73.8567,26.2,76,0.0,948.8,7.8,51.8,60,28.3,15.3,8.0,147.0,48.0,6.6,7,5,7,1,2026-06-13T21:45:20.756213+05:30
Ahmedabad,Gujarat,23.0225,72.5714,33.5,61,0.0,999.1,8.05,43.9,71,44.7,20.1,4.1,169.0,68.0,3.1,3,5,7,1,2026-06-13T21:45:20.756219+05:30
Jaipur,Rajasthan,26.9124,75.7873,28.4,71,0.0,956.9,8.2,28.4,111,90.1,42.1,25.6,830.0,53.0,9.2,7,5,7,1,2026-06-13T21:45:20.756230+05:30
Lucknow,Uttar Pradesh,26.8467,80.9462,28.4,81,0.0,990.2,8.0,32.4,135,99.4,65.2,36.6,761.0,53.0,14.3,7,5,7,1,2026-06-13T21:45:20.756237+05:30
Kanpur,Uttar Pradesh,26.4499,80.3319,29.9,66,0.0,988.5,8.3,52.2,152,185.8,68.0,27.0,526.0,67.0,10.7,7,5,7,1,2026-06-13T21:45:20.756243+05:30
Chandigarh,Chandigarh,30.7333,76.7794,25.6,75,0.0,965.7,7.8,49.7,115,117.1,58.3,44.8,1177.0,79.0,14.0,7,5,7,1,2026-06-13T21:45:20.756250+05:30
Srinagar,Jammu and Kashmir,34.0837,74.7973,16.3,86,0.0,841.6,7.4,20.9,73,41.4,35.5,39.8,869.0,54.0,3.8,3,10,7,0,2026-06-13T21:45:20.756256+05:30
Jammu,Jammu and Kashmir,32.7266,74.857,26.3,63,0.0,969.7,8.4,38.2,87,89.4,46.3,43.0,631.0,61.0,5.6,7,5,7,1,2026-06-13T21:45:20.756263+05:30
Amritsar,Punjab,31.634,74.8723,25.7,79,0.0,977.8,8.45,51.5,115,97.1,44.7,22.4,488.0,68.0,5.2,7,5,7,1,2026-06-13T21:45:20.756269+05:30
Ludhiana,Punjab,30.901,75.8573,26.3,81,0.0,975.5,8.05,42.1,137,109.9,63.8,35.8,930.0,57.0,11.7,7,5,7,1,2026-06-13T21:45:20.756275+05:30
Jalandhar,Punjab,31.326,75.5762,25.7,81,0.0,976.7,8.2,49.7,111,99.4,51.9,32.1,1085.0,58.0,5.9,7,5,7,1,2026-06-13T21:45:20.756281+05:30
Dehradun,Uttarakhand,30.6284,78.0322,14.1,96,0.0,826.3,7.65,30.6,73,35.4,15.9,21.7,211.0,72.0,1.1,3,10,7,0,2026-06-13T21:45:20.756287+05:30
Shimla,Himachal Pradesh,31.1048,77.1734,12.6,81,0.0,781.2,7.4,27.7,87,43.2,26.8,29.2,318.0,57.0,1.6,3,10,7,0,2026-06-13T21:45:20.756296+05:30
Manali,Himachal Pradesh,32.2396,77.1887,15.2,66,0.0,816.1,4.85,37.1,90,6.4,4.7,31.4,310.0,91.0,0.3,3,5,3,0,2026-06-13T21:45:20.756303+05:30
Gurgaon,Haryana,28.4595,77.0266,28.5,72,0.0,978.2,7.85,27.7,1008,417.2,161.6,117.3,1366.0,29.0,42.8,7,5,7,1,2026-06-13T21:45:20.756312+05:30
Noida,Uttar Pradesh,28.5355,77.391,28.0,81,0.0,981.2,7.8,23.4,1008,417.2,161.6,117.3,972.0,29.0,42.8,7,5,7,1,2026-06-13T21:45:20.756318+05:30
Ghaziabad,Uttar Pradesh,28.6692,77.4538,27.3,84,0.0,979.5,7.8,25.6,159,215.1,108.0,60.3,553.0,49.0,22.5,7,5,7,1,2026-06-13T21:45:20.756324+05:30
Faridabad,Haryana,28.4089,77.3178,28.2,78,0.0,980.6,7.8,25.9,1008,417.2,161.6,117.3,1155.0,29.0,42.8,7,5,7,1,2026-06-13T21:45:20.756330+05:30
Meerut,Uttar Pradesh,28.9845,77.7064,27.0,83,0.0,978.3,7.7,35.3,159,215.1,108.0,60.3,683.0,49.0,22.5,7,5,7,1,2026-06-13T21:45:20.756337+05:30
Agra,Uttar Pradesh,27.1767,78.0081,29.3,66,0.0,984.7,8.1,25.2,631,411.6,122.5,53.9,481.0,56.0,20.3,7,5,7,1,2026-06-13T21:45:20.756343+05:30
Varanasi,Uttar Pradesh,25.3176,82.9739,29.6,74,0.0,994.7,8.4,61.6,157,94.8,78.0,28.2,861.0,91.0,17.8,7,5,7,1,2026-06-13T21:45:20.756349+05:30
Prayagraj,Uttar Pradesh,25.4358,81.8463,29.3,67,0.0,992.9,8.7,46.8,158,104.5,86.8,35.6,452.0,79.0,21.0,7,5,7,1,2026-06-13T21:45:20.756356+05:30
Gorakhpur,Uttar Pradesh,26.7606,83.3732,27.4,78,0.0,994.2,8.7,32.8,145,73.1,62.9,25.9,546.0,81.0,12.3,7,5,7,1,2026-06-13T21:45:20.756364+05:30
Bareilly,Uttar Pradesh,28.367,79.4304,28.5,80,0.0,983.2,7.95,21.2,152,128.5,64.7,24.2,438.0,85.0,12.9,7,5,7,1,2026-06-13T21:45:20.756370+05:30
Aligarh,Uttar Pradesh,27.8974,78.088,28.7,68,0.0,982.4,7.95,25.6,294,299.0,116.9,65.8,437.0,40.0,20.2,7,5,7,1,2026-06-13T21:45:20.756377+05:30
Moradabad,Uttar Pradesh,28.8386,78.7733,27.4,82,0.0,979.8,7.95,44.6,152,115.5,67.8,32.5,533.0,70.0,12.0,7,5,7,1,2026-06-13T21:45:20.756383+05:30
Saharanpur,Uttar Pradesh,29.9637,77.546,25.6,85,0.0,972.4,7.55,37.8,124,170.9,95.5,58.2,558.0,56.0,20.9,7,5,7,1,2026-06-13T21:45:20.756391+05:30
Jhansi,Uttar Pradesh,25.4484,78.5685,31.3,56,0.0,975.3,8.5,29.9,136,37.8,28.7,6.1,379.0,82.0,5.3,0,5,7,1,2026-06-13T21:45:23.981006+05:30
Surat,Gujarat,21.1702,72.8311,30.6,75,0.0,1005.1,7.6,54.7,73,41.7,24.1,14.9,182.0,38.0,24.3,3,5,4,1,2026-06-13T21:45:23.981044+05:30
Vadodara,Gujarat,22.3072,73.1812,31.1,69,0.0,1001.8,8.0,50.8,70,37.4,23.6,16.6,191.0,39.0,18.6,3,5,4,1,2026-06-13T21:45:23.981055+05:30
Rajkot,Gujarat,22.3039,70.8022,31.7,57,0.0,992.4,7.55,53.3,66,41.6,18.3,4.9,110.0,52.0,5.3,0,5,7,1,2026-06-13T21:45:23.981063+05:30
Thane,Maharashtra,19.2183,72.9781,30.8,68,0.0,1008.0,6.65,42.1,72,46.1,21.1,5.9,164.0,48.0,4.0,3,0,4,1,2026-06-13T21:45:23.981071+05:30
Nagpur,Maharashtra,21.1458,79.0882,29.8,72,0.0,971.2,8.9,59.0,105,62.2,42.4,38.2,273.0,29.0,17.7,7,5,7,1,2026-06-13T21:45:23.981079+05:30
Nashik,Maharashtra,19.9975,73.7898,26.2,78,0.0,945.6,8.0,52.9,64,31.1,16.2,3.8,126.0,49.0,1.5,7,5,7,1,2026-06-13T21:45:23.981086+05:30
Aurangabad,Maharashtra,19.8762,75.3433,29.9,54,0.0,943.7,8.95,49.3,76,39.8,20.4,4.5,130.0,73.0,4.4,4,5,7,1,2026-06-13T21:45:23.981093+05:30
Solapur,Maharashtra,17.6599,75.9064,31.0,50,0.0,956.9,7.8,50.4,63,29.9,16.6,5.1,144.0,74.0,2.6,0,5,7,1,2026-06-13T21:45:23.981101+05:30
Kolhapur,Maharashtra,16.705,74.2433,25.0,87,0.0,948.9,7.7,49.7,51,18.1,10.9,6.1,172.0,46.0,2.5,7,5,7,1,2026-06-13T21:45:23.981108+05:30
Goa,Goa,15.2993,74.124,28.5,78,0.0,999.6,6.9,32.0,64,37.8,20.0,5.2,352.0,47.0,1.8,7,5,7,1,2026-06-13T21:45:23.981116+05:30
Jodhpur,Rajasthan,26.2389,73.0243,34.1,43,0.0,979.1,8.4,40.3,143,244.0,56.5,7.4,263.0,59.0,2.5,0,5,7,1,2026-06-13T21:45:23.981123+05:30
Udaipur,Rajasthan,24.5854,73.7125,30.7,52,0.0,944.1,8.8,38.9,75,53.0,23.5,5.0,170.0,69.0,2.6,0,5,7,1,2026-06-13T21:45:23.981130+05:30
Kota,Rajasthan,25.2138,75.8648,29.3,65,0.0,976.7,8.35,49.7,90,82.2,42.3,14.6,230.0,59.0,9.1,7,5,7,1,2026-06-13T21:45:23.981137+05:30
Bikaner,Rajasthan,28.0229,73.3119,34.5,42,0.0,977.8,8.5,33.5,153,166.2,63.6,4.5,271.0,76.0,3.2,0,5,7,1,2026-06-13T21:45:23.981144+05:30
Ajmer,Rajasthan,26.4499,74.6399,28.5,57,0.0,952.3,8.35,49.7,96,100.4,39.3,13.2,471.0,63.0,3.7,4,5,7,1,2026-06-13T21:45:23.981150+05:30
Gwalior,Madhya Pradesh,26.2183,78.1828,29.7,66,0.0,980.3,8.3,21.6,159,146.2,57.6,13.4,401.0,73.0,6.6,7,5,7,1,2026-06-13T21:45:23.981157+05:30
Indore,Madhya Pradesh,22.7196,75.8577,32.6,42,0.0,946.4,8.6,44.6,80,48.1,25.1,4.8,221.0,92.0,4.7,0,5,7,1,2026-06-13T21:45:23.981164+05:30
Bhopal,Madhya Pradesh,23.2599,77.4126,28.0,68,0.0,951.5,8.65,37.1,98,74.5,33.8,10.1,341.0,65.0,4.6,7,5,7,1,2026-06-13T21:45:23.981171+05:30
Jabalpur,Madhya Pradesh,23.1815,79.9864,28.6,67,0.0,959.1,8.6,26.6,100,63.8,35.9,11.5,259.0,78.0,4.5,7,5,7,1,2026-06-13T21:45:23.981177+05:30
Ujjain,Madhya Pradesh,23.1765,75.7885,31.9,45,0.0,951.9,8.55,45.4,78,49.5,26.3,3.0,245.0,94.0,5.1,0,5,7,1,2026-06-13T21:45:23.981185+05:30
Visakhapatnam,Andhra Pradesh,17.6868,83.2185,30.3,78,0.0,1001.3,9.0,43.6,106,36.4,29.7,27.5,362.0,86.0,39.9,3,5,4,1,2026-06-13T21:45:23.981192+05:30
Vijayawada,Andhra Pradesh,16.5062,80.648,29.7,76,0.0,1001.0,2.5,32.0,84,58.3,45.1,20.0,381.0,59.0,7.8,7,5,0,1,2026-06-13T21:45:23.981198+05:30
Guntur,Andhra Pradesh,16.3067,80.4365,31.2,64,0.0,1002.3,3.45,33.8,86,60.1,45.6,24.6,371.0,47.0,7.4,3,5,0,1,2026-06-13T21:45:23.981205+05:30
Nellore,Andhra Pradesh,14.4426,79.9865,31.2,62,0.0,1005.3,8.0,43.2,58,40.5,29.9,12.5,252.0,92.0,6.6,3,5,4,1,2026-06-13T21:45:23.981213+05:30
Kurnool,Andhra Pradesh,15.8281,78.0373,29.8,60,0.0,976.2,2.8,33.8,73,53.8,32.0,16.1,184.0,61.0,5.9,4,5,3,1,2026-06-13T21:45:23.981221+05:30
Kakinada,Andhra Pradesh,16.9891,82.2475,28.9,75,0.0,1005.4,9.0,33.8,75,31.8,24.2,6.2,497.0,104.0,4.2,7,5,4,1,2026-06-13T21:45:23.981228+05:30
Tirupati,Andhra Pradesh,13.6288,79.4192,27.8,75,0.0,991.2,8.1,31.3,55,25.9,20.1,25.6,315.0,45.0,3.5,7,5,7,1,2026-06-13T21:45:23.981234+05:30
Warangal,Telangana,17.9689,79.5941,27.3,81,0.0,977.1,4.3,40.7,99,82.9,58.8,25.8,349.0,45.0,7.6,7,5,3,1,2026-06-13T21:45:23.981240+05:30
Nizamabad,Telangana,18.6725,78.0941,26.2,89,0.0,962.8,8.8,41.0,90,79.4,44.1,20.8,355.0,66.0,7.1,7,5,7,1,2026-06-13T21:45:23.981247+05:30
Mysore,Karnataka,12.2958,76.6396,23.0,86,0.0,930.6,7.6,39.6,35,15.4,11.5,17.5,174.0,45.0,2.8,3,5,7,1,2026-06-13T21:45:23.981254+05:30
Mangalore,Karnataka,12.9141,74.856,26.7,90,0.0,1009.6,8.55,28.4,48,29.7,15.4,12.9,387.0,43.0,4.4,7,0,4,1,2026-06-13T21:45:23.981260+05:30
Hubli-Dharwad,Karnataka,15.3647,75.124,24.3,86,0.0,942.0,7.3,49.7,37,12.4,7.8,7.8,149.0,43.0,1.7,3,5,7,1,2026-06-13T21:45:23.981266+05:30
Belgaum,Karnataka,15.8497,74.4977,23.0,91,0.0,927.0,7.9,49.3,40,19.8,10.4,5.1,141.0,46.0,1.6,3,5,7,1,2026-06-13T21:45:27.271441+05:30
Coimbatore,Tamil Nadu,11.0168,76.9558,23.3,98,0.0,963.9,8.75,49.3,32,14.5,10.4,12.5,229.0,41.0,3.3,3,5,7,1,2026-06-13T21:45:27.271478+05:30
Madurai,Tamil Nadu,9.9252,78.1198,29.8,58,0.0,994.8,8.4,44.3,60,24.2,19.4,29.4,161.0,25.0,5.9,4,5,7,1,2026-06-13T21:45:27.271489+05:30
Trichy,Tamil Nadu,10.7905,78.7047,27.4,80,0.0,1001.7,8.35,55.4,51,25.7,20.3,16.0,232.0,59.0,4.5,7,5,4,1,2026-06-13T21:45:27.271498+05:30
Salem,Tamil Nadu,11.6643,78.146,25.1,92,0.0,979.3,7.35,32.8,56,21.5,15.3,15.8,388.0,56.0,6.8,7,5,7,1,2026-06-13T21:45:27.271507+05:30
Tirunelveli,Tamil Nadu,8.7139,77.7567,28.9,63,0.0,1005.9,8.4,39.2,32,15.8,10.0,6.6,158.0,48.0,1.7,7,5,4,1,2026-06-13T21:45:27.271515+05:30
Vellore,Tamil Nadu,12.9165,79.1325,27.3,81,0.0,985.2,8.35,40.7,52,18.4,15.0,14.8,323.0,69.0,3.9,7,5,7,1,2026-06-13T21:45:27.271523+05:30
Erode,Tamil Nadu,11.341,77.7172,26.3,79,0.0,991.2,7.95,36.7,52,20.2,14.3,13.3,207.0,56.0,3.3,7,5,7,1,2026-06-13T21:45:27.271531+05:30
Kochi,Kerala,9.9312,76.2673,25.1,98,0.0,1012.7,7.6,28.8,64,34.7,24.0,27.2,246.0,19.0,5.7,7,0,4,1,2026-06-13T21:45:27.271539+05:30
Thiruvananthapuram,Kerala,8.5241,76.9366,24.7,95,0.1,1012.2,8.05,41.4,31,16.3,7.8,2.5,124.0,57.0,1.0,6,0,4,1,2026-06-13T21:45:27.271546+05:30
Kozhikode,Kerala,11.2588,75.7804,25.3,94,0.0,1011.3,8.4,34.2,35,21.8,9.6,1.8,488.0,65.0,1.1,7,0,4,1,2026-06-13T21:45:27.271553+05:30
Thrissur,Kerala,10.5276,76.2144,24.3,99,0.2,1011.1,7.95,31.3,64,38.3,29.7,22.5,311.0,22.0,4.9,6,0,4,1,2026-06-13T21:45:27.271561+05:30
Kannur,Kerala,11.8745,75.3704,26.1,90,0.0,1010.3,8.55,31.0,43,34.2,23.1,24.4,401.0,30.0,4.5,7,0,4,1,2026-06-13T21:45:27.271569+05:30
Patna,Bihar,25.5941,85.1376,28.4,84,0.0,997.2,8.85,45.4,158,111.5,97.6,47.3,559.0,66.0,25.1,7,5,7,1,2026-06-13T21:45:27.271576+05:30
Gaya,Bihar,24.7914,85.0002,28.5,79,0.0,990.9,8.9,57.2,162,127.1,108.5,43.6,459.0,88.0,24.9,7,5,7,1,2026-06-13T21:45:27.271584+05:30
Muzaffarpur,Bihar,26.1209,85.3647,29.0,75,0.0,996.9,8.85,23.0,157,124.3,109.9,49.3,501.0,72.0,26.2,7,5,7,1,2026-06-13T21:45:27.271591+05:30
Bhagalpur,Bihar,25.2425,87.0117,29.9,77,0.0,997.7,7.9,40.0,184,75.4,68.2,19.4,469.0,112.0,21.6,7,5,7,1,2026-06-13T21:45:27.271598+05:30
Ranchi,Jharkhand,23.3441,85.3096,24.6,87,0.0,935.1,9.3,30.6,150,74.7,58.9,14.2,350.0,79.0,6.1,3,5,7,1,2026-06-13T21:45:27.271605+05:30
Jamshedpur,Jharkhand,22.8046,86.2029,28.5,77,0.0,988.1,9.05,46.1,156,89.9,75.2,24.1,860.0,78.0,20.8,7,5,7,1,2026-06-13T21:45:27.271611+05:30
Dhanbad,Jharkhand,23.7957,86.4304,26.9,90,0.1,977.0,8.9,34.6,170,102.2,91.5,56.8,568.0,57.0,149.9,10,5,7,1,2026-06-13T21:45:27.271619+05:30
Bokaro,Jharkhand,23.6693,86.1511,26.2,95,0.0,980.7,8.9,29.5,166,93.8,78.9,38.6,317.0,69.0,107.6,7,5,7,1,2026-06-13T21:45:27.271626+05:30
Bhubaneswar,Odisha,20.2961,85.8245,28.9,89,0.0,999.8,8.8,41.4,122,60.3,54.4,26.3,1213.0,81.0,10.8,7,5,7,1,2026-06-13T21:45:27.271633+05:30
Cuttack,Odisha,20.4625,85.8828,29.4,84,0.0,1001.5,8.9,38.5,122,60.3,54.4,26.3,1036.0,81.0,10.8,7,5,4,1,2026-06-13T21:45:27.271639+05:30
Rourkela,Odisha,22.2604,84.8536,27.3,91,0.0,982.4,9.0,46.8,143,65.0,55.1,19.1,688.0,88.0,20.1,7,5,7,1,2026-06-13T21:45:27.271646+05:30
Raipur,Chhattisgarh,21.2514,81.6296,32.7,49,0.0,972.1,8.95,40.0,133,99.7,62.6,42.8,333.0,51.0,56.7,0,5,7,1,2026-06-13T21:45:27.271653+05:30
Bhilai,Chhattisgarh,21.1938,81.3509,31.2,55,0.0,972.5,8.95,43.2,125,89.9,55.3,34.0,755.0,66.0,44.2,0,5,7,1,2026-06-13T21:45:27.271659+05:30
Guwahati,Assam,26.1158,91.7086,24.8,98,0.1,999.7,8.8,26.6,78,26.0,23.2,10.4,514.0,56.0,2.3,6,5,7,1,2026-06-13T21:45:27.271666+05:30
Agartala,Tripura,23.8315,91.2868,26.9,90,0.0,1004.1,8.85,27.7,80,23.0,19.0,13.2,253.0,52.0,2.4,7,5,4,1,2026-06-13T21:45:27.271672+05:30
Shillong,Meghalaya,25.5788,91.8933,19.3,95,0.0,855.8,6.75,19.1,60,8.0,7.0,6.4,258.0,91.0,2.4,3,10,7,1,2026-06-13T21:45:27.271679+05:30
Imphal,Manipur,24.817,93.9368,23.0,93,0.0,921.7,7.95,27.0,36,16.1,14.8,13.2,539.0,54.0,3.0,3,5,7,1,2026-06-13T21:45:27.271686+05:30
Aizawl,Mizoram,23.7271,92.7176,19.8,95,0.0,891.2,8.85,25.2,37,6.7,5.3,4.6,190.0,60.0,0.9,3,10,7,1,2026-06-13T21:45:27.271693+05:30
Kohima,Nagaland,25.6701,94.1077,19.3,94,0.1,853.9,2.8,21.2,32,5.2,4.9,6.9,352.0,60.0,0.8,6,10,3,1,2026-06-13T21:45:27.271700+05:30
Gangtok,Sikkim,27.3314,88.6138,16.8,98,0.3,836.0,8.6,38.5,81,16.4,12.7,10.0,462.0,105.0,1.6,6,10,7,1,2026-06-13T21:45:27.271706+05:30
Siliguri,West Bengal,26.7271,88.3953,26.6,88,0.0,990.1,8.65,20.5,149,55.6,42.5,11.8,659.0,118.0,5.7,7,5,7,1,2026-06-13T21:45:30.523827+05:30
Durgapur,West Bengal,23.5204,87.3119,27.3,87,0.0,992.1,8.85,27.4,157,78.7,74.0,33.3,1043.0,81.0,46.3,7,5,7,1,2026-06-13T21:45:30.523866+05:30
Asansol,West Bengal,23.6739,86.9524,28.8,81,0.0,990.6,8.85,29.9,157,77.5,71.5,31.4,491.0,88.0,46.9,7,5,7,1,2026-06-13T21:45:30.523877+05:30
Pondicherry,Puducherry,11.9139,79.8145,27.0,92,0.1,1009.5,8.35,41.0,77,23.8,17.1,16.6,353.0,80.0,6.8,10,0,4,1,2026-06-13T21:45:30.523886+05:30
Port Blair,Andaman and Nicobar Islands,11.6234,92.7265,27.1,87,0.0,1009.9,8.8,39.6,20,7.2,4.4,0.4,96.0,41.0,0.4,7,0,4,1,2026-06-13T21:45:30.523895+05:30
Haridwar,Uttarakhand,29.9457,78.1642,26.0,81,0.0,970.6,7.65,29.5,136,118.7,63.1,32.3,494.0,83.0,11.4,7,5,7,1,2026-06-13T21:45:30.523903+05:30
Rishikesh,Uttarakhand,30.0869,78.2676,24.4,82,0.0,963.2,7.7,20.5,128,81.5,38.1,13.2,431.0,120.0,5.9,3,5,7,1,2026-06-13T21:45:30.523911+05:30
Nainital,Uttarakhand,29.3919,79.4542,15.0,76,0.0,802.6,8.25,25.9,112,71.9,40.7,16.1,404.0,106.0,8.9,3,5,7,0,2026-06-13T21:45:30.523919+05:30
Mussoorie,Uttarakhand,30.4599,78.0664,14.8,74,0.0,800.0,8.0,25.9,125,57.3,31.5,26.7,317.0,92.0,7.4,3,5,7,0,2026-06-13T21:45:30.523927+05:30
Dharamshala,Himachal Pradesh,32.219,76.3234,19.1,72,0.0,866.4,7.85,31.0,57,20.7,11.0,16.1,469.0,60.0,0.6,3,5,7,0,2026-06-13T21:45:30.523935+05:30
Dalhousie,Himachal Pradesh,32.5387,75.971,11.8,93,0.0,800.2,7.95,26.3,82,32.7,21.0,40.3,568.0,53.0,2.1,3,10,7,0,2026-06-13T21:45:30.523943+05:30
Patiala,Punjab,30.3398,76.3869,26.9,78,0.0,975.1,7.7,38.5,262,141.1,59.6,19.8,585.0,73.0,10.3,7,5,7,1,2026-06-13T21:45:30.523951+05:30
Bhatinda,Punjab,30.211,74.9455,29.1,63,0.0,980.5,8.3,30.6,553,131.3,57.4,21.8,352.0,73.0,9.2,7,5,7,1,2026-06-13T21:45:30.523958+05:30
Rohtak,Haryana,28.8955,76.6066,28.1,73,0.0,978.6,7.8,26.6,655,285.0,114.8,68.6,460.0,57.0,27.8,7,5,7,1,2026-06-13T21:45:30.523965+05:30
Panipat,Haryana,29.3909,76.9635,27.3,81,0.0,977.3,7.65,34.6,997,343.7,117.6,48.7,659.0,60.0,22.0,7,5,7,1,2026-06-13T21:45:30.523974+05:30
Mathura,Uttar Pradesh,27.4924,77.6737,29.7,64,0.0,983.6,8.05,25.9,506,360.4,108.7,68.5,745.0,36.0,12.5,7,5,7,1,2026-06-13T21:45:30.523981+05:30
Vrindavan,Uttar Pradesh,27.5823,77.7027,30.0,62,0.0,984.0,8.05,25.2,506,360.4,108.7,68.5,540.0,36.0,12.5,7,5,7,1,2026-06-13T21:45:30.523988+05:30
Ayodhya,Uttar Pradesh,26.7922,82.1998,26.4,82,0.0,992.1,8.35,42.5,127,87.3,66.6,32.6,476.0,61.0,11.0,7,5,7,1,2026-06-13T21:45:30.523995+05:30
Ratlam,Madhya Pradesh,23.3315,75.0367,31.2,49,0.0,952.5,8.5,40.0,77,47.1,25.5,2.7,148.0,95.0,5.9,0,5,7,1,2026-06-13T21:45:30.524003+05:30
Sagar,Madhya Pradesh,23.8388,78.7378,28.0,64,0.0,948.1,8.75,41.4,86,31.9,22.1,6.4,211.0,85.0,2.7,7,5,7,1,2026-06-13T21:45:30.524010+05:30
Satna,Madhya Pradesh,24.6005,80.8322,29.9,58,0.0,968.5,8.65,35.3,111,75.0,49.2,15.7,268.0,81.0,5.6,4,5,7,1,2026-06-13T21:45:30.524018+05:30
Akola,Maharashtra,20.7002,77.0082,34.7,36,0.0,972.8,8.8,41.0,79,56.0,25.0,7.0,140.0,91.0,6.9,0,5,7,1,2026-06-13T21:45:30.524026+05:30
Amravati,Maharashtra,20.9374,77.7796,33.1,47,0.0,964.9,8.7,39.6,84,55.6,25.0,8.0,191.0,87.0,6.8,0,5,7,1,2026-06-13T21:45:30.524034+05:30
Latur,Maharashtra,18.4088,76.5604,29.9,45,0.0,938.5,8.85,35.6,75,58.6,29.8,9.2,278.0,80.0,4.0,4,5,7,1,2026-06-13T21:45:30.524042+05:30
Nanded,Maharashtra,19.1383,77.3091,29.4,66,0.0,966.6,8.9,36.4,90,73.1,34.3,13.8,247.0,69.0,4.4,7,5,7,1,2026-06-13T21:45:30.524048+05:30
Gulbarga,Karnataka,17.3297,76.8343,30.3,53,0.0,957.2,8.7,34.9,65,40.0,20.3,17.1,258.0,55.0,3.3,0,5,7,1,2026-06-13T21:45:30.524055+05:30
Bidar,Karnataka,17.9104,77.5199,26.2,71,0.0,934.5,7.2,37.4,84,54.7,31.4,21.4,438.0,55.0,3.6,7,5,7,1,2026-06-13T21:45:30.524062+05:30
Hospet,Karnataka,15.2689,76.3909,26.7,75,0.0,956.5,7.6,41.0,44,15.0,9.8,6.8,165.0,55.0,1.8,7,5,7,1,2026-06-13T21:45:30.524069+05:30
Tirupur,Tamil Nadu,11.1085,77.3411,24.7,87,0.0,977.4,8.8,51.5,53,19.8,14.8,16.9,182.0,45.0,4.3,3,5,7,1,2026-06-13T21:45:30.524075+05:30
Alappuzha,Kerala,9.4981,76.3388,25.0,99,0.0,1012.8,7.5,32.4,54,25.4,15.0,12.9,91.0,45.0,3.0,7,0,4,1,2026-06-13T21:45:30.524082+05:30
Munnar,Kerala,10.0889,77.0595,16.7,100,0.0,859.2,7.9,38.2,40,10.7,7.6,8.1,124.0,47.0,2.1,3,10,7,1,2026-06-13T21:45:30.524089+05:30
Silchar,Assam,24.8333,92.7789,25.9,96,0.3,1003.7,8.6,22.7,62,32.6,25.0,10.3,254.0,82.0,4.6,10,5,4,1,2026-06-13T21:45:30.524096+05:30
Dibrugarh,Assam,27.4728,94.912,24.9,98,0.0,993.3,8.1,24.8,81,20.4,19.7,15.2,276.0,49.0,2.0,3,5,7,1,2026-06-13T21:45:30.524102+05:30
