city,state,latitude,longitude,temp,humidity,rain,pressure,uv_index,wind_gusts,aqi,pm10,pm2_5,no2,co,o3,so2,mosquito_risk,arthritis_risk,migraine_risk,frizz_risk,updated_at
Delhi,Delhi,28.6139,77.209,32.1,38,0.0,982.6,7.6,32.0,211,204.9,65.0,21.3,490.0,161.0,25.1,0,5,7,1,2026-05-10T20:26:09.154888+05:30
Mumbai,Maharashtra,19.076,72.8777,31.9,59,0.0,1003.9,7.9,46.8,152,49.1,29.5,21.9,387.0,108.0,14.4,0,5,4,1,2026-05-10T20:26:09.154932+05:30
Bangalore,Karnataka,12.9716,77.5946,26.5,57,0.0,911.0,9.5,43.9,84,34.6,26.7,39.7,332.0,68.0,9.9,4,5,7,1,2026-05-10T20:26:09.154948+05:30
Hyderabad,Telangana,17.385,78.4867,33.3,34,0.0,952.5,9.25,38.9,117,49.8,27.6,12.7,359.0,113.0,7.7,0,5,7,0,2026-05-10T20:26:09.154959+05:30
Chennai,Tamil Nadu,13.0827,80.2707,29.2,71,0.0,1006.5,9.0,40.0,24,5.9,4.2,5.6,168.0,43.0,3.6,7,5,4,1,2026-05-10T20:26:09.154968+05:30
Kolkata,West Bengal,22.5726,88.3639,26.0,87,0.0,1008.6,8.5,19.1,193,57.3,52.2,17.8,1183.0,96.0,16.1,7,0,4,1,2026-05-10T20:26:09.154982+05:30
Pune,Maharashtra,18.5204,73.8567,32.7,35,0.0,945.6,8.5,36.4,123,23.9,15.1,11.8,322.0,122.0,7.5,0,5,7,0,2026-05-10T20:26:09.154990+05:30
Ahmedabad,Gujarat,23.0225,72.5714,41.5,13,0.0,997.5,8.1,34.2,86,77.3,26.0,23.0,313.0,86.0,7.6,0,5,10,0,2026-05-10T20:26:09.155001+05:30
Jaipur,Rajasthan,26.9124,75.7873,32.9,32,0.0,958.7,8.15,28.4,174,217.0,57.3,24.2,387.0,114.0,10.6,0,5,7,0,2026-05-10T20:26:09.155009+05:30
Lucknow,Uttar Pradesh,26.8467,80.9462,30.6,45,0.0,994.0,8.05,35.3,178,58.1,42.7,13.2,453.0,129.0,12.2,0,5,7,1,2026-05-10T20:26:09.155018+05:30
Kanpur,Uttar Pradesh,26.4499,80.3319,31.4,40,0.0,991.9,8.1,33.8,191,121.5,44.5,10.6,391.0,137.0,10.4,0,5,7,1,2026-05-10T20:26:09.155025+05:30
Chandigarh,Chandigarh,30.7333,76.7794,28.1,54,0.0,968.1,7.7,39.2,187,149.5,61.2,21.0,649.0,153.0,13.5,4,5,7,1,2026-05-10T20:26:09.155033+05:30
Srinagar,Jammu and Kashmir,34.0837,74.7973,21.1,54,0.0,841.8,8.25,18.0,133,82.4,39.1,27.3,1026.0,110.0,8.1,0,5,7,0,2026-05-10T20:26:09.155042+05:30
Jammu,Jammu and Kashmir,32.7266,74.857,31.5,41,0.0,971.8,8.2,33.8,171,229.1,75.0,22.1,501.0,125.0,12.2,0,5,7,1,2026-05-10T20:26:09.155050+05:30
Amritsar,Punjab,31.634,74.8723,31.8,46,0.0,979.5,8.35,29.9,186,247.7,79.9,6.6,598.0,152.0,12.8,0,5,7,1,2026-05-10T20:26:09.155060+05:30
Ludhiana,Punjab,30.901,75.8573,31.1,47,0.0,977.7,7.95,34.9,183,232.8,76.8,12.8,546.0,139.0,11.4,0,5,7,1,2026-05-10T20:26:09.155067+05:30
Jalandhar,Punjab,31.326,75.5762,29.9,55,0.0,978.5,8.15,33.5,174,302.7,84.3,17.0,500.0,131.0,11.4,4,5,7,1,2026-05-10T20:26:09.155074+05:30
Dehradun,Uttarakhand,30.6284,78.0322,15.8,86,0.0,830.7,8.05,26.6,147,79.4,42.8,10.8,307.0,145.0,4.1,3,10,7,0,2026-05-10T20:26:09.155083+05:30
Shimla,Himachal Pradesh,31.1048,77.1734,13.9,81,0.0,784.7,8.05,39.2,174,137.8,68.2,12.6,354.0,160.0,14.0,3,10,7,0,2026-05-10T20:26:09.155091+05:30
Manali,Himachal Pradesh,32.2396,77.1887,13.7,93,0.0,817.9,9.75,46.8,171,52.7,23.4,29.6,359.0,151.0,2.0,3,10,7,0,2026-05-10T20:26:09.155099+05:30
Gurgaon,Haryana,28.4595,77.0266,31.1,42,0.0,980.8,7.7,32.0,679,555.1,99.7,24.9,659.0,153.0,22.5,0,5,7,1,2026-05-10T20:26:09.155106+05:30
Noida,Uttar Pradesh,28.5355,77.391,28.6,50,0.0,983.9,7.65,31.3,679,555.1,99.7,24.9,559.0,153.0,22.5,4,5,7,1,2026-05-10T20:26:09.155113+05:30
Ghaziabad,Uttar Pradesh,28.6692,77.4538,29.2,50,0.0,982.2,7.6,34.2,177,143.0,54.6,10.2,366.0,142.0,10.5,4,5,7,1,2026-05-10T20:26:09.155120+05:30
Faridabad,Haryana,28.4089,77.3178,30.1,46,0.0,983.3,7.65,33.8,679,555.1,99.7,24.9,604.0,153.0,22.5,0,5,7,1,2026-05-10T20:26:09.155127+05:30
Meerut,Uttar Pradesh,28.9845,77.7064,27.0,63,0.0,981.2,7.55,34.6,177,143.0,54.6,10.2,458.0,142.0,10.5,7,5,7,1,2026-05-10T20:26:09.155133+05:30
Agra,Uttar Pradesh,27.1767,78.0081,30.8,50,0.0,987.0,7.95,24.1,533,375.3,77.8,15.5,558.0,127.0,15.5,0,5,7,1,2026-05-10T20:26:09.155140+05:30
Varanasi,Uttar Pradesh,25.3176,82.9739,30.1,42,0.0,997.9,8.55,29.9,200,58.3,43.7,13.3,421.0,148.0,15.6,0,5,7,0,2026-05-10T20:26:09.155147+05:30
Prayagraj,Uttar Pradesh,25.4358,81.8463,31.1,38,0.0,995.6,8.45,32.8,195,55.9,40.2,13.8,644.0,132.0,11.7,0,5,7,0,2026-05-10T20:26:09.155157+05:30
Gorakhpur,Uttar Pradesh,26.7606,83.3732,27.6,58,0.0,998.7,8.4,33.8,150,43.4,36.0,15.5,406.0,108.0,8.1,4,5,7,1,2026-05-10T20:26:09.155164+05:30
Bareilly,Uttar Pradesh,28.367,79.4304,28.2,55,0.0,987.1,7.9,29.5,171,102.0,51.7,17.9,494.0,114.0,8.5,4,5,7,1,2026-05-10T20:26:09.155172+05:30
Aligarh,Uttar Pradesh,27.8974,78.088,29.5,45,0.0,985.1,7.75,31.7,249,247.7,67.5,14.0,393.0,129.0,15.1,4,5,7,1,2026-05-10T20:26:09.155178+05:30
Moradabad,Uttar Pradesh,28.8386,78.7733,28.6,53,0.0,983.8,7.75,32.4,186,72.4,56.5,21.7,524.0,130.0,17.6,4,5,7,1,2026-05-10T20:26:09.155185+05:30
Saharanpur,Uttar Pradesh,29.9637,77.546,26.6,64,0.0,975.3,7.35,31.7,163,103.4,61.9,25.1,550.0,109.0,14.5,7,5,7,1,2026-05-10T20:26:09.155192+05:30
Jhansi,Uttar Pradesh,25.4484,78.5685,30.5,45,0.0,977.0,8.4,27.0,182,119.7,40.7,5.6,373.0,133.0,12.2,0,5,7,1,2026-05-10T20:26:12.528975+05:30
Surat,Gujarat,21.1702,72.8311,36.7,25,0.0,1002.5,7.75,34.9,92,73.3,59.8,65.5,518.0,65.0,94.5,0,5,7,0,2026-05-10T20:26:12.529004+05:30
Vadodara,Gujarat,22.3072,73.1812,38.8,18,0.0,999.8,8.1,29.5,133,51.2,28.3,24.3,369.0,123.0,14.4,0,5,10,0,2026-05-10T20:26:12.529014+05:30
Rajkot,Gujarat,22.3039,70.8022,33.8,26,0.0,992.0,7.7,38.9,76,40.6,14.4,4.7,178.0,96.0,7.0,0,5,7,0,2026-05-10T20:26:12.529023+05:30
Thane,Maharashtra,19.2183,72.9781,33.3,41,0.0,1003.0,7.9,45.4,152,49.1,29.5,21.9,243.0,108.0,14.4,0,5,4,1,2026-05-10T20:26:12.529031+05:30
Nagpur,Maharashtra,21.1458,79.0882,35.2,23,0.0,970.7,8.9,29.2,178,67.5,39.0,18.2,284.0,135.0,22.3,0,5,10,0,2026-05-10T20:26:12.529038+05:30
Nashik,Maharashtra,19.9975,73.7898,33.3,21,0.0,943.4,8.2,45.7,128,30.3,21.8,5.1,256.0,158.0,15.4,0,5,7,0,2026-05-10T20:26:12.529046+05:30
Aurangabad,Maharashtra,19.8762,75.3433,33.8,19,0.0,941.5,9.05,45.0,111,31.1,14.6,6.9,273.0,118.0,4.4,0,5,7,0,2026-05-10T20:26:12.529052+05:30
Solapur,Maharashtra,17.6599,75.9064,35.8,18,0.0,954.0,9.05,38.5,135,29.8,18.2,8.7,320.0,124.0,8.7,0,5,10,0,2026-05-10T20:26:12.529060+05:30
Kolhapur,Maharashtra,16.705,74.2433,29.0,59,0.0,945.7,8.95,44.3,152,58.6,43.1,16.1,233.0,125.0,8.5,4,5,7,1,2026-05-10T20:26:12.529067+05:30
Goa,Goa,15.2993,74.124,30.5,76,0.0,996.1,6.85,48.6,101,38.6,22.9,4.2,242.0,100.0,3.9,3,5,7,1,2026-05-10T20:26:12.529074+05:30
Jodhpur,Rajasthan,26.2389,73.0243,38.7,12,0.0,979.5,8.4,35.3,100,53.4,17.3,16.3,208.0,104.0,4.4,0,5,10,0,2026-05-10T20:26:12.529080+05:30
Udaipur,Rajasthan,24.5854,73.7125,34.0,17,0.0,944.7,8.8,38.5,89,25.3,9.7,4.5,211.0,107.0,2.8,0,5,7,0,2026-05-10T20:26:12.529087+05:30
Kota,Rajasthan,25.2138,75.8648,34.3,29,0.0,976.7,8.35,35.6,157,108.3,39.3,10.2,352.0,120.0,10.4,0,5,7,0,2026-05-10T20:26:12.529094+05:30
Bikaner,Rajasthan,28.0229,73.3119,37.7,22,0.0,978.4,8.3,32.0,137,73.3,22.3,5.4,367.0,119.0,10.8,0,5,10,0,2026-05-10T20:26:12.529101+05:30
Ajmer,Rajasthan,26.4499,74.6399,34.3,25,0.0,953.0,8.3,32.4,139,98.0,33.6,10.7,406.0,111.0,7.2,0,5,7,0,2026-05-10T20:26:12.529108+05:30
Gwalior,Madhya Pradesh,26.2183,78.1828,31.8,44,0.0,982.3,8.15,24.1,166,154.1,45.2,6.5,406.0,130.0,8.3,0,5,7,1,2026-05-10T20:26:12.529115+05:30
Indore,Madhya Pradesh,22.7196,75.8577,36.0,14,0.0,946.0,8.65,47.5,134,54.5,25.3,8.4,292.0,124.0,6.1,0,5,10,0,2026-05-10T20:26:12.529121+05:30
Bhopal,Madhya Pradesh,23.2599,77.4126,34.5,16,0.0,951.8,8.65,46.1,124,68.9,26.0,4.2,286.0,118.0,3.7,0,5,7,0,2026-05-10T20:26:12.529128+05:30
Jabalpur,Madhya Pradesh,23.1815,79.9864,32.5,30,0.0,959.8,8.8,32.8,145,82.7,31.0,10.0,266.0,122.0,5.3,0,5,7,0,2026-05-10T20:26:12.529134+05:30
Ujjain,Madhya Pradesh,23.1765,75.7885,34.7,15,0.0,951.6,8.6,40.7,132,57.6,28.5,8.7,239.0,115.0,6.3,0,5,7,0,2026-05-10T20:26:12.529140+05:30
Visakhapatnam,Andhra Pradesh,17.6868,83.2185,29.1,70,0.0,1004.7,9.1,36.4,68,20.4,17.6,24.1,468.0,33.0,13.2,7,5,4,1,2026-05-10T20:26:12.529147+05:30
Vijayawada,Andhra Pradesh,16.5062,80.648,30.0,68,0.0,1002.4,9.1,37.8,48,7.7,6.4,5.3,155.0,55.0,6.5,7,5,4,1,2026-05-10T20:26:12.529154+05:30
Guntur,Andhra Pradesh,16.3067,80.4365,30.1,66,0.0,1003.5,8.9,45.4,54,10.9,8.2,5.2,158.0,68.0,6.8,3,5,4,1,2026-05-10T20:26:12.529161+05:30
Nellore,Andhra Pradesh,14.4426,79.9865,29.1,72,0.0,1005.5,9.15,39.2,28,6.0,4.1,2.7,145.0,46.0,2.0,7,5,4,1,2026-05-10T20:26:12.529169+05:30
Kurnool,Andhra Pradesh,15.8281,78.0373,33.5,34,0.0,975.3,9.1,49.7,73,41.4,21.7,4.8,256.0,108.0,3.0,0,5,7,0,2026-05-10T20:26:12.529176+05:30
Kakinada,Andhra Pradesh,16.9891,82.2475,29.1,73,0.0,1008.1,9.05,37.8,30,7.8,5.3,1.1,169.0,59.0,0.4,7,0,4,1,2026-05-10T20:26:12.529184+05:30
Tirupati,Andhra Pradesh,13.6288,79.4192,27.9,69,0.0,990.8,9.25,42.8,57,6.4,5.3,6.2,157.0,42.0,1.8,7,5,7,1,2026-05-10T20:26:12.529191+05:30
Warangal,Telangana,17.9689,79.5941,32.5,42,0.0,977.1,9.15,40.0,99,57.4,32.8,8.4,434.0,120.0,8.0,0,5,7,1,2026-05-10T20:26:12.529198+05:30
Nizamabad,Telangana,18.6725,78.0941,32.1,35,0.0,962.3,9.1,29.9,127,60.8,37.7,19.9,268.0,103.0,6.7,0,5,7,0,2026-05-10T20:26:12.529205+05:30
Mysore,Karnataka,12.2958,76.6396,27.4,50,0.0,926.7,9.3,34.6,107,34.7,25.0,29.2,387.0,94.0,7.1,4,5,7,0,2026-05-10T20:26:12.529211+05:30
Mangalore,Karnataka,12.9141,74.856,29.1,88,0.0,1004.7,8.85,37.1,76,25.2,18.5,6.5,341.0,94.0,3.3,7,5,4,1,2026-05-10T20:26:12.529218+05:30
Hubli-Dharwad,Karnataka,15.3647,75.124,31.4,31,0.0,939.3,8.1,40.0,121,41.7,23.3,11.3,253.0,119.0,4.3,0,5,7,0,2026-05-10T20:26:12.529226+05:30
Belgaum,Karnataka,15.8497,74.4977,27.1,61,0.0,924.8,8.35,41.8,153,53.6,37.4,21.4,262.0,100.0,7.3,7,5,7,1,2026-05-10T20:26:15.901015+05:30
Coimbatore,Tamil Nadu,11.0168,76.9558,26.9,76,0.0,960.3,9.1,30.6,87,29.7,25.1,27.5,417.0,77.0,9.0,7,5,7,1,2026-05-10T20:26:15.901046+05:30
Madurai,Tamil Nadu,9.9252,78.1198,27.4,78,0.0,992.1,5.15,29.5,56,17.9,16.6,12.3,654.0,85.0,6.0,7,5,3,1,2026-05-10T20:26:15.901056+05:30
Trichy,Tamil Nadu,10.7905,78.7047,26.5,86,0.0,998.9,2.45,37.1,49,15.3,14.9,15.9,455.0,60.0,11.8,7,5,3,1,2026-05-10T20:26:15.901064+05:30
Salem,Tamil Nadu,11.6643,78.146,27.4,73,0.0,976.4,8.95,24.5,69,21.1,17.6,9.9,298.0,96.0,8.1,7,5,7,1,2026-05-10T20:26:15.901072+05:30
Tirunelveli,Tamil Nadu,8.7139,77.7567,26.8,92,0.1,1002.1,4.3,26.6,55,13.0,12.6,9.4,237.0,75.0,3.8,10,5,0,1,2026-05-10T20:26:15.901080+05:30
Vellore,Tamil Nadu,12.9165,79.1325,27.8,71,0.0,983.7,9.25,36.0,67,12.8,12.0,10.3,205.0,70.0,7.4,7,5,7,1,2026-05-10T20:26:15.901087+05:30
Erode,Tamil Nadu,11.341,77.7172,27.6,75,0.0,987.9,8.65,29.2,82,26.7,22.8,14.3,292.0,96.0,6.8,7,5,7,1,2026-05-10T20:26:15.901094+05:30
Kochi,Kerala,9.9312,76.2673,27.9,88,0.0,1007.0,8.75,25.9,96,18.9,17.8,16.6,394.0,77.0,4.9,7,5,4,1,2026-05-10T20:26:15.901101+05:30
Thiruvananthapuram,Kerala,8.5241,76.9366,25.7,96,0.0,1006.7,5.4,21.2,75,8.4,6.6,4.3,486.0,102.0,1.6,7,5,0,1,2026-05-10T20:26:15.901108+05:30
Kozhikode,Kerala,11.2588,75.7804,27.6,91,0.0,1006.0,8.7,33.5,68,15.9,9.5,1.3,372.0,106.0,0.7,7,5,4,1,2026-05-10T20:26:15.901114+05:30
Thrissur,Kerala,10.5276,76.2144,27.3,88,0.0,1005.4,9.0,30.2,70,18.9,17.5,14.8,453.0,75.0,3.3,7,5,4,1,2026-05-10T20:26:15.901122+05:30
Kannur,Kerala,11.8745,75.3704,27.9,90,0.0,1005.2,8.1,39.6,86,23.0,16.2,10.8,431.0,89.0,2.6,7,5,4,1,2026-05-10T20:26:15.901129+05:30
Patna,Bihar,25.5941,85.1376,27.0,64,0.0,1002.1,8.65,29.5,191,60.1,48.8,15.4,434.0,137.0,14.7,7,5,4,1,2026-05-10T20:26:15.901136+05:30
Gaya,Bihar,24.7914,85.0002,27.9,50,0.0,994.8,8.7,21.6,195,62.6,48.7,7.6,328.0,164.0,15.9,4,5,7,1,2026-05-10T20:26:15.901143+05:30
Muzaffarpur,Bihar,26.1209,85.3647,26.1,68,0.0,1002.5,8.65,34.2,169,62.4,50.9,18.4,456.0,119.0,12.7,7,5,4,1,2026-05-10T20:26:15.901149+05:30
Bhagalpur,Bihar,25.2425,87.0117,26.8,63,0.0,1003.7,8.6,24.5,186,55.5,47.4,11.4,349.0,142.0,11.1,7,5,4,1,2026-05-10T20:26:15.901156+05:30
Ranchi,Jharkhand,23.3441,85.3096,22.4,72,0.0,939.1,9.15,38.2,162,56.5,37.1,7.0,286.0,148.0,10.2,3,5,7,1,2026-05-10T20:26:15.901163+05:30
Jamshedpur,Jharkhand,22.8046,86.2029,25.5,77,0.0,993.2,8.95,49.3,186,51.3,42.6,10.0,265.0,149.0,19.0,7,5,7,1,2026-05-10T20:26:15.901169+05:30
Dhanbad,Jharkhand,23.7957,86.4304,26.0,70,0.0,982.1,8.9,30.2,217,89.9,78.0,40.5,375.0,147.0,79.3,7,5,7,1,2026-05-10T20:26:15.901176+05:30
Bokaro,Jharkhand,23.6693,86.1511,25.7,72,0.0,985.9,8.9,50.4,210,87.8,69.4,36.4,2220.0,154.0,73.3,7,5,7,1,2026-05-10T20:26:15.901182+05:30
Bhubaneswar,Odisha,20.2961,85.8245,26.3,85,0.0,1004.8,9.05,35.6,60,26.7,21.2,16.5,246.0,63.0,7.6,7,5,4,1,2026-05-10T20:26:15.901189+05:30
Cuttack,Odisha,20.4625,85.8828,25.8,87,0.0,1006.8,9.1,47.2,60,26.7,21.2,16.5,252.0,63.0,7.6,7,5,4,1,2026-05-10T20:26:15.901195+05:30
Rourkela,Odisha,22.2604,84.8536,28.0,57,0.0,986.0,8.9,25.9,171,91.0,57.7,10.2,744.0,150.0,36.6,4,5,7,1,2026-05-10T20:26:15.901202+05:30
Raipur,Chhattisgarh,21.2514,81.6296,32.4,38,0.0,973.6,8.9,27.0,207,75.4,47.4,21.5,375.0,153.0,9.3,0,5,7,1,2026-05-10T20:26:15.901209+05:30
Bhilai,Chhattisgarh,21.1938,81.3509,32.5,40,0.0,973.7,8.95,23.8,190,79.6,50.4,32.3,344.0,132.0,9.5,0,5,7,1,2026-05-10T20:26:15.901216+05:30
Guwahati,Assam,26.1158,91.7086,24.1,84,0.0,1004.2,8.65,27.7,92,65.9,52.2,17.6,345.0,64.0,4.2,3,5,4,1,2026-05-10T20:26:15.901222+05:30
Agartala,Tripura,23.8315,91.2868,24.8,92,0.0,1009.0,8.25,40.3,184,52.5,47.8,15.9,601.0,120.0,7.1,3,0,4,1,2026-05-10T20:26:15.901228+05:30
Shillong,Meghalaya,25.5788,91.8933,15.3,88,0.0,857.6,8.45,24.5,109,50.2,36.6,12.4,443.0,96.0,4.4,3,10,7,0,2026-05-10T20:26:15.901235+05:30
Imphal,Manipur,24.817,93.9368,20.9,86,0.0,925.7,7.85,23.4,97,49.1,40.7,33.8,743.0,38.0,5.7,3,5,7,1,2026-05-10T20:26:15.901242+05:30
Aizawl,Mizoram,23.7271,92.7176,17.1,98,0.1,894.5,6.35,14.8,103,43.0,36.7,7.9,366.0,66.0,2.9,6,10,7,1,2026-05-10T20:26:15.901249+05:30
Kohima,Nagaland,25.6701,94.1077,16.8,91,0.1,857.5,8.35,26.3,71,33.9,25.0,13.3,410.0,55.0,2.0,6,10,7,0,2026-05-10T20:26:15.901256+05:30
Gangtok,Sikkim,27.3314,88.6138,13.9,85,0.0,839.7,7.7,32.4,77,21.4,15.5,11.7,345.0,95.0,1.5,3,10,7,0,2026-05-10T20:26:15.901262+05:30
Siliguri,West Bengal,26.7271,88.3953,23.9,74,0.0,995.9,8.05,26.6,111,54.1,36.7,18.4,1465.0,114.0,5.5,3,5,7,1,2026-05-10T20:26:19.276960+05:30
Durgapur,West Bengal,23.5204,87.3119,25.5,81,0.0,997.5,8.9,23.4,212,135.5,120.6,49.3,413.0,141.0,87.6,7,5,7,1,2026-05-10T20:26:19.276994+05:30
Asansol,West Bengal,23.6739,86.9524,25.9,77,0.0,996.0,8.9,29.2,211,101.7,90.1,42.5,652.0,139.0,86.9,7,5,7,1,2026-05-10T20:26:19.277006+05:30
Pondicherry,Puducherry,11.9139,79.8145,27.8,86,0.0,1007.4,8.85,41.8,27,5.6,3.8,2.7,273.0,49.0,0.3,7,5,4,1,2026-05-10T20:26:19.277016+05:30
Port Blair,Andaman and Nicobar Islands,11.6234,92.7265,27.8,82,0.0,1007.5,8.1,27.0,26,3.5,2.4,0.4,167.0,55.0,0.1,7,5,4,1,2026-05-10T20:26:19.277025+05:30
Haridwar,Uttarakhand,29.9457,78.1642,25.8,65,0.0,974.0,7.5,26.3,160,109.4,61.9,17.5,415.0,135.0,9.3,7,5,7,1,2026-05-10T20:26:19.277034+05:30
Rishikesh,Uttarakhand,30.0869,78.2676,24.5,69,0.0,966.7,7.55,25.2,158,77.3,43.2,6.7,407.0,153.0,5.0,3,5,7,1,2026-05-10T20:26:19.277042+05:30
Nainital,Uttarakhand,29.3919,79.4542,13.2,90,0.0,805.6,7.4,28.8,154,55.5,38.5,10.8,315.0,144.0,6.2,3,10,7,0,2026-05-10T20:26:19.277051+05:30
Mussoorie,Uttarakhand,30.4599,78.0664,13.8,93,0.0,802.9,7.95,37.8,156,85.4,46.7,13.3,386.0,147.0,10.3,3,10,7,0,2026-05-10T20:26:19.277059+05:30
Dharamshala,Himachal Pradesh,32.219,76.3234,20.5,71,0.0,869.6,7.7,35.6,143,129.9,52.4,9.3,383.0,133.0,5.1,3,5,7,0,2026-05-10T20:26:19.277068+05:30
Dalhousie,Himachal Pradesh,32.5387,75.971,14.6,90,0.0,804.6,7.95,37.1,163,210.5,66.8,24.4,555.0,128.0,7.8,3,10,7,0,2026-05-10T20:26:19.277077+05:30
Patiala,Punjab,30.3398,76.3869,29.4,53,0.0,977.3,7.55,34.9,375,347.4,79.2,8.9,365.0,145.0,8.8,4,5,7,1,2026-05-10T20:26:19.277086+05:30
Bhatinda,Punjab,30.211,74.9455,34.0,33,0.0,982.1,8.25,30.2,404,489.9,100.1,9.0,483.0,154.0,16.2,0,5,7,0,2026-05-10T20:26:19.277094+05:30
Rohtak,Haryana,28.8955,76.6066,30.1,46,0.0,981.0,7.65,30.6,346,398.6,88.2,19.6,509.0,177.0,25.7,0,5,7,1,2026-05-10T20:26:19.277102+05:30
Panipat,Haryana,29.3909,76.9635,28.3,59,0.0,979.8,7.5,32.8,611,784.2,112.0,11.0,441.0,160.0,14.6,4,5,7,1,2026-05-10T20:26:19.277110+05:30
Mathura,Uttar Pradesh,27.4924,77.6737,29.9,50,0.0,985.8,7.9,27.4,476,287.8,67.3,18.3,396.0,125.0,10.5,4,5,7,1,2026-05-10T20:26:19.277118+05:30
Vrindavan,Uttar Pradesh,27.5823,77.7027,30.0,48,0.0,986.4,7.9,27.7,476,287.8,67.3,18.3,402.0,125.0,10.5,4,5,7,1,2026-05-10T20:26:19.277127+05:30
Ayodhya,Uttar Pradesh,26.7922,82.1998,28.6,51,0.0,996.2,8.2,37.1,160,52.2,41.7,22.0,379.0,112.0,10.0,4,5,7,1,2026-05-10T20:26:19.277134+05:30
Ratlam,Madhya Pradesh,23.3315,75.0367,34.2,19,0.0,952.4,8.5,38.2,134,42.4,20.8,3.8,232.0,129.0,6.7,0,5,7,0,2026-05-10T20:26:19.277142+05:30
Sagar,Madhya Pradesh,23.8388,78.7378,30.9,36,0.0,949.3,8.65,37.1,132,71.9,27.0,2.9,285.0,140.0,5.1,0,5,7,0,2026-05-10T20:26:19.277150+05:30
Satna,Madhya Pradesh,24.6005,80.8322,30.6,35,0.0,970.6,8.65,37.1,188,44.1,29.8,4.6,301.0,179.0,9.5,0,5,7,0,2026-05-10T20:26:19.277158+05:30
Akola,Maharashtra,20.7002,77.0082,35.8,17,0.0,971.7,8.85,42.1,149,55.4,29.2,24.5,207.0,106.0,10.9,0,5,10,0,2026-05-10T20:26:19.277168+05:30
Amravati,Maharashtra,20.9374,77.7796,34.8,19,0.0,964.4,8.85,40.3,155,56.2,29.0,24.2,220.0,106.0,7.3,0,5,7,0,2026-05-10T20:26:19.277178+05:30
Latur,Maharashtra,18.4088,76.5604,33.2,20,0.0,937.5,9.05,41.0,141,36.1,22.6,16.0,326.0,118.0,11.3,0,5,7,0,2026-05-10T20:26:19.277186+05:30
Nanded,Maharashtra,19.1383,77.3091,33.1,23,0.0,965.5,9.0,36.7,153,52.7,30.9,16.5,336.0,108.0,6.8,0,5,7,0,2026-05-10T20:26:19.277194+05:30
Gulbarga,Karnataka,17.3297,76.8343,33.5,31,0.0,956.3,9.1,31.7,129,36.4,22.0,11.8,276.0,120.0,6.3,0,5,7,0,2026-05-10T20:26:19.277202+05:30
Bidar,Karnataka,17.9104,77.5199,30.8,36,0.0,933.9,9.1,32.4,120,43.2,26.7,15.7,253.0,116.0,5.3,0,5,7,0,2026-05-10T20:26:19.277210+05:30
Hospet,Karnataka,15.2689,76.3909,30.9,39,0.0,954.3,8.85,35.3,109,46.0,25.8,13.3,324.0,117.0,9.3,0,5,7,0,2026-05-10T20:26:19.277217+05:30
Tirupur,Tamil Nadu,11.1085,77.3411,27.9,70,0.0,973.7,9.15,24.8,100,33.4,30.4,31.3,320.0,92.0,11.2,7,5,7,1,2026-05-10T20:26:19.277223+05:30
Alappuzha,Kerala,9.4981,76.3388,27.0,89,0.0,1007.2,7.8,23.8,76,17.7,15.7,15.4,282.0,76.0,4.4,7,5,4,1,2026-05-10T20:26:19.277229+05:30
Munnar,Kerala,10.0889,77.0595,18.8,89,0.0,855.7,9.2,23.4,43,17.9,17.1,12.7,301.0,63.0,3.3,3,10,7,1,2026-05-10T20:26:19.277236+05:30
Silchar,Assam,24.8333,92.7789,26.5,76,0.0,1007.3,7.95,19.1,146,85.4,74.0,19.6,611.0,88.0,13.9,7,5,4,1,2026-05-10T20:26:19.277243+05:30
Dibrugarh,Assam,27.4728,94.912,22.8,90,0.0,998.3,8.8,38.2,103,38.2,32.8,13.9,340.0,83.0,3.3,3,5,7,1,2026-05-10T20:26:19.277249+05:30
