city,state,latitude,longitude,temp,humidity,rain,pressure,uv_index,wind_gusts,aqi,pm10,pm2_5,mosquito_risk,arthritis_risk,migraine_risk,frizz_risk,updated_at
Delhi,Delhi,28.6139,77.209,32.8,26,0.0,981.9,7.4,33.1,151,353.9,84.1,0,5,7,0,2026-04-24T23:21:28.112371+05:30
Mumbai,Maharashtra,19.076,72.8777,29.9,66,0.0,1007.5,8.05,41.0,89,35.5,19.3,7,5,4,1,2026-04-24T23:21:28.112410+05:30
Bangalore,Karnataka,12.9716,77.5946,27.1,42,0.0,912.5,9.6,40.3,96,20.7,19.4,4,5,7,0,2026-04-24T23:21:28.112426+05:30
Hyderabad,Telangana,17.385,78.4867,29.8,43,0.0,954.2,9.25,29.5,127,42.1,37.5,4,5,7,0,2026-04-24T23:21:28.112436+05:30
Chennai,Tamil Nadu,13.0827,80.2707,29.2,79,0.0,1007.1,9.25,51.1,28,9.0,6.4,7,5,4,1,2026-04-24T23:21:28.112445+05:30
Kolkata,West Bengal,22.5726,88.3639,27.6,87,0.0,1005.5,8.9,33.8,75,25.0,21.0,7,5,4,1,2026-04-24T23:21:28.112490+05:30
Pune,Maharashtra,18.5204,73.8567,29.9,30,0.0,948.5,8.65,47.2,119,44.7,41.9,4,5,7,0,2026-04-24T23:21:28.112502+05:30
Ahmedabad,Gujarat,23.0225,72.5714,35.0,16,0.0,1001.5,8.2,30.2,54,88.7,44.7,0,5,4,0,2026-04-24T23:21:28.112511+05:30
Jaipur,Rajasthan,26.9124,75.7873,32.5,22,0.0,959.7,8.05,32.4,104,183.9,40.6,0,5,7,0,2026-04-24T23:21:28.112519+05:30
Lucknow,Uttar Pradesh,26.8467,80.9462,32.8,20,0.0,991.9,7.9,36.7,132,242.1,60.3,0,5,7,0,2026-04-24T23:21:28.112527+05:30
Kanpur,Uttar Pradesh,26.4499,80.3319,33.0,19,0.0,990.2,7.95,31.0,132,216.1,50.1,0,5,7,0,2026-04-24T23:21:28.112534+05:30
Chandigarh,Chandigarh,30.7333,76.7794,29.5,31,0.0,968.2,7.4,44.6,91,33.3,22.8,4,5,7,0,2026-04-24T23:21:28.112541+05:30
Srinagar,Jammu and Kashmir,34.0837,74.7973,12.7,95,0.0,845.2,8.6,38.2,77,46.8,25.6,3,10,7,0,2026-04-24T23:21:28.112551+05:30
Jammu,Jammu and Kashmir,32.7266,74.857,27.8,37,0.0,972.7,8.15,36.4,76,48.7,30.4,4,5,7,0,2026-04-24T23:21:28.112558+05:30
Amritsar,Punjab,31.634,74.8723,29.8,35,0.0,981.0,8.05,42.5,96,82.2,35.3,4,5,7,0,2026-04-24T23:21:28.112566+05:30
Ludhiana,Punjab,30.901,75.8573,30.2,31,0.0,978.8,7.7,38.9,82,64.7,26.4,0,5,7,0,2026-04-24T23:21:28.112574+05:30
Jalandhar,Punjab,31.326,75.5762,30.5,31,0.0,979.7,7.85,33.5,88,98.5,31.5,0,5,7,0,2026-04-24T23:21:28.112581+05:30
Dehradun,Uttarakhand,30.6284,78.0322,15.5,62,0.0,829.8,7.85,40.7,90,28.6,19.2,3,5,7,0,2026-04-24T23:21:28.112588+05:30
Shimla,Himachal Pradesh,31.1048,77.1734,15.4,47,0.0,785.9,7.9,46.4,89,44.8,20.1,0,5,7,0,2026-04-24T23:21:28.112595+05:30
Manali,Himachal Pradesh,32.2396,77.1887,9.6,75,0.0,817.3,9.95,42.1,102,31.7,17.5,3,5,7,0,2026-04-24T23:21:28.112602+05:30
Gurgaon,Haryana,28.4595,77.0266,30.9,26,0.0,980.4,7.5,31.3,593,423.8,88.7,0,5,7,0,2026-04-24T23:21:28.112608+05:30
Noida,Uttar Pradesh,28.5355,77.391,31.3,26,0.0,983.0,7.45,20.5,593,423.8,88.7,0,5,7,0,2026-04-24T23:21:28.112614+05:30
Ghaziabad,Uttar Pradesh,28.6692,77.4538,29.8,36,0.0,981.2,7.4,35.3,151,336.2,75.9,4,5,7,0,2026-04-24T23:21:28.112621+05:30
Faridabad,Haryana,28.4089,77.3178,33.5,22,0.0,982.5,7.5,40.0,593,423.8,88.7,0,5,7,0,2026-04-24T23:21:28.112627+05:30
Meerut,Uttar Pradesh,28.9845,77.7064,27.8,52,0.0,979.9,7.35,27.4,151,336.2,75.9,4,5,7,1,2026-04-24T23:21:28.112633+05:30
Agra,Uttar Pradesh,27.1767,78.0081,32.7,26,0.0,986.3,7.8,30.2,427,263.6,104.8,0,5,7,0,2026-04-24T23:21:28.112644+05:30
Varanasi,Uttar Pradesh,25.3176,82.9739,32.0,16,0.0,995.9,8.45,34.6,130,66.1,41.6,0,5,7,0,2026-04-24T23:21:28.112650+05:30
Prayagraj,Uttar Pradesh,25.4358,81.8463,30.6,23,0.0,994.1,8.35,39.2,123,38.9,29.0,0,5,7,0,2026-04-24T23:21:28.112657+05:30
Gorakhpur,Uttar Pradesh,26.7606,83.3732,29.4,52,0.0,996.3,8.3,31.3,144,187.7,84.5,4,5,7,1,2026-04-24T23:21:28.112663+05:30
Bareilly,Uttar Pradesh,28.367,79.4304,30.8,30,0.0,984.9,7.65,38.2,129,73.3,54.6,0,5,7,0,2026-04-24T23:21:28.112670+05:30
Aligarh,Uttar Pradesh,27.8974,78.088,30.7,28,0.0,983.8,7.6,30.6,255,384.6,109.0,0,5,7,0,2026-04-24T23:21:28.112676+05:30
Moradabad,Uttar Pradesh,28.8386,78.7733,30.4,35,0.0,981.8,7.5,39.6,154,121.5,86.8,0,5,7,0,2026-04-24T23:21:28.112681+05:30
Saharanpur,Uttar Pradesh,29.9637,77.546,28.6,32,0.0,974.0,7.15,30.2,104,116.9,58.9,4,5,7,0,2026-04-24T23:21:28.112687+05:30
Jhansi,Uttar Pradesh,25.4484,78.5685,30.8,22,0.0,976.9,8.3,26.6,102,34.2,26.4,0,5,7,0,2026-04-24T23:21:31.339353+05:30
Surat,Gujarat,21.1702,72.8311,30.5,48,0.0,1006.5,7.9,33.5,96,34.7,23.8,0,5,4,1,2026-04-24T23:21:31.339383+05:30
Vadodara,Gujarat,22.3072,73.1812,31.9,34,0.0,1003.9,8.15,34.2,76,50.9,39.9,0,5,4,0,2026-04-24T23:21:31.339393+05:30
Rajkot,Gujarat,22.3039,70.8022,26.6,58,0.0,994.8,7.9,43.6,48,24.3,9.6,4,5,7,1,2026-04-24T23:21:31.339400+05:30
Thane,Maharashtra,19.2183,72.9781,30.5,55,0.0,1006.9,7.4,37.1,89,35.5,19.3,0,5,4,1,2026-04-24T23:21:31.339408+05:30
Nagpur,Maharashtra,21.1458,79.0882,34.1,18,0.0,972.7,8.6,29.2,118,61.7,55.2,0,5,7,0,2026-04-24T23:21:31.339415+05:30
Nashik,Maharashtra,19.9975,73.7898,29.9,32,0.0,946.0,8.35,34.6,126,30.5,22.4,4,5,7,0,2026-04-24T23:21:31.339421+05:30
Aurangabad,Maharashtra,19.8762,75.3433,31.6,22,0.0,944.8,9.1,43.2,111,25.3,21.5,0,5,7,0,2026-04-24T23:21:31.339428+05:30
Solapur,Maharashtra,17.6599,75.9064,31.8,31,0.0,957.4,9.0,55.4,138,40.4,35.5,0,5,7,0,2026-04-24T23:21:31.339436+05:30
Kolhapur,Maharashtra,16.705,74.2433,26.8,57,0.0,948.2,9.05,37.4,150,81.7,74.3,4,5,7,1,2026-04-24T23:21:31.339443+05:30
Goa,Goa,15.2993,74.124,28.7,82,0.0,997.5,9.0,37.1,97,41.1,32.9,7,5,7,1,2026-04-24T23:21:31.339450+05:30
Jodhpur,Rajasthan,26.2389,73.0243,34.5,22,0.0,982.2,8.25,23.0,69,127.1,28.3,0,5,7,0,2026-04-24T23:21:31.339477+05:30
Udaipur,Rajasthan,24.5854,73.7125,29.8,23,0.0,946.7,8.8,33.5,59,46.4,16.7,4,5,7,0,2026-04-24T23:21:31.339486+05:30
Kota,Rajasthan,25.2138,75.8648,31.1,23,0.0,977.9,8.3,32.0,81,54.1,35.3,0,5,7,0,2026-04-24T23:21:31.339493+05:30
Bikaner,Rajasthan,28.0229,73.3119,32.2,23,0.0,981.4,8.05,26.6,58,53.0,18.5,0,5,7,0,2026-04-24T23:21:31.339500+05:30
Ajmer,Rajasthan,26.4499,74.6399,31.0,22,0.0,954.7,8.2,33.8,53,73.3,24.0,0,5,7,0,2026-04-24T23:21:31.339506+05:30
Gwalior,Madhya Pradesh,26.2183,78.1828,32.3,22,0.0,982.0,8.05,34.2,74,119.2,35.6,0,5,7,0,2026-04-24T23:21:31.339513+05:30
Indore,Madhya Pradesh,22.7196,75.8577,31.0,18,0.0,948.6,8.65,46.8,63,27.6,19.4,0,5,7,0,2026-04-24T23:21:31.339520+05:30
Bhopal,Madhya Pradesh,23.2599,77.4126,31.1,21,0.0,953.5,8.65,38.9,53,33.3,21.5,0,5,7,0,2026-04-24T23:21:31.339526+05:30
Jabalpur,Madhya Pradesh,23.1815,79.9864,31.5,17,0.0,960.6,8.75,36.4,96,22.5,15.7,0,5,7,0,2026-04-24T23:21:31.339532+05:30
Ujjain,Madhya Pradesh,23.1765,75.7885,30.6,19,0.0,954.0,8.55,40.3,55,33.4,23.1,0,5,7,0,2026-04-24T23:21:31.339539+05:30
Visakhapatnam,Andhra Pradesh,17.6868,83.2185,28.1,87,0.0,1003.2,9.2,42.5,58,15.5,12.3,7,5,4,1,2026-04-24T23:21:31.339546+05:30
Vijayawada,Andhra Pradesh,16.5062,80.648,28.7,81,0.0,1002.7,9.15,27.4,52,13.6,11.7,7,5,4,1,2026-04-24T23:21:31.339553+05:30
Guntur,Andhra Pradesh,16.3067,80.4365,28.4,84,0.0,1004.2,9.25,36.0,53,13.9,11.9,7,5,4,1,2026-04-24T23:21:31.339560+05:30
Nellore,Andhra Pradesh,14.4426,79.9865,28.1,84,0.0,1005.9,9.3,40.0,40,8.9,7.0,7,5,4,1,2026-04-24T23:21:31.339567+05:30
Kurnool,Andhra Pradesh,15.8281,78.0373,32.5,37,0.0,977.3,9.25,41.4,105,30.4,26.9,0,5,7,0,2026-04-24T23:21:31.339574+05:30
Kakinada,Andhra Pradesh,16.9891,82.2475,28.5,81,0.0,1007.2,9.05,36.4,37,11.9,8.3,7,5,4,1,2026-04-24T23:21:31.339581+05:30
Tirupati,Andhra Pradesh,13.6288,79.4192,28.8,64,0.0,991.6,9.35,33.8,54,17.5,16.1,7,5,7,1,2026-04-24T23:21:31.339587+05:30
Warangal,Telangana,17.9689,79.5941,30.0,49,0.0,978.6,9.2,34.9,149,38.5,35.5,4,5,7,1,2026-04-24T23:21:31.339593+05:30
Nizamabad,Telangana,18.6725,78.0941,30.4,34,0.0,964.7,8.8,27.7,122,79.6,72.4,0,5,7,0,2026-04-24T23:21:31.339600+05:30
Mysore,Karnataka,12.2958,76.6396,26.8,46,0.0,928.2,9.5,35.3,103,28.5,25.4,4,5,7,0,2026-04-24T23:21:31.339606+05:30
Mangalore,Karnataka,12.9141,74.856,29.5,80,0.0,1006.2,9.1,40.0,71,26.4,18.9,7,5,4,1,2026-04-24T23:21:31.339612+05:30
Hubli-Dharwad,Karnataka,15.3647,75.124,26.6,64,0.0,940.7,9.2,36.0,106,53.2,48.7,7,5,7,1,2026-04-24T23:21:31.339619+05:30
Belgaum,Karnataka,15.8497,74.4977,25.8,65,0.0,925.5,9.25,36.0,120,70.5,63.1,7,5,7,1,2026-04-24T23:21:34.564420+05:30
Coimbatore,Tamil Nadu,11.0168,76.9558,28.4,64,0.0,961.7,9.4,42.1,87,26.4,24.4,7,5,7,1,2026-04-24T23:21:34.564445+05:30
Madurai,Tamil Nadu,9.9252,78.1198,28.4,78,0.0,993.5,9.3,38.5,46,10.0,9.4,7,5,7,1,2026-04-24T23:21:34.564491+05:30
Trichy,Tamil Nadu,10.7905,78.7047,28.7,74,0.0,999.8,9.3,29.5,48,10.5,10.2,7,5,7,1,2026-04-24T23:21:34.564503+05:30
Salem,Tamil Nadu,11.6643,78.146,29.6,56,0.0,977.2,9.35,40.7,90,21.4,20.7,4,5,7,1,2026-04-24T23:21:34.564510+05:30
Tirunelveli,Tamil Nadu,8.7139,77.7567,27.4,81,0.0,1003.5,9.2,41.8,74,19.5,18.5,7,5,4,1,2026-04-24T23:21:34.564517+05:30
Vellore,Tamil Nadu,12.9165,79.1325,28.0,71,0.0,984.7,9.4,36.4,70,30.2,29.5,7,5,7,1,2026-04-24T23:21:34.564524+05:30
Erode,Tamil Nadu,11.341,77.7172,31.0,47,0.0,988.8,9.35,44.3,66,13.2,12.5,0,5,7,1,2026-04-24T23:21:34.564530+05:30
Kochi,Kerala,9.9312,76.2673,27.5,86,0.1,1008.4,8.5,38.2,88,42.4,39.6,10,0,4,1,2026-04-24T23:21:34.564537+05:30
Thiruvananthapuram,Kerala,8.5241,76.9366,26.0,95,0.0,1008.0,8.9,34.9,67,24.5,19.1,7,0,4,1,2026-04-24T23:21:34.564543+05:30
Kozhikode,Kerala,11.2588,75.7804,27.8,90,0.0,1007.2,9.1,36.4,80,29.3,21.7,7,5,4,1,2026-04-24T23:21:34.564549+05:30
Thrissur,Kerala,10.5276,76.2144,27.9,87,0.0,1006.4,9.15,37.4,95,43.8,40.2,7,5,4,1,2026-04-24T23:21:34.564555+05:30
Kannur,Kerala,11.8745,75.3704,29.4,80,0.0,1006.5,9.1,39.6,79,29.6,22.6,7,5,4,1,2026-04-24T23:21:34.564561+05:30
Patna,Bihar,25.5941,85.1376,30.0,70,0.0,999.8,8.6,30.2,154,105.0,58.0,7,5,7,1,2026-04-24T23:21:34.564567+05:30
Gaya,Bihar,24.7914,85.0002,29.6,43,0.0,992.8,8.7,32.4,140,103.6,47.8,4,5,7,0,2026-04-24T23:21:34.564573+05:30
Muzaffarpur,Bihar,26.1209,85.3647,28.4,74,0.0,1000.1,8.6,32.4,154,104.5,63.3,7,5,4,1,2026-04-24T23:21:34.564580+05:30
Bhagalpur,Bihar,25.2425,87.0117,29.2,73,0.0,1001.1,8.65,37.8,152,64.3,59.0,7,5,4,1,2026-04-24T23:21:34.564587+05:30
Ranchi,Jharkhand,23.3441,85.3096,26.7,31,0.0,937.8,9.15,31.0,118,113.2,43.3,4,5,7,0,2026-04-24T23:21:34.564593+05:30
Jamshedpur,Jharkhand,22.8046,86.2029,29.0,82,0.0,990.6,8.65,37.8,153,57.5,39.9,7,5,7,1,2026-04-24T23:21:34.564598+05:30
Dhanbad,Jharkhand,23.7957,86.4304,31.0,49,0.0,979.7,8.95,37.8,166,125.3,71.0,0,5,7,1,2026-04-24T23:21:34.564604+05:30
Bokaro,Jharkhand,23.6693,86.1511,28.7,46,0.0,983.1,8.95,22.7,161,129.0,65.0,4,5,7,0,2026-04-24T23:21:34.564610+05:30
Bhubaneswar,Odisha,20.2961,85.8245,26.9,96,0.0,1002.7,9.1,39.2,72,18.3,14.4,7,5,4,1,2026-04-24T23:21:34.564615+05:30
Cuttack,Odisha,20.4625,85.8828,27.2,95,0.0,1004.4,9.15,33.1,72,18.3,14.4,7,5,4,1,2026-04-24T23:21:34.564621+05:30
Rourkela,Odisha,22.2604,84.8536,29.4,41,0.0,984.7,8.85,30.2,129,122.9,54.5,4,5,7,0,2026-04-24T23:21:34.564627+05:30
Raipur,Chhattisgarh,21.2514,81.6296,29.9,27,0.0,973.5,8.95,42.1,139,65.9,56.1,4,5,7,0,2026-04-24T23:21:34.564634+05:30
Bhilai,Chhattisgarh,21.1938,81.3509,32.0,26,0.0,973.7,8.9,42.1,108,58.7,53.3,0,5,7,0,2026-04-24T23:21:34.564644+05:30
Guwahati,Assam,26.1158,91.7086,24.2,84,0.0,1002.0,8.55,23.4,151,90.1,70.5,3,5,4,1,2026-04-24T23:21:34.564650+05:30
Agartala,Tripura,23.8315,91.2868,27.7,74,0.0,1006.0,8.65,26.3,125,85.9,65.7,7,5,4,1,2026-04-24T23:21:34.564656+05:30
Shillong,Meghalaya,25.5788,91.8933,18.2,78,0.0,858.1,6.3,26.6,127,65.7,48.8,3,5,7,0,2026-04-24T23:21:34.564661+05:30
Imphal,Manipur,24.817,93.9368,19.9,88,0.0,923.3,9.1,31.7,151,115.0,73.8,3,10,7,1,2026-04-24T23:21:34.564667+05:30
Aizawl,Mizoram,23.7271,92.7176,20.4,74,0.0,892.7,8.45,28.4,117,112.5,50.6,3,5,7,0,2026-04-24T23:21:34.564673+05:30
Kohima,Nagaland,25.6701,94.1077,17.2,94,0.0,855.9,8.55,35.3,141,112.2,66.4,3,10,7,1,2026-04-24T23:21:34.564679+05:30
Gangtok,Sikkim,27.3314,88.6138,14.9,80,0.0,838.2,6.7,38.5,99,52.9,39.5,3,5,7,0,2026-04-24T23:21:34.564685+05:30
Siliguri,West Bengal,26.7271,88.3953,24.0,83,0.0,993.9,8.45,23.8,156,113.9,79.6,3,5,7,1,2026-04-24T23:21:37.790177+05:30
Durgapur,West Bengal,23.5204,87.3119,28.1,88,0.0,995.2,8.5,31.3,151,61.0,48.8,7,5,7,1,2026-04-24T23:21:37.790213+05:30
Asansol,West Bengal,23.6739,86.9524,29.4,83,0.0,993.6,8.9,35.6,153,79.9,49.2,7,5,7,1,2026-04-24T23:21:37.790225+05:30
Pondicherry,Puducherry,11.9139,79.8145,29.2,79,0.0,1008.4,9.15,40.3,24,7.4,4.8,7,0,4,1,2026-04-24T23:21:37.790234+05:30
Port Blair,Andaman and Nicobar Islands,11.6234,92.7265,26.6,81,0.0,1007.2,9.15,30.6,38,11.4,6.1,7,5,4,1,2026-04-24T23:21:37.790243+05:30
Haridwar,Uttarakhand,29.9457,78.1642,21.9,68,0.0,971.9,7.25,23.8,92,55.6,42.7,3,5,7,0,2026-04-24T23:21:37.790254+05:30
Rishikesh,Uttarakhand,30.0869,78.2676,20.5,65,0.0,964.5,7.35,23.8,106,34.8,25.0,3,5,7,0,2026-04-24T23:21:37.790262+05:30
Nainital,Uttarakhand,29.3919,79.4542,15.9,53,0.0,806.3,8.2,43.9,149,47.6,35.5,0,5,7,0,2026-04-24T23:21:37.790271+05:30
Mussoorie,Uttarakhand,30.4599,78.0664,16.1,47,0.0,803.4,7.75,46.1,110,48.3,34.9,0,5,7,0,2026-04-24T23:21:37.790279+05:30
Dharamshala,Himachal Pradesh,32.219,76.3234,22.0,39,0.0,870.7,8.05,50.4,72,30.7,18.3,0,5,7,0,2026-04-24T23:21:37.790286+05:30
Dalhousie,Himachal Pradesh,32.5387,75.971,14.9,58,0.0,805.0,8.3,37.4,67,42.0,27.1,0,5,7,0,2026-04-24T23:21:37.790294+05:30
Patiala,Punjab,30.3398,76.3869,31.1,31,0.0,977.9,7.35,44.6,228,1043.1,120.1,0,5,7,0,2026-04-24T23:21:37.790301+05:30
Bhatinda,Punjab,30.211,74.9455,31.8,28,0.0,984.0,8.0,34.9,86,92.9,31.8,0,5,7,0,2026-04-24T23:21:37.790307+05:30
Rohtak,Haryana,28.8955,76.6066,29.8,29,0.0,980.8,7.45,31.0,170,421.0,85.9,4,5,7,0,2026-04-24T23:21:37.790314+05:30
Panipat,Haryana,29.3909,76.9635,29.2,33,0.0,979.3,7.3,34.2,336,819.6,116.2,4,5,7,0,2026-04-24T23:21:37.790320+05:30
Mathura,Uttar Pradesh,27.4924,77.6737,29.8,29,0.0,985.2,7.75,26.3,375,432.1,82.0,4,5,7,0,2026-04-24T23:21:37.790326+05:30
Vrindavan,Uttar Pradesh,27.5823,77.7027,29.4,30,0.0,985.7,7.7,25.9,375,432.1,82.0,4,5,7,0,2026-04-24T23:21:37.790333+05:30
Ayodhya,Uttar Pradesh,26.7922,82.1998,29.8,37,0.0,993.9,8.05,31.3,139,144.8,53.1,4,5,7,0,2026-04-24T23:21:37.790340+05:30
Ratlam,Madhya Pradesh,23.3315,75.0367,28.1,25,0.0,954.9,8.5,37.4,53,25.5,14.0,4,5,7,0,2026-04-24T23:21:37.790346+05:30
Sagar,Madhya Pradesh,23.8388,78.7378,28.2,22,0.0,949.4,8.65,44.6,87,20.8,13.0,4,5,7,0,2026-04-24T23:21:37.790352+05:30
Satna,Madhya Pradesh,24.6005,80.8322,29.4,22,0.0,970.3,8.65,41.8,102,32.2,30.0,4,5,7,0,2026-04-24T23:21:37.790359+05:30
Akola,Maharashtra,20.7002,77.0082,32.3,20,0.0,974.3,8.85,30.2,96,31.8,27.4,0,5,7,0,2026-04-24T23:21:37.790366+05:30
Amravati,Maharashtra,20.9374,77.7796,33.1,21,0.0,967.0,8.75,29.9,95,42.3,34.9,0,5,7,0,2026-04-24T23:21:37.790373+05:30
Latur,Maharashtra,18.4088,76.5604,30.2,33,0.0,940.4,8.3,29.2,141,47.0,42.4,0,5,7,0,2026-04-24T23:21:37.790380+05:30
Nanded,Maharashtra,19.1383,77.3091,30.4,32,0.0,968.4,8.1,27.7,113,50.5,45.5,0,5,7,0,2026-04-24T23:21:37.790386+05:30
Gulbarga,Karnataka,17.3297,76.8343,30.1,38,0.0,958.9,8.7,65.9,127,49.8,41.8,0,5,7,0,2026-04-24T23:21:37.790392+05:30
Bidar,Karnataka,17.9104,77.5199,27.5,42,0.0,935.9,8.9,43.9,117,64.0,57.2,4,5,7,0,2026-04-24T23:21:37.790398+05:30
Hospet,Karnataka,15.2689,76.3909,31.2,29,0.0,955.7,9.25,27.0,123,32.8,29.0,0,5,7,0,2026-04-24T23:21:37.790405+05:30
Tirupur,Tamil Nadu,11.1085,77.3411,31.6,41,0.0,974.9,9.4,42.5,69,17.1,15.9,0,5,7,1,2026-04-24T23:21:37.790411+05:30
Alappuzha,Kerala,9.4981,76.3388,27.0,88,0.0,1008.6,9.0,36.0,81,44.1,38.6,7,0,4,1,2026-04-24T23:21:37.790418+05:30
Munnar,Kerala,10.0889,77.0595,18.7,70,0.0,856.8,9.6,20.9,66,26.8,25.8,3,5,7,0,2026-04-24T23:21:37.790425+05:30
Silchar,Assam,24.8333,92.7789,25.1,93,0.0,1005.0,8.75,19.8,158,147.1,94.5,7,5,4,1,2026-04-24T23:21:37.790432+05:30
Dibrugarh,Assam,27.4728,94.912,25.1,85,0.0,995.9,8.65,16.6,88,39.1,31.7,7,5,7,1,2026-04-24T23:21:37.790438+05:30
