city,state,latitude,longitude,temp,humidity,rain,pressure,uv_index,wind_gusts,aqi,pm10,pm2_5,no2,co,o3,so2,mosquito_risk,arthritis_risk,migraine_risk,frizz_risk,updated_at
Delhi,Delhi,28.6139,77.209,30.9,77,0.0,973.2,7.65,28.4,386,456.3,145.3,78.6,2665.0,16.0,26.2,3,5,7,1,2026-07-11T21:30:11.060270+05:30
Mumbai,Maharashtra,19.076,72.8777,27.6,88,0.0,1007.1,6.15,52.6,55,28.8,12.7,7.1,205.0,42.0,4.8,7,5,4,1,2026-07-11T21:30:11.060310+05:30
Bangalore,Karnataka,12.9716,77.5946,24.7,70,0.0,912.5,7.2,46.8,48,20.7,12.8,21.3,619.0,36.0,5.2,3,5,7,1,2026-07-11T21:30:11.060323+05:30
Hyderabad,Telangana,17.385,78.4867,29.2,55,0.0,951.1,8.35,47.9,63,38.2,20.4,14.4,400.0,52.0,4.9,4,5,7,1,2026-07-11T21:30:11.060331+05:30
Chennai,Tamil Nadu,13.0827,80.2707,29.9,78,0.0,1005.3,8.15,33.1,85,39.2,24.4,9.3,217.0,113.0,7.5,7,5,4,1,2026-07-11T21:30:11.060337+05:30
Kolkata,West Bengal,22.5726,88.3639,28.2,94,0.0,998.8,2.35,39.6,111,80.6,62.9,21.3,541.0,72.0,14.7,7,5,3,1,2026-07-11T21:30:11.060343+05:30
Pune,Maharashtra,18.5204,73.8567,23.6,89,0.0,946.6,7.65,57.2,34,16.3,8.6,9.3,160.0,34.0,5.6,3,5,7,1,2026-07-11T21:30:11.060349+05:30
Ahmedabad,Gujarat,23.0225,72.5714,31.3,61,0.0,996.1,6.1,48.6,65,43.4,23.0,7.1,148.0,57.0,4.4,3,5,7,1,2026-07-11T21:30:11.060355+05:30
Jaipur,Rajasthan,26.9124,75.7873,29.9,65,0.0,951.4,7.7,41.0,452,475.0,88.0,12.1,217.0,61.0,5.2,7,5,7,1,2026-07-11T21:30:11.060360+05:30
Lucknow,Uttar Pradesh,26.8467,80.9462,27.0,96,0.2,984.4,6.1,51.8,153,118.0,66.6,24.7,350.0,49.0,9.4,10,5,7,1,2026-07-11T21:30:11.060369+05:30
Kanpur,Uttar Pradesh,26.4499,80.3319,30.4,69,0.0,983.0,8.05,47.2,129,105.5,43.1,11.7,182.0,80.0,7.6,3,5,7,1,2026-07-11T21:30:11.060375+05:30
Chandigarh,Chandigarh,30.7333,76.7794,27.6,84,0.0,959.7,7.7,22.3,153,128.5,88.7,60.9,1807.0,47.0,15.3,7,5,7,1,2026-07-11T21:30:11.060381+05:30
Srinagar,Jammu and Kashmir,34.0837,74.7973,20.4,89,0.1,836.1,9.0,26.6,105,16.4,15.7,22.6,744.0,81.0,2.5,6,5,7,1,2026-07-11T21:30:11.060387+05:30
Jammu,Jammu and Kashmir,32.7266,74.857,28.3,87,0.0,963.1,8.55,29.9,129,33.1,28.9,27.6,608.0,82.0,4.5,7,5,7,1,2026-07-11T21:30:11.060392+05:30
Amritsar,Punjab,31.634,74.8723,29.1,84,0.0,970.7,8.4,31.7,159,202.6,100.6,26.3,395.0,69.0,7.1,7,5,7,1,2026-07-11T21:30:11.060398+05:30
Ludhiana,Punjab,30.901,75.8573,29.0,86,0.0,968.9,7.9,31.0,161,348.3,154.6,51.7,665.0,45.0,12.1,7,5,7,1,2026-07-11T21:30:11.060402+05:30
Jalandhar,Punjab,31.326,75.5762,28.3,88,0.0,970.0,8.15,27.7,165,324.1,151.3,51.9,946.0,54.0,9.0,7,5,7,1,2026-07-11T21:30:11.060407+05:30
Dehradun,Uttarakhand,30.6284,78.0322,17.7,100,0.0,824.5,7.85,21.6,96,13.6,12.8,21.8,259.0,95.0,2.7,3,10,7,1,2026-07-11T21:30:11.060412+05:30
Shimla,Himachal Pradesh,31.1048,77.1734,15.7,96,0.0,779.0,3.75,31.3,146,53.0,44.2,15.0,611.0,125.0,6.6,3,10,3,0,2026-07-11T21:30:11.060418+05:30
Manali,Himachal Pradesh,32.2396,77.1887,19.5,96,0.1,814.3,7.7,19.1,102,4.2,4.1,51.1,224.0,86.0,0.6,6,10,7,1,2026-07-11T21:30:11.060425+05:30
Gurgaon,Haryana,28.4595,77.0266,30.6,76,0.0,971.7,7.7,30.2,493,823.3,187.2,50.0,1579.0,32.0,13.6,3,5,7,1,2026-07-11T21:30:11.060432+05:30
Noida,Uttar Pradesh,28.5355,77.391,31.0,78,0.0,974.7,7.65,29.2,493,823.3,187.2,50.0,1419.0,32.0,13.6,3,5,7,1,2026-07-11T21:30:11.060438+05:30
Ghaziabad,Uttar Pradesh,28.6692,77.4538,31.1,76,0.0,973.0,7.05,34.2,222,614.7,180.2,61.2,1092.0,36.0,23.0,3,5,7,1,2026-07-11T21:30:11.060443+05:30
Faridabad,Haryana,28.4089,77.3178,30.7,84,0.0,974.0,7.65,31.3,493,823.3,187.2,50.0,1027.0,32.0,13.6,3,5,7,1,2026-07-11T21:30:11.060448+05:30
Meerut,Uttar Pradesh,28.9845,77.7064,29.5,89,0.0,971.9,7.6,28.4,222,614.7,180.2,61.2,816.0,36.0,23.0,7,5,7,1,2026-07-11T21:30:11.060453+05:30
Agra,Uttar Pradesh,27.1767,78.0081,30.1,67,0.0,978.5,8.0,39.6,157,163.0,46.9,20.7,311.0,54.0,6.7,3,5,7,1,2026-07-11T21:30:11.060470+05:30
Varanasi,Uttar Pradesh,25.3176,82.9739,29.5,76,0.0,989.5,6.3,47.5,110,55.2,38.3,12.0,302.0,76.0,8.4,7,5,7,1,2026-07-11T21:30:11.060475+05:30
Prayagraj,Uttar Pradesh,25.4358,81.8463,30.8,66,0.0,987.9,8.25,43.9,110,60.1,39.2,11.7,196.0,77.0,8.2,3,5,7,1,2026-07-11T21:30:11.060480+05:30
Gorakhpur,Uttar Pradesh,26.7606,83.3732,26.7,97,0.0,988.8,6.05,36.0,106,81.0,59.4,18.4,350.0,78.0,6.7,7,5,7,1,2026-07-11T21:30:11.060485+05:30
Bareilly,Uttar Pradesh,28.367,79.4304,25.5,96,0.0,977.6,8.0,36.0,152,155.5,82.0,26.3,348.0,62.0,8.6,7,5,7,1,2026-07-11T21:30:11.060491+05:30
Aligarh,Uttar Pradesh,27.8974,78.088,30.2,67,0.0,976.1,7.8,32.8,331,482.4,110.8,18.7,238.0,64.0,5.9,3,5,7,1,2026-07-11T21:30:11.060496+05:30
Moradabad,Uttar Pradesh,28.8386,78.7733,26.8,96,0.1,974.5,7.8,33.5,156,148.5,75.4,24.6,617.0,82.0,9.7,10,5,7,1,2026-07-11T21:30:11.060500+05:30
Saharanpur,Uttar Pradesh,29.9637,77.546,27.9,88,0.0,966.5,7.35,23.4,130,80.8,64.0,24.9,663.0,74.0,10.3,7,5,7,1,2026-07-11T21:30:11.060505+05:30
Jhansi,Uttar Pradesh,25.4484,78.5685,30.0,63,0.0,970.4,8.4,46.8,95,43.0,25.8,8.1,168.0,73.0,6.3,7,5,7,1,2026-07-11T21:30:14.400989+05:30
Surat,Gujarat,21.1702,72.8311,28.5,86,0.0,1003.3,5.1,61.6,60,23.1,13.4,13.4,210.0,35.0,21.5,7,5,0,1,2026-07-11T21:30:14.401021+05:30
Vadodara,Gujarat,22.3072,73.1812,29.0,82,0.0,999.3,7.75,54.0,58,32.0,18.6,10.3,141.0,44.0,7.6,7,5,7,1,2026-07-11T21:30:14.401030+05:30
Rajkot,Gujarat,22.3039,70.8022,28.5,75,0.0,989.2,7.1,58.7,60,39.6,18.9,4.0,106.0,47.0,3.7,7,5,7,1,2026-07-11T21:30:14.401037+05:30
Thane,Maharashtra,19.2183,72.9781,27.3,89,0.0,1006.3,6.2,44.6,55,28.8,12.7,7.1,236.0,42.0,4.8,7,5,4,1,2026-07-11T21:30:14.401043+05:30
Nagpur,Maharashtra,21.1458,79.0882,28.4,71,0.0,968.8,6.8,47.2,83,49.9,27.0,13.0,269.0,60.0,10.5,7,5,7,1,2026-07-11T21:30:14.401049+05:30
Nashik,Maharashtra,19.9975,73.7898,23.7,92,0.0,943.3,7.45,63.7,36,14.6,8.4,7.6,128.0,37.0,3.1,3,5,7,1,2026-07-11T21:30:14.401054+05:30
Aurangabad,Maharashtra,19.8762,75.3433,25.6,78,0.0,941.5,8.9,60.5,50,22.9,12.5,6.5,148.0,52.0,6.5,7,5,7,1,2026-07-11T21:30:14.401060+05:30
Solapur,Maharashtra,17.6599,75.9064,27.7,65,0.0,955.7,7.85,48.2,45,24.2,12.0,5.5,140.0,45.0,2.3,7,5,7,1,2026-07-11T21:30:14.401066+05:30
Kolhapur,Maharashtra,16.705,74.2433,23.0,91,0.0,947.7,7.2,50.4,38,16.9,8.8,6.8,153.0,36.0,2.7,3,5,7,1,2026-07-11T21:30:14.401072+05:30
Goa,Goa,15.2993,74.124,26.5,90,0.0,998.7,8.0,34.2,55,25.1,13.1,3.9,250.0,42.0,1.6,7,5,7,1,2026-07-11T21:30:14.401078+05:30
Jodhpur,Rajasthan,26.2389,73.0243,33.2,52,0.0,973.7,8.4,53.6,200,378.1,88.9,4.5,124.0,67.0,2.5,0,5,7,1,2026-07-11T21:30:14.401084+05:30
Udaipur,Rajasthan,24.5854,73.7125,27.3,64,0.0,939.9,8.6,53.3,69,43.4,23.3,3.8,118.0,75.0,3.5,7,5,7,1,2026-07-11T21:30:14.401089+05:30
Kota,Rajasthan,25.2138,75.8648,30.4,60,0.0,971.3,8.3,42.5,84,38.4,22.1,6.4,163.0,74.0,5.7,0,5,7,1,2026-07-11T21:30:14.401094+05:30
Bikaner,Rajasthan,28.0229,73.3119,34.1,50,0.0,971.0,8.45,42.5,159,326.0,97.8,3.0,125.0,73.0,3.9,0,5,7,1,2026-07-11T21:30:14.401100+05:30
Ajmer,Rajasthan,26.4499,74.6399,29.6,61,0.0,946.7,8.25,52.2,80,35.5,20.9,5.8,140.0,71.0,3.4,7,5,7,1,2026-07-11T21:30:14.401106+05:30
Gwalior,Madhya Pradesh,26.2183,78.1828,29.2,69,0.0,974.8,8.15,45.7,89,44.0,27.4,9.2,181.0,71.0,6.1,7,5,7,1,2026-07-11T21:30:14.401111+05:30
Indore,Madhya Pradesh,22.7196,75.8577,26.2,80,0.0,943.5,8.45,61.2,67,30.6,19.1,7.1,216.0,68.0,7.2,7,5,7,1,2026-07-11T21:30:14.401115+05:30
Bhopal,Madhya Pradesh,23.2599,77.4126,27.3,73,0.0,948.5,8.55,50.4,79,39.5,23.1,6.5,211.0,70.0,4.7,7,5,7,1,2026-07-11T21:30:14.401120+05:30
Jabalpur,Madhya Pradesh,23.1815,79.9864,26.9,73,0.0,956.4,5.9,44.6,84,49.0,26.7,5.4,196.0,72.0,4.7,7,5,3,1,2026-07-11T21:30:14.401126+05:30
Ujjain,Madhya Pradesh,23.1765,75.7885,26.8,77,0.0,948.9,7.35,54.7,67,32.6,20.5,5.2,183.0,70.0,6.2,7,5,7,1,2026-07-11T21:30:14.401131+05:30
Visakhapatnam,Andhra Pradesh,17.6868,83.2185,30.1,65,0.0,998.9,7.7,37.8,93,43.7,27.2,19.9,321.0,66.0,31.7,3,5,7,1,2026-07-11T21:30:14.401137+05:30
Vijayawada,Andhra Pradesh,16.5062,80.648,31.7,60,0.0,999.4,5.95,44.6,85,45.5,31.3,20.3,255.0,36.0,6.5,0,5,3,1,2026-07-11T21:30:14.401142+05:30
Guntur,Andhra Pradesh,16.3067,80.4365,33.3,42,0.0,1000.6,5.5,47.5,80,44.6,28.1,18.9,342.0,38.0,6.1,0,5,0,1,2026-07-11T21:30:14.401147+05:30
Nellore,Andhra Pradesh,14.4426,79.9865,31.4,63,0.0,1003.3,7.85,42.5,66,44.6,25.9,9.4,197.0,95.0,5.2,3,5,4,1,2026-07-11T21:30:14.401153+05:30
Kurnool,Andhra Pradesh,15.8281,78.0373,31.1,46,0.0,975.1,7.7,47.5,58,33.8,16.2,8.4,147.0,58.0,6.0,0,5,7,1,2026-07-11T21:30:14.401159+05:30
Kakinada,Andhra Pradesh,16.9891,82.2475,30.4,69,0.0,1003.5,7.9,49.0,78,38.5,23.1,8.1,279.0,81.0,5.1,3,5,4,1,2026-07-11T21:30:14.401165+05:30
Tirupati,Andhra Pradesh,13.6288,79.4192,31.3,55,0.0,989.4,8.1,37.1,66,89.4,51.5,58.2,522.0,12.0,6.6,0,5,7,1,2026-07-11T21:30:14.401170+05:30
Warangal,Telangana,17.9689,79.5941,28.6,66,0.0,975.6,5.6,44.3,75,62.4,40.6,20.7,336.0,33.0,5.9,7,5,3,1,2026-07-11T21:30:14.401175+05:30
Nizamabad,Telangana,18.6725,78.0941,27.9,63,0.0,961.5,8.7,49.0,69,45.3,24.7,11.2,210.0,53.0,5.6,7,5,7,1,2026-07-11T21:30:14.401180+05:30
Mysore,Karnataka,12.2958,76.6396,23.2,89,0.0,929.5,6.0,43.2,33,15.9,8.8,10.6,173.0,42.0,2.5,3,5,3,1,2026-07-11T21:30:14.401185+05:30
Mangalore,Karnataka,12.9141,74.856,26.4,90,0.1,1008.3,8.15,44.6,52,19.4,10.8,6.5,176.0,38.0,2.3,10,0,4,1,2026-07-11T21:30:14.401190+05:30
Hubli-Dharwad,Karnataka,15.3647,75.124,23.2,89,0.0,941.0,7.25,49.3,32,13.1,7.0,6.3,139.0,39.0,1.7,3,5,7,1,2026-07-11T21:30:14.401195+05:30
Belgaum,Karnataka,15.8497,74.4977,21.5,94,0.0,925.5,8.35,49.7,32,17.3,7.8,5.8,130.0,36.0,1.7,3,5,7,1,2026-07-11T21:30:17.727171+05:30
Coimbatore,Tamil Nadu,11.0168,76.9558,24.5,93,0.0,962.2,8.25,47.9,36,15.7,11.4,14.6,212.0,26.0,3.8,3,5,7,1,2026-07-11T21:30:17.727203+05:30
Madurai,Tamil Nadu,9.9252,78.1198,31.0,61,0.0,992.7,8.15,28.1,55,26.3,23.6,37.9,189.0,9.0,9.4,3,5,7,1,2026-07-11T21:30:17.727213+05:30
Trichy,Tamil Nadu,10.7905,78.7047,30.8,59,0.0,999.4,8.05,47.9,48,19.1,11.8,11.6,135.0,43.0,3.7,0,5,7,1,2026-07-11T21:30:17.727220+05:30
Salem,Tamil Nadu,11.6643,78.146,28.1,74,0.0,977.4,7.8,27.4,60,31.1,18.3,17.7,418.0,46.0,6.2,7,5,7,1,2026-07-11T21:30:17.727227+05:30
Tirunelveli,Tamil Nadu,8.7139,77.7567,30.5,61,0.0,1003.7,8.6,49.3,29,14.0,8.0,6.0,148.0,45.0,2.1,3,5,4,1,2026-07-11T21:30:17.727234+05:30
Vellore,Tamil Nadu,12.9165,79.1325,32.0,40,0.0,983.2,8.75,41.4,60,49.2,28.9,24.3,190.0,36.0,5.2,0,5,7,1,2026-07-11T21:30:17.727240+05:30
Erode,Tamil Nadu,11.341,77.7172,28.7,71,0.0,989.1,7.85,35.6,53,32.2,17.5,18.4,199.0,35.0,4.0,7,5,7,1,2026-07-11T21:30:17.727246+05:30
Kochi,Kerala,9.9312,76.2673,27.5,88,0.0,1010.5,7.75,36.7,51,20.7,15.7,18.3,152.0,22.0,4.8,7,0,4,1,2026-07-11T21:30:17.727252+05:30
Thiruvananthapuram,Kerala,8.5241,76.9366,26.4,89,0.0,1010.0,8.0,49.3,35,15.9,9.1,5.3,138.0,46.0,1.8,7,0,4,1,2026-07-11T21:30:17.727258+05:30
Kozhikode,Kerala,11.2588,75.7804,25.9,95,0.0,1009.6,7.4,37.8,40,16.9,8.8,2.6,196.0,49.0,1.4,7,0,4,1,2026-07-11T21:30:17.727264+05:30
Thrissur,Kerala,10.5276,76.2144,26.7,88,0.0,1008.7,7.1,36.7,52,18.8,13.4,11.6,285.0,29.0,3.5,7,0,4,1,2026-07-11T21:30:17.727269+05:30
Kannur,Kerala,11.8745,75.3704,27.0,87,0.0,1008.8,8.05,41.4,48,16.8,10.2,10.2,203.0,33.0,2.4,7,0,4,1,2026-07-11T21:30:17.727275+05:30
Patna,Bihar,25.5941,85.1376,27.1,95,0.2,992.6,4.8,31.0,113,85.9,66.4,23.3,367.0,67.0,11.9,10,5,3,1,2026-07-11T21:30:17.727280+05:30
Gaya,Bihar,24.7914,85.0002,29.1,80,0.0,986.3,7.5,40.3,99,52.4,40.0,19.0,274.0,73.0,29.4,7,5,7,1,2026-07-11T21:30:17.727286+05:30
Muzaffarpur,Bihar,26.1209,85.3647,27.2,96,0.1,992.5,4.95,29.5,117,95.2,71.0,21.6,481.0,74.0,8.8,10,5,3,1,2026-07-11T21:30:17.727291+05:30
Bhagalpur,Bihar,25.2425,87.0117,28.6,84,0.0,993.2,7.65,34.2,81,34.5,26.8,12.4,352.0,77.0,5.7,7,5,7,1,2026-07-11T21:30:17.727296+05:30
Ranchi,Jharkhand,23.3441,85.3096,24.5,94,0.0,931.9,7.0,40.7,89,43.9,31.5,9.2,234.0,67.0,4.7,3,5,7,1,2026-07-11T21:30:17.727301+05:30
Jamshedpur,Jharkhand,22.8046,86.2029,28.4,80,0.0,984.5,8.5,34.2,110,50.3,35.5,16.1,340.0,61.0,15.7,7,5,7,1,2026-07-11T21:30:17.727307+05:30
Dhanbad,Jharkhand,23.7957,86.4304,27.2,90,0.0,972.8,8.65,32.0,120,49.1,37.3,35.6,267.0,39.0,77.0,7,5,7,1,2026-07-11T21:30:17.727312+05:30
Bokaro,Jharkhand,23.6693,86.1511,28.0,82,0.0,976.7,6.9,33.5,110,50.9,36.3,26.3,286.0,48.0,59.3,7,5,7,1,2026-07-11T21:30:17.727317+05:30
Bhubaneswar,Odisha,20.2961,85.8245,28.5,86,0.0,996.7,8.45,35.3,90,59.8,42.3,17.7,386.0,70.0,9.3,7,5,7,1,2026-07-11T21:30:17.727322+05:30
Cuttack,Odisha,20.4625,85.8828,29.1,83,0.0,998.5,8.55,36.0,90,59.8,42.3,17.7,412.0,70.0,9.3,7,5,7,1,2026-07-11T21:30:17.727327+05:30
Rourkela,Odisha,22.2604,84.8536,28.0,80,0.0,979.4,8.2,32.8,128,57.7,39.9,13.0,388.0,93.0,25.1,7,5,7,1,2026-07-11T21:30:17.727332+05:30
Raipur,Chhattisgarh,21.2514,81.6296,28.5,64,0.0,969.8,7.6,40.7,114,61.7,38.6,23.7,453.0,63.0,40.8,7,5,7,1,2026-07-11T21:30:17.727337+05:30
Bhilai,Chhattisgarh,21.1938,81.3509,27.8,69,0.0,970.3,7.4,45.4,107,58.9,35.3,18.7,625.0,68.0,32.6,7,5,7,1,2026-07-11T21:30:17.727341+05:30
Guwahati,Assam,26.1158,91.7086,26.0,98,0.3,993.5,8.55,24.5,41,22.1,22.0,11.9,376.0,51.0,2.7,10,5,7,1,2026-07-11T21:30:17.727346+05:30
Agartala,Tripura,23.8315,91.2868,26.2,99,0.1,999.5,6.75,35.6,81,37.5,30.0,9.7,239.0,75.0,4.2,10,5,7,1,2026-07-11T21:30:17.727350+05:30
Shillong,Meghalaya,25.5788,91.8933,21.3,95,0.0,852.0,3.95,27.4,41,3.9,3.8,7.2,323.0,84.0,3.7,3,5,3,1,2026-07-11T21:30:17.727355+05:30
Imphal,Manipur,24.817,93.9368,23.7,97,0.1,917.5,8.55,33.1,33,12.0,11.6,13.6,406.0,43.0,3.1,6,5,7,1,2026-07-11T21:30:17.727360+05:30
Aizawl,Mizoram,23.7271,92.7176,20.5,95,0.1,887.3,8.25,40.0,40,11.9,8.3,4.1,160.0,76.0,3.5,6,5,7,1,2026-07-11T21:30:17.727365+05:30
Kohima,Nagaland,25.6701,94.1077,21.2,96,0.0,850.5,6.6,20.9,32,7.9,7.7,9.5,317.0,52.0,1.9,3,5,7,1,2026-07-11T21:30:17.727370+05:30
Gangtok,Sikkim,27.3314,88.6138,19.4,97,0.2,832.8,8.5,30.6,48,8.9,8.8,6.6,365.0,94.0,1.0,6,10,7,1,2026-07-11T21:30:17.727376+05:30
Siliguri,West Bengal,26.7271,88.3953,26.2,98,0.1,985.0,5.0,25.6,87,27.3,27.1,12.9,1049.0,97.0,3.9,10,5,3,1,2026-07-11T21:30:21.056049+05:30
Durgapur,West Bengal,23.5204,87.3119,28.5,84,0.0,987.7,6.3,35.3,125,43.5,35.3,43.0,300.0,30.0,63.4,7,5,7,1,2026-07-11T21:30:21.056082+05:30
Asansol,West Bengal,23.6739,86.9524,28.3,85,0.0,986.1,7.05,38.2,110,41.4,30.7,36.2,1108.0,38.0,54.6,7,5,7,1,2026-07-11T21:30:21.056092+05:30
Pondicherry,Puducherry,11.9139,79.8145,30.7,74,0.0,1006.7,8.15,38.2,77,37.1,21.7,13.7,193.0,83.0,8.6,3,5,4,1,2026-07-11T21:30:21.056099+05:30
Port Blair,Andaman and Nicobar Islands,11.6234,92.7265,26.9,86,0.1,1007.2,8.8,57.6,33,16.2,8.8,0.3,90.0,52.0,0.4,10,5,4,1,2026-07-11T21:30:21.056106+05:30
Haridwar,Uttarakhand,29.9457,78.1642,27.0,95,0.0,965.1,7.5,20.5,127,83.4,65.2,21.4,445.0,81.0,9.4,7,5,7,1,2026-07-11T21:30:21.056113+05:30
Rishikesh,Uttarakhand,30.0869,78.2676,26.4,95,0.1,958.2,7.6,19.1,120,34.8,26.8,7.5,463.0,123.0,5.0,10,5,7,1,2026-07-11T21:30:21.056119+05:30
Nainital,Uttarakhand,29.3919,79.4542,17.4,100,0.0,800.0,3.1,27.7,90,57.2,39.1,16.6,363.0,90.0,7.5,3,10,3,1,2026-07-11T21:30:21.056125+05:30
Mussoorie,Uttarakhand,30.4599,78.0664,17.1,100,0.0,797.7,7.75,25.2,122,33.2,29.5,27.4,354.0,89.0,7.3,3,10,7,1,2026-07-11T21:30:21.056132+05:30
Dharamshala,Himachal Pradesh,32.219,76.3234,22.0,93,0.0,862.8,8.4,27.4,105,15.0,13.0,15.7,691.0,83.0,1.7,3,5,7,1,2026-07-11T21:30:21.056138+05:30
Dalhousie,Himachal Pradesh,32.5387,75.971,18.0,92,0.0,799.3,8.65,20.9,155,48.2,38.5,31.3,672.0,118.0,4.6,3,10,7,1,2026-07-11T21:30:21.056144+05:30
Patiala,Punjab,30.3398,76.3869,29.6,82,0.0,968.6,7.5,24.5,162,339.0,139.7,45.4,817.0,44.0,9.5,7,5,7,1,2026-07-11T21:30:21.056150+05:30
Bhatinda,Punjab,30.211,74.9455,32.4,67,0.0,973.0,8.1,27.0,175,235.6,118.3,39.1,474.0,53.0,11.8,3,5,7,1,2026-07-11T21:30:21.056155+05:30
Rohtak,Haryana,28.8955,76.6066,30.9,67,0.0,971.9,7.6,32.0,669,892.2,163.4,32.7,328.0,46.0,5.5,3,5,7,1,2026-07-11T21:30:21.056162+05:30
Panipat,Haryana,29.3909,76.9635,30.1,83,0.0,970.8,7.1,25.6,807,1128.8,213.7,41.3,924.0,38.0,8.9,3,5,7,1,2026-07-11T21:30:21.056167+05:30
Mathura,Uttar Pradesh,27.4924,77.6737,31.2,60,0.0,977.4,7.6,32.4,529,819.6,127.1,20.4,221.0,59.0,4.6,0,5,7,1,2026-07-11T21:30:21.056173+05:30
Vrindavan,Uttar Pradesh,27.5823,77.7027,31.3,60,0.0,977.8,7.75,30.6,529,819.6,127.1,20.4,211.0,59.0,4.6,0,5,7,1,2026-07-11T21:30:21.056179+05:30
Ayodhya,Uttar Pradesh,26.7922,82.1998,27.6,93,0.4,987.0,6.95,37.4,150,115.0,62.9,20.6,446.0,59.0,6.4,10,5,7,1,2026-07-11T21:30:21.056185+05:30
Ratlam,Madhya Pradesh,23.3315,75.0367,26.7,80,0.0,949.6,5.5,59.0,64,29.7,18.7,5.0,142.0,69.0,6.6,7,5,3,1,2026-07-11T21:30:21.056193+05:30
Sagar,Madhya Pradesh,23.8388,78.7378,27.4,70,0.0,944.4,7.7,52.6,86,40.4,23.0,5.0,170.0,70.0,3.2,7,5,7,1,2026-07-11T21:30:21.056199+05:30
Satna,Madhya Pradesh,24.6005,80.8322,29.1,61,0.0,964.8,8.15,45.0,92,46.1,27.0,7.7,162.0,70.0,4.0,7,5,7,1,2026-07-11T21:30:21.056205+05:30
Akola,Maharashtra,20.7002,77.0082,30.2,58,0.0,971.2,8.7,50.4,64,25.8,13.5,7.4,126.0,53.0,6.4,0,5,7,1,2026-07-11T21:30:21.056212+05:30
Amravati,Maharashtra,20.9374,77.7796,29.0,63,0.0,963.3,8.65,52.9,67,28.9,14.9,8.6,161.0,55.0,7.6,7,5,7,1,2026-07-11T21:30:21.056218+05:30
Latur,Maharashtra,18.4088,76.5604,26.9,62,0.0,937.5,8.5,46.8,51,25.3,12.6,4.1,162.0,55.0,2.5,7,5,7,1,2026-07-11T21:30:21.056224+05:30
Nanded,Maharashtra,19.1383,77.3091,29.1,58,0.0,965.3,8.1,46.4,61,35.2,19.2,7.3,220.0,61.0,3.8,4,5,7,1,2026-07-11T21:30:21.056229+05:30
Gulbarga,Karnataka,17.3297,76.8343,28.5,59,0.0,956.8,7.65,49.3,51,29.3,14.1,7.7,137.0,49.0,2.7,4,5,7,1,2026-07-11T21:30:21.056234+05:30
Bidar,Karnataka,17.9104,77.5199,27.4,54,0.0,933.3,6.4,44.3,58,36.0,16.5,7.1,149.0,59.0,2.4,4,5,7,1,2026-07-11T21:30:21.056240+05:30
Hospet,Karnataka,15.2689,76.3909,26.5,70,0.0,955.7,8.3,49.0,42,15.4,8.6,6.6,142.0,43.0,1.9,7,5,7,1,2026-07-11T21:30:21.056245+05:30
Tirupur,Tamil Nadu,11.1085,77.3411,26.4,82,0.0,975.6,8.1,50.0,55,38.4,21.0,22.9,179.0,30.0,5.6,7,5,7,1,2026-07-11T21:30:21.056251+05:30
Alappuzha,Kerala,9.4981,76.3388,27.4,88,0.0,1010.8,8.2,41.8,44,18.6,11.9,11.1,83.0,38.0,3.3,7,0,4,1,2026-07-11T21:30:21.056256+05:30
Munnar,Kerala,10.0889,77.0595,17.1,97,0.0,857.6,8.2,38.2,21,11.4,8.2,11.4,125.0,24.0,2.0,3,10,7,1,2026-07-11T21:30:21.056262+05:30
Silchar,Assam,24.8333,92.7789,27.0,96,0.1,998.2,7.95,27.7,39,17.6,16.1,7.7,346.0,74.0,4.1,10,5,7,1,2026-07-11T21:30:21.056267+05:30
Dibrugarh,Assam,27.4728,94.912,28.3,91,0.1,987.1,6.55,28.4,45,10.2,10.1,9.9,217.0,62.0,1.6,10,5,7,1,2026-07-11T21:30:21.056272+05:30
