city,state,latitude,longitude,temp,humidity,rain,pressure,uv_index,wind_gusts,aqi,pm10,pm2_5,mosquito_risk,arthritis_risk,migraine_risk,frizz_risk,updated_at
Delhi,Delhi,28.6139,77.209,17.6,69,0.0,984.8,5.75,36.4,158,269.2,81.7,3,5,3,0,2026-03-02T02:56:52.945947+05:30
Mumbai,Maharashtra,19.076,72.8777,25.7,79,0.0,1009.6,7.35,25.9,81,48.4,28.4,7,0,4,1,2026-03-02T02:56:52.945985+05:30
Bangalore,Karnataka,12.9716,77.5946,20.7,78,0.0,910.8,9.05,26.3,150,43.5,42.5,3,5,7,1,2026-03-02T02:56:52.946000+05:30
Hyderabad,Telangana,17.385,78.4867,23.7,75,0.0,952.9,8.3,27.4,140,63.1,62.4,3,5,7,1,2026-03-02T02:56:52.946010+05:30
Chennai,Tamil Nadu,13.0827,80.2707,23.6,87,0.0,1007.1,8.8,29.5,127,45.1,41.2,3,5,4,1,2026-03-02T02:56:52.946019+05:30
Kolkata,West Bengal,22.5726,88.3639,23.7,95,0.0,1005.9,7.65,16.2,109,46.6,44.4,3,5,4,1,2026-03-02T02:56:52.946028+05:30
Pune,Maharashtra,18.5204,73.8567,19.9,87,0.0,948.3,7.85,25.6,92,52.2,44.1,3,10,7,1,2026-03-02T02:56:52.946039+05:30
Ahmedabad,Gujarat,23.0225,72.5714,22.4,61,0.0,1003.6,7.1,15.5,92,73.1,58.9,3,5,4,0,2026-03-02T02:56:52.946047+05:30
Jaipur,Rajasthan,26.9124,75.7873,20.0,37,0.0,961.2,6.55,30.2,93,74.3,46.2,0,5,7,0,2026-03-02T02:56:52.946054+05:30
Lucknow,Uttar Pradesh,26.8467,80.9462,16.8,62,0.0,994.8,6.25,38.5,119,180.2,51.2,3,5,7,0,2026-03-02T02:56:52.946062+05:30
Kanpur,Uttar Pradesh,26.4499,80.3319,14.7,71,0.0,993.3,6.25,32.8,145,252.4,53.4,3,5,7,0,2026-03-02T02:56:52.946069+05:30
Chandigarh,Chandigarh,30.7333,76.7794,15.1,55,0.0,969.7,5.6,37.8,84,31.7,28.2,0,5,3,0,2026-03-02T02:56:52.946077+05:30
Srinagar,Jammu and Kashmir,34.0837,74.7973,4.0,82,0.0,838.2,6.55,17.6,144,83.1,68.9,3,10,7,0,2026-03-02T02:56:52.946084+05:30
Jammu,Jammu and Kashmir,32.7266,74.857,14.6,72,0.0,974.5,6.25,29.2,100,42.0,39.6,3,5,7,0,2026-03-02T02:56:52.946091+05:30
Amritsar,Punjab,31.634,74.8723,17.0,67,0.0,982.9,6.2,28.8,133,88.0,67.3,3,5,7,0,2026-03-02T02:56:52.946098+05:30
Ludhiana,Punjab,30.901,75.8573,17.1,65,0.0,980.7,5.85,32.0,155,97.3,89.4,3,5,3,0,2026-03-02T02:56:52.946104+05:30
Jalandhar,Punjab,31.326,75.5762,16.7,69,0.0,982.1,6.0,31.3,157,115.0,99.4,3,5,3,0,2026-03-02T02:56:52.946115+05:30
Dehradun,Uttarakhand,30.6284,78.0322,9.8,58,0.0,827.1,5.7,28.1,62,24.5,20.7,0,5,3,0,2026-03-02T02:56:52.946123+05:30
Shimla,Himachal Pradesh,31.1048,77.1734,6.2,60,0.0,779.9,5.85,56.5,67,33.2,25.6,0,5,3,1,2026-03-02T02:56:52.946129+05:30
Manali,Himachal Pradesh,32.2396,77.1887,10.6,20,0.0,816.9,7.45,34.9,50,25.1,19.8,0,5,7,1,2026-03-02T02:56:52.946137+05:30
Gurgaon,Haryana,28.4595,77.0266,15.3,78,0.0,983.1,5.85,33.5,556,698.5,119.2,3,5,3,0,2026-03-02T02:56:52.946143+05:30
Noida,Uttar Pradesh,28.5355,77.391,17.6,70,0.0,986.3,5.75,36.0,556,698.5,119.2,3,5,3,0,2026-03-02T02:56:52.946150+05:30
Ghaziabad,Uttar Pradesh,28.6692,77.4538,16.7,71,0.0,984.3,5.75,34.9,154,219.3,74.5,3,5,3,0,2026-03-02T02:56:52.946156+05:30
Faridabad,Haryana,28.4089,77.3178,17.7,64,0.0,985.4,5.8,32.0,556,698.5,119.2,3,5,3,0,2026-03-02T02:56:52.946163+05:30
Meerut,Uttar Pradesh,28.9845,77.7064,14.6,77,0.0,982.6,5.6,38.9,154,219.3,74.5,3,5,3,0,2026-03-02T02:56:52.946169+05:30
Agra,Uttar Pradesh,27.1767,78.0081,15.4,65,0.0,989.6,6.1,28.8,223,338.1,70.3,3,5,7,0,2026-03-02T02:56:52.946176+05:30
Varanasi,Uttar Pradesh,25.3176,82.9739,14.7,75,0.0,999.4,6.9,32.4,125,84.3,38.0,3,5,7,0,2026-03-02T02:56:52.946185+05:30
Prayagraj,Uttar Pradesh,25.4358,81.8463,15.4,74,0.0,997.8,6.75,29.5,128,109.7,43.0,3,5,7,0,2026-03-02T02:56:52.946192+05:30
Gorakhpur,Uttar Pradesh,26.7606,83.3732,15.1,65,0.0,997.7,6.6,28.1,105,88.7,39.5,3,5,7,0,2026-03-02T02:56:52.946198+05:30
Bareilly,Uttar Pradesh,28.367,79.4304,14.4,73,0.0,987.8,5.9,34.6,120,129.9,51.0,3,5,3,0,2026-03-02T02:56:52.946204+05:30
Aligarh,Uttar Pradesh,27.8974,78.088,16.1,73,0.0,986.9,5.85,33.8,304,409.8,95.0,3,5,3,0,2026-03-02T02:56:52.946213+05:30
Moradabad,Uttar Pradesh,28.8386,78.7733,13.9,74,0.0,984.6,5.75,36.4,131,127.1,59.6,3,5,3,0,2026-03-02T02:56:52.946218+05:30
Saharanpur,Uttar Pradesh,29.9637,77.546,14.3,65,0.0,976.6,5.4,51.1,131,66.6,47.6,3,5,3,0,2026-03-02T02:56:52.946224+05:30
Jhansi,Uttar Pradesh,25.4484,78.5685,17.6,59,0.0,979.6,6.7,23.0,77,48.4,30.3,0,5,7,0,2026-03-02T02:56:56.300808+05:30
Surat,Gujarat,21.1702,72.8311,23.2,90,0.0,1007.9,7.0,22.3,124,57.0,45.1,3,5,4,1,2026-03-02T02:56:56.300837+05:30
Vadodara,Gujarat,22.3072,73.1812,23.6,68,0.0,1005.4,7.15,13.3,112,82.0,71.9,3,5,4,1,2026-03-02T02:56:56.300847+05:30
Rajkot,Gujarat,22.3039,70.8022,20.7,88,0.0,996.3,6.95,23.4,71,44.2,20.7,3,5,7,1,2026-03-02T02:56:56.300855+05:30
Thane,Maharashtra,19.2183,72.9781,22.5,92,0.0,1009.1,7.3,36.7,81,48.4,28.4,3,0,4,1,2026-03-02T02:56:56.300862+05:30
Nagpur,Maharashtra,21.1458,79.0882,21.1,60,0.0,973.9,7.7,25.2,79,21.9,20.4,0,5,7,0,2026-03-02T02:56:56.300869+05:30
Nashik,Maharashtra,19.9975,73.7898,19.8,83,0.0,945.7,7.5,29.9,84,50.4,44.4,3,10,7,1,2026-03-02T02:56:56.300876+05:30
Aurangabad,Maharashtra,19.8762,75.3433,22.5,52,0.0,944.0,8.05,20.9,81,37.1,35.4,0,5,7,0,2026-03-02T02:56:56.300884+05:30
Solapur,Maharashtra,17.6599,75.9064,23.1,66,0.0,956.3,8.25,17.3,86,40.9,40.5,3,5,7,1,2026-03-02T02:56:56.300891+05:30
Kolhapur,Maharashtra,16.705,74.2433,16.8,91,0.0,947.2,8.35,41.4,82,35.5,32.2,3,10,7,0,2026-03-02T02:56:56.300898+05:30
Goa,Goa,15.2993,74.124,23.8,84,0.0,998.2,8.4,31.7,65,31.7,26.0,3,5,7,1,2026-03-02T02:56:56.300905+05:30
Jodhpur,Rajasthan,26.2389,73.0243,23.3,46,0.0,984.5,6.8,17.6,68,46.1,27.9,0,5,7,0,2026-03-02T02:56:56.300911+05:30
Udaipur,Rajasthan,24.5854,73.7125,17.6,59,0.0,947.3,7.4,16.9,59,32.0,21.7,0,5,7,0,2026-03-02T02:56:56.300918+05:30
Kota,Rajasthan,25.2138,75.8648,19.3,73,0.0,979.9,6.85,18.7,85,53.0,34.9,3,5,7,0,2026-03-02T02:56:56.300925+05:30
Bikaner,Rajasthan,28.0229,73.3119,22.5,45,0.0,983.5,6.5,23.0,68,38.1,22.6,0,5,7,0,2026-03-02T02:56:56.300934+05:30
Ajmer,Rajasthan,26.4499,74.6399,20.5,39,0.0,955.6,6.75,25.2,84,55.4,38.9,0,5,7,0,2026-03-02T02:56:56.300942+05:30
Gwalior,Madhya Pradesh,26.2183,78.1828,19.8,53,0.0,985.0,6.45,29.2,97,96.6,34.0,0,5,7,0,2026-03-02T02:56:56.300949+05:30
Indore,Madhya Pradesh,22.7196,75.8577,17.8,77,0.0,948.5,7.4,15.1,84,43.7,36.9,3,5,7,0,2026-03-02T02:56:56.300955+05:30
Bhopal,Madhya Pradesh,23.2599,77.4126,20.4,50,0.0,954.4,7.25,18.0,66,30.9,27.9,0,5,7,0,2026-03-02T02:56:56.300961+05:30
Jabalpur,Madhya Pradesh,23.1815,79.9864,20.1,63,0.0,962.7,7.35,19.4,72,40.0,29.4,3,5,7,0,2026-03-02T02:56:56.300968+05:30
Ujjain,Madhya Pradesh,23.1765,75.7885,18.9,75,0.0,954.4,7.3,12.2,93,62.2,56.7,3,5,7,0,2026-03-02T02:56:56.300975+05:30
Visakhapatnam,Andhra Pradesh,17.6868,83.2185,25.1,75,0.0,1004.1,8.3,37.1,148,48.2,45.5,7,5,4,1,2026-03-02T02:56:56.300981+05:30
Vijayawada,Andhra Pradesh,16.5062,80.648,23.4,92,0.0,1003.2,8.4,20.5,134,44.9,42.7,3,5,4,1,2026-03-02T02:56:56.300988+05:30
Guntur,Andhra Pradesh,16.3067,80.4365,23.1,93,0.0,1004.3,8.4,28.1,129,40.0,38.1,3,5,4,1,2026-03-02T02:56:56.300994+05:30
Nellore,Andhra Pradesh,14.4426,79.9865,23.3,86,0.0,1005.9,8.65,27.4,126,40.5,38.9,3,5,4,1,2026-03-02T02:56:56.301002+05:30
Kurnool,Andhra Pradesh,15.8281,78.0373,25.3,60,0.0,976.2,8.45,22.3,117,42.1,41.8,4,5,7,1,2026-03-02T02:56:56.301009+05:30
Kakinada,Andhra Pradesh,16.9891,82.2475,22.3,92,0.0,1008.1,8.35,30.2,142,51.1,46.7,3,0,4,1,2026-03-02T02:56:56.301016+05:30
Tirupati,Andhra Pradesh,13.6288,79.4192,20.8,82,0.0,992.0,8.75,23.8,143,51.1,49.6,3,5,7,1,2026-03-02T02:56:56.301022+05:30
Warangal,Telangana,17.9689,79.5941,23.8,81,0.0,978.7,8.15,18.7,144,44.5,44.0,3,5,7,1,2026-03-02T02:56:56.301028+05:30
Nizamabad,Telangana,18.6725,78.0941,23.4,73,0.0,964.5,8.05,27.7,112,54.8,54.4,3,5,7,1,2026-03-02T02:56:56.301034+05:30
Mysore,Karnataka,12.2958,76.6396,21.3,90,0.0,927.8,9.1,26.3,136,48.2,47.3,3,5,7,1,2026-03-02T02:56:56.301040+05:30
Mangalore,Karnataka,12.9141,74.856,28.0,74,0.0,1006.8,8.65,28.1,52,20.7,16.6,7,5,4,1,2026-03-02T02:56:56.301047+05:30
Hubli-Dharwad,Karnataka,15.3647,75.124,19.6,88,0.0,939.8,8.6,25.2,69,14.4,13.1,3,10,7,1,2026-03-02T02:56:56.301053+05:30
Belgaum,Karnataka,15.8497,74.4977,18.0,91,0.0,924.4,8.65,37.1,67,29.9,27.6,3,10,7,1,2026-03-02T02:56:59.651402+05:30
Coimbatore,Tamil Nadu,11.0168,76.9558,22.2,94,0.0,961.8,9.1,27.7,146,58.8,58.0,3,5,7,1,2026-03-02T02:56:59.651430+05:30
Madurai,Tamil Nadu,9.9252,78.1198,22.4,87,0.0,993.4,9.05,28.4,133,47.3,45.8,3,5,7,1,2026-03-02T02:56:59.651440+05:30
Trichy,Tamil Nadu,10.7905,78.7047,23.1,92,0.0,1000.1,8.95,29.2,137,52.7,49.9,3,5,4,1,2026-03-02T02:56:59.651447+05:30
Salem,Tamil Nadu,11.6643,78.146,24.2,77,0.0,977.7,9.0,29.2,140,50.4,48.9,3,5,7,1,2026-03-02T02:56:59.651454+05:30
Tirunelveli,Tamil Nadu,8.7139,77.7567,22.5,87,0.0,1003.6,9.05,42.1,129,68.0,66.6,3,5,4,1,2026-03-02T02:56:59.651461+05:30
Vellore,Tamil Nadu,12.9165,79.1325,21.7,84,0.0,984.9,8.85,29.9,152,62.4,60.5,3,5,7,1,2026-03-02T02:56:59.651467+05:30
Erode,Tamil Nadu,11.341,77.7172,24.7,80,0.0,989.5,9.0,27.4,129,37.3,35.7,3,5,7,1,2026-03-02T02:56:59.651473+05:30
Kochi,Kerala,9.9312,76.2673,26.8,81,0.0,1008.8,8.75,33.5,105,45.1,44.6,7,0,4,1,2026-03-02T02:56:59.651480+05:30
Thiruvananthapuram,Kerala,8.5241,76.9366,27.1,81,0.0,1007.9,8.95,30.2,89,23.6,20.6,7,5,4,1,2026-03-02T02:56:59.651487+05:30
Kozhikode,Kerala,11.2588,75.7804,27.8,77,0.0,1007.8,8.8,30.6,56,19.2,14.5,7,5,4,1,2026-03-02T02:56:59.651494+05:30
Thrissur,Kerala,10.5276,76.2144,25.2,90,0.0,1007.1,8.9,36.7,104,43.5,42.4,7,5,4,1,2026-03-02T02:56:59.651501+05:30
Kannur,Kerala,11.8745,75.3704,26.8,78,0.0,1006.9,8.75,32.8,52,17.3,14.3,7,5,4,1,2026-03-02T02:56:59.651508+05:30
Patna,Bihar,25.5941,85.1376,19.0,72,0.0,1001.4,7.05,27.7,140,54.5,42.4,3,5,4,0,2026-03-02T02:56:59.651514+05:30
Gaya,Bihar,24.7914,85.0002,20.2,64,0.0,995.2,7.15,25.6,126,78.9,59.4,3,5,7,0,2026-03-02T02:56:59.651520+05:30
Muzaffarpur,Bihar,26.1209,85.3647,16.5,63,0.0,1001.3,7.0,26.3,130,49.9,40.0,3,5,4,0,2026-03-02T02:56:59.651549+05:30
Bhagalpur,Bihar,25.2425,87.0117,21.0,65,0.0,1001.9,7.1,22.7,129,98.3,60.5,3,5,4,0,2026-03-02T02:56:59.651558+05:30
Ranchi,Jharkhand,23.3441,85.3096,19.5,55,0.0,937.9,7.8,49.7,101,52.2,38.3,0,5,7,0,2026-03-02T02:56:59.651564+05:30
Jamshedpur,Jharkhand,22.8046,86.2029,23.0,70,0.0,991.2,7.75,34.2,156,85.4,77.8,3,5,7,1,2026-03-02T02:56:59.651570+05:30
Dhanbad,Jharkhand,23.7957,86.4304,23.7,44,0.0,980.4,7.6,37.1,153,92.0,65.2,0,5,7,0,2026-03-02T02:56:59.651577+05:30
Bokaro,Jharkhand,23.6693,86.1511,22.4,49,0.0,984.7,7.6,39.6,154,93.4,72.2,0,5,7,0,2026-03-02T02:56:59.651583+05:30
Bhubaneswar,Odisha,20.2961,85.8245,23.7,91,0.0,1002.4,8.05,29.2,121,45.5,44.0,3,5,4,1,2026-03-02T02:56:59.651589+05:30
Cuttack,Odisha,20.4625,85.8828,23.3,94,0.0,1004.3,8.1,20.9,121,45.5,44.0,3,5,4,1,2026-03-02T02:56:59.651595+05:30
Rourkela,Odisha,22.2604,84.8536,24.4,68,0.0,985.4,7.65,18.0,155,59.3,58.0,3,5,7,1,2026-03-02T02:56:59.651601+05:30
Raipur,Chhattisgarh,21.2514,81.6296,23.5,58,0.0,974.7,7.75,28.4,149,32.9,32.7,0,5,7,0,2026-03-02T02:56:59.651607+05:30
Bhilai,Chhattisgarh,21.1938,81.3509,23.0,60,0.0,975.0,7.8,26.3,131,26.3,25.9,0,5,7,0,2026-03-02T02:56:59.651614+05:30
Guwahati,Assam,26.1158,91.7086,20.0,87,0.0,1002.9,7.0,29.5,157,68.7,59.0,3,5,4,1,2026-03-02T02:56:59.651621+05:30
Agartala,Tripura,23.8315,91.2868,21.4,95,0.0,1006.4,7.4,20.9,102,28.5,26.6,3,5,4,1,2026-03-02T02:56:59.651629+05:30
Shillong,Meghalaya,25.5788,91.8933,10.8,85,0.0,853.3,7.35,58.0,125,50.5,39.2,3,10,7,0,2026-03-02T02:56:59.651635+05:30
Imphal,Manipur,24.817,93.9368,13.0,75,0.0,922.0,7.65,72.0,153,87.5,75.2,3,5,7,0,2026-03-02T02:56:59.651642+05:30
Aizawl,Mizoram,23.7271,92.7176,15.2,73,0.0,891.1,7.6,49.0,130,68.0,54.4,3,5,7,0,2026-03-02T02:56:59.651648+05:30
Kohima,Nagaland,25.6701,94.1077,11.8,66,0.0,852.5,7.45,81.0,153,75.7,62.6,3,5,7,0,2026-03-02T02:56:59.651654+05:30
Gangtok,Sikkim,27.3314,88.6138,9.8,78,0.0,833.5,5.25,17.3,122,53.4,41.7,3,5,3,0,2026-03-02T02:56:59.651660+05:30
Siliguri,West Bengal,26.7271,88.3953,16.5,71,0.0,994.5,7.0,20.2,171,115.9,95.9,3,5,7,0,2026-03-02T02:57:03.031011+05:30
Durgapur,West Bengal,23.5204,87.3119,24.0,51,0.0,995.3,7.55,31.3,145,73.1,51.1,0,5,7,0,2026-03-02T02:57:03.031041+05:30
Asansol,West Bengal,23.6739,86.9524,24.9,47,0.0,994.1,7.55,32.4,127,68.5,42.6,0,5,7,0,2026-03-02T02:57:03.031051+05:30
Pondicherry,Puducherry,11.9139,79.8145,22.3,91,0.0,1008.9,8.8,27.4,125,44.6,40.5,3,0,4,1,2026-03-02T02:57:03.031058+05:30
Port Blair,Andaman and Nicobar Islands,11.6234,92.7265,27.2,73,0.0,1006.3,8.8,17.6,70,27.7,23.7,7,5,4,1,2026-03-02T02:57:03.031067+05:30
Haridwar,Uttarakhand,29.9457,78.1642,13.7,80,0.0,975.0,5.55,43.6,99,45.6,44.0,3,5,3,0,2026-03-02T02:57:03.031074+05:30
Rishikesh,Uttarakhand,30.0869,78.2676,14.6,70,0.0,967.6,5.6,37.1,84,36.7,35.0,3,5,3,0,2026-03-02T02:57:03.031081+05:30
Nainital,Uttarakhand,29.3919,79.4542,14.0,48,0.0,803.3,6.4,50.8,82,30.6,26.8,0,5,7,0,2026-03-02T02:57:03.031088+05:30
Mussoorie,Uttarakhand,30.4599,78.0664,11.8,50,0.0,800.0,5.7,34.9,85,36.8,35.4,0,5,3,0,2026-03-02T02:57:03.031095+05:30
Dharamshala,Himachal Pradesh,32.219,76.3234,15.9,44,0.0,868.5,6.15,27.4,61,22.6,15.5,0,5,7,0,2026-03-02T02:57:03.031101+05:30
Dalhousie,Himachal Pradesh,32.5387,75.971,12.5,42,0.0,802.2,6.35,24.8,94,46.7,42.3,0,5,7,0,2026-03-02T02:57:03.031109+05:30
Patiala,Punjab,30.3398,76.3869,15.1,74,0.0,979.9,5.55,34.9,155,138.3,76.1,3,5,3,0,2026-03-02T02:57:03.031116+05:30
Bhatinda,Punjab,30.211,74.9455,18.5,66,0.0,985.7,6.2,27.4,157,122.5,96.2,3,5,7,0,2026-03-02T02:57:03.031123+05:30
Rohtak,Haryana,28.8955,76.6066,15.6,80,0.0,983.4,5.75,33.5,164,320.4,84.5,3,5,3,0,2026-03-02T02:57:03.031129+05:30
Panipat,Haryana,29.3909,76.9635,14.8,77,0.0,981.7,5.55,34.2,410,694.8,119.2,3,5,3,0,2026-03-02T02:57:03.031135+05:30
Mathura,Uttar Pradesh,27.4924,77.6737,17.8,58,0.0,988.6,6.0,29.5,210,350.2,74.5,0,5,3,0,2026-03-02T02:57:03.031142+05:30
Vrindavan,Uttar Pradesh,27.5823,77.7027,16.8,67,0.0,988.7,6.0,31.3,210,350.2,74.5,3,5,3,0,2026-03-02T02:57:03.031148+05:30
Ayodhya,Uttar Pradesh,26.7922,82.1998,15.6,63,0.0,996.3,6.4,36.7,107,131.8,45.4,3,5,7,0,2026-03-02T02:57:03.031154+05:30
Ratlam,Madhya Pradesh,23.3315,75.0367,21.4,58,0.0,955.2,7.25,8.3,85,61.5,56.1,0,5,7,0,2026-03-02T02:57:03.031160+05:30
Sagar,Madhya Pradesh,23.8388,78.7378,21.2,51,0.0,951.4,7.2,23.4,59,49.0,29.6,0,5,7,0,2026-03-02T02:57:03.031166+05:30
Satna,Madhya Pradesh,24.6005,80.8322,19.8,38,0.0,972.7,7.15,32.4,84,41.9,24.8,0,5,7,0,2026-03-02T02:57:03.031172+05:30
Akola,Maharashtra,20.7002,77.0082,22.6,62,0.0,975.7,7.75,23.0,68,32.1,31.2,3,5,7,0,2026-03-02T02:57:03.031179+05:30
Amravati,Maharashtra,20.9374,77.7796,21.4,59,0.0,967.5,7.7,22.3,65,32.7,31.8,0,5,7,0,2026-03-02T02:57:03.031187+05:30
Latur,Maharashtra,18.4088,76.5604,24.8,55,0.0,939.4,8.15,25.6,75,31.8,31.3,0,5,7,0,2026-03-02T02:57:03.031194+05:30
Nanded,Maharashtra,19.1383,77.3091,24.5,63,0.0,968.4,7.95,24.8,76,27.5,27.1,3,5,7,1,2026-03-02T02:57:03.031200+05:30
Gulbarga,Karnataka,17.3297,76.8343,26.0,64,0.0,958.1,8.25,17.3,103,44.1,43.8,7,5,7,1,2026-03-02T02:57:03.031206+05:30
Bidar,Karnataka,17.9104,77.5199,23.7,63,0.0,934.9,8.2,20.2,107,54.0,53.6,3,5,7,1,2026-03-02T02:57:03.031212+05:30
Hospet,Karnataka,15.2689,76.3909,24.6,67,0.0,955.6,8.6,22.3,101,50.2,49.5,3,5,7,1,2026-03-02T02:57:03.031217+05:30
Tirupur,Tamil Nadu,11.1085,77.3411,24.1,82,0.0,975.5,9.1,28.4,151,52.4,51.3,3,5,7,1,2026-03-02T02:57:03.031223+05:30
Alappuzha,Kerala,9.4981,76.3388,26.6,84,0.0,1009.0,8.9,30.2,93,37.4,35.9,7,0,4,1,2026-03-02T02:57:03.031229+05:30
Munnar,Kerala,10.0889,77.0595,17.1,91,0.0,854.9,9.4,30.6,132,45.6,44.6,3,10,7,0,2026-03-02T02:57:03.031236+05:30
Silchar,Assam,24.8333,92.7789,19.0,86,0.0,1006.2,7.35,30.6,156,77.3,62.4,3,10,4,1,2026-03-02T02:57:03.031243+05:30
Dibrugarh,Assam,27.4728,94.912,19.3,83,0.0,997.5,7.05,10.4,157,63.3,56.7,3,10,7,1,2026-03-02T02:57:03.031249+05:30
