city,state,latitude,longitude,temp,humidity,rain,pressure,uv_index,wind_gusts,aqi,pm10,pm2_5,no2,co,o3,so2,mosquito_risk,arthritis_risk,migraine_risk,frizz_risk,updated_at
Delhi,Delhi,28.6139,77.209,36.2,35,0.0,978.6,7.8,38.2,528,340.9,68.7,3.9,220.0,134.0,8.7,0,5,10,1,2026-06-16T15:40:16.024881+05:30
Mumbai,Maharashtra,19.076,72.8777,32.9,57,0.0,1006.8,7.7,45.0,62,35.2,18.1,5.8,152.0,93.0,7.0,0,5,4,1,2026-06-16T15:40:16.024943+05:30
Bangalore,Karnataka,12.9716,77.5946,30.6,44,0.0,910.5,8.65,33.8,72,43.0,21.0,4.2,217.0,108.0,2.9,0,5,7,1,2026-06-16T15:40:16.024959+05:30
Hyderabad,Telangana,17.385,78.4867,35.7,31,0.0,950.8,9.05,39.2,115,48.7,23.7,2.5,197.0,125.0,4.8,0,5,10,0,2026-06-16T15:40:16.024970+05:30
Chennai,Tamil Nadu,13.0827,80.2707,35.0,51,0.0,1002.6,8.05,34.2,94,49.9,33.8,4.4,291.0,186.0,6.7,0,5,4,1,2026-06-16T15:40:16.024978+05:30
Kolkata,West Bengal,22.5726,88.3639,34.8,56,0.0,1000.4,9.0,31.7,133,51.3,37.7,5.0,468.0,141.0,8.7,0,5,4,1,2026-06-16T15:40:16.024987+05:30
Pune,Maharashtra,18.5204,73.8567,33.2,35,0.0,946.9,8.3,46.1,54,37.1,17.8,2.1,136.0,104.0,4.2,0,5,7,0,2026-06-16T15:40:16.024994+05:30
Ahmedabad,Gujarat,23.0225,72.5714,38.0,33,0.0,998.1,8.05,46.1,65,55.2,19.8,1.7,131.0,85.0,2.9,0,5,10,1,2026-06-16T15:40:16.025001+05:30
Jaipur,Rajasthan,26.9124,75.7873,37.0,31,0.0,956.1,8.2,27.7,117,118.7,34.0,0.4,178.0,99.0,2.5,0,5,10,1,2026-06-16T15:40:16.025013+05:30
Lucknow,Uttar Pradesh,26.8467,80.9462,38.6,30,0.0,988.8,8.35,34.9,163,323.2,78.2,1.5,197.0,134.0,5.9,0,5,10,1,2026-06-16T15:40:16.025020+05:30
Kanpur,Uttar Pradesh,26.4499,80.3319,39.8,23,0.0,987.0,8.3,38.9,173,504.8,98.3,1.4,162.0,137.0,5.7,0,5,10,0,2026-06-16T15:40:16.025027+05:30
Chandigarh,Chandigarh,30.7333,76.7794,35.2,36,0.0,964.7,7.8,24.8,136,68.2,34.6,1.4,233.0,175.0,7.0,0,5,10,1,2026-06-16T15:40:16.025034+05:30
Srinagar,Jammu and Kashmir,34.0837,74.7973,25.3,47,0.0,842.5,6.8,31.0,82,36.4,17.7,1.0,296.0,147.0,2.1,4,5,7,0,2026-06-16T15:40:16.025041+05:30
Jammu,Jammu and Kashmir,32.7266,74.857,33.7,39,0.0,969.8,8.15,31.0,110,63.1,36.9,1.4,241.0,165.0,3.6,0,5,7,1,2026-06-16T15:40:16.025048+05:30
Amritsar,Punjab,31.634,74.8723,34.1,46,0.0,976.9,7.55,35.3,123,104.1,47.4,0.5,265.0,169.0,6.6,0,5,7,1,2026-06-16T15:40:16.025055+05:30
Ludhiana,Punjab,30.901,75.8573,35.1,39,0.0,974.5,8.05,28.1,162,139.2,52.2,0.2,210.0,161.0,4.3,0,5,10,1,2026-06-16T15:40:16.025062+05:30
Jalandhar,Punjab,31.326,75.5762,35.2,38,0.1,975.6,8.15,26.3,152,113.2,47.7,0.3,232.0,168.0,4.4,3,5,10,1,2026-06-16T15:40:16.025069+05:30
Dehradun,Uttarakhand,30.6284,78.0322,25.7,44,0.0,831.3,7.7,29.5,89,24.0,13.7,0.5,180.0,143.0,2.3,4,5,7,0,2026-06-16T15:40:16.025076+05:30
Shimla,Himachal Pradesh,31.1048,77.1734,23.1,40,0.0,786.5,7.7,33.1,113,31.0,24.4,1.9,204.0,168.0,6.9,0,5,7,0,2026-06-16T15:40:16.025086+05:30
Manali,Himachal Pradesh,32.2396,77.1887,22.8,52,0.1,819.9,9.45,34.6,79,21.8,14.7,3.5,134.0,153.0,0.4,3,5,7,0,2026-06-16T15:40:16.025092+05:30
Gurgaon,Haryana,28.4595,77.0266,36.3,32,0.0,977.1,7.85,50.4,621,672.4,104.5,4.6,159.0,136.0,8.2,0,5,10,1,2026-06-16T15:40:16.025100+05:30
Noida,Uttar Pradesh,28.5355,77.391,36.1,37,0.0,980.0,7.85,33.1,621,672.4,104.5,4.6,223.0,136.0,8.2,0,5,10,1,2026-06-16T15:40:16.025107+05:30
Ghaziabad,Uttar Pradesh,28.6692,77.4538,35.4,42,0.0,978.3,7.8,30.6,472,284.1,72.6,3.8,210.0,177.0,15.0,0,5,10,1,2026-06-16T15:40:16.025112+05:30
Faridabad,Haryana,28.4089,77.3178,36.9,32,0.0,979.3,7.85,42.1,621,672.4,104.5,4.6,181.0,136.0,8.2,0,5,10,1,2026-06-16T15:40:16.025118+05:30
Meerut,Uttar Pradesh,28.9845,77.7064,35.4,44,0.0,977.0,7.7,28.1,472,284.1,72.6,3.8,158.0,177.0,15.0,0,5,10,1,2026-06-16T15:40:16.025124+05:30
Agra,Uttar Pradesh,27.1767,78.0081,38.7,28,0.0,983.2,8.15,36.4,853,472.2,78.5,0.5,166.0,133.0,4.0,0,5,10,1,2026-06-16T15:40:16.025130+05:30
Varanasi,Uttar Pradesh,25.3176,82.9739,40.7,24,0.0,991.6,8.8,48.2,152,123.9,43.7,1.8,206.0,148.0,7.0,0,5,10,1,2026-06-16T15:40:16.025137+05:30
Prayagraj,Uttar Pradesh,25.4358,81.8463,39.8,24,0.0,990.8,8.75,42.5,153,278.5,71.9,1.7,208.0,155.0,9.1,0,5,10,0,2026-06-16T15:40:16.025143+05:30
Gorakhpur,Uttar Pradesh,26.7606,83.3732,37.4,37,0.0,991.5,8.7,29.2,166,209.1,68.2,3.2,264.0,167.0,8.6,0,5,10,1,2026-06-16T15:40:16.025153+05:30
Bareilly,Uttar Pradesh,28.367,79.4304,36.0,43,0.0,982.0,8.15,34.6,157,141.6,56.1,1.7,249.0,161.0,9.7,0,5,10,1,2026-06-16T15:40:16.025160+05:30
Aligarh,Uttar Pradesh,27.8974,78.088,36.2,36,0.0,981.3,8.0,38.5,518,523.4,85.4,1.6,156.0,133.0,6.8,0,5,10,1,2026-06-16T15:40:16.025166+05:30
Moradabad,Uttar Pradesh,28.8386,78.7733,35.8,39,0.0,979.1,7.95,32.4,173,217.0,75.0,2.7,226.0,161.0,10.5,0,5,10,1,2026-06-16T15:40:16.025172+05:30
Saharanpur,Uttar Pradesh,29.9637,77.546,34.5,42,0.0,971.3,7.55,20.9,162,157.4,58.7,2.7,177.0,163.0,15.5,0,5,7,1,2026-06-16T15:40:16.025178+05:30
Jhansi,Uttar Pradesh,25.4484,78.5685,39.1,27,0.0,973.9,8.45,21.2,82,90.1,30.6,0.7,130.0,116.0,5.7,0,5,10,1,2026-06-16T15:40:19.252252+05:30
Surat,Gujarat,21.1702,72.8311,34.2,53,0.0,1004.2,7.55,51.5,70,48.0,21.4,9.7,226.0,55.0,31.6,0,5,4,1,2026-06-16T15:40:19.252286+05:30
Vadodara,Gujarat,22.3072,73.1812,38.2,31,0.0,1000.6,8.0,54.4,66,65.2,21.6,1.5,135.0,95.0,2.6,0,5,7,1,2026-06-16T15:40:19.252297+05:30
Rajkot,Gujarat,22.3039,70.8022,37.9,35,0.0,990.4,7.55,46.1,58,65.0,23.1,1.2,107.0,81.0,3.1,0,5,10,1,2026-06-16T15:40:19.252306+05:30
Thane,Maharashtra,19.2183,72.9781,34.2,50,0.0,1006.0,7.7,40.0,62,35.2,18.1,5.8,142.0,93.0,7.0,0,5,4,1,2026-06-16T15:40:19.252314+05:30
Nagpur,Maharashtra,21.1458,79.0882,37.3,30,0.0,969.5,8.7,52.9,108,67.8,32.6,4.8,169.0,136.0,17.1,0,5,10,1,2026-06-16T15:40:19.252321+05:30
Nashik,Maharashtra,19.9975,73.7898,33.1,34,0.0,944.4,8.05,45.0,54,39.3,15.7,1.0,115.0,82.0,1.0,0,5,7,0,2026-06-16T15:40:19.252328+05:30
Aurangabad,Maharashtra,19.8762,75.3433,36.2,20,0.0,942.2,8.95,43.9,57,52.2,20.2,1.0,123.0,104.0,2.0,0,5,10,0,2026-06-16T15:40:19.252336+05:30
Solapur,Maharashtra,17.6599,75.9064,37.6,19,0.0,954.7,8.9,43.2,60,51.7,20.0,0.4,116.0,114.0,2.1,0,5,10,0,2026-06-16T15:40:19.252344+05:30
Kolhapur,Maharashtra,16.705,74.2433,32.8,37,0.0,946.9,8.75,44.3,54,33.2,14.2,1.8,127.0,93.0,1.6,0,5,7,1,2026-06-16T15:40:19.252351+05:30
Goa,Goa,15.2993,74.124,31.9,66,0.0,996.6,8.4,31.7,56,29.3,13.6,0.7,106.0,62.0,1.2,3,5,7,1,2026-06-16T15:40:19.252359+05:30
Jodhpur,Rajasthan,26.2389,73.0243,38.2,32,0.0,978.4,8.45,37.8,132,147.1,32.0,0.6,110.0,88.0,1.4,0,5,10,1,2026-06-16T15:40:19.252366+05:30
Udaipur,Rajasthan,24.5854,73.7125,33.9,39,0.0,944.2,8.8,36.4,68,64.5,23.2,0.6,113.0,90.0,2.6,0,5,7,1,2026-06-16T15:40:19.252373+05:30
Kota,Rajasthan,25.2138,75.8648,38.0,37,0.0,974.8,8.35,32.0,84,66.6,28.5,0.6,150.0,111.0,4.7,0,5,10,1,2026-06-16T15:40:19.252381+05:30
Bikaner,Rajasthan,28.0229,73.3119,39.5,29,0.0,976.9,8.5,47.5,141,190.0,46.6,0.2,113.0,86.0,2.3,0,5,10,1,2026-06-16T15:40:19.252388+05:30
Ajmer,Rajasthan,26.4499,74.6399,35.6,34,0.0,951.3,8.35,39.2,83,68.0,24.7,0.5,125.0,95.0,2.0,0,5,10,1,2026-06-16T15:40:19.252395+05:30
Gwalior,Madhya Pradesh,26.2183,78.1828,39.4,24,0.0,978.8,8.3,27.0,150,77.5,27.4,0.3,154.0,106.0,3.1,0,5,10,0,2026-06-16T15:40:19.252404+05:30
Indore,Madhya Pradesh,22.7196,75.8577,35.9,33,0.0,945.6,8.6,40.7,84,105.5,46.1,1.3,166.0,101.0,3.0,0,5,10,1,2026-06-16T15:40:19.252411+05:30
Bhopal,Madhya Pradesh,23.2599,77.4126,35.0,39,0.0,950.9,8.55,32.0,88,65.9,31.5,0.5,156.0,103.0,3.4,0,5,7,1,2026-06-16T15:40:19.252419+05:30
Jabalpur,Madhya Pradesh,23.1815,79.9864,35.5,36,0.1,957.9,8.85,27.4,87,62.6,27.5,0.9,150.0,117.0,2.4,3,5,10,1,2026-06-16T15:40:19.252426+05:30
Ujjain,Madhya Pradesh,23.1765,75.7885,36.4,34,0.0,951.2,8.55,40.0,80,54.8,24.1,0.7,139.0,99.0,3.6,0,5,10,1,2026-06-16T15:40:19.252435+05:30
Visakhapatnam,Andhra Pradesh,17.6868,83.2185,35.9,50,0.0,998.1,8.95,30.6,159,78.0,54.7,17.6,1063.0,174.0,54.2,0,5,10,1,2026-06-16T15:40:19.252442+05:30
Vijayawada,Andhra Pradesh,16.5062,80.648,37.5,38,0.0,997.3,8.9,29.9,155,102.0,47.6,2.0,195.0,127.0,6.0,0,5,10,1,2026-06-16T15:40:19.252448+05:30
Guntur,Andhra Pradesh,16.3067,80.4365,37.5,38,0.0,998.4,8.6,35.3,159,107.8,50.9,1.7,191.0,135.0,6.5,0,5,10,1,2026-06-16T15:40:19.252455+05:30
Nellore,Andhra Pradesh,14.4426,79.9865,38.5,35,0.0,1000.8,8.25,41.0,98,53.6,32.4,3.7,162.0,143.0,7.0,0,5,7,1,2026-06-16T15:40:19.252463+05:30
Kurnool,Andhra Pradesh,15.8281,78.0373,36.3,36,0.0,973.7,5.1,42.8,82,41.9,22.6,0.6,127.0,127.0,6.9,0,5,6,1,2026-06-16T15:40:19.252470+05:30
Kakinada,Andhra Pradesh,16.9891,82.2475,36.4,46,0.0,1002.1,8.8,36.4,129,64.5,37.4,2.8,213.0,135.0,4.7,0,5,7,1,2026-06-16T15:40:19.252477+05:30
Tirupati,Andhra Pradesh,13.6288,79.4192,37.9,32,0.0,986.6,8.75,29.9,102,52.4,25.0,2.5,167.0,121.0,5.5,0,5,10,1,2026-06-16T15:40:19.252484+05:30
Warangal,Telangana,17.9689,79.5941,36.0,40,0.0,974.9,7.8,41.8,158,85.7,44.0,1.7,161.0,147.0,12.0,0,5,10,1,2026-06-16T15:40:19.252490+05:30
Nizamabad,Telangana,18.6725,78.0941,36.9,31,0.0,961.8,8.95,36.0,95,62.2,24.9,0.6,133.0,107.0,2.5,0,5,10,1,2026-06-16T15:40:19.252497+05:30
Mysore,Karnataka,12.2958,76.6396,31.7,46,0.0,926.9,8.5,34.2,60,41.3,17.9,2.2,162.0,107.0,1.7,0,5,7,1,2026-06-16T15:40:19.252503+05:30
Mangalore,Karnataka,12.9141,74.856,30.7,70,0.0,1005.1,8.5,43.9,60,32.1,14.5,0.9,100.0,61.0,1.2,3,5,4,1,2026-06-16T15:40:19.252510+05:30
Hubli-Dharwad,Karnataka,15.3647,75.124,31.1,51,0.1,939.2,8.9,45.0,44,27.9,12.2,1.7,128.0,93.0,1.1,3,5,7,1,2026-06-16T15:40:19.252517+05:30
Belgaum,Karnataka,15.8497,74.4977,28.9,58,0.1,925.0,8.9,42.8,50,21.7,10.7,1.8,123.0,77.0,1.3,7,5,7,1,2026-06-16T15:40:22.478464+05:30
Coimbatore,Tamil Nadu,11.0168,76.9558,32.8,48,0.1,959.2,8.0,39.2,63,31.4,16.1,2.5,187.0,104.0,2.7,3,5,7,1,2026-06-16T15:40:22.478499+05:30
Madurai,Tamil Nadu,9.9252,78.1198,38.4,28,0.0,989.0,8.45,37.8,80,53.3,21.3,2.3,174.0,121.0,2.1,0,5,10,1,2026-06-16T15:40:22.478511+05:30
Trichy,Tamil Nadu,10.7905,78.7047,38.0,30,0.0,995.6,8.05,41.0,78,52.0,24.2,2.6,166.0,125.0,3.5,0,5,10,1,2026-06-16T15:40:22.478520+05:30
Salem,Tamil Nadu,11.6643,78.146,35.7,33,0.0,974.1,7.35,29.9,80,51.7,23.2,2.7,148.0,132.0,6.3,0,5,10,1,2026-06-16T15:40:22.478528+05:30
Tirunelveli,Tamil Nadu,8.7139,77.7567,36.2,40,0.1,999.1,8.65,38.9,53,26.7,11.9,1.9,154.0,92.0,1.2,3,5,10,1,2026-06-16T15:40:22.478537+05:30
Vellore,Tamil Nadu,12.9165,79.1325,33.7,52,0.1,980.6,8.75,38.9,112,54.1,24.6,2.6,180.0,110.0,3.5,3,5,7,1,2026-06-16T15:40:22.478544+05:30
Erode,Tamil Nadu,11.341,77.7172,36.7,32,0.0,985.4,7.6,32.0,70,43.5,20.3,3.7,175.0,122.0,2.1,0,5,10,1,2026-06-16T15:40:22.478552+05:30
Kochi,Kerala,9.9312,76.2673,29.5,79,0.0,1006.8,7.85,31.7,59,22.4,12.7,3.0,127.0,79.0,2.7,7,5,4,1,2026-06-16T15:40:22.478559+05:30
Thiruvananthapuram,Kerala,8.5241,76.9366,28.6,81,0.0,1006.1,7.35,41.4,56,19.0,10.4,1.9,111.0,78.0,1.1,7,5,4,1,2026-06-16T15:40:22.478567+05:30
Kozhikode,Kerala,11.2588,75.7804,30.6,73,0.0,1005.7,7.5,49.0,54,34.8,15.2,0.5,110.0,67.0,0.9,3,5,4,1,2026-06-16T15:40:22.478574+05:30
Thrissur,Kerala,10.5276,76.2144,30.5,72,0.0,1004.7,6.35,39.6,63,22.6,13.0,2.3,114.0,75.0,2.1,3,5,4,1,2026-06-16T15:40:22.478582+05:30
Kannur,Kerala,11.8745,75.3704,30.9,69,0.1,1005.1,8.6,47.5,56,33.9,16.0,0.9,104.0,68.0,1.2,6,5,4,1,2026-06-16T15:40:22.478590+05:30
Patna,Bihar,25.5941,85.1376,37.5,40,0.0,994.5,8.85,25.9,182,149.9,60.1,5.3,290.0,176.0,9.6,0,5,10,1,2026-06-16T15:40:22.478597+05:30
Gaya,Bihar,24.7914,85.0002,38.4,34,0.0,988.0,8.95,23.0,151,153.2,54.4,2.9,254.0,147.0,6.0,0,5,10,1,2026-06-16T15:40:22.478604+05:30
Muzaffarpur,Bihar,26.1209,85.3647,35.7,49,0.0,994.5,8.85,26.3,184,134.6,60.5,5.9,348.0,191.0,13.8,0,5,10,1,2026-06-16T15:40:22.478611+05:30
Bhagalpur,Bihar,25.2425,87.0117,37.0,45,0.0,994.6,8.85,26.3,185,124.3,59.3,3.9,283.0,201.0,18.6,0,5,10,1,2026-06-16T15:40:22.478618+05:30
Ranchi,Jharkhand,23.3441,85.3096,33.3,39,0.0,934.2,9.25,23.4,130,100.1,37.8,2.0,226.0,144.0,6.7,0,5,7,1,2026-06-16T15:40:22.478625+05:30
Jamshedpur,Jharkhand,22.8046,86.2029,38.1,30,0.0,985.0,9.1,22.3,184,104.5,55.2,4.6,264.0,200.0,22.9,0,5,10,1,2026-06-16T15:40:22.478632+05:30
Dhanbad,Jharkhand,23.7957,86.4304,38.3,30,0.0,974.3,9.05,27.4,168,129.9,60.3,10.0,213.0,206.0,50.9,0,5,10,1,2026-06-16T15:40:22.478640+05:30
Bokaro,Jharkhand,23.6693,86.1511,37.4,31,0.0,978.2,9.1,27.7,164,125.7,53.4,10.7,248.0,187.0,52.8,0,5,10,1,2026-06-16T15:40:22.478646+05:30
Bhubaneswar,Odisha,20.2961,85.8245,32.6,80,0.3,997.3,9.05,30.2,115,47.0,33.9,3.6,304.0,133.0,7.4,6,5,7,1,2026-06-16T15:40:22.478653+05:30
Cuttack,Odisha,20.4625,85.8828,30.9,81,0.2,999.6,9.1,45.4,115,47.0,33.9,3.6,286.0,133.0,7.4,6,5,7,1,2026-06-16T15:40:22.478659+05:30
Rourkela,Odisha,22.2604,84.8536,38.8,29,0.0,979.2,9.05,32.8,152,87.8,50.3,1.3,269.0,176.0,18.5,0,5,10,1,2026-06-16T15:40:22.478666+05:30
Raipur,Chhattisgarh,21.2514,81.6296,39.8,26,0.0,969.5,8.95,42.5,151,88.2,52.6,10.2,205.0,177.0,44.3,0,5,10,1,2026-06-16T15:40:22.478672+05:30
Bhilai,Chhattisgarh,21.1938,81.3509,39.2,27,0.0,969.9,8.95,50.4,155,90.3,52.5,17.6,487.0,149.0,59.2,0,5,10,1,2026-06-16T15:40:22.478679+05:30
Guwahati,Assam,26.1158,91.7086,30.9,74,0.0,995.7,8.35,25.6,90,32.6,26.7,2.3,292.0,120.0,4.0,3,5,7,1,2026-06-16T15:40:22.478686+05:30
Agartala,Tripura,23.8315,91.2868,31.3,72,0.0,1000.7,8.85,29.9,99,44.6,32.9,7.0,199.0,150.0,6.8,3,5,4,1,2026-06-16T15:40:22.478693+05:30
Shillong,Meghalaya,25.5788,91.8933,22.6,90,0.0,854.9,8.1,22.3,87,29.3,22.3,2.4,259.0,120.0,3.2,3,5,7,1,2026-06-16T15:40:22.478699+05:30
Imphal,Manipur,24.817,93.9368,26.9,79,0.1,919.1,8.15,29.9,74,22.1,17.4,3.0,205.0,102.0,2.2,10,5,7,1,2026-06-16T15:40:22.478707+05:30
Aizawl,Mizoram,23.7271,92.7176,21.5,93,0.1,888.9,7.45,24.8,53,15.0,10.8,2.2,164.0,79.0,1.0,6,5,7,1,2026-06-16T15:40:22.478714+05:30
Kohima,Nagaland,25.6701,94.1077,22.2,100,0.0,852.7,7.95,24.1,59,24.6,19.3,1.9,202.0,106.0,1.7,3,5,7,1,2026-06-16T15:40:22.478721+05:30
Gangtok,Sikkim,27.3314,88.6138,22.1,85,0.1,836.1,8.35,39.2,106,15.0,12.8,2.3,320.0,137.0,2.0,6,5,7,1,2026-06-16T15:40:22.478727+05:30
Siliguri,West Bengal,26.7271,88.3953,32.1,66,0.0,987.3,8.35,21.2,142,45.4,35.7,2.8,504.0,163.0,5.9,3,5,7,1,2026-06-16T15:40:25.708469+05:30
Durgapur,West Bengal,23.5204,87.3119,33.5,57,0.0,989.1,9.0,34.6,194,129.0,91.5,12.5,547.0,247.0,53.5,0,5,7,1,2026-06-16T15:40:25.708504+05:30
Asansol,West Bengal,23.6739,86.9524,36.9,41,0.0,987.5,9.05,33.1,188,129.9,74.7,9.7,394.0,231.0,39.8,0,5,10,1,2026-06-16T15:40:25.708515+05:30
Pondicherry,Puducherry,11.9139,79.8145,33.8,64,0.0,1003.9,7.95,34.2,86,52.2,35.0,9.6,228.0,174.0,8.6,3,5,4,1,2026-06-16T15:40:25.708524+05:30
Port Blair,Andaman and Nicobar Islands,11.6234,92.7265,29.7,73,0.0,1006.0,8.55,42.8,30,7.8,4.7,0.4,96.0,38.0,0.5,7,5,4,1,2026-06-16T15:40:25.708532+05:30
Haridwar,Uttarakhand,29.9457,78.1642,35.4,37,0.0,969.4,7.6,22.3,141,113.6,47.1,1.0,242.0,162.0,10.0,0,5,10,1,2026-06-16T15:40:25.708539+05:30
Rishikesh,Uttarakhand,30.0869,78.2676,35.1,32,0.0,962.3,7.7,23.0,123,77.8,33.1,0.6,233.0,157.0,5.6,0,5,10,0,2026-06-16T15:40:25.708547+05:30
Nainital,Uttarakhand,29.3919,79.4542,23.6,51,0.0,807.3,8.1,27.4,137,58.4,26.8,1.1,199.0,164.0,7.2,0,5,7,0,2026-06-16T15:40:25.708554+05:30
Mussoorie,Uttarakhand,30.4599,78.0664,23.8,44,0.1,804.6,7.4,32.8,120,54.6,26.7,0.8,204.0,158.0,5.9,3,5,7,0,2026-06-16T15:40:25.708562+05:30
Dharamshala,Himachal Pradesh,32.219,76.3234,25.7,48,0.0,868.7,8.55,47.5,87,13.9,9.7,0.3,170.0,140.0,0.7,4,5,7,0,2026-06-16T15:40:25.708569+05:30
Dalhousie,Himachal Pradesh,32.5387,75.971,17.6,84,0.1,804.0,8.7,29.5,112,36.1,22.4,0.7,177.0,162.0,1.3,6,10,7,0,2026-06-16T15:40:25.708577+05:30
Patiala,Punjab,30.3398,76.3869,34.1,44,0.1,974.0,7.65,33.8,167,381.8,76.1,1.1,149.0,146.0,4.9,3,5,7,1,2026-06-16T15:40:25.708584+05:30
Bhatinda,Punjab,30.211,74.9455,38.0,32,0.0,979.0,8.3,29.5,151,255.2,66.6,1.9,147.0,147.0,11.9,0,5,10,1,2026-06-16T15:40:25.708592+05:30
Rohtak,Haryana,28.8955,76.6066,36.2,37,0.0,977.5,7.8,42.5,537,384.6,70.8,0.3,156.0,114.0,3.4,0,5,10,1,2026-06-16T15:40:25.708599+05:30
Panipat,Haryana,29.3909,76.9635,35.4,42,0.0,976.0,7.65,22.7,793,920.1,125.3,2.2,147.0,128.0,11.2,0,5,10,1,2026-06-16T15:40:25.708605+05:30
Mathura,Uttar Pradesh,27.4924,77.6737,36.3,39,0.0,982.5,8.1,48.2,606,355.8,64.3,0.6,157.0,122.0,3.0,0,5,10,1,2026-06-16T15:40:25.708612+05:30
Vrindavan,Uttar Pradesh,27.5823,77.7027,36.3,39,0.0,983.0,8.1,49.3,606,355.8,64.3,0.6,152.0,122.0,3.0,0,5,10,1,2026-06-16T15:40:25.708620+05:30
Ayodhya,Uttar Pradesh,26.7922,82.1998,37.2,40,0.0,989.9,8.45,25.9,159,200.7,60.8,2.1,219.0,142.0,8.2,0,5,10,1,2026-06-16T15:40:25.708627+05:30
Ratlam,Madhya Pradesh,23.3315,75.0367,35.7,35,0.0,952.4,8.5,39.2,76,48.3,21.9,0.5,115.0,95.0,3.2,0,5,10,1,2026-06-16T15:40:25.708634+05:30
Sagar,Madhya Pradesh,23.8388,78.7378,35.5,34,0.0,947.2,8.15,36.7,81,78.0,30.3,0.6,151.0,112.0,2.2,0,5,10,1,2026-06-16T15:40:25.708641+05:30
Satna,Madhya Pradesh,24.6005,80.8322,38.2,30,0.0,967.4,8.8,34.6,89,194.2,46.7,0.4,134.0,121.0,3.0,0,5,10,1,2026-06-16T15:40:25.708647+05:30
Akola,Maharashtra,20.7002,77.0082,39.0,27,0.0,971.6,8.8,47.9,77,66.8,26.4,1.2,122.0,106.0,5.0,0,5,10,1,2026-06-16T15:40:25.708655+05:30
Amravati,Maharashtra,20.9374,77.7796,33.1,47,0.1,964.5,8.85,40.7,92,68.2,27.8,1.6,132.0,108.0,5.6,3,5,7,1,2026-06-16T15:40:25.708663+05:30
Latur,Maharashtra,18.4088,76.5604,35.9,22,0.0,937.9,8.9,36.4,64,54.7,21.3,0.4,122.0,106.0,2.4,0,5,10,0,2026-06-16T15:40:25.708671+05:30
Nanded,Maharashtra,19.1383,77.3091,37.9,27,0.0,965.5,8.85,36.0,71,60.5,23.7,0.6,131.0,107.0,2.4,0,5,10,0,2026-06-16T15:40:25.708678+05:30
Gulbarga,Karnataka,17.3297,76.8343,36.8,24,0.0,955.8,8.9,40.3,70,50.6,20.3,0.7,135.0,116.0,2.6,0,5,10,0,2026-06-16T15:40:25.708685+05:30
Bidar,Karnataka,17.9104,77.5199,34.9,30,0.0,933.4,8.95,35.6,86,51.1,22.2,0.7,130.0,113.0,3.2,0,5,7,0,2026-06-16T15:40:25.708693+05:30
Hospet,Karnataka,15.2689,76.3909,34.5,32,0.0,953.6,8.85,38.9,58,40.6,18.8,1.4,167.0,114.0,3.1,0,5,7,0,2026-06-16T15:40:25.708700+05:30
Tirupur,Tamil Nadu,11.1085,77.3411,37.8,29,0.0,972.0,8.15,43.9,72,35.7,17.8,2.9,175.0,118.0,3.0,0,5,10,1,2026-06-16T15:40:25.708707+05:30
Alappuzha,Kerala,9.4981,76.3388,29.3,77,0.0,1006.9,7.75,33.5,59,23.9,13.1,2.8,99.0,81.0,2.5,7,5,4,1,2026-06-16T15:40:25.708714+05:30
Munnar,Kerala,10.0889,77.0595,21.4,81,0.1,856.4,9.05,30.6,48,24.0,11.6,1.8,122.0,83.0,1.4,6,5,7,1,2026-06-16T15:40:25.708721+05:30
Silchar,Assam,24.8333,92.7789,32.4,69,0.1,998.8,8.95,22.0,113,21.6,17.5,2.3,212.0,126.0,4.2,6,5,7,1,2026-06-16T15:40:25.708728+05:30
Dibrugarh,Assam,27.4728,94.912,30.2,81,0.1,988.8,7.75,28.1,88,18.2,15.9,2.3,300.0,124.0,1.6,6,5,7,1,2026-06-16T15:40:25.708735+05:30
