city,state,latitude,longitude,temp,humidity,rain,pressure,uv_index,wind_gusts,aqi,pm10,pm2_5,mosquito_risk,arthritis_risk,migraine_risk,frizz_risk,updated_at
Delhi,Delhi,28.6139,77.209,37.5,27,0.0,983.3,6.7,19.1,153,203.0,46.2,0,5,10,0,2026-04-18T12:43:36.563337+05:30
Mumbai,Maharashtra,19.076,72.8777,29.8,79,0.0,1008.2,7.0,24.1,95,90.6,45.6,7,0,4,1,2026-04-18T12:43:36.563388+05:30
Bangalore,Karnataka,12.9716,77.5946,33.5,39,0.0,913.3,8.8,34.6,99,38.4,30.4,0,5,7,1,2026-04-18T12:43:36.563401+05:30
Hyderabad,Telangana,17.385,78.4867,39.0,22,0.0,954.0,9.3,47.2,92,37.6,30.6,0,5,10,0,2026-04-18T12:43:36.563410+05:30
Chennai,Tamil Nadu,13.0827,80.2707,35.3,51,0.0,1007.2,8.7,31.7,44,15.1,9.5,0,5,7,1,2026-04-18T12:43:36.563417+05:30
Kolkata,West Bengal,22.5726,88.3639,34.2,60,0.0,1005.2,8.85,26.3,67,42.1,31.3,0,5,4,1,2026-04-18T12:43:36.563427+05:30
Pune,Maharashtra,18.5204,73.8567,38.8,19,0.0,949.3,8.45,30.2,90,32.9,24.5,0,5,10,0,2026-04-18T12:43:36.563434+05:30
Ahmedabad,Gujarat,23.0225,72.5714,38.8,22,0.0,1002.6,8.15,26.6,62,44.9,15.0,0,5,7,0,2026-04-18T12:43:36.563441+05:30
Jaipur,Rajasthan,26.9124,75.7873,39.3,17,0.0,960.9,7.95,30.2,186,230.5,35.0,0,5,10,0,2026-04-18T12:43:36.563448+05:30
Lucknow,Uttar Pradesh,26.8467,80.9462,39.1,23,0.0,993.0,7.85,31.3,122,101.0,25.8,0,5,10,0,2026-04-18T12:43:36.563454+05:30
Kanpur,Uttar Pradesh,26.4499,80.3319,38.4,29,0.0,991.5,7.85,25.2,111,186.3,35.2,0,5,10,1,2026-04-18T12:43:36.563460+05:30
Chandigarh,Chandigarh,30.7333,76.7794,35.8,29,0.0,970.1,7.1,21.2,58,53.0,14.4,0,5,10,0,2026-04-18T12:43:36.563466+05:30
Srinagar,Jammu and Kashmir,34.0837,74.7973,15.7,78,0.0,846.8,5.85,28.8,75,33.6,11.6,3,5,3,0,2026-04-18T12:43:36.563472+05:30
Jammu,Jammu and Kashmir,32.7266,74.857,30.5,37,0.0,976.6,6.7,37.8,58,48.8,13.4,0,5,7,0,2026-04-18T12:43:36.563477+05:30
Amritsar,Punjab,31.634,74.8723,34.6,29,0.0,983.2,7.65,42.5,60,58.2,15.3,0,5,7,0,2026-04-18T12:43:36.563483+05:30
Ludhiana,Punjab,30.901,75.8573,37.2,20,0.0,979.9,7.55,28.1,65,52.5,15.3,0,5,10,0,2026-04-18T12:43:36.563490+05:30
Jalandhar,Punjab,31.326,75.5762,36.7,21,0.0,981.4,7.65,42.1,59,58.9,15.7,0,5,10,0,2026-04-18T12:43:36.563495+05:30
Dehradun,Uttarakhand,30.6284,78.0322,27.7,24,0.0,835.7,7.7,42.1,40,23.6,6.3,4,5,7,0,2026-04-18T12:43:36.563501+05:30
Shimla,Himachal Pradesh,31.1048,77.1734,26.0,22,0.0,792.0,7.75,44.6,42,26.4,7.2,4,5,7,0,2026-04-18T12:43:36.563506+05:30
Manali,Himachal Pradesh,32.2396,77.1887,23.1,34,0.0,827.6,8.9,25.2,58,39.7,8.6,0,5,7,0,2026-04-18T12:43:36.563512+05:30
Gurgaon,Haryana,28.4595,77.0266,37.9,28,0.0,981.8,7.0,22.7,485,365.1,70.5,0,5,10,1,2026-04-18T12:43:36.563517+05:30
Noida,Uttar Pradesh,28.5355,77.391,37.9,26,0.0,985.0,6.8,21.2,485,365.1,70.5,0,5,10,0,2026-04-18T12:43:36.563522+05:30
Ghaziabad,Uttar Pradesh,28.6692,77.4538,37.2,28,0.0,983.3,6.6,14.0,125,137.4,34.9,0,5,10,0,2026-04-18T12:43:36.563527+05:30
Faridabad,Haryana,28.4089,77.3178,38.8,24,0.0,984.1,6.95,25.9,485,365.1,70.5,0,5,10,0,2026-04-18T12:43:36.563532+05:30
Meerut,Uttar Pradesh,28.9845,77.7064,37.9,25,0.0,982.1,6.8,20.2,125,137.4,34.9,0,5,10,0,2026-04-18T12:43:36.563537+05:30
Agra,Uttar Pradesh,27.1767,78.0081,39.4,26,0.0,987.8,7.7,20.9,581,247.7,46.2,0,5,10,1,2026-04-18T12:43:36.563544+05:30
Varanasi,Uttar Pradesh,25.3176,82.9739,40.6,20,0.0,996.4,7.95,27.7,111,105.7,27.0,0,5,10,0,2026-04-18T12:43:36.563550+05:30
Prayagraj,Uttar Pradesh,25.4358,81.8463,40.1,21,0.0,995.2,7.9,28.1,106,94.8,26.4,0,5,10,0,2026-04-18T12:43:36.563555+05:30
Gorakhpur,Uttar Pradesh,26.7606,83.3732,37.0,40,0.0,996.1,8.15,32.0,155,78.2,53.2,0,5,10,1,2026-04-18T12:43:36.563560+05:30
Bareilly,Uttar Pradesh,28.367,79.4304,38.9,24,0.0,986.8,7.6,29.9,78,59.6,19.3,0,5,10,0,2026-04-18T12:43:36.563565+05:30
Aligarh,Uttar Pradesh,27.8974,78.088,40.8,19,0.0,985.6,7.35,25.6,168,264.5,49.5,0,5,10,0,2026-04-18T12:43:36.563571+05:30
Moradabad,Uttar Pradesh,28.8386,78.7733,38.5,23,0.0,983.9,7.4,27.4,88,57.5,19.6,0,5,10,0,2026-04-18T12:43:36.563575+05:30
Saharanpur,Uttar Pradesh,29.9637,77.546,36.6,26,0.0,976.7,7.0,21.2,102,61.5,16.6,0,5,10,0,2026-04-18T12:43:36.563580+05:30
Jhansi,Uttar Pradesh,25.4484,78.5685,41.7,17,0.0,978.0,7.85,25.9,77,79.2,23.9,0,5,10,0,2026-04-18T12:43:39.862129+05:30
Surat,Gujarat,21.1702,72.8311,35.5,43,0.0,1006.8,7.8,28.8,115,60.3,36.8,0,5,7,1,2026-04-18T12:43:39.862159+05:30
Vadodara,Gujarat,22.3072,73.1812,39.8,29,0.0,1004.3,8.15,19.8,91,51.2,20.5,0,5,7,1,2026-04-18T12:43:39.862167+05:30
Rajkot,Gujarat,22.3039,70.8022,36.8,25,0.0,995.1,7.8,29.2,59,65.2,15.9,0,5,10,0,2026-04-18T12:43:39.862174+05:30
Thane,Maharashtra,19.2183,72.9781,33.4,57,0.0,1007.8,7.75,33.5,95,90.6,45.6,0,5,4,1,2026-04-18T12:43:39.862179+05:30
Nagpur,Maharashtra,21.1458,79.0882,39.8,23,0.0,972.9,7.6,21.2,95,55.5,40.0,0,5,10,0,2026-04-18T12:43:39.862184+05:30
Nashik,Maharashtra,19.9975,73.7898,34.8,23,0.0,947.0,8.1,25.9,73,31.3,14.8,0,5,7,0,2026-04-18T12:43:39.862190+05:30
Aurangabad,Maharashtra,19.8762,75.3433,38.5,18,0.0,945.4,6.55,29.2,56,17.6,10.9,0,5,10,0,2026-04-18T12:43:39.862195+05:30
Solapur,Maharashtra,17.6599,75.9064,38.5,27,0.0,957.5,8.0,20.9,118,40.4,34.0,0,5,10,1,2026-04-18T12:43:39.862200+05:30
Kolhapur,Maharashtra,16.705,74.2433,36.3,32,0.0,948.5,8.7,43.9,82,39.9,32.0,0,5,10,1,2026-04-18T12:43:39.862206+05:30
Goa,Goa,15.2993,74.124,32.7,62,0.0,998.0,9.05,27.7,70,54.4,23.3,3,5,7,1,2026-04-18T12:43:39.862211+05:30
Jodhpur,Rajasthan,26.2389,73.0243,38.3,23,0.0,983.8,8.15,30.2,97,137.4,28.3,0,5,10,0,2026-04-18T12:43:39.862217+05:30
Udaipur,Rajasthan,24.5854,73.7125,36.9,27,0.0,948.5,8.7,29.5,41,77.1,15.8,0,5,10,0,2026-04-18T12:43:39.862222+05:30
Kota,Rajasthan,25.2138,75.8648,41.0,19,0.0,978.8,8.25,23.0,59,89.4,17.3,0,5,10,0,2026-04-18T12:43:39.862228+05:30
Bikaner,Rajasthan,28.0229,73.3119,38.5,23,0.0,981.8,7.45,29.9,73,78.7,21.0,0,5,10,0,2026-04-18T12:43:39.862233+05:30
Ajmer,Rajasthan,26.4499,74.6399,36.9,27,0.0,956.1,8.15,33.5,54,183.9,26.8,0,5,10,0,2026-04-18T12:43:39.862237+05:30
Gwalior,Madhya Pradesh,26.2183,78.1828,40.9,18,0.0,983.4,7.95,25.2,118,108.7,24.0,0,5,10,0,2026-04-18T12:43:39.862242+05:30
Indore,Madhya Pradesh,22.7196,75.8577,37.6,16,0.0,949.7,8.45,25.6,58,13.9,7.6,0,5,10,0,2026-04-18T12:43:39.862247+05:30
Bhopal,Madhya Pradesh,23.2599,77.4126,40.0,15,0.0,954.7,7.9,23.8,63,18.7,11.9,0,5,10,0,2026-04-18T12:43:39.862252+05:30
Jabalpur,Madhya Pradesh,23.1815,79.9864,38.9,25,0.0,961.8,7.5,27.0,71,49.4,18.5,0,5,10,0,2026-04-18T12:43:39.862257+05:30
Ujjain,Madhya Pradesh,23.1765,75.7885,37.9,18,0.0,955.3,8.5,23.8,57,15.5,7.7,0,5,10,0,2026-04-18T12:43:39.862262+05:30
Visakhapatnam,Andhra Pradesh,17.6868,83.2185,34.4,56,0.0,1003.8,9.15,35.3,59,32.9,22.4,0,5,4,1,2026-04-18T12:43:39.862267+05:30
Vijayawada,Andhra Pradesh,16.5062,80.648,35.5,53,0.0,1002.7,8.9,25.6,55,28.9,18.1,0,5,7,1,2026-04-18T12:43:39.862272+05:30
Guntur,Andhra Pradesh,16.3067,80.4365,36.1,47,0.0,1003.8,8.9,29.5,58,29.2,19.3,0,5,7,1,2026-04-18T12:43:39.862276+05:30
Nellore,Andhra Pradesh,14.4426,79.9865,37.8,41,0.0,1005.2,8.65,32.0,55,23.9,17.4,0,5,7,1,2026-04-18T12:43:39.862281+05:30
Kurnool,Andhra Pradesh,15.8281,78.0373,40.9,24,0.0,976.4,9.2,31.3,89,41.0,33.5,0,5,10,1,2026-04-18T12:43:39.862286+05:30
Kakinada,Andhra Pradesh,16.9891,82.2475,35.7,53,0.0,1007.3,9.1,27.0,51,26.4,15.7,0,5,7,1,2026-04-18T12:43:39.862291+05:30
Tirupati,Andhra Pradesh,13.6288,79.4192,35.8,46,0.0,991.9,8.95,32.0,69,21.4,15.7,0,5,10,1,2026-04-18T12:43:39.862295+05:30
Warangal,Telangana,17.9689,79.5941,36.7,41,0.0,979.1,8.8,27.0,85,34.9,29.1,0,5,10,1,2026-04-18T12:43:39.862300+05:30
Nizamabad,Telangana,18.6725,78.0941,39.2,24,0.0,965.1,8.8,31.3,118,33.5,26.0,0,5,10,0,2026-04-18T12:43:39.862305+05:30
Mysore,Karnataka,12.2958,76.6396,35.5,31,0.0,929.7,8.9,40.3,94,36.6,28.1,0,5,10,0,2026-04-18T12:43:39.862309+05:30
Mangalore,Karnataka,12.9141,74.856,29.6,79,0.0,1006.6,9.15,21.6,66,32.5,19.3,7,5,4,1,2026-04-18T12:43:39.862314+05:30
Hubli-Dharwad,Karnataka,15.3647,75.124,33.7,49,0.0,941.9,9.25,29.5,70,31.0,23.3,0,5,7,1,2026-04-18T12:43:39.862319+05:30
Belgaum,Karnataka,15.8497,74.4977,33.6,45,0.0,927.0,9.25,29.2,71,40.7,30.3,0,5,7,1,2026-04-18T12:43:43.158340+05:30
Coimbatore,Tamil Nadu,11.0168,76.9558,36.0,37,0.0,962.5,9.2,30.2,106,32.4,23.6,0,5,10,1,2026-04-18T12:43:43.158397+05:30
Madurai,Tamil Nadu,9.9252,78.1198,36.6,39,0.0,993.0,9.35,32.8,78,19.4,14.8,0,5,10,1,2026-04-18T12:43:43.158405+05:30
Trichy,Tamil Nadu,10.7905,78.7047,35.4,48,0.0,999.7,9.35,18.4,69,13.2,9.4,0,5,10,1,2026-04-18T12:43:43.158412+05:30
Salem,Tamil Nadu,11.6643,78.146,35.4,46,0.0,977.8,9.35,18.4,89,29.4,22.2,0,5,10,1,2026-04-18T12:43:43.158418+05:30
Tirunelveli,Tamil Nadu,8.7139,77.7567,38.5,31,0.0,1002.7,9.25,48.2,94,21.8,18.0,0,5,7,1,2026-04-18T12:43:43.158425+05:30
Vellore,Tamil Nadu,12.9165,79.1325,34.8,46,0.0,984.9,8.9,27.0,94,24.6,19.0,0,5,7,1,2026-04-18T12:43:43.158430+05:30
Erode,Tamil Nadu,11.341,77.7172,37.4,40,0.0,988.9,9.35,25.6,75,25.7,18.6,0,5,10,1,2026-04-18T12:43:43.158436+05:30
Kochi,Kerala,9.9312,76.2673,29.6,82,0.0,1008.4,9.1,28.8,93,35.4,24.9,7,0,4,1,2026-04-18T12:43:43.158442+05:30
Thiruvananthapuram,Kerala,8.5241,76.9366,29.5,82,0.0,1007.8,9.1,26.6,82,41.6,29.2,7,5,4,1,2026-04-18T12:43:43.158448+05:30
Kozhikode,Kerala,11.2588,75.7804,31.5,74,0.0,1007.6,8.65,29.9,75,25.7,17.9,3,5,4,1,2026-04-18T12:43:43.158453+05:30
Thrissur,Kerala,10.5276,76.2144,34.5,60,0.0,1006.8,8.8,37.8,85,37.3,26.4,0,5,4,1,2026-04-18T12:43:43.158459+05:30
Kannur,Kerala,11.8745,75.3704,32.9,67,0.0,1007.0,8.55,31.3,73,32.4,22.6,3,5,4,1,2026-04-18T12:43:43.158465+05:30
Patna,Bihar,25.5941,85.1376,37.2,44,0.0,998.9,8.6,27.4,151,73.6,52.5,0,5,10,1,2026-04-18T12:43:43.158470+05:30
Gaya,Bihar,24.7914,85.0002,40.7,20,0.0,992.0,8.6,33.1,111,63.3,26.6,0,5,10,0,2026-04-18T12:43:43.158475+05:30
Muzaffarpur,Bihar,26.1209,85.3647,33.8,56,0.0,999.7,8.6,31.0,153,77.5,62.6,0,5,7,1,2026-04-18T12:43:43.158479+05:30
Bhagalpur,Bihar,25.2425,87.0117,31.1,68,0.0,1001.2,8.3,31.3,155,64.0,51.9,3,5,4,1,2026-04-18T12:43:43.158485+05:30
Ranchi,Jharkhand,23.3441,85.3096,37.2,26,0.0,938.7,9.1,38.5,91,72.2,20.9,0,5,10,0,2026-04-18T12:43:43.158490+05:30
Jamshedpur,Jharkhand,22.8046,86.2029,37.1,49,0.0,989.8,8.95,45.4,97,60.8,38.6,0,5,10,1,2026-04-18T12:43:43.158495+05:30
Dhanbad,Jharkhand,23.7957,86.4304,37.7,38,0.0,978.7,8.95,33.8,151,72.2,52.2,0,5,10,1,2026-04-18T12:43:43.158500+05:30
Bokaro,Jharkhand,23.6693,86.1511,37.4,37,0.0,982.8,8.95,37.4,154,69.8,40.5,0,5,10,1,2026-04-18T12:43:43.158505+05:30
Bhubaneswar,Odisha,20.2961,85.8245,34.7,61,0.0,1002.4,8.65,30.6,60,28.3,21.0,3,5,4,1,2026-04-18T12:43:43.158510+05:30
Cuttack,Odisha,20.4625,85.8828,36.6,55,0.0,1003.9,8.9,29.9,60,28.3,21.0,0,5,7,1,2026-04-18T12:43:43.158515+05:30
Rourkela,Odisha,22.2604,84.8536,40.2,33,0.0,984.1,8.5,48.2,132,71.9,32.5,0,5,10,1,2026-04-18T12:43:43.158521+05:30
Raipur,Chhattisgarh,21.2514,81.6296,40.5,32,0.0,974.0,8.9,34.6,125,46.4,41.2,0,5,10,1,2026-04-18T12:43:43.158526+05:30
Bhilai,Chhattisgarh,21.1938,81.3509,40.3,34,0.0,974.3,8.8,36.7,137,44.9,38.0,0,5,10,1,2026-04-18T12:43:43.158530+05:30
Guwahati,Assam,26.1158,91.7086,31.2,68,0.0,1001.2,8.5,23.8,150,88.5,60.8,3,5,4,1,2026-04-18T12:43:43.158535+05:30
Agartala,Tripura,23.8315,91.2868,33.1,59,0.0,1006.3,8.7,19.8,130,34.6,24.7,0,5,4,1,2026-04-18T12:43:43.158540+05:30
Shillong,Meghalaya,25.5788,91.8933,21.1,54,0.0,858.8,6.85,28.8,133,59.4,40.4,0,5,7,0,2026-04-18T12:43:43.158545+05:30
Imphal,Manipur,24.817,93.9368,25.1,65,0.0,924.4,9.1,45.7,157,59.8,34.1,7,5,7,1,2026-04-18T12:43:43.158549+05:30
Aizawl,Mizoram,23.7271,92.7176,29.3,41,0.0,895.3,8.95,34.2,128,58.8,32.8,4,5,7,0,2026-04-18T12:43:43.158554+05:30
Kohima,Nagaland,25.6701,94.1077,20.1,85,0.0,856.9,9.0,48.6,138,68.9,43.2,3,5,7,1,2026-04-18T12:43:43.158559+05:30
Gangtok,Sikkim,27.3314,88.6138,20.3,75,0.0,840.1,8.9,20.2,130,41.9,26.8,3,5,7,0,2026-04-18T12:43:43.158564+05:30
Siliguri,West Bengal,26.7271,88.3953,25.4,80,0.0,995.4,8.05,19.8,164,102.9,64.3,7,5,7,1,2026-04-18T12:43:46.457964+05:30
Durgapur,West Bengal,23.5204,87.3119,36.0,54,0.0,993.7,8.85,52.9,120,58.7,50.9,0,5,10,1,2026-04-18T12:43:46.457994+05:30
Asansol,West Bengal,23.6739,86.9524,36.4,52,0.0,992.2,8.9,49.3,122,63.8,52.4,0,5,10,1,2026-04-18T12:43:46.458002+05:30
Pondicherry,Puducherry,11.9139,79.8145,35.0,54,0.0,1008.4,9.15,26.3,39,13.9,8.5,0,0,4,1,2026-04-18T12:43:46.458009+05:30
Port Blair,Andaman and Nicobar Islands,11.6234,92.7265,29.3,72,0.0,1006.8,9.2,10.4,44,18.8,13.6,7,5,4,1,2026-04-18T12:43:46.458015+05:30
Haridwar,Uttarakhand,29.9457,78.1642,37.0,26,0.0,975.1,6.7,30.2,63,55.6,14.1,0,5,10,0,2026-04-18T12:43:46.458022+05:30
Rishikesh,Uttarakhand,30.0869,78.2676,36.6,24,0.0,968.1,6.95,36.0,55,49.0,12.0,0,5,10,0,2026-04-18T12:43:46.458028+05:30
Nainital,Uttarakhand,29.3919,79.4542,30.7,25,0.0,812.6,8.0,60.5,57,45.8,13.3,0,5,7,0,2026-04-18T12:43:46.458034+05:30
Mussoorie,Uttarakhand,30.4599,78.0664,28.7,23,0.0,809.3,7.55,42.8,58,41.8,10.9,4,5,7,0,2026-04-18T12:43:46.458039+05:30
Dharamshala,Himachal Pradesh,32.219,76.3234,29.4,32,0.0,874.0,6.8,38.9,44,53.4,10.5,4,5,7,0,2026-04-18T12:43:46.458045+05:30
Dalhousie,Himachal Pradesh,32.5387,75.971,22.8,36,0.0,809.4,6.65,36.0,53,62.6,13.6,0,5,7,0,2026-04-18T12:43:46.458051+05:30
Patiala,Punjab,30.3398,76.3869,36.3,25,0.0,979.4,7.2,19.4,127,286.8,37.1,0,5,10,0,2026-04-18T12:43:46.458057+05:30
Bhatinda,Punjab,30.211,74.9455,38.2,18,0.0,984.5,7.7,32.8,76,90.6,20.1,0,5,10,0,2026-04-18T12:43:46.458062+05:30
Rohtak,Haryana,28.8955,76.6066,37.0,30,0.0,982.2,6.85,15.8,328,277.5,53.0,0,5,10,1,2026-04-18T12:43:46.458068+05:30
Panipat,Haryana,29.3909,76.9635,37.8,24,0.0,981.2,6.6,11.2,539,304.5,51.8,0,5,10,0,2026-04-18T12:43:46.458074+05:30
Mathura,Uttar Pradesh,27.4924,77.6737,40.0,24,0.0,986.8,7.65,24.5,498,202.1,41.7,0,5,10,0,2026-04-18T12:43:46.458079+05:30
Vrindavan,Uttar Pradesh,27.5823,77.7027,40.3,22,0.0,987.2,7.6,25.6,498,202.1,41.7,0,5,10,0,2026-04-18T12:43:46.458084+05:30
Ayodhya,Uttar Pradesh,26.7922,82.1998,38.7,31,0.0,994.5,7.8,37.8,140,83.1,39.9,0,5,10,1,2026-04-18T12:43:46.458089+05:30
Ratlam,Madhya Pradesh,23.3315,75.0367,34.8,35,0.0,956.1,8.35,23.4,50,18.8,8.1,0,5,7,1,2026-04-18T12:43:46.458094+05:30
Sagar,Madhya Pradesh,23.8388,78.7378,40.5,17,0.0,950.9,7.95,31.0,65,43.2,17.4,0,5,10,0,2026-04-18T12:43:46.458099+05:30
Satna,Madhya Pradesh,24.6005,80.8322,41.6,14,0.0,971.5,8.4,20.2,68,87.5,21.2,0,5,10,0,2026-04-18T12:43:46.458104+05:30
Akola,Maharashtra,20.7002,77.0082,41.6,12,0.0,975.2,8.7,29.9,63,20.7,13.1,0,5,10,0,2026-04-18T12:43:46.458110+05:30
Amravati,Maharashtra,20.9374,77.7796,39.6,19,0.0,967.7,8.05,17.3,64,21.6,13.8,0,5,10,0,2026-04-18T12:43:46.458115+05:30
Latur,Maharashtra,18.4088,76.5604,36.7,26,0.0,941.2,9.05,14.4,109,39.6,31.7,0,5,10,0,2026-04-18T12:43:46.458120+05:30
Nanded,Maharashtra,19.1383,77.3091,38.4,28,0.0,969.1,8.8,18.0,86,24.6,16.0,0,5,10,1,2026-04-18T12:43:46.458126+05:30
Gulbarga,Karnataka,17.3297,76.8343,38.6,28,0.0,959.5,9.0,46.8,92,40.4,34.2,0,5,10,1,2026-04-18T12:43:46.458130+05:30
Bidar,Karnataka,17.9104,77.5199,37.3,31,0.0,936.7,9.05,34.2,100,39.8,33.2,0,5,10,1,2026-04-18T12:43:46.458135+05:30
Hospet,Karnataka,15.2689,76.3909,34.4,48,0.0,956.5,9.25,21.2,98,30.7,23.8,0,5,7,1,2026-04-18T12:43:46.458140+05:30
Tirupur,Tamil Nadu,11.1085,77.3411,36.7,38,0.0,975.6,9.15,31.3,88,30.9,23.1,0,5,10,1,2026-04-18T12:43:46.458144+05:30
Alappuzha,Kerala,9.4981,76.3388,29.5,82,0.0,1008.6,9.1,25.2,98,37.4,26.5,7,0,4,1,2026-04-18T12:43:46.458149+05:30
Munnar,Kerala,10.0889,77.0595,32.5,37,0.0,860.5,9.7,23.8,93,27.1,18.5,0,5,7,0,2026-04-18T12:43:46.458155+05:30
Silchar,Assam,24.8333,92.7789,32.1,60,0.0,1004.9,8.75,21.6,161,71.0,49.7,0,5,4,1,2026-04-18T12:43:46.458161+05:30
Dibrugarh,Assam,27.4728,94.912,30.1,65,0.0,995.2,8.65,13.7,130,64.3,42.4,3,5,7,1,2026-04-18T12:43:46.458165+05:30
