city,state,latitude,longitude,temp,humidity,rain,pressure,uv_index,wind_gusts,aqi,pm10,pm2_5,mosquito_risk,arthritis_risk,migraine_risk,frizz_risk,updated_at
Delhi,Delhi,28.6139,77.209,30.5,43,0.0,983.2,6.8,29.2,202,233.8,58.7,0,5,7,1,2026-04-17T20:28:47.230662+05:30
Mumbai,Maharashtra,19.076,72.8777,30.1,71,0.0,1008.4,7.05,22.3,134,70.3,24.4,3,0,4,1,2026-04-17T20:28:47.230703+05:30
Bangalore,Karnataka,12.9716,77.5946,29.4,35,0.0,912.1,9.2,34.9,153,23.9,21.6,4,5,7,0,2026-04-17T20:28:47.230718+05:30
Hyderabad,Telangana,17.385,78.4867,31.2,49,0.0,954.1,9.2,40.0,164,43.2,39.3,0,5,7,1,2026-04-17T20:28:47.230728+05:30
Chennai,Tamil Nadu,13.0827,80.2707,29.5,77,0.0,1007.6,8.95,33.1,35,11.2,7.7,7,5,4,1,2026-04-17T20:28:47.230737+05:30
Kolkata,West Bengal,22.5726,88.3639,28.4,83,0.0,1006.7,8.85,24.1,67,18.7,16.2,7,5,4,1,2026-04-17T20:28:47.230749+05:30
Pune,Maharashtra,18.5204,73.8567,29.3,62,0.0,949.1,7.85,42.1,160,34.5,26.9,7,5,7,1,2026-04-17T20:28:47.230757+05:30
Ahmedabad,Gujarat,23.0225,72.5714,34.0,27,0.0,1001.3,7.55,21.6,85,45.3,25.4,0,5,4,0,2026-04-17T20:28:47.230765+05:30
Jaipur,Rajasthan,26.9124,75.7873,32.9,28,0.0,960.2,7.55,28.4,97,103.1,28.2,0,5,7,0,2026-04-17T20:28:47.230773+05:30
Lucknow,Uttar Pradesh,26.8467,80.9462,32.0,34,0.0,993.0,7.35,19.4,168,67.1,33.6,0,5,7,0,2026-04-17T20:28:47.230780+05:30
Kanpur,Uttar Pradesh,26.4499,80.3319,30.3,46,0.0,991.1,7.85,15.8,148,168.6,36.0,0,5,7,1,2026-04-17T20:28:47.230788+05:30
Chandigarh,Chandigarh,30.7333,76.7794,24.6,50,0.0,970.1,7.2,34.2,117,38.4,17.5,0,5,7,0,2026-04-17T20:28:47.230796+05:30
Srinagar,Jammu and Kashmir,34.0837,74.7973,11.4,88,0.0,845.4,5.75,25.6,72,25.0,20.4,3,10,3,0,2026-04-17T20:28:47.230805+05:30
Jammu,Jammu and Kashmir,32.7266,74.857,26.6,42,0.0,975.0,4.95,47.9,76,62.6,27.4,4,5,3,0,2026-04-17T20:28:47.230813+05:30
Amritsar,Punjab,31.634,74.8723,26.7,41,0.0,982.1,7.25,32.0,98,29.0,15.9,4,5,7,0,2026-04-17T20:28:47.230820+05:30
Ludhiana,Punjab,30.901,75.8573,26.7,38,0.0,980.3,7.4,38.5,119,27.1,15.6,4,5,7,0,2026-04-17T20:28:47.230829+05:30
Jalandhar,Punjab,31.326,75.5762,25.7,36,0.0,981.4,6.85,38.2,98,56.3,16.5,4,5,7,0,2026-04-17T20:28:47.230836+05:30
Dehradun,Uttarakhand,30.6284,78.0322,18.6,43,0.0,833.3,6.8,33.5,93,35.5,14.4,0,5,7,0,2026-04-17T20:28:47.230842+05:30
Shimla,Himachal Pradesh,31.1048,77.1734,15.6,54,0.0,788.6,6.95,35.6,90,27.5,14.5,0,5,7,0,2026-04-17T20:28:47.230849+05:30
Manali,Himachal Pradesh,32.2396,77.1887,14.5,83,0.0,824.2,9.45,32.8,101,7.7,3.8,3,10,7,0,2026-04-17T20:28:47.230856+05:30
Gurgaon,Haryana,28.4595,77.0266,28.2,54,0.0,981.5,6.75,25.6,319,352.0,73.1,4,5,7,1,2026-04-17T20:28:47.230863+05:30
Noida,Uttar Pradesh,28.5355,77.391,30.7,43,0.0,984.8,6.8,23.0,319,352.0,73.1,0,5,7,1,2026-04-17T20:28:47.230869+05:30
Ghaziabad,Uttar Pradesh,28.6692,77.4538,29.8,50,0.0,983.0,6.65,27.4,205,214.2,50.2,4,5,7,1,2026-04-17T20:28:47.230876+05:30
Faridabad,Haryana,28.4089,77.3178,30.1,45,0.0,983.9,6.7,34.2,319,352.0,73.1,0,5,7,1,2026-04-17T20:28:47.230882+05:30
Meerut,Uttar Pradesh,28.9845,77.7064,28.8,52,0.0,981.9,6.4,16.2,205,214.2,50.2,4,5,7,1,2026-04-17T20:28:47.230888+05:30
Agra,Uttar Pradesh,27.1767,78.0081,30.5,36,0.0,987.5,6.4,17.6,195,210.0,70.8,0,5,7,0,2026-04-17T20:28:47.230897+05:30
Varanasi,Uttar Pradesh,25.3176,82.9739,31.0,40,0.0,996.9,8.45,23.8,157,72.4,39.5,0,5,7,0,2026-04-17T20:28:47.230903+05:30
Prayagraj,Uttar Pradesh,25.4358,81.8463,32.1,33,0.0,995.0,8.3,24.1,166,59.5,31.1,0,5,7,0,2026-04-17T20:28:47.230911+05:30
Gorakhpur,Uttar Pradesh,26.7606,83.3732,30.1,56,0.0,997.1,7.7,27.0,182,74.5,54.8,0,5,7,1,2026-04-17T20:28:47.230917+05:30
Bareilly,Uttar Pradesh,28.367,79.4304,27.9,60,0.0,986.8,6.85,22.7,172,61.2,30.9,4,5,7,1,2026-04-17T20:28:47.230925+05:30
Aligarh,Uttar Pradesh,27.8974,78.088,29.6,37,0.0,985.5,6.5,34.9,164,255.2,60.5,4,5,7,0,2026-04-17T20:28:47.230931+05:30
Moradabad,Uttar Pradesh,28.8386,78.7733,28.5,47,0.0,983.8,5.9,17.6,176,85.9,39.5,4,5,3,1,2026-04-17T20:28:47.230937+05:30
Saharanpur,Uttar Pradesh,29.9637,77.546,25.8,54,0.0,976.3,6.1,26.6,113,51.6,21.0,4,5,7,0,2026-04-17T20:28:47.230943+05:30
Jhansi,Uttar Pradesh,25.4484,78.5685,33.3,25,0.0,976.9,7.85,20.9,150,67.8,21.8,0,5,7,0,2026-04-17T20:28:50.583688+05:30
Surat,Gujarat,21.1702,72.8311,28.9,66,0.0,1006.6,7.6,23.4,106,70.3,49.6,7,5,4,1,2026-04-17T20:28:50.583715+05:30
Vadodara,Gujarat,22.3072,73.1812,32.6,30,0.0,1003.5,7.8,22.7,123,49.7,33.3,0,5,4,0,2026-04-17T20:28:50.583724+05:30
Rajkot,Gujarat,22.3039,70.8022,30.8,30,0.0,994.5,7.85,30.2,79,53.8,20.0,0,5,7,0,2026-04-17T20:28:50.583732+05:30
Thane,Maharashtra,19.2183,72.9781,28.9,74,0.0,1007.9,7.1,32.8,134,70.3,24.4,7,5,4,1,2026-04-17T20:28:50.583738+05:30
Nagpur,Maharashtra,21.1458,79.0882,32.2,46,0.0,971.8,8.25,22.3,211,53.3,39.0,0,5,7,1,2026-04-17T20:28:50.583745+05:30
Nashik,Maharashtra,19.9975,73.7898,29.2,40,0.0,946.6,7.35,33.5,96,27.5,16.2,4,5,7,0,2026-04-17T20:28:50.583751+05:30
Aurangabad,Maharashtra,19.8762,75.3433,32.5,26,0.0,944.6,8.1,34.6,118,15.1,12.0,0,5,7,0,2026-04-17T20:28:50.583758+05:30
Solapur,Maharashtra,17.6599,75.9064,34.5,33,0.0,956.7,8.5,22.0,170,43.2,36.9,0,5,7,0,2026-04-17T20:28:50.583765+05:30
Kolhapur,Maharashtra,16.705,74.2433,26.9,61,0.0,947.9,8.2,40.7,140,25.3,20.3,7,5,7,1,2026-04-17T20:28:50.583772+05:30
Goa,Goa,15.2993,74.124,28.8,75,0.0,997.8,8.6,33.1,69,37.0,18.6,7,5,7,1,2026-04-17T20:28:50.583778+05:30
Jodhpur,Rajasthan,26.2389,73.0243,31.9,26,0.0,982.0,8.15,32.8,93,148.1,22.1,0,5,7,0,2026-04-17T20:28:50.583785+05:30
Udaipur,Rajasthan,24.5854,73.7125,30.5,17,0.0,947.1,7.85,28.8,72,15.3,7.1,0,5,7,0,2026-04-17T20:28:50.583790+05:30
Kota,Rajasthan,25.2138,75.8648,34.5,29,0.0,977.5,7.15,27.0,104,49.2,28.2,0,5,7,0,2026-04-17T20:28:50.583796+05:30
Bikaner,Rajasthan,28.0229,73.3119,35.7,21,0.0,979.8,8.0,27.4,78,25.8,10.8,0,5,10,0,2026-04-17T20:28:50.583803+05:30
Ajmer,Rajasthan,26.4499,74.6399,31.5,31,0.0,954.5,7.8,31.7,89,26.2,14.1,0,5,7,0,2026-04-17T20:28:50.583810+05:30
Gwalior,Madhya Pradesh,26.2183,78.1828,33.7,38,0.0,982.9,7.15,25.2,141,95.7,30.3,0,5,7,1,2026-04-17T20:28:50.583816+05:30
Indore,Madhya Pradesh,22.7196,75.8577,30.1,37,0.0,948.5,7.75,27.0,134,29.5,22.8,0,5,7,0,2026-04-17T20:28:50.583823+05:30
Bhopal,Madhya Pradesh,23.2599,77.4126,34.6,31,0.0,953.3,7.8,29.2,129,29.3,21.2,0,5,7,0,2026-04-17T20:28:50.583829+05:30
Jabalpur,Madhya Pradesh,23.1815,79.9864,32.8,36,0.0,960.8,8.65,24.5,143,51.7,23.9,0,5,7,0,2026-04-17T20:28:50.583835+05:30
Ujjain,Madhya Pradesh,23.1765,75.7885,30.5,38,0.0,954.3,7.85,27.7,119,35.5,28.1,0,5,7,0,2026-04-17T20:28:50.583842+05:30
Visakhapatnam,Andhra Pradesh,17.6868,83.2185,28.4,85,0.0,1004.6,9.2,37.1,48,16.7,12.5,7,5,4,1,2026-04-17T20:28:50.583848+05:30
Vijayawada,Andhra Pradesh,16.5062,80.648,29.7,72,0.0,1002.5,9.15,23.4,51,16.5,14.1,7,5,4,1,2026-04-17T20:28:50.583854+05:30
Guntur,Andhra Pradesh,16.3067,80.4365,28.7,82,0.0,1004.1,9.2,26.6,83,21.8,19.1,7,5,4,1,2026-04-17T20:28:50.583860+05:30
Nellore,Andhra Pradesh,14.4426,79.9865,29.1,79,0.0,1005.8,9.3,33.8,84,13.2,10.4,7,5,4,1,2026-04-17T20:28:50.583866+05:30
Kurnool,Andhra Pradesh,15.8281,78.0373,36.3,32,0.0,975.7,9.2,27.0,157,34.9,30.9,0,5,10,1,2026-04-17T20:28:50.583873+05:30
Kakinada,Andhra Pradesh,16.9891,82.2475,29.2,78,0.0,1007.8,9.2,30.6,32,11.1,7.6,7,5,4,1,2026-04-17T20:28:50.583879+05:30
Tirupati,Andhra Pradesh,13.6288,79.4192,31.3,63,0.0,992.0,9.25,31.7,128,24.9,22.8,3,5,7,1,2026-04-17T20:28:50.583885+05:30
Warangal,Telangana,17.9689,79.5941,32.8,57,0.0,978.1,9.1,26.6,141,53.3,48.7,0,5,7,1,2026-04-17T20:28:50.583891+05:30
Nizamabad,Telangana,18.6725,78.0941,33.5,40,0.0,964.5,9.05,22.7,152,47.7,41.7,0,5,7,1,2026-04-17T20:28:50.583897+05:30
Mysore,Karnataka,12.2958,76.6396,30.6,31,0.0,928.2,9.3,38.9,150,28.6,25.6,0,5,7,0,2026-04-17T20:28:50.583903+05:30
Mangalore,Karnataka,12.9141,74.856,30.2,80,0.0,1006.3,9.15,25.2,82,29.9,19.3,3,5,4,1,2026-04-17T20:28:50.583909+05:30
Hubli-Dharwad,Karnataka,15.3647,75.124,28.9,59,0.0,940.8,9.15,33.1,152,41.4,36.8,4,5,7,1,2026-04-17T20:28:50.583915+05:30
Belgaum,Karnataka,15.8497,74.4977,25.6,80,0.0,925.9,8.95,39.2,145,25.1,18.9,7,5,7,1,2026-04-17T20:28:53.936765+05:30
Coimbatore,Tamil Nadu,11.0168,76.9558,27.6,77,0.0,962.0,9.05,38.2,153,32.8,29.7,7,5,7,1,2026-04-17T20:28:53.936792+05:30
Madurai,Tamil Nadu,9.9252,78.1198,31.7,59,0.0,993.0,9.35,28.8,111,24.1,21.5,0,5,7,1,2026-04-17T20:28:53.936802+05:30
Trichy,Tamil Nadu,10.7905,78.7047,30.6,73,0.0,999.5,9.25,20.2,97,23.3,21.7,3,5,7,1,2026-04-17T20:28:53.936809+05:30
Salem,Tamil Nadu,11.6643,78.146,31.4,59,0.0,976.9,9.05,24.1,127,28.8,24.7,0,5,7,1,2026-04-17T20:28:53.936817+05:30
Tirunelveli,Tamil Nadu,8.7139,77.7567,30.2,68,0.0,1003.0,8.8,43.2,113,26.0,23.2,3,5,4,1,2026-04-17T20:28:53.936824+05:30
Vellore,Tamil Nadu,12.9165,79.1325,30.0,69,0.0,984.9,8.8,27.7,132,28.6,26.9,7,5,7,1,2026-04-17T20:28:53.936830+05:30
Erode,Tamil Nadu,11.341,77.7172,33.3,44,0.0,988.2,9.3,28.8,135,24.2,21.1,0,5,7,1,2026-04-17T20:28:53.936837+05:30
Kochi,Kerala,9.9312,76.2673,29.9,82,0.0,1008.1,8.9,29.9,99,44.2,31.9,7,0,4,1,2026-04-17T20:28:53.936844+05:30
Thiruvananthapuram,Kerala,8.5241,76.9366,29.2,83,0.0,1007.9,8.85,28.4,92,30.3,20.8,7,5,4,1,2026-04-17T20:28:53.936851+05:30
Kozhikode,Kerala,11.2588,75.7804,30.8,78,0.0,1007.2,8.85,32.8,101,47.6,25.0,3,5,4,1,2026-04-17T20:28:53.936857+05:30
Thrissur,Kerala,10.5276,76.2144,30.1,78,0.0,1006.4,8.6,41.8,99,39.9,28.0,3,5,4,1,2026-04-17T20:28:53.936864+05:30
Kannur,Kerala,11.8745,75.3704,30.2,78,0.0,1006.6,8.2,30.6,103,41.6,25.1,3,5,4,1,2026-04-17T20:28:53.936872+05:30
Patna,Bihar,25.5941,85.1376,31.1,61,0.0,1000.3,8.25,25.2,180,73.3,55.4,3,5,4,1,2026-04-17T20:28:53.936878+05:30
Gaya,Bihar,24.7914,85.0002,30.2,61,0.0,993.9,8.45,15.5,174,70.5,48.4,3,5,7,1,2026-04-17T20:28:53.936884+05:30
Muzaffarpur,Bihar,26.1209,85.3647,29.1,69,0.0,1000.7,8.45,24.8,172,81.7,62.9,7,5,4,1,2026-04-17T20:28:53.936890+05:30
Bhagalpur,Bihar,25.2425,87.0117,28.5,76,0.0,1001.8,8.55,21.6,176,74.7,61.7,7,5,4,1,2026-04-17T20:28:53.936896+05:30
Ranchi,Jharkhand,23.3441,85.3096,28.9,32,0.0,938.7,9.15,38.5,155,46.0,19.2,4,5,7,0,2026-04-17T20:28:53.936903+05:30
Jamshedpur,Jharkhand,22.8046,86.2029,30.3,71,0.0,991.2,9.0,26.6,144,49.2,40.0,3,5,7,1,2026-04-17T20:28:53.936909+05:30
Dhanbad,Jharkhand,23.7957,86.4304,30.9,60,0.0,980.3,8.9,27.7,150,76.1,61.7,0,5,7,1,2026-04-17T20:28:53.936916+05:30
Bokaro,Jharkhand,23.6693,86.1511,30.4,67,0.0,984.3,8.9,24.1,165,92.9,58.6,3,5,7,1,2026-04-17T20:28:53.936923+05:30
Bhubaneswar,Odisha,20.2961,85.8245,27.7,87,0.0,1003.3,9.1,26.6,84,14.8,11.8,7,5,4,1,2026-04-17T20:28:53.936929+05:30
Cuttack,Odisha,20.4625,85.8828,28.7,82,0.0,1004.8,9.15,25.2,84,14.8,11.8,7,5,4,1,2026-04-17T20:28:53.936935+05:30
Rourkela,Odisha,22.2604,84.8536,31.0,63,0.0,985.1,8.9,43.2,190,69.8,42.6,3,5,7,1,2026-04-17T20:28:53.936941+05:30
Raipur,Chhattisgarh,21.2514,81.6296,34.1,40,0.0,973.3,8.95,39.6,217,67.3,48.2,0,5,7,1,2026-04-17T20:28:53.936947+05:30
Bhilai,Chhattisgarh,21.1938,81.3509,33.2,47,0.0,973.7,8.95,42.5,195,62.2,45.4,0,5,7,1,2026-04-17T20:28:53.936952+05:30
Guwahati,Assam,26.1158,91.7086,27.0,77,0.0,1003.2,8.55,22.3,151,65.0,54.6,7,5,4,1,2026-04-17T20:28:53.936958+05:30
Agartala,Tripura,23.8315,91.2868,28.2,79,0.0,1007.3,8.75,19.4,126,60.5,55.3,7,5,4,1,2026-04-17T20:28:53.936965+05:30
Shillong,Meghalaya,25.5788,91.8933,16.1,90,0.0,858.5,6.65,28.1,125,61.0,50.8,3,10,7,0,2026-04-17T20:28:53.936971+05:30
Imphal,Manipur,24.817,93.9368,20.5,85,0.0,925.4,9.1,40.3,151,93.1,74.3,3,5,7,1,2026-04-17T20:28:53.936978+05:30
Aizawl,Mizoram,23.7271,92.7176,22.3,79,0.0,894.6,9.0,36.0,155,75.0,62.2,3,5,7,1,2026-04-17T20:28:53.936984+05:30
Kohima,Nagaland,25.6701,94.1077,16.8,95,0.0,857.1,8.4,52.2,120,75.7,48.8,3,10,7,0,2026-04-17T20:28:53.937015+05:30
Gangtok,Sikkim,27.3314,88.6138,17.0,91,0.0,839.7,8.85,19.8,126,74.7,51.6,3,10,7,0,2026-04-17T20:28:53.937024+05:30
Siliguri,West Bengal,26.7271,88.3953,23.1,76,0.0,995.7,8.5,18.4,160,115.0,78.0,3,5,7,1,2026-04-17T20:28:57.363523+05:30
Durgapur,West Bengal,23.5204,87.3119,30.6,68,0.0,995.2,8.85,19.8,126,65.7,57.4,3,5,7,1,2026-04-17T20:28:57.363551+05:30
Asansol,West Bengal,23.6739,86.9524,31.0,65,0.0,994.0,8.9,21.2,132,68.0,57.0,3,5,7,1,2026-04-17T20:28:57.363560+05:30
Pondicherry,Puducherry,11.9139,79.8145,28.3,86,0.0,1008.7,8.6,27.4,32,11.2,7.5,7,0,4,1,2026-04-17T20:28:57.363568+05:30
Port Blair,Andaman and Nicobar Islands,11.6234,92.7265,29.5,70,0.0,1008.5,9.2,20.9,48,12.2,8.4,7,0,4,1,2026-04-17T20:28:57.363576+05:30
Haridwar,Uttarakhand,29.9457,78.1642,29.3,52,0.0,975.1,5.95,24.8,107,51.6,20.5,4,5,3,1,2026-04-17T20:28:57.363583+05:30
Rishikesh,Uttarakhand,30.0869,78.2676,25.2,60,0.0,968.1,6.05,24.8,104,43.4,14.2,4,5,7,1,2026-04-17T20:28:57.363590+05:30
Nainital,Uttarakhand,29.3919,79.4542,23.0,38,0.0,809.6,7.65,56.2,137,36.9,16.1,0,5,7,0,2026-04-17T20:28:57.363598+05:30
Mussoorie,Uttarakhand,30.4599,78.0664,19.6,41,0.0,805.6,6.65,43.6,110,51.0,17.2,0,5,7,0,2026-04-17T20:28:57.363604+05:30
Dharamshala,Himachal Pradesh,32.219,76.3234,21.3,42,0.0,871.7,6.9,36.7,75,24.0,11.2,0,5,7,0,2026-04-17T20:28:57.363611+05:30
Dalhousie,Himachal Pradesh,32.5387,75.971,18.5,42,0.0,806.3,5.15,34.2,86,36.3,19.4,0,5,3,0,2026-04-17T20:28:57.363618+05:30
Patiala,Punjab,30.3398,76.3869,26.0,49,0.0,979.4,7.2,34.9,144,504.8,58.9,4,5,7,0,2026-04-17T20:28:57.363625+05:30
Bhatinda,Punjab,30.211,74.9455,29.9,31,0.0,984.3,7.8,43.6,138,258.0,44.0,4,5,7,0,2026-04-17T20:28:57.363631+05:30
Rohtak,Haryana,28.8955,76.6066,27.2,63,0.0,982.0,6.55,25.6,196,418.2,76.1,7,5,7,1,2026-04-17T20:28:57.363638+05:30
Panipat,Haryana,29.3909,76.9635,27.6,49,0.0,980.9,6.8,19.8,458,394.9,85.2,4,5,7,0,2026-04-17T20:28:57.363644+05:30
Mathura,Uttar Pradesh,27.4924,77.6737,29.3,42,0.0,986.5,6.75,23.8,178,177.0,54.0,4,5,7,0,2026-04-17T20:28:57.363650+05:30
Vrindavan,Uttar Pradesh,27.5823,77.7027,29.0,42,0.0,987.0,6.6,29.5,178,177.0,54.0,4,5,7,0,2026-04-17T20:28:57.363656+05:30
Ayodhya,Uttar Pradesh,26.7922,82.1998,30.7,52,0.0,995.0,7.05,27.4,166,46.7,32.8,0,5,7,1,2026-04-17T20:28:57.363662+05:30
Ratlam,Madhya Pradesh,23.3315,75.0367,28.2,52,0.0,955.0,7.5,28.1,114,19.4,14.1,4,5,7,1,2026-04-17T20:28:57.363668+05:30
Sagar,Madhya Pradesh,23.8388,78.7378,33.6,36,0.0,949.9,7.75,22.7,131,32.6,17.4,0,5,7,1,2026-04-17T20:28:57.363675+05:30
Satna,Madhya Pradesh,24.6005,80.8322,33.8,21,0.0,971.2,8.6,16.9,151,58.0,16.6,0,5,7,0,2026-04-17T20:28:57.363681+05:30
Akola,Maharashtra,20.7002,77.0082,34.2,26,0.0,974.3,8.05,26.3,143,15.7,14.5,0,5,7,0,2026-04-17T20:28:57.363688+05:30
Amravati,Maharashtra,20.9374,77.7796,32.8,34,0.0,966.3,8.15,17.3,145,19.0,16.4,0,5,7,0,2026-04-17T20:28:57.363695+05:30
Latur,Maharashtra,18.4088,76.5604,31.3,42,0.0,940.0,8.6,31.7,167,33.9,30.3,0,5,7,1,2026-04-17T20:28:57.363701+05:30
Nanded,Maharashtra,19.1383,77.3091,33.1,42,0.0,967.6,8.65,18.4,148,37.3,32.2,0,5,7,1,2026-04-17T20:28:57.363707+05:30
Gulbarga,Karnataka,17.3297,76.8343,33.6,39,0.0,958.8,8.65,37.4,177,32.7,29.6,0,5,7,1,2026-04-17T20:28:57.363713+05:30
Bidar,Karnataka,17.9104,77.5199,30.1,54,0.0,935.8,8.85,49.0,172,43.1,38.3,0,5,7,1,2026-04-17T20:28:57.363719+05:30
Hospet,Karnataka,15.2689,76.3909,33.0,46,0.0,955.3,9.25,22.7,182,40.4,36.3,0,5,7,1,2026-04-17T20:28:57.363725+05:30
Tirupur,Tamil Nadu,11.1085,77.3411,33.5,36,0.0,974.7,8.95,32.8,150,25.6,21.9,0,5,7,1,2026-04-17T20:28:57.363731+05:30
Alappuzha,Kerala,9.4981,76.3388,29.3,83,0.0,1008.7,8.25,28.4,102,41.3,28.2,7,0,4,1,2026-04-17T20:28:57.363738+05:30
Munnar,Kerala,10.0889,77.0595,22.9,85,0.0,857.5,9.05,28.4,95,35.5,31.7,3,5,7,1,2026-04-17T20:28:57.363744+05:30
Silchar,Assam,24.8333,92.7789,28.0,77,0.0,1006.1,8.75,19.4,156,114.3,85.9,7,5,4,1,2026-04-17T20:28:57.363751+05:30
Dibrugarh,Assam,27.4728,94.912,27.2,74,0.0,997.1,8.65,11.5,144,88.5,61.5,7,5,7,1,2026-04-17T20:28:57.363757+05:30
