city,state,latitude,longitude,temp,humidity,rain,pressure,uv_index,wind_gusts,aqi,pm10,pm2_5,mosquito_risk,arthritis_risk,migraine_risk,frizz_risk,updated_at
Delhi,Delhi,28.6139,77.209,24.1,68,0.0,982.1,6.6,30.6,131,125.3,57.5,3,5,7,1,2026-04-03T04:05:04.004109+05:30
Mumbai,Maharashtra,19.076,72.8777,27.5,74,0.0,1009.0,7.45,23.8,69,43.3,24.2,7,0,4,1,2026-04-03T04:05:04.004152+05:30
Bangalore,Karnataka,12.9716,77.5946,21.3,69,0.0,911.6,9.6,19.8,54,26.4,26.0,3,5,7,0,2026-04-03T04:05:04.004167+05:30
Hyderabad,Telangana,17.385,78.4867,25.1,68,0.0,954.0,9.15,23.4,67,25.4,21.9,7,5,7,1,2026-04-03T04:05:04.004178+05:30
Chennai,Tamil Nadu,13.0827,80.2707,26.8,87,0.0,1007.9,9.25,34.9,44,13.2,10.1,7,5,4,1,2026-04-03T04:05:04.004187+05:30
Kolkata,West Bengal,22.5726,88.3639,26.0,94,0.0,1005.6,8.65,19.8,69,13.5,11.6,7,5,4,1,2026-04-03T04:05:04.004197+05:30
Pune,Maharashtra,18.5204,73.8567,21.9,99,0.0,948.6,8.35,37.4,122,65.0,61.0,3,5,7,1,2026-04-03T04:05:04.004208+05:30
Ahmedabad,Gujarat,23.0225,72.5714,22.8,75,0.0,1003.6,7.85,40.7,56,33.9,17.2,3,5,4,1,2026-04-03T04:05:04.004216+05:30
Jaipur,Rajasthan,26.9124,75.7873,23.2,54,0.0,959.9,7.5,52.6,118,358.6,54.1,0,5,7,0,2026-04-03T04:05:04.004224+05:30
Lucknow,Uttar Pradesh,26.8467,80.9462,24.8,62,0.0,992.7,5.25,28.1,82,70.3,28.0,3,5,3,1,2026-04-03T04:05:04.004231+05:30
Kanpur,Uttar Pradesh,26.4499,80.3319,26.3,61,0.0,991.2,6.65,25.2,96,120.1,40.7,7,5,7,1,2026-04-03T04:05:04.004238+05:30
Chandigarh,Chandigarh,30.7333,76.7794,21.4,60,0.0,968.0,5.9,58.7,66,24.6,21.4,0,5,3,0,2026-04-03T04:05:04.004245+05:30
Srinagar,Jammu and Kashmir,34.0837,74.7973,10.3,76,0.0,840.5,4.05,32.8,108,61.5,52.6,3,5,3,0,2026-04-03T04:05:04.004252+05:30
Jammu,Jammu and Kashmir,32.7266,74.857,21.2,73,0.0,972.9,4.7,49.7,71,23.1,15.1,3,5,3,1,2026-04-03T04:05:04.004259+05:30
Amritsar,Punjab,31.634,74.8723,20.9,84,0.0,981.1,4.25,44.3,89,54.0,38.2,3,5,3,1,2026-04-03T04:05:04.004265+05:30
Ludhiana,Punjab,30.901,75.8573,22.0,66,0.0,978.5,4.05,41.4,112,44.4,40.4,3,5,3,0,2026-04-03T04:05:04.004272+05:30
Jalandhar,Punjab,31.326,75.5762,20.9,74,0.0,979.5,6.2,48.6,88,56.5,38.1,3,5,7,1,2026-04-03T04:05:04.004280+05:30
Dehradun,Uttarakhand,30.6284,78.0322,15.1,50,0.0,830.5,6.15,49.7,31,6.6,4.6,0,5,7,0,2026-04-03T04:05:04.004287+05:30
Shimla,Himachal Pradesh,31.1048,77.1734,13.8,61,0.0,784.3,6.5,58.3,54,17.9,13.3,3,5,7,0,2026-04-03T04:05:04.004295+05:30
Manali,Himachal Pradesh,32.2396,77.1887,17.2,36,0.0,821.0,6.15,49.7,45,4.3,3.0,0,5,7,0,2026-04-03T04:05:04.004301+05:30
Gurgaon,Haryana,28.4595,77.0266,22.7,76,0.0,980.4,6.75,32.8,248,226.3,62.4,3,5,7,1,2026-04-03T04:05:04.004308+05:30
Noida,Uttar Pradesh,28.5355,77.391,23.7,69,0.0,983.6,6.25,32.8,248,226.3,62.4,3,5,7,1,2026-04-03T04:05:04.004314+05:30
Ghaziabad,Uttar Pradesh,28.6692,77.4538,22.6,74,0.0,981.7,6.4,32.0,112,84.8,55.5,3,5,7,1,2026-04-03T04:05:04.004320+05:30
Faridabad,Haryana,28.4089,77.3178,23.8,62,0.0,983.0,6.0,35.3,248,226.3,62.4,3,5,3,1,2026-04-03T04:05:04.004329+05:30
Meerut,Uttar Pradesh,28.9845,77.7064,21.9,72,0.0,980.5,5.25,30.2,112,84.8,55.5,3,5,3,1,2026-04-03T04:05:04.004336+05:30
Agra,Uttar Pradesh,27.1767,78.0081,25.0,72,0.0,987.1,7.25,38.2,183,240.3,66.6,7,5,7,1,2026-04-03T04:05:04.004342+05:30
Varanasi,Uttar Pradesh,25.3176,82.9739,26.6,59,0.0,996.6,6.25,37.4,89,42.7,36.4,4,5,7,1,2026-04-03T04:05:04.004351+05:30
Prayagraj,Uttar Pradesh,25.4358,81.8463,26.5,65,0.0,995.3,6.6,39.2,80,62.4,41.9,7,5,7,1,2026-04-03T04:05:04.004358+05:30
Gorakhpur,Uttar Pradesh,26.7606,83.3732,22.7,63,0.0,996.1,6.2,39.2,62,41.4,18.1,3,5,7,0,2026-04-03T04:05:04.004364+05:30
Bareilly,Uttar Pradesh,28.367,79.4304,21.5,73,0.0,986.3,4.7,20.2,64,36.7,23.4,3,5,3,1,2026-04-03T04:05:04.004373+05:30
Aligarh,Uttar Pradesh,27.8974,78.088,23.6,64,0.0,984.5,6.4,36.0,116,125.3,44.9,3,5,7,1,2026-04-03T04:05:04.004380+05:30
Moradabad,Uttar Pradesh,28.8386,78.7733,22.7,61,0.0,983.1,5.7,23.8,83,58.7,44.1,3,5,3,0,2026-04-03T04:05:04.004387+05:30
Saharanpur,Uttar Pradesh,29.9637,77.546,21.0,61,0.0,975.2,5.75,40.7,89,34.9,27.2,3,5,3,0,2026-04-03T04:05:04.004393+05:30
Jhansi,Uttar Pradesh,25.4484,78.5685,26.9,45,0.0,977.7,7.75,38.9,66,19.0,17.2,4,5,7,0,2026-04-03T04:05:07.347032+05:30
Surat,Gujarat,21.1702,72.8311,26.9,83,0.0,1007.3,7.65,26.3,95,37.6,27.7,7,5,4,1,2026-04-03T04:05:07.347063+05:30
Vadodara,Gujarat,22.3072,73.1812,25.2,87,0.0,1005.5,7.85,26.6,73,34.1,28.5,7,5,4,1,2026-04-03T04:05:07.347073+05:30
Rajkot,Gujarat,22.3039,70.8022,23.2,79,0.0,995.8,6.7,48.2,63,49.5,21.0,3,5,7,1,2026-04-03T04:05:07.347081+05:30
Thane,Maharashtra,19.2183,72.9781,25.1,81,0.0,1008.6,7.6,34.9,69,43.3,24.2,7,0,4,1,2026-04-03T04:05:07.347088+05:30
Nagpur,Maharashtra,21.1458,79.0882,24.6,74,0.0,974.1,8.65,32.0,91,17.6,16.2,3,5,7,1,2026-04-03T04:05:07.347095+05:30
Nashik,Maharashtra,19.9975,73.7898,21.5,91,0.0,945.9,8.05,32.8,74,35.6,25.7,3,5,7,1,2026-04-03T04:05:07.347104+05:30
Aurangabad,Maharashtra,19.8762,75.3433,22.3,84,0.0,944.8,8.45,31.7,110,42.4,39.3,3,5,7,1,2026-04-03T04:05:07.347112+05:30
Solapur,Maharashtra,17.6599,75.9064,24.3,78,0.0,958.1,8.95,31.0,110,44.0,41.2,3,5,7,1,2026-04-03T04:05:07.347119+05:30
Kolhapur,Maharashtra,16.705,74.2433,21.8,98,0.0,948.3,8.75,35.6,137,59.3,57.0,3,5,7,1,2026-04-03T04:05:07.347126+05:30
Goa,Goa,15.2993,74.124,27.8,84,0.0,998.2,9.0,29.9,76,33.8,30.5,7,5,7,1,2026-04-03T04:05:07.347133+05:30
Jodhpur,Rajasthan,26.2389,73.0243,22.3,66,0.0,983.7,6.3,54.0,108,272.9,66.4,3,5,7,0,2026-04-03T04:05:07.347141+05:30
Udaipur,Rajasthan,24.5854,73.7125,20.7,67,0.0,947.4,7.85,56.9,39,22.9,12.0,3,5,7,0,2026-04-03T04:05:07.347147+05:30
Kota,Rajasthan,25.2138,75.8648,24.9,47,0.0,979.5,7.75,43.6,57,12.5,10.1,0,5,7,0,2026-04-03T04:05:07.347154+05:30
Bikaner,Rajasthan,28.0229,73.3119,23.1,73,0.0,982.3,6.65,48.2,66,53.3,19.0,3,5,7,1,2026-04-03T04:05:07.347161+05:30
Ajmer,Rajasthan,26.4499,74.6399,22.5,66,0.0,955.5,7.55,54.7,59,155.5,36.9,3,5,7,0,2026-04-03T04:05:07.347167+05:30
Gwalior,Madhya Pradesh,26.2183,78.1828,28.2,48,0.0,982.7,7.6,38.5,68,18.6,16.8,4,5,7,1,2026-04-03T04:05:07.347174+05:30
Indore,Madhya Pradesh,22.7196,75.8577,23.1,69,0.0,948.7,8.3,39.6,84,29.5,24.9,3,5,7,1,2026-04-03T04:05:07.347180+05:30
Bhopal,Madhya Pradesh,23.2599,77.4126,24.1,73,0.0,954.7,8.25,32.8,81,22.5,19.9,3,5,7,1,2026-04-03T04:05:07.347187+05:30
Jabalpur,Madhya Pradesh,23.1815,79.9864,26.4,61,0.0,962.3,8.15,22.0,82,25.7,22.4,7,5,7,1,2026-04-03T04:05:07.347193+05:30
Ujjain,Madhya Pradesh,23.1765,75.7885,22.3,68,0.0,954.5,8.2,34.6,73,31.1,27.5,3,5,7,1,2026-04-03T04:05:07.347200+05:30
Visakhapatnam,Andhra Pradesh,17.6868,83.2185,26.1,88,0.0,1004.5,8.6,41.8,52,17.1,15.0,7,5,4,1,2026-04-03T04:05:07.347206+05:30
Vijayawada,Andhra Pradesh,16.5062,80.648,25.3,94,0.0,1003.8,8.65,25.6,47,13.8,12.5,7,5,4,1,2026-04-03T04:05:07.347213+05:30
Guntur,Andhra Pradesh,16.3067,80.4365,25.3,94,0.0,1005.0,8.65,31.0,43,12.3,11.1,7,5,4,1,2026-04-03T04:05:07.347219+05:30
Nellore,Andhra Pradesh,14.4426,79.9865,26.2,90,0.0,1006.8,9.15,33.1,37,10.7,8.5,7,5,4,1,2026-04-03T04:05:07.347226+05:30
Kurnool,Andhra Pradesh,15.8281,78.0373,27.1,58,0.0,977.4,9.15,19.8,49,12.2,10.0,4,5,7,1,2026-04-03T04:05:07.347233+05:30
Kakinada,Andhra Pradesh,16.9891,82.2475,24.8,95,0.0,1008.6,8.8,37.8,32,13.2,10.7,3,0,4,1,2026-04-03T04:05:07.347240+05:30
Tirupati,Andhra Pradesh,13.6288,79.4192,24.0,86,0.0,992.8,9.35,27.7,51,22.1,19.9,3,5,7,1,2026-04-03T04:05:07.347246+05:30
Warangal,Telangana,17.9689,79.5941,25.8,76,0.0,980.1,9.0,16.2,69,23.0,21.3,7,5,7,1,2026-04-03T04:05:07.347252+05:30
Nizamabad,Telangana,18.6725,78.0941,24.2,83,0.0,966.8,8.85,33.8,118,45.6,41.2,3,5,7,1,2026-04-03T04:05:07.347258+05:30
Mysore,Karnataka,12.2958,76.6396,22.4,88,0.0,928.7,9.5,40.7,87,31.5,29.7,3,5,7,1,2026-04-03T04:05:07.347264+05:30
Mangalore,Karnataka,12.9141,74.856,28.4,82,0.0,1006.8,9.15,24.8,74,26.6,23.7,7,5,4,1,2026-04-03T04:05:07.347270+05:30
Hubli-Dharwad,Karnataka,15.3647,75.124,22.6,96,0.0,941.3,9.2,37.1,83,23.5,22.6,3,5,7,1,2026-04-03T04:05:07.347276+05:30
Belgaum,Karnataka,15.8497,74.4977,21.5,96,0.0,925.9,9.25,36.0,95,35.6,34.0,3,5,7,1,2026-04-03T04:05:10.686529+05:30
Coimbatore,Tamil Nadu,11.0168,76.9558,23.8,89,0.0,962.3,9.5,45.7,63,27.1,25.1,3,5,7,1,2026-04-03T04:05:10.686558+05:30
Madurai,Tamil Nadu,9.9252,78.1198,25.5,89,0.0,994.0,8.5,20.9,52,15.5,14.5,7,5,7,1,2026-04-03T04:05:10.686568+05:30
Trichy,Tamil Nadu,10.7905,78.7047,25.6,89,0.0,1000.6,9.35,22.3,53,21.0,18.9,7,5,4,1,2026-04-03T04:05:10.686577+05:30
Salem,Tamil Nadu,11.6643,78.146,25.3,77,0.0,978.3,9.2,26.6,65,18.5,18.2,7,5,7,1,2026-04-03T04:05:10.686584+05:30
Tirunelveli,Tamil Nadu,8.7139,77.7567,26.1,81,0.0,1004.0,9.35,34.2,54,24.2,21.9,7,5,4,1,2026-04-03T04:05:10.686591+05:30
Vellore,Tamil Nadu,12.9165,79.1325,21.6,81,0.0,985.6,9.1,29.2,56,32.2,30.4,3,5,7,1,2026-04-03T04:05:10.686599+05:30
Erode,Tamil Nadu,11.341,77.7172,25.9,81,0.0,990.0,9.2,29.9,42,11.2,10.3,7,5,7,1,2026-04-03T04:05:10.686606+05:30
Kochi,Kerala,9.9312,76.2673,27.5,81,0.0,1009.2,9.25,21.2,73,14.9,13.3,7,0,4,1,2026-04-03T04:05:10.686613+05:30
Thiruvananthapuram,Kerala,8.5241,76.9366,27.8,82,0.0,1008.3,9.2,17.6,63,23.9,18.9,7,0,4,1,2026-04-03T04:05:10.686619+05:30
Kozhikode,Kerala,11.2588,75.7804,28.0,82,0.0,1008.3,9.15,24.8,59,21.7,17.9,7,0,4,1,2026-04-03T04:05:10.686626+05:30
Thrissur,Kerala,10.5276,76.2144,25.7,92,0.0,1007.7,9.2,29.9,68,19.8,17.9,7,5,4,1,2026-04-03T04:05:10.686634+05:30
Kannur,Kerala,11.8745,75.3704,27.0,85,0.0,1007.4,9.05,25.9,73,29.9,27.9,7,5,4,1,2026-04-03T04:05:10.686641+05:30
Patna,Bihar,25.5941,85.1376,24.9,66,0.0,999.6,8.25,33.8,73,32.9,28.2,3,5,7,1,2026-04-03T04:05:10.686648+05:30
Gaya,Bihar,24.7914,85.0002,25.9,57,0.0,993.5,8.3,34.6,74,32.6,25.6,4,5,7,1,2026-04-03T04:05:10.686655+05:30
Muzaffarpur,Bihar,26.1209,85.3647,22.8,64,0.0,999.4,8.0,31.3,71,30.5,24.4,3,5,7,0,2026-04-03T04:05:10.686662+05:30
Bhagalpur,Bihar,25.2425,87.0117,25.0,72,0.0,1000.0,8.3,25.9,64,25.8,18.9,7,5,4,1,2026-04-03T04:05:10.686669+05:30
Ranchi,Jharkhand,23.3441,85.3096,23.2,66,0.0,938.1,8.95,31.7,65,25.1,20.5,3,5,7,1,2026-04-03T04:05:10.686676+05:30
Jamshedpur,Jharkhand,22.8046,86.2029,25.5,80,0.0,990.8,8.75,23.4,100,54.4,43.3,7,5,7,1,2026-04-03T04:05:10.686682+05:30
Dhanbad,Jharkhand,23.7957,86.4304,26.2,63,0.0,979.5,8.7,21.6,150,78.0,74.0,7,5,7,1,2026-04-03T04:05:10.686689+05:30
Bokaro,Jharkhand,23.6693,86.1511,25.8,62,0.0,984.0,8.7,24.8,146,82.4,78.9,7,5,7,1,2026-04-03T04:05:10.686695+05:30
Bhubaneswar,Odisha,20.2961,85.8245,25.2,93,0.0,1002.8,8.95,28.1,51,10.2,8.8,7,5,4,1,2026-04-03T04:05:10.686702+05:30
Cuttack,Odisha,20.4625,85.8828,25.1,92,0.0,1004.8,9.0,35.3,51,10.2,8.8,7,5,4,1,2026-04-03T04:05:10.686708+05:30
Rourkela,Odisha,22.2604,84.8536,25.5,90,0.0,985.2,8.7,23.8,118,59.6,48.4,7,5,7,1,2026-04-03T04:05:10.686714+05:30
Raipur,Chhattisgarh,21.2514,81.6296,27.2,62,0.0,975.2,8.75,29.5,145,69.8,65.4,7,5,7,1,2026-04-03T04:05:10.686720+05:30
Bhilai,Chhattisgarh,21.1938,81.3509,26.7,63,0.0,975.6,8.75,22.7,130,54.7,49.8,7,5,7,1,2026-04-03T04:05:10.686726+05:30
Guwahati,Assam,26.1158,91.7086,23.5,91,0.0,1001.1,8.25,43.6,119,52.5,48.3,3,5,4,1,2026-04-03T04:05:10.686733+05:30
Agartala,Tripura,23.8315,91.2868,25.8,93,0.0,1006.8,8.45,26.3,104,11.5,10.2,7,5,4,1,2026-04-03T04:05:10.686739+05:30
Shillong,Meghalaya,25.5788,91.8933,15.2,88,0.0,856.1,8.65,51.5,104,49.7,42.0,3,10,7,0,2026-04-03T04:05:10.686746+05:30
Imphal,Manipur,24.817,93.9368,18.6,90,0.0,923.8,8.8,62.6,121,29.6,25.3,3,10,7,1,2026-04-03T04:05:10.686753+05:30
Aizawl,Mizoram,23.7271,92.7176,18.3,94,0.0,892.8,8.7,42.1,109,60.8,45.1,3,10,7,1,2026-04-03T04:05:10.686760+05:30
Kohima,Nagaland,25.6701,94.1077,16.4,82,0.0,855.0,8.75,84.6,101,43.7,35.0,3,10,7,0,2026-04-03T04:05:10.686767+05:30
Gangtok,Sikkim,27.3314,88.6138,15.6,86,0.0,837.1,8.6,21.6,84,38.1,30.4,3,10,7,0,2026-04-03T04:05:10.686773+05:30
Siliguri,West Bengal,26.7271,88.3953,22.4,59,0.0,993.2,8.25,20.2,145,83.4,66.1,0,5,7,0,2026-04-03T04:05:14.030543+05:30
Durgapur,West Bengal,23.5204,87.3119,26.9,72,0.0,994.5,8.65,17.6,152,100.8,88.9,7,5,7,1,2026-04-03T04:05:14.030572+05:30
Asansol,West Bengal,23.6739,86.9524,26.9,67,0.0,993.1,8.65,18.0,131,62.2,55.9,7,5,7,1,2026-04-03T04:05:14.030582+05:30
Pondicherry,Puducherry,11.9139,79.8145,22.7,95,0.0,1009.4,9.3,32.8,39,12.5,9.4,3,0,4,1,2026-04-03T04:05:14.030590+05:30
Port Blair,Andaman and Nicobar Islands,11.6234,92.7265,28.6,81,0.0,1006.4,9.25,25.6,36,13.9,7.3,7,5,4,1,2026-04-03T04:05:14.030598+05:30
Haridwar,Uttarakhand,29.9457,78.1642,20.4,61,0.0,974.3,5.6,41.4,60,20.4,17.6,3,5,3,0,2026-04-03T04:05:14.030605+05:30
Rishikesh,Uttarakhand,30.0869,78.2676,21.5,50,0.0,967.5,5.0,37.1,43,13.6,11.1,0,5,3,0,2026-04-03T04:05:14.030612+05:30
Nainital,Uttarakhand,29.3919,79.4542,20.8,29,0.0,807.7,5.8,38.2,52,14.8,11.3,0,5,3,0,2026-04-03T04:05:14.030619+05:30
Mussoorie,Uttarakhand,30.4599,78.0664,17.8,44,0.0,803.7,6.25,62.3,54,17.4,15.2,0,5,7,0,2026-04-03T04:05:14.030626+05:30
Dharamshala,Himachal Pradesh,32.219,76.3234,21.3,39,0.0,869.1,4.9,48.2,35,11.0,7.4,0,5,3,0,2026-04-03T04:05:14.030632+05:30
Dalhousie,Himachal Pradesh,32.5387,75.971,17.5,36,0.0,803.5,5.75,52.9,60,18.1,14.6,0,5,3,0,2026-04-03T04:05:14.030640+05:30
Patiala,Punjab,30.3398,76.3869,21.3,71,0.0,978.1,5.15,48.6,104,203.0,41.2,3,5,3,0,2026-04-03T04:05:14.030647+05:30
Bhatinda,Punjab,30.211,74.9455,20.6,88,0.0,984.7,5.8,42.8,92,83.1,36.3,3,5,3,1,2026-04-03T04:05:14.030653+05:30
Rohtak,Haryana,28.8955,76.6066,21.6,80,0.0,980.7,6.4,40.7,149,246.8,69.8,3,5,7,1,2026-04-03T04:05:14.030659+05:30
Panipat,Haryana,29.3909,76.9635,22.4,71,0.0,979.1,5.9,39.2,149,280.3,58.4,3,5,3,1,2026-04-03T04:05:14.030666+05:30
Mathura,Uttar Pradesh,27.4924,77.6737,24.1,67,0.0,985.9,6.55,39.6,240,349.2,71.0,3,5,7,1,2026-04-03T04:05:14.030672+05:30
Vrindavan,Uttar Pradesh,27.5823,77.7027,23.9,64,0.0,986.5,6.65,40.0,240,349.2,71.0,3,5,7,1,2026-04-03T04:05:14.030678+05:30
Ayodhya,Uttar Pradesh,26.7922,82.1998,23.4,64,0.0,994.3,5.8,25.9,68,47.1,20.9,3,5,3,1,2026-04-03T04:05:14.030684+05:30
Ratlam,Madhya Pradesh,23.3315,75.0367,22.8,65,0.0,955.0,8.15,36.0,68,30.3,27.0,3,5,7,0,2026-04-03T04:05:14.030691+05:30
Sagar,Madhya Pradesh,23.8388,78.7378,26.8,54,0.0,951.0,7.15,29.5,73,23.3,19.9,4,5,7,1,2026-04-03T04:05:14.030697+05:30
Satna,Madhya Pradesh,24.6005,80.8322,29.0,45,0.0,971.3,6.4,37.4,67,30.6,22.6,4,5,7,0,2026-04-03T04:05:14.030704+05:30
Akola,Maharashtra,20.7002,77.0082,24.1,84,0.0,976.4,8.6,31.7,90,35.4,31.9,3,5,7,1,2026-04-03T04:05:14.030711+05:30
Amravati,Maharashtra,20.9374,77.7796,24.2,83,0.0,968.8,8.65,37.8,85,33.5,30.5,3,5,7,1,2026-04-03T04:05:14.030718+05:30
Latur,Maharashtra,18.4088,76.5604,22.3,88,0.0,940.8,8.95,31.0,113,44.0,39.5,3,5,7,1,2026-04-03T04:05:14.030725+05:30
Nanded,Maharashtra,19.1383,77.3091,24.2,90,0.0,970.3,8.8,23.0,110,39.5,36.3,3,5,7,1,2026-04-03T04:05:14.030731+05:30
Gulbarga,Karnataka,17.3297,76.8343,25.9,68,0.0,959.7,8.6,41.4,84,43.9,40.6,7,5,7,1,2026-04-03T04:05:14.030737+05:30
Bidar,Karnataka,17.9104,77.5199,23.4,83,0.0,936.4,8.4,39.2,98,44.0,40.2,3,5,7,1,2026-04-03T04:05:14.030743+05:30
Hospet,Karnataka,15.2689,76.3909,26.0,80,0.0,956.5,9.1,37.1,82,30.6,29.2,7,5,7,1,2026-04-03T04:05:14.030749+05:30
Tirupur,Tamil Nadu,11.1085,77.3411,25.3,87,0.0,976.0,9.45,31.7,56,23.4,22.1,7,5,7,1,2026-04-03T04:05:14.030755+05:30
Alappuzha,Kerala,9.4981,76.3388,27.5,83,0.0,1009.2,9.2,19.1,72,21.8,18.0,7,0,4,1,2026-04-03T04:05:14.030761+05:30
Munnar,Kerala,10.0889,77.0595,19.4,93,0.0,856.4,9.75,30.2,65,24.8,23.9,3,10,7,1,2026-04-03T04:05:14.030768+05:30
Silchar,Assam,24.8333,92.7789,22.5,93,0.0,1006.2,8.5,29.2,151,47.7,39.6,3,5,4,1,2026-04-03T04:05:14.030774+05:30
Dibrugarh,Assam,27.4728,94.912,21.3,96,0.0,996.9,8.3,13.0,97,38.9,35.5,3,5,7,1,2026-04-03T04:05:14.030780+05:30
