city,state,latitude,longitude,temp,humidity,rain,pressure,uv_index,wind_gusts,aqi,pm10,pm2_5,no2,co,o3,so2,mosquito_risk,arthritis_risk,migraine_risk,frizz_risk,updated_at
Delhi,Delhi,28.6139,77.209,36.7,50,0.0,971.7,6.95,26.3,185,56.0,36.4,7.2,406.0,226.0,22.3,0,5,10,1,2026-07-05T16:35:24.902636+05:30
Mumbai,Maharashtra,19.076,72.8777,26.7,89,0.5,998.4,1.05,69.8,27,16.6,8.6,5.0,139.0,55.0,3.0,10,5,3,1,2026-07-05T16:35:24.902685+05:30
Bangalore,Karnataka,12.9716,77.5946,28.0,44,0.0,908.8,7.8,78.1,28,18.5,10.0,3.9,200.0,68.0,2.2,4,5,7,0,2026-07-05T16:35:24.902703+05:30
Hyderabad,Telangana,17.385,78.4867,27.2,71,0.0,946.3,3.55,62.3,27,8.1,5.4,4.2,179.0,60.0,2.3,7,5,3,1,2026-07-05T16:35:24.902713+05:30
Chennai,Tamil Nadu,13.0827,80.2707,36.2,42,0.0,1000.3,8.85,56.9,51,26.3,16.7,3.9,181.0,98.0,5.0,0,5,7,1,2026-07-05T16:35:24.902723+05:30
Kolkata,West Bengal,22.5726,88.3639,28.1,89,0.2,991.4,2.9,40.0,44,14.3,12.8,8.0,350.0,78.0,5.8,10,5,3,1,2026-07-05T16:35:24.902733+05:30
Pune,Maharashtra,18.5204,73.8567,23.8,92,0.2,938.5,0.35,63.4,22,1.8,1.7,6.0,137.0,43.0,3.0,6,5,3,1,2026-07-05T16:35:24.902740+05:30
Ahmedabad,Gujarat,23.0225,72.5714,32.1,72,0.0,989.6,5.65,23.8,74,80.8,33.2,2.0,228.0,126.0,6.5,3,5,3,1,2026-07-05T16:35:24.902747+05:30
Jaipur,Rajasthan,26.9124,75.7873,34.8,52,0.0,949.2,8.05,20.5,109,37.7,13.9,0.7,246.0,157.0,3.6,0,5,7,1,2026-07-05T16:35:24.902754+05:30
Lucknow,Uttar Pradesh,26.8467,80.9462,35.5,54,0.0,981.9,8.2,25.2,136,22.5,22.2,2.5,277.0,160.0,4.2,0,5,10,1,2026-07-05T16:35:24.902770+05:30
Kanpur,Uttar Pradesh,26.4499,80.3319,36.6,51,0.0,979.8,7.65,22.0,131,18.7,18.4,2.5,243.0,160.0,4.8,0,5,10,1,2026-07-05T16:35:24.902777+05:30
Chandigarh,Chandigarh,30.7333,76.7794,34.2,57,0.0,958.8,7.1,26.3,181,65.2,57.4,1.7,443.0,201.0,15.5,0,5,7,1,2026-07-05T16:35:24.902783+05:30
Srinagar,Jammu and Kashmir,34.0837,74.7973,32.2,32,0.0,837.6,9.05,25.2,135,21.9,15.1,3.2,222.0,141.0,2.5,0,5,7,0,2026-07-05T16:35:24.902790+05:30
Jammu,Jammu and Kashmir,32.7266,74.857,36.4,46,0.0,962.4,8.35,36.0,168,86.1,63.6,1.2,345.0,189.0,8.3,0,5,10,1,2026-07-05T16:35:24.902797+05:30
Amritsar,Punjab,31.634,74.8723,36.9,47,0.0,970.0,8.45,54.7,159,96.4,72.2,1.7,366.0,196.0,11.6,0,5,10,1,2026-07-05T16:35:24.902803+05:30
Ludhiana,Punjab,30.901,75.8573,34.9,60,0.0,968.0,7.9,31.7,175,99.0,72.2,1.9,445.0,196.0,9.0,0,5,7,1,2026-07-05T16:35:24.902809+05:30
Jalandhar,Punjab,31.326,75.5762,35.2,55,0.0,969.0,7.45,24.5,174,91.7,73.6,1.4,365.0,195.0,7.6,0,5,10,1,2026-07-05T16:35:24.902815+05:30
Dehradun,Uttarakhand,30.6284,78.0322,24.1,77,0.0,826.6,6.8,29.9,98,23.5,23.2,1.3,280.0,140.0,3.3,3,5,7,1,2026-07-05T16:35:24.902822+05:30
Shimla,Himachal Pradesh,31.1048,77.1734,19.0,92,0.1,780.6,6.9,33.1,116,36.8,34.7,4.1,305.0,154.0,9.6,6,10,7,1,2026-07-05T16:35:24.902828+05:30
Manali,Himachal Pradesh,32.2396,77.1887,23.9,86,0.1,815.5,9.6,33.8,82,12.3,12.2,11.6,194.0,144.0,0.9,6,5,7,1,2026-07-05T16:35:24.902837+05:30
Gurgaon,Haryana,28.4595,77.0266,36.7,48,0.0,970.2,5.65,28.1,154,124.8,37.5,4.3,355.0,179.0,13.5,0,5,6,1,2026-07-05T16:35:24.902845+05:30
Noida,Uttar Pradesh,28.5355,77.391,36.5,53,0.0,973.0,6.2,23.8,154,124.8,37.5,4.3,337.0,179.0,13.5,0,5,10,1,2026-07-05T16:35:24.902851+05:30
Ghaziabad,Uttar Pradesh,28.6692,77.4538,35.9,56,0.0,971.6,6.7,23.8,141,29.3,26.0,3.3,308.0,173.0,11.9,0,5,10,1,2026-07-05T16:35:24.902858+05:30
Faridabad,Haryana,28.4089,77.3178,37.4,46,0.0,972.3,5.9,25.9,154,124.8,37.5,4.3,330.0,179.0,13.5,0,5,6,1,2026-07-05T16:35:24.902865+05:30
Meerut,Uttar Pradesh,28.9845,77.7064,34.6,61,0.0,970.8,7.6,26.3,141,29.3,26.0,3.3,318.0,173.0,11.9,3,5,7,1,2026-07-05T16:35:24.902871+05:30
Agra,Uttar Pradesh,27.1767,78.0081,36.3,51,0.0,976.0,7.95,32.0,112,93.4,32.1,2.1,286.0,167.0,6.1,0,5,10,1,2026-07-05T16:35:24.902877+05:30
Varanasi,Uttar Pradesh,25.3176,82.9739,34.4,56,0.0,985.2,7.75,41.8,98,25.4,24.9,7.0,248.0,105.0,5.0,0,5,7,1,2026-07-05T16:35:24.902886+05:30
Prayagraj,Uttar Pradesh,25.4358,81.8463,34.6,59,0.1,983.5,8.6,31.7,127,21.5,21.0,3.2,246.0,143.0,3.9,3,5,7,1,2026-07-05T16:35:24.902892+05:30
Gorakhpur,Uttar Pradesh,26.7606,83.3732,32.3,73,0.0,986.2,8.55,42.5,120,20.5,20.3,3.6,244.0,137.0,3.5,3,5,7,1,2026-07-05T16:35:24.902899+05:30
Bareilly,Uttar Pradesh,28.367,79.4304,35.4,55,0.0,976.0,6.15,22.3,100,24.1,22.8,2.7,281.0,155.0,10.3,0,5,10,1,2026-07-05T16:35:24.902910+05:30
Aligarh,Uttar Pradesh,27.8974,78.088,35.5,54,0.0,974.4,6.8,25.9,134,67.3,27.9,3.0,284.0,168.0,11.5,0,5,10,1,2026-07-05T16:35:24.902916+05:30
Moradabad,Uttar Pradesh,28.8386,78.7733,35.6,56,0.0,973.0,7.0,29.2,114,24.3,24.0,3.1,273.0,168.0,11.7,0,5,10,1,2026-07-05T16:35:24.902922+05:30
Saharanpur,Uttar Pradesh,29.9637,77.546,34.3,60,0.0,965.4,6.8,24.5,155,45.1,43.4,3.1,343.0,175.0,11.9,0,5,7,1,2026-07-05T16:35:24.902929+05:30
Jhansi,Uttar Pradesh,25.4484,78.5685,36.4,48,0.0,966.1,7.35,27.4,98,21.4,20.5,2.8,201.0,143.0,7.5,0,5,10,1,2026-07-05T16:35:28.175671+05:30
Surat,Gujarat,21.1702,72.8311,30.1,78,0.0,994.2,5.3,26.6,76,44.4,34.0,28.0,146.0,77.0,65.7,3,5,3,1,2026-07-05T16:35:28.175708+05:30
Vadodara,Gujarat,22.3072,73.1812,32.7,67,0.0,991.5,6.4,22.7,61,50.5,25.5,1.8,231.0,131.0,5.1,3,5,7,1,2026-07-05T16:35:28.175719+05:30
Rajkot,Gujarat,22.3039,70.8022,29.5,74,0.0,983.2,2.25,39.2,71,81.5,28.8,2.5,108.0,80.0,3.4,7,5,3,1,2026-07-05T16:35:28.175728+05:30
Thane,Maharashtra,19.2183,72.9781,26.2,95,0.5,997.4,1.3,52.9,27,16.6,8.6,5.0,147.0,55.0,3.0,10,5,3,1,2026-07-05T16:35:28.175737+05:30
Nagpur,Maharashtra,21.1458,79.0882,27.0,91,0.3,962.9,5.9,36.7,48,11.1,10.5,9.4,208.0,114.0,22.8,10,5,3,1,2026-07-05T16:35:28.175745+05:30
Nashik,Maharashtra,19.9975,73.7898,24.7,88,0.1,934.6,5.95,45.4,24,1.6,1.5,5.4,128.0,51.0,2.9,6,5,3,1,2026-07-05T16:35:28.175752+05:30
Aurangabad,Maharashtra,19.8762,75.3433,25.4,91,0.3,933.7,6.5,47.2,30,2.8,2.7,4.0,129.0,68.0,5.6,10,5,7,1,2026-07-05T16:35:28.175760+05:30
Solapur,Maharashtra,17.6599,75.9064,26.5,76,0.0,950.2,2.85,78.5,26,2.0,1.9,2.8,100.0,53.0,1.2,7,5,3,1,2026-07-05T16:35:28.175767+05:30
Kolhapur,Maharashtra,16.705,74.2433,22.6,95,0.4,941.8,3.0,67.3,22,3.0,2.2,2.8,119.0,49.0,0.9,6,5,3,1,2026-07-05T16:35:28.175776+05:30
Goa,Goa,15.2993,74.124,24.9,97,0.2,994.9,7.15,36.7,46,25.9,11.4,1.2,131.0,57.0,0.6,6,5,7,1,2026-07-05T16:35:28.175783+05:30
Jodhpur,Rajasthan,26.2389,73.0243,36.4,48,0.0,971.2,8.4,19.8,124,112.7,37.7,0.3,199.0,112.0,2.6,0,5,10,1,2026-07-05T16:35:28.175790+05:30
Udaipur,Rajasthan,24.5854,73.7125,26.8,88,0.0,936.6,8.65,27.0,75,34.7,18.4,2.3,158.0,103.0,3.2,7,5,7,1,2026-07-05T16:35:28.175797+05:30
Kota,Rajasthan,25.2138,75.8648,34.4,60,0.0,967.4,7.8,21.6,87,30.0,23.4,1.9,233.0,157.0,11.9,0,5,7,1,2026-07-05T16:35:28.175804+05:30
Bikaner,Rajasthan,28.0229,73.3119,41.4,30,0.0,969.5,8.1,28.1,131,112.2,44.5,0.4,210.0,136.0,7.0,0,5,10,1,2026-07-05T16:35:28.175812+05:30
Ajmer,Rajasthan,26.4499,74.6399,34.1,56,0.1,944.2,8.35,21.2,95,53.3,22.6,0.2,190.0,126.0,2.4,3,5,7,1,2026-07-05T16:35:28.175819+05:30
Gwalior,Madhya Pradesh,26.2183,78.1828,35.4,56,0.0,971.4,7.3,30.2,105,25.1,22.6,1.9,218.0,153.0,4.0,0,5,10,1,2026-07-05T16:35:28.175826+05:30
Indore,Madhya Pradesh,22.7196,75.8577,28.7,78,0.0,937.4,8.15,28.8,61,18.7,17.1,1.5,279.0,119.0,2.3,7,5,7,1,2026-07-05T16:35:28.175833+05:30
Bhopal,Madhya Pradesh,23.2599,77.4126,31.8,65,0.0,942.8,8.5,27.4,73,21.4,20.6,1.3,318.0,123.0,3.3,3,5,7,1,2026-07-05T16:35:28.175840+05:30
Jabalpur,Madhya Pradesh,23.1815,79.9864,29.1,85,0.1,950.9,7.6,39.6,75,16.2,15.8,3.3,192.0,105.0,2.8,10,5,7,1,2026-07-05T16:35:28.175847+05:30
Ujjain,Madhya Pradesh,23.1765,75.7885,28.3,84,0.1,943.2,8.45,28.1,57,22.4,19.7,1.2,234.0,118.0,2.1,10,5,7,1,2026-07-05T16:35:28.175854+05:30
Visakhapatnam,Andhra Pradesh,17.6868,83.2185,31.3,64,0.0,991.9,3.6,72.0,31,8.7,7.4,9.5,205.0,57.0,18.7,3,5,3,1,2026-07-05T16:35:28.175861+05:30
Vijayawada,Andhra Pradesh,16.5062,80.648,32.5,59,0.0,994.1,3.8,46.1,29,13.5,9.3,6.2,125.0,56.0,4.4,0,5,3,1,2026-07-05T16:35:28.175868+05:30
Guntur,Andhra Pradesh,16.3067,80.4365,34.5,46,0.0,995.4,7.35,49.3,26,13.4,9.1,6.4,121.0,57.0,4.4,0,5,7,1,2026-07-05T16:35:28.175875+05:30
Nellore,Andhra Pradesh,14.4426,79.9865,36.8,34,0.0,998.3,3.15,56.2,30,19.3,10.3,2.2,122.0,77.0,2.1,0,5,6,1,2026-07-05T16:35:28.175883+05:30
Kurnool,Andhra Pradesh,15.8281,78.0373,31.6,48,0.0,970.9,6.55,72.4,29,15.5,7.7,1.3,107.0,66.0,1.5,0,5,7,1,2026-07-05T16:35:28.175891+05:30
Kakinada,Andhra Pradesh,16.9891,82.2475,30.6,67,0.0,997.9,3.0,82.8,30,10.5,7.4,3.6,150.0,69.0,4.2,3,5,3,1,2026-07-05T16:35:28.175898+05:30
Tirupati,Andhra Pradesh,13.6288,79.4192,35.3,36,0.0,984.8,7.65,63.7,36,20.0,10.1,1.7,125.0,78.0,1.2,0,5,10,1,2026-07-05T16:35:28.175905+05:30
Warangal,Telangana,17.9689,79.5941,27.7,81,0.2,970.8,1.1,57.2,26,8.4,5.7,3.3,128.0,64.0,2.6,10,5,3,1,2026-07-05T16:35:28.175911+05:30
Nizamabad,Telangana,18.6725,78.0941,25.9,87,0.2,956.6,1.3,50.8,27,2.6,2.6,2.4,117.0,59.0,1.6,10,5,3,1,2026-07-05T16:35:28.175917+05:30
Mysore,Karnataka,12.2958,76.6396,26.4,63,0.0,926.2,8.3,67.0,27,18.3,9.5,1.8,107.0,62.0,1.3,7,5,7,1,2026-07-05T16:35:28.175924+05:30
Mangalore,Karnataka,12.9141,74.856,28.6,77,0.0,1005.2,5.15,60.5,52,25.7,14.2,1.0,98.0,54.0,0.9,7,5,0,1,2026-07-05T16:35:28.175931+05:30
Hubli-Dharwad,Karnataka,15.3647,75.124,22.7,92,0.1,936.7,3.4,71.6,24,4.3,2.7,2.4,108.0,52.0,0.7,6,5,3,1,2026-07-05T16:35:28.175937+05:30
Belgaum,Karnataka,15.8497,74.4977,21.5,96,0.1,920.6,3.45,63.4,23,2.3,1.7,3.0,107.0,48.0,0.7,6,5,3,1,2026-07-05T16:35:31.456258+05:30
Coimbatore,Tamil Nadu,11.0168,76.9558,27.7,67,0.0,959.7,8.3,62.6,26,17.3,8.0,1.7,132.0,60.0,1.5,7,5,7,1,2026-07-05T16:35:31.456296+05:30
Madurai,Tamil Nadu,9.9252,78.1198,34.8,38,0.0,989.1,8.15,70.2,45,24.6,10.6,1.4,115.0,81.0,1.5,0,5,7,1,2026-07-05T16:35:31.456308+05:30
Trichy,Tamil Nadu,10.7905,78.7047,35.3,38,0.0,995.4,8.75,74.5,34,21.7,10.2,1.5,105.0,70.0,1.4,0,5,10,1,2026-07-05T16:35:31.456317+05:30
Salem,Tamil Nadu,11.6643,78.146,30.9,62,0.3,973.6,6.65,44.3,43,14.8,7.9,2.1,134.0,81.0,3.7,6,5,7,1,2026-07-05T16:35:31.456325+05:30
Tirunelveli,Tamil Nadu,8.7139,77.7567,33.3,47,0.0,1000.8,8.45,54.0,33,25.0,11.8,1.2,102.0,64.0,1.1,0,5,4,1,2026-07-05T16:35:31.456352+05:30
Vellore,Tamil Nadu,12.9165,79.1325,35.6,34,0.0,978.8,8.3,60.8,33,18.0,9.6,2.0,109.0,81.0,1.6,0,5,10,1,2026-07-05T16:35:31.456360+05:30
Erode,Tamil Nadu,11.341,77.7172,32.5,45,0.0,985.3,8.6,62.3,33,13.4,7.1,2.0,120.0,68.0,1.6,0,5,7,1,2026-07-05T16:35:31.456368+05:30
Kochi,Kerala,9.9312,76.2673,28.7,79,0.0,1008.2,5.55,43.6,54,26.7,13.2,2.4,101.0,56.0,2.0,7,0,0,1,2026-07-05T16:35:31.456376+05:30
Thiruvananthapuram,Kerala,8.5241,76.9366,28.1,78,0.0,1007.7,8.1,50.4,47,33.3,14.5,1.9,97.0,62.0,0.8,7,5,4,1,2026-07-05T16:35:31.456382+05:30
Kozhikode,Kerala,11.2588,75.7804,28.2,77,0.0,1007.1,8.5,46.4,47,27.5,12.8,0.5,99.0,58.0,0.7,7,5,4,1,2026-07-05T16:35:31.456388+05:30
Thrissur,Kerala,10.5276,76.2144,28.3,80,0.0,1006.5,7.55,49.0,51,24.9,12.2,1.6,99.0,53.0,1.3,7,5,4,1,2026-07-05T16:35:31.456396+05:30
Kannur,Kerala,11.8745,75.3704,27.9,77,0.1,1006.3,7.7,52.2,49,26.9,13.7,0.9,97.0,55.0,0.9,10,5,4,1,2026-07-05T16:35:31.456403+05:30
Patna,Bihar,25.5941,85.1376,31.4,74,0.1,988.3,8.05,55.1,100,10.9,10.7,5.6,210.0,112.0,5.1,6,5,7,1,2026-07-05T16:35:31.456409+05:30
Gaya,Bihar,24.7914,85.0002,29.4,85,0.1,981.6,7.5,52.2,74,10.0,9.6,3.7,212.0,103.0,4.3,10,5,7,1,2026-07-05T16:35:31.456416+05:30
Muzaffarpur,Bihar,26.1209,85.3647,32.7,69,0.0,988.5,8.5,53.3,101,11.1,10.9,5.9,221.0,109.0,3.9,3,5,7,1,2026-07-05T16:35:31.456423+05:30
Bhagalpur,Bihar,25.2425,87.0117,34.0,54,0.0,988.4,8.6,58.3,60,7.5,7.3,3.8,178.0,105.0,5.7,0,5,7,1,2026-07-05T16:35:31.456429+05:30
Ranchi,Jharkhand,23.3441,85.3096,25.9,87,0.1,925.0,5.65,51.1,56,13.6,13.4,6.3,387.0,100.0,14.6,10,5,3,1,2026-07-05T16:35:31.456436+05:30
Jamshedpur,Jharkhand,22.8046,86.2029,28.4,85,0.1,976.2,7.0,46.4,51,10.5,10.4,7.8,252.0,79.0,11.2,10,5,7,1,2026-07-05T16:35:31.456442+05:30
Dhanbad,Jharkhand,23.7957,86.4304,28.4,86,0.1,966.3,6.9,55.8,67,16.2,16.2,14.9,224.0,87.0,38.0,10,5,7,1,2026-07-05T16:35:31.456449+05:30
Bokaro,Jharkhand,23.6693,86.1511,28.4,85,0.1,970.1,5.35,51.1,66,16.2,16.1,14.3,233.0,82.0,37.3,10,5,3,1,2026-07-05T16:35:31.456456+05:30
Bhubaneswar,Odisha,20.2961,85.8245,27.9,90,0.2,987.4,2.35,41.0,47,5.5,5.2,4.6,227.0,81.0,4.3,10,5,3,1,2026-07-05T16:35:31.456462+05:30
Cuttack,Odisha,20.4625,85.8828,28.7,83,0.0,989.0,2.45,36.0,47,5.5,5.2,4.6,230.0,81.0,4.3,7,5,3,1,2026-07-05T16:35:31.456469+05:30
Rourkela,Odisha,22.2604,84.8536,26.9,92,0.2,971.2,6.25,46.1,53,13.3,13.2,6.6,249.0,94.0,8.9,10,5,7,1,2026-07-05T16:35:31.456475+05:30
Raipur,Chhattisgarh,21.2514,81.6296,27.4,92,0.1,963.1,5.7,46.1,71,19.2,19.0,20.2,389.0,103.0,41.7,10,5,3,1,2026-07-05T16:35:31.456482+05:30
Bhilai,Chhattisgarh,21.1938,81.3509,27.6,88,0.2,963.7,5.7,47.2,64,16.9,16.7,13.8,674.0,111.0,30.1,10,5,3,1,2026-07-05T16:35:31.456489+05:30
Guwahati,Assam,26.1158,91.7086,33.1,69,0.0,990.3,8.55,40.0,41,6.8,6.6,3.0,216.0,67.0,0.9,3,5,7,1,2026-07-05T16:35:31.456496+05:30
Agartala,Tripura,23.8315,91.2868,28.0,90,0.1,995.9,1.9,53.6,37,3.5,3.4,3.5,161.0,65.0,1.0,10,5,3,1,2026-07-05T16:35:31.456502+05:30
Shillong,Meghalaya,25.5788,91.8933,24.2,78,0.0,852.0,8.2,42.5,32,3.9,3.8,3.1,144.0,59.0,0.9,3,5,7,1,2026-07-05T16:35:31.456509+05:30
Imphal,Manipur,24.817,93.9368,26.5,81,0.1,916.9,6.15,32.8,28,2.6,2.5,1.7,164.0,59.0,0.9,10,5,7,1,2026-07-05T16:35:31.456516+05:30
Aizawl,Mizoram,23.7271,92.7176,22.6,95,0.2,885.3,1.75,32.8,27,3.8,3.8,3.4,125.0,40.0,0.5,6,5,3,1,2026-07-05T16:35:31.456522+05:30
Kohima,Nagaland,25.6701,94.1077,25.9,72,0.0,850.5,8.95,31.7,29,1.5,1.4,1.3,158.0,58.0,0.4,7,5,7,1,2026-07-05T16:35:31.456529+05:30
Gangtok,Sikkim,27.3314,88.6138,21.2,93,0.1,832.5,8.2,28.8,48,3.5,3.5,2.8,179.0,99.0,0.7,6,5,7,1,2026-07-05T16:35:31.456535+05:30
Siliguri,West Bengal,26.7271,88.3953,28.4,94,0.1,983.2,8.75,42.8,65,5.7,5.6,3.3,263.0,111.0,1.5,10,5,7,1,2026-07-05T16:35:34.730260+05:30
Durgapur,West Bengal,23.5204,87.3119,28.1,88,0.2,980.7,6.7,51.5,58,10.7,10.5,10.8,233.0,80.0,17.6,10,5,7,1,2026-07-05T16:35:34.730298+05:30
Asansol,West Bengal,23.6739,86.9524,29.0,79,0.0,979.3,6.8,53.3,57,12.1,12.0,11.7,238.0,87.0,18.9,7,5,7,1,2026-07-05T16:35:34.730309+05:30
Pondicherry,Puducherry,11.9139,79.8145,35.2,43,0.0,1002.4,8.65,50.0,50,25.9,16.2,7.6,141.0,89.0,9.2,0,5,7,1,2026-07-05T16:35:34.730319+05:30
Port Blair,Andaman and Nicobar Islands,11.6234,92.7265,29.4,77,0.0,1005.3,6.4,47.9,52,19.7,11.5,0.3,102.0,49.0,0.5,7,5,4,1,2026-07-05T16:35:34.730345+05:30
Haridwar,Uttarakhand,29.9457,78.1642,31.5,81,0.0,964.1,6.95,22.7,116,32.2,31.7,1.8,316.0,162.0,6.0,3,5,7,1,2026-07-05T16:35:34.730353+05:30
Rishikesh,Uttarakhand,30.0869,78.2676,31.7,70,0.0,957.3,6.95,23.8,98,25.6,25.2,2.0,303.0,135.0,4.0,3,5,7,1,2026-07-05T16:35:34.730361+05:30
Nainital,Uttarakhand,29.3919,79.4542,20.1,94,0.1,801.5,6.35,26.3,69,13.7,13.3,2.3,224.0,117.0,1.9,6,5,7,1,2026-07-05T16:35:34.730368+05:30
Mussoorie,Uttarakhand,30.4599,78.0664,22.9,71,0.1,800.0,6.2,35.3,129,30.7,30.3,2.1,269.0,154.0,6.2,6,5,7,1,2026-07-05T16:35:34.730375+05:30
Dharamshala,Himachal Pradesh,32.219,76.3234,25.8,81,0.0,863.7,8.25,33.1,66,11.4,10.3,1.1,269.0,119.0,0.4,7,5,7,1,2026-07-05T16:35:34.730383+05:30
Dalhousie,Himachal Pradesh,32.5387,75.971,23.4,79,0.1,802.0,8.0,25.9,136,33.6,27.7,1.0,292.0,175.0,2.7,6,5,7,1,2026-07-05T16:35:34.730391+05:30
Patiala,Punjab,30.3398,76.3869,34.3,60,0.0,967.6,7.05,18.7,172,94.8,64.5,2.1,357.0,189.0,13.0,0,5,7,1,2026-07-05T16:35:34.730398+05:30
Bhatinda,Punjab,30.211,74.9455,37.4,47,0.0,972.6,7.45,23.0,171,127.1,64.3,3.1,319.0,213.0,18.2,0,5,10,1,2026-07-05T16:35:34.730404+05:30
Rohtak,Haryana,28.8955,76.6066,36.0,55,0.0,970.5,7.0,18.0,178,66.1,39.2,4.1,335.0,223.0,14.1,0,5,10,1,2026-07-05T16:35:34.730411+05:30
Panipat,Haryana,29.3909,76.9635,34.7,58,0.0,969.6,6.95,18.0,162,105.2,57.9,6.5,324.0,219.0,32.1,0,5,7,1,2026-07-05T16:35:34.730418+05:30
Mathura,Uttar Pradesh,27.4924,77.6737,36.3,51,0.0,975.3,6.8,32.0,116,155.5,37.1,1.8,272.0,161.0,5.4,0,5,10,1,2026-07-05T16:35:34.730425+05:30
Vrindavan,Uttar Pradesh,27.5823,77.7027,36.3,49,0.0,975.7,6.7,30.6,116,155.5,37.1,1.8,272.0,161.0,5.4,0,5,10,1,2026-07-05T16:35:34.730431+05:30
Ayodhya,Uttar Pradesh,26.7922,82.1998,34.1,61,0.0,984.1,8.05,41.0,126,21.2,20.8,2.3,247.0,144.0,3.1,3,5,7,1,2026-07-05T16:35:34.730438+05:30
Ratlam,Madhya Pradesh,23.3315,75.0367,30.4,70,0.0,943.8,8.45,25.6,51,21.0,18.6,1.1,207.0,117.0,2.7,3,5,7,1,2026-07-05T16:35:34.730445+05:30
Sagar,Madhya Pradesh,23.8388,78.7378,31.2,66,0.0,939.7,7.65,21.2,77,15.9,15.5,1.7,173.0,112.0,2.2,3,5,7,1,2026-07-05T16:35:34.730452+05:30
Satna,Madhya Pradesh,24.6005,80.8322,34.4,54,0.0,959.6,8.25,41.0,89,17.5,17.2,1.5,175.0,155.0,3.9,0,5,7,1,2026-07-05T16:35:34.730458+05:30
Akola,Maharashtra,20.7002,77.0082,32.0,63,0.0,964.3,4.55,36.0,39,5.4,5.1,2.7,139.0,85.0,4.3,3,5,3,1,2026-07-05T16:35:34.730465+05:30
Amravati,Maharashtra,20.9374,77.7796,28.6,78,0.1,957.4,4.65,35.3,40,6.3,6.0,2.7,169.0,90.0,5.7,10,5,3,1,2026-07-05T16:35:34.730472+05:30
Latur,Maharashtra,18.4088,76.5604,24.2,91,0.2,931.5,1.25,56.2,24,2.2,2.1,2.6,119.0,51.0,1.0,6,5,3,1,2026-07-05T16:35:34.730480+05:30
Nanded,Maharashtra,19.1383,77.3091,28.2,74,0.0,959.7,6.7,48.2,26,2.6,2.6,2.8,122.0,62.0,3.4,7,5,7,1,2026-07-05T16:35:34.730486+05:30
Gulbarga,Karnataka,17.3297,76.8343,28.4,63,0.0,951.9,4.9,69.8,27,2.5,1.9,3.6,107.0,54.0,1.5,7,5,3,1,2026-07-05T16:35:34.730493+05:30
Bidar,Karnataka,17.9104,77.5199,24.6,85,0.1,928.0,3.0,55.8,25,2.6,2.3,3.3,113.0,54.0,1.3,6,5,3,1,2026-07-05T16:35:34.730499+05:30
Hospet,Karnataka,15.2689,76.3909,27.7,63,0.1,951.4,2.75,78.1,26,9.4,5.6,1.8,103.0,57.0,1.3,10,5,3,1,2026-07-05T16:35:34.730506+05:30
Tirupur,Tamil Nadu,11.1085,77.3411,30.4,57,0.0,972.0,7.55,73.4,35,14.8,7.7,1.8,118.0,68.0,1.8,0,5,7,1,2026-07-05T16:35:34.730512+05:30
Alappuzha,Kerala,9.4981,76.3388,29.0,77,0.0,1008.3,8.3,43.9,52,27.6,12.9,2.8,89.0,56.0,1.4,7,0,4,1,2026-07-05T16:35:34.730518+05:30
Munnar,Kerala,10.0889,77.0595,17.0,90,0.1,855.5,4.05,58.3,25,18.0,8.4,2.1,103.0,56.0,1.3,6,10,3,0,2026-07-05T16:35:34.730525+05:30
Silchar,Assam,24.8333,92.7789,30.3,86,0.0,994.9,8.95,36.7,43,6.0,5.9,3.0,149.0,63.0,1.9,3,5,7,1,2026-07-05T16:35:34.730533+05:30
Dibrugarh,Assam,27.4728,94.912,34.9,65,0.0,984.8,8.95,26.3,42,5.9,5.8,3.6,191.0,71.0,1.0,3,5,7,1,2026-07-05T16:35:34.730540+05:30
