city,state,latitude,longitude,temp,humidity,rain,pressure,uv_index,wind_gusts,aqi,pm10,pm2_5,no2,co,o3,so2,mosquito_risk,arthritis_risk,migraine_risk,frizz_risk,updated_at
Delhi,Delhi,28.6139,77.209,30.9,43,0.0,977.5,7.8,38.2,187,482.4,134.1,93.1,596.0,0.0,35.8,0,5,7,1,2026-06-07T03:35:04.416120+05:30
Mumbai,Maharashtra,19.076,72.8777,30.5,70,0.0,1005.6,7.55,40.0,72,32.2,13.9,7.6,149.0,44.0,7.7,3,5,4,1,2026-06-07T03:35:04.416158+05:30
Bangalore,Karnataka,12.9716,77.5946,21.1,93,0.0,909.9,7.35,37.4,20,4.9,4.8,13.3,204.0,28.0,4.7,3,5,7,1,2026-06-07T03:35:04.416171+05:30
Hyderabad,Telangana,17.385,78.4867,26.2,77,0.0,950.6,7.5,38.5,93,20.4,16.5,6.9,207.0,79.0,4.5,7,5,7,1,2026-06-07T03:35:04.416178+05:30
Chennai,Tamil Nadu,13.0827,80.2707,31.2,53,0.0,1004.2,7.65,46.4,53,15.3,13.9,19.5,244.0,37.0,9.8,0,5,4,1,2026-06-07T03:35:04.416185+05:30
Kolkata,West Bengal,22.5726,88.3639,27.6,97,0.0,1000.7,8.7,28.4,118,51.1,46.3,21.4,403.0,59.0,8.7,7,5,4,1,2026-06-07T03:35:04.416191+05:30
Pune,Maharashtra,18.5204,73.8567,24.8,88,0.0,945.7,8.35,49.3,51,16.0,8.9,7.9,116.0,39.0,6.9,3,5,7,1,2026-06-07T03:35:04.416196+05:30
Ahmedabad,Gujarat,23.0225,72.5714,31.0,67,0.0,998.6,8.05,40.3,87,33.4,17.8,5.1,121.0,49.0,4.0,3,5,7,1,2026-06-07T03:35:04.416201+05:30
Jaipur,Rajasthan,26.9124,75.7873,29.5,48,0.0,955.3,8.2,34.9,127,160.2,47.6,5.3,223.0,58.0,2.9,4,5,7,1,2026-06-07T03:35:04.416210+05:30
Lucknow,Uttar Pradesh,26.8467,80.9462,29.0,68,0.0,988.5,8.35,35.6,156,70.8,63.3,31.9,477.0,39.0,11.3,7,5,7,1,2026-06-07T03:35:04.416215+05:30
Kanpur,Uttar Pradesh,26.4499,80.3319,30.7,59,0.0,986.8,8.3,34.2,192,146.2,69.8,34.3,442.0,35.0,9.6,0,5,7,1,2026-06-07T03:35:04.416220+05:30
Chandigarh,Chandigarh,30.7333,76.7794,23.7,59,0.0,962.4,7.8,27.0,91,32.2,27.5,32.9,578.0,30.0,6.6,0,5,7,0,2026-06-07T03:35:04.416238+05:30
Srinagar,Jammu and Kashmir,34.0837,74.7973,12.8,100,0.0,838.5,9.0,29.9,68,34.8,32.8,27.0,421.0,13.0,1.2,3,10,7,0,2026-06-07T03:35:04.416244+05:30
Jammu,Jammu and Kashmir,32.7266,74.857,22.4,68,0.0,966.3,8.6,30.2,74,23.5,22.0,23.5,249.0,30.0,1.5,3,5,7,1,2026-06-07T03:35:04.416249+05:30
Amritsar,Punjab,31.634,74.8723,27.9,43,0.0,974.7,8.5,25.9,135,86.1,78.5,60.0,822.0,9.0,8.2,4,5,7,0,2026-06-07T03:35:04.416254+05:30
Ludhiana,Punjab,30.901,75.8573,29.2,44,0.0,972.9,8.05,30.2,146,81.0,69.4,53.1,1047.0,29.0,10.0,4,5,7,0,2026-06-07T03:35:04.416259+05:30
Jalandhar,Punjab,31.326,75.5762,28.9,42,0.0,973.8,8.25,28.4,134,71.7,65.9,57.3,783.0,18.0,8.5,4,5,7,0,2026-06-07T03:35:04.416263+05:30
Dehradun,Uttarakhand,30.6284,78.0322,14.4,81,0.0,826.0,8.25,41.8,57,14.1,11.5,26.5,221.0,8.0,0.1,3,10,7,0,2026-06-07T03:35:04.416268+05:30
Shimla,Himachal Pradesh,31.1048,77.1734,11.9,58,0.0,779.5,8.35,39.2,57,18.9,15.0,24.9,208.0,25.0,0.8,0,5,7,0,2026-06-07T03:35:04.416275+05:30
Manali,Himachal Pradesh,32.2396,77.1887,12.1,63,0.0,813.7,9.3,35.3,38,5.0,4.4,13.7,218.0,129.0,0.0,3,5,7,0,2026-06-07T03:35:04.416280+05:30
Gurgaon,Haryana,28.4595,77.0266,29.2,50,0.0,975.8,7.9,29.9,289,349.2,127.1,85.3,408.0,0.0,28.9,4,5,7,1,2026-06-07T03:35:04.416287+05:30
Noida,Uttar Pradesh,28.5355,77.391,29.4,51,0.0,978.7,7.85,33.8,289,349.2,127.1,85.3,571.0,0.0,28.9,4,5,7,1,2026-06-07T03:35:04.416292+05:30
Ghaziabad,Uttar Pradesh,28.6692,77.4538,29.4,52,0.0,977.0,7.8,29.5,175,446.1,135.5,83.2,1050.0,2.0,26.3,4,5,7,1,2026-06-07T03:35:04.416297+05:30
Faridabad,Haryana,28.4089,77.3178,30.5,46,0.0,978.2,7.85,36.0,289,349.2,127.1,85.3,475.0,0.0,28.9,0,5,7,1,2026-06-07T03:35:04.416302+05:30
Meerut,Uttar Pradesh,28.9845,77.7064,28.1,58,0.0,975.8,7.7,31.7,175,446.1,135.5,83.2,765.0,2.0,26.3,4,5,7,1,2026-06-07T03:35:04.416307+05:30
Agra,Uttar Pradesh,27.1767,78.0081,29.1,46,0.0,982.4,8.15,33.1,340,359.5,111.3,70.9,660.0,1.0,16.1,4,5,7,1,2026-06-07T03:35:04.416312+05:30
Varanasi,Uttar Pradesh,25.3176,82.9739,28.9,69,0.0,992.4,8.8,36.0,157,84.8,69.8,33.2,1053.0,27.0,11.5,7,5,7,1,2026-06-07T03:35:04.416317+05:30
Prayagraj,Uttar Pradesh,25.4358,81.8463,30.0,60,0.0,990.5,8.7,37.4,157,122.5,81.0,46.6,472.0,22.0,16.7,4,5,7,1,2026-06-07T03:35:04.416322+05:30
Gorakhpur,Uttar Pradesh,26.7606,83.3732,27.2,77,0.0,992.8,8.7,24.8,158,76.1,65.7,23.3,572.0,49.0,9.0,7,5,7,1,2026-06-07T03:35:04.416329+05:30
Bareilly,Uttar Pradesh,28.367,79.4304,26.6,71,0.0,981.9,8.1,33.5,141,51.8,42.8,23.8,792.0,45.0,3.3,7,5,7,1,2026-06-07T03:35:04.416333+05:30
Aligarh,Uttar Pradesh,27.8974,78.088,27.5,62,0.0,980.0,7.95,25.9,243,366.0,125.7,82.2,730.0,0.0,17.3,7,5,7,1,2026-06-07T03:35:04.416338+05:30
Moradabad,Uttar Pradesh,28.8386,78.7733,28.4,53,0.0,978.8,7.95,37.8,163,113.9,83.1,52.5,936.0,21.0,13.3,4,5,7,1,2026-06-07T03:35:04.416343+05:30
Saharanpur,Uttar Pradesh,29.9637,77.546,25.0,69,0.0,970.3,7.5,28.8,139,111.5,73.3,50.8,548.0,20.0,12.2,7,5,7,1,2026-06-07T03:35:04.416348+05:30
Jhansi,Uttar Pradesh,25.4484,78.5685,28.5,56,0.0,973.2,8.5,40.7,78,50.4,28.6,11.8,183.0,35.0,2.8,4,5,7,1,2026-06-07T03:35:07.750635+05:30
Surat,Gujarat,21.1702,72.8311,29.5,85,0.0,1003.3,7.15,45.7,85,41.4,19.7,15.6,263.0,34.0,26.9,7,5,4,1,2026-06-07T03:35:07.750664+05:30
Vadodara,Gujarat,22.3072,73.1812,30.4,76,0.0,1000.7,7.75,45.4,87,26.9,16.0,11.4,137.0,35.0,12.5,3,5,4,1,2026-06-07T03:35:07.750672+05:30
Rajkot,Gujarat,22.3039,70.8022,28.1,80,0.0,990.9,6.75,47.2,76,31.8,14.2,4.3,106.0,45.0,4.3,7,5,7,1,2026-06-07T03:35:07.750678+05:30
Thane,Maharashtra,19.2183,72.9781,30.1,72,0.0,1005.0,7.6,37.8,72,32.2,13.9,7.6,149.0,44.0,7.7,3,5,4,1,2026-06-07T03:35:07.750685+05:30
Nagpur,Maharashtra,21.1458,79.0882,31.5,43,0.0,969.3,8.9,47.2,72,50.5,30.7,14.2,228.0,56.0,6.1,0,5,7,1,2026-06-07T03:35:07.750690+05:30
Nashik,Maharashtra,19.9975,73.7898,24.6,87,0.0,943.1,8.05,40.3,61,27.4,13.3,8.4,122.0,38.0,7.3,3,5,7,1,2026-06-07T03:35:07.750695+05:30
Aurangabad,Maharashtra,19.8762,75.3433,27.1,67,0.0,941.6,8.95,44.3,65,28.5,16.1,8.0,131.0,43.0,6.8,7,5,7,1,2026-06-07T03:35:07.750701+05:30
Solapur,Maharashtra,17.6599,75.9064,27.8,70,0.0,954.9,8.8,38.9,58,11.6,8.8,9.3,156.0,38.0,2.5,7,5,7,1,2026-06-07T03:35:07.750707+05:30
Kolhapur,Maharashtra,16.705,74.2433,23.9,90,0.0,946.1,3.85,45.4,37,7.0,4.7,3.5,107.0,43.0,0.8,3,5,3,1,2026-06-07T03:35:07.750712+05:30
Goa,Goa,15.2993,74.124,25.2,99,0.1,996.7,1.45,26.3,35,21.0,14.2,5.2,183.0,45.0,1.0,10,5,3,1,2026-06-07T03:35:07.750718+05:30
Jodhpur,Rajasthan,26.2389,73.0243,32.3,51,0.0,978.0,8.4,39.6,128,109.4,34.7,5.7,133.0,53.0,2.0,0,5,7,1,2026-06-07T03:35:07.750723+05:30
Udaipur,Rajasthan,24.5854,73.7125,28.2,59,0.0,943.0,8.8,34.6,92,46.6,30.2,9.3,157.0,51.0,10.4,4,5,7,1,2026-06-07T03:35:07.750729+05:30
Kota,Rajasthan,25.2138,75.8648,30.5,55,0.0,974.3,8.4,33.1,99,60.8,31.9,6.4,171.0,61.0,3.7,0,5,7,1,2026-06-07T03:35:07.750734+05:30
Bikaner,Rajasthan,28.0229,73.3119,32.2,46,0.0,975.9,8.45,36.7,108,98.7,33.5,1.5,125.0,76.0,2.3,0,5,7,1,2026-06-07T03:35:07.750740+05:30
Ajmer,Rajasthan,26.4499,74.6399,29.2,55,0.0,950.4,8.35,43.2,104,80.1,30.7,6.5,172.0,53.0,2.5,4,5,7,1,2026-06-07T03:35:07.750745+05:30
Gwalior,Madhya Pradesh,26.2183,78.1828,29.3,53,0.0,978.2,8.3,34.2,109,94.1,39.9,20.9,187.0,28.0,5.3,4,5,7,1,2026-06-07T03:35:07.750751+05:30
Indore,Madhya Pradesh,22.7196,75.8577,27.2,68,0.0,945.2,8.65,35.6,93,53.0,35.3,11.1,247.0,60.0,9.7,7,5,7,1,2026-06-07T03:35:07.750756+05:30
Bhopal,Madhya Pradesh,23.2599,77.4126,27.7,62,0.0,950.0,8.7,30.6,88,45.8,28.0,7.0,216.0,66.0,4.5,7,5,7,1,2026-06-07T03:35:07.750760+05:30
Jabalpur,Madhya Pradesh,23.1815,79.9864,28.1,57,0.0,957.7,8.15,34.6,108,101.5,49.6,34.1,246.0,33.0,6.7,4,5,7,1,2026-06-07T03:35:07.750766+05:30
Ujjain,Madhya Pradesh,23.1765,75.7885,27.2,70,0.0,950.7,8.6,35.6,88,51.9,32.7,5.0,295.0,72.0,9.5,7,5,7,1,2026-06-07T03:35:07.750771+05:30
Visakhapatnam,Andhra Pradesh,17.6868,83.2185,29.9,80,0.0,999.0,8.1,42.1,104,27.8,22.5,12.9,314.0,87.0,25.1,7,5,7,1,2026-06-07T03:35:07.750776+05:30
Vijayawada,Andhra Pradesh,16.5062,80.648,31.4,61,0.0,997.9,8.3,36.0,84,26.5,22.2,7.3,229.0,87.0,4.0,3,5,7,1,2026-06-07T03:35:07.750782+05:30
Guntur,Andhra Pradesh,16.3067,80.4365,30.4,59,0.0,999.2,8.15,32.4,84,30.2,24.9,8.1,212.0,80.0,3.4,0,5,7,1,2026-06-07T03:35:07.750787+05:30
Nellore,Andhra Pradesh,14.4426,79.9865,29.0,68,0.0,1002.6,7.55,39.2,54,12.5,10.8,7.1,160.0,73.0,4.1,7,5,4,1,2026-06-07T03:35:07.750793+05:30
Kurnool,Andhra Pradesh,15.8281,78.0373,25.1,93,0.1,975.1,8.45,38.9,68,20.0,15.5,11.2,182.0,59.0,2.0,10,5,7,1,2026-06-07T03:35:07.750799+05:30
Kakinada,Andhra Pradesh,16.9891,82.2475,29.7,79,0.0,1003.1,8.15,38.9,74,23.9,17.6,2.6,214.0,115.0,4.2,7,5,4,1,2026-06-07T03:35:07.750804+05:30
Tirupati,Andhra Pradesh,13.6288,79.4192,28.0,66,0.0,988.3,8.75,35.3,34,8.1,7.5,14.2,159.0,32.0,1.5,7,5,7,1,2026-06-07T03:35:07.750809+05:30
Warangal,Telangana,17.9689,79.5941,30.6,49,0.0,974.4,8.75,36.0,100,38.3,29.3,13.7,236.0,63.0,4.6,0,5,7,1,2026-06-07T03:35:07.750815+05:30
Nizamabad,Telangana,18.6725,78.0941,29.8,57,0.0,961.2,8.65,38.5,86,41.1,27.5,12.5,249.0,62.0,3.7,4,5,7,1,2026-06-07T03:35:07.750820+05:30
Mysore,Karnataka,12.2958,76.6396,21.2,98,0.4,927.0,6.9,36.0,18,2.8,2.7,6.8,156.0,37.0,1.3,6,5,7,1,2026-06-07T03:35:07.750825+05:30
Mangalore,Karnataka,12.9141,74.856,24.4,98,0.0,1006.4,2.0,27.7,23,5.6,4.2,5.7,144.0,47.0,1.4,3,5,0,1,2026-06-07T03:35:07.750831+05:30
Hubli-Dharwad,Karnataka,15.3647,75.124,22.9,97,0.0,939.2,1.85,43.2,23,2.7,2.0,3.5,122.0,44.0,0.9,3,5,3,1,2026-06-07T03:35:07.750836+05:30
Belgaum,Karnataka,15.8497,74.4977,22.7,94,0.0,924.0,6.65,37.8,23,3.4,2.4,2.9,104.0,47.0,1.5,3,5,7,1,2026-06-07T03:35:11.087707+05:30
Coimbatore,Tamil Nadu,11.0168,76.9558,23.0,92,0.0,960.6,5.55,58.7,17,1.5,1.4,3.8,120.0,39.0,1.8,3,5,3,1,2026-06-07T03:35:11.087738+05:30
Madurai,Tamil Nadu,9.9252,78.1198,28.9,61,0.0,992.0,8.7,65.9,25,5.1,4.5,8.1,136.0,31.0,3.0,7,5,7,1,2026-06-07T03:35:11.087747+05:30
Trichy,Tamil Nadu,10.7905,78.7047,28.7,62,0.0,998.8,7.95,43.2,28,3.4,2.9,6.6,120.0,30.0,2.5,7,5,7,1,2026-06-07T03:35:11.087754+05:30
Salem,Tamil Nadu,11.6643,78.146,25.6,79,0.0,976.5,8.75,47.5,32,8.5,7.9,16.0,182.0,23.0,5.6,7,5,7,1,2026-06-07T03:35:11.087761+05:30
Tirunelveli,Tamil Nadu,8.7139,77.7567,27.1,78,0.0,1003.0,7.85,49.0,17,4.6,3.2,4.6,152.0,33.0,1.2,7,5,4,1,2026-06-07T03:35:11.087768+05:30
Vellore,Tamil Nadu,12.9165,79.1325,28.2,62,0.0,982.2,8.9,40.3,26,5.8,5.2,11.6,174.0,37.0,3.8,7,5,7,1,2026-06-07T03:35:11.087775+05:30
Erode,Tamil Nadu,11.341,77.7172,25.7,78,0.0,988.3,8.65,52.9,21,4.6,4.4,10.1,123.0,29.0,2.8,7,5,7,1,2026-06-07T03:35:11.087782+05:30
Kochi,Kerala,9.9312,76.2673,25.9,91,0.0,1009.0,6.65,46.1,34,8.6,5.8,6.9,84.0,33.0,1.9,7,0,4,1,2026-06-07T03:35:11.087788+05:30
Thiruvananthapuram,Kerala,8.5241,76.9366,24.7,94,0.0,1009.1,7.95,48.2,25,11.0,5.1,1.7,86.0,44.0,0.5,3,0,4,1,2026-06-07T03:35:11.087794+05:30
Kozhikode,Kerala,11.2588,75.7804,24.5,99,1.1,1007.5,4.55,24.8,27,5.9,3.0,0.7,116.0,59.0,0.3,6,5,0,1,2026-06-07T03:35:11.087800+05:30
Thrissur,Kerala,10.5276,76.2144,24.3,98,0.1,1007.1,6.05,40.7,35,8.7,6.4,7.2,154.0,32.0,1.9,6,5,4,1,2026-06-07T03:35:11.087807+05:30
Kannur,Kerala,11.8745,75.3704,23.9,100,0.2,1007.0,3.0,26.6,20,2.0,1.7,2.6,170.0,51.0,0.7,6,5,0,1,2026-06-07T03:35:11.087813+05:30
Patna,Bihar,25.5941,85.1376,26.2,95,0.0,995.9,8.7,27.4,158,77.1,69.6,17.0,464.0,86.0,9.8,7,5,7,1,2026-06-07T03:35:11.087819+05:30
Gaya,Bihar,24.7914,85.0002,28.1,78,0.0,989.3,8.85,25.9,154,56.1,49.2,11.6,433.0,88.0,5.5,7,5,7,1,2026-06-07T03:35:11.087824+05:30
Muzaffarpur,Bihar,26.1209,85.3647,25.7,91,0.0,996.3,8.6,36.4,158,89.9,83.6,22.7,458.0,66.0,11.9,7,5,7,1,2026-06-07T03:35:11.087829+05:30
Bhagalpur,Bihar,25.2425,87.0117,25.9,95,0.1,997.0,8.85,34.6,154,70.1,64.7,11.9,333.0,107.0,12.1,10,5,7,1,2026-06-07T03:35:11.087834+05:30
Ranchi,Jharkhand,23.3441,85.3096,24.4,85,0.0,933.7,8.9,35.3,146,73.3,62.6,19.4,353.0,58.0,7.4,3,5,7,1,2026-06-07T03:35:11.087839+05:30
Jamshedpur,Jharkhand,22.8046,86.2029,27.9,92,0.0,986.2,9.05,31.7,160,104.3,92.7,44.3,653.0,48.0,57.4,7,5,7,1,2026-06-07T03:35:11.087845+05:30
Dhanbad,Jharkhand,23.7957,86.4304,27.6,93,0.0,975.4,7.85,52.6,173,92.4,84.5,41.8,289.0,63.0,78.9,7,5,7,1,2026-06-07T03:35:11.087850+05:30
Bokaro,Jharkhand,23.6693,86.1511,27.6,94,0.0,979.1,8.6,37.8,165,94.5,82.2,42.1,282.0,61.0,74.3,7,5,7,1,2026-06-07T03:35:11.087856+05:30
Bhubaneswar,Odisha,20.2961,85.8245,27.6,98,0.0,997.3,8.9,28.1,124,38.1,32.7,8.9,455.0,94.0,6.3,7,5,7,1,2026-06-07T03:35:11.087861+05:30
Cuttack,Odisha,20.4625,85.8828,28.0,95,0.0,998.8,9.15,33.5,124,38.1,32.7,8.9,506.0,94.0,6.3,7,5,7,1,2026-06-07T03:35:11.087867+05:30
Rourkela,Odisha,22.2604,84.8536,26.9,90,0.0,980.7,9.05,28.1,155,107.6,85.7,25.4,394.0,75.0,22.0,7,5,7,1,2026-06-07T03:35:11.087872+05:30
Raipur,Chhattisgarh,21.2514,81.6296,30.9,49,0.0,970.1,8.45,34.6,113,84.1,65.2,63.8,409.0,4.0,56.9,0,5,7,1,2026-06-07T03:35:11.087877+05:30
Bhilai,Chhattisgarh,21.1938,81.3509,30.1,53,0.0,970.5,8.55,33.5,99,88.9,59.0,49.5,488.0,9.0,45.4,0,5,7,1,2026-06-07T03:35:11.087882+05:30
Guwahati,Assam,26.1158,91.7086,23.9,96,0.1,997.5,8.8,31.0,84,35.0,32.7,11.1,402.0,48.0,3.0,6,5,7,1,2026-06-07T03:35:11.087888+05:30
Agartala,Tripura,23.8315,91.2868,26.2,98,0.0,1001.8,5.15,27.4,132,19.7,18.0,10.0,207.0,74.0,1.9,7,5,0,1,2026-06-07T03:35:11.087893+05:30
Shillong,Meghalaya,25.5788,91.8933,18.4,93,0.0,853.6,8.5,24.5,76,22.6,20.6,4.5,251.0,107.0,4.0,3,10,7,1,2026-06-07T03:35:11.087898+05:30
Imphal,Manipur,24.817,93.9368,22.8,92,0.0,919.7,9.05,31.0,107,25.8,24.2,12.5,480.0,36.0,2.2,3,5,7,1,2026-06-07T03:35:11.087904+05:30
Aizawl,Mizoram,23.7271,92.7176,19.3,96,0.0,889.0,9.05,29.9,100,25.6,22.8,4.2,207.0,62.0,2.6,3,10,7,1,2026-06-07T03:35:11.087910+05:30
Kohima,Nagaland,25.6701,94.1077,17.2,98,0.0,851.3,9.1,33.5,67,24.3,21.1,5.8,238.0,43.0,1.0,3,10,7,1,2026-06-07T03:35:11.087915+05:30
Gangtok,Sikkim,27.3314,88.6138,16.6,92,0.1,834.2,9.1,38.9,61,20.6,18.0,10.2,496.0,96.0,3.0,6,10,7,0,2026-06-07T03:35:11.087920+05:30
Siliguri,West Bengal,26.7271,88.3953,24.2,96,0.0,988.7,8.7,20.9,96,31.8,26.5,10.0,609.0,107.0,3.3,3,5,7,1,2026-06-07T03:35:14.424310+05:30
Durgapur,West Bengal,23.5204,87.3119,27.1,94,0.0,990.2,8.95,24.5,164,94.8,90.1,36.9,853.0,50.0,43.5,7,5,7,1,2026-06-07T03:35:14.424342+05:30
Asansol,West Bengal,23.6739,86.9524,27.3,94,0.1,988.8,8.85,29.2,166,87.3,81.5,31.6,653.0,61.0,40.2,10,5,7,1,2026-06-07T03:35:14.424351+05:30
Pondicherry,Puducherry,11.9139,79.8145,29.3,61,0.0,1006.2,8.5,53.3,58,16.5,14.3,20.7,207.0,24.0,8.2,7,5,4,1,2026-06-07T03:35:14.424358+05:30
Port Blair,Andaman and Nicobar Islands,11.6234,92.7265,25.8,96,0.0,1007.0,5.75,40.7,27,9.3,5.4,0.2,94.0,60.0,0.4,7,5,0,1,2026-06-07T03:35:14.424365+05:30
Haridwar,Uttarakhand,29.9457,78.1642,24.7,72,0.0,968.9,7.65,23.0,115,51.8,44.4,36.3,323.0,32.0,7.2,3,5,7,1,2026-06-07T03:35:14.424372+05:30
Rishikesh,Uttarakhand,30.0869,78.2676,21.5,85,0.0,961.3,7.75,27.4,87,38.6,29.7,19.3,320.0,74.0,4.8,3,5,7,1,2026-06-07T03:35:14.424379+05:30
Nainital,Uttarakhand,29.3919,79.4542,14.8,77,0.0,802.7,8.6,43.9,95,54.5,39.7,33.9,303.0,31.0,2.6,3,5,7,0,2026-06-07T03:35:14.424385+05:30
Mussoorie,Uttarakhand,30.4599,78.0664,14.4,79,0.0,799.2,8.15,47.9,90,40.2,31.4,36.6,237.0,32.0,5.4,3,5,7,0,2026-06-07T03:35:14.424391+05:30
Dharamshala,Himachal Pradesh,32.219,76.3234,22.4,43,0.0,866.0,8.5,40.3,39,8.0,7.0,13.5,207.0,40.0,0.1,0,5,7,0,2026-06-07T03:35:14.424398+05:30
Dalhousie,Himachal Pradesh,32.5387,75.971,11.6,74,0.0,798.5,8.75,38.2,67,23.7,21.9,37.1,263.0,15.0,0.9,3,5,7,0,2026-06-07T03:35:14.424405+05:30
Patiala,Punjab,30.3398,76.3869,28.6,41,0.0,972.5,7.7,28.1,155,71.5,60.5,31.9,974.0,43.0,9.4,4,5,7,0,2026-06-07T03:35:14.424411+05:30
Bhatinda,Punjab,30.211,74.9455,30.6,46,0.0,977.4,8.35,24.1,152,102.7,61.9,41.2,340.0,39.0,10.3,0,5,7,1,2026-06-07T03:35:14.424417+05:30
Rohtak,Haryana,28.8955,76.6066,28.1,56,0.0,976.0,7.8,28.4,196,368.8,120.6,85.1,376.0,0.0,17.6,4,5,7,1,2026-06-07T03:35:14.424423+05:30
Panipat,Haryana,29.3909,76.9635,27.9,59,0.0,974.7,7.65,32.8,368,448.0,122.5,61.4,423.0,15.0,9.6,4,5,7,1,2026-06-07T03:35:14.424429+05:30
Mathura,Uttar Pradesh,27.4924,77.6737,27.0,61,0.0,981.3,8.1,25.6,199,305.5,95.7,65.9,493.0,1.0,8.1,7,5,7,1,2026-06-07T03:35:14.424435+05:30
Vrindavan,Uttar Pradesh,27.5823,77.7027,26.9,65,0.0,981.8,8.05,29.5,199,305.5,95.7,65.9,461.0,1.0,8.1,7,5,7,1,2026-06-07T03:35:14.424440+05:30
Ayodhya,Uttar Pradesh,26.7922,82.1998,27.7,81,0.0,990.6,8.4,25.2,154,105.0,66.8,30.7,731.0,38.0,8.5,7,5,7,1,2026-06-07T03:35:14.424445+05:30
Ratlam,Madhya Pradesh,23.3315,75.0367,26.7,76,0.0,951.8,8.5,40.3,88,53.0,32.1,6.4,172.0,63.0,12.8,7,5,7,1,2026-06-07T03:35:14.424452+05:30
Sagar,Madhya Pradesh,23.8388,78.7378,27.7,59,0.0,946.5,8.75,35.6,69,47.6,29.1,11.7,184.0,59.0,4.1,4,5,7,1,2026-06-07T03:35:14.424457+05:30
Satna,Madhya Pradesh,24.6005,80.8322,28.5,58,0.0,966.7,8.8,36.7,151,149.0,64.3,38.0,267.0,28.0,5.6,4,5,7,1,2026-06-07T03:35:14.424463+05:30
Akola,Maharashtra,20.7002,77.0082,24.8,91,0.2,972.5,8.8,40.3,85,44.8,29.0,14.5,280.0,53.0,7.1,6,5,7,1,2026-06-07T03:35:14.424469+05:30
Amravati,Maharashtra,20.9374,77.7796,24.8,92,0.5,964.2,8.85,40.7,85,52.2,32.5,21.8,170.0,42.0,5.4,6,5,7,1,2026-06-07T03:35:14.424476+05:30
Latur,Maharashtra,18.4088,76.5604,27.4,65,0.0,937.2,8.95,44.3,70,24.3,16.9,7.7,200.0,63.0,6.9,7,5,7,1,2026-06-07T03:35:14.424482+05:30
Nanded,Maharashtra,19.1383,77.3091,30.4,45,0.0,965.2,8.9,42.8,81,45.4,30.2,16.0,288.0,50.0,4.0,0,5,7,1,2026-06-07T03:35:14.424488+05:30
Gulbarga,Karnataka,17.3297,76.8343,27.0,76,0.0,956.3,8.65,35.6,60,13.1,9.3,11.3,175.0,40.0,2.9,7,5,7,1,2026-06-07T03:35:14.424493+05:30
Bidar,Karnataka,17.9104,77.5199,26.8,71,0.0,933.0,7.65,34.6,84,21.5,16.5,13.9,168.0,51.0,2.3,7,5,7,1,2026-06-07T03:35:14.424499+05:30
Hospet,Karnataka,15.2689,76.3909,23.6,94,0.0,954.2,7.6,53.6,25,3.8,3.3,4.6,148.0,44.0,1.1,3,5,7,1,2026-06-07T03:35:14.424504+05:30
Tirupur,Tamil Nadu,11.1085,77.3411,24.9,82,0.0,974.2,7.15,61.9,23,5.5,5.2,11.7,105.0,27.0,3.4,3,5,7,1,2026-06-07T03:35:14.424510+05:30
Alappuzha,Kerala,9.4981,76.3388,25.0,94,0.0,1009.6,6.7,47.9,32,11.2,6.0,3.2,81.0,43.0,0.8,7,0,4,1,2026-06-07T03:35:14.424515+05:30
Munnar,Kerala,10.0889,77.0595,17.0,100,0.3,855.7,1.0,47.2,16,1.9,1.8,6.0,87.0,26.0,1.4,6,10,3,1,2026-06-07T03:35:14.424521+05:30
Silchar,Assam,24.8333,92.7789,25.4,97,0.1,1001.7,8.95,24.1,139,29.3,26.0,6.2,331.0,93.0,2.5,10,5,4,1,2026-06-07T03:35:14.424527+05:30
Dibrugarh,Assam,27.4728,94.912,24.8,93,0.1,990.8,8.5,22.7,100,19.6,17.2,9.5,302.0,61.0,0.9,6,5,7,1,2026-06-07T03:35:14.424532+05:30
