city,state,latitude,longitude,temp,humidity,rain,pressure,uv_index,wind_gusts,aqi,pm10,pm2_5,no2,co,o3,so2,mosquito_risk,arthritis_risk,migraine_risk,frizz_risk,updated_at
Delhi,Delhi,28.6139,77.209,39.2,20,0.0,976.1,7.7,49.0,634,1005.8,166.2,11.4,282.0,105.0,11.1,0,5,10,0,2026-05-17T18:56:40.652822+05:30
Mumbai,Maharashtra,19.076,72.8777,30.7,74,0.0,1003.4,7.55,46.1,61,46.1,20.8,8.1,223.0,81.0,5.1,3,5,4,1,2026-05-17T18:56:40.652885+05:30
Bangalore,Karnataka,12.9716,77.5946,30.7,38,0.0,908.6,9.45,30.2,122,44.1,33.6,21.5,298.0,108.0,7.1,0,5,7,0,2026-05-17T18:56:40.652902+05:30
Hyderabad,Telangana,17.385,78.4867,33.3,45,0.0,949.4,9.3,29.9,98,38.0,24.5,6.6,279.0,127.0,6.0,0,5,7,1,2026-05-17T18:56:40.652914+05:30
Chennai,Tamil Nadu,13.0827,80.2707,30.2,79,0.0,1002.6,9.15,41.8,116,37.6,26.4,4.5,205.0,135.0,9.8,3,5,4,1,2026-05-17T18:56:40.652926+05:30
Kolkata,West Bengal,22.5726,88.3639,30.0,81,0.0,1000.6,8.95,35.3,61,30.0,22.2,7.0,268.0,73.0,7.1,7,5,4,1,2026-05-17T18:56:40.652936+05:30
Pune,Maharashtra,18.5204,73.8567,34.9,29,0.0,944.1,8.45,39.6,121,28.5,17.9,4.0,188.0,142.0,9.9,0,5,7,0,2026-05-17T18:56:40.652944+05:30
Ahmedabad,Gujarat,23.0225,72.5714,40.8,21,0.0,995.9,8.15,29.9,61,49.2,18.0,4.1,201.0,97.0,3.9,0,5,10,0,2026-05-17T18:56:40.652953+05:30
Jaipur,Rajasthan,26.9124,75.7873,39.4,15,0.0,954.9,8.25,41.8,124,218.9,41.6,4.9,181.0,99.0,4.0,0,5,10,0,2026-05-17T18:56:40.652974+05:30
Lucknow,Uttar Pradesh,26.8467,80.9462,37.3,27,0.0,985.6,8.2,47.5,153,299.9,77.3,7.0,283.0,119.0,9.7,0,5,10,0,2026-05-17T18:56:40.652984+05:30
Kanpur,Uttar Pradesh,26.4499,80.3319,38.0,23,0.0,984.4,8.2,46.1,207,730.2,125.7,5.2,245.0,118.0,9.3,0,5,10,0,2026-05-17T18:56:40.652992+05:30
Chandigarh,Chandigarh,30.7333,76.7794,34.0,29,0.0,962.5,7.7,43.2,143,21.0,16.6,5.5,365.0,142.0,7.7,0,5,7,0,2026-05-17T18:56:40.653001+05:30
Srinagar,Jammu and Kashmir,34.0837,74.7973,23.0,49,0.0,840.8,8.9,18.0,98,15.5,10.8,9.3,546.0,119.0,2.9,0,5,7,0,2026-05-17T18:56:40.653010+05:30
Jammu,Jammu and Kashmir,32.7266,74.857,35.0,24,0.0,966.3,8.5,40.0,125,23.1,15.3,10.1,231.0,125.0,3.9,0,5,7,0,2026-05-17T18:56:40.653018+05:30
Amritsar,Punjab,31.634,74.8723,34.8,31,0.0,974.4,8.4,33.1,132,34.1,20.6,7.0,284.0,133.0,6.9,0,5,7,0,2026-05-17T18:56:40.653026+05:30
Ludhiana,Punjab,30.901,75.8573,35.8,26,0.0,972.2,7.95,42.8,117,69.4,27.0,4.6,335.0,130.0,5.5,0,5,10,0,2026-05-17T18:56:40.653034+05:30
Jalandhar,Punjab,31.326,75.5762,35.2,31,0.0,973.2,8.15,36.7,127,77.5,28.5,5.4,365.0,132.0,6.4,0,5,10,0,2026-05-17T18:56:40.653042+05:30
Dehradun,Uttarakhand,30.6284,78.0322,20.4,64,0.0,827.1,8.15,43.9,112,13.2,10.5,5.6,223.0,144.0,4.5,3,5,7,0,2026-05-17T18:56:40.653049+05:30
Shimla,Himachal Pradesh,31.1048,77.1734,19.0,42,0.0,783.3,8.25,49.0,119,18.8,12.0,3.0,193.0,143.0,3.7,0,5,7,0,2026-05-17T18:56:40.653059+05:30
Manali,Himachal Pradesh,32.2396,77.1887,16.8,62,0.0,815.9,9.85,40.0,116,10.1,7.3,12.8,189.0,133.0,0.4,3,5,7,0,2026-05-17T18:56:40.653068+05:30
Gurgaon,Haryana,28.4595,77.0266,37.0,26,0.0,974.7,7.8,47.2,1024,1847.7,258.9,11.6,272.0,106.0,10.6,0,5,10,0,2026-05-17T18:56:40.653076+05:30
Noida,Uttar Pradesh,28.5355,77.391,36.8,26,0.0,977.3,7.75,43.2,1024,1847.7,258.9,11.6,316.0,106.0,10.6,0,5,10,0,2026-05-17T18:56:40.653084+05:30
Ghaziabad,Uttar Pradesh,28.6692,77.4538,35.5,32,0.0,975.4,7.7,50.4,463,868.0,151.3,9.7,311.0,107.0,12.5,0,5,10,1,2026-05-17T18:56:40.653091+05:30
Faridabad,Haryana,28.4089,77.3178,38.7,21,0.0,976.8,7.75,50.0,1024,1847.7,258.9,11.6,260.0,106.0,10.6,0,5,10,0,2026-05-17T18:56:40.653099+05:30
Meerut,Uttar Pradesh,28.9845,77.7064,35.9,31,0.0,974.4,7.65,50.8,463,868.0,151.3,9.7,274.0,107.0,12.5,0,5,10,1,2026-05-17T18:56:40.653106+05:30
Agra,Uttar Pradesh,27.1767,78.0081,38.0,23,0.0,980.9,8.05,38.9,741,547.6,89.4,10.3,261.0,94.0,7.5,0,5,10,0,2026-05-17T18:56:40.653113+05:30
Varanasi,Uttar Pradesh,25.3176,82.9739,37.9,23,0.0,990.0,8.7,45.7,151,113.2,43.0,10.9,288.0,114.0,9.6,0,5,10,0,2026-05-17T18:56:40.653120+05:30
Prayagraj,Uttar Pradesh,25.4358,81.8463,37.7,23,0.0,988.3,8.6,39.6,149,109.7,39.8,8.1,233.0,113.0,8.6,0,5,10,0,2026-05-17T18:56:40.653128+05:30
Gorakhpur,Uttar Pradesh,26.7606,83.3732,32.8,43,0.0,989.1,8.6,35.6,165,53.0,31.8,7.3,312.0,127.0,8.6,0,5,7,1,2026-05-17T18:56:40.653138+05:30
Bareilly,Uttar Pradesh,28.367,79.4304,33.0,43,0.0,979.1,8.0,37.1,149,78.0,37.6,7.2,341.0,134.0,10.1,0,5,7,1,2026-05-17T18:56:40.653144+05:30
Aligarh,Uttar Pradesh,27.8974,78.088,36.0,29,0.0,978.7,7.85,49.7,613,1050.5,156.9,6.9,254.0,109.0,8.2,0,5,10,0,2026-05-17T18:56:40.653151+05:30
Moradabad,Uttar Pradesh,28.8386,78.7733,34.5,34,0.0,976.1,7.85,45.7,150,258.0,67.3,9.5,372.0,110.0,8.4,0,5,7,1,2026-05-17T18:56:40.653158+05:30
Saharanpur,Uttar Pradesh,29.9637,77.546,33.7,31,0.0,968.4,7.35,42.8,135,156.5,40.0,6.5,269.0,127.0,8.4,0,5,7,0,2026-05-17T18:56:40.653165+05:30
Jhansi,Uttar Pradesh,25.4484,78.5685,37.7,21,0.0,971.8,8.45,34.6,118,112.9,32.9,3.5,226.0,105.0,5.0,0,5,10,0,2026-05-17T18:56:43.948519+05:30
Surat,Gujarat,21.1702,72.8311,33.0,63,0.0,1001.0,7.75,41.4,86,58.9,38.4,26.8,373.0,103.0,58.6,3,5,4,1,2026-05-17T18:56:43.948557+05:30
Vadodara,Gujarat,22.3072,73.1812,40.7,21,0.0,997.8,8.1,31.0,91,48.9,21.4,7.1,257.0,129.0,8.9,0,5,10,0,2026-05-17T18:56:43.948568+05:30
Rajkot,Gujarat,22.3039,70.8022,37.8,17,0.0,989.6,7.2,38.5,57,52.7,19.3,2.6,136.0,104.0,4.6,0,5,10,0,2026-05-17T18:56:43.948577+05:30
Thane,Maharashtra,19.2183,72.9781,32.2,64,0.0,1002.6,7.6,39.2,61,46.1,20.8,8.1,204.0,81.0,5.1,3,5,4,1,2026-05-17T18:56:43.948585+05:30
Nagpur,Maharashtra,21.1458,79.0882,40.8,13,0.0,967.0,8.95,31.7,134,21.4,15.8,10.5,224.0,124.0,18.3,0,5,10,0,2026-05-17T18:56:43.948593+05:30
Nashik,Maharashtra,19.9975,73.7898,34.0,31,0.0,942.0,8.2,42.5,76,28.8,15.6,3.3,185.0,142.0,6.6,0,5,7,0,2026-05-17T18:56:43.948601+05:30
Aurangabad,Maharashtra,19.8762,75.3433,36.5,17,0.0,940.1,9.05,40.7,93,17.2,9.2,2.5,162.0,123.0,3.6,0,5,10,0,2026-05-17T18:56:43.948608+05:30
Solapur,Maharashtra,17.6599,75.9064,38.0,20,0.0,951.6,9.1,33.5,138,20.1,16.2,6.4,171.0,131.0,6.5,0,5,10,0,2026-05-17T18:56:43.948616+05:30
Kolhapur,Maharashtra,16.705,74.2433,30.1,68,0.0,943.4,8.8,45.0,111,28.1,19.0,3.3,171.0,120.0,5.2,3,5,7,1,2026-05-17T18:56:43.948624+05:30
Goa,Goa,15.2993,74.124,29.2,79,0.0,993.7,8.9,34.9,56,36.3,16.2,1.3,147.0,64.0,1.3,7,5,7,1,2026-05-17T18:56:43.948632+05:30
Jodhpur,Rajasthan,26.2389,73.0243,40.5,17,0.0,977.7,8.45,33.5,77,115.3,25.8,2.9,170.0,101.0,3.1,0,5,10,0,2026-05-17T18:56:43.948639+05:30
Udaipur,Rajasthan,24.5854,73.7125,36.7,17,0.0,942.8,8.85,33.5,59,54.2,17.6,2.4,157.0,105.0,3.7,0,5,10,0,2026-05-17T18:56:43.948647+05:30
Kota,Rajasthan,25.2138,75.8648,40.0,14,0.0,973.1,8.4,31.0,112,114.6,30.6,3.9,195.0,117.0,4.2,0,5,10,0,2026-05-17T18:56:43.948655+05:30
Bikaner,Rajasthan,28.0229,73.3119,39.7,18,0.0,976.1,8.4,37.8,78,75.2,20.5,0.9,161.0,95.0,1.9,0,5,10,0,2026-05-17T18:56:43.948662+05:30
Ajmer,Rajasthan,26.4499,74.6399,37.5,17,0.0,950.4,8.4,46.8,82,87.5,23.9,2.8,159.0,101.0,2.5,0,5,10,0,2026-05-17T18:56:43.948670+05:30
Gwalior,Madhya Pradesh,26.2183,78.1828,39.0,17,0.0,976.8,8.25,40.7,276,81.7,29.4,3.5,196.0,103.0,4.4,0,5,10,0,2026-05-17T18:56:43.948677+05:30
Indore,Madhya Pradesh,22.7196,75.8577,39.2,14,0.0,943.0,8.7,43.6,82,40.7,15.9,4.9,301.0,119.0,5.3,0,5,10,0,2026-05-17T18:56:43.948684+05:30
Bhopal,Madhya Pradesh,23.2599,77.4126,38.3,14,0.0,948.6,8.7,38.9,82,21.5,12.7,3.4,197.0,113.0,3.6,0,5,10,0,2026-05-17T18:56:43.948692+05:30
Jabalpur,Madhya Pradesh,23.1815,79.9864,37.1,20,0.0,955.9,8.9,39.2,103,37.3,21.6,5.8,196.0,117.0,4.3,0,5,10,0,2026-05-17T18:56:43.948700+05:30
Ujjain,Madhya Pradesh,23.1765,75.7885,39.3,13,0.0,948.4,8.65,39.6,83,61.9,22.2,1.8,190.0,122.0,5.5,0,5,10,0,2026-05-17T18:56:43.948708+05:30
Visakhapatnam,Andhra Pradesh,17.6868,83.2185,30.4,76,0.0,999.7,8.75,43.2,59,22.8,16.8,13.8,275.0,67.0,27.9,3,5,7,1,2026-05-17T18:56:43.948715+05:30
Vijayawada,Andhra Pradesh,16.5062,80.648,34.5,52,0.0,997.6,9.2,32.8,50,20.0,15.8,5.0,217.0,91.0,7.4,0,5,7,1,2026-05-17T18:56:43.948721+05:30
Guntur,Andhra Pradesh,16.3067,80.4365,33.1,55,0.0,998.9,9.2,33.5,49,19.2,15.1,3.7,225.0,95.0,4.1,0,5,7,1,2026-05-17T18:56:43.948728+05:30
Nellore,Andhra Pradesh,14.4426,79.9865,30.9,69,0.0,1001.2,9.15,37.1,104,27.8,20.5,1.9,193.0,128.0,5.6,3,5,4,1,2026-05-17T18:56:43.948736+05:30
Kurnool,Andhra Pradesh,15.8281,78.0373,36.0,37,0.0,971.7,9.15,32.4,64,35.2,19.6,3.9,191.0,101.0,3.0,0,5,10,1,2026-05-17T18:56:43.948744+05:30
Kakinada,Andhra Pradesh,16.9891,82.2475,32.2,65,0.0,1003.0,8.7,36.0,42,20.3,13.1,1.5,202.0,79.0,1.4,3,5,4,1,2026-05-17T18:56:43.948751+05:30
Tirupati,Andhra Pradesh,13.6288,79.4192,31.6,57,0.0,986.6,9.25,29.5,102,27.2,24.5,5.2,262.0,137.0,11.2,0,5,7,1,2026-05-17T18:56:43.948758+05:30
Warangal,Telangana,17.9689,79.5941,34.0,47,0.0,974.5,8.8,31.0,72,35.9,26.5,5.8,301.0,115.0,4.8,0,5,7,1,2026-05-17T18:56:43.948764+05:30
Nizamabad,Telangana,18.6725,78.0941,36.0,29,0.0,960.0,9.15,31.7,124,29.2,23.3,5.9,227.0,130.0,5.7,0,5,10,0,2026-05-17T18:56:43.948770+05:30
Mysore,Karnataka,12.2958,76.6396,28.2,60,0.0,924.7,9.1,36.4,103,41.7,27.1,11.2,267.0,106.0,4.3,4,5,7,1,2026-05-17T18:56:43.948777+05:30
Mangalore,Karnataka,12.9141,74.856,27.1,93,0.0,1002.8,8.75,36.7,63,20.3,12.0,4.2,210.0,57.0,1.8,7,5,4,1,2026-05-17T18:56:43.948783+05:30
Hubli-Dharwad,Karnataka,15.3647,75.124,25.4,93,0.4,936.5,9.15,52.9,96,19.7,14.1,4.0,217.0,105.0,4.3,10,5,7,1,2026-05-17T18:56:43.948790+05:30
Belgaum,Karnataka,15.8497,74.4977,24.6,100,0.1,921.5,9.15,44.6,84,27.8,17.5,3.3,172.0,94.0,3.8,6,5,7,1,2026-05-17T18:56:47.237091+05:30
Coimbatore,Tamil Nadu,11.0168,76.9558,26.4,81,0.0,958.1,8.7,48.2,57,6.3,5.4,6.2,215.0,73.0,2.5,7,5,7,1,2026-05-17T18:56:47.237127+05:30
Madurai,Tamil Nadu,9.9252,78.1198,26.9,91,0.0,989.0,8.5,32.4,95,26.0,18.5,12.7,380.0,99.0,5.0,7,5,7,1,2026-05-17T18:56:47.237139+05:30
Trichy,Tamil Nadu,10.7905,78.7047,28.5,91,0.0,995.6,8.45,40.0,83,23.8,19.9,8.6,249.0,99.0,4.0,7,5,7,1,2026-05-17T18:56:47.237148+05:30
Salem,Tamil Nadu,11.6643,78.146,28.3,86,0.0,973.0,8.5,43.2,142,35.9,25.1,8.1,283.0,141.0,10.1,7,5,7,1,2026-05-17T18:56:47.237157+05:30
Tirunelveli,Tamil Nadu,8.7139,77.7567,31.0,64,0.0,999.0,8.95,28.8,42,6.1,5.3,3.3,255.0,79.0,0.9,3,5,7,1,2026-05-17T18:56:47.237165+05:30
Vellore,Tamil Nadu,12.9165,79.1325,29.1,74,0.0,980.2,9.2,23.4,95,29.9,24.3,5.6,292.0,116.0,5.7,7,5,7,1,2026-05-17T18:56:47.237173+05:30
Erode,Tamil Nadu,11.341,77.7172,30.5,62,0.0,984.9,8.55,34.6,106,20.7,15.8,7.4,350.0,112.0,2.9,3,5,7,1,2026-05-17T18:56:47.237181+05:30
Kochi,Kerala,9.9312,76.2673,26.9,91,0.5,1005.7,8.7,28.4,52,15.4,12.4,10.2,217.0,54.0,3.5,10,5,4,1,2026-05-17T18:56:47.237211+05:30
Thiruvananthapuram,Kerala,8.5241,76.9366,25.5,96,0.0,1005.4,8.3,33.5,42,11.2,7.0,1.5,164.0,82.0,0.5,7,5,4,1,2026-05-17T18:56:47.237219+05:30
Kozhikode,Kerala,11.2588,75.7804,26.4,97,0.0,1004.7,8.65,40.7,51,22.5,13.1,1.1,282.0,81.0,0.8,7,5,4,1,2026-05-17T18:56:47.237226+05:30
Thrissur,Kerala,10.5276,76.2144,25.5,99,0.2,1004.1,8.75,30.2,54,13.2,10.8,7.4,241.0,61.0,2.6,10,5,4,1,2026-05-17T18:56:47.237234+05:30
Kannur,Kerala,11.8745,75.3704,27.5,90,0.0,1003.4,8.9,37.1,59,21.5,13.6,7.3,212.0,62.0,2.0,7,5,4,1,2026-05-17T18:56:47.237242+05:30
Patna,Bihar,25.5941,85.1376,32.8,54,0.0,992.4,8.8,39.2,157,97.3,47.5,19.6,383.0,105.0,12.8,0,5,7,1,2026-05-17T18:56:47.237248+05:30
Gaya,Bihar,24.7914,85.0002,33.5,34,0.0,986.3,8.85,40.0,152,99.0,40.5,8.9,379.0,113.0,8.3,0,5,7,0,2026-05-17T18:56:47.237256+05:30
Muzaffarpur,Bihar,26.1209,85.3647,31.4,68,0.0,992.7,8.8,24.8,172,109.4,59.8,24.6,547.0,106.0,14.7,3,5,7,1,2026-05-17T18:56:47.237263+05:30
Bhagalpur,Bihar,25.2425,87.0117,31.1,68,0.0,994.0,8.8,25.6,169,94.1,53.4,7.7,387.0,149.0,12.9,3,5,7,1,2026-05-17T18:56:47.237269+05:30
Ranchi,Jharkhand,23.3441,85.3096,28.0,63,0.0,933.1,9.3,41.8,126,62.2,46.0,8.5,348.0,111.0,9.0,7,5,7,1,2026-05-17T18:56:47.237277+05:30
Jamshedpur,Jharkhand,22.8046,86.2029,32.4,53,0.0,985.2,9.1,34.6,160,74.3,56.1,13.1,395.0,119.0,17.1,0,5,7,1,2026-05-17T18:56:47.237283+05:30
Dhanbad,Jharkhand,23.7957,86.4304,32.9,45,0.0,973.7,9.05,38.9,149,87.5,61.0,33.0,265.0,90.0,86.2,0,5,7,1,2026-05-17T18:56:47.237290+05:30
Bokaro,Jharkhand,23.6693,86.1511,32.0,47,0.0,977.5,9.05,48.6,151,81.7,56.5,26.5,392.0,95.0,75.7,0,5,7,1,2026-05-17T18:56:47.237297+05:30
Bhubaneswar,Odisha,20.2961,85.8245,31.2,69,0.0,998.2,8.8,45.4,62,22.3,15.9,4.6,190.0,88.0,6.1,3,5,7,1,2026-05-17T18:56:47.237304+05:30
Cuttack,Odisha,20.4625,85.8828,31.6,68,0.1,999.8,8.95,45.4,62,22.3,15.9,4.6,208.0,88.0,6.1,6,5,7,1,2026-05-17T18:56:47.237311+05:30
Rourkela,Odisha,22.2604,84.8536,32.5,64,0.0,979.5,9.0,33.5,168,91.3,68.7,12.6,407.0,151.0,15.1,3,5,7,1,2026-05-17T18:56:47.237318+05:30
Raipur,Chhattisgarh,21.2514,81.6296,35.6,37,0.0,969.1,9.0,32.4,142,50.3,41.3,20.2,274.0,117.0,32.4,0,5,10,1,2026-05-17T18:56:47.237324+05:30
Bhilai,Chhattisgarh,21.1938,81.3509,35.3,40,0.0,969.5,9.0,31.7,117,39.8,33.2,21.0,416.0,105.0,30.2,0,5,10,1,2026-05-17T18:56:47.237331+05:30
Guwahati,Assam,26.1158,91.7086,24.1,94,0.0,997.7,8.75,25.2,88,27.2,21.7,4.6,334.0,94.0,4.1,3,5,7,1,2026-05-17T18:56:47.237337+05:30
Agartala,Tripura,23.8315,91.2868,28.8,77,0.0,1001.3,8.9,28.8,70,29.7,24.2,15.0,275.0,65.0,4.0,7,5,4,1,2026-05-17T18:56:47.237344+05:30
Shillong,Meghalaya,25.5788,91.8933,17.6,93,0.0,853.1,9.15,45.4,69,25.1,19.5,5.3,311.0,93.0,4.0,3,10,7,1,2026-05-17T18:56:47.237350+05:30
Imphal,Manipur,24.817,93.9368,23.4,85,0.0,919.4,9.0,31.0,71,39.3,27.8,11.0,473.0,73.0,5.5,3,5,7,1,2026-05-17T18:56:47.237357+05:30
Aizawl,Mizoram,23.7271,92.7176,22.1,79,0.0,889.2,9.05,28.8,51,33.6,21.3,3.1,217.0,89.0,3.7,3,5,7,1,2026-05-17T18:56:47.237364+05:30
Kohima,Nagaland,25.6701,94.1077,18.2,96,0.0,851.5,8.7,29.9,62,34.3,20.9,7.5,289.0,68.0,3.4,3,10,7,1,2026-05-17T18:56:47.237371+05:30
Gangtok,Sikkim,27.3314,88.6138,16.3,94,0.5,833.0,9.1,38.2,95,27.0,21.4,6.7,376.0,113.0,2.3,6,10,7,0,2026-05-17T18:56:47.237377+05:30
Siliguri,West Bengal,26.7271,88.3953,24.5,94,0.1,987.8,8.7,31.0,110,37.6,30.3,8.4,492.0,118.0,5.4,6,5,7,1,2026-05-17T18:56:50.528479+05:30
Durgapur,West Bengal,23.5204,87.3119,31.2,65,0.0,988.9,8.95,35.6,168,86.6,65.0,21.6,492.0,122.0,36.1,3,5,7,1,2026-05-17T18:56:50.528517+05:30
Asansol,West Bengal,23.6739,86.9524,32.2,53,0.0,987.0,9.0,38.2,149,78.2,54.0,22.4,332.0,108.0,33.3,0,5,7,1,2026-05-17T18:56:50.528528+05:30
Pondicherry,Puducherry,11.9139,79.8145,29.9,78,0.0,1003.7,9.05,43.2,118,27.5,18.5,3.1,292.0,111.0,2.7,7,5,4,1,2026-05-17T18:56:50.528538+05:30
Port Blair,Andaman and Nicobar Islands,11.6234,92.7265,25.5,97,0.3,1005.6,2.0,41.0,29,5.0,3.1,0.4,119.0,46.0,0.2,10,5,0,1,2026-05-17T18:56:50.528547+05:30
Haridwar,Uttarakhand,29.9457,78.1642,32.0,40,0.0,966.6,7.5,34.6,151,63.8,23.2,5.0,260.0,139.0,8.1,0,5,7,1,2026-05-17T18:56:50.528554+05:30
Rishikesh,Uttarakhand,30.0869,78.2676,30.9,48,0.0,959.6,7.65,32.4,142,36.6,15.0,2.8,256.0,156.0,7.2,0,5,7,1,2026-05-17T18:56:50.528562+05:30
Nainital,Uttarakhand,29.3919,79.4542,18.7,60,0.0,802.5,8.5,38.9,149,59.8,22.8,2.8,232.0,153.0,6.2,0,5,7,0,2026-05-17T18:56:50.528569+05:30
Mussoorie,Uttarakhand,30.4599,78.0664,19.1,59,0.0,800.2,8.05,55.1,143,17.9,14.0,4.6,267.0,148.0,6.6,0,5,7,0,2026-05-17T18:56:50.528577+05:30
Dharamshala,Himachal Pradesh,32.219,76.3234,23.8,48,0.0,866.2,8.4,44.3,104,20.4,13.9,3.8,198.0,124.0,1.8,0,5,7,0,2026-05-17T18:56:50.528584+05:30
Dalhousie,Himachal Pradesh,32.5387,75.971,20.0,54,0.0,803.6,8.65,38.5,130,22.7,14.2,6.4,244.0,145.0,2.9,0,5,7,0,2026-05-17T18:56:50.528592+05:30
Patiala,Punjab,30.3398,76.3869,35.7,26,0.0,971.8,7.6,45.7,576,1102.7,146.2,3.6,307.0,124.0,5.6,0,5,10,0,2026-05-17T18:56:50.528600+05:30
Bhatinda,Punjab,30.211,74.9455,36.0,31,0.0,977.6,8.25,38.2,110,66.6,24.6,3.8,258.0,116.0,7.4,0,5,10,1,2026-05-17T18:56:50.528607+05:30
Rohtak,Haryana,28.8955,76.6066,36.5,26,0.0,975.1,7.75,46.8,819,1184.6,171.8,7.8,284.0,109.0,6.6,0,5,10,0,2026-05-17T18:56:50.528614+05:30
Panipat,Haryana,29.3909,76.9635,36.1,25,0.0,973.5,7.6,50.0,1748,2540.6,339.0,6.1,244.0,111.0,8.9,0,5,10,0,2026-05-17T18:56:50.528621+05:30
Mathura,Uttar Pradesh,27.4924,77.6737,37.2,25,0.0,980.0,8.0,43.6,707,1069.2,143.4,6.1,283.0,99.0,4.7,0,5,10,0,2026-05-17T18:56:50.528628+05:30
Vrindavan,Uttar Pradesh,27.5823,77.7027,36.2,29,0.0,980.4,7.95,41.4,707,1069.2,143.4,6.1,265.0,99.0,4.7,0,5,10,0,2026-05-17T18:56:50.528634+05:30
Ayodhya,Uttar Pradesh,26.7922,82.1998,33.3,49,0.0,987.0,8.35,39.2,148,84.1,41.1,6.0,311.0,127.0,9.1,0,5,7,1,2026-05-17T18:56:50.528642+05:30
Ratlam,Madhya Pradesh,23.3315,75.0367,38.7,14,0.0,949.3,8.55,36.4,74,60.8,21.3,1.5,162.0,116.0,4.7,0,5,10,0,2026-05-17T18:56:50.528649+05:30
Sagar,Madhya Pradesh,23.8388,78.7378,36.8,19,0.0,945.5,8.75,44.6,97,71.2,24.6,2.0,167.0,119.0,3.5,0,5,10,0,2026-05-17T18:56:50.528656+05:30
Satna,Madhya Pradesh,24.6005,80.8322,37.0,21,0.0,965.5,8.75,47.9,103,101.0,29.2,4.1,215.0,111.0,2.9,0,5,10,0,2026-05-17T18:56:50.528663+05:30
Akola,Maharashtra,20.7002,77.0082,40.1,14,0.0,969.1,8.9,33.8,109,17.1,11.8,4.9,187.0,122.0,5.3,0,5,10,0,2026-05-17T18:56:50.528671+05:30
Amravati,Maharashtra,20.9374,77.7796,39.3,16,0.0,961.4,8.95,28.1,112,18.6,13.4,8.2,197.0,123.0,7.2,0,5,10,0,2026-05-17T18:56:50.528679+05:30
Latur,Maharashtra,18.4088,76.5604,36.5,21,0.0,935.4,9.1,37.8,120,19.1,13.7,4.6,197.0,131.0,6.1,0,5,10,0,2026-05-17T18:56:50.528686+05:30
Nanded,Maharashtra,19.1383,77.3091,38.2,21,0.0,963.0,8.95,32.8,119,17.7,13.2,8.4,264.0,125.0,5.4,0,5,10,0,2026-05-17T18:56:50.528692+05:30
Gulbarga,Karnataka,17.3297,76.8343,37.2,24,0.0,953.5,9.1,42.5,143,36.1,26.4,6.2,220.0,140.0,8.0,0,5,10,0,2026-05-17T18:56:50.528699+05:30
Bidar,Karnataka,17.9104,77.5199,33.5,35,0.0,931.5,9.15,33.1,132,34.0,26.7,6.1,234.0,135.0,6.8,0,5,7,1,2026-05-17T18:56:50.528706+05:30
Hospet,Karnataka,15.2689,76.3909,31.4,57,0.0,950.8,9.2,62.6,119,42.5,31.8,10.1,253.0,134.0,13.8,0,5,7,1,2026-05-17T18:56:50.528711+05:30
Tirupur,Tamil Nadu,11.1085,77.3411,28.0,74,0.0,971.1,8.6,52.9,99,16.8,13.4,7.8,205.0,93.0,3.3,7,5,7,1,2026-05-17T18:56:50.528718+05:30
Alappuzha,Kerala,9.4981,76.3388,27.0,90,0.1,1005.8,8.5,24.5,51,12.8,8.9,6.0,134.0,68.0,1.6,10,5,4,1,2026-05-17T18:56:50.528724+05:30
Munnar,Kerala,10.0889,77.0595,18.1,100,0.0,853.9,7.8,25.6,46,3.9,3.7,5.8,203.0,64.0,1.4,3,10,7,1,2026-05-17T18:56:50.528731+05:30
Silchar,Assam,24.8333,92.7789,27.0,89,0.0,1000.7,8.9,27.7,67,35.4,26.7,6.0,301.0,82.0,4.4,7,5,4,1,2026-05-17T18:56:50.528738+05:30
Dibrugarh,Assam,27.4728,94.912,23.1,90,0.0,992.3,5.7,30.2,72,28.6,25.1,10.3,305.0,76.0,2.2,3,5,3,1,2026-05-17T18:56:50.528744+05:30
