city,state,latitude,longitude,temp,humidity,rain,pressure,uv_index,wind_gusts,aqi,pm10,pm2_5,no2,co,o3,so2,mosquito_risk,arthritis_risk,migraine_risk,frizz_risk,updated_at
Delhi,Delhi,28.6139,77.209,32.2,40,0.0,981.1,6.85,38.9,175,104.1,40.2,11.6,471.0,194.0,23.3,0,5,7,1,2026-06-01T18:10:22.595659+05:30
Mumbai,Maharashtra,19.076,72.8777,32.0,66,0.0,1007.0,7.7,39.6,51,26.0,12.6,6.8,189.0,65.0,4.7,3,5,4,1,2026-06-01T18:10:22.595729+05:30
Bangalore,Karnataka,12.9716,77.5946,23.6,75,0.0,910.3,8.95,29.9,71,27.5,22.4,43.6,1190.0,63.0,7.0,3,5,7,1,2026-06-01T18:10:22.595746+05:30
Hyderabad,Telangana,17.385,78.4867,35.2,30,0.0,951.7,9.1,31.0,106,24.1,13.1,4.7,274.0,136.0,4.7,0,5,10,0,2026-06-01T18:10:22.595758+05:30
Chennai,Tamil Nadu,13.0827,80.2707,33.2,58,0.0,1005.0,8.75,41.4,148,33.9,25.9,6.7,284.0,160.0,9.7,0,5,4,1,2026-06-01T18:10:22.595768+05:30
Kolkata,West Bengal,22.5726,88.3639,31.7,63,0.0,1003.3,8.9,30.6,117,50.2,39.7,10.8,589.0,106.0,9.1,3,5,4,1,2026-06-01T18:10:22.595777+05:30
Pune,Maharashtra,18.5204,73.8567,31.8,48,0.0,947.1,8.3,37.4,57,29.7,14.7,4.1,160.0,112.0,5.8,0,5,7,1,2026-06-01T18:10:22.595784+05:30
Ahmedabad,Gujarat,23.0225,72.5714,39.9,28,0.0,997.9,8.0,43.2,73,57.4,21.5,2.6,157.0,91.0,3.4,0,5,10,1,2026-06-01T18:10:22.595792+05:30
Jaipur,Rajasthan,26.9124,75.7873,35.2,35,0.1,957.6,8.15,63.0,119,118.3,33.3,2.1,179.0,110.0,3.3,3,5,10,1,2026-06-01T18:10:22.595804+05:30
Lucknow,Uttar Pradesh,26.8467,80.9462,33.5,45,0.0,991.9,8.25,19.8,117,43.2,20.7,3.3,254.0,140.0,4.1,0,5,7,1,2026-06-01T18:10:22.595812+05:30
Kanpur,Uttar Pradesh,26.4499,80.3319,34.2,47,0.0,990.3,8.25,20.2,120,72.9,26.1,3.4,249.0,141.0,5.4,0,5,7,1,2026-06-01T18:10:22.595820+05:30
Chandigarh,Chandigarh,30.7333,76.7794,29.6,51,0.0,968.0,6.95,29.9,145,26.8,16.4,4.3,424.0,170.0,7.9,4,5,7,1,2026-06-01T18:10:22.595829+05:30
Srinagar,Jammu and Kashmir,34.0837,74.7973,28.2,27,0.0,842.9,9.0,20.9,139,59.4,26.2,3.5,314.0,143.0,3.0,4,5,7,0,2026-06-01T18:10:22.595838+05:30
Jammu,Jammu and Kashmir,32.7266,74.857,32.4,40,0.0,971.6,8.55,19.8,151,112.7,42.0,3.3,279.0,161.0,5.0,0,5,7,1,2026-06-01T18:10:22.595845+05:30
Amritsar,Punjab,31.634,74.8723,33.3,36,0.0,979.6,8.45,22.7,133,67.8,26.5,2.5,324.0,154.0,3.4,0,5,7,0,2026-06-01T18:10:22.595852+05:30
Ludhiana,Punjab,30.901,75.8573,34.0,31,0.0,977.5,8.0,22.7,148,211.9,38.9,2.9,313.0,157.0,6.8,0,5,7,0,2026-06-01T18:10:22.595859+05:30
Jalandhar,Punjab,31.326,75.5762,34.0,34,0.0,978.4,8.2,19.8,146,74.0,25.0,2.8,334.0,160.0,4.7,0,5,7,0,2026-06-01T18:10:22.595865+05:30
Dehradun,Uttarakhand,30.6284,78.0322,17.5,78,0.0,830.7,7.8,30.2,99,12.7,8.4,3.4,257.0,136.0,1.6,3,5,7,0,2026-06-01T18:10:22.595873+05:30
Shimla,Himachal Pradesh,31.1048,77.1734,17.1,58,0.0,786.0,7.7,27.7,110,21.2,13.6,2.0,399.0,154.0,5.0,0,5,7,0,2026-06-01T18:10:22.595886+05:30
Manali,Himachal Pradesh,32.2396,77.1887,19.9,55,0.0,820.0,8.8,24.8,74,16.6,12.5,15.1,154.0,119.0,0.3,0,5,7,0,2026-06-01T18:10:22.595894+05:30
Gurgaon,Haryana,28.4595,77.0266,31.9,41,0.0,979.4,7.75,37.8,603,313.9,65.7,11.1,438.0,200.0,22.9,0,5,7,1,2026-06-01T18:10:22.595902+05:30
Noida,Uttar Pradesh,28.5355,77.391,31.7,43,0.0,982.7,7.45,42.5,603,313.9,65.7,11.1,367.0,200.0,22.9,0,5,7,1,2026-06-01T18:10:22.595908+05:30
Ghaziabad,Uttar Pradesh,28.6692,77.4538,30.8,45,0.0,981.0,7.55,52.2,151,97.1,34.0,4.7,276.0,161.0,10.5,0,5,7,1,2026-06-01T18:10:22.595916+05:30
Faridabad,Haryana,28.4089,77.3178,31.6,42,0.0,981.8,7.65,42.5,603,313.9,65.7,11.1,361.0,200.0,22.9,0,5,7,1,2026-06-01T18:10:22.595923+05:30
Meerut,Uttar Pradesh,28.9845,77.7064,29.8,52,0.0,980.0,7.6,60.1,151,97.1,34.0,4.7,262.0,161.0,10.5,4,5,7,1,2026-06-01T18:10:22.595933+05:30
Agra,Uttar Pradesh,27.1767,78.0081,33.2,44,0.0,985.4,8.05,24.8,155,186.3,44.9,4.6,284.0,145.0,5.0,0,5,7,1,2026-06-01T18:10:22.595939+05:30
Varanasi,Uttar Pradesh,25.3176,82.9739,33.2,51,0.0,995.6,8.75,30.6,168,47.6,35.5,5.8,420.0,161.0,7.1,0,5,7,1,2026-06-01T18:10:22.595946+05:30
Prayagraj,Uttar Pradesh,25.4358,81.8463,34.8,44,0.0,994.2,8.65,29.2,155,42.7,32.5,4.9,291.0,162.0,6.4,0,5,7,1,2026-06-01T18:10:22.595953+05:30
Gorakhpur,Uttar Pradesh,26.7606,83.3732,32.7,55,0.0,995.3,8.6,33.5,159,49.5,32.6,3.7,309.0,160.0,4.8,0,5,7,1,2026-06-01T18:10:22.595962+05:30
Bareilly,Uttar Pradesh,28.367,79.4304,29.6,62,0.0,985.6,8.0,43.6,135,65.9,24.2,3.0,247.0,157.0,6.3,7,5,7,1,2026-06-01T18:10:22.595968+05:30
Aligarh,Uttar Pradesh,27.8974,78.088,32.0,47,0.0,983.4,7.9,42.8,130,147.1,42.5,3.7,246.0,155.0,9.0,0,5,7,1,2026-06-01T18:10:22.595975+05:30
Moradabad,Uttar Pradesh,28.8386,78.7733,29.6,53,0.0,982.5,7.75,56.9,148,58.3,26.8,6.1,270.0,153.0,10.6,4,5,7,1,2026-06-01T18:10:22.595982+05:30
Saharanpur,Uttar Pradesh,29.9637,77.546,29.7,53,0.0,974.8,7.05,27.7,131,44.7,22.9,4.0,312.0,144.0,3.6,4,5,7,1,2026-06-01T18:10:22.595988+05:30
Jhansi,Uttar Pradesh,25.4484,78.5685,34.7,38,0.0,975.8,8.45,26.3,82,126.2,38.6,1.5,161.0,119.0,4.4,0,5,7,1,2026-06-01T18:10:25.828322+05:30
Surat,Gujarat,21.1702,72.8311,32.4,61,0.0,1004.5,7.55,43.9,70,49.0,25.0,17.0,272.0,41.0,42.1,3,5,4,1,2026-06-01T18:10:25.828357+05:30
Vadodara,Gujarat,22.3072,73.1812,38.0,32,0.0,1000.6,8.0,39.6,66,58.0,23.2,3.0,164.0,103.0,5.0,0,5,7,1,2026-06-01T18:10:25.828367+05:30
Rajkot,Gujarat,22.3039,70.8022,34.2,57,0.0,991.4,7.55,49.7,62,51.6,19.6,1.7,116.0,91.0,4.0,0,5,7,1,2026-06-01T18:10:25.828375+05:30
Thane,Maharashtra,19.2183,72.9781,32.8,58,0.0,1006.1,7.7,38.9,51,26.0,12.6,6.8,160.0,65.0,4.7,0,5,4,1,2026-06-01T18:10:25.828383+05:30
Nagpur,Maharashtra,21.1458,79.0882,38.5,21,0.0,970.1,8.85,32.0,134,34.9,16.5,7.0,196.0,150.0,18.4,0,5,10,0,2026-06-01T18:10:25.828391+05:30
Nashik,Maharashtra,19.9975,73.7898,32.0,43,0.0,943.8,8.0,38.9,45,27.4,11.6,1.7,136.0,84.0,1.4,0,5,7,1,2026-06-01T18:10:25.828398+05:30
Aurangabad,Maharashtra,19.8762,75.3433,36.8,26,0.0,942.3,8.9,61.2,53,48.9,15.7,1.6,170.0,109.0,2.1,0,5,10,0,2026-06-01T18:10:25.828405+05:30
Solapur,Maharashtra,17.6599,75.9064,36.8,30,0.0,955.8,8.9,33.8,77,33.4,14.3,1.9,136.0,130.0,3.3,0,5,10,1,2026-06-01T18:10:25.828412+05:30
Kolhapur,Maharashtra,16.705,74.2433,29.2,60,0.1,947.6,8.75,56.9,46,20.8,10.6,3.8,143.0,88.0,1.7,7,5,7,1,2026-06-01T18:10:25.828420+05:30
Goa,Goa,15.2993,74.124,31.4,64,0.0,996.8,8.7,29.2,49,10.0,5.8,1.3,145.0,60.0,1.0,3,5,7,1,2026-06-01T18:10:25.828427+05:30
Jodhpur,Rajasthan,26.2389,73.0243,34.0,36,0.0,980.5,8.4,36.7,90,163.4,36.0,1.3,161.0,92.0,1.9,0,5,7,1,2026-06-01T18:10:25.828433+05:30
Udaipur,Rajasthan,24.5854,73.7125,33.8,33,0.0,945.1,8.8,35.3,71,49.7,18.5,0.9,131.0,101.0,2.4,0,5,7,0,2026-06-01T18:10:25.828441+05:30
Kota,Rajasthan,25.2138,75.8648,35.9,42,0.1,977.6,8.3,52.9,78,102.9,30.3,1.4,141.0,117.0,5.4,3,5,10,1,2026-06-01T18:10:25.828448+05:30
Bikaner,Rajasthan,28.0229,73.3119,28.5,65,0.2,981.3,8.4,34.2,119,203.0,46.7,0.6,128.0,90.0,2.2,10,5,7,1,2026-06-01T18:10:25.828455+05:30
Ajmer,Rajasthan,26.4499,74.6399,28.0,57,0.0,952.4,8.3,45.4,85,105.9,30.6,1.1,137.0,102.0,3.2,4,5,7,1,2026-06-01T18:10:25.828462+05:30
Gwalior,Madhya Pradesh,26.2183,78.1828,31.5,52,0.0,980.9,8.2,30.6,89,165.3,47.5,1.0,205.0,126.0,2.6,0,5,7,1,2026-06-01T18:10:25.828469+05:30
Indore,Madhya Pradesh,22.7196,75.8577,27.7,54,0.0,946.3,8.6,38.5,72,61.0,26.3,2.0,204.0,111.0,4.1,4,5,7,1,2026-06-01T18:10:25.828476+05:30
Bhopal,Madhya Pradesh,23.2599,77.4126,27.4,58,0.0,951.4,8.65,51.8,82,59.5,22.3,1.4,176.0,114.0,4.0,4,5,7,1,2026-06-01T18:10:25.828483+05:30
Jabalpur,Madhya Pradesh,23.1815,79.9864,35.7,29,0.0,959.4,8.8,22.7,109,41.8,18.0,1.8,174.0,137.0,3.6,0,5,10,0,2026-06-01T18:10:25.828490+05:30
Ujjain,Madhya Pradesh,23.1765,75.7885,29.7,53,0.0,952.1,8.55,39.2,73,53.2,23.2,1.0,146.0,111.0,4.3,4,5,7,1,2026-06-01T18:10:25.828497+05:30
Visakhapatnam,Andhra Pradesh,17.6868,83.2185,32.6,66,0.0,1000.6,8.95,34.6,105,45.6,34.0,22.2,458.0,130.0,49.7,3,5,4,1,2026-06-01T18:10:25.828504+05:30
Vijayawada,Andhra Pradesh,16.5062,80.648,37.3,39,0.0,999.4,9.0,25.2,117,58.4,32.1,7.2,212.0,130.0,6.5,0,5,10,1,2026-06-01T18:10:25.828510+05:30
Guntur,Andhra Pradesh,16.3067,80.4365,37.6,39,0.0,1000.7,9.0,32.4,104,50.1,25.4,4.4,182.0,130.0,5.3,0,5,7,1,2026-06-01T18:10:25.828516+05:30
Nellore,Andhra Pradesh,14.4426,79.9865,34.7,56,0.0,1003.0,8.8,29.5,109,47.7,27.0,3.1,197.0,150.0,4.2,0,5,4,1,2026-06-01T18:10:25.828525+05:30
Kurnool,Andhra Pradesh,15.8281,78.0373,36.0,39,0.0,974.4,8.95,38.2,96,44.0,18.8,1.9,162.0,141.0,6.9,0,5,10,1,2026-06-01T18:10:25.828532+05:30
Kakinada,Andhra Pradesh,16.9891,82.2475,33.7,58,0.0,1004.2,8.95,34.6,113,39.0,27.5,2.2,277.0,138.0,4.9,0,5,4,1,2026-06-01T18:10:25.828539+05:30
Tirupati,Andhra Pradesh,13.6288,79.4192,34.2,43,0.0,989.0,8.85,34.6,76,26.8,16.9,8.9,230.0,105.0,3.4,0,5,7,1,2026-06-01T18:10:25.828545+05:30
Warangal,Telangana,17.9689,79.5941,35.6,35,0.0,976.4,9.0,28.8,125,52.3,26.4,3.7,204.0,157.0,11.4,0,5,10,1,2026-06-01T18:10:25.828551+05:30
Nizamabad,Telangana,18.6725,78.0941,35.5,33,0.0,962.7,9.0,30.2,69,38.5,17.7,1.6,156.0,121.0,2.8,0,5,10,1,2026-06-01T18:10:25.828557+05:30
Mysore,Karnataka,12.2958,76.6396,23.9,87,0.1,927.9,8.95,43.9,55,15.7,10.5,6.1,266.0,116.0,2.4,6,5,7,1,2026-06-01T18:10:25.828564+05:30
Mangalore,Karnataka,12.9141,74.856,29.3,75,0.1,1006.4,8.75,38.2,49,10.0,7.1,3.7,156.0,75.0,1.6,10,5,4,1,2026-06-01T18:10:25.828570+05:30
Hubli-Dharwad,Karnataka,15.3647,75.124,29.8,56,0.0,940.3,8.9,41.0,43,21.0,10.5,3.4,163.0,93.0,1.2,4,5,7,1,2026-06-01T18:10:25.828576+05:30
Belgaum,Karnataka,15.8497,74.4977,27.4,66,0.0,925.6,8.95,47.9,47,14.1,7.4,3.5,138.0,76.0,1.4,7,5,7,1,2026-06-01T18:10:29.066495+05:30
Coimbatore,Tamil Nadu,11.0168,76.9558,28.5,62,0.0,961.1,8.75,47.9,98,10.8,9.8,6.1,220.0,100.0,2.8,7,5,7,1,2026-06-01T18:10:29.066531+05:30
Madurai,Tamil Nadu,9.9252,78.1198,29.8,65,0.2,992.4,8.85,37.4,112,37.7,19.2,6.7,174.0,115.0,4.1,10,5,7,1,2026-06-01T18:10:29.066542+05:30
Trichy,Tamil Nadu,10.7905,78.7047,32.1,55,0.0,997.9,8.6,32.4,85,28.7,17.5,5.2,210.0,127.0,3.6,0,5,7,1,2026-06-01T18:10:29.066550+05:30
Salem,Tamil Nadu,11.6643,78.146,34.4,58,0.1,977.1,8.45,28.1,139,26.1,19.3,5.4,247.0,164.0,12.1,3,5,7,1,2026-06-01T18:10:29.066558+05:30
Tirunelveli,Tamil Nadu,8.7139,77.7567,34.5,45,0.0,1001.3,8.75,42.8,40,7.9,6.1,3.1,155.0,78.0,0.9,0,5,4,1,2026-06-01T18:10:29.066566+05:30
Vellore,Tamil Nadu,12.9165,79.1325,32.3,55,0.0,983.4,9.0,36.4,91,26.7,19.6,9.5,268.0,114.0,3.3,0,5,7,1,2026-06-01T18:10:29.066573+05:30
Erode,Tamil Nadu,11.341,77.7172,33.7,41,0.0,987.6,8.3,49.0,119,20.5,14.1,5.0,281.0,149.0,2.6,0,5,7,1,2026-06-01T18:10:29.066581+05:30
Kochi,Kerala,9.9312,76.2673,27.2,87,0.0,1008.6,7.7,34.2,50,12.5,8.9,8.4,163.0,56.0,2.8,7,0,4,1,2026-06-01T18:10:29.066589+05:30
Thiruvananthapuram,Kerala,8.5241,76.9366,28.0,78,0.0,1008.2,7.2,38.2,38,11.2,6.9,1.4,144.0,68.0,0.6,7,0,4,1,2026-06-01T18:10:29.066596+05:30
Kozhikode,Kerala,11.2588,75.7804,26.3,94,0.0,1007.7,7.75,29.5,39,7.7,4.7,0.8,197.0,76.0,0.5,7,5,4,1,2026-06-01T18:10:29.066603+05:30
Thrissur,Kerala,10.5276,76.2144,25.7,100,0.0,1006.9,8.1,30.6,49,12.5,8.8,7.1,212.0,59.0,2.3,7,5,4,1,2026-06-01T18:10:29.066610+05:30
Kannur,Kerala,11.8745,75.3704,27.2,92,0.0,1006.8,8.35,27.4,42,8.2,5.7,2.2,212.0,79.0,1.2,7,5,4,1,2026-06-01T18:10:29.066617+05:30
Patna,Bihar,25.5941,85.1376,33.3,54,0.0,998.1,8.85,14.0,199,61.7,50.9,12.7,440.0,156.0,11.8,0,5,7,1,2026-06-01T18:10:29.066624+05:30
Gaya,Bihar,24.7914,85.0002,33.5,49,0.0,991.5,8.9,21.6,172,58.0,43.1,6.3,406.0,160.0,9.7,0,5,7,1,2026-06-01T18:10:29.066631+05:30
Muzaffarpur,Bihar,26.1209,85.3647,32.0,63,0.0,998.1,8.85,16.9,193,58.8,48.8,14.1,435.0,143.0,10.4,3,5,7,1,2026-06-01T18:10:29.066637+05:30
Bhagalpur,Bihar,25.2425,87.0117,31.9,67,0.0,998.7,8.8,18.7,210,72.4,58.6,9.4,376.0,207.0,24.6,3,5,7,1,2026-06-01T18:10:29.066643+05:30
Ranchi,Jharkhand,23.3441,85.3096,26.4,80,0.0,936.7,9.2,35.3,175,60.3,39.6,4.1,349.0,163.0,10.4,7,5,7,1,2026-06-01T18:10:29.066650+05:30
Jamshedpur,Jharkhand,22.8046,86.2029,30.7,65,0.0,988.7,9.05,29.9,202,60.3,48.0,6.4,472.0,191.0,17.7,3,5,7,1,2026-06-01T18:10:29.066656+05:30
Dhanbad,Jharkhand,23.7957,86.4304,31.6,57,0.0,977.9,9.0,17.6,200,88.2,78.5,32.3,529.0,193.0,84.2,0,5,7,1,2026-06-01T18:10:29.066663+05:30
Bokaro,Jharkhand,23.6693,86.1511,31.4,63,0.0,981.7,9.05,19.1,203,86.1,72.9,29.9,419.0,196.0,88.5,3,5,7,1,2026-06-01T18:10:29.066670+05:30
Bhubaneswar,Odisha,20.2961,85.8245,31.4,75,0.0,999.7,9.0,33.1,140,45.3,37.0,7.8,322.0,125.0,8.5,3,5,7,1,2026-06-01T18:10:29.066676+05:30
Cuttack,Odisha,20.4625,85.8828,33.4,63,0.0,1001.3,9.1,28.8,140,45.3,37.0,7.8,323.0,125.0,8.5,3,5,4,1,2026-06-01T18:10:29.066682+05:30
Rourkela,Odisha,22.2604,84.8536,32.7,54,0.0,983.1,8.95,45.4,199,56.8,42.3,7.2,332.0,178.0,15.0,0,5,7,1,2026-06-01T18:10:29.066689+05:30
Raipur,Chhattisgarh,21.2514,81.6296,35.2,35,0.0,971.9,8.3,33.1,131,75.9,42.3,21.3,158.0,147.0,48.4,0,5,10,1,2026-06-01T18:10:29.066695+05:30
Bhilai,Chhattisgarh,21.1938,81.3509,36.3,33,0.0,972.4,8.45,29.2,131,88.9,45.4,27.5,392.0,127.0,59.0,0,5,10,1,2026-06-01T18:10:29.066702+05:30
Guwahati,Assam,26.1158,91.7086,30.4,74,0.0,998.9,8.55,25.9,100,37.6,29.7,5.8,388.0,99.0,2.6,3,5,7,1,2026-06-01T18:10:29.066708+05:30
Agartala,Tripura,23.8315,91.2868,30.1,76,0.0,1004.2,8.85,29.5,159,55.5,44.6,14.2,340.0,149.0,10.7,3,5,4,1,2026-06-01T18:10:29.066731+05:30
Shillong,Meghalaya,25.5788,91.8933,20.9,90,0.0,857.5,8.3,24.1,66,18.0,14.6,5.8,294.0,101.0,2.3,3,5,7,1,2026-06-01T18:10:29.066737+05:30
Imphal,Manipur,24.817,93.9368,24.4,88,0.0,922.1,9.05,14.4,54,7.2,7.0,8.6,332.0,56.0,1.5,3,5,7,1,2026-06-01T18:10:29.066744+05:30
Aizawl,Mizoram,23.7271,92.7176,21.4,95,0.0,891.8,9.05,19.8,62,20.7,15.8,4.6,305.0,86.0,2.3,3,5,7,1,2026-06-01T18:10:29.066751+05:30
Kohima,Nagaland,25.6701,94.1077,20.9,96,0.1,855.2,8.5,24.1,33,6.2,5.6,4.2,199.0,68.0,0.8,6,5,7,1,2026-06-01T18:10:29.066757+05:30
Gangtok,Sikkim,27.3314,88.6138,19.4,85,0.0,838.6,9.2,39.2,103,24.8,19.0,3.5,305.0,132.0,2.1,3,10,7,1,2026-06-01T18:10:29.066764+05:30
Siliguri,West Bengal,26.7271,88.3953,30.6,71,0.0,990.8,8.75,25.9,142,47.8,36.0,7.0,732.0,144.0,5.2,3,5,7,1,2026-06-01T18:10:32.311882+05:30
Durgapur,West Bengal,23.5204,87.3119,30.8,73,0.0,992.7,8.95,34.6,176,75.7,67.3,31.5,488.0,152.0,68.5,3,5,7,1,2026-06-01T18:10:32.311918+05:30
Asansol,West Bengal,23.6739,86.9524,31.0,69,0.0,991.4,9.0,32.4,182,77.8,69.2,29.6,727.0,164.0,62.8,3,5,7,1,2026-06-01T18:10:32.311929+05:30
Pondicherry,Puducherry,11.9139,79.8145,30.4,75,0.0,1006.0,8.85,39.6,137,36.7,27.9,15.8,199.0,135.0,5.5,3,5,4,1,2026-06-01T18:10:32.311938+05:30
Port Blair,Andaman and Nicobar Islands,11.6234,92.7265,26.9,88,0.0,1006.7,8.85,37.1,34,9.9,5.4,0.6,133.0,66.0,0.5,7,5,4,1,2026-06-01T18:10:32.311947+05:30
Haridwar,Uttarakhand,29.9457,78.1642,27.8,55,0.0,973.2,7.55,23.4,129,39.1,20.2,2.3,238.0,151.0,3.7,4,5,7,1,2026-06-01T18:10:32.311955+05:30
Rishikesh,Uttarakhand,30.0869,78.2676,26.0,58,0.0,965.8,7.55,25.2,120,32.5,17.9,1.6,268.0,151.0,2.9,4,5,7,1,2026-06-01T18:10:32.311962+05:30
Nainital,Uttarakhand,29.3919,79.4542,16.9,67,0.0,805.7,6.9,42.1,107,30.9,16.9,1.9,221.0,137.0,1.5,3,5,7,0,2026-06-01T18:10:32.311969+05:30
Mussoorie,Uttarakhand,30.4599,78.0664,16.3,75,0.0,803.4,8.0,34.9,138,24.1,15.7,3.5,254.0,154.0,3.6,3,5,7,0,2026-06-01T18:10:32.311977+05:30
Dharamshala,Himachal Pradesh,32.219,76.3234,23.3,53,0.0,870.5,8.35,40.0,98,12.5,7.9,2.5,220.0,130.0,0.6,0,5,7,0,2026-06-01T18:10:32.311984+05:30
Dalhousie,Himachal Pradesh,32.5387,75.971,19.4,60,0.0,807.2,8.3,35.3,129,21.7,11.0,3.4,264.0,150.0,1.1,0,5,7,0,2026-06-01T18:10:32.311991+05:30
Patiala,Punjab,30.3398,76.3869,31.1,45,0.0,977.0,7.45,25.6,182,211.9,38.3,2.7,265.0,163.0,8.3,0,5,7,1,2026-06-01T18:10:32.311999+05:30
Bhatinda,Punjab,30.211,74.9455,34.5,33,0.0,981.9,8.3,33.8,406,315.7,58.7,4.1,245.0,167.0,13.6,0,5,7,0,2026-06-01T18:10:32.312005+05:30
Rohtak,Haryana,28.8955,76.6066,32.5,37,0.0,980.0,7.1,33.5,279,244.9,54.2,6.3,281.0,201.0,16.6,0,5,7,0,2026-06-01T18:10:32.312013+05:30
Panipat,Haryana,29.3909,76.9635,31.1,44,0.0,979.1,7.3,37.4,579,571.8,79.4,5.6,272.0,169.0,14.5,0,5,7,1,2026-06-01T18:10:32.312020+05:30
Mathura,Uttar Pradesh,27.4924,77.6737,32.3,48,0.0,984.6,8.0,28.8,240,267.3,55.1,3.7,269.0,149.0,4.4,0,5,7,1,2026-06-01T18:10:32.312028+05:30
Vrindavan,Uttar Pradesh,27.5823,77.7027,32.7,45,0.0,985.1,7.95,28.1,240,267.3,55.1,3.7,248.0,149.0,4.4,0,5,7,1,2026-06-01T18:10:32.312036+05:30
Ayodhya,Uttar Pradesh,26.7922,82.1998,32.0,56,0.0,993.8,8.35,38.9,135,47.0,24.6,2.9,321.0,147.0,3.4,0,5,7,1,2026-06-01T18:10:32.312043+05:30
Ratlam,Madhya Pradesh,23.3315,75.0367,32.1,46,0.0,953.1,8.45,40.7,71,49.0,22.4,0.8,134.0,108.0,4.1,0,5,7,1,2026-06-01T18:10:32.312051+05:30
Sagar,Madhya Pradesh,23.8388,78.7378,33.3,32,0.0,948.4,8.15,46.1,81,66.4,21.7,0.9,150.0,111.0,1.9,0,5,7,0,2026-06-01T18:10:32.312058+05:30
Satna,Madhya Pradesh,24.6005,80.8322,34.8,40,0.0,970.0,8.75,22.3,124,32.5,25.5,2.8,177.0,146.0,3.7,0,5,7,1,2026-06-01T18:10:32.312065+05:30
Akola,Maharashtra,20.7002,77.0082,34.8,34,0.0,971.8,8.75,42.1,63,47.5,20.2,2.2,156.0,117.0,5.4,0,5,7,1,2026-06-01T18:10:32.312073+05:30
Amravati,Maharashtra,20.9374,77.7796,33.5,38,0.1,965.6,8.8,43.9,72,47.7,21.1,2.7,213.0,122.0,6.7,3,5,7,1,2026-06-01T18:10:32.312082+05:30
Latur,Maharashtra,18.4088,76.5604,35.8,35,0.0,939.5,8.95,39.2,64,34.7,14.5,1.6,141.0,120.0,2.8,0,5,10,1,2026-06-01T18:10:32.312090+05:30
Nanded,Maharashtra,19.1383,77.3091,37.3,36,0.0,966.7,8.85,35.6,61,47.5,19.8,1.7,160.0,117.0,2.6,0,5,10,1,2026-06-01T18:10:32.312098+05:30
Gulbarga,Karnataka,17.3297,76.8343,36.2,29,0.0,957.0,8.85,34.6,95,32.2,14.7,2.9,290.0,141.0,4.3,0,5,10,0,2026-06-01T18:10:32.312105+05:30
Bidar,Karnataka,17.9104,77.5199,33.7,36,0.0,934.1,9.0,35.6,70,31.0,14.5,2.5,166.0,122.0,2.4,0,5,7,1,2026-06-01T18:10:32.312112+05:30
Hospet,Karnataka,15.2689,76.3909,32.5,48,0.0,954.2,8.95,40.7,51,51.1,19.0,3.4,212.0,117.0,4.4,0,5,7,1,2026-06-01T18:10:32.312120+05:30
Tirupur,Tamil Nadu,11.1085,77.3411,30.5,58,0.0,974.1,8.75,46.8,117,15.8,12.1,6.0,213.0,126.0,3.4,0,5,7,1,2026-06-01T18:10:32.312129+05:30
Alappuzha,Kerala,9.4981,76.3388,26.6,93,0.1,1009.0,7.1,33.1,39,10.0,6.8,5.3,108.0,60.0,1.2,10,0,4,1,2026-06-01T18:10:32.312137+05:30
Munnar,Kerala,10.0889,77.0595,18.9,98,0.0,857.0,8.35,28.8,47,17.9,11.1,5.6,164.0,82.0,1.5,3,10,7,1,2026-06-01T18:10:32.312144+05:30
Silchar,Assam,24.8333,92.7789,29.3,82,0.0,1003.1,8.9,23.0,83,29.6,22.8,4.2,346.0,117.0,5.1,7,5,4,1,2026-06-01T18:10:32.312152+05:30
Dibrugarh,Assam,27.4728,94.912,29.9,79,0.0,993.1,8.8,16.6,73,14.1,13.4,5.5,262.0,90.0,1.5,7,5,7,1,2026-06-01T18:10:32.312159+05:30
