city,state,latitude,longitude,temp,humidity,rain,pressure,uv_index,wind_gusts,aqi,pm10,pm2_5,mosquito_risk,arthritis_risk,migraine_risk,frizz_risk,updated_at
Delhi,Delhi,28.6139,77.209,30.3,41,0.0,987.2,6.9,18.0,140,132.2,39.6,0,5,7,0,2026-04-02T10:35:55.129926+05:30
Mumbai,Maharashtra,19.076,72.8777,27.5,75,0.0,1011.5,7.9,19.8,66,32.4,21.8,7,0,4,1,2026-04-02T10:35:55.129977+05:30
Bangalore,Karnataka,12.9716,77.5946,27.8,51,0.0,915.4,9.6,23.4,56,10.6,9.0,4,5,7,1,2026-04-02T10:35:55.129992+05:30
Hyderabad,Telangana,17.385,78.4867,31.0,39,0.0,958.2,9.1,26.6,68,13.4,10.0,0,5,7,0,2026-04-02T10:35:55.130002+05:30
Chennai,Tamil Nadu,13.0827,80.2707,32.1,54,0.0,1011.1,9.3,31.0,36,15.8,11.9,0,0,4,1,2026-04-02T10:35:55.130011+05:30
Kolkata,West Bengal,22.5726,88.3639,32.1,66,0.0,1008.9,8.6,24.5,91,31.3,26.6,3,0,4,1,2026-04-02T10:35:55.130020+05:30
Pune,Maharashtra,18.5204,73.8567,30.9,61,0.0,951.7,8.45,24.8,113,51.3,42.7,3,5,7,1,2026-04-02T10:35:55.130032+05:30
Ahmedabad,Gujarat,23.0225,72.5714,29.7,49,0.0,1005.3,7.8,38.5,58,36.1,17.5,4,5,4,1,2026-04-02T10:35:55.130040+05:30
Jaipur,Rajasthan,26.9124,75.7873,30.6,42,0.0,963.1,7.45,34.6,110,168.1,30.5,0,5,7,1,2026-04-02T10:35:55.130048+05:30
Lucknow,Uttar Pradesh,26.8467,80.9462,33.0,36,0.0,997.0,7.15,32.4,70,57.3,23.0,0,5,7,0,2026-04-02T10:35:55.130057+05:30
Kanpur,Uttar Pradesh,26.4499,80.3319,31.3,47,0.0,995.6,6.95,23.0,98,117.8,31.5,0,5,7,1,2026-04-02T10:35:55.130064+05:30
Chandigarh,Chandigarh,30.7333,76.7794,26.1,63,0.0,972.6,6.6,22.0,72,52.4,18.7,7,5,7,1,2026-04-02T10:35:55.130073+05:30
Srinagar,Jammu and Kashmir,34.0837,74.7973,13.0,77,0.0,846.6,7.1,14.4,109,39.6,23.6,3,5,7,0,2026-04-02T10:35:55.130080+05:30
Jammu,Jammu and Kashmir,32.7266,74.857,30.1,35,0.0,977.4,7.4,19.8,83,36.2,15.4,0,5,7,0,2026-04-02T10:35:55.130087+05:30
Amritsar,Punjab,31.634,74.8723,27.9,53,0.0,985.4,7.35,20.9,104,35.4,18.5,4,5,7,1,2026-04-02T10:35:55.130095+05:30
Ludhiana,Punjab,30.901,75.8573,27.0,56,0.0,983.2,6.75,20.2,129,53.6,39.7,4,5,7,1,2026-04-02T10:35:55.130102+05:30
Jalandhar,Punjab,31.326,75.5762,28.1,53,0.0,984.3,7.2,16.9,101,49.6,30.3,4,5,7,1,2026-04-02T10:35:55.130111+05:30
Dehradun,Uttarakhand,30.6284,78.0322,21.3,35,0.0,835.5,6.25,27.4,31,30.6,7.4,0,5,7,0,2026-04-02T10:35:55.130118+05:30
Shimla,Himachal Pradesh,31.1048,77.1734,19.7,38,0.0,790.5,6.9,31.3,56,41.9,10.5,0,5,7,0,2026-04-02T10:35:55.130126+05:30
Manali,Himachal Pradesh,32.2396,77.1887,18.5,42,0.0,826.0,8.4,26.6,50,13.0,4.7,0,5,7,0,2026-04-02T10:35:55.130133+05:30
Gurgaon,Haryana,28.4595,77.0266,30.9,40,0.0,985.6,6.35,18.4,271,448.9,72.6,0,5,7,0,2026-04-02T10:35:55.130140+05:30
Noida,Uttar Pradesh,28.5355,77.391,30.2,43,0.0,988.7,6.95,17.3,271,448.9,72.6,0,5,7,1,2026-04-02T10:35:55.130147+05:30
Ghaziabad,Uttar Pradesh,28.6692,77.4538,29.7,50,0.0,987.1,6.9,16.9,126,84.5,27.9,4,5,7,1,2026-04-02T10:35:55.130153+05:30
Faridabad,Haryana,28.4089,77.3178,30.6,41,0.0,988.1,6.95,19.8,271,448.9,72.6,0,5,7,0,2026-04-02T10:35:55.130160+05:30
Meerut,Uttar Pradesh,28.9845,77.7064,30.8,46,0.0,985.6,6.75,17.3,126,84.5,27.9,0,5,7,1,2026-04-02T10:35:55.130166+05:30
Agra,Uttar Pradesh,27.1767,78.0081,30.2,47,0.0,991.5,7.3,24.1,191,324.1,57.2,0,5,7,1,2026-04-02T10:35:55.130173+05:30
Varanasi,Uttar Pradesh,25.3176,82.9739,33.5,46,0.0,1000.7,7.5,33.8,83,68.2,22.4,0,5,4,1,2026-04-02T10:35:55.130182+05:30
Prayagraj,Uttar Pradesh,25.4358,81.8463,33.6,42,0.0,999.4,7.85,24.5,69,88.5,27.7,0,5,7,1,2026-04-02T10:35:55.130189+05:30
Gorakhpur,Uttar Pradesh,26.7606,83.3732,32.6,36,0.0,1000.1,7.85,41.0,61,37.6,19.7,0,5,4,0,2026-04-02T10:35:55.130196+05:30
Bareilly,Uttar Pradesh,28.367,79.4304,31.0,42,0.0,990.7,7.15,28.4,93,46.0,16.5,0,5,7,1,2026-04-02T10:35:55.130202+05:30
Aligarh,Uttar Pradesh,27.8974,78.088,31.6,38,0.0,989.7,7.05,15.5,142,118.5,35.6,0,5,7,0,2026-04-02T10:35:55.130209+05:30
Moradabad,Uttar Pradesh,28.8386,78.7733,30.4,46,0.0,987.7,7.0,25.6,108,48.4,21.8,0,5,7,1,2026-04-02T10:35:55.130215+05:30
Saharanpur,Uttar Pradesh,29.9637,77.546,27.6,55,0.0,979.9,5.9,22.0,95,34.0,18.5,4,5,3,1,2026-04-02T10:35:55.130246+05:30
Jhansi,Uttar Pradesh,25.4484,78.5685,33.1,43,0.0,981.6,6.9,28.1,68,67.3,22.7,0,5,7,1,2026-04-02T10:35:58.344926+05:30
Surat,Gujarat,21.1702,72.8311,29.6,55,0.0,1009.9,7.2,32.0,87,45.8,37.1,4,0,4,1,2026-04-02T10:35:58.344957+05:30
Vadodara,Gujarat,22.3072,73.1812,30.7,49,0.0,1007.6,7.6,35.3,68,30.3,20.8,0,5,4,1,2026-04-02T10:35:58.344966+05:30
Rajkot,Gujarat,22.3039,70.8022,28.7,51,0.0,997.3,7.15,42.8,56,36.2,16.6,4,5,7,1,2026-04-02T10:35:58.344974+05:30
Thane,Maharashtra,19.2183,72.9781,29.4,63,0.0,1011.0,7.9,30.2,66,32.4,21.8,7,0,4,1,2026-04-02T10:35:58.344981+05:30
Nagpur,Maharashtra,21.1458,79.0882,29.8,53,0.0,977.9,8.65,34.6,88,45.4,33.6,4,5,7,1,2026-04-02T10:35:58.344988+05:30
Nashik,Maharashtra,19.9975,73.7898,28.9,63,0.0,948.7,8.15,37.8,65,30.3,22.8,7,5,7,1,2026-04-02T10:35:58.344995+05:30
Aurangabad,Maharashtra,19.8762,75.3433,28.6,53,0.0,948.3,8.85,28.1,106,53.2,41.4,4,5,7,1,2026-04-02T10:35:58.345001+05:30
Solapur,Maharashtra,17.6599,75.9064,32.1,44,0.0,961.1,8.9,46.1,123,43.2,36.4,0,5,7,1,2026-04-02T10:35:58.345009+05:30
Kolhapur,Maharashtra,16.705,74.2433,29.0,59,0.0,951.4,8.95,34.9,134,58.2,50.3,4,5,7,1,2026-04-02T10:35:58.345016+05:30
Goa,Goa,15.2993,74.124,32.0,63,0.0,1000.5,8.85,31.3,74,34.5,27.2,3,5,4,1,2026-04-02T10:35:58.345022+05:30
Jodhpur,Rajasthan,26.2389,73.0243,30.9,33,0.0,985.6,7.65,37.8,74,69.2,14.6,0,5,7,0,2026-04-02T10:35:58.345029+05:30
Udaipur,Rajasthan,24.5854,73.7125,29.2,37,0.0,949.3,8.2,39.6,45,18.8,9.6,4,5,7,0,2026-04-02T10:35:58.345036+05:30
Kota,Rajasthan,25.2138,75.8648,33.2,40,0.0,981.6,7.55,29.5,72,51.5,19.6,0,5,7,1,2026-04-02T10:35:58.345042+05:30
Bikaner,Rajasthan,28.0229,73.3119,30.9,30,0.0,983.8,7.45,42.5,63,73.1,26.1,0,5,7,0,2026-04-02T10:35:58.345049+05:30
Ajmer,Rajasthan,26.4499,74.6399,29.7,33,0.0,957.8,6.35,31.3,68,65.9,14.7,4,5,7,0,2026-04-02T10:35:58.345055+05:30
Gwalior,Madhya Pradesh,26.2183,78.1828,32.9,44,0.0,986.9,6.8,23.4,66,86.1,23.7,0,5,7,1,2026-04-02T10:35:58.345061+05:30
Indore,Madhya Pradesh,22.7196,75.8577,30.5,38,0.0,951.8,8.2,41.0,87,29.2,20.3,0,5,7,0,2026-04-02T10:35:58.345067+05:30
Bhopal,Madhya Pradesh,23.2599,77.4126,32.2,41,0.0,957.9,7.85,34.6,81,34.9,28.1,0,5,7,1,2026-04-02T10:35:58.345074+05:30
Jabalpur,Madhya Pradesh,23.1815,79.9864,31.0,46,0.0,965.8,7.95,29.5,84,38.2,26.5,0,5,7,1,2026-04-02T10:35:58.345080+05:30
Ujjain,Madhya Pradesh,23.1765,75.7885,29.9,43,0.0,957.4,8.2,31.0,73,26.3,16.2,4,5,7,0,2026-04-02T10:35:58.345086+05:30
Visakhapatnam,Andhra Pradesh,17.6868,83.2185,32.3,53,0.0,1008.2,9.05,35.3,55,14.2,11.7,0,0,4,1,2026-04-02T10:35:58.345093+05:30
Vijayawada,Andhra Pradesh,16.5062,80.648,30.9,59,0.0,1007.6,9.15,27.4,48,10.4,8.0,0,5,4,1,2026-04-02T10:35:58.345100+05:30
Guntur,Andhra Pradesh,16.3067,80.4365,31.6,56,0.0,1008.7,9.15,26.6,44,9.3,6.9,0,0,4,1,2026-04-02T10:35:58.345106+05:30
Nellore,Andhra Pradesh,14.4426,79.9865,31.8,56,0.0,1010.2,9.15,28.8,33,17.5,13.3,0,0,4,1,2026-04-02T10:35:58.345113+05:30
Kurnool,Andhra Pradesh,15.8281,78.0373,32.9,29,0.0,981.3,9.15,24.8,54,6.3,4.8,0,5,7,0,2026-04-02T10:35:58.345120+05:30
Kakinada,Andhra Pradesh,16.9891,82.2475,32.3,54,0.0,1012.2,9.1,34.9,30,8.9,6.5,0,0,4,1,2026-04-02T10:35:58.345126+05:30
Tirupati,Andhra Pradesh,13.6288,79.4192,30.4,49,0.0,996.1,9.35,32.8,51,14.6,11.0,0,5,7,1,2026-04-02T10:35:58.345132+05:30
Warangal,Telangana,17.9689,79.5941,28.9,60,0.0,984.3,9.0,25.9,73,11.8,10.3,4,5,7,1,2026-04-02T10:35:58.345138+05:30
Nizamabad,Telangana,18.6725,78.0941,29.9,58,0.0,969.8,8.9,34.2,119,57.0,47.1,4,5,7,1,2026-04-02T10:35:58.345144+05:30
Mysore,Karnataka,12.2958,76.6396,27.9,58,0.0,931.9,9.5,34.2,80,21.4,19.7,4,5,7,1,2026-04-02T10:35:58.345151+05:30
Mangalore,Karnataka,12.9141,74.856,28.7,81,0.0,1009.7,8.45,22.3,80,31.4,25.8,7,0,4,1,2026-04-02T10:35:58.345157+05:30
Hubli-Dharwad,Karnataka,15.3647,75.124,29.6,58,0.0,944.2,9.15,35.3,97,35.5,32.2,4,5,7,1,2026-04-02T10:35:58.345164+05:30
Belgaum,Karnataka,15.8497,74.4977,28.2,63,0.0,929.0,9.1,32.0,97,46.0,39.8,7,5,7,1,2026-04-02T10:36:01.561335+05:30
Coimbatore,Tamil Nadu,11.0168,76.9558,29.7,56,0.0,965.6,9.4,44.3,62,10.1,9.3,4,5,7,1,2026-04-02T10:36:01.561369+05:30
Madurai,Tamil Nadu,9.9252,78.1198,30.5,58,0.0,996.8,9.35,31.0,53,10.9,8.5,0,5,7,1,2026-04-02T10:36:01.561381+05:30
Trichy,Tamil Nadu,10.7905,78.7047,30.1,59,0.0,1003.8,9.35,19.8,54,16.1,12.0,0,5,4,1,2026-04-02T10:36:01.561390+05:30
Salem,Tamil Nadu,11.6643,78.146,30.8,50,0.0,981.3,9.4,16.6,67,15.5,14.4,0,5,7,1,2026-04-02T10:36:01.561398+05:30
Tirunelveli,Tamil Nadu,8.7139,77.7567,32.8,49,0.0,1006.5,9.35,50.0,44,7.0,6.2,0,5,4,1,2026-04-02T10:36:01.561407+05:30
Vellore,Tamil Nadu,12.9165,79.1325,29.6,48,0.0,989.0,9.4,30.2,56,10.9,8.4,4,5,7,1,2026-04-02T10:36:01.561415+05:30
Erode,Tamil Nadu,11.341,77.7172,31.3,51,0.0,993.0,9.05,25.2,55,8.6,7.2,0,5,7,1,2026-04-02T10:36:01.561423+05:30
Kochi,Kerala,9.9312,76.2673,28.3,80,0.0,1011.6,9.2,29.5,81,24.1,21.0,7,0,4,1,2026-04-02T10:36:01.561431+05:30
Thiruvananthapuram,Kerala,8.5241,76.9366,28.7,78,0.0,1010.6,9.15,26.6,54,14.8,12.8,7,0,4,1,2026-04-02T10:36:01.561440+05:30
Kozhikode,Kerala,11.2588,75.7804,29.6,74,0.0,1010.9,9.05,25.9,63,18.7,15.8,7,0,4,1,2026-04-02T10:36:01.561447+05:30
Thrissur,Kerala,10.5276,76.2144,31.2,66,0.0,1010.0,9.2,33.1,75,23.0,20.4,3,0,4,1,2026-04-02T10:36:01.561456+05:30
Kannur,Kerala,11.8745,75.3704,30.3,68,0.0,1010.2,9.1,24.5,78,22.8,19.2,3,0,4,1,2026-04-02T10:36:01.561464+05:30
Patna,Bihar,25.5941,85.1376,32.8,47,0.0,1003.2,8.25,37.4,81,60.3,22.6,0,5,4,1,2026-04-02T10:36:01.561472+05:30
Gaya,Bihar,24.7914,85.0002,33.9,44,0.0,996.8,8.35,32.0,81,42.7,15.9,0,5,7,1,2026-04-02T10:36:01.561479+05:30
Muzaffarpur,Bihar,26.1209,85.3647,32.4,47,0.0,1003.1,8.25,35.6,97,56.6,25.1,0,5,4,1,2026-04-02T10:36:01.561487+05:30
Bhagalpur,Bihar,25.2425,87.0117,32.7,50,0.0,1003.7,8.25,30.6,103,29.9,21.4,0,5,4,1,2026-04-02T10:36:01.561495+05:30
Ranchi,Jharkhand,23.3441,85.3096,31.8,38,0.0,942.1,8.9,33.1,74,29.3,14.9,0,5,7,0,2026-04-02T10:36:01.561503+05:30
Jamshedpur,Jharkhand,22.8046,86.2029,34.5,47,0.0,994.1,8.75,33.8,102,56.7,39.1,0,5,7,1,2026-04-02T10:36:01.561511+05:30
Dhanbad,Jharkhand,23.7957,86.4304,34.6,36,0.0,982.9,8.65,31.7,154,46.2,30.9,0,5,7,1,2026-04-02T10:36:01.561519+05:30
Bokaro,Jharkhand,23.6693,86.1511,34.3,38,0.0,987.1,8.65,31.7,152,49.9,34.0,0,5,7,1,2026-04-02T10:36:01.561527+05:30
Bhubaneswar,Odisha,20.2961,85.8245,33.4,53,0.0,1006.4,8.9,32.0,67,17.2,13.3,0,5,4,1,2026-04-02T10:36:01.561535+05:30
Cuttack,Odisha,20.4625,85.8828,33.3,58,0.0,1008.2,8.95,24.5,67,17.2,13.3,0,0,4,1,2026-04-02T10:36:01.561542+05:30
Rourkela,Odisha,22.2604,84.8536,34.8,46,0.0,988.6,8.65,27.0,122,54.7,35.4,0,5,7,1,2026-04-02T10:36:01.561550+05:30
Raipur,Chhattisgarh,21.2514,81.6296,33.2,39,0.0,979.1,8.75,27.7,132,36.1,33.9,0,5,7,1,2026-04-02T10:36:01.561557+05:30
Bhilai,Chhattisgarh,21.1938,81.3509,33.1,42,0.0,979.4,8.75,29.2,131,33.6,31.2,0,5,7,1,2026-04-02T10:36:01.561564+05:30
Guwahati,Assam,26.1158,91.7086,25.7,79,0.0,1004.2,8.15,33.5,96,46.7,38.3,7,5,4,1,2026-04-02T10:36:01.561571+05:30
Agartala,Tripura,23.8315,91.2868,30.6,68,0.0,1009.5,8.4,43.2,105,56.2,46.9,3,0,4,1,2026-04-02T10:36:01.561579+05:30
Shillong,Meghalaya,25.5788,91.8933,20.6,57,0.0,859.9,8.55,70.9,89,39.1,31.4,0,5,7,0,2026-04-02T10:36:01.561586+05:30
Imphal,Manipur,24.817,93.9368,20.4,82,0.0,926.6,8.7,87.5,106,44.1,31.8,3,5,7,1,2026-04-02T10:36:01.561594+05:30
Aizawl,Mizoram,23.7271,92.7176,25.0,61,0.0,897.6,8.65,55.1,91,46.1,29.9,7,5,7,1,2026-04-02T10:36:01.561602+05:30
Kohima,Nagaland,25.6701,94.1077,20.8,58,0.0,858.6,8.65,105.5,82,29.6,20.2,0,5,7,0,2026-04-02T10:36:01.561610+05:30
Gangtok,Sikkim,27.3314,88.6138,20.7,65,0.0,840.8,8.4,20.9,67,22.1,17.0,3,5,7,0,2026-04-02T10:36:01.561617+05:30
Siliguri,West Bengal,26.7271,88.3953,24.8,75,0.0,996.1,8.2,24.5,153,57.0,45.1,3,5,7,1,2026-04-02T10:36:04.782202+05:30
Durgapur,West Bengal,23.5204,87.3119,34.5,50,0.0,997.9,8.6,27.4,152,70.3,55.1,0,5,7,1,2026-04-02T10:36:04.782264+05:30
Asansol,West Bengal,23.6739,86.9524,34.4,49,0.0,996.4,8.65,27.4,129,49.0,34.2,0,5,7,1,2026-04-02T10:36:04.782278+05:30
Pondicherry,Puducherry,11.9139,79.8145,30.5,59,0.0,1012.6,9.25,24.8,31,16.6,12.6,0,0,4,1,2026-04-02T10:36:04.782286+05:30
Port Blair,Andaman and Nicobar Islands,11.6234,92.7265,28.9,81,0.0,1009.3,9.15,31.3,35,7.5,4.5,7,0,4,1,2026-04-02T10:36:04.782294+05:30
Haridwar,Uttarakhand,29.9457,78.1642,29.6,41,0.0,978.5,6.25,25.2,65,25.8,11.2,4,5,7,0,2026-04-02T10:36:04.782302+05:30
Rishikesh,Uttarakhand,30.0869,78.2676,29.8,34,0.0,971.2,6.15,28.1,51,23.9,7.5,4,5,7,0,2026-04-02T10:36:04.782309+05:30
Nainital,Uttarakhand,29.3919,79.4542,25.9,24,0.0,812.4,7.25,44.3,59,24.0,8.2,4,5,7,0,2026-04-02T10:36:04.782317+05:30
Mussoorie,Uttarakhand,30.4599,78.0664,22.5,35,0.0,808.5,6.2,31.3,58,23.1,8.1,0,5,7,0,2026-04-02T10:36:04.782324+05:30
Dharamshala,Himachal Pradesh,32.219,76.3234,25.4,38,0.0,874.3,7.35,28.4,43,25.6,7.0,4,5,7,0,2026-04-02T10:36:04.782330+05:30
Dalhousie,Himachal Pradesh,32.5387,75.971,21.9,39,0.0,809.4,7.55,24.8,64,31.7,10.0,0,5,7,0,2026-04-02T10:36:04.782339+05:30
Patiala,Punjab,30.3398,76.3869,27.2,56,0.0,982.6,6.65,20.9,116,72.4,34.3,4,5,7,1,2026-04-02T10:36:04.782345+05:30
Bhatinda,Punjab,30.211,74.9455,27.5,55,0.0,987.8,7.3,50.4,97,64.5,27.0,4,5,7,1,2026-04-02T10:36:04.782352+05:30
Rohtak,Haryana,28.8955,76.6066,28.0,52,0.0,986.3,6.05,49.0,151,191.4,48.4,4,5,7,1,2026-04-02T10:36:04.782358+05:30
Panipat,Haryana,29.3909,76.9635,29.0,53,0.0,984.8,6.45,23.0,157,199.3,45.3,4,5,7,1,2026-04-02T10:36:04.782364+05:30
Mathura,Uttar Pradesh,27.4924,77.6737,30.1,47,0.0,991.1,7.15,21.6,124,243.1,52.5,0,5,7,1,2026-04-02T10:36:04.782370+05:30
Vrindavan,Uttar Pradesh,27.5823,77.7027,30.7,43,0.0,991.5,7.15,20.5,124,243.1,52.5,0,5,7,1,2026-04-02T10:36:04.782376+05:30
Ayodhya,Uttar Pradesh,26.7922,82.1998,33.0,36,0.0,998.6,7.65,37.1,62,37.0,18.7,0,5,7,0,2026-04-02T10:36:04.782382+05:30
Ratlam,Madhya Pradesh,23.3315,75.0367,29.1,48,0.0,958.3,8.15,35.3,65,24.7,13.9,4,5,7,1,2026-04-02T10:36:04.782389+05:30
Sagar,Madhya Pradesh,23.8388,78.7378,33.4,35,0.0,954.3,7.85,35.3,58,32.6,21.7,0,5,7,0,2026-04-02T10:36:04.782395+05:30
Satna,Madhya Pradesh,24.6005,80.8322,33.6,37,0.0,975.0,7.7,28.4,57,21.2,11.8,0,5,7,1,2026-04-02T10:36:04.782402+05:30
Akola,Maharashtra,20.7002,77.0082,31.8,47,0.0,979.4,7.8,24.1,85,52.3,40.4,0,5,7,1,2026-04-02T10:36:04.782409+05:30
Amravati,Maharashtra,20.9374,77.7796,31.6,52,0.0,971.8,8.6,24.1,80,51.1,39.1,0,5,7,1,2026-04-02T10:36:04.782416+05:30
Latur,Maharashtra,18.4088,76.5604,29.2,54,0.0,944.2,8.9,38.2,123,45.2,37.7,4,5,7,1,2026-04-02T10:36:04.782422+05:30
Nanded,Maharashtra,19.1383,77.3091,31.2,52,0.0,973.3,8.8,35.6,104,56.1,45.8,0,5,7,1,2026-04-02T10:36:04.782428+05:30
Gulbarga,Karnataka,17.3297,76.8343,31.4,48,0.0,963.0,8.95,39.2,102,15.0,11.8,0,5,7,1,2026-04-02T10:36:04.782434+05:30
Bidar,Karnataka,17.9104,77.5199,29.9,52,0.0,940.1,8.95,37.8,113,23.2,20.0,4,5,7,1,2026-04-02T10:36:04.782440+05:30
Hospet,Karnataka,15.2689,76.3909,30.2,51,0.0,959.5,9.15,35.3,101,19.6,16.9,0,5,7,1,2026-04-02T10:36:04.782445+05:30
Tirupur,Tamil Nadu,11.1085,77.3411,30.0,56,0.0,979.3,8.95,25.6,59,9.3,8.1,4,5,7,1,2026-04-02T10:36:04.782452+05:30
Alappuzha,Kerala,9.4981,76.3388,28.4,80,0.0,1011.6,9.2,26.6,74,25.8,22.4,7,0,4,1,2026-04-02T10:36:04.782458+05:30
Munnar,Kerala,10.0889,77.0595,27.3,52,0.0,861.3,9.75,33.1,61,10.1,8.8,4,5,7,1,2026-04-02T10:36:04.782465+05:30
Silchar,Assam,24.8333,92.7789,23.6,89,0.0,1010.0,8.45,34.2,131,56.2,39.1,3,0,4,1,2026-04-02T10:36:04.782471+05:30
Dibrugarh,Assam,27.4728,94.912,21.8,92,0.0,998.8,6.0,26.3,101,41.3,35.4,3,5,3,1,2026-04-02T10:36:04.782478+05:30
