city,state,latitude,longitude,temp,humidity,rain,pressure,uv_index,wind_gusts,aqi,pm10,pm2_5,no2,co,o3,so2,mosquito_risk,arthritis_risk,migraine_risk,frizz_risk,updated_at
Delhi,Delhi,28.6139,77.209,30.4,43,0.0,977.5,7.7,38.9,244,446.1,126.7,30.3,922.0,54.0,18.5,0,5,7,1,2026-05-16T02:34:54.829139+05:30
Mumbai,Maharashtra,19.076,72.8777,29.2,74,0.0,1004.4,7.9,49.0,62,20.5,12.4,3.2,148.0,45.0,2.3,7,5,4,1,2026-05-16T02:34:54.829186+05:30
Bangalore,Karnataka,12.9716,77.5946,25.1,64,0.0,907.3,8.3,33.8,113,52.0,40.2,38.9,518.0,30.0,11.5,7,5,7,1,2026-05-16T02:34:54.829202+05:30
Hyderabad,Telangana,17.385,78.4867,32.1,40,0.0,948.2,9.25,27.7,130,60.5,44.9,19.3,388.0,72.0,8.0,0,5,7,1,2026-05-16T02:34:54.829212+05:30
Chennai,Tamil Nadu,13.0827,80.2707,26.7,98,0.0,1001.8,9.0,32.8,37,16.1,13.1,18.9,391.0,42.0,17.0,7,5,4,1,2026-05-16T02:34:54.829221+05:30
Kolkata,West Bengal,22.5726,88.3639,28.4,89,0.0,1001.1,9.0,34.9,53,14.0,9.8,5.7,171.0,41.0,3.5,7,5,4,1,2026-05-16T02:34:54.829229+05:30
Pune,Maharashtra,18.5204,73.8567,24.2,83,0.0,943.9,8.5,38.2,69,25.3,20.5,23.2,225.0,43.0,25.1,3,5,7,1,2026-05-16T02:34:54.829235+05:30
Ahmedabad,Gujarat,23.0225,72.5714,30.5,51,0.0,997.5,8.15,32.0,49,25.7,13.0,4.1,148.0,47.0,2.7,0,5,7,1,2026-05-16T02:34:54.829242+05:30
Jaipur,Rajasthan,26.9124,75.7873,29.9,31,0.0,954.8,8.25,29.5,134,154.1,47.6,16.5,359.0,45.0,6.9,4,5,7,0,2026-05-16T02:34:54.829255+05:30
Lucknow,Uttar Pradesh,26.8467,80.9462,28.0,76,0.0,987.3,8.2,30.6,143,182.1,71.0,34.8,559.0,42.0,16.2,7,5,7,1,2026-05-16T02:34:54.829262+05:30
Kanpur,Uttar Pradesh,26.4499,80.3319,28.5,56,0.0,985.8,8.2,31.3,152,227.7,74.0,25.6,499.0,54.0,15.3,4,5,7,1,2026-05-16T02:34:54.829268+05:30
Chandigarh,Chandigarh,30.7333,76.7794,25.2,44,0.0,963.0,7.7,41.0,84,34.2,29.4,26.5,365.0,33.0,5.6,4,5,7,0,2026-05-16T02:34:54.829275+05:30
Srinagar,Jammu and Kashmir,34.0837,74.7973,11.1,96,0.0,838.2,8.85,22.0,75,41.1,37.4,27.8,557.0,13.0,1.0,3,10,7,0,2026-05-16T02:34:54.829283+05:30
Jammu,Jammu and Kashmir,32.7266,74.857,20.7,78,0.0,966.6,8.5,26.3,83,36.9,34.3,37.3,302.0,6.0,1.9,3,5,7,1,2026-05-16T02:34:54.829289+05:30
Amritsar,Punjab,31.634,74.8723,25.5,58,0.0,975.0,8.35,22.7,137,61.0,51.7,21.5,452.0,68.0,10.4,4,5,7,1,2026-05-16T02:34:54.829295+05:30
Ludhiana,Punjab,30.901,75.8573,25.8,58,0.0,972.9,8.0,42.5,116,47.8,42.3,13.5,503.0,76.0,8.1,4,5,7,1,2026-05-16T02:34:54.829304+05:30
Jalandhar,Punjab,31.326,75.5762,25.0,62,0.0,973.9,8.15,30.2,139,85.0,59.8,17.3,485.0,69.0,8.7,7,5,7,1,2026-05-16T02:34:54.829311+05:30
Dehradun,Uttarakhand,30.6284,78.0322,10.8,90,0.0,822.7,8.1,40.3,55,15.4,11.1,23.2,195.0,21.0,0.1,3,10,7,0,2026-05-16T02:34:54.829317+05:30
Shimla,Himachal Pradesh,31.1048,77.1734,11.0,59,0.0,778.3,8.2,48.2,64,32.9,24.3,26.9,196.0,26.0,0.3,0,5,7,0,2026-05-16T02:34:54.829326+05:30
Manali,Himachal Pradesh,32.2396,77.1887,6.9,68,0.0,809.7,9.75,37.8,45,3.9,3.2,15.2,212.0,105.0,0.0,3,5,7,0,2026-05-16T02:34:54.829332+05:30
Gurgaon,Haryana,28.4595,77.0266,27.1,51,0.0,975.8,7.8,37.4,498,519.7,134.1,41.0,1026.0,47.0,31.8,4,5,7,0,2026-05-16T02:34:54.829338+05:30
Noida,Uttar Pradesh,28.5355,77.391,27.4,56,0.0,978.7,7.7,29.5,498,519.7,134.1,41.0,949.0,47.0,31.8,4,5,7,1,2026-05-16T02:34:54.829345+05:30
Ghaziabad,Uttar Pradesh,28.6692,77.4538,25.9,61,0.0,976.9,7.7,36.4,170,273.8,87.1,22.2,963.0,61.0,15.7,7,5,7,1,2026-05-16T02:34:54.829351+05:30
Faridabad,Haryana,28.4089,77.3178,28.8,47,0.0,978.2,7.75,40.0,498,519.7,134.1,41.0,869.0,47.0,31.8,4,5,7,1,2026-05-16T02:34:54.829360+05:30
Meerut,Uttar Pradesh,28.9845,77.7064,26.9,44,0.0,975.7,7.6,37.4,170,273.8,87.1,22.2,561.0,61.0,15.7,4,5,7,0,2026-05-16T02:34:54.829367+05:30
Agra,Uttar Pradesh,27.1767,78.0081,28.6,46,0.0,982.0,8.05,29.2,530,425.6,109.7,15.4,403.0,70.0,14.6,4,5,7,0,2026-05-16T02:34:54.829373+05:30
Varanasi,Uttar Pradesh,25.3176,82.9739,28.8,61,0.0,991.7,8.7,37.1,134,141.1,82.2,50.5,1125.0,43.0,21.0,7,5,7,1,2026-05-16T02:34:54.829380+05:30
Prayagraj,Uttar Pradesh,25.4358,81.8463,29.1,62,0.0,990.1,8.6,32.0,133,106.2,69.2,50.5,584.0,27.0,15.5,7,5,7,1,2026-05-16T02:34:54.829387+05:30
Gorakhpur,Uttar Pradesh,26.7606,83.3732,26.5,74,0.0,991.6,8.55,28.8,153,95.9,81.7,49.6,582.0,26.0,14.5,7,5,7,1,2026-05-16T02:34:54.829395+05:30
Bareilly,Uttar Pradesh,28.367,79.4304,24.6,74,0.0,980.3,8.0,29.2,152,101.7,69.8,31.6,517.0,49.0,14.8,3,5,7,1,2026-05-16T02:34:54.829402+05:30
Aligarh,Uttar Pradesh,27.8974,78.088,26.5,60,0.0,979.5,7.85,28.8,318,245.9,110.4,35.2,553.0,50.0,20.1,4,5,7,1,2026-05-16T02:34:54.829408+05:30
Moradabad,Uttar Pradesh,28.8386,78.7733,25.5,57,0.0,977.5,7.8,36.7,161,96.4,65.2,30.0,562.0,41.0,10.8,4,5,7,1,2026-05-16T02:34:54.829414+05:30
Saharanpur,Uttar Pradesh,29.9637,77.546,24.5,56,0.0,969.6,7.35,37.4,151,67.3,54.0,41.6,526.0,26.0,10.6,0,5,7,0,2026-05-16T02:34:54.829420+05:30
Jhansi,Uttar Pradesh,25.4484,78.5685,30.0,43,0.0,971.9,8.5,33.5,118,231.4,61.2,7.1,398.0,66.0,5.9,4,5,7,0,2026-05-16T02:34:58.124338+05:30
Surat,Gujarat,21.1702,72.8311,29.7,78,0.0,1001.9,7.75,37.1,78,24.6,17.6,23.2,347.0,25.0,38.0,7,5,4,1,2026-05-16T02:34:58.124375+05:30
Vadodara,Gujarat,22.3072,73.1812,29.3,79,0.0,999.5,8.1,33.5,55,18.2,14.5,20.1,225.0,22.0,21.0,7,5,7,1,2026-05-16T02:34:58.124387+05:30
Rajkot,Gujarat,22.3039,70.8022,27.4,75,0.0,990.3,7.75,42.5,50,23.7,12.3,6.5,119.0,40.0,7.4,7,5,7,1,2026-05-16T02:34:58.124395+05:30
Thane,Maharashtra,19.2183,72.9781,28.8,79,0.0,1003.8,7.9,43.6,62,20.5,12.4,3.2,135.0,45.0,2.3,7,5,4,1,2026-05-16T02:34:58.124403+05:30
Nagpur,Maharashtra,21.1458,79.0882,33.5,25,0.0,966.5,8.95,38.2,93,35.6,24.0,18.6,298.0,54.0,7.5,0,5,7,0,2026-05-16T02:34:58.124410+05:30
Nashik,Maharashtra,19.9975,73.7898,24.0,88,0.0,941.7,8.2,37.1,51,13.1,9.3,4.7,147.0,43.0,0.9,3,5,7,1,2026-05-16T02:34:58.124418+05:30
Aurangabad,Maharashtra,19.8762,75.3433,28.5,35,0.0,939.5,9.1,36.4,59,14.2,12.1,10.2,166.0,63.0,5.0,4,5,7,0,2026-05-16T02:34:58.124425+05:30
Solapur,Maharashtra,17.6599,75.9064,29.5,45,0.0,952.0,8.6,31.7,98,51.7,39.8,28.3,176.0,40.0,6.5,4,5,7,1,2026-05-16T02:34:58.124433+05:30
Kolhapur,Maharashtra,16.705,74.2433,24.3,84,0.0,942.8,8.55,49.3,67,20.1,16.3,10.1,226.0,53.0,4.5,3,5,7,1,2026-05-16T02:34:58.124441+05:30
Goa,Goa,15.2993,74.124,28.1,83,0.0,992.8,8.9,39.2,70,38.0,30.6,11.2,217.0,49.0,2.1,7,5,7,1,2026-05-16T02:34:58.124449+05:30
Jodhpur,Rajasthan,26.2389,73.0243,31.1,33,0.0,977.6,8.45,32.8,138,114.6,26.3,6.8,157.0,45.0,2.1,0,5,7,0,2026-05-16T02:34:58.124456+05:30
Udaipur,Rajasthan,24.5854,73.7125,28.1,34,0.0,942.1,8.85,31.0,46,31.2,13.4,2.8,144.0,71.0,2.6,4,5,7,0,2026-05-16T02:34:58.124464+05:30
Kota,Rajasthan,25.2138,75.8648,31.8,24,0.0,973.3,8.45,34.2,84,27.5,12.5,4.9,156.0,67.0,4.2,0,5,7,0,2026-05-16T02:34:58.124471+05:30
Bikaner,Rajasthan,28.0229,73.3119,30.0,35,0.0,976.6,8.4,27.7,109,245.9,66.1,4.8,298.0,61.0,1.8,4,5,7,0,2026-05-16T02:34:58.124478+05:30
Ajmer,Rajasthan,26.4499,74.6399,28.8,31,0.0,949.9,8.4,32.4,78,103.8,25.7,3.8,173.0,69.0,3.5,4,5,7,0,2026-05-16T02:34:58.124485+05:30
Gwalior,Madhya Pradesh,26.2183,78.1828,30.1,38,0.0,977.1,8.25,37.4,156,320.4,81.7,8.1,302.0,72.0,8.3,0,5,7,0,2026-05-16T02:34:58.124492+05:30
Indore,Madhya Pradesh,22.7196,75.8577,30.1,26,0.0,943.6,8.7,36.4,55,19.0,12.5,3.4,194.0,108.0,6.0,0,5,7,0,2026-05-16T02:34:58.124499+05:30
Bhopal,Madhya Pradesh,23.2599,77.4126,31.9,23,0.0,949.0,8.75,37.4,67,23.9,17.1,5.3,192.0,65.0,4.4,0,5,7,0,2026-05-16T02:34:58.124506+05:30
Jabalpur,Madhya Pradesh,23.1815,79.9864,30.1,46,0.0,955.5,8.9,34.2,104,51.8,29.8,11.6,295.0,69.0,7.3,0,5,7,1,2026-05-16T02:34:58.124513+05:30
Ujjain,Madhya Pradesh,23.1765,75.7885,30.2,27,0.0,949.3,8.65,42.8,54,21.5,13.4,3.5,189.0,96.0,5.6,0,5,7,0,2026-05-16T02:34:58.124521+05:30
Visakhapatnam,Andhra Pradesh,17.6868,83.2185,28.9,86,0.0,999.3,9.2,40.0,76,20.4,16.9,23.4,415.0,23.0,46.4,7,5,7,1,2026-05-16T02:34:58.124527+05:30
Vijayawada,Andhra Pradesh,16.5062,80.648,29.5,83,0.0,997.6,9.0,32.0,65,13.3,10.8,8.0,188.0,27.0,4.5,7,5,7,1,2026-05-16T02:34:58.124534+05:30
Guntur,Andhra Pradesh,16.3067,80.4365,29.5,83,0.0,998.6,8.85,33.8,68,12.3,9.7,6.8,149.0,29.0,3.3,7,5,7,1,2026-05-16T02:34:58.124541+05:30
Nellore,Andhra Pradesh,14.4426,79.9865,28.5,86,0.0,1000.3,8.75,37.1,36,8.6,6.5,8.4,137.0,30.0,7.3,7,5,4,1,2026-05-16T02:34:58.124549+05:30
Kurnool,Andhra Pradesh,15.8281,78.0373,33.0,43,0.0,971.3,6.3,33.5,118,43.5,30.4,10.0,199.0,67.0,4.8,0,5,7,1,2026-05-16T02:34:58.124556+05:30
Kakinada,Andhra Pradesh,16.9891,82.2475,29.3,85,0.0,1002.7,9.15,38.9,35,10.1,5.9,1.6,143.0,45.0,1.0,7,5,4,1,2026-05-16T02:34:58.124563+05:30
Tirupati,Andhra Pradesh,13.6288,79.4192,27.0,89,0.1,986.1,8.45,25.2,59,19.7,17.2,27.8,243.0,16.0,19.3,10,5,7,1,2026-05-16T02:34:58.124571+05:30
Warangal,Telangana,17.9689,79.5941,29.1,76,0.0,973.6,8.4,42.5,111,29.7,25.1,11.5,245.0,54.0,12.0,7,5,7,1,2026-05-16T02:34:58.124578+05:30
Nizamabad,Telangana,18.6725,78.0941,29.8,47,0.0,958.7,8.4,33.1,131,86.4,63.8,41.7,564.0,26.0,6.6,4,5,7,1,2026-05-16T02:34:58.124584+05:30
Mysore,Karnataka,12.2958,76.6396,24.1,81,0.0,924.1,7.0,42.5,88,39.7,30.4,9.3,289.0,90.0,3.1,3,5,7,1,2026-05-16T02:34:58.124591+05:30
Mangalore,Karnataka,12.9141,74.856,25.9,97,0.1,1002.6,8.4,45.7,73,26.6,20.2,9.1,185.0,49.0,2.7,10,5,4,1,2026-05-16T02:34:58.124598+05:30
Hubli-Dharwad,Karnataka,15.3647,75.124,24.4,88,0.0,935.7,9.1,41.0,75,17.1,14.3,8.9,295.0,47.0,1.8,3,5,7,1,2026-05-16T02:34:58.124607+05:30
Belgaum,Karnataka,15.8497,74.4977,23.6,83,0.0,920.7,9.2,43.6,64,26.4,22.4,17.7,235.0,37.0,3.0,3,5,7,1,2026-05-16T02:35:01.468245+05:30
Coimbatore,Tamil Nadu,11.0168,76.9558,25.1,89,0.0,956.9,8.0,37.4,71,23.9,16.7,10.1,267.0,62.0,3.9,7,5,7,1,2026-05-16T02:35:01.468283+05:30
Madurai,Tamil Nadu,9.9252,78.1198,27.3,83,0.0,988.2,9.05,43.6,85,47.0,39.7,50.1,541.0,2.0,6.9,7,5,7,1,2026-05-16T02:35:01.468295+05:30
Trichy,Tamil Nadu,10.7905,78.7047,26.1,87,0.0,994.8,9.1,31.3,80,36.3,28.1,25.1,398.0,40.0,6.6,7,5,7,1,2026-05-16T02:35:01.468304+05:30
Salem,Tamil Nadu,11.6643,78.146,26.5,90,0.0,972.2,8.95,22.7,114,31.3,26.1,16.3,428.0,70.0,10.8,7,5,7,1,2026-05-16T02:35:01.468313+05:30
Tirunelveli,Tamil Nadu,8.7139,77.7567,26.9,84,0.0,998.2,8.9,23.8,47,15.4,12.7,7.6,283.0,57.0,3.3,7,5,7,1,2026-05-16T02:35:01.468321+05:30
Vellore,Tamil Nadu,12.9165,79.1325,26.4,90,0.0,979.3,8.35,33.1,93,50.1,47.6,19.4,247.0,38.0,14.3,7,5,7,1,2026-05-16T02:35:01.468329+05:30
Erode,Tamil Nadu,11.341,77.7172,26.3,88,0.0,984.2,8.8,36.4,94,38.6,28.9,30.1,253.0,43.0,4.7,7,5,7,1,2026-05-16T02:35:01.468337+05:30
Kochi,Kerala,9.9312,76.2673,26.0,97,0.0,1004.2,7.7,31.7,61,22.2,20.3,23.4,286.0,25.0,6.9,7,5,4,1,2026-05-16T02:35:01.468345+05:30
Thiruvananthapuram,Kerala,8.5241,76.9366,24.6,97,0.0,1003.7,8.75,33.5,51,22.8,13.6,3.9,257.0,85.0,2.2,3,5,4,1,2026-05-16T02:35:01.468352+05:30
Kozhikode,Kerala,11.2588,75.7804,25.2,97,0.0,1002.9,8.35,37.1,68,38.2,24.4,4.2,420.0,76.0,2.4,7,5,4,1,2026-05-16T02:35:01.468359+05:30
Thrissur,Kerala,10.5276,76.2144,26.1,90,0.0,1002.6,7.5,29.2,60,16.6,15.0,14.2,227.0,41.0,4.8,7,5,4,1,2026-05-16T02:35:01.468367+05:30
Kannur,Kerala,11.8745,75.3704,25.5,96,0.0,1002.4,8.25,37.4,73,32.4,25.3,13.0,201.0,46.0,3.0,7,5,4,1,2026-05-16T02:35:01.468374+05:30
Patna,Bihar,25.5941,85.1376,27.8,84,0.0,994.9,8.8,28.1,123,59.1,53.6,22.9,547.0,66.0,17.7,7,5,7,1,2026-05-16T02:35:01.468381+05:30
Gaya,Bihar,24.7914,85.0002,26.5,66,0.0,988.3,8.85,31.7,138,85.2,67.5,32.3,796.0,51.0,15.2,7,5,7,1,2026-05-16T02:35:01.468389+05:30
Muzaffarpur,Bihar,26.1209,85.3647,27.2,76,0.0,995.3,8.8,33.8,143,67.3,61.7,24.6,751.0,64.0,18.2,7,5,7,1,2026-05-16T02:35:01.468396+05:30
Bhagalpur,Bihar,25.2425,87.0117,27.0,93,0.0,995.9,8.8,32.0,99,48.7,44.2,19.2,387.0,65.0,20.3,7,5,7,1,2026-05-16T02:35:01.468403+05:30
Ranchi,Jharkhand,23.3441,85.3096,23.7,72,0.0,933.0,9.3,34.2,123,83.1,64.7,14.0,481.0,92.0,16.3,3,5,7,1,2026-05-16T02:35:01.468410+05:30
Jamshedpur,Jharkhand,22.8046,86.2029,26.6,80,0.0,985.9,9.1,26.6,94,51.8,41.2,19.6,472.0,76.0,24.6,7,5,7,1,2026-05-16T02:35:01.468417+05:30
Dhanbad,Jharkhand,23.7957,86.4304,25.2,80,0.0,974.5,9.05,25.2,138,84.5,70.8,50.1,2846.0,51.0,110.9,7,5,7,1,2026-05-16T02:35:01.468423+05:30
Bokaro,Jharkhand,23.6693,86.1511,26.9,68,0.0,978.3,9.1,29.2,144,105.5,86.8,45.4,1797.0,43.0,71.6,7,5,7,1,2026-05-16T02:35:01.468431+05:30
Bhubaneswar,Odisha,20.2961,85.8245,28.9,85,0.0,998.1,9.15,43.6,40,9.7,7.3,4.4,143.0,38.0,2.1,7,5,7,1,2026-05-16T02:35:01.468438+05:30
Cuttack,Odisha,20.4625,85.8828,29.0,86,0.0,999.9,9.15,43.6,40,9.7,7.3,4.4,155.0,38.0,2.1,7,5,7,1,2026-05-16T02:35:01.468444+05:30
Rourkela,Odisha,22.2604,84.8536,26.3,84,0.0,979.9,8.85,35.6,130,50.9,39.2,14.7,250.0,71.0,20.0,7,5,7,1,2026-05-16T02:35:01.468451+05:30
Raipur,Chhattisgarh,21.2514,81.6296,30.7,53,0.0,968.8,9.05,38.2,152,90.1,76.6,45.5,391.0,25.0,28.1,0,5,7,1,2026-05-16T02:35:01.468457+05:30
Bhilai,Chhattisgarh,21.1938,81.3509,30.8,54,0.0,969.1,9.05,43.6,144,95.0,80.6,59.9,388.0,16.0,46.0,0,5,7,1,2026-05-16T02:35:01.468463+05:30
Guwahati,Assam,26.1158,91.7086,22.6,98,0.0,998.3,7.75,27.0,57,8.3,6.9,5.2,326.0,85.0,2.0,3,5,7,1,2026-05-16T02:35:01.468469+05:30
Agartala,Tripura,23.8315,91.2868,25.1,95,0.0,1002.5,6.4,33.1,52,13.4,11.5,15.6,168.0,14.0,1.8,7,5,4,1,2026-05-16T02:35:01.468475+05:30
Shillong,Meghalaya,25.5788,91.8933,18.2,94,0.0,853.8,4.55,36.7,44,5.4,3.8,3.9,206.0,87.0,2.7,3,10,3,1,2026-05-16T02:35:01.468482+05:30
Imphal,Manipur,24.817,93.9368,19.7,92,0.0,920.1,8.75,27.0,56,18.2,15.5,15.2,409.0,37.0,2.8,3,10,7,1,2026-05-16T02:35:01.468489+05:30
Aizawl,Mizoram,23.7271,92.7176,17.0,98,0.0,888.4,8.9,34.6,36,14.6,10.1,8.3,151.0,36.0,2.2,3,10,7,1,2026-05-16T02:35:01.468496+05:30
Kohima,Nagaland,25.6701,94.1077,15.1,94,0.0,850.8,9.25,28.1,37,9.9,6.2,3.8,253.0,72.0,1.6,3,10,7,0,2026-05-16T02:35:01.468502+05:30
Gangtok,Sikkim,27.3314,88.6138,13.9,97,0.1,832.8,9.1,38.2,58,12.1,10.1,5.0,431.0,123.0,2.9,6,10,7,0,2026-05-16T02:35:01.468509+05:30
Siliguri,West Bengal,26.7271,88.3953,21.5,99,0.0,989.7,8.4,24.8,97,28.3,22.6,8.5,369.0,113.0,3.0,3,5,7,1,2026-05-16T02:35:04.754322+05:30
Durgapur,West Bengal,23.5204,87.3119,27.5,93,0.0,989.8,9.05,34.2,114,36.2,32.5,31.2,541.0,27.0,37.8,7,5,7,1,2026-05-16T02:35:04.754361+05:30
Asansol,West Bengal,23.6739,86.9524,26.9,92,0.0,988.2,9.05,35.3,114,54.1,46.6,38.1,336.0,43.0,58.3,7,5,7,1,2026-05-16T02:35:04.754373+05:30
Pondicherry,Puducherry,11.9139,79.8145,26.0,96,0.0,1003.0,8.55,40.3,74,43.8,34.8,18.5,566.0,59.0,23.5,7,5,4,1,2026-05-16T02:35:04.754383+05:30
Port Blair,Andaman and Nicobar Islands,11.6234,92.7265,26.0,97,0.0,1003.6,6.25,45.7,34,4.7,3.0,0.2,132.0,69.0,0.2,7,5,4,1,2026-05-16T02:35:04.754392+05:30
Haridwar,Uttarakhand,29.9457,78.1642,21.5,77,0.0,967.7,7.5,32.8,112,51.1,43.2,38.2,316.0,17.0,5.1,3,5,7,1,2026-05-16T02:35:04.754400+05:30
Rishikesh,Uttarakhand,30.0869,78.2676,19.0,83,0.0,960.0,7.6,32.0,89,54.8,34.7,20.7,333.0,63.0,4.3,3,10,7,0,2026-05-16T02:35:04.754407+05:30
Nainital,Uttarakhand,29.3919,79.4542,13.4,68,0.0,799.9,8.45,37.4,110,60.1,38.6,21.6,281.0,67.0,4.8,3,5,7,0,2026-05-16T02:35:04.754415+05:30
Mussoorie,Uttarakhand,30.4599,78.0664,14.7,55,0.0,798.1,8.0,51.8,87,43.2,31.8,43.0,191.0,18.0,4.3,0,5,7,0,2026-05-16T02:35:04.754422+05:30
Dharamshala,Himachal Pradesh,32.219,76.3234,19.0,52,0.0,864.2,8.35,41.4,50,10.6,8.3,13.3,198.0,30.0,0.1,0,5,7,0,2026-05-16T02:35:04.754430+05:30
Dalhousie,Himachal Pradesh,32.5387,75.971,9.6,84,0.0,796.9,8.6,42.1,66,27.5,22.4,36.7,288.0,7.0,0.9,3,10,7,0,2026-05-16T02:35:04.754438+05:30
Patiala,Punjab,30.3398,76.3869,26.1,53,0.0,972.3,7.6,40.7,302,385.6,72.6,10.5,430.0,76.0,8.4,4,5,7,0,2026-05-16T02:35:04.754445+05:30
Bhatinda,Punjab,30.211,74.9455,27.0,56,0.0,978.2,8.25,31.7,127,78.5,48.1,10.8,483.0,70.0,5.9,4,5,7,1,2026-05-16T02:35:04.754453+05:30
Rohtak,Haryana,28.8955,76.6066,26.3,51,0.0,976.2,7.75,36.7,482,659.4,162.5,26.2,565.0,56.0,12.2,4,5,7,0,2026-05-16T02:35:04.754460+05:30
Panipat,Haryana,29.3909,76.9635,26.4,49,0.0,974.8,7.55,34.9,1093,957.4,185.8,15.0,362.0,64.0,8.0,4,5,7,0,2026-05-16T02:35:04.754467+05:30
Mathura,Uttar Pradesh,27.4924,77.6737,27.5,54,0.0,980.9,8.0,29.2,513,281.3,104.1,23.3,466.0,63.0,14.9,4,5,7,1,2026-05-16T02:35:04.754474+05:30
Vrindavan,Uttar Pradesh,27.5823,77.7027,27.2,54,0.0,981.3,8.0,28.4,513,281.3,104.1,23.3,491.0,63.0,14.9,4,5,7,1,2026-05-16T02:35:04.754480+05:30
Ayodhya,Uttar Pradesh,26.7922,82.1998,26.6,82,0.0,989.4,8.35,28.1,150,114.8,85.0,55.0,583.0,20.0,13.5,7,5,7,1,2026-05-16T02:35:04.754488+05:30
Ratlam,Madhya Pradesh,23.3315,75.0367,28.0,34,0.0,950.5,8.55,32.0,52,23.1,14.1,4.0,178.0,84.0,5.6,4,5,7,0,2026-05-16T02:35:04.754495+05:30
Sagar,Madhya Pradesh,23.8388,78.7378,30.5,34,0.0,944.9,8.75,35.6,87,76.6,32.8,14.8,278.0,73.0,6.5,0,5,7,0,2026-05-16T02:35:04.754501+05:30
Satna,Madhya Pradesh,24.6005,80.8322,29.4,49,0.0,966.1,8.8,40.3,103,82.9,41.2,16.8,363.0,69.0,9.3,4,5,7,1,2026-05-16T02:35:04.754508+05:30
Akola,Maharashtra,20.7002,77.0082,32.9,25,0.0,969.6,8.9,43.6,63,16.7,13.2,7.4,178.0,78.0,6.4,0,5,7,0,2026-05-16T02:35:04.754517+05:30
Amravati,Maharashtra,20.9374,77.7796,32.4,26,0.0,961.6,8.9,38.5,68,16.9,13.2,7.7,191.0,76.0,5.6,0,5,7,0,2026-05-16T02:35:04.754526+05:30
Latur,Maharashtra,18.4088,76.5604,28.6,40,0.0,934.7,8.0,34.9,103,53.9,39.9,39.5,368.0,43.0,7.9,4,5,7,0,2026-05-16T02:35:04.754534+05:30
Nanded,Maharashtra,19.1383,77.3091,30.4,39,0.0,963.0,8.05,29.9,107,32.6,26.4,25.1,556.0,42.0,6.1,0,5,7,0,2026-05-16T02:35:04.754541+05:30
Gulbarga,Karnataka,17.3297,76.8343,29.7,48,0.0,953.0,9.0,35.3,121,87.1,56.0,38.7,380.0,41.0,8.4,4,5,7,1,2026-05-16T02:35:04.754548+05:30
Bidar,Karnataka,17.9104,77.5199,28.8,46,0.0,929.9,8.85,33.5,129,93.6,66.8,60.1,365.0,22.0,7.7,4,5,7,0,2026-05-16T02:35:04.754556+05:30
Hospet,Karnataka,15.2689,76.3909,27.6,63,0.0,950.7,8.3,46.8,88,29.1,22.8,13.0,258.0,68.0,2.5,7,5,7,1,2026-05-16T02:35:04.754564+05:30
Tirupur,Tamil Nadu,11.1085,77.3411,26.0,88,0.0,970.4,8.9,40.3,89,34.6,25.9,24.2,225.0,60.0,6.6,7,5,7,1,2026-05-16T02:35:04.754571+05:30
Alappuzha,Kerala,9.4981,76.3388,25.6,97,0.0,1004.3,5.55,31.0,59,30.5,22.8,17.3,163.0,54.0,6.7,7,5,0,1,2026-05-16T02:35:04.754578+05:30
Munnar,Kerala,10.0889,77.0595,17.1,59,0.0,851.9,6.25,28.4,44,12.6,11.8,9.2,209.0,42.0,1.7,0,5,7,0,2026-05-16T02:35:04.754585+05:30
Silchar,Assam,24.8333,92.7789,23.4,99,0.2,1002.0,8.95,29.5,57,14.0,10.6,5.6,202.0,68.0,2.9,6,5,4,1,2026-05-16T02:35:04.754592+05:30
Dibrugarh,Assam,27.4728,94.912,22.0,95,0.0,992.9,7.75,35.3,88,36.6,33.6,27.3,247.0,2.0,1.2,3,5,7,1,2026-05-16T02:35:04.754599+05:30
