city,state,latitude,longitude,temp,humidity,rain,pressure,uv_index,wind_gusts,aqi,pm10,pm2_5,mosquito_risk,arthritis_risk,migraine_risk,frizz_risk,updated_at
Delhi,Delhi,28.6139,77.209,20.4,69,0.0,984.3,5.65,21.6,408,161.6,59.5,3,5,3,0,2026-03-17T00:36:59.307226+05:30
Mumbai,Maharashtra,19.076,72.8777,27.0,81,0.0,1009.5,7.7,17.6,104,106.4,34.8,7,0,4,1,2026-03-17T00:36:59.307269+05:30
Bangalore,Karnataka,12.9716,77.5946,21.8,74,0.0,912.5,9.35,31.0,91,33.3,31.8,3,5,7,1,2026-03-17T00:36:59.307284+05:30
Hyderabad,Telangana,17.385,78.4867,23.3,76,0.0,953.6,7.95,22.0,96,29.9,25.4,3,5,7,1,2026-03-17T00:36:59.307294+05:30
Chennai,Tamil Nadu,13.0827,80.2707,26.2,83,0.0,1009.1,9.1,33.1,34,9.4,7.0,7,0,4,1,2026-03-17T00:36:59.307303+05:30
Kolkata,West Bengal,22.5726,88.3639,23.5,87,0.0,1007.5,8.1,38.9,75,20.7,17.6,3,5,4,1,2026-03-17T00:36:59.307311+05:30
Pune,Maharashtra,18.5204,73.8567,20.1,75,0.0,948.4,8.25,38.5,88,54.8,35.3,3,5,7,0,2026-03-17T00:36:59.307323+05:30
Ahmedabad,Gujarat,23.0225,72.5714,24.4,64,0.0,1002.4,7.55,17.3,63,41.9,22.5,3,5,4,1,2026-03-17T00:36:59.307331+05:30
Jaipur,Rajasthan,26.9124,75.7873,23.1,39,0.0,959.3,6.4,31.7,158,516.0,85.9,0,5,7,0,2026-03-17T00:36:59.307339+05:30
Lucknow,Uttar Pradesh,26.8467,80.9462,21.9,55,0.0,994.7,6.3,23.8,89,62.6,47.1,0,5,7,0,2026-03-17T00:36:59.307346+05:30
Kanpur,Uttar Pradesh,26.4499,80.3319,21.3,70,0.0,992.5,6.55,22.7,113,202.6,51.5,3,5,7,0,2026-03-17T00:36:59.307353+05:30
Chandigarh,Chandigarh,30.7333,76.7794,14.3,75,0.0,970.3,5.7,11.9,66,29.4,20.6,3,5,3,0,2026-03-17T00:36:59.307360+05:30
Srinagar,Jammu and Kashmir,34.0837,74.7973,3.6,88,0.0,838.3,6.95,19.1,64,32.5,32.0,3,10,7,0,2026-03-17T00:36:59.307368+05:30
Jammu,Jammu and Kashmir,32.7266,74.857,13.5,78,0.0,975.9,6.6,13.3,68,45.6,40.7,3,5,7,0,2026-03-17T00:36:59.307375+05:30
Amritsar,Punjab,31.634,74.8723,11.7,90,0.0,983.8,6.65,17.3,80,46.6,30.6,3,10,7,0,2026-03-17T00:36:59.307382+05:30
Ludhiana,Punjab,30.901,75.8573,12.9,76,0.0,981.3,6.35,11.5,79,33.8,19.3,3,5,7,0,2026-03-17T00:36:59.307389+05:30
Jalandhar,Punjab,31.326,75.5762,12.3,86,0.0,982.8,6.45,14.0,71,37.8,15.8,3,10,7,0,2026-03-17T00:36:59.307398+05:30
Dehradun,Uttarakhand,30.6284,78.0322,8.9,66,0.0,828.2,5.4,24.5,49,35.4,9.6,3,5,3,0,2026-03-17T00:36:59.307405+05:30
Shimla,Himachal Pradesh,31.1048,77.1734,7.4,60,0.0,781.1,5.75,22.3,73,37.7,11.0,0,5,3,0,2026-03-17T00:36:59.307412+05:30
Manali,Himachal Pradesh,32.2396,77.1887,6.3,58,0.0,815.2,8.5,29.9,69,23.7,10.2,0,5,7,1,2026-03-17T00:36:59.307419+05:30
Gurgaon,Haryana,28.4595,77.0266,18.2,81,0.0,982.6,5.8,21.2,1648,715.3,120.1,3,10,3,0,2026-03-17T00:36:59.307427+05:30
Noida,Uttar Pradesh,28.5355,77.391,20.3,69,0.0,985.8,5.45,22.0,1648,715.3,120.1,3,5,3,0,2026-03-17T00:36:59.307435+05:30
Ghaziabad,Uttar Pradesh,28.6692,77.4538,19.1,76,0.0,984.1,5.6,18.7,115,96.2,45.6,3,5,3,0,2026-03-17T00:36:59.307442+05:30
Faridabad,Haryana,28.4089,77.3178,19.3,70,0.0,984.9,5.35,20.5,1648,715.3,120.1,3,5,3,0,2026-03-17T00:36:59.307448+05:30
Meerut,Uttar Pradesh,28.9845,77.7064,18.0,82,0.0,982.8,5.9,20.5,115,96.2,45.6,3,10,3,0,2026-03-17T00:36:59.307454+05:30
Agra,Uttar Pradesh,27.1767,78.0081,19.9,75,0.0,988.1,6.2,25.9,891,1378.4,158.3,3,5,7,0,2026-03-17T00:36:59.307460+05:30
Varanasi,Uttar Pradesh,25.3176,82.9739,23.4,72,0.0,997.8,7.35,18.4,148,67.1,52.3,3,5,7,1,2026-03-17T00:36:59.307469+05:30
Prayagraj,Uttar Pradesh,25.4358,81.8463,22.3,79,0.0,996.3,7.2,18.7,131,52.9,42.6,3,5,7,1,2026-03-17T00:36:59.307476+05:30
Gorakhpur,Uttar Pradesh,26.7606,83.3732,20.0,67,0.0,998.5,6.55,24.5,119,87.3,58.9,3,5,7,0,2026-03-17T00:36:59.307484+05:30
Bareilly,Uttar Pradesh,28.367,79.4304,20.1,67,0.0,987.7,5.7,18.4,99,80.3,49.4,3,5,3,0,2026-03-17T00:36:59.307491+05:30
Aligarh,Uttar Pradesh,27.8974,78.088,19.3,74,0.0,986.2,5.9,18.7,517,237.5,44.7,3,5,3,0,2026-03-17T00:36:59.307497+05:30
Moradabad,Uttar Pradesh,28.8386,78.7733,19.4,70,0.0,984.9,5.05,22.7,98,74.7,44.6,3,5,3,0,2026-03-17T00:36:59.307503+05:30
Saharanpur,Uttar Pradesh,29.9637,77.546,17.5,63,0.0,977.3,5.15,17.6,88,104.8,76.4,3,5,3,0,2026-03-17T00:36:59.307508+05:30
Jhansi,Uttar Pradesh,25.4484,78.5685,23.5,46,0.0,977.5,7.2,29.2,91,149.5,45.1,0,5,7,0,2026-03-17T00:37:02.615860+05:30
Surat,Gujarat,21.1702,72.8311,25.4,90,0.0,1007.3,7.4,25.2,99,44.1,28.3,7,5,4,1,2026-03-17T00:37:02.615921+05:30
Vadodara,Gujarat,22.3072,73.1812,25.0,79,0.0,1004.6,7.5,23.8,77,50.1,29.1,7,5,4,1,2026-03-17T00:37:02.615933+05:30
Rajkot,Gujarat,22.3039,70.8022,25.2,67,0.0,994.9,7.4,27.0,62,39.8,19.3,7,5,7,1,2026-03-17T00:37:02.615941+05:30
Thane,Maharashtra,19.2183,72.9781,25.5,87,0.0,1008.9,7.7,30.2,104,106.4,34.8,7,0,4,1,2026-03-17T00:37:02.615949+05:30
Nagpur,Maharashtra,21.1458,79.0882,25.1,59,0.0,973.1,8.05,16.9,100,51.7,44.9,4,5,7,1,2026-03-17T00:37:02.615956+05:30
Nashik,Maharashtra,19.9975,73.7898,21.1,73,0.0,945.7,7.9,25.9,79,80.3,31.9,3,5,7,1,2026-03-17T00:37:02.615962+05:30
Aurangabad,Maharashtra,19.8762,75.3433,23.8,52,0.0,944.2,8.35,25.6,67,33.2,18.3,0,5,7,0,2026-03-17T00:37:02.615969+05:30
Solapur,Maharashtra,17.6599,75.9064,23.9,54,0.0,957.3,8.55,37.1,91,43.0,40.2,0,5,7,0,2026-03-17T00:37:02.615977+05:30
Kolhapur,Maharashtra,16.705,74.2433,20.1,84,0.0,948.0,8.45,40.0,96,37.1,29.0,3,5,7,1,2026-03-17T00:37:02.615984+05:30
Goa,Goa,15.2993,74.124,27.3,80,0.0,998.7,8.75,34.6,88,55.4,31.9,7,5,7,1,2026-03-17T00:37:02.615990+05:30
Jodhpur,Rajasthan,26.2389,73.0243,24.8,25,0.0,982.8,6.45,24.1,102,105.0,24.6,0,5,7,0,2026-03-17T00:37:02.615997+05:30
Udaipur,Rajasthan,24.5854,73.7125,22.3,31,0.0,946.4,7.85,35.6,58,35.7,14.1,0,5,7,0,2026-03-17T00:37:02.616004+05:30
Kota,Rajasthan,25.2138,75.8648,23.8,32,0.0,977.7,7.3,32.0,71,27.1,17.9,0,5,7,0,2026-03-17T00:37:02.616010+05:30
Bikaner,Rajasthan,28.0229,73.3119,22.9,49,0.0,982.5,6.9,20.9,69,122.9,49.6,0,5,7,0,2026-03-17T00:37:02.616017+05:30
Ajmer,Rajasthan,26.4499,74.6399,23.1,28,0.0,954.2,7.05,27.0,65,66.1,26.9,0,5,7,0,2026-03-17T00:37:02.616023+05:30
Gwalior,Madhya Pradesh,26.2183,78.1828,23.4,57,0.0,982.7,6.9,36.4,104,75.4,31.0,0,5,7,0,2026-03-17T00:37:02.616030+05:30
Indore,Madhya Pradesh,22.7196,75.8577,22.4,54,0.0,947.7,7.7,30.2,64,31.9,21.6,0,5,7,0,2026-03-17T00:37:02.616036+05:30
Bhopal,Madhya Pradesh,23.2599,77.4126,23.6,41,0.0,953.1,7.65,30.2,52,38.2,26.5,0,5,7,0,2026-03-17T00:37:02.616042+05:30
Jabalpur,Madhya Pradesh,23.1815,79.9864,25.0,40,0.0,960.7,7.75,31.0,60,22.2,14.8,4,5,7,0,2026-03-17T00:37:02.616048+05:30
Ujjain,Madhya Pradesh,23.1765,75.7885,23.2,53,0.0,953.5,7.65,28.4,62,29.1,19.2,0,5,7,0,2026-03-17T00:37:02.616055+05:30
Visakhapatnam,Andhra Pradesh,17.6868,83.2185,24.3,86,0.0,1006.0,8.7,38.2,56,16.4,14.1,3,5,4,1,2026-03-17T00:37:02.616061+05:30
Vijayawada,Andhra Pradesh,16.5062,80.648,24.3,83,0.0,1004.6,8.8,26.6,44,11.4,10.2,3,5,4,1,2026-03-17T00:37:02.616067+05:30
Guntur,Andhra Pradesh,16.3067,80.4365,24.3,84,0.0,1005.9,8.8,27.4,42,10.1,9.1,3,5,4,1,2026-03-17T00:37:02.616073+05:30
Nellore,Andhra Pradesh,14.4426,79.9865,24.7,88,0.0,1007.9,8.95,31.3,40,6.8,4.9,3,5,4,1,2026-03-17T00:37:02.616080+05:30
Kurnool,Andhra Pradesh,15.8281,78.0373,26.9,54,0.0,977.4,8.25,35.3,77,17.4,16.3,4,5,7,1,2026-03-17T00:37:02.616087+05:30
Kakinada,Andhra Pradesh,16.9891,82.2475,23.1,88,0.0,1009.8,8.75,26.6,35,10.8,8.3,3,0,4,1,2026-03-17T00:37:02.616093+05:30
Tirupati,Andhra Pradesh,13.6288,79.4192,23.9,89,0.0,993.7,9.05,25.6,58,19.1,17.3,3,5,7,1,2026-03-17T00:37:02.616099+05:30
Warangal,Telangana,17.9689,79.5941,24.9,76,0.0,979.8,8.3,31.0,71,17.6,16.2,3,5,7,1,2026-03-17T00:37:02.616105+05:30
Nizamabad,Telangana,18.6725,78.0941,25.9,54,0.0,964.8,8.45,23.4,129,51.5,47.6,4,5,7,0,2026-03-17T00:37:02.616111+05:30
Mysore,Karnataka,12.2958,76.6396,22.4,86,0.0,928.8,9.35,32.0,112,45.6,43.1,3,5,7,1,2026-03-17T00:37:02.616118+05:30
Mangalore,Karnataka,12.9141,74.856,28.9,75,0.0,1007.4,8.95,19.4,102,42.4,31.9,7,5,4,1,2026-03-17T00:37:02.616124+05:30
Hubli-Dharwad,Karnataka,15.3647,75.124,22.5,88,0.0,941.3,8.8,27.7,100,33.3,27.0,3,5,7,1,2026-03-17T00:37:02.616130+05:30
Belgaum,Karnataka,15.8497,74.4977,20.9,93,0.0,926.0,8.95,31.7,83,39.9,26.0,3,5,7,1,2026-03-17T00:37:05.944343+05:30
Coimbatore,Tamil Nadu,11.0168,76.9558,23.4,88,0.0,962.8,9.35,29.2,92,42.1,40.0,3,5,7,1,2026-03-17T00:37:05.944373+05:30
Madurai,Tamil Nadu,9.9252,78.1198,25.4,81,0.0,994.5,8.1,22.3,54,16.1,14.6,7,5,7,1,2026-03-17T00:37:05.944384+05:30
Trichy,Tamil Nadu,10.7905,78.7047,25.5,90,0.0,1001.4,9.2,24.5,56,14.6,13.0,7,5,4,1,2026-03-17T00:37:05.944393+05:30
Salem,Tamil Nadu,11.6643,78.146,25.8,77,0.0,978.7,9.25,27.4,74,29.9,28.6,7,5,7,1,2026-03-17T00:37:05.944401+05:30
Tirunelveli,Tamil Nadu,8.7139,77.7567,25.5,80,0.0,1004.3,7.3,49.7,60,24.6,23.5,7,5,4,1,2026-03-17T00:37:05.944409+05:30
Vellore,Tamil Nadu,12.9165,79.1325,23.7,86,0.0,986.4,9.15,31.0,78,27.8,25.7,3,5,7,1,2026-03-17T00:37:05.944417+05:30
Erode,Tamil Nadu,11.341,77.7172,26.3,73,0.0,990.6,9.25,29.5,55,15.8,14.9,7,5,7,1,2026-03-17T00:37:05.944424+05:30
Kochi,Kerala,9.9312,76.2673,27.3,83,0.0,1009.9,8.95,32.4,80,33.2,32.2,7,0,4,1,2026-03-17T00:37:05.944431+05:30
Thiruvananthapuram,Kerala,8.5241,76.9366,27.9,79,0.0,1009.0,7.8,25.9,70,16.0,14.1,7,0,4,1,2026-03-17T00:37:05.944438+05:30
Kozhikode,Kerala,11.2588,75.7804,28.1,80,0.0,1008.7,8.95,29.9,78,38.1,32.2,7,0,4,1,2026-03-17T00:37:05.944444+05:30
Thrissur,Kerala,10.5276,76.2144,26.5,87,0.0,1008.2,9.05,36.7,81,35.3,33.2,7,0,4,1,2026-03-17T00:37:05.944451+05:30
Kannur,Kerala,11.8745,75.3704,27.5,77,0.0,1007.9,9.0,27.7,93,50.4,45.4,7,5,4,1,2026-03-17T00:37:05.944458+05:30
Patna,Bihar,25.5941,85.1376,25.5,67,0.0,1000.4,7.5,39.2,153,84.3,69.6,7,5,4,1,2026-03-17T00:37:05.944465+05:30
Gaya,Bihar,24.7914,85.0002,23.9,67,0.0,993.9,7.6,22.3,126,50.3,39.0,3,5,7,1,2026-03-17T00:37:05.944472+05:30
Muzaffarpur,Bihar,26.1209,85.3647,21.6,80,0.0,1000.3,7.45,29.5,156,103.8,82.2,3,5,4,1,2026-03-17T00:37:05.944478+05:30
Bhagalpur,Bihar,25.2425,87.0117,24.1,79,0.0,1001.5,7.5,39.2,153,59.8,44.0,3,5,4,1,2026-03-17T00:37:05.944485+05:30
Ranchi,Jharkhand,23.3441,85.3096,20.5,79,0.0,937.9,8.2,49.7,128,47.4,42.5,3,5,7,1,2026-03-17T00:37:05.944491+05:30
Jamshedpur,Jharkhand,22.8046,86.2029,21.4,83,0.0,992.5,8.15,35.3,139,64.7,57.3,3,5,7,1,2026-03-17T00:37:05.944498+05:30
Dhanbad,Jharkhand,23.7957,86.4304,22.2,74,0.0,980.8,8.0,38.2,158,92.0,81.0,3,5,7,1,2026-03-17T00:37:05.944505+05:30
Bokaro,Jharkhand,23.6693,86.1511,22.0,77,0.0,984.8,8.0,38.2,152,76.1,66.8,3,5,7,1,2026-03-17T00:37:05.944512+05:30
Bhubaneswar,Odisha,20.2961,85.8245,25.1,88,0.0,1004.3,8.3,34.6,72,14.2,12.2,7,5,4,1,2026-03-17T00:37:05.944519+05:30
Cuttack,Odisha,20.4625,85.8828,24.3,91,0.0,1006.3,8.1,37.1,72,14.2,12.2,3,5,4,1,2026-03-17T00:37:05.944525+05:30
Rourkela,Odisha,22.2604,84.8536,23.1,77,0.0,985.9,8.05,44.6,143,51.0,44.4,3,5,7,1,2026-03-17T00:37:05.944533+05:30
Raipur,Chhattisgarh,21.2514,81.6296,25.1,63,0.0,975.3,8.15,38.2,127,49.5,46.2,7,5,7,1,2026-03-17T00:37:05.944540+05:30
Bhilai,Chhattisgarh,21.1938,81.3509,23.9,68,0.0,975.6,8.15,33.1,123,52.5,49.2,3,5,7,1,2026-03-17T00:37:05.944546+05:30
Guwahati,Assam,26.1158,91.7086,20.5,89,0.0,1004.4,7.45,39.2,79,27.4,24.4,3,5,4,1,2026-03-17T00:37:05.944552+05:30
Agartala,Tripura,23.8315,91.2868,21.7,94,0.0,1008.2,7.85,46.4,70,27.2,24.0,3,0,4,1,2026-03-17T00:37:05.944560+05:30
Shillong,Meghalaya,25.5788,91.8933,12.4,94,0.0,854.9,6.5,70.9,50,16.9,13.6,3,10,7,0,2026-03-17T00:37:05.944567+05:30
Imphal,Manipur,24.817,93.9368,15.2,88,0.0,924.4,8.1,75.2,82,31.2,27.5,3,10,7,0,2026-03-17T00:37:05.944575+05:30
Aizawl,Mizoram,23.7271,92.7176,16.3,89,0.0,893.4,8.05,63.7,93,54.2,44.5,3,10,7,0,2026-03-17T00:37:05.944582+05:30
Kohima,Nagaland,25.6701,94.1077,14.5,74,0.0,854.2,8.05,100.1,71,25.8,21.2,3,5,7,0,2026-03-17T00:37:05.944588+05:30
Gangtok,Sikkim,27.3314,88.6138,10.6,70,0.0,834.4,7.75,19.4,74,41.8,23.5,3,5,7,0,2026-03-17T00:37:05.944595+05:30
Siliguri,West Bengal,26.7271,88.3953,19.2,69,0.0,994.5,7.4,46.1,113,59.0,43.1,3,5,7,0,2026-03-17T00:37:09.261185+05:30
Durgapur,West Bengal,23.5204,87.3119,22.7,82,0.0,996.0,8.0,32.4,153,76.6,65.4,3,5,7,1,2026-03-17T00:37:09.261215+05:30
Asansol,West Bengal,23.6739,86.9524,22.8,76,0.0,994.6,8.0,46.4,152,74.5,62.6,3,5,7,1,2026-03-17T00:37:09.261225+05:30
Pondicherry,Puducherry,11.9139,79.8145,24.9,91,0.0,1010.3,9.1,30.2,33,9.2,6.3,3,0,4,1,2026-03-17T00:37:09.261233+05:30
Port Blair,Andaman and Nicobar Islands,11.6234,92.7265,27.4,83,0.0,1008.0,9.0,18.0,70,13.7,11.8,7,0,4,1,2026-03-17T00:37:09.261241+05:30
Haridwar,Uttarakhand,29.9457,78.1642,17.8,63,0.0,975.8,5.15,18.0,67,31.4,22.8,3,5,3,0,2026-03-17T00:37:09.261248+05:30
Rishikesh,Uttarakhand,30.0869,78.2676,17.5,58,0.0,968.7,5.35,20.5,55,24.9,11.8,0,5,3,0,2026-03-17T00:37:09.261255+05:30
Nainital,Uttarakhand,29.3919,79.4542,15.6,46,0.0,805.5,5.2,42.8,62,23.2,14.7,0,5,3,0,2026-03-17T00:37:09.261263+05:30
Mussoorie,Uttarakhand,30.4599,78.0664,11.8,52,0.0,801.1,5.75,28.4,59,29.5,16.2,0,5,3,0,2026-03-17T00:37:09.261270+05:30
Dharamshala,Himachal Pradesh,32.219,76.3234,13.3,36,0.0,867.9,6.0,27.0,66,17.2,6.8,0,5,3,1,2026-03-17T00:37:09.261276+05:30
Dalhousie,Himachal Pradesh,32.5387,75.971,9.4,45,0.0,800.9,6.25,25.2,56,27.2,18.5,0,5,7,1,2026-03-17T00:37:09.261284+05:30
Patiala,Punjab,30.3398,76.3869,13.7,84,0.0,980.3,5.85,13.7,75,41.0,27.7,3,10,3,0,2026-03-17T00:37:09.261292+05:30
Bhatinda,Punjab,30.211,74.9455,14.2,79,0.0,986.4,6.6,18.4,87,48.5,26.5,3,5,7,0,2026-03-17T00:37:09.261298+05:30
Rohtak,Haryana,28.8955,76.6066,17.6,80,0.0,983.4,6.0,16.9,690,307.3,78.9,3,5,3,0,2026-03-17T00:37:09.261305+05:30
Panipat,Haryana,29.3909,76.9635,16.6,82,0.0,982.0,5.9,18.7,302,165.8,59.1,3,10,3,0,2026-03-17T00:37:09.261311+05:30
Mathura,Uttar Pradesh,27.4924,77.6737,19.3,76,0.0,987.3,6.35,18.0,939,843.8,112.7,3,5,7,0,2026-03-17T00:37:09.261318+05:30
Vrindavan,Uttar Pradesh,27.5823,77.7027,19.1,79,0.0,987.9,6.4,18.0,939,843.8,112.7,3,5,7,0,2026-03-17T00:37:09.261324+05:30
Ayodhya,Uttar Pradesh,26.7922,82.1998,21.1,55,0.0,996.3,6.85,24.8,101,93.8,64.5,0,5,7,0,2026-03-17T00:37:09.261331+05:30
Ratlam,Madhya Pradesh,23.3315,75.0367,24.5,53,0.0,954.5,7.6,33.5,59,31.2,18.2,0,5,7,0,2026-03-17T00:37:09.261337+05:30
Sagar,Madhya Pradesh,23.8388,78.7378,23.7,38,0.0,949.2,7.55,30.6,49,18.5,11.1,0,5,7,0,2026-03-17T00:37:09.261344+05:30
Satna,Madhya Pradesh,24.6005,80.8322,23.9,71,0.0,971.2,7.55,37.4,84,52.0,41.4,3,5,7,1,2026-03-17T00:37:09.261351+05:30
Akola,Maharashtra,20.7002,77.0082,26.3,43,0.0,974.7,8.05,24.1,69,46.3,30.2,4,5,7,0,2026-03-17T00:37:09.261358+05:30
Amravati,Maharashtra,20.9374,77.7796,24.9,49,0.0,966.6,8.0,30.6,72,47.4,33.3,0,5,7,0,2026-03-17T00:37:09.261365+05:30
Latur,Maharashtra,18.4088,76.5604,22.2,66,0.0,939.5,8.55,23.4,94,49.0,45.3,3,5,7,0,2026-03-17T00:37:09.261372+05:30
Nanded,Maharashtra,19.1383,77.3091,25.6,60,0.0,968.6,8.3,19.1,106,60.5,56.3,4,5,7,1,2026-03-17T00:37:09.261378+05:30
Gulbarga,Karnataka,17.3297,76.8343,25.3,59,0.0,958.8,8.3,24.5,113,44.9,40.9,4,5,7,1,2026-03-17T00:37:09.261384+05:30
Bidar,Karnataka,17.9104,77.5199,23.5,65,0.0,935.4,8.55,34.9,122,46.8,42.7,3,5,7,1,2026-03-17T00:37:09.261390+05:30
Hospet,Karnataka,15.2689,76.3909,24.8,72,0.0,956.7,8.7,27.7,124,46.3,42.3,3,5,7,1,2026-03-17T00:37:09.261397+05:30
Tirupur,Tamil Nadu,11.1085,77.3411,24.4,81,0.0,976.8,9.35,37.1,72,31.9,30.4,3,5,7,1,2026-03-17T00:37:09.261404+05:30
Alappuzha,Kerala,9.4981,76.3388,27.0,84,0.0,1010.2,9.05,30.2,79,27.1,25.0,7,0,4,1,2026-03-17T00:37:09.261410+05:30
Munnar,Kerala,10.0889,77.0595,18.5,93,0.0,856.4,9.6,33.5,72,27.0,26.1,3,10,7,1,2026-03-17T00:37:09.261417+05:30
Silchar,Assam,24.8333,92.7789,19.5,93,0.0,1008.3,7.9,41.0,67,24.3,21.0,3,5,4,1,2026-03-17T00:37:09.261423+05:30
Dibrugarh,Assam,27.4728,94.912,18.6,91,0.0,997.0,6.25,33.1,78,31.3,26.5,3,10,7,1,2026-03-17T00:37:09.261429+05:30
