city,state,latitude,longitude,temp,humidity,rain,pressure,uv_index,wind_gusts,aqi,pm10,pm2_5,no2,co,o3,so2,mosquito_risk,arthritis_risk,migraine_risk,frizz_risk,updated_at
Delhi,Delhi,28.6139,77.209,29.8,44,0.0,981.7,7.55,46.8,359,953.7,116.6,9.4,441.0,185.0,18.8,4,5,7,1,2026-05-07T17:20:24.616671+05:30
Mumbai,Maharashtra,19.076,72.8777,32.0,66,0.0,1004.4,7.9,44.3,99,84.5,28.2,7.7,240.0,95.0,10.0,3,5,4,1,2026-05-07T17:20:24.616726+05:30
Bangalore,Karnataka,12.9716,77.5946,31.6,34,0.1,908.8,9.35,29.5,77,19.3,14.5,6.0,355.0,117.0,5.6,3,5,7,0,2026-05-07T17:20:24.616743+05:30
Hyderabad,Telangana,17.385,78.4867,34.8,30,0.0,950.8,9.25,29.5,70,28.2,16.2,3.0,293.0,142.0,3.9,0,5,7,0,2026-05-07T17:20:24.616754+05:30
Chennai,Tamil Nadu,13.0827,80.2707,30.6,68,0.0,1003.3,9.25,40.0,31,7.7,5.9,3.0,141.0,50.0,5.3,3,5,4,1,2026-05-07T17:20:24.616768+05:30
Kolkata,West Bengal,22.5726,88.3639,28.8,76,0.0,1005.5,8.9,37.8,86,22.9,19.2,7.0,370.0,102.0,9.3,7,5,4,1,2026-05-07T17:20:24.616778+05:30
Pune,Maharashtra,18.5204,73.8567,36.5,19,0.0,944.9,8.45,32.0,114,59.8,22.2,2.2,238.0,161.0,5.0,0,5,10,0,2026-05-07T17:20:24.616787+05:30
Ahmedabad,Gujarat,23.0225,72.5714,41.1,14,0.0,997.2,8.1,29.5,89,69.8,19.2,0.4,171.0,140.0,3.2,0,5,10,0,2026-05-07T17:20:24.616796+05:30
Jaipur,Rajasthan,26.9124,75.7873,37.5,12,0.0,956.7,8.1,45.0,108,256.1,37.6,0.0,160.0,147.0,2.9,0,5,10,0,2026-05-07T17:20:24.616805+05:30
Lucknow,Uttar Pradesh,26.8467,80.9462,30.1,48,0.0,993.9,8.05,32.4,145,92.2,33.2,2.1,270.0,177.0,8.2,0,5,7,1,2026-05-07T17:20:24.616813+05:30
Kanpur,Uttar Pradesh,26.4499,80.3319,30.0,38,0.0,991.8,8.05,38.9,146,217.0,39.9,2.8,223.0,176.0,7.5,4,5,7,0,2026-05-07T17:20:24.616821+05:30
Chandigarh,Chandigarh,30.7333,76.7794,28.7,38,0.0,969.3,5.55,44.6,160,119.2,30.6,0.9,305.0,186.0,6.1,4,5,3,0,2026-05-07T17:20:24.616830+05:30
Srinagar,Jammu and Kashmir,34.0837,74.7973,23.1,41,0.0,840.1,8.7,35.3,94,44.1,9.5,0.0,299.0,136.0,1.2,0,5,7,0,2026-05-07T17:20:24.616838+05:30
Jammu,Jammu and Kashmir,32.7266,74.857,31.8,27,0.0,971.7,8.3,30.6,165,33.5,16.2,0.5,239.0,183.0,5.5,0,5,7,0,2026-05-07T17:20:24.616846+05:30
Amritsar,Punjab,31.634,74.8723,33.5,25,0.0,979.2,8.2,32.0,146,204.9,41.0,1.5,289.0,178.0,7.4,0,5,7,0,2026-05-07T17:20:24.616855+05:30
Ludhiana,Punjab,30.901,75.8573,31.6,34,0.0,977.6,7.8,34.6,155,741.3,94.1,1.9,288.0,184.0,7.7,0,5,7,0,2026-05-07T17:20:24.616863+05:30
Jalandhar,Punjab,31.326,75.5762,31.7,32,0.0,978.7,7.95,29.2,156,475.9,70.5,1.8,298.0,184.0,8.6,0,5,7,0,2026-05-07T17:20:24.616870+05:30
Dehradun,Uttarakhand,30.6284,78.0322,16.1,66,0.0,830.9,6.05,28.4,145,32.7,17.8,2.5,200.0,165.0,1.8,3,5,7,0,2026-05-07T17:20:24.616877+05:30
Shimla,Himachal Pradesh,31.1048,77.1734,12.6,73,0.0,784.0,5.5,33.5,150,32.8,19.0,0.9,193.0,172.0,2.4,3,5,3,0,2026-05-07T17:20:24.616885+05:30
Manali,Himachal Pradesh,32.2396,77.1887,13.8,75,0.0,816.9,9.15,28.8,105,43.9,8.8,0.8,159.0,142.0,0.3,3,5,7,0,2026-05-07T17:20:24.616892+05:30
Gurgaon,Haryana,28.4595,77.0266,29.2,43,0.0,979.7,7.65,51.5,1283,1717.4,175.1,6.9,357.0,173.0,13.0,4,5,7,0,2026-05-07T17:20:24.616900+05:30
Noida,Uttar Pradesh,28.5355,77.391,29.5,44,0.0,983.3,7.55,45.7,1283,1717.4,175.1,6.9,418.0,173.0,13.0,4,5,7,0,2026-05-07T17:20:24.616910+05:30
Ghaziabad,Uttar Pradesh,28.6692,77.4538,28.7,46,0.0,982.1,7.55,46.1,166,532.7,67.1,3.7,257.0,172.0,7.0,4,5,7,0,2026-05-07T17:20:24.616917+05:30
Faridabad,Haryana,28.4089,77.3178,29.8,45,0.0,982.4,7.6,48.6,1283,1717.4,175.1,6.9,369.0,173.0,13.0,4,5,7,1,2026-05-07T17:20:24.616925+05:30
Meerut,Uttar Pradesh,28.9845,77.7064,27.4,55,0.0,981.5,6.95,37.8,166,532.7,67.1,3.7,278.0,172.0,7.0,4,5,7,1,2026-05-07T17:20:24.616934+05:30
Agra,Uttar Pradesh,27.1767,78.0081,31.9,38,0.0,986.1,7.9,51.1,889,438.7,51.5,8.7,246.0,148.0,9.2,0,5,7,0,2026-05-07T17:20:24.616941+05:30
Varanasi,Uttar Pradesh,25.3176,82.9739,32.1,40,0.0,997.4,8.6,28.8,162,70.1,28.1,1.4,386.0,178.0,7.8,0,5,7,1,2026-05-07T17:20:24.616948+05:30
Prayagraj,Uttar Pradesh,25.4358,81.8463,32.9,30,0.0,996.0,8.45,33.1,158,80.8,29.2,1.5,268.0,175.0,7.1,0,5,7,0,2026-05-07T17:20:24.616956+05:30
Gorakhpur,Uttar Pradesh,26.7606,83.3732,27.5,60,0.0,998.4,8.4,33.5,147,60.1,28.2,2.2,263.0,172.0,4.6,4,5,7,1,2026-05-07T17:20:24.616963+05:30
Bareilly,Uttar Pradesh,28.367,79.4304,26.4,62,0.0,987.8,7.45,41.8,143,77.8,27.1,1.8,287.0,170.0,7.8,7,5,7,1,2026-05-07T17:20:24.616970+05:30
Aligarh,Uttar Pradesh,27.8974,78.088,30.5,39,0.0,984.7,7.7,47.5,556,810.3,88.0,3.2,219.0,168.0,10.2,0,5,7,0,2026-05-07T17:20:24.616977+05:30
Moradabad,Uttar Pradesh,28.8386,78.7733,27.9,56,0.0,984.7,7.5,35.6,157,70.1,28.4,4.3,264.0,173.0,13.6,4,5,7,1,2026-05-07T17:20:24.616984+05:30
Saharanpur,Uttar Pradesh,29.9637,77.546,25.8,63,0.0,976.6,6.95,39.6,146,117.8,30.5,2.1,259.0,166.0,6.9,7,5,7,1,2026-05-07T17:20:24.616991+05:30
Jhansi,Uttar Pradesh,25.4484,78.5685,34.5,24,0.0,976.5,8.3,42.1,139,45.8,15.7,2.1,188.0,152.0,8.8,0,5,7,0,2026-05-07T17:20:27.916700+05:30
Surat,Gujarat,21.1702,72.8311,38.8,22,0.0,1002.2,7.7,33.8,128,93.8,58.2,64.1,718.0,93.0,100.9,0,5,7,0,2026-05-07T17:20:27.916732+05:30
Vadodara,Gujarat,22.3072,73.1812,40.5,14,0.0,999.5,8.05,38.9,143,67.1,23.2,1.2,202.0,161.0,6.3,0,5,10,0,2026-05-07T17:20:27.916742+05:30
Rajkot,Gujarat,22.3039,70.8022,39.5,19,0.0,989.9,7.7,47.2,81,67.8,18.7,1.0,154.0,149.0,4.3,0,5,10,0,2026-05-07T17:20:27.916751+05:30
Thane,Maharashtra,19.2183,72.9781,35.2,49,0.0,1003.3,7.9,35.6,99,84.5,28.2,7.7,215.0,95.0,10.0,0,5,7,1,2026-05-07T17:20:27.916758+05:30
Nagpur,Maharashtra,21.1458,79.0882,36.3,21,0.0,971.0,8.9,49.7,197,53.4,33.9,6.8,201.0,229.0,28.0,0,5,10,0,2026-05-07T17:20:27.916766+05:30
Nashik,Maharashtra,19.9975,73.7898,32.0,31,0.0,943.7,8.15,45.4,125,61.5,21.6,0.9,168.0,149.0,3.4,0,5,7,0,2026-05-07T17:20:27.916773+05:30
Aurangabad,Maharashtra,19.8762,75.3433,35.9,16,0.0,941.5,9.05,32.0,143,54.6,21.5,0.9,185.0,171.0,8.0,0,5,10,0,2026-05-07T17:20:27.916780+05:30
Solapur,Maharashtra,17.6599,75.9064,36.4,25,0.0,953.4,9.05,43.9,114,40.7,22.9,2.0,184.0,153.0,4.1,0,5,10,0,2026-05-07T17:20:27.916787+05:30
Kolhapur,Maharashtra,16.705,74.2433,31.8,41,0.0,945.1,8.95,48.2,124,48.0,28.2,5.8,193.0,162.0,6.2,0,5,7,1,2026-05-07T17:20:27.916794+05:30
Goa,Goa,15.2993,74.124,33.2,55,0.0,994.1,8.9,35.6,87,50.1,26.7,1.1,157.0,130.0,3.7,0,5,7,1,2026-05-07T17:20:27.916801+05:30
Jodhpur,Rajasthan,26.2389,73.0243,40.2,12,0.0,978.7,8.3,38.5,109,228.6,31.8,0.7,160.0,147.0,3.0,0,5,10,0,2026-05-07T17:20:27.916808+05:30
Udaipur,Rajasthan,24.5854,73.7125,35.8,16,0.0,944.2,8.75,31.3,96,98.3,20.4,0.4,141.0,138.0,2.2,0,5,10,0,2026-05-07T17:20:27.916815+05:30
Kota,Rajasthan,25.2138,75.8648,38.8,15,0.0,975.6,8.3,39.6,122,71.5,17.2,0.3,167.0,158.0,3.4,0,5,10,0,2026-05-07T17:20:27.916822+05:30
Bikaner,Rajasthan,28.0229,73.3119,41.3,9,0.0,976.4,8.25,37.1,116,57.9,15.1,0.1,167.0,139.0,4.6,0,5,10,0,2026-05-07T17:20:27.916829+05:30
Ajmer,Rajasthan,26.4499,74.6399,36.8,13,0.0,951.8,8.25,46.4,98,84.3,20.4,0.2,159.0,148.0,3.2,0,5,10,0,2026-05-07T17:20:27.916836+05:30
Gwalior,Madhya Pradesh,26.2183,78.1828,31.5,43,0.0,981.7,7.9,44.6,131,105.0,22.9,1.1,268.0,148.0,4.8,0,5,7,1,2026-05-07T17:20:27.916843+05:30
Indore,Madhya Pradesh,22.7196,75.8577,36.8,13,0.0,945.9,8.65,37.1,144,27.6,13.3,0.7,209.0,170.0,5.1,0,5,10,0,2026-05-07T17:20:27.916850+05:30
Bhopal,Madhya Pradesh,23.2599,77.4126,37.5,12,0.0,951.4,8.65,34.2,136,21.0,9.9,0.3,184.0,167.0,4.5,0,5,10,0,2026-05-07T17:20:27.916857+05:30
Jabalpur,Madhya Pradesh,23.1815,79.9864,37.2,12,0.0,959.3,8.8,24.8,127,24.7,7.9,1.5,175.0,153.0,2.6,0,5,10,0,2026-05-07T17:20:27.916863+05:30
Ujjain,Madhya Pradesh,23.1765,75.7885,38.8,9,0.0,950.7,8.55,33.5,135,30.2,12.0,0.8,198.0,156.0,3.8,0,5,10,0,2026-05-07T17:20:27.916871+05:30
Visakhapatnam,Andhra Pradesh,17.6868,83.2185,31.0,66,0.0,1001.3,8.85,31.7,73,17.1,13.8,17.5,322.0,40.0,14.9,3,5,4,1,2026-05-07T17:20:27.916878+05:30
Vijayawada,Andhra Pradesh,16.5062,80.648,33.6,50,0.0,999.4,9.15,42.1,51,20.9,15.7,3.2,189.0,88.0,5.3,0,5,7,1,2026-05-07T17:20:27.916885+05:30
Guntur,Andhra Pradesh,16.3067,80.4365,33.7,52,0.0,1000.5,9.2,44.3,53,26.4,20.0,2.9,159.0,109.0,3.7,0,5,4,1,2026-05-07T17:20:27.916891+05:30
Nellore,Andhra Pradesh,14.4426,79.9865,31.2,65,0.0,1002.3,9.2,40.3,36,8.2,5.7,1.3,114.0,54.0,1.7,3,5,4,1,2026-05-07T17:20:27.916899+05:30
Kurnool,Andhra Pradesh,15.8281,78.0373,37.3,25,0.0,972.5,9.2,45.4,68,25.6,13.8,0.9,205.0,132.0,2.7,0,5,10,0,2026-05-07T17:20:27.916906+05:30
Kakinada,Andhra Pradesh,16.9891,82.2475,30.1,73,0.0,1004.9,8.9,33.5,33,9.6,6.3,1.1,139.0,55.0,0.7,3,5,4,1,2026-05-07T17:20:27.916913+05:30
Tirupati,Andhra Pradesh,13.6288,79.4192,33.0,49,0.0,987.1,9.25,39.6,55,13.4,11.7,3.4,165.0,94.0,5.2,0,5,7,1,2026-05-07T17:20:27.916920+05:30
Warangal,Telangana,17.9689,79.5941,35.3,35,0.0,976.0,9.1,36.7,75,31.4,18.9,0.9,199.0,140.0,3.8,0,5,10,1,2026-05-07T17:20:27.916927+05:30
Nizamabad,Telangana,18.6725,78.0941,32.0,41,0.0,963.0,9.1,47.2,109,38.4,21.8,1.5,201.0,154.0,3.0,0,5,7,1,2026-05-07T17:20:27.916934+05:30
Mysore,Karnataka,12.2958,76.6396,31.9,38,0.0,924.9,9.2,27.7,85,27.2,18.3,0.7,238.0,140.0,4.7,0,5,7,0,2026-05-07T17:20:27.916940+05:30
Mangalore,Karnataka,12.9141,74.856,29.1,80,0.0,1003.3,8.2,36.0,60,34.1,17.1,1.6,148.0,105.0,1.7,7,5,4,1,2026-05-07T17:20:27.916947+05:30
Hubli-Dharwad,Karnataka,15.3647,75.124,31.0,43,0.0,937.9,9.2,50.8,139,43.8,27.5,2.6,199.0,162.0,2.9,0,5,7,1,2026-05-07T17:20:27.916954+05:30
Belgaum,Karnataka,15.8497,74.4977,28.9,48,0.0,923.3,8.35,48.2,124,48.1,29.3,2.9,205.0,159.0,5.4,4,5,7,1,2026-05-07T17:20:31.215485+05:30
Coimbatore,Tamil Nadu,11.0168,76.9558,31.8,50,0.0,957.5,7.2,29.2,65,20.5,13.3,2.6,256.0,123.0,2.5,0,5,7,1,2026-05-07T17:20:31.215521+05:30
Madurai,Tamil Nadu,9.9252,78.1198,34.2,45,0.0,988.1,6.0,34.9,80,36.3,28.0,3.9,202.0,121.0,2.0,0,5,3,1,2026-05-07T17:20:31.215534+05:30
Trichy,Tamil Nadu,10.7905,78.7047,33.0,53,0.0,994.9,8.5,29.2,58,13.3,11.5,3.7,197.0,132.0,5.5,0,5,7,1,2026-05-07T17:20:31.215544+05:30
Salem,Tamil Nadu,11.6643,78.146,31.8,58,0.0,972.9,8.75,34.6,85,21.9,18.6,3.5,196.0,138.0,10.3,0,5,7,1,2026-05-07T17:20:31.215555+05:30
Tirunelveli,Tamil Nadu,8.7139,77.7567,30.9,62,0.0,998.8,4.75,30.2,77,22.8,18.6,4.2,209.0,122.0,4.3,3,5,3,1,2026-05-07T17:20:31.215565+05:30
Vellore,Tamil Nadu,12.9165,79.1325,33.4,49,0.0,980.1,9.25,29.2,65,8.8,7.1,2.1,197.0,92.0,1.4,0,5,7,1,2026-05-07T17:20:31.215573+05:30
Erode,Tamil Nadu,11.341,77.7172,33.0,49,0.0,984.2,7.9,35.6,68,15.1,10.7,3.0,244.0,125.0,1.9,0,5,7,1,2026-05-07T17:20:31.215581+05:30
Kochi,Kerala,9.9312,76.2673,28.6,79,0.1,1004.8,5.45,24.1,67,19.3,13.9,7.7,231.0,95.0,2.7,10,5,0,1,2026-05-07T17:20:31.215589+05:30
Thiruvananthapuram,Kerala,8.5241,76.9366,27.9,85,0.0,1004.0,7.4,28.4,86,18.5,12.4,1.8,239.0,122.0,1.2,7,5,4,1,2026-05-07T17:20:31.215597+05:30
Kozhikode,Kerala,11.2588,75.7804,29.4,78,0.0,1003.9,6.6,36.0,86,15.5,11.0,1.4,189.0,125.0,2.2,7,5,4,1,2026-05-07T17:20:31.215605+05:30
Thrissur,Kerala,10.5276,76.2144,29.1,72,0.0,1002.9,4.2,27.0,69,16.6,12.5,4.2,197.0,101.0,1.7,7,5,0,1,2026-05-07T17:20:31.215613+05:30
Kannur,Kerala,11.8745,75.3704,30.0,73,0.0,1003.5,7.9,41.0,102,20.5,13.7,1.7,188.0,136.0,1.7,7,5,4,1,2026-05-07T17:20:31.215620+05:30
Patna,Bihar,25.5941,85.1376,28.8,66,0.0,1000.5,8.7,40.7,177,49.5,38.3,3.6,396.0,201.0,7.7,7,5,4,1,2026-05-07T17:20:31.215628+05:30
Gaya,Bihar,24.7914,85.0002,30.0,53,0.0,993.3,8.75,32.4,196,53.9,44.8,2.6,318.0,215.0,11.6,4,5,7,1,2026-05-07T17:20:31.215636+05:30
Muzaffarpur,Bihar,26.1209,85.3647,28.9,64,0.0,1000.7,8.65,39.2,156,46.3,34.0,5.0,349.0,179.0,8.1,7,5,4,1,2026-05-07T17:20:31.215643+05:30
Bhagalpur,Bihar,25.2425,87.0117,27.5,64,0.0,1001.4,8.7,38.5,185,61.0,54.6,9.2,417.0,182.0,9.5,7,5,4,1,2026-05-07T17:20:31.215650+05:30
Ranchi,Jharkhand,23.3441,85.3096,30.0,29,0.0,937.1,9.2,34.2,173,31.3,14.9,3.4,232.0,165.0,7.0,4,5,7,0,2026-05-07T17:20:31.215658+05:30
Jamshedpur,Jharkhand,22.8046,86.2029,30.0,50,0.0,989.7,9.05,42.5,188,56.0,39.9,8.6,299.0,196.0,19.7,4,5,7,1,2026-05-07T17:20:31.215665+05:30
Dhanbad,Jharkhand,23.7957,86.4304,29.3,61,0.0,979.3,8.95,39.2,167,62.4,52.0,22.0,515.0,199.0,40.2,7,5,7,1,2026-05-07T17:20:31.215673+05:30
Bokaro,Jharkhand,23.6693,86.1511,30.5,53,0.0,982.9,8.95,47.2,175,45.8,33.1,18.6,254.0,185.0,31.2,0,5,7,1,2026-05-07T17:20:31.215680+05:30
Bhubaneswar,Odisha,20.2961,85.8245,31.8,61,0.0,1001.0,9.1,50.4,48,19.8,13.4,5.3,229.0,99.0,4.0,3,5,4,1,2026-05-07T17:20:31.215688+05:30
Cuttack,Odisha,20.4625,85.8828,32.0,62,0.0,1002.7,9.15,43.6,48,19.8,13.4,5.3,265.0,99.0,4.0,3,5,4,1,2026-05-07T17:20:31.215695+05:30
Rourkela,Odisha,22.2604,84.8536,35.2,25,0.0,982.7,8.95,36.7,208,37.8,23.2,6.7,285.0,201.0,19.2,0,5,10,0,2026-05-07T17:20:31.215702+05:30
Raipur,Chhattisgarh,21.2514,81.6296,37.4,15,0.0,972.4,8.95,32.8,204,37.7,25.1,7.8,170.0,252.0,5.8,0,5,10,0,2026-05-07T17:20:31.215709+05:30
Bhilai,Chhattisgarh,21.1938,81.3509,36.8,17,0.0,972.9,9.0,26.6,190,39.1,25.1,8.8,187.0,236.0,5.1,0,5,10,0,2026-05-07T17:20:31.215717+05:30
Guwahati,Assam,26.1158,91.7086,23.8,85,0.0,1001.7,8.65,32.8,122,47.5,37.4,2.6,269.0,143.0,2.9,3,5,4,1,2026-05-07T17:20:31.215724+05:30
Agartala,Tripura,23.8315,91.2868,28.8,78,0.0,1005.3,8.85,32.0,113,23.5,20.9,10.3,249.0,156.0,4.4,7,5,4,1,2026-05-07T17:20:31.215731+05:30
Shillong,Meghalaya,25.5788,91.8933,18.5,74,0.0,857.2,7.75,24.8,123,39.6,30.2,2.8,257.0,149.0,2.3,3,5,7,0,2026-05-07T17:20:31.215738+05:30
Imphal,Manipur,24.817,93.9368,24.8,64,0.0,922.7,9.1,31.0,104,34.5,23.2,3.0,232.0,114.0,2.2,3,5,7,1,2026-05-07T17:20:31.215745+05:30
Aizawl,Mizoram,23.7271,92.7176,23.0,69,0.0,892.5,9.05,23.4,70,19.5,14.3,2.3,175.0,90.0,0.7,3,5,7,1,2026-05-07T17:20:31.215753+05:30
Kohima,Nagaland,25.6701,94.1077,18.4,90,0.0,855.2,9.15,27.4,71,39.5,25.5,3.5,269.0,113.0,1.2,3,10,7,1,2026-05-07T17:20:31.215760+05:30
Gangtok,Sikkim,27.3314,88.6138,16.8,73,0.0,836.6,8.55,39.2,99,28.3,17.9,3.3,263.0,128.0,1.2,3,5,7,0,2026-05-07T17:20:31.215767+05:30
Siliguri,West Bengal,26.7271,88.3953,27.2,67,0.0,992.3,8.6,23.8,115,46.0,27.5,7.8,577.0,135.0,2.3,7,5,7,1,2026-05-07T17:20:34.536620+05:30
Durgapur,West Bengal,23.5204,87.3119,28.4,76,0.0,995.2,8.9,45.4,157,52.0,46.0,19.4,1040.0,182.0,43.3,7,5,7,1,2026-05-07T17:20:34.536657+05:30
Asansol,West Bengal,23.6739,86.9524,28.0,70,0.0,993.6,8.95,34.2,168,60.8,54.7,18.8,507.0,198.0,48.6,7,5,7,1,2026-05-07T17:20:34.536670+05:30
Pondicherry,Puducherry,11.9139,79.8145,29.7,72,0.0,1004.2,7.15,32.0,29,5.8,3.9,1.4,138.0,47.0,0.4,7,5,4,1,2026-05-07T17:20:34.536680+05:30
Port Blair,Andaman and Nicobar Islands,11.6234,92.7265,27.8,84,0.0,1004.9,8.45,34.2,32,7.9,6.1,0.6,175.0,63.0,0.7,7,5,4,1,2026-05-07T17:20:34.536691+05:30
Haridwar,Uttarakhand,29.9457,78.1642,28.0,50,0.0,974.9,6.9,40.0,156,108.0,28.3,0.8,245.0,175.0,6.0,4,5,7,1,2026-05-07T17:20:34.536699+05:30
Rishikesh,Uttarakhand,30.0869,78.2676,26.8,52,0.0,967.6,6.45,35.3,160,93.4,24.7,0.5,217.0,177.0,5.9,4,5,7,1,2026-05-07T17:20:34.536708+05:30
Nainital,Uttarakhand,29.3919,79.4542,14.6,67,0.0,805.9,7.4,29.5,136,59.5,20.7,0.5,199.0,161.0,3.6,3,5,7,0,2026-05-07T17:20:34.536717+05:30
Mussoorie,Uttarakhand,30.4599,78.0664,13.9,71,0.0,803.0,5.95,32.8,157,71.2,23.6,1.3,200.0,175.0,6.1,3,5,3,0,2026-05-07T17:20:34.536726+05:30
Dharamshala,Himachal Pradesh,32.219,76.3234,20.2,51,0.0,869.0,6.7,37.1,129,22.9,12.7,0.6,206.0,149.0,1.3,0,5,7,0,2026-05-07T17:20:34.536735+05:30
Dalhousie,Himachal Pradesh,32.5387,75.971,17.1,52,0.0,804.9,7.7,32.4,157,29.0,16.9,1.4,175.0,173.0,5.9,0,5,7,0,2026-05-07T17:20:34.536743+05:30
Patiala,Punjab,30.3398,76.3869,29.3,44,0.0,978.0,7.4,44.6,426,1013.3,106.4,2.3,264.0,183.0,8.0,4,5,7,0,2026-05-07T17:20:34.536752+05:30
Bhatinda,Punjab,30.211,74.9455,35.9,22,0.0,981.1,8.1,39.2,321,1136.2,143.4,3.1,213.0,203.0,15.2,0,5,10,0,2026-05-07T17:20:34.536760+05:30
Rohtak,Haryana,28.8955,76.6066,29.8,43,0.0,980.6,7.6,49.7,711,1128.8,134.6,5.6,266.0,186.0,14.3,4,5,7,0,2026-05-07T17:20:34.536768+05:30
Panipat,Haryana,29.3909,76.9635,28.1,53,0.0,980.5,7.2,43.6,1233,1505.0,155.5,4.9,262.0,196.0,16.7,4,5,7,1,2026-05-07T17:20:34.536777+05:30
Mathura,Uttar Pradesh,27.4924,77.6737,32.8,33,0.0,985.2,7.85,47.5,942,560.7,64.5,3.6,275.0,163.0,7.5,0,5,7,0,2026-05-07T17:20:34.536785+05:30
Vrindavan,Uttar Pradesh,27.5823,77.7027,32.5,31,0.0,985.7,7.8,47.9,942,560.7,64.5,3.6,256.0,163.0,7.5,0,5,7,0,2026-05-07T17:20:34.536794+05:30
Ayodhya,Uttar Pradesh,26.7922,82.1998,29.9,50,0.0,995.8,7.95,31.0,141,71.7,29.6,0.4,279.0,173.0,5.8,4,5,7,1,2026-05-07T17:20:34.536803+05:30
Ratlam,Madhya Pradesh,23.3315,75.0367,37.0,17,0.0,952.3,8.45,33.5,124,42.6,14.0,0.5,161.0,154.0,3.5,0,5,10,0,2026-05-07T17:20:34.536812+05:30
Sagar,Madhya Pradesh,23.8388,78.7378,36.2,13,0.0,948.6,8.65,35.3,127,18.3,6.4,0.1,153.0,156.0,2.4,0,5,10,0,2026-05-07T17:20:34.536819+05:30
Satna,Madhya Pradesh,24.6005,80.8322,33.7,24,0.0,970.8,8.65,40.3,158,65.9,18.5,0.8,213.0,171.0,5.5,0,5,7,0,2026-05-07T17:20:34.536826+05:30
Akola,Maharashtra,20.7002,77.0082,36.8,23,0.0,972.0,8.85,41.0,132,45.4,22.3,2.4,199.0,169.0,8.5,0,5,10,0,2026-05-07T17:20:34.536834+05:30
Amravati,Maharashtra,20.9374,77.7796,37.5,20,0.0,964.5,6.4,33.5,131,46.6,23.4,2.6,184.0,170.0,4.3,0,5,10,0,2026-05-07T17:20:34.536842+05:30
Latur,Maharashtra,18.4088,76.5604,34.3,26,0.0,937.6,8.4,35.3,114,59.5,35.7,1.5,179.0,152.0,6.4,0,5,7,0,2026-05-07T17:20:34.536849+05:30
Nanded,Maharashtra,19.1383,77.3091,36.6,23,0.0,965.9,8.3,42.1,112,37.7,19.6,0.8,177.0,155.0,2.5,0,5,10,0,2026-05-07T17:20:34.536857+05:30
Gulbarga,Karnataka,17.3297,76.8343,36.2,25,0.0,955.3,9.1,36.0,117,34.0,19.7,1.9,198.0,162.0,5.5,0,5,10,0,2026-05-07T17:20:34.536865+05:30
Bidar,Karnataka,17.9104,77.5199,27.2,58,0.1,932.9,8.45,41.8,99,33.6,18.6,0.4,171.0,152.0,2.6,7,5,7,1,2026-05-07T17:20:34.536872+05:30
Hospet,Karnataka,15.2689,76.3909,35.0,28,0.0,951.8,9.2,33.5,125,32.5,20.5,2.6,208.0,173.0,6.6,0,5,7,0,2026-05-07T17:20:34.536880+05:30
Tirupur,Tamil Nadu,11.1085,77.3411,34.1,42,0.0,970.6,6.65,28.1,76,18.0,12.1,3.0,218.0,135.0,2.2,0,5,7,1,2026-05-07T17:20:34.536887+05:30
Alappuzha,Kerala,9.4981,76.3388,28.5,80,0.0,1004.7,6.85,17.3,66,18.2,12.0,5.6,189.0,100.0,2.8,7,5,4,1,2026-05-07T17:20:34.536893+05:30
Munnar,Kerala,10.0889,77.0595,20.2,89,0.0,854.2,6.5,24.8,72,18.9,13.6,4.3,206.0,98.0,1.7,3,5,7,1,2026-05-07T17:20:34.536901+05:30
Silchar,Assam,24.8333,92.7789,28.9,73,0.0,1004.0,8.85,21.6,137,39.6,29.3,5.0,292.0,140.0,5.2,7,5,4,1,2026-05-07T17:20:34.536908+05:30
Dibrugarh,Assam,27.4728,94.912,26.7,74,0.0,995.2,8.8,27.0,101,36.8,24.0,4.1,285.0,124.0,1.8,7,5,7,1,2026-05-07T17:20:34.536914+05:30
