city,state,latitude,longitude,temp,humidity,rain,pressure,uv_index,wind_gusts,aqi,pm10,pm2_5,mosquito_risk,arthritis_risk,migraine_risk,frizz_risk,updated_at
Delhi,Delhi,28.6139,77.209,18.9,90,0.0,984.7,5.6,37.4,121,130.4,63.1,3,10,3,1,2026-04-05T00:18:52.604860+05:30
Mumbai,Maharashtra,19.076,72.8777,27.6,78,0.0,1010.1,7.9,20.9,72,64.7,23.0,7,0,4,1,2026-04-05T00:18:52.604909+05:30
Bangalore,Karnataka,12.9716,77.5946,24.1,72,0.0,911.6,9.1,24.5,85,39.6,37.5,3,5,7,1,2026-04-05T00:18:52.604924+05:30
Hyderabad,Telangana,17.385,78.4867,25.4,72,0.0,953.1,7.95,43.2,97,60.5,54.1,7,5,7,1,2026-04-05T00:18:52.604935+05:30
Chennai,Tamil Nadu,13.0827,80.2707,28.5,89,0.0,1006.6,8.75,31.0,64,16.2,12.5,7,5,4,1,2026-04-05T00:18:52.604945+05:30
Kolkata,West Bengal,22.5726,88.3639,27.5,92,0.0,1003.7,8.55,19.1,118,38.5,36.0,7,5,4,1,2026-04-05T00:18:52.604955+05:30
Pune,Maharashtra,18.5204,73.8567,22.4,79,0.0,949.2,8.5,40.0,102,28.9,24.0,3,5,7,1,2026-04-05T00:18:52.604967+05:30
Ahmedabad,Gujarat,23.0225,72.5714,26.0,49,0.0,1003.5,7.5,24.8,50,24.9,18.2,4,5,4,0,2026-04-05T00:18:52.604975+05:30
Jaipur,Rajasthan,26.9124,75.7873,21.3,77,0.0,960.5,7.45,30.6,83,194.6,39.3,3,5,7,1,2026-04-05T00:18:52.604982+05:30
Lucknow,Uttar Pradesh,26.8467,80.9462,24.6,68,0.0,992.8,6.3,48.6,155,219.8,54.1,3,5,7,1,2026-04-05T00:18:52.604991+05:30
Kanpur,Uttar Pradesh,26.4499,80.3319,23.1,77,0.0,991.6,6.75,33.1,302,119.0,34.8,3,5,7,1,2026-04-05T00:18:52.604998+05:30
Chandigarh,Chandigarh,30.7333,76.7794,17.7,88,0.0,971.1,5.9,32.0,89,39.9,31.4,3,10,3,0,2026-04-05T00:18:52.605006+05:30
Srinagar,Jammu and Kashmir,34.0837,74.7973,8.2,90,0.0,840.7,5.25,37.1,65,49.8,46.4,3,10,3,0,2026-04-05T00:18:52.605014+05:30
Jammu,Jammu and Kashmir,32.7266,74.857,15.4,90,0.0,975.2,6.55,46.4,72,61.7,38.5,3,10,7,0,2026-04-05T00:18:52.605022+05:30
Amritsar,Punjab,31.634,74.8723,16.1,94,0.0,983.7,6.15,32.0,88,117.3,62.6,3,10,7,0,2026-04-05T00:18:52.605028+05:30
Ludhiana,Punjab,30.901,75.8573,17.6,86,0.0,981.2,6.7,32.8,113,101.5,54.0,3,10,7,0,2026-04-05T00:18:52.605035+05:30
Jalandhar,Punjab,31.326,75.5762,17.1,91,0.0,982.6,6.75,34.2,99,111.1,52.4,3,10,7,0,2026-04-05T00:18:52.605044+05:30
Dehradun,Uttarakhand,30.6284,78.0322,12.1,73,0.0,829.6,3.85,38.9,40,22.8,12.4,3,5,3,0,2026-04-05T00:18:52.605051+05:30
Shimla,Himachal Pradesh,31.1048,77.1734,10.6,75,0.0,783.1,5.55,49.7,49,22.6,11.0,3,5,3,0,2026-04-05T00:18:52.605058+05:30
Manali,Himachal Pradesh,32.2396,77.1887,11.9,63,0.0,818.9,7.2,31.3,50,18.9,10.9,3,5,7,0,2026-04-05T00:18:52.605066+05:30
Gurgaon,Haryana,28.4595,77.0266,18.2,93,0.0,983.3,6.2,46.4,365,122.9,62.2,3,10,7,1,2026-04-05T00:18:52.605073+05:30
Noida,Uttar Pradesh,28.5355,77.391,19.1,88,0.0,986.2,5.7,43.6,365,122.9,62.2,3,10,3,1,2026-04-05T00:18:52.605079+05:30
Ghaziabad,Uttar Pradesh,28.6692,77.4538,18.1,90,0.0,984.2,5.55,43.2,124,174.6,63.1,3,10,3,1,2026-04-05T00:18:52.605086+05:30
Faridabad,Haryana,28.4089,77.3178,18.7,89,0.0,985.6,5.8,38.9,365,122.9,62.2,3,10,3,1,2026-04-05T00:18:52.605095+05:30
Meerut,Uttar Pradesh,28.9845,77.7064,18.7,89,0.0,983.1,6.45,46.4,124,174.6,63.1,3,10,7,1,2026-04-05T00:18:52.605101+05:30
Agra,Uttar Pradesh,27.1767,78.0081,20.0,92,0.0,989.1,6.8,35.6,424,189.1,50.9,3,5,7,1,2026-04-05T00:18:52.605108+05:30
Varanasi,Uttar Pradesh,25.3176,82.9739,25.8,74,0.0,998.3,6.05,24.8,78,78.7,41.4,7,5,7,1,2026-04-05T00:18:52.605118+05:30
Prayagraj,Uttar Pradesh,25.4358,81.8463,23.6,84,0.2,996.3,5.45,35.6,79,109.0,43.7,6,5,3,1,2026-04-05T00:18:52.605125+05:30
Gorakhpur,Uttar Pradesh,26.7606,83.3732,26.7,58,0.0,996.2,6.8,37.1,91,82.9,40.0,4,5,7,1,2026-04-05T00:18:52.605134+05:30
Bareilly,Uttar Pradesh,28.367,79.4304,21.8,84,0.0,987.6,5.35,24.5,97,38.4,26.5,3,5,3,1,2026-04-05T00:18:52.605141+05:30
Aligarh,Uttar Pradesh,27.8974,78.088,19.1,86,0.0,986.6,5.3,40.7,514,473.1,95.0,3,10,3,1,2026-04-05T00:18:52.605147+05:30
Moradabad,Uttar Pradesh,28.8386,78.7733,20.6,85,0.0,985.3,6.0,31.0,108,67.1,32.1,3,5,3,1,2026-04-05T00:18:52.605154+05:30
Saharanpur,Uttar Pradesh,29.9637,77.546,18.8,89,0.0,977.7,5.6,35.6,135,46.3,30.0,3,10,3,1,2026-04-05T00:18:52.605160+05:30
Jhansi,Uttar Pradesh,25.4484,78.5685,22.4,87,0.0,978.3,7.15,45.0,85,34.8,18.7,3,5,7,1,2026-04-05T00:18:55.868073+05:30
Surat,Gujarat,21.1702,72.8311,26.5,77,0.0,1007.9,7.6,25.6,77,46.8,24.9,7,5,4,1,2026-04-05T00:18:55.868107+05:30
Vadodara,Gujarat,22.3072,73.1812,25.7,83,0.0,1005.5,7.85,25.9,79,43.0,25.8,7,5,4,1,2026-04-05T00:18:55.868118+05:30
Rajkot,Gujarat,22.3039,70.8022,23.2,65,0.0,996.2,7.55,32.8,96,23.9,12.7,3,5,7,1,2026-04-05T00:18:55.868126+05:30
Thane,Maharashtra,19.2183,72.9781,26.3,82,0.0,1009.5,7.9,36.7,72,64.7,23.0,7,0,4,1,2026-04-05T00:18:55.868134+05:30
Nagpur,Maharashtra,21.1458,79.0882,24.7,80,0.0,972.9,7.65,36.4,102,40.9,38.1,3,5,7,1,2026-04-05T00:18:55.868141+05:30
Nashik,Maharashtra,19.9975,73.7898,21.3,81,0.0,946.4,8.15,37.4,56,29.9,15.0,3,5,7,1,2026-04-05T00:18:55.868149+05:30
Aurangabad,Maharashtra,19.8762,75.3433,25.4,58,0.0,944.6,8.85,36.7,58,22.1,15.8,4,5,7,1,2026-04-05T00:18:55.868156+05:30
Solapur,Maharashtra,17.6599,75.9064,27.6,52,0.0,957.0,8.9,25.9,83,25.7,23.2,4,5,7,1,2026-04-05T00:18:55.868164+05:30
Kolhapur,Maharashtra,16.705,74.2433,21.0,79,0.0,948.1,8.95,44.6,84,28.6,22.7,3,5,7,1,2026-04-05T00:18:55.868171+05:30
Goa,Goa,15.2993,74.124,27.6,76,0.0,998.9,8.15,36.4,65,39.8,21.7,7,5,7,1,2026-04-05T00:18:55.868179+05:30
Jodhpur,Rajasthan,26.2389,73.0243,23.6,37,0.0,984.7,7.6,28.4,82,168.1,27.6,0,5,7,0,2026-04-05T00:18:55.868186+05:30
Udaipur,Rajasthan,24.5854,73.7125,21.1,52,0.0,947.6,7.5,37.8,66,16.5,8.8,0,5,7,0,2026-04-05T00:18:55.868193+05:30
Kota,Rajasthan,25.2138,75.8648,23.8,62,0.0,979.4,7.8,34.2,67,28.3,16.1,3,5,7,1,2026-04-05T00:18:55.868200+05:30
Bikaner,Rajasthan,28.0229,73.3119,22.3,53,0.0,984.2,7.15,29.9,74,30.0,11.1,0,5,7,0,2026-04-05T00:18:55.868208+05:30
Ajmer,Rajasthan,26.4499,74.6399,21.9,52,0.0,955.4,7.65,36.0,70,51.8,17.4,0,5,7,0,2026-04-05T00:18:55.868215+05:30
Gwalior,Madhya Pradesh,26.2183,78.1828,22.1,78,0.0,983.8,7.3,29.5,105,48.7,21.5,3,5,7,1,2026-04-05T00:18:55.868223+05:30
Indore,Madhya Pradesh,22.7196,75.8577,22.0,74,0.0,948.5,8.35,38.9,65,45.9,31.0,3,5,7,1,2026-04-05T00:18:55.868230+05:30
Bhopal,Madhya Pradesh,23.2599,77.4126,23.0,67,0.0,954.2,8.3,34.6,63,23.2,16.2,3,5,7,1,2026-04-05T00:18:55.868237+05:30
Jabalpur,Madhya Pradesh,23.1815,79.9864,24.2,68,0.0,961.7,6.8,31.0,75,26.4,22.8,3,5,7,1,2026-04-05T00:18:55.868244+05:30
Ujjain,Madhya Pradesh,23.1765,75.7885,22.2,70,0.0,954.5,8.25,33.8,67,60.1,33.4,3,5,7,1,2026-04-05T00:18:55.868252+05:30
Visakhapatnam,Andhra Pradesh,17.6868,83.2185,26.8,87,0.0,1003.1,8.4,36.7,60,18.0,14.9,7,5,4,1,2026-04-05T00:18:55.868260+05:30
Vijayawada,Andhra Pradesh,16.5062,80.648,27.2,76,0.0,1001.8,8.8,20.9,55,27.6,26.7,7,5,4,1,2026-04-05T00:18:55.868267+05:30
Guntur,Andhra Pradesh,16.3067,80.4365,26.9,83,0.0,1003.1,8.6,30.6,54,26.7,25.9,7,5,4,1,2026-04-05T00:18:55.868274+05:30
Nellore,Andhra Pradesh,14.4426,79.9865,27.3,91,0.0,1005.3,8.75,31.0,59,16.1,13.7,7,5,4,1,2026-04-05T00:18:55.868283+05:30
Kurnool,Andhra Pradesh,15.8281,78.0373,29.7,53,0.0,976.3,8.15,22.0,76,32.5,28.1,4,5,7,1,2026-04-05T00:18:55.868290+05:30
Kakinada,Andhra Pradesh,16.9891,82.2475,26.2,86,0.0,1006.8,8.5,34.6,35,18.5,14.7,7,5,4,1,2026-04-05T00:18:55.868297+05:30
Tirupati,Andhra Pradesh,13.6288,79.4192,27.3,87,0.0,991.7,8.8,26.3,64,24.9,24.3,7,5,7,1,2026-04-05T00:18:55.868304+05:30
Warangal,Telangana,17.9689,79.5941,26.2,81,0.0,978.2,8.0,31.0,107,61.2,55.5,7,5,7,1,2026-04-05T00:18:55.868310+05:30
Nizamabad,Telangana,18.6725,78.0941,26.8,68,0.0,964.1,8.2,29.9,121,52.2,45.6,7,5,7,1,2026-04-05T00:18:55.868317+05:30
Mysore,Karnataka,12.2958,76.6396,22.5,91,0.0,928.8,9.05,32.0,69,20.8,19.9,3,5,7,1,2026-04-05T00:18:55.868324+05:30
Mangalore,Karnataka,12.9141,74.856,28.9,80,0.0,1007.5,8.1,20.5,61,32.4,28.8,7,5,4,1,2026-04-05T00:18:55.868332+05:30
Hubli-Dharwad,Karnataka,15.3647,75.124,23.0,88,0.0,941.0,8.6,41.8,67,16.9,12.0,3,5,7,1,2026-04-05T00:18:55.868339+05:30
Belgaum,Karnataka,15.8497,74.4977,21.1,90,0.0,925.6,9.1,37.8,69,32.6,21.5,3,5,7,1,2026-04-05T00:18:59.127938+05:30
Coimbatore,Tamil Nadu,11.0168,76.9558,25.1,81,0.0,962.4,8.95,50.4,61,20.9,20.0,7,5,7,1,2026-04-05T00:18:59.127970+05:30
Madurai,Tamil Nadu,9.9252,78.1198,26.2,84,0.0,993.2,8.6,24.8,74,38.8,38.0,7,5,7,1,2026-04-05T00:18:59.127981+05:30
Trichy,Tamil Nadu,10.7905,78.7047,26.9,81,0.0,999.9,9.15,20.2,63,33.6,32.5,7,5,7,1,2026-04-05T00:18:59.127989+05:30
Salem,Tamil Nadu,11.6643,78.146,27.8,73,0.0,977.8,8.5,38.2,134,26.9,24.9,7,5,7,1,2026-04-05T00:18:59.127997+05:30
Tirunelveli,Tamil Nadu,8.7139,77.7567,27.2,76,0.0,1003.5,8.45,24.5,61,18.7,18.0,7,5,4,1,2026-04-05T00:18:59.128005+05:30
Vellore,Tamil Nadu,12.9165,79.1325,27.2,79,0.0,984.4,8.75,26.6,86,32.7,31.4,7,5,7,1,2026-04-05T00:18:59.128012+05:30
Erode,Tamil Nadu,11.341,77.7172,28.2,75,0.0,989.4,8.8,45.4,87,23.2,21.9,7,5,7,1,2026-04-05T00:18:59.128019+05:30
Kochi,Kerala,9.9312,76.2673,29.1,79,0.0,1009.4,8.7,21.2,60,29.6,28.2,7,0,4,1,2026-04-05T00:18:59.128025+05:30
Thiruvananthapuram,Kerala,8.5241,76.9366,28.8,82,0.0,1008.8,8.55,29.5,55,15.4,11.4,7,0,4,1,2026-04-05T00:18:59.128032+05:30
Kozhikode,Kerala,11.2588,75.7804,28.8,81,0.0,1008.7,8.25,26.3,47,14.8,10.9,7,0,4,1,2026-04-05T00:18:59.128039+05:30
Thrissur,Kerala,10.5276,76.2144,27.3,88,0.0,1008.0,8.5,28.1,56,32.9,30.0,7,0,4,1,2026-04-05T00:18:59.128046+05:30
Kannur,Kerala,11.8745,75.3704,27.5,82,0.0,1008.0,8.2,24.1,58,20.7,18.6,7,0,4,1,2026-04-05T00:18:59.128053+05:30
Patna,Bihar,25.5941,85.1376,28.0,60,0.0,998.8,7.95,34.6,89,50.9,33.3,4,5,7,1,2026-04-05T00:18:59.128060+05:30
Gaya,Bihar,24.7914,85.0002,27.0,65,0.0,992.4,8.4,22.7,74,29.4,27.9,7,5,7,1,2026-04-05T00:18:59.128067+05:30
Muzaffarpur,Bihar,26.1209,85.3647,26.7,61,0.0,998.3,7.9,32.8,91,62.6,36.8,7,5,7,1,2026-04-05T00:18:59.128073+05:30
Bhagalpur,Bihar,25.2425,87.0117,27.2,62,0.0,998.8,8.25,27.0,89,37.5,25.7,7,5,7,1,2026-04-05T00:18:59.128080+05:30
Ranchi,Jharkhand,23.3441,85.3096,24.7,57,0.0,937.2,8.2,37.8,77,25.1,22.5,0,5,7,0,2026-04-05T00:18:59.128087+05:30
Jamshedpur,Jharkhand,22.8046,86.2029,28.9,56,0.0,989.5,8.5,17.3,106,37.8,34.7,4,5,7,1,2026-04-05T00:18:59.128094+05:30
Dhanbad,Jharkhand,23.7957,86.4304,27.9,50,0.0,978.3,8.55,19.8,91,35.4,31.9,4,5,7,1,2026-04-05T00:18:59.128101+05:30
Bokaro,Jharkhand,23.6693,86.1511,27.6,49,0.0,982.6,8.15,20.2,93,35.9,33.2,4,5,7,0,2026-04-05T00:18:59.128108+05:30
Bhubaneswar,Odisha,20.2961,85.8245,26.8,89,0.0,1002.2,8.95,26.3,86,25.6,23.3,7,5,4,1,2026-04-05T00:18:59.128115+05:30
Cuttack,Odisha,20.4625,85.8828,27.0,88,0.0,1004.0,9.0,31.7,86,25.6,23.3,7,5,4,1,2026-04-05T00:18:59.128122+05:30
Rourkela,Odisha,22.2604,84.8536,26.8,69,0.0,984.8,8.45,59.4,114,52.9,49.6,7,5,7,1,2026-04-05T00:18:59.128128+05:30
Raipur,Chhattisgarh,21.2514,81.6296,25.7,69,0.0,975.0,7.75,41.4,114,74.3,68.9,7,5,7,1,2026-04-05T00:18:59.128135+05:30
Bhilai,Chhattisgarh,21.1938,81.3509,25.8,70,0.0,975.2,8.15,37.8,101,58.6,54.4,7,5,7,1,2026-04-05T00:18:59.128141+05:30
Guwahati,Assam,26.1158,91.7086,25.3,87,0.0,999.2,8.25,32.4,121,54.1,48.1,7,5,7,1,2026-04-05T00:18:59.128147+05:30
Agartala,Tripura,23.8315,91.2868,26.7,95,0.0,1003.9,8.45,25.6,79,25.1,23.5,7,5,4,1,2026-04-05T00:18:59.128154+05:30
Shillong,Meghalaya,25.5788,91.8933,15.4,83,0.0,854.7,8.4,55.1,88,43.7,37.7,3,10,7,0,2026-04-05T00:18:59.128161+05:30
Imphal,Manipur,24.817,93.9368,20.0,82,0.0,921.9,8.75,76.0,117,63.6,54.2,3,5,7,1,2026-04-05T00:18:59.128168+05:30
Aizawl,Mizoram,23.7271,92.7176,19.7,89,0.0,891.3,8.55,55.1,106,40.7,35.2,3,10,7,1,2026-04-05T00:18:59.128175+05:30
Kohima,Nagaland,25.6701,94.1077,16.5,72,0.0,853.5,8.55,74.2,96,43.8,37.4,3,5,7,0,2026-04-05T00:18:59.128182+05:30
Gangtok,Sikkim,27.3314,88.6138,15.5,96,0.0,836.0,8.45,18.4,122,43.1,37.1,3,10,7,0,2026-04-05T00:18:59.128189+05:30
Siliguri,West Bengal,26.7271,88.3953,22.8,74,0.0,991.8,8.2,28.8,160,92.7,81.0,3,5,7,1,2026-04-05T00:19:02.395039+05:30
Durgapur,West Bengal,23.5204,87.3119,28.6,70,0.0,992.7,8.35,15.8,111,50.2,45.8,7,5,7,1,2026-04-05T00:19:02.395071+05:30
Asansol,West Bengal,23.6739,86.9524,30.0,56,0.0,991.5,8.45,15.5,87,29.3,25.1,4,5,7,1,2026-04-05T00:19:02.395081+05:30
Pondicherry,Puducherry,11.9139,79.8145,27.4,90,0.0,1008.7,8.9,23.8,49,16.4,12.3,7,0,4,1,2026-04-05T00:19:02.395088+05:30
Port Blair,Andaman and Nicobar Islands,11.6234,92.7265,28.9,71,0.0,1005.9,8.75,18.7,44,14.7,9.2,7,5,4,1,2026-04-05T00:19:02.395096+05:30
Haridwar,Uttarakhand,29.9457,78.1642,20.2,76,0.0,975.8,5.55,37.1,79,27.1,20.5,3,5,3,0,2026-04-05T00:19:02.395104+05:30
Rishikesh,Uttarakhand,30.0869,78.2676,20.4,65,0.0,968.0,6.05,25.6,53,21.9,11.8,3,5,7,0,2026-04-05T00:19:02.395111+05:30
Nainital,Uttarakhand,29.3919,79.4542,17.7,47,0.0,805.9,4.95,39.2,57,23.7,15.7,0,5,3,0,2026-04-05T00:19:02.395118+05:30
Mussoorie,Uttarakhand,30.4599,78.0664,14.0,60,0.0,802.0,5.1,46.4,56,24.5,16.5,0,5,3,0,2026-04-05T00:19:02.395126+05:30
Dharamshala,Himachal Pradesh,32.219,76.3234,15.4,60,0.0,869.3,5.7,47.5,43,12.3,8.4,0,5,3,0,2026-04-05T00:19:02.395132+05:30
Dalhousie,Himachal Pradesh,32.5387,75.971,12.1,71,0.0,802.7,5.65,52.6,69,57.7,31.9,3,5,3,0,2026-04-05T00:19:02.395140+05:30
Patiala,Punjab,30.3398,76.3869,17.7,90,0.0,980.9,5.4,31.7,161,163.9,49.2,3,10,3,0,2026-04-05T00:19:02.395148+05:30
Bhatinda,Punjab,30.211,74.9455,18.1,89,0.0,986.7,6.95,29.2,86,106.4,32.7,3,10,7,1,2026-04-05T00:19:02.395155+05:30
Rohtak,Haryana,28.8955,76.6066,17.9,93,0.0,984.3,6.55,29.9,103,91.0,53.1,3,10,7,1,2026-04-05T00:19:02.395162+05:30
Panipat,Haryana,29.3909,76.9635,17.4,94,0.0,982.6,5.75,31.7,216,279.4,89.2,3,10,3,1,2026-04-05T00:19:02.395169+05:30
Mathura,Uttar Pradesh,27.4924,77.6737,19.7,87,0.0,988.7,5.25,40.7,387,183.0,50.4,3,10,3,1,2026-04-05T00:19:02.395177+05:30
Vrindavan,Uttar Pradesh,27.5823,77.7027,19.4,88,0.0,988.9,5.45,45.7,387,183.0,50.4,3,10,3,1,2026-04-05T00:19:02.395185+05:30
Ayodhya,Uttar Pradesh,26.7922,82.1998,24.6,68,0.0,995.6,7.2,37.4,120,125.7,50.6,3,5,7,1,2026-04-05T00:19:02.395192+05:30
Ratlam,Madhya Pradesh,23.3315,75.0367,24.1,61,0.0,955.3,8.1,36.7,63,45.9,24.0,3,5,7,1,2026-04-05T00:19:02.395198+05:30
Sagar,Madhya Pradesh,23.8388,78.7378,22.5,78,0.0,950.3,8.3,34.9,57,25.5,15.4,3,5,7,1,2026-04-05T00:19:02.395205+05:30
Satna,Madhya Pradesh,24.6005,80.8322,24.1,79,0.0,971.9,5.05,43.2,69,42.1,21.8,3,5,3,1,2026-04-05T00:19:02.395212+05:30
Akola,Maharashtra,20.7002,77.0082,27.8,49,0.0,975.6,7.25,28.4,85,55.5,45.8,4,5,7,1,2026-04-05T00:19:02.395219+05:30
Amravati,Maharashtra,20.9374,77.7796,24.9,72,0.0,967.5,7.7,41.4,87,53.3,44.2,3,5,7,1,2026-04-05T00:19:02.395226+05:30
Latur,Maharashtra,18.4088,76.5604,25.8,68,0.0,939.4,8.9,28.8,99,43.1,38.8,7,5,7,1,2026-04-05T00:19:02.395233+05:30
Nanded,Maharashtra,19.1383,77.3091,27.2,69,0.0,967.7,8.25,21.2,91,54.8,49.1,7,5,7,1,2026-04-05T00:19:02.395239+05:30
Gulbarga,Karnataka,17.3297,76.8343,27.8,61,0.0,957.9,8.45,32.0,117,54.4,47.4,7,5,7,1,2026-04-05T00:19:02.395246+05:30
Bidar,Karnataka,17.9104,77.5199,25.7,66,0.0,935.0,8.6,31.3,104,57.3,48.8,7,5,7,1,2026-04-05T00:19:02.395252+05:30
Hospet,Karnataka,15.2689,76.3909,27.8,67,0.0,955.9,8.1,29.5,91,31.1,28.4,7,5,7,1,2026-04-05T00:19:02.395258+05:30
Tirupur,Tamil Nadu,11.1085,77.3411,26.7,77,0.0,975.4,8.6,31.3,70,24.3,22.8,7,5,7,1,2026-04-05T00:19:02.395264+05:30
Alappuzha,Kerala,9.4981,76.3388,29.1,79,0.0,1009.6,9.15,21.6,61,23.2,20.2,7,0,4,1,2026-04-05T00:19:02.395271+05:30
Munnar,Kerala,10.0889,77.0595,20.4,95,0.0,857.4,6.2,33.5,58,18.0,17.6,3,5,7,1,2026-04-05T00:19:02.395279+05:30
Silchar,Assam,24.8333,92.7789,24.9,87,0.0,1003.5,8.45,26.6,132,78.9,67.5,3,5,4,1,2026-04-05T00:19:02.395285+05:30
Dibrugarh,Assam,27.4728,94.912,23.6,91,0.0,993.9,8.3,14.4,107,35.4,32.1,3,5,7,1,2026-04-05T00:19:02.395292+05:30
