city,state,latitude,longitude,temp,humidity,rain,pressure,uv_index,wind_gusts,aqi,pm10,pm2_5,mosquito_risk,arthritis_risk,migraine_risk,frizz_risk,updated_at
Delhi,Delhi,28.6139,77.209,29.9,45,0.0,988.6,5.85,37.1,304,274.7,70.3,4,5,3,1,2026-03-04T12:23:45.417239+05:30
Mumbai,Maharashtra,19.076,72.8777,28.8,67,0.0,1012.0,7.4,24.8,135,49.2,48.3,7,0,4,1,2026-03-04T12:23:45.417278+05:30
Bangalore,Karnataka,12.9716,77.5946,30.4,27,0.0,915.9,9.1,35.3,95,31.4,29.9,0,5,7,0,2026-03-04T12:23:45.417293+05:30
Hyderabad,Telangana,17.385,78.4867,33.8,24,0.0,958.1,8.4,27.4,114,22.8,20.1,0,5,7,0,2026-03-04T12:23:45.417303+05:30
Chennai,Tamil Nadu,13.0827,80.2707,33.2,44,0.0,1011.5,8.8,28.4,115,36.3,32.0,0,0,4,1,2026-03-04T12:23:45.417312+05:30
Kolkata,West Bengal,22.5726,88.3639,30.7,53,0.0,1009.9,7.75,21.2,165,94.1,59.1,0,0,4,1,2026-03-04T12:23:45.417320+05:30
Pune,Maharashtra,18.5204,73.8567,35.2,24,0.0,953.2,7.95,31.3,77,18.2,17.5,0,5,10,0,2026-03-04T12:23:45.417332+05:30
Ahmedabad,Gujarat,23.0225,72.5714,35.5,25,0.0,1008.6,7.2,16.6,78,26.9,20.5,0,0,7,0,2026-03-04T12:23:45.417340+05:30
Jaipur,Rajasthan,26.9124,75.7873,34.4,16,0.0,966.8,6.6,34.6,91,105.7,25.1,0,5,7,0,2026-03-04T12:23:45.417347+05:30
Lucknow,Uttar Pradesh,26.8467,80.9462,28.5,47,0.0,999.3,6.35,26.6,154,299.9,91.3,4,5,7,1,2026-03-04T12:23:45.417355+05:30
Kanpur,Uttar Pradesh,26.4499,80.3319,29.2,46,0.0,997.7,6.35,28.8,175,281.3,76.1,4,5,7,1,2026-03-04T12:23:45.417362+05:30
Chandigarh,Chandigarh,30.7333,76.7794,29.3,39,0.0,974.1,5.75,36.0,85,30.2,22.5,4,5,3,0,2026-03-04T12:23:45.417369+05:30
Srinagar,Jammu and Kashmir,34.0837,74.7973,18.1,36,0.0,849.9,6.2,16.9,142,52.9,36.2,0,5,7,0,2026-03-04T12:23:45.417376+05:30
Jammu,Jammu and Kashmir,32.7266,74.857,28.3,40,0.0,978.7,6.35,25.6,97,38.0,28.0,4,5,7,0,2026-03-04T12:23:45.417383+05:30
Amritsar,Punjab,31.634,74.8723,29.0,49,0.0,987.0,6.3,23.4,132,73.1,58.1,4,5,7,1,2026-03-04T12:23:45.417389+05:30
Ludhiana,Punjab,30.901,75.8573,28.9,47,0.0,984.7,6.0,30.2,152,68.0,57.3,4,5,3,1,2026-03-04T12:23:45.417395+05:30
Jalandhar,Punjab,31.326,75.5762,28.5,47,0.0,985.8,6.15,28.8,152,70.1,53.3,4,5,7,1,2026-03-04T12:23:45.417404+05:30
Dehradun,Uttarakhand,30.6284,78.0322,23.1,39,0.0,835.6,6.1,31.3,59,15.8,8.4,0,5,7,0,2026-03-04T12:23:45.417411+05:30
Shimla,Himachal Pradesh,31.1048,77.1734,22.1,31,0.0,791.8,6.15,52.6,69,18.9,10.1,0,5,7,0,2026-03-04T12:23:45.417418+05:30
Manali,Himachal Pradesh,32.2396,77.1887,25.4,15,0.0,828.0,7.8,32.8,49,16.4,7.5,4,5,7,1,2026-03-04T12:23:45.417424+05:30
Gurgaon,Haryana,28.4595,77.0266,30.4,43,0.0,987.3,5.95,35.6,1141,1080.3,139.2,0,5,3,1,2026-03-04T12:23:45.417433+05:30
Noida,Uttar Pradesh,28.5355,77.391,30.5,43,0.0,990.1,5.85,36.4,1141,1080.3,139.2,0,5,3,1,2026-03-04T12:23:45.417446+05:30
Ghaziabad,Uttar Pradesh,28.6692,77.4538,29.3,50,0.0,988.2,5.85,33.8,230,217.0,68.9,4,5,3,1,2026-03-04T12:23:45.417452+05:30
Faridabad,Haryana,28.4089,77.3178,29.8,46,0.0,989.5,5.9,34.2,1141,1080.3,139.2,4,5,3,1,2026-03-04T12:23:45.417458+05:30
Meerut,Uttar Pradesh,28.9845,77.7064,29.1,47,0.0,986.7,5.7,35.6,230,217.0,68.9,4,5,3,1,2026-03-04T12:23:45.417465+05:30
Agra,Uttar Pradesh,27.1767,78.0081,32.0,33,0.0,993.8,6.2,35.3,338,311.1,60.3,0,5,7,0,2026-03-04T12:23:45.417472+05:30
Varanasi,Uttar Pradesh,25.3176,82.9739,29.3,47,0.0,1003.6,7.0,19.8,140,329.7,66.4,4,5,4,1,2026-03-04T12:23:45.417481+05:30
Prayagraj,Uttar Pradesh,25.4358,81.8463,29.9,40,0.0,1002.0,6.9,25.9,144,344.6,76.8,4,5,4,0,2026-03-04T12:23:45.417490+05:30
Gorakhpur,Uttar Pradesh,26.7606,83.3732,28.2,54,0.0,1003.1,6.75,10.1,165,97.1,68.5,4,5,4,1,2026-03-04T12:23:45.417496+05:30
Bareilly,Uttar Pradesh,28.367,79.4304,26.4,59,0.0,992.3,6.05,19.1,160,169.5,73.6,4,5,7,1,2026-03-04T12:23:45.417503+05:30
Aligarh,Uttar Pradesh,27.8974,78.088,30.2,45,0.0,991.2,5.95,33.1,654,458.2,94.3,0,5,3,1,2026-03-04T12:23:45.417510+05:30
Moradabad,Uttar Pradesh,28.8386,78.7733,27.0,53,0.0,989.0,5.85,22.3,155,123.9,67.5,4,5,3,1,2026-03-04T12:23:45.417516+05:30
Saharanpur,Uttar Pradesh,29.9637,77.546,28.7,45,0.0,980.3,5.5,45.7,149,75.9,45.8,4,5,3,0,2026-03-04T12:23:45.417522+05:30
Jhansi,Uttar Pradesh,25.4484,78.5685,33.6,24,0.0,984.2,6.8,32.0,62,24.4,14.3,0,5,7,0,2026-03-04T12:23:48.636275+05:30
Surat,Gujarat,21.1702,72.8311,33.8,35,0.0,1012.0,7.1,25.2,152,58.3,53.1,0,0,4,1,2026-03-04T12:23:48.636308+05:30
Vadodara,Gujarat,22.3072,73.1812,36.0,27,0.0,1010.4,7.2,18.0,139,35.6,24.8,0,0,7,0,2026-03-04T12:23:48.636320+05:30
Rajkot,Gujarat,22.3039,70.8022,34.0,31,0.0,1000.9,7.0,24.8,62,25.4,17.9,0,5,4,0,2026-03-04T12:23:48.636329+05:30
Thane,Maharashtra,19.2183,72.9781,35.7,30,0.0,1011.5,7.35,35.6,135,49.2,48.3,0,0,7,0,2026-03-04T12:23:48.636338+05:30
Nagpur,Maharashtra,21.1458,79.0882,33.9,26,0.0,979.0,7.75,23.4,68,21.2,13.9,0,5,7,0,2026-03-04T12:23:48.636346+05:30
Nashik,Maharashtra,19.9975,73.7898,33.7,21,0.0,951.0,7.55,23.4,83,18.3,17.7,0,5,7,0,2026-03-04T12:23:48.636354+05:30
Aurangabad,Maharashtra,19.8762,75.3433,33.8,23,0.0,949.7,8.1,22.7,75,19.2,18.0,0,5,7,0,2026-03-04T12:23:48.636363+05:30
Solapur,Maharashtra,17.6599,75.9064,33.5,34,0.0,962.0,8.35,18.7,75,23.6,22.5,0,5,7,0,2026-03-04T12:23:48.636371+05:30
Kolhapur,Maharashtra,16.705,74.2433,33.6,29,0.0,952.1,8.45,37.4,159,36.4,35.5,0,5,7,0,2026-03-04T12:23:48.636380+05:30
Goa,Goa,15.2993,74.124,31.7,62,0.0,1001.4,8.5,34.9,106,42.7,40.0,3,5,4,1,2026-03-04T12:23:48.636388+05:30
Jodhpur,Rajasthan,26.2389,73.0243,34.2,24,0.0,990.5,6.9,18.7,79,71.2,23.3,0,5,7,0,2026-03-04T12:23:48.636397+05:30
Udaipur,Rajasthan,24.5854,73.7125,33.0,20,0.0,953.7,7.5,23.4,58,32.8,13.0,0,5,7,0,2026-03-04T12:23:48.636405+05:30
Kota,Rajasthan,25.2138,75.8648,33.7,23,0.0,985.8,6.9,17.3,84,27.1,18.6,0,5,7,0,2026-03-04T12:23:48.636412+05:30
Bikaner,Rajasthan,28.0229,73.3119,32.3,29,0.0,989.2,6.6,26.3,66,49.5,20.3,0,5,7,0,2026-03-04T12:23:48.636420+05:30
Ajmer,Rajasthan,26.4499,74.6399,33.1,27,0.0,961.9,6.85,25.2,69,45.5,16.2,0,5,7,0,2026-03-04T12:23:48.636428+05:30
Gwalior,Madhya Pradesh,26.2183,78.1828,32.1,30,0.0,989.7,6.55,31.0,79,27.2,18.2,0,5,7,0,2026-03-04T12:23:48.636436+05:30
Indore,Madhya Pradesh,22.7196,75.8577,32.6,25,0.0,954.7,7.45,17.6,81,26.1,15.9,0,5,7,0,2026-03-04T12:23:48.636444+05:30
Bhopal,Madhya Pradesh,23.2599,77.4126,32.9,24,0.0,960.3,7.35,22.0,75,24.3,13.2,0,5,7,0,2026-03-04T12:23:48.636452+05:30
Jabalpur,Madhya Pradesh,23.1815,79.9864,31.5,32,0.0,967.9,7.45,24.5,71,25.1,15.9,0,5,7,0,2026-03-04T12:23:48.636459+05:30
Ujjain,Madhya Pradesh,23.1765,75.7885,32.2,30,0.0,960.5,7.4,16.2,101,30.7,19.4,0,5,7,0,2026-03-04T12:23:48.636468+05:30
Visakhapatnam,Andhra Pradesh,17.6868,83.2185,34.2,41,0.0,1007.8,8.4,37.1,139,56.3,52.4,0,5,4,1,2026-03-04T12:23:48.636476+05:30
Vijayawada,Andhra Pradesh,16.5062,80.648,33.0,47,0.0,1007.1,8.45,20.5,129,43.9,39.8,0,5,4,1,2026-03-04T12:23:48.636484+05:30
Guntur,Andhra Pradesh,16.3067,80.4365,34.0,41,0.0,1008.1,8.45,25.6,118,40.2,36.8,0,0,4,1,2026-03-04T12:23:48.636492+05:30
Nellore,Andhra Pradesh,14.4426,79.9865,35.6,30,0.0,1009.7,8.65,29.9,115,43.0,39.9,0,0,7,0,2026-03-04T12:23:48.636501+05:30
Kurnool,Andhra Pradesh,15.8281,78.0373,36.1,22,0.0,981.0,8.5,26.3,98,39.2,37.0,0,5,10,0,2026-03-04T12:23:48.636510+05:30
Kakinada,Andhra Pradesh,16.9891,82.2475,35.0,38,0.0,1011.5,8.4,33.8,108,43.5,37.7,0,0,4,1,2026-03-04T12:23:48.636518+05:30
Tirupati,Andhra Pradesh,13.6288,79.4192,34.2,24,0.0,995.6,8.8,32.4,149,36.7,34.2,0,5,7,0,2026-03-04T12:23:48.636527+05:30
Warangal,Telangana,17.9689,79.5941,33.3,36,0.0,983.6,8.25,23.8,116,43.3,41.2,0,5,7,1,2026-03-04T12:23:48.636534+05:30
Nizamabad,Telangana,18.6725,78.0941,34.2,26,0.0,970.1,8.1,28.1,73,24.2,20.0,0,5,7,0,2026-03-04T12:23:48.636542+05:30
Mysore,Karnataka,12.2958,76.6396,31.4,25,0.0,932.2,9.15,39.2,98,31.5,30.4,0,5,7,0,2026-03-04T12:23:48.636550+05:30
Mangalore,Karnataka,12.9141,74.856,27.8,83,0.0,1009.6,8.75,30.2,82,41.0,36.6,7,0,4,1,2026-03-04T12:23:48.636558+05:30
Hubli-Dharwad,Karnataka,15.3647,75.124,32.5,37,0.0,945.0,8.65,24.5,94,36.4,35.2,0,5,7,0,2026-03-04T12:23:48.636566+05:30
Belgaum,Karnataka,15.8497,74.4977,33.2,29,0.0,929.9,8.75,32.0,135,31.2,30.4,0,5,7,0,2026-03-04T12:23:51.848111+05:30
Coimbatore,Tamil Nadu,11.0168,76.9558,31.6,34,0.0,965.6,9.15,41.0,99,31.3,29.7,0,5,7,0,2026-03-04T12:23:51.848142+05:30
Madurai,Tamil Nadu,9.9252,78.1198,32.4,40,0.0,996.7,9.1,24.1,97,26.8,24.5,0,5,7,1,2026-03-04T12:23:51.848154+05:30
Trichy,Tamil Nadu,10.7905,78.7047,32.9,41,0.0,1003.6,9.0,28.8,104,27.6,25.2,0,5,4,1,2026-03-04T12:23:51.848163+05:30
Salem,Tamil Nadu,11.6643,78.146,34.2,28,0.0,980.9,9.05,35.6,122,44.8,42.6,0,5,7,0,2026-03-04T12:23:51.848172+05:30
Tirunelveli,Tamil Nadu,8.7139,77.7567,33.7,37,0.0,1006.8,9.15,38.9,88,19.7,18.2,0,5,4,1,2026-03-04T12:23:51.848181+05:30
Vellore,Tamil Nadu,12.9165,79.1325,33.6,25,0.0,988.7,8.9,36.7,142,34.6,32.0,0,5,7,0,2026-03-04T12:23:51.848189+05:30
Erode,Tamil Nadu,11.341,77.7172,33.6,36,0.0,992.6,9.05,28.8,101,39.1,37.0,0,5,7,1,2026-03-04T12:23:51.848197+05:30
Kochi,Kerala,9.9312,76.2673,27.6,77,0.0,1011.9,8.95,32.8,105,34.7,32.5,7,0,4,1,2026-03-04T12:23:51.848205+05:30
Thiruvananthapuram,Kerala,8.5241,76.9366,27.5,73,0.0,1011.3,9.0,27.4,98,35.5,33.1,7,0,4,1,2026-03-04T12:23:51.848214+05:30
Kozhikode,Kerala,11.2588,75.7804,29.5,72,0.0,1011.0,8.85,30.6,85,45.6,41.3,7,0,4,1,2026-03-04T12:23:51.848221+05:30
Thrissur,Kerala,10.5276,76.2144,34.4,43,0.0,1009.7,8.95,38.9,114,38.8,36.8,0,0,4,1,2026-03-04T12:23:51.848230+05:30
Kannur,Kerala,11.8745,75.3704,30.9,62,0.0,1010.2,8.85,35.3,79,40.4,36.1,3,0,4,1,2026-03-04T12:23:51.848238+05:30
Patna,Bihar,25.5941,85.1376,29.4,41,0.0,1006.3,7.2,15.5,165,107.8,70.3,4,5,4,0,2026-03-04T12:23:51.848246+05:30
Gaya,Bihar,24.7914,85.0002,29.5,41,0.0,999.6,7.25,18.4,139,100.4,44.2,4,5,7,0,2026-03-04T12:23:51.848254+05:30
Muzaffarpur,Bihar,26.1209,85.3647,30.0,38,0.0,1006.2,7.15,12.2,167,103.4,66.1,4,5,4,0,2026-03-04T12:23:51.848262+05:30
Bhagalpur,Bihar,25.2425,87.0117,29.1,44,0.0,1006.8,7.2,9.4,159,108.7,57.6,4,5,4,0,2026-03-04T12:23:51.848269+05:30
Ranchi,Jharkhand,23.3441,85.3096,28.4,26,0.0,942.8,7.9,31.3,86,100.1,27.4,4,5,7,0,2026-03-04T12:23:51.848277+05:30
Jamshedpur,Jharkhand,22.8046,86.2029,31.6,25,0.0,995.7,7.85,24.5,119,88.9,42.3,0,5,7,0,2026-03-04T12:23:51.848284+05:30
Dhanbad,Jharkhand,23.7957,86.4304,31.9,22,0.0,984.8,7.7,25.2,127,121.1,46.2,0,5,7,0,2026-03-04T12:23:51.848292+05:30
Bokaro,Jharkhand,23.6693,86.1511,30.9,26,0.0,989.0,7.7,26.6,134,146.7,48.3,0,5,7,0,2026-03-04T12:23:51.848300+05:30
Bhubaneswar,Odisha,20.2961,85.8245,35.4,29,0.0,1006.4,8.15,26.6,152,76.8,60.8,0,5,7,0,2026-03-04T12:23:51.848308+05:30
Cuttack,Odisha,20.4625,85.8828,35.5,27,0.0,1008.5,8.15,27.7,152,76.8,60.8,0,0,7,0,2026-03-04T12:23:51.848315+05:30
Rourkela,Odisha,22.2604,84.8536,32.7,24,0.0,989.9,7.75,21.6,94,56.3,32.1,0,5,7,0,2026-03-04T12:23:51.848323+05:30
Raipur,Chhattisgarh,21.2514,81.6296,34.2,21,0.0,980.2,7.8,23.4,139,30.3,19.7,0,5,7,0,2026-03-04T12:23:51.848331+05:30
Bhilai,Chhattisgarh,21.1938,81.3509,34.7,22,0.0,980.6,7.8,20.5,121,24.4,15.8,0,5,7,0,2026-03-04T12:23:51.848339+05:30
Guwahati,Assam,26.1158,91.7086,28.8,51,0.0,1005.9,7.1,16.6,154,52.9,43.2,4,5,4,1,2026-03-04T12:23:51.848346+05:30
Agartala,Tripura,23.8315,91.2868,29.7,45,0.0,1010.0,7.5,21.6,163,78.9,56.8,4,0,4,1,2026-03-04T12:23:51.848354+05:30
Shillong,Meghalaya,25.5788,91.8933,18.3,46,0.0,859.6,7.5,29.2,151,54.8,43.1,0,5,7,0,2026-03-04T12:23:51.848362+05:30
Imphal,Manipur,24.817,93.9368,22.8,45,0.0,926.4,7.7,21.2,134,40.0,33.1,0,5,7,0,2026-03-04T12:23:51.848370+05:30
Aizawl,Mizoram,23.7271,92.7176,23.2,42,0.0,896.0,7.7,24.5,155,60.5,47.4,0,5,7,0,2026-03-04T12:23:51.848378+05:30
Kohima,Nagaland,25.6701,94.1077,18.2,60,0.0,858.3,7.55,39.2,147,51.7,41.6,0,5,7,0,2026-03-04T12:23:51.848386+05:30
Gangtok,Sikkim,27.3314,88.6138,19.5,55,0.0,842.3,7.45,20.9,151,63.6,45.8,0,5,7,0,2026-03-04T12:23:51.848393+05:30
Siliguri,West Bengal,26.7271,88.3953,25.0,60,0.0,999.1,7.1,20.5,160,70.5,46.3,4,5,7,1,2026-03-04T12:23:55.064048+05:30
Durgapur,West Bengal,23.5204,87.3119,32.9,23,0.0,999.6,7.7,22.3,104,93.4,44.5,0,5,7,0,2026-03-04T12:23:55.064077+05:30
Asansol,West Bengal,23.6739,86.9524,32.4,23,0.0,998.4,7.7,23.0,95,102.7,44.0,0,5,7,0,2026-03-04T12:23:55.064089+05:30
Pondicherry,Puducherry,11.9139,79.8145,32.4,53,0.0,1012.3,8.85,27.4,103,29.4,25.4,0,0,4,1,2026-03-04T12:23:55.064097+05:30
Port Blair,Andaman and Nicobar Islands,11.6234,92.7265,27.3,71,0.0,1009.3,8.85,26.3,85,48.4,38.9,7,0,4,1,2026-03-04T12:23:55.064106+05:30
Haridwar,Uttarakhand,29.9457,78.1642,27.3,50,0.0,978.9,5.6,19.1,123,42.0,32.0,4,5,3,0,2026-03-04T12:23:55.064114+05:30
Rishikesh,Uttarakhand,30.0869,78.2676,27.8,48,0.0,971.5,5.65,24.1,98,42.1,28.9,4,5,3,0,2026-03-04T12:23:55.064122+05:30
Nainital,Uttarakhand,29.3919,79.4542,19.7,73,0.0,810.1,6.45,57.2,135,60.1,38.4,3,5,7,0,2026-03-04T12:23:55.064130+05:30
Mussoorie,Uttarakhand,30.4599,78.0664,21.1,51,0.0,807.7,6.0,37.8,94,31.9,24.8,0,5,3,0,2026-03-04T12:23:55.064138+05:30
Dharamshala,Himachal Pradesh,32.219,76.3234,25.4,37,0.0,875.1,6.25,29.5,48,19.4,7.3,4,5,7,0,2026-03-04T12:23:55.064146+05:30
Dalhousie,Himachal Pradesh,32.5387,75.971,25.9,18,0.0,811.6,6.45,24.1,84,21.7,14.0,4,5,7,1,2026-03-04T12:23:55.064154+05:30
Patiala,Punjab,30.3398,76.3869,29.4,45,0.0,983.8,5.65,32.8,215,275.7,67.3,4,5,3,1,2026-03-04T12:23:55.064162+05:30
Bhatinda,Punjab,30.211,74.9455,30.5,45,0.0,990.0,6.3,25.6,152,79.2,51.7,0,5,7,1,2026-03-04T12:23:55.064170+05:30
Rohtak,Haryana,28.8955,76.6066,30.3,44,0.0,987.7,5.85,34.6,402,368.8,71.7,0,5,3,1,2026-03-04T12:23:55.064177+05:30
Panipat,Haryana,29.3909,76.9635,29.9,46,0.0,985.9,5.65,34.2,983,819.6,118.3,4,5,3,1,2026-03-04T12:23:55.064185+05:30
Mathura,Uttar Pradesh,27.4924,77.6737,31.4,36,0.0,993.0,6.1,32.8,416,373.5,63.3,0,5,7,0,2026-03-04T12:23:55.064192+05:30
Vrindavan,Uttar Pradesh,27.5823,77.7027,30.9,39,0.0,993.2,6.1,34.9,416,373.5,63.3,0,5,7,0,2026-03-04T12:23:55.064199+05:30
Ayodhya,Uttar Pradesh,26.7922,82.1998,28.7,50,0.0,1001.1,6.5,9.7,159,135.0,70.1,4,5,4,1,2026-03-04T12:23:55.064207+05:30
Ratlam,Madhya Pradesh,23.3315,75.0367,32.7,30,0.0,961.3,7.35,18.0,98,28.2,17.6,0,5,7,0,2026-03-04T12:23:55.064215+05:30
Sagar,Madhya Pradesh,23.8388,78.7378,32.2,25,0.0,956.7,7.25,27.0,64,21.8,10.4,0,5,7,0,2026-03-04T12:23:55.064222+05:30
Satna,Madhya Pradesh,24.6005,80.8322,32.8,25,0.0,977.3,7.25,36.7,65,35.2,16.2,0,5,7,0,2026-03-04T12:23:55.064229+05:30
Akola,Maharashtra,20.7002,77.0082,35.0,24,0.0,981.0,7.8,14.4,73,23.1,17.8,0,5,7,0,2026-03-04T12:23:55.064238+05:30
Amravati,Maharashtra,20.9374,77.7796,35.3,24,0.0,973.2,7.75,16.2,68,21.4,15.4,0,5,10,0,2026-03-04T12:23:55.064246+05:30
Latur,Maharashtra,18.4088,76.5604,33.3,25,0.0,945.1,8.25,20.5,79,19.2,17.5,0,5,7,0,2026-03-04T12:23:55.064254+05:30
Nanded,Maharashtra,19.1383,77.3091,35.3,26,0.0,973.9,8.0,14.4,81,21.9,17.6,0,5,10,0,2026-03-04T12:23:55.064261+05:30
Gulbarga,Karnataka,17.3297,76.8343,35.6,21,0.0,963.3,8.35,25.2,85,29.5,28.2,0,5,10,0,2026-03-04T12:23:55.064268+05:30
Bidar,Karnataka,17.9104,77.5199,33.9,21,0.0,940.6,8.3,26.6,89,19.0,16.4,0,5,7,0,2026-03-04T12:23:55.064276+05:30
Hospet,Karnataka,15.2689,76.3909,32.7,33,0.0,960.2,8.65,25.2,102,29.9,29.0,0,5,7,0,2026-03-04T12:23:55.064283+05:30
Tirupur,Tamil Nadu,11.1085,77.3411,32.8,34,0.0,979.2,9.15,31.0,108,41.1,39.2,0,5,7,0,2026-03-04T12:23:55.064290+05:30
Alappuzha,Kerala,9.4981,76.3388,27.7,78,0.0,1012.0,8.95,32.4,104,38.9,36.9,7,0,4,1,2026-03-04T12:23:55.064297+05:30
Munnar,Kerala,10.0889,77.0595,28.1,40,0.0,861.2,9.45,22.0,88,26.5,25.5,4,5,7,0,2026-03-04T12:23:55.064305+05:30
Silchar,Assam,24.8333,92.7789,30.7,38,0.0,1008.5,7.45,15.8,151,42.5,33.1,0,0,4,0,2026-03-04T12:23:55.064313+05:30
Dibrugarh,Assam,27.4728,94.912,26.7,61,0.0,999.9,7.15,9.0,135,71.5,53.1,7,5,7,1,2026-03-04T12:23:55.064320+05:30
