city,state,latitude,longitude,temp,humidity,rain,pressure,uv_index,wind_gusts,aqi,pm10,pm2_5,mosquito_risk,arthritis_risk,migraine_risk,frizz_risk,updated_at
Delhi,Delhi,28.6139,77.209,25.0,59,0.0,979.2,7.55,33.1,239,472.2,83.8,4,5,7,1,2026-05-01T04:31:35.527120+05:30
Mumbai,Maharashtra,19.076,72.8777,28.1,82,0.0,1007.4,7.9,42.5,71,47.6,17.6,7,5,4,1,2026-05-01T04:31:35.527161+05:30
Bangalore,Karnataka,12.9716,77.5946,22.3,83,0.0,910.6,9.5,47.9,90,40.2,34.7,3,5,7,1,2026-05-01T04:31:35.527176+05:30
Hyderabad,Telangana,17.385,78.4867,28.9,40,0.0,951.5,9.3,38.5,74,22.5,20.4,4,5,7,0,2026-05-01T04:31:35.527187+05:30
Chennai,Tamil Nadu,13.0827,80.2707,29.1,83,0.0,1006.2,9.25,57.2,44,10.5,8.4,7,5,4,1,2026-05-01T04:31:35.527196+05:30
Kolkata,West Bengal,22.5726,88.3639,23.9,99,0.0,1004.1,8.75,49.7,63,10.5,7.2,3,5,4,1,2026-05-01T04:31:35.527206+05:30
Pune,Maharashtra,18.5204,73.8567,23.0,66,0.0,946.8,8.55,51.5,55,33.5,15.6,3,5,7,1,2026-05-01T04:31:35.527217+05:30
Ahmedabad,Gujarat,23.0225,72.5714,28.6,57,0.0,999.1,8.1,42.8,60,21.7,11.0,4,5,7,1,2026-05-01T04:31:35.527225+05:30
Jaipur,Rajasthan,26.9124,75.7873,24.8,49,0.0,954.7,8.1,46.8,175,356.7,57.7,0,5,7,0,2026-05-01T04:31:35.527253+05:30
Lucknow,Uttar Pradesh,26.8467,80.9462,22.0,85,0.0,991.5,8.0,33.1,95,43.0,30.7,3,5,7,1,2026-05-01T04:31:35.527263+05:30
Kanpur,Uttar Pradesh,26.4499,80.3319,23.9,71,0.0,988.8,8.05,39.6,118,217.5,45.6,3,5,7,1,2026-05-01T04:31:35.527271+05:30
Chandigarh,Chandigarh,30.7333,76.7794,23.5,58,0.0,966.3,7.6,34.9,72,24.7,17.6,0,5,7,0,2026-05-01T04:31:35.527279+05:30
Srinagar,Jammu and Kashmir,34.0837,74.7973,7.6,98,0.0,837.6,8.75,27.7,79,39.0,35.4,3,10,7,0,2026-05-01T04:31:35.527287+05:30
Jammu,Jammu and Kashmir,32.7266,74.857,20.5,59,0.0,969.0,8.35,27.4,57,18.7,17.2,0,5,7,0,2026-05-01T04:31:35.527294+05:30
Amritsar,Punjab,31.634,74.8723,22.0,70,0.0,977.3,8.25,32.8,75,187.7,53.3,3,5,7,1,2026-05-01T04:31:35.527301+05:30
Ludhiana,Punjab,30.901,75.8573,21.5,79,0.0,975.8,7.85,33.1,125,209.5,53.8,3,5,7,1,2026-05-01T04:31:35.527308+05:30
Jalandhar,Punjab,31.326,75.5762,20.5,83,0.0,976.8,8.0,29.5,92,100.8,44.9,3,5,7,1,2026-05-01T04:31:35.527319+05:30
Dehradun,Uttarakhand,30.6284,78.0322,11.5,79,0.0,826.0,7.45,43.6,52,19.9,13.0,3,5,7,0,2026-05-01T04:31:35.527326+05:30
Shimla,Himachal Pradesh,31.1048,77.1734,7.4,79,0.0,777.3,8.1,47.5,54,23.6,19.0,3,5,7,0,2026-05-01T04:31:35.527333+05:30
Manali,Himachal Pradesh,32.2396,77.1887,6.8,65,0.0,810.7,9.05,41.4,40,7.7,7.6,3,5,7,0,2026-05-01T04:31:35.527339+05:30
Gurgaon,Haryana,28.4595,77.0266,24.4,60,0.0,977.1,7.65,36.7,1006,2138.3,258.0,0,5,7,0,2026-05-01T04:31:35.527346+05:30
Noida,Uttar Pradesh,28.5355,77.391,23.1,66,0.0,980.8,7.6,32.4,1006,2138.3,258.0,3,5,7,1,2026-05-01T04:31:35.527352+05:30
Ghaziabad,Uttar Pradesh,28.6692,77.4538,23.0,68,0.0,979.1,7.55,36.0,178,369.7,59.3,3,5,7,1,2026-05-01T04:31:35.527358+05:30
Faridabad,Haryana,28.4089,77.3178,24.4,60,0.0,979.9,7.65,34.6,1006,2138.3,258.0,0,5,7,1,2026-05-01T04:31:35.527364+05:30
Meerut,Uttar Pradesh,28.9845,77.7064,22.1,80,0.0,978.4,7.5,37.4,178,369.7,59.3,3,5,7,1,2026-05-01T04:31:35.527370+05:30
Agra,Uttar Pradesh,27.1767,78.0081,26.6,50,0.0,983.4,7.9,29.2,384,1192.1,133.6,4,5,7,0,2026-05-01T04:31:35.527377+05:30
Varanasi,Uttar Pradesh,25.3176,82.9739,24.4,79,0.0,995.4,8.55,45.7,88,36.4,31.9,3,5,7,1,2026-05-01T04:31:35.527385+05:30
Prayagraj,Uttar Pradesh,25.4358,81.8463,25.0,74,0.0,993.3,8.05,30.6,92,39.7,31.8,7,5,7,1,2026-05-01T04:31:35.527392+05:30
Gorakhpur,Uttar Pradesh,26.7606,83.3732,20.5,91,0.0,996.4,8.4,36.4,77,37.1,24.3,3,5,7,1,2026-05-01T04:31:35.527398+05:30
Bareilly,Uttar Pradesh,28.367,79.4304,22.1,79,0.0,984.9,7.85,35.3,121,46.0,24.6,3,5,7,1,2026-05-01T04:31:35.527405+05:30
Aligarh,Uttar Pradesh,27.8974,78.088,24.2,60,0.0,981.9,7.75,34.9,451,1192.1,151.3,0,5,7,0,2026-05-01T04:31:35.527411+05:30
Moradabad,Uttar Pradesh,28.8386,78.7733,22.0,79,0.0,981.6,7.7,35.6,118,57.5,25.0,3,5,7,1,2026-05-01T04:31:35.527419+05:30
Saharanpur,Uttar Pradesh,29.9637,77.546,21.3,81,0.0,973.6,7.3,38.9,98,52.0,30.7,3,5,7,1,2026-05-01T04:31:35.527425+05:30
Jhansi,Uttar Pradesh,25.4484,78.5685,25.7,60,0.0,973.4,8.35,51.8,82,39.2,20.5,4,5,7,1,2026-05-01T04:31:38.900499+05:30
Surat,Gujarat,21.1702,72.8311,27.8,85,0.0,1004.5,7.7,53.6,65,31.9,17.6,7,5,4,1,2026-05-01T04:31:38.900531+05:30
Vadodara,Gujarat,22.3072,73.1812,27.2,84,0.0,1001.7,8.05,49.0,59,22.4,12.7,7,5,4,1,2026-05-01T04:31:38.900543+05:30
Rajkot,Gujarat,22.3039,70.8022,25.9,91,0.0,991.2,7.7,56.2,53,21.1,9.5,7,5,7,1,2026-05-01T04:31:38.900552+05:30
Thane,Maharashtra,19.2183,72.9781,27.1,89,0.0,1006.8,7.9,40.0,71,47.6,17.6,7,5,4,1,2026-05-01T04:31:38.900560+05:30
Nagpur,Maharashtra,21.1458,79.0882,28.9,30,0.0,970.6,8.9,41.8,58,38.6,23.2,4,5,7,0,2026-05-01T04:31:38.900569+05:30
Nashik,Maharashtra,19.9975,73.7898,22.7,91,0.0,943.7,8.2,52.6,62,43.8,20.0,3,5,7,1,2026-05-01T04:31:38.900577+05:30
Aurangabad,Maharashtra,19.8762,75.3433,24.6,57,0.0,942.6,9.05,48.2,54,33.3,14.7,0,5,7,0,2026-05-01T04:31:38.900585+05:30
Solapur,Maharashtra,17.6599,75.9064,26.7,50,0.0,956.2,9.1,49.3,54,31.0,13.7,4,5,7,0,2026-05-01T04:31:38.900593+05:30
Kolhapur,Maharashtra,16.705,74.2433,22.0,89,0.0,947.0,9.0,49.7,57,28.2,19.2,3,5,7,1,2026-05-01T04:31:38.900600+05:30
Goa,Goa,15.2993,74.124,27.0,97,0.0,997.0,8.95,38.5,61,33.4,21.4,7,5,7,1,2026-05-01T04:31:38.900608+05:30
Jodhpur,Rajasthan,26.2389,73.0243,29.7,38,0.0,978.0,8.3,48.6,143,261.7,49.2,4,5,7,0,2026-05-01T04:31:38.900616+05:30
Udaipur,Rajasthan,24.5854,73.7125,25.7,55,0.0,942.2,8.8,45.7,63,29.2,13.6,4,5,7,0,2026-05-01T04:31:38.900623+05:30
Kota,Rajasthan,25.2138,75.8648,30.1,40,0.0,974.4,8.3,42.5,70,38.2,18.5,0,5,7,0,2026-05-01T04:31:38.900630+05:30
Bikaner,Rajasthan,28.0229,73.3119,26.5,29,0.0,975.4,8.25,30.2,73,189.1,49.5,4,5,7,0,2026-05-01T04:31:38.900638+05:30
Ajmer,Rajasthan,26.4499,74.6399,28.5,40,0.0,949.9,8.25,52.2,77,28.1,13.5,4,5,7,0,2026-05-01T04:31:38.900645+05:30
Gwalior,Madhya Pradesh,26.2183,78.1828,26.2,56,0.0,978.1,8.1,45.0,83,40.9,19.7,4,5,7,1,2026-05-01T04:31:38.900652+05:30
Indore,Madhya Pradesh,22.7196,75.8577,26.2,56,0.0,945.4,8.65,42.1,60,26.8,14.7,4,5,7,1,2026-05-01T04:31:38.900659+05:30
Bhopal,Madhya Pradesh,23.2599,77.4126,28.2,31,0.0,950.7,8.65,40.3,64,45.3,25.5,4,5,7,0,2026-05-01T04:31:38.900667+05:30
Jabalpur,Madhya Pradesh,23.1815,79.9864,25.4,50,0.0,957.9,8.8,44.3,55,33.1,18.7,4,5,7,0,2026-05-01T04:31:38.900674+05:30
Ujjain,Madhya Pradesh,23.1765,75.7885,26.1,58,0.0,950.9,8.55,44.6,60,24.9,13.8,4,5,7,1,2026-05-01T04:31:38.900682+05:30
Visakhapatnam,Andhra Pradesh,17.6868,83.2185,28.0,92,0.0,1002.0,9.15,51.1,57,15.8,12.1,7,5,4,1,2026-05-01T04:31:38.900689+05:30
Vijayawada,Andhra Pradesh,16.5062,80.648,28.9,87,0.0,1000.4,9.2,38.2,62,10.6,8.1,7,5,4,1,2026-05-01T04:31:38.900696+05:30
Guntur,Andhra Pradesh,16.3067,80.4365,29.0,86,0.0,1001.5,9.2,42.8,68,10.3,8.3,7,5,4,1,2026-05-01T04:31:38.900703+05:30
Nellore,Andhra Pradesh,14.4426,79.9865,29.6,74,0.0,1003.7,9.3,41.0,52,14.5,13.1,7,5,4,1,2026-05-01T04:31:38.900711+05:30
Kurnool,Andhra Pradesh,15.8281,78.0373,30.2,56,0.0,975.7,9.2,41.0,78,21.2,19.5,0,5,7,1,2026-05-01T04:31:38.900720+05:30
Kakinada,Andhra Pradesh,16.9891,82.2475,28.5,89,0.0,1005.9,6.8,49.7,46,14.1,9.6,7,5,4,1,2026-05-01T04:31:38.900727+05:30
Tirupati,Andhra Pradesh,13.6288,79.4192,28.7,75,0.0,990.3,9.3,44.3,65,26.4,23.7,7,5,7,1,2026-05-01T04:31:38.900735+05:30
Warangal,Telangana,17.9689,79.5941,28.0,76,0.0,976.6,9.15,37.1,88,18.9,18.1,7,5,7,1,2026-05-01T04:31:38.900741+05:30
Nizamabad,Telangana,18.6725,78.0941,28.6,26,0.0,962.7,9.15,36.0,72,27.0,19.0,4,5,7,0,2026-05-01T04:31:38.900748+05:30
Mysore,Karnataka,12.2958,76.6396,22.1,92,0.0,927.5,9.4,58.7,71,27.2,22.2,3,5,7,1,2026-05-01T04:31:38.900756+05:30
Mangalore,Karnataka,12.9141,74.856,27.9,79,0.0,1005.8,9.05,40.7,67,38.8,22.8,7,5,4,1,2026-05-01T04:31:38.900763+05:30
Hubli-Dharwad,Karnataka,15.3647,75.124,23.1,98,0.0,939.9,9.2,45.7,55,18.7,13.0,3,5,7,1,2026-05-01T04:31:38.900771+05:30
Belgaum,Karnataka,15.8497,74.4977,21.1,93,0.0,924.3,9.2,45.7,54,22.2,15.3,3,5,7,1,2026-05-01T04:31:42.295541+05:30
Coimbatore,Tamil Nadu,11.0168,76.9558,25.0,88,0.0,960.7,8.6,45.4,60,21.1,15.9,7,5,7,1,2026-05-01T04:31:42.295575+05:30
Madurai,Tamil Nadu,9.9252,78.1198,28.5,66,0.0,992.0,9.2,45.0,71,31.9,30.5,7,5,7,1,2026-05-01T04:31:42.295587+05:30
Trichy,Tamil Nadu,10.7905,78.7047,28.5,81,0.0,998.7,9.25,51.8,55,27.9,25.5,7,5,7,1,2026-05-01T04:31:42.295596+05:30
Salem,Tamil Nadu,11.6643,78.146,28.0,71,0.0,976.8,9.3,36.4,88,54.7,44.2,7,5,7,1,2026-05-01T04:31:42.295605+05:30
Tirunelveli,Tamil Nadu,8.7139,77.7567,26.9,78,0.0,1002.2,9.1,38.9,45,10.2,9.7,7,5,4,1,2026-05-01T04:31:42.295615+05:30
Vellore,Tamil Nadu,12.9165,79.1325,27.9,79,0.0,983.6,9.35,50.4,75,42.3,36.7,7,5,7,1,2026-05-01T04:31:42.295623+05:30
Erode,Tamil Nadu,11.341,77.7172,27.0,78,0.0,988.4,8.45,40.3,76,36.8,30.7,7,5,7,1,2026-05-01T04:31:42.295631+05:30
Kochi,Kerala,9.9312,76.2673,26.0,92,0.0,1007.9,8.9,33.8,57,15.3,13.6,7,5,4,1,2026-05-01T04:31:42.295639+05:30
Thiruvananthapuram,Kerala,8.5241,76.9366,24.9,92,0.0,1007.5,8.85,32.0,38,8.2,6.2,3,5,4,1,2026-05-01T04:31:42.295648+05:30
Kozhikode,Kerala,11.2588,75.7804,25.4,95,0.0,1007.2,8.7,42.8,55,24.0,15.1,7,5,4,1,2026-05-01T04:31:42.295656+05:30
Thrissur,Kerala,10.5276,76.2144,25.2,93,0.0,1006.3,8.9,28.8,62,25.7,23.4,7,5,4,1,2026-05-01T04:31:42.295664+05:30
Kannur,Kerala,11.8745,75.3704,25.7,91,0.0,1006.3,8.95,42.1,67,34.9,24.8,7,5,4,1,2026-05-01T04:31:42.295672+05:30
Patna,Bihar,25.5941,85.1376,21.7,91,0.0,998.7,8.55,31.0,87,48.1,43.7,3,5,7,1,2026-05-01T04:31:42.295680+05:30
Gaya,Bihar,24.7914,85.0002,21.5,91,0.0,991.3,8.7,27.0,96,46.7,44.9,3,5,7,1,2026-05-01T04:31:42.295688+05:30
Muzaffarpur,Bihar,26.1209,85.3647,20.6,94,0.0,998.8,8.05,33.8,81,43.5,36.3,3,5,7,1,2026-05-01T04:31:42.295695+05:30
Bhagalpur,Bihar,25.2425,87.0117,21.4,98,0.0,1000.2,8.4,34.6,90,33.4,29.5,3,5,4,1,2026-05-01T04:31:42.295703+05:30
Ranchi,Jharkhand,23.3441,85.3096,20.2,75,0.0,934.2,9.0,36.4,94,42.4,39.5,3,5,7,0,2026-05-01T04:31:42.295711+05:30
Jamshedpur,Jharkhand,22.8046,86.2029,22.0,94,0.0,988.2,8.55,39.6,114,57.3,51.0,3,5,7,1,2026-05-01T04:31:42.295719+05:30
Dhanbad,Jharkhand,23.7957,86.4304,21.5,96,0.0,977.5,8.6,32.8,152,84.8,81.5,3,5,7,1,2026-05-01T04:31:42.295727+05:30
Bokaro,Jharkhand,23.6693,86.1511,20.5,98,0.0,981.3,8.55,35.3,151,89.2,82.9,3,5,7,1,2026-05-01T04:31:42.295735+05:30
Bhubaneswar,Odisha,20.2961,85.8245,27.0,87,0.0,1000.4,9.1,44.6,56,11.8,9.3,7,5,4,1,2026-05-01T04:31:42.295743+05:30
Cuttack,Odisha,20.4625,85.8828,26.9,88,0.0,1002.0,9.15,41.8,56,11.8,9.3,7,5,4,1,2026-05-01T04:31:42.295751+05:30
Rourkela,Odisha,22.2604,84.8536,22.5,89,0.0,981.9,8.8,51.5,109,52.9,47.0,3,5,7,1,2026-05-01T04:31:42.295759+05:30
Raipur,Chhattisgarh,21.2514,81.6296,27.5,44,0.0,971.6,8.85,43.2,87,51.8,39.2,4,5,7,0,2026-05-01T04:31:42.295767+05:30
Bhilai,Chhattisgarh,21.1938,81.3509,26.8,45,0.0,972.3,8.85,43.2,83,57.3,41.3,4,5,7,0,2026-05-01T04:31:42.295775+05:30
Guwahati,Assam,26.1158,91.7086,19.5,98,0.0,1001.0,7.35,24.1,63,35.7,26.3,3,10,4,1,2026-05-01T04:31:42.295782+05:30
Agartala,Tripura,23.8315,91.2868,21.2,99,0.5,1005.2,7.6,50.4,73,19.7,16.5,6,5,4,1,2026-05-01T04:31:42.295791+05:30
Shillong,Meghalaya,25.5788,91.8933,13.2,96,0.0,853.0,8.35,23.8,57,33.3,27.0,3,10,7,0,2026-05-01T04:31:42.295798+05:30
Imphal,Manipur,24.817,93.9368,16.4,98,0.0,921.9,3.3,24.5,79,31.8,29.6,3,10,3,0,2026-05-01T04:31:42.295806+05:30
Aizawl,Mizoram,23.7271,92.7176,14.9,99,0.1,889.6,7.6,54.0,54,17.5,14.6,6,10,7,0,2026-05-01T04:31:42.295814+05:30
Kohima,Nagaland,25.6701,94.1077,12.0,98,0.0,851.3,5.15,20.5,54,12.3,10.1,3,10,3,0,2026-05-01T04:31:42.295822+05:30
Gangtok,Sikkim,27.3314,88.6138,10.7,92,0.0,832.3,7.7,39.6,43,13.0,9.5,3,10,7,0,2026-05-01T04:31:42.295830+05:30
Siliguri,West Bengal,26.7271,88.3953,19.5,94,0.0,991.8,8.2,25.9,63,34.3,25.3,3,10,7,1,2026-05-01T04:31:45.690688+05:30
Durgapur,West Bengal,23.5204,87.3119,21.9,100,0.0,993.4,8.4,37.4,125,48.2,46.6,3,5,7,1,2026-05-01T04:31:45.690721+05:30
Asansol,West Bengal,23.6739,86.9524,22.0,100,0.0,991.8,8.75,30.6,118,47.4,45.9,3,5,7,1,2026-05-01T04:31:45.690733+05:30
Pondicherry,Puducherry,11.9139,79.8145,28.8,85,0.0,1007.4,8.5,58.0,37,8.7,7.2,7,5,4,1,2026-05-01T04:31:45.690743+05:30
Port Blair,Andaman and Nicobar Islands,11.6234,92.7265,25.5,93,0.0,1006.5,9.1,28.8,30,7.5,6.0,7,5,4,1,2026-05-01T04:31:45.690753+05:30
Haridwar,Uttarakhand,29.9457,78.1642,20.2,80,0.0,971.9,7.4,23.4,85,44.8,25.7,3,5,7,1,2026-05-01T04:31:45.690761+05:30
Rishikesh,Uttarakhand,30.0869,78.2676,16.4,100,0.0,964.0,7.5,26.3,73,65.4,22.5,3,10,7,1,2026-05-01T04:31:45.690771+05:30
Nainital,Uttarakhand,29.3919,79.4542,10.9,91,0.0,801.1,6.85,37.4,81,59.6,24.6,3,10,7,0,2026-05-01T04:31:45.690780+05:30
Mussoorie,Uttarakhand,30.4599,78.0664,10.4,82,0.0,798.1,7.9,49.0,68,41.8,23.9,3,10,7,0,2026-05-01T04:31:45.690790+05:30
Dharamshala,Himachal Pradesh,32.219,76.3234,17.5,52,0.0,865.6,8.25,48.2,30,3.7,3.4,0,5,7,0,2026-05-01T04:31:45.690798+05:30
Dalhousie,Himachal Pradesh,32.5387,75.971,7.5,84,0.0,796.9,8.5,38.9,56,16.3,15.3,3,10,7,0,2026-05-01T04:31:45.690806+05:30
Patiala,Punjab,30.3398,76.3869,21.5,77,0.0,975.2,7.5,37.1,328,566.2,77.5,3,5,7,1,2026-05-01T04:31:45.690813+05:30
Bhatinda,Punjab,30.211,74.9455,23.6,66,0.0,979.1,8.15,33.1,159,637.0,137.8,3,5,7,1,2026-05-01T04:31:45.690820+05:30
Rohtak,Haryana,28.8955,76.6066,24.0,65,0.0,977.4,7.6,35.6,441,922.0,132.2,3,5,7,1,2026-05-01T04:31:45.690827+05:30
Panipat,Haryana,29.3909,76.9635,22.4,78,0.0,977.1,7.45,37.8,785,1587.0,170.4,3,5,7,1,2026-05-01T04:31:45.690834+05:30
Mathura,Uttar Pradesh,27.4924,77.6737,25.5,53,0.0,982.3,7.85,31.0,593,1419.3,167.6,4,5,7,0,2026-05-01T04:31:45.690841+05:30
Vrindavan,Uttar Pradesh,27.5823,77.7027,25.5,52,0.0,982.9,7.85,31.3,593,1419.3,167.6,4,5,7,0,2026-05-01T04:31:45.690847+05:30
Ayodhya,Uttar Pradesh,26.7922,82.1998,20.9,89,0.0,994.0,8.15,33.5,81,40.3,29.6,3,5,7,1,2026-05-01T04:31:45.690854+05:30
Ratlam,Madhya Pradesh,23.3315,75.0367,25.2,67,0.0,951.8,8.5,47.2,59,24.4,13.1,7,5,7,1,2026-05-01T04:31:45.690860+05:30
Sagar,Madhya Pradesh,23.8388,78.7378,25.6,45,0.0,946.4,8.65,45.0,71,50.1,22.5,4,5,7,0,2026-05-01T04:31:45.690868+05:30
Satna,Madhya Pradesh,24.6005,80.8322,23.8,65,0.0,967.5,8.65,52.6,75,41.9,20.5,3,5,7,1,2026-05-01T04:31:45.690874+05:30
Akola,Maharashtra,20.7002,77.0082,28.0,39,0.0,972.9,8.9,38.9,53,20.1,10.7,4,5,7,0,2026-05-01T04:31:45.690881+05:30
Amravati,Maharashtra,20.9374,77.7796,28.7,31,0.0,964.8,8.9,38.2,52,19.6,11.1,4,5,7,0,2026-05-01T04:31:45.690888+05:30
Latur,Maharashtra,18.4088,76.5604,25.9,39,0.0,938.2,9.1,40.7,62,38.8,17.1,4,5,7,0,2026-05-01T04:31:45.690894+05:30
Nanded,Maharashtra,19.1383,77.3091,28.4,33,0.0,966.9,9.05,34.2,56,24.4,14.5,4,5,7,0,2026-05-01T04:31:45.690901+05:30
Gulbarga,Karnataka,17.3297,76.8343,28.0,43,0.0,957.4,9.15,48.6,54,19.0,12.3,4,5,7,0,2026-05-01T04:31:45.690907+05:30
Bidar,Karnataka,17.9104,77.5199,27.4,32,0.0,933.7,9.15,36.4,71,29.8,19.2,4,5,7,0,2026-05-01T04:31:45.690914+05:30
Hospet,Karnataka,15.2689,76.3909,25.5,89,0.0,955.1,9.25,45.4,67,18.2,13.9,7,5,7,1,2026-05-01T04:31:45.690921+05:30
Tirupur,Tamil Nadu,11.1085,77.3411,25.6,87,0.0,974.3,8.15,41.0,76,31.9,26.4,7,5,7,1,2026-05-01T04:31:45.690927+05:30
Alappuzha,Kerala,9.4981,76.3388,25.5,97,0.0,1008.0,9.0,38.9,54,13.3,11.4,7,0,4,1,2026-05-01T04:31:45.690933+05:30
Munnar,Kerala,10.0889,77.0595,17.1,75,0.0,855.1,9.2,27.0,61,6.3,5.4,3,5,7,0,2026-05-01T04:31:45.690940+05:30
Silchar,Assam,24.8333,92.7789,20.5,98,0.0,1005.0,6.05,33.5,105,53.6,42.4,3,5,4,1,2026-05-01T04:31:45.690946+05:30
Dibrugarh,Assam,27.4728,94.912,20.4,97,0.0,996.1,7.4,27.0,61,29.3,20.4,3,5,7,1,2026-05-01T04:31:45.690952+05:30
