city,state,latitude,longitude,temp,humidity,rain,pressure,uv_index,wind_gusts,aqi,pm10,pm2_5,mosquito_risk,arthritis_risk,migraine_risk,frizz_risk,updated_at
Delhi,Delhi,28.6139,77.209,31.9,39,0.0,978.6,7.4,68.0,164,364.1,55.6,0,5,7,1,2026-04-30T17:09:35.968642+05:30
Mumbai,Maharashtra,19.076,72.8777,31.2,68,0.0,1006.3,8.05,41.4,69,45.8,21.2,3,5,4,1,2026-04-30T17:09:35.968689+05:30
Bangalore,Karnataka,12.9716,77.5946,25.0,73,0.0,909.7,9.55,31.0,127,48.5,35.5,7,5,7,1,2026-04-30T17:09:35.968705+05:30
Hyderabad,Telangana,17.385,78.4867,39.0,15,0.0,949.8,9.25,33.1,141,25.8,18.3,0,5,10,0,2026-04-30T17:09:35.968717+05:30
Chennai,Tamil Nadu,13.0827,80.2707,32.8,62,0.0,1003.1,9.25,55.4,46,18.7,14.1,3,5,4,1,2026-04-30T17:09:35.968726+05:30
Kolkata,West Bengal,22.5726,88.3639,29.8,70,0.0,1002.1,8.8,38.9,87,20.1,15.8,7,5,4,1,2026-04-30T17:09:35.968735+05:30
Pune,Maharashtra,18.5204,73.8567,34.3,31,0.0,946.3,8.6,50.4,57,27.9,13.7,0,5,7,0,2026-04-30T17:09:35.968747+05:30
Ahmedabad,Gujarat,23.0225,72.5714,41.3,17,0.0,996.1,8.2,42.1,58,71.9,20.1,0,5,10,0,2026-04-30T17:09:35.968755+05:30
Jaipur,Rajasthan,26.9124,75.7873,38.3,13,0.0,954.1,8.1,54.0,165,400.5,47.4,0,5,10,0,2026-04-30T17:09:35.968762+05:30
Lucknow,Uttar Pradesh,26.8467,80.9462,28.3,55,0.1,990.6,7.5,41.8,153,88.0,36.4,7,5,7,1,2026-04-30T17:09:35.968771+05:30
Kanpur,Uttar Pradesh,26.4499,80.3319,31.7,42,0.0,987.9,6.65,45.7,156,210.9,48.1,0,5,7,1,2026-04-30T17:09:35.968778+05:30
Chandigarh,Chandigarh,30.7333,76.7794,30.1,37,0.0,965.5,6.8,38.9,118,193.7,31.3,0,5,7,0,2026-04-30T17:09:35.968785+05:30
Srinagar,Jammu and Kashmir,34.0837,74.7973,18.0,65,0.0,839.8,6.85,27.7,72,13.0,10.7,3,5,7,0,2026-04-30T17:09:35.968793+05:30
Jammu,Jammu and Kashmir,32.7266,74.857,30.8,32,0.0,968.6,8.3,23.0,94,16.9,8.6,0,5,7,0,2026-04-30T17:09:35.968801+05:30
Amritsar,Punjab,31.634,74.8723,30.0,39,0.0,976.6,7.85,35.3,109,26.8,13.5,4,5,7,0,2026-04-30T17:09:35.968808+05:30
Ludhiana,Punjab,30.901,75.8573,31.3,35,0.0,974.7,7.35,55.8,110,193.2,31.2,0,5,7,0,2026-04-30T17:09:35.968815+05:30
Jalandhar,Punjab,31.326,75.5762,30.0,43,0.0,975.6,7.45,42.8,110,46.8,13.8,4,5,7,0,2026-04-30T17:09:35.968823+05:30
Dehradun,Uttarakhand,30.6284,78.0322,15.7,78,0.1,828.1,7.7,44.3,76,26.5,15.5,6,5,7,0,2026-04-30T17:09:35.968831+05:30
Shimla,Himachal Pradesh,31.1048,77.1734,15.6,54,0.0,782.6,7.4,35.3,93,29.1,12.5,0,5,7,0,2026-04-30T17:09:35.968838+05:30
Manali,Himachal Pradesh,32.2396,77.1887,13.5,79,0.0,815.0,10.1,33.8,101,5.3,4.1,3,5,7,0,2026-04-30T17:09:35.968845+05:30
Gurgaon,Haryana,28.4595,77.0266,32.0,37,0.0,976.8,7.55,69.1,754,735.7,81.5,0,5,7,0,2026-04-30T17:09:35.968852+05:30
Noida,Uttar Pradesh,28.5355,77.391,29.3,55,0.0,980.3,7.45,56.5,754,735.7,81.5,4,5,7,1,2026-04-30T17:09:35.968862+05:30
Ghaziabad,Uttar Pradesh,28.6692,77.4538,28.9,60,0.0,978.6,7.3,52.9,146,232.8,46.0,4,5,7,1,2026-04-30T17:09:35.968869+05:30
Faridabad,Haryana,28.4089,77.3178,29.6,54,0.0,979.4,7.5,67.3,754,735.7,81.5,4,5,7,1,2026-04-30T17:09:35.968876+05:30
Meerut,Uttar Pradesh,28.9845,77.7064,27.5,66,0.0,977.9,5.65,62.3,146,232.8,46.0,7,5,3,1,2026-04-30T17:09:35.968882+05:30
Agra,Uttar Pradesh,27.1767,78.0081,34.6,26,0.0,983.3,7.8,39.6,540,358.6,44.5,0,5,7,0,2026-04-30T17:09:35.968888+05:30
Varanasi,Uttar Pradesh,25.3176,82.9739,33.2,37,0.0,993.7,8.45,36.0,173,76.4,32.6,0,5,7,1,2026-04-30T17:09:35.968898+05:30
Prayagraj,Uttar Pradesh,25.4358,81.8463,30.5,42,0.0,992.6,7.7,58.7,159,85.9,30.4,0,5,7,1,2026-04-30T17:09:35.968905+05:30
Gorakhpur,Uttar Pradesh,26.7606,83.3732,27.8,60,0.0,994.7,8.25,45.7,108,55.2,25.5,4,5,7,1,2026-04-30T17:09:35.968911+05:30
Bareilly,Uttar Pradesh,28.367,79.4304,27.4,69,0.1,984.1,7.7,48.2,136,244.9,54.0,10,5,7,1,2026-04-30T17:09:35.968917+05:30
Aligarh,Uttar Pradesh,27.8974,78.088,31.8,41,0.0,981.5,7.6,51.1,286,475.0,57.9,0,5,7,1,2026-04-30T17:09:35.968923+05:30
Moradabad,Uttar Pradesh,28.8386,78.7733,24.6,80,0.1,980.5,7.55,50.0,155,163.9,45.9,6,5,7,1,2026-04-30T17:09:35.968930+05:30
Saharanpur,Uttar Pradesh,29.9637,77.546,27.7,60,0.0,972.9,6.4,66.2,112,104.8,31.4,4,5,7,1,2026-04-30T17:09:35.968936+05:30
Jhansi,Uttar Pradesh,25.4484,78.5685,37.2,19,0.0,972.4,8.3,60.1,85,80.6,21.0,0,5,10,0,2026-04-30T17:09:39.339194+05:30
Surat,Gujarat,21.1702,72.8311,32.0,63,0.0,1003.2,7.85,51.8,64,43.2,18.9,3,5,4,1,2026-04-30T17:09:39.339229+05:30
Vadodara,Gujarat,22.3072,73.1812,38.2,30,0.0,999.3,8.15,45.7,58,55.4,19.0,0,5,10,1,2026-04-30T17:09:39.339239+05:30
Rajkot,Gujarat,22.3039,70.8022,39.8,21,0.0,989.2,7.9,48.6,54,52.4,17.5,0,5,10,0,2026-04-30T17:09:39.339247+05:30
Thane,Maharashtra,19.2183,72.9781,33.3,54,0.0,1005.3,8.05,39.6,69,45.8,21.2,0,5,4,1,2026-04-30T17:09:39.339254+05:30
Nagpur,Maharashtra,21.1458,79.0882,40.3,12,0.0,967.6,8.9,50.4,94,31.2,12.3,0,5,10,0,2026-04-30T17:09:39.339261+05:30
Nashik,Maharashtra,19.9975,73.7898,34.2,22,0.0,943.5,8.3,54.4,61,68.0,17.4,0,5,7,0,2026-04-30T17:09:39.339267+05:30
Aurangabad,Maharashtra,19.8762,75.3433,38.2,12,0.0,940.9,9.05,55.8,55,34.1,14.2,0,5,10,0,2026-04-30T17:09:39.339274+05:30
Solapur,Maharashtra,17.6599,75.9064,39.7,15,0.0,953.5,9.1,40.3,78,28.6,17.9,0,5,10,0,2026-04-30T17:09:39.339281+05:30
Kolhapur,Maharashtra,16.705,74.2433,34.4,26,0.0,946.3,9.0,45.4,59,22.6,11.3,0,5,7,0,2026-04-30T17:09:39.339287+05:30
Goa,Goa,15.2993,74.124,33.8,56,0.0,995.7,8.95,36.4,57,27.4,13.6,0,5,7,1,2026-04-30T17:09:39.339294+05:30
Jodhpur,Rajasthan,26.2389,73.0243,40.3,17,0.0,976.1,8.3,45.7,123,289.6,41.4,0,5,10,0,2026-04-30T17:09:39.339302+05:30
Udaipur,Rajasthan,24.5854,73.7125,36.6,19,0.0,942.4,8.8,45.7,56,92.0,22.5,0,5,10,0,2026-04-30T17:09:39.339308+05:30
Kota,Rajasthan,25.2138,75.8648,38.7,16,0.0,972.8,8.3,42.8,79,119.7,23.7,0,5,10,0,2026-04-30T17:09:39.339315+05:30
Bikaner,Rajasthan,28.0229,73.3119,40.8,10,0.0,974.2,8.2,43.2,76,130.4,21.1,0,5,10,0,2026-04-30T17:09:39.339322+05:30
Ajmer,Rajasthan,26.4499,74.6399,36.5,19,0.0,949.8,8.25,58.7,75,153.2,25.1,0,5,10,0,2026-04-30T17:09:39.339329+05:30
Gwalior,Madhya Pradesh,26.2183,78.1828,37.3,19,0.0,977.7,8.05,39.6,114,104.8,23.1,0,5,10,0,2026-04-30T17:09:39.339336+05:30
Indore,Madhya Pradesh,22.7196,75.8577,37.8,17,0.0,944.4,8.6,45.7,58,56.6,17.6,0,5,10,0,2026-04-30T17:09:39.339342+05:30
Bhopal,Madhya Pradesh,23.2599,77.4126,34.6,23,0.0,950.0,8.6,65.2,65,63.6,18.0,0,5,7,0,2026-04-30T17:09:39.339349+05:30
Jabalpur,Madhya Pradesh,23.1815,79.9864,36.2,21,0.0,956.7,8.75,54.4,82,58.1,18.3,0,5,10,0,2026-04-30T17:09:39.339356+05:30
Ujjain,Madhya Pradesh,23.1765,75.7885,37.0,20,0.0,950.0,8.55,47.2,54,62.9,18.7,0,5,10,0,2026-04-30T17:09:39.339363+05:30
Visakhapatnam,Andhra Pradesh,17.6868,83.2185,30.5,72,0.0,1000.4,9.1,50.8,59,20.4,15.9,3,5,4,1,2026-04-30T17:09:39.339370+05:30
Vijayawada,Andhra Pradesh,16.5062,80.648,36.3,48,0.0,998.5,9.2,50.4,81,37.1,30.7,0,5,10,1,2026-04-30T17:09:39.339377+05:30
Guntur,Andhra Pradesh,16.3067,80.4365,37.8,38,0.0,999.4,9.2,43.9,97,41.8,34.1,0,5,10,1,2026-04-30T17:09:39.339383+05:30
Nellore,Andhra Pradesh,14.4426,79.9865,34.9,55,0.0,1001.5,9.2,41.4,81,28.6,21.9,0,5,4,1,2026-04-30T17:09:39.339390+05:30
Kurnool,Andhra Pradesh,15.8281,78.0373,40.2,19,0.0,972.6,9.2,45.7,131,31.0,22.8,0,5,10,0,2026-04-30T17:09:39.339397+05:30
Kakinada,Andhra Pradesh,16.9891,82.2475,33.5,58,0.0,1004.1,9.15,37.1,51,17.3,12.9,0,5,4,1,2026-04-30T17:09:39.339404+05:30
Tirupati,Andhra Pradesh,13.6288,79.4192,35.3,37,0.0,987.1,9.3,41.4,90,34.7,28.8,0,5,10,1,2026-04-30T17:09:39.339411+05:30
Warangal,Telangana,17.9689,79.5941,39.5,17,0.0,974.6,9.15,37.1,129,32.5,24.7,0,5,10,0,2026-04-30T17:09:39.339417+05:30
Nizamabad,Telangana,18.6725,78.0941,39.5,14,0.0,960.7,9.1,42.8,80,25.4,14.8,0,5,10,0,2026-04-30T17:09:39.339423+05:30
Mysore,Karnataka,12.2958,76.6396,27.8,60,0.0,927.5,9.4,54.4,95,38.5,27.8,4,5,7,1,2026-04-30T17:09:39.339430+05:30
Mangalore,Karnataka,12.9141,74.856,32.3,60,0.0,1005.2,9.05,39.2,66,34.9,17.8,0,5,4,1,2026-04-30T17:09:39.339437+05:30
Hubli-Dharwad,Karnataka,15.3647,75.124,29.2,59,0.0,939.5,9.2,46.4,68,20.3,15.1,4,5,7,1,2026-04-30T17:09:39.339444+05:30
Belgaum,Karnataka,15.8497,74.4977,29.9,54,0.0,924.9,9.2,44.3,55,22.9,14.6,4,5,7,1,2026-04-30T17:09:42.681516+05:30
Coimbatore,Tamil Nadu,11.0168,76.9558,32.7,48,0.0,959.3,9.35,49.7,73,31.9,20.9,0,5,7,1,2026-04-30T17:09:42.681552+05:30
Madurai,Tamil Nadu,9.9252,78.1198,35.3,42,0.1,990.2,9.2,49.7,113,13.4,12.3,3,5,10,1,2026-04-30T17:09:42.681563+05:30
Trichy,Tamil Nadu,10.7905,78.7047,37.5,34,0.0,995.5,9.25,44.3,88,13.7,12.3,0,5,10,1,2026-04-30T17:09:42.681572+05:30
Salem,Tamil Nadu,11.6643,78.146,39.3,24,0.0,973.1,9.3,43.9,125,42.6,28.3,0,5,10,0,2026-04-30T17:09:42.681579+05:30
Tirunelveli,Tamil Nadu,8.7139,77.7567,33.7,50,0.0,1000.9,9.1,42.8,51,8.8,8.3,0,5,4,1,2026-04-30T17:09:42.681587+05:30
Vellore,Tamil Nadu,12.9165,79.1325,39.0,25,0.0,980.0,9.35,40.7,101,38.3,29.6,0,5,10,0,2026-04-30T17:09:42.681593+05:30
Erode,Tamil Nadu,11.341,77.7172,40.3,20,0.0,984.3,9.3,46.1,92,33.5,21.0,0,5,10,0,2026-04-30T17:09:42.681600+05:30
Kochi,Kerala,9.9312,76.2673,30.0,75,0.0,1007.3,8.45,33.1,66,18.0,14.1,7,5,4,1,2026-04-30T17:09:42.681608+05:30
Thiruvananthapuram,Kerala,8.5241,76.9366,26.3,88,0.0,1007.5,8.95,31.7,47,7.4,5.2,7,5,4,1,2026-04-30T17:09:42.681615+05:30
Kozhikode,Kerala,11.2588,75.7804,29.2,81,0.0,1006.4,8.9,40.3,55,21.3,12.9,7,5,4,1,2026-04-30T17:09:42.681622+05:30
Thrissur,Kerala,10.5276,76.2144,30.1,72,0.0,1005.6,8.95,42.8,74,19.6,14.7,3,5,4,1,2026-04-30T17:09:42.681628+05:30
Kannur,Kerala,11.8745,75.3704,30.5,72,0.0,1005.9,9.0,35.6,65,43.1,21.8,3,5,4,1,2026-04-30T17:09:42.681635+05:30
Patna,Bihar,25.5941,85.1376,23.7,86,0.0,998.0,8.6,42.8,131,55.8,30.6,3,5,7,1,2026-04-30T17:09:42.681642+05:30
Gaya,Bihar,24.7914,85.0002,25.6,79,0.2,990.4,8.7,50.0,168,61.7,39.7,10,5,7,1,2026-04-30T17:09:42.681649+05:30
Muzaffarpur,Bihar,26.1209,85.3647,24.8,80,0.0,998.7,8.55,43.2,104,72.2,31.7,3,5,7,1,2026-04-30T17:09:42.681655+05:30
Bhagalpur,Bihar,25.2425,87.0117,31.2,46,0.0,998.2,8.55,39.2,99,62.9,38.2,0,5,7,1,2026-04-30T17:09:42.681661+05:30
Ranchi,Jharkhand,23.3441,85.3096,26.7,58,0.1,935.1,9.15,42.5,168,44.4,34.0,7,5,7,1,2026-04-30T17:09:42.681668+05:30
Jamshedpur,Jharkhand,22.8046,86.2029,26.4,72,0.0,988.4,9.0,58.3,170,49.2,43.7,7,5,7,1,2026-04-30T17:09:42.681674+05:30
Dhanbad,Jharkhand,23.7957,86.4304,26.4,67,0.0,977.2,8.9,40.0,150,60.8,56.7,7,5,7,1,2026-04-30T17:09:42.681681+05:30
Bokaro,Jharkhand,23.6693,86.1511,27.0,67,0.0,980.9,8.9,41.8,171,56.8,51.6,7,5,7,1,2026-04-30T17:09:42.681687+05:30
Bhubaneswar,Odisha,20.2961,85.8245,31.2,69,0.0,998.7,9.05,51.8,66,23.6,19.7,3,5,7,1,2026-04-30T17:09:42.681694+05:30
Cuttack,Odisha,20.4625,85.8828,32.1,63,0.0,1000.2,9.1,42.5,66,23.6,19.7,3,5,4,1,2026-04-30T17:09:42.681700+05:30
Rourkela,Odisha,22.2604,84.8536,27.9,67,0.0,982.0,8.9,50.4,150,44.1,29.8,7,5,7,1,2026-04-30T17:09:42.681706+05:30
Raipur,Chhattisgarh,21.2514,81.6296,39.4,15,0.0,969.0,8.95,53.6,161,26.3,16.2,0,5,10,0,2026-04-30T17:09:42.681712+05:30
Bhilai,Chhattisgarh,21.1938,81.3509,38.6,17,0.0,969.5,8.95,55.4,138,28.0,15.8,0,5,10,0,2026-04-30T17:09:42.681718+05:30
Guwahati,Assam,26.1158,91.7086,24.5,77,0.0,999.7,7.65,25.2,67,23.9,13.9,3,5,7,1,2026-04-30T17:09:42.681724+05:30
Agartala,Tripura,23.8315,91.2868,27.9,72,0.0,1003.9,5.5,32.0,101,31.3,24.7,7,5,0,1,2026-04-30T17:09:42.681730+05:30
Shillong,Meghalaya,25.5788,91.8933,18.1,74,0.0,854.8,8.35,35.6,64,24.5,13.9,3,5,7,0,2026-04-30T17:09:42.681736+05:30
Imphal,Manipur,24.817,93.9368,21.9,82,0.0,921.2,9.05,30.6,96,20.5,14.5,3,5,7,1,2026-04-30T17:09:42.681743+05:30
Aizawl,Mizoram,23.7271,92.7176,21.4,70,0.0,891.0,8.3,33.8,70,18.2,13.3,3,5,7,0,2026-04-30T17:09:42.681749+05:30
Kohima,Nagaland,25.6701,94.1077,17.1,99,0.0,853.0,5.0,31.3,72,25.4,15.4,3,10,3,1,2026-04-30T17:09:42.681755+05:30
Gangtok,Sikkim,27.3314,88.6138,14.9,97,0.1,834.6,5.6,31.3,70,12.7,7.4,6,10,3,0,2026-04-30T17:09:42.681761+05:30
Siliguri,West Bengal,26.7271,88.3953,26.0,67,0.0,991.0,8.2,36.0,82,20.0,12.0,7,5,7,1,2026-04-30T17:09:46.060798+05:30
Durgapur,West Bengal,23.5204,87.3119,26.7,77,0.0,992.4,8.85,32.0,128,46.8,44.0,7,5,7,1,2026-04-30T17:09:46.060834+05:30
Asansol,West Bengal,23.6739,86.9524,24.1,86,0.1,991.2,8.6,34.6,131,47.3,44.0,6,5,7,1,2026-04-30T17:09:46.060844+05:30
Pondicherry,Puducherry,11.9139,79.8145,31.6,75,0.0,1004.6,9.2,50.4,44,14.7,10.6,3,5,4,1,2026-04-30T17:09:46.060853+05:30
Port Blair,Andaman and Nicobar Islands,11.6234,92.7265,31.4,58,0.1,1006.7,8.9,27.4,38,7.5,7.1,3,5,4,1,2026-04-30T17:09:46.060861+05:30
Haridwar,Uttarakhand,29.9457,78.1642,27.8,59,0.0,971.5,6.9,38.2,112,119.7,32.9,4,5,7,1,2026-04-30T17:09:46.060868+05:30
Rishikesh,Uttarakhand,30.0869,78.2676,26.5,60,0.0,964.4,7.3,44.3,109,105.2,27.8,4,5,7,1,2026-04-30T17:09:46.060875+05:30
Nainital,Uttarakhand,29.3919,79.4542,14.0,78,0.0,803.3,7.85,33.5,104,103.8,31.1,3,5,7,0,2026-04-30T17:09:46.060882+05:30
Mussoorie,Uttarakhand,30.4599,78.0664,14.3,75,0.0,800.6,7.6,45.7,99,88.5,25.7,3,5,7,0,2026-04-30T17:09:46.060889+05:30
Dharamshala,Himachal Pradesh,32.219,76.3234,20.6,49,0.0,866.6,7.5,52.2,79,15.1,7.1,0,5,7,0,2026-04-30T17:09:46.060896+05:30
Dalhousie,Himachal Pradesh,32.5387,75.971,13.9,88,0.0,801.7,6.35,40.7,95,26.9,11.0,3,10,7,0,2026-04-30T17:09:46.060904+05:30
Patiala,Punjab,30.3398,76.3869,31.2,40,0.0,974.2,6.9,49.0,176,577.4,67.8,0,5,7,0,2026-04-30T17:09:46.060912+05:30
Bhatinda,Punjab,30.211,74.9455,33.5,29,0.0,978.8,8.05,43.9,129,62.9,21.6,0,5,7,0,2026-04-30T17:09:46.060918+05:30
Rohtak,Haryana,28.8955,76.6066,32.5,38,0.0,977.2,7.5,51.1,315,378.1,50.5,0,5,7,1,2026-04-30T17:09:46.060925+05:30
Panipat,Haryana,29.3909,76.9635,31.4,45,0.0,976.4,6.9,51.1,656,750.6,81.7,0,5,7,1,2026-04-30T17:09:46.060932+05:30
Mathura,Uttar Pradesh,27.4924,77.6737,33.8,29,0.0,982.4,7.75,42.1,545,326.9,46.8,0,5,7,0,2026-04-30T17:09:46.060939+05:30
Vrindavan,Uttar Pradesh,27.5823,77.7027,33.7,28,0.0,982.8,7.7,44.3,545,326.9,46.8,0,5,7,0,2026-04-30T17:09:46.060946+05:30
Ayodhya,Uttar Pradesh,26.7922,82.1998,31.7,42,0.0,992.5,7.75,38.2,133,58.8,28.9,0,5,7,1,2026-04-30T17:09:46.060952+05:30
Ratlam,Madhya Pradesh,23.3315,75.0367,37.3,19,0.0,950.9,8.5,45.4,56,63.6,19.0,0,5,10,0,2026-04-30T17:09:46.060959+05:30
Sagar,Madhya Pradesh,23.8388,78.7378,33.8,24,0.0,945.7,8.45,62.6,81,78.5,19.7,0,5,7,0,2026-04-30T17:09:46.060965+05:30
Satna,Madhya Pradesh,24.6005,80.8322,35.5,22,0.0,966.8,7.2,37.4,79,96.4,24.6,0,5,10,0,2026-04-30T17:09:46.060972+05:30
Akola,Maharashtra,20.7002,77.0082,40.0,11,0.0,970.1,8.85,43.6,51,47.7,15.0,0,5,10,0,2026-04-30T17:09:46.060979+05:30
Amravati,Maharashtra,20.9374,77.7796,39.3,12,0.0,962.5,8.85,46.4,50,42.4,13.6,0,5,10,0,2026-04-30T17:09:46.060985+05:30
Latur,Maharashtra,18.4088,76.5604,39.5,12,0.0,936.4,9.05,42.8,76,29.4,17.0,0,5,10,0,2026-04-30T17:09:46.060992+05:30
Nanded,Maharashtra,19.1383,77.3091,41.0,10,0.0,963.3,9.0,58.0,67,26.4,15.0,0,5,10,0,2026-04-30T17:09:46.060999+05:30
Gulbarga,Karnataka,17.3297,76.8343,39.7,15,0.0,955.1,9.1,40.0,100,26.7,17.3,0,5,10,0,2026-04-30T17:09:46.061005+05:30
Bidar,Karnataka,17.9104,77.5199,38.5,14,0.0,932.7,9.1,39.6,109,26.0,16.8,0,5,10,0,2026-04-30T17:09:46.061012+05:30
Hospet,Karnataka,15.2689,76.3909,36.8,28,0.0,953.1,9.25,58.0,111,28.1,22.2,0,5,10,0,2026-04-30T17:09:46.061018+05:30
Tirupur,Tamil Nadu,11.1085,77.3411,38.0,29,0.0,971.3,9.35,56.5,100,41.1,25.4,0,5,10,1,2026-04-30T17:09:46.061024+05:30
Alappuzha,Kerala,9.4981,76.3388,29.8,75,0.0,1007.6,9.0,34.2,60,18.3,13.5,7,5,4,1,2026-04-30T17:09:46.061031+05:30
Munnar,Kerala,10.0889,77.0595,19.5,95,0.0,856.6,8.75,25.2,81,19.9,16.8,3,10,7,1,2026-04-30T17:09:46.061038+05:30
Silchar,Assam,24.8333,92.7789,26.5,73,0.0,1003.2,6.05,23.0,114,30.2,19.7,7,5,4,1,2026-04-30T17:09:46.061044+05:30
Dibrugarh,Assam,27.4728,94.912,23.0,96,0.1,994.3,7.9,27.7,81,24.0,12.8,6,5,7,1,2026-04-30T17:09:46.061051+05:30
