city,state,latitude,longitude,temp,humidity,rain,pressure,uv_index,wind_gusts,aqi,pm10,pm2_5,mosquito_risk,arthritis_risk,migraine_risk,frizz_risk,updated_at
Delhi,Delhi,28.6139,77.209,29.6,44,0.0,982.0,7.4,27.7,161,211.9,75.9,4,5,7,0,2026-04-24T08:24:22.602224+05:30
Mumbai,Maharashtra,19.076,72.8777,28.8,81,0.0,1008.3,8.05,24.5,80,31.5,22.9,7,0,4,1,2026-04-24T08:24:22.602259+05:30
Bangalore,Karnataka,12.9716,77.5946,25.6,68,0.0,912.5,9.6,34.9,80,37.8,35.7,7,5,7,1,2026-04-24T08:24:22.602274+05:30
Hyderabad,Telangana,17.385,78.4867,29.7,54,0.0,954.6,9.3,40.3,123,44.5,39.1,4,5,7,1,2026-04-24T08:24:22.602283+05:30
Chennai,Tamil Nadu,13.0827,80.2707,31.0,70,0.0,1007.8,8.7,33.5,30,10.3,7.2,3,5,4,1,2026-04-24T08:24:22.602292+05:30
Kolkata,West Bengal,22.5726,88.3639,30.1,82,0.0,1007.0,8.9,25.2,97,28.3,22.7,3,5,4,1,2026-04-24T08:24:22.602303+05:30
Pune,Maharashtra,18.5204,73.8567,29.7,60,0.0,949.6,8.6,28.1,111,53.7,49.9,4,5,7,1,2026-04-24T08:24:22.602311+05:30
Ahmedabad,Gujarat,23.0225,72.5714,28.9,61,0.0,1002.9,8.2,23.4,50,13.4,8.8,7,5,4,1,2026-04-24T08:24:22.602318+05:30
Jaipur,Rajasthan,26.9124,75.7873,31.0,33,0.0,960.4,8.05,29.9,71,223.5,33.2,0,5,7,0,2026-04-24T08:24:22.602326+05:30
Lucknow,Uttar Pradesh,26.8467,80.9462,29.2,43,0.0,993.7,7.9,19.8,163,83.6,34.1,4,5,7,0,2026-04-24T08:24:22.602333+05:30
Kanpur,Uttar Pradesh,26.4499,80.3319,28.5,53,0.0,991.5,7.95,18.4,219,170.9,39.5,4,5,7,1,2026-04-24T08:24:22.602340+05:30
Chandigarh,Chandigarh,30.7333,76.7794,28.0,57,0.0,967.7,7.4,28.8,70,26.2,23.1,4,5,7,1,2026-04-24T08:24:22.602347+05:30
Srinagar,Jammu and Kashmir,34.0837,74.7973,16.8,67,0.0,845.4,8.5,29.5,77,40.5,32.2,3,5,7,0,2026-04-24T08:24:22.602354+05:30
Jammu,Jammu and Kashmir,32.7266,74.857,29.0,58,0.0,971.6,8.2,36.7,71,22.4,19.4,4,5,7,1,2026-04-24T08:24:22.602361+05:30
Amritsar,Punjab,31.634,74.8723,28.4,62,0.0,979.9,8.1,38.5,86,54.0,43.3,7,5,7,1,2026-04-24T08:24:22.602367+05:30
Ludhiana,Punjab,30.901,75.8573,29.0,56,0.0,977.8,7.7,35.3,83,37.0,32.5,4,5,7,1,2026-04-24T08:24:22.602376+05:30
Jalandhar,Punjab,31.326,75.5762,28.7,57,0.0,978.9,7.85,30.6,88,56.3,46.9,4,5,7,1,2026-04-24T08:24:22.602382+05:30
Dehradun,Uttarakhand,30.6284,78.0322,22.4,44,0.0,833.4,7.85,45.4,53,8.2,6.7,0,5,7,0,2026-04-24T08:24:22.602388+05:30
Shimla,Himachal Pradesh,31.1048,77.1734,22.4,46,0.0,789.1,7.9,49.0,56,20.0,17.2,0,5,7,0,2026-04-24T08:24:22.602395+05:30
Manali,Himachal Pradesh,32.2396,77.1887,22.5,35,0.0,824.9,9.3,33.5,54,21.9,15.8,0,5,7,0,2026-04-24T08:24:22.602401+05:30
Gurgaon,Haryana,28.4595,77.0266,27.6,56,0.0,980.4,7.5,23.0,562,910.8,140.6,4,5,7,1,2026-04-24T08:24:22.602408+05:30
Noida,Uttar Pradesh,28.5355,77.391,29.9,45,0.0,983.4,7.45,27.4,562,910.8,140.6,4,5,7,1,2026-04-24T08:24:22.602416+05:30
Ghaziabad,Uttar Pradesh,28.6692,77.4538,29.3,50,0.0,981.6,7.4,27.0,158,192.3,74.3,4,5,7,1,2026-04-24T08:24:22.602422+05:30
Faridabad,Haryana,28.4089,77.3178,29.6,45,0.0,982.8,7.5,25.9,562,910.8,140.6,4,5,7,1,2026-04-24T08:24:22.602428+05:30
Meerut,Uttar Pradesh,28.9845,77.7064,29.0,51,0.0,980.4,7.35,25.6,158,192.3,74.3,4,5,7,1,2026-04-24T08:24:22.602434+05:30
Agra,Uttar Pradesh,27.1767,78.0081,30.2,42,0.0,987.0,7.8,28.1,544,754.4,82.2,0,5,7,0,2026-04-24T08:24:22.602442+05:30
Varanasi,Uttar Pradesh,25.3176,82.9739,31.0,41,0.0,997.7,8.5,22.0,146,161.1,57.3,0,5,7,1,2026-04-24T08:24:22.602448+05:30
Prayagraj,Uttar Pradesh,25.4358,81.8463,31.2,46,0.0,995.8,8.35,19.8,148,184.4,59.6,0,5,7,1,2026-04-24T08:24:22.602455+05:30
Gorakhpur,Uttar Pradesh,26.7606,83.3732,29.5,70,0.0,997.8,8.3,24.5,116,123.4,57.0,7,5,7,1,2026-04-24T08:24:22.602461+05:30
Bareilly,Uttar Pradesh,28.367,79.4304,29.0,53,0.0,986.3,7.7,22.3,119,150.4,54.7,4,5,7,1,2026-04-24T08:24:22.602467+05:30
Aligarh,Uttar Pradesh,27.8974,78.088,29.1,46,0.0,984.9,7.6,25.6,382,465.7,77.5,4,5,7,1,2026-04-24T08:24:22.602473+05:30
Moradabad,Uttar Pradesh,28.8386,78.7733,28.9,56,0.0,982.7,7.5,33.5,150,230.5,87.5,4,5,7,1,2026-04-24T08:24:22.602479+05:30
Saharanpur,Uttar Pradesh,29.9637,77.546,27.8,61,0.0,974.7,7.15,25.9,105,48.7,46.3,7,5,7,1,2026-04-24T08:24:22.602484+05:30
Jhansi,Uttar Pradesh,25.4484,78.5685,30.8,30,0.0,978.4,8.3,31.0,47,14.0,13.1,0,5,7,0,2026-04-24T08:24:25.820260+05:30
Surat,Gujarat,21.1702,72.8311,28.9,57,0.0,1007.3,7.9,21.2,100,40.2,29.8,4,5,4,1,2026-04-24T08:24:25.820291+05:30
Vadodara,Gujarat,22.3072,73.1812,29.3,46,0.0,1005.2,8.15,23.8,77,27.9,21.4,4,5,4,1,2026-04-24T08:24:25.820301+05:30
Rajkot,Gujarat,22.3039,70.8022,26.0,83,0.0,995.8,7.9,32.0,31,9.5,6.9,7,5,7,1,2026-04-24T08:24:25.820309+05:30
Thane,Maharashtra,19.2183,72.9781,29.1,73,0.0,1007.8,8.05,37.8,80,31.5,22.9,7,5,4,1,2026-04-24T08:24:25.820317+05:30
Nagpur,Maharashtra,21.1458,79.0882,31.6,39,0.0,974.0,8.9,32.4,115,31.0,29.0,0,5,7,0,2026-04-24T08:24:25.820325+05:30
Nashik,Maharashtra,19.9975,73.7898,28.1,57,0.0,946.9,8.35,36.7,78,40.0,35.0,4,5,7,1,2026-04-24T08:24:25.820332+05:30
Aurangabad,Maharashtra,19.8762,75.3433,31.9,30,0.0,945.7,9.05,33.1,86,35.3,32.7,0,5,7,0,2026-04-24T08:24:25.820339+05:30
Solapur,Maharashtra,17.6599,75.9064,29.4,54,0.0,957.7,9.1,31.7,104,45.9,42.3,4,5,7,1,2026-04-24T08:24:25.820347+05:30
Kolhapur,Maharashtra,16.705,74.2433,28.7,71,0.0,948.0,9.05,46.4,133,69.4,67.5,7,5,7,1,2026-04-24T08:24:25.820354+05:30
Goa,Goa,15.2993,74.124,30.7,77,0.0,997.5,9.0,28.4,80,34.8,25.7,3,5,7,1,2026-04-24T08:24:25.820361+05:30
Jodhpur,Rajasthan,26.2389,73.0243,31.7,48,0.0,983.0,8.25,29.5,53,68.2,14.4,0,5,7,1,2026-04-24T08:24:25.820368+05:30
Udaipur,Rajasthan,24.5854,73.7125,29.5,40,0.0,948.0,8.8,33.1,46,35.9,13.5,4,5,7,0,2026-04-24T08:24:25.820375+05:30
Kota,Rajasthan,25.2138,75.8648,31.2,35,0.0,979.5,8.3,22.0,51,21.8,13.3,0,5,7,0,2026-04-24T08:24:25.820382+05:30
Bikaner,Rajasthan,28.0229,73.3119,32.4,37,0.0,981.0,8.1,30.6,60,26.6,8.8,0,5,7,0,2026-04-24T08:24:25.820390+05:30
Ajmer,Rajasthan,26.4499,74.6399,29.2,45,0.0,955.4,8.25,31.3,32,36.4,12.1,4,5,7,1,2026-04-24T08:24:25.820397+05:30
Gwalior,Madhya Pradesh,26.2183,78.1828,31.3,37,0.0,983.1,8.05,27.4,33,8.3,6.2,0,5,7,0,2026-04-24T08:24:25.820404+05:30
Indore,Madhya Pradesh,22.7196,75.8577,28.9,34,0.0,949.6,8.65,29.5,59,32.9,14.7,4,5,7,0,2026-04-24T08:24:25.820411+05:30
Bhopal,Madhya Pradesh,23.2599,77.4126,29.3,36,0.0,955.4,8.65,22.7,63,25.7,13.3,4,5,7,0,2026-04-24T08:24:25.820418+05:30
Jabalpur,Madhya Pradesh,23.1815,79.9864,30.3,39,0.0,962.7,8.75,22.7,67,29.4,27.5,0,5,7,0,2026-04-24T08:24:25.820425+05:30
Ujjain,Madhya Pradesh,23.1765,75.7885,29.2,32,0.0,955.2,8.55,29.5,60,41.2,20.1,4,5,7,0,2026-04-24T08:24:25.820432+05:30
Visakhapatnam,Andhra Pradesh,17.6868,83.2185,29.4,77,0.0,1003.8,8.95,40.0,64,24.3,20.9,7,5,4,1,2026-04-24T08:24:25.820439+05:30
Vijayawada,Andhra Pradesh,16.5062,80.648,29.1,80,0.0,1002.9,9.25,29.2,53,15.1,12.0,7,5,4,1,2026-04-24T08:24:25.820447+05:30
Guntur,Andhra Pradesh,16.3067,80.4365,29.6,77,0.0,1004.1,9.2,30.2,54,13.1,10.5,7,5,4,1,2026-04-24T08:24:25.820453+05:30
Nellore,Andhra Pradesh,14.4426,79.9865,30.0,72,0.0,1006.2,9.15,35.6,41,11.7,9.3,7,5,4,1,2026-04-24T08:24:25.820461+05:30
Kurnool,Andhra Pradesh,15.8281,78.0373,32.5,49,0.0,977.1,9.25,26.3,87,22.7,19.2,0,5,7,1,2026-04-24T08:24:25.820469+05:30
Kakinada,Andhra Pradesh,16.9891,82.2475,29.9,77,0.0,1007.9,9.1,32.8,43,14.7,11.1,7,5,4,1,2026-04-24T08:24:25.820476+05:30
Tirupati,Andhra Pradesh,13.6288,79.4192,28.6,71,0.0,992.6,9.35,34.2,53,14.8,13.0,7,5,7,1,2026-04-24T08:24:25.820482+05:30
Warangal,Telangana,17.9689,79.5941,29.9,53,0.0,979.6,9.2,19.1,116,30.0,27.0,4,5,7,1,2026-04-24T08:24:25.820489+05:30
Nizamabad,Telangana,18.6725,78.0941,31.3,44,0.0,965.6,8.95,42.1,116,48.7,45.6,0,5,7,1,2026-04-24T08:24:25.820496+05:30
Mysore,Karnataka,12.2958,76.6396,25.8,79,0.0,929.0,9.5,40.3,93,51.0,46.9,7,5,7,1,2026-04-24T08:24:25.820503+05:30
Mangalore,Karnataka,12.9141,74.856,29.3,83,0.0,1005.9,9.1,32.4,80,31.8,25.0,7,5,4,1,2026-04-24T08:24:25.820510+05:30
Hubli-Dharwad,Karnataka,15.3647,75.124,27.4,62,0.0,941.1,9.2,50.0,94,50.1,46.7,7,5,7,1,2026-04-24T08:24:25.820517+05:30
Belgaum,Karnataka,15.8497,74.4977,26.1,71,0.0,926.3,9.25,41.0,98,49.8,45.1,7,5,7,1,2026-04-24T08:24:29.031057+05:30
Coimbatore,Tamil Nadu,11.0168,76.9558,27.7,74,0.0,962.3,9.4,34.6,90,38.4,34.7,7,5,7,1,2026-04-24T08:24:29.031090+05:30
Madurai,Tamil Nadu,9.9252,78.1198,29.4,73,0.0,993.5,9.0,29.5,51,19.9,18.8,7,5,7,1,2026-04-24T08:24:29.031100+05:30
Trichy,Tamil Nadu,10.7905,78.7047,29.9,76,0.0,1000.3,9.3,24.1,47,18.7,16.0,7,5,4,1,2026-04-24T08:24:29.031108+05:30
Salem,Tamil Nadu,11.6643,78.146,29.1,73,0.0,978.0,9.35,27.7,61,15.1,12.9,7,5,7,1,2026-04-24T08:24:29.031115+05:30
Tirunelveli,Tamil Nadu,8.7139,77.7567,29.4,71,0.0,1003.5,9.2,41.8,70,27.8,25.4,7,5,4,1,2026-04-24T08:24:29.031122+05:30
Vellore,Tamil Nadu,12.9165,79.1325,27.7,75,0.0,985.7,9.4,31.3,70,19.2,16.2,7,5,7,1,2026-04-24T08:24:29.031129+05:30
Erode,Tamil Nadu,11.341,77.7172,29.9,74,0.0,989.5,9.35,27.7,49,10.9,9.7,7,5,7,1,2026-04-24T08:24:29.031136+05:30
Kochi,Kerala,9.9312,76.2673,28.8,82,0.0,1008.1,8.85,32.4,77,24.9,22.7,7,0,4,1,2026-04-24T08:24:29.031144+05:30
Thiruvananthapuram,Kerala,8.5241,76.9366,28.4,85,0.0,1007.4,9.05,24.8,66,24.7,21.1,7,5,4,1,2026-04-24T08:24:29.031151+05:30
Kozhikode,Kerala,11.2588,75.7804,28.8,82,0.0,1007.3,9.1,33.1,88,35.6,28.6,7,5,4,1,2026-04-24T08:24:29.031157+05:30
Thrissur,Kerala,10.5276,76.2144,29.7,80,0.0,1006.4,9.15,36.7,83,28.1,25.5,7,5,4,1,2026-04-24T08:24:29.031165+05:30
Kannur,Kerala,11.8745,75.3704,29.6,79,0.0,1006.6,9.1,31.0,89,36.4,30.2,7,5,4,1,2026-04-24T08:24:29.031171+05:30
Patna,Bihar,25.5941,85.1376,30.0,75,0.0,1000.6,8.6,25.2,155,81.3,67.5,7,5,4,1,2026-04-24T08:24:29.031178+05:30
Gaya,Bihar,24.7914,85.0002,32.0,42,0.0,993.6,8.7,18.7,150,143.0,66.4,0,5,7,1,2026-04-24T08:24:29.031184+05:30
Muzaffarpur,Bihar,26.1209,85.3647,29.5,79,0.0,1000.9,8.6,32.4,153,77.1,63.8,7,5,4,1,2026-04-24T08:24:29.031191+05:30
Bhagalpur,Bihar,25.2425,87.0117,30.0,82,0.0,1002.2,8.65,22.0,153,74.3,63.3,7,5,4,1,2026-04-24T08:24:29.031197+05:30
Ranchi,Jharkhand,23.3441,85.3096,31.7,41,0.0,940.2,9.15,25.6,105,191.9,61.7,0,5,7,1,2026-04-24T08:24:29.031203+05:30
Jamshedpur,Jharkhand,22.8046,86.2029,30.6,81,0.0,991.8,9.0,32.4,151,105.7,83.1,3,5,7,1,2026-04-24T08:24:29.031210+05:30
Dhanbad,Jharkhand,23.7957,86.4304,31.5,68,0.0,981.0,8.95,35.6,160,165.8,106.6,3,5,7,1,2026-04-24T08:24:29.031217+05:30
Bokaro,Jharkhand,23.6693,86.1511,31.4,63,0.0,985.2,8.95,24.1,158,184.9,100.6,3,5,7,1,2026-04-24T08:24:29.031223+05:30
Bhubaneswar,Odisha,20.2961,85.8245,28.9,84,0.0,1003.0,9.15,34.6,88,25.6,21.7,7,5,4,1,2026-04-24T08:24:29.031230+05:30
Cuttack,Odisha,20.4625,85.8828,29.7,78,0.0,1005.0,9.2,34.9,88,25.6,21.7,7,5,4,1,2026-04-24T08:24:29.031236+05:30
Rourkela,Odisha,22.2604,84.8536,30.8,62,0.0,986.1,8.95,30.2,114,106.4,55.9,3,5,7,1,2026-04-24T08:24:29.031243+05:30
Raipur,Chhattisgarh,21.2514,81.6296,32.2,45,0.0,975.3,8.85,24.5,104,59.0,57.2,0,5,7,1,2026-04-24T08:24:29.031249+05:30
Bhilai,Chhattisgarh,21.1938,81.3509,31.5,51,0.0,975.5,8.9,21.2,111,58.4,56.6,0,5,7,1,2026-04-24T08:24:29.031255+05:30
Guwahati,Assam,26.1158,91.7086,29.3,76,0.0,1003.4,8.55,23.4,142,91.3,52.7,7,5,4,1,2026-04-24T08:24:29.031262+05:30
Agartala,Tripura,23.8315,91.2868,30.4,78,0.0,1007.4,8.65,25.9,113,38.3,31.4,3,5,4,1,2026-04-24T08:24:29.031269+05:30
Shillong,Meghalaya,25.5788,91.8933,20.6,64,0.0,860.3,6.0,27.0,121,109.2,43.1,3,5,3,0,2026-04-24T08:24:29.031275+05:30
Imphal,Manipur,24.817,93.9368,24.4,68,0.0,926.3,9.1,35.3,151,141.1,51.7,3,5,7,1,2026-04-24T08:24:29.031282+05:30
Aizawl,Mizoram,23.7271,92.7176,25.9,63,0.0,895.9,8.45,37.1,123,90.6,37.0,7,5,7,1,2026-04-24T08:24:29.031288+05:30
Kohima,Nagaland,25.6701,94.1077,20.7,77,0.0,858.8,9.05,38.9,124,76.1,43.8,3,5,7,1,2026-04-24T08:24:29.031294+05:30
Gangtok,Sikkim,27.3314,88.6138,20.6,83,0.0,841.4,8.75,24.5,102,32.2,21.1,3,5,7,1,2026-04-24T08:24:29.031300+05:30
Siliguri,West Bengal,26.7271,88.3953,24.6,83,0.0,996.6,8.45,19.1,151,78.7,58.0,3,5,7,1,2026-04-24T08:24:32.246860+05:30
Durgapur,West Bengal,23.5204,87.3119,30.9,74,0.0,996.2,8.65,37.4,154,67.1,55.3,3,5,7,1,2026-04-24T08:24:32.246886+05:30
Asansol,West Bengal,23.6739,86.9524,31.1,75,0.0,994.7,8.9,39.6,152,88.7,72.4,3,5,7,1,2026-04-24T08:24:32.246896+05:30
Pondicherry,Puducherry,11.9139,79.8145,30.3,76,0.0,1009.1,9.25,29.5,25,8.4,5.9,3,0,4,1,2026-04-24T08:24:32.246904+05:30
Port Blair,Andaman and Nicobar Islands,11.6234,92.7265,29.7,72,0.0,1007.8,9.1,23.8,29,8.0,4.2,7,5,4,1,2026-04-24T08:24:32.246911+05:30
Haridwar,Uttarakhand,29.9457,78.1642,31.0,45,0.0,973.4,7.2,33.8,82,25.1,22.9,0,5,7,1,2026-04-24T08:24:32.246919+05:30
Rishikesh,Uttarakhand,30.0869,78.2676,30.7,45,0.0,966.6,7.35,37.8,69,20.5,19.6,0,5,7,1,2026-04-24T08:24:32.246926+05:30
Nainital,Uttarakhand,29.3919,79.4542,27.1,36,0.0,810.2,8.2,46.1,69,23.8,22.5,4,5,7,0,2026-04-24T08:24:32.246934+05:30
Mussoorie,Uttarakhand,30.4599,78.0664,25.1,38,0.0,806.7,7.75,49.3,71,16.4,15.4,4,5,7,0,2026-04-24T08:24:32.246941+05:30
Dharamshala,Himachal Pradesh,32.219,76.3234,27.6,36,0.0,871.0,8.05,33.8,43,14.4,10.7,4,5,7,0,2026-04-24T08:24:32.246948+05:30
Dalhousie,Himachal Pradesh,32.5387,75.971,24.9,28,0.0,807.1,8.3,35.3,60,17.5,15.3,0,5,7,0,2026-04-24T08:24:32.246984+05:30
Patiala,Punjab,30.3398,76.3869,27.8,63,0.0,976.9,7.35,24.8,159,350.2,62.2,7,5,7,1,2026-04-24T08:24:32.246993+05:30
Bhatinda,Punjab,30.211,74.9455,30.8,45,0.0,982.9,8.0,27.7,77,53.1,43.4,0,5,7,1,2026-04-24T08:24:32.247000+05:30
Rohtak,Haryana,28.8955,76.6066,28.3,57,0.0,980.5,7.45,25.9,187,344.6,85.7,4,5,7,1,2026-04-24T08:24:32.247006+05:30
Panipat,Haryana,29.3909,76.9635,28.8,58,0.0,979.3,7.3,26.6,467,556.9,110.4,4,5,7,1,2026-04-24T08:24:32.247013+05:30
Mathura,Uttar Pradesh,27.4924,77.6737,30.1,41,0.0,985.9,7.75,26.3,396,707.8,77.5,0,5,7,0,2026-04-24T08:24:32.247020+05:30
Vrindavan,Uttar Pradesh,27.5823,77.7027,29.6,44,0.0,986.4,7.7,22.0,396,707.8,77.5,4,5,7,1,2026-04-24T08:24:32.247032+05:30
Ayodhya,Uttar Pradesh,26.7922,82.1998,29.1,48,0.0,995.7,8.05,20.2,134,209.5,55.5,4,5,7,1,2026-04-24T08:24:32.247040+05:30
Ratlam,Madhya Pradesh,23.3315,75.0367,28.7,41,0.0,955.5,8.5,25.9,59,41.9,22.0,4,5,7,0,2026-04-24T08:24:32.247047+05:30
Sagar,Madhya Pradesh,23.8388,78.7378,31.3,31,0.0,951.8,8.65,27.7,57,16.4,12.1,0,5,7,0,2026-04-24T08:24:32.247054+05:30
Satna,Madhya Pradesh,24.6005,80.8322,32.5,35,0.0,972.1,8.65,20.9,73,30.0,29.5,0,5,7,0,2026-04-24T08:24:32.247060+05:30
Akola,Maharashtra,20.7002,77.0082,31.9,41,0.0,976.3,8.9,28.8,84,24.4,23.5,0,5,7,1,2026-04-24T08:24:32.247067+05:30
Amravati,Maharashtra,20.9374,77.7796,31.0,44,0.0,968.4,8.9,23.0,84,27.0,25.6,0,5,7,1,2026-04-24T08:24:32.247074+05:30
Latur,Maharashtra,18.4088,76.5604,29.2,48,0.0,941.2,8.8,34.6,101,44.1,40.3,4,5,7,1,2026-04-24T08:24:32.247081+05:30
Nanded,Maharashtra,19.1383,77.3091,29.8,53,0.0,969.8,9.05,34.6,111,40.5,38.4,4,5,7,1,2026-04-24T08:24:32.247088+05:30
Gulbarga,Karnataka,17.3297,76.8343,30.5,47,0.0,959.4,8.35,32.4,118,56.2,51.1,0,5,7,1,2026-04-24T08:24:32.247095+05:30
Bidar,Karnataka,17.9104,77.5199,28.5,49,0.0,936.8,8.45,37.8,115,54.7,50.2,4,5,7,1,2026-04-24T08:24:32.247101+05:30
Hospet,Karnataka,15.2689,76.3909,28.0,66,0.0,956.1,9.25,60.8,103,36.2,34.1,7,5,7,1,2026-04-24T08:24:32.247108+05:30
Tirupur,Tamil Nadu,11.1085,77.3411,28.7,73,0.0,975.8,9.45,32.8,65,21.0,18.6,7,5,7,1,2026-04-24T08:24:32.247114+05:30
Alappuzha,Kerala,9.4981,76.3388,28.5,84,0.0,1008.2,9.0,27.0,76,28.7,26.3,7,0,4,1,2026-04-24T08:24:32.247121+05:30
Munnar,Kerala,10.0889,77.0595,24.7,64,0.0,857.8,9.65,25.6,70,27.4,26.3,3,5,7,1,2026-04-24T08:24:32.247129+05:30
Silchar,Assam,24.8333,92.7789,29.3,74,0.0,1006.7,8.75,22.0,156,126.2,68.0,7,5,4,1,2026-04-24T08:24:32.247135+05:30
Dibrugarh,Assam,27.4728,94.912,27.0,75,0.0,998.1,8.65,11.9,77,28.9,21.1,7,5,7,1,2026-04-24T08:24:32.247142+05:30
