city,state,latitude,longitude,temp,humidity,rain,pressure,uv_index,wind_gusts,aqi,pm10,pm2_5,no2,co,o3,so2,mosquito_risk,arthritis_risk,migraine_risk,frizz_risk,updated_at
Delhi,Delhi,28.6139,77.209,30.4,53,0.0,976.4,7.8,51.8,157,174.2,87.1,58.0,580.0,50.0,37.4,0,5,7,1,2026-06-04T03:21:38.131644+05:30
Mumbai,Maharashtra,19.076,72.8777,29.3,73,0.0,1004.1,7.7,45.7,67,33.9,14.3,9.1,186.0,45.0,8.7,7,5,4,1,2026-06-04T03:21:38.131705+05:30
Bangalore,Karnataka,12.9716,77.5946,20.2,94,0.0,908.9,8.05,47.5,41,7.4,6.4,12.8,213.0,34.0,4.9,3,5,7,1,2026-06-04T03:21:38.131721+05:30
Hyderabad,Telangana,17.385,78.4867,27.6,65,0.0,949.7,9.15,47.5,77,27.5,20.9,15.0,192.0,65.0,8.2,7,5,7,1,2026-06-04T03:21:38.131732+05:30
Chennai,Tamil Nadu,13.0827,80.2707,30.5,65,0.0,1002.8,8.0,51.1,63,16.1,15.4,18.9,429.0,61.0,10.0,3,5,4,1,2026-06-04T03:21:38.131740+05:30
Kolkata,West Bengal,22.5726,88.3639,29.6,92,0.0,999.9,8.95,43.6,124,52.6,48.5,15.3,334.0,72.0,10.1,7,5,7,1,2026-06-04T03:21:38.131748+05:30
Pune,Maharashtra,18.5204,73.8567,24.4,84,0.0,944.5,8.35,43.2,58,14.9,7.9,8.8,126.0,37.0,7.6,3,5,7,1,2026-06-04T03:21:38.131754+05:30
Ahmedabad,Gujarat,23.0225,72.5714,30.7,71,0.0,996.4,8.05,41.0,87,29.9,19.5,6.2,166.0,54.0,4.1,3,5,7,1,2026-06-04T03:21:38.131760+05:30
Jaipur,Rajasthan,26.9124,75.7873,29.0,48,0.0,953.3,8.25,68.4,120,107.1,43.9,19.1,373.0,53.0,7.7,4,5,7,1,2026-06-04T03:21:38.131771+05:30
Lucknow,Uttar Pradesh,26.8467,80.9462,28.0,71,0.0,986.9,8.0,21.2,130,149.9,87.8,81.6,533.0,1.0,24.9,7,5,7,1,2026-06-04T03:21:38.131778+05:30
Kanpur,Uttar Pradesh,26.4499,80.3319,30.8,53,0.0,985.2,8.3,49.3,125,138.8,70.5,72.9,320.0,4.0,15.5,0,5,7,1,2026-06-04T03:21:38.131787+05:30
Chandigarh,Chandigarh,30.7333,76.7794,24.9,75,0.0,962.3,7.75,34.9,117,64.7,51.5,45.2,777.0,17.0,6.9,3,5,7,1,2026-06-04T03:21:38.131793+05:30
Srinagar,Jammu and Kashmir,34.0837,74.7973,14.2,96,0.0,836.8,8.15,33.5,89,48.7,42.7,25.1,606.0,3.0,0.4,3,10,7,0,2026-06-04T03:21:38.131800+05:30
Jammu,Jammu and Kashmir,32.7266,74.857,26.2,61,0.0,966.0,8.45,69.5,98,47.4,38.0,34.1,396.0,25.0,3.3,7,5,7,1,2026-06-04T03:21:38.131806+05:30
Amritsar,Punjab,31.634,74.8723,28.6,57,0.0,973.6,8.4,67.0,150,75.7,60.3,31.6,753.0,43.0,9.1,4,5,7,1,2026-06-04T03:21:38.131812+05:30
Ludhiana,Punjab,30.901,75.8573,27.8,65,0.0,972.1,7.9,55.4,152,142.5,86.1,48.3,1065.0,41.0,14.8,7,5,7,1,2026-06-04T03:21:38.131818+05:30
Jalandhar,Punjab,31.326,75.5762,27.5,57,0.0,973.0,8.2,63.7,155,112.0,87.5,60.9,769.0,13.0,8.6,4,5,7,1,2026-06-04T03:21:38.131824+05:30
Dehradun,Uttarakhand,30.6284,78.0322,15.0,89,0.0,825.9,6.55,28.1,55,23.5,20.5,31.6,208.0,17.0,0.0,3,10,7,0,2026-06-04T03:21:38.131830+05:30
Shimla,Himachal Pradesh,31.1048,77.1734,12.2,85,0.0,778.9,7.2,42.1,81,41.3,32.5,19.3,351.0,47.0,0.0,3,10,7,0,2026-06-04T03:21:38.131839+05:30
Manali,Himachal Pradesh,32.2396,77.1887,14.6,65,0.0,814.0,8.95,38.2,30,4.0,2.3,27.1,245.0,82.0,0.0,3,5,7,0,2026-06-04T03:21:38.131844+05:30
Gurgaon,Haryana,28.4595,77.0266,29.1,56,0.0,974.6,7.9,50.8,161,133.2,67.1,34.5,521.0,62.0,19.7,4,5,7,1,2026-06-04T03:21:38.131851+05:30
Noida,Uttar Pradesh,28.5355,77.391,28.8,61,0.0,977.7,7.85,59.4,161,133.2,67.1,34.5,605.0,62.0,19.7,7,5,7,1,2026-06-04T03:21:38.131857+05:30
Ghaziabad,Uttar Pradesh,28.6692,77.4538,27.8,66,0.0,976.0,7.8,67.7,154,99.7,68.5,38.7,467.0,47.0,13.5,7,5,7,1,2026-06-04T03:21:38.131863+05:30
Faridabad,Haryana,28.4089,77.3178,30.1,52,0.0,977.1,7.85,51.1,161,133.2,67.1,34.5,652.0,62.0,19.7,0,5,7,1,2026-06-04T03:21:38.131869+05:30
Meerut,Uttar Pradesh,28.9845,77.7064,28.9,61,0.0,975.0,7.15,51.8,154,99.7,68.5,38.7,703.0,47.0,13.5,7,5,7,1,2026-06-04T03:21:38.131899+05:30
Agra,Uttar Pradesh,27.1767,78.0081,29.2,56,0.0,981.0,8.15,86.4,231,243.1,74.5,19.9,724.0,65.0,11.5,4,5,7,1,2026-06-04T03:21:38.131905+05:30
Varanasi,Uttar Pradesh,25.3176,82.9739,31.0,48,0.0,991.2,8.45,24.8,146,57.9,50.6,42.9,784.0,26.0,29.6,0,5,7,1,2026-06-04T03:21:38.131912+05:30
Prayagraj,Uttar Pradesh,25.4358,81.8463,30.6,53,0.0,989.7,8.7,24.8,124,79.9,60.8,51.7,327.0,22.0,16.1,0,5,7,1,2026-06-04T03:21:38.131918+05:30
Gorakhpur,Uttar Pradesh,26.7606,83.3732,28.0,66,0.0,990.6,7.5,20.2,149,80.1,70.1,56.3,441.0,17.0,12.7,7,5,7,1,2026-06-04T03:21:38.131927+05:30
Bareilly,Uttar Pradesh,28.367,79.4304,27.4,71,0.0,980.4,8.1,52.2,152,120.1,83.4,61.0,930.0,18.0,11.5,7,5,7,1,2026-06-04T03:21:38.131933+05:30
Aligarh,Uttar Pradesh,27.8974,78.088,28.4,64,0.0,978.7,7.7,67.7,151,104.8,65.0,29.0,470.0,60.0,11.4,7,5,7,1,2026-06-04T03:21:38.131939+05:30
Moradabad,Uttar Pradesh,28.8386,78.7733,28.9,59,0.0,977.4,7.95,43.9,159,124.3,90.6,49.8,1138.0,34.0,14.0,4,5,7,1,2026-06-04T03:21:38.131944+05:30
Saharanpur,Uttar Pradesh,29.9637,77.546,27.1,74,0.0,969.4,7.5,36.0,141,88.7,71.0,46.8,763.0,34.0,12.7,7,5,7,1,2026-06-04T03:21:38.131950+05:30
Jhansi,Uttar Pradesh,25.4484,78.5685,29.0,61,0.0,971.2,8.5,64.1,84,50.1,29.5,12.3,295.0,55.0,5.7,7,5,7,1,2026-06-04T03:21:41.374204+05:30
Surat,Gujarat,21.1702,72.8311,29.2,81,0.0,1002.1,7.6,47.9,85,44.2,23.6,17.6,219.0,39.0,30.7,7,5,4,1,2026-06-04T03:21:41.374241+05:30
Vadodara,Gujarat,22.3072,73.1812,29.4,81,0.0,999.1,8.0,44.6,83,31.3,19.7,15.5,147.0,38.0,19.8,7,5,7,1,2026-06-04T03:21:41.374251+05:30
Rajkot,Gujarat,22.3039,70.8022,28.5,79,0.0,988.6,7.55,48.6,71,31.8,15.7,3.7,106.0,42.0,3.0,7,5,7,1,2026-06-04T03:21:41.374259+05:30
Thane,Maharashtra,19.2183,72.9781,28.5,78,0.0,1003.6,7.7,39.6,67,33.9,14.3,9.1,172.0,45.0,8.7,7,5,4,1,2026-06-04T03:21:41.374268+05:30
Nagpur,Maharashtra,21.1458,79.0882,31.9,42,0.0,967.9,6.95,35.6,72,45.3,33.9,32.7,265.0,25.0,10.4,0,5,7,1,2026-06-04T03:21:41.374275+05:30
Nashik,Maharashtra,19.9975,73.7898,23.8,90,0.0,941.8,8.05,39.6,66,22.3,11.5,11.1,177.0,32.0,10.6,3,5,7,1,2026-06-04T03:21:41.374283+05:30
Aurangabad,Maharashtra,19.8762,75.3433,25.9,74,0.0,940.4,8.95,39.6,73,25.6,15.4,8.1,139.0,58.0,9.3,7,5,7,1,2026-06-04T03:21:41.374290+05:30
Solapur,Maharashtra,17.6599,75.9064,28.0,62,0.0,954.0,9.0,43.9,62,12.1,8.7,6.9,171.0,46.0,2.5,7,5,7,1,2026-06-04T03:21:41.374298+05:30
Kolhapur,Maharashtra,16.705,74.2433,23.9,83,0.0,944.8,8.75,46.8,43,11.6,7.7,6.7,121.0,38.0,2.5,3,5,7,1,2026-06-04T03:21:41.374305+05:30
Goa,Goa,15.2993,74.124,25.0,97,0.1,995.5,8.75,34.9,34,17.8,9.4,4.2,188.0,44.0,1.1,10,5,7,1,2026-06-04T03:21:41.374312+05:30
Jodhpur,Rajasthan,26.2389,73.0243,32.3,46,0.0,976.3,8.4,51.8,110,175.1,45.8,3.8,140.0,61.0,2.2,0,5,7,1,2026-06-04T03:21:41.374319+05:30
Udaipur,Rajasthan,24.5854,73.7125,27.8,60,0.0,941.1,8.8,60.5,94,69.8,32.0,6.0,146.0,59.0,3.8,4,5,7,1,2026-06-04T03:21:41.374327+05:30
Kota,Rajasthan,25.2138,75.8648,31.3,47,0.0,972.1,8.4,60.1,99,58.2,33.1,6.5,204.0,65.0,6.2,0,5,7,1,2026-06-04T03:21:41.374334+05:30
Bikaner,Rajasthan,28.0229,73.3119,31.6,35,0.0,974.1,8.3,57.2,105,155.5,46.9,2.3,141.0,75.0,2.1,0,5,7,0,2026-06-04T03:21:41.374341+05:30
Ajmer,Rajasthan,26.4499,74.6399,29.0,53,0.0,948.6,8.35,46.4,96,74.5,31.0,4.1,176.0,67.0,4.6,4,5,7,1,2026-06-04T03:21:41.374347+05:30
Gwalior,Madhya Pradesh,26.2183,78.1828,27.7,70,0.0,976.2,8.3,77.4,104,102.0,42.1,11.6,245.0,74.0,6.8,7,5,7,1,2026-06-04T03:21:41.374354+05:30
Indore,Madhya Pradesh,22.7196,75.8577,28.0,66,0.0,943.4,8.65,53.6,89,45.4,30.9,6.6,266.0,79.0,8.4,7,5,7,1,2026-06-04T03:21:41.374361+05:30
Bhopal,Madhya Pradesh,23.2599,77.4126,29.1,52,0.0,948.2,8.7,47.9,83,48.4,32.6,9.0,259.0,59.0,5.7,4,5,7,1,2026-06-04T03:21:41.374367+05:30
Jabalpur,Madhya Pradesh,23.1815,79.9864,27.2,72,0.0,956.6,8.85,28.8,73,35.4,23.0,7.9,185.0,74.0,4.5,7,5,7,1,2026-06-04T03:21:41.374374+05:30
Ujjain,Madhya Pradesh,23.1765,75.7885,28.0,64,0.0,948.8,8.6,51.5,88,49.0,31.5,4.8,242.0,81.0,8.3,7,5,7,1,2026-06-04T03:21:41.374381+05:30
Visakhapatnam,Andhra Pradesh,17.6868,83.2185,29.4,82,0.0,998.1,8.8,37.1,87,34.1,27.6,20.8,404.0,93.0,37.0,7,5,7,1,2026-06-04T03:21:41.374388+05:30
Vijayawada,Andhra Pradesh,16.5062,80.648,30.0,63,0.0,997.6,8.7,41.4,83,22.4,19.7,8.6,253.0,80.0,3.9,7,5,7,1,2026-06-04T03:21:41.374395+05:30
Guntur,Andhra Pradesh,16.3067,80.4365,29.0,69,0.0,998.9,8.65,42.1,83,21.5,18.8,8.8,214.0,76.0,3.6,7,5,7,1,2026-06-04T03:21:41.374402+05:30
Nellore,Andhra Pradesh,14.4426,79.9865,28.4,71,0.0,1001.7,8.65,42.8,63,10.3,9.0,6.4,176.0,76.0,3.0,7,5,4,1,2026-06-04T03:21:41.374410+05:30
Kurnool,Andhra Pradesh,15.8281,78.0373,27.5,71,0.0,973.9,8.5,33.1,58,9.3,7.7,12.0,180.0,51.0,8.2,7,5,7,1,2026-06-04T03:21:41.374417+05:30
Kakinada,Andhra Pradesh,16.9891,82.2475,29.5,80,0.0,1002.0,8.9,44.3,86,29.6,22.0,2.6,250.0,139.0,4.5,7,5,4,1,2026-06-04T03:21:41.374424+05:30
Tirupati,Andhra Pradesh,13.6288,79.4192,27.9,69,0.0,987.3,8.9,32.0,59,11.8,11.1,14.7,179.0,46.0,2.1,7,5,7,1,2026-06-04T03:21:41.374431+05:30
Warangal,Telangana,17.9689,79.5941,30.6,54,0.0,973.8,9.1,39.6,89,42.5,35.0,18.3,306.0,55.0,5.9,0,5,7,1,2026-06-04T03:21:41.374437+05:30
Nizamabad,Telangana,18.6725,78.0941,28.2,65,0.1,961.0,9.05,33.1,72,39.9,30.2,15.2,178.0,66.0,5.2,10,5,7,1,2026-06-04T03:21:41.374444+05:30
Mysore,Karnataka,12.2958,76.6396,21.2,92,0.0,926.0,8.3,51.8,23,7.2,6.1,9.0,125.0,34.0,2.1,3,5,7,1,2026-06-04T03:21:41.374450+05:30
Mangalore,Karnataka,12.9141,74.856,24.6,96,0.2,1005.1,8.45,35.6,32,10.5,6.9,5.8,198.0,39.0,1.9,6,5,4,1,2026-06-04T03:21:41.374457+05:30
Hubli-Dharwad,Karnataka,15.3647,75.124,22.6,92,0.0,938.0,8.95,50.0,25,3.8,2.7,4.1,112.0,46.0,1.0,3,5,7,1,2026-06-04T03:21:41.374464+05:30
Belgaum,Karnataka,15.8497,74.4977,21.2,96,0.0,922.6,8.95,37.8,31,13.9,9.1,8.1,114.0,36.0,1.9,3,5,7,1,2026-06-04T03:21:44.616776+05:30
Coimbatore,Tamil Nadu,11.0168,76.9558,22.7,95,0.0,959.4,7.9,60.1,22,6.5,4.8,5.2,189.0,41.0,2.3,3,5,7,1,2026-06-04T03:21:44.616812+05:30
Madurai,Tamil Nadu,9.9252,78.1198,27.5,72,0.0,990.6,7.95,56.2,52,15.4,14.3,25.9,146.0,12.0,4.7,7,5,7,1,2026-06-04T03:21:44.616823+05:30
Trichy,Tamil Nadu,10.7905,78.7047,27.5,72,0.0,996.8,8.75,45.7,36,7.9,6.1,7.3,125.0,38.0,3.1,7,5,7,1,2026-06-04T03:21:44.616832+05:30
Salem,Tamil Nadu,11.6643,78.146,24.6,91,0.0,975.1,8.05,38.2,43,16.0,13.7,19.4,224.0,31.0,7.0,3,5,7,1,2026-06-04T03:21:44.616840+05:30
Tirunelveli,Tamil Nadu,8.7139,77.7567,28.0,70,0.0,1001.5,8.05,45.7,19,4.0,3.3,5.4,146.0,34.0,1.5,7,5,4,1,2026-06-04T03:21:44.616848+05:30
Vellore,Tamil Nadu,12.9165,79.1325,27.5,64,0.0,980.9,8.9,61.2,60,13.0,12.0,19.1,254.0,33.0,5.5,7,5,7,1,2026-06-04T03:21:44.616856+05:30
Erode,Tamil Nadu,11.341,77.7172,24.9,85,0.0,986.8,7.65,44.6,33,11.9,10.3,14.3,164.0,32.0,3.4,3,5,7,1,2026-06-04T03:21:44.616864+05:30
Kochi,Kerala,9.9312,76.2673,25.8,93,0.1,1007.7,7.85,37.4,43,12.6,10.9,16.2,175.0,20.0,3.3,10,5,4,1,2026-06-04T03:21:44.616871+05:30
Thiruvananthapuram,Kerala,8.5241,76.9366,23.9,98,0.4,1007.7,7.9,46.1,25,9.2,5.0,1.4,89.0,43.0,0.3,6,5,4,1,2026-06-04T03:21:44.616878+05:30
Kozhikode,Kerala,11.2588,75.7804,24.8,98,0.3,1006.7,7.7,27.4,25,6.1,3.2,1.5,342.0,54.0,0.5,6,5,4,1,2026-06-04T03:21:44.616885+05:30
Thrissur,Kerala,10.5276,76.2144,24.3,100,0.2,1006.0,3.45,30.2,45,11.2,9.6,11.0,186.0,28.0,2.8,6,5,0,1,2026-06-04T03:21:44.616893+05:30
Kannur,Kerala,11.8745,75.3704,25.1,96,0.5,1005.4,8.45,31.3,27,6.6,5.0,7.5,156.0,32.0,2.2,10,5,4,1,2026-06-04T03:21:44.616900+05:30
Patna,Bihar,25.5941,85.1376,28.8,75,0.0,994.0,8.75,24.5,157,74.0,65.0,35.1,727.0,42.0,13.1,7,5,7,1,2026-06-04T03:21:44.616907+05:30
Gaya,Bihar,24.7914,85.0002,28.8,63,0.0,987.8,8.7,28.8,152,69.8,61.0,14.5,652.0,94.0,18.0,7,5,7,1,2026-06-04T03:21:44.616914+05:30
Muzaffarpur,Bihar,26.1209,85.3647,28.1,76,0.0,994.0,8.85,18.4,161,75.4,66.4,35.2,861.0,46.0,12.3,7,5,7,1,2026-06-04T03:21:44.616920+05:30
Bhagalpur,Bihar,25.2425,87.0117,29.0,72,0.0,995.0,8.7,20.5,154,78.9,74.3,22.0,674.0,77.0,26.4,7,5,7,1,2026-06-04T03:21:44.616927+05:30
Ranchi,Jharkhand,23.3441,85.3096,24.6,77,0.0,933.0,9.25,26.6,150,89.4,67.3,21.8,331.0,65.0,5.5,3,5,7,1,2026-06-04T03:21:44.616934+05:30
Jamshedpur,Jharkhand,22.8046,86.2029,27.0,84,0.0,985.5,9.1,23.0,156,90.8,82.0,37.4,378.0,43.0,28.9,7,5,7,1,2026-06-04T03:21:44.616941+05:30
Dhanbad,Jharkhand,23.7957,86.4304,29.0,69,0.0,974.4,8.95,26.6,169,115.7,102.7,62.2,1176.0,40.0,191.1,7,5,7,1,2026-06-04T03:21:44.616948+05:30
Bokaro,Jharkhand,23.6693,86.1511,27.5,77,0.0,978.1,9.05,32.0,163,112.2,93.6,48.9,637.0,47.0,145.8,7,5,7,1,2026-06-04T03:21:44.616955+05:30
Bhubaneswar,Odisha,20.2961,85.8245,28.7,95,0.0,996.6,9.05,32.4,100,37.4,34.6,11.2,352.0,89.0,8.6,7,5,7,1,2026-06-04T03:21:44.616962+05:30
Cuttack,Odisha,20.4625,85.8828,28.6,95,0.0,998.4,9.15,28.1,100,37.4,34.6,11.2,449.0,89.0,8.6,7,5,7,1,2026-06-04T03:21:44.616969+05:30
Rourkela,Odisha,22.2604,84.8536,27.6,79,0.0,979.9,9.0,32.0,159,106.2,87.5,43.2,351.0,38.0,26.9,7,5,7,1,2026-06-04T03:21:44.616976+05:30
Raipur,Chhattisgarh,21.2514,81.6296,31.3,46,0.0,969.6,8.85,34.9,127,51.0,43.2,39.1,593.0,51.0,54.2,0,5,7,1,2026-06-04T03:21:44.616982+05:30
Bhilai,Chhattisgarh,21.1938,81.3509,30.1,49,0.0,969.8,8.6,38.2,119,44.9,37.8,31.5,618.0,55.0,43.4,0,5,7,1,2026-06-04T03:21:44.616990+05:30
Guwahati,Assam,26.1158,91.7086,24.0,96,0.1,997.5,8.8,34.9,109,29.7,28.2,7.5,445.0,88.0,3.8,6,5,7,1,2026-06-04T03:21:44.616997+05:30
Agartala,Tripura,23.8315,91.2868,27.2,91,0.0,1001.1,8.85,23.0,94,37.3,35.2,24.2,291.0,24.0,4.0,7,5,4,1,2026-06-04T03:21:44.617004+05:30
Shillong,Meghalaya,25.5788,91.8933,19.1,93,0.0,853.6,7.9,26.3,86,19.1,16.7,4.2,292.0,115.0,5.4,3,10,7,1,2026-06-04T03:21:44.617010+05:30
Imphal,Manipur,24.817,93.9368,21.5,96,0.0,919.3,9.25,27.4,86,36.8,32.8,13.9,539.0,36.0,2.2,3,5,7,1,2026-06-04T03:21:44.617016+05:30
Aizawl,Mizoram,23.7271,92.7176,19.3,96,0.0,888.3,9.05,28.1,69,21.4,16.6,4.9,252.0,49.0,2.0,3,10,7,1,2026-06-04T03:21:44.617023+05:30
Kohima,Nagaland,25.6701,94.1077,17.4,88,0.0,850.7,8.75,32.4,81,19.8,16.9,6.9,270.0,47.0,1.1,3,10,7,0,2026-06-04T03:21:44.617030+05:30
Gangtok,Sikkim,27.3314,88.6138,16.3,92,0.4,833.8,9.2,37.8,92,21.0,17.4,6.8,396.0,121.0,2.1,6,10,7,0,2026-06-04T03:21:44.617037+05:30
Siliguri,West Bengal,26.7271,88.3953,25.5,88,0.0,987.6,8.8,21.6,135,58.8,47.7,12.7,506.0,111.0,5.4,7,5,7,1,2026-06-04T03:21:47.874263+05:30
Durgapur,West Bengal,23.5204,87.3119,28.0,92,0.0,989.2,9.0,28.1,167,85.9,83.1,32.8,881.0,63.0,49.1,7,5,7,1,2026-06-04T03:21:47.874300+05:30
Asansol,West Bengal,23.6739,86.9524,27.9,84,0.0,987.8,8.85,24.5,165,81.5,75.7,39.9,571.0,56.0,70.6,7,5,7,1,2026-06-04T03:21:47.874311+05:30
Pondicherry,Puducherry,11.9139,79.8145,28.4,75,0.0,1004.3,8.3,32.8,59,14.6,12.7,14.1,382.0,57.0,6.4,7,5,4,1,2026-06-04T03:21:47.874321+05:30
Port Blair,Andaman and Nicobar Islands,11.6234,92.7265,24.4,98,0.3,1004.4,1.45,43.9,32,10.6,6.1,0.2,105.0,69.0,0.6,6,5,0,1,2026-06-04T03:21:47.874329+05:30
Haridwar,Uttarakhand,29.9457,78.1642,25.7,74,0.0,968.0,7.6,42.5,93,38.8,36.1,33.3,295.0,32.0,4.8,7,5,7,1,2026-06-04T03:21:47.874337+05:30
Rishikesh,Uttarakhand,30.0869,78.2676,22.8,83,0.0,960.7,7.7,34.2,70,27.4,22.7,19.8,367.0,70.0,3.1,3,5,7,1,2026-06-04T03:21:47.874345+05:30
Nainital,Uttarakhand,29.3919,79.4542,13.7,87,0.0,801.1,6.95,27.7,109,58.4,43.5,27.4,313.0,52.0,2.9,3,10,7,0,2026-06-04T03:21:47.874353+05:30
Mussoorie,Uttarakhand,30.4599,78.0664,15.5,78,0.0,799.5,6.45,32.0,78,39.3,36.3,43.3,286.0,32.0,5.8,3,5,7,0,2026-06-04T03:21:47.874361+05:30
Dharamshala,Himachal Pradesh,32.219,76.3234,21.1,71,0.0,864.9,7.8,40.0,52,13.3,6.6,9.9,291.0,74.0,0.0,3,5,7,0,2026-06-04T03:21:47.874369+05:30
Dalhousie,Himachal Pradesh,32.5387,75.971,14.1,87,0.0,799.5,6.8,46.8,80,34.3,21.5,21.2,324.0,62.0,1.5,3,10,7,0,2026-06-04T03:21:47.874376+05:30
Patiala,Punjab,30.3398,76.3869,27.1,68,0.0,971.7,7.7,68.0,150,139.2,81.7,36.0,671.0,38.0,11.8,7,5,7,1,2026-06-04T03:21:47.874384+05:30
Bhatinda,Punjab,30.211,74.9455,29.6,51,0.0,976.4,8.35,67.3,154,95.5,60.5,28.8,539.0,80.0,13.7,4,5,7,1,2026-06-04T03:21:47.874391+05:30
Rohtak,Haryana,28.8955,76.6066,28.4,64,0.0,975.1,7.8,57.6,159,151.8,81.0,54.8,609.0,42.0,27.0,7,5,7,1,2026-06-04T03:21:47.874398+05:30
Panipat,Haryana,29.3909,76.9635,27.3,70,0.0,973.7,7.7,47.5,167,294.3,127.1,90.5,606.0,12.0,26.9,7,5,7,1,2026-06-04T03:21:47.874404+05:30
Mathura,Uttar Pradesh,27.4924,77.6737,28.0,64,0.0,979.9,8.1,75.6,150,227.7,71.0,22.1,440.0,66.0,10.7,7,5,7,1,2026-06-04T03:21:47.874411+05:30
Vrindavan,Uttar Pradesh,27.5823,77.7027,28.1,63,0.0,980.3,8.05,71.3,150,227.7,71.0,22.1,424.0,66.0,10.7,7,5,7,1,2026-06-04T03:21:47.874418+05:30
Ayodhya,Uttar Pradesh,26.7922,82.1998,27.5,76,0.0,988.8,8.05,19.1,119,88.7,72.6,64.5,824.0,8.0,12.0,7,5,7,1,2026-06-04T03:21:47.874425+05:30
Ratlam,Madhya Pradesh,23.3315,75.0367,27.0,74,0.0,950.0,8.5,45.7,88,42.1,28.9,6.2,174.0,73.0,12.7,7,5,7,1,2026-06-04T03:21:47.874431+05:30
Sagar,Madhya Pradesh,23.8388,78.7378,27.5,58,0.0,944.6,8.35,63.7,74,42.0,24.2,8.8,218.0,68.0,3.5,4,5,7,1,2026-06-04T03:21:47.874438+05:30
Satna,Madhya Pradesh,24.6005,80.8322,27.1,70,0.0,965.6,6.8,26.6,85,47.4,33.5,38.3,344.0,24.0,4.6,7,5,7,1,2026-06-04T03:21:47.874445+05:30
Akola,Maharashtra,20.7002,77.0082,30.6,58,0.0,970.3,6.65,38.5,70,36.7,24.7,10.5,179.0,72.0,9.1,0,5,7,1,2026-06-04T03:21:47.874454+05:30
Amravati,Maharashtra,20.9374,77.7796,31.4,45,0.0,962.4,8.45,37.8,69,42.1,26.5,15.1,208.0,57.0,7.0,0,5,7,1,2026-06-04T03:21:47.874462+05:30
Latur,Maharashtra,18.4088,76.5604,27.0,67,0.0,936.2,8.8,35.6,67,14.9,10.4,6.7,160.0,56.0,2.9,7,5,7,1,2026-06-04T03:21:47.874470+05:30
Nanded,Maharashtra,19.1383,77.3091,30.2,54,0.0,964.4,6.25,36.7,75,51.1,30.6,11.8,181.0,72.0,6.7,0,5,7,1,2026-06-04T03:21:47.874477+05:30
Gulbarga,Karnataka,17.3297,76.8343,26.6,72,0.0,955.6,9.0,32.0,61,11.9,8.9,7.5,203.0,51.0,2.9,7,5,7,1,2026-06-04T03:21:47.874483+05:30
Bidar,Karnataka,17.9104,77.5199,26.4,70,0.0,932.3,9.05,36.4,75,27.2,18.5,12.8,205.0,61.0,3.9,7,5,7,1,2026-06-04T03:21:47.874490+05:30
Hospet,Karnataka,15.2689,76.3909,23.9,87,0.0,953.2,8.95,41.8,28,5.5,4.2,6.8,179.0,42.0,1.6,3,5,7,1,2026-06-04T03:21:47.874497+05:30
Tirupur,Tamil Nadu,11.1085,77.3411,23.6,91,0.0,972.8,7.85,53.6,36,14.0,12.3,17.3,153.0,28.0,4.0,3,5,7,1,2026-06-04T03:21:47.874503+05:30
Alappuzha,Kerala,9.4981,76.3388,26.0,94,0.3,1007.8,7.3,40.3,29,7.5,5.0,5.7,89.0,44.0,1.5,10,5,4,1,2026-06-04T03:21:47.874510+05:30
Munnar,Kerala,10.0889,77.0595,17.2,100,0.3,855.0,8.2,42.1,20,3.6,2.9,5.0,95.0,33.0,1.5,6,10,7,1,2026-06-04T03:21:47.874517+05:30
Silchar,Assam,24.8333,92.7789,25.5,98,0.0,1001.1,8.95,25.9,97,40.5,35.6,14.5,335.0,62.0,4.5,7,5,4,1,2026-06-04T03:21:47.874524+05:30
Dibrugarh,Assam,27.4728,94.912,23.6,97,0.2,991.2,8.8,27.4,71,25.6,22.4,12.7,289.0,62.0,1.7,6,5,7,1,2026-06-04T03:21:47.874531+05:30
