city,state,latitude,longitude,temp,humidity,rain,pressure,uv_index,wind_gusts,aqi,pm10,pm2_5,no2,co,o3,so2,mosquito_risk,arthritis_risk,migraine_risk,frizz_risk,updated_at
Delhi,Delhi,28.6139,77.209,25.3,57,0.0,983.2,7.55,34.2,200,130.4,58.4,28.3,518.0,77.0,21.3,4,5,7,1,2026-05-09T02:34:44.983667+05:30
Mumbai,Maharashtra,19.076,72.8777,28.0,83,0.0,1006.3,7.85,47.9,88,47.4,21.2,16.0,414.0,68.0,16.1,7,5,4,1,2026-05-09T02:34:44.983714+05:30
Bangalore,Karnataka,12.9716,77.5946,22.0,84,0.0,909.6,9.35,37.4,47,15.9,15.8,14.6,199.0,56.0,11.0,3,5,7,1,2026-05-09T02:34:44.983730+05:30
Hyderabad,Telangana,17.385,78.4867,26.1,69,0.0,953.1,9.15,32.4,51,13.9,12.7,10.8,276.0,58.0,6.1,7,5,7,1,2026-05-09T02:34:44.983742+05:30
Chennai,Tamil Nadu,13.0827,80.2707,27.9,78,0.0,1005.1,7.9,43.9,17,4.7,3.8,6.0,116.0,38.0,2.3,7,5,4,1,2026-05-09T02:34:44.983751+05:30
Kolkata,West Bengal,22.5726,88.3639,25.6,92,0.0,1006.9,8.9,51.1,140,69.2,65.2,19.6,622.0,85.0,20.4,7,5,4,1,2026-05-09T02:34:44.983760+05:30
Pune,Maharashtra,18.5204,73.8567,27.2,57,0.0,946.4,8.5,36.4,102,53.8,32.7,28.5,285.0,51.0,19.3,4,5,7,1,2026-05-09T02:34:44.983774+05:30
Ahmedabad,Gujarat,23.0225,72.5714,31.0,39,0.0,1000.6,8.1,33.8,75,28.4,18.7,13.0,182.0,56.0,6.0,0,5,4,0,2026-05-09T02:34:44.983804+05:30
Jaipur,Rajasthan,26.9124,75.7873,25.5,46,0.0,958.8,8.15,32.8,170,506.6,88.0,6.0,313.0,108.0,10.0,4,5,7,0,2026-05-09T02:34:44.983813+05:30
Lucknow,Uttar Pradesh,26.8467,80.9462,23.5,67,0.0,994.0,8.05,33.8,95,48.4,28.5,10.3,371.0,102.0,8.0,3,5,7,1,2026-05-09T02:34:44.983821+05:30
Kanpur,Uttar Pradesh,26.4499,80.3319,24.5,62,0.0,991.9,8.05,33.8,143,294.3,49.9,7.3,338.0,108.0,7.4,3,5,7,1,2026-05-09T02:34:44.983829+05:30
Chandigarh,Chandigarh,30.7333,76.7794,20.0,78,0.0,968.8,7.6,29.2,93,36.4,25.1,30.3,608.0,34.0,3.2,3,5,7,0,2026-05-09T02:34:44.983837+05:30
Srinagar,Jammu and Kashmir,34.0837,74.7973,9.5,80,0.0,839.4,8.9,18.0,81,70.8,41.6,25.4,256.0,42.0,3.5,3,5,7,0,2026-05-09T02:34:44.983845+05:30
Jammu,Jammu and Kashmir,32.7266,74.857,22.2,65,0.0,972.6,8.45,29.2,118,109.9,58.4,29.8,390.0,44.0,6.1,3,5,7,0,2026-05-09T02:34:44.983852+05:30
Amritsar,Punjab,31.634,74.8723,23.6,61,0.0,980.9,8.3,24.5,143,110.4,53.2,6.8,546.0,101.0,14.9,3,5,7,0,2026-05-09T02:34:44.983859+05:30
Ludhiana,Punjab,30.901,75.8573,22.9,66,0.0,978.9,7.9,39.2,151,72.6,51.3,17.1,549.0,57.0,13.4,3,5,7,1,2026-05-09T02:34:44.983866+05:30
Jalandhar,Punjab,31.326,75.5762,22.4,68,0.0,979.9,8.05,29.2,144,86.6,52.3,13.5,489.0,80.0,16.4,3,5,7,1,2026-05-09T02:34:44.983873+05:30
Dehradun,Uttarakhand,30.6284,78.0322,9.7,95,0.0,827.6,8.0,31.0,54,26.3,12.0,24.9,236.0,29.0,0.2,3,10,7,0,2026-05-09T02:34:44.983882+05:30
Shimla,Himachal Pradesh,31.1048,77.1734,7.9,87,0.0,780.6,8.05,38.9,63,27.6,17.5,22.1,286.0,50.0,0.3,3,10,7,0,2026-05-09T02:34:44.983890+05:30
Manali,Himachal Pradesh,32.2396,77.1887,7.3,55,0.0,812.4,9.5,40.0,71,31.2,8.5,20.1,238.0,115.0,0.6,0,5,7,1,2026-05-09T02:34:44.983897+05:30
Gurgaon,Haryana,28.4595,77.0266,24.6,59,0.0,981.3,7.65,37.8,1465,312.0,73.6,18.2,513.0,91.0,17.5,0,5,7,1,2026-05-09T02:34:44.983905+05:30
Noida,Uttar Pradesh,28.5355,77.391,22.2,71,0.0,984.5,7.6,22.0,1465,312.0,73.6,18.2,453.0,91.0,17.5,3,5,7,1,2026-05-09T02:34:44.983912+05:30
Ghaziabad,Uttar Pradesh,28.6692,77.4538,23.0,67,0.0,982.9,7.55,25.2,139,94.5,49.1,15.0,414.0,77.0,12.5,3,5,7,1,2026-05-09T02:34:44.983919+05:30
Faridabad,Haryana,28.4089,77.3178,24.0,63,0.0,983.9,7.6,29.2,1465,312.0,73.6,18.2,473.0,91.0,17.5,3,5,7,1,2026-05-09T02:34:44.983926+05:30
Meerut,Uttar Pradesh,28.9845,77.7064,22.3,74,0.0,981.8,7.45,25.6,139,94.5,49.1,15.0,429.0,77.0,12.5,3,5,7,1,2026-05-09T02:34:44.983933+05:30
Agra,Uttar Pradesh,27.1767,78.0081,23.7,65,0.0,987.6,7.9,22.3,1054,886.6,119.2,7.0,379.0,104.0,11.9,3,5,7,1,2026-05-09T02:34:44.983939+05:30
Varanasi,Uttar Pradesh,25.3176,82.9739,24.1,77,0.0,997.9,8.55,40.7,102,57.2,42.4,10.1,425.0,122.0,15.3,3,5,7,1,2026-05-09T02:34:44.983946+05:30
Prayagraj,Uttar Pradesh,25.4358,81.8463,25.4,66,0.0,995.9,8.45,35.3,98,53.2,39.7,11.4,438.0,114.0,13.2,7,5,7,1,2026-05-09T02:34:44.983956+05:30
Gorakhpur,Uttar Pradesh,26.7606,83.3732,22.6,79,0.0,998.6,8.05,45.7,98,44.9,36.0,10.6,493.0,101.0,7.3,3,5,7,1,2026-05-09T02:34:44.983963+05:30
Bareilly,Uttar Pradesh,28.367,79.4304,22.0,70,0.0,987.5,7.5,28.4,94,49.4,33.3,14.8,333.0,82.0,4.7,3,5,7,1,2026-05-09T02:34:44.983970+05:30
Aligarh,Uttar Pradesh,27.8974,78.088,23.0,67,0.0,985.7,7.7,26.3,620,280.3,68.0,10.9,358.0,86.0,17.1,3,5,7,1,2026-05-09T02:34:44.983977+05:30
Moradabad,Uttar Pradesh,28.8386,78.7733,21.8,76,0.0,984.5,7.35,28.1,98,73.3,52.2,29.2,390.0,55.0,7.6,3,5,7,1,2026-05-09T02:34:44.983984+05:30
Saharanpur,Uttar Pradesh,29.9637,77.546,21.7,72,0.0,976.0,7.3,28.1,111,67.5,52.9,43.8,478.0,10.0,7.8,3,5,7,1,2026-05-09T02:34:44.983990+05:30
Jhansi,Uttar Pradesh,25.4484,78.5685,24.9,54,0.0,976.4,8.3,27.7,68,46.8,29.2,6.6,350.0,87.0,10.8,0,5,7,0,2026-05-09T02:34:48.365110+05:30
Surat,Gujarat,21.1702,72.8311,30.8,48,0.0,1004.0,7.7,34.2,103,31.1,19.7,21.1,194.0,55.0,34.0,0,5,4,1,2026-05-09T02:34:48.365143+05:30
Vadodara,Gujarat,22.3072,73.1812,30.4,43,0.0,1002.0,8.05,32.0,82,31.1,19.8,12.3,240.0,65.0,11.5,0,5,4,1,2026-05-09T02:34:48.365153+05:30
Rajkot,Gujarat,22.3039,70.8022,25.6,84,0.0,993.5,7.7,38.9,54,31.4,11.4,6.3,183.0,57.0,5.8,7,5,7,1,2026-05-09T02:34:48.365162+05:30
Thane,Maharashtra,19.2183,72.9781,27.4,84,0.0,1005.6,7.9,48.2,88,47.4,21.2,16.0,336.0,68.0,16.1,7,5,4,1,2026-05-09T02:34:48.365169+05:30
Nagpur,Maharashtra,21.1458,79.0882,29.1,40,0.0,972.3,8.9,47.2,129,74.3,55.9,37.9,269.0,52.0,20.2,4,5,7,0,2026-05-09T02:34:48.365177+05:30
Nashik,Maharashtra,19.9975,73.7898,26.9,35,0.0,943.6,8.2,49.3,83,72.6,31.8,25.0,309.0,74.0,12.9,4,5,7,0,2026-05-09T02:34:48.365185+05:30
Aurangabad,Maharashtra,19.8762,75.3433,29.5,27,0.0,943.1,9.05,35.3,97,72.2,48.0,33.6,292.0,57.0,11.6,4,5,7,0,2026-05-09T02:34:48.365193+05:30
Solapur,Maharashtra,17.6599,75.9064,28.9,47,0.0,955.6,8.85,32.0,86,17.9,16.2,9.5,293.0,83.0,6.8,4,5,7,1,2026-05-09T02:34:48.365200+05:30
Kolhapur,Maharashtra,16.705,74.2433,26.2,76,0.0,945.5,8.95,45.0,151,90.6,69.4,28.1,384.0,43.0,7.9,7,5,7,1,2026-05-09T02:34:48.365207+05:30
Goa,Goa,15.2993,74.124,27.0,91,0.0,994.7,8.65,49.7,111,71.7,49.1,15.9,365.0,56.0,4.8,7,5,7,1,2026-05-09T02:34:48.365215+05:30
Jodhpur,Rajasthan,26.2389,73.0243,31.4,18,0.0,980.9,8.35,34.6,111,76.8,26.1,7.8,222.0,70.0,4.1,0,5,7,0,2026-05-09T02:34:48.365222+05:30
Udaipur,Rajasthan,24.5854,73.7125,28.8,18,0.0,944.9,8.8,41.8,52,36.8,11.6,2.9,179.0,90.0,1.9,4,5,7,0,2026-05-09T02:34:48.365230+05:30
Kota,Rajasthan,25.2138,75.8648,26.8,37,0.0,976.7,8.35,39.2,71,81.7,27.7,9.8,369.0,49.0,3.9,4,5,7,0,2026-05-09T02:34:48.365238+05:30
Bikaner,Rajasthan,28.0229,73.3119,28.4,38,0.0,980.4,8.3,24.8,101,221.2,53.9,2.5,277.0,112.0,6.2,4,5,7,0,2026-05-09T02:34:48.365245+05:30
Ajmer,Rajasthan,26.4499,74.6399,25.1,37,0.0,952.7,8.3,41.0,66,164.8,40.9,5.7,292.0,93.0,6.4,4,5,7,0,2026-05-09T02:34:48.365252+05:30
Gwalior,Madhya Pradesh,26.2183,78.1828,23.9,61,0.0,982.1,8.1,25.6,88,187.7,55.1,3.8,288.0,119.0,7.1,3,5,7,0,2026-05-09T02:34:48.365260+05:30
Indore,Madhya Pradesh,22.7196,75.8577,30.8,19,0.0,946.9,8.65,42.8,85,56.0,39.2,21.8,634.0,59.0,8.8,0,5,7,0,2026-05-09T02:34:48.365267+05:30
Bhopal,Madhya Pradesh,23.2599,77.4126,27.8,31,0.0,951.9,8.5,55.8,78,44.8,26.4,6.0,292.0,95.0,5.4,4,5,7,0,2026-05-09T02:34:48.365274+05:30
Jabalpur,Madhya Pradesh,23.1815,79.9864,27.5,37,0.0,959.7,8.7,50.8,72,42.1,26.6,13.6,223.0,81.0,4.5,4,5,7,0,2026-05-09T02:34:48.365281+05:30
Ujjain,Madhya Pradesh,23.1765,75.7885,28.3,23,0.0,952.4,8.55,41.8,87,35.9,25.4,6.6,366.0,84.0,6.1,4,5,7,0,2026-05-09T02:34:48.365289+05:30
Visakhapatnam,Andhra Pradesh,17.6868,83.2185,25.5,95,0.0,1003.6,9.15,34.6,60,27.6,25.0,19.7,1559.0,29.0,6.5,7,5,4,1,2026-05-09T02:34:48.365296+05:30
Vijayawada,Andhra Pradesh,16.5062,80.648,26.8,88,0.0,1002.1,9.2,38.9,38,12.1,10.8,9.3,165.0,28.0,4.5,7,5,4,1,2026-05-09T02:34:48.365304+05:30
Guntur,Andhra Pradesh,16.3067,80.4365,26.9,86,0.0,1003.2,9.25,38.2,38,10.5,9.4,10.8,187.0,27.0,7.3,7,5,4,1,2026-05-09T02:34:48.365311+05:30
Nellore,Andhra Pradesh,14.4426,79.9865,26.6,86,0.0,1004.6,9.2,40.3,18,4.8,3.4,3.4,144.0,37.0,2.2,7,5,4,1,2026-05-09T02:34:48.365319+05:30
Kurnool,Andhra Pradesh,15.8281,78.0373,27.2,68,0.0,976.2,9.2,42.5,35,5.2,4.0,4.4,140.0,42.0,1.4,7,5,7,1,2026-05-09T02:34:48.365327+05:30
Kakinada,Andhra Pradesh,16.9891,82.2475,25.1,98,0.0,1007.1,9.15,37.1,23,7.6,5.0,1.0,229.0,53.0,0.4,7,5,4,1,2026-05-09T02:34:48.365334+05:30
Tirupati,Andhra Pradesh,13.6288,79.4192,25.7,83,0.0,989.8,9.1,55.8,21,10.2,9.4,16.9,162.0,15.0,3.1,7,5,7,1,2026-05-09T02:34:48.365340+05:30
Warangal,Telangana,17.9689,79.5941,26.8,70,0.0,978.4,9.15,33.5,56,15.4,14.3,11.1,257.0,56.0,8.4,7,5,7,1,2026-05-09T02:34:48.365347+05:30
Nizamabad,Telangana,18.6725,78.0941,27.4,56,0.0,964.1,9.1,34.2,79,21.2,19.5,9.9,259.0,77.0,4.1,4,5,7,1,2026-05-09T02:34:48.365354+05:30
Mysore,Karnataka,12.2958,76.6396,23.6,82,0.0,926.3,9.1,32.0,62,12.1,11.8,11.4,225.0,57.0,6.2,3,5,7,1,2026-05-09T02:34:48.365362+05:30
Mangalore,Karnataka,12.9141,74.856,25.5,97,0.2,1004.4,9.0,35.3,90,49.2,37.1,11.4,213.0,74.0,4.1,10,5,4,1,2026-05-09T02:34:48.365369+05:30
Hubli-Dharwad,Karnataka,15.3647,75.124,27.5,45,0.0,939.0,9.2,41.0,81,51.2,43.5,39.4,248.0,24.0,6.2,4,5,7,0,2026-05-09T02:34:48.365376+05:30
Belgaum,Karnataka,15.8497,74.4977,24.5,67,0.0,923.6,9.2,39.2,109,70.5,50.8,23.7,312.0,55.0,6.0,3,5,7,1,2026-05-09T02:34:51.727208+05:30
Coimbatore,Tamil Nadu,11.0168,76.9558,24.4,94,0.1,959.4,8.45,25.2,59,20.5,20.1,16.5,211.0,48.0,5.9,6,5,7,1,2026-05-09T02:34:51.727240+05:30
Madurai,Tamil Nadu,9.9252,78.1198,26.2,87,0.0,990.5,3.1,31.7,63,35.4,35.2,43.9,222.0,8.0,10.0,7,5,3,1,2026-05-09T02:34:51.727250+05:30
Trichy,Tamil Nadu,10.7905,78.7047,26.6,83,0.0,997.2,4.05,31.3,45,17.8,16.8,30.0,254.0,5.0,16.4,7,5,3,1,2026-05-09T02:34:51.727259+05:30
Salem,Tamil Nadu,11.6643,78.146,25.3,92,0.0,975.2,3.8,32.4,53,16.8,16.1,23.8,392.0,27.0,11.9,7,5,3,1,2026-05-09T02:34:51.727267+05:30
Tirunelveli,Tamil Nadu,8.7139,77.7567,25.1,94,0.0,1000.6,7.1,42.1,43,12.5,12.4,10.8,178.0,52.0,4.7,7,5,4,1,2026-05-09T02:34:51.727275+05:30
Vellore,Tamil Nadu,12.9165,79.1325,25.6,84,0.0,982.9,8.6,50.4,46,19.0,17.5,22.8,227.0,17.0,10.5,7,5,7,1,2026-05-09T02:34:51.727283+05:30
Erode,Tamil Nadu,11.341,77.7172,25.3,97,0.0,986.9,8.3,34.9,56,15.0,14.7,19.6,313.0,32.0,13.3,7,5,7,1,2026-05-09T02:34:51.727291+05:30
Kochi,Kerala,9.9312,76.2673,25.6,94,0.0,1005.5,7.7,24.1,65,15.5,15.3,10.0,321.0,51.0,3.4,7,5,4,1,2026-05-09T02:34:51.727298+05:30
Thiruvananthapuram,Kerala,8.5241,76.9366,24.9,98,0.0,1004.8,3.95,28.1,49,8.6,7.8,4.8,566.0,92.0,3.5,3,5,0,1,2026-05-09T02:34:51.727306+05:30
Kozhikode,Kerala,11.2588,75.7804,26.0,96,0.0,1005.1,8.9,28.1,70,23.5,17.5,2.7,436.0,114.0,2.7,7,5,4,1,2026-05-09T02:34:51.727312+05:30
Thrissur,Kerala,10.5276,76.2144,25.0,96,0.0,1004.1,8.6,28.4,70,19.1,18.6,11.4,537.0,52.0,3.0,7,5,4,1,2026-05-09T02:34:51.727321+05:30
Kannur,Kerala,11.8745,75.3704,25.9,96,0.0,1004.5,8.3,30.6,83,29.3,22.4,6.8,232.0,89.0,2.5,7,5,4,1,2026-05-09T02:34:51.727328+05:30
Patna,Bihar,25.5941,85.1376,23.0,82,0.0,1001.8,8.65,32.0,142,63.6,59.1,14.7,518.0,94.0,14.4,3,5,4,1,2026-05-09T02:34:51.727335+05:30
Gaya,Bihar,24.7914,85.0002,22.8,79,0.0,994.4,8.75,29.5,131,56.6,51.1,11.1,420.0,116.0,23.4,3,5,7,1,2026-05-09T02:34:51.727342+05:30
Muzaffarpur,Bihar,26.1209,85.3647,22.5,81,0.0,1002.1,8.65,32.8,151,73.6,68.0,17.4,521.0,82.0,14.1,3,5,4,1,2026-05-09T02:34:51.727348+05:30
Bhagalpur,Bihar,25.2425,87.0117,22.9,88,0.0,1003.0,8.7,34.9,151,73.8,63.1,20.7,480.0,79.0,11.7,3,5,4,1,2026-05-09T02:34:51.727355+05:30
Ranchi,Jharkhand,23.3441,85.3096,21.1,79,0.0,937.5,8.95,52.2,107,45.8,36.2,12.0,328.0,93.0,14.9,3,5,7,1,2026-05-09T02:34:51.727362+05:30
Jamshedpur,Jharkhand,22.8046,86.2029,23.0,95,0.0,991.8,9.05,30.2,99,44.9,36.7,18.2,365.0,80.0,19.2,3,5,7,1,2026-05-09T02:34:51.727368+05:30
Dhanbad,Jharkhand,23.7957,86.4304,22.1,91,0.0,981.0,8.8,49.0,160,100.1,94.8,69.4,468.0,27.0,80.7,3,5,7,1,2026-05-09T02:34:51.727375+05:30
Bokaro,Jharkhand,23.6693,86.1511,21.1,99,0.0,984.9,8.8,50.4,157,101.3,92.9,66.0,1512.0,32.0,79.2,3,5,7,1,2026-05-09T02:34:51.727382+05:30
Bhubaneswar,Odisha,20.2961,85.8245,25.8,97,0.0,1003.3,9.1,31.0,40,17.5,15.1,12.5,235.0,30.0,3.5,7,5,4,1,2026-05-09T02:34:51.727388+05:30
Cuttack,Odisha,20.4625,85.8828,25.6,97,0.0,1005.2,9.15,29.2,40,17.5,15.1,12.5,254.0,30.0,3.5,7,5,4,1,2026-05-09T02:34:51.727395+05:30
Rourkela,Odisha,22.2604,84.8536,22.4,94,0.0,985.5,8.7,51.8,101,51.2,44.6,24.8,648.0,52.0,37.8,3,5,7,1,2026-05-09T02:34:51.727402+05:30
Raipur,Chhattisgarh,21.2514,81.6296,27.4,50,0.0,973.9,8.95,50.8,136,87.8,77.1,56.6,314.0,24.0,13.4,4,5,7,1,2026-05-09T02:34:51.727409+05:30
Bhilai,Chhattisgarh,21.1938,81.3509,27.2,51,0.0,974.4,8.95,55.4,118,99.7,84.3,67.5,293.0,15.0,13.8,4,5,7,1,2026-05-09T02:34:51.727415+05:30
Guwahati,Assam,26.1158,91.7086,21.5,87,0.0,1003.2,8.65,25.9,109,54.2,47.3,24.6,321.0,23.0,2.6,3,5,4,1,2026-05-09T02:34:51.727422+05:30
Agartala,Tripura,23.8315,91.2868,23.4,85,0.0,1007.2,8.75,19.8,160,125.7,116.9,83.4,521.0,19.0,8.5,3,5,4,1,2026-05-09T02:34:51.727429+05:30
Shillong,Meghalaya,25.5788,91.8933,15.6,87,0.0,857.4,8.4,19.8,82,27.1,23.0,11.7,304.0,51.0,1.1,3,10,7,0,2026-05-09T02:34:51.727436+05:30
Imphal,Manipur,24.817,93.9368,17.0,85,0.0,923.6,9.05,25.9,98,59.5,53.2,28.0,396.0,26.0,5.5,3,10,7,0,2026-05-09T02:34:51.727443+05:30
Aizawl,Mizoram,23.7271,92.7176,15.6,90,0.0,891.9,8.75,24.5,82,41.2,35.0,18.0,387.0,20.0,1.4,3,10,7,0,2026-05-09T02:34:51.727450+05:30
Kohima,Nagaland,25.6701,94.1077,14.4,91,0.0,855.1,9.15,31.3,80,39.6,34.0,12.1,269.0,47.0,0.2,3,10,7,0,2026-05-09T02:34:51.727457+05:30
Gangtok,Sikkim,27.3314,88.6138,8.5,97,0.0,835.6,8.1,39.6,70,24.5,19.0,15.6,151.0,48.0,0.3,3,10,7,0,2026-05-09T02:34:51.727464+05:30
Siliguri,West Bengal,26.7271,88.3953,21.9,75,0.0,994.9,8.55,22.7,120,63.1,56.5,45.3,778.0,19.0,3.2,3,5,7,1,2026-05-09T02:34:55.093687+05:30
Durgapur,West Bengal,23.5204,87.3119,24.1,94,0.0,996.3,8.9,34.9,157,96.4,92.2,51.7,440.0,40.0,53.4,3,5,7,1,2026-05-09T02:34:55.093721+05:30
Asansol,West Bengal,23.6739,86.9524,22.5,95,0.0,994.7,8.95,42.5,155,84.8,80.8,51.3,963.0,37.0,65.9,3,5,7,1,2026-05-09T02:34:55.093732+05:30
Pondicherry,Puducherry,11.9139,79.8145,26.5,88,0.0,1006.2,5.75,36.4,19,3.2,2.3,2.3,171.0,46.0,0.3,7,5,0,1,2026-05-09T02:34:55.093741+05:30
Port Blair,Andaman and Nicobar Islands,11.6234,92.7265,25.5,94,0.1,1005.3,9.05,38.5,28,3.0,2.2,0.2,126.0,59.0,0.0,10,5,4,1,2026-05-09T02:34:55.093749+05:30
Haridwar,Uttarakhand,29.9457,78.1642,20.0,78,0.0,974.3,7.2,25.9,92,37.5,32.1,38.6,307.0,8.0,3.7,3,5,7,0,2026-05-09T02:34:55.093757+05:30
Rishikesh,Uttarakhand,30.0869,78.2676,17.5,86,0.0,966.8,7.35,30.6,72,25.4,18.5,19.1,354.0,33.0,0.7,3,10,7,0,2026-05-09T02:34:55.093764+05:30
Nainital,Uttarakhand,29.3919,79.4542,11.2,81,0.0,804.2,7.55,31.3,64,34.5,25.6,25.7,265.0,38.0,2.6,3,10,7,0,2026-05-09T02:34:55.093771+05:30
Mussoorie,Uttarakhand,30.4599,78.0664,11.7,79,0.0,801.5,7.85,41.4,87,35.9,27.9,42.8,225.0,15.0,5.8,3,5,7,0,2026-05-09T02:34:55.093779+05:30
Dharamshala,Himachal Pradesh,32.219,76.3234,16.9,69,0.0,868.2,8.25,38.9,64,28.4,12.4,10.1,248.0,65.0,0.5,3,5,7,0,2026-05-09T02:34:55.093787+05:30
Dalhousie,Himachal Pradesh,32.5387,75.971,7.6,98,0.0,799.8,8.5,34.6,99,53.3,33.3,27.3,362.0,38.0,1.9,3,10,7,0,2026-05-09T02:34:55.093794+05:30
Patiala,Punjab,30.3398,76.3869,22.5,68,0.0,978.4,7.5,27.0,350,85.0,51.9,22.9,354.0,57.0,8.9,3,5,7,1,2026-05-09T02:34:55.093802+05:30
Bhatinda,Punjab,30.211,74.9455,25.0,55,0.0,983.6,8.2,26.6,577,306.4,78.0,7.0,333.0,101.0,10.6,4,5,7,0,2026-05-09T02:34:55.093809+05:30
Rohtak,Haryana,28.8955,76.6066,22.9,72,0.0,981.7,7.6,34.2,558,130.9,56.7,24.0,435.0,73.0,20.5,3,5,7,1,2026-05-09T02:34:55.093816+05:30
Panipat,Haryana,29.3909,76.9635,22.1,74,0.0,980.6,7.45,28.1,857,113.9,56.1,21.7,476.0,56.0,9.1,3,5,7,1,2026-05-09T02:34:55.093822+05:30
Mathura,Uttar Pradesh,27.4924,77.6737,23.8,63,0.0,986.8,7.85,24.1,1052,586.7,99.4,8.2,389.0,96.0,15.0,3,5,7,1,2026-05-09T02:34:55.093829+05:30
Vrindavan,Uttar Pradesh,27.5823,77.7027,24.0,62,0.0,987.3,7.8,24.5,1052,586.7,99.4,8.2,385.0,96.0,15.0,3,5,7,1,2026-05-09T02:34:55.093836+05:30
Ayodhya,Uttar Pradesh,26.7922,82.1998,22.7,75,0.0,996.4,8.15,36.4,93,49.7,38.0,13.0,439.0,98.0,7.9,3,5,7,1,2026-05-09T02:34:55.093843+05:30
Ratlam,Madhya Pradesh,23.3315,75.0367,26.6,25,0.0,953.1,8.5,41.0,72,27.7,16.3,3.2,200.0,102.0,5.6,4,5,7,0,2026-05-09T02:34:55.093850+05:30
Sagar,Madhya Pradesh,23.8388,78.7378,26.0,36,0.0,948.2,8.6,45.4,62,32.7,18.9,6.2,217.0,98.0,4.4,4,5,7,0,2026-05-09T02:34:55.093857+05:30
Satna,Madhya Pradesh,24.6005,80.8322,23.6,57,0.0,970.1,8.65,51.5,99,40.4,29.9,9.4,362.0,125.0,12.9,0,5,7,0,2026-05-09T02:34:55.093864+05:30
Akola,Maharashtra,20.7002,77.0082,29.8,32,0.0,973.4,8.85,46.4,84,42.7,30.4,18.5,326.0,70.0,4.8,4,5,7,0,2026-05-09T02:34:55.093871+05:30
Amravati,Maharashtra,20.9374,77.7796,29.5,39,0.0,966.2,8.85,41.4,88,49.5,34.8,23.8,327.0,61.0,6.8,4,5,7,0,2026-05-09T02:34:55.093879+05:30
Latur,Maharashtra,18.4088,76.5604,28.1,46,0.0,939.0,9.1,34.6,86,21.7,19.4,10.2,273.0,78.0,4.6,4,5,7,0,2026-05-09T02:34:55.093886+05:30
Nanded,Maharashtra,19.1383,77.3091,28.8,51,0.0,967.8,9.0,46.1,85,24.0,21.2,10.4,271.0,77.0,4.7,4,5,7,1,2026-05-09T02:34:55.093892+05:30
Gulbarga,Karnataka,17.3297,76.8343,28.0,51,0.0,958.0,9.0,38.5,59,16.2,14.6,9.2,246.0,83.0,5.6,4,5,7,1,2026-05-09T02:34:55.093899+05:30
Bidar,Karnataka,17.9104,77.5199,25.6,59,0.0,935.0,8.9,43.2,67,19.3,17.5,11.6,256.0,76.0,7.1,4,5,7,1,2026-05-09T02:34:55.093905+05:30
Hospet,Karnataka,15.2689,76.3909,26.1,62,0.0,954.4,9.25,33.1,52,11.1,9.8,11.2,184.0,54.0,7.6,7,5,7,1,2026-05-09T02:34:55.093912+05:30
Tirupur,Tamil Nadu,11.1085,77.3411,25.1,95,0.0,972.9,8.5,32.8,64,25.7,25.3,21.4,285.0,47.0,6.8,7,5,7,1,2026-05-09T02:34:55.093919+05:30
Alappuzha,Kerala,9.4981,76.3388,25.7,95,0.0,1005.4,6.45,31.0,63,25.6,24.9,15.7,225.0,72.0,6.2,7,5,4,1,2026-05-09T02:34:55.093926+05:30
Munnar,Kerala,10.0889,77.0595,17.5,94,0.0,853.3,4.1,21.6,43,19.0,18.8,9.6,194.0,42.0,3.0,3,10,3,1,2026-05-09T02:34:55.093933+05:30
Silchar,Assam,24.8333,92.7789,22.7,88,0.0,1006.3,8.5,15.5,127,67.5,61.2,26.4,623.0,13.0,4.3,3,5,4,1,2026-05-09T02:34:55.093940+05:30
Dibrugarh,Assam,27.4728,94.912,23.0,91,0.0,997.3,8.8,16.2,75,39.9,36.9,34.4,566.0,1.0,1.1,3,5,7,1,2026-05-09T02:34:55.093947+05:30
