city,state,latitude,longitude,temp,humidity,rain,pressure,uv_index,wind_gusts,aqi,pm10,pm2_5,no2,co,o3,so2,mosquito_risk,arthritis_risk,migraine_risk,frizz_risk,updated_at
Delhi,Delhi,28.6139,77.209,34.5,19,0.0,977.9,7.75,46.8,685,443.3,101.7,28.1,403.0,55.0,12.5,0,5,7,0,2026-05-22T00:28:35.498508+05:30
Mumbai,Maharashtra,19.076,72.8777,29.9,77,0.0,1007.2,7.75,43.2,54,21.2,14.1,12.3,215.0,39.0,8.6,7,5,4,1,2026-05-22T00:28:35.498551+05:30
Bangalore,Karnataka,12.9716,77.5946,22.1,96,0.0,911.0,8.85,33.8,43,14.1,13.4,31.0,617.0,35.0,7.4,3,5,7,1,2026-05-22T00:28:35.498567+05:30
Hyderabad,Telangana,17.385,78.4867,32.0,44,0.0,950.5,8.45,34.9,101,58.9,45.9,28.2,572.0,73.0,12.3,0,5,7,1,2026-05-22T00:28:35.498577+05:30
Chennai,Tamil Nadu,13.0827,80.2707,31.8,73,0.0,1004.6,8.5,38.5,123,21.0,17.3,12.4,271.0,81.0,8.9,3,5,4,1,2026-05-22T00:28:35.498585+05:30
Kolkata,West Bengal,22.5726,88.3639,29.4,93,0.0,1001.7,8.95,31.0,117,43.9,36.1,6.9,409.0,74.0,5.9,7,5,4,1,2026-05-22T00:28:35.498592+05:30
Pune,Maharashtra,18.5204,73.8567,26.4,81,0.0,947.1,7.5,48.6,57,20.9,16.0,12.0,211.0,69.0,13.6,7,5,7,1,2026-05-22T00:28:35.498599+05:30
Ahmedabad,Gujarat,23.0225,72.5714,33.0,53,0.0,999.4,8.15,31.3,74,40.0,24.3,14.0,207.0,63.0,7.1,0,5,7,1,2026-05-22T00:28:35.498605+05:30
Jaipur,Rajasthan,26.9124,75.7873,32.5,20,0.0,957.0,8.25,45.7,178,231.4,51.5,11.5,224.0,62.0,5.9,0,5,7,0,2026-05-22T00:28:35.498620+05:30
Lucknow,Uttar Pradesh,26.8467,80.9462,34.2,29,0.0,987.9,8.25,38.9,230,493.6,123.9,23.9,313.0,55.0,10.7,0,5,7,0,2026-05-22T00:28:35.498627+05:30
Kanpur,Uttar Pradesh,26.4499,80.3319,34.5,26,0.0,986.4,8.25,47.2,416,357.6,78.5,18.3,237.0,52.0,8.1,0,5,7,0,2026-05-22T00:28:35.498633+05:30
Chandigarh,Chandigarh,30.7333,76.7794,30.2,31,0.0,963.1,7.8,28.4,95,58.9,34.5,21.4,646.0,80.0,14.6,0,5,7,0,2026-05-22T00:28:35.498639+05:30
Srinagar,Jammu and Kashmir,34.0837,74.7973,13.6,92,0.0,842.5,8.3,28.1,67,51.8,32.2,40.8,884.0,26.0,3.5,3,10,7,0,2026-05-22T00:28:35.498646+05:30
Jammu,Jammu and Kashmir,32.7266,74.857,28.5,36,0.0,967.9,8.55,46.8,81,78.2,44.6,39.5,435.0,15.0,4.8,4,5,7,0,2026-05-22T00:28:35.498652+05:30
Amritsar,Punjab,31.634,74.8723,31.1,30,0.0,975.6,8.45,51.8,94,58.3,34.7,21.2,272.0,61.0,7.4,0,5,7,0,2026-05-22T00:28:35.498658+05:30
Ludhiana,Punjab,30.901,75.8573,30.9,36,0.0,973.3,8.05,34.9,126,45.3,28.3,15.2,1079.0,65.0,5.7,0,5,7,0,2026-05-22T00:28:35.498664+05:30
Jalandhar,Punjab,31.326,75.5762,31.0,29,0.0,974.3,8.2,36.7,101,64.5,31.9,14.2,527.0,67.0,5.8,0,5,7,0,2026-05-22T00:28:35.498671+05:30
Dehradun,Uttarakhand,30.6284,78.0322,16.5,56,0.0,826.8,8.05,46.4,85,54.4,28.3,36.1,237.0,55.0,5.3,0,5,7,0,2026-05-22T00:28:35.498678+05:30
Shimla,Himachal Pradesh,31.1048,77.1734,16.5,38,0.0,783.0,8.3,47.9,86,61.2,26.6,19.7,237.0,99.0,8.8,0,5,7,0,2026-05-22T00:28:35.498687+05:30
Manali,Himachal Pradesh,32.2396,77.1887,11.4,58,0.0,815.2,10.0,47.9,49,14.0,8.0,58.4,260.0,56.0,0.1,0,5,7,0,2026-05-22T00:28:35.498693+05:30
Gurgaon,Haryana,28.4595,77.0266,31.8,22,0.0,976.2,7.85,49.3,1945,1125.0,181.6,27.6,454.0,58.0,11.5,0,5,7,0,2026-05-22T00:28:35.498702+05:30
Noida,Uttar Pradesh,28.5355,77.391,33.6,22,0.0,978.9,7.8,42.1,1945,1125.0,181.6,27.6,586.0,58.0,11.5,0,5,7,0,2026-05-22T00:28:35.498711+05:30
Ghaziabad,Uttar Pradesh,28.6692,77.4538,34.8,21,0.0,977.3,7.75,45.4,639,437.7,105.9,29.8,571.0,53.0,19.0,0,5,7,0,2026-05-22T00:28:35.498717+05:30
Faridabad,Haryana,28.4089,77.3178,34.3,20,0.0,978.3,7.8,51.1,1945,1125.0,181.6,27.6,452.0,58.0,11.5,0,5,7,0,2026-05-22T00:28:35.498723+05:30
Meerut,Uttar Pradesh,28.9845,77.7064,33.2,24,0.0,976.3,7.7,45.4,639,437.7,105.9,29.8,381.0,53.0,19.0,0,5,7,0,2026-05-22T00:28:35.498729+05:30
Agra,Uttar Pradesh,27.1767,78.0081,33.0,20,0.0,982.9,8.1,47.9,891,1169.7,146.2,13.2,257.0,67.0,5.8,0,5,7,0,2026-05-22T00:28:35.498734+05:30
Varanasi,Uttar Pradesh,25.3176,82.9739,32.0,55,0.0,992.6,8.75,40.7,150,51.6,30.0,21.6,881.0,54.0,10.0,0,5,7,1,2026-05-22T00:28:35.498741+05:30
Prayagraj,Uttar Pradesh,25.4358,81.8463,33.7,24,0.0,990.8,8.65,41.0,152,101.0,43.8,23.6,258.0,45.0,8.3,0,5,7,0,2026-05-22T00:28:35.498747+05:30
Gorakhpur,Uttar Pradesh,26.7606,83.3732,30.0,75,0.0,992.8,8.65,38.5,160,80.1,65.4,10.3,477.0,107.0,8.8,7,5,7,1,2026-05-22T00:28:35.498755+05:30
Bareilly,Uttar Pradesh,28.367,79.4304,30.2,53,0.0,981.1,8.05,31.7,173,501.1,133.2,28.0,430.0,70.0,13.5,0,5,7,1,2026-05-22T00:28:35.498761+05:30
Aligarh,Uttar Pradesh,27.8974,78.088,31.8,30,0.0,980.2,7.95,44.6,1184,566.2,128.5,22.4,275.0,53.0,7.4,0,5,7,0,2026-05-22T00:28:35.498767+05:30
Moradabad,Uttar Pradesh,28.8386,78.7733,31.9,35,0.0,978.4,7.85,36.7,206,439.6,155.5,52.2,422.0,29.0,18.4,0,5,7,0,2026-05-22T00:28:35.498773+05:30
Saharanpur,Uttar Pradesh,29.9637,77.546,31.5,30,0.0,970.4,7.2,33.5,157,59.1,37.8,19.7,351.0,76.0,11.3,0,5,7,0,2026-05-22T00:28:35.498779+05:30
Jhansi,Uttar Pradesh,25.4484,78.5685,32.3,19,0.0,973.8,8.5,43.2,61,25.3,15.1,5.2,166.0,69.0,1.8,0,5,7,0,2026-05-22T00:28:38.829303+05:30
Surat,Gujarat,21.1702,72.8311,29.2,82,0.0,1004.6,7.75,37.1,76,29.0,19.2,23.5,301.0,29.0,38.6,7,5,4,1,2026-05-22T00:28:38.829355+05:30
Vadodara,Gujarat,22.3072,73.1812,30.1,67,0.0,1001.8,8.1,36.4,80,44.9,24.5,24.5,206.0,40.0,28.2,3,5,4,1,2026-05-22T00:28:38.829366+05:30
Rajkot,Gujarat,22.3039,70.8022,30.5,61,0.0,992.6,7.75,47.2,69,41.1,21.1,6.8,142.0,53.0,6.6,3,5,7,1,2026-05-22T00:28:38.829375+05:30
Thane,Maharashtra,19.2183,72.9781,30.0,75,0.0,1006.6,7.85,42.5,54,21.2,14.1,12.3,232.0,39.0,8.6,7,5,4,1,2026-05-22T00:28:38.829383+05:30
Nagpur,Maharashtra,21.1458,79.0882,36.5,24,0.0,969.1,8.95,42.5,72,35.0,26.4,11.0,273.0,84.0,9.5,0,5,10,0,2026-05-22T00:28:38.829391+05:30
Nashik,Maharashtra,19.9975,73.7898,26.9,74,0.0,944.7,4.1,34.6,51,17.3,10.0,5.5,180.0,46.0,1.5,7,5,3,1,2026-05-22T00:28:38.829398+05:30
Aurangabad,Maharashtra,19.8762,75.3433,32.1,38,0.0,942.2,8.75,38.2,65,35.9,23.3,8.0,189.0,79.0,6.6,0,5,7,0,2026-05-22T00:28:38.829406+05:30
Solapur,Maharashtra,17.6599,75.9064,29.8,60,0.0,955.6,9.05,34.2,79,44.9,33.2,11.4,207.0,73.0,5.0,4,5,7,1,2026-05-22T00:28:38.829414+05:30
Kolhapur,Maharashtra,16.705,74.2433,25.0,87,0.0,947.6,8.5,37.8,56,15.3,11.8,7.3,210.0,56.0,3.0,7,5,7,1,2026-05-22T00:28:38.829421+05:30
Goa,Goa,15.2993,74.124,27.0,91,0.0,997.8,8.45,32.4,46,21.4,17.8,9.7,590.0,48.0,1.9,7,5,7,1,2026-05-22T00:28:38.829429+05:30
Jodhpur,Rajasthan,26.2389,73.0243,33.2,26,0.0,979.8,8.45,47.2,174,242.1,55.8,7.0,186.0,58.0,2.5,0,5,7,0,2026-05-22T00:28:38.829436+05:30
Udaipur,Rajasthan,24.5854,73.7125,30.0,25,0.0,944.7,8.85,37.8,67,34.1,15.7,4.1,202.0,76.0,2.3,4,5,7,0,2026-05-22T00:28:38.829443+05:30
Kota,Rajasthan,25.2138,75.8648,32.2,18,0.0,975.9,8.4,44.3,68,54.9,37.8,22.6,243.0,38.0,6.4,0,5,7,0,2026-05-22T00:28:38.829450+05:30
Bikaner,Rajasthan,28.0229,73.3119,33.7,26,0.0,977.7,8.4,31.3,166,310.1,101.0,3.9,157.0,64.0,2.2,0,5,7,0,2026-05-22T00:28:38.829457+05:30
Ajmer,Rajasthan,26.4499,74.6399,30.6,27,0.0,952.3,8.4,52.2,82,121.1,33.6,6.3,192.0,69.0,4.5,0,5,7,0,2026-05-22T00:28:38.829464+05:30
Gwalior,Madhya Pradesh,26.2183,78.1828,33.2,16,0.0,978.7,8.25,52.6,69,27.5,15.1,5.5,164.0,76.0,2.7,0,5,7,0,2026-05-22T00:28:38.829471+05:30
Indore,Madhya Pradesh,22.7196,75.8577,32.3,23,0.0,946.4,8.7,38.9,72,41.0,23.7,5.3,251.0,83.0,4.9,0,5,7,0,2026-05-22T00:28:38.829478+05:30
Bhopal,Madhya Pradesh,23.2599,77.4126,33.2,22,0.0,950.9,8.7,43.9,66,39.1,26.8,10.7,277.0,57.0,5.0,0,5,7,0,2026-05-22T00:28:38.829485+05:30
Jabalpur,Madhya Pradesh,23.1815,79.9864,32.2,22,0.0,957.8,8.9,36.7,64,28.8,20.0,17.0,185.0,66.0,5.0,0,5,7,0,2026-05-22T00:28:38.829492+05:30
Ujjain,Madhya Pradesh,23.1765,75.7885,32.0,24,0.0,951.7,8.65,38.2,72,46.2,26.0,4.2,249.0,82.0,4.6,0,5,7,0,2026-05-22T00:28:38.829500+05:30
Visakhapatnam,Andhra Pradesh,17.6868,83.2185,31.1,83,0.0,998.2,9.0,37.1,139,52.2,41.8,29.4,462.0,92.0,42.0,3,5,7,1,2026-05-22T00:28:38.829507+05:30
Vijayawada,Andhra Pradesh,16.5062,80.648,33.7,63,0.0,997.3,9.1,41.8,135,44.2,37.0,10.9,339.0,93.0,6.2,3,5,7,1,2026-05-22T00:28:38.829514+05:30
Guntur,Andhra Pradesh,16.3067,80.4365,33.5,63,0.0,998.5,9.05,43.2,127,57.0,49.8,21.2,279.0,74.0,9.6,3,5,7,1,2026-05-22T00:28:38.829521+05:30
Nellore,Andhra Pradesh,14.4426,79.9865,33.2,67,0.0,1001.9,9.1,42.8,118,39.8,31.7,8.3,352.0,114.0,10.7,3,5,4,1,2026-05-22T00:28:38.829529+05:30
Kurnool,Andhra Pradesh,15.8281,78.0373,29.9,59,0.0,974.4,8.85,41.4,98,45.6,34.9,6.5,233.0,110.0,5.8,4,5,7,1,2026-05-22T00:28:38.829536+05:30
Kakinada,Andhra Pradesh,16.9891,82.2475,32.7,69,0.0,1001.8,8.4,36.7,97,43.3,32.8,5.5,448.0,126.0,5.4,3,5,4,1,2026-05-22T00:28:38.829544+05:30
Tirupati,Andhra Pradesh,13.6288,79.4192,29.2,70,0.0,989.5,9.1,28.8,68,34.6,28.5,19.0,216.0,67.0,4.6,7,5,7,1,2026-05-22T00:28:38.829551+05:30
Warangal,Telangana,17.9689,79.5941,33.7,35,0.0,973.6,8.8,44.6,118,69.6,57.9,27.5,361.0,62.0,13.4,0,5,7,0,2026-05-22T00:28:38.829557+05:30
Nizamabad,Telangana,18.6725,78.0941,34.0,27,0.0,960.6,9.1,33.8,107,91.7,68.9,33.2,528.0,58.0,9.6,0,5,7,0,2026-05-22T00:28:38.829564+05:30
Mysore,Karnataka,12.2958,76.6396,23.5,88,0.0,928.8,7.15,46.4,33,5.4,5.0,7.9,159.0,47.0,2.1,3,5,7,1,2026-05-22T00:28:38.829571+05:30
Mangalore,Karnataka,12.9141,74.856,25.8,99,0.1,1007.6,8.85,34.9,52,14.4,11.8,9.3,312.0,36.0,2.7,10,5,4,1,2026-05-22T00:28:38.829578+05:30
Hubli-Dharwad,Karnataka,15.3647,75.124,23.9,94,0.0,940.8,9.05,38.2,32,6.9,5.6,6.5,183.0,46.0,1.2,3,5,7,1,2026-05-22T00:28:38.829585+05:30
Belgaum,Karnataka,15.8497,74.4977,22.8,96,0.0,925.6,8.75,39.2,50,9.7,8.0,7.2,170.0,50.0,2.2,3,5,7,1,2026-05-22T00:28:42.127498+05:30
Coimbatore,Tamil Nadu,11.0168,76.9558,25.8,81,0.0,961.6,8.4,51.1,30,5.7,5.0,7.0,169.0,47.0,2.8,7,5,7,1,2026-05-22T00:28:42.127534+05:30
Madurai,Tamil Nadu,9.9252,78.1198,29.9,61,0.0,991.8,9.0,46.1,68,23.9,23.4,46.2,162.0,4.0,8.5,7,5,7,1,2026-05-22T00:28:42.127545+05:30
Trichy,Tamil Nadu,10.7905,78.7047,29.2,66,0.0,997.9,9.0,38.5,36,7.5,6.8,9.9,154.0,49.0,4.0,7,5,7,1,2026-05-22T00:28:42.127553+05:30
Salem,Tamil Nadu,11.6643,78.146,29.4,64,0.0,976.4,8.95,40.3,54,14.4,13.1,17.9,309.0,49.0,6.3,7,5,7,1,2026-05-22T00:28:42.127560+05:30
Tirunelveli,Tamil Nadu,8.7139,77.7567,29.3,67,0.0,1002.3,8.15,33.1,27,6.8,5.8,7.3,179.0,39.0,1.9,7,5,4,1,2026-05-22T00:28:42.127567+05:30
Vellore,Tamil Nadu,12.9165,79.1325,26.0,73,0.0,981.6,8.8,48.2,64,28.2,23.2,11.7,274.0,84.0,5.1,7,5,7,1,2026-05-22T00:28:42.127574+05:30
Erode,Tamil Nadu,11.341,77.7172,29.0,68,0.0,988.0,8.6,49.3,41,12.7,11.4,16.3,167.0,38.0,4.2,7,5,7,1,2026-05-22T00:28:42.127581+05:30
Kochi,Kerala,9.9312,76.2673,26.6,92,0.0,1009.6,8.6,37.8,57,25.9,24.3,30.2,158.0,8.0,7.2,7,0,4,1,2026-05-22T00:28:42.127589+05:30
Thiruvananthapuram,Kerala,8.5241,76.9366,25.6,96,0.0,1009.0,8.35,46.1,27,9.6,5.8,2.2,109.0,53.0,0.8,7,0,4,1,2026-05-22T00:28:42.127596+05:30
Kozhikode,Kerala,11.2588,75.7804,26.3,100,0.0,1008.7,8.8,33.5,30,10.8,7.0,1.7,457.0,58.0,0.8,7,0,4,1,2026-05-22T00:28:42.127603+05:30
Thrissur,Kerala,10.5276,76.2144,25.9,94,0.0,1007.8,8.6,36.0,55,25.8,24.6,25.3,364.0,10.0,6.0,7,5,4,1,2026-05-22T00:28:42.127611+05:30
Kannur,Kerala,11.8745,75.3704,26.1,97,0.0,1008.0,8.8,31.0,33,10.5,8.6,12.0,323.0,33.0,2.7,7,0,4,1,2026-05-22T00:28:42.127618+05:30
Patna,Bihar,25.5941,85.1376,28.6,83,0.0,996.6,8.85,34.2,158,37.6,33.9,13.7,395.0,93.0,10.8,7,5,7,1,2026-05-22T00:28:42.127625+05:30
Gaya,Bihar,24.7914,85.0002,29.8,78,0.0,989.5,8.9,38.2,157,55.2,50.6,11.7,421.0,126.0,18.6,7,5,7,1,2026-05-22T00:28:42.127632+05:30
Muzaffarpur,Bihar,26.1209,85.3647,27.6,87,0.0,997.0,8.85,42.8,155,38.2,35.4,14.6,404.0,90.0,9.7,7,5,7,1,2026-05-22T00:28:42.127639+05:30
Bhagalpur,Bihar,25.2425,87.0117,27.5,88,0.0,997.9,8.85,37.4,128,47.7,40.0,11.9,442.0,103.0,13.1,7,5,7,1,2026-05-22T00:28:42.127646+05:30
Ranchi,Jharkhand,23.3441,85.3096,27.0,59,0.0,934.1,9.3,38.2,143,124.8,64.5,37.0,562.0,62.0,13.6,4,5,7,1,2026-05-22T00:28:42.127653+05:30
Jamshedpur,Jharkhand,22.8046,86.2029,29.5,85,0.0,986.4,9.1,28.1,154,154.1,99.2,54.0,637.0,41.0,43.6,7,5,7,1,2026-05-22T00:28:42.127659+05:30
Dhanbad,Jharkhand,23.7957,86.4304,30.2,81,0.0,976.3,9.1,29.5,168,101.3,84.8,48.8,502.0,92.0,116.9,3,5,7,1,2026-05-22T00:28:42.127667+05:30
Bokaro,Jharkhand,23.6693,86.1511,29.7,80,0.0,979.9,9.1,27.0,167,111.5,88.5,46.4,536.0,90.0,111.3,7,5,7,1,2026-05-22T00:28:42.127674+05:30
Bhubaneswar,Odisha,20.2961,85.8245,29.4,97,0.0,997.6,9.1,37.4,157,61.2,54.4,13.9,424.0,99.0,10.7,7,5,7,1,2026-05-22T00:28:42.127681+05:30
Cuttack,Odisha,20.4625,85.8828,29.5,94,0.0,999.5,9.15,38.5,157,61.2,54.4,13.9,483.0,99.0,10.7,7,5,7,1,2026-05-22T00:28:42.127688+05:30
Rourkela,Odisha,22.2604,84.8536,30.1,58,0.0,979.8,9.0,45.0,157,180.2,98.7,44.8,1044.0,65.0,23.2,0,5,7,1,2026-05-22T00:28:42.127695+05:30
Raipur,Chhattisgarh,21.2514,81.6296,33.3,37,0.0,969.4,8.95,36.7,151,93.4,77.5,68.4,486.0,15.0,53.9,0,5,7,1,2026-05-22T00:28:42.127701+05:30
Bhilai,Chhattisgarh,21.1938,81.3509,34.0,35,0.0,969.7,9.0,36.4,128,55.4,41.6,37.1,481.0,52.0,41.7,0,5,7,1,2026-05-22T00:28:42.127708+05:30
Guwahati,Assam,26.1158,91.7086,25.8,96,0.0,998.9,8.65,25.2,103,48.9,45.3,17.3,511.0,28.0,2.1,7,5,7,1,2026-05-22T00:28:42.127715+05:30
Agartala,Tripura,23.8315,91.2868,27.6,90,0.0,1003.2,8.25,25.6,87,34.3,24.2,10.8,228.0,61.0,2.3,7,5,4,1,2026-05-22T00:28:42.127722+05:30
Shillong,Meghalaya,25.5788,91.8933,18.7,97,0.0,855.5,8.45,25.2,86,39.0,31.4,9.7,276.0,59.0,4.6,3,10,7,1,2026-05-22T00:28:42.127729+05:30
Imphal,Manipur,24.817,93.9368,23.0,98,0.0,921.4,8.95,29.5,138,68.0,61.5,32.4,738.0,17.0,3.9,3,5,7,1,2026-05-22T00:28:42.127736+05:30
Aizawl,Mizoram,23.7271,92.7176,20.7,96,0.0,891.0,8.5,28.1,82,30.2,22.8,7.9,269.0,45.0,2.0,3,5,7,1,2026-05-22T00:28:42.127743+05:30
Kohima,Nagaland,25.6701,94.1077,17.4,98,0.0,853.0,9.2,23.4,108,55.2,46.2,19.0,311.0,23.0,0.8,3,10,7,1,2026-05-22T00:28:42.127750+05:30
Gangtok,Sikkim,27.3314,88.6138,16.7,86,0.0,836.3,9.2,36.0,76,21.7,19.1,12.0,521.0,79.0,1.1,3,10,7,0,2026-05-22T00:28:42.127757+05:30
Siliguri,West Bengal,26.7271,88.3953,25.8,88,0.0,990.9,8.75,36.4,145,61.9,53.6,22.1,774.0,93.0,7.0,7,5,7,1,2026-05-22T00:28:45.415774+05:30
Durgapur,West Bengal,23.5204,87.3119,30.4,87,0.0,991.0,9.0,24.5,163,81.3,70.8,30.6,601.0,82.0,35.8,3,5,7,1,2026-05-22T00:28:45.415810+05:30
Asansol,West Bengal,23.6739,86.9524,30.4,86,0.0,989.7,9.05,24.1,162,72.6,65.0,28.3,605.0,98.0,37.4,3,5,7,1,2026-05-22T00:28:45.415821+05:30
Pondicherry,Puducherry,11.9139,79.8145,30.1,77,0.0,1004.7,7.3,39.6,70,12.6,10.0,11.9,245.0,52.0,6.6,3,5,4,1,2026-05-22T00:28:45.415829+05:30
Port Blair,Andaman and Nicobar Islands,11.6234,92.7265,25.6,93,0.3,1005.9,8.3,38.5,29,6.8,4.5,0.4,115.0,57.0,0.3,10,5,4,1,2026-05-22T00:28:45.415837+05:30
Haridwar,Uttarakhand,29.9457,78.1642,27.1,53,0.0,968.5,7.45,26.6,135,65.0,44.9,23.2,535.0,83.0,15.6,4,5,7,1,2026-05-22T00:28:45.415844+05:30
Rishikesh,Uttarakhand,30.0869,78.2676,25.3,62,0.0,961.0,7.5,31.0,122,77.1,39.1,13.4,341.0,117.0,13.5,7,5,7,1,2026-05-22T00:28:45.415852+05:30
Nainital,Uttarakhand,29.3919,79.4542,18.1,52,0.0,804.7,8.55,36.0,148,279.4,78.0,15.5,352.0,113.0,10.0,0,5,7,0,2026-05-22T00:28:45.415859+05:30
Mussoorie,Uttarakhand,30.4599,78.0664,18.7,40,0.0,801.7,7.9,51.8,115,75.4,46.2,36.7,298.0,75.0,15.2,0,5,7,0,2026-05-22T00:28:45.415865+05:30
Dharamshala,Himachal Pradesh,32.219,76.3234,24.7,31,0.0,867.9,8.45,52.6,53,27.0,14.4,16.1,309.0,50.0,0.6,0,5,7,0,2026-05-22T00:28:45.415872+05:30
Dalhousie,Himachal Pradesh,32.5387,75.971,15.7,54,0.0,801.9,8.7,44.3,71,48.4,31.0,52.2,463.0,14.0,2.8,0,5,7,0,2026-05-22T00:28:45.415879+05:30
Patiala,Punjab,30.3398,76.3869,32.2,25,0.0,972.7,7.65,37.4,150,312.0,67.3,16.8,494.0,61.0,6.6,0,5,7,0,2026-05-22T00:28:45.415887+05:30
Bhatinda,Punjab,30.211,74.9455,31.9,32,0.0,978.3,8.35,29.5,101,73.6,45.9,23.0,336.0,51.0,9.5,0,5,7,0,2026-05-22T00:28:45.415894+05:30
Rohtak,Haryana,28.8955,76.6066,33.0,20,0.0,976.6,7.8,47.9,945,635.2,113.9,20.2,302.0,59.0,4.3,0,5,7,0,2026-05-22T00:28:45.415901+05:30
Panipat,Haryana,29.3909,76.9635,32.0,25,0.0,975.0,7.5,39.6,1608,1039.4,181.6,24.7,433.0,43.0,6.2,0,5,7,0,2026-05-22T00:28:45.415908+05:30
Mathura,Uttar Pradesh,27.4924,77.6737,32.7,24,0.0,981.7,8.05,46.1,871,670.6,96.6,27.8,380.0,43.0,5.6,0,5,7,0,2026-05-22T00:28:45.415915+05:30
Vrindavan,Uttar Pradesh,27.5823,77.7027,32.8,26,0.0,982.1,8.0,44.6,871,670.6,96.6,27.8,280.0,43.0,5.6,0,5,7,0,2026-05-22T00:28:45.415922+05:30
Ayodhya,Uttar Pradesh,26.7922,82.1998,30.7,71,0.0,990.3,8.4,29.2,158,107.1,75.7,22.1,477.0,84.0,11.8,3,5,7,1,2026-05-22T00:28:45.415928+05:30
Ratlam,Madhya Pradesh,23.3315,75.0367,30.4,28,0.0,952.7,8.55,36.4,71,50.3,26.8,4.0,217.0,82.0,4.5,0,5,7,0,2026-05-22T00:28:45.415935+05:30
Sagar,Madhya Pradesh,23.8388,78.7378,31.0,23,0.0,947.3,8.75,50.4,56,25.7,17.3,10.8,190.0,65.0,3.7,0,5,7,0,2026-05-22T00:28:45.415941+05:30
Satna,Madhya Pradesh,24.6005,80.8322,31.0,26,0.0,967.1,8.8,47.5,68,26.8,15.3,11.3,203.0,71.0,3.1,0,5,7,0,2026-05-22T00:28:45.415948+05:30
Akola,Maharashtra,20.7002,77.0082,35.7,27,0.0,971.4,8.9,42.1,78,62.6,42.0,31.0,248.0,40.0,7.3,0,5,10,0,2026-05-22T00:28:45.415955+05:30
Amravati,Maharashtra,20.9374,77.7796,35.5,26,0.0,963.5,8.9,36.7,79,61.2,41.8,33.6,238.0,36.0,7.6,0,5,10,0,2026-05-22T00:28:45.415963+05:30
Latur,Maharashtra,18.4088,76.5604,31.6,41,0.0,937.9,9.05,32.8,85,42.3,31.2,7.0,250.0,97.0,4.1,0,5,7,1,2026-05-22T00:28:45.415970+05:30
Nanded,Maharashtra,19.1383,77.3091,34.8,32,0.0,964.8,9.0,34.6,89,94.5,65.7,49.0,349.0,36.0,11.5,0,5,7,0,2026-05-22T00:28:45.415977+05:30
Gulbarga,Karnataka,17.3297,76.8343,30.2,54,0.0,956.5,9.05,33.1,81,53.7,38.3,26.3,245.0,62.0,6.4,0,5,7,1,2026-05-22T00:28:45.415983+05:30
Bidar,Karnataka,17.9104,77.5199,30.4,49,0.0,933.3,9.1,37.4,92,43.8,35.3,17.9,256.0,84.0,6.0,0,5,7,1,2026-05-22T00:28:45.415990+05:30
Hospet,Karnataka,15.2689,76.3909,26.5,78,0.0,955.5,8.8,44.3,43,9.5,7.5,6.2,163.0,52.0,1.5,7,5,7,1,2026-05-22T00:28:45.415996+05:30
Tirupur,Tamil Nadu,11.1085,77.3411,27.2,77,0.0,974.5,9.1,60.8,46,13.5,12.5,18.7,164.0,35.0,4.7,7,5,7,1,2026-05-22T00:28:45.416003+05:30
Alappuzha,Kerala,9.4981,76.3388,26.8,91,0.1,1009.9,8.55,39.6,44,16.7,13.5,11.7,100.0,40.0,2.7,10,0,4,1,2026-05-22T00:28:45.416009+05:30
Munnar,Kerala,10.0889,77.0595,18.0,97,0.0,857.8,9.1,30.6,26,7.0,6.2,8.3,114.0,39.0,2.0,3,10,7,1,2026-05-22T00:28:45.416016+05:30
Silchar,Assam,24.8333,92.7789,27.5,88,0.2,1003.3,8.95,27.0,119,53.1,41.8,9.7,473.0,71.0,7.5,10,5,4,1,2026-05-22T00:28:45.416023+05:30
Dibrugarh,Assam,27.4728,94.912,26.8,93,0.0,992.4,8.9,17.3,94,48.2,43.5,31.6,686.0,4.0,2.2,7,5,7,1,2026-05-22T00:28:45.416029+05:30
