city,state,latitude,longitude,temp,humidity,rain,pressure,uv_index,wind_gusts,aqi,pm10,pm2_5,no2,co,o3,so2,mosquito_risk,arthritis_risk,migraine_risk,frizz_risk,updated_at
Delhi,Delhi,28.6139,77.209,31.3,25,0.0,979.3,7.75,34.9,700,629.6,127.6,17.7,246.0,56.0,9.6,0,5,7,0,2026-05-22T05:35:41.498020+05:30
Mumbai,Maharashtra,19.076,72.8777,29.6,77,0.0,1007.3,6.75,34.2,55,21.5,13.6,12.3,180.0,41.0,12.2,7,5,4,1,2026-05-22T05:35:41.498066+05:30
Bangalore,Karnataka,12.9716,77.5946,21.9,96,0.0,910.7,6.65,33.1,38,6.9,6.3,11.9,200.0,34.0,4.3,3,5,7,1,2026-05-22T05:35:41.498082+05:30
Hyderabad,Telangana,17.385,78.4867,30.1,57,0.0,951.1,6.45,45.7,88,19.2,16.8,8.7,250.0,75.0,5.3,0,5,7,1,2026-05-22T05:35:41.498092+05:30
Chennai,Tamil Nadu,13.0827,80.2707,28.4,62,0.0,1003.2,9.05,40.3,65,23.6,19.6,16.1,264.0,56.0,9.5,7,5,4,1,2026-05-22T05:35:41.498100+05:30
Kolkata,West Bengal,22.5726,88.3639,29.4,96,0.0,1002.5,8.95,29.2,124,53.7,45.1,11.6,405.0,66.0,7.0,7,5,4,1,2026-05-22T05:35:41.498108+05:30
Pune,Maharashtra,18.5204,73.8567,25.1,83,0.0,947.6,8.4,47.2,55,13.9,9.8,11.0,164.0,39.0,9.8,7,5,7,1,2026-05-22T05:35:41.498114+05:30
Ahmedabad,Gujarat,23.0225,72.5714,29.9,52,0.0,1001.2,8.2,35.6,70,45.2,24.2,5.8,149.0,46.0,3.2,4,5,4,1,2026-05-22T05:35:41.498120+05:30
Jaipur,Rajasthan,26.9124,75.7873,30.8,28,0.0,958.0,8.25,41.4,161,289.6,53.2,4.6,179.0,60.0,4.0,0,5,7,0,2026-05-22T05:35:41.498131+05:30
Lucknow,Uttar Pradesh,26.8467,80.9462,29.2,53,0.0,989.5,8.25,32.8,202,216.5,74.7,33.0,370.0,32.0,11.4,4,5,7,1,2026-05-22T05:35:41.498138+05:30
Kanpur,Uttar Pradesh,26.4499,80.3319,31.9,30,0.0,987.9,8.25,39.6,395,594.2,89.6,10.6,214.0,58.0,5.3,0,5,7,0,2026-05-22T05:35:41.498145+05:30
Chandigarh,Chandigarh,30.7333,76.7794,26.1,45,0.0,964.6,7.75,50.4,94,47.5,32.4,23.8,347.0,30.0,6.8,4,5,7,0,2026-05-22T05:35:41.498152+05:30
Srinagar,Jammu and Kashmir,34.0837,74.7973,12.8,96,0.1,843.3,8.95,37.1,66,39.1,17.0,15.9,231.0,38.0,1.7,6,10,7,0,2026-05-22T05:35:41.498159+05:30
Jammu,Jammu and Kashmir,32.7266,74.857,26.0,55,0.0,970.6,8.55,45.0,77,29.0,18.4,15.0,170.0,36.0,2.1,4,5,7,1,2026-05-22T05:35:41.498165+05:30
Amritsar,Punjab,31.634,74.8723,29.4,40,0.0,978.2,8.45,45.4,86,55.5,27.4,11.1,202.0,71.0,6.3,4,5,7,0,2026-05-22T05:35:41.498171+05:30
Ludhiana,Punjab,30.901,75.8573,28.0,41,0.0,974.7,8.0,32.8,103,48.1,27.6,12.0,290.0,54.0,5.9,4,5,7,0,2026-05-22T05:35:41.498179+05:30
Jalandhar,Punjab,31.326,75.5762,27.9,40,0.0,976.4,7.15,34.2,101,82.9,37.0,15.8,278.0,47.0,5.8,4,5,7,0,2026-05-22T05:35:41.498186+05:30
Dehradun,Uttarakhand,30.6284,78.0322,13.6,74,0.0,826.5,8.2,42.8,78,35.2,16.6,20.6,275.0,12.0,0.7,3,5,7,0,2026-05-22T05:35:41.498192+05:30
Shimla,Himachal Pradesh,31.1048,77.1734,14.4,51,0.0,782.0,8.1,45.7,77,53.8,27.0,23.5,190.0,44.0,3.1,0,5,7,0,2026-05-22T05:35:41.498200+05:30
Manali,Himachal Pradesh,32.2396,77.1887,9.3,91,0.0,816.2,7.65,50.4,35,2.1,1.1,12.0,142.0,95.0,0.0,3,10,7,0,2026-05-22T05:35:41.498206+05:30
Gurgaon,Haryana,28.4595,77.0266,29.7,31,0.0,977.5,7.85,35.3,1961,1832.8,278.5,13.0,224.0,60.0,8.5,4,5,7,0,2026-05-22T05:35:41.498212+05:30
Noida,Uttar Pradesh,28.5355,77.391,31.1,29,0.0,980.6,7.8,30.6,1961,1832.8,278.5,13.0,232.0,60.0,8.5,0,5,7,0,2026-05-22T05:35:41.498221+05:30
Ghaziabad,Uttar Pradesh,28.6692,77.4538,31.6,23,0.0,978.8,7.8,31.3,602,547.6,116.9,18.3,222.0,57.0,11.7,0,5,7,0,2026-05-22T05:35:41.498227+05:30
Faridabad,Haryana,28.4089,77.3178,31.5,26,0.0,979.9,7.85,38.5,1961,1832.8,278.5,13.0,205.0,60.0,8.5,0,5,7,0,2026-05-22T05:35:41.498232+05:30
Meerut,Uttar Pradesh,28.9845,77.7064,30.7,26,0.0,977.3,7.7,29.2,602,547.6,116.9,18.3,218.0,57.0,11.7,0,5,7,0,2026-05-22T05:35:41.498239+05:30
Agra,Uttar Pradesh,27.1767,78.0081,30.8,25,0.0,984.3,8.1,41.0,943,1318.8,168.1,9.7,188.0,59.0,5.7,0,5,7,0,2026-05-22T05:35:41.498245+05:30
Varanasi,Uttar Pradesh,25.3176,82.9739,29.8,79,0.0,993.8,8.75,34.2,143,70.5,61.7,27.4,651.0,55.0,19.3,7,5,7,1,2026-05-22T05:35:41.498252+05:30
Prayagraj,Uttar Pradesh,25.4358,81.8463,30.4,38,0.0,992.1,8.65,37.8,131,71.2,58.9,33.3,241.0,39.0,16.0,0,5,7,0,2026-05-22T05:35:41.498258+05:30
Gorakhpur,Uttar Pradesh,26.7606,83.3732,28.2,83,0.0,994.6,8.65,32.0,160,56.3,49.6,14.1,449.0,77.0,11.1,7,5,7,1,2026-05-22T05:35:41.498267+05:30
Bareilly,Uttar Pradesh,28.367,79.4304,27.8,68,0.0,982.7,8.05,23.8,198,328.8,112.9,48.7,444.0,34.0,14.3,7,5,7,1,2026-05-22T05:35:41.498273+05:30
Aligarh,Uttar Pradesh,27.8974,78.088,29.6,28,0.0,981.9,7.9,30.6,1108,1125.0,204.4,13.2,247.0,56.0,6.3,4,5,7,0,2026-05-22T05:35:41.498280+05:30
Moradabad,Uttar Pradesh,28.8386,78.7733,29.9,43,0.0,979.7,7.9,26.3,244,391.2,170.0,75.3,461.0,3.0,25.4,4,5,7,0,2026-05-22T05:35:41.498286+05:30
Saharanpur,Uttar Pradesh,29.9637,77.546,27.5,49,0.0,971.2,7.5,45.4,160,255.2,107.6,53.5,394.0,13.0,15.5,4,5,7,0,2026-05-22T05:35:41.498292+05:30
Jhansi,Uttar Pradesh,25.4484,78.5685,30.1,21,0.0,975.1,8.5,45.0,56,15.6,8.4,3.8,143.0,68.0,1.9,0,5,7,0,2026-05-22T05:35:54.699043+05:30
Surat,Gujarat,21.1702,72.8311,28.6,86,0.0,1006.0,7.75,40.3,77,26.8,20.4,29.7,457.0,20.0,49.9,7,5,4,1,2026-05-22T05:35:54.699077+05:30
Vadodara,Gujarat,22.3072,73.1812,30.2,61,0.0,1003.3,8.15,40.7,77,20.8,14.4,12.4,154.0,29.0,11.5,3,5,4,1,2026-05-22T05:35:54.699088+05:30
Rajkot,Gujarat,22.3039,70.8022,27.0,84,0.0,993.3,7.8,43.6,73,44.4,21.0,5.9,131.0,42.0,5.5,7,5,7,1,2026-05-22T05:35:54.699096+05:30
Thane,Maharashtra,19.2183,72.9781,29.4,78,0.0,1006.7,6.95,31.7,55,21.5,13.6,12.3,192.0,41.0,12.2,7,5,4,1,2026-05-22T05:35:54.699103+05:30
Nagpur,Maharashtra,21.1458,79.0882,33.7,26,0.0,969.7,8.9,46.4,67,27.1,20.0,11.2,242.0,64.0,9.3,0,5,7,0,2026-05-22T05:35:54.699111+05:30
Nashik,Maharashtra,19.9975,73.7898,24.9,86,0.0,944.7,8.15,34.2,51,20.4,12.7,11.8,140.0,33.0,12.5,3,5,7,1,2026-05-22T05:35:54.699119+05:30
Aurangabad,Maharashtra,19.8762,75.3433,28.2,61,0.0,943.1,6.35,49.7,64,18.9,11.9,9.6,152.0,41.0,5.9,7,5,7,1,2026-05-22T05:35:54.699126+05:30
Solapur,Maharashtra,17.6599,75.9064,28.4,63,0.0,956.7,9.0,37.1,67,10.7,8.6,6.1,176.0,54.0,2.7,7,5,7,1,2026-05-22T05:35:54.699133+05:30
Kolhapur,Maharashtra,16.705,74.2433,24.0,90,0.0,947.4,8.3,42.8,53,10.2,8.6,7.1,178.0,45.0,3.0,3,5,7,1,2026-05-22T05:35:54.699141+05:30
Goa,Goa,15.2993,74.124,26.3,90,0.0,997.1,6.0,30.2,35,10.4,7.9,3.0,321.0,49.0,0.9,7,5,3,1,2026-05-22T05:35:54.699148+05:30
Jodhpur,Rajasthan,26.2389,73.0243,30.0,45,0.0,981.3,8.45,37.4,160,257.0,65.7,3.7,138.0,54.0,4.1,4,5,7,1,2026-05-22T05:35:54.699155+05:30
Udaipur,Rajasthan,24.5854,73.7125,27.7,32,0.0,945.7,8.9,40.7,59,43.8,19.3,5.2,145.0,56.0,3.7,4,5,7,0,2026-05-22T05:35:54.699163+05:30
Kota,Rajasthan,25.2138,75.8648,31.0,23,0.0,977.1,8.4,43.6,67,16.1,12.1,7.3,183.0,46.0,4.6,0,5,7,0,2026-05-22T05:35:54.699170+05:30
Bikaner,Rajasthan,28.0229,73.3119,31.6,36,0.0,979.3,8.4,38.5,166,389.3,138.8,1.7,139.0,74.0,2.8,0,5,7,0,2026-05-22T05:35:54.699177+05:30
Ajmer,Rajasthan,26.4499,74.6399,28.5,34,0.0,953.5,8.4,44.6,74,62.4,23.2,3.6,170.0,61.0,3.6,4,5,7,0,2026-05-22T05:35:54.699184+05:30
Gwalior,Madhya Pradesh,26.2183,78.1828,31.0,24,0.0,980.5,8.3,45.0,63,61.2,17.9,5.2,157.0,64.0,3.2,0,5,7,0,2026-05-22T05:35:54.699191+05:30
Indore,Madhya Pradesh,22.7196,75.8577,29.7,31,0.0,947.3,8.7,43.2,68,32.2,19.7,5.4,231.0,88.0,12.7,4,5,7,0,2026-05-22T05:35:54.699198+05:30
Bhopal,Madhya Pradesh,23.2599,77.4126,30.6,25,0.0,952.4,8.75,42.5,65,24.4,16.3,5.3,226.0,66.0,4.8,0,5,7,0,2026-05-22T05:35:54.699204+05:30
Jabalpur,Madhya Pradesh,23.1815,79.9864,30.5,23,0.0,958.8,8.9,37.8,62,28.1,23.4,34.0,271.0,32.0,5.9,0,5,7,0,2026-05-22T05:35:54.699211+05:30
Ujjain,Madhya Pradesh,23.1765,75.7885,29.8,32,0.0,953.0,8.65,40.7,67,34.9,22.0,7.4,208.0,69.0,16.6,4,5,7,0,2026-05-22T05:35:54.699218+05:30
Visakhapatnam,Andhra Pradesh,17.6868,83.2185,31.0,74,0.0,998.8,9.05,39.2,137,49.9,41.4,26.5,392.0,84.0,41.4,3,5,7,1,2026-05-22T05:35:54.699225+05:30
Vijayawada,Andhra Pradesh,16.5062,80.648,32.4,60,0.0,997.8,9.1,49.0,113,34.2,29.9,10.6,311.0,95.0,10.4,0,5,7,1,2026-05-22T05:35:54.699232+05:30
Guntur,Andhra Pradesh,16.3067,80.4365,32.8,46,0.0,999.3,9.1,47.9,114,38.4,34.0,13.2,244.0,76.0,9.5,0,5,7,1,2026-05-22T05:35:54.699239+05:30
Nellore,Andhra Pradesh,14.4426,79.9865,30.6,58,0.0,1002.0,8.6,46.8,74,23.2,19.3,6.9,183.0,81.0,5.1,0,5,4,1,2026-05-22T05:35:54.699247+05:30
Kurnool,Andhra Pradesh,15.8281,78.0373,29.0,64,0.0,975.5,6.8,55.4,75,5.4,4.5,6.3,183.0,43.0,2.3,7,5,7,1,2026-05-22T05:35:54.699254+05:30
Kakinada,Andhra Pradesh,16.9891,82.2475,31.6,73,0.0,1002.6,9.1,43.6,98,35.0,26.4,4.5,294.0,136.0,5.3,3,5,4,1,2026-05-22T05:35:54.699261+05:30
Tirupati,Andhra Pradesh,13.6288,79.4192,27.1,73,0.0,988.0,8.1,39.2,74,16.0,13.6,9.2,171.0,59.0,2.7,7,5,7,1,2026-05-22T05:35:54.699268+05:30
Warangal,Telangana,17.9689,79.5941,32.3,45,0.0,974.4,9.1,46.8,137,32.7,28.5,14.2,273.0,70.0,7.0,0,5,7,1,2026-05-22T05:35:54.699275+05:30
Nizamabad,Telangana,18.6725,78.0941,32.4,41,0.0,961.9,9.1,37.4,91,29.7,25.4,11.9,211.0,70.0,7.8,0,5,7,1,2026-05-22T05:35:54.699281+05:30
Mysore,Karnataka,12.2958,76.6396,23.0,87,0.0,927.4,8.25,43.9,24,6.9,6.0,6.9,144.0,40.0,1.8,3,5,7,1,2026-05-22T05:35:54.699288+05:30
Mangalore,Karnataka,12.9141,74.856,25.5,99,0.0,1006.1,8.05,38.2,42,10.9,9.2,8.4,200.0,33.0,2.5,7,5,4,1,2026-05-22T05:35:54.699295+05:30
Hubli-Dharwad,Karnataka,15.3647,75.124,23.0,97,0.0,940.0,8.7,51.5,20,4.1,3.5,5.0,115.0,41.0,1.2,3,5,7,1,2026-05-22T05:35:54.699301+05:30
Belgaum,Karnataka,15.8497,74.4977,22.1,97,0.0,925.0,8.4,35.6,39,6.5,5.7,4.9,148.0,45.0,1.2,3,5,7,1,2026-05-22T05:36:08.722805+05:30
Coimbatore,Tamil Nadu,11.0168,76.9558,24.5,87,0.0,960.6,8.8,57.6,22,6.8,5.5,5.8,188.0,40.0,2.4,3,5,7,1,2026-05-22T05:36:08.722840+05:30
Madurai,Tamil Nadu,9.9252,78.1198,28.3,66,0.0,991.4,8.8,49.0,65,23.8,23.2,37.5,179.0,2.0,6.0,7,5,7,1,2026-05-22T05:36:08.722853+05:30
Trichy,Tamil Nadu,10.7905,78.7047,28.0,69,0.0,997.5,8.95,46.8,39,8.1,6.7,8.3,136.0,37.0,3.5,7,5,7,1,2026-05-22T05:36:08.722862+05:30
Salem,Tamil Nadu,11.6643,78.146,27.4,72,0.0,976.0,8.8,31.7,52,18.6,16.6,22.1,164.0,24.0,7.4,7,5,7,1,2026-05-22T05:36:08.722870+05:30
Tirunelveli,Tamil Nadu,8.7139,77.7567,28.8,72,0.0,1001.8,8.1,46.8,20,4.4,3.9,5.0,161.0,35.0,1.9,7,5,4,1,2026-05-22T05:36:08.722878+05:30
Vellore,Tamil Nadu,12.9165,79.1325,28.9,63,0.0,982.3,7.2,44.3,67,11.7,10.5,11.7,203.0,48.0,4.9,7,5,7,1,2026-05-22T05:36:08.722885+05:30
Erode,Tamil Nadu,11.341,77.7172,28.3,65,0.0,987.5,8.1,51.8,37,12.4,10.6,13.2,170.0,32.0,3.6,7,5,7,1,2026-05-22T05:36:08.722893+05:30
Kochi,Kerala,9.9312,76.2673,25.2,98,0.1,1008.8,8.55,37.4,51,11.1,10.2,15.2,174.0,16.0,4.1,10,0,4,1,2026-05-22T05:36:08.722900+05:30
Thiruvananthapuram,Kerala,8.5241,76.9366,23.9,98,0.1,1008.2,7.7,38.9,24,7.2,4.3,1.7,115.0,53.0,0.6,6,0,4,1,2026-05-22T05:36:08.722908+05:30
Kozhikode,Kerala,11.2588,75.7804,25.3,99,0.0,1007.6,7.8,33.1,27,8.8,5.5,1.5,243.0,60.0,0.7,7,5,4,1,2026-05-22T05:36:08.722914+05:30
Thrissur,Kerala,10.5276,76.2144,23.6,98,0.2,1007.2,7.9,34.6,51,14.4,12.9,13.3,200.0,21.0,3.9,6,5,4,1,2026-05-22T05:36:08.722922+05:30
Kannur,Kerala,11.8745,75.3704,25.6,98,0.0,1006.5,7.7,32.4,36,7.4,6.0,7.8,185.0,34.0,2.1,7,5,4,1,2026-05-22T05:36:08.722928+05:30
Patna,Bihar,25.5941,85.1376,28.0,88,0.0,997.5,8.85,28.8,157,51.2,45.5,15.1,440.0,76.0,18.2,7,5,7,1,2026-05-22T05:36:08.722935+05:30
Gaya,Bihar,24.7914,85.0002,28.8,86,0.0,990.3,8.9,30.6,155,69.8,62.9,16.7,491.0,76.0,25.5,7,5,7,1,2026-05-22T05:36:08.722943+05:30
Muzaffarpur,Bihar,26.1209,85.3647,27.4,89,0.0,998.0,8.85,33.5,155,47.7,42.3,14.5,426.0,73.0,14.6,7,5,7,1,2026-05-22T05:36:08.722949+05:30
Bhagalpur,Bihar,25.2425,87.0117,27.5,92,0.0,998.5,8.85,33.1,127,58.7,49.8,15.3,548.0,74.0,11.1,7,5,7,1,2026-05-22T05:36:08.722956+05:30
Ranchi,Jharkhand,23.3441,85.3096,25.0,78,0.0,934.7,9.3,31.3,153,150.4,82.7,30.0,598.0,49.0,26.5,7,5,7,1,2026-05-22T05:36:08.722962+05:30
Jamshedpur,Jharkhand,22.8046,86.2029,28.6,96,0.0,987.8,9.1,27.4,151,52.7,46.7,11.6,362.0,72.0,16.7,7,5,7,1,2026-05-22T05:36:08.722968+05:30
Dhanbad,Jharkhand,23.7957,86.4304,28.6,90,0.0,976.9,9.1,30.6,164,70.8,62.9,37.6,620.0,47.0,94.5,7,5,7,1,2026-05-22T05:36:08.722975+05:30
Bokaro,Jharkhand,23.6693,86.1511,28.2,93,0.0,980.6,9.1,24.8,163,85.7,80.3,46.6,786.0,32.0,118.1,7,5,7,1,2026-05-22T05:36:08.722982+05:30
Bhubaneswar,Odisha,20.2961,85.8245,29.5,97,0.0,998.4,9.15,36.7,153,28.3,21.8,7.5,285.0,73.0,4.9,7,5,7,1,2026-05-22T05:36:08.722988+05:30
Cuttack,Odisha,20.4625,85.8828,29.5,97,0.0,1000.3,9.2,33.5,153,28.3,21.8,7.5,304.0,73.0,4.9,7,5,4,1,2026-05-22T05:36:08.722996+05:30
Rourkela,Odisha,22.2604,84.8536,29.0,63,0.0,981.6,9.0,34.6,162,188.6,106.2,49.3,811.0,21.0,23.0,7,5,7,1,2026-05-22T05:36:08.723002+05:30
Raipur,Chhattisgarh,21.2514,81.6296,31.0,45,0.0,970.4,8.95,38.5,154,95.5,80.8,67.4,619.0,5.0,58.8,0,5,7,1,2026-05-22T05:36:08.723009+05:30
Bhilai,Chhattisgarh,21.1938,81.3509,30.5,39,0.0,970.9,9.0,36.4,120,37.3,33.6,45.2,531.0,34.0,51.6,0,5,7,0,2026-05-22T05:36:08.723016+05:30
Guwahati,Assam,26.1158,91.7086,26.0,97,0.0,999.9,8.75,26.6,105,16.9,15.4,10.2,422.0,45.0,2.3,7,5,7,1,2026-05-22T05:36:08.723022+05:30
Agartala,Tripura,23.8315,91.2868,26.5,95,0.0,1004.3,8.4,33.5,88,41.3,25.0,13.6,238.0,42.0,3.5,7,5,4,1,2026-05-22T05:36:08.723029+05:30
Shillong,Meghalaya,25.5788,91.8933,18.8,93,0.0,856.3,7.1,25.9,82,18.6,13.6,4.6,281.0,84.0,3.6,3,10,7,1,2026-05-22T05:36:08.723035+05:30
Imphal,Manipur,24.817,93.9368,23.4,90,0.0,922.8,8.75,34.9,117,38.9,34.5,12.0,432.0,32.0,3.0,3,5,7,1,2026-05-22T05:36:08.723042+05:30
Aizawl,Mizoram,23.7271,92.7176,19.9,98,0.0,891.3,8.5,30.6,78,27.9,22.3,8.3,228.0,26.0,1.2,3,10,7,1,2026-05-22T05:36:08.723048+05:30
Kohima,Nagaland,25.6701,94.1077,18.5,96,0.0,854.5,8.75,26.6,104,34.9,28.3,8.0,242.0,32.0,1.0,3,10,7,1,2026-05-22T05:36:08.723055+05:30
Gangtok,Sikkim,27.3314,88.6138,16.7,94,0.2,836.7,9.15,35.6,75,13.0,11.3,7.4,493.0,85.0,1.5,6,10,7,0,2026-05-22T05:36:08.723061+05:30
Siliguri,West Bengal,26.7271,88.3953,26.0,86,0.0,991.3,8.4,21.2,123,48.3,42.0,16.4,406.0,87.0,5.8,7,5,7,1,2026-05-22T05:36:18.847063+05:30
Durgapur,West Bengal,23.5204,87.3119,29.5,93,0.0,991.7,9.0,30.2,159,64.3,55.2,24.0,374.0,58.0,37.0,7,5,7,1,2026-05-22T05:36:18.847100+05:30
Asansol,West Bengal,23.6739,86.9524,28.8,97,0.0,990.3,9.05,30.6,158,60.8,52.2,23.9,697.0,62.0,39.5,7,5,7,1,2026-05-22T05:36:18.847111+05:30
Pondicherry,Puducherry,11.9139,79.8145,28.2,76,0.0,1005.0,8.95,45.4,63,17.1,15.0,17.3,368.0,38.0,6.0,7,5,4,1,2026-05-22T05:36:18.847120+05:30
Port Blair,Andaman and Nicobar Islands,11.6234,92.7265,26.1,94,0.0,1005.9,4.55,39.2,27,6.1,4.1,0.4,117.0,64.0,0.3,7,5,0,1,2026-05-22T05:36:18.847129+05:30
Haridwar,Uttarakhand,29.9457,78.1642,25.8,66,0.0,969.7,7.55,33.1,151,96.9,58.4,32.7,318.0,32.0,9.9,7,5,7,1,2026-05-22T05:36:18.847136+05:30
Rishikesh,Uttarakhand,30.0869,78.2676,23.2,67,0.0,962.3,7.7,27.0,124,102.4,53.1,21.3,288.0,55.0,8.0,3,5,7,1,2026-05-22T05:36:18.847143+05:30
Nainital,Uttarakhand,29.3919,79.4542,16.4,61,0.0,804.4,8.55,45.4,155,211.9,80.3,24.2,268.0,70.0,8.7,3,5,7,0,2026-05-22T05:36:18.847151+05:30
Mussoorie,Uttarakhand,30.4599,78.0664,17.7,48,0.0,802.2,8.1,51.1,114,65.7,39.8,35.4,234.0,13.0,4.9,0,5,7,0,2026-05-22T05:36:18.847159+05:30
Dharamshala,Himachal Pradesh,32.219,76.3234,22.4,39,0.0,867.7,7.95,52.6,52,15.4,7.3,8.2,165.0,58.0,0.3,0,5,7,0,2026-05-22T05:36:18.847167+05:30
Dalhousie,Himachal Pradesh,32.5387,75.971,13.1,77,0.0,803.4,6.5,62.3,71,22.9,14.0,15.1,216.0,44.0,0.5,3,5,7,0,2026-05-22T05:36:18.847175+05:30
Patiala,Punjab,30.3398,76.3869,29.9,38,0.0,973.9,7.7,54.0,168,295.2,68.7,12.8,561.0,47.0,6.7,4,5,7,0,2026-05-22T05:36:18.847182+05:30
Bhatinda,Punjab,30.211,74.9455,29.6,40,0.0,980.8,8.3,40.3,96,78.9,30.7,10.4,255.0,67.0,6.4,4,5,7,0,2026-05-22T05:36:18.847189+05:30
Rohtak,Haryana,28.8955,76.6066,29.2,29,0.0,977.8,7.8,30.2,994,748.8,131.3,13.3,178.0,55.0,3.8,4,5,7,0,2026-05-22T05:36:18.847195+05:30
Panipat,Haryana,29.3909,76.9635,30.5,27,0.0,976.1,7.65,43.9,1991,1739.7,283.1,13.3,222.0,54.0,4.4,0,5,7,0,2026-05-22T05:36:18.847203+05:30
Mathura,Uttar Pradesh,27.4924,77.6737,30.7,26,0.0,983.2,8.0,32.4,898,983.5,128.5,8.5,178.0,63.0,4.1,0,5,7,0,2026-05-22T05:36:18.847210+05:30
Vrindavan,Uttar Pradesh,27.5823,77.7027,30.4,27,0.0,983.6,8.0,32.0,898,983.5,128.5,8.5,179.0,63.0,4.1,0,5,7,0,2026-05-22T05:36:18.847217+05:30
Ayodhya,Uttar Pradesh,26.7922,82.1998,28.8,82,0.0,992.2,8.4,29.5,156,62.9,56.8,12.3,495.0,87.0,11.2,7,5,7,1,2026-05-22T05:36:18.847224+05:30
Ratlam,Madhya Pradesh,23.3315,75.0367,27.7,47,0.0,954.1,8.6,38.9,68,38.3,23.9,10.3,212.0,52.0,21.6,4,5,7,0,2026-05-22T05:36:18.847231+05:30
Sagar,Madhya Pradesh,23.8388,78.7378,29.0,20,0.0,948.3,8.75,39.6,51,12.1,7.8,7.9,177.0,67.0,4.2,4,5,7,0,2026-05-22T05:36:18.847238+05:30
Satna,Madhya Pradesh,24.6005,80.8322,30.2,25,0.0,968.1,8.8,38.9,60,15.1,9.1,11.6,164.0,69.0,4.8,0,5,7,0,2026-05-22T05:36:18.847245+05:30
Akola,Maharashtra,20.7002,77.0082,32.8,33,0.0,972.8,8.9,47.2,76,30.9,18.1,6.2,220.0,78.0,5.8,0,5,7,0,2026-05-22T05:36:18.847252+05:30
Amravati,Maharashtra,20.9374,77.7796,33.2,30,0.0,964.8,8.9,42.1,75,30.5,17.9,6.3,182.0,77.0,5.0,0,5,7,0,2026-05-22T05:36:18.847260+05:30
Latur,Maharashtra,18.4088,76.5604,29.5,59,0.0,938.7,8.9,42.8,76,22.2,18.3,7.3,217.0,84.0,14.0,4,5,7,1,2026-05-22T05:36:18.847267+05:30
Nanded,Maharashtra,19.1383,77.3091,33.1,38,0.0,966.2,8.95,39.6,83,30.3,24.1,11.9,192.0,60.0,7.4,0,5,7,1,2026-05-22T05:36:18.847275+05:30
Gulbarga,Karnataka,17.3297,76.8343,28.3,68,0.0,957.7,8.8,62.6,71,10.7,8.8,7.1,175.0,53.0,3.3,7,5,7,1,2026-05-22T05:36:18.847281+05:30
Bidar,Karnataka,17.9104,77.5199,28.5,64,0.0,933.9,9.0,42.8,86,16.4,13.9,7.0,198.0,67.0,3.2,7,5,7,1,2026-05-22T05:36:18.847287+05:30
Hospet,Karnataka,15.2689,76.3909,24.8,86,0.0,954.8,8.65,43.9,35,4.9,4.3,5.8,154.0,43.0,1.5,3,5,7,1,2026-05-22T05:36:18.847294+05:30
Tirupur,Tamil Nadu,11.1085,77.3411,26.2,81,0.0,974.0,8.8,61.9,39,13.3,11.7,15.4,173.0,28.0,4.1,7,5,7,1,2026-05-22T05:36:18.847300+05:30
Alappuzha,Kerala,9.4981,76.3388,25.1,98,0.2,1008.8,8.5,36.0,41,10.0,7.7,7.3,98.0,40.0,1.8,10,0,4,1,2026-05-22T05:36:18.847307+05:30
Munnar,Kerala,10.0889,77.0595,17.1,99,0.0,856.2,5.85,31.7,23,6.7,5.8,7.8,129.0,24.0,1.4,3,10,3,1,2026-05-22T05:36:18.847314+05:30
Silchar,Assam,24.8333,92.7789,26.1,96,0.0,1004.3,8.95,32.0,106,43.9,31.5,6.8,266.0,78.0,4.9,7,5,4,1,2026-05-22T05:36:18.847320+05:30
Dibrugarh,Assam,27.4728,94.912,24.2,99,0.1,995.1,8.9,22.3,90,32.8,27.8,15.7,504.0,47.0,1.4,6,5,7,1,2026-05-22T05:36:18.847327+05:30
