city,state,latitude,longitude,temp,humidity,rain,pressure,uv_index,wind_gusts,aqi,pm10,pm2_5,mosquito_risk,arthritis_risk,migraine_risk,frizz_risk,updated_at
Delhi,Delhi,28.6139,77.209,24.7,53,0.0,985.3,7.2,33.1,442,379.0,74.5,0,5,7,0,2026-04-12T01:07:22.600898+05:30
Mumbai,Maharashtra,19.076,72.8777,28.5,79,0.0,1008.8,8.0,21.2,119,42.5,31.1,7,0,4,1,2026-04-12T01:07:22.600939+05:30
Bangalore,Karnataka,12.9716,77.5946,25.6,60,0.0,912.2,9.65,34.9,78,30.6,27.2,4,5,7,1,2026-04-12T01:07:22.600954+05:30
Hyderabad,Telangana,17.385,78.4867,29.8,51,0.0,953.6,9.25,24.5,101,48.5,39.8,4,5,7,1,2026-04-12T01:07:22.600964+05:30
Chennai,Tamil Nadu,13.0827,80.2707,29.0,77,0.0,1007.8,9.4,34.6,55,16.5,11.2,7,5,4,1,2026-04-12T01:07:22.600973+05:30
Kolkata,West Bengal,22.5726,88.3639,24.9,98,0.0,1006.1,8.8,21.6,127,53.7,47.5,3,5,4,1,2026-04-12T01:07:22.600981+05:30
Pune,Maharashtra,18.5204,73.8567,26.0,64,0.0,949.1,8.55,36.7,189,51.0,45.1,7,5,7,1,2026-04-12T01:07:22.600994+05:30
Ahmedabad,Gujarat,23.0225,72.5714,28.7,40,0.0,1002.8,8.1,21.6,89,79.4,66.8,4,5,4,0,2026-04-12T01:07:22.601002+05:30
Jaipur,Rajasthan,26.9124,75.7873,26.3,39,0.0,961.0,7.85,27.0,95,98.7,36.4,4,5,7,0,2026-04-12T01:07:22.601010+05:30
Lucknow,Uttar Pradesh,26.8467,80.9462,24.7,51,0.0,994.7,7.7,31.7,243,384.6,71.7,0,5,7,0,2026-04-12T01:07:22.601018+05:30
Kanpur,Uttar Pradesh,26.4499,80.3319,24.6,61,0.0,992.9,7.75,26.6,614,594.2,90.8,3,5,7,1,2026-04-12T01:07:22.601025+05:30
Chandigarh,Chandigarh,30.7333,76.7794,19.9,63,0.0,971.1,7.15,30.2,68,63.1,38.9,3,5,7,0,2026-04-12T01:07:22.601032+05:30
Srinagar,Jammu and Kashmir,34.0837,74.7973,7.6,84,0.0,841.8,8.05,16.9,80,45.3,36.9,3,10,7,0,2026-04-12T01:07:22.601039+05:30
Jammu,Jammu and Kashmir,32.7266,74.857,18.2,72,0.0,976.4,7.8,26.6,72,20.1,14.7,3,5,7,0,2026-04-12T01:07:22.601047+05:30
Amritsar,Punjab,31.634,74.8723,19.2,76,0.0,984.3,7.75,24.5,83,64.0,35.7,3,5,7,0,2026-04-12T01:07:22.601053+05:30
Ludhiana,Punjab,30.901,75.8573,21.2,64,0.0,981.7,7.4,29.9,74,72.6,38.0,3,5,7,0,2026-04-12T01:07:22.601060+05:30
Jalandhar,Punjab,31.326,75.5762,19.6,73,0.0,983.0,7.55,27.0,73,71.5,32.4,3,5,7,0,2026-04-12T01:07:22.601090+05:30
Dehradun,Uttarakhand,30.6284,78.0322,11.3,77,0.0,829.9,7.6,34.9,46,44.9,15.7,3,5,7,0,2026-04-12T01:07:22.601107+05:30
Shimla,Himachal Pradesh,31.1048,77.1734,8.9,68,0.0,783.0,7.65,41.8,54,47.3,20.1,3,5,7,0,2026-04-12T01:07:22.601114+05:30
Manali,Himachal Pradesh,32.2396,77.1887,10.5,86,0.0,818.9,9.85,26.3,85,10.7,7.2,3,10,7,0,2026-04-12T01:07:22.601121+05:30
Gurgaon,Haryana,28.4595,77.0266,22.7,63,0.0,983.7,7.35,31.3,1179,789.8,122.0,3,5,7,0,2026-04-12T01:07:22.601128+05:30
Noida,Uttar Pradesh,28.5355,77.391,24.4,55,0.0,986.7,7.25,32.8,1179,789.8,122.0,0,5,7,0,2026-04-12T01:07:22.601134+05:30
Ghaziabad,Uttar Pradesh,28.6692,77.4538,23.1,60,0.0,984.8,7.2,32.0,306,298.0,60.8,0,5,7,0,2026-04-12T01:07:22.601140+05:30
Faridabad,Haryana,28.4089,77.3178,24.6,51,0.0,985.9,7.3,31.3,1179,789.8,122.0,0,5,7,0,2026-04-12T01:07:22.601147+05:30
Meerut,Uttar Pradesh,28.9845,77.7064,22.2,61,0.0,983.6,7.1,34.6,306,298.0,60.8,3,5,7,0,2026-04-12T01:07:22.601153+05:30
Agra,Uttar Pradesh,27.1767,78.0081,24.4,54,0.0,989.2,7.6,33.1,787,802.8,115.3,0,5,7,0,2026-04-12T01:07:22.601161+05:30
Varanasi,Uttar Pradesh,25.3176,82.9739,24.2,51,0.0,998.7,8.35,32.0,113,175.6,49.0,0,5,7,0,2026-04-12T01:07:22.601170+05:30
Prayagraj,Uttar Pradesh,25.4358,81.8463,25.8,50,0.0,997.2,8.2,23.8,136,285.9,63.6,4,5,7,0,2026-04-12T01:07:22.601179+05:30
Gorakhpur,Uttar Pradesh,26.7606,83.3732,23.0,52,0.0,997.8,8.15,39.2,130,130.4,36.4,0,5,7,0,2026-04-12T01:07:22.601186+05:30
Bareilly,Uttar Pradesh,28.367,79.4304,22.2,66,0.0,988.2,7.45,38.5,85,109.7,35.9,3,5,7,0,2026-04-12T01:07:22.601192+05:30
Aligarh,Uttar Pradesh,27.8974,78.088,23.5,57,0.0,987.0,7.4,32.4,779,542.0,86.8,0,5,7,0,2026-04-12T01:07:22.601199+05:30
Moradabad,Uttar Pradesh,28.8386,78.7733,22.2,63,0.0,985.4,7.3,38.5,91,124.3,41.2,3,5,7,0,2026-04-12T01:07:22.601205+05:30
Saharanpur,Uttar Pradesh,29.9637,77.546,20.1,64,0.0,977.7,6.9,32.8,75,74.3,38.2,3,5,7,0,2026-04-12T01:07:22.601211+05:30
Jhansi,Uttar Pradesh,25.4484,78.5685,27.1,40,0.0,978.8,8.15,36.0,54,24.3,18.2,4,5,7,0,2026-04-12T01:07:25.944583+05:30
Surat,Gujarat,21.1702,72.8311,27.9,74,0.0,1006.9,7.8,24.1,134,56.2,52.2,7,5,4,1,2026-04-12T01:07:25.944613+05:30
Vadodara,Gujarat,22.3072,73.1812,27.6,49,0.0,1004.7,8.05,19.1,95,69.8,60.5,4,5,4,0,2026-04-12T01:07:25.944625+05:30
Rajkot,Gujarat,22.3039,70.8022,26.0,66,0.0,996.0,7.8,25.6,74,104.1,30.0,7,5,7,1,2026-04-12T01:07:25.944635+05:30
Thane,Maharashtra,19.2183,72.9781,26.9,82,0.0,1008.3,8.0,35.6,119,42.5,31.1,7,0,4,1,2026-04-12T01:07:25.944642+05:30
Nagpur,Maharashtra,21.1458,79.0882,26.3,50,0.0,973.6,8.8,18.0,62,29.2,21.7,4,5,7,0,2026-04-12T01:07:25.944650+05:30
Nashik,Maharashtra,19.9975,73.7898,26.2,56,0.0,946.6,8.25,30.6,151,49.7,40.2,4,5,7,1,2026-04-12T01:07:25.944658+05:30
Aurangabad,Maharashtra,19.8762,75.3433,28.5,37,0.0,944.7,8.95,27.7,94,32.4,23.2,4,5,7,0,2026-04-12T01:07:25.944665+05:30
Solapur,Maharashtra,17.6599,75.9064,31.4,40,0.0,956.5,9.05,27.4,93,29.0,24.3,0,5,7,1,2026-04-12T01:07:25.944672+05:30
Kolhapur,Maharashtra,16.705,74.2433,22.6,83,0.0,948.1,9.05,49.0,99,38.5,30.9,3,5,7,1,2026-04-12T01:07:25.944679+05:30
Goa,Goa,15.2993,74.124,28.1,79,0.0,998.3,9.05,30.6,104,69.6,34.9,7,5,7,1,2026-04-12T01:07:25.944686+05:30
Jodhpur,Rajasthan,26.2389,73.0243,26.7,41,0.0,984.7,8.1,17.3,90,180.2,37.3,4,5,7,0,2026-04-12T01:07:25.944693+05:30
Udaipur,Rajasthan,24.5854,73.7125,25.7,42,0.0,948.1,8.65,27.4,73,33.9,18.5,4,5,7,0,2026-04-12T01:07:25.944700+05:30
Kota,Rajasthan,25.2138,75.8648,24.5,58,0.0,979.5,8.15,22.0,69,33.1,24.3,0,5,7,0,2026-04-12T01:07:25.944706+05:30
Bikaner,Rajasthan,28.0229,73.3119,26.8,43,0.0,984.6,7.95,18.4,63,73.3,27.4,4,5,7,0,2026-04-12T01:07:25.944713+05:30
Ajmer,Rajasthan,26.4499,74.6399,26.8,42,0.0,955.9,8.1,23.0,65,117.1,30.7,4,5,7,0,2026-04-12T01:07:25.944719+05:30
Gwalior,Madhya Pradesh,26.2183,78.1828,25.7,53,0.0,984.0,7.85,29.5,76,109.0,31.8,4,5,7,0,2026-04-12T01:07:25.944726+05:30
Indore,Madhya Pradesh,22.7196,75.8577,24.4,48,0.0,948.9,8.55,26.3,74,68.9,59.0,0,5,7,0,2026-04-12T01:07:25.944733+05:30
Bhopal,Madhya Pradesh,23.2599,77.4126,24.7,40,0.0,954.4,8.5,29.9,55,42.0,23.4,0,5,7,0,2026-04-12T01:07:25.944740+05:30
Jabalpur,Madhya Pradesh,23.1815,79.9864,25.7,44,0.0,962.1,8.65,33.8,72,78.7,41.2,4,5,7,0,2026-04-12T01:07:25.944746+05:30
Ujjain,Madhya Pradesh,23.1765,75.7885,24.8,48,0.0,954.7,8.45,27.0,78,34.6,27.9,0,5,7,0,2026-04-12T01:07:25.944753+05:30
Visakhapatnam,Andhra Pradesh,17.6868,83.2185,27.8,90,0.0,1004.3,9.15,38.9,77,28.1,21.8,7,5,4,1,2026-04-12T01:07:25.944760+05:30
Vijayawada,Andhra Pradesh,16.5062,80.648,27.7,85,0.0,1003.0,9.2,31.7,70,17.1,12.9,7,5,4,1,2026-04-12T01:07:25.944766+05:30
Guntur,Andhra Pradesh,16.3067,80.4365,27.7,86,0.0,1004.2,9.25,34.9,71,17.5,13.1,7,5,4,1,2026-04-12T01:07:25.944773+05:30
Nellore,Andhra Pradesh,14.4426,79.9865,28.5,83,0.0,1006.2,9.35,35.3,59,14.5,10.3,7,5,4,1,2026-04-12T01:07:25.944780+05:30
Kurnool,Andhra Pradesh,15.8281,78.0373,31.6,46,0.0,976.3,9.25,30.2,81,34.0,28.6,0,5,7,1,2026-04-12T01:07:25.944787+05:30
Kakinada,Andhra Pradesh,16.9891,82.2475,27.7,89,0.0,1008.0,9.2,36.4,59,22.0,13.9,7,0,4,1,2026-04-12T01:07:25.944794+05:30
Tirupati,Andhra Pradesh,13.6288,79.4192,26.3,87,0.0,992.9,9.45,31.0,69,22.8,20.1,7,5,7,1,2026-04-12T01:07:25.944801+05:30
Warangal,Telangana,17.9689,79.5941,28.7,57,0.0,978.7,9.1,29.9,111,52.7,42.1,4,5,7,1,2026-04-12T01:07:25.944807+05:30
Nizamabad,Telangana,18.6725,78.0941,26.7,63,0.0,964.5,9.05,21.6,93,68.5,55.8,7,5,7,1,2026-04-12T01:07:25.944813+05:30
Mysore,Karnataka,12.2958,76.6396,24.4,88,0.0,928.8,9.15,44.3,82,34.6,30.3,3,5,7,1,2026-04-12T01:07:25.944820+05:30
Mangalore,Karnataka,12.9141,74.856,29.3,81,0.0,1006.8,9.2,21.6,89,61.0,29.9,7,5,4,1,2026-04-12T01:07:25.944826+05:30
Hubli-Dharwad,Karnataka,15.3647,75.124,23.8,90,0.0,940.9,9.25,31.7,92,43.1,26.8,3,5,7,1,2026-04-12T01:07:25.944833+05:30
Belgaum,Karnataka,15.8497,74.4977,22.0,96,0.0,925.8,9.3,43.2,97,49.6,33.4,3,5,7,1,2026-04-12T01:07:29.282701+05:30
Coimbatore,Tamil Nadu,11.0168,76.9558,25.9,86,0.0,962.4,9.5,49.3,77,36.7,31.8,7,5,7,1,2026-04-12T01:07:29.282733+05:30
Madurai,Tamil Nadu,9.9252,78.1198,28.0,83,0.0,993.8,9.4,37.4,74,38.9,34.7,7,5,7,1,2026-04-12T01:07:29.282744+05:30
Trichy,Tamil Nadu,10.7905,78.7047,27.8,89,0.0,1000.6,9.4,25.6,69,22.8,20.5,7,5,4,1,2026-04-12T01:07:29.282754+05:30
Salem,Tamil Nadu,11.6643,78.146,28.4,76,0.0,978.0,9.45,16.6,71,30.3,26.7,7,5,7,1,2026-04-12T01:07:29.282763+05:30
Tirunelveli,Tamil Nadu,8.7139,77.7567,27.9,70,0.0,1003.4,9.35,43.2,69,33.5,28.9,7,5,4,1,2026-04-12T01:07:29.282772+05:30
Vellore,Tamil Nadu,12.9165,79.1325,26.2,80,0.0,985.5,9.5,31.7,81,35.2,32.2,7,5,7,1,2026-04-12T01:07:29.282781+05:30
Erode,Tamil Nadu,11.341,77.7172,29.2,74,0.0,989.7,9.45,31.3,67,20.0,17.2,7,5,7,1,2026-04-12T01:07:29.282789+05:30
Kochi,Kerala,9.9312,76.2673,28.9,83,0.0,1009.0,9.1,27.4,68,40.3,35.4,7,0,4,1,2026-04-12T01:07:29.282797+05:30
Thiruvananthapuram,Kerala,8.5241,76.9366,28.5,85,0.0,1008.0,9.2,28.4,61,36.3,20.3,7,0,4,1,2026-04-12T01:07:29.282806+05:30
Kozhikode,Kerala,11.2588,75.7804,29.9,81,0.0,1007.8,9.15,29.2,59,53.1,24.0,7,5,4,1,2026-04-12T01:07:29.282814+05:30
Thrissur,Kerala,10.5276,76.2144,28.4,88,0.0,1007.0,8.75,31.7,68,51.7,42.8,7,5,4,1,2026-04-12T01:07:29.282823+05:30
Kannur,Kerala,11.8745,75.3704,28.5,85,0.0,1007.2,9.2,31.0,70,58.1,33.2,7,5,4,1,2026-04-12T01:07:29.282832+05:30
Patna,Bihar,25.5941,85.1376,25.0,56,0.0,1000.8,8.5,38.2,129,50.3,33.8,4,5,4,0,2026-04-12T01:07:29.282840+05:30
Gaya,Bihar,24.7914,85.0002,25.0,44,0.0,994.5,8.55,30.2,103,54.7,29.5,4,5,7,0,2026-04-12T01:07:29.282848+05:30
Muzaffarpur,Bihar,26.1209,85.3647,22.4,65,0.0,1000.8,8.45,38.5,139,113.6,71.0,3,5,4,0,2026-04-12T01:07:29.282855+05:30
Bhagalpur,Bihar,25.2425,87.0117,24.1,60,0.0,1001.1,8.5,28.1,122,272.9,72.2,0,5,4,0,2026-04-12T01:07:29.282863+05:30
Ranchi,Jharkhand,23.3441,85.3096,21.3,42,0.0,938.7,9.1,33.5,83,72.6,24.3,0,5,7,0,2026-04-12T01:07:29.282871+05:30
Jamshedpur,Jharkhand,22.8046,86.2029,22.5,80,0.0,991.4,8.9,18.4,128,136.4,47.4,3,5,7,1,2026-04-12T01:07:29.282879+05:30
Dhanbad,Jharkhand,23.7957,86.4304,22.6,53,0.0,980.2,8.85,30.6,151,97.3,50.2,0,5,7,0,2026-04-12T01:07:29.282886+05:30
Bokaro,Jharkhand,23.6693,86.1511,22.9,46,0.0,984.7,8.85,33.1,145,89.4,46.1,0,5,7,0,2026-04-12T01:07:29.282894+05:30
Bhubaneswar,Odisha,20.2961,85.8245,26.8,96,0.0,1003.4,9.05,31.7,116,32.9,29.9,7,5,4,1,2026-04-12T01:07:29.282902+05:30
Cuttack,Odisha,20.4625,85.8828,26.7,96,0.0,1005.4,9.1,34.2,116,32.9,29.9,7,5,4,1,2026-04-12T01:07:29.282910+05:30
Rourkela,Odisha,22.2604,84.8536,21.2,74,0.0,986.1,8.8,17.6,104,146.2,61.9,3,5,7,1,2026-04-12T01:07:29.282917+05:30
Raipur,Chhattisgarh,21.2514,81.6296,25.6,37,0.0,975.5,8.85,20.9,91,68.7,50.9,4,5,7,0,2026-04-12T01:07:29.282924+05:30
Bhilai,Chhattisgarh,21.1938,81.3509,24.5,42,0.0,975.7,8.9,19.8,92,82.9,64.7,0,5,7,0,2026-04-12T01:07:29.282931+05:30
Guwahati,Assam,26.1158,91.7086,23.9,83,0.0,1002.7,8.4,31.0,99,48.2,40.7,3,5,4,1,2026-04-12T01:07:29.282939+05:30
Agartala,Tripura,23.8315,91.2868,23.9,94,0.0,1006.5,8.65,31.3,123,44.1,37.1,3,5,4,1,2026-04-12T01:07:29.282946+05:30
Shillong,Meghalaya,25.5788,91.8933,12.6,84,0.0,855.2,8.05,61.6,89,52.5,39.6,3,10,7,0,2026-04-12T01:07:29.282955+05:30
Imphal,Manipur,24.817,93.9368,16.2,81,0.0,923.4,8.95,66.6,94,55.9,42.1,3,10,7,0,2026-04-12T01:07:29.282964+05:30
Aizawl,Mizoram,23.7271,92.7176,17.6,71,0.0,892.4,8.85,52.2,91,58.0,41.0,3,5,7,0,2026-04-12T01:07:29.282972+05:30
Kohima,Nagaland,25.6701,94.1077,13.4,74,0.0,853.8,8.9,89.6,78,44.9,34.6,3,5,7,0,2026-04-12T01:07:29.282979+05:30
Gangtok,Sikkim,27.3314,88.6138,11.5,92,0.1,835.5,8.1,16.6,83,40.0,35.7,6,10,7,0,2026-04-12T01:07:29.282985+05:30
Siliguri,West Bengal,26.7271,88.3953,19.7,65,0.0,994.4,7.4,18.0,113,64.3,53.9,3,5,7,0,2026-04-12T01:07:32.621178+05:30
Durgapur,West Bengal,23.5204,87.3119,24.7,53,0.0,995.1,8.8,21.2,151,158.8,71.2,0,5,7,0,2026-04-12T01:07:32.621210+05:30
Asansol,West Bengal,23.6739,86.9524,26.0,45,0.0,993.7,8.8,22.3,131,102.0,47.7,4,5,7,0,2026-04-12T01:07:32.621223+05:30
Pondicherry,Puducherry,11.9139,79.8145,27.6,91,0.0,1009.4,9.35,28.8,55,16.8,11.4,7,0,4,1,2026-04-12T01:07:32.621233+05:30
Port Blair,Andaman and Nicobar Islands,11.6234,92.7265,28.9,78,0.0,1006.7,9.25,16.9,29,12.3,7.5,7,5,4,1,2026-04-12T01:07:32.621242+05:30
Haridwar,Uttarakhand,29.9457,78.1642,19.6,69,0.0,976.3,7.0,34.9,70,60.8,31.0,3,5,7,0,2026-04-12T01:07:32.621252+05:30
Rishikesh,Uttarakhand,30.0869,78.2676,19.4,67,0.0,969.2,7.1,35.3,62,81.0,25.6,3,5,7,0,2026-04-12T01:07:32.621261+05:30
Nainital,Uttarakhand,29.3919,79.4542,17.8,33,0.0,806.5,7.95,47.2,58,67.1,21.5,0,5,7,0,2026-04-12T01:07:32.621270+05:30
Mussoorie,Uttarakhand,30.4599,78.0664,13.5,62,0.0,802.8,7.5,37.4,63,83.1,31.0,3,5,7,0,2026-04-12T01:07:32.621279+05:30
Dharamshala,Himachal Pradesh,32.219,76.3234,16.1,53,0.0,870.1,7.7,25.9,56,8.3,5.2,0,5,7,0,2026-04-12T01:07:32.621288+05:30
Dalhousie,Himachal Pradesh,32.5387,75.971,12.0,57,0.0,803.4,7.95,20.9,62,45.6,27.4,0,5,7,0,2026-04-12T01:07:32.621297+05:30
Patiala,Punjab,30.3398,76.3869,20.3,67,0.0,980.9,7.05,31.0,306,161.1,47.8,3,5,7,0,2026-04-12T01:07:32.621306+05:30
Bhatinda,Punjab,30.211,74.9455,21.2,62,0.0,986.7,7.75,31.0,88,83.6,35.5,3,5,7,0,2026-04-12T01:07:32.621314+05:30
Rohtak,Haryana,28.8955,76.6066,22.1,60,0.0,984.3,7.25,34.6,631,659.4,106.2,0,5,7,0,2026-04-12T01:07:32.621322+05:30
Panipat,Haryana,29.3909,76.9635,21.5,61,0.0,982.8,7.05,33.1,1308,899.7,120.6,3,5,7,0,2026-04-12T01:07:32.621331+05:30
Mathura,Uttar Pradesh,27.4924,77.6737,23.5,58,0.0,988.5,7.55,26.6,780,1035.6,137.8,0,5,7,0,2026-04-12T01:07:32.621339+05:30
Vrindavan,Uttar Pradesh,27.5823,77.7027,23.5,58,0.0,988.8,7.5,30.2,780,1035.6,137.8,0,5,7,0,2026-04-12T01:07:32.621347+05:30
Ayodhya,Uttar Pradesh,26.7922,82.1998,24.0,49,0.0,996.3,7.9,40.7,151,222.1,50.2,0,5,7,0,2026-04-12T01:07:32.621356+05:30
Ratlam,Madhya Pradesh,23.3315,75.0367,26.7,42,0.0,955.5,8.35,24.8,79,21.2,14.5,4,5,7,0,2026-04-12T01:07:32.621364+05:30
Sagar,Madhya Pradesh,23.8388,78.7378,25.6,39,0.0,950.9,8.5,32.0,57,47.1,20.0,4,5,7,0,2026-04-12T01:07:32.621372+05:30
Satna,Madhya Pradesh,24.6005,80.8322,26.2,39,0.0,973.0,8.5,34.6,71,84.1,28.3,4,5,7,0,2026-04-12T01:07:32.621380+05:30
Akola,Maharashtra,20.7002,77.0082,26.7,51,0.0,975.2,8.75,20.2,78,38.9,31.1,4,5,7,0,2026-04-12T01:07:32.621389+05:30
Amravati,Maharashtra,20.9374,77.7796,26.0,49,0.0,967.3,8.75,21.6,81,42.8,35.0,4,5,7,0,2026-04-12T01:07:32.621398+05:30
Latur,Maharashtra,18.4088,76.5604,27.5,51,0.0,939.6,9.05,22.7,115,39.6,29.4,4,5,7,1,2026-04-12T01:07:32.621406+05:30
Nanded,Maharashtra,19.1383,77.3091,28.2,54,0.0,968.4,8.95,11.2,88,45.4,36.2,4,5,7,1,2026-04-12T01:07:32.621414+05:30
Gulbarga,Karnataka,17.3297,76.8343,31.5,39,0.0,958.4,9.1,31.0,89,31.2,26.4,0,5,7,0,2026-04-12T01:07:32.621422+05:30
Bidar,Karnataka,17.9104,77.5199,28.8,50,0.0,935.7,9.1,29.2,100,41.0,30.9,4,5,7,1,2026-04-12T01:07:32.621429+05:30
Hospet,Karnataka,15.2689,76.3909,28.5,71,0.0,955.8,9.25,25.6,131,49.0,41.8,7,5,7,1,2026-04-12T01:07:32.621437+05:30
Tirupur,Tamil Nadu,11.1085,77.3411,28.4,75,0.0,975.9,9.45,30.6,79,31.5,27.8,7,5,7,1,2026-04-12T01:07:32.621445+05:30
Alappuzha,Kerala,9.4981,76.3388,28.7,83,0.0,1009.2,9.2,24.1,70,44.6,30.6,7,0,4,1,2026-04-12T01:07:32.621453+05:30
Munnar,Kerala,10.0889,77.0595,21.4,92,0.0,857.4,9.75,36.7,78,37.5,32.5,3,5,7,1,2026-04-12T01:07:32.621462+05:30
Silchar,Assam,24.8333,92.7789,22.7,75,0.0,1005.5,8.65,40.3,129,67.5,47.5,3,5,4,1,2026-04-12T01:07:32.621471+05:30
Dibrugarh,Assam,27.4728,94.912,21.2,85,0.0,997.5,8.15,25.2,90,33.6,29.5,3,5,7,1,2026-04-12T01:07:32.621479+05:30
