city,state,latitude,longitude,temp,humidity,rain,pressure,uv_index,wind_gusts,aqi,pm10,pm2_5,mosquito_risk,arthritis_risk,migraine_risk,frizz_risk,updated_at
Delhi,Delhi,28.6139,77.209,28.3,44,0.0,979.9,6.8,25.6,194,234.2,54.4,4,5,7,0,2026-04-19T04:08:35.334450+05:30
Mumbai,Maharashtra,19.076,72.8777,29.7,76,0.0,1006.0,6.6,25.6,90,58.7,24.3,7,5,4,1,2026-04-19T04:08:35.334495+05:30
Bangalore,Karnataka,12.9716,77.5946,23.7,63,0.0,910.1,9.6,27.0,95,31.2,26.2,3,5,7,1,2026-04-19T04:08:35.334510+05:30
Hyderabad,Telangana,17.385,78.4867,27.2,72,0.0,951.2,9.3,55.4,102,43.8,35.3,7,5,7,1,2026-04-19T04:08:35.334519+05:30
Chennai,Tamil Nadu,13.0827,80.2707,27.7,87,0.0,1005.7,9.3,34.2,38,13.8,8.6,7,5,4,1,2026-04-19T04:08:35.334527+05:30
Kolkata,West Bengal,22.5726,88.3639,27.4,93,0.0,1003.1,8.9,30.6,82,25.5,19.6,7,5,4,1,2026-04-19T04:08:35.334536+05:30
Pune,Maharashtra,18.5204,73.8567,26.0,89,0.0,946.6,8.55,37.4,105,33.4,26.6,7,5,7,1,2026-04-19T04:08:35.334543+05:30
Ahmedabad,Gujarat,23.0225,72.5714,26.0,48,0.0,1000.4,8.05,23.4,63,16.1,10.0,4,5,4,0,2026-04-19T04:08:35.334551+05:30
Jaipur,Rajasthan,26.9124,75.7873,28.0,31,0.0,957.6,7.7,41.4,171,290.6,40.7,4,5,7,0,2026-04-19T04:08:35.334557+05:30
Lucknow,Uttar Pradesh,26.8467,80.9462,26.6,61,0.0,990.0,7.85,29.9,110,183.0,51.5,7,5,7,1,2026-04-19T04:08:35.334564+05:30
Kanpur,Uttar Pradesh,26.4499,80.3319,24.5,69,0.0,988.3,7.9,23.4,160,307.3,63.8,3,5,7,1,2026-04-19T04:08:35.334570+05:30
Chandigarh,Chandigarh,30.7333,76.7794,22.5,57,0.0,965.9,6.25,39.2,62,31.7,20.7,0,5,7,0,2026-04-19T04:08:35.334576+05:30
Srinagar,Jammu and Kashmir,34.0837,74.7973,10.8,92,0.1,843.2,7.0,23.0,72,41.6,23.2,6,10,7,0,2026-04-19T04:08:35.334583+05:30
Jammu,Jammu and Kashmir,32.7266,74.857,22.9,56,0.0,972.0,5.5,32.8,63,20.0,15.3,0,5,3,0,2026-04-19T04:08:35.334590+05:30
Amritsar,Punjab,31.634,74.8723,22.4,58,0.0,979.1,6.75,28.8,62,35.4,22.1,0,5,7,0,2026-04-19T04:08:35.334595+05:30
Ludhiana,Punjab,30.901,75.8573,24.8,55,0.0,976.4,6.75,36.0,83,39.5,28.5,0,5,7,0,2026-04-19T04:08:35.334602+05:30
Jalandhar,Punjab,31.326,75.5762,23.2,58,0.0,977.7,7.2,29.9,69,46.1,23.1,0,5,7,0,2026-04-19T04:08:35.334609+05:30
Dehradun,Uttarakhand,30.6284,78.0322,16.7,38,0.0,829.6,6.15,40.7,32,10.3,6.9,0,5,7,0,2026-04-19T04:08:35.334615+05:30
Shimla,Himachal Pradesh,31.1048,77.1734,14.6,51,0.0,783.8,5.8,46.4,49,25.4,13.0,0,5,3,0,2026-04-19T04:08:35.334622+05:30
Manali,Himachal Pradesh,32.2396,77.1887,16.8,30,0.0,821.2,7.95,41.4,43,10.0,5.2,0,5,7,1,2026-04-19T04:08:35.334627+05:30
Gurgaon,Haryana,28.4595,77.0266,24.4,64,0.0,978.1,6.85,27.7,448,312.0,77.8,3,5,7,1,2026-04-19T04:08:35.334633+05:30
Noida,Uttar Pradesh,28.5355,77.391,28.1,45,0.0,981.3,6.35,22.3,448,312.0,77.8,4,5,7,0,2026-04-19T04:08:35.334638+05:30
Ghaziabad,Uttar Pradesh,28.6692,77.4538,25.8,56,0.0,979.4,6.65,24.5,163,235.6,55.3,4,5,7,1,2026-04-19T04:08:35.334644+05:30
Faridabad,Haryana,28.4089,77.3178,25.1,57,0.0,980.6,5.95,21.2,448,312.0,77.8,4,5,3,0,2026-04-19T04:08:35.334649+05:30
Meerut,Uttar Pradesh,28.9845,77.7064,24.1,62,0.0,978.3,6.0,29.5,163,235.6,55.3,3,5,3,1,2026-04-19T04:08:35.334654+05:30
Agra,Uttar Pradesh,27.1767,78.0081,24.7,66,0.0,984.6,7.75,26.3,403,423.8,99.0,3,5,7,1,2026-04-19T04:08:35.334661+05:30
Varanasi,Uttar Pradesh,25.3176,82.9739,25.2,62,0.0,994.1,8.5,28.4,107,88.7,44.4,7,5,7,1,2026-04-19T04:08:35.334667+05:30
Prayagraj,Uttar Pradesh,25.4358,81.8463,27.0,54,0.0,992.4,8.35,27.0,95,167.2,45.6,4,5,7,1,2026-04-19T04:08:35.334674+05:30
Gorakhpur,Uttar Pradesh,26.7606,83.3732,26.0,85,0.0,993.9,8.3,27.0,121,78.9,51.1,7,5,7,1,2026-04-19T04:08:35.334680+05:30
Bareilly,Uttar Pradesh,28.367,79.4304,23.2,70,0.0,983.3,7.3,27.4,80,94.1,35.3,3,5,7,1,2026-04-19T04:08:35.334685+05:30
Aligarh,Uttar Pradesh,27.8974,78.088,25.4,54,0.0,982.3,7.45,30.2,290,251.5,75.4,4,5,7,0,2026-04-19T04:08:35.334691+05:30
Moradabad,Uttar Pradesh,28.8386,78.7733,23.1,69,0.0,980.4,6.75,31.3,101,131.8,47.1,3,5,7,1,2026-04-19T04:08:35.334696+05:30
Saharanpur,Uttar Pradesh,29.9637,77.546,21.3,71,0.0,972.7,6.9,44.6,96,70.1,46.2,3,5,7,0,2026-04-19T04:08:35.334702+05:30
Jhansi,Uttar Pradesh,25.4484,78.5685,25.3,63,0.0,975.0,8.25,29.2,80,31.2,14.3,7,5,7,1,2026-04-19T04:08:38.644149+05:30
Surat,Gujarat,21.1702,72.8311,27.8,80,0.0,1004.6,7.85,25.6,110,34.7,22.9,7,5,4,1,2026-04-19T04:08:38.644180+05:30
Vadodara,Gujarat,22.3072,73.1812,27.6,70,0.0,1002.4,8.05,28.1,85,28.3,22.2,7,5,4,1,2026-04-19T04:08:38.644189+05:30
Rajkot,Gujarat,22.3039,70.8022,23.5,80,0.0,993.2,7.65,30.2,55,26.7,13.3,3,5,7,1,2026-04-19T04:08:38.644197+05:30
Thane,Maharashtra,19.2183,72.9781,27.0,85,0.0,1005.5,6.2,38.2,90,58.7,24.3,7,5,4,1,2026-04-19T04:08:38.644204+05:30
Nagpur,Maharashtra,21.1458,79.0882,28.1,64,0.0,970.6,8.9,23.4,92,27.7,25.4,7,5,7,1,2026-04-19T04:08:38.644212+05:30
Nashik,Maharashtra,19.9975,73.7898,25.6,72,0.0,944.0,8.25,29.9,73,45.1,33.1,7,5,7,1,2026-04-19T04:08:38.644219+05:30
Aurangabad,Maharashtra,19.8762,75.3433,28.8,37,0.0,942.3,9.05,28.4,61,24.6,18.5,4,5,7,0,2026-04-19T04:08:38.644226+05:30
Solapur,Maharashtra,17.6599,75.9064,28.0,56,0.0,954.8,9.0,34.2,129,56.0,51.8,4,5,7,1,2026-04-19T04:08:38.644234+05:30
Kolhapur,Maharashtra,16.705,74.2433,24.5,91,0.0,945.8,9.05,37.8,97,49.8,37.0,3,5,7,1,2026-04-19T04:08:38.644241+05:30
Goa,Goa,15.2993,74.124,27.3,90,0.0,995.5,9.05,29.9,81,68.9,37.6,7,5,7,1,2026-04-19T04:08:38.644248+05:30
Jodhpur,Rajasthan,26.2389,73.0243,27.1,37,0.0,981.0,7.6,27.4,97,180.7,31.1,4,5,7,0,2026-04-19T04:08:38.644256+05:30
Udaipur,Rajasthan,24.5854,73.7125,25.9,33,0.0,945.5,8.5,36.0,43,10.1,5.7,4,5,7,0,2026-04-19T04:08:38.644262+05:30
Kota,Rajasthan,25.2138,75.8648,27.5,46,0.0,976.2,8.2,36.7,84,34.8,13.9,4,5,7,0,2026-04-19T04:08:38.644269+05:30
Bikaner,Rajasthan,28.0229,73.3119,29.0,27,0.0,979.6,8.0,26.6,78,198.8,43.5,4,5,7,0,2026-04-19T04:08:38.644276+05:30
Ajmer,Rajasthan,26.4499,74.6399,27.4,35,0.0,953.1,6.95,31.7,61,63.6,12.8,4,5,7,0,2026-04-19T04:08:38.644283+05:30
Gwalior,Madhya Pradesh,26.2183,78.1828,25.0,68,0.0,980.0,7.3,38.9,101,66.4,27.6,7,5,7,1,2026-04-19T04:08:38.644291+05:30
Indore,Madhya Pradesh,22.7196,75.8577,25.2,51,0.0,946.3,8.6,31.0,54,11.9,9.2,4,5,7,0,2026-04-19T04:08:38.644297+05:30
Bhopal,Madhya Pradesh,23.2599,77.4126,25.6,44,0.0,951.7,8.6,31.0,58,13.3,12.7,4,5,7,0,2026-04-19T04:08:38.644304+05:30
Jabalpur,Madhya Pradesh,23.1815,79.9864,27.9,49,0.0,959.1,8.75,23.8,76,21.5,19.0,4,5,7,1,2026-04-19T04:08:38.644311+05:30
Ujjain,Madhya Pradesh,23.1765,75.7885,25.6,50,0.0,952.0,8.5,34.2,53,10.5,8.5,4,5,7,0,2026-04-19T04:08:38.644319+05:30
Visakhapatnam,Andhra Pradesh,17.6868,83.2185,27.2,90,0.0,1001.7,9.2,40.0,64,22.9,16.0,7,5,4,1,2026-04-19T04:08:38.644326+05:30
Vijayawada,Andhra Pradesh,16.5062,80.648,27.1,91,0.0,1001.2,9.25,27.7,59,14.6,10.5,7,5,4,1,2026-04-19T04:08:38.644333+05:30
Guntur,Andhra Pradesh,16.3067,80.4365,27.3,89,0.0,1002.2,9.25,32.4,63,14.0,10.0,7,5,4,1,2026-04-19T04:08:38.644340+05:30
Nellore,Andhra Pradesh,14.4426,79.9865,27.3,88,0.0,1003.9,9.3,34.2,52,12.4,8.9,7,5,4,1,2026-04-19T04:08:38.644348+05:30
Kurnool,Andhra Pradesh,15.8281,78.0373,30.2,66,0.0,974.4,9.25,25.9,90,25.0,22.1,3,5,7,1,2026-04-19T04:08:38.644356+05:30
Kakinada,Andhra Pradesh,16.9891,82.2475,27.0,89,0.0,1005.8,9.2,31.7,53,20.5,12.4,7,5,4,1,2026-04-19T04:08:38.644363+05:30
Tirupati,Andhra Pradesh,13.6288,79.4192,25.9,86,0.0,990.4,9.35,32.8,66,20.6,17.8,7,5,7,1,2026-04-19T04:08:38.644370+05:30
Warangal,Telangana,17.9689,79.5941,27.5,74,0.0,977.3,9.15,30.2,90,30.9,26.1,7,5,7,1,2026-04-19T04:08:38.644376+05:30
Nizamabad,Telangana,18.6725,78.0941,29.1,52,0.0,963.2,9.1,28.1,114,52.4,47.5,4,5,7,1,2026-04-19T04:08:38.644383+05:30
Mysore,Karnataka,12.2958,76.6396,23.6,93,0.0,927.0,9.5,41.0,90,37.6,34.1,3,5,7,1,2026-04-19T04:08:38.644390+05:30
Mangalore,Karnataka,12.9141,74.856,30.1,80,0.0,1004.5,9.15,24.1,64,42.5,23.4,3,5,4,1,2026-04-19T04:08:38.644397+05:30
Hubli-Dharwad,Karnataka,15.3647,75.124,24.0,94,0.0,939.3,9.25,29.5,68,40.3,30.5,3,5,7,1,2026-04-19T04:08:38.644405+05:30
Belgaum,Karnataka,15.8497,74.4977,22.6,94,0.0,923.0,9.25,33.1,85,59.1,37.8,3,5,7,1,2026-04-19T04:08:41.995848+05:30
Coimbatore,Tamil Nadu,11.0168,76.9558,24.4,91,0.0,960.3,9.45,43.2,98,41.4,37.1,3,5,7,1,2026-04-19T04:08:41.995877+05:30
Madurai,Tamil Nadu,9.9252,78.1198,26.7,91,0.0,991.7,9.3,42.1,66,27.6,26.6,7,5,7,1,2026-04-19T04:08:41.995885+05:30
Trichy,Tamil Nadu,10.7905,78.7047,26.2,90,0.0,998.6,9.3,22.3,53,23.7,20.4,7,5,7,1,2026-04-19T04:08:41.995893+05:30
Salem,Tamil Nadu,11.6643,78.146,25.4,88,0.0,976.1,9.4,18.7,72,20.9,19.2,7,5,7,1,2026-04-19T04:08:41.995901+05:30
Tirunelveli,Tamil Nadu,8.7139,77.7567,26.0,82,0.0,1001.6,9.25,50.4,75,29.8,25.2,7,5,4,1,2026-04-19T04:08:41.995908+05:30
Vellore,Tamil Nadu,12.9165,79.1325,24.5,95,0.0,983.4,9.4,28.4,86,41.4,38.8,3,5,7,1,2026-04-19T04:08:41.995916+05:30
Erode,Tamil Nadu,11.341,77.7172,27.3,81,0.0,987.7,9.35,27.7,62,15.8,15.0,7,5,7,1,2026-04-19T04:08:41.995923+05:30
Kochi,Kerala,9.9312,76.2673,28.8,83,0.0,1006.7,9.15,29.2,80,29.5,24.1,7,5,4,1,2026-04-19T04:08:41.995931+05:30
Thiruvananthapuram,Kerala,8.5241,76.9366,28.7,84,0.0,1005.9,9.1,27.7,73,31.1,20.4,7,5,4,1,2026-04-19T04:08:41.995938+05:30
Kozhikode,Kerala,11.2588,75.7804,29.6,84,0.0,1005.7,9.15,32.8,70,27.2,16.6,7,5,4,1,2026-04-19T04:08:41.995943+05:30
Thrissur,Kerala,10.5276,76.2144,28.5,89,0.0,1005.1,9.15,37.8,79,26.8,22.4,7,5,4,1,2026-04-19T04:08:41.995949+05:30
Kannur,Kerala,11.8745,75.3704,29.4,83,0.0,1005.0,9.1,32.4,68,30.6,20.6,7,5,4,1,2026-04-19T04:08:41.995955+05:30
Patna,Bihar,25.5941,85.1376,27.1,87,0.0,997.0,8.6,27.0,142,49.7,46.8,7,5,7,1,2026-04-19T04:08:41.995960+05:30
Gaya,Bihar,24.7914,85.0002,27.0,59,0.0,990.3,8.7,30.2,97,67.8,44.7,4,5,7,1,2026-04-19T04:08:41.995965+05:30
Muzaffarpur,Bihar,26.1209,85.3647,25.7,89,0.0,997.3,8.6,29.9,152,46.9,44.0,7,5,7,1,2026-04-19T04:08:41.995971+05:30
Bhagalpur,Bihar,25.2425,87.0117,25.7,91,0.0,998.5,8.65,31.3,134,40.3,38.1,7,5,7,1,2026-04-19T04:08:41.995976+05:30
Ranchi,Jharkhand,23.3441,85.3096,26.8,42,0.0,936.0,9.2,46.8,77,56.1,24.7,4,5,7,0,2026-04-19T04:08:41.995981+05:30
Jamshedpur,Jharkhand,22.8046,86.2029,28.2,93,0.0,988.2,9.0,29.9,108,53.2,43.0,7,5,7,1,2026-04-19T04:08:41.995987+05:30
Dhanbad,Jharkhand,23.7957,86.4304,28.2,87,0.0,976.9,8.95,40.7,153,98.7,87.3,7,5,7,1,2026-04-19T04:08:41.995992+05:30
Bokaro,Jharkhand,23.6693,86.1511,26.9,86,0.0,981.1,8.95,46.1,151,96.4,68.9,7,5,7,1,2026-04-19T04:08:41.995997+05:30
Bhubaneswar,Odisha,20.2961,85.8245,26.9,92,0.0,1000.2,9.1,33.1,64,22.8,16.9,7,5,4,1,2026-04-19T04:08:41.996017+05:30
Cuttack,Odisha,20.4625,85.8828,27.3,93,0.0,1002.2,9.15,31.0,64,22.8,16.9,7,5,4,1,2026-04-19T04:08:41.996023+05:30
Rourkela,Odisha,22.2604,84.8536,28.6,85,0.0,982.4,8.9,23.4,131,82.7,62.4,7,5,7,1,2026-04-19T04:08:41.996029+05:30
Raipur,Chhattisgarh,21.2514,81.6296,29.6,51,0.0,971.9,8.7,36.4,151,58.2,52.5,4,5,7,1,2026-04-19T04:08:41.996035+05:30
Bhilai,Chhattisgarh,21.1938,81.3509,28.7,55,0.0,972.2,8.45,34.6,154,82.7,67.8,4,5,7,1,2026-04-19T04:08:41.996041+05:30
Guwahati,Assam,26.1158,91.7086,24.5,90,0.0,1000.4,8.55,24.1,126,26.3,21.5,3,5,4,1,2026-04-19T04:08:41.996046+05:30
Agartala,Tripura,23.8315,91.2868,24.7,93,0.0,1004.8,8.75,25.9,121,54.5,48.7,3,5,4,1,2026-04-19T04:08:41.996051+05:30
Shillong,Meghalaya,25.5788,91.8933,15.0,93,0.0,854.8,8.15,44.6,114,30.3,21.9,3,10,7,0,2026-04-19T04:08:41.996057+05:30
Imphal,Manipur,24.817,93.9368,18.9,82,0.0,922.4,8.5,58.7,151,86.8,73.1,3,10,7,0,2026-04-19T04:08:41.996063+05:30
Aizawl,Mizoram,23.7271,92.7176,19.5,90,0.0,891.5,8.3,38.9,142,77.1,64.5,3,10,7,1,2026-04-19T04:08:41.996068+05:30
Kohima,Nagaland,25.6701,94.1077,16.3,86,0.0,854.2,8.2,45.4,133,56.6,46.2,3,10,7,0,2026-04-19T04:08:41.996074+05:30
Gangtok,Sikkim,27.3314,88.6138,15.4,89,0.0,835.6,8.9,22.0,92,18.7,16.8,3,10,7,0,2026-04-19T04:08:41.996079+05:30
Siliguri,West Bengal,26.7271,88.3953,21.0,89,0.0,993.2,8.45,24.8,153,73.3,58.3,3,5,7,1,2026-04-19T04:08:45.307769+05:30
Durgapur,West Bengal,23.5204,87.3119,27.3,93,0.0,992.3,8.9,49.7,122,33.2,31.0,7,5,7,1,2026-04-19T04:08:45.307798+05:30
Asansol,West Bengal,23.6739,86.9524,28.0,89,0.0,990.7,8.95,39.2,127,42.5,40.3,7,5,7,1,2026-04-19T04:08:45.307807+05:30
Pondicherry,Puducherry,11.9139,79.8145,26.5,95,0.0,1007.2,9.25,30.6,32,11.4,7.1,7,5,4,1,2026-04-19T04:08:45.307816+05:30
Port Blair,Andaman and Nicobar Islands,11.6234,92.7265,29.1,79,0.0,1005.7,9.15,13.7,55,16.7,12.9,7,5,4,1,2026-04-19T04:08:45.307824+05:30
Haridwar,Uttarakhand,29.9457,78.1642,22.3,67,0.0,971.6,6.65,31.0,64,30.6,21.1,3,5,7,0,2026-04-19T04:08:45.307832+05:30
Rishikesh,Uttarakhand,30.0869,78.2676,22.3,58,0.0,964.8,6.7,25.6,56,31.4,19.3,0,5,7,0,2026-04-19T04:08:45.307840+05:30
Nainital,Uttarakhand,29.3919,79.4542,22.9,33,0.0,806.4,7.55,60.8,71,32.8,14.6,0,5,7,0,2026-04-19T04:08:45.307848+05:30
Mussoorie,Uttarakhand,30.4599,78.0664,19.4,34,0.0,802.8,6.65,41.0,56,22.0,16.2,0,5,7,0,2026-04-19T04:08:45.307856+05:30
Dharamshala,Himachal Pradesh,32.219,76.3234,23.4,26,0.0,869.3,6.5,33.5,39,15.8,7.3,0,5,7,0,2026-04-19T04:08:45.307863+05:30
Dalhousie,Himachal Pradesh,32.5387,75.971,19.1,25,0.0,803.9,5.6,32.0,56,19.3,13.8,0,5,3,1,2026-04-19T04:08:45.307871+05:30
Patiala,Punjab,30.3398,76.3869,23.9,61,0.0,975.3,6.75,32.4,128,310.1,73.8,3,5,7,0,2026-04-19T04:08:45.307878+05:30
Bhatinda,Punjab,30.211,74.9455,24.2,52,0.0,981.5,7.7,32.8,79,56.7,21.4,0,5,7,0,2026-04-19T04:08:45.307885+05:30
Rohtak,Haryana,28.8955,76.6066,23.7,67,0.0,978.7,6.6,24.1,222,445.2,70.1,3,5,7,1,2026-04-19T04:08:45.307891+05:30
Panipat,Haryana,29.3909,76.9635,24.1,62,0.0,977.4,6.2,36.4,394,782.3,100.8,3,5,7,1,2026-04-19T04:08:45.307898+05:30
Mathura,Uttar Pradesh,27.4924,77.6737,25.2,61,0.0,983.4,7.4,27.4,337,419.1,101.7,7,5,7,1,2026-04-19T04:08:45.307905+05:30
Vrindavan,Uttar Pradesh,27.5823,77.7027,25.6,58,0.0,983.9,7.3,28.1,337,419.1,101.7,4,5,7,1,2026-04-19T04:08:45.307912+05:30
Ayodhya,Uttar Pradesh,26.7922,82.1998,24.3,78,0.0,991.9,8.05,33.8,93,141.6,44.9,3,5,7,1,2026-04-19T04:08:45.307919+05:30
Ratlam,Madhya Pradesh,23.3315,75.0367,27.7,43,0.0,952.9,8.45,26.3,42,9.9,7.8,4,5,7,0,2026-04-19T04:08:45.307926+05:30
Sagar,Madhya Pradesh,23.8388,78.7378,26.5,54,0.0,947.8,8.6,30.2,57,11.6,9.5,4,5,7,1,2026-04-19T04:08:45.307933+05:30
Satna,Madhya Pradesh,24.6005,80.8322,27.9,46,0.0,968.8,8.65,32.0,72,78.9,25.0,4,5,7,0,2026-04-19T04:08:45.307940+05:30
Akola,Maharashtra,20.7002,77.0082,27.7,55,0.0,972.5,8.85,25.6,65,21.1,18.6,4,5,7,1,2026-04-19T04:08:45.307947+05:30
Amravati,Maharashtra,20.9374,77.7796,26.7,39,0.0,964.4,8.85,20.2,67,23.6,21.5,4,5,7,0,2026-04-19T04:08:45.307955+05:30
Latur,Maharashtra,18.4088,76.5604,25.9,62,0.0,937.6,8.85,40.7,106,55.9,48.5,7,5,7,1,2026-04-19T04:08:45.307962+05:30
Nanded,Maharashtra,19.1383,77.3091,26.8,62,0.0,966.2,9.0,26.3,83,38.5,34.5,7,5,7,1,2026-04-19T04:08:45.307969+05:30
Gulbarga,Karnataka,17.3297,76.8343,28.3,61,0.0,956.9,9.1,58.7,95,36.2,31.5,7,5,7,1,2026-04-19T04:08:45.307976+05:30
Bidar,Karnataka,17.9104,77.5199,28.3,56,0.0,933.2,9.15,45.7,100,39.9,35.5,4,5,7,1,2026-04-19T04:08:45.307983+05:30
Hospet,Karnataka,15.2689,76.3909,27.8,83,0.0,953.8,9.3,26.3,89,41.1,37.8,7,5,7,1,2026-04-19T04:08:45.307989+05:30
Tirupur,Tamil Nadu,11.1085,77.3411,27.0,91,0.0,973.9,9.45,30.2,79,24.9,22.1,7,5,7,1,2026-04-19T04:08:45.307996+05:30
Alappuzha,Kerala,9.4981,76.3388,28.8,83,0.0,1006.8,9.05,27.4,86,39.0,29.7,7,5,4,1,2026-04-19T04:08:45.308023+05:30
Munnar,Kerala,10.0889,77.0595,21.1,75,0.0,855.2,9.7,27.4,84,34.3,31.1,3,5,7,1,2026-04-19T04:08:45.308045+05:30
Silchar,Assam,24.8333,92.7789,24.7,91,0.0,1003.9,8.8,29.5,157,92.2,75.2,3,5,4,1,2026-04-19T04:08:45.308054+05:30
Dibrugarh,Assam,27.4728,94.912,23.3,95,0.0,995.8,8.65,19.4,128,75.0,60.5,3,5,7,1,2026-04-19T04:08:45.308061+05:30
