city,state,latitude,longitude,temp,humidity,rain,pressure,uv_index,wind_gusts,aqi,pm10,pm2_5,mosquito_risk,arthritis_risk,migraine_risk,frizz_risk,updated_at
Delhi,Delhi,28.6139,77.209,30.5,33,0.0,977.6,7.45,47.2,542,616.5,112.9,0,5,7,0,2026-04-27T02:12:08.813128+05:30
Mumbai,Maharashtra,19.076,72.8777,28.1,88,0.0,1006.0,8.05,40.3,92,65.4,23.1,7,5,4,1,2026-04-27T02:12:08.813183+05:30
Bangalore,Karnataka,12.9716,77.5946,25.4,49,0.0,910.5,9.55,33.8,86,25.6,23.9,4,5,7,0,2026-04-27T02:12:08.813201+05:30
Hyderabad,Telangana,17.385,78.4867,28.5,55,0.0,950.6,9.2,29.9,98,37.7,33.1,4,5,7,1,2026-04-27T02:12:08.813211+05:30
Chennai,Tamil Nadu,13.0827,80.2707,27.9,91,0.0,1004.8,9.25,56.5,47,19.7,13.3,7,5,4,1,2026-04-27T02:12:08.813241+05:30
Kolkata,West Bengal,22.5726,88.3639,28.0,85,0.0,1001.1,8.8,46.8,58,19.3,13.7,7,5,4,1,2026-04-27T02:12:08.813257+05:30
Pune,Maharashtra,18.5204,73.8567,26.3,67,0.0,945.3,8.1,42.5,113,37.6,25.0,7,5,7,1,2026-04-27T02:12:08.813266+05:30
Ahmedabad,Gujarat,23.0225,72.5714,33.0,23,0.0,998.2,8.2,45.4,60,20.5,10.7,0,5,7,0,2026-04-27T02:12:08.813274+05:30
Jaipur,Rajasthan,26.9124,75.7873,32.0,22,0.0,955.3,8.05,39.6,140,149.0,31.3,0,5,7,0,2026-04-27T02:12:08.813283+05:30
Lucknow,Uttar Pradesh,26.8467,80.9462,28.5,67,0.0,988.3,7.9,42.5,179,324.1,71.0,7,5,7,1,2026-04-27T02:12:08.813291+05:30
Kanpur,Uttar Pradesh,26.4499,80.3319,32.2,24,0.0,985.5,7.95,49.3,542,341.8,57.5,0,5,7,0,2026-04-27T02:12:08.813300+05:30
Chandigarh,Chandigarh,30.7333,76.7794,27.0,28,0.0,962.8,7.3,45.4,62,21.1,16.5,4,5,7,0,2026-04-27T02:12:08.813307+05:30
Srinagar,Jammu and Kashmir,34.0837,74.7973,10.0,89,0.0,837.4,8.3,20.2,76,35.0,29.3,3,10,7,0,2026-04-27T02:12:08.813315+05:30
Jammu,Jammu and Kashmir,32.7266,74.857,22.8,39,0.0,966.5,8.25,30.2,67,28.6,23.6,0,5,7,0,2026-04-27T02:12:08.813322+05:30
Amritsar,Punjab,31.634,74.8723,27.2,36,0.0,975.1,8.15,35.6,75,43.1,25.6,4,5,7,0,2026-04-27T02:12:08.813330+05:30
Ludhiana,Punjab,30.901,75.8573,26.9,37,0.0,973.1,7.7,34.6,76,45.4,28.4,4,5,7,0,2026-04-27T02:12:08.813339+05:30
Jalandhar,Punjab,31.326,75.5762,26.2,37,0.0,974.1,7.9,28.1,83,39.5,33.3,4,5,7,0,2026-04-27T02:12:08.813346+05:30
Dehradun,Uttarakhand,30.6284,78.0322,13.5,51,0.0,824.4,7.9,43.9,46,24.7,13.1,0,5,7,0,2026-04-27T02:12:08.813353+05:30
Shimla,Himachal Pradesh,31.1048,77.1734,12.2,43,0.0,779.1,7.8,50.0,51,26.1,13.1,0,5,7,0,2026-04-27T02:12:08.813361+05:30
Manali,Himachal Pradesh,32.2396,77.1887,6.9,45,0.0,810.1,9.15,41.4,64,23.3,9.8,0,5,7,1,2026-04-27T02:12:08.813371+05:30
Gurgaon,Haryana,28.4595,77.0266,27.9,33,0.0,975.9,7.55,36.4,1372,702.2,112.7,4,5,7,0,2026-04-27T02:12:08.813379+05:30
Noida,Uttar Pradesh,28.5355,77.391,29.6,28,0.0,978.9,7.45,43.9,1372,702.2,112.7,4,5,7,0,2026-04-27T02:12:08.813386+05:30
Ghaziabad,Uttar Pradesh,28.6692,77.4538,28.5,27,0.0,977.1,7.4,41.4,451,601.6,112.2,4,5,7,0,2026-04-27T02:12:08.813393+05:30
Faridabad,Haryana,28.4089,77.3178,31.9,22,0.0,978.3,7.5,47.5,1372,702.2,112.7,0,5,7,0,2026-04-27T02:12:08.813400+05:30
Meerut,Uttar Pradesh,28.9845,77.7064,28.1,28,0.0,975.8,7.35,40.3,451,601.6,112.2,4,5,7,0,2026-04-27T02:12:08.813407+05:30
Agra,Uttar Pradesh,27.1767,78.0081,31.0,28,0.0,981.9,7.8,45.4,842,245.9,46.1,0,5,7,0,2026-04-27T02:12:08.813415+05:30
Varanasi,Uttar Pradesh,25.3176,82.9739,28.5,67,0.0,992.3,8.5,44.3,143,82.4,67.1,7,5,7,1,2026-04-27T02:12:08.813423+05:30
Prayagraj,Uttar Pradesh,25.4358,81.8463,28.7,56,0.0,990.2,8.4,43.6,134,108.3,54.0,4,5,7,1,2026-04-27T02:12:08.813430+05:30
Gorakhpur,Uttar Pradesh,26.7606,83.3732,25.1,74,0.0,993.5,8.35,37.1,151,70.8,55.1,7,5,7,1,2026-04-27T02:12:08.813437+05:30
Bareilly,Uttar Pradesh,28.367,79.4304,27.1,34,0.0,980.8,7.6,45.0,121,270.1,65.4,4,5,7,0,2026-04-27T02:12:08.813444+05:30
Aligarh,Uttar Pradesh,27.8974,78.088,29.0,31,0.0,979.9,7.6,46.8,962,760.0,132.7,4,5,7,0,2026-04-27T02:12:08.813451+05:30
Moradabad,Uttar Pradesh,28.8386,78.7733,28.3,27,0.0,977.9,7.55,48.2,130,352.0,84.3,4,5,7,0,2026-04-27T02:12:08.813458+05:30
Saharanpur,Uttar Pradesh,29.9637,77.546,27.5,27,0.0,969.6,7.05,46.8,83,118.7,37.4,4,5,7,0,2026-04-27T02:12:08.813467+05:30
Jhansi,Uttar Pradesh,25.4484,78.5685,30.6,28,0.0,972.4,8.3,43.6,90,52.5,23.2,0,5,7,0,2026-04-27T02:12:12.086967+05:30
Surat,Gujarat,21.1702,72.8311,29.1,72,0.0,1002.8,7.85,40.7,118,45.2,27.1,7,5,4,1,2026-04-27T02:12:12.087000+05:30
Vadodara,Gujarat,22.3072,73.1812,30.7,38,0.0,1000.4,8.15,41.4,77,42.4,29.3,0,5,4,0,2026-04-27T02:12:12.087010+05:30
Rajkot,Gujarat,22.3039,70.8022,27.6,50,0.0,991.4,7.9,49.0,58,34.1,14.1,4,5,7,1,2026-04-27T02:12:12.087018+05:30
Thane,Maharashtra,19.2183,72.9781,27.6,91,0.0,1005.4,8.05,37.1,92,65.4,23.1,7,5,4,1,2026-04-27T02:12:12.087025+05:30
Nagpur,Maharashtra,21.1458,79.0882,32.2,26,0.0,969.2,8.55,36.7,104,54.6,30.3,0,5,7,0,2026-04-27T02:12:12.087032+05:30
Nashik,Maharashtra,19.9975,73.7898,27.0,42,0.0,943.1,8.3,37.8,77,55.5,34.8,4,5,7,0,2026-04-27T02:12:12.087039+05:30
Aurangabad,Maharashtra,19.8762,75.3433,30.5,23,0.0,941.0,9.05,32.8,68,28.9,23.6,0,5,7,0,2026-04-27T02:12:12.087046+05:30
Solapur,Maharashtra,17.6599,75.9064,30.7,35,0.0,954.5,9.1,32.8,107,41.1,37.3,0,5,7,0,2026-04-27T02:12:12.087054+05:30
Kolhapur,Maharashtra,16.705,74.2433,24.5,93,0.0,946.2,9.0,49.7,98,26.4,17.2,3,5,7,1,2026-04-27T02:12:12.087061+05:30
Goa,Goa,15.2993,74.124,28.4,88,0.0,995.8,8.95,37.1,88,40.0,29.1,7,5,7,1,2026-04-27T02:12:12.087068+05:30
Jodhpur,Rajasthan,26.2389,73.0243,32.8,19,0.0,978.0,8.3,41.8,82,154.1,26.4,0,5,7,0,2026-04-27T02:12:12.087075+05:30
Udaipur,Rajasthan,24.5854,73.7125,30.5,18,0.0,943.3,8.75,44.3,50,45.1,14.3,0,5,7,0,2026-04-27T02:12:12.087082+05:30
Kota,Rajasthan,25.2138,75.8648,32.0,21,0.0,974.0,8.25,29.9,89,71.0,40.7,0,5,7,0,2026-04-27T02:12:12.087089+05:30
Bikaner,Rajasthan,28.0229,73.3119,31.8,24,0.0,976.4,8.1,52.2,70,68.0,20.3,0,5,7,0,2026-04-27T02:12:12.087096+05:30
Ajmer,Rajasthan,26.4499,74.6399,30.3,27,0.0,950.8,8.25,46.8,66,36.9,14.8,0,5,7,0,2026-04-27T02:12:12.087102+05:30
Gwalior,Madhya Pradesh,26.2183,78.1828,31.6,24,0.0,977.3,8.05,46.8,117,85.7,24.0,0,5,7,0,2026-04-27T02:12:12.087109+05:30
Indore,Madhya Pradesh,22.7196,75.8577,30.6,19,0.0,945.1,8.6,49.0,70,55.9,35.3,0,5,7,0,2026-04-27T02:12:12.087115+05:30
Bhopal,Madhya Pradesh,23.2599,77.4126,33.0,21,0.0,950.0,8.6,44.6,83,71.2,36.4,0,5,7,0,2026-04-27T02:12:12.087121+05:30
Jabalpur,Madhya Pradesh,23.1815,79.9864,28.9,29,0.0,956.8,8.25,40.0,74,72.4,27.4,4,5,7,0,2026-04-27T02:12:12.087127+05:30
Ujjain,Madhya Pradesh,23.1765,75.7885,29.8,20,0.0,950.5,8.55,46.1,73,41.2,29.7,4,5,7,0,2026-04-27T02:12:12.087134+05:30
Visakhapatnam,Andhra Pradesh,17.6868,83.2185,27.0,91,0.0,1000.7,9.15,54.4,56,20.3,14.8,7,5,4,1,2026-04-27T02:12:12.087141+05:30
Vijayawada,Andhra Pradesh,16.5062,80.648,26.8,92,0.0,1000.3,9.2,37.1,58,21.9,15.9,7,5,4,1,2026-04-27T02:12:12.087147+05:30
Guntur,Andhra Pradesh,16.3067,80.4365,27.2,94,0.0,1001.5,9.2,42.1,59,21.2,15.2,7,5,4,1,2026-04-27T02:12:12.087153+05:30
Nellore,Andhra Pradesh,14.4426,79.9865,26.9,88,0.0,1003.2,9.3,49.0,54,15.4,12.1,7,5,4,1,2026-04-27T02:12:12.087160+05:30
Kurnool,Andhra Pradesh,15.8281,78.0373,30.8,50,0.0,974.2,9.2,38.2,86,31.3,27.2,0,5,7,1,2026-04-27T02:12:12.087167+05:30
Kakinada,Andhra Pradesh,16.9891,82.2475,27.0,93,0.0,1005.0,9.2,42.5,50,23.0,14.7,7,5,4,1,2026-04-27T02:12:12.087174+05:30
Tirupati,Andhra Pradesh,13.6288,79.4192,27.1,77,0.0,989.4,9.3,46.4,65,18.9,16.2,7,5,7,1,2026-04-27T02:12:12.087180+05:30
Warangal,Telangana,17.9689,79.5941,27.5,65,0.0,975.9,8.85,40.0,77,24.4,21.5,7,5,7,1,2026-04-27T02:12:12.087186+05:30
Nizamabad,Telangana,18.6725,78.0941,30.6,35,0.0,960.8,9.1,29.9,102,44.6,41.2,0,5,7,0,2026-04-27T02:12:12.087192+05:30
Mysore,Karnataka,12.2958,76.6396,23.4,92,0.0,927.0,9.45,44.3,90,38.0,34.9,3,5,7,1,2026-04-27T02:12:12.087198+05:30
Mangalore,Karnataka,12.9141,74.856,29.0,83,0.0,1005.1,8.45,38.9,83,42.3,35.2,7,5,4,1,2026-04-27T02:12:12.087204+05:30
Hubli-Dharwad,Karnataka,15.3647,75.124,24.2,94,0.0,938.8,9.2,48.2,94,31.2,27.2,3,5,7,1,2026-04-27T02:12:12.087210+05:30
Belgaum,Karnataka,15.8497,74.4977,22.9,98,0.0,923.4,9.25,48.2,104,33.5,28.3,3,5,7,1,2026-04-27T02:12:15.365026+05:30
Coimbatore,Tamil Nadu,11.0168,76.9558,26.7,78,0.0,960.0,9.35,46.8,82,37.4,35.4,7,5,7,1,2026-04-27T02:12:15.365058+05:30
Madurai,Tamil Nadu,9.9252,78.1198,28.4,75,0.0,991.6,9.2,46.4,47,9.8,9.6,7,5,7,1,2026-04-27T02:12:15.365068+05:30
Trichy,Tamil Nadu,10.7905,78.7047,26.9,91,0.0,998.0,9.25,41.0,49,16.6,14.6,7,5,7,1,2026-04-27T02:12:15.365076+05:30
Salem,Tamil Nadu,11.6643,78.146,27.4,72,0.0,975.4,9.3,34.2,65,20.8,19.8,7,5,7,1,2026-04-27T02:12:15.365084+05:30
Tirunelveli,Tamil Nadu,8.7139,77.7567,27.6,75,0.0,1001.4,8.55,46.1,51,14.7,14.2,7,5,4,1,2026-04-27T02:12:15.365091+05:30
Vellore,Tamil Nadu,12.9165,79.1325,26.1,80,0.0,982.4,9.25,40.3,83,35.0,32.8,7,5,7,1,2026-04-27T02:12:15.365098+05:30
Erode,Tamil Nadu,11.341,77.7172,28.8,60,0.0,987.5,9.3,45.4,54,11.7,11.4,4,5,7,1,2026-04-27T02:12:15.365105+05:30
Kochi,Kerala,9.9312,76.2673,27.8,89,0.0,1007.0,9.0,35.3,68,24.7,23.3,7,5,4,1,2026-04-27T02:12:15.365112+05:30
Thiruvananthapuram,Kerala,8.5241,76.9366,25.5,91,0.0,1006.3,8.65,34.9,45,11.8,9.7,7,5,4,1,2026-04-27T02:12:15.365119+05:30
Kozhikode,Kerala,11.2588,75.7804,25.9,91,0.0,1006.6,8.8,38.9,53,22.6,16.5,7,5,4,1,2026-04-27T02:12:15.365126+05:30
Thrissur,Kerala,10.5276,76.2144,26.3,97,0.0,1005.5,9.0,33.8,66,23.7,22.3,7,5,4,1,2026-04-27T02:12:15.365133+05:30
Kannur,Kerala,11.8745,75.3704,26.0,95,0.0,1005.9,9.0,37.4,69,34.7,29.8,7,5,4,1,2026-04-27T02:12:15.365140+05:30
Patna,Bihar,25.5941,85.1376,24.5,81,0.0,996.0,8.6,34.9,151,43.2,40.0,3,5,7,1,2026-04-27T02:12:15.365147+05:30
Gaya,Bihar,24.7914,85.0002,26.5,79,0.0,988.3,8.7,31.0,136,57.6,54.6,7,5,7,1,2026-04-27T02:12:15.365153+05:30
Muzaffarpur,Bihar,26.1209,85.3647,23.5,79,0.0,997.0,8.6,36.7,152,47.3,43.2,3,5,7,1,2026-04-27T02:12:15.365159+05:30
Bhagalpur,Bihar,25.2425,87.0117,24.0,85,0.0,997.5,8.15,32.8,127,24.2,20.4,3,5,7,1,2026-04-27T02:12:15.365165+05:30
Ranchi,Jharkhand,23.3441,85.3096,25.2,57,0.0,933.1,8.55,45.4,119,108.3,48.2,4,5,7,1,2026-04-27T02:12:15.365172+05:30
Jamshedpur,Jharkhand,22.8046,86.2029,27.9,77,0.0,985.9,9.0,52.9,129,49.2,39.1,7,5,7,1,2026-04-27T02:12:15.365178+05:30
Dhanbad,Jharkhand,23.7957,86.4304,27.0,90,0.0,974.9,8.95,55.4,153,65.4,53.0,7,5,7,1,2026-04-27T02:12:15.365185+05:30
Bokaro,Jharkhand,23.6693,86.1511,26.2,96,0.0,978.5,8.95,51.1,154,74.3,62.6,7,5,7,1,2026-04-27T02:12:15.365191+05:30
Bhubaneswar,Odisha,20.2961,85.8245,27.1,90,0.0,998.3,8.9,53.3,53,14.8,10.4,7,5,7,1,2026-04-27T02:12:15.365197+05:30
Cuttack,Odisha,20.4625,85.8828,27.1,89,0.0,1000.0,8.9,47.2,53,14.8,10.4,7,5,4,1,2026-04-27T02:12:15.365204+05:30
Rourkela,Odisha,22.2604,84.8536,27.6,79,0.0,980.2,8.95,46.8,133,52.4,37.3,7,5,7,1,2026-04-27T02:12:15.365210+05:30
Raipur,Chhattisgarh,21.2514,81.6296,30.8,27,0.0,970.2,8.4,57.2,118,54.8,50.1,0,5,7,0,2026-04-27T02:12:15.365216+05:30
Bhilai,Chhattisgarh,21.1938,81.3509,30.1,32,0.0,970.5,7.6,47.2,105,54.0,43.8,0,5,7,0,2026-04-27T02:12:15.365242+05:30
Guwahati,Assam,26.1158,91.7086,20.9,98,0.1,999.7,2.45,31.0,127,55.5,37.1,6,5,3,1,2026-04-27T02:12:15.365251+05:30
Agartala,Tripura,23.8315,91.2868,24.1,95,0.0,1003.7,7.8,57.6,72,15.3,10.9,3,5,4,1,2026-04-27T02:12:15.365258+05:30
Shillong,Meghalaya,25.5788,91.8933,14.5,96,0.0,852.1,1.75,43.2,114,16.5,9.7,3,10,3,0,2026-04-27T02:12:15.365264+05:30
Imphal,Manipur,24.817,93.9368,17.9,96,0.0,921.1,8.35,32.0,152,85.9,59.6,3,10,7,1,2026-04-27T02:12:15.365271+05:30
Aizawl,Mizoram,23.7271,92.7176,17.4,99,0.0,889.7,9.0,56.2,97,35.0,23.1,3,10,7,1,2026-04-27T02:12:15.365278+05:30
Kohima,Nagaland,25.6701,94.1077,14.2,96,0.0,851.2,1.2,28.8,135,56.6,34.7,3,10,3,0,2026-04-27T02:12:15.365284+05:30
Gangtok,Sikkim,27.3314,88.6138,12.7,99,0.2,832.4,8.5,41.4,83,40.3,25.4,6,10,7,0,2026-04-27T02:12:15.365291+05:30
Siliguri,West Bengal,26.7271,88.3953,20.4,93,0.0,990.9,8.4,32.4,115,55.2,35.5,3,5,7,1,2026-04-27T02:12:18.646755+05:30
Durgapur,West Bengal,23.5204,87.3119,27.5,92,0.0,989.9,8.8,37.4,115,35.0,31.1,7,5,7,1,2026-04-27T02:12:18.646786+05:30
Asansol,West Bengal,23.6739,86.9524,27.4,92,0.0,988.5,8.75,41.0,126,34.2,31.0,7,5,7,1,2026-04-27T02:12:18.646796+05:30
Pondicherry,Puducherry,11.9139,79.8145,28.4,87,0.0,1006.1,9.2,48.6,41,17.9,11.9,7,5,4,1,2026-04-27T02:12:18.646804+05:30
Port Blair,Andaman and Nicobar Islands,11.6234,92.7265,27.2,87,0.0,1004.9,9.1,34.2,56,17.8,13.2,7,5,4,1,2026-04-27T02:12:18.646812+05:30
Haridwar,Uttarakhand,29.9457,78.1642,19.6,56,0.0,967.2,7.25,27.4,66,26.7,21.3,0,5,7,0,2026-04-27T02:12:18.646820+05:30
Rishikesh,Uttarakhand,30.0869,78.2676,18.2,60,0.0,959.8,7.35,26.6,70,28.0,20.1,0,5,7,0,2026-04-27T02:12:18.646826+05:30
Nainital,Uttarakhand,29.3919,79.4542,15.0,37,0.0,801.5,8.2,38.9,73,51.0,19.5,0,5,7,0,2026-04-27T02:12:18.646833+05:30
Mussoorie,Uttarakhand,30.4599,78.0664,14.3,42,0.0,798.0,7.75,54.0,60,28.0,22.1,0,5,7,0,2026-04-27T02:12:18.646840+05:30
Dharamshala,Himachal Pradesh,32.219,76.3234,22.7,32,0.0,866.0,8.0,47.9,46,17.6,9.2,0,5,7,0,2026-04-27T02:12:18.646846+05:30
Dalhousie,Himachal Pradesh,32.5387,75.971,10.4,73,0.0,797.3,8.25,43.9,59,25.0,18.6,3,5,7,0,2026-04-27T02:12:18.646853+05:30
Patiala,Punjab,30.3398,76.3869,27.5,32,0.0,972.5,7.25,40.0,396,444.2,69.8,4,5,7,0,2026-04-27T02:12:18.646860+05:30
Bhatinda,Punjab,30.211,74.9455,28.5,30,0.0,978.0,7.8,64.1,86,69.4,31.2,4,5,7,0,2026-04-27T02:12:18.646868+05:30
Rohtak,Haryana,28.8955,76.6066,28.2,26,0.0,976.1,7.5,40.7,686,705.9,113.4,4,5,7,0,2026-04-27T02:12:18.646874+05:30
Panipat,Haryana,29.3909,76.9635,28.4,27,0.0,974.7,7.3,43.2,1421,1266.6,169.0,4,5,7,0,2026-04-27T02:12:18.646880+05:30
Mathura,Uttar Pradesh,27.4924,77.6737,28.5,36,0.0,981.0,7.75,38.2,768,173.7,51.0,4,5,7,0,2026-04-27T02:12:18.646886+05:30
Vrindavan,Uttar Pradesh,27.5823,77.7027,27.9,37,0.0,981.5,7.7,37.8,768,173.7,51.0,4,5,7,0,2026-04-27T02:12:18.646893+05:30
Ayodhya,Uttar Pradesh,26.7922,82.1998,25.4,73,0.0,991.0,8.1,33.5,150,67.8,59.1,7,5,7,1,2026-04-27T02:12:18.646899+05:30
Ratlam,Madhya Pradesh,23.3315,75.0367,29.6,21,0.0,951.2,8.45,44.6,63,25.6,19.0,4,5,7,0,2026-04-27T02:12:18.646906+05:30
Sagar,Madhya Pradesh,23.8388,78.7378,27.9,32,0.0,946.1,8.65,38.5,76,57.6,25.6,4,5,7,0,2026-04-27T02:12:18.646913+05:30
Satna,Madhya Pradesh,24.6005,80.8322,30.4,27,0.0,966.0,8.65,52.2,94,58.3,21.8,0,5,7,0,2026-04-27T02:12:18.646918+05:30
Akola,Maharashtra,20.7002,77.0082,32.5,20,0.0,970.7,8.9,33.8,60,28.3,21.1,0,5,7,0,2026-04-27T02:12:18.646926+05:30
Amravati,Maharashtra,20.9374,77.7796,31.2,24,0.0,963.0,8.9,36.7,64,41.8,30.0,0,5,7,0,2026-04-27T02:12:18.646932+05:30
Latur,Maharashtra,18.4088,76.5604,29.9,29,0.0,936.6,9.1,38.9,97,39.3,33.2,4,5,7,0,2026-04-27T02:12:18.646940+05:30
Nanded,Maharashtra,19.1383,77.3091,31.0,29,0.0,964.5,9.0,36.0,89,34.2,28.6,0,5,7,0,2026-04-27T02:12:18.646947+05:30
Gulbarga,Karnataka,17.3297,76.8343,30.4,37,0.0,955.7,9.1,31.3,105,39.0,34.6,0,5,7,0,2026-04-27T02:12:18.646953+05:30
Bidar,Karnataka,17.9104,77.5199,29.0,36,0.0,932.1,9.1,30.6,104,41.6,37.8,4,5,7,0,2026-04-27T02:12:18.646959+05:30
Hospet,Karnataka,15.2689,76.3909,27.2,80,0.0,953.9,9.25,35.6,102,36.2,34.1,7,5,7,1,2026-04-27T02:12:18.646965+05:30
Tirupur,Tamil Nadu,11.1085,77.3411,27.5,77,0.0,973.3,9.35,31.0,65,25.7,24.7,7,5,7,1,2026-04-27T02:12:18.646971+05:30
Alappuzha,Kerala,9.4981,76.3388,26.0,96,0.0,1007.1,8.1,34.6,62,23.7,20.1,7,5,4,1,2026-04-27T02:12:18.646978+05:30
Munnar,Kerala,10.0889,77.0595,16.8,76,0.0,854.5,9.6,27.0,67,29.5,28.5,3,5,7,0,2026-04-27T02:12:18.646985+05:30
Silchar,Assam,24.8333,92.7789,21.9,93,0.2,1003.9,8.75,26.3,158,74.3,47.4,6,5,4,1,2026-04-27T02:12:18.646992+05:30
Dibrugarh,Assam,27.4728,94.912,20.6,98,0.0,994.6,4.3,25.6,92,64.0,38.9,3,5,3,1,2026-04-27T02:12:18.646999+05:30
