city,state,latitude,longitude,temp,humidity,rain,pressure,uv_index,wind_gusts,aqi,pm10,pm2_5,no2,co,o3,so2,mosquito_risk,arthritis_risk,migraine_risk,frizz_risk,updated_at
Delhi,Delhi,28.6139,77.209,39.5,17,0.0,978.6,7.75,53.3,391,650.1,97.1,7.2,240.0,127.0,7.9,0,5,10,0,2026-05-23T16:44:07.527533+05:30
Mumbai,Maharashtra,19.076,72.8777,32.3,66,0.1,1007.4,7.75,32.0,49,12.7,9.8,7.3,196.0,82.0,4.6,6,5,4,1,2026-05-23T16:44:07.527585+05:30
Bangalore,Karnataka,12.9716,77.5946,26.5,70,0.1,912.0,6.05,43.2,44,21.8,12.5,7.0,685.0,107.0,2.9,10,5,7,1,2026-05-23T16:44:07.527603+05:30
Hyderabad,Telangana,17.385,78.4867,37.8,28,0.0,950.7,9.2,59.8,97,31.8,23.9,4.5,304.0,138.0,5.9,0,5,10,1,2026-05-23T16:44:07.527613+05:30
Chennai,Tamil Nadu,13.0827,80.2707,37.8,35,0.0,1003.2,6.15,43.2,92,34.0,24.8,6.9,324.0,153.0,6.0,0,5,7,1,2026-05-23T16:44:07.527622+05:30
Kolkata,West Bengal,22.5726,88.3639,33.4,69,0.0,999.7,9.0,44.6,101,53.4,32.9,3.9,333.0,94.0,5.9,3,5,7,1,2026-05-23T16:44:07.527660+05:30
Pune,Maharashtra,18.5204,73.8567,30.3,65,0.0,948.0,8.4,46.4,43,12.6,9.7,4.0,195.0,103.0,5.1,3,5,7,1,2026-05-23T16:44:07.527667+05:30
Ahmedabad,Gujarat,23.0225,72.5714,41.3,22,0.0,998.6,8.15,42.5,73,52.7,22.9,1.3,166.0,99.0,1.9,0,5,10,0,2026-05-23T16:44:07.527675+05:30
Jaipur,Rajasthan,26.9124,75.7873,40.7,14,0.0,956.5,8.25,51.8,179,339.0,68.9,0.6,161.0,112.0,2.6,0,5,10,0,2026-05-23T16:44:07.527687+05:30
Lucknow,Uttar Pradesh,26.8467,80.9462,41.2,16,0.0,987.2,8.2,54.0,162,277.5,57.4,3.5,203.0,136.0,6.7,0,5,10,0,2026-05-23T16:44:07.527694+05:30
Kanpur,Uttar Pradesh,26.4499,80.3319,41.8,15,0.0,985.6,8.25,46.8,331,769.3,108.3,2.4,185.0,140.0,6.6,0,5,10,0,2026-05-23T16:44:07.527700+05:30
Chandigarh,Chandigarh,30.7333,76.7794,37.9,17,0.0,964.5,7.75,39.2,114,56.9,22.3,1.7,222.0,145.0,5.8,0,5,10,0,2026-05-23T16:44:07.527707+05:30
Srinagar,Jammu and Kashmir,34.0837,74.7973,21.1,53,0.1,843.8,8.85,25.2,69,25.3,9.8,2.2,219.0,123.0,1.7,3,5,7,0,2026-05-23T16:44:07.527716+05:30
Jammu,Jammu and Kashmir,32.7266,74.857,36.8,18,0.0,969.3,8.5,49.0,81,65.4,22.1,0.5,157.0,137.0,2.1,0,5,10,0,2026-05-23T16:44:07.527723+05:30
Amritsar,Punjab,31.634,74.8723,38.1,19,0.0,976.6,8.4,23.8,144,67.5,26.0,2.4,195.0,158.0,6.8,0,5,10,0,2026-05-23T16:44:07.527730+05:30
Ludhiana,Punjab,30.901,75.8573,38.7,18,0.0,974.2,8.0,39.2,108,99.0,28.7,1.2,209.0,133.0,3.9,0,5,10,0,2026-05-23T16:44:07.527736+05:30
Jalandhar,Punjab,31.326,75.5762,38.9,18,0.0,975.3,8.15,36.7,116,97.8,28.6,1.9,195.0,142.0,4.8,0,5,10,0,2026-05-23T16:44:07.527742+05:30
Dehradun,Uttarakhand,30.6284,78.0322,27.2,20,0.0,830.8,8.15,46.8,78,40.0,13.1,0.0,166.0,135.0,1.8,4,5,7,0,2026-05-23T16:44:07.527752+05:30
Shimla,Himachal Pradesh,31.1048,77.1734,22.6,22,0.0,786.8,8.25,50.8,87,51.0,17.0,0.5,155.0,135.0,2.9,0,5,7,0,2026-05-23T16:44:07.527761+05:30
Manali,Himachal Pradesh,32.2396,77.1887,22.2,34,0.0,819.7,9.9,47.5,79,38.5,9.6,0.2,130.0,143.0,0.4,0,5,7,0,2026-05-23T16:44:07.527767+05:30
Gurgaon,Haryana,28.4595,77.0266,39.8,16,0.0,977.0,7.85,49.3,885,1717.4,209.1,6.0,201.0,124.0,6.6,0,5,10,0,2026-05-23T16:44:07.527774+05:30
Noida,Uttar Pradesh,28.5355,77.391,39.7,17,0.0,979.8,7.75,51.1,885,1717.4,209.1,6.0,279.0,124.0,6.6,0,5,10,0,2026-05-23T16:44:07.527780+05:30
Ghaziabad,Uttar Pradesh,28.6692,77.4538,39.0,18,0.0,978.2,7.75,60.1,171,586.7,88.2,4.6,191.0,136.0,9.2,0,5,10,0,2026-05-23T16:44:07.527787+05:30
Faridabad,Haryana,28.4089,77.3178,39.8,16,0.0,979.2,7.8,54.4,885,1717.4,209.1,6.0,214.0,124.0,6.6,0,5,10,0,2026-05-23T16:44:07.527794+05:30
Meerut,Uttar Pradesh,28.9845,77.7064,38.7,19,0.0,976.6,7.45,58.7,171,586.7,88.2,4.6,185.0,136.0,9.2,0,5,10,0,2026-05-23T16:44:07.527800+05:30
Agra,Uttar Pradesh,27.1767,78.0081,42.0,13,0.0,982.4,8.05,46.8,566,1300.1,149.5,3.8,148.0,113.0,3.1,0,5,10,0,2026-05-23T16:44:07.527807+05:30
Varanasi,Uttar Pradesh,25.3176,82.9739,42.5,14,0.0,990.2,8.75,52.6,156,272.9,66.1,4.4,209.0,140.0,7.1,0,5,10,0,2026-05-23T16:44:07.527813+05:30
Prayagraj,Uttar Pradesh,25.4358,81.8463,42.2,14,0.0,988.9,8.65,44.6,151,202.1,53.4,2.9,194.0,138.0,6.1,0,5,10,0,2026-05-23T16:44:07.527820+05:30
Gorakhpur,Uttar Pradesh,26.7606,83.3732,39.8,23,0.0,989.4,8.65,43.9,178,131.8,47.7,3.1,258.0,153.0,7.7,0,5,10,0,2026-05-23T16:44:07.527829+05:30
Bareilly,Uttar Pradesh,28.367,79.4304,37.8,22,0.0,981.2,8.05,53.6,151,59.5,28.8,2.8,211.0,151.0,7.5,0,5,10,0,2026-05-23T16:44:07.527834+05:30
Aligarh,Uttar Pradesh,27.8974,78.088,39.5,18,0.0,980.9,7.85,45.7,514,1188.4,149.9,3.9,190.0,132.0,6.7,0,5,10,0,2026-05-23T16:44:07.527841+05:30
Moradabad,Uttar Pradesh,28.8386,78.7733,38.4,22,0.0,978.2,7.85,60.1,129,141.6,42.8,3.5,207.0,136.0,6.5,0,5,10,0,2026-05-23T16:44:07.527847+05:30
Saharanpur,Uttar Pradesh,29.9637,77.546,37.5,22,0.0,970.7,7.4,59.8,112,112.5,31.2,5.0,209.0,134.0,7.4,0,5,10,0,2026-05-23T16:44:07.527853+05:30
Jhansi,Uttar Pradesh,25.4484,78.5685,41.2,15,0.0,973.6,8.5,46.8,82,91.0,31.9,1.2,138.0,110.0,3.4,0,5,10,0,2026-05-23T16:44:10.837510+05:30
Surat,Gujarat,21.1702,72.8311,35.1,55,0.0,1004.9,7.6,41.4,61,20.5,16.6,16.1,336.0,49.0,44.0,0,5,7,1,2026-05-23T16:44:10.837547+05:30
Vadodara,Gujarat,22.3072,73.1812,40.5,32,0.0,1000.9,8.1,42.5,64,33.3,20.5,1.6,174.0,113.0,3.9,0,5,7,1,2026-05-23T16:44:10.837558+05:30
Rajkot,Gujarat,22.3039,70.8022,38.9,37,0.0,991.8,7.65,37.8,68,36.6,21.8,1.2,126.0,108.0,5.4,0,5,10,1,2026-05-23T16:44:10.837566+05:30
Thane,Maharashtra,19.2183,72.9781,32.7,64,0.1,1006.8,7.75,27.0,49,12.7,9.8,7.3,173.0,82.0,4.6,6,5,4,1,2026-05-23T16:44:10.837575+05:30
Nagpur,Maharashtra,21.1458,79.0882,42.0,15,0.0,969.0,8.95,56.9,85,40.0,20.3,4.2,169.0,116.0,10.1,0,5,10,0,2026-05-23T16:44:10.837583+05:30
Nashik,Maharashtra,19.9975,73.7898,31.2,58,0.1,945.4,8.15,43.2,49,13.7,9.0,1.7,141.0,84.0,0.9,3,5,7,1,2026-05-23T16:44:10.837591+05:30
Aurangabad,Maharashtra,19.8762,75.3433,34.4,37,0.0,943.2,9.05,45.4,58,30.0,19.0,0.8,145.0,109.0,2.3,0,5,7,1,2026-05-23T16:44:10.837598+05:30
Solapur,Maharashtra,17.6599,75.9064,33.5,45,0.1,956.3,9.0,49.3,68,42.1,29.7,2.0,155.0,122.0,3.5,3,5,7,1,2026-05-23T16:44:10.837606+05:30
Kolhapur,Maharashtra,16.705,74.2433,27.1,79,0.1,948.6,8.85,42.5,42,15.9,12.9,4.0,156.0,90.0,1.8,10,5,7,1,2026-05-23T16:44:10.837614+05:30
Goa,Goa,15.2993,74.124,26.5,97,0.2,998.5,5.8,30.6,32,9.5,6.2,0.7,118.0,56.0,0.6,10,5,3,1,2026-05-23T16:44:10.837621+05:30
Jodhpur,Rajasthan,26.2389,73.0243,42.0,14,0.0,979.4,8.4,42.8,168,330.6,65.0,0.5,129.0,108.0,3.0,0,5,10,0,2026-05-23T16:44:10.837647+05:30
Udaipur,Rajasthan,24.5854,73.7125,38.8,14,0.0,944.9,8.85,39.2,91,119.7,35.0,0.5,126.0,100.0,2.2,0,5,10,0,2026-05-23T16:44:10.837655+05:30
Kota,Rajasthan,25.2138,75.8648,42.0,15,0.0,974.9,8.4,50.0,86,118.7,37.7,0.6,134.0,114.0,3.3,0,5,10,0,2026-05-23T16:44:10.837662+05:30
Bikaner,Rajasthan,28.0229,73.3119,43.2,10,0.0,977.1,8.35,47.2,133,105.0,31.2,0.2,143.0,113.0,2.1,0,5,10,0,2026-05-23T16:44:10.837670+05:30
Ajmer,Rajasthan,26.4499,74.6399,38.2,18,0.0,952.4,8.4,51.8,112,150.4,46.0,0.6,141.0,111.0,3.0,0,5,10,0,2026-05-23T16:44:10.837677+05:30
Gwalior,Madhya Pradesh,26.2183,78.1828,41.8,14,0.0,978.4,8.25,48.2,94,94.3,33.6,1.0,140.0,113.0,2.2,0,5,10,0,2026-05-23T16:44:10.837685+05:30
Indore,Madhya Pradesh,22.7196,75.8577,39.0,15,0.0,946.2,8.7,54.7,67,44.4,19.0,1.0,167.0,112.0,2.2,0,5,10,0,2026-05-23T16:44:10.837692+05:30
Bhopal,Madhya Pradesh,23.2599,77.4126,40.3,14,0.0,950.7,8.75,44.6,64,71.9,24.4,0.6,143.0,114.0,2.5,0,5,10,0,2026-05-23T16:44:10.837699+05:30
Jabalpur,Madhya Pradesh,23.1815,79.9864,41.2,12,0.0,957.2,8.9,41.0,65,54.0,20.6,1.0,138.0,119.0,2.4,0,5,10,0,2026-05-23T16:44:10.837705+05:30
Ujjain,Madhya Pradesh,23.1765,75.7885,39.2,15,0.0,951.8,8.65,51.1,67,57.4,22.9,0.6,134.0,109.0,2.1,0,5,10,0,2026-05-23T16:44:10.837714+05:30
Visakhapatnam,Andhra Pradesh,17.6868,83.2185,40.3,27,0.1,997.2,9.1,32.0,206,56.1,48.4,20.5,731.0,202.0,48.8,3,5,10,1,2026-05-23T16:44:10.837721+05:30
Vijayawada,Andhra Pradesh,16.5062,80.648,40.8,27,0.0,997.1,8.7,44.6,129,35.4,30.7,5.5,236.0,161.0,9.5,0,5,10,1,2026-05-23T16:44:10.837729+05:30
Guntur,Andhra Pradesh,16.3067,80.4365,40.3,28,0.0,998.3,8.8,44.6,120,34.9,29.1,3.3,216.0,162.0,9.4,0,5,10,1,2026-05-23T16:44:10.837737+05:30
Nellore,Andhra Pradesh,14.4426,79.9865,36.5,42,0.0,1001.9,8.9,43.2,73,29.9,22.5,4.8,197.0,140.0,5.9,0,5,7,1,2026-05-23T16:44:10.837746+05:30
Kurnool,Andhra Pradesh,15.8281,78.0373,36.5,38,0.1,974.4,9.1,47.2,58,22.9,18.0,2.5,180.0,135.0,8.1,3,5,10,1,2026-05-23T16:44:10.837754+05:30
Kakinada,Andhra Pradesh,16.9891,82.2475,41.5,30,0.0,1000.4,9.1,47.2,153,44.0,35.2,4.3,271.0,171.0,4.4,0,5,7,1,2026-05-23T16:44:10.837761+05:30
Tirupati,Andhra Pradesh,13.6288,79.4192,31.9,56,0.1,988.7,8.05,37.8,72,28.4,20.8,7.3,282.0,105.0,3.2,3,5,7,1,2026-05-23T16:44:10.837768+05:30
Warangal,Telangana,17.9689,79.5941,40.7,19,0.0,974.2,9.15,49.7,123,35.5,29.7,4.0,247.0,164.0,10.5,0,5,10,0,2026-05-23T16:44:10.837774+05:30
Nizamabad,Telangana,18.6725,78.0941,39.5,24,0.0,961.8,9.1,48.2,88,28.3,19.8,0.8,172.0,124.0,4.2,0,5,10,0,2026-05-23T16:44:10.837781+05:30
Mysore,Karnataka,12.2958,76.6396,28.4,63,0.2,928.9,8.7,41.4,40,13.9,8.7,5.6,179.0,98.0,1.6,10,5,7,1,2026-05-23T16:44:10.837788+05:30
Mangalore,Karnataka,12.9141,74.856,29.5,78,0.0,1006.7,7.5,30.2,35,13.8,9.3,1.6,134.0,62.0,1.1,7,5,4,1,2026-05-23T16:44:10.837795+05:30
Hubli-Dharwad,Karnataka,15.3647,75.124,26.9,79,0.3,940.9,9.05,45.7,36,8.9,6.1,2.5,151.0,78.0,0.7,10,5,7,1,2026-05-23T16:44:10.837802+05:30
Belgaum,Karnataka,15.8497,74.4977,25.5,84,0.1,926.3,9.05,39.2,36,8.7,6.4,3.2,149.0,77.0,1.6,10,5,7,1,2026-05-23T16:44:14.134261+05:30
Coimbatore,Tamil Nadu,11.0168,76.9558,29.8,65,0.0,961.6,8.9,49.3,39,11.6,8.5,3.5,176.0,85.0,1.8,7,5,7,1,2026-05-23T16:44:14.134297+05:30
Madurai,Tamil Nadu,9.9252,78.1198,37.2,34,0.0,990.8,8.05,40.0,54,27.2,13.3,3.3,199.0,116.0,1.9,0,5,10,1,2026-05-23T16:44:14.134309+05:30
Trichy,Tamil Nadu,10.7905,78.7047,34.8,45,0.0,997.4,8.2,46.1,45,22.0,11.9,9.2,181.0,106.0,3.2,0,5,7,1,2026-05-23T16:44:14.134318+05:30
Salem,Tamil Nadu,11.6643,78.146,34.3,43,0.0,976.2,8.25,27.7,60,24.2,11.8,3.3,184.0,123.0,6.3,0,5,7,1,2026-05-23T16:44:14.134326+05:30
Tirunelveli,Tamil Nadu,8.7139,77.7567,35.5,45,0.0,1001.0,8.05,40.0,37,9.9,7.4,2.3,142.0,82.0,1.1,0,5,7,1,2026-05-23T16:44:14.134334+05:30
Vellore,Tamil Nadu,12.9165,79.1325,32.9,51,0.1,982.7,8.65,47.5,77,33.5,23.7,3.5,182.0,120.0,2.8,3,5,7,1,2026-05-23T16:44:14.134342+05:30
Erode,Tamil Nadu,11.341,77.7172,33.8,48,0.1,988.0,8.7,36.4,45,21.9,11.3,3.7,182.0,110.0,1.7,3,5,7,1,2026-05-23T16:44:14.134349+05:30
Kochi,Kerala,9.9312,76.2673,28.0,83,0.0,1009.5,7.9,30.6,57,13.6,9.5,4.1,137.0,75.0,2.5,7,0,4,1,2026-05-23T16:44:14.134357+05:30
Thiruvananthapuram,Kerala,8.5241,76.9366,29.2,76,0.1,1008.2,7.95,43.2,36,18.7,10.9,1.6,114.0,64.0,0.5,10,0,4,1,2026-05-23T16:44:14.134364+05:30
Kozhikode,Kerala,11.2588,75.7804,27.1,95,0.1,1009.1,8.5,28.1,33,11.2,7.4,0.9,116.0,68.0,0.6,10,0,4,1,2026-05-23T16:44:14.134371+05:30
Thrissur,Kerala,10.5276,76.2144,27.3,93,0.2,1007.9,8.4,29.5,58,11.6,8.6,3.1,132.0,70.0,1.3,10,5,4,1,2026-05-23T16:44:14.134379+05:30
Kannur,Kerala,11.8745,75.3704,28.5,87,0.1,1007.8,7.2,27.7,35,12.0,8.2,1.5,121.0,64.0,0.8,10,5,4,1,2026-05-23T16:44:14.134387+05:30
Patna,Bihar,25.5941,85.1376,38.9,30,0.0,992.6,8.85,40.3,189,198.8,70.5,11.9,349.0,166.0,12.8,0,5,10,1,2026-05-23T16:44:14.134394+05:30
Gaya,Bihar,24.7914,85.0002,40.5,19,0.0,986.3,8.9,36.4,163,201.2,59.5,7.5,263.0,138.0,7.9,0,5,10,0,2026-05-23T16:44:14.134401+05:30
Muzaffarpur,Bihar,26.1209,85.3647,36.5,53,0.0,992.6,8.85,27.4,198,160.2,71.5,13.4,463.0,183.0,16.5,0,5,10,1,2026-05-23T16:44:14.134407+05:30
Bhagalpur,Bihar,25.2425,87.0117,37.1,41,0.0,993.6,8.85,33.1,171,206.3,63.8,5.3,427.0,180.0,15.7,0,5,10,1,2026-05-23T16:44:14.134414+05:30
Ranchi,Jharkhand,23.3441,85.3096,35.2,25,0.0,933.6,9.3,42.8,129,75.7,28.9,4.3,213.0,147.0,8.1,0,5,10,0,2026-05-23T16:44:14.134421+05:30
Jamshedpur,Jharkhand,22.8046,86.2029,39.2,26,0.0,983.8,9.1,33.5,193,148.1,51.0,11.7,182.0,164.0,19.1,0,5,10,1,2026-05-23T16:44:14.134428+05:30
Dhanbad,Jharkhand,23.7957,86.4304,40.3,17,0.0,973.1,9.1,41.8,169,175.6,57.0,28.2,180.0,128.0,78.2,0,5,10,0,2026-05-23T16:44:14.134436+05:30
Bokaro,Jharkhand,23.6693,86.1511,40.2,17,0.0,976.7,9.1,39.2,163,164.4,53.9,19.6,202.0,140.0,82.9,0,5,10,0,2026-05-23T16:44:14.134442+05:30
Bhubaneswar,Odisha,20.2961,85.8245,35.3,62,0.0,996.4,8.55,34.9,120,48.2,37.8,4.8,269.0,141.0,10.9,3,5,10,1,2026-05-23T16:44:14.134450+05:30
Cuttack,Odisha,20.4625,85.8828,36.0,62,0.0,997.8,8.65,33.5,120,48.2,37.8,4.8,268.0,141.0,10.9,3,5,10,1,2026-05-23T16:44:14.134456+05:30
Rourkela,Odisha,22.2604,84.8536,40.2,20,0.0,978.6,9.0,34.2,159,91.5,31.2,7.5,343.0,149.0,8.3,0,5,10,0,2026-05-23T16:44:14.134462+05:30
Raipur,Chhattisgarh,21.2514,81.6296,42.8,12,0.0,969.0,8.75,39.6,141,19.2,12.6,7.0,139.0,124.0,17.2,0,5,10,0,2026-05-23T16:44:14.134469+05:30
Bhilai,Chhattisgarh,21.1938,81.3509,42.0,13,0.0,969.7,8.95,44.3,104,19.1,12.7,8.5,155.0,118.0,19.3,0,5,10,0,2026-05-23T16:44:14.134475+05:30
Guwahati,Assam,26.1158,91.7086,28.5,81,0.0,995.3,8.75,35.6,66,25.6,15.9,2.7,343.0,109.0,4.0,7,5,7,1,2026-05-23T16:44:14.134481+05:30
Agartala,Tripura,23.8315,91.2868,30.4,80,0.0,1000.8,8.8,36.7,83,34.2,24.8,6.3,209.0,85.0,2.6,3,5,4,1,2026-05-23T16:44:14.134488+05:30
Shillong,Meghalaya,25.5788,91.8933,24.1,68,0.0,854.7,9.05,51.5,59,26.0,16.2,4.3,275.0,107.0,3.6,3,5,7,1,2026-05-23T16:44:14.134495+05:30
Imphal,Manipur,24.817,93.9368,27.8,65,0.0,919.9,8.7,36.4,58,21.1,11.7,3.1,283.0,88.0,1.8,7,5,7,1,2026-05-23T16:44:14.134501+05:30
Aizawl,Mizoram,23.7271,92.7176,25.6,67,0.0,890.3,9.0,38.2,57,42.1,21.8,2.7,199.0,88.0,2.0,7,5,7,1,2026-05-23T16:44:14.134507+05:30
Kohima,Nagaland,25.6701,94.1077,22.5,87,0.0,853.0,9.3,32.0,46,15.8,7.7,3.0,231.0,91.0,1.8,3,5,7,1,2026-05-23T16:44:14.134513+05:30
Gangtok,Sikkim,27.3314,88.6138,18.6,96,0.3,833.4,9.15,32.8,92,8.5,5.7,4.0,314.0,121.0,2.5,6,10,7,1,2026-05-23T16:44:14.134519+05:30
Siliguri,West Bengal,26.7271,88.3953,28.6,76,0.0,986.7,8.75,24.8,108,43.1,28.4,4.9,537.0,135.0,6.7,7,5,7,1,2026-05-23T16:44:17.448651+05:30
Durgapur,West Bengal,23.5204,87.3119,33.0,74,0.0,987.9,9.0,40.3,201,164.8,85.2,20.0,626.0,213.0,49.2,3,5,7,1,2026-05-23T16:44:17.448687+05:30
Asansol,West Bengal,23.6739,86.9524,36.3,47,0.0,986.3,9.05,36.0,186,179.7,67.3,25.9,505.0,161.0,30.5,0,5,10,1,2026-05-23T16:44:17.448699+05:30
Pondicherry,Puducherry,11.9139,79.8145,33.5,60,0.0,1005.4,6.25,37.4,64,35.7,26.0,19.0,304.0,138.0,9.2,0,5,4,1,2026-05-23T16:44:17.448708+05:30
Port Blair,Andaman and Nicobar Islands,11.6234,92.7265,28.9,75,0.0,1005.5,8.35,37.1,31,5.5,3.4,0.5,127.0,57.0,0.3,7,5,4,1,2026-05-23T16:44:17.448717+05:30
Haridwar,Uttarakhand,29.9457,78.1642,37.8,20,0.0,968.9,7.55,48.2,124,54.2,19.9,2.2,186.0,143.0,6.0,0,5,10,0,2026-05-23T16:44:17.448725+05:30
Rishikesh,Uttarakhand,30.0869,78.2676,36.6,21,0.0,961.9,7.65,40.3,108,34.7,14.8,0.8,173.0,144.0,4.4,0,5,10,0,2026-05-23T16:44:17.448734+05:30
Nainital,Uttarakhand,29.3919,79.4542,24.0,26,0.0,806.5,8.5,49.0,134,42.7,18.9,1.2,159.0,146.0,4.2,0,5,7,0,2026-05-23T16:44:17.448742+05:30
Mussoorie,Uttarakhand,30.4599,78.0664,23.2,30,0.0,804.0,8.05,55.8,104,36.8,15.5,1.2,165.0,141.0,3.7,0,5,7,0,2026-05-23T16:44:17.448750+05:30
Dharamshala,Himachal Pradesh,32.219,76.3234,26.7,27,0.0,869.0,8.1,44.3,72,43.3,12.6,0.0,151.0,127.0,1.1,4,5,7,0,2026-05-23T16:44:17.448757+05:30
Dalhousie,Himachal Pradesh,32.5387,75.971,22.9,26,0.0,806.5,8.65,45.0,86,54.2,17.8,0.0,154.0,138.0,1.6,0,5,7,0,2026-05-23T16:44:17.448765+05:30
Patiala,Punjab,30.3398,76.3869,39.4,16,0.0,973.4,7.65,50.4,231,545.8,74.0,1.5,191.0,130.0,4.6,0,5,10,0,2026-05-23T16:44:17.448772+05:30
Bhatinda,Punjab,30.211,74.9455,40.2,15,0.0,979.2,8.3,33.1,96,98.7,30.6,1.7,198.0,135.0,6.9,0,5,10,0,2026-05-23T16:44:17.448779+05:30
Rohtak,Haryana,28.8955,76.6066,39.3,18,0.0,977.3,7.75,47.2,769,983.5,121.1,3.4,170.0,126.0,5.1,0,5,10,0,2026-05-23T16:44:17.448786+05:30
Panipat,Haryana,29.3909,76.9635,39.7,16,0.0,975.6,7.05,52.2,1529,2227.7,242.1,3.7,176.0,125.0,7.6,0,5,10,0,2026-05-23T16:44:17.448794+05:30
Mathura,Uttar Pradesh,27.4924,77.6737,41.5,14,0.0,981.7,8.0,43.2,658,388.4,65.7,2.3,179.0,112.0,2.2,0,5,10,0,2026-05-23T16:44:17.448800+05:30
Vrindavan,Uttar Pradesh,27.5823,77.7027,41.0,16,0.0,982.1,8.0,42.5,658,388.4,65.7,2.3,183.0,112.0,2.2,0,5,10,0,2026-05-23T16:44:17.448806+05:30
Ayodhya,Uttar Pradesh,26.7922,82.1998,39.7,23,0.0,988.2,8.35,46.1,163,103.1,38.4,2.2,194.0,152.0,8.2,0,5,10,0,2026-05-23T16:44:17.448813+05:30
Ratlam,Madhya Pradesh,23.3315,75.0367,38.5,18,0.0,953.2,8.55,47.2,67,65.4,25.1,0.4,128.0,107.0,2.1,0,5,10,0,2026-05-23T16:44:17.448820+05:30
Sagar,Madhya Pradesh,23.8388,78.7378,40.0,12,0.0,947.3,8.75,44.6,63,79.9,26.4,0.1,129.0,121.0,2.8,0,5,10,0,2026-05-23T16:44:17.448827+05:30
Satna,Madhya Pradesh,24.6005,80.8322,40.6,15,0.0,966.7,8.8,47.9,83,231.0,53.8,0.9,145.0,131.0,3.9,0,5,10,0,2026-05-23T16:44:17.448833+05:30
Akola,Maharashtra,20.7002,77.0082,40.8,21,0.0,971.9,8.9,49.0,66,26.3,15.3,1.2,142.0,109.0,4.2,0,5,10,0,2026-05-23T16:44:17.448842+05:30
Amravati,Maharashtra,20.9374,77.7796,40.0,19,0.0,964.5,8.9,53.6,68,27.4,15.5,1.4,154.0,111.0,4.6,0,5,10,0,2026-05-23T16:44:17.448849+05:30
Latur,Maharashtra,18.4088,76.5604,35.3,36,0.2,938.6,9.05,50.8,79,29.4,19.6,1.2,168.0,125.0,3.9,3,5,10,1,2026-05-23T16:44:17.448856+05:30
Nanded,Maharashtra,19.1383,77.3091,40.4,24,0.0,965.4,9.0,52.2,83,29.8,20.0,1.1,160.0,120.0,3.5,0,5,10,0,2026-05-23T16:44:17.448863+05:30
Gulbarga,Karnataka,17.3297,76.8343,28.9,71,0.1,957.5,9.05,45.0,68,24.9,18.5,3.8,177.0,118.0,3.4,10,5,7,1,2026-05-23T16:44:17.448870+05:30
Bidar,Karnataka,17.9104,77.5199,36.3,31,0.0,933.8,8.9,44.6,91,28.0,20.1,1.5,194.0,134.0,4.7,0,5,10,1,2026-05-23T16:44:17.448876+05:30
Hospet,Karnataka,15.2689,76.3909,31.2,61,0.1,954.4,9.0,50.8,42,18.5,12.8,3.3,193.0,107.0,2.3,6,5,7,1,2026-05-23T16:44:17.448883+05:30
Tirupur,Tamil Nadu,11.1085,77.3411,33.3,52,0.0,974.3,8.95,50.8,44,17.1,10.1,3.8,172.0,102.0,2.2,0,5,7,1,2026-05-23T16:44:17.448890+05:30
Alappuzha,Kerala,9.4981,76.3388,28.8,79,0.1,1009.5,7.5,36.0,47,12.6,8.3,3.5,102.0,71.0,1.5,10,0,4,1,2026-05-23T16:44:17.448897+05:30
Munnar,Kerala,10.0889,77.0595,19.2,94,0.1,858.0,8.65,32.4,34,10.6,7.6,4.4,138.0,73.0,1.1,6,10,7,1,2026-05-23T16:44:17.448904+05:30
Silchar,Assam,24.8333,92.7789,30.0,76,0.0,1000.0,8.45,38.9,61,19.1,12.6,4.1,258.0,91.0,3.0,7,5,4,1,2026-05-23T16:44:17.448911+05:30
Dibrugarh,Assam,27.4728,94.912,25.2,96,0.3,990.9,8.9,33.1,77,12.6,10.2,4.3,273.0,105.0,1.2,10,5,7,1,2026-05-23T16:44:17.448917+05:30
