city,state,latitude,longitude,temp,humidity,rain,pressure,uv_index,wind_gusts,aqi,pm10,pm2_5,no2,co,o3,so2,mosquito_risk,arthritis_risk,migraine_risk,frizz_risk,updated_at
Delhi,Delhi,28.6139,77.209,32.9,43,0.0,975.2,7.8,40.7,323,666.8,123.9,16.8,259.0,52.0,9.0,0,5,7,1,2026-06-10T05:47:28.607403+05:30
Mumbai,Maharashtra,19.076,72.8777,27.7,90,0.2,1006.4,7.1,45.4,81,56.5,22.8,4.3,191.0,53.0,3.8,10,5,4,1,2026-06-10T05:47:28.607450+05:30
Bangalore,Karnataka,12.9716,77.5946,20.5,90,0.0,911.1,5.15,49.3,19,4.5,3.3,8.4,176.0,37.0,3.7,3,5,3,1,2026-06-10T05:47:28.607466+05:30
Hyderabad,Telangana,17.385,78.4867,25.5,81,0.0,950.8,9.0,44.3,73,15.9,11.5,8.6,232.0,48.0,4.7,7,5,7,1,2026-06-10T05:47:28.607476+05:30
Chennai,Tamil Nadu,13.0827,80.2707,29.7,58,0.0,1004.8,8.05,44.6,51,7.7,6.4,14.0,196.0,33.0,10.2,4,5,4,1,2026-06-10T05:47:28.607484+05:30
Kolkata,West Bengal,22.5726,88.3639,30.0,92,0.0,999.5,8.95,40.3,137,39.2,33.6,11.2,416.0,79.0,8.4,7,5,7,1,2026-06-10T05:47:28.607491+05:30
Pune,Maharashtra,18.5204,73.8567,24.2,89,0.0,946.3,8.2,49.3,52,17.3,8.8,6.9,121.0,40.0,5.3,3,5,7,1,2026-06-10T05:47:28.607498+05:30
Ahmedabad,Gujarat,23.0225,72.5714,30.5,67,0.0,998.3,8.05,45.4,87,51.1,26.7,4.4,122.0,50.0,4.5,3,5,7,1,2026-06-10T05:47:28.607505+05:30
Jaipur,Rajasthan,26.9124,75.7873,30.4,55,0.0,954.0,8.25,46.4,140,242.1,53.3,4.6,166.0,65.0,4.0,0,5,7,1,2026-06-10T05:47:28.607515+05:30
Lucknow,Uttar Pradesh,26.8467,80.9462,29.6,58,0.0,985.4,8.35,62.3,160,270.1,83.1,37.0,349.0,21.0,10.8,4,5,7,1,2026-06-10T05:47:28.607521+05:30
Kanpur,Uttar Pradesh,26.4499,80.3319,31.8,37,0.0,983.7,8.35,49.7,252,401.4,74.5,21.2,224.0,38.0,6.4,0,5,7,0,2026-06-10T05:47:28.607527+05:30
Chandigarh,Chandigarh,30.7333,76.7794,24.3,60,0.0,959.4,7.85,36.4,90,41.4,36.3,36.7,450.0,27.0,4.6,0,5,7,1,2026-06-10T05:47:28.607534+05:30
Srinagar,Jammu and Kashmir,34.0837,74.7973,13.7,87,0.0,836.2,9.05,23.0,79,37.8,34.7,20.7,269.0,6.0,0.8,3,10,7,0,2026-06-10T05:47:28.607541+05:30
Jammu,Jammu and Kashmir,32.7266,74.857,25.5,46,0.0,963.3,8.65,32.0,76,32.5,29.8,24.0,268.0,35.0,2.5,4,5,7,0,2026-06-10T05:47:28.607547+05:30
Amritsar,Punjab,31.634,74.8723,28.9,44,0.0,971.0,8.5,24.5,125,55.8,49.8,31.6,618.0,42.0,6.5,4,5,7,0,2026-06-10T05:47:28.607553+05:30
Ludhiana,Punjab,30.901,75.8573,29.5,41,0.0,969.3,8.05,22.0,112,62.2,54.9,39.0,697.0,33.0,10.5,4,5,7,0,2026-06-10T05:47:28.607560+05:30
Jalandhar,Punjab,31.326,75.5762,29.3,40,0.0,970.2,8.25,24.5,111,60.3,46.3,27.8,656.0,60.0,7.0,4,5,7,0,2026-06-10T05:47:28.607569+05:30
Dehradun,Uttarakhand,30.6284,78.0322,14.6,85,0.0,824.0,8.3,43.9,68,16.1,15.0,10.9,265.0,48.0,0.0,3,10,7,0,2026-06-10T05:47:28.607575+05:30
Shimla,Himachal Pradesh,31.1048,77.1734,13.5,52,0.0,778.2,8.35,47.5,73,32.7,29.3,16.8,224.0,54.0,0.7,0,5,7,0,2026-06-10T05:47:28.607588+05:30
Manali,Himachal Pradesh,32.2396,77.1887,12.0,63,0.0,812.8,9.65,38.9,51,14.8,9.1,15.3,183.0,101.0,0.0,3,5,7,0,2026-06-10T05:47:28.607593+05:30
Gurgaon,Haryana,28.4595,77.0266,31.8,51,0.0,973.7,7.9,42.5,1592,2831.2,416.3,10.6,245.0,61.0,7.0,0,5,7,1,2026-06-10T05:47:28.607599+05:30
Noida,Uttar Pradesh,28.5355,77.391,32.8,44,0.0,976.3,7.85,38.2,1592,2831.2,416.3,10.6,264.0,61.0,7.0,0,5,7,1,2026-06-10T05:47:28.607608+05:30
Ghaziabad,Uttar Pradesh,28.6692,77.4538,32.9,40,0.0,974.7,7.85,37.8,213,327.8,86.4,32.7,277.0,34.0,15.4,0,5,7,1,2026-06-10T05:47:28.607614+05:30
Faridabad,Haryana,28.4089,77.3178,32.7,45,0.0,975.7,7.9,45.4,1592,2831.2,416.3,10.6,251.0,61.0,7.0,0,5,7,1,2026-06-10T05:47:28.607621+05:30
Meerut,Uttar Pradesh,28.9845,77.7064,32.3,29,0.0,973.6,7.75,31.3,213,327.8,86.4,32.7,719.0,34.0,15.4,0,5,7,0,2026-06-10T05:47:28.607627+05:30
Agra,Uttar Pradesh,27.1767,78.0081,31.7,43,0.0,980.2,8.15,45.0,1258,1858.9,226.3,13.3,242.0,53.0,5.6,0,5,7,1,2026-06-10T05:47:28.607633+05:30
Varanasi,Uttar Pradesh,25.3176,82.9739,31.0,51,0.0,990.4,8.8,39.2,105,68.0,34.5,14.8,276.0,68.0,9.4,0,5,7,1,2026-06-10T05:47:28.607640+05:30
Prayagraj,Uttar Pradesh,25.4358,81.8463,31.5,50,0.0,988.2,8.7,50.8,113,62.2,35.7,16.8,218.0,56.0,8.1,0,5,7,1,2026-06-10T05:47:28.607646+05:30
Gorakhpur,Uttar Pradesh,26.7606,83.3732,28.1,74,0.0,990.7,8.7,40.0,160,71.9,58.6,8.5,678.0,134.0,13.3,7,5,7,1,2026-06-10T05:47:28.607655+05:30
Bareilly,Uttar Pradesh,28.367,79.4304,27.6,60,0.0,979.0,8.1,35.6,144,50.9,38.4,18.2,708.0,69.0,7.9,4,5,7,1,2026-06-10T05:47:28.607661+05:30
Aligarh,Uttar Pradesh,27.8974,78.088,30.0,40,0.0,977.7,8.0,37.1,832,1121.3,179.3,17.9,239.0,46.0,5.2,4,5,7,0,2026-06-10T05:47:28.607667+05:30
Moradabad,Uttar Pradesh,28.8386,78.7733,28.9,51,0.0,976.0,7.95,31.3,163,65.9,47.8,24.1,765.0,67.0,10.6,4,5,7,1,2026-06-10T05:47:28.607673+05:30
Saharanpur,Uttar Pradesh,29.9637,77.546,27.6,44,0.0,967.5,7.5,26.3,138,98.5,52.4,31.0,525.0,49.0,10.0,4,5,7,0,2026-06-10T05:47:28.607679+05:30
Jhansi,Uttar Pradesh,25.4484,78.5685,31.3,53,0.0,971.8,8.5,47.5,70,36.2,23.2,5.2,161.0,86.0,10.0,0,5,7,1,2026-06-10T05:47:31.857191+05:30
Surat,Gujarat,21.1702,72.8311,29.4,81,0.0,1003.3,7.6,51.8,86,61.9,34.9,21.7,293.0,34.0,38.1,7,5,4,1,2026-06-10T05:47:31.857226+05:30
Vadodara,Gujarat,22.3072,73.1812,30.3,72,0.0,1000.7,8.0,49.3,86,39.9,22.8,6.2,128.0,43.0,4.1,3,5,4,1,2026-06-10T05:47:31.857237+05:30
Rajkot,Gujarat,22.3039,70.8022,28.9,75,0.0,990.3,7.55,49.3,80,58.8,28.4,2.9,96.0,53.0,3.0,7,5,7,1,2026-06-10T05:47:31.857245+05:30
Thane,Maharashtra,19.2183,72.9781,26.6,95,0.1,1005.8,7.45,42.1,81,56.5,22.8,4.3,138.0,53.0,3.8,10,5,4,1,2026-06-10T05:47:31.857253+05:30
Nagpur,Maharashtra,21.1458,79.0882,32.0,45,0.0,969.1,6.7,44.3,91,52.2,35.9,23.2,275.0,37.0,14.7,0,5,7,1,2026-06-10T05:47:31.857261+05:30
Nashik,Maharashtra,19.9975,73.7898,24.2,91,0.0,943.2,8.05,51.1,71,38.9,18.2,6.2,140.0,44.0,5.3,3,5,7,1,2026-06-10T05:47:31.857268+05:30
Aurangabad,Maharashtra,19.8762,75.3433,25.0,81,0.0,942.1,8.95,50.8,71,42.7,20.5,7.2,125.0,42.0,6.6,7,5,7,1,2026-06-10T05:47:31.857275+05:30
Solapur,Maharashtra,17.6599,75.9064,26.0,79,0.0,955.7,8.35,45.4,53,7.3,4.9,6.0,140.0,38.0,2.3,7,5,7,1,2026-06-10T05:47:31.857283+05:30
Kolhapur,Maharashtra,16.705,74.2433,23.2,94,0.0,946.8,5.75,52.9,24,6.7,4.0,3.2,124.0,47.0,1.7,3,5,3,1,2026-06-10T05:47:31.857290+05:30
Goa,Goa,15.2993,74.124,24.5,99,0.0,997.9,6.3,34.9,37,26.0,13.3,4.4,207.0,46.0,1.0,3,5,7,1,2026-06-10T05:47:31.857297+05:30
Jodhpur,Rajasthan,26.2389,73.0243,29.8,68,0.0,977.5,8.45,49.7,155,358.6,83.6,2.0,109.0,58.0,2.5,7,5,7,1,2026-06-10T05:47:31.857304+05:30
Udaipur,Rajasthan,24.5854,73.7125,25.6,81,0.0,942.3,8.8,43.2,85,40.4,21.3,3.0,119.0,57.0,2.7,7,5,7,1,2026-06-10T05:47:31.857311+05:30
Kota,Rajasthan,25.2138,75.8648,29.6,65,0.0,973.6,8.4,36.4,74,43.7,30.0,6.3,160.0,65.0,10.8,7,5,7,1,2026-06-10T05:47:31.857318+05:30
Bikaner,Rajasthan,28.0229,73.3119,32.4,55,0.0,974.0,8.5,46.4,121,144.4,54.0,2.5,112.0,57.0,4.8,0,5,7,1,2026-06-10T05:47:31.857325+05:30
Ajmer,Rajasthan,26.4499,74.6399,28.3,69,0.0,949.4,8.35,54.4,75,37.5,22.4,4.5,129.0,63.0,3.7,7,5,7,1,2026-06-10T05:47:31.857332+05:30
Gwalior,Madhya Pradesh,26.2183,78.1828,32.0,49,0.0,976.5,8.3,54.0,78,27.2,18.2,6.1,157.0,66.0,5.1,0,5,7,1,2026-06-10T05:47:31.857338+05:30
Indore,Madhya Pradesh,22.7196,75.8577,26.2,80,0.0,944.9,8.6,45.7,83,40.6,24.3,6.1,153.0,45.0,7.8,7,5,7,1,2026-06-10T05:47:31.857345+05:30
Bhopal,Madhya Pradesh,23.2599,77.4126,27.9,67,0.0,949.8,8.65,38.9,83,49.5,32.4,4.6,197.0,88.0,8.7,7,5,7,1,2026-06-10T05:47:31.857352+05:30
Jabalpur,Madhya Pradesh,23.1815,79.9864,30.9,45,0.0,956.7,8.85,40.3,85,43.5,28.2,11.0,211.0,62.0,4.4,0,5,7,1,2026-06-10T05:47:31.857359+05:30
Ujjain,Madhya Pradesh,23.1765,75.7885,26.6,80,0.0,950.2,8.55,51.1,82,31.7,20.0,6.4,153.0,43.0,8.8,7,5,7,1,2026-06-10T05:47:31.857366+05:30
Visakhapatnam,Andhra Pradesh,17.6868,83.2185,29.0,79,0.0,997.6,8.3,34.6,124,49.7,42.1,34.3,415.0,37.0,44.1,7,5,7,1,2026-06-10T05:47:31.857373+05:30
Vijayawada,Andhra Pradesh,16.5062,80.648,29.9,68,0.0,998.7,8.25,37.8,74,26.3,20.8,10.0,196.0,55.0,8.1,7,5,7,1,2026-06-10T05:47:31.857380+05:30
Guntur,Andhra Pradesh,16.3067,80.4365,29.6,67,0.0,1000.0,7.65,40.0,71,25.4,19.6,10.3,190.0,53.0,9.3,7,5,4,1,2026-06-10T05:47:31.857387+05:30
Nellore,Andhra Pradesh,14.4426,79.9865,29.3,63,0.0,1002.9,8.5,45.4,38,4.1,3.1,6.8,128.0,44.0,5.0,7,5,4,1,2026-06-10T05:47:31.857395+05:30
Kurnool,Andhra Pradesh,15.8281,78.0373,26.8,76,0.0,975.2,4.75,49.7,48,18.4,12.3,10.7,143.0,42.0,3.1,7,5,3,1,2026-06-10T05:47:31.857403+05:30
Kakinada,Andhra Pradesh,16.9891,82.2475,29.8,68,0.0,1002.5,8.75,40.0,82,32.5,26.0,11.0,297.0,62.0,6.6,7,5,4,1,2026-06-10T05:47:31.857410+05:30
Tirupati,Andhra Pradesh,13.6288,79.4192,27.3,68,0.0,989.1,7.05,40.0,31,3.8,2.9,5.9,120.0,42.0,1.5,7,5,7,1,2026-06-10T05:47:31.857417+05:30
Warangal,Telangana,17.9689,79.5941,28.8,66,0.0,975.1,8.65,43.2,92,37.7,26.4,8.7,182.0,61.0,3.9,7,5,7,1,2026-06-10T05:47:31.857423+05:30
Nizamabad,Telangana,18.6725,78.0941,28.8,59,0.0,962.4,8.95,42.1,87,34.3,22.2,7.8,172.0,59.0,8.1,4,5,7,1,2026-06-10T05:47:31.857430+05:30
Mysore,Karnataka,12.2958,76.6396,21.2,94,0.0,928.5,4.45,46.4,21,3.4,2.9,5.9,116.0,38.0,1.8,3,5,3,1,2026-06-10T05:47:31.857437+05:30
Mangalore,Karnataka,12.9141,74.856,23.9,98,0.0,1007.5,4.55,36.4,30,10.1,5.2,4.0,192.0,48.0,1.1,3,5,0,1,2026-06-10T05:47:31.857443+05:30
Hubli-Dharwad,Karnataka,15.3647,75.124,22.1,96,0.0,940.1,6.5,44.6,22,2.7,1.6,2.9,117.0,46.0,1.1,3,5,7,1,2026-06-10T05:47:31.857450+05:30
Belgaum,Karnataka,15.8497,74.4977,21.8,97,0.0,924.6,5.95,50.4,21,5.6,3.2,3.1,114.0,48.0,1.5,3,5,3,1,2026-06-10T05:47:35.093085+05:30
Coimbatore,Tamil Nadu,11.0168,76.9558,23.7,88,0.0,961.8,7.0,54.0,19,3.9,2.5,5.3,167.0,39.0,2.5,3,5,7,1,2026-06-10T05:47:35.093121+05:30
Madurai,Tamil Nadu,9.9252,78.1198,28.7,65,0.0,992.8,8.35,44.3,20,6.8,5.8,9.9,135.0,28.0,4.2,7,5,7,1,2026-06-10T05:47:35.093133+05:30
Trichy,Tamil Nadu,10.7905,78.7047,28.7,68,0.0,999.1,8.6,60.1,18,3.8,3.1,7.0,109.0,38.0,3.4,7,5,7,1,2026-06-10T05:47:35.093142+05:30
Salem,Tamil Nadu,11.6643,78.146,25.3,79,0.0,977.4,6.7,45.0,27,8.4,7.8,15.8,221.0,27.0,8.0,7,5,7,1,2026-06-10T05:47:35.093149+05:30
Tirunelveli,Tamil Nadu,8.7139,77.7567,26.4,84,0.0,1004.1,8.7,43.6,16,3.4,3.0,5.7,154.0,31.0,1.8,7,5,4,1,2026-06-10T05:47:35.093157+05:30
Vellore,Tamil Nadu,12.9165,79.1325,28.0,60,0.0,983.0,8.1,49.7,26,3.6,3.0,7.2,134.0,42.0,3.3,4,5,7,1,2026-06-10T05:47:35.093164+05:30
Erode,Tamil Nadu,11.341,77.7172,25.4,81,0.0,989.2,6.65,42.1,19,6.0,5.4,10.5,149.0,36.0,3.4,7,5,7,1,2026-06-10T05:47:35.093173+05:30
Kochi,Kerala,9.9312,76.2673,25.8,95,0.2,1010.0,8.55,41.8,29,7.8,5.9,8.3,102.0,29.0,2.5,10,0,4,1,2026-06-10T05:47:35.093181+05:30
Thiruvananthapuram,Kerala,8.5241,76.9366,25.7,92,0.0,1009.3,8.4,45.4,31,13.9,6.8,1.8,86.0,48.0,0.7,7,0,4,1,2026-06-10T05:47:35.093187+05:30
Kozhikode,Kerala,11.2588,75.7804,23.7,99,0.2,1009.7,6.7,38.5,28,11.8,4.9,0.8,169.0,59.0,0.6,6,0,4,1,2026-06-10T05:47:35.093194+05:30
Thrissur,Kerala,10.5276,76.2144,24.1,99,0.1,1008.4,8.5,42.1,31,9.0,6.4,6.4,167.0,38.0,2.2,6,0,4,1,2026-06-10T05:47:35.093203+05:30
Kannur,Kerala,11.8745,75.3704,24.1,98,0.1,1008.5,8.45,37.4,27,5.9,2.8,3.2,194.0,45.0,0.8,6,0,4,1,2026-06-10T05:47:35.093210+05:30
Patna,Bihar,25.5941,85.1376,27.2,91,0.0,993.7,8.85,45.7,163,75.9,68.0,10.1,782.0,106.0,13.2,7,5,7,1,2026-06-10T05:47:35.093217+05:30
Gaya,Bihar,24.7914,85.0002,29.6,49,0.0,987.0,8.65,24.1,138,108.5,55.8,27.7,190.0,60.0,12.3,4,5,7,1,2026-06-10T05:47:35.093224+05:30
Muzaffarpur,Bihar,26.1209,85.3647,26.8,85,0.0,994.5,8.85,36.7,163,70.8,57.3,8.7,562.0,120.0,10.6,7,5,7,1,2026-06-10T05:47:35.093231+05:30
Bhagalpur,Bihar,25.2425,87.0117,27.8,92,0.0,995.1,8.85,40.3,160,41.9,37.0,9.2,555.0,99.0,6.9,7,5,7,1,2026-06-10T05:47:35.093237+05:30
Ranchi,Jharkhand,23.3441,85.3096,26.1,58,0.0,932.8,8.95,33.5,132,58.9,36.6,13.6,268.0,79.0,20.3,4,5,7,1,2026-06-10T05:47:35.093244+05:30
Jamshedpur,Jharkhand,22.8046,86.2029,27.5,76,0.0,985.0,9.1,30.2,153,92.9,75.0,34.1,490.0,49.0,34.3,7,5,7,1,2026-06-10T05:47:35.093251+05:30
Dhanbad,Jharkhand,23.7957,86.4304,28.5,66,0.0,973.7,9.05,32.8,161,101.7,76.1,59.6,285.0,35.0,143.1,7,5,7,1,2026-06-10T05:47:35.093258+05:30
Bokaro,Jharkhand,23.6693,86.1511,29.1,57,0.0,977.6,8.9,30.6,161,95.5,62.9,36.6,285.0,53.0,96.1,4,5,7,1,2026-06-10T05:47:35.093264+05:30
Bhubaneswar,Odisha,20.2961,85.8245,28.2,89,0.0,996.4,9.05,21.2,110,45.3,41.6,12.4,401.0,91.0,11.0,7,5,7,1,2026-06-10T05:47:35.093271+05:30
Cuttack,Odisha,20.4625,85.8828,28.3,88,0.0,998.2,9.1,22.3,110,45.3,41.6,12.4,417.0,91.0,11.0,7,5,7,1,2026-06-10T05:47:35.093277+05:30
Rourkela,Odisha,22.2604,84.8536,27.7,82,0.0,979.9,9.0,34.2,121,79.6,61.5,28.1,550.0,45.0,18.5,7,5,7,1,2026-06-10T05:47:35.093283+05:30
Raipur,Chhattisgarh,21.2514,81.6296,31.8,48,0.0,970.2,7.9,36.7,116,53.6,43.1,37.3,596.0,46.0,60.8,0,5,7,1,2026-06-10T05:47:35.093290+05:30
Bhilai,Chhattisgarh,21.1938,81.3509,31.1,52,0.0,970.5,6.9,36.0,110,52.3,40.3,29.1,756.0,50.0,47.2,0,5,7,1,2026-06-10T05:47:35.093296+05:30
Guwahati,Assam,26.1158,91.7086,24.7,96,0.0,997.6,8.8,35.3,84,36.1,28.3,7.5,330.0,75.0,4.7,3,5,7,1,2026-06-10T05:47:35.093302+05:30
Agartala,Tripura,23.8315,91.2868,24.2,99,0.0,1002.7,8.45,41.0,74,16.2,12.7,8.4,215.0,70.0,2.6,3,5,4,1,2026-06-10T05:47:35.093309+05:30
Shillong,Meghalaya,25.5788,91.8933,19.2,92,0.0,854.4,6.65,34.6,42,10.5,7.2,5.3,233.0,73.0,3.0,3,10,7,1,2026-06-10T05:47:35.093316+05:30
Imphal,Manipur,24.817,93.9368,22.7,95,0.0,920.6,3.45,38.2,75,62.6,40.6,9.6,575.0,60.0,4.5,3,5,3,1,2026-06-10T05:47:35.093323+05:30
Aizawl,Mizoram,23.7271,92.7176,19.7,90,0.0,889.8,5.85,45.7,80,45.6,31.3,5.1,200.0,57.0,1.9,3,10,3,1,2026-06-10T05:47:35.093329+05:30
Kohima,Nagaland,25.6701,94.1077,20.1,94,0.0,853.1,7.35,28.8,51,26.6,16.9,4.9,260.0,55.0,1.9,3,5,7,1,2026-06-10T05:47:35.093335+05:30
Gangtok,Sikkim,27.3314,88.6138,16.3,92,0.0,833.8,9.2,37.8,91,18.5,15.7,10.8,454.0,111.0,4.4,3,10,7,0,2026-06-10T05:47:35.093342+05:30
Siliguri,West Bengal,26.7271,88.3953,23.5,95,0.0,989.0,8.75,28.8,108,57.9,46.0,11.8,449.0,113.0,6.7,3,5,7,1,2026-06-10T05:47:38.342094+05:30
Durgapur,West Bengal,23.5204,87.3119,28.0,89,0.0,988.5,9.0,33.8,170,100.8,91.7,36.2,870.0,54.0,48.5,7,5,7,1,2026-06-10T05:47:38.342130+05:30
Asansol,West Bengal,23.6739,86.9524,28.3,79,0.0,987.2,9.0,33.8,160,91.3,75.4,45.5,747.0,44.0,69.7,7,5,7,1,2026-06-10T05:47:38.342142+05:30
Pondicherry,Puducherry,11.9139,79.8145,29.4,63,0.0,1007.1,8.05,47.2,46,9.5,8.5,12.7,245.0,36.0,8.2,7,5,4,1,2026-06-10T05:47:38.342151+05:30
Port Blair,Andaman and Nicobar Islands,11.6234,92.7265,25.1,97,0.2,1007.0,6.0,49.0,27,7.1,4.1,0.3,97.0,60.0,0.3,10,5,0,1,2026-06-10T05:47:38.342159+05:30
Haridwar,Uttarakhand,29.9457,78.1642,24.6,73,0.0,965.9,7.65,41.0,100,38.9,34.2,24.3,288.0,52.0,5.7,3,5,7,1,2026-06-10T05:47:38.342166+05:30
Rishikesh,Uttarakhand,30.0869,78.2676,22.6,80,0.0,958.7,7.75,33.1,80,29.8,25.8,12.1,324.0,88.0,3.2,3,5,7,1,2026-06-10T05:47:38.342173+05:30
Nainital,Uttarakhand,29.3919,79.4542,17.1,64,0.0,801.7,7.45,33.8,77,30.5,26.9,18.4,259.0,67.0,2.5,3,5,7,0,2026-06-10T05:47:38.342180+05:30
Mussoorie,Uttarakhand,30.4599,78.0664,15.3,65,0.0,797.4,8.15,46.8,82,31.2,26.9,22.9,222.0,44.0,3.1,3,5,7,0,2026-06-10T05:47:38.342186+05:30
Dharamshala,Himachal Pradesh,32.219,76.3234,23.9,34,0.0,863.7,8.55,44.3,58,17.6,12.1,14.6,191.0,29.0,0.1,0,5,7,0,2026-06-10T05:47:38.342193+05:30
Dalhousie,Himachal Pradesh,32.5387,75.971,13.6,62,0.0,797.4,8.75,39.2,84,36.3,31.4,26.8,246.0,20.0,0.5,3,5,7,0,2026-06-10T05:47:38.342202+05:30
Patiala,Punjab,30.3398,76.3869,30.0,39,0.0,969.1,7.65,26.3,245,235.2,87.5,27.2,502.0,42.0,9.6,4,5,7,0,2026-06-10T05:47:38.342209+05:30
Bhatinda,Punjab,30.211,74.9455,30.7,36,0.0,974.3,8.35,25.2,151,151.8,85.2,60.6,372.0,2.0,8.7,0,5,7,0,2026-06-10T05:47:38.342217+05:30
Rohtak,Haryana,28.8955,76.6066,31.8,51,0.0,973.5,7.8,41.0,533,1307.6,211.4,8.7,211.0,61.0,3.2,0,5,7,1,2026-06-10T05:47:38.342223+05:30
Panipat,Haryana,29.3909,76.9635,30.3,42,0.0,972.1,7.7,27.7,1041,2011.7,290.6,16.3,197.0,47.0,3.8,0,5,7,0,2026-06-10T05:47:38.342230+05:30
Mathura,Uttar Pradesh,27.4924,77.6737,29.4,50,0.0,979.1,8.1,36.7,854,1583.2,199.3,10.3,262.0,61.0,3.6,4,5,7,1,2026-06-10T05:47:38.342236+05:30
Vrindavan,Uttar Pradesh,27.5823,77.7027,29.6,49,0.0,979.5,8.1,34.9,854,1583.2,199.3,10.3,250.0,61.0,3.6,4,5,7,1,2026-06-10T05:47:38.342244+05:30
Ayodhya,Uttar Pradesh,26.7922,82.1998,28.1,75,0.0,988.2,8.45,37.8,157,93.8,67.5,22.8,620.0,65.0,13.2,7,5,7,1,2026-06-10T05:47:38.342251+05:30
Ratlam,Madhya Pradesh,23.3315,75.0367,26.6,82,0.0,951.2,8.5,45.7,82,28.0,18.1,6.9,144.0,41.0,9.8,7,5,7,1,2026-06-10T05:47:38.342258+05:30
Sagar,Madhya Pradesh,23.8388,78.7378,28.8,55,0.0,945.8,8.7,45.0,78,31.4,21.3,5.8,203.0,80.0,5.4,4,5,7,1,2026-06-10T05:47:38.342265+05:30
Satna,Madhya Pradesh,24.6005,80.8322,30.3,49,0.0,965.2,8.8,45.4,78,44.4,27.6,7.1,175.0,76.0,5.5,0,5,7,1,2026-06-10T05:47:38.342271+05:30
Akola,Maharashtra,20.7002,77.0082,29.5,60,0.0,972.7,8.8,49.3,78,55.9,28.5,6.9,126.0,45.0,6.4,4,5,7,1,2026-06-10T05:47:38.342279+05:30
Amravati,Maharashtra,20.9374,77.7796,29.3,56,0.0,964.3,8.75,47.5,79,57.7,29.2,7.1,138.0,48.0,7.2,4,5,7,1,2026-06-10T05:47:38.342287+05:30
Latur,Maharashtra,18.4088,76.5604,25.1,81,0.0,937.9,8.9,38.9,66,30.6,15.7,5.5,130.0,44.0,3.3,7,5,7,1,2026-06-10T05:47:38.342295+05:30
Nanded,Maharashtra,19.1383,77.3091,28.4,67,0.0,966.4,8.85,39.2,86,36.6,21.8,6.7,147.0,53.0,7.5,7,5,7,1,2026-06-10T05:47:38.342301+05:30
Gulbarga,Karnataka,17.3297,76.8343,25.5,81,0.0,957.3,8.95,42.5,59,8.2,5.3,6.2,140.0,38.0,2.9,7,5,7,1,2026-06-10T05:47:38.342308+05:30
Bidar,Karnataka,17.9104,77.5199,25.1,79,0.0,933.6,9.0,41.4,75,19.0,11.6,7.0,146.0,43.0,2.7,7,5,7,1,2026-06-10T05:47:38.342315+05:30
Hospet,Karnataka,15.2689,76.3909,23.1,92,0.0,955.2,6.25,47.9,24,10.3,5.6,4.3,124.0,42.0,1.5,3,5,7,1,2026-06-10T05:47:38.342321+05:30
Tirupur,Tamil Nadu,11.1085,77.3411,24.3,87,0.0,975.5,8.4,54.0,23,6.9,6.6,13.0,140.0,30.0,4.3,3,5,7,1,2026-06-10T05:47:38.342328+05:30
Alappuzha,Kerala,9.4981,76.3388,26.1,94,0.1,1010.1,8.4,43.9,30,10.1,5.9,4.8,87.0,44.0,2.3,10,0,4,1,2026-06-10T05:47:38.342334+05:30
Munnar,Kerala,10.0889,77.0595,17.3,100,0.1,857.1,9.0,44.3,13,1.9,1.9,4.7,95.0,32.0,1.1,6,10,7,1,2026-06-10T05:47:38.342341+05:30
Silchar,Assam,24.8333,92.7789,25.2,97,0.1,1002.1,2.55,40.7,81,76.6,46.9,9.4,288.0,74.0,6.6,10,5,0,1,2026-06-10T05:47:38.342348+05:30
Dibrugarh,Assam,27.4728,94.912,24.5,98,0.1,992.2,8.7,29.5,87,31.8,27.1,7.5,257.0,88.0,2.2,6,5,7,1,2026-06-10T05:47:38.342355+05:30
