city,state,latitude,longitude,temp,humidity,rain,pressure,uv_index,wind_gusts,aqi,pm10,pm2_5,no2,co,o3,so2,mosquito_risk,arthritis_risk,migraine_risk,frizz_risk,updated_at
Delhi,Delhi,28.6139,77.209,26.9,60,0.0,979.6,7.45,58.7,421,434.0,73.3,9.5,425.0,140.0,19.1,4,5,7,1,2026-05-04T02:19:25.949204+05:30
Mumbai,Maharashtra,19.076,72.8777,28.5,78,0.0,1006.3,7.85,43.2,67,35.9,16.0,9.3,210.0,64.0,16.1,7,5,4,1,2026-05-04T02:19:25.949252+05:30
Bangalore,Karnataka,12.9716,77.5946,22.4,82,0.0,909.6,9.5,29.9,81,34.1,21.2,20.3,552.0,56.0,8.0,3,5,7,1,2026-05-04T02:19:25.949270+05:30
Hyderabad,Telangana,17.385,78.4867,28.1,54,0.0,950.4,9.25,36.0,77,60.8,36.2,37.2,380.0,49.0,12.6,4,5,7,1,2026-05-04T02:19:25.949284+05:30
Chennai,Tamil Nadu,13.0827,80.2707,29.9,84,0.0,1003.7,9.2,53.3,109,23.6,17.8,6.9,210.0,91.0,5.1,7,5,4,1,2026-05-04T02:19:25.949294+05:30
Kolkata,West Bengal,22.5726,88.3639,26.3,95,0.0,1005.2,6.75,34.6,118,40.6,34.2,12.2,353.0,67.0,7.8,7,5,4,1,2026-05-04T02:19:25.949303+05:30
Pune,Maharashtra,18.5204,73.8567,22.2,84,0.0,945.9,8.45,47.5,60,26.1,13.4,13.1,225.0,46.0,11.0,3,5,7,1,2026-05-04T02:19:25.949311+05:30
Ahmedabad,Gujarat,23.0225,72.5714,29.5,70,0.0,997.2,8.1,48.2,54,33.1,14.6,5.1,291.0,73.0,6.4,7,5,7,1,2026-05-04T02:19:25.949321+05:30
Jaipur,Rajasthan,26.9124,75.7873,27.9,34,0.0,954.8,7.8,58.3,113,302.7,53.2,14.3,269.0,70.0,6.1,4,5,7,0,2026-05-04T02:19:25.949330+05:30
Lucknow,Uttar Pradesh,26.8467,80.9462,25.0,70,0.0,991.8,8.05,54.0,112,51.5,37.1,6.2,355.0,130.0,6.5,7,5,7,1,2026-05-04T02:19:25.949338+05:30
Kanpur,Uttar Pradesh,26.4499,80.3319,26.5,66,0.0,989.3,8.05,48.2,198,538.3,81.0,4.6,330.0,144.0,6.3,7,5,7,1,2026-05-04T02:19:25.949346+05:30
Chandigarh,Chandigarh,30.7333,76.7794,22.1,63,0.0,965.2,7.25,55.8,109,90.8,39.1,15.2,395.0,92.0,11.4,3,5,7,0,2026-05-04T02:19:25.949353+05:30
Srinagar,Jammu and Kashmir,34.0837,74.7973,9.2,98,0.0,841.0,6.6,23.4,69,32.1,22.9,12.9,648.0,91.0,3.1,3,10,7,0,2026-05-04T02:19:25.949362+05:30
Jammu,Jammu and Kashmir,32.7266,74.857,21.6,50,0.0,968.8,7.1,58.0,69,41.6,28.8,16.9,317.0,73.0,4.6,0,5,7,0,2026-05-04T02:19:25.949370+05:30
Amritsar,Punjab,31.634,74.8723,24.2,55,0.0,977.1,8.0,53.3,111,203.0,53.7,5.8,421.0,111.0,6.8,0,5,7,0,2026-05-04T02:19:25.949377+05:30
Ludhiana,Punjab,30.901,75.8573,24.4,60,0.0,975.7,7.7,56.2,232,160.2,52.5,9.1,480.0,109.0,11.9,0,5,7,1,2026-05-04T02:19:25.949384+05:30
Jalandhar,Punjab,31.326,75.5762,23.1,60,0.0,976.1,7.85,61.9,151,231.4,63.1,9.6,414.0,99.0,12.0,0,5,7,0,2026-05-04T02:19:25.949391+05:30
Dehradun,Uttarakhand,30.6284,78.0322,11.6,88,0.0,826.1,5.35,34.2,69,49.7,27.0,21.3,300.0,65.0,1.1,3,10,3,0,2026-05-04T02:19:25.949401+05:30
Shimla,Himachal Pradesh,31.1048,77.1734,9.8,64,0.0,778.8,6.75,36.7,83,83.6,29.5,10.3,276.0,124.0,7.1,3,5,7,0,2026-05-04T02:19:25.949408+05:30
Manali,Himachal Pradesh,32.2396,77.1887,6.5,68,0.0,812.8,7.4,44.3,92,10.6,5.6,10.9,196.0,128.0,0.0,3,5,7,0,2026-05-04T02:19:25.949415+05:30
Gurgaon,Haryana,28.4595,77.0266,24.8,70,0.0,977.7,7.45,59.0,1494,3255.9,334.3,8.8,414.0,133.0,18.0,3,5,7,1,2026-05-04T02:19:25.949422+05:30
Noida,Uttar Pradesh,28.5355,77.391,25.6,65,0.0,981.9,7.5,58.7,1494,3255.9,334.3,8.8,378.0,133.0,18.0,7,5,7,1,2026-05-04T02:19:25.949430+05:30
Ghaziabad,Uttar Pradesh,28.6692,77.4538,25.8,66,0.0,980.5,7.45,61.2,254,90.6,37.1,4.8,344.0,139.0,13.1,7,5,7,1,2026-05-04T02:19:25.949437+05:30
Faridabad,Haryana,28.4089,77.3178,25.6,67,0.0,981.0,7.55,61.6,1494,3255.9,334.3,8.8,385.0,133.0,18.0,7,5,7,1,2026-05-04T02:19:25.949443+05:30
Meerut,Uttar Pradesh,28.9845,77.7064,24.1,75,0.0,979.6,7.4,65.5,254,90.6,37.1,4.8,338.0,139.0,13.1,3,5,7,1,2026-05-04T02:19:25.949450+05:30
Agra,Uttar Pradesh,27.1767,78.0081,27.2,62,0.0,983.7,7.15,68.0,865,1117.6,151.8,5.8,315.0,116.0,11.6,7,5,7,1,2026-05-04T02:19:25.949457+05:30
Varanasi,Uttar Pradesh,25.3176,82.9739,25.9,76,0.0,996.0,8.6,38.5,152,67.3,61.0,8.1,418.0,143.0,13.4,7,5,7,1,2026-05-04T02:19:25.949464+05:30
Prayagraj,Uttar Pradesh,25.4358,81.8463,26.7,69,0.0,994.1,8.5,57.2,133,61.5,55.2,7.5,358.0,138.0,9.6,7,5,7,1,2026-05-04T02:19:25.949473+05:30
Gorakhpur,Uttar Pradesh,26.7606,83.3732,23.5,84,0.0,997.4,8.45,38.5,102,32.4,25.0,8.9,451.0,110.0,6.4,3,5,7,1,2026-05-04T02:19:25.949480+05:30
Bareilly,Uttar Pradesh,28.367,79.4304,23.6,74,0.0,985.0,7.65,49.0,123,76.4,37.1,6.3,312.0,107.0,5.1,3,5,7,1,2026-05-04T02:19:25.949487+05:30
Aligarh,Uttar Pradesh,27.8974,78.088,26.1,66,0.0,982.1,7.6,59.0,828,273.8,60.5,5.9,350.0,132.0,17.2,7,5,7,1,2026-05-04T02:19:25.949494+05:30
Moradabad,Uttar Pradesh,28.8386,78.7733,24.0,73,0.0,981.5,7.55,56.2,123,86.8,40.5,9.0,315.0,103.0,6.4,3,5,7,1,2026-05-04T02:19:25.949501+05:30
Saharanpur,Uttar Pradesh,29.9637,77.546,24.3,68,0.0,973.1,7.2,54.7,136,103.1,46.3,11.9,363.0,97.0,11.7,3,5,7,1,2026-05-04T02:19:25.949508+05:30
Jhansi,Uttar Pradesh,25.4484,78.5685,27.9,59,0.0,973.9,7.75,50.0,79,63.3,26.7,4.6,298.0,95.0,14.6,4,5,7,1,2026-05-04T02:19:29.275114+05:30
Surat,Gujarat,21.1702,72.8311,28.2,82,0.0,1003.0,7.7,51.8,59,26.3,14.9,14.8,241.0,58.0,25.4,7,5,4,1,2026-05-04T02:19:29.275149+05:30
Vadodara,Gujarat,22.3072,73.1812,28.0,85,0.0,1000.1,8.05,46.8,52,18.0,11.0,9.6,194.0,57.0,12.1,7,5,4,1,2026-05-04T02:19:29.275160+05:30
Rajkot,Gujarat,22.3039,70.8022,26.6,84,0.0,989.3,7.7,45.4,49,28.9,12.8,3.4,166.0,68.0,4.5,7,5,7,1,2026-05-04T02:19:29.275169+05:30
Thane,Maharashtra,19.2183,72.9781,27.8,83,0.0,1005.7,7.9,40.3,67,35.9,16.0,9.3,226.0,64.0,16.1,7,5,4,1,2026-05-04T02:19:29.275178+05:30
Nagpur,Maharashtra,21.1458,79.0882,30.3,27,0.0,968.5,8.9,47.5,79,42.4,19.6,11.1,278.0,74.0,10.2,0,5,7,0,2026-05-04T02:19:29.275185+05:30
Nashik,Maharashtra,19.9975,73.7898,22.7,91,0.0,943.0,8.2,45.0,61,28.1,16.1,14.5,220.0,49.0,15.8,3,5,7,1,2026-05-04T02:19:29.275194+05:30
Aurangabad,Maharashtra,19.8762,75.3433,25.0,53,0.0,941.4,9.05,42.8,55,27.6,12.3,9.2,193.0,69.0,12.8,4,5,7,0,2026-05-04T02:19:29.275202+05:30
Solapur,Maharashtra,17.6599,75.9064,28.0,45,0.0,954.8,9.1,32.4,57,24.4,11.7,5.7,193.0,74.0,4.1,4,5,7,0,2026-05-04T02:19:29.275209+05:30
Kolhapur,Maharashtra,16.705,74.2433,22.4,96,0.0,946.2,8.95,46.4,62,28.7,13.8,7.0,185.0,52.0,1.8,3,5,7,1,2026-05-04T02:19:29.275217+05:30
Goa,Goa,15.2993,74.124,27.2,87,0.0,996.3,8.9,37.8,66,56.5,21.9,7.4,231.0,58.0,2.1,7,5,7,1,2026-05-04T02:19:29.275224+05:30
Jodhpur,Rajasthan,26.2389,73.0243,29.4,35,0.0,976.2,8.25,49.0,121,139.2,27.4,5.2,195.0,82.0,2.7,4,5,7,0,2026-05-04T02:19:29.275232+05:30
Udaipur,Rajasthan,24.5854,73.7125,25.0,59,0.0,941.5,8.75,33.5,54,27.3,14.7,6.4,184.0,75.0,7.2,4,5,7,1,2026-05-04T02:19:29.275239+05:30
Kota,Rajasthan,25.2138,75.8648,30.1,39,0.0,973.3,8.3,73.8,66,19.6,11.8,3.0,182.0,113.0,7.8,0,5,7,0,2026-05-04T02:19:29.275247+05:30
Bikaner,Rajasthan,28.0229,73.3119,29.1,34,0.0,975.8,8.15,60.1,87,152.7,35.0,2.2,217.0,105.0,4.9,4,5,7,0,2026-05-04T02:19:29.275254+05:30
Ajmer,Rajasthan,26.4499,74.6399,27.5,33,0.0,948.9,8.2,58.7,68,61.0,20.3,3.5,205.0,91.0,3.7,4,5,7,0,2026-05-04T02:19:29.275261+05:30
Gwalior,Madhya Pradesh,26.2183,78.1828,28.2,57,0.0,978.9,8.1,49.7,78,91.0,32.2,5.1,315.0,97.0,8.6,4,5,7,1,2026-05-04T02:19:29.275268+05:30
Indore,Madhya Pradesh,22.7196,75.8577,27.1,48,0.0,944.3,8.6,39.2,57,15.6,11.1,4.0,193.0,94.0,9.2,4,5,7,0,2026-05-04T02:19:29.275275+05:30
Bhopal,Madhya Pradesh,23.2599,77.4126,28.7,33,0.0,949.4,8.65,48.2,68,33.2,22.5,8.8,196.0,65.0,5.4,4,5,7,0,2026-05-04T02:19:29.275283+05:30
Jabalpur,Madhya Pradesh,23.1815,79.9864,27.5,40,0.0,957.1,8.8,58.3,71,71.0,26.3,13.7,280.0,61.0,3.6,4,5,7,0,2026-05-04T02:19:29.275289+05:30
Ujjain,Madhya Pradesh,23.1765,75.7885,27.1,52,0.0,949.8,8.55,36.0,54,15.1,10.8,3.3,180.0,87.0,8.4,4,5,7,1,2026-05-04T02:19:29.275297+05:30
Visakhapatnam,Andhra Pradesh,17.6868,83.2185,27.0,97,0.0,1001.8,8.3,37.1,69,30.5,23.2,18.9,310.0,79.0,3.5,7,5,4,1,2026-05-04T02:19:29.275304+05:30
Vijayawada,Andhra Pradesh,16.5062,80.648,28.0,92,0.0,999.9,9.2,43.9,101,31.7,26.4,5.3,270.0,115.0,5.0,7,5,7,1,2026-05-04T02:19:29.275310+05:30
Guntur,Andhra Pradesh,16.3067,80.4365,28.5,87,0.0,1000.8,9.2,36.7,81,32.2,27.0,4.7,238.0,128.0,5.3,7,5,4,1,2026-05-04T02:19:29.275317+05:30
Nellore,Andhra Pradesh,14.4426,79.9865,29.8,75,0.0,1002.0,9.25,37.8,122,31.4,28.1,7.5,272.0,130.0,8.6,7,5,4,1,2026-05-04T02:19:29.275325+05:30
Kurnool,Andhra Pradesh,15.8281,78.0373,31.2,38,0.0,974.2,9.15,37.4,65,47.8,26.1,15.5,340.0,66.0,6.2,0,5,7,0,2026-05-04T02:19:29.275332+05:30
Kakinada,Andhra Pradesh,16.9891,82.2475,27.4,95,0.0,1005.2,9.05,32.4,64,30.4,21.5,1.5,215.0,107.0,1.9,7,5,4,1,2026-05-04T02:19:29.275339+05:30
Tirupati,Andhra Pradesh,13.6288,79.4192,29.0,74,0.0,988.2,9.3,58.3,80,34.2,32.1,11.4,297.0,112.0,13.3,7,5,7,1,2026-05-04T02:19:29.275346+05:30
Warangal,Telangana,17.9689,79.5941,27.5,76,0.0,975.6,9.15,41.8,87,33.3,30.9,8.8,305.0,114.0,11.2,7,5,7,1,2026-05-04T02:19:29.275353+05:30
Nizamabad,Telangana,18.6725,78.0941,28.4,37,0.0,961.4,9.15,29.9,79,66.4,35.9,23.1,330.0,50.0,6.0,4,5,7,0,2026-05-04T02:19:29.275359+05:30
Mysore,Karnataka,12.2958,76.6396,22.0,96,0.0,926.7,9.35,35.3,66,37.4,20.6,10.2,191.0,54.0,2.8,3,5,7,1,2026-05-04T02:19:29.275366+05:30
Mangalore,Karnataka,12.9141,74.856,27.9,80,0.0,1005.5,9.0,45.7,68,46.9,17.9,6.2,271.0,51.0,2.2,7,5,4,1,2026-05-04T02:19:29.275373+05:30
Hubli-Dharwad,Karnataka,15.3647,75.124,23.0,95,0.0,939.3,9.15,43.6,57,27.7,11.9,4.3,192.0,58.0,1.4,3,5,7,1,2026-05-04T02:19:29.275380+05:30
Belgaum,Karnataka,15.8497,74.4977,21.0,99,0.0,923.5,9.15,41.0,59,30.4,15.0,7.3,166.0,48.0,1.0,3,5,7,1,2026-05-04T02:19:32.671910+05:30
Coimbatore,Tamil Nadu,11.0168,76.9558,25.0,87,0.0,960.0,9.35,47.5,62,42.0,23.6,7.6,196.0,61.0,3.4,7,5,7,1,2026-05-04T02:19:32.671946+05:30
Madurai,Tamil Nadu,9.9252,78.1198,29.0,66,0.0,990.6,6.35,46.4,80,31.5,27.8,28.5,432.0,28.0,6.9,7,5,7,1,2026-05-04T02:19:32.671959+05:30
Trichy,Tamil Nadu,10.7905,78.7047,29.5,75,0.0,997.9,8.95,40.3,79,35.7,30.6,22.0,300.0,56.0,5.1,7,5,7,1,2026-05-04T02:19:32.671967+05:30
Salem,Tamil Nadu,11.6643,78.146,28.6,66,0.0,975.4,9.3,61.9,79,30.3,23.5,12.6,228.0,62.0,5.5,7,5,7,1,2026-05-04T02:19:32.671976+05:30
Tirunelveli,Tamil Nadu,8.7139,77.7567,28.6,73,0.0,1000.9,8.55,33.5,71,26.4,22.5,11.3,226.0,40.0,2.8,7,5,4,1,2026-05-04T02:19:32.671984+05:30
Vellore,Tamil Nadu,12.9165,79.1325,29.2,65,0.0,981.7,9.05,45.7,84,32.0,29.5,10.7,295.0,96.0,14.0,7,5,7,1,2026-05-04T02:19:32.671992+05:30
Erode,Tamil Nadu,11.341,77.7172,27.8,74,0.0,987.1,9.3,51.5,68,30.3,21.1,15.4,202.0,51.0,4.0,7,5,7,1,2026-05-04T02:19:32.671999+05:30
Kochi,Kerala,9.9312,76.2673,27.1,100,0.0,1007.7,8.9,30.2,102,77.8,65.2,49.5,589.0,3.0,11.3,7,5,4,1,2026-05-04T02:19:32.672007+05:30
Thiruvananthapuram,Kerala,8.5241,76.9366,25.3,98,0.0,1007.2,8.45,40.3,57,31.4,19.1,4.1,386.0,62.0,1.7,7,5,4,1,2026-05-04T02:19:32.672015+05:30
Kozhikode,Kerala,11.2588,75.7804,26.4,92,0.0,1006.7,9.05,41.0,65,66.6,20.7,2.3,291.0,70.0,0.8,7,5,4,1,2026-05-04T02:19:32.672022+05:30
Thrissur,Kerala,10.5276,76.2144,25.9,90,0.0,1006.1,9.05,34.2,94,69.6,48.0,38.0,406.0,20.0,6.3,7,5,4,1,2026-05-04T02:19:32.672030+05:30
Kannur,Kerala,11.8745,75.3704,27.0,81,0.0,1006.0,8.6,48.2,66,48.3,17.1,7.0,359.0,45.0,1.3,7,5,4,1,2026-05-04T02:19:32.672037+05:30
Patna,Bihar,25.5941,85.1376,24.4,85,0.0,1000.3,8.7,59.0,140,50.2,42.4,10.2,366.0,116.0,11.2,3,5,4,1,2026-05-04T02:19:32.672044+05:30
Gaya,Bihar,24.7914,85.0002,25.0,77,0.0,992.9,8.8,41.8,150,60.3,54.5,9.3,353.0,117.0,18.9,7,5,7,1,2026-05-04T02:19:32.672051+05:30
Muzaffarpur,Bihar,26.1209,85.3647,23.6,82,0.0,1000.8,8.7,39.6,111,38.9,33.1,11.5,428.0,97.0,8.7,3,5,4,1,2026-05-04T02:19:32.672058+05:30
Bhagalpur,Bihar,25.2425,87.0117,22.9,92,0.0,1002.0,8.7,31.7,131,51.5,42.0,11.2,357.0,87.0,5.3,3,5,4,1,2026-05-04T02:19:32.672064+05:30
Ranchi,Jharkhand,23.3441,85.3096,22.8,96,0.0,936.2,9.25,43.2,82,50.5,42.0,10.5,398.0,103.0,20.9,3,5,7,1,2026-05-04T02:19:32.672071+05:30
Jamshedpur,Jharkhand,22.8046,86.2029,25.8,88,0.0,989.6,9.1,30.2,112,40.4,32.2,12.4,289.0,78.0,11.9,7,5,7,1,2026-05-04T02:19:32.672079+05:30
Dhanbad,Jharkhand,23.7957,86.4304,25.0,87,0.0,979.2,9.0,34.9,156,78.7,71.2,39.7,726.0,67.0,53.5,7,5,7,1,2026-05-04T02:19:32.672086+05:30
Bokaro,Jharkhand,23.6693,86.1511,25.4,87,0.0,983.0,9.05,38.5,161,88.2,78.7,44.9,726.0,59.0,71.5,7,5,7,1,2026-05-04T02:19:32.672093+05:30
Bhubaneswar,Odisha,20.2961,85.8245,25.8,95,0.0,1001.4,9.1,36.0,69,19.0,15.1,4.4,183.0,69.0,2.7,7,5,4,1,2026-05-04T02:19:32.672100+05:30
Cuttack,Odisha,20.4625,85.8828,25.8,96,0.0,1003.3,9.15,33.5,69,19.0,15.1,4.4,201.0,69.0,2.7,7,5,4,1,2026-05-04T02:19:32.672106+05:30
Rourkela,Odisha,22.2604,84.8536,26.3,80,0.0,983.0,8.7,28.4,112,60.5,44.9,25.4,389.0,65.0,39.2,7,5,7,1,2026-05-04T02:19:32.672113+05:30
Raipur,Chhattisgarh,21.2514,81.6296,29.5,37,0.0,970.8,9.0,57.2,112,89.9,69.4,45.2,503.0,27.0,9.6,4,5,7,0,2026-05-04T02:19:32.672119+05:30
Bhilai,Chhattisgarh,21.1938,81.3509,28.1,43,0.0,971.1,9.0,59.8,99,96.2,64.7,51.9,565.0,24.0,10.5,4,5,7,0,2026-05-04T02:19:32.672125+05:30
Guwahati,Assam,26.1158,91.7086,20.2,94,0.0,1003.5,8.35,28.8,54,20.2,18.0,11.7,368.0,55.0,2.0,3,5,4,1,2026-05-04T02:19:32.672131+05:30
Agartala,Tripura,23.8315,91.2868,22.7,92,0.0,1007.3,8.85,31.3,54,9.7,7.5,6.9,193.0,71.0,1.2,3,5,4,1,2026-05-04T02:19:32.672137+05:30
Shillong,Meghalaya,25.5788,91.8933,13.3,97,0.0,855.6,8.5,31.0,39,14.4,12.3,8.7,295.0,65.0,0.7,3,10,7,0,2026-05-04T02:19:32.672143+05:30
Imphal,Manipur,24.817,93.9368,16.8,98,0.0,924.0,8.0,25.2,67,38.6,30.9,20.6,363.0,36.0,2.3,3,10,7,1,2026-05-04T02:19:32.672150+05:30
Aizawl,Mizoram,23.7271,92.7176,13.7,100,0.0,891.0,8.85,36.7,43,20.3,16.2,10.8,342.0,23.0,0.6,3,10,7,0,2026-05-04T02:19:32.672156+05:30
Kohima,Nagaland,25.6701,94.1077,13.1,93,0.0,853.9,8.6,29.2,30,15.4,10.3,8.0,218.0,45.0,0.3,3,10,7,0,2026-05-04T02:19:32.672163+05:30
Gangtok,Sikkim,27.3314,88.6138,12.4,97,0.1,836.6,8.9,41.8,60,15.8,14.5,11.7,396.0,98.0,1.9,6,10,7,0,2026-05-04T02:19:32.672169+05:30
Siliguri,West Bengal,26.7271,88.3953,21.1,79,0.0,994.8,8.35,31.7,57,25.4,23.2,11.3,360.0,107.0,4.2,3,5,7,1,2026-05-04T02:19:35.986987+05:30
Durgapur,West Bengal,23.5204,87.3119,24.5,96,0.0,994.7,8.95,36.4,146,62.9,58.1,25.5,452.0,68.0,24.5,3,5,7,1,2026-05-04T02:19:35.987021+05:30
Asansol,West Bengal,23.6739,86.9524,25.0,89,0.0,993.1,9.0,38.2,152,68.7,62.9,26.9,428.0,75.0,34.7,7,5,7,1,2026-05-04T02:19:35.987033+05:30
Pondicherry,Puducherry,11.9139,79.8145,28.0,85,0.0,1005.5,9.2,46.4,76,15.8,12.7,7.4,211.0,79.0,6.1,7,5,4,1,2026-05-04T02:19:35.987042+05:30
Port Blair,Andaman and Nicobar Islands,11.6234,92.7265,26.6,88,0.0,1006.6,9.1,33.1,25,5.1,3.6,0.6,242.0,53.0,0.3,7,5,4,1,2026-05-04T02:19:35.987050+05:30
Haridwar,Uttarakhand,29.9457,78.1642,20.8,85,0.0,971.3,6.65,45.7,128,107.1,40.7,12.1,339.0,88.0,7.9,3,5,7,1,2026-05-04T02:19:35.987059+05:30
Rishikesh,Uttarakhand,30.0869,78.2676,18.6,91,0.0,963.7,6.3,49.7,117,125.3,38.3,11.0,413.0,89.0,5.1,3,10,7,1,2026-05-04T02:19:35.987066+05:30
Nainital,Uttarakhand,29.3919,79.4542,11.7,90,0.0,802.3,5.4,35.6,109,88.7,38.8,7.6,295.0,102.0,3.1,3,10,3,0,2026-05-04T02:19:35.987074+05:30
Mussoorie,Uttarakhand,30.4599,78.0664,11.1,81,0.0,798.6,5.95,47.9,110,114.8,42.7,21.9,312.0,66.0,8.7,3,10,3,0,2026-05-04T02:19:35.987081+05:30
Dharamshala,Himachal Pradesh,32.219,76.3234,20.2,35,0.0,866.1,6.7,54.4,62,32.1,18.2,8.3,185.0,91.0,0.7,0,5,7,0,2026-05-04T02:19:35.987089+05:30
Dalhousie,Himachal Pradesh,32.5387,75.971,9.1,80,0.0,798.5,5.4,50.8,61,44.9,27.0,24.9,233.0,59.0,2.5,3,5,3,0,2026-05-04T02:19:35.987097+05:30
Patiala,Punjab,30.3398,76.3869,24.5,68,0.0,975.9,7.35,70.6,811,204.0,52.0,7.8,396.0,105.0,9.1,3,5,7,1,2026-05-04T02:19:35.987104+05:30
Bhatinda,Punjab,30.211,74.9455,25.9,60,0.0,979.8,8.0,55.1,455,307.3,66.1,4.8,398.0,128.0,9.2,4,5,7,1,2026-05-04T02:19:35.987112+05:30
Rohtak,Haryana,28.8955,76.6066,26.8,59,0.0,978.0,7.5,63.4,774,1143.7,146.7,10.8,380.0,133.0,22.6,4,5,7,1,2026-05-04T02:19:35.987119+05:30
Panipat,Haryana,29.3909,76.9635,25.1,69,0.0,977.0,7.35,63.0,1431,1713.6,187.2,7.9,365.0,132.0,18.4,7,5,7,1,2026-05-04T02:19:35.987126+05:30
Mathura,Uttar Pradesh,27.4924,77.6737,26.5,63,0.0,983.0,7.8,57.6,987,1687.6,200.2,5.9,296.0,121.0,14.4,7,5,7,1,2026-05-04T02:19:35.987133+05:30
Vrindavan,Uttar Pradesh,27.5823,77.7027,26.5,63,0.0,983.4,7.75,57.2,987,1687.6,200.2,5.9,281.0,121.0,14.4,7,5,7,1,2026-05-04T02:19:35.987140+05:30
Ayodhya,Uttar Pradesh,26.7922,82.1998,23.9,81,0.0,994.9,8.2,49.3,100,41.1,34.0,7.9,385.0,118.0,6.7,3,5,7,1,2026-05-04T02:19:35.987147+05:30
Ratlam,Madhya Pradesh,23.3315,75.0367,25.8,67,0.0,950.9,8.5,37.8,60,16.1,10.1,3.7,174.0,80.0,9.8,7,5,7,1,2026-05-04T02:19:35.987154+05:30
Sagar,Madhya Pradesh,23.8388,78.7378,26.1,45,0.0,945.6,8.65,43.2,70,82.7,27.6,7.8,277.0,73.0,3.0,4,5,7,0,2026-05-04T02:19:35.987161+05:30
Satna,Madhya Pradesh,24.6005,80.8322,26.1,66,0.0,968.5,8.25,67.0,71,48.1,39.3,7.6,377.0,136.0,14.8,7,5,7,1,2026-05-04T02:19:35.987168+05:30
Akola,Maharashtra,20.7002,77.0082,29.2,24,0.0,971.7,8.85,33.1,56,14.0,7.5,5.4,178.0,86.0,11.8,4,5,7,0,2026-05-04T02:19:35.987176+05:30
Amravati,Maharashtra,20.9374,77.7796,29.4,18,0.0,963.5,8.9,32.4,58,11.8,7.3,5.8,202.0,88.0,11.5,4,5,7,0,2026-05-04T02:19:35.987184+05:30
Latur,Maharashtra,18.4088,76.5604,28.1,29,0.0,936.8,9.1,45.0,63,30.6,13.4,6.0,210.0,83.0,4.4,4,5,7,0,2026-05-04T02:19:35.987191+05:30
Nanded,Maharashtra,19.1383,77.3091,30.5,24,0.0,965.2,9.0,28.8,62,21.9,13.7,7.8,186.0,74.0,4.1,0,5,7,0,2026-05-04T02:19:35.987198+05:30
Gulbarga,Karnataka,17.3297,76.8343,30.0,29,0.0,955.8,9.1,40.7,60,21.0,12.1,7.0,222.0,75.0,3.7,4,5,7,0,2026-05-04T02:19:35.987204+05:30
Bidar,Karnataka,17.9104,77.5199,26.4,35,0.0,932.1,9.15,33.5,69,49.0,26.3,21.3,357.0,55.0,5.5,4,5,7,0,2026-05-04T02:19:35.987211+05:30
Hospet,Karnataka,15.2689,76.3909,25.0,84,0.0,954.2,9.2,36.0,62,21.9,11.8,4.9,184.0,57.0,1.6,7,5,7,1,2026-05-04T02:19:35.987218+05:30
Tirupur,Tamil Nadu,11.1085,77.3411,25.9,84,0.0,973.2,9.4,47.5,70,37.7,24.7,18.0,183.0,48.0,5.9,7,5,7,1,2026-05-04T02:19:35.987224+05:30
Alappuzha,Kerala,9.4981,76.3388,27.0,91,0.0,1007.7,8.7,34.9,82,55.6,31.8,18.3,125.0,50.0,3.2,7,5,4,1,2026-05-04T02:19:35.987230+05:30
Munnar,Kerala,10.0889,77.0595,17.0,89,0.0,855.1,8.65,28.1,68,30.0,26.4,11.1,229.0,38.0,0.9,3,10,7,0,2026-05-04T02:19:35.987237+05:30
Silchar,Assam,24.8333,92.7789,21.4,98,0.0,1006.8,8.6,26.6,60,37.5,26.3,12.1,421.0,64.0,4.3,3,5,4,1,2026-05-04T02:19:35.987244+05:30
Dibrugarh,Assam,27.4728,94.912,20.2,96,0.0,997.9,8.8,20.5,60,21.9,21.5,26.5,544.0,2.0,0.9,3,5,7,1,2026-05-04T02:19:35.987250+05:30
