city,state,latitude,longitude,temp,humidity,rain,pressure,uv_index,wind_gusts,aqi,pm10,pm2_5,mosquito_risk,arthritis_risk,migraine_risk,frizz_risk,updated_at
Delhi,Delhi,28.6139,77.209,40.5,13,0.0,974.5,7.45,47.2,466,502.9,58.0,0,5,10,0,2026-04-27T17:16:27.824619+05:30
Mumbai,Maharashtra,19.076,72.8777,31.4,69,0.0,1003.9,8.0,39.6,89,49.6,24.8,3,5,4,1,2026-04-27T17:16:27.824670+05:30
Bangalore,Karnataka,12.9716,77.5946,35.7,19,0.0,908.6,9.55,37.4,167,48.1,28.4,0,5,10,0,2026-04-27T17:16:27.824687+05:30
Hyderabad,Telangana,17.385,78.4867,39.2,16,0.0,948.5,9.25,33.8,154,47.4,36.6,0,5,10,0,2026-04-27T17:16:27.824698+05:30
Chennai,Tamil Nadu,13.0827,80.2707,31.7,64,0.0,1002.9,9.25,55.1,55,20.4,15.3,3,5,4,1,2026-04-27T17:16:27.824712+05:30
Kolkata,West Bengal,22.5726,88.3639,31.4,71,0.0,998.2,8.85,58.7,59,17.9,14.1,3,5,7,1,2026-04-27T17:16:27.824722+05:30
Pune,Maharashtra,18.5204,73.8567,36.6,24,0.0,944.5,8.55,41.4,109,37.3,20.6,0,5,10,0,2026-04-27T17:16:27.824735+05:30
Ahmedabad,Gujarat,23.0225,72.5714,42.9,10,0.0,994.9,8.2,48.6,48,19.4,8.7,0,5,10,0,2026-04-27T17:16:27.824744+05:30
Jaipur,Rajasthan,26.9124,75.7873,40.8,13,0.0,952.9,8.05,37.8,129,251.5,32.1,0,5,10,0,2026-04-27T17:16:27.824752+05:30
Lucknow,Uttar Pradesh,26.8467,80.9462,42.0,14,0.0,983.5,7.9,46.4,174,202.1,40.9,0,5,10,0,2026-04-27T17:16:27.824761+05:30
Kanpur,Uttar Pradesh,26.4499,80.3319,42.4,12,0.0,982.2,7.95,49.0,264,581.1,64.7,0,5,10,0,2026-04-27T17:16:27.824769+05:30
Chandigarh,Chandigarh,30.7333,76.7794,36.1,18,0.0,961.5,7.45,46.1,138,7.6,6.2,0,5,10,0,2026-04-27T17:16:27.824777+05:30
Srinagar,Jammu and Kashmir,34.0837,74.7973,24.1,40,0.0,839.3,8.3,18.7,87,17.1,9.0,0,5,7,0,2026-04-27T17:16:27.824785+05:30
Jammu,Jammu and Kashmir,32.7266,74.857,34.8,26,0.0,965.8,8.25,33.5,119,8.7,5.6,0,5,7,0,2026-04-27T17:16:27.824793+05:30
Amritsar,Punjab,31.634,74.8723,37.2,20,0.0,973.3,8.1,43.9,128,33.1,13.5,0,5,10,0,2026-04-27T17:16:27.824801+05:30
Ludhiana,Punjab,30.901,75.8573,38.3,16,0.0,970.9,7.7,40.0,108,30.7,9.4,0,5,10,0,2026-04-27T17:16:27.824808+05:30
Jalandhar,Punjab,31.326,75.5762,37.3,19,0.0,972.0,7.7,33.5,115,43.1,12.5,0,5,10,0,2026-04-27T17:16:27.824818+05:30
Dehradun,Uttarakhand,30.6284,78.0322,24.2,24,0.0,827.5,7.9,44.6,121,9.5,5.5,0,5,7,0,2026-04-27T17:16:27.824826+05:30
Shimla,Himachal Pradesh,31.1048,77.1734,21.6,22,0.0,783.3,7.95,45.7,123,8.4,4.2,0,5,7,1,2026-04-27T17:16:27.824834+05:30
Manali,Himachal Pradesh,32.2396,77.1887,19.5,41,0.0,814.9,9.9,38.9,137,13.9,6.4,0,5,7,0,2026-04-27T17:16:27.824841+05:30
Gurgaon,Haryana,28.4595,77.0266,39.6,14,0.0,973.1,7.55,47.9,935,1825.4,166.7,0,5,10,0,2026-04-27T17:16:27.824848+05:30
Noida,Uttar Pradesh,28.5355,77.391,40.7,13,0.0,975.6,7.45,41.4,935,1825.4,166.7,0,5,10,0,2026-04-27T17:16:27.824855+05:30
Ghaziabad,Uttar Pradesh,28.6692,77.4538,40.8,13,0.0,973.9,7.45,47.2,390,433.1,50.9,0,5,10,0,2026-04-27T17:16:27.824862+05:30
Faridabad,Haryana,28.4089,77.3178,40.8,12,0.0,975.1,7.5,50.8,935,1825.4,166.7,0,5,10,0,2026-04-27T17:16:27.824872+05:30
Meerut,Uttar Pradesh,28.9845,77.7064,39.0,18,0.0,972.2,7.35,38.2,390,433.1,50.9,0,5,10,0,2026-04-27T17:16:27.824879+05:30
Agra,Uttar Pradesh,27.1767,78.0081,41.0,15,0.0,979.5,7.8,45.4,481,707.8,72.6,0,5,10,0,2026-04-27T17:16:27.824887+05:30
Varanasi,Uttar Pradesh,25.3176,82.9739,42.0,13,0.0,987.6,8.5,51.5,164,90.3,25.6,0,5,10,0,2026-04-27T17:16:27.824897+05:30
Prayagraj,Uttar Pradesh,25.4358,81.8463,41.2,15,0.0,986.5,8.4,44.3,151,122.0,29.6,0,5,10,0,2026-04-27T17:16:27.824904+05:30
Gorakhpur,Uttar Pradesh,26.7606,83.3732,36.8,30,0.0,988.4,8.35,38.9,155,100.4,51.5,0,5,10,1,2026-04-27T17:16:27.824912+05:30
Bareilly,Uttar Pradesh,28.367,79.4304,38.8,18,0.0,977.5,7.7,46.4,156,27.9,18.7,0,5,10,0,2026-04-27T17:16:27.824919+05:30
Aligarh,Uttar Pradesh,27.8974,78.088,40.5,14,0.0,976.7,7.6,50.0,672,936.9,92.9,0,5,10,0,2026-04-27T17:16:27.824926+05:30
Moradabad,Uttar Pradesh,28.8386,78.7733,39.5,15,0.0,974.4,7.55,49.3,168,25.8,12.3,0,5,10,0,2026-04-27T17:16:27.824933+05:30
Saharanpur,Uttar Pradesh,29.9637,77.546,37.0,18,0.0,967.1,7.1,47.2,146,115.0,20.4,0,5,10,0,2026-04-27T17:16:27.824941+05:30
Jhansi,Uttar Pradesh,25.4484,78.5685,42.0,13,0.0,969.8,8.3,49.3,67,41.3,10.8,0,5,10,0,2026-04-27T17:16:31.139848+05:30
Surat,Gujarat,21.1702,72.8311,35.2,43,0.0,1001.1,7.8,37.8,101,41.9,29.2,0,5,7,1,2026-04-27T17:16:31.139881+05:30
Vadodara,Gujarat,22.3072,73.1812,42.8,12,0.0,996.8,8.15,48.6,79,32.0,15.5,0,5,10,0,2026-04-27T17:16:31.139893+05:30
Rajkot,Gujarat,22.3039,70.8022,38.8,16,0.0,988.9,7.9,52.2,49,31.5,11.4,0,5,10,0,2026-04-27T17:16:31.139903+05:30
Thane,Maharashtra,19.2183,72.9781,34.3,53,0.0,1003.1,8.05,37.1,89,49.6,24.8,0,5,4,1,2026-04-27T17:16:31.139911+05:30
Nagpur,Maharashtra,21.1458,79.0882,42.2,11,0.0,966.5,8.7,40.7,181,43.2,19.6,0,5,10,0,2026-04-27T17:16:31.139920+05:30
Nashik,Maharashtra,19.9975,73.7898,36.7,21,0.0,942.4,8.3,38.2,97,35.6,21.5,0,5,10,0,2026-04-27T17:16:31.139928+05:30
Aurangabad,Maharashtra,19.8762,75.3433,39.0,14,0.0,940.2,9.0,33.8,105,27.5,17.5,0,5,10,0,2026-04-27T17:16:31.139935+05:30
Solapur,Maharashtra,17.6599,75.9064,40.8,13,0.0,951.7,9.05,29.5,135,27.5,18.8,0,5,10,0,2026-04-27T17:16:31.139942+05:30
Kolhapur,Maharashtra,16.705,74.2433,33.0,42,0.0,944.4,9.0,46.4,102,28.9,19.7,0,5,7,1,2026-04-27T17:16:31.139949+05:30
Goa,Goa,15.2993,74.124,32.5,60,0.0,993.8,8.95,37.4,74,32.0,15.3,0,5,7,1,2026-04-27T17:16:31.139956+05:30
Jodhpur,Rajasthan,26.2389,73.0243,42.0,11,0.0,975.1,8.3,43.9,112,213.3,26.2,0,5,10,0,2026-04-27T17:16:31.139962+05:30
Udaipur,Rajasthan,24.5854,73.7125,38.0,10,0.0,941.5,8.75,45.0,47,17.1,7.0,0,5,10,0,2026-04-27T17:16:31.139969+05:30
Kota,Rajasthan,25.2138,75.8648,42.3,12,0.0,970.8,8.3,33.1,76,41.9,13.2,0,5,10,0,2026-04-27T17:16:31.139975+05:30
Bikaner,Rajasthan,28.0229,73.3119,39.0,18,0.0,974.5,8.1,58.3,60,62.6,15.7,0,5,10,0,2026-04-27T17:16:31.139982+05:30
Ajmer,Rajasthan,26.4499,74.6399,39.5,12,0.0,948.4,8.25,49.0,58,87.1,18.1,0,5,10,0,2026-04-27T17:16:31.139989+05:30
Gwalior,Madhya Pradesh,26.2183,78.1828,41.8,14,0.0,975.0,8.05,49.7,85,92.7,19.0,0,5,10,0,2026-04-27T17:16:31.139995+05:30
Indore,Madhya Pradesh,22.7196,75.8577,39.2,10,0.0,943.5,8.6,51.5,68,20.1,8.7,0,5,10,0,2026-04-27T17:16:31.140002+05:30
Bhopal,Madhya Pradesh,23.2599,77.4126,41.7,10,0.0,947.3,8.6,44.3,87,20.8,10.5,0,5,10,0,2026-04-27T17:16:31.140008+05:30
Jabalpur,Madhya Pradesh,23.1815,79.9864,39.2,15,0.0,955.9,8.75,49.7,95,46.9,13.9,0,5,10,0,2026-04-27T17:16:31.140015+05:30
Ujjain,Madhya Pradesh,23.1765,75.7885,39.2,10,0.0,948.7,8.55,49.0,63,18.9,7.6,0,5,10,0,2026-04-27T17:16:31.140021+05:30
Visakhapatnam,Andhra Pradesh,17.6868,83.2185,31.0,72,0.0,998.8,9.2,54.0,56,25.1,18.0,3,5,7,1,2026-04-27T17:16:31.140028+05:30
Vijayawada,Andhra Pradesh,16.5062,80.648,37.3,35,0.0,996.8,9.15,36.4,58,29.7,23.1,0,5,10,1,2026-04-27T17:16:31.140035+05:30
Guntur,Andhra Pradesh,16.3067,80.4365,34.7,50,0.0,998.3,9.0,38.2,73,32.6,24.6,0,5,7,1,2026-04-27T17:16:31.140042+05:30
Nellore,Andhra Pradesh,14.4426,79.9865,33.0,61,0.0,1000.1,9.3,47.9,77,33.4,23.5,3,5,4,1,2026-04-27T17:16:31.140049+05:30
Kurnool,Andhra Pradesh,15.8281,78.0373,41.0,17,0.0,970.9,9.2,34.9,173,41.4,32.4,0,5,10,0,2026-04-27T17:16:31.140057+05:30
Kakinada,Andhra Pradesh,16.9891,82.2475,35.3,46,0.0,1002.1,8.9,40.7,52,24.2,15.7,0,5,7,1,2026-04-27T17:16:31.140064+05:30
Tirupati,Andhra Pradesh,13.6288,79.4192,39.2,21,0.0,985.4,9.05,50.0,90,30.9,25.9,0,5,10,0,2026-04-27T17:16:31.140070+05:30
Warangal,Telangana,17.9689,79.5941,40.3,18,0.0,972.8,8.85,37.8,122,42.0,34.8,0,5,10,0,2026-04-27T17:16:31.140076+05:30
Nizamabad,Telangana,18.6725,78.0941,40.5,15,0.0,959.0,9.1,33.8,139,30.0,16.1,0,5,10,0,2026-04-27T17:16:31.140082+05:30
Mysore,Karnataka,12.2958,76.6396,33.8,28,0.0,925.2,9.45,41.8,147,44.9,27.2,0,5,7,0,2026-04-27T17:16:31.140089+05:30
Mangalore,Karnataka,12.9141,74.856,31.5,67,0.0,1003.0,8.15,38.9,78,28.8,20.9,3,5,4,1,2026-04-27T17:16:31.140095+05:30
Hubli-Dharwad,Karnataka,15.3647,75.124,30.2,55,0.0,937.7,9.2,48.2,106,42.0,34.5,0,5,7,1,2026-04-27T17:16:31.140102+05:30
Belgaum,Karnataka,15.8497,74.4977,28.5,64,0.0,923.0,9.2,52.9,113,36.6,26.7,7,5,7,1,2026-04-27T17:16:34.442262+05:30
Coimbatore,Tamil Nadu,11.0168,76.9558,35.5,32,0.0,957.6,9.35,46.8,117,28.7,19.6,0,5,10,1,2026-04-27T17:16:34.442292+05:30
Madurai,Tamil Nadu,9.9252,78.1198,35.9,36,0.0,988.9,8.75,52.6,74,11.9,10.7,0,5,10,1,2026-04-27T17:16:34.442303+05:30
Trichy,Tamil Nadu,10.7905,78.7047,35.2,43,0.0,995.5,9.1,48.6,57,17.6,14.0,0,5,10,1,2026-04-27T17:16:34.442311+05:30
Salem,Tamil Nadu,11.6643,78.146,38.8,20,0.0,972.3,9.2,34.6,104,26.8,19.7,0,5,10,0,2026-04-27T17:16:34.442318+05:30
Tirunelveli,Tamil Nadu,8.7139,77.7567,33.5,51,0.0,999.6,8.95,52.2,76,14.3,13.4,0,5,7,1,2026-04-27T17:16:34.442326+05:30
Vellore,Tamil Nadu,12.9165,79.1325,37.8,26,0.0,979.4,9.25,43.6,96,28.0,24.4,0,5,10,0,2026-04-27T17:16:34.442333+05:30
Erode,Tamil Nadu,11.341,77.7172,39.3,20,0.0,983.5,9.3,50.8,133,26.2,18.9,0,5,10,0,2026-04-27T17:16:34.442340+05:30
Kochi,Kerala,9.9312,76.2673,31.0,71,0.0,1005.0,8.8,37.1,83,23.0,18.9,3,5,4,1,2026-04-27T17:16:34.442348+05:30
Thiruvananthapuram,Kerala,8.5241,76.9366,28.3,76,0.1,1005.5,8.45,38.5,53,20.4,16.0,10,5,4,1,2026-04-27T17:16:34.442355+05:30
Kozhikode,Kerala,11.2588,75.7804,30.0,76,0.0,1004.2,8.55,41.4,60,21.0,15.1,7,5,4,1,2026-04-27T17:16:34.442361+05:30
Thrissur,Kerala,10.5276,76.2144,31.1,68,0.0,1003.4,8.75,39.6,79,21.6,17.9,3,5,4,1,2026-04-27T17:16:34.442368+05:30
Kannur,Kerala,11.8745,75.3704,31.6,65,0.0,1003.5,9.05,45.0,73,29.2,21.7,3,5,4,1,2026-04-27T17:16:34.442375+05:30
Patna,Bihar,25.5941,85.1376,32.8,50,0.0,992.8,8.6,35.6,151,101.3,51.0,0,5,7,1,2026-04-27T17:16:34.442381+05:30
Gaya,Bihar,24.7914,85.0002,36.0,32,0.0,985.3,8.65,42.1,168,107.3,50.1,0,5,10,1,2026-04-27T17:16:34.442388+05:30
Muzaffarpur,Bihar,26.1209,85.3647,31.1,54,0.0,993.4,8.55,39.2,134,108.0,48.8,0,5,7,1,2026-04-27T17:16:34.442394+05:30
Bhagalpur,Bihar,25.2425,87.0117,29.0,65,0.0,994.0,7.5,43.2,116,68.0,39.8,7,5,7,1,2026-04-27T17:16:34.442401+05:30
Ranchi,Jharkhand,23.3441,85.3096,35.2,21,0.0,931.6,9.15,50.0,138,66.8,19.4,0,5,10,0,2026-04-27T17:16:34.442407+05:30
Jamshedpur,Jharkhand,22.8046,86.2029,38.7,22,0.0,982.4,9.0,44.3,169,55.6,27.2,0,5,10,0,2026-04-27T17:16:34.442413+05:30
Dhanbad,Jharkhand,23.7957,86.4304,36.8,32,0.0,971.8,8.9,44.6,149,112.0,34.8,0,5,10,1,2026-04-27T17:16:34.442419+05:30
Bokaro,Jharkhand,23.6693,86.1511,37.7,23,0.0,975.3,8.65,46.8,136,106.6,33.4,0,5,10,0,2026-04-27T17:16:34.442426+05:30
Bhubaneswar,Odisha,20.2961,85.8245,31.1,70,0.0,997.0,9.1,54.0,51,16.7,13.9,3,5,7,1,2026-04-27T17:16:34.442432+05:30
Cuttack,Odisha,20.4625,85.8828,32.5,65,0.0,998.3,9.15,49.0,51,16.7,13.9,3,5,7,1,2026-04-27T17:16:34.442438+05:30
Rourkela,Odisha,22.2604,84.8536,37.4,24,0.0,977.2,8.9,51.1,190,44.0,19.5,0,5,10,0,2026-04-27T17:16:34.442444+05:30
Raipur,Chhattisgarh,21.2514,81.6296,39.5,20,0.0,968.7,8.95,59.8,171,53.2,26.6,0,5,10,0,2026-04-27T17:16:34.442450+05:30
Bhilai,Chhattisgarh,21.1938,81.3509,39.2,21,0.0,969.1,8.95,56.2,150,52.2,22.9,0,5,10,0,2026-04-27T17:16:34.442457+05:30
Guwahati,Assam,26.1158,91.7086,22.0,91,0.0,996.6,3.15,23.4,116,32.0,26.0,3,5,3,1,2026-04-27T17:16:34.442463+05:30
Agartala,Tripura,23.8315,91.2868,23.5,97,0.1,1000.3,7.75,71.6,91,51.2,24.4,6,5,4,1,2026-04-27T17:16:34.442470+05:30
Shillong,Meghalaya,25.5788,91.8933,17.2,93,0.1,851.7,2.2,48.2,110,13.4,9.6,6,10,3,0,2026-04-27T17:16:34.442476+05:30
Imphal,Manipur,24.817,93.9368,21.4,83,0.0,918.4,6.4,28.8,157,74.0,38.4,3,5,7,1,2026-04-27T17:16:34.442483+05:30
Aizawl,Mizoram,23.7271,92.7176,21.3,73,0.0,887.9,8.95,60.5,90,38.5,21.2,3,5,7,1,2026-04-27T17:16:34.442490+05:30
Kohima,Nagaland,25.6701,94.1077,17.0,97,0.0,850.8,3.2,39.2,151,71.5,41.1,3,10,3,1,2026-04-27T17:16:34.442496+05:30
Gangtok,Sikkim,27.3314,88.6138,16.2,98,0.1,831.5,8.85,42.5,115,41.6,25.1,6,10,7,0,2026-04-27T17:16:34.442503+05:30
Siliguri,West Bengal,26.7271,88.3953,25.6,71,0.0,986.8,8.4,34.6,120,27.7,16.5,7,5,7,1,2026-04-27T17:16:37.748462+05:30
Durgapur,West Bengal,23.5204,87.3119,28.4,81,0.0,986.9,8.85,42.8,168,88.2,53.9,7,5,7,1,2026-04-27T17:16:37.748492+05:30
Asansol,West Bengal,23.6739,86.9524,35.4,42,0.0,985.1,8.9,43.9,160,108.3,41.4,0,5,10,1,2026-04-27T17:16:37.748502+05:30
Pondicherry,Puducherry,11.9139,79.8145,31.0,69,0.0,1004.7,9.2,52.6,52,16.5,11.7,3,5,4,1,2026-04-27T17:16:37.748511+05:30
Port Blair,Andaman and Nicobar Islands,11.6234,92.7265,30.6,68,0.0,1004.8,9.1,33.1,48,10.6,7.7,3,5,4,1,2026-04-27T17:16:37.748519+05:30
Haridwar,Uttarakhand,29.9457,78.1642,35.4,24,0.0,965.2,7.25,28.8,149,36.7,10.2,0,5,10,0,2026-04-27T17:16:37.748527+05:30
Rishikesh,Uttarakhand,30.0869,78.2676,33.7,35,0.0,958.2,7.35,27.4,140,10.8,7.9,0,5,7,1,2026-04-27T17:16:37.748535+05:30
Nainital,Uttarakhand,29.3919,79.4542,21.8,38,0.0,802.8,8.2,37.8,155,21.7,15.9,0,5,7,0,2026-04-27T17:16:37.748542+05:30
Mussoorie,Uttarakhand,30.4599,78.0664,22.0,27,0.0,800.6,7.75,51.8,144,10.2,8.1,0,5,7,0,2026-04-27T17:16:37.748548+05:30
Dharamshala,Himachal Pradesh,32.219,76.3234,26.5,27,0.0,866.0,8.1,52.2,116,6.8,3.3,4,5,7,0,2026-04-27T17:16:37.748555+05:30
Dalhousie,Himachal Pradesh,32.5387,75.971,21.8,36,0.0,803.1,8.3,42.1,129,6.4,4.0,0,5,7,0,2026-04-27T17:16:37.748563+05:30
Patiala,Punjab,30.3398,76.3869,39.5,14,0.0,970.0,7.35,47.9,338,700.4,61.5,0,5,10,0,2026-04-27T17:16:37.748570+05:30
Bhatinda,Punjab,30.211,74.9455,39.4,15,0.0,976.3,8.0,46.4,106,69.4,17.2,0,5,10,0,2026-04-27T17:16:37.748576+05:30
Rohtak,Haryana,28.8955,76.6066,40.5,14,0.0,973.2,7.5,42.8,601,756.2,73.3,0,5,10,0,2026-04-27T17:16:37.748583+05:30
Panipat,Haryana,29.3909,76.9635,41.2,11,0.0,971.4,7.3,49.7,1081,1590.7,137.8,0,5,10,0,2026-04-27T17:16:37.748590+05:30
Mathura,Uttar Pradesh,27.4924,77.6737,41.0,15,0.0,978.2,7.75,38.2,656,745.1,72.9,0,5,10,0,2026-04-27T17:16:37.748616+05:30
Vrindavan,Uttar Pradesh,27.5823,77.7027,40.5,16,0.0,978.7,7.65,41.4,656,745.1,72.9,0,5,10,0,2026-04-27T17:16:37.748625+05:30
Ayodhya,Uttar Pradesh,26.7922,82.1998,39.4,19,0.0,985.8,8.1,36.4,159,128.5,41.7,0,5,10,0,2026-04-27T17:16:37.748632+05:30
Ratlam,Madhya Pradesh,23.3315,75.0367,38.7,11,0.0,949.9,8.45,48.6,54,17.3,7.4,0,5,10,0,2026-04-27T17:16:37.748639+05:30
Sagar,Madhya Pradesh,23.8388,78.7378,39.2,15,0.0,944.3,8.6,44.3,80,24.2,9.1,0,5,10,0,2026-04-27T17:16:37.748645+05:30
Satna,Madhya Pradesh,24.6005,80.8322,40.6,13,0.0,963.9,8.6,54.4,70,38.1,12.1,0,5,10,0,2026-04-27T17:16:37.748652+05:30
Akola,Maharashtra,20.7002,77.0082,41.5,13,0.0,968.9,8.85,34.2,108,26.5,16.0,0,5,10,0,2026-04-27T17:16:37.748659+05:30
Amravati,Maharashtra,20.9374,77.7796,41.4,11,0.0,961.4,8.9,34.6,108,24.7,13.9,0,5,10,0,2026-04-27T17:16:37.748666+05:30
Latur,Maharashtra,18.4088,76.5604,39.7,13,0.0,935.5,9.05,40.3,130,30.2,19.2,0,5,10,0,2026-04-27T17:16:37.748673+05:30
Nanded,Maharashtra,19.1383,77.3091,41.0,13,0.0,962.8,9.0,40.7,124,26.3,14.8,0,5,10,0,2026-04-27T17:16:37.748680+05:30
Gulbarga,Karnataka,17.3297,76.8343,40.6,13,0.0,953.2,9.05,31.3,150,31.5,22.7,0,5,10,0,2026-04-27T17:16:37.748686+05:30
Bidar,Karnataka,17.9104,77.5199,38.6,15,0.0,931.4,9.1,30.6,138,26.8,15.9,0,5,10,0,2026-04-27T17:16:37.748692+05:30
Hospet,Karnataka,15.2689,76.3909,37.0,27,0.0,951.5,9.25,36.4,140,43.0,34.7,0,5,10,0,2026-04-27T17:16:37.748699+05:30
Tirupur,Tamil Nadu,11.1085,77.3411,39.6,18,0.0,970.1,9.35,37.1,132,29.3,19.8,0,5,10,0,2026-04-27T17:16:37.748705+05:30
Alappuzha,Kerala,9.4981,76.3388,30.1,74,0.0,1005.4,7.95,37.4,76,24.0,18.7,3,5,4,1,2026-04-27T17:16:37.748712+05:30
Munnar,Kerala,10.0889,77.0595,21.3,87,0.2,855.7,9.6,27.0,92,17.4,13.4,6,5,7,1,2026-04-27T17:16:37.748719+05:30
Silchar,Assam,24.8333,92.7789,24.7,92,0.2,999.8,8.75,32.8,159,57.3,39.0,6,5,7,1,2026-04-27T17:16:37.748726+05:30
Dibrugarh,Assam,27.4728,94.912,23.1,83,0.0,992.1,1.7,28.8,93,67.1,47.0,3,5,3,1,2026-04-27T17:16:37.748732+05:30
