city,state,latitude,longitude,temp,humidity,rain,pressure,uv_index,wind_gusts,aqi,pm10,pm2_5,mosquito_risk,arthritis_risk,migraine_risk,frizz_risk,updated_at
Delhi,Delhi,28.6139,77.209,33.1,31,0.0,983.5,6.9,20.9,124,109.2,28.9,0,5,7,0,2026-04-02T16:24:21.513673+05:30
Mumbai,Maharashtra,19.076,72.8777,27.9,74,0.0,1008.2,7.55,19.4,87,33.9,25.3,7,0,4,1,2026-04-02T16:24:21.513706+05:30
Bangalore,Karnataka,12.9716,77.5946,33.1,27,0.0,911.3,9.6,20.9,78,15.7,11.5,0,5,7,0,2026-04-02T16:24:21.513720+05:30
Hyderabad,Telangana,17.385,78.4867,35.0,29,0.0,952.8,9.15,25.9,71,21.1,16.1,0,5,7,0,2026-04-02T16:24:21.513729+05:30
Chennai,Tamil Nadu,13.0827,80.2707,32.3,56,0.0,1007.1,9.3,29.9,38,13.8,10.7,0,5,4,1,2026-04-02T16:24:21.513737+05:30
Kolkata,West Bengal,22.5726,88.3639,32.4,66,0.0,1005.3,8.6,24.1,86,35.2,27.6,3,5,4,1,2026-04-02T16:24:21.513744+05:30
Pune,Maharashtra,18.5204,73.8567,31.2,53,0.0,948.7,8.45,29.9,113,53.4,44.5,0,5,7,1,2026-04-02T16:24:21.513754+05:30
Ahmedabad,Gujarat,23.0225,72.5714,36.1,27,0.0,1000.7,7.9,29.5,70,22.9,14.0,0,5,7,0,2026-04-02T16:24:21.513761+05:30
Jaipur,Rajasthan,26.9124,75.7873,34.4,30,0.0,959.1,7.55,40.7,113,168.6,23.8,0,5,7,0,2026-04-02T16:24:21.513768+05:30
Lucknow,Uttar Pradesh,26.8467,80.9462,37.3,21,0.0,992.5,7.25,31.7,87,54.7,19.1,0,5,10,0,2026-04-02T16:24:21.513774+05:30
Kanpur,Uttar Pradesh,26.4499,80.3319,35.8,28,0.0,991.2,6.85,23.8,97,157.9,29.0,0,5,10,0,2026-04-02T16:24:21.513780+05:30
Chandigarh,Chandigarh,30.7333,76.7794,31.8,31,0.0,969.5,6.65,21.6,70,42.6,12.7,0,5,7,0,2026-04-02T16:24:21.513786+05:30
Srinagar,Jammu and Kashmir,34.0837,74.7973,17.3,55,0.0,844.9,6.8,14.8,111,29.0,11.6,0,5,7,0,2026-04-02T16:24:21.513792+05:30
Jammu,Jammu and Kashmir,32.7266,74.857,32.5,27,0.0,973.8,7.35,19.8,78,45.9,13.7,0,5,7,0,2026-04-02T16:24:21.513798+05:30
Amritsar,Punjab,31.634,74.8723,32.6,29,0.0,981.8,7.35,19.4,93,58.8,15.8,0,5,7,0,2026-04-02T16:24:21.513803+05:30
Ludhiana,Punjab,30.901,75.8573,33.2,26,0.0,979.6,7.0,16.2,118,86.6,21.7,0,5,7,0,2026-04-02T16:24:21.513810+05:30
Jalandhar,Punjab,31.326,75.5762,32.7,25,0.0,980.7,7.15,14.0,91,70.3,19.4,0,5,7,0,2026-04-02T16:24:21.513817+05:30
Dehradun,Uttarakhand,30.6284,78.0322,22.7,35,0.0,833.1,7.15,34.9,44,26.8,7.5,0,5,7,0,2026-04-02T16:24:21.513824+05:30
Shimla,Himachal Pradesh,31.1048,77.1734,20.2,37,0.0,788.1,7.15,33.8,56,32.0,9.3,0,5,7,0,2026-04-02T16:24:21.513830+05:30
Manali,Himachal Pradesh,32.2396,77.1887,21.2,40,0.0,823.5,9.05,26.6,85,18.4,7.1,0,5,7,0,2026-04-02T16:24:21.513835+05:30
Gurgaon,Haryana,28.4595,77.0266,32.8,33,0.0,982.0,6.95,19.4,179,456.3,57.9,0,5,7,0,2026-04-02T16:24:21.513841+05:30
Noida,Uttar Pradesh,28.5355,77.391,33.7,31,0.0,984.9,6.95,16.9,179,456.3,57.9,0,5,7,0,2026-04-02T16:24:21.513847+05:30
Ghaziabad,Uttar Pradesh,28.6692,77.4538,33.5,33,0.0,983.2,6.9,15.8,111,72.9,19.9,0,5,7,0,2026-04-02T16:24:21.513854+05:30
Faridabad,Haryana,28.4089,77.3178,34.1,28,0.0,984.1,6.95,18.7,179,456.3,57.9,0,5,7,0,2026-04-02T16:24:21.513860+05:30
Meerut,Uttar Pradesh,28.9845,77.7064,34.0,27,0.0,982.0,6.8,18.7,111,72.9,19.9,0,5,7,0,2026-04-02T16:24:21.513866+05:30
Agra,Uttar Pradesh,27.1767,78.0081,37.2,23,0.0,986.8,6.6,17.3,216,233.8,39.3,0,5,10,0,2026-04-02T16:24:21.513871+05:30
Varanasi,Uttar Pradesh,25.3176,82.9739,37.5,26,0.0,996.4,7.6,29.9,95,28.2,17.0,0,5,10,0,2026-04-02T16:24:21.513879+05:30
Prayagraj,Uttar Pradesh,25.4358,81.8463,37.6,26,0.0,995.0,7.5,21.6,82,29.2,15.8,0,5,10,0,2026-04-02T16:24:21.513885+05:30
Gorakhpur,Uttar Pradesh,26.7606,83.3732,37.7,16,0.0,995.2,7.8,39.6,83,27.6,12.9,0,5,10,0,2026-04-02T16:24:21.513891+05:30
Bareilly,Uttar Pradesh,28.367,79.4304,35.8,21,0.0,986.5,7.2,31.0,80,34.3,13.2,0,5,10,0,2026-04-02T16:24:21.513896+05:30
Aligarh,Uttar Pradesh,27.8974,78.088,36.3,22,0.0,985.3,7.05,17.3,133,89.6,27.3,0,5,10,0,2026-04-02T16:24:21.513902+05:30
Moradabad,Uttar Pradesh,28.8386,78.7733,34.6,23,0.0,983.7,7.0,26.6,91,44.7,13.9,0,5,7,0,2026-04-02T16:24:21.513909+05:30
Saharanpur,Uttar Pradesh,29.9637,77.546,32.7,26,0.0,976.2,6.5,24.8,89,35.7,10.8,0,5,7,0,2026-04-02T16:24:21.513915+05:30
Jhansi,Uttar Pradesh,25.4484,78.5685,37.9,22,0.0,976.5,6.4,22.0,68,20.7,15.6,0,5,10,0,2026-04-02T16:24:24.792352+05:30
Surat,Gujarat,21.1702,72.8311,30.5,49,0.0,1006.4,7.6,30.6,91,47.5,39.7,0,5,4,1,2026-04-02T16:24:24.792426+05:30
Vadodara,Gujarat,22.3072,73.1812,36.0,28,0.0,1003.1,7.7,34.9,78,30.7,21.0,0,5,7,0,2026-04-02T16:24:24.792441+05:30
Rajkot,Gujarat,22.3039,70.8022,33.6,33,0.0,993.9,6.8,36.7,56,35.0,14.7,0,5,7,0,2026-04-02T16:24:24.792451+05:30
Thane,Maharashtra,19.2183,72.9781,30.3,58,0.0,1007.8,7.3,33.1,87,33.9,25.3,0,5,4,1,2026-04-02T16:24:24.792459+05:30
Nagpur,Maharashtra,21.1458,79.0882,32.6,46,0.0,973.4,8.15,32.8,99,46.6,36.1,0,5,7,1,2026-04-02T16:24:24.792467+05:30
Nashik,Maharashtra,19.9975,73.7898,29.0,55,0.0,946.3,8.15,29.9,103,28.2,21.5,4,5,7,1,2026-04-02T16:24:24.792475+05:30
Aurangabad,Maharashtra,19.8762,75.3433,32.5,35,0.0,943.9,8.85,47.9,109,35.7,27.5,0,5,7,0,2026-04-02T16:24:24.792482+05:30
Solapur,Maharashtra,17.6599,75.9064,34.9,35,0.0,956.0,8.9,31.0,122,29.6,23.7,0,5,7,1,2026-04-02T16:24:24.792490+05:30
Kolhapur,Maharashtra,16.705,74.2433,29.3,60,0.0,948.3,8.95,34.6,135,48.9,41.2,4,5,7,1,2026-04-02T16:24:24.792498+05:30
Goa,Goa,15.2993,74.124,31.2,67,0.0,997.8,8.85,29.5,74,23.9,16.6,3,5,7,1,2026-04-02T16:24:24.792506+05:30
Jodhpur,Rajasthan,26.2389,73.0243,34.1,27,0.0,982.1,7.75,36.7,71,117.1,17.3,0,5,7,0,2026-04-02T16:24:24.792514+05:30
Udaipur,Rajasthan,24.5854,73.7125,32.3,22,0.0,946.2,8.3,38.9,59,12.3,6.0,0,5,7,0,2026-04-02T16:24:24.792522+05:30
Kota,Rajasthan,25.2138,75.8648,38.2,18,0.0,976.8,7.85,27.7,67,21.0,14.1,0,5,10,0,2026-04-02T16:24:24.792530+05:30
Bikaner,Rajasthan,28.0229,73.3119,36.0,19,0.0,980.0,7.3,35.6,58,32.8,9.2,0,5,10,0,2026-04-02T16:24:24.792538+05:30
Ajmer,Rajasthan,26.4499,74.6399,34.6,23,0.0,953.5,7.4,33.1,65,14.5,7.5,0,5,7,0,2026-04-02T16:24:24.792545+05:30
Gwalior,Madhya Pradesh,26.2183,78.1828,36.3,30,0.0,982.1,6.35,22.0,69,31.4,18.2,0,5,10,0,2026-04-02T16:24:24.792553+05:30
Indore,Madhya Pradesh,22.7196,75.8577,35.0,22,0.0,947.7,8.3,40.7,104,36.4,28.2,0,5,7,0,2026-04-02T16:24:24.792560+05:30
Bhopal,Madhya Pradesh,23.2599,77.4126,32.5,40,0.0,953.9,7.95,33.1,89,36.8,27.9,0,5,7,1,2026-04-02T16:24:24.792567+05:30
Jabalpur,Madhya Pradesh,23.1815,79.9864,33.5,37,0.0,961.8,7.85,31.7,89,35.0,25.4,0,5,7,1,2026-04-02T16:24:24.792574+05:30
Ujjain,Madhya Pradesh,23.1765,75.7885,35.2,24,0.0,953.0,8.2,27.7,83,32.1,25.3,0,5,10,0,2026-04-02T16:24:24.792582+05:30
Visakhapatnam,Andhra Pradesh,17.6868,83.2185,31.8,48,0.0,1003.7,9.05,36.4,53,15.9,12.6,0,5,4,1,2026-04-02T16:24:24.792589+05:30
Vijayawada,Andhra Pradesh,16.5062,80.648,35.4,40,0.0,1001.8,9.15,24.1,44,16.1,12.0,0,5,7,1,2026-04-02T16:24:24.792597+05:30
Guntur,Andhra Pradesh,16.3067,80.4365,35.1,37,0.0,1003.2,9.15,27.4,39,15.5,10.3,0,5,7,1,2026-04-02T16:24:24.792604+05:30
Nellore,Andhra Pradesh,14.4426,79.9865,33.7,48,0.0,1005.5,9.25,28.1,39,14.2,11.0,0,5,4,1,2026-04-02T16:24:24.792612+05:30
Kurnool,Andhra Pradesh,15.8281,78.0373,37.7,18,0.0,975.8,9.15,24.1,49,19.2,13.4,0,5,10,0,2026-04-02T16:24:24.792620+05:30
Kakinada,Andhra Pradesh,16.9891,82.2475,35.8,40,0.0,1006.7,9.05,33.1,34,10.8,7.9,0,5,7,1,2026-04-02T16:24:24.792628+05:30
Tirupati,Andhra Pradesh,13.6288,79.4192,34.2,32,0.0,991.0,9.35,31.3,47,10.8,9.3,0,5,7,0,2026-04-02T16:24:24.792635+05:30
Warangal,Telangana,17.9689,79.5941,35.5,36,0.0,978.1,9.0,25.9,65,20.3,15.4,0,5,10,1,2026-04-02T16:24:24.792647+05:30
Nizamabad,Telangana,18.6725,78.0941,33.8,44,0.0,964.4,8.9,34.2,113,36.9,29.1,0,5,7,1,2026-04-02T16:24:24.792654+05:30
Mysore,Karnataka,12.2958,76.6396,33.3,28,0.0,927.7,9.5,34.9,104,21.3,16.1,0,5,7,0,2026-04-02T16:24:24.792662+05:30
Mangalore,Karnataka,12.9141,74.856,29.3,82,0.0,1005.9,9.05,22.7,79,26.7,21.4,7,5,4,1,2026-04-02T16:24:24.792669+05:30
Hubli-Dharwad,Karnataka,15.3647,75.124,29.0,62,0.0,940.9,9.2,37.8,111,32.2,26.4,7,5,7,1,2026-04-02T16:24:24.792677+05:30
Belgaum,Karnataka,15.8497,74.4977,27.5,68,0.0,925.9,9.1,32.4,125,38.4,32.6,7,5,7,1,2026-04-02T16:24:28.066277+05:30
Coimbatore,Tamil Nadu,11.0168,76.9558,35.1,32,0.0,960.3,9.4,44.3,86,14.5,9.9,0,5,10,0,2026-04-02T16:24:28.066301+05:30
Madurai,Tamil Nadu,9.9252,78.1198,36.1,30,0.0,990.9,9.35,33.5,52,10.0,9.1,0,5,10,0,2026-04-02T16:24:28.066313+05:30
Trichy,Tamil Nadu,10.7905,78.7047,34.9,32,0.0,998.3,9.4,20.9,53,9.7,8.8,0,5,7,0,2026-04-02T16:24:28.066322+05:30
Salem,Tamil Nadu,11.6643,78.146,35.7,34,0.0,975.7,9.4,17.3,63,15.5,14.3,0,5,10,1,2026-04-02T16:24:28.066331+05:30
Tirunelveli,Tamil Nadu,8.7139,77.7567,34.0,47,0.0,1001.4,9.35,45.7,49,9.3,7.9,0,5,4,1,2026-04-02T16:24:28.066339+05:30
Vellore,Tamil Nadu,12.9165,79.1325,33.7,30,0.0,984.1,9.4,27.4,53,10.3,8.8,0,5,7,0,2026-04-02T16:24:28.066348+05:30
Erode,Tamil Nadu,11.341,77.7172,37.0,26,0.0,986.9,9.3,26.3,53,9.7,8.0,0,5,10,0,2026-04-02T16:24:28.066356+05:30
Kochi,Kerala,9.9312,76.2673,29.1,79,0.0,1007.3,9.2,31.0,91,21.3,17.9,7,5,4,1,2026-04-02T16:24:28.066408+05:30
Thiruvananthapuram,Kerala,8.5241,76.9366,29.8,70,0.0,1006.5,9.2,25.2,78,12.7,9.5,7,5,4,1,2026-04-02T16:24:28.066422+05:30
Kozhikode,Kerala,11.2588,75.7804,30.0,75,0.0,1006.9,8.85,25.2,61,17.4,12.3,7,5,4,1,2026-04-02T16:24:28.066431+05:30
Thrissur,Kerala,10.5276,76.2144,31.7,67,0.0,1005.8,9.15,32.0,71,19.4,16.1,3,5,4,1,2026-04-02T16:24:28.066440+05:30
Kannur,Kerala,11.8745,75.3704,30.7,70,0.0,1006.4,9.15,25.6,75,18.5,14.6,3,5,4,1,2026-04-02T16:24:28.066448+05:30
Patna,Bihar,25.5941,85.1376,35.8,31,0.0,998.7,8.1,33.5,86,33.6,15.9,0,5,10,0,2026-04-02T16:24:28.066457+05:30
Gaya,Bihar,24.7914,85.0002,36.2,31,0.0,992.6,8.3,29.2,100,27.2,15.5,0,5,10,1,2026-04-02T16:24:28.066465+05:30
Muzaffarpur,Bihar,26.1209,85.3647,36.4,24,0.0,998.2,8.25,31.3,83,32.5,15.7,0,5,10,0,2026-04-02T16:24:28.066473+05:30
Bhagalpur,Bihar,25.2425,87.0117,34.5,34,0.0,999.5,7.95,26.6,98,36.3,16.4,0,5,7,1,2026-04-02T16:24:28.066480+05:30
Ranchi,Jharkhand,23.3441,85.3096,32.2,34,0.0,938.6,8.9,32.0,117,29.9,19.6,0,5,7,0,2026-04-02T16:24:28.066487+05:30
Jamshedpur,Jharkhand,22.8046,86.2029,36.0,36,0.0,990.1,8.75,31.7,141,39.2,26.8,0,5,10,1,2026-04-02T16:24:28.066494+05:30
Dhanbad,Jharkhand,23.7957,86.4304,37.3,24,0.0,978.4,8.65,27.0,153,33.3,25.0,0,5,10,0,2026-04-02T16:24:28.066502+05:30
Bokaro,Jharkhand,23.6693,86.1511,36.6,24,0.0,982.5,8.65,28.1,151,31.4,23.9,0,5,10,0,2026-04-02T16:24:28.066509+05:30
Bhubaneswar,Odisha,20.2961,85.8245,34.8,40,0.0,1002.0,8.9,30.6,59,22.1,16.6,0,5,4,1,2026-04-02T16:24:28.066517+05:30
Cuttack,Odisha,20.4625,85.8828,37.9,31,0.0,1003.0,8.95,23.0,59,22.1,16.6,0,5,7,1,2026-04-02T16:24:28.066524+05:30
Rourkela,Odisha,22.2604,84.8536,36.9,30,0.0,984.6,8.65,26.6,160,44.9,31.8,0,5,10,1,2026-04-02T16:24:28.066530+05:30
Raipur,Chhattisgarh,21.2514,81.6296,35.6,31,0.0,974.6,8.7,25.6,132,35.6,29.6,0,5,10,0,2026-04-02T16:24:28.066538+05:30
Bhilai,Chhattisgarh,21.1938,81.3509,35.5,33,0.0,974.9,8.7,24.8,128,36.9,29.5,0,5,10,1,2026-04-02T16:24:28.066545+05:30
Guwahati,Assam,26.1158,91.7086,29.9,70,0.0,999.4,8.15,33.5,103,33.3,27.2,7,5,7,1,2026-04-02T16:24:28.066552+05:30
Agartala,Tripura,23.8315,91.2868,33.5,50,0.0,1004.6,8.4,43.2,111,46.9,37.6,0,5,4,1,2026-04-02T16:24:28.066559+05:30
Shillong,Meghalaya,25.5788,91.8933,18.9,65,0.0,856.6,8.55,70.9,89,41.4,34.1,3,5,7,0,2026-04-02T16:24:28.066567+05:30
Imphal,Manipur,24.817,93.9368,21.8,71,0.0,923.1,8.7,87.1,112,51.0,39.6,3,5,7,1,2026-04-02T16:24:28.066574+05:30
Aizawl,Mizoram,23.7271,92.7176,25.4,56,0.0,893.7,8.65,55.1,96,51.8,35.3,4,5,7,0,2026-04-02T16:24:28.066581+05:30
Kohima,Nagaland,25.6701,94.1077,17.7,85,0.0,854.9,8.65,105.5,93,44.8,35.4,3,10,7,0,2026-04-02T16:24:28.066589+05:30
Gangtok,Sikkim,27.3314,88.6138,19.9,69,0.0,837.9,8.55,20.5,99,43.5,34.3,3,5,7,0,2026-04-02T16:24:28.066597+05:30
Siliguri,West Bengal,26.7271,88.3953,26.6,61,0.0,992.2,8.05,21.6,151,40.6,31.2,7,5,7,1,2026-04-02T16:24:31.348202+05:30
Durgapur,West Bengal,23.5204,87.3119,37.0,27,0.0,993.4,8.6,21.6,152,38.6,28.5,0,5,10,0,2026-04-02T16:24:31.348230+05:30
Asansol,West Bengal,23.6739,86.9524,37.1,28,0.0,991.9,8.65,22.3,140,38.4,28.9,0,5,10,0,2026-04-02T16:24:31.348243+05:30
Pondicherry,Puducherry,11.9139,79.8145,33.0,47,0.0,1007.6,9.25,27.0,37,11.9,8.7,0,5,4,1,2026-04-02T16:24:31.348252+05:30
Port Blair,Andaman and Nicobar Islands,11.6234,92.7265,29.0,79,0.0,1006.6,9.15,32.0,40,9.0,5.7,7,5,4,1,2026-04-02T16:24:31.348260+05:30
Haridwar,Uttarakhand,29.9457,78.1642,33.3,23,0.0,974.7,6.6,29.2,63,31.4,9.0,0,5,7,0,2026-04-02T16:24:31.348268+05:30
Rishikesh,Uttarakhand,30.0869,78.2676,33.1,22,0.0,967.7,6.7,31.0,50,29.7,8.1,0,5,7,0,2026-04-02T16:24:31.348276+05:30
Nainital,Uttarakhand,29.3919,79.4542,26.1,25,0.0,810.0,7.65,42.1,69,30.9,10.0,4,5,7,0,2026-04-02T16:24:31.348285+05:30
Mussoorie,Uttarakhand,30.4599,78.0664,23.4,29,0.0,806.3,7.05,37.4,58,28.4,8.3,0,5,7,0,2026-04-02T16:24:31.348291+05:30
Dharamshala,Himachal Pradesh,32.219,76.3234,26.2,32,0.0,871.6,7.3,28.4,49,23.0,7.1,4,5,7,0,2026-04-02T16:24:31.348297+05:30
Dalhousie,Himachal Pradesh,32.5387,75.971,24.5,26,0.0,807.5,7.55,24.8,62,30.9,9.7,0,5,7,0,2026-04-02T16:24:31.348304+05:30
Patiala,Punjab,30.3398,76.3869,33.0,27,0.0,979.1,6.7,20.9,109,139.2,25.0,0,5,7,0,2026-04-02T16:24:31.348310+05:30
Bhatinda,Punjab,30.211,74.9455,30.8,39,0.0,984.9,7.35,50.4,98,124.8,27.2,0,5,7,0,2026-04-02T16:24:31.348316+05:30
Rohtak,Haryana,28.8955,76.6066,32.0,39,0.0,982.6,6.65,49.0,149,161.1,33.9,0,5,7,1,2026-04-02T16:24:31.348322+05:30
Panipat,Haryana,29.3909,76.9635,33.3,28,0.0,981.3,6.7,22.7,166,160.2,29.7,0,5,7,0,2026-04-02T16:24:31.348327+05:30
Mathura,Uttar Pradesh,27.4924,77.6737,36.5,25,0.0,986.3,7.2,18.0,137,285.9,42.1,0,5,10,0,2026-04-02T16:24:31.348333+05:30
Vrindavan,Uttar Pradesh,27.5823,77.7027,36.7,23,0.0,986.8,7.2,15.8,137,285.9,42.1,0,5,10,0,2026-04-02T16:24:31.348339+05:30
Ayodhya,Uttar Pradesh,26.7922,82.1998,37.5,19,0.0,993.8,7.65,36.4,80,36.6,16.1,0,5,10,0,2026-04-02T16:24:31.348344+05:30
Ratlam,Madhya Pradesh,23.3315,75.0367,34.6,30,0.0,954.1,8.15,33.1,70,28.4,21.9,0,5,7,0,2026-04-02T16:24:31.348350+05:30
Sagar,Madhya Pradesh,23.8388,78.7378,34.3,27,0.0,950.5,8.0,34.2,83,28.2,20.5,0,5,7,0,2026-04-02T16:24:31.348356+05:30
Satna,Madhya Pradesh,24.6005,80.8322,36.6,25,0.0,971.3,7.7,22.3,72,34.8,21.9,0,5,10,0,2026-04-02T16:24:31.348362+05:30
Akola,Maharashtra,20.7002,77.0082,33.4,42,0.0,974.7,8.6,23.4,98,38.9,31.4,0,5,7,1,2026-04-02T16:24:31.348408+05:30
Amravati,Maharashtra,20.9374,77.7796,33.3,42,0.0,967.2,8.6,38.9,97,36.4,28.6,0,5,7,1,2026-04-02T16:24:31.348418+05:30
Latur,Maharashtra,18.4088,76.5604,31.4,47,0.0,939.5,8.9,36.4,124,33.3,26.5,0,5,7,1,2026-04-02T16:24:31.348425+05:30
Nanded,Maharashtra,19.1383,77.3091,33.7,46,0.0,968.3,8.75,29.5,111,42.7,34.6,0,5,7,1,2026-04-02T16:24:31.348431+05:30
Gulbarga,Karnataka,17.3297,76.8343,35.7,30,0.0,957.9,8.95,45.4,109,19.1,14.8,0,5,10,0,2026-04-02T16:24:31.348437+05:30
Bidar,Karnataka,17.9104,77.5199,33.4,37,0.0,935.3,8.95,30.2,108,24.7,19.5,0,5,7,1,2026-04-02T16:24:31.348443+05:30
Hospet,Karnataka,15.2689,76.3909,33.7,38,0.0,954.9,9.15,33.8,109,21.8,16.9,0,5,7,1,2026-04-02T16:24:31.348448+05:30
Tirupur,Tamil Nadu,11.1085,77.3411,36.7,22,0.0,973.4,9.2,30.2,57,12.3,9.1,0,5,10,0,2026-04-02T16:24:31.348454+05:30
Alappuzha,Kerala,9.4981,76.3388,29.4,76,0.0,1007.3,9.2,27.4,119,22.9,19.1,7,5,4,1,2026-04-02T16:24:31.348460+05:30
Munnar,Kerala,10.0889,77.0595,27.1,62,0.0,857.9,9.75,34.9,62,11.6,9.4,7,5,7,1,2026-04-02T16:24:31.348466+05:30
Silchar,Assam,24.8333,92.7789,29.2,69,0.0,1004.3,8.4,34.2,139,63.6,53.1,7,5,4,1,2026-04-02T16:24:31.348472+05:30
Dibrugarh,Assam,27.4728,94.912,23.3,84,0.0,995.7,7.3,26.3,95,18.0,16.5,3,5,7,1,2026-04-02T16:24:31.348478+05:30
