city,state,latitude,longitude,temp,humidity,rain,pressure,uv_index,wind_gusts,aqi,pm10,pm2_5,mosquito_risk,arthritis_risk,migraine_risk,frizz_risk,updated_at
Delhi,Delhi,28.6139,77.209,20.3,81,0.0,985.6,5.9,27.7,164,270.1,79.4,3,5,3,1,2026-03-09T03:57:56.882293+05:30
Mumbai,Maharashtra,19.076,72.8777,28.5,67,0.0,1007.8,7.55,23.8,138,27.4,26.8,7,5,4,1,2026-03-09T03:57:56.882346+05:30
Bangalore,Karnataka,12.9716,77.5946,20.0,70,0.0,911.0,9.25,37.1,106,44.5,38.2,3,5,7,0,2026-03-09T03:57:56.882363+05:30
Hyderabad,Telangana,17.385,78.4867,22.4,72,0.0,953.6,8.55,31.3,102,48.2,37.6,3,5,7,1,2026-03-09T03:57:56.882373+05:30
Chennai,Tamil Nadu,13.0827,80.2707,26.1,79,0.0,1008.6,8.95,33.5,75,38.6,29.0,7,0,4,1,2026-03-09T03:57:56.882382+05:30
Kolkata,West Bengal,22.5726,88.3639,23.2,97,0.0,1010.2,7.95,18.0,151,53.4,47.7,3,0,4,1,2026-03-09T03:57:56.882391+05:30
Pune,Maharashtra,18.5204,73.8567,23.6,52,0.0,948.5,8.1,31.3,89,30.4,28.2,0,5,7,0,2026-03-09T03:57:56.882428+05:30
Ahmedabad,Gujarat,23.0225,72.5714,21.5,53,0.0,1004.4,7.4,18.4,76,20.3,15.4,0,5,4,0,2026-03-09T03:57:56.882439+05:30
Jaipur,Rajasthan,26.9124,75.7873,24.6,29,0.0,962.5,6.7,25.2,80,136.4,28.1,0,5,7,0,2026-03-09T03:57:56.882448+05:30
Lucknow,Uttar Pradesh,26.8467,80.9462,22.4,84,0.0,996.3,6.55,21.2,179,242.1,148.1,3,5,7,1,2026-03-09T03:57:56.882456+05:30
Kanpur,Uttar Pradesh,26.4499,80.3319,21.5,85,0.0,994.4,6.55,16.9,171,207.7,105.0,3,5,7,1,2026-03-09T03:57:56.882464+05:30
Chandigarh,Chandigarh,30.7333,76.7794,20.1,80,0.0,970.9,5.95,24.5,146,45.9,34.3,3,5,3,1,2026-03-09T03:57:56.882472+05:30
Srinagar,Jammu and Kashmir,34.0837,74.7973,6.1,78,0.0,841.7,6.35,22.7,122,86.8,72.4,3,5,7,0,2026-03-09T03:57:56.882479+05:30
Jammu,Jammu and Kashmir,32.7266,74.857,18.1,74,0.0,975.8,6.4,20.9,84,32.6,26.1,3,5,7,0,2026-03-09T03:57:56.882487+05:30
Amritsar,Punjab,31.634,74.8723,19.8,80,0.0,984.0,6.5,18.0,162,100.1,82.4,3,5,7,1,2026-03-09T03:57:56.882494+05:30
Ludhiana,Punjab,30.901,75.8573,21.5,78,0.0,981.6,6.1,21.2,162,89.4,73.6,3,5,7,1,2026-03-09T03:57:56.882501+05:30
Jalandhar,Punjab,31.326,75.5762,19.9,87,0.0,983.0,6.2,19.8,163,110.8,87.1,3,10,7,1,2026-03-09T03:57:56.882511+05:30
Dehradun,Uttarakhand,30.6284,78.0322,13.5,60,0.0,830.6,6.3,25.9,76,29.9,21.6,0,5,7,0,2026-03-09T03:57:56.882518+05:30
Shimla,Himachal Pradesh,31.1048,77.1734,10.9,47,0.0,784.2,6.35,49.3,82,53.0,27.8,0,5,7,0,2026-03-09T03:57:56.882526+05:30
Manali,Himachal Pradesh,32.2396,77.1887,15.5,25,0.0,822.9,7.6,32.4,40,16.4,9.1,0,5,7,1,2026-03-09T03:57:56.882533+05:30
Gurgaon,Haryana,28.4595,77.0266,17.5,90,0.0,983.9,5.95,25.6,499,609.1,108.0,3,10,3,0,2026-03-09T03:57:56.882541+05:30
Noida,Uttar Pradesh,28.5355,77.391,20.3,81,0.0,987.1,5.75,27.0,499,609.1,108.0,3,5,3,1,2026-03-09T03:57:56.882548+05:30
Ghaziabad,Uttar Pradesh,28.6692,77.4538,20.2,84,0.0,985.1,5.95,26.6,165,233.8,75.9,3,5,3,1,2026-03-09T03:57:56.882555+05:30
Faridabad,Haryana,28.4089,77.3178,17.7,86,0.0,986.3,5.6,24.5,499,609.1,108.0,3,10,3,0,2026-03-09T03:57:56.882562+05:30
Meerut,Uttar Pradesh,28.9845,77.7064,19.9,89,0.0,983.7,5.85,25.9,165,233.8,75.9,3,10,3,1,2026-03-09T03:57:56.882568+05:30
Agra,Uttar Pradesh,27.1767,78.0081,18.0,86,0.0,990.1,6.05,23.4,157,440.5,87.8,3,10,7,0,2026-03-09T03:57:56.882578+05:30
Varanasi,Uttar Pradesh,25.3176,82.9739,21.0,90,0.0,1000.9,7.2,16.2,181,147.6,137.4,3,5,4,1,2026-03-09T03:57:56.882587+05:30
Prayagraj,Uttar Pradesh,25.4358,81.8463,21.7,84,0.0,999.2,7.1,15.1,187,193.2,174.6,3,5,7,1,2026-03-09T03:57:56.882595+05:30
Gorakhpur,Uttar Pradesh,26.7606,83.3732,20.5,95,0.0,1000.7,6.9,27.7,181,148.1,136.9,3,5,4,1,2026-03-09T03:57:56.882605+05:30
Bareilly,Uttar Pradesh,28.367,79.4304,20.6,91,0.0,989.0,6.25,14.8,168,122.5,101.0,3,5,7,1,2026-03-09T03:57:56.882611+05:30
Aligarh,Uttar Pradesh,27.8974,78.088,17.8,85,0.0,988.1,6.15,26.3,194,375.3,97.8,3,10,7,0,2026-03-09T03:57:56.882618+05:30
Moradabad,Uttar Pradesh,28.8386,78.7733,19.8,89,0.0,985.7,6.05,16.6,175,223.5,116.4,3,10,7,1,2026-03-09T03:57:56.882625+05:30
Saharanpur,Uttar Pradesh,29.9637,77.546,19.3,87,0.0,977.6,5.7,20.9,163,122.5,90.1,3,10,3,1,2026-03-09T03:57:56.882631+05:30
Jhansi,Uttar Pradesh,25.4484,78.5685,20.3,63,0.0,980.2,7.0,25.2,85,29.6,22.2,3,5,7,0,2026-03-09T03:58:00.149243+05:30
Surat,Gujarat,21.1702,72.8311,24.6,62,0.0,1007.9,7.25,24.1,117,34.7,34.0,3,5,4,1,2026-03-09T03:58:00.149273+05:30
Vadodara,Gujarat,22.3072,73.1812,22.8,57,0.0,1006.2,7.4,16.2,78,20.1,18.7,0,5,4,0,2026-03-09T03:58:00.149283+05:30
Rajkot,Gujarat,22.3039,70.8022,22.1,58,0.0,996.8,7.2,25.9,70,32.0,18.3,0,5,7,0,2026-03-09T03:58:00.149290+05:30
Thane,Maharashtra,19.2183,72.9781,26.6,55,0.0,1007.4,7.55,34.6,138,27.4,26.8,4,5,4,1,2026-03-09T03:58:00.149298+05:30
Nagpur,Maharashtra,21.1458,79.0882,19.7,56,0.0,974.5,7.95,29.2,79,35.0,24.9,0,5,7,0,2026-03-09T03:58:00.149306+05:30
Nashik,Maharashtra,19.9975,73.7898,23.3,43,0.0,946.3,7.75,30.2,60,15.9,15.6,0,5,7,0,2026-03-09T03:58:00.149313+05:30
Aurangabad,Maharashtra,19.8762,75.3433,21.0,58,0.0,944.6,8.25,38.5,68,27.5,25.3,0,5,7,0,2026-03-09T03:58:00.149321+05:30
Solapur,Maharashtra,17.6599,75.9064,22.1,63,0.0,957.2,8.45,26.3,71,32.1,26.1,3,5,7,0,2026-03-09T03:58:00.149328+05:30
Kolhapur,Maharashtra,16.705,74.2433,20.4,72,0.0,947.2,8.6,41.0,136,86.4,84.3,3,5,7,0,2026-03-09T03:58:00.149335+05:30
Goa,Goa,15.2993,74.124,25.1,93,0.0,997.6,8.65,34.6,135,69.2,64.3,7,5,7,1,2026-03-09T03:58:00.149342+05:30
Jodhpur,Rajasthan,26.2389,73.0243,23.5,42,0.0,986.2,7.1,21.2,57,70.5,17.5,0,5,7,0,2026-03-09T03:58:00.149348+05:30
Udaipur,Rajasthan,24.5854,73.7125,19.8,43,0.0,949.3,7.7,17.3,40,11.8,10.2,0,5,7,0,2026-03-09T03:58:00.149354+05:30
Kota,Rajasthan,25.2138,75.8648,19.5,66,0.0,981.2,7.1,16.9,85,30.9,30.9,3,5,7,0,2026-03-09T03:58:00.149361+05:30
Bikaner,Rajasthan,28.0229,73.3119,22.4,54,0.0,985.0,6.8,20.5,57,35.2,13.1,0,5,7,0,2026-03-09T03:58:00.149368+05:30
Ajmer,Rajasthan,26.4499,74.6399,20.7,46,0.0,957.2,7.1,19.4,55,9.5,8.1,0,5,7,0,2026-03-09T03:58:00.149374+05:30
Gwalior,Madhya Pradesh,26.2183,78.1828,21.6,66,0.0,985.6,6.75,22.7,81,40.2,18.0,3,5,7,0,2026-03-09T03:58:00.149381+05:30
Indore,Madhya Pradesh,22.7196,75.8577,19.6,45,0.0,949.4,7.65,22.3,75,37.1,36.6,0,5,7,0,2026-03-09T03:58:00.149388+05:30
Bhopal,Madhya Pradesh,23.2599,77.4126,20.7,50,0.0,955.5,7.55,16.6,69,32.4,27.2,0,5,7,0,2026-03-09T03:58:00.149394+05:30
Jabalpur,Madhya Pradesh,23.1815,79.9864,20.3,68,0.0,963.7,7.65,23.8,124,62.6,41.7,3,5,7,0,2026-03-09T03:58:00.149423+05:30
Ujjain,Madhya Pradesh,23.1765,75.7885,19.3,55,0.0,955.6,7.55,12.2,98,48.0,47.3,0,5,7,0,2026-03-09T03:58:00.149431+05:30
Visakhapatnam,Andhra Pradesh,17.6868,83.2185,25.4,83,0.0,1006.5,8.55,32.4,92,41.4,32.9,7,5,4,1,2026-03-09T03:58:00.149437+05:30
Vijayawada,Andhra Pradesh,16.5062,80.648,25.1,85,0.0,1004.6,8.65,24.1,90,39.0,31.9,7,5,4,1,2026-03-09T03:58:00.149444+05:30
Guntur,Andhra Pradesh,16.3067,80.4365,25.2,87,0.0,1005.7,8.65,26.6,89,32.5,26.5,7,5,4,1,2026-03-09T03:58:00.149451+05:30
Nellore,Andhra Pradesh,14.4426,79.9865,25.4,86,0.0,1007.4,8.8,33.5,80,27.0,19.9,7,5,4,1,2026-03-09T03:58:00.149458+05:30
Kurnool,Andhra Pradesh,15.8281,78.0373,24.8,76,0.0,977.4,8.65,37.1,98,33.6,29.5,3,5,7,1,2026-03-09T03:58:00.149465+05:30
Kakinada,Andhra Pradesh,16.9891,82.2475,24.9,85,0.0,1010.0,8.55,30.6,78,41.7,30.4,3,0,4,1,2026-03-09T03:58:00.149471+05:30
Tirupati,Andhra Pradesh,13.6288,79.4192,22.7,90,0.0,993.1,8.95,42.5,101,37.3,31.3,3,5,7,1,2026-03-09T03:58:00.149478+05:30
Warangal,Telangana,17.9689,79.5941,22.8,90,0.0,980.0,8.4,29.2,122,36.9,34.0,3,5,7,1,2026-03-09T03:58:00.149484+05:30
Nizamabad,Telangana,18.6725,78.0941,20.2,69,0.0,964.8,8.25,33.5,104,71.5,63.1,3,5,7,0,2026-03-09T03:58:00.149489+05:30
Mysore,Karnataka,12.2958,76.6396,21.6,95,0.0,928.2,9.25,40.7,124,61.0,55.3,3,5,7,1,2026-03-09T03:58:00.149496+05:30
Mangalore,Karnataka,12.9141,74.856,28.6,79,0.0,1006.3,8.85,23.8,117,51.9,47.6,7,5,4,1,2026-03-09T03:58:00.149502+05:30
Hubli-Dharwad,Karnataka,15.3647,75.124,20.6,95,0.0,940.0,8.85,38.2,91,41.0,36.0,3,5,7,1,2026-03-09T03:58:00.149509+05:30
Belgaum,Karnataka,15.8497,74.4977,21.0,88,0.0,924.8,8.85,48.2,116,74.3,70.5,3,5,7,1,2026-03-09T03:58:03.428836+05:30
Coimbatore,Tamil Nadu,11.0168,76.9558,22.2,84,0.0,961.7,9.25,53.3,121,49.1,44.8,3,5,7,1,2026-03-09T03:58:03.428867+05:30
Madurai,Tamil Nadu,9.9252,78.1198,24.4,86,0.0,993.9,9.2,35.6,98,47.0,40.2,3,5,7,1,2026-03-09T03:58:03.428878+05:30
Trichy,Tamil Nadu,10.7905,78.7047,23.5,95,0.0,1000.8,9.1,31.3,90,24.2,20.1,3,5,4,1,2026-03-09T03:58:03.428886+05:30
Salem,Tamil Nadu,11.6643,78.146,23.6,87,0.0,978.1,9.15,33.1,110,48.2,42.3,3,5,7,1,2026-03-09T03:58:03.428893+05:30
Tirunelveli,Tamil Nadu,8.7139,77.7567,24.8,88,0.0,1003.8,9.2,34.9,107,57.4,50.6,3,5,4,1,2026-03-09T03:58:03.428901+05:30
Vellore,Tamil Nadu,12.9165,79.1325,22.6,91,0.0,985.9,9.05,38.5,120,50.3,43.9,3,5,7,1,2026-03-09T03:58:03.428908+05:30
Erode,Tamil Nadu,11.341,77.7172,24.9,86,0.0,989.9,9.15,27.4,90,26.4,20.7,3,5,7,1,2026-03-09T03:58:03.428915+05:30
Kochi,Kerala,9.9312,76.2673,26.6,86,0.0,1008.6,8.95,28.8,143,60.1,58.3,7,0,4,1,2026-03-09T03:58:03.428922+05:30
Thiruvananthapuram,Kerala,8.5241,76.9366,27.5,82,0.0,1007.6,9.1,26.3,99,47.1,42.5,7,5,4,1,2026-03-09T03:58:03.428929+05:30
Kozhikode,Kerala,11.2588,75.7804,27.2,83,0.0,1007.9,8.15,25.9,101,47.6,43.8,7,5,4,1,2026-03-09T03:58:03.428936+05:30
Thrissur,Kerala,10.5276,76.2144,25.5,92,0.0,1006.8,9.05,43.2,130,50.8,48.1,7,5,4,1,2026-03-09T03:58:03.428944+05:30
Kannur,Kerala,11.8745,75.3704,27.3,85,0.0,1006.8,8.95,27.7,115,53.0,49.7,7,5,4,1,2026-03-09T03:58:03.428950+05:30
Patna,Bihar,25.5941,85.1376,23.2,88,0.0,1004.0,7.4,29.5,173,113.6,102.7,3,5,4,1,2026-03-09T03:58:03.428957+05:30
Gaya,Bihar,24.7914,85.0002,22.0,88,0.0,996.9,7.5,26.6,162,82.2,75.9,3,5,7,1,2026-03-09T03:58:03.428964+05:30
Muzaffarpur,Bihar,26.1209,85.3647,22.2,88,0.0,1004.4,7.35,34.9,177,120.6,109.2,3,5,4,1,2026-03-09T03:58:03.428971+05:30
Bhagalpur,Bihar,25.2425,87.0117,22.7,90,0.0,1005.1,5.45,26.6,163,83.4,72.9,3,5,0,1,2026-03-09T03:58:03.428977+05:30
Ranchi,Jharkhand,23.3441,85.3096,21.3,88,0.0,940.2,8.15,29.2,164,96.4,81.7,3,5,7,1,2026-03-09T03:58:03.428984+05:30
Jamshedpur,Jharkhand,22.8046,86.2029,24.1,93,0.0,994.5,8.0,33.8,158,61.0,54.8,3,5,7,1,2026-03-09T03:58:03.428991+05:30
Dhanbad,Jharkhand,23.7957,86.4304,24.2,83,0.0,983.4,7.9,31.0,169,92.9,87.8,3,5,7,1,2026-03-09T03:58:03.428997+05:30
Bokaro,Jharkhand,23.6693,86.1511,23.5,89,0.0,987.5,7.9,41.4,174,118.5,110.8,3,5,7,1,2026-03-09T03:58:03.429004+05:30
Bhubaneswar,Odisha,20.2961,85.8245,25.0,87,0.0,1006.0,8.3,30.2,101,33.4,28.7,7,5,4,1,2026-03-09T03:58:03.429010+05:30
Cuttack,Odisha,20.4625,85.8828,25.2,88,0.0,1008.0,8.35,28.1,101,33.4,28.7,7,0,4,1,2026-03-09T03:58:03.429017+05:30
Rourkela,Odisha,22.2604,84.8536,24.8,79,0.0,987.9,7.9,22.7,167,97.1,82.2,3,5,7,1,2026-03-09T03:58:03.429023+05:30
Raipur,Chhattisgarh,21.2514,81.6296,24.0,63,0.0,976.2,8.0,24.8,161,83.1,75.0,3,5,7,1,2026-03-09T03:58:03.429029+05:30
Bhilai,Chhattisgarh,21.1938,81.3509,23.2,65,0.0,976.5,8.0,25.2,156,61.2,52.5,3,5,7,1,2026-03-09T03:58:03.429035+05:30
Guwahati,Assam,26.1158,91.7086,24.6,73,0.0,1005.5,7.25,16.6,152,66.6,56.5,3,5,4,1,2026-03-09T03:58:03.429040+05:30
Agartala,Tripura,23.8315,91.2868,20.8,90,0.0,1010.6,7.7,13.3,159,78.0,70.3,3,0,4,1,2026-03-09T03:58:03.429047+05:30
Shillong,Meghalaya,25.5788,91.8933,11.1,84,0.0,857.4,5.65,26.3,131,65.2,55.8,3,10,3,0,2026-03-09T03:58:03.429053+05:30
Imphal,Manipur,24.817,93.9368,16.6,92,0.0,926.7,7.95,23.0,159,96.9,91.3,3,10,7,0,2026-03-09T03:58:03.429060+05:30
Aizawl,Mizoram,23.7271,92.7176,15.5,84,0.0,894.8,7.85,26.3,158,111.3,97.8,3,10,7,0,2026-03-09T03:58:03.429067+05:30
Kohima,Nagaland,25.6701,94.1077,14.3,84,0.0,857.7,6.9,52.9,156,60.3,56.6,3,10,7,0,2026-03-09T03:58:03.429073+05:30
Gangtok,Sikkim,27.3314,88.6138,13.3,76,0.0,839.0,3.1,18.0,153,87.8,66.8,3,5,3,0,2026-03-09T03:58:03.429080+05:30
Siliguri,West Bengal,26.7271,88.3953,20.7,62,0.0,998.4,7.35,18.4,156,96.6,71.9,3,5,7,0,2026-03-09T03:58:06.724984+05:30
Durgapur,West Bengal,23.5204,87.3119,23.7,93,0.0,999.1,7.55,24.5,161,69.6,65.7,3,5,7,1,2026-03-09T03:58:06.725014+05:30
Asansol,West Bengal,23.6739,86.9524,24.0,90,0.0,997.8,7.55,23.4,160,68.5,64.0,3,5,7,1,2026-03-09T03:58:06.725025+05:30
Pondicherry,Puducherry,11.9139,79.8145,24.1,92,0.0,1009.6,8.95,33.8,68,34.1,24.8,3,0,4,1,2026-03-09T03:58:06.725032+05:30
Port Blair,Andaman and Nicobar Islands,11.6234,92.7265,27.0,81,0.0,1008.0,8.9,28.4,85,33.6,26.8,7,0,4,1,2026-03-09T03:58:06.725040+05:30
Haridwar,Uttarakhand,29.9457,78.1642,19.6,91,0.0,976.1,5.8,27.0,159,99.2,85.0,3,10,3,1,2026-03-09T03:58:06.725048+05:30
Rishikesh,Uttarakhand,30.0869,78.2676,20.1,82,0.0,968.9,5.85,27.0,157,76.1,65.4,3,5,3,1,2026-03-09T03:58:06.725055+05:30
Nainital,Uttarakhand,29.3919,79.4542,17.0,80,0.0,807.1,6.7,51.8,159,89.4,71.9,3,5,7,0,2026-03-09T03:58:06.725062+05:30
Mussoorie,Uttarakhand,30.4599,78.0664,16.3,51,0.0,803.9,6.2,34.6,154,57.3,49.9,0,5,7,0,2026-03-09T03:58:06.725069+05:30
Dharamshala,Himachal Pradesh,32.219,76.3234,21.0,28,0.0,872.0,6.25,26.3,55,18.6,7.3,0,5,7,0,2026-03-09T03:58:06.725076+05:30
Dalhousie,Himachal Pradesh,32.5387,75.971,17.3,32,0.0,806.3,6.65,22.7,84,33.4,26.3,0,5,7,0,2026-03-09T03:58:06.725084+05:30
Patiala,Punjab,30.3398,76.3869,20.2,85,0.0,980.7,5.65,23.4,165,320.4,82.0,3,5,3,1,2026-03-09T03:58:06.725091+05:30
Bhatinda,Punjab,30.211,74.9455,20.7,83,0.0,986.7,5.95,20.2,152,90.8,65.0,3,5,3,1,2026-03-09T03:58:06.725097+05:30
Rohtak,Haryana,28.8955,76.6066,18.6,88,0.0,984.2,6.05,26.6,176,252.4,75.4,3,10,7,1,2026-03-09T03:58:06.725104+05:30
Panipat,Haryana,29.3909,76.9635,19.6,91,0.0,982.7,5.8,26.6,401,687.3,112.5,3,10,3,1,2026-03-09T03:58:06.725110+05:30
Mathura,Uttar Pradesh,27.4924,77.6737,19.3,77,0.0,989.2,6.25,24.5,169,344.6,78.9,3,5,7,0,2026-03-09T03:58:06.725117+05:30
Vrindavan,Uttar Pradesh,27.5823,77.7027,18.7,78,0.0,989.8,6.2,25.9,169,344.6,78.9,3,5,7,0,2026-03-09T03:58:06.725123+05:30
Ayodhya,Uttar Pradesh,26.7922,82.1998,20.9,92,0.0,998.2,6.7,20.9,190,199.8,168.6,3,5,7,1,2026-03-09T03:58:06.725130+05:30
Ratlam,Madhya Pradesh,23.3315,75.0367,19.1,82,0.0,956.2,7.5,10.4,85,35.2,34.5,3,10,7,0,2026-03-09T03:58:06.725137+05:30
Sagar,Madhya Pradesh,23.8388,78.7378,19.0,63,0.0,952.2,7.5,20.5,77,43.7,24.4,3,5,7,0,2026-03-09T03:58:06.725144+05:30
Satna,Madhya Pradesh,24.6005,80.8322,19.9,76,0.0,973.9,7.45,26.3,155,102.4,66.8,3,5,7,0,2026-03-09T03:58:06.725150+05:30
Akola,Maharashtra,20.7002,77.0082,23.7,45,0.0,976.7,7.95,19.8,71,28.2,21.8,0,5,7,0,2026-03-09T03:58:06.725157+05:30
Amravati,Maharashtra,20.9374,77.7796,20.5,56,0.0,968.3,7.9,27.0,65,26.7,19.0,0,5,7,0,2026-03-09T03:58:06.725165+05:30
Latur,Maharashtra,18.4088,76.5604,22.4,50,0.0,940.0,8.4,30.6,91,57.4,48.3,0,5,7,0,2026-03-09T03:58:06.725172+05:30
Nanded,Maharashtra,19.1383,77.3091,21.5,56,0.0,969.3,8.15,29.5,83,36.3,31.5,0,5,7,0,2026-03-09T03:58:06.725178+05:30
Gulbarga,Karnataka,17.3297,76.8343,23.4,51,0.0,959.2,8.5,32.8,81,37.8,30.7,0,5,7,0,2026-03-09T03:58:06.725184+05:30
Bidar,Karnataka,17.9104,77.5199,22.1,62,0.0,935.5,8.45,32.8,100,62.9,51.5,3,5,7,0,2026-03-09T03:58:06.725190+05:30
Hospet,Karnataka,15.2689,76.3909,25.4,51,0.0,955.9,8.8,39.6,98,34.2,29.3,4,5,7,0,2026-03-09T03:58:06.725196+05:30
Tirupur,Tamil Nadu,11.1085,77.3411,25.0,77,0.0,975.7,9.25,36.4,115,36.4,30.6,7,5,7,1,2026-03-09T03:58:06.725202+05:30
Alappuzha,Kerala,9.4981,76.3388,26.0,80,0.0,1008.8,8.95,23.4,133,48.1,44.8,7,0,4,1,2026-03-09T03:58:06.725208+05:30
Munnar,Kerala,10.0889,77.0595,16.6,83,0.0,854.6,9.55,19.4,107,43.1,37.1,3,10,7,0,2026-03-09T03:58:06.725215+05:30
Silchar,Assam,24.8333,92.7789,22.2,89,0.0,1009.6,7.65,15.8,164,112.7,100.6,3,0,4,1,2026-03-09T03:58:06.725222+05:30
Dibrugarh,Assam,27.4728,94.912,22.6,82,0.0,1000.5,7.4,17.6,158,74.5,67.3,3,5,4,1,2026-03-09T03:58:06.725228+05:30
