city,state,latitude,longitude,temp,humidity,rain,pressure,uv_index,wind_gusts,aqi,pm10,pm2_5,mosquito_risk,arthritis_risk,migraine_risk,frizz_risk,updated_at
Delhi,Delhi,28.6139,77.209,27.1,47,0.0,988.7,6.45,29.2,153,201.6,49.6,4,5,7,0,2026-03-22T13:13:32.566275+05:30
Mumbai,Maharashtra,19.076,72.8777,29.2,62,0.0,1010.1,7.9,30.2,84,40.4,32.0,7,0,4,1,2026-03-22T13:13:32.566315+05:30
Bangalore,Karnataka,12.9716,77.5946,30.2,42,0.0,914.0,9.45,25.2,104,41.6,30.7,0,5,7,0,2026-03-22T13:13:32.566331+05:30
Hyderabad,Telangana,17.385,78.4867,31.6,41,0.0,956.3,8.9,29.5,96,48.2,29.5,0,5,7,1,2026-03-22T13:13:32.566340+05:30
Chennai,Tamil Nadu,13.0827,80.2707,33.0,51,0.0,1009.7,9.2,32.4,41,14.1,8.8,0,0,4,1,2026-03-22T13:13:32.566349+05:30
Kolkata,West Bengal,22.5726,88.3639,27.0,54,0.0,1010.3,8.25,20.5,111,45.4,40.9,4,0,4,1,2026-03-22T13:13:32.566357+05:30
Pune,Maharashtra,18.5204,73.8567,34.7,22,0.0,951.1,8.45,27.4,76,12.6,9.2,0,5,7,0,2026-03-22T13:13:32.566371+05:30
Ahmedabad,Gujarat,23.0225,72.5714,34.4,29,0.0,1006.3,7.55,22.0,75,40.4,15.3,0,5,4,0,2026-03-22T13:13:32.566379+05:30
Jaipur,Rajasthan,26.9124,75.7873,29.3,35,0.0,965.0,7.2,27.4,86,114.8,25.9,4,5,7,0,2026-03-22T13:13:32.566387+05:30
Lucknow,Uttar Pradesh,26.8467,80.9462,27.4,46,0.0,998.5,6.95,26.6,110,40.3,23.3,4,5,7,0,2026-03-22T13:13:32.566395+05:30
Kanpur,Uttar Pradesh,26.4499,80.3319,27.1,50,0.0,997.1,7.0,27.0,124,193.2,39.2,4,5,7,0,2026-03-22T13:13:32.566403+05:30
Chandigarh,Chandigarh,30.7333,76.7794,25.8,44,0.0,973.8,6.35,34.2,87,30.6,23.2,4,5,7,0,2026-03-22T13:13:32.566411+05:30
Srinagar,Jammu and Kashmir,34.0837,74.7973,16.1,41,0.0,844.6,7.5,14.0,112,24.8,18.2,0,5,7,0,2026-03-22T13:13:32.566418+05:30
Jammu,Jammu and Kashmir,32.7266,74.857,25.6,49,0.0,977.6,6.85,22.7,99,30.5,23.9,4,5,7,0,2026-03-22T13:13:32.566425+05:30
Amritsar,Punjab,31.634,74.8723,25.1,51,0.0,986.5,7.0,19.8,157,50.1,36.7,4,5,7,0,2026-03-22T13:13:32.566432+05:30
Ludhiana,Punjab,30.901,75.8573,24.9,50,0.0,984.5,6.6,27.0,131,53.9,42.6,0,5,7,0,2026-03-22T13:13:32.566438+05:30
Jalandhar,Punjab,31.326,75.5762,24.5,54,0.0,985.6,6.75,22.3,150,63.8,44.2,0,5,7,0,2026-03-22T13:13:32.566447+05:30
Dehradun,Uttarakhand,30.6284,78.0322,16.1,73,0.0,832.2,6.8,22.3,45,14.9,8.0,3,5,7,0,2026-03-22T13:13:32.566454+05:30
Shimla,Himachal Pradesh,31.1048,77.1734,15.3,57,0.0,787.0,6.85,37.1,66,17.3,9.5,0,5,7,0,2026-03-22T13:13:32.566460+05:30
Manali,Himachal Pradesh,32.2396,77.1887,18.7,22,0.0,820.9,8.85,33.8,89,11.9,6.1,0,5,7,1,2026-03-22T13:13:32.566467+05:30
Gurgaon,Haryana,28.4595,77.0266,27.2,50,0.0,987.2,6.55,24.1,276,1139.9,127.6,4,5,7,0,2026-03-22T13:13:32.566473+05:30
Noida,Uttar Pradesh,28.5355,77.391,27.5,46,0.0,990.2,6.45,28.4,276,1139.9,127.6,4,5,7,0,2026-03-22T13:13:32.566481+05:30
Ghaziabad,Uttar Pradesh,28.6692,77.4538,27.0,49,0.0,988.4,6.45,29.5,143,170.9,47.7,4,5,7,0,2026-03-22T13:13:32.566487+05:30
Faridabad,Haryana,28.4089,77.3178,27.4,48,0.0,989.6,6.5,25.6,276,1139.9,127.6,4,5,7,0,2026-03-22T13:13:32.566493+05:30
Meerut,Uttar Pradesh,28.9845,77.7064,27.0,46,0.0,986.8,6.3,33.1,143,170.9,47.7,4,5,7,0,2026-03-22T13:13:32.566500+05:30
Agra,Uttar Pradesh,27.1767,78.0081,30.4,35,0.0,993.4,6.65,28.1,538,605.4,75.0,0,5,7,0,2026-03-22T13:13:32.566506+05:30
Varanasi,Uttar Pradesh,25.3176,82.9739,27.2,47,0.0,1002.5,7.1,28.4,102,39.1,22.3,4,5,4,0,2026-03-22T13:13:32.566515+05:30
Prayagraj,Uttar Pradesh,25.4358,81.8463,27.2,47,0.0,1001.2,7.5,26.6,121,23.9,19.2,4,5,4,0,2026-03-22T13:13:32.566523+05:30
Gorakhpur,Uttar Pradesh,26.7606,83.3732,25.3,54,0.0,1002.4,7.25,11.2,160,39.8,33.5,4,5,4,0,2026-03-22T13:13:32.566529+05:30
Bareilly,Uttar Pradesh,28.367,79.4304,27.0,47,0.0,992.0,6.65,31.0,107,45.1,30.5,4,5,7,0,2026-03-22T13:13:32.566536+05:30
Aligarh,Uttar Pradesh,27.8974,78.088,28.2,44,0.0,991.2,6.6,27.7,194,501.1,74.7,4,5,7,0,2026-03-22T13:13:32.566546+05:30
Moradabad,Uttar Pradesh,28.8386,78.7733,26.8,45,0.0,988.9,6.5,31.3,141,62.4,45.9,4,5,7,0,2026-03-22T13:13:32.566553+05:30
Saharanpur,Uttar Pradesh,29.9637,77.546,26.6,43,0.0,980.5,6.15,36.0,146,48.2,38.1,4,5,7,0,2026-03-22T13:13:32.566559+05:30
Jhansi,Uttar Pradesh,25.4484,78.5685,29.8,36,0.0,983.5,7.45,28.4,76,104.8,25.8,4,5,7,0,2026-03-22T13:13:35.920074+05:30
Surat,Gujarat,21.1702,72.8311,33.9,30,0.0,1009.9,7.65,25.2,98,55.5,40.7,0,0,4,0,2026-03-22T13:13:35.920107+05:30
Vadodara,Gujarat,22.3072,73.1812,36.2,21,0.0,1007.9,7.8,18.7,71,37.4,15.1,0,5,7,0,2026-03-22T13:13:35.920117+05:30
Rajkot,Gujarat,22.3039,70.8022,33.0,42,0.0,998.7,7.6,26.3,62,55.5,20.0,0,5,7,1,2026-03-22T13:13:35.920125+05:30
Thane,Maharashtra,19.2183,72.9781,36.7,22,0.0,1009.4,7.85,42.5,84,40.4,32.0,0,0,7,0,2026-03-22T13:13:35.920133+05:30
Nagpur,Maharashtra,21.1458,79.0882,31.6,24,0.0,977.6,8.35,19.4,48,23.2,13.0,0,5,7,0,2026-03-22T13:13:35.920140+05:30
Nashik,Maharashtra,19.9975,73.7898,31.6,28,0.0,948.6,8.05,29.2,52,25.8,9.9,0,5,7,0,2026-03-22T13:13:35.920146+05:30
Aurangabad,Maharashtra,19.8762,75.3433,32.1,23,0.0,947.7,8.6,27.0,54,15.0,10.8,0,5,7,0,2026-03-22T13:13:35.920153+05:30
Solapur,Maharashtra,17.6599,75.9064,35.0,24,0.0,959.9,8.75,24.5,69,39.1,25.8,0,5,7,0,2026-03-22T13:13:35.920160+05:30
Kolhapur,Maharashtra,16.705,74.2433,32.4,32,0.0,950.3,8.85,32.0,89,31.9,19.6,0,5,7,0,2026-03-22T13:13:35.920166+05:30
Goa,Goa,15.2993,74.124,32.5,52,0.0,999.7,8.85,36.7,90,37.4,22.6,0,5,7,1,2026-03-22T13:13:35.920173+05:30
Jodhpur,Rajasthan,26.2389,73.0243,30.5,40,0.0,988.1,7.55,25.6,67,86.6,21.8,0,5,7,0,2026-03-22T13:13:35.920179+05:30
Udaipur,Rajasthan,24.5854,73.7125,30.1,28,0.0,951.3,8.15,29.2,58,37.5,12.0,0,5,7,0,2026-03-22T13:13:35.920186+05:30
Kota,Rajasthan,25.2138,75.8648,32.9,24,0.0,983.7,7.45,11.9,81,39.7,24.0,0,5,7,0,2026-03-22T13:13:35.920192+05:30
Bikaner,Rajasthan,28.0229,73.3119,28.9,40,0.0,986.9,7.2,16.9,63,103.1,24.1,4,5,7,0,2026-03-22T13:13:35.920199+05:30
Ajmer,Rajasthan,26.4499,74.6399,29.5,33,0.0,959.3,7.5,27.0,70,42.6,16.5,4,5,7,0,2026-03-22T13:13:35.920205+05:30
Gwalior,Madhya Pradesh,26.2183,78.1828,29.4,39,0.0,989.0,7.15,26.6,139,89.2,24.5,4,5,7,0,2026-03-22T13:13:35.920212+05:30
Indore,Madhya Pradesh,22.7196,75.8577,30.8,26,0.0,952.4,8.05,17.6,58,26.7,12.9,0,5,7,0,2026-03-22T13:13:35.920219+05:30
Bhopal,Madhya Pradesh,23.2599,77.4126,31.4,24,0.0,958.3,7.95,25.2,48,24.3,10.5,0,5,7,0,2026-03-22T13:13:35.920225+05:30
Jabalpur,Madhya Pradesh,23.1815,79.9864,29.5,30,0.0,966.2,8.05,29.9,52,61.0,17.0,4,5,7,0,2026-03-22T13:13:35.920231+05:30
Ujjain,Madhya Pradesh,23.1765,75.7885,30.5,29,0.0,958.3,8.0,13.3,65,28.8,13.6,0,5,7,0,2026-03-22T13:13:35.920238+05:30
Visakhapatnam,Andhra Pradesh,17.6868,83.2185,30.4,61,0.0,1006.8,8.85,34.2,80,29.8,23.2,3,5,4,1,2026-03-22T13:13:35.920245+05:30
Vijayawada,Andhra Pradesh,16.5062,80.648,31.9,57,0.0,1006.0,8.9,22.3,63,24.2,16.5,0,5,4,1,2026-03-22T13:13:35.920252+05:30
Guntur,Andhra Pradesh,16.3067,80.4365,31.9,59,0.0,1007.1,8.9,19.4,67,23.4,15.1,0,5,4,1,2026-03-22T13:13:35.920258+05:30
Nellore,Andhra Pradesh,14.4426,79.9865,33.8,49,0.0,1008.3,9.05,30.2,51,25.1,16.6,0,0,4,1,2026-03-22T13:13:35.920265+05:30
Kurnool,Andhra Pradesh,15.8281,78.0373,34.9,40,0.0,978.8,8.95,20.2,74,33.5,24.2,0,5,7,1,2026-03-22T13:13:35.920272+05:30
Kakinada,Andhra Pradesh,16.9891,82.2475,33.1,50,0.0,1010.4,8.3,27.0,37,19.5,12.9,0,0,4,1,2026-03-22T13:13:35.920279+05:30
Tirupati,Andhra Pradesh,13.6288,79.4192,32.6,48,0.0,994.0,9.2,29.2,73,25.0,16.9,0,5,7,1,2026-03-22T13:13:35.920285+05:30
Warangal,Telangana,17.9689,79.5941,32.0,48,0.0,982.0,8.75,19.8,110,44.6,30.9,0,5,7,1,2026-03-22T13:13:35.920291+05:30
Nizamabad,Telangana,18.6725,78.0941,33.1,34,0.0,968.1,8.65,27.4,87,33.4,25.5,0,5,7,0,2026-03-22T13:13:35.920297+05:30
Mysore,Karnataka,12.2958,76.6396,32.3,38,0.0,930.5,9.4,33.1,97,34.3,25.3,0,5,7,1,2026-03-22T13:13:35.920304+05:30
Mangalore,Karnataka,12.9141,74.856,29.1,80,0.0,1008.3,9.05,28.1,72,35.3,20.4,7,0,4,1,2026-03-22T13:13:35.920311+05:30
Hubli-Dharwad,Karnataka,15.3647,75.124,33.7,26,0.0,942.8,9.05,27.4,65,23.9,14.1,0,5,7,0,2026-03-22T13:13:35.920318+05:30
Belgaum,Karnataka,15.8497,74.4977,32.9,25,0.0,928.2,9.1,36.7,67,24.3,15.1,0,5,7,0,2026-03-22T13:13:39.265565+05:30
Coimbatore,Tamil Nadu,11.0168,76.9558,33.5,35,0.0,963.4,9.4,30.6,75,30.2,20.8,0,5,7,0,2026-03-22T13:13:39.265595+05:30
Madurai,Tamil Nadu,9.9252,78.1198,34.5,41,0.0,994.5,9.35,29.5,64,22.6,14.4,0,5,7,1,2026-03-22T13:13:39.265605+05:30
Trichy,Tamil Nadu,10.7905,78.7047,34.1,46,0.0,1001.5,9.25,24.1,69,21.8,14.7,0,5,4,1,2026-03-22T13:13:39.265613+05:30
Salem,Tamil Nadu,11.6643,78.146,33.3,44,0.0,979.4,9.3,20.9,80,33.1,24.1,0,5,7,1,2026-03-22T13:13:39.265621+05:30
Tirunelveli,Tamil Nadu,8.7139,77.7567,34.2,46,0.0,1004.7,9.3,29.5,69,18.5,12.4,0,5,4,1,2026-03-22T13:13:39.265628+05:30
Vellore,Tamil Nadu,12.9165,79.1325,34.1,39,0.0,986.7,9.25,35.3,98,29.5,21.2,0,5,7,1,2026-03-22T13:13:39.265669+05:30
Erode,Tamil Nadu,11.341,77.7172,33.9,44,0.0,990.8,9.3,32.8,59,25.7,17.5,0,5,7,1,2026-03-22T13:13:39.265682+05:30
Kochi,Kerala,9.9312,76.2673,29.1,76,0.0,1009.7,9.15,31.7,71,21.2,16.9,7,0,4,1,2026-03-22T13:13:39.265691+05:30
Thiruvananthapuram,Kerala,8.5241,76.9366,28.7,78,0.0,1009.0,9.15,25.9,63,20.0,17.4,7,0,4,1,2026-03-22T13:13:39.265698+05:30
Kozhikode,Kerala,11.2588,75.7804,30.3,72,0.0,1009.3,9.05,28.4,60,29.2,19.7,3,0,4,1,2026-03-22T13:13:39.265705+05:30
Thrissur,Kerala,10.5276,76.2144,34.3,53,0.0,1008.2,9.15,33.5,63,26.4,18.5,0,0,4,1,2026-03-22T13:13:39.265712+05:30
Kannur,Kerala,11.8745,75.3704,31.5,65,0.0,1008.8,9.1,31.7,65,37.3,21.7,3,0,4,1,2026-03-22T13:13:39.265720+05:30
Patna,Bihar,25.5941,85.1376,25.2,51,0.0,1005.7,7.7,20.9,161,52.2,43.4,4,5,4,0,2026-03-22T13:13:39.265727+05:30
Gaya,Bihar,24.7914,85.0002,25.6,52,0.0,998.6,7.8,22.7,147,44.7,27.4,4,5,7,0,2026-03-22T13:13:39.265734+05:30
Muzaffarpur,Bihar,26.1209,85.3647,24.4,57,0.0,1005.7,7.0,13.3,164,50.5,42.4,0,5,4,0,2026-03-22T13:13:39.265741+05:30
Bhagalpur,Bihar,25.2425,87.0117,23.9,61,0.0,1006.3,7.05,17.3,154,53.6,44.6,3,5,4,0,2026-03-22T13:13:39.265747+05:30
Ranchi,Jharkhand,23.3441,85.3096,24.4,40,0.0,940.8,8.45,29.9,87,62.9,16.1,0,5,7,0,2026-03-22T13:13:39.265753+05:30
Jamshedpur,Jharkhand,22.8046,86.2029,28.5,38,0.0,994.9,8.35,19.8,118,46.9,24.9,4,5,7,0,2026-03-22T13:13:39.265760+05:30
Dhanbad,Jharkhand,23.7957,86.4304,26.2,41,0.0,983.9,8.2,23.8,142,39.2,25.1,4,5,7,0,2026-03-22T13:13:39.265767+05:30
Bokaro,Jharkhand,23.6693,86.1511,26.3,41,0.0,987.8,8.25,24.5,146,48.2,22.8,4,5,7,0,2026-03-22T13:13:39.265774+05:30
Bhubaneswar,Odisha,20.2961,85.8245,31.3,46,0.0,1005.8,8.65,28.8,94,47.6,38.0,0,5,4,1,2026-03-22T13:13:39.265782+05:30
Cuttack,Odisha,20.4625,85.8828,31.1,47,0.0,1007.7,8.65,20.9,94,47.6,38.0,0,5,4,1,2026-03-22T13:13:39.265789+05:30
Rourkela,Odisha,22.2604,84.8536,29.0,37,0.0,989.1,8.25,19.4,89,37.0,18.2,4,5,7,0,2026-03-22T13:13:39.265796+05:30
Raipur,Chhattisgarh,21.2514,81.6296,31.4,24,0.0,978.9,8.4,18.4,84,28.0,17.5,0,5,7,0,2026-03-22T13:13:39.265802+05:30
Bhilai,Chhattisgarh,21.1938,81.3509,31.7,25,0.0,979.2,8.4,15.1,69,28.9,18.7,0,5,7,0,2026-03-22T13:13:39.265808+05:30
Guwahati,Assam,26.1158,91.7086,25.9,59,0.0,1004.6,7.6,18.0,90,24.6,20.5,4,5,4,1,2026-03-22T13:13:39.265814+05:30
Agartala,Tripura,23.8315,91.2868,28.1,49,0.0,1009.4,7.85,21.6,138,49.9,40.6,4,0,4,1,2026-03-22T13:13:39.265820+05:30
Shillong,Meghalaya,25.5788,91.8933,15.0,65,0.0,856.5,6.7,21.2,63,12.1,9.8,3,5,7,0,2026-03-22T13:13:39.265826+05:30
Imphal,Manipur,24.817,93.9368,18.9,75,0.0,924.2,8.15,51.8,75,4.9,4.3,3,5,7,0,2026-03-22T13:13:39.265833+05:30
Aizawl,Mizoram,23.7271,92.7176,20.0,65,0.0,894.7,8.2,44.6,71,7.3,6.4,3,5,7,0,2026-03-22T13:13:39.265839+05:30
Kohima,Nagaland,25.6701,94.1077,14.7,88,0.0,854.7,7.8,56.9,66,8.4,7.7,3,10,7,0,2026-03-22T13:13:39.265845+05:30
Gangtok,Sikkim,27.3314,88.6138,16.8,63,0.0,838.5,7.85,23.0,83,13.1,11.0,3,5,7,0,2026-03-22T13:13:39.265852+05:30
Siliguri,West Bengal,26.7271,88.3953,21.3,61,0.0,997.3,7.25,17.3,124,15.4,13.6,3,5,7,0,2026-03-22T13:13:42.610500+05:30
Durgapur,West Bengal,23.5204,87.3119,26.8,46,0.0,999.5,7.95,19.8,114,42.4,36.0,4,5,7,0,2026-03-22T13:13:42.610529+05:30
Asansol,West Bengal,23.6739,86.9524,26.7,46,0.0,998.0,8.2,21.6,114,37.4,30.2,4,5,7,0,2026-03-22T13:13:42.610539+05:30
Pondicherry,Puducherry,11.9139,79.8145,34.0,51,0.0,1010.2,9.15,29.5,39,12.3,7.0,0,0,4,1,2026-03-22T13:13:42.610547+05:30
Port Blair,Andaman and Nicobar Islands,11.6234,92.7265,28.9,75,0.0,1008.4,9.1,20.9,45,12.7,10.2,7,0,4,1,2026-03-22T13:13:42.610555+05:30
Haridwar,Uttarakhand,29.9457,78.1642,26.0,54,0.0,979.0,6.25,24.5,93,34.5,26.7,4,5,7,0,2026-03-22T13:13:42.610562+05:30
Rishikesh,Uttarakhand,30.0869,78.2676,24.7,58,0.0,971.3,6.35,23.0,58,22.9,16.4,0,5,7,0,2026-03-22T13:13:42.610569+05:30
Nainital,Uttarakhand,29.3919,79.4542,17.5,65,0.0,808.4,7.1,40.3,64,24.7,18.1,3,5,7,0,2026-03-22T13:13:42.610576+05:30
Mussoorie,Uttarakhand,30.4599,78.0664,16.2,67,0.0,804.8,6.65,24.5,71,30.2,23.3,3,5,7,0,2026-03-22T13:13:42.610583+05:30
Dharamshala,Himachal Pradesh,32.219,76.3234,18.9,66,0.0,871.9,6.55,20.9,93,19.3,9.2,3,5,7,0,2026-03-22T13:13:42.610590+05:30
Dalhousie,Himachal Pradesh,32.5387,75.971,17.1,50,0.0,806.3,6.85,19.1,85,27.2,20.4,0,5,7,0,2026-03-22T13:13:42.610598+05:30
Patiala,Punjab,30.3398,76.3869,26.0,47,0.0,983.8,6.25,31.7,138,362.3,62.9,4,5,7,0,2026-03-22T13:13:42.610605+05:30
Bhatinda,Punjab,30.211,74.9455,26.9,48,0.0,989.5,6.8,21.6,154,73.6,46.9,4,5,7,0,2026-03-22T13:13:42.610611+05:30
Rohtak,Haryana,28.8955,76.6066,27.1,49,0.0,987.6,6.45,25.6,155,321.3,53.1,4,5,7,0,2026-03-22T13:13:42.610618+05:30
Panipat,Haryana,29.3909,76.9635,27.1,46,0.0,985.9,6.25,32.0,174,616.5,78.7,4,5,7,0,2026-03-22T13:13:42.610625+05:30
Mathura,Uttar Pradesh,27.4924,77.6737,29.5,40,0.0,992.6,6.15,25.6,453,547.6,67.8,4,5,7,0,2026-03-22T13:13:42.610631+05:30
Vrindavan,Uttar Pradesh,27.5823,77.7027,28.9,42,0.0,993.0,6.65,25.2,453,547.6,67.8,4,5,7,0,2026-03-22T13:13:42.610666+05:30
Ayodhya,Uttar Pradesh,26.7922,82.1998,26.6,50,0.0,1000.4,7.05,20.2,105,21.2,17.5,4,5,4,0,2026-03-22T13:13:42.610679+05:30
Ratlam,Madhya Pradesh,23.3315,75.0367,31.0,29,0.0,959.1,7.95,19.1,61,28.5,13.0,0,5,7,0,2026-03-22T13:13:42.610686+05:30
Sagar,Madhya Pradesh,23.8388,78.7378,30.0,28,0.0,955.0,7.95,30.2,53,57.7,16.1,4,5,7,0,2026-03-22T13:13:42.610694+05:30
Satna,Madhya Pradesh,24.6005,80.8322,27.3,42,0.0,976.3,7.9,33.5,64,102.7,24.2,4,5,7,0,2026-03-22T13:13:42.610701+05:30
Akola,Maharashtra,20.7002,77.0082,33.5,22,0.0,979.3,8.3,21.2,50,14.0,9.6,0,5,7,0,2026-03-22T13:13:42.610708+05:30
Amravati,Maharashtra,20.9374,77.7796,33.5,21,0.0,971.4,8.3,22.3,43,13.5,8.9,0,5,7,0,2026-03-22T13:13:42.610716+05:30
Latur,Maharashtra,18.4088,76.5604,32.7,25,0.0,943.0,8.7,28.8,66,29.8,18.0,0,5,7,0,2026-03-22T13:13:42.610723+05:30
Nanded,Maharashtra,19.1383,77.3091,35.1,23,0.0,971.9,8.5,28.4,65,11.9,8.4,0,5,10,0,2026-03-22T13:13:42.610729+05:30
Gulbarga,Karnataka,17.3297,76.8343,34.3,31,0.0,961.1,8.75,18.4,78,35.2,24.7,0,5,7,0,2026-03-22T13:13:42.610735+05:30
Bidar,Karnataka,17.9104,77.5199,32.7,33,0.0,938.4,8.75,22.7,88,51.1,32.7,0,5,7,0,2026-03-22T13:13:42.610742+05:30
Hospet,Karnataka,15.2689,76.3909,34.0,33,0.0,957.8,9.0,15.1,72,32.1,19.0,0,5,7,0,2026-03-22T13:13:42.610748+05:30
Tirupur,Tamil Nadu,11.1085,77.3411,34.5,36,0.0,976.9,9.4,29.9,66,25.7,17.6,0,5,7,1,2026-03-22T13:13:42.610754+05:30
Alappuzha,Kerala,9.4981,76.3388,28.8,79,0.0,1009.9,9.1,31.7,61,21.9,18.5,7,0,4,1,2026-03-22T13:13:42.610761+05:30
Munnar,Kerala,10.0889,77.0595,30.7,36,0.0,860.8,8.65,28.4,68,25.7,16.0,0,5,7,0,2026-03-22T13:13:42.610768+05:30
Silchar,Assam,24.8333,92.7789,25.0,72,0.0,1008.3,7.95,23.4,93,18.2,15.4,7,0,4,1,2026-03-22T13:13:42.610775+05:30
Dibrugarh,Assam,27.4728,94.912,21.0,87,0.0,998.5,3.55,28.4,121,43.9,33.9,3,5,3,1,2026-03-22T13:13:42.610781+05:30
