city,state,latitude,longitude,temp,humidity,rain,pressure,uv_index,wind_gusts,aqi,pm10,pm2_5,no2,co,o3,so2,mosquito_risk,arthritis_risk,migraine_risk,frizz_risk,updated_at
Delhi,Delhi,28.6139,77.209,34.8,55,0.0,974.4,7.55,29.5,681,868.0,161.6,5.5,238.0,118.0,10.8,0,5,7,1,2026-07-13T12:25:44.988218+05:30
Mumbai,Maharashtra,19.076,72.8777,29.7,74,0.0,1007.4,6.75,50.8,52,30.6,16.2,4.1,141.0,73.0,7.1,7,5,4,1,2026-07-13T12:25:44.988277+05:30
Bangalore,Karnataka,12.9716,77.5946,30.5,42,0.0,912.3,8.75,46.4,50,32.4,12.8,2.7,204.0,73.0,2.9,0,5,7,1,2026-07-13T12:25:44.988294+05:30
Hyderabad,Telangana,17.385,78.4867,32.3,43,0.0,950.9,9.05,47.2,60,27.7,12.9,1.7,179.0,81.0,3.3,0,5,7,1,2026-07-13T12:25:44.988305+05:30
Chennai,Tamil Nadu,13.0827,80.2707,38.1,33,0.0,1003.5,8.65,42.5,67,41.3,19.2,4.1,154.0,106.0,10.2,0,5,7,1,2026-07-13T12:25:44.988332+05:30
Kolkata,West Bengal,22.5726,88.3639,30.0,85,0.1,997.9,7.4,22.7,146,73.3,52.7,9.8,462.0,115.0,23.7,10,5,7,1,2026-07-13T12:25:44.988342+05:30
Pune,Maharashtra,18.5204,73.8567,29.0,62,0.0,947.1,8.2,49.0,33,17.1,9.7,1.7,120.0,72.0,3.9,7,5,7,1,2026-07-13T12:25:44.988350+05:30
Ahmedabad,Gujarat,23.0225,72.5714,34.5,49,0.0,996.7,8.15,50.0,65,37.4,16.1,1.9,119.0,74.0,3.8,0,5,7,1,2026-07-13T12:25:44.988360+05:30
Jaipur,Rajasthan,26.9124,75.7873,32.4,57,0.0,953.3,8.2,32.8,348,571.8,94.8,2.7,133.0,74.0,4.3,0,5,7,1,2026-07-13T12:25:44.988368+05:30
Lucknow,Uttar Pradesh,26.8467,80.9462,35.3,57,0.0,984.4,8.2,37.8,121,140.6,53.7,2.3,182.0,131.0,6.4,0,5,10,1,2026-07-13T12:25:44.988380+05:30
Kanpur,Uttar Pradesh,26.4499,80.3319,35.2,55,0.0,983.3,8.2,39.2,113,113.6,44.8,2.0,150.0,118.0,6.4,0,5,10,1,2026-07-13T12:25:44.988388+05:30
Chandigarh,Chandigarh,30.7333,76.7794,33.0,60,0.0,960.0,7.7,32.8,158,186.3,76.4,3.7,281.0,183.0,15.9,0,5,7,1,2026-07-13T12:25:44.988395+05:30
Srinagar,Jammu and Kashmir,34.0837,74.7973,24.8,59,0.0,838.1,9.0,20.5,75,25.3,14.7,1.6,313.0,147.0,3.5,0,5,7,1,2026-07-13T12:25:44.988404+05:30
Jammu,Jammu and Kashmir,32.7266,74.857,30.4,69,0.0,964.1,8.55,18.4,145,85.4,45.8,3.1,349.0,186.0,5.6,3,5,7,1,2026-07-13T12:25:44.988414+05:30
Amritsar,Punjab,31.634,74.8723,32.3,65,0.0,971.8,8.4,19.8,173,215.1,96.4,6.2,348.0,174.0,10.8,3,5,7,1,2026-07-13T12:25:44.988422+05:30
Ludhiana,Punjab,30.901,75.8573,31.9,68,0.0,969.6,7.9,27.7,169,227.7,85.7,5.3,377.0,132.0,7.7,3,5,7,1,2026-07-13T12:25:44.988430+05:30
Jalandhar,Punjab,31.326,75.5762,31.6,69,0.0,970.7,8.15,24.1,165,196.5,85.4,5.4,358.0,144.0,4.9,3,5,7,1,2026-07-13T12:25:44.988437+05:30
Dehradun,Uttarakhand,30.6284,78.0322,25.9,61,0.0,827.3,8.15,31.3,89,62.4,25.3,0.9,213.0,131.0,2.6,7,5,7,1,2026-07-13T12:25:44.988446+05:30
Shimla,Himachal Pradesh,31.1048,77.1734,24.1,46,0.0,783.2,8.25,36.4,95,106.2,35.4,1.0,182.0,131.0,6.4,0,5,7,0,2026-07-13T12:25:44.988454+05:30
Manali,Himachal Pradesh,32.2396,77.1887,26.4,48,0.1,816.7,9.55,34.2,47,16.2,7.3,1.5,157.0,141.0,0.9,7,5,7,0,2026-07-13T12:25:44.988465+05:30
Gurgaon,Haryana,28.4595,77.0266,35.1,52,0.0,973.1,7.7,33.5,651,786.0,148.5,5.0,165.0,116.0,9.3,0,5,10,1,2026-07-13T12:25:44.988472+05:30
Noida,Uttar Pradesh,28.5355,77.391,35.2,54,0.0,975.9,7.7,28.4,651,786.0,148.5,5.0,245.0,116.0,9.3,0,5,10,1,2026-07-13T12:25:44.988479+05:30
Ghaziabad,Uttar Pradesh,28.6692,77.4538,35.0,55,0.0,974.0,7.6,26.3,562,612.8,135.0,5.5,258.0,138.0,14.6,0,5,7,1,2026-07-13T12:25:44.988488+05:30
Faridabad,Haryana,28.4089,77.3178,35.0,53,0.0,975.2,7.7,32.0,651,786.0,148.5,5.0,194.0,116.0,9.3,0,5,7,1,2026-07-13T12:25:44.988496+05:30
Meerut,Uttar Pradesh,28.9845,77.7064,34.6,57,0.0,972.6,7.6,31.0,562,612.8,135.0,5.5,231.0,138.0,14.6,0,5,7,1,2026-07-13T12:25:44.988503+05:30
Agra,Uttar Pradesh,27.1767,78.0081,34.6,55,0.0,979.8,7.5,39.6,135,239.3,56.2,2.2,134.0,113.0,4.4,0,5,7,1,2026-07-13T12:25:44.988510+05:30
Varanasi,Uttar Pradesh,25.3176,82.9739,33.8,62,0.0,989.3,4.7,33.5,105,68.5,39.8,2.7,206.0,122.0,9.8,3,5,3,1,2026-07-13T12:25:44.988517+05:30
Prayagraj,Uttar Pradesh,25.4358,81.8463,33.5,61,0.0,988.0,6.0,37.4,100,65.4,39.8,2.7,163.0,121.0,10.0,3,5,3,1,2026-07-13T12:25:44.988525+05:30
Gorakhpur,Uttar Pradesh,26.7606,83.3732,32.9,66,0.0,988.2,4.7,32.0,134,177.0,69.6,2.9,244.0,157.0,8.7,3,5,3,1,2026-07-13T12:25:44.988532+05:30
Bareilly,Uttar Pradesh,28.367,79.4304,35.0,59,0.0,977.5,8.0,36.0,177,385.6,125.7,3.1,260.0,168.0,14.6,0,5,7,1,2026-07-13T12:25:44.988541+05:30
Aligarh,Uttar Pradesh,27.8974,78.088,34.6,55,0.0,977.3,7.65,35.3,541,752.5,140.2,3.0,168.0,122.0,8.0,0,5,7,1,2026-07-13T12:25:44.988548+05:30
Moradabad,Uttar Pradesh,28.8386,78.7733,34.5,61,0.0,974.6,7.85,34.9,364,353.0,116.6,3.6,340.0,165.0,13.2,3,5,7,1,2026-07-13T12:25:44.988554+05:30
Saharanpur,Uttar Pradesh,29.9637,77.546,33.7,64,0.0,966.6,7.35,30.2,184,217.9,93.8,4.2,268.0,184.0,18.2,3,5,7,1,2026-07-13T12:25:44.988561+05:30
Jhansi,Uttar Pradesh,25.4484,78.5685,34.0,56,0.0,971.3,8.0,40.0,91,69.2,30.4,1.8,122.0,92.0,7.7,0,5,7,1,2026-07-13T12:25:48.220893+05:30
Surat,Gujarat,21.1702,72.8311,31.0,70,0.0,1003.6,7.35,62.3,57,32.1,19.3,7.6,187.0,51.0,24.1,3,5,4,1,2026-07-13T12:25:48.220927+05:30
Vadodara,Gujarat,22.3072,73.1812,32.7,59,0.0,999.7,8.0,54.4,57,32.1,15.4,1.9,119.0,71.0,3.8,0,5,7,1,2026-07-13T12:25:48.220937+05:30
Rajkot,Gujarat,22.3039,70.8022,34.0,51,0.0,989.1,7.4,56.9,55,33.3,15.4,1.1,95.0,70.0,2.8,0,5,7,1,2026-07-13T12:25:48.220946+05:30
Thane,Maharashtra,19.2183,72.9781,30.8,67,0.0,1006.5,7.8,45.0,52,30.6,16.2,4.1,141.0,73.0,7.1,3,5,4,1,2026-07-13T12:25:48.220954+05:30
Nagpur,Maharashtra,21.1458,79.0882,32.2,54,0.0,969.2,7.4,40.0,82,66.8,23.3,6.3,133.0,70.0,18.6,0,5,7,1,2026-07-13T12:25:48.220961+05:30
Nashik,Maharashtra,19.9975,73.7898,29.3,59,0.0,943.4,8.15,59.8,35,24.7,13.2,1.5,108.0,74.0,3.6,4,5,7,1,2026-07-13T12:25:48.220968+05:30
Aurangabad,Maharashtra,19.8762,75.3433,30.6,57,0.0,941.7,8.85,52.9,52,19.1,11.0,1.4,118.0,87.0,6.3,0,5,7,1,2026-07-13T12:25:48.220975+05:30
Solapur,Maharashtra,17.6599,75.9064,31.1,53,0.0,955.8,8.9,46.1,49,14.0,7.7,1.0,110.0,75.0,1.9,0,5,7,1,2026-07-13T12:25:48.220982+05:30
Kolhapur,Maharashtra,16.705,74.2433,28.0,64,0.0,948.0,8.9,49.0,34,13.2,8.1,1.4,110.0,63.0,1.8,7,5,7,1,2026-07-13T12:25:48.220989+05:30
Goa,Goa,15.2993,74.124,31.5,59,0.0,998.7,6.95,37.1,51,20.5,11.3,0.7,104.0,56.0,1.2,0,5,7,1,2026-07-13T12:25:48.220996+05:30
Jodhpur,Rajasthan,26.2389,73.0243,34.5,47,0.0,975.6,8.45,47.9,154,285.9,59.8,1.3,105.0,70.0,2.7,0,5,7,1,2026-07-13T12:25:48.221003+05:30
Udaipur,Rajasthan,24.5854,73.7125,30.1,60,0.0,941.2,7.95,47.5,73,49.1,18.0,1.3,105.0,65.0,3.2,0,5,7,1,2026-07-13T12:25:48.221010+05:30
Kota,Rajasthan,25.2138,75.8648,33.4,51,0.0,972.6,8.3,38.5,85,141.1,36.8,2.1,124.0,78.0,6.1,0,5,7,1,2026-07-13T12:25:48.221017+05:30
Bikaner,Rajasthan,28.0229,73.3119,36.8,43,0.0,973.4,8.45,36.0,159,271.0,68.5,0.6,106.0,76.0,4.2,0,5,10,1,2026-07-13T12:25:48.221023+05:30
Ajmer,Rajasthan,26.4499,74.6399,30.9,58,0.0,948.5,8.35,47.9,84,194.6,46.2,1.6,112.0,71.0,3.3,0,5,7,1,2026-07-13T12:25:48.221030+05:30
Gwalior,Madhya Pradesh,26.2183,78.1828,33.3,61,0.0,976.0,8.2,43.2,91,81.0,33.8,1.3,124.0,98.0,4.2,3,5,7,1,2026-07-13T12:25:48.221036+05:30
Indore,Madhya Pradesh,22.7196,75.8577,30.4,56,0.0,944.1,8.2,52.6,68,45.8,17.4,1.9,156.0,71.0,4.9,0,5,7,1,2026-07-13T12:25:48.221042+05:30
Bhopal,Madhya Pradesh,23.2599,77.4126,30.8,57,0.0,949.3,7.9,42.5,77,68.7,22.7,1.6,146.0,74.0,4.5,0,5,7,1,2026-07-13T12:25:48.221048+05:30
Jabalpur,Madhya Pradesh,23.1815,79.9864,30.9,65,0.0,956.5,6.75,38.2,85,72.4,26.4,1.4,135.0,82.0,4.2,3,5,7,1,2026-07-13T12:25:48.221054+05:30
Ujjain,Madhya Pradesh,23.1765,75.7885,31.1,55,0.0,949.2,8.5,52.9,67,42.4,16.1,1.5,124.0,67.0,4.2,0,5,7,1,2026-07-13T12:25:48.221061+05:30
Visakhapatnam,Andhra Pradesh,17.6868,83.2185,34.2,58,0.0,996.9,8.1,32.8,96,70.8,42.8,15.5,324.0,126.0,39.5,0,5,7,1,2026-07-13T12:25:48.221067+05:30
Vijayawada,Andhra Pradesh,16.5062,80.648,35.8,42,0.0,998.0,8.8,50.8,82,44.0,20.1,1.9,125.0,88.0,4.9,0,5,10,1,2026-07-13T12:25:48.221073+05:30
Guntur,Andhra Pradesh,16.3067,80.4365,36.4,38,0.0,999.4,8.75,49.7,79,44.4,19.0,1.5,125.0,85.0,3.9,0,5,10,1,2026-07-13T12:25:48.221080+05:30
Nellore,Andhra Pradesh,14.4426,79.9865,36.9,36,0.0,1002.1,8.75,51.1,65,44.0,16.2,1.6,106.0,87.0,5.6,0,5,7,1,2026-07-13T12:25:48.221087+05:30
Kurnool,Andhra Pradesh,15.8281,78.0373,34.3,41,0.0,975.1,8.85,48.2,56,31.3,13.3,1.5,112.0,80.0,5.3,0,5,7,1,2026-07-13T12:25:48.221094+05:30
Kakinada,Andhra Pradesh,16.9891,82.2475,33.8,55,0.0,1001.6,7.25,40.0,80,49.9,30.0,2.6,209.0,149.0,6.2,0,5,4,1,2026-07-13T12:25:48.221100+05:30
Tirupati,Andhra Pradesh,13.6288,79.4192,37.0,31,0.0,988.0,8.65,44.3,78,43.4,13.7,1.1,103.0,71.0,1.4,0,5,10,1,2026-07-13T12:25:48.221107+05:30
Warangal,Telangana,17.9689,79.5941,32.6,51,0.0,975.3,8.6,44.3,79,39.1,17.2,1.3,134.0,82.0,3.2,0,5,7,1,2026-07-13T12:25:48.221113+05:30
Nizamabad,Telangana,18.6725,78.0941,31.4,54,0.0,962.2,8.85,46.1,66,27.4,13.9,1.4,127.0,83.0,5.2,0,5,7,1,2026-07-13T12:25:48.221119+05:30
Mysore,Karnataka,12.2958,76.6396,30.9,46,0.0,929.1,8.6,44.3,40,27.5,10.7,1.6,117.0,70.0,1.7,0,5,7,1,2026-07-13T12:25:48.221125+05:30
Mangalore,Karnataka,12.9141,74.856,29.5,72,0.0,1007.9,8.15,45.7,48,23.3,11.9,1.0,95.0,56.0,1.5,7,5,4,1,2026-07-13T12:25:48.221131+05:30
Hubli-Dharwad,Karnataka,15.3647,75.124,29.3,55,0.0,941.3,8.95,49.3,31,15.0,7.9,1.4,105.0,60.0,1.3,4,5,7,1,2026-07-13T12:25:48.221138+05:30
Belgaum,Karnataka,15.8497,74.4977,27.4,61,0.0,926.3,9.0,47.2,28,14.2,7.9,1.2,102.0,59.0,1.5,7,5,7,1,2026-07-13T12:25:51.450090+05:30
Coimbatore,Tamil Nadu,11.0168,76.9558,32.4,51,0.0,961.5,8.25,53.6,43,23.3,10.4,1.2,125.0,71.0,2.1,0,5,7,1,2026-07-13T12:25:51.450125+05:30
Madurai,Tamil Nadu,9.9252,78.1198,37.4,33,0.0,991.4,8.25,45.0,56,34.5,12.4,1.9,116.0,88.0,2.6,0,5,10,1,2026-07-13T12:25:51.450136+05:30
Trichy,Tamil Nadu,10.7905,78.7047,37.4,35,0.0,997.4,8.0,50.0,58,30.2,13.5,1.6,123.0,82.0,2.8,0,5,10,1,2026-07-13T12:25:51.450144+05:30
Salem,Tamil Nadu,11.6643,78.146,32.9,51,0.0,976.4,8.45,33.5,64,35.0,17.0,2.9,129.0,100.0,8.7,0,5,7,1,2026-07-13T12:25:51.450153+05:30
Tirunelveli,Tamil Nadu,8.7139,77.7567,38.2,33,0.0,1001.5,8.65,51.5,33,15.3,7.3,1.1,115.0,68.0,1.3,0,5,7,1,2026-07-13T12:25:51.450160+05:30
Vellore,Tamil Nadu,12.9165,79.1325,36.9,31,0.0,981.9,8.6,42.5,67,38.0,14.8,1.7,125.0,86.0,2.6,0,5,10,1,2026-07-13T12:25:51.450168+05:30
Erode,Tamil Nadu,11.341,77.7172,36.6,34,0.0,987.7,7.85,50.0,54,29.9,14.1,1.9,141.0,89.0,2.4,0,5,10,1,2026-07-13T12:25:51.450174+05:30
Kochi,Kerala,9.9312,76.2673,29.7,73,0.0,1009.8,8.55,44.3,47,24.4,12.2,1.9,104.0,65.0,2.5,7,0,4,1,2026-07-13T12:25:51.450182+05:30
Thiruvananthapuram,Kerala,8.5241,76.9366,29.0,77,0.0,1008.9,8.4,52.9,43,20.1,11.9,1.9,101.0,72.0,1.8,7,0,4,1,2026-07-13T12:25:51.450190+05:30
Kozhikode,Kerala,11.2588,75.7804,29.0,76,0.0,1008.9,8.55,47.9,43,25.6,11.4,0.5,99.0,55.0,1.1,7,0,4,1,2026-07-13T12:25:51.450196+05:30
Thrissur,Kerala,10.5276,76.2144,30.6,66,0.0,1008.0,8.35,44.3,47,20.5,10.4,1.3,101.0,60.0,1.8,3,0,4,1,2026-07-13T12:25:51.450204+05:30
Kannur,Kerala,11.8745,75.3704,29.2,74,0.1,1008.3,8.6,49.0,44,22.4,10.9,1.0,99.0,56.0,1.3,10,0,4,1,2026-07-13T12:25:51.450211+05:30
Patna,Bihar,25.5941,85.1376,33.4,62,0.0,992.3,6.75,33.5,154,91.7,52.7,3.4,225.0,153.0,8.8,3,5,7,1,2026-07-13T12:25:51.450217+05:30
Gaya,Bihar,24.7914,85.0002,34.1,57,0.0,986.2,6.55,35.6,129,78.0,43.9,2.6,195.0,131.0,8.6,0,5,7,1,2026-07-13T12:25:51.450225+05:30
Muzaffarpur,Bihar,26.1209,85.3647,32.3,66,0.0,992.2,7.15,32.4,153,105.9,61.0,3.6,268.0,162.0,10.6,3,5,7,1,2026-07-13T12:25:51.450231+05:30
Bhagalpur,Bihar,25.2425,87.0117,31.1,82,0.1,993.3,5.65,24.1,136,80.8,45.2,9.6,247.0,122.0,18.1,6,5,3,1,2026-07-13T12:25:51.450238+05:30
Ranchi,Jharkhand,23.3441,85.3096,30.0,61,0.0,931.9,8.45,33.1,109,89.6,39.1,1.8,141.0,116.0,10.2,7,5,7,1,2026-07-13T12:25:51.450244+05:30
Jamshedpur,Jharkhand,22.8046,86.2029,33.6,57,0.0,983.1,8.45,24.8,124,100.6,51.7,5.7,174.0,144.0,27.8,0,5,7,1,2026-07-13T12:25:51.450250+05:30
Dhanbad,Jharkhand,23.7957,86.4304,33.4,58,0.0,972.5,5.9,29.5,159,90.8,48.5,9.6,172.0,122.0,37.1,0,5,3,1,2026-07-13T12:25:51.450257+05:30
Bokaro,Jharkhand,23.6693,86.1511,33.5,58,0.0,976.3,8.55,27.0,155,93.4,48.5,10.5,180.0,124.0,42.5,0,5,7,1,2026-07-13T12:25:51.450263+05:30
Bhubaneswar,Odisha,20.2961,85.8245,33.9,59,0.0,994.8,6.2,31.3,98,66.4,39.7,5.2,270.0,135.0,20.3,0,5,7,1,2026-07-13T12:25:51.450270+05:30
Cuttack,Odisha,20.4625,85.8828,33.9,60,0.0,996.4,6.7,36.0,98,66.4,39.7,5.2,270.0,135.0,20.3,0,5,7,1,2026-07-13T12:25:51.450277+05:30
Rourkela,Odisha,22.2604,84.8536,33.6,56,0.0,977.8,8.75,25.9,98,90.3,38.9,1.7,179.0,116.0,5.8,0,5,7,1,2026-07-13T12:25:51.450283+05:30
Raipur,Chhattisgarh,21.2514,81.6296,33.2,55,0.0,969.2,6.45,39.2,106,77.8,40.4,8.6,135.0,100.0,31.0,0,5,7,1,2026-07-13T12:25:51.450290+05:30
Bhilai,Chhattisgarh,21.1938,81.3509,32.4,57,0.0,969.8,6.3,42.5,101,71.2,35.0,7.9,238.0,88.0,24.9,0,5,7,1,2026-07-13T12:25:51.450296+05:30
Guwahati,Assam,26.1158,91.7086,29.1,91,0.4,993.6,2.0,20.5,52,16.1,11.9,1.1,323.0,109.0,3.0,10,5,3,1,2026-07-13T12:25:51.450303+05:30
Agartala,Tripura,23.8315,91.2868,30.1,80,0.0,998.0,1.0,30.6,71,10.0,9.4,5.8,214.0,93.0,2.2,3,5,3,1,2026-07-13T12:25:51.450309+05:30
Shillong,Meghalaya,25.5788,91.8933,23.2,82,0.0,853.1,1.55,25.6,39,15.2,9.0,0.6,260.0,103.0,2.5,3,5,3,1,2026-07-13T12:25:51.450332+05:30
Imphal,Manipur,24.817,93.9368,28.7,71,0.0,917.3,6.8,23.8,49,2.4,2.2,1.4,250.0,79.0,1.1,7,5,7,1,2026-07-13T12:25:51.450339+05:30
Aizawl,Mizoram,23.7271,92.7176,26.5,65,0.0,886.6,1.9,21.6,57,9.5,5.3,0.6,163.0,92.0,2.1,7,5,3,1,2026-07-13T12:25:51.450345+05:30
Kohima,Nagaland,25.6701,94.1077,22.5,94,0.1,851.3,8.05,22.0,30,3.9,3.6,1.0,181.0,90.0,0.8,6,5,7,1,2026-07-13T12:25:51.450351+05:30
Gangtok,Sikkim,27.3314,88.6138,21.1,93,0.0,833.5,2.2,29.5,47,1.2,1.2,2.4,268.0,106.0,1.1,3,5,3,1,2026-07-13T12:25:51.450358+05:30
Siliguri,West Bengal,26.7271,88.3953,27.5,91,0.1,985.6,5.8,37.1,46,5.4,5.4,3.4,435.0,116.0,2.3,10,5,3,1,2026-07-13T12:25:54.694750+05:30
Durgapur,West Bengal,23.5204,87.3119,33.1,71,0.0,987.1,6.45,24.1,152,107.6,64.5,17.6,263.0,134.0,47.9,3,5,7,1,2026-07-13T12:25:54.694788+05:30
Asansol,West Bengal,23.6739,86.9524,33.2,66,0.0,985.7,2.3,29.5,150,95.7,52.6,12.3,225.0,118.0,35.1,3,5,3,1,2026-07-13T12:25:54.694801+05:30
Pondicherry,Puducherry,11.9139,79.8145,36.1,41,0.0,1005.4,8.45,48.2,63,27.5,15.3,2.4,148.0,99.0,2.9,0,5,7,1,2026-07-13T12:25:54.694810+05:30
Port Blair,Andaman and Nicobar Islands,11.6234,92.7265,30.6,71,0.0,1004.2,8.6,57.6,44,18.4,8.1,0.2,89.0,47.0,0.4,3,5,4,1,2026-07-13T12:25:54.694819+05:30
Haridwar,Uttarakhand,29.9457,78.1642,33.6,61,0.0,964.9,7.5,27.4,180,206.8,85.4,2.6,278.0,170.0,16.6,3,5,7,1,2026-07-13T12:25:54.694827+05:30
Rishikesh,Uttarakhand,30.0869,78.2676,33.3,60,0.0,957.8,7.6,29.9,162,176.0,66.4,1.3,242.0,143.0,11.5,0,5,7,1,2026-07-13T12:25:54.694835+05:30
Nainital,Uttarakhand,29.3919,79.4542,26.1,49,0.0,803.8,8.5,37.1,161,223.1,82.0,1.7,179.0,148.0,12.2,4,5,7,0,2026-07-13T12:25:54.694843+05:30
Mussoorie,Uttarakhand,30.4599,78.0664,25.1,55,0.0,801.0,8.0,45.7,160,143.9,61.2,1.8,221.0,152.0,10.4,4,5,7,0,2026-07-13T12:25:54.694850+05:30
Dharamshala,Himachal Pradesh,32.219,76.3234,25.5,70,0.0,864.1,8.4,33.8,67,46.4,17.7,0.6,219.0,122.0,1.5,7,5,7,1,2026-07-13T12:25:54.694857+05:30
Dalhousie,Himachal Pradesh,32.5387,75.971,22.9,66,0.0,801.7,8.65,27.0,98,86.8,32.7,1.7,266.0,141.0,2.3,3,5,7,1,2026-07-13T12:25:54.694865+05:30
Patiala,Punjab,30.3398,76.3869,32.8,64,0.0,969.4,7.5,37.1,173,255.2,90.3,3.1,217.0,144.0,6.6,3,5,7,1,2026-07-13T12:25:54.694873+05:30
Bhatinda,Punjab,30.211,74.9455,36.8,44,0.0,974.5,8.25,36.7,179,218.4,80.3,9.9,226.0,123.0,26.0,0,5,10,1,2026-07-13T12:25:54.694880+05:30
Rohtak,Haryana,28.8955,76.6066,35.2,53,0.0,973.1,7.3,43.2,1012,1404.4,203.5,2.4,157.0,106.0,4.7,0,5,10,1,2026-07-13T12:25:54.694887+05:30
Panipat,Haryana,29.3909,76.9635,34.8,57,0.0,971.4,7.45,27.4,1276,1490.1,208.6,4.2,200.0,122.0,11.4,0,5,7,1,2026-07-13T12:25:54.694894+05:30
Mathura,Uttar Pradesh,27.4924,77.6737,34.9,54,0.0,978.7,7.2,37.4,794,782.3,121.1,2.3,152.0,106.0,3.3,0,5,7,1,2026-07-13T12:25:54.694902+05:30
Vrindavan,Uttar Pradesh,27.5823,77.7027,35.1,54,0.0,979.2,7.25,36.7,794,782.3,121.1,2.3,145.0,106.0,3.3,0,5,10,1,2026-07-13T12:25:54.694908+05:30
Ayodhya,Uttar Pradesh,26.7922,82.1998,34.2,62,0.0,986.0,7.9,29.2,129,138.8,57.0,2.3,209.0,143.0,7.6,3,5,7,1,2026-07-13T12:25:54.694915+05:30
Ratlam,Madhya Pradesh,23.3315,75.0367,31.0,56,0.0,950.2,8.5,51.8,64,37.8,14.8,1.4,107.0,67.0,4.2,0,5,7,1,2026-07-13T12:25:54.694922+05:30
Sagar,Madhya Pradesh,23.8388,78.7378,30.3,65,0.1,945.3,7.45,43.6,82,81.0,25.9,1.3,128.0,77.0,4.3,6,5,7,1,2026-07-13T12:25:54.694928+05:30
Satna,Madhya Pradesh,24.6005,80.8322,33.3,57,0.0,965.1,8.0,42.5,90,66.6,32.5,1.4,127.0,94.0,4.9,0,5,7,1,2026-07-13T12:25:54.694935+05:30
Akola,Maharashtra,20.7002,77.0082,32.5,52,0.0,971.8,8.6,47.5,64,27.5,13.4,1.7,110.0,80.0,6.6,0,5,7,1,2026-07-13T12:25:54.694944+05:30
Amravati,Maharashtra,20.9374,77.7796,32.1,52,0.0,963.8,7.75,53.6,66,33.6,15.1,2.1,113.0,80.0,7.8,0,5,7,1,2026-07-13T12:25:54.694952+05:30
Latur,Maharashtra,18.4088,76.5604,31.1,52,0.0,938.0,8.85,47.5,52,16.2,8.6,0.9,113.0,70.0,2.1,0,5,7,1,2026-07-13T12:25:54.694959+05:30
Nanded,Maharashtra,19.1383,77.3091,31.7,56,0.0,965.8,8.45,43.9,61,21.7,11.8,1.3,123.0,80.0,3.5,0,5,7,1,2026-07-13T12:25:54.694967+05:30
Gulbarga,Karnataka,17.3297,76.8343,31.7,49,0.0,957.1,8.8,48.6,51,18.0,8.9,1.3,110.0,78.0,2.4,0,5,7,1,2026-07-13T12:25:54.694974+05:30
Bidar,Karnataka,17.9104,77.5199,30.6,53,0.0,933.7,8.95,46.1,57,22.5,11.1,1.3,121.0,79.0,2.0,0,5,7,1,2026-07-13T12:25:54.694980+05:30
Hospet,Karnataka,15.2689,76.3909,31.8,47,0.0,955.3,8.9,48.6,39,23.5,9.3,1.2,108.0,71.0,1.9,0,5,7,1,2026-07-13T12:25:54.694987+05:30
Tirupur,Tamil Nadu,11.1085,77.3411,34.7,45,0.0,974.3,8.05,55.8,57,28.6,13.2,1.8,141.0,86.0,2.6,0,5,7,1,2026-07-13T12:25:54.694993+05:30
Alappuzha,Kerala,9.4981,76.3388,29.7,73,0.0,1009.9,8.45,45.4,47,25.3,13.4,2.5,86.0,69.0,3.0,7,0,4,1,2026-07-13T12:25:54.695000+05:30
Munnar,Kerala,10.0889,77.0595,21.6,77,0.0,858.6,8.8,35.6,26,15.7,6.7,0.8,90.0,58.0,1.1,3,5,7,1,2026-07-13T12:25:54.695007+05:30
Silchar,Assam,24.8333,92.7789,32.9,64,0.0,996.1,5.7,19.4,78,21.9,13.2,1.1,233.0,109.0,3.6,3,5,3,1,2026-07-13T12:25:54.695015+05:30
Dibrugarh,Assam,27.4728,94.912,31.7,73,0.0,987.5,8.9,20.9,48,5.7,5.6,1.0,188.0,96.0,0.8,3,5,7,1,2026-07-13T12:25:54.695021+05:30
