city,state,latitude,longitude,temp,humidity,rain,pressure,uv_index,wind_gusts,aqi,pm10,pm2_5,no2,co,o3,so2,mosquito_risk,arthritis_risk,migraine_risk,frizz_risk,updated_at
Delhi,Delhi,28.6139,77.209,34.0,32,0.0,980.8,7.7,41.4,333,253.3,101.7,33.2,752.0,78.0,25.6,0,5,7,0,2026-05-16T09:24:21.317593+05:30
Mumbai,Maharashtra,19.076,72.8777,32.0,60,0.0,1006.5,7.9,49.0,62,27.8,14.7,6.5,223.0,49.0,5.6,0,5,4,1,2026-05-16T09:24:21.317640+05:30
Bangalore,Karnataka,12.9716,77.5946,27.1,63,0.0,910.4,8.1,37.1,133,79.4,54.9,44.0,1018.0,42.0,15.1,7,5,7,1,2026-05-16T09:24:21.317657+05:30
Hyderabad,Telangana,17.385,78.4867,32.6,51,0.0,951.9,9.3,29.5,151,52.2,32.2,12.2,500.0,70.0,7.2,0,5,7,1,2026-05-16T09:24:21.317666+05:30
Chennai,Tamil Nadu,13.0827,80.2707,29.0,82,0.0,1004.4,7.6,28.1,30,13.5,10.3,9.4,431.0,74.0,13.4,7,5,4,1,2026-05-16T09:24:21.317675+05:30
Kolkata,West Bengal,22.5726,88.3639,32.3,69,0.0,1003.8,9.0,37.4,59,23.5,14.0,3.1,292.0,70.0,5.7,3,5,4,1,2026-05-16T09:24:21.317682+05:30
Pune,Maharashtra,18.5204,73.8567,29.6,52,0.0,946.6,8.5,38.2,68,26.1,18.7,12.0,231.0,56.0,22.2,4,5,7,1,2026-05-16T09:24:21.317689+05:30
Ahmedabad,Gujarat,23.0225,72.5714,32.0,56,0.0,1000.8,8.15,31.0,51,28.6,12.5,4.1,191.0,51.0,3.8,0,5,4,1,2026-05-16T09:24:21.317696+05:30
Jaipur,Rajasthan,26.9124,75.7873,34.1,34,0.0,958.5,8.25,24.5,150,373.5,80.3,9.2,374.0,110.0,14.5,0,5,7,0,2026-05-16T09:24:21.317711+05:30
Lucknow,Uttar Pradesh,26.8467,80.9462,34.8,41,0.0,991.4,8.2,32.0,153,130.9,60.5,18.4,537.0,133.0,25.2,0,5,7,1,2026-05-16T09:24:21.317718+05:30
Kanpur,Uttar Pradesh,26.4499,80.3319,36.0,33,0.0,989.8,8.25,32.8,152,136.4,55.4,13.2,360.0,130.0,17.0,0,5,10,1,2026-05-16T09:24:21.317725+05:30
Chandigarh,Chandigarh,30.7333,76.7794,31.4,35,0.0,966.7,7.7,38.5,88,41.1,25.9,11.8,720.0,122.0,13.5,0,5,7,0,2026-05-16T09:24:21.317732+05:30
Srinagar,Jammu and Kashmir,34.0837,74.7973,17.3,70,0.0,842.7,8.9,37.4,96,43.5,35.2,9.2,582.0,78.0,1.2,3,5,7,0,2026-05-16T09:24:21.317740+05:30
Jammu,Jammu and Kashmir,32.7266,74.857,29.1,41,0.0,970.5,8.5,25.9,96,33.6,26.4,12.3,332.0,72.0,2.5,4,5,7,0,2026-05-16T09:24:21.317746+05:30
Amritsar,Punjab,31.634,74.8723,30.2,47,0.0,978.6,8.35,23.4,140,43.5,37.7,16.6,605.0,94.0,10.8,0,5,7,1,2026-05-16T09:24:21.317753+05:30
Ludhiana,Punjab,30.901,75.8573,30.7,46,0.0,976.7,7.95,38.2,120,61.7,45.2,12.0,592.0,98.0,8.7,0,5,7,1,2026-05-16T09:24:21.317759+05:30
Jalandhar,Punjab,31.326,75.5762,30.2,49,0.0,977.8,8.15,30.2,139,80.6,56.5,12.3,729.0,96.0,6.7,0,5,7,1,2026-05-16T09:24:21.317765+05:30
Dehradun,Uttarakhand,30.6284,78.0322,22.2,43,0.0,831.4,8.1,41.4,56,14.9,6.2,2.5,160.0,107.0,0.3,0,5,7,0,2026-05-16T09:24:21.317771+05:30
Shimla,Himachal Pradesh,31.1048,77.1734,20.6,29,0.0,786.2,8.2,45.7,67,25.7,11.6,2.7,171.0,123.0,0.9,0,5,7,0,2026-05-16T09:24:21.317782+05:30
Manali,Himachal Pradesh,32.2396,77.1887,19.6,33,0.0,818.2,9.75,38.9,45,3.6,2.3,8.5,196.0,114.0,0.2,0,5,7,0,2026-05-16T09:24:21.317788+05:30
Gurgaon,Haryana,28.4595,77.0266,33.2,35,0.0,979.4,7.8,37.1,557,556.9,143.4,38.8,765.0,81.0,36.1,0,5,7,0,2026-05-16T09:24:21.317795+05:30
Noida,Uttar Pradesh,28.5355,77.391,33.0,38,0.0,982.2,7.7,29.2,557,556.9,143.4,38.8,1133.0,81.0,36.1,0,5,7,1,2026-05-16T09:24:21.317801+05:30
Ghaziabad,Uttar Pradesh,28.6692,77.4538,32.0,42,0.0,980.5,7.7,34.9,183,213.3,92.0,22.7,546.0,103.0,23.1,0,5,7,1,2026-05-16T09:24:21.317807+05:30
Faridabad,Haryana,28.4089,77.3178,34.0,32,0.0,981.5,7.75,41.0,557,556.9,143.4,38.8,871.0,81.0,36.1,0,5,7,0,2026-05-16T09:24:21.317813+05:30
Meerut,Uttar Pradesh,28.9845,77.7064,32.0,39,0.0,979.4,7.6,39.6,183,213.3,92.0,22.7,428.0,103.0,23.1,0,5,7,1,2026-05-16T09:24:21.317822+05:30
Agra,Uttar Pradesh,27.1767,78.0081,34.2,39,0.0,985.9,8.05,29.5,392,294.3,80.8,13.2,468.0,112.0,13.7,0,5,7,1,2026-05-16T09:24:21.317828+05:30
Varanasi,Uttar Pradesh,25.3176,82.9739,35.8,37,0.0,995.0,8.7,36.0,155,132.7,66.1,9.0,910.0,148.0,18.2,0,5,10,1,2026-05-16T09:24:21.317835+05:30
Prayagraj,Uttar Pradesh,25.4358,81.8463,36.4,37,0.0,993.3,8.55,33.8,154,131.8,70.3,14.4,489.0,131.0,18.0,0,5,10,1,2026-05-16T09:24:21.317843+05:30
Gorakhpur,Uttar Pradesh,26.7606,83.3732,32.1,59,0.0,995.0,8.55,30.2,155,65.9,57.0,8.5,754.0,136.0,16.1,0,5,7,1,2026-05-16T09:24:21.317851+05:30
Bareilly,Uttar Pradesh,28.367,79.4304,30.5,55,0.0,984.7,8.0,31.0,153,127.6,77.1,16.2,550.0,135.0,21.0,0,5,7,1,2026-05-16T09:24:21.317857+05:30
Aligarh,Uttar Pradesh,27.8974,78.088,33.0,42,0.0,983.6,7.85,33.5,242,335.3,111.3,19.2,502.0,105.0,20.5,0,5,7,1,2026-05-16T09:24:21.317863+05:30
Moradabad,Uttar Pradesh,28.8386,78.7733,30.1,48,0.0,981.5,7.8,37.8,160,96.6,72.9,20.3,572.0,118.0,14.5,0,5,7,1,2026-05-16T09:24:21.317869+05:30
Saharanpur,Uttar Pradesh,29.9637,77.546,28.8,52,0.0,973.7,7.35,36.7,144,43.0,35.9,18.6,492.0,108.0,8.6,4,5,7,1,2026-05-16T09:24:21.317876+05:30
Jhansi,Uttar Pradesh,25.4484,78.5685,36.0,32,0.0,975.9,8.5,25.6,100,78.7,34.0,4.2,294.0,97.0,8.9,0,5,10,1,2026-05-16T09:24:24.548451+05:30
Surat,Gujarat,21.1702,72.8311,33.3,55,0.0,1005.0,7.75,36.7,72,38.6,23.3,19.1,187.0,37.0,50.7,0,5,4,1,2026-05-16T09:24:24.548486+05:30
Vadodara,Gujarat,22.3072,73.1812,32.7,52,0.0,1002.9,8.1,36.0,54,38.0,16.8,7.5,220.0,51.0,10.6,0,5,4,1,2026-05-16T09:24:24.548497+05:30
Rajkot,Gujarat,22.3039,70.8022,30.8,64,0.0,993.0,7.75,42.1,50,25.1,11.5,3.9,129.0,52.0,6.4,3,5,7,1,2026-05-16T09:24:24.548505+05:30
Thane,Maharashtra,19.2183,72.9781,32.5,59,0.0,1006.0,7.9,42.8,62,27.8,14.7,6.5,164.0,49.0,5.6,0,5,4,1,2026-05-16T09:24:24.548513+05:30
Nagpur,Maharashtra,21.1458,79.0882,36.2,24,0.0,970.4,8.7,37.4,91,20.1,13.5,6.4,290.0,99.0,9.9,0,5,10,0,2026-05-16T09:24:24.548521+05:30
Nashik,Maharashtra,19.9975,73.7898,29.8,60,0.0,944.7,8.2,36.7,47,20.1,10.7,2.6,141.0,51.0,0.7,4,5,7,1,2026-05-16T09:24:24.548528+05:30
Aurangabad,Maharashtra,19.8762,75.3433,32.5,34,0.0,943.1,9.1,37.8,55,14.4,10.2,3.9,166.0,67.0,2.2,0,5,7,0,2026-05-16T09:24:24.548535+05:30
Solapur,Maharashtra,17.6599,75.9064,33.3,29,0.0,955.6,8.5,29.2,87,19.1,14.6,6.3,185.0,87.0,7.6,0,5,7,0,2026-05-16T09:24:24.548543+05:30
Kolhapur,Maharashtra,16.705,74.2433,29.5,52,0.0,946.3,8.95,46.1,65,27.8,20.9,7.7,243.0,68.0,6.2,4,5,7,1,2026-05-16T09:24:24.548550+05:30
Goa,Goa,15.2993,74.124,30.8,65,0.0,995.8,8.9,36.0,68,24.4,17.2,2.5,174.0,65.0,1.8,3,5,7,1,2026-05-16T09:24:24.548557+05:30
Jodhpur,Rajasthan,26.2389,73.0243,34.2,34,0.0,981.3,8.45,33.8,115,210.9,40.5,4.1,166.0,58.0,3.1,0,5,7,1,2026-05-16T09:24:24.548564+05:30
Udaipur,Rajasthan,24.5854,73.7125,32.9,30,0.0,945.6,8.85,33.1,44,54.1,19.3,1.9,138.0,74.0,4.6,0,5,7,0,2026-05-16T09:24:24.548571+05:30
Kota,Rajasthan,25.2138,75.8648,35.5,25,0.0,976.7,8.45,36.4,66,38.6,11.8,3.0,178.0,70.0,3.0,0,5,10,0,2026-05-16T09:24:24.548577+05:30
Bikaner,Rajasthan,28.0229,73.3119,34.2,30,0.0,980.1,8.4,27.4,100,112.2,35.2,5.5,308.0,67.0,7.6,0,5,7,0,2026-05-16T09:24:24.548584+05:30
Ajmer,Rajasthan,26.4499,74.6399,33.1,29,0.0,953.6,8.4,24.8,74,55.3,17.5,3.7,181.0,67.0,4.4,0,5,7,0,2026-05-16T09:24:24.548590+05:30
Gwalior,Madhya Pradesh,26.2183,78.1828,35.8,33,0.0,981.2,8.25,34.6,130,129.5,42.3,4.6,315.0,99.0,9.6,0,5,10,1,2026-05-16T09:24:24.548597+05:30
Indore,Madhya Pradesh,22.7196,75.8577,32.8,35,0.0,947.4,8.7,36.0,50,27.8,17.1,6.4,274.0,73.0,12.0,0,5,7,0,2026-05-16T09:24:24.548604+05:30
Bhopal,Madhya Pradesh,23.2599,77.4126,35.3,19,0.0,952.3,8.7,40.7,61,18.4,9.5,2.7,211.0,97.0,5.2,0,5,10,0,2026-05-16T09:24:24.548611+05:30
Jabalpur,Madhya Pradesh,23.1815,79.9864,36.0,35,0.0,959.7,8.9,33.5,106,87.1,48.1,7.3,292.0,133.0,20.2,0,5,10,1,2026-05-16T09:24:24.548617+05:30
Ujjain,Madhya Pradesh,23.1765,75.7885,33.3,35,0.0,952.9,8.65,39.2,49,28.4,17.9,6.1,210.0,65.0,11.8,0,5,7,0,2026-05-16T09:24:24.548624+05:30
Visakhapatnam,Andhra Pradesh,17.6868,83.2185,33.2,57,0.0,1001.8,9.15,40.7,71,21.7,15.5,16.1,304.0,43.0,49.6,0,5,4,1,2026-05-16T09:24:24.548630+05:30
Vijayawada,Andhra Pradesh,16.5062,80.648,33.5,60,0.0,1000.3,9.2,36.0,69,15.6,10.4,4.1,151.0,60.0,7.7,0,5,4,1,2026-05-16T09:24:24.548637+05:30
Guntur,Andhra Pradesh,16.3067,80.4365,33.7,58,0.0,1001.5,9.25,34.9,73,16.6,10.4,3.9,147.0,50.0,4.8,0,5,4,1,2026-05-16T09:24:24.548643+05:30
Nellore,Andhra Pradesh,14.4426,79.9865,33.5,59,0.0,1003.0,9.2,36.4,38,9.1,6.7,4.8,158.0,63.0,6.9,0,5,4,1,2026-05-16T09:24:24.548650+05:30
Kurnool,Andhra Pradesh,15.8281,78.0373,34.7,46,0.0,974.7,7.7,31.3,130,42.7,21.8,4.6,219.0,75.0,7.7,0,5,7,1,2026-05-16T09:24:24.548657+05:30
Kakinada,Andhra Pradesh,16.9891,82.2475,32.8,65,0.0,1005.4,9.15,37.4,37,12.3,7.8,1.0,146.0,77.0,1.1,3,5,4,1,2026-05-16T09:24:24.548664+05:30
Tirupati,Andhra Pradesh,13.6288,79.4192,29.7,69,0.0,988.7,9.25,32.8,53,21.4,15.0,14.3,257.0,34.0,15.3,7,5,7,1,2026-05-16T09:24:24.548671+05:30
Warangal,Telangana,17.9689,79.5941,32.5,59,0.0,976.7,9.2,35.6,131,25.7,16.9,5.2,215.0,50.0,7.5,0,5,7,1,2026-05-16T09:24:24.548677+05:30
Nizamabad,Telangana,18.6725,78.0941,34.7,28,0.0,963.2,9.05,30.2,138,48.9,36.6,11.0,259.0,101.0,8.4,0,5,7,0,2026-05-16T09:24:24.548683+05:30
Mysore,Karnataka,12.2958,76.6396,26.1,69,0.0,927.1,6.45,37.1,97,51.0,32.2,19.1,308.0,61.0,4.7,7,5,7,1,2026-05-16T09:24:24.548690+05:30
Mangalore,Karnataka,12.9141,74.856,24.8,92,0.0,1005.7,8.5,38.2,63,23.0,16.9,6.2,308.0,69.0,3.0,3,5,4,1,2026-05-16T09:24:24.548696+05:30
Hubli-Dharwad,Karnataka,15.3647,75.124,29.9,59,0.0,939.3,8.5,43.9,78,21.1,15.5,5.0,272.0,70.0,2.6,4,5,7,1,2026-05-16T09:24:24.548703+05:30
Belgaum,Karnataka,15.8497,74.4977,29.9,43,0.0,924.5,9.2,42.8,68,26.6,18.6,7.4,206.0,72.0,3.7,4,5,7,0,2026-05-16T09:24:27.783074+05:30
Coimbatore,Tamil Nadu,11.0168,76.9558,28.2,71,0.0,959.8,9.0,34.6,81,38.5,23.8,11.8,300.0,75.0,6.1,7,5,7,1,2026-05-16T09:24:27.783110+05:30
Madurai,Tamil Nadu,9.9252,78.1198,31.2,57,0.0,990.6,9.05,24.5,80,31.7,23.9,16.0,328.0,81.0,12.4,0,5,7,1,2026-05-16T09:24:27.783127+05:30
Trichy,Tamil Nadu,10.7905,78.7047,30.2,72,0.0,997.3,5.25,34.9,83,25.0,19.6,14.4,229.0,65.0,10.8,3,5,3,1,2026-05-16T09:24:27.783135+05:30
Salem,Tamil Nadu,11.6643,78.146,30.2,63,0.0,975.3,8.95,28.4,129,61.5,41.1,24.2,386.0,56.0,13.1,3,5,7,1,2026-05-16T09:24:27.783143+05:30
Tirunelveli,Tamil Nadu,8.7139,77.7567,33.0,51,0.0,1000.6,8.5,31.7,51,16.0,11.6,4.2,237.0,85.0,3.1,0,5,4,1,2026-05-16T09:24:27.783151+05:30
Vellore,Tamil Nadu,12.9165,79.1325,29.5,66,0.0,982.1,9.25,24.5,91,48.4,38.4,14.9,520.0,44.0,10.3,7,5,7,1,2026-05-16T09:24:27.783158+05:30
Erode,Tamil Nadu,11.341,77.7172,30.4,62,0.0,987.0,8.75,23.8,90,36.7,26.2,22.2,359.0,58.0,5.8,3,5,7,1,2026-05-16T09:24:27.783165+05:30
Kochi,Kerala,9.9312,76.2673,26.5,86,0.0,1007.1,7.7,32.0,65,27.3,18.6,12.6,356.0,64.0,4.8,7,5,4,1,2026-05-16T09:24:27.783173+05:30
Thiruvananthapuram,Kerala,8.5241,76.9366,28.5,81,0.0,1006.3,8.15,36.0,50,26.9,15.1,2.2,270.0,97.0,1.4,7,5,4,1,2026-05-16T09:24:27.783180+05:30
Kozhikode,Kerala,11.2588,75.7804,26.7,92,0.0,1006.2,7.15,42.1,67,26.7,16.8,2.7,280.0,83.0,1.8,7,5,4,1,2026-05-16T09:24:27.783187+05:30
Thrissur,Kerala,10.5276,76.2144,26.4,84,0.0,1005.4,8.0,33.8,68,21.3,16.5,10.6,382.0,66.0,5.5,7,5,4,1,2026-05-16T09:24:27.783195+05:30
Kannur,Kerala,11.8745,75.3704,24.8,96,0.1,1006.0,7.85,39.6,69,14.3,11.7,7.1,232.0,64.0,3.0,6,5,4,1,2026-05-16T09:24:27.783203+05:30
Patna,Bihar,25.5941,85.1376,31.2,69,0.0,998.1,8.8,24.8,141,53.9,47.4,8.2,544.0,117.0,14.9,3,5,7,1,2026-05-16T09:24:27.783210+05:30
Gaya,Bihar,24.7914,85.0002,33.3,49,0.0,991.4,8.85,33.5,152,71.5,62.4,7.3,451.0,134.0,18.2,0,5,7,1,2026-05-16T09:24:27.783216+05:30
Muzaffarpur,Bihar,26.1209,85.3647,29.8,71,0.0,998.5,8.8,30.6,148,50.4,44.0,7.1,407.0,120.0,12.1,7,5,7,1,2026-05-16T09:24:27.783223+05:30
Bhagalpur,Bihar,25.2425,87.0117,29.8,69,0.0,999.6,8.8,29.9,127,44.9,38.2,10.2,376.0,107.0,21.0,7,5,7,1,2026-05-16T09:24:27.783229+05:30
Ranchi,Jharkhand,23.3441,85.3096,31.4,49,0.0,936.7,9.3,38.5,143,74.7,56.6,5.0,369.0,151.0,32.2,0,5,7,1,2026-05-16T09:24:27.783252+05:30
Jamshedpur,Jharkhand,22.8046,86.2029,32.6,59,0.0,988.5,9.1,35.3,127,38.5,28.0,11.8,379.0,81.0,28.2,0,5,7,1,2026-05-16T09:24:27.783259+05:30
Dhanbad,Jharkhand,23.7957,86.4304,32.8,52,0.0,977.7,9.05,24.5,158,93.4,74.0,37.8,864.0,102.0,92.7,0,5,7,1,2026-05-16T09:24:27.783266+05:30
Bokaro,Jharkhand,23.6693,86.1511,32.5,56,0.0,981.6,9.05,26.3,155,84.1,65.7,20.7,491.0,126.0,59.5,0,5,7,1,2026-05-16T09:24:27.783273+05:30
Bhubaneswar,Odisha,20.2961,85.8245,33.3,61,0.0,1000.6,9.2,44.6,46,20.6,10.9,2.3,165.0,59.0,3.1,3,5,4,1,2026-05-16T09:24:27.783280+05:30
Cuttack,Odisha,20.4625,85.8828,33.0,64,0.0,1002.3,9.25,43.6,46,20.6,10.9,2.3,182.0,59.0,3.1,3,5,4,1,2026-05-16T09:24:27.783286+05:30
Rourkela,Odisha,22.2604,84.8536,32.2,66,0.0,983.4,8.7,30.6,151,45.5,32.6,9.8,325.0,91.0,24.8,3,5,7,1,2026-05-16T09:24:27.783293+05:30
Raipur,Chhattisgarh,21.2514,81.6296,35.7,41,0.0,972.7,9.05,50.4,155,92.9,70.3,42.9,407.0,91.0,76.8,0,5,10,1,2026-05-16T09:24:27.783300+05:30
Bhilai,Chhattisgarh,21.1938,81.3509,34.5,44,0.0,973.0,9.05,52.9,154,86.4,65.0,38.2,815.0,95.0,71.4,0,5,7,1,2026-05-16T09:24:27.783307+05:30
Guwahati,Assam,26.1158,91.7086,23.4,98,0.7,1000.4,7.75,31.7,85,22.6,17.5,3.1,251.0,97.0,2.5,6,5,4,1,2026-05-16T09:24:27.783314+05:30
Agartala,Tripura,23.8315,91.2868,30.6,73,0.0,1004.8,5.9,34.2,68,24.9,13.4,6.8,172.0,59.0,2.5,3,5,0,1,2026-05-16T09:24:27.783321+05:30
Shillong,Meghalaya,25.5788,91.8933,19.7,88,0.1,855.4,6.5,43.9,52,5.8,4.2,3.9,255.0,85.0,2.5,6,10,7,1,2026-05-16T09:24:27.783328+05:30
Imphal,Manipur,24.817,93.9368,26.0,67,0.0,923.2,8.75,28.8,77,44.6,19.8,1.6,247.0,101.0,3.5,7,5,7,1,2026-05-16T09:24:27.783334+05:30
Aizawl,Mizoram,23.7271,92.7176,24.9,66,0.0,893.1,9.1,43.6,54,20.0,9.5,1.3,130.0,74.0,2.0,3,5,7,1,2026-05-16T09:24:27.783341+05:30
Kohima,Nagaland,25.6701,94.1077,24.4,59,0.1,856.3,9.0,29.2,52,44.8,18.7,0.9,220.0,107.0,3.2,3,5,7,0,2026-05-16T09:24:27.783348+05:30
Gangtok,Sikkim,27.3314,88.6138,18.3,89,0.0,836.9,9.1,37.4,70,16.8,12.0,1.8,308.0,141.0,4.1,3,10,7,1,2026-05-16T09:24:27.783355+05:30
Siliguri,West Bengal,26.7271,88.3953,24.5,87,0.0,992.4,8.6,24.1,95,42.8,31.0,3.8,402.0,147.0,5.9,3,5,7,1,2026-05-16T09:24:31.013407+05:30
Durgapur,West Bengal,23.5204,87.3119,32.5,67,0.0,992.8,9.0,32.8,132,57.3,47.0,30.0,674.0,63.0,74.0,3,5,7,1,2026-05-16T09:24:31.013444+05:30
Asansol,West Bengal,23.6739,86.9524,32.6,59,0.0,991.2,9.05,27.4,147,82.2,65.9,35.9,695.0,86.0,81.2,0,5,7,1,2026-05-16T09:24:31.013456+05:30
Pondicherry,Puducherry,11.9139,79.8145,30.0,74,0.0,1005.5,9.05,30.2,78,39.0,31.9,12.9,479.0,56.0,13.3,7,5,4,1,2026-05-16T09:24:31.013465+05:30
Port Blair,Andaman and Nicobar Islands,11.6234,92.7265,29.0,82,0.0,1007.2,6.2,41.4,30,10.0,6.2,0.4,130.0,62.0,0.3,7,5,4,1,2026-05-16T09:24:31.013474+05:30
Haridwar,Uttarakhand,29.9457,78.1642,29.9,49,0.0,971.8,7.5,34.2,96,32.4,21.8,5.8,284.0,124.0,4.0,4,5,7,1,2026-05-16T09:24:31.013481+05:30
Rishikesh,Uttarakhand,30.0869,78.2676,30.5,40,0.0,964.7,7.6,29.9,83,31.7,19.6,2.9,236.0,128.0,2.3,0,5,7,0,2026-05-16T09:24:31.013489+05:30
Nainital,Uttarakhand,29.3919,79.4542,21.7,39,0.0,807.4,8.45,38.2,95,35.0,20.2,2.4,197.0,136.0,2.8,0,5,7,0,2026-05-16T09:24:31.013497+05:30
Mussoorie,Uttarakhand,30.4599,78.0664,21.1,41,0.0,804.3,8.0,47.5,76,23.6,14.9,5.5,189.0,125.0,3.4,0,5,7,0,2026-05-16T09:24:31.013504+05:30
Dharamshala,Himachal Pradesh,32.219,76.3234,23.9,43,0.0,868.7,8.35,40.3,55,21.5,9.1,1.6,214.0,118.0,0.3,0,5,7,0,2026-05-16T09:24:31.013512+05:30
Dalhousie,Himachal Pradesh,32.5387,75.971,21.1,37,0.0,805.5,8.6,40.7,73,33.2,15.3,5.5,231.0,118.0,1.2,0,5,7,0,2026-05-16T09:24:31.013519+05:30
Patiala,Punjab,30.3398,76.3869,32.2,40,0.0,976.2,7.6,38.2,208,263.6,68.0,9.0,500.0,98.0,9.2,0,5,7,1,2026-05-16T09:24:31.013526+05:30
Bhatinda,Punjab,30.211,74.9455,32.7,38,0.0,982.0,8.3,32.4,119,56.7,47.6,13.5,495.0,93.0,12.6,0,5,7,1,2026-05-16T09:24:31.013533+05:30
Rohtak,Haryana,28.8955,76.6066,32.8,39,0.0,979.8,7.75,40.7,463,285.9,97.6,18.5,483.0,86.0,10.5,0,5,7,1,2026-05-16T09:24:31.013539+05:30
Panipat,Haryana,29.3909,76.9635,32.2,40,0.0,978.4,7.55,40.0,854,363.2,104.5,11.5,431.0,85.0,8.5,0,5,7,1,2026-05-16T09:24:31.013546+05:30
Mathura,Uttar Pradesh,27.4924,77.6737,34.0,38,0.0,985.0,8.0,29.5,438,338.1,101.0,13.8,502.0,114.0,15.6,0,5,7,1,2026-05-16T09:24:31.013553+05:30
Vrindavan,Uttar Pradesh,27.5823,77.7027,33.8,38,0.0,985.4,7.95,28.4,438,338.1,101.0,13.8,494.0,114.0,15.6,0,5,7,1,2026-05-16T09:24:31.013560+05:30
Ayodhya,Uttar Pradesh,26.7922,82.1998,32.7,57,0.0,993.3,8.35,29.9,158,96.2,74.7,15.5,442.0,107.0,11.8,0,5,7,1,2026-05-16T09:24:31.013568+05:30
Ratlam,Madhya Pradesh,23.3315,75.0367,32.0,49,0.0,953.9,8.55,34.9,46,28.3,17.7,6.4,169.0,57.0,12.2,0,5,7,1,2026-05-16T09:24:31.013574+05:30
Sagar,Madhya Pradesh,23.8388,78.7378,36.3,27,0.0,948.8,8.75,36.0,85,67.1,28.5,3.7,281.0,111.0,7.8,0,5,10,0,2026-05-16T09:24:31.013581+05:30
Satna,Madhya Pradesh,24.6005,80.8322,36.6,33,0.0,969.3,8.75,32.8,116,111.5,53.4,5.8,337.0,142.0,16.3,0,5,10,1,2026-05-16T09:24:31.013588+05:30
Akola,Maharashtra,20.7002,77.0082,35.7,27,0.0,973.0,8.45,43.2,57,15.9,13.4,4.4,189.0,106.0,12.3,0,5,10,0,2026-05-16T09:24:31.013595+05:30
Amravati,Maharashtra,20.9374,77.7796,36.8,20,0.0,965.0,8.9,38.9,58,14.3,11.8,4.4,193.0,111.0,10.1,0,5,10,0,2026-05-16T09:24:31.013603+05:30
Latur,Maharashtra,18.4088,76.5604,33.5,27,0.0,938.8,8.0,36.4,85,17.8,13.4,5.5,183.0,91.0,6.4,0,5,7,0,2026-05-16T09:24:31.013611+05:30
Nanded,Maharashtra,19.1383,77.3091,34.8,28,0.0,967.0,8.05,28.1,89,22.3,20.0,5.8,233.0,128.0,13.6,0,5,7,0,2026-05-16T09:24:31.013618+05:30
Gulbarga,Karnataka,17.3297,76.8343,35.0,27,0.0,956.8,8.75,35.6,124,39.1,30.5,18.5,307.0,77.0,10.0,0,5,7,0,2026-05-16T09:24:31.013624+05:30
Bidar,Karnataka,17.9104,77.5199,34.3,27,0.0,934.6,9.1,30.2,142,43.9,32.2,11.2,281.0,98.0,8.2,0,5,7,0,2026-05-16T09:24:31.013631+05:30
Hospet,Karnataka,15.2689,76.3909,30.6,57,0.0,953.9,8.4,36.7,92,19.2,15.6,8.5,310.0,66.0,3.1,0,5,7,1,2026-05-16T09:24:31.013638+05:30
Tirupur,Tamil Nadu,11.1085,77.3411,30.6,58,0.0,973.2,9.05,33.1,93,43.9,31.4,24.0,262.0,57.0,7.9,0,5,7,1,2026-05-16T09:24:31.013644+05:30
Alappuzha,Kerala,9.4981,76.3388,27.5,83,0.0,1007.3,2.45,32.8,60,31.7,18.2,6.6,217.0,87.0,2.5,7,5,0,1,2026-05-16T09:24:31.013651+05:30
Munnar,Kerala,10.0889,77.0595,21.5,70,0.0,856.3,9.4,23.8,57,17.2,11.5,5.1,223.0,89.0,2.5,3,5,7,0,2026-05-16T09:24:31.013658+05:30
Silchar,Assam,24.8333,92.7789,27.5,74,0.0,1004.7,8.75,25.6,72,29.0,17.1,2.4,259.0,89.0,3.8,7,5,4,1,2026-05-16T09:24:31.013664+05:30
Dibrugarh,Assam,27.4728,94.912,27.5,69,0.0,995.2,8.85,26.3,96,38.1,25.0,1.9,237.0,113.0,1.3,7,5,7,1,2026-05-16T09:24:31.013670+05:30
