city,state,latitude,longitude,temp,humidity,rain,pressure,uv_index,wind_gusts,aqi,pm10,pm2_5,mosquito_risk,arthritis_risk,migraine_risk,frizz_risk,updated_at
Delhi,Delhi,28.6139,77.209,20.1,77,0.0,985.3,5.9,18.0,406,318.5,104.8,3,5,3,0,2026-03-06T07:53:47.035680+05:30
Mumbai,Maharashtra,19.076,72.8777,27.5,61,0.0,1010.4,7.4,24.8,100,36.4,34.6,7,0,4,1,2026-03-06T07:53:47.035718+05:30
Bangalore,Karnataka,12.9716,77.5946,20.7,65,0.0,912.7,9.15,24.5,97,60.1,55.3,3,5,7,0,2026-03-06T07:53:47.035733+05:30
Hyderabad,Telangana,17.385,78.4867,21.8,53,0.0,954.7,8.5,25.6,103,39.1,36.8,0,5,7,0,2026-03-06T07:53:47.035743+05:30
Chennai,Tamil Nadu,13.0827,80.2707,24.6,88,0.0,1009.4,8.9,31.3,78,24.7,22.6,3,0,4,1,2026-03-06T07:53:47.035752+05:30
Kolkata,West Bengal,22.5726,88.3639,23.5,92,0.0,1010.5,7.8,14.8,166,117.8,109.7,3,0,4,1,2026-03-06T07:53:47.035761+05:30
Pune,Maharashtra,18.5204,73.8567,21.9,53,0.0,950.4,8.0,28.8,91,56.7,54.2,0,5,7,0,2026-03-06T07:53:47.035772+05:30
Ahmedabad,Gujarat,23.0225,72.5714,20.0,91,0.0,1006.5,7.25,21.2,69,22.8,19.7,3,5,4,1,2026-03-06T07:53:47.035780+05:30
Jaipur,Rajasthan,26.9124,75.7873,22.3,43,0.0,962.4,6.7,20.9,98,152.3,28.2,0,5,7,0,2026-03-06T07:53:47.035788+05:30
Lucknow,Uttar Pradesh,26.8467,80.9462,21.2,80,0.0,996.7,6.4,22.7,169,122.9,96.4,3,5,7,1,2026-03-06T07:53:47.035795+05:30
Kanpur,Uttar Pradesh,26.4499,80.3319,20.4,91,0.0,994.7,6.4,14.8,178,266.4,108.7,3,5,7,1,2026-03-06T07:53:47.035802+05:30
Chandigarh,Chandigarh,30.7333,76.7794,19.7,66,0.0,970.3,5.8,21.6,109,53.3,41.9,3,5,3,0,2026-03-06T07:53:47.035809+05:30
Srinagar,Jammu and Kashmir,34.0837,74.7973,8.2,71,0.0,841.3,6.7,16.6,139,79.4,58.9,3,5,7,0,2026-03-06T07:53:47.035816+05:30
Jammu,Jammu and Kashmir,32.7266,74.857,16.9,86,0.0,973.6,6.45,19.8,119,47.4,41.3,3,10,7,0,2026-03-06T07:53:47.035823+05:30
Amritsar,Punjab,31.634,74.8723,18.4,85,0.0,982.4,6.05,14.4,153,128.5,109.9,3,10,7,0,2026-03-06T07:53:47.035829+05:30
Ludhiana,Punjab,30.901,75.8573,19.9,85,0.0,980.6,6.05,14.4,161,111.8,97.6,3,10,7,1,2026-03-06T07:53:47.035836+05:30
Jalandhar,Punjab,31.326,75.5762,17.5,99,0.0,981.6,6.15,15.8,162,131.8,110.8,3,10,7,1,2026-03-06T07:53:47.035845+05:30
Dehradun,Uttarakhand,30.6284,78.0322,12.6,56,0.0,829.1,6.15,26.6,77,24.7,22.0,0,5,7,0,2026-03-06T07:53:47.035852+05:30
Shimla,Himachal Pradesh,31.1048,77.1734,12.6,51,0.0,784.1,6.25,30.6,73,38.9,28.2,0,5,7,0,2026-03-06T07:53:47.035859+05:30
Manali,Himachal Pradesh,32.2396,77.1887,18.4,15,0.0,822.4,7.2,37.4,63,36.3,23.0,0,5,7,1,2026-03-06T07:53:47.035881+05:30
Gurgaon,Haryana,28.4595,77.0266,18.5,80,0.0,983.7,6.0,16.2,1258,349.2,102.4,3,5,3,0,2026-03-06T07:53:47.035890+05:30
Noida,Uttar Pradesh,28.5355,77.391,20.6,76,0.0,986.8,5.9,17.3,1258,349.2,102.4,3,5,3,1,2026-03-06T07:53:47.035897+05:30
Ghaziabad,Uttar Pradesh,28.6692,77.4538,20.3,82,0.0,985.0,5.9,13.7,290,338.1,124.3,3,5,3,1,2026-03-06T07:53:47.035903+05:30
Faridabad,Haryana,28.4089,77.3178,20.5,72,0.0,986.0,5.95,16.9,1258,349.2,102.4,3,5,3,0,2026-03-06T07:53:47.035910+05:30
Meerut,Uttar Pradesh,28.9845,77.7064,18.5,99,0.0,983.6,5.75,11.2,290,338.1,124.3,3,10,3,1,2026-03-06T07:53:47.035916+05:30
Agra,Uttar Pradesh,27.1767,78.0081,17.7,81,0.0,990.3,6.3,20.2,523,446.1,110.1,3,10,7,0,2026-03-06T07:53:47.035923+05:30
Varanasi,Uttar Pradesh,25.3176,82.9739,20.8,87,0.0,1000.9,7.1,16.6,163,157.9,102.4,3,5,4,1,2026-03-06T07:53:47.035932+05:30
Prayagraj,Uttar Pradesh,25.4358,81.8463,21.0,88,0.0,999.1,6.95,14.8,167,170.9,116.2,3,5,7,1,2026-03-06T07:53:47.035939+05:30
Gorakhpur,Uttar Pradesh,26.7606,83.3732,19.5,88,0.0,1000.9,6.8,20.9,171,108.7,101.7,3,10,4,1,2026-03-06T07:53:47.035948+05:30
Bareilly,Uttar Pradesh,28.367,79.4304,19.5,92,0.0,989.8,6.1,20.9,166,105.7,86.1,3,10,7,1,2026-03-06T07:53:47.035954+05:30
Aligarh,Uttar Pradesh,27.8974,78.088,19.3,83,0.0,988.0,6.05,19.1,682,433.1,136.0,3,10,7,1,2026-03-06T07:53:47.035963+05:30
Moradabad,Uttar Pradesh,28.8386,78.7733,19.5,92,0.0,986.3,5.9,24.1,173,99.0,87.5,3,10,3,1,2026-03-06T07:53:47.035969+05:30
Saharanpur,Uttar Pradesh,29.9637,77.546,18.8,93,0.0,977.9,5.55,25.6,160,89.4,70.5,3,10,3,1,2026-03-06T07:53:47.035975+05:30
Jhansi,Uttar Pradesh,25.4484,78.5685,21.2,57,0.0,980.3,6.9,25.2,61,33.2,18.0,0,5,7,0,2026-03-06T07:53:50.243975+05:30
Surat,Gujarat,21.1702,72.8311,22.4,80,0.0,1010.3,7.15,22.7,121,38.6,38.0,3,0,4,1,2026-03-06T07:53:50.244014+05:30
Vadodara,Gujarat,22.3072,73.1812,20.7,86,0.0,1008.5,7.25,19.1,94,34.7,34.0,3,0,4,1,2026-03-06T07:53:50.244029+05:30
Rajkot,Gujarat,22.3039,70.8022,20.4,95,0.0,998.4,7.1,23.4,56,20.8,14.2,3,5,7,1,2026-03-06T07:53:50.244041+05:30
Thane,Maharashtra,19.2183,72.9781,24.7,57,0.0,1009.9,7.4,36.7,100,36.4,34.6,0,0,4,0,2026-03-06T07:53:50.244053+05:30
Nagpur,Maharashtra,21.1458,79.0882,21.2,59,0.0,975.6,7.85,25.6,55,23.6,17.2,0,5,7,0,2026-03-06T07:53:50.244065+05:30
Nashik,Maharashtra,19.9975,73.7898,22.0,48,0.0,947.9,7.6,34.2,72,27.3,25.0,0,5,7,0,2026-03-06T07:53:50.244077+05:30
Aurangabad,Maharashtra,19.8762,75.3433,21.9,49,0.0,946.4,8.1,24.5,66,27.3,24.4,0,5,7,0,2026-03-06T07:53:50.244089+05:30
Solapur,Maharashtra,17.6599,75.9064,20.7,63,0.0,959.1,8.4,19.8,73,29.4,27.5,3,5,7,0,2026-03-06T07:53:50.244101+05:30
Kolhapur,Maharashtra,16.705,74.2433,21.9,54,0.0,949.6,8.55,32.4,150,78.5,76.8,0,5,7,0,2026-03-06T07:53:50.244111+05:30
Goa,Goa,15.2993,74.124,24.0,88,0.0,999.5,8.6,31.3,156,79.2,77.3,3,5,7,1,2026-03-06T07:53:50.244121+05:30
Jodhpur,Rajasthan,26.2389,73.0243,18.9,54,0.0,986.2,6.95,21.6,67,76.8,19.8,0,5,7,0,2026-03-06T07:53:50.244132+05:30
Udaipur,Rajasthan,24.5854,73.7125,16.5,38,0.0,948.8,7.6,20.5,43,11.7,11.3,0,5,7,0,2026-03-06T07:53:50.244143+05:30
Kota,Rajasthan,25.2138,75.8648,18.7,65,0.0,981.6,7.0,17.6,76,18.1,15.2,3,5,7,0,2026-03-06T07:53:50.244155+05:30
Bikaner,Rajasthan,28.0229,73.3119,20.2,55,0.0,984.3,6.65,20.9,59,67.1,18.7,0,5,7,0,2026-03-06T07:53:50.244166+05:30
Ajmer,Rajasthan,26.4499,74.6399,18.3,48,0.0,957.2,6.95,23.8,65,22.8,11.2,0,5,7,0,2026-03-06T07:53:50.244177+05:30
Gwalior,Madhya Pradesh,26.2183,78.1828,20.8,68,0.0,985.6,6.6,22.0,85,59.5,26.7,3,5,7,0,2026-03-06T07:53:50.244192+05:30
Indore,Madhya Pradesh,22.7196,75.8577,17.2,64,0.0,950.3,7.55,22.7,75,19.5,19.0,3,5,7,0,2026-03-06T07:53:50.244204+05:30
Bhopal,Madhya Pradesh,23.2599,77.4126,19.0,58,0.0,955.9,7.4,24.8,68,43.2,32.5,0,5,7,0,2026-03-06T07:53:50.244216+05:30
Jabalpur,Madhya Pradesh,23.1815,79.9864,18.4,77,0.0,963.7,7.5,27.7,62,44.2,30.6,3,5,7,0,2026-03-06T07:53:50.244229+05:30
Ujjain,Madhya Pradesh,23.1765,75.7885,17.1,68,0.0,956.2,7.45,19.1,88,20.4,19.8,3,5,7,0,2026-03-06T07:53:50.244239+05:30
Visakhapatnam,Andhra Pradesh,17.6868,83.2185,24.7,93,0.0,1005.5,8.45,36.7,141,57.0,54.0,3,5,4,1,2026-03-06T07:53:50.244246+05:30
Vijayawada,Andhra Pradesh,16.5062,80.648,24.1,81,0.0,1004.2,8.55,18.4,132,73.3,71.5,3,5,4,1,2026-03-06T07:53:50.244253+05:30
Guntur,Andhra Pradesh,16.3067,80.4365,24.6,77,0.0,1005.5,8.55,16.9,113,66.4,64.0,3,5,4,1,2026-03-06T07:53:50.244260+05:30
Nellore,Andhra Pradesh,14.4426,79.9865,24.5,75,0.0,1007.6,8.75,29.9,91,35.0,33.8,3,5,4,1,2026-03-06T07:53:50.244267+05:30
Kurnool,Andhra Pradesh,15.8281,78.0373,24.4,54,0.0,978.7,8.55,23.8,76,33.9,31.2,0,5,7,0,2026-03-06T07:53:50.244275+05:30
Kakinada,Andhra Pradesh,16.9891,82.2475,24.7,91,0.0,1009.1,8.5,35.3,121,46.0,42.5,3,0,4,1,2026-03-06T07:53:50.244282+05:30
Tirupati,Andhra Pradesh,13.6288,79.4192,22.8,74,0.0,993.8,8.85,29.5,111,53.4,52.2,3,5,7,1,2026-03-06T07:53:50.244288+05:30
Warangal,Telangana,17.9689,79.5941,24.5,50,0.0,980.5,8.3,26.3,81,27.5,27.0,0,5,7,0,2026-03-06T07:53:50.244295+05:30
Nizamabad,Telangana,18.6725,78.0941,23.2,50,0.0,967.2,8.2,31.3,89,41.0,38.8,0,5,7,0,2026-03-06T07:53:50.244301+05:30
Mysore,Karnataka,12.2958,76.6396,21.2,93,0.0,929.7,9.2,35.6,117,58.3,57.5,3,5,7,1,2026-03-06T07:53:50.244307+05:30
Mangalore,Karnataka,12.9141,74.856,28.0,84,0.0,1008.3,8.8,24.5,126,54.5,51.5,7,0,4,1,2026-03-06T07:53:50.244314+05:30
Hubli-Dharwad,Karnataka,15.3647,75.124,19.4,84,0.0,941.7,8.75,35.3,87,58.3,56.7,3,10,7,1,2026-03-06T07:53:50.244321+05:30
Belgaum,Karnataka,15.8497,74.4977,20.5,64,0.0,926.5,8.8,38.9,118,59.6,58.3,3,5,7,0,2026-03-06T07:53:53.454558+05:30
Coimbatore,Tamil Nadu,11.0168,76.9558,22.5,82,0.0,963.8,9.15,37.8,107,64.3,62.6,3,5,7,1,2026-03-06T07:53:53.454593+05:30
Madurai,Tamil Nadu,9.9252,78.1198,23.4,94,0.0,995.6,9.15,27.4,88,49.0,47.8,3,5,7,1,2026-03-06T07:53:53.454606+05:30
Trichy,Tamil Nadu,10.7905,78.7047,22.9,98,0.0,1002.5,9.05,25.2,90,40.7,39.5,3,5,4,1,2026-03-06T07:53:53.454616+05:30
Salem,Tamil Nadu,11.6643,78.146,23.2,84,0.0,979.8,9.05,15.5,99,54.8,52.5,3,5,7,1,2026-03-06T07:53:53.454623+05:30
Tirunelveli,Tamil Nadu,8.7139,77.7567,23.7,77,0.0,1005.8,9.15,49.0,88,47.5,46.9,3,5,4,1,2026-03-06T07:53:53.454631+05:30
Vellore,Tamil Nadu,12.9165,79.1325,22.5,83,0.0,987.0,8.95,32.8,115,61.2,59.6,3,5,7,1,2026-03-06T07:53:53.454639+05:30
Erode,Tamil Nadu,11.341,77.7172,23.7,83,0.0,991.6,9.05,19.8,91,42.4,40.3,3,5,7,1,2026-03-06T07:53:53.454646+05:30
Kochi,Kerala,9.9312,76.2673,27.3,82,0.0,1010.6,9.0,33.1,140,53.7,52.4,7,0,4,1,2026-03-06T07:53:53.454653+05:30
Thiruvananthapuram,Kerala,8.5241,76.9366,27.7,78,0.0,1009.9,9.0,32.4,87,28.8,26.4,7,0,4,1,2026-03-06T07:53:53.454660+05:30
Kozhikode,Kerala,11.2588,75.7804,27.5,87,0.0,1009.7,8.9,26.3,113,47.5,44.6,7,0,4,1,2026-03-06T07:53:53.454666+05:30
Thrissur,Kerala,10.5276,76.2144,26.7,89,0.0,1008.9,8.95,33.5,130,60.3,58.3,7,0,4,1,2026-03-06T07:53:53.454674+05:30
Kannur,Kerala,11.8745,75.3704,26.8,79,0.0,1008.9,8.85,29.5,118,46.7,44.7,7,0,4,1,2026-03-06T07:53:53.454681+05:30
Patna,Bihar,25.5941,85.1376,22.3,78,0.0,1004.4,7.25,23.4,163,112.0,100.8,3,5,4,1,2026-03-06T07:53:53.454688+05:30
Gaya,Bihar,24.7914,85.0002,21.0,86,0.0,997.3,7.35,22.7,153,98.3,88.0,3,5,7,1,2026-03-06T07:53:53.454694+05:30
Muzaffarpur,Bihar,26.1209,85.3647,20.9,83,0.0,1004.7,7.2,22.7,170,125.7,114.3,3,5,4,1,2026-03-06T07:53:53.454701+05:30
Bhagalpur,Bihar,25.2425,87.0117,22.8,81,0.0,1005.6,7.3,18.7,162,114.1,101.7,3,5,4,1,2026-03-06T07:53:53.454707+05:30
Ranchi,Jharkhand,23.3441,85.3096,20.5,69,0.0,940.0,8.0,28.4,127,101.7,71.7,3,5,7,0,2026-03-06T07:53:53.454714+05:30
Jamshedpur,Jharkhand,22.8046,86.2029,23.5,79,0.0,994.5,7.9,24.1,153,102.9,78.7,3,5,7,1,2026-03-06T07:53:53.454720+05:30
Dhanbad,Jharkhand,23.7957,86.4304,24.0,60,0.0,983.5,7.75,29.9,168,169.0,149.9,0,5,7,0,2026-03-06T07:53:53.454726+05:30
Bokaro,Jharkhand,23.6693,86.1511,23.2,68,0.0,987.6,7.8,30.2,172,180.2,158.3,3,5,7,1,2026-03-06T07:53:53.454733+05:30
Bhubaneswar,Odisha,20.2961,85.8245,25.4,84,0.0,1005.9,8.2,32.0,151,61.0,51.2,7,5,4,1,2026-03-06T07:53:53.454739+05:30
Cuttack,Odisha,20.4625,85.8828,25.6,85,0.0,1008.0,8.25,34.6,151,61.0,51.2,7,0,4,1,2026-03-06T07:53:53.454746+05:30
Rourkela,Odisha,22.2604,84.8536,22.0,71,0.0,988.0,7.8,13.0,123,76.6,51.8,3,5,7,1,2026-03-06T07:53:53.454753+05:30
Raipur,Chhattisgarh,21.2514,81.6296,23.4,48,0.0,977.0,7.9,22.7,89,48.7,40.3,0,5,7,0,2026-03-06T07:53:53.454759+05:30
Bhilai,Chhattisgarh,21.1938,81.3509,23.6,48,0.0,977.4,7.95,23.8,75,44.8,35.7,0,5,7,0,2026-03-06T07:53:53.454765+05:30
Guwahati,Assam,26.1158,91.7086,25.3,77,0.0,1006.4,7.25,20.5,150,75.0,70.5,7,5,4,1,2026-03-06T07:53:53.454772+05:30
Agartala,Tripura,23.8315,91.2868,24.3,80,0.0,1010.3,7.6,17.3,160,87.5,80.6,3,0,4,1,2026-03-06T07:53:53.454779+05:30
Shillong,Meghalaya,25.5788,91.8933,16.4,56,0.0,860.0,7.6,35.3,124,52.0,47.3,0,5,7,0,2026-03-06T07:53:53.454785+05:30
Imphal,Manipur,24.817,93.9368,20.6,69,0.0,927.5,7.8,33.8,152,86.6,84.1,3,5,7,0,2026-03-06T07:53:53.454792+05:30
Aizawl,Mizoram,23.7271,92.7176,20.1,68,0.0,896.2,7.75,33.8,172,162.5,158.8,3,5,7,0,2026-03-06T07:53:53.454799+05:30
Kohima,Nagaland,25.6701,94.1077,18.1,55,0.0,859.3,7.65,43.6,149,71.2,67.5,0,5,7,0,2026-03-06T07:53:53.454805+05:30
Gangtok,Sikkim,27.3314,88.6138,15.0,89,0.0,840.9,7.55,16.6,99,37.8,33.8,3,10,7,0,2026-03-06T07:53:53.454812+05:30
Siliguri,West Bengal,26.7271,88.3953,22.1,62,0.0,998.6,7.2,16.6,134,63.8,61.2,3,5,7,0,2026-03-06T07:53:56.668411+05:30
Durgapur,West Bengal,23.5204,87.3119,24.3,66,0.0,999.1,7.75,25.9,160,142.5,121.5,3,5,7,1,2026-03-06T07:53:56.668443+05:30
Asansol,West Bengal,23.6739,86.9524,24.6,64,0.0,997.6,7.75,22.3,159,132.2,113.6,3,5,7,1,2026-03-06T07:53:56.668456+05:30
Pondicherry,Puducherry,11.9139,79.8145,23.4,91,0.0,1011.0,8.9,24.5,68,30.3,27.1,3,0,4,1,2026-03-06T07:53:56.668465+05:30
Port Blair,Andaman and Nicobar Islands,11.6234,92.7265,26.2,73,0.0,1010.6,8.85,14.4,51,19.7,12.1,7,0,4,1,2026-03-06T07:53:56.668475+05:30
Haridwar,Uttarakhand,29.9457,78.1642,19.7,88,0.0,976.7,5.7,26.3,150,66.6,53.8,3,10,3,1,2026-03-06T07:53:56.668488+05:30
Rishikesh,Uttarakhand,30.0869,78.2676,20.3,81,0.0,969.5,5.75,23.0,135,64.3,52.0,3,5,3,1,2026-03-06T07:53:56.668497+05:30
Nainital,Uttarakhand,29.3919,79.4542,15.9,79,0.0,806.8,6.55,42.5,157,115.5,83.1,3,5,7,0,2026-03-06T07:53:56.668506+05:30
Mussoorie,Uttarakhand,30.4599,78.0664,14.6,67,0.0,802.8,6.05,36.0,128,62.2,47.3,3,5,7,0,2026-03-06T07:53:56.668514+05:30
Dharamshala,Himachal Pradesh,32.219,76.3234,21.8,24,0.0,870.5,5.6,22.0,55,25.8,13.9,0,5,3,0,2026-03-06T07:53:56.668523+05:30
Dalhousie,Himachal Pradesh,32.5387,75.971,17.8,28,0.0,804.8,5.8,23.4,91,33.4,26.8,0,5,3,1,2026-03-06T07:53:56.668532+05:30
Patiala,Punjab,30.3398,76.3869,19.8,86,0.0,980.0,5.7,13.0,196,95.5,82.7,3,10,3,1,2026-03-06T07:53:56.668541+05:30
Bhatinda,Punjab,30.211,74.9455,19.1,76,0.0,985.6,6.4,17.6,148,92.0,82.2,3,5,7,0,2026-03-06T07:53:56.668549+05:30
Rohtak,Haryana,28.8955,76.6066,18.8,80,0.0,983.9,5.9,16.9,504,250.5,87.1,3,5,3,0,2026-03-06T07:53:56.668557+05:30
Panipat,Haryana,29.3909,76.9635,19.4,91,0.0,982.4,5.7,11.2,1025,426.5,111.3,3,10,3,1,2026-03-06T07:53:56.668565+05:30
Mathura,Uttar Pradesh,27.4924,77.6737,18.4,70,0.0,989.3,6.2,19.8,635,430.3,101.5,3,5,7,0,2026-03-06T07:53:56.668573+05:30
Vrindavan,Uttar Pradesh,27.5823,77.7027,19.8,68,0.0,989.7,6.15,19.8,635,430.3,101.5,3,5,7,0,2026-03-06T07:53:56.668580+05:30
Ayodhya,Uttar Pradesh,26.7922,82.1998,19.8,87,0.0,998.9,6.55,21.6,168,128.1,105.5,3,10,7,1,2026-03-06T07:53:56.668588+05:30
Ratlam,Madhya Pradesh,23.3315,75.0367,20.3,53,0.0,957.2,7.4,19.1,76,17.6,17.1,0,5,7,0,2026-03-06T07:53:56.668596+05:30
Sagar,Madhya Pradesh,23.8388,78.7378,19.3,62,0.0,952.0,7.35,23.4,56,36.0,19.6,3,5,7,0,2026-03-06T07:53:56.668604+05:30
Satna,Madhya Pradesh,24.6005,80.8322,21.2,60,0.0,973.9,7.3,32.4,74,119.2,34.5,0,5,7,0,2026-03-06T07:53:56.668612+05:30
Akola,Maharashtra,20.7002,77.0082,20.5,68,0.0,977.8,7.85,19.8,76,35.9,30.0,3,5,7,0,2026-03-06T07:53:56.668621+05:30
Amravati,Maharashtra,20.9374,77.7796,20.6,55,0.0,969.8,7.8,15.8,74,38.1,31.0,0,5,7,0,2026-03-06T07:53:56.668629+05:30
Latur,Maharashtra,18.4088,76.5604,19.8,55,0.0,941.6,8.3,32.4,76,28.6,25.7,0,5,7,0,2026-03-06T07:53:56.668637+05:30
Nanded,Maharashtra,19.1383,77.3091,18.1,68,0.0,971.1,8.1,20.5,95,38.2,35.4,3,5,7,0,2026-03-06T07:53:56.668644+05:30
Gulbarga,Karnataka,17.3297,76.8343,23.1,44,0.0,960.7,8.4,34.2,77,35.0,32.9,0,5,7,0,2026-03-06T07:53:56.668652+05:30
Bidar,Karnataka,17.9104,77.5199,21.8,49,0.0,937.3,8.35,32.8,81,38.3,35.7,0,5,7,0,2026-03-06T07:53:56.668658+05:30
Hospet,Karnataka,15.2689,76.3909,22.0,79,0.0,957.7,8.75,22.7,98,61.5,59.5,3,5,7,1,2026-03-06T07:53:56.668664+05:30
Tirupur,Tamil Nadu,11.1085,77.3411,23.8,88,0.0,977.6,9.2,28.4,114,66.6,64.5,3,5,7,1,2026-03-06T07:53:56.668669+05:30
Alappuzha,Kerala,9.4981,76.3388,27.2,81,0.0,1010.8,9.0,30.6,119,43.3,41.0,7,0,4,1,2026-03-06T07:53:56.668676+05:30
Munnar,Kerala,10.0889,77.0595,18.5,74,0.0,857.0,9.5,29.2,92,38.2,37.4,3,5,7,0,2026-03-06T07:53:56.668683+05:30
Silchar,Assam,24.8333,92.7789,23.6,76,0.0,1009.7,7.55,12.6,161,110.4,106.6,3,0,4,1,2026-03-06T07:53:56.668689+05:30
Dibrugarh,Assam,27.4728,94.912,22.2,80,0.0,1000.5,7.25,14.8,110,36.6,34.7,3,5,4,1,2026-03-06T07:53:56.668695+05:30
