city,state,latitude,longitude,temp,humidity,rain,pressure,uv_index,wind_gusts,aqi,pm10,pm2_5,no2,co,o3,so2,mosquito_risk,arthritis_risk,migraine_risk,frizz_risk,updated_at
Delhi,Delhi,28.6139,77.209,26.6,93,1.2,975.0,5.55,29.9,122,15.8,15.7,16.4,530.0,98.0,20.6,10,5,3,1,2026-07-08T11:24:37.957078+05:30
Mumbai,Maharashtra,19.076,72.8777,29.6,75,0.0,1004.2,6.4,57.2,55,31.1,16.5,8.4,297.0,46.0,5.8,7,5,4,1,2026-07-08T11:24:37.957106+05:30
Bangalore,Karnataka,12.9716,77.5946,27.3,58,0.0,912.2,8.4,68.0,28,19.2,8.6,3.9,224.0,52.0,2.6,4,5,7,1,2026-07-08T11:24:37.957116+05:30
Hyderabad,Telangana,17.385,78.4867,29.8,59,0.0,949.5,8.2,59.4,23,4.6,3.5,2.6,192.0,61.0,3.6,4,5,7,1,2026-07-08T11:24:37.957121+05:30
Chennai,Tamil Nadu,13.0827,80.2707,36.0,40,0.0,1005.5,8.0,56.9,62,14.6,10.0,5.8,199.0,74.0,8.7,0,5,7,1,2026-07-08T11:24:37.957126+05:30
Kolkata,West Bengal,22.5726,88.3639,29.7,82,0.0,1001.8,7.85,32.4,69,29.9,20.8,5.2,265.0,87.0,8.3,7,5,4,1,2026-07-08T11:24:37.957130+05:30
Pune,Maharashtra,18.5204,73.8567,25.3,82,0.1,944.0,7.25,55.1,21,9.6,5.0,8.0,168.0,41.0,4.4,10,5,7,1,2026-07-08T11:24:37.957134+05:30
Ahmedabad,Gujarat,23.0225,72.5714,30.4,75,0.0,994.7,6.45,32.0,86,58.3,23.7,4.8,188.0,61.0,5.2,3,5,7,1,2026-07-08T11:24:37.957137+05:30
Jaipur,Rajasthan,26.9124,75.7873,30.7,67,0.0,951.4,8.1,32.0,63,105.2,36.8,4.0,268.0,116.0,5.5,3,5,7,1,2026-07-08T11:24:37.957141+05:30
Lucknow,Uttar Pradesh,26.8467,80.9462,31.2,71,0.0,984.7,7.2,45.4,76,25.1,24.0,4.2,248.0,124.0,14.3,3,5,7,1,2026-07-08T11:24:37.957147+05:30
Kanpur,Uttar Pradesh,26.4499,80.3319,31.0,73,0.0,982.4,7.3,39.6,72,24.7,20.8,3.2,240.0,121.0,8.6,3,5,7,1,2026-07-08T11:24:37.957150+05:30
Chandigarh,Chandigarh,30.7333,76.7794,28.5,83,0.0,962.1,6.6,28.4,151,17.7,17.5,7.3,393.0,121.0,9.0,7,5,7,1,2026-07-08T11:24:37.957154+05:30
Srinagar,Jammu and Kashmir,34.0837,74.7973,27.6,50,0.0,838.9,8.9,23.8,80,34.5,25.6,3.3,454.0,156.0,5.6,4,5,7,1,2026-07-08T11:24:37.957159+05:30
Jammu,Jammu and Kashmir,32.7266,74.857,30.1,75,0.1,965.6,8.5,28.8,111,43.9,31.2,5.8,388.0,170.0,5.4,6,5,7,1,2026-07-08T11:24:37.957163+05:30
Amritsar,Punjab,31.634,74.8723,31.1,71,0.0,972.7,8.35,36.7,170,336.2,127.6,7.1,617.0,139.0,13.2,3,5,7,1,2026-07-08T11:24:37.957166+05:30
Ludhiana,Punjab,30.901,75.8573,30.0,76,0.0,971.1,5.7,28.1,157,46.0,38.6,4.8,434.0,133.0,7.3,7,5,3,1,2026-07-08T11:24:37.957169+05:30
Jalandhar,Punjab,31.326,75.5762,31.5,75,0.0,971.9,8.15,29.9,164,66.1,45.6,5.9,441.0,134.0,8.8,3,5,7,1,2026-07-08T11:24:37.957172+05:30
Dehradun,Uttarakhand,30.6284,78.0322,21.5,82,0.1,827.3,1.55,19.1,66,10.3,10.2,9.4,237.0,92.0,1.9,6,5,3,1,2026-07-08T11:24:37.957175+05:30
Shimla,Himachal Pradesh,31.1048,77.1734,19.1,85,0.0,782.2,2.45,24.1,68,8.6,8.1,2.4,282.0,118.0,1.7,3,10,3,1,2026-07-08T11:24:37.957179+05:30
Manali,Himachal Pradesh,32.2396,77.1887,23.0,83,0.0,816.7,6.75,31.3,41,6.4,6.3,13.7,186.0,117.0,1.5,3,5,7,1,2026-07-08T11:24:37.957183+05:30
Gurgaon,Haryana,28.4595,77.0266,27.1,92,0.3,973.3,7.55,31.7,114,16.4,16.2,18.4,492.0,92.0,18.9,10,5,7,1,2026-07-08T11:24:37.957187+05:30
Noida,Uttar Pradesh,28.5355,77.391,26.5,95,1.6,976.2,5.75,30.2,114,16.4,16.2,18.4,416.0,92.0,18.9,10,5,3,1,2026-07-08T11:24:37.957190+05:30
Ghaziabad,Uttar Pradesh,28.6692,77.4538,26.5,94,1.2,974.8,6.5,28.8,110,14.2,14.0,6.9,314.0,97.0,11.0,10,5,7,1,2026-07-08T11:24:37.957194+05:30
Faridabad,Haryana,28.4089,77.3178,26.4,95,2.2,975.3,5.8,39.2,114,16.4,16.2,18.4,423.0,92.0,18.9,10,5,3,1,2026-07-08T11:24:37.957198+05:30
Meerut,Uttar Pradesh,28.9845,77.7064,27.1,89,0.0,974.1,7.05,34.2,110,14.2,14.0,6.9,323.0,97.0,11.0,7,5,7,1,2026-07-08T11:24:37.957201+05:30
Agra,Uttar Pradesh,27.1767,78.0081,29.7,75,0.0,977.7,6.1,31.7,87,15.3,15.0,10.5,315.0,90.0,8.6,7,5,7,1,2026-07-08T11:24:37.957204+05:30
Varanasi,Uttar Pradesh,25.3176,82.9739,32.9,64,0.0,989.7,5.6,29.2,68,22.1,20.5,7.6,374.0,110.0,28.0,3,5,3,1,2026-07-08T11:24:37.957208+05:30
Prayagraj,Uttar Pradesh,25.4358,81.8463,32.6,67,0.0,987.5,6.65,29.9,62,19.4,18.6,4.1,222.0,117.0,12.0,3,5,7,1,2026-07-08T11:24:37.957211+05:30
Gorakhpur,Uttar Pradesh,26.7606,83.3732,31.9,69,0.0,990.4,6.6,40.0,82,28.5,25.7,3.9,235.0,136.0,11.5,3,5,7,1,2026-07-08T11:24:37.957214+05:30
Bareilly,Uttar Pradesh,28.367,79.4304,29.8,80,0.0,978.6,5.75,47.2,70,25.8,23.8,3.8,268.0,123.0,11.5,7,5,3,1,2026-07-08T11:24:37.957219+05:30
Aligarh,Uttar Pradesh,27.8974,78.088,27.8,88,0.2,976.5,5.8,38.2,94,21.5,21.0,8.9,294.0,97.0,13.8,10,5,3,1,2026-07-08T11:24:37.957222+05:30
Moradabad,Uttar Pradesh,28.8386,78.7733,28.0,86,0.1,976.1,7.25,38.9,104,20.4,19.1,6.0,306.0,106.0,12.1,10,5,7,1,2026-07-08T11:24:37.957225+05:30
Saharanpur,Uttar Pradesh,29.9637,77.546,28.1,83,0.1,968.9,6.7,23.4,131,21.7,21.6,8.4,284.0,97.0,3.7,10,5,7,1,2026-07-08T11:24:37.957228+05:30
Jhansi,Uttar Pradesh,25.4484,78.5685,30.3,72,0.0,968.4,7.0,34.2,59,7.2,7.2,5.0,273.0,96.0,4.7,3,5,7,1,2026-07-08T11:24:41.388784+05:30
Surat,Gujarat,21.1702,72.8311,29.7,74,0.1,1000.7,2.15,49.7,90,39.8,29.7,29.9,650.0,13.0,55.9,10,5,0,1,2026-07-08T11:24:41.388806+05:30
Vadodara,Gujarat,22.3072,73.1812,26.9,95,0.3,997.7,3.85,34.6,78,38.4,22.9,14.4,227.0,33.0,6.5,10,5,3,1,2026-07-08T11:24:41.388811+05:30
Rajkot,Gujarat,22.3039,70.8022,32.1,60,0.0,986.6,5.95,46.4,72,61.2,23.6,2.2,115.0,74.0,4.9,0,5,3,1,2026-07-08T11:24:41.388815+05:30
Thane,Maharashtra,19.2183,72.9781,29.2,74,0.1,1003.6,4.75,39.6,55,31.1,16.5,8.4,241.0,46.0,5.8,10,5,0,1,2026-07-08T11:24:41.388819+05:30
Nagpur,Maharashtra,21.1458,79.0882,31.0,62,0.1,966.4,8.25,51.5,40,8.9,7.7,9.7,185.0,49.0,17.3,6,5,7,1,2026-07-08T11:24:41.388822+05:30
Nashik,Maharashtra,19.9975,73.7898,23.2,88,0.1,940.6,0.75,45.0,23,13.4,8.0,4.8,150.0,45.0,1.2,6,5,3,1,2026-07-08T11:24:41.388826+05:30
Aurangabad,Maharashtra,19.8762,75.3433,23.8,92,0.2,938.9,6.35,56.2,23,4.2,3.5,5.8,162.0,51.0,2.1,6,5,7,1,2026-07-08T11:24:41.388830+05:30
Solapur,Maharashtra,17.6599,75.9064,30.3,59,0.1,953.7,7.7,60.1,20,2.5,1.9,1.4,112.0,60.0,1.4,3,5,7,1,2026-07-08T11:24:41.388833+05:30
Kolhapur,Maharashtra,16.705,74.2433,25.6,81,0.1,945.5,7.55,62.6,18,8.9,6.2,3.4,134.0,46.0,1.9,10,5,7,1,2026-07-08T11:24:41.388837+05:30
Goa,Goa,15.2993,74.124,27.8,93,0.2,997.4,8.35,41.8,54,24.0,12.8,1.0,139.0,46.0,0.8,10,5,7,1,2026-07-08T11:24:41.388840+05:30
Jodhpur,Rajasthan,26.2389,73.0243,34.2,61,0.0,974.0,6.85,31.3,118,219.3,57.2,1.9,144.0,92.0,5.3,3,5,7,1,2026-07-08T11:24:41.388843+05:30
Udaipur,Rajasthan,24.5854,73.7125,30.7,67,0.0,939.0,6.45,34.2,59,47.6,24.6,2.6,157.0,80.0,4.5,3,5,7,1,2026-07-08T11:24:41.388847+05:30
Kota,Rajasthan,25.2138,75.8648,32.5,64,0.0,970.0,7.25,48.2,54,37.7,18.8,3.8,228.0,104.0,4.5,3,5,7,1,2026-07-08T11:24:41.388850+05:30
Bikaner,Rajasthan,28.0229,73.3119,36.7,51,0.0,972.6,8.05,62.3,141,242.1,88.5,0.7,139.0,82.0,2.4,0,5,10,1,2026-07-08T11:24:41.388853+05:30
Ajmer,Rajasthan,26.4499,74.6399,28.9,81,0.1,946.5,7.25,47.5,63,120.1,42.6,3.1,167.0,85.0,4.7,10,5,7,1,2026-07-08T11:24:41.388856+05:30
Gwalior,Madhya Pradesh,26.2183,78.1828,28.2,83,0.1,973.2,7.2,43.9,67,10.7,10.7,7.3,270.0,90.0,4.7,10,5,7,1,2026-07-08T11:24:41.388860+05:30
Indore,Madhya Pradesh,22.7196,75.8577,25.4,92,0.1,941.1,5.3,40.7,67,12.5,11.1,7.8,350.0,73.0,4.2,10,5,3,1,2026-07-08T11:24:41.388863+05:30
Bhopal,Madhya Pradesh,23.2599,77.4126,26.4,84,0.1,945.9,1.8,40.0,68,15.5,13.7,6.5,272.0,81.0,4.6,10,5,3,1,2026-07-08T11:24:41.388866+05:30
Jabalpur,Madhya Pradesh,23.1815,79.9864,26.2,93,0.5,953.8,6.2,37.4,51,7.2,6.2,4.6,242.0,58.0,7.2,10,5,7,1,2026-07-08T11:24:41.388869+05:30
Ujjain,Madhya Pradesh,23.1765,75.7885,26.1,93,0.1,946.5,1.25,41.8,61,18.2,13.7,6.4,263.0,68.0,4.0,10,5,3,1,2026-07-08T11:24:41.388872+05:30
Visakhapatnam,Andhra Pradesh,17.6868,83.2185,32.4,59,0.0,999.8,9.0,51.5,76,31.4,21.1,7.6,271.0,98.0,23.4,0,5,7,1,2026-07-08T11:24:41.388876+05:30
Vijayawada,Andhra Pradesh,16.5062,80.648,34.5,48,0.0,999.1,6.3,51.8,61,5.7,4.2,2.2,115.0,61.0,4.0,0,5,7,1,2026-07-08T11:24:41.388879+05:30
Guntur,Andhra Pradesh,16.3067,80.4365,36.1,42,0.0,1000.1,5.45,55.1,58,6.3,4.3,2.0,115.0,59.0,3.6,0,5,3,1,2026-07-08T11:24:41.388882+05:30
Nellore,Andhra Pradesh,14.4426,79.9865,36.5,38,0.0,1003.3,8.55,50.8,45,5.4,3.4,1.9,98.0,60.0,2.7,0,5,7,1,2026-07-08T11:24:41.388886+05:30
Kurnool,Andhra Pradesh,15.8281,78.0373,32.6,49,0.0,974.5,4.7,59.4,22,7.2,3.6,1.2,106.0,59.0,2.2,0,5,3,1,2026-07-08T11:24:41.388889+05:30
Kakinada,Andhra Pradesh,16.9891,82.2475,33.7,54,0.1,1003.8,8.75,51.1,68,19.6,12.4,2.6,146.0,75.0,4.5,3,5,4,1,2026-07-08T11:24:41.388892+05:30
Tirupati,Andhra Pradesh,13.6288,79.4192,35.1,41,0.0,989.5,8.4,50.8,39,7.5,3.9,1.7,104.0,58.0,1.4,0,5,10,1,2026-07-08T11:24:41.388896+05:30
Warangal,Telangana,17.9689,79.5941,31.2,60,0.1,974.4,5.55,53.3,38,6.7,5.5,2.2,137.0,66.0,4.1,3,5,3,1,2026-07-08T11:24:41.388899+05:30
Nizamabad,Telangana,18.6725,78.0941,29.5,65,0.0,959.9,5.6,59.0,22,3.2,3.0,3.0,129.0,57.0,3.6,7,5,3,1,2026-07-08T11:24:41.388902+05:30
Mysore,Karnataka,12.2958,76.6396,27.4,62,0.1,929.6,5.75,59.8,26,8.0,4.4,2.1,111.0,51.0,1.4,10,5,3,1,2026-07-08T11:24:41.388905+05:30
Mangalore,Karnataka,12.9141,74.856,28.0,78,0.1,1008.5,8.7,59.8,62,25.6,13.5,2.4,137.0,43.0,1.6,10,0,4,1,2026-07-08T11:24:41.388908+05:30
Hubli-Dharwad,Karnataka,15.3647,75.124,25.6,81,0.2,939.5,8.1,64.4,19,5.6,3.4,1.8,111.0,50.0,0.9,10,5,7,1,2026-07-08T11:24:41.388911+05:30
Belgaum,Karnataka,15.8497,74.4977,25.1,78,0.1,924.1,2.05,66.2,18,8.4,5.4,2.2,109.0,47.0,1.3,10,5,3,1,2026-07-08T11:24:44.790516+05:30
Coimbatore,Tamil Nadu,11.0168,76.9558,29.8,60,0.0,962.8,8.4,58.7,41,12.1,6.1,1.6,147.0,54.0,1.8,4,5,7,1,2026-07-08T11:24:44.790530+05:30
Madurai,Tamil Nadu,9.9252,78.1198,36.1,35,0.0,993.0,8.7,38.5,72,37.8,20.1,3.1,153.0,84.0,3.4,0,5,10,1,2026-07-08T11:24:44.790536+05:30
Trichy,Tamil Nadu,10.7905,78.7047,36.3,37,0.0,999.2,8.75,62.3,55,16.3,8.8,1.9,108.0,61.0,2.1,0,5,10,1,2026-07-08T11:24:44.790541+05:30
Salem,Tamil Nadu,11.6643,78.146,32.6,49,0.0,977.8,8.35,40.0,61,24.7,15.4,4.5,170.0,72.0,7.4,0,5,7,1,2026-07-08T11:24:44.790545+05:30
Tirunelveli,Tamil Nadu,8.7139,77.7567,35.9,40,0.0,1003.8,8.65,63.0,57,7.5,4.3,1.8,117.0,56.0,1.5,0,5,7,1,2026-07-08T11:24:44.790549+05:30
Vellore,Tamil Nadu,12.9165,79.1325,34.6,39,0.0,983.3,8.9,51.5,40,13.0,6.5,2.0,124.0,61.0,2.1,0,5,7,1,2026-07-08T11:24:44.790552+05:30
Erode,Tamil Nadu,11.341,77.7172,34.7,40,0.0,989.2,8.8,40.3,58,16.6,10.1,2.8,148.0,65.0,2.7,0,5,7,1,2026-07-08T11:24:44.790555+05:30
Kochi,Kerala,9.9312,76.2673,27.2,83,0.1,1011.4,8.3,40.7,68,20.6,12.3,4.1,129.0,54.0,3.5,10,0,4,1,2026-07-08T11:24:44.790559+05:30
Thiruvananthapuram,Kerala,8.5241,76.9366,28.8,78,0.0,1010.1,8.45,54.7,52,15.3,8.4,1.8,111.0,60.0,1.4,7,0,4,1,2026-07-08T11:24:44.790562+05:30
Kozhikode,Kerala,11.2588,75.7804,28.3,79,0.0,1010.6,7.95,41.0,61,17.3,8.0,1.0,133.0,54.0,1.7,7,0,4,1,2026-07-08T11:24:44.790566+05:30
Thrissur,Kerala,10.5276,76.2144,28.4,79,0.0,1009.6,8.5,38.9,66,17.5,9.9,2.7,155.0,49.0,2.1,7,0,4,1,2026-07-08T11:24:44.790569+05:30
Kannur,Kerala,11.8745,75.3704,27.1,84,0.1,1009.9,8.25,42.1,58,17.1,9.0,2.2,140.0,57.0,1.9,10,0,4,1,2026-07-08T11:24:44.790573+05:30
Patna,Bihar,25.5941,85.1376,31.7,70,0.0,994.0,7.25,31.3,88,17.3,14.5,3.4,268.0,116.0,7.8,3,5,7,1,2026-07-08T11:24:44.790576+05:30
Gaya,Bihar,24.7914,85.0002,30.1,74,0.1,987.8,6.9,30.2,65,17.7,13.9,2.7,177.0,108.0,8.3,6,5,7,1,2026-07-08T11:24:44.790580+05:30
Muzaffarpur,Bihar,26.1209,85.3647,31.9,74,0.0,994.4,7.65,32.0,80,25.1,22.4,5.0,276.0,128.0,11.2,3,5,7,1,2026-07-08T11:24:44.790583+05:30
Bhagalpur,Bihar,25.2425,87.0117,28.6,94,0.1,996.2,6.45,24.5,89,23.2,20.8,8.5,336.0,107.0,22.0,10,5,7,1,2026-07-08T11:24:44.790586+05:30
Ranchi,Jharkhand,23.3441,85.3096,26.1,86,0.1,933.4,8.0,45.7,64,15.2,11.8,2.9,158.0,94.0,8.4,10,5,7,1,2026-07-08T11:24:44.790589+05:30
Jamshedpur,Jharkhand,22.8046,86.2029,30.6,71,0.0,986.1,5.35,31.3,72,30.7,23.7,7.2,167.0,108.0,21.3,3,5,3,1,2026-07-08T11:24:44.790592+05:30
Dhanbad,Jharkhand,23.7957,86.4304,29.7,76,0.0,975.2,7.3,33.5,104,45.4,40.0,38.9,357.0,45.0,83.9,7,5,7,1,2026-07-08T11:24:44.790596+05:30
Bokaro,Jharkhand,23.6693,86.1511,29.5,77,0.1,978.9,8.0,33.1,85,35.0,31.3,21.7,197.0,77.0,57.8,10,5,7,1,2026-07-08T11:24:44.790599+05:30
Bhubaneswar,Odisha,20.2961,85.8245,31.7,70,0.0,998.4,7.95,56.9,67,37.4,25.3,3.2,158.0,98.0,6.8,3,5,7,1,2026-07-08T11:24:44.790602+05:30
Cuttack,Odisha,20.4625,85.8828,32.2,68,0.0,1000.0,7.6,45.7,67,37.4,25.3,3.2,182.0,98.0,6.8,3,5,4,1,2026-07-08T11:24:44.790605+05:30
Rourkela,Odisha,22.2604,84.8536,31.7,63,0.1,979.9,6.3,38.2,68,21.7,15.5,2.2,165.0,105.0,7.0,6,5,7,1,2026-07-08T11:24:44.790608+05:30
Raipur,Chhattisgarh,21.2514,81.6296,31.1,61,0.1,969.1,6.25,55.4,58,10.2,8.8,6.3,160.0,79.0,19.5,6,5,7,1,2026-07-08T11:24:44.790611+05:30
Bhilai,Chhattisgarh,21.1938,81.3509,30.4,63,0.1,969.4,6.8,58.7,58,9.6,8.5,6.7,263.0,75.0,20.2,6,5,7,1,2026-07-08T11:24:44.790614+05:30
Guwahati,Assam,26.1158,91.7086,30.0,80,0.0,996.9,6.2,19.8,46,11.3,11.1,1.9,269.0,97.0,2.9,7,5,7,1,2026-07-08T11:24:44.790617+05:30
Agartala,Tripura,23.8315,91.2868,26.0,93,0.1,1003.3,3.65,38.2,46,19.3,14.0,6.8,150.0,69.0,4.1,10,5,0,1,2026-07-08T11:24:44.790620+05:30
Shillong,Meghalaya,25.5788,91.8933,23.2,79,0.1,855.5,3.05,29.2,29,4.5,4.5,4.3,233.0,76.0,3.7,6,5,3,1,2026-07-08T11:24:44.790623+05:30
Imphal,Manipur,24.817,93.9368,26.6,77,0.0,920.6,0.7,35.3,21,3.1,2.8,3.6,188.0,54.0,1.1,7,5,3,1,2026-07-08T11:24:44.790626+05:30
Aizawl,Mizoram,23.7271,92.7176,20.7,93,0.0,890.6,1.0,42.1,25,0.9,0.7,2.2,109.0,57.0,0.8,3,5,3,1,2026-07-08T11:24:44.790629+05:30
Kohima,Nagaland,25.6701,94.1077,21.0,97,0.7,853.1,6.2,18.7,23,1.9,1.9,3.6,161.0,56.0,1.0,6,5,7,1,2026-07-08T11:24:44.790633+05:30
Gangtok,Sikkim,27.3314,88.6138,21.4,82,0.0,836.3,6.75,25.6,44,4.4,4.4,1.6,179.0,102.0,1.2,3,5,7,1,2026-07-08T11:24:44.790636+05:30
Siliguri,West Bengal,26.7271,88.3953,27.5,88,0.4,988.4,7.85,34.6,60,12.3,12.1,2.9,310.0,116.0,3.1,10,5,7,1,2026-07-08T11:24:48.189877+05:30
Durgapur,West Bengal,23.5204,87.3119,30.1,82,0.0,990.4,8.55,36.4,93,30.9,25.9,24.6,562.0,66.0,54.9,3,5,7,1,2026-07-08T11:24:48.189895+05:30
Asansol,West Bengal,23.6739,86.9524,29.5,85,0.0,988.7,7.5,29.9,85,33.5,28.4,29.4,290.0,47.0,53.9,7,5,7,1,2026-07-08T11:24:48.189901+05:30
Pondicherry,Puducherry,11.9139,79.8145,34.8,45,0.0,1007.4,8.0,44.6,68,42.7,26.9,8.1,175.0,80.0,11.9,0,5,4,1,2026-07-08T11:24:48.189905+05:30
Port Blair,Andaman and Nicobar Islands,11.6234,92.7265,31.3,64,0.0,1008.6,7.4,40.3,60,31.0,17.9,0.2,93.0,66.0,0.5,3,0,4,1,2026-07-08T11:24:48.189909+05:30
Haridwar,Uttarakhand,29.9457,78.1642,27.0,97,0.4,967.4,5.2,19.8,120,23.5,23.3,9.1,281.0,88.0,3.2,10,5,3,1,2026-07-08T11:24:48.189913+05:30
Rishikesh,Uttarakhand,30.0869,78.2676,27.0,95,0.1,960.2,3.9,15.8,86,17.1,17.0,5.9,287.0,98.0,1.5,10,5,3,1,2026-07-08T11:24:48.189917+05:30
Nainital,Uttarakhand,29.3919,79.4542,20.3,89,0.0,802.9,7.25,39.6,51,10.2,9.1,2.7,265.0,106.0,5.3,3,5,7,1,2026-07-08T11:24:48.189920+05:30
Mussoorie,Uttarakhand,30.4599,78.0664,19.0,91,0.2,799.9,2.4,22.3,84,11.2,11.1,8.3,279.0,105.0,3.8,6,10,3,1,2026-07-08T11:24:48.189925+05:30
Dharamshala,Himachal Pradesh,32.219,76.3234,24.3,88,0.0,864.9,8.35,32.8,44,9.3,8.1,1.5,327.0,116.0,1.3,3,5,7,1,2026-07-08T11:24:48.189928+05:30
Dalhousie,Himachal Pradesh,32.5387,75.971,23.0,78,0.0,802.5,8.05,28.8,89,31.5,24.4,3.0,333.0,161.0,4.6,3,5,7,1,2026-07-08T11:24:48.189932+05:30
Patiala,Punjab,30.3398,76.3869,29.8,77,0.0,971.1,3.85,31.3,148,45.6,25.7,5.0,373.0,124.0,6.8,7,5,3,1,2026-07-08T11:24:48.189935+05:30
Bhatinda,Punjab,30.211,74.9455,33.5,66,0.0,975.3,7.5,35.3,317,315.7,103.4,7.0,464.0,144.0,17.5,3,5,7,1,2026-07-08T11:24:48.189939+05:30
Rohtak,Haryana,28.8955,76.6066,27.6,89,0.1,974.1,6.0,30.2,145,18.6,18.5,11.4,330.0,128.0,15.2,10,5,3,1,2026-07-08T11:24:48.189943+05:30
Panipat,Haryana,29.3909,76.9635,28.7,83,0.0,973.2,5.35,34.9,133,17.2,17.2,8.0,294.0,107.0,8.9,7,5,3,1,2026-07-08T11:24:48.189946+05:30
Mathura,Uttar Pradesh,27.4924,77.6737,29.2,80,0.0,977.3,5.9,37.1,93,13.2,13.0,11.8,304.0,80.0,7.7,7,5,3,1,2026-07-08T11:24:48.189950+05:30
Vrindavan,Uttar Pradesh,27.5823,77.7027,29.6,78,0.0,977.7,6.7,36.4,93,13.2,13.0,11.8,291.0,80.0,7.7,7,5,7,1,2026-07-08T11:24:48.189953+05:30
Ayodhya,Uttar Pradesh,26.7922,82.1998,30.2,79,0.1,987.7,6.6,44.3,82,29.5,27.4,4.0,232.0,128.0,14.4,6,5,7,1,2026-07-08T11:24:48.189957+05:30
Ratlam,Madhya Pradesh,23.3315,75.0367,25.4,92,0.2,947.9,1.5,45.4,57,21.1,14.4,7.5,200.0,60.0,6.1,10,5,3,1,2026-07-08T11:24:48.189960+05:30
Sagar,Madhya Pradesh,23.8388,78.7378,29.2,71,0.1,942.0,4.55,30.2,55,5.2,5.2,5.9,232.0,79.0,2.3,10,5,3,1,2026-07-08T11:24:48.189964+05:30
Satna,Madhya Pradesh,24.6005,80.8322,28.5,82,0.2,962.9,8.0,45.4,56,9.1,9.0,2.5,244.0,99.0,6.9,10,5,7,1,2026-07-08T11:24:48.189967+05:30
Akola,Maharashtra,20.7002,77.0082,26.4,90,0.2,968.4,6.8,45.7,29,5.1,5.0,8.0,210.0,68.0,8.8,10,5,7,1,2026-07-08T11:24:48.189971+05:30
Amravati,Maharashtra,20.9374,77.7796,28.8,73,0.0,960.3,7.3,45.0,30,5.4,5.3,8.0,193.0,65.0,9.0,7,5,7,1,2026-07-08T11:24:48.189975+05:30
Latur,Maharashtra,18.4088,76.5604,27.7,71,0.0,935.9,6.8,58.3,20,5.2,3.5,2.4,116.0,57.0,1.4,7,5,7,1,2026-07-08T11:24:48.189979+05:30
Nanded,Maharashtra,19.1383,77.3091,26.9,85,0.2,963.4,7.7,48.2,23,3.4,3.4,3.0,135.0,73.0,4.1,10,5,7,1,2026-07-08T11:24:48.189982+05:30
Gulbarga,Karnataka,17.3297,76.8343,31.0,54,0.0,955.3,6.7,61.9,19,3.4,2.4,1.5,114.0,64.0,1.9,0,5,7,1,2026-07-08T11:24:48.189985+05:30
Bidar,Karnataka,17.9104,77.5199,28.9,65,0.1,931.8,7.1,62.3,19,3.2,2.6,1.9,118.0,68.0,1.7,10,5,7,1,2026-07-08T11:24:48.189988+05:30
Hospet,Karnataka,15.2689,76.3909,29.5,61,0.0,954.4,5.75,64.8,19,5.7,3.3,1.5,104.0,53.0,1.5,7,5,3,1,2026-07-08T11:24:48.189991+05:30
Tirupur,Tamil Nadu,11.1085,77.3411,32.1,50,0.0,975.9,8.85,63.0,59,16.5,10.1,2.8,140.0,66.0,3.3,0,5,7,1,2026-07-08T11:24:48.189995+05:30
Alappuzha,Kerala,9.4981,76.3388,27.0,86,0.0,1011.6,8.25,49.3,61,22.6,12.3,4.0,88.0,58.0,3.3,7,0,4,1,2026-07-08T11:24:48.189998+05:30
Munnar,Kerala,10.0889,77.0595,18.8,92,0.2,858.7,5.9,60.1,44,5.7,3.5,1.6,90.0,45.0,0.9,6,10,3,1,2026-07-08T11:24:48.190002+05:30
Silchar,Assam,24.8333,92.7789,27.6,92,0.0,1002.0,0.75,34.9,29,5.7,5.2,4.0,155.0,58.0,1.8,7,5,0,1,2026-07-08T11:24:48.190005+05:30
Dibrugarh,Assam,27.4728,94.912,31.0,72,0.0,990.3,7.2,30.6,48,7.4,6.5,1.1,184.0,89.0,1.2,3,5,7,1,2026-07-08T11:24:48.190008+05:30
