city,state,latitude,longitude,temp,humidity,rain,pressure,uv_index,wind_gusts,aqi,pm10,pm2_5,mosquito_risk,arthritis_risk,migraine_risk,frizz_risk,updated_at
Delhi,Delhi,28.6139,77.209,26.9,45,0.0,979.6,7.35,31.7,431,620.3,112.7,4,5,7,0,2026-04-22T02:26:35.668434+05:30
Mumbai,Maharashtra,19.076,72.8777,29.4,75,0.0,1006.2,8.0,31.7,92,42.8,21.8,7,5,4,1,2026-04-22T02:26:35.668477+05:30
Bangalore,Karnataka,12.9716,77.5946,24.2,54,0.0,910.2,9.5,29.5,67,21.5,19.8,0,5,7,0,2026-04-22T02:26:35.668492+05:30
Hyderabad,Telangana,17.385,78.4867,27.5,68,0.0,951.6,9.3,18.7,95,44.7,40.5,7,5,7,1,2026-04-22T02:26:35.668502+05:30
Chennai,Tamil Nadu,13.0827,80.2707,28.7,82,0.0,1005.6,8.85,33.5,41,10.3,7.3,7,5,4,1,2026-04-22T02:26:35.668511+05:30
Kolkata,West Bengal,22.5726,88.3639,27.9,90,0.0,1001.9,8.95,29.9,84,22.8,20.0,7,5,4,1,2026-04-22T02:26:35.668524+05:30
Pune,Maharashtra,18.5204,73.8567,25.5,80,0.0,947.0,8.6,37.4,139,49.0,43.3,7,5,7,1,2026-04-22T02:26:35.668531+05:30
Ahmedabad,Gujarat,23.0225,72.5714,26.7,30,0.0,1001.3,8.2,23.8,43,13.4,7.8,4,5,4,0,2026-04-22T02:26:35.668539+05:30
Jaipur,Rajasthan,26.9124,75.7873,29.0,27,0.0,958.1,8.0,31.3,120,165.8,33.8,4,5,7,0,2026-04-22T02:26:35.668548+05:30
Lucknow,Uttar Pradesh,26.8467,80.9462,27.2,47,0.0,989.4,7.85,43.2,144,523.4,93.1,4,5,7,0,2026-04-22T02:26:35.668556+05:30
Kanpur,Uttar Pradesh,26.4499,80.3319,25.7,55,0.0,988.0,7.9,36.0,384,663.1,106.2,4,5,7,0,2026-04-22T02:26:35.668564+05:30
Chandigarh,Chandigarh,30.7333,76.7794,22.6,47,0.0,965.1,7.35,31.7,58,23.1,19.0,0,5,7,0,2026-04-22T02:26:35.668571+05:30
Srinagar,Jammu and Kashmir,34.0837,74.7973,10.1,74,0.0,838.5,8.5,15.8,79,45.2,35.0,3,5,7,0,2026-04-22T02:26:35.668579+05:30
Jammu,Jammu and Kashmir,32.7266,74.857,23.6,57,0.0,969.7,8.1,29.2,67,32.6,27.6,0,5,7,0,2026-04-22T02:26:35.668585+05:30
Amritsar,Punjab,31.634,74.8723,24.3,56,0.0,977.6,8.05,29.2,70,55.3,46.2,0,5,7,0,2026-04-22T02:26:35.668592+05:30
Ludhiana,Punjab,30.901,75.8573,25.2,38,0.0,975.6,7.6,33.1,76,47.8,39.1,4,5,7,0,2026-04-22T02:26:35.668604+05:30
Jalandhar,Punjab,31.326,75.5762,23.8,47,0.0,976.7,7.8,32.0,81,45.6,36.4,0,5,7,0,2026-04-22T02:26:35.668613+05:30
Dehradun,Uttarakhand,30.6284,78.0322,16.4,53,0.0,828.5,7.75,32.4,48,20.2,14.6,0,5,7,0,2026-04-22T02:26:35.668620+05:30
Shimla,Himachal Pradesh,31.1048,77.1734,14.3,44,0.0,782.5,7.85,52.2,57,30.0,14.9,0,5,7,0,2026-04-22T02:26:35.668627+05:30
Manali,Himachal Pradesh,32.2396,77.1887,17.8,40,0.0,819.6,9.3,31.0,57,30.3,10.7,0,5,7,0,2026-04-22T02:26:35.668633+05:30
Gurgaon,Haryana,28.4595,77.0266,24.6,53,0.0,977.9,7.45,29.2,1137,711.5,110.6,0,5,7,0,2026-04-22T02:26:35.668640+05:30
Noida,Uttar Pradesh,28.5355,77.391,26.9,45,0.0,981.0,7.35,32.4,1137,711.5,110.6,4,5,7,0,2026-04-22T02:26:35.668646+05:30
Ghaziabad,Uttar Pradesh,28.6692,77.4538,25.6,51,0.0,979.1,7.35,32.4,316,640.7,112.7,4,5,7,0,2026-04-22T02:26:35.668652+05:30
Faridabad,Haryana,28.4089,77.3178,27.1,41,0.0,980.3,7.4,33.1,1137,711.5,110.6,4,5,7,0,2026-04-22T02:26:35.668658+05:30
Meerut,Uttar Pradesh,28.9845,77.7064,24.4,52,0.0,977.7,7.25,37.1,316,640.7,112.7,0,5,7,0,2026-04-22T02:26:35.668665+05:30
Agra,Uttar Pradesh,27.1767,78.0081,27.3,45,0.0,984.3,7.75,35.6,764,1013.3,152.7,4,5,7,0,2026-04-22T02:26:35.668673+05:30
Varanasi,Uttar Pradesh,25.3176,82.9739,27.7,37,0.0,993.3,8.5,42.1,99,140.2,39.6,4,5,7,0,2026-04-22T02:26:35.668680+05:30
Prayagraj,Uttar Pradesh,25.4358,81.8463,28.8,41,0.0,992.3,8.35,37.1,103,265.4,53.0,4,5,7,0,2026-04-22T02:26:35.668687+05:30
Gorakhpur,Uttar Pradesh,26.7606,83.3732,26.5,35,0.0,991.8,8.25,43.9,79,157.9,40.0,4,5,7,0,2026-04-22T02:26:35.668693+05:30
Bareilly,Uttar Pradesh,28.367,79.4304,23.4,52,0.0,982.6,7.55,37.8,89,228.2,53.2,0,5,7,0,2026-04-22T02:26:35.668701+05:30
Aligarh,Uttar Pradesh,27.8974,78.088,25.3,47,0.0,982.1,7.5,36.7,781,646.3,101.7,4,5,7,0,2026-04-22T02:26:35.668707+05:30
Moradabad,Uttar Pradesh,28.8386,78.7733,23.6,48,0.0,979.7,7.4,37.4,113,268.2,68.2,0,5,7,0,2026-04-22T02:26:35.668713+05:30
Saharanpur,Uttar Pradesh,29.9637,77.546,23.5,51,0.0,972.0,7.05,36.0,83,55.3,37.5,0,5,7,0,2026-04-22T02:26:35.668719+05:30
Jhansi,Uttar Pradesh,25.4484,78.5685,29.4,32,0.0,974.7,8.25,31.3,124,26.5,11.9,4,5,7,0,2026-04-22T02:26:38.988694+05:30
Surat,Gujarat,21.1702,72.8311,28.5,73,0.0,1004.9,7.9,21.6,107,35.7,26.4,7,5,4,1,2026-04-22T02:26:38.988724+05:30
Vadodara,Gujarat,22.3072,73.1812,28.1,58,0.0,1002.9,8.15,23.0,84,55.4,46.7,4,5,4,1,2026-04-22T02:26:38.988733+05:30
Rajkot,Gujarat,22.3039,70.8022,24.3,62,0.0,993.7,7.9,28.8,56,26.4,13.1,3,5,7,1,2026-04-22T02:26:38.988740+05:30
Thane,Maharashtra,19.2183,72.9781,27.3,74,0.0,1005.7,8.05,41.8,92,42.8,21.8,7,5,4,1,2026-04-22T02:26:38.988747+05:30
Nagpur,Maharashtra,21.1458,79.0882,29.4,51,0.0,971.3,8.95,28.8,80,29.2,25.1,4,5,7,1,2026-04-22T02:26:38.988754+05:30
Nashik,Maharashtra,19.9975,73.7898,26.2,59,0.0,944.3,8.3,37.1,86,40.9,24.6,4,5,7,1,2026-04-22T02:26:38.988760+05:30
Aurangabad,Maharashtra,19.8762,75.3433,29.2,35,0.0,942.7,9.05,31.7,80,39.2,32.2,4,5,7,0,2026-04-22T02:26:38.988767+05:30
Solapur,Maharashtra,17.6599,75.9064,27.8,62,0.0,955.2,9.05,21.6,113,60.1,54.7,7,5,7,1,2026-04-22T02:26:38.988774+05:30
Kolhapur,Maharashtra,16.705,74.2433,23.2,95,0.0,946.3,9.05,31.7,99,40.5,32.8,3,5,7,1,2026-04-22T02:26:38.988781+05:30
Goa,Goa,15.2993,74.124,27.8,89,0.0,995.7,9.0,29.9,73,37.4,24.0,7,5,7,1,2026-04-22T02:26:38.988787+05:30
Jodhpur,Rajasthan,26.2389,73.0243,27.7,25,0.0,981.5,8.2,28.8,113,159.3,22.5,4,5,7,0,2026-04-22T02:26:38.988794+05:30
Udaipur,Rajasthan,24.5854,73.7125,24.6,30,0.0,945.9,8.75,43.2,50,11.5,7.4,0,5,7,0,2026-04-22T02:26:38.988800+05:30
Kota,Rajasthan,25.2138,75.8648,27.9,24,0.0,976.8,8.25,24.8,56,12.2,9.5,4,5,7,0,2026-04-22T02:26:38.988807+05:30
Bikaner,Rajasthan,28.0229,73.3119,31.0,29,0.0,979.0,8.05,28.8,53,43.2,16.1,0,5,7,0,2026-04-22T02:26:38.988813+05:30
Ajmer,Rajasthan,26.4499,74.6399,26.7,27,0.0,953.6,8.2,34.9,62,36.4,12.9,4,5,7,0,2026-04-22T02:26:38.988820+05:30
Gwalior,Madhya Pradesh,26.2183,78.1828,27.8,45,0.0,980.3,8.0,37.8,195,122.9,25.3,4,5,7,0,2026-04-22T02:26:38.988826+05:30
Indore,Madhya Pradesh,22.7196,75.8577,25.5,46,0.0,947.2,8.65,32.8,57,17.5,15.5,4,5,7,0,2026-04-22T02:26:38.988832+05:30
Bhopal,Madhya Pradesh,23.2599,77.4126,25.9,44,0.0,952.6,8.65,36.7,51,15.4,14.4,4,5,7,0,2026-04-22T02:26:38.988838+05:30
Jabalpur,Madhya Pradesh,23.1815,79.9864,26.3,53,0.0,959.3,8.85,30.6,68,18.2,15.9,4,5,7,0,2026-04-22T02:26:38.988845+05:30
Ujjain,Madhya Pradesh,23.1765,75.7885,26.4,40,0.0,953.0,8.6,35.3,57,17.5,15.3,4,5,7,0,2026-04-22T02:26:38.988851+05:30
Visakhapatnam,Andhra Pradesh,17.6868,83.2185,27.4,90,0.0,1001.6,9.0,39.2,58,18.2,14.2,7,5,4,1,2026-04-22T02:26:38.988857+05:30
Vijayawada,Andhra Pradesh,16.5062,80.648,27.4,90,0.0,1001.2,9.25,25.2,56,12.6,10.2,7,5,4,1,2026-04-22T02:26:38.988863+05:30
Guntur,Andhra Pradesh,16.3067,80.4365,27.6,87,0.0,1002.4,9.25,29.9,59,12.3,9.7,7,5,4,1,2026-04-22T02:26:38.988870+05:30
Nellore,Andhra Pradesh,14.4426,79.9865,27.0,91,0.0,1004.3,9.2,34.6,47,9.0,7.5,7,5,4,1,2026-04-22T02:26:38.988876+05:30
Kurnool,Andhra Pradesh,15.8281,78.0373,28.8,62,0.0,975.0,9.25,35.3,83,44.7,39.1,7,5,7,1,2026-04-22T02:26:38.988883+05:30
Kakinada,Andhra Pradesh,16.9891,82.2475,27.1,92,0.0,1005.7,9.2,27.7,45,13.1,8.9,7,5,4,1,2026-04-22T02:26:38.988889+05:30
Tirupati,Andhra Pradesh,13.6288,79.4192,25.6,83,0.0,990.7,9.35,32.8,57,15.4,14.6,7,5,7,1,2026-04-22T02:26:38.988895+05:30
Warangal,Telangana,17.9689,79.5941,28.9,67,0.0,976.6,9.15,21.2,91,40.6,38.4,7,5,7,1,2026-04-22T02:26:38.988902+05:30
Nizamabad,Telangana,18.6725,78.0941,29.7,55,0.0,962.9,9.15,28.1,105,45.4,42.6,4,5,7,1,2026-04-22T02:26:38.988907+05:30
Mysore,Karnataka,12.2958,76.6396,23.9,89,0.0,927.3,9.45,38.2,84,30.3,28.1,3,5,7,1,2026-04-22T02:26:38.988913+05:30
Mangalore,Karnataka,12.9141,74.856,27.7,87,0.0,1005.4,9.1,25.6,85,39.0,31.9,7,5,4,1,2026-04-22T02:26:38.988919+05:30
Hubli-Dharwad,Karnataka,15.3647,75.124,23.6,81,0.0,939.1,9.2,38.9,89,31.5,28.6,3,5,7,1,2026-04-22T02:26:38.988926+05:30
Belgaum,Karnataka,15.8497,74.4977,22.5,99,0.0,923.6,9.25,40.7,90,35.5,28.8,3,5,7,1,2026-04-22T02:26:42.308643+05:30
Coimbatore,Tamil Nadu,11.0168,76.9558,25.2,86,0.0,960.2,9.4,41.4,82,31.8,27.8,7,5,7,1,2026-04-22T02:26:42.308676+05:30
Madurai,Tamil Nadu,9.9252,78.1198,26.7,86,0.0,991.5,9.3,40.0,59,18.8,17.6,7,5,7,1,2026-04-22T02:26:42.308686+05:30
Trichy,Tamil Nadu,10.7905,78.7047,27.8,85,0.0,998.2,9.3,19.1,47,14.2,13.8,7,5,7,1,2026-04-22T02:26:42.308694+05:30
Salem,Tamil Nadu,11.6643,78.146,27.8,73,0.0,975.9,9.3,23.4,57,14.8,14.1,7,5,7,1,2026-04-22T02:26:42.308701+05:30
Tirunelveli,Tamil Nadu,8.7139,77.7567,27.3,77,0.0,1001.5,9.25,50.8,62,19.6,17.9,7,5,4,1,2026-04-22T02:26:42.308709+05:30
Vellore,Tamil Nadu,12.9165,79.1325,26.1,76,0.0,983.3,9.35,29.5,63,31.0,30.0,7,5,7,1,2026-04-22T02:26:42.308716+05:30
Erode,Tamil Nadu,11.341,77.7172,29.4,72,0.0,987.4,9.35,24.5,49,8.1,7.9,7,5,7,1,2026-04-22T02:26:42.308723+05:30
Kochi,Kerala,9.9312,76.2673,28.0,84,0.0,1006.8,9.05,28.8,75,37.1,33.1,7,5,4,1,2026-04-22T02:26:42.308730+05:30
Thiruvananthapuram,Kerala,8.5241,76.9366,28.4,82,0.0,1005.9,8.95,28.4,52,17.5,12.8,7,5,4,1,2026-04-22T02:26:42.308736+05:30
Kozhikode,Kerala,11.2588,75.7804,29.3,80,0.0,1006.1,9.1,29.5,70,34.8,25.6,7,5,4,1,2026-04-22T02:26:42.308743+05:30
Thrissur,Kerala,10.5276,76.2144,26.9,86,0.0,1005.3,9.0,36.7,74,44.7,37.3,7,5,4,1,2026-04-22T02:26:42.308751+05:30
Kannur,Kerala,11.8745,75.3704,28.8,85,0.0,1005.5,8.9,32.8,79,40.4,35.5,7,5,4,1,2026-04-22T02:26:42.308758+05:30
Patna,Bihar,25.5941,85.1376,27.9,42,0.0,995.3,8.65,40.0,93,47.7,23.7,4,5,7,0,2026-04-22T02:26:42.308765+05:30
Gaya,Bihar,24.7914,85.0002,28.3,39,0.0,989.5,8.75,45.0,96,65.9,29.7,4,5,7,0,2026-04-22T02:26:42.308771+05:30
Muzaffarpur,Bihar,26.1209,85.3647,25.9,43,0.0,994.8,8.6,26.3,91,61.7,23.9,4,5,7,0,2026-04-22T02:26:42.308778+05:30
Bhagalpur,Bihar,25.2425,87.0117,27.1,52,0.0,995.6,8.7,19.1,103,65.0,26.8,4,5,7,1,2026-04-22T02:26:42.308784+05:30
Ranchi,Jharkhand,23.3441,85.3096,27.2,31,0.0,935.5,9.25,38.9,78,95.7,33.2,4,5,7,0,2026-04-22T02:26:42.308790+05:30
Jamshedpur,Jharkhand,22.8046,86.2029,29.1,65,0.0,986.9,9.05,25.2,111,49.6,46.4,7,5,7,1,2026-04-22T02:26:42.308797+05:30
Dhanbad,Jharkhand,23.7957,86.4304,29.6,37,0.0,975.9,9.05,42.1,138,119.0,60.5,4,5,7,0,2026-04-22T02:26:42.308803+05:30
Bokaro,Jharkhand,23.6693,86.1511,27.1,39,0.0,980.3,9.05,43.2,122,121.1,53.3,4,5,7,0,2026-04-22T02:26:42.308810+05:30
Bhubaneswar,Odisha,20.2961,85.8245,26.9,95,0.0,999.1,9.15,29.5,75,17.9,15.6,7,5,7,1,2026-04-22T02:26:42.308816+05:30
Cuttack,Odisha,20.4625,85.8828,27.2,93,0.0,1000.9,9.2,32.0,75,17.9,15.6,7,5,4,1,2026-04-22T02:26:42.308823+05:30
Rourkela,Odisha,22.2604,84.8536,29.0,66,0.0,981.8,9.0,33.5,118,45.5,42.0,7,5,7,1,2026-04-22T02:26:42.308829+05:30
Raipur,Chhattisgarh,21.2514,81.6296,29.6,55,0.0,972.4,9.0,36.4,108,50.4,48.2,4,5,7,1,2026-04-22T02:26:42.308835+05:30
Bhilai,Chhattisgarh,21.1938,81.3509,28.6,62,0.0,972.7,9.0,34.6,100,46.9,44.5,7,5,7,1,2026-04-22T02:26:42.308842+05:30
Guwahati,Assam,26.1158,91.7086,23.7,87,0.0,997.5,8.6,42.5,98,43.5,38.3,3,5,7,1,2026-04-22T02:26:42.308848+05:30
Agartala,Tripura,23.8315,91.2868,26.9,91,0.0,1003.6,8.85,38.9,78,20.2,17.4,7,5,4,1,2026-04-22T02:26:42.308855+05:30
Shillong,Meghalaya,25.5788,91.8933,16.6,92,0.0,853.9,9.05,77.4,72,11.7,8.4,3,10,7,0,2026-04-22T02:26:42.308861+05:30
Imphal,Manipur,24.817,93.9368,20.1,87,0.0,921.2,9.2,84.6,153,86.8,79.6,3,5,7,1,2026-04-22T02:26:42.308867+05:30
Aizawl,Mizoram,23.7271,92.7176,21.5,86,0.0,891.0,9.05,59.4,99,33.2,28.1,3,5,7,1,2026-04-22T02:26:42.308874+05:30
Kohima,Nagaland,25.6701,94.1077,18.6,77,0.0,852.8,9.15,95.8,99,53.1,39.9,3,5,7,0,2026-04-22T02:26:42.308880+05:30
Gangtok,Sikkim,27.3314,88.6138,16.8,71,0.0,834.7,8.95,22.7,69,16.6,13.6,3,5,7,0,2026-04-22T02:26:42.308886+05:30
Siliguri,West Bengal,26.7271,88.3953,22.8,69,0.0,989.6,7.8,20.5,143,67.3,57.4,3,5,7,1,2026-04-22T02:26:45.631910+05:30
Durgapur,West Bengal,23.5204,87.3119,28.1,88,0.0,990.8,8.95,25.9,137,82.0,71.5,7,5,7,1,2026-04-22T02:26:45.631939+05:30
Asansol,West Bengal,23.6739,86.9524,29.2,84,0.0,989.2,9.0,25.2,130,102.7,63.3,7,5,7,1,2026-04-22T02:26:45.631948+05:30
Pondicherry,Puducherry,11.9139,79.8145,27.4,93,0.0,1007.0,8.95,30.6,42,8.5,5.9,7,5,4,1,2026-04-22T02:26:45.631955+05:30
Port Blair,Andaman and Nicobar Islands,11.6234,92.7265,29.1,76,0.0,1005.2,8.7,19.4,55,15.7,12.9,7,5,4,1,2026-04-22T02:26:45.631962+05:30
Haridwar,Uttarakhand,29.9457,78.1642,21.4,60,0.0,970.6,7.15,36.7,68,29.4,26.5,0,5,7,0,2026-04-22T02:26:45.631970+05:30
Rishikesh,Uttarakhand,30.0869,78.2676,22.0,59,0.0,963.8,7.2,36.7,82,29.2,20.9,0,5,7,0,2026-04-22T02:26:45.631977+05:30
Nainital,Uttarakhand,29.3919,79.4542,21.9,36,0.0,805.3,8.05,45.0,81,26.6,16.1,0,5,7,0,2026-04-22T02:26:45.631983+05:30
Mussoorie,Uttarakhand,30.4599,78.0664,19.2,46,0.0,801.7,7.65,40.7,61,29.0,25.6,0,5,7,0,2026-04-22T02:26:45.631990+05:30
Dharamshala,Himachal Pradesh,32.219,76.3234,23.3,36,0.0,868.0,7.95,27.4,57,23.5,10.6,0,5,7,0,2026-04-22T02:26:45.631996+05:30
Dalhousie,Himachal Pradesh,32.5387,75.971,19.6,36,0.0,803.0,8.25,29.9,57,27.6,21.4,0,5,7,0,2026-04-22T02:26:45.632003+05:30
Patiala,Punjab,30.3398,76.3869,23.1,49,0.0,974.7,7.25,26.3,355,180.7,50.2,0,5,7,0,2026-04-22T02:26:45.632010+05:30
Bhatinda,Punjab,30.211,74.9455,27.2,42,0.0,980.8,7.95,27.7,74,44.9,31.4,4,5,7,0,2026-04-22T02:26:45.632017+05:30
Rohtak,Haryana,28.8955,76.6066,23.4,59,0.0,978.3,7.1,33.8,596,635.2,105.0,0,5,7,0,2026-04-22T02:26:45.632023+05:30
Panipat,Haryana,29.3909,76.9635,23.5,51,0.0,976.8,7.2,32.4,1100,823.3,123.9,0,5,7,0,2026-04-22T02:26:45.632030+05:30
Mathura,Uttar Pradesh,27.4924,77.6737,27.0,44,0.0,983.4,7.65,33.5,861,555.1,98.3,4,5,7,0,2026-04-22T02:26:45.632036+05:30
Vrindavan,Uttar Pradesh,27.5823,77.7027,25.9,48,0.0,983.8,7.65,36.0,861,555.1,98.3,4,5,7,0,2026-04-22T02:26:45.632042+05:30
Ayodhya,Uttar Pradesh,26.7922,82.1998,25.7,44,0.0,990.7,8.05,43.9,88,273.8,59.1,4,5,7,0,2026-04-22T02:26:45.632048+05:30
Ratlam,Madhya Pradesh,23.3315,75.0367,27.0,39,0.0,953.7,8.5,29.9,65,17.0,14.1,4,5,7,0,2026-04-22T02:26:45.632055+05:30
Sagar,Madhya Pradesh,23.8388,78.7378,27.7,33,0.0,948.7,8.7,34.2,54,52.3,19.7,4,5,7,0,2026-04-22T02:26:45.632099+05:30
Satna,Madhya Pradesh,24.6005,80.8322,29.9,33,0.0,968.7,8.7,40.7,85,83.4,25.5,4,5,7,0,2026-04-22T02:26:45.632109+05:30
Akola,Maharashtra,20.7002,77.0082,29.3,42,0.0,973.2,8.85,26.3,84,32.0,28.1,4,5,7,0,2026-04-22T02:26:45.632117+05:30
Amravati,Maharashtra,20.9374,77.7796,29.5,46,0.0,965.3,8.9,22.7,85,32.0,28.5,4,5,7,1,2026-04-22T02:26:45.632124+05:30
Latur,Maharashtra,18.4088,76.5604,25.6,64,0.0,938.4,8.8,37.4,116,55.8,51.3,7,5,7,1,2026-04-22T02:26:45.632130+05:30
Nanded,Maharashtra,19.1383,77.3091,29.2,58,0.0,966.8,8.95,28.8,98,48.1,44.4,4,5,7,1,2026-04-22T02:26:45.632136+05:30
Gulbarga,Karnataka,17.3297,76.8343,27.4,63,0.0,957.5,8.85,56.2,115,49.4,45.9,7,5,7,1,2026-04-22T02:26:45.632143+05:30
Bidar,Karnataka,17.9104,77.5199,27.5,60,0.0,934.0,8.9,33.5,106,47.0,44.1,4,5,7,1,2026-04-22T02:26:45.632149+05:30
Hospet,Karnataka,15.2689,76.3909,26.8,72,0.0,954.2,9.25,37.8,98,42.0,38.9,7,5,7,1,2026-04-22T02:26:45.632155+05:30
Tirupur,Tamil Nadu,11.1085,77.3411,27.3,79,0.0,973.7,9.35,28.8,67,21.7,19.5,7,5,7,1,2026-04-22T02:26:45.632161+05:30
Alappuzha,Kerala,9.4981,76.3388,27.6,81,0.0,1007.0,8.9,25.6,70,32.6,26.1,7,5,4,1,2026-04-22T02:26:45.632167+05:30
Munnar,Kerala,10.0889,77.0595,21.4,85,0.0,855.3,9.6,32.4,73,30.4,28.8,3,5,7,1,2026-04-22T02:26:45.632174+05:30
Silchar,Assam,24.8333,92.7789,23.8,91,0.0,1003.2,8.2,44.6,139,40.3,31.2,3,5,4,1,2026-04-22T02:26:45.632181+05:30
Dibrugarh,Assam,27.4728,94.912,22.9,93,0.0,992.2,8.75,22.0,60,13.0,9.2,3,5,7,1,2026-04-22T02:26:45.632187+05:30
