city,state,latitude,longitude,temp,humidity,rain,pressure,uv_index,wind_gusts,aqi,pm10,pm2_5,mosquito_risk,arthritis_risk,migraine_risk,frizz_risk,updated_at
Delhi,Delhi,28.6139,77.209,22.6,62,0.0,988.0,5.85,23.8,160,131.3,63.8,3,5,3,0,2026-03-21T20:00:55.296396+05:30
Mumbai,Maharashtra,19.076,72.8777,27.9,65,0.0,1009.8,7.9,28.8,116,33.5,24.0,7,0,4,1,2026-03-21T20:00:55.296443+05:30
Bangalore,Karnataka,12.9716,77.5946,27.3,48,0.0,912.6,9.4,21.2,167,41.3,35.2,4,5,7,0,2026-03-21T20:00:55.296460+05:30
Hyderabad,Telangana,17.385,78.4867,28.1,52,0.0,954.7,8.85,31.0,165,38.8,30.4,4,5,7,1,2026-03-21T20:00:55.296471+05:30
Chennai,Tamil Nadu,13.0827,80.2707,27.9,78,0.0,1008.9,9.1,35.6,37,13.8,9.2,7,0,4,1,2026-03-21T20:00:55.296480+05:30
Kolkata,West Bengal,22.5726,88.3639,22.5,84,0.0,1010.6,7.5,19.8,62,32.7,31.3,3,0,4,1,2026-03-21T20:00:55.296489+05:30
Pune,Maharashtra,18.5204,73.8567,27.0,55,0.0,949.6,8.4,28.8,98,32.2,19.4,4,5,7,1,2026-03-21T20:00:55.296502+05:30
Ahmedabad,Gujarat,23.0225,72.5714,29.6,30,0.0,1004.9,7.6,15.1,129,34.0,24.2,4,5,4,0,2026-03-21T20:00:55.296510+05:30
Jaipur,Rajasthan,26.9124,75.7873,23.5,58,0.0,964.6,6.75,36.4,95,103.4,28.5,0,5,7,0,2026-03-21T20:00:55.296518+05:30
Lucknow,Uttar Pradesh,26.8467,80.9462,22.2,72,0.0,999.2,6.25,24.5,107,52.3,31.4,3,5,7,1,2026-03-21T20:00:55.296526+05:30
Kanpur,Uttar Pradesh,26.4499,80.3319,21.1,70,0.0,997.3,6.7,25.6,113,244.9,47.7,3,5,7,0,2026-03-21T20:00:55.296534+05:30
Chandigarh,Chandigarh,30.7333,76.7794,18.7,76,0.0,973.6,6.35,28.4,98,36.8,32.2,3,5,7,0,2026-03-21T20:00:55.296542+05:30
Srinagar,Jammu and Kashmir,34.0837,74.7973,11.9,55,0.0,842.5,6.7,14.0,144,51.0,45.5,0,5,7,0,2026-03-21T20:00:55.296550+05:30
Jammu,Jammu and Kashmir,32.7266,74.857,21.2,64,0.0,978.0,6.45,16.9,93,52.7,39.8,3,5,7,0,2026-03-21T20:00:55.296557+05:30
Amritsar,Punjab,31.634,74.8723,20.1,68,0.0,986.5,6.1,15.8,106,69.2,58.0,3,5,7,0,2026-03-21T20:00:55.296564+05:30
Ludhiana,Punjab,30.901,75.8573,19.9,68,0.0,984.3,6.0,23.0,154,51.0,43.3,3,5,3,0,2026-03-21T20:00:55.296570+05:30
Jalandhar,Punjab,31.326,75.5762,19.9,70,0.0,985.6,6.3,20.5,138,50.9,40.0,3,5,7,0,2026-03-21T20:00:55.296580+05:30
Dehradun,Uttarakhand,30.6284,78.0322,11.8,84,0.0,830.6,6.7,22.7,93,21.1,16.9,3,10,7,0,2026-03-21T20:00:55.296587+05:30
Shimla,Himachal Pradesh,31.1048,77.1734,9.1,87,0.0,783.9,6.6,33.5,88,30.3,23.7,3,10,7,0,2026-03-21T20:00:55.296595+05:30
Manali,Himachal Pradesh,32.2396,77.1887,12.1,59,0.0,818.6,8.65,22.0,116,13.9,9.6,0,5,7,0,2026-03-21T20:00:55.296603+05:30
Gurgaon,Haryana,28.4595,77.0266,21.0,72,0.0,986.4,6.1,20.5,171,237.0,82.0,3,5,7,0,2026-03-21T20:00:55.296610+05:30
Noida,Uttar Pradesh,28.5355,77.391,22.5,62,0.0,989.6,6.15,22.7,171,237.0,82.0,3,5,7,0,2026-03-21T20:00:55.296617+05:30
Ghaziabad,Uttar Pradesh,28.6692,77.4538,21.3,67,0.0,987.8,5.85,21.6,158,88.2,51.9,3,5,3,0,2026-03-21T20:00:55.296624+05:30
Faridabad,Haryana,28.4089,77.3178,21.4,66,0.0,988.8,6.4,20.9,171,237.0,82.0,3,5,7,0,2026-03-21T20:00:55.296630+05:30
Meerut,Uttar Pradesh,28.9845,77.7064,20.1,72,0.0,986.5,6.15,22.0,158,88.2,51.9,3,5,7,0,2026-03-21T20:00:55.296637+05:30
Agra,Uttar Pradesh,27.1767,78.0081,22.5,55,0.0,993.0,6.8,28.1,171,547.6,88.7,0,5,7,0,2026-03-21T20:00:55.296643+05:30
Varanasi,Uttar Pradesh,25.3176,82.9739,21.0,76,0.0,1003.3,5.1,26.3,101,58.2,43.0,3,5,0,1,2026-03-21T20:00:55.296652+05:30
Prayagraj,Uttar Pradesh,25.4358,81.8463,21.6,77,0.0,1001.8,7.35,25.2,99,46.2,35.2,3,5,4,1,2026-03-21T20:00:55.296660+05:30
Gorakhpur,Uttar Pradesh,26.7606,83.3732,18.8,92,0.0,1003.2,5.7,17.3,113,43.0,39.8,3,10,0,1,2026-03-21T20:00:55.296667+05:30
Bareilly,Uttar Pradesh,28.367,79.4304,19.8,80,0.0,992.2,6.6,18.0,136,25.3,22.7,3,5,7,1,2026-03-21T20:00:55.296676+05:30
Aligarh,Uttar Pradesh,27.8974,78.088,20.7,69,0.0,990.7,6.5,20.2,162,286.8,68.9,3,5,7,0,2026-03-21T20:00:55.296682+05:30
Moradabad,Uttar Pradesh,28.8386,78.7733,21.6,70,0.0,988.8,6.45,18.4,146,46.3,40.2,3,5,7,0,2026-03-21T20:00:55.296689+05:30
Saharanpur,Uttar Pradesh,29.9637,77.546,19.6,70,0.0,980.4,6.1,27.0,150,83.4,44.6,3,5,7,0,2026-03-21T20:00:55.296695+05:30
Jhansi,Uttar Pradesh,25.4484,78.5685,23.8,48,0.0,982.8,7.4,24.5,91,35.9,21.3,0,5,7,0,2026-03-21T20:00:58.522744+05:30
Surat,Gujarat,21.1702,72.8311,26.7,52,0.0,1008.8,7.55,28.1,110,40.4,36.4,4,0,4,1,2026-03-21T20:00:58.522779+05:30
Vadodara,Gujarat,22.3072,73.1812,28.8,39,0.0,1006.6,7.55,15.5,104,25.0,19.3,4,5,4,0,2026-03-21T20:00:58.522790+05:30
Rajkot,Gujarat,22.3039,70.8022,28.7,44,0.0,997.0,7.05,20.5,88,31.2,14.6,4,5,7,0,2026-03-21T20:00:58.522799+05:30
Thane,Maharashtra,19.2183,72.9781,27.2,58,0.0,1009.2,7.85,42.8,116,33.5,24.0,4,0,4,1,2026-03-21T20:00:58.522808+05:30
Nagpur,Maharashtra,21.1458,79.0882,28.2,31,0.0,975.5,8.3,24.8,89,25.0,18.1,4,5,7,0,2026-03-21T20:00:58.522816+05:30
Nashik,Maharashtra,19.9975,73.7898,26.3,31,0.0,947.0,8.05,22.7,95,17.7,14.7,4,5,7,0,2026-03-21T20:00:58.522825+05:30
Aurangabad,Maharashtra,19.8762,75.3433,27.9,28,0.0,945.7,8.6,24.5,103,17.6,14.0,4,5,7,0,2026-03-21T20:00:58.522833+05:30
Solapur,Maharashtra,17.6599,75.9064,29.9,33,0.0,957.8,8.75,27.7,120,36.6,22.4,4,5,7,0,2026-03-21T20:00:58.522842+05:30
Kolhapur,Maharashtra,16.705,74.2433,24.8,43,0.0,948.7,8.85,28.8,82,47.0,34.9,0,5,7,0,2026-03-21T20:00:58.522850+05:30
Goa,Goa,15.2993,74.124,27.8,75,0.0,998.8,8.85,35.3,114,50.8,27.4,7,5,7,1,2026-03-21T20:00:58.522858+05:30
Jodhpur,Rajasthan,26.2389,73.0243,26.6,43,0.0,987.0,6.6,24.1,88,56.3,16.1,4,5,7,0,2026-03-21T20:00:58.522866+05:30
Udaipur,Rajasthan,24.5854,73.7125,25.1,41,0.0,949.9,7.1,11.9,84,24.4,9.9,4,5,7,0,2026-03-21T20:00:58.522875+05:30
Kota,Rajasthan,25.2138,75.8648,24.9,37,0.0,982.7,7.5,22.0,97,31.7,19.8,0,5,7,0,2026-03-21T20:00:58.522882+05:30
Bikaner,Rajasthan,28.0229,73.3119,25.1,48,0.0,987.3,6.25,28.4,62,27.5,10.0,4,5,7,0,2026-03-21T20:00:58.522891+05:30
Ajmer,Rajasthan,26.4499,74.6399,24.0,46,0.0,958.7,7.4,25.2,93,40.3,16.5,0,5,7,0,2026-03-21T20:00:58.522922+05:30
Gwalior,Madhya Pradesh,26.2183,78.1828,24.6,54,0.0,988.2,7.1,25.6,111,120.6,34.2,0,5,7,0,2026-03-21T20:00:58.522938+05:30
Indore,Madhya Pradesh,22.7196,75.8577,23.7,44,0.0,950.8,7.95,22.7,82,22.7,16.2,0,5,7,0,2026-03-21T20:00:58.522947+05:30
Bhopal,Madhya Pradesh,23.2599,77.4126,23.3,38,0.0,957.2,7.9,23.8,83,19.0,12.6,0,5,7,0,2026-03-21T20:00:58.522955+05:30
Jabalpur,Madhya Pradesh,23.1815,79.9864,23.5,47,0.0,965.4,8.0,31.3,74,20.4,13.6,0,5,7,0,2026-03-21T20:00:58.522963+05:30
Ujjain,Madhya Pradesh,23.1765,75.7885,24.9,43,0.0,956.8,7.75,19.4,80,34.1,24.4,0,5,7,0,2026-03-21T20:00:58.522971+05:30
Visakhapatnam,Andhra Pradesh,17.6868,83.2185,25.8,84,0.0,1006.3,8.8,35.3,74,16.2,13.1,7,5,4,1,2026-03-21T20:00:58.522980+05:30
Vijayawada,Andhra Pradesh,16.5062,80.648,28.2,71,0.0,1004.6,8.85,24.8,60,32.1,27.1,7,5,4,1,2026-03-21T20:00:58.522988+05:30
Guntur,Andhra Pradesh,16.3067,80.4365,27.1,79,0.0,1005.7,8.85,23.8,55,34.2,27.9,7,5,4,1,2026-03-21T20:00:58.522997+05:30
Nellore,Andhra Pradesh,14.4426,79.9865,27.4,80,0.0,1007.8,9.0,35.3,55,13.7,9.8,7,5,4,1,2026-03-21T20:00:58.523005+05:30
Kurnool,Andhra Pradesh,15.8281,78.0373,32.2,32,0.0,977.0,8.9,19.4,152,36.2,27.8,0,5,7,0,2026-03-21T20:00:58.523014+05:30
Kakinada,Andhra Pradesh,16.9891,82.2475,26.3,79,0.0,1009.7,8.85,26.6,40,10.7,7.6,7,0,4,1,2026-03-21T20:00:58.523022+05:30
Tirupati,Andhra Pradesh,13.6288,79.4192,28.3,67,0.0,993.1,8.85,26.3,99,32.7,27.1,7,5,7,1,2026-03-21T20:00:58.523030+05:30
Warangal,Telangana,17.9689,79.5941,26.3,70,0.0,980.6,8.65,28.4,109,56.8,47.5,7,5,7,1,2026-03-21T20:00:58.523038+05:30
Nizamabad,Telangana,18.6725,78.0941,29.3,42,0.0,966.0,8.6,34.9,88,47.0,30.6,4,5,7,0,2026-03-21T20:00:58.523046+05:30
Mysore,Karnataka,12.2958,76.6396,26.5,62,0.0,929.3,9.4,44.3,165,42.7,32.8,7,5,7,1,2026-03-21T20:00:58.523054+05:30
Mangalore,Karnataka,12.9141,74.856,29.5,74,0.0,1007.4,9.05,29.2,78,31.5,16.9,7,5,4,1,2026-03-21T20:00:58.523061+05:30
Hubli-Dharwad,Karnataka,15.3647,75.124,27.0,43,0.0,941.3,9.05,28.8,134,35.0,26.9,4,5,7,0,2026-03-21T20:00:58.523069+05:30
Belgaum,Karnataka,15.8497,74.4977,24.9,53,0.0,926.5,9.1,36.4,126,27.5,20.9,0,5,7,0,2026-03-21T20:01:01.760011+05:30
Coimbatore,Tamil Nadu,11.0168,76.9558,26.6,69,0.0,962.5,9.35,47.2,150,29.0,22.8,7,5,7,1,2026-03-21T20:01:01.760041+05:30
Madurai,Tamil Nadu,9.9252,78.1198,29.9,63,0.0,994.0,9.3,38.9,102,12.2,9.2,7,5,7,1,2026-03-21T20:01:01.760052+05:30
Trichy,Tamil Nadu,10.7905,78.7047,29.1,70,0.0,1000.7,9.25,29.5,88,15.8,13.9,7,5,4,1,2026-03-21T20:01:01.760060+05:30
Salem,Tamil Nadu,11.6643,78.146,30.3,52,0.0,977.6,9.3,26.6,141,33.3,28.2,0,5,7,1,2026-03-21T20:01:01.760068+05:30
Tirunelveli,Tamil Nadu,8.7139,77.7567,28.7,70,0.0,1004.2,9.3,42.8,127,17.3,15.2,7,5,4,1,2026-03-21T20:01:01.760075+05:30
Vellore,Tamil Nadu,12.9165,79.1325,28.6,61,0.0,985.9,9.2,37.1,102,16.2,14.4,7,5,7,1,2026-03-21T20:01:01.760083+05:30
Erode,Tamil Nadu,11.341,77.7172,31.5,51,0.0,989.0,9.3,24.5,118,20.9,16.7,0,5,7,1,2026-03-21T20:01:01.760091+05:30
Kochi,Kerala,9.9312,76.2673,29.2,72,0.0,1009.7,9.15,33.8,102,27.0,22.8,7,0,4,1,2026-03-21T20:01:01.760099+05:30
Thiruvananthapuram,Kerala,8.5241,76.9366,28.0,80,0.0,1009.3,8.55,24.8,108,24.0,17.5,7,0,4,1,2026-03-21T20:01:01.760106+05:30
Kozhikode,Kerala,11.2588,75.7804,29.2,78,0.0,1008.7,9.05,31.3,73,22.0,14.8,7,0,4,1,2026-03-21T20:01:01.760113+05:30
Thrissur,Kerala,10.5276,76.2144,28.8,71,0.0,1007.9,9.15,38.9,88,18.3,15.3,7,5,4,1,2026-03-21T20:01:01.760122+05:30
Kannur,Kerala,11.8745,75.3704,28.9,77,0.0,1008.0,9.1,34.9,91,25.3,15.6,7,0,4,1,2026-03-21T20:01:01.760133+05:30
Patna,Bihar,25.5941,85.1376,20.7,84,0.0,1006.3,7.2,24.5,140,59.5,55.8,3,5,4,1,2026-03-21T20:01:01.760140+05:30
Gaya,Bihar,24.7914,85.0002,20.4,84,0.0,999.5,7.65,24.8,118,46.2,42.3,3,5,7,1,2026-03-21T20:01:01.760147+05:30
Muzaffarpur,Bihar,26.1209,85.3647,18.7,93,0.0,1006.4,5.2,23.8,145,56.6,54.2,3,10,0,1,2026-03-21T20:01:01.760154+05:30
Bhagalpur,Bihar,25.2425,87.0117,20.3,90,0.0,1007.0,5.85,24.5,121,36.1,33.3,3,5,0,1,2026-03-21T20:01:01.760161+05:30
Ranchi,Jharkhand,23.3441,85.3096,19.7,71,0.0,940.8,8.35,32.0,114,28.5,26.1,3,5,7,0,2026-03-21T20:01:01.760169+05:30
Jamshedpur,Jharkhand,22.8046,86.2029,23.0,71,0.0,995.4,7.75,29.9,120,36.1,34.0,3,5,7,1,2026-03-21T20:01:01.760176+05:30
Dhanbad,Jharkhand,23.7957,86.4304,21.4,74,0.0,984.7,7.6,27.0,150,52.6,49.2,3,5,7,1,2026-03-21T20:01:01.760183+05:30
Bokaro,Jharkhand,23.6693,86.1511,20.6,79,0.0,988.7,5.8,37.4,144,54.2,52.0,3,5,3,1,2026-03-21T20:01:01.760190+05:30
Bhubaneswar,Odisha,20.2961,85.8245,25.1,77,0.0,1005.5,8.55,28.1,156,44.1,39.6,7,5,4,1,2026-03-21T20:01:01.760198+05:30
Cuttack,Odisha,20.4625,85.8828,27.5,61,0.0,1007.1,8.6,25.9,156,44.1,39.6,7,5,4,1,2026-03-21T20:01:01.760205+05:30
Rourkela,Odisha,22.2604,84.8536,27.1,48,0.0,987.7,8.15,29.9,152,51.9,41.4,4,5,7,0,2026-03-21T20:01:01.760212+05:30
Raipur,Chhattisgarh,21.2514,81.6296,27.4,24,0.0,977.3,8.35,31.7,116,53.2,42.5,4,5,7,0,2026-03-21T20:01:01.760219+05:30
Bhilai,Chhattisgarh,21.1938,81.3509,26.1,28,0.0,977.6,8.35,33.8,109,28.0,23.1,4,5,7,0,2026-03-21T20:01:01.760226+05:30
Guwahati,Assam,26.1158,91.7086,22.5,92,0.0,1006.6,2.65,18.7,87,42.0,36.8,3,5,0,1,2026-03-21T20:01:01.760232+05:30
Agartala,Tripura,23.8315,91.2868,22.5,79,0.0,1010.1,5.1,18.4,115,41.7,34.6,3,0,0,1,2026-03-21T20:01:01.760239+05:30
Shillong,Meghalaya,25.5788,91.8933,11.9,91,0.1,857.2,5.05,23.8,74,40.9,29.3,6,10,3,0,2026-03-21T20:01:01.760246+05:30
Imphal,Manipur,24.817,93.9368,17.0,85,0.0,925.3,7.45,35.3,89,39.2,32.2,3,10,7,0,2026-03-21T20:01:01.760254+05:30
Aizawl,Mizoram,23.7271,92.7176,16.7,87,0.0,894.2,5.35,34.6,112,55.2,42.5,3,10,3,0,2026-03-21T20:01:01.760262+05:30
Kohima,Nagaland,25.6701,94.1077,13.9,95,0.2,856.5,7.0,57.2,73,34.2,25.2,6,10,7,0,2026-03-21T20:01:01.760269+05:30
Gangtok,Sikkim,27.3314,88.6138,9.9,94,0.2,837.7,1.95,16.6,105,34.3,27.3,6,10,3,0,2026-03-21T20:01:01.760276+05:30
Siliguri,West Bengal,26.7271,88.3953,17.3,67,0.0,998.9,0.45,29.2,103,63.3,48.5,3,5,3,0,2026-03-21T20:01:04.988681+05:30
Durgapur,West Bengal,23.5204,87.3119,22.5,73,0.0,1000.1,7.8,19.1,125,39.3,36.2,3,5,4,1,2026-03-21T20:01:04.988712+05:30
Asansol,West Bengal,23.6739,86.9524,22.4,72,0.0,998.7,6.55,21.2,132,40.7,36.9,3,5,7,1,2026-03-21T20:01:04.988724+05:30
Pondicherry,Puducherry,11.9139,79.8145,26.9,85,0.0,1010.0,9.15,30.6,33,13.0,8.2,7,0,4,1,2026-03-21T20:01:04.988734+05:30
Port Blair,Andaman and Nicobar Islands,11.6234,92.7265,28.7,76,0.0,1008.8,9.1,14.8,50,13.3,10.0,7,0,4,1,2026-03-21T20:01:04.988744+05:30
Haridwar,Uttarakhand,29.9457,78.1642,20.2,72,0.0,978.8,6.2,21.6,106,40.5,34.3,3,5,7,0,2026-03-21T20:01:04.988753+05:30
Rishikesh,Uttarakhand,30.0869,78.2676,20.2,70,0.0,971.4,6.25,20.9,97,23.7,20.4,3,5,7,0,2026-03-21T20:01:04.988762+05:30
Nainital,Uttarakhand,29.3919,79.4542,12.4,90,0.0,806.4,6.9,34.2,69,19.0,16.1,3,10,7,0,2026-03-21T20:01:04.988771+05:30
Mussoorie,Uttarakhand,30.4599,78.0664,12.0,79,0.0,802.9,6.6,26.3,102,33.1,29.6,3,5,7,0,2026-03-21T20:01:04.988780+05:30
Dharamshala,Himachal Pradesh,32.219,76.3234,14.8,77,0.0,870.7,6.6,17.6,91,27.0,18.5,3,5,7,0,2026-03-21T20:01:04.988788+05:30
Dalhousie,Himachal Pradesh,32.5387,75.971,12.1,78,0.0,804.2,6.25,17.3,74,41.4,32.4,3,5,7,0,2026-03-21T20:01:04.988797+05:30
Patiala,Punjab,30.3398,76.3869,19.0,71,0.0,983.4,5.85,23.8,153,200.7,48.7,3,5,3,0,2026-03-21T20:01:04.988806+05:30
Bhatinda,Punjab,30.211,74.9455,20.8,71,0.0,989.6,5.55,18.0,131,87.8,63.3,3,5,3,0,2026-03-21T20:01:04.988814+05:30
Rohtak,Haryana,28.8955,76.6066,20.6,72,0.0,986.9,5.9,22.7,165,134.1,67.3,3,5,3,0,2026-03-21T20:01:04.988822+05:30
Panipat,Haryana,29.3909,76.9635,19.6,76,0.0,985.4,6.0,24.8,164,227.7,63.1,3,5,3,0,2026-03-21T20:01:04.988831+05:30
Mathura,Uttar Pradesh,27.4924,77.6737,22.5,62,0.0,992.1,6.7,23.8,159,372.5,80.6,3,5,7,0,2026-03-21T20:01:04.988839+05:30
Vrindavan,Uttar Pradesh,27.5823,77.7027,21.6,68,0.0,992.5,6.65,21.6,159,372.5,80.6,3,5,7,0,2026-03-21T20:01:04.988848+05:30
Ayodhya,Uttar Pradesh,26.7922,82.1998,20.9,78,0.0,1001.2,6.95,22.0,92,48.8,39.5,3,5,4,1,2026-03-21T20:01:04.988856+05:30
Ratlam,Madhya Pradesh,23.3315,75.0367,24.8,48,0.0,957.2,7.55,21.2,80,28.8,18.7,0,5,7,0,2026-03-21T20:01:04.988865+05:30
Sagar,Madhya Pradesh,23.8388,78.7378,23.6,44,0.0,954.2,7.9,28.4,89,18.0,12.1,0,5,7,0,2026-03-21T20:01:04.988873+05:30
Satna,Madhya Pradesh,24.6005,80.8322,21.8,64,0.0,976.1,7.8,32.8,76,22.2,12.2,3,5,7,0,2026-03-21T20:01:04.988881+05:30
Akola,Maharashtra,20.7002,77.0082,27.5,29,0.0,977.3,8.25,23.0,103,28.1,21.9,4,5,7,0,2026-03-21T20:01:04.988890+05:30
Amravati,Maharashtra,20.9374,77.7796,28.1,36,0.0,969.2,8.3,25.2,98,24.1,18.1,4,5,7,0,2026-03-21T20:01:04.988936+05:30
Latur,Maharashtra,18.4088,76.5604,27.4,35,0.0,940.7,8.65,34.2,111,31.1,20.9,4,5,7,0,2026-03-21T20:01:04.988955+05:30
Nanded,Maharashtra,19.1383,77.3091,29.8,32,0.0,969.8,8.5,28.1,87,45.2,25.6,4,5,7,0,2026-03-21T20:01:04.988964+05:30
Gulbarga,Karnataka,17.3297,76.8343,31.3,27,0.0,959.4,8.75,42.1,144,32.6,22.2,0,5,7,0,2026-03-21T20:01:04.988972+05:30
Bidar,Karnataka,17.9104,77.5199,29.2,35,0.0,936.6,8.75,40.3,97,27.9,19.6,4,5,7,0,2026-03-21T20:01:04.988981+05:30
Hospet,Karnataka,15.2689,76.3909,30.3,44,0.0,956.2,9.0,19.4,175,29.3,23.7,0,5,7,1,2026-03-21T20:01:04.988989+05:30
Tirupur,Tamil Nadu,11.1085,77.3411,30.8,50,0.0,975.6,9.4,33.5,141,27.4,20.3,0,5,7,1,2026-03-21T20:01:04.988999+05:30
Alappuzha,Kerala,9.4981,76.3388,29.0,74,0.0,1009.8,9.1,29.2,91,21.4,16.4,7,0,4,1,2026-03-21T20:01:04.989008+05:30
Munnar,Kerala,10.0889,77.0595,20.9,88,0.0,857.6,9.65,30.6,104,27.5,22.5,3,5,7,1,2026-03-21T20:01:04.989017+05:30
Silchar,Assam,24.8333,92.7789,23.4,75,0.0,1008.3,6.8,22.3,99,57.6,45.5,3,0,4,1,2026-03-21T20:01:04.989026+05:30
Dibrugarh,Assam,27.4728,94.912,23.7,83,0.0,999.1,7.6,20.5,91,57.9,46.8,3,5,7,1,2026-03-21T20:01:04.989034+05:30
