city,state,latitude,longitude,temp,humidity,rain,pressure,uv_index,wind_gusts,aqi,pm10,pm2_5,no2,co,o3,so2,mosquito_risk,arthritis_risk,migraine_risk,frizz_risk,updated_at
Delhi,Delhi,28.6139,77.209,32.4,69,0.0,975.9,5.95,23.4,166,297.1,67.5,16.0,552.0,94.0,17.8,3,5,3,1,2026-07-20T15:44:32.082887+05:30
Mumbai,Maharashtra,19.076,72.8777,26.7,87,0.3,1005.0,7.75,49.7,55,21.9,11.9,6.9,176.0,59.0,6.6,10,5,4,1,2026-07-20T15:44:32.082925+05:30
Bangalore,Karnataka,12.9716,77.5946,27.2,62,0.1,910.7,9.0,48.6,44,15.0,7.8,7.7,357.0,61.0,2.5,10,5,7,1,2026-07-20T15:44:32.082940+05:30
Hyderabad,Telangana,17.385,78.4867,27.4,73,0.1,949.5,8.0,46.4,43,14.1,7.3,3.0,267.0,69.0,2.4,10,5,7,1,2026-07-20T15:44:32.082950+05:30
Chennai,Tamil Nadu,13.0827,80.2707,31.4,67,0.0,1003.6,8.2,43.9,79,33.1,23.1,7.1,244.0,113.0,7.9,3,5,4,1,2026-07-20T15:44:32.082958+05:30
Kolkata,West Bengal,22.5726,88.3639,27.2,95,0.3,1000.7,8.8,26.3,77,22.2,17.5,5.4,361.0,85.0,6.0,10,5,4,1,2026-07-20T15:44:32.082966+05:30
Pune,Maharashtra,18.5204,73.8567,24.6,90,0.3,944.7,5.75,50.8,25,10.4,5.7,2.9,152.0,57.0,3.3,6,5,3,1,2026-07-20T15:44:32.082973+05:30
Ahmedabad,Gujarat,23.0225,72.5714,31.4,65,0.0,994.7,6.25,30.6,62,26.4,11.6,2.8,137.0,80.0,4.2,3,5,7,1,2026-07-20T15:44:32.082980+05:30
Jaipur,Rajasthan,26.9124,75.7873,32.6,56,0.0,953.7,6.05,31.3,123,191.9,36.4,2.4,181.0,103.0,4.0,0,5,7,1,2026-07-20T15:44:32.082987+05:30
Lucknow,Uttar Pradesh,26.8467,80.9462,30.2,73,0.0,987.3,7.15,25.2,98,21.1,14.8,4.8,306.0,117.0,4.9,3,5,7,1,2026-07-20T15:44:32.082997+05:30
Kanpur,Uttar Pradesh,26.4499,80.3319,29.9,76,0.0,985.7,4.35,27.0,93,17.8,14.1,6.0,216.0,102.0,5.3,7,5,3,1,2026-07-20T15:44:32.083004+05:30
Chandigarh,Chandigarh,30.7333,76.7794,29.1,74,0.0,963.0,4.05,40.3,156,67.8,31.4,7.3,331.0,140.0,10.3,7,5,3,1,2026-07-20T15:44:32.083010+05:30
Srinagar,Jammu and Kashmir,34.0837,74.7973,26.7,67,0.0,838.2,8.75,22.0,71,10.1,8.3,4.1,310.0,128.0,3.3,7,5,7,1,2026-07-20T15:44:32.083017+05:30
Jammu,Jammu and Kashmir,32.7266,74.857,30.0,80,0.0,965.5,8.45,24.5,113,113.2,41.9,3.5,249.0,125.0,3.8,7,5,7,1,2026-07-20T15:44:32.083023+05:30
Amritsar,Punjab,31.634,74.8723,33.0,71,0.1,973.1,8.3,31.0,173,140.2,60.5,6.3,304.0,117.0,5.4,6,5,7,1,2026-07-20T15:44:32.083029+05:30
Ludhiana,Punjab,30.901,75.8573,31.1,77,0.1,971.7,5.85,28.1,175,126.2,47.8,4.6,292.0,123.0,7.6,6,5,3,1,2026-07-20T15:44:32.083035+05:30
Jalandhar,Punjab,31.326,75.5762,30.3,81,0.2,972.7,7.75,31.0,173,136.9,53.3,4.0,289.0,133.0,7.7,6,5,7,1,2026-07-20T15:44:32.083041+05:30
Dehradun,Uttarakhand,30.6284,78.0322,20.7,90,0.0,828.1,5.35,15.1,57,24.0,10.9,3.8,191.0,105.0,1.7,3,5,3,1,2026-07-20T15:44:32.083047+05:30
Shimla,Himachal Pradesh,31.1048,77.1734,19.0,92,0.1,783.0,7.4,31.3,84,34.2,14.7,3.7,168.0,110.0,4.1,6,10,7,1,2026-07-20T15:44:32.083053+05:30
Manali,Himachal Pradesh,32.2396,77.1887,22.4,97,0.1,817.7,8.45,28.1,39,1.7,1.4,4.1,186.0,106.0,0.4,6,5,7,1,2026-07-20T15:44:32.083061+05:30
Gurgaon,Haryana,28.4595,77.0266,33.1,62,0.0,974.4,7.3,27.7,196,150.4,43.9,12.4,321.0,88.0,11.2,3,5,7,1,2026-07-20T15:44:32.083070+05:30
Noida,Uttar Pradesh,28.5355,77.391,32.4,72,0.0,977.2,6.05,24.8,196,150.4,43.9,12.4,499.0,88.0,11.2,3,5,7,1,2026-07-20T15:44:32.083076+05:30
Ghaziabad,Uttar Pradesh,28.6692,77.4538,31.7,74,0.0,975.6,4.35,29.2,154,239.3,71.0,13.9,281.0,119.0,26.3,3,5,3,1,2026-07-20T15:44:32.083082+05:30
Faridabad,Haryana,28.4089,77.3178,32.9,66,0.0,976.5,5.5,31.3,196,150.4,43.9,12.4,562.0,88.0,11.2,3,5,3,1,2026-07-20T15:44:32.083089+05:30
Meerut,Uttar Pradesh,28.9845,77.7064,30.9,76,0.0,974.6,6.15,29.9,154,239.3,71.0,13.9,229.0,119.0,26.3,3,5,7,1,2026-07-20T15:44:32.083096+05:30
Agra,Uttar Pradesh,27.1767,78.0081,29.2,84,0.0,981.4,1.3,30.2,84,64.5,26.3,4.3,172.0,99.0,3.1,7,5,3,1,2026-07-20T15:44:32.083102+05:30
Varanasi,Uttar Pradesh,25.3176,82.9739,27.9,91,0.2,991.3,4.25,25.2,98,14.2,14.1,8.0,398.0,122.0,6.8,10,5,3,1,2026-07-20T15:44:32.083108+05:30
Prayagraj,Uttar Pradesh,25.4358,81.8463,29.5,83,0.0,989.6,7.15,22.7,100,28.1,19.7,3.6,223.0,145.0,5.9,7,5,7,1,2026-07-20T15:44:32.083114+05:30
Gorakhpur,Uttar Pradesh,26.7606,83.3732,29.5,83,0.0,991.3,8.2,27.0,72,8.9,8.9,3.9,374.0,139.0,6.2,7,5,7,1,2026-07-20T15:44:32.083121+05:30
Bareilly,Uttar Pradesh,28.367,79.4304,27.8,91,0.2,980.5,0.7,37.1,89,16.4,13.7,5.6,275.0,120.0,4.4,10,5,3,1,2026-07-20T15:44:32.083128+05:30
Aligarh,Uttar Pradesh,27.8974,78.088,29.5,88,0.0,978.8,2.6,28.8,111,127.6,45.1,4.7,203.0,106.0,8.4,7,5,3,1,2026-07-20T15:44:32.083135+05:30
Moradabad,Uttar Pradesh,28.8386,78.7733,28.8,83,0.0,977.2,5.85,32.0,108,31.0,18.5,7.5,273.0,127.0,15.2,7,5,3,1,2026-07-20T15:44:32.083141+05:30
Saharanpur,Uttar Pradesh,29.9637,77.546,28.3,88,0.0,969.9,5.1,33.8,111,30.2,16.0,6.8,268.0,95.0,6.4,7,5,3,1,2026-07-20T15:44:32.083147+05:30
Jhansi,Uttar Pradesh,25.4484,78.5685,30.6,67,0.0,972.3,1.9,21.6,75,18.6,14.2,6.5,206.0,81.0,6.8,3,5,3,1,2026-07-20T15:44:35.310801+05:30
Surat,Gujarat,21.1702,72.8311,29.9,75,0.0,1000.9,7.15,46.4,63,24.6,16.4,15.1,230.0,42.0,33.2,7,5,4,1,2026-07-20T15:44:35.310830+05:30
Vadodara,Gujarat,22.3072,73.1812,28.0,85,0.2,998.0,6.9,41.0,59,20.0,10.5,5.6,150.0,70.0,4.4,10,5,7,1,2026-07-20T15:44:35.310840+05:30
Rajkot,Gujarat,22.3039,70.8022,32.5,56,0.1,987.1,6.35,44.3,58,29.6,14.3,1.4,104.0,77.0,4.2,3,5,7,1,2026-07-20T15:44:35.310847+05:30
Thane,Maharashtra,19.2183,72.9781,27.1,87,0.0,1004.2,7.7,37.1,55,21.9,11.9,6.9,167.0,59.0,6.6,7,5,4,1,2026-07-20T15:44:35.310855+05:30
Nagpur,Maharashtra,21.1458,79.0882,29.7,76,0.1,967.5,5.4,30.6,68,17.6,12.2,11.2,178.0,82.0,26.5,10,5,3,1,2026-07-20T15:44:35.310862+05:30
Nashik,Maharashtra,19.9975,73.7898,24.6,85,0.0,941.2,6.35,47.2,22,10.0,5.9,2.9,141.0,58.0,2.4,3,5,7,1,2026-07-20T15:44:35.310868+05:30
Aurangabad,Maharashtra,19.8762,75.3433,28.3,67,0.0,939.6,7.35,52.2,30,12.4,6.8,3.3,133.0,66.0,5.6,7,5,7,1,2026-07-20T15:44:35.310875+05:30
Solapur,Maharashtra,17.6599,75.9064,26.9,78,0.0,953.8,7.4,48.6,30,10.4,5.4,2.4,126.0,60.0,1.5,7,5,7,1,2026-07-20T15:44:35.310881+05:30
Kolhapur,Maharashtra,16.705,74.2433,25.1,83,0.0,945.8,7.85,54.0,24,6.6,4.5,4.3,135.0,49.0,1.9,7,5,7,1,2026-07-20T15:44:35.310888+05:30
Goa,Goa,15.2993,74.124,25.5,96,0.5,997.7,5.25,35.6,56,22.2,11.2,1.4,115.0,54.0,0.8,10,5,3,1,2026-07-20T15:44:35.310894+05:30
Jodhpur,Rajasthan,26.2389,73.0243,35.9,45,0.0,975.2,7.9,35.3,81,56.5,15.7,1.1,109.0,88.0,1.5,0,5,10,1,2026-07-20T15:44:35.310901+05:30
Udaipur,Rajasthan,24.5854,73.7125,30.6,62,0.1,940.4,6.05,32.4,64,34.6,17.8,1.9,118.0,90.0,6.0,6,5,7,1,2026-07-20T15:44:35.310907+05:30
Kota,Rajasthan,25.2138,75.8648,33.1,56,0.0,972.4,1.35,32.4,73,29.5,16.8,1.5,144.0,116.0,7.4,0,5,3,1,2026-07-20T15:44:35.310914+05:30
Bikaner,Rajasthan,28.0229,73.3119,38.9,34,0.0,973.1,8.4,45.7,94,83.4,28.3,0.5,107.0,83.0,2.2,0,5,10,1,2026-07-20T15:44:35.310920+05:30
Ajmer,Rajasthan,26.4499,74.6399,32.2,56,0.0,948.3,7.45,37.4,65,29.2,15.5,1.6,125.0,97.0,3.6,0,5,7,1,2026-07-20T15:44:35.310927+05:30
Gwalior,Madhya Pradesh,26.2183,78.1828,29.3,76,0.1,977.4,1.4,29.5,74,33.1,21.8,4.8,171.0,98.0,4.7,10,5,3,1,2026-07-20T15:44:35.310933+05:30
Indore,Madhya Pradesh,22.7196,75.8577,27.2,76,0.1,942.8,5.4,33.5,59,20.2,10.9,2.9,193.0,81.0,4.1,10,5,3,1,2026-07-20T15:44:35.310939+05:30
Bhopal,Madhya Pradesh,23.2599,77.4126,28.7,70,0.1,948.1,6.2,28.1,67,18.0,12.2,3.8,239.0,82.0,4.9,10,5,7,1,2026-07-20T15:44:35.310945+05:30
Jabalpur,Madhya Pradesh,23.1815,79.9864,27.0,89,0.2,955.9,1.95,25.6,81,16.5,12.4,2.9,201.0,97.0,2.6,10,5,3,1,2026-07-20T15:44:35.310952+05:30
Ujjain,Madhya Pradesh,23.1765,75.7885,26.2,91,0.1,948.3,4.55,29.5,60,21.1,11.5,1.8,158.0,81.0,4.2,10,5,3,1,2026-07-20T15:44:35.310958+05:30
Visakhapatnam,Andhra Pradesh,17.6868,83.2185,28.5,89,0.4,997.6,7.5,49.7,77,28.2,21.6,10.8,307.0,115.0,26.5,10,5,7,1,2026-07-20T15:44:35.310965+05:30
Vijayawada,Andhra Pradesh,16.5062,80.648,33.9,50,0.0,997.6,6.65,41.4,60,12.5,7.6,2.2,128.0,84.0,3.9,0,5,7,1,2026-07-20T15:44:35.310971+05:30
Guntur,Andhra Pradesh,16.3067,80.4365,29.1,75,0.1,999.9,6.5,49.3,56,12.8,7.2,2.2,124.0,79.0,3.2,10,5,7,1,2026-07-20T15:44:35.310978+05:30
Nellore,Andhra Pradesh,14.4426,79.9865,32.4,59,0.0,1001.7,6.85,39.6,66,25.4,13.7,4.3,115.0,89.0,4.8,0,5,4,1,2026-07-20T15:44:35.310985+05:30
Kurnool,Andhra Pradesh,15.8281,78.0373,29.0,67,0.0,973.9,8.55,47.2,46,24.8,10.4,1.4,115.0,76.0,1.7,7,5,7,1,2026-07-20T15:44:35.310992+05:30
Kakinada,Andhra Pradesh,16.9891,82.2475,31.7,64,0.0,1002.1,7.75,50.0,68,16.6,12.3,2.1,162.0,105.0,3.8,3,5,4,1,2026-07-20T15:44:35.310999+05:30
Tirupati,Andhra Pradesh,13.6288,79.4192,31.2,60,0.0,987.7,8.75,37.1,66,21.0,8.9,3.5,104.0,68.0,1.2,0,5,7,1,2026-07-20T15:44:35.311005+05:30
Warangal,Telangana,17.9689,79.5941,27.7,83,0.2,974.4,5.5,41.8,54,6.1,4.6,3.1,158.0,65.0,1.7,10,5,3,1,2026-07-20T15:44:35.311012+05:30
Nizamabad,Telangana,18.6725,78.0941,27.2,86,0.0,960.4,6.85,44.3,48,11.5,7.0,2.8,152.0,71.0,5.5,7,5,7,1,2026-07-20T15:44:35.311018+05:30
Mysore,Karnataka,12.2958,76.6396,27.1,62,0.0,927.7,7.9,50.8,27,13.8,6.3,1.9,126.0,70.0,1.3,7,5,7,1,2026-07-20T15:44:35.311025+05:30
Mangalore,Karnataka,12.9141,74.856,26.9,79,0.0,1007.4,8.55,36.4,52,15.5,7.7,1.4,97.0,54.0,1.6,7,5,4,1,2026-07-20T15:44:35.311031+05:30
Hubli-Dharwad,Karnataka,15.3647,75.124,25.2,79,0.1,939.3,8.1,58.0,22,6.2,3.2,2.2,104.0,49.0,0.8,10,5,7,1,2026-07-20T15:44:35.311037+05:30
Belgaum,Karnataka,15.8497,74.4977,23.6,87,0.1,924.1,6.6,58.0,19,7.0,4.5,4.3,104.0,42.0,1.5,6,5,7,1,2026-07-20T15:44:38.555641+05:30
Coimbatore,Tamil Nadu,11.0168,76.9558,28.9,62,0.0,960.4,8.45,55.1,33,8.2,5.0,1.5,144.0,66.0,1.8,7,5,7,1,2026-07-20T15:44:38.555675+05:30
Madurai,Tamil Nadu,9.9252,78.1198,33.5,46,0.1,991.0,7.15,32.8,63,18.2,7.9,2.3,160.0,79.0,1.7,3,5,7,1,2026-07-20T15:44:38.555689+05:30
Trichy,Tamil Nadu,10.7905,78.7047,35.9,35,0.0,997.0,7.6,56.2,52,13.0,6.9,1.8,122.0,75.0,1.8,0,5,10,1,2026-07-20T15:44:38.555700+05:30
Salem,Tamil Nadu,11.6643,78.146,33.0,48,0.0,974.9,8.6,34.6,59,14.1,8.1,3.2,138.0,85.0,4.2,0,5,7,1,2026-07-20T15:44:38.555710+05:30
Tirunelveli,Tamil Nadu,8.7139,77.7567,35.6,38,0.0,1001.3,8.25,43.6,31,11.4,7.9,1.7,118.0,72.0,1.4,0,5,7,1,2026-07-20T15:44:38.555719+05:30
Vellore,Tamil Nadu,12.9165,79.1325,27.7,85,0.0,981.8,8.2,41.0,71,24.9,11.7,4.1,140.0,79.0,1.9,7,5,7,1,2026-07-20T15:44:38.555728+05:30
Erode,Tamil Nadu,11.341,77.7172,29.7,68,0.1,987.0,8.0,49.3,51,10.7,6.3,2.3,158.0,79.0,1.8,10,5,7,1,2026-07-20T15:44:38.555737+05:30
Kochi,Kerala,9.9312,76.2673,27.5,80,0.0,1009.4,7.75,27.4,51,10.9,6.1,2.3,113.0,56.0,2.4,7,0,4,1,2026-07-20T15:44:38.555745+05:30
Thiruvananthapuram,Kerala,8.5241,76.9366,28.3,77,0.0,1008.5,7.4,40.3,43,14.2,8.8,2.9,103.0,63.0,1.3,7,0,4,1,2026-07-20T15:44:38.555753+05:30
Kozhikode,Kerala,11.2588,75.7804,27.5,79,0.0,1008.5,8.0,29.9,33,9.4,5.1,0.6,107.0,55.0,1.2,7,0,4,1,2026-07-20T15:44:38.555762+05:30
Thrissur,Kerala,10.5276,76.2144,26.1,90,0.1,1007.8,8.35,23.4,50,7.9,4.8,1.5,104.0,52.0,1.5,10,5,4,1,2026-07-20T15:44:38.555771+05:30
Kannur,Kerala,11.8745,75.3704,27.7,78,0.1,1007.9,8.55,32.0,43,11.3,5.5,1.2,94.0,53.0,1.1,10,5,4,1,2026-07-20T15:44:38.555780+05:30
Patna,Bihar,25.5941,85.1376,29.2,86,0.2,994.2,5.15,28.1,83,16.9,16.8,12.0,395.0,94.0,10.3,10,5,3,1,2026-07-20T15:44:38.555789+05:30
Gaya,Bihar,24.7914,85.0002,27.7,90,0.0,987.8,1.15,25.9,79,12.2,11.3,6.7,261.0,106.0,8.6,7,5,3,1,2026-07-20T15:44:38.555798+05:30
Muzaffarpur,Bihar,26.1209,85.3647,29.1,86,0.1,994.4,7.9,37.1,72,17.3,17.3,11.5,368.0,94.0,9.3,10,5,7,1,2026-07-20T15:44:38.555806+05:30
Bhagalpur,Bihar,25.2425,87.0117,29.5,84,0.0,995.2,4.55,30.6,73,19.4,18.8,10.8,293.0,98.0,14.7,7,5,3,1,2026-07-20T15:44:38.555814+05:30
Ranchi,Jharkhand,23.3441,85.3096,26.7,83,0.0,932.4,4.6,24.1,72,36.3,26.1,3.1,255.0,130.0,9.3,7,5,3,1,2026-07-20T15:44:38.555822+05:30
Jamshedpur,Jharkhand,22.8046,86.2029,29.4,84,0.0,984.8,7.75,24.5,95,36.8,33.4,5.8,458.0,133.0,17.2,7,5,7,1,2026-07-20T15:44:38.555829+05:30
Dhanbad,Jharkhand,23.7957,86.4304,27.6,94,0.1,974.1,7.4,23.0,148,51.6,49.1,35.2,597.0,104.0,71.9,10,5,7,1,2026-07-20T15:44:38.555835+05:30
Bokaro,Jharkhand,23.6693,86.1511,27.4,92,0.1,978.0,7.15,26.3,140,53.7,49.7,34.1,1121.0,111.0,77.4,10,5,7,1,2026-07-20T15:44:38.555842+05:30
Bhubaneswar,Odisha,20.2961,85.8245,27.9,92,0.2,996.6,8.05,35.3,95,27.2,23.6,8.0,248.0,92.0,6.3,10,5,7,1,2026-07-20T15:44:38.555848+05:30
Cuttack,Odisha,20.4625,85.8828,28.3,89,0.1,998.6,8.45,24.5,95,27.2,23.6,8.0,240.0,92.0,6.3,10,5,7,1,2026-07-20T15:44:38.555854+05:30
Rourkela,Odisha,22.2604,84.8536,28.6,83,0.0,978.8,5.65,28.4,97,55.1,41.6,5.2,271.0,146.0,21.9,7,5,3,1,2026-07-20T15:44:38.555861+05:30
Raipur,Chhattisgarh,21.2514,81.6296,27.1,89,0.0,968.9,6.85,33.5,93,31.1,25.7,20.2,587.0,94.0,46.1,7,5,7,1,2026-07-20T15:44:38.555867+05:30
Bhilai,Chhattisgarh,21.1938,81.3509,28.3,83,0.0,969.0,6.95,36.4,85,26.7,21.2,17.3,946.0,97.0,37.5,7,5,7,1,2026-07-20T15:44:38.555874+05:30
Guwahati,Assam,26.1158,91.7086,28.9,82,0.0,997.2,5.6,20.2,45,5.8,5.8,3.4,272.0,76.0,1.1,7,5,3,1,2026-07-20T15:44:38.555880+05:30
Agartala,Tripura,23.8315,91.2868,26.7,92,0.2,1002.1,5.6,28.8,50,8.1,7.4,6.1,160.0,77.0,0.9,10,5,0,1,2026-07-20T15:44:38.555886+05:30
Shillong,Meghalaya,25.5788,91.8933,21.8,88,0.1,855.3,2.85,24.1,24,2.1,2.0,6.7,216.0,51.0,1.1,6,5,3,1,2026-07-20T15:44:38.555893+05:30
Imphal,Manipur,24.817,93.9368,26.4,70,0.0,920.7,2.2,24.1,42,5.1,5.0,5.3,179.0,55.0,1.3,7,5,3,1,2026-07-20T15:44:38.555899+05:30
Aizawl,Mizoram,23.7271,92.7176,20.8,98,0.0,889.7,1.05,26.6,41,2.1,1.8,2.6,123.0,50.0,0.4,3,5,3,1,2026-07-20T15:44:38.555905+05:30
Kohima,Nagaland,25.6701,94.1077,21.7,94,0.1,853.2,6.2,21.2,28,1.6,1.6,1.4,147.0,65.0,0.4,6,5,7,1,2026-07-20T15:44:38.555911+05:30
Gangtok,Sikkim,27.3314,88.6138,21.3,91,0.1,836.5,7.25,23.8,36,1.7,1.7,2.7,226.0,82.0,0.8,6,5,7,1,2026-07-20T15:44:38.555917+05:30
Siliguri,West Bengal,26.7271,88.3953,29.5,79,0.0,988.6,3.3,28.8,46,5.5,5.3,3.3,334.0,95.0,2.1,7,5,3,1,2026-07-20T15:44:41.809619+05:30
Durgapur,West Bengal,23.5204,87.3119,29.4,89,0.0,989.0,8.7,23.8,102,45.5,39.0,21.8,313.0,111.0,36.4,7,5,7,1,2026-07-20T15:44:41.809651+05:30
Asansol,West Bengal,23.6739,86.9524,28.2,93,0.1,987.7,7.95,25.2,100,41.2,37.8,24.4,552.0,105.0,39.4,10,5,7,1,2026-07-20T15:44:41.809664+05:30
Pondicherry,Puducherry,11.9139,79.8145,31.2,67,0.1,1005.3,8.4,43.6,71,32.1,23.3,7.8,218.0,124.0,8.2,6,5,4,1,2026-07-20T15:44:41.809674+05:30
Port Blair,Andaman and Nicobar Islands,11.6234,92.7265,29.9,67,0.0,1006.7,7.1,41.0,54,34.1,16.6,0.3,95.0,45.0,0.6,7,5,4,1,2026-07-20T15:44:41.809682+05:30
Haridwar,Uttarakhand,29.9457,78.1642,27.6,95,0.1,968.2,5.15,36.4,98,18.9,12.0,5.6,283.0,81.0,4.1,10,5,3,1,2026-07-20T15:44:41.809691+05:30
Rishikesh,Uttarakhand,30.0869,78.2676,26.3,96,0.2,961.1,5.25,16.2,76,26.5,12.9,3.2,271.0,93.0,3.3,10,5,3,1,2026-07-20T15:44:41.809699+05:30
Nainital,Uttarakhand,29.3919,79.4542,20.7,78,0.1,803.8,1.25,30.6,58,8.3,7.6,2.5,279.0,104.0,1.0,6,5,3,1,2026-07-20T15:44:41.809708+05:30
Mussoorie,Uttarakhand,30.4599,78.0664,19.4,91,0.0,801.0,4.85,23.8,78,9.7,6.2,5.6,230.0,98.0,5.0,3,10,3,1,2026-07-20T15:44:41.809716+05:30
Dharamshala,Himachal Pradesh,32.219,76.3234,22.0,97,0.1,864.9,5.75,28.1,45,6.0,3.2,2.3,216.0,102.0,0.7,6,5,3,1,2026-07-20T15:44:41.809725+05:30
Dalhousie,Himachal Pradesh,32.5387,75.971,19.4,95,0.0,802.6,4.0,25.2,92,68.7,26.1,4.5,267.0,117.0,2.1,3,10,3,1,2026-07-20T15:44:41.809733+05:30
Patiala,Punjab,30.3398,76.3869,30.2,79,0.1,971.5,7.3,32.0,169,109.2,42.6,5.5,254.0,116.0,6.3,6,5,7,1,2026-07-20T15:44:41.809742+05:30
Bhatinda,Punjab,30.211,74.9455,37.3,43,0.1,975.6,6.25,32.8,368,375.3,100.1,4.7,148.0,145.0,11.4,3,5,10,1,2026-07-20T15:44:41.809749+05:30
Rohtak,Haryana,28.8955,76.6066,32.5,67,0.0,974.5,5.25,25.9,354,618.4,88.9,6.4,215.0,95.0,3.6,3,5,3,1,2026-07-20T15:44:41.809757+05:30
Panipat,Haryana,29.3909,76.9635,30.7,80,0.0,973.7,5.2,35.6,316,871.7,126.2,8.6,273.0,102.0,15.7,3,5,3,1,2026-07-20T15:44:41.809765+05:30
Mathura,Uttar Pradesh,27.4924,77.6737,31.4,68,0.0,980.3,2.3,29.5,119,84.8,26.3,4.0,190.0,92.0,2.0,3,5,3,1,2026-07-20T15:44:41.809773+05:30
Vrindavan,Uttar Pradesh,27.5823,77.7027,31.4,68,0.0,980.7,2.1,29.9,119,84.8,26.3,4.0,199.0,92.0,2.0,3,5,3,1,2026-07-20T15:44:41.809781+05:30
Ayodhya,Uttar Pradesh,26.7922,82.1998,29.5,84,0.0,989.4,7.5,23.8,79,11.1,11.1,5.0,310.0,127.0,4.9,7,5,7,1,2026-07-20T15:44:41.809788+05:30
Ratlam,Madhya Pradesh,23.3315,75.0367,26.3,87,0.1,949.0,5.85,29.9,59,20.8,11.0,1.5,124.0,83.0,4.1,10,5,3,1,2026-07-20T15:44:41.809796+05:30
Sagar,Madhya Pradesh,23.8388,78.7378,25.9,96,0.1,944.7,7.15,32.0,67,11.6,10.2,3.6,160.0,78.0,1.8,10,5,7,1,2026-07-20T15:44:41.809804+05:30
Satna,Madhya Pradesh,24.6005,80.8322,27.9,85,0.1,965.4,1.55,29.5,90,20.7,11.1,2.2,156.0,104.0,1.7,10,5,3,1,2026-07-20T15:44:41.809812+05:30
Akola,Maharashtra,20.7002,77.0082,29.1,73,0.2,970.1,8.5,43.2,48,11.7,6.7,2.4,133.0,82.0,5.5,10,5,7,1,2026-07-20T15:44:41.809821+05:30
Amravati,Maharashtra,20.9374,77.7796,29.0,74,0.0,962.3,7.35,41.4,51,15.6,8.3,2.7,131.0,83.0,6.8,7,5,7,1,2026-07-20T15:44:41.809829+05:30
Latur,Maharashtra,18.4088,76.5604,27.3,77,0.2,935.7,3.0,46.1,30,24.9,10.1,1.5,125.0,65.0,1.4,10,5,3,1,2026-07-20T15:44:41.809837+05:30
Nanded,Maharashtra,19.1383,77.3091,29.0,72,0.0,963.9,2.55,42.1,45,14.8,7.3,2.2,139.0,64.0,2.5,7,5,3,1,2026-07-20T15:44:41.809845+05:30
Gulbarga,Karnataka,17.3297,76.8343,25.3,85,0.1,955.6,6.8,49.7,32,11.8,5.9,2.6,127.0,71.0,2.0,10,5,7,1,2026-07-20T15:44:41.809853+05:30
Bidar,Karnataka,17.9104,77.5199,28.4,65,0.0,931.5,7.8,43.6,39,12.7,6.1,2.8,141.0,63.0,1.4,7,5,7,1,2026-07-20T15:44:41.809860+05:30
Hospet,Karnataka,15.2689,76.3909,29.1,59,0.0,953.6,8.6,55.8,27,10.5,4.7,2.1,107.0,58.0,1.4,4,5,7,1,2026-07-20T15:44:41.809868+05:30
Tirupur,Tamil Nadu,11.1085,77.3411,31.9,50,0.0,973.5,8.35,52.9,53,10.7,6.5,2.0,135.0,78.0,2.2,0,5,7,1,2026-07-20T15:44:41.809875+05:30
Alappuzha,Kerala,9.4981,76.3388,27.8,79,0.0,1009.5,8.45,30.6,51,13.5,8.0,2.9,93.0,61.0,2.5,7,0,4,1,2026-07-20T15:44:41.809883+05:30
Munnar,Kerala,10.0889,77.0595,18.8,85,0.1,857.0,8.25,41.8,24,8.8,4.8,1.8,104.0,60.0,1.4,6,10,7,1,2026-07-20T15:44:41.809891+05:30
Silchar,Assam,24.8333,92.7789,26.6,86,0.7,1001.9,1.0,23.0,61,7.5,7.1,5.4,190.0,50.0,2.5,10,5,0,1,2026-07-20T15:44:41.809898+05:30
Dibrugarh,Assam,27.4728,94.912,32.1,63,0.0,990.6,8.05,25.9,75,6.7,6.3,2.1,160.0,97.0,1.1,3,5,7,1,2026-07-20T15:44:41.809906+05:30
