city,state,latitude,longitude,temp,humidity,rain,pressure,uv_index,wind_gusts,aqi,pm10,pm2_5,mosquito_risk,arthritis_risk,migraine_risk,frizz_risk,updated_at
Delhi,Delhi,28.6139,77.209,28.3,41,0.0,984.5,5.9,22.3,224,133.2,43.2,4,5,3,0,2026-03-17T13:25:01.423874+05:30
Mumbai,Maharashtra,19.076,72.8777,26.7,74,0.0,1009.8,7.7,18.7,105,110.1,45.6,7,0,4,1,2026-03-17T13:25:01.423939+05:30
Bangalore,Karnataka,12.9716,77.5946,30.4,40,0.0,912.4,9.35,44.6,97,37.7,32.7,0,5,7,0,2026-03-17T13:25:01.423958+05:30
Hyderabad,Telangana,17.385,78.4867,28.5,54,0.0,955.3,8.05,21.2,90,26.9,20.7,4,5,7,1,2026-03-17T13:25:01.423969+05:30
Chennai,Tamil Nadu,13.0827,80.2707,32.4,53,0.0,1008.3,9.1,31.7,33,10.8,7.8,0,0,4,1,2026-03-17T13:25:01.423977+05:30
Kolkata,West Bengal,22.5726,88.3639,32.6,51,0.0,1006.5,7.9,53.6,89,49.6,41.4,0,5,4,1,2026-03-17T13:25:01.423986+05:30
Pune,Maharashtra,18.5204,73.8567,35.0,18,0.0,949.2,8.25,34.9,87,32.6,17.6,0,5,7,0,2026-03-17T13:25:01.423997+05:30
Ahmedabad,Gujarat,23.0225,72.5714,35.0,27,0.0,1002.6,7.5,22.3,56,51.9,15.9,0,5,4,0,2026-03-17T13:25:01.424004+05:30
Jaipur,Rajasthan,26.9124,75.7873,32.7,22,0.0,960.0,6.65,38.5,226,295.2,59.8,0,5,7,0,2026-03-17T13:25:01.424011+05:30
Lucknow,Uttar Pradesh,26.8467,80.9462,34.1,24,0.0,993.4,6.6,25.2,96,77.5,30.7,0,5,7,0,2026-03-17T13:25:01.424019+05:30
Kanpur,Uttar Pradesh,26.4499,80.3319,35.0,18,0.0,991.6,6.7,21.6,122,112.5,40.7,0,5,7,0,2026-03-17T13:25:01.424026+05:30
Chandigarh,Chandigarh,30.7333,76.7794,26.8,40,0.0,971.2,5.5,12.2,63,130.9,25.9,4,5,3,0,2026-03-17T13:25:01.424034+05:30
Srinagar,Jammu and Kashmir,34.0837,74.7973,10.7,61,0.0,842.1,7.0,13.0,81,34.6,22.4,3,5,7,0,2026-03-17T13:25:01.424041+05:30
Jammu,Jammu and Kashmir,32.7266,74.857,26.5,33,0.0,975.4,6.7,16.9,76,64.5,19.3,4,5,7,0,2026-03-17T13:25:01.424048+05:30
Amritsar,Punjab,31.634,74.8723,26.0,35,0.0,983.9,6.45,16.6,85,92.2,25.4,4,5,7,0,2026-03-17T13:25:01.424055+05:30
Ludhiana,Punjab,30.901,75.8573,25.6,39,0.0,981.7,6.25,16.2,76,67.1,26.8,4,5,7,0,2026-03-17T13:25:01.424061+05:30
Jalandhar,Punjab,31.326,75.5762,25.1,38,0.0,983.0,6.5,16.6,74,79.6,27.0,4,5,7,0,2026-03-17T13:25:01.424069+05:30
Dehradun,Uttarakhand,30.6284,78.0322,16.5,35,0.0,831.1,4.85,23.8,40,94.3,15.0,0,5,3,0,2026-03-17T13:25:01.424076+05:30
Shimla,Himachal Pradesh,31.1048,77.1734,15.5,45,0.0,785.6,5.4,23.0,45,87.1,14.5,0,5,3,0,2026-03-17T13:25:01.424082+05:30
Manali,Himachal Pradesh,32.2396,77.1887,15.4,26,0.0,819.0,6.95,38.2,59,23.5,6.3,0,5,7,1,2026-03-17T13:25:01.424088+05:30
Gurgaon,Haryana,28.4595,77.0266,28.5,42,0.0,983.0,6.25,22.7,1406,732.0,99.9,4,5,7,0,2026-03-17T13:25:01.424095+05:30
Noida,Uttar Pradesh,28.5355,77.391,28.8,41,0.0,986.0,5.9,22.3,1406,732.0,99.9,4,5,3,0,2026-03-17T13:25:01.424102+05:30
Ghaziabad,Uttar Pradesh,28.6692,77.4538,28.1,45,0.0,984.3,5.8,19.8,122,143.0,40.3,4,5,3,0,2026-03-17T13:25:01.424108+05:30
Faridabad,Haryana,28.4089,77.3178,29.3,39,0.0,985.1,6.2,21.2,1406,732.0,99.9,4,5,7,0,2026-03-17T13:25:01.424114+05:30
Meerut,Uttar Pradesh,28.9845,77.7064,28.1,40,0.0,983.1,5.65,15.1,122,143.0,40.3,4,5,3,0,2026-03-17T13:25:01.424120+05:30
Agra,Uttar Pradesh,27.1767,78.0081,32.3,34,0.0,988.1,6.45,16.6,495,389.3,74.3,0,5,7,0,2026-03-17T13:25:01.424126+05:30
Varanasi,Uttar Pradesh,25.3176,82.9739,35.4,22,0.0,997.5,7.35,21.6,150,65.7,22.6,0,5,10,0,2026-03-17T13:25:01.424136+05:30
Prayagraj,Uttar Pradesh,25.4358,81.8463,34.5,28,0.0,996.0,7.2,20.9,133,74.7,28.3,0,5,7,0,2026-03-17T13:25:01.424142+05:30
Gorakhpur,Uttar Pradesh,26.7606,83.3732,33.3,33,0.0,997.4,7.05,23.0,92,64.3,31.1,0,5,7,0,2026-03-17T13:25:01.424151+05:30
Bareilly,Uttar Pradesh,28.367,79.4304,28.9,39,0.0,988.4,5.45,16.6,100,64.0,25.1,4,5,3,0,2026-03-17T13:25:01.424157+05:30
Aligarh,Uttar Pradesh,27.8974,78.088,31.4,36,0.0,986.2,6.15,18.0,324,288.7,61.2,0,5,7,0,2026-03-17T13:25:01.424164+05:30
Moradabad,Uttar Pradesh,28.8386,78.7733,27.9,42,0.0,985.4,5.45,16.2,110,49.9,26.0,4,5,3,0,2026-03-17T13:25:01.424170+05:30
Saharanpur,Uttar Pradesh,29.9637,77.546,26.5,33,0.0,978.1,4.55,14.8,125,42.6,15.5,4,5,3,0,2026-03-17T13:25:01.424175+05:30
Jhansi,Uttar Pradesh,25.4484,78.5685,36.5,14,0.0,977.1,7.2,25.2,86,34.1,14.5,0,5,10,0,2026-03-17T13:25:04.647548+05:30
Surat,Gujarat,21.1702,72.8311,29.0,65,0.0,1008.3,7.4,29.5,96,67.3,36.6,7,0,4,1,2026-03-17T13:25:04.647584+05:30
Vadodara,Gujarat,22.3072,73.1812,35.8,30,0.0,1004.8,7.55,28.1,72,33.1,17.1,0,5,7,0,2026-03-17T13:25:04.647598+05:30
Rajkot,Gujarat,22.3039,70.8022,34.9,28,0.0,994.7,7.35,24.5,55,59.6,15.0,0,5,7,0,2026-03-17T13:25:04.647609+05:30
Thane,Maharashtra,19.2183,72.9781,31.1,51,0.0,1009.3,7.7,30.2,105,110.1,45.6,0,0,4,1,2026-03-17T13:25:04.647618+05:30
Nagpur,Maharashtra,21.1458,79.0882,35.3,23,0.0,973.4,8.05,18.0,110,49.6,39.3,0,5,10,0,2026-03-17T13:25:04.647628+05:30
Nashik,Maharashtra,19.9975,73.7898,31.6,25,0.0,946.8,7.9,27.4,72,68.9,15.4,0,5,7,0,2026-03-17T13:25:04.647637+05:30
Aurangabad,Maharashtra,19.8762,75.3433,34.2,15,0.0,945.1,8.4,27.4,60,33.3,12.5,0,5,7,0,2026-03-17T13:25:04.647646+05:30
Solapur,Maharashtra,17.6599,75.9064,34.9,22,0.0,957.5,8.6,26.6,90,36.9,27.5,0,5,7,0,2026-03-17T13:25:04.647655+05:30
Kolhapur,Maharashtra,16.705,74.2433,32.0,30,0.0,949.0,8.75,37.4,89,28.6,22.8,0,5,7,0,2026-03-17T13:25:04.647663+05:30
Goa,Goa,15.2993,74.124,31.5,58,0.0,998.9,8.75,36.0,74,46.4,20.7,0,5,7,1,2026-03-17T13:25:04.647671+05:30
Jodhpur,Rajasthan,26.2389,73.0243,34.5,19,0.0,983.2,6.1,30.6,114,159.7,41.1,0,5,7,0,2026-03-17T13:25:04.647680+05:30
Udaipur,Rajasthan,24.5854,73.7125,33.6,14,0.0,946.9,7.85,34.2,40,34.7,10.0,0,5,7,0,2026-03-17T13:25:04.647688+05:30
Kota,Rajasthan,25.2138,75.8648,36.0,15,0.0,978.2,7.25,28.8,83,205.4,42.4,0,5,10,0,2026-03-17T13:25:04.647697+05:30
Bikaner,Rajasthan,28.0229,73.3119,28.8,29,0.0,983.7,6.8,19.8,88,86.4,25.0,4,5,7,0,2026-03-17T13:25:04.647706+05:30
Ajmer,Rajasthan,26.4499,74.6399,32.3,22,0.0,954.8,6.9,37.4,124,222.6,46.8,0,5,7,0,2026-03-17T13:25:04.647714+05:30
Gwalior,Madhya Pradesh,26.2183,78.1828,32.3,40,0.0,983.0,6.9,34.9,88,99.0,30.4,0,5,7,1,2026-03-17T13:25:04.647722+05:30
Indore,Madhya Pradesh,22.7196,75.8577,33.7,18,0.0,948.7,7.75,31.7,57,22.8,10.1,0,5,7,0,2026-03-17T13:25:04.647730+05:30
Bhopal,Madhya Pradesh,23.2599,77.4126,34.4,16,0.0,954.2,7.7,32.0,48,16.0,8.8,0,5,7,0,2026-03-17T13:25:04.647739+05:30
Jabalpur,Madhya Pradesh,23.1815,79.9864,33.6,21,0.0,962.0,7.8,32.0,55,12.2,7.4,0,5,7,0,2026-03-17T13:25:04.647746+05:30
Ujjain,Madhya Pradesh,23.1765,75.7885,32.8,22,0.0,954.4,7.65,28.4,56,24.3,9.3,0,5,7,0,2026-03-17T13:25:04.647754+05:30
Visakhapatnam,Andhra Pradesh,17.6868,83.2185,31.3,49,0.0,1005.7,8.7,37.4,57,15.1,11.8,0,5,4,1,2026-03-17T13:25:04.647760+05:30
Vijayawada,Andhra Pradesh,16.5062,80.648,32.0,52,0.0,1003.8,8.8,27.0,50,11.2,8.7,0,5,4,1,2026-03-17T13:25:04.647767+05:30
Guntur,Andhra Pradesh,16.3067,80.4365,32.7,48,0.0,1004.8,8.8,31.0,48,10.6,7.8,0,5,4,1,2026-03-17T13:25:04.647774+05:30
Nellore,Andhra Pradesh,14.4426,79.9865,33.6,46,0.0,1006.6,8.95,30.6,37,14.1,11.4,0,5,4,1,2026-03-17T13:25:04.647781+05:30
Kurnool,Andhra Pradesh,15.8281,78.0373,33.1,40,0.0,977.1,8.4,37.4,72,24.1,19.7,0,5,7,1,2026-03-17T13:25:04.647788+05:30
Kakinada,Andhra Pradesh,16.9891,82.2475,32.3,51,0.0,1009.1,8.75,29.2,41,11.2,8.1,0,0,4,1,2026-03-17T13:25:04.647795+05:30
Tirupati,Andhra Pradesh,13.6288,79.4192,33.0,40,0.0,992.3,9.1,28.1,54,12.0,10.0,0,5,7,1,2026-03-17T13:25:04.647802+05:30
Warangal,Telangana,17.9689,79.5941,31.0,50,0.0,980.0,8.5,29.9,67,13.9,11.4,0,5,7,1,2026-03-17T13:25:04.647809+05:30
Nizamabad,Telangana,18.6725,78.0941,35.3,23,0.0,965.3,8.45,26.3,121,38.9,32.5,0,5,10,0,2026-03-17T13:25:04.647815+05:30
Mysore,Karnataka,12.2958,76.6396,31.6,38,0.0,928.7,9.35,39.2,123,23.5,21.3,0,5,7,0,2026-03-17T13:25:04.647822+05:30
Mangalore,Karnataka,12.9141,74.856,27.5,81,0.0,1007.5,8.95,20.9,102,38.9,27.5,7,5,4,1,2026-03-17T13:25:04.647828+05:30
Hubli-Dharwad,Karnataka,15.3647,75.124,33.1,25,0.0,941.5,8.6,25.6,79,35.0,28.7,0,5,7,0,2026-03-17T13:25:04.647835+05:30
Belgaum,Karnataka,15.8497,74.4977,31.3,26,0.0,927.1,8.95,35.3,77,31.2,24.2,0,5,7,0,2026-03-17T13:25:07.868325+05:30
Coimbatore,Tamil Nadu,11.0168,76.9558,34.1,36,0.0,961.6,9.3,34.9,100,23.7,21.4,0,5,7,1,2026-03-17T13:25:07.868355+05:30
Madurai,Tamil Nadu,9.9252,78.1198,34.4,44,0.0,992.6,7.55,25.9,48,8.5,7.2,0,5,7,1,2026-03-17T13:25:07.868365+05:30
Trichy,Tamil Nadu,10.7905,78.7047,33.8,46,0.0,999.7,9.2,20.9,53,13.4,11.3,0,5,7,1,2026-03-17T13:25:07.868373+05:30
Salem,Tamil Nadu,11.6643,78.146,33.8,42,0.0,977.3,9.25,19.1,72,23.8,21.2,0,5,7,1,2026-03-17T13:25:07.868380+05:30
Tirunelveli,Tamil Nadu,8.7139,77.7567,35.5,40,0.0,1002.5,7.05,39.2,62,14.2,12.7,0,5,7,1,2026-03-17T13:25:07.868387+05:30
Vellore,Tamil Nadu,12.9165,79.1325,33.3,41,0.0,985.0,9.15,32.0,62,20.6,18.0,0,5,7,1,2026-03-17T13:25:07.868393+05:30
Erode,Tamil Nadu,11.341,77.7172,34.9,42,0.0,988.7,9.25,28.8,50,12.8,11.1,0,5,7,1,2026-03-17T13:25:07.868400+05:30
Kochi,Kerala,9.9312,76.2673,28.4,78,0.0,1008.1,8.9,32.4,86,31.8,28.8,7,0,4,1,2026-03-17T13:25:07.868407+05:30
Thiruvananthapuram,Kerala,8.5241,76.9366,28.2,79,0.0,1007.3,8.5,24.8,54,17.0,15.5,7,5,4,1,2026-03-17T13:25:07.868414+05:30
Kozhikode,Kerala,11.2588,75.7804,29.5,76,0.0,1007.9,8.9,29.9,99,36.0,31.5,7,5,4,1,2026-03-17T13:25:07.868420+05:30
Thrissur,Kerala,10.5276,76.2144,32.6,59,0.0,1006.8,8.85,34.2,88,39.5,35.5,0,5,4,1,2026-03-17T13:25:07.868427+05:30
Kannur,Kerala,11.8745,75.3704,30.6,65,0.0,1007.5,9.0,27.4,111,38.6,32.0,3,5,4,1,2026-03-17T13:25:07.868433+05:30
Patna,Bihar,25.5941,85.1376,34.1,29,0.0,1000.5,7.5,27.0,152,73.1,43.0,0,5,4,0,2026-03-17T13:25:07.868439+05:30
Gaya,Bihar,24.7914,85.0002,34.8,25,0.0,994.0,7.6,27.7,103,54.4,26.3,0,5,7,0,2026-03-17T13:25:07.868445+05:30
Muzaffarpur,Bihar,26.1209,85.3647,33.2,38,0.0,1000.4,7.45,27.7,155,74.3,36.7,0,5,4,1,2026-03-17T13:25:07.868451+05:30
Bhagalpur,Bihar,25.2425,87.0117,33.0,42,0.0,1001.0,7.5,28.8,143,60.8,50.3,0,5,4,1,2026-03-17T13:25:07.868457+05:30
Ranchi,Jharkhand,23.3441,85.3096,25.8,55,0.0,939.8,8.2,54.7,115,42.4,35.6,4,5,7,0,2026-03-17T13:25:07.868463+05:30
Jamshedpur,Jharkhand,22.8046,86.2029,34.2,34,0.0,991.2,8.15,36.0,129,73.1,62.9,0,5,7,1,2026-03-17T13:25:07.868470+05:30
Dhanbad,Jharkhand,23.7957,86.4304,35.0,24,0.0,979.8,8.0,37.8,152,63.1,54.4,0,5,7,0,2026-03-17T13:25:07.868477+05:30
Bokaro,Jharkhand,23.6693,86.1511,34.1,25,0.0,984.2,8.0,40.7,137,53.1,44.1,0,5,7,0,2026-03-17T13:25:07.868483+05:30
Bhubaneswar,Odisha,20.2961,85.8245,32.0,54,0.0,1003.8,8.05,36.7,66,35.5,27.8,0,5,4,1,2026-03-17T13:25:07.868490+05:30
Cuttack,Odisha,20.4625,85.8828,33.3,51,0.0,1005.2,8.0,33.8,66,35.5,27.8,0,5,4,1,2026-03-17T13:25:07.868496+05:30
Rourkela,Odisha,22.2604,84.8536,32.1,43,0.0,986.1,8.05,45.0,150,66.8,58.6,0,5,7,1,2026-03-17T13:25:07.868502+05:30
Raipur,Chhattisgarh,21.2514,81.6296,30.9,42,0.0,976.5,8.15,43.2,146,46.6,39.0,0,5,7,1,2026-03-17T13:25:07.868508+05:30
Bhilai,Chhattisgarh,21.1938,81.3509,32.1,39,0.0,976.3,8.15,40.0,134,42.6,35.5,0,5,7,1,2026-03-17T13:25:07.868514+05:30
Guwahati,Assam,26.1158,91.7086,23.6,80,0.0,1002.4,7.5,46.4,83,33.6,27.1,3,5,4,1,2026-03-17T13:25:07.868520+05:30
Agartala,Tripura,23.8315,91.2868,32.5,43,0.0,1006.7,7.15,43.6,68,30.0,25.8,0,5,4,1,2026-03-17T13:25:07.868527+05:30
Shillong,Meghalaya,25.5788,91.8933,17.2,67,0.0,856.0,7.45,77.8,60,27.5,21.0,3,5,7,0,2026-03-17T13:25:07.868533+05:30
Imphal,Manipur,24.817,93.9368,20.2,65,0.0,924.1,8.05,91.4,106,31.4,23.5,3,5,7,0,2026-03-17T13:25:07.868540+05:30
Aizawl,Mizoram,23.7271,92.7176,22.1,59,0.0,894.9,8.1,61.9,97,29.4,21.2,0,5,7,0,2026-03-17T13:25:07.868547+05:30
Kohima,Nagaland,25.6701,94.1077,18.6,56,0.0,855.2,7.95,102.2,88,29.7,21.0,0,5,7,0,2026-03-17T13:25:07.868553+05:30
Gangtok,Sikkim,27.3314,88.6138,18.5,46,0.0,836.8,7.55,19.4,87,43.5,18.5,0,5,7,0,2026-03-17T13:25:07.868559+05:30
Siliguri,West Bengal,26.7271,88.3953,23.7,66,0.0,994.1,7.45,42.5,133,60.3,38.6,3,5,7,1,2026-03-17T13:25:11.093373+05:30
Durgapur,West Bengal,23.5204,87.3119,33.3,37,0.0,995.5,8.05,33.5,154,80.3,71.5,0,5,7,1,2026-03-17T13:25:11.093402+05:30
Asansol,West Bengal,23.6739,86.9524,34.8,31,0.0,993.5,8.0,33.8,146,71.7,62.6,0,5,7,0,2026-03-17T13:25:11.093412+05:30
Pondicherry,Puducherry,11.9139,79.8145,33.2,48,0.0,1008.7,9.05,27.4,31,8.7,5.8,0,0,4,1,2026-03-17T13:25:11.093419+05:30
Port Blair,Andaman and Nicobar Islands,11.6234,92.7265,28.0,78,0.0,1007.7,9.0,20.5,79,15.1,12.0,7,5,4,1,2026-03-17T13:25:11.093427+05:30
Haridwar,Uttarakhand,29.9457,78.1642,27.0,35,0.0,976.5,4.2,18.4,64,113.9,20.2,4,5,3,0,2026-03-17T13:25:11.093434+05:30
Rishikesh,Uttarakhand,30.0869,78.2676,26.7,33,0.0,969.1,4.4,19.8,54,157.4,23.4,4,5,3,0,2026-03-17T13:25:11.093441+05:30
Nainital,Uttarakhand,29.3919,79.4542,20.3,37,0.0,807.8,5.3,37.8,59,86.4,16.1,0,5,3,0,2026-03-17T13:25:11.093448+05:30
Mussoorie,Uttarakhand,30.4599,78.0664,17.6,39,0.0,804.0,4.85,29.5,57,152.3,22.4,0,5,3,0,2026-03-17T13:25:11.093456+05:30
Dharamshala,Himachal Pradesh,32.219,76.3234,19.2,37,0.0,870.4,5.1,26.3,56,54.7,10.7,0,5,3,0,2026-03-17T13:25:11.093463+05:30
Dalhousie,Himachal Pradesh,32.5387,75.971,18.0,29,0.0,805.3,5.05,24.1,58,92.7,19.0,0,5,3,1,2026-03-17T13:25:11.093470+05:30
Patiala,Punjab,30.3398,76.3869,26.5,43,0.0,980.8,5.55,16.9,86,117.1,31.1,4,5,3,0,2026-03-17T13:25:11.093477+05:30
Bhatinda,Punjab,30.211,74.9455,25.9,37,0.0,986.7,6.5,18.4,93,111.5,29.4,4,5,7,0,2026-03-17T13:25:11.093484+05:30
Rohtak,Haryana,28.8955,76.6066,27.8,43,0.0,983.6,6.15,18.7,438,176.5,45.6,4,5,7,0,2026-03-17T13:25:11.093491+05:30
Panipat,Haryana,29.3909,76.9635,28.0,39,0.0,982.3,5.75,15.1,242,130.4,38.5,4,5,3,0,2026-03-17T13:25:11.093497+05:30
Mathura,Uttar Pradesh,27.4924,77.6737,32.4,33,0.0,987.3,6.45,20.5,496,625.8,93.6,0,5,7,0,2026-03-17T13:25:11.093504+05:30
Vrindavan,Uttar Pradesh,27.5823,77.7027,32.0,35,0.0,987.8,6.35,20.2,496,625.8,93.6,0,5,7,0,2026-03-17T13:25:11.093510+05:30
Ayodhya,Uttar Pradesh,26.7922,82.1998,34.3,26,0.0,995.3,6.85,25.9,100,68.5,29.5,0,5,7,0,2026-03-17T13:25:11.093517+05:30
Ratlam,Madhya Pradesh,23.3315,75.0367,33.2,26,0.0,955.3,7.6,35.3,55,27.5,9.8,0,5,7,0,2026-03-17T13:25:11.093523+05:30
Sagar,Madhya Pradesh,23.8388,78.7378,33.7,17,0.0,950.6,7.65,31.7,42,22.5,8.0,0,5,7,0,2026-03-17T13:25:11.093529+05:30
Satna,Madhya Pradesh,24.6005,80.8322,36.1,15,0.0,971.0,7.55,34.9,93,35.3,17.6,0,5,10,0,2026-03-17T13:25:11.093536+05:30
Akola,Maharashtra,20.7002,77.0082,36.5,20,0.0,975.5,8.1,25.6,71,41.4,22.0,0,5,10,0,2026-03-17T13:25:11.093543+05:30
Amravati,Maharashtra,20.9374,77.7796,37.1,18,0.0,967.6,8.05,32.4,80,31.8,16.9,0,5,10,0,2026-03-17T13:25:11.093550+05:30
Latur,Maharashtra,18.4088,76.5604,33.1,27,0.0,940.5,8.5,27.7,91,49.0,36.7,0,5,7,0,2026-03-17T13:25:11.093557+05:30
Nanded,Maharashtra,19.1383,77.3091,36.6,22,0.0,969.0,8.3,20.9,101,45.6,29.5,0,5,10,0,2026-03-17T13:25:11.093562+05:30
Gulbarga,Karnataka,17.3297,76.8343,33.6,31,0.0,959.5,8.45,37.4,112,41.2,35.2,0,5,7,0,2026-03-17T13:25:11.093568+05:30
Bidar,Karnataka,17.9104,77.5199,30.6,38,0.0,937.2,7.85,33.8,113,36.9,30.0,0,5,7,0,2026-03-17T13:25:11.093575+05:30
Hospet,Karnataka,15.2689,76.3909,31.1,43,0.0,956.8,8.8,23.8,113,40.5,33.5,0,5,7,1,2026-03-17T13:25:11.093581+05:30
Tirupur,Tamil Nadu,11.1085,77.3411,33.6,43,0.0,975.2,9.3,32.0,75,17.3,15.4,0,5,7,1,2026-03-17T13:25:11.093587+05:30
Alappuzha,Kerala,9.4981,76.3388,28.3,79,0.0,1008.3,9.05,30.6,80,29.7,27.1,7,0,4,1,2026-03-17T13:25:11.093593+05:30
Munnar,Kerala,10.0889,77.0595,29.5,41,0.0,858.9,9.6,32.4,80,19.2,17.1,4,5,7,0,2026-03-17T13:25:11.093600+05:30
Silchar,Assam,24.8333,92.7789,24.9,68,0.0,1007.3,7.9,49.7,83,26.0,20.0,3,5,4,1,2026-03-17T13:25:11.093606+05:30
Dibrugarh,Assam,27.4728,94.912,21.5,79,0.0,996.3,7.4,51.8,97,46.0,34.9,3,5,7,1,2026-03-17T13:25:11.093612+05:30
