city,state,latitude,longitude,temp,humidity,rain,pressure,uv_index,wind_gusts,aqi,pm10,pm2_5,no2,co,o3,so2,mosquito_risk,arthritis_risk,migraine_risk,frizz_risk,updated_at
Delhi,Delhi,28.6139,77.209,25.7,81,0.0,980.8,7.65,54.0,343,276.6,69.2,18.2,788.0,168.0,23.1,7,5,7,1,2026-05-30T19:14:51.706871+05:30
Mumbai,Maharashtra,19.076,72.8777,31.6,68,0.0,1005.8,7.7,38.5,63,21.8,13.6,5.7,171.0,56.0,4.5,3,5,4,1,2026-05-30T19:14:51.706916+05:30
Bangalore,Karnataka,12.9716,77.5946,23.2,80,0.1,912.0,9.05,29.5,58,33.2,27.4,55.9,827.0,47.0,7.3,6,5,7,1,2026-05-30T19:14:51.706930+05:30
Hyderabad,Telangana,17.385,78.4867,34.8,30,0.0,950.9,8.95,43.6,78,33.2,23.2,14.7,354.0,100.0,5.2,0,5,7,0,2026-05-30T19:14:51.706939+05:30
Chennai,Tamil Nadu,13.0827,80.2707,31.1,68,0.0,1005.0,9.0,48.2,130,35.7,28.2,8.5,342.0,164.0,8.8,3,5,4,1,2026-05-30T19:14:51.706947+05:30
Kolkata,West Bengal,22.5726,88.3639,27.5,87,0.0,1004.0,8.9,49.3,150,54.9,44.4,14.6,695.0,80.0,10.7,7,5,4,1,2026-05-30T19:14:51.706955+05:30
Pune,Maharashtra,18.5204,73.8567,30.5,55,0.0,946.2,8.35,41.8,46,21.5,11.4,3.9,150.0,75.0,3.4,0,5,7,1,2026-05-30T19:14:51.706961+05:30
Ahmedabad,Gujarat,23.0225,72.5714,35.7,49,0.0,996.6,8.1,45.4,73,47.7,20.8,3.9,164.0,87.0,3.2,0,5,10,1,2026-05-30T19:14:51.706968+05:30
Jaipur,Rajasthan,26.9124,75.7873,32.5,33,0.0,957.8,8.15,31.7,101,112.0,29.6,4.3,242.0,123.0,4.6,0,5,7,0,2026-05-30T19:14:51.706978+05:30
Lucknow,Uttar Pradesh,26.8467,80.9462,28.1,64,0.0,992.3,8.15,34.9,142,31.5,21.8,5.4,372.0,131.0,4.2,7,5,7,1,2026-05-30T19:14:51.706984+05:30
Kanpur,Uttar Pradesh,26.4499,80.3319,29.8,56,0.0,989.9,8.15,41.8,163,58.2,23.7,4.4,307.0,153.0,5.4,4,5,7,1,2026-05-30T19:14:51.706991+05:30
Chandigarh,Chandigarh,30.7333,76.7794,24.6,80,0.0,967.5,7.0,41.4,165,130.4,37.6,12.9,983.0,158.0,7.5,3,5,7,1,2026-05-30T19:14:51.706997+05:30
Srinagar,Jammu and Kashmir,34.0837,74.7973,23.5,42,0.0,840.6,8.95,27.4,150,32.7,22.8,10.4,400.0,144.0,4.6,0,5,7,0,2026-05-30T19:14:51.707004+05:30
Jammu,Jammu and Kashmir,32.7266,74.857,29.5,32,0.0,971.8,8.25,46.4,153,167.2,44.4,11.8,379.0,160.0,4.8,4,5,7,0,2026-05-30T19:14:51.707012+05:30
Amritsar,Punjab,31.634,74.8723,26.5,49,0.0,979.8,8.35,51.8,157,165.3,42.6,7.9,321.0,145.0,5.9,4,5,7,0,2026-05-30T19:14:51.707020+05:30
Ludhiana,Punjab,30.901,75.8573,25.5,62,0.0,977.6,7.75,49.0,194,225.4,49.6,8.3,439.0,167.0,9.1,7,5,7,1,2026-05-30T19:14:51.707026+05:30
Jalandhar,Punjab,31.326,75.5762,25.5,59,0.0,978.3,7.15,44.6,143,129.5,40.7,11.3,377.0,147.0,7.2,4,5,7,1,2026-05-30T19:14:51.707032+05:30
Dehradun,Uttarakhand,30.6284,78.0322,17.2,77,0.0,830.2,7.75,43.2,146,36.9,19.1,8.3,254.0,145.0,2.0,3,5,7,0,2026-05-30T19:14:51.707038+05:30
Shimla,Himachal Pradesh,31.1048,77.1734,14.4,60,0.0,783.4,2.3,38.9,142,97.3,28.2,5.5,413.0,154.0,1.5,0,5,3,0,2026-05-30T19:14:51.707046+05:30
Manali,Himachal Pradesh,32.2396,77.1887,16.5,61,0.0,817.1,8.1,36.4,158,19.4,11.1,12.5,177.0,165.0,0.5,3,5,7,0,2026-05-30T19:14:51.707052+05:30
Gurgaon,Haryana,28.4595,77.0266,25.5,81,0.0,978.9,7.75,59.4,1221,631.4,103.6,16.9,739.0,147.0,17.1,7,5,7,1,2026-05-30T19:14:51.707058+05:30
Noida,Uttar Pradesh,28.5355,77.391,24.9,91,0.0,982.5,7.65,45.0,1221,631.4,103.6,16.9,878.0,147.0,17.1,3,5,7,1,2026-05-30T19:14:51.707064+05:30
Ghaziabad,Uttar Pradesh,28.6692,77.4538,24.4,92,0.0,980.8,7.65,37.1,160,159.7,47.8,12.5,379.0,149.0,14.4,3,5,7,1,2026-05-30T19:14:51.707071+05:30
Faridabad,Haryana,28.4089,77.3178,25.1,89,0.0,981.5,7.7,58.3,1221,631.4,103.6,16.9,656.0,147.0,17.1,7,5,7,1,2026-05-30T19:14:51.707078+05:30
Meerut,Uttar Pradesh,28.9845,77.7064,24.5,83,0.0,979.6,7.55,40.0,160,159.7,47.8,12.5,364.0,149.0,14.4,3,5,7,1,2026-05-30T19:14:51.707083+05:30
Agra,Uttar Pradesh,27.1767,78.0081,27.1,60,0.1,986.3,8.0,59.8,255,242.1,46.4,11.8,286.0,111.0,5.9,7,5,7,1,2026-05-30T19:14:51.707089+05:30
Varanasi,Uttar Pradesh,25.3176,82.9739,29.9,61,0.0,995.0,8.55,36.7,176,47.4,34.3,8.2,814.0,160.0,8.9,7,5,7,1,2026-05-30T19:14:51.707095+05:30
Prayagraj,Uttar Pradesh,25.4358,81.8463,31.0,55,0.0,993.5,8.55,31.7,169,34.8,26.0,5.6,394.0,156.0,6.0,0,5,7,1,2026-05-30T19:14:51.707101+05:30
Gorakhpur,Uttar Pradesh,26.7606,83.3732,27.5,69,0.0,995.6,8.25,45.7,112,32.4,25.3,7.3,392.0,130.0,5.6,7,5,7,1,2026-05-30T19:14:51.707108+05:30
Bareilly,Uttar Pradesh,28.367,79.4304,28.7,61,0.1,986.1,7.95,41.0,173,143.4,38.2,5.1,295.0,161.0,8.8,10,5,7,1,2026-05-30T19:14:51.707114+05:30
Aligarh,Uttar Pradesh,27.8974,78.088,24.0,92,0.4,984.9,7.8,59.8,200,300.8,59.8,13.9,311.0,126.0,11.0,6,5,7,1,2026-05-30T19:14:51.707120+05:30
Moradabad,Uttar Pradesh,28.8386,78.7733,25.0,76,0.0,983.2,7.75,65.9,172,88.9,40.5,12.4,383.0,153.0,12.7,7,5,7,1,2026-05-30T19:14:51.707125+05:30
Saharanpur,Uttar Pradesh,29.9637,77.546,26.0,63,0.0,974.4,7.4,63.4,161,41.7,25.0,10.3,386.0,150.0,5.7,7,5,7,1,2026-05-30T19:14:51.707131+05:30
Jhansi,Uttar Pradesh,25.4484,78.5685,31.5,53,0.0,975.3,8.4,26.3,99,29.3,14.5,3.7,200.0,117.0,5.8,0,5,7,1,2026-05-30T19:14:54.998350+05:30
Surat,Gujarat,21.1702,72.8311,31.2,70,0.0,1002.9,7.65,55.4,82,31.7,19.8,10.7,190.0,47.0,21.8,3,5,4,1,2026-05-30T19:14:54.998377+05:30
Vadodara,Gujarat,22.3072,73.1812,33.6,54,0.0,999.6,8.05,52.6,78,42.5,23.3,5.5,143.0,79.0,7.8,0,5,7,1,2026-05-30T19:14:54.998385+05:30
Rajkot,Gujarat,22.3039,70.8022,34.5,47,0.0,990.0,7.7,50.4,68,41.2,21.1,1.9,114.0,71.0,3.0,0,5,7,1,2026-05-30T19:14:54.998392+05:30
Thane,Maharashtra,19.2183,72.9781,32.0,64,0.0,1005.1,7.8,38.5,63,21.8,13.6,5.7,162.0,56.0,4.5,3,5,4,1,2026-05-30T19:14:54.998399+05:30
Nagpur,Maharashtra,21.1458,79.0882,37.0,25,0.0,969.2,8.85,45.7,96,68.5,29.0,8.3,177.0,98.0,12.9,0,5,10,0,2026-05-30T19:14:54.998406+05:30
Nashik,Maharashtra,19.9975,73.7898,29.4,63,0.0,943.1,8.1,50.0,61,24.8,14.0,2.4,130.0,70.0,1.5,7,5,7,1,2026-05-30T19:14:54.998413+05:30
Aurangabad,Maharashtra,19.8762,75.3433,34.9,29,0.0,941.4,8.95,44.3,65,46.0,20.5,2.4,136.0,102.0,3.8,0,5,7,0,2026-05-30T19:14:54.998419+05:30
Solapur,Maharashtra,17.6599,75.9064,34.8,30,0.0,954.3,8.95,37.8,48,21.0,11.0,7.1,148.0,97.0,2.4,0,5,7,0,2026-05-30T19:14:54.998426+05:30
Kolhapur,Maharashtra,16.705,74.2433,29.5,62,0.0,946.9,8.75,45.0,41,12.0,8.5,4.0,143.0,73.0,1.6,7,5,7,1,2026-05-30T19:14:54.998432+05:30
Goa,Goa,15.2993,74.124,28.5,96,0.2,997.3,7.2,31.0,54,15.6,10.2,1.5,156.0,56.0,1.0,10,5,7,1,2026-05-30T19:14:54.998438+05:30
Jodhpur,Rajasthan,26.2389,73.0243,35.8,33,0.0,979.5,8.35,51.1,137,218.4,44.1,3.1,160.0,96.0,2.3,0,5,10,1,2026-05-30T19:14:54.998444+05:30
Udaipur,Rajasthan,24.5854,73.7125,33.8,33,0.0,944.3,8.75,54.4,73,61.0,24.6,2.7,136.0,105.0,5.0,0,5,7,0,2026-05-30T19:14:54.998450+05:30
Kota,Rajasthan,25.2138,75.8648,30.6,48,0.1,976.6,8.3,38.9,85,66.6,27.7,3.6,285.0,125.0,6.8,3,5,7,1,2026-05-30T19:14:54.998455+05:30
Bikaner,Rajasthan,28.0229,73.3119,36.2,24,0.0,978.0,8.35,44.6,97,87.3,34.5,3.9,153.0,105.0,6.6,0,5,10,0,2026-05-30T19:14:54.998461+05:30
Ajmer,Rajasthan,26.4499,74.6399,30.2,42,0.0,952.7,8.3,39.2,73,41.6,19.8,3.5,178.0,112.0,2.7,0,5,7,0,2026-05-30T19:14:54.998466+05:30
Gwalior,Madhya Pradesh,26.2183,78.1828,30.9,56,0.0,981.1,8.15,29.9,86,35.9,14.6,3.5,228.0,114.0,3.5,0,5,7,1,2026-05-30T19:14:54.998472+05:30
Indore,Madhya Pradesh,22.7196,75.8577,35.3,24,0.0,945.6,8.6,46.4,78,75.9,28.7,3.4,203.0,103.0,4.3,0,5,10,0,2026-05-30T19:14:54.998478+05:30
Bhopal,Madhya Pradesh,23.2599,77.4126,35.5,24,0.0,950.3,8.65,52.9,71,46.8,24.0,3.6,191.0,107.0,3.9,0,5,10,0,2026-05-30T19:14:54.998483+05:30
Jabalpur,Madhya Pradesh,23.1815,79.9864,31.0,47,0.0,958.9,8.8,31.3,117,43.7,20.2,4.1,184.0,118.0,4.3,0,5,7,1,2026-05-30T19:14:54.998489+05:30
Ujjain,Madhya Pradesh,23.1765,75.7885,34.7,27,0.0,951.3,8.55,46.8,78,71.9,26.5,2.1,158.0,100.0,3.6,0,5,7,0,2026-05-30T19:14:54.998495+05:30
Visakhapatnam,Andhra Pradesh,17.6868,83.2185,31.8,71,0.0,999.1,8.6,38.5,160,39.9,32.0,22.5,558.0,125.0,44.0,3,5,7,1,2026-05-30T19:14:54.998501+05:30
Vijayawada,Andhra Pradesh,16.5062,80.648,34.5,50,0.0,998.7,8.65,44.6,113,46.2,36.3,14.4,273.0,112.0,9.0,0,5,7,1,2026-05-30T19:14:54.998506+05:30
Guntur,Andhra Pradesh,16.3067,80.4365,32.5,61,0.0,1000.2,8.65,33.1,99,45.8,33.3,13.4,257.0,111.0,7.7,3,5,4,1,2026-05-30T19:14:54.998529+05:30
Nellore,Andhra Pradesh,14.4426,79.9865,31.5,67,0.0,1003.1,8.35,35.3,100,29.7,23.7,9.3,244.0,124.0,5.2,3,5,4,1,2026-05-30T19:14:54.998536+05:30
Kurnool,Andhra Pradesh,15.8281,78.0373,29.2,65,0.0,974.9,9.0,41.4,70,22.7,16.7,8.5,215.0,115.0,8.5,7,5,7,1,2026-05-30T19:14:54.998543+05:30
Kakinada,Andhra Pradesh,16.9891,82.2475,33.3,58,0.0,1003.2,7.5,38.5,138,30.6,24.7,5.0,419.0,144.0,4.6,0,5,4,1,2026-05-30T19:14:54.998549+05:30
Tirupati,Andhra Pradesh,13.6288,79.4192,30.9,64,0.0,989.1,9.05,47.5,86,29.5,23.2,17.0,312.0,92.0,3.3,3,5,7,1,2026-05-30T19:14:54.998555+05:30
Warangal,Telangana,17.9689,79.5941,33.7,51,0.0,974.6,9.05,45.7,82,54.4,34.9,12.3,251.0,91.0,4.8,0,5,7,1,2026-05-30T19:14:54.998560+05:30
Nizamabad,Telangana,18.6725,78.0941,34.2,33,0.0,961.2,8.95,41.4,76,46.1,22.1,4.5,176.0,108.0,4.3,0,5,7,0,2026-05-30T19:14:54.998566+05:30
Mysore,Karnataka,12.2958,76.6396,25.0,80,0.0,928.5,8.95,47.5,53,15.0,10.2,8.3,213.0,99.0,1.9,7,5,7,1,2026-05-30T19:14:54.998572+05:30
Mangalore,Karnataka,12.9141,74.856,28.0,88,0.0,1006.7,8.35,33.5,35,7.5,5.1,3.3,250.0,59.0,1.5,7,5,4,1,2026-05-30T19:14:54.998578+05:30
Hubli-Dharwad,Karnataka,15.3647,75.124,27.4,77,0.0,940.4,8.7,52.6,40,11.4,8.3,3.9,156.0,71.0,1.0,7,5,7,1,2026-05-30T19:14:54.998584+05:30
Belgaum,Karnataka,15.8497,74.4977,25.8,82,0.0,925.3,8.6,39.2,35,10.0,7.8,4.9,139.0,58.0,1.4,7,5,7,1,2026-05-30T19:14:58.299602+05:30
Coimbatore,Tamil Nadu,11.0168,76.9558,28.1,71,0.0,961.5,8.95,46.1,37,6.6,6.0,6.0,175.0,76.0,2.6,7,5,7,1,2026-05-30T19:14:58.299633+05:30
Madurai,Tamil Nadu,9.9252,78.1198,32.0,65,0.1,991.7,8.6,28.1,67,42.0,23.1,23.6,180.0,85.0,4.5,6,5,7,1,2026-05-30T19:14:58.299643+05:30
Trichy,Tamil Nadu,10.7905,78.7047,30.6,62,0.0,998.9,8.8,41.4,45,25.9,20.4,16.4,207.0,81.0,3.7,3,5,7,1,2026-05-30T19:14:58.299653+05:30
Salem,Tamil Nadu,11.6643,78.146,31.2,55,0.0,976.6,8.4,34.2,119,27.0,16.9,7.3,206.0,132.0,8.4,0,5,7,1,2026-05-30T19:14:58.299661+05:30
Tirunelveli,Tamil Nadu,8.7139,77.7567,32.9,51,0.0,1001.9,8.5,33.8,30,5.4,4.2,3.8,148.0,59.0,1.2,0,5,4,1,2026-05-30T19:14:58.299669+05:30
Vellore,Tamil Nadu,12.9165,79.1325,29.3,73,0.0,983.1,8.85,41.4,110,29.3,23.6,8.3,289.0,123.0,2.9,7,5,7,1,2026-05-30T19:14:58.299677+05:30
Erode,Tamil Nadu,11.341,77.7172,31.6,60,0.0,988.0,8.85,35.3,48,9.3,7.5,8.8,240.0,92.0,2.5,0,5,7,1,2026-05-30T19:14:58.299684+05:30
Kochi,Kerala,9.9312,76.2673,27.9,86,0.1,1009.4,8.05,24.5,41,10.9,9.6,16.1,145.0,44.0,4.6,10,0,4,1,2026-05-30T19:14:58.299692+05:30
Thiruvananthapuram,Kerala,8.5241,76.9366,26.1,89,0.0,1009.2,7.65,31.7,27,9.6,5.5,2.2,121.0,53.0,0.6,7,0,4,1,2026-05-30T19:14:58.299699+05:30
Kozhikode,Kerala,11.2588,75.7804,27.0,94,0.0,1008.2,8.5,26.6,35,5.0,3.1,1.0,291.0,69.0,0.5,7,0,4,1,2026-05-30T19:14:58.299707+05:30
Thrissur,Kerala,10.5276,76.2144,27.5,84,0.0,1007.6,8.15,25.9,38,9.1,8.1,9.7,266.0,51.0,4.1,7,5,4,1,2026-05-30T19:14:58.299716+05:30
Kannur,Kerala,11.8745,75.3704,27.8,87,0.0,1007.2,8.3,30.6,34,7.4,5.4,7.8,289.0,57.0,1.5,7,5,4,1,2026-05-30T19:14:58.299723+05:30
Patna,Bihar,25.5941,85.1376,29.1,74,0.0,998.1,8.7,30.6,180,67.8,56.3,15.5,389.0,144.0,17.9,7,5,7,1,2026-05-30T19:14:58.299730+05:30
Gaya,Bihar,24.7914,85.0002,29.7,66,0.0,991.5,8.8,26.6,190,81.5,67.8,8.4,437.0,172.0,19.4,7,5,7,1,2026-05-30T19:14:58.299737+05:30
Muzaffarpur,Bihar,26.1209,85.3647,28.3,74,0.0,998.5,8.05,36.7,181,59.8,51.9,14.7,368.0,146.0,16.5,7,5,7,1,2026-05-30T19:14:58.299744+05:30
Bhagalpur,Bihar,25.2425,87.0117,29.3,73,0.0,999.1,8.7,21.6,200,89.6,61.0,13.9,364.0,164.0,24.6,7,5,7,1,2026-05-30T19:14:58.299751+05:30
Ranchi,Jharkhand,23.3441,85.3096,26.1,75,0.0,936.0,9.25,26.3,155,50.4,39.7,5.8,335.0,151.0,8.9,7,5,7,1,2026-05-30T19:14:58.299758+05:30
Jamshedpur,Jharkhand,22.8046,86.2029,28.2,81,0.0,988.9,9.05,24.1,153,49.0,35.4,6.8,516.0,119.0,10.4,7,5,7,1,2026-05-30T19:14:58.299765+05:30
Dhanbad,Jharkhand,23.7957,86.4304,28.4,77,0.0,978.0,9.05,22.3,162,81.7,67.5,28.7,833.0,139.0,71.3,7,5,7,1,2026-05-30T19:14:58.299772+05:30
Bokaro,Jharkhand,23.6693,86.1511,29.0,68,0.0,981.6,9.05,24.5,180,87.5,74.7,25.9,547.0,166.0,79.5,7,5,7,1,2026-05-30T19:14:58.299779+05:30
Bhubaneswar,Odisha,20.2961,85.8245,27.2,90,0.0,1000.1,9.0,38.9,109,34.1,25.6,5.4,351.0,98.0,4.5,7,5,4,1,2026-05-30T19:14:58.299786+05:30
Cuttack,Odisha,20.4625,85.8828,28.5,86,0.0,1001.8,9.05,38.2,109,34.1,25.6,5.4,284.0,98.0,4.5,7,5,4,1,2026-05-30T19:14:58.299793+05:30
Rourkela,Odisha,22.2604,84.8536,30.0,67,0.0,982.2,8.95,34.2,186,56.2,41.9,7.2,558.0,162.0,14.2,7,5,7,1,2026-05-30T19:14:58.299800+05:30
Raipur,Chhattisgarh,21.2514,81.6296,36.7,30,0.0,970.4,8.95,57.2,189,53.8,39.2,20.0,250.0,139.0,39.0,0,5,10,1,2026-05-30T19:14:58.299808+05:30
Bhilai,Chhattisgarh,21.1938,81.3509,37.0,28,0.0,970.7,8.95,51.8,189,49.5,33.2,18.1,275.0,114.0,30.3,0,5,10,0,2026-05-30T19:14:58.299815+05:30
Guwahati,Assam,26.1158,91.7086,28.1,85,0.0,1000.1,8.7,21.6,85,36.1,25.1,7.5,359.0,73.0,2.1,7,5,4,1,2026-05-30T19:14:58.299822+05:30
Agartala,Tripura,23.8315,91.2868,29.0,75,0.0,1004.2,8.85,20.5,201,113.6,86.8,31.5,390.0,117.0,14.5,7,5,4,1,2026-05-30T19:14:58.299829+05:30
Shillong,Meghalaya,25.5788,91.8933,19.5,91,0.0,857.5,8.05,28.8,79,49.6,27.0,9.9,374.0,82.0,3.2,3,10,7,1,2026-05-30T19:14:58.299836+05:30
Imphal,Manipur,24.817,93.9368,23.4,94,0.1,923.2,8.95,20.2,116,44.1,30.3,11.2,507.0,69.0,2.6,6,5,7,1,2026-05-30T19:14:58.299841+05:30
Aizawl,Mizoram,23.7271,92.7176,20.7,95,0.0,891.7,9.1,20.5,63,23.8,14.6,8.6,291.0,79.0,2.7,3,5,7,1,2026-05-30T19:14:58.299847+05:30
Kohima,Nagaland,25.6701,94.1077,21.4,89,0.0,855.7,7.4,19.1,83,19.8,13.9,7.9,274.0,70.0,1.1,3,5,7,1,2026-05-30T19:14:58.299853+05:30
Gangtok,Sikkim,27.3314,88.6138,18.5,70,0.0,837.7,9.15,34.2,77,34.2,18.4,8.2,320.0,114.0,1.7,3,5,7,0,2026-05-30T19:14:58.299859+05:30
Siliguri,West Bengal,26.7271,88.3953,28.1,78,0.0,991.7,8.7,50.4,108,68.7,33.3,9.6,791.0,129.0,4.6,7,5,7,1,2026-05-30T19:15:04.331160+05:30
Durgapur,West Bengal,23.5204,87.3119,27.8,88,0.0,993.3,8.9,28.4,165,84.8,65.2,23.9,498.0,133.0,38.2,7,5,7,1,2026-05-30T19:15:04.331190+05:30
Asansol,West Bengal,23.6739,86.9524,27.3,87,0.0,991.9,8.95,31.3,160,77.1,61.5,25.9,676.0,134.0,43.9,7,5,7,1,2026-05-30T19:15:04.331200+05:30
Pondicherry,Puducherry,11.9139,79.8145,28.9,76,0.0,1007.0,8.9,64.1,163,38.1,30.0,20.7,251.0,140.0,8.7,7,5,4,1,2026-05-30T19:15:04.331209+05:30
Port Blair,Andaman and Nicobar Islands,11.6234,92.7265,25.4,93,0.1,1007.0,8.7,36.0,34,10.2,6.2,0.6,133.0,72.0,0.4,10,5,4,1,2026-05-30T19:15:04.331218+05:30
Haridwar,Uttarakhand,29.9457,78.1642,26.0,68,0.0,972.7,7.5,59.4,157,40.0,21.8,7.8,293.0,144.0,4.9,7,5,7,1,2026-05-30T19:15:04.331226+05:30
Rishikesh,Uttarakhand,30.0869,78.2676,25.9,59,0.0,965.8,7.6,57.6,151,36.7,18.1,4.8,331.0,149.0,3.7,4,5,7,1,2026-05-30T19:15:04.331233+05:30
Nainital,Uttarakhand,29.3919,79.4542,13.7,95,0.1,805.0,7.85,33.8,140,43.1,21.1,3.2,275.0,157.0,5.5,6,10,7,0,2026-05-30T19:15:04.331241+05:30
Mussoorie,Uttarakhand,30.4599,78.0664,13.9,83,0.0,801.9,8.0,49.0,156,47.1,20.5,10.6,306.0,150.0,4.4,3,10,7,0,2026-05-30T19:15:04.331249+05:30
Dharamshala,Himachal Pradesh,32.219,76.3234,19.3,61,0.0,868.4,5.25,32.0,121,25.1,11.2,5.6,318.0,130.0,0.9,3,5,3,0,2026-05-30T19:15:04.331257+05:30
Dalhousie,Himachal Pradesh,32.5387,75.971,14.1,81,0.0,803.4,7.3,25.9,144,61.2,20.2,9.5,392.0,154.0,2.3,3,10,7,0,2026-05-30T19:15:04.331265+05:30
Patiala,Punjab,30.3398,76.3869,25.5,66,0.0,977.1,7.6,54.4,986,234.7,51.3,5.6,367.0,163.0,8.0,7,5,7,1,2026-05-30T19:15:04.331273+05:30
Bhatinda,Punjab,30.211,74.9455,29.0,48,0.0,981.9,8.2,65.5,947,905.2,156.5,9.1,271.0,141.0,13.5,4,5,7,1,2026-05-30T19:15:04.331280+05:30
Rohtak,Haryana,28.8955,76.6066,25.9,74,0.0,980.0,7.65,62.6,745,296.2,73.8,15.9,389.0,162.0,13.8,7,5,7,1,2026-05-30T19:15:04.331287+05:30
Panipat,Haryana,29.3909,76.9635,25.1,77,0.0,979.2,7.5,61.6,1323,297.1,65.2,12.7,314.0,167.0,19.9,7,5,7,1,2026-05-30T19:15:04.331294+05:30
Mathura,Uttar Pradesh,27.4924,77.6737,24.3,81,0.0,985.3,7.9,39.6,333,325.0,58.3,13.3,283.0,112.0,4.3,3,5,7,1,2026-05-30T19:15:04.331301+05:30
Vrindavan,Uttar Pradesh,27.5823,77.7027,24.5,80,0.0,985.6,7.9,52.2,333,325.0,58.3,13.3,285.0,112.0,4.3,3,5,7,1,2026-05-30T19:15:04.331308+05:30
Ayodhya,Uttar Pradesh,26.7922,82.1998,26.5,73,0.0,994.0,8.25,34.6,119,36.1,24.9,10.2,373.0,123.0,4.9,7,5,7,1,2026-05-30T19:15:04.331315+05:30
Ratlam,Madhya Pradesh,23.3315,75.0367,29.6,50,0.1,952.0,8.45,48.2,78,70.5,26.8,1.5,142.0,100.0,3.5,7,5,7,1,2026-05-30T19:15:04.331322+05:30
Sagar,Madhya Pradesh,23.8388,78.7378,31.8,42,0.0,947.5,8.7,33.8,79,36.0,16.5,2.0,147.0,121.0,2.4,0,5,7,1,2026-05-30T19:15:04.331328+05:30
Satna,Madhya Pradesh,24.6005,80.8322,31.3,45,0.0,968.8,8.7,27.7,112,40.7,20.0,3.1,317.0,135.0,3.7,0,5,7,1,2026-05-30T19:15:04.331335+05:30
Akola,Maharashtra,20.7002,77.0082,36.7,26,0.0,971.3,8.8,52.2,71,65.4,25.8,4.0,164.0,101.0,5.7,0,5,10,0,2026-05-30T19:15:04.331343+05:30
Amravati,Maharashtra,20.9374,77.7796,36.2,26,0.0,963.8,8.8,48.2,71,68.7,26.7,4.0,144.0,102.0,6.2,0,5,10,0,2026-05-30T19:15:04.331351+05:30
Latur,Maharashtra,18.4088,76.5604,33.7,32,0.0,937.3,8.95,37.8,54,27.5,13.1,4.6,157.0,94.0,1.8,0,5,7,0,2026-05-30T19:15:04.331358+05:30
Nanded,Maharashtra,19.1383,77.3091,36.1,29,0.0,965.2,8.85,41.0,73,46.3,21.3,5.5,179.0,98.0,3.4,0,5,10,0,2026-05-30T19:15:04.331365+05:30
Gulbarga,Karnataka,17.3297,76.8343,34.7,29,0.0,956.1,8.85,40.3,51,19.7,10.8,8.6,174.0,98.0,2.3,0,5,7,0,2026-05-30T19:15:04.331372+05:30
Bidar,Karnataka,17.9104,77.5199,30.9,49,0.0,932.9,8.9,40.0,64,29.4,18.6,14.7,186.0,93.0,3.8,0,5,7,1,2026-05-30T19:15:04.331379+05:30
Hospet,Karnataka,15.2689,76.3909,25.5,88,0.1,955.3,8.95,47.2,47,12.6,10.0,6.3,195.0,92.0,1.9,10,5,7,1,2026-05-30T19:15:04.331386+05:30
Tirupur,Tamil Nadu,11.1085,77.3411,30.1,62,0.0,974.8,9.0,42.5,45,9.3,7.7,9.8,171.0,84.0,3.2,3,5,7,1,2026-05-30T19:15:04.331393+05:30
Alappuzha,Kerala,9.4981,76.3388,28.0,84,0.0,1009.7,8.1,28.4,29,8.8,6.9,9.5,102.0,52.0,2.0,7,0,4,1,2026-05-30T19:15:04.331398+05:30
Munnar,Kerala,10.0889,77.0595,18.0,100,0.0,857.6,5.95,28.4,32,4.6,4.2,6.7,156.0,55.0,1.4,3,10,3,1,2026-05-30T19:15:04.331404+05:30
Silchar,Assam,24.8333,92.7789,29.0,88,0.0,1003.7,7.8,20.9,155,60.3,43.2,6.9,678.0,140.0,8.9,7,5,4,1,2026-05-30T19:15:04.331409+05:30
Dibrugarh,Assam,27.4728,94.912,28.5,85,0.0,994.0,1.25,18.7,112,51.6,39.1,13.4,503.0,89.0,3.5,7,5,3,1,2026-05-30T19:15:04.331415+05:30
