city,state,latitude,longitude,temp,humidity,rain,pressure,uv_index,wind_gusts,aqi,pm10,pm2_5,no2,co,o3,so2,mosquito_risk,arthritis_risk,migraine_risk,frizz_risk,updated_at
Delhi,Delhi,28.6139,77.209,31.0,77,0.0,975.3,7.75,20.2,136,73.1,70.1,65.6,1349.0,58.0,45.6,3,5,7,1,2026-07-07T00:27:11.607446+05:30
Mumbai,Maharashtra,19.076,72.8777,26.4,95,1.5,1000.3,0.65,71.6,43,33.1,15.1,3.9,143.0,57.0,2.9,10,5,0,1,2026-07-07T00:27:11.607494+05:30
Bangalore,Karnataka,12.9716,77.5946,21.5,86,0.0,910.3,5.9,73.8,26,5.0,3.6,7.8,228.0,46.0,3.2,3,5,3,1,2026-07-07T00:27:11.607510+05:30
Hyderabad,Telangana,17.385,78.4867,25.6,74,0.0,947.8,7.4,58.3,27,5.5,3.9,6.3,170.0,47.0,4.0,7,5,7,1,2026-07-07T00:27:11.607520+05:30
Chennai,Tamil Nadu,13.0827,80.2707,33.1,44,0.0,1004.6,8.3,61.6,59,14.8,10.5,12.8,160.0,51.0,7.9,0,5,4,1,2026-07-07T00:27:11.607528+05:30
Kolkata,West Bengal,22.5726,88.3639,28.0,89,0.0,999.3,2.25,40.7,56,22.4,18.3,6.6,235.0,77.0,7.1,7,5,3,1,2026-07-07T00:27:11.607536+05:30
Pune,Maharashtra,18.5204,73.8567,23.6,93,0.4,939.6,1.05,61.9,22,1.5,1.5,5.0,134.0,49.0,3.0,6,5,3,1,2026-07-07T00:27:11.607543+05:30
Ahmedabad,Gujarat,23.0225,72.5714,27.7,96,0.0,992.6,8.1,29.5,97,38.1,25.4,18.0,416.0,56.0,4.4,7,5,7,1,2026-07-07T00:27:11.607550+05:30
Jaipur,Rajasthan,26.9124,75.7873,29.1,78,0.0,952.1,7.4,26.3,75,41.4,30.5,35.1,379.0,48.0,12.2,7,5,7,1,2026-07-07T00:27:11.607557+05:30
Lucknow,Uttar Pradesh,26.8467,80.9462,30.5,74,0.0,985.4,6.6,37.1,79,30.5,29.7,23.2,325.0,56.0,9.7,3,5,7,1,2026-07-07T00:27:11.607568+05:30
Kanpur,Uttar Pradesh,26.4499,80.3319,28.4,86,0.0,983.6,8.1,38.9,70,23.0,22.8,19.3,259.0,64.0,7.0,7,5,7,1,2026-07-07T00:27:11.607576+05:30
Chandigarh,Chandigarh,30.7333,76.7794,28.6,80,0.0,961.8,6.0,29.9,93,90.8,89.4,90.3,942.0,21.0,19.0,7,5,3,1,2026-07-07T00:27:11.607582+05:30
Srinagar,Jammu and Kashmir,34.0837,74.7973,22.0,80,0.0,836.8,9.1,20.2,95,39.9,36.4,34.0,1065.0,40.0,3.7,3,5,7,1,2026-07-07T00:27:11.607595+05:30
Jammu,Jammu and Kashmir,32.7266,74.857,29.4,78,0.0,965.3,7.8,29.5,102,59.6,58.7,60.0,475.0,57.0,11.6,7,5,7,1,2026-07-07T00:27:11.607602+05:30
Amritsar,Punjab,31.634,74.8723,29.5,86,0.0,972.6,8.1,32.4,129,55.1,52.0,36.8,539.0,58.0,7.5,7,5,7,1,2026-07-07T00:27:11.607609+05:30
Ludhiana,Punjab,30.901,75.8573,29.7,91,0.0,971.0,7.85,41.8,120,120.6,116.9,97.7,880.0,9.0,22.0,7,5,7,1,2026-07-07T00:27:11.607615+05:30
Jalandhar,Punjab,31.326,75.5762,29.2,91,0.0,972.0,7.7,38.2,137,121.5,117.3,99.9,730.0,1.0,18.9,7,5,7,1,2026-07-07T00:27:11.607624+05:30
Dehradun,Uttarakhand,30.6284,78.0322,18.5,97,0.0,827.0,6.95,28.1,48,18.3,18.1,34.1,255.0,48.0,2.5,3,10,7,1,2026-07-07T00:27:11.607630+05:30
Shimla,Himachal Pradesh,31.1048,77.1734,15.7,97,0.0,780.8,6.95,22.0,63,16.0,15.6,17.8,475.0,80.0,1.0,3,10,7,0,2026-07-07T00:27:11.607637+05:30
Manali,Himachal Pradesh,32.2396,77.1887,20.4,94,0.0,817.5,7.6,31.0,49,16.5,16.4,34.4,326.0,72.0,0.1,3,5,7,1,2026-07-07T00:27:11.607645+05:30
Gurgaon,Haryana,28.4595,77.0266,30.6,77,0.0,973.8,7.8,25.9,110,82.4,67.1,75.6,1466.0,38.0,31.6,3,5,7,1,2026-07-07T00:27:11.607651+05:30
Noida,Uttar Pradesh,28.5355,77.391,30.4,79,0.0,976.8,7.75,21.2,110,82.4,67.1,75.6,868.0,38.0,31.6,3,5,7,1,2026-07-07T00:27:11.607657+05:30
Ghaziabad,Uttar Pradesh,28.6692,77.4538,30.3,79,0.0,975.1,7.75,22.0,94,61.5,60.1,41.4,473.0,52.0,13.1,3,5,7,1,2026-07-07T00:27:11.607663+05:30
Faridabad,Haryana,28.4089,77.3178,31.4,72,0.0,976.1,7.8,25.9,110,82.4,67.1,75.6,562.0,38.0,31.6,3,5,7,1,2026-07-07T00:27:11.607669+05:30
Meerut,Uttar Pradesh,28.9845,77.7064,30.1,83,0.0,974.1,7.6,19.8,94,61.5,60.1,41.4,729.0,52.0,13.1,3,5,7,1,2026-07-07T00:27:11.607675+05:30
Agra,Uttar Pradesh,27.1767,78.0081,30.7,77,0.0,979.6,8.05,27.4,76,32.1,27.8,29.1,398.0,50.0,10.3,3,5,7,1,2026-07-07T00:27:11.607681+05:30
Varanasi,Uttar Pradesh,25.3176,82.9739,26.6,96,0.1,988.5,6.75,58.0,56,16.5,16.5,12.1,313.0,80.0,6.7,10,5,7,1,2026-07-07T00:27:11.607688+05:30
Prayagraj,Uttar Pradesh,25.4358,81.8463,27.2,92,0.1,987.3,6.7,50.4,58,15.7,15.6,12.0,303.0,80.0,5.3,10,5,7,1,2026-07-07T00:27:11.607694+05:30
Gorakhpur,Uttar Pradesh,26.7606,83.3732,29.8,77,0.0,989.6,5.8,52.6,58,14.9,14.3,8.7,372.0,84.0,4.9,7,5,3,1,2026-07-07T00:27:11.607701+05:30
Bareilly,Uttar Pradesh,28.367,79.4304,30.2,85,0.0,979.5,5.65,17.6,81,52.3,51.2,34.1,536.0,58.0,17.4,3,5,3,1,2026-07-07T00:27:11.607709+05:30
Aligarh,Uttar Pradesh,27.8974,78.088,30.7,79,0.0,977.8,7.35,25.9,91,46.6,42.0,32.5,462.0,47.0,11.3,3,5,7,1,2026-07-07T00:27:11.607715+05:30
Moradabad,Uttar Pradesh,28.8386,78.7733,30.2,85,0.0,976.4,7.85,31.0,100,116.9,114.8,77.8,702.0,27.0,27.7,3,5,7,1,2026-07-07T00:27:11.607721+05:30
Saharanpur,Uttar Pradesh,29.9637,77.546,29.4,82,0.0,968.8,7.4,21.6,93,99.4,99.0,73.3,1141.0,27.0,26.7,7,5,7,1,2026-07-07T00:27:11.607727+05:30
Jhansi,Uttar Pradesh,25.4484,78.5685,26.4,95,0.2,970.5,8.4,31.7,51,14.3,13.6,17.0,253.0,55.0,5.0,10,5,7,1,2026-07-07T00:27:14.975549+05:30
Surat,Gujarat,21.1702,72.8311,25.9,99,0.3,997.7,4.7,31.0,94,27.7,20.7,23.9,436.0,38.0,37.7,10,5,3,1,2026-07-07T00:27:14.975583+05:30
Vadodara,Gujarat,22.3072,73.1812,26.4,96,0.0,994.8,7.9,33.5,85,34.1,26.6,15.4,342.0,78.0,6.5,7,5,7,1,2026-07-07T00:27:14.975594+05:30
Rajkot,Gujarat,22.3039,70.8022,27.6,92,0.1,985.9,6.6,40.0,94,49.4,25.5,7.9,122.0,44.0,7.3,10,5,7,1,2026-07-07T00:27:14.975603+05:30
Thane,Maharashtra,19.2183,72.9781,26.0,97,1.6,999.3,1.0,55.1,43,33.1,15.1,3.9,142.0,57.0,2.9,10,5,3,1,2026-07-07T00:27:14.975611+05:30
Nagpur,Maharashtra,21.1458,79.0882,26.4,83,0.0,964.8,6.85,39.6,38,6.2,5.8,12.0,224.0,34.0,10.1,7,5,7,1,2026-07-07T00:27:14.975620+05:30
Nashik,Maharashtra,19.9975,73.7898,23.3,98,0.0,936.5,5.8,38.2,29,6.5,4.5,3.2,182.0,56.0,0.7,3,5,3,1,2026-07-07T00:27:14.975628+05:30
Aurangabad,Maharashtra,19.8762,75.3433,23.4,96,0.0,935.2,3.1,47.5,21,6.7,6.7,8.8,183.0,71.0,5.9,3,5,3,1,2026-07-07T00:27:14.975636+05:30
Solapur,Maharashtra,17.6599,75.9064,25.2,81,0.0,951.4,4.65,71.6,27,2.5,2.2,3.9,118.0,47.0,2.0,7,5,3,1,2026-07-07T00:27:14.975644+05:30
Kolhapur,Maharashtra,16.705,74.2433,22.8,95,0.0,943.0,2.45,61.2,23,4.3,3.1,3.4,118.0,50.0,1.5,3,5,3,1,2026-07-07T00:27:14.975652+05:30
Goa,Goa,15.2993,74.124,23.8,97,0.4,996.0,5.35,40.7,55,39.6,17.9,1.8,187.0,52.0,0.7,6,5,3,1,2026-07-07T00:27:14.975660+05:30
Jodhpur,Rajasthan,26.2389,73.0243,31.4,73,0.0,973.9,8.2,18.0,107,124.3,50.1,16.5,321.0,54.0,4.8,3,5,7,1,2026-07-07T00:27:14.975668+05:30
Udaipur,Rajasthan,24.5854,73.7125,26.4,93,0.0,937.9,7.1,35.3,55,30.7,22.8,16.9,502.0,34.0,3.9,7,5,7,1,2026-07-07T00:27:14.975675+05:30
Kota,Rajasthan,25.2138,75.8648,28.0,94,0.0,970.0,7.5,21.2,90,21.8,21.5,15.6,412.0,75.0,8.6,7,5,7,1,2026-07-07T00:27:14.975684+05:30
Bikaner,Rajasthan,28.0229,73.3119,34.6,50,0.0,972.7,8.45,23.0,98,75.2,38.8,4.8,194.0,73.0,2.9,0,5,7,1,2026-07-07T00:27:14.975692+05:30
Ajmer,Rajasthan,26.4499,74.6399,28.9,84,0.0,946.8,7.2,20.5,55,32.4,30.2,33.2,779.0,44.0,6.7,7,5,7,1,2026-07-07T00:27:14.975700+05:30
Gwalior,Madhya Pradesh,26.2183,78.1828,27.7,87,0.0,975.4,8.15,32.4,54,17.7,15.1,17.3,213.0,54.0,4.9,7,5,7,1,2026-07-07T00:27:14.975707+05:30
Indore,Madhya Pradesh,22.7196,75.8577,24.3,95,0.0,938.5,8.35,31.7,136,39.2,38.5,20.2,958.0,54.0,5.4,3,5,7,1,2026-07-07T00:27:14.975715+05:30
Bhopal,Madhya Pradesh,23.2599,77.4126,24.5,98,0.1,944.1,8.3,17.6,75,18.3,18.1,13.7,291.0,58.0,2.9,6,5,7,1,2026-07-07T00:27:14.975722+05:30
Jabalpur,Madhya Pradesh,23.1815,79.9864,24.4,98,0.1,952.5,8.15,31.3,51,11.6,11.5,8.6,246.0,69.0,2.3,6,5,7,1,2026-07-07T00:27:14.975729+05:30
Ujjain,Madhya Pradesh,23.1765,75.7885,24.8,98,0.0,944.2,7.65,27.7,143,35.9,35.0,12.1,572.0,70.0,3.0,3,5,7,1,2026-07-07T00:27:14.975737+05:30
Visakhapatnam,Andhra Pradesh,17.6868,83.2185,28.1,80,0.0,998.0,7.9,59.0,56,30.9,22.0,12.3,221.0,81.0,22.3,7,5,7,1,2026-07-07T00:27:14.975745+05:30
Vijayawada,Andhra Pradesh,16.5062,80.648,31.6,53,0.0,997.4,6.65,58.3,52,25.7,21.0,9.9,145.0,75.0,5.3,0,5,7,1,2026-07-07T00:27:14.975752+05:30
Guntur,Andhra Pradesh,16.3067,80.4365,31.9,50,0.0,998.9,6.45,61.6,50,24.0,20.7,15.5,138.0,48.0,5.2,0,5,7,1,2026-07-07T00:27:14.975759+05:30
Nellore,Andhra Pradesh,14.4426,79.9865,31.9,49,0.0,1002.2,7.95,64.1,34,7.5,4.3,3.9,120.0,52.0,2.7,0,5,4,1,2026-07-07T00:27:14.975767+05:30
Kurnool,Andhra Pradesh,15.8281,78.0373,26.9,71,0.0,973.6,4.65,67.7,26,4.4,3.2,6.2,116.0,44.0,4.3,7,5,3,1,2026-07-07T00:27:14.975777+05:30
Kakinada,Andhra Pradesh,16.9891,82.2475,29.0,76,0.0,1001.9,6.9,65.9,58,33.5,22.6,2.9,192.0,104.0,3.8,7,5,4,1,2026-07-07T00:27:14.975784+05:30
Tirupati,Andhra Pradesh,13.6288,79.4192,29.9,51,0.0,988.4,8.95,58.3,35,8.8,5.8,5.8,118.0,49.0,2.0,4,5,7,1,2026-07-07T00:27:14.975792+05:30
Warangal,Telangana,17.9689,79.5941,28.4,65,0.0,972.7,5.05,55.1,30,10.0,7.9,8.1,164.0,51.0,4.8,7,5,3,1,2026-07-07T00:27:14.975799+05:30
Nizamabad,Telangana,18.6725,78.0941,26.6,73,0.0,957.9,5.5,61.2,30,8.7,6.1,4.9,129.0,49.0,2.0,7,5,3,1,2026-07-07T00:27:14.975806+05:30
Mysore,Karnataka,12.2958,76.6396,21.5,89,0.0,927.8,7.4,69.8,26,2.9,2.2,4.5,119.0,50.0,1.6,3,5,7,1,2026-07-07T00:27:14.975813+05:30
Mangalore,Karnataka,12.9141,74.856,25.8,88,0.1,1007.1,7.9,57.6,55,39.0,18.1,3.0,167.0,53.0,1.3,10,5,4,1,2026-07-07T00:27:14.975821+05:30
Hubli-Dharwad,Karnataka,15.3647,75.124,21.6,97,0.0,937.7,6.45,67.3,24,7.4,4.2,2.9,113.0,49.0,0.9,3,5,7,1,2026-07-07T00:27:14.975828+05:30
Belgaum,Karnataka,15.8497,74.4977,21.5,97,0.2,921.8,2.1,65.9,24,4.1,2.4,2.8,102.0,51.0,1.2,6,5,3,1,2026-07-07T00:27:18.349993+05:30
Coimbatore,Tamil Nadu,11.0168,76.9558,23.6,85,0.0,961.5,8.8,64.4,25,6.4,4.5,5.2,138.0,45.0,2.2,3,5,7,1,2026-07-07T00:27:18.350028+05:30
Madurai,Tamil Nadu,9.9252,78.1198,28.8,60,0.0,992.7,8.7,68.8,59,26.5,16.6,9.5,117.0,45.0,3.7,4,5,7,1,2026-07-07T00:27:18.350061+05:30
Trichy,Tamil Nadu,10.7905,78.7047,29.8,55,0.0,999.2,8.55,73.1,47,15.1,9.1,3.9,124.0,51.0,2.0,4,5,7,1,2026-07-07T00:27:18.350072+05:30
Salem,Tamil Nadu,11.6643,78.146,25.5,77,0.0,976.8,8.8,40.7,51,20.1,15.5,15.2,276.0,35.0,5.6,7,5,7,1,2026-07-07T00:27:18.350082+05:30
Tirunelveli,Tamil Nadu,8.7139,77.7567,28.7,61,0.0,1003.9,8.65,69.1,50,19.0,12.3,6.4,141.0,41.0,1.9,7,5,4,1,2026-07-07T00:27:18.350091+05:30
Vellore,Tamil Nadu,12.9165,79.1325,28.9,57,0.0,982.4,8.5,60.1,35,11.1,6.9,6.0,124.0,48.0,2.6,4,5,7,1,2026-07-07T00:27:18.350099+05:30
Erode,Tamil Nadu,11.341,77.7172,26.5,72,0.0,988.5,8.8,63.0,47,13.8,10.6,11.3,157.0,39.0,3.2,7,5,7,1,2026-07-07T00:27:18.350107+05:30
Kochi,Kerala,9.9312,76.2673,25.7,94,0.0,1010.7,8.35,39.2,59,25.0,17.4,16.7,114.0,21.0,4.9,7,0,4,1,2026-07-07T00:27:18.350116+05:30
Thiruvananthapuram,Kerala,8.5241,76.9366,26.2,89,0.0,1010.2,8.4,46.4,55,28.3,15.1,2.5,99.0,54.0,0.9,7,0,4,1,2026-07-07T00:27:18.350124+05:30
Kozhikode,Kerala,11.2588,75.7804,23.7,98,0.2,1009.8,8.25,33.8,58,34.2,16.6,1.1,253.0,59.0,0.9,6,0,4,1,2026-07-07T00:27:18.350132+05:30
Thrissur,Kerala,10.5276,76.2144,23.5,100,0.3,1009.3,8.5,49.0,57,29.0,21.3,13.7,248.0,25.0,4.3,6,0,4,1,2026-07-07T00:27:18.350141+05:30
Kannur,Kerala,11.8745,75.3704,23.5,98,0.4,1008.5,7.95,47.5,55,37.4,19.5,6.9,255.0,47.0,1.7,6,0,4,1,2026-07-07T00:27:18.350149+05:30
Patna,Bihar,25.5941,85.1376,27.6,88,0.1,992.1,4.2,63.7,49,13.2,13.1,12.4,246.0,76.0,13.1,10,5,3,1,2026-07-07T00:27:18.350157+05:30
Gaya,Bihar,24.7914,85.0002,25.6,96,0.1,984.8,6.3,55.1,48,15.2,15.1,17.3,299.0,57.0,17.5,10,5,7,1,2026-07-07T00:27:18.350166+05:30
Muzaffarpur,Bihar,26.1209,85.3647,28.4,82,0.0,992.9,5.95,60.5,48,13.2,13.2,10.0,278.0,78.0,8.2,7,5,3,1,2026-07-07T00:27:18.350174+05:30
Bhagalpur,Bihar,25.2425,87.0117,27.5,88,0.0,994.0,6.65,60.1,43,14.0,13.6,11.9,248.0,73.0,9.9,7,5,7,1,2026-07-07T00:27:18.350182+05:30
Ranchi,Jharkhand,23.3441,85.3096,23.1,98,0.1,928.8,8.3,37.4,37,5.6,5.6,12.2,219.0,50.0,9.9,6,5,7,1,2026-07-07T00:27:18.350190+05:30
Jamshedpur,Jharkhand,22.8046,86.2029,25.3,94,0.1,983.0,1.6,27.4,48,8.2,8.1,13.3,197.0,49.0,17.5,10,5,3,1,2026-07-07T00:27:18.350197+05:30
Dhanbad,Jharkhand,23.7957,86.4304,25.6,98,0.0,971.8,4.75,51.5,64,16.4,16.2,32.1,553.0,38.0,65.9,7,5,3,1,2026-07-07T00:27:18.350205+05:30
Bokaro,Jharkhand,23.6693,86.1511,25.7,96,0.0,975.4,5.6,42.8,64,12.9,12.7,21.1,983.0,54.0,41.4,7,5,3,1,2026-07-07T00:27:18.350213+05:30
Bhubaneswar,Odisha,20.2961,85.8245,27.9,85,0.0,996.2,3.4,55.1,49,18.9,15.4,6.8,171.0,80.0,7.6,7,5,3,1,2026-07-07T00:27:18.350221+05:30
Cuttack,Odisha,20.4625,85.8828,28.1,83,0.0,997.8,3.4,54.0,49,18.9,15.4,6.8,191.0,80.0,7.6,7,5,3,1,2026-07-07T00:27:18.350228+05:30
Rourkela,Odisha,22.2604,84.8536,25.0,95,0.1,977.0,1.75,32.4,53,8.4,8.4,9.1,189.0,49.0,7.2,10,5,3,1,2026-07-07T00:27:18.350236+05:30
Raipur,Chhattisgarh,21.2514,81.6296,25.2,93,0.1,966.7,1.2,49.0,53,11.3,10.2,17.5,214.0,43.0,28.5,10,5,3,1,2026-07-07T00:27:18.350244+05:30
Bhilai,Chhattisgarh,21.1938,81.3509,25.3,90,0.0,967.1,2.4,44.6,51,10.8,9.6,16.1,358.0,43.0,25.9,7,5,3,1,2026-07-07T00:27:18.350252+05:30
Guwahati,Assam,26.1158,91.7086,25.8,98,0.4,998.0,7.35,29.2,33,7.0,6.8,6.6,193.0,53.0,1.4,10,5,7,1,2026-07-07T00:27:18.350259+05:30
Agartala,Tripura,23.8315,91.2868,25.2,98,0.1,1002.7,3.15,41.8,27,8.5,7.3,8.2,137.0,46.0,2.5,10,5,0,1,2026-07-07T00:27:18.350267+05:30
Shillong,Meghalaya,25.5788,91.8933,20.4,95,0.0,855.3,7.4,47.2,27,1.5,1.5,5.6,190.0,49.0,1.7,3,5,7,1,2026-07-07T00:27:18.350274+05:30
Imphal,Manipur,24.817,93.9368,23.1,97,0.0,920.9,8.45,26.6,23,7.0,6.8,8.3,563.0,38.0,2.1,3,5,7,1,2026-07-07T00:27:18.350282+05:30
Aizawl,Mizoram,23.7271,92.7176,19.7,96,0.1,890.2,3.6,39.2,26,1.1,1.0,2.2,110.0,49.0,0.9,6,10,3,1,2026-07-07T00:27:18.350289+05:30
Kohima,Nagaland,25.6701,94.1077,21.0,95,0.0,853.4,9.2,20.9,22,4.3,4.2,5.7,302.0,44.0,1.1,3,5,7,1,2026-07-07T00:27:18.350297+05:30
Gangtok,Sikkim,27.3314,88.6138,18.5,98,0.7,835.8,6.9,32.4,35,3.6,3.5,5.0,235.0,71.0,0.7,6,10,7,1,2026-07-07T00:27:18.350305+05:30
Siliguri,West Bengal,26.7271,88.3953,25.2,95,0.0,989.2,7.75,49.0,38,10.0,9.7,8.1,220.0,72.0,2.5,7,5,7,1,2026-07-07T00:27:21.769593+05:30
Durgapur,West Bengal,23.5204,87.3119,27.5,85,0.0,987.5,5.95,51.8,60,17.9,17.6,20.6,371.0,48.0,25.9,7,5,3,1,2026-07-07T00:27:21.769627+05:30
Asansol,West Bengal,23.6739,86.9524,26.7,93,0.0,985.7,7.0,53.3,55,12.3,12.2,25.9,374.0,40.0,37.0,7,5,7,1,2026-07-07T00:27:21.769639+05:30
Pondicherry,Puducherry,11.9139,79.8145,30.6,53,0.0,1006.4,8.65,52.6,60,21.0,15.6,14.6,260.0,51.0,9.3,0,5,4,1,2026-07-07T00:27:21.769648+05:30
Port Blair,Andaman and Nicobar Islands,11.6234,92.7265,27.2,81,0.0,1008.4,8.6,38.2,46,24.3,14.1,0.2,91.0,56.0,0.5,7,0,4,1,2026-07-07T00:27:21.769657+05:30
Haridwar,Uttarakhand,29.9457,78.1642,28.9,91,0.0,967.2,7.55,17.6,75,63.1,62.6,43.5,468.0,44.0,13.5,7,5,7,1,2026-07-07T00:27:21.769666+05:30
Rishikesh,Uttarakhand,30.0869,78.2676,27.7,88,0.0,960.2,7.6,23.4,59,24.2,23.8,10.8,466.0,87.0,4.2,7,5,7,1,2026-07-07T00:27:21.769674+05:30
Nainital,Uttarakhand,29.3919,79.4542,17.0,100,0.0,802.3,6.45,25.9,55,26.9,26.7,21.2,382.0,55.0,5.5,3,10,7,1,2026-07-07T00:27:21.769683+05:30
Mussoorie,Uttarakhand,30.4599,78.0664,17.0,99,0.0,800.1,6.85,27.4,57,30.3,30.0,38.2,436.0,39.0,8.4,3,10,7,1,2026-07-07T00:27:21.769691+05:30
Dharamshala,Himachal Pradesh,32.219,76.3234,22.8,83,0.0,865.1,7.1,33.1,45,7.8,7.6,8.7,483.0,79.0,0.6,3,5,7,1,2026-07-07T00:27:21.769699+05:30
Dalhousie,Himachal Pradesh,32.5387,75.971,16.9,95,0.0,801.0,7.1,23.4,87,29.7,29.2,26.0,714.0,83.0,3.8,3,10,7,1,2026-07-07T00:27:21.769707+05:30
Patiala,Punjab,30.3398,76.3869,29.8,85,0.0,970.6,7.5,34.9,95,112.2,109.0,88.4,710.0,14.0,17.8,7,5,7,1,2026-07-07T00:27:21.769714+05:30
Bhatinda,Punjab,30.211,74.9455,31.5,76,0.0,975.3,7.95,33.8,126,62.9,49.1,31.1,527.0,61.0,13.0,3,5,7,1,2026-07-07T00:27:21.769721+05:30
Rohtak,Haryana,28.8955,76.6066,30.7,74,0.0,973.9,7.7,20.9,126,73.1,71.2,58.5,822.0,69.0,36.7,3,5,7,1,2026-07-07T00:27:21.769729+05:30
Panipat,Haryana,29.3909,76.9635,29.8,79,0.0,972.8,6.75,27.7,123,75.2,74.7,42.6,741.0,61.0,21.5,7,5,7,1,2026-07-07T00:27:21.769736+05:30
Mathura,Uttar Pradesh,27.4924,77.6737,30.7,79,0.0,978.8,7.75,24.8,83,154.1,46.9,44.2,412.0,36.0,8.6,3,5,7,1,2026-07-07T00:27:21.769743+05:30
Vrindavan,Uttar Pradesh,27.5823,77.7027,30.9,77,0.0,979.3,7.8,25.2,83,154.1,46.9,44.2,444.0,36.0,8.6,3,5,7,1,2026-07-07T00:27:21.769750+05:30
Ayodhya,Uttar Pradesh,26.7922,82.1998,30.1,76,0.0,987.4,6.25,42.5,73,15.3,14.7,10.0,313.0,82.0,5.1,3,5,7,1,2026-07-07T00:27:21.769757+05:30
Ratlam,Madhya Pradesh,23.3315,75.0367,25.1,96,0.0,945.2,8.35,28.4,120,38.8,38.0,12.0,397.0,63.0,3.7,7,5,7,1,2026-07-07T00:27:21.769764+05:30
Sagar,Madhya Pradesh,23.8388,78.7378,24.4,97,0.0,941.4,8.0,31.3,49,7.3,7.2,6.5,256.0,84.0,1.9,3,5,7,1,2026-07-07T00:27:21.769772+05:30
Satna,Madhya Pradesh,24.6005,80.8322,25.6,94,0.1,962.2,5.2,38.9,57,12.1,12.0,8.1,234.0,84.0,3.5,10,5,3,1,2026-07-07T00:27:21.769779+05:30
Akola,Maharashtra,20.7002,77.0082,27.3,77,0.0,965.7,5.4,41.8,26,5.2,4.9,8.7,179.0,34.0,3.8,7,5,3,1,2026-07-07T00:27:21.769787+05:30
Amravati,Maharashtra,20.9374,77.7796,26.7,80,0.0,958.4,7.6,43.9,25,5.0,4.5,8.2,190.0,35.0,3.4,7,5,7,1,2026-07-07T00:27:21.769795+05:30
Latur,Maharashtra,18.4088,76.5604,24.5,82,0.0,933.0,4.1,58.0,26,2.9,2.6,3.3,124.0,47.0,1.6,3,5,3,1,2026-07-07T00:27:21.769804+05:30
Nanded,Maharashtra,19.1383,77.3091,26.7,74,0.0,960.9,6.3,46.4,27,5.2,4.1,5.2,130.0,45.0,4.1,7,5,7,1,2026-07-07T00:27:21.769811+05:30
Gulbarga,Karnataka,17.3297,76.8343,25.5,76,0.0,953.6,5.4,67.3,29,3.3,2.6,5.6,123.0,44.0,2.5,7,5,3,1,2026-07-07T00:27:21.769819+05:30
Bidar,Karnataka,17.9104,77.5199,24.4,79,0.0,929.5,6.7,59.4,30,6.7,4.6,5.1,121.0,47.0,2.3,3,5,7,1,2026-07-07T00:27:21.769826+05:30
Hospet,Karnataka,15.2689,76.3909,23.7,86,0.0,952.9,7.45,74.9,25,4.3,2.6,3.8,122.0,47.0,1.5,3,5,7,1,2026-07-07T00:27:21.769834+05:30
Tirupur,Tamil Nadu,11.1085,77.3411,24.6,82,0.0,974.6,8.85,74.2,49,15.1,12.0,13.8,137.0,35.0,4.1,3,5,7,1,2026-07-07T00:27:21.769841+05:30
Alappuzha,Kerala,9.4981,76.3388,27.9,81,0.1,1010.5,8.4,37.4,62,35.0,19.0,6.9,87.0,46.0,2.4,10,0,4,1,2026-07-07T00:27:21.769849+05:30
Munnar,Kerala,10.0889,77.0595,16.2,99,0.1,857.1,6.3,61.2,35,5.0,3.8,5.5,95.0,40.0,2.1,6,10,7,1,2026-07-07T00:27:21.769856+05:30
Silchar,Assam,24.8333,92.7789,26.6,95,0.0,1002.3,4.6,47.5,42,10.9,9.5,6.2,238.0,55.0,4.3,7,5,0,1,2026-07-07T00:27:21.769864+05:30
Dibrugarh,Assam,27.4728,94.912,25.7,99,0.2,991.2,8.2,25.2,46,8.6,8.5,6.4,186.0,66.0,1.2,10,5,7,1,2026-07-07T00:27:21.769871+05:30
