city,state,latitude,longitude,temp,humidity,rain,pressure,uv_index,wind_gusts,aqi,pm10,pm2_5,mosquito_risk,arthritis_risk,migraine_risk,frizz_risk,updated_at
Delhi,Delhi,28.6139,77.209,33.0,35,0.0,980.6,7.3,34.2,135,239.3,60.8,0,5,7,0,2026-04-30T09:21:00.303923+05:30
Mumbai,Maharashtra,19.076,72.8777,30.6,67,0.0,1009.3,8.05,41.8,73,40.4,23.5,3,0,4,1,2026-04-30T09:21:00.303967+05:30
Bangalore,Karnataka,12.9716,77.5946,28.6,58,0.0,914.1,9.55,40.3,91,30.5,22.6,4,5,7,1,2026-04-30T09:21:00.303983+05:30
Hyderabad,Telangana,17.385,78.4867,33.4,42,0.0,954.4,9.25,32.4,99,21.7,18.9,0,5,7,1,2026-04-30T09:21:00.303993+05:30
Chennai,Tamil Nadu,13.0827,80.2707,34.4,50,0.0,1007.8,9.25,54.4,49,12.3,9.9,0,5,4,1,2026-04-30T09:21:00.304002+05:30
Kolkata,West Bengal,22.5726,88.3639,27.8,73,0.0,1008.3,8.05,42.8,57,17.2,13.3,7,0,4,1,2026-04-30T09:21:00.304011+05:30
Pune,Maharashtra,18.5204,73.8567,32.7,20,0.0,949.3,8.6,50.0,56,40.4,15.0,0,5,7,0,2026-04-30T09:21:00.304023+05:30
Ahmedabad,Gujarat,23.0225,72.5714,31.2,51,0.0,1001.1,8.2,43.6,54,30.3,13.7,0,5,4,1,2026-04-30T09:21:00.304031+05:30
Jaipur,Rajasthan,26.9124,75.7873,31.7,36,0.0,957.4,8.1,45.4,173,159.7,36.1,0,5,7,0,2026-04-30T09:21:00.304040+05:30
Lucknow,Uttar Pradesh,26.8467,80.9462,27.8,57,0.0,993.6,7.35,47.2,110,32.1,22.6,4,5,7,1,2026-04-30T09:21:00.304048+05:30
Kanpur,Uttar Pradesh,26.4499,80.3319,28.8,55,0.0,990.6,7.55,52.6,160,291.5,47.3,4,5,7,1,2026-04-30T09:21:00.304055+05:30
Chandigarh,Chandigarh,30.7333,76.7794,30.4,34,0.0,966.7,6.95,42.1,59,27.1,11.5,0,5,7,0,2026-04-30T09:21:00.304063+05:30
Srinagar,Jammu and Kashmir,34.0837,74.7973,13.9,77,0.0,841.1,8.25,29.2,75,24.0,14.7,3,5,7,0,2026-04-30T09:21:00.304071+05:30
Jammu,Jammu and Kashmir,32.7266,74.857,27.1,48,0.0,970.2,8.0,24.8,54,22.0,18.5,4,5,7,0,2026-04-30T09:21:00.304078+05:30
Amritsar,Punjab,31.634,74.8723,29.0,46,0.0,978.2,7.55,41.8,84,38.8,25.2,4,5,7,1,2026-04-30T09:21:00.304085+05:30
Ludhiana,Punjab,30.901,75.8573,29.7,42,0.0,976.3,7.1,52.2,88,76.8,32.2,4,5,7,0,2026-04-30T09:21:00.304092+05:30
Jalandhar,Punjab,31.326,75.5762,29.1,47,0.0,977.2,7.9,31.3,80,37.0,24.7,4,5,7,1,2026-04-30T09:21:00.304101+05:30
Dehradun,Uttarakhand,30.6284,78.0322,18.0,53,0.0,830.1,7.55,33.8,43,12.0,4.6,0,5,7,0,2026-04-30T09:21:00.304108+05:30
Shimla,Himachal Pradesh,31.1048,77.1734,17.7,42,0.0,784.5,7.0,38.5,47,24.1,7.3,0,5,7,0,2026-04-30T09:21:00.304116+05:30
Manali,Himachal Pradesh,32.2396,77.1887,15.8,54,0.0,816.4,9.2,37.1,54,3.5,2.0,0,5,7,0,2026-04-30T09:21:00.304122+05:30
Gurgaon,Haryana,28.4595,77.0266,32.2,37,0.0,979.0,7.45,40.7,690,407.9,72.6,0,5,7,0,2026-04-30T09:21:00.304129+05:30
Noida,Uttar Pradesh,28.5355,77.391,32.5,38,0.0,982.0,7.35,44.6,690,407.9,72.6,0,5,7,1,2026-04-30T09:21:00.304136+05:30
Ghaziabad,Uttar Pradesh,28.6692,77.4538,31.9,41,0.0,980.6,7.3,39.2,128,142.5,45.5,0,5,7,1,2026-04-30T09:21:00.304143+05:30
Faridabad,Haryana,28.4089,77.3178,32.0,37,0.0,981.2,7.35,37.1,690,407.9,72.6,0,5,7,0,2026-04-30T09:21:00.304150+05:30
Meerut,Uttar Pradesh,28.9845,77.7064,28.5,52,0.0,980.0,6.05,47.9,128,142.5,45.5,4,5,7,1,2026-04-30T09:21:00.304156+05:30
Agra,Uttar Pradesh,27.1767,78.0081,33.1,38,0.0,985.1,7.8,68.0,865,748.8,100.4,0,5,7,1,2026-04-30T09:21:00.304163+05:30
Varanasi,Uttar Pradesh,25.3176,82.9739,31.8,36,0.0,996.2,8.5,39.2,93,35.4,27.5,0,5,7,0,2026-04-30T09:21:00.304171+05:30
Prayagraj,Uttar Pradesh,25.4358,81.8463,27.0,52,0.0,996.9,8.1,50.0,89,32.1,23.9,4,5,7,1,2026-04-30T09:21:00.304178+05:30
Gorakhpur,Uttar Pradesh,26.7606,83.3732,27.1,59,0.0,998.3,8.2,46.1,79,23.9,16.4,4,5,7,1,2026-04-30T09:21:00.304185+05:30
Bareilly,Uttar Pradesh,28.367,79.4304,27.0,63,0.0,986.5,7.7,45.7,95,154.6,41.1,7,5,7,1,2026-04-30T09:21:00.304193+05:30
Aligarh,Uttar Pradesh,27.8974,78.088,32.3,39,0.0,983.4,7.6,48.6,364,672.4,92.9,0,5,7,1,2026-04-30T09:21:00.304200+05:30
Moradabad,Uttar Pradesh,28.8386,78.7733,27.5,61,0.0,983.1,7.5,59.0,125,62.9,36.3,7,5,7,1,2026-04-30T09:21:00.304206+05:30
Saharanpur,Uttar Pradesh,29.9637,77.546,26.2,57,0.0,974.6,6.2,49.7,87,40.3,24.9,4,5,7,1,2026-04-30T09:21:00.304212+05:30
Jhansi,Uttar Pradesh,25.4484,78.5685,32.1,37,0.0,975.7,8.3,64.8,74,78.7,25.8,0,5,7,0,2026-04-30T09:21:03.572055+05:30
Surat,Gujarat,21.1702,72.8311,31.8,62,0.0,1006.5,7.85,49.7,67,55.2,19.6,3,5,4,1,2026-04-30T09:21:03.572089+05:30
Vadodara,Gujarat,22.3072,73.1812,31.8,56,0.0,1003.9,8.15,45.0,57,55.6,17.1,0,5,4,1,2026-04-30T09:21:03.572100+05:30
Rajkot,Gujarat,22.3039,70.8022,31.8,53,0.0,993.0,7.9,51.8,51,27.0,11.2,0,5,7,1,2026-04-30T09:21:03.572109+05:30
Thane,Maharashtra,19.2183,72.9781,31.0,65,0.0,1008.7,8.05,40.3,73,40.4,23.5,3,0,4,1,2026-04-30T09:21:03.572117+05:30
Nagpur,Maharashtra,21.1458,79.0882,35.7,22,0.0,973.1,8.9,49.0,52,20.3,13.3,0,5,10,0,2026-04-30T09:21:03.572126+05:30
Nashik,Maharashtra,19.9975,73.7898,30.9,34,0.0,946.6,8.3,54.7,57,54.2,19.0,0,5,7,0,2026-04-30T09:21:03.572135+05:30
Aurangabad,Maharashtra,19.8762,75.3433,32.3,24,0.0,945.3,9.05,54.0,51,48.5,15.1,0,5,7,0,2026-04-30T09:21:03.572143+05:30
Solapur,Maharashtra,17.6599,75.9064,33.0,32,0.0,959.0,9.1,40.3,68,23.6,12.7,0,5,7,0,2026-04-30T09:21:03.572151+05:30
Kolhapur,Maharashtra,16.705,74.2433,29.4,47,0.0,949.9,9.0,44.3,63,32.4,19.7,4,5,7,1,2026-04-30T09:21:03.572159+05:30
Goa,Goa,15.2993,74.124,32.0,69,0.0,999.4,8.95,34.6,61,27.5,13.9,3,5,7,1,2026-04-30T09:21:03.572167+05:30
Jodhpur,Rajasthan,26.2389,73.0243,32.5,40,0.0,979.7,8.3,45.7,122,256.1,48.2,0,5,7,1,2026-04-30T09:21:03.572175+05:30
Udaipur,Rajasthan,24.5854,73.7125,30.9,39,0.0,944.8,8.8,47.2,54,53.7,16.8,0,5,7,0,2026-04-30T09:21:03.572183+05:30
Kota,Rajasthan,25.2138,75.8648,34.4,31,0.0,976.5,8.3,43.9,61,22.6,13.3,0,5,7,0,2026-04-30T09:21:03.572191+05:30
Bikaner,Rajasthan,28.0229,73.3119,32.8,28,0.0,978.1,8.2,42.5,78,157.9,35.0,0,5,7,0,2026-04-30T09:21:03.572198+05:30
Ajmer,Rajasthan,26.4499,74.6399,31.9,35,0.0,952.1,8.25,53.6,78,51.7,18.6,0,5,7,0,2026-04-30T09:21:03.572206+05:30
Gwalior,Madhya Pradesh,26.2183,78.1828,32.3,37,0.0,980.5,8.05,50.8,163,146.7,44.1,0,5,7,0,2026-04-30T09:21:03.572213+05:30
Indore,Madhya Pradesh,22.7196,75.8577,31.2,42,0.0,947.9,8.6,47.5,45,39.2,15.8,0,5,7,1,2026-04-30T09:21:03.572221+05:30
Bhopal,Madhya Pradesh,23.2599,77.4126,33.5,29,0.0,953.0,8.6,64.4,44,24.7,13.0,0,5,7,0,2026-04-30T09:21:03.572228+05:30
Jabalpur,Madhya Pradesh,23.1815,79.9864,34.2,21,0.0,960.3,8.75,48.2,36,47.3,19.9,0,5,7,0,2026-04-30T09:21:03.572236+05:30
Ujjain,Madhya Pradesh,23.1765,75.7885,31.0,47,0.0,953.4,8.55,47.2,48,35.3,14.9,0,5,7,1,2026-04-30T09:21:03.572244+05:30
Visakhapatnam,Andhra Pradesh,17.6868,83.2185,32.8,55,0.0,1004.3,9.1,49.7,59,17.6,14.2,0,5,4,1,2026-04-30T09:21:03.572252+05:30
Vijayawada,Andhra Pradesh,16.5062,80.648,34.7,59,0.0,1003.5,9.2,43.2,69,14.7,11.9,0,5,4,1,2026-04-30T09:21:03.572260+05:30
Guntur,Andhra Pradesh,16.3067,80.4365,35.0,55,0.0,1004.1,9.2,49.7,74,12.1,10.8,0,5,4,1,2026-04-30T09:21:03.572268+05:30
Nellore,Andhra Pradesh,14.4426,79.9865,35.2,50,0.0,1005.9,9.25,37.8,57,9.8,9.4,0,5,7,1,2026-04-30T09:21:03.572277+05:30
Kurnool,Andhra Pradesh,15.8281,78.0373,34.8,47,0.0,978.0,9.2,38.5,102,21.1,17.9,0,5,7,1,2026-04-30T09:21:03.572310+05:30
Kakinada,Andhra Pradesh,16.9891,82.2475,26.5,80,0.0,1009.6,9.15,42.1,51,13.9,9.6,7,0,4,1,2026-04-30T09:21:03.572320+05:30
Tirupati,Andhra Pradesh,13.6288,79.4192,34.5,47,0.0,991.8,9.3,43.6,59,12.3,11.9,0,5,7,1,2026-04-30T09:21:03.572327+05:30
Warangal,Telangana,17.9689,79.5941,32.9,56,0.0,979.7,9.15,36.7,98,24.2,21.8,0,5,7,1,2026-04-30T09:21:03.572333+05:30
Nizamabad,Telangana,18.6725,78.0941,35.4,19,0.0,966.2,9.1,40.7,86,22.6,18.9,0,5,10,0,2026-04-30T09:21:03.572340+05:30
Mysore,Karnataka,12.2958,76.6396,28.2,65,0.0,930.6,9.4,48.6,80,23.9,16.2,7,5,7,1,2026-04-30T09:21:03.572347+05:30
Mangalore,Karnataka,12.9141,74.856,31.5,64,0.0,1008.4,9.05,34.6,70,46.0,21.8,3,0,4,1,2026-04-30T09:21:03.572354+05:30
Hubli-Dharwad,Karnataka,15.3647,75.124,29.6,65,0.0,942.9,9.2,47.2,67,16.2,11.0,7,5,7,1,2026-04-30T09:21:03.572360+05:30
Belgaum,Karnataka,15.8497,74.4977,28.5,67,0.0,928.0,9.25,40.7,61,26.1,14.4,7,5,7,1,2026-04-30T09:21:06.856036+05:30
Coimbatore,Tamil Nadu,11.0168,76.9558,30.0,60,0.0,963.8,9.35,51.5,73,23.3,17.2,4,5,7,1,2026-04-30T09:21:06.856070+05:30
Madurai,Tamil Nadu,9.9252,78.1198,33.5,52,0.0,994.7,9.2,59.0,67,24.6,23.0,0,5,7,1,2026-04-30T09:21:06.856082+05:30
Trichy,Tamil Nadu,10.7905,78.7047,33.2,57,0.0,1000.9,9.25,45.7,50,14.5,13.7,0,5,4,1,2026-04-30T09:21:06.856093+05:30
Salem,Tamil Nadu,11.6643,78.146,32.8,53,0.0,978.8,9.3,51.8,68,28.3,24.6,0,5,7,1,2026-04-30T09:21:06.856103+05:30
Tirunelveli,Tamil Nadu,8.7139,77.7567,33.3,53,0.0,1004.8,9.05,46.1,54,12.4,11.2,0,5,4,1,2026-04-30T09:21:06.856112+05:30
Vellore,Tamil Nadu,12.9165,79.1325,34.3,47,0.0,985.3,9.35,41.0,63,14.4,14.0,0,5,7,1,2026-04-30T09:21:06.856120+05:30
Erode,Tamil Nadu,11.341,77.7172,33.0,52,0.0,990.6,9.25,68.8,78,23.0,19.3,0,5,7,1,2026-04-30T09:21:06.856130+05:30
Kochi,Kerala,9.9312,76.2673,29.1,78,0.0,1010.5,7.85,31.0,74,16.7,14.4,7,0,4,1,2026-04-30T09:21:06.856138+05:30
Thiruvananthapuram,Kerala,8.5241,76.9366,28.8,79,0.0,1009.9,8.6,29.5,40,7.2,5.7,7,0,4,1,2026-04-30T09:21:06.856146+05:30
Kozhikode,Kerala,11.2588,75.7804,29.5,77,0.0,1009.8,8.9,39.2,60,27.2,14.0,7,0,4,1,2026-04-30T09:21:06.856152+05:30
Thrissur,Kerala,10.5276,76.2144,30.0,70,0.0,1008.9,8.65,38.2,82,19.9,17.0,7,0,4,1,2026-04-30T09:21:06.856159+05:30
Kannur,Kerala,11.8745,75.3704,30.5,68,0.0,1009.1,9.05,35.3,69,44.5,21.2,3,0,4,1,2026-04-30T09:21:06.856165+05:30
Patna,Bihar,25.5941,85.1376,26.8,67,0.0,1001.2,8.6,40.3,68,16.0,14.6,7,5,4,1,2026-04-30T09:21:06.856172+05:30
Gaya,Bihar,24.7914,85.0002,31.4,41,0.0,993.1,8.65,54.4,97,33.8,30.6,0,5,7,1,2026-04-30T09:21:06.856179+05:30
Muzaffarpur,Bihar,26.1209,85.3647,26.6,65,0.0,1001.9,8.55,43.9,62,12.2,11.5,7,5,4,1,2026-04-30T09:21:06.856185+05:30
Bhagalpur,Bihar,25.2425,87.0117,28.1,59,0.0,1003.3,7.65,43.9,57,12.5,11.8,4,5,4,1,2026-04-30T09:21:06.856191+05:30
Ranchi,Jharkhand,23.3441,85.3096,28.2,57,0.0,937.9,9.15,45.4,87,40.4,36.6,4,5,7,1,2026-04-30T09:21:06.856197+05:30
Jamshedpur,Jharkhand,22.8046,86.2029,29.6,61,0.0,991.6,9.0,50.4,115,37.4,33.9,7,5,7,1,2026-04-30T09:21:06.856204+05:30
Dhanbad,Jharkhand,23.7957,86.4304,29.0,58,0.0,980.7,8.25,43.6,144,60.1,55.3,4,5,7,1,2026-04-30T09:21:06.856211+05:30
Bokaro,Jharkhand,23.6693,86.1511,30.0,56,0.0,984.3,8.25,41.8,134,60.3,55.9,4,5,7,1,2026-04-30T09:21:06.856217+05:30
Bhubaneswar,Odisha,20.2961,85.8245,32.5,63,0.0,1002.9,9.05,53.3,53,17.3,14.2,3,5,4,1,2026-04-30T09:21:06.856224+05:30
Cuttack,Odisha,20.4625,85.8828,32.4,65,0.0,1004.6,9.1,49.3,53,17.3,14.2,3,5,4,1,2026-04-30T09:21:06.856230+05:30
Rourkela,Odisha,22.2604,84.8536,32.3,52,0.0,984.9,8.9,63.4,104,35.6,32.1,0,5,7,1,2026-04-30T09:21:06.856237+05:30
Raipur,Chhattisgarh,21.2514,81.6296,35.5,35,0.0,974.1,8.95,53.6,93,41.9,39.5,0,5,10,1,2026-04-30T09:21:06.856243+05:30
Bhilai,Chhattisgarh,21.1938,81.3509,34.8,37,0.0,974.6,8.95,55.4,85,40.5,38.2,0,5,7,1,2026-04-30T09:21:06.856249+05:30
Guwahati,Assam,26.1158,91.7086,25.2,74,0.0,1003.9,8.0,30.2,69,26.2,22.4,7,5,4,1,2026-04-30T09:21:06.856255+05:30
Agartala,Tripura,23.8315,91.2868,26.4,74,0.0,1008.5,4.35,34.2,89,20.3,16.5,7,0,0,1,2026-04-30T09:21:06.856261+05:30
Shillong,Meghalaya,25.5788,91.8933,20.7,63,0.0,858.6,6.8,44.3,47,8.5,5.8,3,5,7,0,2026-04-30T09:21:06.856268+05:30
Imphal,Manipur,24.817,93.9368,23.5,66,0.0,925.7,3.35,31.7,98,39.2,17.6,3,5,3,1,2026-04-30T09:21:06.856274+05:30
Aizawl,Mizoram,23.7271,92.7176,21.1,67,0.0,893.9,4.0,32.8,83,15.2,11.1,3,5,3,0,2026-04-30T09:21:06.856280+05:30
Kohima,Nagaland,25.6701,94.1077,24.0,52,0.0,857.5,7.1,28.4,61,36.7,14.6,0,5,7,0,2026-04-30T09:21:06.856306+05:30
Gangtok,Sikkim,27.3314,88.6138,13.4,96,0.2,837.4,8.9,31.3,41,6.2,3.6,6,10,7,0,2026-04-30T09:21:06.856315+05:30
Siliguri,West Bengal,26.7271,88.3953,20.5,95,0.4,996.5,8.1,36.0,50,13.0,9.3,6,5,7,1,2026-04-30T09:21:10.133720+05:30
Durgapur,West Bengal,23.5204,87.3119,26.5,72,0.0,996.6,7.45,40.7,98,39.1,36.1,7,5,7,1,2026-04-30T09:21:10.133750+05:30
Asansol,West Bengal,23.6739,86.9524,27.6,66,0.0,995.0,8.05,43.6,114,45.5,41.2,7,5,7,1,2026-04-30T09:21:10.133760+05:30
Pondicherry,Puducherry,11.9139,79.8145,32.3,64,0.0,1009.4,9.2,52.2,41,11.2,9.3,3,0,4,1,2026-04-30T09:21:10.133767+05:30
Port Blair,Andaman and Nicobar Islands,11.6234,92.7265,32.9,54,0.0,1009.7,8.8,31.7,40,13.3,10.5,0,0,4,1,2026-04-30T09:21:10.133775+05:30
Haridwar,Uttarakhand,29.9457,78.1642,24.8,59,0.0,973.7,7.0,40.7,76,45.6,18.6,0,5,7,1,2026-04-30T09:21:10.133783+05:30
Rishikesh,Uttarakhand,30.0869,78.2676,23.4,62,0.0,966.3,7.05,41.0,70,62.2,19.3,3,5,7,0,2026-04-30T09:21:10.133790+05:30
Nainital,Uttarakhand,29.3919,79.4542,13.7,79,0.0,804.6,7.8,36.4,84,61.2,23.8,3,5,7,0,2026-04-30T09:21:10.133797+05:30
Mussoorie,Uttarakhand,30.4599,78.0664,15.7,63,0.0,802.2,7.55,42.8,57,15.4,7.1,3,5,7,0,2026-04-30T09:21:10.133805+05:30
Dharamshala,Himachal Pradesh,32.219,76.3234,21.9,41,0.0,867.7,7.65,50.0,49,9.2,3.8,0,5,7,0,2026-04-30T09:21:10.133812+05:30
Dalhousie,Himachal Pradesh,32.5387,75.971,17.5,53,0.0,803.4,6.45,42.5,53,10.7,5.3,0,5,7,0,2026-04-30T09:21:10.133820+05:30
Patiala,Punjab,30.3398,76.3869,31.3,40,0.0,975.6,5.9,48.6,136,81.7,25.4,0,5,3,1,2026-04-30T09:21:10.133827+05:30
Bhatinda,Punjab,30.211,74.9455,32.1,37,0.0,981.0,7.8,46.4,102,369.7,72.6,0,5,7,0,2026-04-30T09:21:10.133834+05:30
Rohtak,Haryana,28.8955,76.6066,32.2,36,0.0,979.3,7.5,38.5,237,339.0,69.6,0,5,7,0,2026-04-30T09:21:10.133841+05:30
Panipat,Haryana,29.3909,76.9635,31.1,40,0.0,978.6,7.2,42.1,568,361.4,63.6,0,5,7,0,2026-04-30T09:21:10.133847+05:30
Mathura,Uttar Pradesh,27.4924,77.6737,32.5,39,0.0,984.4,7.75,43.9,631,894.1,113.6,0,5,7,1,2026-04-30T09:21:10.133854+05:30
Vrindavan,Uttar Pradesh,27.5823,77.7027,32.4,38,0.0,984.9,7.7,42.5,631,894.1,113.6,0,5,7,1,2026-04-30T09:21:10.133860+05:30
Ayodhya,Uttar Pradesh,26.7922,82.1998,27.1,60,0.0,997.4,8.05,42.1,99,27.9,19.9,4,5,7,1,2026-04-30T09:21:10.133867+05:30
Ratlam,Madhya Pradesh,23.3315,75.0367,29.8,55,0.0,954.3,8.5,46.4,48,39.2,14.8,4,5,7,1,2026-04-30T09:21:10.133874+05:30
Sagar,Madhya Pradesh,23.8388,78.7378,34.3,24,0.0,949.1,8.65,53.6,46,25.7,11.9,0,5,7,0,2026-04-30T09:21:10.133880+05:30
Satna,Madhya Pradesh,24.6005,80.8322,27.0,52,0.0,971.2,7.2,55.4,69,76.1,27.1,4,5,7,1,2026-04-30T09:21:10.133886+05:30
Akola,Maharashtra,20.7002,77.0082,33.5,30,0.0,975.5,8.85,45.7,48,35.6,14.5,0,5,7,0,2026-04-30T09:21:10.133893+05:30
Amravati,Maharashtra,20.9374,77.7796,34.1,25,0.0,967.7,8.85,48.2,49,32.2,13.7,0,5,7,0,2026-04-30T09:21:10.133900+05:30
Latur,Maharashtra,18.4088,76.5604,33.8,22,0.0,941.9,9.05,41.4,76,35.2,20.3,0,5,7,0,2026-04-30T09:21:10.133906+05:30
Nanded,Maharashtra,19.1383,77.3091,34.3,26,0.0,970.0,9.0,43.2,63,27.3,15.8,0,5,7,0,2026-04-30T09:21:10.133913+05:30
Gulbarga,Karnataka,17.3297,76.8343,34.1,34,0.0,960.1,9.1,40.3,76,18.7,12.7,0,5,7,0,2026-04-30T09:21:10.133919+05:30
Bidar,Karnataka,17.9104,77.5199,34.0,27,0.0,937.5,9.1,37.4,84,31.2,26.5,0,5,7,0,2026-04-30T09:21:10.133925+05:30
Hospet,Karnataka,15.2689,76.3909,30.3,64,0.0,957.9,9.25,60.5,77,18.1,13.7,3,5,7,1,2026-04-30T09:21:10.133931+05:30
Tirupur,Tamil Nadu,11.1085,77.3411,31.8,56,0.0,977.0,9.35,58.7,82,27.7,23.2,0,5,7,1,2026-04-30T09:21:10.133937+05:30
Alappuzha,Kerala,9.4981,76.3388,29.2,77,0.0,1010.6,8.6,30.6,62,12.2,10.4,7,0,4,1,2026-04-30T09:21:10.133943+05:30
Munnar,Kerala,10.0889,77.0595,22.5,70,0.0,859.8,8.7,25.9,84,30.3,26.1,3,5,7,1,2026-04-30T09:21:10.133950+05:30
Silchar,Assam,24.8333,92.7789,27.4,64,0.0,1007.0,3.6,33.1,124,57.2,28.9,7,5,0,1,2026-04-30T09:21:10.133956+05:30
Dibrugarh,Assam,27.4728,94.912,24.7,81,0.0,998.5,8.1,31.7,90,30.4,18.6,3,5,7,1,2026-04-30T09:21:10.133962+05:30
