city,state,latitude,longitude,temp,humidity,rain,pressure,uv_index,wind_gusts,aqi,pm10,pm2_5,mosquito_risk,arthritis_risk,migraine_risk,frizz_risk,updated_at
Delhi,Delhi,28.6139,77.209,26.3,61,0.0,981.4,5.8,31.7,191,307.3,78.0,7,5,3,1,2026-03-29T22:09:16.063414+05:30
Mumbai,Maharashtra,19.076,72.8777,27.6,85,0.0,1008.8,8.0,20.5,57,23.2,11.7,7,0,4,1,2026-03-29T22:09:16.063470+05:30
Bangalore,Karnataka,12.9716,77.5946,24.3,64,0.0,911.9,9.55,33.5,128,68.5,61.7,3,5,7,1,2026-03-29T22:09:16.063485+05:30
Hyderabad,Telangana,17.385,78.4867,28.6,58,0.0,952.6,9.05,27.0,115,35.4,33.5,4,5,7,1,2026-03-29T22:09:16.063496+05:30
Chennai,Tamil Nadu,13.0827,80.2707,27.7,84,0.0,1007.4,9.25,37.4,55,17.3,12.3,7,5,4,1,2026-03-29T22:09:16.063505+05:30
Kolkata,West Bengal,22.5726,88.3639,25.8,90,0.0,1006.4,8.45,26.6,118,45.2,40.4,7,5,4,1,2026-03-29T22:09:16.063513+05:30
Pune,Maharashtra,18.5204,73.8567,25.6,83,0.0,948.6,8.55,40.3,91,28.3,22.1,7,5,7,1,2026-03-29T22:09:16.063524+05:30
Ahmedabad,Gujarat,23.0225,72.5714,29.3,61,0.0,1001.6,7.7,31.0,44,31.9,15.1,7,5,4,1,2026-03-29T22:09:16.063532+05:30
Jaipur,Rajasthan,26.9124,75.7873,28.2,29,0.0,958.7,7.45,36.7,90,221.2,33.4,4,5,7,0,2026-03-29T22:09:16.063539+05:30
Lucknow,Uttar Pradesh,26.8467,80.9462,26.4,61,0.0,992.7,7.2,16.6,109,65.9,32.8,7,5,7,1,2026-03-29T22:09:16.063547+05:30
Kanpur,Uttar Pradesh,26.4499,80.3319,26.9,60,0.0,990.7,7.25,17.3,107,167.6,36.8,4,5,7,1,2026-03-29T22:09:16.063554+05:30
Chandigarh,Chandigarh,30.7333,76.7794,22.5,86,0.0,967.3,6.5,28.1,95,101.7,42.6,3,5,7,1,2026-03-29T22:09:16.063561+05:30
Srinagar,Jammu and Kashmir,34.0837,74.7973,11.3,83,0.0,839.4,6.55,22.3,78,33.3,31.1,3,10,7,0,2026-03-29T22:09:16.063568+05:30
Jammu,Jammu and Kashmir,32.7266,74.857,22.2,76,0.0,971.8,5.4,28.1,90,78.0,42.5,3,5,3,1,2026-03-29T22:09:16.063575+05:30
Amritsar,Punjab,31.634,74.8723,21.6,79,0.0,979.7,7.3,37.1,79,65.0,32.7,3,5,7,1,2026-03-29T22:09:16.063581+05:30
Ludhiana,Punjab,30.901,75.8573,23.2,78,0.0,977.4,6.95,36.4,107,86.4,48.4,3,5,7,1,2026-03-29T22:09:16.063588+05:30
Jalandhar,Punjab,31.326,75.5762,22.8,74,0.0,978.8,7.1,33.1,97,56.3,30.0,3,5,7,1,2026-03-29T22:09:16.063596+05:30
Dehradun,Uttarakhand,30.6284,78.0322,14.5,75,0.0,829.0,6.35,19.4,65,44.6,15.7,3,5,7,0,2026-03-29T22:09:16.063603+05:30
Shimla,Himachal Pradesh,31.1048,77.1734,13.2,71,0.0,783.1,4.3,26.6,79,38.1,18.0,3,5,3,0,2026-03-29T22:09:16.063611+05:30
Manali,Himachal Pradesh,32.2396,77.1887,15.8,57,0.0,818.9,5.1,29.2,49,6.1,5.8,0,5,3,0,2026-03-29T22:09:16.063618+05:30
Gurgaon,Haryana,28.4595,77.0266,25.7,64,0.0,979.6,6.45,27.0,577,388.4,81.5,7,5,7,1,2026-03-29T22:09:16.063625+05:30
Noida,Uttar Pradesh,28.5355,77.391,25.9,64,0.0,983.0,5.9,27.4,577,388.4,81.5,7,5,3,1,2026-03-29T22:09:16.063631+05:30
Ghaziabad,Uttar Pradesh,28.6692,77.4538,25.0,65,0.0,981.2,5.9,25.6,157,254.3,77.3,7,5,3,1,2026-03-29T22:09:16.063637+05:30
Faridabad,Haryana,28.4089,77.3178,26.6,57,0.0,982.2,6.25,28.8,577,388.4,81.5,4,5,7,1,2026-03-29T22:09:16.063644+05:30
Meerut,Uttar Pradesh,28.9845,77.7064,23.6,70,0.0,980.1,6.15,24.1,157,254.3,77.3,3,5,7,1,2026-03-29T22:09:16.063650+05:30
Agra,Uttar Pradesh,27.1767,78.0081,28.2,51,0.0,985.9,7.1,33.1,276,272.9,64.7,4,5,7,1,2026-03-29T22:09:16.063657+05:30
Varanasi,Uttar Pradesh,25.3176,82.9739,25.2,56,0.0,996.6,7.9,18.4,87,71.9,47.1,4,5,7,0,2026-03-29T22:09:16.063665+05:30
Prayagraj,Uttar Pradesh,25.4358,81.8463,27.3,55,0.0,994.8,7.8,20.9,102,65.4,40.6,4,5,7,1,2026-03-29T22:09:16.063672+05:30
Gorakhpur,Uttar Pradesh,26.7606,83.3732,24.1,65,0.0,997.0,7.55,26.3,134,77.8,51.6,3,5,7,1,2026-03-29T22:09:16.063679+05:30
Bareilly,Uttar Pradesh,28.367,79.4304,24.3,69,0.0,985.9,6.95,15.8,100,73.6,47.0,3,5,7,1,2026-03-29T22:09:16.063687+05:30
Aligarh,Uttar Pradesh,27.8974,78.088,25.3,64,0.0,984.1,6.9,26.3,179,235.2,75.0,7,5,7,1,2026-03-29T22:09:16.063694+05:30
Moradabad,Uttar Pradesh,28.8386,78.7733,24.9,62,0.0,982.7,6.8,14.8,151,123.9,90.6,3,5,7,1,2026-03-29T22:09:16.063701+05:30
Saharanpur,Uttar Pradesh,29.9637,77.546,22.6,67,0.0,974.6,6.0,19.4,102,64.5,43.7,3,5,3,1,2026-03-29T22:09:16.063708+05:30
Jhansi,Uttar Pradesh,25.4484,78.5685,27.6,52,0.0,976.4,7.75,23.8,68,34.1,19.5,4,5,7,1,2026-03-29T22:09:19.280255+05:30
Surat,Gujarat,21.1702,72.8311,26.9,87,0.0,1006.7,7.75,26.3,73,31.3,22.6,7,5,4,1,2026-03-29T22:09:19.280282+05:30
Vadodara,Gujarat,22.3072,73.1812,28.5,73,0.0,1004.0,7.8,27.0,61,50.4,27.0,7,5,4,1,2026-03-29T22:09:19.280291+05:30
Rajkot,Gujarat,22.3039,70.8022,26.5,80,0.0,994.3,7.7,30.6,52,38.2,16.6,7,5,7,1,2026-03-29T22:09:19.280298+05:30
Thane,Maharashtra,19.2183,72.9781,26.8,86,0.0,1008.2,8.0,34.6,57,23.2,11.7,7,0,4,1,2026-03-29T22:09:19.280305+05:30
Nagpur,Maharashtra,21.1458,79.0882,29.1,46,0.0,971.8,8.55,27.0,62,57.2,33.2,4,5,7,1,2026-03-29T22:09:19.280311+05:30
Nashik,Maharashtra,19.9975,73.7898,24.6,67,0.0,945.8,8.25,31.7,48,14.4,7.8,3,5,7,1,2026-03-29T22:09:19.280317+05:30
Aurangabad,Maharashtra,19.8762,75.3433,28.7,47,0.0,943.7,8.75,32.0,42,18.3,12.4,4,5,7,1,2026-03-29T22:09:19.280324+05:30
Solapur,Maharashtra,17.6599,75.9064,29.8,28,0.0,955.8,8.85,23.0,79,37.0,29.2,4,5,7,0,2026-03-29T22:09:19.280330+05:30
Kolhapur,Maharashtra,16.705,74.2433,22.8,81,0.0,947.4,9.0,37.4,68,19.6,17.0,3,5,7,1,2026-03-29T22:09:19.280336+05:30
Goa,Goa,15.2993,74.124,27.7,76,0.0,997.4,8.95,37.1,75,18.9,12.5,7,5,7,1,2026-03-29T22:09:19.280343+05:30
Jodhpur,Rajasthan,26.2389,73.0243,29.0,43,0.0,981.5,7.35,46.1,123,221.2,31.7,4,5,7,0,2026-03-29T22:09:19.280349+05:30
Udaipur,Rajasthan,24.5854,73.7125,26.1,49,0.0,946.2,7.95,35.3,48,31.4,12.0,4,5,7,0,2026-03-29T22:09:19.280356+05:30
Kota,Rajasthan,25.2138,75.8648,29.8,28,0.0,977.0,7.5,34.9,48,17.2,11.4,4,5,7,0,2026-03-29T22:09:19.280361+05:30
Bikaner,Rajasthan,28.0229,73.3119,28.6,36,0.0,979.3,7.5,34.6,105,106.6,30.0,4,5,7,0,2026-03-29T22:09:19.280368+05:30
Ajmer,Rajasthan,26.4499,74.6399,26.0,41,0.0,953.5,7.7,45.0,49,58.3,14.1,4,5,7,0,2026-03-29T22:09:19.280374+05:30
Gwalior,Madhya Pradesh,26.2183,78.1828,27.4,57,0.0,981.4,7.45,25.2,78,46.9,25.6,4,5,7,1,2026-03-29T22:09:19.280379+05:30
Indore,Madhya Pradesh,22.7196,75.8577,25.8,55,0.0,947.7,8.25,33.5,47,26.9,15.4,4,5,7,1,2026-03-29T22:09:19.280385+05:30
Bhopal,Madhya Pradesh,23.2599,77.4126,27.4,49,0.0,952.9,8.2,35.6,43,23.1,13.4,4,5,7,0,2026-03-29T22:09:19.280391+05:30
Jabalpur,Madhya Pradesh,23.1815,79.9864,26.4,61,0.0,960.1,8.25,32.4,58,28.8,17.3,7,5,7,1,2026-03-29T22:09:19.280397+05:30
Ujjain,Madhya Pradesh,23.1765,75.7885,25.8,57,0.0,953.4,8.2,34.9,46,31.5,17.3,4,5,7,1,2026-03-29T22:09:19.280404+05:30
Visakhapatnam,Andhra Pradesh,17.6868,83.2185,27.4,86,0.0,1003.4,9.0,38.2,67,23.1,16.4,7,5,4,1,2026-03-29T22:09:19.280410+05:30
Vijayawada,Andhra Pradesh,16.5062,80.648,27.9,81,0.0,1002.0,9.05,29.9,117,25.3,22.8,7,5,4,1,2026-03-29T22:09:19.280416+05:30
Guntur,Andhra Pradesh,16.3067,80.4365,27.3,88,0.0,1003.2,9.05,31.3,128,34.1,31.1,7,5,4,1,2026-03-29T22:09:19.280422+05:30
Nellore,Andhra Pradesh,14.4426,79.9865,27.4,85,0.0,1005.6,8.65,31.7,98,15.5,11.9,7,5,4,1,2026-03-29T22:09:19.280466+05:30
Kurnool,Andhra Pradesh,15.8281,78.0373,31.2,40,0.0,975.1,9.1,29.2,138,43.3,40.0,0,5,7,0,2026-03-29T22:09:19.280475+05:30
Kakinada,Andhra Pradesh,16.9891,82.2475,26.4,90,0.0,1007.3,9.0,30.2,55,18.3,11.5,7,5,4,1,2026-03-29T22:09:19.280482+05:30
Tirupati,Andhra Pradesh,13.6288,79.4192,28.1,81,0.0,992.3,9.1,33.8,106,34.2,31.9,7,5,7,1,2026-03-29T22:09:19.280488+05:30
Warangal,Telangana,17.9689,79.5941,31.2,52,0.0,977.3,8.9,28.4,111,55.5,54.6,0,5,7,1,2026-03-29T22:09:19.280495+05:30
Nizamabad,Telangana,18.6725,78.0941,29.3,43,0.0,963.2,8.8,28.8,74,36.9,33.2,4,5,7,0,2026-03-29T22:09:19.280501+05:30
Mysore,Karnataka,12.2958,76.6396,25.0,72,0.0,928.6,9.45,31.7,121,63.8,55.9,7,5,7,1,2026-03-29T22:09:19.280508+05:30
Mangalore,Karnataka,12.9141,74.856,29.5,79,0.0,1006.1,9.1,31.3,86,19.3,9.5,7,5,4,1,2026-03-29T22:09:19.280514+05:30
Hubli-Dharwad,Karnataka,15.3647,75.124,26.6,65,0.0,940.3,9.15,33.8,87,35.3,30.5,7,5,7,1,2026-03-29T22:09:19.280521+05:30
Belgaum,Karnataka,15.8497,74.4977,23.4,75,0.0,925.1,9.2,37.8,67,22.5,16.7,3,5,7,1,2026-03-29T22:09:22.499158+05:30
Coimbatore,Tamil Nadu,11.0168,76.9558,25.9,80,0.0,962.0,9.25,46.1,102,52.6,48.1,7,5,7,1,2026-03-29T22:09:22.499192+05:30
Madurai,Tamil Nadu,9.9252,78.1198,27.9,68,0.0,993.6,9.25,29.2,81,20.6,19.5,7,5,7,1,2026-03-29T22:09:22.499204+05:30
Trichy,Tamil Nadu,10.7905,78.7047,27.4,77,0.0,999.9,8.8,29.2,71,21.2,20.1,7,5,7,1,2026-03-29T22:09:22.499214+05:30
Salem,Tamil Nadu,11.6643,78.146,30.5,57,0.0,977.0,9.4,30.2,137,28.4,26.3,0,5,7,1,2026-03-29T22:09:22.499221+05:30
Tirunelveli,Tamil Nadu,8.7139,77.7567,28.4,67,0.0,1003.2,9.35,51.8,106,28.7,27.2,7,5,4,1,2026-03-29T22:09:22.499228+05:30
Vellore,Tamil Nadu,12.9165,79.1325,28.0,75,0.0,985.0,9.35,33.8,118,29.7,28.6,7,5,7,1,2026-03-29T22:09:22.499235+05:30
Erode,Tamil Nadu,11.341,77.7172,29.9,61,0.0,989.0,9.35,31.0,131,28.2,25.4,7,5,7,1,2026-03-29T22:09:22.499241+05:30
Kochi,Kerala,9.9312,76.2673,29.5,78,0.0,1008.6,9.15,29.2,110,40.4,36.3,7,0,4,1,2026-03-29T22:09:22.499248+05:30
Thiruvananthapuram,Kerala,8.5241,76.9366,28.7,82,0.0,1007.8,9.2,32.4,86,27.7,21.4,7,5,4,1,2026-03-29T22:09:22.499254+05:30
Kozhikode,Kerala,11.2588,75.7804,29.3,82,0.0,1007.0,9.1,32.4,125,34.9,30.0,7,5,4,1,2026-03-29T22:09:22.499260+05:30
Thrissur,Kerala,10.5276,76.2144,28.7,83,0.0,1006.5,9.15,34.9,101,37.4,33.3,7,5,4,1,2026-03-29T22:09:22.499268+05:30
Kannur,Kerala,11.8745,75.3704,29.3,79,0.0,1006.3,9.15,34.9,116,34.3,30.4,7,5,4,1,2026-03-29T22:09:22.499274+05:30
Patna,Bihar,25.5941,85.1376,25.0,76,0.0,1001.0,8.05,23.8,134,73.1,60.8,7,5,4,1,2026-03-29T22:09:22.499280+05:30
Gaya,Bihar,24.7914,85.0002,24.4,80,0.0,993.9,8.15,19.1,103,64.3,45.4,3,5,7,1,2026-03-29T22:09:22.499286+05:30
Muzaffarpur,Bihar,26.1209,85.3647,23.3,80,0.0,1001.0,8.05,28.1,142,84.5,68.7,3,5,4,1,2026-03-29T22:09:22.499292+05:30
Bhagalpur,Bihar,25.2425,87.0117,23.0,89,0.0,1002.6,8.1,19.8,141,65.0,55.8,3,5,4,1,2026-03-29T22:09:22.499298+05:30
Ranchi,Jharkhand,23.3441,85.3096,24.6,75,0.0,937.7,8.75,31.7,108,35.9,21.9,3,5,7,1,2026-03-29T22:09:22.499304+05:30
Jamshedpur,Jharkhand,22.8046,86.2029,26.8,78,0.0,990.7,8.55,32.4,135,69.4,53.7,7,5,7,1,2026-03-29T22:09:22.499310+05:30
Dhanbad,Jharkhand,23.7957,86.4304,26.1,74,0.0,980.2,8.5,24.5,156,106.4,92.9,7,5,7,1,2026-03-29T22:09:22.499316+05:30
Bokaro,Jharkhand,23.6693,86.1511,25.6,77,0.0,984.2,8.5,29.2,155,87.3,70.1,7,5,7,1,2026-03-29T22:09:22.499322+05:30
Bhubaneswar,Odisha,20.2961,85.8245,26.5,88,0.0,1002.5,8.8,31.3,75,24.3,20.4,7,5,4,1,2026-03-29T22:09:22.499328+05:30
Cuttack,Odisha,20.4625,85.8828,26.9,86,0.0,1004.2,8.8,24.1,75,24.3,20.4,7,5,4,1,2026-03-29T22:09:22.499334+05:30
Rourkela,Odisha,22.2604,84.8536,29.8,55,0.0,983.5,8.5,30.6,118,60.1,48.3,4,5,7,1,2026-03-29T22:09:22.499340+05:30
Raipur,Chhattisgarh,21.2514,81.6296,30.1,35,0.0,972.5,8.6,26.6,105,51.6,48.1,0,5,7,0,2026-03-29T22:09:22.499346+05:30
Bhilai,Chhattisgarh,21.1938,81.3509,28.7,40,0.0,972.7,8.6,29.9,82,36.2,34.0,4,5,7,0,2026-03-29T22:09:22.499352+05:30
Guwahati,Assam,26.1158,91.7086,22.9,82,0.0,1004.0,7.1,14.4,112,68.9,57.3,3,5,4,1,2026-03-29T22:09:22.499358+05:30
Agartala,Tripura,23.8315,91.2868,22.1,92,0.0,1008.0,8.2,34.2,136,61.9,56.8,3,0,4,1,2026-03-29T22:09:22.499364+05:30
Shillong,Meghalaya,25.5788,91.8933,11.8,94,0.0,855.0,5.45,43.9,86,53.4,43.1,3,10,3,0,2026-03-29T22:09:22.499370+05:30
Imphal,Manipur,24.817,93.9368,16.4,89,0.0,924.2,7.85,68.4,129,92.2,74.5,3,10,7,0,2026-03-29T22:09:22.499376+05:30
Aizawl,Mizoram,23.7271,92.7176,16.7,94,0.0,893.2,7.7,52.9,151,84.8,74.3,3,10,7,0,2026-03-29T22:09:22.499382+05:30
Kohima,Nagaland,25.6701,94.1077,13.8,81,0.0,854.9,7.05,86.4,105,77.3,54.9,3,10,7,0,2026-03-29T22:09:22.499388+05:30
Gangtok,Sikkim,27.3314,88.6138,13.2,89,0.0,836.4,8.3,18.7,68,49.4,41.1,3,10,7,0,2026-03-29T22:09:22.499394+05:30
Siliguri,West Bengal,26.7271,88.3953,18.5,85,0.0,995.7,6.55,12.6,126,96.4,73.6,3,10,7,0,2026-03-29T22:09:25.719937+05:30
Durgapur,West Bengal,23.5204,87.3119,25.8,84,0.0,995.6,8.4,22.3,156,83.6,77.1,7,5,7,1,2026-03-29T22:09:25.719969+05:30
Asansol,West Bengal,23.6739,86.9524,26.0,82,0.0,994.1,8.45,21.6,154,84.8,75.9,7,5,7,1,2026-03-29T22:09:25.719980+05:30
Pondicherry,Puducherry,11.9139,79.8145,26.2,93,0.0,1008.6,8.95,32.8,52,15.7,11.1,7,0,4,1,2026-03-29T22:09:25.719989+05:30
Port Blair,Andaman and Nicobar Islands,11.6234,92.7265,28.4,78,0.0,1007.8,9.0,18.4,70,27.5,21.8,7,5,4,1,2026-03-29T22:09:25.719999+05:30
Haridwar,Uttarakhand,29.9457,78.1642,22.6,75,0.0,973.9,5.5,34.6,87,49.5,34.9,3,5,3,1,2026-03-29T22:09:25.720007+05:30
Rishikesh,Uttarakhand,30.0869,78.2676,22.3,78,0.0,966.9,5.75,24.8,72,55.2,21.6,3,5,3,1,2026-03-29T22:09:25.720016+05:30
Nainital,Uttarakhand,29.3919,79.4542,18.7,60,0.0,806.1,7.3,62.6,108,60.3,35.6,0,5,7,0,2026-03-29T22:09:25.720024+05:30
Mussoorie,Uttarakhand,30.4599,78.0664,16.3,66,0.0,802.3,4.9,28.1,87,69.8,33.5,3,5,3,0,2026-03-29T22:09:25.720033+05:30
Dharamshala,Himachal Pradesh,32.219,76.3234,19.7,59,0.0,868.3,5.15,26.6,49,23.7,13.8,0,5,3,0,2026-03-29T22:09:25.720042+05:30
Dalhousie,Himachal Pradesh,32.5387,75.971,15.8,65,0.0,802.3,3.45,29.5,83,75.4,33.4,3,5,3,0,2026-03-29T22:09:25.720052+05:30
Patiala,Punjab,30.3398,76.3869,22.4,76,0.0,976.9,6.4,32.8,192,284.1,49.6,3,5,7,1,2026-03-29T22:09:25.720060+05:30
Bhatinda,Punjab,30.211,74.9455,24.3,72,0.0,982.3,7.3,41.4,150,521.5,99.2,3,5,7,1,2026-03-29T22:09:25.720067+05:30
Rohtak,Haryana,28.8955,76.6066,24.6,66,0.0,980.0,6.55,35.3,235,493.6,94.3,3,5,7,1,2026-03-29T22:09:25.720073+05:30
Panipat,Haryana,29.3909,76.9635,23.5,70,0.0,979.0,5.8,30.6,421,407.0,88.0,3,5,3,1,2026-03-29T22:09:25.720080+05:30
Mathura,Uttar Pradesh,27.4924,77.6737,27.1,55,0.0,984.4,6.95,26.6,223,347.4,60.5,4,5,7,1,2026-03-29T22:09:25.720086+05:30
Vrindavan,Uttar Pradesh,27.5823,77.7027,26.3,58,0.0,985.3,6.9,29.2,223,347.4,60.5,4,5,7,1,2026-03-29T22:09:25.720093+05:30
Ayodhya,Uttar Pradesh,26.7922,82.1998,24.6,59,0.0,994.7,7.1,20.9,140,95.7,53.7,0,5,7,1,2026-03-29T22:09:25.720099+05:30
Ratlam,Madhya Pradesh,23.3315,75.0367,26.4,65,0.0,954.2,8.15,36.0,44,33.3,16.7,7,5,7,1,2026-03-29T22:09:25.720106+05:30
Sagar,Madhya Pradesh,23.8388,78.7378,28.4,50,0.0,949.2,8.15,34.6,45,16.1,8.7,4,5,7,1,2026-03-29T22:09:25.720112+05:30
Satna,Madhya Pradesh,24.6005,80.8322,26.6,60,0.0,970.1,8.15,46.8,71,29.6,14.4,4,5,7,1,2026-03-29T22:09:25.720119+05:30
Akola,Maharashtra,20.7002,77.0082,29.4,54,0.0,974.0,8.5,30.2,52,26.0,14.1,4,5,7,1,2026-03-29T22:09:25.720126+05:30
Amravati,Maharashtra,20.9374,77.7796,28.5,52,0.0,965.9,8.5,31.3,51,34.0,16.7,4,5,7,1,2026-03-29T22:09:25.720133+05:30
Latur,Maharashtra,18.4088,76.5604,27.1,43,0.0,938.6,8.85,28.4,60,22.8,15.3,4,5,7,0,2026-03-29T22:09:25.720139+05:30
Nanded,Maharashtra,19.1383,77.3091,28.7,38,0.0,966.9,8.7,20.5,58,25.3,17.5,4,5,7,0,2026-03-29T22:09:25.720146+05:30
Gulbarga,Karnataka,17.3297,76.8343,31.0,29,0.0,957.3,8.9,32.0,105,24.0,21.6,0,5,7,0,2026-03-29T22:09:25.720152+05:30
Bidar,Karnataka,17.9104,77.5199,29.5,35,0.0,934.2,8.9,30.2,76,27.6,25.2,4,5,7,0,2026-03-29T22:09:25.720159+05:30
Hospet,Karnataka,15.2689,76.3909,31.6,40,0.0,954.9,9.1,17.6,106,24.7,21.9,0,5,7,1,2026-03-29T22:09:25.720165+05:30
Tirupur,Tamil Nadu,11.1085,77.3411,28.1,74,0.0,975.7,9.25,40.0,141,57.7,51.8,7,5,7,1,2026-03-29T22:09:25.720171+05:30
Alappuzha,Kerala,9.4981,76.3388,29.0,79,0.0,1008.8,9.1,28.4,98,43.1,37.3,7,0,4,1,2026-03-29T22:09:25.720177+05:30
Munnar,Kerala,10.0889,77.0595,22.1,80,0.0,857.2,8.8,34.6,87,42.1,39.7,3,5,7,1,2026-03-29T22:09:25.720184+05:30
Silchar,Assam,24.8333,92.7789,21.9,88,0.0,1006.9,8.2,34.9,150,104.3,82.4,3,5,4,1,2026-03-29T22:09:25.720191+05:30
Dibrugarh,Assam,27.4728,94.912,21.3,87,0.0,999.2,7.35,16.9,72,37.5,34.1,3,5,7,1,2026-03-29T22:09:25.720197+05:30
