city,state,latitude,longitude,temp,humidity,rain,pressure,uv_index,wind_gusts,aqi,pm10,pm2_5,mosquito_risk,arthritis_risk,migraine_risk,frizz_risk,updated_at
Delhi,Delhi,28.6139,77.209,27.6,52,0.0,982.8,6.7,17.6,152,195.1,80.6,4,5,7,1,2026-04-18T00:35:19.068731+05:30
Mumbai,Maharashtra,19.076,72.8777,29.9,75,0.0,1007.9,5.9,23.4,96,88.2,26.7,7,5,0,1,2026-04-18T00:35:19.068783+05:30
Bangalore,Karnataka,12.9716,77.5946,25.7,66,0.0,912.0,7.9,34.6,86,34.2,31.8,7,5,7,1,2026-04-18T00:35:19.068800+05:30
Hyderabad,Telangana,17.385,78.4867,28.6,63,0.0,952.9,9.0,19.8,88,27.5,25.4,7,5,7,1,2026-04-18T00:35:19.068810+05:30
Chennai,Tamil Nadu,13.0827,80.2707,28.3,84,0.0,1007.4,8.0,32.4,35,12.1,8.3,7,5,4,1,2026-04-18T00:35:19.068819+05:30
Kolkata,West Bengal,22.5726,88.3639,27.0,95,0.0,1005.9,8.85,23.0,61,15.8,13.1,7,5,4,1,2026-04-18T00:35:19.068834+05:30
Pune,Maharashtra,18.5204,73.8567,26.2,73,0.0,948.2,8.4,29.2,138,49.1,33.9,7,5,7,1,2026-04-18T00:35:19.068842+05:30
Ahmedabad,Gujarat,23.0225,72.5714,28.9,41,0.0,1001.8,8.15,23.4,70,66.4,47.5,4,5,4,0,2026-04-18T00:35:19.068851+05:30
Jaipur,Rajasthan,26.9124,75.7873,29.6,39,0.0,959.6,7.95,28.1,86,103.1,42.8,4,5,7,0,2026-04-18T00:35:19.068859+05:30
Lucknow,Uttar Pradesh,26.8467,80.9462,26.9,53,0.0,992.0,7.85,27.4,103,152.7,45.2,4,5,7,1,2026-04-18T00:35:19.068868+05:30
Kanpur,Uttar Pradesh,26.4499,80.3319,27.0,55,0.0,990.4,7.85,22.7,110,169.0,43.1,4,5,7,1,2026-04-18T00:35:19.068876+05:30
Chandigarh,Chandigarh,30.7333,76.7794,22.5,59,0.0,969.3,7.2,29.2,56,25.8,16.3,0,5,7,0,2026-04-18T00:35:19.068884+05:30
Srinagar,Jammu and Kashmir,34.0837,74.7973,10.0,92,0.0,844.0,7.1,19.4,73,39.8,38.1,3,10,7,0,2026-04-18T00:35:19.068892+05:30
Jammu,Jammu and Kashmir,32.7266,74.857,23.3,52,0.0,974.1,7.2,29.9,65,23.6,19.7,0,5,7,0,2026-04-18T00:35:19.068900+05:30
Amritsar,Punjab,31.634,74.8723,22.9,56,0.0,981.8,6.6,48.2,59,34.5,23.3,0,5,7,0,2026-04-18T00:35:19.068907+05:30
Ludhiana,Punjab,30.901,75.8573,24.1,51,0.0,979.5,7.5,31.7,75,31.3,22.2,0,5,7,0,2026-04-18T00:35:19.068916+05:30
Jalandhar,Punjab,31.326,75.5762,22.9,47,0.0,980.5,6.55,42.8,62,43.1,19.0,0,5,7,0,2026-04-18T00:35:19.068924+05:30
Dehradun,Uttarakhand,30.6284,78.0322,16.9,52,0.0,832.7,7.5,38.9,46,14.8,8.5,0,5,7,0,2026-04-18T00:35:19.068933+05:30
Shimla,Himachal Pradesh,31.1048,77.1734,14.0,58,0.0,786.5,5.95,45.0,50,25.6,13.1,0,5,3,0,2026-04-18T00:35:19.068941+05:30
Manali,Himachal Pradesh,32.2396,77.1887,14.9,72,0.0,823.0,9.2,33.8,66,5.7,4.9,3,5,7,0,2026-04-18T00:35:19.068948+05:30
Gurgaon,Haryana,28.4595,77.0266,25.7,60,0.0,981.1,6.9,15.5,420,463.8,105.5,4,5,7,1,2026-04-18T00:35:19.068955+05:30
Noida,Uttar Pradesh,28.5355,77.391,27.0,55,0.0,984.2,6.8,20.2,420,463.8,105.5,4,5,7,1,2026-04-18T00:35:19.068962+05:30
Ghaziabad,Uttar Pradesh,28.6692,77.4538,25.7,61,0.0,982.3,6.8,13.3,141,110.1,57.2,7,5,7,1,2026-04-18T00:35:19.068969+05:30
Faridabad,Haryana,28.4089,77.3178,26.9,55,0.0,983.4,6.85,13.7,420,463.8,105.5,4,5,7,1,2026-04-18T00:35:19.068976+05:30
Meerut,Uttar Pradesh,28.9845,77.7064,24.8,59,0.0,980.9,7.15,14.4,141,110.1,57.2,0,5,7,1,2026-04-18T00:35:19.068982+05:30
Agra,Uttar Pradesh,27.1767,78.0081,27.6,45,0.0,987.1,7.75,16.2,307,746.9,102.7,4,5,7,0,2026-04-18T00:35:19.068992+05:30
Varanasi,Uttar Pradesh,25.3176,82.9739,27.2,55,0.0,996.1,8.2,26.6,123,73.3,49.0,4,5,7,1,2026-04-18T00:35:19.068999+05:30
Prayagraj,Uttar Pradesh,25.4358,81.8463,28.2,51,0.0,994.9,7.8,26.6,112,42.7,30.5,4,5,7,1,2026-04-18T00:35:19.069007+05:30
Gorakhpur,Uttar Pradesh,26.7606,83.3732,26.6,74,0.0,996.4,8.25,23.4,153,92.9,77.8,7,5,7,1,2026-04-18T00:35:19.069013+05:30
Bareilly,Uttar Pradesh,28.367,79.4304,23.7,69,0.0,986.0,7.45,22.0,112,56.5,27.6,3,5,7,1,2026-04-18T00:35:19.069020+05:30
Aligarh,Uttar Pradesh,27.8974,78.088,25.2,56,0.0,984.9,7.35,19.1,147,189.1,51.6,4,5,7,0,2026-04-18T00:35:19.069027+05:30
Moradabad,Uttar Pradesh,28.8386,78.7733,24.6,60,0.0,982.8,7.4,19.8,100,57.3,37.0,0,5,7,1,2026-04-18T00:35:19.069033+05:30
Saharanpur,Uttar Pradesh,29.9637,77.546,22.1,66,0.0,975.5,7.0,19.4,72,41.0,27.5,3,5,7,0,2026-04-18T00:35:19.069039+05:30
Jhansi,Uttar Pradesh,25.4484,78.5685,29.6,43,0.0,977.3,7.95,20.5,76,75.9,27.8,4,5,7,0,2026-04-18T00:35:22.292605+05:30
Surat,Gujarat,21.1702,72.8311,27.9,80,0.0,1006.2,7.85,27.0,112,69.6,35.0,7,5,4,1,2026-04-18T00:35:22.292637+05:30
Vadodara,Gujarat,22.3072,73.1812,27.0,54,0.0,1003.9,8.15,18.0,82,65.7,46.3,4,5,4,1,2026-04-18T00:35:22.292646+05:30
Rajkot,Gujarat,22.3039,70.8022,25.6,60,0.0,994.7,7.85,27.7,67,50.4,17.1,4,5,7,1,2026-04-18T00:35:22.292654+05:30
Thane,Maharashtra,19.2183,72.9781,27.8,83,0.0,1007.4,6.3,34.2,96,88.2,26.7,7,5,4,1,2026-04-18T00:35:22.292661+05:30
Nagpur,Maharashtra,21.1458,79.0882,29.7,50,0.0,971.3,7.45,19.4,97,35.6,29.2,4,5,7,1,2026-04-18T00:35:22.292668+05:30
Nashik,Maharashtra,19.9975,73.7898,27.0,53,0.0,946.1,6.9,26.3,65,54.5,31.0,4,5,7,1,2026-04-18T00:35:22.292675+05:30
Aurangabad,Maharashtra,19.8762,75.3433,29.9,32,0.0,943.9,8.4,27.0,68,23.1,15.4,4,5,7,0,2026-04-18T00:35:22.292683+05:30
Solapur,Maharashtra,17.6599,75.9064,28.9,60,0.0,956.2,8.95,27.0,136,45.1,39.7,4,5,7,1,2026-04-18T00:35:22.292690+05:30
Kolhapur,Maharashtra,16.705,74.2433,23.2,88,0.0,947.5,8.9,38.5,71,36.3,27.1,3,5,7,1,2026-04-18T00:35:22.292697+05:30
Goa,Goa,15.2993,74.124,27.8,81,0.0,997.1,9.05,29.2,69,44.4,25.2,7,5,7,1,2026-04-18T00:35:22.292704+05:30
Jodhpur,Rajasthan,26.2389,73.0243,28.1,39,0.0,982.2,8.15,27.4,92,129.9,24.2,4,5,7,0,2026-04-18T00:35:22.292711+05:30
Udaipur,Rajasthan,24.5854,73.7125,26.4,27,0.0,947.0,8.7,28.1,51,31.9,12.8,4,5,7,0,2026-04-18T00:35:22.292717+05:30
Kota,Rajasthan,25.2138,75.8648,29.9,36,0.0,978.0,8.25,25.6,75,58.3,40.3,4,5,7,0,2026-04-18T00:35:22.292724+05:30
Bikaner,Rajasthan,28.0229,73.3119,30.5,21,0.0,980.2,7.55,24.5,68,45.6,13.6,0,5,7,0,2026-04-18T00:35:22.292731+05:30
Ajmer,Rajasthan,26.4499,74.6399,26.9,41,0.0,954.4,8.15,33.1,63,59.6,15.7,4,5,7,0,2026-04-18T00:35:22.292738+05:30
Gwalior,Madhya Pradesh,26.2183,78.1828,29.9,49,0.0,982.9,8.0,23.0,86,139.2,42.6,4,5,7,1,2026-04-18T00:35:22.292745+05:30
Indore,Madhya Pradesh,22.7196,75.8577,25.6,53,0.0,948.2,8.15,24.5,72,19.7,16.1,4,5,7,0,2026-04-18T00:35:22.292752+05:30
Bhopal,Madhya Pradesh,23.2599,77.4126,28.8,41,0.0,953.5,8.05,23.4,73,36.0,27.3,4,5,7,0,2026-04-18T00:35:22.292758+05:30
Jabalpur,Madhya Pradesh,23.1815,79.9864,29.2,54,0.0,960.0,8.05,22.3,70,67.5,34.8,4,5,7,1,2026-04-18T00:35:22.292765+05:30
Ujjain,Madhya Pradesh,23.1765,75.7885,26.0,52,0.0,953.9,8.5,21.6,71,16.2,12.3,4,5,7,0,2026-04-18T00:35:22.292773+05:30
Visakhapatnam,Andhra Pradesh,17.6868,83.2185,28.1,88,0.0,1003.5,9.2,34.6,50,14.9,11.0,7,5,4,1,2026-04-18T00:35:22.292779+05:30
Vijayawada,Andhra Pradesh,16.5062,80.648,27.3,91,0.0,1002.6,9.2,24.1,49,10.2,8.1,7,5,4,1,2026-04-18T00:35:22.292786+05:30
Guntur,Andhra Pradesh,16.3067,80.4365,27.6,89,0.0,1003.6,9.25,27.4,53,10.7,8.5,7,5,4,1,2026-04-18T00:35:22.292792+05:30
Nellore,Andhra Pradesh,14.4426,79.9865,27.7,86,0.0,1005.6,8.85,30.6,52,9.9,7.7,7,5,4,1,2026-04-18T00:35:22.292799+05:30
Kurnool,Andhra Pradesh,15.8281,78.0373,32.8,50,0.0,975.9,9.25,27.7,82,23.9,22.1,0,5,7,1,2026-04-18T00:35:22.292806+05:30
Kakinada,Andhra Pradesh,16.9891,82.2475,27.9,88,0.0,1007.5,8.8,27.7,32,11.8,7.6,7,5,4,1,2026-04-18T00:35:22.292812+05:30
Tirupati,Andhra Pradesh,13.6288,79.4192,27.3,85,0.0,992.4,8.1,30.6,72,15.6,13.9,7,5,7,1,2026-04-18T00:35:22.292818+05:30
Warangal,Telangana,17.9689,79.5941,30.0,71,0.0,977.7,9.15,47.2,77,25.1,23.6,7,5,7,1,2026-04-18T00:35:22.292825+05:30
Nizamabad,Telangana,18.6725,78.0941,31.2,45,0.0,964.1,8.85,19.4,103,49.0,45.4,0,5,7,1,2026-04-18T00:35:22.292831+05:30
Mysore,Karnataka,12.2958,76.6396,25.0,87,0.0,928.7,8.8,34.2,96,31.0,28.2,7,5,7,1,2026-04-18T00:35:22.292837+05:30
Mangalore,Karnataka,12.9141,74.856,29.9,83,0.0,1006.2,9.15,24.8,77,27.2,17.8,7,5,4,1,2026-04-18T00:35:22.292844+05:30
Hubli-Dharwad,Karnataka,15.3647,75.124,25.1,80,0.0,940.2,9.25,28.1,70,22.8,18.0,7,5,7,1,2026-04-18T00:35:22.292850+05:30
Belgaum,Karnataka,15.8497,74.4977,23.1,90,0.0,925.0,9.3,28.4,63,33.2,22.3,3,5,7,1,2026-04-18T00:35:25.534139+05:30
Coimbatore,Tamil Nadu,11.0168,76.9558,25.4,90,0.0,961.9,9.1,33.5,97,45.3,41.2,7,5,7,1,2026-04-18T00:35:25.534171+05:30
Madurai,Tamil Nadu,9.9252,78.1198,28.6,80,0.0,993.4,9.35,33.1,82,27.2,25.7,7,5,7,1,2026-04-18T00:35:25.534181+05:30
Trichy,Tamil Nadu,10.7905,78.7047,27.6,89,0.0,1000.1,9.3,18.7,75,18.1,17.0,7,5,4,1,2026-04-18T00:35:25.534191+05:30
Salem,Tamil Nadu,11.6643,78.146,28.2,78,0.0,977.3,9.4,19.1,76,35.6,32.8,7,5,7,1,2026-04-18T00:35:25.534199+05:30
Tirunelveli,Tamil Nadu,8.7139,77.7567,28.1,74,0.0,1003.3,9.25,47.2,90,35.0,31.4,7,5,4,1,2026-04-18T00:35:25.534207+05:30
Vellore,Tamil Nadu,12.9165,79.1325,26.8,88,0.0,985.2,8.6,28.4,93,35.2,33.8,7,5,7,1,2026-04-18T00:35:25.534215+05:30
Erode,Tamil Nadu,11.341,77.7172,29.5,77,0.0,989.1,9.35,26.6,72,22.3,20.5,7,5,7,1,2026-04-18T00:35:25.534222+05:30
Kochi,Kerala,9.9312,76.2673,28.8,84,0.0,1008.6,9.15,32.0,100,46.1,36.9,7,0,4,1,2026-04-18T00:35:25.534230+05:30
Thiruvananthapuram,Kerala,8.5241,76.9366,28.9,83,0.0,1007.9,9.1,25.6,83,29.2,20.9,7,5,4,1,2026-04-18T00:35:25.534237+05:30
Kozhikode,Kerala,11.2588,75.7804,29.9,86,0.0,1007.3,8.85,29.9,96,46.8,27.5,7,5,4,1,2026-04-18T00:35:25.534243+05:30
Thrissur,Kerala,10.5276,76.2144,29.0,87,0.0,1006.6,9.1,40.0,98,44.9,31.4,7,5,4,1,2026-04-18T00:35:25.534250+05:30
Kannur,Kerala,11.8745,75.3704,29.9,82,0.0,1006.7,8.5,31.0,94,32.4,23.9,7,5,4,1,2026-04-18T00:35:25.534259+05:30
Patna,Bihar,25.5941,85.1376,28.6,77,0.0,1000.2,8.6,22.0,151,69.4,59.4,7,5,4,1,2026-04-18T00:35:25.534266+05:30
Gaya,Bihar,24.7914,85.0002,28.1,77,0.0,992.9,8.65,24.5,139,61.9,51.8,7,5,7,1,2026-04-18T00:35:25.534272+05:30
Muzaffarpur,Bihar,26.1209,85.3647,27.1,80,0.0,1000.1,8.6,27.7,153,69.2,59.0,7,5,4,1,2026-04-18T00:35:25.534279+05:30
Bhagalpur,Bihar,25.2425,87.0117,26.7,83,0.0,1001.1,8.6,24.1,153,59.6,52.7,7,5,4,1,2026-04-18T00:35:25.534286+05:30
Ranchi,Jharkhand,23.3441,85.3096,25.0,85,0.0,937.7,9.1,37.1,95,52.6,29.6,7,5,7,1,2026-04-18T00:35:25.534292+05:30
Jamshedpur,Jharkhand,22.8046,86.2029,27.9,85,0.0,990.5,9.0,27.7,85,17.9,16.5,7,5,7,1,2026-04-18T00:35:25.534299+05:30
Dhanbad,Jharkhand,23.7957,86.4304,27.8,79,0.0,979.6,8.95,23.8,151,50.4,49.0,7,5,7,1,2026-04-18T00:35:25.534305+05:30
Bokaro,Jharkhand,23.6693,86.1511,27.3,87,0.0,983.6,8.95,24.1,154,78.2,65.0,7,5,7,1,2026-04-18T00:35:25.534312+05:30
Bhubaneswar,Odisha,20.2961,85.8245,27.4,91,0.0,1002.3,8.65,28.1,54,13.7,10.2,7,5,4,1,2026-04-18T00:35:25.534318+05:30
Cuttack,Odisha,20.4625,85.8828,27.5,90,0.0,1004.2,8.75,25.6,54,13.7,10.2,7,5,4,1,2026-04-18T00:35:25.534326+05:30
Rourkela,Odisha,22.2604,84.8536,29.1,73,0.0,984.3,8.6,40.3,107,69.4,50.9,7,5,7,1,2026-04-18T00:35:25.534332+05:30
Raipur,Chhattisgarh,21.2514,81.6296,31.4,49,0.0,972.2,8.95,28.8,135,62.2,48.9,0,5,7,1,2026-04-18T00:35:25.534339+05:30
Bhilai,Chhattisgarh,21.1938,81.3509,29.7,57,0.0,972.8,9.0,29.9,98,71.7,60.8,4,5,7,1,2026-04-18T00:35:25.534345+05:30
Guwahati,Assam,26.1158,91.7086,25.8,81,0.0,1001.9,8.5,24.1,151,71.0,61.9,7,5,4,1,2026-04-18T00:35:25.534352+05:30
Agartala,Tripura,23.8315,91.2868,24.9,90,0.0,1006.4,8.7,19.4,126,58.4,50.6,3,5,4,1,2026-04-18T00:35:25.534359+05:30
Shillong,Meghalaya,25.5788,91.8933,13.3,93,0.0,855.7,6.7,27.7,125,57.0,48.3,3,10,7,0,2026-04-18T00:35:25.534367+05:30
Imphal,Manipur,24.817,93.9368,19.2,89,0.0,924.1,8.5,44.6,152,105.0,85.4,3,10,7,1,2026-04-18T00:35:25.534374+05:30
Aizawl,Mizoram,23.7271,92.7176,19.6,90,0.0,893.3,8.95,36.7,152,23.7,17.8,3,10,7,1,2026-04-18T00:35:25.534381+05:30
Kohima,Nagaland,25.6701,94.1077,16.3,89,0.0,855.8,8.2,47.5,121,71.7,49.7,3,10,7,0,2026-04-18T00:35:25.534388+05:30
Gangtok,Sikkim,27.3314,88.6138,16.2,92,0.0,838.5,8.85,20.5,119,51.7,39.3,3,10,7,0,2026-04-18T00:35:25.534395+05:30
Siliguri,West Bengal,26.7271,88.3953,22.0,73,0.0,995.0,7.15,17.6,160,120.6,81.5,3,5,7,1,2026-04-18T00:35:28.763766+05:30
Durgapur,West Bengal,23.5204,87.3119,27.2,86,0.0,994.8,8.75,31.3,124,43.2,41.2,7,5,7,1,2026-04-18T00:35:28.763803+05:30
Asansol,West Bengal,23.6739,86.9524,28.0,81,0.0,993.4,8.65,39.6,128,37.8,36.1,7,5,7,1,2026-04-18T00:35:28.763815+05:30
Pondicherry,Puducherry,11.9139,79.8145,27.2,92,0.0,1008.7,8.4,28.1,32,11.6,7.5,7,0,4,1,2026-04-18T00:35:28.763826+05:30
Port Blair,Andaman and Nicobar Islands,11.6234,92.7265,29.5,72,0.0,1006.7,9.2,13.3,47,12.0,8.4,7,5,4,1,2026-04-18T00:35:28.763835+05:30
Haridwar,Uttarakhand,29.9457,78.1642,22.6,64,0.0,974.3,7.05,28.8,58,28.2,19.8,3,5,7,0,2026-04-18T00:35:28.763845+05:30
Rishikesh,Uttarakhand,30.0869,78.2676,21.9,60,0.0,967.4,6.9,33.8,57,28.1,15.5,0,5,7,0,2026-04-18T00:35:28.763855+05:30
Nainital,Uttarakhand,29.3919,79.4542,23.2,28,0.0,808.8,8.1,57.2,80,32.0,14.5,0,5,7,0,2026-04-18T00:35:28.763865+05:30
Mussoorie,Uttarakhand,30.4599,78.0664,19.4,39,0.0,805.4,7.4,40.7,54,25.3,15.4,0,5,7,0,2026-04-18T00:35:28.763873+05:30
Dharamshala,Himachal Pradesh,32.219,76.3234,21.8,38,0.0,871.5,7.05,40.7,43,12.4,8.7,0,5,7,0,2026-04-18T00:35:28.763882+05:30
Dalhousie,Himachal Pradesh,32.5387,75.971,17.6,42,0.0,805.6,6.7,38.9,56,27.4,23.6,0,5,7,0,2026-04-18T00:35:28.763892+05:30
Patiala,Punjab,30.3398,76.3869,22.1,61,0.0,978.5,7.2,23.0,170,151.3,38.9,3,5,7,0,2026-04-18T00:35:28.763901+05:30
Bhatinda,Punjab,30.211,74.9455,25.5,44,0.0,983.7,7.85,35.3,105,189.1,42.0,4,5,7,0,2026-04-18T00:35:28.763910+05:30
Rohtak,Haryana,28.8955,76.6066,22.6,73,0.0,981.3,6.95,14.4,188,199.8,75.4,3,5,7,1,2026-04-18T00:35:28.763918+05:30
Panipat,Haryana,29.3909,76.9635,23.1,60,0.0,980.1,7.2,13.0,412,346.5,95.0,0,5,7,0,2026-04-18T00:35:28.763926+05:30
Mathura,Uttar Pradesh,27.4924,77.6737,26.3,53,0.0,986.3,7.65,22.0,249,612.8,97.6,4,5,7,0,2026-04-18T00:35:28.763935+05:30
Vrindavan,Uttar Pradesh,27.5823,77.7027,25.7,53,0.0,986.7,7.6,21.2,249,612.8,97.6,4,5,7,0,2026-04-18T00:35:28.763943+05:30
Ayodhya,Uttar Pradesh,26.7922,82.1998,26.0,73,0.0,994.3,8.0,27.7,136,75.9,36.7,7,5,7,1,2026-04-18T00:35:28.763951+05:30
Ratlam,Madhya Pradesh,23.3315,75.0367,27.2,47,0.0,954.6,8.45,21.2,63,16.2,11.3,4,5,7,0,2026-04-18T00:35:28.763959+05:30
Sagar,Madhya Pradesh,23.8388,78.7378,29.4,50,0.0,949.1,8.2,25.9,64,49.8,26.5,4,5,7,1,2026-04-18T00:35:28.763968+05:30
Satna,Madhya Pradesh,24.6005,80.8322,29.3,38,0.0,970.6,8.0,18.4,84,50.9,17.5,4,5,7,0,2026-04-18T00:35:28.763976+05:30
Akola,Maharashtra,20.7002,77.0082,29.9,41,0.0,973.9,8.5,26.6,89,18.1,15.7,4,5,7,0,2026-04-18T00:35:28.763985+05:30
Amravati,Maharashtra,20.9374,77.7796,29.6,44,0.0,965.8,8.0,21.2,77,17.3,16.1,4,5,7,1,2026-04-18T00:35:28.763994+05:30
Latur,Maharashtra,18.4088,76.5604,27.4,56,0.0,939.2,8.85,19.4,98,45.8,41.9,4,5,7,1,2026-04-18T00:35:28.764002+05:30
Nanded,Maharashtra,19.1383,77.3091,29.5,56,0.0,967.8,8.8,20.5,81,56.6,51.1,4,5,7,1,2026-04-18T00:35:28.764010+05:30
Gulbarga,Karnataka,17.3297,76.8343,29.8,54,0.0,958.3,9.15,20.9,100,40.0,36.8,4,5,7,1,2026-04-18T00:35:28.764018+05:30
Bidar,Karnataka,17.9104,77.5199,28.1,58,0.0,935.5,9.15,23.0,107,41.4,38.1,4,5,7,1,2026-04-18T00:35:28.764026+05:30
Hospet,Karnataka,15.2689,76.3909,28.8,73,0.0,954.9,9.25,20.9,100,54.2,50.3,7,5,7,1,2026-04-18T00:35:28.764034+05:30
Tirupur,Tamil Nadu,11.1085,77.3411,28.5,77,0.0,975.4,9.4,31.0,80,27.0,24.3,7,5,7,1,2026-04-18T00:35:28.764043+05:30
Alappuzha,Kerala,9.4981,76.3388,28.9,81,0.0,1008.8,9.15,28.8,100,47.8,33.8,7,0,4,1,2026-04-18T00:35:28.764051+05:30
Munnar,Kerala,10.0889,77.0595,22.2,86,0.0,857.3,9.7,25.2,82,42.1,38.6,3,5,7,1,2026-04-18T00:35:28.764060+05:30
Silchar,Assam,24.8333,92.7789,24.2,88,0.0,1006.2,8.75,22.3,157,111.8,90.3,3,5,4,1,2026-04-18T00:35:28.764069+05:30
Dibrugarh,Assam,27.4728,94.912,26.0,84,0.0,995.8,8.65,13.7,140,65.4,51.6,7,5,7,1,2026-04-18T00:35:28.764077+05:30
