city,state,latitude,longitude,temp,humidity,rain,pressure,uv_index,wind_gusts,aqi,pm10,pm2_5,no2,co,o3,so2,mosquito_risk,arthritis_risk,migraine_risk,frizz_risk,updated_at
Delhi,Delhi,28.6139,77.209,34.8,24,0.0,978.4,7.7,42.5,171,458.2,118.5,43.4,489.0,62.0,21.4,0,5,7,0,2026-05-15T20:49:06.448675+05:30
Mumbai,Maharashtra,19.076,72.8777,29.6,78,0.0,1005.3,6.75,42.1,65,23.5,15.9,8.2,237.0,54.0,4.9,7,5,4,1,2026-05-15T20:49:06.448731+05:30
Bangalore,Karnataka,12.9716,77.5946,29.0,48,0.0,909.3,9.0,41.0,112,65.0,47.1,78.7,640.0,16.0,17.0,4,5,7,1,2026-05-15T20:49:06.448747+05:30
Hyderabad,Telangana,17.385,78.4867,34.8,35,0.0,949.6,8.85,28.1,117,89.2,59.4,39.9,417.0,74.0,11.8,0,5,7,1,2026-05-15T20:49:06.448758+05:30
Chennai,Tamil Nadu,13.0827,80.2707,28.0,85,0.0,1003.2,6.25,37.8,37,10.4,7.7,10.1,156.0,46.0,8.5,7,5,4,1,2026-05-15T20:49:06.448767+05:30
Kolkata,West Bengal,22.5726,88.3639,28.6,90,0.0,1001.5,8.8,36.4,52,17.5,13.2,8.0,273.0,41.0,5.6,7,5,4,1,2026-05-15T20:49:06.448777+05:30
Pune,Maharashtra,18.5204,73.8567,28.6,59,0.0,945.5,8.45,44.3,124,25.4,20.3,11.5,256.0,116.0,17.7,4,5,7,1,2026-05-15T20:49:06.448786+05:30
Ahmedabad,Gujarat,23.0225,72.5714,37.0,22,0.0,996.9,8.15,34.2,47,33.4,15.9,10.0,205.0,71.0,3.8,0,5,10,0,2026-05-15T20:49:06.448795+05:30
Jaipur,Rajasthan,26.9124,75.7873,34.2,26,0.0,955.3,8.25,38.2,133,162.5,54.0,34.9,330.0,60.0,13.4,0,5,7,0,2026-05-15T20:49:06.448807+05:30
Lucknow,Uttar Pradesh,26.8467,80.9462,31.1,58,0.0,988.2,8.2,46.4,132,123.4,60.8,29.8,513.0,74.0,17.0,0,5,7,1,2026-05-15T20:49:06.448815+05:30
Kanpur,Uttar Pradesh,26.4499,80.3319,33.5,42,0.0,986.6,8.2,54.7,150,288.7,73.8,15.3,356.0,89.0,11.7,0,5,7,1,2026-05-15T20:49:06.448822+05:30
Chandigarh,Chandigarh,30.7333,76.7794,27.2,44,0.0,964.4,7.7,38.5,117,30.7,24.1,12.1,528.0,109.0,9.8,4,5,7,0,2026-05-15T20:49:06.448830+05:30
Srinagar,Jammu and Kashmir,34.0837,74.7973,16.9,74,0.0,840.1,8.45,24.5,75,29.6,22.8,26.7,832.0,63.0,4.5,3,5,7,0,2026-05-15T20:49:06.448837+05:30
Jammu,Jammu and Kashmir,32.7266,74.857,26.4,51,0.0,968.3,8.45,28.4,91,55.4,43.7,44.1,653.0,68.0,7.6,4,5,7,0,2026-05-15T20:49:06.448845+05:30
Amritsar,Punjab,31.634,74.8723,27.5,56,0.0,976.4,8.35,33.5,138,64.7,50.5,19.6,450.0,86.0,9.0,4,5,7,1,2026-05-15T20:49:06.448851+05:30
Ludhiana,Punjab,30.901,75.8573,28.4,59,0.0,974.5,7.95,49.3,121,40.0,32.8,9.8,425.0,111.0,7.2,4,5,7,1,2026-05-15T20:49:06.448858+05:30
Jalandhar,Punjab,31.326,75.5762,28.0,49,0.0,975.3,8.15,45.4,141,58.3,43.8,18.1,671.0,102.0,8.4,4,5,7,1,2026-05-15T20:49:06.448868+05:30
Dehradun,Uttarakhand,30.6284,78.0322,14.9,70,0.0,825.8,7.6,45.4,78,30.2,17.3,21.9,172.0,76.0,1.0,3,5,7,0,2026-05-15T20:49:06.448876+05:30
Shimla,Himachal Pradesh,31.1048,77.1734,12.7,59,0.0,780.4,7.75,38.9,99,38.5,21.5,18.3,322.0,89.0,3.5,0,5,7,0,2026-05-15T20:49:06.448892+05:30
Manali,Himachal Pradesh,32.2396,77.1887,9.3,80,0.1,813.8,9.8,42.8,93,8.5,6.1,34.9,233.0,93.0,0.5,6,5,7,0,2026-05-15T20:49:06.448900+05:30
Gurgaon,Haryana,28.4595,77.0266,31.7,31,0.0,976.7,7.8,44.3,546,540.2,135.0,71.3,812.0,43.0,27.7,0,5,7,0,2026-05-15T20:49:06.448907+05:30
Noida,Uttar Pradesh,28.5355,77.391,29.4,46,0.0,979.5,7.7,36.4,546,540.2,135.0,71.3,721.0,43.0,27.7,4,5,7,1,2026-05-15T20:49:06.448914+05:30
Ghaziabad,Uttar Pradesh,28.6692,77.4538,28.1,51,0.0,977.7,7.7,40.7,167,316.6,110.6,29.7,534.0,76.0,19.4,4,5,7,1,2026-05-15T20:49:06.448921+05:30
Faridabad,Haryana,28.4089,77.3178,33.2,28,0.0,979.0,7.75,44.6,546,540.2,135.0,71.3,707.0,43.0,27.7,0,5,7,0,2026-05-15T20:49:06.448928+05:30
Meerut,Uttar Pradesh,28.9845,77.7064,31.2,45,0.0,976.7,7.6,58.7,167,316.6,110.6,29.7,502.0,76.0,19.4,0,5,7,1,2026-05-15T20:49:06.448936+05:30
Agra,Uttar Pradesh,27.1767,78.0081,34.2,32,0.0,982.2,8.05,37.1,525,868.0,149.5,18.7,383.0,93.0,14.0,0,5,7,0,2026-05-15T20:49:06.448943+05:30
Varanasi,Uttar Pradesh,25.3176,82.9739,33.3,46,0.0,992.2,8.7,46.8,154,115.9,61.5,26.9,764.0,97.0,18.4,0,5,7,1,2026-05-15T20:49:06.448950+05:30
Prayagraj,Uttar Pradesh,25.4358,81.8463,31.9,55,0.0,990.8,8.6,45.4,156,94.3,54.0,18.9,626.0,94.0,15.9,0,5,7,1,2026-05-15T20:49:06.448957+05:30
Gorakhpur,Uttar Pradesh,26.7606,83.3732,30.1,66,0.0,991.9,8.6,27.7,160,85.9,60.5,25.8,551.0,96.0,15.7,3,5,7,1,2026-05-15T20:49:06.448966+05:30
Bareilly,Uttar Pradesh,28.367,79.4304,28.5,64,0.0,981.3,8.0,27.4,155,72.9,49.8,18.5,697.0,108.0,16.5,7,5,7,1,2026-05-15T20:49:06.448973+05:30
Aligarh,Uttar Pradesh,27.8974,78.088,30.5,46,0.0,980.5,7.85,37.1,341,295.2,98.3,23.0,467.0,107.0,19.6,0,5,7,1,2026-05-15T20:49:06.448980+05:30
Moradabad,Uttar Pradesh,28.8386,78.7733,29.6,48,0.0,978.2,7.8,35.3,168,112.0,69.8,33.0,466.0,69.0,14.5,4,5,7,1,2026-05-15T20:49:06.448987+05:30
Saharanpur,Uttar Pradesh,29.9637,77.546,28.4,42,0.0,970.8,7.35,32.8,155,65.0,38.0,17.2,547.0,87.0,10.5,4,5,7,0,2026-05-15T20:49:06.448994+05:30
Jhansi,Uttar Pradesh,25.4484,78.5685,33.8,38,0.0,972.6,8.5,32.0,107,93.6,39.5,10.0,314.0,82.0,7.5,0,5,7,1,2026-05-15T20:49:09.722952+05:30
Surat,Gujarat,21.1702,72.8311,29.9,79,0.0,1002.8,7.55,41.4,84,20.0,16.2,24.2,252.0,30.0,39.3,7,5,4,1,2026-05-15T20:49:09.722985+05:30
Vadodara,Gujarat,22.3072,73.1812,32.4,55,0.0,999.4,8.1,39.2,65,24.9,18.6,22.8,185.0,61.0,11.9,0,5,7,1,2026-05-15T20:49:09.722996+05:30
Rajkot,Gujarat,22.3039,70.8022,30.9,64,0.0,990.2,7.75,46.8,48,29.4,13.7,5.2,135.0,58.0,5.7,3,5,7,1,2026-05-15T20:49:09.723004+05:30
Thane,Maharashtra,19.2183,72.9781,29.6,76,0.0,1004.7,6.65,39.6,65,23.5,15.9,8.2,229.0,54.0,4.9,7,5,4,1,2026-05-15T20:49:09.723013+05:30
Nagpur,Maharashtra,21.1458,79.0882,39.0,17,0.0,967.5,8.95,48.6,108,46.4,31.0,24.6,332.0,67.0,14.3,0,5,10,0,2026-05-15T20:49:09.723021+05:30
Nashik,Maharashtra,19.9975,73.7898,29.0,47,0.0,943.1,7.85,48.2,55,12.0,8.9,5.2,193.0,66.0,1.2,4,5,7,1,2026-05-15T20:49:09.723029+05:30
Aurangabad,Maharashtra,19.8762,75.3433,34.3,22,0.0,940.8,9.0,37.8,89,23.5,18.5,6.3,220.0,115.0,5.9,0,5,7,0,2026-05-15T20:49:09.723037+05:30
Solapur,Maharashtra,17.6599,75.9064,32.8,37,0.0,952.7,9.0,36.4,105,54.7,36.2,23.2,265.0,79.0,8.6,0,5,7,0,2026-05-15T20:49:09.723044+05:30
Kolhapur,Maharashtra,16.705,74.2433,27.9,68,0.0,944.9,5.4,41.4,99,25.8,20.6,7.1,218.0,88.0,4.9,7,5,3,1,2026-05-15T20:49:09.723052+05:30
Goa,Goa,15.2993,74.124,29.3,85,0.0,994.2,5.5,35.3,71,27.2,19.6,3.4,221.0,67.0,1.3,7,5,3,1,2026-05-15T20:49:09.723060+05:30
Jodhpur,Rajasthan,26.2389,73.0243,34.9,19,0.0,978.0,8.4,36.7,141,232.4,42.3,8.5,252.0,72.0,2.6,0,5,7,0,2026-05-15T20:49:09.723067+05:30
Udaipur,Rajasthan,24.5854,73.7125,31.1,25,0.0,942.9,8.85,39.2,54,28.5,11.6,2.8,161.0,90.0,2.2,0,5,7,0,2026-05-15T20:49:09.723075+05:30
Kota,Rajasthan,25.2138,75.8648,36.0,23,0.0,972.9,8.4,37.4,83,102.9,39.2,19.4,293.0,64.0,6.7,0,5,10,0,2026-05-15T20:49:09.723083+05:30
Bikaner,Rajasthan,28.0229,73.3119,34.2,26,0.0,976.8,8.35,24.8,91,88.2,35.4,3.8,298.0,83.0,2.4,0,5,7,0,2026-05-15T20:49:09.723090+05:30
Ajmer,Rajasthan,26.4499,74.6399,32.7,26,0.0,950.4,8.4,35.3,81,46.4,19.2,6.8,180.0,80.0,2.9,0,5,7,0,2026-05-15T20:49:09.723096+05:30
Gwalior,Madhya Pradesh,26.2183,78.1828,34.8,26,0.0,977.9,8.25,34.2,152,174.2,53.6,9.2,290.0,81.0,6.2,0,5,7,0,2026-05-15T20:49:09.723104+05:30
Indore,Madhya Pradesh,22.7196,75.8577,34.1,21,0.0,944.6,8.7,43.2,61,19.0,13.1,4.6,245.0,98.0,3.5,0,5,7,0,2026-05-15T20:49:09.723110+05:30
Bhopal,Madhya Pradesh,23.2599,77.4126,35.3,19,0.0,948.8,8.75,40.7,81,38.5,21.3,7.2,250.0,82.0,5.0,0,5,10,0,2026-05-15T20:49:09.723117+05:30
Jabalpur,Madhya Pradesh,23.1815,79.9864,35.0,29,0.0,956.6,8.9,36.7,111,58.4,35.0,16.9,222.0,83.0,7.6,0,5,7,0,2026-05-15T20:49:09.723124+05:30
Ujjain,Madhya Pradesh,23.1765,75.7885,33.7,20,0.0,950.0,8.65,40.7,57,20.3,12.9,2.7,206.0,101.0,3.3,0,5,7,0,2026-05-15T20:49:09.723132+05:30
Visakhapatnam,Andhra Pradesh,17.6868,83.2185,29.6,81,0.0,1000.4,7.2,34.9,80,17.4,13.5,21.1,272.0,29.0,41.1,7,5,4,1,2026-05-15T20:49:09.723139+05:30
Vijayawada,Andhra Pradesh,16.5062,80.648,30.8,77,0.0,997.8,8.85,39.6,67,15.5,11.8,6.5,200.0,36.0,6.4,3,5,7,1,2026-05-15T20:49:09.723146+05:30
Guntur,Andhra Pradesh,16.3067,80.4365,30.8,75,0.0,998.9,9.05,37.4,76,21.8,16.7,6.5,196.0,50.0,5.9,3,5,7,1,2026-05-15T20:49:09.723154+05:30
Nellore,Andhra Pradesh,14.4426,79.9865,30.5,77,0.0,1001.0,8.65,37.8,40,11.9,8.0,3.2,142.0,38.0,2.1,3,5,4,1,2026-05-15T20:49:09.723161+05:30
Kurnool,Andhra Pradesh,15.8281,78.0373,35.7,38,0.0,972.1,8.9,32.0,125,73.8,46.9,11.7,435.0,107.0,4.9,0,5,10,1,2026-05-15T20:49:09.723170+05:30
Kakinada,Andhra Pradesh,16.9891,82.2475,30.0,79,0.0,1003.3,9.1,42.1,36,11.6,7.1,1.4,156.0,44.0,1.0,7,5,4,1,2026-05-15T20:49:09.723177+05:30
Tirupati,Andhra Pradesh,13.6288,79.4192,28.5,78,0.0,987.2,8.05,37.1,63,12.7,9.8,10.4,226.0,30.0,5.2,7,5,7,1,2026-05-15T20:49:09.723184+05:30
Warangal,Telangana,17.9689,79.5941,33.6,49,0.0,973.6,8.7,35.3,115,82.9,62.4,19.3,467.0,92.0,7.8,0,5,7,1,2026-05-15T20:49:09.723191+05:30
Nizamabad,Telangana,18.6725,78.0941,34.5,33,0.0,959.7,8.2,33.1,121,75.9,51.7,27.2,358.0,81.0,9.3,0,5,7,0,2026-05-15T20:49:09.723199+05:30
Mysore,Karnataka,12.2958,76.6396,26.0,64,0.1,925.9,8.9,28.8,95,59.6,37.6,34.3,339.0,63.0,7.5,10,5,7,1,2026-05-15T20:49:09.723206+05:30
Mangalore,Karnataka,12.9141,74.856,27.6,91,0.0,1003.5,8.9,49.0,78,34.7,23.8,6.4,193.0,62.0,2.3,7,5,4,1,2026-05-15T20:49:09.723213+05:30
Hubli-Dharwad,Karnataka,15.3647,75.124,27.7,59,0.0,937.4,6.05,43.2,107,33.2,25.6,15.9,337.0,75.0,3.2,4,5,7,1,2026-05-15T20:49:09.723221+05:30
Belgaum,Karnataka,15.8497,74.4977,26.4,76,0.0,923.0,9.1,46.1,87,21.7,17.1,8.1,225.0,82.0,2.9,7,5,7,1,2026-05-15T20:49:12.992171+05:30
Coimbatore,Tamil Nadu,11.0168,76.9558,26.4,84,0.0,958.3,8.45,34.2,83,24.6,17.7,9.1,387.0,83.0,3.7,7,5,7,1,2026-05-15T20:49:12.992204+05:30
Madurai,Tamil Nadu,9.9252,78.1198,28.0,79,0.0,989.7,4.2,25.6,85,43.4,35.4,62.7,675.0,14.0,10.7,7,5,3,1,2026-05-15T20:49:12.992215+05:30
Trichy,Tamil Nadu,10.7905,78.7047,27.5,89,0.0,996.0,1.9,32.8,80,35.5,30.0,26.4,381.0,68.0,8.6,7,5,3,1,2026-05-15T20:49:12.992225+05:30
Salem,Tamil Nadu,11.6643,78.146,27.0,89,0.0,973.6,8.65,25.9,124,67.3,47.8,30.8,881.0,88.0,17.5,7,5,7,1,2026-05-15T20:49:12.992234+05:30
Tirunelveli,Tamil Nadu,8.7139,77.7567,29.1,69,0.0,999.8,6.65,20.5,46,14.5,11.6,8.8,529.0,76.0,2.9,7,5,7,1,2026-05-15T20:49:12.992264+05:30
Vellore,Tamil Nadu,12.9165,79.1325,26.3,87,0.0,980.9,8.25,33.1,91,31.3,28.6,25.9,360.0,45.0,15.7,7,5,7,1,2026-05-15T20:49:12.992274+05:30
Erode,Tamil Nadu,11.341,77.7172,29.0,69,0.0,985.1,8.45,19.8,101,68.7,46.4,39.0,776.0,80.0,9.3,7,5,7,1,2026-05-15T20:49:12.992283+05:30
Kochi,Kerala,9.9312,76.2673,26.2,89,0.0,1006.8,7.15,35.3,56,26.3,21.2,21.9,237.0,49.0,7.2,7,5,4,1,2026-05-15T20:49:12.992291+05:30
Thiruvananthapuram,Kerala,8.5241,76.9366,24.5,98,0.0,1006.5,4.3,34.2,53,19.3,10.9,2.8,255.0,93.0,1.4,3,5,0,1,2026-05-15T20:49:12.992299+05:30
Kozhikode,Kerala,11.2588,75.7804,24.1,99,0.1,1005.8,8.55,40.0,65,41.3,23.7,2.6,367.0,90.0,1.7,6,5,4,1,2026-05-15T20:49:12.992307+05:30
Thrissur,Kerala,10.5276,76.2144,23.4,97,0.1,1004.9,8.0,34.9,59,25.6,20.5,15.3,310.0,65.0,5.3,6,5,4,1,2026-05-15T20:49:12.992315+05:30
Kannur,Kerala,11.8745,75.3704,27.8,92,0.0,1003.8,8.75,40.3,72,38.5,27.4,21.1,266.0,45.0,3.4,7,5,4,1,2026-05-15T20:49:12.992323+05:30
Patna,Bihar,25.5941,85.1376,29.9,71,0.0,995.2,8.8,22.7,153,73.1,61.0,34.9,666.0,82.0,20.7,7,5,7,1,2026-05-15T20:49:12.992331+05:30
Gaya,Bihar,24.7914,85.0002,31.0,56,0.0,988.8,8.9,32.8,163,99.2,67.8,32.5,688.0,98.0,22.0,0,5,7,1,2026-05-15T20:49:12.992338+05:30
Muzaffarpur,Bihar,26.1209,85.3647,29.0,76,0.0,995.2,8.8,26.6,137,97.3,81.3,49.6,843.0,71.0,24.8,7,5,7,1,2026-05-15T20:49:12.992345+05:30
Bhagalpur,Bihar,25.2425,87.0117,29.8,77,0.0,996.5,8.8,29.9,164,32.2,30.7,12.0,424.0,120.0,16.0,7,5,7,1,2026-05-15T20:49:12.992352+05:30
Ranchi,Jharkhand,23.3441,85.3096,26.1,62,0.0,934.0,8.85,47.5,111,90.6,67.3,12.4,438.0,104.0,6.5,7,5,7,1,2026-05-15T20:49:12.992359+05:30
Jamshedpur,Jharkhand,22.8046,86.2029,30.6,70,0.0,986.1,9.15,47.9,138,51.1,38.1,15.0,429.0,98.0,13.8,3,5,7,1,2026-05-15T20:49:12.992366+05:30
Dhanbad,Jharkhand,23.7957,86.4304,29.5,73,0.0,975.3,9.05,34.6,122,74.5,64.5,45.0,760.0,93.0,93.8,7,5,7,1,2026-05-15T20:49:12.992374+05:30
Bokaro,Jharkhand,23.6693,86.1511,29.5,74,0.0,979.2,9.05,46.1,132,99.0,74.0,44.5,2000.0,88.0,74.7,7,5,7,1,2026-05-15T20:49:12.992381+05:30
Bhubaneswar,Odisha,20.2961,85.8245,29.4,84,0.0,999.3,9.15,42.8,40,11.8,8.6,5.1,179.0,38.0,2.5,7,5,7,1,2026-05-15T20:49:12.992388+05:30
Cuttack,Odisha,20.4625,85.8828,29.5,81,0.0,1000.9,9.2,38.9,40,11.8,8.6,5.1,201.0,38.0,2.5,7,5,4,1,2026-05-15T20:49:12.992396+05:30
Rourkela,Odisha,22.2604,84.8536,30.8,64,0.0,980.5,9.05,44.3,158,107.8,80.1,24.0,605.0,112.0,12.6,3,5,7,1,2026-05-15T20:49:12.992403+05:30
Raipur,Chhattisgarh,21.2514,81.6296,32.0,56,0.0,969.8,8.75,41.0,152,86.1,68.7,44.3,653.0,58.0,49.6,0,5,7,1,2026-05-15T20:49:12.992409+05:30
Bhilai,Chhattisgarh,21.1938,81.3509,31.3,56,0.0,970.1,8.8,42.1,142,85.0,65.4,47.0,927.0,51.0,46.3,0,5,7,1,2026-05-15T20:49:12.992416+05:30
Guwahati,Assam,26.1158,91.7086,23.7,99,0.0,999.6,8.75,23.0,69,21.7,18.4,8.7,423.0,77.0,3.5,3,5,7,1,2026-05-15T20:49:12.992423+05:30
Agartala,Tripura,23.8315,91.2868,27.6,83,0.0,1003.2,8.9,28.1,52,27.7,22.0,16.4,310.0,49.0,2.6,7,5,4,1,2026-05-15T20:49:12.992431+05:30
Shillong,Meghalaya,25.5788,91.8933,17.4,94,0.0,854.4,9.0,31.3,58,15.9,13.9,11.2,383.0,65.0,3.1,3,10,7,1,2026-05-15T20:49:12.992439+05:30
Imphal,Manipur,24.817,93.9368,21.3,91,0.0,921.2,8.8,34.9,60,31.1,26.4,29.2,862.0,30.0,5.8,3,5,7,1,2026-05-15T20:49:12.992446+05:30
Aizawl,Mizoram,23.7271,92.7176,20.7,80,0.0,890.2,9.1,36.4,36,21.0,12.3,7.2,191.0,58.0,2.3,3,5,7,1,2026-05-15T20:49:12.992454+05:30
Kohima,Nagaland,25.6701,94.1077,16.5,94,0.0,852.2,8.3,26.3,49,17.2,14.8,18.6,425.0,37.0,2.1,3,10,7,0,2026-05-15T20:49:12.992461+05:30
Gangtok,Sikkim,27.3314,88.6138,15.0,96,0.4,834.4,9.05,40.0,89,25.7,21.7,14.1,513.0,103.0,2.8,6,10,7,0,2026-05-15T20:49:12.992469+05:30
Siliguri,West Bengal,26.7271,88.3953,23.4,94,0.1,990.1,8.65,23.4,106,52.2,41.2,14.8,491.0,107.0,7.3,6,5,7,1,2026-05-15T20:49:16.240359+05:30
Durgapur,West Bengal,23.5204,87.3119,27.9,85,0.0,990.2,9.0,51.8,160,58.3,50.8,27.6,672.0,107.0,50.1,7,5,7,1,2026-05-15T20:49:16.240391+05:30
Asansol,West Bengal,23.6739,86.9524,29.0,69,0.0,988.6,9.05,48.6,129,58.4,51.2,27.6,417.0,112.0,48.6,7,5,7,1,2026-05-15T20:49:16.240402+05:30
Pondicherry,Puducherry,11.9139,79.8145,26.8,93,0.0,1004.6,5.0,39.6,69,23.1,19.4,17.4,638.0,73.0,12.0,7,5,0,1,2026-05-15T20:49:16.240411+05:30
Port Blair,Andaman and Nicobar Islands,11.6234,92.7265,26.6,93,0.0,1006.5,6.65,38.9,35,4.1,2.7,0.4,169.0,75.0,0.2,7,5,4,1,2026-05-15T20:49:16.240419+05:30
Haridwar,Uttarakhand,29.9457,78.1642,26.1,67,0.0,968.6,7.45,30.2,127,43.2,34.0,13.6,371.0,99.0,9.7,7,5,7,1,2026-05-15T20:49:16.240427+05:30
Rishikesh,Uttarakhand,30.0869,78.2676,25.6,53,0.0,961.4,7.6,35.3,124,48.4,28.9,7.8,422.0,123.0,7.1,4,5,7,0,2026-05-15T20:49:16.240435+05:30
Nainital,Uttarakhand,29.3919,79.4542,15.0,67,0.0,801.8,8.45,41.0,141,74.5,41.4,12.3,413.0,118.0,9.7,3,5,7,0,2026-05-15T20:49:16.240442+05:30
Mussoorie,Uttarakhand,30.4599,78.0664,14.4,66,0.0,799.0,7.3,56.9,115,54.0,32.2,26.4,290.0,89.0,7.2,3,5,7,0,2026-05-15T20:49:16.240449+05:30
Dharamshala,Himachal Pradesh,32.219,76.3234,19.8,56,0.0,865.8,8.35,41.8,70,23.1,16.5,15.6,330.0,54.0,1.1,0,5,7,0,2026-05-15T20:49:16.240457+05:30
Dalhousie,Himachal Pradesh,32.5387,75.971,13.6,65,0.0,800.3,8.55,43.6,87,44.7,27.0,33.6,470.0,82.0,3.1,3,5,7,0,2026-05-15T20:49:16.240465+05:30
Patiala,Punjab,30.3398,76.3869,28.8,43,0.0,973.9,7.6,40.3,220,927.6,127.1,7.4,320.0,114.0,7.9,4,5,7,0,2026-05-15T20:49:16.240472+05:30
Bhatinda,Punjab,30.211,74.9455,30.3,41,0.0,979.6,8.1,34.6,124,185.8,52.3,6.2,323.0,131.0,8.6,0,5,7,0,2026-05-15T20:49:16.240479+05:30
Rohtak,Haryana,28.8955,76.6066,30.4,35,0.0,977.2,7.7,38.5,304,1095.2,192.3,38.8,376.0,61.0,11.1,0,5,7,0,2026-05-15T20:49:16.240486+05:30
Panipat,Haryana,29.3909,76.9635,29.5,37,0.0,975.8,7.55,45.4,806,2577.9,374.4,11.0,518.0,96.0,7.5,4,5,7,0,2026-05-15T20:49:16.240493+05:30
Mathura,Uttar Pradesh,27.4924,77.6737,33.0,28,0.0,981.5,7.95,38.5,549,672.4,129.9,24.5,679.0,93.0,10.8,0,5,7,0,2026-05-15T20:49:16.240500+05:30
Vrindavan,Uttar Pradesh,27.5823,77.7027,32.2,30,0.0,981.9,7.95,38.2,549,672.4,129.9,24.5,551.0,93.0,10.8,0,5,7,0,2026-05-15T20:49:16.240507+05:30
Ayodhya,Uttar Pradesh,26.7922,82.1998,30.2,63,0.0,990.0,8.35,24.1,151,76.4,50.4,17.6,481.0,99.0,12.0,3,5,7,1,2026-05-15T20:49:16.240514+05:30
Ratlam,Madhya Pradesh,23.3315,75.0367,32.0,26,0.0,950.9,8.55,41.4,54,21.0,13.2,2.7,168.0,98.0,3.5,0,5,7,0,2026-05-15T20:49:16.240522+05:30
Sagar,Madhya Pradesh,23.8388,78.7378,33.8,28,0.0,945.9,8.75,37.8,90,49.4,25.1,5.0,293.0,99.0,5.3,0,5,7,0,2026-05-15T20:49:16.240529+05:30
Satna,Madhya Pradesh,24.6005,80.8322,32.7,38,0.0,966.8,8.8,37.4,102,71.5,32.9,8.5,361.0,98.0,6.3,0,5,7,1,2026-05-15T20:49:16.240535+05:30
Akola,Maharashtra,20.7002,77.0082,38.0,18,0.0,969.7,8.95,47.5,74,34.6,21.0,17.1,213.0,74.0,5.0,0,5,10,0,2026-05-15T20:49:16.240544+05:30
Amravati,Maharashtra,20.9374,77.7796,37.9,16,0.0,962.1,8.95,43.2,83,38.8,22.5,20.8,192.0,66.0,5.4,0,5,10,0,2026-05-15T20:49:16.240552+05:30
Latur,Maharashtra,18.4088,76.5604,33.1,35,0.0,935.8,9.1,41.8,112,40.9,27.0,17.6,384.0,87.0,7.5,0,5,7,0,2026-05-15T20:49:16.240560+05:30
Nanded,Maharashtra,19.1383,77.3091,34.5,30,0.0,963.5,9.05,34.9,118,54.5,37.6,32.0,414.0,66.0,8.2,0,5,7,0,2026-05-15T20:49:16.240567+05:30
Gulbarga,Karnataka,17.3297,76.8343,32.5,43,0.0,954.5,6.05,35.6,115,77.5,49.8,21.9,355.0,90.0,8.1,0,5,7,1,2026-05-15T20:49:16.240574+05:30
Bidar,Karnataka,17.9104,77.5199,31.9,38,0.0,931.8,7.2,34.9,124,70.8,48.2,26.6,449.0,85.0,7.8,0,5,7,0,2026-05-15T20:49:16.240581+05:30
Hospet,Karnataka,15.2689,76.3909,30.1,55,0.0,952.0,9.2,34.6,108,67.1,51.3,39.5,347.0,58.0,8.9,0,5,7,1,2026-05-15T20:49:16.240588+05:30
Tirupur,Tamil Nadu,11.1085,77.3411,27.5,80,0.0,971.4,8.4,32.0,102,55.8,35.6,29.8,324.0,85.0,6.9,7,5,7,1,2026-05-15T20:49:16.240594+05:30
Alappuzha,Kerala,9.4981,76.3388,26.0,97,0.1,1006.8,5.3,36.0,54,27.4,19.2,15.3,153.0,70.0,5.0,10,5,0,1,2026-05-15T20:49:16.240601+05:30
Munnar,Kerala,10.0889,77.0595,17.8,99,0.0,854.6,7.4,28.8,44,13.5,11.4,10.9,229.0,58.0,2.3,3,10,7,1,2026-05-15T20:49:16.240609+05:30
Silchar,Assam,24.8333,92.7789,24.9,92,0.0,1002.2,8.95,29.9,67,37.5,33.3,18.2,427.0,55.0,8.9,3,5,4,1,2026-05-15T20:49:16.240616+05:30
Dibrugarh,Assam,27.4728,94.912,23.0,92,0.0,993.9,7.2,32.4,104,39.3,35.7,26.1,618.0,32.0,3.6,3,5,7,1,2026-05-15T20:49:16.240622+05:30
