city,state,latitude,longitude,temp,humidity,rain,pressure,uv_index,wind_gusts,aqi,pm10,pm2_5,no2,co,o3,so2,mosquito_risk,arthritis_risk,migraine_risk,frizz_risk,updated_at
Delhi,Delhi,28.6139,77.209,32.6,49,0.0,978.8,7.75,28.8,176,252.4,121.1,79.7,825.0,18.0,35.6,0,5,7,1,2026-06-26T00:36:41.192468+05:30
Mumbai,Maharashtra,19.076,72.8777,26.7,91,0.2,1006.7,6.85,36.4,53,18.4,10.4,12.4,288.0,41.0,10.6,10,5,4,1,2026-06-26T00:36:41.192515+05:30
Bangalore,Karnataka,12.9716,77.5946,21.4,89,0.0,911.0,6.9,45.0,29,10.4,7.8,12.7,262.0,43.0,4.4,3,5,7,1,2026-06-26T00:36:41.192530+05:30
Hyderabad,Telangana,17.385,78.4867,25.7,79,0.0,950.6,7.55,39.2,44,20.5,13.5,11.0,316.0,59.0,4.9,7,5,7,1,2026-06-26T00:36:41.192540+05:30
Chennai,Tamil Nadu,13.0827,80.2707,27.3,84,0.0,1005.5,8.3,34.6,60,24.6,19.3,20.7,304.0,63.0,9.8,7,5,4,1,2026-06-26T00:36:41.192548+05:30
Kolkata,West Bengal,22.5726,88.3639,28.0,94,0.0,1002.6,8.85,30.6,96,30.2,27.7,10.7,403.0,72.0,8.3,7,5,4,1,2026-06-26T00:36:41.192555+05:30
Pune,Maharashtra,18.5204,73.8567,22.9,89,0.0,946.3,7.85,39.6,33,14.3,11.5,14.9,173.0,30.0,8.5,3,5,7,1,2026-06-26T00:36:41.192561+05:30
Ahmedabad,Gujarat,23.0225,72.5714,31.4,61,0.0,998.4,8.05,31.0,72,41.9,21.1,6.7,194.0,56.0,4.6,3,5,7,1,2026-06-26T00:36:41.192567+05:30
Jaipur,Rajasthan,26.9124,75.7873,29.5,64,0.0,956.1,8.15,30.2,131,109.2,46.2,17.0,265.0,45.0,5.4,7,5,7,1,2026-06-26T00:36:41.192574+05:30
Lucknow,Uttar Pradesh,26.8467,80.9462,33.7,48,0.0,988.9,8.3,28.1,159,231.9,92.7,50.5,671.0,39.0,17.0,0,5,7,1,2026-06-26T00:36:41.192584+05:30
Kanpur,Uttar Pradesh,26.4499,80.3319,34.1,41,0.0,987.2,8.05,32.0,152,170.9,64.0,31.1,385.0,47.0,10.3,0,5,7,1,2026-06-26T00:36:41.192590+05:30
Chandigarh,Chandigarh,30.7333,76.7794,27.5,83,0.0,964.9,7.8,20.9,155,89.4,80.1,69.3,1125.0,8.0,9.6,7,5,7,1,2026-06-26T00:36:41.192596+05:30
Srinagar,Jammu and Kashmir,34.0837,74.7973,18.3,90,0.0,838.6,9.05,28.1,75,38.5,36.2,35.3,771.0,18.0,2.3,3,10,7,1,2026-06-26T00:36:41.192603+05:30
Jammu,Jammu and Kashmir,32.7266,74.857,25.5,81,0.0,968.6,8.65,21.2,100,64.3,54.2,59.7,472.0,13.0,6.6,7,5,7,1,2026-06-26T00:36:41.192608+05:30
Amritsar,Punjab,31.634,74.8723,27.1,78,0.0,976.3,8.5,17.6,150,106.4,80.8,58.2,1121.0,38.0,12.9,7,5,7,1,2026-06-26T00:36:41.192614+05:30
Ludhiana,Punjab,30.901,75.8573,30.1,57,0.0,974.6,8.05,24.1,166,180.7,101.0,52.4,855.0,39.0,12.8,0,5,7,1,2026-06-26T00:36:41.192620+05:30
Jalandhar,Punjab,31.326,75.5762,28.4,67,0.0,975.5,8.25,26.3,155,132.7,80.6,52.9,652.0,52.0,11.5,7,5,7,1,2026-06-26T00:36:41.192625+05:30
Dehradun,Uttarakhand,30.6284,78.0322,16.5,97,0.0,828.5,7.65,37.4,83,44.2,43.1,37.0,223.0,39.0,1.4,3,10,7,0,2026-06-26T00:36:41.192631+05:30
Shimla,Himachal Pradesh,31.1048,77.1734,13.3,95,0.0,781.7,7.65,32.8,100,55.3,48.3,25.5,428.0,54.0,0.0,3,10,7,0,2026-06-26T00:36:41.192642+05:30
Manali,Himachal Pradesh,32.2396,77.1887,17.1,78,0.0,817.7,7.35,32.4,42,6.7,6.1,80.5,295.0,0.0,0.0,3,5,7,0,2026-06-26T00:36:41.192649+05:30
Gurgaon,Haryana,28.4595,77.0266,29.8,64,0.0,976.9,7.7,20.9,177,225.8,105.2,70.2,1557.0,8.0,23.2,7,5,7,1,2026-06-26T00:36:41.192655+05:30
Noida,Uttar Pradesh,28.5355,77.391,29.9,73,0.0,980.1,7.7,22.0,177,225.8,105.2,70.2,1027.0,8.0,23.2,7,5,7,1,2026-06-26T00:36:41.192661+05:30
Ghaziabad,Uttar Pradesh,28.6692,77.4538,29.7,70,0.0,978.3,7.6,22.3,186,229.6,106.4,42.4,596.0,65.0,22.8,7,5,7,1,2026-06-26T00:36:41.192667+05:30
Faridabad,Haryana,28.4089,77.3178,32.2,54,0.0,979.5,7.75,25.2,177,225.8,105.2,70.2,910.0,8.0,23.2,0,5,7,1,2026-06-26T00:36:41.192673+05:30
Meerut,Uttar Pradesh,28.9845,77.7064,30.3,63,0.0,977.4,7.7,24.5,186,229.6,106.4,42.4,594.0,65.0,22.8,3,5,7,1,2026-06-26T00:36:41.192680+05:30
Agra,Uttar Pradesh,27.1767,78.0081,32.7,49,0.0,983.4,8.1,28.4,157,228.6,86.1,68.7,906.0,4.0,19.3,0,5,7,1,2026-06-26T00:36:41.192687+05:30
Varanasi,Uttar Pradesh,25.3176,82.9739,33.8,55,0.0,993.1,8.8,32.4,115,58.0,42.6,22.3,265.0,65.0,22.5,0,5,7,1,2026-06-26T00:36:41.192694+05:30
Prayagraj,Uttar Pradesh,25.4358,81.8463,34.2,50,0.0,991.4,8.75,28.4,137,90.3,60.5,37.0,237.0,41.0,13.2,0,5,7,1,2026-06-26T00:36:41.192700+05:30
Gorakhpur,Uttar Pradesh,26.7606,83.3732,32.2,68,0.0,992.7,8.3,23.4,162,128.1,88.9,35.1,633.0,59.0,13.7,3,5,7,1,2026-06-26T00:36:41.192706+05:30
Bareilly,Uttar Pradesh,28.367,79.4304,30.8,58,0.0,982.5,8.1,20.5,167,198.8,91.7,41.9,503.0,48.0,13.5,0,5,7,1,2026-06-26T00:36:41.192713+05:30
Aligarh,Uttar Pradesh,27.8974,78.088,30.5,66,0.0,981.0,6.0,23.0,213,374.4,117.1,69.2,783.0,12.0,14.9,3,5,3,1,2026-06-26T00:36:41.192718+05:30
Moradabad,Uttar Pradesh,28.8386,78.7733,31.8,58,0.0,979.6,7.9,29.5,174,218.9,120.1,65.4,777.0,27.0,20.0,0,5,7,1,2026-06-26T00:36:41.192724+05:30
Saharanpur,Uttar Pradesh,29.9637,77.546,30.0,67,0.0,971.9,7.55,22.3,160,251.5,134.1,76.0,864.0,28.0,28.9,7,5,7,1,2026-06-26T00:36:41.192730+05:30
Jhansi,Uttar Pradesh,25.4484,78.5685,29.8,61,0.0,974.3,8.0,31.0,86,54.6,29.9,10.1,191.0,56.0,4.6,7,5,7,1,2026-06-26T00:36:44.486399+05:30
Surat,Gujarat,21.1702,72.8311,29.2,81,0.0,1003.8,7.6,37.8,72,31.5,18.2,16.7,254.0,33.0,27.8,7,5,4,1,2026-06-26T00:36:44.486429+05:30
Vadodara,Gujarat,22.3072,73.1812,30.5,69,0.0,1000.8,8.0,41.8,74,25.0,16.4,20.5,202.0,25.0,21.8,3,5,4,1,2026-06-26T00:36:44.486439+05:30
Rajkot,Gujarat,22.3039,70.8022,29.1,72,0.0,991.4,7.55,45.4,68,39.0,18.0,6.0,116.0,43.0,5.6,7,5,7,1,2026-06-26T00:36:44.486447+05:30
Thane,Maharashtra,19.2183,72.9781,25.1,98,0.1,1006.3,7.15,32.4,53,18.4,10.4,12.4,213.0,41.0,10.6,10,5,4,1,2026-06-26T00:36:44.486455+05:30
Nagpur,Maharashtra,21.1458,79.0882,27.1,85,0.0,970.1,8.75,20.2,72,42.3,29.3,21.8,341.0,48.0,14.7,7,5,7,1,2026-06-26T00:36:44.486463+05:30
Nashik,Maharashtra,19.9975,73.7898,23.2,95,0.0,943.5,7.2,38.9,38,13.7,10.0,14.7,160.0,36.0,14.5,3,5,7,1,2026-06-26T00:36:44.486470+05:30
Aurangabad,Maharashtra,19.8762,75.3433,24.9,78,0.0,941.9,6.15,35.6,51,13.9,11.0,11.5,166.0,59.0,10.7,3,5,7,1,2026-06-26T00:36:44.486478+05:30
Solapur,Maharashtra,17.6599,75.9064,26.4,79,0.0,955.5,2.25,43.2,39,18.3,12.2,11.3,154.0,43.0,3.6,7,5,3,1,2026-06-26T00:36:44.486485+05:30
Kolhapur,Maharashtra,16.705,74.2433,22.7,94,0.0,946.6,8.2,43.6,22,5.6,4.8,5.2,133.0,41.0,1.8,3,5,7,1,2026-06-26T00:36:44.486493+05:30
Goa,Goa,15.2993,74.124,24.4,98,0.0,997.9,7.15,34.6,43,17.6,12.3,4.9,299.0,47.0,1.7,3,5,7,1,2026-06-26T00:36:44.486500+05:30
Jodhpur,Rajasthan,26.2389,73.0243,32.0,49,0.0,978.6,8.4,32.0,139,204.4,47.0,16.0,174.0,34.0,2.9,0,5,7,1,2026-06-26T00:36:44.486508+05:30
Udaipur,Rajasthan,24.5854,73.7125,27.4,69,0.0,943.2,8.55,32.4,71,60.1,25.1,8.6,292.0,53.0,2.8,7,5,7,1,2026-06-26T00:36:44.486515+05:30
Kota,Rajasthan,25.2138,75.8648,29.1,71,0.0,975.2,8.3,23.4,87,77.5,45.5,19.3,214.0,39.0,6.1,7,5,7,1,2026-06-26T00:36:44.486522+05:30
Bikaner,Rajasthan,28.0229,73.3119,31.1,56,0.0,977.0,8.45,27.0,156,120.6,47.7,5.4,119.0,55.0,1.9,0,5,7,1,2026-06-26T00:36:44.486529+05:30
Ajmer,Rajasthan,26.4499,74.6399,28.2,68,0.0,951.1,8.25,34.6,105,99.2,45.1,22.8,207.0,27.0,5.6,7,5,7,1,2026-06-26T00:36:44.486536+05:30
Gwalior,Madhya Pradesh,26.2183,78.1828,31.1,54,0.0,979.1,8.25,30.2,91,83.4,36.0,10.6,262.0,52.0,3.7,0,5,7,1,2026-06-26T00:36:44.486543+05:30
Indore,Madhya Pradesh,22.7196,75.8577,24.9,94,0.0,945.2,8.55,33.8,87,65.9,42.6,19.3,727.0,48.0,8.1,3,5,7,1,2026-06-26T00:36:44.486550+05:30
Bhopal,Madhya Pradesh,23.2599,77.4126,24.2,96,0.0,950.8,8.5,29.2,83,45.3,31.9,12.2,319.0,50.0,5.1,3,5,7,1,2026-06-26T00:36:44.486557+05:30
Jabalpur,Madhya Pradesh,23.1815,79.9864,27.0,84,0.0,958.3,8.8,22.7,75,29.0,22.9,11.3,234.0,61.0,3.9,7,5,7,1,2026-06-26T00:36:44.486564+05:30
Ujjain,Madhya Pradesh,23.1765,75.7885,25.9,81,0.0,950.9,8.5,34.2,83,61.0,37.4,8.3,645.0,66.0,6.5,7,5,7,1,2026-06-26T00:36:44.486572+05:30
Visakhapatnam,Andhra Pradesh,17.6868,83.2185,28.4,90,0.0,999.8,8.6,30.2,76,31.1,28.2,42.0,375.0,50.0,45.2,7,5,7,1,2026-06-26T00:36:44.486579+05:30
Vijayawada,Andhra Pradesh,16.5062,80.648,29.6,76,0.0,999.1,7.1,38.2,62,32.8,30.3,18.1,207.0,48.0,8.4,7,5,7,1,2026-06-26T00:36:44.486586+05:30
Guntur,Andhra Pradesh,16.3067,80.4365,29.7,81,0.0,1000.3,6.95,53.3,57,29.2,25.9,17.5,189.0,49.0,9.0,7,5,4,1,2026-06-26T00:36:44.486593+05:30
Nellore,Andhra Pradesh,14.4426,79.9865,27.5,85,0.0,1003.6,8.95,35.6,40,13.8,11.2,11.0,149.0,47.0,3.7,7,5,4,1,2026-06-26T00:36:44.486601+05:30
Kurnool,Andhra Pradesh,15.8281,78.0373,27.8,68,0.0,975.0,5.3,46.1,43,20.0,12.8,10.7,150.0,48.0,4.2,7,5,3,1,2026-06-26T00:36:44.486609+05:30
Kakinada,Andhra Pradesh,16.9891,82.2475,28.4,80,0.0,1003.7,7.4,43.2,60,26.1,22.1,9.7,247.0,79.0,6.5,7,5,4,1,2026-06-26T00:36:44.486615+05:30
Tirupati,Andhra Pradesh,13.6288,79.4192,26.6,89,0.0,989.4,8.5,34.2,40,19.9,17.4,26.6,187.0,13.0,3.0,7,5,7,1,2026-06-26T00:36:44.486622+05:30
Warangal,Telangana,17.9689,79.5941,27.1,76,0.0,975.7,5.95,33.8,62,20.5,18.0,9.4,223.0,65.0,3.3,7,5,3,1,2026-06-26T00:36:44.486629+05:30
Nizamabad,Telangana,18.6725,78.0941,25.2,89,0.0,962.2,6.9,36.4,63,18.7,14.4,10.1,243.0,58.0,4.0,7,5,7,1,2026-06-26T00:36:44.486636+05:30
Mysore,Karnataka,12.2958,76.6396,21.7,93,0.0,928.3,8.75,43.2,27,6.0,4.8,7.4,142.0,42.0,2.3,3,5,7,1,2026-06-26T00:36:44.486642+05:30
Mangalore,Karnataka,12.9141,74.856,23.8,98,0.0,1007.3,7.9,33.8,41,19.8,14.9,14.0,274.0,24.0,3.7,3,5,4,1,2026-06-26T00:36:44.486648+05:30
Hubli-Dharwad,Karnataka,15.3647,75.124,22.9,89,0.0,940.1,7.2,46.1,21,3.0,2.1,3.4,127.0,45.0,1.2,3,5,7,1,2026-06-26T00:36:44.486654+05:30
Belgaum,Karnataka,15.8497,74.4977,21.2,96,0.0,924.5,8.55,44.3,21,4.0,3.0,3.4,103.0,44.0,1.1,3,5,7,1,2026-06-26T00:36:47.801559+05:30
Coimbatore,Tamil Nadu,11.0168,76.9558,23.7,94,0.0,961.3,8.6,46.1,24,8.4,7.0,8.2,172.0,36.0,3.7,3,5,7,1,2026-06-26T00:36:47.801590+05:30
Madurai,Tamil Nadu,9.9252,78.1198,29.7,64,0.0,991.9,8.4,26.6,67,43.1,41.7,45.7,162.0,1.0,12.8,7,5,7,1,2026-06-26T00:36:47.801600+05:30
Trichy,Tamil Nadu,10.7905,78.7047,28.5,67,0.0,998.8,7.95,38.9,27,12.6,10.5,15.1,94.0,29.0,4.6,7,5,7,1,2026-06-26T00:36:47.801609+05:30
Salem,Tamil Nadu,11.6643,78.146,26.0,88,0.0,976.9,8.55,31.7,47,16.2,14.5,20.3,376.0,32.0,6.6,7,5,7,1,2026-06-26T00:36:47.801617+05:30
Tirunelveli,Tamil Nadu,8.7139,77.7567,28.6,66,0.0,1003.0,8.3,55.4,26,7.8,6.3,7.0,147.0,39.0,2.7,7,5,4,1,2026-06-26T00:36:47.801625+05:30
Vellore,Tamil Nadu,12.9165,79.1325,27.3,72,0.0,983.1,8.55,40.7,52,35.0,31.1,36.6,368.0,10.0,6.5,7,5,7,1,2026-06-26T00:36:47.801632+05:30
Erode,Tamil Nadu,11.341,77.7172,26.9,75,0.0,988.5,8.45,44.3,38,16.1,14.5,18.9,174.0,29.0,4.6,7,5,7,1,2026-06-26T00:36:47.801639+05:30
Kochi,Kerala,9.9312,76.2673,26.1,93,0.1,1009.7,8.0,36.7,43,16.8,14.7,17.6,166.0,21.0,4.8,10,0,4,1,2026-06-26T00:36:47.801647+05:30
Thiruvananthapuram,Kerala,8.5241,76.9366,24.8,95,0.2,1009.2,8.45,53.3,26,9.7,6.0,3.1,137.0,49.0,1.4,6,0,4,1,2026-06-26T00:36:47.801654+05:30
Kozhikode,Kerala,11.2588,75.7804,24.6,97,0.1,1008.7,8.25,33.8,26,12.8,6.9,1.9,223.0,53.0,1.1,6,0,4,1,2026-06-26T00:36:47.801661+05:30
Thrissur,Kerala,10.5276,76.2144,24.7,96,0.1,1008.0,8.0,37.8,41,21.9,19.7,13.0,250.0,27.0,4.1,6,0,4,1,2026-06-26T00:36:47.801669+05:30
Kannur,Kerala,11.8745,75.3704,24.7,99,0.2,1008.0,8.3,29.2,28,8.5,5.7,12.7,138.0,26.0,2.7,6,0,4,1,2026-06-26T00:36:47.801676+05:30
Patna,Bihar,25.5941,85.1376,30.4,76,0.0,996.5,8.9,24.1,146,88.5,61.5,21.5,497.0,84.0,12.4,3,5,7,1,2026-06-26T00:36:47.801683+05:30
Gaya,Bihar,24.7914,85.0002,31.0,62,0.0,989.8,8.95,17.6,93,51.9,42.0,13.1,317.0,86.0,10.2,3,5,7,1,2026-06-26T00:36:47.801690+05:30
Muzaffarpur,Bihar,26.1209,85.3647,28.1,86,0.0,996.8,8.85,32.4,158,95.7,68.2,19.5,646.0,90.0,13.9,7,5,7,1,2026-06-26T00:36:47.801698+05:30
Bhagalpur,Bihar,25.2425,87.0117,30.4,74,0.0,997.2,8.65,24.1,153,53.9,51.1,13.4,412.0,108.0,21.0,3,5,7,1,2026-06-26T00:36:47.801705+05:30
Ranchi,Jharkhand,23.3441,85.3096,24.7,89,0.0,935.1,9.0,24.1,84,42.7,42.5,18.1,321.0,61.0,11.9,3,5,7,1,2026-06-26T00:36:47.801712+05:30
Jamshedpur,Jharkhand,22.8046,86.2029,28.0,91,0.0,987.7,9.05,29.2,91,30.4,29.9,23.4,690.0,54.0,27.7,7,5,7,1,2026-06-26T00:36:47.801719+05:30
Dhanbad,Jharkhand,23.7957,86.4304,28.7,82,0.0,976.6,8.85,27.7,140,63.8,63.3,56.5,1485.0,40.0,129.3,7,5,7,1,2026-06-26T00:36:47.801726+05:30
Bokaro,Jharkhand,23.6693,86.1511,28.7,83,0.0,980.5,8.85,32.0,118,55.9,55.5,38.4,1872.0,58.0,90.4,7,5,7,1,2026-06-26T00:36:47.801733+05:30
Bhubaneswar,Odisha,20.2961,85.8245,27.9,93,0.0,999.0,9.05,29.5,82,36.4,34.0,13.9,690.0,74.0,8.4,7,5,7,1,2026-06-26T00:36:47.801740+05:30
Cuttack,Odisha,20.4625,85.8828,28.6,92,0.0,1000.7,9.1,30.6,82,36.4,34.0,13.9,771.0,74.0,8.4,7,5,4,1,2026-06-26T00:36:47.801747+05:30
Rourkela,Odisha,22.2604,84.8536,28.1,86,0.0,982.0,8.7,40.0,91,41.3,41.1,24.1,599.0,52.0,17.0,7,5,7,1,2026-06-26T00:36:47.801754+05:30
Raipur,Chhattisgarh,21.2514,81.6296,28.2,76,0.0,971.5,8.95,32.0,87,28.8,28.5,43.6,1033.0,37.0,57.2,7,5,7,1,2026-06-26T00:36:47.801761+05:30
Bhilai,Chhattisgarh,21.1938,81.3509,27.4,79,0.0,971.9,8.95,36.0,78,23.6,22.9,36.3,1230.0,58.0,50.7,7,5,7,1,2026-06-26T00:36:47.801768+05:30
Guwahati,Assam,26.1158,91.7086,27.4,92,0.0,998.0,8.8,27.4,72,38.5,33.2,9.2,378.0,67.0,6.7,7,5,7,1,2026-06-26T00:36:47.801776+05:30
Agartala,Tripura,23.8315,91.2868,26.6,92,0.0,1003.9,8.2,28.1,83,25.5,22.9,13.3,245.0,54.0,3.3,7,5,4,1,2026-06-26T00:36:47.801783+05:30
Shillong,Meghalaya,25.5788,91.8933,19.3,95,0.0,855.6,7.05,21.2,48,5.5,4.7,5.3,282.0,92.0,4.2,3,10,7,1,2026-06-26T00:36:47.801790+05:30
Imphal,Manipur,24.817,93.9368,22.4,99,0.0,921.2,8.95,23.0,63,47.0,37.8,17.8,637.0,36.0,4.3,3,5,7,1,2026-06-26T00:36:47.801797+05:30
Aizawl,Mizoram,23.7271,92.7176,19.3,98,0.0,890.7,7.75,22.3,60,26.8,17.8,6.2,211.0,47.0,1.3,3,10,7,1,2026-06-26T00:36:47.801803+05:30
Kohima,Nagaland,25.6701,94.1077,20.1,99,0.2,854.2,7.8,22.0,36,13.5,9.5,6.7,263.0,53.0,1.3,6,5,7,1,2026-06-26T00:36:47.801810+05:30
Gangtok,Sikkim,27.3314,88.6138,17.5,100,0.1,836.1,8.15,37.8,85,12.5,11.3,12.2,605.0,96.0,2.5,6,10,7,1,2026-06-26T00:36:47.801817+05:30
Siliguri,West Bengal,26.7271,88.3953,25.5,92,0.0,989.7,8.6,22.3,104,51.5,43.4,17.6,602.0,112.0,8.4,7,5,7,1,2026-06-26T00:36:51.121967+05:30
Durgapur,West Bengal,23.5204,87.3119,27.9,93,0.0,991.6,9.0,41.0,150,52.6,52.0,28.8,752.0,66.0,38.8,7,5,7,1,2026-06-26T00:36:51.121999+05:30
Asansol,West Bengal,23.6739,86.9524,28.6,86,0.0,990.2,8.95,38.5,130,43.4,43.0,29.9,463.0,66.0,42.3,7,5,7,1,2026-06-26T00:36:51.122009+05:30
Pondicherry,Puducherry,11.9139,79.8145,27.6,87,0.0,1007.1,7.1,34.9,63,18.6,15.9,15.6,244.0,64.0,8.6,7,5,4,1,2026-06-26T00:36:51.122018+05:30
Port Blair,Andaman and Nicobar Islands,11.6234,92.7265,25.5,93,0.0,1006.9,8.35,38.9,25,4.8,3.1,0.2,90.0,57.0,0.3,7,5,4,1,2026-06-26T00:36:51.122026+05:30
Haridwar,Uttarakhand,29.9457,78.1642,27.5,81,0.0,970.2,7.6,23.0,146,99.9,69.6,34.8,363.0,69.0,14.5,7,5,7,1,2026-06-26T00:36:51.122034+05:30
Rishikesh,Uttarakhand,30.0869,78.2676,26.3,79,0.0,963.2,7.7,25.6,103,50.1,35.2,18.5,391.0,81.0,5.5,7,5,7,1,2026-06-26T00:36:51.122061+05:30
Nainital,Uttarakhand,29.3919,79.4542,16.3,88,0.0,804.5,7.0,31.0,108,60.1,36.4,21.5,356.0,72.0,4.9,3,10,7,0,2026-06-26T00:36:51.122069+05:30
Mussoorie,Uttarakhand,30.4599,78.0664,15.8,99,0.0,801.6,6.8,34.9,132,62.6,50.1,40.6,337.0,67.0,10.7,3,10,7,0,2026-06-26T00:36:51.122077+05:30
Dharamshala,Himachal Pradesh,32.219,76.3234,21.9,54,0.0,867.3,8.55,40.0,49,16.2,15.1,27.3,312.0,15.0,0.1,0,5,7,0,2026-06-26T00:36:51.122085+05:30
Dalhousie,Himachal Pradesh,32.5387,75.971,14.4,96,0.0,801.9,8.3,34.2,88,41.0,34.7,33.1,526.0,60.0,2.8,3,10,7,0,2026-06-26T00:36:51.122093+05:30
Patiala,Punjab,30.3398,76.3869,30.4,69,0.0,974.1,7.7,25.2,169,224.9,119.7,56.7,800.0,39.0,15.1,3,5,7,1,2026-06-26T00:36:51.122101+05:30
Bhatinda,Punjab,30.211,74.9455,31.0,66,0.0,978.9,7.0,26.6,160,174.2,93.4,56.8,590.0,51.0,18.0,3,5,7,1,2026-06-26T00:36:51.122108+05:30
Rohtak,Haryana,28.8955,76.6066,29.7,63,0.0,977.2,7.1,19.8,171,268.2,120.6,82.9,761.0,0.0,18.0,7,5,7,1,2026-06-26T00:36:51.122115+05:30
Panipat,Haryana,29.3909,76.9635,29.3,69,0.0,976.0,6.75,16.2,261,366.0,156.9,98.4,831.0,0.0,23.0,7,5,7,1,2026-06-26T00:36:51.122122+05:30
Mathura,Uttar Pradesh,27.4924,77.6737,30.2,65,0.0,982.2,8.05,19.8,190,149.0,65.0,60.2,660.0,9.0,7.4,3,5,7,1,2026-06-26T00:36:51.122130+05:30
Vrindavan,Uttar Pradesh,27.5823,77.7027,30.1,68,0.0,982.6,8.0,19.4,190,149.0,65.0,60.2,771.0,9.0,7.4,3,5,7,1,2026-06-26T00:36:51.122137+05:30
Ayodhya,Uttar Pradesh,26.7922,82.1998,31.6,74,0.0,990.7,8.45,19.8,165,209.5,105.2,53.3,857.0,30.0,15.1,3,5,7,1,2026-06-26T00:36:51.122144+05:30
Ratlam,Madhya Pradesh,23.3315,75.0367,26.3,79,0.0,951.4,8.15,36.7,80,61.5,36.2,7.7,347.0,68.0,7.6,7,5,7,1,2026-06-26T00:36:51.122151+05:30
Sagar,Madhya Pradesh,23.8388,78.7378,24.7,92,0.0,947.3,8.7,26.3,81,42.5,28.0,11.9,175.0,57.0,5.0,3,5,7,1,2026-06-26T00:36:51.122159+05:30
Satna,Madhya Pradesh,24.6005,80.8322,29.8,65,0.0,967.7,8.8,25.9,82,46.4,31.0,12.9,228.0,68.0,8.7,7,5,7,1,2026-06-26T00:36:51.122165+05:30
Akola,Maharashtra,20.7002,77.0082,27.4,81,0.0,972.3,5.75,37.4,68,32.2,20.8,14.5,180.0,59.0,6.5,7,5,3,1,2026-06-26T00:36:51.122173+05:30
Amravati,Maharashtra,20.9374,77.7796,26.3,93,0.0,964.4,8.5,41.0,67,36.6,24.5,19.3,247.0,44.0,6.6,7,5,7,1,2026-06-26T00:36:51.122181+05:30
Latur,Maharashtra,18.4088,76.5604,24.9,87,0.0,937.4,1.2,32.0,49,14.4,10.0,7.7,174.0,56.0,2.5,3,5,3,1,2026-06-26T00:36:51.122189+05:30
Nanded,Maharashtra,19.1383,77.3091,25.9,91,0.0,966.0,4.0,32.0,59,18.4,13.8,8.7,236.0,61.0,2.7,7,5,3,1,2026-06-26T00:36:51.122197+05:30
Gulbarga,Karnataka,17.3297,76.8343,26.1,75,0.0,956.8,2.9,39.6,42,17.3,10.9,9.2,190.0,51.0,3.5,7,5,3,1,2026-06-26T00:36:51.122204+05:30
Bidar,Karnataka,17.9104,77.5199,24.2,92,0.0,933.1,3.35,34.6,50,21.9,14.4,11.3,196.0,55.0,3.9,3,5,3,1,2026-06-26T00:36:51.122211+05:30
Hospet,Karnataka,15.2689,76.3909,24.2,85,0.0,955.0,8.1,39.6,22,4.8,3.7,5.5,142.0,40.0,1.4,3,5,7,1,2026-06-26T00:36:51.122218+05:30
Tirupur,Tamil Nadu,11.1085,77.3411,24.9,88,0.0,974.8,8.5,47.2,46,19.6,18.0,23.9,139.0,23.0,6.2,3,5,7,1,2026-06-26T00:36:51.122225+05:30
Alappuzha,Kerala,9.4981,76.3388,26.2,94,0.2,1009.5,8.05,37.4,35,13.1,9.6,8.6,83.0,42.0,3.1,10,0,4,1,2026-06-26T00:36:51.122232+05:30
Munnar,Kerala,10.0889,77.0595,16.6,98,0.0,856.5,8.45,39.2,17,5.3,4.7,8.5,99.0,28.0,2.0,3,10,7,1,2026-06-26T00:36:51.122238+05:30
Silchar,Assam,24.8333,92.7789,25.4,97,0.2,1003.2,8.3,19.8,73,37.0,25.7,6.1,235.0,98.0,5.6,10,5,4,1,2026-06-26T00:36:51.122243+05:30
Dibrugarh,Assam,27.4728,94.912,25.8,97,0.2,992.6,8.8,26.6,54,18.3,16.1,10.2,253.0,75.0,1.7,10,5,7,1,2026-06-26T00:36:51.122249+05:30
