city,state,latitude,longitude,temp,humidity,rain,pressure,uv_index,wind_gusts,aqi,pm10,pm2_5,no2,co,o3,so2,mosquito_risk,arthritis_risk,migraine_risk,frizz_risk,updated_at
Delhi,Delhi,28.6139,77.209,39.8,23,0.0,977.1,7.75,40.7,165,303.6,74.3,4.1,245.0,176.0,14.4,0,5,10,0,2026-06-06T15:37:08.968568+05:30
Mumbai,Maharashtra,19.076,72.8777,33.6,60,0.0,1004.2,6.6,39.2,75,60.1,27.7,5.3,160.0,96.0,5.9,0,5,4,1,2026-06-06T15:37:08.968614+05:30
Bangalore,Karnataka,12.9716,77.5946,28.3,54,0.0,909.4,8.4,43.9,29,2.7,2.5,6.6,401.0,72.0,2.2,4,5,7,1,2026-06-06T15:37:08.968629+05:30
Hyderabad,Telangana,17.385,78.4867,36.1,32,0.0,948.8,9.0,37.8,93,48.5,25.4,1.1,260.0,133.0,4.5,0,5,10,1,2026-06-06T15:37:08.968639+05:30
Chennai,Tamil Nadu,13.0827,80.2707,37.9,38,0.0,1001.3,8.7,45.7,60,24.2,18.1,3.7,250.0,135.0,5.4,0,5,7,1,2026-06-06T15:37:08.968646+05:30
Kolkata,West Bengal,22.5726,88.3639,27.2,97,0.0,999.6,9.0,45.7,122,28.3,27.4,7.4,554.0,133.0,12.9,7,5,7,1,2026-06-06T15:37:08.968658+05:30
Pune,Maharashtra,18.5204,73.8567,33.2,50,0.1,944.8,8.35,50.4,53,45.5,19.4,2.2,145.0,105.0,3.9,3,5,7,1,2026-06-06T15:37:08.968665+05:30
Ahmedabad,Gujarat,23.0225,72.5714,41.0,30,0.0,995.8,8.1,36.4,93,79.4,32.0,1.2,146.0,102.0,4.9,0,5,10,1,2026-06-06T15:37:08.968671+05:30
Jaipur,Rajasthan,26.9124,75.7873,39.5,25,0.0,954.8,8.25,34.2,105,157.4,37.8,1.3,149.0,107.0,2.6,0,5,10,0,2026-06-06T15:37:08.968680+05:30
Lucknow,Uttar Pradesh,26.8467,80.9462,37.2,36,0.0,986.7,8.3,25.9,154,132.7,42.1,0.9,310.0,151.0,6.2,0,5,10,1,2026-06-06T15:37:08.968687+05:30
Kanpur,Uttar Pradesh,26.4499,80.3319,38.4,28,0.0,985.0,8.3,37.1,162,267.3,60.3,1.3,264.0,158.0,6.6,0,5,10,1,2026-06-06T15:37:08.968693+05:30
Chandigarh,Chandigarh,30.7333,76.7794,36.1,27,0.0,963.2,7.8,32.4,163,44.4,23.1,2.0,272.0,181.0,11.8,0,5,10,0,2026-06-06T15:37:08.968700+05:30
Srinagar,Jammu and Kashmir,34.0837,74.7973,23.9,45,0.1,842.0,9.0,22.0,76,18.1,10.5,0.8,246.0,146.0,1.6,3,5,7,0,2026-06-06T15:37:08.968707+05:30
Jammu,Jammu and Kashmir,32.7266,74.857,37.3,22,0.0,967.1,8.6,30.2,84,26.8,15.0,0.9,216.0,158.0,2.2,0,5,10,0,2026-06-06T15:37:08.968713+05:30
Amritsar,Punjab,31.634,74.8723,38.7,20,0.0,975.0,8.45,25.2,133,39.1,21.6,0.3,283.0,179.0,5.5,0,5,10,0,2026-06-06T15:37:08.968719+05:30
Ludhiana,Punjab,30.901,75.8573,38.4,22,0.0,973.0,8.05,28.4,157,79.4,28.5,0.8,239.0,159.0,4.9,0,5,10,0,2026-06-06T15:37:08.968725+05:30
Jalandhar,Punjab,31.326,75.5762,38.6,22,0.0,973.8,8.25,21.2,151,58.2,24.2,0.6,266.0,172.0,4.9,0,5,10,0,2026-06-06T15:37:08.968731+05:30
Dehradun,Uttarakhand,30.6284,78.0322,23.8,49,0.1,829.6,8.2,33.8,113,28.1,16.3,0.4,219.0,167.0,5.7,3,5,7,0,2026-06-06T15:37:08.968738+05:30
Shimla,Himachal Pradesh,31.1048,77.1734,23.3,27,0.0,785.7,8.3,42.8,123,19.0,10.9,0.7,179.0,158.0,5.9,0,5,7,0,2026-06-06T15:37:08.968748+05:30
Manali,Himachal Pradesh,32.2396,77.1887,23.1,37,0.0,819.0,9.9,36.7,120,14.5,10.0,0.1,143.0,184.0,0.5,0,5,7,0,2026-06-06T15:37:08.968754+05:30
Gurgaon,Haryana,28.4595,77.0266,38.3,26,0.0,975.8,7.85,34.2,331,672.4,106.9,3.7,194.0,158.0,10.5,0,5,10,0,2026-06-06T15:37:08.968760+05:30
Noida,Uttar Pradesh,28.5355,77.391,39.0,31,0.0,978.1,7.8,33.5,331,672.4,106.9,3.7,346.0,158.0,10.5,0,5,10,1,2026-06-06T15:37:08.968767+05:30
Ghaziabad,Uttar Pradesh,28.6692,77.4538,37.3,34,0.0,976.8,7.75,29.2,174,269.2,75.2,3.4,249.0,208.0,21.0,0,5,10,1,2026-06-06T15:37:08.968773+05:30
Faridabad,Haryana,28.4089,77.3178,39.5,26,0.0,977.4,7.8,27.4,331,672.4,106.9,3.7,259.0,158.0,10.5,0,5,10,1,2026-06-06T15:37:08.968779+05:30
Meerut,Uttar Pradesh,28.9845,77.7064,36.3,36,0.0,975.6,7.7,27.7,174,269.2,75.2,3.4,272.0,208.0,21.0,0,5,10,1,2026-06-06T15:37:08.968785+05:30
Agra,Uttar Pradesh,27.1767,78.0081,39.0,29,0.0,981.5,8.1,28.1,496,283.1,59.0,1.6,174.0,130.0,4.5,0,5,10,1,2026-06-06T15:37:08.968791+05:30
Varanasi,Uttar Pradesh,25.3176,82.9739,38.7,33,0.0,989.9,8.8,32.0,155,88.5,44.4,1.9,302.0,151.0,6.1,0,5,10,1,2026-06-06T15:37:08.968797+05:30
Prayagraj,Uttar Pradesh,25.4358,81.8463,37.7,32,0.0,989.1,8.7,36.7,151,76.8,37.5,0.9,246.0,153.0,5.9,0,5,10,1,2026-06-06T15:37:08.968803+05:30
Gorakhpur,Uttar Pradesh,26.7606,83.3732,34.7,50,0.1,990.2,8.7,36.7,164,92.0,61.0,2.6,344.0,167.0,5.8,3,5,7,1,2026-06-06T15:37:08.968812+05:30
Bareilly,Uttar Pradesh,28.367,79.4304,36.4,38,0.0,980.3,8.1,22.0,152,55.1,34.6,1.9,300.0,171.0,6.3,0,5,10,1,2026-06-06T15:37:08.968818+05:30
Aligarh,Uttar Pradesh,27.8974,78.088,37.3,33,0.0,979.4,7.95,23.8,183,356.7,76.6,1.3,218.0,163.0,11.4,0,5,10,1,2026-06-06T15:37:08.968823+05:30
Moradabad,Uttar Pradesh,28.8386,78.7733,36.6,36,0.0,977.6,7.9,25.9,166,110.1,40.6,2.9,308.0,185.0,10.5,0,5,10,1,2026-06-06T15:37:08.968829+05:30
Saharanpur,Uttar Pradesh,29.9637,77.546,35.5,36,0.0,970.0,7.5,26.6,168,112.7,36.6,3.2,314.0,181.0,15.7,0,5,10,1,2026-06-06T15:37:08.968834+05:30
Jhansi,Uttar Pradesh,25.4484,78.5685,37.6,33,0.0,972.4,8.45,32.4,90,111.5,33.2,0.7,141.0,119.0,4.5,0,5,10,1,2026-06-06T15:37:12.215614+05:30
Surat,Gujarat,21.1702,72.8311,35.1,55,0.0,1001.9,7.6,45.0,87,62.4,29.8,9.8,238.0,60.0,31.5,0,5,7,1,2026-06-06T15:37:12.215647+05:30
Vadodara,Gujarat,22.3072,73.1812,39.3,35,0.0,998.5,8.0,40.0,84,74.3,32.4,1.6,137.0,109.0,4.2,0,5,10,1,2026-06-06T15:37:12.215658+05:30
Rajkot,Gujarat,22.3039,70.8022,40.9,31,0.0,988.3,7.55,43.2,85,90.1,29.6,0.9,112.0,95.0,3.0,0,5,10,1,2026-06-06T15:37:12.215666+05:30
Thane,Maharashtra,19.2183,72.9781,36.0,48,0.0,1003.1,7.45,40.7,75,60.1,27.7,5.3,151.0,96.0,5.9,0,5,7,1,2026-06-06T15:37:12.215674+05:30
Nagpur,Maharashtra,21.1458,79.0882,38.5,29,0.0,967.5,8.65,43.9,74,31.3,14.4,3.4,156.0,136.0,10.5,0,5,10,1,2026-06-06T15:37:12.215681+05:30
Nashik,Maharashtra,19.9975,73.7898,35.8,34,0.0,942.1,8.05,42.1,63,51.8,22.4,1.1,126.0,94.0,1.9,0,5,10,1,2026-06-06T15:37:12.215687+05:30
Aurangabad,Maharashtra,19.8762,75.3433,38.3,21,0.0,940.1,8.95,41.0,64,56.7,23.0,0.8,132.0,108.0,2.3,0,5,10,0,2026-06-06T15:37:12.215694+05:30
Solapur,Maharashtra,17.6599,75.9064,35.7,37,0.0,953.0,8.95,57.2,70,34.8,18.0,1.2,124.0,117.0,3.4,0,5,10,1,2026-06-06T15:37:12.215702+05:30
Kolhapur,Maharashtra,16.705,74.2433,28.3,74,0.1,945.3,8.05,41.8,37,44.9,21.9,2.5,144.0,89.0,1.6,10,5,7,1,2026-06-06T15:37:12.215709+05:30
Goa,Goa,15.2993,74.124,29.5,76,0.1,995.6,6.75,29.5,35,8.5,4.7,0.9,118.0,64.0,0.8,10,5,7,1,2026-06-06T15:37:12.215716+05:30
Jodhpur,Rajasthan,26.2389,73.0243,40.2,31,0.0,976.9,8.45,34.9,127,217.9,45.5,0.5,119.0,99.0,2.1,0,5,10,1,2026-06-06T15:37:12.215723+05:30
Udaipur,Rajasthan,24.5854,73.7125,36.5,33,0.0,942.8,8.8,32.4,95,85.0,29.9,0.5,119.0,98.0,2.8,0,5,10,1,2026-06-06T15:37:12.215730+05:30
Kota,Rajasthan,25.2138,75.8648,39.2,30,0.0,973.3,8.4,28.1,74,63.8,26.1,0.2,135.0,120.0,3.1,0,5,10,1,2026-06-06T15:37:12.215737+05:30
Bikaner,Rajasthan,28.0229,73.3119,41.2,24,0.0,975.1,8.5,41.0,109,142.5,41.7,0.2,145.0,99.0,2.2,0,5,10,1,2026-06-06T15:37:12.215744+05:30
Ajmer,Rajasthan,26.4499,74.6399,36.7,36,0.0,950.2,8.35,36.0,94,103.1,31.3,0.3,126.0,108.0,2.1,0,5,10,1,2026-06-06T15:37:12.215751+05:30
Gwalior,Madhya Pradesh,26.2183,78.1828,38.6,31,0.0,977.4,8.25,32.4,238,88.9,27.9,0.3,142.0,117.0,2.9,0,5,10,1,2026-06-06T15:37:12.215758+05:30
Indore,Madhya Pradesh,22.7196,75.8577,36.2,39,0.0,944.2,8.65,34.9,90,60.5,27.9,0.5,169.0,115.0,3.9,0,5,10,1,2026-06-06T15:37:12.215765+05:30
Bhopal,Madhya Pradesh,23.2599,77.4126,37.0,34,0.0,949.1,8.7,38.2,84,52.7,24.2,0.3,155.0,114.0,3.9,0,5,10,1,2026-06-06T15:37:12.215772+05:30
Jabalpur,Madhya Pradesh,23.1815,79.9864,36.6,31,0.0,956.0,8.35,36.4,87,135.5,35.6,0.5,159.0,125.0,3.4,0,5,10,1,2026-06-06T15:37:12.215778+05:30
Ujjain,Madhya Pradesh,23.1765,75.7885,36.5,38,0.0,949.6,8.6,32.8,89,69.2,31.1,0.6,144.0,111.0,4.6,0,5,10,1,2026-06-06T15:37:12.215784+05:30
Visakhapatnam,Andhra Pradesh,17.6868,83.2185,36.6,51,0.0,996.1,8.9,41.8,111,46.3,34.8,9.9,372.0,155.0,31.0,0,5,10,1,2026-06-06T15:37:12.215791+05:30
Vijayawada,Andhra Pradesh,16.5062,80.648,39.0,36,0.0,995.5,8.8,47.2,76,63.6,37.3,3.4,200.0,138.0,5.9,0,5,10,1,2026-06-06T15:37:12.215798+05:30
Guntur,Andhra Pradesh,16.3067,80.4365,38.7,37,0.0,996.8,9.05,44.3,73,63.8,35.7,1.9,196.0,136.0,4.8,0,5,10,1,2026-06-06T15:37:12.215805+05:30
Nellore,Andhra Pradesh,14.4426,79.9865,36.3,44,0.0,999.9,8.95,41.4,48,31.1,20.8,2.7,162.0,133.0,5.4,0,5,10,1,2026-06-06T15:37:12.215812+05:30
Kurnool,Andhra Pradesh,15.8281,78.0373,35.7,45,0.0,972.1,8.8,35.3,47,32.7,20.7,1.0,161.0,140.0,7.6,0,5,10,1,2026-06-06T15:37:12.215820+05:30
Kakinada,Andhra Pradesh,16.9891,82.2475,37.2,46,0.0,999.9,9.0,52.9,72,35.4,23.8,2.1,256.0,129.0,3.5,0,5,10,1,2026-06-06T15:37:12.215826+05:30
Tirupati,Andhra Pradesh,13.6288,79.4192,33.5,58,0.2,985.4,8.6,37.8,47,9.0,6.1,5.5,156.0,82.0,1.3,3,5,7,1,2026-06-06T15:37:12.215833+05:30
Warangal,Telangana,17.9689,79.5941,37.2,32,0.0,973.0,9.05,44.6,101,47.1,23.7,0.7,169.0,129.0,5.5,0,5,10,1,2026-06-06T15:37:12.215839+05:30
Nizamabad,Telangana,18.6725,78.0941,37.8,29,0.0,959.9,9.05,42.5,94,45.1,23.0,0.4,148.0,120.0,3.1,0,5,10,1,2026-06-06T15:37:12.215845+05:30
Mysore,Karnataka,12.2958,76.6396,22.7,93,0.3,926.2,7.75,49.7,27,2.1,2.0,4.9,180.0,65.0,1.3,6,5,7,1,2026-06-06T15:37:12.215852+05:30
Mangalore,Karnataka,12.9141,74.856,26.1,91,0.1,1005.6,1.45,27.7,26,5.1,4.0,5.6,191.0,52.0,1.4,10,5,0,1,2026-06-06T15:37:12.215859+05:30
Hubli-Dharwad,Karnataka,15.3647,75.124,23.6,95,0.3,938.4,8.7,39.6,28,8.3,4.7,3.0,151.0,78.0,0.8,6,5,7,1,2026-06-06T15:37:12.215866+05:30
Belgaum,Karnataka,15.8497,74.4977,27.1,70,0.1,923.8,8.95,38.9,31,8.7,5.4,2.9,135.0,76.0,1.6,10,5,7,1,2026-06-06T15:37:15.601747+05:30
Coimbatore,Tamil Nadu,11.0168,76.9558,24.0,97,0.3,959.7,8.75,41.8,21,2.2,2.1,4.5,198.0,53.0,1.6,6,5,7,1,2026-06-06T15:37:15.601781+05:30
Madurai,Tamil Nadu,9.9252,78.1198,35.5,40,0.0,989.6,8.7,67.0,33,11.8,5.4,2.0,115.0,76.0,1.2,0,5,10,1,2026-06-06T15:37:15.601792+05:30
Trichy,Tamil Nadu,10.7905,78.7047,34.2,47,0.0,996.3,8.8,52.6,34,8.5,4.8,2.6,142.0,80.0,1.6,0,5,7,1,2026-06-06T15:37:15.601802+05:30
Salem,Tamil Nadu,11.6643,78.146,32.4,51,0.0,974.7,8.8,57.2,38,5.7,4.6,3.2,157.0,89.0,4.5,0,5,7,1,2026-06-06T15:37:15.601810+05:30
Tirunelveli,Tamil Nadu,8.7139,77.7567,34.7,44,0.0,1000.7,8.45,47.5,23,7.0,4.0,1.5,100.0,56.0,0.6,0,5,4,1,2026-06-06T15:37:15.601819+05:30
Vellore,Tamil Nadu,12.9165,79.1325,36.7,36,0.0,979.2,9.0,47.2,36,5.2,4.5,3.5,178.0,83.0,1.7,0,5,10,1,2026-06-06T15:37:15.601826+05:30
Erode,Tamil Nadu,11.341,77.7172,29.6,62,0.0,986.6,8.8,60.5,29,2.4,2.2,2.4,133.0,70.0,1.5,7,5,7,1,2026-06-06T15:37:15.601834+05:30
Kochi,Kerala,9.9312,76.2673,26.5,86,0.2,1008.9,7.9,40.3,49,12.1,6.5,4.4,144.0,48.0,1.9,10,0,4,1,2026-06-06T15:37:15.601842+05:30
Thiruvananthapuram,Kerala,8.5241,76.9366,26.9,85,0.2,1008.3,8.15,45.4,27,14.3,6.7,1.1,103.0,58.0,0.6,10,0,4,1,2026-06-06T15:37:15.601850+05:30
Kozhikode,Kerala,11.2588,75.7804,25.0,97,0.8,1008.0,1.0,27.0,27,10.5,4.8,0.9,145.0,57.0,0.3,10,0,0,1,2026-06-06T15:37:15.601857+05:30
Thrissur,Kerala,10.5276,76.2144,25.7,91,0.1,1007.2,6.8,25.2,48,10.2,5.6,5.4,168.0,41.0,1.5,10,5,4,1,2026-06-06T15:37:15.601865+05:30
Kannur,Kerala,11.8745,75.3704,24.8,99,0.2,1006.6,0.45,27.4,25,7.2,4.5,6.7,164.0,44.0,0.7,6,5,0,1,2026-06-06T15:37:15.601872+05:30
Patna,Bihar,25.5941,85.1376,35.1,53,0.0,992.7,8.9,27.4,168,82.4,68.0,4.4,322.0,212.0,16.4,0,5,10,1,2026-06-06T15:37:15.601879+05:30
Gaya,Bihar,24.7914,85.0002,36.3,45,0.0,986.3,8.95,34.2,155,88.2,66.4,3.1,293.0,184.0,12.3,0,5,10,1,2026-06-06T15:37:15.601885+05:30
Muzaffarpur,Bihar,26.1209,85.3647,34.6,57,0.0,992.8,8.9,39.6,167,78.7,65.9,5.2,347.0,208.0,16.7,0,5,7,1,2026-06-06T15:37:15.601893+05:30
Bhagalpur,Bihar,25.2425,87.0117,35.6,53,0.0,993.4,8.9,31.7,145,58.8,52.3,5.9,330.0,220.0,27.9,0,5,10,1,2026-06-06T15:37:15.601900+05:30
Ranchi,Jharkhand,23.3441,85.3096,30.1,63,0.0,932.5,9.3,33.1,155,87.8,55.2,2.8,237.0,166.0,10.0,3,5,7,1,2026-06-06T15:37:15.601907+05:30
Jamshedpur,Jharkhand,22.8046,86.2029,33.8,56,0.0,983.6,9.1,34.9,162,89.6,66.4,4.3,321.0,213.0,24.0,0,5,7,1,2026-06-06T15:37:15.601913+05:30
Dhanbad,Jharkhand,23.7957,86.4304,32.8,65,0.0,973.2,9.1,27.0,168,112.2,93.1,19.4,385.0,238.0,70.4,3,5,7,1,2026-06-06T15:37:15.601920+05:30
Bokaro,Jharkhand,23.6693,86.1511,33.3,58,0.0,977.0,8.45,30.6,159,106.4,80.8,16.3,261.0,213.0,59.8,0,5,7,1,2026-06-06T15:37:15.601927+05:30
Bhubaneswar,Odisha,20.2961,85.8245,32.3,76,0.1,995.6,9.05,19.4,153,41.6,34.5,4.7,334.0,151.0,6.9,6,5,7,1,2026-06-06T15:37:15.601934+05:30
Cuttack,Odisha,20.4625,85.8828,31.9,81,0.1,997.3,9.15,30.2,153,41.6,34.5,4.7,302.0,151.0,6.9,6,5,7,1,2026-06-06T15:37:15.601942+05:30
Rourkela,Odisha,22.2604,84.8536,36.1,40,0.0,977.7,7.4,24.5,154,92.4,59.5,3.2,251.0,178.0,14.1,0,5,10,1,2026-06-06T15:37:15.601949+05:30
Raipur,Chhattisgarh,21.2514,81.6296,39.1,26,0.0,967.6,8.95,34.9,130,50.4,25.6,4.4,144.0,152.0,20.8,0,5,10,1,2026-06-06T15:37:15.601956+05:30
Bhilai,Chhattisgarh,21.1938,81.3509,37.9,29,0.0,968.1,8.95,39.6,119,46.1,21.4,4.4,199.0,132.0,16.3,0,5,10,1,2026-06-06T15:37:15.601964+05:30
Guwahati,Assam,26.1158,91.7086,31.3,69,0.0,993.9,8.7,25.9,99,27.1,24.2,3.0,346.0,124.0,2.3,3,5,7,1,2026-06-06T15:37:15.601970+05:30
Agartala,Tripura,23.8315,91.2868,34.1,57,0.0,998.2,8.8,24.8,157,52.3,43.3,7.0,243.0,158.0,6.3,0,5,7,1,2026-06-06T15:37:15.601977+05:30
Shillong,Meghalaya,25.5788,91.8933,24.9,62,0.0,854.0,8.95,22.0,93,28.6,24.8,3.1,257.0,121.0,2.6,3,5,7,1,2026-06-06T15:37:15.601984+05:30
Imphal,Manipur,24.817,93.9368,30.2,56,0.0,917.3,9.05,32.4,116,30.2,25.2,1.7,235.0,116.0,2.4,0,5,7,1,2026-06-06T15:37:15.601991+05:30
Aizawl,Mizoram,23.7271,92.7176,27.7,56,0.0,888.3,8.45,26.6,115,40.5,32.8,1.6,199.0,116.0,3.9,4,5,7,1,2026-06-06T15:37:15.601998+05:30
Kohima,Nagaland,25.6701,94.1077,23.9,83,0.1,851.9,9.2,26.3,74,29.4,23.7,2.0,251.0,112.0,1.9,6,5,7,1,2026-06-06T15:37:15.602005+05:30
Gangtok,Sikkim,27.3314,88.6138,20.7,92,0.1,834.2,9.1,36.0,109,13.9,10.9,2.0,315.0,138.0,2.0,6,5,7,1,2026-06-06T15:37:15.602012+05:30
Siliguri,West Bengal,26.7271,88.3953,28.4,81,0.1,986.1,8.8,22.0,140,36.2,29.5,3.4,473.0,155.0,5.2,10,5,7,1,2026-06-06T15:37:18.873734+05:30
Durgapur,West Bengal,23.5204,87.3119,31.2,80,0.0,987.7,9.05,36.7,166,81.3,69.6,13.1,336.0,213.0,47.8,3,5,7,1,2026-06-06T15:37:18.873770+05:30
Asansol,West Bengal,23.6739,86.9524,31.8,74,0.0,986.5,9.05,29.9,164,101.0,84.8,13.5,413.0,224.0,49.6,3,5,7,1,2026-06-06T15:37:18.873781+05:30
Pondicherry,Puducherry,11.9139,79.8145,33.7,59,0.2,1003.7,8.7,46.4,62,25.0,18.1,4.7,179.0,125.0,6.8,3,5,4,1,2026-06-06T15:37:18.873789+05:30
Port Blair,Andaman and Nicobar Islands,11.6234,92.7265,26.7,93,0.0,1005.7,7.85,45.4,27,6.9,4.4,0.5,108.0,61.0,0.4,7,5,4,1,2026-06-06T15:37:18.873797+05:30
Haridwar,Uttarakhand,29.9457,78.1642,35.3,40,0.0,968.2,7.6,22.7,158,51.7,26.4,1.2,300.0,186.0,11.6,0,5,10,1,2026-06-06T15:37:18.873805+05:30
Rishikesh,Uttarakhand,30.0869,78.2676,34.5,39,0.0,961.1,7.65,28.4,137,43.0,23.2,0.7,266.0,180.0,7.7,0,5,7,1,2026-06-06T15:37:18.873812+05:30
Nainital,Uttarakhand,29.3919,79.4542,17.8,85,0.1,804.2,8.3,24.1,116,48.9,29.1,1.2,234.0,174.0,6.4,6,10,7,0,2026-06-06T15:37:18.873820+05:30
Mussoorie,Uttarakhand,30.4599,78.0664,22.9,38,0.0,802.9,8.1,45.0,156,56.2,28.6,1.0,216.0,191.0,11.3,0,5,7,0,2026-06-06T15:37:18.873828+05:30
Dharamshala,Himachal Pradesh,32.219,76.3234,26.8,32,0.0,867.6,8.5,43.6,102,13.2,8.3,0.1,203.0,144.0,1.6,4,5,7,0,2026-06-06T15:37:18.873835+05:30
Dalhousie,Himachal Pradesh,32.5387,75.971,23.6,37,0.0,805.2,8.75,35.3,112,20.0,13.4,0.9,176.0,156.0,2.7,0,5,7,0,2026-06-06T15:37:18.873843+05:30
Patiala,Punjab,30.3398,76.3869,38.5,25,0.0,972.4,7.7,30.2,205,366.9,62.9,0.8,231.0,159.0,7.6,0,5,10,0,2026-06-06T15:37:18.873850+05:30
Bhatinda,Punjab,30.211,74.9455,38.8,26,0.0,977.7,8.35,25.9,157,131.3,48.5,1.5,201.0,192.0,20.0,0,5,10,0,2026-06-06T15:37:18.873857+05:30
Rohtak,Haryana,28.8955,76.6066,37.4,32,0.0,976.1,7.8,22.0,273,414.4,72.9,0.0,183.0,135.0,4.3,0,5,10,1,2026-06-06T15:37:18.873863+05:30
Panipat,Haryana,29.3909,76.9635,37.7,30,0.0,974.5,7.65,27.0,344,780.4,113.4,1.8,228.0,165.0,14.5,0,5,10,1,2026-06-06T15:37:18.873870+05:30
Mathura,Uttar Pradesh,27.4924,77.6737,38.1,32,0.0,980.7,8.05,23.8,393,216.5,50.2,0.9,185.0,125.0,3.1,0,5,10,1,2026-06-06T15:37:18.873877+05:30
Vrindavan,Uttar Pradesh,27.5823,77.7027,38.1,31,0.0,981.1,8.05,26.3,393,216.5,50.2,0.9,167.0,125.0,3.1,0,5,10,1,2026-06-06T15:37:18.873884+05:30
Ayodhya,Uttar Pradesh,26.7922,82.1998,31.7,64,0.0,989.2,8.0,25.9,151,108.5,44.7,0.8,334.0,153.0,4.4,3,5,7,1,2026-06-06T15:37:18.873890+05:30
Ratlam,Madhya Pradesh,23.3315,75.0367,36.3,40,0.0,950.9,8.55,36.7,87,70.8,32.1,0.5,134.0,109.0,4.5,0,5,10,1,2026-06-06T15:37:18.873897+05:30
Sagar,Madhya Pradesh,23.8388,78.7378,36.5,27,0.0,945.7,8.7,38.9,76,87.8,26.7,0.3,135.0,125.0,3.4,0,5,10,0,2026-06-06T15:37:18.873904+05:30
Satna,Madhya Pradesh,24.6005,80.8322,36.2,35,0.0,965.7,8.35,37.1,96,178.8,48.4,0.4,177.0,130.0,3.9,0,5,10,1,2026-06-06T15:37:18.873911+05:30
Akola,Maharashtra,20.7002,77.0082,39.4,27,0.0,969.6,8.8,41.4,76,49.7,24.0,1.2,132.0,118.0,5.0,0,5,10,1,2026-06-06T15:37:18.873919+05:30
Amravati,Maharashtra,20.9374,77.7796,39.4,24,0.0,962.1,8.85,44.6,78,48.4,23.7,1.5,140.0,123.0,5.8,0,5,10,0,2026-06-06T15:37:18.873927+05:30
Latur,Maharashtra,18.4088,76.5604,35.2,31,0.0,936.1,8.9,36.0,75,45.9,20.6,0.1,126.0,109.0,2.3,0,5,10,0,2026-06-06T15:37:18.873935+05:30
Nanded,Maharashtra,19.1383,77.3091,38.9,25,0.0,963.3,8.9,32.8,84,51.6,22.8,0.4,136.0,112.0,2.1,0,5,10,0,2026-06-06T15:37:18.873942+05:30
Gulbarga,Karnataka,17.3297,76.8343,35.6,36,0.0,954.2,8.95,40.7,73,34.8,18.8,1.6,168.0,122.0,3.3,0,5,10,1,2026-06-06T15:37:18.873949+05:30
Bidar,Karnataka,17.9104,77.5199,34.9,34,0.0,931.8,9.0,35.3,96,47.0,24.0,0.4,150.0,126.0,4.6,0,5,7,1,2026-06-06T15:37:18.873955+05:30
Hospet,Karnataka,15.2689,76.3909,27.7,77,0.0,952.9,8.95,41.4,30,16.6,9.3,2.1,150.0,87.0,1.8,7,5,7,1,2026-06-06T15:37:18.873962+05:30
Tirupur,Tamil Nadu,11.1085,77.3411,25.7,85,0.1,973.0,8.95,52.9,30,2.8,2.7,3.2,127.0,69.0,2.0,10,5,7,1,2026-06-06T15:37:18.873968+05:30
Alappuzha,Kerala,9.4981,76.3388,26.5,88,0.2,1009.1,8.3,36.4,38,13.6,6.8,2.8,89.0,58.0,1.2,10,0,4,1,2026-06-06T15:37:18.873975+05:30
Munnar,Kerala,10.0889,77.0595,17.7,94,0.1,856.1,8.8,47.5,23,2.7,2.0,2.3,103.0,57.0,1.0,6,10,7,1,2026-06-06T15:37:18.873982+05:30
Silchar,Assam,24.8333,92.7789,34.1,58,0.0,996.7,8.9,23.4,138,44.0,36.1,2.2,261.0,138.0,4.2,0,5,7,1,2026-06-06T15:37:18.873988+05:30
Dibrugarh,Assam,27.4728,94.912,32.5,61,0.0,987.1,8.95,32.4,123,32.2,27.6,2.8,307.0,131.0,2.7,3,5,7,1,2026-06-06T15:37:18.873994+05:30
