city,state,latitude,longitude,temp,humidity,rain,pressure,uv_index,wind_gusts,aqi,pm10,pm2_5,mosquito_risk,arthritis_risk,migraine_risk,frizz_risk,updated_at
Delhi,Delhi,28.6139,77.209,31.1,41,0.0,987.9,5.85,37.1,299,312.9,68.9,0,5,3,1,2026-03-04T13:09:38.824207+05:30
Mumbai,Maharashtra,19.076,72.8777,28.7,69,0.0,1011.1,7.4,24.8,135,52.5,51.3,7,0,4,1,2026-03-04T13:09:38.824258+05:30
Bangalore,Karnataka,12.9716,77.5946,31.0,27,0.0,915.2,9.1,35.3,96,30.9,29.4,0,5,7,0,2026-03-04T13:09:38.824274+05:30
Hyderabad,Telangana,17.385,78.4867,34.2,23,0.0,957.3,8.4,27.4,113,20.8,18.2,0,5,7,0,2026-03-04T13:09:38.824284+05:30
Chennai,Tamil Nadu,13.0827,80.2707,33.5,40,0.0,1010.8,8.8,28.4,114,33.1,29.1,0,0,4,1,2026-03-04T13:09:38.824293+05:30
Kolkata,West Bengal,22.5726,88.3639,31.1,48,0.0,1009.0,7.75,21.2,165,83.4,48.9,0,0,4,1,2026-03-04T13:09:38.824302+05:30
Pune,Maharashtra,18.5204,73.8567,36.0,23,0.0,952.4,7.95,31.3,77,17.7,16.9,0,5,10,0,2026-03-04T13:09:38.824314+05:30
Ahmedabad,Gujarat,23.0225,72.5714,36.7,22,0.0,1007.6,7.2,16.6,79,29.3,19.0,0,5,7,0,2026-03-04T13:09:38.824322+05:30
Jaipur,Rajasthan,26.9124,75.7873,35.1,15,0.0,966.1,6.6,34.6,90,133.2,27.1,0,5,10,0,2026-03-04T13:09:38.824330+05:30
Lucknow,Uttar Pradesh,26.8467,80.9462,29.5,44,0.0,998.4,6.35,26.6,155,242.1,80.3,4,5,7,0,2026-03-04T13:09:38.824338+05:30
Kanpur,Uttar Pradesh,26.4499,80.3319,30.2,43,0.0,997.0,6.35,28.8,175,248.7,69.6,0,5,7,1,2026-03-04T13:09:38.824346+05:30
Chandigarh,Chandigarh,30.7333,76.7794,30.3,35,0.0,973.3,5.75,36.0,85,29.8,21.3,0,5,3,0,2026-03-04T13:09:38.824353+05:30
Srinagar,Jammu and Kashmir,34.0837,74.7973,19.5,32,0.0,849.6,6.2,16.9,142,52.5,33.6,0,5,7,0,2026-03-04T13:09:38.824360+05:30
Jammu,Jammu and Kashmir,32.7266,74.857,29.4,38,0.0,978.2,6.35,25.6,96,34.5,25.0,4,5,7,0,2026-03-04T13:09:38.824370+05:30
Amritsar,Punjab,31.634,74.8723,30.1,45,0.0,986.5,6.3,23.4,135,64.3,48.2,0,5,7,1,2026-03-04T13:09:38.824381+05:30
Ludhiana,Punjab,30.901,75.8573,30.0,44,0.0,983.9,6.0,30.2,152,62.6,49.1,4,5,3,1,2026-03-04T13:09:38.824391+05:30
Jalandhar,Punjab,31.326,75.5762,29.6,44,0.0,985.2,6.15,28.8,152,67.1,45.8,4,5,7,1,2026-03-04T13:09:38.824399+05:30
Dehradun,Uttarakhand,30.6284,78.0322,23.2,40,0.0,835.2,6.1,31.3,59,17.4,9.2,0,5,7,0,2026-03-04T13:09:38.824406+05:30
Shimla,Himachal Pradesh,31.1048,77.1734,22.5,30,0.0,791.5,6.15,52.6,68,18.8,9.0,0,5,7,0,2026-03-04T13:09:38.824412+05:30
Manali,Himachal Pradesh,32.2396,77.1887,26.1,15,0.0,827.5,7.8,32.8,49,17.1,8.0,4,5,7,1,2026-03-04T13:09:38.824419+05:30
Gurgaon,Haryana,28.4595,77.0266,31.5,39,0.0,986.6,5.95,35.6,1125,1214.4,143.0,0,5,3,0,2026-03-04T13:09:38.824426+05:30
Noida,Uttar Pradesh,28.5355,77.391,31.6,39,0.0,989.4,5.85,36.4,1125,1214.4,143.0,0,5,3,0,2026-03-04T13:09:38.824432+05:30
Ghaziabad,Uttar Pradesh,28.6692,77.4538,30.5,45,0.0,987.4,5.85,33.8,225,221.2,62.9,0,5,3,1,2026-03-04T13:09:38.824438+05:30
Faridabad,Haryana,28.4089,77.3178,31.0,41,0.0,988.8,5.9,34.2,1125,1214.4,143.0,0,5,3,1,2026-03-04T13:09:38.824445+05:30
Meerut,Uttar Pradesh,28.9845,77.7064,30.4,43,0.0,986.0,5.7,35.6,225,221.2,62.9,0,5,3,1,2026-03-04T13:09:38.824451+05:30
Agra,Uttar Pradesh,27.1767,78.0081,33.1,30,0.0,993.1,6.2,35.3,329,357.6,57.5,0,5,7,0,2026-03-04T13:09:38.824458+05:30
Varanasi,Uttar Pradesh,25.3176,82.9739,30.0,44,0.0,1002.8,7.0,19.8,142,324.1,68.9,4,5,4,1,2026-03-04T13:09:38.824467+05:30
Prayagraj,Uttar Pradesh,25.4358,81.8463,30.6,38,0.0,1001.3,6.9,25.9,146,307.3,75.4,0,5,4,0,2026-03-04T13:09:38.824474+05:30
Gorakhpur,Uttar Pradesh,26.7606,83.3732,28.8,51,0.0,1002.4,6.75,10.1,165,102.7,63.8,4,5,4,1,2026-03-04T13:09:38.824480+05:30
Bareilly,Uttar Pradesh,28.367,79.4304,27.5,55,0.0,991.6,6.05,19.1,161,141.1,62.9,4,5,7,1,2026-03-04T13:09:38.824487+05:30
Aligarh,Uttar Pradesh,27.8974,78.088,31.3,41,0.0,990.5,5.95,33.1,642,497.3,94.8,0,5,3,1,2026-03-04T13:09:38.824493+05:30
Moradabad,Uttar Pradesh,28.8386,78.7733,28.2,48,0.0,988.2,5.85,22.3,155,99.9,58.7,4,5,3,1,2026-03-04T13:09:38.824498+05:30
Saharanpur,Uttar Pradesh,29.9637,77.546,30.6,36,0.0,979.5,5.5,45.7,149,72.9,42.1,0,5,3,0,2026-03-04T13:09:38.824507+05:30
Jhansi,Uttar Pradesh,25.4484,78.5685,34.4,21,0.0,983.5,6.8,32.0,61,25.8,15.0,0,5,7,0,2026-03-04T13:09:42.040790+05:30
Surat,Gujarat,21.1702,72.8311,35.0,32,0.0,1011.0,7.1,25.2,151,55.5,49.6,0,0,4,0,2026-03-04T13:09:42.040820+05:30
Vadodara,Gujarat,22.3072,73.1812,37.3,24,0.0,1009.4,7.2,18.0,139,34.7,22.5,0,0,7,0,2026-03-04T13:09:42.040832+05:30
Rajkot,Gujarat,22.3039,70.8022,35.4,26,0.0,999.9,7.0,24.8,63,23.6,17.2,0,5,10,0,2026-03-04T13:09:42.040841+05:30
Thane,Maharashtra,19.2183,72.9781,36.8,27,0.0,1010.6,7.35,35.6,135,52.5,51.3,0,0,7,0,2026-03-04T13:09:42.040850+05:30
Nagpur,Maharashtra,21.1458,79.0882,34.6,25,0.0,978.2,7.75,23.4,68,19.9,13.2,0,5,7,0,2026-03-04T13:09:42.040858+05:30
Nashik,Maharashtra,19.9975,73.7898,34.5,20,0.0,950.3,7.55,23.4,82,17.3,16.6,0,5,7,0,2026-03-04T13:09:42.040865+05:30
Aurangabad,Maharashtra,19.8762,75.3433,34.4,22,0.0,948.9,8.1,22.7,75,18.8,17.7,0,5,7,0,2026-03-04T13:09:42.040873+05:30
Solapur,Maharashtra,17.6599,75.9064,34.3,30,0.0,961.0,8.35,18.7,75,20.1,19.0,0,5,7,0,2026-03-04T13:09:42.040881+05:30
Kolhapur,Maharashtra,16.705,74.2433,34.3,27,0.0,951.3,8.45,37.4,158,30.6,29.7,0,5,7,0,2026-03-04T13:09:42.040889+05:30
Goa,Goa,15.2993,74.124,31.6,64,0.0,1000.6,8.5,34.9,108,41.7,39.0,3,5,4,1,2026-03-04T13:09:42.040897+05:30
Jodhpur,Rajasthan,26.2389,73.0243,35.4,21,0.0,989.7,6.9,18.7,79,109.2,26.3,0,5,10,0,2026-03-04T13:09:42.040905+05:30
Udaipur,Rajasthan,24.5854,73.7125,33.8,20,0.0,953.2,7.5,23.4,58,33.2,13.0,0,5,7,0,2026-03-04T13:09:42.040913+05:30
Kota,Rajasthan,25.2138,75.8648,35.0,20,0.0,985.0,6.9,17.3,83,27.1,16.1,0,5,7,0,2026-03-04T13:09:42.040921+05:30
Bikaner,Rajasthan,28.0229,73.3119,33.3,27,0.0,988.6,6.6,26.3,66,52.7,20.7,0,5,7,0,2026-03-04T13:09:42.040928+05:30
Ajmer,Rajasthan,26.4499,74.6399,33.9,23,0.0,961.3,6.85,25.2,69,47.3,16.6,0,5,7,0,2026-03-04T13:09:42.040936+05:30
Gwalior,Madhya Pradesh,26.2183,78.1828,32.6,29,0.0,988.9,6.55,31.0,78,28.9,18.0,0,5,7,0,2026-03-04T13:09:42.040943+05:30
Indore,Madhya Pradesh,22.7196,75.8577,33.1,24,0.0,954.0,7.45,17.6,81,24.7,14.6,0,5,7,0,2026-03-04T13:09:42.040951+05:30
Bhopal,Madhya Pradesh,23.2599,77.4126,33.4,22,0.0,959.6,7.35,22.0,75,20.2,11.0,0,5,7,0,2026-03-04T13:09:42.040958+05:30
Jabalpur,Madhya Pradesh,23.1815,79.9864,32.2,30,0.0,967.0,7.45,24.5,71,25.1,13.9,0,5,7,0,2026-03-04T13:09:42.040965+05:30
Ujjain,Madhya Pradesh,23.1765,75.7885,32.9,26,0.0,959.8,7.4,16.2,101,27.6,16.0,0,5,7,0,2026-03-04T13:09:42.040973+05:30
Visakhapatnam,Andhra Pradesh,17.6868,83.2185,34.4,41,0.0,1007.0,8.4,37.1,138,52.4,48.2,0,5,4,1,2026-03-04T13:09:42.040980+05:30
Vijayawada,Andhra Pradesh,16.5062,80.648,33.9,43,0.0,1006.2,8.45,20.5,128,43.4,40.0,0,5,4,1,2026-03-04T13:09:42.040987+05:30
Guntur,Andhra Pradesh,16.3067,80.4365,34.9,37,0.0,1007.1,8.45,25.6,118,40.2,37.1,0,5,4,1,2026-03-04T13:09:42.040994+05:30
Nellore,Andhra Pradesh,14.4426,79.9865,36.2,28,0.0,1008.9,8.65,29.9,115,41.9,39.3,0,0,7,0,2026-03-04T13:09:42.041001+05:30
Kurnool,Andhra Pradesh,15.8281,78.0373,36.7,20,0.0,980.2,8.5,26.3,98,33.4,31.5,0,5,10,0,2026-03-04T13:09:42.041007+05:30
Kakinada,Andhra Pradesh,16.9891,82.2475,35.7,35,0.0,1010.6,8.4,33.8,107,41.7,36.0,0,0,7,1,2026-03-04T13:09:42.041014+05:30
Tirupati,Andhra Pradesh,13.6288,79.4192,34.7,24,0.0,994.7,8.8,32.4,149,36.6,34.5,0,5,7,0,2026-03-04T13:09:42.041019+05:30
Warangal,Telangana,17.9689,79.5941,34.3,32,0.0,982.8,8.25,23.8,116,39.9,37.7,0,5,7,0,2026-03-04T13:09:42.041026+05:30
Nizamabad,Telangana,18.6725,78.0941,34.8,24,0.0,969.3,8.1,28.1,72,21.5,17.7,0,5,7,0,2026-03-04T13:09:42.041031+05:30
Mysore,Karnataka,12.2958,76.6396,32.4,21,0.0,931.5,9.15,39.2,97,29.0,27.8,0,5,7,0,2026-03-04T13:09:42.041037+05:30
Mangalore,Karnataka,12.9141,74.856,27.9,84,0.0,1008.8,8.75,30.2,84,39.7,35.6,7,0,4,1,2026-03-04T13:09:42.041043+05:30
Hubli-Dharwad,Karnataka,15.3647,75.124,33.5,33,0.0,944.2,8.65,24.5,93,31.7,30.7,0,5,7,0,2026-03-04T13:09:42.041048+05:30
Belgaum,Karnataka,15.8497,74.4977,33.7,27,0.0,929.1,8.75,32.0,134,30.0,29.2,0,5,7,0,2026-03-04T13:09:45.252311+05:30
Coimbatore,Tamil Nadu,11.0168,76.9558,32.4,30,0.0,964.9,9.15,41.0,99,30.9,29.1,0,5,7,0,2026-03-04T13:09:45.252343+05:30
Madurai,Tamil Nadu,9.9252,78.1198,33.5,36,0.0,995.8,9.1,24.1,96,22.8,21.0,0,5,7,1,2026-03-04T13:09:45.252355+05:30
Trichy,Tamil Nadu,10.7905,78.7047,34.1,33,0.0,1002.6,9.0,28.8,104,24.5,22.5,0,5,4,0,2026-03-04T13:09:45.252364+05:30
Salem,Tamil Nadu,11.6643,78.146,35.4,23,0.0,980.1,9.05,35.6,121,41.0,38.8,0,5,10,0,2026-03-04T13:09:45.252373+05:30
Tirunelveli,Tamil Nadu,8.7139,77.7567,34.6,33,0.0,1006.0,9.15,38.9,87,17.7,16.4,0,5,4,0,2026-03-04T13:09:45.252381+05:30
Vellore,Tamil Nadu,12.9165,79.1325,34.1,24,0.0,987.9,8.9,36.7,142,33.4,31.1,0,5,7,0,2026-03-04T13:09:45.252390+05:30
Erode,Tamil Nadu,11.341,77.7172,34.6,32,0.0,991.8,9.05,28.8,100,39.1,37.1,0,5,7,0,2026-03-04T13:09:45.252398+05:30
Kochi,Kerala,9.9312,76.2673,27.9,74,0.0,1011.1,8.95,32.8,105,34.1,32.1,7,0,4,1,2026-03-04T13:09:45.252407+05:30
Thiruvananthapuram,Kerala,8.5241,76.9366,27.9,70,0.0,1010.6,9.0,27.4,98,35.3,32.8,7,0,4,1,2026-03-04T13:09:45.252414+05:30
Kozhikode,Kerala,11.2588,75.7804,29.6,72,0.0,1010.3,8.85,30.6,87,44.9,40.6,7,0,4,1,2026-03-04T13:09:45.252422+05:30
Thrissur,Kerala,10.5276,76.2144,34.8,41,0.0,1008.9,8.95,38.9,114,37.4,35.7,0,0,4,1,2026-03-04T13:09:45.252430+05:30
Kannur,Kerala,11.8745,75.3704,30.9,63,0.0,1009.4,8.85,35.3,81,39.5,35.5,3,0,4,1,2026-03-04T13:09:45.252438+05:30
Patna,Bihar,25.5941,85.1376,30.1,38,0.0,1005.5,7.2,15.5,165,97.8,59.3,0,5,4,0,2026-03-04T13:09:45.252445+05:30
Gaya,Bihar,24.7914,85.0002,29.7,41,0.0,998.8,7.25,18.4,139,154.1,49.1,4,5,7,0,2026-03-04T13:09:45.252453+05:30
Muzaffarpur,Bihar,26.1209,85.3647,30.5,36,0.0,1005.4,7.15,12.2,167,99.7,60.5,0,5,4,0,2026-03-04T13:09:45.252460+05:30
Bhagalpur,Bihar,25.2425,87.0117,29.4,41,0.0,1006.0,7.2,9.4,159,99.9,51.5,4,5,4,0,2026-03-04T13:09:45.252468+05:30
Ranchi,Jharkhand,23.3441,85.3096,29.0,25,0.0,942.1,7.9,31.3,87,98.5,26.8,4,5,7,0,2026-03-04T13:09:45.252476+05:30
Jamshedpur,Jharkhand,22.8046,86.2029,32.1,24,0.0,994.7,7.85,24.5,120,101.3,40.9,0,5,7,0,2026-03-04T13:09:45.252483+05:30
Dhanbad,Jharkhand,23.7957,86.4304,32.3,21,0.0,984.0,7.7,25.2,128,133.6,45.4,0,5,7,0,2026-03-04T13:09:45.252491+05:30
Bokaro,Jharkhand,23.6693,86.1511,31.4,26,0.0,988.0,7.7,26.6,136,156.9,48.2,0,5,7,0,2026-03-04T13:09:45.252499+05:30
Bhubaneswar,Odisha,20.2961,85.8245,36.1,24,0.0,1005.3,8.15,26.6,153,75.4,57.0,0,5,7,0,2026-03-04T13:09:45.252506+05:30
Cuttack,Odisha,20.4625,85.8828,36.5,19,0.0,1007.4,8.15,27.7,153,75.4,57.0,0,5,7,0,2026-03-04T13:09:45.252514+05:30
Rourkela,Odisha,22.2604,84.8536,33.3,24,0.0,989.0,7.75,21.6,95,50.3,28.5,0,5,7,0,2026-03-04T13:09:45.252521+05:30
Raipur,Chhattisgarh,21.2514,81.6296,34.7,20,0.0,979.3,7.8,23.4,138,25.2,15.2,0,5,7,0,2026-03-04T13:09:45.252529+05:30
Bhilai,Chhattisgarh,21.1938,81.3509,35.2,21,0.0,979.6,7.8,20.5,120,22.4,13.8,0,5,10,0,2026-03-04T13:09:45.252536+05:30
Guwahati,Assam,26.1158,91.7086,29.1,50,0.0,1004.8,7.1,16.6,153,51.2,41.7,4,5,4,1,2026-03-04T13:09:45.252543+05:30
Agartala,Tripura,23.8315,91.2868,29.8,45,0.0,1009.2,7.5,21.6,163,73.1,50.6,4,0,4,1,2026-03-04T13:09:45.252551+05:30
Shillong,Meghalaya,25.5788,91.8933,18.4,46,0.0,858.9,7.5,29.2,150,52.9,41.7,0,5,7,0,2026-03-04T13:09:45.252558+05:30
Imphal,Manipur,24.817,93.9368,23.4,43,0.0,925.5,7.7,21.2,132,40.6,33.6,0,5,7,0,2026-03-04T13:09:45.252566+05:30
Aizawl,Mizoram,23.7271,92.7176,23.3,42,0.0,895.4,7.7,24.5,154,59.5,46.8,0,5,7,0,2026-03-04T13:09:45.252573+05:30
Kohima,Nagaland,25.6701,94.1077,18.2,61,0.0,857.4,7.55,39.2,146,51.9,42.0,3,5,7,0,2026-03-04T13:09:45.252580+05:30
Gangtok,Sikkim,27.3314,88.6138,19.8,52,0.0,841.6,7.45,20.9,151,60.5,44.1,0,5,7,0,2026-03-04T13:09:45.252588+05:30
Siliguri,West Bengal,26.7271,88.3953,25.2,59,0.0,998.2,7.1,20.5,159,66.1,44.5,4,5,7,1,2026-03-04T13:09:48.467169+05:30
Durgapur,West Bengal,23.5204,87.3119,33.3,23,0.0,998.7,7.7,22.3,105,100.4,43.5,0,5,7,0,2026-03-04T13:09:48.467193+05:30
Asansol,West Bengal,23.6739,86.9524,32.8,22,0.0,997.6,7.7,23.0,96,115.3,43.0,0,5,7,0,2026-03-04T13:09:48.467202+05:30
Pondicherry,Puducherry,11.9139,79.8145,33.3,47,0.0,1011.5,8.85,27.4,102,27.4,23.6,0,0,4,1,2026-03-04T13:09:48.467209+05:30
Port Blair,Andaman and Nicobar Islands,11.6234,92.7265,27.4,71,0.0,1008.5,8.85,26.3,86,48.2,38.9,7,0,4,1,2026-03-04T13:09:48.467215+05:30
Haridwar,Uttarakhand,29.9457,78.1642,28.1,46,0.0,978.2,5.6,19.1,123,40.9,31.7,4,5,3,0,2026-03-04T13:09:48.467221+05:30
Rishikesh,Uttarakhand,30.0869,78.2676,28.4,46,0.0,970.8,5.65,24.1,99,39.9,27.6,4,5,3,0,2026-03-04T13:09:48.467227+05:30
Nainital,Uttarakhand,29.3919,79.4542,20.1,72,0.0,810.0,6.45,57.2,136,65.2,40.4,3,5,7,0,2026-03-04T13:09:48.467266+05:30
Mussoorie,Uttarakhand,30.4599,78.0664,21.6,50,0.0,807.5,6.0,37.8,94,32.4,25.4,0,5,3,0,2026-03-04T13:09:48.467278+05:30
Dharamshala,Himachal Pradesh,32.219,76.3234,25.8,38,0.0,874.8,6.25,29.5,48,18.9,7.8,4,5,7,0,2026-03-04T13:09:48.467285+05:30
Dalhousie,Himachal Pradesh,32.5387,75.971,26.3,20,0.0,811.3,6.45,24.1,84,21.3,14.3,4,5,7,0,2026-03-04T13:09:48.467292+05:30
Patiala,Punjab,30.3398,76.3869,30.5,42,0.0,983.0,5.65,32.8,207,299.0,65.7,0,5,3,1,2026-03-04T13:09:48.467298+05:30
Bhatinda,Punjab,30.211,74.9455,31.5,42,0.0,989.3,6.3,25.6,152,73.3,44.6,0,5,7,1,2026-03-04T13:09:48.467304+05:30
Rohtak,Haryana,28.8955,76.6066,31.4,39,0.0,987.0,5.85,34.6,393,441.4,74.0,0,5,3,0,2026-03-04T13:09:48.467310+05:30
Panipat,Haryana,29.3909,76.9635,31.1,41,0.0,985.1,5.65,34.2,968,968.6,123.9,0,5,3,1,2026-03-04T13:09:48.467315+05:30
Mathura,Uttar Pradesh,27.4924,77.6737,32.3,33,0.0,992.3,6.1,32.8,408,440.5,64.5,0,5,7,0,2026-03-04T13:09:48.467321+05:30
Vrindavan,Uttar Pradesh,27.5823,77.7027,31.9,36,0.0,992.5,6.1,34.9,408,440.5,64.5,0,5,7,0,2026-03-04T13:09:48.467327+05:30
Ayodhya,Uttar Pradesh,26.7922,82.1998,29.4,47,0.0,1000.4,6.5,9.7,159,154.1,67.1,4,5,4,1,2026-03-04T13:09:48.467333+05:30
Ratlam,Madhya Pradesh,23.3315,75.0367,33.4,28,0.0,960.6,7.35,18.0,98,26.8,16.2,0,5,7,0,2026-03-04T13:09:48.467338+05:30
Sagar,Madhya Pradesh,23.8388,78.7378,32.7,22,0.0,956.0,7.25,27.0,64,21.5,9.8,0,5,7,0,2026-03-04T13:09:48.467344+05:30
Satna,Madhya Pradesh,24.6005,80.8322,33.7,21,0.0,976.6,7.25,36.7,64,34.2,17.2,0,5,7,0,2026-03-04T13:09:48.467350+05:30
Akola,Maharashtra,20.7002,77.0082,35.7,23,0.0,980.1,7.8,14.4,73,22.1,17.8,0,5,10,0,2026-03-04T13:09:48.467357+05:30
Amravati,Maharashtra,20.9374,77.7796,35.8,23,0.0,972.3,7.75,16.2,68,20.0,15.2,0,5,10,0,2026-03-04T13:09:48.467363+05:30
Latur,Maharashtra,18.4088,76.5604,33.9,24,0.0,944.3,8.25,20.5,79,19.8,18.0,0,5,7,0,2026-03-04T13:09:48.467369+05:30
Nanded,Maharashtra,19.1383,77.3091,35.9,24,0.0,973.0,8.0,14.4,81,20.1,16.4,0,5,10,0,2026-03-04T13:09:48.467375+05:30
Gulbarga,Karnataka,17.3297,76.8343,36.2,19,0.0,962.5,8.35,25.2,85,22.4,21.1,0,5,10,0,2026-03-04T13:09:48.467380+05:30
Bidar,Karnataka,17.9104,77.5199,34.2,21,0.0,939.8,8.3,26.6,88,17.5,15.1,0,5,7,0,2026-03-04T13:09:48.467386+05:30
Hospet,Karnataka,15.2689,76.3909,33.8,29,0.0,959.3,8.65,25.2,101,25.9,25.0,0,5,7,0,2026-03-04T13:09:48.467392+05:30
Tirupur,Tamil Nadu,11.1085,77.3411,33.9,28,0.0,978.4,9.15,31.0,107,41.0,39.1,0,5,7,0,2026-03-04T13:09:48.467397+05:30
Alappuzha,Kerala,9.4981,76.3388,27.9,77,0.0,1011.3,8.95,32.4,104,38.6,36.7,7,0,4,1,2026-03-04T13:09:48.467403+05:30
Munnar,Kerala,10.0889,77.0595,29.1,37,0.0,860.9,9.45,22.0,87,24.7,23.7,4,5,7,0,2026-03-04T13:09:48.467410+05:30
Silchar,Assam,24.8333,92.7789,31.2,35,0.0,1007.4,7.45,15.8,150,41.7,32.6,0,5,4,0,2026-03-04T13:09:48.467415+05:30
Dibrugarh,Assam,27.4728,94.912,27.1,57,0.0,998.8,7.15,9.0,135,68.5,51.0,4,5,7,1,2026-03-04T13:09:48.467421+05:30
