city,state,latitude,longitude,temp,humidity,rain,pressure,uv_index,wind_gusts,aqi,pm10,pm2_5,no2,co,o3,so2,mosquito_risk,arthritis_risk,migraine_risk,frizz_risk,updated_at
Delhi,Delhi,28.6139,77.209,26.8,66,0.0,979.0,7.65,33.8,245,326.0,80.3,16.9,672.0,90.0,19.0,7,5,7,1,2026-05-13T05:31:56.774949+05:30
Mumbai,Maharashtra,19.076,72.8777,29.4,81,0.0,1004.8,7.85,41.0,83,45.3,24.4,18.4,439.0,62.0,33.0,7,5,4,1,2026-05-13T05:31:56.774997+05:30
Bangalore,Karnataka,12.9716,77.5946,23.2,74,0.0,908.2,9.45,38.9,73,42.3,34.7,43.6,439.0,28.0,15.8,3,5,7,1,2026-05-13T05:31:56.775014+05:30
Hyderabad,Telangana,17.385,78.4867,26.6,71,0.0,950.0,9.05,31.7,64,14.7,10.0,9.9,245.0,48.0,3.9,7,5,7,1,2026-05-13T05:31:56.775024+05:30
Chennai,Tamil Nadu,13.0827,80.2707,27.5,84,0.0,1003.2,8.8,44.3,27,8.3,6.7,7.9,286.0,39.0,1.9,7,5,4,1,2026-05-13T05:31:56.775034+05:30
Kolkata,West Bengal,22.5726,88.3639,26.5,87,0.0,1004.3,9.0,30.2,72,30.2,26.7,16.4,258.0,32.0,6.3,7,5,4,1,2026-05-13T05:31:56.775043+05:30
Pune,Maharashtra,18.5204,73.8567,26.0,66,0.0,944.6,7.55,45.4,68,34.3,21.1,21.2,226.0,44.0,19.1,7,5,7,1,2026-05-13T05:31:56.775050+05:30
Ahmedabad,Gujarat,23.0225,72.5714,30.8,42,0.0,996.6,8.2,38.9,68,33.8,12.3,5.1,192.0,57.0,6.4,0,5,7,1,2026-05-13T05:31:56.775061+05:30
Jaipur,Rajasthan,26.9124,75.7873,30.6,30,0.0,954.9,8.2,38.5,169,246.8,61.9,7.9,452.0,91.0,9.6,0,5,7,0,2026-05-13T05:31:56.775069+05:30
Lucknow,Uttar Pradesh,26.8467,80.9462,27.2,65,0.0,990.2,8.15,56.2,126,51.5,46.1,10.9,456.0,97.0,12.4,7,5,7,1,2026-05-13T05:31:56.775078+05:30
Kanpur,Uttar Pradesh,26.4499,80.3319,28.6,58,0.0,987.9,8.2,39.6,150,266.4,62.9,9.1,447.0,99.0,13.0,4,5,7,1,2026-05-13T05:31:56.775086+05:30
Chandigarh,Chandigarh,30.7333,76.7794,22.0,63,0.0,964.6,7.7,34.6,123,48.9,33.3,31.6,472.0,26.0,4.8,3,5,7,0,2026-05-13T05:31:56.775094+05:30
Srinagar,Jammu and Kashmir,34.0837,74.7973,9.6,100,0.0,840.9,8.85,31.7,83,38.4,29.8,10.7,330.0,48.0,0.2,3,10,7,0,2026-05-13T05:31:56.775102+05:30
Jammu,Jammu and Kashmir,32.7266,74.857,20.9,61,0.0,967.8,8.45,28.1,116,32.0,28.8,11.9,263.0,41.0,0.6,3,5,7,0,2026-05-13T05:31:56.775110+05:30
Amritsar,Punjab,31.634,74.8723,23.8,55,0.0,976.3,8.35,47.5,151,105.5,71.0,17.2,608.0,59.0,7.8,0,5,7,0,2026-05-13T05:31:56.775118+05:30
Ludhiana,Punjab,30.901,75.8573,24.9,77,0.0,974.4,7.95,65.5,160,139.7,105.0,29.8,770.0,45.0,21.4,3,5,7,1,2026-05-13T05:31:56.775124+05:30
Jalandhar,Punjab,31.326,75.5762,24.1,77,0.0,975.3,8.15,48.6,152,97.3,61.2,18.6,834.0,45.0,7.6,3,5,7,1,2026-05-13T05:31:56.775133+05:30
Dehradun,Uttarakhand,30.6284,78.0322,11.2,92,0.0,824.7,8.1,32.0,70,15.7,8.9,10.0,336.0,55.0,0.0,3,10,7,0,2026-05-13T05:31:56.775142+05:30
Shimla,Himachal Pradesh,31.1048,77.1734,10.4,47,0.0,779.2,8.2,40.0,85,32.6,20.4,14.0,262.0,67.0,1.1,0,5,7,1,2026-05-13T05:31:56.775149+05:30
Manali,Himachal Pradesh,32.2396,77.1887,7.3,40,0.0,811.2,9.6,42.1,44,1.9,1.1,7.5,169.0,116.0,0.0,0,5,7,1,2026-05-13T05:31:56.775156+05:30
Gurgaon,Haryana,28.4595,77.0266,25.8,68,0.0,977.1,7.75,31.0,998,964.9,145.8,13.2,586.0,91.0,19.2,7,5,7,1,2026-05-13T05:31:56.775163+05:30
Noida,Uttar Pradesh,28.5355,77.391,24.9,77,0.0,980.4,7.7,29.2,998,964.9,145.8,13.2,755.0,91.0,19.2,3,5,7,1,2026-05-13T05:31:56.775169+05:30
Ghaziabad,Uttar Pradesh,28.6692,77.4538,25.1,75,0.0,978.7,7.7,28.1,154,229.1,64.3,9.3,571.0,92.0,11.2,7,5,7,1,2026-05-13T05:31:56.775176+05:30
Faridabad,Haryana,28.4089,77.3178,26.0,69,0.0,979.6,7.75,31.7,998,964.9,145.8,13.2,617.0,91.0,19.2,7,5,7,1,2026-05-13T05:31:56.775182+05:30
Meerut,Uttar Pradesh,28.9845,77.7064,25.6,71,0.0,977.9,7.6,36.4,154,229.1,64.3,9.3,569.0,92.0,11.2,7,5,7,1,2026-05-13T05:31:56.775189+05:30
Agra,Uttar Pradesh,27.1767,78.0081,27.5,59,0.0,982.9,8.0,54.4,675,1050.5,144.4,5.9,450.0,112.0,13.3,4,5,7,1,2026-05-13T05:31:56.775196+05:30
Varanasi,Uttar Pradesh,25.3176,82.9739,27.5,74,0.0,994.3,8.7,30.6,141,71.9,62.2,13.4,457.0,105.0,17.4,7,5,7,1,2026-05-13T05:31:56.775203+05:30
Prayagraj,Uttar Pradesh,25.4358,81.8463,28.1,67,0.0,992.3,8.55,27.4,133,65.7,59.6,12.5,501.0,113.0,16.8,7,5,7,1,2026-05-13T05:31:56.775213+05:30
Gorakhpur,Uttar Pradesh,26.7606,83.3732,23.6,80,0.0,995.5,8.55,32.8,124,60.5,58.0,12.1,440.0,95.0,10.7,3,5,7,1,2026-05-13T05:31:56.775219+05:30
Bareilly,Uttar Pradesh,28.367,79.4304,26.0,69,0.0,983.6,7.95,29.9,126,81.7,51.6,11.9,446.0,88.0,7.5,7,5,7,1,2026-05-13T05:31:56.775226+05:30
Aligarh,Uttar Pradesh,27.8974,78.088,26.3,67,0.0,980.9,7.8,44.6,409,640.7,108.3,7.7,500.0,101.0,17.5,7,5,7,1,2026-05-13T05:31:56.775233+05:30
Moradabad,Uttar Pradesh,28.8386,78.7733,25.5,71,0.0,980.5,7.8,33.1,124,68.0,52.9,14.4,435.0,80.0,8.7,7,5,7,1,2026-05-13T05:31:56.775239+05:30
Saharanpur,Uttar Pradesh,29.9637,77.546,24.6,77,0.0,971.8,7.4,35.6,156,99.7,62.9,27.6,522.0,41.0,9.6,3,5,7,1,2026-05-13T05:31:56.775246+05:30
Jhansi,Uttar Pradesh,25.4484,78.5685,27.4,59,0.0,972.8,8.45,47.9,94,65.2,39.1,7.4,455.0,58.0,7.7,4,5,7,1,2026-05-13T05:32:06.546621+05:30
Surat,Gujarat,21.1702,72.8311,28.9,90,0.0,1001.7,6.95,41.8,96,35.7,27.2,31.8,384.0,24.0,40.7,7,5,4,1,2026-05-13T05:32:06.546658+05:30
Vadodara,Gujarat,22.3072,73.1812,31.1,52,0.0,999.2,8.1,36.7,71,37.1,22.4,12.8,338.0,51.0,11.1,0,5,7,1,2026-05-13T05:32:06.546669+05:30
Rajkot,Gujarat,22.3039,70.8022,26.4,85,0.0,989.3,7.75,53.3,54,22.7,11.4,4.2,161.0,65.0,5.2,7,5,7,1,2026-05-13T05:32:06.546678+05:30
Thane,Maharashtra,19.2183,72.9781,29.1,82,0.0,1004.2,7.9,35.6,83,45.3,24.4,18.4,325.0,62.0,33.0,7,5,4,1,2026-05-13T05:32:06.546686+05:30
Nagpur,Maharashtra,21.1458,79.0882,30.4,45,0.0,970.1,8.95,38.2,108,73.8,46.6,29.9,312.0,44.0,16.7,0,5,7,1,2026-05-13T05:32:06.546693+05:30
Nashik,Maharashtra,19.9975,73.7898,26.5,54,0.0,942.1,8.25,41.4,66,43.4,21.1,21.3,209.0,36.0,2.8,4,5,7,1,2026-05-13T05:32:06.546701+05:30
Aurangabad,Maharashtra,19.8762,75.3433,30.0,38,0.0,940.4,9.1,33.1,79,68.0,37.3,32.3,241.0,45.0,10.1,4,5,7,0,2026-05-13T05:32:06.546708+05:30
Solapur,Maharashtra,17.6599,75.9064,29.8,52,0.0,953.8,9.1,36.0,71,32.8,24.7,16.2,329.0,55.0,9.2,4,5,7,1,2026-05-13T05:32:06.546716+05:30
Kolhapur,Maharashtra,16.705,74.2433,24.1,90,0.0,944.8,8.95,40.7,67,36.6,25.0,17.3,177.0,32.0,4.1,3,5,7,1,2026-05-13T05:32:06.546724+05:30
Goa,Goa,15.2993,74.124,26.5,98,0.0,994.6,8.9,32.0,74,55.4,32.8,14.2,267.0,57.0,3.4,7,5,7,1,2026-05-13T05:32:06.546731+05:30
Jodhpur,Rajasthan,26.2389,73.0243,31.0,31,0.0,977.6,8.4,40.3,127,206.3,34.2,2.3,180.0,83.0,2.6,0,5,7,0,2026-05-13T05:32:06.546738+05:30
Udaipur,Rajasthan,24.5854,73.7125,30.4,31,0.0,942.1,8.8,46.1,49,34.6,15.1,2.8,190.0,83.0,3.1,0,5,7,0,2026-05-13T05:32:06.546745+05:30
Kota,Rajasthan,25.2138,75.8648,31.2,28,0.0,974.1,8.4,38.5,79,42.7,22.3,8.9,289.0,41.0,3.5,0,5,7,0,2026-05-13T05:32:06.546752+05:30
Bikaner,Rajasthan,28.0229,73.3119,27.4,57,0.0,976.2,8.35,25.2,97,105.2,34.5,3.3,243.0,70.0,4.2,4,5,7,1,2026-05-13T05:32:06.546760+05:30
Ajmer,Rajasthan,26.4499,74.6399,29.9,31,0.0,950.2,8.35,51.1,68,205.4,48.2,8.0,318.0,60.0,5.6,4,5,7,0,2026-05-13T05:32:06.546766+05:30
Gwalior,Madhya Pradesh,26.2183,78.1828,27.1,57,0.0,978.0,8.2,57.2,108,101.3,49.8,5.2,405.0,89.0,9.5,4,5,7,1,2026-05-13T05:32:06.546773+05:30
Indore,Madhya Pradesh,22.7196,75.8577,32.2,26,0.0,944.0,8.75,32.8,88,85.0,43.1,13.3,308.0,65.0,7.7,0,5,7,0,2026-05-13T05:32:06.546780+05:30
Bhopal,Madhya Pradesh,23.2599,77.4126,29.9,35,0.0,949.2,8.75,38.5,94,79.2,31.0,5.4,467.0,90.0,5.6,4,5,7,0,2026-05-13T05:32:06.546786+05:30
Jabalpur,Madhya Pradesh,23.1815,79.9864,28.8,39,0.0,957.3,8.55,36.4,102,80.1,38.1,25.6,297.0,43.0,5.9,4,5,7,0,2026-05-13T05:32:06.546793+05:30
Ujjain,Madhya Pradesh,23.1765,75.7885,30.9,29,0.0,949.3,8.65,35.6,90,56.8,31.7,8.6,370.0,61.0,6.0,0,5,7,0,2026-05-13T05:32:06.546800+05:30
Visakhapatnam,Andhra Pradesh,17.6868,83.2185,26.5,91,0.0,1000.6,9.15,40.0,65,35.9,32.7,34.5,1246.0,9.0,8.0,7,5,4,1,2026-05-13T05:32:06.546807+05:30
Vijayawada,Andhra Pradesh,16.5062,80.648,28.1,82,0.0,999.4,9.2,39.2,52,35.6,33.3,24.9,235.0,13.0,6.4,7,5,7,1,2026-05-13T05:32:06.546814+05:30
Guntur,Andhra Pradesh,16.3067,80.4365,27.9,83,0.0,1000.5,8.95,35.3,53,27.6,25.6,23.5,221.0,14.0,8.0,7,5,4,1,2026-05-13T05:32:06.546821+05:30
Nellore,Andhra Pradesh,14.4426,79.9865,26.4,91,0.0,1002.3,9.15,38.9,27,11.5,9.3,10.9,226.0,28.0,3.5,7,5,4,1,2026-05-13T05:32:06.546828+05:30
Kurnool,Andhra Pradesh,15.8281,78.0373,28.4,60,0.0,973.6,9.1,31.7,54,10.9,7.4,5.4,189.0,46.0,2.0,4,5,7,1,2026-05-13T05:32:06.546836+05:30
Kakinada,Andhra Pradesh,16.9891,82.2475,27.9,83,0.0,1004.2,9.15,39.6,22,10.4,6.5,3.5,187.0,45.0,1.4,7,5,4,1,2026-05-13T05:32:06.546843+05:30
Tirupati,Andhra Pradesh,13.6288,79.4192,24.5,91,0.0,987.6,9.25,33.8,51,21.2,19.7,28.6,245.0,2.0,3.4,3,5,7,1,2026-05-13T05:32:06.546849+05:30
Warangal,Telangana,17.9689,79.5941,26.6,81,0.0,975.8,8.6,35.3,65,11.4,9.9,10.5,181.0,34.0,10.3,7,5,7,1,2026-05-13T05:32:06.546856+05:30
Nizamabad,Telangana,18.6725,78.0941,28.6,56,0.0,961.4,9.15,31.7,76,29.9,25.7,11.5,268.0,72.0,7.6,4,5,7,1,2026-05-13T05:32:06.546862+05:30
Mysore,Karnataka,12.2958,76.6396,22.4,92,0.0,924.9,7.0,35.6,84,41.0,32.2,18.6,232.0,51.0,3.0,3,5,7,1,2026-05-13T05:32:06.546869+05:30
Mangalore,Karnataka,12.9141,74.856,25.6,97,0.0,1003.2,8.05,41.0,81,50.1,32.7,19.8,381.0,30.0,4.2,7,5,4,1,2026-05-13T05:32:06.546876+05:30
Hubli-Dharwad,Karnataka,15.3647,75.124,24.5,92,0.0,937.8,8.25,41.4,67,32.0,16.3,6.5,156.0,48.0,2.0,3,5,7,1,2026-05-13T05:32:06.546883+05:30
Belgaum,Karnataka,15.8497,74.4977,22.9,94,0.0,922.4,8.35,50.8,67,36.6,20.5,11.3,183.0,43.0,2.0,3,5,7,1,2026-05-13T05:32:16.427611+05:30
Coimbatore,Tamil Nadu,11.0168,76.9558,23.6,96,0.0,958.1,8.9,35.3,72,31.1,24.1,10.5,253.0,69.0,3.9,3,5,7,1,2026-05-13T05:32:16.427647+05:30
Madurai,Tamil Nadu,9.9252,78.1198,27.4,84,0.0,988.9,9.05,33.5,82,41.8,40.3,42.0,380.0,1.0,7.1,7,5,7,1,2026-05-13T05:32:16.427660+05:30
Trichy,Tamil Nadu,10.7905,78.7047,25.9,94,0.0,995.8,9.1,30.6,68,31.7,30.5,33.5,390.0,11.0,8.8,7,5,7,1,2026-05-13T05:32:16.427668+05:30
Salem,Tamil Nadu,11.6643,78.146,25.6,89,0.0,973.8,8.3,29.2,83,36.7,34.1,34.8,460.0,20.0,14.3,7,5,7,1,2026-05-13T05:32:16.427676+05:30
Tirunelveli,Tamil Nadu,8.7139,77.7567,27.8,77,0.0,999.0,8.05,23.0,71,16.7,15.1,7.4,333.0,54.0,1.2,7,5,7,1,2026-05-13T05:32:16.427684+05:30
Vellore,Tamil Nadu,12.9165,79.1325,24.6,93,0.0,980.9,9.05,33.1,67,31.2,29.0,29.2,429.0,6.0,12.4,3,5,7,1,2026-05-13T05:32:16.427691+05:30
Erode,Tamil Nadu,11.341,77.7172,26.0,85,0.0,985.5,8.85,27.0,91,46.4,40.0,39.0,322.0,32.0,8.5,7,5,7,1,2026-05-13T05:32:16.427699+05:30
Kochi,Kerala,9.9312,76.2673,26.5,96,0.0,1005.3,8.4,33.5,83,38.5,34.3,17.8,404.0,33.0,4.5,7,5,4,1,2026-05-13T05:32:16.427707+05:30
Thiruvananthapuram,Kerala,8.5241,76.9366,25.1,96,0.1,1004.9,7.75,33.8,61,24.3,15.3,4.8,270.0,82.0,3.1,10,5,4,1,2026-05-13T05:32:16.427714+05:30
Kozhikode,Kerala,11.2588,75.7804,24.9,99,0.0,1004.3,8.25,34.9,70,35.3,18.7,3.0,281.0,96.0,2.6,3,5,4,1,2026-05-13T05:32:16.427721+05:30
Thrissur,Kerala,10.5276,76.2144,24.6,97,0.0,1003.6,8.5,33.5,84,32.6,27.6,15.0,303.0,40.0,3.1,3,5,4,1,2026-05-13T05:32:16.427729+05:30
Kannur,Kerala,11.8745,75.3704,25.1,96,0.0,1003.4,8.85,35.3,83,44.6,31.9,26.8,253.0,31.0,3.1,7,5,4,1,2026-05-13T05:32:16.427736+05:30
Patna,Bihar,25.5941,85.1376,24.0,90,0.0,998.4,8.75,36.4,147,54.9,52.5,12.7,322.0,87.0,12.0,3,5,7,1,2026-05-13T05:32:16.427743+05:30
Gaya,Bihar,24.7914,85.0002,25.2,86,0.0,990.9,8.85,30.6,150,68.5,62.6,24.4,430.0,48.0,20.2,7,5,7,1,2026-05-13T05:32:16.427750+05:30
Muzaffarpur,Bihar,26.1209,85.3647,23.2,89,0.0,999.0,8.75,33.5,135,46.8,44.2,10.7,341.0,103.0,8.7,3,5,7,1,2026-05-13T05:32:16.427757+05:30
Bhagalpur,Bihar,25.2425,87.0117,22.8,96,0.1,1000.1,8.65,32.8,122,26.8,22.7,10.8,256.0,92.0,9.4,6,5,4,1,2026-05-13T05:32:16.427764+05:30
Ranchi,Jharkhand,23.3441,85.3096,22.1,94,0.0,935.2,9.3,34.6,103,25.7,22.5,13.7,194.0,56.0,30.8,3,5,7,1,2026-05-13T05:32:16.427771+05:30
Jamshedpur,Jharkhand,22.8046,86.2029,25.3,87,0.0,988.8,9.15,27.0,95,24.7,22.1,20.5,292.0,27.0,23.9,7,5,7,1,2026-05-13T05:32:16.427778+05:30
Dhanbad,Jharkhand,23.7957,86.4304,25.0,87,0.0,977.5,9.1,25.6,150,58.9,53.6,47.9,1391.0,14.0,65.2,7,5,7,1,2026-05-13T05:32:16.427785+05:30
Bokaro,Jharkhand,23.6693,86.1511,25.1,85,0.0,981.2,9.1,26.3,152,77.3,65.2,33.1,1812.0,44.0,44.4,7,5,7,1,2026-05-13T05:32:16.427791+05:30
Bhubaneswar,Odisha,20.2961,85.8245,26.0,92,0.0,1000.5,9.15,38.9,50,21.9,18.2,14.4,231.0,29.0,3.9,7,5,4,1,2026-05-13T05:32:16.427798+05:30
Cuttack,Odisha,20.4625,85.8828,26.2,92,0.0,1002.4,9.1,41.8,50,21.9,18.2,14.4,254.0,29.0,3.9,7,5,4,1,2026-05-13T05:32:16.427804+05:30
Rourkela,Odisha,22.2604,84.8536,25.5,87,0.0,983.3,9.05,47.2,88,20.1,16.3,17.7,194.0,36.0,45.9,7,5,7,1,2026-05-13T05:32:16.427811+05:30
Raipur,Chhattisgarh,21.2514,81.6296,29.3,51,0.0,971.7,9.05,34.9,106,61.2,45.8,34.5,753.0,37.0,7.0,4,5,7,1,2026-05-13T05:32:16.427817+05:30
Bhilai,Chhattisgarh,21.1938,81.3509,28.9,57,0.0,972.0,9.1,37.1,100,54.8,41.7,36.5,1392.0,49.0,7.1,4,5,7,1,2026-05-13T05:32:16.427824+05:30
Guwahati,Assam,26.1158,91.7086,22.6,93,0.1,1002.0,5.65,24.1,91,37.8,35.0,12.7,424.0,61.0,1.3,6,5,0,1,2026-05-13T05:32:16.427830+05:30
Agartala,Tripura,23.8315,91.2868,24.0,95,0.0,1006.0,8.9,20.9,105,24.3,22.1,13.9,321.0,56.0,1.9,3,5,4,1,2026-05-13T05:32:16.427837+05:30
Shillong,Meghalaya,25.5788,91.8933,15.3,95,0.0,855.3,8.05,25.9,70,21.8,20.3,7.0,303.0,83.0,1.9,3,10,7,0,2026-05-13T05:32:16.427844+05:30
Imphal,Manipur,24.817,93.9368,19.4,87,0.0,922.7,9.3,25.2,96,61.2,57.3,20.5,511.0,60.0,5.3,3,10,7,1,2026-05-13T05:32:16.427850+05:30
Aizawl,Mizoram,23.7271,92.7176,16.4,93,0.0,890.9,9.1,25.9,75,37.8,32.9,9.5,371.0,41.0,1.1,3,10,7,0,2026-05-13T05:32:16.427857+05:30
Kohima,Nagaland,25.6701,94.1077,14.8,97,0.0,853.3,8.4,25.9,62,26.3,23.5,7.5,303.0,56.0,0.5,3,10,7,0,2026-05-13T05:32:16.427864+05:30
Gangtok,Sikkim,27.3314,88.6138,12.2,85,0.1,834.7,8.85,33.8,58,15.3,13.0,11.2,397.0,71.0,0.9,6,10,7,0,2026-05-13T05:32:16.427870+05:30
Siliguri,West Bengal,26.7271,88.3953,21.4,98,0.0,993.0,8.65,30.2,125,64.0,56.9,25.7,460.0,67.0,5.3,3,5,7,1,2026-05-13T05:32:26.349748+05:30
Durgapur,West Bengal,23.5204,87.3119,25.8,93,0.0,993.3,9.0,35.6,109,30.6,27.0,23.5,284.0,27.0,25.9,7,5,7,1,2026-05-13T05:32:26.349784+05:30
Asansol,West Bengal,23.6739,86.9524,25.9,90,0.0,991.6,9.05,31.7,108,27.6,24.9,27.7,272.0,18.0,36.6,7,5,7,1,2026-05-13T05:32:26.349796+05:30
Pondicherry,Puducherry,11.9139,79.8145,26.1,93,0.0,1004.4,8.9,32.4,29,10.0,8.5,11.8,256.0,28.0,4.8,7,5,4,1,2026-05-13T05:32:26.349804+05:30
Port Blair,Andaman and Nicobar Islands,11.6234,92.7265,25.0,98,0.1,1004.8,2.25,39.2,21,3.8,2.5,0.3,107.0,45.0,0.1,10,5,0,1,2026-05-13T05:32:26.349812+05:30
Haridwar,Uttarakhand,29.9457,78.1642,22.4,84,0.0,970.3,7.5,29.2,152,77.3,48.2,21.3,364.0,48.0,6.4,3,5,7,1,2026-05-13T05:32:26.349820+05:30
Rishikesh,Uttarakhand,30.0869,78.2676,19.4,93,0.0,962.9,7.6,29.9,128,63.3,40.0,10.5,429.0,64.0,3.3,3,10,7,1,2026-05-13T05:32:26.349827+05:30
Nainital,Uttarakhand,29.3919,79.4542,11.6,92,0.0,801.7,8.45,52.6,118,78.2,48.9,22.6,311.0,50.0,4.3,3,10,7,0,2026-05-13T05:32:26.349835+05:30
Mussoorie,Uttarakhand,30.4599,78.0664,12.7,83,0.0,798.5,8.0,43.6,122,41.3,27.2,23.8,303.0,35.0,4.6,3,10,7,0,2026-05-13T05:32:26.349843+05:30
Dharamshala,Himachal Pradesh,32.219,76.3234,19.3,46,0.0,865.5,8.35,43.2,59,6.7,3.5,7.7,259.0,70.0,0.0,0,5,7,0,2026-05-13T05:32:26.349850+05:30
Dalhousie,Himachal Pradesh,32.5387,75.971,8.3,77,0.0,797.2,8.6,34.2,89,23.1,15.1,12.6,280.0,52.0,0.2,3,5,7,0,2026-05-13T05:32:26.349857+05:30
Patiala,Punjab,30.3398,76.3869,25.1,75,0.0,973.9,7.6,46.8,350,254.3,86.4,11.6,614.0,87.0,11.5,7,5,7,1,2026-05-13T05:32:26.349865+05:30
Bhatinda,Punjab,30.211,74.9455,26.4,66,0.0,978.7,8.25,41.4,416,162.5,78.2,12.3,502.0,66.0,12.9,7,5,7,1,2026-05-13T05:32:26.349871+05:30
Rohtak,Haryana,28.8955,76.6066,25.4,71,0.0,977.5,7.7,40.0,516,451.7,92.4,17.3,645.0,88.0,22.2,7,5,7,1,2026-05-13T05:32:26.349878+05:30
Panipat,Haryana,29.3909,76.9635,25.0,77,0.0,976.3,7.55,41.8,715,347.4,82.4,18.5,519.0,74.0,15.6,7,5,7,1,2026-05-13T05:32:26.349884+05:30
Mathura,Uttar Pradesh,27.4924,77.6737,26.6,63,0.0,981.9,7.95,62.3,614,909.0,136.0,6.1,451.0,107.0,14.2,7,5,7,1,2026-05-13T05:32:26.349891+05:30
Vrindavan,Uttar Pradesh,27.5823,77.7027,26.5,65,0.0,982.4,7.95,61.6,614,909.0,136.0,6.1,455.0,107.0,14.2,7,5,7,1,2026-05-13T05:32:26.349897+05:30
Ayodhya,Uttar Pradesh,26.7922,82.1998,25.9,79,0.0,992.9,8.3,30.6,133,52.7,50.1,11.3,478.0,105.0,10.7,7,5,7,1,2026-05-13T05:32:26.349904+05:30
Ratlam,Madhya Pradesh,23.3315,75.0367,31.1,26,0.0,950.3,8.55,39.2,67,28.7,18.6,4.3,209.0,83.0,4.2,0,5,7,0,2026-05-13T05:32:26.349911+05:30
Sagar,Madhya Pradesh,23.8388,78.7378,29.7,33,0.0,945.8,8.75,40.7,88,85.9,32.2,18.9,268.0,49.0,5.6,4,5,7,0,2026-05-13T05:32:26.349917+05:30
Satna,Madhya Pradesh,24.6005,80.8322,27.9,49,0.0,966.9,8.65,48.2,108,52.3,40.9,10.8,408.0,101.0,16.6,4,5,7,1,2026-05-13T05:32:26.349923+05:30
Akola,Maharashtra,20.7002,77.0082,32.8,39,0.0,971.3,8.95,32.4,85,76.6,39.2,27.3,325.0,47.0,6.0,0,5,7,1,2026-05-13T05:32:26.349931+05:30
Amravati,Maharashtra,20.9374,77.7796,31.6,41,0.0,964.0,8.95,27.7,87,67.5,38.2,28.6,309.0,49.0,6.8,0,5,7,1,2026-05-13T05:32:26.349938+05:30
Latur,Maharashtra,18.4088,76.5604,29.7,45,0.0,936.8,8.4,32.0,72,32.0,22.6,10.1,285.0,86.0,7.0,4,5,7,1,2026-05-13T05:32:26.349946+05:30
Nanded,Maharashtra,19.1383,77.3091,30.1,50,0.0,965.3,8.8,28.4,73,35.3,26.0,11.3,313.0,76.0,6.4,0,5,7,1,2026-05-13T05:32:26.349952+05:30
Gulbarga,Karnataka,17.3297,76.8343,29.1,51,0.0,955.7,9.1,27.7,69,20.1,15.9,10.4,196.0,62.0,7.2,4,5,7,1,2026-05-13T05:32:26.349958+05:30
Bidar,Karnataka,17.9104,77.5199,26.8,60,0.0,932.6,9.15,33.8,72,23.2,19.7,10.3,241.0,67.0,5.3,4,5,7,1,2026-05-13T05:32:26.349964+05:30
Hospet,Karnataka,15.2689,76.3909,25.6,87,0.0,952.8,9.2,44.3,77,37.0,27.8,26.2,222.0,28.0,4.6,7,5,7,1,2026-05-13T05:32:26.349971+05:30
Tirupur,Tamil Nadu,11.1085,77.3411,25.3,87,0.0,971.6,9.2,38.2,91,44.6,38.5,35.8,214.0,34.0,7.9,7,5,7,1,2026-05-13T05:32:26.349977+05:30
Alappuzha,Kerala,9.4981,76.3388,26.4,90,0.0,1005.4,8.4,33.5,75,37.6,26.8,11.6,261.0,63.0,4.5,7,5,4,1,2026-05-13T05:32:26.349983+05:30
Munnar,Kerala,10.0889,77.0595,16.2,82,0.0,852.9,9.45,27.0,72,25.8,23.2,9.2,247.0,36.0,0.4,3,10,7,0,2026-05-13T05:32:26.349990+05:30
Silchar,Assam,24.8333,92.7789,24.1,82,0.0,1004.7,8.7,23.0,110,64.7,59.5,20.8,436.0,68.0,8.4,3,5,4,1,2026-05-13T05:32:26.349997+05:30
Dibrugarh,Assam,27.4728,94.912,22.6,90,0.1,996.0,8.85,23.4,81,33.6,31.5,20.1,263.0,38.0,1.1,6,5,7,1,2026-05-13T05:32:26.350003+05:30
