city,state,latitude,longitude,temp,humidity,rain,pressure,uv_index,wind_gusts,aqi,pm10,pm2_5,mosquito_risk,arthritis_risk,migraine_risk,frizz_risk,updated_at
Delhi,Delhi,28.6139,77.209,29.8,54,0.0,986.8,5.9,19.4,361,206.8,75.2,4,5,3,1,2026-03-06T12:25:21.921603+05:30
Mumbai,Maharashtra,19.076,72.8777,28.8,62,0.0,1010.8,7.4,23.8,100,50.5,49.1,7,0,4,1,2026-03-06T12:25:21.921643+05:30
Bangalore,Karnataka,12.9716,77.5946,30.5,38,0.0,914.0,9.15,22.0,101,34.7,31.4,0,5,7,0,2026-03-06T12:25:21.921659+05:30
Hyderabad,Telangana,17.385,78.4867,35.4,17,0.0,955.8,8.45,23.4,101,15.5,12.8,0,5,10,0,2026-03-06T12:25:21.921669+05:30
Chennai,Tamil Nadu,13.0827,80.2707,34.8,41,0.0,1009.0,8.9,31.3,74,34.1,31.3,0,0,4,1,2026-03-06T12:25:21.921678+05:30
Kolkata,West Bengal,22.5726,88.3639,30.6,52,0.0,1008.8,7.8,15.8,165,80.6,56.2,0,0,4,1,2026-03-06T12:25:21.921686+05:30
Pune,Maharashtra,18.5204,73.8567,35.0,20,0.0,951.9,8.0,27.7,93,19.8,17.2,0,5,7,0,2026-03-06T12:25:21.921697+05:30
Ahmedabad,Gujarat,23.0225,72.5714,32.0,41,0.0,1006.9,7.25,20.5,71,25.4,15.8,0,5,4,1,2026-03-06T12:25:21.921705+05:30
Jaipur,Rajasthan,26.9124,75.7873,34.5,18,0.0,964.1,6.7,25.2,99,215.6,34.5,0,5,7,0,2026-03-06T12:25:21.921712+05:30
Lucknow,Uttar Pradesh,26.8467,80.9462,30.3,48,0.0,997.6,6.4,22.3,168,141.1,73.6,0,5,7,1,2026-03-06T12:25:21.921720+05:30
Kanpur,Uttar Pradesh,26.4499,80.3319,30.1,56,0.0,995.7,6.4,13.3,168,228.2,83.1,0,5,7,1,2026-03-06T12:25:21.921728+05:30
Chandigarh,Chandigarh,30.7333,76.7794,28.7,57,0.0,972.1,5.8,16.2,114,75.9,46.1,4,5,3,1,2026-03-06T12:25:21.921736+05:30
Srinagar,Jammu and Kashmir,34.0837,74.7973,18.8,50,0.0,846.8,6.75,17.6,136,51.8,30.9,0,5,7,0,2026-03-06T12:25:21.921743+05:30
Jammu,Jammu and Kashmir,32.7266,74.857,29.3,52,0.0,975.4,6.4,17.3,122,54.7,31.4,4,5,7,1,2026-03-06T12:25:21.921750+05:30
Amritsar,Punjab,31.634,74.8723,30.2,58,0.0,983.5,6.05,12.2,157,96.9,76.1,0,5,7,1,2026-03-06T12:25:21.921757+05:30
Ludhiana,Punjab,30.901,75.8573,30.3,53,0.0,981.7,6.05,15.1,163,106.6,85.7,0,5,7,1,2026-03-06T12:25:21.921763+05:30
Jalandhar,Punjab,31.326,75.5762,29.9,56,0.0,982.8,6.2,14.0,164,97.8,76.6,4,5,7,1,2026-03-06T12:25:21.921772+05:30
Dehradun,Uttarakhand,30.6284,78.0322,21.4,60,0.0,834.5,6.15,27.0,79,26.1,16.2,0,5,7,0,2026-03-06T12:25:21.921779+05:30
Shimla,Himachal Pradesh,31.1048,77.1734,22.6,40,0.0,790.6,6.25,32.8,75,24.3,11.6,0,5,7,0,2026-03-06T12:25:21.921786+05:30
Manali,Himachal Pradesh,32.2396,77.1887,26.9,13,0.0,826.6,7.95,37.8,65,25.5,14.0,4,5,7,1,2026-03-06T12:25:21.921792+05:30
Gurgaon,Haryana,28.4595,77.0266,29.9,54,0.0,985.2,6.0,17.6,1011,292.4,78.9,4,5,3,1,2026-03-06T12:25:21.921800+05:30
Noida,Uttar Pradesh,28.5355,77.391,30.3,53,0.0,988.2,5.9,17.3,1011,292.4,78.9,0,5,3,1,2026-03-06T12:25:21.921807+05:30
Ghaziabad,Uttar Pradesh,28.6692,77.4538,29.1,61,0.0,986.4,5.9,14.8,270,237.5,88.0,7,5,3,1,2026-03-06T12:25:21.921814+05:30
Faridabad,Haryana,28.4089,77.3178,29.7,56,0.0,987.5,5.95,16.9,1011,292.4,78.9,4,5,3,1,2026-03-06T12:25:21.921821+05:30
Meerut,Uttar Pradesh,28.9845,77.7064,29.1,59,0.0,985.2,5.75,14.8,270,237.5,88.0,4,5,3,1,2026-03-06T12:25:21.921827+05:30
Agra,Uttar Pradesh,27.1767,78.0081,32.5,39,0.0,991.7,6.25,19.4,508,326.9,84.5,0,5,7,1,2026-03-06T12:25:21.921834+05:30
Varanasi,Uttar Pradesh,25.3176,82.9739,30.0,51,0.0,1001.2,7.1,17.6,166,155.5,66.1,4,5,4,1,2026-03-06T12:25:21.921844+05:30
Prayagraj,Uttar Pradesh,25.4358,81.8463,29.5,54,0.0,999.8,6.95,16.2,170,171.4,72.4,4,5,7,1,2026-03-06T12:25:21.921851+05:30
Gorakhpur,Uttar Pradesh,26.7606,83.3732,30.1,48,0.0,1001.6,6.8,19.1,171,82.9,62.6,0,5,4,1,2026-03-06T12:25:21.921858+05:30
Bareilly,Uttar Pradesh,28.367,79.4304,29.2,59,0.0,990.8,6.1,14.4,164,112.7,79.4,4,5,7,1,2026-03-06T12:25:21.921864+05:30
Aligarh,Uttar Pradesh,27.8974,78.088,30.6,54,0.0,989.3,6.05,16.6,606,214.2,78.7,0,5,7,1,2026-03-06T12:25:21.921873+05:30
Moradabad,Uttar Pradesh,28.8386,78.7733,28.8,60,0.0,987.5,5.9,18.7,169,113.4,78.9,4,5,3,1,2026-03-06T12:25:21.921880+05:30
Saharanpur,Uttar Pradesh,29.9637,77.546,27.8,64,0.0,979.4,5.55,19.8,160,149.5,75.9,7,5,3,1,2026-03-06T12:25:21.921886+05:30
Jhansi,Uttar Pradesh,25.4484,78.5685,34.3,29,0.0,981.7,6.85,25.2,63,69.2,21.9,0,5,7,0,2026-03-06T12:25:25.249369+05:30
Surat,Gujarat,21.1702,72.8311,31.7,47,0.0,1010.8,7.15,22.7,123,44.5,42.5,0,0,4,1,2026-03-06T12:25:25.249399+05:30
Vadodara,Gujarat,22.3072,73.1812,33.9,38,0.0,1008.9,7.25,18.0,98,33.3,26.2,0,0,4,1,2026-03-06T12:25:25.249409+05:30
Rajkot,Gujarat,22.3039,70.8022,29.5,50,0.0,999.1,7.1,22.0,58,28.3,14.2,4,5,7,1,2026-03-06T12:25:25.249417+05:30
Thane,Maharashtra,19.2183,72.9781,34.9,28,0.0,1010.3,7.4,35.6,100,50.5,49.1,0,0,4,0,2026-03-06T12:25:25.249424+05:30
Nagpur,Maharashtra,21.1458,79.0882,35.6,21,0.0,976.2,7.8,25.9,57,30.2,14.1,0,5,10,0,2026-03-06T12:25:25.249432+05:30
Nashik,Maharashtra,19.9975,73.7898,33.4,19,0.0,949.6,7.6,31.7,70,18.3,15.4,0,5,7,0,2026-03-06T12:25:25.249439+05:30
Aurangabad,Maharashtra,19.8762,75.3433,34.1,19,0.0,948.1,8.15,22.7,65,18.4,14.3,0,5,7,0,2026-03-06T12:25:25.249446+05:30
Solapur,Maharashtra,17.6599,75.9064,34.0,26,0.0,960.2,8.4,20.2,71,18.0,14.4,0,5,7,0,2026-03-06T12:25:25.249454+05:30
Kolhapur,Maharashtra,16.705,74.2433,33.7,22,0.0,950.6,8.55,31.7,149,23.1,20.7,0,5,7,0,2026-03-06T12:25:25.249461+05:30
Goa,Goa,15.2993,74.124,31.1,62,0.0,999.6,8.55,32.4,157,64.7,62.4,3,5,7,1,2026-03-06T12:25:25.249468+05:30
Jodhpur,Rajasthan,26.2389,73.0243,31.9,33,0.0,987.9,6.95,23.0,61,30.3,13.7,0,5,7,0,2026-03-06T12:25:25.249475+05:30
Udaipur,Rajasthan,24.5854,73.7125,33.1,16,0.0,951.3,7.6,20.2,41,10.5,9.7,0,5,7,0,2026-03-06T12:25:25.249482+05:30
Kota,Rajasthan,25.2138,75.8648,33.7,24,0.0,983.2,7.0,17.3,75,27.1,11.4,0,5,7,0,2026-03-06T12:25:25.249489+05:30
Bikaner,Rajasthan,28.0229,73.3119,31.8,21,0.0,986.0,6.65,23.0,58,27.6,10.4,0,5,7,0,2026-03-06T12:25:25.249496+05:30
Ajmer,Rajasthan,26.4499,74.6399,31.9,26,0.0,959.5,6.95,26.3,60,79.6,17.2,0,5,7,0,2026-03-06T12:25:25.249503+05:30
Gwalior,Madhya Pradesh,26.2183,78.1828,32.3,39,0.0,987.0,6.6,20.5,88,51.9,19.1,0,5,7,1,2026-03-06T12:25:25.249510+05:30
Indore,Madhya Pradesh,22.7196,75.8577,32.9,22,0.0,952.7,7.55,22.3,70,13.5,11.7,0,5,7,0,2026-03-06T12:25:25.249517+05:30
Bhopal,Madhya Pradesh,23.2599,77.4126,33.6,25,0.0,958.0,7.4,24.8,71,44.5,15.4,0,5,7,0,2026-03-06T12:25:25.249524+05:30
Jabalpur,Madhya Pradesh,23.1815,79.9864,32.1,35,0.0,965.0,7.5,27.4,65,49.7,20.0,0,5,7,0,2026-03-06T12:25:25.249530+05:30
Ujjain,Madhya Pradesh,23.1765,75.7885,32.5,26,0.0,958.5,7.45,20.2,77,12.6,11.6,0,5,7,0,2026-03-06T12:25:25.249537+05:30
Visakhapatnam,Andhra Pradesh,17.6868,83.2185,33.2,53,0.0,1004.9,8.45,36.7,145,56.0,52.0,0,5,4,1,2026-03-06T12:25:25.249544+05:30
Vijayawada,Andhra Pradesh,16.5062,80.648,34.5,37,0.0,1003.8,8.55,15.1,135,39.9,36.6,0,5,4,1,2026-03-06T12:25:25.249551+05:30
Guntur,Andhra Pradesh,16.3067,80.4365,35.3,33,0.0,1005.0,8.55,15.8,113,36.4,33.8,0,5,7,1,2026-03-06T12:25:25.249558+05:30
Nellore,Andhra Pradesh,14.4426,79.9865,36.6,27,0.0,1006.9,8.75,28.4,88,31.9,29.5,0,5,7,0,2026-03-06T12:25:25.249566+05:30
Kurnool,Andhra Pradesh,15.8281,78.0373,37.3,16,0.0,978.7,8.55,24.5,73,27.3,23.7,0,5,10,0,2026-03-06T12:25:25.249574+05:30
Kakinada,Andhra Pradesh,16.9891,82.2475,35.2,44,0.0,1008.1,8.5,32.0,117,33.5,29.0,0,0,7,1,2026-03-06T12:25:25.249580+05:30
Tirupati,Andhra Pradesh,13.6288,79.4192,36.1,25,0.0,992.9,8.85,30.6,109,34.3,31.4,0,5,10,0,2026-03-06T12:25:25.249586+05:30
Warangal,Telangana,17.9689,79.5941,34.6,29,0.0,981.0,8.3,25.9,80,26.9,20.7,0,5,7,0,2026-03-06T12:25:25.249593+05:30
Nizamabad,Telangana,18.6725,78.0941,34.4,24,0.0,968.0,8.2,32.0,87,29.2,19.7,0,5,7,0,2026-03-06T12:25:25.249599+05:30
Mysore,Karnataka,12.2958,76.6396,31.7,35,0.0,930.5,9.2,35.6,121,39.7,38.0,0,5,7,0,2026-03-06T12:25:25.249606+05:30
Mangalore,Karnataka,12.9141,74.856,28.8,79,0.0,1008.0,8.8,23.4,125,54.7,51.6,7,0,4,1,2026-03-06T12:25:25.249613+05:30
Hubli-Dharwad,Karnataka,15.3647,75.124,34.8,19,0.0,942.9,8.75,37.1,92,28.5,26.3,0,5,7,0,2026-03-06T12:25:25.249620+05:30
Belgaum,Karnataka,15.8497,74.4977,33.7,18,0.0,928.4,8.8,40.0,118,23.6,21.5,0,5,7,0,2026-03-06T12:25:28.584056+05:30
Coimbatore,Tamil Nadu,11.0168,76.9558,32.6,42,0.0,963.8,9.15,44.3,114,37.7,35.4,0,5,7,1,2026-03-06T12:25:28.584086+05:30
Madurai,Tamil Nadu,9.9252,78.1198,33.0,45,0.0,994.9,9.15,33.8,90,31.3,26.5,0,5,7,1,2026-03-06T12:25:28.584096+05:30
Trichy,Tamil Nadu,10.7905,78.7047,34.0,42,0.0,1001.5,9.05,25.2,85,30.2,26.4,0,5,4,1,2026-03-06T12:25:28.584104+05:30
Salem,Tamil Nadu,11.6643,78.146,33.9,39,0.0,979.1,9.05,15.8,98,38.3,33.4,0,5,7,1,2026-03-06T12:25:28.584111+05:30
Tirunelveli,Tamil Nadu,8.7139,77.7567,36.0,30,0.0,1004.7,9.15,49.3,91,32.4,26.4,0,5,7,0,2026-03-06T12:25:28.584118+05:30
Vellore,Tamil Nadu,12.9165,79.1325,35.4,27,0.0,986.0,8.95,32.4,117,36.8,33.3,0,5,10,0,2026-03-06T12:25:28.584126+05:30
Erode,Tamil Nadu,11.341,77.7172,34.6,40,0.0,990.5,9.05,19.4,94,38.1,34.0,0,5,7,1,2026-03-06T12:25:28.584133+05:30
Kochi,Kerala,9.9312,76.2673,27.9,81,0.0,1010.4,9.0,33.8,137,41.2,39.0,7,0,4,1,2026-03-06T12:25:28.584140+05:30
Thiruvananthapuram,Kerala,8.5241,76.9366,28.1,78,0.0,1009.8,9.0,33.1,84,27.1,24.7,7,0,4,1,2026-03-06T12:25:28.584147+05:30
Kozhikode,Kerala,11.2588,75.7804,29.7,73,0.0,1009.4,8.85,27.7,111,43.7,40.9,7,0,4,1,2026-03-06T12:25:28.584153+05:30
Thrissur,Kerala,10.5276,76.2144,31.5,65,0.0,1008.6,8.95,34.6,126,42.4,40.2,3,0,4,1,2026-03-06T12:25:28.584161+05:30
Kannur,Kerala,11.8745,75.3704,31.7,62,0.0,1008.6,8.85,32.0,114,44.0,41.4,3,0,4,1,2026-03-06T12:25:28.584168+05:30
Patna,Bihar,25.5941,85.1376,30.6,47,0.0,1004.3,7.25,21.6,164,90.3,72.2,0,5,4,1,2026-03-06T12:25:28.584175+05:30
Gaya,Bihar,24.7914,85.0002,29.5,61,0.0,996.9,7.35,21.6,155,95.5,68.7,7,5,7,1,2026-03-06T12:25:28.584181+05:30
Muzaffarpur,Bihar,26.1209,85.3647,31.1,44,0.0,1004.5,7.2,20.5,170,87.1,70.8,0,5,4,1,2026-03-06T12:25:28.584188+05:30
Bhagalpur,Bihar,25.2425,87.0117,30.5,49,0.0,1004.9,7.3,17.3,161,72.2,60.1,0,5,4,1,2026-03-06T12:25:28.584194+05:30
Ranchi,Jharkhand,23.3441,85.3096,29.6,36,0.0,940.3,8.0,31.0,134,88.5,55.1,4,5,7,0,2026-03-06T12:25:28.584201+05:30
Jamshedpur,Jharkhand,22.8046,86.2029,31.6,43,0.0,993.2,7.9,24.5,152,95.0,53.7,0,5,7,1,2026-03-06T12:25:28.584207+05:30
Dhanbad,Jharkhand,23.7957,86.4304,32.6,31,0.0,982.6,7.75,27.4,171,99.7,73.6,0,5,7,0,2026-03-06T12:25:28.584214+05:30
Bokaro,Jharkhand,23.6693,86.1511,31.6,32,0.0,986.5,7.75,29.5,175,106.6,72.9,0,5,7,0,2026-03-06T12:25:28.584220+05:30
Bhubaneswar,Odisha,20.2961,85.8245,32.9,48,0.0,1004.1,8.2,31.7,146,73.1,52.5,0,5,4,1,2026-03-06T12:25:28.584227+05:30
Cuttack,Odisha,20.4625,85.8828,33.4,46,0.0,1006.1,8.2,35.6,146,73.1,52.5,0,5,4,1,2026-03-06T12:25:28.584233+05:30
Rourkela,Odisha,22.2604,84.8536,33.5,31,0.0,986.6,7.8,11.9,130,109.2,64.7,0,5,7,0,2026-03-06T12:25:28.584239+05:30
Raipur,Chhattisgarh,21.2514,81.6296,35.1,23,0.0,977.0,7.9,23.0,86,58.8,25.3,0,5,10,0,2026-03-06T12:25:28.584246+05:30
Bhilai,Chhattisgarh,21.1938,81.3509,35.9,23,0.0,977.3,7.95,25.6,76,48.0,24.2,0,5,10,0,2026-03-06T12:25:28.584252+05:30
Guwahati,Assam,26.1158,91.7086,31.3,50,0.0,1004.4,7.25,21.2,152,60.3,52.4,0,5,4,1,2026-03-06T12:25:28.584258+05:30
Agartala,Tripura,23.8315,91.2868,31.8,51,0.0,1008.6,7.55,16.9,160,66.4,52.4,0,0,4,1,2026-03-06T12:25:28.584264+05:30
Shillong,Meghalaya,25.5788,91.8933,21.0,40,0.0,860.6,7.6,33.1,128,43.0,36.0,0,5,7,0,2026-03-06T12:25:28.584270+05:30
Imphal,Manipur,24.817,93.9368,25.8,38,0.0,926.5,7.8,34.6,152,39.6,35.5,4,5,7,0,2026-03-06T12:25:28.584276+05:30
Aizawl,Mizoram,23.7271,92.7176,27.5,37,0.0,896.4,7.75,33.1,176,74.3,65.7,4,5,7,0,2026-03-06T12:25:28.584283+05:30
Kohima,Nagaland,25.6701,94.1077,20.6,56,0.0,858.9,7.65,41.8,151,56.5,50.1,0,5,7,0,2026-03-06T12:25:28.584289+05:30
Gangtok,Sikkim,27.3314,88.6138,18.5,70,0.0,841.8,7.55,16.9,99,42.6,37.0,3,5,7,0,2026-03-06T12:25:28.584295+05:30
Siliguri,West Bengal,26.7271,88.3953,25.3,59,0.0,998.2,7.2,15.1,136,55.8,45.4,4,5,7,1,2026-03-06T12:25:31.917890+05:30
Durgapur,West Bengal,23.5204,87.3119,33.1,31,0.0,997.8,7.75,24.1,162,88.2,65.9,0,5,7,0,2026-03-06T12:25:31.917924+05:30
Asansol,West Bengal,23.6739,86.9524,33.3,31,0.0,996.3,7.75,21.6,161,92.0,70.1,0,5,7,0,2026-03-06T12:25:31.917937+05:30
Pondicherry,Puducherry,11.9139,79.8145,34.2,43,0.0,1009.9,8.9,27.0,66,31.7,29.0,0,0,4,1,2026-03-06T12:25:31.917946+05:30
Port Blair,Andaman and Nicobar Islands,11.6234,92.7265,27.4,66,0.0,1009.0,8.85,14.4,51,23.0,14.5,7,0,4,1,2026-03-06T12:25:31.917956+05:30
Haridwar,Uttarakhand,29.9457,78.1642,28.4,58,0.0,978.1,5.65,22.7,152,133.6,71.0,4,5,3,1,2026-03-06T12:25:31.917987+05:30
Rishikesh,Uttarakhand,30.0869,78.2676,28.4,55,0.0,970.7,5.7,23.0,144,109.7,61.0,4,5,3,1,2026-03-06T12:25:31.917996+05:30
Nainital,Uttarakhand,29.3919,79.4542,21.3,62,0.0,810.5,6.5,46.4,159,102.7,62.4,3,5,7,0,2026-03-06T12:25:31.918005+05:30
Mussoorie,Uttarakhand,30.4599,78.0664,20.3,70,0.0,806.9,6.05,40.3,135,107.8,54.1,3,5,7,0,2026-03-06T12:25:31.918014+05:30
Dharamshala,Himachal Pradesh,32.219,76.3234,26.0,43,0.0,873.2,5.6,20.9,56,20.4,8.7,4,5,3,0,2026-03-06T12:25:31.918022+05:30
Dalhousie,Himachal Pradesh,32.5387,75.971,26.1,25,0.0,809.5,5.75,22.3,93,43.0,21.9,4,5,3,0,2026-03-06T12:25:31.918032+05:30
Patiala,Punjab,30.3398,76.3869,29.9,57,0.0,981.4,5.7,12.6,167,154.6,75.2,4,5,3,1,2026-03-06T12:25:31.918040+05:30
Bhatinda,Punjab,30.211,74.9455,31.4,44,0.0,986.8,6.4,18.0,151,58.1,48.9,0,5,7,1,2026-03-06T12:25:31.918050+05:30
Rohtak,Haryana,28.8955,76.6066,30.1,52,0.0,985.5,5.9,19.4,436,149.5,55.4,0,5,3,1,2026-03-06T12:25:31.918059+05:30
Panipat,Haryana,29.3909,76.9635,29.6,59,0.0,983.9,5.7,14.0,854,243.1,82.0,4,5,3,1,2026-03-06T12:25:31.918067+05:30
Mathura,Uttar Pradesh,27.4924,77.6737,31.6,41,0.0,990.8,6.2,19.1,576,273.8,73.3,0,5,7,1,2026-03-06T12:25:31.918074+05:30
Vrindavan,Uttar Pradesh,27.5823,77.7027,31.1,46,0.0,991.2,6.15,17.6,576,273.8,73.3,0,5,7,1,2026-03-06T12:25:31.918080+05:30
Ayodhya,Uttar Pradesh,26.7922,82.1998,29.9,49,0.0,999.7,6.55,19.8,167,112.0,68.7,4,5,7,1,2026-03-06T12:25:31.918087+05:30
Ratlam,Madhya Pradesh,23.3315,75.0367,31.2,31,0.0,959.4,7.4,21.2,67,11.6,9.7,0,5,7,0,2026-03-06T12:25:31.918094+05:30
Sagar,Madhya Pradesh,23.8388,78.7378,33.2,28,0.0,954.1,7.35,22.0,58,49.7,14.3,0,5,7,0,2026-03-06T12:25:31.918100+05:30
Satna,Madhya Pradesh,24.6005,80.8322,32.8,38,0.0,974.5,7.3,32.4,83,319.4,66.1,0,5,7,1,2026-03-06T12:25:31.918108+05:30
Akola,Maharashtra,20.7002,77.0082,35.3,25,0.0,978.8,7.85,18.7,77,29.7,18.6,0,5,10,0,2026-03-06T12:25:31.918116+05:30
Amravati,Maharashtra,20.9374,77.7796,36.1,19,0.0,970.8,7.8,15.5,76,29.5,16.5,0,5,10,0,2026-03-06T12:25:31.918124+05:30
Latur,Maharashtra,18.4088,76.5604,33.4,22,0.0,943.3,8.3,31.7,75,22.9,18.2,0,5,7,0,2026-03-06T12:25:31.918131+05:30
Nanded,Maharashtra,19.1383,77.3091,36.1,22,0.0,971.8,8.1,21.2,92,24.9,16.3,0,5,10,0,2026-03-06T12:25:31.918137+05:30
Gulbarga,Karnataka,17.3297,76.8343,36.1,15,0.0,961.3,8.4,33.1,76,16.7,13.1,0,5,10,0,2026-03-06T12:25:31.918143+05:30
Bidar,Karnataka,17.9104,77.5199,34.1,19,0.0,938.6,8.35,32.8,78,19.5,14.5,0,5,7,0,2026-03-06T12:25:31.918150+05:30
Hospet,Karnataka,15.2689,76.3909,33.8,28,0.0,958.0,8.75,23.0,101,28.6,25.6,0,5,7,0,2026-03-06T12:25:31.918156+05:30
Tirupur,Tamil Nadu,11.1085,77.3411,34.4,35,0.0,977.0,9.2,32.4,122,44.4,41.0,0,5,7,1,2026-03-06T12:25:31.918162+05:30
Alappuzha,Kerala,9.4981,76.3388,27.8,80,0.0,1010.5,8.95,30.6,118,35.5,33.3,7,0,4,1,2026-03-06T12:25:31.918169+05:30
Munnar,Kerala,10.0889,77.0595,27.9,47,0.0,860.1,9.5,29.5,95,29.2,26.2,4,5,7,0,2026-03-06T12:25:31.918176+05:30
Silchar,Assam,24.8333,92.7789,32.8,42,0.0,1007.3,7.55,12.6,165,65.2,56.6,0,5,4,1,2026-03-06T12:25:31.918182+05:30
Dibrugarh,Assam,27.4728,94.912,28.8,54,0.0,998.5,7.25,14.4,109,37.7,32.1,4,5,7,1,2026-03-06T12:25:31.918189+05:30
