city,state,latitude,longitude,temp,humidity,rain,pressure,uv_index,wind_gusts,aqi,pm10,pm2_5,mosquito_risk,arthritis_risk,migraine_risk,frizz_risk,updated_at
Delhi,Delhi,28.6139,77.209,29.9,38,0.0,986.3,5.95,24.1,187,219.8,53.0,4,5,3,0,2026-03-18T13:25:26.939319+05:30
Mumbai,Maharashtra,19.076,72.8777,26.6,74,0.0,1009.8,7.7,22.3,80,62.4,42.3,7,0,4,1,2026-03-18T13:25:26.939360+05:30
Bangalore,Karnataka,12.9716,77.5946,29.9,36,0.0,913.5,9.35,27.7,103,36.7,31.2,4,5,7,0,2026-03-18T13:25:26.939375+05:30
Hyderabad,Telangana,17.385,78.4867,30.4,31,0.0,955.8,7.45,29.5,78,30.4,23.5,0,5,7,0,2026-03-18T13:25:26.939386+05:30
Chennai,Tamil Nadu,13.0827,80.2707,31.9,55,0.0,1009.6,9.1,32.0,38,11.1,7.4,0,0,4,1,2026-03-18T13:25:26.939394+05:30
Kolkata,West Bengal,22.5726,88.3639,31.1,61,0.0,1007.7,7.85,34.9,55,45.6,36.6,3,5,4,1,2026-03-18T13:25:26.939403+05:30
Pune,Maharashtra,18.5204,73.8567,34.5,22,0.0,949.0,8.25,41.8,103,33.9,24.9,0,5,7,0,2026-03-18T13:25:26.939414+05:30
Ahmedabad,Gujarat,23.0225,72.5714,34.8,32,0.0,1003.5,7.55,23.0,73,33.5,13.6,0,5,4,0,2026-03-18T13:25:26.939422+05:30
Jaipur,Rajasthan,26.9124,75.7873,32.6,27,0.0,962.1,7.0,30.2,183,220.7,43.2,0,5,7,0,2026-03-18T13:25:26.939429+05:30
Lucknow,Uttar Pradesh,26.8467,80.9462,33.7,27,0.0,996.2,6.5,23.4,93,59.8,21.0,0,5,7,0,2026-03-18T13:25:26.939436+05:30
Kanpur,Uttar Pradesh,26.4499,80.3319,34.1,28,0.0,994.1,6.6,23.8,98,97.1,25.0,0,5,7,0,2026-03-18T13:25:26.939443+05:30
Chandigarh,Chandigarh,30.7333,76.7794,26.0,51,0.0,973.1,5.4,27.4,94,61.5,19.3,4,5,3,0,2026-03-18T13:25:26.939451+05:30
Srinagar,Jammu and Kashmir,34.0837,74.7973,9.0,75,0.0,843.4,4.45,23.4,142,62.4,33.9,3,5,3,0,2026-03-18T13:25:26.939458+05:30
Jammu,Jammu and Kashmir,32.7266,74.857,21.8,73,0.0,977.4,2.7,19.8,93,58.7,23.5,3,5,3,1,2026-03-18T13:25:26.939465+05:30
Amritsar,Punjab,31.634,74.8723,20.5,67,0.0,986.4,3.95,22.3,126,77.5,29.7,3,5,3,0,2026-03-18T13:25:26.939472+05:30
Ludhiana,Punjab,30.901,75.8573,22.7,59,0.0,983.9,5.65,29.5,137,70.1,42.3,0,5,3,0,2026-03-18T13:25:26.939478+05:30
Jalandhar,Punjab,31.326,75.5762,20.0,62,0.0,985.2,5.4,32.0,128,75.9,31.4,3,5,3,0,2026-03-18T13:25:26.939487+05:30
Dehradun,Uttarakhand,30.6284,78.0322,17.6,39,0.0,832.9,5.3,25.9,51,46.9,8.7,0,5,3,0,2026-03-18T13:25:26.939496+05:30
Shimla,Himachal Pradesh,31.1048,77.1734,15.5,46,0.0,786.9,4.9,36.4,63,35.7,8.0,0,5,3,0,2026-03-18T13:25:26.939502+05:30
Manali,Himachal Pradesh,32.2396,77.1887,11.8,81,0.0,821.0,6.45,25.9,44,22.0,6.4,3,10,7,0,2026-03-18T13:25:26.939510+05:30
Gurgaon,Haryana,28.4595,77.0266,30.4,39,0.0,984.7,6.25,23.4,595,681.7,103.1,0,5,7,0,2026-03-18T13:25:26.939517+05:30
Noida,Uttar Pradesh,28.5355,77.391,30.6,36,0.0,987.8,6.2,23.8,595,681.7,103.1,0,5,7,0,2026-03-18T13:25:26.939524+05:30
Ghaziabad,Uttar Pradesh,28.6692,77.4538,29.4,41,0.0,986.2,6.1,19.8,153,155.1,44.8,4,5,7,0,2026-03-18T13:25:26.939530+05:30
Faridabad,Haryana,28.4089,77.3178,31.1,37,0.0,986.8,6.25,26.6,595,681.7,103.1,0,5,7,0,2026-03-18T13:25:26.939537+05:30
Meerut,Uttar Pradesh,28.9845,77.7064,29.9,36,0.0,985.0,5.5,18.7,153,155.1,44.8,4,5,3,0,2026-03-18T13:25:26.939544+05:30
Agra,Uttar Pradesh,27.1767,78.0081,33.5,34,0.0,990.4,6.55,29.9,383,275.7,52.9,0,5,7,0,2026-03-18T13:25:26.939550+05:30
Varanasi,Uttar Pradesh,25.3176,82.9739,34.7,32,0.0,998.8,6.65,28.4,96,54.6,36.3,0,5,7,0,2026-03-18T13:25:26.939559+05:30
Prayagraj,Uttar Pradesh,25.4358,81.8463,33.9,36,0.0,997.5,6.55,23.8,102,54.8,27.9,0,5,7,1,2026-03-18T13:25:26.939567+05:30
Gorakhpur,Uttar Pradesh,26.7606,83.3732,32.8,39,0.0,999.5,6.4,22.7,113,60.3,21.2,0,5,7,1,2026-03-18T13:25:26.939573+05:30
Bareilly,Uttar Pradesh,28.367,79.4304,31.0,35,0.0,990.4,6.35,20.9,115,59.3,28.5,0,5,7,0,2026-03-18T13:25:26.939580+05:30
Aligarh,Uttar Pradesh,27.8974,78.088,32.5,34,0.0,988.6,6.35,23.4,155,127.1,40.5,0,5,7,0,2026-03-18T13:25:26.939589+05:30
Moradabad,Uttar Pradesh,28.8386,78.7733,30.1,36,0.0,987.3,6.05,17.3,150,46.6,32.2,0,5,7,0,2026-03-18T13:25:26.939596+05:30
Saharanpur,Uttar Pradesh,29.9637,77.546,28.5,34,0.0,979.7,5.45,25.6,127,82.7,35.9,4,5,3,0,2026-03-18T13:25:26.939602+05:30
Jhansi,Uttar Pradesh,25.4484,78.5685,35.5,21,0.0,979.7,7.2,35.3,76,60.5,26.7,0,5,10,0,2026-03-18T13:25:30.247508+05:30
Surat,Gujarat,21.1702,72.8311,29.1,58,0.0,1008.8,7.4,28.1,84,46.7,29.0,4,0,4,1,2026-03-18T13:25:30.247538+05:30
Vadodara,Gujarat,22.3072,73.1812,35.1,34,0.0,1005.9,7.55,26.3,68,31.9,16.9,0,5,7,1,2026-03-18T13:25:30.247547+05:30
Rajkot,Gujarat,22.3039,70.8022,35.1,26,0.0,995.3,7.05,42.1,46,20.5,8.5,0,5,10,0,2026-03-18T13:25:30.247555+05:30
Thane,Maharashtra,19.2183,72.9781,30.5,53,0.0,1009.3,7.7,34.9,80,62.4,42.3,0,0,4,1,2026-03-18T13:25:30.247563+05:30
Nagpur,Maharashtra,21.1458,79.0882,32.4,36,0.0,975.4,5.55,40.7,85,47.0,40.5,0,5,3,0,2026-03-18T13:25:30.247570+05:30
Nashik,Maharashtra,19.9975,73.7898,31.6,33,0.0,946.9,7.95,24.5,61,23.1,15.6,0,5,7,0,2026-03-18T13:25:30.247577+05:30
Aurangabad,Maharashtra,19.8762,75.3433,34.2,21,0.0,945.3,8.45,31.7,63,25.6,19.7,0,5,7,0,2026-03-18T13:25:30.247584+05:30
Solapur,Maharashtra,17.6599,75.9064,32.9,32,0.0,958.4,8.6,35.6,104,36.2,30.6,0,5,7,0,2026-03-18T13:25:30.247590+05:30
Kolhapur,Maharashtra,16.705,74.2433,31.9,31,0.0,949.0,8.75,37.4,113,42.1,32.4,0,5,7,0,2026-03-18T13:25:30.247597+05:30
Goa,Goa,15.2993,74.124,32.0,53,0.0,999.1,8.6,26.6,83,53.6,24.1,0,5,7,1,2026-03-18T13:25:30.247603+05:30
Jodhpur,Rajasthan,26.2389,73.0243,34.2,25,0.0,984.1,7.05,43.2,74,65.4,14.6,0,5,7,0,2026-03-18T13:25:30.247609+05:30
Udaipur,Rajasthan,24.5854,73.7125,32.3,20,0.0,948.1,7.95,28.4,40,20.0,5.7,0,5,7,0,2026-03-18T13:25:30.247616+05:30
Kota,Rajasthan,25.2138,75.8648,35.5,19,0.0,980.3,7.35,22.3,86,74.3,29.7,0,5,10,0,2026-03-18T13:25:30.247623+05:30
Bikaner,Rajasthan,28.0229,73.3119,27.4,40,0.0,984.5,5.6,37.8,65,101.0,27.8,4,5,3,0,2026-03-18T13:25:30.247630+05:30
Ajmer,Rajasthan,26.4499,74.6399,32.1,27,0.0,956.5,7.15,37.8,94,125.7,31.8,0,5,7,0,2026-03-18T13:25:30.247637+05:30
Gwalior,Madhya Pradesh,26.2183,78.1828,33.0,30,0.0,985.3,6.9,27.0,135,94.1,30.6,0,5,7,0,2026-03-18T13:25:30.247643+05:30
Indore,Madhya Pradesh,22.7196,75.8577,33.9,19,0.0,949.6,7.85,30.2,55,12.1,10.4,0,5,7,0,2026-03-18T13:25:30.247648+05:30
Bhopal,Madhya Pradesh,23.2599,77.4126,35.3,16,0.0,955.4,7.75,27.4,60,13.4,8.9,0,5,10,0,2026-03-18T13:25:30.247655+05:30
Jabalpur,Madhya Pradesh,23.1815,79.9864,33.8,31,0.0,963.2,6.45,29.9,61,20.4,16.1,0,5,7,0,2026-03-18T13:25:30.247661+05:30
Ujjain,Madhya Pradesh,23.1765,75.7885,33.1,22,0.0,955.5,7.75,21.6,53,9.7,8.2,0,5,7,0,2026-03-18T13:25:30.247669+05:30
Visakhapatnam,Andhra Pradesh,17.6868,83.2185,31.7,48,0.0,1006.8,8.0,33.1,49,11.7,9.5,0,5,4,1,2026-03-18T13:25:30.247676+05:30
Vijayawada,Andhra Pradesh,16.5062,80.648,32.3,47,0.0,1005.4,8.45,19.4,50,9.4,6.8,0,5,4,1,2026-03-18T13:25:30.247683+05:30
Guntur,Andhra Pradesh,16.3067,80.4365,32.8,45,0.0,1006.4,8.65,26.6,45,9.4,6.7,0,5,4,1,2026-03-18T13:25:30.247689+05:30
Nellore,Andhra Pradesh,14.4426,79.9865,33.2,44,0.0,1008.0,8.95,29.9,36,11.8,8.1,0,0,4,1,2026-03-18T13:25:30.247697+05:30
Kurnool,Andhra Pradesh,15.8281,78.0373,33.6,39,0.0,978.5,8.55,42.1,70,17.9,13.8,0,5,7,1,2026-03-18T13:25:30.247704+05:30
Kakinada,Andhra Pradesh,16.9891,82.2475,33.0,46,0.0,1010.3,8.4,28.4,32,6.5,4.6,0,0,4,1,2026-03-18T13:25:30.247710+05:30
Tirupati,Andhra Pradesh,13.6288,79.4192,31.7,45,0.0,993.6,9.1,35.6,65,16.8,13.0,0,5,7,1,2026-03-18T13:25:30.247717+05:30
Warangal,Telangana,17.9689,79.5941,29.2,55,0.0,981.7,8.15,27.0,54,14.6,11.2,4,5,7,1,2026-03-18T13:25:30.247726+05:30
Nizamabad,Telangana,18.6725,78.0941,31.1,34,0.0,967.3,7.85,34.2,109,31.4,26.1,0,5,7,0,2026-03-18T13:25:30.247732+05:30
Mysore,Karnataka,12.2958,76.6396,29.9,42,0.0,929.8,9.3,20.5,99,37.8,33.8,4,5,7,0,2026-03-18T13:25:30.247739+05:30
Mangalore,Karnataka,12.9141,74.856,28.3,79,0.0,1007.7,9.0,19.1,67,27.0,19.8,7,5,4,1,2026-03-18T13:25:30.247745+05:30
Hubli-Dharwad,Karnataka,15.3647,75.124,29.8,43,0.0,942.4,8.95,28.8,108,42.1,36.8,4,5,7,0,2026-03-18T13:25:30.247752+05:30
Belgaum,Karnataka,15.8497,74.4977,29.1,46,0.0,927.3,9.0,27.4,87,38.1,31.1,4,5,7,1,2026-03-18T13:25:33.552510+05:30
Coimbatore,Tamil Nadu,11.0168,76.9558,32.5,40,0.0,962.9,8.95,28.8,91,25.1,22.3,0,5,7,1,2026-03-18T13:25:33.552538+05:30
Madurai,Tamil Nadu,9.9252,78.1198,32.2,51,0.0,994.2,8.1,24.1,67,16.8,14.5,0,5,7,1,2026-03-18T13:25:33.552548+05:30
Trichy,Tamil Nadu,10.7905,78.7047,32.5,51,0.0,1001.0,9.05,24.1,57,14.6,12.2,0,5,4,1,2026-03-18T13:25:33.552556+05:30
Salem,Tamil Nadu,11.6643,78.146,33.9,37,0.0,978.4,7.9,22.0,81,27.9,24.3,0,5,7,1,2026-03-18T13:25:33.552563+05:30
Tirunelveli,Tamil Nadu,8.7139,77.7567,32.8,54,0.0,1004.1,8.25,26.6,73,21.0,19.5,0,5,4,1,2026-03-18T13:25:33.552570+05:30
Vellore,Tamil Nadu,12.9165,79.1325,31.7,43,0.0,986.4,9.15,36.0,66,16.9,13.2,0,5,7,1,2026-03-18T13:25:33.552576+05:30
Erode,Tamil Nadu,11.341,77.7172,34.2,41,0.0,989.9,9.2,26.6,63,15.0,13.0,0,5,7,1,2026-03-18T13:25:33.552583+05:30
Kochi,Kerala,9.9312,76.2673,28.0,78,0.0,1009.3,9.05,22.7,90,24.6,23.0,7,0,4,1,2026-03-18T13:25:33.552590+05:30
Thiruvananthapuram,Kerala,8.5241,76.9366,27.8,82,0.0,1008.6,8.35,16.2,57,14.4,13.3,7,0,4,1,2026-03-18T13:25:33.552597+05:30
Kozhikode,Kerala,11.2588,75.7804,29.5,75,0.0,1008.6,8.65,27.0,79,27.1,24.9,7,0,4,1,2026-03-18T13:25:33.552604+05:30
Thrissur,Kerala,10.5276,76.2144,33.2,55,0.0,1007.5,8.5,31.3,82,25.6,23.6,0,5,4,1,2026-03-18T13:25:33.552611+05:30
Kannur,Kerala,11.8745,75.3704,30.6,67,0.0,1008.2,9.05,28.4,86,24.3,19.8,3,0,4,1,2026-03-18T13:25:33.552618+05:30
Patna,Bihar,25.5941,85.1376,33.5,38,0.0,1002.0,6.75,23.8,140,68.0,38.6,0,5,4,1,2026-03-18T13:25:33.552625+05:30
Gaya,Bihar,24.7914,85.0002,34.6,38,0.0,994.7,6.45,37.8,89,50.4,26.3,0,5,7,1,2026-03-18T13:25:33.552631+05:30
Muzaffarpur,Bihar,26.1209,85.3647,32.4,43,0.0,1002.6,6.95,21.6,151,75.7,48.5,0,5,4,1,2026-03-18T13:25:33.552637+05:30
Bhagalpur,Bihar,25.2425,87.0117,32.5,49,0.0,1002.8,7.0,27.0,151,67.8,44.8,0,5,4,1,2026-03-18T13:25:33.552643+05:30
Ranchi,Jharkhand,23.3441,85.3096,30.6,33,0.0,940.0,7.65,44.3,107,43.3,32.4,0,5,7,0,2026-03-18T13:25:33.552650+05:30
Jamshedpur,Jharkhand,22.8046,86.2029,33.7,37,0.0,992.6,8.15,41.8,133,61.7,48.3,0,5,7,1,2026-03-18T13:25:33.552657+05:30
Dhanbad,Jharkhand,23.7957,86.4304,35.3,27,0.0,981.0,7.9,51.1,152,64.0,49.8,0,5,10,0,2026-03-18T13:25:33.552664+05:30
Bokaro,Jharkhand,23.6693,86.1511,35.7,25,0.0,984.7,7.85,43.2,149,58.1,44.9,0,5,10,0,2026-03-18T13:25:33.552670+05:30
Bhubaneswar,Odisha,20.2961,85.8245,30.6,57,0.0,1005.5,8.3,26.3,49,19.1,14.7,0,5,4,1,2026-03-18T13:25:33.552677+05:30
Cuttack,Odisha,20.4625,85.8828,30.9,58,0.0,1007.1,8.25,22.3,49,19.1,14.7,0,5,4,1,2026-03-18T13:25:33.552683+05:30
Rourkela,Odisha,22.2604,84.8536,33.7,40,0.0,986.9,8.05,48.2,149,55.6,44.0,0,5,7,1,2026-03-18T13:25:33.552690+05:30
Raipur,Chhattisgarh,21.2514,81.6296,30.9,42,0.0,977.6,6.75,48.2,107,32.1,26.1,0,5,7,1,2026-03-18T13:25:33.552696+05:30
Bhilai,Chhattisgarh,21.1938,81.3509,31.6,41,0.0,977.8,7.05,42.5,105,30.7,24.7,0,5,7,1,2026-03-18T13:25:33.552702+05:30
Guwahati,Assam,26.1158,91.7086,27.4,65,0.0,1004.0,7.5,38.9,109,48.2,38.4,7,5,4,1,2026-03-18T13:25:33.552707+05:30
Agartala,Tripura,23.8315,91.2868,27.8,65,0.0,1009.4,7.85,29.2,65,24.0,17.5,7,0,4,1,2026-03-18T13:25:33.552714+05:30
Shillong,Meghalaya,25.5788,91.8933,18.8,52,0.0,858.7,7.85,61.9,81,38.6,27.2,0,5,7,0,2026-03-18T13:25:33.552720+05:30
Imphal,Manipur,24.817,93.9368,21.6,65,0.0,925.8,8.1,66.2,82,38.5,21.7,3,5,7,0,2026-03-18T13:25:33.552727+05:30
Aizawl,Mizoram,23.7271,92.7176,24.7,49,0.0,896.3,8.05,44.3,77,35.5,19.1,0,5,7,0,2026-03-18T13:25:33.552734+05:30
Kohima,Nagaland,25.6701,94.1077,17.4,70,0.0,857.4,8.0,100.8,70,32.9,21.1,3,5,7,0,2026-03-18T13:25:33.552740+05:30
Gangtok,Sikkim,27.3314,88.6138,19.9,45,0.0,839.7,7.85,19.8,69,43.1,22.6,0,5,7,0,2026-03-18T13:25:33.552746+05:30
Siliguri,West Bengal,26.7271,88.3953,25.1,60,0.0,995.9,7.25,34.6,120,58.0,37.3,4,5,7,1,2026-03-18T13:25:36.864604+05:30
Durgapur,West Bengal,23.5204,87.3119,33.9,34,0.0,996.6,8.05,49.7,130,72.6,58.3,0,5,7,0,2026-03-18T13:25:36.864632+05:30
Asansol,West Bengal,23.6739,86.9524,34.5,33,0.0,995.0,8.05,50.8,131,68.2,53.6,0,5,7,0,2026-03-18T13:25:36.864642+05:30
Pondicherry,Puducherry,11.9139,79.8145,31.7,56,0.0,1010.4,9.1,25.2,37,14.6,10.0,0,0,4,1,2026-03-18T13:25:36.864650+05:30
Port Blair,Andaman and Nicobar Islands,11.6234,92.7265,28.7,73,0.0,1008.2,9.05,22.7,61,15.9,13.0,7,0,4,1,2026-03-18T13:25:36.864658+05:30
Haridwar,Uttarakhand,29.9457,78.1642,28.7,31,0.0,978.1,5.6,22.0,74,63.1,16.7,4,5,3,0,2026-03-18T13:25:36.864666+05:30
Rishikesh,Uttarakhand,30.0869,78.2676,28.3,29,0.0,970.8,5.4,18.4,59,41.1,10.4,4,5,3,0,2026-03-18T13:25:36.864673+05:30
Nainital,Uttarakhand,29.3919,79.4542,22.3,29,0.0,810.5,5.95,34.6,66,44.9,13.3,0,5,3,0,2026-03-18T13:25:36.864680+05:30
Mussoorie,Uttarakhand,30.4599,78.0664,18.0,43,0.0,805.6,5.5,29.5,69,47.4,11.6,0,5,3,0,2026-03-18T13:25:36.864687+05:30
Dharamshala,Himachal Pradesh,32.219,76.3234,18.4,53,0.0,871.8,4.15,29.9,48,24.3,5.5,0,5,3,0,2026-03-18T13:25:36.864694+05:30
Dalhousie,Himachal Pradesh,32.5387,75.971,17.0,43,0.0,806.2,5.15,31.0,83,75.0,20.1,0,5,3,0,2026-03-18T13:25:36.864701+05:30
Patiala,Punjab,30.3398,76.3869,24.9,49,0.0,982.8,4.65,28.8,146,136.9,44.4,0,5,3,0,2026-03-18T13:25:36.864707+05:30
Bhatinda,Punjab,30.211,74.9455,21.6,64,0.0,988.9,6.15,27.7,116,53.1,19.0,3,5,7,0,2026-03-18T13:25:36.864714+05:30
Rohtak,Haryana,28.8955,76.6066,28.6,45,0.0,985.2,5.8,28.8,310,469.4,68.7,4,5,3,0,2026-03-18T13:25:36.864720+05:30
Panipat,Haryana,29.3909,76.9635,28.5,42,0.0,984.0,5.85,29.9,266,692.9,82.2,4,5,3,0,2026-03-18T13:25:36.864727+05:30
Mathura,Uttar Pradesh,27.4924,77.6737,33.6,32,0.0,989.4,6.5,32.4,485,288.7,65.4,0,5,7,0,2026-03-18T13:25:36.864734+05:30
Vrindavan,Uttar Pradesh,27.5823,77.7027,33.3,32,0.0,989.9,6.45,30.2,485,288.7,65.4,0,5,7,0,2026-03-18T13:25:36.864740+05:30
Ayodhya,Uttar Pradesh,26.7922,82.1998,34.2,29,0.0,997.8,6.3,28.4,93,54.6,19.8,0,5,7,0,2026-03-18T13:25:36.864747+05:30
Ratlam,Madhya Pradesh,23.3315,75.0367,33.4,21,0.0,956.5,7.7,28.1,47,10.3,7.7,0,5,7,0,2026-03-18T13:25:36.864753+05:30
Sagar,Madhya Pradesh,23.8388,78.7378,34.0,22,0.0,952.1,7.5,34.9,45,17.2,7.2,0,5,7,0,2026-03-18T13:25:36.864759+05:30
Satna,Madhya Pradesh,24.6005,80.8322,36.3,15,0.0,972.8,6.95,31.3,59,22.8,11.6,0,5,10,0,2026-03-18T13:25:36.864766+05:30
Akola,Maharashtra,20.7002,77.0082,36.4,19,0.0,976.1,8.15,32.0,77,24.0,19.4,0,5,10,0,2026-03-18T13:25:36.864773+05:30
Amravati,Maharashtra,20.9374,77.7796,36.2,21,0.0,968.6,7.85,44.6,85,29.9,24.9,0,5,10,0,2026-03-18T13:25:36.864780+05:30
Latur,Maharashtra,18.4088,76.5604,31.0,33,0.0,941.8,8.55,36.4,105,40.9,34.6,0,5,7,0,2026-03-18T13:25:36.864786+05:30
Nanded,Maharashtra,19.1383,77.3091,31.5,37,0.0,971.2,7.85,32.4,110,46.6,40.0,0,5,7,0,2026-03-18T13:25:36.864793+05:30
Gulbarga,Karnataka,17.3297,76.8343,32.1,37,0.0,960.7,8.65,28.8,106,29.9,24.4,0,5,7,0,2026-03-18T13:25:36.864798+05:30
Bidar,Karnataka,17.9104,77.5199,28.7,48,0.0,938.1,8.6,34.6,98,31.5,25.2,4,5,7,1,2026-03-18T13:25:36.864804+05:30
Hospet,Karnataka,15.2689,76.3909,30.8,44,0.0,957.6,8.9,41.0,109,33.3,26.8,0,5,7,1,2026-03-18T13:25:36.864810+05:30
Tirupur,Tamil Nadu,11.1085,77.3411,32.8,42,0.0,976.3,9.15,29.2,81,18.1,15.9,0,5,7,1,2026-03-18T13:25:36.864816+05:30
Alappuzha,Kerala,9.4981,76.3388,28.0,82,0.0,1009.4,8.7,20.2,77,22.4,21.0,7,0,4,1,2026-03-18T13:25:36.864840+05:30
Munnar,Kerala,10.0889,77.0595,28.1,55,0.0,859.5,9.55,30.2,90,21.0,18.7,4,5,7,1,2026-03-18T13:25:36.864848+05:30
Silchar,Assam,24.8333,92.7789,26.9,69,0.0,1008.8,7.8,43.6,94,26.7,17.5,7,0,4,1,2026-03-18T13:25:36.864854+05:30
Dibrugarh,Assam,27.4728,94.912,23.1,75,0.0,999.1,7.55,28.1,86,33.4,21.2,3,5,7,1,2026-03-18T13:25:36.864861+05:30
