city,state,latitude,longitude,temp,humidity,rain,pressure,uv_index,wind_gusts,aqi,pm10,pm2_5,mosquito_risk,arthritis_risk,migraine_risk,frizz_risk,updated_at
Delhi,Delhi,28.6139,77.209,29.7,48,0.0,987.9,6.05,23.4,444,238.4,71.0,4,5,7,1,2026-03-10T18:38:17.612251+05:30
Mumbai,Maharashtra,19.076,72.8777,28.3,70,0.0,1008.8,7.55,19.8,252,39.2,37.0,7,0,4,1,2026-03-10T18:38:17.612290+05:30
Bangalore,Karnataka,12.9716,77.5946,27.8,36,0.0,913.6,9.25,32.4,105,22.8,20.6,4,5,7,0,2026-03-10T18:38:17.612306+05:30
Hyderabad,Telangana,17.385,78.4867,29.8,42,0.0,956.3,8.6,31.0,138,58.0,49.1,4,5,7,0,2026-03-10T18:38:17.612317+05:30
Chennai,Tamil Nadu,13.0827,80.2707,27.2,66,0.0,1011.0,8.95,35.6,84,19.6,15.0,7,0,4,1,2026-03-10T18:38:17.612326+05:30
Kolkata,West Bengal,22.5726,88.3639,24.7,85,0.0,1010.7,5.1,18.0,119,79.6,71.9,3,0,0,1,2026-03-10T18:38:17.612335+05:30
Pune,Maharashtra,18.5204,73.8567,33.7,23,0.0,950.2,8.1,36.4,146,24.3,20.7,0,5,7,0,2026-03-10T18:38:17.612347+05:30
Ahmedabad,Gujarat,23.0225,72.5714,36.8,21,0.0,1004.2,7.4,19.1,152,22.3,20.8,0,5,7,0,2026-03-10T18:38:17.612355+05:30
Jaipur,Rajasthan,26.9124,75.7873,32.6,10,0.0,964.3,6.85,22.0,123,168.6,30.2,0,5,7,1,2026-03-10T18:38:17.612363+05:30
Lucknow,Uttar Pradesh,26.8467,80.9462,29.9,54,0.0,998.0,6.55,20.2,181,158.8,104.8,4,5,7,1,2026-03-10T18:38:17.612371+05:30
Kanpur,Uttar Pradesh,26.4499,80.3319,28.6,61,0.0,996.4,6.6,15.5,172,169.0,77.8,7,5,7,1,2026-03-10T18:38:17.612379+05:30
Chandigarh,Chandigarh,30.7333,76.7794,27.1,71,0.0,973.8,6.0,15.5,150,89.6,66.4,7,5,3,1,2026-03-10T18:38:17.612386+05:30
Srinagar,Jammu and Kashmir,34.0837,74.7973,10.9,94,0.6,847.3,3.95,28.8,124,61.0,40.7,6,10,3,0,2026-03-10T18:38:17.612393+05:30
Jammu,Jammu and Kashmir,32.7266,74.857,24.8,84,0.0,977.6,6.0,38.2,106,82.0,58.9,3,5,3,1,2026-03-10T18:38:17.612401+05:30
Amritsar,Punjab,31.634,74.8723,26.6,74,0.0,985.2,6.0,26.3,162,80.1,51.2,7,5,3,1,2026-03-10T18:38:17.612408+05:30
Ludhiana,Punjab,30.901,75.8573,29.2,57,0.0,983.7,5.7,13.0,171,143.0,90.8,4,5,3,1,2026-03-10T18:38:17.612414+05:30
Jalandhar,Punjab,31.326,75.5762,28.9,63,0.0,984.6,6.0,14.0,168,115.9,71.7,7,5,3,1,2026-03-10T18:38:17.612424+05:30
Dehradun,Uttarakhand,30.6284,78.0322,17.9,82,0.0,835.2,6.4,26.6,105,57.9,37.7,3,10,7,0,2026-03-10T18:38:17.612431+05:30
Shimla,Himachal Pradesh,31.1048,77.1734,16.1,75,0.0,789.8,6.1,37.1,96,56.8,39.5,3,5,7,0,2026-03-10T18:38:17.612437+05:30
Manali,Himachal Pradesh,32.2396,77.1887,18.8,38,0.0,826.7,7.45,41.0,96,23.5,10.7,0,5,7,0,2026-03-10T18:38:17.612444+05:30
Gurgaon,Haryana,28.4595,77.0266,28.2,55,0.0,986.2,5.9,21.2,595,579.3,93.1,4,5,3,1,2026-03-10T18:38:17.612452+05:30
Noida,Uttar Pradesh,28.5355,77.391,29.6,51,0.0,989.5,6.1,23.4,595,579.3,93.1,4,5,7,1,2026-03-10T18:38:17.612459+05:30
Ghaziabad,Uttar Pradesh,28.6692,77.4538,28.6,57,0.0,987.6,5.9,18.7,282,142.0,74.0,4,5,3,1,2026-03-10T18:38:17.612465+05:30
Faridabad,Haryana,28.4089,77.3178,28.4,53,0.0,988.7,6.05,23.0,595,579.3,93.1,4,5,7,1,2026-03-10T18:38:17.612474+05:30
Meerut,Uttar Pradesh,28.9845,77.7064,27.6,66,0.0,986.3,5.7,18.4,282,142.0,74.0,7,5,3,1,2026-03-10T18:38:17.612480+05:30
Agra,Uttar Pradesh,27.1767,78.0081,29.4,44,0.0,992.1,6.45,22.0,214,448.9,85.2,4,5,7,0,2026-03-10T18:38:17.612487+05:30
Varanasi,Uttar Pradesh,25.3176,82.9739,28.4,67,0.0,1001.9,7.2,15.5,185,119.0,112.2,7,5,4,1,2026-03-10T18:38:17.612498+05:30
Prayagraj,Uttar Pradesh,25.4358,81.8463,29.1,63,0.0,1000.3,7.1,15.5,184,122.5,102.7,7,5,4,1,2026-03-10T18:38:17.612505+05:30
Gorakhpur,Uttar Pradesh,26.7606,83.3732,27.4,71,0.0,1001.8,6.95,20.2,185,122.9,110.6,7,5,4,1,2026-03-10T18:38:17.612512+05:30
Bareilly,Uttar Pradesh,28.367,79.4304,27.2,68,0.0,991.6,5.9,18.0,182,136.9,107.6,7,5,3,1,2026-03-10T18:38:17.612518+05:30
Aligarh,Uttar Pradesh,27.8974,78.088,28.5,52,0.0,990.2,6.15,23.4,197,313.9,95.9,4,5,7,1,2026-03-10T18:38:17.612524+05:30
Moradabad,Uttar Pradesh,28.8386,78.7733,27.4,66,0.0,988.5,5.45,23.4,182,158.8,116.4,7,5,3,1,2026-03-10T18:38:17.612530+05:30
Saharanpur,Uttar Pradesh,29.9637,77.546,26.3,71,0.0,980.6,5.7,21.2,165,115.9,73.3,7,5,3,1,2026-03-10T18:38:17.612553+05:30
Jhansi,Uttar Pradesh,25.4484,78.5685,30.4,30,0.0,982.1,7.05,26.3,132,72.2,23.2,0,5,7,0,2026-03-10T18:38:20.844158+05:30
Surat,Gujarat,21.1702,72.8311,33.8,34,0.0,1007.6,7.3,23.8,107,46.4,45.6,0,5,4,0,2026-03-10T18:38:20.844193+05:30
Vadodara,Gujarat,22.3072,73.1812,37.5,16,0.0,1005.7,7.4,17.3,150,24.2,20.6,0,5,7,0,2026-03-10T18:38:20.844203+05:30
Rajkot,Gujarat,22.3039,70.8022,35.9,16,0.0,996.9,7.25,33.5,106,15.5,14.1,0,5,10,0,2026-03-10T18:38:20.844211+05:30
Thane,Maharashtra,19.2183,72.9781,32.4,38,0.0,1008.1,7.55,33.5,252,39.2,37.0,0,0,4,1,2026-03-10T18:38:20.844222+05:30
Nagpur,Maharashtra,21.1458,79.0882,31.3,34,0.0,975.8,7.95,24.8,160,42.4,31.3,0,5,7,0,2026-03-10T18:38:20.844229+05:30
Nashik,Maharashtra,19.9975,73.7898,33.1,19,0.0,947.5,7.75,28.1,152,17.2,15.0,0,5,7,0,2026-03-10T18:38:20.844236+05:30
Aurangabad,Maharashtra,19.8762,75.3433,33.6,22,0.0,946.3,8.3,21.6,139,14.7,12.4,0,5,7,0,2026-03-10T18:38:20.844243+05:30
Solapur,Maharashtra,17.6599,75.9064,32.1,39,0.0,958.6,8.5,29.5,166,44.9,39.3,0,5,7,1,2026-03-10T18:38:20.844250+05:30
Kolhapur,Maharashtra,16.705,74.2433,31.7,32,0.0,949.3,8.6,40.3,160,55.2,49.8,0,5,7,0,2026-03-10T18:38:20.844256+05:30
Goa,Goa,15.2993,74.124,28.7,82,0.0,999.0,8.6,38.9,152,54.6,47.4,7,5,7,1,2026-03-10T18:38:20.844263+05:30
Jodhpur,Rajasthan,26.2389,73.0243,33.2,16,0.0,987.2,7.15,26.3,125,36.4,15.1,0,5,7,0,2026-03-10T18:38:20.844270+05:30
Udaipur,Rajasthan,24.5854,73.7125,32.4,23,0.0,951.0,7.75,21.6,126,14.0,10.4,0,5,7,0,2026-03-10T18:38:20.844277+05:30
Kota,Rajasthan,25.2138,75.8648,32.2,22,0.0,982.7,7.15,17.3,103,49.0,20.2,0,5,7,0,2026-03-10T18:38:20.844283+05:30
Bikaner,Rajasthan,28.0229,73.3119,33.1,19,0.0,986.1,6.85,29.9,122,19.8,14.5,0,5,7,0,2026-03-10T18:38:20.844289+05:30
Ajmer,Rajasthan,26.4499,74.6399,31.1,24,0.0,959.1,7.1,21.2,112,68.5,18.9,0,5,7,0,2026-03-10T18:38:20.844295+05:30
Gwalior,Madhya Pradesh,26.2183,78.1828,29.6,43,0.0,987.7,6.75,24.5,133,109.4,29.9,4,5,7,0,2026-03-10T18:38:20.844302+05:30
Indore,Madhya Pradesh,22.7196,75.8577,28.9,30,0.0,951.2,7.65,26.3,114,19.7,13.2,4,5,7,0,2026-03-10T18:38:20.844308+05:30
Bhopal,Madhya Pradesh,23.2599,77.4126,29.5,34,0.0,957.1,7.55,23.0,107,15.7,9.6,4,5,7,0,2026-03-10T18:38:20.844314+05:30
Jabalpur,Madhya Pradesh,23.1815,79.9864,31.8,35,0.0,964.9,7.65,26.3,116,42.6,24.0,0,5,7,0,2026-03-10T18:38:20.844321+05:30
Ujjain,Madhya Pradesh,23.1765,75.7885,29.3,36,0.0,957.2,7.55,19.1,107,25.8,17.3,4,5,7,0,2026-03-10T18:38:20.844327+05:30
Visakhapatnam,Andhra Pradesh,17.6868,83.2185,26.0,63,0.0,1007.8,8.55,34.2,132,39.7,33.3,7,5,4,1,2026-03-10T18:38:20.844333+05:30
Vijayawada,Andhra Pradesh,16.5062,80.648,29.6,50,0.0,1006.0,8.6,21.6,130,37.6,33.8,4,5,4,1,2026-03-10T18:38:20.844340+05:30
Guntur,Andhra Pradesh,16.3067,80.4365,28.0,48,0.0,1007.4,8.65,23.4,124,34.2,30.4,4,5,4,0,2026-03-10T18:38:20.844346+05:30
Nellore,Andhra Pradesh,14.4426,79.9865,27.0,63,0.0,1009.8,8.85,28.1,95,23.8,19.0,7,0,4,1,2026-03-10T18:38:20.844353+05:30
Kurnool,Andhra Pradesh,15.8281,78.0373,32.7,24,0.0,979.2,8.65,31.7,113,35.6,30.2,0,5,7,0,2026-03-10T18:38:20.844360+05:30
Kakinada,Andhra Pradesh,16.9891,82.2475,26.2,62,0.0,1011.3,8.6,28.4,117,33.3,26.8,7,0,4,1,2026-03-10T18:38:20.844366+05:30
Tirupati,Andhra Pradesh,13.6288,79.4192,27.9,43,0.0,994.8,8.95,34.6,130,20.1,17.6,4,5,7,0,2026-03-10T18:38:20.844373+05:30
Warangal,Telangana,17.9689,79.5941,30.5,56,0.0,981.7,8.4,27.0,141,68.0,57.0,0,5,7,1,2026-03-10T18:38:20.844379+05:30
Nizamabad,Telangana,18.6725,78.0941,31.9,38,0.0,967.2,8.3,30.6,146,51.0,41.9,0,5,7,0,2026-03-10T18:38:20.844385+05:30
Mysore,Karnataka,12.2958,76.6396,28.6,28,0.0,929.7,9.25,39.2,108,21.9,19.4,4,5,7,0,2026-03-10T18:38:20.844391+05:30
Mangalore,Karnataka,12.9141,74.856,28.8,79,0.0,1007.6,8.85,31.7,124,38.1,31.8,7,5,4,1,2026-03-10T18:38:20.844397+05:30
Hubli-Dharwad,Karnataka,15.3647,75.124,31.6,30,0.0,942.3,8.8,44.3,157,51.3,44.6,0,5,7,0,2026-03-10T18:38:20.844403+05:30
Belgaum,Karnataka,15.8497,74.4977,31.2,29,0.0,927.3,8.85,46.8,160,52.0,45.3,0,5,7,0,2026-03-10T18:38:24.068756+05:30
Coimbatore,Tamil Nadu,11.0168,76.9558,30.2,34,0.0,962.5,9.25,46.4,115,22.0,19.8,0,5,7,0,2026-03-10T18:38:24.068789+05:30
Madurai,Tamil Nadu,9.9252,78.1198,29.9,54,0.0,994.7,9.2,41.4,108,10.7,10.1,4,5,7,1,2026-03-10T18:38:24.068802+05:30
Trichy,Tamil Nadu,10.7905,78.7047,28.2,65,0.0,1002.4,9.05,37.4,100,14.8,13.4,7,5,4,1,2026-03-10T18:38:24.068813+05:30
Salem,Tamil Nadu,11.6643,78.146,30.0,47,0.0,978.8,9.15,33.1,122,18.7,17.3,4,5,7,1,2026-03-10T18:38:24.068823+05:30
Tirunelveli,Tamil Nadu,8.7139,77.7567,29.7,57,0.0,1004.6,9.2,47.2,92,11.8,10.3,4,5,4,1,2026-03-10T18:38:24.068832+05:30
Vellore,Tamil Nadu,12.9165,79.1325,28.3,47,0.0,987.4,9.05,35.6,139,22.4,20.3,4,5,7,0,2026-03-10T18:38:24.068839+05:30
Erode,Tamil Nadu,11.341,77.7172,32.8,36,0.0,990.0,9.1,28.8,117,23.7,21.9,0,5,7,0,2026-03-10T18:38:24.068846+05:30
Kochi,Kerala,9.9312,76.2673,29.0,73,0.0,1008.1,9.05,39.2,159,57.0,49.1,7,0,4,1,2026-03-10T18:38:24.068853+05:30
Thiruvananthapuram,Kerala,8.5241,76.9366,28.0,81,0.0,1008.2,9.1,27.4,113,33.5,25.8,7,0,4,1,2026-03-10T18:38:24.068860+05:30
Kozhikode,Kerala,11.2588,75.7804,29.5,68,0.0,1008.3,8.95,24.8,163,56.0,43.2,7,0,4,1,2026-03-10T18:38:24.068866+05:30
Thrissur,Kerala,10.5276,76.2144,29.3,70,0.0,1006.8,9.0,37.4,136,40.4,35.9,7,5,4,1,2026-03-10T18:38:24.068874+05:30
Kannur,Kerala,11.8745,75.3704,29.4,66,0.0,1007.8,8.95,39.2,128,54.8,44.1,7,5,4,1,2026-03-10T18:38:24.068881+05:30
Patna,Bihar,25.5941,85.1376,29.4,62,0.0,1004.8,7.4,24.5,171,103.8,96.6,7,5,4,1,2026-03-10T18:38:24.068887+05:30
Gaya,Bihar,24.7914,85.0002,26.8,78,0.0,998.3,7.5,15.5,168,92.2,83.1,7,5,7,1,2026-03-10T18:38:24.068894+05:30
Muzaffarpur,Bihar,26.1209,85.3647,28.2,65,0.0,1004.7,7.35,22.0,174,118.5,109.2,7,5,4,1,2026-03-10T18:38:24.068900+05:30
Bhagalpur,Bihar,25.2425,87.0117,28.3,65,0.0,1005.6,7.4,17.6,163,101.7,90.3,7,5,4,1,2026-03-10T18:38:24.068907+05:30
Ranchi,Jharkhand,23.3441,85.3096,25.6,64,0.0,941.7,8.15,29.5,160,86.4,75.9,7,5,7,1,2026-03-10T18:38:24.068913+05:30
Jamshedpur,Jharkhand,22.8046,86.2029,27.6,70,0.0,994.8,8.05,31.0,131,82.2,71.7,7,5,7,1,2026-03-10T18:38:24.068920+05:30
Dhanbad,Jharkhand,23.7957,86.4304,27.1,65,0.0,984.4,7.9,20.9,167,125.7,114.3,7,5,7,1,2026-03-10T18:38:24.068927+05:30
Bokaro,Jharkhand,23.6693,86.1511,25.9,70,0.0,988.7,7.9,20.5,174,141.6,127.6,7,5,7,1,2026-03-10T18:38:24.068934+05:30
Bhubaneswar,Odisha,20.2961,85.8245,26.5,71,0.0,1007.1,8.35,32.4,112,51.3,44.7,7,5,4,1,2026-03-10T18:38:24.068940+05:30
Cuttack,Odisha,20.4625,85.8828,28.7,60,0.0,1008.4,8.35,29.2,112,51.3,44.7,4,0,4,1,2026-03-10T18:38:24.068947+05:30
Rourkela,Odisha,22.2604,84.8536,31.0,47,0.0,987.4,7.95,26.3,158,87.8,65.4,0,5,7,1,2026-03-10T18:38:24.068953+05:30
Raipur,Chhattisgarh,21.2514,81.6296,32.9,31,0.0,977.1,8.05,17.3,166,82.9,59.1,0,5,7,0,2026-03-10T18:38:24.068959+05:30
Bhilai,Chhattisgarh,21.1938,81.3509,32.1,32,0.0,977.3,8.05,13.7,151,78.7,54.4,0,5,7,0,2026-03-10T18:38:24.068966+05:30
Guwahati,Assam,26.1158,91.7086,27.6,70,0.0,1005.3,7.3,11.5,155,88.0,80.6,7,5,4,1,2026-03-10T18:38:24.068971+05:30
Agartala,Tripura,23.8315,91.2868,26.8,69,0.0,1010.2,7.7,14.4,169,99.4,88.7,7,0,4,1,2026-03-10T18:38:24.068978+05:30
Shillong,Meghalaya,25.5788,91.8933,14.0,88,0.0,859.2,6.75,18.4,151,51.3,48.2,3,10,7,0,2026-03-10T18:38:24.068984+05:30
Imphal,Manipur,24.817,93.9368,19.4,75,0.0,927.0,6.2,30.6,154,54.2,51.3,3,5,7,0,2026-03-10T18:38:24.068990+05:30
Aizawl,Mizoram,23.7271,92.7176,20.4,65,0.0,896.1,7.85,27.7,149,50.3,43.7,3,5,7,0,2026-03-10T18:38:24.068996+05:30
Kohima,Nagaland,25.6701,94.1077,15.3,92,0.0,858.0,6.8,50.0,134,53.2,49.8,3,10,7,0,2026-03-10T18:38:24.069003+05:30
Gangtok,Sikkim,27.3314,88.6138,16.9,75,0.0,842.0,6.25,18.7,151,78.5,66.4,3,5,7,0,2026-03-10T18:38:24.069009+05:30
Siliguri,West Bengal,26.7271,88.3953,24.0,65,0.0,998.5,7.3,21.2,164,85.9,73.6,3,5,7,1,2026-03-10T18:38:27.296673+05:30
Durgapur,West Bengal,23.5204,87.3119,25.5,76,0.0,999.9,7.85,19.4,155,81.7,74.3,7,5,7,1,2026-03-10T18:38:27.296704+05:30
Asansol,West Bengal,23.6739,86.9524,26.3,71,0.0,998.4,7.9,19.1,159,99.2,89.4,7,5,7,1,2026-03-10T18:38:27.296714+05:30
Pondicherry,Puducherry,11.9139,79.8145,27.2,73,0.0,1011.7,8.95,37.8,77,21.1,15.4,7,0,4,1,2026-03-10T18:38:27.296721+05:30
Port Blair,Andaman and Nicobar Islands,11.6234,92.7265,28.8,72,0.0,1009.5,8.95,29.2,71,21.7,19.1,7,0,4,1,2026-03-10T18:38:27.296729+05:30
Haridwar,Uttarakhand,29.9457,78.1642,27.1,72,0.0,979.5,5.85,22.3,166,92.0,64.3,7,5,3,1,2026-03-10T18:38:27.296736+05:30
Rishikesh,Uttarakhand,30.0869,78.2676,25.9,75,0.0,972.4,5.9,23.0,163,92.7,59.8,7,5,3,1,2026-03-10T18:38:27.296743+05:30
Nainital,Uttarakhand,29.3919,79.4542,19.4,76,0.0,810.7,6.75,56.9,175,134.1,103.6,3,5,7,0,2026-03-10T18:38:27.296751+05:30
Mussoorie,Uttarakhand,30.4599,78.0664,17.8,83,0.0,807.5,6.25,38.9,161,98.0,66.4,3,10,7,0,2026-03-10T18:38:27.296759+05:30
Dharamshala,Himachal Pradesh,32.219,76.3234,22.7,66,0.0,874.7,6.45,20.5,77,34.1,16.8,3,5,7,0,2026-03-10T18:38:27.296766+05:30
Dalhousie,Himachal Pradesh,32.5387,75.971,20.3,56,0.0,809.2,6.15,18.4,89,48.9,26.7,0,5,7,0,2026-03-10T18:38:27.296774+05:30
Patiala,Punjab,30.3398,76.3869,27.9,69,0.0,983.1,5.9,14.4,169,155.5,78.2,7,5,3,1,2026-03-10T18:38:27.296781+05:30
Bhatinda,Punjab,30.211,74.9455,28.8,56,0.0,988.2,6.45,16.9,154,88.7,48.2,4,5,7,1,2026-03-10T18:38:27.296787+05:30
Rohtak,Haryana,28.8955,76.6066,26.7,58,0.0,986.6,5.75,20.2,455,233.8,68.9,4,5,3,1,2026-03-10T18:38:27.296794+05:30
Panipat,Haryana,29.3909,76.9635,26.6,69,0.0,985.4,5.9,18.0,443,285.0,78.2,7,5,3,1,2026-03-10T18:38:27.296800+05:30
Mathura,Uttar Pradesh,27.4924,77.6737,29.2,41,0.0,991.3,6.35,23.0,384,343.7,82.2,4,5,7,0,2026-03-10T18:38:27.296806+05:30
Vrindavan,Uttar Pradesh,27.5823,77.7027,29.1,44,0.0,991.8,6.3,24.1,384,343.7,82.2,4,5,7,0,2026-03-10T18:38:27.296812+05:30
Ayodhya,Uttar Pradesh,26.7922,82.1998,28.4,64,0.0,999.8,6.75,19.4,190,135.5,120.6,7,5,7,1,2026-03-10T18:38:27.296818+05:30
Ratlam,Madhya Pradesh,23.3315,75.0367,32.0,27,0.0,957.9,7.55,18.7,115,20.5,13.2,0,5,7,0,2026-03-10T18:38:27.296825+05:30
Sagar,Madhya Pradesh,23.8388,78.7378,30.3,31,0.0,953.7,7.5,21.2,108,32.6,15.9,0,5,7,0,2026-03-10T18:38:27.296831+05:30
Satna,Madhya Pradesh,24.6005,80.8322,30.8,31,0.0,975.2,7.5,24.5,139,63.3,34.9,0,5,7,0,2026-03-10T18:38:27.296837+05:30
Akola,Maharashtra,20.7002,77.0082,35.5,26,0.0,977.1,8.0,16.9,137,16.3,11.8,0,5,10,0,2026-03-10T18:38:27.296844+05:30
Amravati,Maharashtra,20.9374,77.7796,33.2,27,0.0,969.3,7.95,19.1,127,17.5,12.0,0,5,7,0,2026-03-10T18:38:27.296851+05:30
Latur,Maharashtra,18.4088,76.5604,30.5,34,0.0,942.1,8.4,27.0,168,32.1,27.7,0,5,7,0,2026-03-10T18:38:27.296858+05:30
Nanded,Maharashtra,19.1383,77.3091,33.0,35,0.0,970.7,8.2,19.4,150,30.3,24.7,0,5,7,0,2026-03-10T18:38:27.296864+05:30
Gulbarga,Karnataka,17.3297,76.8343,33.8,28,0.0,960.6,8.5,30.6,151,50.5,43.2,0,5,7,0,2026-03-10T18:38:27.296870+05:30
Bidar,Karnataka,17.9104,77.5199,31.6,32,0.0,938.0,8.45,33.1,156,45.1,38.1,0,5,7,0,2026-03-10T18:38:27.296875+05:30
Hospet,Karnataka,15.2689,76.3909,32.5,27,0.0,957.7,8.8,36.0,146,42.5,36.6,0,5,7,0,2026-03-10T18:38:27.296881+05:30
Tirupur,Tamil Nadu,11.1085,77.3411,31.9,35,0.0,976.3,9.25,42.5,125,26.1,23.3,0,5,7,0,2026-03-10T18:38:27.296888+05:30
Alappuzha,Kerala,9.4981,76.3388,29.0,72,0.0,1008.3,9.05,33.5,160,54.9,44.0,7,0,4,1,2026-03-10T18:38:27.296894+05:30
Munnar,Kerala,10.0889,77.0595,25.8,47,0.0,858.4,9.55,33.8,105,22.5,20.8,4,5,7,0,2026-03-10T18:38:27.296901+05:30
Silchar,Assam,24.8333,92.7789,27.5,66,0.0,1008.8,7.65,14.0,166,79.2,72.4,7,0,4,1,2026-03-10T18:38:27.296908+05:30
Dibrugarh,Assam,27.4728,94.912,27.7,68,0.0,998.9,7.4,14.4,164,100.1,88.7,7,5,7,1,2026-03-10T18:38:27.296914+05:30
