city,state,latitude,longitude,temp,humidity,rain,pressure,uv_index,wind_gusts,aqi,pm10,pm2_5,no2,co,o3,so2,mosquito_risk,arthritis_risk,migraine_risk,frizz_risk,updated_at
Delhi,Delhi,28.6139,77.209,29.4,80,0.0,972.0,7.7,25.9,422,406.1,137.4,56.4,366.0,18.0,19.9,7,5,7,1,2026-07-12T02:22:12.476624+05:30
Mumbai,Maharashtra,19.076,72.8777,27.6,86,0.0,1005.1,7.8,53.3,54,28.3,11.5,3.8,117.0,44.0,3.1,7,5,4,1,2026-07-12T02:22:12.476682+05:30
Bangalore,Karnataka,12.9716,77.5946,21.5,91,0.0,910.1,7.45,47.9,47,15.0,8.7,12.7,223.0,32.0,4.0,3,5,7,1,2026-07-12T02:22:12.476699+05:30
Hyderabad,Telangana,17.385,78.4867,27.0,63,0.0,949.1,8.6,53.6,59,24.4,14.3,8.9,211.0,44.0,4.2,7,5,7,1,2026-07-12T02:22:12.476711+05:30
Chennai,Tamil Nadu,13.0827,80.2707,29.3,78,0.0,1002.7,7.7,40.0,70,32.4,20.8,14.6,233.0,68.0,9.3,7,5,4,1,2026-07-12T02:22:12.476721+05:30
Kolkata,West Bengal,22.5726,88.3639,27.9,95,0.0,996.2,7.65,24.1,121,64.5,51.9,15.5,368.0,72.0,13.3,7,5,7,1,2026-07-12T02:22:12.476734+05:30
Pune,Maharashtra,18.5204,73.8567,23.1,87,0.0,944.2,8.4,55.4,33,9.3,4.3,5.2,105.0,37.0,4.2,3,5,7,1,2026-07-12T02:22:12.476742+05:30
Ahmedabad,Gujarat,23.0225,72.5714,27.8,79,0.0,995.3,8.1,52.2,65,35.5,18.2,6.1,115.0,41.0,4.1,7,5,7,1,2026-07-12T02:22:12.476750+05:30
Jaipur,Rajasthan,26.9124,75.7873,27.6,74,0.0,950.3,8.2,38.5,419,385.6,74.0,9.2,198.0,56.0,4.4,7,5,7,1,2026-07-12T02:22:12.476758+05:30
Lucknow,Uttar Pradesh,26.8467,80.9462,26.9,93,0.0,983.2,8.2,36.0,153,115.9,60.1,33.0,396.0,29.0,8.9,7,5,7,1,2026-07-12T02:22:12.476769+05:30
Kanpur,Uttar Pradesh,26.4499,80.3319,28.6,83,0.0,981.7,8.2,36.7,127,100.8,39.8,11.9,193.0,67.0,7.9,7,5,7,1,2026-07-12T02:22:12.476777+05:30
Chandigarh,Chandigarh,30.7333,76.7794,25.6,91,0.0,958.3,7.7,40.0,154,99.0,85.4,66.6,889.0,12.0,9.8,7,5,7,1,2026-07-12T02:22:12.476785+05:30
Srinagar,Jammu and Kashmir,34.0837,74.7973,19.1,94,0.0,834.2,8.15,23.4,69,8.8,8.3,12.2,416.0,80.0,1.7,3,10,7,1,2026-07-12T02:22:12.476792+05:30
Jammu,Jammu and Kashmir,32.7266,74.857,24.6,93,0.2,961.9,8.3,33.5,94,24.1,22.8,31.2,527.0,40.0,3.5,6,5,7,1,2026-07-12T02:22:12.476801+05:30
Amritsar,Punjab,31.634,74.8723,26.1,91,0.1,969.9,8.35,45.0,161,163.4,89.9,19.2,364.0,74.0,6.7,10,5,7,1,2026-07-12T02:22:12.476809+05:30
Ludhiana,Punjab,30.901,75.8573,28.1,87,0.0,967.0,7.95,46.1,166,183.5,107.6,41.3,393.0,42.0,14.3,7,5,7,1,2026-07-12T02:22:12.476816+05:30
Jalandhar,Punjab,31.326,75.5762,26.2,90,0.1,968.6,8.15,45.4,166,142.5,83.4,28.9,373.0,66.0,9.9,10,5,7,1,2026-07-12T02:22:12.476823+05:30
Dehradun,Uttarakhand,30.6284,78.0322,16.6,100,0.0,821.9,8.1,29.2,52,16.1,15.5,33.0,259.0,53.0,2.4,3,10,7,1,2026-07-12T02:22:12.476831+05:30
Shimla,Himachal Pradesh,31.1048,77.1734,15.4,92,0.0,777.3,8.25,36.7,96,53.7,46.1,17.8,446.0,94.0,3.5,3,10,7,0,2026-07-12T02:22:12.476839+05:30
Manali,Himachal Pradesh,32.2396,77.1887,17.9,94,0.1,811.6,8.7,28.4,47,7.3,7.2,35.9,242.0,84.0,0.3,6,10,7,1,2026-07-12T02:22:12.476848+05:30
Gurgaon,Haryana,28.4595,77.0266,29.1,73,0.0,970.4,7.7,27.0,558,838.2,171.4,23.1,251.0,43.0,7.7,7,5,7,1,2026-07-12T02:22:12.476863+05:30
Noida,Uttar Pradesh,28.5355,77.391,28.8,87,0.0,973.6,7.7,24.5,558,838.2,171.4,23.1,227.0,43.0,7.7,7,5,7,1,2026-07-12T02:22:12.476870+05:30
Ghaziabad,Uttar Pradesh,28.6692,77.4538,27.0,91,0.0,972.0,7.7,26.6,332,469.4,159.7,59.4,1015.0,11.0,18.5,7,5,7,1,2026-07-12T02:22:12.476878+05:30
Faridabad,Haryana,28.4089,77.3178,29.3,80,0.0,972.7,7.75,26.6,558,838.2,171.4,23.1,215.0,43.0,7.7,7,5,7,1,2026-07-12T02:22:12.476886+05:30
Meerut,Uttar Pradesh,28.9845,77.7064,25.9,95,0.0,970.9,7.55,29.2,332,469.4,159.7,59.4,533.0,11.0,18.5,7,5,7,1,2026-07-12T02:22:12.476893+05:30
Agra,Uttar Pradesh,27.1767,78.0081,29.9,68,0.0,977.2,8.0,36.7,152,183.0,43.2,18.9,225.0,43.0,5.3,7,5,7,1,2026-07-12T02:22:12.476899+05:30
Varanasi,Uttar Pradesh,25.3176,82.9739,29.6,67,0.0,987.5,8.7,42.1,103,39.8,28.2,11.6,214.0,60.0,7.1,7,5,7,1,2026-07-12T02:22:12.476907+05:30
Prayagraj,Uttar Pradesh,25.4358,81.8463,29.8,66,0.0,986.1,8.6,43.6,105,56.3,36.3,12.4,176.0,59.0,6.1,7,5,7,1,2026-07-12T02:22:12.476915+05:30
Gorakhpur,Uttar Pradesh,26.7606,83.3732,26.7,97,0.2,986.9,6.2,35.3,113,89.4,50.8,11.6,317.0,85.0,4.9,10,5,7,1,2026-07-12T02:22:12.476922+05:30
Bareilly,Uttar Pradesh,28.367,79.4304,27.1,93,0.1,976.8,8.0,30.6,156,193.2,83.6,25.4,299.0,56.0,7.6,10,5,7,1,2026-07-12T02:22:12.476932+05:30
Aligarh,Uttar Pradesh,27.8974,78.088,29.4,76,0.0,974.9,7.85,29.2,399,493.6,116.4,16.5,192.0,52.0,5.2,7,5,7,1,2026-07-12T02:22:12.476939+05:30
Moradabad,Uttar Pradesh,28.8386,78.7733,25.8,96,0.3,973.7,7.8,36.0,158,138.3,72.9,25.4,391.0,69.0,9.2,10,5,7,1,2026-07-12T02:22:12.476946+05:30
Saharanpur,Uttar Pradesh,29.9637,77.546,25.3,94,0.0,965.3,7.35,39.2,143,78.2,66.8,31.7,459.0,41.0,9.5,7,5,7,1,2026-07-12T02:22:12.476953+05:30
Jhansi,Uttar Pradesh,25.4484,78.5685,29.2,68,0.0,969.1,8.4,44.6,91,34.1,19.9,7.5,138.0,68.0,8.9,7,5,7,1,2026-07-12T02:22:15.701802+05:30
Surat,Gujarat,21.1702,72.8311,28.2,84,0.0,1001.3,5.45,65.5,59,25.5,14.1,11.9,201.0,36.0,20.5,7,5,0,1,2026-07-12T02:22:15.701841+05:30
Vadodara,Gujarat,22.3072,73.1812,27.5,84,0.0,998.1,8.05,58.3,58,26.4,13.8,6.2,117.0,39.0,4.5,7,5,7,1,2026-07-12T02:22:15.701852+05:30
Rajkot,Gujarat,22.3039,70.8022,26.8,85,0.0,987.4,7.75,61.2,59,27.7,12.7,3.4,94.0,43.0,3.0,7,5,7,1,2026-07-12T02:22:15.701862+05:30
Thane,Maharashtra,19.2183,72.9781,27.1,88,0.0,1004.2,7.5,49.0,54,28.3,11.5,3.8,139.0,44.0,3.1,7,5,4,1,2026-07-12T02:22:15.701870+05:30
Nagpur,Maharashtra,21.1458,79.0882,27.4,69,0.0,966.9,7.7,41.8,80,31.7,18.0,10.8,150.0,47.0,9.7,7,5,7,1,2026-07-12T02:22:15.701877+05:30
Nashik,Maharashtra,19.9975,73.7898,23.3,89,0.0,940.7,8.1,64.4,34,7.5,4.2,6.5,96.0,32.0,3.4,3,5,7,1,2026-07-12T02:22:15.701885+05:30
Aurangabad,Maharashtra,19.8762,75.3433,23.0,88,0.0,939.3,8.95,54.7,49,18.0,8.6,7.4,132.0,36.0,8.2,3,5,7,1,2026-07-12T02:22:15.701892+05:30
Solapur,Maharashtra,17.6599,75.9064,24.3,79,0.0,953.9,8.75,50.0,44,16.9,8.8,5.1,123.0,36.0,2.1,3,5,7,1,2026-07-12T02:22:15.701900+05:30
Kolhapur,Maharashtra,16.705,74.2433,22.7,93,0.0,945.5,8.5,52.2,36,9.2,4.4,3.5,115.0,40.0,2.1,3,5,7,1,2026-07-12T02:22:15.701908+05:30
Goa,Goa,15.2993,74.124,25.1,98,0.0,997.0,7.3,38.9,53,28.2,15.0,3.2,290.0,40.0,1.4,7,5,7,1,2026-07-12T02:22:15.701915+05:30
Jodhpur,Rajasthan,26.2389,73.0243,28.7,68,0.0,973.2,8.4,53.3,218,415.4,95.0,2.8,100.0,58.0,2.4,7,5,7,1,2026-07-12T02:22:15.701922+05:30
Udaipur,Rajasthan,24.5854,73.7125,23.9,85,0.0,937.8,8.8,52.9,68,40.5,20.6,3.8,98.0,57.0,3.8,3,5,7,1,2026-07-12T02:22:15.701929+05:30
Kota,Rajasthan,25.2138,75.8648,28.3,73,0.0,970.3,8.3,42.5,80,38.5,23.5,6.9,153.0,69.0,6.4,7,5,7,1,2026-07-12T02:22:15.701936+05:30
Bikaner,Rajasthan,28.0229,73.3119,31.1,61,0.0,970.6,8.45,41.8,160,226.3,84.5,2.5,103.0,60.0,4.6,3,5,7,1,2026-07-12T02:22:15.701943+05:30
Ajmer,Rajasthan,26.4499,74.6399,27.1,73,0.0,945.6,8.35,49.0,77,33.4,20.8,4.8,112.0,63.0,3.3,7,5,7,1,2026-07-12T02:22:15.701950+05:30
Gwalior,Madhya Pradesh,26.2183,78.1828,28.9,70,0.0,973.6,8.15,43.2,87,30.7,19.5,7.9,143.0,62.0,6.1,7,5,7,1,2026-07-12T02:22:15.701956+05:30
Indore,Madhya Pradesh,22.7196,75.8577,24.4,89,0.0,941.5,8.55,52.6,63,20.5,11.9,6.8,144.0,43.0,8.3,3,5,7,1,2026-07-12T02:22:15.701963+05:30
Bhopal,Madhya Pradesh,23.2599,77.4126,25.4,83,0.0,946.8,8.6,42.1,73,26.4,17.0,5.7,175.0,62.0,5.9,7,5,7,1,2026-07-12T02:22:15.701970+05:30
Jabalpur,Madhya Pradesh,23.1815,79.9864,26.5,74,0.0,954.3,4.8,36.7,81,40.7,22.9,5.3,189.0,68.0,4.9,7,5,3,1,2026-07-12T02:22:15.701977+05:30
Ujjain,Madhya Pradesh,23.1765,75.7885,25.3,87,0.0,946.9,8.5,51.8,62,21.7,12.6,6.7,164.0,45.0,8.4,7,5,7,1,2026-07-12T02:22:15.701985+05:30
Visakhapatnam,Andhra Pradesh,17.6868,83.2185,28.8,68,0.0,997.1,8.5,40.3,91,41.0,26.9,20.5,286.0,48.0,30.4,7,5,7,1,2026-07-12T02:22:15.701992+05:30
Vijayawada,Andhra Pradesh,16.5062,80.648,30.2,66,0.0,996.9,8.55,44.3,79,39.5,25.8,14.3,293.0,45.0,4.9,3,5,7,1,2026-07-12T02:22:15.701999+05:30
Guntur,Andhra Pradesh,16.3067,80.4365,31.2,50,0.0,998.1,8.15,45.4,74,39.7,24.4,14.8,318.0,41.0,5.6,0,5,7,1,2026-07-12T02:22:15.702007+05:30
Nellore,Andhra Pradesh,14.4426,79.9865,29.6,69,0.0,1001.3,8.8,46.4,67,37.3,23.9,13.7,266.0,59.0,7.6,7,5,4,1,2026-07-12T02:22:15.702016+05:30
Kurnool,Andhra Pradesh,15.8281,78.0373,28.0,61,0.0,973.3,8.35,49.3,55,21.3,11.8,7.2,139.0,43.0,2.9,7,5,7,1,2026-07-12T02:22:15.702024+05:30
Kakinada,Andhra Pradesh,16.9891,82.2475,28.7,72,0.0,1001.5,8.3,49.0,78,38.6,24.3,8.3,362.0,69.0,4.5,7,5,4,1,2026-07-12T02:22:15.702031+05:30
Tirupati,Andhra Pradesh,13.6288,79.4192,29.4,56,0.0,987.2,8.0,38.5,74,38.6,24.4,25.8,167.0,24.0,2.7,4,5,7,1,2026-07-12T02:22:15.702039+05:30
Warangal,Telangana,17.9689,79.5941,27.5,69,0.0,973.4,8.8,43.6,75,39.1,24.0,13.2,192.0,39.0,3.7,7,5,7,1,2026-07-12T02:22:15.702045+05:30
Nizamabad,Telangana,18.6725,78.0941,26.6,67,0.0,960.2,8.8,45.4,64,21.0,12.2,7.1,155.0,46.0,6.3,7,5,7,1,2026-07-12T02:22:15.702052+05:30
Mysore,Karnataka,12.2958,76.6396,21.2,98,0.0,927.1,8.8,46.8,33,14.6,8.8,12.7,137.0,27.0,2.4,3,5,7,1,2026-07-12T02:22:15.702058+05:30
Mangalore,Karnataka,12.9141,74.856,25.0,96,0.0,1006.5,5.75,49.0,50,17.7,10.4,8.1,145.0,27.0,2.5,7,5,0,1,2026-07-12T02:22:15.702065+05:30
Hubli-Dharwad,Karnataka,15.3647,75.124,21.6,98,0.0,938.9,8.85,52.2,30,10.7,4.9,3.6,111.0,39.0,1.6,3,5,7,1,2026-07-12T02:22:15.702071+05:30
Belgaum,Karnataka,15.8497,74.4977,21.1,98,0.0,923.6,9.0,50.4,31,9.4,4.5,3.1,99.0,39.0,1.4,3,5,7,1,2026-07-12T02:22:18.956857+05:30
Coimbatore,Tamil Nadu,11.0168,76.9558,23.7,95,0.0,960.3,8.6,55.1,39,17.5,10.8,12.5,186.0,21.0,3.2,3,5,7,1,2026-07-12T02:22:18.956896+05:30
Madurai,Tamil Nadu,9.9252,78.1198,28.7,65,0.0,991.0,8.0,42.5,60,31.9,30.0,36.6,168.0,2.0,10.1,7,5,7,1,2026-07-12T02:22:18.956909+05:30
Trichy,Tamil Nadu,10.7905,78.7047,28.8,68,0.0,997.1,8.0,56.9,45,16.9,9.5,8.7,111.0,30.0,3.3,7,5,7,1,2026-07-12T02:22:18.956918+05:30
Salem,Tamil Nadu,11.6643,78.146,25.9,86,0.0,975.6,8.9,22.3,60,30.6,19.1,22.1,247.0,25.0,6.9,7,5,7,1,2026-07-12T02:22:18.956927+05:30
Tirunelveli,Tamil Nadu,8.7139,77.7567,28.7,69,0.0,1001.6,8.4,40.3,26,12.4,8.3,8.0,122.0,32.0,2.6,7,5,4,1,2026-07-12T02:22:18.956935+05:30
Vellore,Tamil Nadu,12.9165,79.1325,29.7,57,0.0,981.4,7.25,39.6,64,20.7,13.2,10.5,207.0,41.0,3.7,4,5,7,1,2026-07-12T02:22:18.956943+05:30
Erode,Tamil Nadu,11.341,77.7172,26.5,80,0.0,987.4,8.75,52.6,55,29.8,18.6,20.1,167.0,24.0,4.6,7,5,7,1,2026-07-12T02:22:18.956951+05:30
Kochi,Kerala,9.9312,76.2673,26.9,90,0.0,1008.4,7.85,43.2,48,23.2,15.3,14.3,97.0,20.0,3.6,7,0,4,1,2026-07-12T02:22:18.956959+05:30
Thiruvananthapuram,Kerala,8.5241,76.9366,25.4,94,0.0,1008.0,7.85,49.3,34,14.4,8.0,4.4,112.0,43.0,1.9,7,0,4,1,2026-07-12T02:22:18.956966+05:30
Kozhikode,Kerala,11.2588,75.7804,25.7,93,0.0,1007.5,8.15,46.8,38,20.5,10.0,3.3,171.0,46.0,1.7,7,5,4,1,2026-07-12T02:22:18.956973+05:30
Thrissur,Kerala,10.5276,76.2144,25.5,92,0.0,1006.8,7.8,41.0,47,16.9,11.5,8.7,160.0,29.0,3.2,7,5,4,1,2026-07-12T02:22:18.956981+05:30
Kannur,Kerala,11.8745,75.3704,26.0,90,0.0,1006.7,8.2,44.6,43,16.4,9.6,8.2,166.0,31.0,2.4,7,5,4,1,2026-07-12T02:22:18.956988+05:30
Patna,Bihar,25.5941,85.1376,27.0,93,0.1,990.4,8.75,37.4,125,78.0,59.8,20.0,399.0,62.0,7.7,10,5,7,1,2026-07-12T02:22:18.956996+05:30
Gaya,Bihar,24.7914,85.0002,27.8,83,0.0,984.3,8.55,38.2,98,53.6,38.3,19.6,226.0,56.0,29.8,7,5,7,1,2026-07-12T02:22:18.957003+05:30
Muzaffarpur,Bihar,26.1209,85.3647,27.3,89,0.0,990.2,8.0,35.6,122,63.6,48.2,14.4,342.0,78.0,5.2,7,5,7,1,2026-07-12T02:22:18.957010+05:30
Bhagalpur,Bihar,25.2425,87.0117,26.7,96,0.0,991.2,7.9,32.0,83,34.2,27.1,13.4,238.0,63.0,6.3,7,5,7,1,2026-07-12T02:22:18.957017+05:30
Ranchi,Jharkhand,23.3441,85.3096,23.8,90,0.0,929.6,8.45,31.0,88,45.3,33.4,8.8,224.0,67.0,10.2,3,5,7,1,2026-07-12T02:22:18.957025+05:30
Jamshedpur,Jharkhand,22.8046,86.2029,27.2,84,0.0,982.1,4.7,28.4,111,54.5,40.5,14.8,262.0,73.0,31.0,7,5,3,1,2026-07-12T02:22:18.957032+05:30
Dhanbad,Jharkhand,23.7957,86.4304,26.5,88,0.0,970.7,7.65,30.2,113,50.2,39.3,28.5,252.0,45.0,66.2,7,5,7,1,2026-07-12T02:22:18.957039+05:30
Bokaro,Jharkhand,23.6693,86.1511,27.2,82,0.0,974.6,9.05,32.0,106,48.9,36.9,19.0,242.0,53.0,44.2,7,5,7,1,2026-07-12T02:22:18.957046+05:30
Bhubaneswar,Odisha,20.2961,85.8245,27.5,89,0.0,994.6,9.05,36.4,96,55.3,38.0,13.8,365.0,56.0,7.3,7,5,7,1,2026-07-12T02:22:18.957054+05:30
Cuttack,Odisha,20.4625,85.8828,27.8,90,0.0,996.3,9.05,37.1,96,55.3,38.0,13.8,359.0,56.0,7.3,7,5,7,1,2026-07-12T02:22:18.957061+05:30
Rourkela,Odisha,22.2604,84.8536,26.7,83,0.0,977.1,8.9,30.6,124,52.5,37.0,15.5,247.0,60.0,22.7,7,5,7,1,2026-07-12T02:22:18.957068+05:30
Raipur,Chhattisgarh,21.2514,81.6296,27.0,73,0.0,967.7,7.05,43.6,109,51.7,31.9,21.5,422.0,52.0,36.8,7,5,7,1,2026-07-12T02:22:18.957074+05:30
Bhilai,Chhattisgarh,21.1938,81.3509,26.7,75,0.0,968.2,8.3,47.9,102,49.6,29.7,17.7,496.0,55.0,30.3,7,5,7,1,2026-07-12T02:22:18.957080+05:30
Guwahati,Assam,26.1158,91.7086,25.8,99,0.1,991.3,3.65,19.1,46,15.0,14.9,8.5,277.0,66.0,2.6,10,5,3,1,2026-07-12T02:22:18.957087+05:30
Agartala,Tripura,23.8315,91.2868,25.8,99,0.0,996.3,7.95,31.0,82,27.0,21.0,9.0,215.0,70.0,3.7,7,5,7,1,2026-07-12T02:22:18.957094+05:30
Shillong,Meghalaya,25.5788,91.8933,21.0,96,0.0,849.7,3.25,19.8,38,2.2,2.2,4.7,299.0,84.0,2.3,3,5,3,1,2026-07-12T02:22:18.957100+05:30
Imphal,Manipur,24.817,93.9368,23.3,98,0.0,915.1,1.45,31.0,29,17.1,12.0,5.7,340.0,63.0,2.4,3,5,3,1,2026-07-12T02:22:18.957107+05:30
Aizawl,Mizoram,23.7271,92.7176,20.0,98,0.0,884.5,4.15,36.4,36,5.8,3.6,2.0,152.0,75.0,3.0,3,5,3,1,2026-07-12T02:22:18.957114+05:30
Kohima,Nagaland,25.6701,94.1077,21.2,90,0.1,848.1,3.45,19.4,26,4.0,3.8,4.4,308.0,61.0,1.1,6,5,3,1,2026-07-12T02:22:18.957120+05:30
Gangtok,Sikkim,27.3314,88.6138,18.8,99,0.5,830.2,7.1,28.4,45,4.5,4.5,6.1,342.0,90.0,1.4,6,10,7,1,2026-07-12T02:22:18.957126+05:30
Siliguri,West Bengal,26.7271,88.3953,25.5,99,0.0,982.5,8.0,19.8,79,20.8,20.7,10.2,421.0,92.0,3.6,7,5,7,1,2026-07-12T02:22:22.206000+05:30
Durgapur,West Bengal,23.5204,87.3119,27.4,88,0.0,985.4,7.1,28.1,120,49.8,39.0,36.0,246.0,36.0,58.7,7,5,7,1,2026-07-12T02:22:22.206038+05:30
Asansol,West Bengal,23.6739,86.9524,27.5,86,0.0,984.1,8.8,30.6,104,46.7,36.6,30.8,1218.0,41.0,52.9,7,5,7,1,2026-07-12T02:22:22.206050+05:30
Pondicherry,Puducherry,11.9139,79.8145,29.6,70,0.0,1004.8,8.7,46.1,69,18.6,13.3,12.2,209.0,59.0,7.5,7,5,4,1,2026-07-12T02:22:22.206060+05:30
Port Blair,Andaman and Nicobar Islands,11.6234,92.7265,25.9,91,0.1,1004.0,8.25,58.0,32,16.9,8.7,0.1,82.0,57.0,0.3,10,5,4,1,2026-07-12T02:22:22.206069+05:30
Haridwar,Uttarakhand,29.9457,78.1642,24.3,98,0.0,963.5,7.45,32.4,99,55.6,49.4,27.3,448.0,49.0,6.8,3,5,7,1,2026-07-12T02:22:22.206078+05:30
Rishikesh,Uttarakhand,30.0869,78.2676,24.4,95,0.0,956.3,7.55,32.8,87,23.5,19.3,6.3,337.0,116.0,3.1,3,5,7,1,2026-07-12T02:22:22.206086+05:30
Nainital,Uttarakhand,29.3919,79.4542,16.0,100,0.0,798.2,8.15,33.1,73,56.3,32.4,10.2,326.0,97.0,4.6,3,10,7,0,2026-07-12T02:22:22.206094+05:30
Mussoorie,Uttarakhand,30.4599,78.0664,16.1,100,0.0,795.4,7.95,41.0,71,30.7,28.0,32.1,329.0,66.0,6.5,3,10,7,0,2026-07-12T02:22:22.206102+05:30
Dharamshala,Himachal Pradesh,32.219,76.3234,21.1,88,0.0,861.0,8.45,36.4,50,14.9,13.2,17.6,564.0,48.0,1.0,3,5,7,1,2026-07-12T02:22:22.206109+05:30
Dalhousie,Himachal Pradesh,32.5387,75.971,15.0,99,0.0,796.0,8.65,28.4,92,51.0,44.1,45.6,513.0,65.0,4.9,3,10,7,0,2026-07-12T02:22:22.206117+05:30
Patiala,Punjab,30.3398,76.3869,28.1,88,0.0,966.9,7.5,36.7,167,139.2,88.0,31.3,663.0,49.0,9.0,7,5,7,1,2026-07-12T02:22:22.206125+05:30
Bhatinda,Punjab,30.211,74.9455,30.2,78,0.0,971.5,8.25,37.4,176,403.3,143.4,28.9,328.0,48.0,8.4,3,5,7,1,2026-07-12T02:22:22.206132+05:30
Rohtak,Haryana,28.8955,76.6066,29.3,77,0.0,970.6,7.6,27.7,752,1329.9,207.7,15.2,235.0,52.0,3.7,7,5,7,1,2026-07-12T02:22:22.206138+05:30
Panipat,Haryana,29.3909,76.9635,26.1,92,0.0,969.7,7.45,26.6,919,1326.2,250.5,45.7,1056.0,19.0,8.4,7,5,7,1,2026-07-12T02:22:22.206145+05:30
Mathura,Uttar Pradesh,27.4924,77.6737,30.3,65,0.0,976.2,7.9,33.5,610,808.4,116.9,19.0,210.0,46.0,4.5,3,5,7,1,2026-07-12T02:22:22.206152+05:30
Vrindavan,Uttar Pradesh,27.5823,77.7027,30.6,64,0.0,976.5,7.9,32.4,610,808.4,116.9,19.0,204.0,46.0,4.5,3,5,7,1,2026-07-12T02:22:22.206159+05:30
Ayodhya,Uttar Pradesh,26.7922,82.1998,26.5,93,0.1,985.2,8.1,31.7,151,99.2,47.4,14.7,256.0,63.0,3.9,10,5,7,1,2026-07-12T02:22:22.206166+05:30
Ratlam,Madhya Pradesh,23.3315,75.0367,24.6,93,0.0,947.6,8.45,52.2,61,20.5,12.3,7.1,132.0,42.0,8.6,3,5,7,1,2026-07-12T02:22:22.206173+05:30
Sagar,Madhya Pradesh,23.8388,78.7378,26.2,77,0.0,943.1,8.6,46.4,82,34.2,21.2,5.4,175.0,66.0,3.9,7,5,7,1,2026-07-12T02:22:22.206180+05:30
Satna,Madhya Pradesh,24.6005,80.8322,27.8,71,0.0,963.1,8.6,42.1,90,38.2,23.1,5.2,170.0,67.0,3.6,7,5,7,1,2026-07-12T02:22:22.206186+05:30
Akola,Maharashtra,20.7002,77.0082,26.8,71,0.0,969.8,8.7,47.2,59,21.0,11.3,6.6,117.0,40.0,6.5,7,5,7,1,2026-07-12T02:22:22.206194+05:30
Amravati,Maharashtra,20.9374,77.7796,26.8,72,0.0,961.6,8.75,46.1,61,20.7,11.3,7.2,130.0,40.0,7.5,7,5,7,1,2026-07-12T02:22:22.206201+05:30
Latur,Maharashtra,18.4088,76.5604,23.7,78,0.0,935.8,8.85,49.7,50,16.5,8.3,5.0,113.0,40.0,2.9,3,5,7,1,2026-07-12T02:22:22.206209+05:30
Nanded,Maharashtra,19.1383,77.3091,26.6,70,0.0,964.1,8.85,42.8,59,17.5,10.4,5.4,126.0,48.0,4.0,7,5,7,1,2026-07-12T02:22:22.206215+05:30
Gulbarga,Karnataka,17.3297,76.8343,24.9,75,0.0,955.4,8.35,54.7,49,21.3,10.6,6.1,116.0,39.0,2.8,3,5,7,1,2026-07-12T02:22:22.206222+05:30
Bidar,Karnataka,17.9104,77.5199,24.6,75,0.0,931.6,8.8,48.2,54,18.9,10.4,5.5,131.0,45.0,2.3,3,5,7,1,2026-07-12T02:22:22.206229+05:30
Hospet,Karnataka,15.2689,76.3909,23.4,88,0.0,953.8,8.45,55.4,40,12.4,6.4,5.3,125.0,36.0,1.8,3,5,7,1,2026-07-12T02:22:22.206235+05:30
Tirupur,Tamil Nadu,11.1085,77.3411,24.8,90,0.0,973.8,8.8,64.8,58,35.6,23.1,26.8,163.0,15.0,5.9,3,5,7,1,2026-07-12T02:22:22.206241+05:30
Alappuzha,Kerala,9.4981,76.3388,26.9,92,0.0,1008.5,7.95,45.4,42,21.3,12.3,9.2,81.0,36.0,3.0,7,0,4,1,2026-07-12T02:22:22.206248+05:30
Munnar,Kerala,10.0889,77.0595,16.4,95,0.0,855.3,8.65,38.5,21,13.4,9.0,9.6,96.0,19.0,1.6,3,10,7,0,2026-07-12T02:22:22.206255+05:30
Silchar,Assam,24.8333,92.7789,26.5,95,0.1,995.6,2.25,21.2,35,20.7,13.6,4.6,300.0,74.0,3.6,10,5,3,1,2026-07-12T02:22:22.206261+05:30
Dibrugarh,Assam,27.4728,94.912,25.9,98,0.1,985.4,4.05,24.1,38,6.5,6.4,6.6,210.0,75.0,1.0,10,5,3,1,2026-07-12T02:22:22.206268+05:30
