city,state,latitude,longitude,temp,humidity,rain,pressure,uv_index,wind_gusts,aqi,pm10,pm2_5,mosquito_risk,arthritis_risk,migraine_risk,frizz_risk,updated_at
Delhi,Delhi,28.6139,77.209,33.8,18,0.0,982.5,7.25,31.3,420,646.3,70.3,0,5,7,0,2026-04-13T17:35:24.758972+05:30
Mumbai,Maharashtra,19.076,72.8777,28.5,80,0.0,1007.7,8.0,20.9,125,71.9,38.3,7,5,4,1,2026-04-13T17:35:24.759009+05:30
Bangalore,Karnataka,12.9716,77.5946,35.1,22,0.0,910.9,9.6,31.3,158,36.0,22.9,0,5,10,0,2026-04-13T17:35:24.759025+05:30
Hyderabad,Telangana,17.385,78.4867,38.4,23,0.0,951.2,9.25,32.0,135,48.5,35.2,0,5,10,0,2026-04-13T17:35:24.759035+05:30
Chennai,Tamil Nadu,13.0827,80.2707,31.5,60,0.0,1006.2,9.3,35.6,45,15.3,9.1,0,5,4,1,2026-04-13T17:35:24.759044+05:30
Kolkata,West Bengal,22.5726,88.3639,31.8,57,0.0,1004.4,8.85,28.1,74,30.9,25.6,0,5,4,1,2026-04-13T17:35:24.759053+05:30
Pune,Maharashtra,18.5204,73.8567,34.2,47,0.0,948.0,8.6,40.3,122,31.4,19.3,0,5,7,1,2026-04-13T17:35:24.759064+05:30
Ahmedabad,Gujarat,23.0225,72.5714,40.3,13,0.0,999.7,8.1,29.5,165,43.4,15.2,0,5,10,0,2026-04-13T17:35:24.759072+05:30
Jaipur,Rajasthan,26.9124,75.7873,35.7,15,0.0,959.4,7.9,25.6,149,153.7,22.6,0,5,10,0,2026-04-13T17:35:24.759079+05:30
Lucknow,Uttar Pradesh,26.8467,80.9462,34.9,20,0.0,992.1,7.75,41.0,119,244.0,34.3,0,5,7,0,2026-04-13T17:35:24.759087+05:30
Kanpur,Uttar Pradesh,26.4499,80.3319,33.0,28,0.0,991.1,7.75,31.0,293,530.9,57.9,0,5,7,0,2026-04-13T17:35:24.759094+05:30
Chandigarh,Chandigarh,30.7333,76.7794,30.4,28,0.0,968.5,7.2,27.0,151,11.8,9.5,0,5,7,0,2026-04-13T17:35:24.759101+05:30
Srinagar,Jammu and Kashmir,34.0837,74.7973,19.4,47,0.0,842.2,8.1,16.9,136,20.2,8.1,0,5,7,0,2026-04-13T17:35:24.759108+05:30
Jammu,Jammu and Kashmir,32.7266,74.857,31.4,26,0.0,972.7,7.4,29.5,133,25.1,15.1,0,5,7,0,2026-04-13T17:35:24.759115+05:30
Amritsar,Punjab,31.634,74.8723,31.2,26,0.0,980.9,7.8,20.9,156,16.9,10.8,0,5,7,0,2026-04-13T17:35:24.759121+05:30
Ludhiana,Punjab,30.901,75.8573,31.8,21,0.0,978.6,7.45,24.8,137,29.2,12.7,0,5,7,0,2026-04-13T17:35:24.759127+05:30
Jalandhar,Punjab,31.326,75.5762,31.4,26,0.0,979.8,7.6,23.0,146,42.1,14.5,0,5,7,0,2026-04-13T17:35:24.759136+05:30
Dehradun,Uttarakhand,30.6284,78.0322,19.9,51,0.0,831.0,7.5,29.2,129,9.6,7.4,0,5,7,0,2026-04-13T17:35:24.759143+05:30
Shimla,Himachal Pradesh,31.1048,77.1734,17.7,49,0.0,786.0,7.7,35.6,127,12.1,6.3,0,5,7,0,2026-04-13T17:35:24.759149+05:30
Manali,Himachal Pradesh,32.2396,77.1887,19.6,48,0.0,821.0,9.8,31.0,156,12.4,6.1,0,5,7,0,2026-04-13T17:35:24.759155+05:30
Gurgaon,Haryana,28.4595,77.0266,33.7,18,0.0,980.9,7.35,25.9,1066,1806.8,170.9,0,5,7,0,2026-04-13T17:35:24.759161+05:30
Noida,Uttar Pradesh,28.5355,77.391,33.8,19,0.0,983.9,7.3,31.7,1066,1806.8,170.9,0,5,7,0,2026-04-13T17:35:24.759167+05:30
Ghaziabad,Uttar Pradesh,28.6692,77.4538,33.2,20,0.0,982.1,7.25,31.3,206,540.2,63.8,0,5,7,0,2026-04-13T17:35:24.759176+05:30
Faridabad,Haryana,28.4089,77.3178,33.6,20,0.0,983.2,7.3,29.2,1066,1806.8,170.9,0,5,7,0,2026-04-13T17:35:24.759182+05:30
Meerut,Uttar Pradesh,28.9845,77.7064,32.7,20,0.0,980.7,7.15,33.1,206,540.2,63.8,0,5,7,0,2026-04-13T17:35:24.759189+05:30
Agra,Uttar Pradesh,27.1767,78.0081,34.7,18,0.0,987.2,7.65,24.8,892,983.5,92.7,0,5,7,0,2026-04-13T17:35:24.759195+05:30
Varanasi,Uttar Pradesh,25.3176,82.9739,35.7,15,0.0,995.9,8.35,35.3,148,62.9,18.0,0,5,10,0,2026-04-13T17:35:24.759204+05:30
Prayagraj,Uttar Pradesh,25.4358,81.8463,35.0,17,0.0,995.1,8.25,35.3,135,61.0,15.7,0,5,7,0,2026-04-13T17:35:24.759211+05:30
Gorakhpur,Uttar Pradesh,26.7606,83.3732,35.7,12,0.0,994.7,8.15,24.1,145,29.2,12.0,0,5,10,0,2026-04-13T17:35:24.759217+05:30
Bareilly,Uttar Pradesh,28.367,79.4304,33.0,18,0.0,985.7,7.5,36.0,140,32.7,12.6,0,5,7,0,2026-04-13T17:35:24.759223+05:30
Aligarh,Uttar Pradesh,27.8974,78.088,34.3,18,0.0,984.8,7.45,32.0,612,1106.4,114.8,0,5,7,0,2026-04-13T17:35:24.759229+05:30
Moradabad,Uttar Pradesh,28.8386,78.7733,32.4,22,0.0,982.7,7.35,33.1,138,86.6,21.1,0,5,7,0,2026-04-13T17:35:24.759235+05:30
Saharanpur,Uttar Pradesh,29.9637,77.546,31.5,24,0.0,975.0,6.95,27.0,149,105.5,21.2,0,5,7,0,2026-04-13T17:35:24.759243+05:30
Jhansi,Uttar Pradesh,25.4484,78.5685,35.7,19,0.0,977.5,8.15,26.6,167,156.5,26.8,0,5,10,0,2026-04-13T17:35:28.110698+05:30
Surat,Gujarat,21.1702,72.8311,30.8,72,0.0,1005.5,7.75,26.6,134,69.4,55.9,3,5,4,1,2026-04-13T17:35:28.110729+05:30
Vadodara,Gujarat,22.3072,73.1812,40.4,17,0.0,1001.6,8.05,24.5,170,38.0,18.5,0,5,7,0,2026-04-13T17:35:28.110740+05:30
Rajkot,Gujarat,22.3039,70.8022,38.9,16,0.0,993.0,7.8,37.4,97,43.7,16.2,0,5,10,0,2026-04-13T17:35:28.110749+05:30
Thane,Maharashtra,19.2183,72.9781,29.8,74,0.0,1007.3,8.0,34.2,125,71.9,38.3,7,5,4,1,2026-04-13T17:35:28.110758+05:30
Nagpur,Maharashtra,21.1458,79.0882,37.5,28,0.0,970.6,8.85,25.2,201,55.4,28.0,0,5,10,0,2026-04-13T17:35:28.110767+05:30
Nashik,Maharashtra,19.9975,73.7898,34.2,36,0.0,945.4,8.25,35.3,96,29.1,16.5,0,5,7,1,2026-04-13T17:35:28.110776+05:30
Aurangabad,Maharashtra,19.8762,75.3433,38.0,17,0.0,942.9,8.95,34.6,99,23.1,11.1,0,5,10,0,2026-04-13T17:35:28.110784+05:30
Solapur,Maharashtra,17.6599,75.9064,39.8,18,0.0,954.6,9.05,30.2,159,35.5,22.9,0,5,10,0,2026-04-13T17:35:28.110792+05:30
Kolhapur,Maharashtra,16.705,74.2433,30.4,59,0.0,947.3,9.05,43.2,92,33.1,20.4,0,5,7,1,2026-04-13T17:35:28.110800+05:30
Goa,Goa,15.2993,74.124,30.3,69,0.0,996.9,9.05,29.9,90,49.2,22.0,3,5,7,1,2026-04-13T17:35:28.110808+05:30
Jodhpur,Rajasthan,26.2389,73.0243,37.8,16,0.0,981.3,8.15,26.6,122,136.0,18.5,0,5,10,0,2026-04-13T17:35:28.110815+05:30
Udaipur,Rajasthan,24.5854,73.7125,35.0,15,0.0,946.5,8.7,29.9,130,43.8,10.8,0,5,7,0,2026-04-13T17:35:28.110823+05:30
Kota,Rajasthan,25.2138,75.8648,37.1,18,0.0,977.3,8.15,17.3,143,72.4,17.7,0,5,10,0,2026-04-13T17:35:28.110832+05:30
Bikaner,Rajasthan,28.0229,73.3119,37.5,13,0.0,980.4,7.95,19.4,123,32.5,7.8,0,5,10,0,2026-04-13T17:35:28.110840+05:30
Ajmer,Rajasthan,26.4499,74.6399,35.4,15,0.0,954.2,8.1,29.9,124,43.8,9.3,0,5,10,0,2026-04-13T17:35:28.110847+05:30
Gwalior,Madhya Pradesh,26.2183,78.1828,34.2,23,0.0,983.2,7.9,31.7,297,98.0,22.0,0,5,7,0,2026-04-13T17:35:28.110855+05:30
Indore,Madhya Pradesh,22.7196,75.8577,35.3,18,0.0,947.5,8.55,32.0,139,54.0,22.9,0,5,10,0,2026-04-13T17:35:28.110863+05:30
Bhopal,Madhya Pradesh,23.2599,77.4126,37.1,19,0.0,952.5,8.5,25.2,135,74.5,23.4,0,5,10,0,2026-04-13T17:35:28.110871+05:30
Jabalpur,Madhya Pradesh,23.1815,79.9864,36.2,22,0.0,960.3,8.65,27.4,136,133.6,31.3,0,5,10,0,2026-04-13T17:35:28.110878+05:30
Ujjain,Madhya Pradesh,23.1765,75.7885,35.8,17,0.0,953.1,8.45,31.0,142,46.0,22.6,0,5,10,0,2026-04-13T17:35:28.110888+05:30
Visakhapatnam,Andhra Pradesh,17.6868,83.2185,29.9,70,0.0,1002.8,9.15,40.0,71,28.3,16.6,7,5,4,1,2026-04-13T17:35:28.110925+05:30
Vijayawada,Andhra Pradesh,16.5062,80.648,35.6,40,0.0,1000.8,9.2,27.7,62,31.9,21.8,0,5,7,1,2026-04-13T17:35:28.110934+05:30
Guntur,Andhra Pradesh,16.3067,80.4365,34.1,46,0.0,1002.1,9.25,32.0,67,35.0,24.5,0,5,4,1,2026-04-13T17:35:28.110942+05:30
Nellore,Andhra Pradesh,14.4426,79.9865,32.4,60,0.0,1004.3,9.3,35.6,74,23.6,15.8,0,5,4,1,2026-04-13T17:35:28.110951+05:30
Kurnool,Andhra Pradesh,15.8281,78.0373,40.2,23,0.0,973.8,9.2,26.6,144,50.1,34.5,0,5,10,0,2026-04-13T17:35:28.110960+05:30
Kakinada,Andhra Pradesh,16.9891,82.2475,32.7,57,0.0,1006.5,9.2,32.8,58,25.8,12.0,0,5,4,1,2026-04-13T17:35:28.110968+05:30
Tirupati,Andhra Pradesh,13.6288,79.4192,36.1,32,0.0,989.9,9.4,31.0,75,28.9,21.1,0,5,10,1,2026-04-13T17:35:28.110976+05:30
Warangal,Telangana,17.9689,79.5941,38.7,29,0.0,975.9,9.1,33.8,92,43.2,30.2,0,5,10,1,2026-04-13T17:35:28.110983+05:30
Nizamabad,Telangana,18.6725,78.0941,38.7,24,0.0,962.5,9.05,32.0,147,35.3,24.6,0,5,10,0,2026-04-13T17:35:28.110991+05:30
Mysore,Karnataka,12.2958,76.6396,35.6,24,0.0,927.0,9.5,46.8,137,36.7,23.3,0,5,10,0,2026-04-13T17:35:28.110999+05:30
Mangalore,Karnataka,12.9141,74.856,29.8,81,0.0,1005.2,9.15,24.8,99,51.3,30.5,7,5,4,1,2026-04-13T17:35:28.111006+05:30
Hubli-Dharwad,Karnataka,15.3647,75.124,33.5,43,0.0,939.8,9.25,34.9,138,46.9,34.7,0,5,7,1,2026-04-13T17:35:28.111015+05:30
Belgaum,Karnataka,15.8497,74.4977,29.8,60,0.0,925.5,9.3,40.0,108,34.1,20.4,4,5,7,1,2026-04-13T17:35:31.461648+05:30
Coimbatore,Tamil Nadu,11.0168,76.9558,36.6,26,0.0,959.7,9.45,36.4,140,30.5,17.9,0,5,10,0,2026-04-13T17:35:31.461679+05:30
Madurai,Tamil Nadu,9.9252,78.1198,37.6,27,0.0,990.4,9.35,40.3,93,18.9,13.7,0,5,10,0,2026-04-13T17:35:31.461691+05:30
Trichy,Tamil Nadu,10.7905,78.7047,36.5,38,0.0,997.5,9.35,29.9,61,16.4,12.6,0,5,10,1,2026-04-13T17:35:31.461701+05:30
Salem,Tamil Nadu,11.6643,78.146,38.0,26,0.0,975.0,9.45,17.6,97,28.5,16.9,0,5,10,0,2026-04-13T17:35:31.461709+05:30
Tirunelveli,Tamil Nadu,8.7139,77.7567,34.0,53,0.0,1001.0,9.25,46.8,111,26.3,20.7,0,5,4,1,2026-04-13T17:35:31.461718+05:30
Vellore,Tamil Nadu,12.9165,79.1325,35.7,31,0.0,983.0,9.45,33.5,86,30.7,23.6,0,5,10,0,2026-04-13T17:35:31.461725+05:30
Erode,Tamil Nadu,11.341,77.7172,38.2,30,0.0,986.2,9.4,28.1,98,25.4,14.7,0,5,10,1,2026-04-13T17:35:31.461733+05:30
Kochi,Kerala,9.9312,76.2673,30.2,79,0.0,1006.4,9.1,33.5,98,37.8,24.3,3,5,4,1,2026-04-13T17:35:31.461741+05:30
Thiruvananthapuram,Kerala,8.5241,76.9366,29.7,80,0.0,1006.3,8.9,27.4,83,42.1,24.0,7,5,4,1,2026-04-13T17:35:31.461748+05:30
Kozhikode,Kerala,11.2588,75.7804,30.9,76,0.0,1006.0,9.15,32.0,97,46.7,25.3,3,5,4,1,2026-04-13T17:35:31.461756+05:30
Thrissur,Kerala,10.5276,76.2144,31.7,69,0.0,1004.7,9.1,39.6,96,36.4,23.9,3,5,4,1,2026-04-13T17:35:31.461764+05:30
Kannur,Kerala,11.8745,75.3704,31.0,70,0.0,1005.6,9.15,33.1,113,51.6,28.9,3,5,4,1,2026-04-13T17:35:31.461772+05:30
Patna,Bihar,25.5941,85.1376,35.2,22,0.0,998.2,8.45,31.3,152,69.2,21.2,0,5,10,0,2026-04-13T17:35:31.461779+05:30
Gaya,Bihar,24.7914,85.0002,33.6,29,0.0,992.1,8.55,23.8,158,87.5,24.9,0,5,7,0,2026-04-13T17:35:31.461787+05:30
Muzaffarpur,Bihar,26.1209,85.3647,34.1,27,0.0,998.0,8.45,22.3,159,62.4,21.6,0,5,7,0,2026-04-13T17:35:31.461794+05:30
Bhagalpur,Bihar,25.2425,87.0117,31.5,54,0.0,999.6,8.5,14.4,176,84.8,32.5,0,5,7,1,2026-04-13T17:35:31.461801+05:30
Ranchi,Jharkhand,23.3441,85.3096,33.0,24,0.0,937.5,9.1,20.5,183,48.4,18.7,0,5,7,0,2026-04-13T17:35:31.461808+05:30
Jamshedpur,Jharkhand,22.8046,86.2029,35.1,38,0.0,988.8,8.95,16.9,208,64.7,42.7,0,5,10,1,2026-04-13T17:35:31.461816+05:30
Dhanbad,Jharkhand,23.7957,86.4304,35.9,23,0.0,978.1,8.9,21.2,167,99.9,51.1,0,5,10,0,2026-04-13T17:35:31.461823+05:30
Bokaro,Jharkhand,23.6693,86.1511,34.2,29,0.0,982.3,8.9,21.2,181,96.9,47.3,0,5,7,0,2026-04-13T17:35:31.461831+05:30
Bhubaneswar,Odisha,20.2961,85.8245,29.8,73,0.0,1001.7,9.05,32.0,77,26.3,19.8,7,5,4,1,2026-04-13T17:35:31.461838+05:30
Cuttack,Odisha,20.4625,85.8828,32.4,62,0.0,1003.0,9.1,29.5,77,26.3,19.8,3,5,4,1,2026-04-13T17:35:31.461846+05:30
Rourkela,Odisha,22.2604,84.8536,36.7,33,0.0,982.8,8.85,24.8,211,47.6,35.7,0,5,10,1,2026-04-13T17:35:31.461854+05:30
Raipur,Chhattisgarh,21.2514,81.6296,39.9,15,0.0,971.7,8.9,34.2,191,41.0,29.4,0,5,10,0,2026-04-13T17:35:31.461862+05:30
Bhilai,Chhattisgarh,21.1938,81.3509,39.5,15,0.0,972.2,8.9,32.8,164,33.5,24.4,0,5,10,0,2026-04-13T17:35:31.461869+05:30
Guwahati,Assam,26.1158,91.7086,27.0,73,0.0,1001.3,8.4,39.6,151,79.4,51.7,7,5,4,1,2026-04-13T17:35:31.461876+05:30
Agartala,Tripura,23.8315,91.2868,30.3,60,0.0,1005.1,8.65,24.8,96,45.2,32.4,0,5,4,1,2026-04-13T17:35:31.461884+05:30
Shillong,Meghalaya,25.5788,91.8933,16.9,79,0.0,856.5,8.8,75.2,118,60.8,39.8,3,5,7,0,2026-04-13T17:35:31.461918+05:30
Imphal,Manipur,24.817,93.9368,20.7,74,0.0,923.6,9.0,66.6,129,62.9,34.8,3,5,7,0,2026-04-13T17:35:31.461927+05:30
Aizawl,Mizoram,23.7271,92.7176,23.9,59,0.0,893.8,8.9,46.8,131,63.3,35.5,0,5,7,0,2026-04-13T17:35:31.461935+05:30
Kohima,Nagaland,25.6701,94.1077,17.7,72,0.0,855.5,8.95,106.6,117,73.6,37.5,3,5,7,0,2026-04-13T17:35:31.461943+05:30
Gangtok,Sikkim,27.3314,88.6138,16.1,80,0.1,837.1,8.65,15.1,146,88.9,43.1,6,5,7,0,2026-04-13T17:35:31.461950+05:30
Siliguri,West Bengal,26.7271,88.3953,24.6,65,0.0,993.3,8.35,26.3,159,95.0,47.5,3,5,7,1,2026-04-13T17:35:34.813553+05:30
Durgapur,West Bengal,23.5204,87.3119,34.7,38,0.0,992.9,8.8,19.4,216,100.1,68.7,0,5,7,1,2026-04-13T17:35:34.813578+05:30
Asansol,West Bengal,23.6739,86.9524,35.8,37,0.0,991.4,8.85,16.6,187,91.0,48.5,0,5,10,1,2026-04-13T17:35:34.813587+05:30
Pondicherry,Puducherry,11.9139,79.8145,32.2,57,0.0,1007.0,9.25,31.7,36,11.3,6.7,0,5,4,1,2026-04-13T17:35:34.813594+05:30
Port Blair,Andaman and Nicobar Islands,11.6234,92.7265,29.3,75,0.0,1007.7,9.2,11.5,61,34.2,19.4,7,5,4,1,2026-04-13T17:35:34.813601+05:30
Haridwar,Uttarakhand,29.9457,78.1642,31.3,25,0.0,973.6,7.05,26.6,144,23.8,11.0,0,5,7,0,2026-04-13T17:35:34.813608+05:30
Rishikesh,Uttarakhand,30.0869,78.2676,29.9,30,0.0,966.5,7.05,29.2,138,7.8,7.0,4,5,7,0,2026-04-13T17:35:34.813615+05:30
Nainital,Uttarakhand,29.3919,79.4542,23.3,27,0.0,807.7,7.9,34.6,152,8.9,8.2,0,5,7,0,2026-04-13T17:35:34.813621+05:30
Mussoorie,Uttarakhand,30.4599,78.0664,20.5,44,0.0,803.9,7.5,33.1,139,10.3,9.2,0,5,7,0,2026-04-13T17:35:34.813627+05:30
Dharamshala,Himachal Pradesh,32.219,76.3234,23.5,47,0.0,870.0,7.75,21.2,125,18.1,8.1,0,5,7,0,2026-04-13T17:35:34.813633+05:30
Dalhousie,Himachal Pradesh,32.5387,75.971,22.1,40,0.0,805.5,7.45,21.2,133,20.4,10.8,0,5,7,0,2026-04-13T17:35:34.813640+05:30
Patiala,Punjab,30.3398,76.3869,32.3,20,0.0,977.9,7.1,26.3,315,622.1,60.1,0,5,7,0,2026-04-13T17:35:34.813646+05:30
Bhatinda,Punjab,30.211,74.9455,33.8,17,0.0,983.3,7.75,23.4,141,16.5,6.9,0,5,7,0,2026-04-13T17:35:34.813652+05:30
Rohtak,Haryana,28.8955,76.6066,34.2,15,0.0,981.2,7.25,30.6,633,776.7,76.1,0,5,7,0,2026-04-13T17:35:34.813658+05:30
Panipat,Haryana,29.3909,76.9635,33.2,17,0.0,979.8,7.1,30.6,1133,1367.2,128.1,0,5,7,0,2026-04-13T17:35:34.813664+05:30
Mathura,Uttar Pradesh,27.4924,77.6737,34.7,23,0.0,986.2,7.6,25.9,782,1061.7,97.8,0,5,7,0,2026-04-13T17:35:34.813670+05:30
Vrindavan,Uttar Pradesh,27.5823,77.7027,34.5,21,0.0,986.6,7.55,27.7,782,1061.7,97.8,0,5,7,0,2026-04-13T17:35:34.813677+05:30
Ayodhya,Uttar Pradesh,26.7922,82.1998,35.7,12,0.0,993.2,7.95,36.0,125,33.6,11.5,0,5,10,0,2026-04-13T17:35:34.813682+05:30
Ratlam,Madhya Pradesh,23.3315,75.0367,33.2,31,0.0,954.0,8.35,30.2,133,29.3,12.3,0,5,7,0,2026-04-13T17:35:34.813688+05:30
Sagar,Madhya Pradesh,23.8388,78.7378,35.8,17,0.0,949.7,8.5,25.6,126,164.8,26.7,0,5,10,0,2026-04-13T17:35:34.813694+05:30
Satna,Madhya Pradesh,24.6005,80.8322,35.9,15,0.0,970.7,8.55,25.2,129,131.8,22.2,0,5,10,0,2026-04-13T17:35:34.813700+05:30
Akola,Maharashtra,20.7002,77.0082,39.3,18,0.0,972.7,8.75,31.7,150,29.4,15.5,0,5,10,0,2026-04-13T17:35:34.813707+05:30
Amravati,Maharashtra,20.9374,77.7796,39.0,18,0.0,964.9,8.8,24.5,155,35.5,19.2,0,5,10,0,2026-04-13T17:35:34.813714+05:30
Latur,Maharashtra,18.4088,76.5604,36.7,24,0.0,938.5,9.05,33.1,157,36.3,25.7,0,5,10,0,2026-04-13T17:35:34.813720+05:30
Nanded,Maharashtra,19.1383,77.3091,37.8,26,0.0,966.6,8.9,18.0,143,31.7,21.5,0,5,10,0,2026-04-13T17:35:34.813726+05:30
Gulbarga,Karnataka,17.3297,76.8343,39.8,20,0.0,956.0,9.1,18.0,161,44.9,32.4,0,5,10,0,2026-04-13T17:35:34.813732+05:30
Bidar,Karnataka,17.9104,77.5199,37.9,21,0.0,934.1,9.15,27.7,163,49.4,36.2,0,5,10,0,2026-04-13T17:35:34.813737+05:30
Hospet,Karnataka,15.2689,76.3909,38.3,23,0.0,953.8,9.3,29.5,137,50.2,36.8,0,5,10,0,2026-04-13T17:35:34.813743+05:30
Tirupur,Tamil Nadu,11.1085,77.3411,38.0,24,0.0,972.8,9.45,28.4,146,30.0,17.3,0,5,10,0,2026-04-13T17:35:34.813749+05:30
Alappuzha,Kerala,9.4981,76.3388,30.0,80,0.0,1006.6,9.05,28.1,93,43.5,26.0,7,5,4,1,2026-04-13T17:35:34.813755+05:30
Munnar,Kerala,10.0889,77.0595,27.5,66,0.0,857.7,9.7,32.4,95,28.6,19.3,7,5,7,1,2026-04-13T17:35:34.813762+05:30
Silchar,Assam,24.8333,92.7789,27.9,72,0.0,1005.0,8.65,37.4,151,89.4,54.2,7,5,4,1,2026-04-13T17:35:34.813767+05:30
Dibrugarh,Assam,27.4728,94.912,23.0,75,0.0,997.6,7.15,24.5,124,58.7,33.4,3,5,7,1,2026-04-13T17:35:34.813774+05:30
