city,state,latitude,longitude,temp,humidity,rain,pressure,uv_index,wind_gusts,aqi,pm10,pm2_5,mosquito_risk,arthritis_risk,migraine_risk,frizz_risk,updated_at
Delhi,Delhi,28.6139,77.209,31.0,30,0.0,977.9,7.45,47.2,540,687.3,118.5,0,5,7,0,2026-04-27T01:21:39.008709+05:30
Mumbai,Maharashtra,19.076,72.8777,28.2,87,0.0,1006.4,8.05,40.3,93,67.3,24.1,7,5,4,1,2026-04-27T01:21:39.008757+05:30
Bangalore,Karnataka,12.9716,77.5946,25.8,48,0.0,911.0,9.55,33.8,87,25.3,23.6,4,5,7,0,2026-04-27T01:21:39.008773+05:30
Hyderabad,Telangana,17.385,78.4867,29.2,48,0.0,951.1,9.2,29.9,96,44.7,39.7,4,5,7,1,2026-04-27T01:21:39.008784+05:30
Chennai,Tamil Nadu,13.0827,80.2707,28.1,90,0.0,1005.2,9.25,56.5,46,19.7,13.2,7,5,4,1,2026-04-27T01:21:39.008793+05:30
Kolkata,West Bengal,22.5726,88.3639,28.2,84,0.0,1001.6,8.8,46.8,59,19.2,13.7,7,5,4,1,2026-04-27T01:21:39.008806+05:30
Pune,Maharashtra,18.5204,73.8567,26.5,69,0.0,945.8,8.1,42.5,130,36.8,25.3,7,5,7,1,2026-04-27T01:21:39.008815+05:30
Ahmedabad,Gujarat,23.0225,72.5714,33.6,21,0.0,998.6,8.2,45.4,61,24.4,11.7,0,5,7,0,2026-04-27T01:21:39.008822+05:30
Jaipur,Rajasthan,26.9124,75.7873,32.2,22,0.0,955.7,8.05,39.6,144,169.5,34.9,0,5,7,0,2026-04-27T01:21:39.008830+05:30
Lucknow,Uttar Pradesh,26.8467,80.9462,29.5,56,0.0,988.4,7.9,42.5,177,356.7,75.4,4,5,7,1,2026-04-27T01:21:39.008838+05:30
Kanpur,Uttar Pradesh,26.4499,80.3319,32.8,23,0.0,985.8,7.95,49.3,549,421.0,68.0,0,5,7,0,2026-04-27T01:21:39.008846+05:30
Chandigarh,Chandigarh,30.7333,76.7794,27.5,27,0.0,963.1,7.3,45.4,66,22.2,17.2,4,5,7,0,2026-04-27T01:21:39.008854+05:30
Srinagar,Jammu and Kashmir,34.0837,74.7973,10.2,90,0.0,837.7,8.3,20.2,77,38.9,32.1,3,10,7,0,2026-04-27T01:21:39.008861+05:30
Jammu,Jammu and Kashmir,32.7266,74.857,24.0,36,0.0,966.8,8.25,30.2,66,34.0,27.9,0,5,7,0,2026-04-27T01:21:39.008869+05:30
Amritsar,Punjab,31.634,74.8723,28.1,34,0.0,975.4,8.15,35.6,77,38.5,22.1,4,5,7,0,2026-04-27T01:21:39.008878+05:30
Ludhiana,Punjab,30.901,75.8573,27.5,34,0.0,973.4,7.7,34.6,76,51.9,27.6,4,5,7,0,2026-04-27T01:21:39.008888+05:30
Jalandhar,Punjab,31.326,75.5762,26.4,36,0.0,974.4,7.9,28.1,83,39.9,32.4,4,5,7,0,2026-04-27T01:21:39.008895+05:30
Dehradun,Uttarakhand,30.6284,78.0322,13.7,51,0.0,824.6,7.9,43.9,53,27.0,14.2,0,5,7,0,2026-04-27T01:21:39.008901+05:30
Shimla,Himachal Pradesh,31.1048,77.1734,12.6,43,0.0,779.7,7.8,50.0,64,27.7,13.3,0,5,7,0,2026-04-27T01:21:39.008909+05:30
Manali,Himachal Pradesh,32.2396,77.1887,7.2,46,0.0,810.4,9.15,41.4,79,24.1,10.4,0,5,7,1,2026-04-27T01:21:39.008916+05:30
Gurgaon,Haryana,28.4595,77.0266,28.5,31,0.0,976.2,7.55,36.4,1394,845.6,124.3,4,5,7,0,2026-04-27T01:21:39.008923+05:30
Noida,Uttar Pradesh,28.5355,77.391,30.1,27,0.0,979.1,7.45,43.9,1394,845.6,124.3,0,5,7,0,2026-04-27T01:21:39.008930+05:30
Ghaziabad,Uttar Pradesh,28.6692,77.4538,29.1,26,0.0,977.4,7.4,41.4,447,683.6,118.0,4,5,7,0,2026-04-27T01:21:39.008937+05:30
Faridabad,Haryana,28.4089,77.3178,32.5,21,0.0,978.6,7.5,47.5,1394,845.6,124.3,0,5,7,0,2026-04-27T01:21:39.008944+05:30
Meerut,Uttar Pradesh,28.9845,77.7064,28.7,27,0.0,976.1,7.35,40.3,447,683.6,118.0,4,5,7,0,2026-04-27T01:21:39.008950+05:30
Agra,Uttar Pradesh,27.1767,78.0081,31.4,27,0.0,982.0,7.8,45.4,882,297.1,50.4,0,5,7,0,2026-04-27T01:21:39.008959+05:30
Varanasi,Uttar Pradesh,25.3176,82.9739,29.1,65,0.0,992.5,8.5,44.3,142,89.4,66.8,7,5,7,1,2026-04-27T01:21:39.008967+05:30
Prayagraj,Uttar Pradesh,25.4358,81.8463,29.5,46,0.0,990.4,8.4,43.6,134,104.3,50.3,4,5,7,1,2026-04-27T01:21:39.008975+05:30
Gorakhpur,Uttar Pradesh,26.7606,83.3732,25.4,73,0.0,993.8,8.35,37.1,151,70.5,54.5,7,5,7,1,2026-04-27T01:21:39.008983+05:30
Bareilly,Uttar Pradesh,28.367,79.4304,27.6,33,0.0,981.0,7.6,45.0,120,271.0,64.7,4,5,7,0,2026-04-27T01:21:39.008990+05:30
Aligarh,Uttar Pradesh,27.8974,78.088,29.5,31,0.0,980.1,7.6,46.8,983,786.0,135.0,4,5,7,0,2026-04-27T01:21:39.008996+05:30
Moradabad,Uttar Pradesh,28.8386,78.7733,28.2,27,0.0,978.0,7.55,48.2,130,325.0,79.2,4,5,7,0,2026-04-27T01:21:39.009003+05:30
Saharanpur,Uttar Pradesh,29.9637,77.546,28.1,26,0.0,969.9,7.05,46.8,83,123.4,36.0,4,5,7,0,2026-04-27T01:21:39.009009+05:30
Jhansi,Uttar Pradesh,25.4484,78.5685,31.1,26,0.0,972.8,8.3,43.6,90,57.7,25.3,0,5,7,0,2026-04-27T01:21:42.271840+05:30
Surat,Gujarat,21.1702,72.8311,29.6,66,0.0,1003.1,7.85,40.7,117,47.5,27.2,7,5,4,1,2026-04-27T01:21:42.271869+05:30
Vadodara,Gujarat,22.3072,73.1812,31.4,36,0.0,1000.7,8.15,41.4,76,43.2,31.0,0,5,4,0,2026-04-27T01:21:42.271880+05:30
Rajkot,Gujarat,22.3039,70.8022,28.0,47,0.0,991.8,7.9,49.0,58,32.8,14.3,4,5,7,0,2026-04-27T01:21:42.271887+05:30
Thane,Maharashtra,19.2183,72.9781,27.8,90,0.0,1005.8,8.05,37.1,93,67.3,24.1,7,5,4,1,2026-04-27T01:21:42.271895+05:30
Nagpur,Maharashtra,21.1458,79.0882,32.8,25,0.0,969.5,8.55,36.7,105,64.0,34.0,0,5,7,0,2026-04-27T01:21:42.271902+05:30
Nashik,Maharashtra,19.9975,73.7898,28.1,33,0.0,943.5,8.3,37.8,94,53.2,34.5,4,5,7,0,2026-04-27T01:21:42.271909+05:30
Aurangabad,Maharashtra,19.8762,75.3433,30.6,23,0.0,941.7,9.05,32.8,75,27.0,22.1,0,5,7,0,2026-04-27T01:21:42.271916+05:30
Solapur,Maharashtra,17.6599,75.9064,31.5,30,0.0,954.9,9.1,32.8,107,49.4,44.0,0,5,7,0,2026-04-27T01:21:42.271923+05:30
Kolhapur,Maharashtra,16.705,74.2433,24.6,93,0.0,946.5,9.0,49.7,100,26.7,17.5,3,5,7,1,2026-04-27T01:21:42.271930+05:30
Goa,Goa,15.2993,74.124,28.6,86,0.0,996.2,8.95,37.1,88,40.3,29.7,7,5,7,1,2026-04-27T01:21:42.271936+05:30
Jodhpur,Rajasthan,26.2389,73.0243,33.2,19,0.0,978.5,8.3,41.8,81,158.3,26.5,0,5,7,0,2026-04-27T01:21:42.271943+05:30
Udaipur,Rajasthan,24.5854,73.7125,30.9,18,0.0,943.8,8.75,44.3,60,39.8,13.6,0,5,7,0,2026-04-27T01:21:42.271950+05:30
Kota,Rajasthan,25.2138,75.8648,32.3,23,0.0,974.1,8.25,29.9,88,91.0,47.6,0,5,7,0,2026-04-27T01:21:42.271957+05:30
Bikaner,Rajasthan,28.0229,73.3119,32.6,24,0.0,976.7,8.1,52.2,70,66.6,19.7,0,5,7,0,2026-04-27T01:21:42.271963+05:30
Ajmer,Rajasthan,26.4499,74.6399,30.9,26,0.0,951.1,8.25,46.8,67,48.3,17.4,0,5,7,0,2026-04-27T01:21:42.271969+05:30
Gwalior,Madhya Pradesh,26.2183,78.1828,32.0,24,0.0,977.6,8.05,46.8,117,92.7,25.0,0,5,7,0,2026-04-27T01:21:42.271975+05:30
Indore,Madhya Pradesh,22.7196,75.8577,31.4,19,0.0,945.7,8.6,49.0,69,66.1,38.8,0,5,7,0,2026-04-27T01:21:42.271981+05:30
Bhopal,Madhya Pradesh,23.2599,77.4126,33.0,22,0.0,949.9,8.6,44.6,82,70.5,36.0,0,5,7,0,2026-04-27T01:21:42.271987+05:30
Jabalpur,Madhya Pradesh,23.1815,79.9864,29.5,27,0.0,957.0,8.25,40.0,72,71.0,27.1,4,5,7,0,2026-04-27T01:21:42.271993+05:30
Ujjain,Madhya Pradesh,23.1765,75.7885,30.1,21,0.0,950.9,8.55,46.1,72,56.2,38.8,0,5,7,0,2026-04-27T01:21:42.272000+05:30
Visakhapatnam,Andhra Pradesh,17.6868,83.2185,27.2,91,0.0,1001.0,9.15,54.4,56,20.1,14.6,7,5,4,1,2026-04-27T01:21:42.272006+05:30
Vijayawada,Andhra Pradesh,16.5062,80.648,27.0,91,0.0,1000.8,9.2,37.1,58,21.8,15.9,7,5,4,1,2026-04-27T01:21:42.272013+05:30
Guntur,Andhra Pradesh,16.3067,80.4365,27.3,92,0.0,1002.0,9.2,42.1,59,21.1,15.1,7,5,4,1,2026-04-27T01:21:42.272019+05:30
Nellore,Andhra Pradesh,14.4426,79.9865,27.1,87,0.0,1003.7,9.3,49.0,54,15.8,12.2,7,5,4,1,2026-04-27T01:21:42.272026+05:30
Kurnool,Andhra Pradesh,15.8281,78.0373,31.3,47,0.0,974.7,9.2,38.2,86,38.3,33.5,0,5,7,1,2026-04-27T01:21:42.272033+05:30
Kakinada,Andhra Pradesh,16.9891,82.2475,27.3,91,0.0,1005.5,9.2,42.5,50,22.2,14.0,7,5,4,1,2026-04-27T01:21:42.272040+05:30
Tirupati,Andhra Pradesh,13.6288,79.4192,27.6,75,0.0,989.8,9.3,46.4,66,18.3,15.9,7,5,7,1,2026-04-27T01:21:42.272046+05:30
Warangal,Telangana,17.9689,79.5941,28.2,59,0.0,976.4,8.85,40.0,80,25.7,22.7,4,5,7,1,2026-04-27T01:21:42.272052+05:30
Nizamabad,Telangana,18.6725,78.0941,30.9,35,0.0,961.3,9.1,29.9,103,42.5,38.8,0,5,7,0,2026-04-27T01:21:42.272058+05:30
Mysore,Karnataka,12.2958,76.6396,23.8,89,0.0,927.4,9.45,44.3,89,37.7,34.3,3,5,7,1,2026-04-27T01:21:42.272063+05:30
Mangalore,Karnataka,12.9141,74.856,29.2,82,0.0,1005.4,8.45,38.9,83,43.2,35.5,7,5,4,1,2026-04-27T01:21:42.272069+05:30
Hubli-Dharwad,Karnataka,15.3647,75.124,24.5,93,0.0,939.1,9.2,48.2,94,31.8,27.9,3,5,7,1,2026-04-27T01:21:42.272076+05:30
Belgaum,Karnataka,15.8497,74.4977,23.1,98,0.0,924.1,9.25,48.2,104,34.1,28.7,3,5,7,1,2026-04-27T01:21:45.547930+05:30
Coimbatore,Tamil Nadu,11.0168,76.9558,27.2,75,0.0,960.5,9.35,46.8,82,37.3,34.9,7,5,7,1,2026-04-27T01:21:45.547958+05:30
Madurai,Tamil Nadu,9.9252,78.1198,28.6,74,0.0,992.1,9.2,46.4,48,9.4,9.2,7,5,7,1,2026-04-27T01:21:45.547968+05:30
Trichy,Tamil Nadu,10.7905,78.7047,27.2,88,0.0,998.3,9.25,41.0,49,15.5,13.8,7,5,7,1,2026-04-27T01:21:45.547975+05:30
Salem,Tamil Nadu,11.6643,78.146,28.2,68,0.0,975.7,9.3,34.2,65,21.8,20.7,7,5,7,1,2026-04-27T01:21:45.547982+05:30
Tirunelveli,Tamil Nadu,8.7139,77.7567,28.0,75,0.0,1001.8,8.55,46.1,51,13.5,13.1,7,5,4,1,2026-04-27T01:21:45.547990+05:30
Vellore,Tamil Nadu,12.9165,79.1325,26.8,77,0.0,982.8,9.25,40.3,83,34.7,32.4,7,5,7,1,2026-04-27T01:21:45.547997+05:30
Erode,Tamil Nadu,11.341,77.7172,29.5,55,0.0,987.8,9.3,45.4,54,12.4,12.0,4,5,7,1,2026-04-27T01:21:45.548004+05:30
Kochi,Kerala,9.9312,76.2673,28.1,89,0.0,1007.4,9.0,35.3,69,26.9,25.6,7,5,4,1,2026-04-27T01:21:45.548011+05:30
Thiruvananthapuram,Kerala,8.5241,76.9366,25.8,91,0.0,1006.8,8.65,34.9,46,12.0,9.9,7,5,4,1,2026-04-27T01:21:45.548018+05:30
Kozhikode,Kerala,11.2588,75.7804,26.6,89,0.0,1006.7,8.8,38.9,53,22.3,16.2,7,5,4,1,2026-04-27T01:21:45.548024+05:30
Thrissur,Kerala,10.5276,76.2144,26.8,95,0.0,1005.9,9.0,33.8,66,26.5,25.0,7,5,4,1,2026-04-27T01:21:45.548031+05:30
Kannur,Kerala,11.8745,75.3704,26.3,95,0.0,1006.0,9.0,37.4,69,35.3,30.3,7,5,4,1,2026-04-27T01:21:45.548038+05:30
Patna,Bihar,25.5941,85.1376,24.8,81,0.0,996.4,8.6,34.9,151,51.8,47.5,3,5,7,1,2026-04-27T01:21:45.548044+05:30
Gaya,Bihar,24.7914,85.0002,27.0,76,0.0,988.7,8.7,31.0,150,60.5,57.5,7,5,7,1,2026-04-27T01:21:45.548050+05:30
Muzaffarpur,Bihar,26.1209,85.3647,23.8,77,0.0,997.3,8.6,36.7,152,55.5,50.1,3,5,7,1,2026-04-27T01:21:45.548057+05:30
Bhagalpur,Bihar,25.2425,87.0117,24.1,84,0.0,997.9,8.15,32.8,130,23.4,19.6,3,5,7,1,2026-04-27T01:21:45.548063+05:30
Ranchi,Jharkhand,23.3441,85.3096,25.7,56,0.0,933.3,8.55,45.4,120,107.1,46.0,4,5,7,1,2026-04-27T01:21:45.548070+05:30
Jamshedpur,Jharkhand,22.8046,86.2029,28.1,77,0.0,986.2,9.0,52.9,130,46.3,38.6,7,5,7,1,2026-04-27T01:21:45.548076+05:30
Dhanbad,Jharkhand,23.7957,86.4304,27.0,90,0.0,975.2,8.95,55.4,153,77.1,61.2,7,5,7,1,2026-04-27T01:21:45.548082+05:30
Bokaro,Jharkhand,23.6693,86.1511,26.8,94,0.0,978.9,8.95,51.1,154,89.6,72.6,7,5,7,1,2026-04-27T01:21:45.548088+05:30
Bhubaneswar,Odisha,20.2961,85.8245,27.2,89,0.0,998.6,8.9,53.3,53,15.0,10.4,7,5,7,1,2026-04-27T01:21:45.548095+05:30
Cuttack,Odisha,20.4625,85.8828,27.3,89,0.0,1000.3,8.9,47.2,53,15.0,10.4,7,5,4,1,2026-04-27T01:21:45.548101+05:30
Rourkela,Odisha,22.2604,84.8536,28.0,76,0.0,980.5,8.95,46.8,146,50.9,37.5,7,5,7,1,2026-04-27T01:21:45.548107+05:30
Raipur,Chhattisgarh,21.2514,81.6296,31.3,25,0.0,970.4,8.4,57.2,117,54.2,49.2,0,5,7,0,2026-04-27T01:21:45.548113+05:30
Bhilai,Chhattisgarh,21.1938,81.3509,30.8,30,0.0,970.7,7.6,47.2,104,50.2,42.0,0,5,7,0,2026-04-27T01:21:45.548119+05:30
Guwahati,Assam,26.1158,91.7086,21.1,96,0.0,1000.0,2.45,31.0,129,57.3,38.6,3,5,0,1,2026-04-27T01:21:45.548126+05:30
Agartala,Tripura,23.8315,91.2868,24.0,96,0.0,1004.1,7.8,57.6,75,14.6,10.9,3,5,4,1,2026-04-27T01:21:45.548132+05:30
Shillong,Meghalaya,25.5788,91.8933,14.2,96,0.0,852.6,1.75,43.2,118,19.0,11.1,3,10,3,0,2026-04-27T01:21:45.548139+05:30
Imphal,Manipur,24.817,93.9368,18.0,96,0.0,921.4,8.35,32.0,152,89.2,60.1,3,10,7,1,2026-04-27T01:21:45.548145+05:30
Aizawl,Mizoram,23.7271,92.7176,17.1,99,0.0,889.9,9.0,56.2,99,34.5,22.1,3,10,7,1,2026-04-27T01:21:45.548151+05:30
Kohima,Nagaland,25.6701,94.1077,14.4,94,0.0,851.4,1.2,28.8,139,59.6,36.0,3,10,3,0,2026-04-27T01:21:45.548157+05:30
Gangtok,Sikkim,27.3314,88.6138,12.7,99,0.1,832.9,8.5,41.4,92,39.5,24.9,6,10,7,0,2026-04-27T01:21:45.548163+05:30
Siliguri,West Bengal,26.7271,88.3953,20.6,91,0.0,991.2,8.4,32.4,116,54.4,34.6,3,5,7,1,2026-04-27T01:21:48.831307+05:30
Durgapur,West Bengal,23.5204,87.3119,27.6,92,0.0,990.2,8.8,37.4,115,37.1,32.8,7,5,7,1,2026-04-27T01:21:48.831335+05:30
Asansol,West Bengal,23.6739,86.9524,27.2,92,0.0,988.8,8.75,41.0,127,35.7,32.9,7,5,7,1,2026-04-27T01:21:48.831344+05:30
Pondicherry,Puducherry,11.9139,79.8145,28.5,87,0.0,1006.5,9.2,48.6,40,17.8,11.8,7,5,4,1,2026-04-27T01:21:48.831351+05:30
Port Blair,Andaman and Nicobar Islands,11.6234,92.7265,27.3,86,0.0,1005.3,9.1,34.2,56,17.8,13.2,7,5,4,1,2026-04-27T01:21:48.831358+05:30
Haridwar,Uttarakhand,29.9457,78.1642,20.0,56,0.0,967.4,7.25,27.4,68,26.1,19.5,0,5,7,0,2026-04-27T01:21:48.831365+05:30
Rishikesh,Uttarakhand,30.0869,78.2676,18.6,59,0.0,960.2,7.35,26.6,82,28.6,18.8,0,5,7,0,2026-04-27T01:21:48.831372+05:30
Nainital,Uttarakhand,29.3919,79.4542,14.6,41,0.0,801.5,8.2,38.9,73,67.5,21.1,0,5,7,0,2026-04-27T01:21:48.831379+05:30
Mussoorie,Uttarakhand,30.4599,78.0664,14.7,41,0.0,798.5,7.75,54.0,76,28.0,21.4,0,5,7,0,2026-04-27T01:21:48.831386+05:30
Dharamshala,Himachal Pradesh,32.219,76.3234,22.8,32,0.0,866.3,8.0,47.9,51,22.1,11.1,0,5,7,0,2026-04-27T01:21:48.831392+05:30
Dalhousie,Himachal Pradesh,32.5387,75.971,10.5,74,0.0,797.5,8.25,43.9,60,29.2,21.0,3,5,7,0,2026-04-27T01:21:48.831400+05:30
Patiala,Punjab,30.3398,76.3869,27.9,31,0.0,972.8,7.25,40.0,389,529.0,76.4,4,5,7,0,2026-04-27T01:21:48.831407+05:30
Bhatinda,Punjab,30.211,74.9455,29.1,28,0.0,978.4,7.8,64.1,87,69.6,30.6,4,5,7,0,2026-04-27T01:21:48.831414+05:30
Rohtak,Haryana,28.8955,76.6066,28.8,25,0.0,976.4,7.5,40.7,682,787.9,119.7,4,5,7,0,2026-04-27T01:21:48.831420+05:30
Panipat,Haryana,29.3909,76.9635,29.2,25,0.0,975.0,7.3,43.2,1422,1464.0,185.8,4,5,7,0,2026-04-27T01:21:48.831427+05:30
Mathura,Uttar Pradesh,27.4924,77.6737,29.0,35,0.0,981.2,7.75,38.2,821,179.3,53.0,4,5,7,0,2026-04-27T01:21:48.831434+05:30
Vrindavan,Uttar Pradesh,27.5823,77.7027,28.5,36,0.0,981.6,7.7,37.8,821,179.3,53.0,4,5,7,0,2026-04-27T01:21:48.831440+05:30
Ayodhya,Uttar Pradesh,26.7922,82.1998,25.6,72,0.0,991.2,8.1,33.5,150,68.9,60.1,7,5,7,1,2026-04-27T01:21:48.831446+05:30
Ratlam,Madhya Pradesh,23.3315,75.0367,30.0,21,0.0,951.8,8.45,44.6,63,30.3,22.2,4,5,7,0,2026-04-27T01:21:48.831453+05:30
Sagar,Madhya Pradesh,23.8388,78.7378,28.1,31,0.0,946.5,8.65,38.5,76,64.7,27.9,4,5,7,0,2026-04-27T01:21:48.831459+05:30
Satna,Madhya Pradesh,24.6005,80.8322,30.6,26,0.0,966.2,8.65,52.2,95,59.5,22.5,0,5,7,0,2026-04-27T01:21:48.831465+05:30
Akola,Maharashtra,20.7002,77.0082,33.1,20,0.0,971.0,8.9,33.8,59,35.5,24.9,0,5,7,0,2026-04-27T01:21:48.831472+05:30
Amravati,Maharashtra,20.9374,77.7796,32.2,22,0.0,963.3,8.9,36.7,72,51.6,36.1,0,5,7,0,2026-04-27T01:21:48.831478+05:30
Latur,Maharashtra,18.4088,76.5604,30.0,28,0.0,937.0,9.1,38.9,97,47.4,39.7,4,5,7,0,2026-04-27T01:21:48.831484+05:30
Nanded,Maharashtra,19.1383,77.3091,31.9,27,0.0,964.9,9.0,36.0,91,32.6,27.2,0,5,7,0,2026-04-27T01:21:48.831490+05:30
Gulbarga,Karnataka,17.3297,76.8343,30.3,39,0.0,955.9,9.1,31.3,123,38.8,34.9,0,5,7,0,2026-04-27T01:21:48.831497+05:30
Bidar,Karnataka,17.9104,77.5199,29.4,35,0.0,932.5,9.1,30.6,105,43.2,39.3,4,5,7,0,2026-04-27T01:21:48.831503+05:30
Hospet,Karnataka,15.2689,76.3909,27.6,76,0.0,954.2,9.25,35.6,119,39.1,36.8,7,5,7,1,2026-04-27T01:21:48.831509+05:30
Tirupur,Tamil Nadu,11.1085,77.3411,28.0,74,0.0,973.7,9.35,31.0,65,24.4,23.2,7,5,7,1,2026-04-27T01:21:48.831515+05:30
Alappuzha,Kerala,9.4981,76.3388,26.4,96,0.0,1007.5,8.1,34.6,62,24.6,21.0,7,5,4,1,2026-04-27T01:21:48.831521+05:30
Munnar,Kerala,10.0889,77.0595,17.5,72,0.0,855.4,9.6,27.0,67,30.3,29.2,3,5,7,0,2026-04-27T01:21:48.831528+05:30
Silchar,Assam,24.8333,92.7789,22.0,92,0.1,1004.3,8.75,26.3,159,76.4,48.8,6,5,4,1,2026-04-27T01:21:48.831535+05:30
Dibrugarh,Assam,27.4728,94.912,20.8,98,0.0,994.8,4.3,25.6,91,64.0,40.3,3,5,3,1,2026-04-27T01:21:48.831541+05:30
