city,state,latitude,longitude,temp,humidity,rain,pressure,uv_index,wind_gusts,aqi,pm10,pm2_5,mosquito_risk,arthritis_risk,migraine_risk,frizz_risk,updated_at
Delhi,Delhi,28.6139,77.209,22.8,51,0.0,983.4,7.25,18.0,301,466.6,89.2,0,5,7,0,2026-04-14T03:23:54.239977+05:30
Mumbai,Maharashtra,19.076,72.8777,28.3,84,0.0,1008.7,8.0,22.0,113,78.9,41.3,7,0,4,1,2026-04-14T03:23:54.240024+05:30
Bangalore,Karnataka,12.9716,77.5946,23.5,70,0.0,911.2,9.65,28.8,83,29.6,25.6,3,5,7,1,2026-04-14T03:23:54.240040+05:30
Hyderabad,Telangana,17.385,78.4867,27.8,60,0.0,952.9,9.25,24.5,100,26.8,22.5,4,5,7,1,2026-04-14T03:23:54.240050+05:30
Chennai,Tamil Nadu,13.0827,80.2707,27.0,88,0.0,1007.0,9.35,34.2,40,13.0,8.2,7,5,4,1,2026-04-14T03:23:54.240059+05:30
Kolkata,West Bengal,22.5726,88.3639,27.1,90,0.0,1005.2,8.85,28.1,76,24.3,18.4,7,5,4,1,2026-04-14T03:23:54.240068+05:30
Pune,Maharashtra,18.5204,73.8567,21.4,96,0.0,948.3,8.6,38.5,81,41.0,27.4,3,5,7,1,2026-04-14T03:23:54.240080+05:30
Ahmedabad,Gujarat,23.0225,72.5714,26.9,46,0.0,1001.8,8.15,29.5,84,37.1,18.6,4,5,4,0,2026-04-14T03:23:54.240087+05:30
Jaipur,Rajasthan,26.9124,75.7873,25.6,45,0.0,959.9,7.9,32.8,153,105.7,32.5,4,5,7,0,2026-04-14T03:23:54.240095+05:30
Lucknow,Uttar Pradesh,26.8467,80.9462,22.9,65,0.0,993.5,7.75,30.6,126,410.7,74.7,3,5,7,0,2026-04-14T03:23:54.240103+05:30
Kanpur,Uttar Pradesh,26.4499,80.3319,21.9,70,0.0,991.8,7.8,26.3,296,440.5,73.8,3,5,7,1,2026-04-14T03:23:54.240110+05:30
Chandigarh,Chandigarh,30.7333,76.7794,19.9,67,0.0,968.7,7.2,27.4,52,19.0,15.7,3,5,7,0,2026-04-14T03:23:54.240120+05:30
Srinagar,Jammu and Kashmir,34.0837,74.7973,9.2,74,0.0,840.9,8.2,15.1,91,50.3,43.4,3,5,7,0,2026-04-14T03:23:54.240128+05:30
Jammu,Jammu and Kashmir,32.7266,74.857,18.3,78,0.0,973.5,7.85,28.8,70,29.6,26.8,3,5,7,0,2026-04-14T03:23:54.240135+05:30
Amritsar,Punjab,31.634,74.8723,19.5,72,0.0,981.4,7.8,23.0,73,40.9,37.8,3,5,7,0,2026-04-14T03:23:54.240141+05:30
Ludhiana,Punjab,30.901,75.8573,20.9,62,0.0,979.3,7.4,26.6,68,30.3,28.4,3,5,7,0,2026-04-14T03:23:54.240148+05:30
Jalandhar,Punjab,31.326,75.5762,19.7,65,0.0,980.6,7.6,23.0,74,39.8,33.5,3,5,7,0,2026-04-14T03:23:54.240156+05:30
Dehradun,Uttarakhand,30.6284,78.0322,13.9,75,0.0,829.2,7.65,34.9,50,14.8,12.9,3,5,7,0,2026-04-14T03:23:54.240163+05:30
Shimla,Himachal Pradesh,31.1048,77.1734,10.9,77,0.0,782.8,7.7,42.1,55,21.9,14.3,3,5,7,0,2026-04-14T03:23:54.240170+05:30
Manali,Himachal Pradesh,32.2396,77.1887,13.6,50,0.0,819.2,9.15,29.5,74,17.4,13.2,0,5,7,0,2026-04-14T03:23:54.240176+05:30
Gurgaon,Haryana,28.4595,77.0266,20.3,60,0.0,981.7,7.4,11.5,860,678.0,99.4,0,5,7,0,2026-04-14T03:23:54.240182+05:30
Noida,Uttar Pradesh,28.5355,77.391,22.3,53,0.0,984.8,7.3,17.3,860,678.0,99.4,0,5,7,0,2026-04-14T03:23:54.240188+05:30
Ghaziabad,Uttar Pradesh,28.6692,77.4538,20.8,59,0.0,982.8,7.25,20.9,195,462.9,87.5,0,5,7,0,2026-04-14T03:23:54.240195+05:30
Faridabad,Haryana,28.4089,77.3178,21.9,52,0.0,984.2,7.35,13.0,860,678.0,99.4,0,5,7,0,2026-04-14T03:23:54.240201+05:30
Meerut,Uttar Pradesh,28.9845,77.7064,19.8,64,0.0,981.4,7.15,28.1,195,462.9,87.5,3,5,7,0,2026-04-14T03:23:54.240207+05:30
Agra,Uttar Pradesh,27.1767,78.0081,23.1,49,0.0,988.0,7.65,21.2,641,681.7,106.6,0,5,7,0,2026-04-14T03:23:54.240213+05:30
Varanasi,Uttar Pradesh,25.3176,82.9739,21.5,57,0.0,997.6,8.4,33.8,97,114.3,37.1,0,5,7,0,2026-04-14T03:23:54.240222+05:30
Prayagraj,Uttar Pradesh,25.4358,81.8463,24.2,49,0.0,996.3,8.3,28.1,95,201.6,43.9,0,5,7,0,2026-04-14T03:23:54.240230+05:30
Gorakhpur,Uttar Pradesh,26.7606,83.3732,20.6,45,0.0,996.7,8.2,23.8,77,171.4,39.5,0,5,7,0,2026-04-14T03:23:54.240236+05:30
Bareilly,Uttar Pradesh,28.367,79.4304,19.8,68,0.0,986.6,7.55,31.7,66,163.4,44.5,3,5,7,0,2026-04-14T03:23:54.240243+05:30
Aligarh,Uttar Pradesh,27.8974,78.088,20.3,57,0.0,985.9,7.45,23.8,595,579.3,93.8,0,5,7,0,2026-04-14T03:23:54.240249+05:30
Moradabad,Uttar Pradesh,28.8386,78.7733,19.7,66,0.0,983.5,7.35,31.0,83,181.6,54.2,3,5,7,0,2026-04-14T03:23:54.240255+05:30
Saharanpur,Uttar Pradesh,29.9637,77.546,20.2,71,0.0,975.6,6.95,30.2,71,38.5,35.7,3,5,7,0,2026-04-14T03:23:54.240261+05:30
Jhansi,Uttar Pradesh,25.4484,78.5685,24.0,45,0.0,977.9,8.2,21.6,172,80.1,28.5,0,5,7,0,2026-04-14T03:23:57.497286+05:30
Surat,Gujarat,21.1702,72.8311,27.6,87,0.0,1006.7,7.8,23.8,126,59.8,39.1,7,5,4,1,2026-04-14T03:23:57.497320+05:30
Vadodara,Gujarat,22.3072,73.1812,26.8,73,0.0,1004.1,8.1,27.4,118,49.0,40.0,7,5,4,1,2026-04-14T03:23:57.497331+05:30
Rajkot,Gujarat,22.3039,70.8022,25.4,69,0.0,994.6,7.85,33.8,68,61.2,20.5,7,5,7,1,2026-04-14T03:23:57.497338+05:30
Thane,Maharashtra,19.2183,72.9781,26.7,93,0.0,1008.3,8.0,35.3,113,78.9,41.3,7,0,4,1,2026-04-14T03:23:57.497345+05:30
Nagpur,Maharashtra,21.1458,79.0882,26.6,49,0.0,972.0,8.85,15.5,108,62.4,34.9,4,5,7,0,2026-04-14T03:23:57.497352+05:30
Nashik,Maharashtra,19.9975,73.7898,23.1,82,0.0,945.9,8.3,32.4,82,52.4,34.6,3,5,7,1,2026-04-14T03:23:57.497359+05:30
Aurangabad,Maharashtra,19.8762,75.3433,27.9,38,0.0,944.1,8.95,32.8,73,37.8,27.0,4,5,7,0,2026-04-14T03:23:57.497366+05:30
Solapur,Maharashtra,17.6599,75.9064,29.1,53,0.0,956.4,9.05,29.5,90,27.7,24.5,4,5,7,1,2026-04-14T03:23:57.497373+05:30
Kolhapur,Maharashtra,16.705,74.2433,20.6,98,0.0,947.3,9.05,52.6,83,41.0,29.4,3,5,7,1,2026-04-14T03:23:57.497380+05:30
Goa,Goa,15.2993,74.124,27.2,83,0.0,997.5,9.05,31.0,86,63.1,33.2,7,5,7,1,2026-04-14T03:23:57.497387+05:30
Jodhpur,Rajasthan,26.2389,73.0243,26.2,46,0.0,982.1,8.15,29.5,68,76.4,22.9,4,5,7,0,2026-04-14T03:23:57.497394+05:30
Udaipur,Rajasthan,24.5854,73.7125,24.0,36,0.0,946.7,8.7,41.4,47,45.4,16.6,0,5,7,0,2026-04-14T03:23:57.497400+05:30
Kota,Rajasthan,25.2138,75.8648,21.0,71,0.0,978.2,8.2,23.4,78,119.7,36.0,3,5,7,0,2026-04-14T03:23:57.497406+05:30
Bikaner,Rajasthan,28.0229,73.3119,27.4,35,0.0,981.0,7.95,16.6,51,29.2,12.0,4,5,7,0,2026-04-14T03:23:57.497413+05:30
Ajmer,Rajasthan,26.4499,74.6399,26.6,32,0.0,954.1,8.1,37.4,59,77.1,27.2,4,5,7,0,2026-04-14T03:23:57.497420+05:30
Gwalior,Madhya Pradesh,26.2183,78.1828,23.2,60,0.0,983.1,7.9,36.4,225,165.8,42.6,0,5,7,0,2026-04-14T03:23:57.497427+05:30
Indore,Madhya Pradesh,22.7196,75.8577,24.6,44,0.0,947.7,8.55,28.8,89,59.6,45.9,0,5,7,0,2026-04-14T03:23:57.497433+05:30
Bhopal,Madhya Pradesh,23.2599,77.4126,23.9,49,0.0,953.6,8.55,27.7,85,101.3,34.3,0,5,7,0,2026-04-14T03:23:57.497440+05:30
Jabalpur,Madhya Pradesh,23.1815,79.9864,24.1,59,0.0,960.8,8.65,15.5,93,110.6,29.5,0,5,7,0,2026-04-14T03:23:57.497447+05:30
Ujjain,Madhya Pradesh,23.1765,75.7885,25.0,44,0.0,953.6,8.45,31.0,114,62.6,53.1,4,5,7,0,2026-04-14T03:23:57.497454+05:30
Visakhapatnam,Andhra Pradesh,17.6868,83.2185,27.1,88,0.0,1003.2,9.15,41.8,67,22.1,14.8,7,5,4,1,2026-04-14T03:23:57.497460+05:30
Vijayawada,Andhra Pradesh,16.5062,80.648,26.5,92,0.0,1002.4,9.2,28.8,59,15.6,10.6,7,5,4,1,2026-04-14T03:23:57.497467+05:30
Guntur,Andhra Pradesh,16.3067,80.4365,27.2,89,0.0,1003.4,9.25,32.4,62,16.4,11.2,7,5,4,1,2026-04-14T03:23:57.497474+05:30
Nellore,Andhra Pradesh,14.4426,79.9865,25.7,93,0.0,1005.2,9.3,34.9,53,12.8,9.1,7,5,4,1,2026-04-14T03:23:57.497482+05:30
Kurnool,Andhra Pradesh,15.8281,78.0373,30.9,55,0.0,975.9,9.2,22.3,95,22.5,18.9,0,5,7,1,2026-04-14T03:23:57.497489+05:30
Kakinada,Andhra Pradesh,16.9891,82.2475,26.0,93,0.0,1007.2,9.2,32.4,53,20.0,11.2,7,5,4,1,2026-04-14T03:23:57.497495+05:30
Tirupati,Andhra Pradesh,13.6288,79.4192,24.4,82,0.0,991.7,9.4,33.1,67,21.6,18.5,3,5,7,1,2026-04-14T03:23:57.497501+05:30
Warangal,Telangana,17.9689,79.5941,27.6,66,0.0,977.9,9.1,24.1,83,26.4,22.4,7,5,7,1,2026-04-14T03:23:57.497507+05:30
Nizamabad,Telangana,18.6725,78.0941,28.6,54,0.0,963.8,9.05,27.4,97,55.1,48.1,4,5,7,1,2026-04-14T03:23:57.497513+05:30
Mysore,Karnataka,12.2958,76.6396,23.5,90,0.0,928.0,9.55,39.2,90,42.8,35.7,3,5,7,1,2026-04-14T03:23:57.497519+05:30
Mangalore,Karnataka,12.9141,74.856,29.3,85,0.0,1006.1,9.15,24.8,97,45.8,34.8,7,5,4,1,2026-04-14T03:23:57.497525+05:30
Hubli-Dharwad,Karnataka,15.3647,75.124,23.3,94,0.0,940.6,9.25,40.3,89,27.4,18.7,3,5,7,1,2026-04-14T03:23:57.497531+05:30
Belgaum,Karnataka,15.8497,74.4977,20.9,99,0.0,924.9,9.3,44.3,82,50.4,28.6,3,5,7,1,2026-04-14T03:24:00.753817+05:30
Coimbatore,Tamil Nadu,11.0168,76.9558,24.1,96,0.0,961.4,9.25,34.9,91,50.9,42.3,3,5,7,1,2026-04-14T03:24:00.753852+05:30
Madurai,Tamil Nadu,9.9252,78.1198,27.4,85,0.0,992.8,8.95,38.9,72,27.9,25.5,7,5,7,1,2026-04-14T03:24:00.753864+05:30
Trichy,Tamil Nadu,10.7905,78.7047,27.4,89,0.0,999.7,8.9,22.0,56,19.7,17.3,7,5,7,1,2026-04-14T03:24:00.753872+05:30
Salem,Tamil Nadu,11.6643,78.146,26.4,84,0.0,977.3,9.45,23.0,70,26.7,24.0,7,5,7,1,2026-04-14T03:24:00.753880+05:30
Tirunelveli,Tamil Nadu,8.7139,77.7567,27.3,86,0.0,1002.8,9.1,46.4,79,35.6,28.1,7,5,4,1,2026-04-14T03:24:00.753888+05:30
Vellore,Tamil Nadu,12.9165,79.1325,24.3,78,0.0,984.6,9.45,29.2,84,37.5,34.8,3,5,7,1,2026-04-14T03:24:00.753895+05:30
Erode,Tamil Nadu,11.341,77.7172,27.7,80,0.0,989.0,9.1,28.1,60,15.0,13.8,7,5,7,1,2026-04-14T03:24:00.753902+05:30
Kochi,Kerala,9.9312,76.2673,28.9,83,0.0,1007.7,9.2,30.2,92,42.5,36.9,7,5,4,1,2026-04-14T03:24:00.753909+05:30
Thiruvananthapuram,Kerala,8.5241,76.9366,28.4,83,0.0,1006.9,9.15,34.6,79,40.0,23.2,7,5,4,1,2026-04-14T03:24:00.753915+05:30
Kozhikode,Kerala,11.2588,75.7804,29.4,82,0.0,1006.8,9.15,29.2,90,49.4,27.8,7,5,4,1,2026-04-14T03:24:00.753923+05:30
Thrissur,Kerala,10.5276,76.2144,28.2,88,0.0,1006.1,9.2,38.9,89,49.1,38.8,7,5,4,1,2026-04-14T03:24:00.753930+05:30
Kannur,Kerala,11.8745,75.3704,28.9,83,0.0,1006.2,9.15,31.7,102,47.6,35.7,7,5,4,1,2026-04-14T03:24:00.753937+05:30
Patna,Bihar,25.5941,85.1376,23.5,56,0.0,999.9,8.55,26.6,94,35.0,23.9,0,5,7,0,2026-04-14T03:24:00.753944+05:30
Gaya,Bihar,24.7914,85.0002,23.2,55,0.0,993.6,8.6,22.7,99,45.8,24.4,0,5,7,0,2026-04-14T03:24:00.753951+05:30
Muzaffarpur,Bihar,26.1209,85.3647,22.5,76,0.0,999.9,8.5,19.1,119,70.5,49.4,3,5,7,1,2026-04-14T03:24:00.753957+05:30
Bhagalpur,Bihar,25.2425,87.0117,24.3,78,0.0,1000.8,8.55,16.6,139,94.5,69.2,3,5,4,1,2026-04-14T03:24:00.753963+05:30
Ranchi,Jharkhand,23.3441,85.3096,21.5,47,0.0,937.5,9.15,37.1,82,94.3,29.3,0,5,7,0,2026-04-14T03:24:00.753969+05:30
Jamshedpur,Jharkhand,22.8046,86.2029,25.8,82,0.0,990.4,8.95,15.8,127,105.0,82.0,7,5,7,1,2026-04-14T03:24:00.753975+05:30
Dhanbad,Jharkhand,23.7957,86.4304,22.4,71,0.0,979.5,8.9,22.3,158,137.8,71.9,3,5,7,1,2026-04-14T03:24:00.753982+05:30
Bokaro,Jharkhand,23.6693,86.1511,23.1,65,0.0,983.9,8.9,30.6,154,134.6,69.8,3,5,7,1,2026-04-14T03:24:00.753988+05:30
Bhubaneswar,Odisha,20.2961,85.8245,26.8,89,0.0,1002.0,9.05,28.8,65,20.4,14.1,7,5,4,1,2026-04-14T03:24:00.753995+05:30
Cuttack,Odisha,20.4625,85.8828,26.8,91,0.0,1003.8,9.1,23.4,65,20.4,14.1,7,5,4,1,2026-04-14T03:24:00.754001+05:30
Rourkela,Odisha,22.2604,84.8536,25.9,89,0.0,984.4,8.85,19.4,112,83.8,39.8,7,5,7,1,2026-04-14T03:24:00.754008+05:30
Raipur,Chhattisgarh,21.2514,81.6296,26.9,46,0.0,973.7,8.95,16.9,132,88.0,56.0,4,5,7,0,2026-04-14T03:24:00.754014+05:30
Bhilai,Chhattisgarh,21.1938,81.3509,27.1,49,0.0,974.2,8.9,12.6,105,77.3,42.5,4,5,7,0,2026-04-14T03:24:00.754020+05:30
Guwahati,Assam,26.1158,91.7086,22.5,90,0.0,1002.8,8.45,29.2,137,43.1,34.2,3,5,4,1,2026-04-14T03:24:00.754026+05:30
Agartala,Tripura,23.8315,91.2868,23.6,90,0.0,1006.9,8.7,25.6,91,37.6,33.6,3,5,4,1,2026-04-14T03:24:00.754032+05:30
Shillong,Meghalaya,25.5788,91.8933,13.6,89,0.0,855.3,8.9,46.1,100,44.0,30.9,3,10,7,0,2026-04-14T03:24:00.754038+05:30
Imphal,Manipur,24.817,93.9368,18.3,84,0.0,923.9,8.85,67.3,117,67.3,46.9,3,10,7,0,2026-04-14T03:24:00.754044+05:30
Aizawl,Mizoram,23.7271,92.7176,17.6,74,0.0,892.5,8.95,46.1,99,65.4,37.5,3,5,7,0,2026-04-14T03:24:00.754050+05:30
Kohima,Nagaland,25.6701,94.1077,15.4,86,0.0,855.0,8.3,69.8,87,37.0,21.1,3,10,7,0,2026-04-14T03:24:00.754056+05:30
Gangtok,Sikkim,27.3314,88.6138,13.4,86,0.0,836.0,8.8,18.7,112,70.1,38.0,3,10,7,0,2026-04-14T03:24:00.754062+05:30
Siliguri,West Bengal,26.7271,88.3953,20.1,69,0.0,994.1,8.45,39.6,151,121.5,71.0,3,5,7,0,2026-04-14T03:24:04.012234+05:30
Durgapur,West Bengal,23.5204,87.3119,26.5,93,0.0,994.5,8.8,16.9,156,120.6,94.3,7,5,7,1,2026-04-14T03:24:04.012267+05:30
Asansol,West Bengal,23.6739,86.9524,27.2,60,0.0,993.2,8.85,18.7,148,105.2,57.6,4,5,7,1,2026-04-14T03:24:04.012278+05:30
Pondicherry,Puducherry,11.9139,79.8145,25.5,98,0.0,1008.4,9.3,25.2,32,10.0,6.4,7,0,4,1,2026-04-14T03:24:04.012285+05:30
Port Blair,Andaman and Nicobar Islands,11.6234,92.7265,28.4,81,0.0,1006.7,9.2,22.0,62,24.7,14.8,7,5,4,1,2026-04-14T03:24:04.012293+05:30
Haridwar,Uttarakhand,29.9457,78.1642,18.9,75,0.0,974.0,7.0,33.8,64,29.8,27.8,3,5,7,0,2026-04-14T03:24:04.012301+05:30
Rishikesh,Uttarakhand,30.0869,78.2676,19.3,70,0.0,967.1,7.1,36.4,82,19.3,16.9,3,5,7,0,2026-04-14T03:24:04.012308+05:30
Nainital,Uttarakhand,29.3919,79.4542,18.1,29,0.0,805.6,8.0,63.7,80,13.9,12.3,0,5,7,1,2026-04-14T03:24:04.012315+05:30
Mussoorie,Uttarakhand,30.4599,78.0664,15.4,64,0.0,801.8,7.5,41.8,57,23.2,22.5,3,5,7,0,2026-04-14T03:24:04.012322+05:30
Dharamshala,Himachal Pradesh,32.219,76.3234,18.7,37,0.0,869.2,7.75,25.6,55,9.5,5.8,0,5,7,0,2026-04-14T03:24:04.012329+05:30
Dalhousie,Himachal Pradesh,32.5387,75.971,15.2,45,0.0,803.3,8.0,22.7,59,25.8,21.5,0,5,7,0,2026-04-14T03:24:04.012336+05:30
Patiala,Punjab,30.3398,76.3869,19.6,65,0.0,978.4,7.1,29.9,263,245.9,41.8,3,5,7,0,2026-04-14T03:24:04.012344+05:30
Bhatinda,Punjab,30.211,74.9455,21.4,56,0.0,984.1,7.6,28.4,53,54.5,24.6,0,5,7,0,2026-04-14T03:24:04.012350+05:30
Rohtak,Haryana,28.8955,76.6066,19.7,62,0.0,981.9,7.3,22.0,431,486.2,84.8,3,5,7,0,2026-04-14T03:24:04.012357+05:30
Panipat,Haryana,29.3909,76.9635,19.8,62,0.0,980.3,7.1,28.4,857,510.4,86.4,3,5,7,0,2026-04-14T03:24:04.012364+05:30
Mathura,Uttar Pradesh,27.4924,77.6737,20.3,59,0.0,987.1,7.6,22.3,657,514.1,85.4,0,5,7,0,2026-04-14T03:24:04.012371+05:30
Vrindavan,Uttar Pradesh,27.5823,77.7027,20.1,57,0.0,987.6,7.55,19.8,657,514.1,85.4,0,5,7,0,2026-04-14T03:24:04.012377+05:30
Ayodhya,Uttar Pradesh,26.7922,82.1998,22.1,58,0.0,995.1,7.95,36.4,79,234.2,48.2,0,5,7,0,2026-04-14T03:24:04.012384+05:30
Ratlam,Madhya Pradesh,23.3315,75.0367,25.0,46,0.0,954.1,8.4,29.2,86,33.8,22.9,4,5,7,0,2026-04-14T03:24:04.012390+05:30
Sagar,Madhya Pradesh,23.8388,78.7378,24.9,47,0.0,950.1,8.55,28.4,109,178.8,34.2,0,5,7,0,2026-04-14T03:24:04.012397+05:30
Satna,Madhya Pradesh,24.6005,80.8322,24.3,46,0.0,971.6,8.6,23.4,128,85.7,22.6,0,5,7,0,2026-04-14T03:24:04.012403+05:30
Akola,Maharashtra,20.7002,77.0082,26.1,65,0.0,974.5,8.8,27.0,72,29.1,21.4,7,5,7,1,2026-04-14T03:24:04.012411+05:30
Amravati,Maharashtra,20.9374,77.7796,26.7,48,0.0,966.5,8.8,24.5,74,31.7,22.9,4,5,7,0,2026-04-14T03:24:04.012417+05:30
Latur,Maharashtra,18.4088,76.5604,25.6,52,0.0,939.1,9.05,29.9,86,42.6,31.4,4,5,7,0,2026-04-14T03:24:04.012424+05:30
Nanded,Maharashtra,19.1383,77.3091,27.5,56,0.0,967.7,8.95,17.3,91,37.3,31.0,4,5,7,1,2026-04-14T03:24:04.012429+05:30
Gulbarga,Karnataka,17.3297,76.8343,30.7,52,0.0,957.8,9.1,23.8,99,41.2,35.3,0,5,7,1,2026-04-14T03:24:04.012435+05:30
Bidar,Karnataka,17.9104,77.5199,28.4,57,0.0,934.7,9.1,30.2,111,60.5,50.6,4,5,7,1,2026-04-14T03:24:04.012442+05:30
Hospet,Karnataka,15.2689,76.3909,28.0,75,0.0,956.0,9.25,29.5,104,32.4,29.2,7,5,7,1,2026-04-14T03:24:04.012447+05:30
Tirupur,Tamil Nadu,11.1085,77.3411,27.7,74,0.0,975.1,9.1,32.0,82,35.3,29.5,7,5,7,1,2026-04-14T03:24:04.012453+05:30
Alappuzha,Kerala,9.4981,76.3388,28.8,83,0.0,1007.8,8.95,26.3,91,50.8,39.7,7,5,4,1,2026-04-14T03:24:04.012459+05:30
Munnar,Kerala,10.0889,77.0595,21.4,84,0.0,856.1,9.7,33.1,85,38.1,34.0,3,5,7,1,2026-04-14T03:24:04.012466+05:30
Silchar,Assam,24.8333,92.7789,23.1,93,0.0,1006.2,8.7,33.5,133,56.9,39.7,3,5,4,1,2026-04-14T03:24:04.012472+05:30
Dibrugarh,Assam,27.4728,94.912,20.5,91,0.0,998.0,8.55,16.2,114,47.7,33.3,3,5,7,1,2026-04-14T03:24:04.012478+05:30
