city,state,latitude,longitude,temp,humidity,rain,pressure,uv_index,wind_gusts,aqi,pm10,pm2_5,mosquito_risk,arthritis_risk,migraine_risk,frizz_risk,updated_at
Delhi,Delhi,28.6139,77.209,29.3,26,0.0,983.5,5.7,31.7,156,323.2,54.6,4,5,3,0,2026-03-01T16:54:04.137280+05:30
Mumbai,Maharashtra,19.076,72.8777,26.5,67,0.0,1007.6,7.25,24.1,82,59.4,27.6,7,5,4,1,2026-03-01T16:54:04.137328+05:30
Bangalore,Karnataka,12.9716,77.5946,29.9,34,0.0,910.6,9.05,22.7,152,43.7,42.5,4,5,7,0,2026-03-01T16:54:04.137344+05:30
Hyderabad,Telangana,17.385,78.4867,32.5,31,0.0,952.1,8.3,27.4,125,31.1,30.6,0,5,7,0,2026-03-01T16:54:04.137354+05:30
Chennai,Tamil Nadu,13.0827,80.2707,30.0,54,0.0,1007.0,8.75,33.1,145,43.1,39.1,4,5,4,1,2026-03-01T16:54:04.137363+05:30
Kolkata,West Bengal,22.5726,88.3639,30.4,53,0.0,1005.0,7.6,25.2,108,49.8,48.2,0,5,4,1,2026-03-01T16:54:04.137371+05:30
Pune,Maharashtra,18.5204,73.8567,32.7,27,0.0,946.9,7.85,34.2,108,25.2,24.0,0,5,7,0,2026-03-01T16:54:04.137383+05:30
Ahmedabad,Gujarat,23.0225,72.5714,33.5,28,0.0,1001.3,7.05,21.2,96,31.7,16.9,0,5,4,0,2026-03-01T16:54:04.137391+05:30
Jaipur,Rajasthan,26.9124,75.7873,31.6,16,0.0,960.2,6.45,25.2,86,85.4,20.4,0,5,7,0,2026-03-01T16:54:04.137399+05:30
Lucknow,Uttar Pradesh,26.8467,80.9462,30.4,17,0.0,993.3,6.2,38.5,130,87.8,24.3,0,5,7,0,2026-03-01T16:54:04.137407+05:30
Kanpur,Uttar Pradesh,26.4499,80.3319,30.1,24,0.0,991.8,6.2,31.3,152,255.2,39.8,0,5,7,0,2026-03-01T16:54:04.137414+05:30
Chandigarh,Chandigarh,30.7333,76.7794,26.2,34,0.0,969.2,5.6,31.0,86,27.9,21.0,4,5,3,0,2026-03-01T16:54:04.137421+05:30
Srinagar,Jammu and Kashmir,34.0837,74.7973,17.4,18,0.0,841.5,6.4,15.1,150,23.1,15.4,0,5,7,1,2026-03-01T16:54:04.137429+05:30
Jammu,Jammu and Kashmir,32.7266,74.857,26.7,38,0.0,973.2,6.15,25.2,99,26.7,16.0,4,5,7,0,2026-03-01T16:54:04.137436+05:30
Amritsar,Punjab,31.634,74.8723,26.8,41,0.0,981.8,6.1,20.5,127,41.6,22.6,4,5,7,0,2026-03-01T16:54:04.137443+05:30
Ludhiana,Punjab,30.901,75.8573,27.6,30,0.0,979.6,5.8,25.9,153,55.4,34.2,4,5,3,0,2026-03-01T16:54:04.137450+05:30
Jalandhar,Punjab,31.326,75.5762,27.3,32,0.0,980.7,5.95,23.0,155,51.5,28.8,4,5,3,0,2026-03-01T16:54:04.137459+05:30
Dehradun,Uttarakhand,30.6284,78.0322,17.1,42,0.0,828.9,5.95,32.4,74,18.6,12.0,0,5,3,0,2026-03-01T16:54:04.137466+05:30
Shimla,Himachal Pradesh,31.1048,77.1734,15.0,41,0.0,783.8,6.0,50.4,70,18.8,12.3,0,5,3,0,2026-03-01T16:54:04.137473+05:30
Manali,Himachal Pradesh,32.2396,77.1887,16.6,42,0.0,818.0,7.6,34.9,68,16.2,9.2,0,5,7,0,2026-03-01T16:54:04.137480+05:30
Gurgaon,Haryana,28.4595,77.0266,29.0,27,0.0,982.0,5.8,31.0,450,1035.6,115.7,4,5,3,0,2026-03-01T16:54:04.137489+05:30
Noida,Uttar Pradesh,28.5355,77.391,29.8,25,0.0,985.0,5.75,31.3,450,1035.6,115.7,4,5,3,0,2026-03-01T16:54:04.137495+05:30
Ghaziabad,Uttar Pradesh,28.6692,77.4538,28.6,32,0.0,983.1,5.7,28.1,152,252.4,45.8,4,5,3,0,2026-03-01T16:54:04.137502+05:30
Faridabad,Haryana,28.4089,77.3178,28.9,26,0.0,984.2,5.75,28.8,450,1035.6,115.7,4,5,3,0,2026-03-01T16:54:04.137509+05:30
Meerut,Uttar Pradesh,28.9845,77.7064,28.1,30,0.0,981.8,5.6,31.7,152,252.4,45.8,4,5,3,0,2026-03-01T16:54:04.137516+05:30
Agra,Uttar Pradesh,27.1767,78.0081,30.4,21,0.0,988.2,6.05,27.4,176,514.1,60.1,0,5,7,0,2026-03-01T16:54:04.137522+05:30
Varanasi,Uttar Pradesh,25.3176,82.9739,29.4,46,0.0,997.2,6.85,26.6,143,40.4,27.5,4,5,7,1,2026-03-01T16:54:04.137536+05:30
Prayagraj,Uttar Pradesh,25.4358,81.8463,28.8,38,0.0,995.8,6.75,28.1,143,48.9,24.0,4,5,7,0,2026-03-01T16:54:04.137543+05:30
Gorakhpur,Uttar Pradesh,26.7606,83.3732,28.5,29,0.0,996.3,6.55,32.4,112,35.6,23.0,4,5,7,0,2026-03-01T16:54:04.137550+05:30
Bareilly,Uttar Pradesh,28.367,79.4304,27.6,32,0.0,986.6,5.9,35.6,125,44.0,31.4,4,5,3,0,2026-03-01T16:54:04.137557+05:30
Aligarh,Uttar Pradesh,27.8974,78.088,29.3,24,0.0,986.0,5.8,31.3,189,551.3,76.6,4,5,3,0,2026-03-01T16:54:04.137564+05:30
Moradabad,Uttar Pradesh,28.8386,78.7733,27.5,32,0.0,983.5,5.7,33.8,132,42.3,26.1,4,5,3,0,2026-03-01T16:54:04.137570+05:30
Saharanpur,Uttar Pradesh,29.9637,77.546,26.7,32,0.0,975.8,5.35,38.2,137,48.5,21.6,4,5,3,0,2026-03-01T16:54:04.137576+05:30
Jhansi,Uttar Pradesh,25.4484,78.5685,30.5,25,0.0,978.2,6.65,24.5,67,46.7,20.2,0,5,7,0,2026-03-01T16:54:07.359407+05:30
Surat,Gujarat,21.1702,72.8311,29.3,44,0.0,1006.1,6.95,28.4,103,52.6,39.6,4,5,4,0,2026-03-01T16:54:07.359443+05:30
Vadodara,Gujarat,22.3072,73.1812,33.8,30,0.0,1003.2,7.05,11.9,113,38.2,27.6,0,5,4,0,2026-03-01T16:54:07.359455+05:30
Rajkot,Gujarat,22.3039,70.8022,32.4,30,0.0,993.6,6.9,23.4,66,41.1,21.4,0,5,7,0,2026-03-01T16:54:07.359465+05:30
Thane,Maharashtra,19.2183,72.9781,27.9,57,0.0,1007.0,7.25,36.4,82,59.4,27.6,4,5,4,1,2026-03-01T16:54:07.359474+05:30
Nagpur,Maharashtra,21.1458,79.0882,33.6,27,0.0,971.9,7.65,30.6,112,12.3,11.7,0,5,7,0,2026-03-01T16:54:07.359483+05:30
Nashik,Maharashtra,19.9975,73.7898,31.2,27,0.0,944.4,7.45,28.8,80,18.9,15.0,0,5,7,0,2026-03-01T16:54:07.359492+05:30
Aurangabad,Maharashtra,19.8762,75.3433,33.1,22,0.0,942.7,8.0,28.8,101,20.7,19.6,0,5,7,0,2026-03-01T16:54:07.359501+05:30
Solapur,Maharashtra,17.6599,75.9064,33.0,31,0.0,955.4,8.25,19.8,122,26.4,25.7,0,5,7,0,2026-03-01T16:54:07.359510+05:30
Kolhapur,Maharashtra,16.705,74.2433,30.5,31,0.0,946.4,8.35,38.2,86,22.3,21.5,0,5,7,0,2026-03-01T16:54:07.359518+05:30
Goa,Goa,15.2993,74.124,28.5,62,0.0,997.0,8.4,35.3,56,19.4,15.0,7,5,7,1,2026-03-01T16:54:07.359526+05:30
Jodhpur,Rajasthan,26.2389,73.0243,33.2,21,0.0,982.9,6.75,18.0,65,36.0,14.7,0,5,7,0,2026-03-01T16:54:07.359535+05:30
Udaipur,Rajasthan,24.5854,73.7125,29.7,28,0.0,946.6,7.35,25.2,57,25.3,13.2,4,5,7,0,2026-03-01T16:54:07.359543+05:30
Kota,Rajasthan,25.2138,75.8648,32.0,26,0.0,978.8,6.8,20.2,80,28.9,17.3,0,5,7,0,2026-03-01T16:54:07.359550+05:30
Bikaner,Rajasthan,28.0229,73.3119,32.2,19,0.0,982.3,6.45,16.2,66,38.6,18.9,0,5,7,0,2026-03-01T16:54:07.359557+05:30
Ajmer,Rajasthan,26.4499,74.6399,31.0,21,0.0,954.8,6.7,17.6,79,37.5,16.3,0,5,7,0,2026-03-01T16:54:07.359564+05:30
Gwalior,Madhya Pradesh,26.2183,78.1828,29.5,30,0.0,983.8,6.35,28.8,99,42.7,17.3,4,5,7,0,2026-03-01T16:54:07.359571+05:30
Indore,Madhya Pradesh,22.7196,75.8577,29.8,32,0.0,947.7,7.35,22.3,75,21.8,16.9,4,5,7,0,2026-03-01T16:54:07.359577+05:30
Bhopal,Madhya Pradesh,23.2599,77.4126,29.5,32,0.0,953.7,7.2,25.9,67,20.7,16.2,4,5,7,0,2026-03-01T16:54:07.359583+05:30
Jabalpur,Madhya Pradesh,23.1815,79.9864,30.6,25,0.0,961.2,7.3,39.2,86,13.3,12.3,0,5,7,0,2026-03-01T16:54:07.359590+05:30
Ujjain,Madhya Pradesh,23.1765,75.7885,29.9,34,0.0,953.7,7.25,20.5,84,24.0,17.2,4,5,7,0,2026-03-01T16:54:07.359597+05:30
Visakhapatnam,Andhra Pradesh,17.6868,83.2185,27.9,68,0.0,1003.3,8.3,39.2,151,54.5,51.2,7,5,4,1,2026-03-01T16:54:07.359604+05:30
Vijayawada,Andhra Pradesh,16.5062,80.648,32.4,47,0.0,1001.7,8.4,28.1,150,46.2,44.2,0,5,4,1,2026-03-01T16:54:07.359610+05:30
Guntur,Andhra Pradesh,16.3067,80.4365,32.4,42,0.0,1003.2,8.4,28.4,146,43.1,41.7,0,5,4,1,2026-03-01T16:54:07.359617+05:30
Nellore,Andhra Pradesh,14.4426,79.9865,31.5,41,0.0,1005.3,8.6,31.0,143,41.0,38.5,0,5,4,1,2026-03-01T16:54:07.359624+05:30
Kurnool,Andhra Pradesh,15.8281,78.0373,35.0,27,0.0,975.1,8.4,20.5,121,31.0,30.5,0,5,7,0,2026-03-01T16:54:07.359631+05:30
Kakinada,Andhra Pradesh,16.9891,82.2475,31.5,42,0.0,1006.7,8.3,33.5,152,47.4,43.4,0,5,4,1,2026-03-01T16:54:07.359638+05:30
Tirupati,Andhra Pradesh,13.6288,79.4192,32.6,33,0.0,990.3,8.7,28.4,152,41.1,39.5,0,5,7,0,2026-03-01T16:54:07.359644+05:30
Warangal,Telangana,17.9689,79.5941,32.6,43,0.0,977.7,8.1,27.7,137,41.4,40.9,0,5,7,1,2026-03-01T16:54:07.359651+05:30
Nizamabad,Telangana,18.6725,78.0941,34.0,25,0.0,963.6,8.0,20.9,118,19.1,18.7,0,5,7,0,2026-03-01T16:54:07.359657+05:30
Mysore,Karnataka,12.2958,76.6396,31.4,31,0.0,926.7,9.05,36.0,122,46.7,45.4,0,5,7,0,2026-03-01T16:54:07.359663+05:30
Mangalore,Karnataka,12.9141,74.856,28.1,74,0.0,1005.0,8.65,32.0,49,14.5,10.0,7,5,4,1,2026-03-01T16:54:07.359670+05:30
Hubli-Dharwad,Karnataka,15.3647,75.124,32.7,25,0.0,939.0,8.55,33.5,95,29.5,28.6,0,5,7,0,2026-03-01T16:54:07.359677+05:30
Belgaum,Karnataka,15.8497,74.4977,30.2,32,0.0,924.5,8.6,38.5,111,19.8,19.1,0,5,7,0,2026-03-01T16:54:10.706831+05:30
Coimbatore,Tamil Nadu,11.0168,76.9558,32.6,32,0.0,959.7,9.05,34.9,146,43.5,42.4,0,5,7,0,2026-03-01T16:54:10.706861+05:30
Madurai,Tamil Nadu,9.9252,78.1198,34.1,32,0.0,990.7,9.0,26.3,151,33.9,32.5,0,5,7,0,2026-03-01T16:54:10.706871+05:30
Trichy,Tamil Nadu,10.7905,78.7047,34.3,32,0.0,997.7,8.9,27.7,150,38.3,36.2,0,5,7,0,2026-03-01T16:54:10.706879+05:30
Salem,Tamil Nadu,11.6643,78.146,35.2,26,0.0,974.8,8.95,26.3,151,40.4,39.0,0,5,10,0,2026-03-01T16:54:10.706887+05:30
Tirunelveli,Tamil Nadu,8.7139,77.7567,34.6,32,0.0,1000.8,9.05,43.6,137,38.1,36.7,0,5,4,0,2026-03-01T16:54:10.706895+05:30
Vellore,Tamil Nadu,12.9165,79.1325,32.4,33,0.0,983.4,8.8,36.7,156,38.9,37.5,0,5,7,0,2026-03-01T16:54:10.706901+05:30
Erode,Tamil Nadu,11.341,77.7172,35.4,29,0.0,986.3,8.95,27.7,143,36.6,35.3,0,5,10,0,2026-03-01T16:54:10.706908+05:30
Kochi,Kerala,9.9312,76.2673,28.5,75,0.0,1006.4,8.9,36.4,116,33.6,31.7,7,5,4,1,2026-03-01T16:54:10.706915+05:30
Thiruvananthapuram,Kerala,8.5241,76.9366,28.5,77,0.0,1006.2,8.95,24.1,134,25.1,22.0,7,5,4,1,2026-03-01T16:54:10.706922+05:30
Kozhikode,Kerala,11.2588,75.7804,29.2,71,0.0,1006.0,8.75,31.3,65,14.5,10.2,7,5,4,1,2026-03-01T16:54:10.706929+05:30
Thrissur,Kerala,10.5276,76.2144,30.3,65,0.0,1004.9,8.85,40.3,113,31.5,29.9,3,5,4,1,2026-03-01T16:54:10.706935+05:30
Kannur,Kerala,11.8745,75.3704,29.5,64,0.0,1005.5,8.75,38.2,51,18.3,13.6,7,5,4,1,2026-03-01T16:54:10.706942+05:30
Patna,Bihar,25.5941,85.1376,30.2,32,0.0,999.6,7.0,28.8,126,76.6,38.2,0,5,7,0,2026-03-01T16:54:10.706948+05:30
Gaya,Bihar,24.7914,85.0002,28.5,49,0.0,993.4,7.1,19.1,110,61.0,34.1,4,5,7,1,2026-03-01T16:54:10.706955+05:30
Muzaffarpur,Bihar,26.1209,85.3647,29.7,33,0.0,999.4,6.95,31.0,125,71.2,34.7,4,5,7,0,2026-03-01T16:54:10.706961+05:30
Bhagalpur,Bihar,25.2425,87.0117,27.8,51,0.0,1000.5,7.05,22.3,127,73.6,40.4,4,5,4,1,2026-03-01T16:54:10.706967+05:30
Ranchi,Jharkhand,23.3441,85.3096,27.6,31,0.0,937.5,7.75,24.5,94,34.6,32.8,4,5,7,0,2026-03-01T16:54:10.706973+05:30
Jamshedpur,Jharkhand,22.8046,86.2029,31.6,26,0.0,990.2,7.7,10.8,145,55.9,52.2,0,5,7,0,2026-03-01T16:54:10.706979+05:30
Dhanbad,Jharkhand,23.7957,86.4304,32.1,21,0.0,979.0,7.55,24.1,153,38.6,34.1,0,5,7,0,2026-03-01T16:54:10.706986+05:30
Bokaro,Jharkhand,23.6693,86.1511,31.2,24,0.0,983.1,7.55,22.0,153,35.4,32.5,0,5,7,0,2026-03-01T16:54:10.706992+05:30
Bhubaneswar,Odisha,20.2961,85.8245,30.8,46,0.0,1001.7,8.05,27.0,113,43.2,41.9,0,5,4,1,2026-03-01T16:54:10.706998+05:30
Cuttack,Odisha,20.4625,85.8828,33.4,33,0.0,1003.1,8.05,27.0,113,43.2,41.9,0,5,4,0,2026-03-01T16:54:10.707004+05:30
Rourkela,Odisha,22.2604,84.8536,32.2,30,0.0,984.4,7.6,18.0,134,59.8,58.4,0,5,7,0,2026-03-01T16:54:10.707010+05:30
Raipur,Chhattisgarh,21.2514,81.6296,34.0,27,0.0,973.4,7.75,27.4,156,27.1,26.5,0,5,7,0,2026-03-01T16:54:10.707016+05:30
Bhilai,Chhattisgarh,21.1938,81.3509,34.1,27,0.0,973.8,7.75,28.1,157,20.1,19.7,0,5,7,0,2026-03-01T16:54:10.707023+05:30
Guwahati,Assam,26.1158,91.7086,24.6,68,0.0,1001.0,7.0,32.0,162,77.8,62.9,3,5,4,1,2026-03-01T16:54:10.707043+05:30
Agartala,Tripura,23.8315,91.2868,28.5,53,0.0,1005.0,7.35,27.4,124,46.2,40.3,4,5,4,1,2026-03-01T16:54:10.707051+05:30
Shillong,Meghalaya,25.5788,91.8933,14.4,58,0.0,853.7,6.8,56.9,151,70.3,49.7,0,5,7,0,2026-03-01T16:54:10.707057+05:30
Imphal,Manipur,24.817,93.9368,18.8,51,0.0,921.4,7.55,49.3,152,60.3,43.3,0,5,7,0,2026-03-01T16:54:10.707064+05:30
Aizawl,Mizoram,23.7271,92.7176,21.4,47,0.0,892.0,7.55,40.3,126,53.6,40.0,0,5,7,0,2026-03-01T16:54:10.707070+05:30
Kohima,Nagaland,25.6701,94.1077,13.6,81,0.0,852.4,7.4,70.9,153,82.0,58.1,3,10,7,0,2026-03-01T16:54:10.707076+05:30
Gangtok,Sikkim,27.3314,88.6138,12.6,85,0.0,834.2,5.3,12.6,139,70.1,47.8,3,10,3,0,2026-03-01T16:54:10.707083+05:30
Siliguri,West Bengal,26.7271,88.3953,21.9,59,0.0,992.9,7.0,31.0,174,113.6,78.5,0,5,7,0,2026-03-01T16:54:13.920543+05:30
Durgapur,West Bengal,23.5204,87.3119,32.7,21,0.0,994.1,7.55,26.3,136,42.6,35.7,0,5,7,0,2026-03-01T16:54:13.920578+05:30
Asansol,West Bengal,23.6739,86.9524,32.2,22,0.0,992.7,7.55,22.7,120,41.2,35.3,0,5,7,0,2026-03-01T16:54:13.920590+05:30
Pondicherry,Puducherry,11.9139,79.8145,30.7,50,0.0,1007.7,8.8,28.1,140,43.3,39.1,0,5,4,1,2026-03-01T16:54:13.920599+05:30
Port Blair,Andaman and Nicobar Islands,11.6234,92.7265,27.9,69,0.0,1005.6,8.7,25.6,91,23.3,20.5,7,5,4,1,2026-03-01T16:54:13.920609+05:30
Haridwar,Uttarakhand,29.9457,78.1642,27.2,29,0.0,974.0,5.4,37.1,106,22.8,16.3,4,5,3,0,2026-03-01T16:54:13.920618+05:30
Rishikesh,Uttarakhand,30.0869,78.2676,26.5,34,0.0,966.5,5.5,34.9,89,22.9,17.1,4,5,3,0,2026-03-01T16:54:13.920627+05:30
Nainital,Uttarakhand,29.3919,79.4542,18.7,39,0.0,805.0,6.3,40.0,89,31.1,23.2,0,5,7,0,2026-03-01T16:54:13.920636+05:30
Mussoorie,Uttarakhand,30.4599,78.0664,17.5,46,0.0,801.8,5.85,39.6,88,20.0,14.4,0,5,3,0,2026-03-01T16:54:13.920645+05:30
Dharamshala,Himachal Pradesh,32.219,76.3234,21.0,35,0.0,869.0,6.05,27.4,74,28.0,16.6,0,5,7,0,2026-03-01T16:54:13.920653+05:30
Dalhousie,Himachal Pradesh,32.5387,75.971,19.7,31,0.0,804.3,6.25,30.2,91,31.8,20.7,0,5,7,0,2026-03-01T16:54:13.920662+05:30
Patiala,Punjab,30.3398,76.3869,27.1,30,0.0,978.9,5.5,28.4,154,313.9,58.3,4,5,3,0,2026-03-01T16:54:13.920670+05:30
Bhatinda,Punjab,30.211,74.9455,28.9,34,0.0,984.6,6.2,21.2,151,72.6,45.3,4,5,7,0,2026-03-01T16:54:13.920679+05:30
Rohtak,Haryana,28.8955,76.6066,28.9,30,0.0,982.4,5.7,30.6,158,412.6,61.7,4,5,3,0,2026-03-01T16:54:13.920686+05:30
Panipat,Haryana,29.3909,76.9635,27.8,31,0.0,980.9,5.5,29.9,284,840.1,96.9,4,5,3,0,2026-03-01T16:54:13.920693+05:30
Mathura,Uttar Pradesh,27.4924,77.6737,30.3,25,0.0,987.3,5.95,25.6,177,527.1,64.7,0,5,3,0,2026-03-01T16:54:13.920701+05:30
Vrindavan,Uttar Pradesh,27.5823,77.7027,30.0,24,0.0,987.8,5.95,28.4,177,527.1,64.7,4,5,3,0,2026-03-01T16:54:13.920729+05:30
Ayodhya,Uttar Pradesh,26.7922,82.1998,29.7,21,0.0,994.6,6.35,36.4,115,29.9,20.7,4,5,7,0,2026-03-01T16:54:13.920738+05:30
Ratlam,Madhya Pradesh,23.3315,75.0367,30.2,33,0.0,954.5,7.2,27.7,78,23.9,16.9,0,5,7,0,2026-03-01T16:54:13.920746+05:30
Sagar,Madhya Pradesh,23.8388,78.7378,29.1,32,0.0,950.2,7.15,20.2,74,18.7,15.1,4,5,7,0,2026-03-01T16:54:13.920754+05:30
Satna,Madhya Pradesh,24.6005,80.8322,31.0,26,0.0,971.1,7.1,31.7,96,31.4,19.2,0,5,7,0,2026-03-01T16:54:13.920761+05:30
Akola,Maharashtra,20.7002,77.0082,34.6,22,0.0,973.9,7.7,28.4,77,17.9,17.0,0,5,7,0,2026-03-01T16:54:13.920770+05:30
Amravati,Maharashtra,20.9374,77.7796,34.3,23,0.0,966.1,7.65,27.4,75,15.9,15.2,0,5,7,0,2026-03-01T16:54:13.920778+05:30
Latur,Maharashtra,18.4088,76.5604,32.2,27,0.0,938.7,8.15,25.6,96,19.4,18.9,0,5,7,0,2026-03-01T16:54:13.920786+05:30
Nanded,Maharashtra,19.1383,77.3091,34.5,26,0.0,967.2,7.9,15.5,88,15.1,14.7,0,5,7,0,2026-03-01T16:54:13.920794+05:30
Gulbarga,Karnataka,17.3297,76.8343,33.7,29,0.0,957.1,8.25,17.6,122,36.6,36.0,0,5,7,0,2026-03-01T16:54:13.920801+05:30
Bidar,Karnataka,17.9104,77.5199,31.5,34,0.0,934.5,8.2,20.5,126,29.8,29.4,0,5,7,0,2026-03-01T16:54:13.920809+05:30
Hospet,Karnataka,15.2689,76.3909,33.5,26,0.0,954.2,8.55,24.5,114,40.5,39.5,0,5,7,0,2026-03-01T16:54:13.920815+05:30
Tirupur,Tamil Nadu,11.1085,77.3411,34.5,29,0.0,972.9,9.1,21.2,152,42.3,41.0,0,5,7,0,2026-03-01T16:54:13.920821+05:30
Alappuzha,Kerala,9.4981,76.3388,28.6,76,0.0,1006.5,8.9,34.9,133,28.1,23.8,7,5,4,1,2026-03-01T16:54:13.920828+05:30
Munnar,Kerala,10.0889,77.0595,27.3,44,0.0,856.9,9.4,25.2,132,40.3,38.9,4,5,7,0,2026-03-01T16:54:13.920834+05:30
Silchar,Assam,24.8333,92.7789,27.8,51,0.0,1003.5,7.3,20.5,158,70.8,49.9,4,5,4,1,2026-03-01T16:54:13.920840+05:30
Dibrugarh,Assam,27.4728,94.912,21.4,71,0.0,996.1,7.0,13.7,159,79.4,63.3,3,5,7,0,2026-03-01T16:54:13.920846+05:30
