city,state,latitude,longitude,temp,humidity,rain,pressure,uv_index,wind_gusts,aqi,pm10,pm2_5,mosquito_risk,arthritis_risk,migraine_risk,frizz_risk,updated_at
Delhi,Delhi,28.6139,77.209,25.5,38,0.0,980.9,7.3,32.0,452,597.9,104.1,4,5,7,0,2026-04-21T01:30:41.073324+05:30
Mumbai,Maharashtra,19.076,72.8777,28.4,84,0.0,1007.0,8.0,21.6,78,66.8,25.5,7,5,4,1,2026-04-21T01:30:41.073359+05:30
Bangalore,Karnataka,12.9716,77.5946,25.0,63,0.0,910.8,9.6,23.8,78,22.2,20.8,7,5,7,1,2026-04-21T01:30:41.073378+05:30
Hyderabad,Telangana,17.385,78.4867,27.7,63,0.0,951.9,9.3,32.8,124,39.8,36.0,7,5,7,1,2026-04-21T01:30:41.073387+05:30
Chennai,Tamil Nadu,13.0827,80.2707,28.4,86,0.0,1006.3,9.3,35.3,40,13.6,9.1,7,5,4,1,2026-04-21T01:30:41.073395+05:30
Kolkata,West Bengal,22.5726,88.3639,28.0,91,0.0,1001.8,8.95,31.7,82,20.3,16.7,7,5,4,1,2026-04-21T01:30:41.073403+05:30
Pune,Maharashtra,18.5204,73.8567,25.6,73,0.0,947.4,8.5,34.6,145,47.6,43.5,7,5,7,1,2026-04-21T01:30:41.073409+05:30
Ahmedabad,Gujarat,23.0225,72.5714,28.2,44,0.0,1001.2,8.2,24.5,50,16.8,9.7,4,5,4,0,2026-04-21T01:30:41.073415+05:30
Jaipur,Rajasthan,26.9124,75.7873,29.5,27,0.0,958.7,7.95,28.1,141,172.8,33.5,4,5,7,0,2026-04-21T01:30:41.073421+05:30
Lucknow,Uttar Pradesh,26.8467,80.9462,27.8,49,0.0,990.0,7.9,46.4,119,173.7,44.9,4,5,7,1,2026-04-21T01:30:41.073428+05:30
Kanpur,Uttar Pradesh,26.4499,80.3319,25.4,55,0.0,988.5,7.9,34.2,193,334.3,61.0,4,5,7,0,2026-04-21T01:30:41.073434+05:30
Chandigarh,Chandigarh,30.7333,76.7794,23.3,43,0.0,967.1,7.25,29.5,60,25.3,18.2,0,5,7,0,2026-04-21T01:30:41.073440+05:30
Srinagar,Jammu and Kashmir,34.0837,74.7973,9.7,66,0.0,840.0,8.45,14.4,91,61.5,41.1,3,5,7,0,2026-04-21T01:30:41.073448+05:30
Jammu,Jammu and Kashmir,32.7266,74.857,23.1,51,0.0,971.1,8.0,31.0,64,27.1,20.8,0,5,7,0,2026-04-21T01:30:41.073454+05:30
Amritsar,Punjab,31.634,74.8723,23.1,56,0.0,979.4,7.95,28.4,72,32.5,20.0,0,5,7,0,2026-04-21T01:30:41.073459+05:30
Ludhiana,Punjab,30.901,75.8573,25.0,41,0.0,977.3,7.55,29.5,65,33.9,24.9,4,5,7,0,2026-04-21T01:30:41.073465+05:30
Jalandhar,Punjab,31.326,75.5762,23.7,49,0.0,978.4,7.7,30.2,72,45.1,30.0,0,5,7,0,2026-04-21T01:30:41.073470+05:30
Dehradun,Uttarakhand,30.6284,78.0322,16.4,46,0.0,829.5,7.7,40.3,43,17.3,12.0,0,5,7,0,2026-04-21T01:30:41.073476+05:30
Shimla,Himachal Pradesh,31.1048,77.1734,16.1,40,0.0,784.8,7.75,45.7,69,40.0,17.9,0,5,7,0,2026-04-21T01:30:41.073481+05:30
Manali,Himachal Pradesh,32.2396,77.1887,16.1,38,0.0,820.1,9.2,32.4,54,24.9,11.6,0,5,7,0,2026-04-21T01:30:41.073487+05:30
Gurgaon,Haryana,28.4595,77.0266,22.5,45,0.0,979.1,7.4,33.1,1200,1203.3,156.5,0,5,7,0,2026-04-21T01:30:41.073492+05:30
Noida,Uttar Pradesh,28.5355,77.391,25.4,40,0.0,982.2,7.35,31.7,1200,1203.3,156.5,4,5,7,0,2026-04-21T01:30:41.073498+05:30
Ghaziabad,Uttar Pradesh,28.6692,77.4538,24.7,45,0.0,980.4,7.3,32.4,252,562.5,99.0,0,5,7,0,2026-04-21T01:30:41.073505+05:30
Faridabad,Haryana,28.4089,77.3178,25.4,34,0.0,981.3,7.35,32.0,1200,1203.3,156.5,4,5,7,0,2026-04-21T01:30:41.073511+05:30
Meerut,Uttar Pradesh,28.9845,77.7064,23.2,46,0.0,979.1,7.2,36.7,252,562.5,99.0,0,5,7,0,2026-04-21T01:30:41.073517+05:30
Agra,Uttar Pradesh,27.1767,78.0081,26.6,46,0.0,985.1,7.7,28.8,848,1035.6,143.4,4,5,7,0,2026-04-21T01:30:41.073523+05:30
Varanasi,Uttar Pradesh,25.3176,82.9739,27.8,41,0.0,993.5,8.55,39.2,88,80.6,34.3,4,5,7,0,2026-04-21T01:30:41.073531+05:30
Prayagraj,Uttar Pradesh,25.4358,81.8463,29.5,43,0.0,992.2,8.4,35.3,81,124.3,34.7,4,5,7,0,2026-04-21T01:30:41.073537+05:30
Gorakhpur,Uttar Pradesh,26.7606,83.3732,28.6,39,0.0,992.3,8.35,44.6,122,45.4,21.7,4,5,7,0,2026-04-21T01:30:41.073543+05:30
Bareilly,Uttar Pradesh,28.367,79.4304,23.8,54,0.0,983.5,7.6,41.8,76,152.7,39.5,0,5,7,0,2026-04-21T01:30:41.073549+05:30
Aligarh,Uttar Pradesh,27.8974,78.088,25.1,44,0.0,983.1,7.5,33.8,662,972.3,131.3,4,5,7,0,2026-04-21T01:30:41.073555+05:30
Moradabad,Uttar Pradesh,28.8386,78.7733,23.4,49,0.0,980.8,7.4,40.0,85,267.3,61.7,0,5,7,0,2026-04-21T01:30:41.073562+05:30
Saharanpur,Uttar Pradesh,29.9637,77.546,23.1,48,0.0,973.3,7.0,31.7,77,55.1,31.3,0,5,7,0,2026-04-21T01:30:41.073570+05:30
Jhansi,Uttar Pradesh,25.4484,78.5685,28.7,37,0.0,975.1,8.25,29.2,64,29.5,11.3,4,5,7,0,2026-04-21T01:30:45.184417+05:30
Surat,Gujarat,21.1702,72.8311,27.3,84,0.0,1005.4,7.85,28.1,89,41.6,27.6,7,5,4,1,2026-04-21T01:30:45.184448+05:30
Vadodara,Gujarat,22.3072,73.1812,28.3,65,0.0,1002.9,8.15,24.1,81,37.8,31.9,7,5,4,1,2026-04-21T01:30:45.184460+05:30
Rajkot,Gujarat,22.3039,70.8022,24.8,62,0.0,994.0,7.85,29.5,52,54.8,18.4,3,5,7,1,2026-04-21T01:30:45.184469+05:30
Thane,Maharashtra,19.2183,72.9781,26.6,91,0.0,1006.5,8.0,34.2,78,66.8,25.5,7,5,4,1,2026-04-21T01:30:45.184477+05:30
Nagpur,Maharashtra,21.1458,79.0882,28.1,62,0.0,971.1,8.45,19.8,89,40.0,38.2,7,5,7,1,2026-04-21T01:30:45.184485+05:30
Nashik,Maharashtra,19.9975,73.7898,25.9,61,0.0,944.7,8.3,37.8,73,26.3,21.4,7,5,7,1,2026-04-21T01:30:45.184494+05:30
Aurangabad,Maharashtra,19.8762,75.3433,29.1,46,0.0,943.4,9.0,27.4,88,36.0,31.1,4,5,7,1,2026-04-21T01:30:45.184502+05:30
Solapur,Maharashtra,17.6599,75.9064,27.4,64,0.0,955.4,9.0,35.3,112,65.0,54.2,7,5,7,1,2026-04-21T01:30:45.184510+05:30
Kolhapur,Maharashtra,16.705,74.2433,23.4,85,0.0,946.4,9.05,29.2,119,44.6,40.9,3,5,7,1,2026-04-21T01:30:45.184518+05:30
Goa,Goa,15.2993,74.124,28.3,85,0.0,996.5,9.05,27.4,85,42.1,28.6,7,5,7,1,2026-04-21T01:30:45.184525+05:30
Jodhpur,Rajasthan,26.2389,73.0243,29.8,35,0.0,982.0,7.7,32.4,106,172.3,26.4,4,5,7,0,2026-04-21T01:30:45.184533+05:30
Udaipur,Rajasthan,24.5854,73.7125,25.8,40,0.0,946.5,8.7,38.2,47,31.3,10.9,4,5,7,0,2026-04-21T01:30:45.184541+05:30
Kota,Rajasthan,25.2138,75.8648,27.7,35,0.0,976.9,8.2,28.4,45,11.4,9.1,4,5,7,0,2026-04-21T01:30:45.184549+05:30
Bikaner,Rajasthan,28.0229,73.3119,30.5,34,0.0,980.4,7.6,19.8,56,40.3,16.1,0,5,7,0,2026-04-21T01:30:45.184557+05:30
Ajmer,Rajasthan,26.4499,74.6399,26.8,37,0.0,953.8,8.15,34.9,66,58.2,17.3,4,5,7,0,2026-04-21T01:30:45.184565+05:30
Gwalior,Madhya Pradesh,26.2183,78.1828,28.4,39,0.0,980.3,7.95,30.6,111,284.1,43.4,4,5,7,0,2026-04-21T01:30:45.184573+05:30
Indore,Madhya Pradesh,22.7196,75.8577,25.8,50,0.0,947.1,8.6,35.3,58,21.2,17.2,4,5,7,0,2026-04-21T01:30:45.184617+05:30
Bhopal,Madhya Pradesh,23.2599,77.4126,27.4,37,0.0,952.4,8.6,31.0,59,19.6,17.6,4,5,7,0,2026-04-21T01:30:45.184628+05:30
Jabalpur,Madhya Pradesh,23.1815,79.9864,28.6,49,0.0,959.0,8.8,27.7,60,20.5,18.5,4,5,7,1,2026-04-21T01:30:45.184636+05:30
Ujjain,Madhya Pradesh,23.1765,75.7885,26.5,48,0.0,952.8,8.55,36.7,70,21.4,16.0,4,5,7,0,2026-04-21T01:30:45.184645+05:30
Visakhapatnam,Andhra Pradesh,17.6868,83.2185,27.4,87,0.0,1002.2,9.2,41.0,55,19.8,15.4,7,5,4,1,2026-04-21T01:30:45.184651+05:30
Vijayawada,Andhra Pradesh,16.5062,80.648,27.6,89,0.0,1001.6,9.25,28.1,58,14.9,11.7,7,5,4,1,2026-04-21T01:30:45.184657+05:30
Guntur,Andhra Pradesh,16.3067,80.4365,27.7,88,0.0,1002.7,9.25,31.0,61,14.8,11.8,7,5,4,1,2026-04-21T01:30:45.184664+05:30
Nellore,Andhra Pradesh,14.4426,79.9865,27.5,87,0.0,1004.4,9.3,36.0,50,11.3,8.6,7,5,4,1,2026-04-21T01:30:45.184670+05:30
Kurnool,Andhra Pradesh,15.8281,78.0373,31.0,56,0.0,975.5,9.25,42.8,100,27.1,24.9,0,5,7,1,2026-04-21T01:30:45.184677+05:30
Kakinada,Andhra Pradesh,16.9891,82.2475,27.1,89,0.0,1006.4,9.2,28.1,46,18.1,12.0,7,5,4,1,2026-04-21T01:30:45.184683+05:30
Tirupati,Andhra Pradesh,13.6288,79.4192,25.6,82,0.0,991.3,9.35,31.7,63,14.8,12.8,7,5,7,1,2026-04-21T01:30:45.184689+05:30
Warangal,Telangana,17.9689,79.5941,30.0,65,0.0,977.0,8.85,26.6,109,30.7,29.3,7,5,7,1,2026-04-21T01:30:45.184696+05:30
Nizamabad,Telangana,18.6725,78.0941,28.2,56,0.0,963.0,9.1,31.0,111,49.9,43.7,4,5,7,1,2026-04-21T01:30:45.184703+05:30
Mysore,Karnataka,12.2958,76.6396,23.9,86,0.0,927.5,9.5,36.0,87,36.0,33.5,3,5,7,1,2026-04-21T01:30:45.184708+05:30
Mangalore,Karnataka,12.9141,74.856,29.0,84,0.0,1005.4,9.15,24.5,83,45.2,33.3,7,5,4,1,2026-04-21T01:30:45.184714+05:30
Hubli-Dharwad,Karnataka,15.3647,75.124,24.5,92,0.0,939.5,9.25,36.7,106,33.4,28.8,3,5,7,1,2026-04-21T01:30:45.184720+05:30
Belgaum,Karnataka,15.8497,74.4977,23.1,91,0.0,924.2,9.3,33.1,98,35.2,27.5,3,5,7,1,2026-04-21T01:30:48.567464+05:30
Coimbatore,Tamil Nadu,11.0168,76.9558,25.4,84,0.0,960.9,9.25,48.2,96,44.5,40.5,7,5,7,1,2026-04-21T01:30:48.567498+05:30
Madurai,Tamil Nadu,9.9252,78.1198,27.8,82,0.0,992.2,8.85,42.5,64,19.8,17.9,7,5,7,1,2026-04-21T01:30:48.567515+05:30
Trichy,Tamil Nadu,10.7905,78.7047,27.4,85,0.0,998.9,8.95,25.2,61,15.9,14.9,7,5,7,1,2026-04-21T01:30:48.567525+05:30
Salem,Tamil Nadu,11.6643,78.146,28.0,73,0.0,976.6,9.4,16.9,62,21.4,20.3,7,5,7,1,2026-04-21T01:30:48.567532+05:30
Tirunelveli,Tamil Nadu,8.7139,77.7567,27.0,79,0.0,1002.3,8.7,36.4,60,18.7,16.5,7,5,4,1,2026-04-21T01:30:48.567539+05:30
Vellore,Tamil Nadu,12.9165,79.1325,25.8,73,0.0,983.9,9.4,28.4,75,30.7,29.3,7,5,7,1,2026-04-21T01:30:48.567545+05:30
Erode,Tamil Nadu,11.341,77.7172,29.5,73,0.0,988.2,9.2,27.0,63,15.7,14.9,7,5,7,1,2026-04-21T01:30:48.567551+05:30
Kochi,Kerala,9.9312,76.2673,27.8,85,0.0,1007.9,8.65,30.6,63,28.6,24.6,7,5,4,1,2026-04-21T01:30:48.567558+05:30
Thiruvananthapuram,Kerala,8.5241,76.9366,28.3,84,0.0,1006.9,8.4,31.0,58,21.2,14.9,7,5,4,1,2026-04-21T01:30:48.567563+05:30
Kozhikode,Kerala,11.2588,75.7804,27.9,85,0.0,1007.3,9.05,28.8,68,36.7,23.4,7,5,4,1,2026-04-21T01:30:48.567570+05:30
Thrissur,Kerala,10.5276,76.2144,27.0,89,0.0,1006.3,9.05,36.4,68,33.5,29.7,7,5,4,1,2026-04-21T01:30:48.567576+05:30
Kannur,Kerala,11.8745,75.3704,28.7,80,0.0,1006.1,9.1,31.3,77,38.3,32.7,7,5,4,1,2026-04-21T01:30:48.567608+05:30
Patna,Bihar,25.5941,85.1376,29.3,76,0.0,995.4,8.7,32.8,124,92.2,40.7,7,5,7,1,2026-04-21T01:30:48.567615+05:30
Gaya,Bihar,24.7914,85.0002,29.3,47,0.0,989.5,8.75,32.4,93,58.1,35.5,4,5,7,1,2026-04-21T01:30:48.567621+05:30
Muzaffarpur,Bihar,26.1209,85.3647,27.9,80,0.0,995.2,8.65,29.5,126,100.1,43.3,7,5,7,1,2026-04-21T01:30:48.567627+05:30
Bhagalpur,Bihar,25.2425,87.0117,28.7,86,0.0,995.7,8.7,26.6,151,78.2,59.6,7,5,7,1,2026-04-21T01:30:48.567632+05:30
Ranchi,Jharkhand,23.3441,85.3096,27.3,57,0.0,935.6,9.25,38.5,79,42.1,21.9,4,5,7,1,2026-04-21T01:30:48.567638+05:30
Jamshedpur,Jharkhand,22.8046,86.2029,29.0,71,0.0,987.5,9.05,34.6,121,43.8,35.2,7,5,7,1,2026-04-21T01:30:48.567643+05:30
Dhanbad,Jharkhand,23.7957,86.4304,30.3,64,0.0,975.8,8.85,33.5,145,92.7,61.9,3,5,7,1,2026-04-21T01:30:48.567649+05:30
Bokaro,Jharkhand,23.6693,86.1511,30.2,51,0.0,980.0,8.9,36.4,123,71.0,51.0,0,5,7,1,2026-04-21T01:30:48.567655+05:30
Bhubaneswar,Odisha,20.2961,85.8245,26.9,94,0.0,999.6,9.15,33.1,68,14.3,11.6,7,5,7,1,2026-04-21T01:30:48.567660+05:30
Cuttack,Odisha,20.4625,85.8828,27.1,93,0.0,1001.3,9.2,33.8,68,14.3,11.6,7,5,4,1,2026-04-21T01:30:48.567666+05:30
Rourkela,Odisha,22.2604,84.8536,28.0,73,0.0,982.1,8.95,34.6,124,58.9,47.3,7,5,7,1,2026-04-21T01:30:48.567671+05:30
Raipur,Chhattisgarh,21.2514,81.6296,30.5,43,0.0,972.3,9.0,35.3,95,38.8,36.6,0,5,7,1,2026-04-21T01:30:48.567678+05:30
Bhilai,Chhattisgarh,21.1938,81.3509,28.4,54,0.0,972.7,9.0,31.3,90,34.7,32.1,4,5,7,1,2026-04-21T01:30:48.567685+05:30
Guwahati,Assam,26.1158,91.7086,24.5,90,0.0,998.0,8.45,41.0,64,20.3,17.6,3,5,7,1,2026-04-21T01:30:48.567691+05:30
Agartala,Tripura,23.8315,91.2868,27.4,89,0.0,1003.3,8.8,35.6,86,22.4,18.5,7,5,4,1,2026-04-21T01:30:48.567697+05:30
Shillong,Meghalaya,25.5788,91.8933,17.0,94,0.0,853.9,9.05,78.1,57,8.6,7.6,3,10,7,0,2026-04-21T01:30:48.567704+05:30
Imphal,Manipur,24.817,93.9368,19.3,91,0.0,921.5,9.2,82.8,104,51.1,44.8,3,10,7,1,2026-04-21T01:30:48.567710+05:30
Aizawl,Mizoram,23.7271,92.7176,21.3,82,0.0,891.5,9.05,65.9,107,31.3,25.5,3,5,7,1,2026-04-21T01:30:48.567716+05:30
Kohima,Nagaland,25.6701,94.1077,17.9,87,0.0,852.9,9.15,112.0,74,27.2,21.6,3,10,7,0,2026-04-21T01:30:48.567721+05:30
Gangtok,Sikkim,27.3314,88.6138,16.2,80,0.0,834.2,9.0,19.4,59,20.4,16.4,3,5,7,0,2026-04-21T01:30:48.567727+05:30
Siliguri,West Bengal,26.7271,88.3953,23.1,81,0.0,989.7,8.15,30.6,95,39.7,34.5,3,5,7,1,2026-04-21T01:30:51.924319+05:30
Durgapur,West Bengal,23.5204,87.3119,28.4,88,0.0,990.8,8.95,29.2,146,65.7,57.9,7,5,7,1,2026-04-21T01:30:51.924340+05:30
Asansol,West Bengal,23.6739,86.9524,28.9,81,0.0,989.2,9.0,28.4,124,78.7,53.8,7,5,7,1,2026-04-21T01:30:51.924349+05:30
Pondicherry,Puducherry,11.9139,79.8145,27.7,93,0.0,1007.6,9.2,33.1,33,11.6,7.8,7,5,4,1,2026-04-21T01:30:51.924356+05:30
Port Blair,Andaman and Nicobar Islands,11.6234,92.7265,29.6,72,0.0,1005.9,8.8,15.1,61,14.4,11.8,7,5,4,1,2026-04-21T01:30:51.924362+05:30
Haridwar,Uttarakhand,29.9457,78.1642,20.9,68,0.0,971.9,7.1,36.4,61,39.6,28.3,3,5,7,0,2026-04-21T01:30:51.924368+05:30
Rishikesh,Uttarakhand,30.0869,78.2676,21.5,56,0.0,965.2,7.2,37.1,65,40.3,21.2,0,5,7,0,2026-04-21T01:30:51.924374+05:30
Nainital,Uttarakhand,29.3919,79.4542,21.8,28,0.0,806.1,8.05,71.3,73,79.4,22.4,0,5,7,0,2026-04-21T01:30:51.924380+05:30
Mussoorie,Uttarakhand,30.4599,78.0664,18.5,40,0.0,802.4,7.6,42.1,56,37.0,25.3,0,5,7,0,2026-04-21T01:30:51.924386+05:30
Dharamshala,Himachal Pradesh,32.219,76.3234,22.4,34,0.0,868.9,7.85,33.5,47,22.1,9.5,0,5,7,0,2026-04-21T01:30:51.924392+05:30
Dalhousie,Himachal Pradesh,32.5387,75.971,18.7,33,0.0,803.5,8.1,30.2,52,28.0,20.1,0,5,7,0,2026-04-21T01:30:51.924398+05:30
Patiala,Punjab,30.3398,76.3869,23.6,40,0.0,976.6,7.2,29.2,314,474.0,67.8,0,5,7,0,2026-04-21T01:30:51.924404+05:30
Bhatinda,Punjab,30.211,74.9455,26.3,41,0.0,982.4,7.85,33.5,70,45.9,27.5,4,5,7,0,2026-04-21T01:30:51.924410+05:30
Rohtak,Haryana,28.8955,76.6066,22.1,46,0.0,979.6,7.35,36.0,697,717.1,107.6,0,5,7,0,2026-04-21T01:30:51.924416+05:30
Panipat,Haryana,29.3909,76.9635,23.5,40,0.0,978.2,7.15,33.5,1133,1326.2,163.4,0,5,7,0,2026-04-21T01:30:51.924422+05:30
Mathura,Uttar Pradesh,27.4924,77.6737,28.2,38,0.0,984.4,7.6,29.2,914,1132.5,156.5,4,5,7,0,2026-04-21T01:30:51.924427+05:30
Vrindavan,Uttar Pradesh,27.5823,77.7027,25.9,43,0.0,984.8,7.6,30.2,914,1132.5,156.5,4,5,7,0,2026-04-21T01:30:51.924433+05:30
Ayodhya,Uttar Pradesh,26.7922,82.1998,27.3,43,0.0,991.3,8.1,47.5,105,95.7,31.2,4,5,7,0,2026-04-21T01:30:51.924439+05:30
Ratlam,Madhya Pradesh,23.3315,75.0367,28.0,46,0.0,953.8,8.45,31.0,90,22.1,15.3,4,5,7,0,2026-04-21T01:30:51.924445+05:30
Sagar,Madhya Pradesh,23.8388,78.7378,28.4,42,0.0,948.5,8.65,29.9,52,18.2,14.6,4,5,7,0,2026-04-21T01:30:51.924451+05:30
Satna,Madhya Pradesh,24.6005,80.8322,29.4,36,0.0,968.7,8.65,33.5,67,39.6,18.6,4,5,7,0,2026-04-21T01:30:51.924456+05:30
Akola,Maharashtra,20.7002,77.0082,28.7,57,0.0,973.6,8.85,22.3,79,41.2,37.7,4,5,7,1,2026-04-21T01:30:51.924463+05:30
Amravati,Maharashtra,20.9374,77.7796,27.4,64,0.0,965.6,8.85,19.8,75,35.4,32.1,7,5,7,1,2026-04-21T01:30:51.924469+05:30
Latur,Maharashtra,18.4088,76.5604,25.3,68,0.0,938.3,9.1,24.8,108,53.6,46.3,7,5,7,1,2026-04-21T01:30:51.924476+05:30
Nanded,Maharashtra,19.1383,77.3091,27.4,63,0.0,967.0,9.0,19.1,106,44.1,38.5,7,5,7,1,2026-04-21T01:30:51.924481+05:30
Gulbarga,Karnataka,17.3297,76.8343,28.3,56,0.0,957.5,8.2,29.9,118,57.6,48.7,4,5,7,1,2026-04-21T01:30:51.924488+05:30
Bidar,Karnataka,17.9104,77.5199,27.2,58,0.0,934.3,8.45,31.3,116,55.9,47.4,4,5,7,1,2026-04-21T01:30:51.924494+05:30
Hospet,Karnataka,15.2689,76.3909,28.3,75,0.0,954.8,9.3,29.2,136,41.7,38.4,7,5,7,1,2026-04-21T01:30:51.924499+05:30
Tirupur,Tamil Nadu,11.1085,77.3411,27.9,78,0.0,974.4,9.2,31.7,74,28.4,25.6,7,5,7,1,2026-04-21T01:30:51.924505+05:30
Alappuzha,Kerala,9.4981,76.3388,27.7,86,0.0,1007.9,7.7,29.5,65,26.7,21.0,7,5,4,1,2026-04-21T01:30:51.924511+05:30
Munnar,Kerala,10.0889,77.0595,21.3,89,0.0,856.1,9.25,37.1,65,29.7,27.9,3,5,7,1,2026-04-21T01:30:51.924517+05:30
Silchar,Assam,24.8333,92.7789,23.6,92,0.0,1003.4,8.65,46.4,103,31.4,26.0,3,5,4,1,2026-04-21T01:30:51.924523+05:30
Dibrugarh,Assam,27.4728,94.912,23.4,91,0.0,992.2,7.0,35.6,79,21.4,19.8,3,5,7,1,2026-04-21T01:30:51.924528+05:30
