city,state,latitude,longitude,temp,humidity,rain,pressure,uv_index,wind_gusts,aqi,pm10,pm2_5,no2,co,o3,so2,mosquito_risk,arthritis_risk,migraine_risk,frizz_risk,updated_at
Delhi,Delhi,28.6139,77.209,41.1,14,0.0,977.1,7.75,38.5,628,836.3,121.5,13.2,325.0,148.0,10.4,0,5,10,0,2026-05-27T18:27:33.812574+05:30
Mumbai,Maharashtra,19.076,72.8777,32.2,61,0.0,1007.9,7.8,40.3,38,21.3,11.5,6.6,199.0,58.0,4.2,3,5,4,1,2026-05-27T18:27:33.812630+05:30
Bangalore,Karnataka,12.9716,77.5946,28.2,62,0.0,912.2,9.2,29.9,88,24.6,17.2,9.1,691.0,124.0,4.0,7,5,7,1,2026-05-27T18:27:33.812644+05:30
Hyderabad,Telangana,17.385,78.4867,33.7,51,0.0,951.3,8.7,36.0,98,33.1,21.1,7.0,344.0,143.0,6.5,0,5,7,1,2026-05-27T18:27:33.812654+05:30
Chennai,Tamil Nadu,13.0827,80.2707,31.8,66,0.0,1005.2,9.0,36.0,146,37.6,30.5,7.1,290.0,178.0,7.9,3,5,4,1,2026-05-27T18:27:33.812663+05:30
Kolkata,West Bengal,22.5726,88.3639,26.8,95,0.8,1003.0,8.9,41.0,116,54.6,39.1,8.2,354.0,101.0,8.5,10,5,4,1,2026-05-27T18:27:33.812672+05:30
Pune,Maharashtra,18.5204,73.8567,32.1,48,0.0,948.1,8.2,43.9,56,18.0,14.1,3.8,206.0,133.0,9.6,0,5,7,1,2026-05-27T18:27:33.812679+05:30
Ahmedabad,Gujarat,23.0225,72.5714,42.0,19,0.0,997.9,8.15,36.0,69,74.7,22.8,2.6,167.0,100.0,2.5,0,5,10,0,2026-05-27T18:27:33.812686+05:30
Jaipur,Rajasthan,26.9124,75.7873,41.3,14,0.0,956.0,8.25,47.2,172,146.7,34.0,1.9,165.0,110.0,2.8,0,5,10,0,2026-05-27T18:27:33.812697+05:30
Lucknow,Uttar Pradesh,26.8467,80.9462,38.7,30,0.0,987.3,8.2,36.0,192,207.7,53.2,5.0,214.0,179.0,8.6,0,5,10,1,2026-05-27T18:27:33.812704+05:30
Kanpur,Uttar Pradesh,26.4499,80.3319,39.9,17,0.0,985.5,8.2,40.3,285,689.2,101.5,3.8,204.0,170.0,7.6,0,5,10,0,2026-05-27T18:27:33.812712+05:30
Chandigarh,Chandigarh,30.7333,76.7794,38.3,16,0.0,963.0,7.75,37.8,177,21.5,13.1,4.0,314.0,162.0,5.8,0,5,10,0,2026-05-27T18:27:33.812720+05:30
Srinagar,Jammu and Kashmir,34.0837,74.7973,25.9,36,0.0,842.4,9.0,20.9,120,34.5,12.9,2.9,363.0,137.0,2.3,4,5,7,0,2026-05-27T18:27:33.812727+05:30
Jammu,Jammu and Kashmir,32.7266,74.857,38.8,16,0.0,966.4,8.6,58.0,136,43.3,17.1,3.7,192.0,146.0,3.3,0,5,10,0,2026-05-27T18:27:33.812733+05:30
Amritsar,Punjab,31.634,74.8723,39.7,18,0.0,974.1,8.45,31.3,160,35.0,17.1,5.0,210.0,166.0,7.4,0,5,10,0,2026-05-27T18:27:33.812739+05:30
Ludhiana,Punjab,30.901,75.8573,40.3,15,0.0,972.3,8.05,40.3,154,83.6,22.3,2.8,250.0,156.0,4.7,0,5,10,0,2026-05-27T18:27:33.812744+05:30
Jalandhar,Punjab,31.326,75.5762,40.5,15,0.0,973.3,8.2,38.9,164,78.9,22.2,3.9,264.0,158.0,5.7,0,5,10,0,2026-05-27T18:27:33.812751+05:30
Dehradun,Uttarakhand,30.6284,78.0322,22.4,58,0.0,829.4,8.2,33.5,162,25.8,13.9,2.1,217.0,173.0,4.8,0,5,7,0,2026-05-27T18:27:33.812757+05:30
Shimla,Himachal Pradesh,31.1048,77.1734,23.0,22,0.0,786.3,8.3,64.1,151,30.3,13.5,1.7,199.0,153.0,2.4,0,5,7,0,2026-05-27T18:27:33.812765+05:30
Manali,Himachal Pradesh,32.2396,77.1887,21.5,49,0.0,820.1,9.95,51.5,152,34.8,20.8,15.1,143.0,163.0,0.5,0,5,7,0,2026-05-27T18:27:33.812771+05:30
Gurgaon,Haryana,28.4595,77.0266,39.7,17,0.0,975.6,7.85,39.2,894,1616.8,210.5,13.4,302.0,146.0,9.1,0,5,10,0,2026-05-27T18:27:33.812780+05:30
Noida,Uttar Pradesh,28.5355,77.391,40.2,16,0.0,978.3,7.75,31.7,894,1616.8,210.5,13.4,376.0,146.0,9.1,0,5,10,0,2026-05-27T18:27:33.812786+05:30
Ghaziabad,Uttar Pradesh,28.6692,77.4538,39.9,17,0.0,976.5,7.75,35.3,390,635.2,99.7,9.6,241.0,163.0,13.4,0,5,10,0,2026-05-27T18:27:33.812793+05:30
Faridabad,Haryana,28.4089,77.3178,40.8,15,0.0,977.7,7.8,39.6,894,1616.8,210.5,13.4,288.0,146.0,9.1,0,5,10,0,2026-05-27T18:27:33.812799+05:30
Meerut,Uttar Pradesh,28.9845,77.7064,38.8,23,0.0,975.1,7.65,36.7,390,635.2,99.7,9.6,222.0,163.0,13.4,0,5,10,0,2026-05-27T18:27:33.812805+05:30
Agra,Uttar Pradesh,27.1767,78.0081,40.8,15,0.0,981.9,8.05,38.5,632,1084.1,140.2,9.5,211.0,139.0,5.3,0,5,10,0,2026-05-27T18:27:33.812811+05:30
Varanasi,Uttar Pradesh,25.3176,82.9739,36.9,41,0.0,991.0,8.7,41.0,203,94.3,41.8,6.2,351.0,183.0,12.2,0,5,10,1,2026-05-27T18:27:33.812818+05:30
Prayagraj,Uttar Pradesh,25.4358,81.8463,40.0,24,0.0,988.6,8.55,53.6,176,90.8,37.4,4.3,173.0,158.0,8.3,0,5,10,0,2026-05-27T18:27:33.812825+05:30
Gorakhpur,Uttar Pradesh,26.7606,83.3732,31.9,55,0.0,992.8,8.55,42.1,167,73.3,37.0,3.7,352.0,184.0,10.9,0,5,7,1,2026-05-27T18:27:33.812832+05:30
Bareilly,Uttar Pradesh,28.367,79.4304,35.2,34,0.0,980.8,8.0,31.7,192,35.9,25.1,4.7,281.0,189.0,8.5,0,5,10,1,2026-05-27T18:27:33.812838+05:30
Aligarh,Uttar Pradesh,27.8974,78.088,38.5,21,0.0,979.5,7.9,38.9,541,987.2,143.9,8.4,240.0,173.0,10.4,0,5,10,0,2026-05-27T18:27:33.812844+05:30
Moradabad,Uttar Pradesh,28.8386,78.7733,35.8,33,0.0,977.5,7.85,32.0,202,50.2,32.0,10.0,301.0,177.0,10.6,0,5,10,1,2026-05-27T18:27:33.812849+05:30
Saharanpur,Uttar Pradesh,29.9637,77.546,37.7,20,0.0,969.3,7.5,34.9,191,167.2,48.0,14.5,275.0,161.0,11.7,0,5,10,0,2026-05-27T18:27:33.812855+05:30
Jhansi,Uttar Pradesh,25.4484,78.5685,40.5,19,0.0,972.7,8.45,52.2,70,56.5,22.8,2.0,132.0,117.0,4.3,0,5,10,0,2026-05-27T18:27:37.082438+05:30
Surat,Gujarat,21.1702,72.8311,31.9,66,0.0,1004.9,7.7,45.4,73,60.3,27.0,17.2,305.0,44.0,42.1,3,5,4,1,2026-05-27T18:27:37.082470+05:30
Vadodara,Gujarat,22.3072,73.1812,38.2,38,0.0,1000.8,8.05,41.8,70,70.1,26.7,3.3,181.0,113.0,4.7,0,5,7,1,2026-05-27T18:27:37.082480+05:30
Rajkot,Gujarat,22.3039,70.8022,36.9,47,0.0,991.0,7.75,46.4,69,57.2,23.3,2.0,124.0,106.0,5.4,0,5,10,1,2026-05-27T18:27:37.082489+05:30
Thane,Maharashtra,19.2183,72.9781,32.5,58,0.0,1007.2,7.8,37.8,38,21.3,11.5,6.6,175.0,58.0,4.2,0,5,4,1,2026-05-27T18:27:37.082497+05:30
Nagpur,Maharashtra,21.1458,79.0882,40.8,15,0.0,969.3,8.9,44.3,94,39.3,18.1,5.7,171.0,123.0,12.8,0,5,10,0,2026-05-27T18:27:37.082505+05:30
Nashik,Maharashtra,19.9975,73.7898,31.6,54,0.0,945.3,8.1,40.3,35,27.1,12.9,1.8,141.0,78.0,0.9,0,5,7,1,2026-05-27T18:27:37.082513+05:30
Aurangabad,Maharashtra,19.8762,75.3433,37.8,22,0.0,942.6,9.0,42.1,46,27.4,12.5,1.5,150.0,106.0,1.4,0,5,10,0,2026-05-27T18:27:37.082521+05:30
Solapur,Maharashtra,17.6599,75.9064,36.0,32,0.0,955.7,7.65,37.4,51,13.3,8.4,2.2,158.0,116.0,2.5,0,5,10,1,2026-05-27T18:27:37.082528+05:30
Kolhapur,Maharashtra,16.705,74.2433,29.6,62,0.0,947.9,8.3,44.3,44,11.2,7.5,3.1,153.0,92.0,1.8,7,5,7,1,2026-05-27T18:27:37.082536+05:30
Goa,Goa,15.2993,74.124,28.6,89,0.1,998.2,7.1,27.0,39,9.4,6.5,1.5,135.0,59.0,1.0,10,5,7,1,2026-05-27T18:27:37.082544+05:30
Jodhpur,Rajasthan,26.2389,73.0243,41.0,20,0.0,978.8,8.45,42.8,153,312.0,50.3,1.4,134.0,105.0,1.6,0,5,10,0,2026-05-27T18:27:37.082551+05:30
Udaipur,Rajasthan,24.5854,73.7125,37.7,21,0.0,944.9,8.85,39.6,66,75.7,21.3,0.9,133.0,105.0,2.2,0,5,10,0,2026-05-27T18:27:37.082558+05:30
Kota,Rajasthan,25.2138,75.8648,41.8,16,0.0,974.5,8.4,41.8,73,67.5,19.8,1.6,137.0,113.0,3.6,0,5,10,0,2026-05-27T18:27:37.082566+05:30
Bikaner,Rajasthan,28.0229,73.3119,44.4,10,0.0,975.7,8.4,43.9,126,104.1,36.3,0.5,145.0,109.0,2.3,0,5,10,0,2026-05-27T18:27:37.082574+05:30
Ajmer,Rajasthan,26.4499,74.6399,38.7,21,0.0,951.9,8.4,56.2,68,85.2,22.1,1.2,141.0,107.0,2.3,0,5,10,0,2026-05-27T18:27:37.082580+05:30
Gwalior,Madhya Pradesh,26.2183,78.1828,41.3,14,0.0,977.7,8.25,53.6,100,68.5,25.2,2.1,146.0,135.0,3.8,0,5,10,0,2026-05-27T18:27:37.082588+05:30
Indore,Madhya Pradesh,22.7196,75.8577,37.4,27,0.0,946.6,8.6,46.1,63,39.5,18.9,1.9,179.0,120.0,4.1,0,5,10,0,2026-05-27T18:27:37.082595+05:30
Bhopal,Madhya Pradesh,23.2599,77.4126,40.0,16,0.0,950.9,8.65,39.6,66,40.6,17.0,1.4,161.0,116.0,3.1,0,5,10,0,2026-05-27T18:27:37.082602+05:30
Jabalpur,Madhya Pradesh,23.1815,79.9864,40.3,16,0.0,957.2,8.85,42.1,80,41.1,17.1,2.1,144.0,121.0,2.9,0,5,10,0,2026-05-27T18:27:37.082609+05:30
Ujjain,Madhya Pradesh,23.1765,75.7885,38.1,25,0.0,951.9,8.55,47.9,65,50.3,21.0,1.0,144.0,118.0,4.3,0,5,10,0,2026-05-27T18:27:37.082616+05:30
Visakhapatnam,Andhra Pradesh,17.6868,83.2185,37.2,45,0.0,997.5,9.0,40.7,202,79.9,58.3,25.1,424.0,194.0,56.9,0,5,10,1,2026-05-27T18:27:37.082623+05:30
Vijayawada,Andhra Pradesh,16.5062,80.648,38.2,37,0.0,997.9,8.35,41.0,116,39.0,28.6,6.3,222.0,143.0,6.5,0,5,10,1,2026-05-27T18:27:37.082630+05:30
Guntur,Andhra Pradesh,16.3067,80.4365,37.3,42,0.0,999.4,8.35,38.9,106,34.2,23.7,3.7,218.0,148.0,5.9,0,5,10,1,2026-05-27T18:27:37.082637+05:30
Nellore,Andhra Pradesh,14.4426,79.9865,35.5,45,0.0,1002.6,9.0,36.0,111,27.9,21.3,6.6,232.0,145.0,4.2,0,5,7,1,2026-05-27T18:27:37.082645+05:30
Kurnool,Andhra Pradesh,15.8281,78.0373,34.5,45,0.0,975.2,2.55,46.4,69,25.6,18.2,3.3,191.0,138.0,10.0,0,5,3,1,2026-05-27T18:27:37.082653+05:30
Kakinada,Andhra Pradesh,16.9891,82.2475,36.8,47,0.0,1002.0,9.0,49.0,170,45.8,30.7,4.9,313.0,163.0,3.9,0,5,7,1,2026-05-27T18:27:37.082660+05:30
Tirupati,Andhra Pradesh,13.6288,79.4192,34.2,50,0.0,988.8,8.6,34.2,96,25.2,17.9,8.4,289.0,127.0,4.1,0,5,7,1,2026-05-27T18:27:37.082667+05:30
Warangal,Telangana,17.9689,79.5941,36.5,42,0.0,975.3,9.0,43.6,105,40.7,25.3,4.6,205.0,138.0,7.0,0,5,10,1,2026-05-27T18:27:37.082672+05:30
Nizamabad,Telangana,18.6725,78.0941,37.0,35,0.0,962.3,8.5,41.8,71,26.4,13.6,1.8,172.0,121.0,3.1,0,5,10,1,2026-05-27T18:27:37.082678+05:30
Mysore,Karnataka,12.2958,76.6396,26.9,69,0.0,929.4,7.65,40.7,65,21.0,15.7,6.9,200.0,123.0,2.1,7,5,7,1,2026-05-27T18:27:37.082683+05:30
Mangalore,Karnataka,12.9141,74.856,28.8,80,0.0,1007.6,7.65,29.5,55,10.1,6.7,3.2,172.0,60.0,1.7,7,5,4,1,2026-05-27T18:27:37.082689+05:30
Hubli-Dharwad,Karnataka,15.3647,75.124,29.8,61,0.0,941.1,6.05,36.0,39,9.5,7.6,3.8,156.0,91.0,1.3,7,5,7,1,2026-05-27T18:27:37.082695+05:30
Belgaum,Karnataka,15.8497,74.4977,27.3,75,0.0,926.2,7.5,36.7,39,11.0,8.2,3.9,176.0,73.0,1.6,7,5,7,1,2026-05-27T18:27:40.348116+05:30
Coimbatore,Tamil Nadu,11.0168,76.9558,27.6,73,0.1,962.1,8.6,53.3,44,9.9,8.7,4.8,170.0,88.0,2.3,10,5,7,1,2026-05-27T18:27:40.348148+05:30
Madurai,Tamil Nadu,9.9252,78.1198,28.9,75,0.0,993.0,8.35,41.4,113,35.0,24.7,5.7,220.0,142.0,3.3,7,5,7,1,2026-05-27T18:27:40.348159+05:30
Trichy,Tamil Nadu,10.7905,78.7047,31.6,58,0.0,998.9,8.35,52.2,69,26.8,21.0,13.6,201.0,113.0,4.3,0,5,7,1,2026-05-27T18:27:40.348168+05:30
Salem,Tamil Nadu,11.6643,78.146,30.6,65,0.1,977.1,8.3,40.0,130,29.0,19.4,5.5,201.0,154.0,9.0,6,5,7,1,2026-05-27T18:27:40.348177+05:30
Tirunelveli,Tamil Nadu,8.7139,77.7567,33.4,50,0.0,1002.7,8.65,32.0,36,6.7,5.1,3.1,130.0,71.0,1.0,0,5,4,1,2026-05-27T18:27:40.348184+05:30
Vellore,Tamil Nadu,12.9165,79.1325,30.6,69,0.0,982.6,8.75,35.3,93,36.3,20.8,6.8,210.0,120.0,2.9,3,5,7,1,2026-05-27T18:27:40.348192+05:30
Erode,Tamil Nadu,11.341,77.7172,32.8,51,0.0,988.4,8.05,37.4,82,18.7,14.1,5.6,223.0,130.0,2.2,0,5,7,1,2026-05-27T18:27:40.348200+05:30
Kochi,Kerala,9.9312,76.2673,26.5,89,0.1,1010.4,7.85,29.5,54,12.8,9.4,9.2,165.0,52.0,2.6,10,0,4,1,2026-05-27T18:27:40.348208+05:30
Thiruvananthapuram,Kerala,8.5241,76.9366,26.8,88,0.1,1009.7,7.65,35.3,29,15.3,7.5,1.8,140.0,61.0,0.6,10,0,4,1,2026-05-27T18:27:40.348215+05:30
Kozhikode,Kerala,11.2588,75.7804,26.4,98,0.1,1009.4,8.2,30.2,31,6.9,4.4,1.3,164.0,66.0,0.7,10,0,4,1,2026-05-27T18:27:40.348241+05:30
Thrissur,Kerala,10.5276,76.2144,25.9,94,0.1,1008.8,8.25,28.8,51,12.0,10.1,8.1,188.0,56.0,2.2,10,0,4,1,2026-05-27T18:27:40.348250+05:30
Kannur,Kerala,11.8745,75.3704,27.9,82,0.0,1008.4,7.95,23.8,52,7.0,4.9,3.0,146.0,65.0,1.2,7,0,4,1,2026-05-27T18:27:40.348257+05:30
Patna,Bihar,25.5941,85.1376,31.6,59,0.0,996.2,8.75,46.8,162,54.9,42.3,6.7,419.0,169.0,15.4,0,5,7,1,2026-05-27T18:27:40.348265+05:30
Gaya,Bihar,24.7914,85.0002,33.8,53,0.0,988.9,8.8,35.6,184,66.1,54.5,4.7,372.0,190.0,16.0,0,5,7,1,2026-05-27T18:27:40.348272+05:30
Muzaffarpur,Bihar,26.1209,85.3647,29.5,69,0.0,997.0,8.75,46.4,144,46.1,34.9,6.7,384.0,151.0,11.3,7,5,7,1,2026-05-27T18:27:40.348279+05:30
Bhagalpur,Bihar,25.2425,87.0117,27.8,78,0.0,997.9,8.7,41.4,101,40.2,32.4,8.3,329.0,140.0,18.6,7,5,7,1,2026-05-27T18:27:40.348286+05:30
Ranchi,Jharkhand,23.3441,85.3096,30.2,47,0.0,934.0,9.2,31.7,137,44.2,22.2,6.6,284.0,119.0,4.7,0,5,7,1,2026-05-27T18:27:40.348292+05:30
Jamshedpur,Jharkhand,22.8046,86.2029,29.8,75,0.0,986.5,9.05,45.0,205,82.9,59.4,14.4,446.0,162.0,27.1,7,5,7,1,2026-05-27T18:27:40.348300+05:30
Dhanbad,Jharkhand,23.7957,86.4304,29.1,76,0.0,975.9,9.0,36.4,187,93.8,77.1,24.2,245.0,192.0,54.6,7,5,7,1,2026-05-27T18:27:40.348307+05:30
Bokaro,Jharkhand,23.6693,86.1511,30.1,72,0.0,979.5,9.0,45.0,189,88.7,71.9,21.2,254.0,210.0,56.4,3,5,7,1,2026-05-27T18:27:40.348315+05:30
Bhubaneswar,Odisha,20.2961,85.8245,30.3,83,0.2,998.5,9.05,46.8,148,62.4,44.8,8.2,358.0,144.0,9.3,6,5,7,1,2026-05-27T18:27:40.348324+05:30
Cuttack,Odisha,20.4625,85.8828,29.2,86,0.8,1000.6,9.1,43.6,148,62.4,44.8,8.2,326.0,144.0,9.3,10,5,4,1,2026-05-27T18:27:40.348331+05:30
Rourkela,Odisha,22.2604,84.8536,33.0,58,0.0,980.2,8.95,50.0,177,82.4,40.3,8.8,388.0,154.0,7.7,0,5,7,1,2026-05-27T18:27:40.348338+05:30
Raipur,Chhattisgarh,21.2514,81.6296,40.6,18,0.0,969.8,8.95,43.6,129,59.8,29.6,12.3,165.0,128.0,27.2,0,5,10,0,2026-05-27T18:27:40.348346+05:30
Bhilai,Chhattisgarh,21.1938,81.3509,38.3,26,0.0,970.4,8.95,43.9,106,56.5,29.0,14.2,206.0,112.0,27.7,0,5,10,0,2026-05-27T18:27:40.348354+05:30
Guwahati,Assam,26.1158,91.7086,26.1,86,0.0,999.6,8.75,28.4,73,13.1,10.8,4.4,444.0,94.0,1.9,7,5,7,1,2026-05-27T18:27:40.348360+05:30
Agartala,Tripura,23.8315,91.2868,26.8,91,0.0,1003.7,8.85,38.2,80,29.8,21.9,11.9,239.0,96.0,2.2,7,5,4,1,2026-05-27T18:27:40.348367+05:30
Shillong,Meghalaya,25.5788,91.8933,18.8,89,0.0,855.6,9.05,36.7,51,16.4,11.8,5.9,265.0,93.0,2.2,3,10,7,1,2026-05-27T18:27:40.348375+05:30
Imphal,Manipur,24.817,93.9368,25.0,73,0.0,921.0,9.25,39.6,79,35.6,23.5,7.7,219.0,74.0,2.5,7,5,7,1,2026-05-27T18:27:40.348383+05:30
Aizawl,Mizoram,23.7271,92.7176,21.0,88,0.0,890.4,9.05,33.8,65,29.6,18.8,4.9,183.0,66.0,1.3,3,5,7,1,2026-05-27T18:27:40.348390+05:30
Kohima,Nagaland,25.6701,94.1077,19.5,93,0.0,853.6,8.7,29.2,67,33.2,18.7,4.5,227.0,83.0,1.8,3,10,7,1,2026-05-27T18:27:40.348397+05:30
Gangtok,Sikkim,27.3314,88.6138,17.0,94,0.0,836.2,9.1,38.5,86,13.8,9.3,6.0,283.0,123.0,2.1,3,10,7,0,2026-05-27T18:27:40.348404+05:30
Siliguri,West Bengal,26.7271,88.3953,24.8,88,0.0,991.3,8.65,30.2,95,31.8,18.5,7.7,634.0,126.0,4.3,3,5,7,1,2026-05-27T18:27:43.635172+05:30
Durgapur,West Bengal,23.5204,87.3119,28.5,89,0.0,991.1,8.85,34.9,185,86.6,72.9,25.3,578.0,164.0,43.7,7,5,7,1,2026-05-27T18:27:43.635206+05:30
Asansol,West Bengal,23.6739,86.9524,28.4,85,0.0,989.8,8.95,39.6,181,101.3,80.3,25.7,613.0,174.0,44.2,7,5,7,1,2026-05-27T18:27:43.635215+05:30
Pondicherry,Puducherry,11.9139,79.8145,30.1,80,0.0,1006.6,8.7,42.1,177,40.6,34.3,13.6,260.0,184.0,9.5,3,5,4,1,2026-05-27T18:27:43.635239+05:30
Port Blair,Andaman and Nicobar Islands,11.6234,92.7265,27.2,77,0.0,1006.2,8.3,37.1,33,6.2,3.9,0.6,145.0,67.0,0.4,7,5,4,1,2026-05-27T18:27:43.635246+05:30
Haridwar,Uttarakhand,29.9457,78.1642,34.2,32,0.0,967.9,7.55,37.4,191,65.4,24.2,4.5,234.0,209.0,11.8,0,5,7,0,2026-05-27T18:27:43.635253+05:30
Rishikesh,Uttarakhand,30.0869,78.2676,33.2,32,0.0,961.1,7.7,35.6,176,25.8,15.0,1.6,219.0,203.0,8.0,0,5,7,0,2026-05-27T18:27:43.635260+05:30
Nainital,Uttarakhand,29.3919,79.4542,20.0,64,0.0,804.9,8.5,32.8,168,27.0,20.4,2.5,272.0,205.0,10.5,3,5,7,0,2026-05-27T18:27:43.635266+05:30
Mussoorie,Uttarakhand,30.4599,78.0664,21.3,53,0.0,802.9,8.1,50.0,185,28.1,17.8,3.3,227.0,203.0,9.7,0,5,7,0,2026-05-27T18:27:43.635272+05:30
Dharamshala,Himachal Pradesh,32.219,76.3234,27.2,34,0.0,868.0,8.45,46.4,135,24.3,11.6,1.2,194.0,164.0,1.4,4,5,7,0,2026-05-27T18:27:43.635278+05:30
Dalhousie,Himachal Pradesh,32.5387,75.971,22.6,51,0.0,805.8,8.7,40.7,167,37.4,17.1,3.2,207.0,166.0,1.9,0,5,7,0,2026-05-27T18:27:43.635285+05:30
Patiala,Punjab,30.3398,76.3869,40.2,15,0.0,971.9,7.65,44.3,530,1128.8,133.2,3.0,224.0,152.0,5.2,0,5,10,0,2026-05-27T18:27:43.635291+05:30
Bhatinda,Punjab,30.211,74.9455,41.7,17,0.0,976.8,8.3,32.8,154,38.5,14.9,3.6,203.0,149.0,7.2,0,5,10,0,2026-05-27T18:27:43.635297+05:30
Rohtak,Haryana,28.8955,76.6066,38.6,24,0.0,975.5,7.8,35.6,886,1087.8,145.3,10.7,266.0,140.0,5.8,0,5,10,0,2026-05-27T18:27:43.635303+05:30
Panipat,Haryana,29.3909,76.9635,40.2,16,0.0,974.0,7.6,38.2,1610,2518.3,301.7,6.9,200.0,148.0,8.9,0,5,10,0,2026-05-27T18:27:43.635309+05:30
Mathura,Uttar Pradesh,27.4924,77.6737,40.2,17,0.0,980.8,8.0,37.8,559,1147.4,142.5,7.4,219.0,140.0,3.8,0,5,10,0,2026-05-27T18:27:43.635315+05:30
Vrindavan,Uttar Pradesh,27.5823,77.7027,39.2,23,0.0,981.2,8.0,36.4,559,1147.4,142.5,7.4,251.0,140.0,3.8,0,5,10,0,2026-05-27T18:27:43.635320+05:30
Ayodhya,Uttar Pradesh,26.7922,82.1998,34.6,44,0.0,989.8,8.3,36.4,185,115.5,41.1,3.1,352.0,196.0,11.0,0,5,7,1,2026-05-27T18:27:43.635326+05:30
Ratlam,Madhya Pradesh,23.3315,75.0367,37.0,27,0.0,953.3,8.5,48.2,66,60.1,23.3,0.8,137.0,118.0,4.6,0,5,10,0,2026-05-27T18:27:43.635333+05:30
Sagar,Madhya Pradesh,23.8388,78.7378,39.2,16,0.0,947.2,8.7,45.0,76,70.3,23.2,1.0,134.0,120.0,3.2,0,5,10,0,2026-05-27T18:27:43.635339+05:30
Satna,Madhya Pradesh,24.6005,80.8322,39.6,18,0.0,966.0,8.75,51.1,84,75.2,28.0,1.6,140.0,121.0,3.5,0,5,10,0,2026-05-27T18:27:43.635344+05:30
Akola,Maharashtra,20.7002,77.0082,39.8,18,0.0,971.9,8.85,45.4,57,25.7,12.5,2.1,145.0,117.0,4.5,0,5,10,0,2026-05-27T18:27:43.635351+05:30
Amravati,Maharashtra,20.9374,77.7796,39.9,19,0.0,964.3,8.85,43.6,66,26.7,13.2,2.6,150.0,118.0,5.2,0,5,10,0,2026-05-27T18:27:43.635358+05:30
Latur,Maharashtra,18.4088,76.5604,35.8,32,0.0,938.8,8.75,41.4,69,16.5,11.2,1.6,174.0,122.0,3.4,0,5,10,1,2026-05-27T18:27:43.635364+05:30
Nanded,Maharashtra,19.1383,77.3091,38.5,27,0.0,966.0,8.85,39.6,61,19.7,10.8,1.9,171.0,115.0,2.2,0,5,10,1,2026-05-27T18:27:43.635370+05:30
Gulbarga,Karnataka,17.3297,76.8343,35.6,34,0.0,957.0,4.65,41.4,66,18.8,11.8,3.4,185.0,126.0,4.0,0,5,6,1,2026-05-27T18:27:43.635377+05:30
Bidar,Karnataka,17.9104,77.5199,34.1,43,0.0,934.3,7.7,41.8,96,30.9,17.1,2.8,256.0,135.0,5.2,0,5,7,1,2026-05-27T18:27:43.635383+05:30
Hospet,Karnataka,15.2689,76.3909,30.5,59,0.0,955.3,7.0,38.5,44,13.5,10.2,4.3,226.0,111.0,3.8,0,5,7,1,2026-05-27T18:27:43.635389+05:30
Tirupur,Tamil Nadu,11.1085,77.3411,30.1,63,0.0,975.0,8.8,52.9,69,13.3,10.7,5.2,171.0,115.0,2.7,3,5,7,1,2026-05-27T18:27:43.635394+05:30
Alappuzha,Kerala,9.4981,76.3388,26.6,91,0.2,1010.8,8.0,29.2,40,10.7,7.2,5.9,109.0,58.0,1.3,10,0,4,1,2026-05-27T18:27:43.635400+05:30
Munnar,Kerala,10.0889,77.0595,18.0,100,0.1,858.2,8.4,27.0,44,7.6,6.7,4.8,165.0,84.0,1.4,6,10,7,1,2026-05-27T18:27:43.635406+05:30
Silchar,Assam,24.8333,92.7789,26.0,89,0.0,1003.0,8.9,43.6,96,35.6,23.4,5.1,277.0,99.0,4.6,7,5,4,1,2026-05-27T18:27:43.635413+05:30
Dibrugarh,Assam,27.4728,94.912,28.4,81,0.0,993.2,8.65,23.8,88,42.5,24.7,8.9,282.0,92.0,3.2,7,5,7,1,2026-05-27T18:27:43.635419+05:30
