city,state,latitude,longitude,temp,humidity,rain,pressure,uv_index,wind_gusts,aqi,pm10,pm2_5,mosquito_risk,arthritis_risk,migraine_risk,frizz_risk,updated_at
Delhi,Delhi,28.6139,77.209,24.6,53,0.0,983.6,6.85,40.7,153,265.4,57.7,0,5,7,0,2026-04-05T21:07:12.252258+05:30
Mumbai,Maharashtra,19.076,72.8777,27.6,66,0.0,1010.2,7.9,23.4,71,28.2,15.0,7,0,4,1,2026-04-05T21:07:12.252299+05:30
Bangalore,Karnataka,12.9716,77.5946,27.7,50,0.0,912.3,9.65,28.8,106,67.5,63.1,4,5,7,1,2026-04-05T21:07:12.252314+05:30
Hyderabad,Telangana,17.385,78.4867,30.1,54,0.0,953.6,9.15,26.3,146,68.2,58.6,0,5,7,1,2026-04-05T21:07:12.252324+05:30
Chennai,Tamil Nadu,13.0827,80.2707,29.2,85,0.0,1006.9,9.3,37.8,96,22.1,17.2,7,5,4,1,2026-04-05T21:07:12.252334+05:30
Kolkata,West Bengal,22.5726,88.3639,27.2,74,0.0,1006.2,8.7,29.2,150,100.4,94.5,7,5,4,1,2026-04-05T21:07:12.252342+05:30
Pune,Maharashtra,18.5204,73.8567,24.0,73,0.0,949.7,8.5,39.6,81,32.5,19.7,3,5,7,1,2026-04-05T21:07:12.252354+05:30
Ahmedabad,Gujarat,23.0225,72.5714,28.7,26,0.0,1002.9,7.9,28.1,89,34.9,21.0,4,5,4,0,2026-04-05T21:07:12.252363+05:30
Jaipur,Rajasthan,26.9124,75.7873,26.2,29,0.0,960.2,7.55,34.6,100,110.6,26.3,4,5,7,0,2026-04-05T21:07:12.252371+05:30
Lucknow,Uttar Pradesh,26.8467,80.9462,24.3,62,0.0,994.7,7.45,44.3,99,98.3,35.4,3,5,7,1,2026-04-05T21:07:12.252379+05:30
Kanpur,Uttar Pradesh,26.4499,80.3319,23.9,65,0.0,992.8,7.45,40.7,124,202.1,43.7,3,5,7,1,2026-04-05T21:07:12.252386+05:30
Chandigarh,Chandigarh,30.7333,76.7794,22.5,50,0.0,969.1,6.85,34.6,111,45.1,30.6,0,5,7,0,2026-04-05T21:07:12.252392+05:30
Srinagar,Jammu and Kashmir,34.0837,74.7973,11.1,80,0.0,838.6,7.45,18.4,67,45.4,35.3,3,5,7,0,2026-04-05T21:07:12.252399+05:30
Jammu,Jammu and Kashmir,32.7266,74.857,21.6,58,0.0,972.7,7.5,24.5,78,68.7,41.0,0,5,7,0,2026-04-05T21:07:12.252406+05:30
Amritsar,Punjab,31.634,74.8723,20.7,60,0.0,981.2,7.45,29.5,111,74.3,51.7,0,5,7,0,2026-04-05T21:07:12.252413+05:30
Ludhiana,Punjab,30.901,75.8573,24.6,43,0.0,979.3,7.05,29.5,96,77.1,50.1,0,5,7,0,2026-04-05T21:07:12.252420+05:30
Jalandhar,Punjab,31.326,75.5762,24.0,49,0.0,980.3,7.25,25.6,86,64.0,35.9,0,5,7,0,2026-04-05T21:07:12.252428+05:30
Dehradun,Uttarakhand,30.6284,78.0322,11.7,76,0.0,828.0,6.65,39.2,82,22.6,12.2,3,5,7,0,2026-04-05T21:07:12.252435+05:30
Shimla,Himachal Pradesh,31.1048,77.1734,10.1,76,0.0,781.4,5.35,29.5,76,22.6,15.3,3,5,3,0,2026-04-05T21:07:12.252442+05:30
Manali,Himachal Pradesh,32.2396,77.1887,12.8,77,0.0,816.6,9.45,29.2,103,18.7,10.5,3,5,7,0,2026-04-05T21:07:12.252449+05:30
Gurgaon,Haryana,28.4595,77.0266,24.1,56,0.0,982.0,6.5,35.6,294,689.2,102.0,0,5,7,0,2026-04-05T21:07:12.252456+05:30
Noida,Uttar Pradesh,28.5355,77.391,24.4,55,0.0,985.3,6.95,39.2,294,689.2,102.0,0,5,7,0,2026-04-05T21:07:12.252462+05:30
Ghaziabad,Uttar Pradesh,28.6692,77.4538,23.6,55,0.0,983.3,6.85,42.1,150,129.0,43.5,0,5,7,0,2026-04-05T21:07:12.252468+05:30
Faridabad,Haryana,28.4089,77.3178,23.5,55,0.0,984.4,6.1,36.4,294,689.2,102.0,0,5,7,0,2026-04-05T21:07:12.252474+05:30
Meerut,Uttar Pradesh,28.9845,77.7064,22.1,57,0.0,981.9,6.2,34.6,150,129.0,43.5,0,5,7,0,2026-04-05T21:07:12.252480+05:30
Agra,Uttar Pradesh,27.1767,78.0081,24.2,57,0.0,988.8,7.3,34.2,329,516.0,82.2,0,5,7,0,2026-04-05T21:07:12.252487+05:30
Varanasi,Uttar Pradesh,25.3176,82.9739,26.2,62,0.0,998.3,8.1,32.4,91,48.3,33.8,7,5,7,1,2026-04-05T21:07:12.252496+05:30
Prayagraj,Uttar Pradesh,25.4358,81.8463,25.9,64,0.0,996.7,7.95,30.2,92,33.9,24.3,7,5,7,1,2026-04-05T21:07:12.252503+05:30
Gorakhpur,Uttar Pradesh,26.7606,83.3732,26.2,48,0.0,997.6,7.85,45.4,85,31.5,21.1,4,5,7,0,2026-04-05T21:07:12.252510+05:30
Bareilly,Uttar Pradesh,28.367,79.4304,22.5,70,0.0,987.7,7.2,40.7,99,55.5,34.9,3,5,7,1,2026-04-05T21:07:12.252516+05:30
Aligarh,Uttar Pradesh,27.8974,78.088,21.5,73,0.0,986.3,7.1,31.0,153,270.1,73.6,3,5,7,1,2026-04-05T21:07:12.252522+05:30
Moradabad,Uttar Pradesh,28.8386,78.7733,22.2,63,0.0,984.3,7.0,29.2,110,61.2,37.4,3,5,7,0,2026-04-05T21:07:12.252528+05:30
Saharanpur,Uttar Pradesh,29.9637,77.546,22.7,47,0.0,975.9,6.6,33.8,91,129.9,43.8,0,5,7,0,2026-04-05T21:07:12.252536+05:30
Jhansi,Uttar Pradesh,25.4484,78.5685,25.8,54,0.0,979.1,7.85,33.1,86,17.6,11.2,4,5,7,0,2026-04-05T21:07:15.569504+05:30
Surat,Gujarat,21.1702,72.8311,27.2,63,0.0,1007.7,7.7,27.7,81,37.0,27.4,7,5,4,1,2026-04-05T21:07:15.569538+05:30
Vadodara,Gujarat,22.3072,73.1812,27.9,48,0.0,1004.7,7.9,19.8,138,46.2,34.9,4,5,4,0,2026-04-05T21:07:15.569554+05:30
Rajkot,Gujarat,22.3039,70.8022,26.0,58,0.0,995.8,7.65,34.6,108,29.5,12.9,4,5,7,1,2026-04-05T21:07:15.569563+05:30
Thane,Maharashtra,19.2183,72.9781,26.3,68,0.0,1009.6,7.9,34.9,71,28.2,15.0,7,0,4,1,2026-04-05T21:07:15.569572+05:30
Nagpur,Maharashtra,21.1458,79.0882,28.3,43,0.0,972.4,8.7,29.5,95,29.3,21.4,4,5,7,0,2026-04-05T21:07:15.569582+05:30
Nashik,Maharashtra,19.9975,73.7898,22.4,65,0.0,946.4,8.05,36.0,57,17.5,10.4,3,5,7,0,2026-04-05T21:07:15.569590+05:30
Aurangabad,Maharashtra,19.8762,75.3433,27.8,41,0.0,944.7,8.85,37.1,64,22.4,13.4,4,5,7,0,2026-04-05T21:07:15.569598+05:30
Solapur,Maharashtra,17.6599,75.9064,31.1,27,0.0,957.2,8.6,29.9,75,23.1,16.2,0,5,7,0,2026-04-05T21:07:15.569607+05:30
Kolhapur,Maharashtra,16.705,74.2433,22.3,67,0.0,949.2,9.05,45.0,66,32.9,22.2,3,5,7,0,2026-04-05T21:07:15.569615+05:30
Goa,Goa,15.2993,74.124,27.9,74,0.0,999.7,9.05,38.5,66,55.9,21.9,7,5,7,1,2026-04-05T21:07:15.569624+05:30
Jodhpur,Rajasthan,26.2389,73.0243,27.1,32,0.0,983.9,7.65,26.3,81,58.6,13.4,4,5,7,0,2026-04-05T21:07:15.569632+05:30
Udaipur,Rajasthan,24.5854,73.7125,22.8,40,0.0,947.4,8.3,34.2,100,18.5,8.1,0,5,7,0,2026-04-05T21:07:15.569640+05:30
Kota,Rajasthan,25.2138,75.8648,27.4,28,0.0,979.3,7.85,31.7,94,83.1,24.0,4,5,7,0,2026-04-05T21:07:15.569647+05:30
Bikaner,Rajasthan,28.0229,73.3119,26.3,35,0.0,983.2,7.6,26.6,84,15.8,10.8,4,5,7,0,2026-04-05T21:07:15.569655+05:30
Ajmer,Rajasthan,26.4499,74.6399,24.2,39,0.0,955.1,7.75,31.0,91,32.2,11.6,0,5,7,0,2026-04-05T21:07:15.569662+05:30
Gwalior,Madhya Pradesh,26.2183,78.1828,24.2,69,0.0,984.4,7.6,50.8,79,92.4,29.0,3,5,7,1,2026-04-05T21:07:15.569670+05:30
Indore,Madhya Pradesh,22.7196,75.8577,24.4,40,0.0,948.5,8.35,31.0,102,23.7,19.7,0,5,7,0,2026-04-05T21:07:15.569678+05:30
Bhopal,Madhya Pradesh,23.2599,77.4126,26.7,31,0.0,954.1,8.3,33.8,97,12.1,9.1,4,5,7,0,2026-04-05T21:07:15.569685+05:30
Jabalpur,Madhya Pradesh,23.1815,79.9864,29.4,34,0.0,961.4,8.45,31.0,73,28.9,19.5,4,5,7,0,2026-04-05T21:07:15.569694+05:30
Ujjain,Madhya Pradesh,23.1765,75.7885,24.8,40,0.0,954.4,8.25,32.8,89,24.3,17.5,0,5,7,0,2026-04-05T21:07:15.569702+05:30
Visakhapatnam,Andhra Pradesh,17.6868,83.2185,27.7,88,0.0,1004.2,9.1,36.0,79,38.6,33.1,7,5,4,1,2026-04-05T21:07:15.569711+05:30
Vijayawada,Andhra Pradesh,16.5062,80.648,30.0,74,0.0,1002.5,8.75,24.1,89,34.9,32.2,7,5,4,1,2026-04-05T21:07:15.569718+05:30
Guntur,Andhra Pradesh,16.3067,80.4365,29.4,74,0.0,1003.8,8.9,31.7,94,43.8,39.9,7,5,4,1,2026-04-05T21:07:15.569725+05:30
Nellore,Andhra Pradesh,14.4426,79.9865,28.6,86,0.0,1005.8,9.3,32.0,119,26.3,22.5,7,5,4,1,2026-04-05T21:07:15.569731+05:30
Kurnool,Andhra Pradesh,15.8281,78.0373,34.2,34,0.0,976.1,9.2,33.8,173,54.6,47.7,0,5,7,1,2026-04-05T21:07:15.569738+05:30
Kakinada,Andhra Pradesh,16.9891,82.2475,28.3,84,0.0,1007.6,9.15,29.5,60,23.7,17.9,7,5,4,1,2026-04-05T21:07:15.569746+05:30
Tirupati,Andhra Pradesh,13.6288,79.4192,29.4,74,0.0,991.8,8.6,36.0,131,40.0,36.9,7,5,7,1,2026-04-05T21:07:15.569752+05:30
Warangal,Telangana,17.9689,79.5941,28.7,69,0.0,979.1,8.8,37.4,150,83.8,74.3,7,5,7,1,2026-04-05T21:07:15.569758+05:30
Nizamabad,Telangana,18.6725,78.0941,31.0,42,0.0,964.6,8.9,55.1,106,52.6,38.4,0,5,7,1,2026-04-05T21:07:15.569763+05:30
Mysore,Karnataka,12.2958,76.6396,25.2,76,0.0,929.3,8.65,36.7,93,28.7,26.1,7,5,7,1,2026-04-05T21:07:15.569770+05:30
Mangalore,Karnataka,12.9141,74.856,29.5,77,0.0,1008.3,9.2,34.6,65,28.1,15.3,7,0,4,1,2026-04-05T21:07:15.569776+05:30
Hubli-Dharwad,Karnataka,15.3647,75.124,25.3,67,0.0,942.0,9.25,38.5,89,21.0,14.0,7,5,7,1,2026-04-05T21:07:15.569783+05:30
Belgaum,Karnataka,15.8497,74.4977,22.8,65,0.0,927.0,9.3,38.5,59,30.4,18.3,3,5,7,0,2026-04-05T21:07:18.893489+05:30
Coimbatore,Tamil Nadu,11.0168,76.9558,26.6,74,0.0,962.6,9.5,45.0,69,31.4,29.5,7,5,7,1,2026-04-05T21:07:18.893519+05:30
Madurai,Tamil Nadu,9.9252,78.1198,28.3,75,0.0,993.3,5.45,23.8,133,28.2,26.7,7,5,3,1,2026-04-05T21:07:18.893530+05:30
Trichy,Tamil Nadu,10.7905,78.7047,30.6,73,0.0,1000.0,9.25,36.7,146,63.1,58.6,3,5,4,1,2026-04-05T21:07:18.893538+05:30
Salem,Tamil Nadu,11.6643,78.146,29.5,63,0.0,977.9,8.7,25.9,133,43.2,39.2,7,5,7,1,2026-04-05T21:07:18.893545+05:30
Tirunelveli,Tamil Nadu,8.7139,77.7567,30.0,63,0.0,1003.6,9.4,27.4,66,26.3,24.5,7,5,4,1,2026-04-05T21:07:18.893553+05:30
Vellore,Tamil Nadu,12.9165,79.1325,29.4,61,0.0,984.6,9.45,32.8,128,61.2,55.4,7,5,7,1,2026-04-05T21:07:18.893562+05:30
Erode,Tamil Nadu,11.341,77.7172,28.1,71,0.0,989.6,9.45,27.0,118,38.1,35.2,7,5,7,1,2026-04-05T21:07:18.893572+05:30
Kochi,Kerala,9.9312,76.2673,29.6,80,0.0,1009.6,8.2,31.7,64,28.3,23.7,7,0,4,1,2026-04-05T21:07:18.893578+05:30
Thiruvananthapuram,Kerala,8.5241,76.9366,29.8,77,0.0,1009.0,9.2,38.5,52,18.2,12.5,7,0,4,1,2026-04-05T21:07:18.893585+05:30
Kozhikode,Kerala,11.2588,75.7804,29.8,75,0.0,1008.9,9.15,33.8,58,27.4,16.5,7,0,4,1,2026-04-05T21:07:18.893592+05:30
Thrissur,Kerala,10.5276,76.2144,28.8,82,0.0,1007.9,8.4,36.7,63,30.4,24.4,7,5,4,1,2026-04-05T21:07:18.893599+05:30
Kannur,Kerala,11.8745,75.3704,29.2,75,0.0,1008.5,9.2,38.5,68,20.6,13.9,7,0,4,1,2026-04-05T21:07:18.893606+05:30
Patna,Bihar,25.5941,85.1376,28.9,48,0.0,1000.4,8.25,45.0,71,32.5,24.4,4,5,4,1,2026-04-05T21:07:18.893613+05:30
Gaya,Bihar,24.7914,85.0002,28.3,51,0.0,994.0,8.35,41.4,88,36.3,24.3,4,5,7,1,2026-04-05T21:07:18.893619+05:30
Muzaffarpur,Bihar,26.1209,85.3647,26.9,46,0.0,1000.1,8.2,33.5,70,30.3,21.2,4,5,4,0,2026-04-05T21:07:18.893625+05:30
Bhagalpur,Bihar,25.2425,87.0117,28.1,60,0.0,1000.5,8.35,30.2,88,24.2,19.6,4,5,4,1,2026-04-05T21:07:18.893631+05:30
Ranchi,Jharkhand,23.3441,85.3096,24.3,66,0.0,938.7,8.95,45.7,89,35.3,26.7,3,5,7,1,2026-04-05T21:07:18.893637+05:30
Jamshedpur,Jharkhand,22.8046,86.2029,27.9,67,0.0,991.2,8.4,18.0,129,49.2,40.7,7,5,7,1,2026-04-05T21:07:18.893644+05:30
Dhanbad,Jharkhand,23.7957,86.4304,28.6,55,0.0,980.1,8.7,37.4,99,44.9,36.9,4,5,7,1,2026-04-05T21:07:18.893650+05:30
Bokaro,Jharkhand,23.6693,86.1511,27.7,58,0.0,984.3,8.7,38.2,106,41.1,31.9,4,5,7,1,2026-04-05T21:07:18.893656+05:30
Bhubaneswar,Odisha,20.2961,85.8245,26.8,90,0.0,1003.9,8.65,26.3,153,28.5,25.3,7,5,4,1,2026-04-05T21:07:18.893663+05:30
Cuttack,Odisha,20.4625,85.8828,27.2,88,0.0,1005.7,8.7,25.2,153,28.5,25.3,7,5,4,1,2026-04-05T21:07:18.893669+05:30
Rourkela,Odisha,22.2604,84.8536,27.9,60,0.0,986.1,8.7,29.9,129,57.9,47.5,4,5,7,1,2026-04-05T21:07:18.893676+05:30
Raipur,Chhattisgarh,21.2514,81.6296,28.2,56,0.0,974.9,8.75,30.2,164,78.5,68.9,4,5,7,1,2026-04-05T21:07:18.893682+05:30
Bhilai,Chhattisgarh,21.1938,81.3509,28.5,55,0.0,975.1,8.7,32.0,141,56.1,48.3,4,5,7,1,2026-04-05T21:07:18.893688+05:30
Guwahati,Assam,26.1158,91.7086,25.5,75,0.0,999.8,7.45,44.6,125,24.6,19.3,7,5,7,1,2026-04-05T21:07:18.893694+05:30
Agartala,Tripura,23.8315,91.2868,26.2,87,0.0,1005.6,8.4,31.7,136,59.3,53.2,7,5,4,1,2026-04-05T21:07:18.893701+05:30
Shillong,Meghalaya,25.5788,91.8933,14.6,63,0.0,855.2,8.1,67.0,100,36.7,31.7,3,5,7,0,2026-04-05T21:07:18.893708+05:30
Imphal,Manipur,24.817,93.9368,19.6,82,0.0,923.0,8.85,83.9,147,58.3,52.5,3,10,7,1,2026-04-05T21:07:18.893716+05:30
Aizawl,Mizoram,23.7271,92.7176,19.2,84,0.0,892.3,8.5,51.8,146,51.6,46.1,3,10,7,1,2026-04-05T21:07:18.893723+05:30
Kohima,Nagaland,25.6701,94.1077,17.5,69,0.0,854.5,8.2,95.0,109,45.5,38.5,3,5,7,0,2026-04-05T21:07:18.893730+05:30
Gangtok,Sikkim,27.3314,88.6138,13.7,85,0.0,836.8,8.25,24.5,95,34.9,27.7,3,10,7,0,2026-04-05T21:07:18.893736+05:30
Siliguri,West Bengal,26.7271,88.3953,21.9,57,0.0,993.3,8.2,36.4,153,53.4,43.5,0,5,7,0,2026-04-05T21:07:22.216465+05:30
Durgapur,West Bengal,23.5204,87.3119,28.1,62,0.0,995.3,7.7,38.2,109,56.6,51.8,7,5,7,1,2026-04-05T21:07:22.216498+05:30
Asansol,West Bengal,23.6739,86.9524,28.6,59,0.0,993.8,8.05,36.0,94,48.2,41.9,4,5,7,1,2026-04-05T21:07:22.216510+05:30
Pondicherry,Puducherry,11.9139,79.8145,29.0,86,0.0,1008.1,9.35,27.0,115,20.3,15.4,7,0,4,1,2026-04-05T21:07:22.216520+05:30
Port Blair,Andaman and Nicobar Islands,11.6234,92.7265,29.1,72,0.0,1008.3,9.25,22.7,33,8.0,5.6,7,0,4,1,2026-04-05T21:07:22.216529+05:30
Haridwar,Uttarakhand,29.9457,78.1642,23.7,47,0.0,974.6,6.7,27.7,82,41.4,28.8,0,5,7,0,2026-04-05T21:07:22.216538+05:30
Rishikesh,Uttarakhand,30.0869,78.2676,21.4,58,0.0,967.3,6.7,27.7,83,24.9,15.3,0,5,7,0,2026-04-05T21:07:22.216547+05:30
Nainital,Uttarakhand,29.3919,79.4542,15.5,62,0.0,805.3,6.8,31.7,89,40.0,27.5,3,5,7,0,2026-04-05T21:07:22.216556+05:30
Mussoorie,Uttarakhand,30.4599,78.0664,13.4,63,0.0,800.7,6.3,45.7,88,33.2,22.6,3,5,7,0,2026-04-05T21:07:22.216564+05:30
Dharamshala,Himachal Pradesh,32.219,76.3234,16.3,69,0.0,867.4,7.3,32.8,63,10.2,7.3,3,5,7,0,2026-04-05T21:07:22.216573+05:30
Dalhousie,Himachal Pradesh,32.5387,75.971,13.3,67,0.0,801.1,7.55,25.2,72,40.9,24.2,3,5,7,0,2026-04-05T21:07:22.216582+05:30
Patiala,Punjab,30.3398,76.3869,23.0,48,0.0,978.6,6.75,33.5,112,59.5,31.7,0,5,7,0,2026-04-05T21:07:22.216590+05:30
Bhatinda,Punjab,30.211,74.9455,23.3,50,0.0,984.7,7.35,30.2,105,47.6,32.9,0,5,7,0,2026-04-05T21:07:22.216599+05:30
Rohtak,Haryana,28.8955,76.6066,23.1,52,0.0,982.4,3.9,36.7,156,465.7,75.9,0,5,3,0,2026-04-05T21:07:22.216606+05:30
Panipat,Haryana,29.3909,76.9635,22.2,52,0.0,980.9,6.75,32.0,229,637.0,92.7,0,5,7,0,2026-04-05T21:07:22.216612+05:30
Mathura,Uttar Pradesh,27.4924,77.6737,22.2,74,0.0,987.8,5.8,31.3,198,213.7,58.1,3,5,3,1,2026-04-05T21:07:22.216619+05:30
Vrindavan,Uttar Pradesh,27.5823,77.7027,22.4,73,0.0,988.2,6.05,31.0,198,213.7,58.1,3,5,7,1,2026-04-05T21:07:22.216626+05:30
Ayodhya,Uttar Pradesh,26.7922,82.1998,25.1,53,0.0,996.1,7.6,46.1,95,48.0,26.5,4,5,7,0,2026-04-05T21:07:22.216632+05:30
Ratlam,Madhya Pradesh,23.3315,75.0367,25.3,45,0.0,955.0,7.85,33.5,94,18.2,11.1,4,5,7,0,2026-04-05T21:07:22.216639+05:30
Sagar,Madhya Pradesh,23.8388,78.7378,28.1,26,0.0,950.6,7.9,33.1,99,22.2,9.4,4,5,7,0,2026-04-05T21:07:22.216645+05:30
Satna,Madhya Pradesh,24.6005,80.8322,27.2,48,0.0,971.5,8.35,30.6,70,15.7,11.6,4,5,7,0,2026-04-05T21:07:22.216651+05:30
Akola,Maharashtra,20.7002,77.0082,29.2,38,0.0,975.0,8.65,36.4,79,32.8,21.5,4,5,7,0,2026-04-05T21:07:22.216658+05:30
Amravati,Maharashtra,20.9374,77.7796,29.0,36,0.0,966.9,8.65,34.9,78,30.0,20.1,4,5,7,0,2026-04-05T21:07:22.216665+05:30
Latur,Maharashtra,18.4088,76.5604,27.9,35,0.0,939.6,9.0,30.2,81,34.6,26.3,4,5,7,0,2026-04-05T21:07:22.216672+05:30
Nanded,Maharashtra,19.1383,77.3091,29.5,41,0.0,968.2,8.85,28.4,92,40.2,23.8,4,5,7,0,2026-04-05T21:07:22.216678+05:30
Gulbarga,Karnataka,17.3297,76.8343,32.8,28,0.0,958.9,9.0,34.6,87,28.2,21.5,0,5,7,0,2026-04-05T21:07:22.216684+05:30
Bidar,Karnataka,17.9104,77.5199,31.5,28,0.0,936.1,9.0,33.5,106,35.6,26.4,0,5,7,0,2026-04-05T21:07:22.216691+05:30
Hospet,Karnataka,15.2689,76.3909,32.1,38,0.0,956.2,9.2,29.2,102,26.2,23.9,0,5,7,0,2026-04-05T21:07:22.216697+05:30
Tirupur,Tamil Nadu,11.1085,77.3411,28.8,66,0.0,975.8,9.55,32.0,99,33.6,31.5,7,5,7,1,2026-04-05T21:07:22.216703+05:30
Alappuzha,Kerala,9.4981,76.3388,29.7,79,0.0,1009.8,8.9,30.6,61,28.6,21.8,7,0,4,1,2026-04-05T21:07:22.216709+05:30
Munnar,Kerala,10.0889,77.0595,21.4,97,0.0,858.1,9.75,38.5,59,19.4,18.3,3,5,7,1,2026-04-05T21:07:22.216716+05:30
Silchar,Assam,24.8333,92.7789,24.2,90,0.0,1004.6,8.4,33.1,156,87.5,79.9,3,5,4,1,2026-04-05T21:07:22.216722+05:30
Dibrugarh,Assam,27.4728,94.912,22.6,92,0.0,994.1,7.5,49.3,139,54.6,43.3,3,5,7,1,2026-04-05T21:07:22.216728+05:30
