city,state,latitude,longitude,temp,humidity,rain,pressure,uv_index,wind_gusts,aqi,pm10,pm2_5,no2,co,o3,so2,mosquito_risk,arthritis_risk,migraine_risk,frizz_risk,updated_at
Delhi,Delhi,28.6139,77.209,32.1,50,0.0,978.1,7.75,33.5,233,364.1,113.9,58.5,607.0,48.0,30.5,0,5,7,1,2026-06-24T23:26:37.686828+05:30
Mumbai,Maharashtra,19.076,72.8777,25.7,91,0.5,1007.0,3.6,29.2,51,30.7,12.5,12.8,325.0,45.0,11.0,10,5,0,1,2026-06-24T23:26:37.686876+05:30
Bangalore,Karnataka,12.9716,77.5946,21.7,84,0.0,911.5,7.95,53.6,30,8.2,6.5,16.1,309.0,32.0,4.8,3,5,7,1,2026-06-24T23:26:37.686891+05:30
Hyderabad,Telangana,17.385,78.4867,25.9,78,0.0,951.5,6.8,45.7,35,6.1,5.5,9.2,320.0,52.0,3.8,7,5,7,1,2026-06-24T23:26:37.686901+05:30
Chennai,Tamil Nadu,13.0827,80.2707,27.7,77,0.0,1006.0,8.8,39.2,63,21.8,17.1,16.7,367.0,68.0,7.8,7,5,4,1,2026-06-24T23:26:37.686909+05:30
Kolkata,West Bengal,22.5726,88.3639,28.6,90,0.0,1002.2,8.85,37.4,150,46.3,44.2,13.6,465.0,103.0,14.1,7,5,4,1,2026-06-24T23:26:37.686917+05:30
Pune,Maharashtra,18.5204,73.8567,22.4,88,0.0,946.3,1.0,34.6,23,12.3,10.7,23.9,190.0,22.0,10.2,3,5,3,1,2026-06-24T23:26:37.686924+05:30
Ahmedabad,Gujarat,23.0225,72.5714,30.5,77,0.0,997.9,8.0,42.5,69,42.6,23.3,7.9,169.0,60.0,4.7,3,5,7,1,2026-06-24T23:26:37.686932+05:30
Jaipur,Rajasthan,26.9124,75.7873,30.0,56,0.0,955.4,8.2,49.3,115,138.8,64.0,49.1,598.0,22.0,16.3,4,5,7,1,2026-06-24T23:26:37.686941+05:30
Lucknow,Uttar Pradesh,26.8467,80.9462,33.9,42,0.0,988.4,8.3,27.4,158,165.8,64.5,22.4,366.0,60.0,8.3,0,5,7,1,2026-06-24T23:26:37.686949+05:30
Kanpur,Uttar Pradesh,26.4499,80.3319,34.4,41,0.0,986.7,8.3,31.7,155,159.7,56.0,23.4,352.0,54.0,7.4,0,5,7,1,2026-06-24T23:26:37.686956+05:30
Chandigarh,Chandigarh,30.7333,76.7794,27.9,74,0.0,963.6,7.8,25.2,158,180.2,81.3,50.4,1219.0,85.0,19.1,7,5,7,1,2026-06-24T23:26:37.686962+05:30
Srinagar,Jammu and Kashmir,34.0837,74.7973,18.8,87,0.0,836.6,9.1,22.0,69,39.2,38.1,35.4,1211.0,26.0,1.6,3,10,7,1,2026-06-24T23:26:37.686969+05:30
Jammu,Jammu and Kashmir,32.7266,74.857,31.9,49,0.0,967.1,8.65,31.3,89,61.5,52.3,62.4,521.0,33.0,8.0,0,5,7,1,2026-06-24T23:26:37.686975+05:30
Amritsar,Punjab,31.634,74.8723,30.2,59,0.0,974.4,8.45,41.4,123,82.7,58.0,36.5,505.0,65.0,10.4,0,5,7,1,2026-06-24T23:26:37.686980+05:30
Ludhiana,Punjab,30.901,75.8573,31.0,58,0.0,973.2,8.05,34.9,159,177.4,93.4,47.0,737.0,59.0,11.7,0,5,7,1,2026-06-24T23:26:37.686986+05:30
Jalandhar,Punjab,31.326,75.5762,30.3,56,0.0,974.0,8.25,29.9,137,109.9,57.4,24.2,746.0,94.0,9.4,0,5,7,1,2026-06-24T23:26:37.686991+05:30
Dehradun,Uttarakhand,30.6284,78.0322,15.4,98,0.0,826.9,7.65,27.0,101,31.9,31.8,27.9,223.0,70.0,2.2,3,10,7,0,2026-06-24T23:26:37.686999+05:30
Shimla,Himachal Pradesh,31.1048,77.1734,13.0,96,0.0,780.4,7.7,36.7,129,58.9,49.5,31.8,496.0,62.0,2.3,3,10,7,0,2026-06-24T23:26:37.687005+05:30
Manali,Himachal Pradesh,32.2396,77.1887,15.3,85,0.0,814.9,9.15,36.4,45,12.8,11.6,90.5,359.0,5.0,0.0,3,10,7,0,2026-06-24T23:26:37.687013+05:30
Gurgaon,Haryana,28.4595,77.0266,30.3,57,0.0,976.2,7.8,30.2,615,425.6,123.9,83.1,1527.0,21.0,29.3,0,5,7,1,2026-06-24T23:26:37.687019+05:30
Noida,Uttar Pradesh,28.5355,77.391,29.6,69,0.0,979.4,7.75,25.9,615,425.6,123.9,83.1,1375.0,21.0,29.3,7,5,7,1,2026-06-24T23:26:37.687025+05:30
Ghaziabad,Uttar Pradesh,28.6692,77.4538,29.6,64,0.0,977.7,7.75,26.3,257,356.7,126.2,53.3,753.0,54.0,23.6,7,5,7,1,2026-06-24T23:26:37.687032+05:30
Faridabad,Haryana,28.4089,77.3178,32.0,51,0.0,978.8,7.8,30.6,615,425.6,123.9,83.1,929.0,21.0,29.3,0,5,7,1,2026-06-24T23:26:37.687037+05:30
Meerut,Uttar Pradesh,28.9845,77.7064,31.0,55,0.0,976.5,7.7,29.9,257,356.7,126.2,53.3,592.0,54.0,23.6,0,5,7,1,2026-06-24T23:26:37.687043+05:30
Agra,Uttar Pradesh,27.1767,78.0081,32.0,47,0.0,982.7,8.1,27.0,321,265.4,89.6,56.3,646.0,21.0,14.8,0,5,7,1,2026-06-24T23:26:37.687049+05:30
Varanasi,Uttar Pradesh,25.3176,82.9739,34.7,43,0.0,992.6,8.75,37.8,115,96.9,58.6,35.8,397.0,54.0,22.8,0,5,7,1,2026-06-24T23:26:37.687055+05:30
Prayagraj,Uttar Pradesh,25.4358,81.8463,34.0,47,0.0,990.9,8.65,37.1,117,143.9,72.6,35.2,242.0,48.0,14.1,0,5,7,1,2026-06-24T23:26:37.687061+05:30
Gorakhpur,Uttar Pradesh,26.7606,83.3732,31.9,59,0.0,992.2,8.6,23.0,159,144.8,99.7,52.1,415.0,38.0,18.3,0,5,7,1,2026-06-24T23:26:37.687066+05:30
Bareilly,Uttar Pradesh,28.367,79.4304,30.7,57,0.0,982.0,7.9,28.4,160,229.1,94.1,33.0,672.0,66.0,14.0,0,5,7,1,2026-06-24T23:26:37.687073+05:30
Aligarh,Uttar Pradesh,27.8974,78.088,30.2,59,0.0,980.5,7.8,25.2,424,510.4,153.2,70.5,794.0,21.0,18.4,0,5,7,1,2026-06-24T23:26:37.687079+05:30
Moradabad,Uttar Pradesh,28.8386,78.7733,31.2,57,0.0,978.9,7.9,25.6,189,256.1,125.3,53.6,771.0,62.0,20.9,0,5,7,1,2026-06-24T23:26:37.687085+05:30
Saharanpur,Uttar Pradesh,29.9637,77.546,29.1,69,0.0,970.9,7.45,29.5,158,169.0,97.3,50.7,899.0,76.0,22.9,7,5,7,1,2026-06-24T23:26:37.687090+05:30
Jhansi,Uttar Pradesh,25.4484,78.5685,32.0,55,0.0,973.3,8.45,30.6,75,53.3,26.9,11.8,243.0,53.0,3.5,0,5,7,1,2026-06-24T23:26:41.020190+05:30
Surat,Gujarat,21.1702,72.8311,28.9,80,0.0,1003.8,7.1,50.4,79,36.2,19.4,18.2,217.0,33.0,29.0,7,5,4,1,2026-06-24T23:26:41.020226+05:30
Vadodara,Gujarat,22.3072,73.1812,29.2,76,0.0,1000.6,6.1,55.8,74,28.6,18.5,19.8,208.0,34.0,21.3,7,5,4,1,2026-06-24T23:26:41.020238+05:30
Rajkot,Gujarat,22.3039,70.8022,29.7,67,0.0,990.5,7.5,43.6,67,38.4,18.6,4.9,116.0,45.0,4.4,7,5,7,1,2026-06-24T23:26:41.020248+05:30
Thane,Maharashtra,19.2183,72.9781,25.8,92,0.1,1006.4,3.65,22.3,51,30.7,12.5,12.8,325.0,45.0,11.0,10,5,0,1,2026-06-24T23:26:41.020259+05:30
Nagpur,Maharashtra,21.1458,79.0882,26.0,95,0.0,970.1,8.7,33.1,43,16.9,15.8,22.3,362.0,50.0,18.4,7,5,7,1,2026-06-24T23:26:41.020268+05:30
Nashik,Maharashtra,19.9975,73.7898,22.5,89,0.0,943.4,1.15,39.2,43,23.1,13.5,15.7,207.0,52.0,16.5,3,5,3,1,2026-06-24T23:26:41.020277+05:30
Aurangabad,Maharashtra,19.8762,75.3433,24.6,77,0.0,942.0,7.5,45.7,55,32.4,19.0,10.8,183.0,74.0,12.1,3,5,7,1,2026-06-24T23:26:41.020286+05:30
Solapur,Maharashtra,17.6599,75.9064,26.5,68,0.0,955.8,5.3,48.2,29,5.0,4.6,8.3,158.0,45.0,2.6,7,5,3,1,2026-06-24T23:26:41.020295+05:30
Kolhapur,Maharashtra,16.705,74.2433,22.5,92,0.0,947.2,4.65,49.3,24,7.0,6.6,9.4,182.0,40.0,2.8,3,5,3,1,2026-06-24T23:26:41.020304+05:30
Goa,Goa,15.2993,74.124,23.8,98,0.1,998.8,4.6,29.5,40,23.6,16.4,5.8,249.0,42.0,1.4,6,5,3,1,2026-06-24T23:26:41.020329+05:30
Jodhpur,Rajasthan,26.2389,73.0243,33.6,44,0.0,977.2,8.4,42.1,145,211.4,51.7,10.2,188.0,46.0,2.5,0,5,7,1,2026-06-24T23:26:41.020338+05:30
Udaipur,Rajasthan,24.5854,73.7125,29.9,48,0.0,942.4,8.75,34.6,74,49.5,23.3,6.5,227.0,59.0,2.4,4,5,7,1,2026-06-24T23:26:41.020347+05:30
Kota,Rajasthan,25.2138,75.8648,30.0,61,0.0,974.3,8.3,40.7,85,57.0,36.1,17.7,230.0,54.0,5.8,7,5,7,1,2026-06-24T23:26:41.020354+05:30
Bikaner,Rajasthan,28.0229,73.3119,31.1,59,0.0,975.4,8.45,30.6,156,113.2,40.2,7.0,144.0,57.0,2.9,0,5,7,1,2026-06-24T23:26:41.020361+05:30
Ajmer,Rajasthan,26.4499,74.6399,28.8,60,0.0,950.0,8.3,44.6,93,85.7,35.7,13.9,203.0,49.0,4.1,4,5,7,1,2026-06-24T23:26:41.020369+05:30
Gwalior,Madhya Pradesh,26.2183,78.1828,32.5,44,0.0,978.5,8.25,33.5,97,63.6,28.3,11.6,219.0,51.0,3.8,0,5,7,1,2026-06-24T23:26:41.020376+05:30
Indore,Madhya Pradesh,22.7196,75.8577,24.6,88,0.0,945.5,2.35,45.0,76,24.6,19.5,15.9,534.0,58.0,3.8,3,5,3,1,2026-06-24T23:26:41.020383+05:30
Bhopal,Madhya Pradesh,23.2599,77.4126,24.3,94,0.0,950.4,7.2,48.2,62,30.2,23.1,7.1,358.0,77.0,2.9,3,5,7,1,2026-06-24T23:26:41.020391+05:30
Jabalpur,Madhya Pradesh,23.1815,79.9864,25.1,92,0.2,958.8,8.8,41.0,51,23.5,17.7,8.4,255.0,73.0,3.6,10,5,7,1,2026-06-24T23:26:41.020399+05:30
Ujjain,Madhya Pradesh,23.1765,75.7885,23.8,94,1.0,950.8,2.65,35.3,78,39.6,28.7,11.5,274.0,60.0,4.5,6,5,3,1,2026-06-24T23:26:41.020407+05:30
Visakhapatnam,Andhra Pradesh,17.6868,83.2185,29.4,66,0.0,1000.5,8.75,41.4,70,27.2,22.5,27.6,361.0,56.0,37.1,7,5,4,1,2026-06-24T23:26:41.020415+05:30
Vijayawada,Andhra Pradesh,16.5062,80.648,29.6,71,0.0,999.9,8.1,42.1,60,21.1,17.9,10.7,363.0,60.0,4.4,7,5,7,1,2026-06-24T23:26:41.020422+05:30
Guntur,Andhra Pradesh,16.3067,80.4365,30.0,65,0.0,1001.0,8.3,40.7,53,21.3,19.0,16.3,382.0,45.0,5.8,7,5,4,1,2026-06-24T23:26:41.020430+05:30
Nellore,Andhra Pradesh,14.4426,79.9865,31.0,54,0.0,1003.9,8.7,44.6,46,10.7,8.1,8.5,135.0,43.0,3.8,0,5,4,1,2026-06-24T23:26:41.020438+05:30
Kurnool,Andhra Pradesh,15.8281,78.0373,27.8,64,0.0,975.9,7.05,48.6,31,9.8,7.3,8.0,144.0,48.0,2.4,7,5,7,1,2026-06-24T23:26:41.020446+05:30
Kakinada,Andhra Pradesh,16.9891,82.2475,28.6,79,0.0,1004.8,8.1,38.5,60,19.7,14.7,4.7,302.0,72.0,3.2,7,5,4,1,2026-06-24T23:26:41.020454+05:30
Tirupati,Andhra Pradesh,13.6288,79.4192,26.1,92,0.0,990.0,8.7,40.7,50,17.5,15.3,19.2,164.0,32.0,3.5,7,5,7,1,2026-06-24T23:26:41.020461+05:30
Warangal,Telangana,17.9689,79.5941,26.3,83,0.0,976.3,8.05,37.8,37,19.0,14.9,11.4,403.0,53.0,4.0,7,5,7,1,2026-06-24T23:26:41.020468+05:30
Nizamabad,Telangana,18.6725,78.0941,25.8,78,0.0,962.6,5.05,45.0,30,26.7,17.5,10.0,261.0,54.0,4.9,7,5,3,1,2026-06-24T23:26:41.020475+05:30
Mysore,Karnataka,12.2958,76.6396,21.7,90,0.0,928.7,4.95,49.3,25,5.9,4.9,10.0,142.0,37.0,2.3,3,5,3,1,2026-06-24T23:26:41.020482+05:30
Mangalore,Karnataka,12.9141,74.856,24.0,96,0.4,1008.7,8.25,41.0,43,22.4,15.3,13.0,446.0,28.0,3.3,6,0,4,1,2026-06-24T23:26:41.020489+05:30
Hubli-Dharwad,Karnataka,15.3647,75.124,21.4,96,0.0,940.4,7.85,58.7,23,3.3,2.4,4.7,125.0,43.0,1.0,3,5,7,1,2026-06-24T23:26:41.020497+05:30
Belgaum,Karnataka,15.8497,74.4977,20.8,98,0.0,924.9,6.15,46.1,23,4.6,4.0,6.1,121.0,41.0,1.7,3,5,7,1,2026-06-24T23:26:44.356539+05:30
Coimbatore,Tamil Nadu,11.0168,76.9558,23.4,94,0.0,962.2,8.45,46.1,33,5.5,5.1,9.0,212.0,35.0,3.3,3,5,7,1,2026-06-24T23:26:44.356573+05:30
Madurai,Tamil Nadu,9.9252,78.1198,28.8,67,0.0,993.5,8.0,35.6,65,40.2,38.3,50.1,171.0,0.0,10.5,7,5,7,1,2026-06-24T23:26:44.356583+05:30
Trichy,Tamil Nadu,10.7905,78.7047,27.4,79,0.0,1000.0,8.05,46.4,40,22.6,20.1,21.2,144.0,36.0,5.2,7,5,4,1,2026-06-24T23:26:44.356592+05:30
Salem,Tamil Nadu,11.6643,78.146,25.9,80,0.0,977.8,8.75,36.7,57,19.9,17.2,21.7,439.0,46.0,7.3,7,5,7,1,2026-06-24T23:26:44.356600+05:30
Tirunelveli,Tamil Nadu,8.7139,77.7567,28.5,66,0.0,1004.0,8.15,42.8,28,6.2,5.7,7.5,193.0,39.0,2.1,7,5,4,1,2026-06-24T23:26:44.356607+05:30
Vellore,Tamil Nadu,12.9165,79.1325,26.1,94,0.0,983.8,8.2,40.7,48,18.0,15.7,16.1,238.0,45.0,5.2,7,5,7,1,2026-06-24T23:26:44.356615+05:30
Erode,Tamil Nadu,11.341,77.7172,25.8,80,0.0,989.5,8.7,40.3,52,13.8,12.6,18.3,197.0,32.0,4.0,7,5,7,1,2026-06-24T23:26:44.356622+05:30
Kochi,Kerala,9.9312,76.2673,26.4,91,0.1,1010.7,7.15,35.6,48,12.8,11.5,18.6,172.0,19.0,4.8,10,0,4,1,2026-06-24T23:26:44.356630+05:30
Thiruvananthapuram,Kerala,8.5241,76.9366,24.7,95,0.0,1010.4,7.9,43.2,32,9.0,5.9,3.3,132.0,47.0,1.3,3,0,4,1,2026-06-24T23:26:44.356637+05:30
Kozhikode,Kerala,11.2588,75.7804,24.7,96,0.1,1010.0,8.35,34.9,27,8.6,5.6,1.8,376.0,52.0,0.8,6,0,4,1,2026-06-24T23:26:44.356645+05:30
Thrissur,Kerala,10.5276,76.2144,24.9,98,0.1,1009.3,7.6,31.3,50,12.2,11.1,14.0,369.0,26.0,3.8,6,0,4,1,2026-06-24T23:26:44.356652+05:30
Kannur,Kerala,11.8745,75.3704,25.4,92,0.1,1008.9,8.0,34.6,33,11.7,7.4,10.2,342.0,34.0,2.0,10,0,4,1,2026-06-24T23:26:44.356660+05:30
Patna,Bihar,25.5941,85.1376,32.6,59,0.0,995.5,8.8,32.0,161,141.1,99.0,56.3,841.0,46.0,23.6,0,5,7,1,2026-06-24T23:26:44.356667+05:30
Gaya,Bihar,24.7914,85.0002,30.6,64,0.0,989.7,8.9,34.6,120,33.9,29.2,11.7,316.0,78.0,7.5,3,5,7,1,2026-06-24T23:26:44.356674+05:30
Muzaffarpur,Bihar,26.1209,85.3647,30.1,73,0.0,995.5,8.8,30.2,161,95.0,75.9,27.2,979.0,100.0,18.3,3,5,7,1,2026-06-24T23:26:44.356681+05:30
Bhagalpur,Bihar,25.2425,87.0117,30.2,77,0.0,996.5,8.8,26.3,153,102.7,64.0,23.9,570.0,90.0,15.5,3,5,7,1,2026-06-24T23:26:44.356688+05:30
Ranchi,Jharkhand,23.3441,85.3096,24.8,84,0.0,934.6,9.15,33.5,87,21.9,21.5,9.1,287.0,85.0,4.6,3,5,7,1,2026-06-24T23:26:44.356695+05:30
Jamshedpur,Jharkhand,22.8046,86.2029,28.3,85,0.0,987.4,9.05,32.4,122,33.1,32.1,16.1,438.0,99.0,28.2,7,5,7,1,2026-06-24T23:26:44.356702+05:30
Dhanbad,Jharkhand,23.7957,86.4304,28.5,84,0.0,976.3,9.05,29.5,151,61.0,54.2,51.3,356.0,45.0,97.9,7,5,7,1,2026-06-24T23:26:44.356710+05:30
Bokaro,Jharkhand,23.6693,86.1511,28.4,81,0.0,980.2,8.95,32.4,132,43.3,37.3,31.3,311.0,57.0,66.1,7,5,7,1,2026-06-24T23:26:44.356717+05:30
Bhubaneswar,Odisha,20.2961,85.8245,28.4,87,0.0,998.8,8.9,24.1,83,30.9,30.5,16.4,483.0,78.0,8.5,7,5,7,1,2026-06-24T23:26:44.356724+05:30
Cuttack,Odisha,20.4625,85.8828,28.9,83,0.0,1000.5,9.1,30.6,83,30.9,30.5,16.4,517.0,78.0,8.5,7,5,4,1,2026-06-24T23:26:44.356731+05:30
Rourkela,Odisha,22.2604,84.8536,28.0,83,0.0,981.4,8.95,28.8,99,36.2,35.7,15.4,516.0,80.0,7.7,7,5,7,1,2026-06-24T23:26:44.356738+05:30
Raipur,Chhattisgarh,21.2514,81.6296,29.8,62,0.0,971.7,8.9,34.6,59,22.9,22.9,36.4,429.0,34.0,50.6,7,5,7,1,2026-06-24T23:26:44.356745+05:30
Bhilai,Chhattisgarh,21.1938,81.3509,28.7,68,0.0,972.2,8.9,38.2,54,22.2,22.2,33.7,565.0,37.0,46.9,7,5,7,1,2026-06-24T23:26:44.356753+05:30
Guwahati,Assam,26.1158,91.7086,25.8,97,0.1,998.2,8.75,24.5,59,44.1,34.9,11.8,489.0,56.0,3.4,10,5,7,1,2026-06-24T23:26:44.356760+05:30
Agartala,Tripura,23.8315,91.2868,26.4,93,0.0,1003.2,4.85,27.0,72,29.2,26.1,14.0,285.0,64.0,4.8,7,5,0,1,2026-06-24T23:26:44.356767+05:30
Shillong,Meghalaya,25.5788,91.8933,19.3,99,0.0,855.2,8.1,17.6,43,19.3,15.3,7.5,339.0,80.0,2.3,3,10,7,1,2026-06-24T23:26:44.356774+05:30
Imphal,Manipur,24.817,93.9368,22.9,95,0.1,920.5,7.3,19.1,49,29.7,27.9,23.2,682.0,24.0,3.4,6,5,7,1,2026-06-24T23:26:44.356781+05:30
Aizawl,Mizoram,23.7271,92.7176,19.5,98,0.0,889.8,4.7,18.4,32,12.7,10.1,7.7,219.0,44.0,0.8,3,10,3,1,2026-06-24T23:26:44.356788+05:30
Kohima,Nagaland,25.6701,94.1077,20.3,92,0.0,853.4,7.05,27.4,31,20.3,18.7,18.7,288.0,27.0,1.1,3,5,7,1,2026-06-24T23:26:44.356795+05:30
Gangtok,Sikkim,27.3314,88.6138,16.1,92,0.1,834.9,9.2,34.9,65,15.8,13.8,19.8,586.0,73.0,2.5,6,10,7,0,2026-06-24T23:26:44.356802+05:30
Siliguri,West Bengal,26.7271,88.3953,24.8,99,0.4,990.0,8.75,23.8,86,44.5,33.2,23.5,653.0,77.0,4.4,6,5,7,1,2026-06-24T23:26:47.707915+05:30
Durgapur,West Bengal,23.5204,87.3119,28.0,87,0.0,991.2,9.0,27.0,163,61.9,57.7,32.5,756.0,79.0,53.3,7,5,7,1,2026-06-24T23:26:47.707949+05:30
Asansol,West Bengal,23.6739,86.9524,28.4,82,0.0,989.8,9.0,28.1,153,58.8,53.3,38.2,420.0,64.0,54.8,7,5,7,1,2026-06-24T23:26:47.707961+05:30
Pondicherry,Puducherry,11.9139,79.8145,28.3,73,0.0,1007.8,7.9,36.4,64,19.1,15.6,13.8,315.0,74.0,7.5,7,5,4,1,2026-06-24T23:26:47.707971+05:30
Port Blair,Andaman and Nicobar Islands,11.6234,92.7265,27.4,84,0.0,1006.9,8.65,44.6,30,13.0,7.8,0.2,91.0,48.0,0.4,7,5,4,1,2026-06-24T23:26:47.707981+05:30
Haridwar,Uttarakhand,29.9457,78.1642,26.8,77,0.0,969.3,7.6,25.6,156,99.9,66.1,30.8,470.0,98.0,16.6,7,5,7,1,2026-06-24T23:26:47.707990+05:30
Rishikesh,Uttarakhand,30.0869,78.2676,25.9,79,0.0,962.2,7.7,25.9,161,70.3,44.8,15.7,418.0,132.0,10.6,7,5,7,1,2026-06-24T23:26:47.707999+05:30
Nainital,Uttarakhand,29.3919,79.4542,15.3,95,0.0,803.2,8.05,27.4,131,85.9,46.4,18.8,383.0,80.0,6.0,3,10,7,0,2026-06-24T23:26:47.708008+05:30
Mussoorie,Uttarakhand,30.4599,78.0664,15.5,91,0.0,800.4,7.55,31.3,148,61.5,46.0,31.8,396.0,104.0,12.3,3,10,7,0,2026-06-24T23:26:47.708017+05:30
Dharamshala,Himachal Pradesh,32.219,76.3234,20.3,81,0.0,865.6,8.5,34.2,64,16.5,15.5,21.1,414.0,35.0,0.3,3,5,7,1,2026-06-24T23:26:47.708026+05:30
Dalhousie,Himachal Pradesh,32.5387,75.971,14.6,96,0.0,800.7,8.2,33.5,115,48.5,40.6,41.6,685.0,71.0,3.3,3,10,7,0,2026-06-24T23:26:47.708035+05:30
Patiala,Punjab,30.3398,76.3869,30.7,55,0.0,972.9,7.65,35.3,195,384.6,136.4,55.2,750.0,43.0,13.6,0,5,7,1,2026-06-24T23:26:47.708044+05:30
Bhatinda,Punjab,30.211,74.9455,32.2,49,0.0,977.7,8.25,32.4,152,180.7,92.9,57.2,348.0,50.0,18.8,0,5,7,1,2026-06-24T23:26:47.708052+05:30
Rohtak,Haryana,28.8955,76.6066,30.0,65,0.0,976.3,7.75,29.2,257,339.0,112.5,79.5,889.0,15.0,21.4,7,5,7,1,2026-06-24T23:26:47.708061+05:30
Panipat,Haryana,29.3909,76.9635,29.7,65,0.0,975.1,7.6,28.8,555,411.6,128.5,64.2,872.0,28.0,18.3,7,5,7,1,2026-06-24T23:26:47.708069+05:30
Mathura,Uttar Pradesh,27.4924,77.6737,29.8,63,0.0,981.7,8.05,20.2,363,273.8,88.0,67.5,803.0,8.0,8.1,7,5,7,1,2026-06-24T23:26:47.708078+05:30
Vrindavan,Uttar Pradesh,27.5823,77.7027,29.6,64,0.0,982.1,8.0,18.7,363,273.8,88.0,67.5,809.0,8.0,8.1,7,5,7,1,2026-06-24T23:26:47.708086+05:30
Ayodhya,Uttar Pradesh,26.7922,82.1998,30.7,66,0.0,990.1,8.35,28.8,160,181.1,91.0,44.2,668.0,56.0,15.1,3,5,7,1,2026-06-24T23:26:47.708094+05:30
Ratlam,Madhya Pradesh,23.3315,75.0367,25.1,82,0.0,951.7,7.65,44.3,74,48.3,29.7,5.6,219.0,80.0,4.9,7,5,7,1,2026-06-24T23:26:47.708103+05:30
Sagar,Madhya Pradesh,23.8388,78.7378,24.7,95,0.0,946.4,8.65,44.3,62,38.3,25.5,6.9,216.0,81.0,3.6,3,5,7,1,2026-06-24T23:26:47.708111+05:30
Satna,Madhya Pradesh,24.6005,80.8322,29.8,67,0.0,967.3,8.75,28.4,79,41.7,25.7,9.7,204.0,75.0,4.6,7,5,7,1,2026-06-24T23:26:47.708120+05:30
Akola,Maharashtra,20.7002,77.0082,25.2,94,0.2,972.6,8.5,37.8,47,29.6,21.3,11.6,266.0,59.0,6.1,10,5,7,1,2026-06-24T23:26:47.708128+05:30
Amravati,Maharashtra,20.9374,77.7796,24.8,97,0.0,964.5,8.65,36.7,41,25.6,18.7,10.8,214.0,61.0,5.3,3,5,7,1,2026-06-24T23:26:47.708137+05:30
Latur,Maharashtra,18.4088,76.5604,25.9,65,0.0,937.9,2.45,41.8,35,9.1,7.7,7.2,199.0,56.0,2.6,7,5,3,1,2026-06-24T23:26:47.708145+05:30
Nanded,Maharashtra,19.1383,77.3091,24.7,91,0.0,966.3,7.3,37.8,34,34.7,21.9,12.0,432.0,51.0,3.8,3,5,7,1,2026-06-24T23:26:47.708152+05:30
Gulbarga,Karnataka,17.3297,76.8343,26.4,67,0.0,957.3,5.15,46.4,29,4.1,3.9,9.2,156.0,46.0,2.9,7,5,3,1,2026-06-24T23:26:47.708159+05:30
Bidar,Karnataka,17.9104,77.5199,24.8,84,0.0,933.4,7.55,46.4,37,14.9,10.8,9.7,321.0,56.0,3.1,3,5,7,1,2026-06-24T23:26:47.708166+05:30
Hospet,Karnataka,15.2689,76.3909,23.8,84,0.0,955.6,7.3,54.7,25,4.7,3.6,5.7,134.0,40.0,1.6,3,5,7,1,2026-06-24T23:26:47.708173+05:30
Tirupur,Tamil Nadu,11.1085,77.3411,24.3,89,0.0,975.6,8.8,46.4,56,17.0,15.6,21.9,160.0,28.0,5.1,3,5,7,1,2026-06-24T23:26:47.708180+05:30
Alappuzha,Kerala,9.4981,76.3388,26.6,90,0.0,1010.8,7.3,34.6,37,10.7,8.6,10.2,82.0,37.0,2.9,7,0,4,1,2026-06-24T23:26:47.708187+05:30
Munnar,Kerala,10.0889,77.0595,15.9,95,0.0,857.0,7.65,41.4,22,4.4,4.3,8.9,115.0,28.0,2.0,3,10,7,0,2026-06-24T23:26:47.708195+05:30
Silchar,Assam,24.8333,92.7789,26.0,95,0.0,1001.8,8.15,16.9,63,33.6,24.7,9.8,599.0,66.0,4.2,7,5,4,1,2026-06-24T23:26:47.708202+05:30
Dibrugarh,Assam,27.4728,94.912,25.7,97,0.0,991.6,8.95,20.2,61,16.4,15.6,13.3,283.0,60.0,2.2,7,5,7,1,2026-06-24T23:26:47.708209+05:30
