city,state,latitude,longitude,temp,humidity,rain,pressure,uv_index,wind_gusts,aqi,pm10,pm2_5,mosquito_risk,arthritis_risk,migraine_risk,frizz_risk,updated_at
Delhi,Delhi,28.6139,77.209,19.4,92,0.0,984.5,6.85,18.0,129,240.3,65.9,3,10,7,1,2026-04-01T03:12:03.370393+05:30
Mumbai,Maharashtra,19.076,72.8777,27.1,82,0.0,1008.5,7.85,25.2,57,28.9,14.3,7,0,4,1,2026-04-01T03:12:03.370428+05:30
Bangalore,Karnataka,12.9716,77.5946,22.7,81,0.0,911.3,9.55,27.7,88,26.0,23.8,3,5,7,1,2026-04-01T03:12:03.370444+05:30
Hyderabad,Telangana,17.385,78.4867,23.9,82,0.0,953.1,9.1,19.4,116,33.5,29.3,3,5,7,1,2026-04-01T03:12:03.370459+05:30
Chennai,Tamil Nadu,13.0827,80.2707,26.4,78,0.0,1007.8,9.25,29.5,49,17.8,13.6,7,5,4,1,2026-04-01T03:12:03.370468+05:30
Kolkata,West Bengal,22.5726,88.3639,25.0,97,0.0,1007.3,8.55,18.7,82,28.3,23.7,7,5,4,1,2026-04-01T03:12:03.370477+05:30
Pune,Maharashtra,18.5204,73.8567,23.9,96,0.0,947.9,8.4,29.5,113,58.4,53.0,3,5,7,1,2026-04-01T03:12:03.370488+05:30
Ahmedabad,Gujarat,23.0225,72.5714,26.2,62,0.0,1002.5,7.8,24.8,70,27.7,17.6,7,5,4,1,2026-04-01T03:12:03.370496+05:30
Jaipur,Rajasthan,26.9124,75.7873,21.0,82,0.0,960.8,6.55,34.2,75,264.5,40.5,3,5,7,1,2026-04-01T03:12:03.370503+05:30
Lucknow,Uttar Pradesh,26.8467,80.9462,24.8,63,0.0,995.0,7.05,42.5,141,135.5,40.4,3,5,7,1,2026-04-01T03:12:03.370510+05:30
Kanpur,Uttar Pradesh,26.4499,80.3319,22.8,81,0.0,993.2,7.4,47.9,239,241.2,49.2,3,5,7,1,2026-04-01T03:12:03.370517+05:30
Chandigarh,Chandigarh,30.7333,76.7794,19.1,78,0.0,969.9,6.45,16.6,87,59.6,36.6,3,5,7,0,2026-04-01T03:12:03.370524+05:30
Srinagar,Jammu and Kashmir,34.0837,74.7973,8.1,83,0.0,840.3,7.3,20.5,74,60.5,47.5,3,10,7,0,2026-04-01T03:12:03.370531+05:30
Jammu,Jammu and Kashmir,32.7266,74.857,19.2,69,0.0,973.7,6.5,18.7,74,36.2,26.4,3,5,7,0,2026-04-01T03:12:03.370538+05:30
Amritsar,Punjab,31.634,74.8723,19.2,78,0.0,982.2,5.9,14.4,108,115.7,53.0,3,5,3,0,2026-04-01T03:12:03.370545+05:30
Ludhiana,Punjab,30.901,75.8573,20.5,77,0.0,980.3,6.6,15.5,152,124.3,59.4,3,5,7,1,2026-04-01T03:12:03.370551+05:30
Jalandhar,Punjab,31.326,75.5762,20.1,74,0.0,981.4,6.5,15.8,140,100.4,53.3,3,5,7,0,2026-04-01T03:12:03.370559+05:30
Dehradun,Uttarakhand,30.6284,78.0322,13.0,64,0.0,829.7,6.55,33.8,41,14.2,9.7,3,5,7,0,2026-04-01T03:12:03.370565+05:30
Shimla,Himachal Pradesh,31.1048,77.1734,10.8,69,0.0,783.0,5.95,31.7,55,21.8,16.6,3,5,3,0,2026-04-01T03:12:03.370572+05:30
Manali,Himachal Pradesh,32.2396,77.1887,13.7,54,0.0,819.3,7.7,30.2,36,13.9,11.4,0,5,7,0,2026-04-01T03:12:03.370580+05:30
Gurgaon,Haryana,28.4595,77.0266,18.0,96,0.0,982.8,6.85,14.4,189,213.3,60.3,3,10,7,1,2026-04-01T03:12:03.370587+05:30
Noida,Uttar Pradesh,28.5355,77.391,19.7,89,0.0,986.2,6.85,16.2,189,213.3,60.3,3,10,7,1,2026-04-01T03:12:03.370595+05:30
Ghaziabad,Uttar Pradesh,28.6692,77.4538,18.8,93,0.0,984.3,6.85,18.0,126,221.7,61.0,3,10,7,1,2026-04-01T03:12:03.370621+05:30
Faridabad,Haryana,28.4089,77.3178,18.7,88,0.0,985.2,6.8,18.7,189,213.3,60.3,3,10,7,1,2026-04-01T03:12:03.370629+05:30
Meerut,Uttar Pradesh,28.9845,77.7064,18.3,93,0.0,983.0,6.7,19.8,126,221.7,61.0,3,10,7,1,2026-04-01T03:12:03.370635+05:30
Agra,Uttar Pradesh,27.1767,78.0081,20.0,92,0.0,989.1,6.85,28.1,277,497.3,76.6,3,5,7,1,2026-04-01T03:12:03.370643+05:30
Varanasi,Uttar Pradesh,25.3176,82.9739,23.5,73,0.0,1000.5,7.45,31.7,152,104.8,60.8,3,5,4,1,2026-04-01T03:12:03.370652+05:30
Prayagraj,Uttar Pradesh,25.4358,81.8463,23.4,73,0.0,998.8,7.6,43.9,151,88.2,30.6,3,5,7,1,2026-04-01T03:12:03.370660+05:30
Gorakhpur,Uttar Pradesh,26.7606,83.3732,23.2,83,0.0,998.6,7.75,25.9,152,81.5,67.1,3,5,7,1,2026-04-01T03:12:03.370666+05:30
Bareilly,Uttar Pradesh,28.367,79.4304,20.5,80,0.0,988.1,6.65,22.0,87,65.0,34.8,3,5,7,1,2026-04-01T03:12:03.370674+05:30
Aligarh,Uttar Pradesh,27.8974,78.088,19.3,91,0.0,987.1,7.0,18.0,189,491.7,91.5,3,10,7,1,2026-04-01T03:12:03.370680+05:30
Moradabad,Uttar Pradesh,28.8386,78.7733,19.5,85,0.0,985.1,6.9,19.8,93,115.3,41.6,3,10,7,1,2026-04-01T03:12:03.370686+05:30
Saharanpur,Uttar Pradesh,29.9637,77.546,18.9,87,0.0,977.0,6.4,16.9,136,148.1,64.3,3,10,7,1,2026-04-01T03:12:03.370692+05:30
Jhansi,Uttar Pradesh,25.4484,78.5685,21.4,85,0.0,979.4,7.65,33.5,46,15.9,10.3,3,5,7,1,2026-04-01T03:12:06.598294+05:30
Surat,Gujarat,21.1702,72.8311,26.3,86,0.0,1006.9,7.65,26.3,82,42.5,27.5,7,5,4,1,2026-04-01T03:12:06.598324+05:30
Vadodara,Gujarat,22.3072,73.1812,26.2,76,0.0,1004.5,7.85,27.4,68,19.7,14.3,7,5,4,1,2026-04-01T03:12:06.598335+05:30
Rajkot,Gujarat,22.3039,70.8022,23.5,77,0.0,995.2,7.5,37.4,67,21.4,12.5,3,5,7,1,2026-04-01T03:12:06.598344+05:30
Thane,Maharashtra,19.2183,72.9781,25.6,88,0.0,1008.0,7.85,37.1,57,28.9,14.3,7,0,4,1,2026-04-01T03:12:06.598352+05:30
Nagpur,Maharashtra,21.1458,79.0882,24.7,72,0.0,973.9,8.6,24.8,75,48.2,43.1,3,5,7,1,2026-04-01T03:12:06.598359+05:30
Nashik,Maharashtra,19.9975,73.7898,22.6,92,0.0,945.3,8.1,32.0,58,18.0,11.9,3,5,7,1,2026-04-01T03:12:06.598367+05:30
Aurangabad,Maharashtra,19.8762,75.3433,24.5,72,0.0,943.6,8.75,28.4,79,50.4,40.0,3,5,7,1,2026-04-01T03:12:06.598375+05:30
Solapur,Maharashtra,17.6599,75.9064,26.0,68,0.0,956.7,8.9,33.1,99,55.5,48.8,7,5,7,1,2026-04-01T03:12:06.598382+05:30
Kolhapur,Maharashtra,16.705,74.2433,23.4,97,0.0,947.3,8.85,31.0,133,94.1,88.2,3,5,7,1,2026-04-01T03:12:06.598390+05:30
Goa,Goa,15.2993,74.124,28.1,83,0.0,997.3,8.85,32.0,81,44.6,34.1,7,5,7,1,2026-04-01T03:12:06.598398+05:30
Jodhpur,Rajasthan,26.2389,73.0243,23.2,60,0.0,983.2,7.5,27.7,75,199.8,32.5,0,5,7,0,2026-04-01T03:12:06.598406+05:30
Udaipur,Rajasthan,24.5854,73.7125,22.1,68,0.0,946.5,8.2,33.5,42,31.9,13.5,3,5,7,0,2026-04-01T03:12:06.598413+05:30
Kota,Rajasthan,25.2138,75.8648,23.4,78,0.0,980.1,7.15,28.1,52,20.5,15.5,3,5,7,1,2026-04-01T03:12:06.598421+05:30
Bikaner,Rajasthan,28.0229,73.3119,22.9,75,0.0,982.3,7.2,22.7,54,13.2,8.8,3,5,7,1,2026-04-01T03:12:06.598428+05:30
Ajmer,Rajasthan,26.4499,74.6399,22.6,73,0.0,955.5,7.2,27.7,49,30.0,19.2,3,5,7,1,2026-04-01T03:12:06.598435+05:30
Gwalior,Madhya Pradesh,26.2183,78.1828,21.8,83,0.0,984.5,7.35,20.9,45,89.9,27.1,3,5,7,1,2026-04-01T03:12:06.598443+05:30
Indore,Madhya Pradesh,22.7196,75.8577,23.9,67,0.0,947.5,8.3,30.6,66,20.1,17.3,3,5,7,1,2026-04-01T03:12:06.598450+05:30
Bhopal,Madhya Pradesh,23.2599,77.4126,23.9,61,0.0,953.5,8.25,35.3,61,32.1,28.3,3,5,7,0,2026-04-01T03:12:06.598458+05:30
Jabalpur,Madhya Pradesh,23.1815,79.9864,22.5,74,0.0,963.1,8.1,56.5,74,57.9,32.7,3,5,7,1,2026-04-01T03:12:06.598465+05:30
Ujjain,Madhya Pradesh,23.1765,75.7885,24.6,63,0.0,953.3,8.2,25.2,65,20.4,16.0,3,5,7,1,2026-04-01T03:12:06.598473+05:30
Visakhapatnam,Andhra Pradesh,17.6868,83.2185,25.8,90,0.0,1004.6,9.05,32.8,68,21.4,18.1,7,5,4,1,2026-04-01T03:12:06.598480+05:30
Vijayawada,Andhra Pradesh,16.5062,80.648,25.5,91,0.0,1003.5,9.1,30.2,59,18.1,15.7,7,5,4,1,2026-04-01T03:12:06.598488+05:30
Guntur,Andhra Pradesh,16.3067,80.4365,25.5,90,0.0,1004.5,9.1,31.0,58,15.0,12.8,7,5,4,1,2026-04-01T03:12:06.598496+05:30
Nellore,Andhra Pradesh,14.4426,79.9865,25.2,87,0.0,1006.4,9.2,29.5,51,12.9,10.2,7,5,4,1,2026-04-01T03:12:06.598504+05:30
Kurnool,Andhra Pradesh,15.8281,78.0373,27.1,75,0.0,976.8,9.1,18.7,82,18.8,17.1,7,5,7,1,2026-04-01T03:12:06.598513+05:30
Kakinada,Andhra Pradesh,16.9891,82.2475,24.6,93,0.0,1008.4,9.05,32.0,52,18.0,13.9,3,0,4,1,2026-04-01T03:12:06.598520+05:30
Tirupati,Andhra Pradesh,13.6288,79.4192,23.1,89,0.0,992.5,9.3,34.9,66,21.7,19.2,3,5,7,1,2026-04-01T03:12:06.598527+05:30
Warangal,Telangana,17.9689,79.5941,26.2,78,0.0,978.9,8.95,26.6,136,27.4,25.8,7,5,7,1,2026-04-01T03:12:06.598535+05:30
Nizamabad,Telangana,18.6725,78.0941,25.1,78,0.0,964.8,8.85,37.1,124,69.2,62.4,7,5,7,1,2026-04-01T03:12:06.598543+05:30
Mysore,Karnataka,12.2958,76.6396,22.5,86,0.0,927.8,9.5,28.8,105,37.8,33.5,3,5,7,1,2026-04-01T03:12:06.598551+05:30
Mangalore,Karnataka,12.9141,74.856,28.1,79,0.0,1006.1,9.15,21.2,79,33.8,29.1,7,5,4,1,2026-04-01T03:12:06.598558+05:30
Hubli-Dharwad,Karnataka,15.3647,75.124,23.0,84,0.0,940.3,9.15,34.2,103,56.3,52.2,3,5,7,1,2026-04-01T03:12:06.598565+05:30
Belgaum,Karnataka,15.8497,74.4977,22.3,96,0.0,925.0,9.1,27.4,110,69.4,60.8,3,5,7,1,2026-04-01T03:12:09.825178+05:30
Coimbatore,Tamil Nadu,11.0168,76.9558,24.7,78,0.0,961.6,9.45,40.3,83,26.6,22.6,3,5,7,1,2026-04-01T03:12:09.825205+05:30
Madurai,Tamil Nadu,9.9252,78.1198,25.3,84,0.0,993.4,8.4,27.0,64,27.7,25.7,7,5,7,1,2026-04-01T03:12:09.825214+05:30
Trichy,Tamil Nadu,10.7905,78.7047,23.7,92,0.0,1000.2,7.95,27.4,57,20.7,18.0,3,5,4,1,2026-04-01T03:12:09.825222+05:30
Salem,Tamil Nadu,11.6643,78.146,25.0,76,0.0,977.5,9.4,34.2,69,31.8,29.6,7,5,7,1,2026-04-01T03:12:09.825229+05:30
Tirunelveli,Tamil Nadu,8.7139,77.7567,24.6,91,0.0,1003.1,9.35,40.0,77,26.6,25.1,3,5,4,1,2026-04-01T03:12:09.825235+05:30
Vellore,Tamil Nadu,12.9165,79.1325,23.2,86,0.0,985.3,9.4,34.9,79,32.7,30.0,3,5,7,1,2026-04-01T03:12:09.825242+05:30
Erode,Tamil Nadu,11.341,77.7172,25.8,79,0.0,989.3,9.35,22.7,54,15.7,13.9,7,5,7,1,2026-04-01T03:12:09.825248+05:30
Kochi,Kerala,9.9312,76.2673,26.9,83,0.0,1008.2,9.2,34.2,111,45.6,44.1,7,0,4,1,2026-04-01T03:12:09.825254+05:30
Thiruvananthapuram,Kerala,8.5241,76.9366,28.4,80,0.0,1006.9,9.05,27.0,80,25.3,21.5,7,5,4,1,2026-04-01T03:12:09.825260+05:30
Kozhikode,Kerala,11.2588,75.7804,28.1,82,0.0,1007.1,9.15,26.6,100,30.2,23.5,7,5,4,1,2026-04-01T03:12:09.825266+05:30
Thrissur,Kerala,10.5276,76.2144,25.6,90,0.0,1006.5,9.2,34.6,113,40.2,38.0,7,5,4,1,2026-04-01T03:12:09.825273+05:30
Kannur,Kerala,11.8745,75.3704,27.0,83,0.0,1006.3,9.1,24.8,101,46.9,43.1,7,5,4,1,2026-04-01T03:12:09.825279+05:30
Patna,Bihar,25.5941,85.1376,25.0,89,0.0,1001.3,8.1,21.2,159,104.5,88.2,7,5,4,1,2026-04-01T03:12:09.825285+05:30
Gaya,Bihar,24.7914,85.0002,24.8,77,0.0,994.1,7.95,22.7,126,106.6,59.5,3,5,7,1,2026-04-01T03:12:09.825292+05:30
Muzaffarpur,Bihar,26.1209,85.3647,23.2,91,0.0,1001.5,8.15,28.4,163,102.2,88.5,3,5,4,1,2026-04-01T03:12:09.825298+05:30
Bhagalpur,Bihar,25.2425,87.0117,24.3,92,0.0,1002.1,8.2,29.9,161,89.4,79.9,3,5,4,1,2026-04-01T03:12:09.825303+05:30
Ranchi,Jharkhand,23.3441,85.3096,21.9,86,0.0,938.7,8.85,32.8,72,53.2,26.5,3,5,7,1,2026-04-01T03:12:09.825310+05:30
Jamshedpur,Jharkhand,22.8046,86.2029,25.0,91,0.0,992.1,8.65,23.0,128,57.3,47.4,7,5,7,1,2026-04-01T03:12:09.825316+05:30
Dhanbad,Jharkhand,23.7957,86.4304,24.2,84,0.0,980.9,8.6,27.4,161,127.1,117.6,3,5,7,1,2026-04-01T03:12:09.825322+05:30
Bokaro,Jharkhand,23.6693,86.1511,23.8,89,0.0,985.2,8.6,31.7,155,116.6,96.9,3,5,7,1,2026-04-01T03:12:09.825328+05:30
Bhubaneswar,Odisha,20.2961,85.8245,25.9,94,0.0,1003.6,8.85,25.6,89,24.3,21.2,7,5,4,1,2026-04-01T03:12:09.825334+05:30
Cuttack,Odisha,20.4625,85.8828,25.8,94,0.0,1005.6,8.9,18.0,89,24.3,21.2,7,5,4,1,2026-04-01T03:12:09.825340+05:30
Rourkela,Odisha,22.2604,84.8536,24.8,93,0.0,986.1,8.6,15.5,100,61.9,48.0,3,5,7,1,2026-04-01T03:12:09.825346+05:30
Raipur,Chhattisgarh,21.2514,81.6296,25.4,60,0.0,974.9,8.65,25.6,129,151.8,75.9,4,5,7,1,2026-04-01T03:12:09.825352+05:30
Bhilai,Chhattisgarh,21.1938,81.3509,25.1,60,0.0,975.2,8.65,23.0,112,129.9,64.5,4,5,7,1,2026-04-01T03:12:09.825358+05:30
Guwahati,Assam,26.1158,91.7086,22.3,92,0.0,1003.2,8.05,38.2,103,29.3,23.9,3,5,4,1,2026-04-01T03:12:09.825364+05:30
Agartala,Tripura,23.8315,91.2868,22.6,96,0.0,1007.6,8.35,23.4,87,51.8,48.7,3,5,4,1,2026-04-01T03:12:09.825370+05:30
Shillong,Meghalaya,25.5788,91.8933,13.1,92,0.0,855.6,7.4,50.8,71,13.5,10.9,3,10,7,0,2026-04-01T03:12:09.825376+05:30
Imphal,Manipur,24.817,93.9368,17.6,90,0.0,923.7,8.1,64.1,70,34.5,31.7,3,10,7,0,2026-04-01T03:12:09.825382+05:30
Aizawl,Mizoram,23.7271,92.7176,17.4,98,0.0,893.0,8.6,37.4,110,43.3,37.4,3,10,7,1,2026-04-01T03:12:09.825388+05:30
Kohima,Nagaland,25.6701,94.1077,14.3,85,0.0,854.4,8.55,70.2,54,17.5,14.1,3,10,7,0,2026-04-01T03:12:09.825394+05:30
Gangtok,Sikkim,27.3314,88.6138,13.9,93,0.1,836.8,8.45,16.2,87,12.7,11.0,6,10,7,0,2026-04-01T03:12:09.825401+05:30
Siliguri,West Bengal,26.7271,88.3953,19.6,82,0.0,995.3,8.05,22.3,158,74.7,61.2,3,10,7,1,2026-04-01T03:12:13.058214+05:30
Durgapur,West Bengal,23.5204,87.3119,25.4,93,0.0,996.1,8.55,36.7,158,58.4,54.9,7,5,7,1,2026-04-01T03:12:13.058241+05:30
Asansol,West Bengal,23.6739,86.9524,25.5,88,0.0,994.7,8.55,28.4,154,63.6,59.0,7,5,7,1,2026-04-01T03:12:13.058250+05:30
Pondicherry,Puducherry,11.9139,79.8145,24.0,92,0.0,1009.0,8.4,27.7,46,15.7,11.5,3,0,4,1,2026-04-01T03:12:13.058258+05:30
Port Blair,Andaman and Nicobar Islands,11.6234,92.7265,27.8,83,0.0,1006.6,7.4,14.4,36,7.1,5.0,7,5,4,1,2026-04-01T03:12:13.058266+05:30
Haridwar,Uttarakhand,29.9457,78.1642,18.3,79,0.0,975.5,6.5,23.8,85,71.7,39.9,3,5,7,0,2026-04-01T03:12:13.058273+05:30
Rishikesh,Uttarakhand,30.0869,78.2676,19.0,63,0.0,968.3,6.5,31.3,64,67.8,28.1,3,5,7,0,2026-04-01T03:12:13.058280+05:30
Nainital,Uttarakhand,29.3919,79.4542,18.7,34,0.0,806.8,7.15,37.4,67,39.0,22.5,0,5,7,0,2026-04-01T03:12:13.058287+05:30
Mussoorie,Uttarakhand,30.4599,78.0664,15.0,60,0.0,802.5,6.85,36.4,68,43.2,27.0,0,5,7,0,2026-04-01T03:12:13.058293+05:30
Dharamshala,Himachal Pradesh,32.219,76.3234,18.3,52,0.0,869.5,6.0,25.9,35,12.6,7.7,0,5,3,0,2026-04-01T03:12:13.058299+05:30
Dalhousie,Himachal Pradesh,32.5387,75.971,14.5,52,0.0,803.3,6.05,24.5,65,26.4,20.6,0,5,7,0,2026-04-01T03:12:13.058306+05:30
Patiala,Punjab,30.3398,76.3869,19.4,85,0.0,979.6,6.2,12.6,199,165.8,54.4,3,10,7,1,2026-04-01T03:12:13.058312+05:30
Bhatinda,Punjab,30.211,74.9455,19.4,85,0.0,985.2,6.05,14.4,103,119.7,45.1,3,10,7,1,2026-04-01T03:12:13.058319+05:30
Rohtak,Haryana,28.8955,76.6066,17.4,94,0.0,983.2,6.8,14.8,124,236.1,61.5,3,10,7,1,2026-04-01T03:12:13.058325+05:30
Panipat,Haryana,29.3909,76.9635,18.2,96,0.0,981.9,6.6,14.0,155,333.4,75.4,3,10,7,1,2026-04-01T03:12:13.058331+05:30
Mathura,Uttar Pradesh,27.4924,77.6737,19.1,93,0.0,988.2,7.05,28.4,171,843.8,111.5,3,10,7,1,2026-04-01T03:12:13.058337+05:30
Vrindavan,Uttar Pradesh,27.5823,77.7027,19.1,93,0.0,988.7,7.1,31.3,171,843.8,111.5,3,10,7,1,2026-04-01T03:12:13.058343+05:30
Ayodhya,Uttar Pradesh,26.7922,82.1998,23.5,73,0.0,997.3,7.45,31.7,116,128.1,40.3,3,5,7,1,2026-04-01T03:12:13.058349+05:30
Ratlam,Madhya Pradesh,23.3315,75.0367,25.7,63,0.0,954.2,8.15,27.7,57,22.4,16.1,7,5,7,1,2026-04-01T03:12:13.058355+05:30
Sagar,Madhya Pradesh,23.8388,78.7378,22.1,75,0.0,950.7,8.2,25.9,46,16.2,12.0,3,5,7,1,2026-04-01T03:12:13.058360+05:30
Satna,Madhya Pradesh,24.6005,80.8322,25.6,57,0.0,973.9,7.5,31.0,118,102.9,26.1,4,5,7,1,2026-04-01T03:12:13.058366+05:30
Akola,Maharashtra,20.7002,77.0082,25.6,72,0.0,974.8,8.55,13.0,73,45.4,39.2,7,5,7,1,2026-04-01T03:12:13.058373+05:30
Amravati,Maharashtra,20.9374,77.7796,25.6,69,0.0,967.1,8.6,33.5,67,42.3,38.5,7,5,7,1,2026-04-01T03:12:13.058380+05:30
Latur,Maharashtra,18.4088,76.5604,23.8,75,0.0,939.4,8.9,23.8,100,68.7,55.5,3,5,7,1,2026-04-01T03:12:13.058386+05:30
Nanded,Maharashtra,19.1383,77.3091,25.6,76,0.0,968.3,8.75,23.0,91,54.0,46.3,7,5,7,1,2026-04-01T03:12:13.058392+05:30
Gulbarga,Karnataka,17.3297,76.8343,25.3,76,0.0,958.6,8.95,34.9,113,57.4,49.5,7,5,7,1,2026-04-01T03:12:13.058398+05:30
Bidar,Karnataka,17.9104,77.5199,23.5,79,0.0,935.1,8.95,28.4,130,55.9,51.0,3,5,7,1,2026-04-01T03:12:13.058404+05:30
Hospet,Karnataka,15.2689,76.3909,24.7,78,0.0,955.9,9.15,23.8,100,48.3,44.1,3,5,7,1,2026-04-01T03:12:13.058410+05:30
Tirupur,Tamil Nadu,11.1085,77.3411,25.3,79,0.0,975.5,9.5,27.0,70,18.9,16.0,7,5,7,1,2026-04-01T03:12:13.058415+05:30
Alappuzha,Kerala,9.4981,76.3388,27.2,84,0.0,1008.2,9.2,29.9,111,39.0,36.3,7,0,4,1,2026-04-01T03:12:13.058422+05:30
Munnar,Kerala,10.0889,77.0595,19.7,94,0.0,855.5,9.65,19.4,75,34.7,30.6,3,10,7,1,2026-04-01T03:12:13.058428+05:30
Silchar,Assam,24.8333,92.7789,22.3,94,0.0,1006.7,8.35,20.9,84,41.3,33.4,3,5,4,1,2026-04-01T03:12:13.058434+05:30
Dibrugarh,Assam,27.4728,94.912,21.4,91,0.0,997.4,7.8,26.3,78,31.7,28.1,3,5,7,1,2026-04-01T03:12:13.058439+05:30
