city,state,latitude,longitude,temp,humidity,rain,pressure,uv_index,wind_gusts,aqi,pm10,pm2_5,no2,co,o3,so2,mosquito_risk,arthritis_risk,migraine_risk,frizz_risk,updated_at
Delhi,Delhi,28.6139,77.209,31.4,49,0.0,976.2,7.75,38.2,260,243.1,80.6,42.4,657.0,31.0,19.3,0,5,7,1,2026-06-08T00:57:21.518566+05:30
Mumbai,Maharashtra,19.076,72.8777,28.5,85,0.0,1007.3,7.75,45.7,71,61.0,19.0,4.9,155.0,51.0,4.4,7,5,4,1,2026-06-08T00:57:21.518615+05:30
Bangalore,Karnataka,12.9716,77.5946,21.7,93,0.0,911.9,7.55,51.5,22,4.0,3.9,10.3,221.0,38.0,3.6,3,5,7,1,2026-06-08T00:57:21.518631+05:30
Hyderabad,Telangana,17.385,78.4867,25.6,82,0.0,951.5,8.35,44.3,87,66.8,51.8,38.3,223.0,41.0,11.2,7,5,7,1,2026-06-08T00:57:21.518642+05:30
Chennai,Tamil Nadu,13.0827,80.2707,30.3,76,0.0,1004.7,8.6,45.0,46,15.7,14.0,16.3,268.0,53.0,8.8,3,5,4,1,2026-06-08T00:57:21.518651+05:30
Kolkata,West Bengal,22.5726,88.3639,27.1,93,0.0,1001.1,8.95,20.9,139,59.4,53.3,19.2,668.0,61.0,9.8,7,5,4,1,2026-06-08T00:57:21.518660+05:30
Pune,Maharashtra,18.5204,73.8567,25.3,85,0.0,947.4,5.1,45.7,57,38.1,16.9,8.2,131.0,43.0,7.3,7,5,3,1,2026-06-08T00:57:21.518667+05:30
Ahmedabad,Gujarat,23.0225,72.5714,32.9,57,0.0,998.6,8.05,42.5,73,41.6,21.7,5.0,151.0,65.0,5.2,0,5,7,1,2026-06-08T00:57:21.518673+05:30
Jaipur,Rajasthan,26.9124,75.7873,31.3,43,0.0,954.5,8.2,43.6,136,140.6,50.9,19.9,226.0,40.0,10.1,0,5,7,1,2026-06-08T00:57:21.518685+05:30
Lucknow,Uttar Pradesh,26.8467,80.9462,32.7,43,0.0,987.5,8.35,38.5,156,354.8,94.8,23.8,333.0,59.0,10.1,0,5,7,1,2026-06-08T00:57:21.518691+05:30
Kanpur,Uttar Pradesh,26.4499,80.3319,33.8,32,0.0,985.8,8.3,41.4,189,398.6,99.4,43.1,355.0,30.0,13.0,0,5,7,0,2026-06-08T00:57:21.518698+05:30
Chandigarh,Chandigarh,30.7333,76.7794,26.0,55,0.0,961.2,7.8,29.2,106,34.3,30.3,25.4,511.0,76.0,11.1,4,5,7,1,2026-06-08T00:57:21.518705+05:30
Srinagar,Jammu and Kashmir,34.0837,74.7973,14.8,95,0.0,838.8,9.0,16.9,77,36.7,34.7,22.9,599.0,48.0,2.2,3,10,7,0,2026-06-08T00:57:21.518712+05:30
Jammu,Jammu and Kashmir,32.7266,74.857,26.2,47,0.0,965.3,8.6,30.2,66,24.4,23.3,25.1,434.0,45.0,3.6,4,5,7,0,2026-06-08T00:57:21.518719+05:30
Amritsar,Punjab,31.634,74.8723,31.0,34,0.0,973.3,8.45,22.3,134,60.3,55.3,47.5,406.0,51.0,11.8,0,5,7,0,2026-06-08T00:57:21.518725+05:30
Ludhiana,Punjab,30.901,75.8573,30.9,37,0.0,971.5,8.05,32.4,139,62.6,51.0,31.0,680.0,63.0,8.5,0,5,7,0,2026-06-08T00:57:21.518732+05:30
Jalandhar,Punjab,31.326,75.5762,30.8,35,0.0,972.5,8.25,29.5,138,53.8,47.8,40.1,408.0,53.0,8.2,0,5,7,0,2026-06-08T00:57:21.518738+05:30
Dehradun,Uttarakhand,30.6284,78.0322,14.6,84,0.0,824.6,8.25,44.3,78,26.2,21.4,26.2,275.0,56.0,2.4,3,10,7,0,2026-06-08T00:57:21.518763+05:30
Shimla,Himachal Pradesh,31.1048,77.1734,15.1,53,0.0,780.6,8.35,43.2,106,22.6,17.6,17.3,248.0,91.0,3.1,0,5,7,0,2026-06-08T00:57:21.518772+05:30
Manali,Himachal Pradesh,32.2396,77.1887,12.1,67,0.0,812.7,9.35,34.6,68,4.6,4.3,33.0,262.0,83.0,0.0,3,5,7,0,2026-06-08T00:57:21.518779+05:30
Gurgaon,Haryana,28.4595,77.0266,30.2,54,0.0,974.7,7.85,38.9,487,243.1,81.5,42.3,864.0,27.0,16.2,0,5,7,1,2026-06-08T00:57:21.518785+05:30
Noida,Uttar Pradesh,28.5355,77.391,28.5,65,0.0,977.6,7.8,29.2,487,243.1,81.5,42.3,733.0,27.0,16.2,7,5,7,1,2026-06-08T00:57:21.518792+05:30
Ghaziabad,Uttar Pradesh,28.6692,77.4538,29.3,62,0.0,975.8,7.75,34.9,198,303.6,96.4,48.0,754.0,32.0,24.7,7,5,7,1,2026-06-08T00:57:21.518799+05:30
Faridabad,Haryana,28.4089,77.3178,29.2,65,0.0,976.8,7.8,42.1,487,243.1,81.5,42.3,783.0,27.0,16.2,7,5,7,1,2026-06-08T00:57:21.518806+05:30
Meerut,Uttar Pradesh,28.9845,77.7064,28.9,58,0.0,974.5,7.7,32.4,198,303.6,96.4,48.0,701.0,32.0,24.7,4,5,7,1,2026-06-08T00:57:21.518815+05:30
Agra,Uttar Pradesh,27.1767,78.0081,32.5,38,0.0,981.5,8.15,37.4,445,214.7,77.1,41.0,542.0,31.0,13.3,0,5,7,1,2026-06-08T00:57:21.518821+05:30
Varanasi,Uttar Pradesh,25.3176,82.9739,31.9,47,0.0,991.8,8.8,41.0,147,82.4,47.1,27.8,534.0,56.0,11.5,0,5,7,1,2026-06-08T00:57:21.518828+05:30
Prayagraj,Uttar Pradesh,25.4358,81.8463,32.5,45,0.0,990.3,8.3,36.0,157,67.8,38.2,17.2,641.0,56.0,6.5,0,5,7,1,2026-06-08T00:57:21.518835+05:30
Gorakhpur,Uttar Pradesh,26.7606,83.3732,29.0,73,0.0,991.5,8.7,34.9,137,63.3,50.4,20.9,744.0,76.0,8.3,7,5,7,1,2026-06-08T00:57:21.518844+05:30
Bareilly,Uttar Pradesh,28.367,79.4304,30.2,51,0.0,980.2,8.1,33.1,135,154.6,73.8,31.8,408.0,58.0,12.3,0,5,7,1,2026-06-08T00:57:21.518850+05:30
Aligarh,Uttar Pradesh,27.8974,78.088,30.2,51,0.0,979.0,7.9,32.8,410,198.4,77.5,45.1,293.0,19.0,10.1,0,5,7,1,2026-06-08T00:57:21.518856+05:30
Moradabad,Uttar Pradesh,28.8386,78.7733,30.3,50,0.0,976.9,7.9,36.7,156,185.3,106.9,60.4,677.0,24.0,18.5,0,5,7,1,2026-06-08T00:57:21.518862+05:30
Saharanpur,Uttar Pradesh,29.9637,77.546,27.4,65,0.0,968.7,7.45,28.4,130,75.0,58.2,33.6,560.0,72.0,14.0,7,5,7,1,2026-06-08T00:57:21.518868+05:30
Jhansi,Uttar Pradesh,25.4484,78.5685,30.9,45,0.0,972.9,7.95,42.1,99,49.4,27.1,10.4,211.0,48.0,3.6,0,5,7,1,2026-06-08T00:57:24.762434+05:30
Surat,Gujarat,21.1702,72.8311,30.3,77,0.0,1004.4,7.6,50.4,83,44.4,21.4,13.5,185.0,42.0,23.2,3,5,4,1,2026-06-08T00:57:24.762474+05:30
Vadodara,Gujarat,22.3072,73.1812,31.1,71,0.0,1001.1,8.05,48.2,81,34.7,19.7,14.6,160.0,37.0,17.1,3,5,4,1,2026-06-08T00:57:24.762485+05:30
Rajkot,Gujarat,22.3039,70.8022,30.0,69,0.0,991.0,7.6,49.7,67,45.1,20.3,4.4,111.0,55.0,5.1,7,5,7,1,2026-06-08T00:57:24.762493+05:30
Thane,Maharashtra,19.2183,72.9781,27.6,91,0.1,1006.7,7.65,42.5,71,61.0,19.0,4.9,159.0,51.0,4.4,10,5,4,1,2026-06-08T00:57:24.762501+05:30
Nagpur,Maharashtra,21.1458,79.0882,34.0,39,0.0,969.7,7.6,36.4,104,63.6,38.0,12.7,220.0,67.0,10.5,0,5,7,1,2026-06-08T00:57:24.762509+05:30
Nashik,Maharashtra,19.9975,73.7898,25.8,83,0.0,944.4,8.05,50.0,64,27.0,11.9,5.3,118.0,47.0,3.6,7,5,7,1,2026-06-08T00:57:24.762516+05:30
Aurangabad,Maharashtra,19.8762,75.3433,28.7,60,0.0,943.0,8.15,47.9,68,42.4,20.1,5.4,125.0,56.0,5.8,4,5,7,1,2026-06-08T00:57:24.762524+05:30
Solapur,Maharashtra,17.6599,75.9064,29.5,60,0.0,956.4,7.1,40.7,61,17.0,11.6,7.8,194.0,49.0,2.6,4,5,7,1,2026-06-08T00:57:24.762532+05:30
Kolhapur,Maharashtra,16.705,74.2433,24.4,91,0.0,947.5,5.3,41.0,32,11.1,6.0,4.0,124.0,46.0,1.9,3,5,3,1,2026-06-08T00:57:24.762540+05:30
Goa,Goa,15.2993,74.124,25.4,98,0.0,998.4,2.2,19.8,35,13.0,7.4,2.9,207.0,59.0,1.1,7,5,3,1,2026-06-08T00:57:24.762547+05:30
Jodhpur,Rajasthan,26.2389,73.0243,34.1,46,0.0,977.6,8.4,38.2,140,166.2,43.1,4.2,133.0,57.0,2.1,0,5,7,1,2026-06-08T00:57:24.762554+05:30
Udaipur,Rajasthan,24.5854,73.7125,30.2,58,0.0,943.5,8.8,38.5,75,48.7,24.4,4.9,155.0,66.0,4.1,0,5,7,1,2026-06-08T00:57:24.762561+05:30
Kota,Rajasthan,25.2138,75.8648,32.1,49,0.0,974.2,8.4,38.5,109,49.9,29.9,9.1,223.0,62.0,6.5,0,5,7,1,2026-06-08T00:57:24.762569+05:30
Bikaner,Rajasthan,28.0229,73.3119,32.7,39,0.0,974.9,8.45,36.7,145,345.5,104.8,2.1,175.0,66.0,2.9,0,5,7,1,2026-06-08T00:57:24.762576+05:30
Ajmer,Rajasthan,26.4499,74.6399,29.8,56,0.1,950.6,8.35,47.2,92,65.2,26.1,4.8,170.0,66.0,3.8,7,5,7,1,2026-06-08T00:57:24.762583+05:30
Gwalior,Madhya Pradesh,26.2183,78.1828,32.0,39,0.0,977.6,8.25,47.2,110,56.9,29.2,11.5,176.0,49.0,4.5,0,5,7,1,2026-06-08T00:57:24.762591+05:30
Indore,Madhya Pradesh,22.7196,75.8577,29.6,55,0.0,945.5,8.65,41.8,93,48.8,31.7,7.5,277.0,73.0,7.7,4,5,7,1,2026-06-08T00:57:24.762597+05:30
Bhopal,Madhya Pradesh,23.2599,77.4126,28.8,63,0.0,949.9,8.7,37.8,105,68.7,43.0,18.2,344.0,42.0,6.5,7,5,7,1,2026-06-08T00:57:24.762605+05:30
Jabalpur,Madhya Pradesh,23.1815,79.9864,30.9,50,0.0,958.0,8.9,36.4,114,83.4,45.2,20.3,195.0,49.0,6.2,0,5,7,1,2026-06-08T00:57:24.762612+05:30
Ujjain,Madhya Pradesh,23.1765,75.7885,29.5,57,0.0,950.9,8.6,43.6,90,48.1,29.8,4.3,225.0,78.0,7.0,4,5,7,1,2026-06-08T00:57:24.762620+05:30
Visakhapatnam,Andhra Pradesh,17.6868,83.2185,29.7,83,0.0,1000.0,8.35,41.4,92,32.6,25.6,13.2,246.0,98.0,23.6,7,5,4,1,2026-06-08T00:57:24.762627+05:30
Vijayawada,Andhra Pradesh,16.5062,80.648,28.6,92,0.1,1000.2,8.75,45.4,79,18.3,16.0,5.2,203.0,95.0,4.3,10,5,4,1,2026-06-08T00:57:24.762634+05:30
Guntur,Andhra Pradesh,16.3067,80.4365,28.0,91,0.1,1001.8,8.25,45.4,81,23.0,19.2,6.4,201.0,88.0,3.3,10,5,4,1,2026-06-08T00:57:24.762641+05:30
Nellore,Andhra Pradesh,14.4426,79.9865,31.4,60,0.0,1003.8,8.3,40.7,54,12.2,10.3,5.2,184.0,75.0,2.8,0,5,4,1,2026-06-08T00:57:24.762649+05:30
Kurnool,Andhra Pradesh,15.8281,78.0373,25.1,93,0.1,976.4,8.2,40.0,64,17.6,13.7,7.9,167.0,68.0,4.8,10,5,7,1,2026-06-08T00:57:24.762656+05:30
Kakinada,Andhra Pradesh,16.9891,82.2475,29.9,84,0.0,1004.0,9.05,40.3,85,25.5,18.2,1.9,218.0,111.0,3.1,7,5,4,1,2026-06-08T00:57:24.762663+05:30
Tirupati,Andhra Pradesh,13.6288,79.4192,29.8,59,0.0,989.6,7.2,40.3,41,12.0,11.0,13.3,202.0,43.0,2.1,4,5,7,1,2026-06-08T00:57:24.762670+05:30
Warangal,Telangana,17.9689,79.5941,29.3,65,0.2,975.9,7.6,38.5,103,44.1,34.2,13.1,249.0,59.0,5.0,10,5,7,1,2026-06-08T00:57:24.762676+05:30
Nizamabad,Telangana,18.6725,78.0941,29.8,57,0.0,962.2,6.2,41.0,92,65.2,45.1,18.4,190.0,59.0,6.1,4,5,7,1,2026-06-08T00:57:24.762683+05:30
Mysore,Karnataka,12.2958,76.6396,22.0,93,0.0,929.0,4.4,50.0,21,3.2,3.1,6.5,144.0,41.0,1.7,3,5,3,1,2026-06-08T00:57:24.762690+05:30
Mangalore,Karnataka,12.9141,74.856,24.5,99,0.1,1008.1,4.0,32.0,26,14.3,11.9,9.2,195.0,44.0,3.2,6,0,0,1,2026-06-08T00:57:24.762696+05:30
Hubli-Dharwad,Karnataka,15.3647,75.124,22.8,98,0.0,940.6,5.0,41.8,28,1.3,1.3,3.2,118.0,54.0,1.0,3,5,3,1,2026-06-08T00:57:24.762703+05:30
Belgaum,Karnataka,15.8497,74.4977,22.2,98,0.0,925.3,1.6,34.9,26,2.5,1.8,2.8,120.0,54.0,1.4,3,5,3,1,2026-06-08T00:57:27.998796+05:30
Coimbatore,Tamil Nadu,11.0168,76.9558,23.2,94,0.0,962.3,4.9,56.2,21,1.8,1.7,4.2,143.0,41.0,1.8,3,5,3,1,2026-06-08T00:57:27.998832+05:30
Madurai,Tamil Nadu,9.9252,78.1198,29.7,63,0.0,993.9,6.5,61.9,25,4.4,3.8,5.2,146.0,41.0,2.3,7,5,7,1,2026-06-08T00:57:27.998844+05:30
Trichy,Tamil Nadu,10.7905,78.7047,30.3,58,0.0,999.9,8.0,64.8,25,3.6,3.3,6.2,124.0,37.0,2.7,0,5,7,1,2026-06-08T00:57:27.998853+05:30
Salem,Tamil Nadu,11.6643,78.146,27.1,73,0.0,978.0,7.35,37.4,27,8.5,7.9,12.7,174.0,35.0,5.3,7,5,7,1,2026-06-08T00:57:27.998862+05:30
Tirunelveli,Tamil Nadu,8.7139,77.7567,27.7,75,0.0,1005.2,8.05,50.0,20,4.6,3.5,5.2,125.0,36.0,1.2,7,5,4,1,2026-06-08T00:57:27.998870+05:30
Vellore,Tamil Nadu,12.9165,79.1325,30.0,56,0.0,983.5,8.3,52.2,28,8.3,7.8,10.7,228.0,42.0,3.9,4,5,7,1,2026-06-08T00:57:27.998877+05:30
Erode,Tamil Nadu,11.341,77.7172,26.3,78,0.0,989.6,5.25,50.8,25,4.9,4.6,7.8,143.0,38.0,2.9,7,5,3,1,2026-06-08T00:57:27.998885+05:30
Kochi,Kerala,9.9312,76.2673,26.3,92,0.1,1010.8,7.55,44.3,31,7.7,5.4,6.1,96.0,40.0,1.9,10,0,4,1,2026-06-08T00:57:27.998892+05:30
Thiruvananthapuram,Kerala,8.5241,76.9366,25.0,95,0.1,1011.3,6.7,53.3,27,11.6,5.8,1.3,86.0,51.0,0.4,10,0,4,1,2026-06-08T00:57:27.998899+05:30
Kozhikode,Kerala,11.2588,75.7804,25.0,98,0.4,1009.8,3.5,30.2,27,6.1,3.1,0.7,191.0,58.0,0.4,10,0,0,1,2026-06-08T00:57:27.998906+05:30
Thrissur,Kerala,10.5276,76.2144,24.8,99,0.3,1009.2,3.25,37.1,30,8.2,6.3,6.5,236.0,38.0,2.0,6,0,0,1,2026-06-08T00:57:27.998913+05:30
Kannur,Kerala,11.8745,75.3704,24.9,97,0.2,1009.1,6.45,33.8,23,13.1,10.4,10.2,216.0,43.0,2.5,6,0,4,1,2026-06-08T00:57:27.998920+05:30
Patna,Bihar,25.5941,85.1376,29.4,81,0.0,994.7,8.9,29.5,157,97.1,77.8,26.2,517.0,70.0,15.5,7,5,7,1,2026-06-08T00:57:27.998927+05:30
Gaya,Bihar,24.7914,85.0002,29.5,65,0.0,988.3,8.95,31.0,156,100.8,77.5,29.6,673.0,48.0,10.1,7,5,7,1,2026-06-08T00:57:27.998934+05:30
Muzaffarpur,Bihar,26.1209,85.3647,29.3,79,0.0,994.8,8.9,27.4,154,81.7,67.1,20.6,554.0,80.0,15.2,7,5,7,1,2026-06-08T00:57:27.998941+05:30
Bhagalpur,Bihar,25.2425,87.0117,28.8,74,0.0,995.8,8.85,26.6,154,71.0,68.2,12.4,405.0,112.0,26.9,7,5,7,1,2026-06-08T00:57:27.998947+05:30
Ranchi,Jharkhand,23.3441,85.3096,24.1,91,0.0,933.9,9.15,27.7,153,131.8,93.1,38.0,268.0,59.0,13.7,3,5,7,1,2026-06-08T00:57:27.998954+05:30
Jamshedpur,Jharkhand,22.8046,86.2029,26.9,90,0.0,986.6,8.4,27.0,163,85.7,75.9,30.0,735.0,53.0,20.1,7,5,7,1,2026-06-08T00:57:27.998961+05:30
Dhanbad,Jharkhand,23.7957,86.4304,26.6,89,0.0,975.8,9.05,31.7,174,121.1,111.3,54.1,1459.0,58.0,181.4,7,5,7,1,2026-06-08T00:57:27.998968+05:30
Bokaro,Jharkhand,23.6693,86.1511,26.9,86,0.0,979.6,9.05,26.3,167,129.5,115.5,54.4,519.0,53.0,170.9,7,5,7,1,2026-06-08T00:57:27.998976+05:30
Bhubaneswar,Odisha,20.2961,85.8245,28.5,86,0.0,997.8,9.05,24.5,129,46.3,39.7,16.0,543.0,69.0,8.7,7,5,7,1,2026-06-08T00:57:27.998983+05:30
Cuttack,Odisha,20.4625,85.8828,28.1,92,0.0,999.7,9.05,24.1,129,46.3,39.7,16.0,490.0,69.0,8.7,7,5,7,1,2026-06-08T00:57:27.998990+05:30
Rourkela,Odisha,22.2604,84.8536,28.6,71,0.0,980.7,8.65,31.0,153,108.7,66.6,23.6,650.0,67.0,17.7,7,5,7,1,2026-06-08T00:57:27.998997+05:30
Raipur,Chhattisgarh,21.2514,81.6296,35.4,32,0.0,970.2,8.8,28.8,140,75.7,53.0,43.4,621.0,45.0,65.1,0,5,10,1,2026-06-08T00:57:27.999003+05:30
Bhilai,Chhattisgarh,21.1938,81.3509,33.2,41,0.0,970.5,8.2,32.0,141,75.0,51.1,33.2,837.0,47.0,39.5,0,5,7,1,2026-06-08T00:57:27.999010+05:30
Guwahati,Assam,26.1158,91.7086,25.9,93,0.0,996.6,8.8,32.0,127,27.6,26.1,5.4,381.0,93.0,3.7,7,5,7,1,2026-06-08T00:57:27.999017+05:30
Agartala,Tripura,23.8315,91.2868,26.1,97,0.0,1002.3,7.9,38.5,112,35.7,34.6,22.5,220.0,34.0,4.0,7,5,4,1,2026-06-08T00:57:27.999024+05:30
Shillong,Meghalaya,25.5788,91.8933,19.9,92,0.0,854.4,8.1,23.4,90,10.1,9.0,3.6,252.0,115.0,5.1,3,10,7,1,2026-06-08T00:57:27.999030+05:30
Imphal,Manipur,24.817,93.9368,23.3,95,0.0,919.6,8.3,34.2,66,21.0,19.7,7.9,315.0,54.0,2.9,3,5,7,1,2026-06-08T00:57:27.999037+05:30
Aizawl,Mizoram,23.7271,92.7176,19.7,94,0.1,889.6,5.05,34.2,70,12.4,10.9,3.1,186.0,57.0,0.9,6,10,3,1,2026-06-08T00:57:27.999043+05:30
Kohima,Nagaland,25.6701,94.1077,18.8,95,0.0,851.9,8.95,20.9,70,11.4,9.8,4.6,341.0,70.0,1.6,3,10,7,1,2026-06-08T00:57:27.999050+05:30
Gangtok,Sikkim,27.3314,88.6138,17.2,95,0.2,834.3,9.15,37.4,76,28.0,25.7,12.6,523.0,81.0,2.0,6,10,7,1,2026-06-08T00:57:27.999057+05:30
Siliguri,West Bengal,26.7271,88.3953,25.4,90,0.1,988.2,8.8,20.9,115,55.8,52.4,14.3,579.0,103.0,6.8,10,5,7,1,2026-06-08T00:57:31.287213+05:30
Durgapur,West Bengal,23.5204,87.3119,26.7,86,0.0,990.6,9.0,21.2,173,95.5,91.0,32.9,681.0,55.0,38.1,7,5,7,1,2026-06-08T00:57:31.287248+05:30
Asansol,West Bengal,23.6739,86.9524,27.0,88,0.0,989.3,9.0,23.8,171,87.8,81.7,29.5,649.0,71.0,37.7,7,5,7,1,2026-06-08T00:57:31.287259+05:30
Pondicherry,Puducherry,11.9139,79.8145,31.1,54,0.0,1007.1,7.3,40.3,47,15.1,13.1,15.5,265.0,37.0,7.7,0,5,4,1,2026-06-08T00:57:31.287268+05:30
Port Blair,Andaman and Nicobar Islands,11.6234,92.7265,27.9,88,0.0,1007.4,8.2,49.0,23,11.2,6.6,0.3,87.0,54.0,0.5,7,5,4,1,2026-06-08T00:57:31.287276+05:30
Haridwar,Uttarakhand,29.9457,78.1642,24.8,70,0.0,967.3,7.6,26.6,102,67.3,56.1,28.4,395.0,65.0,12.0,3,5,7,1,2026-06-08T00:57:31.287284+05:30
Rishikesh,Uttarakhand,30.0869,78.2676,22.0,76,0.0,959.7,7.7,26.6,111,50.2,38.8,17.9,357.0,95.0,8.6,3,5,7,1,2026-06-08T00:57:31.287292+05:30
Nainital,Uttarakhand,29.3919,79.4542,15.2,74,0.0,801.1,8.55,42.1,97,49.8,37.3,15.0,315.0,97.0,6.4,3,5,7,0,2026-06-08T00:57:31.287299+05:30
Mussoorie,Uttarakhand,30.4599,78.0664,17.4,55,0.0,799.7,8.1,43.9,105,55.9,44.8,29.3,303.0,77.0,10.5,0,5,7,0,2026-06-08T00:57:31.287307+05:30
Dharamshala,Himachal Pradesh,32.219,76.3234,21.9,51,0.0,864.8,8.5,43.6,50,14.6,13.2,15.2,212.0,30.0,0.5,0,5,7,0,2026-06-08T00:57:31.287314+05:30
Dalhousie,Himachal Pradesh,32.5387,75.971,13.4,74,0.0,798.6,8.75,38.5,67,27.0,24.6,33.1,341.0,24.0,1.9,3,5,7,0,2026-06-08T00:57:31.287322+05:30
Patiala,Punjab,30.3398,76.3869,30.5,39,0.0,971.1,7.7,33.8,152,104.8,65.4,27.7,581.0,61.0,10.7,0,5,7,0,2026-06-08T00:57:31.287329+05:30
Bhatinda,Punjab,30.211,74.9455,32.4,35,0.0,976.7,8.3,28.1,132,67.1,52.3,38.9,370.0,51.0,10.9,0,5,7,0,2026-06-08T00:57:31.287336+05:30
Rohtak,Haryana,28.8955,76.6066,30.0,50,0.0,974.7,7.8,30.6,308,254.3,80.3,45.8,602.0,23.0,8.7,4,5,7,1,2026-06-08T00:57:31.287343+05:30
Panipat,Haryana,29.3909,76.9635,28.8,64,0.0,973.2,7.65,30.2,550,419.1,102.7,32.4,798.0,44.0,8.6,7,5,7,1,2026-06-08T00:57:31.287351+05:30
Mathura,Uttar Pradesh,27.4924,77.6737,30.4,48,0.0,980.3,8.05,32.8,292,152.3,59.6,47.8,287.0,16.0,8.3,0,5,7,1,2026-06-08T00:57:31.287358+05:30
Vrindavan,Uttar Pradesh,27.5823,77.7027,30.9,45,0.0,980.7,8.05,34.6,292,152.3,59.6,47.8,345.0,16.0,8.3,0,5,7,1,2026-06-08T00:57:31.287365+05:30
Ayodhya,Uttar Pradesh,26.7922,82.1998,29.7,67,0.0,989.3,8.45,32.4,142,158.8,63.8,21.5,630.0,62.0,8.9,7,5,7,1,2026-06-08T00:57:31.287372+05:30
Ratlam,Madhya Pradesh,23.3315,75.0367,29.0,57,0.0,952.1,8.5,43.9,87,48.2,29.3,4.0,190.0,79.0,8.0,4,5,7,1,2026-06-08T00:57:31.287379+05:30
Sagar,Madhya Pradesh,23.8388,78.7378,29.1,58,0.0,946.7,8.75,40.7,102,44.9,27.7,8.2,191.0,69.0,4.4,4,5,7,1,2026-06-08T00:57:31.287386+05:30
Satna,Madhya Pradesh,24.6005,80.8322,30.7,41,0.0,966.8,8.85,36.0,121,76.1,36.9,13.8,232.0,56.0,3.4,0,5,7,0,2026-06-08T00:57:31.287392+05:30
Akola,Maharashtra,20.7002,77.0082,32.5,46,0.0,971.9,8.8,38.9,90,55.8,30.9,15.3,194.0,55.0,6.6,0,5,7,1,2026-06-08T00:57:31.287400+05:30
Amravati,Maharashtra,20.9374,77.7796,32.2,51,0.0,964.2,8.75,36.7,97,65.7,36.8,21.0,227.0,43.0,6.4,0,5,7,1,2026-06-08T00:57:31.287408+05:30
Latur,Maharashtra,18.4088,76.5604,28.1,60,0.0,938.3,8.9,43.9,80,27.4,18.5,6.3,169.0,71.0,3.9,4,5,7,1,2026-06-08T00:57:31.287415+05:30
Nanded,Maharashtra,19.1383,77.3091,32.5,42,0.0,965.8,8.35,48.2,89,78.5,44.4,18.4,296.0,49.0,6.3,0,5,7,1,2026-06-08T00:57:31.287421+05:30
Gulbarga,Karnataka,17.3297,76.8343,26.4,77,0.0,957.7,6.35,37.4,60,17.5,12.0,6.7,174.0,65.0,2.3,7,5,7,1,2026-06-08T00:57:31.287426+05:30
Bidar,Karnataka,17.9104,77.5199,25.4,80,0.0,934.0,4.45,42.8,87,34.0,24.4,20.9,197.0,56.0,5.2,7,5,3,1,2026-06-08T00:57:31.287433+05:30
Hospet,Karnataka,15.2689,76.3909,23.9,95,0.0,955.8,5.25,44.6,33,4.5,3.9,5.6,140.0,47.0,1.2,3,5,3,1,2026-06-08T00:57:31.287439+05:30
Tirupur,Tamil Nadu,11.1085,77.3411,24.8,85,0.0,975.7,5.45,59.0,24,5.3,4.9,8.5,130.0,37.0,3.3,3,5,3,1,2026-06-08T00:57:31.287445+05:30
Alappuzha,Kerala,9.4981,76.3388,26.3,92,0.1,1011.1,6.95,46.1,28,10.1,5.9,2.6,86.0,49.0,0.8,10,0,4,1,2026-06-08T00:57:31.287452+05:30
Munnar,Kerala,10.0889,77.0595,17.5,100,0.6,857.6,4.4,47.5,19,2.3,2.2,6.9,103.0,26.0,1.4,6,10,3,1,2026-06-08T00:57:31.287459+05:30
Silchar,Assam,24.8333,92.7789,25.1,98,0.0,1001.7,8.8,34.9,91,41.4,35.7,6.5,258.0,107.0,4.6,7,5,4,1,2026-06-08T00:57:31.287465+05:30
Dibrugarh,Assam,27.4728,94.912,24.9,98,0.2,990.7,8.2,27.0,77,31.8,28.6,6.5,304.0,92.0,1.9,6,5,7,1,2026-06-08T00:57:31.287472+05:30
