city,state,latitude,longitude,temp,humidity,rain,pressure,uv_index,wind_gusts,aqi,pm10,pm2_5,mosquito_risk,arthritis_risk,migraine_risk,frizz_risk,updated_at
Delhi,Delhi,28.6139,77.209,20.7,82,0.0,984.9,5.6,29.2,385,166.2,44.6,3,5,3,1,2026-04-04T05:07:42.795075+05:30
Mumbai,Maharashtra,19.076,72.8777,27.2,80,0.0,1009.2,7.9,20.9,78,45.5,22.3,7,0,4,1,2026-04-04T05:07:42.795145+05:30
Bangalore,Karnataka,12.9716,77.5946,21.8,84,0.0,911.7,9.05,25.9,84,21.5,20.7,3,5,7,1,2026-04-04T05:07:42.795163+05:30
Hyderabad,Telangana,17.385,78.4867,24.5,77,0.0,953.2,8.1,28.8,69,19.7,17.2,3,5,7,1,2026-04-04T05:07:42.795174+05:30
Chennai,Tamil Nadu,13.0827,80.2707,27.1,85,0.0,1007.1,8.75,37.8,46,14.7,11.3,7,5,4,1,2026-04-04T05:07:42.795184+05:30
Kolkata,West Bengal,22.5726,88.3639,26.5,96,0.0,1005.1,8.6,19.1,71,21.6,19.2,7,5,4,1,2026-04-04T05:07:42.795194+05:30
Pune,Maharashtra,18.5204,73.8567,20.5,84,0.0,948.6,8.5,39.2,112,46.8,39.1,3,5,7,1,2026-04-04T05:07:42.795206+05:30
Ahmedabad,Gujarat,23.0225,72.5714,24.0,69,0.0,1003.5,7.65,23.0,64,19.3,9.2,3,5,4,1,2026-04-04T05:07:42.795214+05:30
Jaipur,Rajasthan,26.9124,75.7873,21.8,79,0.0,961.2,7.0,29.2,102,68.0,28.3,3,5,7,1,2026-04-04T05:07:42.795222+05:30
Lucknow,Uttar Pradesh,26.8467,80.9462,23.7,70,0.0,994.0,6.5,40.0,135,310.1,84.5,3,5,7,1,2026-04-04T05:07:42.795230+05:30
Kanpur,Uttar Pradesh,26.4499,80.3319,23.3,77,0.0,992.5,5.95,30.6,196,564.4,110.8,3,5,3,1,2026-04-04T05:07:42.795238+05:30
Chandigarh,Chandigarh,30.7333,76.7794,18.3,88,0.0,970.5,5.6,34.6,89,83.6,34.5,3,10,3,1,2026-04-04T05:07:42.795246+05:30
Srinagar,Jammu and Kashmir,34.0837,74.7973,8.1,93,0.0,840.8,6.25,27.4,78,20.2,17.9,3,10,7,0,2026-04-04T05:07:42.795252+05:30
Jammu,Jammu and Kashmir,32.7266,74.857,17.7,83,0.0,975.3,6.85,31.0,62,36.4,13.2,3,10,7,0,2026-04-04T05:07:42.795260+05:30
Amritsar,Punjab,31.634,74.8723,16.7,97,0.0,983.5,7.15,31.7,78,61.2,29.7,3,10,7,1,2026-04-04T05:07:42.795266+05:30
Ludhiana,Punjab,30.901,75.8573,18.1,89,0.0,981.0,6.15,23.8,121,159.3,53.2,3,10,7,1,2026-04-04T05:07:42.795273+05:30
Jalandhar,Punjab,31.326,75.5762,17.3,89,0.0,982.2,6.5,33.5,95,106.2,39.5,3,10,7,0,2026-04-04T05:07:42.795281+05:30
Dehradun,Uttarakhand,30.6284,78.0322,13.5,69,0.0,830.0,5.4,34.2,41,17.6,10.0,3,5,3,0,2026-04-04T05:07:42.795299+05:30
Shimla,Himachal Pradesh,31.1048,77.1734,11.6,65,0.0,783.4,4.5,48.6,53,25.9,15.5,3,5,3,0,2026-04-04T05:07:42.795307+05:30
Manali,Himachal Pradesh,32.2396,77.1887,12.9,69,0.0,818.7,6.7,29.9,49,2.2,1.3,3,5,7,0,2026-04-04T05:07:42.795315+05:30
Gurgaon,Haryana,28.4595,77.0266,19.8,86,0.0,983.4,5.9,26.6,794,140.2,48.3,3,10,3,1,2026-04-04T05:07:42.795323+05:30
Noida,Uttar Pradesh,28.5355,77.391,20.5,83,0.0,986.4,5.8,29.5,794,140.2,48.3,3,5,3,1,2026-04-04T05:07:42.795330+05:30
Ghaziabad,Uttar Pradesh,28.6692,77.4538,19.7,87,0.0,984.5,5.75,34.6,329,179.3,43.2,3,10,3,1,2026-04-04T05:07:42.795336+05:30
Faridabad,Haryana,28.4089,77.3178,19.7,85,0.0,985.7,5.75,22.7,794,140.2,48.3,3,10,3,1,2026-04-04T05:07:42.795342+05:30
Meerut,Uttar Pradesh,28.9845,77.7064,19.7,91,0.0,982.8,5.75,36.4,329,179.3,43.2,3,10,3,1,2026-04-04T05:07:42.795348+05:30
Agra,Uttar Pradesh,27.1767,78.0081,21.1,79,0.0,990.5,6.05,34.6,855,413.5,70.3,3,5,7,1,2026-04-04T05:07:42.795355+05:30
Varanasi,Uttar Pradesh,25.3176,82.9739,23.5,82,0.0,997.7,6.75,51.1,79,26.0,22.2,3,5,7,1,2026-04-04T05:07:42.795364+05:30
Prayagraj,Uttar Pradesh,25.4358,81.8463,24.5,77,0.0,996.4,4.95,34.2,77,24.3,20.8,3,5,3,1,2026-04-04T05:07:42.795371+05:30
Gorakhpur,Uttar Pradesh,26.7606,83.3732,22.5,74,0.0,996.5,6.95,43.2,72,70.1,35.3,3,5,7,1,2026-04-04T05:07:42.795376+05:30
Bareilly,Uttar Pradesh,28.367,79.4304,22.0,80,0.0,987.6,5.15,32.8,121,105.0,47.1,3,5,3,1,2026-04-04T05:07:42.795382+05:30
Aligarh,Uttar Pradesh,27.8974,78.088,20.6,80,0.0,987.5,5.5,25.6,811,312.9,61.9,3,5,3,1,2026-04-04T05:07:42.795389+05:30
Moradabad,Uttar Pradesh,28.8386,78.7733,21.1,85,0.0,984.6,5.25,35.3,152,118.3,48.1,3,5,3,1,2026-04-04T05:07:42.795395+05:30
Saharanpur,Uttar Pradesh,29.9637,77.546,20.1,87,0.0,977.1,6.15,33.1,152,260.8,80.8,3,5,7,1,2026-04-04T05:07:42.795402+05:30
Jhansi,Uttar Pradesh,25.4484,78.5685,24.6,63,0.0,978.2,6.8,37.4,56,53.6,19.4,3,5,7,1,2026-04-04T05:07:46.095635+05:30
Surat,Gujarat,21.1702,72.8311,26.3,84,0.0,1007.4,7.55,27.0,90,25.8,21.1,7,5,4,1,2026-04-04T05:07:46.095674+05:30
Vadodara,Gujarat,22.3072,73.1812,25.6,93,0.0,1005.2,7.85,22.7,79,42.3,29.0,7,5,4,1,2026-04-04T05:07:46.095685+05:30
Rajkot,Gujarat,22.3039,70.8022,21.7,93,0.0,995.4,7.55,32.8,53,21.4,11.1,3,5,7,1,2026-04-04T05:07:46.095694+05:30
Thane,Maharashtra,19.2183,72.9781,24.9,90,0.0,1008.8,7.9,37.8,78,45.5,22.3,3,0,4,1,2026-04-04T05:07:46.095703+05:30
Nagpur,Maharashtra,21.1458,79.0882,25.1,70,0.0,973.7,7.1,37.8,82,32.1,28.5,7,5,7,1,2026-04-04T05:07:46.095710+05:30
Nashik,Maharashtra,19.9975,73.7898,20.0,84,0.0,945.9,8.15,37.1,62,42.5,21.6,3,5,7,1,2026-04-04T05:07:46.095718+05:30
Aurangabad,Maharashtra,19.8762,75.3433,24.8,57,0.0,945.1,8.8,43.6,82,31.4,15.4,0,5,7,0,2026-04-04T05:07:46.095726+05:30
Solapur,Maharashtra,17.6599,75.9064,24.3,79,0.0,957.7,8.95,25.9,86,29.6,27.7,3,5,7,1,2026-04-04T05:07:46.095734+05:30
Kolhapur,Maharashtra,16.705,74.2433,19.2,100,0.0,948.1,8.25,38.5,110,47.4,44.9,3,10,7,1,2026-04-04T05:07:46.095741+05:30
Goa,Goa,15.2993,74.124,26.6,80,0.0,998.3,8.75,32.8,71,34.2,28.8,7,5,7,1,2026-04-04T05:07:46.095749+05:30
Jodhpur,Rajasthan,26.2389,73.0243,20.9,72,0.0,984.5,7.65,28.8,113,156.0,26.4,3,5,7,0,2026-04-04T05:07:46.095756+05:30
Udaipur,Rajasthan,24.5854,73.7125,20.2,77,0.0,946.8,8.3,37.4,57,39.6,15.5,3,5,7,1,2026-04-04T05:07:46.095763+05:30
Kota,Rajasthan,25.2138,75.8648,24.7,67,0.0,980.1,7.8,36.4,59,48.7,24.3,3,5,7,1,2026-04-04T05:07:46.095770+05:30
Bikaner,Rajasthan,28.0229,73.3119,19.3,79,0.0,983.5,7.05,25.9,65,50.6,25.1,3,5,7,0,2026-04-04T05:07:46.095778+05:30
Ajmer,Rajasthan,26.4499,74.6399,20.8,77,0.0,955.6,7.3,36.4,87,67.1,27.6,3,5,7,1,2026-04-04T05:07:46.095785+05:30
Gwalior,Madhya Pradesh,26.2183,78.1828,23.9,62,0.0,984.4,7.15,27.4,74,299.9,51.3,3,5,7,1,2026-04-04T05:07:46.095790+05:30
Indore,Madhya Pradesh,22.7196,75.8577,21.9,74,0.0,948.6,8.3,36.7,67,34.8,20.4,3,5,7,1,2026-04-04T05:07:46.095796+05:30
Bhopal,Madhya Pradesh,23.2599,77.4126,23.9,62,0.0,954.2,8.3,33.8,64,24.3,21.4,3,5,7,1,2026-04-04T05:07:46.095801+05:30
Jabalpur,Madhya Pradesh,23.1815,79.9864,26.1,62,0.0,962.1,5.05,31.7,74,35.4,30.7,7,5,3,1,2026-04-04T05:07:46.095807+05:30
Ujjain,Madhya Pradesh,23.1765,75.7885,22.3,72,0.0,954.5,8.2,37.8,66,42.7,25.3,3,5,7,1,2026-04-04T05:07:46.095813+05:30
Visakhapatnam,Andhra Pradesh,17.6868,83.2185,26.0,90,0.0,1003.8,8.15,37.8,60,16.7,14.9,7,5,4,1,2026-04-04T05:07:46.095819+05:30
Vijayawada,Andhra Pradesh,16.5062,80.648,25.7,88,0.0,1002.9,8.5,18.0,43,11.6,10.3,7,5,4,1,2026-04-04T05:07:46.095826+05:30
Guntur,Andhra Pradesh,16.3067,80.4365,25.7,91,0.0,1003.9,8.55,21.6,39,10.4,9.2,7,5,4,1,2026-04-04T05:07:46.095831+05:30
Nellore,Andhra Pradesh,14.4426,79.9865,26.4,86,0.0,1005.7,8.55,30.2,41,13.9,11.9,7,5,4,1,2026-04-04T05:07:46.095838+05:30
Kurnool,Andhra Pradesh,15.8281,78.0373,27.8,58,0.0,976.7,7.75,44.3,58,9.7,9.1,4,5,7,1,2026-04-04T05:07:46.095845+05:30
Kakinada,Andhra Pradesh,16.9891,82.2475,24.9,94,0.0,1007.7,8.65,29.5,28,9.4,7.3,3,5,4,1,2026-04-04T05:07:46.095850+05:30
Tirupati,Andhra Pradesh,13.6288,79.4192,24.7,84,0.0,991.9,8.85,25.6,52,20.2,18.6,3,5,7,1,2026-04-04T05:07:46.095856+05:30
Warangal,Telangana,17.9689,79.5941,25.3,81,0.0,980.0,7.4,32.8,71,20.4,19.4,7,5,7,1,2026-04-04T05:07:46.095862+05:30
Nizamabad,Telangana,18.6725,78.0941,24.0,83,0.0,966.1,8.6,32.0,120,58.1,50.5,3,5,7,1,2026-04-04T05:07:46.095867+05:30
Mysore,Karnataka,12.2958,76.6396,22.6,88,0.0,928.6,9.5,32.8,69,20.5,19.4,3,5,7,1,2026-04-04T05:07:46.095873+05:30
Mangalore,Karnataka,12.9141,74.856,28.3,82,0.0,1006.6,8.15,23.8,66,24.9,21.5,7,5,4,1,2026-04-04T05:07:46.095878+05:30
Hubli-Dharwad,Karnataka,15.3647,75.124,22.5,89,0.0,940.8,9.05,32.0,73,24.9,22.8,3,5,7,1,2026-04-04T05:07:46.095885+05:30
Belgaum,Karnataka,15.8497,74.4977,20.1,100,0.0,925.4,8.9,37.1,84,36.4,32.9,3,5,7,1,2026-04-04T05:07:49.395564+05:30
Coimbatore,Tamil Nadu,11.0168,76.9558,24.2,83,0.0,961.8,9.25,43.2,72,24.9,23.3,3,5,7,1,2026-04-04T05:07:49.395601+05:30
Madurai,Tamil Nadu,9.9252,78.1198,25.0,84,0.0,992.8,8.65,29.2,57,22.5,21.8,7,5,7,1,2026-04-04T05:07:49.395611+05:30
Trichy,Tamil Nadu,10.7905,78.7047,25.9,88,0.0,999.6,9.25,24.1,54,10.3,9.7,7,5,7,1,2026-04-04T05:07:49.395620+05:30
Salem,Tamil Nadu,11.6643,78.146,25.6,83,0.0,977.4,8.7,41.8,55,15.9,15.1,7,5,7,1,2026-04-04T05:07:49.395628+05:30
Tirunelveli,Tamil Nadu,8.7139,77.7567,25.4,90,0.0,1002.8,7.75,20.5,66,24.0,22.6,7,5,4,1,2026-04-04T05:07:49.395636+05:30
Vellore,Tamil Nadu,12.9165,79.1325,25.1,85,0.0,984.7,8.35,27.7,70,26.7,23.9,7,5,7,1,2026-04-04T05:07:49.395644+05:30
Erode,Tamil Nadu,11.341,77.7172,27.0,76,0.0,989.1,8.8,42.1,61,25.4,24.4,7,5,7,1,2026-04-04T05:07:49.395652+05:30
Kochi,Kerala,9.9312,76.2673,27.6,81,0.0,1008.7,8.85,23.8,68,21.2,20.6,7,0,4,1,2026-04-04T05:07:49.395660+05:30
Thiruvananthapuram,Kerala,8.5241,76.9366,28.3,81,0.0,1007.4,8.0,26.3,61,19.3,16.6,7,5,4,1,2026-04-04T05:07:49.395667+05:30
Kozhikode,Kerala,11.2588,75.7804,26.7,87,0.0,1008.3,8.2,26.6,55,10.6,8.1,7,0,4,1,2026-04-04T05:07:49.395674+05:30
Thrissur,Kerala,10.5276,76.2144,26.3,87,0.0,1007.3,8.65,29.9,62,16.1,15.3,7,5,4,1,2026-04-04T05:07:49.395682+05:30
Kannur,Kerala,11.8745,75.3704,26.7,86,0.0,1007.4,8.85,27.4,63,23.7,20.4,7,5,4,1,2026-04-04T05:07:49.395690+05:30
Patna,Bihar,25.5941,85.1376,24.3,79,0.0,1000.2,7.9,37.8,85,26.7,22.6,3,5,4,1,2026-04-04T05:07:49.395696+05:30
Gaya,Bihar,24.7914,85.0002,25.3,68,0.0,994.1,8.4,24.1,78,25.6,22.7,7,5,7,1,2026-04-04T05:07:49.395703+05:30
Muzaffarpur,Bihar,26.1209,85.3647,23.0,79,0.0,999.8,7.85,37.1,83,29.9,22.6,3,5,7,1,2026-04-04T05:07:49.395710+05:30
Bhagalpur,Bihar,25.2425,87.0117,23.5,77,0.0,1000.7,8.2,28.1,83,29.2,25.1,3,5,4,1,2026-04-04T05:07:49.395716+05:30
Ranchi,Jharkhand,23.3441,85.3096,23.2,65,0.0,938.3,8.0,46.1,77,29.5,25.3,3,5,7,1,2026-04-04T05:07:49.395723+05:30
Jamshedpur,Jharkhand,22.8046,86.2029,25.9,73,0.0,990.8,8.5,22.0,114,50.5,44.9,7,5,7,1,2026-04-04T05:07:49.395729+05:30
Dhanbad,Jharkhand,23.7957,86.4304,25.2,66,0.0,979.6,8.25,24.1,126,37.3,34.1,7,5,7,1,2026-04-04T05:07:49.395736+05:30
Bokaro,Jharkhand,23.6693,86.1511,25.2,65,0.0,984.0,8.3,25.9,126,38.9,35.5,7,5,7,1,2026-04-04T05:07:49.395744+05:30
Bhubaneswar,Odisha,20.2961,85.8245,26.4,94,0.0,1002.5,8.95,31.7,63,23.3,20.3,7,5,4,1,2026-04-04T05:07:49.395751+05:30
Cuttack,Odisha,20.4625,85.8828,26.5,96,0.0,1004.4,9.0,34.6,63,23.3,20.3,7,5,4,1,2026-04-04T05:07:49.395758+05:30
Rourkela,Odisha,22.2604,84.8536,25.7,78,0.0,985.5,8.15,31.0,114,55.4,49.0,7,5,7,1,2026-04-04T05:07:49.395765+05:30
Raipur,Chhattisgarh,21.2514,81.6296,26.1,68,0.0,975.1,6.75,30.6,118,48.7,44.9,7,5,7,1,2026-04-04T05:07:49.395772+05:30
Bhilai,Chhattisgarh,21.1938,81.3509,25.6,70,0.0,975.3,8.1,28.1,97,39.8,36.6,7,5,7,1,2026-04-04T05:07:49.395779+05:30
Guwahati,Assam,26.1158,91.7086,23.8,92,0.0,1001.4,8.0,32.8,140,46.3,41.9,3,5,4,1,2026-04-04T05:07:49.395785+05:30
Agartala,Tripura,23.8315,91.2868,25.4,95,0.0,1005.6,8.5,29.5,67,8.4,7.2,7,5,4,1,2026-04-04T05:07:49.395792+05:30
Shillong,Meghalaya,25.5788,91.8933,15.3,88,0.0,855.4,8.5,53.6,101,26.8,21.6,3,10,7,0,2026-04-04T05:07:49.395799+05:30
Imphal,Manipur,24.817,93.9368,18.1,87,0.0,922.7,8.7,78.5,129,63.1,52.6,3,10,7,0,2026-04-04T05:07:49.395805+05:30
Aizawl,Mizoram,23.7271,92.7176,18.8,85,0.0,892.0,8.7,50.4,117,50.2,39.2,3,10,7,1,2026-04-04T05:07:49.395812+05:30
Kohima,Nagaland,25.6701,94.1077,16.1,78,0.0,854.3,8.2,86.0,110,59.8,52.3,3,5,7,0,2026-04-04T05:07:49.395817+05:30
Gangtok,Sikkim,27.3314,88.6138,14.8,96,0.0,836.2,8.4,19.4,124,57.3,45.4,3,10,7,0,2026-04-04T05:07:49.395823+05:30
Siliguri,West Bengal,26.7271,88.3953,21.5,78,0.0,993.3,8.25,28.1,159,118.3,94.8,3,5,7,1,2026-04-04T05:07:52.704818+05:30
Durgapur,West Bengal,23.5204,87.3119,27.5,66,0.0,994.3,8.55,19.8,156,40.3,37.3,7,5,7,1,2026-04-04T05:07:52.704859+05:30
Asansol,West Bengal,23.6739,86.9524,27.9,61,0.0,993.0,8.3,18.7,128,32.8,29.9,7,5,7,1,2026-04-04T05:07:52.704870+05:30
Pondicherry,Puducherry,11.9139,79.8145,26.6,96,0.0,1008.2,9.05,27.0,49,14.8,10.9,7,0,4,1,2026-04-04T05:07:52.704879+05:30
Port Blair,Andaman and Nicobar Islands,11.6234,92.7265,28.3,77,0.0,1006.0,8.7,17.6,42,17.9,9.8,7,5,4,1,2026-04-04T05:07:52.704888+05:30
Haridwar,Uttarakhand,29.9457,78.1642,20.6,77,0.0,975.6,4.85,31.0,95,35.0,25.0,3,5,3,1,2026-04-04T05:07:52.704896+05:30
Rishikesh,Uttarakhand,30.0869,78.2676,21.0,64,0.0,968.4,4.95,22.7,67,27.2,17.6,3,5,3,0,2026-04-04T05:07:52.704904+05:30
Nainital,Uttarakhand,29.3919,79.4542,18.4,41,0.0,807.4,3.5,36.4,61,30.5,20.1,0,5,3,0,2026-04-04T05:07:52.704911+05:30
Mussoorie,Uttarakhand,30.4599,78.0664,15.3,59,0.0,802.9,5.5,42.1,67,23.9,16.8,0,5,3,0,2026-04-04T05:07:52.704919+05:30
Dharamshala,Himachal Pradesh,32.219,76.3234,15.9,76,0.0,869.2,7.0,39.6,45,5.6,2.6,3,5,7,0,2026-04-04T05:07:52.704927+05:30
Dalhousie,Himachal Pradesh,32.5387,75.971,11.2,83,0.0,802.5,6.85,52.6,57,19.2,13.2,3,10,7,0,2026-04-04T05:07:52.704936+05:30
Patiala,Punjab,30.3398,76.3869,17.7,90,0.0,980.2,6.1,25.2,174,231.4,58.2,3,10,7,0,2026-04-04T05:07:52.704943+05:30
Bhatinda,Punjab,30.211,74.9455,17.5,97,0.0,986.0,6.7,39.2,81,33.1,26.1,3,10,7,1,2026-04-04T05:07:52.704951+05:30
Rohtak,Haryana,28.8955,76.6066,18.6,92,0.0,983.7,6.2,27.4,424,97.8,38.9,3,10,7,1,2026-04-04T05:07:52.704959+05:30
Panipat,Haryana,29.3909,76.9635,18.7,90,0.0,982.0,5.35,25.2,777,189.5,54.2,3,10,3,1,2026-04-04T05:07:52.704966+05:30
Mathura,Uttar Pradesh,27.4924,77.6737,21.2,78,0.0,989.2,5.35,28.1,682,158.3,41.9,3,5,3,1,2026-04-04T05:07:52.704974+05:30
Vrindavan,Uttar Pradesh,27.5823,77.7027,20.7,80,0.0,989.6,5.65,28.1,682,158.3,41.9,3,5,3,1,2026-04-04T05:07:52.704981+05:30
Ayodhya,Uttar Pradesh,26.7922,82.1998,22.3,72,0.0,995.2,6.5,38.9,87,126.7,50.6,3,5,7,1,2026-04-04T05:07:52.704988+05:30
Ratlam,Madhya Pradesh,23.3315,75.0367,23.8,65,0.0,955.3,8.1,31.7,63,40.9,19.4,3,5,7,1,2026-04-04T05:07:52.704995+05:30
Sagar,Madhya Pradesh,23.8388,78.7378,24.5,63,0.0,950.7,6.95,34.9,59,18.9,16.0,3,5,7,1,2026-04-04T05:07:52.705002+05:30
Satna,Madhya Pradesh,24.6005,80.8322,25.1,71,0.0,972.2,3.4,45.4,68,29.3,26.2,7,5,3,1,2026-04-04T05:07:52.705009+05:30
Akola,Maharashtra,20.7002,77.0082,25.4,63,0.0,976.6,7.6,25.6,92,30.9,27.4,7,5,7,1,2026-04-04T05:07:52.705017+05:30
Amravati,Maharashtra,20.9374,77.7796,25.2,72,0.0,968.0,6.3,21.6,93,36.3,32.2,7,5,7,1,2026-04-04T05:07:52.705025+05:30
Latur,Maharashtra,18.4088,76.5604,23.1,84,0.0,940.9,8.7,27.7,94,44.2,38.5,3,5,7,1,2026-04-04T05:07:52.705032+05:30
Nanded,Maharashtra,19.1383,77.3091,23.7,83,0.0,970.4,8.65,22.3,95,28.9,26.3,3,5,7,1,2026-04-04T05:07:52.705039+05:30
Gulbarga,Karnataka,17.3297,76.8343,25.8,70,0.0,959.2,8.75,32.0,81,30.7,28.3,7,5,7,1,2026-04-04T05:07:52.705045+05:30
Bidar,Karnataka,17.9104,77.5199,23.4,79,0.0,935.8,8.75,30.2,90,45.4,38.5,3,5,7,1,2026-04-04T05:07:52.705052+05:30
Hospet,Karnataka,15.2689,76.3909,26.1,78,0.0,956.3,8.05,21.6,79,19.8,18.9,7,5,7,1,2026-04-04T05:07:52.705058+05:30
Tirupur,Tamil Nadu,11.1085,77.3411,26.1,79,0.0,975.4,9.05,32.0,73,27.2,26.0,7,5,7,1,2026-04-04T05:07:52.705063+05:30
Alappuzha,Kerala,9.4981,76.3388,27.6,80,0.0,1008.6,8.6,23.4,64,20.2,19.0,7,0,4,1,2026-04-04T05:07:52.705069+05:30
Munnar,Kerala,10.0889,77.0595,20.1,90,0.0,856.1,7.3,29.5,57,18.2,17.6,3,5,7,1,2026-04-04T05:07:52.705075+05:30
Silchar,Assam,24.8333,92.7789,23.8,89,0.0,1004.9,8.55,28.4,146,43.3,36.1,3,5,4,1,2026-04-04T05:07:52.705081+05:30
Dibrugarh,Assam,27.4728,94.912,22.2,95,0.0,995.9,8.2,9.7,107,41.3,37.6,3,5,7,1,2026-04-04T05:07:52.705086+05:30
