city,state,latitude,longitude,temp,humidity,rain,pressure,uv_index,wind_gusts,aqi,pm10,pm2_5,no2,co,o3,so2,mosquito_risk,arthritis_risk,migraine_risk,frizz_risk,updated_at
Delhi,Delhi,28.6139,77.209,29.2,73,0.0,975.9,7.65,28.8,559,205.4,62.4,22.3,446.0,56.0,17.3,7,5,7,1,2026-07-01T05:38:09.095973+05:30
Mumbai,Maharashtra,19.076,72.8777,26.5,92,0.5,1003.1,1.05,47.2,40,16.9,8.1,3.0,118.0,51.0,2.6,10,5,0,1,2026-07-01T05:38:09.096014+05:30
Bangalore,Karnataka,12.9716,77.5946,20.9,88,0.0,909.8,6.8,59.8,17,2.2,2.0,5.5,145.0,37.0,3.4,3,5,7,1,2026-07-01T05:38:09.096029+05:30
Hyderabad,Telangana,17.385,78.4867,24.4,82,0.0,948.9,4.85,51.5,21,4.0,3.6,8.4,155.0,34.0,4.3,3,5,3,1,2026-07-01T05:38:09.096039+05:30
Chennai,Tamil Nadu,13.0827,80.2707,28.5,65,0.0,1004.1,5.3,48.6,41,7.2,6.4,14.3,207.0,29.0,8.5,7,5,0,1,2026-07-01T05:38:09.096047+05:30
Kolkata,West Bengal,22.5726,88.3639,26.5,94,0.0,999.7,8.6,27.0,109,44.1,42.7,20.0,575.0,48.0,9.8,7,5,7,1,2026-07-01T05:38:09.096055+05:30
Pune,Maharashtra,18.5204,73.8567,23.1,91,0.0,942.8,1.4,50.4,19,1.3,1.2,3.9,116.0,45.0,2.3,3,5,3,1,2026-07-01T05:38:09.096062+05:30
Ahmedabad,Gujarat,23.0225,72.5714,30.0,69,0.0,995.3,7.5,46.4,52,29.6,16.0,5.8,124.0,42.0,3.7,7,5,7,1,2026-07-01T05:38:09.096069+05:30
Jaipur,Rajasthan,26.9124,75.7873,29.8,64,0.0,952.6,8.2,31.7,185,204.0,46.4,11.4,231.0,44.0,5.0,7,5,7,1,2026-07-01T05:38:09.096075+05:30
Lucknow,Uttar Pradesh,26.8467,80.9462,27.6,91,0.1,986.8,6.3,22.0,114,51.8,38.5,12.8,265.0,78.0,6.9,10,5,7,1,2026-07-01T05:38:09.096086+05:30
Kanpur,Uttar Pradesh,26.4499,80.3319,28.2,80,0.0,984.8,6.05,29.5,114,50.2,35.0,12.3,239.0,72.0,4.1,7,5,7,1,2026-07-01T05:38:09.096093+05:30
Chandigarh,Chandigarh,30.7333,76.7794,26.1,92,0.1,962.5,6.05,38.2,109,24.9,20.7,15.2,332.0,56.0,7.3,10,5,7,1,2026-07-01T05:38:09.096100+05:30
Srinagar,Jammu and Kashmir,34.0837,74.7973,20.6,83,0.0,836.1,9.1,30.6,101,36.8,33.1,19.9,477.0,33.0,1.8,3,5,7,1,2026-07-01T05:38:09.096107+05:30
Jammu,Jammu and Kashmir,32.7266,74.857,24.8,92,0.1,966.4,8.35,28.4,136,37.7,26.6,10.2,270.0,95.0,2.6,6,5,7,1,2026-07-01T05:38:09.096114+05:30
Amritsar,Punjab,31.634,74.8723,26.7,93,0.0,973.0,6.45,42.8,154,165.3,64.0,12.2,410.0,85.0,11.4,7,5,7,1,2026-07-01T05:38:09.096120+05:30
Ludhiana,Punjab,30.901,75.8573,28.0,80,0.1,971.3,4.35,42.5,187,209.1,52.6,13.8,393.0,69.0,13.9,10,5,3,1,2026-07-01T05:38:09.096129+05:30
Jalandhar,Punjab,31.326,75.5762,27.2,89,0.0,972.5,5.65,37.4,155,122.0,47.4,15.6,364.0,70.0,14.0,7,5,3,1,2026-07-01T05:38:09.096135+05:30
Dehradun,Uttarakhand,30.6284,78.0322,17.9,99,0.7,826.6,5.95,18.4,45,22.0,11.2,7.1,200.0,82.0,0.8,6,10,3,1,2026-07-01T05:38:09.096142+05:30
Shimla,Himachal Pradesh,31.1048,77.1734,15.2,100,0.2,780.6,7.65,19.4,69,28.6,12.5,8.5,220.0,86.0,0.7,6,10,7,0,2026-07-01T05:38:09.096148+05:30
Manali,Himachal Pradesh,32.2396,77.1887,19.3,74,0.0,815.3,6.6,34.6,63,7.9,6.2,44.5,199.0,68.0,0.1,3,5,7,0,2026-07-01T05:38:09.096156+05:30
Gurgaon,Haryana,28.4595,77.0266,29.2,68,0.0,974.2,7.05,34.6,1185,683.6,140.2,19.1,442.0,52.0,11.1,7,5,7,1,2026-07-01T05:38:09.096165+05:30
Noida,Uttar Pradesh,28.5355,77.391,28.6,79,0.0,977.3,7.65,25.6,1185,683.6,140.2,19.1,354.0,52.0,11.1,7,5,7,1,2026-07-01T05:38:09.096172+05:30
Ghaziabad,Uttar Pradesh,28.6692,77.4538,28.2,81,0.0,975.7,7.7,24.8,155,93.6,39.7,14.8,295.0,63.0,5.5,7,5,7,1,2026-07-01T05:38:09.096178+05:30
Faridabad,Haryana,28.4089,77.3178,28.8,75,0.0,976.6,7.7,30.6,1185,683.6,140.2,19.1,432.0,52.0,11.1,7,5,7,1,2026-07-01T05:38:09.096184+05:30
Meerut,Uttar Pradesh,28.9845,77.7064,27.3,87,0.0,974.8,7.55,32.0,155,93.6,39.7,14.8,346.0,63.0,5.5,7,5,7,1,2026-07-01T05:38:09.096190+05:30
Agra,Uttar Pradesh,27.1767,78.0081,28.0,76,0.0,980.6,5.15,33.1,432,76.4,32.2,15.6,195.0,54.0,4.2,7,5,3,1,2026-07-01T05:38:09.096197+05:30
Varanasi,Uttar Pradesh,25.3176,82.9739,28.5,90,0.0,990.8,7.2,20.9,80,27.8,23.5,30.5,297.0,46.0,17.4,7,5,7,1,2026-07-01T05:38:09.096203+05:30
Prayagraj,Uttar Pradesh,25.4358,81.8463,27.7,95,0.2,989.4,8.15,25.6,98,35.4,27.6,13.0,251.0,82.0,6.1,10,5,7,1,2026-07-01T05:38:09.096210+05:30
Gorakhpur,Uttar Pradesh,26.7606,83.3732,26.9,93,0.0,991.3,6.8,26.6,97,70.1,65.4,15.7,340.0,77.0,11.5,7,5,7,1,2026-07-01T05:38:09.096216+05:30
Bareilly,Uttar Pradesh,28.367,79.4304,26.2,96,0.2,980.6,8.0,23.0,86,63.1,39.0,16.9,276.0,62.0,7.2,10,5,7,1,2026-07-01T05:38:09.096224+05:30
Aligarh,Uttar Pradesh,27.8974,78.088,26.7,92,0.0,978.7,7.25,29.9,298,136.0,52.3,16.8,243.0,57.0,5.9,7,5,7,1,2026-07-01T05:38:09.096231+05:30
Moradabad,Uttar Pradesh,28.8386,78.7733,26.6,89,0.0,977.7,7.65,25.2,75,61.9,41.9,17.7,277.0,58.0,11.6,7,5,7,1,2026-07-01T05:38:09.096237+05:30
Saharanpur,Uttar Pradesh,29.9637,77.546,26.0,90,0.1,969.9,4.55,33.5,77,51.1,25.4,13.5,263.0,66.0,12.9,10,5,3,1,2026-07-01T05:38:09.096243+05:30
Jhansi,Uttar Pradesh,25.4484,78.5685,29.7,69,0.0,970.9,6.95,32.0,62,27.6,20.5,7.5,167.0,65.0,6.5,7,5,7,1,2026-07-01T05:38:12.450941+05:30
Surat,Gujarat,21.1702,72.8311,26.1,98,0.2,1000.4,5.0,37.4,60,21.8,19.1,33.4,196.0,12.0,47.0,10,5,0,1,2026-07-01T05:38:12.450975+05:30
Vadodara,Gujarat,22.3072,73.1812,27.5,89,0.0,997.8,6.45,43.2,54,15.5,13.6,22.1,149.0,16.0,14.9,7,5,7,1,2026-07-01T05:38:12.450986+05:30
Rajkot,Gujarat,22.3039,70.8022,28.1,79,0.0,987.6,5.9,43.6,52,18.5,9.6,5.1,96.0,43.0,5.3,7,5,3,1,2026-07-01T05:38:12.450995+05:30
Thane,Maharashtra,19.2183,72.9781,25.4,96,0.2,1002.5,0.55,39.2,40,16.9,8.1,3.0,132.0,51.0,2.6,10,5,0,1,2026-07-01T05:38:12.451003+05:30
Nagpur,Maharashtra,21.1458,79.0882,25.4,94,0.1,967.5,5.85,27.7,59,16.1,13.7,13.2,284.0,56.0,9.6,10,5,3,1,2026-07-01T05:38:12.451011+05:30
Nashik,Maharashtra,19.9975,73.7898,23.0,97,0.1,939.2,4.55,45.4,16,3.6,2.5,4.5,117.0,40.0,1.2,6,5,3,1,2026-07-01T05:38:12.451018+05:30
Aurangabad,Maharashtra,19.8762,75.3433,23.2,96,0.0,938.5,3.95,37.4,31,4.1,3.9,11.0,161.0,27.0,9.1,3,5,3,1,2026-07-01T05:38:12.451025+05:30
Solapur,Maharashtra,17.6599,75.9064,23.9,94,0.2,953.1,3.55,47.2,18,2.5,2.2,5.2,125.0,38.0,1.8,6,5,3,1,2026-07-01T05:38:12.451032+05:30
Kolhapur,Maharashtra,16.705,74.2433,22.7,96,0.1,943.9,3.35,47.5,20,1.7,1.6,2.8,107.0,45.0,1.5,6,5,3,1,2026-07-01T05:38:12.451040+05:30
Goa,Goa,15.2993,74.124,24.6,99,0.1,996.1,0.95,32.0,26,11.4,6.9,1.8,184.0,49.0,0.5,6,5,3,1,2026-07-01T05:38:12.451048+05:30
Jodhpur,Rajasthan,26.2389,73.0243,30.6,57,0.0,975.4,8.45,36.4,160,317.6,80.8,3.8,110.0,47.0,3.8,0,5,7,1,2026-07-01T05:38:12.451055+05:30
Udaipur,Rajasthan,24.5854,73.7125,25.2,86,0.0,939.6,8.75,32.4,56,14.8,11.2,13.8,131.0,32.0,15.6,7,5,7,1,2026-07-01T05:38:12.451062+05:30
Kota,Rajasthan,25.2138,75.8648,28.4,71,0.0,971.8,5.45,29.5,71,25.8,20.4,10.8,166.0,48.0,6.2,7,5,3,1,2026-07-01T05:38:12.451069+05:30
Bikaner,Rajasthan,28.0229,73.3119,32.6,50,0.0,973.4,8.45,32.4,162,366.0,118.3,2.1,108.0,52.0,2.6,0,5,7,1,2026-07-01T05:38:12.451076+05:30
Ajmer,Rajasthan,26.4499,74.6399,29.2,60,0.0,947.6,8.05,46.8,67,27.7,15.7,7.9,139.0,47.0,3.5,4,5,7,1,2026-07-01T05:38:12.451083+05:30
Gwalior,Madhya Pradesh,26.2183,78.1828,30.3,68,0.0,976.1,6.2,33.1,81,31.2,17.6,8.4,142.0,65.0,4.8,3,5,7,1,2026-07-01T05:38:12.451089+05:30
Indore,Madhya Pradesh,22.7196,75.8577,24.2,91,0.0,941.9,7.95,34.2,60,13.4,10.9,10.9,180.0,31.0,7.4,3,5,7,1,2026-07-01T05:38:12.451096+05:30
Bhopal,Madhya Pradesh,23.2599,77.4126,25.1,89,0.0,947.2,7.85,33.5,69,19.0,17.1,9.9,268.0,49.0,4.5,7,5,7,1,2026-07-01T05:38:12.451103+05:30
Jabalpur,Madhya Pradesh,23.1815,79.9864,24.4,96,0.0,955.4,7.8,36.0,58,30.5,23.1,8.0,228.0,64.0,3.4,3,5,7,1,2026-07-01T05:38:12.451110+05:30
Ujjain,Madhya Pradesh,23.1765,75.7885,24.8,89,0.0,947.6,3.9,36.0,60,12.7,10.2,8.6,181.0,32.0,7.3,3,5,3,1,2026-07-01T05:38:12.451118+05:30
Visakhapatnam,Andhra Pradesh,17.6868,83.2185,28.0,82,0.0,996.9,6.25,39.6,79,17.9,16.6,24.4,320.0,40.0,37.7,7,5,7,1,2026-07-01T05:38:12.451125+05:30
Vijayawada,Andhra Pradesh,16.5062,80.648,29.5,62,0.0,997.9,6.2,52.6,48,13.1,11.1,10.7,187.0,38.0,6.4,7,5,7,1,2026-07-01T05:38:12.451131+05:30
Guntur,Andhra Pradesh,16.3067,80.4365,29.3,62,0.0,999.3,5.3,45.0,38,11.5,9.6,11.1,175.0,35.0,7.2,7,5,3,1,2026-07-01T05:38:12.451138+05:30
Nellore,Andhra Pradesh,14.4426,79.9865,29.0,64,0.0,1002.3,3.05,47.2,24,2.7,2.2,5.6,120.0,39.0,3.9,7,5,0,1,2026-07-01T05:38:12.451146+05:30
Kurnool,Andhra Pradesh,15.8281,78.0373,25.9,78,0.0,973.9,3.0,61.6,19,2.0,1.9,5.7,113.0,37.0,2.8,7,5,3,1,2026-07-01T05:38:12.451154+05:30
Kakinada,Andhra Pradesh,16.9891,82.2475,28.6,71,0.0,1001.6,5.5,49.0,49,14.8,13.9,9.8,174.0,54.0,5.4,7,5,0,1,2026-07-01T05:38:12.451161+05:30
Tirupati,Andhra Pradesh,13.6288,79.4192,28.1,62,0.0,988.2,5.7,46.4,21,3.4,3.2,7.7,122.0,32.0,2.2,7,5,3,1,2026-07-01T05:38:12.451168+05:30
Warangal,Telangana,17.9689,79.5941,26.3,78,0.0,974.0,2.1,49.0,39,7.4,6.8,9.1,160.0,37.0,2.6,7,5,3,1,2026-07-01T05:38:12.451175+05:30
Nizamabad,Telangana,18.6725,78.0941,24.0,96,0.1,959.9,2.25,36.7,45,4.6,4.2,8.0,158.0,35.0,3.4,6,5,3,1,2026-07-01T05:38:12.451182+05:30
Mysore,Karnataka,12.2958,76.6396,21.3,92,0.0,927.4,6.7,54.7,17,1.7,1.5,3.7,101.0,37.0,1.6,3,5,7,1,2026-07-01T05:38:12.451189+05:30
Mangalore,Karnataka,12.9141,74.856,24.9,95,0.3,1006.9,1.8,36.0,28,7.4,4.4,1.8,93.0,45.0,0.7,6,5,0,1,2026-07-01T05:38:12.451196+05:30
Hubli-Dharwad,Karnataka,15.3647,75.124,21.9,98,0.1,938.1,6.3,51.8,20,0.8,0.8,2.2,97.0,45.0,0.7,6,5,7,1,2026-07-01T05:38:12.451203+05:30
Belgaum,Karnataka,15.8497,74.4977,21.5,98,0.1,922.4,3.9,48.6,20,1.6,1.4,2.5,97.0,46.0,1.0,6,5,3,1,2026-07-01T05:38:15.853676+05:30
Coimbatore,Tamil Nadu,11.0168,76.9558,22.1,99,0.0,960.7,6.0,58.7,21,3.3,2.5,4.2,126.0,33.0,2.0,3,5,3,1,2026-07-01T05:38:15.853708+05:30
Madurai,Tamil Nadu,9.9252,78.1198,25.0,89,0.0,991.9,7.65,51.1,53,18.0,13.9,21.9,122.0,6.0,4.7,7,5,7,1,2026-07-01T05:38:15.853719+05:30
Trichy,Tamil Nadu,10.7905,78.7047,26.1,77,0.0,998.5,7.45,60.1,27,7.4,5.0,4.8,98.0,33.0,2.6,7,5,7,1,2026-07-01T05:38:15.853728+05:30
Salem,Tamil Nadu,11.6643,78.146,23.4,96,0.0,976.4,5.75,35.6,46,14.0,11.6,17.8,285.0,19.0,8.1,3,5,3,1,2026-07-01T05:38:15.853737+05:30
Tirunelveli,Tamil Nadu,8.7139,77.7567,27.7,67,0.0,1002.8,8.45,46.8,31,10.2,6.1,4.3,149.0,33.0,1.7,7,5,4,1,2026-07-01T05:38:15.853744+05:30
Vellore,Tamil Nadu,12.9165,79.1325,27.1,66,0.0,981.8,3.85,49.7,22,3.8,3.2,6.2,121.0,36.0,2.7,7,5,3,1,2026-07-01T05:38:15.853752+05:30
Erode,Tamil Nadu,11.341,77.7172,24.5,84,0.0,988.4,7.2,41.8,42,10.7,9.3,11.5,142.0,25.0,3.1,3,5,7,1,2026-07-01T05:38:15.853759+05:30
Kochi,Kerala,9.9312,76.2673,25.0,94,0.1,1009.8,2.15,38.2,52,15.4,10.2,11.3,142.0,24.0,3.9,10,0,0,1,2026-07-01T05:38:15.853767+05:30
Thiruvananthapuram,Kerala,8.5241,76.9366,23.7,98,0.0,1009.2,8.35,45.4,41,18.4,11.0,6.6,144.0,32.0,3.0,3,0,4,1,2026-07-01T05:38:15.853774+05:30
Kozhikode,Kerala,11.2588,75.7804,23.7,98,0.1,1009.2,7.15,29.5,29,9.3,4.8,0.6,184.0,49.0,0.3,6,0,4,1,2026-07-01T05:38:15.853782+05:30
Thrissur,Kerala,10.5276,76.2144,23.4,99,0.0,1008.4,2.9,38.2,52,12.5,9.6,8.9,135.0,25.0,2.5,3,0,0,1,2026-07-01T05:38:15.853791+05:30
Kannur,Kerala,11.8745,75.3704,24.2,95,0.2,1008.0,5.2,29.9,32,9.2,5.3,2.1,128.0,42.0,0.9,6,0,0,1,2026-07-01T05:38:15.853798+05:30
Patna,Bihar,25.5941,85.1376,26.1,96,0.3,995.0,8.3,24.1,118,63.3,62.4,18.8,288.0,64.0,16.9,10,5,7,1,2026-07-01T05:38:15.853805+05:30
Gaya,Bihar,24.7914,85.0002,27.0,97,0.0,987.6,8.85,22.7,105,62.2,60.5,22.2,456.0,54.0,10.8,7,5,7,1,2026-07-01T05:38:15.853813+05:30
Muzaffarpur,Bihar,26.1209,85.3647,25.9,93,0.1,994.9,8.4,29.5,122,64.7,63.8,16.6,305.0,72.0,16.3,10,5,7,1,2026-07-01T05:38:15.853820+05:30
Bhagalpur,Bihar,25.2425,87.0117,25.9,96,0.3,995.8,8.4,26.6,140,63.3,63.1,14.7,316.0,75.0,18.5,10,5,7,1,2026-07-01T05:38:15.853827+05:30
Ranchi,Jharkhand,23.3441,85.3096,23.0,95,0.0,931.6,8.95,29.5,83,21.2,21.2,10.2,333.0,55.0,5.8,3,5,7,1,2026-07-01T05:38:15.853835+05:30
Jamshedpur,Jharkhand,22.8046,86.2029,25.9,95,0.1,985.0,8.35,19.1,115,44.7,44.6,33.4,497.0,38.0,30.0,10,5,7,1,2026-07-01T05:38:15.853842+05:30
Dhanbad,Jharkhand,23.7957,86.4304,25.2,98,0.2,974.0,6.75,23.4,161,90.8,89.9,65.8,434.0,16.0,143.9,10,5,7,1,2026-07-01T05:38:15.853849+05:30
Bokaro,Jharkhand,23.6693,86.1511,25.7,96,0.3,977.7,8.25,22.7,153,86.6,85.4,61.8,2289.0,28.0,137.4,10,5,7,1,2026-07-01T05:38:15.853857+05:30
Bhubaneswar,Odisha,20.2961,85.8245,25.3,99,0.2,996.4,8.5,32.4,69,22.2,22.0,12.4,400.0,58.0,4.6,10,5,7,1,2026-07-01T05:38:15.853864+05:30
Cuttack,Odisha,20.4625,85.8828,25.8,96,0.2,998.1,8.25,30.6,69,22.2,22.0,12.4,415.0,58.0,4.6,10,5,7,1,2026-07-01T05:38:15.853871+05:30
Rourkela,Odisha,22.2604,84.8536,25.2,99,0.0,979.0,6.85,29.2,64,18.0,17.9,12.7,275.0,57.0,4.7,7,5,7,1,2026-07-01T05:38:15.853879+05:30
Raipur,Chhattisgarh,21.2514,81.6296,24.7,98,0.1,968.6,6.9,22.7,77,37.0,35.0,40.2,397.0,22.0,60.4,6,5,7,1,2026-07-01T05:38:15.853886+05:30
Bhilai,Chhattisgarh,21.1938,81.3509,24.7,97,0.2,969.0,4.6,28.4,71,35.3,33.1,31.3,742.0,27.0,49.3,6,5,3,1,2026-07-01T05:38:15.853893+05:30
Guwahati,Assam,26.1158,91.7086,25.5,99,0.1,996.8,8.6,22.0,59,10.2,10.1,8.2,363.0,39.0,1.2,10,5,7,1,2026-07-01T05:38:15.853900+05:30
Agartala,Tripura,23.8315,91.2868,25.5,99,0.0,1001.2,8.05,32.8,60,25.4,24.6,11.3,184.0,54.0,2.7,7,5,4,1,2026-07-01T05:38:15.853907+05:30
Shillong,Meghalaya,25.5788,91.8933,20.3,98,0.0,853.8,6.05,19.4,33,5.0,4.9,4.0,206.0,61.0,2.5,3,5,7,1,2026-07-01T05:38:15.853939+05:30
Imphal,Manipur,24.817,93.9368,23.1,95,0.1,919.5,7.2,22.7,39,9.9,9.8,6.9,326.0,36.0,2.3,6,5,7,1,2026-07-01T05:38:15.853949+05:30
Aizawl,Mizoram,23.7271,92.7176,20.0,99,0.0,888.4,8.75,25.6,24,3.1,3.0,3.7,158.0,40.0,0.5,3,5,7,1,2026-07-01T05:38:15.853956+05:30
Kohima,Nagaland,25.6701,94.1077,20.4,96,0.0,852.6,2.35,22.3,27,6.3,6.2,7.0,182.0,30.0,1.0,3,5,3,1,2026-07-01T05:38:15.853963+05:30
Gangtok,Sikkim,27.3314,88.6138,18.6,94,0.1,835.1,8.75,29.2,49,20.9,19.5,8.3,435.0,90.0,2.4,6,10,7,1,2026-07-01T05:38:15.853971+05:30
Siliguri,West Bengal,26.7271,88.3953,24.8,98,0.3,988.2,8.5,25.2,94,51.7,48.8,13.2,335.0,89.0,5.6,6,5,7,1,2026-07-01T05:38:19.217488+05:30
Durgapur,West Bengal,23.5204,87.3119,25.4,99,0.1,989.2,8.45,25.6,155,46.7,46.4,31.4,653.0,43.0,34.0,10,5,7,1,2026-07-01T05:38:19.217520+05:30
Asansol,West Bengal,23.6739,86.9524,25.4,96,0.4,987.8,7.05,26.3,154,48.3,48.1,37.0,382.0,28.0,41.0,10,5,7,1,2026-07-01T05:38:19.217531+05:30
Pondicherry,Puducherry,11.9139,79.8145,27.2,73,0.0,1006.3,2.85,43.9,45,15.0,11.9,14.1,350.0,34.0,8.2,7,5,0,1,2026-07-01T05:38:19.217540+05:30
Port Blair,Andaman and Nicobar Islands,11.6234,92.7265,26.3,91,0.0,1005.0,3.75,49.3,30,11.9,7.4,0.2,90.0,71.0,0.6,7,5,0,1,2026-07-01T05:38:19.217548+05:30
Haridwar,Uttarakhand,29.9457,78.1642,25.6,96,0.1,968.2,7.5,24.5,67,27.5,22.6,11.5,280.0,71.0,10.3,10,5,7,1,2026-07-01T05:38:19.217557+05:30
Rishikesh,Uttarakhand,30.0869,78.2676,25.8,95,0.2,961.1,7.55,14.4,57,23.5,17.6,9.7,204.0,73.0,5.6,10,5,7,1,2026-07-01T05:38:19.217565+05:30
Nainital,Uttarakhand,29.3919,79.4542,16.3,100,0.0,801.6,6.85,22.3,42,21.3,11.9,5.9,205.0,94.0,2.3,3,10,7,1,2026-07-01T05:38:19.217573+05:30
Mussoorie,Uttarakhand,30.4599,78.0664,16.6,100,0.6,799.5,6.95,19.4,65,16.5,12.7,9.3,217.0,82.0,7.7,6,10,7,1,2026-07-01T05:38:19.217580+05:30
Dharamshala,Himachal Pradesh,32.219,76.3234,21.2,96,0.4,864.4,8.4,31.3,42,6.9,5.3,6.0,226.0,89.0,0.2,6,5,7,1,2026-07-01T05:38:19.217587+05:30
Dalhousie,Himachal Pradesh,32.5387,75.971,17.2,93,0.3,800.4,8.35,23.0,79,27.2,17.6,5.9,279.0,111.0,1.0,6,10,7,1,2026-07-01T05:38:19.217595+05:30
Patiala,Punjab,30.3398,76.3869,28.1,78,0.0,971.3,6.55,40.7,412,165.3,43.3,14.8,417.0,63.0,14.0,7,5,7,1,2026-07-01T05:38:19.217603+05:30
Bhatinda,Punjab,30.211,74.9455,31.2,65,0.0,974.8,5.65,31.0,419,1657.8,398.6,15.7,409.0,61.0,21.5,3,5,3,1,2026-07-01T05:38:19.217611+05:30
Rohtak,Haryana,28.8955,76.6066,30.6,65,0.0,974.5,6.0,29.5,1570,866.1,170.0,23.4,592.0,47.0,17.7,3,5,3,1,2026-07-01T05:38:19.217618+05:30
Panipat,Haryana,29.3909,76.9635,28.3,84,0.0,973.6,5.55,31.7,2060,771.1,137.4,19.8,423.0,57.0,15.8,7,5,3,1,2026-07-01T05:38:19.217626+05:30
Mathura,Uttar Pradesh,27.4924,77.6737,27.5,79,0.0,979.7,6.35,29.2,650,59.6,27.8,13.4,208.0,59.0,2.5,7,5,7,1,2026-07-01T05:38:19.217634+05:30
Vrindavan,Uttar Pradesh,27.5823,77.7027,27.4,79,0.0,980.1,6.6,30.2,650,59.6,27.8,13.4,211.0,59.0,2.5,7,5,7,1,2026-07-01T05:38:19.217641+05:30
Ayodhya,Uttar Pradesh,26.7922,82.1998,27.2,91,0.2,989.3,6.55,24.8,99,47.8,38.2,12.2,346.0,87.0,6.1,10,5,7,1,2026-07-01T05:38:19.217648+05:30
Ratlam,Madhya Pradesh,23.3315,75.0367,24.8,91,0.0,948.6,7.2,34.9,57,12.8,10.3,7.7,160.0,33.0,8.0,3,5,7,1,2026-07-01T05:38:19.217656+05:30
Sagar,Madhya Pradesh,23.8388,78.7378,25.2,87,0.0,943.5,8.55,31.3,66,27.6,23.7,7.5,209.0,63.0,3.5,7,5,7,1,2026-07-01T05:38:19.217664+05:30
Satna,Madhya Pradesh,24.6005,80.8322,26.7,86,0.0,964.6,8.25,22.7,71,23.2,19.7,13.0,234.0,48.0,4.1,7,5,7,1,2026-07-01T05:38:19.217671+05:30
Akola,Maharashtra,20.7002,77.0082,25.8,95,0.3,969.6,4.15,39.2,55,9.9,8.4,12.8,146.0,34.0,9.2,10,5,3,1,2026-07-01T05:38:19.217680+05:30
Amravati,Maharashtra,20.9374,77.7796,24.7,97,0.1,961.6,5.75,33.5,56,9.3,7.9,12.5,163.0,36.0,9.8,6,5,3,1,2026-07-01T05:38:19.217688+05:30
Latur,Maharashtra,18.4088,76.5604,23.3,95,0.3,935.0,5.85,46.8,19,3.0,2.7,5.8,146.0,37.0,1.5,6,5,3,1,2026-07-01T05:38:19.217696+05:30
Nanded,Maharashtra,19.1383,77.3091,24.7,94,0.1,963.7,1.1,39.2,45,4.1,3.8,8.6,149.0,32.0,3.1,6,5,3,1,2026-07-01T05:38:19.217703+05:30
Gulbarga,Karnataka,17.3297,76.8343,23.6,94,0.1,954.7,4.35,52.6,18,2.5,2.2,6.1,128.0,38.0,2.4,6,5,3,1,2026-07-01T05:38:19.217710+05:30
Bidar,Karnataka,17.9104,77.5199,23.0,93,0.1,930.9,5.05,55.4,19,3.0,2.9,7.2,125.0,34.0,2.0,6,5,3,1,2026-07-01T05:38:19.217717+05:30
Hospet,Karnataka,15.2689,76.3909,23.3,90,0.0,953.4,4.7,60.1,19,1.3,1.2,2.8,98.0,43.0,1.1,3,5,3,1,2026-07-01T05:38:19.217725+05:30
Tirupur,Tamil Nadu,11.1085,77.3411,23.3,90,0.0,974.4,7.95,59.4,47,13.4,11.9,14.4,124.0,20.0,3.8,3,5,7,1,2026-07-01T05:38:19.217732+05:30
Alappuzha,Kerala,9.4981,76.3388,25.3,94,0.0,1009.8,6.35,40.3,46,15.7,9.3,7.3,83.0,33.0,3.1,7,0,4,1,2026-07-01T05:38:19.217740+05:30
Munnar,Kerala,10.0889,77.0595,16.0,100,0.0,856.0,4.6,45.4,21,4.2,2.8,3.6,88.0,25.0,1.1,3,10,3,0,2026-07-01T05:38:19.217748+05:30
Silchar,Assam,24.8333,92.7789,26.3,97,0.2,1000.4,8.85,17.6,58,17.4,16.9,8.0,204.0,58.0,5.6,10,5,4,1,2026-07-01T05:38:19.217756+05:30
Dibrugarh,Assam,27.4728,94.912,26.8,92,0.0,991.0,7.8,22.7,77,19.4,18.8,13.1,288.0,33.0,1.5,7,5,7,1,2026-07-01T05:38:19.217762+05:30
