city,state,latitude,longitude,temp,humidity,rain,pressure,uv_index,wind_gusts,aqi,pm10,pm2_5,mosquito_risk,arthritis_risk,migraine_risk,frizz_risk,updated_at
Delhi,Delhi,28.6139,77.209,31.3,33,0.0,979.5,7.05,31.3,147,244.0,48.7,0,5,7,0,2026-04-29T22:13:20.153019+05:30
Mumbai,Maharashtra,19.076,72.8777,28.9,82,0.0,1008.1,8.05,46.1,77,39.7,18.5,7,0,4,1,2026-04-29T22:13:20.153065+05:30
Bangalore,Karnataka,12.9716,77.5946,27.9,48,0.0,913.0,9.5,37.4,153,53.0,43.3,4,5,7,0,2026-04-29T22:13:20.153081+05:30
Hyderabad,Telangana,17.385,78.4867,33.0,33,0.0,952.9,9.3,27.4,141,65.2,55.5,0,5,7,0,2026-04-29T22:13:20.153092+05:30
Chennai,Tamil Nadu,13.0827,80.2707,30.0,81,0.0,1007.0,9.25,55.8,65,19.3,15.1,7,5,4,1,2026-04-29T22:13:20.153101+05:30
Kolkata,West Bengal,22.5726,88.3639,25.1,92,0.1,1005.7,8.85,50.4,67,22.1,18.4,10,5,4,1,2026-04-29T22:13:20.153111+05:30
Pune,Maharashtra,18.5204,73.8567,27.8,54,0.0,948.0,8.6,43.6,96,26.5,15.5,4,5,7,1,2026-04-29T22:13:20.153122+05:30
Ahmedabad,Gujarat,23.0225,72.5714,31.4,62,0.0,998.7,8.2,52.9,51,45.3,16.1,3,5,7,1,2026-04-29T22:13:20.153130+05:30
Jaipur,Rajasthan,26.9124,75.7873,32.4,20,0.0,956.5,8.05,48.2,159,312.9,48.7,0,5,7,0,2026-04-29T22:13:20.153138+05:30
Lucknow,Uttar Pradesh,26.8467,80.9462,29.8,54,0.0,990.9,7.9,40.0,162,67.3,57.2,4,5,7,1,2026-04-29T22:13:20.153146+05:30
Kanpur,Uttar Pradesh,26.4499,80.3319,31.1,37,0.0,988.4,7.9,43.2,167,182.5,59.4,0,5,7,0,2026-04-29T22:13:20.153154+05:30
Chandigarh,Chandigarh,30.7333,76.7794,23.6,59,0.0,965.0,7.4,34.6,81,32.1,26.0,0,5,7,0,2026-04-29T22:13:20.153161+05:30
Srinagar,Jammu and Kashmir,34.0837,74.7973,12.1,91,0.0,839.2,5.8,21.6,98,42.4,38.2,3,10,3,0,2026-04-29T22:13:20.153169+05:30
Jammu,Jammu and Kashmir,32.7266,74.857,20.7,68,0.0,969.4,7.0,51.5,69,57.5,37.5,3,5,7,0,2026-04-29T22:13:20.153177+05:30
Amritsar,Punjab,31.634,74.8723,23.9,64,0.0,977.6,8.1,40.7,154,48.9,36.2,3,5,7,1,2026-04-29T22:13:20.153184+05:30
Ludhiana,Punjab,30.901,75.8573,25.4,66,0.0,975.4,7.7,28.8,92,52.9,40.3,7,5,7,1,2026-04-29T22:13:20.153191+05:30
Jalandhar,Punjab,31.326,75.5762,24.3,65,0.0,976.5,7.9,33.8,96,46.9,37.7,3,5,7,1,2026-04-29T22:13:20.153200+05:30
Dehradun,Uttarakhand,30.6284,78.0322,13.7,74,0.0,826.8,6.15,40.7,56,25.0,12.6,3,5,7,0,2026-04-29T22:13:20.153208+05:30
Shimla,Himachal Pradesh,31.1048,77.1734,9.8,77,0.0,779.5,7.9,40.7,67,26.5,15.1,3,5,7,0,2026-04-29T22:13:20.153215+05:30
Manali,Himachal Pradesh,32.2396,77.1887,9.6,87,0.0,814.0,6.9,38.9,87,10.2,5.5,3,10,7,0,2026-04-29T22:13:20.153222+05:30
Gurgaon,Haryana,28.4595,77.0266,30.1,35,0.0,977.5,7.4,30.2,576,1162.3,137.4,0,5,7,0,2026-04-29T22:13:20.153230+05:30
Noida,Uttar Pradesh,28.5355,77.391,27.4,45,0.0,980.6,6.95,33.8,576,1162.3,137.4,4,5,7,0,2026-04-29T22:13:20.153236+05:30
Ghaziabad,Uttar Pradesh,28.6692,77.4538,28.4,40,0.0,979.0,6.85,31.3,135,353.9,53.4,4,5,7,0,2026-04-29T22:13:20.153244+05:30
Faridabad,Haryana,28.4089,77.3178,30.1,35,0.0,980.0,6.95,35.3,576,1162.3,137.4,0,5,7,0,2026-04-29T22:13:20.153250+05:30
Meerut,Uttar Pradesh,28.9845,77.7064,28.0,39,0.0,977.9,6.45,29.5,135,353.9,53.4,4,5,7,0,2026-04-29T22:13:20.153257+05:30
Agra,Uttar Pradesh,27.1767,78.0081,31.4,36,0.0,983.9,7.5,47.2,893,722.7,104.3,0,5,7,0,2026-04-29T22:13:20.153265+05:30
Varanasi,Uttar Pradesh,25.3176,82.9739,28.5,63,0.0,995.6,8.45,52.2,143,52.9,38.8,7,5,7,1,2026-04-29T22:13:20.153274+05:30
Prayagraj,Uttar Pradesh,25.4358,81.8463,30.6,51,0.0,993.6,8.35,58.3,127,64.3,47.3,0,5,7,1,2026-04-29T22:13:20.153281+05:30
Gorakhpur,Uttar Pradesh,26.7606,83.3732,24.6,85,0.0,997.2,8.25,38.9,127,59.8,40.2,3,5,7,1,2026-04-29T22:13:20.153288+05:30
Bareilly,Uttar Pradesh,28.367,79.4304,28.9,44,0.0,983.7,7.45,30.6,104,73.6,35.6,4,5,7,0,2026-04-29T22:13:20.153295+05:30
Aligarh,Uttar Pradesh,27.8974,78.088,28.7,42,0.0,981.8,5.25,28.8,409,933.2,109.9,4,5,3,0,2026-04-29T22:13:20.153302+05:30
Moradabad,Uttar Pradesh,28.8386,78.7733,28.4,41,0.0,980.5,5.2,28.1,133,84.8,37.0,4,5,3,0,2026-04-29T22:13:20.153309+05:30
Saharanpur,Uttar Pradesh,29.9637,77.546,26.2,51,0.0,972.2,7.05,34.6,97,62.2,35.0,4,5,7,0,2026-04-29T22:13:20.153314+05:30
Jhansi,Uttar Pradesh,25.4484,78.5685,31.3,36,0.0,974.3,7.7,38.5,64,67.1,24.6,0,5,7,0,2026-04-29T22:13:23.426333+05:30
Surat,Gujarat,21.1702,72.8311,28.7,84,0.0,1004.8,7.85,46.8,68,30.6,17.9,7,5,4,1,2026-04-29T22:13:23.426367+05:30
Vadodara,Gujarat,22.3072,73.1812,30.0,67,0.0,1001.6,8.15,54.7,67,32.9,17.3,7,5,4,1,2026-04-29T22:13:23.426379+05:30
Rajkot,Gujarat,22.3039,70.8022,30.2,58,0.0,991.8,7.9,51.8,51,41.1,14.9,0,5,7,1,2026-04-29T22:13:23.426388+05:30
Thane,Maharashtra,19.2183,72.9781,28.9,81,0.0,1007.4,8.05,40.7,77,39.7,18.5,7,5,4,1,2026-04-29T22:13:23.426396+05:30
Nagpur,Maharashtra,21.1458,79.0882,35.0,17,0.0,970.5,8.85,60.1,88,21.0,16.9,0,5,7,0,2026-04-29T22:13:23.426403+05:30
Nashik,Maharashtra,19.9975,73.7898,26.1,67,0.0,945.3,8.3,45.7,61,29.1,13.0,7,5,7,1,2026-04-29T22:13:23.426411+05:30
Aurangabad,Maharashtra,19.8762,75.3433,32.3,26,0.0,943.3,9.05,55.8,84,17.6,11.4,0,5,7,0,2026-04-29T22:13:23.426418+05:30
Solapur,Maharashtra,17.6599,75.9064,33.5,21,0.0,955.1,9.1,38.5,102,39.7,31.7,0,5,7,0,2026-04-29T22:13:23.426424+05:30
Kolhapur,Maharashtra,16.705,74.2433,25.9,70,0.0,947.5,9.0,44.3,73,23.6,14.9,7,5,7,1,2026-04-29T22:13:23.426431+05:30
Goa,Goa,15.2993,74.124,29.7,78,0.0,998.5,8.75,43.2,71,35.7,17.6,7,5,7,1,2026-04-29T22:13:23.426438+05:30
Jodhpur,Rajasthan,26.2389,73.0243,32.8,34,0.0,978.4,8.25,50.4,139,218.4,35.9,0,5,7,0,2026-04-29T22:13:23.426445+05:30
Udaipur,Rajasthan,24.5854,73.7125,30.3,28,0.0,943.6,8.75,41.4,58,43.5,15.0,0,5,7,0,2026-04-29T22:13:23.426452+05:30
Kota,Rajasthan,25.2138,75.8648,34.5,22,0.0,974.9,8.3,43.6,80,62.2,23.7,0,5,7,0,2026-04-29T22:13:23.426458+05:30
Bikaner,Rajasthan,28.0229,73.3119,31.2,33,0.0,977.1,8.15,37.1,78,63.3,19.3,0,5,7,0,2026-04-29T22:13:23.426465+05:30
Ajmer,Rajasthan,26.4499,74.6399,30.6,31,0.0,951.8,8.2,51.5,78,78.2,21.1,0,5,7,0,2026-04-29T22:13:23.426472+05:30
Gwalior,Madhya Pradesh,26.2183,78.1828,32.6,25,0.0,978.8,8.05,44.3,173,235.6,53.8,0,5,7,0,2026-04-29T22:13:23.426479+05:30
Indore,Madhya Pradesh,22.7196,75.8577,31.6,23,0.0,946.4,8.65,55.4,74,20.1,12.8,0,5,7,0,2026-04-29T22:13:23.426485+05:30
Bhopal,Madhya Pradesh,23.2599,77.4126,32.9,19,0.0,951.3,8.6,53.3,66,22.3,11.2,0,5,7,0,2026-04-29T22:13:23.426492+05:30
Jabalpur,Madhya Pradesh,23.1815,79.9864,32.7,17,0.0,958.0,8.75,40.7,55,12.0,8.1,0,5,7,0,2026-04-29T22:13:23.426498+05:30
Ujjain,Madhya Pradesh,23.1765,75.7885,32.1,22,0.0,951.6,8.55,52.6,79,24.3,15.1,0,5,7,0,2026-04-29T22:13:23.426533+05:30
Visakhapatnam,Andhra Pradesh,17.6868,83.2185,28.7,85,0.0,1003.2,9.1,54.4,59,19.2,14.8,7,5,4,1,2026-04-29T22:13:23.426540+05:30
Vijayawada,Andhra Pradesh,16.5062,80.648,30.2,73,0.0,1002.2,8.75,36.0,103,21.4,19.7,3,5,4,1,2026-04-29T22:13:23.426547+05:30
Guntur,Andhra Pradesh,16.3067,80.4365,29.7,81,0.0,1003.4,8.9,37.1,131,24.4,22.6,7,5,4,1,2026-04-29T22:13:23.426554+05:30
Nellore,Andhra Pradesh,14.4426,79.9865,29.8,82,0.0,1005.6,9.25,37.4,106,14.7,12.5,7,5,4,1,2026-04-29T22:13:23.426561+05:30
Kurnool,Andhra Pradesh,15.8281,78.0373,33.9,29,0.0,976.0,8.8,28.8,151,64.3,50.8,0,5,7,0,2026-04-29T22:13:23.426568+05:30
Kakinada,Andhra Pradesh,16.9891,82.2475,29.5,79,0.0,1006.9,9.1,43.6,53,18.6,13.8,7,5,4,1,2026-04-29T22:13:23.426575+05:30
Tirupati,Andhra Pradesh,13.6288,79.4192,31.0,65,0.0,991.4,9.3,31.0,92,18.3,17.8,3,5,7,1,2026-04-29T22:13:23.426581+05:30
Warangal,Telangana,17.9689,79.5941,32.6,39,0.0,977.5,9.15,32.0,150,52.0,48.0,0,5,7,1,2026-04-29T22:13:23.426587+05:30
Nizamabad,Telangana,18.6725,78.0941,35.5,20,0.0,962.8,9.1,38.9,96,37.8,30.0,0,5,10,0,2026-04-29T22:13:23.426594+05:30
Mysore,Karnataka,12.2958,76.6396,25.3,75,0.0,929.5,9.35,43.2,154,38.0,32.0,7,5,7,1,2026-04-29T22:13:23.426601+05:30
Mangalore,Karnataka,12.9141,74.856,30.4,70,0.0,1007.4,9.1,41.4,76,46.0,21.4,3,5,4,1,2026-04-29T22:13:23.426607+05:30
Hubli-Dharwad,Karnataka,15.3647,75.124,25.7,90,0.0,941.3,9.0,54.0,94,28.0,19.7,7,5,7,1,2026-04-29T22:13:23.426614+05:30
Belgaum,Karnataka,15.8497,74.4977,24.3,93,0.0,926.3,9.2,43.6,69,24.0,14.0,3,5,7,1,2026-04-29T22:13:26.699966+05:30
Coimbatore,Tamil Nadu,11.0168,76.9558,27.0,79,0.0,962.0,9.3,52.2,91,30.6,26.6,7,5,7,1,2026-04-29T22:13:26.700002+05:30
Madurai,Tamil Nadu,9.9252,78.1198,31.0,61,0.0,993.9,8.35,47.2,87,11.1,10.7,3,5,7,1,2026-04-29T22:13:26.700014+05:30
Trichy,Tamil Nadu,10.7905,78.7047,30.5,66,0.0,1000.0,9.2,45.4,52,7.9,7.4,3,5,4,1,2026-04-29T22:13:26.700023+05:30
Salem,Tamil Nadu,11.6643,78.146,32.2,47,0.0,977.5,8.85,40.7,119,14.1,13.6,0,5,7,1,2026-04-29T22:13:26.700030+05:30
Tirunelveli,Tamil Nadu,8.7139,77.7567,28.6,75,0.0,1003.9,8.5,32.0,53,16.2,15.4,7,5,4,1,2026-04-29T22:13:26.700038+05:30
Vellore,Tamil Nadu,12.9165,79.1325,30.0,72,0.0,984.6,9.35,36.4,96,22.4,21.7,7,5,7,1,2026-04-29T22:13:26.700046+05:30
Erode,Tamil Nadu,11.341,77.7172,31.4,56,0.0,989.2,8.65,45.0,111,25.8,23.2,0,5,7,1,2026-04-29T22:13:26.700054+05:30
Kochi,Kerala,9.9312,76.2673,26.4,89,0.0,1010.4,7.7,34.9,82,31.7,27.4,7,0,4,1,2026-04-29T22:13:26.700061+05:30
Thiruvananthapuram,Kerala,8.5241,76.9366,26.1,91,0.0,1009.4,8.05,27.0,47,10.7,7.7,7,0,4,1,2026-04-29T22:13:26.700069+05:30
Kozhikode,Kerala,11.2588,75.7804,27.8,85,0.0,1008.8,9.0,36.0,70,41.3,19.6,7,0,4,1,2026-04-29T22:13:26.700076+05:30
Thrissur,Kerala,10.5276,76.2144,27.4,87,0.0,1008.4,8.05,33.1,86,33.2,29.6,7,0,4,1,2026-04-29T22:13:26.700084+05:30
Kannur,Kerala,11.8745,75.3704,29.9,72,0.0,1008.1,9.0,42.8,79,42.6,20.1,7,0,4,1,2026-04-29T22:13:26.700091+05:30
Patna,Bihar,25.5941,85.1376,25.4,80,0.0,1000.3,8.55,39.2,135,37.5,28.2,7,5,4,1,2026-04-29T22:13:26.700098+05:30
Gaya,Bihar,24.7914,85.0002,27.2,72,0.0,992.9,8.65,57.2,157,39.8,31.9,7,5,7,1,2026-04-29T22:13:26.700105+05:30
Muzaffarpur,Bihar,26.1209,85.3647,25.0,79,0.0,1000.6,8.55,54.4,120,37.1,27.0,7,5,4,1,2026-04-29T22:13:26.700112+05:30
Bhagalpur,Bihar,25.2425,87.0117,24.8,83,0.0,1003.1,8.55,55.1,81,31.0,19.4,3,5,4,1,2026-04-29T22:13:26.700118+05:30
Ranchi,Jharkhand,23.3441,85.3096,23.2,77,0.0,936.8,9.15,40.7,122,38.1,33.5,3,5,7,1,2026-04-29T22:13:26.700125+05:30
Jamshedpur,Jharkhand,22.8046,86.2029,26.6,77,0.0,990.6,8.95,47.9,159,45.6,42.0,7,5,7,1,2026-04-29T22:13:26.700131+05:30
Dhanbad,Jharkhand,23.7957,86.4304,25.5,83,0.0,979.3,8.9,58.3,158,85.2,81.3,7,5,7,1,2026-04-29T22:13:26.700139+05:30
Bokaro,Jharkhand,23.6693,86.1511,26.2,77,0.0,983.0,8.9,61.6,155,80.8,73.3,7,5,7,1,2026-04-29T22:13:26.700145+05:30
Bhubaneswar,Odisha,20.2961,85.8245,27.9,87,0.0,1001.4,9.1,56.9,56,13.8,11.1,7,5,4,1,2026-04-29T22:13:26.700153+05:30
Cuttack,Odisha,20.4625,85.8828,28.0,86,0.0,1003.0,9.1,45.4,56,13.8,11.1,7,5,4,1,2026-04-29T22:13:26.700159+05:30
Rourkela,Odisha,22.2604,84.8536,29.6,47,0.0,983.8,8.9,49.7,184,39.3,36.7,4,5,7,1,2026-04-29T22:13:26.700166+05:30
Raipur,Chhattisgarh,21.2514,81.6296,33.5,25,0.0,971.5,8.9,54.0,128,38.3,32.8,0,5,7,0,2026-04-29T22:13:26.700172+05:30
Bhilai,Chhattisgarh,21.1938,81.3509,32.5,24,0.0,972.0,8.9,51.8,125,31.4,26.1,0,5,7,0,2026-04-29T22:13:26.700179+05:30
Guwahati,Assam,26.1158,91.7086,21.8,96,0.0,1005.5,7.15,31.3,68,22.8,20.6,3,5,4,1,2026-04-29T22:13:26.700185+05:30
Agartala,Tripura,23.8315,91.2868,21.1,94,0.0,1009.0,6.55,38.2,79,37.6,29.2,3,0,4,1,2026-04-29T22:13:26.700192+05:30
Shillong,Meghalaya,25.5788,91.8933,14.2,78,0.0,857.3,7.5,49.3,31,9.9,8.9,3,5,7,0,2026-04-29T22:13:26.700198+05:30
Imphal,Manipur,24.817,93.9368,16.6,98,0.0,924.4,6.15,23.8,86,35.5,26.7,3,10,7,1,2026-04-29T22:13:26.700205+05:30
Aizawl,Mizoram,23.7271,92.7176,15.2,97,0.0,893.5,6.2,30.2,81,43.3,26.9,3,10,7,0,2026-04-29T22:13:26.700212+05:30
Kohima,Nagaland,25.6701,94.1077,15.4,84,0.0,855.5,7.25,25.6,53,33.1,18.6,3,10,7,0,2026-04-29T22:13:26.700218+05:30
Gangtok,Sikkim,27.3314,88.6138,13.7,86,0.8,837.6,5.5,29.2,49,8.6,6.5,6,10,3,0,2026-04-29T22:13:26.700225+05:30
Siliguri,West Bengal,26.7271,88.3953,20.6,93,0.0,996.6,1.8,32.8,64,17.2,12.9,3,5,3,1,2026-04-29T22:13:29.976087+05:30
Durgapur,West Bengal,23.5204,87.3119,25.1,89,0.0,995.0,8.85,43.6,142,36.9,35.7,7,5,7,1,2026-04-29T22:13:29.976121+05:30
Asansol,West Bengal,23.6739,86.9524,25.3,88,0.0,993.5,8.85,64.8,160,60.3,58.1,7,5,7,1,2026-04-29T22:13:29.976133+05:30
Pondicherry,Puducherry,11.9139,79.8145,30.5,74,0.0,1008.5,9.05,52.9,61,13.5,9.9,3,0,4,1,2026-04-29T22:13:29.976142+05:30
Port Blair,Andaman and Nicobar Islands,11.6234,92.7265,28.0,81,0.0,1008.6,9.1,28.1,33,10.1,7.6,7,0,4,1,2026-04-29T22:13:29.976149+05:30
Haridwar,Uttarakhand,29.9457,78.1642,22.5,68,0.0,970.6,6.45,27.4,84,70.8,31.8,3,5,7,1,2026-04-29T22:13:29.976157+05:30
Rishikesh,Uttarakhand,30.0869,78.2676,20.5,73,0.0,963.2,6.85,26.3,81,94.3,31.7,3,5,7,0,2026-04-29T22:13:29.976165+05:30
Nainital,Uttarakhand,29.3919,79.4542,14.0,84,0.0,803.3,5.65,47.5,92,137.8,41.9,3,10,3,0,2026-04-29T22:13:29.976172+05:30
Mussoorie,Uttarakhand,30.4599,78.0664,13.4,66,0.0,799.9,5.9,36.7,70,54.0,25.3,3,5,3,0,2026-04-29T22:13:29.976180+05:30
Dharamshala,Himachal Pradesh,32.219,76.3234,19.5,42,0.0,866.5,7.95,51.8,51,22.8,13.7,0,5,7,0,2026-04-29T22:13:29.976187+05:30
Dalhousie,Himachal Pradesh,32.5387,75.971,10.0,91,0.0,799.4,7.5,51.8,58,43.4,24.3,3,10,7,0,2026-04-29T22:13:29.976195+05:30
Patiala,Punjab,30.3398,76.3869,26.9,53,0.0,974.7,7.35,49.7,169,132.2,44.0,4,5,7,1,2026-04-29T22:13:29.976203+05:30
Bhatinda,Punjab,30.211,74.9455,28.3,46,0.0,980.0,8.05,47.2,94,317.6,63.3,4,5,7,0,2026-04-29T22:13:29.976210+05:30
Rohtak,Haryana,28.8955,76.6066,29.5,38,0.0,977.9,7.45,27.7,223,461.9,77.3,4,5,7,0,2026-04-29T22:13:29.976217+05:30
Panipat,Haryana,29.3909,76.9635,27.5,51,0.0,976.6,7.3,37.1,594,817.7,108.3,4,5,7,1,2026-04-29T22:13:29.976225+05:30
Mathura,Uttar Pradesh,27.4924,77.6737,30.5,37,0.0,982.9,7.6,38.2,707,596.0,94.1,0,5,7,0,2026-04-29T22:13:29.976232+05:30
Vrindavan,Uttar Pradesh,27.5823,77.7027,30.1,37,0.0,983.4,7.5,39.6,707,596.0,94.1,0,5,7,0,2026-04-29T22:13:29.976239+05:30
Ayodhya,Uttar Pradesh,26.7922,82.1998,25.5,78,0.0,994.2,8.05,37.4,150,58.1,44.0,7,5,7,1,2026-04-29T22:13:29.976245+05:30
Ratlam,Madhya Pradesh,23.3315,75.0367,30.5,27,0.0,952.2,8.5,47.9,85,24.9,14.3,0,5,7,0,2026-04-29T22:13:29.976252+05:30
Sagar,Madhya Pradesh,23.8388,78.7378,31.9,19,0.0,947.4,8.65,43.9,57,27.6,13.1,0,5,7,0,2026-04-29T22:13:29.976259+05:30
Satna,Madhya Pradesh,24.6005,80.8322,31.6,30,0.0,967.8,8.6,45.7,81,40.3,23.1,0,5,7,0,2026-04-29T22:13:29.976266+05:30
Akola,Maharashtra,20.7002,77.0082,34.2,18,0.0,972.5,8.85,54.4,87,16.8,10.7,0,5,7,0,2026-04-29T22:13:29.976274+05:30
Amravati,Maharashtra,20.9374,77.7796,34.5,14,0.0,965.0,8.85,59.8,92,15.7,10.2,0,5,7,0,2026-04-29T22:13:29.976282+05:30
Latur,Maharashtra,18.4088,76.5604,32.4,21,0.0,938.5,9.05,29.2,79,38.2,31.2,0,5,7,0,2026-04-29T22:13:29.976288+05:30
Nanded,Maharashtra,19.1383,77.3091,34.5,18,0.0,965.9,9.0,32.0,84,34.2,26.7,0,5,7,0,2026-04-29T22:13:29.976296+05:30
Gulbarga,Karnataka,17.3297,76.8343,34.2,27,0.0,957.4,9.1,27.0,123,52.2,42.4,0,5,7,0,2026-04-29T22:13:29.976302+05:30
Bidar,Karnataka,17.9104,77.5199,31.9,28,0.0,934.6,9.15,32.0,96,55.9,45.6,0,5,7,0,2026-04-29T22:13:29.976308+05:30
Hospet,Karnataka,15.2689,76.3909,29.4,54,0.0,956.3,9.0,42.8,143,37.6,32.6,4,5,7,1,2026-04-29T22:13:29.976315+05:30
Tirupur,Tamil Nadu,11.1085,77.3411,28.0,76,0.0,975.3,8.95,54.0,115,33.5,29.5,7,5,7,1,2026-04-29T22:13:29.976321+05:30
Alappuzha,Kerala,9.4981,76.3388,26.2,87,0.0,1010.7,7.5,32.4,67,32.0,26.4,7,0,4,1,2026-04-29T22:13:29.976328+05:30
Munnar,Kerala,10.0889,77.0595,18.8,96,0.0,858.1,8.25,25.9,79,30.3,27.7,3,10,7,1,2026-04-29T22:13:29.976335+05:30
Silchar,Assam,24.8333,92.7789,20.4,98,0.0,1008.5,6.25,24.8,96,36.4,34.7,3,0,4,1,2026-04-29T22:13:29.976341+05:30
Dibrugarh,Assam,27.4728,94.912,22.1,96,0.1,998.4,6.3,31.0,107,27.7,23.5,6,5,7,1,2026-04-29T22:13:29.976348+05:30
