city,state,latitude,longitude,temp,humidity,rain,pressure,uv_index,wind_gusts,aqi,pm10,pm2_5,mosquito_risk,arthritis_risk,migraine_risk,frizz_risk,updated_at
Delhi,Delhi,28.6139,77.209,23.5,72,0.0,982.2,5.05,39.2,345,312.9,62.9,3,5,3,1,2026-04-07T19:24:34.103797+05:30
Mumbai,Maharashtra,19.076,72.8777,28.6,73,0.0,1009.9,7.95,20.9,114,61.9,20.3,7,0,4,1,2026-04-07T19:24:34.103846+05:30
Bangalore,Karnataka,12.9716,77.5946,30.7,29,0.0,911.8,9.65,28.8,93,15.0,12.5,0,5,7,0,2026-04-07T19:24:34.103861+05:30
Hyderabad,Telangana,17.385,78.4867,33.4,22,0.0,951.9,9.15,30.6,154,26.0,21.1,0,5,7,0,2026-04-07T19:24:34.103872+05:30
Chennai,Tamil Nadu,13.0827,80.2707,29.7,82,0.0,1006.1,9.35,38.5,149,36.2,29.9,7,5,4,1,2026-04-07T19:24:34.103881+05:30
Kolkata,West Bengal,22.5726,88.3639,26.4,79,0.0,1007.4,8.65,20.9,134,28.6,26.4,7,5,4,1,2026-04-07T19:24:34.103890+05:30
Pune,Maharashtra,18.5204,73.8567,27.5,55,0.0,949.4,8.55,41.0,106,68.9,25.8,4,5,7,1,2026-04-07T19:24:34.103902+05:30
Ahmedabad,Gujarat,23.0225,72.5714,27.5,74,0.0,1001.5,7.95,43.9,60,68.5,26.1,7,5,4,1,2026-04-07T19:24:34.103910+05:30
Jaipur,Rajasthan,26.9124,75.7873,22.2,70,0.0,958.0,5.7,42.8,157,473.1,64.7,3,5,3,1,2026-04-07T19:24:34.103919+05:30
Lucknow,Uttar Pradesh,26.8467,80.9462,27.3,47,0.0,994.1,7.45,43.9,123,63.8,23.1,4,5,7,0,2026-04-07T19:24:34.103927+05:30
Kanpur,Uttar Pradesh,26.4499,80.3319,22.0,77,0.1,993.1,7.45,55.1,132,91.7,28.6,6,5,7,1,2026-04-07T19:24:34.103933+05:30
Chandigarh,Chandigarh,30.7333,76.7794,20.8,82,0.1,967.4,4.55,48.6,108,65.2,23.9,6,5,3,1,2026-04-07T19:24:34.103941+05:30
Srinagar,Jammu and Kashmir,34.0837,74.7973,12.8,61,0.0,835.4,7.1,36.4,81,16.8,13.1,3,5,7,0,2026-04-07T19:24:34.103948+05:30
Jammu,Jammu and Kashmir,32.7266,74.857,18.7,88,0.7,971.5,5.5,41.8,79,49.2,22.9,6,10,3,1,2026-04-07T19:24:34.103955+05:30
Amritsar,Punjab,31.634,74.8723,18.4,88,0.1,979.5,3.0,46.4,99,311.1,64.7,6,10,3,1,2026-04-07T19:24:34.103962+05:30
Ludhiana,Punjab,30.901,75.8573,19.9,87,0.1,977.6,3.55,52.2,133,219.3,50.4,6,10,3,1,2026-04-07T19:24:34.103969+05:30
Jalandhar,Punjab,31.326,75.5762,18.9,91,0.2,979.0,4.25,47.2,118,282.2,60.8,6,10,3,1,2026-04-07T19:24:34.103978+05:30
Dehradun,Uttarakhand,30.6284,78.0322,12.5,77,0.0,828.0,6.35,36.4,96,34.3,12.3,3,5,7,0,2026-04-07T19:24:34.103985+05:30
Shimla,Himachal Pradesh,31.1048,77.1734,12.0,60,0.0,780.9,6.35,46.4,90,22.9,10.7,0,5,7,0,2026-04-07T19:24:34.103991+05:30
Manali,Himachal Pradesh,32.2396,77.1887,11.5,92,0.1,815.3,8.95,29.2,146,8.7,5.5,6,10,7,0,2026-04-07T19:24:34.103999+05:30
Gurgaon,Haryana,28.4595,77.0266,23.5,70,0.0,980.5,3.75,39.2,908,914.6,122.0,3,5,3,1,2026-04-07T19:24:34.104006+05:30
Noida,Uttar Pradesh,28.5355,77.391,23.0,77,0.0,983.8,4.95,40.0,908,914.6,122.0,3,5,3,1,2026-04-07T19:24:34.104013+05:30
Ghaziabad,Uttar Pradesh,28.6692,77.4538,22.5,78,0.0,982.0,5.3,37.1,165,209.1,44.2,3,5,3,1,2026-04-07T19:24:34.104019+05:30
Faridabad,Haryana,28.4089,77.3178,23.0,73,0.0,983.0,5.4,37.4,908,914.6,122.0,3,5,3,1,2026-04-07T19:24:34.104026+05:30
Meerut,Uttar Pradesh,28.9845,77.7064,21.3,84,0.0,980.7,5.65,37.1,165,209.1,44.2,3,5,3,1,2026-04-07T19:24:34.104033+05:30
Agra,Uttar Pradesh,27.1767,78.0081,24.4,66,0.0,987.0,5.6,37.1,401,622.1,68.9,3,5,3,1,2026-04-07T19:24:34.104039+05:30
Varanasi,Uttar Pradesh,25.3176,82.9739,29.5,41,0.0,996.6,8.05,55.8,135,72.6,28.2,4,5,7,0,2026-04-07T19:24:34.104050+05:30
Prayagraj,Uttar Pradesh,25.4358,81.8463,28.5,45,0.0,995.4,7.95,69.5,143,79.6,25.8,4,5,7,0,2026-04-07T19:24:34.104057+05:30
Gorakhpur,Uttar Pradesh,26.7606,83.3732,28.4,32,0.0,996.3,7.85,27.0,132,62.6,19.7,4,5,7,0,2026-04-07T19:24:34.104064+05:30
Bareilly,Uttar Pradesh,28.367,79.4304,24.6,64,0.0,986.4,7.05,37.1,123,65.7,25.2,3,5,7,1,2026-04-07T19:24:34.104072+05:30
Aligarh,Uttar Pradesh,27.8974,78.088,22.5,73,0.0,984.9,6.0,32.4,301,341.8,50.2,3,5,3,1,2026-04-07T19:24:34.104079+05:30
Moradabad,Uttar Pradesh,28.8386,78.7733,23.1,72,0.0,983.2,6.95,30.2,114,88.2,31.8,3,5,7,1,2026-04-07T19:24:34.104085+05:30
Saharanpur,Uttar Pradesh,29.9637,77.546,20.9,79,0.0,975.4,4.3,35.3,116,77.5,27.2,3,5,3,1,2026-04-07T19:24:34.104091+05:30
Jhansi,Uttar Pradesh,25.4484,78.5685,24.9,58,0.0,977.2,7.75,47.2,126,43.2,20.3,0,5,7,0,2026-04-07T19:24:37.325551+05:30
Surat,Gujarat,21.1702,72.8311,27.7,75,0.0,1007.3,7.7,45.0,69,34.2,17.7,7,5,4,1,2026-04-07T19:24:37.325582+05:30
Vadodara,Gujarat,22.3072,73.1812,28.9,71,0.0,1004.0,7.95,46.4,61,51.7,24.0,7,5,4,1,2026-04-07T19:24:37.325592+05:30
Rajkot,Gujarat,22.3039,70.8022,29.0,60,0.0,994.1,7.7,46.8,55,44.9,17.6,4,5,7,1,2026-04-07T19:24:37.325601+05:30
Thane,Maharashtra,19.2183,72.9781,28.1,70,0.0,1009.3,7.95,33.8,114,61.9,20.3,7,0,4,1,2026-04-07T19:24:37.325608+05:30
Nagpur,Maharashtra,21.1458,79.0882,28.8,44,0.0,971.1,8.7,22.3,141,16.6,12.8,4,5,7,0,2026-04-07T19:24:37.325616+05:30
Nashik,Maharashtra,19.9975,73.7898,25.4,67,0.0,946.6,8.2,40.7,58,65.4,18.7,7,5,7,1,2026-04-07T19:24:37.325623+05:30
Aurangabad,Maharashtra,19.8762,75.3433,30.1,30,0.0,944.0,8.85,36.7,69,65.9,21.4,0,5,7,0,2026-04-07T19:24:37.325631+05:30
Solapur,Maharashtra,17.6599,75.9064,32.7,24,0.0,956.3,9.0,30.2,120,29.3,13.1,0,5,7,0,2026-04-07T19:24:37.325639+05:30
Kolhapur,Maharashtra,16.705,74.2433,25.0,64,0.0,948.5,9.0,45.7,87,26.0,15.6,7,5,7,1,2026-04-07T19:24:37.325646+05:30
Goa,Goa,15.2993,74.124,28.2,67,0.0,999.4,9.0,33.1,57,20.5,11.4,7,5,7,1,2026-04-07T19:24:37.325653+05:30
Jodhpur,Rajasthan,26.2389,73.0243,23.6,72,0.0,980.0,7.9,47.2,114,350.2,54.1,3,5,7,1,2026-04-07T19:24:37.325660+05:30
Udaipur,Rajasthan,24.5854,73.7125,24.0,69,0.0,944.5,8.5,55.1,51,60.8,22.4,3,5,7,1,2026-04-07T19:24:37.325667+05:30
Kota,Rajasthan,25.2138,75.8648,28.8,46,0.0,976.0,7.9,42.8,69,34.2,15.7,4,5,7,1,2026-04-07T19:24:37.325673+05:30
Bikaner,Rajasthan,28.0229,73.3119,24.6,59,0.0,979.2,6.6,36.4,91,65.7,18.5,0,5,7,1,2026-04-07T19:24:37.325680+05:30
Ajmer,Rajasthan,26.4499,74.6399,21.0,81,0.0,951.5,7.8,52.6,57,60.8,16.8,3,5,7,1,2026-04-07T19:24:37.325686+05:30
Gwalior,Madhya Pradesh,26.2183,78.1828,25.6,59,0.0,982.3,7.25,37.8,114,57.3,23.1,4,5,7,1,2026-04-07T19:24:37.325693+05:30
Indore,Madhya Pradesh,22.7196,75.8577,28.9,36,0.0,946.9,8.4,42.8,65,66.6,24.6,4,5,7,0,2026-04-07T19:24:37.325699+05:30
Bhopal,Madhya Pradesh,23.2599,77.4126,29.3,28,0.0,952.0,8.35,45.7,80,55.6,21.2,4,5,7,0,2026-04-07T19:24:37.325728+05:30
Jabalpur,Madhya Pradesh,23.1815,79.9864,31.5,24,0.0,959.6,8.5,38.2,127,18.1,15.4,0,5,7,0,2026-04-07T19:24:37.325735+05:30
Ujjain,Madhya Pradesh,23.1765,75.7885,28.7,37,0.0,952.4,8.3,45.7,62,58.6,22.8,4,5,7,0,2026-04-07T19:24:37.325743+05:30
Visakhapatnam,Andhra Pradesh,17.6868,83.2185,28.4,82,0.0,1003.5,9.1,33.5,77,26.5,21.4,7,5,4,1,2026-04-07T19:24:37.325750+05:30
Vijayawada,Andhra Pradesh,16.5062,80.648,32.3,55,0.0,1000.5,9.15,31.7,140,51.8,48.8,0,5,4,1,2026-04-07T19:24:37.325756+05:30
Guntur,Andhra Pradesh,16.3067,80.4365,30.6,70,0.0,1002.0,9.2,31.7,137,39.0,36.4,3,5,4,1,2026-04-07T19:24:37.325763+05:30
Nellore,Andhra Pradesh,14.4426,79.9865,29.6,80,0.0,1004.5,9.3,37.4,173,32.2,28.7,7,5,4,1,2026-04-07T19:24:37.325771+05:30
Kurnool,Andhra Pradesh,15.8281,78.0373,34.5,24,0.0,975.2,9.2,25.2,163,27.1,20.9,0,5,7,0,2026-04-07T19:24:37.325778+05:30
Kakinada,Andhra Pradesh,16.9891,82.2475,29.3,77,0.0,1006.8,9.1,27.0,59,26.4,20.1,7,5,4,1,2026-04-07T19:24:37.325785+05:30
Tirupati,Andhra Pradesh,13.6288,79.4192,32.3,61,0.0,990.3,9.4,29.5,139,24.7,22.8,3,5,7,1,2026-04-07T19:24:37.325791+05:30
Warangal,Telangana,17.9689,79.5941,33.1,40,0.0,976.6,9.05,33.5,147,31.3,26.9,0,5,7,1,2026-04-07T19:24:37.325798+05:30
Nizamabad,Telangana,18.6725,78.0941,30.9,36,0.0,963.7,8.95,28.4,122,32.4,22.6,0,5,7,0,2026-04-07T19:24:37.325806+05:30
Mysore,Karnataka,12.2958,76.6396,28.4,53,0.0,928.8,9.55,37.1,79,10.4,8.2,4,5,7,1,2026-04-07T19:24:37.325813+05:30
Mangalore,Karnataka,12.9141,74.856,29.2,67,0.0,1008.0,9.15,31.0,59,22.1,11.8,7,0,4,1,2026-04-07T19:24:37.325819+05:30
Hubli-Dharwad,Karnataka,15.3647,75.124,26.0,66,0.0,941.4,9.2,41.4,107,14.9,9.7,7,5,7,1,2026-04-07T19:24:37.325825+05:30
Belgaum,Karnataka,15.8497,74.4977,24.0,71,0.0,926.4,9.25,37.1,88,19.2,11.6,3,5,7,1,2026-04-07T19:25:11.951384+05:30
Coimbatore,Tamil Nadu,11.0168,76.9558,27.3,62,0.0,961.8,9.5,56.2,69,15.5,11.9,7,5,7,1,2026-04-07T19:25:11.951417+05:30
Madurai,Tamil Nadu,9.9252,78.1198,32.4,54,0.0,992.1,7.9,33.8,119,35.9,28.1,0,5,7,1,2026-04-07T19:25:11.951429+05:30
Trichy,Tamil Nadu,10.7905,78.7047,32.8,64,0.0,998.0,8.7,35.3,116,31.1,26.4,3,5,7,1,2026-04-07T19:25:11.951440+05:30
Salem,Tamil Nadu,11.6643,78.146,35.7,30,0.0,975.6,9.45,31.3,135,15.4,11.8,0,5,10,0,2026-04-07T19:25:11.951449+05:30
Tirunelveli,Tamil Nadu,8.7139,77.7567,32.9,49,0.0,1002.6,9.15,23.8,71,21.0,15.4,0,5,4,1,2026-04-07T19:25:11.951458+05:30
Vellore,Tamil Nadu,12.9165,79.1325,33.1,46,0.0,982.9,9.45,27.0,135,22.7,21.4,0,5,7,1,2026-04-07T19:25:11.951468+05:30
Erode,Tamil Nadu,11.341,77.7172,34.9,36,0.0,987.3,9.4,37.4,116,20.7,15.8,0,5,7,1,2026-04-07T19:25:11.951476+05:30
Kochi,Kerala,9.9312,76.2673,29.3,70,0.0,1009.6,9.25,41.0,67,23.9,15.2,7,0,4,1,2026-04-07T19:25:11.951485+05:30
Thiruvananthapuram,Kerala,8.5241,76.9366,29.5,75,0.0,1008.4,8.5,54.4,63,26.8,15.2,7,0,4,1,2026-04-07T19:25:11.951494+05:30
Kozhikode,Kerala,11.2588,75.7804,28.9,72,0.0,1008.8,9.15,37.1,58,26.5,14.3,7,0,4,1,2026-04-07T19:25:11.951502+05:30
Thrissur,Kerala,10.5276,76.2144,28.4,71,0.0,1007.9,9.2,40.3,63,21.6,13.8,7,5,4,1,2026-04-07T19:25:11.951511+05:30
Kannur,Kerala,11.8745,75.3704,28.5,70,0.0,1008.2,9.15,39.6,56,21.9,12.5,7,0,4,1,2026-04-07T19:25:11.951519+05:30
Patna,Bihar,25.5941,85.1376,30.5,34,0.0,999.5,8.2,27.0,139,70.5,29.2,0,5,7,0,2026-04-07T19:25:11.951527+05:30
Gaya,Bihar,24.7914,85.0002,29.9,38,0.0,993.2,8.3,20.5,127,51.3,21.7,4,5,7,0,2026-04-07T19:25:11.951535+05:30
Muzaffarpur,Bihar,26.1209,85.3647,30.1,39,0.0,999.5,8.15,24.5,143,75.2,34.1,0,5,7,0,2026-04-07T19:25:11.951543+05:30
Bhagalpur,Bihar,25.2425,87.0117,29.4,43,0.0,1000.8,8.25,20.5,131,41.6,24.0,4,5,4,0,2026-04-07T19:25:11.951551+05:30
Ranchi,Jharkhand,23.3441,85.3096,24.5,54,0.0,938.0,8.9,31.0,124,26.4,14.3,0,5,7,0,2026-04-07T19:25:11.951559+05:30
Jamshedpur,Jharkhand,22.8046,86.2029,26.7,69,0.0,991.5,8.75,37.4,154,35.7,30.7,7,5,7,1,2026-04-07T19:25:11.951567+05:30
Dhanbad,Jharkhand,23.7957,86.4304,27.9,48,0.0,980.2,8.65,27.7,138,66.6,55.6,4,5,7,0,2026-04-07T19:25:11.951576+05:30
Bokaro,Jharkhand,23.6693,86.1511,27.7,51,0.0,984.2,8.7,33.5,131,59.0,44.5,4,5,7,1,2026-04-07T19:25:11.951584+05:30
Bhubaneswar,Odisha,20.2961,85.8245,27.5,82,0.0,1003.0,8.95,33.8,114,25.0,22.0,7,5,4,1,2026-04-07T19:25:11.951592+05:30
Cuttack,Odisha,20.4625,85.8828,28.2,77,0.0,1004.5,9.0,37.8,114,25.0,22.0,7,5,4,1,2026-04-07T19:25:11.951600+05:30
Rourkela,Odisha,22.2604,84.8536,25.4,68,0.0,986.1,8.7,25.6,141,39.7,30.2,7,5,7,1,2026-04-07T19:25:11.951608+05:30
Raipur,Chhattisgarh,21.2514,81.6296,33.4,24,0.0,972.6,8.8,24.1,195,55.1,46.0,0,5,7,0,2026-04-07T19:25:11.951617+05:30
Bhilai,Chhattisgarh,21.1938,81.3509,32.6,26,0.0,972.9,8.8,25.9,182,42.3,33.9,0,5,7,0,2026-04-07T19:25:11.951625+05:30
Guwahati,Assam,26.1158,91.7086,26.5,71,0.0,1003.0,8.15,35.3,112,36.0,33.2,7,5,4,1,2026-04-07T19:25:11.951633+05:30
Agartala,Tripura,23.8315,91.2868,26.0,70,0.0,1007.5,8.45,38.9,157,39.9,38.1,7,5,4,1,2026-04-07T19:25:11.951641+05:30
Shillong,Meghalaya,25.5788,91.8933,12.5,92,0.0,856.3,6.3,42.5,106,34.3,30.9,3,10,7,0,2026-04-07T19:25:11.951650+05:30
Imphal,Manipur,24.817,93.9368,17.8,78,0.0,924.5,8.4,43.9,106,27.8,23.9,3,5,7,0,2026-04-07T19:25:11.951658+05:30
Aizawl,Mizoram,23.7271,92.7176,18.1,80,0.0,893.8,8.65,42.1,96,29.7,26.8,3,5,7,0,2026-04-07T19:25:11.951667+05:30
Kohima,Nagaland,25.6701,94.1077,14.5,89,0.0,855.2,8.35,71.6,88,31.8,26.1,3,10,7,0,2026-04-07T19:25:11.951675+05:30
Gangtok,Sikkim,27.3314,88.6138,13.1,83,0.0,837.3,8.5,23.4,99,25.1,19.2,3,10,7,0,2026-04-07T19:25:11.951683+05:30
Siliguri,West Bengal,26.7271,88.3953,22.4,58,0.0,994.5,8.1,32.8,116,31.8,23.9,0,5,7,0,2026-04-07T19:25:15.181982+05:30
Durgapur,West Bengal,23.5204,87.3119,24.4,78,0.0,995.8,8.45,29.5,154,47.7,44.7,3,5,7,1,2026-04-07T19:25:15.182013+05:30
Asansol,West Bengal,23.6739,86.9524,24.6,73,0.0,994.4,8.65,36.4,143,45.6,38.9,3,5,7,1,2026-04-07T19:25:15.182023+05:30
Pondicherry,Puducherry,11.9139,79.8145,29.9,80,0.0,1007.0,8.9,31.3,137,29.5,23.1,7,5,4,1,2026-04-07T19:25:15.182031+05:30
Port Blair,Andaman and Nicobar Islands,11.6234,92.7265,29.3,69,0.0,1008.5,9.25,13.0,30,4.5,3.0,7,0,4,1,2026-04-07T19:25:15.182039+05:30
Haridwar,Uttarakhand,29.9457,78.1642,22.1,71,0.0,974.3,5.3,41.4,118,53.0,20.5,3,5,3,1,2026-04-07T19:25:15.182047+05:30
Rishikesh,Uttarakhand,30.0869,78.2676,21.1,69,0.0,967.0,6.4,28.4,117,50.8,20.1,3,5,7,0,2026-04-07T19:25:15.182055+05:30
Nainital,Uttarakhand,29.3919,79.4542,17.6,60,0.0,805.3,5.85,40.0,122,50.4,18.0,0,5,3,0,2026-04-07T19:25:15.182062+05:30
Mussoorie,Uttarakhand,30.4599,78.0664,13.2,73,0.0,800.2,5.2,42.1,103,38.0,16.9,3,5,3,0,2026-04-07T19:25:15.182069+05:30
Dharamshala,Himachal Pradesh,32.219,76.3234,15.5,82,0.1,865.8,6.4,37.4,96,14.2,8.4,6,10,7,0,2026-04-07T19:25:15.182076+05:30
Dalhousie,Himachal Pradesh,32.5387,75.971,12.2,84,0.0,799.4,5.3,33.1,95,31.2,16.4,3,10,3,0,2026-04-07T19:25:15.182085+05:30
Patiala,Punjab,30.3398,76.3869,20.5,88,0.1,977.4,5.8,47.5,223,248.7,54.7,6,5,3,1,2026-04-07T19:25:15.182092+05:30
Bhatinda,Punjab,30.211,74.9455,18.9,88,0.0,982.6,4.2,52.2,107,66.6,21.2,3,10,3,1,2026-04-07T19:25:15.182099+05:30
Rohtak,Haryana,28.8955,76.6066,20.7,82,0.0,981.0,5.15,41.0,490,199.8,49.7,3,5,3,1,2026-04-07T19:25:15.182106+05:30
Panipat,Haryana,29.3909,76.9635,20.9,84,0.0,979.9,4.7,49.7,662,207.2,51.1,3,5,3,1,2026-04-07T19:25:15.182112+05:30
Mathura,Uttar Pradesh,27.4924,77.6737,24.5,59,0.0,985.9,6.2,34.9,466,573.7,69.6,0,5,7,0,2026-04-07T19:25:15.182119+05:30
Vrindavan,Uttar Pradesh,27.5823,77.7027,24.1,61,0.0,986.4,5.8,38.2,466,573.7,69.6,3,5,3,1,2026-04-07T19:25:15.182125+05:30
Ayodhya,Uttar Pradesh,26.7922,82.1998,28.4,37,0.0,994.7,7.6,52.9,124,70.8,22.5,4,5,7,0,2026-04-07T19:25:15.182132+05:30
Ratlam,Madhya Pradesh,23.3315,75.0367,27.6,51,0.0,953.6,8.25,50.4,57,62.4,23.7,4,5,7,1,2026-04-07T19:25:15.182140+05:30
Sagar,Madhya Pradesh,23.8388,78.7378,29.8,27,0.0,948.1,8.35,37.4,104,32.0,14.8,4,5,7,0,2026-04-07T19:25:15.182146+05:30
Satna,Madhya Pradesh,24.6005,80.8322,28.5,37,0.0,970.5,8.3,32.4,137,23.2,14.6,4,5,7,0,2026-04-07T19:25:15.182153+05:30
Akola,Maharashtra,20.7002,77.0082,32.0,28,0.0,974.2,8.65,36.0,99,40.5,18.6,0,5,7,0,2026-04-07T19:25:15.182160+05:30
Amravati,Maharashtra,20.9374,77.7796,31.6,31,0.0,965.9,8.7,33.5,104,34.5,17.7,0,5,7,0,2026-04-07T19:25:15.182166+05:30
Latur,Maharashtra,18.4088,76.5604,29.0,32,0.0,939.4,8.95,27.0,91,33.2,15.3,4,5,7,0,2026-04-07T19:25:15.182172+05:30
Nanded,Maharashtra,19.1383,77.3091,30.9,35,0.0,967.7,8.85,25.2,109,35.2,16.8,0,5,7,0,2026-04-07T19:25:15.182179+05:30
Gulbarga,Karnataka,17.3297,76.8343,33.7,24,0.0,957.8,9.05,29.2,138,22.2,13.2,0,5,7,0,2026-04-07T19:25:15.182185+05:30
Bidar,Karnataka,17.9104,77.5199,32.1,27,0.0,934.9,9.0,30.2,141,27.4,18.9,0,5,7,0,2026-04-07T19:25:15.182191+05:30
Hospet,Karnataka,15.2689,76.3909,33.6,25,0.0,955.2,9.25,31.7,101,14.3,9.1,0,5,7,0,2026-04-07T19:25:15.182197+05:30
Tirupur,Tamil Nadu,11.1085,77.3411,30.2,51,0.0,974.4,9.5,45.4,102,19.8,15.8,0,5,7,1,2026-04-07T19:25:15.182204+05:30
Alappuzha,Kerala,9.4981,76.3388,29.4,71,0.0,1009.7,8.7,41.8,68,27.6,16.2,7,0,4,1,2026-04-07T19:25:15.182210+05:30
Munnar,Kerala,10.0889,77.0595,22.6,79,0.0,858.2,9.0,40.3,65,20.3,15.4,3,5,7,1,2026-04-07T19:25:15.182217+05:30
Silchar,Assam,24.8333,92.7789,25.4,75,0.0,1006.8,8.3,26.3,153,46.8,42.0,7,5,4,1,2026-04-07T19:25:15.182224+05:30
Dibrugarh,Assam,27.4728,94.912,21.4,84,0.0,998.6,7.4,31.0,83,50.4,41.8,3,5,7,1,2026-04-07T19:25:15.182231+05:30
