city,state,latitude,longitude,temp,humidity,rain,pressure,uv_index,wind_gusts,aqi,pm10,pm2_5,no2,co,o3,so2,mosquito_risk,arthritis_risk,migraine_risk,frizz_risk,updated_at
Delhi,Delhi,28.6139,77.209,34.7,29,0.0,980.5,7.7,39.2,180,351.1,128.1,30.2,761.0,179.0,49.4,0,5,7,0,2026-05-15T10:22:41.214795+05:30
Mumbai,Maharashtra,19.076,72.8777,32.7,62,0.0,1006.9,6.6,47.5,71,26.0,19.0,7.2,247.0,85.0,6.5,3,5,4,1,2026-05-15T10:22:41.214843+05:30
Bangalore,Karnataka,12.9716,77.5946,31.5,36,0.0,910.4,9.45,42.8,108,59.3,41.7,20.6,454.0,96.0,11.7,0,5,7,0,2026-05-15T10:22:41.214859+05:30
Hyderabad,Telangana,17.385,78.4867,33.8,39,0.0,951.7,8.85,31.3,108,68.2,46.0,8.6,476.0,126.0,11.3,0,5,7,1,2026-05-15T10:22:41.214868+05:30
Chennai,Tamil Nadu,13.0827,80.2707,31.1,70,0.1,1003.3,7.1,39.2,37,12.6,8.1,3.4,365.0,49.0,6.5,6,5,4,1,2026-05-15T10:22:41.214877+05:30
Kolkata,West Bengal,22.5726,88.3639,33.8,59,0.0,1003.0,8.85,37.1,52,24.6,14.3,2.4,303.0,88.0,6.4,0,5,4,1,2026-05-15T10:22:41.214883+05:30
Pune,Maharashtra,18.5204,73.8567,33.6,32,0.0,947.4,8.35,44.3,85,35.6,22.6,8.8,262.0,95.0,17.5,0,5,7,0,2026-05-15T10:22:41.214890+05:30
Ahmedabad,Gujarat,23.0225,72.5714,33.8,46,0.0,1000.4,8.15,33.5,45,19.1,10.2,3.6,182.0,62.0,3.6,0,5,4,1,2026-05-15T10:22:41.214896+05:30
Jaipur,Rajasthan,26.9124,75.7873,34.9,27,0.0,958.1,8.2,38.2,116,258.0,51.5,5.0,314.0,96.0,6.6,0,5,7,0,2026-05-15T10:22:41.214924+05:30
Lucknow,Uttar Pradesh,26.8467,80.9462,31.8,59,0.0,991.2,8.2,43.2,143,73.1,46.2,8.4,460.0,147.0,15.9,0,5,7,1,2026-05-15T10:22:41.214931+05:30
Kanpur,Uttar Pradesh,26.4499,80.3319,32.2,58,0.0,989.2,8.2,52.2,152,147.1,48.9,6.4,453.0,153.0,16.2,0,5,7,1,2026-05-15T10:22:41.214938+05:30
Chandigarh,Chandigarh,30.7333,76.7794,32.0,34,0.0,966.3,7.6,35.6,80,46.8,30.0,11.0,735.0,134.0,12.8,0,5,7,0,2026-05-15T10:22:41.214945+05:30
Srinagar,Jammu and Kashmir,34.0837,74.7973,18.4,61,0.0,842.7,8.05,25.2,80,27.9,19.7,6.1,550.0,97.0,3.8,3,5,7,0,2026-05-15T10:22:41.214952+05:30
Jammu,Jammu and Kashmir,32.7266,74.857,30.5,39,0.0,970.3,8.45,28.1,89,24.4,15.0,9.4,374.0,95.0,3.2,0,5,7,0,2026-05-15T10:22:41.214959+05:30
Amritsar,Punjab,31.634,74.8723,31.5,39,0.0,978.4,8.35,42.1,141,63.6,44.1,12.3,493.0,115.0,8.8,0,5,7,0,2026-05-15T10:22:41.214966+05:30
Ludhiana,Punjab,30.901,75.8573,32.3,34,0.0,976.3,7.55,49.3,120,79.4,48.7,11.3,515.0,107.0,8.7,0,5,7,0,2026-05-15T10:22:41.214974+05:30
Jalandhar,Punjab,31.326,75.5762,31.2,40,0.0,977.4,8.1,45.4,142,95.2,52.6,9.6,557.0,115.0,6.5,0,5,7,0,2026-05-15T10:22:41.214980+05:30
Dehradun,Uttarakhand,30.6284,78.0322,24.8,30,0.0,831.4,7.4,34.6,58,16.6,7.0,1.4,192.0,131.0,1.1,0,5,7,0,2026-05-15T10:22:41.215001+05:30
Shimla,Himachal Pradesh,31.1048,77.1734,21.2,27,0.0,786.2,8.2,44.3,55,39.9,14.2,0.8,181.0,133.0,1.9,0,5,7,0,2026-05-15T10:22:41.215010+05:30
Manali,Himachal Pradesh,32.2396,77.1887,19.8,36,0.0,817.8,9.35,38.9,41,11.9,5.2,6.1,145.0,128.0,0.4,0,5,7,0,2026-05-15T10:22:41.215016+05:30
Gurgaon,Haryana,28.4595,77.0266,33.7,32,0.0,979.1,7.8,36.4,579,566.2,141.1,22.8,630.0,152.0,34.2,0,5,7,0,2026-05-15T10:22:41.215023+05:30
Noida,Uttar Pradesh,28.5355,77.391,32.8,38,0.0,982.1,7.7,36.4,579,566.2,141.1,22.8,733.0,152.0,34.2,0,5,7,1,2026-05-15T10:22:41.215030+05:30
Ghaziabad,Uttar Pradesh,28.6692,77.4538,32.2,41,0.0,980.4,7.7,40.7,170,289.6,103.8,14.1,394.0,185.0,39.4,0,5,7,1,2026-05-15T10:22:41.215036+05:30
Faridabad,Haryana,28.4089,77.3178,33.8,30,0.0,981.3,7.75,44.6,579,566.2,141.1,22.8,625.0,152.0,34.2,0,5,7,0,2026-05-15T10:22:41.215042+05:30
Meerut,Uttar Pradesh,28.9845,77.7064,30.9,45,0.0,979.3,7.6,58.7,170,289.6,103.8,14.1,383.0,185.0,39.4,0,5,7,1,2026-05-15T10:22:41.215049+05:30
Agra,Uttar Pradesh,27.1767,78.0081,35.1,35,0.0,985.0,8.05,31.3,353,434.0,102.2,8.1,557.0,147.0,17.1,0,5,10,1,2026-05-15T10:22:41.215056+05:30
Varanasi,Uttar Pradesh,25.3176,82.9739,36.3,43,0.0,994.6,8.75,30.6,125,54.4,39.6,7.8,846.0,160.0,23.0,0,5,10,1,2026-05-15T10:22:41.215063+05:30
Prayagraj,Uttar Pradesh,25.4358,81.8463,34.5,47,0.0,993.6,8.6,36.4,129,57.4,42.3,8.5,604.0,154.0,21.2,0,5,7,1,2026-05-15T10:22:41.215077+05:30
Gorakhpur,Uttar Pradesh,26.7606,83.3732,31.2,60,0.0,995.8,8.6,28.8,137,60.3,45.4,5.3,516.0,147.0,14.1,0,5,7,1,2026-05-15T10:22:41.215085+05:30
Bareilly,Uttar Pradesh,28.367,79.4304,31.5,57,0.0,984.0,8.0,25.9,156,117.1,56.7,7.4,550.0,156.0,15.7,0,5,7,1,2026-05-15T10:22:41.215091+05:30
Aligarh,Uttar Pradesh,27.8974,78.088,32.5,45,0.0,982.9,7.85,37.1,239,389.3,92.2,6.3,530.0,148.0,18.3,0,5,7,1,2026-05-15T10:22:41.215098+05:30
Moradabad,Uttar Pradesh,28.8386,78.7733,32.8,39,0.0,981.0,7.8,32.0,170,99.0,69.4,9.1,628.0,167.0,21.0,0,5,7,1,2026-05-15T10:22:41.215104+05:30
Saharanpur,Uttar Pradesh,29.9637,77.546,31.5,45,0.0,973.0,7.3,31.3,152,69.2,64.3,15.6,527.0,160.0,20.4,0,5,7,1,2026-05-15T10:22:41.215110+05:30
Jhansi,Uttar Pradesh,25.4484,78.5685,35.8,36,0.0,975.1,8.5,33.8,102,100.1,41.8,3.7,303.0,125.0,14.1,0,5,10,1,2026-05-15T10:22:44.458529+05:30
Surat,Gujarat,21.1702,72.8311,36.0,39,0.0,1005.0,7.65,40.3,90,37.3,31.7,30.5,521.0,48.0,90.5,0,5,7,1,2026-05-15T10:22:44.458566+05:30
Vadodara,Gujarat,22.3072,73.1812,35.0,41,0.0,1002.6,8.15,33.8,60,23.3,14.2,6.2,207.0,69.0,9.2,0,5,4,1,2026-05-15T10:22:44.458575+05:30
Rajkot,Gujarat,22.3039,70.8022,32.7,52,0.0,992.8,7.75,48.6,42,17.0,10.6,2.9,123.0,63.0,6.2,0,5,7,1,2026-05-15T10:22:44.458584+05:30
Thane,Maharashtra,19.2183,72.9781,34.7,51,0.0,1006.0,6.7,42.8,71,26.0,19.0,7.2,205.0,85.0,6.5,0,5,4,1,2026-05-15T10:22:44.458591+05:30
Nagpur,Maharashtra,21.1458,79.0882,39.5,21,0.0,969.9,8.95,48.6,131,57.4,43.0,11.2,310.0,121.0,26.4,0,5,10,0,2026-05-15T10:22:44.458599+05:30
Nashik,Maharashtra,19.9975,73.7898,33.5,30,0.0,945.2,7.75,42.8,62,23.1,15.5,3.4,198.0,88.0,3.2,0,5,7,0,2026-05-15T10:22:44.458605+05:30
Aurangabad,Maharashtra,19.8762,75.3433,35.7,20,0.0,943.5,8.7,38.2,74,28.8,15.9,3.9,175.0,100.0,6.9,0,5,10,0,2026-05-15T10:22:44.458613+05:30
Solapur,Maharashtra,17.6599,75.9064,33.8,35,0.0,955.8,6.4,34.6,111,41.2,25.4,4.5,212.0,117.0,11.4,0,5,7,1,2026-05-15T10:22:44.458620+05:30
Kolhapur,Maharashtra,16.705,74.2433,32.0,36,0.0,947.2,4.6,45.0,80,36.9,21.9,6.2,257.0,88.0,5.7,0,5,3,0,2026-05-15T10:22:44.458627+05:30
Goa,Goa,15.2993,74.124,33.3,53,0.0,995.7,7.85,41.8,77,31.5,19.7,1.8,209.0,83.0,2.1,0,5,7,1,2026-05-15T10:22:44.458634+05:30
Jodhpur,Rajasthan,26.2389,73.0243,35.3,26,0.0,980.3,8.4,37.1,137,277.5,58.9,2.2,140.0,82.0,4.1,0,5,10,0,2026-05-15T10:22:44.458641+05:30
Udaipur,Rajasthan,24.5854,73.7125,35.3,25,0.0,945.1,8.85,36.0,58,32.8,11.6,1.3,137.0,92.0,3.3,0,5,10,0,2026-05-15T10:22:44.458648+05:30
Kota,Rajasthan,25.2138,75.8648,37.3,23,0.0,976.5,8.45,28.1,81,81.7,30.0,3.6,208.0,105.0,6.0,0,5,10,0,2026-05-15T10:22:44.458655+05:30
Bikaner,Rajasthan,28.0229,73.3119,35.2,29,0.0,979.3,8.35,69.8,85,134.6,51.3,1.3,258.0,86.0,3.9,0,5,10,0,2026-05-15T10:22:44.458662+05:30
Ajmer,Rajasthan,26.4499,74.6399,35.0,24,0.0,952.9,8.35,38.5,78,139.2,40.7,2.1,153.0,89.0,5.3,0,5,7,0,2026-05-15T10:22:44.458669+05:30
Gwalior,Madhya Pradesh,26.2183,78.1828,36.2,28,0.0,980.4,8.25,36.0,146,161.6,58.8,3.5,378.0,131.0,13.0,0,5,10,0,2026-05-15T10:22:44.458675+05:30
Indore,Madhya Pradesh,22.7196,75.8577,37.2,19,0.0,946.9,8.7,42.8,69,22.8,12.8,3.0,238.0,95.0,4.6,0,5,10,0,2026-05-15T10:22:44.458681+05:30
Bhopal,Madhya Pradesh,23.2599,77.4126,37.5,24,0.0,951.3,8.75,37.8,89,32.7,15.1,2.3,220.0,99.0,5.6,0,5,10,0,2026-05-15T10:22:44.458688+05:30
Jabalpur,Madhya Pradesh,23.1815,79.9864,38.0,30,0.0,958.4,8.9,37.1,116,61.7,44.5,4.3,254.0,135.0,18.7,0,5,10,1,2026-05-15T10:22:44.458694+05:30
Ujjain,Madhya Pradesh,23.1765,75.7885,37.6,19,0.0,952.2,8.65,37.4,65,21.3,12.3,1.9,190.0,93.0,4.1,0,5,10,0,2026-05-15T10:22:44.458702+05:30
Visakhapatnam,Andhra Pradesh,17.6868,83.2185,33.2,59,0.0,1001.0,7.65,34.9,72,42.8,32.6,29.1,539.0,34.0,96.8,0,5,4,1,2026-05-15T10:22:44.458708+05:30
Vijayawada,Andhra Pradesh,16.5062,80.648,33.8,58,0.0,1000.2,8.85,41.0,60,25.8,16.8,3.6,181.0,72.0,8.8,0,5,4,1,2026-05-15T10:22:44.458714+05:30
Guntur,Andhra Pradesh,16.3067,80.4365,34.5,53,0.0,1001.3,9.2,38.5,63,27.1,16.7,3.6,183.0,72.0,8.7,0,5,4,1,2026-05-15T10:22:44.458720+05:30
Nellore,Andhra Pradesh,14.4426,79.9865,35.2,51,0.0,1002.4,8.85,37.8,40,18.8,9.8,1.6,160.0,58.0,2.7,0,5,7,1,2026-05-15T10:22:44.458728+05:30
Kurnool,Andhra Pradesh,15.8281,78.0373,36.3,38,0.0,974.6,8.0,37.1,98,65.4,44.0,5.9,263.0,129.0,11.2,0,5,10,1,2026-05-15T10:22:44.458735+05:30
Kakinada,Andhra Pradesh,16.9891,82.2475,33.5,60,0.0,1004.5,8.45,39.2,38,15.5,10.2,1.4,252.0,58.0,1.7,0,5,4,1,2026-05-15T10:22:44.458742+05:30
Tirupati,Andhra Pradesh,13.6288,79.4192,34.7,40,0.0,987.7,8.25,40.0,65,28.1,14.8,2.7,312.0,70.0,3.7,0,5,7,1,2026-05-15T10:22:44.458748+05:30
Warangal,Telangana,17.9689,79.5941,34.7,48,0.0,976.4,8.9,35.3,89,39.3,23.7,6.0,261.0,66.0,9.4,0,5,7,1,2026-05-15T10:22:44.458755+05:30
Nizamabad,Telangana,18.6725,78.0941,36.9,32,0.0,963.0,9.1,33.5,132,107.6,62.2,4.3,233.0,133.0,7.9,0,5,10,1,2026-05-15T10:22:44.458761+05:30
Mysore,Karnataka,12.2958,76.6396,30.5,51,0.0,926.9,8.95,34.6,95,44.2,27.8,7.2,280.0,107.0,4.7,0,5,7,1,2026-05-15T10:22:44.458768+05:30
Mangalore,Karnataka,12.9141,74.856,32.9,61,0.0,1003.9,8.5,53.6,88,31.2,18.2,4.3,264.0,88.0,3.4,3,5,4,1,2026-05-15T10:22:44.458774+05:30
Hubli-Dharwad,Karnataka,15.3647,75.124,33.2,43,0.0,939.6,7.0,37.8,77,60.5,29.9,4.7,249.0,107.0,4.2,0,5,7,1,2026-05-15T10:22:44.458781+05:30
Belgaum,Karnataka,15.8497,74.4977,32.2,32,0.0,925.1,5.9,38.2,79,47.4,24.3,4.4,219.0,99.0,4.2,0,5,3,0,2026-05-15T10:22:47.691089+05:30
Coimbatore,Tamil Nadu,11.0168,76.9558,29.8,64,0.0,959.1,8.15,42.1,68,41.9,22.1,5.4,285.0,100.0,4.5,7,5,7,1,2026-05-15T10:22:47.691126+05:30
Madurai,Tamil Nadu,9.9252,78.1198,31.8,60,0.0,989.7,4.55,24.8,104,44.9,30.9,19.0,349.0,69.0,10.0,0,5,3,1,2026-05-15T10:22:47.691137+05:30
Trichy,Tamil Nadu,10.7905,78.7047,30.7,68,0.0,996.0,7.7,27.0,93,21.9,17.3,12.4,254.0,66.0,6.9,3,5,7,1,2026-05-15T10:22:47.691146+05:30
Salem,Tamil Nadu,11.6643,78.146,32.2,57,0.0,973.9,8.9,33.5,114,39.5,28.7,17.2,229.0,72.0,16.0,0,5,7,1,2026-05-15T10:22:47.691155+05:30
Tirunelveli,Tamil Nadu,8.7139,77.7567,31.8,59,0.0,999.8,6.05,22.0,51,24.8,13.3,5.2,232.0,74.0,2.3,0,5,7,1,2026-05-15T10:22:47.691163+05:30
Vellore,Tamil Nadu,12.9165,79.1325,34.0,42,0.0,980.8,8.9,34.9,90,49.2,31.3,7.0,415.0,82.0,12.3,0,5,7,1,2026-05-15T10:22:47.691170+05:30
Erode,Tamil Nadu,11.341,77.7172,32.1,58,0.0,985.6,9.0,27.0,92,33.1,20.9,13.9,299.0,75.0,4.3,0,5,7,1,2026-05-15T10:22:47.691178+05:30
Kochi,Kerala,9.9312,76.2673,28.6,84,0.0,1006.7,8.0,38.2,60,24.8,17.6,15.1,318.0,61.0,7.8,7,5,4,1,2026-05-15T10:22:47.691186+05:30
Thiruvananthapuram,Kerala,8.5241,76.9366,27.5,83,0.0,1006.0,2.35,31.3,56,29.2,15.3,3.0,238.0,86.0,1.8,7,5,0,1,2026-05-15T10:22:47.691193+05:30
Kozhikode,Kerala,11.2588,75.7804,31.1,70,0.0,1005.1,8.15,40.3,65,29.5,15.0,1.9,227.0,92.0,2.2,3,5,4,1,2026-05-15T10:22:47.691200+05:30
Thrissur,Kerala,10.5276,76.2144,29.8,75,0.1,1004.6,7.1,43.6,63,20.2,14.5,7.5,305.0,75.0,4.8,10,5,4,1,2026-05-15T10:22:47.691208+05:30
Kannur,Kerala,11.8745,75.3704,31.7,67,0.0,1004.2,8.5,47.9,77,45.4,25.0,6.3,273.0,84.0,4.0,3,5,4,1,2026-05-15T10:22:47.691215+05:30
Patna,Bihar,25.5941,85.1376,31.8,66,0.0,997.5,8.8,28.8,106,47.0,36.2,7.5,491.0,141.0,22.6,3,5,7,1,2026-05-15T10:22:47.691222+05:30
Gaya,Bihar,24.7914,85.0002,34.4,52,0.0,990.5,8.9,46.4,110,58.7,48.0,7.5,459.0,158.0,29.4,0,5,7,1,2026-05-15T10:22:47.691229+05:30
Muzaffarpur,Bihar,26.1209,85.3647,30.5,67,0.0,997.9,8.8,33.8,127,49.9,36.2,5.3,401.0,143.0,15.9,3,5,7,1,2026-05-15T10:22:47.691235+05:30
Bhagalpur,Bihar,25.2425,87.0117,29.6,73,0.0,998.7,8.8,31.3,97,37.6,30.9,11.6,450.0,98.0,22.6,7,5,7,1,2026-05-15T10:22:47.691241+05:30
Ranchi,Jharkhand,23.3441,85.3096,31.5,57,0.0,936.4,9.2,43.6,89,35.6,22.1,3.6,254.0,105.0,11.4,0,5,7,1,2026-05-15T10:22:47.691248+05:30
Jamshedpur,Jharkhand,22.8046,86.2029,34.2,55,0.0,987.8,9.15,40.0,75,31.5,20.5,6.9,308.0,95.0,24.6,0,5,7,1,2026-05-15T10:22:47.691255+05:30
Dhanbad,Jharkhand,23.7957,86.4304,33.9,57,0.0,976.6,8.9,38.2,126,39.7,29.8,17.6,293.0,78.0,65.5,0,5,7,1,2026-05-15T10:22:47.691262+05:30
Bokaro,Jharkhand,23.6693,86.1511,35.0,53,0.0,980.3,8.9,41.4,124,37.5,26.7,11.3,297.0,98.0,42.4,0,5,7,1,2026-05-15T10:22:47.691269+05:30
Bhubaneswar,Odisha,20.2961,85.8245,34.2,56,0.0,1000.0,9.2,39.2,36,20.5,11.4,2.1,165.0,77.0,3.5,0,5,4,1,2026-05-15T10:22:47.691276+05:30
Cuttack,Odisha,20.4625,85.8828,33.8,58,0.0,1001.7,9.25,40.3,36,20.5,11.4,2.1,177.0,77.0,3.5,0,5,4,1,2026-05-15T10:22:47.691283+05:30
Rourkela,Odisha,22.2604,84.8536,33.8,59,0.0,982.6,9.05,41.4,82,34.8,20.0,4.2,287.0,90.0,12.6,0,5,7,1,2026-05-15T10:22:47.691290+05:30
Raipur,Chhattisgarh,21.2514,81.6296,36.5,41,0.0,971.9,8.35,40.7,152,62.2,49.2,15.8,559.0,131.0,44.1,0,5,10,1,2026-05-15T10:22:47.691296+05:30
Bhilai,Chhattisgarh,21.1938,81.3509,36.0,41,0.0,972.4,8.7,41.0,142,59.3,46.3,12.9,791.0,128.0,37.6,0,5,10,1,2026-05-15T10:22:47.691303+05:30
Guwahati,Assam,26.1158,91.7086,28.2,68,0.0,999.7,8.75,24.1,60,15.8,10.0,1.5,278.0,124.0,4.2,7,5,7,1,2026-05-15T10:22:47.691309+05:30
Agartala,Tripura,23.8315,91.2868,28.8,80,0.0,1004.5,8.5,34.2,53,14.0,10.2,8.8,207.0,50.0,2.3,7,5,4,1,2026-05-15T10:22:47.691316+05:30
Shillong,Meghalaya,25.5788,91.8933,23.8,56,0.2,857.0,8.45,27.0,48,10.0,5.5,1.7,246.0,110.0,5.2,3,5,7,0,2026-05-15T10:22:47.691322+05:30
Imphal,Manipur,24.817,93.9368,25.4,75,0.2,922.3,9.25,38.2,71,19.9,10.0,0.8,318.0,81.0,1.9,10,5,7,1,2026-05-15T10:22:47.691329+05:30
Aizawl,Mizoram,23.7271,92.7176,25.3,62,0.0,892.5,9.15,38.5,36,9.7,4.5,0.5,122.0,59.0,0.4,7,5,7,1,2026-05-15T10:22:47.691336+05:30
Kohima,Nagaland,25.6701,94.1077,19.8,96,0.0,854.5,8.65,28.1,59,17.2,8.4,0.6,237.0,87.0,1.9,3,10,7,1,2026-05-15T10:22:47.691343+05:30
Gangtok,Sikkim,27.3314,88.6138,22.3,56,0.0,837.3,9.05,38.9,63,10.7,8.9,2.0,305.0,127.0,2.3,0,5,7,0,2026-05-15T10:22:47.691349+05:30
Siliguri,West Bengal,26.7271,88.3953,28.9,65,0.0,991.2,8.65,23.4,103,38.4,30.3,2.8,359.0,144.0,4.0,7,5,7,1,2026-05-15T10:22:50.932837+05:30
Durgapur,West Bengal,23.5204,87.3119,33.1,65,0.0,991.8,8.85,38.2,127,37.1,28.3,18.0,505.0,62.0,61.7,3,5,7,1,2026-05-15T10:22:50.932874+05:30
Asansol,West Bengal,23.6739,86.9524,34.0,60,0.0,990.1,9.05,47.5,117,36.8,27.8,17.4,740.0,67.0,62.3,0,5,7,1,2026-05-15T10:22:50.932885+05:30
Pondicherry,Puducherry,11.9139,79.8145,27.3,90,0.1,1004.5,7.15,31.3,69,37.7,29.7,15.1,414.0,79.0,22.8,10,5,4,1,2026-05-15T10:22:50.932894+05:30
Port Blair,Andaman and Nicobar Islands,11.6234,92.7265,30.2,76,0.0,1005.6,3.5,43.2,29,6.8,4.4,0.4,143.0,72.0,0.3,3,5,0,1,2026-05-15T10:22:50.932901+05:30
Haridwar,Uttarakhand,29.9457,78.1642,33.8,38,0.0,970.9,7.3,23.8,101,39.8,33.2,3.5,354.0,191.0,13.9,0,5,7,1,2026-05-15T10:22:50.932908+05:30
Rishikesh,Uttarakhand,30.0869,78.2676,33.2,36,0.0,963.8,7.45,29.2,87,32.5,21.5,0.7,317.0,183.0,11.4,0,5,7,1,2026-05-15T10:22:50.932932+05:30
Nainital,Uttarakhand,29.3919,79.4542,22.6,33,0.0,806.9,8.45,42.8,133,61.5,36.3,0.3,261.0,178.0,9.8,0,5,7,0,2026-05-15T10:22:50.932939+05:30
Mussoorie,Uttarakhand,30.4599,78.0664,21.1,37,0.0,804.1,7.95,46.1,88,27.2,18.1,2.4,203.0,172.0,7.9,0,5,7,0,2026-05-15T10:22:50.932946+05:30
Dharamshala,Himachal Pradesh,32.219,76.3234,24.5,38,0.0,868.7,8.35,45.4,43,29.2,11.0,0.3,211.0,133.0,0.9,0,5,7,0,2026-05-15T10:22:50.932953+05:30
Dalhousie,Himachal Pradesh,32.5387,75.971,21.1,37,0.1,805.4,8.55,36.0,65,45.4,18.3,2.8,219.0,140.0,1.6,3,5,7,0,2026-05-15T10:22:50.932961+05:30
Patiala,Punjab,30.3398,76.3869,33.2,31,0.0,975.7,7.0,42.8,156,326.9,75.7,7.9,412.0,107.0,9.3,0,5,7,0,2026-05-15T10:22:50.932968+05:30
Bhatinda,Punjab,30.211,74.9455,34.3,27,0.0,981.4,8.05,67.0,153,115.0,50.3,7.7,345.0,119.0,13.5,0,5,7,0,2026-05-15T10:22:50.932975+05:30
Rohtak,Haryana,28.8955,76.6066,33.4,36,0.0,979.3,7.7,37.8,302,379.0,117.6,14.1,430.0,167.0,27.0,0,5,7,1,2026-05-15T10:22:50.932981+05:30
Panipat,Haryana,29.3909,76.9635,33.0,38,0.0,977.9,7.45,45.4,416,441.4,115.3,11.4,359.0,142.0,25.9,0,5,7,1,2026-05-15T10:22:50.932989+05:30
Mathura,Uttar Pradesh,27.4924,77.6737,33.9,38,0.0,984.1,8.0,38.5,349,446.1,103.6,8.4,583.0,136.0,15.4,0,5,7,1,2026-05-15T10:22:50.932996+05:30
Vrindavan,Uttar Pradesh,27.5823,77.7027,33.6,39,0.0,984.5,7.95,38.2,349,446.1,103.6,8.4,569.0,136.0,15.4,0,5,7,1,2026-05-15T10:22:50.933003+05:30
Ayodhya,Uttar Pradesh,26.7922,82.1998,31.0,62,0.0,993.4,8.35,19.8,150,63.1,48.1,6.5,512.0,153.0,16.2,3,5,7,1,2026-05-15T10:22:50.933010+05:30
Ratlam,Madhya Pradesh,23.3315,75.0367,36.0,23,0.0,953.5,8.55,39.6,65,19.4,12.2,1.7,148.0,91.0,3.9,0,5,10,0,2026-05-15T10:22:50.933016+05:30
Sagar,Madhya Pradesh,23.8388,78.7378,37.8,24,0.0,947.8,8.75,33.5,86,71.9,33.1,4.0,239.0,123.0,8.7,0,5,10,0,2026-05-15T10:22:50.933023+05:30
Satna,Madhya Pradesh,24.6005,80.8322,38.7,25,0.0,968.3,8.8,40.0,103,94.8,40.4,4.2,367.0,148.0,18.9,0,5,10,0,2026-05-15T10:22:50.933029+05:30
Akola,Maharashtra,20.7002,77.0082,37.8,27,0.0,972.9,8.9,40.3,89,33.8,21.7,4.6,186.0,122.0,15.7,0,5,10,0,2026-05-15T10:22:50.933037+05:30
Amravati,Maharashtra,20.9374,77.7796,38.0,23,0.0,964.8,8.95,47.5,98,35.0,22.5,4.9,221.0,127.0,16.9,0,5,10,0,2026-05-15T10:22:50.933046+05:30
Latur,Maharashtra,18.4088,76.5604,36.0,25,0.0,939.1,8.3,38.5,118,44.2,27.4,4.8,224.0,115.0,10.6,0,5,10,0,2026-05-15T10:22:50.933052+05:30
Nanded,Maharashtra,19.1383,77.3091,37.5,27,0.0,966.7,9.05,36.0,134,54.4,33.4,4.3,241.0,131.0,8.2,0,5,10,0,2026-05-15T10:22:50.933059+05:30
Gulbarga,Karnataka,17.3297,76.8343,36.0,36,0.0,956.9,8.6,38.5,116,65.0,40.0,6.1,250.0,117.0,7.9,0,5,10,1,2026-05-15T10:22:50.933065+05:30
Bidar,Karnataka,17.9104,77.5199,35.0,34,0.0,934.5,7.8,34.9,128,85.4,50.4,5.4,246.0,126.0,6.1,0,5,7,1,2026-05-15T10:22:50.933072+05:30
Hospet,Karnataka,15.2689,76.3909,31.5,65,0.0,954.3,8.35,51.1,94,53.2,29.6,5.2,243.0,115.0,5.3,3,5,7,1,2026-05-15T10:22:50.933078+05:30
Tirupur,Tamil Nadu,11.1085,77.3411,32.7,51,0.0,972.2,8.75,33.1,85,39.5,24.7,13.4,261.0,85.0,5.1,0,5,7,1,2026-05-15T10:22:50.933085+05:30
Alappuzha,Kerala,9.4981,76.3388,27.4,88,0.1,1006.9,6.7,35.3,57,25.1,14.8,10.8,278.0,77.0,6.1,10,5,4,1,2026-05-15T10:22:50.933091+05:30
Munnar,Kerala,10.0889,77.0595,21.2,83,0.0,855.6,7.6,33.1,55,17.1,9.2,3.7,230.0,73.0,1.4,3,5,7,1,2026-05-15T10:22:50.933098+05:30
Silchar,Assam,24.8333,92.7789,25.3,88,0.1,1005.0,8.95,26.3,81,11.0,7.3,1.4,229.0,73.0,2.4,10,5,4,1,2026-05-15T10:22:50.933104+05:30
Dibrugarh,Assam,27.4728,94.912,24.8,81,0.1,995.1,7.2,32.8,127,32.1,26.3,3.8,230.0,108.0,1.9,6,5,7,1,2026-05-15T10:22:50.933111+05:30
