city,state,latitude,longitude,temp,humidity,rain,pressure,uv_index,wind_gusts,aqi,pm10,pm2_5,mosquito_risk,arthritis_risk,migraine_risk,frizz_risk,updated_at
Delhi,Delhi,28.6139,77.209,19.4,72,0.0,983.3,5.55,33.5,393,461.0,90.1,3,5,3,0,2026-03-14T03:06:40.460739+05:30
Mumbai,Maharashtra,19.076,72.8777,28.8,70,0.0,1007.4,7.7,20.5,122,39.3,30.5,7,5,4,1,2026-03-14T03:06:40.460788+05:30
Bangalore,Karnataka,12.9716,77.5946,21.0,78,0.0,911.4,9.3,24.1,99,40.6,36.0,3,5,7,1,2026-03-14T03:06:40.460803+05:30
Hyderabad,Telangana,17.385,78.4867,23.3,66,0.0,952.7,8.7,32.8,96,34.1,28.2,3,5,7,1,2026-03-14T03:06:40.460812+05:30
Chennai,Tamil Nadu,13.0827,80.2707,25.1,88,0.0,1008.3,9.05,30.2,59,21.3,16.9,7,0,4,1,2026-03-14T03:06:40.460820+05:30
Kolkata,West Bengal,22.5726,88.3639,25.5,87,0.0,1006.4,8.05,33.1,103,21.0,16.6,7,5,4,1,2026-03-14T03:06:40.460828+05:30
Pune,Maharashtra,18.5204,73.8567,22.2,64,0.0,947.4,8.25,43.9,140,49.6,46.8,3,5,7,0,2026-03-14T03:06:40.460839+05:30
Ahmedabad,Gujarat,23.0225,72.5714,22.9,56,0.0,1001.9,7.5,22.3,105,40.0,24.4,0,5,4,0,2026-03-14T03:06:40.460846+05:30
Jaipur,Rajasthan,26.9124,75.7873,21.8,39,0.0,959.6,6.75,26.6,128,303.6,54.2,0,5,7,0,2026-03-14T03:06:40.460853+05:30
Lucknow,Uttar Pradesh,26.8467,80.9462,21.4,62,0.0,993.1,6.7,27.0,156,291.5,75.9,3,5,7,0,2026-03-14T03:06:40.460860+05:30
Kanpur,Uttar Pradesh,26.4499,80.3319,20.9,68,0.0,991.7,6.7,21.2,214,501.1,97.1,3,5,7,0,2026-03-14T03:06:40.460866+05:30
Chandigarh,Chandigarh,30.7333,76.7794,17.7,79,0.0,968.3,4.8,21.2,73,26.0,23.7,3,5,3,0,2026-03-14T03:06:40.460872+05:30
Srinagar,Jammu and Kashmir,34.0837,74.7973,6.0,83,0.0,839.1,6.6,12.6,89,58.9,44.2,3,10,7,0,2026-03-14T03:06:40.460879+05:30
Jammu,Jammu and Kashmir,32.7266,74.857,16.0,74,0.0,972.7,6.35,16.2,70,35.3,33.1,3,5,7,0,2026-03-14T03:06:40.460885+05:30
Amritsar,Punjab,31.634,74.8723,17.3,72,0.0,981.2,6.15,17.6,84,38.4,31.9,3,5,7,0,2026-03-14T03:06:40.460890+05:30
Ludhiana,Punjab,30.901,75.8573,17.9,68,0.0,978.9,5.85,21.6,92,35.9,28.7,3,5,3,0,2026-03-14T03:06:40.460896+05:30
Jalandhar,Punjab,31.326,75.5762,17.7,68,0.0,980.3,6.15,17.6,92,48.9,36.4,3,5,7,0,2026-03-14T03:06:40.460903+05:30
Dehradun,Uttarakhand,30.6284,78.0322,13.0,53,0.0,828.3,5.75,24.1,52,27.3,16.6,0,5,3,0,2026-03-14T03:06:40.460910+05:30
Shimla,Himachal Pradesh,31.1048,77.1734,10.6,66,0.0,781.6,5.55,27.7,54,32.7,22.1,3,5,3,0,2026-03-14T03:06:40.460915+05:30
Manali,Himachal Pradesh,32.2396,77.1887,12.2,27,0.0,818.2,6.5,37.4,35,30.6,16.5,0,5,7,1,2026-03-14T03:06:40.460922+05:30
Gurgaon,Haryana,28.4595,77.0266,17.5,80,0.0,981.7,6.0,31.3,1248,1363.5,173.7,3,5,3,0,2026-03-14T03:06:40.460928+05:30
Noida,Uttar Pradesh,28.5355,77.391,19.3,73,0.0,984.8,5.95,34.2,1248,1363.5,173.7,3,5,3,0,2026-03-14T03:06:40.460934+05:30
Ghaziabad,Uttar Pradesh,28.6692,77.4538,18.4,76,0.0,982.9,5.85,28.8,197,375.3,80.6,3,5,3,0,2026-03-14T03:06:40.460939+05:30
Faridabad,Haryana,28.4089,77.3178,18.6,73,0.0,984.0,6.2,33.8,1248,1363.5,173.7,3,5,7,0,2026-03-14T03:06:40.460945+05:30
Meerut,Uttar Pradesh,28.9845,77.7064,16.4,84,0.0,981.4,5.65,29.2,197,375.3,80.6,3,10,3,0,2026-03-14T03:06:40.460950+05:30
Agra,Uttar Pradesh,27.1767,78.0081,18.8,64,0.0,988.3,6.2,24.1,669,1005.8,152.7,3,5,7,0,2026-03-14T03:06:40.460955+05:30
Varanasi,Uttar Pradesh,25.3176,82.9739,20.5,71,0.0,997.1,7.1,24.1,134,127.6,56.2,3,5,7,0,2026-03-14T03:06:40.460963+05:30
Prayagraj,Uttar Pradesh,25.4358,81.8463,22.2,66,0.0,995.7,7.2,16.2,148,155.1,62.6,3,5,7,0,2026-03-14T03:06:40.460969+05:30
Gorakhpur,Uttar Pradesh,26.7606,83.3732,19.8,73,0.0,996.0,6.45,23.0,172,89.4,40.0,3,5,7,0,2026-03-14T03:06:40.460974+05:30
Bareilly,Uttar Pradesh,28.367,79.4304,18.1,76,0.0,986.3,6.1,24.8,132,166.2,54.9,3,5,7,0,2026-03-14T03:06:40.460980+05:30
Aligarh,Uttar Pradesh,27.8974,78.088,17.1,77,0.0,985.9,6.25,38.2,635,761.8,131.3,3,5,7,0,2026-03-14T03:06:40.460985+05:30
Moradabad,Uttar Pradesh,28.8386,78.7733,17.5,77,0.0,983.2,6.0,26.6,139,170.9,60.1,3,5,3,0,2026-03-14T03:06:40.460991+05:30
Saharanpur,Uttar Pradesh,29.9637,77.546,16.8,83,0.0,975.3,5.15,23.0,122,106.2,57.7,3,10,3,0,2026-03-14T03:06:40.460996+05:30
Jhansi,Uttar Pradesh,25.4484,78.5685,21.5,67,0.0,977.7,7.15,20.2,82,143.9,48.2,3,5,7,0,2026-03-14T03:06:43.768439+05:30
Surat,Gujarat,21.1702,72.8311,24.8,82,0.0,1005.9,7.35,21.2,140,39.9,34.0,3,5,4,1,2026-03-14T03:06:43.768468+05:30
Vadodara,Gujarat,22.3072,73.1812,25.3,55,0.0,1003.5,7.55,26.3,111,38.6,34.3,4,5,4,0,2026-03-14T03:06:43.768478+05:30
Rajkot,Gujarat,22.3039,70.8022,22.2,65,0.0,994.6,7.35,30.2,85,179.7,44.9,3,5,7,0,2026-03-14T03:06:43.768486+05:30
Thane,Maharashtra,19.2183,72.9781,26.7,70,0.0,1006.9,7.65,33.1,122,39.3,30.5,7,5,4,1,2026-03-14T03:06:43.768494+05:30
Nagpur,Maharashtra,21.1458,79.0882,23.6,57,0.0,971.9,8.1,21.6,88,34.1,32.7,0,5,7,0,2026-03-14T03:06:43.768502+05:30
Nashik,Maharashtra,19.9975,73.7898,23.5,50,0.0,945.0,7.85,37.1,87,35.6,31.4,0,5,7,0,2026-03-14T03:06:43.768509+05:30
Aurangabad,Maharashtra,19.8762,75.3433,23.1,49,0.0,943.1,8.4,24.8,76,37.4,35.7,0,5,7,0,2026-03-14T03:06:43.768517+05:30
Solapur,Maharashtra,17.6599,75.9064,25.1,57,0.0,955.8,8.6,18.4,97,42.3,37.6,4,5,7,0,2026-03-14T03:06:43.768525+05:30
Kolhapur,Maharashtra,16.705,74.2433,21.5,91,0.0,947.0,8.7,39.6,146,71.2,69.6,3,5,7,1,2026-03-14T03:06:43.768533+05:30
Goa,Goa,15.2993,74.124,27.0,86,0.0,997.5,8.75,33.5,130,60.1,55.3,7,5,7,1,2026-03-14T03:06:43.768539+05:30
Jodhpur,Rajasthan,26.2389,73.0243,23.5,51,0.0,982.4,7.15,34.9,91,125.7,36.3,0,5,7,0,2026-03-14T03:06:43.768546+05:30
Udaipur,Rajasthan,24.5854,73.7125,21.7,38,0.0,946.2,7.85,32.8,61,48.1,22.7,0,5,7,0,2026-03-14T03:06:43.768553+05:30
Kota,Rajasthan,25.2138,75.8648,22.0,56,0.0,978.3,6.75,22.0,62,32.9,21.1,0,5,7,0,2026-03-14T03:06:43.768559+05:30
Bikaner,Rajasthan,28.0229,73.3119,23.8,43,0.0,982.3,6.5,22.3,72,45.8,17.5,0,5,7,0,2026-03-14T03:06:43.768566+05:30
Ajmer,Rajasthan,26.4499,74.6399,23.6,33,0.0,954.2,7.25,33.8,81,78.9,30.6,0,5,7,0,2026-03-14T03:06:43.768573+05:30
Gwalior,Madhya Pradesh,26.2183,78.1828,24.0,53,0.0,983.7,6.5,18.7,121,493.6,83.1,0,5,7,0,2026-03-14T03:06:43.768580+05:30
Indore,Madhya Pradesh,22.7196,75.8577,21.3,45,0.0,947.0,7.8,31.0,65,32.5,29.5,0,5,7,0,2026-03-14T03:06:43.768586+05:30
Bhopal,Madhya Pradesh,23.2599,77.4126,20.9,38,0.0,952.9,7.65,29.5,68,27.3,26.5,0,5,7,0,2026-03-14T03:06:43.768593+05:30
Jabalpur,Madhya Pradesh,23.1815,79.9864,22.4,43,0.0,960.8,7.8,24.1,78,27.5,27.1,0,5,7,0,2026-03-14T03:06:43.768599+05:30
Ujjain,Madhya Pradesh,23.1765,75.7885,21.2,49,0.0,952.8,7.7,31.0,66,30.9,26.7,0,5,7,0,2026-03-14T03:06:43.768606+05:30
Visakhapatnam,Andhra Pradesh,17.6868,83.2185,24.8,89,0.0,1004.8,8.65,42.8,77,20.3,17.2,3,5,4,1,2026-03-14T03:06:43.768613+05:30
Vijayawada,Andhra Pradesh,16.5062,80.648,24.5,94,0.0,1003.5,8.75,29.2,81,17.7,15.0,3,5,4,1,2026-03-14T03:06:43.768620+05:30
Guntur,Andhra Pradesh,16.3067,80.4365,24.5,94,0.0,1004.7,8.75,31.7,75,14.9,12.5,3,5,4,1,2026-03-14T03:06:43.768627+05:30
Nellore,Andhra Pradesh,14.4426,79.9865,24.1,94,0.0,1006.5,8.9,31.3,68,16.4,13.7,3,5,4,1,2026-03-14T03:06:43.768634+05:30
Kurnool,Andhra Pradesh,15.8281,78.0373,25.9,62,0.0,976.5,8.75,22.3,107,28.1,24.8,7,5,7,1,2026-03-14T03:06:43.768642+05:30
Kakinada,Andhra Pradesh,16.9891,82.2475,23.8,96,0.0,1009.0,8.7,32.0,67,19.2,14.5,3,0,4,1,2026-03-14T03:06:43.768649+05:30
Tirupati,Andhra Pradesh,13.6288,79.4192,22.1,93,0.0,992.7,9.05,29.5,85,30.9,27.8,3,5,7,1,2026-03-14T03:06:43.768655+05:30
Warangal,Telangana,17.9689,79.5941,22.9,89,0.0,978.5,8.55,29.5,108,21.5,19.9,3,5,7,1,2026-03-14T03:06:43.768662+05:30
Nizamabad,Telangana,18.6725,78.0941,26.2,49,0.0,963.8,8.45,30.6,122,41.8,36.6,4,5,7,0,2026-03-14T03:06:43.768668+05:30
Mysore,Karnataka,12.2958,76.6396,21.6,95,0.0,928.3,9.3,31.3,96,53.1,48.0,3,5,7,1,2026-03-14T03:06:43.768675+05:30
Mangalore,Karnataka,12.9141,74.856,28.7,80,0.0,1006.5,8.95,24.8,115,52.2,47.0,7,5,4,1,2026-03-14T03:06:43.768682+05:30
Hubli-Dharwad,Karnataka,15.3647,75.124,22.0,95,0.0,940.2,8.95,41.8,89,41.6,39.1,3,5,7,1,2026-03-14T03:06:43.768689+05:30
Belgaum,Karnataka,15.8497,74.4977,21.7,97,0.0,924.9,9.0,40.3,116,54.5,50.1,3,5,7,1,2026-03-14T03:06:47.073512+05:30
Coimbatore,Tamil Nadu,11.0168,76.9558,22.2,76,0.0,962.0,9.3,34.2,86,36.6,32.9,3,5,7,1,2026-03-14T03:06:47.073542+05:30
Madurai,Tamil Nadu,9.9252,78.1198,24.7,84,0.0,993.9,9.3,29.5,76,33.9,31.1,3,5,7,1,2026-03-14T03:06:47.073551+05:30
Trichy,Tamil Nadu,10.7905,78.7047,23.4,95,0.0,1000.8,9.2,19.4,78,29.3,26.1,3,5,4,1,2026-03-14T03:06:47.073559+05:30
Salem,Tamil Nadu,11.6643,78.146,22.5,92,0.0,977.9,9.2,15.1,108,46.4,42.5,3,5,7,1,2026-03-14T03:06:47.073567+05:30
Tirunelveli,Tamil Nadu,8.7139,77.7567,23.4,88,0.0,1003.8,9.25,40.7,60,27.2,25.3,3,5,4,1,2026-03-14T03:06:47.073574+05:30
Vellore,Tamil Nadu,12.9165,79.1325,20.9,97,0.0,985.7,9.1,32.0,100,46.7,44.0,3,5,7,1,2026-03-14T03:06:47.073582+05:30
Erode,Tamil Nadu,11.341,77.7172,24.1,90,0.0,989.9,9.2,19.4,82,20.6,18.9,3,5,7,1,2026-03-14T03:06:47.073589+05:30
Kochi,Kerala,9.9312,76.2673,26.6,87,0.0,1008.9,9.1,33.5,79,28.6,28.0,7,0,4,1,2026-03-14T03:06:47.073597+05:30
Thiruvananthapuram,Kerala,8.5241,76.9366,27.2,84,0.0,1007.8,9.1,26.3,61,18.5,14.9,7,5,4,1,2026-03-14T03:06:47.073604+05:30
Kozhikode,Kerala,11.2588,75.7804,26.5,86,0.0,1008.4,9.05,28.8,89,25.4,22.4,7,0,4,1,2026-03-14T03:06:47.073612+05:30
Thrissur,Kerala,10.5276,76.2144,25.4,88,0.0,1007.4,9.1,36.4,95,28.1,27.1,7,5,4,1,2026-03-14T03:06:47.073620+05:30
Kannur,Kerala,11.8745,75.3704,26.7,86,0.0,1007.4,9.0,32.0,103,41.8,38.5,7,5,4,1,2026-03-14T03:06:47.073627+05:30
Patna,Bihar,25.5941,85.1376,23.5,70,0.0,999.6,7.5,19.1,168,145.3,73.8,3,5,7,1,2026-03-14T03:06:47.073633+05:30
Gaya,Bihar,24.7914,85.0002,23.9,54,0.0,993.3,7.6,12.2,145,130.9,54.9,0,5,7,0,2026-03-14T03:06:47.073640+05:30
Muzaffarpur,Bihar,26.1209,85.3647,21.4,87,0.0,999.4,7.15,20.9,172,162.1,116.9,3,5,7,1,2026-03-14T03:06:47.073647+05:30
Bhagalpur,Bihar,25.2425,87.0117,22.9,97,0.0,1000.5,7.45,18.4,163,98.5,72.2,3,5,4,1,2026-03-14T03:06:47.073654+05:30
Ranchi,Jharkhand,23.3441,85.3096,22.8,40,0.0,937.4,8.25,26.6,72,100.6,35.2,0,5,7,0,2026-03-14T03:06:47.073661+05:30
Jamshedpur,Jharkhand,22.8046,86.2029,24.6,69,0.0,990.4,8.1,32.0,147,90.1,67.5,3,5,7,1,2026-03-14T03:06:47.073668+05:30
Dhanbad,Jharkhand,23.7957,86.4304,22.5,58,0.0,979.3,7.65,19.1,159,161.1,84.8,0,5,7,0,2026-03-14T03:06:47.073674+05:30
Bokaro,Jharkhand,23.6693,86.1511,20.6,61,0.0,983.6,7.7,19.8,146,147.6,77.3,3,5,7,0,2026-03-14T03:06:47.073682+05:30
Bhubaneswar,Odisha,20.2961,85.8245,25.0,89,0.0,1002.6,8.4,40.0,88,17.9,15.2,7,5,4,1,2026-03-14T03:06:47.073689+05:30
Cuttack,Odisha,20.4625,85.8828,25.0,88,0.0,1004.5,8.45,38.9,88,17.9,15.2,7,5,4,1,2026-03-14T03:06:47.073695+05:30
Rourkela,Odisha,22.2604,84.8536,21.6,80,0.0,984.4,8.05,28.1,91,54.6,40.9,3,5,7,1,2026-03-14T03:06:47.073702+05:30
Raipur,Chhattisgarh,21.2514,81.6296,23.2,44,0.0,973.2,8.15,37.1,128,63.6,57.5,0,5,7,0,2026-03-14T03:06:47.073709+05:30
Bhilai,Chhattisgarh,21.1938,81.3509,21.7,48,0.0,973.6,8.15,36.0,122,67.1,60.8,0,5,7,0,2026-03-14T03:06:47.073716+05:30
Guwahati,Assam,26.1158,91.7086,21.5,95,0.0,1002.4,7.45,33.8,115,29.2,21.5,3,5,4,1,2026-03-14T03:06:47.073723+05:30
Agartala,Tripura,23.8315,91.2868,21.0,94,0.0,1008.4,7.85,37.4,95,17.8,15.0,3,0,4,1,2026-03-14T03:06:47.073730+05:30
Shillong,Meghalaya,25.5788,91.8933,13.1,93,0.0,854.6,7.8,65.5,84,11.7,8.3,3,10,7,0,2026-03-14T03:06:47.073736+05:30
Imphal,Manipur,24.817,93.9368,15.6,95,0.1,923.4,7.6,81.0,155,47.4,40.6,6,10,7,0,2026-03-14T03:06:47.073743+05:30
Aizawl,Mizoram,23.7271,92.7176,16.9,87,0.0,892.9,8.0,69.1,130,33.6,29.0,3,10,7,0,2026-03-14T03:06:47.073750+05:30
Kohima,Nagaland,25.6701,94.1077,14.5,85,0.0,853.5,6.95,93.2,110,17.2,14.9,3,10,7,0,2026-03-14T03:06:47.073756+05:30
Gangtok,Sikkim,27.3314,88.6138,12.9,92,0.0,834.0,7.55,20.9,83,13.6,12.9,3,10,7,0,2026-03-14T03:06:47.073763+05:30
Siliguri,West Bengal,26.7271,88.3953,18.5,92,0.0,993.6,7.35,24.1,129,42.5,33.3,3,10,7,1,2026-03-14T03:06:50.382188+05:30
Durgapur,West Bengal,23.5204,87.3119,24.0,95,0.0,994.6,7.95,30.6,157,118.7,85.9,3,5,7,1,2026-03-14T03:06:50.382217+05:30
Asansol,West Bengal,23.6739,86.9524,24.0,84,0.0,993.0,7.75,23.0,153,126.7,66.1,3,5,7,1,2026-03-14T03:06:50.382226+05:30
Pondicherry,Puducherry,11.9139,79.8145,23.0,97,0.0,1009.6,9.05,29.9,56,18.7,14.5,3,0,4,1,2026-03-14T03:06:50.382234+05:30
Port Blair,Andaman and Nicobar Islands,11.6234,92.7265,27.8,79,0.0,1007.5,8.95,27.4,67,14.7,11.4,7,5,4,1,2026-03-14T03:06:50.382241+05:30
Haridwar,Uttarakhand,29.9457,78.1642,17.4,83,0.0,973.7,5.55,25.9,85,58.4,49.5,3,10,3,0,2026-03-14T03:06:50.382249+05:30
Rishikesh,Uttarakhand,30.0869,78.2676,18.7,64,0.0,966.3,5.35,23.0,63,31.1,25.7,3,5,3,0,2026-03-14T03:06:50.382257+05:30
Nainital,Uttarakhand,29.3919,79.4542,17.9,36,0.0,804.8,6.1,36.0,78,28.3,25.8,0,5,7,0,2026-03-14T03:06:50.382264+05:30
Mussoorie,Uttarakhand,30.4599,78.0664,15.4,53,0.0,801.3,5.55,28.1,73,36.9,32.6,0,5,3,0,2026-03-14T03:06:50.382271+05:30
Dharamshala,Himachal Pradesh,32.219,76.3234,18.2,19,0.0,868.1,4.6,22.3,40,16.7,9.4,0,5,3,1,2026-03-14T03:06:50.382278+05:30
Dalhousie,Himachal Pradesh,32.5387,75.971,14.4,25,0.0,802.0,5.5,20.2,63,29.4,25.7,0,5,3,1,2026-03-14T03:06:50.382286+05:30
Patiala,Punjab,30.3398,76.3869,17.2,76,0.0,978.1,5.5,18.7,369,523.4,68.5,3,5,3,0,2026-03-14T03:06:50.382293+05:30
Bhatinda,Punjab,30.211,74.9455,18.8,78,0.0,984.2,5.95,17.6,102,50.5,37.8,3,5,3,0,2026-03-14T03:06:50.382300+05:30
Rohtak,Haryana,28.8955,76.6066,17.3,81,0.0,982.0,5.55,25.9,537,517.8,90.8,3,10,3,0,2026-03-14T03:06:50.382306+05:30
Panipat,Haryana,29.3909,76.9635,16.9,83,0.0,980.4,5.35,21.2,999,1102.7,138.3,3,10,3,0,2026-03-14T03:06:50.382313+05:30
Mathura,Uttar Pradesh,27.4924,77.6737,18.8,64,0.0,987.1,6.15,34.6,780,987.2,161.6,3,5,7,0,2026-03-14T03:06:50.382320+05:30
Vrindavan,Uttar Pradesh,27.5823,77.7027,17.5,70,0.0,987.5,6.3,38.2,780,987.2,161.6,3,5,7,0,2026-03-14T03:06:50.382327+05:30
Ayodhya,Uttar Pradesh,26.7922,82.1998,20.0,74,0.0,994.5,6.75,23.8,154,172.3,56.9,3,5,7,0,2026-03-14T03:06:50.382334+05:30
Ratlam,Madhya Pradesh,23.3315,75.0367,24.6,39,0.0,954.0,7.65,35.6,68,31.4,24.8,0,5,7,0,2026-03-14T03:06:50.382341+05:30
Sagar,Madhya Pradesh,23.8388,78.7378,21.7,36,0.0,949.1,7.65,29.2,59,19.2,16.9,0,5,7,0,2026-03-14T03:06:50.382347+05:30
Satna,Madhya Pradesh,24.6005,80.8322,21.4,42,0.0,971.0,7.6,29.2,58,59.0,24.5,0,5,7,0,2026-03-14T03:06:50.382354+05:30
Akola,Maharashtra,20.7002,77.0082,25.0,45,0.0,974.1,8.1,21.2,92,49.5,46.4,4,5,7,0,2026-03-14T03:06:50.382361+05:30
Amravati,Maharashtra,20.9374,77.7796,23.8,51,0.0,965.7,8.1,17.6,94,53.8,49.4,0,5,7,0,2026-03-14T03:06:50.382368+05:30
Latur,Maharashtra,18.4088,76.5604,23.6,54,0.0,938.7,8.5,26.3,100,37.3,30.6,0,5,7,0,2026-03-14T03:06:50.382375+05:30
Nanded,Maharashtra,19.1383,77.3091,26.2,48,0.0,967.6,8.3,24.5,118,47.0,39.7,4,5,7,0,2026-03-14T03:06:50.382382+05:30
Gulbarga,Karnataka,17.3297,76.8343,26.8,44,0.0,958.3,8.6,33.5,93,36.7,32.1,4,5,7,0,2026-03-14T03:06:50.382388+05:30
Bidar,Karnataka,17.9104,77.5199,25.2,45,0.0,934.9,8.55,38.9,96,33.3,28.6,4,5,7,0,2026-03-14T03:06:50.382395+05:30
Hospet,Karnataka,15.2689,76.3909,25.4,73,0.0,955.7,8.9,29.2,98,45.4,39.6,7,5,7,1,2026-03-14T03:06:50.382402+05:30
Tirupur,Tamil Nadu,11.1085,77.3411,24.7,72,0.0,975.9,9.3,28.1,91,26.0,23.3,3,5,7,1,2026-03-14T03:06:50.382408+05:30
Alappuzha,Kerala,9.4981,76.3388,26.0,87,0.0,1008.9,9.1,27.7,81,29.0,27.4,7,0,4,1,2026-03-14T03:06:50.382413+05:30
Munnar,Kerala,10.0889,77.0595,17.5,92,0.0,855.0,9.6,31.7,72,25.8,23.2,3,10,7,1,2026-03-14T03:06:50.382419+05:30
Silchar,Assam,24.8333,92.7789,20.6,95,0.0,1007.5,7.75,36.4,154,36.8,30.9,3,5,4,1,2026-03-14T03:06:50.382424+05:30
Dibrugarh,Assam,27.4728,94.912,20.2,90,0.0,996.5,1.2,19.4,128,34.1,31.7,3,5,3,1,2026-03-14T03:06:50.382429+05:30
