city,state,latitude,longitude,temp,humidity,rain,pressure,uv_index,wind_gusts,aqi,pm10,pm2_5,no2,co,o3,so2,mosquito_risk,arthritis_risk,migraine_risk,frizz_risk,updated_at
Delhi,Delhi,28.6139,77.209,35.5,36,0.0,978.1,7.8,29.9,155,192.3,73.8,25.5,559.0,161.0,36.3,0,5,10,1,2026-06-04T09:49:03.345203+05:30
Mumbai,Maharashtra,19.076,72.8777,31.1,65,0.0,1006.1,7.7,43.9,66,41.9,19.4,9.5,225.0,60.0,14.2,3,5,4,1,2026-06-04T09:49:03.345241+05:30
Bangalore,Karnataka,12.9716,77.5946,25.5,67,0.0,911.9,9.1,49.0,34,4.0,4.0,6.8,378.0,55.0,3.3,7,5,7,1,2026-06-04T09:49:03.345257+05:30
Hyderabad,Telangana,17.385,78.4867,31.3,49,0.0,952.0,9.15,33.8,67,33.8,20.6,4.9,346.0,99.0,4.8,0,5,7,1,2026-06-04T09:49:03.345267+05:30
Chennai,Tamil Nadu,13.0827,80.2707,34.6,44,0.0,1005.0,8.65,39.2,68,13.0,10.7,10.3,274.0,84.0,12.1,0,5,4,1,2026-06-04T09:49:03.345275+05:30
Kolkata,West Bengal,22.5726,88.3639,35.0,62,0.0,1001.5,8.95,41.0,142,54.4,46.6,4.1,454.0,173.0,14.6,3,5,4,1,2026-06-04T09:49:03.345283+05:30
Pune,Maharashtra,18.5204,73.8567,29.7,55,0.0,946.8,8.35,50.8,60,47.5,18.6,4.7,169.0,69.0,7.1,4,5,7,1,2026-06-04T09:49:03.345290+05:30
Ahmedabad,Gujarat,23.0225,72.5714,33.8,55,0.0,998.9,8.0,39.6,87,54.4,26.5,4.1,168.0,64.0,6.2,0,5,7,1,2026-06-04T09:49:03.345296+05:30
Jaipur,Rajasthan,26.9124,75.7873,35.8,33,0.0,955.8,8.25,53.6,124,162.1,44.6,6.0,190.0,97.0,8.2,0,5,10,1,2026-06-04T09:49:03.345307+05:30
Lucknow,Uttar Pradesh,26.8467,80.9462,36.0,36,0.0,988.7,8.25,23.0,155,111.3,51.3,10.7,308.0,158.0,15.3,0,5,10,1,2026-06-04T09:49:03.345314+05:30
Kanpur,Uttar Pradesh,26.4499,80.3319,36.7,32,0.0,986.9,8.2,24.5,151,105.7,42.8,8.5,236.0,138.0,10.1,0,5,10,1,2026-06-04T09:49:03.345320+05:30
Chandigarh,Chandigarh,30.7333,76.7794,33.5,39,0.0,964.4,7.85,32.8,115,70.3,32.7,3.2,408.0,180.0,14.1,0,5,7,1,2026-06-04T09:49:03.345327+05:30
Srinagar,Jammu and Kashmir,34.0837,74.7973,21.5,58,0.0,841.4,9.05,36.0,86,40.7,24.7,5.5,436.0,119.0,4.3,0,5,7,0,2026-06-04T09:49:03.345334+05:30
Jammu,Jammu and Kashmir,32.7266,74.857,35.2,33,0.0,967.2,8.5,68.0,89,46.1,27.2,11.2,376.0,117.0,4.3,0,5,10,1,2026-06-04T09:49:03.345341+05:30
Amritsar,Punjab,31.634,74.8723,35.2,36,0.0,975.0,8.45,70.9,151,66.8,46.2,16.3,347.0,114.0,10.2,0,5,10,1,2026-06-04T09:49:03.345347+05:30
Ludhiana,Punjab,30.901,75.8573,34.6,38,0.0,973.5,8.05,78.5,152,155.5,55.1,8.2,567.0,151.0,17.8,0,5,7,1,2026-06-04T09:49:03.345354+05:30
Jalandhar,Punjab,31.326,75.5762,35.0,37,0.0,974.4,8.25,81.0,154,104.3,52.9,13.1,446.0,138.0,13.9,0,5,7,1,2026-06-04T09:49:03.345360+05:30
Dehradun,Uttarakhand,30.6284,78.0322,23.6,51,0.0,830.7,6.55,34.9,45,39.7,18.2,0.4,219.0,160.0,4.7,0,5,7,0,2026-06-04T09:49:03.345366+05:30
Shimla,Himachal Pradesh,31.1048,77.1734,22.0,43,0.0,785.7,7.2,33.8,86,60.3,25.9,0.2,259.0,166.0,8.4,0,5,7,0,2026-06-04T09:49:03.345376+05:30
Manali,Himachal Pradesh,32.2396,77.1887,22.9,45,0.0,818.6,8.9,42.5,50,4.4,2.7,6.9,183.0,119.0,0.3,0,5,7,0,2026-06-04T09:49:03.345382+05:30
Gurgaon,Haryana,28.4595,77.0266,36.5,31,0.0,976.5,7.9,42.1,159,478.7,98.3,17.3,550.0,140.0,20.4,0,5,10,1,2026-06-04T09:49:03.345389+05:30
Noida,Uttar Pradesh,28.5355,77.391,34.5,42,0.0,979.6,7.85,27.4,159,478.7,98.3,17.3,526.0,140.0,20.4,0,5,7,1,2026-06-04T09:49:03.345395+05:30
Ghaziabad,Uttar Pradesh,28.6692,77.4538,34.1,42,0.0,978.0,7.8,42.8,155,153.2,60.1,10.2,484.0,166.0,17.9,0,5,7,1,2026-06-04T09:49:03.345401+05:30
Faridabad,Haryana,28.4089,77.3178,34.8,39,0.0,978.8,7.85,39.2,159,478.7,98.3,17.3,512.0,140.0,20.4,0,5,7,1,2026-06-04T09:49:03.345409+05:30
Meerut,Uttar Pradesh,28.9845,77.7064,33.9,46,0.0,976.9,7.75,48.6,155,153.2,60.1,10.2,510.0,166.0,17.9,0,5,7,1,2026-06-04T09:49:03.345415+05:30
Agra,Uttar Pradesh,27.1767,78.0081,36.2,34,0.0,982.8,8.15,20.9,184,299.0,64.0,8.0,411.0,155.0,10.8,0,5,10,1,2026-06-04T09:49:03.345421+05:30
Varanasi,Uttar Pradesh,25.3176,82.9739,37.2,31,0.0,993.0,8.45,36.0,150,58.1,37.6,13.4,442.0,110.0,36.2,0,5,10,1,2026-06-04T09:49:03.345427+05:30
Prayagraj,Uttar Pradesh,25.4358,81.8463,35.8,39,0.0,991.5,8.7,25.6,145,62.2,36.9,7.3,218.0,130.0,11.5,0,5,10,1,2026-06-04T09:49:03.345434+05:30
Gorakhpur,Uttar Pradesh,26.7606,83.3732,35.1,47,0.0,992.7,8.2,21.2,153,59.1,41.0,5.7,311.0,158.0,11.5,0,5,10,1,2026-06-04T09:49:03.345441+05:30
Bareilly,Uttar Pradesh,28.367,79.4304,34.0,46,0.0,982.4,8.15,14.0,151,83.6,39.7,3.2,387.0,164.0,9.6,0,5,7,1,2026-06-04T09:49:03.345447+05:30
Aligarh,Uttar Pradesh,27.8974,78.088,34.7,42,0.0,980.8,7.8,22.0,150,208.6,58.6,7.8,326.0,152.0,11.7,0,5,7,1,2026-06-04T09:49:03.345454+05:30
Moradabad,Uttar Pradesh,28.8386,78.7733,34.2,44,0.0,979.4,7.95,27.0,153,70.3,40.2,6.9,491.0,160.0,11.4,0,5,7,1,2026-06-04T09:49:03.345460+05:30
Saharanpur,Uttar Pradesh,29.9637,77.546,32.5,51,0.0,971.5,7.5,54.0,117,43.1,32.0,6.9,353.0,165.0,10.7,0,5,7,1,2026-06-04T09:49:03.345466+05:30
Jhansi,Uttar Pradesh,25.4484,78.5685,35.9,37,0.0,973.5,8.5,25.9,84,64.7,31.3,2.8,224.0,104.0,9.0,0,5,10,1,2026-06-04T09:49:06.673770+05:30
Surat,Gujarat,21.1702,72.8311,33.5,60,0.0,1003.8,7.6,47.2,83,56.1,25.3,13.2,257.0,52.0,34.7,0,5,4,1,2026-06-04T09:49:06.673804+05:30
Vadodara,Gujarat,22.3072,73.1812,34.1,55,0.0,1001.3,8.0,42.8,86,59.8,27.8,5.3,151.0,66.0,9.2,0,5,4,1,2026-06-04T09:49:06.673818+05:30
Rajkot,Gujarat,22.3039,70.8022,33.2,56,0.0,990.9,7.55,46.4,75,46.0,19.4,1.7,117.0,61.0,2.3,0,5,7,1,2026-06-04T09:49:06.673828+05:30
Thane,Maharashtra,19.2183,72.9781,32.8,57,0.0,1005.3,7.7,37.4,66,41.9,19.4,9.5,190.0,60.0,14.2,0,5,4,1,2026-06-04T09:49:06.673838+05:30
Nagpur,Maharashtra,21.1458,79.0882,36.5,32,0.0,970.3,8.35,43.2,69,43.0,24.4,10.0,207.0,116.0,23.0,0,5,10,1,2026-06-04T09:49:06.673848+05:30
Nashik,Maharashtra,19.9975,73.7898,29.8,57,0.0,943.9,8.05,38.5,68,42.0,18.5,5.6,139.0,61.0,13.6,4,5,7,1,2026-06-04T09:49:06.673858+05:30
Aurangabad,Maharashtra,19.8762,75.3433,31.5,47,0.0,943.1,9.0,41.4,73,49.4,21.0,4.9,179.0,70.0,10.7,0,5,7,1,2026-06-04T09:49:06.673868+05:30
Solapur,Maharashtra,17.6599,75.9064,30.8,54,0.0,956.3,8.95,41.8,63,31.0,16.2,3.4,143.0,75.0,3.2,0,5,7,1,2026-06-04T09:49:06.673878+05:30
Kolhapur,Maharashtra,16.705,74.2433,28.9,58,0.0,947.0,8.8,42.5,53,25.4,11.6,2.9,145.0,68.0,2.7,4,5,7,1,2026-06-04T09:49:06.673887+05:30
Goa,Goa,15.2993,74.124,30.2,67,0.1,997.0,8.6,34.9,38,12.1,5.8,1.3,124.0,58.0,0.9,6,5,7,1,2026-06-04T09:49:06.673897+05:30
Jodhpur,Rajasthan,26.2389,73.0243,34.5,42,0.0,978.5,8.45,51.5,113,239.3,56.5,2.0,145.0,76.0,4.2,0,5,7,1,2026-06-04T09:49:06.673906+05:30
Udaipur,Rajasthan,24.5854,73.7125,32.3,48,0.0,943.7,8.8,42.5,89,45.4,23.7,1.6,148.0,76.0,4.5,0,5,7,1,2026-06-04T09:49:06.673914+05:30
Kota,Rajasthan,25.2138,75.8648,36.5,38,0.0,974.7,8.4,52.2,94,43.2,25.3,3.6,159.0,90.0,9.2,0,5,10,1,2026-06-04T09:49:06.673921+05:30
Bikaner,Rajasthan,28.0229,73.3119,37.0,35,0.0,976.1,8.4,41.4,115,335.3,95.5,1.0,159.0,77.0,2.0,0,5,10,1,2026-06-04T09:49:06.673928+05:30
Ajmer,Rajasthan,26.4499,74.6399,33.0,47,0.0,951.1,8.35,43.9,92,96.6,33.4,1.8,185.0,81.0,4.7,0,5,7,1,2026-06-04T09:49:06.673935+05:30
Gwalior,Madhya Pradesh,26.2183,78.1828,35.8,38,0.0,978.4,8.3,32.4,101,101.5,37.4,4.2,248.0,120.0,6.9,0,5,10,1,2026-06-04T09:49:06.673942+05:30
Indore,Madhya Pradesh,22.7196,75.8577,32.4,52,0.0,945.9,8.65,40.3,87,50.6,29.2,5.0,210.0,77.0,12.4,0,5,7,1,2026-06-04T09:49:06.673948+05:30
Bhopal,Madhya Pradesh,23.2599,77.4126,34.5,38,0.0,951.0,8.7,62.3,83,59.0,32.4,1.9,242.0,111.0,8.6,0,5,7,1,2026-06-04T09:49:06.673955+05:30
Jabalpur,Madhya Pradesh,23.1815,79.9864,33.8,41,0.0,958.7,8.9,29.2,71,51.0,22.9,2.2,236.0,119.0,5.0,0,5,7,1,2026-06-04T09:49:06.673962+05:30
Ujjain,Madhya Pradesh,23.1765,75.7885,32.3,55,0.0,951.3,8.6,54.0,85,45.2,26.9,4.6,175.0,70.0,12.2,0,5,7,1,2026-06-04T09:49:06.673973+05:30
Visakhapatnam,Andhra Pradesh,17.6868,83.2185,36.5,48,0.0,999.4,9.05,40.3,92,38.2,32.8,17.6,465.0,134.0,48.6,0,5,10,1,2026-06-04T09:49:06.673983+05:30
Vijayawada,Andhra Pradesh,16.5062,80.648,34.9,44,0.0,1000.1,9.05,39.6,85,25.6,19.7,5.2,215.0,112.0,10.0,0,5,4,1,2026-06-04T09:49:06.673990+05:30
Guntur,Andhra Pradesh,16.3067,80.4365,34.7,47,0.0,1001.3,9.05,40.7,82,27.4,19.3,5.3,221.0,103.0,10.9,0,5,4,1,2026-06-04T09:49:06.673996+05:30
Nellore,Andhra Pradesh,14.4426,79.9865,33.6,53,0.0,1003.5,8.45,38.2,58,8.8,6.8,3.9,176.0,89.0,5.6,0,5,4,1,2026-06-04T09:49:06.674004+05:30
Kurnool,Andhra Pradesh,15.8281,78.0373,31.5,57,0.0,976.1,8.85,38.9,56,21.7,12.6,3.5,179.0,76.0,4.6,0,5,7,1,2026-06-04T09:49:06.674012+05:30
Kakinada,Andhra Pradesh,16.9891,82.2475,34.3,54,0.0,1004.1,9.05,37.4,80,28.8,23.3,3.8,306.0,143.0,7.4,0,5,4,1,2026-06-04T09:49:06.674019+05:30
Tirupati,Andhra Pradesh,13.6288,79.4192,33.1,48,0.0,989.3,8.35,32.8,54,9.3,6.7,3.0,150.0,82.0,1.9,0,5,7,1,2026-06-04T09:49:06.674026+05:30
Warangal,Telangana,17.9689,79.5941,33.6,44,0.0,976.8,8.65,36.0,73,37.7,22.5,3.6,214.0,109.0,3.9,0,5,7,1,2026-06-04T09:49:06.674033+05:30
Nizamabad,Telangana,18.6725,78.0941,31.5,54,0.0,963.2,6.6,32.8,68,38.8,25.5,3.6,179.0,110.0,10.0,0,5,7,1,2026-06-04T09:49:06.674039+05:30
Mysore,Karnataka,12.2958,76.6396,25.8,71,0.0,928.7,8.5,50.4,21,2.2,2.1,3.7,135.0,61.0,2.0,7,5,7,1,2026-06-04T09:49:06.674047+05:30
Mangalore,Karnataka,12.9141,74.856,26.4,91,0.2,1007.4,8.65,37.1,32,13.2,6.2,3.8,162.0,56.0,1.8,10,5,4,1,2026-06-04T09:49:06.674054+05:30
Hubli-Dharwad,Karnataka,15.3647,75.124,27.7,63,0.0,940.7,8.8,45.7,24,9.8,4.5,2.4,119.0,58.0,1.0,7,5,7,1,2026-06-04T09:49:06.674062+05:30
Belgaum,Karnataka,15.8497,74.4977,26.7,64,0.1,925.2,8.95,40.3,42,10.0,4.4,1.9,125.0,62.0,1.6,10,5,7,1,2026-06-04T09:49:09.996073+05:30
Coimbatore,Tamil Nadu,11.0168,76.9558,28.5,66,0.0,962.2,8.25,59.4,21,2.0,1.8,2.8,162.0,57.0,1.9,7,5,7,1,2026-06-04T09:49:09.996104+05:30
Madurai,Tamil Nadu,9.9252,78.1198,33.0,51,0.0,992.4,7.95,55.1,43,7.4,6.6,5.0,180.0,66.0,4.1,0,5,7,1,2026-06-04T09:49:09.996117+05:30
Trichy,Tamil Nadu,10.7905,78.7047,32.3,55,0.0,998.9,8.6,50.8,40,7.2,5.9,4.0,126.0,61.0,3.4,0,5,7,1,2026-06-04T09:49:09.996128+05:30
Salem,Tamil Nadu,11.6643,78.146,31.0,55,0.0,977.1,8.3,40.7,40,13.8,10.8,7.1,207.0,79.0,11.5,0,5,7,1,2026-06-04T09:49:09.996138+05:30
Tirunelveli,Tamil Nadu,8.7139,77.7567,33.4,50,0.0,1003.3,7.85,45.0,19,3.0,2.6,2.8,155.0,44.0,1.4,0,5,4,1,2026-06-04T09:49:09.996147+05:30
Vellore,Tamil Nadu,12.9165,79.1325,32.1,51,0.0,983.1,8.65,43.9,54,6.0,5.3,3.1,165.0,72.0,3.3,0,5,7,1,2026-06-04T09:49:09.996155+05:30
Erode,Tamil Nadu,11.341,77.7172,31.8,52,0.0,988.9,7.9,49.3,30,5.3,4.6,4.5,187.0,62.0,3.1,0,5,7,1,2026-06-04T09:49:09.996162+05:30
Kochi,Kerala,9.9312,76.2673,26.9,90,0.3,1010.4,7.6,40.0,44,11.8,8.6,7.1,143.0,48.0,2.9,10,0,4,1,2026-06-04T09:49:09.996170+05:30
Thiruvananthapuram,Kerala,8.5241,76.9366,26.6,89,0.1,1010.2,6.75,55.4,27,9.5,5.3,1.6,120.0,42.0,0.4,10,0,4,1,2026-06-04T09:49:09.996177+05:30
Kozhikode,Kerala,11.2588,75.7804,25.4,96,0.3,1009.2,7.95,28.1,29,13.1,5.6,0.9,190.0,62.0,0.4,10,0,4,1,2026-06-04T09:49:09.996205+05:30
Thrissur,Kerala,10.5276,76.2144,25.6,96,0.2,1008.7,7.6,34.2,43,11.8,9.2,7.3,184.0,44.0,3.0,10,0,4,1,2026-06-04T09:49:09.996215+05:30
Kannur,Kerala,11.8745,75.3704,25.5,96,0.1,1008.2,8.7,29.9,28,15.0,7.0,4.1,173.0,54.0,1.3,10,0,4,1,2026-06-04T09:49:09.996222+05:30
Patna,Bihar,25.5941,85.1376,34.1,54,0.0,996.0,8.85,21.6,164,101.3,78.9,12.5,479.0,169.0,17.6,0,5,7,1,2026-06-04T09:49:09.996230+05:30
Gaya,Bihar,24.7914,85.0002,34.6,45,0.0,989.6,8.65,29.9,150,78.9,55.8,4.0,298.0,167.0,14.9,0,5,7,1,2026-06-04T09:49:09.996237+05:30
Muzaffarpur,Bihar,26.1209,85.3647,34.5,51,0.0,995.8,8.9,20.9,166,106.6,85.2,11.2,462.0,202.0,20.6,0,5,7,1,2026-06-04T09:49:09.996244+05:30
Bhagalpur,Bihar,25.2425,87.0117,35.5,52,0.0,996.4,7.85,32.4,155,73.3,63.6,7.4,359.0,180.0,34.3,0,5,10,1,2026-06-04T09:49:09.996252+05:30
Ranchi,Jharkhand,23.3441,85.3096,31.8,50,0.0,935.4,9.05,31.3,119,65.7,45.4,2.4,273.0,168.0,17.9,0,5,7,1,2026-06-04T09:49:09.996259+05:30
Jamshedpur,Jharkhand,22.8046,86.2029,34.0,55,0.0,986.9,9.05,28.4,157,72.2,57.9,8.7,353.0,189.0,46.8,0,5,7,1,2026-06-04T09:49:09.996267+05:30
Dhanbad,Jharkhand,23.7957,86.4304,35.8,41,0.0,976.0,8.9,32.0,163,75.2,61.5,29.2,349.0,158.0,86.6,0,5,10,1,2026-06-04T09:49:09.996274+05:30
Bokaro,Jharkhand,23.6693,86.1511,35.3,44,0.0,979.7,9.0,28.8,157,69.6,53.3,20.2,343.0,162.0,62.7,0,5,10,1,2026-06-04T09:49:09.996281+05:30
Bhubaneswar,Odisha,20.2961,85.8245,34.8,62,0.0,998.2,9.1,32.4,105,38.1,31.4,3.3,370.0,147.0,13.3,3,5,7,1,2026-06-04T09:49:09.996288+05:30
Cuttack,Odisha,20.4625,85.8828,34.0,68,0.0,1000.1,9.15,30.6,105,38.1,31.4,3.3,408.0,147.0,13.3,3,5,4,1,2026-06-04T09:49:09.996295+05:30
Rourkela,Odisha,22.2604,84.8536,34.3,52,0.0,981.4,8.8,33.5,156,64.0,49.4,4.4,378.0,178.0,31.5,0,5,7,1,2026-06-04T09:49:09.996302+05:30
Raipur,Chhattisgarh,21.2514,81.6296,36.2,33,0.0,971.5,8.95,35.3,114,40.9,32.5,26.1,418.0,96.0,64.8,0,5,10,1,2026-06-04T09:49:09.996309+05:30
Bhilai,Chhattisgarh,21.1938,81.3509,35.2,36,0.0,972.0,8.95,36.7,107,36.1,27.1,18.7,588.0,104.0,51.7,0,5,10,1,2026-06-04T09:49:09.996316+05:30
Guwahati,Assam,26.1158,91.7086,29.2,74,0.0,998.3,8.7,31.3,121,41.3,35.0,2.3,395.0,140.0,4.9,7,5,7,1,2026-06-04T09:49:09.996323+05:30
Agartala,Tripura,23.8315,91.2868,32.3,71,0.0,1002.9,8.85,20.5,98,34.6,26.4,4.0,240.0,119.0,3.3,3,5,4,1,2026-06-04T09:49:09.996330+05:30
Shillong,Meghalaya,25.5788,91.8933,24.5,71,0.1,856.7,6.45,26.3,81,29.2,24.1,2.0,287.0,139.0,5.2,6,5,7,1,2026-06-04T09:49:09.996337+05:30
Imphal,Manipur,24.817,93.9368,27.5,71,0.0,921.7,9.25,31.3,97,19.6,15.1,0.7,248.0,116.0,2.2,7,5,7,1,2026-06-04T09:49:09.996345+05:30
Aizawl,Mizoram,23.7271,92.7176,26.8,57,0.0,891.9,9.05,26.6,80,35.0,20.9,0.6,209.0,105.0,2.9,4,5,7,1,2026-06-04T09:49:09.996351+05:30
Kohima,Nagaland,25.6701,94.1077,22.1,88,0.0,854.2,9.0,29.2,84,36.9,26.3,0.5,259.0,127.0,2.4,3,5,7,1,2026-06-04T09:49:09.996358+05:30
Gangtok,Sikkim,27.3314,88.6138,22.4,66,0.0,837.2,9.25,35.6,91,39.0,28.9,1.3,258.0,150.0,2.9,3,5,7,0,2026-06-04T09:49:09.996365+05:30
Siliguri,West Bengal,26.7271,88.3953,30.9,62,0.0,989.3,8.8,23.8,155,81.5,61.0,2.8,431.0,167.0,7.7,3,5,7,1,2026-06-04T09:49:13.329470+05:30
Durgapur,West Bengal,23.5204,87.3119,33.8,63,0.0,990.7,8.85,23.8,174,91.7,82.2,36.9,631.0,158.0,112.6,3,5,7,1,2026-06-04T09:49:13.329498+05:30
Asansol,West Bengal,23.6739,86.9524,34.6,56,0.0,989.3,8.85,30.6,164,78.7,67.3,31.5,781.0,155.0,94.3,0,5,7,1,2026-06-04T09:49:13.329508+05:30
Pondicherry,Puducherry,11.9139,79.8145,32.5,57,0.0,1007.0,8.45,37.4,60,23.1,18.2,10.2,293.0,83.0,9.6,0,5,4,1,2026-06-04T09:49:13.329517+05:30
Port Blair,Andaman and Nicobar Islands,11.6234,92.7265,29.6,77,0.0,1005.8,3.45,46.8,31,7.8,5.0,0.4,109.0,67.0,0.6,7,5,0,1,2026-06-04T09:49:13.329525+05:30
Haridwar,Uttarakhand,29.9457,78.1642,33.0,48,0.0,970.1,7.65,27.7,78,35.3,21.8,2.4,309.0,169.0,7.7,0,5,7,1,2026-06-04T09:49:13.329532+05:30
Rishikesh,Uttarakhand,30.0869,78.2676,32.5,46,0.0,963.1,7.75,27.4,51,31.3,14.6,1.6,254.0,157.0,4.6,0,5,7,1,2026-06-04T09:49:13.329539+05:30
Nainital,Uttarakhand,29.3919,79.4542,21.6,58,0.0,806.2,7.4,36.4,88,42.4,21.5,0.3,215.0,150.0,2.2,0,5,7,0,2026-06-04T09:49:13.329547+05:30
Mussoorie,Uttarakhand,30.4599,78.0664,21.7,56,0.0,803.7,6.45,37.1,64,61.7,22.4,0.4,275.0,172.0,6.7,0,5,7,0,2026-06-04T09:49:13.329554+05:30
Dharamshala,Himachal Pradesh,32.219,76.3234,25.7,49,0.0,867.4,8.05,46.4,49,22.5,10.1,0.9,280.0,136.0,1.1,4,5,7,0,2026-06-04T09:49:13.329562+05:30
Dalhousie,Himachal Pradesh,32.5387,75.971,22.3,55,0.0,804.7,6.75,44.3,72,37.6,15.7,2.5,268.0,150.0,2.2,0,5,7,0,2026-06-04T09:49:13.329570+05:30
Patiala,Punjab,30.3398,76.3869,34.9,37,0.0,973.2,7.7,50.8,152,616.5,100.6,6.9,420.0,156.0,13.4,0,5,7,1,2026-06-04T09:49:13.329577+05:30
Bhatinda,Punjab,30.211,74.9455,36.8,31,0.0,977.9,8.3,59.8,145,93.4,42.7,10.0,368.0,136.0,15.1,0,5,10,1,2026-06-04T09:49:13.329584+05:30
Rohtak,Haryana,28.8955,76.6066,35.2,40,0.0,976.8,7.8,50.4,156,330.6,84.8,12.0,414.0,155.0,17.3,0,5,10,1,2026-06-04T09:49:13.329591+05:30
Panipat,Haryana,29.3909,76.9635,34.7,43,0.0,975.6,7.7,29.5,184,497.3,106.4,16.7,478.0,158.0,28.4,0,5,7,1,2026-06-04T09:49:13.329598+05:30
Mathura,Uttar Pradesh,27.4924,77.6737,35.7,38,0.0,981.8,8.1,19.4,153,280.3,65.9,9.8,480.0,144.0,10.4,0,5,10,1,2026-06-04T09:49:13.329605+05:30
Vrindavan,Uttar Pradesh,27.5823,77.7027,35.8,37,0.0,982.2,8.05,21.6,153,280.3,65.9,9.8,469.0,144.0,10.4,0,5,10,1,2026-06-04T09:49:13.329611+05:30
Ayodhya,Uttar Pradesh,26.7922,82.1998,34.4,45,0.0,990.7,8.05,22.3,153,73.8,44.9,11.3,323.0,147.0,12.2,0,5,7,1,2026-06-04T09:49:13.329618+05:30
Ratlam,Madhya Pradesh,23.3315,75.0367,31.6,59,0.0,952.3,8.5,41.8,85,44.6,26.0,4.3,143.0,69.0,11.5,0,5,7,1,2026-06-04T09:49:13.329625+05:30
Sagar,Madhya Pradesh,23.8388,78.7378,34.0,38,0.0,947.2,8.75,52.6,76,64.0,30.2,1.8,187.0,108.0,6.0,0,5,7,1,2026-06-04T09:49:13.329632+05:30
Satna,Madhya Pradesh,24.6005,80.8322,34.8,38,0.0,967.8,8.8,27.7,83,68.5,30.3,2.7,194.0,117.0,7.8,0,5,7,1,2026-06-04T09:49:13.329638+05:30
Akola,Maharashtra,20.7002,77.0082,34.0,46,0.0,972.9,8.75,36.7,67,52.4,30.2,3.9,166.0,107.0,12.8,0,5,7,1,2026-06-04T09:49:13.329646+05:30
Amravati,Maharashtra,20.9374,77.7796,34.7,37,0.0,965.1,8.6,37.4,68,52.2,31.0,4.2,193.0,112.0,14.7,0,5,7,1,2026-06-04T09:49:13.329653+05:30
Latur,Maharashtra,18.4088,76.5604,29.2,60,0.0,938.8,9.0,34.6,63,40.2,17.8,3.7,154.0,69.0,3.1,4,5,7,1,2026-06-04T09:49:13.329660+05:30
Nanded,Maharashtra,19.1383,77.3091,33.4,47,0.0,967.0,8.25,36.4,74,38.0,23.6,3.3,176.0,107.0,8.5,0,5,7,1,2026-06-04T09:49:13.329667+05:30
Gulbarga,Karnataka,17.3297,76.8343,31.0,51,0.0,957.7,9.0,41.8,64,30.0,15.3,3.4,153.0,79.0,3.2,0,5,7,1,2026-06-04T09:49:13.329673+05:30
Bidar,Karnataka,17.9104,77.5199,30.0,55,0.0,934.7,7.5,42.8,69,29.9,17.8,4.1,184.0,85.0,3.3,4,5,7,1,2026-06-04T09:49:13.329680+05:30
Hospet,Karnataka,15.2689,76.3909,28.0,65,0.0,955.7,9.0,43.9,31,16.5,8.2,2.9,131.0,58.0,2.1,7,5,7,1,2026-06-04T09:49:13.329686+05:30
Tirupur,Tamil Nadu,11.1085,77.3411,30.6,58,0.0,975.5,8.05,59.8,32,5.7,5.0,4.4,150.0,64.0,3.6,0,5,7,1,2026-06-04T09:49:13.329694+05:30
Alappuzha,Kerala,9.4981,76.3388,27.2,88,0.0,1010.5,7.15,45.7,33,11.2,6.8,3.9,96.0,53.0,1.8,7,0,4,1,2026-06-04T09:49:13.329700+05:30
Munnar,Kerala,10.0889,77.0595,18.0,95,0.3,857.7,8.7,43.2,19,1.8,1.6,2.5,108.0,50.0,1.2,6,10,7,1,2026-06-04T09:49:13.329708+05:30
Silchar,Assam,24.8333,92.7789,29.6,72,0.0,1002.8,8.95,23.0,116,31.9,23.5,1.1,261.0,115.0,4.4,7,5,4,1,2026-06-04T09:49:13.329714+05:30
Dibrugarh,Assam,27.4728,94.912,25.9,88,0.1,993.0,8.4,33.1,85,30.9,26.5,1.6,283.0,142.0,2.9,10,5,7,1,2026-06-04T09:49:13.329721+05:30
