city,state,latitude,longitude,temp,humidity,rain,pressure,uv_index,wind_gusts,aqi,pm10,pm2_5,no2,co,o3,so2,mosquito_risk,arthritis_risk,migraine_risk,frizz_risk,updated_at
Delhi,Delhi,28.6139,77.209,34.6,48,0.0,974.2,7.75,37.1,166,293.4,121.5,55.5,713.0,38.0,29.2,0,5,7,1,2026-06-29T02:34:44.539931+05:30
Mumbai,Maharashtra,19.076,72.8777,26.1,95,0.3,1003.9,1.85,35.3,53,19.1,10.6,7.8,162.0,45.0,6.0,10,5,0,1,2026-06-29T02:34:44.539972+05:30
Bangalore,Karnataka,12.9716,77.5946,21.6,92,0.0,909.1,8.45,56.5,30,3.2,3.1,7.3,149.0,36.0,3.7,3,5,7,1,2026-06-29T02:34:44.539987+05:30
Hyderabad,Telangana,17.385,78.4867,23.6,95,0.0,948.4,5.3,36.4,50,9.7,9.2,12.7,185.0,37.0,7.9,3,5,3,1,2026-06-29T02:34:44.539996+05:30
Chennai,Tamil Nadu,13.0827,80.2707,25.6,96,0.1,1004.2,8.4,45.7,63,12.2,9.9,11.7,235.0,61.0,9.5,10,5,4,1,2026-06-29T02:34:44.540004+05:30
Kolkata,West Bengal,22.5726,88.3639,28.1,93,0.0,999.1,8.9,30.2,73,35.6,33.8,9.1,242.0,110.0,10.1,7,5,7,1,2026-06-29T02:34:44.540011+05:30
Pune,Maharashtra,18.5204,73.8567,23.3,93,0.0,943.4,5.45,38.9,34,4.3,3.8,8.6,121.0,34.0,6.5,3,5,3,1,2026-06-29T02:34:44.540018+05:30
Ahmedabad,Gujarat,23.0225,72.5714,31.1,62,0.0,995.6,7.85,44.3,67,22.4,11.8,4.3,107.0,51.0,3.7,3,5,7,1,2026-06-29T02:34:44.540024+05:30
Jaipur,Rajasthan,26.9124,75.7873,29.0,65,0.0,952.3,8.2,35.6,145,361.4,71.9,7.2,171.0,54.0,4.1,7,5,7,1,2026-06-29T02:34:44.540031+05:30
Lucknow,Uttar Pradesh,26.8467,80.9462,30.9,73,0.0,984.6,7.85,28.4,114,101.3,56.0,21.9,245.0,56.0,9.1,3,5,7,1,2026-06-29T02:34:44.540041+05:30
Kanpur,Uttar Pradesh,26.4499,80.3319,33.3,53,0.0,983.0,8.3,41.8,110,69.6,39.8,23.0,225.0,40.0,5.7,0,5,7,1,2026-06-29T02:34:44.540049+05:30
Chandigarh,Chandigarh,30.7333,76.7794,29.6,72,0.0,960.0,7.85,27.0,150,73.6,68.9,50.4,681.0,8.0,6.6,7,5,7,1,2026-06-29T02:34:44.540055+05:30
Srinagar,Jammu and Kashmir,34.0837,74.7973,19.7,86,0.0,835.5,9.1,22.7,76,35.5,33.1,22.3,441.0,22.0,0.3,3,10,7,1,2026-06-29T02:34:44.540062+05:30
Jammu,Jammu and Kashmir,32.7266,74.857,31.3,61,0.0,963.6,8.7,29.9,111,41.4,37.0,27.7,323.0,30.0,3.6,3,5,7,1,2026-06-29T02:34:44.540070+05:30
Amritsar,Punjab,31.634,74.8723,29.9,78,0.0,970.7,8.55,34.9,154,88.0,58.4,36.2,482.0,26.0,6.5,7,5,7,1,2026-06-29T02:34:44.540076+05:30
Ludhiana,Punjab,30.901,75.8573,31.8,65,0.0,969.3,7.9,33.8,161,113.2,79.2,34.9,732.0,56.0,9.9,3,5,7,1,2026-06-29T02:34:44.540082+05:30
Jalandhar,Punjab,31.326,75.5762,30.3,77,0.0,970.2,8.25,34.2,161,82.2,69.2,33.6,453.0,52.0,7.9,3,5,7,1,2026-06-29T02:34:44.540088+05:30
Dehradun,Uttarakhand,30.6284,78.0322,17.5,100,0.1,825.6,6.45,27.7,82,19.6,16.6,14.4,246.0,58.0,0.8,6,10,7,1,2026-06-29T02:34:44.540094+05:30
Shimla,Himachal Pradesh,31.1048,77.1734,14.6,97,0.0,779.3,6.2,41.4,110,42.5,37.5,20.4,256.0,36.0,0.3,3,10,7,0,2026-06-29T02:34:44.540101+05:30
Manali,Himachal Pradesh,32.2396,77.1887,16.6,62,0.0,813.3,9.25,36.4,54,8.4,7.3,50.7,205.0,38.0,0.0,3,5,7,0,2026-06-29T02:34:44.540113+05:30
Gurgaon,Haryana,28.4595,77.0266,31.7,61,0.0,972.6,7.8,36.7,182,297.1,111.3,54.0,711.0,44.0,33.5,3,5,7,1,2026-06-29T02:34:44.540122+05:30
Noida,Uttar Pradesh,28.5355,77.391,30.5,81,0.0,975.3,7.8,29.2,182,297.1,111.3,54.0,1364.0,44.0,33.5,3,5,7,1,2026-06-29T02:34:44.540129+05:30
Ghaziabad,Uttar Pradesh,28.6692,77.4538,30.6,75,0.0,973.5,7.8,29.9,164,231.4,111.1,44.9,984.0,59.0,27.8,3,5,7,1,2026-06-29T02:34:44.540135+05:30
Faridabad,Haryana,28.4089,77.3178,33.4,51,0.0,974.8,7.85,40.0,182,297.1,111.3,54.0,1028.0,44.0,33.5,0,5,7,1,2026-06-29T02:34:44.540140+05:30
Meerut,Uttar Pradesh,28.9845,77.7064,32.8,62,0.0,972.6,6.05,31.3,164,231.4,111.1,44.9,732.0,59.0,27.8,3,5,7,1,2026-06-29T02:34:44.540146+05:30
Agra,Uttar Pradesh,27.1767,78.0081,31.3,60,0.0,978.9,8.1,40.3,196,143.9,48.2,15.1,159.0,47.0,5.5,0,5,7,1,2026-06-29T02:34:44.540152+05:30
Varanasi,Uttar Pradesh,25.3176,82.9739,32.1,61,0.0,989.2,8.35,42.8,107,37.5,30.2,14.8,216.0,64.0,7.5,3,5,7,1,2026-06-29T02:34:44.540158+05:30
Prayagraj,Uttar Pradesh,25.4358,81.8463,33.0,58,0.0,987.5,8.7,37.1,98,38.8,28.1,16.2,250.0,60.0,5.4,0,5,7,1,2026-06-29T02:34:44.540165+05:30
Gorakhpur,Uttar Pradesh,26.7606,83.3732,28.9,82,0.0,989.1,8.6,28.1,151,57.7,47.7,15.0,449.0,85.0,5.4,7,5,7,1,2026-06-29T02:34:44.540171+05:30
Bareilly,Uttar Pradesh,28.367,79.4304,30.1,74,0.0,978.3,7.55,35.6,143,79.6,54.0,14.6,867.0,90.0,11.4,3,5,7,1,2026-06-29T02:34:44.540178+05:30
Aligarh,Uttar Pradesh,27.8974,78.088,30.9,68,0.0,976.3,7.25,33.8,164,221.7,105.0,59.4,660.0,13.0,13.5,3,5,7,1,2026-06-29T02:34:44.540185+05:30
Moradabad,Uttar Pradesh,28.8386,78.7733,30.9,66,0.0,975.1,7.8,36.7,160,99.4,62.9,21.6,840.0,71.0,11.0,3,5,7,1,2026-06-29T02:34:44.540191+05:30
Saharanpur,Uttar Pradesh,29.9637,77.546,28.5,75,0.0,967.5,7.45,29.9,161,86.8,77.1,27.9,530.0,55.0,12.7,7,5,7,1,2026-06-29T02:34:44.540196+05:30
Jhansi,Uttar Pradesh,25.4484,78.5685,29.7,71,0.0,970.1,8.45,40.0,73,42.3,24.6,7.3,162.0,67.0,10.8,7,5,7,1,2026-06-29T02:34:47.921393+05:30
Surat,Gujarat,21.1702,72.8311,29.7,75,0.0,1000.9,5.95,47.9,74,36.3,20.5,14.2,222.0,36.0,24.5,7,5,0,1,2026-06-29T02:34:47.921428+05:30
Vadodara,Gujarat,22.3072,73.1812,30.7,72,0.0,997.8,6.0,48.2,72,27.8,19.0,16.7,125.0,30.0,15.9,3,5,3,1,2026-06-29T02:34:47.921441+05:30
Rajkot,Gujarat,22.3039,70.8022,28.6,72,0.0,988.2,7.2,43.6,63,29.5,14.1,4.9,96.0,45.0,5.0,7,5,7,1,2026-06-29T02:34:47.921452+05:30
Thane,Maharashtra,19.2183,72.9781,24.7,98,0.1,1003.4,1.55,30.6,53,19.1,10.6,7.8,173.0,45.0,6.0,6,5,0,1,2026-06-29T02:34:47.921462+05:30
Nagpur,Maharashtra,21.1458,79.0882,25.8,95,0.3,967.6,8.5,32.4,92,27.3,23.7,11.3,200.0,68.0,8.5,10,5,7,1,2026-06-29T02:34:47.921471+05:30
Nashik,Maharashtra,19.9975,73.7898,23.3,92,0.0,940.7,4.2,45.4,44,11.2,7.4,7.7,118.0,39.0,6.9,3,5,3,1,2026-06-29T02:34:47.921481+05:30
Aurangabad,Maharashtra,19.8762,75.3433,24.3,91,0.0,939.0,6.85,50.0,60,14.8,10.6,10.4,119.0,35.0,6.4,3,5,7,1,2026-06-29T02:34:47.921490+05:30
Solapur,Maharashtra,17.6599,75.9064,24.3,92,0.0,952.7,6.15,42.8,34,10.1,9.3,8.3,157.0,58.0,2.4,3,5,7,1,2026-06-29T02:34:47.921499+05:30
Kolhapur,Maharashtra,16.705,74.2433,23.0,93,0.0,944.1,6.8,54.4,21,3.3,3.1,4.9,125.0,39.0,2.0,3,5,7,1,2026-06-29T02:34:47.921507+05:30
Goa,Goa,15.2993,74.124,23.8,99,0.9,995.5,5.0,31.3,28,11.3,7.4,2.6,180.0,53.0,0.9,6,5,3,1,2026-06-29T02:34:47.921516+05:30
Jodhpur,Rajasthan,26.2389,73.0243,32.2,49,0.0,975.0,8.45,44.6,139,178.3,43.7,3.5,122.0,55.0,1.4,0,5,7,1,2026-06-29T02:34:47.921525+05:30
Udaipur,Rajasthan,24.5854,73.7125,27.4,63,0.0,940.1,8.85,33.5,68,32.2,17.5,4.5,131.0,57.0,2.0,7,5,7,1,2026-06-29T02:34:47.921533+05:30
Kota,Rajasthan,25.2138,75.8648,28.3,75,0.1,971.4,8.35,44.3,72,26.4,16.7,8.1,147.0,58.0,3.8,10,5,7,1,2026-06-29T02:34:47.921542+05:30
Bikaner,Rajasthan,28.0229,73.3119,33.4,42,0.0,973.1,8.45,40.3,122,166.7,51.7,2.4,109.0,59.0,3.2,0,5,7,1,2026-06-29T02:34:47.921551+05:30
Ajmer,Rajasthan,26.4499,74.6399,30.1,51,0.0,947.5,8.2,51.1,95,48.4,21.1,5.8,128.0,54.0,3.0,0,5,7,1,2026-06-29T02:34:47.921559+05:30
Gwalior,Madhya Pradesh,26.2183,78.1828,30.8,63,0.0,974.7,8.25,43.9,91,56.5,33.5,5.4,142.0,61.0,3.6,3,5,7,1,2026-06-29T02:34:47.921567+05:30
Indore,Madhya Pradesh,22.7196,75.8577,25.6,82,0.0,942.2,8.4,45.0,90,47.0,35.0,12.8,264.0,53.0,6.7,7,5,7,1,2026-06-29T02:34:47.921576+05:30
Bhopal,Madhya Pradesh,23.2599,77.4126,26.6,82,0.0,947.3,8.65,28.4,84,32.0,25.0,8.1,247.0,63.0,3.1,7,5,7,1,2026-06-29T02:34:47.921584+05:30
Jabalpur,Madhya Pradesh,23.1815,79.9864,28.3,77,0.0,955.4,8.6,35.6,80,29.9,25.2,7.9,235.0,68.0,3.0,7,5,7,1,2026-06-29T02:34:47.921592+05:30
Ujjain,Madhya Pradesh,23.1765,75.7885,26.2,76,0.0,947.8,3.7,38.9,84,44.1,32.5,10.1,253.0,58.0,6.0,7,5,3,1,2026-06-29T02:34:47.921601+05:30
Visakhapatnam,Andhra Pradesh,17.6868,83.2185,26.0,97,0.0,998.5,8.25,40.7,74,28.1,22.6,16.5,299.0,87.0,30.1,7,5,7,1,2026-06-29T02:34:47.921609+05:30
Vijayawada,Andhra Pradesh,16.5062,80.648,26.1,96,0.1,998.1,7.55,41.4,68,15.4,13.9,5.9,184.0,88.0,3.7,10,5,7,1,2026-06-29T02:34:47.921618+05:30
Guntur,Andhra Pradesh,16.3067,80.4365,25.9,97,0.0,999.4,7.55,31.0,64,13.9,12.7,7.5,151.0,75.0,3.4,7,5,7,1,2026-06-29T02:34:47.921629+05:30
Nellore,Andhra Pradesh,14.4426,79.9865,25.3,97,0.3,1002.3,8.3,45.7,55,12.2,8.4,5.5,172.0,64.0,1.7,10,5,4,1,2026-06-29T02:34:47.921639+05:30
Kurnool,Andhra Pradesh,15.8281,78.0373,25.0,91,0.0,972.9,6.7,44.3,28,4.2,3.8,7.9,149.0,37.0,2.0,7,5,7,1,2026-06-29T02:34:47.921651+05:30
Kakinada,Andhra Pradesh,16.9891,82.2475,25.1,95,0.2,1003.3,8.65,50.0,68,21.0,15.2,1.9,165.0,102.0,2.7,10,5,4,1,2026-06-29T02:34:47.921661+05:30
Tirupati,Andhra Pradesh,13.6288,79.4192,25.6,96,0.0,988.2,8.05,43.9,52,11.6,9.8,12.3,182.0,35.0,1.8,7,5,7,1,2026-06-29T02:34:47.921670+05:30
Warangal,Telangana,17.9689,79.5941,25.3,92,0.0,973.7,6.1,30.2,69,14.8,13.8,10.0,200.0,58.0,2.0,7,5,7,1,2026-06-29T02:34:47.921680+05:30
Nizamabad,Telangana,18.6725,78.0941,24.5,93,0.0,959.8,7.95,31.0,75,17.5,15.1,8.3,217.0,67.0,2.7,3,5,7,1,2026-06-29T02:34:47.921690+05:30
Mysore,Karnataka,12.2958,76.6396,21.7,92,0.0,926.3,7.8,52.6,19,2.4,2.3,5.4,108.0,36.0,1.7,3,5,7,1,2026-06-29T02:34:47.921699+05:30
Mangalore,Karnataka,12.9141,74.856,24.1,99,0.9,1005.8,5.6,35.6,28,8.8,5.3,1.9,124.0,52.0,0.8,6,5,0,1,2026-06-29T02:34:47.921709+05:30
Hubli-Dharwad,Karnataka,15.3647,75.124,22.5,94,0.0,937.4,6.5,58.0,20,2.0,1.7,3.6,106.0,42.0,1.3,3,5,7,1,2026-06-29T02:34:47.921718+05:30
Belgaum,Karnataka,15.8497,74.4977,21.5,96,0.0,922.0,7.9,52.2,20,2.6,2.0,2.7,119.0,46.0,0.8,3,5,7,1,2026-06-29T02:34:51.302334+05:30
Coimbatore,Tamil Nadu,11.0168,76.9558,22.7,93,0.0,959.8,8.85,55.1,21,2.3,2.0,4.0,140.0,38.0,1.9,3,5,7,1,2026-06-29T02:34:51.302363+05:30
Madurai,Tamil Nadu,9.9252,78.1198,28.3,65,0.0,990.7,8.75,31.7,59,20.8,18.2,29.5,127.0,6.0,6.2,7,5,7,1,2026-06-29T02:34:51.302373+05:30
Trichy,Tamil Nadu,10.7905,78.7047,27.1,75,0.0,997.3,8.8,48.6,45,4.1,3.7,6.5,102.0,34.0,2.4,7,5,7,1,2026-06-29T02:34:51.302381+05:30
Salem,Tamil Nadu,11.6643,78.146,24.9,89,0.0,975.4,8.75,37.4,51,11.4,10.1,14.0,245.0,29.0,5.8,3,5,7,1,2026-06-29T02:34:51.302389+05:30
Tirunelveli,Tamil Nadu,8.7139,77.7567,28.3,68,0.0,1001.5,8.6,58.7,23,2.7,2.3,4.4,107.0,37.0,1.5,7,5,4,1,2026-06-29T02:34:51.302396+05:30
Vellore,Tamil Nadu,12.9165,79.1325,25.9,98,0.0,981.8,8.45,45.4,55,12.4,10.9,13.3,151.0,31.0,3.3,7,5,7,1,2026-06-29T02:34:51.302403+05:30
Erode,Tamil Nadu,11.341,77.7172,25.1,82,0.0,987.0,8.85,44.3,37,9.2,8.7,11.9,127.0,30.0,2.9,7,5,7,1,2026-06-29T02:34:51.302410+05:30
Kochi,Kerala,9.9312,76.2673,24.9,95,0.2,1008.1,8.45,46.4,36,10.4,8.3,8.8,121.0,26.0,2.7,6,0,4,1,2026-06-29T02:34:51.302417+05:30
Thiruvananthapuram,Kerala,8.5241,76.9366,24.1,96,0.1,1008.2,8.3,54.4,30,11.6,6.2,1.5,119.0,54.0,0.7,6,0,4,1,2026-06-29T02:34:51.302424+05:30
Kozhikode,Kerala,11.2588,75.7804,23.7,99,0.2,1007.5,8.55,41.8,27,9.7,5.1,0.6,114.0,58.0,0.4,6,5,4,1,2026-06-29T02:34:51.302430+05:30
Thrissur,Kerala,10.5276,76.2144,24.0,98,0.2,1006.8,8.4,44.3,36,6.1,4.9,5.4,178.0,35.0,1.6,6,5,4,1,2026-06-29T02:34:51.302437+05:30
Kannur,Kerala,11.8745,75.3704,24.3,99,0.2,1006.6,8.45,47.5,29,9.5,5.8,2.8,130.0,46.0,0.8,6,5,4,1,2026-06-29T02:34:51.302443+05:30
Patna,Bihar,25.5941,85.1376,28.3,97,0.1,993.0,7.6,23.8,151,58.4,54.7,16.2,374.0,78.0,8.1,10,5,7,1,2026-06-29T02:34:51.302450+05:30
Gaya,Bihar,24.7914,85.0002,27.5,95,0.0,986.5,8.6,36.4,120,51.3,48.9,20.2,280.0,61.0,7.0,7,5,7,1,2026-06-29T02:34:51.302456+05:30
Muzaffarpur,Bihar,26.1209,85.3647,27.1,95,0.0,993.2,7.6,22.7,153,54.6,50.3,13.7,336.0,86.0,7.0,7,5,7,1,2026-06-29T02:34:51.302462+05:30
Bhagalpur,Bihar,25.2425,87.0117,27.7,98,0.0,993.8,7.8,24.8,119,47.5,46.3,10.7,309.0,94.0,8.6,7,5,7,1,2026-06-29T02:34:51.302469+05:30
Ranchi,Jharkhand,23.3441,85.3096,24.7,92,0.0,932.0,9.0,41.8,116,48.8,48.0,7.7,310.0,117.0,18.7,3,5,7,1,2026-06-29T02:34:51.302475+05:30
Jamshedpur,Jharkhand,22.8046,86.2029,27.8,86,0.0,984.4,8.75,37.1,117,45.2,43.9,20.6,320.0,68.0,27.0,7,5,7,1,2026-06-29T02:34:51.302482+05:30
Dhanbad,Jharkhand,23.7957,86.4304,28.3,84,0.0,973.0,8.8,42.8,154,59.8,59.0,37.7,1846.0,67.0,106.4,7,5,7,1,2026-06-29T02:34:51.302489+05:30
Bokaro,Jharkhand,23.6693,86.1511,28.8,80,0.0,976.9,8.75,46.1,150,47.1,46.2,22.6,1045.0,90.0,63.2,7,5,7,1,2026-06-29T02:34:51.302496+05:30
Bhubaneswar,Odisha,20.2961,85.8245,27.4,95,0.0,996.3,7.15,40.3,85,30.2,28.6,13.9,199.0,67.0,7.0,7,5,7,1,2026-06-29T02:34:51.302502+05:30
Cuttack,Odisha,20.4625,85.8828,27.5,97,0.0,998.1,7.8,37.4,85,30.2,28.6,13.9,191.0,67.0,7.0,7,5,7,1,2026-06-29T02:34:51.302509+05:30
Rourkela,Odisha,22.2604,84.8536,27.8,86,0.0,979.5,7.5,43.6,104,39.3,37.7,7.0,261.0,100.0,9.1,7,5,7,1,2026-06-29T02:34:51.302516+05:30
Raipur,Chhattisgarh,21.2514,81.6296,27.6,83,0.0,969.0,7.2,29.2,113,31.2,28.6,22.5,220.0,65.0,40.5,7,5,7,1,2026-06-29T02:34:51.302522+05:30
Bhilai,Chhattisgarh,21.1938,81.3509,27.4,84,0.0,969.3,7.1,39.2,107,31.2,28.3,20.5,313.0,74.0,37.6,7,5,7,1,2026-06-29T02:34:51.302528+05:30
Guwahati,Assam,26.1158,91.7086,25.7,96,0.0,995.0,5.9,27.0,56,15.7,15.0,6.2,279.0,73.0,2.3,7,5,3,1,2026-06-29T02:34:51.302534+05:30
Agartala,Tripura,23.8315,91.2868,26.2,93,0.0,1000.6,7.6,36.7,47,12.8,11.3,8.4,150.0,45.0,2.0,7,5,4,1,2026-06-29T02:34:51.302540+05:30
Shillong,Meghalaya,25.5788,91.8933,20.2,96,0.0,852.6,8.75,36.7,30,2.6,2.5,4.7,169.0,56.0,1.4,3,5,7,1,2026-06-29T02:34:51.302546+05:30
Imphal,Manipur,24.817,93.9368,22.8,95,0.0,918.7,9.05,31.7,43,11.3,11.1,7.4,317.0,33.0,1.8,3,5,7,1,2026-06-29T02:34:51.302552+05:30
Aizawl,Mizoram,23.7271,92.7176,20.4,90,0.0,888.3,8.15,37.1,23,2.9,2.6,2.5,117.0,35.0,0.5,3,5,7,1,2026-06-29T02:34:51.302558+05:30
Kohima,Nagaland,25.6701,94.1077,20.4,93,0.1,851.5,8.95,20.9,29,4.2,4.0,4.2,193.0,36.0,0.7,6,5,7,1,2026-06-29T02:34:51.302565+05:30
Gangtok,Sikkim,27.3314,88.6138,18.5,92,0.9,832.5,6.9,26.6,46,7.2,6.8,5.5,362.0,106.0,1.7,6,10,7,1,2026-06-29T02:34:51.302571+05:30
Siliguri,West Bengal,26.7271,88.3953,24.9,98,0.2,986.4,8.05,20.9,72,8.6,8.2,7.8,363.0,98.0,2.3,6,5,7,1,2026-06-29T02:34:54.725133+05:30
Durgapur,West Bengal,23.5204,87.3119,27.8,90,0.0,987.8,8.9,35.3,151,55.6,54.7,29.3,671.0,57.0,44.6,7,5,7,1,2026-06-29T02:34:54.725169+05:30
Asansol,West Bengal,23.6739,86.9524,28.6,86,0.0,986.3,8.9,32.8,148,58.7,57.7,33.1,367.0,60.0,66.5,7,5,7,1,2026-06-29T02:34:54.725182+05:30
Pondicherry,Puducherry,11.9139,79.8145,26.5,89,0.0,1005.7,8.7,46.4,62,11.8,9.4,12.2,333.0,57.0,12.2,7,5,4,1,2026-06-29T02:34:54.725193+05:30
Port Blair,Andaman and Nicobar Islands,11.6234,92.7265,25.2,96,0.0,1005.3,8.6,46.8,23,11.7,7.1,0.1,83.0,51.0,0.2,7,5,4,1,2026-06-29T02:34:54.725203+05:30
Haridwar,Uttarakhand,29.9457,78.1642,25.8,90,0.2,966.1,7.1,34.6,152,51.2,44.1,14.0,279.0,65.0,4.6,10,5,7,1,2026-06-29T02:34:54.725212+05:30
Rishikesh,Uttarakhand,30.0869,78.2676,24.8,94,0.1,959.3,6.0,27.0,126,41.2,31.3,6.7,273.0,97.0,3.4,6,5,3,1,2026-06-29T02:34:54.725221+05:30
Nainital,Uttarakhand,29.3919,79.4542,16.0,100,0.1,800.7,6.2,28.4,126,52.9,33.9,9.9,285.0,87.0,4.4,6,10,7,0,2026-06-29T02:34:54.725230+05:30
Mussoorie,Uttarakhand,30.4599,78.0664,16.1,100,0.0,798.3,5.45,37.1,124,33.8,29.2,15.7,305.0,59.0,4.2,3,10,3,0,2026-06-29T02:34:54.725240+05:30
Dharamshala,Himachal Pradesh,32.219,76.3234,22.4,88,0.1,863.9,7.9,31.3,57,14.9,12.8,15.4,327.0,51.0,0.1,6,5,7,1,2026-06-29T02:34:54.725249+05:30
Dalhousie,Himachal Pradesh,32.5387,75.971,15.9,97,0.1,798.8,8.05,31.3,88,29.6,24.2,11.0,295.0,85.0,1.2,6,10,7,0,2026-06-29T02:34:54.725258+05:30
Patiala,Punjab,30.3398,76.3869,31.6,69,0.0,969.2,7.3,34.6,165,133.6,96.4,42.2,540.0,41.0,8.9,3,5,7,1,2026-06-29T02:34:54.725266+05:30
Bhatinda,Punjab,30.211,74.9455,32.7,60,0.0,973.9,8.3,28.8,155,102.9,61.2,35.4,380.0,48.0,8.5,0,5,7,1,2026-06-29T02:34:54.725275+05:30
Rohtak,Haryana,28.8955,76.6066,31.2,66,0.0,972.7,7.75,32.0,165,291.5,116.2,64.5,583.0,29.0,15.2,3,5,7,1,2026-06-29T02:34:54.725284+05:30
Panipat,Haryana,29.3909,76.9635,31.0,71,0.0,971.3,6.7,32.0,171,237.0,104.1,49.9,772.0,46.0,10.5,3,5,7,1,2026-06-29T02:34:54.725292+05:30
Mathura,Uttar Pradesh,27.4924,77.6737,31.4,62,0.0,977.8,7.4,34.9,186,457.3,87.3,31.8,182.0,30.0,5.9,3,5,7,1,2026-06-29T02:34:54.725300+05:30
Vrindavan,Uttar Pradesh,27.5823,77.7027,31.2,64,0.0,978.1,7.4,32.8,186,457.3,87.3,31.8,222.0,30.0,5.9,3,5,7,1,2026-06-29T02:34:54.725309+05:30
Ayodhya,Uttar Pradesh,26.7922,82.1998,28.2,88,0.0,988.0,8.45,43.6,143,105.5,76.8,38.3,655.0,34.0,8.0,7,5,7,1,2026-06-29T02:34:54.725317+05:30
Ratlam,Madhya Pradesh,23.3315,75.0367,26.2,75,0.0,948.9,8.5,39.2,83,40.6,28.6,8.2,224.0,67.0,10.1,7,5,7,1,2026-06-29T02:34:54.725325+05:30
Sagar,Madhya Pradesh,23.8388,78.7378,26.9,86,0.0,943.7,8.1,37.8,75,34.1,25.7,7.1,206.0,70.0,3.7,7,5,7,1,2026-06-29T02:34:54.725334+05:30
Satna,Madhya Pradesh,24.6005,80.8322,30.6,62,0.0,964.2,8.75,39.2,80,36.1,27.8,16.3,182.0,45.0,3.7,3,5,7,1,2026-06-29T02:34:54.725342+05:30
Akola,Maharashtra,20.7002,77.0082,27.1,82,0.0,969.6,4.85,32.8,79,25.1,18.7,9.0,150.0,62.0,3.5,7,5,3,1,2026-06-29T02:34:54.725352+05:30
Amravati,Maharashtra,20.9374,77.7796,26.2,92,0.0,961.6,6.4,31.0,78,22.6,17.5,8.7,171.0,63.0,3.2,7,5,7,1,2026-06-29T02:34:54.725361+05:30
Latur,Maharashtra,18.4088,76.5604,23.7,91,0.0,934.9,6.9,32.8,62,18.5,14.7,6.4,176.0,76.0,1.5,3,5,7,1,2026-06-29T02:34:54.725370+05:30
Nanded,Maharashtra,19.1383,77.3091,24.8,96,0.0,963.5,6.15,28.4,66,16.6,13.3,7.6,171.0,68.0,2.5,3,5,7,1,2026-06-29T02:34:54.725378+05:30
Gulbarga,Karnataka,17.3297,76.8343,23.8,97,0.0,954.1,7.15,42.5,29,5.4,5.1,8.2,138.0,49.0,2.1,3,5,7,1,2026-06-29T02:34:54.725386+05:30
Bidar,Karnataka,17.9104,77.5199,23.3,96,0.0,930.5,6.65,32.4,51,12.5,11.1,10.8,157.0,55.0,1.5,3,5,7,1,2026-06-29T02:34:54.725394+05:30
Hospet,Karnataka,15.2689,76.3909,23.5,91,0.0,952.4,7.35,60.1,20,3.5,2.7,4.3,113.0,40.0,1.6,3,5,7,1,2026-06-29T02:34:54.725402+05:30
Tirupur,Tamil Nadu,11.1085,77.3411,23.3,91,0.0,973.3,8.85,59.0,40,11.5,10.9,14.8,123.0,24.0,3.5,3,5,7,1,2026-06-29T02:34:54.725410+05:30
Alappuzha,Kerala,9.4981,76.3388,25.2,95,0.1,1008.3,8.45,51.5,36,9.6,5.8,4.2,85.0,45.0,1.7,10,0,4,1,2026-06-29T02:34:54.725419+05:30
Munnar,Kerala,10.0889,77.0595,17.1,100,0.1,855.0,8.8,47.5,17,1.8,1.7,4.5,87.0,27.0,1.1,6,10,7,1,2026-06-29T02:34:54.725428+05:30
Silchar,Assam,24.8333,92.7789,25.8,95,0.0,1000.0,8.6,29.5,48,10.5,9.2,4.8,240.0,59.0,3.0,7,5,4,1,2026-06-29T02:34:54.725436+05:30
Dibrugarh,Assam,27.4728,94.912,24.6,98,0.0,989.8,6.7,27.0,53,10.3,9.5,6.9,186.0,66.0,1.3,3,5,7,1,2026-06-29T02:34:54.725444+05:30
