city,state,latitude,longitude,temp,humidity,rain,pressure,uv_index,wind_gusts,aqi,pm10,pm2_5,no2,co,o3,so2,mosquito_risk,arthritis_risk,migraine_risk,frizz_risk,updated_at
Delhi,Delhi,28.6139,77.209,34.2,57,0.0,974.7,7.5,32.0,198,325.0,84.3,7.3,464.0,206.0,25.2,0,5,7,1,2026-07-01T15:22:53.313552+05:30
Mumbai,Maharashtra,19.076,72.8777,26.6,91,0.3,1002.9,2.75,45.4,39,22.0,11.3,7.0,227.0,52.0,4.6,10,5,0,1,2026-07-01T15:22:53.313599+05:30
Bangalore,Karnataka,12.9716,77.5946,25.7,66,0.0,909.5,6.0,56.2,23,3.2,2.9,6.3,219.0,59.0,2.5,7,5,3,1,2026-07-01T15:22:53.313614+05:30
Hyderabad,Telangana,17.385,78.4867,28.1,67,0.0,947.4,5.8,44.3,23,7.2,5.6,7.0,224.0,48.0,3.3,7,5,3,1,2026-07-01T15:22:53.313623+05:30
Chennai,Tamil Nadu,13.0827,80.2707,32.3,60,0.0,1001.9,5.75,48.6,41,7.1,6.9,10.5,202.0,71.0,12.5,0,5,0,1,2026-07-01T15:22:53.313631+05:30
Kolkata,West Bengal,22.5726,88.3639,29.6,85,0.1,996.5,8.5,29.5,100,22.1,21.8,4.3,349.0,154.0,13.2,10,5,7,1,2026-07-01T15:22:53.313640+05:30
Pune,Maharashtra,18.5204,73.8567,24.4,90,0.1,942.5,3.55,46.1,21,3.5,2.8,5.0,147.0,51.0,4.0,6,5,3,1,2026-07-01T15:22:53.313647+05:30
Ahmedabad,Gujarat,23.0225,72.5714,34.4,54,0.1,992.8,6.85,42.8,53,25.7,13.1,1.7,130.0,93.0,3.7,3,5,7,1,2026-07-01T15:22:53.313654+05:30
Jaipur,Rajasthan,26.9124,75.7873,31.9,61,0.2,952.2,8.2,44.6,143,234.7,51.3,1.3,144.0,102.0,3.2,6,5,7,1,2026-07-01T15:22:53.313661+05:30
Lucknow,Uttar Pradesh,26.8467,80.9462,32.8,64,0.0,984.9,7.35,20.2,108,54.9,28.6,3.0,300.0,137.0,5.7,3,5,7,1,2026-07-01T15:22:53.313676+05:30
Kanpur,Uttar Pradesh,26.4499,80.3319,32.7,62,0.1,983.1,5.65,29.9,101,60.8,24.0,3.0,179.0,145.0,5.7,6,5,3,1,2026-07-01T15:22:53.313685+05:30
Chandigarh,Chandigarh,30.7333,76.7794,27.4,85,0.1,961.5,3.4,37.4,99,69.4,29.6,3.5,315.0,150.0,9.5,10,5,3,1,2026-07-01T15:22:53.313692+05:30
Srinagar,Jammu and Kashmir,34.0837,74.7973,29.5,50,0.0,838.2,9.1,31.7,99,31.9,23.4,1.5,293.0,158.0,2.8,4,5,7,1,2026-07-01T15:22:53.313699+05:30
Jammu,Jammu and Kashmir,32.7266,74.857,32.7,63,0.1,964.1,8.6,32.4,123,179.7,65.0,1.8,232.0,146.0,5.5,6,5,7,1,2026-07-01T15:22:53.313706+05:30
Amritsar,Punjab,31.634,74.8723,34.1,61,0.1,971.4,8.45,46.4,155,424.7,105.9,2.1,306.0,166.0,9.4,6,5,7,1,2026-07-01T15:22:53.313712+05:30
Ludhiana,Punjab,30.901,75.8573,33.7,61,0.1,970.3,7.6,43.2,178,691.0,121.5,3.2,339.0,161.0,10.6,6,5,7,1,2026-07-01T15:22:53.313718+05:30
Jalandhar,Punjab,31.326,75.5762,33.9,58,0.1,971.3,6.1,38.9,154,584.9,118.7,2.2,308.0,170.0,9.3,3,5,7,1,2026-07-01T15:22:53.313724+05:30
Dehradun,Uttarakhand,30.6284,78.0322,21.0,91,0.1,826.5,5.1,15.8,57,19.9,12.1,5.5,203.0,118.0,1.8,6,5,3,1,2026-07-01T15:22:53.313731+05:30
Shimla,Himachal Pradesh,31.1048,77.1734,17.4,99,0.3,780.9,5.9,22.3,76,26.4,17.1,3.6,192.0,127.0,2.9,6,10,3,1,2026-07-01T15:22:53.313738+05:30
Manali,Himachal Pradesh,32.2396,77.1887,23.6,80,0.0,816.7,6.35,41.0,65,32.2,26.1,27.7,186.0,125.0,1.1,3,5,7,1,2026-07-01T15:22:53.313746+05:30
Gurgaon,Haryana,28.4595,77.0266,35.6,49,0.0,973.1,7.55,33.5,754,573.7,100.6,5.0,187.0,165.0,12.6,0,5,10,1,2026-07-01T15:22:53.313773+05:30
Noida,Uttar Pradesh,28.5355,77.391,33.5,61,0.0,976.3,7.3,24.5,754,573.7,100.6,5.0,314.0,165.0,12.6,3,5,7,1,2026-07-01T15:22:53.313789+05:30
Ghaziabad,Uttar Pradesh,28.6692,77.4538,33.1,63,0.0,974.6,7.4,25.9,110,214.2,55.8,3.5,244.0,154.0,12.3,3,5,7,1,2026-07-01T15:22:53.313797+05:30
Faridabad,Haryana,28.4089,77.3178,34.3,55,0.0,975.5,7.55,29.9,754,573.7,100.6,5.0,281.0,165.0,12.6,0,5,7,1,2026-07-01T15:22:53.313803+05:30
Meerut,Uttar Pradesh,28.9845,77.7064,31.2,70,0.0,973.7,7.2,26.3,110,214.2,55.8,3.5,227.0,154.0,12.3,3,5,7,1,2026-07-01T15:22:53.313810+05:30
Agra,Uttar Pradesh,27.1767,78.0081,33.6,62,0.1,979.2,2.7,28.1,216,177.9,46.6,2.3,201.0,142.0,4.4,6,5,3,1,2026-07-01T15:22:53.313816+05:30
Varanasi,Uttar Pradesh,25.3176,82.9739,32.6,68,0.1,987.9,8.45,24.1,80,28.4,23.9,3.6,285.0,160.0,8.7,6,5,7,1,2026-07-01T15:22:53.313823+05:30
Prayagraj,Uttar Pradesh,25.4358,81.8463,35.4,54,0.0,986.3,7.95,18.0,93,45.3,23.3,2.6,214.0,150.0,5.5,0,5,10,1,2026-07-01T15:22:53.313830+05:30
Gorakhpur,Uttar Pradesh,26.7606,83.3732,34.2,62,0.0,988.0,8.0,26.3,120,38.5,33.1,3.1,277.0,157.0,8.2,3,5,7,1,2026-07-01T15:22:53.313836+05:30
Bareilly,Uttar Pradesh,28.367,79.4304,30.7,74,0.0,979.0,6.05,19.4,96,71.2,37.8,2.7,283.0,175.0,11.7,3,5,7,1,2026-07-01T15:22:53.313849+05:30
Aligarh,Uttar Pradesh,27.8974,78.088,33.5,59,0.0,977.3,6.5,29.2,155,185.8,54.5,2.5,203.0,149.0,9.6,0,5,7,1,2026-07-01T15:22:53.313856+05:30
Moradabad,Uttar Pradesh,28.8386,78.7733,31.7,67,0.0,976.0,7.3,24.5,85,51.3,29.2,4.9,236.0,153.0,13.6,3,5,7,1,2026-07-01T15:22:53.313863+05:30
Saharanpur,Uttar Pradesh,29.9637,77.546,28.6,82,0.0,968.3,6.5,28.8,74,71.2,32.2,3.7,270.0,143.0,8.8,7,5,7,1,2026-07-01T15:22:53.313870+05:30
Jhansi,Uttar Pradesh,25.4484,78.5685,35.5,43,0.0,969.5,5.85,29.5,73,122.0,33.6,1.7,155.0,114.0,5.1,0,5,6,1,2026-07-01T15:22:56.578901+05:30
Surat,Gujarat,21.1702,72.8311,29.0,80,0.0,999.3,5.35,35.6,63,21.3,16.5,18.0,301.0,48.0,45.3,7,5,3,1,2026-07-01T15:22:56.578932+05:30
Vadodara,Gujarat,22.3072,73.1812,28.7,84,0.4,996.4,6.2,37.1,55,31.0,17.8,2.5,143.0,90.0,3.5,10,5,7,1,2026-07-01T15:22:56.578943+05:30
Rajkot,Gujarat,22.3039,70.8022,30.4,73,0.2,986.0,5.25,46.1,53,31.5,15.7,1.3,101.0,92.0,4.2,6,5,3,1,2026-07-01T15:22:56.578951+05:30
Thane,Maharashtra,19.2183,72.9781,26.1,97,0.5,1002.1,2.1,32.8,39,22.0,11.3,7.0,234.0,52.0,4.6,10,5,0,1,2026-07-01T15:22:56.578959+05:30
Nagpur,Maharashtra,21.1458,79.0882,28.7,83,0.0,965.6,7.3,26.3,59,19.2,15.0,13.0,254.0,93.0,29.9,7,5,7,1,2026-07-01T15:22:56.578967+05:30
Nashik,Maharashtra,19.9975,73.7898,24.7,93,0.0,939.0,2.45,37.4,22,4.3,2.5,3.1,128.0,50.0,0.9,3,5,3,1,2026-07-01T15:22:56.578975+05:30
Aurangabad,Maharashtra,19.8762,75.3433,26.4,84,0.2,937.4,7.8,42.5,25,6.2,4.3,3.2,138.0,64.0,2.3,10,5,7,1,2026-07-01T15:22:56.578982+05:30
Solapur,Maharashtra,17.6599,75.9064,26.8,77,0.1,951.9,7.65,52.2,22,5.0,3.6,3.1,121.0,55.0,1.6,10,5,7,1,2026-07-01T15:22:56.578990+05:30
Kolhapur,Maharashtra,16.705,74.2433,23.5,96,0.3,943.7,7.2,43.9,23,6.7,4.9,4.1,138.0,52.0,1.7,6,5,7,1,2026-07-01T15:22:56.578998+05:30
Goa,Goa,15.2993,74.124,25.2,97,0.2,996.0,3.4,33.1,31,18.6,9.6,1.4,160.0,55.0,0.5,10,5,3,1,2026-07-01T15:22:56.579006+05:30
Jodhpur,Rajasthan,26.2389,73.0243,38.2,35,0.0,973.2,8.45,38.2,150,193.2,43.5,0.7,112.0,85.0,1.5,0,5,10,1,2026-07-01T15:22:56.579013+05:30
Udaipur,Rajasthan,24.5854,73.7125,33.4,51,0.0,938.6,8.55,32.4,56,31.8,15.9,0.7,111.0,85.0,2.2,0,5,7,1,2026-07-01T15:22:56.579021+05:30
Kota,Rajasthan,25.2138,75.8648,33.4,55,0.0,970.4,8.15,24.5,72,39.1,20.8,1.5,135.0,106.0,4.2,0,5,7,1,2026-07-01T15:22:56.579028+05:30
Bikaner,Rajasthan,28.0229,73.3119,40.8,28,0.0,971.3,8.45,37.4,161,124.8,43.9,0.4,109.0,85.0,1.9,0,5,10,1,2026-07-01T15:22:56.579036+05:30
Ajmer,Rajasthan,26.4499,74.6399,35.1,43,0.0,946.8,8.35,42.1,71,52.7,25.5,0.8,121.0,91.0,2.2,0,5,10,1,2026-07-01T15:22:56.579043+05:30
Gwalior,Madhya Pradesh,26.2183,78.1828,32.5,60,0.0,974.7,1.25,33.1,83,99.7,28.9,1.2,166.0,109.0,2.3,0,5,3,1,2026-07-01T15:22:56.579051+05:30
Indore,Madhya Pradesh,22.7196,75.8577,28.3,74,0.1,940.8,7.35,26.6,60,32.0,21.1,2.2,253.0,106.0,4.7,10,5,7,1,2026-07-01T15:22:56.579059+05:30
Bhopal,Madhya Pradesh,23.2599,77.4126,29.6,73,0.1,945.9,7.05,33.1,67,25.8,16.2,1.1,167.0,105.0,3.9,10,5,7,1,2026-07-01T15:22:56.579067+05:30
Jabalpur,Madhya Pradesh,23.1815,79.9864,27.6,89,0.1,953.1,6.9,28.8,63,34.6,21.2,2.5,203.0,106.0,2.3,10,5,7,1,2026-07-01T15:22:56.579074+05:30
Ujjain,Madhya Pradesh,23.1765,75.7885,29.5,69,0.1,946.4,7.55,27.4,60,32.1,19.8,1.9,209.0,96.0,3.9,10,5,7,1,2026-07-01T15:22:56.579082+05:30
Visakhapatnam,Andhra Pradesh,17.6868,83.2185,31.3,67,0.0,995.2,3.35,37.1,76,16.8,16.2,15.1,388.0,100.0,40.7,3,5,3,1,2026-07-01T15:22:56.579089+05:30
Vijayawada,Andhra Pradesh,16.5062,80.648,33.7,52,0.0,995.6,3.95,51.1,50,8.9,6.6,1.6,128.0,87.0,3.9,0,5,3,1,2026-07-01T15:22:56.579097+05:30
Guntur,Andhra Pradesh,16.3067,80.4365,31.9,62,0.0,997.0,3.35,49.0,40,9.6,6.3,1.4,126.0,84.0,3.7,3,5,3,1,2026-07-01T15:22:56.579104+05:30
Nellore,Andhra Pradesh,14.4426,79.9865,35.7,41,0.0,999.8,3.7,52.6,25,3.4,3.1,2.1,106.0,80.0,4.1,0,5,6,1,2026-07-01T15:22:56.579112+05:30
Kurnool,Andhra Pradesh,15.8281,78.0373,30.6,58,0.1,972.1,3.75,53.6,26,6.8,4.1,1.3,113.0,74.0,1.6,3,5,3,1,2026-07-01T15:22:56.579121+05:30
Kakinada,Andhra Pradesh,16.9891,82.2475,33.2,57,0.0,999.2,3.6,52.6,52,10.3,9.7,2.3,175.0,111.0,4.8,0,5,3,1,2026-07-01T15:22:56.579128+05:30
Tirupati,Andhra Pradesh,13.6288,79.4192,34.9,40,0.0,986.0,3.55,49.3,24,2.1,1.9,1.7,112.0,69.0,1.0,0,5,3,1,2026-07-01T15:22:56.579134+05:30
Warangal,Telangana,17.9689,79.5941,27.0,91,0.3,972.2,3.1,41.0,39,5.5,5.1,4.5,141.0,54.0,1.8,10,5,3,1,2026-07-01T15:22:56.579141+05:30
Nizamabad,Telangana,18.6725,78.0941,29.0,71,0.0,958.3,1.95,37.4,40,5.6,5.4,6.0,140.0,50.0,2.8,7,5,3,1,2026-07-01T15:22:56.579147+05:30
Mysore,Karnataka,12.2958,76.6396,25.4,71,0.1,926.9,4.3,56.5,21,3.0,2.8,6.0,112.0,53.0,1.6,10,5,3,1,2026-07-01T15:22:56.579154+05:30
Mangalore,Karnataka,12.9141,74.856,25.5,94,0.3,1006.5,1.0,40.3,27,13.6,7.7,3.0,140.0,47.0,1.1,10,5,0,1,2026-07-01T15:22:56.579161+05:30
Hubli-Dharwad,Karnataka,15.3647,75.124,23.2,93,0.2,937.5,3.7,49.7,21,2.5,1.6,3.5,119.0,51.0,0.8,6,5,3,1,2026-07-01T15:22:56.579168+05:30
Belgaum,Karnataka,15.8497,74.4977,23.1,89,0.1,922.2,3.4,49.0,21,4.5,2.8,3.0,120.0,48.0,1.2,6,5,3,1,2026-07-01T15:22:59.826181+05:30
Coimbatore,Tamil Nadu,11.0168,76.9558,28.2,63,0.0,959.9,3.15,55.4,21,2.2,2.1,3.8,152.0,52.0,2.1,7,5,3,1,2026-07-01T15:22:59.826212+05:30
Madurai,Tamil Nadu,9.9252,78.1198,36.6,33,0.1,989.3,8.05,57.2,44,9.9,5.8,3.1,120.0,67.0,2.0,3,5,10,1,2026-07-01T15:22:59.826223+05:30
Trichy,Tamil Nadu,10.7905,78.7047,35.9,35,0.0,995.7,5.15,64.4,26,5.3,3.3,1.5,111.0,70.0,1.3,0,5,6,1,2026-07-01T15:22:59.826232+05:30
Salem,Tamil Nadu,11.6643,78.146,32.5,50,0.0,974.3,4.2,29.9,43,5.2,4.6,3.7,126.0,75.0,5.3,0,5,3,1,2026-07-01T15:22:59.826241+05:30
Tirunelveli,Tamil Nadu,8.7139,77.7567,36.2,37,0.0,1000.1,8.65,43.6,33,11.3,6.6,1.6,110.0,70.0,1.3,0,5,7,1,2026-07-01T15:22:59.826248+05:30
Vellore,Tamil Nadu,12.9165,79.1325,33.0,47,0.0,980.0,3.3,55.1,24,3.3,3.2,2.2,131.0,85.0,2.0,0,5,3,1,2026-07-01T15:22:59.826256+05:30
Erode,Tamil Nadu,11.341,77.7172,32.6,47,0.1,985.8,1.75,45.7,36,4.8,3.9,3.2,146.0,66.0,2.0,3,5,3,1,2026-07-01T15:22:59.826263+05:30
Kochi,Kerala,9.9312,76.2673,27.4,81,0.0,1008.6,2.25,35.6,48,9.7,5.6,2.8,123.0,53.0,2.1,7,0,0,1,2026-07-01T15:22:59.826270+05:30
Thiruvananthapuram,Kerala,8.5241,76.9366,27.9,79,0.0,1007.4,8.3,44.3,46,17.7,9.5,1.1,98.0,62.0,0.9,7,5,4,1,2026-07-01T15:22:59.826278+05:30
Kozhikode,Kerala,11.2588,75.7804,26.1,90,0.1,1007.9,1.75,33.5,25,9.3,5.0,0.9,160.0,54.0,0.6,10,5,0,1,2026-07-01T15:22:59.826285+05:30
Thrissur,Kerala,10.5276,76.2144,26.1,90,0.1,1007.0,2.05,35.6,49,8.2,5.7,3.3,126.0,48.0,1.6,10,5,0,1,2026-07-01T15:22:59.826293+05:30
Kannur,Kerala,11.8745,75.3704,25.2,99,0.4,1007.5,2.4,32.8,29,11.1,6.4,3.2,112.0,44.0,0.7,10,5,0,1,2026-07-01T15:22:59.826301+05:30
Patna,Bihar,25.5941,85.1376,33.9,63,0.0,990.5,8.05,27.7,136,40.0,39.1,4.8,299.0,169.0,16.2,3,5,7,1,2026-07-01T15:22:59.826308+05:30
Gaya,Bihar,24.7914,85.0002,34.1,62,0.0,984.0,8.55,20.2,116,43.7,42.7,2.8,230.0,177.0,16.7,3,5,7,1,2026-07-01T15:22:59.826315+05:30
Muzaffarpur,Bihar,26.1209,85.3647,32.8,73,0.1,990.9,7.6,29.2,146,43.3,42.5,4.3,327.0,177.0,15.6,6,5,7,1,2026-07-01T15:22:59.826321+05:30
Bhagalpur,Bihar,25.2425,87.0117,30.9,78,0.1,992.2,8.15,24.1,128,31.0,30.4,4.9,315.0,181.0,16.5,6,5,7,1,2026-07-01T15:22:59.826328+05:30
Ranchi,Jharkhand,23.3441,85.3096,27.1,89,0.2,929.3,9.05,24.1,65,13.4,13.2,2.8,253.0,131.0,7.5,10,5,7,1,2026-07-01T15:22:59.826335+05:30
Jamshedpur,Jharkhand,22.8046,86.2029,31.5,65,0.0,980.9,5.75,20.5,99,25.8,25.5,3.1,273.0,172.0,19.4,3,5,3,1,2026-07-01T15:22:59.826341+05:30
Dhanbad,Jharkhand,23.7957,86.4304,31.4,71,0.0,970.4,6.2,26.6,161,49.2,48.8,22.4,268.0,150.0,63.0,3,5,7,1,2026-07-01T15:22:59.826348+05:30
Bokaro,Jharkhand,23.6693,86.1511,32.6,63,0.1,974.1,7.55,28.4,155,51.9,51.6,25.7,702.0,167.0,80.5,6,5,7,1,2026-07-01T15:22:59.826355+05:30
Bhubaneswar,Odisha,20.2961,85.8245,29.4,80,0.1,993.1,6.35,29.5,65,15.7,15.4,3.2,273.0,147.0,9.6,10,5,7,1,2026-07-01T15:22:59.826361+05:30
Cuttack,Odisha,20.4625,85.8828,30.0,76,0.0,994.9,4.95,25.6,65,15.7,15.4,3.2,233.0,147.0,9.6,7,5,3,1,2026-07-01T15:22:59.826368+05:30
Rourkela,Odisha,22.2604,84.8536,28.6,89,0.2,975.5,3.65,33.1,57,19.3,19.2,2.3,289.0,156.0,16.8,10,5,3,1,2026-07-01T15:22:59.826375+05:30
Raipur,Chhattisgarh,21.2514,81.6296,29.6,74,0.0,966.0,6.9,31.7,80,20.1,17.2,15.0,187.0,91.0,36.3,7,5,7,1,2026-07-01T15:22:59.826382+05:30
Bhilai,Chhattisgarh,21.1938,81.3509,28.8,78,0.3,966.5,2.2,32.4,74,16.1,13.5,13.5,183.0,90.0,31.3,10,5,3,1,2026-07-01T15:22:59.826389+05:30
Guwahati,Assam,26.1158,91.7086,27.7,95,0.1,993.5,8.6,22.0,50,7.1,7.0,1.8,243.0,96.0,1.3,10,5,7,1,2026-07-01T15:22:59.826395+05:30
Agartala,Tripura,23.8315,91.2868,30.0,76,0.0,997.7,8.45,33.1,67,11.0,10.7,3.3,171.0,110.0,1.4,7,5,7,1,2026-07-01T15:22:59.826402+05:30
Shillong,Meghalaya,25.5788,91.8933,23.9,77,0.0,853.0,7.4,23.0,36,4.6,4.4,2.4,176.0,83.0,1.5,3,5,7,1,2026-07-01T15:22:59.826409+05:30
Imphal,Manipur,24.817,93.9368,26.2,83,0.1,917.1,9.2,22.0,38,3.6,3.5,2.5,206.0,72.0,1.0,10,5,7,1,2026-07-01T15:22:59.826416+05:30
Aizawl,Mizoram,23.7271,92.7176,26.6,60,0.0,886.8,8.7,28.8,33,3.1,3.0,1.8,133.0,63.0,0.5,4,5,7,1,2026-07-01T15:22:59.826423+05:30
Kohima,Nagaland,25.6701,94.1077,23.0,97,0.1,850.8,4.55,22.0,31,5.6,5.5,2.6,159.0,71.0,0.6,6,5,3,1,2026-07-01T15:22:59.826429+05:30
Gangtok,Sikkim,27.3314,88.6138,21.6,82,0.0,834.3,6.9,26.6,61,8.1,7.4,2.1,262.0,130.0,1.3,3,5,7,1,2026-07-01T15:22:59.826436+05:30
Siliguri,West Bengal,26.7271,88.3953,30.5,74,0.1,984.7,8.65,26.6,104,33.4,30.2,2.3,373.0,143.0,2.5,6,5,7,1,2026-07-01T15:23:03.087285+05:30
Durgapur,West Bengal,23.5204,87.3119,31.7,69,0.1,985.6,8.35,22.0,145,40.5,40.0,18.2,310.0,153.0,53.7,6,5,7,1,2026-07-01T15:23:03.087316+05:30
Asansol,West Bengal,23.6739,86.9524,30.8,77,0.1,984.3,6.7,20.5,151,46.1,45.5,17.5,440.0,154.0,52.2,6,5,7,1,2026-07-01T15:23:03.087328+05:30
Pondicherry,Puducherry,11.9139,79.8145,34.7,46,0.0,1003.9,2.2,43.2,53,21.5,17.0,3.5,146.0,132.0,8.5,0,5,0,1,2026-07-01T15:23:03.087336+05:30
Port Blair,Andaman and Nicobar Islands,11.6234,92.7265,28.4,84,0.1,1003.2,4.85,50.4,32,11.5,7.2,0.3,97.0,70.0,0.6,10,5,0,1,2026-07-01T15:23:03.087345+05:30
Haridwar,Uttarakhand,29.9457,78.1642,29.5,77,0.0,966.8,4.6,24.5,65,49.9,25.3,4.4,217.0,121.0,7.3,7,5,3,1,2026-07-01T15:23:03.087352+05:30
Rishikesh,Uttarakhand,30.0869,78.2676,29.0,75,0.0,959.6,6.0,13.7,57,28.9,15.8,2.6,227.0,117.0,3.2,7,5,3,1,2026-07-01T15:23:03.087360+05:30
Nainital,Uttarakhand,29.3919,79.4542,19.4,94,0.2,802.0,5.75,20.9,63,39.9,19.7,1.1,205.0,133.0,1.9,6,10,3,1,2026-07-01T15:23:03.087367+05:30
Mussoorie,Uttarakhand,30.4599,78.0664,19.9,91,0.1,799.6,3.9,22.7,58,22.5,15.3,5.3,219.0,130.0,6.6,6,10,3,1,2026-07-01T15:23:03.087375+05:30
Dharamshala,Himachal Pradesh,32.219,76.3234,25.1,77,0.1,864.9,6.65,29.9,66,21.9,14.1,1.7,229.0,121.0,1.4,10,5,7,1,2026-07-01T15:23:03.087383+05:30
Dalhousie,Himachal Pradesh,32.5387,75.971,23.4,68,0.0,802.8,7.55,24.1,100,63.3,32.4,2.6,245.0,143.0,2.9,3,5,7,1,2026-07-01T15:23:03.087390+05:30
Patiala,Punjab,30.3398,76.3869,30.8,62,0.0,970.5,7.25,43.9,505,936.9,122.5,3.5,279.0,145.0,12.9,3,5,7,1,2026-07-01T15:23:03.087398+05:30
Bhatinda,Punjab,30.211,74.9455,34.7,56,0.1,974.3,8.25,39.6,905,1300.1,287.8,3.4,154.0,215.0,17.6,3,5,7,1,2026-07-01T15:23:03.087406+05:30
Rohtak,Haryana,28.8955,76.6066,34.7,53,0.0,973.4,7.7,31.7,1111,640.7,123.4,4.0,162.0,179.0,11.0,0,5,7,1,2026-07-01T15:23:03.087413+05:30
Panipat,Haryana,29.3909,76.9635,31.7,60,0.0,972.6,7.55,30.6,1475,356.7,83.8,9.0,265.0,150.0,20.3,0,5,7,1,2026-07-01T15:23:03.087420+05:30
Mathura,Uttar Pradesh,27.4924,77.6737,34.3,58,0.0,978.3,3.6,37.1,406,273.8,52.2,2.2,198.0,136.0,3.3,0,5,3,1,2026-07-01T15:23:03.087427+05:30
Vrindavan,Uttar Pradesh,27.5823,77.7027,34.4,54,0.0,978.7,4.4,35.6,406,273.8,52.2,2.2,200.0,136.0,3.3,0,5,3,1,2026-07-01T15:23:03.087434+05:30
Ayodhya,Uttar Pradesh,26.7922,82.1998,32.8,70,0.1,986.3,6.4,24.5,100,30.9,25.8,2.4,318.0,149.0,5.9,6,5,7,1,2026-07-01T15:23:03.087441+05:30
Ratlam,Madhya Pradesh,23.3315,75.0367,27.4,86,0.4,947.4,7.9,32.4,57,31.1,19.2,1.4,123.0,99.0,4.2,10,5,7,1,2026-07-01T15:23:03.087448+05:30
Sagar,Madhya Pradesh,23.8388,78.7378,29.1,75,0.1,942.4,7.6,37.4,74,64.3,28.3,1.3,146.0,111.0,2.7,10,5,7,1,2026-07-01T15:23:03.087455+05:30
Satna,Madhya Pradesh,24.6005,80.8322,33.3,60,0.0,962.5,8.2,29.9,70,56.5,25.1,1.9,157.0,114.0,2.6,0,5,7,1,2026-07-01T15:23:03.087461+05:30
Akola,Maharashtra,20.7002,77.0082,33.0,57,0.1,967.3,1.0,31.3,51,18.7,12.5,2.1,133.0,102.0,6.5,3,5,3,1,2026-07-01T15:23:03.087468+05:30
Amravati,Maharashtra,20.9374,77.7796,30.1,68,0.0,959.9,4.7,31.3,51,21.7,14.0,2.8,135.0,101.0,7.5,3,5,3,1,2026-07-01T15:23:03.087476+05:30
Latur,Maharashtra,18.4088,76.5604,29.7,57,0.0,933.7,5.3,44.6,20,3.6,3.4,4.0,132.0,52.0,1.0,4,5,3,1,2026-07-01T15:23:03.087484+05:30
Nanded,Maharashtra,19.1383,77.3091,30.6,67,0.0,961.9,1.95,33.5,37,4.7,4.5,5.5,126.0,53.0,2.3,3,5,3,1,2026-07-01T15:23:03.087491+05:30
Gulbarga,Karnataka,17.3297,76.8343,27.2,76,0.1,953.4,5.1,48.6,20,6.4,4.7,4.8,115.0,59.0,3.2,10,5,3,1,2026-07-01T15:23:03.087498+05:30
Bidar,Karnataka,17.9104,77.5199,29.1,59,0.0,929.8,6.55,49.7,21,5.0,4.2,6.6,136.0,49.0,1.5,4,5,7,1,2026-07-01T15:23:03.087505+05:30
Hospet,Karnataka,15.2689,76.3909,25.0,87,0.2,952.3,4.3,51.5,23,5.0,2.9,2.4,113.0,56.0,1.4,10,5,3,1,2026-07-01T15:23:03.087512+05:30
Tirupur,Tamil Nadu,11.1085,77.3411,31.3,53,0.0,972.6,2.4,60.5,42,4.5,4.0,4.0,136.0,64.0,2.8,0,5,3,1,2026-07-01T15:23:03.087519+05:30
Alappuzha,Kerala,9.4981,76.3388,27.7,80,0.1,1008.5,2.4,38.9,43,15.0,8.1,2.3,91.0,61.0,1.7,10,0,0,1,2026-07-01T15:23:03.087526+05:30
Munnar,Kerala,10.0889,77.0595,17.8,91,0.1,855.9,2.45,46.4,22,5.2,3.6,2.2,101.0,56.0,1.1,6,10,3,1,2026-07-01T15:23:03.087533+05:30
Silchar,Assam,24.8333,92.7789,29.2,84,0.4,997.0,8.7,27.0,60,10.9,10.7,2.0,177.0,114.0,3.6,10,5,7,1,2026-07-01T15:23:03.087540+05:30
Dibrugarh,Assam,27.4728,94.912,33.3,66,0.0,986.1,7.85,23.8,76,11.9,11.5,1.3,158.0,104.0,1.0,3,5,7,1,2026-07-01T15:23:03.087547+05:30
