city,state,latitude,longitude,temp,humidity,rain,pressure,uv_index,wind_gusts,aqi,pm10,pm2_5,mosquito_risk,arthritis_risk,migraine_risk,frizz_risk,updated_at
Delhi,Delhi,28.6139,77.209,28.5,53,0.0,981.0,5.8,31.7,183,382.8,76.8,4,5,3,1,2026-03-29T20:06:32.493244+05:30
Mumbai,Maharashtra,19.076,72.8777,27.8,84,0.0,1007.3,8.0,20.5,58,25.7,11.7,7,5,4,1,2026-03-29T20:06:32.493285+05:30
Bangalore,Karnataka,12.9716,77.5946,25.8,64,0.0,911.1,9.55,33.5,142,53.9,48.4,7,5,7,1,2026-03-29T20:06:32.493300+05:30
Hyderabad,Telangana,17.385,78.4867,30.4,50,0.0,951.4,9.05,27.0,148,29.9,28.3,0,5,7,1,2026-03-29T20:06:32.493310+05:30
Chennai,Tamil Nadu,13.0827,80.2707,28.4,78,0.0,1006.2,9.25,37.4,63,17.6,12.6,7,5,4,1,2026-03-29T20:06:32.493318+05:30
Kolkata,West Bengal,22.5726,88.3639,26.3,87,0.0,1006.3,8.45,26.6,119,55.2,49.1,7,5,4,1,2026-03-29T20:06:32.493327+05:30
Pune,Maharashtra,18.5204,73.8567,27.8,72,0.0,947.4,8.55,40.3,83,27.9,21.2,7,5,7,1,2026-03-29T20:06:32.493339+05:30
Ahmedabad,Gujarat,23.0225,72.5714,30.8,55,0.0,1000.9,7.7,31.0,42,38.4,15.1,0,5,4,1,2026-03-29T20:06:32.493347+05:30
Jaipur,Rajasthan,26.9124,75.7873,30.9,23,0.0,958.0,7.45,36.7,85,205.8,30.6,0,5,7,0,2026-03-29T20:06:32.493355+05:30
Lucknow,Uttar Pradesh,26.8467,80.9462,29.0,50,0.0,992.1,7.2,16.6,110,67.3,29.1,4,5,7,1,2026-03-29T20:06:32.493363+05:30
Kanpur,Uttar Pradesh,26.4499,80.3319,29.8,49,0.0,990.2,7.25,17.3,109,142.0,33.1,4,5,7,1,2026-03-29T20:06:32.493370+05:30
Chandigarh,Chandigarh,30.7333,76.7794,24.0,79,0.0,967.4,6.5,28.1,94,129.0,34.8,3,5,7,1,2026-03-29T20:06:32.493378+05:30
Srinagar,Jammu and Kashmir,34.0837,74.7973,13.1,76,0.0,840.1,6.55,22.3,82,21.5,18.9,3,5,7,0,2026-03-29T20:06:32.493385+05:30
Jammu,Jammu and Kashmir,32.7266,74.857,24.1,69,0.0,971.9,5.4,28.1,89,76.1,34.3,3,5,3,1,2026-03-29T20:06:32.493392+05:30
Amritsar,Punjab,31.634,74.8723,23.3,74,0.0,979.6,7.3,37.1,91,76.4,32.0,3,5,7,1,2026-03-29T20:06:32.493399+05:30
Ludhiana,Punjab,30.901,75.8573,24.7,72,0.0,977.4,6.95,36.4,107,88.2,37.1,3,5,7,1,2026-03-29T20:06:32.493405+05:30
Jalandhar,Punjab,31.326,75.5762,24.9,69,0.0,978.6,7.1,33.1,100,65.4,28.1,3,5,7,1,2026-03-29T20:06:32.493413+05:30
Dehradun,Uttarakhand,30.6284,78.0322,16.1,73,0.0,829.2,6.35,19.4,72,50.8,14.6,3,5,7,0,2026-03-29T20:06:32.493419+05:30
Shimla,Himachal Pradesh,31.1048,77.1734,14.3,72,0.0,783.4,4.3,26.6,81,53.6,16.4,3,5,3,0,2026-03-29T20:06:32.493426+05:30
Manali,Himachal Pradesh,32.2396,77.1887,15.7,66,0.0,819.0,5.1,29.2,70,4.2,3.3,3,5,3,0,2026-03-29T20:06:32.493433+05:30
Gurgaon,Haryana,28.4595,77.0266,27.6,55,0.0,979.0,6.45,27.0,564,444.2,77.3,4,5,7,1,2026-03-29T20:06:32.493440+05:30
Noida,Uttar Pradesh,28.5355,77.391,28.0,55,0.0,982.5,5.9,27.4,564,444.2,77.3,4,5,3,1,2026-03-29T20:06:32.493446+05:30
Ghaziabad,Uttar Pradesh,28.6692,77.4538,27.1,59,0.0,980.9,5.9,25.6,156,327.8,74.5,4,5,3,1,2026-03-29T20:06:32.493453+05:30
Faridabad,Haryana,28.4089,77.3178,28.0,52,0.0,981.5,6.25,28.8,564,444.2,77.3,4,5,7,1,2026-03-29T20:06:32.493459+05:30
Meerut,Uttar Pradesh,28.9845,77.7064,25.3,63,0.0,979.9,6.15,24.1,156,327.8,74.5,7,5,7,1,2026-03-29T20:06:32.493465+05:30
Agra,Uttar Pradesh,27.1767,78.0081,30.2,45,0.0,985.4,7.1,33.1,300,203.0,53.8,0,5,7,1,2026-03-29T20:06:32.493471+05:30
Varanasi,Uttar Pradesh,25.3176,82.9739,27.4,50,0.0,996.0,7.9,18.4,108,60.8,37.8,4,5,7,1,2026-03-29T20:06:32.493480+05:30
Prayagraj,Uttar Pradesh,25.4358,81.8463,29.1,52,0.0,994.4,7.8,20.9,112,63.8,35.3,4,5,7,1,2026-03-29T20:06:32.493488+05:30
Gorakhpur,Uttar Pradesh,26.7606,83.3732,26.5,55,0.0,996.1,7.55,26.3,134,83.4,45.5,4,5,7,1,2026-03-29T20:06:32.493495+05:30
Bareilly,Uttar Pradesh,28.367,79.4304,26.6,60,0.0,985.5,6.95,15.8,119,66.8,33.2,4,5,7,1,2026-03-29T20:06:32.493502+05:30
Aligarh,Uttar Pradesh,27.8974,78.088,26.9,59,0.0,983.1,6.9,26.3,180,273.8,64.0,4,5,7,1,2026-03-29T20:06:32.493515+05:30
Moradabad,Uttar Pradesh,28.8386,78.7733,25.9,61,0.0,982.4,6.8,14.8,150,117.1,68.7,7,5,7,1,2026-03-29T20:06:32.493521+05:30
Saharanpur,Uttar Pradesh,29.9637,77.546,24.7,65,0.0,974.5,6.0,19.4,106,52.9,24.6,3,5,3,1,2026-03-29T20:06:32.493528+05:30
Jhansi,Uttar Pradesh,25.4484,78.5685,28.8,50,0.0,975.9,7.75,23.8,79,29.0,14.4,4,5,7,1,2026-03-29T20:06:35.846241+05:30
Surat,Gujarat,21.1702,72.8311,27.1,85,0.0,1005.9,7.75,26.3,73,28.9,20.5,7,5,4,1,2026-03-29T20:06:35.846275+05:30
Vadodara,Gujarat,22.3072,73.1812,30.8,60,0.0,1003.1,7.8,27.0,59,59.8,27.0,0,5,4,1,2026-03-29T20:06:35.846288+05:30
Rajkot,Gujarat,22.3039,70.8022,27.5,76,0.0,993.8,7.7,30.6,50,48.0,19.5,7,5,7,1,2026-03-29T20:06:35.846298+05:30
Thane,Maharashtra,19.2183,72.9781,27.2,84,0.0,1006.8,8.0,34.6,58,25.7,11.7,7,5,4,1,2026-03-29T20:06:35.846307+05:30
Nagpur,Maharashtra,21.1458,79.0882,30.9,40,0.0,970.6,8.55,27.0,76,42.6,21.8,0,5,7,0,2026-03-29T20:06:35.846315+05:30
Nashik,Maharashtra,19.9975,73.7898,26.8,59,0.0,944.8,8.25,31.7,49,14.5,7.2,4,5,7,1,2026-03-29T20:06:35.846322+05:30
Aurangabad,Maharashtra,19.8762,75.3433,30.5,38,0.0,942.7,8.75,32.0,44,17.2,9.5,0,5,7,0,2026-03-29T20:06:35.846330+05:30
Solapur,Maharashtra,17.6599,75.9064,32.0,24,0.0,954.7,8.85,23.0,95,26.8,19.0,0,5,7,0,2026-03-29T20:06:35.846337+05:30
Kolhapur,Maharashtra,16.705,74.2433,25.8,65,0.0,946.5,9.0,37.4,70,27.1,21.2,7,5,7,1,2026-03-29T20:06:35.846344+05:30
Goa,Goa,15.2993,74.124,28.3,71,0.0,996.2,8.95,37.1,80,21.7,10.9,7,5,7,1,2026-03-29T20:06:35.846352+05:30
Jodhpur,Rajasthan,26.2389,73.0243,31.0,31,0.0,980.6,7.35,46.1,122,218.4,30.3,0,5,7,0,2026-03-29T20:06:35.846359+05:30
Udaipur,Rajasthan,24.5854,73.7125,28.0,40,0.0,945.8,7.95,35.3,47,28.6,10.4,4,5,7,0,2026-03-29T20:06:35.846366+05:30
Kota,Rajasthan,25.2138,75.8648,32.3,24,0.0,976.2,7.5,34.9,51,23.8,12.9,0,5,7,0,2026-03-29T20:06:35.846372+05:30
Bikaner,Rajasthan,28.0229,73.3119,31.0,29,0.0,978.9,7.5,34.6,101,85.2,24.4,0,5,7,0,2026-03-29T20:06:35.846379+05:30
Ajmer,Rajasthan,26.4499,74.6399,28.7,30,0.0,953.1,7.7,45.0,46,34.0,8.9,4,5,7,0,2026-03-29T20:06:35.846386+05:30
Gwalior,Madhya Pradesh,26.2183,78.1828,29.4,47,0.0,981.1,7.45,25.2,80,35.2,16.9,4,5,7,1,2026-03-29T20:06:35.846392+05:30
Indore,Madhya Pradesh,22.7196,75.8577,28.4,43,0.0,947.0,8.25,33.5,47,22.9,12.1,4,5,7,0,2026-03-29T20:06:35.846399+05:30
Bhopal,Madhya Pradesh,23.2599,77.4126,29.2,42,0.0,952.2,8.2,35.6,45,24.4,12.5,4,5,7,0,2026-03-29T20:06:35.846405+05:30
Jabalpur,Madhya Pradesh,23.1815,79.9864,28.5,52,0.0,959.4,8.25,32.4,58,28.8,15.5,4,5,7,1,2026-03-29T20:06:35.846412+05:30
Ujjain,Madhya Pradesh,23.1765,75.7885,28.3,46,0.0,952.8,8.2,34.9,43,27.1,13.8,4,5,7,0,2026-03-29T20:06:35.846419+05:30
Visakhapatnam,Andhra Pradesh,17.6868,83.2185,27.7,83,0.0,1002.3,9.0,38.2,68,23.2,16.5,7,5,4,1,2026-03-29T20:06:35.846425+05:30
Vijayawada,Andhra Pradesh,16.5062,80.648,30.4,63,0.0,1000.7,9.05,29.9,142,42.1,37.4,3,5,4,1,2026-03-29T20:06:35.846432+05:30
Guntur,Andhra Pradesh,16.3067,80.4365,28.7,77,0.0,1002.2,9.05,31.3,151,51.9,46.0,7,5,4,1,2026-03-29T20:06:35.846439+05:30
Nellore,Andhra Pradesh,14.4426,79.9865,28.4,81,0.0,1004.2,8.65,31.7,125,21.0,16.6,7,5,4,1,2026-03-29T20:06:35.846447+05:30
Kurnool,Andhra Pradesh,15.8281,78.0373,34.0,32,0.0,974.0,9.1,29.2,163,34.7,31.8,0,5,7,0,2026-03-29T20:06:35.846454+05:30
Kakinada,Andhra Pradesh,16.9891,82.2475,27.9,79,0.0,1005.9,9.0,30.2,56,19.7,12.8,7,5,4,1,2026-03-29T20:06:35.846460+05:30
Tirupati,Andhra Pradesh,13.6288,79.4192,30.2,67,0.0,990.7,9.1,33.8,132,44.9,39.8,3,5,7,1,2026-03-29T20:06:35.846467+05:30
Warangal,Telangana,17.9689,79.5941,32.0,51,0.0,976.4,8.9,28.4,149,39.6,38.8,0,5,7,1,2026-03-29T20:06:35.846473+05:30
Nizamabad,Telangana,18.6725,78.0941,31.3,41,0.0,962.4,8.8,28.8,89,31.0,27.2,0,5,7,1,2026-03-29T20:06:35.846479+05:30
Mysore,Karnataka,12.2958,76.6396,25.9,67,0.0,927.4,9.45,31.7,147,61.2,53.2,7,5,7,1,2026-03-29T20:06:35.846485+05:30
Mangalore,Karnataka,12.9141,74.856,29.6,78,0.0,1004.8,9.1,31.3,123,13.4,9.4,7,5,4,1,2026-03-29T20:06:35.846492+05:30
Hubli-Dharwad,Karnataka,15.3647,75.124,28.9,52,0.0,939.2,9.15,33.8,113,27.0,23.3,4,5,7,1,2026-03-29T20:06:35.846498+05:30
Belgaum,Karnataka,15.8497,74.4977,25.6,65,0.0,924.4,9.2,37.8,85,21.1,14.5,7,5,7,1,2026-03-29T20:06:39.195817+05:30
Coimbatore,Tamil Nadu,11.0168,76.9558,26.9,75,0.0,960.5,9.25,46.1,140,47.0,41.7,7,5,7,1,2026-03-29T20:06:39.195848+05:30
Madurai,Tamil Nadu,9.9252,78.1198,30.4,59,0.0,991.9,9.25,29.2,107,18.0,16.6,0,5,7,1,2026-03-29T20:06:39.195859+05:30
Trichy,Tamil Nadu,10.7905,78.7047,29.7,63,0.0,998.4,8.8,29.2,92,21.2,19.9,7,5,7,1,2026-03-29T20:06:39.195869+05:30
Salem,Tamil Nadu,11.6643,78.146,32.3,43,0.0,975.6,9.4,30.2,163,27.8,24.6,0,5,7,1,2026-03-29T20:06:39.195876+05:30
Tirunelveli,Tamil Nadu,8.7139,77.7567,30.0,58,0.0,1001.9,9.35,51.8,119,26.0,24.6,4,5,4,1,2026-03-29T20:06:39.195884+05:30
Vellore,Tamil Nadu,12.9165,79.1325,29.7,63,0.0,983.4,9.35,33.8,149,31.7,29.9,7,5,7,1,2026-03-29T20:06:39.195891+05:30
Erode,Tamil Nadu,11.341,77.7172,32.9,46,0.0,986.8,9.35,31.0,160,28.5,25.1,0,5,7,1,2026-03-29T20:06:39.195898+05:30
Kochi,Kerala,9.9312,76.2673,30.2,75,0.0,1006.9,9.15,29.2,129,33.6,29.5,3,5,4,1,2026-03-29T20:06:39.195905+05:30
Thiruvananthapuram,Kerala,8.5241,76.9366,29.2,78,0.0,1006.9,9.2,32.4,105,27.2,20.4,7,5,4,1,2026-03-29T20:06:39.195912+05:30
Kozhikode,Kerala,11.2588,75.7804,29.6,81,0.0,1006.0,9.1,32.4,130,35.2,29.6,7,5,4,1,2026-03-29T20:06:39.195941+05:30
Thrissur,Kerala,10.5276,76.2144,29.4,78,0.0,1005.4,9.15,34.9,118,32.6,28.9,7,5,4,1,2026-03-29T20:06:39.195950+05:30
Kannur,Kerala,11.8745,75.3704,30.0,76,0.0,1005.4,9.15,34.9,149,32.8,27.9,7,5,4,1,2026-03-29T20:06:39.195957+05:30
Patna,Bihar,25.5941,85.1376,26.9,65,0.0,999.7,8.05,23.8,145,78.9,57.3,7,5,7,1,2026-03-29T20:06:39.195965+05:30
Gaya,Bihar,24.7914,85.0002,25.8,74,0.0,993.0,8.15,19.1,109,61.9,36.0,7,5,7,1,2026-03-29T20:06:39.195971+05:30
Muzaffarpur,Bihar,26.1209,85.3647,24.9,70,0.0,1000.3,8.05,28.1,148,87.5,66.1,3,5,4,1,2026-03-29T20:06:39.195978+05:30
Bhagalpur,Bihar,25.2425,87.0117,23.9,86,0.0,1001.4,8.1,19.8,156,67.5,57.6,3,5,4,1,2026-03-29T20:06:39.195984+05:30
Ranchi,Jharkhand,23.3441,85.3096,26.7,59,0.0,937.1,8.75,31.7,109,31.7,19.4,4,5,7,1,2026-03-29T20:06:39.195992+05:30
Jamshedpur,Jharkhand,22.8046,86.2029,28.0,71,0.0,989.7,8.55,32.4,163,69.4,50.5,7,5,7,1,2026-03-29T20:06:39.195998+05:30
Dhanbad,Jharkhand,23.7957,86.4304,27.2,67,0.0,979.4,8.5,24.5,155,94.3,75.4,7,5,7,1,2026-03-29T20:06:39.196004+05:30
Bokaro,Jharkhand,23.6693,86.1511,26.8,70,0.0,983.5,8.5,29.2,155,70.5,54.0,7,5,7,1,2026-03-29T20:06:39.196011+05:30
Bhubaneswar,Odisha,20.2961,85.8245,27.5,82,0.0,1001.6,8.8,31.3,84,24.5,21.0,7,5,4,1,2026-03-29T20:06:39.196018+05:30
Cuttack,Odisha,20.4625,85.8828,29.3,75,0.0,1003.0,8.8,24.1,84,24.5,21.0,7,5,4,1,2026-03-29T20:06:39.196025+05:30
Rourkela,Odisha,22.2604,84.8536,30.6,54,0.0,982.4,8.5,30.6,161,56.6,44.7,0,5,7,1,2026-03-29T20:06:39.196032+05:30
Raipur,Chhattisgarh,21.2514,81.6296,32.7,24,0.0,971.7,8.6,26.6,119,49.0,45.3,0,5,7,0,2026-03-29T20:06:39.196038+05:30
Bhilai,Chhattisgarh,21.1938,81.3509,31.2,30,0.0,972.0,8.6,29.9,89,33.8,31.3,0,5,7,0,2026-03-29T20:06:39.196045+05:30
Guwahati,Assam,26.1158,91.7086,23.7,77,0.0,1002.9,7.1,14.4,107,68.2,55.8,3,5,4,1,2026-03-29T20:06:39.196051+05:30
Agartala,Tripura,23.8315,91.2868,22.8,90,0.0,1007.4,8.2,34.2,143,62.4,56.1,3,5,4,1,2026-03-29T20:06:39.196058+05:30
Shillong,Meghalaya,25.5788,91.8933,12.1,96,0.0,855.0,5.45,43.9,105,48.5,39.8,3,10,3,0,2026-03-29T20:06:39.196065+05:30
Imphal,Manipur,24.817,93.9368,16.6,90,0.0,923.8,7.85,68.4,125,78.5,62.2,3,10,7,0,2026-03-29T20:06:39.196073+05:30
Aizawl,Mizoram,23.7271,92.7176,17.2,92,0.0,892.9,7.7,52.9,150,87.3,73.8,3,10,7,0,2026-03-29T20:06:39.196080+05:30
Kohima,Nagaland,25.6701,94.1077,13.5,87,0.0,854.1,7.05,86.4,102,76.8,50.9,3,10,7,0,2026-03-29T20:06:39.196087+05:30
Gangtok,Sikkim,27.3314,88.6138,13.8,88,0.0,835.9,8.3,18.7,84,49.1,39.6,3,10,7,0,2026-03-29T20:06:39.196094+05:30
Siliguri,West Bengal,26.7271,88.3953,18.8,86,0.0,994.6,6.55,12.6,122,92.2,68.7,3,10,7,1,2026-03-29T20:06:42.554226+05:30
Durgapur,West Bengal,23.5204,87.3119,26.6,79,0.0,994.8,8.4,22.3,168,89.9,79.6,7,5,7,1,2026-03-29T20:06:42.554256+05:30
Asansol,West Bengal,23.6739,86.9524,26.7,77,0.0,993.2,8.45,21.6,156,92.4,76.4,7,5,7,1,2026-03-29T20:06:42.554265+05:30
Pondicherry,Puducherry,11.9139,79.8145,27.3,87,0.0,1007.4,8.95,32.8,53,15.7,10.9,7,5,4,1,2026-03-29T20:06:42.554273+05:30
Port Blair,Andaman and Nicobar Islands,11.6234,92.7265,28.7,74,0.0,1007.3,9.0,18.4,69,29.2,23.2,7,5,4,1,2026-03-29T20:06:42.554281+05:30
Haridwar,Uttarakhand,29.9457,78.1642,24.9,64,0.0,973.2,5.5,34.6,88,45.6,24.3,3,5,3,1,2026-03-29T20:06:42.554289+05:30
Rishikesh,Uttarakhand,30.0869,78.2676,24.3,73,0.0,966.1,5.75,24.8,73,48.8,17.1,3,5,3,1,2026-03-29T20:06:42.554295+05:30
Nainital,Uttarakhand,29.3919,79.4542,19.1,63,0.0,805.6,7.3,62.6,115,53.0,29.3,3,5,7,0,2026-03-29T20:06:42.554303+05:30
Mussoorie,Uttarakhand,30.4599,78.0664,17.0,77,0.0,801.9,4.9,28.1,89,63.6,27.1,3,5,3,0,2026-03-29T20:06:42.554310+05:30
Dharamshala,Himachal Pradesh,32.219,76.3234,19.7,70,0.0,867.6,5.15,26.6,51,31.4,10.8,3,5,3,0,2026-03-29T20:06:42.554317+05:30
Dalhousie,Himachal Pradesh,32.5387,75.971,16.5,70,0.0,802.1,3.45,29.5,84,89.2,26.8,3,5,3,0,2026-03-29T20:06:42.554325+05:30
Patiala,Punjab,30.3398,76.3869,24.0,72,0.0,976.7,6.4,32.8,183,471.2,61.2,3,5,7,1,2026-03-29T20:06:42.554331+05:30
Bhatinda,Punjab,30.211,74.9455,26.2,65,0.0,981.5,7.3,41.4,131,502.9,94.3,7,5,7,1,2026-03-29T20:06:42.554338+05:30
Rohtak,Haryana,28.8955,76.6066,26.7,60,0.0,979.2,6.55,35.3,210,326.9,77.1,4,5,7,1,2026-03-29T20:06:42.554346+05:30
Panipat,Haryana,29.3909,76.9635,24.6,67,0.0,978.7,5.8,30.6,413,314.8,75.0,3,5,3,1,2026-03-29T20:06:42.554353+05:30
Mathura,Uttar Pradesh,27.4924,77.6737,28.2,51,0.0,984.3,6.95,26.6,236,149.5,44.8,4,5,7,1,2026-03-29T20:06:42.554360+05:30
Vrindavan,Uttar Pradesh,27.5823,77.7027,28.0,53,0.0,984.8,6.9,29.2,236,149.5,44.8,4,5,7,1,2026-03-29T20:06:42.554367+05:30
Ayodhya,Uttar Pradesh,26.7922,82.1998,26.7,51,0.0,994.1,7.1,20.9,140,82.9,39.0,4,5,7,0,2026-03-29T20:06:42.554374+05:30
Ratlam,Madhya Pradesh,23.3315,75.0367,27.9,55,0.0,953.6,8.15,36.0,42,32.1,14.7,4,5,7,1,2026-03-29T20:06:42.554380+05:30
Sagar,Madhya Pradesh,23.8388,78.7378,29.7,41,0.0,948.8,8.15,34.6,48,14.6,7.1,4,5,7,0,2026-03-29T20:06:42.554387+05:30
Satna,Madhya Pradesh,24.6005,80.8322,29.0,48,0.0,969.8,8.15,46.8,91,28.3,13.3,4,5,7,1,2026-03-29T20:06:42.554394+05:30
Akola,Maharashtra,20.7002,77.0082,31.4,49,0.0,973.1,8.5,30.2,51,35.6,15.6,0,5,7,1,2026-03-29T20:06:42.554401+05:30
Amravati,Maharashtra,20.9374,77.7796,30.6,44,0.0,965.1,8.5,31.3,56,43.3,18.2,0,5,7,1,2026-03-29T20:06:42.554408+05:30
Latur,Maharashtra,18.4088,76.5604,29.8,35,0.0,937.8,8.85,28.4,69,22.5,15.3,4,5,7,0,2026-03-29T20:06:42.554415+05:30
Nanded,Maharashtra,19.1383,77.3091,32.1,30,0.0,965.9,8.7,20.5,76,23.4,16.5,0,5,7,0,2026-03-29T20:06:42.554421+05:30
Gulbarga,Karnataka,17.3297,76.8343,33.1,25,0.0,956.2,8.9,32.0,123,26.3,21.5,0,5,7,0,2026-03-29T20:06:42.554427+05:30
Bidar,Karnataka,17.9104,77.5199,31.6,30,0.0,933.6,8.9,30.2,94,23.5,21.1,0,5,7,0,2026-03-29T20:06:42.554433+05:30
Hospet,Karnataka,15.2689,76.3909,33.0,34,0.0,953.9,9.1,17.6,120,22.0,19.4,0,5,7,0,2026-03-29T20:06:42.554439+05:30
Tirupur,Tamil Nadu,11.1085,77.3411,30.3,63,0.0,973.6,9.25,40.0,170,50.4,43.5,3,5,7,1,2026-03-29T20:06:42.554446+05:30
Alappuzha,Kerala,9.4981,76.3388,29.6,78,0.0,1007.2,9.1,28.4,117,35.2,29.3,7,5,4,1,2026-03-29T20:06:42.554453+05:30
Munnar,Kerala,10.0889,77.0595,22.6,83,0.0,856.1,8.8,34.6,106,34.6,32.2,3,5,7,1,2026-03-29T20:06:42.554459+05:30
Silchar,Assam,24.8333,92.7789,23.1,81,0.0,1006.5,8.2,34.9,148,99.9,77.3,3,5,4,1,2026-03-29T20:06:42.554466+05:30
Dibrugarh,Assam,27.4728,94.912,22.0,83,0.0,998.2,7.35,16.9,74,38.3,33.8,3,5,7,1,2026-03-29T20:06:42.554472+05:30
