city,state,latitude,longitude,temp,humidity,rain,pressure,uv_index,wind_gusts,aqi,pm10,pm2_5,no2,co,o3,so2,mosquito_risk,arthritis_risk,migraine_risk,frizz_risk,updated_at
Delhi,Delhi,28.6139,77.209,37.0,20,0.0,980.8,7.7,40.7,528,525.3,155.1,25.1,747.0,94.0,20.1,0,5,10,0,2026-05-26T09:21:48.943659+05:30
Mumbai,Maharashtra,19.076,72.8777,31.5,68,0.1,1010.1,7.85,38.2,47,14.0,10.2,8.2,320.0,51.0,8.7,6,0,4,1,2026-05-26T09:21:48.943694+05:30
Bangalore,Karnataka,12.9716,77.5946,26.6,69,0.0,914.7,9.2,31.3,84,28.1,24.0,14.5,532.0,75.0,7.4,7,5,7,1,2026-05-26T09:21:48.943709+05:30
Hyderabad,Telangana,17.385,78.4867,32.8,45,0.0,954.6,9.1,32.8,80,24.2,20.2,11.7,416.0,75.0,8.9,0,5,7,1,2026-05-26T09:21:48.943719+05:30
Chennai,Tamil Nadu,13.0827,80.2707,35.7,47,0.0,1006.9,8.9,32.8,83,30.9,26.7,17.5,496.0,71.0,15.8,0,5,7,1,2026-05-26T09:21:48.943727+05:30
Kolkata,West Bengal,22.5726,88.3639,34.3,62,0.0,1003.6,8.95,43.6,94,48.2,39.6,3.3,315.0,113.0,7.2,3,5,4,1,2026-05-26T09:21:48.943735+05:30
Pune,Maharashtra,18.5204,73.8567,29.4,62,0.0,950.4,7.65,37.8,48,10.3,7.9,6.7,210.0,51.0,10.2,7,5,7,1,2026-05-26T09:21:48.943741+05:30
Ahmedabad,Gujarat,23.0225,72.5714,32.1,59,0.0,1002.8,8.15,38.2,82,66.1,24.6,4.4,165.0,52.0,6.2,0,5,4,1,2026-05-26T09:21:48.943748+05:30
Jaipur,Rajasthan,26.9124,75.7873,36.0,39,0.0,959.2,8.25,49.7,208,312.0,63.6,3.2,174.0,68.0,5.4,0,5,10,1,2026-05-26T09:21:48.943759+05:30
Lucknow,Uttar Pradesh,26.8467,80.9462,34.6,50,0.0,990.0,8.2,48.6,325,109.0,72.6,10.8,502.0,142.0,18.9,0,5,7,1,2026-05-26T09:21:48.943766+05:30
Kanpur,Uttar Pradesh,26.4499,80.3319,37.5,28,0.0,988.2,8.2,57.2,420,303.6,73.8,10.6,214.0,96.0,9.7,0,5,10,0,2026-05-26T09:21:48.943773+05:30
Chandigarh,Chandigarh,30.7333,76.7794,35.0,20,0.0,966.5,7.75,45.4,80,44.7,25.7,9.9,791.0,142.0,10.2,0,5,7,0,2026-05-26T09:21:48.943780+05:30
Srinagar,Jammu and Kashmir,34.0837,74.7973,14.4,78,0.0,845.3,8.95,19.4,66,31.1,25.1,7.2,434.0,84.0,2.0,3,5,7,0,2026-05-26T09:21:48.943787+05:30
Jammu,Jammu and Kashmir,32.7266,74.857,33.5,25,0.0,970.0,8.55,37.4,74,23.9,20.4,11.3,255.0,83.0,2.6,0,5,7,0,2026-05-26T09:21:48.943793+05:30
Amritsar,Punjab,31.634,74.8723,32.9,32,0.0,977.8,8.4,27.4,79,32.6,23.3,11.5,532.0,98.0,5.7,0,5,7,0,2026-05-26T09:21:48.943799+05:30
Ludhiana,Punjab,30.901,75.8573,34.2,24,0.0,976.2,8.0,40.3,79,32.0,23.0,10.3,619.0,122.0,9.3,0,5,7,0,2026-05-26T09:21:48.943805+05:30
Jalandhar,Punjab,31.326,75.5762,33.7,24,0.0,977.1,8.15,34.9,82,36.8,25.5,11.4,597.0,120.0,5.7,0,5,7,0,2026-05-26T09:21:48.943811+05:30
Dehradun,Uttarakhand,30.6284,78.0322,23.9,31,0.0,832.2,8.2,38.9,73,49.5,19.4,2.2,150.0,137.0,2.0,0,5,7,0,2026-05-26T09:21:48.943818+05:30
Shimla,Himachal Pradesh,31.1048,77.1734,21.8,22,0.0,787.3,8.3,58.3,67,38.1,14.7,2.1,160.0,135.0,1.3,0,5,7,1,2026-05-26T09:21:48.943829+05:30
Manali,Himachal Pradesh,32.2396,77.1887,22.1,26,0.0,820.5,9.6,45.7,49,4.2,2.3,9.4,149.0,110.0,0.2,0,5,7,0,2026-05-26T09:21:48.943835+05:30
Gurgaon,Haryana,28.4595,77.0266,35.8,24,0.0,979.4,7.85,41.0,1169,1415.6,267.3,26.4,612.0,91.0,21.6,0,5,10,0,2026-05-26T09:21:48.943842+05:30
Noida,Uttar Pradesh,28.5355,77.391,37.3,20,0.0,982.0,7.75,35.6,1169,1415.6,267.3,26.4,816.0,91.0,21.6,0,5,10,0,2026-05-26T09:21:48.943848+05:30
Ghaziabad,Uttar Pradesh,28.6692,77.4538,36.5,21,0.0,980.2,7.7,41.8,360,278.5,99.2,16.1,478.0,128.0,18.0,0,5,10,0,2026-05-26T09:21:48.943854+05:30
Faridabad,Haryana,28.4089,77.3178,36.8,20,0.0,981.4,7.75,40.3,1169,1415.6,267.3,26.4,627.0,91.0,21.6,0,5,10,0,2026-05-26T09:21:48.943861+05:30
Meerut,Uttar Pradesh,28.9845,77.7064,35.3,26,0.0,978.7,7.65,38.9,360,278.5,99.2,16.1,463.0,128.0,18.0,0,5,10,0,2026-05-26T09:21:48.943867+05:30
Agra,Uttar Pradesh,27.1767,78.0081,38.4,24,0.0,985.2,8.05,40.3,1139,1218.2,175.6,9.8,200.0,88.0,8.8,0,5,10,0,2026-05-26T09:21:48.943873+05:30
Varanasi,Uttar Pradesh,25.3176,82.9739,36.0,51,0.0,993.9,8.75,51.5,124,72.6,61.7,12.1,581.0,132.0,21.4,0,5,10,1,2026-05-26T09:21:48.943880+05:30
Prayagraj,Uttar Pradesh,25.4358,81.8463,37.1,25,0.0,992.5,8.6,54.4,150,97.6,71.5,12.5,430.0,137.0,21.3,0,5,10,0,2026-05-26T09:21:48.943887+05:30
Gorakhpur,Uttar Pradesh,26.7606,83.3732,31.6,61,0.0,995.1,8.6,39.6,158,69.4,53.9,4.8,335.0,138.0,10.4,3,5,7,1,2026-05-26T09:21:48.943895+05:30
Bareilly,Uttar Pradesh,28.367,79.4304,32.2,50,0.0,984.2,8.0,36.0,156,133.2,65.2,9.4,392.0,147.0,13.1,0,5,7,1,2026-05-26T09:21:48.943901+05:30
Aligarh,Uttar Pradesh,27.8974,78.088,36.3,25,0.0,983.3,7.85,38.9,762,957.4,186.3,16.5,577.0,92.0,16.6,0,5,10,0,2026-05-26T09:21:48.943910+05:30
Moradabad,Uttar Pradesh,28.8386,78.7733,33.0,42,0.0,981.2,7.85,39.6,167,149.9,85.0,25.8,480.0,155.0,18.6,0,5,7,1,2026-05-26T09:21:48.943916+05:30
Saharanpur,Uttar Pradesh,29.9637,77.546,33.0,30,0.0,973.0,7.35,47.9,147,45.3,31.2,11.0,502.0,135.0,7.6,0,5,7,0,2026-05-26T09:21:48.943922+05:30
Jhansi,Uttar Pradesh,25.4484,78.5685,37.5,33,0.0,976.3,8.45,43.9,53,64.0,25.1,2.7,160.0,77.0,4.5,0,5,10,1,2026-05-26T09:21:52.220614+05:30
Surat,Gujarat,21.1702,72.8311,32.5,64,0.0,1008.1,7.7,43.6,60,41.7,23.0,19.6,364.0,37.0,55.0,3,0,4,1,2026-05-26T09:21:52.220643+05:30
Vadodara,Gujarat,22.3072,73.1812,33.1,57,0.0,1005.1,8.1,40.3,51,41.3,21.3,5.6,181.0,51.0,6.6,0,5,4,1,2026-05-26T09:21:52.220661+05:30
Rajkot,Gujarat,22.3039,70.8022,31.9,59,0.0,994.9,7.75,43.2,71,59.8,19.7,3.1,129.0,55.0,5.2,0,5,7,1,2026-05-26T09:21:52.220672+05:30
Thane,Maharashtra,19.2183,72.9781,31.1,71,0.1,1009.6,7.85,32.8,47,14.0,10.2,8.2,233.0,51.0,8.7,6,0,4,1,2026-05-26T09:21:52.220682+05:30
Nagpur,Maharashtra,21.1458,79.0882,37.8,29,0.0,972.9,8.9,40.3,82,13.4,12.2,7.5,208.0,106.0,17.4,0,5,10,1,2026-05-26T09:21:52.220692+05:30
Nashik,Maharashtra,19.9975,73.7898,29.9,63,0.0,947.7,8.15,36.0,35,9.3,6.4,2.9,144.0,49.0,1.7,7,5,7,1,2026-05-26T09:21:52.220701+05:30
Aurangabad,Maharashtra,19.8762,75.3433,31.0,57,0.0,946.2,9.05,37.4,55,9.7,6.6,4.1,152.0,49.0,4.7,0,5,7,1,2026-05-26T09:21:52.220710+05:30
Solapur,Maharashtra,17.6599,75.9064,30.1,61,0.0,959.4,8.3,38.5,62,10.9,8.8,5.1,156.0,62.0,6.8,3,5,7,1,2026-05-26T09:21:52.220719+05:30
Kolhapur,Maharashtra,16.705,74.2433,29.0,66,0.0,950.5,8.85,42.8,34,11.9,9.1,4.2,169.0,55.0,2.6,7,5,7,1,2026-05-26T09:21:52.220728+05:30
Goa,Goa,15.2993,74.124,30.9,71,0.0,1000.3,7.3,26.3,43,9.7,7.4,2.1,214.0,59.0,2.2,3,5,4,1,2026-05-26T09:21:52.220736+05:30
Jodhpur,Rajasthan,26.2389,73.0243,33.2,55,0.0,982.1,8.4,41.0,227,335.3,75.0,2.1,129.0,58.0,3.6,0,5,7,1,2026-05-26T09:21:52.220744+05:30
Udaipur,Rajasthan,24.5854,73.7125,30.5,58,0.0,947.2,8.85,39.6,85,71.2,29.6,1.9,146.0,59.0,3.0,0,5,7,1,2026-05-26T09:21:52.220753+05:30
Kota,Rajasthan,25.2138,75.8648,37.7,31,0.0,978.1,8.4,37.8,61,50.2,27.2,4.1,171.0,73.0,7.1,0,5,10,1,2026-05-26T09:21:52.220762+05:30
Bikaner,Rajasthan,28.0229,73.3119,35.8,43,0.0,979.7,8.4,43.9,161,369.7,126.7,1.2,140.0,74.0,4.0,0,5,10,1,2026-05-26T09:21:52.220769+05:30
Ajmer,Rajasthan,26.4499,74.6399,33.0,50,0.0,954.4,8.35,45.7,110,87.1,35.6,2.3,141.0,68.0,4.4,0,5,7,1,2026-05-26T09:21:52.220776+05:30
Gwalior,Madhya Pradesh,26.2183,78.1828,37.5,35,0.0,981.2,8.25,45.7,71,150.9,47.6,2.5,145.0,76.0,4.8,0,5,10,1,2026-05-26T09:21:52.220782+05:30
Indore,Madhya Pradesh,22.7196,75.8577,32.6,48,0.0,949.6,8.65,42.1,56,31.8,17.2,5.3,231.0,59.0,11.7,0,5,7,1,2026-05-26T09:21:52.220788+05:30
Bhopal,Madhya Pradesh,23.2599,77.4126,35.2,36,0.0,954.3,8.7,38.9,63,27.9,16.9,3.3,204.0,86.0,10.0,0,5,10,1,2026-05-26T09:21:52.220794+05:30
Jabalpur,Madhya Pradesh,23.1815,79.9864,37.5,23,0.0,961.5,8.85,37.1,72,24.2,15.0,3.1,183.0,104.0,5.8,0,5,10,0,2026-05-26T09:21:52.220800+05:30
Ujjain,Madhya Pradesh,23.1765,75.7885,32.8,50,0.0,955.0,8.6,40.0,53,38.2,19.1,5.0,184.0,55.0,12.7,0,5,7,1,2026-05-26T09:21:52.220807+05:30
Visakhapatnam,Andhra Pradesh,17.6868,83.2185,36.2,54,0.0,1001.3,9.05,37.8,119,54.1,45.4,19.9,441.0,108.0,45.3,0,5,7,1,2026-05-26T09:21:52.220813+05:30
Vijayawada,Andhra Pradesh,16.5062,80.648,37.8,34,0.0,1001.6,9.1,42.5,126,52.9,44.9,9.6,233.0,111.0,12.6,0,5,7,1,2026-05-26T09:21:52.220819+05:30
Guntur,Andhra Pradesh,16.3067,80.4365,37.8,36,0.0,1002.7,9.1,43.2,119,36.4,30.5,10.0,224.0,95.0,13.0,0,5,7,1,2026-05-26T09:21:52.220825+05:30
Nellore,Andhra Pradesh,14.4426,79.9865,35.3,49,0.0,1005.4,9.05,40.7,88,24.3,20.7,5.5,189.0,89.0,5.7,0,5,7,1,2026-05-26T09:21:52.220832+05:30
Kurnool,Andhra Pradesh,15.8281,78.0373,32.8,59,0.0,978.4,8.65,60.5,63,10.6,8.8,5.7,213.0,64.0,6.0,0,5,7,1,2026-05-26T09:21:52.220839+05:30
Kakinada,Andhra Pradesh,16.9891,82.2475,36.5,53,0.0,1005.4,9.05,38.5,101,42.1,33.4,4.6,288.0,124.0,7.7,0,5,7,1,2026-05-26T09:21:52.220845+05:30
Tirupati,Andhra Pradesh,13.6288,79.4192,35.5,44,0.0,991.2,9.1,38.5,86,28.2,23.0,6.2,189.0,105.0,3.0,0,5,10,1,2026-05-26T09:21:52.220851+05:30
Warangal,Telangana,17.9689,79.5941,37.0,33,0.0,978.8,9.1,39.6,96,38.5,28.8,5.5,232.0,101.0,5.2,0,5,10,1,2026-05-26T09:21:52.220857+05:30
Nizamabad,Telangana,18.6725,78.0941,35.5,43,0.0,966.0,9.1,35.6,82,23.6,17.9,4.5,181.0,83.0,3.8,0,5,10,1,2026-05-26T09:21:52.220863+05:30
Mysore,Karnataka,12.2958,76.6396,27.1,62,0.0,931.5,9.0,50.4,58,18.1,12.9,5.4,227.0,68.0,2.8,7,5,7,1,2026-05-26T09:21:52.220869+05:30
Mangalore,Karnataka,12.9141,74.856,29.5,75,0.0,1009.3,8.55,25.6,66,24.4,17.0,5.2,257.0,61.0,4.0,7,0,4,1,2026-05-26T09:21:52.220876+05:30
Hubli-Dharwad,Karnataka,15.3647,75.124,29.0,63,0.0,943.6,9.0,42.5,30,7.1,5.0,3.3,177.0,54.0,1.3,7,5,7,1,2026-05-26T09:21:52.220882+05:30
Belgaum,Karnataka,15.8497,74.4977,27.8,66,0.0,928.6,9.0,42.1,25,8.1,6.0,3.5,159.0,52.0,1.6,7,5,7,1,2026-05-26T09:21:55.499995+05:30
Coimbatore,Tamil Nadu,11.0168,76.9558,30.1,60,0.0,964.3,9.05,48.6,47,18.1,12.9,4.5,223.0,77.0,3.9,0,5,7,1,2026-05-26T09:21:55.500016+05:30
Madurai,Tamil Nadu,9.9252,78.1198,33.3,50,0.0,994.8,8.9,33.5,88,31.1,26.7,17.4,208.0,81.0,9.5,0,5,7,1,2026-05-26T09:21:55.500026+05:30
Trichy,Tamil Nadu,10.7905,78.7047,32.8,55,0.0,1001.3,8.95,39.6,65,10.9,8.6,5.9,202.0,55.0,4.7,0,5,4,1,2026-05-26T09:21:55.500035+05:30
Salem,Tamil Nadu,11.6643,78.146,32.0,54,0.0,979.5,8.7,45.0,67,23.5,19.7,10.9,229.0,82.0,14.8,0,5,7,1,2026-05-26T09:21:55.500042+05:30
Tirunelveli,Tamil Nadu,8.7139,77.7567,33.9,48,0.0,1004.9,8.7,28.4,35,7.3,5.9,3.7,171.0,62.0,1.9,0,5,4,1,2026-05-26T09:21:55.500049+05:30
Vellore,Tamil Nadu,12.9165,79.1325,33.1,51,0.0,985.0,9.05,38.9,90,35.4,31.3,9.6,252.0,103.0,7.3,0,5,7,1,2026-05-26T09:21:55.500055+05:30
Erode,Tamil Nadu,11.341,77.7172,32.5,53,0.0,991.1,9.0,46.4,54,15.4,12.4,7.4,276.0,67.0,4.4,0,5,7,1,2026-05-26T09:21:55.500061+05:30
Kochi,Kerala,9.9312,76.2673,28.6,78,0.1,1011.7,8.5,27.0,59,14.2,11.8,8.3,277.0,63.0,6.6,10,0,4,1,2026-05-26T09:21:55.500068+05:30
Thiruvananthapuram,Kerala,8.5241,76.9366,28.0,80,0.1,1011.4,8.35,36.0,36,9.1,6.2,3.1,186.0,68.0,1.6,10,0,4,1,2026-05-26T09:21:55.500074+05:30
Kozhikode,Kerala,11.2588,75.7804,28.8,80,0.1,1010.8,8.55,28.8,39,8.9,6.3,2.0,310.0,61.0,1.9,10,0,4,1,2026-05-26T09:21:55.500081+05:30
Thrissur,Kerala,10.5276,76.2144,28.4,83,0.1,1010.1,8.65,27.4,55,13.6,11.2,6.1,298.0,65.0,5.7,10,0,4,1,2026-05-26T09:21:55.500088+05:30
Kannur,Kerala,11.8745,75.3704,30.0,72,0.1,1009.9,8.7,28.8,71,23.9,16.2,3.8,251.0,64.0,3.0,10,0,4,1,2026-05-26T09:21:55.500094+05:30
Patna,Bihar,25.5941,85.1376,32.7,62,0.0,997.8,8.85,34.2,154,46.0,39.7,6.8,374.0,116.0,14.1,3,5,7,1,2026-05-26T09:21:55.500101+05:30
Gaya,Bihar,24.7914,85.0002,34.4,58,0.0,990.7,8.9,35.3,153,52.0,46.1,7.5,396.0,123.0,16.5,0,5,7,1,2026-05-26T09:21:55.500107+05:30
Muzaffarpur,Bihar,26.1209,85.3647,29.1,75,0.0,998.5,8.8,39.6,155,43.3,37.4,5.6,359.0,124.0,11.8,7,5,7,1,2026-05-26T09:21:55.500113+05:30
Bhagalpur,Bihar,25.2425,87.0117,28.1,76,0.0,999.3,8.55,37.1,105,24.6,19.6,8.7,342.0,81.0,12.1,7,5,7,1,2026-05-26T09:21:55.500120+05:30
Ranchi,Jharkhand,23.3441,85.3096,33.9,37,0.0,936.8,9.05,43.9,103,68.9,54.6,4.3,299.0,158.0,14.0,0,5,7,1,2026-05-26T09:21:55.500126+05:30
Jamshedpur,Jharkhand,22.8046,86.2029,35.5,50,0.0,988.0,8.95,44.3,114,60.1,48.4,10.6,396.0,131.0,34.6,0,5,10,1,2026-05-26T09:21:55.500132+05:30
Dhanbad,Jharkhand,23.7957,86.4304,36.2,36,0.0,977.0,9.05,37.1,155,78.2,63.3,26.4,357.0,140.0,77.3,0,5,10,1,2026-05-26T09:21:55.500139+05:30
Bokaro,Jharkhand,23.6693,86.1511,37.2,33,0.0,980.6,8.95,47.5,155,73.1,57.5,15.6,337.0,149.0,46.7,0,5,10,1,2026-05-26T09:21:55.500145+05:30
Bhubaneswar,Odisha,20.2961,85.8245,33.3,68,0.0,1001.1,9.1,38.2,104,48.2,39.0,3.0,237.0,120.0,7.2,3,5,4,1,2026-05-26T09:21:55.500151+05:30
Cuttack,Odisha,20.4625,85.8828,32.3,74,0.0,1002.9,9.15,31.7,104,48.2,39.0,3.0,247.0,120.0,7.2,3,5,4,1,2026-05-26T09:21:55.500157+05:30
Rourkela,Odisha,22.2604,84.8536,35.1,56,0.0,983.0,8.95,40.0,114,67.3,54.7,6.0,370.0,142.0,17.1,0,5,10,1,2026-05-26T09:21:55.500163+05:30
Raipur,Chhattisgarh,21.2514,81.6296,38.2,23,0.0,973.4,8.95,38.5,127,76.8,52.5,30.3,589.0,84.0,61.2,0,5,10,0,2026-05-26T09:21:55.500170+05:30
Bhilai,Chhattisgarh,21.1938,81.3509,36.5,28,0.0,973.8,8.95,34.9,119,73.6,47.3,23.9,840.0,87.0,52.0,0,5,10,0,2026-05-26T09:21:55.500176+05:30
Guwahati,Assam,26.1158,91.7086,24.8,91,0.0,1001.9,8.75,33.8,67,20.4,13.2,2.8,279.0,103.0,2.8,3,5,4,1,2026-05-26T09:21:55.500182+05:30
Agartala,Tripura,23.8315,91.2868,29.9,80,0.1,1006.1,8.85,39.2,79,23.3,18.2,7.2,199.0,66.0,2.8,10,5,4,1,2026-05-26T09:21:55.500189+05:30
Shillong,Meghalaya,25.5788,91.8933,20.6,96,0.3,857.8,9.0,42.5,36,9.2,4.1,2.5,245.0,105.0,2.6,6,5,7,1,2026-05-26T09:21:55.500195+05:30
Imphal,Manipur,24.817,93.9368,26.8,67,0.0,924.6,9.25,39.6,79,24.1,12.7,1.8,230.0,103.0,2.5,7,5,7,1,2026-05-26T09:21:55.500202+05:30
Aizawl,Mizoram,23.7271,92.7176,22.7,79,0.0,893.7,9.1,45.0,52,32.0,17.3,1.3,163.0,86.0,1.9,3,5,7,1,2026-05-26T09:21:55.500208+05:30
Kohima,Nagaland,25.6701,94.1077,23.7,72,0.0,857.5,9.2,30.2,55,14.7,7.6,2.5,195.0,88.0,1.4,3,5,7,1,2026-05-26T09:21:55.500214+05:30
Gangtok,Sikkim,27.3314,88.6138,21.7,59,0.0,838.5,9.2,38.5,100,50.9,24.8,2.0,352.0,136.0,4.3,0,5,7,0,2026-05-26T09:21:55.500220+05:30
Siliguri,West Bengal,26.7271,88.3953,27.5,74,0.0,992.3,8.7,29.5,150,72.9,43.9,4.2,359.0,142.0,6.3,7,5,7,1,2026-05-26T09:21:58.784260+05:30
Durgapur,West Bengal,23.5204,87.3119,33.0,73,0.0,992.0,9.0,33.1,150,68.0,60.3,26.2,692.0,103.0,65.7,3,5,7,1,2026-05-26T09:21:58.784281+05:30
Asansol,West Bengal,23.6739,86.9524,34.0,63,0.0,990.4,9.0,28.8,149,75.0,63.1,27.7,611.0,123.0,72.0,3,5,7,1,2026-05-26T09:21:58.784290+05:30
Pondicherry,Puducherry,11.9139,79.8145,32.8,60,0.0,1008.8,8.65,49.0,71,23.9,20.9,13.4,409.0,62.0,8.8,0,0,4,1,2026-05-26T09:21:58.784298+05:30
Port Blair,Andaman and Nicobar Islands,11.6234,92.7265,27.0,93,0.1,1009.7,7.5,34.2,32,12.6,7.3,0.5,108.0,68.0,0.4,10,0,4,1,2026-05-26T09:21:58.784306+05:30
Haridwar,Uttarakhand,29.9457,78.1642,32.7,35,0.0,971.6,7.55,38.5,116,65.4,33.3,5.6,303.0,159.0,10.3,0,5,7,0,2026-05-26T09:21:58.784313+05:30
Rishikesh,Uttarakhand,30.0869,78.2676,33.2,29,0.0,964.4,7.65,29.5,96,75.7,32.8,2.5,242.0,156.0,8.0,0,5,7,0,2026-05-26T09:21:58.784320+05:30
Nainital,Uttarakhand,29.3919,79.4542,23.0,34,0.0,808.1,8.5,40.7,107,121.5,38.0,2.5,227.0,156.0,6.4,0,5,7,0,2026-05-26T09:21:58.784327+05:30
Mussoorie,Uttarakhand,30.4599,78.0664,22.6,27,0.0,805.1,8.05,58.3,92,65.7,29.6,4.1,167.0,155.0,6.6,0,5,7,0,2026-05-26T09:21:58.784333+05:30
Dharamshala,Himachal Pradesh,32.219,76.3234,26.4,22,0.0,869.6,8.45,43.2,37,7.9,3.4,1.5,181.0,118.0,0.8,4,5,7,0,2026-05-26T09:21:58.784340+05:30
Dalhousie,Himachal Pradesh,32.5387,75.971,22.8,25,0.0,806.6,8.7,40.3,52,12.3,7.0,5.7,210.0,111.0,1.0,0,5,7,0,2026-05-26T09:21:58.784347+05:30
Patiala,Punjab,30.3398,76.3869,35.8,22,0.0,975.7,7.65,43.2,184,276.6,52.2,8.9,380.0,118.0,11.2,0,5,10,0,2026-05-26T09:21:58.784354+05:30
Bhatinda,Punjab,30.211,74.9455,37.2,20,0.0,981.1,8.3,32.8,86,52.0,32.2,10.8,313.0,103.0,7.6,0,5,10,0,2026-05-26T09:21:58.784360+05:30
Rohtak,Haryana,28.8955,76.6066,35.7,26,0.0,979.6,7.75,36.4,769,713.4,182.5,16.9,465.0,92.0,8.9,0,5,10,0,2026-05-26T09:21:58.784366+05:30
Panipat,Haryana,29.3909,76.9635,37.0,19,0.0,977.6,7.6,42.8,1214,804.7,173.7,12.9,378.0,93.0,9.8,0,5,10,0,2026-05-26T09:21:58.784373+05:30
Mathura,Uttar Pradesh,27.4924,77.6737,38.0,23,0.0,984.5,8.0,34.9,672,976.0,157.4,12.1,245.0,78.0,8.0,0,5,10,0,2026-05-26T09:21:58.784379+05:30
Vrindavan,Uttar Pradesh,27.5823,77.7027,37.5,25,0.0,985.0,8.0,34.2,672,976.0,157.4,12.1,271.0,78.0,8.0,0,5,10,0,2026-05-26T09:21:58.784385+05:30
Ayodhya,Uttar Pradesh,26.7922,82.1998,31.9,60,0.0,992.7,8.35,37.4,160,75.7,62.6,5.6,396.0,135.0,14.5,0,5,7,1,2026-05-26T09:21:58.784391+05:30
Ratlam,Madhya Pradesh,23.3315,75.0367,32.0,53,0.0,955.9,8.55,41.4,52,40.9,19.4,5.4,172.0,53.0,13.5,0,5,7,1,2026-05-26T09:21:58.784398+05:30
Sagar,Madhya Pradesh,23.8388,78.7378,37.0,24,0.0,950.3,8.75,43.2,58,37.0,19.8,2.3,159.0,99.0,6.0,0,5,10,0,2026-05-26T09:21:58.784404+05:30
Satna,Madhya Pradesh,24.6005,80.8322,37.3,26,0.0,969.4,8.8,52.9,58,57.2,22.5,4.0,171.0,94.0,7.5,0,5,10,0,2026-05-26T09:21:58.784411+05:30
Akola,Maharashtra,20.7002,77.0082,34.2,50,0.0,976.2,8.65,42.1,65,13.6,9.9,4.7,146.0,68.0,10.2,0,5,7,1,2026-05-26T09:21:58.784418+05:30
Amravati,Maharashtra,20.9374,77.7796,35.8,39,0.0,968.0,8.7,42.5,70,14.6,11.6,5.2,171.0,85.0,13.4,0,5,10,1,2026-05-26T09:21:58.784425+05:30
Latur,Maharashtra,18.4088,76.5604,31.0,58,0.0,942.1,8.3,29.9,81,20.1,15.8,4.5,185.0,93.0,8.9,0,5,7,1,2026-05-26T09:21:58.784431+05:30
Nanded,Maharashtra,19.1383,77.3091,35.1,45,0.0,969.9,8.95,35.3,79,19.0,13.2,5.2,177.0,68.0,3.9,0,5,10,1,2026-05-26T09:21:58.784437+05:30
Gulbarga,Karnataka,17.3297,76.8343,31.6,56,0.0,960.7,7.8,37.4,65,11.4,9.8,5.6,176.0,71.0,6.8,0,5,7,1,2026-05-26T09:21:58.784443+05:30
Bidar,Karnataka,17.9104,77.5199,31.2,56,0.0,937.7,9.0,36.0,76,36.7,26.9,6.5,209.0,100.0,6.6,0,5,7,1,2026-05-26T09:21:58.784449+05:30
Hospet,Karnataka,15.2689,76.3909,28.9,70,0.0,958.5,9.0,43.2,47,7.4,5.6,3.6,171.0,55.0,2.4,7,5,7,1,2026-05-26T09:21:58.784456+05:30
Tirupur,Tamil Nadu,11.1085,77.3411,31.9,55,0.0,977.5,9.1,57.2,57,18.5,14.5,7.0,196.0,75.0,4.9,0,5,7,1,2026-05-26T09:21:58.784462+05:30
Alappuzha,Kerala,9.4981,76.3388,28.2,83,0.1,1011.9,8.65,31.0,47,11.4,9.1,5.7,161.0,72.0,4.0,10,0,4,1,2026-05-26T09:21:58.784468+05:30
Munnar,Kerala,10.0889,77.0595,21.1,84,0.0,860.4,9.2,28.4,43,7.2,5.9,4.1,162.0,60.0,2.2,3,5,7,1,2026-05-26T09:21:58.784475+05:30
Silchar,Assam,24.8333,92.7789,30.0,68,0.0,1005.6,8.75,39.2,69,21.8,11.6,1.9,269.0,92.0,2.7,7,5,4,1,2026-05-26T09:21:58.784481+05:30
Dibrugarh,Assam,27.4728,94.912,24.0,92,0.1,996.5,7.65,25.2,91,59.8,25.5,1.9,211.0,115.0,2.0,6,5,7,1,2026-05-26T09:21:58.784487+05:30
