city,state,latitude,longitude,temp,humidity,rain,pressure,uv_index,wind_gusts,aqi,pm10,pm2_5,mosquito_risk,arthritis_risk,migraine_risk,frizz_risk,updated_at
Delhi,Delhi,28.6139,77.209,35.8,20,0.0,984.1,7.25,22.0,250,142.5,28.6,0,5,10,0,2026-04-14T13:22:13.227848+05:30
Mumbai,Maharashtra,19.076,72.8777,29.5,80,0.0,1008.7,8.0,23.8,132,96.9,70.8,7,0,4,1,2026-04-14T13:22:13.227888+05:30
Bangalore,Karnataka,12.9716,77.5946,35.9,25,0.0,913.4,9.65,31.3,84,27.0,18.8,0,5,10,0,2026-04-14T13:22:13.227903+05:30
Hyderabad,Telangana,17.385,78.4867,39.5,25,0.0,953.4,9.25,24.8,96,39.2,28.5,0,5,10,0,2026-04-14T13:22:13.227913+05:30
Chennai,Tamil Nadu,13.0827,80.2707,35.8,48,0.0,1007.5,9.35,32.4,44,17.9,12.3,0,5,7,1,2026-04-14T13:22:13.227921+05:30
Kolkata,West Bengal,22.5726,88.3639,34.6,61,0.0,1005.3,8.85,31.0,84,69.4,42.5,3,5,4,1,2026-04-14T13:22:13.227930+05:30
Pune,Maharashtra,18.5204,73.8567,40.6,16,0.0,949.4,8.6,41.0,74,28.2,16.2,0,5,10,0,2026-04-14T13:22:13.227942+05:30
Ahmedabad,Gujarat,23.0225,72.5714,40.1,18,0.0,1002.2,8.15,31.7,73,76.1,22.1,0,5,7,0,2026-04-14T13:22:13.227949+05:30
Jaipur,Rajasthan,26.9124,75.7873,37.6,16,0.0,960.9,7.9,31.7,93,167.6,27.6,0,5,10,0,2026-04-14T13:22:13.227956+05:30
Lucknow,Uttar Pradesh,26.8467,80.9462,37.7,15,0.0,993.5,7.75,36.4,156,93.8,19.2,0,5,10,0,2026-04-14T13:22:13.227964+05:30
Kanpur,Uttar Pradesh,26.4499,80.3319,36.3,19,0.0,992.4,7.75,28.1,247,316.6,36.4,0,5,10,0,2026-04-14T13:22:13.227971+05:30
Chandigarh,Chandigarh,30.7333,76.7794,34.2,21,0.0,970.0,7.2,30.2,55,18.0,13.6,0,5,7,0,2026-04-14T13:22:13.227978+05:30
Srinagar,Jammu and Kashmir,34.0837,74.7973,22.0,31,0.0,844.7,8.2,18.4,87,22.4,9.6,0,5,7,0,2026-04-14T13:22:13.227986+05:30
Jammu,Jammu and Kashmir,32.7266,74.857,33.1,31,0.0,973.9,7.85,28.1,70,22.2,12.6,0,5,7,0,2026-04-14T13:22:13.227995+05:30
Amritsar,Punjab,31.634,74.8723,33.4,31,0.0,982.3,7.8,24.5,74,12.3,9.8,0,5,7,0,2026-04-14T13:22:13.228002+05:30
Ludhiana,Punjab,30.901,75.8573,34.4,24,0.0,980.1,7.4,29.2,67,16.8,9.8,0,5,7,0,2026-04-14T13:22:13.228008+05:30
Jalandhar,Punjab,31.326,75.5762,33.5,28,0.0,981.3,7.55,24.5,72,27.6,10.7,0,5,7,0,2026-04-14T13:22:13.228015+05:30
Dehradun,Uttarakhand,30.6284,78.0322,23.0,41,0.0,833.2,7.6,41.8,47,14.3,5.4,0,5,7,0,2026-04-14T13:22:13.228022+05:30
Shimla,Himachal Pradesh,31.1048,77.1734,21.1,35,0.0,788.7,7.7,43.2,49,14.2,5.8,0,5,7,0,2026-04-14T13:22:13.228029+05:30
Manali,Himachal Pradesh,32.2396,77.1887,23.7,31,0.0,823.4,9.5,29.5,109,15.3,5.6,0,5,7,0,2026-04-14T13:22:13.228035+05:30
Gurgaon,Haryana,28.4595,77.0266,35.8,20,0.0,982.6,7.4,14.4,803,393.9,53.9,0,5,10,0,2026-04-14T13:22:13.228041+05:30
Noida,Uttar Pradesh,28.5355,77.391,36.2,19,0.0,985.5,7.3,22.0,803,393.9,53.9,0,5,10,0,2026-04-14T13:22:13.228047+05:30
Ghaziabad,Uttar Pradesh,28.6692,77.4538,35.7,22,0.0,983.8,7.25,24.5,182,113.9,25.9,0,5,10,0,2026-04-14T13:22:13.228053+05:30
Faridabad,Haryana,28.4089,77.3178,36.3,19,0.0,984.9,7.35,17.3,803,393.9,53.9,0,5,10,0,2026-04-14T13:22:13.228059+05:30
Meerut,Uttar Pradesh,28.9845,77.7064,36.0,21,0.0,982.3,7.15,32.8,182,113.9,25.9,0,5,10,0,2026-04-14T13:22:13.228066+05:30
Agra,Uttar Pradesh,27.1767,78.0081,37.0,23,0.0,988.6,7.7,23.4,510,290.6,45.9,0,5,10,0,2026-04-14T13:22:13.228072+05:30
Varanasi,Uttar Pradesh,25.3176,82.9739,38.9,16,0.0,997.1,8.4,37.4,93,274.7,38.1,0,5,10,0,2026-04-14T13:22:13.228081+05:30
Prayagraj,Uttar Pradesh,25.4358,81.8463,38.8,15,0.0,996.2,8.3,33.5,102,256.1,36.6,0,5,10,0,2026-04-14T13:22:13.228087+05:30
Gorakhpur,Uttar Pradesh,26.7606,83.3732,37.2,16,0.0,996.7,8.2,24.5,80,107.3,25.0,0,5,10,0,2026-04-14T13:22:13.228094+05:30
Bareilly,Uttar Pradesh,28.367,79.4304,36.6,19,0.0,987.2,7.55,37.1,75,16.3,12.6,0,5,10,0,2026-04-14T13:22:13.228100+05:30
Aligarh,Uttar Pradesh,27.8974,78.088,37.6,19,0.0,986.3,7.45,26.6,567,271.9,40.9,0,5,10,0,2026-04-14T13:22:13.228107+05:30
Moradabad,Uttar Pradesh,28.8386,78.7733,35.9,20,0.0,984.2,7.35,37.4,90,22.5,14.1,0,5,10,0,2026-04-14T13:22:13.228115+05:30
Saharanpur,Uttar Pradesh,29.9637,77.546,34.8,20,0.0,976.4,6.9,34.2,80,34.7,15.3,0,5,7,0,2026-04-14T13:22:13.228121+05:30
Jhansi,Uttar Pradesh,25.4484,78.5685,40.2,14,0.0,978.5,8.2,26.3,84,97.6,24.0,0,5,10,0,2026-04-14T13:22:16.484118+05:30
Surat,Gujarat,21.1702,72.8311,35.0,47,0.0,1007.6,7.8,22.3,126,90.3,41.2,0,5,4,1,2026-04-14T13:22:16.484151+05:30
Vadodara,Gujarat,22.3072,73.1812,39.1,24,0.0,1004.9,8.1,27.7,89,63.3,21.9,0,5,7,0,2026-04-14T13:22:16.484163+05:30
Rajkot,Gujarat,22.3039,70.8022,37.3,24,0.0,995.3,7.85,34.6,57,141.1,26.4,0,5,10,0,2026-04-14T13:22:16.484172+05:30
Thane,Maharashtra,19.2183,72.9781,34.9,49,0.0,1008.4,8.0,36.7,132,96.9,70.8,0,0,4,1,2026-04-14T13:22:16.484180+05:30
Nagpur,Maharashtra,21.1458,79.0882,38.8,23,0.0,973.1,8.85,15.1,106,70.1,40.7,0,5,10,0,2026-04-14T13:22:16.484189+05:30
Nashik,Maharashtra,19.9975,73.7898,37.6,21,0.0,947.5,8.25,32.4,83,35.6,15.1,0,5,10,0,2026-04-14T13:22:16.484198+05:30
Aurangabad,Maharashtra,19.8762,75.3433,39.6,15,0.0,945.5,8.95,32.4,97,27.3,15.9,0,5,10,0,2026-04-14T13:22:16.484206+05:30
Solapur,Maharashtra,17.6599,75.9064,40.3,21,0.0,957.6,9.05,28.4,76,34.6,25.2,0,5,10,0,2026-04-14T13:22:16.484215+05:30
Kolhapur,Maharashtra,16.705,74.2433,38.0,22,0.0,949.0,9.05,46.8,80,38.0,24.9,0,5,10,0,2026-04-14T13:22:16.484223+05:30
Goa,Goa,15.2993,74.124,32.2,56,0.0,998.2,9.05,31.7,79,43.2,23.8,0,5,7,1,2026-04-14T13:22:16.484231+05:30
Jodhpur,Rajasthan,26.2389,73.0243,37.7,21,0.0,983.4,8.15,28.4,76,119.0,24.7,0,5,10,0,2026-04-14T13:22:16.484239+05:30
Udaipur,Rajasthan,24.5854,73.7125,36.6,18,0.0,948.2,8.7,39.2,48,43.3,10.1,0,5,10,0,2026-04-14T13:22:16.484246+05:30
Kota,Rajasthan,25.2138,75.8648,39.9,15,0.0,979.0,8.2,24.5,74,38.3,12.1,0,5,10,0,2026-04-14T13:22:16.484255+05:30
Bikaner,Rajasthan,28.0229,73.3119,39.4,14,0.0,981.2,8.0,21.6,51,179.3,36.1,0,5,10,0,2026-04-14T13:22:16.484263+05:30
Ajmer,Rajasthan,26.4499,74.6399,37.2,21,0.0,955.7,8.1,34.9,59,36.6,11.9,0,5,10,0,2026-04-14T13:22:16.484269+05:30
Gwalior,Madhya Pradesh,26.2183,78.1828,38.8,20,0.0,983.8,7.95,39.6,100,183.9,27.5,0,5,10,0,2026-04-14T13:22:16.484275+05:30
Indore,Madhya Pradesh,22.7196,75.8577,37.3,19,0.0,949.8,8.55,30.2,87,52.7,16.9,0,5,10,0,2026-04-14T13:22:16.484281+05:30
Bhopal,Madhya Pradesh,23.2599,77.4126,39.4,14,0.0,954.8,8.55,29.9,75,56.5,15.6,0,5,10,0,2026-04-14T13:22:16.484287+05:30
Jabalpur,Madhya Pradesh,23.1815,79.9864,37.9,19,0.0,962.4,8.65,16.6,82,80.3,18.2,0,5,10,0,2026-04-14T13:22:16.484294+05:30
Ujjain,Madhya Pradesh,23.1765,75.7885,37.7,19,0.0,955.4,8.45,31.3,101,24.0,14.2,0,5,10,0,2026-04-14T13:22:16.484300+05:30
Visakhapatnam,Andhra Pradesh,17.6868,83.2185,33.8,54,0.0,1003.7,9.15,41.8,66,31.9,21.8,0,5,4,1,2026-04-14T13:22:16.484307+05:30
Vijayawada,Andhra Pradesh,16.5062,80.648,37.0,43,0.0,1002.3,9.2,29.9,58,24.9,15.5,0,5,7,1,2026-04-14T13:22:16.484313+05:30
Guntur,Andhra Pradesh,16.3067,80.4365,37.5,40,0.0,1003.5,9.25,32.8,61,25.8,17.1,0,5,7,1,2026-04-14T13:22:16.484320+05:30
Nellore,Andhra Pradesh,14.4426,79.9865,39.0,31,0.0,1005.3,9.3,32.8,53,24.2,17.3,0,5,7,1,2026-04-14T13:22:16.484327+05:30
Kurnool,Andhra Pradesh,15.8281,78.0373,41.2,22,0.0,976.2,9.25,19.8,90,38.9,28.0,0,5,10,0,2026-04-14T13:22:16.484335+05:30
Kakinada,Andhra Pradesh,16.9891,82.2475,36.5,50,0.0,1007.1,9.2,31.7,55,26.8,14.8,0,5,7,1,2026-04-14T13:22:16.484341+05:30
Tirupati,Andhra Pradesh,13.6288,79.4192,38.5,23,0.0,991.8,9.4,33.5,66,24.6,16.9,0,5,10,0,2026-04-14T13:22:16.484347+05:30
Warangal,Telangana,17.9689,79.5941,38.8,39,0.0,978.2,9.15,24.5,82,36.0,25.4,0,5,10,1,2026-04-14T13:22:16.484354+05:30
Nizamabad,Telangana,18.6725,78.0941,40.3,20,0.0,964.8,9.1,27.0,116,41.2,30.7,0,5,10,0,2026-04-14T13:22:16.484360+05:30
Mysore,Karnataka,12.2958,76.6396,36.6,27,0.0,929.6,9.5,40.0,94,31.2,22.4,0,5,10,0,2026-04-14T13:22:16.484366+05:30
Mangalore,Karnataka,12.9141,74.856,29.3,82,0.0,1006.3,9.15,24.1,91,41.1,27.0,7,5,4,1,2026-04-14T13:22:16.484373+05:30
Hubli-Dharwad,Karnataka,15.3647,75.124,37.7,26,0.0,941.5,9.25,46.1,77,37.6,25.9,0,5,10,0,2026-04-14T13:22:16.484381+05:30
Belgaum,Karnataka,15.8497,74.4977,36.1,26,0.0,927.0,9.3,41.8,69,23.8,14.4,0,5,10,0,2026-04-14T13:22:19.738583+05:30
Coimbatore,Tamil Nadu,11.0168,76.9558,37.6,27,0.0,962.3,8.95,40.0,93,28.1,20.3,0,5,10,0,2026-04-14T13:22:19.738613+05:30
Madurai,Tamil Nadu,9.9252,78.1198,37.6,33,0.0,992.9,9.35,40.7,70,21.9,15.8,0,5,10,1,2026-04-14T13:22:19.738623+05:30
Trichy,Tamil Nadu,10.7905,78.7047,37.4,35,0.0,999.6,9.4,23.4,61,16.4,12.6,0,5,10,1,2026-04-14T13:22:19.738631+05:30
Salem,Tamil Nadu,11.6643,78.146,36.8,42,0.0,977.5,9.45,18.4,74,29.3,20.0,0,5,10,1,2026-04-14T13:22:19.738639+05:30
Tirunelveli,Tamil Nadu,8.7139,77.7567,38.0,34,0.0,1002.7,9.3,41.8,77,25.3,17.8,0,5,7,1,2026-04-14T13:22:19.738647+05:30
Vellore,Tamil Nadu,12.9165,79.1325,37.9,24,0.0,984.9,9.45,31.0,83,26.3,18.5,0,5,10,0,2026-04-14T13:22:19.738654+05:30
Erode,Tamil Nadu,11.341,77.7172,38.7,33,0.0,988.7,9.3,26.6,60,24.0,15.9,0,5,10,1,2026-04-14T13:22:19.738660+05:30
Kochi,Kerala,9.9312,76.2673,29.6,82,0.0,1008.5,8.8,28.8,95,39.5,26.4,7,0,4,1,2026-04-14T13:22:19.738668+05:30
Thiruvananthapuram,Kerala,8.5241,76.9366,29.7,81,0.0,1007.7,9.1,25.2,79,35.3,21.4,7,5,4,1,2026-04-14T13:22:19.738674+05:30
Kozhikode,Kerala,11.2588,75.7804,31.6,73,0.0,1007.5,9.15,27.7,90,52.0,33.8,3,5,4,1,2026-04-14T13:22:19.738681+05:30
Thrissur,Kerala,10.5276,76.2144,34.5,59,0.0,1006.9,8.7,38.5,92,38.1,24.9,0,5,4,1,2026-04-14T13:22:19.738689+05:30
Kannur,Kerala,11.8745,75.3704,32.5,68,0.0,1006.9,9.15,30.6,94,49.5,34.9,3,5,4,1,2026-04-14T13:22:19.738696+05:30
Patna,Bihar,25.5941,85.1376,36.0,21,0.0,999.9,8.55,29.2,91,210.0,36.8,0,5,10,0,2026-04-14T13:22:19.738703+05:30
Gaya,Bihar,24.7914,85.0002,36.1,22,0.0,993.7,8.6,23.4,90,246.8,34.5,0,5,10,0,2026-04-14T13:22:19.738710+05:30
Muzaffarpur,Bihar,26.1209,85.3647,35.0,32,0.0,999.8,8.5,18.7,128,139.7,39.6,0,5,7,0,2026-04-14T13:22:19.738717+05:30
Bhagalpur,Bihar,25.2425,87.0117,34.0,38,0.0,1000.7,8.55,20.5,144,66.1,33.3,0,5,4,1,2026-04-14T13:22:19.738723+05:30
Ranchi,Jharkhand,23.3441,85.3096,34.7,19,0.0,939.1,9.1,36.0,101,108.7,20.4,0,5,7,0,2026-04-14T13:22:19.738729+05:30
Jamshedpur,Jharkhand,22.8046,86.2029,36.6,25,0.0,990.6,8.95,15.8,151,69.8,21.9,0,5,10,0,2026-04-14T13:22:19.738735+05:30
Dhanbad,Jharkhand,23.7957,86.4304,37.2,18,0.0,979.9,8.9,25.6,129,105.5,25.4,0,5,10,0,2026-04-14T13:22:19.738742+05:30
Bokaro,Jharkhand,23.6693,86.1511,37.3,18,0.0,983.7,8.9,32.8,127,137.4,31.0,0,5,10,0,2026-04-14T13:22:19.738748+05:30
Bhubaneswar,Odisha,20.2961,85.8245,34.5,64,0.0,1001.6,9.05,25.9,71,44.6,32.1,3,5,4,1,2026-04-14T13:22:19.738755+05:30
Cuttack,Odisha,20.4625,85.8828,36.3,55,0.0,1003.3,9.1,28.1,71,44.6,32.1,0,5,7,1,2026-04-14T13:22:19.738761+05:30
Rourkela,Odisha,22.2604,84.8536,38.8,19,0.0,984.8,8.85,21.2,108,87.5,20.8,0,5,10,0,2026-04-14T13:22:19.738767+05:30
Raipur,Chhattisgarh,21.2514,81.6296,40.1,21,0.0,974.3,8.9,17.6,146,117.8,39.3,0,5,10,0,2026-04-14T13:22:19.738773+05:30
Bhilai,Chhattisgarh,21.1938,81.3509,39.8,24,0.0,974.7,8.9,14.0,120,87.3,44.0,0,5,10,0,2026-04-14T13:22:19.738779+05:30
Guwahati,Assam,26.1158,91.7086,30.2,59,0.0,1001.2,8.5,30.6,130,60.8,39.0,0,5,4,1,2026-04-14T13:22:19.738785+05:30
Agartala,Tripura,23.8315,91.2868,32.5,61,0.0,1005.8,8.65,27.7,95,48.9,37.0,3,5,4,1,2026-04-14T13:22:19.738791+05:30
Shillong,Meghalaya,25.5788,91.8933,21.4,46,0.0,857.8,8.9,53.3,95,50.9,29.2,0,5,7,0,2026-04-14T13:22:19.738798+05:30
Imphal,Manipur,24.817,93.9368,23.6,70,0.0,924.3,8.8,68.4,126,64.0,34.0,3,5,7,1,2026-04-14T13:22:19.738825+05:30
Aizawl,Mizoram,23.7271,92.7176,26.9,50,0.0,894.8,8.95,47.9,100,60.8,36.7,4,5,7,0,2026-04-14T13:22:19.738834+05:30
Kohima,Nagaland,25.6701,94.1077,21.3,60,0.0,856.3,8.2,70.6,116,81.7,41.9,0,5,7,0,2026-04-14T13:22:19.738840+05:30
Gangtok,Sikkim,27.3314,88.6138,16.1,92,0.0,837.7,8.65,16.2,107,69.2,37.5,3,10,7,0,2026-04-14T13:22:19.738847+05:30
Siliguri,West Bengal,26.7271,88.3953,25.2,69,0.0,994.6,8.45,36.7,154,86.1,45.5,7,5,7,1,2026-04-14T13:22:22.997406+05:30
Durgapur,West Bengal,23.5204,87.3119,37.3,24,0.0,994.4,8.8,20.2,160,71.9,22.5,0,5,10,0,2026-04-14T13:22:22.997440+05:30
Asansol,West Bengal,23.6739,86.9524,37.1,23,0.0,993.1,8.85,21.6,125,84.3,20.5,0,5,10,0,2026-04-14T13:22:22.997453+05:30
Pondicherry,Puducherry,11.9139,79.8145,36.3,48,0.0,1008.3,9.3,27.0,39,16.2,11.8,0,0,7,1,2026-04-14T13:22:22.997463+05:30
Port Blair,Andaman and Nicobar Islands,11.6234,92.7265,29.3,74,0.0,1007.0,8.5,25.2,61,27.9,18.3,7,5,4,1,2026-04-14T13:22:22.997472+05:30
Haridwar,Uttarakhand,29.9457,78.1642,34.3,24,0.0,974.9,7.0,35.6,62,16.2,11.0,0,5,7,0,2026-04-14T13:22:22.997481+05:30
Rishikesh,Uttarakhand,30.0869,78.2676,33.2,27,0.0,967.8,7.1,37.4,50,14.0,7.7,0,5,7,0,2026-04-14T13:22:22.997489+05:30
Nainital,Uttarakhand,29.3919,79.4542,26.4,30,0.0,810.3,7.95,59.4,80,17.8,11.3,4,5,7,0,2026-04-14T13:22:22.997498+05:30
Mussoorie,Uttarakhand,30.4599,78.0664,24.0,38,0.0,806.5,7.5,43.6,57,15.4,9.7,0,5,7,0,2026-04-14T13:22:22.997506+05:30
Dharamshala,Himachal Pradesh,32.219,76.3234,25.8,41,0.0,871.9,7.75,25.6,71,15.4,5.7,4,5,7,0,2026-04-14T13:22:22.997514+05:30
Dalhousie,Himachal Pradesh,32.5387,75.971,24.3,31,0.0,807.6,8.0,22.3,61,16.8,8.7,0,5,7,0,2026-04-14T13:22:22.997523+05:30
Patiala,Punjab,30.3398,76.3869,35.5,20,0.0,979.2,7.1,33.5,267,451.7,44.6,0,5,10,0,2026-04-14T13:22:22.997529+05:30
Bhatinda,Punjab,30.211,74.9455,36.8,20,0.0,984.8,7.75,28.8,63,24.5,10.3,0,5,10,0,2026-04-14T13:22:22.997536+05:30
Rohtak,Haryana,28.8955,76.6066,37.2,17,0.0,982.7,7.3,25.9,343,178.8,28.8,0,5,10,0,2026-04-14T13:22:22.997543+05:30
Panipat,Haryana,29.3909,76.9635,36.4,20,0.0,981.4,7.1,32.0,683,532.7,53.6,0,5,10,0,2026-04-14T13:22:22.997550+05:30
Mathura,Uttar Pradesh,27.4924,77.6737,36.8,22,0.0,987.8,7.6,22.7,579,227.7,40.4,0,5,10,0,2026-04-14T13:22:22.997556+05:30
Vrindavan,Uttar Pradesh,27.5823,77.7027,36.5,22,0.0,988.2,7.55,20.5,579,227.7,40.4,0,5,10,0,2026-04-14T13:22:22.997563+05:30
Ayodhya,Uttar Pradesh,26.7922,82.1998,38.8,12,0.0,994.8,7.95,38.9,91,148.1,28.1,0,5,10,0,2026-04-14T13:22:22.997569+05:30
Ratlam,Madhya Pradesh,23.3315,75.0367,35.4,34,0.0,956.4,8.4,30.6,72,34.9,14.6,0,5,10,1,2026-04-14T13:22:22.997576+05:30
Sagar,Madhya Pradesh,23.8388,78.7378,39.1,14,0.0,951.5,8.55,27.7,96,78.9,14.8,0,5,10,0,2026-04-14T13:22:22.997582+05:30
Satna,Madhya Pradesh,24.6005,80.8322,38.9,14,0.0,972.3,8.6,27.7,90,109.9,17.5,0,5,10,0,2026-04-14T13:22:22.997589+05:30
Akola,Maharashtra,20.7002,77.0082,41.0,16,0.0,975.2,8.8,27.0,64,73.6,25.1,0,5,10,0,2026-04-14T13:22:22.997597+05:30
Amravati,Maharashtra,20.9374,77.7796,40.3,16,0.0,967.7,8.8,22.0,69,87.1,29.5,0,5,10,0,2026-04-14T13:22:22.997604+05:30
Latur,Maharashtra,18.4088,76.5604,37.4,22,0.0,941.1,9.05,30.2,75,22.7,16.3,0,5,10,0,2026-04-14T13:22:22.997611+05:30
Nanded,Maharashtra,19.1383,77.3091,39.7,21,0.0,968.9,8.95,19.8,71,24.2,13.1,0,5,10,0,2026-04-14T13:22:22.997618+05:30
Gulbarga,Karnataka,17.3297,76.8343,41.2,19,0.0,958.6,9.1,21.6,96,44.0,32.5,0,5,10,0,2026-04-14T13:22:22.997624+05:30
Bidar,Karnataka,17.9104,77.5199,39.3,20,0.0,936.4,9.1,24.1,124,47.0,35.4,0,5,10,0,2026-04-14T13:22:22.997630+05:30
Hospet,Karnataka,15.2689,76.3909,36.2,38,0.0,956.1,9.25,29.9,95,43.2,30.9,0,5,10,1,2026-04-14T13:22:22.997637+05:30
Tirupur,Tamil Nadu,11.1085,77.3411,38.1,31,0.0,975.3,9.35,29.2,75,23.2,16.5,0,5,10,1,2026-04-14T13:22:22.997643+05:30
Alappuzha,Kerala,9.4981,76.3388,29.6,82,0.0,1008.7,8.9,25.9,94,39.5,25.6,7,0,4,1,2026-04-14T13:22:22.997650+05:30
Munnar,Kerala,10.0889,77.0595,32.1,40,0.0,860.4,9.75,29.5,81,25.7,16.3,0,5,7,1,2026-04-14T13:22:22.997657+05:30
Silchar,Assam,24.8333,92.7789,28.6,73,0.0,1005.9,8.7,32.4,147,74.7,44.4,7,5,4,1,2026-04-14T13:22:22.997664+05:30
Dibrugarh,Assam,27.4728,94.912,26.5,65,0.0,996.2,8.55,20.5,96,62.9,28.5,7,5,7,1,2026-04-14T13:22:22.997670+05:30
