city,state,latitude,longitude,temp,humidity,rain,pressure,uv_index,wind_gusts,aqi,pm10,pm2_5,no2,co,o3,so2,mosquito_risk,arthritis_risk,migraine_risk,frizz_risk,updated_at
Delhi,Delhi,28.6139,77.209,39.1,31,0.0,977.9,7.8,42.5,524,750.6,113.4,3.7,262.0,154.0,9.7,0,5,10,1,2026-06-20T14:50:10.099827+05:30
Mumbai,Maharashtra,19.076,72.8777,32.9,55,0.0,1007.0,7.75,41.8,52,23.9,14.4,4.0,140.0,88.0,6.3,0,5,4,1,2026-06-20T14:50:10.099877+05:30
Bangalore,Karnataka,12.9716,77.5946,28.8,52,0.0,911.2,7.9,24.8,62,23.3,14.4,5.4,432.0,124.0,3.9,4,5,7,1,2026-06-20T14:50:10.099893+05:30
Hyderabad,Telangana,17.385,78.4867,36.5,34,0.0,951.0,8.3,39.6,67,26.0,18.5,2.9,249.0,136.0,6.1,0,5,10,1,2026-06-20T14:50:10.099904+05:30
Chennai,Tamil Nadu,13.0827,80.2707,33.4,65,0.0,1004.3,7.7,30.6,85,33.1,26.1,4.0,307.0,168.0,9.0,3,5,4,1,2026-06-20T14:50:10.099912+05:30
Kolkata,West Bengal,22.5726,88.3639,33.2,64,0.2,1000.6,8.35,36.4,163,36.4,31.1,2.9,322.0,144.0,7.1,6,5,4,1,2026-06-20T14:50:10.099920+05:30
Pune,Maharashtra,18.5204,73.8567,35.1,34,0.0,946.9,7.85,45.4,39,15.3,9.4,1.5,128.0,100.0,3.2,0,5,10,1,2026-06-20T14:50:10.099928+05:30
Ahmedabad,Gujarat,23.0225,72.5714,38.8,33,0.0,998.6,8.05,40.3,73,63.3,21.0,1.4,128.0,88.0,3.4,0,5,10,1,2026-06-20T14:50:10.099935+05:30
Jaipur,Rajasthan,26.9124,75.7873,35.8,39,0.1,956.8,8.2,48.6,133,147.6,40.5,1.5,142.0,93.0,2.6,3,5,10,1,2026-06-20T14:50:10.099942+05:30
Lucknow,Uttar Pradesh,26.8467,80.9462,39.9,31,0.0,987.0,8.35,42.8,159,344.6,74.7,1.2,191.0,131.0,5.9,0,5,10,1,2026-06-20T14:50:10.099953+05:30
Kanpur,Uttar Pradesh,26.4499,80.3319,40.3,29,0.0,985.8,8.3,42.5,220,322.2,64.5,1.3,158.0,125.0,5.5,0,5,10,1,2026-06-20T14:50:10.099960+05:30
Chandigarh,Chandigarh,30.7333,76.7794,36.3,35,0.0,964.0,7.8,36.4,150,38.8,28.3,2.1,304.0,165.0,7.4,0,5,10,1,2026-06-20T14:50:10.099968+05:30
Srinagar,Jammu and Kashmir,34.0837,74.7973,22.8,60,0.1,842.8,9.05,23.0,68,16.1,9.2,2.0,270.0,129.0,1.7,3,5,7,0,2026-06-20T14:50:10.099979+05:30
Jammu,Jammu and Kashmir,32.7266,74.857,37.1,24,0.0,968.9,8.6,36.7,100,26.3,16.5,1.5,237.0,149.0,2.1,0,5,10,0,2026-06-20T14:50:10.099986+05:30
Amritsar,Punjab,31.634,74.8723,35.8,40,0.0,976.5,8.45,25.9,160,49.1,35.5,2.2,356.0,191.0,9.4,0,5,10,1,2026-06-20T14:50:10.099993+05:30
Ludhiana,Punjab,30.901,75.8573,37.7,30,0.0,974.2,8.05,38.9,130,49.4,31.4,1.6,281.0,161.0,3.9,0,5,10,1,2026-06-20T14:50:10.100000+05:30
Jalandhar,Punjab,31.326,75.5762,37.3,32,0.0,975.2,8.2,35.3,150,74.7,34.6,1.7,299.0,176.0,5.7,0,5,10,1,2026-06-20T14:50:10.100007+05:30
Dehradun,Uttarakhand,30.6284,78.0322,25.0,58,0.0,830.7,8.25,28.4,91,36.0,25.4,1.2,249.0,158.0,3.6,4,5,7,1,2026-06-20T14:50:10.100014+05:30
Shimla,Himachal Pradesh,31.1048,77.1734,23.1,39,0.0,786.5,8.35,34.9,95,42.0,27.2,0.9,216.0,149.0,4.7,0,5,7,0,2026-06-20T14:50:10.100021+05:30
Manali,Himachal Pradesh,32.2396,77.1887,25.7,35,0.0,820.3,9.6,40.0,83,17.5,11.6,3.5,140.0,167.0,0.6,4,5,7,0,2026-06-20T14:50:10.100030+05:30
Gurgaon,Haryana,28.4595,77.0266,38.3,33,0.0,976.6,7.9,41.0,734,1404.4,178.8,3.7,228.0,151.0,9.1,0,5,10,1,2026-06-20T14:50:10.100037+05:30
Noida,Uttar Pradesh,28.5355,77.391,38.6,33,0.0,979.1,7.85,36.4,734,1404.4,178.8,3.7,266.0,151.0,9.1,0,5,10,1,2026-06-20T14:50:10.100043+05:30
Ghaziabad,Uttar Pradesh,28.6692,77.4538,37.5,37,0.0,977.5,7.85,40.7,406,581.1,97.6,3.0,218.0,164.0,11.0,0,5,10,1,2026-06-20T14:50:10.100050+05:30
Faridabad,Haryana,28.4089,77.3178,38.8,31,0.0,978.6,7.9,42.1,734,1404.4,178.8,3.7,220.0,151.0,9.1,0,5,10,1,2026-06-20T14:50:10.100057+05:30
Meerut,Uttar Pradesh,28.9845,77.7064,36.6,41,0.0,976.4,7.75,41.0,406,581.1,97.6,3.0,233.0,164.0,11.0,0,5,10,1,2026-06-20T14:50:10.100064+05:30
Agra,Uttar Pradesh,27.1767,78.0081,38.9,31,0.0,983.0,8.15,40.7,578,888.5,115.7,1.7,166.0,137.0,6.0,0,5,10,1,2026-06-20T14:50:10.100071+05:30
Varanasi,Uttar Pradesh,25.3176,82.9739,40.5,31,0.0,990.6,8.8,34.9,100,170.9,54.8,1.3,179.0,148.0,7.4,0,5,10,1,2026-06-20T14:50:10.100078+05:30
Prayagraj,Uttar Pradesh,25.4358,81.8463,41.0,29,0.0,989.4,8.75,34.9,110,173.2,51.6,1.3,150.0,140.0,6.8,0,5,10,1,2026-06-20T14:50:10.100086+05:30
Gorakhpur,Uttar Pradesh,26.7606,83.3732,37.3,44,0.0,990.1,8.7,36.7,158,145.8,69.8,2.0,283.0,202.0,10.5,0,5,10,1,2026-06-20T14:50:10.100093+05:30
Bareilly,Uttar Pradesh,28.367,79.4304,37.7,36,0.0,980.7,8.15,36.7,163,72.4,41.3,1.6,215.0,169.0,8.1,0,5,10,1,2026-06-20T14:50:10.100102+05:30
Aligarh,Uttar Pradesh,27.8974,78.088,37.8,36,0.0,980.6,8.0,44.6,477,864.3,124.8,2.4,190.0,182.0,12.3,0,5,10,1,2026-06-20T14:50:10.100108+05:30
Moradabad,Uttar Pradesh,28.8386,78.7733,37.1,39,0.0,978.0,7.95,44.6,174,52.2,32.2,1.9,246.0,159.0,6.9,0,5,10,1,2026-06-20T14:50:10.100114+05:30
Saharanpur,Uttar Pradesh,29.9637,77.546,36.0,37,0.0,970.5,7.55,37.1,161,163.4,45.3,2.1,302.0,168.0,9.4,0,5,10,1,2026-06-20T14:50:10.100121+05:30
Jhansi,Uttar Pradesh,25.4484,78.5685,36.0,40,0.2,974.3,7.85,47.5,71,117.3,35.7,0.9,124.0,101.0,3.6,3,5,10,1,2026-06-20T14:50:13.451361+05:30
Surat,Gujarat,21.1702,72.8311,34.0,53,0.0,1004.9,7.6,44.6,62,18.9,13.9,9.1,223.0,55.0,31.3,0,5,4,1,2026-06-20T14:50:13.451393+05:30
Vadodara,Gujarat,22.3072,73.1812,36.7,41,0.0,1001.3,8.05,43.6,62,39.1,18.0,1.6,130.0,94.0,3.5,0,5,7,1,2026-06-20T14:50:13.451404+05:30
Rajkot,Gujarat,22.3039,70.8022,37.8,36,0.0,991.0,7.55,51.5,65,71.2,22.8,0.9,104.0,87.0,2.8,0,5,10,1,2026-06-20T14:50:13.451412+05:30
Thane,Maharashtra,19.2183,72.9781,35.4,44,0.0,1005.9,7.7,41.4,52,23.9,14.4,4.0,140.0,88.0,6.3,0,5,7,1,2026-06-20T14:50:13.451419+05:30
Nagpur,Maharashtra,21.1458,79.0882,39.0,24,0.0,969.9,8.9,45.0,59,32.0,18.9,3.1,142.0,131.0,12.3,0,5,10,0,2026-06-20T14:50:13.451428+05:30
Nashik,Maharashtra,19.9975,73.7898,33.9,39,0.0,944.5,8.05,40.3,44,13.4,8.4,1.0,118.0,94.0,2.3,0,5,7,1,2026-06-20T14:50:13.451435+05:30
Aurangabad,Maharashtra,19.8762,75.3433,34.8,29,0.1,942.5,9.0,37.8,44,18.4,11.4,1.1,126.0,107.0,3.3,3,5,7,0,2026-06-20T14:50:13.451443+05:30
Solapur,Maharashtra,17.6599,75.9064,36.0,33,0.0,955.4,8.4,36.0,52,22.8,13.8,1.2,123.0,117.0,2.4,0,5,10,1,2026-06-20T14:50:13.451451+05:30
Kolhapur,Maharashtra,16.705,74.2433,34.1,37,0.0,947.0,8.3,45.7,47,19.8,11.3,1.4,119.0,93.0,1.5,0,5,7,1,2026-06-20T14:50:13.451459+05:30
Goa,Goa,15.2993,74.124,32.4,56,0.1,996.8,8.1,29.2,59,22.8,10.2,0.5,101.0,61.0,1.1,3,5,7,1,2026-06-20T14:50:13.451466+05:30
Jodhpur,Rajasthan,26.2389,73.0243,37.1,36,0.0,979.5,8.4,40.0,111,159.7,38.1,0.6,109.0,84.0,2.0,0,5,10,1,2026-06-20T14:50:13.451473+05:30
Udaipur,Rajasthan,24.5854,73.7125,32.6,47,0.0,944.9,8.8,36.0,77,55.1,21.2,0.6,108.0,83.0,2.4,0,5,7,1,2026-06-20T14:50:13.451481+05:30
Kota,Rajasthan,25.2138,75.8648,28.4,80,0.2,976.6,8.4,39.2,77,83.8,32.5,1.5,128.0,102.0,6.1,10,5,7,1,2026-06-20T14:50:13.451489+05:30
Bikaner,Rajasthan,28.0229,73.3119,37.4,38,0.0,977.9,8.45,47.9,114,185.8,50.8,0.3,114.0,75.0,1.6,0,5,10,1,2026-06-20T14:50:13.451496+05:30
Ajmer,Rajasthan,26.4499,74.6399,33.9,47,0.0,952.0,8.4,45.0,88,153.2,47.6,0.9,115.0,84.0,2.1,0,5,7,1,2026-06-20T14:50:13.451503+05:30
Gwalior,Madhya Pradesh,26.2183,78.1828,34.0,49,0.0,979.9,7.7,54.4,78,156.9,43.4,0.7,135.0,107.0,2.8,0,5,7,1,2026-06-20T14:50:13.451510+05:30
Indore,Madhya Pradesh,22.7196,75.8577,29.2,60,0.2,946.6,7.9,39.6,69,38.1,20.0,2.3,185.0,88.0,3.0,7,5,7,1,2026-06-20T14:50:13.451518+05:30
Bhopal,Madhya Pradesh,23.2599,77.4126,30.7,55,0.0,951.5,8.65,33.5,69,45.8,25.0,1.2,169.0,93.0,2.1,0,5,7,1,2026-06-20T14:50:13.451525+05:30
Jabalpur,Madhya Pradesh,23.1815,79.9864,36.7,33,0.0,958.0,8.35,31.0,65,33.5,18.1,0.8,150.0,112.0,3.1,0,5,10,1,2026-06-20T14:50:13.451532+05:30
Ujjain,Madhya Pradesh,23.1765,75.7885,33.4,44,0.1,951.4,8.55,41.8,70,53.6,25.7,1.0,158.0,92.0,3.6,3,5,7,1,2026-06-20T14:50:13.451539+05:30
Visakhapatnam,Andhra Pradesh,17.6868,83.2185,33.1,70,0.0,998.9,8.85,38.9,101,38.9,34.2,13.4,364.0,170.0,41.6,3,5,7,1,2026-06-20T14:50:13.451547+05:30
Vijayawada,Andhra Pradesh,16.5062,80.648,35.9,47,0.0,998.3,8.4,28.1,89,25.1,21.0,2.2,172.0,151.0,9.2,0,5,10,1,2026-06-20T14:50:13.451554+05:30
Guntur,Andhra Pradesh,16.3067,80.4365,33.8,54,0.0,999.8,8.35,29.9,83,26.7,20.0,1.9,175.0,140.0,6.7,0,5,7,1,2026-06-20T14:50:13.451562+05:30
Nellore,Andhra Pradesh,14.4426,79.9865,35.2,47,0.0,1002.8,7.45,30.2,70,29.3,22.4,3.7,154.0,151.0,6.5,0,5,7,1,2026-06-20T14:50:13.451570+05:30
Kurnool,Andhra Pradesh,15.8281,78.0373,36.1,38,0.0,974.3,5.9,31.7,66,29.0,19.1,1.6,142.0,128.0,8.0,0,5,6,1,2026-06-20T14:50:13.451578+05:30
Kakinada,Andhra Pradesh,16.9891,82.2475,37.0,45,0.0,1002.6,7.5,37.4,106,30.6,23.1,1.9,222.0,148.0,5.5,0,5,7,1,2026-06-20T14:50:13.451586+05:30
Tirupati,Andhra Pradesh,13.6288,79.4192,36.0,42,0.0,988.3,7.8,34.6,64,23.3,15.4,1.7,175.0,131.0,3.1,0,5,10,1,2026-06-20T14:50:13.451593+05:30
Warangal,Telangana,17.9689,79.5941,37.4,33,0.0,975.2,7.65,32.0,107,25.0,19.2,1.6,171.0,158.0,7.3,0,5,10,1,2026-06-20T14:50:13.451600+05:30
Nizamabad,Telangana,18.6725,78.0941,37.3,33,0.0,962.4,9.0,33.8,69,23.4,15.7,1.0,131.0,122.0,5.1,0,5,10,1,2026-06-20T14:50:13.451607+05:30
Mysore,Karnataka,12.2958,76.6396,30.2,42,0.0,927.9,8.1,36.7,58,44.9,17.6,2.1,147.0,98.0,1.6,0,5,7,0,2026-06-20T14:50:13.451614+05:30
Mangalore,Karnataka,12.9141,74.856,29.9,73,0.0,1006.2,7.65,34.9,78,13.9,8.1,1.0,116.0,56.0,1.3,7,5,4,1,2026-06-20T14:50:13.451621+05:30
Hubli-Dharwad,Karnataka,15.3647,75.124,32.6,35,0.0,940.4,8.3,44.3,46,32.9,12.8,1.2,113.0,87.0,0.9,0,5,7,0,2026-06-20T14:50:13.451629+05:30
Belgaum,Karnataka,15.8497,74.4977,30.8,45,0.0,925.4,8.55,38.9,50,24.0,11.8,1.2,114.0,85.0,1.8,0,5,7,1,2026-06-20T14:50:16.797537+05:30
Coimbatore,Tamil Nadu,11.0168,76.9558,33.2,43,0.0,960.8,8.05,42.1,54,41.3,18.0,1.5,156.0,99.0,2.5,0,5,7,1,2026-06-20T14:50:16.797569+05:30
Madurai,Tamil Nadu,9.9252,78.1198,35.4,40,0.0,990.9,8.65,32.0,60,30.4,16.5,2.2,197.0,126.0,2.3,0,5,10,1,2026-06-20T14:50:16.797580+05:30
Trichy,Tamil Nadu,10.7905,78.7047,35.5,44,0.0,997.1,8.45,33.5,57,28.1,16.4,1.7,146.0,127.0,2.6,0,5,10,1,2026-06-20T14:50:16.797588+05:30
Salem,Tamil Nadu,11.6643,78.146,33.2,50,0.0,975.8,8.2,22.0,69,22.2,14.5,2.8,203.0,138.0,8.3,0,5,7,1,2026-06-20T14:50:16.797596+05:30
Tirunelveli,Tamil Nadu,8.7139,77.7567,36.9,29,0.0,1000.7,8.65,25.9,61,33.6,14.3,1.3,130.0,85.0,1.1,0,5,7,0,2026-06-20T14:50:16.797605+05:30
Vellore,Tamil Nadu,12.9165,79.1325,30.8,65,0.0,982.7,7.75,32.0,75,22.0,16.3,2.0,184.0,140.0,3.5,3,5,7,1,2026-06-20T14:50:16.797612+05:30
Erode,Tamil Nadu,11.341,77.7172,34.4,43,0.0,987.2,8.25,27.0,63,30.3,16.1,2.1,176.0,120.0,2.1,0,5,7,1,2026-06-20T14:50:16.797620+05:30
Kochi,Kerala,9.9312,76.2673,29.3,76,0.0,1007.8,8.25,33.8,104,28.3,16.4,2.3,121.0,93.0,3.5,7,5,4,1,2026-06-20T14:50:16.797627+05:30
Thiruvananthapuram,Kerala,8.5241,76.9366,29.0,74,0.0,1007.4,8.2,32.8,61,23.3,12.5,1.0,109.0,79.0,1.4,7,5,4,1,2026-06-20T14:50:16.797635+05:30
Kozhikode,Kerala,11.2588,75.7804,30.1,70,0.0,1007.3,8.0,31.7,56,11.8,6.4,0.4,114.0,55.0,0.8,3,5,4,1,2026-06-20T14:50:16.797642+05:30
Thrissur,Kerala,10.5276,76.2144,30.4,69,0.0,1006.3,7.95,31.7,112,24.8,15.1,2.0,124.0,84.0,2.4,3,5,4,1,2026-06-20T14:50:16.797650+05:30
Kannur,Kerala,11.8745,75.3704,30.1,70,0.0,1006.8,7.8,30.2,75,13.3,7.9,1.1,98.0,60.0,1.2,3,5,4,1,2026-06-20T14:50:16.797657+05:30
Patna,Bihar,25.5941,85.1376,36.7,50,0.1,993.5,8.9,29.2,151,96.9,47.1,2.4,250.0,194.0,10.4,3,5,10,1,2026-06-20T14:50:16.797664+05:30
Gaya,Bihar,24.7914,85.0002,38.1,40,0.0,987.1,8.2,29.2,86,99.7,38.4,1.2,207.0,146.0,6.7,0,5,10,1,2026-06-20T14:50:16.797671+05:30
Muzaffarpur,Bihar,26.1209,85.3647,35.4,56,0.0,993.4,8.9,29.9,157,99.0,59.8,3.0,360.0,212.0,14.6,0,5,10,1,2026-06-20T14:50:16.797678+05:30
Bhagalpur,Bihar,25.2425,87.0117,36.2,52,0.0,994.0,8.85,26.6,155,92.4,53.8,3.7,226.0,193.0,17.4,0,5,10,1,2026-06-20T14:50:16.797684+05:30
Ranchi,Jharkhand,23.3441,85.3096,33.2,50,0.0,933.9,8.7,29.5,95,72.2,35.7,2.1,158.0,124.0,4.0,0,5,7,1,2026-06-20T14:50:16.797692+05:30
Jamshedpur,Jharkhand,22.8046,86.2029,33.4,61,0.0,985.8,8.65,32.8,140,53.9,38.8,2.9,210.0,190.0,18.0,3,5,7,1,2026-06-20T14:50:16.797698+05:30
Dhanbad,Jharkhand,23.7957,86.4304,34.7,52,0.0,974.1,9.0,25.9,155,72.9,45.5,8.5,183.0,183.0,35.4,0,5,7,1,2026-06-20T14:50:16.797705+05:30
Bokaro,Jharkhand,23.6693,86.1511,36.1,47,0.0,977.9,8.9,26.6,141,69.2,39.5,8.3,187.0,168.0,34.4,0,5,10,1,2026-06-20T14:50:16.797712+05:30
Bhubaneswar,Odisha,20.2961,85.8245,29.0,86,0.1,998.9,9.05,33.5,91,33.9,30.4,5.9,305.0,143.0,10.9,10,5,7,1,2026-06-20T14:50:16.797719+05:30
Cuttack,Odisha,20.4625,85.8828,28.6,91,0.2,1000.6,9.1,40.7,91,33.9,30.4,5.9,340.0,143.0,10.9,10,5,4,1,2026-06-20T14:50:16.797725+05:30
Rourkela,Odisha,22.2604,84.8536,33.5,58,0.0,980.5,8.85,29.9,123,36.6,29.0,2.6,188.0,156.0,12.5,0,5,7,1,2026-06-20T14:50:16.797732+05:30
Raipur,Chhattisgarh,21.2514,81.6296,38.4,28,0.0,970.7,8.25,32.8,91,26.6,19.8,4.0,121.0,140.0,18.9,0,5,10,1,2026-06-20T14:50:16.797739+05:30
Bhilai,Chhattisgarh,21.1938,81.3509,38.8,24,0.0,971.1,9.0,38.2,90,22.3,15.8,4.4,211.0,126.0,17.2,0,5,10,0,2026-06-20T14:50:16.797746+05:30
Guwahati,Assam,26.1158,91.7086,29.4,85,0.1,995.0,8.7,29.5,149,30.7,24.8,2.2,298.0,115.0,3.5,10,5,7,1,2026-06-20T14:50:16.797752+05:30
Agartala,Tripura,23.8315,91.2868,30.2,78,0.1,1000.8,7.9,37.8,89,43.5,37.1,3.6,169.0,164.0,6.5,6,5,4,1,2026-06-20T14:50:16.797759+05:30
Shillong,Meghalaya,25.5788,91.8933,23.6,77,0.1,854.4,6.3,29.9,81,10.8,8.6,2.7,218.0,104.0,2.2,6,5,7,1,2026-06-20T14:50:16.797766+05:30
Imphal,Manipur,24.817,93.9368,28.1,68,0.0,918.9,9.25,34.6,79,9.3,6.8,1.2,193.0,94.0,1.4,7,5,7,1,2026-06-20T14:50:16.797772+05:30
Aizawl,Mizoram,23.7271,92.7176,24.7,73,0.0,889.6,8.25,35.6,59,6.2,4.2,0.9,150.0,91.0,1.2,3,5,7,1,2026-06-20T14:50:16.797779+05:30
Kohima,Nagaland,25.6701,94.1077,22.3,91,0.1,852.2,9.05,27.7,61,6.3,4.7,1.2,187.0,91.0,1.4,6,5,7,1,2026-06-20T14:50:16.797786+05:30
Gangtok,Sikkim,27.3314,88.6138,20.5,93,0.2,834.3,7.95,31.0,93,10.1,8.7,1.9,301.0,142.0,4.8,6,5,7,1,2026-06-20T14:50:16.797793+05:30
Siliguri,West Bengal,26.7271,88.3953,28.2,82,0.1,986.7,8.7,23.8,157,40.0,31.8,2.4,429.0,159.0,12.3,10,5,7,1,2026-06-20T14:50:20.144264+05:30
Durgapur,West Bengal,23.5204,87.3119,33.1,68,0.0,989.3,8.95,33.8,162,86.4,73.3,9.6,366.0,246.0,51.5,3,5,7,1,2026-06-20T14:50:20.144302+05:30
Asansol,West Bengal,23.6739,86.9524,34.0,61,0.0,987.6,9.05,34.6,157,79.6,59.3,7.6,419.0,220.0,38.6,3,5,7,1,2026-06-20T14:50:20.144341+05:30
Pondicherry,Puducherry,11.9139,79.8145,31.0,83,0.1,1006.3,8.0,33.8,79,35.9,29.3,4.2,237.0,172.0,14.6,6,5,4,1,2026-06-20T14:50:20.144356+05:30
Port Blair,Andaman and Nicobar Islands,11.6234,92.7265,29.7,71,0.1,1006.9,8.75,35.3,28,29.1,13.1,0.3,102.0,48.0,0.5,10,5,4,1,2026-06-20T14:50:20.144367+05:30
Haridwar,Uttarakhand,29.9457,78.1642,36.3,39,0.0,968.6,7.65,29.9,156,50.5,32.9,1.5,317.0,169.0,8.2,0,5,10,1,2026-06-20T14:50:20.144379+05:30
Rishikesh,Uttarakhand,30.0869,78.2676,35.7,40,0.0,961.6,7.75,26.6,127,39.6,29.7,0.9,280.0,167.0,7.1,0,5,10,1,2026-06-20T14:50:20.144390+05:30
Nainital,Uttarakhand,29.3919,79.4542,23.2,59,0.0,806.0,6.75,28.8,135,60.1,35.9,1.3,265.0,173.0,8.2,0,5,7,0,2026-06-20T14:50:20.144401+05:30
Mussoorie,Uttarakhand,30.4599,78.0664,23.9,55,0.0,804.2,8.15,41.8,131,42.8,33.4,1.3,227.0,175.0,7.5,0,5,7,0,2026-06-20T14:50:20.144411+05:30
Dharamshala,Himachal Pradesh,32.219,76.3234,26.4,53,0.0,868.5,8.55,41.8,82,26.0,14.5,0.6,220.0,141.0,1.1,4,5,7,1,2026-06-20T14:50:20.144422+05:30
Dalhousie,Himachal Pradesh,32.5387,75.971,22.7,51,0.1,806.1,8.75,27.0,90,34.0,20.3,1.3,217.0,149.0,1.4,3,5,7,0,2026-06-20T14:50:20.144434+05:30
Patiala,Punjab,30.3398,76.3869,37.2,33,0.0,973.5,7.7,36.4,356,635.2,91.3,1.4,286.0,157.0,5.0,0,5,10,1,2026-06-20T14:50:20.144445+05:30
Bhatinda,Punjab,30.211,74.9455,37.1,37,0.0,979.6,8.3,27.4,140,67.1,35.3,2.0,234.0,161.0,10.1,0,5,10,1,2026-06-20T14:50:20.144455+05:30
Rohtak,Haryana,28.8955,76.6066,37.4,37,0.0,976.9,7.8,34.2,594,767.4,106.6,1.9,227.0,141.0,5.7,0,5,10,1,2026-06-20T14:50:20.144465+05:30
Panipat,Haryana,29.3909,76.9635,36.8,39,0.0,975.3,7.65,34.2,1374,2108.5,236.6,2.4,225.0,148.0,8.9,0,5,10,1,2026-06-20T14:50:20.144476+05:30
Mathura,Uttar Pradesh,27.4924,77.6737,37.8,35,0.0,981.8,8.1,36.7,280,901.5,119.2,1.7,157.0,135.0,5.4,0,5,10,1,2026-06-20T14:50:20.144486+05:30
Vrindavan,Uttar Pradesh,27.5823,77.7027,37.6,37,0.0,982.3,8.1,36.7,280,901.5,119.2,1.7,158.0,135.0,5.4,0,5,10,1,2026-06-20T14:50:20.144496+05:30
Ayodhya,Uttar Pradesh,26.7922,82.1998,38.1,44,0.0,988.3,8.45,34.2,154,314.8,86.1,1.2,249.0,155.0,9.9,0,5,10,1,2026-06-20T14:50:20.144506+05:30
Ratlam,Madhya Pradesh,23.3315,75.0367,33.0,47,0.0,952.8,8.3,39.6,69,51.9,24.3,0.8,118.0,91.0,3.4,0,5,7,1,2026-06-20T14:50:20.144517+05:30
Sagar,Madhya Pradesh,23.8388,78.7378,34.7,41,0.0,947.5,8.7,38.9,64,59.6,24.9,0.7,130.0,104.0,2.3,0,5,7,1,2026-06-20T14:50:20.144527+05:30
Satna,Madhya Pradesh,24.6005,80.8322,38.3,34,0.0,966.8,8.8,34.6,65,50.6,20.9,0.7,136.0,109.0,2.7,0,5,10,1,2026-06-20T14:50:20.144538+05:30
Akola,Maharashtra,20.7002,77.0082,38.5,29,0.0,972.4,8.85,41.8,50,22.6,13.5,1.3,117.0,112.0,5.1,0,5,10,1,2026-06-20T14:50:20.144549+05:30
Amravati,Maharashtra,20.9374,77.7796,37.7,25,0.0,964.8,8.85,41.8,52,23.5,14.0,1.5,117.0,115.0,5.8,0,5,10,0,2026-06-20T14:50:20.144560+05:30
Latur,Maharashtra,18.4088,76.5604,35.1,34,0.0,938.5,8.95,34.6,55,23.2,15.0,0.9,136.0,114.0,3.2,0,5,10,1,2026-06-20T14:50:20.144570+05:30
Nanded,Maharashtra,19.1383,77.3091,38.6,28,0.0,966.0,8.9,33.1,61,18.9,12.7,1.1,135.0,115.0,2.7,0,5,10,1,2026-06-20T14:50:20.144580+05:30
Gulbarga,Karnataka,17.3297,76.8343,36.5,32,0.0,956.8,8.4,38.2,57,23.9,15.3,1.5,136.0,123.0,3.2,0,5,10,1,2026-06-20T14:50:20.144590+05:30
Bidar,Karnataka,17.9104,77.5199,33.8,42,0.0,934.3,8.85,33.1,69,25.6,17.3,1.4,152.0,129.0,5.2,0,5,7,1,2026-06-20T14:50:20.144600+05:30
Hospet,Karnataka,15.2689,76.3909,32.5,45,0.0,954.6,8.5,40.7,52,27.0,13.6,1.5,132.0,101.0,2.4,0,5,7,1,2026-06-20T14:50:20.144610+05:30
Tirupur,Tamil Nadu,11.1085,77.3411,34.5,42,0.0,973.6,8.3,40.7,64,36.3,17.9,2.1,151.0,116.0,2.9,0,5,7,1,2026-06-20T14:50:20.144620+05:30
Alappuzha,Kerala,9.4981,76.3388,29.3,75,0.0,1007.9,8.45,32.8,77,23.2,13.3,2.2,108.0,78.0,2.4,7,5,4,1,2026-06-20T14:50:20.144630+05:30
Munnar,Kerala,10.0889,77.0595,22.1,69,0.0,857.6,8.75,28.8,47,50.5,17.4,0.9,114.0,83.0,1.4,3,5,7,1,2026-06-20T14:50:20.144640+05:30
Silchar,Assam,24.8333,92.7789,31.1,72,0.1,999.4,7.65,34.2,95,16.9,13.1,1.8,213.0,97.0,2.7,6,5,7,1,2026-06-20T14:50:20.144651+05:30
Dibrugarh,Assam,27.4728,94.912,30.5,73,0.1,988.8,8.45,27.7,76,61.9,37.6,1.5,247.0,140.0,3.9,6,5,7,1,2026-06-20T14:50:20.144661+05:30
