city,state,latitude,longitude,temp,humidity,rain,pressure,uv_index,wind_gusts,aqi,pm10,pm2_5,no2,co,o3,so2,mosquito_risk,arthritis_risk,migraine_risk,frizz_risk,updated_at
Delhi,Delhi,28.6139,77.209,23.8,75,0.0,985.3,7.45,45.7,179,57.7,26.8,14.9,591.0,107.0,14.2,3,5,7,1,2026-05-04T23:47:04.641236+05:30
Mumbai,Maharashtra,19.076,72.8777,29.1,73,0.0,1008.5,7.85,44.6,60,40.6,16.6,9.2,205.0,64.0,19.3,7,0,4,1,2026-05-04T23:47:04.641284+05:30
Bangalore,Karnataka,12.9716,77.5946,24.5,65,0.0,912.6,9.5,32.8,82,49.9,27.5,22.0,336.0,87.0,7.8,3,5,7,1,2026-05-04T23:47:04.641301+05:30
Hyderabad,Telangana,17.385,78.4867,29.3,49,0.0,953.0,9.25,35.3,84,39.2,28.1,12.0,375.0,105.0,8.8,4,5,7,1,2026-05-04T23:47:04.641312+05:30
Chennai,Tamil Nadu,13.0827,80.2707,29.6,82,0.0,1007.2,9.15,42.1,69,27.9,20.5,4.8,214.0,106.0,3.7,7,5,4,1,2026-05-04T23:47:04.641331+05:30
Kolkata,West Bengal,22.5726,88.3639,25.4,92,0.0,1009.2,8.9,28.1,78,54.6,48.8,33.9,357.0,21.0,13.1,7,0,4,1,2026-05-04T23:47:04.641341+05:30
Pune,Maharashtra,18.5204,73.8567,24.1,85,0.0,948.4,8.45,51.8,55,20.8,10.7,10.0,255.0,55.0,9.1,3,5,7,1,2026-05-04T23:47:04.641349+05:30
Ahmedabad,Gujarat,23.0225,72.5714,29.7,73,0.0,1000.1,8.05,42.5,65,33.4,20.1,16.8,199.0,48.0,12.3,7,5,4,1,2026-05-04T23:47:04.641360+05:30
Jaipur,Rajasthan,26.9124,75.7873,25.4,53,0.0,961.0,8.05,35.3,193,367.9,72.6,5.4,334.0,127.0,5.6,4,5,7,0,2026-05-04T23:47:04.641369+05:30
Lucknow,Uttar Pradesh,26.8467,80.9462,23.9,81,0.0,996.4,8.05,45.0,116,46.3,37.5,12.9,470.0,102.0,10.4,3,5,7,1,2026-05-04T23:47:04.641377+05:30
Kanpur,Uttar Pradesh,26.4499,80.3319,24.6,81,0.0,994.2,8.05,52.9,230,81.0,40.0,9.6,424.0,110.0,9.6,3,5,7,1,2026-05-04T23:47:04.641384+05:30
Chandigarh,Chandigarh,30.7333,76.7794,21.8,56,0.0,971.3,7.5,45.7,90,56.1,31.9,24.9,805.0,62.0,5.2,0,5,7,0,2026-05-04T23:47:04.641392+05:30
Srinagar,Jammu and Kashmir,34.0837,74.7973,11.0,91,0.0,843.3,6.3,27.4,66,42.4,32.8,19.1,692.0,81.0,3.3,3,10,7,0,2026-05-04T23:47:04.641401+05:30
Jammu,Jammu and Kashmir,32.7266,74.857,20.6,68,0.0,975.3,8.2,51.8,95,95.9,55.5,42.6,451.0,33.0,6.7,3,5,7,0,2026-05-04T23:47:04.641408+05:30
Amritsar,Punjab,31.634,74.8723,22.8,59,0.0,983.4,8.1,55.4,117,97.8,33.5,5.7,385.0,113.0,4.9,0,5,7,0,2026-05-04T23:47:04.641416+05:30
Ludhiana,Punjab,30.901,75.8573,23.0,60,0.0,981.1,7.7,51.1,130,48.7,33.8,12.0,470.0,94.0,6.2,0,5,7,0,2026-05-04T23:47:04.641423+05:30
Jalandhar,Punjab,31.326,75.5762,21.0,67,0.0,982.3,7.9,51.8,127,56.2,37.0,11.3,399.0,96.0,9.1,3,5,7,0,2026-05-04T23:47:04.641430+05:30
Dehradun,Uttarakhand,30.6284,78.0322,10.1,93,0.0,830.3,7.05,35.6,62,47.1,18.3,28.7,186.0,66.0,1.1,3,10,7,0,2026-05-04T23:47:04.641440+05:30
Shimla,Himachal Pradesh,31.1048,77.1734,7.3,91,0.0,782.2,7.2,33.5,69,42.0,18.7,19.5,295.0,80.0,1.2,3,10,7,0,2026-05-04T23:47:04.641448+05:30
Manali,Himachal Pradesh,32.2396,77.1887,8.1,46,0.0,816.6,9.0,34.2,112,30.3,13.2,11.9,282.0,130.0,1.0,0,5,7,1,2026-05-04T23:47:04.641456+05:30
Gurgaon,Haryana,28.4595,77.0266,24.2,70,0.0,983.6,7.6,45.7,1207,156.5,46.1,19.8,570.0,98.0,16.3,3,5,7,1,2026-05-04T23:47:04.641464+05:30
Noida,Uttar Pradesh,28.5355,77.391,23.2,76,0.0,986.7,7.5,43.2,1207,156.5,46.1,19.8,521.0,98.0,16.3,3,5,7,1,2026-05-04T23:47:04.641471+05:30
Ghaziabad,Uttar Pradesh,28.6692,77.4538,23.5,74,0.0,985.0,7.45,45.7,125,45.6,22.4,6.4,396.0,114.0,7.9,3,5,7,1,2026-05-04T23:47:04.641478+05:30
Faridabad,Haryana,28.4089,77.3178,23.5,76,0.0,986.1,7.55,49.0,1207,156.5,46.1,19.8,539.0,98.0,16.3,3,5,7,1,2026-05-04T23:47:04.641486+05:30
Meerut,Uttar Pradesh,28.9845,77.7064,22.8,79,0.0,984.0,7.35,58.7,125,45.6,22.4,6.4,480.0,114.0,7.9,3,5,7,1,2026-05-04T23:47:04.641493+05:30
Agra,Uttar Pradesh,27.1767,78.0081,25.5,69,0.0,989.7,7.7,56.2,1033,510.4,102.2,21.5,483.0,72.0,15.2,7,5,7,1,2026-05-04T23:47:04.641500+05:30
Varanasi,Uttar Pradesh,25.3176,82.9739,24.2,89,0.0,1000.2,8.65,44.3,164,64.7,57.0,15.3,540.0,115.0,19.3,3,5,4,1,2026-05-04T23:47:04.641507+05:30
Prayagraj,Uttar Pradesh,25.4358,81.8463,25.5,79,0.0,998.3,8.5,56.9,159,59.8,53.8,13.2,503.0,121.0,18.8,7,5,7,1,2026-05-04T23:47:04.641517+05:30
Gorakhpur,Uttar Pradesh,26.7606,83.3732,22.7,83,0.0,1001.0,8.45,43.9,105,44.9,37.3,12.3,453.0,102.0,8.4,3,5,4,1,2026-05-04T23:47:04.641524+05:30
Bareilly,Uttar Pradesh,28.367,79.4304,22.7,79,0.0,989.9,6.85,58.3,84,43.4,34.3,19.5,639.0,67.0,6.1,3,5,7,1,2026-05-04T23:47:04.641533+05:30
Aligarh,Uttar Pradesh,27.8974,78.088,24.2,74,0.0,987.8,7.7,54.0,500,373.5,72.4,9.5,502.0,105.0,13.4,3,5,7,1,2026-05-04T23:47:04.641540+05:30
Moradabad,Uttar Pradesh,28.8386,78.7733,22.5,74,0.0,986.8,7.25,51.1,93,56.8,29.3,12.9,880.0,98.0,9.2,3,5,7,1,2026-05-04T23:47:04.641547+05:30
Saharanpur,Uttar Pradesh,29.9637,77.546,21.6,62,0.0,978.5,7.1,56.9,108,52.9,35.7,17.3,415.0,81.0,8.5,3,5,7,0,2026-05-04T23:47:04.641554+05:30
Jhansi,Uttar Pradesh,25.4484,78.5685,26.9,61,0.0,979.2,8.3,50.8,136,88.2,37.5,3.3,332.0,130.0,8.6,7,5,7,1,2026-05-04T23:47:07.976497+05:30
Surat,Gujarat,21.1702,72.8311,29.1,75,0.0,1005.8,7.7,50.0,62,42.8,19.0,15.3,217.0,56.0,25.7,7,5,4,1,2026-05-04T23:47:07.976532+05:30
Vadodara,Gujarat,22.3072,73.1812,29.0,74,0.0,1002.9,8.05,43.2,58,34.3,16.6,14.4,224.0,51.0,20.0,7,5,4,1,2026-05-04T23:47:07.976543+05:30
Rajkot,Gujarat,22.3039,70.8022,27.6,75,0.0,992.1,7.7,40.3,53,33.2,14.8,3.2,157.0,67.0,2.8,7,5,7,1,2026-05-04T23:47:07.976552+05:30
Thane,Maharashtra,19.2183,72.9781,29.1,71,0.0,1007.9,7.85,41.4,60,40.6,16.6,9.2,201.0,64.0,19.3,7,5,4,1,2026-05-04T23:47:07.976560+05:30
Nagpur,Maharashtra,21.1458,79.0882,32.5,18,0.0,971.4,8.9,49.7,65,68.2,42.3,33.2,446.0,52.0,19.5,0,5,7,0,2026-05-04T23:47:07.976568+05:30
Nashik,Maharashtra,19.9975,73.7898,23.8,87,0.0,945.4,8.15,48.2,58,28.8,14.1,10.8,202.0,60.0,12.4,3,5,7,1,2026-05-04T23:47:07.976575+05:30
Aurangabad,Maharashtra,19.8762,75.3433,28.1,52,0.0,943.9,9.05,38.9,57,29.3,14.7,7.2,180.0,79.0,9.3,4,5,7,1,2026-05-04T23:47:07.976583+05:30
Solapur,Maharashtra,17.6599,75.9064,31.0,28,0.0,956.3,9.05,38.2,54,26.8,13.3,5.1,199.0,77.0,3.4,0,5,7,0,2026-05-04T23:47:07.976591+05:30
Kolhapur,Maharashtra,16.705,74.2433,23.3,92,0.0,947.9,8.9,46.1,57,24.9,13.9,8.6,195.0,51.0,2.8,3,5,7,1,2026-05-04T23:47:07.976598+05:30
Goa,Goa,15.2993,74.124,28.0,81,0.0,998.5,8.9,35.3,65,46.1,21.0,6.0,211.0,57.0,1.9,7,5,7,1,2026-05-04T23:47:07.976605+05:30
Jodhpur,Rajasthan,26.2389,73.0243,29.2,40,0.0,981.4,8.25,54.4,91,140.2,29.6,7.2,231.0,91.0,4.2,4,5,7,0,2026-05-04T23:47:07.976612+05:30
Udaipur,Rajasthan,24.5854,73.7125,23.9,70,0.0,945.4,8.75,44.6,75,77.5,29.8,8.8,344.0,103.0,8.3,3,5,7,1,2026-05-04T23:47:07.976620+05:30
Kota,Rajasthan,25.2138,75.8648,27.1,56,0.0,978.8,8.25,36.7,86,47.8,30.0,5.1,302.0,114.0,8.5,4,5,7,1,2026-05-04T23:47:07.976627+05:30
Bikaner,Rajasthan,28.0229,73.3119,28.2,36,0.0,981.1,8.1,55.1,119,119.0,45.1,3.2,205.0,122.0,6.4,4,5,7,0,2026-05-04T23:47:07.976634+05:30
Ajmer,Rajasthan,26.4499,74.6399,25.4,59,0.0,954.8,8.2,45.7,73,75.4,33.8,3.4,258.0,128.0,4.9,4,5,7,1,2026-05-04T23:47:07.976641+05:30
Gwalior,Madhya Pradesh,26.2183,78.1828,27.8,55,0.0,984.5,8.1,52.9,123,241.2,52.7,4.1,338.0,128.0,6.8,4,5,7,1,2026-05-04T23:47:07.976648+05:30
Indore,Madhya Pradesh,22.7196,75.8577,27.7,46,0.0,947.3,8.6,37.1,57,44.1,26.1,12.2,323.0,78.0,8.4,4,5,7,0,2026-05-04T23:47:07.976655+05:30
Bhopal,Madhya Pradesh,23.2599,77.4126,26.8,52,0.0,953.5,8.65,62.6,52,26.5,18.0,8.0,255.0,65.0,5.2,4,5,7,0,2026-05-04T23:47:07.976661+05:30
Jabalpur,Madhya Pradesh,23.1815,79.9864,29.4,38,0.0,960.9,8.85,32.4,59,34.5,23.9,10.0,206.0,116.0,10.0,4,5,7,0,2026-05-04T23:47:07.976668+05:30
Ujjain,Madhya Pradesh,23.1765,75.7885,27.0,50,0.0,953.0,8.55,54.0,57,38.9,21.8,4.1,315.0,92.0,4.9,4,5,7,0,2026-05-04T23:47:07.976675+05:30
Visakhapatnam,Andhra Pradesh,17.6868,83.2185,26.5,97,0.0,1004.8,8.05,32.4,85,30.4,22.6,20.1,1382.0,70.0,3.5,7,5,4,1,2026-05-04T23:47:07.976683+05:30
Vijayawada,Andhra Pradesh,16.5062,80.648,29.0,82,0.0,1002.8,9.1,34.9,88,22.1,17.9,5.8,207.0,87.0,5.1,7,5,4,1,2026-05-04T23:47:07.976690+05:30
Guntur,Andhra Pradesh,16.3067,80.4365,29.0,85,0.0,1003.8,9.15,41.4,88,23.3,18.3,5.4,198.0,89.0,4.6,7,5,4,1,2026-05-04T23:47:07.976697+05:30
Nellore,Andhra Pradesh,14.4426,79.9865,29.1,74,0.0,1005.4,9.15,36.0,82,23.4,17.8,4.2,199.0,95.0,4.9,7,5,4,1,2026-05-04T23:47:07.976705+05:30
Kurnool,Andhra Pradesh,15.8281,78.0373,30.6,41,0.0,975.9,9.15,31.3,72,44.4,25.4,10.5,246.0,88.0,5.6,0,5,7,0,2026-05-04T23:47:07.976712+05:30
Kakinada,Andhra Pradesh,16.9891,82.2475,27.3,97,0.0,1008.3,9.1,32.8,78,26.7,18.6,1.6,278.0,95.0,1.2,7,0,4,1,2026-05-04T23:47:07.976719+05:30
Tirupati,Andhra Pradesh,13.6288,79.4192,29.1,63,0.0,991.1,9.3,49.0,99,31.0,26.7,13.4,319.0,94.0,9.0,7,5,7,1,2026-05-04T23:47:07.976727+05:30
Warangal,Telangana,17.9689,79.5941,28.7,68,0.0,978.6,9.15,34.6,92,42.4,34.7,8.9,276.0,115.0,13.2,7,5,7,1,2026-05-04T23:47:07.976734+05:30
Nizamabad,Telangana,18.6725,78.0941,30.0,25,0.0,963.5,9.1,32.4,80,56.1,38.1,22.9,298.0,58.0,6.7,4,5,7,0,2026-05-04T23:47:07.976757+05:30
Mysore,Karnataka,12.2958,76.6396,23.8,87,0.0,929.0,9.4,37.1,65,27.0,17.5,11.7,208.0,63.0,2.8,3,5,7,1,2026-05-04T23:47:07.976764+05:30
Mangalore,Karnataka,12.9141,74.856,29.1,73,0.0,1007.5,9.05,45.4,68,44.9,16.9,3.2,213.0,61.0,1.7,7,5,4,1,2026-05-04T23:47:07.976770+05:30
Hubli-Dharwad,Karnataka,15.3647,75.124,23.6,89,0.0,941.0,9.15,53.6,54,26.1,13.6,6.8,188.0,54.0,2.0,3,5,7,1,2026-05-04T23:47:07.976777+05:30
Belgaum,Karnataka,15.8497,74.4977,21.7,98,0.0,925.3,9.15,49.0,56,27.9,15.7,9.6,167.0,43.0,2.1,3,5,7,1,2026-05-04T23:47:11.302490+05:30
Coimbatore,Tamil Nadu,11.0168,76.9558,25.0,87,0.0,962.3,9.35,47.2,66,27.6,14.9,9.1,248.0,67.0,4.0,7,5,7,1,2026-05-04T23:47:11.302525+05:30
Madurai,Tamil Nadu,9.9252,78.1198,26.9,84,0.0,993.1,7.9,44.3,97,32.0,25.2,13.4,283.0,86.0,5.0,7,5,7,1,2026-05-04T23:47:11.302536+05:30
Trichy,Tamil Nadu,10.7905,78.7047,25.9,89,0.0,1000.4,9.25,43.6,89,34.5,27.0,8.9,256.0,108.0,5.8,7,5,4,1,2026-05-04T23:47:11.302545+05:30
Salem,Tamil Nadu,11.6643,78.146,25.5,79,0.0,978.0,9.25,55.4,103,43.2,29.3,9.8,267.0,107.0,6.6,7,5,7,1,2026-05-04T23:47:11.302553+05:30
Tirunelveli,Tamil Nadu,8.7139,77.7567,28.6,68,0.0,1003.6,8.15,36.4,75,45.1,23.9,11.1,275.0,47.0,3.0,7,5,4,1,2026-05-04T23:47:11.302561+05:30
Vellore,Tamil Nadu,12.9165,79.1325,29.8,57,0.0,984.6,9.0,50.8,108,42.0,33.1,8.3,278.0,113.0,7.6,4,5,7,1,2026-05-04T23:47:11.302569+05:30
Erode,Tamil Nadu,11.341,77.7172,28.5,66,0.0,989.7,9.25,51.1,74,26.6,19.6,12.3,227.0,74.0,2.3,7,5,7,1,2026-05-04T23:47:11.302576+05:30
Kochi,Kerala,9.9312,76.2673,25.8,92,0.0,1009.9,9.05,29.9,99,38.6,22.7,14.8,298.0,51.0,4.1,7,0,4,1,2026-05-04T23:47:11.302584+05:30
Thiruvananthapuram,Kerala,8.5241,76.9366,24.1,94,0.0,1009.5,7.95,43.6,72,53.8,20.3,4.0,338.0,67.0,2.1,3,0,4,1,2026-05-04T23:47:11.302591+05:30
Kozhikode,Kerala,11.2588,75.7804,23.8,98,0.0,1009.7,9.0,38.5,67,48.0,16.8,1.6,346.0,71.0,0.7,3,0,4,1,2026-05-04T23:47:11.302597+05:30
Thrissur,Kerala,10.5276,76.2144,24.5,96,0.0,1008.6,8.75,37.1,91,34.7,22.6,14.2,255.0,45.0,2.8,3,0,4,1,2026-05-04T23:47:11.302606+05:30
Kannur,Kerala,11.8745,75.3704,29.1,76,0.0,1007.6,9.0,46.8,67,46.6,18.0,6.3,276.0,49.0,1.4,7,5,4,1,2026-05-04T23:47:11.302613+05:30
Patna,Bihar,25.5941,85.1376,23.4,93,0.0,1003.0,8.7,45.4,140,60.8,53.6,12.6,353.0,121.0,13.7,3,5,4,1,2026-05-04T23:47:11.302620+05:30
Gaya,Bihar,24.7914,85.0002,24.1,83,0.0,996.0,8.8,46.4,167,58.1,53.8,7.9,414.0,176.0,28.8,3,5,7,1,2026-05-04T23:47:11.302628+05:30
Muzaffarpur,Bihar,26.1209,85.3647,22.8,94,0.0,1003.9,8.7,47.5,107,54.2,46.6,15.9,407.0,92.0,12.5,3,5,4,1,2026-05-04T23:47:11.302634+05:30
Bhagalpur,Bihar,25.2425,87.0117,23.1,95,0.0,1003.8,8.7,36.7,116,45.3,40.6,12.5,294.0,112.0,11.9,3,5,4,1,2026-05-04T23:47:11.302641+05:30
Ranchi,Jharkhand,23.3441,85.3096,21.1,86,0.0,939.5,9.25,34.6,154,45.9,37.1,6.4,322.0,148.0,14.5,3,5,7,1,2026-05-04T23:47:11.302648+05:30
Jamshedpur,Jharkhand,22.8046,86.2029,23.8,94,0.0,993.5,9.05,44.6,104,36.0,28.1,13.3,538.0,72.0,12.0,3,5,7,1,2026-05-04T23:47:11.302654+05:30
Dhanbad,Jharkhand,23.7957,86.4304,23.9,94,0.0,983.1,9.0,38.5,152,78.5,67.5,57.7,567.0,36.0,76.1,3,5,7,1,2026-05-04T23:47:11.302660+05:30
Bokaro,Jharkhand,23.6693,86.1511,23.5,97,0.0,987.0,9.0,37.4,155,84.1,74.3,50.8,1037.0,56.0,81.1,3,5,7,1,2026-05-04T23:47:11.302667+05:30
Bhubaneswar,Odisha,20.2961,85.8245,25.9,90,0.0,1005.5,9.1,39.6,67,18.5,14.7,7.0,211.0,66.0,3.0,7,5,4,1,2026-05-04T23:47:11.302673+05:30
Cuttack,Odisha,20.4625,85.8828,25.4,96,0.1,1007.7,9.15,38.5,67,18.5,14.7,7.0,224.0,66.0,3.0,10,5,4,1,2026-05-04T23:47:11.302680+05:30
Rourkela,Odisha,22.2604,84.8536,24.5,89,0.0,987.2,8.95,34.6,118,47.0,35.2,8.4,506.0,126.0,28.5,3,5,7,1,2026-05-04T23:47:11.302687+05:30
Raipur,Chhattisgarh,21.2514,81.6296,29.6,44,0.0,974.6,9.0,53.6,99,48.9,34.7,10.8,270.0,103.0,5.5,4,5,7,1,2026-05-04T23:47:11.302693+05:30
Bhilai,Chhattisgarh,21.1938,81.3509,29.2,50,0.0,974.8,9.0,49.3,106,51.8,37.8,20.1,269.0,85.0,6.8,4,5,7,1,2026-05-04T23:47:11.302699+05:30
Guwahati,Assam,26.1158,91.7086,21.9,91,0.0,1006.7,8.65,34.9,82,27.6,23.3,11.5,330.0,59.0,2.1,3,5,4,1,2026-05-04T23:47:11.302706+05:30
Agartala,Tripura,23.8315,91.2868,23.0,95,0.0,1010.3,8.85,33.1,65,46.0,37.8,21.6,321.0,49.0,2.3,3,0,4,1,2026-05-04T23:47:11.302712+05:30
Shillong,Meghalaya,25.5788,91.8933,13.2,93,0.0,858.4,9.05,31.7,58,18.9,16.2,9.8,340.0,69.0,0.5,3,10,7,0,2026-05-04T23:47:11.302719+05:30
Imphal,Manipur,24.817,93.9368,17.0,93,0.0,926.0,6.85,27.0,92,58.9,51.7,34.5,597.0,37.0,2.0,3,10,7,0,2026-05-04T23:47:11.302725+05:30
Aizawl,Mizoram,23.7271,92.7176,16.5,93,0.0,894.6,8.45,27.0,48,29.5,20.9,13.8,328.0,20.0,0.5,3,10,7,0,2026-05-04T23:47:11.302732+05:30
Kohima,Nagaland,25.6701,94.1077,12.6,97,0.0,855.8,8.9,26.6,70,24.9,20.4,18.3,266.0,32.0,1.1,3,10,7,0,2026-05-04T23:47:11.302756+05:30
Gangtok,Sikkim,27.3314,88.6138,12.7,93,0.1,839.1,7.8,44.6,59,21.3,16.5,11.0,367.0,102.0,1.1,6,10,7,0,2026-05-04T23:47:11.302763+05:30
Siliguri,West Bengal,26.7271,88.3953,21.2,95,0.2,997.4,8.55,31.7,85,44.1,34.8,17.6,328.0,95.0,4.3,6,5,7,1,2026-05-04T23:47:14.642313+05:30
Durgapur,West Bengal,23.5204,87.3119,24.4,89,0.0,998.9,8.95,40.7,132,65.9,59.5,35.8,464.0,59.0,41.0,3,5,7,1,2026-05-04T23:47:14.642347+05:30
Asansol,West Bengal,23.6739,86.9524,24.1,88,0.0,997.4,8.95,33.5,142,73.3,62.9,42.6,330.0,49.0,58.3,3,5,7,1,2026-05-04T23:47:14.642359+05:30
Pondicherry,Puducherry,11.9139,79.8145,25.5,92,0.0,1009.2,8.4,43.6,78,27.2,18.1,6.5,312.0,83.0,4.7,7,0,4,1,2026-05-04T23:47:14.642369+05:30
Port Blair,Andaman and Nicobar Islands,11.6234,92.7265,27.2,82,0.0,1008.4,9.1,34.2,24,9.0,6.6,0.3,186.0,55.0,0.2,7,0,4,1,2026-05-04T23:47:14.642378+05:30
Haridwar,Uttarakhand,29.9457,78.1642,20.0,72,0.0,977.0,6.25,43.9,101,74.0,41.7,21.9,264.0,75.0,7.8,3,5,7,0,2026-05-04T23:47:14.642386+05:30
Rishikesh,Uttarakhand,30.0869,78.2676,17.9,81,0.0,969.6,6.2,41.8,88,62.4,28.6,17.5,300.0,72.0,2.6,3,10,7,0,2026-05-04T23:47:14.642394+05:30
Nainital,Uttarakhand,29.3919,79.4542,10.2,81,0.0,805.4,7.8,43.9,78,20.9,15.7,13.6,286.0,68.0,2.5,3,10,7,0,2026-05-04T23:47:14.642401+05:30
Mussoorie,Uttarakhand,30.4599,78.0664,8.5,90,0.0,801.3,6.75,42.8,86,84.8,40.6,37.4,234.0,55.0,12.8,3,10,7,0,2026-05-04T23:47:14.642408+05:30
Dharamshala,Himachal Pradesh,32.219,76.3234,16.5,49,0.0,870.4,8.1,39.2,72,32.7,12.7,9.6,268.0,83.0,0.6,0,5,7,0,2026-05-04T23:47:14.642415+05:30
Dalhousie,Himachal Pradesh,32.5387,75.971,8.4,84,0.0,802.5,8.25,38.2,79,103.8,37.7,32.7,546.0,70.0,4.0,3,10,7,0,2026-05-04T23:47:14.642422+05:30
Patiala,Punjab,30.3398,76.3869,23.1,57,0.0,980.8,7.4,52.6,180,43.8,27.9,8.5,307.0,98.0,5.0,0,5,7,0,2026-05-04T23:47:14.642429+05:30
Bhatinda,Punjab,30.211,74.9455,24.0,55,0.0,985.6,8.0,47.5,493,148.5,38.9,6.5,307.0,116.0,8.0,0,5,7,0,2026-05-04T23:47:14.642436+05:30
Rohtak,Haryana,28.8955,76.6066,24.6,63,0.0,984.2,7.5,51.1,637,65.9,29.9,15.1,412.0,105.0,16.3,3,5,7,1,2026-05-04T23:47:14.642442+05:30
Panipat,Haryana,29.3909,76.9635,23.0,62,0.0,983.0,7.35,46.1,1035,39.5,21.7,5.8,407.0,118.0,6.6,3,5,7,0,2026-05-04T23:47:14.642449+05:30
Mathura,Uttar Pradesh,27.4924,77.6737,25.2,69,0.0,988.7,7.8,52.2,860,336.2,75.0,10.8,410.0,106.0,9.8,7,5,7,1,2026-05-04T23:47:14.642456+05:30
Vrindavan,Uttar Pradesh,27.5823,77.7027,25.4,68,0.0,989.2,7.8,51.1,860,336.2,75.0,10.8,418.0,106.0,9.8,7,5,7,1,2026-05-04T23:47:14.642463+05:30
Ayodhya,Uttar Pradesh,26.7922,82.1998,23.1,81,0.0,998.9,7.55,48.2,105,48.2,38.5,13.0,414.0,99.0,7.8,3,5,7,1,2026-05-04T23:47:14.642470+05:30
Ratlam,Madhya Pradesh,23.3315,75.0367,28.0,45,0.0,953.8,8.45,34.6,55,35.4,18.5,2.2,338.0,108.0,5.4,4,5,7,0,2026-05-04T23:47:14.642477+05:30
Sagar,Madhya Pradesh,23.8388,78.7378,26.6,53,0.0,950.8,8.65,36.4,82,36.2,23.8,6.3,295.0,117.0,6.6,4,5,7,1,2026-05-04T23:47:14.642485+05:30
Satna,Madhya Pradesh,24.6005,80.8322,26.0,64,0.0,972.5,8.2,40.7,135,54.5,40.7,8.6,380.0,133.0,15.2,7,5,7,1,2026-05-04T23:47:14.642492+05:30
Akola,Maharashtra,20.7002,77.0082,31.2,25,0.0,973.2,8.85,34.6,69,34.0,17.5,8.7,237.0,93.0,12.6,0,5,7,0,2026-05-04T23:47:14.642500+05:30
Amravati,Maharashtra,20.9374,77.7796,30.2,17,0.0,965.6,8.9,36.4,55,36.7,20.5,15.7,319.0,73.0,9.7,0,5,7,0,2026-05-04T23:47:14.642507+05:30
Latur,Maharashtra,18.4088,76.5604,29.8,18,0.0,938.6,9.1,39.2,56,40.0,21.7,12.6,245.0,77.0,5.1,4,5,7,0,2026-05-04T23:47:14.642514+05:30
Nanded,Maharashtra,19.1383,77.3091,29.1,23,0.0,966.6,9.0,29.9,62,75.9,42.1,36.1,489.0,37.0,8.8,4,5,7,0,2026-05-04T23:47:14.642520+05:30
Gulbarga,Karnataka,17.3297,76.8343,30.6,17,0.0,956.6,9.1,40.0,56,28.5,15.9,13.8,364.0,58.0,3.0,0,5,7,0,2026-05-04T23:47:14.642526+05:30
Bidar,Karnataka,17.9104,77.5199,27.8,22,0.0,934.0,9.1,33.1,75,37.6,22.4,14.7,412.0,84.0,6.7,4,5,7,0,2026-05-04T23:47:14.642533+05:30
Hospet,Karnataka,15.2689,76.3909,26.9,70,0.0,955.8,9.15,36.7,57,23.5,14.4,9.4,201.0,65.0,2.4,7,5,7,1,2026-05-04T23:47:14.642539+05:30
Tirupur,Tamil Nadu,11.1085,77.3411,26.2,81,0.0,975.7,9.35,40.7,71,30.7,18.9,10.4,219.0,72.0,5.0,7,5,7,1,2026-05-04T23:47:14.642545+05:30
Alappuzha,Kerala,9.4981,76.3388,25.1,96,0.0,1010.2,8.95,30.6,84,43.5,22.8,12.7,141.0,66.0,4.1,7,0,4,1,2026-05-04T23:47:14.642551+05:30
Munnar,Kerala,10.0889,77.0595,17.5,93,0.0,857.1,7.7,25.2,74,16.2,11.6,7.4,318.0,63.0,1.5,3,10,7,1,2026-05-04T23:47:14.642558+05:30
Silchar,Assam,24.8333,92.7789,21.2,99,0.0,1009.4,6.1,22.0,92,51.2,43.0,19.6,606.0,52.0,8.1,3,0,4,1,2026-05-04T23:47:14.642564+05:30
Dibrugarh,Assam,27.4728,94.912,22.4,92,0.0,999.6,8.7,23.4,81,23.9,22.6,20.1,350.0,17.0,1.1,3,5,7,1,2026-05-04T23:47:14.642570+05:30
