city,state,latitude,longitude,temp,humidity,rain,pressure,uv_index,wind_gusts,aqi,pm10,pm2_5,no2,co,o3,so2,mosquito_risk,arthritis_risk,migraine_risk,frizz_risk,updated_at
Delhi,Delhi,28.6139,77.209,34.8,35,0.2,979.6,7.25,25.9,151,163.0,49.7,6.7,399.0,181.0,17.0,3,5,7,1,2026-06-02T16:11:22.905883+05:30
Mumbai,Maharashtra,19.076,72.8777,32.2,63,0.0,1005.7,7.7,44.3,67,37.1,19.4,5.3,170.0,96.0,6.5,3,5,4,1,2026-06-02T16:11:22.905941+05:30
Bangalore,Karnataka,12.9716,77.5946,31.0,40,0.3,910.0,9.2,34.2,96,23.2,15.9,12.9,544.0,152.0,5.4,3,5,7,0,2026-06-02T16:11:22.905958+05:30
Hyderabad,Telangana,17.385,78.4867,35.8,32,0.1,950.1,9.1,28.1,111,68.9,31.7,0.9,287.0,146.0,3.6,3,5,10,1,2026-06-02T16:11:22.905970+05:30
Chennai,Tamil Nadu,13.0827,80.2707,33.6,66,0.1,1003.3,8.95,41.0,71,27.5,21.0,3.7,263.0,148.0,7.7,6,5,4,1,2026-06-02T16:11:22.905981+05:30
Kolkata,West Bengal,22.5726,88.3639,33.5,60,0.0,1000.9,8.6,37.4,118,48.7,37.0,6.0,436.0,136.0,8.2,0,5,4,1,2026-06-02T16:11:22.905990+05:30
Pune,Maharashtra,18.5204,73.8567,32.5,41,0.1,945.8,8.3,48.6,51,46.8,19.3,2.2,151.0,114.0,4.2,3,5,7,1,2026-06-02T16:11:22.905999+05:30
Ahmedabad,Gujarat,23.0225,72.5714,37.5,36,0.0,997.3,8.05,33.5,87,65.2,27.6,0.8,155.0,102.0,3.7,0,5,10,1,2026-06-02T16:11:22.906007+05:30
Jaipur,Rajasthan,26.9124,75.7873,34.9,34,0.0,956.4,8.2,30.6,97,194.2,50.8,0.3,252.0,134.0,5.3,0,5,7,1,2026-06-02T16:11:22.906021+05:30
Lucknow,Uttar Pradesh,26.8467,80.9462,36.0,40,0.0,989.4,8.15,23.0,151,85.7,47.4,1.8,227.0,176.0,6.8,0,5,10,1,2026-06-02T16:11:22.906030+05:30
Kanpur,Uttar Pradesh,26.4499,80.3319,35.5,39,0.0,987.8,7.6,39.2,143,100.8,46.7,0.8,240.0,171.0,6.8,0,5,10,1,2026-06-02T16:11:22.906037+05:30
Chandigarh,Chandigarh,30.7333,76.7794,34.0,37,0.0,966.5,7.85,24.5,161,36.4,26.5,1.8,391.0,198.0,12.5,0,5,7,1,2026-06-02T16:11:22.906046+05:30
Srinagar,Jammu and Kashmir,34.0837,74.7973,27.4,33,0.0,843.2,9.1,33.5,116,41.9,19.6,1.4,294.0,154.0,2.3,4,5,7,0,2026-06-02T16:11:22.906054+05:30
Jammu,Jammu and Kashmir,32.7266,74.857,34.4,37,0.0,971.0,8.65,31.0,137,95.0,39.0,1.1,294.0,160.0,3.2,0,5,7,1,2026-06-02T16:11:22.906062+05:30
Amritsar,Punjab,31.634,74.8723,35.7,32,0.0,978.4,8.45,31.3,140,106.2,32.0,0.2,278.0,162.0,5.7,0,5,10,1,2026-06-02T16:11:22.906069+05:30
Ludhiana,Punjab,30.901,75.8573,36.3,30,0.0,975.9,8.05,27.7,139,61.5,26.2,1.0,253.0,176.0,7.5,0,5,10,1,2026-06-02T16:11:22.906076+05:30
Jalandhar,Punjab,31.326,75.5762,36.4,29,0.0,977.1,8.25,24.1,143,54.9,26.7,0.9,279.0,173.0,7.0,0,5,10,0,2026-06-02T16:11:22.906083+05:30
Dehradun,Uttarakhand,30.6284,78.0322,21.3,61,0.0,831.6,8.25,28.8,97,27.3,15.4,2.4,261.0,142.0,2.0,3,5,7,0,2026-06-02T16:11:22.906093+05:30
Shimla,Himachal Pradesh,31.1048,77.1734,20.0,52,0.1,786.3,8.35,28.4,109,23.9,16.2,0.4,288.0,163.0,6.9,3,5,7,0,2026-06-02T16:11:22.906111+05:30
Manali,Himachal Pradesh,32.2396,77.1887,22.1,56,0.0,820.3,9.75,38.2,76,25.0,11.9,9.8,140.0,137.0,0.2,0,5,7,0,2026-06-02T16:11:22.906119+05:30
Gurgaon,Haryana,28.4595,77.0266,34.3,36,0.0,978.2,7.25,29.9,270,484.3,78.2,4.4,394.0,155.0,8.9,0,5,7,1,2026-06-02T16:11:22.906126+05:30
Noida,Uttar Pradesh,28.5355,77.391,35.1,38,0.0,981.1,7.8,26.6,270,484.3,78.2,4.4,334.0,155.0,8.9,0,5,10,1,2026-06-02T16:11:22.906133+05:30
Ghaziabad,Uttar Pradesh,28.6692,77.4538,34.6,39,0.0,979.5,7.75,27.4,132,129.9,39.1,2.7,249.0,147.0,6.9,0,5,7,1,2026-06-02T16:11:22.906140+05:30
Faridabad,Haryana,28.4089,77.3178,34.7,37,0.0,980.4,7.8,34.2,270,484.3,78.2,4.4,345.0,155.0,8.9,0,5,7,1,2026-06-02T16:11:22.906148+05:30
Meerut,Uttar Pradesh,28.9845,77.7064,33.8,42,0.0,978.4,7.15,29.2,132,129.9,39.1,2.7,253.0,147.0,6.9,0,5,7,1,2026-06-02T16:11:22.906155+05:30
Agra,Uttar Pradesh,27.1767,78.0081,34.6,41,0.0,983.9,8.1,28.8,182,179.7,46.0,1.7,249.0,148.0,4.1,0,5,7,1,2026-06-02T16:11:22.906162+05:30
Varanasi,Uttar Pradesh,25.3176,82.9739,36.9,35,0.0,992.9,8.75,23.4,152,68.2,40.4,2.2,362.0,163.0,7.9,0,5,10,1,2026-06-02T16:11:22.906169+05:30
Prayagraj,Uttar Pradesh,25.4358,81.8463,37.1,34,0.0,991.5,8.7,26.6,144,81.5,44.9,1.5,226.0,172.0,6.7,0,5,10,1,2026-06-02T16:11:22.906177+05:30
Gorakhpur,Uttar Pradesh,26.7606,83.3732,35.1,42,0.0,992.9,8.5,25.9,156,75.9,45.5,1.3,265.0,169.0,4.8,0,5,10,1,2026-06-02T16:11:22.906186+05:30
Bareilly,Uttar Pradesh,28.367,79.4304,31.9,52,0.1,983.8,8.05,20.9,133,115.7,48.1,1.2,252.0,168.0,10.0,3,5,7,1,2026-06-02T16:11:22.906193+05:30
Aligarh,Uttar Pradesh,27.8974,78.088,34.3,42,0.0,982.0,7.95,24.5,150,148.5,47.7,2.1,263.0,139.0,6.1,0,5,7,1,2026-06-02T16:11:22.906200+05:30
Moradabad,Uttar Pradesh,28.8386,78.7733,32.0,48,0.1,980.8,7.9,29.9,141,124.3,49.0,1.8,239.0,171.0,12.5,3,5,7,1,2026-06-02T16:11:22.906206+05:30
Saharanpur,Uttar Pradesh,29.9637,77.546,33.0,43,0.0,973.3,7.55,27.7,138,82.2,31.1,0.7,292.0,150.0,4.6,0,5,7,1,2026-06-02T16:11:22.906213+05:30
Jhansi,Uttar Pradesh,25.4484,78.5685,34.8,40,0.0,974.4,8.25,30.6,80,66.6,24.6,0.9,150.0,132.0,7.7,0,5,7,1,2026-06-02T16:11:26.177363+05:30
Surat,Gujarat,21.1702,72.8311,33.7,54,0.0,1003.0,7.6,38.5,71,46.2,23.9,12.7,304.0,49.0,42.9,0,5,4,1,2026-06-02T16:11:26.177398+05:30
Vadodara,Gujarat,22.3072,73.1812,36.5,39,0.0,999.6,8.0,35.3,76,75.4,34.2,1.6,147.0,114.0,5.1,0,5,10,1,2026-06-02T16:11:26.177409+05:30
Rajkot,Gujarat,22.3039,70.8022,37.5,37,0.0,989.9,7.55,51.8,76,68.0,27.9,1.0,117.0,103.0,4.4,0,5,10,1,2026-06-02T16:11:26.177418+05:30
Thane,Maharashtra,19.2183,72.9781,33.6,54,0.0,1004.8,7.7,41.8,67,37.1,19.4,5.3,152.0,96.0,6.5,0,5,4,1,2026-06-02T16:11:26.177427+05:30
Nagpur,Maharashtra,21.1458,79.0882,38.0,28,0.0,968.8,8.85,40.3,85,52.6,24.3,4.1,167.0,146.0,17.6,0,5,10,1,2026-06-02T16:11:26.177435+05:30
Nashik,Maharashtra,19.9975,73.7898,28.2,69,0.2,943.4,8.0,58.3,60,53.6,22.4,1.4,130.0,107.0,3.7,10,5,7,1,2026-06-02T16:11:26.177443+05:30
Aurangabad,Maharashtra,19.8762,75.3433,35.8,26,0.0,940.8,8.95,41.8,62,75.7,23.7,1.0,133.0,117.0,2.7,0,5,10,0,2026-06-02T16:11:26.177450+05:30
Solapur,Maharashtra,17.6599,75.9064,36.8,30,0.0,953.7,8.95,62.6,82,43.7,20.7,1.2,141.0,146.0,5.2,0,5,10,1,2026-06-02T16:11:26.177458+05:30
Kolhapur,Maharashtra,16.705,74.2433,29.3,61,0.1,946.1,8.75,56.5,41,32.2,13.8,2.1,144.0,106.0,1.7,10,5,7,1,2026-06-02T16:11:26.177466+05:30
Goa,Goa,15.2993,74.124,31.6,63,0.0,995.7,8.4,25.2,52,17.3,9.5,0.7,120.0,65.0,1.0,3,5,7,1,2026-06-02T16:11:26.177473+05:30
Jodhpur,Rajasthan,26.2389,73.0243,38.8,29,0.0,978.3,8.4,30.2,99,169.0,46.0,0.4,137.0,115.0,3.4,0,5,10,1,2026-06-02T16:11:26.177480+05:30
Udaipur,Rajasthan,24.5854,73.7125,33.5,42,0.0,943.6,8.8,23.8,83,76.4,26.9,0.6,145.0,104.0,3.4,0,5,7,1,2026-06-02T16:11:26.177487+05:30
Kota,Rajasthan,25.2138,75.8648,36.0,34,0.0,974.7,8.4,20.9,83,108.0,36.2,0.5,140.0,114.0,3.8,0,5,10,1,2026-06-02T16:11:26.177494+05:30
Bikaner,Rajasthan,28.0229,73.3119,38.7,27,0.0,977.3,8.45,31.0,134,317.6,67.1,0.3,229.0,143.0,5.5,0,5,10,1,2026-06-02T16:11:26.177501+05:30
Ajmer,Rajasthan,26.4499,74.6399,34.2,36,0.0,951.1,8.3,25.2,85,137.8,43.3,0.3,184.0,124.0,5.4,0,5,7,1,2026-06-02T16:11:26.177508+05:30
Gwalior,Madhya Pradesh,26.2183,78.1828,34.4,43,0.0,979.4,8.25,32.0,90,82.4,27.8,0.2,166.0,115.0,1.7,0,5,7,1,2026-06-02T16:11:26.177516+05:30
Indore,Madhya Pradesh,22.7196,75.8577,35.5,29,0.0,944.8,8.6,35.6,90,67.1,29.5,1.2,276.0,113.0,3.9,0,5,10,0,2026-06-02T16:11:26.177524+05:30
Bhopal,Madhya Pradesh,23.2599,77.4126,34.0,41,0.0,950.2,8.65,37.4,78,55.2,25.4,0.5,166.0,124.0,3.8,0,5,7,1,2026-06-02T16:11:26.177531+05:30
Jabalpur,Madhya Pradesh,23.1815,79.9864,35.8,32,0.0,957.7,8.85,24.8,90,60.8,24.9,0.4,160.0,123.0,2.6,0,5,10,1,2026-06-02T16:11:26.177538+05:30
Ujjain,Madhya Pradesh,23.1765,75.7885,34.6,34,0.0,950.3,8.55,35.3,87,63.8,27.8,0.7,171.0,105.0,3.9,0,5,7,1,2026-06-02T16:11:26.177546+05:30
Visakhapatnam,Andhra Pradesh,17.6868,83.2185,33.3,67,0.1,999.2,9.0,44.3,112,44.1,31.8,11.2,355.0,146.0,36.6,6,5,7,1,2026-06-02T16:11:26.177554+05:30
Vijayawada,Andhra Pradesh,16.5062,80.648,38.5,32,0.0,997.3,9.0,32.0,116,48.1,28.5,2.5,190.0,154.0,6.5,0,5,10,1,2026-06-02T16:11:26.177561+05:30
Guntur,Andhra Pradesh,16.3067,80.4365,38.6,32,0.0,998.5,9.0,32.8,109,53.8,30.9,0.8,176.0,152.0,5.6,0,5,10,1,2026-06-02T16:11:26.177568+05:30
Nellore,Andhra Pradesh,14.4426,79.9865,37.8,36,0.0,1001.1,8.8,33.8,102,41.2,27.8,3.2,186.0,173.0,6.1,0,5,7,1,2026-06-02T16:11:26.177577+05:30
Kurnool,Andhra Pradesh,15.8281,78.0373,37.2,34,0.0,972.8,9.0,69.5,86,48.2,24.8,0.6,166.0,164.0,7.7,0,5,10,1,2026-06-02T16:11:26.177585+05:30
Kakinada,Andhra Pradesh,16.9891,82.2475,34.8,56,0.0,1002.7,9.0,35.3,101,28.7,20.8,1.6,260.0,130.0,4.3,0,5,4,1,2026-06-02T16:11:26.177593+05:30
Tirupati,Andhra Pradesh,13.6288,79.4192,36.2,37,0.0,987.1,9.0,25.2,96,23.8,14.3,3.2,164.0,140.0,2.6,0,5,10,1,2026-06-02T16:11:26.177599+05:30
Warangal,Telangana,17.9689,79.5941,37.2,32,0.0,974.5,9.0,32.0,127,70.5,35.0,0.4,178.0,145.0,4.0,0,5,10,1,2026-06-02T16:11:26.177606+05:30
Nizamabad,Telangana,18.6725,78.0941,36.7,30,0.0,961.1,8.95,30.2,105,66.4,27.9,0.4,158.0,126.0,3.3,0,5,10,0,2026-06-02T16:11:26.177613+05:30
Mysore,Karnataka,12.2958,76.6396,26.6,73,0.1,926.8,8.95,44.3,76,15.1,10.5,4.0,207.0,139.0,2.2,10,5,7,1,2026-06-02T16:11:26.177620+05:30
Mangalore,Karnataka,12.9141,74.856,27.3,84,0.1,1005.6,1.85,32.8,50,7.4,4.9,1.5,122.0,81.0,1.9,10,5,0,1,2026-06-02T16:11:26.177628+05:30
Hubli-Dharwad,Karnataka,15.3647,75.124,29.9,59,0.0,938.9,8.6,44.3,36,23.9,10.6,2.3,150.0,99.0,1.2,4,5,7,1,2026-06-02T16:11:26.177635+05:30
Belgaum,Karnataka,15.8497,74.4977,27.6,65,0.0,923.9,8.95,45.4,42,25.8,11.8,1.6,130.0,93.0,1.7,7,5,7,1,2026-06-02T16:11:29.458855+05:30
Coimbatore,Tamil Nadu,11.0168,76.9558,28.9,69,0.0,959.9,9.0,48.6,50,9.9,7.9,4.3,197.0,96.0,2.4,7,5,7,1,2026-06-02T16:11:29.458891+05:30
Madurai,Tamil Nadu,9.9252,78.1198,26.7,92,0.3,991.1,8.85,64.1,74,10.7,7.0,2.0,161.0,109.0,2.2,10,5,7,1,2026-06-02T16:11:29.458902+05:30
Trichy,Tamil Nadu,10.7905,78.7047,33.5,54,0.0,996.7,8.85,38.9,66,24.7,13.7,2.6,182.0,122.0,3.1,0,5,7,1,2026-06-02T16:11:29.458912+05:30
Salem,Tamil Nadu,11.6643,78.146,33.9,49,0.2,974.0,8.95,41.0,119,30.0,19.4,3.5,195.0,159.0,8.7,3,5,7,1,2026-06-02T16:11:29.458920+05:30
Tirunelveli,Tamil Nadu,8.7139,77.7567,34.5,47,0.1,1000.3,8.75,37.4,31,4.4,3.4,1.4,120.0,74.0,0.6,3,5,4,1,2026-06-02T16:11:29.458927+05:30
Vellore,Tamil Nadu,12.9165,79.1325,33.6,51,0.2,980.8,9.0,29.9,120,27.1,19.4,3.4,228.0,161.0,4.7,3,5,7,1,2026-06-02T16:11:29.458935+05:30
Erode,Tamil Nadu,11.341,77.7172,32.6,54,0.1,986.0,8.9,41.0,79,25.0,12.8,3.5,217.0,135.0,2.1,3,5,7,1,2026-06-02T16:11:29.458942+05:30
Kochi,Kerala,9.9312,76.2673,27.8,81,0.1,1007.6,8.55,34.6,46,8.0,6.3,4.3,158.0,67.0,2.2,10,5,4,1,2026-06-02T16:11:29.458950+05:30
Thiruvananthapuram,Kerala,8.5241,76.9366,27.7,80,0.0,1007.3,8.25,36.0,26,8.0,4.9,1.1,109.0,70.0,0.5,7,5,4,1,2026-06-02T16:11:29.458957+05:30
Kozhikode,Kerala,11.2588,75.7804,25.9,94,0.0,1007.1,7.9,27.0,38,5.6,3.7,0.8,137.0,78.0,0.5,7,5,4,1,2026-06-02T16:11:29.458964+05:30
Thrissur,Kerala,10.5276,76.2144,26.8,90,0.2,1006.0,8.65,34.9,49,7.5,6.3,4.1,172.0,68.0,2.0,10,5,4,1,2026-06-02T16:11:29.458972+05:30
Kannur,Kerala,11.8745,75.3704,26.2,94,0.2,1006.5,2.9,25.9,39,4.6,3.1,1.2,139.0,72.0,0.9,10,5,0,1,2026-06-02T16:11:29.458980+05:30
Patna,Bihar,25.5941,85.1376,35.8,45,0.0,995.2,8.85,19.1,202,71.7,55.5,4.2,315.0,200.0,10.9,0,5,10,1,2026-06-02T16:11:29.458987+05:30
Gaya,Bihar,24.7914,85.0002,36.7,38,0.0,988.8,8.9,21.6,187,58.4,44.2,2.3,308.0,180.0,9.2,0,5,10,1,2026-06-02T16:11:29.458994+05:30
Muzaffarpur,Bihar,26.1209,85.3647,34.8,50,0.0,995.3,8.85,20.9,202,75.4,57.3,5.3,355.0,196.0,11.2,0,5,7,1,2026-06-02T16:11:29.459002+05:30
Bhagalpur,Bihar,25.2425,87.0117,35.8,47,0.0,995.5,8.85,18.0,185,54.4,46.0,3.9,333.0,198.0,15.6,0,5,10,1,2026-06-02T16:11:29.459008+05:30
Ranchi,Jharkhand,23.3441,85.3096,32.7,41,0.0,934.9,8.95,21.2,184,70.8,53.9,3.5,278.0,184.0,19.1,0,5,7,1,2026-06-02T16:11:29.459016+05:30
Jamshedpur,Jharkhand,22.8046,86.2029,34.8,48,0.1,986.0,9.05,22.0,182,70.8,55.8,5.3,302.0,207.0,19.0,3,5,7,1,2026-06-02T16:11:29.459023+05:30
Dhanbad,Jharkhand,23.7957,86.4304,36.2,36,0.0,975.2,9.05,22.0,173,90.6,77.3,16.2,304.0,238.0,71.3,0,5,10,1,2026-06-02T16:11:29.459030+05:30
Bokaro,Jharkhand,23.6693,86.1511,35.5,38,0.0,978.9,8.6,22.3,177,85.0,69.4,14.6,292.0,206.0,58.6,0,5,10,1,2026-06-02T16:11:29.459037+05:30
Bhubaneswar,Odisha,20.2961,85.8245,31.0,81,0.1,998.5,9.0,37.8,143,34.0,26.9,3.2,327.0,155.0,9.7,6,5,7,1,2026-06-02T16:11:29.459044+05:30
Cuttack,Odisha,20.4625,85.8828,29.8,84,0.1,1000.4,9.05,37.8,143,34.0,26.9,3.2,340.0,155.0,9.7,10,5,4,1,2026-06-02T16:11:29.459052+05:30
Rourkela,Odisha,22.2604,84.8536,35.3,42,0.0,980.5,5.3,36.4,180,65.0,49.2,2.4,271.0,211.0,16.3,0,5,6,1,2026-06-02T16:11:29.459059+05:30
Raipur,Chhattisgarh,21.2514,81.6296,38.0,29,0.0,970.0,8.95,31.7,153,85.9,51.3,7.4,393.0,196.0,40.5,0,5,10,1,2026-06-02T16:11:29.459065+05:30
Bhilai,Chhattisgarh,21.1938,81.3509,37.5,29,0.0,970.3,8.95,24.8,153,78.0,42.6,8.0,551.0,164.0,34.6,0,5,10,1,2026-06-02T16:11:29.459072+05:30
Guwahati,Assam,26.1158,91.7086,32.6,62,0.0,995.1,8.7,35.3,127,65.2,54.6,2.4,348.0,146.0,7.1,3,5,7,1,2026-06-02T16:11:29.459079+05:30
Agartala,Tripura,23.8315,91.2868,33.0,62,0.0,1000.6,8.75,22.3,122,64.7,47.3,7.1,245.0,189.0,8.1,3,5,4,1,2026-06-02T16:11:29.459086+05:30
Shillong,Meghalaya,25.5788,91.8933,24.4,65,0.0,855.6,7.85,24.1,116,40.4,32.4,2.5,293.0,136.0,4.0,3,5,7,1,2026-06-02T16:11:29.459093+05:30
Imphal,Manipur,24.817,93.9368,27.9,68,0.0,919.1,8.8,28.4,69,20.1,15.3,2.0,285.0,121.0,2.4,7,5,7,1,2026-06-02T16:11:29.459100+05:30
Aizawl,Mizoram,23.7271,92.7176,25.6,69,0.1,889.7,8.3,19.4,63,50.5,31.5,2.4,203.0,103.0,3.1,10,5,7,1,2026-06-02T16:11:29.459107+05:30
Kohima,Nagaland,25.6701,94.1077,24.0,77,0.0,853.3,8.55,32.8,85,28.9,21.5,2.0,277.0,121.0,2.1,3,5,7,1,2026-06-02T16:11:29.459114+05:30
Gangtok,Sikkim,27.3314,88.6138,22.4,70,0.1,836.4,9.1,40.3,100,28.6,23.7,2.1,305.0,151.0,2.9,6,5,7,1,2026-06-02T16:11:29.459121+05:30
Siliguri,West Bengal,26.7271,88.3953,33.5,53,0.0,987.1,8.75,34.6,153,61.7,50.1,2.9,459.0,176.0,7.4,0,5,7,1,2026-06-02T16:11:32.733158+05:30
Durgapur,West Bengal,23.5204,87.3119,32.9,65,0.1,990.1,8.95,22.7,157,68.7,62.9,19.9,625.0,201.0,64.5,6,5,7,1,2026-06-02T16:11:32.733193+05:30
Asansol,West Bengal,23.6739,86.9524,34.4,56,0.0,988.6,9.0,21.6,157,69.4,62.4,19.6,512.0,202.0,61.6,0,5,7,1,2026-06-02T16:11:32.733205+05:30
Pondicherry,Puducherry,11.9139,79.8145,32.0,69,0.0,1004.8,8.85,41.8,61,29.6,22.7,6.7,210.0,136.0,6.7,3,5,4,1,2026-06-02T16:11:32.733213+05:30
Port Blair,Andaman and Nicobar Islands,11.6234,92.7265,25.8,95,0.2,1005.0,1.7,37.1,30,14.0,7.8,0.5,132.0,65.0,0.5,10,5,0,1,2026-06-02T16:11:32.733222+05:30
Haridwar,Uttarakhand,29.9457,78.1642,33.7,42,0.0,971.5,7.6,24.8,129,82.0,32.5,0.5,238.0,151.0,5.4,0,5,7,1,2026-06-02T16:11:32.733229+05:30
Rishikesh,Uttarakhand,30.0869,78.2676,32.3,43,0.1,964.5,7.65,24.1,123,65.7,29.1,0.8,235.0,152.0,5.4,3,5,7,1,2026-06-02T16:11:32.733238+05:30
Nainital,Uttarakhand,29.3919,79.4542,18.3,77,0.0,805.8,7.25,37.8,94,71.9,27.9,0.6,223.0,143.0,3.3,3,5,7,0,2026-06-02T16:11:32.733246+05:30
Mussoorie,Uttarakhand,30.4599,78.0664,19.6,64,0.1,804.0,8.15,32.0,131,45.2,23.9,1.1,253.0,162.0,4.9,6,5,7,0,2026-06-02T16:11:32.733254+05:30
Dharamshala,Himachal Pradesh,32.219,76.3234,24.8,54,0.0,869.8,8.55,42.1,73,16.8,8.7,0.5,210.0,136.0,0.4,0,5,7,0,2026-06-02T16:11:32.733262+05:30
Dalhousie,Himachal Pradesh,32.5387,75.971,18.2,82,0.1,806.1,8.8,32.0,108,42.3,19.1,1.4,223.0,152.0,1.3,6,10,7,0,2026-06-02T16:11:32.733271+05:30
Patiala,Punjab,30.3398,76.3869,35.0,34,0.0,975.4,7.7,26.3,256,202.1,39.9,0.9,287.0,171.0,6.8,0,5,7,1,2026-06-02T16:11:32.733279+05:30
Bhatinda,Punjab,30.211,74.9455,37.0,28,0.0,980.4,8.3,31.3,455,361.4,68.2,1.6,214.0,176.0,12.8,0,5,10,0,2026-06-02T16:11:32.733286+05:30
Rohtak,Haryana,28.8955,76.6066,35.2,33,0.0,978.4,7.8,28.8,164,165.3,51.6,2.1,269.0,209.0,14.0,0,5,10,1,2026-06-02T16:11:32.733294+05:30
Panipat,Haryana,29.3909,76.9635,34.0,41,0.0,977.6,7.65,28.8,534,160.2,45.8,2.8,235.0,183.0,14.0,0,5,7,1,2026-06-02T16:11:32.733301+05:30
Mathura,Uttar Pradesh,27.4924,77.6737,34.2,43,0.0,983.2,8.05,24.1,159,165.3,41.4,0.8,276.0,143.0,2.0,0,5,7,1,2026-06-02T16:11:32.733308+05:30
Vrindavan,Uttar Pradesh,27.5823,77.7027,34.3,42,0.0,983.6,8.05,36.0,159,165.3,41.4,0.8,291.0,143.0,2.0,0,5,7,1,2026-06-02T16:11:32.733314+05:30
Ayodhya,Uttar Pradesh,26.7922,82.1998,34.4,45,0.0,991.3,8.35,17.6,158,76.8,43.8,2.1,256.0,156.0,4.5,0,5,7,1,2026-06-02T16:11:32.733322+05:30
Ratlam,Madhya Pradesh,23.3315,75.0367,35.0,29,0.0,951.6,8.5,34.9,83,59.3,26.7,0.5,130.0,104.0,4.1,0,5,7,0,2026-06-02T16:11:32.733330+05:30
Sagar,Madhya Pradesh,23.8388,78.7378,34.7,33,0.0,946.9,8.7,24.8,69,54.1,23.5,0.4,149.0,118.0,1.9,0,5,7,1,2026-06-02T16:11:32.733337+05:30
Satna,Madhya Pradesh,24.6005,80.8322,36.0,33,0.0,967.5,8.8,22.3,118,66.6,33.8,1.2,171.0,141.0,7.5,0,5,10,1,2026-06-02T16:11:32.733344+05:30
Akola,Maharashtra,20.7002,77.0082,36.9,33,0.0,970.6,8.8,33.5,76,65.7,24.4,1.2,134.0,122.0,5.5,0,5,10,1,2026-06-02T16:11:32.733352+05:30
Amravati,Maharashtra,20.9374,77.7796,37.7,26,0.0,963.4,8.8,36.4,77,70.5,26.0,1.3,152.0,130.0,7.3,0,5,10,0,2026-06-02T16:11:32.733361+05:30
Latur,Maharashtra,18.4088,76.5604,35.5,31,0.0,937.1,8.95,37.4,79,47.8,20.0,0.6,143.0,127.0,3.2,0,5,10,0,2026-06-02T16:11:32.733368+05:30
Nanded,Maharashtra,19.1383,77.3091,37.8,28,0.0,964.6,8.9,27.7,89,42.6,17.2,0.7,148.0,124.0,2.4,0,5,10,1,2026-06-02T16:11:32.733375+05:30
Gulbarga,Karnataka,17.3297,76.8343,37.9,29,0.0,954.9,8.95,47.2,84,57.6,25.3,1.1,157.0,149.0,4.6,0,5,10,1,2026-06-02T16:11:32.733382+05:30
Bidar,Karnataka,17.9104,77.5199,35.0,30,0.0,932.9,8.95,28.8,95,61.7,25.7,0.9,170.0,134.0,3.2,0,5,7,0,2026-06-02T16:11:32.733389+05:30
Hospet,Karnataka,15.2689,76.3909,34.3,39,0.0,952.7,8.95,50.4,52,31.2,14.1,1.8,161.0,124.0,3.7,0,5,7,1,2026-06-02T16:11:32.733395+05:30
Tirupur,Tamil Nadu,11.1085,77.3411,31.7,57,0.0,972.8,9.0,50.0,79,19.3,11.7,4.1,189.0,132.0,3.3,0,5,7,1,2026-06-02T16:11:32.733402+05:30
Alappuzha,Kerala,9.4981,76.3388,27.5,85,0.0,1007.8,8.55,34.6,41,7.5,5.5,3.3,111.0,64.0,1.3,7,5,4,1,2026-06-02T16:11:32.733409+05:30
Munnar,Kerala,10.0889,77.0595,18.5,100,0.1,856.0,9.15,27.7,53,7.6,5.3,2.7,136.0,75.0,1.0,6,10,7,1,2026-06-02T16:11:32.733416+05:30
Silchar,Assam,24.8333,92.7789,32.0,69,0.0,999.3,8.7,23.8,99,47.5,32.8,1.7,281.0,144.0,6.1,3,5,7,1,2026-06-02T16:11:32.733423+05:30
Dibrugarh,Assam,27.4728,94.912,28.3,91,0.0,989.6,8.9,24.8,67,13.2,12.0,2.7,235.0,112.0,1.2,7,5,7,1,2026-06-02T16:11:32.733430+05:30
