city,state,latitude,longitude,temp,humidity,rain,pressure,uv_index,wind_gusts,aqi,pm10,pm2_5,no2,co,o3,so2,mosquito_risk,arthritis_risk,migraine_risk,frizz_risk,updated_at
Delhi,Delhi,28.6139,77.209,34.9,48,0.0,974.4,7.8,46.4,677,651.9,150.9,23.7,418.0,125.0,22.6,0,5,7,1,2026-06-11T19:31:18.989519+05:30
Mumbai,Maharashtra,19.076,72.8777,31.0,66,0.0,1005.3,7.7,41.8,76,57.2,25.2,7.2,185.0,53.0,5.2,3,5,4,1,2026-06-11T19:31:18.989563+05:30
Bangalore,Karnataka,12.9716,77.5946,22.0,96,0.4,911.2,7.0,40.0,47,11.8,9.4,27.9,732.0,36.0,4.6,6,5,7,1,2026-06-11T19:31:18.989578+05:30
Hyderabad,Telangana,17.385,78.4867,33.3,45,0.0,949.7,8.8,36.4,74,50.9,34.2,27.0,717.0,71.0,7.2,0,5,7,1,2026-06-11T19:31:18.989588+05:30
Chennai,Tamil Nadu,13.0827,80.2707,32.4,60,0.0,1004.4,7.55,41.4,66,27.9,20.3,12.4,568.0,95.0,7.8,0,5,4,1,2026-06-11T19:31:18.989596+05:30
Kolkata,West Bengal,22.5726,88.3639,27.2,92,0.0,1003.4,8.95,32.0,125,45.2,38.5,11.7,691.0,65.0,8.5,7,5,4,1,2026-06-11T19:31:18.989604+05:30
Pune,Maharashtra,18.5204,73.8567,28.2,63,0.0,945.8,8.3,45.0,58,49.9,21.5,5.9,148.0,60.0,4.6,7,5,7,1,2026-06-11T19:31:18.989611+05:30
Ahmedabad,Gujarat,23.0225,72.5714,33.4,59,0.0,994.4,8.05,49.7,74,64.3,26.8,6.2,149.0,87.0,5.4,0,5,7,1,2026-06-11T19:31:18.989619+05:30
Jaipur,Rajasthan,26.9124,75.7873,38.0,30,0.0,951.2,8.25,40.7,127,95.2,39.1,10.6,311.0,80.0,5.7,0,5,10,1,2026-06-11T19:31:18.989630+05:30
Lucknow,Uttar Pradesh,26.8467,80.9462,33.8,53,0.0,987.2,8.3,53.3,155,65.9,47.3,7.5,316.0,147.0,10.5,0,5,7,1,2026-06-11T19:31:18.989638+05:30
Kanpur,Uttar Pradesh,26.4499,80.3319,34.9,51,0.1,985.1,8.3,47.2,158,239.3,63.3,9.1,333.0,136.0,9.8,3,5,7,1,2026-06-11T19:31:18.989645+05:30
Chandigarh,Chandigarh,30.7333,76.7794,30.6,70,0.1,962.2,7.85,55.1,151,99.7,52.5,12.2,437.0,126.0,8.5,6,5,7,1,2026-06-11T19:31:18.989653+05:30
Srinagar,Jammu and Kashmir,34.0837,74.7973,24.7,56,0.0,838.3,9.05,24.1,121,21.6,18.5,24.0,934.0,93.0,3.6,0,5,7,0,2026-06-11T19:31:18.989660+05:30
Jammu,Jammu and Kashmir,32.7266,74.857,33.8,43,0.0,964.4,8.15,41.0,173,48.4,32.7,22.7,310.0,123.0,7.1,0,5,7,1,2026-06-11T19:31:18.989667+05:30
Amritsar,Punjab,31.634,74.8723,28.1,73,0.0,971.6,8.5,56.2,165,227.2,93.4,7.4,349.0,143.0,7.3,7,5,7,1,2026-06-11T19:31:18.989673+05:30
Ludhiana,Punjab,30.901,75.8573,28.7,84,0.3,971.8,8.05,52.6,658,411.6,124.8,8.9,410.0,144.0,11.6,10,5,7,1,2026-06-11T19:31:18.989680+05:30
Jalandhar,Punjab,31.326,75.5762,28.4,78,0.2,970.3,8.25,47.2,414,442.4,136.4,9.9,422.0,143.0,10.1,10,5,7,1,2026-06-11T19:31:18.989686+05:30
Dehradun,Uttarakhand,30.6284,78.0322,20.1,86,0.0,827.7,7.9,36.0,135,67.5,29.2,12.6,195.0,122.0,3.3,3,5,7,1,2026-06-11T19:31:18.989693+05:30
Shimla,Himachal Pradesh,31.1048,77.1734,17.8,72,0.0,782.6,8.25,38.2,145,37.1,29.6,14.4,259.0,119.0,5.5,3,5,7,0,2026-06-11T19:31:18.989703+05:30
Manali,Himachal Pradesh,32.2396,77.1887,19.0,65,0.0,817.2,9.3,35.6,89,5.5,4.7,65.8,227.0,63.0,0.4,3,5,7,0,2026-06-11T19:31:18.989709+05:30
Gurgaon,Haryana,28.4595,77.0266,36.4,42,0.0,972.1,7.9,54.4,1243,925.7,183.9,41.5,524.0,81.0,19.4,0,5,10,1,2026-06-11T19:31:18.989716+05:30
Noida,Uttar Pradesh,28.5355,77.391,35.4,51,0.0,975.5,7.85,51.5,1243,925.7,183.9,41.5,357.0,81.0,19.4,0,5,10,1,2026-06-11T19:31:18.989724+05:30
Ghaziabad,Uttar Pradesh,28.6692,77.4538,34.1,55,0.0,974.1,7.85,47.5,576,676.1,146.7,8.5,281.0,142.0,11.2,0,5,7,1,2026-06-11T19:31:18.989730+05:30
Faridabad,Haryana,28.4089,77.3178,35.7,47,0.0,974.9,7.9,58.0,1243,925.7,183.9,41.5,353.0,81.0,19.4,0,5,10,1,2026-06-11T19:31:18.989736+05:30
Meerut,Uttar Pradesh,28.9845,77.7064,27.9,77,0.0,974.9,7.75,51.8,576,676.1,146.7,8.5,313.0,142.0,11.2,7,5,7,1,2026-06-11T19:31:18.989743+05:30
Agra,Uttar Pradesh,27.1767,78.0081,39.0,31,0.0,978.5,8.2,76.0,558,135.5,50.9,27.7,274.0,54.0,9.9,0,5,10,1,2026-06-11T19:31:18.989749+05:30
Varanasi,Uttar Pradesh,25.3176,82.9739,34.4,51,0.0,991.4,8.8,42.1,201,78.7,66.1,15.5,457.0,148.0,18.6,0,5,7,1,2026-06-11T19:31:18.989755+05:30
Prayagraj,Uttar Pradesh,25.4358,81.8463,36.2,45,0.0,989.2,8.6,35.3,199,68.7,56.8,12.2,416.0,151.0,13.8,0,5,10,1,2026-06-11T19:31:18.989762+05:30
Gorakhpur,Uttar Pradesh,26.7606,83.3732,30.2,70,0.0,992.1,8.7,46.1,144,55.4,33.6,11.0,412.0,125.0,9.6,3,5,7,1,2026-06-11T19:31:18.989770+05:30
Bareilly,Uttar Pradesh,28.367,79.4304,33.8,52,0.0,979.7,7.05,45.7,161,203.5,68.9,5.5,320.0,143.0,10.3,0,5,7,1,2026-06-11T19:31:18.989776+05:30
Aligarh,Uttar Pradesh,27.8974,78.088,33.3,57,0.1,976.5,8.0,65.2,819,821.4,150.4,11.1,274.0,117.0,9.1,3,5,7,1,2026-06-11T19:31:18.989782+05:30
Moradabad,Uttar Pradesh,28.8386,78.7733,34.1,49,0.0,976.8,7.95,51.5,161,131.3,62.9,9.1,301.0,137.0,11.5,0,5,7,1,2026-06-11T19:31:18.989788+05:30
Saharanpur,Uttar Pradesh,29.9637,77.546,29.4,66,0.0,970.0,7.5,55.4,141,151.8,67.8,8.7,269.0,130.0,9.1,7,5,7,1,2026-06-11T19:31:18.989794+05:30
Jhansi,Uttar Pradesh,25.4484,78.5685,36.5,41,0.0,970.1,8.55,38.9,69,29.9,20.7,7.7,159.0,76.0,5.7,0,5,10,1,2026-06-11T19:31:22.259616+05:30
Surat,Gujarat,21.1702,72.8311,31.2,68,0.0,1001.6,6.7,56.9,85,50.2,27.2,14.7,170.0,43.0,27.5,3,5,4,1,2026-06-11T19:31:22.259648+05:30
Vadodara,Gujarat,22.3072,73.1812,32.7,59,0.0,997.7,8.05,52.6,81,45.8,27.0,10.9,185.0,65.0,15.3,0,5,7,1,2026-06-11T19:31:22.259658+05:30
Rajkot,Gujarat,22.3039,70.8022,34.4,49,0.0,987.5,7.55,51.1,71,56.2,21.6,3.7,112.0,72.0,4.9,0,5,7,1,2026-06-11T19:31:22.259666+05:30
Thane,Maharashtra,19.2183,72.9781,31.5,62,0.0,1004.6,7.7,40.3,76,57.2,25.2,7.2,166.0,53.0,5.2,3,5,4,1,2026-06-11T19:31:22.259674+05:30
Nagpur,Maharashtra,21.1458,79.0882,38.5,27,0.0,967.4,8.9,35.6,112,34.9,22.5,11.3,220.0,103.0,15.4,0,5,10,1,2026-06-11T19:31:22.259683+05:30
Nashik,Maharashtra,19.9975,73.7898,28.3,62,0.0,942.3,8.05,46.4,63,47.8,22.4,4.3,123.0,58.0,2.1,7,5,7,1,2026-06-11T19:31:22.259690+05:30
Aurangabad,Maharashtra,19.8762,75.3433,34.6,32,0.0,940.0,8.95,48.2,75,55.4,24.8,3.3,149.0,104.0,5.3,0,5,7,0,2026-06-11T19:31:22.259698+05:30
Solapur,Maharashtra,17.6599,75.9064,33.8,30,0.0,953.0,8.9,49.3,57,41.3,24.4,21.2,243.0,73.0,5.3,0,5,7,0,2026-06-11T19:31:22.259707+05:30
Kolhapur,Maharashtra,16.705,74.2433,25.9,81,0.0,946.1,8.75,45.4,46,36.2,19.7,4.7,160.0,56.0,2.3,7,5,7,1,2026-06-11T19:31:22.259715+05:30
Goa,Goa,15.2993,74.124,25.9,97,0.0,997.1,8.0,32.8,63,37.0,18.2,3.3,266.0,51.0,1.4,7,5,7,1,2026-06-11T19:31:22.259723+05:30
Jodhpur,Rajasthan,26.2389,73.0243,37.9,36,0.0,973.4,8.45,50.4,173,274.7,58.7,3.8,151.0,81.0,2.4,0,5,10,1,2026-06-11T19:31:22.259731+05:30
Udaipur,Rajasthan,24.5854,73.7125,33.5,45,0.0,940.0,8.85,44.6,79,49.1,24.0,2.9,134.0,101.0,5.4,0,5,7,1,2026-06-11T19:31:22.259739+05:30
Kota,Rajasthan,25.2138,75.8648,37.5,37,0.0,970.5,8.4,40.3,83,55.1,31.3,5.0,177.0,92.0,5.6,0,5,10,1,2026-06-11T19:31:22.259746+05:30
Bikaner,Rajasthan,28.0229,73.3119,40.6,20,0.0,970.4,8.5,46.8,161,240.3,75.9,1.7,124.0,93.0,3.2,0,5,10,0,2026-06-11T19:31:22.259754+05:30
Ajmer,Rajasthan,26.4499,74.6399,34.5,41,0.0,946.7,8.4,52.2,72,54.5,28.2,3.7,140.0,92.0,3.3,0,5,7,1,2026-06-11T19:31:22.259761+05:30
Gwalior,Madhya Pradesh,26.2183,78.1828,37.6,37,0.0,974.7,8.3,45.4,74,55.1,28.6,5.0,161.0,86.0,6.2,0,5,10,1,2026-06-11T19:31:22.259769+05:30
Indore,Madhya Pradesh,22.7196,75.8577,34.6,40,0.0,942.9,8.65,46.1,78,70.8,33.4,4.3,221.0,98.0,6.4,0,5,7,1,2026-06-11T19:31:22.259777+05:30
Bhopal,Madhya Pradesh,23.2599,77.4126,34.3,45,0.0,947.8,8.7,41.8,73,26.3,18.6,5.7,240.0,84.0,3.3,0,5,7,1,2026-06-11T19:31:22.259785+05:30
Jabalpur,Madhya Pradesh,23.1815,79.9864,35.1,37,0.0,955.7,8.9,36.7,75,25.5,18.2,6.9,221.0,94.0,4.2,0,5,10,1,2026-06-11T19:31:22.259792+05:30
Ujjain,Madhya Pradesh,23.1765,75.7885,34.4,40,0.0,948.0,8.6,45.4,81,66.4,34.1,2.5,177.0,101.0,5.6,0,5,7,1,2026-06-11T19:31:22.259801+05:30
Visakhapatnam,Andhra Pradesh,17.6868,83.2185,32.0,77,0.0,998.5,6.9,32.8,163,75.7,59.8,48.9,566.0,99.0,63.3,3,5,7,1,2026-06-11T19:31:22.259808+05:30
Vijayawada,Andhra Pradesh,16.5062,80.648,34.7,48,0.0,997.9,8.3,43.6,106,49.4,38.3,11.3,314.0,92.0,7.5,0,5,7,1,2026-06-11T19:31:22.259816+05:30
Guntur,Andhra Pradesh,16.3067,80.4365,34.0,55,0.0,999.1,8.5,40.7,93,63.8,48.1,14.0,325.0,85.0,7.0,0,5,7,1,2026-06-11T19:31:22.259823+05:30
Nellore,Andhra Pradesh,14.4426,79.9865,32.8,56,0.0,1002.3,5.55,39.2,62,31.5,20.4,6.0,227.0,104.0,5.6,0,5,0,1,2026-06-11T19:31:22.259831+05:30
Kurnool,Andhra Pradesh,15.8281,78.0373,32.7,50,0.0,972.9,8.25,55.8,62,50.8,28.6,17.1,179.0,87.0,9.1,0,5,7,1,2026-06-11T19:31:22.259839+05:30
Kakinada,Andhra Pradesh,16.9891,82.2475,33.6,62,0.0,1002.0,8.55,40.3,107,42.1,30.2,8.7,282.0,105.0,5.0,3,5,4,1,2026-06-11T19:31:22.259846+05:30
Tirupati,Andhra Pradesh,13.6288,79.4192,27.3,93,0.0,988.9,7.05,43.6,58,24.9,17.3,13.1,230.0,69.0,2.6,7,5,7,1,2026-06-11T19:31:22.259853+05:30
Warangal,Telangana,17.9689,79.5941,32.6,60,0.0,974.1,8.6,48.2,99,75.2,54.4,21.0,201.0,78.0,8.3,0,5,7,1,2026-06-11T19:31:22.259859+05:30
Nizamabad,Telangana,18.6725,78.0941,35.3,32,0.0,960.2,7.9,38.2,77,51.1,32.5,18.9,313.0,87.0,6.6,0,5,10,1,2026-06-11T19:31:22.259866+05:30
Mysore,Karnataka,12.2958,76.6396,22.9,94,0.1,927.9,9.05,46.8,32,9.7,7.2,13.1,192.0,46.0,2.0,6,5,7,1,2026-06-11T19:31:22.259873+05:30
Mangalore,Karnataka,12.9141,74.856,25.1,99,0.0,1007.0,8.65,31.3,40,19.7,11.6,8.2,295.0,43.0,2.5,7,5,4,1,2026-06-11T19:31:22.259880+05:30
Hubli-Dharwad,Karnataka,15.3647,75.124,25.3,80,0.0,939.6,8.7,43.9,37,22.4,13.5,5.4,156.0,55.0,1.4,7,5,7,1,2026-06-11T19:31:22.259887+05:30
Belgaum,Karnataka,15.8497,74.4977,23.7,87,0.0,924.4,6.65,46.1,47,30.2,15.5,4.9,117.0,52.0,1.6,3,5,7,1,2026-06-11T19:31:25.535367+05:30
Coimbatore,Tamil Nadu,11.0168,76.9558,24.2,91,0.0,961.1,7.95,55.8,37,5.6,4.7,7.6,201.0,55.0,2.8,3,5,7,1,2026-06-11T19:31:25.535400+05:30
Madurai,Tamil Nadu,9.9252,78.1198,31.8,52,0.0,991.9,7.3,39.6,43,18.3,9.3,6.5,159.0,69.0,2.5,0,5,7,1,2026-06-11T19:31:25.535411+05:30
Trichy,Tamil Nadu,10.7905,78.7047,28.6,86,0.2,999.1,7.25,39.2,41,24.3,13.2,10.3,225.0,68.0,3.2,10,5,7,1,2026-06-11T19:31:25.535421+05:30
Salem,Tamil Nadu,11.6643,78.146,25.1,95,0.0,977.2,7.3,40.3,54,19.7,12.7,13.1,289.0,67.0,5.3,7,5,7,1,2026-06-11T19:31:25.535429+05:30
Tirunelveli,Tamil Nadu,8.7139,77.7567,30.6,61,0.0,1002.9,6.75,42.8,31,4.5,3.7,5.7,170.0,48.0,1.3,3,5,4,1,2026-06-11T19:31:25.535460+05:30
Vellore,Tamil Nadu,12.9165,79.1325,26.6,94,0.0,983.5,8.4,45.0,59,30.6,21.7,11.6,240.0,69.0,2.8,7,5,7,1,2026-06-11T19:31:25.535470+05:30
Erode,Tamil Nadu,11.341,77.7172,28.3,78,0.1,988.9,8.3,42.1,43,14.3,9.9,12.7,277.0,58.0,3.2,10,5,7,1,2026-06-11T19:31:25.535478+05:30
Kochi,Kerala,9.9312,76.2673,25.9,90,0.1,1010.3,7.1,32.8,42,13.2,9.7,19.2,192.0,26.0,4.1,10,0,4,1,2026-06-11T19:31:25.535487+05:30
Thiruvananthapuram,Kerala,8.5241,76.9366,25.0,94,0.1,1009.8,7.7,40.7,27,11.2,5.6,1.7,117.0,59.0,0.5,10,0,4,1,2026-06-11T19:31:25.535494+05:30
Kozhikode,Kerala,11.2588,75.7804,25.0,99,0.1,1008.8,7.0,34.6,30,8.1,4.2,1.6,338.0,60.0,0.8,10,0,4,1,2026-06-11T19:31:25.535501+05:30
Thrissur,Kerala,10.5276,76.2144,24.5,99,0.0,1008.5,7.25,33.1,37,12.8,9.6,9.9,381.0,42.0,2.4,3,0,4,1,2026-06-11T19:31:25.535510+05:30
Kannur,Kerala,11.8745,75.3704,25.6,97,0.0,1007.7,8.7,28.1,33,17.8,11.1,17.1,407.0,31.0,2.8,7,5,4,1,2026-06-11T19:31:25.535516+05:30
Patna,Bihar,25.5941,85.1376,30.0,76,0.0,995.7,8.85,44.6,173,75.2,48.4,16.2,536.0,133.0,17.6,7,5,7,1,2026-06-11T19:31:25.535523+05:30
Gaya,Bihar,24.7914,85.0002,30.8,74,0.0,988.9,8.9,49.0,206,91.7,68.5,11.6,482.0,144.0,15.9,3,5,7,1,2026-06-11T19:31:25.535530+05:30
Muzaffarpur,Bihar,26.1209,85.3647,29.7,77,0.0,996.0,8.85,45.7,145,83.4,49.8,24.4,513.0,106.0,16.6,7,5,7,1,2026-06-11T19:31:25.535537+05:30
Bhagalpur,Bihar,25.2425,87.0117,30.1,75,0.0,996.7,8.75,37.4,169,85.4,62.9,15.1,461.0,140.0,21.9,3,5,7,1,2026-06-11T19:31:25.535544+05:30
Ranchi,Jharkhand,23.3441,85.3096,26.8,72,0.0,934.0,9.0,40.7,139,81.5,47.8,18.7,464.0,104.0,11.8,7,5,7,1,2026-06-11T19:31:25.535552+05:30
Jamshedpur,Jharkhand,22.8046,86.2029,27.6,86,0.1,987.6,8.5,37.8,192,93.1,69.2,17.6,440.0,117.0,23.7,10,5,7,1,2026-06-11T19:31:25.535558+05:30
Dhanbad,Jharkhand,23.7957,86.4304,27.2,89,0.0,976.4,8.45,36.0,198,92.4,71.0,42.8,475.0,110.0,108.2,7,5,7,1,2026-06-11T19:31:25.535565+05:30
Bokaro,Jharkhand,23.6693,86.1511,28.2,80,0.0,980.3,8.85,48.2,215,111.1,86.4,41.1,855.0,140.0,123.4,7,5,7,1,2026-06-11T19:31:25.535572+05:30
Bhubaneswar,Odisha,20.2961,85.8245,30.6,87,0.0,997.9,9.05,45.4,158,45.5,37.5,11.3,506.0,94.0,5.4,3,5,7,1,2026-06-11T19:31:25.535580+05:30
Cuttack,Odisha,20.4625,85.8828,30.0,91,0.3,999.4,9.15,43.2,158,45.5,37.5,11.3,472.0,94.0,5.4,10,5,7,1,2026-06-11T19:31:25.535586+05:30
Rourkela,Odisha,22.2604,84.8536,29.3,78,0.0,980.4,8.5,33.1,152,93.8,79.6,32.3,985.0,87.0,18.6,7,5,7,1,2026-06-11T19:31:25.535593+05:30
Raipur,Chhattisgarh,21.2514,81.6296,30.3,56,0.1,970.6,8.9,43.2,138,64.5,52.3,34.5,544.0,91.0,51.8,3,5,7,1,2026-06-11T19:31:25.535600+05:30
Bhilai,Chhattisgarh,21.1938,81.3509,36.9,32,0.0,970.1,8.9,40.3,111,67.5,51.7,38.6,767.0,78.0,48.3,0,5,10,1,2026-06-11T19:31:25.535607+05:30
Guwahati,Assam,26.1158,91.7086,26.3,96,0.3,998.7,8.75,22.7,83,21.5,16.9,8.1,577.0,75.0,1.9,10,5,7,1,2026-06-11T19:31:25.535614+05:30
Agartala,Tripura,23.8315,91.2868,26.7,95,0.0,1003.4,8.85,27.4,94,59.3,52.3,28.4,240.0,69.0,4.3,7,5,4,1,2026-06-11T19:31:25.535621+05:30
Shillong,Meghalaya,25.5788,91.8933,19.8,98,0.0,855.8,8.4,22.7,66,28.5,22.1,9.3,381.0,78.0,2.6,3,10,7,1,2026-06-11T19:31:25.535628+05:30
Imphal,Manipur,24.817,93.9368,23.2,97,0.0,921.9,9.1,25.6,85,25.7,19.8,13.1,397.0,55.0,2.9,3,5,7,1,2026-06-11T19:31:25.535636+05:30
Aizawl,Mizoram,23.7271,92.7176,20.3,98,0.0,890.4,9.0,22.3,68,29.0,22.6,9.2,218.0,51.0,1.6,3,5,7,1,2026-06-11T19:31:25.535643+05:30
Kohima,Nagaland,25.6701,94.1077,20.2,96,0.0,854.3,9.25,24.8,63,26.5,20.1,12.3,338.0,60.0,1.8,3,5,7,1,2026-06-11T19:31:25.535650+05:30
Gangtok,Sikkim,27.3314,88.6138,17.8,90,0.1,836.2,9.25,40.0,100,19.6,13.7,8.5,364.0,124.0,2.9,6,10,7,1,2026-06-11T19:31:25.535657+05:30
Siliguri,West Bengal,26.7271,88.3953,27.0,85,0.0,990.0,8.75,28.1,122,55.1,37.3,17.7,558.0,112.0,6.3,7,5,7,1,2026-06-11T19:31:28.808109+05:30
Durgapur,West Bengal,23.5204,87.3119,26.2,96,0.2,991.3,8.95,46.1,159,103.6,78.9,33.3,445.0,109.0,41.4,10,5,7,1,2026-06-11T19:31:28.808145+05:30
Asansol,West Bengal,23.6739,86.9524,26.5,94,0.0,990.0,8.85,45.0,164,88.7,64.3,31.0,585.0,109.0,41.7,7,5,7,1,2026-06-11T19:31:28.808158+05:30
Pondicherry,Puducherry,11.9139,79.8145,31.0,69,0.0,1006.7,6.95,44.6,66,21.6,14.7,13.0,240.0,78.0,5.4,3,5,4,1,2026-06-11T19:31:28.808170+05:30
Port Blair,Andaman and Nicobar Islands,11.6234,92.7265,26.9,87,0.0,1008.5,2.05,56.5,22,10.7,6.0,0.4,92.0,50.0,0.2,7,0,0,1,2026-06-11T19:31:28.808181+05:30
Haridwar,Uttarakhand,29.9457,78.1642,32.0,54,0.0,968.4,7.65,55.4,138,150.9,65.0,8.6,240.0,124.0,8.8,0,5,7,1,2026-06-11T19:31:28.808191+05:30
Rishikesh,Uttarakhand,30.0869,78.2676,30.0,63,0.0,961.0,7.7,44.6,125,183.5,59.8,5.2,246.0,140.0,7.4,7,5,7,1,2026-06-11T19:31:28.808201+05:30
Nainital,Uttarakhand,29.3919,79.4542,15.2,100,0.0,801.7,8.1,35.3,129,136.4,48.8,4.6,218.0,127.0,4.1,3,10,7,0,2026-06-11T19:31:28.808211+05:30
Mussoorie,Uttarakhand,30.4599,78.0664,17.5,95,0.0,800.4,8.15,44.3,128,146.7,56.7,17.8,237.0,107.0,8.2,3,10,7,1,2026-06-11T19:31:28.808219+05:30
Dharamshala,Himachal Pradesh,32.219,76.3234,23.9,56,0.0,865.0,8.2,35.6,141,23.0,17.9,11.4,282.0,101.0,1.7,0,5,7,0,2026-06-11T19:31:28.808226+05:30
Dalhousie,Himachal Pradesh,32.5387,75.971,19.5,61,0.0,801.6,8.4,35.6,177,38.1,26.8,14.1,347.0,157.0,4.3,3,5,7,0,2026-06-11T19:31:28.808234+05:30
Patiala,Punjab,30.3398,76.3869,28.1,79,0.4,971.4,7.65,54.4,1770,240.3,86.6,6.2,234.0,145.0,10.6,10,5,7,1,2026-06-11T19:31:28.808242+05:30
Bhatinda,Punjab,30.211,74.9455,27.9,69,0.0,975.6,8.35,87.1,169,592.3,141.6,8.0,253.0,138.0,11.9,7,5,7,1,2026-06-11T19:31:28.808249+05:30
Rohtak,Haryana,28.8955,76.6066,34.3,51,0.0,972.6,7.85,44.6,766,631.4,165.8,30.8,378.0,112.0,17.8,0,5,7,1,2026-06-11T19:31:28.808256+05:30
Panipat,Haryana,29.3909,76.9635,29.1,71,0.1,973.3,7.7,44.3,1798,405.1,124.8,14.5,296.0,145.0,15.7,10,5,7,1,2026-06-11T19:31:28.808263+05:30
Mathura,Uttar Pradesh,27.4924,77.6737,35.7,47,0.0,977.1,8.15,69.1,486,187.7,59.1,38.7,305.0,39.0,5.9,0,5,10,1,2026-06-11T19:31:28.808269+05:30
Vrindavan,Uttar Pradesh,27.5823,77.7027,35.4,49,0.0,977.5,8.1,69.8,486,187.7,59.1,38.7,309.0,39.0,5.9,0,5,10,1,2026-06-11T19:31:28.808276+05:30
Ayodhya,Uttar Pradesh,26.7922,82.1998,30.7,67,0.0,989.8,8.05,43.2,166,82.7,44.2,7.9,393.0,144.0,9.3,3,5,7,1,2026-06-11T19:31:28.808283+05:30
Ratlam,Madhya Pradesh,23.3315,75.0367,33.6,45,0.0,949.0,8.55,48.2,81,61.7,32.6,2.0,128.0,103.0,5.3,0,5,7,1,2026-06-11T19:31:28.808290+05:30
Sagar,Madhya Pradesh,23.8388,78.7378,35.0,37,0.0,944.3,8.75,42.8,65,23.1,16.3,5.2,146.0,87.0,2.8,0,5,7,1,2026-06-11T19:31:28.808296+05:30
Satna,Madhya Pradesh,24.6005,80.8322,33.9,48,0.0,964.9,8.85,52.2,72,40.3,27.4,7.2,250.0,104.0,5.1,0,5,7,1,2026-06-11T19:31:28.808304+05:30
Akola,Maharashtra,20.7002,77.0082,38.2,30,0.0,968.7,8.8,43.2,70,33.9,21.8,10.4,220.0,93.0,7.1,0,5,10,1,2026-06-11T19:31:28.808311+05:30
Amravati,Maharashtra,20.9374,77.7796,36.9,33,0.0,961.8,8.85,43.6,70,35.4,22.7,13.8,223.0,91.0,7.8,0,5,10,1,2026-06-11T19:31:28.808319+05:30
Latur,Maharashtra,18.4088,76.5604,31.7,45,0.0,935.7,8.85,37.8,65,36.9,22.5,9.2,301.0,81.0,2.6,0,5,7,1,2026-06-11T19:31:28.808327+05:30
Nanded,Maharashtra,19.1383,77.3091,36.0,27,0.0,963.5,8.85,43.9,73,43.2,27.1,15.9,383.0,89.0,5.3,0,5,10,0,2026-06-11T19:31:28.808334+05:30
Gulbarga,Karnataka,17.3297,76.8343,31.4,51,0.0,954.6,8.25,39.6,57,41.7,22.3,22.7,276.0,70.0,3.8,0,5,7,1,2026-06-11T19:31:28.808340+05:30
Bidar,Karnataka,17.9104,77.5199,31.7,41,0.0,931.8,8.95,37.8,71,44.6,28.7,15.9,256.0,81.0,3.1,0,5,7,1,2026-06-11T19:31:28.808347+05:30
Hospet,Karnataka,15.2689,76.3909,27.4,73,0.0,954.0,8.8,54.7,47,25.2,15.9,5.7,149.0,72.0,1.8,7,5,7,1,2026-06-11T19:31:28.808354+05:30
Tirupur,Tamil Nadu,11.1085,77.3411,26.4,78,0.0,974.9,8.35,60.1,42,13.6,10.1,13.5,179.0,53.0,3.9,7,5,7,1,2026-06-11T19:31:28.808361+05:30
Alappuzha,Kerala,9.4981,76.3388,25.9,94,0.2,1010.2,7.1,36.4,33,12.3,7.3,8.4,92.0,47.0,2.0,10,0,4,1,2026-06-11T19:31:28.808368+05:30
Munnar,Kerala,10.0889,77.0595,17.4,100,0.2,856.9,6.65,37.8,31,5.1,4.4,7.1,118.0,53.0,1.7,6,10,7,1,2026-06-11T19:31:28.808375+05:30
Silchar,Assam,24.8333,92.7789,25.5,97,0.1,1003.0,8.8,31.0,88,55.2,40.9,10.7,260.0,91.0,8.1,10,5,4,1,2026-06-11T19:31:28.808382+05:30
Dibrugarh,Assam,27.4728,94.912,26.9,85,0.0,992.9,8.7,23.4,65,21.8,20.5,13.2,279.0,55.0,2.1,7,5,7,1,2026-06-11T19:31:28.808388+05:30
