city,state,latitude,longitude,temp,humidity,rain,pressure,uv_index,wind_gusts,aqi,pm10,pm2_5,no2,co,o3,so2,mosquito_risk,arthritis_risk,migraine_risk,frizz_risk,updated_at
Delhi,Delhi,28.6139,77.209,31.6,48,0.0,984.7,7.05,25.2,153,233.8,60.5,8.2,446.0,190.0,27.1,0,5,7,1,2026-06-01T11:36:06.056879+05:30
Mumbai,Maharashtra,19.076,72.8777,33.2,58,0.1,1010.1,7.65,38.5,54,25.8,15.2,4.6,167.0,104.0,7.0,3,0,4,1,2026-06-01T11:36:06.056950+05:30
Bangalore,Karnataka,12.9716,77.5946,29.5,53,0.0,914.7,8.5,38.9,65,15.4,12.4,4.0,286.0,141.0,5.1,4,5,7,1,2026-06-01T11:36:06.056969+05:30
Hyderabad,Telangana,17.385,78.4867,35.7,25,0.0,954.9,9.1,30.6,77,31.1,14.5,2.1,226.0,148.0,5.9,0,5,10,0,2026-06-01T11:36:06.056979+05:30
Chennai,Tamil Nadu,13.0827,80.2707,37.4,37,0.0,1007.4,8.7,39.6,74,34.1,27.4,6.3,320.0,174.0,15.5,0,5,7,1,2026-06-01T11:36:06.056988+05:30
Kolkata,West Bengal,22.5726,88.3639,34.2,60,0.0,1006.2,8.9,32.4,123,60.3,38.2,2.6,409.0,159.0,10.7,0,5,4,1,2026-06-01T11:36:06.057000+05:30
Pune,Maharashtra,18.5204,73.8567,34.7,34,0.0,950.1,8.3,40.7,52,40.6,17.0,2.0,147.0,112.0,6.4,0,5,7,1,2026-06-01T11:36:06.057008+05:30
Ahmedabad,Gujarat,23.0225,72.5714,35.5,45,0.0,1002.7,8.0,37.1,70,53.3,22.8,1.8,151.0,85.0,4.9,0,5,7,1,2026-06-01T11:36:06.057015+05:30
Jaipur,Rajasthan,26.9124,75.7873,33.0,42,0.0,961.1,8.15,33.8,110,174.2,41.2,1.2,161.0,112.0,4.2,0,5,7,1,2026-06-01T11:36:06.057024+05:30
Lucknow,Uttar Pradesh,26.8467,80.9462,32.7,45,0.0,995.9,8.25,24.1,105,65.7,29.8,1.8,271.0,171.0,6.7,0,5,7,1,2026-06-01T11:36:06.057031+05:30
Kanpur,Uttar Pradesh,26.4499,80.3319,33.2,44,0.0,993.9,8.25,19.8,104,70.5,28.5,1.8,260.0,166.0,7.5,0,5,7,1,2026-06-01T11:36:06.057038+05:30
Chandigarh,Chandigarh,30.7333,76.7794,31.5,39,0.0,970.9,7.4,27.7,87,22.5,19.8,3.1,427.0,186.0,13.7,0,5,7,0,2026-06-01T11:36:06.057046+05:30
Srinagar,Jammu and Kashmir,34.0837,74.7973,25.1,42,0.0,845.0,9.0,22.7,122,87.8,38.9,1.6,369.0,171.0,4.9,4,5,7,0,2026-06-01T11:36:06.057054+05:30
Jammu,Jammu and Kashmir,32.7266,74.857,32.5,40,0.0,974.4,8.55,23.0,114,100.1,34.1,1.4,313.0,167.0,6.9,0,5,7,1,2026-06-01T11:36:06.057065+05:30
Amritsar,Punjab,31.634,74.8723,33.2,39,0.0,982.5,8.45,16.6,135,104.8,35.6,1.4,282.0,166.0,6.7,0,5,7,1,2026-06-01T11:36:06.057079+05:30
Ludhiana,Punjab,30.901,75.8573,33.3,36,0.0,980.6,8.0,27.7,153,61.2,26.1,2.4,340.0,184.0,15.4,0,5,7,1,2026-06-01T11:36:06.057088+05:30
Jalandhar,Punjab,31.326,75.5762,33.7,37,0.0,981.5,8.2,18.0,152,108.3,36.4,1.6,333.0,175.0,7.8,0,5,7,1,2026-06-01T11:36:06.057094+05:30
Dehradun,Uttarakhand,30.6284,78.0322,20.6,53,0.0,834.0,7.6,31.3,29,11.7,4.1,1.7,189.0,130.0,0.7,0,5,7,0,2026-06-01T11:36:06.057101+05:30
Shimla,Himachal Pradesh,31.1048,77.1734,19.7,40,0.0,788.9,7.9,30.6,44,19.8,7.9,1.1,209.0,139.0,1.6,0,5,7,0,2026-06-01T11:36:06.057109+05:30
Manali,Himachal Pradesh,32.2396,77.1887,19.2,52,0.0,823.0,8.8,32.8,48,8.9,4.2,2.3,147.0,117.0,0.4,0,5,7,0,2026-06-01T11:36:06.057116+05:30
Gurgaon,Haryana,28.4595,77.0266,32.1,46,0.0,983.0,7.55,23.8,595,472.2,85.0,5.9,342.0,174.0,17.6,0,5,7,1,2026-06-01T11:36:06.057122+05:30
Noida,Uttar Pradesh,28.5355,77.391,31.5,51,0.0,986.3,7.2,27.0,595,472.2,85.0,5.9,304.0,174.0,17.6,0,5,7,1,2026-06-01T11:36:06.057128+05:30
Ghaziabad,Uttar Pradesh,28.6692,77.4538,30.6,53,0.0,984.6,7.65,30.2,121,228.2,51.5,2.4,282.0,175.0,13.1,0,5,7,1,2026-06-01T11:36:06.057135+05:30
Faridabad,Haryana,28.4089,77.3178,31.9,47,0.0,985.4,7.2,26.6,595,472.2,85.0,5.9,286.0,174.0,17.6,0,5,7,1,2026-06-01T11:36:06.057141+05:30
Meerut,Uttar Pradesh,28.9845,77.7064,29.6,61,0.0,983.8,7.6,31.7,121,228.2,51.5,2.4,288.0,175.0,13.1,7,5,7,1,2026-06-01T11:36:06.057147+05:30
Agra,Uttar Pradesh,27.1767,78.0081,33.2,42,0.0,989.1,8.05,25.6,194,381.8,63.1,1.7,273.0,139.0,5.9,0,5,7,1,2026-06-01T11:36:06.057154+05:30
Varanasi,Uttar Pradesh,25.3176,82.9739,35.5,42,0.0,998.7,8.75,20.9,152,60.5,40.0,1.7,370.0,186.0,9.6,0,5,10,1,2026-06-01T11:36:06.057161+05:30
Prayagraj,Uttar Pradesh,25.4358,81.8463,35.9,39,0.0,997.3,8.65,23.8,107,58.4,36.9,1.8,317.0,182.0,8.1,0,5,10,1,2026-06-01T11:36:06.057168+05:30
Gorakhpur,Uttar Pradesh,26.7606,83.3732,35.0,43,0.0,998.6,8.6,21.6,157,65.0,41.7,1.7,334.0,185.0,9.1,0,5,7,1,2026-06-01T11:36:06.057177+05:30
Bareilly,Uttar Pradesh,28.367,79.4304,29.0,64,0.0,989.6,8.0,29.5,125,78.9,32.8,3.2,237.0,169.0,13.9,7,5,7,1,2026-06-01T11:36:06.057183+05:30
Aligarh,Uttar Pradesh,27.8974,78.088,32.0,47,0.0,987.3,7.9,27.4,128,287.8,57.5,2.0,238.0,155.0,9.5,0,5,7,1,2026-06-01T11:36:06.057190+05:30
Moradabad,Uttar Pradesh,28.8386,78.7733,29.3,64,0.1,986.3,7.75,34.2,151,69.4,34.5,4.1,239.0,170.0,14.5,10,5,7,1,2026-06-01T11:36:06.057197+05:30
Saharanpur,Uttar Pradesh,29.9637,77.546,30.2,55,0.0,978.1,7.2,33.1,123,34.3,22.5,1.9,389.0,159.0,4.3,0,5,7,1,2026-06-01T11:36:06.057203+05:30
Jhansi,Uttar Pradesh,25.4484,78.5685,34.1,40,0.0,979.5,8.45,27.4,73,62.9,31.3,2.3,148.0,159.0,13.6,0,5,7,1,2026-06-01T11:36:09.383216+05:30
Surat,Gujarat,21.1702,72.8311,34.9,53,0.0,1007.9,7.6,43.9,68,49.8,26.5,14.0,370.0,58.0,46.9,0,5,4,1,2026-06-01T11:36:09.383248+05:30
Vadodara,Gujarat,22.3072,73.1812,36.3,44,0.0,1005.1,8.0,40.7,65,48.4,23.5,1.9,150.0,89.0,4.4,0,5,7,1,2026-06-01T11:36:09.383259+05:30
Rajkot,Gujarat,22.3039,70.8022,36.3,41,0.0,995.1,7.55,41.4,65,40.6,16.5,1.0,114.0,77.0,3.5,0,5,10,1,2026-06-01T11:36:09.383268+05:30
Thane,Maharashtra,19.2183,72.9781,35.0,52,0.1,1009.2,7.65,36.4,54,25.8,15.2,4.6,180.0,104.0,7.0,3,0,4,1,2026-06-01T11:36:09.383278+05:30
Nagpur,Maharashtra,21.1458,79.0882,38.6,23,0.0,973.9,8.85,35.3,80,47.6,24.2,7.7,194.0,159.0,29.8,0,5,10,0,2026-06-01T11:36:09.383286+05:30
Nashik,Maharashtra,19.9975,73.7898,33.5,41,0.0,948.1,8.05,43.2,44,36.2,13.3,1.1,127.0,86.0,2.5,0,5,7,1,2026-06-01T11:36:09.383294+05:30
Aurangabad,Maharashtra,19.8762,75.3433,34.8,35,0.0,946.5,8.9,40.3,56,43.5,14.8,1.1,134.0,95.0,2.9,0,5,7,1,2026-06-01T11:36:09.383301+05:30
Solapur,Maharashtra,17.6599,75.9064,36.0,35,0.0,958.8,8.9,38.9,64,38.6,17.3,1.4,136.0,127.0,6.1,0,5,10,1,2026-06-01T11:36:09.383309+05:30
Kolhapur,Maharashtra,16.705,74.2433,34.4,39,0.0,950.4,8.75,47.5,38,34.7,12.8,1.4,139.0,95.0,1.9,0,5,7,1,2026-06-01T11:36:09.383317+05:30
Goa,Goa,15.2993,74.124,34.6,54,0.0,999.8,8.7,29.9,53,15.4,9.8,0.8,170.0,76.0,1.7,0,5,7,1,2026-06-01T11:36:09.383325+05:30
Jodhpur,Rajasthan,26.2389,73.0243,35.8,46,0.0,983.0,8.4,39.2,99,196.5,48.0,0.7,134.0,86.0,3.6,0,5,10,1,2026-06-01T11:36:09.383332+05:30
Udaipur,Rajasthan,24.5854,73.7125,34.3,40,0.0,947.9,8.75,38.9,74,51.7,21.1,0.7,155.0,87.0,2.7,0,5,7,1,2026-06-01T11:36:09.383339+05:30
Kota,Rajasthan,25.2138,75.8648,34.0,42,0.0,980.2,8.35,45.0,77,87.5,30.7,1.5,165.0,118.0,9.2,0,5,7,1,2026-06-01T11:36:09.383346+05:30
Bikaner,Rajasthan,28.0229,73.3119,37.0,31,0.0,981.9,8.4,28.8,119,193.2,42.0,0.6,141.0,104.0,4.3,0,5,10,1,2026-06-01T11:36:09.383354+05:30
Ajmer,Rajasthan,26.4499,74.6399,33.6,44,0.0,955.7,8.3,35.6,86,142.5,33.3,0.7,140.0,102.0,3.4,0,5,7,1,2026-06-01T11:36:09.383361+05:30
Gwalior,Madhya Pradesh,26.2183,78.1828,33.3,43,0.0,984.5,8.25,27.4,77,60.3,23.4,0.8,172.0,130.0,4.4,0,5,7,1,2026-06-01T11:36:09.383368+05:30
Indore,Madhya Pradesh,22.7196,75.8577,35.5,38,0.0,950.4,8.6,42.1,69,51.3,21.9,1.3,191.0,107.0,6.6,0,5,10,1,2026-06-01T11:36:09.383375+05:30
Bhopal,Madhya Pradesh,23.2599,77.4126,31.8,45,0.1,955.8,8.65,78.1,58,49.0,21.2,0.8,201.0,123.0,6.2,3,5,7,1,2026-06-01T11:36:09.383382+05:30
Jabalpur,Madhya Pradesh,23.1815,79.9864,36.5,27,0.0,962.9,8.8,38.9,97,38.1,17.0,0.9,183.0,141.0,4.3,0,5,10,0,2026-06-01T11:36:09.383389+05:30
Ujjain,Madhya Pradesh,23.1765,75.7885,35.2,42,0.0,956.0,8.55,42.8,69,53.0,23.4,1.2,177.0,102.0,8.5,0,5,10,1,2026-06-01T11:36:09.383398+05:30
Visakhapatnam,Andhra Pradesh,17.6868,83.2185,36.5,53,0.0,1003.0,9.0,43.2,109,47.1,37.5,10.1,416.0,164.0,38.6,0,5,7,1,2026-06-01T11:36:09.383405+05:30
Vijayawada,Andhra Pradesh,16.5062,80.648,38.7,33,0.0,1002.0,9.0,26.3,84,48.8,24.8,1.9,185.0,142.0,7.8,0,5,7,1,2026-06-01T11:36:09.383412+05:30
Guntur,Andhra Pradesh,16.3067,80.4365,38.5,33,0.0,1003.3,9.0,36.0,85,59.8,29.0,1.9,183.0,148.0,8.9,0,5,7,1,2026-06-01T11:36:09.383419+05:30
Nellore,Andhra Pradesh,14.4426,79.9865,36.9,40,0.0,1005.8,8.85,36.7,73,21.0,14.2,2.3,151.0,141.0,7.0,0,5,7,1,2026-06-01T11:36:09.383426+05:30
Kurnool,Andhra Pradesh,15.8281,78.0373,35.2,40,0.0,978.2,8.95,37.1,72,51.1,22.1,1.8,173.0,140.0,8.7,0,5,10,1,2026-06-01T11:36:09.383435+05:30
Kakinada,Andhra Pradesh,16.9891,82.2475,37.6,46,0.0,1006.8,8.95,31.7,86,39.1,29.0,2.1,232.0,152.0,6.2,0,5,7,1,2026-06-01T11:36:09.383442+05:30
Tirupati,Andhra Pradesh,13.6288,79.4192,37.7,34,0.0,991.4,8.7,26.6,79,19.0,12.8,1.5,148.0,129.0,3.2,0,5,10,1,2026-06-01T11:36:09.383449+05:30
Warangal,Telangana,17.9689,79.5941,37.0,27,0.0,979.4,9.0,27.0,109,43.0,20.1,1.8,203.0,151.0,8.7,0,5,10,0,2026-06-01T11:36:09.383456+05:30
Nizamabad,Telangana,18.6725,78.0941,36.4,30,0.0,966.0,9.0,30.6,70,34.5,15.8,1.1,148.0,126.0,4.7,0,5,10,0,2026-06-01T11:36:09.383464+05:30
Mysore,Karnataka,12.2958,76.6396,27.8,67,0.0,931.2,8.3,45.0,40,10.8,8.6,2.6,188.0,119.0,2.4,7,5,7,1,2026-06-01T11:36:09.383471+05:30
Mangalore,Karnataka,12.9141,74.856,32.0,63,0.0,1008.9,8.75,38.5,41,8.8,6.7,1.4,171.0,97.0,3.0,3,0,4,1,2026-06-01T11:36:09.383479+05:30
Hubli-Dharwad,Karnataka,15.3647,75.124,34.1,40,0.0,943.9,8.9,46.4,36,26.3,10.9,1.3,146.0,89.0,1.2,0,5,7,1,2026-06-01T11:36:09.383486+05:30
Belgaum,Karnataka,15.8497,74.4977,31.9,44,0.0,929.0,8.95,46.4,48,28.5,10.4,1.3,133.0,88.0,1.6,0,5,7,1,2026-06-01T11:36:12.717663+05:30
Coimbatore,Tamil Nadu,11.0168,76.9558,33.0,43,0.0,963.7,7.75,50.0,36,9.5,7.5,1.8,171.0,126.0,3.1,0,5,7,1,2026-06-01T11:36:12.717694+05:30
Madurai,Tamil Nadu,9.9252,78.1198,36.3,38,0.0,993.9,8.8,37.8,77,36.8,20.7,2.7,175.0,168.0,5.8,0,5,10,1,2026-06-01T11:36:12.717705+05:30
Trichy,Tamil Nadu,10.7905,78.7047,32.5,58,0.0,1000.8,8.7,32.0,52,13.0,10.0,2.3,165.0,123.0,4.2,0,5,4,1,2026-06-01T11:36:12.717715+05:30
Salem,Tamil Nadu,11.6643,78.146,32.6,51,0.0,979.3,7.8,33.8,65,20.6,17.4,4.5,190.0,163.0,18.7,0,5,7,1,2026-06-01T11:36:12.717723+05:30
Tirunelveli,Tamil Nadu,8.7139,77.7567,37.1,38,0.0,1004.1,8.75,38.5,29,16.7,8.8,1.1,141.0,93.0,1.1,0,5,7,1,2026-06-01T11:36:12.717731+05:30
Vellore,Tamil Nadu,12.9165,79.1325,35.8,41,0.0,985.3,9.0,40.0,82,18.9,14.5,1.9,194.0,143.0,3.7,0,5,10,1,2026-06-01T11:36:12.717738+05:30
Erode,Tamil Nadu,11.341,77.7172,31.0,57,0.0,990.9,8.6,36.0,47,13.1,10.7,2.5,229.0,145.0,2.4,0,5,7,1,2026-06-01T11:36:12.717746+05:30
Kochi,Kerala,9.9312,76.2673,29.6,76,0.0,1010.8,7.7,34.6,51,15.2,10.9,3.1,162.0,96.0,4.9,7,0,4,1,2026-06-01T11:36:12.717753+05:30
Thiruvananthapuram,Kerala,8.5241,76.9366,29.4,76,0.0,1010.3,7.35,34.2,34,18.2,13.4,3.1,143.0,104.0,2.7,7,0,4,1,2026-06-01T11:36:12.717761+05:30
Kozhikode,Kerala,11.2588,75.7804,30.6,70,0.0,1009.9,8.15,32.0,32,7.9,5.8,0.9,192.0,91.0,2.3,3,0,4,1,2026-06-01T11:36:12.717768+05:30
Thrissur,Kerala,10.5276,76.2144,30.2,73,0.1,1009.0,7.95,29.2,50,12.9,9.4,2.1,172.0,96.0,3.5,6,0,4,1,2026-06-01T11:36:12.717777+05:30
Kannur,Kerala,11.8745,75.3704,30.8,71,0.0,1009.3,8.25,30.6,34,7.9,6.0,1.3,177.0,95.0,2.2,3,0,4,1,2026-06-01T11:36:12.717784+05:30
Patna,Bihar,25.5941,85.1376,34.5,51,0.0,1001.5,8.85,14.4,159,69.8,55.2,2.3,365.0,217.0,18.5,0,5,4,1,2026-06-01T11:36:12.717791+05:30
Gaya,Bihar,24.7914,85.0002,35.3,43,0.0,994.9,8.95,23.8,153,59.4,46.4,1.7,310.0,199.0,15.2,0,5,10,1,2026-06-01T11:36:12.717798+05:30
Muzaffarpur,Bihar,26.1209,85.3647,34.4,48,0.0,1001.4,8.85,17.6,163,68.9,53.4,2.5,352.0,212.0,16.8,0,5,4,1,2026-06-01T11:36:12.717805+05:30
Bhagalpur,Bihar,25.2425,87.0117,34.5,53,0.0,1001.8,8.8,16.6,155,75.2,59.1,3.5,340.0,227.0,33.9,0,5,4,1,2026-06-01T11:36:12.717813+05:30
Ranchi,Jharkhand,23.3441,85.3096,31.5,45,0.0,939.9,9.25,38.9,106,58.6,36.7,1.5,258.0,188.0,16.4,0,5,7,1,2026-06-01T11:36:12.717820+05:30
Jamshedpur,Jharkhand,22.8046,86.2029,34.5,49,0.0,991.5,9.05,22.0,153,62.2,47.1,3.2,444.0,220.0,26.3,0,5,7,1,2026-06-01T11:36:12.717827+05:30
Dhanbad,Jharkhand,23.7957,86.4304,34.1,49,0.0,980.9,9.05,18.7,173,78.2,65.2,18.3,492.0,218.0,85.1,0,5,7,1,2026-06-01T11:36:12.717834+05:30
Bokaro,Jharkhand,23.6693,86.1511,34.0,47,0.0,984.7,9.05,20.2,173,72.2,57.3,17.6,336.0,214.0,80.8,0,5,7,1,2026-06-01T11:36:12.717842+05:30
Bhubaneswar,Odisha,20.2961,85.8245,34.5,60,0.0,1002.6,9.05,30.6,111,50.2,36.8,1.9,270.0,167.0,10.1,0,5,4,1,2026-06-01T11:36:12.717849+05:30
Cuttack,Odisha,20.4625,85.8828,34.3,61,0.0,1004.4,9.1,29.9,111,50.2,36.8,1.9,270.0,167.0,10.1,3,5,4,1,2026-06-01T11:36:12.717856+05:30
Rourkela,Odisha,22.2604,84.8536,36.8,35,0.0,985.6,9.0,27.7,120,50.8,38.8,2.4,393.0,219.0,24.5,0,5,10,1,2026-06-01T11:36:12.717863+05:30
Raipur,Chhattisgarh,21.2514,81.6296,35.2,34,0.0,975.6,7.45,24.8,125,71.2,38.0,12.6,202.0,170.0,44.2,0,5,10,1,2026-06-01T11:36:12.717870+05:30
Bhilai,Chhattisgarh,21.1938,81.3509,35.8,33,0.0,975.9,8.6,29.2,123,81.3,43.2,19.4,259.0,153.0,62.9,0,5,10,1,2026-06-01T11:36:12.717877+05:30
Guwahati,Assam,26.1158,91.7086,32.0,68,0.0,1001.4,8.55,28.1,75,48.5,31.4,1.0,292.0,148.0,3.5,3,5,4,1,2026-06-01T11:36:12.717884+05:30
Agartala,Tripura,23.8315,91.2868,32.1,69,0.0,1006.4,8.85,20.2,129,56.5,34.8,4.8,252.0,158.0,11.3,3,5,4,1,2026-06-01T11:36:12.717891+05:30
Shillong,Meghalaya,25.5788,91.8933,21.9,86,0.2,859.5,8.3,23.0,57,34.0,20.8,0.9,238.0,127.0,2.2,6,5,7,1,2026-06-01T11:36:12.717898+05:30
Imphal,Manipur,24.817,93.9368,26.8,72,0.0,924.2,9.05,21.6,55,10.2,9.6,4.4,229.0,74.0,1.5,7,5,7,1,2026-06-01T11:36:12.717905+05:30
Aizawl,Mizoram,23.7271,92.7176,25.4,69,0.0,894.5,9.05,20.2,44,29.7,17.8,0.9,274.0,129.0,4.2,7,5,7,1,2026-06-01T11:36:12.717912+05:30
Kohima,Nagaland,25.6701,94.1077,20.7,98,0.2,856.9,8.65,22.7,32,7.3,6.0,1.8,166.0,78.0,0.6,6,5,7,1,2026-06-01T11:36:12.717919+05:30
Gangtok,Sikkim,27.3314,88.6138,24.8,53,0.0,841.7,9.25,37.1,59,19.7,13.5,0.6,247.0,139.0,2.6,0,5,7,0,2026-06-01T11:36:12.717950+05:30
Siliguri,West Bengal,26.7271,88.3953,31.5,68,0.2,993.4,8.75,22.3,98,45.4,30.9,1.5,383.0,167.0,5.2,6,5,7,1,2026-06-01T11:36:16.043712+05:30
Durgapur,West Bengal,23.5204,87.3119,33.8,64,0.0,995.6,8.95,18.7,161,79.9,61.2,16.8,278.0,173.0,72.6,3,5,7,1,2026-06-01T11:36:16.043744+05:30
Asansol,West Bengal,23.6739,86.9524,34.1,58,0.0,994.3,9.0,17.3,156,74.5,58.1,14.7,368.0,186.0,63.3,0,5,7,1,2026-06-01T11:36:16.043755+05:30
Pondicherry,Puducherry,11.9139,79.8145,35.2,48,0.0,1009.0,8.35,39.2,67,30.5,23.6,5.6,252.0,144.0,11.7,0,0,7,1,2026-06-01T11:36:16.043764+05:30
Port Blair,Andaman and Nicobar Islands,11.6234,92.7265,28.0,84,0.2,1008.2,8.85,38.5,36,11.1,5.8,0.3,119.0,75.0,0.5,10,0,4,1,2026-06-01T11:36:16.043774+05:30
Haridwar,Uttarakhand,29.9457,78.1642,30.5,50,0.0,976.7,7.5,25.2,89,28.5,19.2,1.5,259.0,156.0,4.9,0,5,7,1,2026-06-01T11:36:16.043782+05:30
Rishikesh,Uttarakhand,30.0869,78.2676,29.7,47,0.0,969.4,7.55,23.8,56,22.9,14.2,0.9,310.0,147.0,2.5,4,5,7,1,2026-06-01T11:36:16.043791+05:30
Nainital,Uttarakhand,29.3919,79.4542,14.7,90,0.0,808.1,6.1,36.4,72,35.2,18.6,1.0,209.0,144.0,2.4,3,10,7,0,2026-06-01T11:36:16.043799+05:30
Mussoorie,Uttarakhand,30.4599,78.0664,19.3,57,0.1,806.7,8.05,38.2,58,12.3,8.1,2.0,229.0,157.0,3.7,3,5,7,0,2026-06-01T11:36:16.043807+05:30
Dharamshala,Himachal Pradesh,32.219,76.3234,25.1,38,0.0,872.6,8.45,45.0,47,16.5,8.7,0.7,183.0,146.0,0.8,4,5,7,0,2026-06-01T11:36:16.043816+05:30
Dalhousie,Himachal Pradesh,32.5387,75.971,21.7,40,0.0,809.2,8.45,39.6,78,24.1,10.9,1.4,255.0,162.0,1.4,0,5,7,0,2026-06-01T11:36:16.043825+05:30
Patiala,Punjab,30.3398,76.3869,32.1,41,0.0,980.2,7.5,32.0,291,384.6,52.2,1.9,305.0,165.0,9.3,0,5,7,1,2026-06-01T11:36:16.043833+05:30
Bhatinda,Punjab,30.211,74.9455,34.2,35,0.0,985.2,8.3,32.0,542,163.4,41.7,2.8,266.0,165.0,14.4,0,5,7,1,2026-06-01T11:36:16.043841+05:30
Rohtak,Haryana,28.8955,76.6066,32.2,44,0.0,983.4,7.15,25.9,257,374.4,76.4,6.4,321.0,192.0,25.8,0,5,7,1,2026-06-01T11:36:16.043848+05:30
Panipat,Haryana,29.3909,76.9635,31.1,50,0.0,982.5,7.3,30.6,439,451.7,77.1,4.2,272.0,180.0,20.8,0,5,7,1,2026-06-01T11:36:16.043856+05:30
Mathura,Uttar Pradesh,27.4924,77.6737,32.5,48,0.0,988.3,8.0,23.0,272,670.6,90.3,1.8,263.0,144.0,5.0,0,5,7,1,2026-06-01T11:36:16.043863+05:30
Vrindavan,Uttar Pradesh,27.5823,77.7027,32.5,47,0.0,988.7,7.95,23.8,272,670.6,90.3,1.8,255.0,144.0,5.0,0,5,7,1,2026-06-01T11:36:16.043872+05:30
Ayodhya,Uttar Pradesh,26.7922,82.1998,33.5,42,0.0,997.1,8.4,18.7,110,61.2,28.9,1.4,270.0,166.0,5.0,0,5,7,1,2026-06-01T11:36:16.043879+05:30
Ratlam,Madhya Pradesh,23.3315,75.0367,34.7,42,0.0,956.7,8.45,41.0,69,52.0,24.4,1.2,127.0,101.0,9.0,0,5,7,1,2026-06-01T11:36:16.043887+05:30
Sagar,Madhya Pradesh,23.8388,78.7378,35.2,32,0.0,951.9,8.15,52.2,58,40.5,15.3,0.8,154.0,137.0,4.5,0,5,10,0,2026-06-01T11:36:16.043894+05:30
Satna,Madhya Pradesh,24.6005,80.8322,35.5,33,0.0,972.9,8.75,39.6,87,49.8,25.8,0.8,227.0,154.0,5.7,0,5,10,1,2026-06-01T11:36:16.043901+05:30
Akola,Maharashtra,20.7002,77.0082,37.8,34,0.0,976.4,8.75,46.1,60,47.4,20.4,1.4,133.0,121.0,7.3,0,5,10,1,2026-06-01T11:36:16.043909+05:30
Amravati,Maharashtra,20.9374,77.7796,37.5,29,0.0,968.7,8.8,55.1,62,45.2,19.9,1.7,155.0,126.0,8.0,0,5,10,1,2026-06-01T11:36:16.043917+05:30
Latur,Maharashtra,18.4088,76.5604,36.0,28,0.0,941.9,8.95,28.1,65,36.1,14.8,1.0,141.0,116.0,3.3,0,5,10,0,2026-06-01T11:36:16.043945+05:30
Nanded,Maharashtra,19.1383,77.3091,37.6,26,0.0,969.7,8.9,29.9,64,35.6,15.8,1.1,145.0,119.0,3.1,0,5,10,0,2026-06-01T11:36:16.043954+05:30
Gulbarga,Karnataka,17.3297,76.8343,36.9,28,0.0,960.3,8.95,46.8,65,38.1,17.3,1.7,160.0,137.0,5.7,0,5,10,0,2026-06-01T11:36:16.043962+05:30
Bidar,Karnataka,17.9104,77.5199,35.0,28,0.0,937.6,8.75,34.2,74,34.6,15.7,1.2,150.0,122.0,4.3,0,5,7,0,2026-06-01T11:36:16.043969+05:30
Hospet,Karnataka,15.2689,76.3909,31.3,59,0.0,958.4,8.95,42.8,44,25.1,12.7,1.7,151.0,103.0,4.6,0,5,7,1,2026-06-01T11:36:16.043976+05:30
Tirupur,Tamil Nadu,11.1085,77.3411,31.9,52,0.0,977.1,8.75,42.1,47,12.2,9.8,2.4,170.0,142.0,3.5,0,5,7,1,2026-06-01T11:36:16.043984+05:30
Alappuzha,Kerala,9.4981,76.3388,30.1,71,0.0,1010.8,6.85,33.5,42,12.1,8.6,2.1,121.0,91.0,2.6,3,0,4,1,2026-06-01T11:36:16.043991+05:30
Munnar,Kerala,10.0889,77.0595,23.5,65,0.0,860.4,7.0,23.4,42,29.9,13.2,1.0,144.0,107.0,2.0,3,5,7,1,2026-06-01T11:36:16.043999+05:30
Silchar,Assam,24.8333,92.7789,30.0,72,0.1,1005.4,8.9,23.0,87,33.8,24.1,2.1,244.0,127.0,5.7,10,5,4,1,2026-06-01T11:36:16.044007+05:30
Dibrugarh,Assam,27.4728,94.912,31.5,70,0.0,994.8,8.8,25.2,77,19.4,17.2,1.8,208.0,116.0,1.4,3,5,7,1,2026-06-01T11:36:16.044015+05:30
