city,state,latitude,longitude,temp,humidity,rain,pressure,uv_index,wind_gusts,aqi,pm10,pm2_5,no2,co,o3,so2,mosquito_risk,arthritis_risk,migraine_risk,frizz_risk,updated_at
Delhi,Delhi,28.6139,77.209,28.8,76,0.0,974.9,6.7,38.5,356,493.6,131.8,43.3,176.0,21.0,20.2,7,5,7,1,2026-07-14T04:34:25.179092+05:30
Mumbai,Maharashtra,19.076,72.8777,27.3,84,0.0,1006.3,7.75,45.0,64,42.4,20.5,3.4,113.0,47.0,3.3,7,5,4,1,2026-07-14T04:34:25.179148+05:30
Bangalore,Karnataka,12.9716,77.5946,19.8,98,0.0,909.3,8.45,42.1,58,14.6,9.5,10.6,165.0,33.0,4.4,3,10,7,1,2026-07-14T04:34:25.179165+05:30
Hyderabad,Telangana,17.385,78.4867,26.0,61,0.0,949.9,8.7,45.4,55,19.6,13.9,6.9,145.0,46.0,4.2,7,5,7,1,2026-07-14T04:34:25.179176+05:30
Chennai,Tamil Nadu,13.0827,80.2707,30.1,61,0.0,1002.2,8.45,35.6,77,29.8,22.7,19.3,253.0,39.0,9.2,3,5,4,1,2026-07-14T04:34:25.179186+05:30
Kolkata,West Bengal,22.5726,88.3639,25.4,99,0.3,998.8,8.35,25.9,155,55.2,40.7,21.9,406.0,50.0,16.9,10,5,7,1,2026-07-14T04:34:25.179194+05:30
Pune,Maharashtra,18.5204,73.8567,23.1,89,0.0,945.4,8.15,50.4,51,7.7,4.7,4.1,99.0,41.0,4.3,3,5,7,1,2026-07-14T04:34:25.179202+05:30
Ahmedabad,Gujarat,23.0225,72.5714,27.2,80,0.0,997.6,6.85,42.5,66,28.9,15.5,6.2,115.0,35.0,3.8,7,5,7,1,2026-07-14T04:34:25.179209+05:30
Jaipur,Rajasthan,26.9124,75.7873,28.0,67,0.0,952.7,7.85,39.2,379,681.7,121.1,7.6,138.0,47.0,4.1,7,5,7,1,2026-07-14T04:34:25.179217+05:30
Lucknow,Uttar Pradesh,26.8467,80.9462,27.8,81,0.0,985.7,8.2,40.3,138,105.9,59.8,26.8,234.0,28.0,9.7,7,5,7,1,2026-07-14T04:34:25.179229+05:30
Kanpur,Uttar Pradesh,26.4499,80.3319,28.7,75,0.0,983.6,8.0,31.7,122,118.3,52.4,15.1,210.0,48.0,9.2,7,5,7,1,2026-07-14T04:34:25.179239+05:30
Chandigarh,Chandigarh,30.7333,76.7794,26.9,86,0.0,960.6,7.4,22.0,167,171.8,105.2,49.1,727.0,19.0,11.9,7,5,7,1,2026-07-14T04:34:25.179248+05:30
Srinagar,Jammu and Kashmir,34.0837,74.7973,16.6,96,0.0,836.2,8.95,23.8,84,49.2,44.6,27.2,731.0,0.0,0.3,3,10,7,0,2026-07-14T04:34:25.179257+05:30
Jammu,Jammu and Kashmir,32.7266,74.857,25.0,87,0.0,964.4,8.45,30.2,153,85.9,70.1,44.9,576.0,0.0,2.6,7,5,7,1,2026-07-14T04:34:25.179264+05:30
Amritsar,Punjab,31.634,74.8723,26.2,94,0.0,972.3,8.35,19.4,183,233.3,139.7,68.4,1236.0,8.0,11.1,7,5,7,1,2026-07-14T04:34:25.179270+05:30
Ludhiana,Punjab,30.901,75.8573,27.4,92,0.0,970.1,7.9,24.8,179,246.8,174.6,81.0,1397.0,0.0,18.8,7,5,7,1,2026-07-14T04:34:25.179277+05:30
Jalandhar,Punjab,31.326,75.5762,26.3,95,0.0,971.2,8.15,18.0,185,263.6,197.0,77.9,1113.0,0.0,12.6,7,5,7,1,2026-07-14T04:34:25.179284+05:30
Dehradun,Uttarakhand,30.6284,78.0322,16.0,94,0.0,824.6,8.1,26.3,104,78.9,35.0,23.1,226.0,51.0,2.3,3,10,7,0,2026-07-14T04:34:25.179290+05:30
Shimla,Himachal Pradesh,31.1048,77.1734,14.3,93,0.0,779.0,8.1,36.7,144,130.4,70.1,18.8,307.0,66.0,4.2,3,10,7,0,2026-07-14T04:34:25.179297+05:30
Manali,Himachal Pradesh,32.2396,77.1887,17.6,80,0.0,813.9,9.45,32.4,53,5.6,4.3,10.8,181.0,93.0,0.0,3,5,7,0,2026-07-14T04:34:25.179309+05:30
Gurgaon,Haryana,28.4595,77.0266,28.7,80,0.0,973.1,6.7,31.3,488,579.3,146.7,22.2,149.0,38.0,10.4,7,5,7,1,2026-07-14T04:34:25.179316+05:30
Noida,Uttar Pradesh,28.5355,77.391,29.0,78,0.0,975.9,7.2,32.0,488,579.3,146.7,22.2,303.0,38.0,10.4,7,5,7,1,2026-07-14T04:34:25.179323+05:30
Ghaziabad,Uttar Pradesh,28.6692,77.4538,28.7,82,0.0,974.2,7.45,26.3,258,258.0,107.1,59.7,280.0,9.0,26.2,7,5,7,1,2026-07-14T04:34:25.179330+05:30
Faridabad,Haryana,28.4089,77.3178,29.2,74,0.0,975.3,7.25,36.7,488,579.3,146.7,22.2,235.0,38.0,10.4,7,5,7,1,2026-07-14T04:34:25.179337+05:30
Meerut,Uttar Pradesh,28.9845,77.7064,28.6,88,0.0,973.0,7.3,25.2,258,258.0,107.1,59.7,502.0,9.0,26.2,7,5,7,1,2026-07-14T04:34:25.179344+05:30
Agra,Uttar Pradesh,27.1767,78.0081,29.4,66,0.0,979.6,8.0,36.0,149,127.1,47.8,14.9,174.0,45.0,5.6,7,5,7,1,2026-07-14T04:34:25.179351+05:30
Varanasi,Uttar Pradesh,25.3176,82.9739,28.5,81,0.0,990.2,8.5,20.9,135,75.4,44.2,19.4,596.0,37.0,9.2,7,5,7,1,2026-07-14T04:34:25.179359+05:30
Prayagraj,Uttar Pradesh,25.4358,81.8463,28.8,74,0.0,988.5,8.6,29.2,117,78.7,42.7,16.7,220.0,37.0,7.0,7,5,7,1,2026-07-14T04:34:25.179366+05:30
Gorakhpur,Uttar Pradesh,26.7606,83.3732,26.2,97,0.0,989.8,6.9,29.5,156,82.0,56.6,25.1,368.0,34.0,8.8,7,5,7,1,2026-07-14T04:34:25.179373+05:30
Bareilly,Uttar Pradesh,28.367,79.4304,28.0,87,0.0,978.2,7.95,26.6,177,236.1,92.9,36.8,431.0,17.0,8.1,7,5,7,1,2026-07-14T04:34:25.179382+05:30
Aligarh,Uttar Pradesh,27.8974,78.088,28.9,73,0.0,977.2,7.8,32.8,484,672.4,170.9,19.2,250.0,35.0,5.8,7,5,7,1,2026-07-14T04:34:25.179389+05:30
Moradabad,Uttar Pradesh,28.8386,78.7733,28.3,89,0.0,975.1,7.75,24.1,190,323.2,148.1,50.2,733.0,5.0,14.5,7,5,7,1,2026-07-14T04:34:25.179396+05:30
Saharanpur,Uttar Pradesh,29.9637,77.546,27.3,92,0.0,967.3,7.35,22.0,185,250.5,152.3,72.8,743.0,0.0,17.5,7,5,7,1,2026-07-14T04:34:25.179404+05:30
Jhansi,Uttar Pradesh,25.4484,78.5685,29.3,65,0.0,970.9,8.4,41.8,104,48.5,28.0,8.9,160.0,64.0,10.7,7,5,7,1,2026-07-14T04:34:28.472540+05:30
Surat,Gujarat,21.1702,72.8311,28.0,82,0.0,1003.1,7.05,53.6,69,31.8,18.7,17.4,261.0,32.0,29.7,7,5,4,1,2026-07-14T04:34:28.472574+05:30
Vadodara,Gujarat,22.3072,73.1812,27.0,84,0.0,1000.4,8.0,46.4,62,23.3,12.7,5.9,110.0,37.0,3.9,7,5,4,1,2026-07-14T04:34:28.472585+05:30
Rajkot,Gujarat,22.3039,70.8022,26.4,87,0.0,989.7,6.7,48.6,61,19.2,10.0,3.3,90.0,40.0,2.5,7,5,7,1,2026-07-14T04:34:28.472594+05:30
Thane,Maharashtra,19.2183,72.9781,26.5,88,0.0,1005.5,7.45,37.8,64,42.4,20.5,3.4,130.0,47.0,3.3,7,5,4,1,2026-07-14T04:34:28.472602+05:30
Nagpur,Maharashtra,21.1458,79.0882,26.9,74,0.0,968.9,8.55,55.1,84,27.6,19.5,10.5,162.0,49.0,8.6,7,5,7,1,2026-07-14T04:34:28.472610+05:30
Nashik,Maharashtra,19.9975,73.7898,22.7,93,0.0,942.3,6.9,55.1,53,12.3,8.3,6.5,103.0,34.0,4.9,3,5,7,1,2026-07-14T04:34:28.472617+05:30
Aurangabad,Maharashtra,19.8762,75.3433,22.3,90,0.0,940.9,9.0,50.8,58,13.4,9.6,10.8,132.0,30.0,11.3,3,5,7,1,2026-07-14T04:34:28.472624+05:30
Solapur,Maharashtra,17.6599,75.9064,23.2,83,0.0,954.9,8.95,41.4,53,16.1,11.4,7.4,139.0,32.0,2.8,3,5,7,1,2026-07-14T04:34:28.472648+05:30
Kolhapur,Maharashtra,16.705,74.2433,22.5,94,0.0,946.0,8.75,49.0,50,7.4,5.0,2.9,112.0,41.0,2.1,3,5,7,1,2026-07-14T04:34:28.472655+05:30
Goa,Goa,15.2993,74.124,24.4,98,0.0,997.1,8.4,35.3,62,38.2,24.4,6.6,281.0,39.0,2.3,3,5,7,1,2026-07-14T04:34:28.472663+05:30
Jodhpur,Rajasthan,26.2389,73.0243,28.0,70,0.0,976.6,8.4,51.1,196,473.1,112.2,2.7,98.0,46.0,2.9,7,5,7,1,2026-07-14T04:34:28.472670+05:30
Udaipur,Rajasthan,24.5854,73.7125,23.2,87,0.0,940.4,7.3,47.5,72,41.8,20.2,4.2,94.0,41.0,3.6,3,5,7,1,2026-07-14T04:34:28.472678+05:30
Kota,Rajasthan,25.2138,75.8648,28.0,71,0.0,972.4,8.3,38.9,92,38.1,23.2,7.9,135.0,53.0,6.4,7,5,7,1,2026-07-14T04:34:28.472686+05:30
Bikaner,Rajasthan,28.0229,73.3119,30.9,58,0.0,973.5,8.4,40.0,164,313.9,97.6,3.2,96.0,51.0,4.0,0,5,7,1,2026-07-14T04:34:28.472695+05:30
Ajmer,Rajasthan,26.4499,74.6399,26.3,74,0.0,948.1,7.85,56.5,100,92.9,36.2,4.6,106.0,48.0,3.3,7,5,7,1,2026-07-14T04:34:28.472703+05:30
Gwalior,Madhya Pradesh,26.2183,78.1828,28.7,71,0.0,975.6,8.2,42.8,109,44.2,27.4,9.1,142.0,54.0,5.6,7,5,7,1,2026-07-14T04:34:28.472710+05:30
Indore,Madhya Pradesh,22.7196,75.8577,24.1,87,0.0,943.7,8.25,51.1,70,19.2,12.5,8.3,159.0,34.0,9.1,3,5,7,1,2026-07-14T04:34:28.472717+05:30
Bhopal,Madhya Pradesh,23.2599,77.4126,25.1,84,0.0,948.8,8.6,42.8,78,28.0,19.2,7.0,171.0,48.0,7.1,7,5,7,1,2026-07-14T04:34:28.472724+05:30
Jabalpur,Madhya Pradesh,23.1815,79.9864,26.3,76,0.0,956.3,7.1,39.6,92,46.0,29.3,7.8,204.0,56.0,4.7,7,5,7,1,2026-07-14T04:34:28.472730+05:30
Ujjain,Madhya Pradesh,23.1765,75.7885,24.2,89,0.0,949.2,8.4,49.0,69,26.7,15.9,8.1,155.0,36.0,8.7,3,5,7,1,2026-07-14T04:34:28.472738+05:30
Visakhapatnam,Andhra Pradesh,17.6868,83.2185,30.0,65,0.0,996.4,7.65,23.0,124,92.9,50.2,29.4,322.0,29.0,42.7,7,5,7,1,2026-07-14T04:34:28.472745+05:30
Vijayawada,Andhra Pradesh,16.5062,80.648,30.7,64,0.0,996.8,6.45,46.1,84,16.6,14.4,12.4,224.0,46.0,6.9,3,5,7,1,2026-07-14T04:34:28.472752+05:30
Guntur,Andhra Pradesh,16.3067,80.4365,31.3,55,0.0,998.2,6.55,47.2,74,14.4,11.5,9.4,156.0,53.0,6.5,0,5,7,1,2026-07-14T04:34:28.472760+05:30
Nellore,Andhra Pradesh,14.4426,79.9865,30.6,51,0.0,1000.9,8.8,46.8,68,15.5,9.8,7.4,113.0,50.0,6.2,0,5,4,1,2026-07-14T04:34:28.472767+05:30
Kurnool,Andhra Pradesh,15.8281,78.0373,26.9,62,0.0,974.3,7.45,42.5,53,16.8,11.8,8.5,131.0,38.0,3.9,7,5,7,1,2026-07-14T04:34:28.472775+05:30
Kakinada,Andhra Pradesh,16.9891,82.2475,29.3,70,0.0,1000.9,8.45,48.2,92,60.1,34.0,9.0,228.0,63.0,5.3,7,5,4,1,2026-07-14T04:34:28.472782+05:30
Tirupati,Andhra Pradesh,13.6288,79.4192,28.5,55,0.0,986.5,8.55,38.9,78,17.3,10.8,6.6,111.0,46.0,1.4,4,5,7,1,2026-07-14T04:34:28.472789+05:30
Warangal,Telangana,17.9689,79.5941,28.3,65,0.0,974.0,7.7,40.0,69,21.6,16.2,7.0,168.0,61.0,5.5,7,5,7,1,2026-07-14T04:34:28.472796+05:30
Nizamabad,Telangana,18.6725,78.0941,25.8,69,0.0,961.6,8.6,42.1,60,25.3,17.8,6.5,138.0,54.0,6.3,7,5,7,1,2026-07-14T04:34:28.472802+05:30
Mysore,Karnataka,12.2958,76.6396,20.0,97,0.0,926.6,8.3,42.1,53,17.1,12.4,10.7,126.0,24.0,1.5,3,5,7,1,2026-07-14T04:34:28.472809+05:30
Mangalore,Karnataka,12.9141,74.856,25.7,91,0.0,1006.2,8.0,37.8,57,23.1,17.2,12.7,164.0,20.0,3.4,7,5,4,1,2026-07-14T04:34:28.472816+05:30
Hubli-Dharwad,Karnataka,15.3647,75.124,21.9,93,0.0,939.2,8.5,52.2,45,11.1,7.1,3.0,110.0,41.0,1.9,3,5,7,1,2026-07-14T04:34:28.472823+05:30
Belgaum,Karnataka,15.8497,74.4977,20.8,97,0.0,923.7,8.7,45.7,44,10.6,6.9,3.1,97.0,41.0,2.0,3,5,7,1,2026-07-14T04:34:31.770371+05:30
Coimbatore,Tamil Nadu,11.0168,76.9558,23.3,95,0.0,959.7,8.9,54.4,53,14.2,9.0,8.6,150.0,24.0,3.3,3,5,7,1,2026-07-14T04:34:31.770405+05:30
Madurai,Tamil Nadu,9.9252,78.1198,26.8,69,0.0,990.2,8.2,41.0,68,26.1,22.6,33.3,114.0,0.0,5.7,7,5,7,1,2026-07-14T04:34:31.770416+05:30
Trichy,Tamil Nadu,10.7905,78.7047,27.5,72,0.0,996.7,8.75,46.4,66,15.1,9.5,7.4,108.0,35.0,3.8,7,5,7,1,2026-07-14T04:34:31.770425+05:30
Salem,Tamil Nadu,11.6643,78.146,24.5,89,0.0,975.0,7.7,26.3,70,31.7,23.5,27.4,155.0,10.0,6.8,3,5,7,1,2026-07-14T04:34:31.770434+05:30
Tirunelveli,Tamil Nadu,8.7139,77.7567,27.9,68,0.0,1000.5,8.45,47.2,50,11.4,7.5,5.5,144.0,33.0,2.4,7,5,4,1,2026-07-14T04:34:31.770441+05:30
Vellore,Tamil Nadu,12.9165,79.1325,28.1,55,0.0,980.7,8.65,41.0,74,18.6,12.0,10.0,125.0,40.0,4.6,4,5,7,1,2026-07-14T04:34:31.770448+05:30
Erode,Tamil Nadu,11.341,77.7172,25.5,83,0.0,986.9,8.25,55.1,61,16.6,12.0,10.6,162.0,26.0,3.8,7,5,7,1,2026-07-14T04:34:31.770455+05:30
Kochi,Kerala,9.9312,76.2673,27.1,86,0.0,1008.2,8.4,45.4,56,17.5,11.7,8.3,85.0,25.0,3.6,7,0,4,1,2026-07-14T04:34:31.770462+05:30
Thiruvananthapuram,Kerala,8.5241,76.9366,25.1,96,0.0,1007.5,8.1,52.6,53,18.5,10.0,3.3,117.0,43.0,1.5,7,5,4,1,2026-07-14T04:34:31.770469+05:30
Kozhikode,Kerala,11.2588,75.7804,24.9,97,0.0,1007.4,8.65,46.1,52,20.6,11.2,3.0,164.0,45.0,2.0,3,5,4,1,2026-07-14T04:34:31.770475+05:30
Thrissur,Kerala,10.5276,76.2144,25.7,95,0.0,1006.5,8.5,43.9,54,17.6,11.7,6.8,152.0,28.0,3.1,7,5,4,1,2026-07-14T04:34:31.770483+05:30
Kannur,Kerala,11.8745,75.3704,25.2,93,0.0,1006.7,8.7,45.0,53,17.3,12.2,9.7,170.0,21.0,2.7,7,5,4,1,2026-07-14T04:34:31.770491+05:30
Patna,Bihar,25.5941,85.1376,26.5,97,0.0,993.3,8.55,25.6,152,97.1,59.1,20.0,370.0,52.0,12.9,7,5,7,1,2026-07-14T04:34:31.770498+05:30
Gaya,Bihar,24.7914,85.0002,27.0,92,0.0,986.5,8.7,26.6,150,117.3,75.2,26.3,280.0,35.0,12.6,7,5,7,1,2026-07-14T04:34:31.770504+05:30
Muzaffarpur,Bihar,26.1209,85.3647,26.5,96,0.0,993.6,8.4,29.5,154,87.3,59.6,21.0,429.0,48.0,12.4,7,5,7,1,2026-07-14T04:34:31.770510+05:30
Bhagalpur,Bihar,25.2425,87.0117,27.0,97,0.0,993.8,8.45,24.1,147,58.1,38.5,11.8,284.0,73.0,11.0,7,5,7,1,2026-07-14T04:34:31.770516+05:30
Ranchi,Jharkhand,23.3441,85.3096,25.1,82,0.0,931.0,7.85,33.8,144,127.6,82.2,28.1,309.0,31.0,15.0,7,5,7,1,2026-07-14T04:34:31.770522+05:30
Jamshedpur,Jharkhand,22.8046,86.2029,27.0,90,0.0,983.6,8.45,29.2,155,126.7,83.8,29.3,501.0,40.0,45.5,7,5,7,1,2026-07-14T04:34:31.770529+05:30
Dhanbad,Jharkhand,23.7957,86.4304,26.4,95,0.0,972.6,6.15,26.6,161,143.4,113.4,65.6,1668.0,13.0,196.7,7,5,7,1,2026-07-14T04:34:31.770535+05:30
Bokaro,Jharkhand,23.6693,86.1511,26.8,94,0.0,976.4,8.5,29.9,163,152.3,116.4,55.2,949.0,16.0,174.8,7,5,7,1,2026-07-14T04:34:31.770542+05:30
Bhubaneswar,Odisha,20.2961,85.8245,27.7,95,0.0,994.8,1.2,30.2,118,65.9,43.8,15.9,317.0,59.0,8.8,7,5,3,1,2026-07-14T04:34:31.770549+05:30
Cuttack,Odisha,20.4625,85.8828,27.5,93,0.0,996.8,1.35,24.8,118,65.9,43.8,15.9,351.0,59.0,8.8,7,5,3,1,2026-07-14T04:34:31.770556+05:30
Rourkela,Odisha,22.2604,84.8536,28.3,83,0.0,977.8,6.6,35.6,124,126.7,70.3,20.4,354.0,47.0,12.8,7,5,7,1,2026-07-14T04:34:31.770563+05:30
Raipur,Chhattisgarh,21.2514,81.6296,27.3,75,0.0,968.7,8.65,30.2,130,71.9,46.6,35.6,248.0,27.0,57.0,7,5,7,1,2026-07-14T04:34:31.770569+05:30
Bhilai,Chhattisgarh,21.1938,81.3509,26.6,78,0.0,969.4,8.5,34.2,121,64.3,40.7,26.1,532.0,35.0,41.6,7,5,7,1,2026-07-14T04:34:31.770575+05:30
Guwahati,Assam,26.1158,91.7086,25.4,98,0.0,995.3,7.8,25.2,56,5.8,5.2,7.3,379.0,38.0,1.2,7,5,7,1,2026-07-14T04:34:31.770581+05:30
Agartala,Tripura,23.8315,91.2868,25.5,97,0.0,999.0,8.0,22.0,75,24.7,22.9,14.6,244.0,37.0,4.5,7,5,7,1,2026-07-14T04:34:31.770588+05:30
Shillong,Meghalaya,25.5788,91.8933,19.2,97,0.0,852.1,7.9,27.4,56,24.2,19.8,6.4,277.0,50.0,3.4,3,10,7,1,2026-07-14T04:34:31.770594+05:30
Imphal,Manipur,24.817,93.9368,22.3,93,0.0,917.7,9.1,25.9,55,10.2,9.7,6.7,364.0,38.0,2.0,3,5,7,1,2026-07-14T04:34:31.770601+05:30
Aizawl,Mizoram,23.7271,92.7176,19.3,100,0.0,886.0,8.95,18.0,58,9.5,7.3,4.5,232.0,36.0,1.0,3,10,7,1,2026-07-14T04:34:31.770607+05:30
Kohima,Nagaland,25.6701,94.1077,18.3,96,0.0,849.8,8.15,25.9,40,6.1,5.8,6.2,213.0,27.0,0.8,3,10,7,1,2026-07-14T04:34:31.770613+05:30
Gangtok,Sikkim,27.3314,88.6138,18.9,97,0.2,833.5,5.45,25.2,43,10.0,9.7,5.3,330.0,93.0,1.4,6,10,3,1,2026-07-14T04:34:31.770621+05:30
Siliguri,West Bengal,26.7271,88.3953,24.9,98,0.2,986.5,3.9,25.2,64,25.3,24.5,11.7,318.0,83.0,4.4,6,5,3,1,2026-07-14T04:34:35.062693+05:30
Durgapur,West Bengal,23.5204,87.3119,25.7,98,0.2,988.1,5.15,28.1,163,106.2,89.9,42.8,917.0,28.0,48.7,10,5,3,1,2026-07-14T04:34:35.062729+05:30
Asansol,West Bengal,23.6739,86.9524,26.7,97,0.0,986.4,8.0,25.2,156,110.4,88.0,46.7,486.0,26.0,62.7,7,5,7,1,2026-07-14T04:34:35.062742+05:30
Pondicherry,Puducherry,11.9139,79.8145,28.5,69,0.0,1004.1,8.3,42.5,69,19.0,13.2,11.8,204.0,46.0,7.1,7,5,4,1,2026-07-14T04:34:35.062751+05:30
Port Blair,Andaman and Nicobar Islands,11.6234,92.7265,25.0,96,0.3,1004.0,8.35,60.1,49,21.3,8.8,0.2,89.0,51.0,0.3,10,5,4,1,2026-07-14T04:34:35.062759+05:30
Haridwar,Uttarakhand,29.9457,78.1642,26.1,85,0.0,965.4,7.5,20.9,183,217.5,115.5,48.3,300.0,22.0,13.6,7,5,7,1,2026-07-14T04:34:35.062767+05:30
Rishikesh,Uttarakhand,30.0869,78.2676,24.1,92,0.0,958.3,7.6,22.0,167,202.1,81.5,11.2,264.0,100.0,11.2,3,5,7,1,2026-07-14T04:34:35.062775+05:30
Nainital,Uttarakhand,29.3919,79.4542,15.7,88,0.0,799.8,8.5,27.7,162,179.7,68.7,15.8,233.0,71.0,5.9,3,10,7,0,2026-07-14T04:34:35.062783+05:30
Mussoorie,Uttarakhand,30.4599,78.0664,15.6,99,0.0,797.7,8.0,39.6,164,147.1,67.8,32.6,255.0,48.0,8.8,3,10,7,0,2026-07-14T04:34:35.062791+05:30
Dharamshala,Himachal Pradesh,32.219,76.3234,21.3,79,0.0,863.5,8.4,34.9,74,21.2,11.8,9.5,281.0,36.0,0.2,3,5,7,1,2026-07-14T04:34:35.062798+05:30
Dalhousie,Himachal Pradesh,32.5387,75.971,15.8,91,0.0,799.2,8.55,27.7,131,96.2,55.6,40.5,296.0,38.0,3.8,3,10,7,0,2026-07-14T04:34:35.062806+05:30
Patiala,Punjab,30.3398,76.3869,28.5,92,0.0,969.8,7.5,22.3,178,222.6,153.2,87.0,742.0,0.0,19.5,7,5,7,1,2026-07-14T04:34:35.062814+05:30
Bhatinda,Punjab,30.211,74.9455,30.0,69,0.0,975.0,8.25,23.4,180,241.2,135.0,68.3,257.0,0.0,15.0,7,5,7,1,2026-07-14T04:34:35.062821+05:30
Rohtak,Haryana,28.8955,76.6066,28.9,67,0.0,973.3,7.65,31.3,511,1020.7,197.4,11.4,141.0,43.0,2.8,7,5,7,1,2026-07-14T04:34:35.062828+05:30
Panipat,Haryana,29.3909,76.9635,27.9,88,0.0,971.9,7.55,22.7,555,566.2,176.5,42.4,375.0,10.0,7.8,7,5,7,1,2026-07-14T04:34:35.062835+05:30
Mathura,Uttar Pradesh,27.4924,77.6737,29.6,67,0.0,978.8,7.9,32.0,742,1058.0,173.7,16.2,214.0,42.0,4.7,7,5,7,1,2026-07-14T04:34:35.062842+05:30
Vrindavan,Uttar Pradesh,27.5823,77.7027,29.5,68,0.0,979.2,7.9,32.8,742,1058.0,173.7,16.2,216.0,42.0,4.7,7,5,7,1,2026-07-14T04:34:35.062848+05:30
Ayodhya,Uttar Pradesh,26.7922,82.1998,26.2,97,0.0,988.0,8.05,31.0,151,92.0,68.2,32.3,522.0,18.0,5.8,7,5,7,1,2026-07-14T04:34:35.062856+05:30
Ratlam,Madhya Pradesh,23.3315,75.0367,23.7,94,0.0,950.0,8.2,48.6,66,23.1,14.1,8.1,136.0,35.0,8.2,3,5,7,1,2026-07-14T04:34:35.062863+05:30
Sagar,Madhya Pradesh,23.8388,78.7378,25.7,74,0.0,945.2,8.25,49.7,89,37.8,25.5,6.4,180.0,63.0,5.5,7,5,7,1,2026-07-14T04:34:35.062870+05:30
Satna,Madhya Pradesh,24.6005,80.8322,27.7,69,0.0,964.8,8.7,41.4,100,66.4,35.3,6.4,173.0,64.0,4.3,7,5,7,1,2026-07-14T04:34:35.062877+05:30
Akola,Maharashtra,20.7002,77.0082,26.0,76,0.0,971.7,8.5,50.0,61,21.8,14.7,7.6,117.0,38.0,7.1,7,5,7,1,2026-07-14T04:34:35.062884+05:30
Amravati,Maharashtra,20.9374,77.7796,26.0,76,0.0,963.6,8.6,51.8,62,23.1,15.4,7.8,127.0,39.0,7.7,7,5,7,1,2026-07-14T04:34:35.062892+05:30
Latur,Maharashtra,18.4088,76.5604,22.6,81,0.0,936.8,8.25,45.4,54,13.9,9.7,6.2,125.0,38.0,3.6,3,5,7,1,2026-07-14T04:34:35.062899+05:30
Nanded,Maharashtra,19.1383,77.3091,25.3,71,0.0,965.6,8.1,43.6,59,23.4,16.3,6.1,130.0,47.0,5.0,7,5,7,1,2026-07-14T04:34:35.062906+05:30
Gulbarga,Karnataka,17.3297,76.8343,23.5,79,0.0,956.1,8.05,47.2,52,16.6,11.5,6.5,117.0,37.0,3.2,3,5,7,1,2026-07-14T04:34:35.062913+05:30
Bidar,Karnataka,17.9104,77.5199,23.2,73,0.0,932.4,7.9,41.0,55,21.9,14.6,5.7,132.0,45.0,2.8,3,5,7,1,2026-07-14T04:34:35.062920+05:30
Hospet,Karnataka,15.2689,76.3909,22.0,92,0.0,953.9,7.4,47.9,51,11.8,7.9,4.6,117.0,37.0,1.8,3,5,7,1,2026-07-14T04:34:35.062926+05:30
Tirupur,Tamil Nadu,11.1085,77.3411,24.2,90,0.0,973.2,8.9,59.0,63,17.8,13.0,12.5,133.0,19.0,3.9,3,5,7,1,2026-07-14T04:34:35.062932+05:30
Alappuzha,Kerala,9.4981,76.3388,27.4,84,0.0,1008.3,7.75,45.7,55,20.1,11.5,5.0,82.0,38.0,3.1,7,0,4,1,2026-07-14T04:34:35.062938+05:30
Munnar,Kerala,10.0889,77.0595,15.4,90,0.0,854.1,8.6,35.6,45,7.1,5.6,8.0,93.0,16.0,1.9,3,10,7,0,2026-07-14T04:34:35.062945+05:30
Silchar,Assam,24.8333,92.7789,26.2,98,0.3,998.3,8.8,23.4,89,44.5,34.5,11.9,211.0,62.0,7.5,10,5,7,1,2026-07-14T04:34:35.062951+05:30
Dibrugarh,Assam,27.4728,94.912,26.4,92,0.0,988.3,8.45,25.6,65,27.6,27.2,26.2,221.0,24.0,2.1,7,5,7,1,2026-07-14T04:34:35.062958+05:30
