city,state,latitude,longitude,temp,humidity,rain,pressure,uv_index,wind_gusts,aqi,pm10,pm2_5,mosquito_risk,arthritis_risk,migraine_risk,frizz_risk,updated_at
Delhi,Delhi,28.6139,77.209,26.7,42,0.0,980.5,7.3,25.6,166,361.4,70.3,4,5,7,0,2026-04-15T02:28:12.931251+05:30
Mumbai,Maharashtra,19.076,72.8777,29.5,77,0.0,1006.3,8.0,20.5,125,69.4,24.4,7,5,4,1,2026-04-15T02:28:12.931308+05:30
Bangalore,Karnataka,12.9716,77.5946,24.5,49,0.0,910.5,9.65,26.6,80,27.2,22.0,0,5,7,0,2026-04-15T02:28:12.931324+05:30
Hyderabad,Telangana,17.385,78.4867,28.3,53,0.0,951.2,9.25,27.0,97,31.2,26.7,4,5,7,1,2026-04-15T02:28:12.931335+05:30
Chennai,Tamil Nadu,13.0827,80.2707,27.8,87,0.0,1005.7,9.35,36.0,39,10.0,7.0,7,5,4,1,2026-04-15T02:28:12.931345+05:30
Kolkata,West Bengal,22.5726,88.3639,27.1,91,0.0,1003.3,8.85,30.2,95,30.2,23.1,7,5,4,1,2026-04-15T02:28:12.931355+05:30
Pune,Maharashtra,18.5204,73.8567,25.1,63,0.0,946.6,8.6,39.6,97,58.1,29.8,7,5,7,1,2026-04-15T02:28:12.931369+05:30
Ahmedabad,Gujarat,23.0225,72.5714,27.3,47,0.0,999.9,8.15,20.9,62,64.7,20.4,4,5,7,0,2026-04-15T02:28:12.931378+05:30
Jaipur,Rajasthan,26.9124,75.7873,26.6,37,0.0,956.8,7.95,25.9,93,377.2,60.1,4,5,7,0,2026-04-15T02:28:12.931387+05:30
Lucknow,Uttar Pradesh,26.8467,80.9462,26.4,46,0.0,990.2,7.8,26.3,125,233.3,45.3,4,5,7,0,2026-04-15T02:28:12.931395+05:30
Kanpur,Uttar Pradesh,26.4499,80.3319,25.0,55,0.0,988.2,7.8,21.2,182,283.1,51.1,4,5,7,0,2026-04-15T02:28:12.931403+05:30
Chandigarh,Chandigarh,30.7333,76.7794,19.8,63,0.0,966.3,7.25,29.2,58,22.6,20.1,3,5,7,0,2026-04-15T02:28:12.931411+05:30
Srinagar,Jammu and Kashmir,34.0837,74.7973,8.8,81,0.0,838.7,7.95,15.5,81,50.1,40.4,3,10,7,0,2026-04-15T02:28:12.931418+05:30
Jammu,Jammu and Kashmir,32.7266,74.857,19.8,68,0.0,971.2,7.95,29.5,67,29.7,27.3,3,5,7,0,2026-04-15T02:28:12.931426+05:30
Amritsar,Punjab,31.634,74.8723,20.8,64,0.0,979.1,7.75,25.9,84,62.4,57.2,3,5,7,0,2026-04-15T02:28:12.931434+05:30
Ludhiana,Punjab,30.901,75.8573,22.2,53,0.0,976.7,7.3,25.2,71,36.2,34.2,0,5,7,0,2026-04-15T02:28:12.931441+05:30
Jalandhar,Punjab,31.326,75.5762,20.4,64,0.0,978.0,7.6,24.5,72,29.7,25.7,3,5,7,0,2026-04-15T02:28:12.931450+05:30
Dehradun,Uttarakhand,30.6284,78.0322,14.2,60,0.0,828.2,7.7,27.4,69,19.2,14.6,0,5,7,0,2026-04-15T02:28:12.931457+05:30
Shimla,Himachal Pradesh,31.1048,77.1734,11.7,66,0.0,781.8,7.75,45.0,78,23.8,16.7,3,5,7,0,2026-04-15T02:28:12.931465+05:30
Manali,Himachal Pradesh,32.2396,77.1887,14.8,51,0.0,818.8,9.0,34.2,81,25.7,13.2,0,5,7,0,2026-04-15T02:28:12.931472+05:30
Gurgaon,Haryana,28.4595,77.0266,23.7,55,0.0,978.7,7.4,23.4,484,802.8,111.1,0,5,7,0,2026-04-15T02:28:12.931480+05:30
Noida,Uttar Pradesh,28.5355,77.391,26.3,44,0.0,982.0,7.35,25.9,484,802.8,111.1,4,5,7,0,2026-04-15T02:28:12.931486+05:30
Ghaziabad,Uttar Pradesh,28.6692,77.4538,24.0,52,0.0,980.0,7.3,24.8,132,223.1,51.6,0,5,7,0,2026-04-15T02:28:12.931494+05:30
Faridabad,Haryana,28.4089,77.3178,25.4,46,0.0,981.0,7.35,25.6,484,802.8,111.1,4,5,7,0,2026-04-15T02:28:12.931501+05:30
Meerut,Uttar Pradesh,28.9845,77.7064,22.1,57,0.0,978.6,7.2,30.2,132,223.1,51.6,0,5,7,0,2026-04-15T02:28:12.931508+05:30
Agra,Uttar Pradesh,27.1767,78.0081,26.1,46,0.0,984.6,7.65,19.8,420,353.0,88.0,4,5,7,0,2026-04-15T02:28:12.931516+05:30
Varanasi,Uttar Pradesh,25.3176,82.9739,25.5,41,0.0,994.3,8.4,26.6,102,115.7,41.4,4,5,7,0,2026-04-15T02:28:12.931526+05:30
Prayagraj,Uttar Pradesh,25.4358,81.8463,26.8,43,0.0,992.7,8.25,22.3,107,113.9,40.9,4,5,7,0,2026-04-15T02:28:12.931534+05:30
Gorakhpur,Uttar Pradesh,26.7606,83.3732,21.9,51,0.0,993.4,8.2,26.6,84,86.8,27.5,0,5,7,0,2026-04-15T02:28:12.931541+05:30
Bareilly,Uttar Pradesh,28.367,79.4304,23.3,59,0.0,983.7,7.55,27.4,84,84.8,35.3,0,5,7,0,2026-04-15T02:28:12.931551+05:30
Aligarh,Uttar Pradesh,27.8974,78.088,24.1,49,0.0,982.3,7.45,32.0,248,451.7,79.4,0,5,7,0,2026-04-15T02:28:12.931579+05:30
Moradabad,Uttar Pradesh,28.8386,78.7733,23.0,55,0.0,980.7,7.4,29.5,86,96.2,42.3,0,5,7,0,2026-04-15T02:28:12.931587+05:30
Saharanpur,Uttar Pradesh,29.9637,77.546,18.9,67,0.0,973.0,7.0,30.2,82,39.6,38.8,3,5,7,0,2026-04-15T02:28:12.931594+05:30
Jhansi,Uttar Pradesh,25.4484,78.5685,27.8,35,0.0,974.8,8.2,26.6,65,75.7,21.7,4,5,7,0,2026-04-15T02:28:16.146547+05:30
Surat,Gujarat,21.1702,72.8311,27.9,81,0.0,1004.2,7.85,27.0,107,43.0,26.7,7,5,4,1,2026-04-15T02:28:16.146614+05:30
Vadodara,Gujarat,22.3072,73.1812,27.2,79,0.0,1001.9,8.1,27.7,81,40.5,25.8,7,5,4,1,2026-04-15T02:28:16.146625+05:30
Rajkot,Gujarat,22.3039,70.8022,24.7,77,0.0,992.8,7.85,29.5,63,61.9,20.9,3,5,7,1,2026-04-15T02:28:16.146633+05:30
Thane,Maharashtra,19.2183,72.9781,27.1,84,0.0,1005.8,8.0,32.8,125,69.4,24.4,7,5,4,1,2026-04-15T02:28:16.146641+05:30
Nagpur,Maharashtra,21.1458,79.0882,26.2,49,0.0,969.8,8.85,26.3,86,39.5,28.6,4,5,7,0,2026-04-15T02:28:16.146649+05:30
Nashik,Maharashtra,19.9975,73.7898,25.6,39,0.0,944.0,8.3,34.2,75,91.7,25.3,4,5,7,0,2026-04-15T02:28:16.146656+05:30
Aurangabad,Maharashtra,19.8762,75.3433,28.6,45,0.0,942.2,8.95,30.6,66,48.2,22.5,4,5,7,0,2026-04-15T02:28:16.146663+05:30
Solapur,Maharashtra,17.6599,75.9064,29.6,43,0.0,954.3,9.05,28.8,75,18.6,16.7,4,5,7,0,2026-04-15T02:28:16.146670+05:30
Kolhapur,Maharashtra,16.705,74.2433,22.2,90,0.0,945.6,9.05,42.1,86,45.3,35.4,3,5,7,1,2026-04-15T02:28:16.146677+05:30
Goa,Goa,15.2993,74.124,28.5,83,0.0,996.3,9.0,31.0,86,63.3,39.5,7,5,7,1,2026-04-15T02:28:16.146685+05:30
Jodhpur,Rajasthan,26.2389,73.0243,28.4,38,0.0,979.5,8.15,23.4,69,119.7,26.8,4,5,7,0,2026-04-15T02:28:16.146692+05:30
Udaipur,Rajasthan,24.5854,73.7125,25.5,41,0.0,944.4,8.7,32.0,58,113.6,26.3,4,5,7,0,2026-04-15T02:28:16.146699+05:30
Kota,Rajasthan,25.2138,75.8648,26.7,41,0.0,975.4,8.2,22.3,71,26.1,14.8,4,5,7,0,2026-04-15T02:28:16.146705+05:30
Bikaner,Rajasthan,28.0229,73.3119,29.1,33,0.0,979.5,7.95,15.1,66,55.6,19.0,4,5,7,0,2026-04-15T02:28:16.146712+05:30
Ajmer,Rajasthan,26.4499,74.6399,24.9,49,0.0,951.5,8.15,25.6,58,55.1,22.6,0,5,7,0,2026-04-15T02:28:16.146718+05:30
Gwalior,Madhya Pradesh,26.2183,78.1828,29.1,38,0.0,980.1,7.95,29.5,113,160.2,34.8,4,5,7,0,2026-04-15T02:28:16.146725+05:30
Indore,Madhya Pradesh,22.7196,75.8577,24.8,52,0.0,945.9,8.55,31.3,76,23.6,15.9,0,5,7,0,2026-04-15T02:28:16.146732+05:30
Bhopal,Madhya Pradesh,23.2599,77.4126,25.6,44,0.0,951.2,8.55,31.7,72,36.6,26.8,4,5,7,0,2026-04-15T02:28:16.146739+05:30
Jabalpur,Madhya Pradesh,23.1815,79.9864,26.5,52,0.0,958.0,8.7,35.6,78,81.0,32.2,4,5,7,0,2026-04-15T02:28:16.146746+05:30
Ujjain,Madhya Pradesh,23.1765,75.7885,25.2,54,0.0,951.6,8.45,29.5,79,27.6,19.4,4,5,7,0,2026-04-15T02:28:16.146754+05:30
Visakhapatnam,Andhra Pradesh,17.6868,83.2185,27.3,88,0.0,1001.6,9.15,44.3,65,21.5,15.7,7,5,4,1,2026-04-15T02:28:16.146761+05:30
Vijayawada,Andhra Pradesh,16.5062,80.648,26.1,93,0.0,1000.8,9.2,28.8,54,13.2,9.9,7,5,4,1,2026-04-15T02:28:16.146768+05:30
Guntur,Andhra Pradesh,16.3067,80.4365,26.7,90,0.0,1001.6,9.2,31.0,56,12.9,9.7,7,5,4,1,2026-04-15T02:28:16.146775+05:30
Nellore,Andhra Pradesh,14.4426,79.9865,26.8,87,0.0,1003.5,9.3,35.6,52,10.4,8.6,7,5,4,1,2026-04-15T02:28:16.146782+05:30
Kurnool,Andhra Pradesh,15.8281,78.0373,31.8,39,0.0,974.2,9.2,25.6,83,24.9,22.2,0,5,7,1,2026-04-15T02:28:16.146790+05:30
Kakinada,Andhra Pradesh,16.9891,82.2475,26.4,91,0.0,1005.6,9.15,31.0,55,20.2,13.0,7,5,4,1,2026-04-15T02:28:16.146797+05:30
Tirupati,Andhra Pradesh,13.6288,79.4192,25.9,79,0.0,990.3,9.4,32.0,68,27.2,25.7,7,5,7,1,2026-04-15T02:28:16.146804+05:30
Warangal,Telangana,17.9689,79.5941,28.3,60,0.0,975.9,9.1,28.8,79,21.0,17.5,4,5,7,1,2026-04-15T02:28:16.146811+05:30
Nizamabad,Telangana,18.6725,78.0941,30.5,48,0.0,961.8,9.05,27.0,91,43.7,35.4,0,5,7,1,2026-04-15T02:28:16.146819+05:30
Mysore,Karnataka,12.2958,76.6396,24.0,90,0.0,927.5,9.55,45.4,89,28.8,25.1,3,5,7,1,2026-04-15T02:28:16.146826+05:30
Mangalore,Karnataka,12.9141,74.856,29.6,80,0.0,1005.6,9.15,23.0,82,40.6,23.9,7,5,4,1,2026-04-15T02:28:16.146834+05:30
Hubli-Dharwad,Karnataka,15.3647,75.124,25.0,80,0.0,939.2,9.2,32.4,69,27.9,20.3,7,5,7,1,2026-04-15T02:28:16.146842+05:30
Belgaum,Karnataka,15.8497,74.4977,22.5,89,0.0,923.7,9.25,38.9,75,41.3,28.6,3,5,7,1,2026-04-15T02:28:19.364108+05:30
Coimbatore,Tamil Nadu,11.0168,76.9558,25.6,84,0.0,961.0,9.5,49.3,88,43.9,38.5,7,5,7,1,2026-04-15T02:28:19.364140+05:30
Madurai,Tamil Nadu,9.9252,78.1198,27.3,84,0.0,992.1,9.35,39.6,66,22.9,20.2,7,5,7,1,2026-04-15T02:28:19.364151+05:30
Trichy,Tamil Nadu,10.7905,78.7047,26.7,90,0.0,998.8,9.4,19.8,57,14.3,13.3,7,5,7,1,2026-04-15T02:28:19.364160+05:30
Salem,Tamil Nadu,11.6643,78.146,25.9,73,0.0,976.3,9.45,15.8,70,24.1,21.5,7,5,7,1,2026-04-15T02:28:19.364168+05:30
Tirunelveli,Tamil Nadu,8.7139,77.7567,27.5,80,0.0,1002.1,9.2,49.0,73,25.3,20.2,7,5,4,1,2026-04-15T02:28:19.364177+05:30
Vellore,Tamil Nadu,12.9165,79.1325,24.8,86,0.0,983.3,9.45,27.7,93,52.3,50.1,3,5,7,1,2026-04-15T02:28:19.364185+05:30
Erode,Tamil Nadu,11.341,77.7172,28.1,78,0.0,988.0,9.4,25.2,58,13.8,13.0,7,5,7,1,2026-04-15T02:28:19.364193+05:30
Kochi,Kerala,9.9312,76.2673,28.6,83,0.0,1007.5,9.2,32.0,98,36.8,31.5,7,5,4,1,2026-04-15T02:28:19.364201+05:30
Thiruvananthapuram,Kerala,8.5241,76.9366,28.5,83,0.0,1006.7,9.15,33.8,69,27.1,16.7,7,5,4,1,2026-04-15T02:28:19.364208+05:30
Kozhikode,Kerala,11.2588,75.7804,28.8,83,0.0,1007.0,9.15,29.5,90,46.0,29.8,7,5,4,1,2026-04-15T02:28:19.364216+05:30
Thrissur,Kerala,10.5276,76.2144,28.0,87,0.0,1006.1,9.2,35.3,98,54.9,45.2,7,5,4,1,2026-04-15T02:28:19.364224+05:30
Kannur,Kerala,11.8745,75.3704,28.8,82,0.0,1006.1,9.15,32.4,91,43.7,28.9,7,5,4,1,2026-04-15T02:28:19.364232+05:30
Patna,Bihar,25.5941,85.1376,24.7,70,0.0,996.9,8.55,18.0,114,124.8,68.2,3,5,7,1,2026-04-15T02:28:19.364240+05:30
Gaya,Bihar,24.7914,85.0002,24.4,47,0.0,990.6,8.6,20.2,96,84.8,31.5,0,5,7,0,2026-04-15T02:28:19.364247+05:30
Muzaffarpur,Bihar,26.1209,85.3647,23.0,79,0.0,997.1,8.55,23.0,141,127.6,75.4,3,5,7,1,2026-04-15T02:28:19.364254+05:30
Bhagalpur,Bihar,25.2425,87.0117,25.0,66,0.0,998.1,8.55,19.4,134,62.6,52.2,7,5,7,1,2026-04-15T02:28:19.364260+05:30
Ranchi,Jharkhand,23.3441,85.3096,22.9,37,0.0,935.3,9.15,34.2,71,107.3,28.0,0,5,7,0,2026-04-15T02:28:19.364268+05:30
Jamshedpur,Jharkhand,22.8046,86.2029,25.4,90,0.0,988.4,8.95,41.0,130,82.7,41.0,7,5,7,1,2026-04-15T02:28:19.364274+05:30
Dhanbad,Jharkhand,23.7957,86.4304,22.9,65,0.0,976.9,8.9,30.6,141,192.3,91.0,3,5,7,0,2026-04-15T02:28:19.364282+05:30
Bokaro,Jharkhand,23.6693,86.1511,23.0,51,0.0,981.3,8.9,35.6,135,154.6,79.2,0,5,7,0,2026-04-15T02:28:19.364288+05:30
Bhubaneswar,Odisha,20.2961,85.8245,27.2,87,0.0,1000.2,9.1,34.6,78,22.7,16.9,7,5,4,1,2026-04-15T02:28:19.364296+05:30
Cuttack,Odisha,20.4625,85.8828,27.1,89,0.0,1002.0,9.15,30.2,78,22.7,16.9,7,5,4,1,2026-04-15T02:28:19.364302+05:30
Rourkela,Odisha,22.2604,84.8536,25.6,85,0.0,982.5,8.9,38.2,86,92.7,40.6,7,5,7,1,2026-04-15T02:28:19.364309+05:30
Raipur,Chhattisgarh,21.2514,81.6296,27.2,50,0.0,971.3,8.95,43.6,131,97.8,59.6,4,5,7,0,2026-04-15T02:28:19.364315+05:30
Bhilai,Chhattisgarh,21.1938,81.3509,25.6,56,0.0,971.7,8.95,43.2,134,107.3,75.0,4,5,7,1,2026-04-15T02:28:19.364322+05:30
Guwahati,Assam,26.1158,91.7086,23.9,88,0.0,999.1,8.45,34.6,120,69.6,56.5,3,5,7,1,2026-04-15T02:28:19.364328+05:30
Agartala,Tripura,23.8315,91.2868,23.4,94,0.0,1004.8,8.7,34.2,105,33.1,29.8,3,5,4,1,2026-04-15T02:28:19.364335+05:30
Shillong,Meghalaya,25.5788,91.8933,14.9,90,0.0,854.0,7.7,58.7,97,48.1,39.9,3,10,7,0,2026-04-15T02:28:19.364342+05:30
Imphal,Manipur,24.817,93.9368,17.8,94,0.0,921.9,9.05,72.7,129,56.2,45.2,3,10,7,1,2026-04-15T02:28:19.364350+05:30
Aizawl,Mizoram,23.7271,92.7176,18.6,91,0.0,891.4,8.9,51.1,110,50.1,39.7,3,10,7,1,2026-04-15T02:28:19.364357+05:30
Kohima,Nagaland,25.6701,94.1077,15.1,91,0.0,852.8,8.95,72.0,111,62.9,44.2,3,10,7,0,2026-04-15T02:28:19.364364+05:30
Gangtok,Sikkim,27.3314,88.6138,13.4,90,0.0,833.7,8.75,19.4,109,50.2,33.1,3,10,7,0,2026-04-15T02:28:19.364371+05:30
Siliguri,West Bengal,26.7271,88.3953,20.7,71,0.0,991.3,8.4,31.7,154,120.6,76.1,3,5,7,0,2026-04-15T02:28:22.610956+05:30
Durgapur,West Bengal,23.5204,87.3119,25.2,93,0.0,992.3,8.85,25.2,153,99.7,64.5,7,5,7,1,2026-04-15T02:28:22.610988+05:30
Asansol,West Bengal,23.6739,86.9524,25.6,74,0.0,990.7,8.85,23.8,119,129.9,55.9,7,5,7,1,2026-04-15T02:28:22.610998+05:30
Pondicherry,Puducherry,11.9139,79.8145,26.6,97,0.0,1007.4,9.3,26.6,35,7.9,5.4,7,5,4,1,2026-04-15T02:28:22.611006+05:30
Port Blair,Andaman and Nicobar Islands,11.6234,92.7265,29.0,74,0.0,1005.5,9.2,18.4,65,32.4,21.8,7,5,4,1,2026-04-15T02:28:22.611014+05:30
Haridwar,Uttarakhand,29.9457,78.1642,19.8,65,0.0,971.8,7.05,29.2,64,30.9,27.4,3,5,7,0,2026-04-15T02:28:22.611022+05:30
Rishikesh,Uttarakhand,30.0869,78.2676,20.0,69,0.0,964.9,7.2,30.6,79,27.7,19.0,3,5,7,0,2026-04-15T02:28:22.611029+05:30
Nainital,Uttarakhand,29.3919,79.4542,19.7,30,0.0,804.8,8.0,53.6,78,43.1,14.2,0,5,7,0,2026-04-15T02:28:22.611037+05:30
Mussoorie,Uttarakhand,30.4599,78.0664,16.7,55,0.0,801.2,7.55,33.8,60,28.5,25.4,0,5,7,0,2026-04-15T02:28:22.611044+05:30
Dharamshala,Himachal Pradesh,32.219,76.3234,20.2,34,0.0,867.8,7.8,22.7,68,18.1,10.5,0,5,7,0,2026-04-15T02:28:22.611051+05:30
Dalhousie,Himachal Pradesh,32.5387,75.971,16.5,40,0.0,802.3,7.95,22.0,60,28.6,24.8,0,5,7,0,2026-04-15T02:28:22.611059+05:30
Patiala,Punjab,30.3398,76.3869,20.2,57,0.0,975.6,7.15,26.3,180,98.5,46.1,0,5,7,0,2026-04-15T02:28:22.611066+05:30
Bhatinda,Punjab,30.211,74.9455,22.6,55,0.0,981.8,7.85,29.9,62,39.1,24.0,0,5,7,0,2026-04-15T02:28:22.611073+05:30
Rohtak,Haryana,28.8955,76.6066,22.1,56,0.0,979.1,7.35,28.4,208,493.6,86.1,0,5,7,0,2026-04-15T02:28:22.611080+05:30
Panipat,Haryana,29.3909,76.9635,21.4,56,0.0,977.8,7.15,29.2,533,353.9,74.0,0,5,7,0,2026-04-15T02:28:22.611087+05:30
Mathura,Uttar Pradesh,27.4924,77.6737,25.1,53,0.0,983.9,7.6,24.1,322,413.5,86.8,4,5,7,0,2026-04-15T02:28:22.611094+05:30
Vrindavan,Uttar Pradesh,27.5823,77.7027,25.4,50,0.0,984.0,7.6,25.2,322,413.5,86.8,4,5,7,0,2026-04-15T02:28:22.611100+05:30
Ayodhya,Uttar Pradesh,26.7922,82.1998,25.6,42,0.0,991.7,7.95,31.7,88,142.0,32.5,4,5,7,0,2026-04-15T02:28:22.611107+05:30
Ratlam,Madhya Pradesh,23.3315,75.0367,25.2,57,0.0,952.3,8.4,28.8,58,29.9,18.5,4,5,7,0,2026-04-15T02:28:22.611113+05:30
Sagar,Madhya Pradesh,23.8388,78.7378,26.3,45,0.0,947.4,8.6,31.0,69,40.4,21.4,4,5,7,0,2026-04-15T02:28:22.611120+05:30
Satna,Madhya Pradesh,24.6005,80.8322,26.0,45,0.0,968.6,8.6,25.2,64,102.4,24.3,4,5,7,0,2026-04-15T02:28:22.611127+05:30
Akola,Maharashtra,20.7002,77.0082,26.6,56,0.0,972.4,8.8,27.7,63,22.5,15.3,4,5,7,1,2026-04-15T02:28:22.611134+05:30
Amravati,Maharashtra,20.9374,77.7796,26.8,50,0.0,964.3,8.8,25.9,67,20.7,15.7,4,5,7,0,2026-04-15T02:28:22.611141+05:30
Latur,Maharashtra,18.4088,76.5604,27.5,46,0.0,936.8,9.05,29.9,65,29.7,24.0,4,5,7,0,2026-04-15T02:28:22.611147+05:30
Nanded,Maharashtra,19.1383,77.3091,26.4,53,0.0,965.4,8.95,17.3,66,31.7,28.1,4,5,7,0,2026-04-15T02:28:22.611154+05:30
Gulbarga,Karnataka,17.3297,76.8343,30.9,43,0.0,956.1,9.1,33.8,91,42.7,36.7,0,5,7,1,2026-04-15T02:28:22.611159+05:30
Bidar,Karnataka,17.9104,77.5199,28.4,47,0.0,933.1,9.1,20.9,91,35.2,27.9,4,5,7,0,2026-04-15T02:28:22.611165+05:30
Hospet,Karnataka,15.2689,76.3909,27.8,76,0.0,954.7,9.3,29.5,102,44.7,39.1,7,5,7,1,2026-04-15T02:28:22.611172+05:30
Tirupur,Tamil Nadu,11.1085,77.3411,27.3,79,0.0,974.3,9.5,33.5,75,32.1,28.2,7,5,7,1,2026-04-15T02:28:22.611177+05:30
Alappuzha,Kerala,9.4981,76.3388,28.4,83,0.0,1007.7,9.15,30.6,96,44.5,31.7,7,5,4,1,2026-04-15T02:28:22.611184+05:30
Munnar,Kerala,10.0889,77.0595,21.0,98,0.0,856.0,9.75,37.8,77,40.4,35.3,3,5,7,1,2026-04-15T02:28:22.611191+05:30
Silchar,Assam,24.8333,92.7789,22.6,91,0.0,1005.0,8.7,31.0,145,61.5,47.1,3,5,4,1,2026-04-15T02:28:22.611198+05:30
Dibrugarh,Assam,27.4728,94.912,21.5,88,0.0,995.3,6.5,24.1,85,32.0,17.1,3,5,7,1,2026-04-15T02:28:22.611204+05:30
