city,state,latitude,longitude,temp,humidity,rain,pressure,uv_index,wind_gusts,aqi,pm10,pm2_5,no2,co,o3,so2,mosquito_risk,arthritis_risk,migraine_risk,frizz_risk,updated_at
Delhi,Delhi,28.6139,77.209,32.3,59,0.0,979.1,6.85,29.2,153,101.0,44.4,25.4,857.0,112.0,34.5,0,5,7,1,2026-07-02T10:29:14.863881+05:30
Mumbai,Maharashtra,19.076,72.8777,26.3,94,0.6,1005.9,0.7,40.3,38,19.2,10.4,11.5,310.0,46.0,7.4,10,5,0,1,2026-07-02T10:29:14.863919+05:30
Bangalore,Karnataka,12.9716,77.5946,25.4,65,0.0,911.8,6.05,59.4,16,3.9,3.9,13.5,383.0,34.0,4.3,7,5,7,1,2026-07-02T10:29:14.863934+05:30
Hyderabad,Telangana,17.385,78.4867,25.8,78,0.0,950.8,3.65,54.0,19,6.1,4.3,6.8,295.0,43.0,4.5,7,5,3,1,2026-07-02T10:29:14.863943+05:30
Chennai,Tamil Nadu,13.0827,80.2707,35.0,43,0.0,1004.9,6.6,53.6,36,5.6,5.4,11.8,285.0,43.0,12.7,0,5,4,1,2026-07-02T10:29:14.863952+05:30
Kolkata,West Bengal,22.5726,88.3639,30.7,77,0.0,1000.1,7.9,30.6,71,10.3,9.7,4.7,316.0,102.0,9.0,3,5,4,1,2026-07-02T10:29:14.863959+05:30
Pune,Maharashtra,18.5204,73.8567,24.3,83,0.0,945.7,1.2,43.6,19,3.7,3.6,10.5,209.0,35.0,5.6,3,5,3,1,2026-07-02T10:29:14.863966+05:30
Ahmedabad,Gujarat,23.0225,72.5714,32.1,64,0.0,997.3,7.35,49.0,54,41.7,18.0,4.1,197.0,59.0,5.0,3,5,7,1,2026-07-02T10:29:14.863972+05:30
Jaipur,Rajasthan,26.9124,75.7873,30.3,67,0.0,956.1,8.2,28.8,118,88.2,36.2,6.4,245.0,88.0,8.0,3,5,7,1,2026-07-02T10:29:14.863979+05:30
Lucknow,Uttar Pradesh,26.8467,80.9462,30.1,79,0.0,989.6,7.45,22.0,99,22.4,18.8,6.5,342.0,120.0,8.0,3,5,7,1,2026-07-02T10:29:14.863989+05:30
Kanpur,Uttar Pradesh,26.4499,80.3319,29.6,78,0.1,987.8,6.2,25.2,97,58.7,27.4,6.7,271.0,115.0,8.1,10,5,7,1,2026-07-02T10:29:14.863996+05:30
Chandigarh,Chandigarh,30.7333,76.7794,29.0,76,0.0,965.8,6.75,28.8,104,48.8,34.2,12.8,481.0,109.0,12.7,7,5,7,1,2026-07-02T10:29:14.864003+05:30
Srinagar,Jammu and Kashmir,34.0837,74.7973,24.1,69,0.1,842.0,9.1,23.4,84,29.7,21.2,4.6,398.0,133.0,4.7,6,5,7,1,2026-07-02T10:29:14.864009+05:30
Jammu,Jammu and Kashmir,32.7266,74.857,30.6,66,0.0,969.8,8.6,27.0,96,69.2,30.6,6.0,291.0,135.0,3.4,3,5,7,1,2026-07-02T10:29:14.864015+05:30
Amritsar,Punjab,31.634,74.8723,30.5,70,0.0,977.5,8.2,28.4,211,160.2,53.7,6.6,274.0,106.0,6.5,3,5,7,1,2026-07-02T10:29:14.864021+05:30
Ludhiana,Punjab,30.901,75.8573,29.4,79,0.0,975.3,6.85,28.4,152,134.6,48.5,7.8,351.0,110.0,7.6,7,5,7,1,2026-07-02T10:29:14.864027+05:30
Jalandhar,Punjab,31.326,75.5762,29.9,74,0.0,976.5,6.95,31.3,171,130.4,46.0,7.2,332.0,110.0,6.1,7,5,7,1,2026-07-02T10:29:14.864034+05:30
Dehradun,Uttarakhand,30.6284,78.0322,22.8,73,0.1,830.7,7.35,25.2,36,3.1,2.7,3.2,187.0,124.0,2.3,6,5,7,1,2026-07-02T10:29:14.864040+05:30
Shimla,Himachal Pradesh,31.1048,77.1734,17.4,89,0.0,784.2,5.5,28.8,61,12.6,8.1,4.3,257.0,117.0,2.4,3,10,3,0,2026-07-02T10:29:14.864046+05:30
Manali,Himachal Pradesh,32.2396,77.1887,24.5,63,0.0,819.8,7.9,31.0,51,11.2,9.6,21.2,254.0,99.0,0.8,3,5,7,1,2026-07-02T10:29:14.864055+05:30
Gurgaon,Haryana,28.4595,77.0266,32.2,62,0.0,977.5,7.6,26.3,170,146.7,53.8,22.7,630.0,112.0,29.1,3,5,7,1,2026-07-02T10:29:14.864061+05:30
Noida,Uttar Pradesh,28.5355,77.391,31.3,67,0.0,980.6,6.3,24.8,170,146.7,53.8,22.7,606.0,112.0,29.1,3,5,7,1,2026-07-02T10:29:14.864069+05:30
Ghaziabad,Uttar Pradesh,28.6692,77.4538,31.3,67,0.0,978.9,7.05,25.6,122,21.1,17.6,6.3,380.0,125.0,11.1,3,5,7,1,2026-07-02T10:29:14.864076+05:30
Faridabad,Haryana,28.4089,77.3178,31.0,67,0.0,979.8,6.25,29.2,170,146.7,53.8,22.7,520.0,112.0,29.1,3,5,7,1,2026-07-02T10:29:14.864081+05:30
Meerut,Uttar Pradesh,28.9845,77.7064,29.9,75,0.0,977.9,7.0,32.8,122,21.1,17.6,6.3,367.0,125.0,11.1,7,5,7,1,2026-07-02T10:29:14.864087+05:30
Agra,Uttar Pradesh,27.1767,78.0081,31.2,67,0.0,983.3,7.95,27.0,114,72.4,29.8,7.6,299.0,126.0,11.1,3,5,7,1,2026-07-02T10:29:14.864093+05:30
Varanasi,Uttar Pradesh,25.3176,82.9739,30.8,74,0.0,992.7,6.55,25.6,83,36.2,35.9,8.9,439.0,116.0,14.2,3,5,7,1,2026-07-02T10:29:14.864100+05:30
Prayagraj,Uttar Pradesh,25.4358,81.8463,30.8,73,0.0,991.5,7.0,22.3,88,26.9,26.0,6.4,420.0,132.0,8.0,3,5,7,1,2026-07-02T10:29:14.864106+05:30
Gorakhpur,Uttar Pradesh,26.7606,83.3732,31.6,74,0.0,993.4,7.4,30.6,152,29.9,29.7,4.7,414.0,122.0,7.3,3,5,7,1,2026-07-02T10:29:14.864112+05:30
Bareilly,Uttar Pradesh,28.367,79.4304,29.5,80,0.0,983.2,6.15,29.2,90,17.2,15.3,6.8,318.0,123.0,8.2,7,5,7,1,2026-07-02T10:29:14.864120+05:30
Aligarh,Uttar Pradesh,27.8974,78.088,30.9,72,0.0,981.3,7.05,29.5,106,61.9,27.9,7.9,296.0,126.0,14.8,3,5,7,1,2026-07-02T10:29:14.864128+05:30
Moradabad,Uttar Pradesh,28.8386,78.7733,29.9,78,0.0,980.1,6.7,33.1,106,14.7,13.5,6.6,316.0,122.0,8.6,7,5,7,1,2026-07-02T10:29:14.864143+05:30
Saharanpur,Uttar Pradesh,29.9637,77.546,29.6,76,0.0,972.7,7.1,29.9,132,28.2,18.7,6.3,368.0,109.0,4.3,7,5,7,1,2026-07-02T10:29:14.864158+05:30
Jhansi,Uttar Pradesh,25.4484,78.5685,30.2,67,0.0,974.0,8.05,23.0,94,78.2,29.0,5.2,171.0,91.0,8.3,3,5,7,1,2026-07-02T10:29:18.094862+05:30
Surat,Gujarat,21.1702,72.8311,26.6,93,0.5,1002.9,0.45,36.4,60,29.7,23.5,25.1,477.0,29.0,48.5,10,5,0,1,2026-07-02T10:29:18.094889+05:30
Vadodara,Gujarat,22.3072,73.1812,31.5,65,0.0,1000.0,2.7,36.7,53,23.7,13.7,7.2,179.0,53.0,5.6,3,5,0,1,2026-07-02T10:29:18.094899+05:30
Rajkot,Gujarat,22.3039,70.8022,31.8,67,0.0,989.4,5.25,47.5,61,30.9,13.9,3.5,117.0,58.0,5.9,3,5,3,1,2026-07-02T10:29:18.094906+05:30
Thane,Maharashtra,19.2183,72.9781,26.1,96,0.5,1005.1,0.55,35.6,38,19.2,10.4,11.5,274.0,46.0,7.4,10,5,0,1,2026-07-02T10:29:18.094913+05:30
Nagpur,Maharashtra,21.1458,79.0882,25.8,93,0.3,969.5,1.65,26.6,66,16.5,15.0,15.5,303.0,56.0,11.9,10,5,3,1,2026-07-02T10:29:18.094920+05:30
Nashik,Maharashtra,19.9975,73.7898,24.4,87,0.1,942.4,0.95,45.4,19,3.3,2.5,7.3,148.0,44.0,5.1,6,5,3,1,2026-07-02T10:29:18.094927+05:30
Aurangabad,Maharashtra,19.8762,75.3433,25.2,82,0.0,941.3,2.45,35.6,18,3.8,3.5,8.2,140.0,40.0,6.5,7,5,3,1,2026-07-02T10:29:18.094933+05:30
Solapur,Maharashtra,17.6599,75.9064,28.0,67,0.0,955.6,4.45,55.8,18,4.0,2.9,2.6,119.0,52.0,2.2,7,5,3,1,2026-07-02T10:29:18.094939+05:30
Kolhapur,Maharashtra,16.705,74.2433,24.3,89,0.1,946.7,2.0,46.8,19,4.7,4.4,7.6,175.0,39.0,2.6,6,5,3,1,2026-07-02T10:29:18.094946+05:30
Goa,Goa,15.2993,74.124,24.7,98,0.2,998.8,6.05,28.1,39,18.1,9.3,2.2,221.0,54.0,0.8,6,5,7,1,2026-07-02T10:29:18.094952+05:30
Jodhpur,Rajasthan,26.2389,73.0243,35.6,43,0.0,978.1,7.85,29.5,120,268.2,63.6,1.8,114.0,61.0,4.0,0,5,10,1,2026-07-02T10:29:18.094960+05:30
Udaipur,Rajasthan,24.5854,73.7125,30.5,62,0.0,942.7,8.65,31.7,57,41.4,21.9,2.7,139.0,66.0,4.1,3,5,7,1,2026-07-02T10:29:18.094966+05:30
Kota,Rajasthan,25.2138,75.8648,29.4,78,0.0,974.6,8.3,32.8,77,23.7,17.8,5.8,176.0,78.0,12.6,7,5,7,1,2026-07-02T10:29:18.094973+05:30
Bikaner,Rajasthan,28.0229,73.3119,37.6,37,0.0,976.3,8.45,29.9,137,280.3,92.9,0.8,124.0,69.0,2.5,0,5,10,1,2026-07-02T10:29:18.094980+05:30
Ajmer,Rajasthan,26.4499,74.6399,31.9,54,0.0,950.6,8.0,50.0,87,93.8,34.1,3.5,136.0,72.0,4.7,0,5,7,1,2026-07-02T10:29:18.094986+05:30
Gwalior,Madhya Pradesh,26.2183,78.1828,28.5,83,0.0,979.0,7.55,23.4,96,97.1,33.4,4.7,195.0,98.0,3.7,7,5,7,1,2026-07-02T10:29:18.094992+05:30
Indore,Madhya Pradesh,22.7196,75.8577,28.8,73,0.0,944.5,2.6,30.6,67,13.9,11.4,6.2,237.0,60.0,9.6,7,5,3,1,2026-07-02T10:29:18.094999+05:30
Bhopal,Madhya Pradesh,23.2599,77.4126,28.9,72,0.0,950.1,7.75,35.6,75,22.5,19.2,4.5,233.0,81.0,5.9,7,5,7,1,2026-07-02T10:29:18.095005+05:30
Jabalpur,Madhya Pradesh,23.1815,79.9864,27.5,81,0.0,957.5,3.9,28.8,67,33.5,15.3,3.4,210.0,93.0,2.6,7,5,3,1,2026-07-02T10:29:18.095011+05:30
Ujjain,Madhya Pradesh,23.1765,75.7885,29.0,71,0.0,950.2,7.45,28.4,63,19.0,12.9,3.9,195.0,70.0,7.9,7,5,7,1,2026-07-02T10:29:18.095018+05:30
Visakhapatnam,Andhra Pradesh,17.6868,83.2185,27.3,84,0.2,998.3,1.85,39.2,61,13.4,12.6,16.9,361.0,43.0,36.1,10,5,3,1,2026-07-02T10:29:18.095024+05:30
Vijayawada,Andhra Pradesh,16.5062,80.648,31.4,62,0.0,999.3,5.4,63.0,36,8.6,7.7,9.0,143.0,36.0,6.5,3,5,3,1,2026-07-02T10:29:18.095030+05:30
Guntur,Andhra Pradesh,16.3067,80.4365,31.7,58,0.0,1000.6,7.0,63.4,30,7.1,6.2,8.7,142.0,35.0,6.6,0,5,4,1,2026-07-02T10:29:18.095037+05:30
Nellore,Andhra Pradesh,14.4426,79.9865,33.5,50,0.0,1003.2,4.6,52.2,20,3.4,2.6,5.3,123.0,46.0,5.2,0,5,0,1,2026-07-02T10:29:18.095043+05:30
Kurnool,Andhra Pradesh,15.8281,78.0373,29.9,61,0.0,975.6,7.55,64.1,19,10.6,5.2,1.8,117.0,56.0,2.0,7,5,7,1,2026-07-02T10:29:18.095050+05:30
Kakinada,Andhra Pradesh,16.9891,82.2475,28.3,79,0.1,1003.0,6.65,61.9,44,8.1,7.0,8.3,217.0,43.0,4.8,10,5,4,1,2026-07-02T10:29:18.095056+05:30
Tirupati,Andhra Pradesh,13.6288,79.4192,33.9,45,0.0,989.1,5.8,48.2,17,3.2,2.9,5.8,124.0,45.0,2.0,0,5,3,1,2026-07-02T10:29:18.095062+05:30
Warangal,Telangana,17.9689,79.5941,28.3,73,0.0,975.5,2.3,51.8,29,7.3,6.3,5.5,172.0,46.0,2.5,7,5,3,1,2026-07-02T10:29:18.095068+05:30
Nizamabad,Telangana,18.6725,78.0941,25.4,88,0.1,962.1,2.4,39.2,26,8.1,6.2,7.3,154.0,40.0,5.2,10,5,3,1,2026-07-02T10:29:18.095074+05:30
Mysore,Karnataka,12.2958,76.6396,22.6,89,0.0,928.9,6.65,57.2,18,2.8,2.8,7.2,152.0,40.0,1.9,3,5,7,1,2026-07-02T10:29:18.095080+05:30
Mangalore,Karnataka,12.9141,74.856,25.5,96,0.1,1008.9,6.25,39.6,24,11.7,6.5,3.6,141.0,47.0,1.4,10,0,4,1,2026-07-02T10:29:18.095086+05:30
Hubli-Dharwad,Karnataka,15.3647,75.124,24.7,80,0.0,940.5,5.95,54.0,20,1.8,1.7,4.2,118.0,48.0,1.1,3,5,3,1,2026-07-02T10:29:18.095092+05:30
Belgaum,Karnataka,15.8497,74.4977,23.2,84,0.0,925.2,3.1,46.8,19,3.9,3.1,6.0,117.0,42.0,1.9,3,5,3,1,2026-07-02T10:29:21.326158+05:30
Coimbatore,Tamil Nadu,11.0168,76.9558,29.4,59,0.0,962.2,7.95,61.6,17,4.6,3.5,3.8,190.0,48.0,2.1,4,5,7,1,2026-07-02T10:29:21.326189+05:30
Madurai,Tamil Nadu,9.9252,78.1198,35.0,40,0.0,992.6,8.7,37.1,48,14.7,9.2,4.0,147.0,67.0,4.0,0,5,7,1,2026-07-02T10:29:21.326200+05:30
Trichy,Tamil Nadu,10.7905,78.7047,33.3,48,0.0,999.1,8.7,69.1,24,7.3,4.6,2.6,124.0,57.0,2.4,0,5,7,1,2026-07-02T10:29:21.326209+05:30
Salem,Tamil Nadu,11.6643,78.146,27.8,67,0.0,977.6,7.65,33.5,40,12.8,10.9,10.1,243.0,54.0,10.7,7,5,7,1,2026-07-02T10:29:21.326217+05:30
Tirunelveli,Tamil Nadu,8.7139,77.7567,34.9,41,0.0,1003.4,8.6,49.7,32,7.0,4.5,2.3,122.0,55.0,1.7,0,5,4,1,2026-07-02T10:29:21.326249+05:30
Vellore,Tamil Nadu,12.9165,79.1325,31.6,51,0.0,983.0,5.7,50.8,18,3.8,3.6,6.2,142.0,45.0,3.5,0,5,3,1,2026-07-02T10:29:21.326257+05:30
Erode,Tamil Nadu,11.341,77.7172,32.0,49,0.0,989.1,8.15,38.9,33,8.6,6.9,6.1,190.0,52.0,3.4,0,5,7,1,2026-07-02T10:29:21.326265+05:30
Kochi,Kerala,9.9312,76.2673,28.0,81,0.0,1011.1,8.45,42.8,53,14.0,10.2,5.4,170.0,51.0,4.5,7,0,4,1,2026-07-02T10:29:21.326272+05:30
Thiruvananthapuram,Kerala,8.5241,76.9366,27.5,79,0.0,1010.1,8.35,47.2,48,17.4,10.3,2.8,155.0,56.0,2.1,7,0,4,1,2026-07-02T10:29:21.326279+05:30
Kozhikode,Kerala,11.2588,75.7804,26.5,89,0.0,1010.5,7.95,40.3,24,9.1,4.7,1.1,221.0,53.0,0.5,7,0,4,1,2026-07-02T10:29:21.326286+05:30
Thrissur,Kerala,10.5276,76.2144,27.9,81,0.0,1009.6,8.55,42.1,51,9.8,7.2,4.9,192.0,55.0,3.3,7,0,4,1,2026-07-02T10:29:21.326293+05:30
Kannur,Kerala,11.8745,75.3704,25.5,94,0.1,1009.9,8.45,40.0,23,10.2,6.7,6.8,243.0,38.0,1.2,10,0,4,1,2026-07-02T10:29:21.326300+05:30
Patna,Bihar,25.5941,85.1376,31.6,71,0.0,995.9,6.25,32.0,125,32.2,31.8,7.7,331.0,116.0,15.6,3,5,7,1,2026-07-02T10:29:21.326306+05:30
Gaya,Bihar,24.7914,85.0002,31.1,70,0.0,988.7,5.9,31.0,103,24.0,23.7,4.4,368.0,123.0,14.5,3,5,3,1,2026-07-02T10:29:21.326313+05:30
Muzaffarpur,Bihar,26.1209,85.3647,31.9,71,0.0,996.1,7.25,34.6,125,34.6,34.0,6.6,302.0,113.0,11.6,3,5,7,1,2026-07-02T10:29:21.326319+05:30
Bhagalpur,Bihar,25.2425,87.0117,31.8,68,0.0,996.5,6.8,32.0,106,30.5,29.6,8.9,305.0,99.0,13.6,3,5,7,1,2026-07-02T10:29:21.326325+05:30
Ranchi,Jharkhand,23.3441,85.3096,24.8,90,0.1,932.8,7.85,32.0,78,29.7,29.0,11.8,416.0,106.0,34.1,6,5,7,1,2026-07-02T10:29:21.326332+05:30
Jamshedpur,Jharkhand,22.8046,86.2029,29.6,75,0.0,985.0,6.8,29.2,108,18.0,17.8,3.4,329.0,108.0,7.0,7,5,7,1,2026-07-02T10:29:21.326339+05:30
Dhanbad,Jharkhand,23.7957,86.4304,29.5,76,0.1,974.8,7.75,34.9,152,26.4,26.0,21.0,303.0,84.0,48.2,10,5,7,1,2026-07-02T10:29:21.326346+05:30
Bokaro,Jharkhand,23.6693,86.1511,29.5,75,0.0,978.6,6.7,34.6,150,29.0,28.5,24.7,374.0,84.0,62.4,7,5,7,1,2026-07-02T10:29:21.326353+05:30
Bhubaneswar,Odisha,20.2961,85.8245,29.7,77,0.0,995.7,8.5,28.1,60,12.9,12.6,9.1,265.0,82.0,5.2,7,5,7,1,2026-07-02T10:29:21.326359+05:30
Cuttack,Odisha,20.4625,85.8828,30.5,74,0.1,997.5,8.45,30.2,60,12.9,12.6,9.1,251.0,82.0,5.2,6,5,7,1,2026-07-02T10:29:21.326365+05:30
Rourkela,Odisha,22.2604,84.8536,30.7,69,0.0,978.8,8.35,30.2,103,38.2,37.6,7.4,355.0,120.0,31.0,3,5,7,1,2026-07-02T10:29:21.326372+05:30
Raipur,Chhattisgarh,21.2514,81.6296,28.0,77,0.1,970.0,4.1,33.5,83,21.5,20.5,32.9,173.0,54.0,68.1,10,5,3,1,2026-07-02T10:29:21.326378+05:30
Bhilai,Chhattisgarh,21.1938,81.3509,27.2,80,0.1,970.6,5.4,31.3,73,15.1,14.3,22.7,267.0,71.0,52.9,10,5,3,1,2026-07-02T10:29:21.326384+05:30
Guwahati,Assam,26.1158,91.7086,31.5,70,0.0,996.6,8.55,22.7,36,5.1,5.1,2.0,252.0,86.0,1.6,3,5,7,1,2026-07-02T10:29:21.326390+05:30
Agartala,Tripura,23.8315,91.2868,30.9,72,0.1,1001.4,7.6,27.7,63,13.0,10.9,3.1,165.0,100.0,2.8,6,5,4,1,2026-07-02T10:29:21.326397+05:30
Shillong,Meghalaya,25.5788,91.8933,24.9,74,0.1,856.0,8.0,24.5,28,5.3,5.1,1.9,168.0,84.0,1.8,6,5,7,1,2026-07-02T10:29:21.326402+05:30
Imphal,Manipur,24.817,93.9368,28.3,71,0.0,920.3,8.6,19.1,48,5.6,5.4,1.5,185.0,78.0,1.4,7,5,7,1,2026-07-02T10:29:21.326409+05:30
Aizawl,Mizoram,23.7271,92.7176,25.3,74,0.0,890.1,8.35,22.3,45,9.1,8.1,0.5,130.0,83.0,1.0,7,5,7,1,2026-07-02T10:29:21.326415+05:30
Kohima,Nagaland,25.6701,94.1077,25.3,75,0.0,854.1,7.8,24.8,34,4.8,4.7,1.0,162.0,72.0,0.9,7,5,7,1,2026-07-02T10:29:21.326422+05:30
Gangtok,Sikkim,27.3314,88.6138,23.0,76,0.1,837.9,8.2,31.0,60,5.6,5.4,1.5,247.0,106.0,0.8,6,5,7,1,2026-07-02T10:29:21.326428+05:30
Siliguri,West Bengal,26.7271,88.3953,31.8,69,0.0,989.1,7.9,27.4,97,11.5,11.3,2.5,297.0,115.0,2.1,3,5,7,1,2026-07-02T10:29:24.564075+05:30
Durgapur,West Bengal,23.5204,87.3119,30.9,72,0.0,989.4,6.95,32.0,150,22.6,22.0,14.1,297.0,87.0,29.2,3,5,7,1,2026-07-02T10:29:24.564104+05:30
Asansol,West Bengal,23.6739,86.9524,30.8,72,0.1,988.3,7.15,34.9,141,22.4,21.9,16.8,301.0,84.0,33.9,6,5,7,1,2026-07-02T10:29:24.564114+05:30
Pondicherry,Puducherry,11.9139,79.8145,32.8,51,0.0,1006.9,8.25,28.4,53,18.5,14.9,10.2,277.0,60.0,9.9,0,5,4,1,2026-07-02T10:29:24.564122+05:30
Port Blair,Andaman and Nicobar Islands,11.6234,92.7265,28.4,83,0.1,1006.8,2.55,48.6,33,10.8,6.6,0.4,109.0,69.0,0.4,10,5,0,1,2026-07-02T10:29:24.564130+05:30
Haridwar,Uttarakhand,29.9457,78.1642,30.4,72,0.0,970.9,6.4,27.4,97,18.8,13.2,4.3,248.0,114.0,2.6,3,5,7,1,2026-07-02T10:29:24.564137+05:30
Rishikesh,Uttarakhand,30.0869,78.2676,29.4,70,0.0,963.7,6.6,22.7,63,12.8,8.4,2.8,232.0,113.0,1.2,7,5,7,1,2026-07-02T10:29:24.564144+05:30
Nainital,Uttarakhand,29.3919,79.4542,18.7,95,0.1,805.4,7.2,24.1,70,22.5,16.9,4.5,271.0,108.0,2.3,6,10,7,1,2026-07-02T10:29:24.564151+05:30
Mussoorie,Uttarakhand,30.4599,78.0664,20.9,73,0.1,803.7,6.2,25.6,72,13.9,10.5,4.4,227.0,134.0,6.0,6,5,7,0,2026-07-02T10:29:24.564158+05:30
Dharamshala,Himachal Pradesh,32.219,76.3234,22.4,86,0.0,868.1,8.4,29.9,31,7.9,4.0,2.5,264.0,116.0,0.9,3,5,7,1,2026-07-02T10:29:24.564165+05:30
Dalhousie,Himachal Pradesh,32.5387,75.971,18.7,98,0.0,804.4,8.65,23.8,84,40.5,18.3,8.6,276.0,119.0,1.8,3,10,7,1,2026-07-02T10:29:24.564172+05:30
Patiala,Punjab,30.3398,76.3869,30.0,73,0.0,974.8,7.35,29.2,135,137.8,50.4,6.8,289.0,112.0,9.9,7,5,7,1,2026-07-02T10:29:24.564179+05:30
Bhatinda,Punjab,30.211,74.9455,32.8,61,0.0,979.1,6.4,46.4,776,201.2,68.5,7.7,289.0,105.0,12.8,3,5,7,1,2026-07-02T10:29:24.564186+05:30
Rohtak,Haryana,28.8955,76.6066,31.7,68,0.0,977.9,7.7,31.3,187,130.9,51.9,22.0,367.0,100.0,25.0,3,5,7,1,2026-07-02T10:29:24.564193+05:30
Panipat,Haryana,29.3909,76.9635,30.6,72,0.0,976.9,6.9,24.8,155,110.8,51.0,17.1,469.0,101.0,24.6,3,5,7,1,2026-07-02T10:29:24.564199+05:30
Mathura,Uttar Pradesh,27.4924,77.6737,29.5,77,0.1,982.5,7.3,24.5,118,53.8,28.2,10.3,312.0,117.0,12.3,10,5,7,1,2026-07-02T10:29:24.564205+05:30
Vrindavan,Uttar Pradesh,27.5823,77.7027,29.1,83,0.2,983.0,7.65,21.2,118,53.8,28.2,10.3,320.0,117.0,12.3,10,5,7,1,2026-07-02T10:29:24.564212+05:30
Ayodhya,Uttar Pradesh,26.7922,82.1998,30.9,77,0.0,991.5,6.2,26.6,137,44.6,43.4,6.7,348.0,125.0,9.8,3,5,7,1,2026-07-02T10:29:24.564240+05:30
Ratlam,Madhya Pradesh,23.3315,75.0367,29.4,69,0.0,950.9,7.1,31.7,61,26.5,15.8,3.7,140.0,68.0,7.8,7,5,7,1,2026-07-02T10:29:24.564249+05:30
Sagar,Madhya Pradesh,23.8388,78.7378,24.5,95,0.2,946.6,6.65,29.5,72,34.2,26.3,6.2,186.0,74.0,3.9,6,5,7,1,2026-07-02T10:29:24.564256+05:30
Satna,Madhya Pradesh,24.6005,80.8322,27.2,88,0.0,967.2,7.45,30.6,82,54.6,21.9,2.9,200.0,100.0,1.7,7,5,7,1,2026-07-02T10:29:24.564263+05:30
Akola,Maharashtra,20.7002,77.0082,26.7,86,0.1,972.0,2.0,33.1,35,4.3,3.3,5.5,144.0,48.0,7.2,10,5,3,1,2026-07-02T10:29:24.564270+05:30
Amravati,Maharashtra,20.9374,77.7796,26.5,83,0.1,964.0,1.6,37.8,41,4.2,3.4,6.0,173.0,48.0,8.2,10,5,3,1,2026-07-02T10:29:24.564277+05:30
Latur,Maharashtra,18.4088,76.5604,28.0,67,0.0,937.8,1.35,49.0,19,5.5,3.6,2.9,164.0,50.0,2.2,7,5,3,1,2026-07-02T10:29:24.564284+05:30
Nanded,Maharashtra,19.1383,77.3091,27.7,72,0.0,966.1,1.1,41.8,22,6.8,5.3,6.2,159.0,44.0,3.3,7,5,3,1,2026-07-02T10:29:24.564290+05:30
Gulbarga,Karnataka,17.3297,76.8343,27.6,69,0.0,957.1,2.9,57.6,18,3.6,2.6,3.7,122.0,49.0,2.5,7,5,3,1,2026-07-02T10:29:24.564296+05:30
Bidar,Karnataka,17.9104,77.5199,26.8,70,0.0,933.6,1.55,50.4,18,5.7,4.5,6.5,134.0,42.0,2.2,7,5,3,1,2026-07-02T10:29:24.564302+05:30
Hospet,Karnataka,15.2689,76.3909,26.3,74,0.0,955.5,4.8,60.5,19,2.0,1.7,4.0,127.0,46.0,1.7,7,5,3,1,2026-07-02T10:29:24.564308+05:30
Tirupur,Tamil Nadu,11.1085,77.3411,31.5,52,0.0,975.5,8.4,61.6,36,9.2,7.7,7.0,164.0,50.0,4.1,0,5,7,1,2026-07-02T10:29:24.564314+05:30
Alappuzha,Kerala,9.4981,76.3388,28.2,77,0.0,1011.0,8.35,44.3,50,14.7,10.2,5.1,92.0,56.0,4.2,7,0,4,1,2026-07-02T10:29:24.564320+05:30
Munnar,Kerala,10.0889,77.0595,17.5,94,0.1,857.9,7.8,49.3,21,5.7,3.1,1.4,99.0,50.0,0.9,6,10,7,1,2026-07-02T10:29:24.564327+05:30
Silchar,Assam,24.8333,92.7789,31.2,74,0.0,1000.3,8.7,18.0,74,13.9,13.5,0.8,183.0,105.0,4.8,3,5,4,1,2026-07-02T10:29:24.564333+05:30
Dibrugarh,Assam,27.4728,94.912,32.4,69,0.0,990.1,8.5,19.8,58,9.0,8.7,1.0,162.0,104.0,1.2,3,5,7,1,2026-07-02T10:29:24.564339+05:30
