city,state,latitude,longitude,temp,humidity,rain,pressure,uv_index,wind_gusts,aqi,pm10,pm2_5,no2,co,o3,so2,mosquito_risk,arthritis_risk,migraine_risk,frizz_risk,updated_at
Delhi,Delhi,28.6139,77.209,30.1,78,0.0,976.3,7.65,18.7,111,72.4,55.9,48.3,853.0,44.0,29.4,3,5,7,1,2026-07-04T01:46:32.057018+05:30
Mumbai,Maharashtra,19.076,72.8777,26.5,92,2.0,1003.5,0.35,51.8,42,18.5,8.9,3.1,140.0,57.0,2.4,10,5,0,1,2026-07-04T01:46:32.057071+05:30
Bangalore,Karnataka,12.9716,77.5946,21.2,91,0.1,910.0,5.0,69.5,19,2.1,1.8,6.3,164.0,41.0,2.5,6,5,3,1,2026-07-04T01:46:32.057087+05:30
Hyderabad,Telangana,17.385,78.4867,24.2,89,0.1,947.8,1.0,63.7,21,3.0,2.6,6.4,151.0,38.0,3.2,6,5,3,1,2026-07-04T01:46:32.057097+05:30
Chennai,Tamil Nadu,13.0827,80.2707,27.9,72,0.0,1004.0,5.0,50.4,52,9.4,8.0,14.9,207.0,36.0,7.8,7,5,0,1,2026-07-04T01:46:32.057106+05:30
Kolkata,West Bengal,22.5726,88.3639,27.2,91,0.0,995.8,7.5,54.7,57,15.4,14.5,13.3,207.0,39.0,9.7,7,5,7,1,2026-07-04T01:46:32.057115+05:30
Pune,Maharashtra,18.5204,73.8567,22.6,95,0.0,942.8,0.6,50.8,20,1.5,1.3,4.3,116.0,47.0,2.9,3,5,3,1,2026-07-04T01:46:32.057123+05:30
Ahmedabad,Gujarat,23.0225,72.5714,28.4,83,0.0,995.3,2.25,38.5,66,20.5,11.6,9.9,167.0,41.0,4.7,7,5,3,1,2026-07-04T01:46:32.057135+05:30
Jaipur,Rajasthan,26.9124,75.7873,27.3,90,0.0,953.2,7.95,39.2,100,61.7,36.8,20.4,286.0,47.0,6.9,7,5,7,1,2026-07-04T01:46:32.057143+05:30
Lucknow,Uttar Pradesh,26.8467,80.9462,28.9,85,0.1,985.9,8.2,23.4,74,27.0,26.8,15.8,442.0,78.0,7.8,10,5,7,1,2026-07-04T01:46:32.057178+05:30
Kanpur,Uttar Pradesh,26.4499,80.3319,28.2,91,0.0,983.9,8.2,23.8,72,25.0,24.4,16.8,370.0,78.0,5.5,7,5,7,1,2026-07-04T01:46:32.057190+05:30
Chandigarh,Chandigarh,30.7333,76.7794,28.6,79,0.0,962.7,7.75,23.0,97,75.9,75.7,57.7,862.0,17.0,7.7,7,5,7,1,2026-07-04T01:46:32.057197+05:30
Srinagar,Jammu and Kashmir,34.0837,74.7973,18.8,98,0.0,837.2,9.05,20.5,63,29.3,27.6,31.7,899.0,5.0,1.9,3,10,7,1,2026-07-04T01:46:32.057206+05:30
Jammu,Jammu and Kashmir,32.7266,74.857,28.8,75,0.0,966.1,8.6,30.2,97,68.2,64.5,72.8,550.0,18.0,8.9,7,5,7,1,2026-07-04T01:46:32.057212+05:30
Amritsar,Punjab,31.634,74.8723,29.5,73,0.0,973.9,8.4,40.0,107,42.4,40.5,30.4,577.0,51.0,4.9,7,5,7,1,2026-07-04T01:46:32.057219+05:30
Ludhiana,Punjab,30.901,75.8573,28.7,90,0.0,972.0,7.95,20.2,102,84.8,83.4,57.1,863.0,31.0,14.8,7,5,7,1,2026-07-04T01:46:32.057226+05:30
Jalandhar,Punjab,31.326,75.5762,28.5,86,0.0,973.1,8.2,37.4,100,84.1,82.4,69.9,945.0,11.0,9.0,7,5,7,1,2026-07-04T01:46:32.057232+05:30
Dehradun,Uttarakhand,30.6284,78.0322,18.2,98,0.0,827.4,6.65,27.0,43,19.8,19.7,17.5,292.0,43.0,0.0,3,10,7,1,2026-07-04T01:46:32.057239+05:30
Shimla,Himachal Pradesh,31.1048,77.1734,15.5,97,0.0,781.7,6.85,33.1,42,22.1,21.7,19.7,405.0,56.0,0.0,3,10,7,0,2026-07-04T01:46:32.057247+05:30
Manali,Himachal Pradesh,32.2396,77.1887,16.5,90,0.2,815.7,9.4,33.8,45,5.6,5.3,55.6,263.0,72.0,0.0,6,10,7,0,2026-07-04T01:46:32.057256+05:30
Gurgaon,Haryana,28.4595,77.0266,29.8,78,0.0,974.8,6.6,17.6,128,74.3,55.1,54.3,904.0,38.0,22.7,7,5,7,1,2026-07-04T01:46:32.057263+05:30
Noida,Uttar Pradesh,28.5355,77.391,29.7,78,0.1,977.8,7.7,15.5,128,74.3,55.1,54.3,778.0,38.0,22.7,10,5,7,1,2026-07-04T01:46:32.057270+05:30
Ghaziabad,Uttar Pradesh,28.6692,77.4538,30.0,78,0.1,976.2,7.7,17.3,98,62.4,61.0,37.4,528.0,49.0,12.0,10,5,7,1,2026-07-04T01:46:32.057277+05:30
Faridabad,Haryana,28.4089,77.3178,30.5,76,0.0,977.0,7.15,16.2,128,74.3,55.1,54.3,662.0,38.0,22.7,3,5,7,1,2026-07-04T01:46:32.057286+05:30
Meerut,Uttar Pradesh,28.9845,77.7064,29.6,80,0.0,975.4,7.65,20.9,98,62.4,61.0,37.4,761.0,49.0,12.0,7,5,7,1,2026-07-04T01:46:32.057294+05:30
Agra,Uttar Pradesh,27.1767,78.0081,28.2,88,0.0,980.5,6.85,30.2,100,53.7,47.6,50.3,731.0,26.0,14.8,7,5,7,1,2026-07-04T01:46:32.057301+05:30
Varanasi,Uttar Pradesh,25.3176,82.9739,29.7,76,0.0,989.0,8.65,36.7,96,42.5,42.3,23.7,774.0,52.0,12.3,7,5,7,1,2026-07-04T01:46:32.057308+05:30
Prayagraj,Uttar Pradesh,25.4358,81.8463,27.4,89,0.0,987.7,8.55,28.1,85,31.0,30.7,17.7,319.0,72.0,8.0,7,5,7,1,2026-07-04T01:46:32.057315+05:30
Gorakhpur,Uttar Pradesh,26.7606,83.3732,29.9,78,0.0,989.7,7.7,30.6,83,34.2,34.0,16.5,439.0,76.0,6.7,7,5,7,1,2026-07-04T01:46:32.057322+05:30
Bareilly,Uttar Pradesh,28.367,79.4304,29.7,87,0.4,980.5,8.0,21.6,97,50.3,50.3,37.8,679.0,37.0,7.9,10,5,7,1,2026-07-04T01:46:32.057330+05:30
Aligarh,Uttar Pradesh,27.8974,78.088,29.4,83,0.0,978.6,7.8,20.5,98,59.3,58.0,47.6,661.0,29.0,13.3,7,5,7,1,2026-07-04T01:46:32.057337+05:30
Moradabad,Uttar Pradesh,28.8386,78.7733,29.5,83,0.0,977.4,7.35,22.0,110,80.6,80.3,48.9,992.0,34.0,18.1,7,5,7,1,2026-07-04T01:46:32.057344+05:30
Saharanpur,Uttar Pradesh,29.9637,77.546,28.7,81,0.0,969.9,7.0,18.4,111,111.8,111.1,71.6,619.0,2.0,15.3,7,5,7,1,2026-07-04T01:46:32.057351+05:30
Jhansi,Uttar Pradesh,25.4484,78.5685,26.3,100,0.0,970.4,8.4,40.0,66,17.4,15.9,11.6,252.0,70.0,3.4,7,5,7,1,2026-07-04T01:46:35.638080+05:30
Surat,Gujarat,21.1702,72.8311,27.2,92,0.0,1000.4,0.7,30.2,67,14.6,11.1,19.4,333.0,31.0,30.6,7,5,0,1,2026-07-04T01:46:35.638111+05:30
Vadodara,Gujarat,22.3072,73.1812,27.3,89,0.0,997.7,1.15,31.3,61,13.9,10.0,12.0,191.0,40.0,4.0,7,5,3,1,2026-07-04T01:46:35.638121+05:30
Rajkot,Gujarat,22.3039,70.8022,27.2,87,0.0,988.2,5.1,48.2,54,20.7,10.9,6.6,112.0,40.0,6.3,7,5,3,1,2026-07-04T01:46:35.638129+05:30
Thane,Maharashtra,19.2183,72.9781,25.3,98,1.3,1003.0,0.3,41.8,42,18.5,8.9,3.1,166.0,57.0,2.4,10,5,0,1,2026-07-04T01:46:35.638137+05:30
Nagpur,Maharashtra,21.1458,79.0882,25.2,93,0.0,964.7,7.85,26.3,33,6.7,6.3,9.0,222.0,73.0,6.4,7,5,7,1,2026-07-04T01:46:35.638144+05:30
Nashik,Maharashtra,19.9975,73.7898,22.5,96,0.0,939.8,0.35,37.4,21,3.5,2.5,4.6,121.0,48.0,1.5,3,5,3,1,2026-07-04T01:46:35.638173+05:30
Aurangabad,Maharashtra,19.8762,75.3433,22.7,95,0.1,938.3,0.45,41.0,23,1.7,1.6,5.8,124.0,49.0,4.2,6,5,3,1,2026-07-04T01:46:35.638182+05:30
Solapur,Maharashtra,17.6599,75.9064,23.9,89,0.0,953.1,2.8,68.0,20,2.5,2.3,4.8,125.0,40.0,1.6,3,5,3,1,2026-07-04T01:46:35.638190+05:30
Kolhapur,Maharashtra,16.705,74.2433,22.0,94,0.1,944.8,1.35,56.2,20,2.3,1.9,3.1,105.0,47.0,1.4,6,5,3,1,2026-07-04T01:46:35.638197+05:30
Goa,Goa,15.2993,74.124,23.4,99,0.0,997.3,5.45,37.1,53,21.1,11.4,2.9,274.0,48.0,0.9,3,5,3,1,2026-07-04T01:46:35.638204+05:30
Jodhpur,Rajasthan,26.2389,73.0243,28.4,82,0.1,975.9,7.25,27.0,129,165.3,56.9,7.4,153.0,57.0,2.7,10,5,7,1,2026-07-04T01:46:35.638212+05:30
Udaipur,Rajasthan,24.5854,73.7125,24.5,97,0.6,939.8,3.7,32.0,74,32.1,19.2,7.8,120.0,59.0,4.9,6,5,3,1,2026-07-04T01:46:35.638219+05:30
Kota,Rajasthan,25.2138,75.8648,25.7,93,0.0,971.7,7.45,31.7,85,53.1,26.4,8.5,223.0,69.0,2.5,7,5,7,1,2026-07-04T01:46:35.638226+05:30
Bikaner,Rajasthan,28.0229,73.3119,31.3,56,0.0,973.3,8.45,32.4,112,92.0,46.2,4.6,162.0,89.0,5.9,0,5,7,1,2026-07-04T01:46:35.638233+05:30
Ajmer,Rajasthan,26.4499,74.6399,27.5,86,0.2,948.1,8.2,32.8,99,149.9,55.6,9.8,149.0,60.0,4.0,10,5,7,1,2026-07-04T01:46:35.638240+05:30
Gwalior,Madhya Pradesh,26.2183,78.1828,27.0,96,0.0,975.8,7.5,24.1,78,21.6,18.1,11.8,287.0,67.0,3.9,7,5,7,1,2026-07-04T01:46:35.638247+05:30
Indore,Madhya Pradesh,22.7196,75.8577,24.4,94,0.1,941.2,6.55,41.4,53,26.5,16.9,8.8,235.0,56.0,4.8,6,5,7,1,2026-07-04T01:46:35.638254+05:30
Bhopal,Madhya Pradesh,23.2599,77.4126,24.5,94,0.1,946.5,8.6,31.7,63,24.6,18.2,9.1,296.0,65.0,3.5,6,5,7,1,2026-07-04T01:46:35.638261+05:30
Jabalpur,Madhya Pradesh,23.1815,79.9864,24.0,100,0.0,953.1,8.25,33.5,46,12.5,12.3,7.9,286.0,78.0,2.8,3,5,7,1,2026-07-04T01:46:35.638267+05:30
Ujjain,Madhya Pradesh,23.1765,75.7885,24.8,92,0.3,946.9,7.85,39.2,57,25.6,16.4,7.9,228.0,57.0,6.5,6,5,7,1,2026-07-04T01:46:35.638275+05:30
Visakhapatnam,Andhra Pradesh,17.6868,83.2185,25.2,95,0.6,995.0,6.35,60.5,48,9.8,8.4,14.1,228.0,41.0,20.2,10,5,7,1,2026-07-04T01:46:35.638282+05:30
Vijayawada,Andhra Pradesh,16.5062,80.648,27.8,80,0.1,997.0,1.45,65.2,37,11.7,9.4,9.4,153.0,45.0,6.4,10,5,3,1,2026-07-04T01:46:35.638289+05:30
Guntur,Andhra Pradesh,16.3067,80.4365,27.8,83,0.1,998.4,2.05,56.2,33,7.9,6.3,8.7,147.0,43.0,6.4,10,5,3,1,2026-07-04T01:46:35.638297+05:30
Nellore,Andhra Pradesh,14.4426,79.9865,30.4,58,0.0,1001.9,1.35,58.3,37,8.4,5.6,6.1,129.0,45.0,3.1,0,5,0,1,2026-07-04T01:46:35.638305+05:30
Kurnool,Andhra Pradesh,15.8281,78.0373,25.8,76,0.0,973.3,1.2,70.6,24,6.1,4.1,6.9,123.0,37.0,1.7,7,5,3,1,2026-07-04T01:46:35.638313+05:30
Kakinada,Andhra Pradesh,16.9891,82.2475,26.7,82,0.0,1000.2,1.6,69.5,44,13.4,9.5,6.3,182.0,61.0,5.1,7,5,0,1,2026-07-04T01:46:35.638320+05:30
Tirupati,Andhra Pradesh,13.6288,79.4192,28.2,63,0.0,988.1,3.25,47.5,37,4.9,3.9,7.3,137.0,40.0,1.9,7,5,3,1,2026-07-04T01:46:35.638326+05:30
Warangal,Telangana,17.9689,79.5941,25.6,86,0.1,972.3,3.6,58.7,23,4.5,4.2,7.1,146.0,38.0,2.5,10,5,3,1,2026-07-04T01:46:35.638333+05:30
Nizamabad,Telangana,18.6725,78.0941,23.7,95,0.6,958.7,0.95,55.4,22,3.4,3.1,7.2,136.0,40.0,4.4,6,5,3,1,2026-07-04T01:46:35.638339+05:30
Mysore,Karnataka,12.2958,76.6396,21.7,93,0.1,927.6,6.1,67.7,21,1.5,1.3,3.7,112.0,45.0,1.2,6,5,7,1,2026-07-04T01:46:35.638346+05:30
Mangalore,Karnataka,12.9141,74.856,25.4,95,0.8,1007.8,7.9,52.9,38,15.7,8.2,1.9,95.0,48.0,0.8,10,5,4,1,2026-07-04T01:46:35.638353+05:30
Hubli-Dharwad,Karnataka,15.3647,75.124,21.7,94,0.0,938.8,1.65,59.4,20,1.8,1.3,3.6,102.0,43.0,1.1,3,5,3,1,2026-07-04T01:46:35.638360+05:30
Belgaum,Karnataka,15.8497,74.4977,20.8,95,0.0,923.2,1.35,62.3,21,1.7,1.5,3.1,95.0,45.0,1.2,3,5,3,1,2026-07-04T01:46:39.029618+05:30
Coimbatore,Tamil Nadu,11.0168,76.9558,23.0,96,0.0,961.1,7.4,60.5,20,2.3,2.0,4.1,136.0,43.0,1.8,3,5,7,1,2026-07-04T01:46:39.029651+05:30
Madurai,Tamil Nadu,9.9252,78.1198,28.5,61,0.0,992.4,7.75,58.7,27,7.1,6.0,9.9,126.0,35.0,3.7,7,5,7,1,2026-07-04T01:46:39.029662+05:30
Trichy,Tamil Nadu,10.7905,78.7047,28.7,63,0.0,998.8,8.5,67.3,22,5.1,4.4,6.1,104.0,39.0,2.4,7,5,7,1,2026-07-04T01:46:39.029671+05:30
Salem,Tamil Nadu,11.6643,78.146,24.6,93,0.2,976.9,8.55,40.3,40,13.6,11.9,20.2,295.0,22.0,6.2,6,5,7,1,2026-07-04T01:46:39.029679+05:30
Tirunelveli,Tamil Nadu,8.7139,77.7567,28.0,69,0.0,1003.5,6.5,50.4,23,4.7,3.4,5.4,140.0,34.0,1.6,7,5,4,1,2026-07-04T01:46:39.029695+05:30
Vellore,Tamil Nadu,12.9165,79.1325,28.1,65,0.1,982.0,2.2,52.9,28,3.9,3.2,7.6,130.0,40.0,2.9,10,5,3,1,2026-07-04T01:46:39.029703+05:30
Erode,Tamil Nadu,11.341,77.7172,24.9,84,0.0,988.9,8.65,56.9,28,8.8,7.7,12.7,150.0,32.0,3.4,3,5,7,1,2026-07-04T01:46:39.029711+05:30
Kochi,Kerala,9.9312,76.2673,25.5,91,0.6,1011.1,5.9,42.1,40,13.5,8.8,9.1,94.0,31.0,2.8,10,0,0,1,2026-07-04T01:46:39.029718+05:30
Thiruvananthapuram,Kerala,8.5241,76.9366,23.9,97,0.1,1010.1,3.95,47.9,32,13.9,6.8,1.9,99.0,49.0,0.7,6,0,0,1,2026-07-04T01:46:39.029725+05:30
Kozhikode,Kerala,11.2588,75.7804,25.1,95,0.0,1009.9,7.5,33.1,32,19.5,8.8,0.7,103.0,55.0,0.4,7,0,4,1,2026-07-04T01:46:39.029733+05:30
Thrissur,Kerala,10.5276,76.2144,24.6,95,0.0,1009.3,8.3,46.4,35,14.5,9.1,5.4,112.0,38.0,1.7,3,0,4,1,2026-07-04T01:46:39.029740+05:30
Kannur,Kerala,11.8745,75.3704,25.3,96,0.7,1008.8,6.55,52.6,32,16.5,8.8,2.6,94.0,46.0,0.7,10,0,4,1,2026-07-04T01:46:39.029748+05:30
Patna,Bihar,25.5941,85.1376,29.5,80,0.0,992.3,8.5,36.7,79,21.3,20.7,14.7,282.0,72.0,12.3,7,5,7,1,2026-07-04T01:46:39.029755+05:30
Gaya,Bihar,24.7914,85.0002,28.6,80,0.0,985.6,8.55,36.7,69,23.7,23.5,15.2,283.0,59.0,14.4,7,5,7,1,2026-07-04T01:46:39.029762+05:30
Muzaffarpur,Bihar,26.1209,85.3647,29.8,78,0.0,992.8,7.5,34.6,80,25.6,24.9,15.5,412.0,68.0,11.4,7,5,7,1,2026-07-04T01:46:39.029769+05:30
Bhagalpur,Bihar,25.2425,87.0117,28.9,84,0.0,993.7,8.5,36.0,69,17.0,16.9,15.4,296.0,63.0,11.2,7,5,7,1,2026-07-04T01:46:39.029776+05:30
Ranchi,Jharkhand,23.3441,85.3096,23.5,96,0.0,929.8,6.75,49.3,63,18.2,18.2,13.0,199.0,61.0,14.6,3,5,7,1,2026-07-04T01:46:39.029783+05:30
Jamshedpur,Jharkhand,22.8046,86.2029,25.9,93,0.0,981.9,6.05,45.7,58,19.2,18.2,14.1,238.0,40.0,10.4,7,5,7,1,2026-07-04T01:46:39.029790+05:30
Dhanbad,Jharkhand,23.7957,86.4304,25.5,99,0.0,971.8,7.45,55.8,99,46.0,45.2,45.2,392.0,25.0,107.4,7,5,7,1,2026-07-04T01:46:39.029797+05:30
Bokaro,Jharkhand,23.6693,86.1511,25.4,98,0.0,975.4,7.55,51.5,112,53.4,53.0,51.3,485.0,20.0,120.9,7,5,7,1,2026-07-04T01:46:39.029804+05:30
Bhubaneswar,Odisha,20.2961,85.8245,25.7,97,0.1,991.0,5.45,29.5,65,21.0,21.0,14.4,346.0,65.0,10.7,10,5,3,1,2026-07-04T01:46:39.029811+05:30
Cuttack,Odisha,20.4625,85.8828,26.1,97,0.0,992.8,3.35,32.4,65,21.0,21.0,14.4,270.0,65.0,10.7,7,5,3,1,2026-07-04T01:46:39.029818+05:30
Rourkela,Odisha,22.2604,84.8536,25.8,96,0.1,975.6,7.35,48.2,74,27.5,27.4,19.8,313.0,61.0,27.9,10,5,7,1,2026-07-04T01:46:39.029825+05:30
Raipur,Chhattisgarh,21.2514,81.6296,24.5,97,0.0,965.8,7.25,23.0,70,17.0,16.8,28.0,496.0,49.0,43.9,3,5,7,1,2026-07-04T01:46:39.029832+05:30
Bhilai,Chhattisgarh,21.1938,81.3509,24.5,97,0.0,966.4,8.25,27.0,61,14.0,13.8,22.6,690.0,56.0,34.8,3,5,7,1,2026-07-04T01:46:39.029839+05:30
Guwahati,Assam,26.1158,91.7086,26.0,100,0.0,994.4,8.7,31.0,40,3.6,3.5,6.6,227.0,50.0,0.8,7,5,7,1,2026-07-04T01:46:39.029846+05:30
Agartala,Tripura,23.8315,91.2868,26.4,97,0.5,998.6,8.25,38.2,49,17.9,17.4,15.9,205.0,26.0,2.8,10,5,7,1,2026-07-04T01:46:39.029853+05:30
Shillong,Meghalaya,25.5788,91.8933,19.4,95,0.0,852.5,8.6,34.2,32,2.5,2.5,3.7,244.0,67.0,0.9,3,10,7,1,2026-07-04T01:46:39.029860+05:30
Imphal,Manipur,24.817,93.9368,22.2,100,0.5,918.5,7.55,30.6,39,10.8,10.7,10.6,228.0,29.0,1.9,6,5,7,1,2026-07-04T01:46:39.029867+05:30
Aizawl,Mizoram,23.7271,92.7176,20.6,100,0.0,886.2,8.1,24.8,23,1.5,1.5,6.7,174.0,19.0,0.4,3,5,7,1,2026-07-04T01:46:39.029874+05:30
Kohima,Nagaland,25.6701,94.1077,19.1,92,0.0,850.5,9.0,28.4,23,6.7,6.7,10.0,167.0,21.0,0.7,3,10,7,1,2026-07-04T01:46:39.029880+05:30
Gangtok,Sikkim,27.3314,88.6138,19.5,92,0.1,833.8,9.15,28.8,40,6.1,5.9,5.4,288.0,92.0,1.3,6,10,7,1,2026-07-04T01:46:39.029887+05:30
Siliguri,West Bengal,26.7271,88.3953,26.9,97,0.0,986.0,8.7,30.6,80,32.6,31.8,17.7,275.0,73.0,5.7,7,5,7,1,2026-07-04T01:46:42.415490+05:30
Durgapur,West Bengal,23.5204,87.3119,26.9,95,0.0,986.3,5.25,55.8,87,39.5,38.4,33.4,535.0,27.0,30.6,7,5,3,1,2026-07-04T01:46:42.415523+05:30
Asansol,West Bengal,23.6739,86.9524,26.6,97,0.0,985.2,6.8,53.6,84,35.0,34.0,37.9,460.0,27.0,41.8,7,5,7,1,2026-07-04T01:46:42.415534+05:30
Pondicherry,Puducherry,11.9139,79.8145,26.5,83,0.0,1006.4,7.1,41.0,51,13.1,11.1,13.9,290.0,46.0,7.3,7,5,4,1,2026-07-04T01:46:42.415544+05:30
Port Blair,Andaman and Nicobar Islands,11.6234,92.7265,24.9,100,0.5,1005.2,6.8,55.4,42,16.8,8.9,0.2,93.0,59.0,0.5,6,5,4,1,2026-07-04T01:46:42.415552+05:30
Haridwar,Uttarakhand,29.9457,78.1642,28.0,90,0.0,968.1,7.5,27.4,88,64.5,64.0,46.4,469.0,13.0,8.6,7,5,7,1,2026-07-04T01:46:42.415560+05:30
Rishikesh,Uttarakhand,30.0869,78.2676,26.4,95,0.0,960.9,6.85,25.2,67,32.5,32.1,24.6,469.0,54.0,5.7,7,5,7,1,2026-07-04T01:46:42.415568+05:30
Nainital,Uttarakhand,29.3919,79.4542,16.0,100,0.0,802.4,6.95,27.0,73,23.8,23.7,21.3,374.0,41.0,2.8,3,10,7,1,2026-07-04T01:46:42.415576+05:30
Mussoorie,Uttarakhand,30.4599,78.0664,16.8,100,0.0,800.2,6.1,33.5,65,35.6,35.6,33.9,361.0,23.0,4.6,3,10,7,1,2026-07-04T01:46:42.415584+05:30
Dharamshala,Himachal Pradesh,32.219,76.3234,22.7,86,0.0,866.1,8.45,31.7,35,11.2,10.9,20.5,388.0,29.0,0.1,3,5,7,1,2026-07-04T01:46:42.415592+05:30
Dalhousie,Himachal Pradesh,32.5387,75.971,16.2,97,0.4,801.0,8.5,32.8,54,30.4,29.9,42.1,464.0,15.0,1.2,6,10,7,0,2026-07-04T01:46:42.415600+05:30
Patiala,Punjab,30.3398,76.3869,29.3,86,0.0,971.9,7.55,26.3,92,80.3,77.1,38.4,642.0,42.0,9.3,7,5,7,1,2026-07-04T01:46:42.415607+05:30
Bhatinda,Punjab,30.211,74.9455,30.5,72,0.0,976.6,8.25,24.8,117,36.4,34.8,25.4,470.0,62.0,7.6,3,5,7,1,2026-07-04T01:46:42.415614+05:30
Rohtak,Haryana,28.8955,76.6066,30.0,77,0.0,975.0,6.8,22.3,144,108.5,73.6,59.2,628.0,34.0,29.1,7,5,7,1,2026-07-04T01:46:42.415622+05:30
Panipat,Haryana,29.3909,76.9635,29.4,83,0.0,973.9,6.85,16.2,181,390.2,93.1,37.2,641.0,45.0,14.0,7,5,7,1,2026-07-04T01:46:42.415628+05:30
Mathura,Uttar Pradesh,27.4924,77.6737,29.2,81,0.0,979.7,7.15,19.4,112,55.1,45.2,51.4,582.0,31.0,11.0,7,5,7,1,2026-07-04T01:46:42.415635+05:30
Vrindavan,Uttar Pradesh,27.5823,77.7027,29.4,78,0.0,980.3,7.1,18.7,112,55.1,45.2,51.4,526.0,31.0,11.0,7,5,7,1,2026-07-04T01:46:42.415642+05:30
Ayodhya,Uttar Pradesh,26.7922,82.1998,29.9,78,0.0,987.7,7.9,25.6,86,26.8,26.7,14.2,450.0,86.0,6.3,7,5,7,1,2026-07-04T01:46:42.415649+05:30
Ratlam,Madhya Pradesh,23.3315,75.0367,24.1,98,0.5,948.1,5.2,33.1,57,23.2,15.5,9.0,192.0,53.0,8.3,6,5,3,1,2026-07-04T01:46:42.415656+05:30
Sagar,Madhya Pradesh,23.8388,78.7378,23.7,98,0.4,942.4,8.0,29.9,46,13.5,13.2,7.9,243.0,76.0,1.9,6,5,7,1,2026-07-04T01:46:42.415663+05:30
Satna,Madhya Pradesh,24.6005,80.8322,25.6,97,0.1,963.9,6.95,42.5,60,21.8,21.7,9.5,283.0,86.0,4.7,10,5,7,1,2026-07-04T01:46:42.415670+05:30
Akola,Maharashtra,20.7002,77.0082,24.6,97,0.3,968.3,1.25,39.6,34,4.5,4.1,9.1,152.0,50.0,6.2,6,5,3,1,2026-07-04T01:46:42.415677+05:30
Amravati,Maharashtra,20.9374,77.7796,24.2,97,0.7,960.0,7.65,44.6,34,4.5,4.2,9.8,158.0,53.0,7.1,6,5,7,1,2026-07-04T01:46:42.415685+05:30
Latur,Maharashtra,18.4088,76.5604,23.2,93,0.1,934.6,0.9,58.3,21,2.3,2.1,5.4,122.0,41.0,2.5,6,5,3,1,2026-07-04T01:46:42.415693+05:30
Nanded,Maharashtra,19.1383,77.3091,24.5,90,0.7,962.7,0.4,37.4,23,2.7,2.5,6.7,139.0,43.0,3.5,6,5,3,1,2026-07-04T01:46:42.415699+05:30
Gulbarga,Karnataka,17.3297,76.8343,23.5,90,0.1,954.4,1.1,56.9,20,2.5,2.2,5.6,121.0,39.0,2.3,6,5,3,1,2026-07-04T01:46:42.415706+05:30
Bidar,Karnataka,17.9104,77.5199,22.8,96,0.2,930.0,0.65,59.0,21,2.5,2.3,5.7,131.0,39.0,1.9,6,5,3,1,2026-07-04T01:46:42.415713+05:30
Hospet,Karnataka,15.2689,76.3909,23.5,87,0.0,953.5,2.15,65.9,21,2.2,1.9,4.9,109.0,40.0,1.5,3,5,3,1,2026-07-04T01:46:42.415719+05:30
Tirupur,Tamil Nadu,11.1085,77.3411,23.5,93,0.0,974.8,8.7,71.3,32,10.0,8.9,14.4,131.0,30.0,4.0,3,5,7,1,2026-07-04T01:46:42.415725+05:30
Alappuzha,Kerala,9.4981,76.3388,25.3,97,0.5,1011.1,5.6,46.1,41,16.9,8.9,4.4,84.0,43.0,1.6,10,0,0,1,2026-07-04T01:46:42.415732+05:30
Munnar,Kerala,10.0889,77.0595,16.7,99,0.5,856.9,6.25,58.7,17,1.6,1.5,6.5,89.0,29.0,1.7,6,10,7,1,2026-07-04T01:46:42.415739+05:30
Silchar,Assam,24.8333,92.7789,26.3,100,0.0,998.2,8.5,32.8,58,18.9,18.7,9.4,187.0,43.0,4.5,7,5,7,1,2026-07-04T01:46:42.415747+05:30
Dibrugarh,Assam,27.4728,94.912,28.6,79,0.0,988.6,8.9,25.6,57,16.7,15.9,14.7,291.0,34.0,1.2,7,5,7,1,2026-07-04T01:46:42.415754+05:30
