city,state,latitude,longitude,temp,humidity,rain,pressure,uv_index,aqi,mosquito_risk,arthritis_risk,migraine_risk,frizz_risk,updated_at
Delhi,Delhi,28.6139,77.209,21.3,52,0.0,983.8,5.65,163,0,5,3,0,2026-02-28T22:00:49.613296+05:30
Mumbai,Maharashtra,19.076,72.8777,26.4,66,0.0,1009.5,7.4,70,7,0,4,1,2026-02-28T22:00:49.613330+05:30
Bangalore,Karnataka,12.9716,77.5946,23.4,52,0.0,910.9,9.0,123,0,5,7,0,2026-02-28T22:00:49.613344+05:30
Hyderabad,Telangana,17.385,78.4867,25.1,67,0.0,953.0,8.2,109,7,5,7,1,2026-02-28T22:00:49.613354+05:30
Chennai,Tamil Nadu,13.0827,80.2707,25.7,80,0.0,1008.2,8.7,137,7,0,4,1,2026-02-28T22:00:49.613361+05:30
Kolkata,West Bengal,22.5726,88.3639,22.7,92,0.0,1006.1,7.5,142,3,5,4,1,2026-02-28T22:00:49.613369+05:30
Pune,Maharashtra,18.5204,73.8567,21.2,80,0.0,948.2,7.9,106,3,5,7,1,2026-02-28T22:00:49.613375+05:30
Ahmedabad,Gujarat,23.0225,72.5714,24.7,49,0.0,1002.9,7.15,66,0,5,4,0,2026-02-28T22:00:49.613382+05:30
Jaipur,Rajasthan,26.9124,75.7873,23.6,38,0.0,959.8,6.45,75,0,5,7,0,2026-02-28T22:00:49.613394+05:30
Lucknow,Uttar Pradesh,26.8467,80.9462,23.0,52,0.0,993.7,6.1,151,0,5,7,0,2026-02-28T22:00:49.613401+05:30
Kanpur,Uttar Pradesh,26.4499,80.3319,21.9,58,0.0,992.0,6.1,145,0,5,7,0,2026-02-28T22:00:49.613407+05:30
Chandigarh,Chandigarh,30.7333,76.7794,18.0,69,0.0,969.3,5.5,96,3,5,3,0,2026-02-28T22:00:49.613414+05:30
Srinagar,Jammu and Kashmir,34.0837,74.7973,6.3,76,0.0,836.9,6.4,106,3,5,7,0,2026-02-28T22:00:49.613420+05:30
Jammu,Jammu and Kashmir,32.7266,74.857,19.8,61,0.0,973.0,6.1,94,3,5,7,0,2026-02-28T22:00:49.613426+05:30
Amritsar,Punjab,31.634,74.8723,18.1,71,0.0,981.6,6.1,157,3,5,7,0,2026-02-28T22:00:49.613432+05:30
Ludhiana,Punjab,30.901,75.8573,20.0,70,0.0,979.9,5.75,162,3,5,3,0,2026-02-28T22:00:49.613438+05:30
Jalandhar,Punjab,31.326,75.5762,19.9,66,0.0,980.9,5.95,151,3,5,3,0,2026-02-28T22:00:49.613445+05:30
Dehradun,Uttarakhand,30.6284,78.0322,9.9,74,0.0,826.8,5.85,89,3,5,3,0,2026-02-28T22:00:49.613451+05:30
Shimla,Himachal Pradesh,31.1048,77.1734,8.3,58,0.0,780.7,5.9,80,0,5,3,0,2026-02-28T22:00:49.613459+05:30
Manali,Himachal Pradesh,32.2396,77.1887,10.3,81,0.0,816.4,7.55,109,3,10,7,0,2026-02-28T22:00:49.613466+05:30
Gurgaon,Haryana,28.4595,77.0266,17.2,66,0.0,982.0,5.75,164,3,5,3,0,2026-02-28T22:00:49.613472+05:30
Noida,Uttar Pradesh,28.5355,77.391,21.1,53,0.0,985.3,5.65,164,0,5,3,0,2026-02-28T22:00:49.613479+05:30
Ghaziabad,Uttar Pradesh,28.6692,77.4538,20.3,55,0.0,983.3,5.6,160,0,5,3,0,2026-02-28T22:00:49.613485+05:30
Faridabad,Haryana,28.4089,77.3178,19.4,57,0.0,984.4,5.65,164,0,5,3,0,2026-02-28T22:00:49.613491+05:30
Meerut,Uttar Pradesh,28.9845,77.7064,18.5,64,0.0,982.0,5.45,160,3,5,3,0,2026-02-28T22:00:49.613497+05:30
Agra,Uttar Pradesh,27.1767,78.0081,21.7,68,0.0,988.2,5.95,140,3,5,3,0,2026-02-28T22:00:49.613503+05:30
Varanasi,Uttar Pradesh,25.3176,82.9739,22.0,62,0.0,997.8,6.8,106,3,5,7,0,2026-02-28T22:00:49.613510+05:30
Prayagraj,Uttar Pradesh,25.4358,81.8463,22.3,61,0.0,996.3,6.65,128,3,5,7,0,2026-02-28T22:00:49.613517+05:30
Gorakhpur,Uttar Pradesh,26.7606,83.3732,19.5,67,0.0,996.8,6.5,129,3,5,7,0,2026-02-28T22:00:49.613526+05:30
Bareilly,Uttar Pradesh,28.367,79.4304,18.8,68,0.0,987.2,5.75,152,3,5,3,0,2026-02-28T22:00:49.613532+05:30
Aligarh,Uttar Pradesh,27.8974,78.088,18.8,67,0.0,986.0,5.7,157,3,5,3,0,2026-02-28T22:00:49.613538+05:30
Moradabad,Uttar Pradesh,28.8386,78.7733,18.2,66,0.0,984.1,5.6,154,3,5,3,0,2026-02-28T22:00:49.613544+05:30
Saharanpur,Uttar Pradesh,29.9637,77.546,18.1,73,0.0,976.0,5.25,150,3,5,3,0,2026-02-28T22:00:49.613550+05:30
Jhansi,Uttar Pradesh,25.4484,78.5685,21.7,52,0.0,978.0,6.6,95,0,5,7,0,2026-02-28T22:00:52.854689+05:30
Surat,Gujarat,21.1702,72.8311,23.7,83,0.0,1007.8,7.1,89,3,5,4,1,2026-02-28T22:00:52.854718+05:30
Vadodara,Gujarat,22.3072,73.1812,25.5,57,0.0,1005.3,7.15,95,4,5,4,1,2026-02-28T22:00:52.854729+05:30
Rajkot,Gujarat,22.3039,70.8022,24.0,42,0.0,995.4,7.1,99,0,5,7,0,2026-02-28T22:00:52.854737+05:30
Thane,Maharashtra,19.2183,72.9781,24.4,74,0.0,1009.0,7.4,70,3,0,4,1,2026-02-28T22:00:52.854745+05:30
Nagpur,Maharashtra,21.1458,79.0882,25.2,64,0.0,972.6,7.55,154,7,5,7,1,2026-02-28T22:00:52.854753+05:30
Nashik,Maharashtra,19.9975,73.7898,20.6,69,0.0,945.6,7.55,60,3,5,7,0,2026-02-28T22:00:52.854760+05:30
Aurangabad,Maharashtra,19.8762,75.3433,23.4,53,0.0,943.5,7.9,82,0,5,7,0,2026-02-28T22:00:52.854767+05:30
Solapur,Maharashtra,17.6599,75.9064,25.1,59,0.0,955.8,8.15,92,4,5,7,1,2026-02-28T22:00:52.854774+05:30
Kolhapur,Maharashtra,16.705,74.2433,19.7,60,0.0,947.3,8.35,78,0,5,7,0,2026-02-28T22:00:52.854781+05:30
Goa,Goa,15.2993,74.124,25.4,74,0.0,998.1,8.35,47,7,5,7,1,2026-02-28T22:00:52.854789+05:30
Jodhpur,Rajasthan,26.2389,73.0243,24.7,46,0.0,982.8,6.7,70,0,5,7,0,2026-02-28T22:00:52.854796+05:30
Udaipur,Rajasthan,24.5854,73.7125,20.7,53,0.0,946.5,7.4,72,0,5,7,0,2026-02-28T22:00:52.854803+05:30
Kota,Rajasthan,25.2138,75.8648,21.5,61,0.0,978.7,6.8,75,3,5,7,0,2026-02-28T22:00:52.854809+05:30
Bikaner,Rajasthan,28.0229,73.3119,24.8,37,0.0,982.0,6.4,75,0,5,7,0,2026-02-28T22:00:52.854816+05:30
Ajmer,Rajasthan,26.4499,74.6399,24.1,37,0.0,954.1,6.7,57,0,5,7,0,2026-02-28T22:00:52.854823+05:30
Gwalior,Madhya Pradesh,26.2183,78.1828,19.7,60,0.0,983.2,6.3,78,0,5,7,0,2026-02-28T22:00:52.854830+05:30
Indore,Madhya Pradesh,22.7196,75.8577,19.6,71,0.0,947.9,7.3,62,3,5,7,0,2026-02-28T22:00:52.854836+05:30
Bhopal,Madhya Pradesh,23.2599,77.4126,22.3,64,0.0,953.4,7.15,99,3,5,7,0,2026-02-28T22:00:52.854843+05:30
Jabalpur,Madhya Pradesh,23.1815,79.9864,25.5,48,0.0,961.4,7.2,129,4,5,7,0,2026-02-28T22:00:52.854850+05:30
Ujjain,Madhya Pradesh,23.1765,75.7885,19.4,69,0.0,953.7,7.2,67,3,5,7,0,2026-02-28T22:00:52.854858+05:30
Visakhapatnam,Andhra Pradesh,17.6868,83.2185,25.6,82,0.0,1005.2,8.2,86,7,5,4,1,2026-02-28T22:00:52.854865+05:30
Vijayawada,Andhra Pradesh,16.5062,80.648,25.3,79,0.0,1003.6,8.3,117,7,5,4,1,2026-02-28T22:00:52.854871+05:30
Guntur,Andhra Pradesh,16.3067,80.4365,25.0,84,0.0,1004.8,8.3,110,7,5,4,1,2026-02-28T22:00:52.854878+05:30
Nellore,Andhra Pradesh,14.4426,79.9865,25.0,86,0.0,1006.9,8.55,143,7,5,4,1,2026-02-28T22:00:52.854886+05:30
Kurnool,Andhra Pradesh,15.8281,78.0373,28.4,43,0.0,976.0,8.3,111,4,5,7,0,2026-02-28T22:00:52.854893+05:30
Kakinada,Andhra Pradesh,16.9891,82.2475,24.6,86,0.0,1009.0,8.25,96,3,0,4,1,2026-02-28T22:00:52.854900+05:30
Tirupati,Andhra Pradesh,13.6288,79.4192,25.1,62,0.0,992.6,8.7,122,7,5,7,1,2026-02-28T22:00:52.854906+05:30
Warangal,Telangana,17.9689,79.5941,26.6,66,0.0,978.5,8.0,130,7,5,7,1,2026-02-28T22:00:52.854913+05:30
Nizamabad,Telangana,18.6725,78.0941,25.7,59,0.0,964.2,7.9,110,4,5,7,1,2026-02-28T22:00:52.854919+05:30
Mysore,Karnataka,12.2958,76.6396,23.0,78,0.0,928.1,9.05,128,3,5,7,1,2026-02-28T22:00:52.854926+05:30
Mangalore,Karnataka,12.9141,74.856,28.3,75,0.0,1006.8,8.6,49,7,5,4,1,2026-02-28T22:00:52.854932+05:30
Hubli-Dharwad,Karnataka,15.3647,75.124,22.4,55,0.0,939.7,8.5,113,0,5,7,0,2026-02-28T22:00:52.854940+05:30
Belgaum,Karnataka,15.8497,74.4977,20.0,59,0.0,924.7,8.6,73,0,5,7,0,2026-02-28T22:00:56.096121+05:30
Coimbatore,Tamil Nadu,11.0168,76.9558,24.2,74,0.0,961.5,9.0,136,3,5,7,1,2026-02-28T22:00:56.096148+05:30
Madurai,Tamil Nadu,9.9252,78.1198,26.1,76,0.0,993.8,9.0,145,7,5,7,1,2026-02-28T22:00:56.096156+05:30
Trichy,Tamil Nadu,10.7905,78.7047,25.7,73,0.0,1000.1,8.9,142,7,5,4,1,2026-02-28T22:00:56.096164+05:30
Salem,Tamil Nadu,11.6643,78.146,28.0,51,0.0,977.0,8.9,120,4,5,7,1,2026-02-28T22:00:56.096170+05:30
Tirunelveli,Tamil Nadu,8.7139,77.7567,26.0,81,0.0,1003.8,9.0,146,7,5,4,1,2026-02-28T22:00:56.096176+05:30
Vellore,Tamil Nadu,12.9165,79.1325,25.2,68,0.0,985.3,8.8,134,7,5,7,1,2026-02-28T22:00:56.096183+05:30
Erode,Tamil Nadu,11.341,77.7172,27.9,51,0.0,988.7,8.9,113,4,5,7,1,2026-02-28T22:00:56.096189+05:30
Kochi,Kerala,9.9312,76.2673,27.8,80,0.0,1008.7,8.7,119,7,0,4,1,2026-02-28T22:00:56.096195+05:30
Thiruvananthapuram,Kerala,8.5241,76.9366,27.1,81,0.0,1008.5,8.8,163,7,0,4,1,2026-02-28T22:00:56.096201+05:30
Kozhikode,Kerala,11.2588,75.7804,28.8,73,0.0,1007.7,8.7,71,7,5,4,1,2026-02-28T22:00:56.096207+05:30
Thrissur,Kerala,10.5276,76.2144,27.2,77,0.0,1006.8,8.8,119,7,5,4,1,2026-02-28T22:00:56.096214+05:30
Kannur,Kerala,11.8745,75.3704,28.0,73,0.0,1007.1,8.7,55,7,5,4,1,2026-02-28T22:00:56.096220+05:30
Patna,Bihar,25.5941,85.1376,22.6,62,0.0,1000.1,6.95,126,3,5,4,0,2026-02-28T22:00:56.096226+05:30
Gaya,Bihar,24.7914,85.0002,23.3,54,0.0,993.9,7.05,79,0,5,7,0,2026-02-28T22:00:56.096232+05:30
Muzaffarpur,Bihar,26.1209,85.3647,21.1,64,0.0,1000.0,6.9,144,3,5,4,0,2026-02-28T22:00:56.096238+05:30
Bhagalpur,Bihar,25.2425,87.0117,22.3,54,0.0,1000.9,7.0,109,0,5,4,0,2026-02-28T22:00:56.096243+05:30
Ranchi,Jharkhand,23.3441,85.3096,22.5,36,0.0,937.4,7.65,76,0,5,7,0,2026-02-28T22:00:56.096249+05:30
Jamshedpur,Jharkhand,22.8046,86.2029,23.9,57,0.0,990.4,7.6,110,0,5,7,0,2026-02-28T22:00:56.096255+05:30
Dhanbad,Jharkhand,23.7957,86.4304,22.9,37,0.0,979.5,7.4,114,0,5,7,0,2026-02-28T22:00:56.096261+05:30
Bokaro,Jharkhand,23.6693,86.1511,22.7,38,0.0,983.8,7.45,108,0,5,7,0,2026-02-28T22:00:56.096267+05:30
Bhubaneswar,Odisha,20.2961,85.8245,24.8,90,0.0,1003.3,7.9,126,3,5,4,1,2026-02-28T22:00:56.096273+05:30
Cuttack,Odisha,20.4625,85.8828,24.9,89,0.0,1005.1,7.95,126,3,5,4,1,2026-02-28T22:00:56.096279+05:30
Rourkela,Odisha,22.2604,84.8536,23.4,49,0.0,984.4,7.5,83,0,5,7,0,2026-02-28T22:00:56.096284+05:30
Raipur,Chhattisgarh,21.2514,81.6296,26.9,43,0.0,974.2,7.65,153,4,5,7,0,2026-02-28T22:00:56.096290+05:30
Bhilai,Chhattisgarh,21.1938,81.3509,25.3,53,0.0,974.6,7.65,151,4,5,7,0,2026-02-28T22:00:56.096296+05:30
Guwahati,Assam,26.1158,91.7086,21.4,78,0.0,1001.7,6.95,159,3,5,4,1,2026-02-28T22:00:56.096302+05:30
Agartala,Tripura,23.8315,91.2868,20.1,53,0.0,1006.1,7.3,161,0,5,4,0,2026-02-28T22:00:56.096308+05:30
Shillong,Meghalaya,25.5788,91.8933,9.0,78,0.0,852.6,6.65,153,3,5,7,0,2026-02-28T22:00:56.096314+05:30
Imphal,Manipur,24.817,93.9368,13.5,67,0.0,921.6,7.5,150,3,5,7,0,2026-02-28T22:00:56.096320+05:30
Aizawl,Mizoram,23.7271,92.7176,15.6,55,0.0,891.2,7.45,133,0,5,7,0,2026-02-28T22:00:56.096326+05:30
Kohima,Nagaland,25.6701,94.1077,11.5,67,0.0,852.0,7.35,147,3,5,7,0,2026-02-28T22:00:56.096332+05:30
Gangtok,Sikkim,27.3314,88.6138,9.8,84,0.1,833.4,4.45,133,6,10,3,0,2026-02-28T22:00:56.096338+05:30
Siliguri,West Bengal,26.7271,88.3953,18.4,61,0.0,993.4,6.95,167,3,5,7,0,2026-02-28T22:00:59.341402+05:30
Durgapur,West Bengal,23.5204,87.3119,22.8,48,0.0,994.8,7.45,109,0,5,7,0,2026-02-28T22:00:59.341428+05:30
Asansol,West Bengal,23.6739,86.9524,25.9,34,0.0,993.3,7.4,94,4,5,7,0,2026-02-28T22:00:59.341437+05:30
Pondicherry,Puducherry,11.9139,79.8145,24.1,93,0.0,1009.1,8.75,124,3,0,4,1,2026-02-28T22:00:59.341444+05:30
Port Blair,Andaman and Nicobar Islands,11.6234,92.7265,27.6,71,0.0,1006.3,7.85,76,7,5,4,1,2026-02-28T22:00:59.341450+05:30
Haridwar,Uttarakhand,29.9457,78.1642,17.0,81,0.0,974.7,5.3,113,3,10,3,0,2026-02-28T22:00:59.341456+05:30
Rishikesh,Uttarakhand,30.0869,78.2676,16.3,72,0.0,967.3,5.4,102,3,5,3,0,2026-02-28T22:00:59.341462+05:30
Nainital,Uttarakhand,29.3919,79.4542,14.4,51,0.0,803.9,6.2,101,0,5,7,0,2026-02-28T22:00:59.341468+05:30
Mussoorie,Uttarakhand,30.4599,78.0664,12.0,60,0.0,799.9,5.75,98,0,5,3,0,2026-02-28T22:00:59.341473+05:30
Dharamshala,Himachal Pradesh,32.219,76.3234,16.1,49,0.0,867.9,6.0,95,0,5,3,0,2026-02-28T22:00:59.341479+05:30
Dalhousie,Himachal Pradesh,32.5387,75.971,12.9,47,0.0,801.5,6.25,80,0,5,7,0,2026-02-28T22:00:59.341485+05:30
Patiala,Punjab,30.3398,76.3869,18.2,77,0.0,978.9,5.45,160,3,5,3,0,2026-02-28T22:00:59.341491+05:30
Bhatinda,Punjab,30.211,74.9455,19.4,65,0.0,984.5,6.15,152,3,5,7,0,2026-02-28T22:00:59.341496+05:30
Rohtak,Haryana,28.8955,76.6066,18.7,62,0.0,982.5,5.65,165,3,5,3,0,2026-02-28T22:00:59.341502+05:30
Panipat,Haryana,29.3909,76.9635,18.0,68,0.0,981.1,5.4,169,3,5,3,0,2026-02-28T22:00:59.341508+05:30
Mathura,Uttar Pradesh,27.4924,77.6737,21.4,59,0.0,987.2,5.2,132,0,5,3,0,2026-02-28T22:00:59.341513+05:30
Vrindavan,Uttar Pradesh,27.5823,77.7027,20.9,59,0.0,987.7,5.2,132,0,5,3,0,2026-02-28T22:00:59.341519+05:30
Ayodhya,Uttar Pradesh,26.7922,82.1998,20.0,59,0.0,995.1,6.25,138,0,5,7,0,2026-02-28T22:00:59.341524+05:30
Ratlam,Madhya Pradesh,23.3315,75.0367,22.0,57,0.0,954.7,7.2,80,0,5,7,0,2026-02-28T22:00:59.341530+05:30
Sagar,Madhya Pradesh,23.8388,78.7378,23.3,53,0.0,949.9,7.1,80,0,5,7,0,2026-02-28T22:00:59.341536+05:30
Satna,Madhya Pradesh,24.6005,80.8322,23.0,52,0.0,971.5,7.0,81,0,5,7,0,2026-02-28T22:00:59.341541+05:30
Akola,Maharashtra,20.7002,77.0082,25.7,48,0.0,974.9,7.6,111,4,5,7,0,2026-02-28T22:00:59.341548+05:30
Amravati,Maharashtra,20.9374,77.7796,25.4,49,0.0,966.4,7.55,131,4,5,7,0,2026-02-28T22:00:59.341554+05:30
Latur,Maharashtra,18.4088,76.5604,23.3,58,0.0,939.1,8.05,85,0,5,7,0,2026-02-28T22:00:59.341560+05:30
Nanded,Maharashtra,19.1383,77.3091,27.0,50,0.0,968.1,7.85,103,4,5,7,0,2026-02-28T22:00:59.341566+05:30
Gulbarga,Karnataka,17.3297,76.8343,27.2,50,0.0,958.0,8.15,110,4,5,7,0,2026-02-28T22:00:59.341571+05:30
Bidar,Karnataka,17.9104,77.5199,25.1,63,0.0,934.8,8.1,111,7,5,7,1,2026-02-28T22:00:59.341577+05:30
Hospet,Karnataka,15.2689,76.3909,29.0,48,0.0,954.6,8.5,161,4,5,7,1,2026-02-28T22:00:59.341583+05:30
Tirupur,Tamil Nadu,11.1085,77.3411,26.1,71,0.0,974.9,9.05,141,7,5,7,1,2026-02-28T22:00:59.341589+05:30
Alappuzha,Kerala,9.4981,76.3388,27.7,80,0.0,1008.9,8.65,111,7,0,4,1,2026-02-28T22:00:59.341594+05:30
Munnar,Kerala,10.0889,77.0595,19.9,93,0.0,856.1,7.95,121,3,10,7,1,2026-02-28T22:00:59.341600+05:30
Silchar,Assam,24.8333,92.7789,21.7,62,0.0,1005.0,7.25,156,3,5,4,0,2026-02-28T22:00:59.341605+05:30
Dibrugarh,Assam,27.4728,94.912,19.6,83,0.0,996.5,6.6,142,3,10,7,1,2026-02-28T22:00:59.341611+05:30
