city,state,latitude,longitude,temp,humidity,rain,pressure,uv_index,wind_gusts,aqi,pm10,pm2_5,no2,co,o3,so2,mosquito_risk,arthritis_risk,migraine_risk,frizz_risk,updated_at
Delhi,Delhi,28.6139,77.209,24.7,87,0.0,982.5,7.65,54.0,276,207.7,74.7,40.4,807.0,85.0,28.1,3,5,7,1,2026-05-30T22:40:25.660173+05:30
Mumbai,Maharashtra,19.076,72.8777,30.8,71,0.0,1008.2,7.7,38.5,60,21.8,13.4,5.8,160.0,48.0,4.4,3,0,4,1,2026-05-30T22:40:25.660211+05:30
Bangalore,Karnataka,12.9716,77.5946,22.2,90,0.0,913.3,9.05,29.5,60,24.8,21.2,56.1,930.0,29.0,9.9,3,5,7,1,2026-05-30T22:40:25.660227+05:30
Hyderabad,Telangana,17.385,78.4867,31.3,43,0.0,952.8,8.95,43.6,63,23.2,18.6,23.0,1016.0,66.0,9.1,0,5,7,1,2026-05-30T22:40:25.660236+05:30
Chennai,Tamil Nadu,13.0827,80.2707,30.0,72,0.0,1006.8,9.0,48.2,137,30.7,25.2,12.3,443.0,118.0,8.1,7,5,4,1,2026-05-30T22:40:25.660244+05:30
Kolkata,West Bengal,22.5726,88.3639,27.4,85,0.0,1006.0,8.9,49.3,140,61.9,53.4,29.1,524.0,33.0,13.8,7,5,4,1,2026-05-30T22:40:25.660252+05:30
Pune,Maharashtra,18.5204,73.8567,26.5,80,0.0,948.2,8.35,41.8,44,16.5,11.2,7.1,165.0,45.0,5.2,7,5,7,1,2026-05-30T22:40:25.660258+05:30
Ahmedabad,Gujarat,23.0225,72.5714,27.9,79,0.2,1001.7,8.1,45.4,73,36.3,20.8,5.4,195.0,68.0,4.3,10,5,4,1,2026-05-30T22:40:25.660266+05:30
Jaipur,Rajasthan,26.9124,75.7873,28.6,47,0.0,958.8,8.15,31.7,100,43.0,24.4,11.7,439.0,87.0,5.9,4,5,7,0,2026-05-30T22:40:25.660276+05:30
Lucknow,Uttar Pradesh,26.8467,80.9462,26.3,74,0.0,993.7,8.15,34.9,90,39.7,32.0,17.0,376.0,82.0,8.1,7,5,7,1,2026-05-30T22:40:25.660283+05:30
Kanpur,Uttar Pradesh,26.4499,80.3319,27.5,65,0.0,991.6,8.15,41.8,125,358.6,61.2,9.6,346.0,104.0,5.3,7,5,7,1,2026-05-30T22:40:25.660290+05:30
Chandigarh,Chandigarh,30.7333,76.7794,23.6,81,0.0,968.9,7.0,41.4,127,79.2,42.5,32.0,929.0,85.0,8.7,3,5,7,1,2026-05-30T22:40:25.660297+05:30
Srinagar,Jammu and Kashmir,34.0837,74.7973,16.2,79,0.0,840.0,8.95,27.4,102,61.7,56.7,38.1,1090.0,44.0,2.0,3,5,7,0,2026-05-30T22:40:25.660304+05:30
Jammu,Jammu and Kashmir,32.7266,74.857,26.8,43,0.0,973.2,8.25,46.4,134,180.7,77.5,47.0,605.0,71.0,8.0,4,5,7,0,2026-05-30T22:40:25.660311+05:30
Amritsar,Punjab,31.634,74.8723,24.8,55,0.0,981.1,8.35,51.8,153,124.8,53.8,21.3,667.0,84.0,7.0,0,5,7,0,2026-05-30T22:40:25.660317+05:30
Ludhiana,Punjab,30.901,75.8573,23.5,76,0.0,978.8,7.75,49.0,189,224.9,74.7,30.4,895.0,96.0,12.7,3,5,7,1,2026-05-30T22:40:25.660323+05:30
Jalandhar,Punjab,31.326,75.5762,22.9,77,0.0,979.8,7.15,44.6,132,126.7,60.3,34.1,702.0,71.0,7.9,3,5,7,1,2026-05-30T22:40:25.660329+05:30
Dehradun,Uttarakhand,30.6284,78.0322,15.0,81,0.0,830.2,7.75,43.2,108,46.4,30.7,31.1,322.0,82.0,2.1,3,10,7,0,2026-05-30T22:40:25.660336+05:30
Shimla,Himachal Pradesh,31.1048,77.1734,12.2,70,0.0,783.3,2.3,38.9,123,32.1,15.7,12.9,424.0,116.0,0.3,3,5,3,0,2026-05-30T22:40:25.660344+05:30
Manali,Himachal Pradesh,32.2396,77.1887,14.9,69,0.0,818.7,8.1,36.4,141,25.7,19.3,45.8,289.0,106.0,0.7,3,5,7,0,2026-05-30T22:40:25.660350+05:30
Gurgaon,Haryana,28.4595,77.0266,24.2,89,0.0,980.8,7.75,59.4,1078,379.0,105.2,45.0,1133.0,87.0,35.1,3,5,7,1,2026-05-30T22:40:25.660356+05:30
Noida,Uttar Pradesh,28.5355,77.391,23.9,91,0.0,984.1,7.65,45.0,1078,379.0,105.2,45.0,942.0,87.0,35.1,3,5,7,1,2026-05-30T22:40:25.660364+05:30
Ghaziabad,Uttar Pradesh,28.6692,77.4538,23.9,89,0.0,982.4,7.65,37.1,128,103.6,54.5,25.5,456.0,91.0,13.5,3,5,7,1,2026-05-30T22:40:25.660371+05:30
Faridabad,Haryana,28.4089,77.3178,24.5,90,0.0,983.4,7.7,58.3,1078,379.0,105.2,45.0,778.0,87.0,35.1,3,5,7,1,2026-05-30T22:40:25.660379+05:30
Meerut,Uttar Pradesh,28.9845,77.7064,23.9,83,0.0,981.2,7.55,40.0,128,103.6,54.5,25.5,494.0,91.0,13.5,3,5,7,1,2026-05-30T22:40:25.660385+05:30
Agra,Uttar Pradesh,27.1767,78.0081,25.5,81,0.0,987.1,8.0,59.8,254,929.5,128.1,16.7,425.0,98.0,9.5,7,5,7,1,2026-05-30T22:40:25.660391+05:30
Varanasi,Uttar Pradesh,25.3176,82.9739,28.1,66,0.0,996.9,8.55,36.7,135,56.1,48.4,20.3,646.0,99.0,13.7,7,5,7,1,2026-05-30T22:40:25.660398+05:30
Prayagraj,Uttar Pradesh,25.4358,81.8463,28.7,63,0.0,995.4,8.55,31.7,129,32.6,28.5,13.2,449.0,104.0,7.8,7,5,7,1,2026-05-30T22:40:25.660404+05:30
Gorakhpur,Uttar Pradesh,26.7606,83.3732,25.8,76,0.0,997.5,8.25,45.7,84,32.5,26.8,16.7,336.0,88.0,6.6,7,5,7,1,2026-05-30T22:40:25.660433+05:30
Bareilly,Uttar Pradesh,28.367,79.4304,24.3,71,0.0,986.5,7.95,41.0,135,36.3,31.9,20.4,342.0,85.0,7.3,3,5,7,1,2026-05-30T22:40:25.660442+05:30
Aligarh,Uttar Pradesh,27.8974,78.088,25.1,76,0.0,985.1,7.8,59.8,181,376.3,72.2,16.9,432.0,110.0,11.3,7,5,7,1,2026-05-30T22:40:25.660448+05:30
Moradabad,Uttar Pradesh,28.8386,78.7733,25.1,73,0.0,983.9,7.75,65.9,124,42.3,30.3,19.9,388.0,99.0,10.5,7,5,7,1,2026-05-30T22:40:25.660454+05:30
Saharanpur,Uttar Pradesh,29.9637,77.546,24.2,75,0.0,975.6,7.4,63.4,113,83.8,64.7,46.5,583.0,57.0,12.9,3,5,7,1,2026-05-30T22:40:25.660460+05:30
Jhansi,Uttar Pradesh,25.4484,78.5685,29.1,50,0.0,977.1,8.4,26.3,74,29.2,18.5,9.9,235.0,72.0,4.7,4,5,7,1,2026-05-30T22:40:28.893812+05:30
Surat,Gujarat,21.1702,72.8311,30.5,73,0.0,1005.4,7.65,55.4,78,31.1,19.5,12.0,210.0,43.0,20.1,3,5,4,1,2026-05-30T22:40:28.893840+05:30
Vadodara,Gujarat,22.3072,73.1812,28.6,75,0.0,1004.3,8.05,52.6,75,27.4,19.3,15.5,190.0,35.0,15.0,7,5,4,1,2026-05-30T22:40:28.893851+05:30
Rajkot,Gujarat,22.3039,70.8022,30.4,64,0.0,992.0,7.7,50.4,67,34.1,18.5,3.4,116.0,49.0,3.6,3,5,7,1,2026-05-30T22:40:28.893859+05:30
Thane,Maharashtra,19.2183,72.9781,30.9,70,0.0,1007.5,7.8,38.5,60,21.8,13.4,5.8,161.0,48.0,4.4,3,5,4,1,2026-05-30T22:40:28.893868+05:30
Nagpur,Maharashtra,21.1458,79.0882,34.3,31,0.0,971.6,8.85,45.7,78,54.1,31.7,13.4,260.0,67.0,10.9,0,5,7,0,2026-05-30T22:40:28.893876+05:30
Nashik,Maharashtra,19.9975,73.7898,26.0,79,0.0,945.6,8.1,50.0,57,16.0,10.3,5.2,137.0,49.0,2.3,7,5,7,1,2026-05-30T22:40:28.893884+05:30
Aurangabad,Maharashtra,19.8762,75.3433,30.5,52,0.0,944.2,8.95,44.3,65,24.3,15.7,5.9,143.0,75.0,7.2,0,5,7,1,2026-05-30T22:40:28.893891+05:30
Solapur,Maharashtra,17.6599,75.9064,32.0,39,0.0,956.3,8.95,37.8,44,16.6,12.3,10.4,210.0,61.0,3.0,0,5,7,1,2026-05-30T22:40:28.893899+05:30
Kolhapur,Maharashtra,16.705,74.2433,25.9,84,0.0,948.8,8.75,45.0,35,13.3,9.9,5.6,159.0,48.0,2.2,7,5,7,1,2026-05-30T22:40:28.893906+05:30
Goa,Goa,15.2993,74.124,26.8,99,0.0,999.8,7.2,31.0,52,18.9,13.6,4.3,461.0,47.0,1.4,7,5,7,1,2026-05-30T22:40:28.893914+05:30
Jodhpur,Rajasthan,26.2389,73.0243,31.9,45,0.0,980.0,8.35,51.1,128,165.8,38.2,4.6,241.0,92.0,2.5,0,5,7,1,2026-05-30T22:40:28.893922+05:30
Udaipur,Rajasthan,24.5854,73.7125,28.0,53,0.0,945.7,8.75,54.4,76,63.3,27.2,6.4,216.0,79.0,4.7,4,5,7,1,2026-05-30T22:40:28.893930+05:30
Kota,Rajasthan,25.2138,75.8648,26.1,90,0.0,976.5,8.3,38.9,76,35.6,22.4,6.7,257.0,95.0,5.3,7,5,7,1,2026-05-30T22:40:28.893937+05:30
Bikaner,Rajasthan,28.0229,73.3119,32.0,35,0.0,979.5,8.35,44.6,98,58.7,29.0,4.5,211.0,93.0,4.5,0,5,7,0,2026-05-30T22:40:28.893944+05:30
Ajmer,Rajasthan,26.4499,74.6399,27.7,51,0.0,952.8,8.3,39.2,69,31.9,19.0,7.6,252.0,81.0,2.7,4,5,7,1,2026-05-30T22:40:28.893951+05:30
Gwalior,Madhya Pradesh,26.2183,78.1828,28.0,60,0.0,982.1,8.15,29.9,75,61.2,26.1,10.0,257.0,80.0,5.1,4,5,7,1,2026-05-30T22:40:28.893957+05:30
Indore,Madhya Pradesh,22.7196,75.8577,31.1,37,0.0,947.1,8.6,46.4,82,54.9,30.6,9.0,271.0,73.0,5.9,0,5,7,0,2026-05-30T22:40:28.893964+05:30
Bhopal,Madhya Pradesh,23.2599,77.4126,32.2,34,0.0,952.6,8.65,52.9,73,40.7,24.3,8.3,223.0,81.0,4.7,0,5,7,0,2026-05-30T22:40:28.893970+05:30
Jabalpur,Madhya Pradesh,23.1815,79.9864,29.2,61,0.0,960.2,8.8,31.3,68,38.0,21.3,8.8,240.0,81.0,4.0,7,5,7,1,2026-05-30T22:40:28.893977+05:30
Ujjain,Madhya Pradesh,23.1765,75.7885,31.0,40,0.0,952.6,8.55,46.8,81,56.7,32.4,7.4,259.0,67.0,4.9,0,5,7,0,2026-05-30T22:40:28.893984+05:30
Visakhapatnam,Andhra Pradesh,17.6868,83.2185,31.4,69,0.0,1001.0,8.6,38.5,106,40.9,33.3,29.5,404.0,96.0,45.4,3,5,4,1,2026-05-30T22:40:28.893992+05:30
Vijayawada,Andhra Pradesh,16.5062,80.648,31.6,64,0.0,1000.7,8.65,44.6,87,66.1,56.8,30.4,315.0,49.0,9.7,3,5,4,1,2026-05-30T22:40:28.893999+05:30
Guntur,Andhra Pradesh,16.3067,80.4365,30.4,68,0.0,1001.9,8.65,33.1,83,79.9,68.9,41.8,284.0,39.0,10.5,3,5,4,1,2026-05-30T22:40:28.894006+05:30
Nellore,Andhra Pradesh,14.4426,79.9865,29.9,72,0.0,1005.1,8.35,35.3,76,30.4,25.0,13.7,279.0,83.0,6.6,7,5,4,1,2026-05-30T22:40:28.894014+05:30
Kurnool,Andhra Pradesh,15.8281,78.0373,28.4,65,0.0,977.4,9.0,41.4,58,21.8,17.8,13.9,252.0,76.0,6.9,7,5,7,1,2026-05-30T22:40:28.894022+05:30
Kakinada,Andhra Pradesh,16.9891,82.2475,31.0,68,0.0,1004.7,7.5,38.5,112,30.9,26.1,6.9,394.0,119.0,5.8,3,5,4,1,2026-05-30T22:40:28.894029+05:30
Tirupati,Andhra Pradesh,13.6288,79.4192,27.9,71,0.0,991.3,9.05,47.5,72,22.5,19.4,23.1,253.0,55.0,3.2,7,5,7,1,2026-05-30T22:40:28.894036+05:30
Warangal,Telangana,17.9689,79.5941,30.1,59,0.0,976.9,9.05,45.7,84,58.9,45.1,26.4,510.0,43.0,6.7,0,5,7,1,2026-05-30T22:40:28.894043+05:30
Nizamabad,Telangana,18.6725,78.0941,32.2,39,0.0,963.2,8.95,41.4,79,63.3,34.9,19.1,245.0,67.0,6.6,0,5,7,1,2026-05-30T22:40:28.894051+05:30
Mysore,Karnataka,12.2958,76.6396,22.2,93,0.1,931.1,8.95,47.5,45,15.2,13.9,19.9,302.0,53.0,3.0,6,5,7,1,2026-05-30T22:40:28.894058+05:30
Mangalore,Karnataka,12.9141,74.856,26.4,94,0.0,1009.3,8.35,33.5,33,13.9,11.9,12.4,411.0,40.0,3.4,7,0,4,1,2026-05-30T22:40:28.894066+05:30
Hubli-Dharwad,Karnataka,15.3647,75.124,24.5,90,0.0,942.7,8.7,52.6,34,9.1,7.0,5.8,164.0,46.0,1.3,3,5,7,1,2026-05-30T22:40:28.894074+05:30
Belgaum,Karnataka,15.8497,74.4977,24.1,93,0.0,927.4,8.6,39.2,29,11.6,9.0,6.3,145.0,45.0,1.7,3,5,7,1,2026-05-30T22:40:32.133202+05:30
Coimbatore,Tamil Nadu,11.0168,76.9558,26.0,82,0.0,964.0,8.95,46.1,35,7.8,7.4,8.9,221.0,52.0,3.5,7,5,7,1,2026-05-30T22:40:32.133234+05:30
Madurai,Tamil Nadu,9.9252,78.1198,29.9,67,0.0,994.0,8.6,28.1,73,46.7,40.3,63.8,216.0,0.0,9.5,7,5,7,1,2026-05-30T22:40:32.133245+05:30
Trichy,Tamil Nadu,10.7905,78.7047,29.5,66,0.0,1001.1,8.8,41.4,42,24.9,21.6,30.1,343.0,28.0,6.0,7,5,4,1,2026-05-30T22:40:32.133254+05:30
Salem,Tamil Nadu,11.6643,78.146,28.7,61,0.0,979.6,8.4,34.2,86,18.5,13.7,14.1,291.0,70.0,6.8,7,5,7,1,2026-05-30T22:40:32.133263+05:30
Tirunelveli,Tamil Nadu,8.7139,77.7567,29.9,64,0.0,1004.3,8.5,33.8,26,8.5,7.4,9.5,168.0,35.0,2.1,7,5,4,1,2026-05-30T22:40:32.133271+05:30
Vellore,Tamil Nadu,12.9165,79.1325,27.0,84,0.0,984.9,8.85,41.4,75,28.1,23.8,15.4,262.0,68.0,4.0,7,5,7,1,2026-05-30T22:40:32.133280+05:30
Erode,Tamil Nadu,11.341,77.7172,26.9,79,0.0,991.2,8.85,35.3,42,13.1,11.5,17.6,385.0,44.0,4.2,7,5,7,1,2026-05-30T22:40:32.133288+05:30
Kochi,Kerala,9.9312,76.2673,26.7,92,0.1,1011.5,8.05,24.5,44,25.3,24.1,33.8,261.0,9.0,7.4,10,0,4,1,2026-05-30T22:40:32.133297+05:30
Thiruvananthapuram,Kerala,8.5241,76.9366,25.7,93,0.1,1011.2,7.65,31.7,26,8.6,4.9,2.0,243.0,50.0,0.6,10,0,4,1,2026-05-30T22:40:32.133305+05:30
Kozhikode,Kerala,11.2588,75.7804,26.0,100,0.0,1010.5,8.5,26.6,32,5.6,4.0,2.3,456.0,65.0,1.1,7,0,4,1,2026-05-30T22:40:32.133313+05:30
Thrissur,Kerala,10.5276,76.2144,25.9,93,0.0,1009.8,8.15,25.9,38,18.6,17.7,21.8,376.0,20.0,6.2,7,0,4,1,2026-05-30T22:40:32.133322+05:30
Kannur,Kerala,11.8745,75.3704,26.6,96,0.0,1009.9,8.3,30.6,29,15.1,13.6,19.7,356.0,30.0,3.4,7,0,4,1,2026-05-30T22:40:32.133330+05:30
Patna,Bihar,25.5941,85.1376,27.2,80,0.0,1000.3,8.7,30.6,145,59.4,53.1,18.6,552.0,105.0,16.8,7,5,4,1,2026-05-30T22:40:32.133337+05:30
Gaya,Bihar,24.7914,85.0002,27.6,71,0.0,993.3,8.8,26.6,164,68.0,60.8,9.9,488.0,143.0,18.1,7,5,7,1,2026-05-30T22:40:32.133344+05:30
Muzaffarpur,Bihar,26.1209,85.3647,26.6,82,0.0,1000.6,8.05,36.7,134,53.0,48.9,21.0,463.0,93.0,14.9,7,5,4,1,2026-05-30T22:40:32.133352+05:30
Bhagalpur,Bihar,25.2425,87.0117,27.7,82,0.0,1001.1,8.7,21.6,152,99.9,69.2,21.1,412.0,100.0,21.0,7,5,4,1,2026-05-30T22:40:32.133359+05:30
Ranchi,Jharkhand,23.3441,85.3096,24.1,83,0.0,937.7,9.25,26.3,146,50.3,40.0,8.3,326.0,128.0,8.0,3,5,7,1,2026-05-30T22:40:32.133367+05:30
Jamshedpur,Jharkhand,22.8046,86.2029,26.5,90,0.0,990.9,9.05,24.1,129,43.1,35.5,15.7,500.0,71.0,12.8,7,5,7,1,2026-05-30T22:40:32.133375+05:30
Dhanbad,Jharkhand,23.7957,86.4304,26.5,89,0.0,980.0,9.05,22.3,161,84.3,75.9,51.1,605.0,56.0,111.5,7,5,7,1,2026-05-30T22:40:32.133383+05:30
Bokaro,Jharkhand,23.6693,86.1511,26.8,85,0.0,983.8,9.05,24.5,165,84.8,75.4,41.0,1422.0,80.0,106.5,7,5,7,1,2026-05-30T22:40:32.133390+05:30
Bhubaneswar,Odisha,20.2961,85.8245,26.4,92,0.0,1001.2,9.0,38.9,102,33.8,27.0,10.3,466.0,71.0,5.1,7,5,4,1,2026-05-30T22:40:32.133397+05:30
Cuttack,Odisha,20.4625,85.8828,27.2,92,0.0,1003.1,9.05,38.2,102,33.8,27.0,10.3,411.0,71.0,5.1,7,5,4,1,2026-05-30T22:40:32.133405+05:30
Rourkela,Odisha,22.2604,84.8536,27.4,82,0.0,984.6,8.95,34.2,149,45.2,36.8,11.2,587.0,117.0,12.0,7,5,7,1,2026-05-30T22:40:32.133431+05:30
Raipur,Chhattisgarh,21.2514,81.6296,28.5,63,0.0,973.3,8.95,57.2,130,53.2,40.2,28.1,274.0,89.0,42.0,7,5,7,1,2026-05-30T22:40:32.133441+05:30
Bhilai,Chhattisgarh,21.1938,81.3509,28.5,59,0.0,973.9,8.95,51.8,130,55.5,37.4,29.3,295.0,75.0,40.7,4,5,7,1,2026-05-30T22:40:32.133449+05:30
Guwahati,Assam,26.1158,91.7086,26.1,92,0.0,1001.5,8.7,21.6,87,49.9,36.4,16.6,460.0,30.0,2.3,7,5,4,1,2026-05-30T22:40:32.133456+05:30
Agartala,Tripura,23.8315,91.2868,27.2,82,0.0,1006.1,8.85,20.5,164,177.9,151.3,71.5,659.0,42.0,17.3,7,5,4,1,2026-05-30T22:40:32.133465+05:30
Shillong,Meghalaya,25.5788,91.8933,18.6,89,0.0,858.1,8.05,28.8,77,37.0,21.9,14.9,397.0,42.0,2.3,3,10,7,1,2026-05-30T22:40:32.133473+05:30
Imphal,Manipur,24.817,93.9368,22.6,96,0.0,924.5,8.95,20.2,108,41.9,30.5,18.3,425.0,37.0,3.4,3,5,7,1,2026-05-30T22:40:32.133481+05:30
Aizawl,Mizoram,23.7271,92.7176,20.5,98,0.0,892.5,9.1,20.5,63,30.0,22.2,23.1,398.0,31.0,3.0,3,5,7,1,2026-05-30T22:40:32.133488+05:30
Kohima,Nagaland,25.6701,94.1077,19.5,98,0.0,857.1,7.4,19.1,78,26.7,18.6,16.8,424.0,36.0,1.6,3,10,7,1,2026-05-30T22:40:32.133496+05:30
Gangtok,Sikkim,27.3314,88.6138,16.7,79,0.0,839.3,9.15,34.2,64,39.0,24.4,19.7,499.0,75.0,2.2,3,5,7,0,2026-05-30T22:40:32.133504+05:30
Siliguri,West Bengal,26.7271,88.3953,26.5,71,0.0,993.6,8.7,50.4,111,94.5,59.6,26.1,1104.0,87.0,7.8,7,5,7,1,2026-05-30T22:40:35.401646+05:30
Durgapur,West Bengal,23.5204,87.3119,26.8,92,0.0,995.1,8.9,28.4,162,68.5,62.4,30.1,742.0,80.0,36.3,7,5,7,1,2026-05-30T22:40:35.401678+05:30
Asansol,West Bengal,23.6739,86.9524,26.4,92,0.0,993.6,8.95,31.3,159,70.1,62.6,35.8,569.0,73.0,50.8,7,5,7,1,2026-05-30T22:40:35.401689+05:30
Pondicherry,Puducherry,11.9139,79.8145,28.0,78,0.0,1008.8,8.9,64.1,116,20.4,15.6,11.0,240.0,64.0,6.8,7,0,4,1,2026-05-30T22:40:35.401698+05:30
Port Blair,Andaman and Nicobar Islands,11.6234,92.7265,25.8,94,0.0,1008.2,8.7,36.0,33,11.0,6.4,0.3,126.0,71.0,0.4,7,0,4,1,2026-05-30T22:40:35.401706+05:30
Haridwar,Uttarakhand,29.9457,78.1642,24.2,78,0.0,974.1,7.5,59.4,101,55.1,43.7,33.3,395.0,45.0,7.1,3,5,7,1,2026-05-30T22:40:35.401715+05:30
Rishikesh,Uttarakhand,30.0869,78.2676,22.9,75,0.0,966.7,7.6,57.6,115,45.3,29.8,20.4,430.0,84.0,4.2,3,5,7,1,2026-05-30T22:40:35.401723+05:30
Nainital,Uttarakhand,29.3919,79.4542,12.2,91,0.0,804.2,7.85,33.8,125,24.6,18.6,12.3,370.0,108.0,2.9,3,10,7,0,2026-05-30T22:40:35.401730+05:30
Mussoorie,Uttarakhand,30.4599,78.0664,13.6,77,0.0,802.4,8.0,49.0,115,58.8,35.6,37.0,391.0,81.0,7.4,3,5,7,0,2026-05-30T22:40:35.401738+05:30
Dharamshala,Himachal Pradesh,32.219,76.3234,19.9,53,0.0,869.7,5.25,32.0,78,15.7,11.6,17.6,237.0,59.0,0.3,0,5,3,0,2026-05-30T22:40:35.401745+05:30
Dalhousie,Himachal Pradesh,32.5387,75.971,12.8,79,0.0,803.5,7.3,25.9,117,57.3,30.9,44.6,594.0,65.0,3.1,3,5,7,0,2026-05-30T22:40:35.401753+05:30
Patiala,Punjab,30.3398,76.3869,24.1,74,0.0,978.1,7.6,54.4,897,506.6,85.7,10.8,559.0,113.0,8.4,3,5,7,1,2026-05-30T22:40:35.401761+05:30
Bhatinda,Punjab,30.211,74.9455,25.5,61,0.0,983.2,8.2,65.5,931,692.9,159.3,19.5,359.0,82.0,10.6,7,5,7,1,2026-05-30T22:40:35.401768+05:30
Rohtak,Haryana,28.8955,76.6066,24.3,79,0.0,981.1,7.65,62.6,676,238.4,85.0,44.3,480.0,78.0,19.4,3,5,7,1,2026-05-30T22:40:35.401775+05:30
Panipat,Haryana,29.3909,76.9635,24.0,80,0.0,980.1,7.5,61.6,1209,153.7,62.4,26.3,434.0,89.0,15.8,3,5,7,1,2026-05-30T22:40:35.401782+05:30
Mathura,Uttar Pradesh,27.4924,77.6737,24.9,79,0.0,986.3,7.9,39.6,308,327.8,80.1,35.3,422.0,57.0,8.1,3,5,7,1,2026-05-30T22:40:35.401789+05:30
Vrindavan,Uttar Pradesh,27.5823,77.7027,25.2,76,0.0,986.9,7.9,52.2,308,327.8,80.1,35.3,413.0,57.0,8.1,7,5,7,1,2026-05-30T22:40:35.401796+05:30
Ayodhya,Uttar Pradesh,26.7922,82.1998,25.8,76,0.0,995.7,8.25,34.6,78,48.9,40.6,29.9,326.0,60.0,8.2,7,5,7,1,2026-05-30T22:40:35.401803+05:30
Ratlam,Madhya Pradesh,23.3315,75.0367,27.6,56,0.0,953.2,8.45,48.2,81,54.2,32.7,5.4,191.0,73.0,4.8,4,5,7,1,2026-05-30T22:40:35.401811+05:30
Sagar,Madhya Pradesh,23.8388,78.7378,29.2,53,0.0,949.3,8.7,33.8,66,25.8,15.8,6.3,205.0,94.0,4.0,4,5,7,1,2026-05-30T22:40:35.401818+05:30
Satna,Madhya Pradesh,24.6005,80.8322,28.3,55,0.0,970.5,8.7,27.7,96,31.8,23.8,7.8,277.0,132.0,7.8,4,5,7,1,2026-05-30T22:40:35.401825+05:30
Akola,Maharashtra,20.7002,77.0082,35.2,29,0.0,973.2,8.8,52.2,76,48.4,26.3,9.1,188.0,76.0,6.5,0,5,10,0,2026-05-30T22:40:35.401833+05:30
Amravati,Maharashtra,20.9374,77.7796,33.5,34,0.0,965.8,8.8,48.2,76,52.2,26.9,10.2,209.0,73.0,6.9,0,5,7,0,2026-05-30T22:40:35.401842+05:30
Latur,Maharashtra,18.4088,76.5604,30.8,37,0.0,939.2,8.95,37.8,54,27.1,17.3,7.7,300.0,79.0,3.7,0,5,7,0,2026-05-30T22:40:35.401849+05:30
Nanded,Maharashtra,19.1383,77.3091,34.2,35,0.0,967.0,8.85,41.0,75,46.8,25.3,10.3,258.0,73.0,3.8,0,5,7,1,2026-05-30T22:40:35.401856+05:30
Gulbarga,Karnataka,17.3297,76.8343,31.6,38,0.0,958.2,8.85,40.3,49,20.5,15.4,14.5,265.0,65.0,2.7,0,5,7,0,2026-05-30T22:40:35.401863+05:30
Bidar,Karnataka,17.9104,77.5199,29.0,53,0.0,934.7,8.9,40.0,66,39.6,32.7,39.4,403.0,31.0,4.8,4,5,7,1,2026-05-30T22:40:35.401870+05:30
Hospet,Karnataka,15.2689,76.3909,23.1,94,0.0,957.3,8.95,47.2,42,10.3,8.8,8.8,186.0,57.0,1.7,3,5,7,1,2026-05-30T22:40:35.401877+05:30
Tirupur,Tamil Nadu,11.1085,77.3411,26.8,79,0.0,977.8,9.0,42.5,39,15.7,13.7,20.2,241.0,41.0,5.0,7,5,7,1,2026-05-30T22:40:35.401884+05:30
Alappuzha,Kerala,9.4981,76.3388,26.8,88,0.0,1011.6,8.1,28.4,32,18.0,16.1,14.1,98.0,41.0,3.2,7,0,4,1,2026-05-30T22:40:35.401892+05:30
Munnar,Kerala,10.0889,77.0595,18.0,100,0.0,858.7,5.95,28.4,26,9.1,8.8,12.1,182.0,31.0,1.8,3,10,3,1,2026-05-30T22:40:35.401899+05:30
Silchar,Assam,24.8333,92.7789,27.3,92,0.1,1004.9,7.8,20.9,139,70.3,55.1,12.7,485.0,90.0,9.5,10,5,4,1,2026-05-30T22:40:35.401907+05:30
Dibrugarh,Assam,27.4728,94.912,27.9,86,0.0,995.6,1.25,18.7,111,58.2,49.6,28.2,703.0,29.0,3.8,7,5,3,1,2026-05-30T22:40:35.401914+05:30
