city,state,latitude,longitude,temp,humidity,rain,pressure,uv_index,wind_gusts,aqi,pm10,pm2_5,mosquito_risk,arthritis_risk,migraine_risk,frizz_risk,updated_at
Delhi,Delhi,28.6139,77.209,22.0,57,0.0,986.9,7.15,37.8,748,897.8,150.4,0,5,7,0,2026-04-11T01:20:18.290002+05:30
Mumbai,Maharashtra,19.076,72.8777,28.6,78,0.0,1009.8,7.95,25.2,100,66.4,40.9,7,0,4,1,2026-04-11T01:20:18.290073+05:30
Bangalore,Karnataka,12.9716,77.5946,24.8,79,0.0,913.3,9.65,28.1,100,37.3,34.9,3,5,7,1,2026-04-11T01:20:18.290090+05:30
Hyderabad,Telangana,17.385,78.4867,29.0,49,0.0,954.6,9.25,27.0,101,82.2,52.5,4,5,7,1,2026-04-11T01:20:18.290113+05:30
Chennai,Tamil Nadu,13.0827,80.2707,28.6,83,0.0,1009.0,9.15,36.0,63,20.5,14.3,7,0,4,1,2026-04-11T01:20:18.290123+05:30
Kolkata,West Bengal,22.5726,88.3639,24.0,93,0.0,1007.8,8.75,18.7,154,57.6,43.0,3,5,4,1,2026-04-11T01:20:18.290132+05:30
Pune,Maharashtra,18.5204,73.8567,25.2,79,0.0,950.1,8.55,40.7,94,61.5,39.2,7,5,7,1,2026-04-11T01:20:18.290141+05:30
Ahmedabad,Gujarat,23.0225,72.5714,28.6,35,0.0,1004.9,8.05,21.6,77,48.9,25.9,4,5,4,0,2026-04-11T01:20:18.290149+05:30
Jaipur,Rajasthan,26.9124,75.7873,24.6,42,0.0,964.0,7.85,33.1,163,127.6,33.1,0,5,7,0,2026-04-11T01:20:18.290157+05:30
Lucknow,Uttar Pradesh,26.8467,80.9462,21.6,52,0.0,996.1,7.65,44.6,171,728.3,134.6,0,5,7,0,2026-04-11T01:20:18.290165+05:30
Kanpur,Uttar Pradesh,26.4499,80.3319,20.2,65,0.0,994.7,7.7,40.0,407,907.1,130.4,3,5,7,0,2026-04-11T01:20:18.290173+05:30
Chandigarh,Chandigarh,30.7333,76.7794,19.0,63,0.0,972.6,7.1,32.0,88,17.8,17.0,3,5,7,0,2026-04-11T01:20:18.290180+05:30
Srinagar,Jammu and Kashmir,34.0837,74.7973,10.6,73,0.0,843.2,8.05,23.4,70,55.2,40.6,3,5,7,0,2026-04-11T01:20:18.290189+05:30
Jammu,Jammu and Kashmir,32.7266,74.857,18.6,73,0.0,977.6,7.75,27.0,66,39.3,30.6,3,5,7,0,2026-04-11T01:20:18.290199+05:30
Amritsar,Punjab,31.634,74.8723,20.2,70,0.0,986.0,7.7,30.6,76,56.2,23.9,3,5,7,0,2026-04-11T01:20:18.290207+05:30
Ludhiana,Punjab,30.901,75.8573,21.0,59,0.0,983.5,7.2,32.0,82,28.3,25.2,0,5,7,0,2026-04-11T01:20:18.290214+05:30
Jalandhar,Punjab,31.326,75.5762,20.1,66,0.0,984.8,7.5,26.6,85,42.0,21.9,3,5,7,0,2026-04-11T01:20:18.290221+05:30
Dehradun,Uttarakhand,30.6284,78.0322,11.7,58,0.0,829.7,7.55,36.4,74,14.3,11.7,0,5,7,0,2026-04-11T01:20:18.290228+05:30
Shimla,Himachal Pradesh,31.1048,77.1734,9.1,57,0.0,783.6,7.2,47.5,78,18.2,14.8,0,5,7,0,2026-04-11T01:20:18.290236+05:30
Manali,Himachal Pradesh,32.2396,77.1887,12.9,61,0.0,819.8,9.55,37.4,117,21.9,13.5,3,5,7,0,2026-04-11T01:20:18.290243+05:30
Gurgaon,Haryana,28.4595,77.0266,19.8,69,0.0,985.4,7.3,31.7,2120,2481.0,299.9,3,5,7,0,2026-04-11T01:20:18.290252+05:30
Noida,Uttar Pradesh,28.5355,77.391,21.6,60,0.0,988.4,7.2,37.4,2120,2481.0,299.9,0,5,7,0,2026-04-11T01:20:18.290259+05:30
Ghaziabad,Uttar Pradesh,28.6692,77.4538,20.4,62,0.0,986.5,7.15,39.2,568,773.0,136.0,3,5,7,0,2026-04-11T01:20:18.290267+05:30
Faridabad,Haryana,28.4089,77.3178,22.1,56,0.0,987.7,7.25,38.9,2120,2481.0,299.9,0,5,7,0,2026-04-11T01:20:18.290276+05:30
Meerut,Uttar Pradesh,28.9845,77.7064,19.1,66,0.0,984.8,7.05,39.6,568,773.0,136.0,3,5,7,0,2026-04-11T01:20:18.290282+05:30
Agra,Uttar Pradesh,27.1767,78.0081,20.4,63,0.0,991.5,7.55,31.7,1125,1438.0,171.8,3,5,7,0,2026-04-11T01:20:18.290290+05:30
Varanasi,Uttar Pradesh,25.3176,82.9739,20.6,53,0.0,1000.2,8.3,39.6,87,188.1,44.1,0,5,4,0,2026-04-11T01:20:18.290297+05:30
Prayagraj,Uttar Pradesh,25.4358,81.8463,21.6,55,0.0,999.1,8.15,40.7,92,322.2,62.6,0,5,7,0,2026-04-11T01:20:18.290305+05:30
Gorakhpur,Uttar Pradesh,26.7606,83.3732,20.8,42,0.0,998.9,8.1,34.6,101,339.9,64.7,0,5,7,0,2026-04-11T01:20:18.290314+05:30
Bareilly,Uttar Pradesh,28.367,79.4304,18.6,70,0.0,989.4,7.45,44.3,98,366.0,85.7,3,5,7,0,2026-04-11T01:20:18.290320+05:30
Aligarh,Uttar Pradesh,27.8974,78.088,19.8,63,0.0,989.1,7.35,46.4,1175,1665.2,239.3,3,5,7,0,2026-04-11T01:20:18.290327+05:30
Moradabad,Uttar Pradesh,28.8386,78.7733,18.6,68,0.0,986.4,7.25,40.0,122,291.5,75.4,3,5,7,0,2026-04-11T01:20:18.290334+05:30
Saharanpur,Uttar Pradesh,29.9637,77.546,19.4,59,0.0,978.6,6.85,42.5,98,40.5,18.7,0,5,7,0,2026-04-11T01:20:18.290340+05:30
Jhansi,Uttar Pradesh,25.4484,78.5685,23.2,41,0.0,981.5,8.1,26.6,76,18.4,12.5,0,5,7,0,2026-04-11T01:20:21.515509+05:30
Surat,Gujarat,21.1702,72.8311,27.1,58,0.0,1008.2,7.8,29.5,137,46.9,34.8,4,0,4,1,2026-04-11T01:20:21.515543+05:30
Vadodara,Gujarat,22.3072,73.1812,26.4,46,0.0,1006.5,8.05,16.6,74,35.3,26.3,4,5,4,0,2026-04-11T01:20:21.515553+05:30
Rajkot,Gujarat,22.3039,70.8022,26.4,63,0.0,997.6,7.75,33.8,86,51.2,36.9,7,5,7,1,2026-04-11T01:20:21.515561+05:30
Thane,Maharashtra,19.2183,72.9781,26.7,85,0.0,1009.2,7.95,39.2,100,66.4,40.9,7,0,4,1,2026-04-11T01:20:21.515568+05:30
Nagpur,Maharashtra,21.1458,79.0882,27.1,53,0.0,975.1,8.75,21.2,76,35.6,20.5,4,5,7,1,2026-04-11T01:20:21.515575+05:30
Nashik,Maharashtra,19.9975,73.7898,25.5,57,0.0,947.5,8.25,37.8,89,66.6,52.4,4,5,7,1,2026-04-11T01:20:21.515581+05:30
Aurangabad,Maharashtra,19.8762,75.3433,27.4,45,0.0,945.8,8.9,29.2,95,46.2,29.0,4,5,7,0,2026-04-11T01:20:21.515589+05:30
Solapur,Maharashtra,17.6599,75.9064,30.3,43,0.0,957.7,9.0,18.4,75,28.0,21.1,0,5,7,1,2026-04-11T01:20:21.515596+05:30
Kolhapur,Maharashtra,16.705,74.2433,23.2,73,0.0,948.9,9.05,44.6,91,67.8,43.5,3,5,7,1,2026-04-11T01:20:21.515604+05:30
Goa,Goa,15.2993,74.124,27.5,79,0.0,999.0,9.05,33.1,88,94.8,40.0,7,5,7,1,2026-04-11T01:20:21.515611+05:30
Jodhpur,Rajasthan,26.2389,73.0243,27.0,34,0.0,986.4,8.05,27.4,62,58.0,21.8,4,5,7,0,2026-04-11T01:20:21.515617+05:30
Udaipur,Rajasthan,24.5854,73.7125,22.9,38,0.0,950.4,8.6,37.1,52,53.0,17.5,0,5,7,0,2026-04-11T01:20:21.515624+05:30
Kota,Rajasthan,25.2138,75.8648,22.8,53,0.0,982.6,8.1,22.0,79,78.0,40.4,0,5,7,0,2026-04-11T01:20:21.515630+05:30
Bikaner,Rajasthan,28.0229,73.3119,26.6,38,0.0,985.7,7.9,32.8,67,36.8,16.6,4,5,7,0,2026-04-11T01:20:21.515637+05:30
Ajmer,Rajasthan,26.4499,74.6399,24.5,38,0.0,958.4,8.0,34.6,77,66.4,35.0,0,5,7,0,2026-04-11T01:20:21.515644+05:30
Gwalior,Madhya Pradesh,26.2183,78.1828,23.1,53,0.0,987.0,7.8,27.0,96,72.2,21.8,0,5,7,0,2026-04-11T01:20:21.515650+05:30
Indore,Madhya Pradesh,22.7196,75.8577,22.4,47,0.0,950.8,8.5,22.0,86,33.2,19.2,0,5,7,0,2026-04-11T01:20:21.515656+05:30
Bhopal,Madhya Pradesh,23.2599,77.4126,23.9,37,0.0,956.8,8.5,21.6,76,27.5,14.6,0,5,7,0,2026-04-11T01:20:21.515662+05:30
Jabalpur,Madhya Pradesh,23.1815,79.9864,25.3,42,0.0,964.4,8.6,16.6,74,37.3,18.5,4,5,7,0,2026-04-11T01:20:21.515669+05:30
Ujjain,Madhya Pradesh,23.1765,75.7885,22.9,44,0.0,956.8,8.4,19.4,71,33.8,19.6,0,5,7,0,2026-04-11T01:20:21.515676+05:30
Visakhapatnam,Andhra Pradesh,17.6868,83.2185,27.8,86,0.0,1005.4,9.15,41.8,93,26.2,20.4,7,5,4,1,2026-04-11T01:20:21.515682+05:30
Vijayawada,Andhra Pradesh,16.5062,80.648,27.9,86,0.0,1004.0,9.2,24.5,77,20.4,17.5,7,5,4,1,2026-04-11T01:20:21.515688+05:30
Guntur,Andhra Pradesh,16.3067,80.4365,27.9,88,0.0,1005.2,9.25,32.0,77,21.5,18.9,7,5,4,1,2026-04-11T01:20:21.515695+05:30
Nellore,Andhra Pradesh,14.4426,79.9865,27.8,85,0.0,1007.2,9.0,39.2,70,17.6,14.1,7,5,4,1,2026-04-11T01:20:21.515702+05:30
Kurnool,Andhra Pradesh,15.8281,78.0373,31.2,54,0.0,977.6,9.25,26.3,87,41.1,29.8,0,5,7,1,2026-04-11T01:20:21.515708+05:30
Kakinada,Andhra Pradesh,16.9891,82.2475,27.8,88,0.0,1009.3,9.2,35.3,69,23.2,16.0,7,0,4,1,2026-04-11T01:20:21.515715+05:30
Tirupati,Andhra Pradesh,13.6288,79.4192,26.6,85,0.0,994.0,9.1,31.7,89,19.3,17.1,7,5,7,1,2026-04-11T01:20:21.515721+05:30
Warangal,Telangana,17.9689,79.5941,28.8,68,0.0,979.8,9.1,25.9,110,62.2,46.4,7,5,7,1,2026-04-11T01:20:21.515728+05:30
Nizamabad,Telangana,18.6725,78.0941,27.4,60,0.0,965.9,9.0,18.4,83,46.9,30.5,4,5,7,1,2026-04-11T01:20:21.515734+05:30
Mysore,Karnataka,12.2958,76.6396,23.7,87,0.0,930.2,9.55,30.2,132,41.3,35.5,3,5,7,1,2026-04-11T01:20:21.515740+05:30
Mangalore,Karnataka,12.9141,74.856,29.7,80,0.0,1008.3,8.6,27.0,71,102.7,32.9,7,0,4,1,2026-04-11T01:20:21.515746+05:30
Hubli-Dharwad,Karnataka,15.3647,75.124,24.6,76,0.0,941.5,9.25,36.0,75,62.2,34.7,3,5,7,1,2026-04-11T01:20:21.515753+05:30
Belgaum,Karnataka,15.8497,74.4977,23.4,78,0.0,926.4,9.3,40.0,82,84.1,43.0,3,5,7,1,2026-04-11T01:20:24.735359+05:30
Coimbatore,Tamil Nadu,11.0168,76.9558,24.9,82,0.0,963.8,8.85,32.0,73,39.0,32.1,3,5,7,1,2026-04-11T01:20:24.735393+05:30
Madurai,Tamil Nadu,9.9252,78.1198,27.7,87,0.0,995.0,8.9,40.3,83,22.1,19.6,7,5,7,1,2026-04-11T01:20:24.735404+05:30
Trichy,Tamil Nadu,10.7905,78.7047,27.7,89,0.0,1001.8,8.9,24.8,67,18.2,16.3,7,5,4,1,2026-04-11T01:20:24.735413+05:30
Salem,Tamil Nadu,11.6643,78.146,28.0,80,0.0,979.1,8.7,15.8,92,25.3,23.1,7,5,7,1,2026-04-11T01:20:24.735420+05:30
Tirunelveli,Tamil Nadu,8.7139,77.7567,26.3,81,0.0,1004.8,9.2,45.4,71,32.9,27.7,7,5,4,1,2026-04-11T01:20:24.735428+05:30
Vellore,Tamil Nadu,12.9165,79.1325,26.9,75,0.0,986.6,9.5,31.3,95,23.5,21.1,7,5,7,1,2026-04-11T01:20:24.735436+05:30
Erode,Tamil Nadu,11.341,77.7172,29.2,73,0.0,991.0,8.1,27.4,85,31.9,29.0,7,5,7,1,2026-04-11T01:20:24.735443+05:30
Kochi,Kerala,9.9312,76.2673,26.7,85,0.0,1011.0,7.35,30.6,74,26.8,24.9,7,0,4,1,2026-04-11T01:20:24.735450+05:30
Thiruvananthapuram,Kerala,8.5241,76.9366,27.3,83,0.0,1009.6,9.05,32.8,67,33.3,18.4,7,0,4,1,2026-04-11T01:20:24.735457+05:30
Kozhikode,Kerala,11.2588,75.7804,28.0,85,0.0,1010.0,9.1,27.4,68,49.7,19.1,7,0,4,1,2026-04-11T01:20:24.735463+05:30
Thrissur,Kerala,10.5276,76.2144,26.3,90,0.0,1009.4,8.55,34.2,77,23.3,19.0,7,0,4,1,2026-04-11T01:20:24.735471+05:30
Kannur,Kerala,11.8745,75.3704,27.6,85,0.0,1009.1,8.15,31.3,69,70.3,24.3,7,0,4,1,2026-04-11T01:20:24.735479+05:30
Patna,Bihar,25.5941,85.1376,23.2,52,0.0,1002.1,8.45,31.7,70,53.4,31.2,0,5,4,0,2026-04-11T01:20:24.735487+05:30
Gaya,Bihar,24.7914,85.0002,23.2,48,0.0,996.0,8.55,33.5,81,55.3,28.3,0,5,7,0,2026-04-11T01:20:24.735494+05:30
Muzaffarpur,Bihar,26.1209,85.3647,20.8,49,0.0,1002.1,8.45,25.9,72,51.5,28.4,0,5,4,0,2026-04-11T01:20:24.735501+05:30
Bhagalpur,Bihar,25.2425,87.0117,23.0,58,0.0,1002.5,8.45,22.3,86,43.4,22.1,0,5,4,0,2026-04-11T01:20:24.735507+05:30
Ranchi,Jharkhand,23.3441,85.3096,20.9,47,0.0,939.2,9.05,32.8,91,58.3,24.6,0,5,7,0,2026-04-11T01:20:24.735513+05:30
Jamshedpur,Jharkhand,22.8046,86.2029,24.8,71,0.0,992.5,8.85,17.6,128,93.1,60.8,3,5,7,1,2026-04-11T01:20:24.735519+05:30
Dhanbad,Jharkhand,23.7957,86.4304,21.3,62,0.0,981.7,8.8,26.3,136,93.4,67.1,3,5,7,0,2026-04-11T01:20:24.735525+05:30
Bokaro,Jharkhand,23.6693,86.1511,23.6,49,0.0,986.0,8.8,27.0,123,91.5,65.2,0,5,7,0,2026-04-11T01:20:24.735532+05:30
Bhubaneswar,Odisha,20.2961,85.8245,26.8,95,0.0,1004.3,9.0,27.0,122,35.3,30.9,7,5,4,1,2026-04-11T01:20:24.735538+05:30
Cuttack,Odisha,20.4625,85.8828,27.0,97,0.0,1006.1,9.05,20.2,122,35.3,30.9,7,5,4,1,2026-04-11T01:20:24.735544+05:30
Rourkela,Odisha,22.2604,84.8536,24.9,67,0.0,986.8,8.75,16.2,78,69.6,42.3,3,5,7,1,2026-04-11T01:20:24.735550+05:30
Raipur,Chhattisgarh,21.2514,81.6296,26.5,31,0.0,976.3,8.85,21.6,122,94.8,68.7,4,5,7,0,2026-04-11T01:20:24.735557+05:30
Bhilai,Chhattisgarh,21.1938,81.3509,25.1,38,0.0,976.6,8.85,19.1,117,81.7,59.5,4,5,7,0,2026-04-11T01:20:24.735563+05:30
Guwahati,Assam,26.1158,91.7086,21.7,87,0.0,1003.9,8.3,23.4,81,47.8,42.3,3,5,4,1,2026-04-11T01:20:24.735569+05:30
Agartala,Tripura,23.8315,91.2868,20.9,95,0.0,1008.1,8.6,25.6,152,92.7,76.6,3,0,4,1,2026-04-11T01:20:24.735575+05:30
Shillong,Meghalaya,25.5788,91.8933,10.2,68,0.0,854.8,8.75,56.5,71,37.1,30.4,3,5,7,0,2026-04-11T01:20:24.735582+05:30
Imphal,Manipur,24.817,93.9368,14.5,87,0.0,923.7,8.95,52.9,92,61.2,46.9,3,10,7,0,2026-04-11T01:20:24.735589+05:30
Aizawl,Mizoram,23.7271,92.7176,15.9,85,0.0,893.2,8.8,41.4,72,57.5,29.8,3,10,7,0,2026-04-11T01:20:24.735595+05:30
Kohima,Nagaland,25.6701,94.1077,11.0,90,0.0,853.6,8.85,77.0,66,40.3,29.4,3,10,7,0,2026-04-11T01:20:24.735602+05:30
Gangtok,Sikkim,27.3314,88.6138,11.8,90,0.1,835.8,8.2,18.7,69,39.1,31.5,6,10,7,0,2026-04-11T01:20:24.735608+05:30
Siliguri,West Bengal,26.7271,88.3953,18.9,62,0.0,995.3,8.35,18.0,100,63.3,51.6,3,5,7,0,2026-04-11T01:20:27.964094+05:30
Durgapur,West Bengal,23.5204,87.3119,24.4,57,0.0,997.0,8.75,21.6,131,82.0,59.8,0,5,7,0,2026-04-11T01:20:27.964129+05:30
Asansol,West Bengal,23.6739,86.9524,24.7,46,0.0,995.5,8.8,22.3,110,67.8,44.1,0,5,7,0,2026-04-11T01:20:27.964140+05:30
Pondicherry,Puducherry,11.9139,79.8145,27.1,91,0.0,1010.4,9.35,33.5,59,19.6,13.2,7,0,4,1,2026-04-11T01:20:27.964148+05:30
Port Blair,Andaman and Nicobar Islands,11.6234,92.7265,29.1,74,0.0,1007.8,9.25,22.3,35,4.2,2.9,7,5,4,1,2026-04-11T01:20:27.964156+05:30
Haridwar,Uttarakhand,29.9457,78.1642,15.8,81,0.0,976.8,7.0,41.4,80,27.9,27.3,3,10,7,0,2026-04-11T01:20:27.964164+05:30
Rishikesh,Uttarakhand,30.0869,78.2676,16.5,72,0.0,969.3,7.05,40.0,102,33.1,23.4,3,5,7,0,2026-04-11T01:20:27.964171+05:30
Nainital,Uttarakhand,29.3919,79.4542,15.5,47,0.0,805.6,7.9,69.1,97,75.4,25.6,0,5,7,0,2026-04-11T01:20:27.964178+05:30
Mussoorie,Uttarakhand,30.4599,78.0664,13.3,62,0.0,802.3,7.45,52.2,70,31.0,28.9,3,5,7,0,2026-04-11T01:20:27.964185+05:30
Dharamshala,Himachal Pradesh,32.219,76.3234,17.2,43,0.0,871.4,7.65,22.7,112,19.2,11.4,0,5,7,0,2026-04-11T01:20:27.964192+05:30
Dalhousie,Himachal Pradesh,32.5387,75.971,13.0,60,0.0,804.5,7.65,23.8,66,28.9,23.3,0,5,7,0,2026-04-11T01:20:27.964200+05:30
Patiala,Punjab,30.3398,76.3869,19.9,62,0.0,982.4,7.05,34.6,742,763.7,89.4,3,5,7,0,2026-04-11T01:20:27.964206+05:30
Bhatinda,Punjab,30.211,74.9455,21.4,60,0.0,988.6,7.4,29.9,78,40.3,24.8,0,5,7,0,2026-04-11T01:20:27.964213+05:30
Rohtak,Haryana,28.8955,76.6066,20.3,61,0.0,985.8,7.2,33.1,1095,1147.4,162.1,3,5,7,0,2026-04-11T01:20:27.964219+05:30
Panipat,Haryana,29.3909,76.9635,20.1,59,0.0,984.2,7.0,35.6,1999,1996.8,243.1,0,5,7,0,2026-04-11T01:20:27.964225+05:30
Mathura,Uttar Pradesh,27.4924,77.6737,24.3,44,0.0,990.7,7.5,31.7,1249,1519.9,190.5,0,5,7,0,2026-04-11T01:20:27.964232+05:30
Vrindavan,Uttar Pradesh,27.5823,77.7027,20.4,62,0.0,991.0,7.45,38.2,1249,1519.9,190.5,3,5,7,0,2026-04-11T01:20:27.964239+05:30
Ayodhya,Uttar Pradesh,26.7922,82.1998,20.6,48,0.0,997.4,7.85,42.8,92,553.2,104.3,0,5,7,0,2026-04-11T01:20:27.964245+05:30
Ratlam,Madhya Pradesh,23.3315,75.0367,22.5,51,0.0,957.5,8.35,20.2,77,31.5,18.0,0,5,7,0,2026-04-11T01:20:27.964252+05:30
Sagar,Madhya Pradesh,23.8388,78.7378,24.2,33,0.0,953.4,8.5,28.1,77,32.5,15.0,0,5,7,0,2026-04-11T01:20:27.964257+05:30
Satna,Madhya Pradesh,24.6005,80.8322,23.4,38,0.0,974.6,8.5,34.2,101,21.9,14.6,0,5,7,0,2026-04-11T01:20:27.964263+05:30
Akola,Maharashtra,20.7002,77.0082,28.8,38,0.0,976.6,8.7,21.6,84,57.2,37.1,4,5,7,0,2026-04-11T01:20:27.964270+05:30
Amravati,Maharashtra,20.9374,77.7796,26.7,39,0.0,968.8,8.75,22.0,82,48.2,28.9,4,5,7,0,2026-04-11T01:20:27.964277+05:30
Latur,Maharashtra,18.4088,76.5604,26.9,55,0.0,940.8,9.0,16.6,80,43.7,27.4,4,5,7,1,2026-04-11T01:20:27.964283+05:30
Nanded,Maharashtra,19.1383,77.3091,28.4,50,0.0,969.6,8.9,13.0,76,50.5,34.3,4,5,7,1,2026-04-11T01:20:27.964290+05:30
Gulbarga,Karnataka,17.3297,76.8343,30.5,42,0.0,959.7,9.1,18.4,79,28.6,21.4,0,5,7,1,2026-04-11T01:20:27.964295+05:30
Bidar,Karnataka,17.9104,77.5199,27.8,48,0.0,936.8,9.05,28.1,77,44.2,27.4,4,5,7,0,2026-04-11T01:20:27.964301+05:30
Hospet,Karnataka,15.2689,76.3909,29.7,59,0.0,957.0,9.25,25.9,108,49.0,33.2,4,5,7,1,2026-04-11T01:20:27.964307+05:30
Tirupur,Tamil Nadu,11.1085,77.3411,26.4,78,0.0,977.4,9.25,35.6,98,46.6,41.4,7,5,7,1,2026-04-11T01:20:27.964313+05:30
Alappuzha,Kerala,9.4981,76.3388,26.3,86,0.0,1011.0,7.4,28.4,75,30.0,19.4,7,0,4,1,2026-04-11T01:20:27.964319+05:30
Munnar,Kerala,10.0889,77.0595,21.5,88,0.0,858.3,8.05,37.4,79,25.6,24.0,3,5,7,1,2026-04-11T01:20:27.964325+05:30
Silchar,Assam,24.8333,92.7789,20.1,91,0.0,1007.9,8.6,24.5,125,74.3,56.8,3,5,4,1,2026-04-11T01:20:27.964332+05:30
Dibrugarh,Assam,27.4728,94.912,19.8,92,0.0,998.7,8.4,19.1,94,26.7,21.4,3,10,7,1,2026-04-11T01:20:27.964338+05:30
