city,state,latitude,longitude,temp,humidity,rain,pressure,uv_index,wind_gusts,aqi,pm10,pm2_5,mosquito_risk,arthritis_risk,migraine_risk,frizz_risk,updated_at
Delhi,Delhi,28.6139,77.209,19.9,72,0.0,984.7,6.6,26.3,235,238.0,68.2,3,5,7,0,2026-03-25T05:05:37.361458+05:30
Mumbai,Maharashtra,19.076,72.8777,27.8,81,0.0,1007.7,7.9,20.9,95,32.7,16.4,7,5,4,1,2026-03-25T05:05:37.361502+05:30
Bangalore,Karnataka,12.9716,77.5946,21.6,87,0.0,911.2,9.5,32.0,75,22.5,21.5,3,5,7,1,2026-03-25T05:05:37.361517+05:30
Hyderabad,Telangana,17.385,78.4867,22.9,77,0.0,952.9,9.0,18.7,89,28.1,22.9,3,5,7,1,2026-03-25T05:05:37.361527+05:30
Chennai,Tamil Nadu,13.0827,80.2707,25.6,84,0.0,1007.9,9.2,31.7,31,13.6,9.5,7,5,4,1,2026-03-25T05:05:37.361536+05:30
Kolkata,West Bengal,22.5726,88.3639,24.7,94,0.0,1007.0,8.4,25.6,102,21.8,16.8,3,5,4,1,2026-03-25T05:05:37.361545+05:30
Pune,Maharashtra,18.5204,73.8567,22.2,64,0.0,947.5,8.5,36.7,93,54.6,49.2,3,5,7,0,2026-03-25T05:05:37.361574+05:30
Ahmedabad,Gujarat,23.0225,72.5714,23.7,71,0.0,1002.2,7.65,24.1,66,25.1,17.9,3,5,4,1,2026-03-25T05:05:37.361584+05:30
Jaipur,Rajasthan,26.9124,75.7873,22.1,52,0.0,960.5,7.35,25.9,95,297.1,44.0,0,5,7,0,2026-03-25T05:05:37.361591+05:30
Lucknow,Uttar Pradesh,26.8467,80.9462,20.4,73,0.0,995.2,7.15,34.6,112,185.3,52.6,3,5,7,0,2026-03-25T05:05:37.361599+05:30
Kanpur,Uttar Pradesh,26.4499,80.3319,20.3,79,0.0,993.5,7.15,25.6,139,276.6,65.4,3,5,7,1,2026-03-25T05:05:37.361606+05:30
Chandigarh,Chandigarh,30.7333,76.7794,16.8,75,0.0,969.6,6.15,29.2,72,28.1,23.5,3,5,7,0,2026-03-25T05:05:37.361614+05:30
Srinagar,Jammu and Kashmir,34.0837,74.7973,5.9,71,0.0,837.6,7.4,13.0,76,47.0,33.5,3,5,7,0,2026-03-25T05:05:37.361621+05:30
Jammu,Jammu and Kashmir,32.7266,74.857,17.1,79,0.0,973.0,6.75,19.4,78,35.9,32.6,3,5,7,0,2026-03-25T05:05:37.361629+05:30
Amritsar,Punjab,31.634,74.8723,17.0,82,0.0,981.5,5.85,20.9,118,67.8,60.8,3,10,3,0,2026-03-25T05:05:37.361636+05:30
Ludhiana,Punjab,30.901,75.8573,18.0,82,0.0,979.9,6.3,21.6,122,74.5,66.1,3,10,7,0,2026-03-25T05:05:37.361644+05:30
Jalandhar,Punjab,31.326,75.5762,17.1,88,0.0,980.9,6.65,21.2,115,75.7,68.0,3,10,7,0,2026-03-25T05:05:37.361653+05:30
Dehradun,Uttarakhand,30.6284,78.0322,9.4,73,0.0,826.9,7.0,22.7,53,15.4,12.1,3,5,7,0,2026-03-25T05:05:37.361660+05:30
Shimla,Himachal Pradesh,31.1048,77.1734,7.2,82,0.0,780.1,7.05,44.6,56,26.4,19.8,3,10,7,0,2026-03-25T05:05:37.361668+05:30
Manali,Himachal Pradesh,32.2396,77.1887,12.6,22,0.0,815.4,9.05,27.4,53,23.0,15.7,0,5,7,1,2026-03-25T05:05:37.361675+05:30
Gurgaon,Haryana,28.4595,77.0266,17.6,81,0.0,983.0,6.7,20.9,675,380.9,93.6,3,10,7,0,2026-03-25T05:05:37.361682+05:30
Noida,Uttar Pradesh,28.5355,77.391,19.4,76,0.0,986.1,6.65,25.6,675,380.9,93.6,3,5,7,0,2026-03-25T05:05:37.361688+05:30
Ghaziabad,Uttar Pradesh,28.6692,77.4538,18.2,80,0.0,984.2,6.6,26.6,165,143.9,51.2,3,5,7,0,2026-03-25T05:05:37.361695+05:30
Faridabad,Haryana,28.4089,77.3178,17.8,81,0.0,985.4,6.65,23.0,675,380.9,93.6,3,10,7,0,2026-03-25T05:05:37.361702+05:30
Meerut,Uttar Pradesh,28.9845,77.7064,17.0,84,0.0,982.9,6.4,29.9,165,143.9,51.2,3,10,7,0,2026-03-25T05:05:37.361708+05:30
Agra,Uttar Pradesh,27.1767,78.0081,18.8,75,0.0,989.7,6.65,29.2,384,575.6,99.2,3,5,7,0,2026-03-25T05:05:37.361722+05:30
Varanasi,Uttar Pradesh,25.3176,82.9739,19.2,79,0.0,999.5,7.45,29.2,117,92.0,43.1,3,5,7,0,2026-03-25T05:05:37.361731+05:30
Prayagraj,Uttar Pradesh,25.4358,81.8463,21.5,64,0.0,997.9,7.2,20.2,104,138.8,42.4,3,5,7,0,2026-03-25T05:05:37.361739+05:30
Gorakhpur,Uttar Pradesh,26.7606,83.3732,18.1,84,0.0,998.8,7.3,28.1,102,89.4,43.0,3,10,7,0,2026-03-25T05:05:37.361746+05:30
Bareilly,Uttar Pradesh,28.367,79.4304,17.5,84,0.0,988.4,6.85,31.3,116,58.1,34.3,3,10,7,0,2026-03-25T05:05:37.361753+05:30
Aligarh,Uttar Pradesh,27.8974,78.088,17.7,80,0.0,987.4,6.7,25.6,346,320.4,77.8,3,5,7,0,2026-03-25T05:05:37.361762+05:30
Moradabad,Uttar Pradesh,28.8386,78.7733,17.1,84,0.0,985.0,6.7,31.0,124,70.1,38.3,3,10,7,0,2026-03-25T05:05:37.361769+05:30
Saharanpur,Uttar Pradesh,29.9637,77.546,16.1,85,0.0,976.7,6.25,31.3,123,75.7,59.1,3,10,7,0,2026-03-25T05:05:37.361775+05:30
Jhansi,Uttar Pradesh,25.4484,78.5685,21.1,67,0.0,979.4,7.6,28.4,91,157.9,31.7,3,5,7,0,2026-03-25T05:05:40.679297+05:30
Surat,Gujarat,21.1702,72.8311,26.0,82,0.0,1006.2,7.7,19.1,112,25.2,20.5,7,5,4,1,2026-03-25T05:05:40.679329+05:30
Vadodara,Gujarat,22.3072,73.1812,25.0,73,0.0,1004.2,7.9,17.3,83,33.6,31.9,7,5,4,1,2026-03-25T05:05:40.679339+05:30
Rajkot,Gujarat,22.3039,70.8022,23.0,93,0.0,995.0,7.6,26.3,33,15.7,7.6,3,5,7,1,2026-03-25T05:05:40.679346+05:30
Thane,Maharashtra,19.2183,72.9781,25.5,84,0.0,1007.2,7.95,34.2,95,32.7,16.4,7,5,4,1,2026-03-25T05:05:40.679353+05:30
Nagpur,Maharashtra,21.1458,79.0882,22.1,62,0.0,972.6,8.1,26.6,109,62.4,50.5,3,5,7,0,2026-03-25T05:05:40.679360+05:30
Nashik,Maharashtra,19.9975,73.7898,23.1,70,0.0,945.0,8.15,28.4,72,42.6,36.3,3,5,7,1,2026-03-25T05:05:40.679367+05:30
Aurangabad,Maharashtra,19.8762,75.3433,23.0,53,0.0,943.6,8.7,29.9,60,26.6,19.8,0,5,7,0,2026-03-25T05:05:40.679374+05:30
Solapur,Maharashtra,17.6599,75.9064,24.2,74,0.0,956.7,8.85,37.8,93,39.0,34.0,3,5,7,1,2026-03-25T05:05:40.679381+05:30
Kolhapur,Maharashtra,16.705,74.2433,20.7,95,0.0,947.2,8.8,45.4,125,85.9,76.1,3,5,7,1,2026-03-25T05:05:40.679387+05:30
Goa,Goa,15.2993,74.124,27.1,86,0.0,997.3,8.95,28.1,98,58.9,49.0,7,5,7,1,2026-03-25T05:05:40.679396+05:30
Jodhpur,Rajasthan,26.2389,73.0243,23.3,48,0.0,982.8,7.45,25.2,57,21.1,18.8,0,5,7,0,2026-03-25T05:05:40.679403+05:30
Udaipur,Rajasthan,24.5854,73.7125,21.8,51,0.0,946.5,7.55,24.5,57,39.0,16.1,0,5,7,0,2026-03-25T05:05:40.679410+05:30
Kota,Rajasthan,25.2138,75.8648,23.5,61,0.0,979.5,7.7,21.6,89,37.6,22.4,3,5,7,0,2026-03-25T05:05:40.679417+05:30
Bikaner,Rajasthan,28.0229,73.3119,23.3,43,0.0,982.2,6.15,25.6,57,100.1,20.7,0,5,7,0,2026-03-25T05:05:40.679423+05:30
Ajmer,Rajasthan,26.4499,74.6399,23.7,49,0.0,955.2,7.5,33.8,73,47.0,18.8,0,5,7,0,2026-03-25T05:05:40.679430+05:30
Gwalior,Madhya Pradesh,26.2183,78.1828,21.5,76,0.0,985.1,7.25,22.3,114,502.9,79.4,3,5,7,1,2026-03-25T05:05:40.679437+05:30
Indore,Madhya Pradesh,22.7196,75.8577,21.6,59,0.0,947.6,8.15,25.9,60,35.3,27.4,0,5,7,0,2026-03-25T05:05:40.679443+05:30
Bhopal,Madhya Pradesh,23.2599,77.4126,22.6,55,0.0,953.5,8.0,24.1,69,25.4,17.2,0,5,7,0,2026-03-25T05:05:40.679450+05:30
Jabalpur,Madhya Pradesh,23.1815,79.9864,22.1,63,0.0,961.9,8.1,22.0,70,23.1,13.7,3,5,7,0,2026-03-25T05:05:40.679456+05:30
Ujjain,Madhya Pradesh,23.1765,75.7885,21.8,62,0.0,953.3,8.05,23.0,67,45.5,37.1,3,5,7,0,2026-03-25T05:05:40.679464+05:30
Visakhapatnam,Andhra Pradesh,17.6868,83.2185,24.9,90,0.0,1004.7,8.9,36.4,81,28.8,20.9,3,5,4,1,2026-03-25T05:05:40.679471+05:30
Vijayawada,Andhra Pradesh,16.5062,80.648,24.2,92,0.0,1003.5,9.0,25.2,66,17.5,13.6,3,5,4,1,2026-03-25T05:05:40.679477+05:30
Guntur,Andhra Pradesh,16.3067,80.4365,24.0,95,0.0,1004.6,9.0,27.0,62,14.2,11.1,3,5,4,1,2026-03-25T05:05:40.679484+05:30
Nellore,Andhra Pradesh,14.4426,79.9865,24.4,89,0.0,1006.6,9.15,29.5,35,8.7,7.1,3,5,4,1,2026-03-25T05:05:40.679491+05:30
Kurnool,Andhra Pradesh,15.8281,78.0373,26.3,70,0.0,976.9,9.0,32.0,67,15.4,12.8,7,5,7,1,2026-03-25T05:05:40.679499+05:30
Kakinada,Andhra Pradesh,16.9891,82.2475,23.2,93,0.0,1008.7,8.95,26.3,52,23.9,14.2,3,0,4,1,2026-03-25T05:05:40.679506+05:30
Tirupati,Andhra Pradesh,13.6288,79.4192,22.3,90,0.0,992.4,9.25,30.2,58,17.2,15.5,3,5,7,1,2026-03-25T05:05:40.679512+05:30
Warangal,Telangana,17.9689,79.5941,23.8,84,0.0,978.8,8.85,24.5,84,16.2,14.0,3,5,7,1,2026-03-25T05:05:40.679518+05:30
Nizamabad,Telangana,18.6725,78.0941,24.4,70,0.0,964.5,8.75,23.8,100,41.4,35.9,3,5,7,1,2026-03-25T05:05:40.679524+05:30
Mysore,Karnataka,12.2958,76.6396,22.4,86,0.0,927.8,9.45,40.0,90,41.6,38.2,3,5,7,1,2026-03-25T05:05:40.679531+05:30
Mangalore,Karnataka,12.9141,74.856,29.2,78,0.0,1006.0,9.1,25.2,99,49.0,39.2,7,5,4,1,2026-03-25T05:05:40.679538+05:30
Hubli-Dharwad,Karnataka,15.3647,75.124,21.6,95,0.0,940.2,9.1,32.0,113,70.5,61.7,3,5,7,1,2026-03-25T05:05:40.679545+05:30
Belgaum,Karnataka,15.8497,74.4977,20.9,96,0.0,924.8,9.05,29.9,103,72.2,62.6,3,5,7,1,2026-03-25T05:05:43.990546+05:30
Coimbatore,Tamil Nadu,11.0168,76.9558,23.1,85,0.0,961.7,9.4,37.4,60,15.7,15.3,3,5,7,1,2026-03-25T05:05:43.990616+05:30
Madurai,Tamil Nadu,9.9252,78.1198,24.9,87,0.0,993.4,9.4,25.9,51,27.8,26.7,3,5,7,1,2026-03-25T05:05:43.990628+05:30
Trichy,Tamil Nadu,10.7905,78.7047,24.1,96,0.0,1000.5,9.3,23.8,51,20.8,18.6,3,5,4,1,2026-03-25T05:05:43.990637+05:30
Salem,Tamil Nadu,11.6643,78.146,24.2,86,0.0,977.8,9.35,33.1,76,29.7,28.9,3,5,7,1,2026-03-25T05:05:43.990644+05:30
Tirunelveli,Tamil Nadu,8.7139,77.7567,25.5,80,0.0,1003.3,9.35,38.5,40,16.9,15.3,7,5,4,1,2026-03-25T05:05:43.990651+05:30
Vellore,Tamil Nadu,12.9165,79.1325,22.3,94,0.0,985.4,9.3,32.4,56,30.2,28.5,3,5,7,1,2026-03-25T05:05:43.990659+05:30
Erode,Tamil Nadu,11.341,77.7172,25.1,86,0.0,989.6,9.35,25.2,52,13.7,12.3,7,5,7,1,2026-03-25T05:05:43.990666+05:30
Kochi,Kerala,9.9312,76.2673,27.3,86,0.0,1008.1,9.2,32.0,86,30.9,28.5,7,0,4,1,2026-03-25T05:05:43.990673+05:30
Thiruvananthapuram,Kerala,8.5241,76.9366,27.4,84,0.0,1007.2,9.2,30.2,66,23.7,16.5,7,5,4,1,2026-03-25T05:05:43.990680+05:30
Kozhikode,Kerala,11.2588,75.7804,28.4,82,0.0,1007.2,9.1,34.6,83,49.0,36.2,7,5,4,1,2026-03-25T05:05:43.990687+05:30
Thrissur,Kerala,10.5276,76.2144,26.0,86,0.0,1006.5,9.15,38.2,85,40.2,36.1,7,5,4,1,2026-03-25T05:05:43.990694+05:30
Kannur,Kerala,11.8745,75.3704,27.8,78,0.0,1006.4,9.1,28.1,97,47.5,39.8,7,5,4,1,2026-03-25T05:05:43.990701+05:30
Patna,Bihar,25.5941,85.1376,21.6,73,0.0,1001.9,7.7,30.2,142,48.8,33.4,3,5,4,1,2026-03-25T05:05:43.990708+05:30
Gaya,Bihar,24.7914,85.0002,21.4,75,0.0,995.4,8.05,23.4,117,77.1,55.6,3,5,7,1,2026-03-25T05:05:43.990714+05:30
Muzaffarpur,Bihar,26.1209,85.3647,19.8,83,0.0,1001.9,7.5,25.6,150,48.7,36.1,3,10,4,1,2026-03-25T05:05:43.990720+05:30
Bhagalpur,Bihar,25.2425,87.0117,20.7,89,0.0,1002.5,8.0,24.5,152,92.4,72.9,3,5,4,1,2026-03-25T05:05:43.990727+05:30
Ranchi,Jharkhand,23.3441,85.3096,20.4,66,0.0,938.4,8.4,32.8,100,53.2,33.5,3,5,7,0,2026-03-25T05:05:43.990734+05:30
Jamshedpur,Jharkhand,22.8046,86.2029,24.3,81,0.0,992.0,8.55,27.4,138,87.3,71.5,3,5,7,1,2026-03-25T05:05:43.990741+05:30
Dhanbad,Jharkhand,23.7957,86.4304,21.7,77,0.0,980.7,8.45,28.4,161,84.5,65.7,3,5,7,1,2026-03-25T05:05:43.990747+05:30
Bokaro,Jharkhand,23.6693,86.1511,22.0,79,0.0,985.2,8.4,28.8,154,83.6,63.1,3,5,7,1,2026-03-25T05:05:43.990754+05:30
Bhubaneswar,Odisha,20.2961,85.8245,24.9,89,0.0,1003.6,8.75,27.4,75,21.2,15.2,3,5,4,1,2026-03-25T05:05:43.990761+05:30
Cuttack,Odisha,20.4625,85.8828,25.1,89,0.0,1005.6,8.8,27.4,75,21.2,15.2,7,5,4,1,2026-03-25T05:05:43.990767+05:30
Rourkela,Odisha,22.2604,84.8536,23.2,89,0.0,986.3,8.25,18.4,132,75.9,60.5,3,5,7,1,2026-03-25T05:05:43.990773+05:30
Raipur,Chhattisgarh,21.2514,81.6296,24.8,57,0.0,975.0,7.95,45.0,136,77.8,69.6,0,5,7,0,2026-03-25T05:05:43.990779+05:30
Bhilai,Chhattisgarh,21.1938,81.3509,24.6,60,0.0,975.4,8.2,39.2,115,59.6,52.6,0,5,7,1,2026-03-25T05:05:43.990785+05:30
Guwahati,Assam,26.1158,91.7086,20.5,94,0.0,1003.8,7.8,28.1,124,40.9,34.2,3,5,4,1,2026-03-25T05:05:43.990792+05:30
Agartala,Tripura,23.8315,91.2868,21.3,91,0.0,1008.1,8.2,28.8,161,69.4,61.9,3,0,4,1,2026-03-25T05:05:43.990799+05:30
Shillong,Meghalaya,25.5788,91.8933,11.8,92,0.0,854.8,7.4,57.6,101,50.5,39.3,3,10,7,0,2026-03-25T05:05:43.990805+05:30
Imphal,Manipur,24.817,93.9368,13.8,88,0.0,923.6,8.45,72.4,107,58.9,52.7,3,10,7,0,2026-03-25T05:05:43.990812+05:30
Aizawl,Mizoram,23.7271,92.7176,13.7,80,0.0,892.3,8.4,38.2,121,47.7,41.2,3,5,7,0,2026-03-25T05:05:43.990818+05:30
Kohima,Nagaland,25.6701,94.1077,12.6,74,0.0,853.7,8.05,74.2,83,36.9,33.5,3,5,7,0,2026-03-25T05:05:43.990824+05:30
Gangtok,Sikkim,27.3314,88.6138,10.9,79,0.0,834.7,8.2,18.7,83,20.8,15.1,3,5,7,0,2026-03-25T05:05:43.990830+05:30
Siliguri,West Bengal,26.7271,88.3953,17.1,83,0.0,995.3,7.9,25.6,155,81.0,63.3,3,10,7,0,2026-03-25T05:05:47.336611+05:30
Durgapur,West Bengal,23.5204,87.3119,23.6,93,0.0,996.1,8.35,23.0,154,96.6,83.4,3,5,7,1,2026-03-25T05:05:47.336642+05:30
Asansol,West Bengal,23.6739,86.9524,24.1,89,0.0,994.5,8.4,22.3,153,74.7,58.0,3,5,7,1,2026-03-25T05:05:47.336652+05:30
Pondicherry,Puducherry,11.9139,79.8145,23.8,96,0.0,1009.2,9.2,29.5,33,13.4,9.5,3,0,4,1,2026-03-25T05:05:47.336659+05:30
Port Blair,Andaman and Nicobar Islands,11.6234,92.7265,27.3,77,0.0,1006.5,9.15,23.0,64,24.7,18.6,7,5,4,1,2026-03-25T05:05:47.336667+05:30
Haridwar,Uttarakhand,29.9457,78.1642,15.7,89,0.0,975.2,6.3,28.1,88,42.4,39.7,3,10,7,0,2026-03-25T05:05:47.336675+05:30
Rishikesh,Uttarakhand,30.0869,78.2676,17.0,77,0.0,967.8,6.3,24.8,76,37.4,33.8,3,5,7,0,2026-03-25T05:05:47.336682+05:30
Nainital,Uttarakhand,29.3919,79.4542,13.8,65,0.0,803.9,7.3,33.5,84,28.9,26.7,3,5,7,0,2026-03-25T05:05:47.336690+05:30
Mussoorie,Uttarakhand,30.4599,78.0664,11.7,73,0.0,800.0,6.85,26.3,72,29.5,27.5,3,5,7,0,2026-03-25T05:05:47.336697+05:30
Dharamshala,Himachal Pradesh,32.219,76.3234,15.5,58,0.0,867.4,6.7,21.6,64,15.6,7.1,0,5,7,0,2026-03-25T05:05:47.336704+05:30
Dalhousie,Himachal Pradesh,32.5387,75.971,11.7,56,0.0,800.7,7.15,20.5,69,25.4,21.0,0,5,7,0,2026-03-25T05:05:47.336711+05:30
Patiala,Punjab,30.3398,76.3869,16.4,88,0.0,979.3,6.4,24.8,153,63.8,55.3,3,10,7,0,2026-03-25T05:05:47.336718+05:30
Bhatinda,Punjab,30.211,74.9455,18.7,81,0.0,984.7,6.0,25.9,141,70.8,68.9,3,10,3,0,2026-03-25T05:05:47.336725+05:30
Rohtak,Haryana,28.8955,76.6066,17.5,80,0.0,983.2,6.5,22.0,374,370.7,89.6,3,5,7,0,2026-03-25T05:05:47.336732+05:30
Panipat,Haryana,29.3909,76.9635,16.8,85,0.0,981.8,6.4,26.6,633,359.5,75.9,3,10,7,0,2026-03-25T05:05:47.336738+05:30
Mathura,Uttar Pradesh,27.4924,77.6737,18.6,76,0.0,988.6,6.85,18.0,411,642.6,118.3,3,5,7,0,2026-03-25T05:05:47.336745+05:30
Vrindavan,Uttar Pradesh,27.5823,77.7027,18.2,78,0.0,989.1,6.8,20.9,411,642.6,118.3,3,5,7,0,2026-03-25T05:05:47.336752+05:30
Ayodhya,Uttar Pradesh,26.7922,82.1998,19.8,75,0.0,996.8,7.25,34.6,96,122.5,46.7,3,5,7,0,2026-03-25T05:05:47.336758+05:30
Ratlam,Madhya Pradesh,23.3315,75.0367,24.2,51,0.0,954.1,8.05,25.9,64,42.0,35.0,0,5,7,0,2026-03-25T05:05:47.336764+05:30
Sagar,Madhya Pradesh,23.8388,78.7378,21.5,58,0.0,950.4,7.95,27.7,66,39.0,18.6,0,5,7,0,2026-03-25T05:05:47.336771+05:30
Satna,Madhya Pradesh,24.6005,80.8322,21.7,57,0.0,972.7,7.85,25.2,76,163.0,32.6,0,5,7,0,2026-03-25T05:05:47.336777+05:30
Akola,Maharashtra,20.7002,77.0082,23.0,67,0.0,974.7,8.45,24.1,66,16.0,11.9,3,5,7,1,2026-03-25T05:05:47.336784+05:30
Amravati,Maharashtra,20.9374,77.7796,22.7,72,0.0,966.7,8.2,23.0,74,23.2,18.9,3,5,7,1,2026-03-25T05:05:47.336791+05:30
Latur,Maharashtra,18.4088,76.5604,21.6,85,0.0,939.6,8.75,27.4,103,44.6,38.8,3,5,7,1,2026-03-25T05:05:47.336797+05:30
Nanded,Maharashtra,19.1383,77.3091,23.7,79,0.0,968.7,8.65,22.0,92,45.9,40.4,3,5,7,1,2026-03-25T05:05:47.336803+05:30
Gulbarga,Karnataka,17.3297,76.8343,24.1,80,0.0,958.7,8.85,27.7,96,48.2,40.9,3,5,7,1,2026-03-25T05:05:47.336809+05:30
Bidar,Karnataka,17.9104,77.5199,22.8,77,0.0,935.0,8.85,22.7,93,42.7,36.2,3,5,7,1,2026-03-25T05:05:47.336816+05:30
Hospet,Karnataka,15.2689,76.3909,25.1,83,0.0,955.6,9.1,22.0,102,68.0,60.8,7,5,7,1,2026-03-25T05:05:47.336822+05:30
Tirupur,Tamil Nadu,11.1085,77.3411,25.0,84,0.0,975.5,9.4,30.6,60,12.8,12.0,7,5,7,1,2026-03-25T05:05:47.336829+05:30
Alappuzha,Kerala,9.4981,76.3388,27.0,85,0.0,1008.3,9.15,26.6,81,32.4,26.4,7,0,4,1,2026-03-25T05:05:47.336835+05:30
Munnar,Kerala,10.0889,77.0595,17.5,87,0.0,854.7,9.65,30.2,59,17.6,16.7,3,10,7,0,2026-03-25T05:05:47.336842+05:30
Silchar,Assam,24.8333,92.7789,20.3,84,0.0,1007.0,8.15,28.4,157,89.2,77.8,3,5,4,1,2026-03-25T05:05:47.336849+05:30
Dibrugarh,Assam,27.4728,94.912,19.4,90,0.0,998.4,6.75,23.4,75,26.9,20.4,3,10,7,1,2026-03-25T05:05:47.336855+05:30
