city,state,latitude,longitude,temp,humidity,rain,pressure,uv_index,wind_gusts,aqi,pm10,pm2_5,no2,co,o3,so2,mosquito_risk,arthritis_risk,migraine_risk,frizz_risk,updated_at
Delhi,Delhi,28.6139,77.209,31.1,66,0.0,976.5,5.25,28.4,557,275.7,106.6,62.9,272.0,14.0,28.4,3,5,3,1,2026-07-19T03:23:25.986952+05:30
Mumbai,Maharashtra,19.076,72.8777,25.6,94,0.1,1005.9,7.65,39.6,61,31.5,15.0,6.3,160.0,44.0,4.9,10,5,4,1,2026-07-19T03:23:25.987010+05:30
Bangalore,Karnataka,12.9716,77.5946,20.6,91,0.0,910.6,6.35,47.5,52,9.8,7.0,12.3,174.0,29.0,4.0,3,5,7,1,2026-07-19T03:23:25.987027+05:30
Hyderabad,Telangana,17.385,78.4867,24.0,89,0.0,950.6,8.0,41.8,49,5.7,4.9,8.6,176.0,42.0,4.4,3,5,7,1,2026-07-19T03:23:25.987038+05:30
Chennai,Tamil Nadu,13.0827,80.2707,25.8,84,0.0,1005.6,7.7,33.5,73,30.0,20.0,20.3,214.0,39.0,8.8,7,5,4,1,2026-07-19T03:23:25.987049+05:30
Kolkata,West Bengal,22.5726,88.3639,26.9,91,0.0,1001.1,7.4,33.8,61,19.5,15.4,5.7,201.0,94.0,4.4,7,5,4,1,2026-07-19T03:23:25.987058+05:30
Pune,Maharashtra,18.5204,73.8567,22.9,90,0.0,945.4,6.45,46.8,30,2.3,2.2,8.5,125.0,31.0,5.8,3,5,7,1,2026-07-19T03:23:25.987067+05:30
Ahmedabad,Gujarat,23.0225,72.5714,27.6,83,0.0,997.7,6.95,40.7,63,27.0,15.3,7.9,160.0,38.0,3.9,7,5,7,1,2026-07-19T03:23:25.987075+05:30
Jaipur,Rajasthan,26.9124,75.7873,31.0,58,0.0,954.6,7.8,32.8,185,334.3,66.4,15.4,202.0,40.0,4.8,0,5,7,1,2026-07-19T03:23:25.987083+05:30
Lucknow,Uttar Pradesh,26.8467,80.9462,27.4,92,0.0,988.3,7.2,22.7,165,43.9,37.6,16.0,333.0,66.0,8.1,7,5,7,1,2026-07-19T03:23:25.987096+05:30
Kanpur,Uttar Pradesh,26.4499,80.3319,28.0,89,0.0,986.4,2.55,19.8,162,102.2,61.9,17.2,263.0,63.0,10.1,7,5,3,1,2026-07-19T03:23:25.987105+05:30
Chandigarh,Chandigarh,30.7333,76.7794,28.6,82,0.0,963.0,6.3,28.1,157,97.3,72.9,42.8,344.0,34.0,13.0,7,5,7,1,2026-07-19T03:23:25.987113+05:30
Srinagar,Jammu and Kashmir,34.0837,74.7973,24.3,77,0.0,838.2,9.0,25.2,97,46.4,41.7,34.7,714.0,19.0,3.2,3,5,7,1,2026-07-19T03:23:25.987121+05:30
Jammu,Jammu and Kashmir,32.7266,74.857,27.3,93,0.2,966.5,8.6,29.9,151,86.1,58.0,34.0,269.0,42.0,5.1,10,5,7,1,2026-07-19T03:23:25.987130+05:30
Amritsar,Punjab,31.634,74.8723,29.6,84,0.0,973.6,7.25,29.9,171,114.3,83.6,34.9,1084.0,44.0,6.8,7,5,7,1,2026-07-19T03:23:25.987138+05:30
Ludhiana,Punjab,30.901,75.8573,30.6,78,0.0,971.9,6.05,31.3,178,250.5,112.9,35.5,1296.0,41.0,14.2,3,5,7,1,2026-07-19T03:23:25.987145+05:30
Jalandhar,Punjab,31.326,75.5762,30.2,78,0.0,972.8,7.3,31.7,177,133.2,88.2,32.3,999.0,52.0,13.3,3,5,7,1,2026-07-19T03:23:25.987155+05:30
Dehradun,Uttarakhand,30.6284,78.0322,19.5,98,0.6,827.6,6.8,26.6,75,48.3,23.1,6.6,198.0,107.0,5.8,6,10,7,1,2026-07-19T03:23:25.987164+05:30
Shimla,Himachal Pradesh,31.1048,77.1734,17.3,96,0.1,782.7,4.95,40.7,87,42.0,17.9,6.9,212.0,110.0,7.8,6,10,3,1,2026-07-19T03:23:25.987172+05:30
Manali,Himachal Pradesh,32.2396,77.1887,21.0,96,0.0,817.6,5.45,32.8,52,15.7,13.1,15.7,299.0,44.0,0.1,3,5,3,1,2026-07-19T03:23:25.987183+05:30
Gurgaon,Haryana,28.4595,77.0266,30.6,68,0.0,974.9,6.6,28.4,503,294.3,91.5,35.8,261.0,34.0,12.4,3,5,7,1,2026-07-19T03:23:25.987191+05:30
Noida,Uttar Pradesh,28.5355,77.391,30.1,72,0.0,978.0,5.3,27.7,503,294.3,91.5,35.8,334.0,34.0,12.4,3,5,3,1,2026-07-19T03:23:25.987199+05:30
Ghaziabad,Uttar Pradesh,28.6692,77.4538,29.3,79,0.0,976.3,5.1,27.7,482,311.1,121.5,46.6,471.0,20.0,16.4,7,5,3,1,2026-07-19T03:23:25.987206+05:30
Faridabad,Haryana,28.4089,77.3178,30.8,68,0.0,977.3,5.3,22.0,503,294.3,91.5,35.8,299.0,34.0,12.4,3,5,3,1,2026-07-19T03:23:25.987214+05:30
Meerut,Uttar Pradesh,28.9845,77.7064,28.6,87,0.0,975.5,5.65,29.9,482,311.1,121.5,46.6,707.0,20.0,16.4,7,5,3,1,2026-07-19T03:23:25.987222+05:30
Agra,Uttar Pradesh,27.1767,78.0081,30.5,64,0.0,981.7,5.25,27.7,167,443.3,123.9,42.2,371.0,36.0,14.7,3,5,3,1,2026-07-19T03:23:25.987229+05:30
Varanasi,Uttar Pradesh,25.3176,82.9739,26.8,97,0.0,992.0,6.55,22.3,149,51.6,45.5,14.5,473.0,79.0,8.5,7,5,7,1,2026-07-19T03:23:25.987238+05:30
Prayagraj,Uttar Pradesh,25.4358,81.8463,27.7,97,0.3,990.9,3.8,28.8,154,50.9,43.9,15.6,216.0,76.0,6.9,10,5,3,1,2026-07-19T03:23:25.987246+05:30
Gorakhpur,Uttar Pradesh,26.7606,83.3732,26.3,97,0.4,992.7,5.4,21.2,82,32.8,32.7,15.9,338.0,64.0,5.5,10,5,3,1,2026-07-19T03:23:25.987253+05:30
Bareilly,Uttar Pradesh,28.367,79.4304,26.6,96,0.0,981.7,6.6,29.2,162,105.5,65.7,13.6,319.0,91.0,11.8,7,5,7,1,2026-07-19T03:23:25.987263+05:30
Aligarh,Uttar Pradesh,27.8974,78.088,29.6,76,0.0,979.3,6.4,25.6,309,334.3,120.6,30.8,438.0,48.0,14.4,7,5,7,1,2026-07-19T03:23:25.987271+05:30
Moradabad,Uttar Pradesh,28.8386,78.7733,27.1,93,0.0,978.4,7.7,33.8,172,90.1,59.8,12.4,323.0,101.0,15.9,7,5,7,1,2026-07-19T03:23:25.987279+05:30
Saharanpur,Uttar Pradesh,29.9637,77.546,28.1,90,0.0,970.1,7.25,28.8,188,173.7,82.0,16.8,305.0,64.0,11.1,7,5,7,1,2026-07-19T03:23:25.987288+05:30
Jhansi,Uttar Pradesh,25.4484,78.5685,26.4,90,0.0,973.1,4.4,35.3,88,53.2,32.5,10.1,193.0,67.0,5.1,7,5,3,1,2026-07-19T03:23:29.345374+05:30
Surat,Gujarat,21.1702,72.8311,26.3,89,0.1,1003.0,7.55,41.4,70,30.9,20.0,21.9,300.0,25.0,35.0,10,5,4,1,2026-07-19T03:23:29.345408+05:30
Vadodara,Gujarat,22.3072,73.1812,26.7,93,0.0,1000.2,6.2,38.2,64,19.4,13.8,16.5,149.0,29.0,12.1,7,5,4,1,2026-07-19T03:23:29.345419+05:30
Rajkot,Gujarat,22.3039,70.8022,26.3,87,0.0,989.7,6.4,41.4,59,24.0,13.3,5.7,99.0,40.0,4.8,7,5,7,1,2026-07-19T03:23:29.345428+05:30
Thane,Maharashtra,19.2183,72.9781,24.4,99,0.2,1005.3,7.4,37.1,61,31.5,15.0,6.3,157.0,44.0,4.9,6,5,4,1,2026-07-19T03:23:29.345437+05:30
Nagpur,Maharashtra,21.1458,79.0882,25.2,89,0.0,969.7,5.25,32.8,64,23.9,16.5,15.2,186.0,42.0,17.8,7,5,3,1,2026-07-19T03:23:29.345445+05:30
Nashik,Maharashtra,19.9975,73.7898,22.0,98,0.0,942.1,6.2,45.0,28,5.9,3.8,10.6,130.0,31.0,9.3,3,5,7,1,2026-07-19T03:23:29.345453+05:30
Aurangabad,Maharashtra,19.8762,75.3433,22.7,97,0.1,941.0,8.2,38.9,41,4.4,3.8,10.0,144.0,32.0,8.4,6,5,7,1,2026-07-19T03:23:29.345461+05:30
Solapur,Maharashtra,17.6599,75.9064,23.9,94,0.0,955.1,7.55,38.5,39,4.9,4.3,9.0,161.0,28.0,2.1,3,5,7,1,2026-07-19T03:23:29.345469+05:30
Kolhapur,Maharashtra,16.705,74.2433,22.4,94,0.0,946.2,6.25,46.1,30,5.2,3.6,3.8,116.0,40.0,1.9,3,5,7,1,2026-07-19T03:23:29.345477+05:30
Goa,Goa,15.2993,74.124,24.7,92,0.0,997.3,6.7,30.6,63,32.6,18.7,4.7,297.0,39.0,1.8,3,5,7,1,2026-07-19T03:23:29.345485+05:30
Jodhpur,Rajasthan,26.2389,73.0243,30.4,57,0.0,977.4,7.7,41.8,118,67.3,22.5,7.7,128.0,47.0,2.4,0,5,7,1,2026-07-19T03:23:29.345521+05:30
Udaipur,Rajasthan,24.5854,73.7125,25.1,82,0.0,942.0,7.0,29.2,71,27.8,17.5,11.4,141.0,50.0,10.8,7,5,7,1,2026-07-19T03:23:29.345530+05:30
Kota,Rajasthan,25.2138,75.8648,30.5,59,0.0,973.7,8.1,28.8,86,30.2,20.2,7.7,167.0,72.0,6.7,0,5,7,1,2026-07-19T03:23:29.345538+05:30
Bikaner,Rajasthan,28.0229,73.3119,31.9,51,0.0,975.5,8.4,39.6,123,136.0,40.6,2.6,113.0,58.0,2.1,0,5,7,1,2026-07-19T03:23:29.345546+05:30
Ajmer,Rajasthan,26.4499,74.6399,28.5,61,0.0,949.7,7.7,40.7,79,30.6,18.9,10.6,145.0,44.0,4.3,7,5,7,1,2026-07-19T03:23:29.345554+05:30
Gwalior,Madhya Pradesh,26.2183,78.1828,28.9,72,0.0,977.8,6.1,39.2,106,89.2,41.4,29.3,162.0,21.0,4.9,7,5,7,1,2026-07-19T03:23:29.345563+05:30
Indore,Madhya Pradesh,22.7196,75.8577,24.9,86,0.0,944.2,8.5,44.3,71,19.3,15.5,9.2,185.0,60.0,8.6,3,5,7,1,2026-07-19T03:23:29.345589+05:30
Bhopal,Madhya Pradesh,23.2599,77.4126,25.1,91,0.0,949.5,7.85,30.2,82,36.0,24.3,8.5,268.0,56.0,5.1,7,5,7,1,2026-07-19T03:23:29.345606+05:30
Jabalpur,Madhya Pradesh,23.1815,79.9864,24.8,97,0.1,957.6,1.25,28.4,88,40.9,25.6,7.2,199.0,69.0,3.1,6,5,3,1,2026-07-19T03:23:29.345619+05:30
Ujjain,Madhya Pradesh,23.1765,75.7885,25.2,86,0.0,949.9,8.2,33.5,73,17.5,14.0,7.4,225.0,64.0,8.7,7,5,7,1,2026-07-19T03:23:29.345632+05:30
Visakhapatnam,Andhra Pradesh,17.6868,83.2185,27.2,80,0.0,998.3,8.1,38.9,90,44.4,34.8,37.4,284.0,38.0,37.8,7,5,7,1,2026-07-19T03:23:29.345644+05:30
Vijayawada,Andhra Pradesh,16.5062,80.648,27.0,82,0.0,999.2,8.5,38.5,64,25.3,19.0,13.3,190.0,33.0,5.2,7,5,7,1,2026-07-19T03:23:29.345656+05:30
Guntur,Andhra Pradesh,16.3067,80.4365,27.8,76,0.0,1000.6,8.65,45.0,61,20.6,14.3,11.5,182.0,35.0,5.2,7,5,4,1,2026-07-19T03:23:29.345669+05:30
Nellore,Andhra Pradesh,14.4426,79.9865,25.7,90,0.0,1003.9,7.85,36.0,56,20.5,11.2,8.5,154.0,48.0,6.5,7,5,4,1,2026-07-19T03:23:29.345684+05:30
Kurnool,Andhra Pradesh,15.8281,78.0373,24.1,94,0.0,975.4,5.65,43.9,52,5.9,4.7,11.3,183.0,32.0,2.2,3,5,3,1,2026-07-19T03:23:29.345700+05:30
Kakinada,Andhra Pradesh,16.9891,82.2475,27.1,88,0.0,1003.4,8.6,46.1,65,21.7,15.0,6.7,209.0,73.0,4.6,7,5,4,1,2026-07-19T03:23:29.345735+05:30
Tirupati,Andhra Pradesh,13.6288,79.4192,25.7,86,0.0,989.5,6.55,32.0,61,26.6,17.5,20.3,200.0,19.0,2.0,7,5,7,1,2026-07-19T03:23:29.345749+05:30
Warangal,Telangana,17.9689,79.5941,25.5,88,0.0,975.6,3.95,40.3,60,12.0,8.7,8.6,187.0,44.0,2.4,7,5,3,1,2026-07-19T03:23:29.345767+05:30
Nizamabad,Telangana,18.6725,78.0941,24.3,98,0.0,962.1,3.7,43.2,62,14.5,10.7,9.6,200.0,43.0,5.6,3,5,3,1,2026-07-19T03:23:29.345781+05:30
Mysore,Karnataka,12.2958,76.6396,21.0,92,0.0,928.0,4.95,48.2,38,9.0,5.7,7.1,119.0,35.0,2.1,3,5,3,1,2026-07-19T03:23:29.345794+05:30
Mangalore,Karnataka,12.9141,74.856,23.9,96,0.1,1007.1,8.25,34.2,58,19.2,13.5,12.8,195.0,22.0,3.8,6,5,4,1,2026-07-19T03:23:29.345808+05:30
Hubli-Dharwad,Karnataka,15.3647,75.124,21.9,94,0.0,939.4,7.9,58.3,23,3.5,2.4,3.9,104.0,36.0,1.3,3,5,7,1,2026-07-19T03:23:29.345823+05:30
Belgaum,Karnataka,15.8497,74.4977,21.0,98,0.2,923.9,7.75,55.1,18,2.5,1.8,3.2,109.0,40.0,1.3,6,5,7,1,2026-07-19T03:23:32.700700+05:30
Coimbatore,Tamil Nadu,11.0168,76.9558,22.8,94,0.0,961.2,8.5,46.1,46,11.8,8.6,9.4,178.0,26.0,3.0,3,5,7,1,2026-07-19T03:23:32.700733+05:30
Madurai,Tamil Nadu,9.9252,78.1198,27.9,63,0.0,992.1,8.45,24.8,65,36.9,30.4,42.6,150.0,1.0,6.5,7,5,7,1,2026-07-19T03:23:32.700745+05:30
Trichy,Tamil Nadu,10.7905,78.7047,28.2,64,0.0,998.7,8.25,34.9,54,13.1,8.9,9.0,106.0,34.0,3.6,7,5,7,1,2026-07-19T03:23:32.700754+05:30
Salem,Tamil Nadu,11.6643,78.146,25.5,90,0.0,976.6,8.0,37.8,65,24.7,17.0,19.3,238.0,24.0,7.0,7,5,7,1,2026-07-19T03:23:32.700762+05:30
Tirunelveli,Tamil Nadu,8.7139,77.7567,28.2,65,0.0,1003.0,8.05,47.5,51,7.5,5.2,4.8,145.0,39.0,2.3,7,5,4,1,2026-07-19T03:23:32.700770+05:30
Vellore,Tamil Nadu,12.9165,79.1325,26.9,67,0.0,983.1,7.85,47.5,61,30.7,22.5,27.0,148.0,14.0,4.8,7,5,7,1,2026-07-19T03:23:32.700778+05:30
Erode,Tamil Nadu,11.341,77.7172,25.9,76,0.0,988.6,8.1,42.1,55,16.1,12.0,13.9,156.0,28.0,3.8,7,5,7,1,2026-07-19T03:23:32.700786+05:30
Kochi,Kerala,9.9312,76.2673,25.1,94,0.1,1009.9,7.8,37.4,57,17.2,12.6,13.9,97.0,21.0,4.2,10,0,4,1,2026-07-19T03:23:32.700794+05:30
Thiruvananthapuram,Kerala,8.5241,76.9366,24.0,97,0.0,1009.4,7.9,41.8,56,14.8,8.3,4.1,92.0,42.0,2.1,3,0,4,1,2026-07-19T03:23:32.700801+05:30
Kozhikode,Kerala,11.2588,75.7804,24.1,96,0.0,1008.8,8.0,36.7,51,17.6,9.7,3.5,135.0,46.0,2.1,3,0,4,1,2026-07-19T03:23:32.700808+05:30
Thrissur,Kerala,10.5276,76.2144,23.8,99,0.0,1008.3,8.0,35.6,56,15.5,12.1,13.0,207.0,20.0,3.5,3,0,4,1,2026-07-19T03:23:32.700816+05:30
Kannur,Kerala,11.8745,75.3704,23.9,96,0.0,1007.9,8.5,33.8,52,17.9,12.2,14.5,211.0,18.0,2.9,3,5,4,1,2026-07-19T03:23:32.700823+05:30
Patna,Bihar,25.5941,85.1376,26.7,96,0.2,995.2,6.15,25.2,85,36.1,36.0,13.7,414.0,85.0,13.7,10,5,7,1,2026-07-19T03:23:32.700830+05:30
Gaya,Bihar,24.7914,85.0002,26.2,98,0.0,988.5,6.15,25.6,106,38.9,38.5,16.6,376.0,64.0,8.7,7,5,7,1,2026-07-19T03:23:32.700838+05:30
Muzaffarpur,Bihar,26.1209,85.3647,26.6,96,0.2,995.6,3.8,32.8,78,26.1,25.9,11.1,312.0,88.0,9.6,10,5,3,1,2026-07-19T03:23:32.700845+05:30
Bhagalpur,Bihar,25.2425,87.0117,26.7,95,0.0,996.5,4.2,22.3,78,25.5,24.6,13.6,292.0,70.0,12.7,7,5,3,1,2026-07-19T03:23:32.700853+05:30
Ranchi,Jharkhand,23.3441,85.3096,22.8,98,0.0,932.3,8.1,27.0,75,34.7,34.6,16.0,294.0,41.0,4.6,3,5,7,1,2026-07-19T03:23:32.700860+05:30
Jamshedpur,Jharkhand,22.8046,86.2029,25.8,98,0.0,985.7,7.75,37.4,98,61.7,58.0,31.4,348.0,28.0,19.9,7,5,7,1,2026-07-19T03:23:32.700868+05:30
Dhanbad,Jharkhand,23.7957,86.4304,25.9,97,0.0,974.7,7.15,27.7,152,86.4,83.1,51.5,359.0,23.0,124.6,7,5,7,1,2026-07-19T03:23:32.700875+05:30
Bokaro,Jharkhand,23.6693,86.1511,25.9,99,0.0,978.6,8.0,30.2,142,102.2,99.2,54.4,2842.0,23.0,142.7,7,5,7,1,2026-07-19T03:23:32.700882+05:30
Bhubaneswar,Odisha,20.2961,85.8245,26.1,99,0.0,997.5,8.8,34.2,67,34.7,28.7,11.9,378.0,68.0,5.0,7,5,7,1,2026-07-19T03:23:32.700890+05:30
Cuttack,Odisha,20.4625,85.8828,26.2,97,0.1,999.3,9.1,36.7,67,34.7,28.7,11.9,387.0,68.0,5.0,10,5,7,1,2026-07-19T03:23:32.700897+05:30
Rourkela,Odisha,22.2604,84.8536,25.3,99,0.0,980.0,6.7,31.7,79,44.0,38.4,13.1,318.0,59.0,7.8,7,5,7,1,2026-07-19T03:23:32.700904+05:30
Raipur,Chhattisgarh,21.2514,81.6296,24.4,98,0.2,970.6,6.8,31.3,93,34.1,24.7,22.8,357.0,55.0,31.9,6,5,7,1,2026-07-19T03:23:32.700911+05:30
Bhilai,Chhattisgarh,21.1938,81.3509,24.4,98,0.1,970.8,7.5,33.1,86,26.9,20.5,19.3,585.0,50.0,25.4,6,5,7,1,2026-07-19T03:23:32.700918+05:30
Guwahati,Assam,26.1158,91.7086,25.2,99,0.1,998.4,2.15,29.9,55,15.8,14.5,9.7,238.0,42.0,2.2,10,5,3,1,2026-07-19T03:23:32.700926+05:30
Agartala,Tripura,23.8315,91.2868,26.1,87,0.0,1003.6,7.7,43.9,58,18.8,14.0,7.3,147.0,50.0,2.3,7,5,4,1,2026-07-19T03:23:32.700933+05:30
Shillong,Meghalaya,25.5788,91.8933,20.0,94,0.1,855.3,2.7,33.5,28,2.4,2.1,4.8,166.0,49.0,1.6,6,5,3,1,2026-07-19T03:23:32.700939+05:30
Imphal,Manipur,24.817,93.9368,23.2,94,0.0,921.1,1.85,21.6,61,11.9,10.3,6.4,277.0,43.0,1.8,3,5,3,1,2026-07-19T03:23:32.700947+05:30
Aizawl,Mizoram,23.7271,92.7176,19.7,91,0.0,890.8,2.6,38.9,46,7.2,4.7,2.2,115.0,42.0,0.5,3,10,3,1,2026-07-19T03:23:32.700954+05:30
Kohima,Nagaland,25.6701,94.1077,20.0,97,0.0,853.7,1.1,18.7,39,8.0,6.5,4.8,201.0,41.0,1.0,3,5,3,1,2026-07-19T03:23:32.700961+05:30
Gangtok,Sikkim,27.3314,88.6138,18.6,98,0.2,835.7,3.15,27.0,41,4.0,3.9,4.6,274.0,90.0,1.1,6,10,3,1,2026-07-19T03:23:32.700968+05:30
Siliguri,West Bengal,26.7271,88.3953,25.0,98,4.2,989.7,0.6,23.0,58,13.2,12.5,6.2,235.0,101.0,1.8,10,5,3,1,2026-07-19T03:23:36.070097+05:30
Durgapur,West Bengal,23.5204,87.3119,26.6,97,0.0,989.9,8.2,31.7,106,39.9,37.5,26.0,274.0,49.0,30.2,7,5,7,1,2026-07-19T03:23:36.070131+05:30
Asansol,West Bengal,23.6739,86.9524,26.3,98,0.0,988.3,7.85,33.8,116,49.9,47.3,32.2,684.0,38.0,36.0,7,5,7,1,2026-07-19T03:23:36.070142+05:30
Pondicherry,Puducherry,11.9139,79.8145,27.9,81,0.0,1007.0,6.7,47.9,73,31.2,17.6,15.7,267.0,59.0,18.0,7,5,4,1,2026-07-19T03:23:36.070152+05:30
Port Blair,Andaman and Nicobar Islands,11.6234,92.7265,26.0,88,0.0,1007.0,8.8,43.2,51,19.5,9.4,0.1,95.0,51.0,0.5,7,5,4,1,2026-07-19T03:23:36.070161+05:30
Haridwar,Uttarakhand,29.9457,78.1642,26.7,95,0.2,968.9,7.4,22.0,166,142.0,65.4,11.8,247.0,69.0,7.2,10,5,7,1,2026-07-19T03:23:36.070169+05:30
Rishikesh,Uttarakhand,30.0869,78.2676,26.4,94,0.5,961.7,6.8,22.0,154,173.7,56.1,6.2,230.0,94.0,6.7,10,5,7,1,2026-07-19T03:23:36.070176+05:30
Nainital,Uttarakhand,29.3919,79.4542,18.0,100,0.1,803.4,4.95,22.0,104,73.3,29.5,4.9,254.0,118.0,5.1,6,10,3,1,2026-07-19T03:23:36.070185+05:30
Mussoorie,Uttarakhand,30.4599,78.0664,18.2,100,0.2,800.5,6.65,35.6,141,129.9,43.4,9.6,235.0,96.0,7.0,6,10,7,1,2026-07-19T03:23:36.070193+05:30
Dharamshala,Himachal Pradesh,32.219,76.3234,22.2,98,1.7,865.9,6.65,20.2,50,11.7,6.7,10.1,360.0,55.0,0.7,6,5,7,1,2026-07-19T03:23:36.070200+05:30
Dalhousie,Himachal Pradesh,32.5387,75.971,18.9,100,1.8,802.5,6.1,22.3,95,45.8,23.5,6.8,335.0,111.0,2.1,6,10,7,1,2026-07-19T03:23:36.070208+05:30
Patiala,Punjab,30.3398,76.3869,29.1,87,0.0,971.6,6.35,32.0,210,339.9,146.2,52.4,573.0,16.0,9.1,7,5,7,1,2026-07-19T03:23:36.070216+05:30
Bhatinda,Punjab,30.211,74.9455,32.4,62,0.0,976.5,5.85,28.8,177,408.9,126.7,36.7,513.0,20.0,6.1,3,5,3,1,2026-07-19T03:23:36.070223+05:30
Rohtak,Haryana,28.8955,76.6066,29.8,72,0.0,975.1,6.45,23.8,799,332.5,97.3,42.5,293.0,22.0,8.3,7,5,7,1,2026-07-19T03:23:36.070231+05:30
Panipat,Haryana,29.3909,76.9635,29.7,84,0.0,973.9,6.8,20.5,1090,841.9,168.6,45.5,320.0,16.0,10.9,7,5,7,1,2026-07-19T03:23:36.070238+05:30
Mathura,Uttar Pradesh,27.4924,77.6737,30.5,67,0.0,980.5,5.75,25.2,446,432.1,121.5,40.2,295.0,36.0,11.0,3,5,3,1,2026-07-19T03:23:36.070245+05:30
Vrindavan,Uttar Pradesh,27.5823,77.7027,30.3,69,0.0,980.8,6.8,25.2,446,432.1,121.5,40.2,353.0,36.0,11.0,3,5,7,1,2026-07-19T03:23:36.070252+05:30
Ayodhya,Uttar Pradesh,26.7922,82.1998,26.5,96,0.2,990.8,3.3,20.9,90,27.3,27.1,15.1,359.0,73.0,4.3,10,5,3,1,2026-07-19T03:23:36.070259+05:30
Ratlam,Madhya Pradesh,23.3315,75.0367,24.9,89,0.0,950.8,6.9,33.1,70,16.5,12.3,7.7,207.0,59.0,10.8,3,5,7,1,2026-07-19T03:23:36.070266+05:30
Sagar,Madhya Pradesh,23.8388,78.7378,24.4,96,0.1,946.1,4.25,33.1,85,30.7,20.3,7.2,239.0,67.0,2.8,6,5,3,1,2026-07-19T03:23:36.070273+05:30
Satna,Madhya Pradesh,24.6005,80.8322,25.9,93,0.0,966.4,6.1,32.0,109,37.8,24.2,9.4,171.0,63.0,3.0,7,5,7,1,2026-07-19T03:23:36.070280+05:30
Akola,Maharashtra,20.7002,77.0082,25.8,90,0.0,972.0,7.25,39.6,59,10.4,7.9,9.7,140.0,37.0,4.6,7,5,7,1,2026-07-19T03:23:36.070288+05:30
Amravati,Maharashtra,20.9374,77.7796,25.0,94,0.0,964.2,6.6,37.1,59,11.6,8.7,10.2,164.0,39.0,5.7,7,5,7,1,2026-07-19T03:23:36.070297+05:30
Latur,Maharashtra,18.4088,76.5604,23.3,94,0.0,937.1,5.0,37.4,47,6.3,4.8,6.9,144.0,36.0,2.5,3,5,3,1,2026-07-19T03:23:36.070304+05:30
Nanded,Maharashtra,19.1383,77.3091,24.7,93,0.0,965.9,5.1,40.7,58,11.5,8.5,7.5,164.0,50.0,2.7,3,5,3,1,2026-07-19T03:23:36.070311+05:30
Gulbarga,Karnataka,17.3297,76.8343,23.8,92,0.0,956.7,8.35,42.8,40,4.2,3.5,9.1,144.0,30.0,2.2,3,5,7,1,2026-07-19T03:23:36.070318+05:30
Bidar,Karnataka,17.9104,77.5199,22.8,96,0.1,932.9,5.95,39.6,51,7.7,5.6,7.0,147.0,46.0,1.8,6,5,3,1,2026-07-19T03:23:36.070325+05:30
Hospet,Karnataka,15.2689,76.3909,22.5,96,0.1,954.8,7.7,52.6,32,4.2,2.9,5.4,128.0,35.0,1.7,6,5,7,1,2026-07-19T03:23:36.070332+05:30
Tirupur,Tamil Nadu,11.1085,77.3411,23.3,89,0.0,974.8,8.05,47.9,57,19.7,15.3,19.0,149.0,19.0,4.7,3,5,7,1,2026-07-19T03:23:36.070338+05:30
Alappuzha,Kerala,9.4981,76.3388,24.8,94,0.0,1010.1,7.5,38.5,55,19.0,10.3,7.4,84.0,37.0,3.1,3,0,4,1,2026-07-19T03:23:36.070346+05:30
Munnar,Kerala,10.0889,77.0595,16.1,96,0.0,856.1,6.25,34.9,32,7.3,5.9,7.1,89.0,23.0,1.6,3,10,7,0,2026-07-19T03:23:36.070354+05:30
Silchar,Assam,24.8333,92.7789,25.5,95,0.1,1003.2,1.75,22.7,64,20.1,13.6,5.3,184.0,58.0,2.8,10,5,0,1,2026-07-19T03:23:36.070361+05:30
Dibrugarh,Assam,27.4728,94.912,25.2,98,0.1,992.0,3.8,33.5,58,13.2,12.3,9.0,194.0,52.0,1.1,10,5,3,1,2026-07-19T03:23:36.070367+05:30
