city,state,latitude,longitude,temp,humidity,rain,pressure,uv_index,wind_gusts,aqi,pm10,pm2_5,no2,co,o3,so2,mosquito_risk,arthritis_risk,migraine_risk,frizz_risk,updated_at
Delhi,Delhi,28.6139,77.209,36.4,42,0.0,975.2,7.75,35.3,165,273.8,108.0,41.3,539.0,73.0,27.1,0,5,10,1,2026-06-28T22:45:50.504183+05:30
Mumbai,Maharashtra,19.076,72.8777,26.1,96,0.1,1005.6,7.5,35.6,54,18.9,10.7,8.8,343.0,44.0,6.8,10,5,4,1,2026-06-28T22:45:50.504230+05:30
Bangalore,Karnataka,12.9716,77.5946,22.1,87,0.0,910.5,8.1,55.8,36,4.6,4.5,12.0,264.0,36.0,4.5,3,5,7,1,2026-06-28T22:45:50.504245+05:30
Hyderabad,Telangana,17.385,78.4867,23.7,96,0.2,950.6,8.55,41.4,55,14.5,13.5,20.5,301.0,47.0,9.4,6,5,7,1,2026-06-28T22:45:50.504255+05:30
Chennai,Tamil Nadu,13.0827,80.2707,26.0,95,0.0,1006.0,8.9,40.7,69,24.0,17.1,7.4,274.0,97.0,6.8,7,5,4,1,2026-06-28T22:45:50.504263+05:30
Kolkata,West Bengal,22.5726,88.3639,28.4,91,0.0,1001.0,8.85,33.1,71,29.8,26.2,8.1,274.0,85.0,7.7,7,5,4,1,2026-06-28T22:45:50.504270+05:30
Pune,Maharashtra,18.5204,73.8567,23.6,94,0.0,945.3,6.1,43.6,38,6.3,5.8,11.7,158.0,40.0,7.5,3,5,7,1,2026-06-28T22:45:50.504277+05:30
Ahmedabad,Gujarat,23.0225,72.5714,32.8,60,0.0,996.6,7.6,34.9,70,33.1,19.5,7.9,159.0,64.0,4.6,0,5,7,1,2026-06-28T22:45:50.504284+05:30
Jaipur,Rajasthan,26.9124,75.7873,29.4,71,0.2,953.9,7.55,36.0,144,111.5,48.4,10.1,251.0,55.0,5.4,10,5,7,1,2026-06-28T22:45:50.504290+05:30
Lucknow,Uttar Pradesh,26.8467,80.9462,34.3,53,0.0,985.7,8.3,33.8,110,118.7,55.1,20.0,240.0,70.0,10.3,0,5,7,1,2026-06-28T22:45:50.504300+05:30
Kanpur,Uttar Pradesh,26.4499,80.3319,36.4,42,0.0,984.1,8.3,31.3,105,120.6,50.9,22.3,249.0,55.0,7.3,0,5,10,1,2026-06-28T22:45:50.504307+05:30
Chandigarh,Chandigarh,30.7333,76.7794,31.6,61,0.0,960.8,7.8,28.1,151,67.3,60.1,33.2,650.0,68.0,12.4,3,5,7,1,2026-06-28T22:45:50.504313+05:30
Srinagar,Jammu and Kashmir,34.0837,74.7973,25.2,59,0.0,837.0,9.1,28.1,74,44.2,41.8,30.6,666.0,20.0,1.4,4,5,7,1,2026-06-28T22:45:50.504319+05:30
Jammu,Jammu and Kashmir,32.7266,74.857,33.6,53,0.0,963.8,8.65,31.0,115,60.1,51.0,32.1,431.0,43.0,6.5,0,5,7,1,2026-06-28T22:45:50.504325+05:30
Amritsar,Punjab,31.634,74.8723,31.4,76,0.0,971.1,8.5,44.6,156,87.5,75.0,42.6,591.0,51.0,10.4,3,5,7,1,2026-06-28T22:45:50.504331+05:30
Ludhiana,Punjab,30.901,75.8573,33.6,60,0.0,969.9,8.0,60.8,163,92.4,75.7,31.8,797.0,76.0,9.9,0,5,7,1,2026-06-28T22:45:50.504353+05:30
Jalandhar,Punjab,31.326,75.5762,31.7,77,0.0,970.6,8.25,56.9,164,100.8,82.9,39.3,771.0,65.0,8.9,3,5,7,1,2026-06-28T22:45:50.504359+05:30
Dehradun,Uttarakhand,30.6284,78.0322,18.9,95,0.0,826.7,7.05,34.9,96,43.4,33.8,20.0,266.0,79.0,1.9,3,10,7,1,2026-06-28T22:45:50.504366+05:30
Shimla,Himachal Pradesh,31.1048,77.1734,16.3,91,0.0,780.9,7.5,32.0,116,51.8,44.4,23.2,409.0,50.0,0.7,3,10,7,0,2026-06-28T22:45:50.504372+05:30
Manali,Himachal Pradesh,32.2396,77.1887,18.4,80,0.0,815.4,9.05,35.3,55,15.0,13.1,77.0,287.0,23.0,0.0,3,5,7,0,2026-06-28T22:45:50.504380+05:30
Gurgaon,Haryana,28.4595,77.0266,33.4,56,0.0,973.6,7.8,37.1,175,271.0,98.0,39.7,827.0,83.0,27.8,0,5,7,1,2026-06-28T22:45:50.504387+05:30
Noida,Uttar Pradesh,28.5355,77.391,32.3,72,0.0,976.4,7.8,23.4,175,271.0,98.0,39.7,1336.0,83.0,27.8,3,5,7,1,2026-06-28T22:45:50.504393+05:30
Ghaziabad,Uttar Pradesh,28.6692,77.4538,33.3,61,0.0,974.7,7.75,26.3,165,199.8,103.4,40.3,726.0,87.0,28.1,3,5,7,1,2026-06-28T22:45:50.504398+05:30
Faridabad,Haryana,28.4089,77.3178,35.5,45,0.0,975.8,7.8,28.8,175,271.0,98.0,39.7,1047.0,83.0,27.8,0,5,10,1,2026-06-28T22:45:50.504404+05:30
Meerut,Uttar Pradesh,28.9845,77.7064,33.9,56,0.0,973.6,7.6,28.1,165,199.8,103.4,40.3,616.0,87.0,28.1,0,5,7,1,2026-06-28T22:45:50.504411+05:30
Agra,Uttar Pradesh,27.1767,78.0081,34.0,52,0.0,979.8,7.9,44.3,199,225.4,66.6,26.0,260.0,48.0,9.6,0,5,7,1,2026-06-28T22:45:50.504417+05:30
Varanasi,Uttar Pradesh,25.3176,82.9739,33.1,58,0.0,990.8,8.8,33.8,113,69.2,58.6,26.9,408.0,57.0,11.3,0,5,7,1,2026-06-28T22:45:50.504423+05:30
Prayagraj,Uttar Pradesh,25.4358,81.8463,34.0,56,0.0,988.9,8.7,34.9,105,49.4,36.2,16.0,220.0,73.0,8.7,0,5,7,1,2026-06-28T22:45:50.504429+05:30
Gorakhpur,Uttar Pradesh,26.7606,83.3732,31.0,78,0.0,990.3,8.4,33.5,154,96.9,79.6,39.2,531.0,38.0,12.0,3,5,7,1,2026-06-28T22:45:50.504435+05:30
Bareilly,Uttar Pradesh,28.367,79.4304,33.6,52,0.0,978.9,8.1,24.1,151,75.4,47.8,16.9,714.0,88.0,8.0,0,5,7,1,2026-06-28T22:45:50.504442+05:30
Aligarh,Uttar Pradesh,27.8974,78.088,33.4,63,0.0,977.3,7.35,30.6,170,224.9,94.1,49.0,589.0,31.0,12.6,3,5,7,1,2026-06-28T22:45:50.504447+05:30
Moradabad,Uttar Pradesh,28.8386,78.7733,34.0,57,0.0,975.6,7.7,28.8,163,170.0,83.4,31.2,791.0,73.0,14.0,0,5,7,1,2026-06-28T22:45:50.504454+05:30
Saharanpur,Uttar Pradesh,29.9637,77.546,32.3,65,0.0,967.8,7.45,44.3,160,130.9,93.8,34.5,624.0,102.0,22.7,3,5,7,1,2026-06-28T22:45:50.504459+05:30
Jhansi,Uttar Pradesh,25.4484,78.5685,27.5,86,0.0,972.1,3.75,47.2,73,36.0,23.1,8.1,198.0,61.0,2.9,7,5,3,1,2026-06-28T22:45:53.809655+05:30
Surat,Gujarat,21.1702,72.8311,30.4,74,0.0,1002.5,7.55,44.3,76,37.4,22.0,16.6,181.0,38.0,27.7,3,5,4,1,2026-06-28T22:45:53.809689+05:30
Vadodara,Gujarat,22.3072,73.1812,31.3,67,0.0,999.3,8.0,44.3,74,28.9,18.3,18.0,179.0,40.0,21.2,3,5,7,1,2026-06-28T22:45:53.809700+05:30
Rajkot,Gujarat,22.3039,70.8022,30.8,64,0.0,990.0,7.55,39.6,65,26.7,13.5,4.8,108.0,51.0,5.0,3,5,7,1,2026-06-28T22:45:53.809710+05:30
Thane,Maharashtra,19.2183,72.9781,25.4,97,0.0,1005.3,5.15,25.9,54,18.9,10.7,8.8,248.0,44.0,6.8,7,5,0,1,2026-06-28T22:45:53.809719+05:30
Nagpur,Maharashtra,21.1458,79.0882,28.4,81,0.0,969.3,8.85,38.9,93,37.6,32.8,15.7,299.0,67.0,15.4,7,5,7,1,2026-06-28T22:45:53.809728+05:30
Nashik,Maharashtra,19.9975,73.7898,23.9,90,0.0,942.6,7.35,36.7,49,16.5,9.4,6.1,137.0,49.0,3.2,3,5,7,1,2026-06-28T22:45:53.809738+05:30
Aurangabad,Maharashtra,19.8762,75.3433,24.6,89,0.0,941.1,6.9,28.8,60,26.5,19.3,11.5,182.0,49.0,4.0,3,5,7,1,2026-06-28T22:45:53.809747+05:30
Solapur,Maharashtra,17.6599,75.9064,24.8,95,0.1,954.8,8.55,27.7,44,9.2,7.9,6.4,172.0,69.0,1.8,6,5,7,1,2026-06-28T22:45:53.809757+05:30
Kolhapur,Maharashtra,16.705,74.2433,23.3,94,0.0,945.7,7.2,42.8,25,4.6,4.5,6.3,158.0,39.0,2.5,3,5,7,1,2026-06-28T22:45:53.809765+05:30
Goa,Goa,15.2993,74.124,24.5,99,0.1,997.1,4.55,31.3,30,13.0,8.1,2.7,230.0,51.0,1.0,6,5,3,1,2026-06-28T22:45:53.809774+05:30
Jodhpur,Rajasthan,26.2389,73.0243,34.0,41,0.0,976.6,8.4,38.9,134,228.2,51.6,5.3,144.0,55.0,1.6,0,5,7,1,2026-06-28T22:45:53.809783+05:30
Udaipur,Rajasthan,24.5854,73.7125,28.2,67,0.0,941.5,8.65,28.1,67,33.4,17.6,5.1,152.0,63.0,2.1,7,5,7,1,2026-06-28T22:45:53.809792+05:30
Kota,Rajasthan,25.2138,75.8648,31.3,61,0.0,972.9,8.3,36.7,74,25.7,17.8,8.4,229.0,58.0,3.0,3,5,7,1,2026-06-28T22:45:53.809801+05:30
Bikaner,Rajasthan,28.0229,73.3119,36.1,34,0.0,973.6,8.45,37.4,122,108.0,37.4,2.5,124.0,67.0,2.4,0,5,10,1,2026-06-28T22:45:53.809809+05:30
Ajmer,Rajasthan,26.4499,74.6399,31.5,49,0.0,949.1,8.35,47.2,96,64.5,31.4,8.1,167.0,56.0,4.1,0,5,7,1,2026-06-28T22:45:53.809818+05:30
Gwalior,Madhya Pradesh,26.2183,78.1828,31.4,59,0.1,976.6,8.25,52.2,85,94.3,42.0,8.1,174.0,60.0,4.3,3,5,7,1,2026-06-28T22:45:53.809827+05:30
Indore,Madhya Pradesh,22.7196,75.8577,26.5,76,0.0,943.8,8.3,34.6,86,49.6,36.2,18.4,367.0,47.0,7.6,7,5,7,1,2026-06-28T22:45:53.809835+05:30
Bhopal,Madhya Pradesh,23.2599,77.4126,27.6,82,0.0,949.2,8.5,37.1,86,36.2,27.6,7.4,325.0,74.0,4.4,7,5,7,1,2026-06-28T22:45:53.809844+05:30
Jabalpur,Madhya Pradesh,23.1815,79.9864,29.7,69,0.0,956.7,8.85,25.6,80,29.5,25.8,7.9,273.0,82.0,3.4,7,5,7,1,2026-06-28T22:45:53.809853+05:30
Ujjain,Madhya Pradesh,23.1765,75.7885,27.0,76,0.0,949.3,8.5,37.1,80,45.3,35.0,13.2,366.0,47.0,4.3,7,5,7,1,2026-06-28T22:45:53.809863+05:30
Visakhapatnam,Andhra Pradesh,17.6868,83.2185,28.4,90,0.0,1000.2,8.25,46.1,77,33.5,26.8,20.9,300.0,86.0,33.8,7,5,4,1,2026-06-28T22:45:53.809871+05:30
Vijayawada,Andhra Pradesh,16.5062,80.648,29.3,80,0.1,999.4,7.45,40.3,76,22.4,19.6,8.1,306.0,79.0,5.5,10,5,7,1,2026-06-28T22:45:53.809880+05:30
Guntur,Andhra Pradesh,16.3067,80.4365,28.2,85,0.0,1000.8,6.6,44.3,71,17.5,15.6,8.1,372.0,77.0,3.8,7,5,4,1,2026-06-28T22:45:53.809889+05:30
Nellore,Andhra Pradesh,14.4426,79.9865,27.1,94,0.1,1004.1,8.1,33.1,71,17.9,14.3,5.6,211.0,89.0,4.6,10,5,4,1,2026-06-28T22:45:53.809898+05:30
Kurnool,Andhra Pradesh,15.8281,78.0373,25.4,93,0.1,974.9,7.65,55.8,37,6.8,6.7,10.5,152.0,44.0,6.8,10,5,7,1,2026-06-28T22:45:53.809908+05:30
Kakinada,Andhra Pradesh,16.9891,82.2475,28.5,89,0.0,1004.0,6.85,37.4,77,30.9,22.8,3.0,267.0,117.0,4.4,7,5,4,1,2026-06-28T22:45:53.809916+05:30
Tirupati,Andhra Pradesh,13.6288,79.4192,26.0,94,0.2,989.8,8.75,37.4,54,15.7,12.1,11.7,227.0,58.0,2.3,10,5,7,1,2026-06-28T22:45:53.809925+05:30
Warangal,Telangana,17.9689,79.5941,26.5,89,0.0,975.2,8.2,25.9,72,34.7,31.0,15.3,286.0,50.0,4.1,7,5,7,1,2026-06-28T22:45:53.809933+05:30
Nizamabad,Telangana,18.6725,78.0941,25.8,93,0.0,961.7,8.4,36.0,84,24.5,21.0,11.6,235.0,66.0,3.4,7,5,7,1,2026-06-28T22:45:53.809942+05:30
Mysore,Karnataka,12.2958,76.6396,22.5,89,0.0,927.9,7.45,56.2,25,3.4,3.3,6.9,127.0,38.0,2.0,3,5,7,1,2026-06-28T22:45:53.809950+05:30
Mangalore,Karnataka,12.9141,74.856,24.8,95,0.4,1006.9,8.1,45.0,34,11.1,7.4,4.1,160.0,45.0,1.5,6,5,4,1,2026-06-28T22:45:53.809976+05:30
Hubli-Dharwad,Karnataka,15.3647,75.124,22.8,94,0.0,939.1,7.75,40.3,22,2.8,2.5,4.8,124.0,42.0,1.5,3,5,7,1,2026-06-28T22:45:53.809985+05:30
Belgaum,Karnataka,15.8497,74.4977,21.6,97,0.0,923.7,7.2,45.0,22,2.9,2.4,3.8,119.0,44.0,1.2,3,5,7,1,2026-06-28T22:45:57.130502+05:30
Coimbatore,Tamil Nadu,11.0168,76.9558,23.6,91,0.0,961.0,8.9,60.8,25,4.2,3.6,5.3,169.0,38.0,2.3,3,5,7,1,2026-06-28T22:45:57.130535+05:30
Madurai,Tamil Nadu,9.9252,78.1198,28.7,67,0.0,992.1,8.8,57.6,63,18.2,15.5,25.0,140.0,18.0,5.8,7,5,7,1,2026-06-28T22:45:57.130546+05:30
Trichy,Tamil Nadu,10.7905,78.7047,26.5,95,0.0,999.1,8.65,49.3,47,16.8,12.8,12.8,112.0,53.0,3.7,7,5,7,1,2026-06-28T22:45:57.130554+05:30
Salem,Tamil Nadu,11.6643,78.146,26.1,93,0.0,976.6,8.85,43.6,53,12.7,10.5,12.5,324.0,45.0,6.7,7,5,7,1,2026-06-28T22:45:57.130562+05:30
Tirunelveli,Tamil Nadu,8.7139,77.7567,29.2,63,0.0,1002.6,8.65,46.4,30,4.1,3.5,5.2,141.0,38.0,1.4,7,5,4,1,2026-06-28T22:45:57.130570+05:30
Vellore,Tamil Nadu,12.9165,79.1325,25.7,96,0.0,983.2,8.95,31.0,56,15.3,12.7,10.1,184.0,56.0,3.0,7,5,7,1,2026-06-28T22:45:57.130577+05:30
Erode,Tamil Nadu,11.341,77.7172,26.7,76,0.0,988.5,8.85,51.1,41,9.3,8.5,12.9,160.0,33.0,3.2,7,5,7,1,2026-06-28T22:45:57.130585+05:30
Kochi,Kerala,9.9312,76.2673,25.5,93,0.2,1010.1,8.55,43.9,44,10.9,8.4,9.4,117.0,31.0,3.1,10,0,4,1,2026-06-28T22:45:57.130593+05:30
Thiruvananthapuram,Kerala,8.5241,76.9366,24.3,97,0.1,1009.2,7.65,46.8,35,10.7,6.0,2.6,154.0,51.0,1.0,6,0,4,1,2026-06-28T22:45:57.130600+05:30
Kozhikode,Kerala,11.2588,75.7804,23.9,99,0.2,1008.9,8.55,39.2,32,10.7,5.8,1.0,186.0,56.0,0.6,6,0,4,1,2026-06-28T22:45:57.130607+05:30
Thrissur,Kerala,10.5276,76.2144,24.0,100,0.2,1008.4,8.55,39.2,47,12.4,10.5,8.4,186.0,31.0,2.5,6,0,4,1,2026-06-28T22:45:57.130615+05:30
Kannur,Kerala,11.8745,75.3704,24.4,98,0.3,1007.8,8.6,41.8,36,10.0,6.7,5.4,168.0,41.0,1.6,6,5,4,1,2026-06-28T22:45:57.130623+05:30
Patna,Bihar,25.5941,85.1376,30.1,86,0.2,993.8,7.55,35.3,152,71.9,64.5,22.0,312.0,89.0,12.1,6,5,7,1,2026-06-28T22:45:57.130629+05:30
Gaya,Bihar,24.7914,85.0002,31.4,67,0.1,987.6,8.6,35.6,122,63.1,59.6,21.7,291.0,74.0,12.2,6,5,7,1,2026-06-28T22:45:57.130636+05:30
Muzaffarpur,Bihar,26.1209,85.3647,28.4,92,0.0,994.0,8.2,29.5,156,63.8,58.2,18.2,375.0,98.0,9.7,7,5,7,1,2026-06-28T22:45:57.130644+05:30
Bhagalpur,Bihar,25.2425,87.0117,28.3,96,0.1,995.2,7.75,30.6,122,49.9,48.3,12.0,294.0,111.0,15.0,10,5,7,1,2026-06-28T22:45:57.130651+05:30
Ranchi,Jharkhand,23.3441,85.3096,25.7,90,0.0,933.5,9.0,31.3,116,46.1,45.3,10.1,305.0,98.0,7.3,7,5,7,1,2026-06-28T22:45:57.130658+05:30
Jamshedpur,Jharkhand,22.8046,86.2029,29.1,84,0.0,986.0,8.85,31.3,123,54.5,53.0,22.2,943.0,80.0,28.7,7,5,7,1,2026-06-28T22:45:57.130665+05:30
Dhanbad,Jharkhand,23.7957,86.4304,29.4,83,0.0,974.6,8.85,38.9,155,64.7,64.0,44.3,1433.0,70.0,117.2,7,5,7,1,2026-06-28T22:45:57.130673+05:30
Bokaro,Jharkhand,23.6693,86.1511,30.1,74,0.0,978.4,8.95,35.3,153,53.9,53.0,27.5,1246.0,81.0,70.9,3,5,7,1,2026-06-28T22:45:57.130680+05:30
Bhubaneswar,Odisha,20.2961,85.8245,27.7,95,0.0,998.2,8.35,35.3,93,35.4,34.1,12.4,177.0,91.0,8.2,7,5,7,1,2026-06-28T22:45:57.130687+05:30
Cuttack,Odisha,20.4625,85.8828,28.1,96,0.0,999.9,8.85,27.4,93,35.4,34.1,12.4,216.0,91.0,8.2,7,5,7,1,2026-06-28T22:45:57.130693+05:30
Rourkela,Odisha,22.2604,84.8536,28.2,86,0.0,980.9,9.0,31.3,130,49.8,48.0,11.2,363.0,120.0,20.4,7,5,7,1,2026-06-28T22:45:57.130701+05:30
Raipur,Chhattisgarh,21.2514,81.6296,27.6,89,0.0,970.4,8.95,31.0,115,37.7,35.0,24.4,316.0,72.0,44.6,7,5,7,1,2026-06-28T22:45:57.130708+05:30
Bhilai,Chhattisgarh,21.1938,81.3509,28.2,88,0.0,971.0,8.65,31.3,110,36.7,33.9,22.4,586.0,80.0,40.7,7,5,7,1,2026-06-28T22:45:57.130715+05:30
Guwahati,Assam,26.1158,91.7086,27.7,93,0.0,995.8,7.05,46.4,62,18.4,17.8,8.5,329.0,60.0,3.1,7,5,7,1,2026-06-28T22:45:57.130722+05:30
Agartala,Tripura,23.8315,91.2868,27.2,86,0.0,1002.2,7.5,40.7,48,13.7,12.0,7.9,180.0,41.0,1.9,7,5,4,1,2026-06-28T22:45:57.130729+05:30
Shillong,Meghalaya,25.5788,91.8933,21.0,91,0.0,854.4,6.65,42.1,36,5.1,4.9,6.2,180.0,64.0,1.7,3,5,7,1,2026-06-28T22:45:57.130736+05:30
Imphal,Manipur,24.817,93.9368,24.1,93,0.0,919.9,8.85,36.7,50,22.3,22.0,14.1,370.0,24.0,2.7,3,5,7,1,2026-06-28T22:45:57.130743+05:30
Aizawl,Mizoram,23.7271,92.7176,20.3,92,0.0,889.7,8.35,34.2,28,4.8,4.2,2.8,124.0,49.0,0.9,3,5,7,1,2026-06-28T22:45:57.130750+05:30
Kohima,Nagaland,25.6701,94.1077,20.0,93,0.0,852.2,9.0,28.8,34,10.2,9.7,7.2,314.0,40.0,1.3,3,5,7,1,2026-06-28T22:45:57.130757+05:30
Gangtok,Sikkim,27.3314,88.6138,19.0,95,0.8,834.3,5.95,36.0,49,10.7,9.7,8.9,341.0,98.0,2.3,6,10,3,1,2026-06-28T22:45:57.130765+05:30
Siliguri,West Bengal,26.7271,88.3953,25.3,98,0.1,987.9,6.9,27.0,75,26.1,23.9,11.4,478.0,105.0,3.9,10,5,7,1,2026-06-28T22:46:00.470465+05:30
Durgapur,West Bengal,23.5204,87.3119,28.8,88,0.0,990.0,8.85,30.2,149,59.8,58.9,26.6,512.0,91.0,50.3,7,5,7,1,2026-06-28T22:46:00.470501+05:30
Asansol,West Bengal,23.6739,86.9524,29.6,84,0.0,988.2,8.85,36.7,142,57.5,56.6,31.2,479.0,86.0,65.1,7,5,7,1,2026-06-28T22:46:00.470513+05:30
Pondicherry,Puducherry,11.9139,79.8145,26.6,89,0.1,1007.7,8.7,43.9,63,16.5,12.0,9.6,270.0,76.0,8.3,10,5,4,1,2026-06-28T22:46:00.470524+05:30
Port Blair,Andaman and Nicobar Islands,11.6234,92.7265,25.9,94,0.0,1007.4,3.8,39.6,21,11.6,6.9,0.2,85.0,50.0,0.2,7,5,0,1,2026-06-28T22:46:00.470534+05:30
Haridwar,Uttarakhand,29.9457,78.1642,30.2,73,0.0,966.4,7.6,36.7,157,88.5,70.3,17.5,368.0,97.0,10.1,3,5,7,1,2026-06-28T22:46:00.470544+05:30
Rishikesh,Uttarakhand,30.0869,78.2676,28.4,77,0.1,959.7,7.7,26.3,133,71.5,47.5,10.8,325.0,98.0,5.4,10,5,7,1,2026-06-28T22:46:00.470553+05:30
Nainital,Uttarakhand,29.3919,79.4542,17.4,98,0.0,802.4,8.0,32.0,135,71.9,43.7,8.4,365.0,106.0,6.5,3,10,7,1,2026-06-28T22:46:00.470562+05:30
Mussoorie,Uttarakhand,30.4599,78.0664,18.5,90,0.0,800.3,7.35,39.2,142,66.1,48.4,16.3,358.0,103.0,7.5,3,10,7,1,2026-06-28T22:46:00.470570+05:30
Dharamshala,Himachal Pradesh,32.219,76.3234,23.7,81,0.0,864.8,7.55,33.8,57,18.3,16.4,17.2,388.0,41.0,0.3,3,5,7,1,2026-06-28T22:46:00.470579+05:30
Dalhousie,Himachal Pradesh,32.5387,75.971,16.8,97,0.0,800.1,7.85,30.2,105,45.9,37.1,20.6,587.0,88.0,2.6,3,10,7,1,2026-06-28T22:46:00.470589+05:30
Patiala,Punjab,30.3398,76.3869,33.4,62,0.0,969.8,7.6,38.2,168,126.2,80.3,32.8,764.0,58.0,9.2,3,5,7,1,2026-06-28T22:46:00.470598+05:30
Bhatinda,Punjab,30.211,74.9455,34.2,57,0.0,974.6,8.3,46.1,157,109.2,80.6,61.3,487.0,25.0,10.2,0,5,7,1,2026-06-28T22:46:00.470606+05:30
Rohtak,Haryana,28.8955,76.6066,32.5,63,0.0,973.6,7.75,36.7,166,259.8,98.5,39.2,578.0,71.0,15.1,3,5,7,1,2026-06-28T22:46:00.470614+05:30
Panipat,Haryana,29.3909,76.9635,32.6,64,0.0,972.2,7.6,33.8,180,344.6,102.9,28.4,595.0,75.0,9.6,3,5,7,1,2026-06-28T22:46:00.470623+05:30
Mathura,Uttar Pradesh,27.4924,77.6737,33.6,56,0.0,978.7,7.45,32.4,188,134.6,60.1,40.3,372.0,38.0,7.5,0,5,7,1,2026-06-28T22:46:00.470631+05:30
Vrindavan,Uttar Pradesh,27.5823,77.7027,32.9,61,0.0,979.1,7.4,28.8,188,134.6,60.1,40.3,428.0,38.0,7.5,3,5,7,1,2026-06-28T22:46:00.470640+05:30
Ayodhya,Uttar Pradesh,26.7922,82.1998,31.5,72,0.0,988.1,8.45,22.0,136,111.3,78.9,38.5,533.0,46.0,10.2,3,5,7,1,2026-06-28T22:46:00.470648+05:30
Ratlam,Madhya Pradesh,23.3315,75.0367,26.7,75,0.0,950.2,8.4,31.0,79,53.8,39.1,11.6,255.0,57.0,5.0,7,5,7,1,2026-06-28T22:46:00.470658+05:30
Sagar,Madhya Pradesh,23.8388,78.7378,27.4,78,0.0,945.4,8.4,36.0,74,33.5,23.5,8.3,192.0,70.0,2.7,7,5,7,1,2026-06-28T22:46:00.470667+05:30
Satna,Madhya Pradesh,24.6005,80.8322,32.3,56,0.0,965.3,8.8,32.0,76,42.1,30.2,17.2,219.0,50.0,3.5,0,5,7,1,2026-06-28T22:46:00.470675+05:30
Akola,Maharashtra,20.7002,77.0082,28.3,78,0.0,971.4,8.2,31.7,82,27.4,21.0,12.2,198.0,57.0,4.2,7,5,7,1,2026-06-28T22:46:00.470684+05:30
Amravati,Maharashtra,20.9374,77.7796,27.8,81,0.0,963.6,8.05,26.6,79,29.3,22.8,11.3,213.0,63.0,4.5,7,5,7,1,2026-06-28T22:46:00.470694+05:30
Latur,Maharashtra,18.4088,76.5604,23.8,94,0.0,936.8,8.1,38.9,73,18.5,13.3,4.9,199.0,85.0,1.3,3,5,7,1,2026-06-28T22:46:00.470703+05:30
Nanded,Maharashtra,19.1383,77.3091,25.9,94,0.1,965.6,7.2,36.0,71,16.8,13.2,6.7,210.0,80.0,2.1,10,5,7,1,2026-06-28T22:46:00.470713+05:30
Gulbarga,Karnataka,17.3297,76.8343,24.1,95,0.2,955.9,7.95,26.3,42,7.3,6.4,8.1,172.0,58.0,1.9,6,5,7,1,2026-06-28T22:46:00.470721+05:30
Bidar,Karnataka,17.9104,77.5199,23.5,97,0.0,932.7,8.15,26.3,56,13.0,10.9,8.9,190.0,72.0,1.3,3,5,7,1,2026-06-28T22:46:00.470730+05:30
Hospet,Karnataka,15.2689,76.3909,23.8,92,0.0,954.1,8.9,47.2,25,4.6,3.7,5.5,134.0,40.0,1.7,3,5,7,1,2026-06-28T22:46:00.470739+05:30
Tirupur,Tamil Nadu,11.1085,77.3411,24.4,86,0.0,974.6,8.9,63.4,43,11.7,10.8,15.5,142.0,30.0,4.2,3,5,7,1,2026-06-28T22:46:00.470747+05:30
Alappuzha,Kerala,9.4981,76.3388,24.7,95,0.4,1010.6,8.5,42.1,42,13.3,8.8,5.8,86.0,43.0,2.1,6,0,4,1,2026-06-28T22:46:00.470755+05:30
Munnar,Kerala,10.0889,77.0595,17.2,100,0.1,856.5,8.25,41.4,22,3.3,3.2,6.8,92.0,29.0,1.5,6,10,7,1,2026-06-28T22:46:00.470762+05:30
Silchar,Assam,24.8333,92.7789,26.1,98,0.2,1001.5,8.3,31.7,53,17.8,17.2,8.7,222.0,56.0,3.9,10,5,4,1,2026-06-28T22:46:00.470769+05:30
Dibrugarh,Assam,27.4728,94.912,25.0,97,0.1,990.3,3.95,40.3,56,9.6,9.1,9.4,193.0,54.0,1.1,10,5,3,1,2026-06-28T22:46:00.470776+05:30
