city,state,latitude,longitude,temp,humidity,rain,pressure,uv_index,wind_gusts,aqi,pm10,pm2_5,no2,co,o3,so2,mosquito_risk,arthritis_risk,migraine_risk,frizz_risk,updated_at
Delhi,Delhi,28.6139,77.209,32.1,56,0.0,977.9,7.7,30.2,500,336.2,84.3,35.4,419.0,28.0,15.4,0,5,7,1,2026-07-18T08:11:45.883853+05:30
Mumbai,Maharashtra,19.076,72.8777,25.5,93,0.3,1007.5,4.25,32.0,68,26.1,12.9,9.0,285.0,41.0,6.8,10,5,0,1,2026-07-18T08:11:45.883890+05:30
Bangalore,Karnataka,12.9716,77.5946,21.8,81,0.0,912.7,3.85,45.4,36,10.1,6.3,8.4,309.0,37.0,3.7,3,5,3,1,2026-07-18T08:11:45.883905+05:30
Hyderabad,Telangana,17.385,78.4867,25.1,81,0.0,952.7,3.1,43.6,59,12.0,8.6,10.8,266.0,34.0,4.7,7,5,3,1,2026-07-18T08:11:45.883915+05:30
Chennai,Tamil Nadu,13.0827,80.2707,28.6,77,0.0,1007.6,6.8,43.6,72,15.9,12.0,18.3,375.0,26.0,10.6,7,5,4,1,2026-07-18T08:11:45.883924+05:30
Kolkata,West Bengal,22.5726,88.3639,29.4,82,0.0,1001.6,7.05,40.7,71,18.8,15.1,6.6,342.0,97.0,10.1,7,5,4,1,2026-07-18T08:11:45.883932+05:30
Pune,Maharashtra,18.5204,73.8567,24.4,82,0.0,947.2,7.75,41.8,40,7.5,4.9,8.6,157.0,32.0,7.0,3,5,7,1,2026-07-18T08:11:45.883939+05:30
Ahmedabad,Gujarat,23.0225,72.5714,29.1,71,0.0,999.5,6.05,34.9,75,26.5,14.8,7.6,146.0,36.0,6.3,7,5,7,1,2026-07-18T08:11:45.883945+05:30
Jaipur,Rajasthan,26.9124,75.7873,30.7,54,0.0,956.3,6.8,36.0,204,488.0,88.0,7.2,173.0,56.0,4.7,0,5,7,1,2026-07-18T08:11:45.883952+05:30
Lucknow,Uttar Pradesh,26.8467,80.9462,30.1,83,0.1,988.7,7.75,24.5,166,53.9,40.3,11.8,394.0,91.0,9.1,6,5,7,1,2026-07-18T08:11:45.883967+05:30
Kanpur,Uttar Pradesh,26.4499,80.3319,31.0,74,0.0,987.0,7.95,32.8,171,90.8,51.8,13.8,250.0,76.0,8.9,3,5,7,1,2026-07-18T08:11:45.883974+05:30
Chandigarh,Chandigarh,30.7333,76.7794,29.2,80,0.0,963.7,7.7,24.1,143,78.0,55.5,18.4,675.0,115.0,14.5,7,5,7,1,2026-07-18T08:11:45.883981+05:30
Srinagar,Jammu and Kashmir,34.0837,74.7973,24.8,66,0.0,840.1,9.05,19.4,99,61.0,46.4,12.9,626.0,83.0,6.0,3,5,7,1,2026-07-18T08:11:45.883987+05:30
Jammu,Jammu and Kashmir,32.7266,74.857,29.9,80,0.0,966.8,8.45,23.4,153,81.0,55.6,15.8,345.0,104.0,7.3,7,5,7,1,2026-07-18T08:11:45.883994+05:30
Amritsar,Punjab,31.634,74.8723,30.4,83,0.0,974.6,7.2,19.1,167,187.7,114.8,38.1,980.0,56.0,7.8,3,5,7,1,2026-07-18T08:11:45.884000+05:30
Ludhiana,Punjab,30.901,75.8573,31.6,74,0.0,972.8,7.95,21.2,173,200.7,121.1,38.3,1068.0,75.0,14.9,3,5,7,1,2026-07-18T08:11:45.884006+05:30
Jalandhar,Punjab,31.326,75.5762,30.8,78,0.0,973.8,8.25,18.4,168,143.0,110.6,37.3,1032.0,64.0,10.8,3,5,7,1,2026-07-18T08:11:45.884015+05:30
Dehradun,Uttarakhand,30.6284,78.0322,20.1,96,0.0,828.5,7.05,24.5,96,28.5,22.6,5.0,310.0,120.0,4.6,3,5,7,1,2026-07-18T08:11:45.884023+05:30
Shimla,Himachal Pradesh,31.1048,77.1734,16.8,98,0.0,782.9,7.4,37.4,85,26.6,15.4,6.1,232.0,131.0,4.3,3,10,7,1,2026-07-18T08:11:45.884030+05:30
Manali,Himachal Pradesh,32.2396,77.1887,22.9,81,0.0,818.0,7.05,29.5,56,14.3,10.4,15.5,211.0,27.0,0.2,3,5,7,1,2026-07-18T08:11:45.884038+05:30
Gurgaon,Haryana,28.4595,77.0266,32.0,54,0.0,976.5,7.75,33.8,478,685.5,128.1,27.4,275.0,30.0,10.6,0,5,7,1,2026-07-18T08:11:45.884045+05:30
Noida,Uttar Pradesh,28.5355,77.391,32.0,60,0.0,979.3,7.7,26.3,478,685.5,128.1,27.4,400.0,30.0,10.6,0,5,7,1,2026-07-18T08:11:45.884051+05:30
Ghaziabad,Uttar Pradesh,28.6692,77.4538,31.4,62,0.0,977.4,7.7,28.1,493,351.1,136.0,61.9,346.0,10.0,27.5,3,5,7,1,2026-07-18T08:11:45.884057+05:30
Faridabad,Haryana,28.4089,77.3178,32.1,57,0.0,978.6,7.75,31.3,478,685.5,128.1,27.4,298.0,30.0,10.6,0,5,7,1,2026-07-18T08:11:45.884063+05:30
Meerut,Uttar Pradesh,28.9845,77.7064,30.9,75,0.0,976.1,7.6,25.6,493,351.1,136.0,61.9,389.0,10.0,27.5,3,5,7,1,2026-07-18T08:11:45.884069+05:30
Agra,Uttar Pradesh,27.1767,78.0081,32.0,65,0.0,982.9,7.3,31.3,166,48.9,29.0,16.5,224.0,54.0,7.2,3,5,7,1,2026-07-18T08:11:45.884075+05:30
Varanasi,Uttar Pradesh,25.3176,82.9739,28.5,89,0.0,993.2,8.3,23.4,111,29.2,25.7,10.8,339.0,98.0,9.7,7,5,7,1,2026-07-18T08:11:45.884081+05:30
Prayagraj,Uttar Pradesh,25.4358,81.8463,29.1,82,0.0,991.7,5.9,30.6,140,63.6,39.3,12.8,243.0,88.0,9.3,7,5,3,1,2026-07-18T08:11:45.884088+05:30
Gorakhpur,Uttar Pradesh,26.7606,83.3732,27.3,92,0.1,993.3,7.25,21.2,101,32.7,31.1,12.3,318.0,75.0,6.6,10,5,7,1,2026-07-18T08:11:45.884094+05:30
Bareilly,Uttar Pradesh,28.367,79.4304,26.8,96,0.0,982.3,8.0,28.1,158,85.7,51.8,12.5,454.0,92.0,9.0,7,5,7,1,2026-07-18T08:11:45.884102+05:30
Aligarh,Uttar Pradesh,27.8974,78.088,31.8,70,0.0,980.4,6.8,28.4,330,272.9,90.8,25.1,327.0,34.0,6.3,3,5,7,1,2026-07-18T08:11:45.884109+05:30
Moradabad,Uttar Pradesh,28.8386,78.7733,27.3,90,0.0,979.0,7.85,25.9,174,68.7,45.4,12.2,499.0,98.0,8.7,7,5,7,1,2026-07-18T08:11:45.884115+05:30
Saharanpur,Uttar Pradesh,29.9637,77.546,29.3,86,0.0,970.6,7.35,30.6,175,215.1,109.2,21.2,604.0,74.0,13.8,7,5,7,1,2026-07-18T08:11:45.884121+05:30
Jhansi,Uttar Pradesh,25.4484,78.5685,28.7,83,0.0,974.3,7.85,32.4,105,33.5,23.2,8.4,183.0,62.0,8.1,7,5,7,1,2026-07-18T08:11:49.173706+05:30
Surat,Gujarat,21.1702,72.8311,26.0,96,0.1,1004.8,7.5,45.4,74,30.7,22.5,24.4,460.0,20.0,46.5,10,5,4,1,2026-07-18T08:11:49.173739+05:30
Vadodara,Gujarat,22.3072,73.1812,28.6,77,0.0,1001.8,6.0,42.8,70,24.7,15.4,9.2,168.0,31.0,6.5,7,5,0,1,2026-07-18T08:11:49.173750+05:30
Rajkot,Gujarat,22.3039,70.8022,27.0,82,0.0,991.6,7.65,49.3,62,17.2,8.6,4.3,108.0,42.0,4.5,7,5,7,1,2026-07-18T08:11:49.173759+05:30
Thane,Maharashtra,19.2183,72.9781,25.3,94,0.0,1006.8,6.0,33.8,68,26.1,12.9,9.0,242.0,41.0,6.8,7,5,0,1,2026-07-18T08:11:49.173768+05:30
Nagpur,Maharashtra,21.1458,79.0882,26.0,90,0.3,971.1,1.2,30.2,81,16.5,13.0,12.6,223.0,37.0,10.9,10,5,3,1,2026-07-18T08:11:49.173776+05:30
Nashik,Maharashtra,19.9975,73.7898,23.2,91,0.0,943.8,6.25,43.6,37,9.2,5.0,7.7,136.0,35.0,6.2,3,5,7,1,2026-07-18T08:11:49.173783+05:30
Aurangabad,Maharashtra,19.8762,75.3433,24.2,84,0.0,943.0,7.65,38.2,50,7.6,5.2,6.7,166.0,34.0,8.2,3,5,7,1,2026-07-18T08:11:49.173791+05:30
Solapur,Maharashtra,17.6599,75.9064,25.3,83,0.0,956.9,3.25,38.9,50,9.4,6.4,5.1,137.0,39.0,2.7,7,5,3,1,2026-07-18T08:11:49.173798+05:30
Kolhapur,Maharashtra,16.705,74.2433,23.5,87,0.0,947.7,5.35,46.1,38,9.4,5.4,4.7,145.0,39.0,2.5,3,5,3,1,2026-07-18T08:11:49.173806+05:30
Goa,Goa,15.2993,74.124,24.7,96,0.0,999.4,6.35,34.9,65,29.7,16.1,2.7,189.0,46.0,1.4,3,5,7,1,2026-07-18T08:11:49.173814+05:30
Jodhpur,Rajasthan,26.2389,73.0243,29.5,61,0.0,979.5,8.4,43.6,127,310.1,75.4,3.3,118.0,49.0,3.7,7,5,7,1,2026-07-18T08:11:49.173866+05:30
Udaipur,Rajasthan,24.5854,73.7125,25.7,77,0.0,943.6,8.3,38.2,75,39.8,19.7,4.5,114.0,46.0,3.5,7,5,7,1,2026-07-18T08:11:49.173876+05:30
Kota,Rajasthan,25.2138,75.8648,30.9,58,0.0,975.6,8.3,35.6,88,46.2,28.0,7.6,180.0,62.0,9.5,0,5,7,1,2026-07-18T08:11:49.173883+05:30
Bikaner,Rajasthan,28.0229,73.3119,32.2,49,0.0,977.0,8.45,39.2,108,202.6,61.2,2.1,116.0,51.0,3.9,0,5,7,1,2026-07-18T08:11:49.173891+05:30
Ajmer,Rajasthan,26.4499,74.6399,28.2,65,0.0,951.4,7.95,42.8,75,42.0,23.2,4.9,134.0,58.0,4.0,7,5,7,1,2026-07-18T08:11:49.173899+05:30
Gwalior,Madhya Pradesh,26.2183,78.1828,28.7,84,0.1,979.1,2.65,32.4,121,30.9,21.5,8.6,175.0,60.0,4.1,10,5,3,1,2026-07-18T08:11:49.173907+05:30
Indore,Madhya Pradesh,22.7196,75.8577,26.2,77,0.0,946.2,2.75,37.4,72,23.4,14.7,8.4,206.0,43.0,11.0,7,5,3,1,2026-07-18T08:11:49.173914+05:30
Bhopal,Madhya Pradesh,23.2599,77.4126,27.1,74,0.0,951.4,5.4,34.2,83,34.3,22.7,6.4,232.0,68.0,7.0,7,5,3,1,2026-07-18T08:11:49.173922+05:30
Jabalpur,Madhya Pradesh,23.1815,79.9864,24.9,95,0.0,959.1,8.75,34.9,88,36.8,22.6,6.4,227.0,64.0,3.0,3,5,7,1,2026-07-18T08:11:49.173929+05:30
Ujjain,Madhya Pradesh,23.1765,75.7885,26.3,79,0.0,951.7,3.25,35.6,72,25.5,16.1,7.7,192.0,42.0,12.1,7,5,3,1,2026-07-18T08:11:49.173936+05:30
Visakhapatnam,Andhra Pradesh,17.6868,83.2185,28.2,78,0.0,1000.5,5.4,42.1,89,37.1,28.3,19.7,396.0,56.0,36.3,7,5,0,1,2026-07-18T08:11:49.173944+05:30
Vijayawada,Andhra Pradesh,16.5062,80.648,26.4,93,0.1,1001.5,2.75,40.3,82,17.5,12.4,8.8,171.0,47.0,6.2,10,5,0,1,2026-07-18T08:11:49.173951+05:30
Guntur,Andhra Pradesh,16.3067,80.4365,27.5,79,0.1,1002.8,2.85,44.6,78,15.3,11.3,9.3,172.0,44.0,6.1,10,5,0,1,2026-07-18T08:11:49.173959+05:30
Nellore,Andhra Pradesh,14.4426,79.9865,27.2,86,0.0,1006.0,4.7,41.8,58,13.1,7.8,8.2,137.0,32.0,5.7,7,5,0,1,2026-07-18T08:11:49.173967+05:30
Kurnool,Andhra Pradesh,15.8281,78.0373,27.4,70,0.0,977.1,5.65,44.6,54,16.3,8.9,6.7,132.0,36.0,4.5,7,5,3,1,2026-07-18T08:11:49.173975+05:30
Kakinada,Andhra Pradesh,16.9891,82.2475,27.3,85,0.0,1005.3,7.0,47.2,87,20.6,13.7,6.9,221.0,69.0,4.8,7,5,4,1,2026-07-18T08:11:49.173983+05:30
Tirupati,Andhra Pradesh,13.6288,79.4192,26.4,76,0.0,991.6,3.4,39.6,58,7.2,4.9,6.3,132.0,39.0,1.8,7,5,3,1,2026-07-18T08:11:49.173991+05:30
Warangal,Telangana,17.9689,79.5941,26.8,80,0.0,977.4,4.75,42.1,77,19.7,13.6,7.4,178.0,52.0,5.2,7,5,3,1,2026-07-18T08:11:49.173998+05:30
Nizamabad,Telangana,18.6725,78.0941,25.3,86,0.1,964.0,3.4,40.7,70,16.9,11.3,7.4,175.0,48.0,7.4,10,5,3,1,2026-07-18T08:11:49.174005+05:30
Mysore,Karnataka,12.2958,76.6396,22.9,80,0.0,929.9,3.2,47.5,26,7.2,4.9,4.6,130.0,42.0,2.0,3,5,3,1,2026-07-18T08:11:49.174011+05:30
Mangalore,Karnataka,12.9141,74.856,25.3,91,0.1,1008.9,1.45,35.3,57,17.8,12.3,7.9,191.0,32.0,3.5,10,0,0,1,2026-07-18T08:11:49.174019+05:30
Hubli-Dharwad,Karnataka,15.3647,75.124,23.2,86,0.0,941.5,7.75,50.4,22,5.2,3.0,4.4,118.0,40.0,1.5,3,5,7,1,2026-07-18T08:11:49.174027+05:30
Belgaum,Karnataka,15.8497,74.4977,21.8,91,0.0,925.8,6.85,45.7,27,6.2,3.7,3.8,116.0,41.0,1.7,3,5,7,1,2026-07-18T08:11:52.465163+05:30
Coimbatore,Tamil Nadu,11.0168,76.9558,24.3,81,0.0,963.1,7.2,49.0,41,14.2,9.3,6.1,187.0,41.0,3.2,3,5,7,1,2026-07-18T08:11:52.465193+05:30
Madurai,Tamil Nadu,9.9252,78.1198,29.4,56,0.0,994.3,7.95,24.1,70,17.7,12.8,17.3,186.0,30.0,6.3,4,5,7,1,2026-07-18T08:11:52.465204+05:30
Trichy,Tamil Nadu,10.7905,78.7047,29.8,57,0.0,1000.9,7.7,44.6,53,19.6,11.5,5.1,120.0,44.0,3.6,4,5,4,1,2026-07-18T08:11:52.465213+05:30
Salem,Tamil Nadu,11.6643,78.146,26.7,74,0.0,978.9,6.05,36.7,69,24.3,18.0,16.5,289.0,34.0,10.8,7,5,7,1,2026-07-18T08:11:52.465221+05:30
Tirunelveli,Tamil Nadu,8.7139,77.7567,30.1,56,0.0,1004.9,8.65,50.0,49,14.8,9.0,4.3,142.0,46.0,2.3,0,5,4,1,2026-07-18T08:11:52.465229+05:30
Vellore,Tamil Nadu,12.9165,79.1325,27.9,62,0.0,985.2,4.75,45.0,49,9.8,7.3,8.6,151.0,37.0,4.0,7,5,3,1,2026-07-18T08:11:52.465237+05:30
Erode,Tamil Nadu,11.341,77.7172,27.5,67,0.0,990.7,5.95,42.8,56,22.3,16.0,11.8,190.0,36.0,5.0,7,5,3,1,2026-07-18T08:11:52.465244+05:30
Kochi,Kerala,9.9312,76.2673,25.4,90,0.0,1011.7,7.8,45.4,58,22.4,16.8,14.5,173.0,29.0,6.7,7,0,4,1,2026-07-18T08:11:52.465252+05:30
Thiruvananthapuram,Kerala,8.5241,76.9366,25.1,92,0.0,1011.0,8.5,50.0,61,23.7,14.1,7.6,214.0,42.0,4.4,7,0,4,1,2026-07-18T08:11:52.465259+05:30
Kozhikode,Kerala,11.2588,75.7804,24.9,95,0.0,1010.6,7.5,36.4,55,18.7,10.4,2.0,225.0,50.0,1.6,3,0,4,1,2026-07-18T08:11:52.465265+05:30
Thrissur,Kerala,10.5276,76.2144,24.8,93,0.0,1010.0,7.8,39.2,58,20.5,15.1,8.6,191.0,39.0,4.2,3,0,4,1,2026-07-18T08:11:52.465273+05:30
Kannur,Kerala,11.8745,75.3704,24.9,94,0.0,1009.7,6.35,31.3,52,14.6,9.9,6.0,158.0,37.0,2.9,3,0,4,1,2026-07-18T08:11:52.465280+05:30
Patna,Bihar,25.5941,85.1376,28.5,87,0.1,995.9,7.2,26.3,93,31.1,30.7,11.9,336.0,89.0,16.8,10,5,7,1,2026-07-18T08:11:52.465287+05:30
Gaya,Bihar,24.7914,85.0002,28.5,84,0.1,989.2,7.1,22.3,106,46.4,45.4,15.1,389.0,87.0,13.4,10,5,7,1,2026-07-18T08:11:52.465295+05:30
Muzaffarpur,Bihar,26.1209,85.3647,27.9,90,0.0,996.1,7.8,26.6,88,24.6,24.3,10.4,311.0,82.0,11.1,7,5,7,1,2026-07-18T08:11:52.465302+05:30
Bhagalpur,Bihar,25.2425,87.0117,28.9,85,0.0,996.7,7.4,27.0,76,26.8,25.5,12.4,358.0,83.0,20.5,7,5,7,1,2026-07-18T08:11:52.465309+05:30
Ranchi,Jharkhand,23.3441,85.3096,25.4,88,0.0,933.5,9.25,29.2,67,20.3,19.1,8.1,285.0,77.0,7.0,7,5,7,1,2026-07-18T08:11:52.465316+05:30
Jamshedpur,Jharkhand,22.8046,86.2029,27.9,89,0.0,986.2,8.8,22.3,94,27.8,24.4,18.3,365.0,62.0,31.9,7,5,7,1,2026-07-18T08:11:52.465323+05:30
Dhanbad,Jharkhand,23.7957,86.4304,28.1,83,0.0,975.3,7.6,25.9,137,57.5,55.9,57.0,237.0,29.0,135.6,7,5,7,1,2026-07-18T08:11:52.465329+05:30
Bokaro,Jharkhand,23.6693,86.1511,27.9,86,0.0,979.1,7.7,28.4,115,45.3,43.5,38.5,282.0,56.0,108.2,7,5,7,1,2026-07-18T08:11:52.465352+05:30
Bhubaneswar,Odisha,20.2961,85.8245,27.6,89,0.0,998.4,7.65,33.1,71,21.8,16.6,9.0,314.0,66.0,4.9,7,5,7,1,2026-07-18T08:11:52.465360+05:30
Cuttack,Odisha,20.4625,85.8828,27.7,89,0.0,1000.0,7.95,32.4,71,21.8,16.6,9.0,299.0,66.0,4.9,7,5,4,1,2026-07-18T08:11:52.465367+05:30
Rourkela,Odisha,22.2604,84.8536,27.1,90,0.0,980.7,7.35,24.5,75,13.6,12.3,10.1,302.0,61.0,10.5,7,5,7,1,2026-07-18T08:11:52.465374+05:30
Raipur,Chhattisgarh,21.2514,81.6296,24.4,94,0.0,972.1,3.55,37.4,90,32.4,25.8,26.8,323.0,33.0,37.7,3,5,3,1,2026-07-18T08:11:52.465381+05:30
Bhilai,Chhattisgarh,21.1938,81.3509,24.2,94,0.1,972.6,2.25,41.0,84,31.4,24.2,21.8,643.0,38.0,31.7,6,5,3,1,2026-07-18T08:11:52.465388+05:30
Guwahati,Assam,26.1158,91.7086,27.5,88,0.0,999.0,7.35,22.3,56,8.4,7.9,4.8,258.0,69.0,2.6,7,5,7,1,2026-07-18T08:11:52.465395+05:30
Agartala,Tripura,23.8315,91.2868,27.9,81,0.1,1004.3,7.35,45.7,53,10.2,8.3,4.3,149.0,69.0,2.2,10,5,4,1,2026-07-18T08:11:52.465402+05:30
Shillong,Meghalaya,25.5788,91.8933,20.8,92,0.0,856.1,4.3,41.4,25,2.2,2.0,4.5,171.0,57.0,2.6,3,5,3,1,2026-07-18T08:11:52.465409+05:30
Imphal,Manipur,24.817,93.9368,25.4,79,0.0,922.6,6.45,34.9,64,15.9,10.6,4.1,189.0,59.0,1.6,7,5,7,1,2026-07-18T08:11:52.465416+05:30
Aizawl,Mizoram,23.7271,92.7176,23.0,74,0.0,892.2,8.35,43.9,57,17.6,10.5,1.1,122.0,67.0,1.0,3,5,7,1,2026-07-18T08:11:52.465423+05:30
Kohima,Nagaland,25.6701,94.1077,23.3,85,0.1,855.7,7.15,24.1,51,5.4,4.5,3.3,180.0,59.0,1.1,6,5,7,1,2026-07-18T08:11:52.465431+05:30
Gangtok,Sikkim,27.3314,88.6138,19.7,99,0.3,836.6,7.15,22.3,41,3.6,3.2,4.5,262.0,87.0,2.0,6,10,7,1,2026-07-18T08:11:52.465438+05:30
Siliguri,West Bengal,26.7271,88.3953,26.0,96,0.0,990.0,7.1,31.0,69,16.8,14.6,7.4,312.0,84.0,3.7,7,5,7,1,2026-07-18T08:11:55.775404+05:30
Durgapur,West Bengal,23.5204,87.3119,28.6,87,0.0,990.4,8.6,33.1,98,41.8,41.0,34.2,1011.0,54.0,59.7,7,5,7,1,2026-07-18T08:11:55.775438+05:30
Asansol,West Bengal,23.6739,86.9524,28.6,89,0.0,988.9,7.75,29.2,103,47.8,46.8,45.6,410.0,36.0,80.2,7,5,7,1,2026-07-18T08:11:55.775452+05:30
Pondicherry,Puducherry,11.9139,79.8145,29.8,60,0.0,1009.3,4.9,40.3,70,24.3,18.0,15.1,326.0,37.0,8.5,4,0,0,1,2026-07-18T08:11:55.775462+05:30
Port Blair,Andaman and Nicobar Islands,11.6234,92.7265,29.5,72,0.0,1009.0,8.1,41.4,40,19.8,8.8,0.3,95.0,47.0,0.5,7,0,4,1,2026-07-18T08:11:55.775472+05:30
Haridwar,Uttarakhand,29.9457,78.1642,27.9,90,0.0,969.2,7.5,28.8,165,116.2,76.8,7.9,381.0,116.0,16.3,7,5,7,1,2026-07-18T08:11:55.775481+05:30
Rishikesh,Uttarakhand,30.0869,78.2676,26.9,93,0.0,962.2,7.0,25.9,154,162.5,65.7,4.1,319.0,145.0,13.9,7,5,7,1,2026-07-18T08:11:55.775491+05:30
Nainital,Uttarakhand,29.3919,79.4542,18.5,98,0.1,803.9,7.35,25.6,110,47.7,22.6,6.1,253.0,126.0,4.6,6,10,7,1,2026-07-18T08:11:55.775500+05:30
Mussoorie,Uttarakhand,30.4599,78.0664,18.7,96,0.0,801.5,7.35,31.7,146,95.9,53.1,7.1,320.0,134.0,11.1,3,10,7,1,2026-07-18T08:11:55.775509+05:30
Dharamshala,Himachal Pradesh,32.219,76.3234,22.1,100,0.1,866.1,8.25,24.1,61,13.5,8.6,5.1,347.0,107.0,1.7,6,5,7,1,2026-07-18T08:11:55.775517+05:30
Dalhousie,Himachal Pradesh,32.5387,75.971,19.1,98,0.2,803.0,8.15,25.2,102,67.1,38.1,7.6,334.0,129.0,5.1,6,10,7,1,2026-07-18T08:11:55.775524+05:30
Patiala,Punjab,30.3398,76.3869,31.8,73,0.0,972.5,6.9,18.7,179,204.0,109.2,31.1,780.0,73.0,11.2,3,5,7,1,2026-07-18T08:11:55.775531+05:30
Bhatinda,Punjab,30.211,74.9455,33.9,48,0.0,977.7,8.25,32.0,169,147.1,78.7,25.5,312.0,61.0,6.4,0,5,7,1,2026-07-18T08:11:55.775537+05:30
Rohtak,Haryana,28.8955,76.6066,31.3,61,0.0,976.5,7.65,29.5,630,1050.5,163.0,16.9,262.0,38.0,3.8,3,5,7,1,2026-07-18T08:11:55.775543+05:30
Panipat,Haryana,29.3909,76.9635,31.0,70,0.0,974.8,7.15,26.3,984,733.9,133.6,23.3,386.0,34.0,4.4,3,5,7,1,2026-07-18T08:11:55.775550+05:30
Mathura,Uttar Pradesh,27.4924,77.6737,32.1,65,0.0,982.0,7.7,27.0,608,767.4,120.1,18.8,299.0,40.0,5.4,3,5,7,1,2026-07-18T08:11:55.775557+05:30
Vrindavan,Uttar Pradesh,27.5823,77.7027,32.1,64,0.0,982.3,7.85,26.3,608,767.4,120.1,18.8,268.0,40.0,5.4,3,5,7,1,2026-07-18T08:11:55.775563+05:30
Ayodhya,Uttar Pradesh,26.7922,82.1998,28.2,89,0.0,991.3,7.3,25.2,98,31.2,30.2,11.5,520.0,90.0,5.7,7,5,7,1,2026-07-18T08:11:55.775569+05:30
Ratlam,Madhya Pradesh,23.3315,75.0367,25.6,84,0.0,952.6,7.05,34.2,71,26.3,16.4,8.2,159.0,40.0,12.1,7,5,7,1,2026-07-18T08:11:55.775576+05:30
Sagar,Madhya Pradesh,23.8388,78.7378,25.6,93,0.1,947.5,8.15,33.8,92,32.9,23.2,7.5,223.0,60.0,5.5,10,5,7,1,2026-07-18T08:11:55.775582+05:30
Satna,Madhya Pradesh,24.6005,80.8322,26.9,86,0.1,968.0,8.25,35.3,103,60.1,33.2,7.3,217.0,66.0,4.8,10,5,7,1,2026-07-18T08:11:55.775589+05:30
Akola,Maharashtra,20.7002,77.0082,26.1,86,0.2,973.9,2.05,38.9,61,16.2,9.9,9.4,146.0,27.0,6.9,10,5,3,1,2026-07-18T08:11:55.775597+05:30
Amravati,Maharashtra,20.9374,77.7796,26.1,83,0.0,965.8,1.2,41.4,64,15.3,9.6,10.0,147.0,27.0,8.5,7,5,3,1,2026-07-18T08:11:55.775604+05:30
Latur,Maharashtra,18.4088,76.5604,24.1,86,0.0,939.0,1.25,42.1,53,13.0,7.8,5.4,133.0,36.0,3.7,3,5,3,1,2026-07-18T08:11:55.775611+05:30
Nanded,Maharashtra,19.1383,77.3091,25.6,87,0.0,967.8,1.6,37.1,66,15.5,10.3,7.5,163.0,42.0,6.7,7,5,3,1,2026-07-18T08:11:55.775618+05:30
Gulbarga,Karnataka,17.3297,76.8343,25.6,79,0.0,958.6,4.25,40.0,51,8.9,6.1,5.9,129.0,36.0,3.2,7,5,3,1,2026-07-18T08:11:55.775624+05:30
Bidar,Karnataka,17.9104,77.5199,23.9,87,0.1,934.9,2.6,37.1,59,14.7,9.1,6.5,150.0,37.0,3.6,6,5,3,1,2026-07-18T08:11:55.775630+05:30
Hospet,Karnataka,15.2689,76.3909,24.4,80,0.0,956.7,6.8,45.4,25,5.8,3.6,3.2,115.0,42.0,1.8,3,5,7,1,2026-07-18T08:11:55.775636+05:30
Tirupur,Tamil Nadu,11.1085,77.3411,25.3,76,0.0,976.8,5.25,47.9,58,24.1,18.3,14.9,160.0,32.0,6.3,7,5,3,1,2026-07-18T08:11:55.775642+05:30
Alappuzha,Kerala,9.4981,76.3388,25.6,90,0.1,1011.8,8.05,47.9,60,24.4,15.0,11.1,147.0,42.0,5.2,10,0,4,1,2026-07-18T08:11:55.775649+05:30
Munnar,Kerala,10.0889,77.0595,16.6,97,0.0,857.9,7.4,40.0,30,11.8,7.3,4.3,97.0,40.0,1.1,3,10,7,1,2026-07-18T08:11:55.775655+05:30
Silchar,Assam,24.8333,92.7789,27.4,90,0.0,1003.7,8.15,31.3,73,27.9,19.4,5.1,218.0,60.0,4.0,7,5,4,1,2026-07-18T08:11:55.775662+05:30
Dibrugarh,Assam,27.4728,94.912,26.7,94,0.1,992.8,1.75,38.9,59,18.6,14.6,6.3,205.0,63.0,1.9,10,5,3,1,2026-07-18T08:11:55.775668+05:30
