city,state,latitude,longitude,temp,humidity,rain,pressure,uv_index,wind_gusts,aqi,pm10,pm2_5,no2,co,o3,so2,mosquito_risk,arthritis_risk,migraine_risk,frizz_risk,updated_at
Delhi,Delhi,28.6139,77.209,35.7,23,0.0,980.3,7.8,37.8,554,771.1,156.0,25.9,477.0,69.0,16.5,0,5,10,0,2026-05-22T23:24:26.574575+05:30
Mumbai,Maharashtra,19.076,72.8777,30.3,74,0.0,1009.7,7.15,37.8,63,22.3,15.4,13.4,236.0,48.0,11.7,3,0,4,1,2026-05-22T23:24:26.574623+05:30
Bangalore,Karnataka,12.9716,77.5946,21.1,95,0.0,914.3,7.45,36.4,37,17.2,15.9,37.9,580.0,37.0,8.3,3,5,7,1,2026-05-22T23:24:26.574639+05:30
Hyderabad,Telangana,17.385,78.4867,31.4,51,0.0,953.3,7.45,49.3,77,41.0,34.3,16.8,334.0,95.0,9.8,0,5,7,1,2026-05-22T23:24:26.574650+05:30
Chennai,Tamil Nadu,13.0827,80.2707,30.6,85,0.0,1006.9,9.05,41.8,100,25.7,20.1,13.6,219.0,101.0,8.2,3,5,4,1,2026-05-22T23:24:26.574658+05:30
Kolkata,West Bengal,22.5726,88.3639,29.4,89,0.0,1002.7,8.95,36.4,105,31.9,25.7,7.4,347.0,69.0,6.1,7,5,4,1,2026-05-22T23:24:26.574666+05:30
Pune,Maharashtra,18.5204,73.8567,26.0,83,0.0,949.9,8.45,41.0,50,11.7,11.2,17.5,219.0,48.0,9.4,7,5,7,1,2026-05-22T23:24:26.574673+05:30
Ahmedabad,Gujarat,23.0225,72.5714,32.3,64,0.0,1001.5,8.15,36.4,75,40.7,25.2,15.0,198.0,54.0,6.2,3,5,4,1,2026-05-22T23:24:26.574680+05:30
Jaipur,Rajasthan,26.9124,75.7873,34.0,20,0.0,958.4,8.25,42.1,161,281.3,64.7,10.4,226.0,66.0,5.4,0,5,7,0,2026-05-22T23:24:26.574694+05:30
Lucknow,Uttar Pradesh,26.8467,80.9462,33.4,56,0.0,988.9,8.25,32.4,161,380.0,93.6,31.1,267.0,54.0,11.7,0,5,7,1,2026-05-22T23:24:26.574701+05:30
Kanpur,Uttar Pradesh,26.4499,80.3319,34.3,29,0.0,987.5,8.25,38.2,297,473.1,105.5,38.1,464.0,40.0,13.7,0,5,7,0,2026-05-22T23:24:26.574707+05:30
Chandigarh,Chandigarh,30.7333,76.7794,29.1,36,0.0,966.2,7.75,68.8,91,53.8,30.3,17.7,470.0,76.0,11.1,4,5,7,0,2026-05-22T23:24:26.574714+05:30
Srinagar,Jammu and Kashmir,34.0837,74.7973,13.1,92,0.0,844.0,8.95,35.3,60,34.7,26.1,29.5,620.0,19.0,0.5,3,10,7,0,2026-05-22T23:24:26.574722+05:30
Jammu,Jammu and Kashmir,32.7266,74.857,28.0,39,0.0,970.6,8.55,41.8,79,68.7,30.0,16.6,371.0,79.0,3.2,4,5,7,0,2026-05-22T23:24:26.574729+05:30
Amritsar,Punjab,31.634,74.8723,31.0,43,0.0,978.5,8.45,56.2,88,99.4,57.5,36.9,605.0,50.0,10.3,0,5,7,1,2026-05-22T23:24:26.574736+05:30
Ludhiana,Punjab,30.901,75.8573,30.7,38,0.0,976.4,8.05,45.7,86,65.9,38.2,16.1,409.0,73.0,5.7,0,5,7,0,2026-05-22T23:24:26.574743+05:30
Jalandhar,Punjab,31.326,75.5762,30.5,43,0.0,977.5,8.2,47.5,92,83.8,38.2,14.7,632.0,73.0,5.1,0,5,7,1,2026-05-22T23:24:26.574750+05:30
Dehradun,Uttarakhand,30.6284,78.0322,15.5,68,0.0,827.8,8.2,38.9,78,78.5,30.5,38.5,187.0,50.0,2.3,3,5,7,0,2026-05-22T23:24:26.574756+05:30
Shimla,Himachal Pradesh,31.1048,77.1734,14.8,52,0.0,783.8,7.6,36.7,77,66.8,26.1,25.0,227.0,62.0,3.0,0,5,7,0,2026-05-22T23:24:26.574765+05:30
Manali,Himachal Pradesh,32.2396,77.1887,13.0,86,0.1,818.4,8.05,51.8,54,8.4,6.5,38.2,225.0,75.0,0.2,6,10,7,0,2026-05-22T23:24:26.574772+05:30
Gurgaon,Haryana,28.4595,77.0266,32.4,31,0.0,978.7,7.85,35.3,1493,1169.7,215.1,39.1,589.0,53.0,22.0,0,5,7,0,2026-05-22T23:24:26.574778+05:30
Noida,Uttar Pradesh,28.5355,77.391,33.8,28,0.0,981.5,7.8,30.2,1493,1169.7,215.1,39.1,704.0,53.0,22.0,0,5,7,0,2026-05-22T23:24:26.574787+05:30
Ghaziabad,Uttar Pradesh,28.6692,77.4538,32.5,31,0.0,979.6,7.8,38.5,395,467.5,111.1,21.6,458.0,74.0,17.4,0,5,7,0,2026-05-22T23:24:26.574794+05:30
Faridabad,Haryana,28.4089,77.3178,35.3,24,0.0,980.8,7.85,36.7,1493,1169.7,215.1,39.1,705.0,53.0,22.0,0,5,10,0,2026-05-22T23:24:26.574800+05:30
Meerut,Uttar Pradesh,28.9845,77.7064,32.8,29,0.0,978.5,7.7,33.5,395,467.5,111.1,21.6,312.0,74.0,17.4,0,5,7,0,2026-05-22T23:24:26.574806+05:30
Agra,Uttar Pradesh,27.1767,78.0081,34.3,27,0.0,984.2,8.1,41.4,930,717.1,143.4,27.4,330.0,51.0,10.9,0,5,7,0,2026-05-22T23:24:26.574815+05:30
Varanasi,Uttar Pradesh,25.3176,82.9739,34.8,46,0.0,993.5,8.75,32.0,154,121.1,57.5,28.6,939.0,61.0,14.5,0,5,7,1,2026-05-22T23:24:26.574822+05:30
Prayagraj,Uttar Pradesh,25.4358,81.8463,34.0,30,0.0,991.9,8.65,38.9,142,126.2,57.0,30.3,338.0,55.0,13.3,0,5,7,0,2026-05-22T23:24:26.574829+05:30
Gorakhpur,Uttar Pradesh,26.7606,83.3732,30.0,80,0.0,993.5,8.6,31.3,154,90.8,65.7,20.6,475.0,93.0,13.5,7,5,7,1,2026-05-22T23:24:26.574837+05:30
Bareilly,Uttar Pradesh,28.367,79.4304,31.1,46,0.0,982.4,8.05,29.9,167,158.8,79.4,22.8,354.0,90.0,16.5,0,5,7,1,2026-05-22T23:24:26.574843+05:30
Aligarh,Uttar Pradesh,27.8974,78.088,32.7,33,0.0,982.2,7.95,37.8,834,868.0,184.9,26.8,424.0,70.0,15.7,0,5,7,0,2026-05-22T23:24:26.574850+05:30
Moradabad,Uttar Pradesh,28.8386,78.7733,31.7,34,0.0,979.8,7.9,32.4,183,171.4,93.8,31.9,377.0,63.0,12.6,0,5,7,0,2026-05-22T23:24:26.574856+05:30
Saharanpur,Uttar Pradesh,29.9637,77.546,31.3,33,0.0,972.9,7.5,42.1,165,142.5,52.5,19.0,297.0,79.0,11.3,0,5,7,0,2026-05-22T23:24:26.574862+05:30
Jhansi,Uttar Pradesh,25.4484,78.5685,32.8,22,0.0,975.4,8.5,42.1,68,43.4,22.6,4.8,161.0,70.0,2.5,0,5,7,0,2026-05-22T23:24:29.834912+05:30
Surat,Gujarat,21.1702,72.8311,29.9,79,0.0,1007.5,7.75,42.1,72,23.0,17.9,21.4,217.0,33.0,34.7,7,5,4,1,2026-05-22T23:24:29.834946+05:30
Vadodara,Gujarat,22.3072,73.1812,30.5,73,0.0,1004.5,8.15,41.4,74,24.6,18.5,20.7,199.0,38.0,23.6,3,5,4,1,2026-05-22T23:24:29.834955+05:30
Rajkot,Gujarat,22.3039,70.8022,30.5,62,0.0,995.0,7.8,45.7,75,30.7,18.7,5.2,136.0,62.0,5.4,3,5,7,1,2026-05-22T23:24:29.834964+05:30
Thane,Maharashtra,19.2183,72.9781,29.5,82,0.0,1009.1,7.15,32.8,63,22.3,15.4,13.4,317.0,48.0,11.7,7,0,4,1,2026-05-22T23:24:29.834972+05:30
Nagpur,Maharashtra,21.1458,79.0882,37.8,18,0.0,970.9,8.75,42.8,80,23.9,19.4,10.5,252.0,91.0,9.4,0,5,10,0,2026-05-22T23:24:29.834980+05:30
Nashik,Maharashtra,19.9975,73.7898,26.1,83,0.0,947.3,8.15,41.0,51,17.2,12.2,6.5,173.0,56.0,3.9,7,5,7,1,2026-05-22T23:24:29.834986+05:30
Aurangabad,Maharashtra,19.8762,75.3433,29.6,62,0.0,946.0,3.15,38.5,62,22.4,17.5,7.7,194.0,75.0,5.4,7,5,3,1,2026-05-22T23:24:29.834994+05:30
Solapur,Maharashtra,17.6599,75.9064,28.8,62,0.0,959.2,8.95,37.8,73,25.1,20.9,7.8,224.0,91.0,3.7,7,5,7,1,2026-05-22T23:24:29.835001+05:30
Kolhapur,Maharashtra,16.705,74.2433,24.9,91,0.0,950.3,7.95,40.0,38,11.0,9.2,7.5,201.0,51.0,2.9,3,5,7,1,2026-05-22T23:24:29.835008+05:30
Goa,Goa,15.2993,74.124,26.5,93,0.0,1000.6,6.55,32.8,35,15.0,12.9,7.1,313.0,45.0,1.3,7,5,4,1,2026-05-22T23:24:29.835016+05:30
Jodhpur,Rajasthan,26.2389,73.0243,33.7,31,0.0,981.4,8.45,34.9,156,274.7,65.0,13.2,249.0,56.0,4.3,0,5,7,0,2026-05-22T23:24:29.835022+05:30
Udaipur,Rajasthan,24.5854,73.7125,30.9,27,0.0,946.6,8.9,40.3,69,79.6,29.7,3.5,185.0,75.0,2.3,0,5,7,0,2026-05-22T23:24:29.835030+05:30
Kota,Rajasthan,25.2138,75.8648,33.5,19,0.0,977.4,8.4,40.3,66,71.7,34.2,10.5,217.0,62.0,3.6,0,5,7,0,2026-05-22T23:24:29.835038+05:30
Bikaner,Rajasthan,28.0229,73.3119,34.9,23,0.0,979.3,8.4,25.9,164,96.6,41.9,3.8,170.0,66.0,2.3,0,5,7,0,2026-05-22T23:24:29.835044+05:30
Ajmer,Rajasthan,26.4499,74.6399,31.5,25,0.0,953.8,8.4,44.3,84,157.9,49.1,6.2,192.0,78.0,5.0,0,5,7,0,2026-05-22T23:24:29.835051+05:30
Gwalior,Madhya Pradesh,26.2183,78.1828,35.0,17,0.0,980.2,8.3,44.6,90,53.4,25.3,5.5,168.0,72.0,3.1,0,5,7,0,2026-05-22T23:24:29.835058+05:30
Indore,Madhya Pradesh,22.7196,75.8577,33.3,28,0.0,948.3,8.7,42.5,65,35.7,24.2,5.0,265.0,91.0,4.8,0,5,7,0,2026-05-22T23:24:29.835064+05:30
Bhopal,Madhya Pradesh,23.2599,77.4126,34.0,23,0.0,952.7,8.7,40.7,58,27.0,21.0,9.8,358.0,65.0,4.7,0,5,7,0,2026-05-22T23:24:29.835071+05:30
Jabalpur,Madhya Pradesh,23.1815,79.9864,33.6,22,0.0,959.8,8.9,40.0,55,44.9,20.6,15.3,278.0,69.0,4.1,0,5,7,0,2026-05-22T23:24:29.835078+05:30
Ujjain,Madhya Pradesh,23.1765,75.7885,33.7,27,0.0,953.6,8.65,40.0,68,39.9,26.0,3.4,217.0,94.0,4.6,0,5,7,0,2026-05-22T23:24:29.835085+05:30
Visakhapatnam,Andhra Pradesh,17.6868,83.2185,32.3,72,0.0,1000.1,9.0,45.0,127,76.1,63.3,45.6,670.0,81.0,53.5,3,5,4,1,2026-05-22T23:24:29.835092+05:30
Vijayawada,Andhra Pradesh,16.5062,80.648,34.8,44,0.0,999.9,9.1,52.9,87,34.1,31.0,12.3,349.0,91.0,7.0,0,5,7,1,2026-05-22T23:24:29.835099+05:30
Guntur,Andhra Pradesh,16.3067,80.4365,34.5,46,0.0,1001.3,9.1,52.2,91,32.1,28.5,10.5,314.0,99.0,6.9,0,5,4,1,2026-05-22T23:24:29.835105+05:30
Nellore,Andhra Pradesh,14.4426,79.9865,32.8,47,0.0,1004.9,8.2,50.0,77,46.3,36.9,9.4,346.0,96.0,10.2,0,5,4,1,2026-05-22T23:24:29.835113+05:30
Kurnool,Andhra Pradesh,15.8281,78.0373,31.6,52,0.0,977.5,9.0,46.8,85,23.0,18.9,8.5,235.0,91.0,5.1,0,5,7,1,2026-05-22T23:24:29.835120+05:30
Kakinada,Andhra Pradesh,16.9891,82.2475,32.0,66,0.0,1004.3,9.05,42.5,113,43.8,34.2,10.1,426.0,102.0,5.5,3,5,4,1,2026-05-22T23:24:29.835126+05:30
Tirupati,Andhra Pradesh,13.6288,79.4192,31.2,52,0.0,991.4,7.75,32.0,64,25.1,20.3,13.5,276.0,71.0,3.6,0,5,7,1,2026-05-22T23:24:29.835132+05:30
Warangal,Telangana,17.9689,79.5941,33.3,39,0.0,976.6,9.1,45.4,110,43.1,37.5,14.5,571.0,89.0,7.7,0,5,7,1,2026-05-22T23:24:29.835139+05:30
Nizamabad,Telangana,18.6725,78.0941,33.2,43,0.0,964.2,9.05,41.8,82,46.8,37.5,14.2,213.0,75.0,7.0,0,5,7,1,2026-05-22T23:24:29.835145+05:30
Mysore,Karnataka,12.2958,76.6396,23.1,87,0.0,931.8,8.65,46.8,35,8.2,7.4,11.5,177.0,49.0,2.6,3,5,7,1,2026-05-22T23:24:29.835152+05:30
Mangalore,Karnataka,12.9141,74.856,25.0,96,0.0,1010.4,8.1,30.6,36,13.0,10.7,10.7,360.0,43.0,3.0,7,0,4,1,2026-05-22T23:24:29.835158+05:30
Hubli-Dharwad,Karnataka,15.3647,75.124,24.2,90,0.0,943.5,8.25,34.9,30,5.7,5.1,8.1,159.0,45.0,1.3,3,5,7,1,2026-05-22T23:24:29.835165+05:30
Belgaum,Karnataka,15.8497,74.4977,23.1,93,0.0,928.2,8.6,38.5,31,12.0,10.7,13.4,159.0,35.0,2.6,3,5,7,1,2026-05-22T23:24:33.120740+05:30
Coimbatore,Tamil Nadu,11.0168,76.9558,24.6,89,0.0,964.6,8.25,52.9,33,7.1,6.2,8.1,177.0,47.0,3.0,3,5,7,1,2026-05-22T23:24:33.120776+05:30
Madurai,Tamil Nadu,9.9252,78.1198,29.5,60,0.0,994.5,8.85,52.2,57,15.9,14.5,23.2,155.0,33.0,5.8,4,5,7,1,2026-05-22T23:24:33.120787+05:30
Trichy,Tamil Nadu,10.7905,78.7047,29.0,67,0.0,1000.8,8.9,54.4,39,7.3,6.5,9.5,151.0,56.0,3.4,7,5,4,1,2026-05-22T23:24:33.120796+05:30
Salem,Tamil Nadu,11.6643,78.146,27.5,71,0.0,979.8,8.85,37.4,52,22.5,16.8,19.5,181.0,48.0,6.3,7,5,7,1,2026-05-22T23:24:33.120804+05:30
Tirunelveli,Tamil Nadu,8.7139,77.7567,28.6,69,0.0,1004.7,8.3,50.4,31,7.8,6.4,6.4,177.0,47.0,1.7,7,5,4,1,2026-05-22T23:24:33.120812+05:30
Vellore,Tamil Nadu,12.9165,79.1325,28.8,62,0.0,985.7,8.4,46.8,60,31.5,25.1,13.6,228.0,62.0,4.0,7,5,7,1,2026-05-22T23:24:33.120820+05:30
Erode,Tamil Nadu,11.341,77.7172,28.0,74,0.0,991.5,8.75,46.1,39,11.8,10.1,14.3,212.0,43.0,3.5,7,5,7,1,2026-05-22T23:24:33.120828+05:30
Kochi,Kerala,9.9312,76.2673,25.5,96,0.0,1012.4,8.15,35.3,49,24.0,22.4,33.2,320.0,12.0,8.1,7,0,4,1,2026-05-22T23:24:33.120835+05:30
Thiruvananthapuram,Kerala,8.5241,76.9366,24.5,96,0.0,1011.6,7.95,45.4,31,11.9,7.5,2.1,249.0,62.0,0.8,3,0,4,1,2026-05-22T23:24:33.120842+05:30
Kozhikode,Kerala,11.2588,75.7804,25.0,99,0.0,1011.5,7.6,31.7,29,8.7,6.0,2.0,469.0,65.0,0.7,7,0,4,1,2026-05-22T23:24:33.120849+05:30
Thrissur,Kerala,10.5276,76.2144,24.9,97,0.0,1010.8,8.05,37.4,46,26.7,25.6,24.8,417.0,16.0,5.9,3,0,4,1,2026-05-22T23:24:33.120857+05:30
Kannur,Kerala,11.8745,75.3704,25.1,96,0.0,1010.8,7.9,32.4,31,12.5,10.2,15.2,363.0,34.0,3.0,7,0,4,1,2026-05-22T23:24:33.120865+05:30
Patna,Bihar,25.5941,85.1376,30.2,82,0.0,996.7,8.85,28.8,176,62.9,55.1,14.3,495.0,127.0,20.6,3,5,7,1,2026-05-22T23:24:33.120871+05:30
Gaya,Bihar,24.7914,85.0002,30.5,79,0.0,989.8,8.9,27.4,156,80.6,66.4,19.0,547.0,115.0,21.2,3,5,7,1,2026-05-22T23:24:33.120877+05:30
Muzaffarpur,Bihar,26.1209,85.3647,28.6,85,0.0,996.9,8.85,33.5,150,70.1,61.5,17.7,486.0,106.0,19.2,7,5,7,1,2026-05-22T23:24:33.120883+05:30
Bhagalpur,Bihar,25.2425,87.0117,29.4,85,0.0,997.8,8.8,37.1,159,55.2,48.3,13.1,483.0,111.0,15.6,7,5,7,1,2026-05-22T23:24:33.120889+05:30
Ranchi,Jharkhand,23.3441,85.3096,26.8,47,0.0,935.0,9.3,27.7,150,186.7,53.4,23.4,346.0,69.0,7.1,4,5,7,0,2026-05-22T23:24:33.120896+05:30
Jamshedpur,Jharkhand,22.8046,86.2029,31.2,73,0.0,987.5,9.1,34.6,152,73.8,61.7,20.1,634.0,91.0,28.3,3,5,7,1,2026-05-22T23:24:33.120902+05:30
Dhanbad,Jharkhand,23.7957,86.4304,30.4,85,0.0,976.6,9.05,36.7,162,100.4,88.9,59.7,568.0,50.0,125.3,3,5,7,1,2026-05-22T23:24:33.120909+05:30
Bokaro,Jharkhand,23.6693,86.1511,30.0,85,0.0,980.3,9.1,27.4,159,124.8,77.5,50.5,792.0,47.0,102.8,7,5,7,1,2026-05-22T23:24:33.120915+05:30
Bhubaneswar,Odisha,20.2961,85.8245,30.0,89,0.0,999.0,9.15,42.5,99,42.0,33.3,8.0,400.0,93.0,5.7,7,5,7,1,2026-05-22T23:24:33.120922+05:30
Cuttack,Odisha,20.4625,85.8828,30.1,88,0.0,1000.9,9.2,35.3,99,42.0,33.3,8.0,424.0,93.0,5.7,3,5,4,1,2026-05-22T23:24:33.120929+05:30
Rourkela,Odisha,22.2604,84.8536,30.5,73,0.0,981.7,9.0,35.3,163,110.4,82.2,35.3,563.0,67.0,19.3,3,5,7,1,2026-05-22T23:24:33.120935+05:30
Raipur,Chhattisgarh,21.2514,81.6296,34.6,25,0.0,971.7,9.0,41.4,141,65.4,60.3,62.4,410.0,25.0,47.1,0,5,7,0,2026-05-22T23:24:33.120942+05:30
Bhilai,Chhattisgarh,21.1938,81.3509,33.9,28,0.0,971.8,8.7,37.8,93,26.8,23.7,29.1,386.0,66.0,37.6,0,5,7,0,2026-05-22T23:24:33.120948+05:30
Guwahati,Assam,26.1158,91.7086,23.8,99,0.2,999.9,8.8,27.4,83,25.3,22.4,11.2,368.0,52.0,2.6,6,5,7,1,2026-05-22T23:24:33.120954+05:30
Agartala,Tripura,23.8315,91.2868,26.6,91,0.0,1004.1,8.85,31.3,84,39.3,34.1,13.0,256.0,50.0,2.9,7,5,4,1,2026-05-22T23:24:33.120961+05:30
Shillong,Meghalaya,25.5788,91.8933,20.0,92,0.0,856.3,7.25,29.2,62,17.3,13.3,7.6,298.0,72.0,2.9,3,5,7,1,2026-05-22T23:24:33.120967+05:30
Imphal,Manipur,24.817,93.9368,23.1,98,0.0,922.1,9.3,30.6,79,14.2,12.1,10.7,406.0,53.0,2.9,3,5,7,1,2026-05-22T23:24:33.120974+05:30
Aizawl,Mizoram,23.7271,92.7176,19.3,97,0.0,891.3,8.35,31.0,62,14.4,10.5,5.9,216.0,56.0,1.4,3,10,7,1,2026-05-22T23:24:33.120980+05:30
Kohima,Nagaland,25.6701,94.1077,17.7,97,0.1,853.5,9.2,27.0,75,25.3,20.3,10.7,385.0,49.0,1.9,6,10,7,1,2026-05-22T23:24:33.120987+05:30
Gangtok,Sikkim,27.3314,88.6138,16.1,95,0.2,836.0,9.15,32.0,67,19.1,15.7,12.0,563.0,104.0,2.7,6,10,7,0,2026-05-22T23:24:33.120993+05:30
Siliguri,West Bengal,26.7271,88.3953,25.6,94,0.0,990.4,8.7,21.2,89,46.8,33.1,11.8,661.0,111.0,5.0,7,5,7,1,2026-05-22T23:24:36.392599+05:30
Durgapur,West Bengal,23.5204,87.3119,29.8,91,0.0,991.7,9.0,36.4,155,68.7,60.5,26.3,473.0,61.0,31.6,7,5,7,1,2026-05-22T23:24:36.392636+05:30
Asansol,West Bengal,23.6739,86.9524,29.9,93,0.0,990.1,9.05,31.3,154,62.4,55.5,29.1,512.0,58.0,40.0,7,5,7,1,2026-05-22T23:24:36.392648+05:30
Pondicherry,Puducherry,11.9139,79.8145,29.4,83,0.0,1008.6,8.95,43.9,93,27.4,20.1,14.1,235.0,73.0,5.1,7,0,4,1,2026-05-22T23:24:36.392658+05:30
Port Blair,Andaman and Nicobar Islands,11.6234,92.7265,26.2,94,0.0,1007.5,1.35,35.6,28,4.2,2.7,0.3,108.0,68.0,0.3,7,5,0,1,2026-05-22T23:24:36.392667+05:30
Haridwar,Uttarakhand,29.9457,78.1642,27.6,52,0.0,970.4,7.55,34.6,153,92.4,45.1,19.2,417.0,81.0,10.9,4,5,7,1,2026-05-22T23:24:36.392674+05:30
Rishikesh,Uttarakhand,30.0869,78.2676,24.9,50,0.0,963.0,7.7,38.2,134,125.3,40.6,10.1,483.0,105.0,8.0,0,5,7,0,2026-05-22T23:24:36.392682+05:30
Nainital,Uttarakhand,29.3919,79.4542,17.4,61,0.0,804.7,8.5,46.1,157,183.0,69.4,13.4,324.0,109.0,7.4,3,5,7,0,2026-05-22T23:24:36.392690+05:30
Mussoorie,Uttarakhand,30.4599,78.0664,16.9,51,0.0,802.2,8.1,52.6,111,110.6,38.8,23.2,247.0,81.0,7.9,0,5,7,0,2026-05-22T23:24:36.392698+05:30
Dharamshala,Himachal Pradesh,32.219,76.3234,21.6,50,0.0,868.7,8.25,40.0,50,24.7,13.6,16.1,220.0,34.0,0.7,0,5,7,0,2026-05-22T23:24:36.392705+05:30
Dalhousie,Himachal Pradesh,32.5387,75.971,12.4,74,0.0,802.1,8.45,45.0,65,48.0,25.3,34.6,283.0,39.0,2.2,3,5,7,0,2026-05-22T23:24:36.392713+05:30
Patiala,Punjab,30.3398,76.3869,31.3,35,0.0,975.7,7.65,52.9,654,756.2,122.0,10.8,302.0,79.0,5.6,0,5,7,0,2026-05-22T23:24:36.392722+05:30
Bhatinda,Punjab,30.211,74.9455,32.7,34,0.0,981.2,8.3,40.0,91,68.7,36.9,15.0,291.0,78.0,7.2,0,5,7,0,2026-05-22T23:24:36.392729+05:30
Rohtak,Haryana,28.8955,76.6066,32.5,30,0.0,979.0,7.8,35.6,788,897.8,176.0,25.7,315.0,61.0,8.8,0,5,7,0,2026-05-22T23:24:36.392735+05:30
Panipat,Haryana,29.3909,76.9635,32.7,30,0.0,977.7,7.65,36.4,1693,2019.1,302.7,13.9,327.0,80.0,6.8,0,5,7,0,2026-05-22T23:24:36.392742+05:30
Mathura,Uttar Pradesh,27.4924,77.6737,34.9,25,0.0,983.5,8.05,37.8,816,1136.2,204.0,21.7,249.0,73.0,9.4,0,5,7,0,2026-05-22T23:24:36.392748+05:30
Vrindavan,Uttar Pradesh,27.5823,77.7027,34.0,27,0.0,984.0,8.0,39.2,816,1136.2,204.0,21.7,267.0,73.0,9.4,0,5,7,0,2026-05-22T23:24:36.392754+05:30
Ayodhya,Uttar Pradesh,26.7922,82.1998,31.1,69,0.0,990.9,8.4,29.5,153,124.8,65.9,19.4,734.0,91.0,12.4,3,5,7,1,2026-05-22T23:24:36.392761+05:30
Ratlam,Madhya Pradesh,23.3315,75.0367,32.5,30,0.0,954.6,8.6,37.8,70,41.8,27.1,3.1,182.0,94.0,4.5,0,5,7,0,2026-05-22T23:24:36.392769+05:30
Sagar,Madhya Pradesh,23.8388,78.7378,32.8,23,0.0,948.9,8.75,39.6,49,27.4,17.7,10.5,202.0,65.0,3.7,0,5,7,0,2026-05-22T23:24:36.392775+05:30
Satna,Madhya Pradesh,24.6005,80.8322,32.6,22,0.0,968.6,8.8,40.7,52,46.2,21.2,17.1,208.0,62.0,3.3,0,5,7,0,2026-05-22T23:24:36.392783+05:30
Akola,Maharashtra,20.7002,77.0082,36.2,34,0.0,974.0,8.9,49.7,71,31.4,24.1,11.6,188.0,78.0,7.1,0,5,10,1,2026-05-22T23:24:36.392790+05:30
Amravati,Maharashtra,20.9374,77.7796,36.3,25,0.0,966.2,8.85,45.4,69,30.6,24.0,12.7,204.0,77.0,7.0,0,5,10,0,2026-05-22T23:24:36.392798+05:30
Latur,Maharashtra,18.4088,76.5604,28.5,65,0.0,940.9,9.0,45.0,75,32.7,26.3,8.4,220.0,93.0,3.2,7,5,7,1,2026-05-22T23:24:36.392806+05:30
Nanded,Maharashtra,19.1383,77.3091,32.5,44,0.0,968.7,8.95,45.4,86,44.1,33.1,7.3,207.0,103.0,5.2,0,5,7,1,2026-05-22T23:24:36.392813+05:30
Gulbarga,Karnataka,17.3297,76.8343,29.2,61,0.0,960.0,8.95,46.4,78,31.1,25.6,8.9,248.0,96.0,3.9,7,5,7,1,2026-05-22T23:24:36.392819+05:30
Bidar,Karnataka,17.9104,77.5199,29.0,58,0.0,936.1,9.0,46.1,81,45.6,38.2,12.5,231.0,100.0,6.1,4,5,7,1,2026-05-22T23:24:36.392825+05:30
Hospet,Karnataka,15.2689,76.3909,26.4,79,0.0,958.4,9.05,41.0,40,7.4,6.7,10.0,189.0,51.0,1.7,7,5,7,1,2026-05-22T23:24:36.392832+05:30
Tirupur,Tamil Nadu,11.1085,77.3411,25.6,85,0.0,977.9,8.35,57.6,36,13.9,12.0,16.3,171.0,40.0,4.2,7,5,7,1,2026-05-22T23:24:36.392838+05:30
Alappuzha,Kerala,9.4981,76.3388,25.4,98,0.0,1012.5,7.95,31.7,34,17.9,14.3,12.7,151.0,48.0,3.1,7,0,4,1,2026-05-22T23:24:36.392844+05:30
Munnar,Kerala,10.0889,77.0595,16.9,98,0.0,859.0,5.1,32.0,31,7.3,6.6,8.8,125.0,43.0,2.1,3,10,3,1,2026-05-22T23:24:36.392851+05:30
Silchar,Assam,24.8333,92.7789,25.2,96,0.2,1004.2,8.95,26.6,80,29.0,20.5,6.3,314.0,86.0,3.9,10,5,4,1,2026-05-22T23:24:36.392857+05:30
Dibrugarh,Assam,27.4728,94.912,25.4,97,0.1,993.3,8.95,27.4,86,35.9,32.6,15.6,285.0,49.0,1.9,10,5,7,1,2026-05-22T23:24:36.392864+05:30
