city,state,latitude,longitude,temp,humidity,rain,pressure,uv_index,wind_gusts,aqi,pm10,pm2_5,no2,co,o3,so2,mosquito_risk,arthritis_risk,migraine_risk,frizz_risk,updated_at
Delhi,Delhi,28.6139,77.209,28.8,61,0.0,977.2,7.75,32.8,198,401.4,124.3,56.7,326.0,8.0,26.3,7,5,7,1,2026-06-24T05:30:49.037684+05:30
Mumbai,Maharashtra,19.076,72.8777,24.9,96,0.1,1005.7,0.75,34.2,40,36.9,11.8,5.4,179.0,56.0,3.1,6,5,0,1,2026-06-24T05:30:49.037747+05:30
Bangalore,Karnataka,12.9716,77.5946,20.4,83,0.0,910.5,7.9,66.6,24,7.1,5.1,8.0,204.0,35.0,4.5,3,5,7,1,2026-06-24T05:30:49.037765+05:30
Hyderabad,Telangana,17.385,78.4867,25.5,68,0.0,950.3,6.5,43.6,27,4.6,3.9,7.9,150.0,33.0,4.4,7,5,7,1,2026-06-24T05:30:49.037777+05:30
Chennai,Tamil Nadu,13.0827,80.2707,27.5,69,0.0,1005.5,8.85,40.3,58,18.9,17.0,23.8,303.0,23.0,8.5,7,5,4,1,2026-06-24T05:30:49.037787+05:30
Kolkata,West Bengal,22.5726,88.3639,28.2,91,0.0,1000.5,8.85,24.5,150,42.6,39.1,13.1,628.0,67.0,11.1,7,5,4,1,2026-06-24T05:30:49.037798+05:30
Pune,Maharashtra,18.5204,73.8567,22.5,94,0.0,944.6,3.8,36.7,18,2.5,2.4,7.5,134.0,41.0,4.8,3,5,3,1,2026-06-24T05:30:49.037806+05:30
Ahmedabad,Gujarat,23.0225,72.5714,29.2,74,0.0,997.3,8.05,37.8,74,35.9,18.2,4.7,114.0,42.0,3.0,7,5,7,1,2026-06-24T05:30:49.037814+05:30
Jaipur,Rajasthan,26.9124,75.7873,27.3,64,0.0,954.6,8.2,32.8,124,49.9,26.7,12.7,279.0,41.0,5.4,7,5,7,1,2026-06-24T05:30:49.037823+05:30
Lucknow,Uttar Pradesh,26.8467,80.9462,31.2,47,0.0,987.7,8.3,35.6,152,175.6,67.1,24.7,341.0,50.0,12.8,0,5,7,1,2026-06-24T05:30:49.037836+05:30
Kanpur,Uttar Pradesh,26.4499,80.3319,31.5,44,0.0,986.5,8.3,34.9,181,423.8,97.3,25.9,259.0,46.0,10.7,0,5,7,1,2026-06-24T05:30:49.037844+05:30
Chandigarh,Chandigarh,30.7333,76.7794,25.3,73,0.0,963.2,7.8,25.9,96,44.4,43.7,43.4,601.0,13.0,5.4,7,5,7,1,2026-06-24T05:30:49.037851+05:30
Srinagar,Jammu and Kashmir,34.0837,74.7973,14.6,98,0.0,837.1,9.1,20.9,75,24.2,23.5,19.0,339.0,18.0,0.3,3,10,7,0,2026-06-24T05:30:49.037859+05:30
Jammu,Jammu and Kashmir,32.7266,74.857,27.2,58,0.0,967.3,8.65,31.3,77,36.0,34.8,40.6,291.0,8.0,2.2,4,5,7,1,2026-06-24T05:30:49.037867+05:30
Amritsar,Punjab,31.634,74.8723,26.6,73,0.0,974.6,8.45,19.8,127,90.1,65.7,50.8,596.0,15.0,6.9,7,5,7,1,2026-06-24T05:30:49.037875+05:30
Ludhiana,Punjab,30.901,75.8573,27.7,68,0.0,972.8,8.0,24.5,143,117.1,85.2,55.4,708.0,15.0,12.8,7,5,7,1,2026-06-24T05:30:49.037887+05:30
Jalandhar,Punjab,31.326,75.5762,28.1,64,0.0,973.8,8.25,25.9,132,95.5,73.8,48.7,619.0,18.0,8.8,7,5,7,1,2026-06-24T05:30:49.037894+05:30
Dehradun,Uttarakhand,30.6284,78.0322,14.6,97,0.0,825.9,7.7,33.8,62,21.2,20.0,19.5,225.0,34.0,0.4,3,10,7,0,2026-06-24T05:30:49.037902+05:30
Shimla,Himachal Pradesh,31.1048,77.1734,12.0,82,0.0,779.6,7.7,35.3,61,24.8,22.7,13.3,273.0,40.0,0.1,3,10,7,0,2026-06-24T05:30:49.037910+05:30
Manali,Himachal Pradesh,32.2396,77.1887,13.0,81,0.0,814.1,8.0,34.2,34,3.0,2.6,17.4,209.0,101.0,0.0,3,10,7,0,2026-06-24T05:30:49.037918+05:30
Gurgaon,Haryana,28.4595,77.0266,27.6,63,0.0,975.6,7.8,28.4,475,536.4,113.4,25.4,363.0,46.0,11.3,7,5,7,1,2026-06-24T05:30:49.037925+05:30
Noida,Uttar Pradesh,28.5355,77.391,27.6,69,0.0,978.7,7.8,19.8,475,536.4,113.4,25.4,347.0,46.0,11.3,7,5,7,1,2026-06-24T05:30:49.037933+05:30
Ghaziabad,Uttar Pradesh,28.6692,77.4538,28.0,70,0.0,976.8,7.75,25.6,191,444.2,136.0,57.6,357.0,7.0,24.5,7,5,7,1,2026-06-24T05:30:49.037940+05:30
Faridabad,Haryana,28.4089,77.3178,28.0,64,0.0,978.0,7.8,30.6,475,536.4,113.4,25.4,313.0,46.0,11.3,7,5,7,1,2026-06-24T05:30:49.037946+05:30
Meerut,Uttar Pradesh,28.9845,77.7064,27.3,75,0.0,975.9,7.7,20.9,191,444.2,136.0,57.6,412.0,7.0,24.5,7,5,7,1,2026-06-24T05:30:49.037954+05:30
Agra,Uttar Pradesh,27.1767,78.0081,29.3,57,0.0,982.4,8.1,28.4,241,123.9,45.6,18.9,368.0,49.0,5.3,4,5,7,1,2026-06-24T05:30:49.037962+05:30
Varanasi,Uttar Pradesh,25.3176,82.9739,31.4,54,0.0,992.1,8.75,36.0,120,31.1,24.3,12.0,213.0,62.0,8.7,0,5,7,1,2026-06-24T05:30:49.037970+05:30
Prayagraj,Uttar Pradesh,25.4358,81.8463,31.4,52,0.0,990.7,8.2,38.9,125,32.8,26.5,12.3,193.0,61.0,6.1,0,5,7,1,2026-06-24T05:30:49.037978+05:30
Gorakhpur,Uttar Pradesh,26.7606,83.3732,28.2,77,0.0,991.5,8.6,25.9,154,112.7,75.9,26.7,975.0,56.0,11.3,7,5,7,1,2026-06-24T05:30:49.037985+05:30
Bareilly,Uttar Pradesh,28.367,79.4304,29.6,50,0.0,981.1,8.1,32.4,152,225.8,84.5,37.5,488.0,34.0,15.7,4,5,7,1,2026-06-24T05:30:49.038001+05:30
Aligarh,Uttar Pradesh,27.8974,78.088,27.7,65,0.0,980.1,7.95,29.5,349,78.5,41.0,12.9,372.0,64.0,3.7,7,5,7,1,2026-06-24T05:30:49.038008+05:30
Moradabad,Uttar Pradesh,28.8386,78.7733,29.7,55,0.0,978.0,7.9,30.6,160,311.1,125.3,56.2,537.0,5.0,14.9,4,5,7,1,2026-06-24T05:30:49.038015+05:30
Saharanpur,Uttar Pradesh,29.9637,77.546,26.7,79,0.0,970.1,7.45,25.2,154,114.1,82.7,53.5,775.0,5.0,9.7,7,5,7,1,2026-06-24T05:30:49.038022+05:30
Jhansi,Uttar Pradesh,25.4484,78.5685,29.1,61,0.0,973.1,8.45,29.9,88,29.7,20.7,8.0,205.0,57.0,5.0,7,5,7,1,2026-06-24T05:30:52.358476+05:30
Surat,Gujarat,21.1702,72.8311,27.6,84,0.0,1002.6,1.2,47.5,72,50.2,27.2,26.4,358.0,28.0,41.9,7,5,0,1,2026-06-24T05:30:52.358511+05:30
Vadodara,Gujarat,22.3072,73.1812,29.2,78,0.0,999.6,5.55,48.6,68,35.3,22.1,18.4,203.0,23.0,15.9,7,5,3,1,2026-06-24T05:30:52.358522+05:30
Rajkot,Gujarat,22.3039,70.8022,27.6,82,0.0,989.6,7.55,43.9,71,32.9,15.0,5.1,97.0,40.0,4.9,7,5,7,1,2026-06-24T05:30:52.358531+05:30
Thane,Maharashtra,19.2183,72.9781,23.7,99,0.3,1005.1,0.7,28.8,40,36.9,11.8,5.4,173.0,56.0,3.1,6,5,0,1,2026-06-24T05:30:52.358538+05:30
Nagpur,Maharashtra,21.1458,79.0882,26.3,90,0.0,969.8,8.8,28.4,45,10.9,10.9,18.4,201.0,43.0,18.2,7,5,7,1,2026-06-24T05:30:52.358546+05:30
Nashik,Maharashtra,19.9975,73.7898,22.5,94,0.0,941.9,1.05,39.2,20,4.0,2.4,10.1,147.0,39.0,7.3,3,5,3,1,2026-06-24T05:30:52.358554+05:30
Aurangabad,Maharashtra,19.8762,75.3433,23.1,96,0.0,940.4,5.65,39.2,21,12.2,6.6,8.9,164.0,46.0,3.1,3,5,3,1,2026-06-24T05:30:52.358560+05:30
Solapur,Maharashtra,17.6599,75.9064,23.5,92,0.0,954.2,5.2,49.3,18,2.6,2.5,5.6,134.0,39.0,2.0,3,5,3,1,2026-06-24T05:30:52.358568+05:30
Kolhapur,Maharashtra,16.705,74.2433,21.5,97,0.1,945.1,4.3,45.4,21,2.7,2.4,3.6,125.0,46.0,1.7,6,5,3,1,2026-06-24T05:30:52.358576+05:30
Goa,Goa,15.2993,74.124,23.1,99,0.4,997.3,6.1,27.0,32,17.9,9.6,2.4,185.0,51.0,0.9,6,5,7,1,2026-06-24T05:30:52.358583+05:30
Jodhpur,Rajasthan,26.2389,73.0243,30.3,57,0.0,977.2,8.4,38.2,135,242.1,60.1,4.1,110.0,46.0,2.8,0,5,7,1,2026-06-24T05:30:52.358590+05:30
Udaipur,Rajasthan,24.5854,73.7125,25.7,76,0.0,941.7,8.75,31.7,71,28.7,19.5,10.5,149.0,37.0,7.6,7,5,7,1,2026-06-24T05:30:52.358598+05:30
Kota,Rajasthan,25.2138,75.8648,29.0,59,0.0,973.4,8.3,32.0,79,38.1,22.4,6.9,187.0,67.0,5.7,4,5,7,1,2026-06-24T05:30:52.358606+05:30
Bikaner,Rajasthan,28.0229,73.3119,30.6,47,0.0,975.2,8.45,31.0,150,227.2,65.7,3.5,117.0,54.0,3.4,0,5,7,1,2026-06-24T05:30:52.358613+05:30
Ajmer,Rajasthan,26.4499,74.6399,27.4,57,0.0,949.2,8.35,41.8,83,70.1,26.8,10.1,195.0,36.0,3.7,4,5,7,1,2026-06-24T05:30:52.358620+05:30
Gwalior,Madhya Pradesh,26.2183,78.1828,29.2,59,0.0,977.9,8.15,34.9,111,94.1,39.5,13.8,167.0,45.0,3.8,4,5,7,1,2026-06-24T05:30:52.358627+05:30
Indore,Madhya Pradesh,22.7196,75.8577,25.0,84,0.0,943.8,7.65,48.2,65,26.4,22.6,10.1,257.0,59.0,7.5,7,5,7,1,2026-06-24T05:30:52.358634+05:30
Bhopal,Madhya Pradesh,23.2599,77.4126,24.5,91,0.0,949.4,3.8,24.5,53,15.1,13.9,8.4,277.0,48.0,2.3,3,5,3,1,2026-06-24T05:30:52.358641+05:30
Jabalpur,Madhya Pradesh,23.1815,79.9864,26.1,85,0.0,957.9,8.55,31.7,56,8.2,8.2,11.0,282.0,50.0,3.3,7,5,7,1,2026-06-24T05:30:52.358648+05:30
Ujjain,Madhya Pradesh,23.1765,75.7885,25.5,80,0.0,949.5,3.8,34.2,71,25.3,19.3,8.1,252.0,59.0,12.9,7,5,3,1,2026-06-24T05:30:52.358655+05:30
Visakhapatnam,Andhra Pradesh,17.6868,83.2185,28.3,78,0.0,999.8,6.65,38.9,74,19.3,18.7,28.2,335.0,28.0,43.0,7,5,7,1,2026-06-24T05:30:52.358662+05:30
Vijayawada,Andhra Pradesh,16.5062,80.648,28.3,64,0.0,999.5,8.75,34.6,68,20.9,19.0,16.2,186.0,31.0,4.7,7,5,7,1,2026-06-24T05:30:52.358669+05:30
Guntur,Andhra Pradesh,16.3067,80.4365,28.5,61,0.0,1000.9,8.0,37.4,58,15.9,14.2,15.6,168.0,26.0,5.6,7,5,4,1,2026-06-24T05:30:52.358676+05:30
Nellore,Andhra Pradesh,14.4426,79.9865,28.3,65,0.0,1004.0,8.8,49.3,45,11.6,8.0,8.9,164.0,33.0,5.3,7,5,4,1,2026-06-24T05:30:52.358684+05:30
Kurnool,Andhra Pradesh,15.8281,78.0373,25.7,73,0.0,975.3,6.9,56.9,18,3.2,2.8,6.5,114.0,33.0,2.9,7,5,7,1,2026-06-24T05:30:52.358692+05:30
Kakinada,Andhra Pradesh,16.9891,82.2475,28.3,78,0.0,1003.8,7.9,35.6,63,20.1,18.4,14.0,217.0,36.0,6.4,7,5,4,1,2026-06-24T05:30:52.358699+05:30
Tirupati,Andhra Pradesh,13.6288,79.4192,26.5,67,0.0,990.0,8.7,40.3,41,15.6,12.9,18.9,166.0,15.0,2.2,7,5,7,1,2026-06-24T05:30:52.358707+05:30
Warangal,Telangana,17.9689,79.5941,27.2,64,0.0,975.5,6.75,43.6,44,14.0,12.0,14.5,229.0,30.0,5.4,7,5,7,1,2026-06-24T05:30:52.358713+05:30
Nizamabad,Telangana,18.6725,78.0941,26.5,68,0.0,961.3,6.5,40.3,25,4.3,3.6,5.4,161.0,39.0,1.7,7,5,7,1,2026-06-24T05:30:52.358719+05:30
Mysore,Karnataka,12.2958,76.6396,21.7,89,0.0,927.8,8.7,54.7,21,7.9,4.9,4.1,111.0,40.0,1.7,3,5,7,1,2026-06-24T05:30:52.358726+05:30
Mangalore,Karnataka,12.9141,74.856,23.6,98,0.2,1007.1,8.35,42.5,39,13.5,8.7,5.9,134.0,33.0,2.2,6,5,4,1,2026-06-24T05:30:52.358732+05:30
Hubli-Dharwad,Karnataka,15.3647,75.124,21.5,97,0.0,939.0,5.9,54.4,18,1.8,1.4,2.5,97.0,42.0,0.9,3,5,3,1,2026-06-24T05:30:52.358740+05:30
Belgaum,Karnataka,15.8497,74.4977,20.9,97,0.0,923.2,7.55,48.2,21,2.3,2.0,3.3,94.0,44.0,0.9,3,5,7,1,2026-06-24T05:30:55.648641+05:30
Coimbatore,Tamil Nadu,11.0168,76.9558,23.5,88,0.0,960.9,8.15,50.0,25,12.9,8.4,7.2,161.0,30.0,2.8,3,5,7,1,2026-06-24T05:30:55.648677+05:30
Madurai,Tamil Nadu,9.9252,78.1198,27.7,63,0.0,991.9,7.75,30.2,63,23.1,22.2,29.6,158.0,1.0,6.3,7,5,7,1,2026-06-24T05:30:55.648689+05:30
Trichy,Tamil Nadu,10.7905,78.7047,28.3,59,0.0,998.8,7.85,47.2,25,8.3,6.3,8.1,106.0,35.0,3.7,4,5,7,1,2026-06-24T05:30:55.648697+05:30
Salem,Tamil Nadu,11.6643,78.146,25.4,83,0.0,977.0,8.7,27.4,46,15.7,14.1,21.6,275.0,20.0,9.5,7,5,7,1,2026-06-24T05:30:55.648705+05:30
Tirunelveli,Tamil Nadu,8.7139,77.7567,27.7,68,0.0,1003.1,8.25,42.1,27,8.4,6.4,6.2,144.0,34.0,2.0,7,5,4,1,2026-06-24T05:30:55.648713+05:30
Vellore,Tamil Nadu,12.9165,79.1325,27.2,64,0.0,983.9,7.7,45.7,34,12.5,9.4,12.3,147.0,30.0,4.6,7,5,7,1,2026-06-24T05:30:55.648720+05:30
Erode,Tamil Nadu,11.341,77.7172,25.4,78,0.0,988.7,8.35,34.2,40,19.1,15.5,14.3,158.0,27.0,3.9,7,5,7,1,2026-06-24T05:30:55.648727+05:30
Kochi,Kerala,9.9312,76.2673,25.4,93,0.1,1009.8,7.05,38.2,49,11.7,10.0,14.6,119.0,15.0,4.1,10,0,4,1,2026-06-24T05:30:55.648735+05:30
Thiruvananthapuram,Kerala,8.5241,76.9366,24.4,97,0.0,1009.2,7.95,46.1,33,10.2,6.6,3.1,107.0,46.0,1.5,3,0,4,1,2026-06-24T05:30:55.648742+05:30
Kozhikode,Kerala,11.2588,75.7804,23.8,99,0.1,1009.1,8.35,26.6,23,11.1,6.3,2.1,147.0,48.0,1.1,6,0,4,1,2026-06-24T05:30:55.648749+05:30
Thrissur,Kerala,10.5276,76.2144,24.0,99,0.1,1008.3,7.4,34.2,47,12.3,11.0,16.3,150.0,11.0,4.2,6,0,4,1,2026-06-24T05:30:55.648756+05:30
Kannur,Kerala,11.8745,75.3704,24.8,97,0.3,1008.1,8.5,31.3,33,11.1,7.7,8.3,121.0,27.0,2.4,6,0,4,1,2026-06-24T05:30:55.648763+05:30
Patna,Bihar,25.5941,85.1376,28.1,90,0.0,994.8,8.85,26.6,161,129.0,103.4,45.7,423.0,29.0,20.3,7,5,7,1,2026-06-24T05:30:55.648769+05:30
Gaya,Bihar,24.7914,85.0002,28.8,65,0.0,988.6,8.9,30.2,135,44.4,32.7,12.0,231.0,65.0,19.7,7,5,7,1,2026-06-24T05:30:55.648776+05:30
Muzaffarpur,Bihar,26.1209,85.3647,26.7,86,0.0,995.0,8.8,27.4,162,89.9,78.0,18.5,585.0,71.0,16.0,7,5,7,1,2026-06-24T05:30:55.648783+05:30
Bhagalpur,Bihar,25.2425,87.0117,27.6,89,0.0,995.4,8.8,30.6,153,82.2,71.0,20.6,600.0,55.0,35.8,7,5,7,1,2026-06-24T05:30:55.648789+05:30
Ranchi,Jharkhand,23.3441,85.3096,24.2,78,0.0,933.5,8.45,30.6,99,48.4,38.2,10.6,250.0,64.0,9.4,3,5,7,1,2026-06-24T05:30:55.648796+05:30
Jamshedpur,Jharkhand,22.8046,86.2029,26.6,84,0.0,986.4,8.75,30.2,126,46.9,40.3,14.4,299.0,83.0,27.5,7,5,7,1,2026-06-24T05:30:55.648803+05:30
Dhanbad,Jharkhand,23.7957,86.4304,27.5,71,0.0,974.8,8.75,30.2,151,64.3,54.5,37.2,259.0,51.0,97.0,7,5,7,1,2026-06-24T05:30:55.648809+05:30
Bokaro,Jharkhand,23.6693,86.1511,27.9,68,0.0,978.6,8.9,28.8,134,62.2,50.6,28.8,290.0,53.0,73.4,7,5,7,1,2026-06-24T05:30:55.648815+05:30
Bhubaneswar,Odisha,20.2961,85.8245,25.8,96,0.4,998.8,9.05,31.3,83,37.6,36.0,17.0,254.0,42.0,9.1,10,5,7,1,2026-06-24T05:30:55.648822+05:30
Cuttack,Odisha,20.4625,85.8828,25.7,96,0.2,1000.8,9.1,35.6,83,37.6,36.0,17.0,243.0,42.0,9.1,10,5,4,1,2026-06-24T05:30:55.648829+05:30
Rourkela,Odisha,22.2604,84.8536,25.5,96,0.0,981.2,8.8,28.4,128,53.6,47.5,14.5,247.0,59.0,16.2,7,5,7,1,2026-06-24T05:30:55.648835+05:30
Raipur,Chhattisgarh,21.2514,81.6296,27.1,78,0.0,971.4,8.75,31.7,68,15.9,15.8,28.6,502.0,47.0,50.6,7,5,7,1,2026-06-24T05:30:55.648842+05:30
Bhilai,Chhattisgarh,21.1938,81.3509,26.3,84,0.0,971.9,8.9,29.9,61,14.6,14.4,24.2,771.0,52.0,43.8,7,5,7,1,2026-06-24T05:30:55.648848+05:30
Guwahati,Assam,26.1158,91.7086,24.1,99,0.0,997.7,8.75,25.6,57,14.1,10.3,5.6,327.0,81.0,2.2,3,5,7,1,2026-06-24T05:30:55.648855+05:30
Agartala,Tripura,23.8315,91.2868,26.1,91,0.0,1002.1,7.8,28.1,70,29.7,19.2,11.1,239.0,69.0,2.9,7,5,4,1,2026-06-24T05:30:55.648862+05:30
Shillong,Meghalaya,25.5788,91.8933,20.0,93,0.0,854.2,7.8,21.6,42,3.3,2.5,4.8,217.0,79.0,3.0,3,5,7,1,2026-06-24T05:30:55.648868+05:30
Imphal,Manipur,24.817,93.9368,22.6,95,0.0,919.9,8.25,29.9,50,11.8,10.4,5.0,373.0,64.0,2.3,3,5,7,1,2026-06-24T05:30:55.648875+05:30
Aizawl,Mizoram,23.7271,92.7176,19.7,98,0.0,889.0,4.85,19.4,20,4.7,4.6,4.9,190.0,34.0,0.6,3,10,3,1,2026-06-24T05:30:55.648881+05:30
Kohima,Nagaland,25.6701,94.1077,19.3,95,0.0,852.2,7.5,25.9,36,7.5,5.6,3.3,231.0,65.0,0.8,3,10,7,1,2026-06-24T05:30:55.648888+05:30
Gangtok,Sikkim,27.3314,88.6138,17.0,96,0.0,833.9,8.85,36.7,59,20.8,14.7,6.2,419.0,114.0,4.5,3,10,7,1,2026-06-24T05:30:55.648894+05:30
Siliguri,West Bengal,26.7271,88.3953,23.7,99,0.0,988.8,8.75,22.7,76,39.3,27.5,7.8,475.0,123.0,7.6,3,5,7,1,2026-06-24T05:30:58.923171+05:30
Durgapur,West Bengal,23.5204,87.3119,28.2,74,0.0,989.4,8.8,29.2,163,84.3,77.1,45.1,819.0,44.0,77.4,7,5,7,1,2026-06-24T05:30:58.923209+05:30
Asansol,West Bengal,23.6739,86.9524,27.0,75,0.0,988.4,8.8,33.8,154,60.5,52.7,36.1,1255.0,54.0,67.7,7,5,7,1,2026-06-24T05:30:58.923221+05:30
Pondicherry,Puducherry,11.9139,79.8145,28.3,62,0.0,1007.2,8.55,32.8,61,18.7,16.3,17.3,435.0,36.0,7.4,7,5,4,1,2026-06-24T05:30:58.923230+05:30
Port Blair,Andaman and Nicobar Islands,11.6234,92.7265,27.3,85,0.0,1006.7,8.75,43.9,27,12.3,7.4,0.3,93.0,52.0,0.4,7,5,4,1,2026-06-24T05:30:58.923238+05:30
Haridwar,Uttarakhand,29.9457,78.1642,24.9,84,0.0,968.3,7.6,26.3,108,64.7,44.6,34.9,326.0,26.0,5.6,3,5,7,1,2026-06-24T05:30:58.923246+05:30
Rishikesh,Uttarakhand,30.0869,78.2676,22.9,90,0.0,961.1,7.7,23.0,76,15.6,15.3,8.2,330.0,98.0,3.4,3,5,7,1,2026-06-24T05:30:58.923254+05:30
Nainital,Uttarakhand,29.3919,79.4542,16.1,83,0.0,802.6,7.8,29.5,79,28.2,25.0,20.1,305.0,54.0,3.2,3,10,7,0,2026-06-24T05:30:58.923262+05:30
Mussoorie,Uttarakhand,30.4599,78.0664,14.6,91,0.0,799.1,7.55,40.7,73,25.2,24.9,32.7,301.0,27.0,3.3,3,10,7,0,2026-06-24T05:30:58.923270+05:30
Dharamshala,Himachal Pradesh,32.219,76.3234,19.6,77,0.0,865.1,8.5,31.0,47,8.2,7.3,12.4,209.0,50.0,0.0,3,5,7,0,2026-06-24T05:30:58.923278+05:30
Dalhousie,Himachal Pradesh,32.5387,75.971,13.6,85,0.0,799.9,7.45,33.8,76,24.3,22.8,30.9,313.0,11.0,0.6,3,10,7,0,2026-06-24T05:30:58.923286+05:30
Patiala,Punjab,30.3398,76.3869,27.6,68,0.0,972.5,7.65,23.4,158,112.2,73.1,32.0,561.0,47.0,10.1,7,5,7,1,2026-06-24T05:30:58.923294+05:30
Bhatinda,Punjab,30.211,74.9455,27.0,77,0.2,977.3,8.3,27.7,136,91.3,51.7,32.2,328.0,41.0,10.1,10,5,7,1,2026-06-24T05:30:58.923302+05:30
Rohtak,Haryana,28.8955,76.6066,26.7,67,0.0,975.6,7.75,24.1,234,299.9,106.9,48.4,283.0,4.0,9.4,7,5,7,1,2026-06-24T05:30:58.923310+05:30
Panipat,Haryana,29.3909,76.9635,26.7,75,0.0,974.8,7.65,16.6,612,375.3,125.7,51.4,508.0,2.0,7.8,7,5,7,1,2026-06-24T05:30:58.923318+05:30
Mathura,Uttar Pradesh,27.4924,77.6737,27.8,65,0.0,981.2,8.05,25.6,203,55.9,23.5,9.6,346.0,75.0,2.4,7,5,7,1,2026-06-24T05:30:58.923325+05:30
Vrindavan,Uttar Pradesh,27.5823,77.7027,27.5,70,0.0,981.6,8.05,25.6,203,55.9,23.5,9.6,323.0,75.0,2.4,7,5,7,1,2026-06-24T05:30:58.923333+05:30
Ayodhya,Uttar Pradesh,26.7922,82.1998,28.7,67,0.0,988.9,8.35,28.8,153,169.5,96.2,57.5,467.0,10.0,11.5,7,5,7,1,2026-06-24T05:30:58.923339+05:30
Ratlam,Madhya Pradesh,23.3315,75.0367,24.9,86,0.0,950.4,8.0,37.4,73,25.8,15.7,9.3,175.0,47.0,15.4,3,5,7,1,2026-06-24T05:30:58.923346+05:30
Sagar,Madhya Pradesh,23.8388,78.7378,25.4,76,0.0,946.1,4.85,33.5,59,8.6,8.4,8.3,173.0,56.0,3.3,7,5,3,1,2026-06-24T05:30:58.923353+05:30
Satna,Madhya Pradesh,24.6005,80.8322,29.1,62,0.0,967.0,8.75,34.9,88,17.9,13.7,6.5,190.0,67.0,3.7,7,5,7,1,2026-06-24T05:30:58.923360+05:30
Akola,Maharashtra,20.7002,77.0082,25.8,90,0.0,971.6,8.6,37.4,33,8.8,7.9,11.4,165.0,47.0,6.0,7,5,7,1,2026-06-24T05:30:58.923367+05:30
Amravati,Maharashtra,20.9374,77.7796,25.2,93,0.1,963.8,8.15,33.5,31,8.5,8.0,11.9,170.0,44.0,5.4,10,5,7,1,2026-06-24T05:30:58.923375+05:30
Latur,Maharashtra,18.4088,76.5604,23.9,85,0.0,936.1,3.3,42.8,20,2.8,2.7,6.0,124.0,36.0,2.1,3,5,3,1,2026-06-24T05:30:58.923382+05:30
Nanded,Maharashtra,19.1383,77.3091,26.6,72,0.0,965.1,7.2,35.6,23,4.9,4.5,8.6,160.0,31.0,4.7,7,5,7,1,2026-06-24T05:30:58.923389+05:30
Gulbarga,Karnataka,17.3297,76.8343,25.1,78,0.0,955.8,4.75,55.4,19,2.6,2.4,6.6,124.0,37.0,2.8,7,5,3,1,2026-06-24T05:30:58.923396+05:30
Bidar,Karnataka,17.9104,77.5199,23.8,82,0.0,932.1,7.95,46.8,22,3.8,3.5,8.1,121.0,32.0,3.0,3,5,7,1,2026-06-24T05:30:58.923402+05:30
Hospet,Karnataka,15.2689,76.3909,23.6,85,0.0,954.0,8.3,57.2,19,2.0,1.6,3.2,101.0,40.0,1.4,3,5,7,1,2026-06-24T05:30:58.923408+05:30
Tirupur,Tamil Nadu,11.1085,77.3411,24.4,85,0.0,974.7,8.25,55.1,48,21.3,18.2,17.7,135.0,18.0,4.8,3,5,7,1,2026-06-24T05:30:58.923415+05:30
Alappuzha,Kerala,9.4981,76.3388,25.7,93,0.2,1009.8,7.6,40.0,40,9.6,6.8,6.6,81.0,37.0,2.6,10,0,4,1,2026-06-24T05:30:58.923422+05:30
Munnar,Kerala,10.0889,77.0595,16.4,94,0.0,856.1,7.3,38.9,19,6.7,5.1,6.9,87.0,17.0,0.8,3,10,7,0,2026-06-24T05:30:58.923430+05:30
Silchar,Assam,24.8333,92.7789,25.3,96,0.0,1001.3,8.2,22.0,63,19.6,17.1,7.5,272.0,79.0,4.1,7,5,4,1,2026-06-24T05:30:58.923437+05:30
Dibrugarh,Assam,27.4728,94.912,24.8,97,0.3,991.7,8.55,21.6,70,18.7,14.6,6.4,209.0,88.0,1.0,6,5,7,1,2026-06-24T05:30:58.923444+05:30
