city,state,latitude,longitude,temp,humidity,rain,pressure,uv_index,wind_gusts,aqi,pm10,pm2_5,no2,co,o3,so2,mosquito_risk,arthritis_risk,migraine_risk,frizz_risk,updated_at
Delhi,Delhi,28.6139,77.209,30.0,75,0.0,975.1,7.55,29.5,399,331.6,116.9,58.7,801.0,23.0,21.0,7,5,7,1,2026-07-14T00:14:59.216570+05:30
Mumbai,Maharashtra,19.076,72.8777,27.7,84,0.0,1008.0,6.6,50.0,59,28.6,15.8,6.1,168.0,45.0,5.2,7,0,4,1,2026-07-14T00:14:59.216621+05:30
Bangalore,Karnataka,12.9716,77.5946,22.7,74,0.0,911.7,8.55,46.4,57,14.6,10.7,15.1,289.0,42.0,5.1,3,5,7,1,2026-07-14T00:14:59.216636+05:30
Hyderabad,Telangana,17.385,78.4867,29.0,55,0.0,950.5,9.05,46.4,58,15.8,12.5,9.7,315.0,61.0,5.0,4,5,7,1,2026-07-14T00:14:59.216645+05:30
Chennai,Tamil Nadu,13.0827,80.2707,30.6,69,0.0,1003.6,8.55,42.5,75,37.3,21.9,8.5,248.0,93.0,6.6,3,5,4,1,2026-07-14T00:14:59.216654+05:30
Kolkata,West Bengal,22.5726,88.3639,27.2,98,0.1,999.0,7.4,25.6,152,69.4,57.7,16.0,663.0,74.0,13.5,10,5,7,1,2026-07-14T00:14:59.216661+05:30
Pune,Maharashtra,18.5204,73.8567,23.4,88,0.0,947.3,8.3,50.8,45,13.4,9.6,10.0,154.0,34.0,6.9,3,5,7,1,2026-07-14T00:14:59.216668+05:30
Ahmedabad,Gujarat,23.0225,72.5714,29.5,65,0.0,998.7,8.15,50.8,62,30.6,17.0,6.7,139.0,44.0,4.1,7,5,7,1,2026-07-14T00:14:59.216675+05:30
Jaipur,Rajasthan,26.9124,75.7873,29.5,62,0.0,953.6,8.15,32.8,389,410.7,84.1,14.9,185.0,49.0,5.9,7,5,7,1,2026-07-14T00:14:59.216681+05:30
Lucknow,Uttar Pradesh,26.8467,80.9462,29.6,73,0.0,986.1,7.9,37.1,125,75.2,40.5,13.9,218.0,63.0,8.0,7,5,7,1,2026-07-14T00:14:59.216691+05:30
Kanpur,Uttar Pradesh,26.4499,80.3319,30.1,72,0.0,984.7,8.15,39.2,113,85.9,38.6,12.6,198.0,66.0,8.8,3,5,7,1,2026-07-14T00:14:59.216698+05:30
Chandigarh,Chandigarh,30.7333,76.7794,27.4,88,0.0,960.6,7.7,32.8,163,185.8,111.5,58.1,846.0,51.0,22.5,7,5,7,1,2026-07-14T00:14:59.216704+05:30
Srinagar,Jammu and Kashmir,34.0837,74.7973,18.8,88,0.0,836.9,8.9,17.3,79,35.5,31.8,28.9,1162.0,49.0,3.3,3,10,7,1,2026-07-14T00:14:59.216711+05:30
Jammu,Jammu and Kashmir,32.7266,74.857,26.9,85,0.0,964.6,8.55,18.0,152,115.0,90.8,66.1,921.0,30.0,10.2,7,5,7,1,2026-07-14T00:14:59.216717+05:30
Amritsar,Punjab,31.634,74.8723,27.3,92,0.0,972.3,8.4,19.8,183,258.0,171.8,97.1,1125.0,22.0,23.3,7,5,7,1,2026-07-14T00:14:59.216723+05:30
Ludhiana,Punjab,30.901,75.8573,28.1,94,0.0,970.4,7.9,27.7,169,152.3,113.2,47.4,1830.0,38.0,10.6,7,5,7,1,2026-07-14T00:14:59.216728+05:30
Jalandhar,Punjab,31.326,75.5762,27.4,95,0.0,971.4,8.15,24.1,171,164.8,120.6,48.7,1521.0,46.0,11.9,7,5,7,1,2026-07-14T00:14:59.216734+05:30
Dehradun,Uttarakhand,30.6284,78.0322,18.5,99,0.0,825.9,8.15,33.8,99,115.0,51.6,17.0,220.0,115.0,5.4,3,10,7,1,2026-07-14T00:14:59.216739+05:30
Shimla,Himachal Pradesh,31.1048,77.1734,14.9,97,0.0,779.4,8.25,37.1,113,142.0,78.5,19.5,479.0,117.0,5.9,3,10,7,0,2026-07-14T00:14:59.216745+05:30
Manali,Himachal Pradesh,32.2396,77.1887,18.5,85,0.0,815.0,9.55,34.9,51,42.4,30.9,66.5,289.0,45.0,0.4,3,10,7,0,2026-07-14T00:14:59.216754+05:30
Gurgaon,Haryana,28.4595,77.0266,30.3,69,0.0,973.7,7.7,33.5,566,972.3,204.0,32.7,525.0,41.0,12.4,3,5,7,1,2026-07-14T00:14:59.216760+05:30
Noida,Uttar Pradesh,28.5355,77.391,30.0,76,0.0,976.5,7.65,28.4,566,972.3,204.0,32.7,676.0,41.0,12.4,7,5,7,1,2026-07-14T00:14:59.216766+05:30
Ghaziabad,Uttar Pradesh,28.6692,77.4538,30.0,75,0.0,974.6,7.6,26.3,316,339.9,127.6,58.5,1271.0,28.0,23.2,7,5,7,1,2026-07-14T00:14:59.216772+05:30
Faridabad,Haryana,28.4089,77.3178,30.2,75,0.0,975.8,7.7,32.0,566,972.3,204.0,32.7,488.0,41.0,12.4,3,5,7,1,2026-07-14T00:14:59.216778+05:30
Meerut,Uttar Pradesh,28.9845,77.7064,30.0,81,0.0,973.4,7.55,31.3,316,339.9,127.6,58.5,561.0,28.0,23.2,7,5,7,1,2026-07-14T00:14:59.216784+05:30
Agra,Uttar Pradesh,27.1767,78.0081,30.2,71,0.0,980.5,7.45,39.6,136,215.6,62.9,15.0,263.0,57.0,5.9,3,5,7,1,2026-07-14T00:14:59.216791+05:30
Varanasi,Uttar Pradesh,25.3176,82.9739,30.1,79,0.0,990.4,5.05,33.5,116,71.7,44.5,17.2,417.0,54.0,9.8,3,5,3,1,2026-07-14T00:14:59.216797+05:30
Prayagraj,Uttar Pradesh,25.4358,81.8463,30.1,71,0.0,989.1,6.0,37.8,108,57.3,34.7,11.5,195.0,68.0,8.2,3,5,3,1,2026-07-14T00:14:59.216803+05:30
Gorakhpur,Uttar Pradesh,26.7606,83.3732,25.7,98,0.0,990.7,3.25,39.6,151,91.0,55.4,15.8,329.0,78.0,7.7,7,5,3,1,2026-07-14T00:14:59.216809+05:30
Bareilly,Uttar Pradesh,28.367,79.4304,29.6,76,0.0,979.0,8.0,36.0,178,183.5,84.1,23.9,306.0,55.0,9.6,7,5,7,1,2026-07-14T00:14:59.216817+05:30
Aligarh,Uttar Pradesh,27.8974,78.088,30.2,71,0.0,978.0,7.6,35.3,511,607.2,136.4,15.5,242.0,59.0,5.9,3,5,7,1,2026-07-14T00:14:59.216822+05:30
Moradabad,Uttar Pradesh,28.8386,78.7733,29.3,81,0.0,975.8,7.8,35.3,197,257.0,123.4,45.3,432.0,36.0,15.4,7,5,7,1,2026-07-14T00:14:59.216828+05:30
Saharanpur,Uttar Pradesh,29.9637,77.546,28.8,86,0.0,967.8,7.35,34.2,189,382.8,160.2,74.3,495.0,24.0,26.2,7,5,7,1,2026-07-14T00:14:59.216833+05:30
Jhansi,Uttar Pradesh,25.4484,78.5685,29.4,65,0.0,971.8,8.0,40.0,100,86.6,42.4,9.1,191.0,68.0,7.7,7,5,7,1,2026-07-14T00:15:02.582217+05:30
Surat,Gujarat,21.1702,72.8311,28.4,79,0.0,1004.7,6.75,63.7,64,33.3,21.1,15.2,243.0,34.0,25.5,7,5,4,1,2026-07-14T00:15:02.582252+05:30
Vadodara,Gujarat,22.3072,73.1812,28.2,78,0.0,1001.4,7.8,56.5,59,27.7,17.5,9.3,130.0,40.0,7.7,7,5,4,1,2026-07-14T00:15:02.582264+05:30
Rajkot,Gujarat,22.3039,70.8022,27.2,82,0.0,991.0,7.15,56.9,59,26.5,14.4,4.2,106.0,42.0,3.3,7,5,7,1,2026-07-14T00:15:02.582274+05:30
Thane,Maharashtra,19.2183,72.9781,27.0,87,0.0,1007.2,7.75,46.1,59,28.6,15.8,6.1,203.0,45.0,5.2,7,5,4,1,2026-07-14T00:15:02.582283+05:30
Nagpur,Maharashtra,21.1458,79.0882,27.8,71,0.0,969.0,7.95,42.1,87,52.5,33.2,20.2,304.0,33.0,9.7,7,5,7,1,2026-07-14T00:15:02.582293+05:30
Nashik,Maharashtra,19.9975,73.7898,23.0,93,0.0,943.9,8.1,58.7,49,11.1,8.2,10.7,162.0,33.0,7.8,3,5,7,1,2026-07-14T00:15:02.582302+05:30
Aurangabad,Maharashtra,19.8762,75.3433,23.6,84,0.0,942.4,8.9,52.9,53,16.7,12.2,9.2,170.0,50.0,10.3,3,5,7,1,2026-07-14T00:15:02.582311+05:30
Solapur,Maharashtra,17.6599,75.9064,25.2,72,0.0,956.6,8.9,45.4,50,14.6,10.6,5.9,154.0,45.0,2.5,7,5,7,1,2026-07-14T00:15:02.582320+05:30
Kolhapur,Maharashtra,16.705,74.2433,22.6,93,0.0,947.8,8.9,50.0,44,13.6,10.2,7.4,133.0,35.0,3.2,3,5,7,1,2026-07-14T00:15:02.582329+05:30
Goa,Goa,15.2993,74.124,25.6,93,0.0,999.0,7.2,33.8,57,31.7,22.6,8.2,338.0,39.0,2.6,7,5,7,1,2026-07-14T00:15:02.582339+05:30
Jodhpur,Rajasthan,26.2389,73.0243,31.7,54,0.0,976.6,8.4,49.3,185,372.5,88.2,4.2,109.0,55.0,2.5,0,5,7,1,2026-07-14T00:15:02.582348+05:30
Udaipur,Rajasthan,24.5854,73.7125,25.6,68,0.0,941.6,8.7,50.0,69,34.5,18.9,4.1,108.0,64.0,3.4,7,5,7,1,2026-07-14T00:15:02.582356+05:30
Kota,Rajasthan,25.2138,75.8648,29.8,61,0.0,973.3,8.3,38.5,92,43.5,25.6,8.1,172.0,70.0,6.7,7,5,7,1,2026-07-14T00:15:02.582363+05:30
Bikaner,Rajasthan,28.0229,73.3119,32.5,51,0.0,973.5,8.45,35.6,164,222.6,66.4,3.4,119.0,67.0,4.0,0,5,7,1,2026-07-14T00:15:02.582370+05:30
Ajmer,Rajasthan,26.4499,74.6399,28.2,63,0.0,948.6,8.35,47.9,99,67.3,28.5,8.2,157.0,57.0,4.1,7,5,7,1,2026-07-14T00:15:02.582377+05:30
Gwalior,Madhya Pradesh,26.2183,78.1828,29.5,66,0.0,976.3,8.2,43.2,102,128.5,52.4,9.8,150.0,61.0,5.0,7,5,7,1,2026-07-14T00:15:02.582384+05:30
Indore,Madhya Pradesh,22.7196,75.8577,25.0,83,0.0,944.6,8.05,52.6,66,23.8,17.2,7.3,204.0,60.0,8.7,7,5,7,1,2026-07-14T00:15:02.582391+05:30
Bhopal,Madhya Pradesh,23.2599,77.4126,26.5,74,0.0,949.5,7.9,42.5,76,44.4,27.7,8.4,260.0,62.0,5.1,7,5,7,1,2026-07-14T00:15:02.582398+05:30
Jabalpur,Madhya Pradesh,23.1815,79.9864,27.0,75,0.0,956.6,8.05,38.2,90,57.4,30.6,7.1,218.0,64.0,4.9,7,5,7,1,2026-07-14T00:15:02.582405+05:30
Ujjain,Madhya Pradesh,23.1765,75.7885,25.5,83,0.0,950.0,8.5,51.8,65,22.0,15.9,6.3,193.0,57.0,8.5,7,5,7,1,2026-07-14T00:15:02.582413+05:30
Visakhapatnam,Andhra Pradesh,17.6868,83.2185,29.7,68,0.0,997.3,8.35,32.4,109,55.5,34.8,29.9,325.0,44.0,42.7,7,5,7,1,2026-07-14T00:15:02.582420+05:30
Vijayawada,Andhra Pradesh,16.5062,80.648,30.8,63,0.0,997.7,8.9,50.8,82,44.7,34.0,21.8,326.0,38.0,9.0,3,5,7,1,2026-07-14T00:15:02.582427+05:30
Guntur,Andhra Pradesh,16.3067,80.4365,31.8,52,0.0,999.1,8.65,49.7,79,36.7,29.5,21.1,342.0,39.0,8.4,0,5,7,1,2026-07-14T00:15:02.582434+05:30
Nellore,Andhra Pradesh,14.4426,79.9865,30.6,60,0.0,1001.7,8.75,51.1,71,36.1,24.0,13.1,229.0,64.0,5.1,0,5,4,1,2026-07-14T00:15:02.582442+05:30
Kurnool,Andhra Pradesh,15.8281,78.0373,29.7,47,0.0,975.1,8.85,48.2,57,14.2,10.0,7.0,139.0,65.0,5.8,4,5,7,1,2026-07-14T00:15:02.582450+05:30
Kakinada,Andhra Pradesh,16.9891,82.2475,29.6,67,0.0,1001.7,7.25,39.2,83,51.8,28.5,10.0,268.0,65.0,6.4,7,5,4,1,2026-07-14T00:15:02.582457+05:30
Tirupati,Andhra Pradesh,13.6288,79.4192,31.1,45,0.0,988.2,8.75,44.3,85,65.0,48.4,51.6,156.0,10.0,6.1,0,5,7,1,2026-07-14T00:15:02.582463+05:30
Warangal,Telangana,17.9689,79.5941,28.2,69,0.0,974.7,8.7,43.6,72,24.9,20.8,13.0,268.0,49.0,5.0,7,5,7,1,2026-07-14T00:15:02.582470+05:30
Nizamabad,Telangana,18.6725,78.0941,28.0,63,0.0,961.9,8.9,46.1,60,21.0,16.2,7.8,179.0,68.0,6.4,7,5,7,1,2026-07-14T00:15:02.582477+05:30
Mysore,Karnataka,12.2958,76.6396,21.0,90,0.0,928.6,8.5,42.5,51,11.6,8.8,12.3,186.0,37.0,3.0,3,5,7,1,2026-07-14T00:15:02.582483+05:30
Mangalore,Karnataka,12.9141,74.856,26.1,89,0.0,1008.3,8.1,44.3,55,20.5,13.7,8.6,181.0,32.0,3.0,7,0,4,1,2026-07-14T00:15:02.582490+05:30
Hubli-Dharwad,Karnataka,15.3647,75.124,21.2,97,0.0,940.9,8.95,47.9,41,11.9,8.1,7.1,147.0,36.0,2.1,3,5,7,1,2026-07-14T00:15:02.582497+05:30
Belgaum,Karnataka,15.8497,74.4977,20.8,97,0.0,925.6,9.0,46.4,40,11.3,8.1,6.6,121.0,35.0,2.1,3,5,7,1,2026-07-14T00:15:05.874656+05:30
Coimbatore,Tamil Nadu,11.0168,76.9558,24.2,92,0.0,961.6,8.1,55.1,52,13.5,11.1,12.5,190.0,26.0,4.0,3,5,7,1,2026-07-14T00:15:05.874689+05:30
Madurai,Tamil Nadu,9.9252,78.1198,29.5,62,0.0,991.9,8.2,40.0,65,30.9,21.2,24.6,150.0,31.0,7.2,7,5,7,1,2026-07-14T00:15:05.874700+05:30
Trichy,Tamil Nadu,10.7905,78.7047,29.4,62,0.0,998.3,7.95,50.0,64,26.9,21.1,23.0,132.0,29.0,6.1,7,5,7,1,2026-07-14T00:15:05.874711+05:30
Salem,Tamil Nadu,11.6643,78.146,26.1,82,0.0,976.7,8.35,29.2,68,20.5,15.1,14.8,404.0,40.0,6.1,7,5,7,1,2026-07-14T00:15:05.874721+05:30
Tirunelveli,Tamil Nadu,8.7139,77.7567,29.3,61,0.0,1002.5,8.45,43.9,47,12.4,8.4,6.3,153.0,40.0,2.4,7,5,4,1,2026-07-14T00:15:05.874730+05:30
Vellore,Tamil Nadu,12.9165,79.1325,31.4,44,0.0,982.0,8.65,42.5,73,31.4,22.0,16.5,173.0,46.0,4.7,0,5,7,1,2026-07-14T00:15:05.874739+05:30
Erode,Tamil Nadu,11.341,77.7172,27.1,75,0.0,988.5,8.45,50.0,60,24.2,17.7,19.9,170.0,28.0,4.8,7,5,7,1,2026-07-14T00:15:05.874748+05:30
Kochi,Kerala,9.9312,76.2673,27.4,84,0.0,1010.5,8.55,42.1,55,21.2,16.0,13.8,119.0,24.0,4.5,7,0,4,1,2026-07-14T00:15:05.874758+05:30
Thiruvananthapuram,Kerala,8.5241,76.9366,25.9,90,0.0,1009.7,8.35,51.5,53,17.3,10.0,4.7,132.0,42.0,1.9,7,0,4,1,2026-07-14T00:15:05.874766+05:30
Kozhikode,Kerala,11.2588,75.7804,25.7,93,0.0,1009.4,8.55,48.2,52,21.4,11.1,2.5,169.0,47.0,1.6,7,0,4,1,2026-07-14T00:15:05.874775+05:30
Thrissur,Kerala,10.5276,76.2144,26.0,88,0.0,1008.7,8.3,41.0,54,20.5,15.0,9.7,162.0,28.0,3.6,7,0,4,1,2026-07-14T00:15:05.874785+05:30
Kannur,Kerala,11.8745,75.3704,26.2,90,0.0,1008.7,8.45,47.5,52,17.7,11.0,8.1,213.0,32.0,2.5,7,0,4,1,2026-07-14T00:15:05.874794+05:30
Patna,Bihar,25.5941,85.1376,27.5,97,0.1,993.6,7.55,32.0,151,67.8,47.4,22.4,391.0,62.0,10.5,10,5,7,1,2026-07-14T00:15:05.874803+05:30
Gaya,Bihar,24.7914,85.0002,26.4,95,0.1,987.5,5.15,35.6,128,82.4,54.7,20.6,612.0,43.0,8.4,10,5,3,1,2026-07-14T00:15:05.874812+05:30
Muzaffarpur,Bihar,26.1209,85.3647,26.4,97,0.2,993.8,8.05,24.1,151,70.3,48.1,21.2,482.0,67.0,10.5,10,5,7,1,2026-07-14T00:15:05.874819+05:30
Bhagalpur,Bihar,25.2425,87.0117,27.7,97,0.0,994.5,5.25,27.0,149,92.0,65.7,30.8,332.0,33.0,17.5,7,5,3,1,2026-07-14T00:15:05.874826+05:30
Ranchi,Jharkhand,23.3441,85.3096,24.7,94,0.0,931.7,8.3,33.1,122,116.4,66.4,28.6,379.0,40.0,10.0,3,5,7,1,2026-07-14T00:15:05.874833+05:30
Jamshedpur,Jharkhand,22.8046,86.2029,27.1,92,0.0,984.5,8.45,29.5,140,108.5,68.7,31.0,571.0,50.0,36.9,7,5,7,1,2026-07-14T00:15:05.874840+05:30
Dhanbad,Jharkhand,23.7957,86.4304,26.8,95,0.0,973.6,6.1,29.5,159,124.8,98.3,70.5,1773.0,13.0,179.6,7,5,7,1,2026-07-14T00:15:05.874847+05:30
Bokaro,Jharkhand,23.6693,86.1511,27.0,95,0.0,977.3,8.05,26.6,158,132.2,96.9,53.9,2315.0,22.0,155.2,7,5,7,1,2026-07-14T00:15:05.874853+05:30
Bhubaneswar,Odisha,20.2961,85.8245,28.2,90,0.0,995.4,6.75,34.9,118,103.6,73.3,40.5,493.0,27.0,20.7,7,5,7,1,2026-07-14T00:15:05.874860+05:30
Cuttack,Odisha,20.4625,85.8828,28.4,87,0.0,997.3,7.9,36.0,118,103.6,73.3,40.5,685.0,27.0,20.7,7,5,7,1,2026-07-14T00:15:05.874867+05:30
Rourkela,Odisha,22.2604,84.8536,28.6,87,0.0,978.1,8.4,25.9,110,101.3,56.7,17.7,521.0,67.0,12.4,7,5,7,1,2026-07-14T00:15:05.874874+05:30
Raipur,Chhattisgarh,21.2514,81.6296,28.2,72,0.0,969.4,7.0,39.2,118,75.7,43.3,27.4,542.0,56.0,49.3,7,5,7,1,2026-07-14T00:15:05.874881+05:30
Bhilai,Chhattisgarh,21.1938,81.3509,27.8,74,0.0,970.0,6.45,42.5,110,71.0,39.5,21.2,660.0,59.0,37.4,7,5,7,1,2026-07-14T00:15:05.874888+05:30
Guwahati,Assam,26.1158,91.7086,25.5,99,0.1,995.4,2.1,20.5,58,14.9,14.2,9.4,323.0,39.0,1.8,10,5,3,1,2026-07-14T00:15:05.874895+05:30
Agartala,Tripura,23.8315,91.2868,25.9,99,0.0,999.5,1.0,30.6,58,10.0,9.5,7.8,220.0,58.0,2.6,7,5,3,1,2026-07-14T00:15:05.874902+05:30
Shillong,Meghalaya,25.5788,91.8933,19.2,97,0.0,852.3,2.2,25.6,36,15.3,12.7,9.9,338.0,53.0,3.8,3,10,3,1,2026-07-14T00:15:05.874909+05:30
Imphal,Manipur,24.817,93.9368,23.4,97,0.0,918.0,7.65,26.3,51,28.2,27.2,28.1,445.0,18.0,4.7,3,5,7,1,2026-07-14T00:15:05.874916+05:30
Aizawl,Mizoram,23.7271,92.7176,20.3,98,0.0,886.8,2.25,21.6,54,7.3,7.0,9.5,212.0,27.0,0.8,3,5,3,1,2026-07-14T00:15:05.874923+05:30
Kohima,Nagaland,25.6701,94.1077,19.6,95,0.0,850.3,8.05,27.7,33,9.2,9.0,13.3,249.0,21.0,1.1,3,10,7,1,2026-07-14T00:15:05.874930+05:30
Gangtok,Sikkim,27.3314,88.6138,18.9,98,0.2,834.4,1.65,25.2,47,5.2,5.1,8.4,295.0,94.0,1.3,6,10,3,1,2026-07-14T00:15:05.874937+05:30
Siliguri,West Bengal,26.7271,88.3953,26.3,90,0.0,986.5,3.95,37.1,53,14.5,14.1,15.5,447.0,82.0,3.6,7,5,3,1,2026-07-14T00:15:09.151011+05:30
Durgapur,West Bengal,23.5204,87.3119,26.7,97,0.1,988.6,6.45,34.6,152,98.3,78.0,49.2,1330.0,25.0,48.7,10,5,7,1,2026-07-14T00:15:09.151057+05:30
Asansol,West Bengal,23.6739,86.9524,26.9,98,0.1,987.2,2.55,29.9,142,87.5,65.9,51.4,368.0,24.0,56.5,10,5,3,1,2026-07-14T00:15:09.151069+05:30
Pondicherry,Puducherry,11.9139,79.8145,29.5,72,0.0,1005.4,8.6,47.2,69,35.0,20.8,12.0,186.0,65.0,7.2,7,5,4,1,2026-07-14T00:15:09.151078+05:30
Port Blair,Andaman and Nicobar Islands,11.6234,92.7265,28.0,78,0.1,1004.4,8.6,59.0,49,24.3,9.9,0.2,83.0,48.0,0.4,10,5,4,1,2026-07-14T00:15:09.151088+05:30
Haridwar,Uttarakhand,29.9457,78.1642,27.7,86,0.0,966.3,7.5,30.6,190,284.1,132.7,44.1,460.0,63.0,21.2,7,5,7,1,2026-07-14T00:15:09.151096+05:30
Rishikesh,Uttarakhand,30.0869,78.2676,26.6,93,0.0,959.3,7.6,29.2,167,229.1,94.3,12.7,353.0,113.0,12.6,7,5,7,1,2026-07-14T00:15:09.151104+05:30
Nainital,Uttarakhand,29.3919,79.4542,16.9,100,0.0,801.2,8.5,35.3,163,157.9,72.6,13.1,265.0,79.0,7.1,3,10,7,1,2026-07-14T00:15:09.151112+05:30
Mussoorie,Uttarakhand,30.4599,78.0664,17.5,99,0.0,799.2,8.0,44.6,166,212.8,90.8,23.4,335.0,110.0,14.3,3,10,7,1,2026-07-14T00:15:09.151119+05:30
Dharamshala,Himachal Pradesh,32.219,76.3234,21.9,75,0.0,863.7,8.4,31.3,75,59.5,32.2,19.6,406.0,69.0,2.3,3,5,7,1,2026-07-14T00:15:09.151127+05:30
Dalhousie,Himachal Pradesh,32.5387,75.971,16.1,94,0.0,799.2,8.65,28.1,119,120.6,72.2,53.9,617.0,72.0,6.9,3,10,7,0,2026-07-14T00:15:09.151135+05:30
Patiala,Punjab,30.3398,76.3869,28.6,87,0.0,969.8,7.5,37.1,175,244.0,147.6,70.9,889.0,15.0,14.1,7,5,7,1,2026-07-14T00:15:09.151143+05:30
Bhatinda,Punjab,30.211,74.9455,30.5,77,0.0,975.3,8.25,27.0,177,311.1,148.1,71.8,352.0,23.0,18.1,3,5,7,1,2026-07-14T00:15:09.151151+05:30
Rohtak,Haryana,28.8955,76.6066,30.2,65,0.0,974.0,7.55,27.7,535,434.0,110.4,22.6,427.0,52.0,4.4,3,5,7,1,2026-07-14T00:15:09.151159+05:30
Panipat,Haryana,29.3909,76.9635,29.0,85,0.0,972.2,7.5,32.0,475,931.3,171.8,28.3,347.0,48.0,6.7,7,5,7,1,2026-07-14T00:15:09.151166+05:30
Mathura,Uttar Pradesh,27.4924,77.6737,30.9,65,0.0,979.3,7.2,37.4,738,1389.5,205.4,13.9,220.0,63.0,4.9,3,5,7,1,2026-07-14T00:15:09.151174+05:30
Vrindavan,Uttar Pradesh,27.5823,77.7027,31.1,65,0.0,979.8,7.3,36.7,738,1389.5,205.4,13.9,214.0,63.0,4.9,3,5,7,1,2026-07-14T00:15:09.151181+05:30
Ayodhya,Uttar Pradesh,26.7922,82.1998,26.8,91,0.0,988.4,7.9,28.1,140,84.5,56.9,20.1,386.0,55.0,6.4,7,5,7,1,2026-07-14T00:15:09.151189+05:30
Ratlam,Madhya Pradesh,23.3315,75.0367,25.2,87,0.0,950.8,8.5,53.3,63,18.7,13.4,6.7,161.0,51.0,9.3,7,5,7,1,2026-07-14T00:15:09.151197+05:30
Sagar,Madhya Pradesh,23.8388,78.7378,27.2,68,0.0,945.4,6.95,43.6,89,47.7,26.4,6.1,170.0,67.0,3.9,7,5,7,1,2026-07-14T00:15:09.151205+05:30
Satna,Madhya Pradesh,24.6005,80.8322,28.9,67,0.0,965.4,8.0,42.5,95,73.1,34.7,7.5,176.0,63.0,4.3,7,5,7,1,2026-07-14T00:15:09.151212+05:30
Akola,Maharashtra,20.7002,77.0082,28.1,67,0.0,972.4,8.7,47.5,59,18.9,13.1,8.1,164.0,50.0,7.6,7,5,7,1,2026-07-14T00:15:09.151221+05:30
Amravati,Maharashtra,20.9374,77.7796,28.0,66,0.0,964.2,7.7,53.6,62,18.6,12.8,8.3,140.0,54.0,8.9,7,5,7,1,2026-07-14T00:15:09.151229+05:30
Latur,Maharashtra,18.4088,76.5604,24.9,71,0.0,938.4,8.85,47.5,52,16.6,11.8,5.0,152.0,57.0,3.0,3,5,7,1,2026-07-14T00:15:09.151237+05:30
Nanded,Maharashtra,19.1383,77.3091,27.8,61,0.0,966.3,8.55,43.9,57,21.6,16.2,5.8,159.0,77.0,5.3,7,5,7,1,2026-07-14T00:15:09.151245+05:30
Gulbarga,Karnataka,17.3297,76.8343,25.8,66,0.0,957.6,8.8,48.6,52,13.9,10.1,6.5,131.0,52.0,2.9,7,5,7,1,2026-07-14T00:15:09.151252+05:30
Bidar,Karnataka,17.9104,77.5199,26.0,61,0.0,933.6,8.95,46.1,55,16.0,11.7,5.9,133.0,65.0,2.6,7,5,7,1,2026-07-14T00:15:09.151259+05:30
Hospet,Karnataka,15.2689,76.3909,24.1,77,0.0,955.9,8.9,47.5,47,12.6,8.8,6.1,143.0,42.0,2.1,3,5,7,1,2026-07-14T00:15:09.151266+05:30
Tirupur,Tamil Nadu,11.1085,77.3411,24.8,88,0.0,975.1,8.15,57.2,62,28.6,21.6,25.8,166.0,20.0,6.3,3,5,7,1,2026-07-14T00:15:09.151273+05:30
Alappuzha,Kerala,9.4981,76.3388,27.6,84,0.0,1010.7,8.5,43.6,55,20.8,12.5,7.9,84.0,39.0,3.2,7,0,4,1,2026-07-14T00:15:09.151281+05:30
Munnar,Kerala,10.0889,77.0595,16.9,99,0.0,857.3,8.7,35.3,38,10.5,8.5,10.4,111.0,25.0,2.2,3,10,7,1,2026-07-14T00:15:09.151288+05:30
Silchar,Assam,24.8333,92.7789,26.0,99,0.1,998.7,4.2,19.4,74,18.7,16.1,7.5,201.0,67.0,3.3,10,5,3,1,2026-07-14T00:15:09.151296+05:30
Dibrugarh,Assam,27.4728,94.912,27.0,89,0.0,988.2,8.9,20.2,53,34.8,34.0,29.9,476.0,24.0,4.1,7,5,7,1,2026-07-14T00:15:09.151303+05:30
