city,state,latitude,longitude,temp,humidity,rain,pressure,uv_index,wind_gusts,aqi,pm10,pm2_5,mosquito_risk,arthritis_risk,migraine_risk,frizz_risk,updated_at
Delhi,Delhi,28.6139,77.209,29.7,40,0.0,982.7,6.1,30.2,268,542.0,73.6,4,5,7,0,2026-03-30T16:35:42.167533+05:30
Mumbai,Maharashtra,19.076,72.8777,28.6,83,0.0,1006.6,8.0,26.6,61,48.4,26.6,7,5,4,1,2026-03-30T16:35:42.167572+05:30
Bangalore,Karnataka,12.9716,77.5946,32.6,23,0.0,910.4,8.7,29.2,133,33.1,28.0,0,5,7,0,2026-03-30T16:35:42.167587+05:30
Hyderabad,Telangana,17.385,78.4867,31.7,46,0.0,952.6,8.25,34.2,125,47.0,37.0,0,5,7,1,2026-03-30T16:35:42.167597+05:30
Chennai,Tamil Nadu,13.0827,80.2707,32.5,55,0.0,1005.8,9.3,32.0,55,14.6,10.1,0,5,4,1,2026-03-30T16:35:42.167606+05:30
Kolkata,West Bengal,22.5726,88.3639,31.0,68,0.0,1004.2,8.5,27.7,105,33.5,28.6,3,5,4,1,2026-03-30T16:35:42.167615+05:30
Pune,Maharashtra,18.5204,73.8567,32.7,46,0.0,947.2,8.55,36.4,71,29.7,22.9,0,5,7,1,2026-03-30T16:35:42.167626+05:30
Ahmedabad,Gujarat,23.0225,72.5714,35.0,33,0.0,1001.0,8.0,31.7,55,41.8,11.7,0,5,4,1,2026-03-30T16:35:42.167634+05:30
Jaipur,Rajasthan,26.9124,75.7873,31.1,33,0.0,959.7,6.05,46.1,116,89.4,15.7,0,5,7,0,2026-03-30T16:35:42.167641+05:30
Lucknow,Uttar Pradesh,26.8467,80.9462,36.2,28,0.0,990.7,7.3,18.7,114,57.9,19.7,0,5,10,0,2026-03-30T16:35:42.167649+05:30
Kanpur,Uttar Pradesh,26.4499,80.3319,34.7,35,0.0,989.3,7.3,18.4,115,228.2,31.9,0,5,7,1,2026-03-30T16:35:42.167656+05:30
Chandigarh,Chandigarh,30.7333,76.7794,29.7,49,0.0,968.6,6.2,37.8,84,394.9,65.4,4,5,7,1,2026-03-30T16:35:42.167663+05:30
Srinagar,Jammu and Kashmir,34.0837,74.7973,13.7,82,0.0,840.3,5.4,30.2,82,27.8,10.8,3,10,3,0,2026-03-30T16:35:42.167671+05:30
Jammu,Jammu and Kashmir,32.7266,74.857,27.0,53,0.0,972.1,6.35,39.2,72,98.3,27.6,4,5,7,1,2026-03-30T16:35:42.167678+05:30
Amritsar,Punjab,31.634,74.8723,22.3,84,0.0,981.1,5.3,50.8,107,99.7,35.2,3,5,3,1,2026-03-30T16:35:42.167684+05:30
Ludhiana,Punjab,30.901,75.8573,24.8,71,0.0,979.6,5.95,41.8,150,456.3,79.4,3,5,3,1,2026-03-30T16:35:42.167691+05:30
Jalandhar,Punjab,31.326,75.5762,28.6,51,0.0,979.5,4.7,38.5,125,292.4,63.8,4,5,3,1,2026-03-30T16:35:42.167699+05:30
Dehradun,Uttarakhand,30.6284,78.0322,20.3,58,0.0,831.3,6.35,26.6,49,81.0,18.0,0,5,7,0,2026-03-30T16:35:42.167706+05:30
Shimla,Himachal Pradesh,31.1048,77.1734,18.6,59,0.0,786.4,6.6,23.4,54,79.2,19.6,0,5,7,0,2026-03-30T16:35:42.167713+05:30
Manali,Himachal Pradesh,32.2396,77.1887,15.9,72,0.0,821.7,8.55,30.2,66,8.7,4.8,3,5,7,0,2026-03-30T16:35:42.167719+05:30
Gurgaon,Haryana,28.4595,77.0266,29.9,36,0.0,981.0,6.15,27.0,1053,1564.6,157.4,4,5,7,0,2026-03-30T16:35:42.167726+05:30
Noida,Uttar Pradesh,28.5355,77.391,29.8,42,0.0,984.3,5.9,32.0,1053,1564.6,157.4,4,5,3,0,2026-03-30T16:35:42.167733+05:30
Ghaziabad,Uttar Pradesh,28.6692,77.4538,30.1,42,0.0,982.8,5.95,31.3,158,629.6,83.6,0,5,3,0,2026-03-30T16:35:42.167740+05:30
Faridabad,Haryana,28.4089,77.3178,29.5,42,0.0,983.6,5.55,32.4,1053,1564.6,157.4,4,5,3,0,2026-03-30T16:35:42.167747+05:30
Meerut,Uttar Pradesh,28.9845,77.7064,30.1,47,0.0,981.3,5.8,25.2,158,629.6,83.6,0,5,3,1,2026-03-30T16:35:42.167755+05:30
Agra,Uttar Pradesh,27.1767,78.0081,35.3,23,0.0,986.7,6.85,42.5,428,1292.7,118.5,0,5,10,0,2026-03-30T16:35:42.167762+05:30
Varanasi,Uttar Pradesh,25.3176,82.9739,36.5,30,0.0,994.5,7.95,24.8,96,34.6,16.4,0,5,10,1,2026-03-30T16:35:42.167770+05:30
Prayagraj,Uttar Pradesh,25.4358,81.8463,36.7,28,0.0,992.9,7.85,24.5,109,40.9,19.1,0,5,10,0,2026-03-30T16:35:42.167777+05:30
Gorakhpur,Uttar Pradesh,26.7606,83.3732,33.2,41,0.0,995.3,7.7,25.9,147,86.1,35.0,0,5,7,1,2026-03-30T16:35:42.167786+05:30
Bareilly,Uttar Pradesh,28.367,79.4304,33.9,34,0.0,985.0,6.3,20.9,112,133.2,32.7,0,5,7,0,2026-03-30T16:35:42.167793+05:30
Aligarh,Uttar Pradesh,27.8974,78.088,32.5,29,0.0,985.0,6.3,36.4,422,1594.4,178.3,0,5,7,0,2026-03-30T16:35:42.167799+05:30
Moradabad,Uttar Pradesh,28.8386,78.7733,32.2,38,0.0,982.2,6.0,20.2,150,152.3,42.7,0,5,3,1,2026-03-30T16:35:42.167805+05:30
Saharanpur,Uttar Pradesh,29.9637,77.546,29.7,52,0.0,975.1,6.0,25.6,94,345.5,66.4,4,5,3,1,2026-03-30T16:35:42.167811+05:30
Jhansi,Uttar Pradesh,25.4484,78.5685,34.6,27,0.0,976.7,7.3,36.0,68,62.4,16.1,0,5,7,0,2026-03-30T16:35:45.432290+05:30
Surat,Gujarat,21.1702,72.8311,32.4,52,0.0,1004.9,7.6,27.0,93,60.1,37.0,0,5,4,1,2026-03-30T16:35:45.432322+05:30
Vadodara,Gujarat,22.3072,73.1812,36.9,32,0.0,1002.0,8.0,29.5,70,39.8,15.0,0,5,7,1,2026-03-30T16:35:45.432331+05:30
Rajkot,Gujarat,22.3039,70.8022,33.9,37,0.0,992.7,7.8,34.9,59,29.7,11.6,0,5,7,1,2026-03-30T16:35:45.432340+05:30
Thane,Maharashtra,19.2183,72.9781,30.8,70,0.0,1006.2,8.0,39.2,61,48.4,26.6,3,5,4,1,2026-03-30T16:35:45.432369+05:30
Nagpur,Maharashtra,21.1458,79.0882,35.1,33,0.0,970.7,8.55,31.0,70,21.7,12.5,0,5,10,1,2026-03-30T16:35:45.432377+05:30
Nashik,Maharashtra,19.9975,73.7898,31.5,39,0.0,944.6,8.25,32.0,57,21.0,14.3,0,5,7,0,2026-03-30T16:35:45.432385+05:30
Aurangabad,Maharashtra,19.8762,75.3433,34.2,27,0.0,942.5,8.75,48.6,58,16.4,11.3,0,5,7,0,2026-03-30T16:35:45.432392+05:30
Solapur,Maharashtra,17.6599,75.9064,37.9,22,0.0,953.8,8.85,39.2,101,27.8,23.0,0,5,10,0,2026-03-30T16:35:45.432400+05:30
Kolhapur,Maharashtra,16.705,74.2433,29.3,62,0.0,946.7,8.9,38.9,81,23.3,18.7,7,5,7,1,2026-03-30T16:35:45.432407+05:30
Goa,Goa,15.2993,74.124,31.2,70,0.0,995.9,8.95,30.2,55,24.6,18.0,3,5,7,1,2026-03-30T16:35:45.432415+05:30
Jodhpur,Rajasthan,26.2389,73.0243,30.5,39,0.0,982.6,7.65,37.4,118,195.6,24.2,0,5,7,0,2026-03-30T16:35:45.432422+05:30
Udaipur,Rajasthan,24.5854,73.7125,26.6,53,0.0,946.6,8.25,51.5,42,36.9,11.2,4,5,7,1,2026-03-30T16:35:45.432429+05:30
Kota,Rajasthan,25.2138,75.8648,33.7,24,0.0,978.3,6.2,40.3,44,38.1,13.9,0,5,7,0,2026-03-30T16:35:45.432435+05:30
Bikaner,Rajasthan,28.0229,73.3119,31.4,35,0.0,980.8,6.35,45.4,105,117.3,30.0,0,5,7,0,2026-03-30T16:35:45.432442+05:30
Ajmer,Rajasthan,26.4499,74.6399,30.5,34,0.0,955.0,6.4,37.4,47,26.8,8.5,0,5,7,0,2026-03-30T16:35:45.432449+05:30
Gwalior,Madhya Pradesh,26.2183,78.1828,34.4,28,0.0,982.3,6.4,38.9,65,45.3,15.4,0,5,7,0,2026-03-30T16:35:45.432456+05:30
Indore,Madhya Pradesh,22.7196,75.8577,33.5,32,0.0,946.7,8.15,24.1,48,22.5,9.1,0,5,7,0,2026-03-30T16:35:45.432463+05:30
Bhopal,Madhya Pradesh,23.2599,77.4126,35.6,23,0.0,951.6,8.2,29.2,68,19.4,7.6,0,5,10,0,2026-03-30T16:35:45.432470+05:30
Jabalpur,Madhya Pradesh,23.1815,79.9864,37.3,21,0.0,958.5,8.35,29.5,49,15.5,7.8,0,5,10,0,2026-03-30T16:35:45.432477+05:30
Ujjain,Madhya Pradesh,23.1765,75.7885,33.8,30,0.0,952.5,7.95,27.0,47,25.7,9.7,0,5,7,0,2026-03-30T16:35:45.432485+05:30
Visakhapatnam,Andhra Pradesh,17.6868,83.2185,31.0,64,0.0,1002.4,9.0,43.6,62,22.2,17.0,3,5,4,1,2026-03-30T16:35:45.432492+05:30
Vijayawada,Andhra Pradesh,16.5062,80.648,34.9,42,0.0,1000.1,9.05,32.0,72,25.2,20.5,0,5,4,1,2026-03-30T16:35:45.432498+05:30
Guntur,Andhra Pradesh,16.3067,80.4365,33.8,46,0.0,1001.5,9.1,34.2,84,29.3,24.0,0,5,4,1,2026-03-30T16:35:45.432505+05:30
Nellore,Andhra Pradesh,14.4426,79.9865,34.8,52,0.0,1003.5,9.2,32.4,77,20.8,16.1,0,5,4,1,2026-03-30T16:35:45.432512+05:30
Kurnool,Andhra Pradesh,15.8281,78.0373,37.4,26,0.0,974.1,9.1,24.5,126,39.0,31.7,0,5,10,0,2026-03-30T16:35:45.432519+05:30
Kakinada,Andhra Pradesh,16.9891,82.2475,33.5,50,0.0,1005.5,9.0,34.6,51,17.2,11.7,0,5,4,1,2026-03-30T16:35:45.432526+05:30
Tirupati,Andhra Pradesh,13.6288,79.4192,35.0,33,0.0,989.7,9.3,36.4,92,25.2,22.2,0,5,7,1,2026-03-30T16:35:45.432533+05:30
Warangal,Telangana,17.9689,79.5941,35.0,45,0.0,976.5,8.9,27.0,119,40.2,33.9,0,5,7,1,2026-03-30T16:35:45.432540+05:30
Nizamabad,Telangana,18.6725,78.0941,33.0,40,0.0,963.3,8.85,46.8,83,17.5,12.9,0,5,7,1,2026-03-30T16:35:45.432547+05:30
Mysore,Karnataka,12.2958,76.6396,32.2,33,0.0,926.7,8.75,23.8,137,21.4,17.5,0,5,7,0,2026-03-30T16:35:45.432554+05:30
Mangalore,Karnataka,12.9141,74.856,29.7,80,0.0,1004.6,2.45,23.4,64,19.9,14.0,7,5,0,1,2026-03-30T16:35:45.432561+05:30
Hubli-Dharwad,Karnataka,15.3647,75.124,31.8,46,0.0,939.5,8.1,30.6,120,28.6,22.2,0,5,7,1,2026-03-30T16:35:45.432567+05:30
Belgaum,Karnataka,15.8497,74.4977,27.3,68,0.0,925.1,9.1,31.7,103,19.3,15.1,7,5,7,1,2026-03-30T16:35:48.655115+05:30
Coimbatore,Tamil Nadu,11.0168,76.9558,31.5,53,0.0,959.4,9.45,36.4,99,20.2,17.2,0,5,7,1,2026-03-30T16:35:48.655145+05:30
Madurai,Tamil Nadu,9.9252,78.1198,36.6,32,0.0,989.6,9.4,36.0,90,16.7,13.7,0,5,10,1,2026-03-30T16:35:48.655155+05:30
Trichy,Tamil Nadu,10.7905,78.7047,36.6,33,0.0,996.6,9.35,25.6,69,12.0,10.4,0,5,10,1,2026-03-30T16:35:48.655163+05:30
Salem,Tamil Nadu,11.6643,78.146,36.9,27,0.0,974.3,9.45,27.0,84,18.6,15.4,0,5,10,0,2026-03-30T16:35:48.655171+05:30
Tirunelveli,Tamil Nadu,8.7139,77.7567,34.4,44,0.0,1000.0,9.35,52.2,112,19.4,16.9,0,5,4,1,2026-03-30T16:35:48.655179+05:30
Vellore,Tamil Nadu,12.9165,79.1325,34.7,31,0.0,982.7,9.35,33.5,98,28.5,26.1,0,5,7,0,2026-03-30T16:35:48.655186+05:30
Erode,Tamil Nadu,11.341,77.7172,38.3,21,0.0,985.7,9.4,25.2,70,16.4,13.9,0,5,10,0,2026-03-30T16:35:48.655193+05:30
Kochi,Kerala,9.9312,76.2673,29.7,79,0.0,1005.6,9.2,31.7,138,32.2,28.3,7,5,4,1,2026-03-30T16:35:48.655200+05:30
Thiruvananthapuram,Kerala,8.5241,76.9366,29.7,79,0.0,1004.8,9.2,33.1,106,29.0,23.5,7,5,4,1,2026-03-30T16:35:48.655207+05:30
Kozhikode,Kerala,11.2588,75.7804,30.2,76,0.0,1005.3,9.1,28.4,126,27.6,21.4,3,5,4,1,2026-03-30T16:35:48.655214+05:30
Thrissur,Kerala,10.5276,76.2144,32.4,66,0.0,1004.2,9.2,30.6,116,37.4,33.3,3,5,4,1,2026-03-30T16:35:48.655222+05:30
Kannur,Kerala,11.8745,75.3704,31.5,66,0.0,1004.9,8.15,24.8,114,30.7,21.8,3,5,4,1,2026-03-30T16:35:48.655228+05:30
Patna,Bihar,25.5941,85.1376,32.2,50,0.0,998.6,8.1,30.6,155,74.5,42.6,0,5,7,1,2026-03-30T16:35:48.655235+05:30
Gaya,Bihar,24.7914,85.0002,33.5,46,0.0,991.4,8.2,23.4,106,36.3,16.8,0,5,7,1,2026-03-30T16:35:48.655241+05:30
Muzaffarpur,Bihar,26.1209,85.3647,31.3,49,0.0,998.9,8.05,29.2,159,83.4,51.7,0,5,7,1,2026-03-30T16:35:48.655247+05:30
Bhagalpur,Bihar,25.2425,87.0117,29.5,64,0.0,1000.0,8.1,19.4,165,76.8,55.6,7,5,4,1,2026-03-30T16:35:48.655254+05:30
Ranchi,Jharkhand,23.3441,85.3096,29.4,53,0.0,936.4,8.75,27.0,156,36.8,26.1,4,5,7,1,2026-03-30T16:35:48.655262+05:30
Jamshedpur,Jharkhand,22.8046,86.2029,32.0,59,0.0,988.3,8.6,27.7,164,44.5,34.7,0,5,7,1,2026-03-30T16:35:48.655269+05:30
Dhanbad,Jharkhand,23.7957,86.4304,32.1,45,0.0,977.9,8.5,29.5,163,70.5,55.3,0,5,7,1,2026-03-30T16:35:48.655276+05:30
Bokaro,Jharkhand,23.6693,86.1511,31.3,54,0.0,981.8,8.55,30.6,158,58.3,44.0,0,5,7,1,2026-03-30T16:35:48.655283+05:30
Bhubaneswar,Odisha,20.2961,85.8245,31.1,66,0.0,1000.5,8.8,38.9,69,22.4,18.3,3,5,4,1,2026-03-30T16:35:48.655290+05:30
Cuttack,Odisha,20.4625,85.8828,32.6,59,0.0,1002.0,8.85,32.8,69,22.4,18.3,0,5,4,1,2026-03-30T16:35:48.655296+05:30
Rourkela,Odisha,22.2604,84.8536,36.6,38,0.0,981.5,8.5,52.6,179,30.4,21.3,0,5,10,1,2026-03-30T16:35:48.655302+05:30
Raipur,Chhattisgarh,21.2514,81.6296,36.9,28,0.0,971.8,8.65,32.8,99,26.3,15.8,0,5,10,0,2026-03-30T16:35:48.655308+05:30
Bhilai,Chhattisgarh,21.1938,81.3509,36.3,32,0.0,972.1,8.65,31.3,74,24.2,13.2,0,5,10,1,2026-03-30T16:35:48.655314+05:30
Guwahati,Assam,26.1158,91.7086,25.3,76,0.0,1002.1,7.15,27.7,96,46.2,34.0,7,5,4,1,2026-03-30T16:35:48.655321+05:30
Agartala,Tripura,23.8315,91.2868,30.9,58,0.0,1005.0,8.3,29.9,124,45.2,37.6,0,5,4,1,2026-03-30T16:35:48.655328+05:30
Shillong,Meghalaya,25.5788,91.8933,16.3,74,0.0,855.7,6.25,42.1,109,38.4,29.5,3,5,7,0,2026-03-30T16:35:48.655335+05:30
Imphal,Manipur,24.817,93.9368,20.0,75,0.0,922.8,7.75,58.7,152,37.4,30.3,3,5,7,0,2026-03-30T16:35:48.655341+05:30
Aizawl,Mizoram,23.7271,92.7176,23.0,66,0.0,893.1,8.45,50.8,135,43.4,32.1,3,5,7,1,2026-03-30T16:35:48.655372+05:30
Kohima,Nagaland,25.6701,94.1077,15.2,94,0.0,854.2,8.45,77.8,130,43.1,29.6,3,10,7,0,2026-03-30T16:35:48.655380+05:30
Gangtok,Sikkim,27.3314,88.6138,16.6,77,0.0,836.8,7.6,21.2,95,32.0,24.7,3,5,7,0,2026-03-30T16:35:48.655387+05:30
Siliguri,West Bengal,26.7271,88.3953,21.6,76,0.0,994.2,7.45,14.8,155,71.7,50.8,3,5,7,1,2026-03-30T16:35:51.881500+05:30
Durgapur,West Bengal,23.5204,87.3119,32.2,58,0.0,993.1,8.5,25.2,160,79.6,67.1,0,5,7,1,2026-03-30T16:35:51.881531+05:30
Asansol,West Bengal,23.6739,86.9524,29.4,71,0.0,992.0,8.5,28.4,159,77.3,61.5,7,5,7,1,2026-03-30T16:35:51.881541+05:30
Pondicherry,Puducherry,11.9139,79.8145,32.6,62,0.0,1006.5,9.25,27.7,51,13.4,8.9,3,5,4,1,2026-03-30T16:35:51.881549+05:30
Port Blair,Andaman and Nicobar Islands,11.6234,92.7265,30.0,64,0.0,1006.0,9.2,15.1,65,15.9,12.3,7,5,4,1,2026-03-30T16:35:51.881557+05:30
Haridwar,Uttarakhand,29.9457,78.1642,30.5,45,0.0,974.1,5.65,21.2,89,125.7,35.6,0,5,3,1,2026-03-30T16:35:51.881564+05:30
Rishikesh,Uttarakhand,30.0869,78.2676,29.5,47,0.0,966.8,5.55,24.8,75,106.2,27.0,4,5,3,1,2026-03-30T16:35:51.881571+05:30
Nainital,Uttarakhand,29.3919,79.4542,23.2,51,0.0,807.6,7.25,47.9,84,86.6,25.1,0,5,7,0,2026-03-30T16:35:51.881579+05:30
Mussoorie,Uttarakhand,30.4599,78.0664,20.8,56,0.0,804.2,6.2,34.2,73,107.3,26.3,0,5,7,0,2026-03-30T16:35:51.881587+05:30
Dharamshala,Himachal Pradesh,32.219,76.3234,21.8,60,0.0,869.5,5.9,30.2,47,31.0,8.7,0,5,3,0,2026-03-30T16:35:51.881594+05:30
Dalhousie,Himachal Pradesh,32.5387,75.971,16.9,63,0.0,803.4,5.85,45.0,62,75.4,18.5,3,5,3,0,2026-03-30T16:35:51.881601+05:30
Patiala,Punjab,30.3398,76.3869,30.0,51,0.0,978.2,5.6,25.6,273,1125.0,135.5,4,5,3,1,2026-03-30T16:35:51.881609+05:30
Bhatinda,Punjab,30.211,74.9455,29.5,43,0.0,983.2,4.15,38.9,250,59.5,18.6,4,5,3,0,2026-03-30T16:35:51.881615+05:30
Rohtak,Haryana,28.8955,76.6066,29.2,42,0.0,982.0,6.55,34.2,483,527.1,64.5,4,5,7,0,2026-03-30T16:35:51.881622+05:30
Panipat,Haryana,29.3909,76.9635,29.2,48,0.0,980.3,6.6,25.9,722,1028.2,115.5,4,5,7,1,2026-03-30T16:35:51.881629+05:30
Mathura,Uttar Pradesh,27.4924,77.6737,32.7,27,0.0,986.5,6.6,39.6,406,1125.0,116.4,0,5,7,0,2026-03-30T16:35:51.881636+05:30
Vrindavan,Uttar Pradesh,27.5823,77.7027,32.4,26,0.0,986.9,6.65,40.0,406,1125.0,116.4,0,5,7,0,2026-03-30T16:35:51.881642+05:30
Ayodhya,Uttar Pradesh,26.7922,82.1998,34.6,36,0.0,993.0,7.45,25.2,146,77.3,24.7,0,5,7,1,2026-03-30T16:35:51.881649+05:30
Ratlam,Madhya Pradesh,23.3315,75.0367,32.0,40,0.0,953.9,7.95,38.2,46,27.4,9.6,0,5,7,1,2026-03-30T16:35:51.881655+05:30
Sagar,Madhya Pradesh,23.8388,78.7378,36.3,21,0.0,947.9,8.2,32.8,59,25.4,6.4,0,5,10,0,2026-03-30T16:35:51.881661+05:30
Satna,Madhya Pradesh,24.6005,80.8322,36.3,26,0.0,968.8,8.2,55.8,91,22.9,11.9,0,5,10,0,2026-03-30T16:35:51.881668+05:30
Akola,Maharashtra,20.7002,77.0082,38.2,22,0.0,971.8,8.55,38.5,55,16.9,10.0,0,5,10,0,2026-03-30T16:35:51.881675+05:30
Amravati,Maharashtra,20.9374,77.7796,38.3,20,0.0,964.0,8.5,27.7,53,15.1,8.3,0,5,10,0,2026-03-30T16:35:51.881682+05:30
Latur,Maharashtra,18.4088,76.5604,34.9,26,0.0,937.6,8.0,36.7,72,24.0,19.0,0,5,7,0,2026-03-30T16:35:51.881689+05:30
Nanded,Maharashtra,19.1383,77.3091,35.6,32,0.0,966.4,8.7,49.0,67,16.5,10.6,0,5,10,1,2026-03-30T16:35:51.881695+05:30
Gulbarga,Karnataka,17.3297,76.8343,36.0,25,0.0,956.6,8.05,38.9,123,51.6,43.3,0,5,10,0,2026-03-30T16:35:51.881702+05:30
Bidar,Karnataka,17.9104,77.5199,30.6,49,0.0,934.4,8.9,42.8,119,39.8,33.5,0,5,7,1,2026-03-30T16:35:51.881708+05:30
Hospet,Karnataka,15.2689,76.3909,33.2,43,0.0,953.9,8.95,23.8,125,61.0,49.5,0,5,7,1,2026-03-30T16:35:51.881715+05:30
Tirupur,Tamil Nadu,11.1085,77.3411,36.4,28,0.0,972.2,9.45,27.7,94,18.5,15.7,0,5,10,0,2026-03-30T16:35:51.881722+05:30
Alappuzha,Kerala,9.4981,76.3388,29.7,80,0.0,1005.7,9.2,27.4,133,33.8,29.0,7,5,4,1,2026-03-30T16:35:51.881728+05:30
Munnar,Kerala,10.0889,77.0595,27.3,62,0.0,856.9,8.7,31.7,87,17.2,14.5,7,5,7,1,2026-03-30T16:35:51.881735+05:30
Silchar,Assam,24.8333,92.7789,28.3,69,0.0,1004.7,8.3,25.9,153,33.6,25.8,7,5,4,1,2026-03-30T16:35:51.881742+05:30
Dibrugarh,Assam,27.4728,94.912,24.8,68,0.0,996.5,5.55,10.1,98,26.6,20.2,3,5,3,1,2026-03-30T16:35:51.881749+05:30
