city,state,latitude,longitude,temp,humidity,rain,pressure,uv_index,wind_gusts,aqi,pm10,pm2_5,mosquito_risk,arthritis_risk,migraine_risk,frizz_risk,updated_at
Delhi,Delhi,28.6139,77.209,22.4,66,0.0,986.2,5.8,22.0,179,101.7,60.8,3,5,3,0,2026-03-31T08:10:25.074513+05:30
Mumbai,Maharashtra,19.076,72.8777,27.4,82,0.0,1010.5,8.05,25.9,69,32.4,17.5,7,0,4,1,2026-03-31T08:10:25.074557+05:30
Bangalore,Karnataka,12.9716,77.5946,23.6,69,0.0,913.6,9.1,27.0,95,57.2,54.8,3,5,7,1,2026-03-31T08:10:25.074571+05:30
Hyderabad,Telangana,17.385,78.4867,24.7,76,0.0,956.6,9.05,37.4,113,48.8,44.8,3,5,7,1,2026-03-31T08:10:25.074581+05:30
Chennai,Tamil Nadu,13.0827,80.2707,28.0,75,0.0,1010.0,9.3,29.5,49,17.9,13.5,7,0,4,1,2026-03-31T08:10:25.074589+05:30
Kolkata,West Bengal,22.5726,88.3639,26.9,87,0.0,1009.2,7.55,23.8,90,27.9,23.0,7,0,4,1,2026-03-31T08:10:25.074598+05:30
Pune,Maharashtra,18.5204,73.8567,24.9,87,0.0,950.5,8.55,36.0,84,59.0,47.5,3,5,7,1,2026-03-31T08:10:25.074609+05:30
Ahmedabad,Gujarat,23.0225,72.5714,26.0,72,0.0,1004.5,8.0,29.2,63,46.4,34.3,7,5,4,1,2026-03-31T08:10:25.074616+05:30
Jaipur,Rajasthan,26.9124,75.7873,23.0,61,0.0,962.5,7.2,46.8,83,38.8,18.7,3,5,7,0,2026-03-31T08:10:25.074624+05:30
Lucknow,Uttar Pradesh,26.8467,80.9462,25.8,66,0.0,996.1,7.3,26.6,151,207.2,70.5,7,5,7,1,2026-03-31T08:10:25.074632+05:30
Kanpur,Uttar Pradesh,26.4499,80.3319,24.5,75,0.0,994.4,7.25,27.4,419,416.3,100.8,3,5,7,1,2026-03-31T08:10:25.074640+05:30
Chandigarh,Chandigarh,30.7333,76.7794,21.4,76,0.0,971.1,6.45,22.3,112,50.4,28.5,3,5,7,1,2026-03-31T08:10:25.074647+05:30
Srinagar,Jammu and Kashmir,34.0837,74.7973,8.8,81,0.0,844.4,7.3,18.0,73,42.7,34.8,3,10,7,0,2026-03-31T08:10:25.074654+05:30
Jammu,Jammu and Kashmir,32.7266,74.857,23.3,49,0.0,975.3,6.85,38.2,71,29.6,17.8,0,5,7,0,2026-03-31T08:10:25.074662+05:30
Amritsar,Punjab,31.634,74.8723,20.1,77,0.0,983.9,6.5,32.0,138,153.7,54.9,3,5,7,0,2026-03-31T08:10:25.074669+05:30
Ludhiana,Punjab,30.901,75.8573,21.6,84,0.0,981.5,6.3,19.8,325,224.0,79.4,3,5,7,1,2026-03-31T08:10:25.074676+05:30
Jalandhar,Punjab,31.326,75.5762,21.2,82,0.0,982.7,6.55,19.8,189,267.3,78.5,3,5,7,1,2026-03-31T08:10:25.074684+05:30
Dehradun,Uttarakhand,30.6284,78.0322,15.0,62,0.0,831.5,7.1,37.8,47,16.8,9.1,3,5,7,0,2026-03-31T08:10:25.074691+05:30
Shimla,Himachal Pradesh,31.1048,77.1734,13.6,61,0.0,785.4,6.95,33.8,57,44.6,16.3,3,5,7,0,2026-03-31T08:10:25.074698+05:30
Manali,Himachal Pradesh,32.2396,77.1887,15.6,39,0.0,821.2,8.55,33.8,48,1.3,1.1,0,5,7,0,2026-03-31T08:10:25.074704+05:30
Gurgaon,Haryana,28.4595,77.0266,20.8,82,0.0,984.4,5.85,23.0,697,100.8,60.5,3,5,3,1,2026-03-31T08:10:25.074730+05:30
Noida,Uttar Pradesh,28.5355,77.391,22.5,67,0.0,987.8,5.85,20.5,697,100.8,60.5,3,5,3,1,2026-03-31T08:10:25.074739+05:30
Ghaziabad,Uttar Pradesh,28.6692,77.4538,21.5,68,0.0,985.8,6.0,23.4,153,93.6,48.0,3,5,3,0,2026-03-31T08:10:25.074748+05:30
Faridabad,Haryana,28.4089,77.3178,21.9,74,0.0,986.8,5.85,23.8,697,100.8,60.5,3,5,3,1,2026-03-31T08:10:25.074755+05:30
Meerut,Uttar Pradesh,28.9845,77.7064,21.7,73,0.0,984.3,6.35,25.6,153,93.6,48.0,3,5,7,1,2026-03-31T08:10:25.074762+05:30
Agra,Uttar Pradesh,27.1767,78.0081,23.9,57,0.0,991.1,6.8,27.0,587,329.7,51.1,0,5,7,0,2026-03-31T08:10:25.074769+05:30
Varanasi,Uttar Pradesh,25.3176,82.9739,27.0,71,0.0,999.7,7.75,28.4,100,129.0,61.0,7,5,7,1,2026-03-31T08:10:25.074778+05:30
Prayagraj,Uttar Pradesh,25.4358,81.8463,26.2,69,0.0,998.3,7.85,26.6,111,192.3,84.5,7,5,7,1,2026-03-31T08:10:25.074785+05:30
Gorakhpur,Uttar Pradesh,26.7606,83.3732,24.8,78,0.0,1000.2,7.3,28.4,156,112.5,93.8,3,5,4,1,2026-03-31T08:10:25.074794+05:30
Bareilly,Uttar Pradesh,28.367,79.4304,23.8,76,0.0,989.0,6.8,29.5,105,67.1,36.1,3,5,7,1,2026-03-31T08:10:25.074800+05:30
Aligarh,Uttar Pradesh,27.8974,78.088,22.2,67,0.0,988.6,6.5,29.9,597,278.5,71.5,3,5,7,0,2026-03-31T08:10:25.074806+05:30
Moradabad,Uttar Pradesh,28.8386,78.7733,23.3,77,0.0,986.1,6.8,28.1,125,92.0,41.7,3,5,7,1,2026-03-31T08:10:25.074812+05:30
Saharanpur,Uttar Pradesh,29.9637,77.546,21.5,81,0.0,978.2,6.45,24.8,150,187.7,78.7,3,5,7,1,2026-03-31T08:10:25.074818+05:30
Jhansi,Uttar Pradesh,25.4484,78.5685,25.9,54,0.0,981.2,7.8,23.8,58,22.7,11.5,4,5,7,0,2026-03-31T08:10:28.356901+05:30
Surat,Gujarat,21.1702,72.8311,27.0,85,0.0,1009.0,7.8,28.8,91,33.4,29.5,7,0,4,1,2026-03-31T08:10:28.356930+05:30
Vadodara,Gujarat,22.3072,73.1812,27.4,65,0.0,1006.7,8.0,28.8,82,51.6,43.5,7,5,4,1,2026-03-31T08:10:28.356939+05:30
Rajkot,Gujarat,22.3039,70.8022,24.4,86,0.0,996.7,7.75,37.8,56,51.5,21.6,3,5,7,1,2026-03-31T08:10:28.356947+05:30
Thane,Maharashtra,19.2183,72.9781,27.1,81,0.0,1010.1,8.05,38.9,69,32.4,17.5,7,0,4,1,2026-03-31T08:10:28.356954+05:30
Nagpur,Maharashtra,21.1458,79.0882,25.5,70,0.0,976.2,8.55,19.8,58,28.8,22.7,7,5,7,1,2026-03-31T08:10:28.356962+05:30
Nashik,Maharashtra,19.9975,73.7898,22.7,88,0.0,947.5,8.3,30.2,64,49.4,25.8,3,5,7,1,2026-03-31T08:10:28.356969+05:30
Aurangabad,Maharashtra,19.8762,75.3433,23.0,80,0.0,946.7,8.75,27.4,60,32.4,27.3,3,5,7,1,2026-03-31T08:10:28.356975+05:30
Solapur,Maharashtra,17.6599,75.9064,25.1,73,0.0,959.5,8.9,24.8,84,37.4,32.7,7,5,7,1,2026-03-31T08:10:28.356982+05:30
Kolhapur,Maharashtra,16.705,74.2433,24.0,89,0.0,949.9,8.9,36.4,84,66.8,59.1,3,5,7,1,2026-03-31T08:10:28.356990+05:30
Goa,Goa,15.2993,74.124,28.0,78,0.0,999.4,9.0,33.5,70,44.9,35.0,7,5,7,1,2026-03-31T08:10:28.356996+05:30
Jodhpur,Rajasthan,26.2389,73.0243,25.6,61,0.0,985.1,7.7,35.6,78,20.0,11.3,7,5,7,1,2026-03-31T08:10:28.357003+05:30
Udaipur,Rajasthan,24.5854,73.7125,22.7,65,0.0,948.5,8.3,39.2,42,21.4,12.8,3,5,7,0,2026-03-31T08:10:28.357009+05:30
Kota,Rajasthan,25.2138,75.8648,25.9,68,0.0,981.5,7.8,41.0,52,32.8,23.7,7,5,7,1,2026-03-31T08:10:28.357016+05:30
Bikaner,Rajasthan,28.0229,73.3119,25.4,54,0.0,983.5,6.9,26.3,78,86.6,25.4,4,5,7,0,2026-03-31T08:10:28.357022+05:30
Ajmer,Rajasthan,26.4499,74.6399,25.0,56,0.0,956.9,7.65,45.7,44,20.1,11.3,4,5,7,0,2026-03-31T08:10:28.357029+05:30
Gwalior,Madhya Pradesh,26.2183,78.1828,26.0,54,0.0,986.4,7.45,23.4,63,25.1,12.6,4,5,7,0,2026-03-31T08:10:28.357035+05:30
Indore,Madhya Pradesh,22.7196,75.8577,25.3,66,0.0,950.0,8.3,24.8,50,23.9,16.2,7,5,7,1,2026-03-31T08:10:28.357041+05:30
Bhopal,Madhya Pradesh,23.2599,77.4126,25.7,61,0.0,956.3,8.25,31.7,45,28.6,15.6,7,5,7,1,2026-03-31T08:10:28.357048+05:30
Jabalpur,Madhya Pradesh,23.1815,79.9864,25.4,67,0.0,964.2,8.35,17.6,52,97.6,25.8,7,5,7,1,2026-03-31T08:10:28.357055+05:30
Ujjain,Madhya Pradesh,23.1765,75.7885,24.9,70,0.0,955.9,8.2,25.6,50,22.8,16.5,3,5,7,1,2026-03-31T08:10:28.357062+05:30
Visakhapatnam,Andhra Pradesh,17.6868,83.2185,27.5,77,0.0,1007.3,9.05,37.1,60,25.9,23.5,7,5,4,1,2026-03-31T08:10:28.357069+05:30
Vijayawada,Andhra Pradesh,16.5062,80.648,26.9,83,0.0,1006.9,9.05,25.6,62,29.5,26.3,7,5,4,1,2026-03-31T08:10:28.357075+05:30
Guntur,Andhra Pradesh,16.3067,80.4365,27.4,84,0.0,1007.7,9.1,29.5,64,22.2,18.0,7,5,4,1,2026-03-31T08:10:28.357082+05:30
Nellore,Andhra Pradesh,14.4426,79.9865,27.0,82,0.0,1008.8,9.2,30.6,57,15.7,12.0,7,0,4,1,2026-03-31T08:10:28.357089+05:30
Kurnool,Andhra Pradesh,15.8281,78.0373,28.3,64,0.0,979.4,9.1,29.5,95,24.0,22.5,7,5,7,1,2026-03-31T08:10:28.357096+05:30
Kakinada,Andhra Pradesh,16.9891,82.2475,27.4,80,0.0,1011.3,9.05,32.4,46,18.3,14.2,7,0,4,1,2026-03-31T08:10:28.357103+05:30
Tirupati,Andhra Pradesh,13.6288,79.4192,25.6,84,0.0,994.7,9.3,33.8,84,27.2,24.2,7,5,7,1,2026-03-31T08:10:28.357110+05:30
Warangal,Telangana,17.9689,79.5941,25.1,83,0.0,982.6,8.9,26.3,106,53.9,47.0,7,5,7,1,2026-03-31T08:10:28.357116+05:30
Nizamabad,Telangana,18.6725,78.0941,24.8,76,0.0,968.3,8.85,37.1,88,44.2,37.6,3,5,7,1,2026-03-31T08:10:28.357122+05:30
Mysore,Karnataka,12.2958,76.6396,23.1,92,0.0,930.0,8.8,26.6,112,69.6,64.3,3,5,7,1,2026-03-31T08:10:28.357128+05:30
Mangalore,Karnataka,12.9141,74.856,28.7,82,0.0,1007.9,8.9,26.6,92,43.4,39.9,7,5,4,1,2026-03-31T08:10:28.357134+05:30
Hubli-Dharwad,Karnataka,15.3647,75.124,24.6,79,0.0,942.9,9.15,31.7,71,36.6,33.2,3,5,7,1,2026-03-31T08:10:28.357141+05:30
Belgaum,Karnataka,15.8497,74.4977,23.2,88,0.0,927.3,9.15,41.8,71,41.6,35.7,3,5,7,1,2026-03-31T08:10:31.635766+05:30
Coimbatore,Tamil Nadu,11.0168,76.9558,25.7,81,0.0,963.5,9.5,40.0,94,39.2,37.4,7,5,7,1,2026-03-31T08:10:31.635795+05:30
Madurai,Tamil Nadu,9.9252,78.1198,26.7,82,0.0,995.3,9.35,31.0,69,43.5,42.0,7,5,7,1,2026-03-31T08:10:31.635805+05:30
Trichy,Tamil Nadu,10.7905,78.7047,26.9,85,0.0,1002.3,9.35,25.9,60,36.3,34.5,7,5,4,1,2026-03-31T08:10:31.635813+05:30
Salem,Tamil Nadu,11.6643,78.146,26.6,79,0.0,979.7,9.45,32.4,70,25.8,24.7,7,5,7,1,2026-03-31T08:10:31.635820+05:30
Tirunelveli,Tamil Nadu,8.7139,77.7567,26.4,77,0.0,1005.3,8.7,37.8,79,38.0,36.1,7,5,4,1,2026-03-31T08:10:31.635827+05:30
Vellore,Tamil Nadu,12.9165,79.1325,25.4,83,0.0,987.6,9.35,32.0,102,49.7,47.1,7,5,7,1,2026-03-31T08:10:31.635834+05:30
Erode,Tamil Nadu,11.341,77.7172,27.2,79,0.0,991.5,9.4,27.0,59,18.0,17.1,7,5,7,1,2026-03-31T08:10:31.635841+05:30
Kochi,Kerala,9.9312,76.2673,28.5,81,0.0,1009.4,9.1,28.8,108,47.0,45.5,7,0,4,1,2026-03-31T08:10:31.635848+05:30
Thiruvananthapuram,Kerala,8.5241,76.9366,27.7,85,0.0,1008.9,9.15,28.1,82,34.8,31.7,7,0,4,1,2026-03-31T08:10:31.635855+05:30
Kozhikode,Kerala,11.2588,75.7804,28.6,81,0.0,1008.9,8.25,28.1,112,57.2,52.0,7,0,4,1,2026-03-31T08:10:31.635862+05:30
Thrissur,Kerala,10.5276,76.2144,28.1,87,0.0,1008.0,8.85,34.2,127,61.5,58.6,7,0,4,1,2026-03-31T08:10:31.635869+05:30
Kannur,Kerala,11.8745,75.3704,28.4,83,0.0,1008.3,8.85,30.6,113,55.5,52.2,7,0,4,1,2026-03-31T08:10:31.635876+05:30
Patna,Bihar,25.5941,85.1376,24.4,84,0.0,1003.3,7.8,24.1,163,112.7,105.9,3,5,4,1,2026-03-31T08:10:31.635882+05:30
Gaya,Bihar,24.7914,85.0002,27.2,77,0.0,995.9,8.2,20.9,130,64.3,55.5,7,5,7,1,2026-03-31T08:10:31.635889+05:30
Muzaffarpur,Bihar,26.1209,85.3647,23.2,83,0.0,1003.8,7.95,27.4,169,113.6,107.6,3,5,4,1,2026-03-31T08:10:31.635896+05:30
Bhagalpur,Bihar,25.2425,87.0117,24.3,89,0.0,1004.4,8.1,22.3,163,90.8,85.0,3,5,4,1,2026-03-31T08:10:31.635902+05:30
Ranchi,Jharkhand,23.3441,85.3096,24.9,78,0.0,940.2,8.45,32.8,128,74.5,63.6,3,5,7,1,2026-03-31T08:10:31.635908+05:30
Jamshedpur,Jharkhand,22.8046,86.2029,27.4,83,0.0,993.8,8.65,33.1,150,82.0,74.0,7,5,7,1,2026-03-31T08:10:31.635914+05:30
Dhanbad,Jharkhand,23.7957,86.4304,25.6,80,0.0,982.4,8.55,29.2,168,133.2,124.3,7,5,7,1,2026-03-31T08:10:31.635921+05:30
Bokaro,Jharkhand,23.6693,86.1511,25.8,83,0.0,986.6,8.55,32.8,167,136.0,126.7,7,5,7,1,2026-03-31T08:10:31.635928+05:30
Bhubaneswar,Odisha,20.2961,85.8245,28.4,82,0.0,1005.7,8.7,28.8,63,20.5,16.8,7,5,4,1,2026-03-31T08:10:31.635934+05:30
Cuttack,Odisha,20.4625,85.8828,28.4,82,0.0,1007.5,8.2,21.6,63,20.5,16.8,7,5,4,1,2026-03-31T08:10:31.635940+05:30
Rourkela,Odisha,22.2604,84.8536,28.0,79,0.0,987.8,8.15,20.5,111,56.2,51.1,7,5,7,1,2026-03-31T08:10:31.635946+05:30
Raipur,Chhattisgarh,21.2514,81.6296,26.7,68,0.0,977.8,8.2,33.1,108,41.2,36.3,7,5,7,1,2026-03-31T08:10:31.635951+05:30
Bhilai,Chhattisgarh,21.1938,81.3509,26.4,71,0.0,978.1,8.25,29.2,85,48.3,28.8,7,5,7,1,2026-03-31T08:10:31.635958+05:30
Guwahati,Assam,26.1158,91.7086,23.2,89,0.0,1006.0,8.0,22.0,127,59.3,46.2,3,5,4,1,2026-03-31T08:10:31.635964+05:30
Agartala,Tripura,23.8315,91.2868,24.3,91,0.0,1010.2,8.3,30.6,111,31.8,28.2,3,0,4,1,2026-03-31T08:10:31.635971+05:30
Shillong,Meghalaya,25.5788,91.8933,16.9,77,0.0,859.0,8.25,35.6,118,57.5,39.1,3,5,7,0,2026-03-31T08:10:31.635977+05:30
Imphal,Manipur,24.817,93.9368,18.0,94,0.0,926.6,8.7,57.6,84,23.5,18.6,3,10,7,1,2026-03-31T08:10:31.635984+05:30
Aizawl,Mizoram,23.7271,92.7176,20.7,83,0.0,896.2,8.55,40.7,121,56.8,45.6,3,5,7,1,2026-03-31T08:10:31.635991+05:30
Kohima,Nagaland,25.6701,94.1077,17.6,77,0.0,858.1,8.55,63.0,81,24.0,18.0,3,5,7,0,2026-03-31T08:10:31.635998+05:30
Gangtok,Sikkim,27.3314,88.6138,15.7,88,0.0,839.4,8.3,19.1,127,57.4,46.7,3,10,7,0,2026-03-31T08:10:31.636005+05:30
Siliguri,West Bengal,26.7271,88.3953,20.9,85,0.0,997.9,7.65,19.4,161,132.7,95.9,3,5,7,1,2026-03-31T08:10:34.916245+05:30
Durgapur,West Bengal,23.5204,87.3119,26.8,86,0.0,997.6,8.5,19.8,158,94.3,88.7,7,5,7,1,2026-03-31T08:10:34.916275+05:30
Asansol,West Bengal,23.6739,86.9524,26.8,84,0.0,996.1,8.55,26.6,158,102.0,95.2,7,5,7,1,2026-03-31T08:10:34.916285+05:30
Pondicherry,Puducherry,11.9139,79.8145,27.0,87,0.0,1011.3,9.25,26.3,43,16.9,12.8,7,0,4,1,2026-03-31T08:10:34.916293+05:30
Port Blair,Andaman and Nicobar Islands,11.6234,92.7265,28.6,75,0.0,1009.7,9.2,14.0,56,14.8,12.3,7,0,4,1,2026-03-31T08:10:34.916301+05:30
Haridwar,Uttarakhand,29.9457,78.1642,23.1,70,0.0,976.5,6.6,31.0,99,42.0,27.4,3,5,7,1,2026-03-31T08:10:34.916309+05:30
Rishikesh,Uttarakhand,30.0869,78.2676,23.3,62,0.0,969.4,6.65,33.8,75,34.2,16.9,3,5,7,0,2026-03-31T08:10:34.916316+05:30
Nainital,Uttarakhand,29.3919,79.4542,21.3,39,0.0,808.9,7.5,41.4,77,53.1,24.7,0,5,7,0,2026-03-31T08:10:34.916324+05:30
Mussoorie,Uttarakhand,30.4599,78.0664,17.3,54,0.0,804.5,7.0,42.5,73,27.3,20.0,0,5,7,0,2026-03-31T08:10:34.916331+05:30
Dharamshala,Himachal Pradesh,32.219,76.3234,19.5,51,0.0,870.6,7.2,22.7,36,11.8,8.3,0,5,7,0,2026-03-31T08:10:34.916338+05:30
Dalhousie,Himachal Pradesh,32.5387,75.971,15.2,58,0.0,804.3,7.4,27.4,67,35.5,23.3,0,5,7,0,2026-03-31T08:10:34.916346+05:30
Patiala,Punjab,30.3398,76.3869,21.0,88,0.0,981.0,6.1,15.8,478,283.1,87.3,3,5,7,1,2026-03-31T08:10:34.916353+05:30
Bhatinda,Punjab,30.211,74.9455,20.8,75,0.0,986.5,6.6,29.5,148,104.8,44.4,3,5,7,1,2026-03-31T08:10:34.916359+05:30
Rohtak,Haryana,28.8955,76.6066,20.7,77,0.0,984.8,5.55,23.8,214,120.1,78.5,3,5,3,1,2026-03-31T08:10:34.916366+05:30
Panipat,Haryana,29.3909,76.9635,20.8,73,0.0,983.3,5.9,19.1,408,109.0,71.2,3,5,3,0,2026-03-31T08:10:34.916372+05:30
Mathura,Uttar Pradesh,27.4924,77.6737,23.3,62,0.0,989.9,6.95,22.7,363,93.1,35.9,3,5,7,0,2026-03-31T08:10:34.916379+05:30
Vrindavan,Uttar Pradesh,27.5823,77.7027,22.3,71,0.0,990.3,6.9,25.2,363,93.1,35.9,3,5,7,1,2026-03-31T08:10:34.916385+05:30
Ayodhya,Uttar Pradesh,26.7922,82.1998,24.9,77,0.0,997.9,7.45,30.2,129,123.4,60.1,3,5,7,1,2026-03-31T08:10:34.916391+05:30
Ratlam,Madhya Pradesh,23.3315,75.0367,24.3,72,0.0,956.5,8.15,30.6,46,20.8,15.0,3,5,7,1,2026-03-31T08:10:34.916397+05:30
Sagar,Madhya Pradesh,23.8388,78.7378,26.3,51,0.0,952.9,8.2,27.0,42,65.4,16.5,4,5,7,0,2026-03-31T08:10:34.916403+05:30
Satna,Madhya Pradesh,24.6005,80.8322,27.9,51,0.0,974.1,8.2,22.3,108,314.8,71.0,4,5,7,1,2026-03-31T08:10:34.916411+05:30
Akola,Maharashtra,20.7002,77.0082,26.7,67,0.0,978.1,8.5,26.6,63,39.3,30.6,7,5,7,1,2026-03-31T08:10:34.916418+05:30
Amravati,Maharashtra,20.9374,77.7796,26.4,68,0.0,970.4,8.55,22.0,60,40.9,30.6,7,5,7,1,2026-03-31T08:10:34.916425+05:30
Latur,Maharashtra,18.4088,76.5604,23.8,72,0.0,942.1,8.85,29.2,76,37.3,31.4,3,5,7,1,2026-03-31T08:10:34.916432+05:30
Nanded,Maharashtra,19.1383,77.3091,24.3,77,0.0,972.0,8.75,16.9,70,35.7,28.9,3,5,7,1,2026-03-31T08:10:34.916438+05:30
Gulbarga,Karnataka,17.3297,76.8343,25.6,70,0.0,961.0,8.95,28.1,104,49.6,45.1,7,5,7,1,2026-03-31T08:10:34.916444+05:30
Bidar,Karnataka,17.9104,77.5199,24.1,71,0.0,938.0,8.95,32.8,103,49.6,43.3,3,5,7,1,2026-03-31T08:10:34.916450+05:30
Hospet,Karnataka,15.2689,76.3909,25.1,78,0.0,958.2,9.15,25.2,99,24.7,22.3,7,5,7,1,2026-03-31T08:10:34.916456+05:30
Tirupur,Tamil Nadu,11.1085,77.3411,26.6,82,0.0,977.4,9.5,30.6,78,23.6,22.8,7,5,7,1,2026-03-31T08:10:34.916462+05:30
Alappuzha,Kerala,9.4981,76.3388,27.9,86,0.0,1009.6,9.2,25.6,106,46.9,44.2,7,0,4,1,2026-03-31T08:10:34.916469+05:30
Munnar,Kerala,10.0889,77.0595,22.3,74,0.0,858.0,9.75,26.6,78,38.3,37.1,3,5,7,1,2026-03-31T08:10:34.916475+05:30
Silchar,Assam,24.8333,92.7789,22.6,95,0.0,1009.7,8.35,25.9,104,33.1,27.2,3,0,4,1,2026-03-31T08:10:34.916482+05:30
Dibrugarh,Assam,27.4728,94.912,22.6,87,0.0,1000.3,8.15,7.2,98,32.6,26.3,3,5,4,1,2026-03-31T08:10:34.916488+05:30
