city,state,latitude,longitude,temp,humidity,rain,pressure,uv_index,wind_gusts,aqi,pm10,pm2_5,mosquito_risk,arthritis_risk,migraine_risk,frizz_risk,updated_at
Delhi,Delhi,28.6139,77.209,20.1,66,0.0,984.8,6.15,34.9,185,248.7,81.5,3,5,7,0,2026-03-15T05:01:24.819182+05:30
Mumbai,Maharashtra,19.076,72.8777,27.4,79,0.0,1009.4,7.7,23.8,113,75.9,33.9,7,0,4,1,2026-03-15T05:01:24.819221+05:30
Bangalore,Karnataka,12.9716,77.5946,19.3,75,0.0,911.9,9.3,18.4,88,34.8,33.3,3,5,7,0,2026-03-15T05:01:24.819236+05:30
Hyderabad,Telangana,17.385,78.4867,22.3,86,0.0,954.2,8.7,23.0,99,33.1,26.4,3,5,7,1,2026-03-15T05:01:24.819246+05:30
Chennai,Tamil Nadu,13.0827,80.2707,25.1,89,0.0,1009.9,9.05,30.6,50,17.9,14.1,7,0,4,1,2026-03-15T05:01:24.819255+05:30
Kolkata,West Bengal,22.5726,88.3639,24.8,87,0.0,1008.5,8.1,36.7,73,16.3,11.9,3,0,4,1,2026-03-15T05:01:24.819267+05:30
Pune,Maharashtra,18.5204,73.8567,22.7,29,0.0,948.9,8.25,40.3,103,37.3,31.4,0,5,7,0,2026-03-15T05:01:24.819278+05:30
Ahmedabad,Gujarat,23.0225,72.5714,22.0,70,0.0,1003.2,7.45,24.8,79,54.2,21.2,3,5,4,1,2026-03-15T05:01:24.819285+05:30
Jaipur,Rajasthan,26.9124,75.7873,21.9,52,0.0,959.2,7.0,44.6,122,350.2,61.9,0,5,7,0,2026-03-15T05:01:24.819293+05:30
Lucknow,Uttar Pradesh,26.8467,80.9462,20.9,68,0.0,995.4,6.7,49.3,157,172.8,58.2,3,5,7,0,2026-03-15T05:01:24.819300+05:30
Kanpur,Uttar Pradesh,26.4499,80.3319,20.3,67,0.0,993.6,6.65,45.0,212,249.6,64.7,3,5,7,0,2026-03-15T05:01:24.819307+05:30
Chandigarh,Chandigarh,30.7333,76.7794,17.3,68,0.0,968.1,5.95,47.5,78,25.4,24.9,3,5,3,0,2026-03-15T05:01:24.819314+05:30
Srinagar,Jammu and Kashmir,34.0837,74.7973,7.6,78,0.0,837.2,4.95,31.0,96,59.0,37.3,3,5,3,0,2026-03-15T05:01:24.819321+05:30
Jammu,Jammu and Kashmir,32.7266,74.857,17.5,67,0.0,971.8,3.35,59.4,82,29.0,25.9,3,5,3,0,2026-03-15T05:01:24.819329+05:30
Amritsar,Punjab,31.634,74.8723,16.5,77,0.0,980.1,3.5,42.8,98,54.4,43.8,3,5,3,0,2026-03-15T05:01:24.819336+05:30
Ludhiana,Punjab,30.901,75.8573,16.9,63,0.0,978.3,6.25,36.4,117,96.4,44.2,3,5,7,0,2026-03-15T05:01:24.819342+05:30
Jalandhar,Punjab,31.326,75.5762,15.9,83,0.0,979.3,5.4,35.6,110,76.4,50.4,3,10,3,0,2026-03-15T05:01:24.819351+05:30
Dehradun,Uttarakhand,30.6284,78.0322,11.6,33,0.0,827.6,6.1,31.3,52,25.0,13.6,0,5,7,1,2026-03-15T05:01:24.819358+05:30
Shimla,Himachal Pradesh,31.1048,77.1734,10.4,43,0.0,781.2,5.9,46.8,61,34.2,22.5,0,5,3,1,2026-03-15T05:01:24.819365+05:30
Manali,Himachal Pradesh,32.2396,77.1887,11.0,51,0.0,817.6,5.85,32.0,48,27.8,11.0,0,5,3,0,2026-03-15T05:01:24.819372+05:30
Gurgaon,Haryana,28.4595,77.0266,18.0,76,0.0,983.0,6.25,37.4,461,685.5,124.8,3,5,7,0,2026-03-15T05:01:24.819379+05:30
Noida,Uttar Pradesh,28.5355,77.391,19.4,70,0.0,986.4,6.15,36.0,461,685.5,124.8,3,5,7,0,2026-03-15T05:01:24.819385+05:30
Ghaziabad,Uttar Pradesh,28.6692,77.4538,17.8,80,0.0,984.5,6.15,30.6,168,327.8,97.8,3,5,7,0,2026-03-15T05:01:24.819392+05:30
Faridabad,Haryana,28.4089,77.3178,19.1,67,0.0,985.5,6.2,35.3,461,685.5,124.8,3,5,7,0,2026-03-15T05:01:24.819398+05:30
Meerut,Uttar Pradesh,28.9845,77.7064,16.7,82,0.0,982.2,6.05,28.8,168,327.8,97.8,3,10,7,0,2026-03-15T05:01:24.819404+05:30
Agra,Uttar Pradesh,27.1767,78.0081,18.0,70,0.0,989.4,6.6,35.6,343,1497.6,158.3,3,5,7,0,2026-03-15T05:01:24.819411+05:30
Varanasi,Uttar Pradesh,25.3176,82.9739,20.0,83,0.0,998.5,7.35,38.9,147,113.4,70.5,3,5,7,1,2026-03-15T05:01:24.819420+05:30
Prayagraj,Uttar Pradesh,25.4358,81.8463,20.2,85,0.0,997.2,7.25,37.8,147,102.7,54.6,3,5,7,1,2026-03-15T05:01:24.819427+05:30
Gorakhpur,Uttar Pradesh,26.7606,83.3732,18.9,79,0.0,999.2,7.1,37.1,153,91.5,74.3,3,5,7,0,2026-03-15T05:01:24.819434+05:30
Bareilly,Uttar Pradesh,28.367,79.4304,16.9,91,0.0,988.3,6.15,23.4,143,187.7,78.5,3,10,7,0,2026-03-15T05:01:24.819441+05:30
Aligarh,Uttar Pradesh,27.8974,78.088,16.9,82,0.0,987.5,6.25,37.1,288,168.1,70.5,3,10,7,0,2026-03-15T05:01:24.819448+05:30
Moradabad,Uttar Pradesh,28.8386,78.7733,16.9,80,0.0,984.8,5.4,23.4,153,196.5,92.4,3,5,3,0,2026-03-15T05:01:24.819454+05:30
Saharanpur,Uttar Pradesh,29.9637,77.546,15.9,82,0.0,975.5,5.8,33.5,143,101.0,65.0,3,10,3,0,2026-03-15T05:01:24.819460+05:30
Jhansi,Uttar Pradesh,25.4484,78.5685,20.5,67,0.0,978.7,7.2,38.2,139,86.8,36.0,3,5,7,0,2026-03-15T05:01:28.077405+05:30
Surat,Gujarat,21.1702,72.8311,25.6,86,0.0,1007.8,7.4,23.4,138,60.8,40.3,7,5,4,1,2026-03-15T05:01:28.077438+05:30
Vadodara,Gujarat,22.3072,73.1812,23.8,76,0.0,1005.6,7.5,22.7,92,57.4,29.8,3,5,4,1,2026-03-15T05:01:28.077450+05:30
Rajkot,Gujarat,22.3039,70.8022,22.6,87,0.0,995.7,7.35,34.9,86,46.0,19.8,3,5,7,1,2026-03-15T05:01:28.077460+05:30
Thane,Maharashtra,19.2183,72.9781,24.4,89,0.0,1009.0,7.7,35.6,113,75.9,33.9,3,0,4,1,2026-03-15T05:01:28.077469+05:30
Nagpur,Maharashtra,21.1458,79.0882,23.8,69,0.0,974.0,8.15,29.5,132,53.6,47.5,3,5,7,1,2026-03-15T05:01:28.077478+05:30
Nashik,Maharashtra,19.9975,73.7898,20.3,33,0.0,946.0,7.9,40.3,83,49.0,26.0,0,5,7,0,2026-03-15T05:01:28.077485+05:30
Aurangabad,Maharashtra,19.8762,75.3433,22.4,38,0.0,944.5,8.4,26.6,75,30.3,23.3,0,5,7,0,2026-03-15T05:01:28.077492+05:30
Solapur,Maharashtra,17.6599,75.9064,22.4,61,0.0,958.2,8.65,27.7,118,44.0,41.3,3,5,7,0,2026-03-15T05:01:28.077499+05:30
Kolhapur,Maharashtra,16.705,74.2433,21.4,90,0.0,948.6,8.75,41.8,153,80.8,76.1,3,5,7,1,2026-03-15T05:01:28.077505+05:30
Goa,Goa,15.2993,74.124,27.4,85,0.0,998.7,8.75,32.8,126,55.1,50.2,7,5,7,1,2026-03-15T05:01:28.077512+05:30
Jodhpur,Rajasthan,26.2389,73.0243,24.7,36,0.0,982.4,7.25,30.2,102,236.6,61.0,0,5,7,0,2026-03-15T05:01:28.077519+05:30
Udaipur,Rajasthan,24.5854,73.7125,22.3,46,0.0,946.6,7.85,34.6,62,59.6,21.0,0,5,7,0,2026-03-15T05:01:28.077526+05:30
Kota,Rajasthan,25.2138,75.8648,21.2,65,0.0,979.0,7.3,32.4,74,18.9,12.2,3,5,7,0,2026-03-15T05:01:28.077532+05:30
Bikaner,Rajasthan,28.0229,73.3119,22.5,56,0.0,981.6,6.9,46.1,75,30.9,15.3,0,5,7,0,2026-03-15T05:01:28.077539+05:30
Ajmer,Rajasthan,26.4499,74.6399,21.6,51,0.0,953.7,7.25,38.2,76,52.6,22.0,0,5,7,0,2026-03-15T05:01:28.077546+05:30
Gwalior,Madhya Pradesh,26.2183,78.1828,21.1,74,0.0,984.1,6.9,34.9,181,190.0,49.1,3,5,7,1,2026-03-15T05:01:28.077552+05:30
Indore,Madhya Pradesh,22.7196,75.8577,19.8,55,0.0,948.3,7.8,33.5,71,22.6,14.6,0,5,7,0,2026-03-15T05:01:28.077559+05:30
Bhopal,Madhya Pradesh,23.2599,77.4126,20.1,51,0.0,953.7,7.7,39.2,74,18.6,14.1,0,5,7,0,2026-03-15T05:01:28.077565+05:30
Jabalpur,Madhya Pradesh,23.1815,79.9864,22.5,51,0.0,961.7,7.8,32.0,70,21.0,19.7,0,5,7,0,2026-03-15T05:01:28.077571+05:30
Ujjain,Madhya Pradesh,23.1765,75.7885,19.5,61,0.0,954.1,7.7,30.6,73,24.2,16.2,3,5,7,0,2026-03-15T05:01:28.077578+05:30
Visakhapatnam,Andhra Pradesh,17.6868,83.2185,24.1,89,0.0,1006.8,8.65,39.2,60,24.7,20.5,3,5,4,1,2026-03-15T05:01:28.077584+05:30
Vijayawada,Andhra Pradesh,16.5062,80.648,24.1,88,0.0,1005.5,8.75,27.0,60,25.1,21.6,3,5,4,1,2026-03-15T05:01:28.077591+05:30
Guntur,Andhra Pradesh,16.3067,80.4365,24.4,91,0.0,1006.4,8.75,27.7,57,18.3,15.5,3,5,4,1,2026-03-15T05:01:28.077598+05:30
Nellore,Andhra Pradesh,14.4426,79.9865,24.2,92,0.0,1008.4,8.95,28.4,55,13.9,11.8,3,0,4,1,2026-03-15T05:01:28.077605+05:30
Kurnool,Andhra Pradesh,15.8281,78.0373,24.7,70,0.0,978.2,8.75,20.2,88,23.9,21.2,3,5,7,1,2026-03-15T05:01:28.077612+05:30
Kakinada,Andhra Pradesh,16.9891,82.2475,23.3,92,0.0,1010.7,8.7,27.7,53,25.9,20.3,3,0,4,1,2026-03-15T05:01:28.077618+05:30
Tirupati,Andhra Pradesh,13.6288,79.4192,22.1,95,0.0,994.1,9.05,27.7,70,29.5,28.1,3,5,7,1,2026-03-15T05:01:28.077624+05:30
Warangal,Telangana,17.9689,79.5941,22.4,92,0.0,980.6,8.55,33.8,81,16.6,14.1,3,5,7,1,2026-03-15T05:01:28.077631+05:30
Nizamabad,Telangana,18.6725,78.0941,26.1,59,0.0,965.9,8.45,29.9,125,35.2,31.1,4,5,7,1,2026-03-15T05:01:28.077637+05:30
Mysore,Karnataka,12.2958,76.6396,21.2,94,0.0,929.2,9.3,30.6,95,43.8,41.7,3,5,7,1,2026-03-15T05:01:28.077644+05:30
Mangalore,Karnataka,12.9141,74.856,27.7,83,0.0,1007.9,8.95,27.7,96,37.1,32.4,7,5,4,1,2026-03-15T05:01:28.077650+05:30
Hubli-Dharwad,Karnataka,15.3647,75.124,22.9,92,0.0,941.7,8.95,41.0,114,42.6,39.9,3,5,7,1,2026-03-15T05:01:28.077657+05:30
Belgaum,Karnataka,15.8497,74.4977,21.8,91,0.0,926.1,9.0,45.4,132,65.9,61.9,3,5,7,1,2026-03-15T05:01:31.335236+05:30
Coimbatore,Tamil Nadu,11.0168,76.9558,21.4,81,0.0,963.0,9.3,33.5,67,28.8,27.6,3,5,7,1,2026-03-15T05:01:31.335269+05:30
Madurai,Tamil Nadu,9.9252,78.1198,24.0,87,0.0,995.0,9.25,24.1,54,22.9,21.2,3,5,7,1,2026-03-15T05:01:31.335281+05:30
Trichy,Tamil Nadu,10.7905,78.7047,24.3,97,0.0,1002.2,9.15,19.8,61,28.2,26.1,3,5,4,1,2026-03-15T05:01:31.335290+05:30
Salem,Tamil Nadu,11.6643,78.146,22.2,97,0.0,979.2,9.2,12.6,76,35.3,34.7,3,5,7,1,2026-03-15T05:01:31.335298+05:30
Tirunelveli,Tamil Nadu,8.7139,77.7567,23.4,90,0.0,1005.0,9.25,35.3,50,22.2,21.9,3,5,4,1,2026-03-15T05:01:31.335306+05:30
Vellore,Tamil Nadu,12.9165,79.1325,20.7,97,0.0,986.9,9.1,29.9,91,53.7,52.5,3,5,7,1,2026-03-15T05:01:31.335315+05:30
Erode,Tamil Nadu,11.341,77.7172,24.4,93,0.0,991.1,9.2,19.4,51,16.2,14.8,3,5,7,1,2026-03-15T05:01:31.335323+05:30
Kochi,Kerala,9.9312,76.2673,26.6,82,0.0,1009.8,9.1,34.2,81,28.7,28.1,7,0,4,1,2026-03-15T05:01:31.335332+05:30
Thiruvananthapuram,Kerala,8.5241,76.9366,27.1,86,0.0,1008.7,9.1,28.1,44,13.0,10.4,7,0,4,1,2026-03-15T05:01:31.335340+05:30
Kozhikode,Kerala,11.2588,75.7804,26.4,84,0.0,1009.2,9.0,29.2,76,31.0,27.6,7,0,4,1,2026-03-15T05:01:31.335348+05:30
Thrissur,Kerala,10.5276,76.2144,24.8,93,0.0,1008.2,9.05,38.5,78,29.6,28.6,3,0,4,1,2026-03-15T05:01:31.335356+05:30
Kannur,Kerala,11.8745,75.3704,26.3,88,0.0,1008.5,9.0,31.0,88,27.1,24.9,7,0,4,1,2026-03-15T05:01:31.335364+05:30
Patna,Bihar,25.5941,85.1376,23.2,77,0.0,1002.2,7.4,32.8,155,139.2,95.2,3,5,4,1,2026-03-15T05:01:31.335372+05:30
Gaya,Bihar,24.7914,85.0002,19.3,82,0.0,994.8,7.65,33.1,130,90.6,57.4,3,10,7,1,2026-03-15T05:01:31.335380+05:30
Muzaffarpur,Bihar,26.1209,85.3647,19.2,81,0.0,1002.0,7.5,34.2,160,111.1,89.6,3,10,4,0,2026-03-15T05:01:31.335387+05:30
Bhagalpur,Bihar,25.2425,87.0117,21.4,95,0.0,1002.6,7.6,33.5,151,76.1,63.3,3,5,4,1,2026-03-15T05:01:31.335395+05:30
Ranchi,Jharkhand,23.3441,85.3096,21.1,45,0.0,938.7,8.3,49.0,74,63.6,34.8,0,5,7,0,2026-03-15T05:01:31.335404+05:30
Jamshedpur,Jharkhand,22.8046,86.2029,24.9,80,0.0,992.7,8.2,49.7,145,55.5,50.2,3,5,7,1,2026-03-15T05:01:31.335411+05:30
Dhanbad,Jharkhand,23.7957,86.4304,23.8,91,0.0,981.0,8.05,43.6,158,112.0,102.2,3,5,7,1,2026-03-15T05:01:31.335419+05:30
Bokaro,Jharkhand,23.6693,86.1511,20.3,76,0.0,985.1,8.05,43.6,151,113.6,84.8,3,5,7,0,2026-03-15T05:01:31.335426+05:30
Bhubaneswar,Odisha,20.2961,85.8245,25.0,87,0.0,1005.1,8.5,41.8,58,16.6,12.1,7,5,4,1,2026-03-15T05:01:31.335434+05:30
Cuttack,Odisha,20.4625,85.8828,25.0,86,0.0,1007.0,8.5,33.8,58,16.6,12.1,7,5,4,1,2026-03-15T05:01:31.335441+05:30
Rourkela,Odisha,22.2604,84.8536,24.8,84,0.0,986.9,8.1,47.9,121,67.5,58.2,3,5,7,1,2026-03-15T05:01:31.335449+05:30
Raipur,Chhattisgarh,21.2514,81.6296,24.8,61,0.0,975.7,8.2,44.3,152,53.9,50.5,3,5,7,1,2026-03-15T05:01:31.335456+05:30
Bhilai,Chhattisgarh,21.1938,81.3509,24.0,64,0.0,976.0,8.2,41.4,143,51.3,47.8,3,5,7,1,2026-03-15T05:01:31.335464+05:30
Guwahati,Assam,26.1158,91.7086,20.2,94,0.0,1005.7,7.45,34.9,77,20.1,16.2,3,5,4,1,2026-03-15T05:01:31.335471+05:30
Agartala,Tripura,23.8315,91.2868,20.0,92,0.0,1011.0,7.9,41.4,70,8.5,6.7,3,0,4,1,2026-03-15T05:01:31.335479+05:30
Shillong,Meghalaya,25.5788,91.8933,12.9,93,0.0,857.0,7.8,78.5,63,9.2,8.0,3,10,7,0,2026-03-15T05:01:31.335487+05:30
Imphal,Manipur,24.817,93.9368,15.5,93,0.0,926.5,8.15,79.6,105,25.4,19.8,3,10,7,0,2026-03-15T05:01:31.335495+05:30
Aizawl,Mizoram,23.7271,92.7176,15.8,90,0.0,896.1,8.1,64.1,99,46.6,31.7,3,10,7,0,2026-03-15T05:01:31.335502+05:30
Kohima,Nagaland,25.6701,94.1077,14.2,77,0.0,856.0,7.3,106.6,83,19.3,13.8,3,5,7,0,2026-03-15T05:01:31.335510+05:30
Gangtok,Sikkim,27.3314,88.6138,12.0,84,0.0,836.7,7.5,19.4,91,71.0,37.8,3,10,7,0,2026-03-15T05:01:31.335518+05:30
Siliguri,West Bengal,26.7271,88.3953,18.0,91,0.0,996.9,7.45,28.8,128,72.4,47.1,3,10,7,1,2026-03-15T05:01:34.591231+05:30
Durgapur,West Bengal,23.5204,87.3119,24.4,92,0.0,996.9,8.05,45.7,145,29.7,28.0,3,5,7,1,2026-03-15T05:01:34.591262+05:30
Asansol,West Bengal,23.6739,86.9524,24.6,91,0.0,995.2,8.05,48.2,141,47.1,43.9,3,5,7,1,2026-03-15T05:01:34.591274+05:30
Pondicherry,Puducherry,11.9139,79.8145,24.2,95,0.0,1011.0,9.0,27.4,44,14.8,11.0,3,0,4,1,2026-03-15T05:01:34.591282+05:30
Port Blair,Andaman and Nicobar Islands,11.6234,92.7265,27.5,79,0.0,1009.8,8.95,23.4,51,11.9,8.7,7,0,4,1,2026-03-15T05:01:34.591291+05:30
Haridwar,Uttarakhand,29.9457,78.1642,17.5,83,0.0,974.3,5.75,33.1,95,34.0,32.0,3,10,3,0,2026-03-15T05:01:34.591299+05:30
Rishikesh,Uttarakhand,30.0869,78.2676,18.4,69,0.0,967.0,5.55,26.3,64,24.8,23.9,3,5,3,0,2026-03-15T05:01:34.591308+05:30
Nainital,Uttarakhand,29.3919,79.4542,16.5,22,0.0,805.1,4.8,36.4,85,28.1,25.7,0,5,3,1,2026-03-15T05:01:34.591316+05:30
Mussoorie,Uttarakhand,30.4599,78.0664,14.0,43,0.0,800.8,5.8,46.4,72,27.4,25.7,0,5,3,0,2026-03-15T05:01:34.591324+05:30
Dharamshala,Himachal Pradesh,32.219,76.3234,18.2,26,0.0,867.4,5.15,44.3,46,35.5,11.0,0,5,3,1,2026-03-15T05:01:34.591332+05:30
Dalhousie,Himachal Pradesh,32.5387,75.971,14.8,26,0.0,801.2,5.05,42.5,68,28.6,20.3,0,5,3,1,2026-03-15T05:01:34.591340+05:30
Patiala,Punjab,30.3398,76.3869,15.9,75,0.0,977.6,5.95,30.6,142,82.9,36.9,3,5,3,0,2026-03-15T05:01:34.591348+05:30
Bhatinda,Punjab,30.211,74.9455,17.6,85,0.0,983.7,6.5,36.7,94,59.1,24.0,3,10,7,0,2026-03-15T05:01:34.591356+05:30
Rohtak,Haryana,28.8955,76.6066,17.5,85,0.0,983.1,6.15,39.2,192,265.4,77.3,3,10,7,0,2026-03-15T05:01:34.591364+05:30
Panipat,Haryana,29.3909,76.9635,15.8,80,0.0,980.7,5.95,29.5,462,342.7,75.0,3,5,3,0,2026-03-15T05:01:34.591372+05:30
Mathura,Uttar Pradesh,27.4924,77.6737,17.7,72,0.0,988.1,6.5,38.5,219,234.2,68.9,3,5,7,0,2026-03-15T05:01:34.591380+05:30
Vrindavan,Uttar Pradesh,27.5823,77.7027,16.9,72,0.0,988.8,6.45,33.5,219,234.2,68.9,3,5,7,0,2026-03-15T05:01:34.591388+05:30
Ayodhya,Uttar Pradesh,26.7922,82.1998,20.0,74,0.0,996.9,6.9,38.9,152,112.9,50.5,3,5,7,0,2026-03-15T05:01:34.591396+05:30
Ratlam,Madhya Pradesh,23.3315,75.0367,21.8,56,0.0,955.1,7.65,33.8,68,27.8,17.8,0,5,7,0,2026-03-15T05:01:34.591403+05:30
Sagar,Madhya Pradesh,23.8388,78.7378,21.5,47,0.0,949.8,7.65,33.8,62,16.0,14.4,0,5,7,0,2026-03-15T05:01:34.591411+05:30
Satna,Madhya Pradesh,24.6005,80.8322,21.0,72,0.0,971.6,7.6,26.6,99,76.1,31.2,3,5,7,0,2026-03-15T05:01:34.591419+05:30
Akola,Maharashtra,20.7002,77.0082,24.2,52,0.0,975.7,8.15,23.4,85,28.3,25.2,0,5,7,0,2026-03-15T05:01:34.591428+05:30
Amravati,Maharashtra,20.9374,77.7796,21.2,65,0.0,967.8,8.1,23.8,99,32.5,30.9,3,5,7,0,2026-03-15T05:01:34.591436+05:30
Latur,Maharashtra,18.4088,76.5604,22.9,50,0.0,941.3,8.55,27.0,132,45.2,41.2,0,5,7,0,2026-03-15T05:01:34.591443+05:30
Nanded,Maharashtra,19.1383,77.3091,25.4,61,0.0,969.9,8.35,22.3,139,60.5,54.1,7,5,7,1,2026-03-15T05:01:34.591451+05:30
Gulbarga,Karnataka,17.3297,76.8343,25.8,54,0.0,959.8,8.6,23.0,103,38.6,33.8,4,5,7,0,2026-03-15T05:01:34.591458+05:30
Bidar,Karnataka,17.9104,77.5199,23.8,66,0.0,936.5,8.6,28.1,106,38.1,32.8,3,5,7,1,2026-03-15T05:01:34.591465+05:30
Hospet,Karnataka,15.2689,76.3909,24.3,84,0.0,957.7,8.9,27.4,111,42.6,40.3,3,5,7,1,2026-03-15T05:01:34.591472+05:30
Tirupur,Tamil Nadu,11.1085,77.3411,23.7,74,0.0,977.0,9.3,27.0,56,21.8,20.7,3,5,7,1,2026-03-15T05:01:34.591479+05:30
Alappuzha,Kerala,9.4981,76.3388,26.4,83,0.0,1009.8,9.1,29.2,71,22.6,21.7,7,0,4,1,2026-03-15T05:01:34.591487+05:30
Munnar,Kerala,10.0889,77.0595,17.6,89,0.0,855.9,9.55,33.5,57,19.2,18.6,3,10,7,0,2026-03-15T05:01:34.591495+05:30
Silchar,Assam,24.8333,92.7789,20.1,95,0.1,1010.8,7.85,40.3,114,36.8,29.7,6,0,4,1,2026-03-15T05:01:34.591504+05:30
Dibrugarh,Assam,27.4728,94.912,19.0,94,0.0,999.8,4.65,27.4,74,15.4,12.3,3,10,3,1,2026-03-15T05:01:34.591511+05:30
