city,state,latitude,longitude,temp,humidity,rain,pressure,uv_index,wind_gusts,aqi,pm10,pm2_5,no2,co,o3,so2,mosquito_risk,arthritis_risk,migraine_risk,frizz_risk,updated_at
Delhi,Delhi,28.6139,77.209,28.8,86,0.0,977.2,6.25,29.9,199,251.5,84.3,29.4,273.0,41.0,19.8,7,5,7,1,2026-07-20T05:30:21.361856+05:30
Mumbai,Maharashtra,19.076,72.8777,25.5,93,0.2,1005.4,7.4,45.0,57,21.5,9.2,4.7,124.0,45.0,4.3,10,5,4,1,2026-07-20T05:30:21.361891+05:30
Bangalore,Karnataka,12.9716,77.5946,20.7,91,0.0,911.0,9.1,51.1,49,4.4,3.3,6.2,160.0,32.0,3.9,3,5,7,1,2026-07-20T05:30:21.361907+05:30
Hyderabad,Telangana,17.385,78.4867,23.2,91,0.0,950.5,7.95,49.0,40,5.0,3.7,6.7,155.0,31.0,3.9,3,5,7,1,2026-07-20T05:30:21.361917+05:30
Chennai,Tamil Nadu,13.0827,80.2707,27.5,86,0.0,1005.6,3.8,37.1,75,32.1,23.2,17.9,189.0,40.0,13.6,7,5,0,1,2026-07-20T05:30:21.361925+05:30
Kolkata,West Bengal,22.5726,88.3639,26.9,93,0.0,1001.4,4.55,29.9,69,36.8,27.6,10.1,257.0,65.0,6.2,7,5,0,1,2026-07-20T05:30:21.361932+05:30
Pune,Maharashtra,18.5204,73.8567,22.6,89,0.0,945.0,5.2,47.2,22,1.8,1.6,5.4,121.0,35.0,5.3,3,5,3,1,2026-07-20T05:30:21.361938+05:30
Ahmedabad,Gujarat,23.0225,72.5714,26.8,93,0.0,997.3,6.85,34.6,65,19.2,11.9,10.7,142.0,27.0,4.9,7,5,7,1,2026-07-20T05:30:21.361945+05:30
Jaipur,Rajasthan,26.9124,75.7873,29.4,65,0.0,954.6,5.35,29.5,128,287.8,54.4,11.3,179.0,44.0,5.9,7,5,3,1,2026-07-20T05:30:21.361952+05:30
Lucknow,Uttar Pradesh,26.8467,80.9462,25.5,95,0.1,988.7,7.85,26.6,142,50.1,39.7,20.2,269.0,54.0,8.9,10,5,7,1,2026-07-20T05:30:21.361962+05:30
Kanpur,Uttar Pradesh,26.4499,80.3319,25.9,98,0.9,986.7,7.35,32.4,127,40.9,24.7,14.0,261.0,59.0,3.1,10,5,7,1,2026-07-20T05:30:21.361969+05:30
Chandigarh,Chandigarh,30.7333,76.7794,25.5,96,0.1,963.3,1.5,29.9,162,137.4,60.8,13.5,249.0,78.0,15.2,10,5,3,1,2026-07-20T05:30:21.361976+05:30
Srinagar,Jammu and Kashmir,34.0837,74.7973,20.7,98,0.1,838.6,9.05,20.9,73,29.2,26.2,14.3,337.0,48.0,2.8,6,5,7,1,2026-07-20T05:30:21.361983+05:30
Jammu,Jammu and Kashmir,32.7266,74.857,26.9,95,0.1,966.7,7.2,22.3,133,43.5,25.0,12.9,237.0,65.0,2.6,10,5,7,1,2026-07-20T05:30:21.361989+05:30
Amritsar,Punjab,31.634,74.8723,28.9,88,0.0,973.9,7.55,36.7,174,208.6,95.9,18.1,353.0,52.0,11.9,7,5,7,1,2026-07-20T05:30:21.361995+05:30
Ludhiana,Punjab,30.901,75.8573,28.3,90,0.0,972.1,7.05,35.3,191,341.8,111.8,17.9,334.0,63.0,16.5,7,5,7,1,2026-07-20T05:30:21.362002+05:30
Jalandhar,Punjab,31.326,75.5762,28.2,89,0.0,973.0,2.8,36.0,179,375.3,137.8,20.3,384.0,56.0,17.8,7,5,3,1,2026-07-20T05:30:21.362008+05:30
Dehradun,Uttarakhand,30.6284,78.0322,18.3,100,0.0,827.4,0.8,19.4,54,29.1,12.5,8.2,245.0,68.0,1.6,3,10,3,1,2026-07-20T05:30:21.362014+05:30
Shimla,Himachal Pradesh,31.1048,77.1734,16.4,99,0.1,781.7,4.4,26.6,80,87.3,34.2,4.7,208.0,95.0,4.4,6,10,3,1,2026-07-20T05:30:21.362022+05:30
Manali,Himachal Pradesh,32.2396,77.1887,19.6,98,0.0,815.8,8.6,31.0,41,6.5,5.9,9.8,182.0,53.0,0.2,3,10,7,1,2026-07-20T05:30:21.362030+05:30
Gurgaon,Haryana,28.4595,77.0266,28.9,79,0.0,975.4,5.4,25.2,354,437.7,108.3,17.4,269.0,54.0,9.8,7,5,3,1,2026-07-20T05:30:21.362037+05:30
Noida,Uttar Pradesh,28.5355,77.391,27.7,91,0.0,978.7,5.25,35.6,354,437.7,108.3,17.4,273.0,54.0,9.8,7,5,3,1,2026-07-20T05:30:21.362043+05:30
Ghaziabad,Uttar Pradesh,28.6692,77.4538,27.5,94,0.0,977.1,5.45,32.0,175,117.1,49.9,19.6,366.0,45.0,6.9,7,5,3,1,2026-07-20T05:30:21.362049+05:30
Faridabad,Haryana,28.4089,77.3178,28.1,89,0.0,977.8,4.35,36.7,354,437.7,108.3,17.4,270.0,54.0,9.8,7,5,3,1,2026-07-20T05:30:21.362055+05:30
Meerut,Uttar Pradesh,28.9845,77.7064,26.1,98,0.0,976.3,5.75,30.6,175,117.1,49.9,19.6,396.0,45.0,6.9,7,5,3,1,2026-07-20T05:30:21.362060+05:30
Agra,Uttar Pradesh,27.1767,78.0081,27.8,87,0.0,981.9,2.5,30.2,102,27.4,17.6,10.7,181.0,60.0,5.8,7,5,3,1,2026-07-20T05:30:21.362066+05:30
Varanasi,Uttar Pradesh,25.3176,82.9739,25.8,96,0.4,992.9,8.0,25.9,112,57.5,56.0,30.3,637.0,41.0,19.7,10,5,7,1,2026-07-20T05:30:21.362072+05:30
Prayagraj,Uttar Pradesh,25.4358,81.8463,26.7,96,0.1,991.4,7.3,29.9,123,55.3,53.0,38.7,210.0,14.0,11.0,10,5,7,1,2026-07-20T05:30:21.362079+05:30
Gorakhpur,Uttar Pradesh,26.7606,83.3732,25.4,97,0.1,993.1,8.4,24.1,72,16.1,16.0,11.4,370.0,78.0,6.8,10,5,7,1,2026-07-20T05:30:21.362085+05:30
Bareilly,Uttar Pradesh,28.367,79.4304,25.7,97,0.1,982.0,5.6,27.4,115,26.7,20.3,12.6,262.0,77.0,7.9,10,5,3,1,2026-07-20T05:30:21.362092+05:30
Aligarh,Uttar Pradesh,27.8974,78.088,27.7,95,0.0,979.9,3.6,21.6,160,68.5,33.5,14.8,226.0,57.0,5.7,7,5,3,1,2026-07-20T05:30:21.362098+05:30
Moradabad,Uttar Pradesh,28.8386,78.7733,25.8,98,0.1,979.1,5.25,24.8,144,28.9,15.5,7.6,281.0,92.0,6.2,10,5,3,1,2026-07-20T05:30:21.362104+05:30
Saharanpur,Uttar Pradesh,29.9637,77.546,25.0,98,0.2,971.0,4.9,27.0,160,44.0,28.1,8.0,250.0,81.0,10.4,10,5,3,1,2026-07-20T05:30:21.362110+05:30
Jhansi,Uttar Pradesh,25.4484,78.5685,26.6,93,0.0,972.9,3.3,29.5,86,20.9,16.4,11.5,202.0,50.0,3.7,7,5,3,1,2026-07-20T05:30:25.189326+05:30
Surat,Gujarat,21.1702,72.8311,25.5,95,0.0,1002.5,6.55,49.3,66,18.6,13.9,22.5,260.0,21.0,31.2,7,5,4,1,2026-07-20T05:30:25.189353+05:30
Vadodara,Gujarat,22.3072,73.1812,25.9,95,0.0,999.9,7.05,45.0,64,16.0,11.2,14.5,128.0,25.0,12.8,7,5,7,1,2026-07-20T05:30:25.189363+05:30
Rajkot,Gujarat,22.3039,70.8022,25.9,88,0.1,989.1,6.6,51.1,59,17.3,8.2,5.1,102.0,37.0,3.8,10,5,7,1,2026-07-20T05:30:25.189370+05:30
Thane,Maharashtra,19.2183,72.9781,24.4,99,0.1,1004.9,7.5,42.8,57,21.5,9.2,4.7,137.0,45.0,4.3,6,5,4,1,2026-07-20T05:30:25.189377+05:30
Nagpur,Maharashtra,21.1458,79.0882,25.4,90,0.0,969.0,7.6,34.6,67,20.0,16.8,15.3,208.0,30.0,9.8,7,5,7,1,2026-07-20T05:30:25.189384+05:30
Nashik,Maharashtra,19.9975,73.7898,22.1,97,0.0,941.6,7.35,51.8,22,3.4,2.4,8.0,123.0,32.0,9.3,3,5,7,1,2026-07-20T05:30:25.189391+05:30
Aurangabad,Maharashtra,19.8762,75.3433,22.9,90,0.0,940.6,6.9,48.2,32,5.4,3.6,8.2,132.0,30.0,8.7,3,5,7,1,2026-07-20T05:30:25.189397+05:30
Solapur,Maharashtra,17.6599,75.9064,23.8,86,0.0,955.0,7.3,53.3,35,3.7,3.3,6.9,127.0,28.0,2.5,3,5,7,1,2026-07-20T05:30:25.189404+05:30
Kolhapur,Maharashtra,16.705,74.2433,22.0,93,0.0,946.2,8.75,53.6,27,2.3,2.1,3.4,104.0,36.0,1.9,3,5,7,1,2026-07-20T05:30:25.189410+05:30
Goa,Goa,15.2993,74.124,23.6,99,0.1,997.9,5.1,36.0,59,23.2,12.8,3.2,215.0,41.0,1.1,6,5,3,1,2026-07-20T05:30:25.189417+05:30
Jodhpur,Rajasthan,26.2389,73.0243,29.3,66,0.0,977.3,7.05,40.0,90,109.0,27.6,6.5,122.0,50.0,3.7,7,5,7,1,2026-07-20T05:30:25.189423+05:30
Udaipur,Rajasthan,24.5854,73.7125,24.8,87,0.0,941.6,6.75,29.5,65,24.7,15.0,10.3,117.0,40.0,12.8,3,5,7,1,2026-07-20T05:30:25.189430+05:30
Kota,Rajasthan,25.2138,75.8648,26.7,90,0.2,973.9,1.05,21.6,76,28.2,19.6,8.5,166.0,64.0,6.6,10,5,3,1,2026-07-20T05:30:25.189436+05:30
Bikaner,Rajasthan,28.0229,73.3119,31.3,52,0.0,975.4,7.85,39.6,112,60.8,24.5,2.2,110.0,56.0,1.5,0,5,7,1,2026-07-20T05:30:25.189443+05:30
Ajmer,Rajasthan,26.4499,74.6399,28.1,63,0.0,949.6,7.85,37.4,68,24.2,16.0,9.1,146.0,48.0,5.0,7,5,7,1,2026-07-20T05:30:25.189449+05:30
Gwalior,Madhya Pradesh,26.2183,78.1828,26.8,94,0.2,977.6,1.25,24.1,80,21.8,15.5,8.8,176.0,60.0,8.8,10,5,3,1,2026-07-20T05:30:25.189455+05:30
Indore,Madhya Pradesh,22.7196,75.8577,24.4,89,0.0,944.1,3.95,37.1,61,14.7,11.7,10.3,168.0,34.0,9.2,3,5,3,1,2026-07-20T05:30:25.189461+05:30
Bhopal,Madhya Pradesh,23.2599,77.4126,24.3,95,0.3,949.6,5.5,29.2,70,22.8,17.9,10.3,178.0,46.0,3.9,6,5,3,1,2026-07-20T05:30:25.189467+05:30
Jabalpur,Madhya Pradesh,23.1815,79.9864,24.2,97,0.3,957.3,4.8,25.9,85,29.3,21.5,6.5,222.0,70.0,2.9,6,5,3,1,2026-07-20T05:30:25.189473+05:30
Ujjain,Madhya Pradesh,23.1765,75.7885,24.5,90,0.0,949.6,6.3,34.2,62,12.9,10.2,9.6,194.0,34.0,9.9,3,5,7,1,2026-07-20T05:30:25.189520+05:30
Visakhapatnam,Andhra Pradesh,17.6868,83.2185,25.7,96,0.0,999.2,8.15,38.2,79,24.6,19.9,19.6,282.0,38.0,30.0,7,5,7,1,2026-07-20T05:30:25.189529+05:30
Vijayawada,Andhra Pradesh,16.5062,80.648,27.6,73,0.0,999.8,6.35,41.4,60,16.3,12.1,7.7,158.0,40.0,3.2,7,5,7,1,2026-07-20T05:30:25.189536+05:30
Guntur,Andhra Pradesh,16.3067,80.4365,27.3,75,0.0,1001.2,5.6,51.8,56,12.4,9.1,7.3,168.0,40.0,4.4,7,5,0,1,2026-07-20T05:30:25.189543+05:30
Nellore,Andhra Pradesh,14.4426,79.9865,28.2,71,0.0,1004.0,8.1,34.9,63,20.0,11.8,6.9,161.0,38.0,4.9,7,5,4,1,2026-07-20T05:30:25.189550+05:30
Kurnool,Andhra Pradesh,15.8281,78.0373,24.8,86,0.0,975.6,8.5,70.2,42,3.5,2.8,7.5,124.0,29.0,1.9,3,5,7,1,2026-07-20T05:30:25.189557+05:30
Kakinada,Andhra Pradesh,16.9891,82.2475,27.3,80,0.0,1004.0,6.85,46.8,65,23.9,17.6,7.4,173.0,60.0,5.6,7,5,4,1,2026-07-20T05:30:25.189563+05:30
Tirupati,Andhra Pradesh,13.6288,79.4192,27.1,68,0.0,989.7,3.9,34.9,62,30.0,18.0,18.6,114.0,15.0,2.6,7,5,3,1,2026-07-20T05:30:25.189570+05:30
Warangal,Telangana,17.9689,79.5941,25.0,86,0.0,975.4,7.3,40.7,57,8.1,6.5,6.9,145.0,35.0,2.3,7,5,7,1,2026-07-20T05:30:25.189576+05:30
Nizamabad,Telangana,18.6725,78.0941,23.5,93,0.0,961.7,5.35,45.4,51,5.3,4.2,8.0,142.0,30.0,5.5,3,5,3,1,2026-07-20T05:30:25.189581+05:30
Mysore,Karnataka,12.2958,76.6396,20.6,93,0.0,928.3,8.0,49.3,35,2.4,1.9,4.1,109.0,32.0,1.8,3,5,7,1,2026-07-20T05:30:25.189587+05:30
Mangalore,Karnataka,12.9141,74.856,23.4,98,0.1,1008.2,8.5,39.6,55,18.6,9.3,4.0,118.0,35.0,1.8,6,0,4,1,2026-07-20T05:30:25.189593+05:30
Hubli-Dharwad,Karnataka,15.3647,75.124,21.9,95,0.0,939.9,7.35,57.6,24,1.5,1.0,2.3,96.0,37.0,1.0,3,5,7,1,2026-07-20T05:30:25.189600+05:30
Belgaum,Karnataka,15.8497,74.4977,21.0,98,0.1,924.2,8.75,54.0,23,2.3,1.7,3.2,116.0,36.0,1.6,6,5,7,1,2026-07-20T05:30:28.600392+05:30
Coimbatore,Tamil Nadu,11.0168,76.9558,22.5,94,0.0,961.8,8.7,51.5,40,6.4,4.6,5.5,136.0,28.0,2.7,3,5,7,1,2026-07-20T05:30:28.600436+05:30
Madurai,Tamil Nadu,9.9252,78.1198,27.2,68,0.0,992.7,8.15,37.4,66,22.5,19.6,27.4,143.0,3.0,5.5,7,5,7,1,2026-07-20T05:30:28.600450+05:30
Trichy,Tamil Nadu,10.7905,78.7047,27.0,73,0.0,999.3,6.05,51.5,53,9.0,5.9,4.8,109.0,33.0,2.6,7,5,7,1,2026-07-20T05:30:28.600460+05:30
Salem,Tamil Nadu,11.6643,78.146,24.1,95,0.0,977.5,8.1,31.7,58,17.5,13.6,17.3,310.0,20.0,7.8,3,5,7,1,2026-07-20T05:30:28.600469+05:30
Tirunelveli,Tamil Nadu,8.7139,77.7567,27.7,69,0.0,1003.5,7.55,44.3,34,6.9,5.0,5.4,122.0,30.0,2.1,7,5,4,1,2026-07-20T05:30:28.600506+05:30
Vellore,Tamil Nadu,12.9165,79.1325,27.6,64,0.0,983.2,8.8,43.9,74,23.4,17.2,17.4,126.0,21.0,4.5,7,5,7,1,2026-07-20T05:30:28.600518+05:30
Erode,Tamil Nadu,11.341,77.7172,24.6,84,0.0,989.3,7.85,33.8,53,11.6,9.3,11.7,133.0,26.0,3.6,3,5,7,1,2026-07-20T05:30:28.600527+05:30
Kochi,Kerala,9.9312,76.2673,24.1,96,0.1,1011.0,8.0,35.3,53,12.7,7.6,6.4,128.0,29.0,2.8,6,0,4,1,2026-07-20T05:30:28.600536+05:30
Thiruvananthapuram,Kerala,8.5241,76.9366,23.4,99,0.0,1009.9,7.6,45.0,47,13.0,6.6,2.8,129.0,44.0,1.7,3,0,4,1,2026-07-20T05:30:28.600545+05:30
Kozhikode,Kerala,11.2588,75.7804,23.5,99,0.0,1009.9,8.05,32.4,35,13.7,5.5,1.1,134.0,49.0,0.9,3,0,4,1,2026-07-20T05:30:28.600554+05:30
Thrissur,Kerala,10.5276,76.2144,23.7,99,0.1,1009.1,8.55,37.4,52,12.0,7.3,4.5,135.0,33.0,1.8,6,0,4,1,2026-07-20T05:30:28.600563+05:30
Kannur,Kerala,11.8745,75.3704,23.4,96,0.2,1008.9,8.55,28.8,44,11.2,4.5,2.6,124.0,44.0,1.2,6,0,4,1,2026-07-20T05:30:28.600570+05:30
Patna,Bihar,25.5941,85.1376,25.9,98,0.2,996.7,8.45,23.4,80,34.2,33.9,11.4,396.0,81.0,13.0,10,5,7,1,2026-07-20T05:30:28.600576+05:30
Gaya,Bihar,24.7914,85.0002,25.9,97,0.1,989.5,7.5,21.6,74,35.5,34.8,14.7,439.0,57.0,9.4,10,5,7,1,2026-07-20T05:30:28.600583+05:30
Muzaffarpur,Bihar,26.1209,85.3647,25.7,97,0.1,996.5,7.95,27.7,70,17.8,17.7,9.4,400.0,85.0,7.7,10,5,7,1,2026-07-20T05:30:28.600589+05:30
Bhagalpur,Bihar,25.2425,87.0117,26.5,96,0.1,997.7,2.15,33.8,80,25.5,24.0,11.9,272.0,62.0,10.6,10,5,3,1,2026-07-20T05:30:28.600595+05:30
Ranchi,Jharkhand,23.3441,85.3096,22.9,98,0.0,933.3,6.5,26.3,67,20.7,17.9,7.9,283.0,77.0,6.5,3,5,7,1,2026-07-20T05:30:28.600602+05:30
Jamshedpur,Jharkhand,22.8046,86.2029,25.6,98,0.1,986.5,7.1,24.1,85,39.5,36.2,20.2,489.0,50.0,20.6,10,5,7,1,2026-07-20T05:30:28.600608+05:30
Dhanbad,Jharkhand,23.7957,86.4304,25.1,99,0.0,975.4,3.65,27.4,136,65.7,61.9,41.8,629.0,32.0,117.5,7,5,3,1,2026-07-20T05:30:28.600614+05:30
Bokaro,Jharkhand,23.6693,86.1511,25.5,96,0.0,979.4,4.8,23.8,132,75.7,72.9,42.5,3886.0,30.0,116.2,7,5,3,1,2026-07-20T05:30:28.600621+05:30
Bhubaneswar,Odisha,20.2961,85.8245,26.4,99,0.0,998.0,8.55,27.7,86,42.8,37.6,13.6,280.0,68.0,6.9,7,5,7,1,2026-07-20T05:30:28.600627+05:30
Cuttack,Odisha,20.4625,85.8828,27.0,97,0.0,999.8,8.7,22.0,86,42.8,37.6,13.6,289.0,68.0,6.9,7,5,7,1,2026-07-20T05:30:28.600632+05:30
Rourkela,Odisha,22.2604,84.8536,25.3,98,0.0,980.7,8.2,28.8,76,35.3,26.7,8.7,251.0,96.0,6.1,7,5,7,1,2026-07-20T05:30:28.600638+05:30
Raipur,Chhattisgarh,21.2514,81.6296,24.9,96,0.3,970.6,7.35,31.7,92,28.8,25.6,23.4,370.0,46.0,35.8,6,5,7,1,2026-07-20T05:30:28.600644+05:30
Bhilai,Chhattisgarh,21.1938,81.3509,24.6,94,0.1,971.1,7.35,32.4,86,24.4,22.6,20.6,699.0,44.0,30.8,6,5,7,1,2026-07-20T05:30:28.600650+05:30
Guwahati,Assam,26.1158,91.7086,24.6,97,0.0,999.5,3.05,22.0,54,9.1,8.5,8.3,179.0,40.0,1.6,3,5,3,1,2026-07-20T05:30:28.600657+05:30
Agartala,Tripura,23.8315,91.2868,24.9,98,0.1,1003.9,7.6,35.6,49,9.5,8.2,9.3,156.0,31.0,2.5,6,5,4,1,2026-07-20T05:30:28.600663+05:30
Shillong,Meghalaya,25.5788,91.8933,19.2,98,0.1,855.8,2.25,19.1,20,0.8,0.8,4.2,165.0,40.0,1.3,6,10,3,1,2026-07-20T05:30:28.600669+05:30
Imphal,Manipur,24.817,93.9368,21.6,98,0.1,921.7,1.35,26.3,43,7.9,7.7,7.0,261.0,32.0,1.1,6,5,3,1,2026-07-20T05:30:28.600675+05:30
Aizawl,Mizoram,23.7271,92.7176,19.0,97,0.1,890.3,0.95,20.2,47,9.1,6.3,2.7,124.0,35.0,0.4,6,10,3,1,2026-07-20T05:30:28.600681+05:30
Kohima,Nagaland,25.6701,94.1077,19.7,95,0.4,854.2,5.45,21.2,17,2.8,2.7,4.8,170.0,31.0,0.4,6,10,3,1,2026-07-20T05:30:28.600686+05:30
Gangtok,Sikkim,27.3314,88.6138,18.5,97,0.2,836.6,3.65,28.8,39,3.4,3.3,3.5,210.0,83.0,0.6,6,10,3,1,2026-07-20T05:30:28.600692+05:30
Siliguri,West Bengal,26.7271,88.3953,24.5,99,0.1,990.5,2.4,24.1,51,5.9,5.7,4.9,241.0,83.0,1.0,6,5,3,1,2026-07-20T05:30:32.147400+05:30
Durgapur,West Bengal,23.5204,87.3119,25.7,97,0.1,990.8,8.55,30.2,105,42.4,36.7,24.1,330.0,56.0,32.1,10,5,7,1,2026-07-20T05:30:32.147426+05:30
Asansol,West Bengal,23.6739,86.9524,25.2,98,0.1,989.2,7.5,24.8,101,37.5,33.3,24.8,450.0,55.0,34.3,10,5,7,1,2026-07-20T05:30:32.147437+05:30
Pondicherry,Puducherry,11.9139,79.8145,26.9,78,0.0,1007.3,7.8,38.5,69,17.1,11.3,11.0,213.0,46.0,9.6,7,5,4,1,2026-07-20T05:30:32.147445+05:30
Port Blair,Andaman and Nicobar Islands,11.6234,92.7265,26.7,84,0.0,1007.2,6.3,44.3,53,11.5,6.6,0.1,85.0,45.0,0.4,7,5,4,1,2026-07-20T05:30:32.147453+05:30
Haridwar,Uttarakhand,29.9457,78.1642,25.0,98,0.2,969.5,1.2,25.2,153,30.9,14.1,4.9,246.0,94.0,10.7,10,5,3,1,2026-07-20T05:30:32.147460+05:30
Rishikesh,Uttarakhand,30.0869,78.2676,24.7,99,0.0,962.2,1.75,17.3,119,11.2,6.1,4.7,215.0,100.0,10.8,3,5,3,1,2026-07-20T05:30:32.147467+05:30
Nainital,Uttarakhand,29.3919,79.4542,16.9,99,1.3,802.8,1.5,34.6,58,8.0,6.6,4.3,228.0,102.0,1.5,6,10,3,1,2026-07-20T05:30:32.147514+05:30
Mussoorie,Uttarakhand,30.4599,78.0664,17.2,100,0.0,800.3,0.65,28.4,92,41.7,22.1,6.9,235.0,103.0,9.3,3,10,3,1,2026-07-20T05:30:32.147524+05:30
Dharamshala,Himachal Pradesh,32.219,76.3234,21.1,100,1.7,864.8,3.2,27.7,44,17.6,8.1,6.7,217.0,62.0,1.0,6,5,3,1,2026-07-20T05:30:32.147531+05:30
Dalhousie,Himachal Pradesh,32.5387,75.971,18.2,100,0.5,801.4,6.55,25.6,92,60.8,24.6,5.4,212.0,98.0,1.9,6,10,7,1,2026-07-20T05:30:32.147539+05:30
Patiala,Punjab,30.3398,76.3869,27.5,94,0.0,972.4,6.6,35.6,247,258.9,80.3,18.0,334.0,62.0,14.5,7,5,7,1,2026-07-20T05:30:32.147545+05:30
Bhatinda,Punjab,30.211,74.9455,31.2,71,0.0,976.5,4.7,34.2,226,1013.3,279.4,22.7,223.0,31.0,7.5,3,5,3,1,2026-07-20T05:30:32.147552+05:30
Rohtak,Haryana,28.8955,76.6066,29.2,81,0.0,975.6,4.5,23.4,562,373.5,101.0,19.0,413.0,51.0,9.1,7,5,3,1,2026-07-20T05:30:32.147558+05:30
Panipat,Haryana,29.3909,76.9635,27.0,93,0.0,974.8,4.3,32.8,611,320.4,99.0,25.8,446.0,38.0,13.0,7,5,3,1,2026-07-20T05:30:32.147565+05:30
Mathura,Uttar Pradesh,27.4924,77.6737,28.6,80,0.0,980.9,2.0,25.6,172,82.2,27.8,12.4,187.0,56.0,3.8,7,5,3,1,2026-07-20T05:30:32.147571+05:30
Vrindavan,Uttar Pradesh,27.5823,77.7027,28.4,82,0.0,981.3,1.45,28.8,172,82.2,27.8,12.4,189.0,56.0,3.8,7,5,3,1,2026-07-20T05:30:32.147578+05:30
Ayodhya,Uttar Pradesh,26.7922,82.1998,25.2,99,0.0,991.1,7.6,23.4,86,21.5,21.4,10.8,358.0,81.0,6.3,7,5,7,1,2026-07-20T05:30:32.147584+05:30
Ratlam,Madhya Pradesh,23.3315,75.0367,24.7,90,0.0,950.4,5.55,35.3,62,11.7,8.6,9.2,153.0,32.0,10.0,3,5,3,1,2026-07-20T05:30:32.147590+05:30
Sagar,Madhya Pradesh,23.8388,78.7378,23.7,95,0.1,945.6,6.7,29.5,79,22.3,17.7,6.6,184.0,61.0,2.4,6,5,7,1,2026-07-20T05:30:32.147597+05:30
Satna,Madhya Pradesh,24.6005,80.8322,25.7,98,0.0,966.6,6.95,29.9,97,48.1,29.5,13.0,216.0,46.0,5.5,7,5,7,1,2026-07-20T05:30:32.147603+05:30
Akola,Maharashtra,20.7002,77.0082,25.9,83,0.0,972.0,7.95,42.5,50,7.0,5.5,9.7,122.0,28.0,7.6,7,5,7,1,2026-07-20T05:30:32.147610+05:30
Amravati,Maharashtra,20.9374,77.7796,24.4,96,0.1,963.9,4.7,41.8,51,7.2,5.7,9.5,128.0,31.0,8.0,6,5,3,1,2026-07-20T05:30:32.147617+05:30
Latur,Maharashtra,18.4088,76.5604,22.6,94,0.1,937.0,1.6,50.8,33,4.5,3.4,5.7,128.0,31.0,2.7,6,5,3,1,2026-07-20T05:30:32.147623+05:30
Nanded,Maharashtra,19.1383,77.3091,23.9,94,0.0,965.7,4.95,41.8,51,5.4,3.6,5.7,132.0,33.0,2.8,3,5,3,1,2026-07-20T05:30:32.147630+05:30
Gulbarga,Karnataka,17.3297,76.8343,23.2,92,0.0,956.7,7.15,54.4,33,3.4,2.9,6.7,116.0,29.0,2.9,3,5,7,1,2026-07-20T05:30:32.147636+05:30
Bidar,Karnataka,17.9104,77.5199,22.3,96,0.0,932.7,7.6,48.6,47,4.2,3.4,6.2,126.0,30.0,2.0,3,5,7,1,2026-07-20T05:30:32.147642+05:30
Hospet,Karnataka,15.2689,76.3909,23.3,87,0.0,955.0,7.9,54.7,34,1.7,1.3,3.4,102.0,36.0,1.4,3,5,7,1,2026-07-20T05:30:32.147649+05:30
Tirupur,Tamil Nadu,11.1085,77.3411,23.0,93,0.0,975.5,8.4,51.8,55,14.3,11.4,14.3,120.0,21.0,4.5,3,5,7,1,2026-07-20T05:30:32.147655+05:30
Alappuzha,Kerala,9.4981,76.3388,24.7,96,0.1,1010.7,8.55,37.8,51,14.4,7.6,3.8,87.0,40.0,2.1,6,0,4,1,2026-07-20T05:30:32.147661+05:30
Munnar,Kerala,10.0889,77.0595,16.0,99,0.0,856.5,8.6,41.0,26,3.2,2.1,2.8,92.0,31.0,1.3,3,10,7,0,2026-07-20T05:30:32.147668+05:30
Silchar,Assam,24.8333,92.7789,25.1,94,0.6,1003.5,0.85,21.2,62,16.7,13.4,6.9,234.0,46.0,3.2,10,5,0,1,2026-07-20T05:30:32.147674+05:30
Dibrugarh,Assam,27.4728,94.912,25.1,99,0.0,994.1,8.45,27.0,72,42.0,40.0,29.8,212.0,24.0,2.5,7,5,7,1,2026-07-20T05:30:32.147680+05:30
