city,state,latitude,longitude,temp,humidity,rain,pressure,uv_index,wind_gusts,aqi,pm10,pm2_5,mosquito_risk,arthritis_risk,migraine_risk,frizz_risk,updated_at
Delhi,Delhi,28.6139,77.209,26.0,46,0.0,990.8,7.15,42.1,183,480.6,73.8,4,5,7,0,2026-04-10T10:58:01.839940+05:30
Mumbai,Maharashtra,19.076,72.8777,28.2,67,0.0,1013.3,7.95,25.9,96,145.3,42.6,7,0,4,1,2026-04-10T10:58:01.839980+05:30
Bangalore,Karnataka,12.9716,77.5946,31.0,43,0.0,916.6,9.65,38.2,78,43.0,23.8,0,5,7,1,2026-04-10T10:58:01.839996+05:30
Hyderabad,Telangana,17.385,78.4867,35.0,29,0.0,958.2,9.15,19.1,95,50.1,31.2,0,5,7,0,2026-04-10T10:58:01.840006+05:30
Chennai,Tamil Nadu,13.0827,80.2707,34.5,55,0.0,1011.2,9.4,35.3,67,25.6,19.3,0,0,4,1,2026-04-10T10:58:01.840015+05:30
Kolkata,West Bengal,22.5726,88.3639,30.4,64,0.0,1011.2,8.7,25.6,154,97.6,64.0,3,0,4,1,2026-04-10T10:58:01.840024+05:30
Pune,Maharashtra,18.5204,73.8567,32.2,38,0.0,953.7,8.55,31.7,111,50.5,20.8,0,5,7,1,2026-04-10T10:58:01.840036+05:30
Ahmedabad,Gujarat,23.0225,72.5714,33.4,23,0.0,1009.1,8.0,36.4,90,29.3,13.6,0,0,4,0,2026-04-10T10:58:01.840044+05:30
Jaipur,Rajasthan,26.9124,75.7873,27.3,33,0.0,968.2,7.75,28.1,146,179.3,33.4,4,5,7,0,2026-04-10T10:58:01.840052+05:30
Lucknow,Uttar Pradesh,26.8467,80.9462,29.3,34,0.0,1000.1,7.65,43.2,90,139.2,30.7,4,5,4,0,2026-04-10T10:58:01.840060+05:30
Kanpur,Uttar Pradesh,26.4499,80.3319,27.9,46,0.0,999.1,7.65,38.5,138,348.3,49.6,4,5,7,0,2026-04-10T10:58:01.840067+05:30
Chandigarh,Chandigarh,30.7333,76.7794,25.1,44,0.0,976.2,7.1,44.3,66,15.5,13.3,4,5,7,0,2026-04-10T10:58:01.840075+05:30
Srinagar,Jammu and Kashmir,34.0837,74.7973,12.8,65,0.0,847.8,8.1,12.6,54,19.3,16.7,3,5,7,0,2026-04-10T10:58:01.840082+05:30
Jammu,Jammu and Kashmir,32.7266,74.857,24.9,46,0.0,981.1,7.75,37.1,71,14.1,11.4,0,5,7,0,2026-04-10T10:58:01.840089+05:30
Amritsar,Punjab,31.634,74.8723,24.7,49,0.0,989.7,7.7,32.8,87,23.2,19.4,0,5,7,0,2026-04-10T10:58:01.840095+05:30
Ludhiana,Punjab,30.901,75.8573,25.5,42,0.0,987.2,7.3,34.9,76,25.5,18.2,4,5,7,0,2026-04-10T10:58:01.840101+05:30
Jalandhar,Punjab,31.326,75.5762,25.0,45,0.0,988.5,7.45,33.1,81,44.8,21.0,4,5,7,0,2026-04-10T10:58:01.840109+05:30
Dehradun,Uttarakhand,30.6284,78.0322,16.6,45,0.0,833.4,7.5,29.2,34,4.0,2.2,0,5,7,0,2026-04-10T10:58:01.840116+05:30
Shimla,Himachal Pradesh,31.1048,77.1734,15.0,43,0.0,788.7,7.6,50.4,59,7.3,4.5,0,5,7,0,2026-04-10T10:58:01.840122+05:30
Manali,Himachal Pradesh,32.2396,77.1887,17.5,34,0.0,822.8,9.85,28.4,86,7.5,6.2,0,5,7,0,2026-04-10T10:58:01.840129+05:30
Gurgaon,Haryana,28.4595,77.0266,25.8,49,0.0,989.5,7.25,40.0,817,1534.8,162.5,4,5,7,0,2026-04-10T10:58:01.840137+05:30
Noida,Uttar Pradesh,28.5355,77.391,26.2,45,0.0,992.3,7.15,41.4,817,1534.8,162.5,4,5,7,0,2026-04-10T10:58:01.840144+05:30
Ghaziabad,Uttar Pradesh,28.6692,77.4538,26.1,47,0.0,990.2,7.15,42.1,131,334.3,58.4,4,5,7,0,2026-04-10T10:58:01.840150+05:30
Faridabad,Haryana,28.4089,77.3178,25.8,47,0.0,991.8,7.2,40.7,817,1534.8,162.5,4,5,7,0,2026-04-10T10:58:01.840157+05:30
Meerut,Uttar Pradesh,28.9845,77.7064,26.4,42,0.0,988.4,7.05,44.3,131,334.3,58.4,4,5,7,0,2026-04-10T10:58:01.840163+05:30
Agra,Uttar Pradesh,27.1767,78.0081,28.2,42,0.0,996.1,7.5,37.1,468,1080.3,119.7,4,5,7,0,2026-04-10T10:58:01.840169+05:30
Varanasi,Uttar Pradesh,25.3176,82.9739,31.2,30,0.0,1003.9,8.2,41.8,89,120.1,30.0,0,5,4,0,2026-04-10T10:58:01.840178+05:30
Prayagraj,Uttar Pradesh,25.4358,81.8463,30.5,33,0.0,1003.0,8.1,36.0,81,117.3,30.2,0,5,4,0,2026-04-10T10:58:01.840184+05:30
Gorakhpur,Uttar Pradesh,26.7606,83.3732,30.2,31,0.0,1002.3,8.05,47.9,68,61.9,18.6,0,5,4,0,2026-04-10T10:58:01.840191+05:30
Bareilly,Uttar Pradesh,28.367,79.4304,26.7,39,0.0,993.4,7.4,39.2,70,20.0,19.7,4,5,7,0,2026-04-10T10:58:01.840198+05:30
Aligarh,Uttar Pradesh,27.8974,78.088,27.3,41,0.0,993.4,7.3,42.5,266,841.9,102.2,4,5,7,0,2026-04-10T10:58:01.840204+05:30
Moradabad,Uttar Pradesh,28.8386,78.7733,26.0,43,0.0,990.3,7.2,40.7,78,47.5,26.4,4,5,7,0,2026-04-10T10:58:01.840210+05:30
Saharanpur,Uttar Pradesh,29.9637,77.546,26.3,38,0.0,982.1,6.85,56.2,81,61.0,22.5,4,5,7,0,2026-04-10T10:58:01.840217+05:30
Jhansi,Uttar Pradesh,25.4484,78.5685,30.0,39,0.0,985.9,8.0,33.1,94,220.3,42.5,4,5,7,0,2026-04-10T10:58:05.115014+05:30
Surat,Gujarat,21.1702,72.8311,30.7,57,0.0,1012.6,7.75,22.0,131,107.3,66.8,0,0,4,1,2026-04-10T10:58:05.115045+05:30
Vadodara,Gujarat,22.3072,73.1812,33.5,33,0.0,1010.6,8.0,29.5,82,29.4,16.5,0,0,4,0,2026-04-10T10:58:05.115055+05:30
Rajkot,Gujarat,22.3039,70.8022,32.2,43,0.0,1000.4,7.75,25.9,72,42.7,20.4,0,5,4,1,2026-04-10T10:58:05.115063+05:30
Thane,Maharashtra,19.2183,72.9781,32.3,34,0.0,1012.9,7.95,37.1,96,145.3,42.6,0,0,4,0,2026-04-10T10:58:05.115070+05:30
Nagpur,Maharashtra,21.1458,79.0882,31.7,40,0.0,979.6,8.7,24.1,74,66.1,24.5,0,5,7,1,2026-04-10T10:58:05.115077+05:30
Nashik,Maharashtra,19.9975,73.7898,30.5,37,0.0,951.1,8.2,28.1,85,50.5,22.0,0,5,7,0,2026-04-10T10:58:05.115084+05:30
Aurangabad,Maharashtra,19.8762,75.3433,33.1,25,0.0,949.9,8.85,28.4,68,36.8,18.7,0,5,7,0,2026-04-10T10:58:05.115091+05:30
Solapur,Maharashtra,17.6599,75.9064,34.8,29,0.0,962.3,8.95,23.4,85,37.4,18.3,0,5,7,0,2026-04-10T10:58:05.115099+05:30
Kolhapur,Maharashtra,16.705,74.2433,30.9,45,0.0,953.0,9.0,35.3,89,72.4,32.8,0,5,7,1,2026-04-10T10:58:05.115106+05:30
Goa,Goa,15.2993,74.124,31.8,57,0.0,1001.9,9.0,36.0,66,88.7,26.7,0,5,4,1,2026-04-10T10:58:05.115112+05:30
Jodhpur,Rajasthan,26.2389,73.0243,28.7,38,0.0,991.6,8.0,22.7,71,127.1,31.1,4,5,7,0,2026-04-10T10:58:05.115119+05:30
Udaipur,Rajasthan,24.5854,73.7125,28.5,26,0.0,954.7,8.55,29.9,50,37.7,10.9,4,5,7,0,2026-04-10T10:58:05.115126+05:30
Kota,Rajasthan,25.2138,75.8648,29.3,39,0.0,987.6,8.0,22.0,80,114.8,31.1,4,5,7,0,2026-04-10T10:58:05.115133+05:30
Bikaner,Rajasthan,28.0229,73.3119,28.3,38,0.0,990.7,7.85,19.8,62,34.1,18.9,4,5,7,0,2026-04-10T10:58:05.115140+05:30
Ajmer,Rajasthan,26.4499,74.6399,28.4,32,0.0,962.8,7.95,19.4,76,112.7,26.3,4,5,7,0,2026-04-10T10:58:05.115147+05:30
Gwalior,Madhya Pradesh,26.2183,78.1828,28.0,47,0.0,991.8,7.75,35.3,121,219.3,52.3,4,5,7,0,2026-04-10T10:58:05.115156+05:30
Indore,Madhya Pradesh,22.7196,75.8577,30.2,32,0.0,955.2,8.45,31.0,78,76.1,25.3,0,5,7,0,2026-04-10T10:58:05.115163+05:30
Bhopal,Madhya Pradesh,23.2599,77.4126,31.2,27,0.0,961.2,8.4,30.2,76,98.7,25.4,0,5,7,0,2026-04-10T10:58:05.115170+05:30
Jabalpur,Madhya Pradesh,23.1815,79.9864,30.4,32,0.0,968.7,8.55,24.1,79,118.0,29.0,0,5,7,0,2026-04-10T10:58:05.115177+05:30
Ujjain,Madhya Pradesh,23.1765,75.7885,30.2,33,0.0,961.2,8.35,29.5,74,75.0,26.3,0,5,7,0,2026-04-10T10:58:05.115184+05:30
Visakhapatnam,Andhra Pradesh,17.6868,83.2185,33.8,60,0.0,1007.7,9.1,36.7,96,49.0,41.8,0,5,4,1,2026-04-10T10:58:05.115190+05:30
Vijayawada,Andhra Pradesh,16.5062,80.648,34.5,56,0.0,1006.7,9.2,37.4,87,31.9,26.8,0,5,4,1,2026-04-10T10:58:05.115197+05:30
Guntur,Andhra Pradesh,16.3067,80.4365,35.1,54,0.0,1007.6,9.2,33.8,89,32.1,27.8,0,5,7,1,2026-04-10T10:58:05.115205+05:30
Nellore,Andhra Pradesh,14.4426,79.9865,35.0,57,0.0,1009.3,9.3,34.6,75,28.6,26.3,0,0,4,1,2026-04-10T10:58:05.115213+05:30
Kurnool,Andhra Pradesh,15.8281,78.0373,35.9,47,0.0,980.7,9.2,26.6,78,40.5,35.9,0,5,10,1,2026-04-10T10:58:05.115220+05:30
Kakinada,Andhra Pradesh,16.9891,82.2475,34.8,55,0.0,1011.4,9.15,39.2,77,31.9,23.9,0,0,4,1,2026-04-10T10:58:05.115227+05:30
Tirupati,Andhra Pradesh,13.6288,79.4192,32.9,59,0.0,995.7,8.75,30.2,91,30.2,28.1,0,5,7,1,2026-04-10T10:58:05.115234+05:30
Warangal,Telangana,17.9689,79.5941,34.6,52,0.0,983.0,9.05,23.4,122,52.2,37.5,0,5,7,1,2026-04-10T10:58:05.115241+05:30
Nizamabad,Telangana,18.6725,78.0941,33.4,37,0.0,970.0,8.95,30.2,90,40.0,23.5,0,5,7,1,2026-04-10T10:58:05.115247+05:30
Mysore,Karnataka,12.2958,76.6396,31.4,45,0.0,933.2,9.55,33.5,63,43.9,20.7,0,5,7,1,2026-04-10T10:58:05.115254+05:30
Mangalore,Karnataka,12.9141,74.856,28.8,82,0.0,1010.4,9.1,30.2,68,61.7,20.2,7,0,4,1,2026-04-10T10:58:05.115261+05:30
Hubli-Dharwad,Karnataka,15.3647,75.124,33.5,32,0.0,945.3,9.2,36.0,65,59.5,26.7,0,5,7,0,2026-04-10T10:58:05.115268+05:30
Belgaum,Karnataka,15.8497,74.4977,31.1,40,0.0,930.7,9.25,37.1,73,69.4,27.4,0,5,7,0,2026-04-10T10:58:08.385805+05:30
Coimbatore,Tamil Nadu,11.0168,76.9558,33.5,47,0.0,966.1,9.5,42.5,60,21.9,16.7,0,5,7,1,2026-04-10T10:58:08.385840+05:30
Madurai,Tamil Nadu,9.9252,78.1198,33.1,57,0.0,997.2,9.4,44.6,95,32.4,29.0,0,5,7,1,2026-04-10T10:58:08.385853+05:30
Trichy,Tamil Nadu,10.7905,78.7047,33.2,55,0.0,1003.9,9.4,28.8,68,21.5,17.8,0,5,4,1,2026-04-10T10:58:08.385863+05:30
Salem,Tamil Nadu,11.6643,78.146,32.4,56,0.0,981.6,9.45,24.1,76,29.4,24.7,0,5,7,1,2026-04-10T10:58:08.385872+05:30
Tirunelveli,Tamil Nadu,8.7139,77.7567,34.1,51,0.0,1007.2,9.35,41.8,66,26.5,23.4,0,5,4,1,2026-04-10T10:58:08.385881+05:30
Vellore,Tamil Nadu,12.9165,79.1325,33.4,51,0.0,988.7,9.45,33.8,95,29.2,26.7,0,5,7,1,2026-04-10T10:58:08.385889+05:30
Erode,Tamil Nadu,11.341,77.7172,33.0,57,0.0,993.1,9.45,31.3,64,29.0,19.2,0,5,7,1,2026-04-10T10:58:08.385897+05:30
Kochi,Kerala,9.9312,76.2673,30.0,77,0.0,1011.9,9.25,28.8,71,37.0,20.0,7,0,4,1,2026-04-10T10:58:08.385906+05:30
Thiruvananthapuram,Kerala,8.5241,76.9366,29.0,79,0.0,1011.4,9.2,27.7,62,37.1,22.8,7,0,4,1,2026-04-10T10:58:08.385916+05:30
Kozhikode,Kerala,11.2588,75.7804,31.0,68,0.0,1011.2,9.15,28.8,69,55.2,23.2,3,0,4,1,2026-04-10T10:58:08.385924+05:30
Thrissur,Kerala,10.5276,76.2144,34.5,57,0.0,1010.1,9.2,34.9,78,35.9,18.6,0,0,4,1,2026-04-10T10:58:08.385933+05:30
Kannur,Kerala,11.8745,75.3704,32.3,57,0.0,1010.6,9.15,36.0,69,61.9,21.9,0,0,4,1,2026-04-10T10:58:08.385941+05:30
Patna,Bihar,25.5941,85.1376,30.3,32,0.0,1005.9,8.35,42.5,81,47.5,17.3,0,5,4,0,2026-04-10T10:58:08.385949+05:30
Gaya,Bihar,24.7914,85.0002,30.9,27,0.0,999.6,8.45,40.3,86,84.1,21.7,0,5,7,0,2026-04-10T10:58:08.385957+05:30
Muzaffarpur,Bihar,26.1209,85.3647,30.3,31,0.0,1005.4,8.35,40.0,83,32.9,16.6,0,5,4,0,2026-04-10T10:58:08.385965+05:30
Bhagalpur,Bihar,25.2425,87.0117,29.3,36,0.0,1006.4,8.4,34.9,131,33.9,16.8,4,5,4,0,2026-04-10T10:58:08.385973+05:30
Ranchi,Jharkhand,23.3441,85.3096,27.8,32,0.0,943.6,9.0,38.9,72,79.6,22.2,4,5,7,0,2026-04-10T10:58:08.385980+05:30
Jamshedpur,Jharkhand,22.8046,86.2029,30.8,40,0.0,996.7,8.85,19.1,150,65.9,29.2,0,5,7,0,2026-04-10T10:58:08.385988+05:30
Dhanbad,Jharkhand,23.7957,86.4304,30.3,28,0.0,985.6,8.75,36.4,153,56.1,23.3,0,5,7,0,2026-04-10T10:58:08.385997+05:30
Bokaro,Jharkhand,23.6693,86.1511,29.8,31,0.0,989.7,8.8,38.5,143,64.0,23.2,4,5,7,0,2026-04-10T10:58:08.386005+05:30
Bhubaneswar,Odisha,20.2961,85.8245,30.9,67,0.0,1007.8,9.0,25.9,127,74.7,43.2,3,5,4,1,2026-04-10T10:58:08.386013+05:30
Cuttack,Odisha,20.4625,85.8828,31.9,60,0.0,1009.7,9.0,24.5,127,74.7,43.2,0,0,4,1,2026-04-10T10:58:08.386020+05:30
Rourkela,Odisha,22.2604,84.8536,31.8,30,0.0,991.1,8.75,21.6,90,74.3,24.6,0,5,7,0,2026-04-10T10:58:08.386028+05:30
Raipur,Chhattisgarh,21.2514,81.6296,34.0,28,0.0,980.6,8.8,24.1,141,58.6,25.6,0,5,7,0,2026-04-10T10:58:08.386036+05:30
Bhilai,Chhattisgarh,21.1938,81.3509,34.1,29,0.0,981.0,8.8,22.3,126,65.0,28.5,0,5,7,0,2026-04-10T10:58:08.386044+05:30
Guwahati,Assam,26.1158,91.7086,25.0,73,0.0,1006.2,7.55,32.8,73,32.8,20.7,7,5,4,1,2026-04-10T10:58:08.386051+05:30
Agartala,Tripura,23.8315,91.2868,28.0,64,0.0,1011.2,8.55,26.6,155,55.4,41.4,7,0,4,1,2026-04-10T10:58:08.386059+05:30
Shillong,Meghalaya,25.5788,91.8933,17.0,43,0.0,858.6,6.45,47.9,72,35.5,21.6,0,5,7,0,2026-04-10T10:58:08.386068+05:30
Imphal,Manipur,24.817,93.9368,16.8,86,0.0,926.3,8.9,61.6,117,29.6,20.8,3,10,7,0,2026-04-10T10:58:08.386076+05:30
Aizawl,Mizoram,23.7271,92.7176,22.5,57,0.0,897.4,8.8,58.0,77,31.0,16.6,0,5,7,0,2026-04-10T10:58:08.386084+05:30
Kohima,Nagaland,25.6701,94.1077,15.4,86,0.0,856.7,8.75,64.4,80,34.6,22.8,3,10,7,0,2026-04-10T10:58:08.386091+05:30
Gangtok,Sikkim,27.3314,88.6138,15.8,73,0.0,838.9,8.05,15.5,84,26.3,17.0,3,5,7,0,2026-04-10T10:58:08.386098+05:30
Siliguri,West Bengal,26.7271,88.3953,20.4,83,0.0,998.5,6.05,29.9,88,43.9,30.3,3,5,7,1,2026-04-10T10:58:11.664000+05:30
Durgapur,West Bengal,23.5204,87.3119,30.4,37,0.0,1000.7,8.7,24.1,156,46.6,23.9,0,5,4,0,2026-04-10T10:58:11.664034+05:30
Asansol,West Bengal,23.6739,86.9524,30.4,34,0.0,999.3,8.75,31.3,148,48.9,21.5,0,5,7,0,2026-04-10T10:58:11.664046+05:30
Pondicherry,Puducherry,11.9139,79.8145,34.1,55,0.0,1012.4,9.1,33.8,67,23.2,18.2,0,0,4,1,2026-04-10T10:58:11.664055+05:30
Port Blair,Andaman and Nicobar Islands,11.6234,92.7265,29.3,76,0.0,1010.7,8.6,18.4,30,8.7,6.2,7,0,4,1,2026-04-10T10:58:11.664064+05:30
Haridwar,Uttarakhand,29.9457,78.1642,25.0,46,0.0,980.3,6.95,50.8,69,21.7,19.1,4,5,7,0,2026-04-10T10:58:11.664073+05:30
Rishikesh,Uttarakhand,30.0869,78.2676,25.1,44,0.0,972.7,7.0,40.3,54,11.6,9.9,4,5,7,0,2026-04-10T10:58:11.664082+05:30
Nainital,Uttarakhand,29.3919,79.4542,18.7,52,0.0,809.6,7.9,61.9,53,13.6,11.0,0,5,7,0,2026-04-10T10:58:11.664090+05:30
Mussoorie,Uttarakhand,30.4599,78.0664,16.9,51,0.0,806.1,7.4,41.4,60,11.8,10.9,0,5,7,0,2026-04-10T10:58:11.664098+05:30
Dharamshala,Himachal Pradesh,32.219,76.3234,18.6,52,0.0,874.2,7.6,27.0,116,7.2,3.7,0,5,7,0,2026-04-10T10:58:11.664107+05:30
Dalhousie,Himachal Pradesh,32.5387,75.971,16.9,43,0.0,808.5,7.85,19.8,60,9.8,8.0,0,5,7,0,2026-04-10T10:58:11.664116+05:30
Patiala,Punjab,30.3398,76.3869,25.8,40,0.0,986.1,7.0,40.3,336,953.7,91.0,4,5,7,0,2026-04-10T10:58:11.664124+05:30
Bhatinda,Punjab,30.211,74.9455,26.6,39,0.0,992.6,7.65,32.0,91,30.7,13.6,4,5,7,0,2026-04-10T10:58:11.664132+05:30
Rohtak,Haryana,28.8955,76.6066,27.0,39,0.0,989.8,7.15,41.8,420,780.4,91.7,4,5,7,0,2026-04-10T10:58:11.664140+05:30
Panipat,Haryana,29.3909,76.9635,26.6,39,0.0,988.0,6.95,44.6,908,1896.2,179.7,4,5,7,0,2026-04-10T10:58:11.664148+05:30
Mathura,Uttar Pradesh,27.4924,77.6737,27.8,40,0.0,995.2,7.45,35.6,463,983.5,107.1,4,5,7,0,2026-04-10T10:58:11.664156+05:30
Vrindavan,Uttar Pradesh,27.5823,77.7027,27.3,41,0.0,995.5,7.4,40.0,463,983.5,107.1,4,5,7,0,2026-04-10T10:58:11.664164+05:30
Ayodhya,Uttar Pradesh,26.7922,82.1998,30.9,26,0.0,1001.1,7.8,50.4,74,109.2,26.5,0,5,4,0,2026-04-10T10:58:11.664172+05:30
Ratlam,Madhya Pradesh,23.3315,75.0367,30.1,35,0.0,961.8,8.3,32.4,66,61.0,21.7,0,5,7,0,2026-04-10T10:58:11.664180+05:30
Sagar,Madhya Pradesh,23.8388,78.7378,31.3,25,0.0,957.7,8.4,29.5,83,116.6,23.7,0,5,7,0,2026-04-10T10:58:11.664188+05:30
Satna,Madhya Pradesh,24.6005,80.8322,30.9,27,0.0,978.5,8.45,35.3,79,150.4,26.5,0,5,7,0,2026-04-10T10:58:11.664196+05:30
Akola,Maharashtra,20.7002,77.0082,35.1,26,0.0,981.1,8.7,21.6,73,47.7,21.6,0,5,10,0,2026-04-10T10:58:11.664205+05:30
Amravati,Maharashtra,20.9374,77.7796,34.4,27,0.0,973.4,8.7,28.4,75,54.8,22.2,0,5,7,0,2026-04-10T10:58:11.664214+05:30
Latur,Maharashtra,18.4088,76.5604,31.9,37,0.0,945.3,8.95,30.2,87,33.8,19.8,0,5,7,0,2026-04-10T10:58:11.664223+05:30
Nanded,Maharashtra,19.1383,77.3091,34.0,35,0.0,974.2,8.85,19.4,87,36.4,19.4,0,5,7,1,2026-04-10T10:58:11.664229+05:30
Gulbarga,Karnataka,17.3297,76.8343,34.8,31,0.0,963.8,9.05,26.3,78,51.8,28.2,0,5,7,0,2026-04-10T10:58:11.664235+05:30
Bidar,Karnataka,17.9104,77.5199,33.0,31,0.0,940.9,9.05,28.8,86,53.6,24.0,0,5,7,0,2026-04-10T10:58:11.664242+05:30
Hospet,Karnataka,15.2689,76.3909,33.2,39,0.0,960.0,9.25,23.4,69,47.1,25.3,0,5,7,1,2026-04-10T10:58:11.664248+05:30
Tirupur,Tamil Nadu,11.1085,77.3411,34.1,43,0.0,979.3,9.5,28.4,65,26.7,20.0,0,5,7,1,2026-04-10T10:58:11.664254+05:30
Alappuzha,Kerala,9.4981,76.3388,29.9,78,0.0,1012.0,9.2,25.9,72,43.0,25.0,7,0,4,1,2026-04-10T10:58:11.664260+05:30
Munnar,Kerala,10.0889,77.0595,28.5,58,0.0,862.5,8.55,28.8,71,24.3,21.7,4,5,7,1,2026-04-10T10:58:11.664267+05:30
Silchar,Assam,24.8333,92.7789,23.1,79,0.0,1011.1,8.55,32.8,140,42.8,33.4,3,0,4,1,2026-04-10T10:58:11.664273+05:30
Dibrugarh,Assam,27.4728,94.912,20.8,82,0.0,1000.3,8.35,16.2,105,49.7,32.6,3,5,4,1,2026-04-10T10:58:11.664280+05:30
