city,state,latitude,longitude,temp,humidity,rain,pressure,uv_index,wind_gusts,aqi,pm10,pm2_5,no2,co,o3,so2,mosquito_risk,arthritis_risk,migraine_risk,frizz_risk,updated_at
Delhi,Delhi,28.6139,77.209,29.7,69,0.0,975.5,7.65,28.8,567,315.7,78.5,25.3,442.0,51.0,19.7,7,5,7,1,2026-07-01T03:46:29.424680+05:30
Mumbai,Maharashtra,19.076,72.8777,26.4,90,0.8,1003.0,0.45,47.2,39,17.6,8.4,2.8,107.0,50.0,2.2,10,5,0,1,2026-07-01T03:46:29.424720+05:30
Bangalore,Karnataka,12.9716,77.5946,20.9,89,0.0,909.9,6.75,59.8,17,2.6,2.2,5.5,137.0,37.0,3.1,3,5,7,1,2026-07-01T03:46:29.424735+05:30
Hyderabad,Telangana,17.385,78.4867,24.8,79,0.0,948.8,6.95,51.5,24,5.2,4.5,8.0,138.0,39.0,4.2,3,5,7,1,2026-07-01T03:46:29.424745+05:30
Chennai,Tamil Nadu,13.0827,80.2707,29.2,61,0.0,1003.9,4.9,48.6,40,9.0,8.0,17.7,201.0,30.0,6.6,7,5,0,1,2026-07-01T03:46:29.424753+05:30
Kolkata,West Bengal,22.5726,88.3639,26.3,94,0.0,999.2,8.65,27.0,113,37.3,36.0,17.1,556.0,50.0,8.5,7,5,7,1,2026-07-01T03:46:29.424761+05:30
Pune,Maharashtra,18.5204,73.8567,23.2,92,0.0,942.8,1.6,50.4,19,1.5,1.3,3.9,104.0,45.0,2.5,3,5,3,1,2026-07-01T03:46:29.424768+05:30
Ahmedabad,Gujarat,23.0225,72.5714,29.8,74,0.0,995.0,7.65,46.4,52,22.4,13.9,10.7,142.0,33.0,6.2,7,5,7,1,2026-07-01T03:46:29.424775+05:30
Jaipur,Rajasthan,26.9124,75.7873,30.6,59,0.0,952.1,8.2,31.7,189,351.1,69.2,8.6,224.0,58.0,3.9,0,5,7,1,2026-07-01T03:46:29.424781+05:30
Lucknow,Uttar Pradesh,26.8467,80.9462,28.0,90,0.1,986.5,5.55,22.0,112,63.8,45.6,16.7,411.0,65.0,7.4,10,5,3,1,2026-07-01T03:46:29.424792+05:30
Kanpur,Uttar Pradesh,26.4499,80.3319,29.7,72,0.0,984.6,6.25,29.5,113,58.3,37.8,15.1,217.0,64.0,4.7,7,5,7,1,2026-07-01T03:46:29.424799+05:30
Chandigarh,Chandigarh,30.7333,76.7794,27.8,78,0.1,962.1,6.6,38.2,114,42.0,26.9,13.9,293.0,60.0,6.5,10,5,7,1,2026-07-01T03:46:29.424806+05:30
Srinagar,Jammu and Kashmir,34.0837,74.7973,21.3,81,0.0,835.2,9.1,30.6,102,38.8,36.4,27.6,573.0,12.0,1.4,3,5,7,1,2026-07-01T03:46:29.424813+05:30
Jammu,Jammu and Kashmir,32.7266,74.857,25.1,93,0.2,966.2,8.65,28.4,142,40.7,29.9,12.6,270.0,86.0,2.9,10,5,7,1,2026-07-01T03:46:29.424819+05:30
Amritsar,Punjab,31.634,74.8723,26.3,95,0.1,972.9,8.15,42.8,154,265.4,85.4,13.0,493.0,87.0,13.5,10,5,7,1,2026-07-01T03:46:29.424827+05:30
Ludhiana,Punjab,30.901,75.8573,28.8,76,0.0,971.3,3.1,42.5,179,430.3,89.2,13.1,438.0,76.0,13.9,7,5,3,1,2026-07-01T03:46:29.424833+05:30
Jalandhar,Punjab,31.326,75.5762,27.8,93,0.1,972.1,4.3,37.4,156,197.9,64.7,14.7,456.0,77.0,13.7,10,5,3,1,2026-07-01T03:46:29.424839+05:30
Dehradun,Uttarakhand,30.6284,78.0322,18.3,97,0.5,826.7,7.7,18.4,47,22.5,11.3,6.0,196.0,86.0,1.1,6,10,7,1,2026-07-01T03:46:29.424846+05:30
Shimla,Himachal Pradesh,31.1048,77.1734,15.2,99,0.1,780.4,6.75,19.4,73,23.5,10.8,12.3,270.0,68.0,0.5,6,10,7,0,2026-07-01T03:46:29.424853+05:30
Manali,Himachal Pradesh,32.2396,77.1887,18.0,82,0.0,814.4,4.85,34.6,63,7.4,6.1,70.5,235.0,45.0,0.0,3,10,3,0,2026-07-01T03:46:29.424861+05:30
Gurgaon,Haryana,28.4595,77.0266,29.6,68,0.0,973.6,7.3,34.6,1152,1024.5,187.2,18.5,439.0,56.0,11.3,7,5,7,1,2026-07-01T03:46:29.424867+05:30
Noida,Uttar Pradesh,28.5355,77.391,28.7,77,0.0,977.1,7.55,25.6,1152,1024.5,187.2,18.5,445.0,56.0,11.3,7,5,7,1,2026-07-01T03:46:29.424876+05:30
Ghaziabad,Uttar Pradesh,28.6692,77.4538,28.8,79,0.0,975.4,5.65,24.8,159,116.2,44.1,18.6,412.0,56.0,10.1,7,5,3,1,2026-07-01T03:46:29.424882+05:30
Faridabad,Haryana,28.4089,77.3178,29.1,72,0.0,976.2,6.9,30.6,1152,1024.5,187.2,18.5,433.0,56.0,11.3,7,5,7,1,2026-07-01T03:46:29.424888+05:30
Meerut,Uttar Pradesh,28.9845,77.7064,27.9,85,0.0,974.7,7.5,32.0,159,116.2,44.1,18.6,421.0,56.0,10.1,7,5,7,1,2026-07-01T03:46:29.424894+05:30
Agra,Uttar Pradesh,27.1767,78.0081,27.7,79,0.0,980.1,3.7,33.1,436,74.5,31.8,14.1,164.0,54.0,4.2,7,5,3,1,2026-07-01T03:46:29.424901+05:30
Varanasi,Uttar Pradesh,25.3176,82.9739,28.6,89,0.0,990.3,7.95,20.9,79,28.2,23.5,30.4,364.0,46.0,17.1,7,5,7,1,2026-07-01T03:46:29.424908+05:30
Prayagraj,Uttar Pradesh,25.4358,81.8463,28.9,87,0.1,988.7,7.35,25.6,97,42.5,33.4,14.0,224.0,77.0,6.2,10,5,7,1,2026-07-01T03:46:29.424914+05:30
Gorakhpur,Uttar Pradesh,26.7606,83.3732,26.9,93,0.0,990.9,7.35,26.6,92,66.4,60.8,17.7,376.0,71.0,11.0,7,5,7,1,2026-07-01T03:46:29.424920+05:30
Bareilly,Uttar Pradesh,28.367,79.4304,26.0,95,0.2,980.4,7.95,23.0,86,62.6,37.1,14.8,266.0,67.0,6.7,10,5,7,1,2026-07-01T03:46:29.424960+05:30
Aligarh,Uttar Pradesh,27.8974,78.088,26.9,86,0.0,978.2,4.35,29.9,315,144.4,57.2,16.6,259.0,59.0,7.1,7,5,3,1,2026-07-01T03:46:29.424969+05:30
Moradabad,Uttar Pradesh,28.8386,78.7733,27.1,88,0.0,977.5,7.25,25.2,76,61.5,38.2,17.1,251.0,61.0,12.2,7,5,7,1,2026-07-01T03:46:29.424976+05:30
Saharanpur,Uttar Pradesh,29.9637,77.546,26.4,87,0.0,969.3,6.55,33.5,84,34.5,21.8,15.9,329.0,58.0,11.8,7,5,7,1,2026-07-01T03:46:29.424982+05:30
Jhansi,Uttar Pradesh,25.4484,78.5685,29.6,70,0.0,970.7,6.95,32.0,61,26.5,20.7,6.7,158.0,71.0,4.6,7,5,7,1,2026-07-01T03:46:32.796202+05:30
Surat,Gujarat,21.1702,72.8311,26.3,99,0.1,1000.4,4.3,37.4,60,20.8,17.5,31.1,267.0,17.0,42.4,10,5,0,1,2026-07-01T03:46:32.796233+05:30
Vadodara,Gujarat,22.3072,73.1812,27.5,88,0.0,997.4,5.5,43.2,53,15.4,13.4,23.4,124.0,18.0,18.6,7,5,3,1,2026-07-01T03:46:32.796243+05:30
Rajkot,Gujarat,22.3039,70.8022,28.5,77,0.0,987.3,4.35,43.6,52,22.1,11.7,5.3,93.0,43.0,5.2,7,5,3,1,2026-07-01T03:46:32.796251+05:30
Thane,Maharashtra,19.2183,72.9781,25.5,97,0.5,1002.2,0.35,39.2,39,17.6,8.4,2.8,118.0,50.0,2.2,10,5,0,1,2026-07-01T03:46:32.796259+05:30
Nagpur,Maharashtra,21.1458,79.0882,25.5,94,0.0,967.4,5.85,27.7,61,19.5,16.2,16.5,257.0,46.0,14.3,7,5,3,1,2026-07-01T03:46:32.796266+05:30
Nashik,Maharashtra,19.9975,73.7898,23.0,97,0.2,939.5,4.35,45.4,17,3.1,2.5,7.8,112.0,36.0,4.1,6,5,3,1,2026-07-01T03:46:32.796273+05:30
Aurangabad,Maharashtra,19.8762,75.3433,23.4,95,0.0,938.8,3.05,37.4,34,4.3,3.9,10.8,155.0,30.0,8.3,3,5,3,1,2026-07-01T03:46:32.796279+05:30
Solapur,Maharashtra,17.6599,75.9064,23.9,94,0.3,953.1,1.95,47.2,19,2.3,2.2,5.8,127.0,38.0,1.7,6,5,3,1,2026-07-01T03:46:32.796287+05:30
Kolhapur,Maharashtra,16.705,74.2433,22.6,96,0.1,944.2,0.95,47.5,19,1.7,1.5,2.6,103.0,45.0,1.3,6,5,3,1,2026-07-01T03:46:32.796294+05:30
Goa,Goa,15.2993,74.124,24.6,99,0.2,996.2,2.2,32.0,27,9.6,6.4,2.3,164.0,48.0,0.5,6,5,3,1,2026-07-01T03:46:32.796302+05:30
Jodhpur,Rajasthan,26.2389,73.0243,31.9,50,0.0,974.7,8.45,36.4,162,255.2,62.4,4.7,131.0,49.0,2.5,0,5,7,1,2026-07-01T03:46:32.796309+05:30
Udaipur,Rajasthan,24.5854,73.7125,25.6,86,0.0,939.6,8.7,32.4,57,13.0,10.4,14.7,144.0,35.0,17.0,7,5,7,1,2026-07-01T03:46:32.796316+05:30
Kota,Rajasthan,25.2138,75.8648,29.1,69,0.0,971.1,5.65,29.5,70,28.2,22.1,12.1,179.0,45.0,4.4,7,5,3,1,2026-07-01T03:46:32.796324+05:30
Bikaner,Rajasthan,28.0229,73.3119,33.3,47,0.0,972.7,8.45,32.4,162,234.2,76.1,2.5,110.0,54.0,3.1,0,5,7,1,2026-07-01T03:46:32.796330+05:30
Ajmer,Rajasthan,26.4499,74.6399,29.4,58,0.0,947.2,8.2,46.8,67,20.6,14.3,8.7,156.0,48.0,3.4,4,5,7,1,2026-07-01T03:46:32.796338+05:30
Gwalior,Madhya Pradesh,26.2183,78.1828,30.7,63,0.0,975.7,8.2,33.1,81,29.0,16.2,8.4,146.0,57.0,2.8,3,5,7,1,2026-07-01T03:46:32.796345+05:30
Indore,Madhya Pradesh,22.7196,75.8577,24.7,87,0.0,941.7,7.45,34.2,62,13.2,11.0,11.7,167.0,36.0,7.2,3,5,7,1,2026-07-01T03:46:32.796351+05:30
Bhopal,Madhya Pradesh,23.2599,77.4126,25.3,90,0.0,947.3,7.3,33.5,69,21.7,19.0,8.7,234.0,55.0,3.7,7,5,7,1,2026-07-01T03:46:32.796358+05:30
Jabalpur,Madhya Pradesh,23.1815,79.9864,24.8,98,0.0,955.3,8.15,36.0,57,29.4,21.6,7.1,203.0,69.0,3.1,3,5,7,1,2026-07-01T03:46:32.796364+05:30
Ujjain,Madhya Pradesh,23.1765,75.7885,25.3,85,0.0,947.5,8.1,36.0,61,12.2,9.6,8.5,186.0,39.0,6.8,7,5,7,1,2026-07-01T03:46:32.796371+05:30
Visakhapatnam,Andhra Pradesh,17.6868,83.2185,28.0,85,0.0,996.9,5.8,39.6,78,17.3,16.2,26.7,356.0,44.0,35.9,7,5,3,1,2026-07-01T03:46:32.796378+05:30
Vijayawada,Andhra Pradesh,16.5062,80.648,29.5,62,0.0,997.5,6.45,52.6,46,17.7,15.3,12.0,163.0,42.0,6.7,7,5,7,1,2026-07-01T03:46:32.796385+05:30
Guntur,Andhra Pradesh,16.3067,80.4365,29.9,58,0.0,998.9,6.5,45.0,37,12.9,10.2,9.2,163.0,47.0,7.7,4,5,7,1,2026-07-01T03:46:32.796392+05:30
Nellore,Andhra Pradesh,14.4426,79.9865,29.7,60,0.0,1002.2,4.85,47.2,25,4.0,3.3,6.1,175.0,41.0,3.5,4,5,0,1,2026-07-01T03:46:32.796400+05:30
Kurnool,Andhra Pradesh,15.8281,78.0373,26.4,75,0.0,973.9,3.15,61.6,22,2.4,2.2,6.3,114.0,37.0,2.9,7,5,3,1,2026-07-01T03:46:32.796408+05:30
Kakinada,Andhra Pradesh,16.9891,82.2475,28.8,76,0.0,1001.3,6.4,49.0,47,15.9,14.2,9.6,143.0,57.0,4.9,7,5,4,1,2026-07-01T03:46:32.796415+05:30
Tirupati,Andhra Pradesh,13.6288,79.4192,28.5,60,0.0,988.0,6.8,46.4,21,4.2,3.7,7.7,114.0,35.0,2.3,4,5,7,1,2026-07-01T03:46:32.796421+05:30
Warangal,Telangana,17.9689,79.5941,26.6,81,0.0,973.7,2.45,49.0,40,8.1,7.6,7.6,137.0,43.0,1.8,7,5,3,1,2026-07-01T03:46:32.796428+05:30
Nizamabad,Telangana,18.6725,78.0941,24.3,96,0.1,959.9,1.1,36.7,47,5.7,5.1,8.3,166.0,38.0,3.8,6,5,3,1,2026-07-01T03:46:32.796435+05:30
Mysore,Karnataka,12.2958,76.6396,21.2,92,0.0,927.2,2.05,54.7,17,1.9,1.7,3.8,102.0,38.0,1.4,3,5,3,1,2026-07-01T03:46:32.796441+05:30
Mangalore,Karnataka,12.9141,74.856,24.9,94,0.2,1006.9,3.75,36.0,30,8.0,4.5,1.2,92.0,46.0,0.6,6,5,0,1,2026-07-01T03:46:32.796447+05:30
Hubli-Dharwad,Karnataka,15.3647,75.124,22.0,98,0.0,938.2,4.9,51.8,19,0.8,0.8,2.1,97.0,45.0,0.7,3,5,3,1,2026-07-01T03:46:32.796454+05:30
Belgaum,Karnataka,15.8497,74.4977,21.5,98,0.1,922.6,1.85,48.6,19,1.3,1.3,2.7,96.0,45.0,0.8,6,5,3,1,2026-07-01T03:46:36.185309+05:30
Coimbatore,Tamil Nadu,11.0168,76.9558,22.1,99,0.0,960.6,1.8,58.7,21,4.9,3.4,4.7,142.0,31.0,2.1,3,5,3,1,2026-07-01T03:46:36.185342+05:30
Madurai,Tamil Nadu,9.9252,78.1198,24.9,89,0.0,992.0,7.2,51.1,54,17.6,13.2,20.2,114.0,10.0,4.4,3,5,7,1,2026-07-01T03:46:36.185353+05:30
Trichy,Tamil Nadu,10.7905,78.7047,27.4,66,0.0,998.5,4.0,60.1,26,10.8,6.6,5.0,97.0,34.0,2.4,7,5,3,1,2026-07-01T03:46:36.185362+05:30
Salem,Tamil Nadu,11.6643,78.146,23.7,94,0.1,976.5,2.2,35.6,45,15.6,12.6,18.8,259.0,20.0,7.8,6,5,3,1,2026-07-01T03:46:36.185371+05:30
Tirunelveli,Tamil Nadu,8.7139,77.7567,28.0,66,0.0,1002.7,6.35,46.8,30,13.6,7.9,4.6,156.0,31.0,1.6,7,5,4,1,2026-07-01T03:46:36.185379+05:30
Vellore,Tamil Nadu,12.9165,79.1325,27.4,65,0.0,982.0,3.85,49.7,21,4.5,3.8,7.3,130.0,36.0,3.0,7,5,3,1,2026-07-01T03:46:36.185387+05:30
Erode,Tamil Nadu,11.341,77.7172,24.6,83,0.0,988.3,2.25,41.8,42,12.7,10.8,12.9,131.0,24.0,3.3,3,5,3,1,2026-07-01T03:46:36.185396+05:30
Kochi,Kerala,9.9312,76.2673,24.8,95,0.1,1010.0,4.7,38.2,51,17.8,11.8,12.4,168.0,21.0,3.8,6,0,0,1,2026-07-01T03:46:36.185403+05:30
Thiruvananthapuram,Kerala,8.5241,76.9366,23.8,97,0.0,1009.1,7.85,45.4,39,18.7,11.1,6.8,185.0,32.0,3.1,3,0,4,1,2026-07-01T03:46:36.185411+05:30
Kozhikode,Kerala,11.2588,75.7804,23.4,99,0.2,1009.1,7.3,29.5,29,10.0,5.2,0.5,164.0,48.0,0.3,6,0,4,1,2026-07-01T03:46:36.185418+05:30
Thrissur,Kerala,10.5276,76.2144,23.5,99,0.1,1008.1,3.05,38.2,52,15.6,11.6,9.9,200.0,24.0,2.7,6,0,0,1,2026-07-01T03:46:36.185426+05:30
Kannur,Kerala,11.8745,75.3704,24.4,94,0.3,1007.8,8.25,29.9,33,9.6,5.7,2.5,107.0,39.0,1.0,6,5,4,1,2026-07-01T03:46:36.185433+05:30
Patna,Bihar,25.5941,85.1376,27.7,90,0.0,993.7,8.25,24.1,115,59.0,57.6,20.6,332.0,60.0,14.4,7,5,7,1,2026-07-01T03:46:36.185439+05:30
Gaya,Bihar,24.7914,85.0002,27.0,98,0.0,987.1,8.3,22.7,100,57.4,55.8,22.1,452.0,55.0,10.2,7,5,7,1,2026-07-01T03:46:36.185446+05:30
Muzaffarpur,Bihar,26.1209,85.3647,26.8,90,0.0,994.2,8.2,29.5,115,62.9,61.7,19.6,312.0,63.0,15.2,7,5,7,1,2026-07-01T03:46:36.185453+05:30
Bhagalpur,Bihar,25.2425,87.0117,26.4,97,0.0,995.0,7.65,26.6,133,66.4,65.9,14.4,308.0,76.0,16.2,7,5,7,1,2026-07-01T03:46:36.185459+05:30
Ranchi,Jharkhand,23.3441,85.3096,22.8,96,0.0,931.1,8.9,29.5,86,19.8,19.7,10.3,341.0,58.0,5.6,3,5,7,1,2026-07-01T03:46:36.185466+05:30
Jamshedpur,Jharkhand,22.8046,86.2029,26.5,97,0.1,984.2,5.1,19.1,120,44.1,43.9,32.8,461.0,38.0,27.6,10,5,3,1,2026-07-01T03:46:36.185473+05:30
Dhanbad,Jharkhand,23.7957,86.4304,26.1,98,0.2,973.4,6.3,23.4,162,116.9,115.9,66.7,410.0,15.0,200.4,10,5,7,1,2026-07-01T03:46:36.185480+05:30
Bokaro,Jharkhand,23.6693,86.1511,27.1,92,0.1,977.2,7.3,22.7,154,100.1,99.2,52.1,3986.0,36.0,179.6,10,5,7,1,2026-07-01T03:46:36.185487+05:30
Bhubaneswar,Odisha,20.2961,85.8245,25.7,97,0.2,996.2,7.15,32.4,69,24.2,24.0,14.2,372.0,52.0,4.5,10,5,7,1,2026-07-01T03:46:36.185494+05:30
Cuttack,Odisha,20.4625,85.8828,25.6,96,0.2,997.9,5.45,30.6,69,24.2,24.0,14.2,359.0,52.0,4.5,10,5,3,1,2026-07-01T03:46:36.185501+05:30
Rourkela,Odisha,22.2604,84.8536,25.4,98,0.0,978.6,8.6,29.2,67,16.8,16.8,13.2,477.0,60.0,4.8,7,5,7,1,2026-07-01T03:46:36.185507+05:30
Raipur,Chhattisgarh,21.2514,81.6296,25.0,96,0.1,968.5,5.9,22.7,79,33.3,31.4,34.7,359.0,33.0,49.7,10,5,3,1,2026-07-01T03:46:36.185514+05:30
Bhilai,Chhattisgarh,21.1938,81.3509,24.9,95,0.2,969.0,7.5,28.4,72,33.1,30.7,27.2,601.0,35.0,40.5,6,5,7,1,2026-07-01T03:46:36.185521+05:30
Guwahati,Assam,26.1158,91.7086,25.4,99,0.0,996.5,8.25,22.0,60,8.9,8.8,8.0,373.0,42.0,1.0,7,5,7,1,2026-07-01T03:46:36.185528+05:30
Agartala,Tripura,23.8315,91.2868,25.3,99,0.0,1000.4,8.05,32.8,58,24.0,23.3,13.7,205.0,43.0,2.7,7,5,4,1,2026-07-01T03:46:36.185534+05:30
Shillong,Meghalaya,25.5788,91.8933,19.8,97,0.1,853.3,5.1,19.4,33,5.5,5.4,4.2,178.0,66.0,2.5,6,10,3,1,2026-07-01T03:46:36.185541+05:30
Imphal,Manipur,24.817,93.9368,23.1,96,0.1,919.0,5.0,22.7,39,9.8,9.7,7.7,367.0,32.0,2.1,6,5,3,1,2026-07-01T03:46:36.185548+05:30
Aizawl,Mizoram,23.7271,92.7176,19.9,98,0.0,887.8,6.2,25.6,26,5.5,5.4,3.9,158.0,40.0,0.5,3,10,7,1,2026-07-01T03:46:36.185554+05:30
Kohima,Nagaland,25.6701,94.1077,20.1,91,0.0,851.9,5.25,22.3,27,4.9,4.9,7.2,216.0,28.0,0.9,3,5,3,1,2026-07-01T03:46:36.185561+05:30
Gangtok,Sikkim,27.3314,88.6138,18.0,98,0.1,834.5,6.85,29.2,47,21.7,20.4,10.5,434.0,84.0,2.3,6,10,7,1,2026-07-01T03:46:36.185568+05:30
Siliguri,West Bengal,26.7271,88.3953,25.2,93,0.2,987.7,8.3,25.2,89,51.3,48.3,15.1,275.0,84.0,5.7,10,5,7,1,2026-07-01T03:46:39.551844+05:30
Durgapur,West Bengal,23.5204,87.3119,25.7,98,0.1,988.7,8.75,25.6,159,44.8,44.5,29.4,623.0,52.0,32.7,10,5,7,1,2026-07-01T03:46:39.551878+05:30
Asansol,West Bengal,23.6739,86.9524,25.2,99,0.1,987.3,7.0,26.3,157,51.7,51.5,37.5,374.0,32.0,39.8,10,5,7,1,2026-07-01T03:46:39.551889+05:30
Pondicherry,Puducherry,11.9139,79.8145,28.3,67,0.0,1006.0,2.3,43.9,44,15.5,12.6,14.9,307.0,41.0,9.0,7,5,0,1,2026-07-01T03:46:39.551898+05:30
Port Blair,Andaman and Nicobar Islands,11.6234,92.7265,26.9,88,0.1,1004.2,3.25,49.3,28,9.3,5.8,0.2,85.0,68.0,0.5,10,5,0,1,2026-07-01T03:46:39.551907+05:30
Haridwar,Uttarakhand,29.9457,78.1642,25.6,96,0.3,968.0,6.15,24.5,73,23.4,19.1,14.4,300.0,60.0,9.1,10,5,7,1,2026-07-01T03:46:39.551915+05:30
Rishikesh,Uttarakhand,30.0869,78.2676,26.2,96,0.3,960.8,6.85,14.4,60,23.5,15.9,11.3,312.0,69.0,5.4,10,5,7,1,2026-07-01T03:46:39.551922+05:30
Nainital,Uttarakhand,29.3919,79.4542,16.4,100,0.0,801.6,4.65,22.3,42,16.6,10.1,6.0,201.0,93.0,2.1,3,10,3,1,2026-07-01T03:46:39.551952+05:30
Mussoorie,Uttarakhand,30.4599,78.0664,16.6,100,0.4,799.1,4.9,19.4,67,18.2,14.0,9.8,252.0,88.0,7.3,6,10,3,1,2026-07-01T03:46:39.551963+05:30
Dharamshala,Himachal Pradesh,32.219,76.3234,21.5,94,0.3,864.0,6.5,31.3,40,21.1,14.7,10.1,224.0,69.0,0.1,6,5,7,1,2026-07-01T03:46:39.551977+05:30
Dalhousie,Himachal Pradesh,32.5387,75.971,16.9,97,0.0,800.1,7.9,23.0,83,36.4,21.7,7.9,343.0,103.0,1.2,3,10,7,1,2026-07-01T03:46:39.551992+05:30
Patiala,Punjab,30.3398,76.3869,28.4,76,0.0,970.9,5.25,40.7,387,1218.2,165.3,14.3,453.0,68.0,14.1,7,5,3,1,2026-07-01T03:46:39.552007+05:30
Bhatinda,Punjab,30.211,74.9455,32.0,63,0.0,974.3,5.15,31.0,272,1575.8,381.8,13.6,378.0,74.0,18.4,3,5,3,1,2026-07-01T03:46:39.552019+05:30
Rohtak,Haryana,28.8955,76.6066,30.9,70,0.0,973.7,6.7,29.5,1520,1348.6,228.2,23.8,547.0,51.0,19.2,3,5,7,1,2026-07-01T03:46:39.552026+05:30
Panipat,Haryana,29.3909,76.9635,28.8,79,0.0,973.0,5.65,31.7,2011,840.1,149.9,24.4,457.0,47.0,17.4,7,5,3,1,2026-07-01T03:46:39.552033+05:30
Mathura,Uttar Pradesh,27.4924,77.6737,28.0,76,0.0,979.1,7.95,29.2,656,150.9,39.9,12.9,172.0,59.0,2.7,7,5,7,1,2026-07-01T03:46:39.552040+05:30
Vrindavan,Uttar Pradesh,27.5823,77.7027,28.0,75,0.0,979.5,7.9,30.2,656,150.9,39.9,12.9,170.0,59.0,2.7,7,5,7,1,2026-07-01T03:46:39.552046+05:30
Ayodhya,Uttar Pradesh,26.7922,82.1998,27.7,88,0.1,988.8,5.8,24.8,98,46.3,38.0,12.3,393.0,85.0,6.8,10,5,3,1,2026-07-01T03:46:39.552053+05:30
Ratlam,Madhya Pradesh,23.3315,75.0367,25.3,86,0.0,948.4,6.45,34.9,58,11.6,8.8,8.1,163.0,36.0,8.0,7,5,7,1,2026-07-01T03:46:39.552060+05:30
Sagar,Madhya Pradesh,23.8388,78.7378,25.4,86,0.0,943.7,8.7,31.3,65,31.1,26.5,8.0,222.0,60.0,4.0,7,5,7,1,2026-07-01T03:46:39.552067+05:30
Satna,Madhya Pradesh,24.6005,80.8322,27.1,88,0.0,964.4,8.3,22.7,70,23.5,18.9,10.2,217.0,61.0,4.7,7,5,7,1,2026-07-01T03:46:39.552074+05:30
Akola,Maharashtra,20.7002,77.0082,25.9,95,0.3,969.6,1.3,39.2,56,10.2,8.9,13.0,163.0,36.0,8.0,10,5,3,1,2026-07-01T03:46:39.552082+05:30
Amravati,Maharashtra,20.9374,77.7796,25.1,93,0.1,961.8,1.4,33.5,57,10.0,8.7,12.7,165.0,40.0,8.5,10,5,3,1,2026-07-01T03:46:39.552090+05:30
Latur,Maharashtra,18.4088,76.5604,23.5,91,0.1,935.1,4.0,46.8,21,3.2,3.0,6.0,145.0,38.0,1.4,6,5,3,1,2026-07-01T03:46:39.552097+05:30
Nanded,Maharashtra,19.1383,77.3091,25.1,94,0.2,963.7,0.9,39.2,47,5.7,5.1,8.8,156.0,34.0,3.3,10,5,3,1,2026-07-01T03:46:39.552104+05:30
Gulbarga,Karnataka,17.3297,76.8343,24.2,88,0.2,955.0,2.05,52.6,20,2.6,2.4,7.0,125.0,37.0,2.5,6,5,3,1,2026-07-01T03:46:39.552110+05:30
Bidar,Karnataka,17.9104,77.5199,23.2,90,0.1,931.1,3.5,55.4,21,4.0,3.6,6.9,134.0,37.0,1.9,6,5,3,1,2026-07-01T03:46:39.552117+05:30
Hospet,Karnataka,15.2689,76.3909,23.6,88,0.0,953.5,6.1,60.1,19,1.3,1.2,3.2,106.0,42.0,1.1,3,5,7,1,2026-07-01T03:46:39.552124+05:30
Tirupur,Tamil Nadu,11.1085,77.3411,23.3,91,0.0,974.3,2.5,59.4,48,15.5,13.4,16.1,124.0,19.0,4.1,3,5,3,1,2026-07-01T03:46:39.552130+05:30
Alappuzha,Kerala,9.4981,76.3388,25.1,94,0.1,1010.0,7.55,40.3,45,16.8,10.2,8.2,83.0,32.0,3.0,10,0,4,1,2026-07-01T03:46:39.552136+05:30
Munnar,Kerala,10.0889,77.0595,16.2,99,0.0,856.1,5.95,45.4,20,6.8,3.9,4.6,86.0,23.0,0.9,3,10,3,1,2026-07-01T03:46:39.552144+05:30
Silchar,Assam,24.8333,92.7789,26.0,98,0.1,1000.1,7.55,17.6,58,18.2,17.6,9.1,210.0,52.0,5.8,10,5,4,1,2026-07-01T03:46:39.552150+05:30
Dibrugarh,Assam,27.4728,94.912,26.0,95,0.0,990.0,8.4,22.7,77,25.4,24.8,17.5,360.0,31.0,2.2,7,5,7,1,2026-07-01T03:46:39.552157+05:30
