city,state,latitude,longitude,temp,humidity,rain,pressure,uv_index,wind_gusts,aqi,pm10,pm2_5,no2,co,o3,so2,mosquito_risk,arthritis_risk,migraine_risk,frizz_risk,updated_at
Delhi,Delhi,28.6139,77.209,34.3,18,0.0,977.3,7.7,39.6,524,648.2,144.8,47.1,269.0,36.0,23.8,0,5,7,0,2026-05-25T00:50:36.454186+05:30
Mumbai,Maharashtra,19.076,72.8777,30.0,77,0.0,1009.1,7.85,44.6,41,18.0,12.2,5.9,251.0,44.0,4.6,7,0,4,1,2026-05-25T00:50:36.454227+05:30
Bangalore,Karnataka,12.9716,77.5946,21.5,93,0.0,912.6,9.15,27.0,58,37.7,34.6,46.9,400.0,30.0,15.2,3,5,7,1,2026-05-25T00:50:36.454241+05:30
Hyderabad,Telangana,17.385,78.4867,31.5,41,0.0,951.9,9.2,37.8,65,22.7,18.7,9.5,330.0,73.0,5.9,0,5,7,1,2026-05-25T00:50:36.454251+05:30
Chennai,Tamil Nadu,13.0827,80.2707,30.6,68,0.0,1005.2,9.05,46.8,84,25.6,23.8,11.4,293.0,86.0,9.4,3,5,4,1,2026-05-25T00:50:36.454259+05:30
Kolkata,West Bengal,22.5726,88.3639,29.8,88,0.0,1002.7,8.95,45.4,90,29.0,24.0,5.1,254.0,90.0,4.7,7,5,4,1,2026-05-25T00:50:36.454266+05:30
Pune,Maharashtra,18.5204,73.8567,24.6,91,0.0,948.7,8.45,42.8,32,9.7,8.1,10.9,191.0,42.0,12.0,3,5,7,1,2026-05-25T00:50:36.454273+05:30
Ahmedabad,Gujarat,23.0225,72.5714,33.5,42,0.0,1001.4,8.15,34.9,49,25.3,13.4,3.8,154.0,57.0,2.8,0,5,4,1,2026-05-25T00:50:36.454280+05:30
Jaipur,Rajasthan,26.9124,75.7873,33.4,28,0.0,957.0,8.25,47.2,241,386.5,75.9,3.7,169.0,73.0,3.2,0,5,7,0,2026-05-25T00:50:36.454291+05:30
Lucknow,Uttar Pradesh,26.8467,80.9462,33.7,29,0.0,987.9,8.1,65.2,214,560.7,121.5,25.0,374.0,60.0,11.9,0,5,7,0,2026-05-25T00:50:36.454298+05:30
Kanpur,Uttar Pradesh,26.4499,80.3319,33.8,30,0.0,986.4,8.25,50.8,483,491.7,104.8,27.1,296.0,50.0,12.0,0,5,7,0,2026-05-25T00:50:36.454305+05:30
Chandigarh,Chandigarh,30.7333,76.7794,26.7,42,0.0,963.0,7.7,32.4,77,55.6,36.2,31.9,251.0,25.0,7.3,4,5,7,0,2026-05-25T00:50:36.454312+05:30
Srinagar,Jammu and Kashmir,34.0837,74.7973,13.2,83,0.0,840.3,8.05,36.7,72,29.2,24.3,25.0,473.0,27.0,2.1,3,10,7,0,2026-05-25T00:50:36.454318+05:30
Jammu,Jammu and Kashmir,32.7266,74.857,25.3,44,0.0,967.5,8.55,40.0,71,30.7,19.2,9.8,307.0,67.0,2.8,4,5,7,0,2026-05-25T00:50:36.454325+05:30
Amritsar,Punjab,31.634,74.8723,29.2,37,0.0,976.0,8.4,27.4,91,49.9,26.4,7.3,517.0,84.0,5.2,4,5,7,0,2026-05-25T00:50:36.454331+05:30
Ludhiana,Punjab,30.901,75.8573,30.3,32,0.0,973.8,8.0,33.1,82,59.0,38.8,19.0,346.0,64.0,11.0,0,5,7,0,2026-05-25T00:50:36.454337+05:30
Jalandhar,Punjab,31.326,75.5762,29.5,34,0.0,974.7,8.15,36.0,91,77.5,37.1,14.6,298.0,69.0,6.0,4,5,7,0,2026-05-25T00:50:36.454345+05:30
Dehradun,Uttarakhand,30.6284,78.0322,15.9,52,0.0,826.5,7.65,50.8,61,70.8,23.6,28.4,185.0,33.0,0.9,0,5,7,0,2026-05-25T00:50:36.454352+05:30
Shimla,Himachal Pradesh,31.1048,77.1734,13.9,49,0.0,781.2,8.25,45.0,67,53.1,22.6,19.9,229.0,52.0,1.9,0,5,7,0,2026-05-25T00:50:36.454360+05:30
Manali,Himachal Pradesh,32.2396,77.1887,11.3,65,0.0,815.2,9.1,49.3,66,3.6,2.9,10.5,197.0,106.0,0.0,3,5,7,0,2026-05-25T00:50:36.454368+05:30
Gurgaon,Haryana,28.4595,77.0266,34.2,19,0.0,975.9,7.8,38.5,1205,2816.3,399.5,15.1,232.0,63.0,8.6,0,5,7,0,2026-05-25T00:50:36.454374+05:30
Noida,Uttar Pradesh,28.5355,77.391,32.7,29,0.0,978.4,7.75,37.4,1205,2816.3,399.5,15.1,601.0,63.0,8.6,0,5,7,0,2026-05-25T00:50:36.454380+05:30
Ghaziabad,Uttar Pradesh,28.6692,77.4538,31.8,32,0.0,976.6,7.75,42.5,440,642.6,157.9,46.9,413.0,35.0,21.2,0,5,7,0,2026-05-25T00:50:36.454386+05:30
Faridabad,Haryana,28.4089,77.3178,35.0,18,0.0,978.0,7.8,40.0,1205,2816.3,399.5,15.1,205.0,63.0,8.6,0,5,7,0,2026-05-25T00:50:36.454392+05:30
Meerut,Uttar Pradesh,28.9845,77.7064,32.0,34,0.0,975.5,7.65,36.7,440,642.6,157.9,46.9,479.0,35.0,21.2,0,5,7,0,2026-05-25T00:50:36.454398+05:30
Agra,Uttar Pradesh,27.1767,78.0081,35.7,20,0.0,982.8,8.05,43.2,677,1996.8,248.7,7.0,148.0,70.0,4.3,0,5,10,0,2026-05-25T00:50:36.454404+05:30
Varanasi,Uttar Pradesh,25.3176,82.9739,33.9,25,0.0,992.5,8.75,49.3,151,97.1,47.6,26.9,453.0,47.0,11.3,0,5,7,0,2026-05-25T00:50:36.454410+05:30
Prayagraj,Uttar Pradesh,25.4358,81.8463,32.6,32,0.0,990.6,8.65,46.8,154,173.7,60.8,28.5,293.0,45.0,11.0,0,5,7,0,2026-05-25T00:50:36.454416+05:30
Gorakhpur,Uttar Pradesh,26.7606,83.3732,29.8,65,0.0,992.5,8.6,33.1,153,78.7,54.9,16.0,498.0,78.0,8.8,7,5,7,1,2026-05-25T00:50:36.454424+05:30
Bareilly,Uttar Pradesh,28.367,79.4304,30.2,40,0.0,980.8,8.05,22.7,151,263.6,79.2,34.4,437.0,56.0,13.8,0,5,7,0,2026-05-25T00:50:36.454431+05:30
Aligarh,Uttar Pradesh,27.8974,78.088,33.0,24,0.0,980.3,7.9,35.3,820,855.0,148.5,22.0,205.0,52.0,7.6,0,5,7,0,2026-05-25T00:50:36.454437+05:30
Moradabad,Uttar Pradesh,28.8386,78.7733,30.5,37,0.0,977.4,7.85,38.2,153,329.7,109.7,53.1,554.0,29.0,16.0,0,5,7,0,2026-05-25T00:50:36.454443+05:30
Saharanpur,Uttar Pradesh,29.9637,77.546,30.1,31,0.0,969.8,7.35,25.9,96,83.6,49.6,33.6,430.0,42.0,12.7,0,5,7,0,2026-05-25T00:50:36.454449+05:30
Jhansi,Uttar Pradesh,25.4484,78.5685,34.3,21,0.0,973.9,8.45,47.9,91,61.9,28.7,3.6,155.0,68.0,2.1,0,5,7,0,2026-05-25T00:50:39.756487+05:30
Surat,Gujarat,21.1702,72.8311,30.1,79,0.0,1006.8,7.7,43.2,55,19.1,14.8,17.0,201.0,33.0,27.6,3,5,4,1,2026-05-25T00:50:39.756519+05:30
Vadodara,Gujarat,22.3072,73.1812,30.5,76,0.0,1003.8,8.1,40.3,49,18.6,15.6,19.7,256.0,24.0,23.1,3,5,4,1,2026-05-25T00:50:39.756529+05:30
Rajkot,Gujarat,22.3039,70.8022,28.6,75,0.0,994.4,7.75,49.3,54,22.0,15.2,6.2,115.0,45.0,7.1,7,5,7,1,2026-05-25T00:50:39.756537+05:30
Thane,Maharashtra,19.2183,72.9781,28.8,88,0.0,1008.5,7.85,39.6,41,18.0,12.2,5.9,278.0,44.0,4.6,7,0,4,1,2026-05-25T00:50:39.756546+05:30
Nagpur,Maharashtra,21.1458,79.0882,35.5,22,0.0,970.2,8.9,44.3,73,36.9,23.3,9.9,223.0,76.0,7.4,0,5,10,0,2026-05-25T00:50:39.756555+05:30
Nashik,Maharashtra,19.9975,73.7898,24.9,89,0.0,946.1,8.15,42.5,25,9.2,6.9,4.3,160.0,39.0,1.8,3,5,7,1,2026-05-25T00:50:39.756562+05:30
Aurangabad,Maharashtra,19.8762,75.3433,28.2,65,0.0,944.3,9.05,43.6,39,7.6,5.8,5.7,147.0,41.0,3.6,7,5,7,1,2026-05-25T00:50:39.756570+05:30
Solapur,Maharashtra,17.6599,75.9064,29.0,63,0.0,957.6,9.0,37.8,53,10.3,8.6,5.6,162.0,64.0,3.4,7,5,7,1,2026-05-25T00:50:39.756578+05:30
Kolhapur,Maharashtra,16.705,74.2433,23.8,93,0.0,948.6,8.85,44.3,39,9.5,7.7,6.1,164.0,39.0,2.6,3,5,7,1,2026-05-25T00:50:39.756585+05:30
Goa,Goa,15.2993,74.124,26.7,91,0.0,999.4,5.5,29.9,49,24.3,19.2,7.3,353.0,41.0,2.1,7,5,3,1,2026-05-25T00:50:39.756593+05:30
Jodhpur,Rajasthan,26.2389,73.0243,33.9,29,0.0,980.2,8.4,47.2,216,304.5,68.5,2.6,131.0,65.0,1.9,0,5,7,0,2026-05-25T00:50:39.756600+05:30
Udaipur,Rajasthan,24.5854,73.7125,30.8,46,0.0,945.9,8.8,47.2,67,17.7,11.8,2.4,142.0,60.0,1.9,0,5,7,1,2026-05-25T00:50:39.756608+05:30
Kota,Rajasthan,25.2138,75.8648,35.5,29,0.0,976.6,8.4,42.5,88,34.1,19.9,4.5,171.0,67.0,4.6,0,5,10,0,2026-05-25T00:50:39.756616+05:30
Bikaner,Rajasthan,28.0229,73.3119,35.4,23,0.0,977.1,8.4,40.0,169,413.5,143.9,1.1,124.0,92.0,2.5,0,5,10,0,2026-05-25T00:50:39.756623+05:30
Ajmer,Rajasthan,26.4499,74.6399,31.7,33,0.0,952.6,8.35,55.4,98,48.3,22.1,2.6,135.0,71.0,2.4,0,5,7,0,2026-05-25T00:50:39.756631+05:30
Gwalior,Madhya Pradesh,26.2183,78.1828,35.2,20,0.0,979.2,8.25,56.2,95,54.5,27.2,3.4,141.0,76.0,2.5,0,5,10,0,2026-05-25T00:50:39.756639+05:30
Indore,Madhya Pradesh,22.7196,75.8577,32.0,37,0.0,947.9,8.7,42.1,68,35.7,22.6,4.5,255.0,88.0,6.5,0,5,7,0,2026-05-25T00:50:39.756646+05:30
Bhopal,Madhya Pradesh,23.2599,77.4126,33.8,29,0.0,952.2,8.7,41.0,82,51.3,29.6,7.3,197.0,62.0,4.4,0,5,7,0,2026-05-25T00:50:39.756653+05:30
Jabalpur,Madhya Pradesh,23.1815,79.9864,32.7,25,0.0,958.7,8.85,30.6,89,83.1,35.5,16.4,220.0,66.0,4.4,0,5,7,0,2026-05-25T00:50:39.756661+05:30
Ujjain,Madhya Pradesh,23.1765,75.7885,32.5,35,0.0,953.3,8.6,45.4,66,31.1,20.2,3.5,198.0,85.0,5.7,0,5,7,0,2026-05-25T00:50:39.756668+05:30
Visakhapatnam,Andhra Pradesh,17.6868,83.2185,30.5,85,0.0,1000.4,9.1,35.6,111,43.7,36.1,30.3,398.0,90.0,41.6,3,5,4,1,2026-05-25T00:50:39.756676+05:30
Vijayawada,Andhra Pradesh,16.5062,80.648,33.3,43,0.0,998.3,9.1,40.7,87,30.9,28.1,13.4,306.0,67.0,5.8,0,5,7,1,2026-05-25T00:50:39.756685+05:30
Guntur,Andhra Pradesh,16.3067,80.4365,33.0,44,0.0,999.4,9.1,42.8,80,22.4,20.4,9.5,255.0,77.0,4.9,0,5,7,1,2026-05-25T00:50:39.756692+05:30
Nellore,Andhra Pradesh,14.4426,79.9865,30.9,65,0.0,1002.9,9.05,40.0,71,28.1,25.3,7.0,230.0,87.0,6.3,3,5,4,1,2026-05-25T00:50:39.756700+05:30
Kurnool,Andhra Pradesh,15.8281,78.0373,30.4,55,0.0,975.8,9.05,52.6,60,21.5,19.1,8.8,170.0,75.0,4.4,0,5,7,1,2026-05-25T00:50:39.756708+05:30
Kakinada,Andhra Pradesh,16.9891,82.2475,31.7,75,0.0,1003.5,9.1,30.2,94,30.0,23.0,2.3,486.0,130.0,2.8,3,5,4,1,2026-05-25T00:50:39.756715+05:30
Tirupati,Andhra Pradesh,13.6288,79.4192,29.5,56,0.0,989.2,9.1,42.5,75,27.6,26.0,12.5,227.0,70.0,4.0,4,5,7,1,2026-05-25T00:50:39.756723+05:30
Warangal,Telangana,17.9689,79.5941,33.8,33,0.0,975.4,8.75,42.8,86,50.3,34.9,14.1,237.0,67.0,4.8,0,5,7,0,2026-05-25T00:50:39.756730+05:30
Nizamabad,Telangana,18.6725,78.0941,33.0,32,0.0,962.6,9.05,38.5,74,49.8,34.1,22.9,311.0,45.0,6.0,0,5,7,0,2026-05-25T00:50:39.756737+05:30
Mysore,Karnataka,12.2958,76.6396,22.5,95,0.0,929.5,9.05,40.3,41,13.9,12.8,15.1,236.0,34.0,2.9,3,5,7,1,2026-05-25T00:50:39.756745+05:30
Mangalore,Karnataka,12.9141,74.856,25.5,97,0.0,1008.6,6.1,29.5,51,26.6,23.2,14.6,561.0,31.0,5.4,7,0,4,1,2026-05-25T00:50:39.756752+05:30
Hubli-Dharwad,Karnataka,15.3647,75.124,23.7,95,0.0,941.9,9.05,52.6,27,9.2,7.8,6.7,159.0,40.0,1.9,3,5,7,1,2026-05-25T00:50:39.756760+05:30
Belgaum,Karnataka,15.8497,74.4977,22.2,97,0.0,926.6,8.8,48.2,32,11.4,9.1,6.2,161.0,39.0,1.4,3,5,7,1,2026-05-25T00:50:43.046443+05:30
Coimbatore,Tamil Nadu,11.0168,76.9558,24.1,89,0.0,962.6,9.05,50.4,30,9.6,8.6,9.5,189.0,34.0,3.3,3,5,7,1,2026-05-25T00:50:43.046473+05:30
Madurai,Tamil Nadu,9.9252,78.1198,27.9,68,0.0,993.0,8.95,33.8,56,28.8,25.7,27.3,284.0,27.0,6.9,7,5,7,1,2026-05-25T00:50:43.046484+05:30
Trichy,Tamil Nadu,10.7905,78.7047,28.7,66,0.0,999.4,8.7,38.5,47,13.9,12.5,13.0,203.0,48.0,4.4,7,5,7,1,2026-05-25T00:50:43.046494+05:30
Salem,Tamil Nadu,11.6643,78.146,27.1,77,0.0,978.1,8.7,37.8,65,33.8,29.2,24.5,212.0,47.0,10.6,7,5,7,1,2026-05-25T00:50:43.046503+05:30
Tirunelveli,Tamil Nadu,8.7139,77.7567,29.2,64,0.0,1003.6,8.85,34.9,28,8.0,6.7,5.5,161.0,47.0,2.3,7,5,4,1,2026-05-25T00:50:43.046511+05:30
Vellore,Tamil Nadu,12.9165,79.1325,28.9,59,0.0,983.6,9.1,42.8,63,23.5,22.4,11.4,219.0,61.0,3.8,4,5,7,1,2026-05-25T00:50:43.046519+05:30
Erode,Tamil Nadu,11.341,77.7172,26.7,79,0.0,989.6,8.8,40.7,48,15.9,13.9,16.1,287.0,35.0,4.4,7,5,7,1,2026-05-25T00:50:43.046527+05:30
Kochi,Kerala,9.9312,76.2673,25.5,92,0.0,1010.7,7.5,30.6,53,15.7,13.6,16.8,251.0,27.0,5.0,7,0,4,1,2026-05-25T00:50:43.046534+05:30
Thiruvananthapuram,Kerala,8.5241,76.9366,24.6,92,0.0,1010.0,8.0,36.0,30,10.4,6.5,3.0,234.0,52.0,1.4,3,0,4,1,2026-05-25T00:50:43.046542+05:30
Kozhikode,Kerala,11.2588,75.7804,25.4,97,0.0,1009.7,8.15,31.7,29,12.0,8.1,2.7,622.0,57.0,1.6,7,0,4,1,2026-05-25T00:50:43.046548+05:30
Thrissur,Kerala,10.5276,76.2144,24.0,100,0.0,1009.2,8.2,33.8,57,16.1,14.8,21.9,456.0,16.0,5.7,3,0,4,1,2026-05-25T00:50:43.046556+05:30
Kannur,Kerala,11.8745,75.3704,26.2,93,0.0,1009.0,8.7,28.4,43,18.2,15.5,17.2,541.0,23.0,3.7,7,0,4,1,2026-05-25T00:50:43.046564+05:30
Patna,Bihar,25.5941,85.1376,30.1,72,0.0,995.6,8.8,32.4,158,65.4,55.9,13.1,452.0,106.0,17.3,3,5,7,1,2026-05-25T00:50:43.046571+05:30
Gaya,Bihar,24.7914,85.0002,29.6,58,0.0,988.9,8.9,30.6,160,260.8,104.8,53.3,602.0,29.0,18.3,4,5,7,1,2026-05-25T00:50:43.046577+05:30
Muzaffarpur,Bihar,26.1209,85.3647,28.4,77,0.0,996.2,8.85,33.1,155,69.2,57.7,14.2,493.0,97.0,16.2,7,5,7,1,2026-05-25T00:50:43.046585+05:30
Bhagalpur,Bihar,25.2425,87.0117,29.7,76,0.0,997.1,8.8,36.4,143,56.7,45.4,13.2,442.0,81.0,10.7,7,5,7,1,2026-05-25T00:50:43.046591+05:30
Ranchi,Jharkhand,23.3441,85.3096,26.6,49,0.0,934.4,9.3,49.3,142,172.8,68.5,23.2,303.0,67.0,9.1,4,5,7,0,2026-05-25T00:50:43.046598+05:30
Jamshedpur,Jharkhand,22.8046,86.2029,29.1,84,0.0,987.2,9.1,40.3,134,64.3,46.1,18.4,496.0,91.0,24.3,7,5,7,1,2026-05-25T00:50:43.046606+05:30
Dhanbad,Jharkhand,23.7957,86.4304,29.0,85,0.0,976.4,9.1,40.3,157,91.3,68.2,42.8,940.0,67.0,112.7,7,5,7,1,2026-05-25T00:50:43.046613+05:30
Bokaro,Jharkhand,23.6693,86.1511,28.8,68,0.0,979.9,9.1,40.0,160,233.8,100.6,53.1,1058.0,33.0,79.2,7,5,7,1,2026-05-25T00:50:43.046620+05:30
Bhubaneswar,Odisha,20.2961,85.8245,29.5,93,0.0,999.6,9.1,43.2,83,32.7,27.0,4.4,230.0,90.0,3.9,7,5,7,1,2026-05-25T00:50:43.046627+05:30
Cuttack,Odisha,20.4625,85.8828,29.6,92,0.0,1001.4,9.2,38.2,83,32.7,27.0,4.4,242.0,90.0,3.9,7,5,4,1,2026-05-25T00:50:43.046634+05:30
Rourkela,Odisha,22.2604,84.8536,29.8,82,0.0,981.4,9.0,46.4,151,170.4,87.5,38.7,252.0,47.0,23.1,7,5,7,1,2026-05-25T00:50:43.046641+05:30
Raipur,Chhattisgarh,21.2514,81.6296,34.5,32,0.0,970.9,8.95,42.1,130,88.5,62.6,49.4,596.0,26.0,44.3,0,5,7,0,2026-05-25T00:50:43.046648+05:30
Bhilai,Chhattisgarh,21.1938,81.3509,34.5,28,0.0,971.2,9.0,27.0,111,79.6,46.3,31.3,434.0,50.0,33.1,0,5,7,0,2026-05-25T00:50:43.046654+05:30
Guwahati,Assam,26.1158,91.7086,23.0,97,0.0,999.5,8.8,32.4,55,21.0,17.6,9.1,269.0,68.0,3.0,3,5,7,1,2026-05-25T00:50:43.046661+05:30
Agartala,Tripura,23.8315,91.2868,26.6,88,0.0,1004.7,8.8,48.6,64,16.2,12.5,8.3,190.0,60.0,2.7,7,5,4,1,2026-05-25T00:50:43.046668+05:30
Shillong,Meghalaya,25.5788,91.8933,19.5,92,0.0,855.6,8.45,43.6,43,5.2,2.8,4.1,187.0,89.0,2.6,3,10,7,1,2026-05-25T00:50:43.046676+05:30
Imphal,Manipur,24.817,93.9368,21.4,95,0.0,922.5,9.3,30.2,69,29.2,22.5,10.2,367.0,46.0,2.7,3,5,7,1,2026-05-25T00:50:43.046683+05:30
Aizawl,Mizoram,23.7271,92.7176,18.7,95,0.0,891.5,9.1,43.2,53,11.7,7.5,3.1,163.0,55.0,0.9,3,10,7,1,2026-05-25T00:50:43.046690+05:30
Kohima,Nagaland,25.6701,94.1077,16.9,86,0.0,853.0,9.25,33.5,58,25.7,16.0,8.8,220.0,38.0,1.4,3,10,7,0,2026-05-25T00:50:43.046697+05:30
Gangtok,Sikkim,27.3314,88.6138,14.9,95,0.1,835.6,9.2,40.0,71,48.5,27.2,13.2,430.0,80.0,2.4,6,10,7,0,2026-05-25T00:50:43.046704+05:30
Siliguri,West Bengal,26.7271,88.3953,23.5,95,0.0,990.9,8.7,30.6,91,54.0,32.1,9.4,407.0,107.0,4.3,3,5,7,1,2026-05-25T00:50:46.373875+05:30
Durgapur,West Bengal,23.5204,87.3119,28.6,94,0.0,991.5,9.0,39.2,147,40.5,37.5,19.2,385.0,70.0,28.2,7,5,7,1,2026-05-25T00:50:46.373913+05:30
Asansol,West Bengal,23.6739,86.9524,28.6,93,0.0,990.1,9.05,33.1,150,46.3,39.9,20.4,342.0,78.0,32.8,7,5,7,1,2026-05-25T00:50:46.373923+05:30
Pondicherry,Puducherry,11.9139,79.8145,28.2,79,0.0,1007.0,8.8,41.0,77,24.4,21.7,9.2,302.0,89.0,4.5,7,5,4,1,2026-05-25T00:50:46.373932+05:30
Port Blair,Andaman and Nicobar Islands,11.6234,92.7265,24.5,99,0.2,1008.1,8.65,32.8,27,9.3,5.4,0.2,103.0,63.0,0.3,6,0,4,1,2026-05-25T00:50:46.373940+05:30
Haridwar,Uttarakhand,29.9457,78.1642,26.9,43,0.0,967.7,7.5,30.2,81,60.1,36.8,21.2,232.0,62.0,10.5,4,5,7,0,2026-05-25T00:50:46.373947+05:30
Rishikesh,Uttarakhand,30.0869,78.2676,23.1,54,0.0,960.7,7.65,36.4,78,58.7,31.3,12.0,277.0,97.0,8.5,0,5,7,0,2026-05-25T00:50:46.373955+05:30
Nainital,Uttarakhand,29.3919,79.4542,17.5,41,0.0,803.7,8.45,47.9,88,129.0,39.8,13.7,213.0,83.0,5.1,0,5,7,0,2026-05-25T00:50:46.373962+05:30
Mussoorie,Uttarakhand,30.4599,78.0664,18.6,36,0.0,801.4,7.95,54.7,75,66.1,32.4,24.5,190.0,67.0,8.0,0,5,7,0,2026-05-25T00:50:46.373969+05:30
Dharamshala,Himachal Pradesh,32.219,76.3234,23.1,33,0.0,866.9,8.4,43.2,45,13.6,8.8,14.2,151.0,26.0,0.2,0,5,7,0,2026-05-25T00:50:46.373976+05:30
Dalhousie,Himachal Pradesh,32.5387,75.971,14.0,61,0.0,800.9,8.7,43.6,66,30.6,21.8,33.7,278.0,13.0,1.8,3,5,7,0,2026-05-25T00:50:46.373984+05:30
Patiala,Punjab,30.3398,76.3869,30.7,31,0.0,973.0,7.6,31.7,335,104.8,37.5,11.4,338.0,85.0,10.6,0,5,7,0,2026-05-25T00:50:46.373990+05:30
Bhatinda,Punjab,30.211,74.9455,31.5,33,0.0,978.7,8.25,30.2,121,146.2,69.8,30.3,326.0,43.0,9.3,0,5,7,0,2026-05-25T00:50:46.373997+05:30
Rohtak,Haryana,28.8955,76.6066,30.2,36,0.0,976.2,7.75,36.7,636,668.7,126.7,20.2,411.0,51.0,3.9,0,5,7,0,2026-05-25T00:50:46.374004+05:30
Panipat,Haryana,29.3909,76.9635,31.0,33,0.0,974.9,7.6,28.1,1358,705.9,155.5,48.0,561.0,22.0,11.7,0,5,7,0,2026-05-25T00:50:46.374010+05:30
Mathura,Uttar Pradesh,27.4924,77.6737,34.7,20,0.0,981.8,8.0,38.2,630,1944.6,240.3,6.7,153.0,74.0,3.6,0,5,7,0,2026-05-25T00:50:46.374017+05:30
Vrindavan,Uttar Pradesh,27.5823,77.7027,34.3,21,0.0,982.3,8.0,36.7,630,1944.6,240.3,6.7,152.0,74.0,3.6,0,5,7,0,2026-05-25T00:50:46.374023+05:30
Ayodhya,Uttar Pradesh,26.7922,82.1998,30.1,52,0.0,989.9,8.35,31.0,158,244.0,88.9,45.3,720.0,39.0,14.4,0,5,7,1,2026-05-25T00:50:46.374030+05:30
Ratlam,Madhya Pradesh,23.3315,75.0367,31.0,48,0.0,954.7,8.55,47.9,62,26.0,18.2,3.8,163.0,78.0,6.2,0,5,7,1,2026-05-25T00:50:46.374037+05:30
Sagar,Madhya Pradesh,23.8388,78.7378,32.2,24,0.0,947.7,8.75,41.0,89,65.2,32.6,9.9,199.0,61.0,3.9,0,5,7,0,2026-05-25T00:50:46.374043+05:30
Satna,Madhya Pradesh,24.6005,80.8322,31.9,32,0.0,967.3,8.35,48.6,100,49.2,27.2,14.5,243.0,62.0,4.1,0,5,7,0,2026-05-25T00:50:46.374049+05:30
Akola,Maharashtra,20.7002,77.0082,33.5,39,0.0,973.6,8.9,47.5,61,27.0,18.6,7.0,166.0,84.0,8.7,0,5,7,1,2026-05-25T00:50:46.374057+05:30
Amravati,Maharashtra,20.9374,77.7796,34.5,32,0.0,965.5,8.2,42.8,62,28.1,18.9,7.5,163.0,81.0,7.2,0,5,7,0,2026-05-25T00:50:46.374065+05:30
Latur,Maharashtra,18.4088,76.5604,29.5,53,0.0,939.5,9.05,36.7,57,13.6,11.7,8.6,148.0,71.0,3.8,4,5,7,1,2026-05-25T00:50:46.374072+05:30
Nanded,Maharashtra,19.1383,77.3091,33.4,32,0.0,966.8,8.95,37.1,59,28.5,20.0,13.1,253.0,61.0,4.0,0,5,7,0,2026-05-25T00:50:46.374078+05:30
Gulbarga,Karnataka,17.3297,76.8343,29.4,54,0.0,958.3,9.05,37.4,59,11.5,9.9,4.9,174.0,71.0,2.8,4,5,7,1,2026-05-25T00:50:46.374085+05:30
Bidar,Karnataka,17.9104,77.5199,29.8,45,0.0,934.7,9.1,41.4,66,25.4,20.5,17.3,219.0,57.0,5.2,4,5,7,1,2026-05-25T00:50:46.374091+05:30
Hospet,Karnataka,15.2689,76.3909,25.6,84,0.0,956.5,9.1,49.7,38,11.8,10.4,9.3,179.0,45.0,2.3,7,5,7,1,2026-05-25T00:50:46.374098+05:30
Tirupur,Tamil Nadu,11.1085,77.3411,25.0,85,0.0,975.9,9.1,51.1,48,17.4,15.2,17.2,168.0,31.0,5.0,7,5,7,1,2026-05-25T00:50:46.374104+05:30
Alappuzha,Kerala,9.4981,76.3388,25.5,96,0.0,1010.7,7.7,29.9,43,11.9,8.9,9.1,250.0,47.0,3.1,7,0,4,1,2026-05-25T00:50:46.374111+05:30
Munnar,Kerala,10.0889,77.0595,16.2,94,0.0,857.1,9.3,28.4,21,8.8,8.4,8.6,166.0,25.0,1.3,3,10,7,0,2026-05-25T00:50:46.374118+05:30
Silchar,Assam,24.8333,92.7789,24.0,99,0.1,1004.4,8.95,36.4,60,22.5,13.3,6.4,228.0,65.0,2.6,6,5,4,1,2026-05-25T00:50:46.374125+05:30
Dibrugarh,Assam,27.4728,94.912,22.4,97,0.4,993.8,8.95,30.2,59,23.0,14.1,8.7,227.0,65.0,1.4,6,5,7,1,2026-05-25T00:50:46.374131+05:30
