city,state,latitude,longitude,temp,humidity,rain,pressure,uv_index,wind_gusts,aqi,pm10,pm2_5,mosquito_risk,arthritis_risk,migraine_risk,frizz_risk,updated_at
Delhi,Delhi,28.6139,77.209,22.0,73,0.0,987.4,6.1,24.8,245,290.6,144.8,3,5,7,1,2026-03-11T03:02:19.078417+05:30
Mumbai,Maharashtra,19.076,72.8777,27.5,80,0.0,1009.7,7.6,19.1,120,35.9,35.2,7,0,4,1,2026-03-11T03:02:19.078457+05:30
Bangalore,Karnataka,12.9716,77.5946,19.1,88,0.0,913.0,9.25,20.9,88,23.2,21.7,3,10,7,1,2026-03-11T03:02:19.078472+05:30
Hyderabad,Telangana,17.385,78.4867,21.3,66,0.0,955.9,8.6,21.2,130,31.3,27.5,3,5,7,0,2026-03-11T03:02:19.078483+05:30
Chennai,Tamil Nadu,13.0827,80.2707,23.4,85,0.0,1011.0,9.0,28.4,72,27.0,21.8,3,0,4,1,2026-03-11T03:02:19.078492+05:30
Kolkata,West Bengal,22.5726,88.3639,23.7,96,0.0,1010.4,7.35,19.4,137,50.1,42.5,3,0,4,1,2026-03-11T03:02:19.078500+05:30
Pune,Maharashtra,18.5204,73.8567,20.5,66,0.0,949.9,8.15,33.8,77,34.3,31.4,3,5,7,0,2026-03-11T03:02:19.078512+05:30
Ahmedabad,Gujarat,23.0225,72.5714,23.8,43,0.0,1005.5,7.45,29.2,66,19.5,18.5,0,5,4,0,2026-03-11T03:02:19.078520+05:30
Jaipur,Rajasthan,26.9124,75.7873,24.5,24,0.0,963.8,6.8,37.8,122,123.9,43.5,0,5,7,0,2026-03-11T03:02:19.078528+05:30
Lucknow,Uttar Pradesh,26.8467,80.9462,24.0,82,0.0,997.7,6.6,28.8,186,171.8,143.9,3,5,7,1,2026-03-11T03:02:19.078535+05:30
Kanpur,Uttar Pradesh,26.4499,80.3319,22.8,78,0.0,996.0,6.65,22.0,177,206.8,133.6,3,5,7,1,2026-03-11T03:02:19.078543+05:30
Chandigarh,Chandigarh,30.7333,76.7794,21.8,78,0.0,972.5,5.4,18.4,152,75.0,65.7,3,5,3,1,2026-03-11T03:02:19.078550+05:30
Srinagar,Jammu and Kashmir,34.0837,74.7973,9.4,94,0.2,845.5,4.8,13.7,120,51.0,41.1,6,10,3,0,2026-03-11T03:02:19.078557+05:30
Jammu,Jammu and Kashmir,32.7266,74.857,20.2,58,0.0,976.6,5.8,37.8,113,43.7,38.2,0,5,3,0,2026-03-11T03:02:19.078565+05:30
Amritsar,Punjab,31.634,74.8723,20.5,92,0.0,984.5,6.4,22.0,158,129.9,81.7,3,5,7,1,2026-03-11T03:02:19.078572+05:30
Ludhiana,Punjab,30.901,75.8573,20.9,80,0.0,982.2,5.95,17.6,178,190.0,155.1,3,5,3,1,2026-03-11T03:02:19.078578+05:30
Jalandhar,Punjab,31.326,75.5762,21.1,84,0.0,983.3,5.85,18.7,171,213.3,153.2,3,5,3,1,2026-03-11T03:02:19.078587+05:30
Dehradun,Uttarakhand,30.6284,78.0322,13.5,83,0.0,832.7,5.85,29.5,82,27.7,22.2,3,10,3,0,2026-03-11T03:02:19.078593+05:30
Shimla,Himachal Pradesh,31.1048,77.1734,12.9,80,0.0,787.2,5.5,44.3,101,77.1,55.9,3,5,3,0,2026-03-11T03:02:19.078600+05:30
Manali,Himachal Pradesh,32.2396,77.1887,15.0,47,0.0,823.9,4.85,40.3,55,30.7,18.6,0,5,3,0,2026-03-11T03:02:19.078606+05:30
Gurgaon,Haryana,28.4595,77.0266,20.4,76,0.0,985.7,6.05,24.8,466,295.2,128.5,3,5,7,1,2026-03-11T03:02:19.078613+05:30
Noida,Uttar Pradesh,28.5355,77.391,21.2,78,0.0,988.9,6.15,24.5,466,295.2,128.5,3,5,7,1,2026-03-11T03:02:19.078620+05:30
Ghaziabad,Uttar Pradesh,28.6692,77.4538,19.9,84,0.0,986.9,6.1,22.7,179,244.9,140.2,3,10,7,1,2026-03-11T03:02:19.078626+05:30
Faridabad,Haryana,28.4089,77.3178,20.1,74,0.0,988.1,6.15,23.4,466,295.2,128.5,3,5,7,0,2026-03-11T03:02:19.078632+05:30
Meerut,Uttar Pradesh,28.9845,77.7064,20.3,86,0.0,985.5,5.45,27.7,179,244.9,140.2,3,5,3,1,2026-03-11T03:02:19.078638+05:30
Agra,Uttar Pradesh,27.1767,78.0081,20.4,80,0.0,992.0,6.5,20.5,255,407.9,140.2,3,5,7,1,2026-03-11T03:02:19.078644+05:30
Varanasi,Uttar Pradesh,25.3176,82.9739,23.1,91,0.0,1001.7,7.3,23.4,188,162.1,153.7,3,5,4,1,2026-03-11T03:02:19.078653+05:30
Prayagraj,Uttar Pradesh,25.4358,81.8463,23.6,84,0.0,1000.2,7.15,21.6,183,140.2,133.6,3,5,4,1,2026-03-11T03:02:19.078659+05:30
Gorakhpur,Uttar Pradesh,26.7606,83.3732,22.3,89,0.0,1001.3,7.0,28.1,185,190.9,177.0,3,5,4,1,2026-03-11T03:02:19.078666+05:30
Bareilly,Uttar Pradesh,28.367,79.4304,20.5,90,0.0,990.6,6.35,28.1,188,188.6,167.2,3,5,7,1,2026-03-11T03:02:19.078672+05:30
Aligarh,Uttar Pradesh,27.8974,78.088,19.7,83,0.0,989.9,6.25,24.8,189,456.3,170.4,3,10,7,1,2026-03-11T03:02:19.078678+05:30
Moradabad,Uttar Pradesh,28.8386,78.7733,20.9,87,0.0,987.5,6.15,31.3,188,210.5,176.0,3,5,7,1,2026-03-11T03:02:19.078684+05:30
Saharanpur,Uttar Pradesh,29.9637,77.546,20.0,95,0.0,979.6,5.25,30.2,166,154.6,123.4,3,5,3,1,2026-03-11T03:02:19.078692+05:30
Jhansi,Uttar Pradesh,25.4484,78.5685,21.8,51,0.0,982.0,7.1,26.6,108,154.6,44.7,0,5,7,0,2026-03-11T03:02:22.432753+05:30
Surat,Gujarat,21.1702,72.8311,26.4,49,0.0,1008.5,7.3,23.8,107,33.1,31.4,4,0,4,0,2026-03-11T03:02:22.432784+05:30
Vadodara,Gujarat,22.3072,73.1812,26.0,37,0.0,1006.9,7.45,29.2,71,26.4,25.2,4,5,4,0,2026-03-11T03:02:22.432794+05:30
Rajkot,Gujarat,22.3039,70.8022,24.7,48,0.0,997.7,7.3,31.7,65,22.1,20.9,0,5,7,0,2026-03-11T03:02:22.432803+05:30
Thane,Maharashtra,19.2183,72.9781,24.9,84,0.0,1009.2,7.6,34.6,120,35.9,35.2,3,0,4,1,2026-03-11T03:02:22.432812+05:30
Nagpur,Maharashtra,21.1458,79.0882,21.3,65,0.0,975.5,8.0,12.6,82,29.5,24.1,3,5,7,0,2026-03-11T03:02:22.432820+05:30
Nashik,Maharashtra,19.9975,73.7898,23.6,45,0.0,947.3,7.8,20.5,60,21.9,19.0,0,5,7,0,2026-03-11T03:02:22.432829+05:30
Aurangabad,Maharashtra,19.8762,75.3433,22.1,60,0.0,946.0,8.3,19.8,76,38.5,34.0,0,5,7,0,2026-03-11T03:02:22.432837+05:30
Solapur,Maharashtra,17.6599,75.9064,23.9,69,0.0,959.6,8.5,17.3,119,54.4,48.4,3,5,7,1,2026-03-11T03:02:22.432846+05:30
Kolhapur,Maharashtra,16.705,74.2433,21.7,87,0.0,949.8,8.65,32.8,131,67.1,60.1,3,5,7,1,2026-03-11T03:02:22.432854+05:30
Goa,Goa,15.2993,74.124,27.0,94,0.0,999.8,8.65,39.2,149,72.9,64.7,7,5,7,1,2026-03-11T03:02:22.432862+05:30
Jodhpur,Rajasthan,26.2389,73.0243,22.8,32,0.0,987.4,7.15,32.4,80,54.0,20.4,0,5,7,0,2026-03-11T03:02:22.432870+05:30
Udaipur,Rajasthan,24.5854,73.7125,19.7,41,0.0,950.4,7.8,27.7,44,16.8,12.9,0,5,7,0,2026-03-11T03:02:22.432878+05:30
Kota,Rajasthan,25.2138,75.8648,19.0,61,0.0,982.2,7.2,18.0,76,74.3,29.0,3,5,7,0,2026-03-11T03:02:22.432885+05:30
Bikaner,Rajasthan,28.0229,73.3119,23.4,33,0.0,985.8,6.0,31.3,70,165.8,42.8,0,5,3,0,2026-03-11T03:02:22.432893+05:30
Ajmer,Rajasthan,26.4499,74.6399,23.2,29,0.0,958.4,7.1,32.4,71,41.3,24.8,0,5,7,0,2026-03-11T03:02:22.432901+05:30
Gwalior,Madhya Pradesh,26.2183,78.1828,23.0,57,0.0,987.4,6.8,31.3,135,272.9,64.3,0,5,7,0,2026-03-11T03:02:22.432908+05:30
Indore,Madhya Pradesh,22.7196,75.8577,19.1,52,0.0,950.2,7.7,23.8,63,30.2,20.8,0,5,7,0,2026-03-11T03:02:22.432916+05:30
Bhopal,Madhya Pradesh,23.2599,77.4126,21.8,40,0.0,956.2,7.6,25.9,52,31.5,21.1,0,5,7,0,2026-03-11T03:02:22.432923+05:30
Jabalpur,Madhya Pradesh,23.1815,79.9864,22.4,64,0.0,964.4,7.7,19.4,84,53.6,29.6,3,5,7,0,2026-03-11T03:02:22.432931+05:30
Ujjain,Madhya Pradesh,23.1765,75.7885,21.3,45,0.0,956.4,7.65,14.4,80,39.9,29.0,0,5,7,0,2026-03-11T03:02:22.432939+05:30
Visakhapatnam,Andhra Pradesh,17.6868,83.2185,23.2,90,0.0,1007.6,8.6,39.2,116,35.2,31.1,3,5,4,1,2026-03-11T03:02:22.432947+05:30
Vijayawada,Andhra Pradesh,16.5062,80.648,21.3,93,0.0,1006.8,8.7,18.7,116,37.8,34.5,3,5,4,1,2026-03-11T03:02:22.432955+05:30
Guntur,Andhra Pradesh,16.3067,80.4365,20.9,92,0.0,1008.0,8.7,19.1,108,32.2,29.7,3,0,4,1,2026-03-11T03:02:22.432962+05:30
Nellore,Andhra Pradesh,14.4426,79.9865,22.3,88,0.0,1009.7,8.9,27.0,80,23.3,19.5,3,0,4,1,2026-03-11T03:02:22.432971+05:30
Kurnool,Andhra Pradesh,15.8281,78.0373,23.0,60,0.0,979.9,8.7,19.4,95,18.5,15.8,0,5,7,0,2026-03-11T03:02:22.432979+05:30
Kakinada,Andhra Pradesh,16.9891,82.2475,21.2,92,0.0,1011.8,8.65,19.4,101,33.8,29.1,3,0,4,1,2026-03-11T03:02:22.432987+05:30
Tirupati,Andhra Pradesh,13.6288,79.4192,19.9,78,0.0,995.3,9.0,28.4,102,39.9,37.3,3,5,7,0,2026-03-11T03:02:22.432994+05:30
Warangal,Telangana,17.9689,79.5941,23.5,65,0.0,981.7,8.45,20.5,130,29.2,27.5,3,5,7,1,2026-03-11T03:02:22.433001+05:30
Nizamabad,Telangana,18.6725,78.0941,24.1,66,0.0,967.3,8.35,25.6,132,54.2,48.9,3,5,7,1,2026-03-11T03:02:22.433009+05:30
Mysore,Karnataka,12.2958,76.6396,20.6,73,0.0,929.6,9.25,28.1,89,18.2,17.4,3,5,7,0,2026-03-11T03:02:22.433034+05:30
Mangalore,Karnataka,12.9141,74.856,28.6,78,0.0,1008.1,8.9,31.0,109,46.7,40.5,7,0,4,1,2026-03-11T03:02:22.433042+05:30
Hubli-Dharwad,Karnataka,15.3647,75.124,22.9,49,0.0,942.4,8.85,32.0,125,48.8,42.7,0,5,7,0,2026-03-11T03:02:22.433050+05:30
Belgaum,Karnataka,15.8497,74.4977,21.4,70,0.0,927.0,8.9,43.2,123,57.9,49.7,3,5,7,0,2026-03-11T03:02:25.785105+05:30
Coimbatore,Tamil Nadu,11.0168,76.9558,22.4,80,0.0,964.4,9.25,40.0,90,19.0,18.3,3,5,7,1,2026-03-11T03:02:25.785139+05:30
Madurai,Tamil Nadu,9.9252,78.1198,23.9,85,0.0,995.9,8.3,29.2,84,19.0,18.0,3,5,7,1,2026-03-11T03:02:25.785153+05:30
Trichy,Tamil Nadu,10.7905,78.7047,23.5,96,0.0,1002.9,9.15,25.9,80,22.7,19.3,3,5,4,1,2026-03-11T03:02:25.785162+05:30
Salem,Tamil Nadu,11.6643,78.146,22.6,86,0.0,980.2,9.15,22.3,95,25.6,23.7,3,5,7,1,2026-03-11T03:02:25.785171+05:30
Tirunelveli,Tamil Nadu,8.7139,77.7567,24.6,85,0.0,1006.1,6.45,25.2,71,9.9,9.1,3,5,4,1,2026-03-11T03:02:25.785178+05:30
Vellore,Tamil Nadu,12.9165,79.1325,20.2,90,0.0,988.3,9.1,31.7,112,45.1,40.5,3,5,7,1,2026-03-11T03:02:25.785186+05:30
Erode,Tamil Nadu,11.341,77.7172,23.6,91,0.0,992.2,9.15,20.9,92,19.6,18.2,3,5,7,1,2026-03-11T03:02:25.785194+05:30
Kochi,Kerala,9.9312,76.2673,26.9,83,0.0,1010.1,9.1,33.8,148,64.0,60.8,7,0,4,1,2026-03-11T03:02:25.785202+05:30
Thiruvananthapuram,Kerala,8.5241,76.9366,27.9,73,0.0,1008.8,6.45,26.3,92,19.8,17.3,7,0,4,1,2026-03-11T03:02:25.785210+05:30
Kozhikode,Kerala,11.2588,75.7804,27.7,79,0.0,1009.1,8.95,31.7,114,53.9,44.1,7,0,4,1,2026-03-11T03:02:25.785217+05:30
Thrissur,Kerala,10.5276,76.2144,25.6,89,0.0,1008.5,8.95,37.8,123,56.8,53.1,7,0,4,1,2026-03-11T03:02:25.785225+05:30
Kannur,Kerala,11.8745,75.3704,27.0,84,0.0,1008.3,8.95,34.6,112,55.1,48.5,7,0,4,1,2026-03-11T03:02:25.785233+05:30
Patna,Bihar,25.5941,85.1376,25.0,84,0.0,1004.6,7.3,24.8,175,139.7,131.8,7,5,4,1,2026-03-11T03:02:25.785240+05:30
Gaya,Bihar,24.7914,85.0002,22.6,95,0.0,998.1,7.5,21.2,170,135.5,125.7,3,5,7,1,2026-03-11T03:02:25.785249+05:30
Muzaffarpur,Bihar,26.1209,85.3647,22.9,90,0.0,1004.6,7.4,20.9,182,171.4,162.5,3,5,4,1,2026-03-11T03:02:25.785257+05:30
Bhagalpur,Bihar,25.2425,87.0117,23.9,89,0.0,1005.4,7.45,17.6,163,65.0,60.5,3,5,4,1,2026-03-11T03:02:25.785264+05:30
Ranchi,Jharkhand,23.3441,85.3096,20.6,93,0.0,941.3,8.15,29.2,162,115.9,102.0,3,5,7,1,2026-03-11T03:02:25.785272+05:30
Jamshedpur,Jharkhand,22.8046,86.2029,23.3,90,0.0,995.0,8.05,28.4,150,71.9,61.7,3,5,7,1,2026-03-11T03:02:25.785279+05:30
Dhanbad,Jharkhand,23.7957,86.4304,22.8,91,0.0,983.9,7.95,23.8,171,150.9,140.2,3,5,7,1,2026-03-11T03:02:25.785287+05:30
Bokaro,Jharkhand,23.6693,86.1511,22.4,92,0.0,988.1,7.95,29.5,180,193.2,179.3,3,5,7,1,2026-03-11T03:02:25.785294+05:30
Bhubaneswar,Odisha,20.2961,85.8245,23.4,93,0.0,1006.4,8.35,28.1,118,39.3,34.3,3,5,4,1,2026-03-11T03:02:25.785307+05:30
Cuttack,Odisha,20.4625,85.8828,23.6,92,0.0,1008.5,8.4,30.2,118,39.3,34.3,3,0,4,1,2026-03-11T03:02:25.785315+05:30
Rourkela,Odisha,22.2604,84.8536,23.5,83,0.0,989.1,7.95,25.6,158,90.6,81.7,3,5,7,1,2026-03-11T03:02:25.785322+05:30
Raipur,Chhattisgarh,21.2514,81.6296,24.6,58,0.0,977.6,8.05,20.9,154,81.7,68.2,0,5,7,0,2026-03-11T03:02:25.785329+05:30
Bhilai,Chhattisgarh,21.1938,81.3509,23.0,66,0.0,978.0,8.05,17.3,151,70.8,57.6,3,5,7,1,2026-03-11T03:02:25.785337+05:30
Guwahati,Assam,26.1158,91.7086,23.0,86,0.0,1005.3,7.35,14.4,154,50.5,46.0,3,5,4,1,2026-03-11T03:02:25.785344+05:30
Agartala,Tripura,23.8315,91.2868,20.8,90,0.0,1010.1,7.7,20.2,169,95.2,88.5,3,0,4,1,2026-03-11T03:02:25.785352+05:30
Shillong,Meghalaya,25.5788,91.8933,10.9,87,0.0,857.0,6.8,17.6,138,46.8,42.8,3,10,7,0,2026-03-11T03:02:25.785360+05:30
Imphal,Manipur,24.817,93.9368,15.8,85,0.0,926.0,7.95,46.1,153,78.5,75.4,3,10,7,0,2026-03-11T03:02:25.785368+05:30
Aizawl,Mizoram,23.7271,92.7176,16.1,76,0.0,894.6,7.9,30.6,122,39.1,33.6,3,5,7,0,2026-03-11T03:02:25.785375+05:30
Kohima,Nagaland,25.6701,94.1077,14.2,79,0.0,857.1,7.0,39.6,133,50.1,47.4,3,5,7,0,2026-03-11T03:02:25.785382+05:30
Gangtok,Sikkim,27.3314,88.6138,14.0,78,0.0,839.5,6.45,20.5,144,59.4,51.1,3,5,7,0,2026-03-11T03:02:25.785390+05:30
Siliguri,West Bengal,26.7271,88.3953,20.8,69,0.0,998.2,7.4,20.9,163,120.1,107.3,3,5,7,0,2026-03-11T03:02:29.143089+05:30
Durgapur,West Bengal,23.5204,87.3119,22.6,89,0.0,999.2,7.9,22.0,154,87.3,79.9,3,5,7,1,2026-03-11T03:02:29.143120+05:30
Asansol,West Bengal,23.6739,86.9524,22.9,89,0.0,997.8,7.95,19.4,159,96.9,88.2,3,5,7,1,2026-03-11T03:02:29.143130+05:30
Pondicherry,Puducherry,11.9139,79.8145,22.3,93,0.0,1011.9,9.0,28.1,65,23.0,17.3,3,0,4,1,2026-03-11T03:02:29.143138+05:30
Port Blair,Andaman and Nicobar Islands,11.6234,92.7265,27.4,82,0.0,1009.1,8.95,20.2,69,26.5,21.9,7,0,4,1,2026-03-11T03:02:29.143147+05:30
Haridwar,Uttarakhand,29.9457,78.1642,21.2,92,0.0,978.4,5.6,35.3,158,89.4,76.6,3,5,3,1,2026-03-11T03:02:29.143156+05:30
Rishikesh,Uttarakhand,30.0869,78.2676,20.7,86,0.0,971.4,5.75,34.2,155,89.4,69.6,3,5,3,1,2026-03-11T03:02:29.143163+05:30
Nainital,Uttarakhand,29.3919,79.4542,17.2,77,0.0,808.6,6.8,67.3,176,114.1,94.5,3,5,7,0,2026-03-11T03:02:29.143172+05:30
Mussoorie,Uttarakhand,30.4599,78.0664,15.5,88,0.0,805.5,5.65,40.7,153,76.4,63.6,3,10,3,0,2026-03-11T03:02:29.143180+05:30
Dharamshala,Himachal Pradesh,32.219,76.3234,20.8,34,0.0,873.0,4.7,22.0,55,23.1,12.9,0,5,3,0,2026-03-11T03:02:29.143188+05:30
Dalhousie,Himachal Pradesh,32.5387,75.971,18.0,23,0.0,807.3,5.2,23.4,87,42.7,31.5,0,5,3,1,2026-03-11T03:02:29.143197+05:30
Patiala,Punjab,30.3398,76.3869,20.1,83,0.0,981.8,5.35,18.7,172,149.9,118.5,3,5,3,1,2026-03-11T03:02:29.143205+05:30
Bhatinda,Punjab,30.211,74.9455,20.3,73,0.0,987.5,6.1,22.3,153,127.1,75.9,3,5,7,0,2026-03-11T03:02:29.143213+05:30
Rohtak,Haryana,28.8955,76.6066,18.5,81,0.0,985.9,6.15,25.9,275,278.5,132.2,3,10,7,0,2026-03-11T03:02:29.143221+05:30
Panipat,Haryana,29.3909,76.9635,19.6,79,0.0,984.5,5.6,23.8,227,265.4,136.4,3,5,3,0,2026-03-11T03:02:29.143229+05:30
Mathura,Uttar Pradesh,27.4924,77.6737,17.6,90,0.0,991.2,6.4,24.1,324,370.7,116.2,3,10,7,0,2026-03-11T03:02:29.143239+05:30
Vrindavan,Uttar Pradesh,27.5823,77.7027,18.7,81,0.0,991.6,6.35,25.6,324,370.7,116.2,3,10,7,0,2026-03-11T03:02:29.143247+05:30
Ayodhya,Uttar Pradesh,26.7922,82.1998,24.1,86,0.0,999.6,6.8,26.6,188,156.0,145.8,3,5,7,1,2026-03-11T03:02:29.143254+05:30
Ratlam,Madhya Pradesh,23.3315,75.0367,17.7,71,0.0,956.8,7.6,23.8,68,37.3,27.1,3,5,7,0,2026-03-11T03:02:29.143263+05:30
Sagar,Madhya Pradesh,23.8388,78.7378,23.6,48,0.0,953.3,7.55,26.3,62,73.3,24.7,0,5,7,0,2026-03-11T03:02:29.143271+05:30
Satna,Madhya Pradesh,24.6005,80.8322,22.1,78,0.0,975.3,7.55,33.5,152,120.6,81.5,3,5,7,1,2026-03-11T03:02:29.143279+05:30
Akola,Maharashtra,20.7002,77.0082,24.9,49,0.0,977.2,8.0,16.6,69,35.3,29.0,0,5,7,0,2026-03-11T03:02:29.143287+05:30
Amravati,Maharashtra,20.9374,77.7796,21.9,64,0.0,969.1,8.0,13.7,70,37.8,31.2,3,5,7,0,2026-03-11T03:02:29.143299+05:30
Latur,Maharashtra,18.4088,76.5604,22.4,68,0.0,941.9,8.45,21.2,108,47.0,41.4,3,5,7,1,2026-03-11T03:02:29.143307+05:30
Nanded,Maharashtra,19.1383,77.3091,24.6,59,0.0,970.9,8.2,21.6,121,53.2,47.4,0,5,7,0,2026-03-11T03:02:29.143314+05:30
Gulbarga,Karnataka,17.3297,76.8343,24.6,60,0.0,961.5,8.5,19.1,128,41.7,38.2,0,5,7,1,2026-03-11T03:02:29.143322+05:30
Bidar,Karnataka,17.9104,77.5199,22.4,68,0.0,937.7,8.5,22.3,132,49.0,44.4,3,5,7,1,2026-03-11T03:02:29.143332+05:30
Hospet,Karnataka,15.2689,76.3909,24.6,50,0.0,958.0,8.85,22.3,113,23.2,20.7,0,5,7,0,2026-03-11T03:02:29.143340+05:30
Tirupur,Tamil Nadu,11.1085,77.3411,23.3,84,0.0,978.3,9.3,29.2,99,22.8,21.5,3,5,7,1,2026-03-11T03:02:29.143348+05:30
Alappuzha,Kerala,9.4981,76.3388,28.9,66,0.0,1009.8,8.85,33.5,141,57.6,48.1,7,0,4,1,2026-03-11T03:02:29.143355+05:30
Munnar,Kerala,10.0889,77.0595,19.1,86,0.0,856.8,5.55,25.2,84,16.1,15.7,3,10,3,1,2026-03-11T03:02:29.143363+05:30
Silchar,Assam,24.8333,92.7789,22.1,87,0.0,1008.8,7.65,15.8,161,87.3,80.3,3,0,4,1,2026-03-11T03:02:29.143371+05:30
Dibrugarh,Assam,27.4728,94.912,22.5,81,0.0,999.8,7.45,26.6,161,51.2,47.3,3,5,7,1,2026-03-11T03:02:29.143378+05:30
