city,state,latitude,longitude,temp,humidity,rain,pressure,uv_index,wind_gusts,aqi,pm10,pm2_5,no2,co,o3,so2,mosquito_risk,arthritis_risk,migraine_risk,frizz_risk,updated_at
Delhi,Delhi,28.6139,77.209,30.2,69,0.0,978.6,7.7,36.7,344,637.0,186.7,64.4,623.0,9.0,21.2,3,5,7,1,2026-07-16T01:41:44.118816+05:30
Mumbai,Maharashtra,19.076,72.8777,24.5,95,0.2,1007.9,7.15,34.6,68,36.4,14.8,8.2,161.0,44.0,7.6,6,5,4,1,2026-07-16T01:41:44.118877+05:30
Bangalore,Karnataka,12.9716,77.5946,21.6,82,0.0,911.5,7.95,42.1,58,15.9,12.0,14.2,218.0,47.0,4.8,3,5,7,1,2026-07-16T01:41:44.118895+05:30
Hyderabad,Telangana,17.385,78.4867,26.0,70,0.0,951.9,4.95,42.1,69,18.6,11.7,8.4,201.0,53.0,4.7,7,5,3,1,2026-07-16T01:41:44.118906+05:30
Chennai,Tamil Nadu,13.0827,80.2707,29.6,78,0.0,1004.7,8.75,37.8,84,28.8,20.3,11.4,235.0,73.0,9.9,7,5,4,1,2026-07-16T01:41:44.118917+05:30
Kolkata,West Bengal,22.5726,88.3639,27.2,89,0.0,998.9,6.9,49.0,85,23.7,20.7,13.3,274.0,62.0,8.5,7,5,7,1,2026-07-16T01:41:44.118927+05:30
Pune,Maharashtra,18.5204,73.8567,23.2,88,0.0,947.2,8.15,38.5,48,11.6,7.3,9.2,164.0,37.0,7.5,3,5,7,1,2026-07-16T01:41:44.118936+05:30
Ahmedabad,Gujarat,23.0225,72.5714,27.9,75,0.0,999.6,7.0,36.7,65,34.7,21.7,18.9,236.0,28.0,5.7,7,5,7,1,2026-07-16T01:41:44.118945+05:30
Jaipur,Rajasthan,26.9124,75.7873,29.5,59,0.0,956.3,4.35,37.1,277,521.5,89.2,12.8,215.0,49.0,5.0,4,5,3,1,2026-07-16T01:41:44.118953+05:30
Lucknow,Uttar Pradesh,26.8467,80.9462,29.4,90,0.0,988.4,7.6,36.0,158,85.0,51.3,17.7,381.0,70.0,7.0,7,5,7,1,2026-07-16T01:41:44.118968+05:30
Kanpur,Uttar Pradesh,26.4499,80.3319,29.5,77,0.0,986.9,7.15,33.5,156,99.0,59.3,27.0,276.0,42.0,6.1,7,5,7,1,2026-07-16T01:41:44.118976+05:30
Chandigarh,Chandigarh,30.7333,76.7794,27.5,77,0.0,964.3,7.7,30.2,162,104.3,89.6,37.7,792.0,64.0,14.6,7,5,7,1,2026-07-16T01:41:44.118984+05:30
Srinagar,Jammu and Kashmir,34.0837,74.7973,19.3,88,0.0,838.8,9.0,16.6,89,51.1,45.8,38.3,765.0,13.0,2.9,3,10,7,1,2026-07-16T01:41:44.118993+05:30
Jammu,Jammu and Kashmir,32.7266,74.857,25.5,86,0.0,968.0,8.55,22.0,151,73.6,65.2,55.1,681.0,12.0,4.9,7,5,7,1,2026-07-16T01:41:44.119000+05:30
Amritsar,Punjab,31.634,74.8723,28.2,85,0.0,976.0,8.15,18.7,185,177.9,139.2,82.0,876.0,9.0,14.6,7,5,7,1,2026-07-16T01:41:44.119009+05:30
Ludhiana,Punjab,30.901,75.8573,29.3,75,0.0,974.0,7.9,30.6,182,163.9,90.1,43.5,963.0,26.0,7.0,7,5,7,1,2026-07-16T01:41:44.119015+05:30
Jalandhar,Punjab,31.326,75.5762,28.0,82,0.0,975.0,8.15,25.6,185,189.5,119.2,65.8,907.0,17.0,9.3,7,5,7,1,2026-07-16T01:41:44.119022+05:30
Dehradun,Uttarakhand,30.6284,78.0322,17.9,100,0.0,828.5,7.5,28.8,94,58.7,44.5,15.9,365.0,80.0,0.5,3,10,7,1,2026-07-16T01:41:44.119029+05:30
Shimla,Himachal Pradesh,31.1048,77.1734,14.4,94,0.0,782.0,8.25,35.6,103,72.4,57.7,13.9,440.0,86.0,2.9,3,10,7,0,2026-07-16T01:41:44.119038+05:30
Manali,Himachal Pradesh,32.2396,77.1887,19.2,77,0.0,818.1,9.5,32.4,47,13.9,10.9,17.8,271.0,81.0,0.0,3,5,7,0,2026-07-16T01:41:44.119048+05:30
Gurgaon,Haryana,28.4595,77.0266,29.6,68,0.0,977.0,7.75,35.6,372,707.8,167.6,28.3,380.0,38.0,10.6,7,5,7,1,2026-07-16T01:41:44.119056+05:30
Noida,Uttar Pradesh,28.5355,77.391,29.0,76,0.0,979.7,7.7,25.6,372,707.8,167.6,28.3,540.0,38.0,10.6,7,5,7,1,2026-07-16T01:41:44.119065+05:30
Ghaziabad,Uttar Pradesh,28.6692,77.4538,29.6,71,0.0,978.0,7.5,29.2,192,510.4,180.7,76.2,1435.0,1.0,26.1,7,5,7,1,2026-07-16T01:41:44.119073+05:30
Faridabad,Haryana,28.4089,77.3178,29.6,72,0.0,979.2,7.7,36.4,372,707.8,167.6,28.3,505.0,38.0,10.6,7,5,7,1,2026-07-16T01:41:44.119080+05:30
Meerut,Uttar Pradesh,28.9845,77.7064,29.1,76,0.0,976.7,7.6,33.8,192,510.4,180.7,76.2,972.0,1.0,26.1,7,5,7,1,2026-07-16T01:41:44.119088+05:30
Agra,Uttar Pradesh,27.1767,78.0081,29.2,70,0.0,983.3,8.0,32.4,151,93.8,47.4,18.3,227.0,50.0,5.8,7,5,7,1,2026-07-16T01:41:44.119096+05:30
Varanasi,Uttar Pradesh,25.3176,82.9739,29.8,84,0.0,992.0,6.05,26.3,170,76.8,46.4,14.0,720.0,75.0,8.2,7,5,7,1,2026-07-16T01:41:44.119103+05:30
Prayagraj,Uttar Pradesh,25.4358,81.8463,29.9,86,0.0,990.7,6.95,27.4,164,94.3,55.8,19.4,286.0,59.0,7.4,7,5,7,1,2026-07-16T01:41:44.119110+05:30
Gorakhpur,Uttar Pradesh,26.7606,83.3732,26.5,97,0.1,993.1,6.95,28.8,141,56.6,40.2,15.3,533.0,79.0,4.7,10,5,7,1,2026-07-16T01:41:44.119117+05:30
Bareilly,Uttar Pradesh,28.367,79.4304,28.8,88,0.0,981.9,7.45,30.6,165,114.8,76.1,24.5,529.0,64.0,10.6,7,5,7,1,2026-07-16T01:41:44.119126+05:30
Aligarh,Uttar Pradesh,27.8974,78.088,28.7,72,0.0,980.8,7.6,27.4,171,457.3,122.9,19.7,281.0,48.0,5.9,7,5,7,1,2026-07-16T01:41:44.119133+05:30
Moradabad,Uttar Pradesh,28.8386,78.7733,28.2,91,0.1,979.4,7.8,34.2,178,315.7,160.2,65.1,732.0,21.0,21.2,10,5,7,1,2026-07-16T01:41:44.119140+05:30
Saharanpur,Uttar Pradesh,29.9637,77.546,27.7,92,0.0,971.1,7.4,31.3,184,316.6,162.1,72.2,703.0,17.0,19.6,7,5,7,1,2026-07-16T01:41:44.119147+05:30
Jhansi,Uttar Pradesh,25.4484,78.5685,28.8,74,0.0,974.1,7.55,35.3,113,64.5,36.2,13.0,169.0,54.0,7.1,7,5,7,1,2026-07-16T01:41:47.375696+05:30
Surat,Gujarat,21.1702,72.8311,26.4,93,0.0,1004.7,7.7,40.3,68,29.8,18.3,19.7,241.0,29.0,29.5,7,5,4,1,2026-07-16T01:41:47.375736+05:30
Vadodara,Gujarat,22.3072,73.1812,27.2,85,0.0,1001.9,5.55,40.3,62,18.8,12.8,16.7,178.0,29.0,17.1,7,5,0,1,2026-07-16T01:41:47.375747+05:30
Rajkot,Gujarat,22.3039,70.8022,26.9,84,0.0,991.6,6.5,37.1,58,23.2,12.5,6.7,107.0,34.0,4.4,7,5,7,1,2026-07-16T01:41:47.375757+05:30
Thane,Maharashtra,19.2183,72.9781,25.3,93,0.0,1007.2,6.2,36.7,68,36.4,14.8,8.2,187.0,44.0,7.6,7,5,4,1,2026-07-16T01:41:47.375766+05:30
Nagpur,Maharashtra,21.1458,79.0882,27.8,70,0.0,970.0,6.8,40.3,94,50.3,31.0,18.6,276.0,35.0,9.3,7,5,7,1,2026-07-16T01:41:47.375774+05:30
Nashik,Maharashtra,19.9975,73.7898,22.9,94,0.0,944.0,7.75,41.4,51,10.8,7.2,12.7,154.0,33.0,14.3,3,5,7,1,2026-07-16T01:41:47.375782+05:30
Aurangabad,Maharashtra,19.8762,75.3433,23.5,86,0.0,943.0,8.95,42.1,52,13.9,8.2,10.4,179.0,40.0,10.8,3,5,7,1,2026-07-16T01:41:47.375789+05:30
Solapur,Maharashtra,17.6599,75.9064,25.9,72,0.0,956.9,8.55,37.8,58,13.4,9.3,9.1,172.0,36.0,2.8,7,5,7,1,2026-07-16T01:41:47.375797+05:30
Kolhapur,Maharashtra,16.705,74.2433,22.4,92,0.0,947.7,7.75,43.6,51,16.6,8.8,4.3,132.0,44.0,2.4,3,5,7,1,2026-07-16T01:41:47.375805+05:30
Goa,Goa,15.2993,74.124,24.9,94,0.1,998.9,8.4,30.6,75,42.1,24.3,6.3,241.0,41.0,2.4,6,5,7,1,2026-07-16T01:41:47.375812+05:30
Jodhpur,Rajasthan,26.2389,73.0243,29.8,58,0.0,979.4,8.4,35.6,133,123.9,33.8,8.4,130.0,45.0,2.4,4,5,7,1,2026-07-16T01:41:47.375818+05:30
Udaipur,Rajasthan,24.5854,73.7125,24.8,75,0.0,943.6,8.55,30.2,67,39.3,22.5,10.8,143.0,53.0,10.3,3,5,7,1,2026-07-16T01:41:47.375825+05:30
Kota,Rajasthan,25.2138,75.8648,29.3,62,0.0,975.5,8.3,31.7,89,31.4,19.1,8.5,182.0,66.0,6.5,7,5,7,1,2026-07-16T01:41:47.375832+05:30
Bikaner,Rajasthan,28.0229,73.3119,31.5,49,0.0,977.4,8.45,34.2,152,169.5,48.1,3.1,113.0,59.0,3.2,0,5,7,1,2026-07-16T01:41:47.375840+05:30
Ajmer,Rajasthan,26.4499,74.6399,27.8,62,0.0,951.6,8.35,41.4,87,26.3,14.5,9.5,163.0,51.0,4.5,7,5,7,1,2026-07-16T01:41:47.375847+05:30
Gwalior,Madhya Pradesh,26.2183,78.1828,28.3,76,0.0,979.0,6.25,36.0,138,79.9,38.9,11.7,152.0,52.0,3.2,7,5,7,1,2026-07-16T01:41:47.375855+05:30
Indore,Madhya Pradesh,22.7196,75.8577,25.0,79,0.0,946.3,7.75,37.1,64,21.4,16.2,8.6,214.0,59.0,10.4,7,5,7,1,2026-07-16T01:41:47.375862+05:30
Bhopal,Madhya Pradesh,23.2599,77.4126,26.7,73,0.0,950.8,8.6,34.2,82,31.3,21.5,11.1,367.0,52.0,4.9,7,5,7,1,2026-07-16T01:41:47.375869+05:30
Jabalpur,Madhya Pradesh,23.1815,79.9864,26.4,78,0.0,957.9,8.75,36.4,108,73.8,37.6,8.3,247.0,57.0,4.4,7,5,7,1,2026-07-16T01:41:47.375876+05:30
Ujjain,Madhya Pradesh,23.1765,75.7885,25.3,80,0.0,951.8,8.45,36.0,65,21.5,15.7,7.8,243.0,57.0,10.7,7,5,7,1,2026-07-16T01:41:47.375884+05:30
Visakhapatnam,Andhra Pradesh,17.6868,83.2185,29.8,60,0.0,998.2,1.95,33.8,111,38.3,29.6,26.9,278.0,51.0,43.2,4,5,3,1,2026-07-16T01:41:47.375891+05:30
Vijayawada,Andhra Pradesh,16.5062,80.648,30.7,49,0.0,999.4,4.35,42.8,86,43.7,29.5,13.0,193.0,55.0,8.2,0,5,3,1,2026-07-16T01:41:47.375898+05:30
Guntur,Andhra Pradesh,16.3067,80.4365,31.9,44,0.0,1000.6,5.5,45.4,82,36.1,23.8,11.0,138.0,56.0,6.7,0,5,0,1,2026-07-16T01:41:47.375906+05:30
Nellore,Andhra Pradesh,14.4426,79.9865,28.8,59,0.0,1003.4,7.75,42.8,74,39.9,26.7,12.4,180.0,75.0,6.5,4,5,4,1,2026-07-16T01:41:47.375914+05:30
Kurnool,Andhra Pradesh,15.8281,78.0373,26.9,67,0.0,976.1,8.15,57.6,69,22.1,13.7,8.8,158.0,56.0,6.7,7,5,7,1,2026-07-16T01:41:47.375922+05:30
Kakinada,Andhra Pradesh,16.9891,82.2475,30.2,51,0.0,1002.7,6.15,42.1,94,35.5,23.9,8.0,194.0,76.0,8.1,0,5,4,1,2026-07-16T01:41:47.375929+05:30
Tirupati,Andhra Pradesh,13.6288,79.4192,27.6,53,0.0,989.3,7.8,31.3,82,36.8,32.8,41.0,165.0,15.0,3.9,4,5,7,1,2026-07-16T01:41:47.375936+05:30
Warangal,Telangana,17.9689,79.5941,27.1,69,0.0,976.1,1.2,44.6,84,21.1,14.8,7.7,163.0,56.0,3.7,7,5,3,1,2026-07-16T01:41:47.375943+05:30
Nizamabad,Telangana,18.6725,78.0941,26.9,66,0.0,963.3,8.55,46.1,71,18.3,12.2,8.0,177.0,56.0,7.4,7,5,7,1,2026-07-16T01:41:47.375950+05:30
Mysore,Karnataka,12.2958,76.6396,20.8,93,0.0,928.6,8.05,45.4,56,22.1,14.8,10.7,165.0,39.0,2.7,3,5,7,1,2026-07-16T01:41:47.375957+05:30
Mangalore,Karnataka,12.9141,74.856,25.9,87,0.0,1008.0,8.4,41.0,71,40.2,20.8,9.9,163.0,31.0,3.2,7,0,4,1,2026-07-16T01:41:47.375964+05:30
Hubli-Dharwad,Karnataka,15.3647,75.124,21.9,93,0.0,941.0,7.8,46.4,53,10.1,5.8,3.7,129.0,44.0,1.5,3,5,7,1,2026-07-16T01:41:47.375971+05:30
Belgaum,Karnataka,15.8497,74.4977,21.4,93,0.0,925.5,7.75,44.3,51,14.8,7.5,3.2,119.0,46.0,1.9,3,5,7,1,2026-07-16T01:41:50.613811+05:30
Coimbatore,Tamil Nadu,11.0168,76.9558,23.7,92,0.0,961.3,8.2,51.8,57,16.8,12.3,8.3,199.0,37.0,3.5,3,5,7,1,2026-07-16T01:41:50.613849+05:30
Madurai,Tamil Nadu,9.9252,78.1198,29.1,62,0.0,992.2,8.3,56.9,85,39.9,32.4,42.3,149.0,10.0,7.9,7,5,7,1,2026-07-16T01:41:50.613861+05:30
Trichy,Tamil Nadu,10.7905,78.7047,28.8,66,0.0,999.1,8.2,44.6,68,20.5,15.5,11.7,155.0,43.0,4.5,7,5,7,1,2026-07-16T01:41:50.613871+05:30
Salem,Tamil Nadu,11.6643,78.146,25.6,81,0.0,977.1,8.05,22.0,75,29.2,22.7,23.0,316.0,32.0,7.0,7,5,7,1,2026-07-16T01:41:50.613880+05:30
Tirunelveli,Tamil Nadu,8.7139,77.7567,28.7,64,0.0,1002.8,6.6,44.3,57,15.6,11.8,8.6,162.0,35.0,3.1,7,5,4,1,2026-07-16T01:41:50.613888+05:30
Vellore,Tamil Nadu,12.9165,79.1325,30.0,45,0.0,983.0,7.5,40.7,83,21.0,17.6,22.2,268.0,39.0,6.1,4,5,7,1,2026-07-16T01:41:50.613896+05:30
Erode,Tamil Nadu,11.341,77.7172,26.3,75,0.0,988.9,7.5,43.2,65,25.0,18.1,16.1,180.0,34.0,4.3,7,5,7,1,2026-07-16T01:41:50.613904+05:30
Kochi,Kerala,9.9312,76.2673,27.2,87,0.0,1010.1,7.65,36.4,69,45.2,35.9,35.8,129.0,5.0,9.1,7,0,4,1,2026-07-16T01:41:50.613912+05:30
Thiruvananthapuram,Kerala,8.5241,76.9366,25.0,94,0.0,1009.8,7.9,44.6,60,29.0,15.6,4.8,166.0,43.0,1.7,7,0,4,1,2026-07-16T01:41:50.613919+05:30
Kozhikode,Kerala,11.2588,75.7804,25.5,92,0.0,1009.1,7.7,34.2,63,47.1,21.0,2.4,246.0,55.0,1.6,7,0,4,1,2026-07-16T01:41:50.613927+05:30
Thrissur,Kerala,10.5276,76.2144,25.7,88,0.0,1008.4,8.1,38.2,65,46.7,31.3,19.0,171.0,28.0,6.5,7,0,4,1,2026-07-16T01:41:50.613935+05:30
Kannur,Kerala,11.8745,75.3704,25.9,90,0.0,1008.4,7.85,31.7,67,35.5,21.1,12.8,268.0,29.0,2.7,7,0,4,1,2026-07-16T01:41:50.613942+05:30
Patna,Bihar,25.5941,85.1376,27.4,93,0.0,995.5,7.0,23.8,157,59.3,47.4,14.9,433.0,87.0,11.0,7,5,7,1,2026-07-16T01:41:50.613949+05:30
Gaya,Bihar,24.7914,85.0002,27.1,97,0.0,988.5,7.95,23.8,156,81.3,54.6,16.1,344.0,65.0,6.7,7,5,7,1,2026-07-16T01:41:50.613956+05:30
Muzaffarpur,Bihar,26.1209,85.3647,27.6,95,0.0,995.6,7.4,29.2,153,52.3,45.1,16.4,483.0,80.0,11.3,7,5,7,1,2026-07-16T01:41:50.613964+05:30
Bhagalpur,Bihar,25.2425,87.0117,28.3,97,0.1,996.4,8.7,32.8,103,48.1,47.3,21.3,316.0,44.0,8.4,10,5,7,1,2026-07-16T01:41:50.613970+05:30
Ranchi,Jharkhand,23.3441,85.3096,22.7,97,0.0,932.5,8.6,36.0,152,56.3,32.1,10.3,234.0,73.0,6.4,3,5,7,1,2026-07-16T01:41:50.613978+05:30
Jamshedpur,Jharkhand,22.8046,86.2029,25.7,96,0.0,984.8,6.9,34.9,156,58.4,55.2,37.4,915.0,48.0,54.3,7,5,7,1,2026-07-16T01:41:50.613985+05:30
Dhanbad,Jharkhand,23.7957,86.4304,25.5,94,0.0,974.4,8.0,36.4,172,39.3,37.1,33.9,273.0,54.0,71.0,7,5,7,1,2026-07-16T01:41:50.613992+05:30
Bokaro,Jharkhand,23.6693,86.1511,25.7,97,0.0,978.3,8.2,32.8,176,54.2,42.5,33.6,346.0,56.0,72.5,7,5,7,1,2026-07-16T01:41:50.613999+05:30
Bhubaneswar,Odisha,20.2961,85.8245,25.6,96,0.3,995.6,7.05,38.9,126,62.6,42.6,13.3,223.0,62.0,12.3,10,5,7,1,2026-07-16T01:41:50.614006+05:30
Cuttack,Odisha,20.4625,85.8828,25.9,95,0.1,997.4,7.05,38.5,126,62.6,42.6,13.3,225.0,62.0,12.3,10,5,7,1,2026-07-16T01:41:50.614012+05:30
Rourkela,Odisha,22.2604,84.8536,25.5,98,0.0,979.4,8.15,41.8,155,78.5,43.0,10.6,323.0,65.0,5.2,7,5,7,1,2026-07-16T01:41:50.614019+05:30
Raipur,Chhattisgarh,21.2514,81.6296,26.4,87,0.1,970.3,7.15,38.9,130,56.2,39.9,33.7,284.0,43.0,58.7,10,5,7,1,2026-07-16T01:41:50.614026+05:30
Bhilai,Chhattisgarh,21.1938,81.3509,27.3,75,0.0,970.8,7.6,38.2,114,54.2,36.4,24.1,691.0,50.0,42.2,7,5,7,1,2026-07-16T01:41:50.614032+05:30
Guwahati,Assam,26.1158,91.7086,25.6,97,0.0,997.6,5.45,19.4,43,6.5,6.4,10.0,283.0,36.0,1.4,7,5,3,1,2026-07-16T01:41:50.614039+05:30
Agartala,Tripura,23.8315,91.2868,26.1,91,0.0,1002.3,8.7,46.4,66,17.8,14.7,10.6,216.0,37.0,2.0,7,5,4,1,2026-07-16T01:41:50.614046+05:30
Shillong,Meghalaya,25.5788,91.8933,19.6,96,0.0,855.1,7.4,37.1,32,4.1,3.5,5.2,226.0,65.0,1.9,3,10,7,1,2026-07-16T01:41:50.614052+05:30
Imphal,Manipur,24.817,93.9368,22.8,97,0.1,920.6,8.1,32.8,48,9.1,8.7,8.8,298.0,38.0,1.9,6,5,7,1,2026-07-16T01:41:50.614060+05:30
Aizawl,Mizoram,23.7271,92.7176,19.9,100,0.0,889.4,8.5,40.3,41,11.4,10.4,14.1,289.0,9.0,0.8,3,10,7,1,2026-07-16T01:41:50.614066+05:30
Kohima,Nagaland,25.6701,94.1077,20.1,96,0.0,853.7,6.5,21.2,39,3.4,3.1,4.8,219.0,38.0,0.6,3,5,7,1,2026-07-16T01:41:50.614073+05:30
Gangtok,Sikkim,27.3314,88.6138,18.9,92,0.0,836.1,7.8,30.2,48,7.0,6.7,5.4,269.0,99.0,1.9,3,10,7,1,2026-07-16T01:41:50.614079+05:30
Siliguri,West Bengal,26.7271,88.3953,25.5,99,0.2,989.5,8.15,25.6,82,39.5,38.1,16.0,395.0,85.0,5.4,10,5,7,1,2026-07-16T01:41:53.864078+05:30
Durgapur,West Bengal,23.5204,87.3119,27.0,86,0.0,989.0,7.0,41.8,129,38.0,37.4,32.9,357.0,41.0,29.3,7,5,7,1,2026-07-16T01:41:53.864118+05:30
Asansol,West Bengal,23.6739,86.9524,27.0,90,0.0,987.7,8.75,38.5,144,34.6,34.0,30.0,329.0,47.0,26.1,7,5,7,1,2026-07-16T01:41:53.864131+05:30
Pondicherry,Puducherry,11.9139,79.8145,28.3,79,0.0,1006.7,8.15,49.7,74,14.4,10.7,9.0,170.0,58.0,7.8,7,5,4,1,2026-07-16T01:41:53.864140+05:30
Port Blair,Andaman and Nicobar Islands,11.6234,92.7265,26.1,91,0.0,1006.9,8.6,50.4,51,29.5,11.8,0.1,88.0,51.0,0.4,7,5,4,1,2026-07-16T01:41:53.864149+05:30
Haridwar,Uttarakhand,29.9457,78.1642,27.2,93,0.0,969.6,7.5,28.8,169,122.9,106.9,37.6,496.0,42.0,12.7,7,5,7,1,2026-07-16T01:41:53.864157+05:30
Rishikesh,Uttarakhand,30.0869,78.2676,25.7,93,0.0,962.7,7.6,23.4,155,70.1,53.2,11.6,373.0,108.0,7.8,7,5,7,1,2026-07-16T01:41:53.864165+05:30
Nainital,Uttarakhand,29.3919,79.4542,16.6,99,0.0,803.8,7.35,29.5,153,62.6,43.4,13.5,332.0,81.0,6.1,3,10,7,1,2026-07-16T01:41:53.864172+05:30
Mussoorie,Uttarakhand,30.4599,78.0664,16.8,100,0.0,801.6,7.25,43.9,153,88.9,76.4,22.7,433.0,70.0,6.8,3,10,7,1,2026-07-16T01:41:53.864179+05:30
Dharamshala,Himachal Pradesh,32.219,76.3234,21.3,64,0.0,866.6,7.55,31.3,69,32.2,25.5,17.0,232.0,24.0,0.4,3,5,7,0,2026-07-16T01:41:53.864186+05:30
Dalhousie,Himachal Pradesh,32.5387,75.971,14.9,96,0.0,801.4,7.8,29.2,134,75.4,60.5,45.3,556.0,40.0,3.6,3,10,7,0,2026-07-16T01:41:53.864194+05:30
Patiala,Punjab,30.3398,76.3869,28.7,77,0.0,973.5,7.55,28.8,195,396.7,157.9,61.7,689.0,17.0,11.8,7,5,7,1,2026-07-16T01:41:53.864202+05:30
Bhatinda,Punjab,30.211,74.9455,31.6,63,0.0,979.1,8.15,28.1,176,274.7,130.4,72.2,460.0,8.0,9.2,3,5,7,1,2026-07-16T01:41:53.864208+05:30
Rohtak,Haryana,28.8955,76.6066,29.8,78,0.0,977.2,7.65,29.9,549,672.4,164.8,43.7,472.0,19.0,6.4,7,5,7,1,2026-07-16T01:41:53.864216+05:30
Panipat,Haryana,29.3909,76.9635,29.0,83,0.0,975.7,6.55,29.9,841,728.3,204.4,61.0,1189.0,9.0,10.1,7,5,7,1,2026-07-16T01:41:53.864223+05:30
Mathura,Uttar Pradesh,27.4924,77.6737,29.4,66,0.0,982.2,7.9,29.9,458,886.6,145.8,19.4,242.0,49.0,5.1,7,5,7,1,2026-07-16T01:41:53.864231+05:30
Vrindavan,Uttar Pradesh,27.5823,77.7027,29.6,66,0.0,982.6,7.9,29.2,458,886.6,145.8,19.4,248.0,49.0,5.1,7,5,7,1,2026-07-16T01:41:53.864237+05:30
Ayodhya,Uttar Pradesh,26.7922,82.1998,28.9,90,0.0,990.3,7.75,23.4,169,69.8,44.1,11.9,1079.0,85.0,4.7,7,5,7,1,2026-07-16T01:41:53.864244+05:30
Ratlam,Madhya Pradesh,23.3315,75.0367,25.2,84,0.0,952.6,6.5,34.6,64,19.3,13.7,8.6,178.0,51.0,12.4,7,5,7,1,2026-07-16T01:41:53.864251+05:30
Sagar,Madhya Pradesh,23.8388,78.7378,26.6,74,0.0,946.9,8.6,37.1,98,44.2,26.5,9.6,210.0,53.0,4.0,7,5,7,1,2026-07-16T01:41:53.864257+05:30
Satna,Madhya Pradesh,24.6005,80.8322,27.9,76,0.0,966.9,8.15,34.9,121,76.4,41.4,9.2,195.0,62.0,4.8,7,5,7,1,2026-07-16T01:41:53.864264+05:30
Akola,Maharashtra,20.7002,77.0082,28.3,64,0.0,973.4,8.75,42.5,65,22.2,14.1,9.8,152.0,48.0,9.0,7,5,7,1,2026-07-16T01:41:53.864272+05:30
Amravati,Maharashtra,20.9374,77.7796,28.1,66,0.0,965.2,8.75,42.1,66,26.3,15.8,10.4,163.0,52.0,10.6,7,5,7,1,2026-07-16T01:41:53.864279+05:30
Latur,Maharashtra,18.4088,76.5604,25.1,76,0.0,938.9,2.25,37.8,57,14.8,10.7,8.4,161.0,45.0,3.0,7,5,3,1,2026-07-16T01:41:53.864287+05:30
Nanded,Maharashtra,19.1383,77.3091,26.8,70,0.0,967.5,5.55,38.2,67,15.2,10.8,6.4,174.0,55.0,3.8,7,5,3,1,2026-07-16T01:41:53.864293+05:30
Gulbarga,Karnataka,17.3297,76.8343,25.7,73,0.0,958.0,8.0,42.5,59,16.1,10.4,9.6,157.0,42.0,3.3,7,5,7,1,2026-07-16T01:41:53.864300+05:30
Bidar,Karnataka,17.9104,77.5199,24.8,74,0.0,934.4,5.05,39.2,64,16.6,10.8,6.8,143.0,56.0,2.4,3,5,3,1,2026-07-16T01:41:53.864307+05:30
Hospet,Karnataka,15.2689,76.3909,24.0,79,0.0,956.2,8.9,55.8,55,15.5,9.0,4.5,124.0,43.0,1.8,3,5,7,1,2026-07-16T01:41:53.864313+05:30
Tirupur,Tamil Nadu,11.1085,77.3411,24.7,87,0.0,975.1,8.0,55.8,66,27.4,20.1,19.2,175.0,29.0,5.1,3,5,7,1,2026-07-16T01:41:53.864319+05:30
Alappuzha,Kerala,9.4981,76.3388,27.5,84,0.0,1010.2,7.7,35.3,65,37.6,22.6,14.5,89.0,34.0,4.7,7,0,4,1,2026-07-16T01:41:53.864325+05:30
Munnar,Kerala,10.0889,77.0595,15.8,90,0.0,856.3,8.6,36.4,54,12.4,10.2,10.4,122.0,23.0,2.0,3,10,7,0,2026-07-16T01:41:53.864332+05:30
Silchar,Assam,24.8333,92.7789,26.3,97,0.0,1002.0,7.0,28.1,61,17.2,16.5,11.7,256.0,44.0,4.2,7,5,4,1,2026-07-16T01:41:53.864339+05:30
Dibrugarh,Assam,27.4728,94.912,25.9,97,0.1,991.5,7.8,29.5,53,6.1,6.0,8.2,214.0,47.0,0.6,10,5,7,1,2026-07-16T01:41:53.864345+05:30
