city,state,latitude,longitude,temp,humidity,rain,pressure,uv_index,wind_gusts,aqi,pm10,pm2_5,mosquito_risk,arthritis_risk,migraine_risk,frizz_risk,updated_at
Delhi,Delhi,28.6139,77.209,32.2,33,0.0,985.2,6.85,22.3,131,202.6,39.9,0,5,7,0,2026-04-01T14:39:30.343249+05:30
Mumbai,Maharashtra,19.076,72.8777,27.7,75,0.0,1008.2,7.85,23.8,62,37.0,20.1,7,0,4,1,2026-04-01T14:39:30.343284+05:30
Bangalore,Karnataka,12.9716,77.5946,33.8,21,0.0,911.9,9.55,29.9,79,31.1,21.6,0,5,7,0,2026-04-01T14:39:30.343299+05:30
Hyderabad,Telangana,17.385,78.4867,35.9,31,0.0,953.1,9.1,22.3,113,33.8,27.1,0,5,10,1,2026-04-01T14:39:30.343308+05:30
Chennai,Tamil Nadu,13.0827,80.2707,33.1,43,0.0,1007.3,9.15,29.2,46,12.3,9.6,0,5,4,1,2026-04-01T14:39:30.343317+05:30
Kolkata,West Bengal,22.5726,88.3639,34.1,56,0.0,1005.2,8.6,20.2,100,63.6,37.6,0,5,4,1,2026-04-01T14:39:30.343325+05:30
Pune,Maharashtra,18.5204,73.8567,35.0,37,0.0,948.3,8.5,30.2,101,44.6,35.6,0,5,7,1,2026-04-01T14:39:30.343336+05:30
Ahmedabad,Gujarat,23.0225,72.5714,36.4,28,0.0,1001.3,7.85,25.6,63,40.7,18.2,0,5,7,0,2026-04-01T14:39:30.343344+05:30
Jaipur,Rajasthan,26.9124,75.7873,30.3,44,0.0,962.1,6.7,34.2,112,182.5,30.0,0,5,7,1,2026-04-01T14:39:30.343351+05:30
Lucknow,Uttar Pradesh,26.8467,80.9462,35.0,31,0.0,994.0,7.15,27.4,109,58.2,19.3,0,5,7,0,2026-04-01T14:39:30.343359+05:30
Kanpur,Uttar Pradesh,26.4499,80.3319,32.5,42,0.0,992.9,7.35,28.8,158,104.1,23.6,0,5,7,1,2026-04-01T14:39:30.343366+05:30
Chandigarh,Chandigarh,30.7333,76.7794,29.7,35,0.0,971.2,6.55,13.3,77,81.0,22.1,4,5,7,0,2026-04-01T14:39:30.343373+05:30
Srinagar,Jammu and Kashmir,34.0837,74.7973,17.8,52,0.0,844.1,7.1,20.5,81,28.8,11.5,0,5,7,0,2026-04-01T14:39:30.343400+05:30
Jammu,Jammu and Kashmir,32.7266,74.857,31.0,32,0.0,975.4,6.4,20.5,77,49.1,16.0,0,5,7,0,2026-04-01T14:39:30.343409+05:30
Amritsar,Punjab,31.634,74.8723,30.1,36,0.0,983.5,6.9,14.0,119,81.5,26.9,0,5,7,0,2026-04-01T14:39:30.343417+05:30
Ludhiana,Punjab,30.901,75.8573,31.2,29,0.0,980.9,6.65,15.1,129,120.6,30.5,0,5,7,0,2026-04-01T14:39:30.343423+05:30
Jalandhar,Punjab,31.326,75.5762,30.8,33,0.0,982.4,6.75,11.9,121,122.5,31.7,0,5,7,0,2026-04-01T14:39:30.343432+05:30
Dehradun,Uttarakhand,30.6284,78.0322,21.1,40,0.0,833.5,6.4,29.9,49,19.7,6.5,0,5,7,0,2026-04-01T14:39:30.343439+05:30
Shimla,Himachal Pradesh,31.1048,77.1734,18.2,46,0.0,788.0,6.1,33.8,50,31.3,9.4,0,5,7,0,2026-04-01T14:39:30.343446+05:30
Manali,Himachal Pradesh,32.2396,77.1887,19.7,43,0.0,822.3,8.45,31.0,82,15.4,6.8,0,5,7,0,2026-04-01T14:39:30.343455+05:30
Gurgaon,Haryana,28.4595,77.0266,32.1,34,0.0,983.7,6.95,25.2,358,560.7,69.2,0,5,7,0,2026-04-01T14:39:30.343461+05:30
Noida,Uttar Pradesh,28.5355,77.391,32.3,34,0.0,986.7,6.85,21.2,358,560.7,69.2,0,5,7,0,2026-04-01T14:39:30.343467+05:30
Ghaziabad,Uttar Pradesh,28.6692,77.4538,31.8,36,0.0,985.0,6.85,21.2,114,149.0,35.4,0,5,7,0,2026-04-01T14:39:30.343473+05:30
Faridabad,Haryana,28.4089,77.3178,32.6,32,0.0,985.8,6.9,22.0,358,560.7,69.2,0,5,7,0,2026-04-01T14:39:30.343479+05:30
Meerut,Uttar Pradesh,28.9845,77.7064,32.0,34,0.0,983.6,6.5,24.1,114,149.0,35.4,0,5,7,0,2026-04-01T14:39:30.343486+05:30
Agra,Uttar Pradesh,27.1767,78.0081,33.7,34,0.0,989.3,7.25,25.6,574,194.2,34.9,0,5,7,0,2026-04-01T14:39:30.343492+05:30
Varanasi,Uttar Pradesh,25.3176,82.9739,36.3,32,0.0,997.4,7.55,28.1,121,58.4,18.9,0,5,10,1,2026-04-01T14:39:30.343501+05:30
Prayagraj,Uttar Pradesh,25.4358,81.8463,36.2,31,0.0,995.7,7.9,36.0,89,52.3,17.2,0,5,10,1,2026-04-01T14:39:30.343509+05:30
Gorakhpur,Uttar Pradesh,26.7606,83.3732,33.5,35,0.0,997.1,7.8,25.2,151,31.5,14.3,0,5,7,0,2026-04-01T14:39:30.343516+05:30
Bareilly,Uttar Pradesh,28.367,79.4304,34.5,25,0.0,988.0,6.95,27.4,85,45.9,14.5,0,5,7,0,2026-04-01T14:39:30.343522+05:30
Aligarh,Uttar Pradesh,27.8974,78.088,34.0,30,0.0,987.2,7.0,28.1,209,246.8,41.2,0,5,7,0,2026-04-01T14:39:30.343528+05:30
Moradabad,Uttar Pradesh,28.8386,78.7733,33.3,29,0.0,985.4,6.85,27.4,96,66.6,19.3,0,5,7,0,2026-04-01T14:39:30.343534+05:30
Saharanpur,Uttar Pradesh,29.9637,77.546,30.6,31,0.0,977.9,6.2,18.7,101,85.4,24.0,0,5,7,0,2026-04-01T14:39:30.343540+05:30
Jhansi,Uttar Pradesh,25.4484,78.5685,35.6,29,0.0,978.3,7.8,33.5,76,67.1,21.5,0,5,10,0,2026-04-01T14:39:33.562296+05:30
Surat,Gujarat,21.1702,72.8311,31.4,46,0.0,1006.6,7.65,25.2,90,51.8,39.3,0,5,4,1,2026-04-01T14:39:33.562318+05:30
Vadodara,Gujarat,22.3072,73.1812,36.8,28,0.0,1003.4,7.9,29.2,68,28.2,15.9,0,5,7,0,2026-04-01T14:39:33.562327+05:30
Rajkot,Gujarat,22.3039,70.8022,33.3,34,0.0,994.3,7.25,35.6,59,28.8,14.0,0,5,7,0,2026-04-01T14:39:33.562335+05:30
Thane,Maharashtra,19.2183,72.9781,30.6,60,0.0,1007.8,7.85,34.6,62,37.0,20.1,0,5,4,1,2026-04-01T14:39:33.562341+05:30
Nagpur,Maharashtra,21.1458,79.0882,34.8,38,0.0,973.2,8.6,37.1,99,31.1,25.7,0,5,7,1,2026-04-01T14:39:33.562348+05:30
Nashik,Maharashtra,19.9975,73.7898,33.1,44,0.0,945.5,8.1,32.0,56,32.5,21.9,0,5,7,1,2026-04-01T14:39:33.562354+05:30
Aurangabad,Maharashtra,19.8762,75.3433,35.8,29,0.0,943.6,8.8,36.4,86,43.5,33.4,0,5,10,0,2026-04-01T14:39:33.562361+05:30
Solapur,Maharashtra,17.6599,75.9064,37.2,27,0.0,956.0,8.9,29.2,108,37.0,30.3,0,5,10,0,2026-04-01T14:39:33.562367+05:30
Kolhapur,Maharashtra,16.705,74.2433,32.8,45,0.0,947.6,8.95,30.6,144,48.8,41.0,0,5,7,1,2026-04-01T14:39:33.562373+05:30
Goa,Goa,15.2993,74.124,32.4,62,0.0,997.2,8.85,32.0,71,27.2,21.1,3,5,7,1,2026-04-01T14:39:33.562380+05:30
Jodhpur,Rajasthan,26.2389,73.0243,34.0,28,0.0,983.6,7.75,32.0,109,103.6,17.0,0,5,7,0,2026-04-01T14:39:33.562425+05:30
Udaipur,Rajasthan,24.5854,73.7125,33.2,28,0.0,946.8,8.4,38.2,54,31.2,11.9,0,5,7,0,2026-04-01T14:39:33.562433+05:30
Kota,Rajasthan,25.2138,75.8648,35.9,29,0.0,979.0,7.45,33.8,58,28.7,12.4,0,5,10,0,2026-04-01T14:39:33.562440+05:30
Bikaner,Rajasthan,28.0229,73.3119,33.0,21,0.0,982.6,6.85,23.8,54,204.0,30.4,0,5,7,0,2026-04-01T14:39:33.562447+05:30
Ajmer,Rajasthan,26.4499,74.6399,32.5,29,0.0,955.7,7.4,28.4,59,51.5,14.1,0,5,7,0,2026-04-01T14:39:33.562453+05:30
Gwalior,Madhya Pradesh,26.2183,78.1828,33.7,36,0.0,984.3,7.5,35.3,123,117.8,29.6,0,5,7,1,2026-04-01T14:39:33.562459+05:30
Indore,Madhya Pradesh,22.7196,75.8577,35.5,29,0.0,947.7,8.3,36.0,70,33.6,24.1,0,5,10,0,2026-04-01T14:39:33.562465+05:30
Bhopal,Madhya Pradesh,23.2599,77.4126,35.4,26,0.0,954.0,8.25,39.2,60,25.5,17.0,0,5,10,0,2026-04-01T14:39:33.562471+05:30
Jabalpur,Madhya Pradesh,23.1815,79.9864,36.4,28,0.0,961.4,8.2,41.4,60,19.9,13.6,0,5,10,0,2026-04-01T14:39:33.562477+05:30
Ujjain,Madhya Pradesh,23.1765,75.7885,35.5,29,0.0,953.6,8.2,32.0,72,33.4,22.6,0,5,10,0,2026-04-01T14:39:33.562484+05:30
Visakhapatnam,Andhra Pradesh,17.6868,83.2185,33.1,50,0.0,1004.1,9.05,33.8,74,22.2,18.0,0,5,4,1,2026-04-01T14:39:33.562490+05:30
Vijayawada,Andhra Pradesh,16.5062,80.648,35.1,45,0.0,1002.2,9.05,28.1,64,21.9,16.4,0,5,7,1,2026-04-01T14:39:33.562496+05:30
Guntur,Andhra Pradesh,16.3067,80.4365,35.4,40,0.0,1003.5,9.1,29.5,64,22.9,17.1,0,5,7,1,2026-04-01T14:39:33.562501+05:30
Nellore,Andhra Pradesh,14.4426,79.9865,34.9,39,0.0,1005.7,9.2,29.5,50,18.6,13.4,0,5,4,1,2026-04-01T14:39:33.562508+05:30
Kurnool,Andhra Pradesh,15.8281,78.0373,37.9,28,0.0,975.8,9.1,27.0,81,28.6,21.8,0,5,10,1,2026-04-01T14:39:33.562514+05:30
Kakinada,Andhra Pradesh,16.9891,82.2475,34.3,49,0.0,1007.6,9.05,33.8,55,14.4,10.2,0,5,4,1,2026-04-01T14:39:33.562520+05:30
Tirupati,Andhra Pradesh,13.6288,79.4192,35.4,30,0.0,991.0,9.35,32.0,62,18.9,13.7,0,5,10,0,2026-04-01T14:39:33.562526+05:30
Warangal,Telangana,17.9689,79.5941,35.3,40,0.0,978.5,8.95,30.6,114,36.6,30.0,0,5,10,1,2026-04-01T14:39:33.562532+05:30
Nizamabad,Telangana,18.6725,78.0941,36.6,30,0.0,964.2,8.85,28.4,139,33.3,27.5,0,5,10,1,2026-04-01T14:39:33.562538+05:30
Mysore,Karnataka,12.2958,76.6396,33.3,30,0.0,928.0,9.5,27.4,93,34.3,24.4,0,5,7,0,2026-04-01T14:39:33.562544+05:30
Mangalore,Karnataka,12.9141,74.856,29.5,81,0.0,1005.5,9.05,20.9,79,33.5,26.5,7,5,4,1,2026-04-01T14:39:33.562549+05:30
Hubli-Dharwad,Karnataka,15.3647,75.124,33.8,43,0.0,940.3,9.15,33.8,118,48.3,39.8,0,5,7,1,2026-04-01T14:39:33.562556+05:30
Belgaum,Karnataka,15.8497,74.4977,29.5,60,0.0,925.9,9.1,27.7,117,46.3,39.0,4,5,7,1,2026-04-01T14:39:36.782198+05:30
Coimbatore,Tamil Nadu,11.0168,76.9558,35.7,22,0.0,960.9,9.45,34.2,69,26.3,17.5,0,5,10,0,2026-04-01T14:39:36.782231+05:30
Madurai,Tamil Nadu,9.9252,78.1198,36.0,30,0.0,991.5,9.0,23.4,60,13.2,8.2,0,5,10,0,2026-04-01T14:39:36.782244+05:30
Trichy,Tamil Nadu,10.7905,78.7047,34.7,43,0.0,998.5,9.2,24.8,57,17.6,14.0,0,5,7,1,2026-04-01T14:39:36.782256+05:30
Salem,Tamil Nadu,11.6643,78.146,36.8,22,0.0,976.1,9.4,31.3,81,33.2,26.8,0,5,10,0,2026-04-01T14:39:36.782266+05:30
Tirunelveli,Tamil Nadu,8.7139,77.7567,37.7,26,0.0,1001.2,9.35,39.6,57,11.5,6.0,0,5,7,0,2026-04-01T14:39:36.782277+05:30
Vellore,Tamil Nadu,12.9165,79.1325,34.8,28,0.0,984.1,9.4,32.8,68,16.1,10.4,0,5,7,0,2026-04-01T14:39:36.782286+05:30
Erode,Tamil Nadu,11.341,77.7172,36.7,29,0.0,987.6,9.3,20.9,55,23.1,17.5,0,5,10,0,2026-04-01T14:39:36.782297+05:30
Kochi,Kerala,9.9312,76.2673,29.1,79,0.0,1007.1,9.15,29.2,98,33.3,27.1,7,5,4,1,2026-04-01T14:39:36.782307+05:30
Thiruvananthapuram,Kerala,8.5241,76.9366,29.4,72,0.0,1006.0,9.15,28.4,90,18.6,16.8,7,5,4,1,2026-04-01T14:39:36.782317+05:30
Kozhikode,Kerala,11.2588,75.7804,30.5,75,0.0,1006.5,9.15,26.6,69,20.3,15.2,3,5,4,1,2026-04-01T14:39:36.782326+05:30
Thrissur,Kerala,10.5276,76.2144,32.8,62,0.0,1005.4,9.2,34.2,93,28.1,20.7,3,5,4,1,2026-04-01T14:39:36.782334+05:30
Kannur,Kerala,11.8745,75.3704,30.8,72,0.0,1006.0,9.1,28.1,82,32.0,24.9,3,5,4,1,2026-04-01T14:39:36.782341+05:30
Patna,Bihar,25.5941,85.1376,34.7,40,0.0,999.7,8.2,25.2,163,25.3,10.3,0,5,7,1,2026-04-01T14:39:36.782348+05:30
Gaya,Bihar,24.7914,85.0002,34.4,36,0.0,993.6,7.95,29.9,99,53.7,20.4,0,5,7,1,2026-04-01T14:39:36.782356+05:30
Muzaffarpur,Bihar,26.1209,85.3647,32.9,48,0.0,999.8,8.15,30.2,166,40.7,25.2,0,5,7,1,2026-04-01T14:39:36.782363+05:30
Bhagalpur,Bihar,25.2425,87.0117,32.6,53,0.0,1000.3,8.25,25.9,157,49.8,29.3,0,5,4,1,2026-04-01T14:39:36.782370+05:30
Ranchi,Jharkhand,23.3441,85.3096,28.1,50,0.0,939.7,8.85,44.6,105,67.5,27.1,4,5,7,1,2026-04-01T14:39:36.782377+05:30
Jamshedpur,Jharkhand,22.8046,86.2029,37.1,30,0.0,990.0,8.7,20.5,133,68.7,32.4,0,5,10,1,2026-04-01T14:39:36.782403+05:30
Dhanbad,Jharkhand,23.7957,86.4304,35.9,27,0.0,979.3,8.6,31.3,162,65.0,28.2,0,5,10,0,2026-04-01T14:39:36.782412+05:30
Bokaro,Jharkhand,23.6693,86.1511,36.0,28,0.0,983.1,8.6,41.0,152,64.3,27.1,0,5,10,0,2026-04-01T14:39:36.782418+05:30
Bhubaneswar,Odisha,20.2961,85.8245,36.0,40,0.0,1002.2,8.85,28.4,107,40.4,28.6,0,5,7,1,2026-04-01T14:39:36.782425+05:30
Cuttack,Odisha,20.4625,85.8828,36.5,41,0.0,1003.7,8.9,23.4,107,40.4,28.6,0,5,7,1,2026-04-01T14:39:36.782431+05:30
Rourkela,Odisha,22.2604,84.8536,36.6,35,0.0,984.8,8.6,12.2,147,91.3,39.1,0,5,10,1,2026-04-01T14:39:36.782438+05:30
Raipur,Chhattisgarh,21.2514,81.6296,36.2,29,0.0,974.7,8.7,18.4,151,30.4,22.7,0,5,10,0,2026-04-01T14:39:36.782444+05:30
Bhilai,Chhattisgarh,21.1938,81.3509,36.1,31,0.0,975.2,8.7,19.8,137,30.3,21.7,0,5,10,1,2026-04-01T14:39:36.782450+05:30
Guwahati,Assam,26.1158,91.7086,26.4,80,0.0,1000.9,8.05,37.8,122,47.6,37.3,7,5,4,1,2026-04-01T14:39:36.782456+05:30
Agartala,Tripura,23.8315,91.2868,32.9,54,0.0,1005.3,8.35,32.0,104,41.0,31.9,0,5,4,1,2026-04-01T14:39:36.782462+05:30
Shillong,Meghalaya,25.5788,91.8933,18.7,67,0.0,856.6,8.45,60.5,80,45.6,34.6,3,5,7,0,2026-04-01T14:39:36.782469+05:30
Imphal,Manipur,24.817,93.9368,21.9,73,0.0,923.6,8.7,64.8,95,39.0,27.4,3,5,7,1,2026-04-01T14:39:36.782475+05:30
Aizawl,Mizoram,23.7271,92.7176,25.6,56,0.0,894.2,8.6,41.4,96,44.1,29.9,4,5,7,1,2026-04-01T14:39:36.782481+05:30
Kohima,Nagaland,25.6701,94.1077,18.8,74,0.0,855.1,8.55,75.2,68,29.6,19.2,3,5,7,0,2026-04-01T14:39:36.782487+05:30
Gangtok,Sikkim,27.3314,88.6138,19.0,74,0.0,837.5,8.45,20.2,105,26.7,19.4,3,5,7,0,2026-04-01T14:39:36.782493+05:30
Siliguri,West Bengal,26.7271,88.3953,24.9,73,0.0,992.9,8.05,32.4,151,54.0,41.9,3,5,7,1,2026-04-01T14:39:40.004842+05:30
Durgapur,West Bengal,23.5204,87.3119,36.2,35,0.0,994.1,8.55,21.6,157,69.6,37.5,0,5,10,1,2026-04-01T14:39:40.004867+05:30
Asansol,West Bengal,23.6739,86.9524,36.0,35,0.0,992.6,8.6,23.4,154,66.8,31.1,0,5,10,1,2026-04-01T14:39:40.004879+05:30
Pondicherry,Puducherry,11.9139,79.8145,33.6,48,0.0,1007.6,8.6,25.9,43,10.7,7.7,0,5,4,1,2026-04-01T14:39:40.004889+05:30
Port Blair,Andaman and Nicobar Islands,11.6234,92.7265,28.3,81,0.0,1006.6,3.85,15.5,42,16.0,14.2,7,5,0,1,2026-04-01T14:39:40.004898+05:30
Haridwar,Uttarakhand,29.9457,78.1642,31.8,28,0.0,976.2,6.6,26.3,74,52.3,16.0,0,5,7,0,2026-04-01T14:39:40.004907+05:30
Rishikesh,Uttarakhand,30.0869,78.2676,31.1,28,0.0,969.0,6.6,29.2,58,34.6,10.8,0,5,7,0,2026-04-01T14:39:40.004916+05:30
Nainital,Uttarakhand,29.3919,79.4542,24.5,35,0.0,810.3,7.45,37.8,58,33.9,11.1,0,5,7,0,2026-04-01T14:39:40.004925+05:30
Mussoorie,Uttarakhand,30.4599,78.0664,21.6,36,0.0,806.3,6.4,38.9,59,32.5,10.7,0,5,7,0,2026-04-01T14:39:40.004933+05:30
Dharamshala,Himachal Pradesh,32.219,76.3234,23.3,43,0.0,872.1,6.25,24.5,60,26.3,8.5,0,5,7,0,2026-04-01T14:39:40.004941+05:30
Dalhousie,Himachal Pradesh,32.5387,75.971,21.8,37,0.0,807.4,5.7,20.9,54,32.6,11.4,0,5,3,0,2026-04-01T14:39:40.004951+05:30
Patiala,Punjab,30.3398,76.3869,30.4,33,0.0,980.4,5.7,13.0,149,223.5,36.3,0,5,3,0,2026-04-01T14:39:40.004960+05:30
Bhatinda,Punjab,30.211,74.9455,29.7,39,0.0,986.2,6.05,20.5,102,154.1,32.1,4,5,7,0,2026-04-01T14:39:40.004968+05:30
Rohtak,Haryana,28.8955,76.6066,31.7,37,0.0,984.0,6.6,29.2,149,216.1,36.3,0,5,7,0,2026-04-01T14:39:40.004976+05:30
Panipat,Haryana,29.3909,76.9635,30.8,39,0.0,982.6,6.25,20.2,159,258.0,40.9,0,5,7,0,2026-04-01T14:39:40.004984+05:30
Mathura,Uttar Pradesh,27.4924,77.6737,32.2,38,0.0,988.6,7.15,24.5,330,205.8,38.3,0,5,7,1,2026-04-01T14:39:40.004992+05:30
Vrindavan,Uttar Pradesh,27.5823,77.7027,33.5,34,0.0,989.0,7.1,28.8,330,205.8,38.3,0,5,7,0,2026-04-01T14:39:40.005001+05:30
Ayodhya,Uttar Pradesh,26.7922,82.1998,34.1,34,0.0,995.7,7.55,29.2,94,41.0,17.5,0,5,7,0,2026-04-01T14:39:40.005009+05:30
Ratlam,Madhya Pradesh,23.3315,75.0367,35.5,30,0.0,954.5,8.15,34.6,69,31.1,21.4,0,5,10,0,2026-04-01T14:39:40.005017+05:30
Sagar,Madhya Pradesh,23.8388,78.7378,36.6,23,0.0,950.2,8.25,37.1,47,19.8,12.8,0,5,10,0,2026-04-01T14:39:40.005026+05:30
Satna,Madhya Pradesh,24.6005,80.8322,34.9,33,0.0,971.8,8.0,24.5,66,39.8,17.8,0,5,7,1,2026-04-01T14:39:40.005034+05:30
Akola,Maharashtra,20.7002,77.0082,36.0,36,0.0,974.4,8.55,20.9,79,27.4,18.6,0,5,10,1,2026-04-01T14:39:40.005042+05:30
Amravati,Maharashtra,20.9374,77.7796,35.2,36,0.0,967.1,8.6,26.3,76,24.4,16.9,0,5,10,1,2026-04-01T14:39:40.005051+05:30
Latur,Maharashtra,18.4088,76.5604,35.4,31,0.0,939.5,8.85,28.1,119,31.7,25.4,0,5,10,0,2026-04-01T14:39:40.005059+05:30
Nanded,Maharashtra,19.1383,77.3091,37.2,29,0.0,967.7,8.75,24.8,109,28.2,21.9,0,5,10,1,2026-04-01T14:39:40.005068+05:30
Gulbarga,Karnataka,17.3297,76.8343,36.3,30,0.0,958.2,8.95,39.6,106,34.0,28.2,0,5,10,0,2026-04-01T14:39:40.005076+05:30
Bidar,Karnataka,17.9104,77.5199,34.7,36,0.0,935.6,8.95,25.2,123,33.3,27.1,0,5,7,1,2026-04-01T14:39:40.005084+05:30
Hospet,Karnataka,15.2689,76.3909,34.1,38,0.0,955.2,9.15,28.8,114,40.0,33.2,0,5,7,1,2026-04-01T14:39:40.005092+05:30
Tirupur,Tamil Nadu,11.1085,77.3411,36.1,25,0.0,974.1,9.4,21.6,59,25.0,18.5,0,5,10,0,2026-04-01T14:39:40.005103+05:30
Alappuzha,Kerala,9.4981,76.3388,29.2,76,0.0,1007.0,9.2,27.0,103,24.5,21.5,7,5,4,1,2026-04-01T14:39:40.005111+05:30
Munnar,Kerala,10.0889,77.0595,31.0,35,0.0,858.2,9.75,29.2,70,19.5,11.5,0,5,7,0,2026-04-01T14:39:40.005119+05:30
Silchar,Assam,24.8333,92.7789,28.0,71,0.0,1005.6,8.4,31.0,123,51.2,41.7,7,5,4,1,2026-04-01T14:39:40.005128+05:30
Dibrugarh,Assam,27.4728,94.912,24.8,83,0.0,994.8,7.65,34.2,109,62.9,42.8,3,5,7,1,2026-04-01T14:39:40.005136+05:30
