city,state,latitude,longitude,temp,humidity,rain,pressure,uv_index,wind_gusts,aqi,pm10,pm2_5,no2,co,o3,so2,mosquito_risk,arthritis_risk,migraine_risk,frizz_risk,updated_at
Delhi,Delhi,28.6139,77.209,28.1,64,0.0,981.5,7.55,50.8,169,198.8,51.3,10.0,495.0,177.0,20.9,7,5,7,1,2026-05-31T17:47:20.315448+05:30
Mumbai,Maharashtra,19.076,72.8777,31.6,68,0.0,1007.1,7.8,40.3,62,26.4,16.3,5.2,158.0,65.0,4.6,3,5,4,1,2026-05-31T17:47:20.315497+05:30
Bangalore,Karnataka,12.9716,77.5946,25.4,76,0.2,911.1,9.25,42.8,84,22.3,16.7,14.5,566.0,94.0,4.2,10,5,7,1,2026-05-31T17:47:20.315513+05:30
Hyderabad,Telangana,17.385,78.4867,35.5,32,0.0,950.9,9.05,55.1,73,51.6,24.6,3.8,228.0,111.0,4.0,0,5,10,0,2026-05-31T17:47:20.315523+05:30
Chennai,Tamil Nadu,13.0827,80.2707,33.8,58,0.0,1004.3,8.3,38.2,106,30.5,24.0,5.9,278.0,132.0,8.0,0,5,4,1,2026-05-31T17:47:20.315531+05:30
Kolkata,West Bengal,22.5726,88.3639,30.6,74,0.0,1003.3,8.95,26.6,152,49.8,37.8,8.8,445.0,106.0,9.4,3,5,4,1,2026-05-31T17:47:20.315538+05:30
Pune,Maharashtra,18.5204,73.8567,29.9,58,0.0,947.4,5.75,42.1,53,32.8,15.4,2.4,139.0,88.0,3.5,4,5,3,1,2026-05-31T17:47:20.315546+05:30
Ahmedabad,Gujarat,23.0225,72.5714,39.7,29,0.0,997.8,8.1,53.3,71,74.0,21.9,1.9,140.0,91.0,2.5,0,5,10,1,2026-05-31T17:47:20.315553+05:30
Jaipur,Rajasthan,26.9124,75.7873,33.3,35,0.0,958.2,8.15,41.4,83,177.9,36.2,1.6,200.0,108.0,2.7,0,5,7,0,2026-05-31T17:47:20.315566+05:30
Lucknow,Uttar Pradesh,26.8467,80.9462,30.4,60,0.0,991.6,8.15,41.0,145,54.5,21.4,3.1,258.0,147.0,4.5,0,5,7,1,2026-05-31T17:47:20.315572+05:30
Kanpur,Uttar Pradesh,26.4499,80.3319,34.2,40,0.0,989.4,8.15,54.7,151,73.8,23.7,2.8,250.0,154.0,5.7,0,5,7,1,2026-05-31T17:47:20.315579+05:30
Chandigarh,Chandigarh,30.7333,76.7794,28.6,50,0.0,968.6,7.0,39.2,146,36.9,24.6,4.3,324.0,160.0,5.8,4,5,7,1,2026-05-31T17:47:20.315585+05:30
Srinagar,Jammu and Kashmir,34.0837,74.7973,27.0,33,0.0,841.3,9.0,27.0,125,60.3,24.9,2.3,324.0,135.0,2.8,4,5,7,0,2026-05-31T17:47:20.315592+05:30
Jammu,Jammu and Kashmir,32.7266,74.857,31.4,40,0.0,971.9,8.5,28.1,142,92.4,30.4,2.5,254.0,154.0,4.3,0,5,7,1,2026-05-31T17:47:20.315598+05:30
Amritsar,Punjab,31.634,74.8723,31.9,40,0.0,979.7,8.3,35.6,136,183.0,44.1,1.9,261.0,153.0,5.7,0,5,7,1,2026-05-31T17:47:20.315605+05:30
Ludhiana,Punjab,30.901,75.8573,31.8,38,0.0,977.8,7.85,38.5,140,276.6,50.3,2.4,345.0,161.0,6.9,0,5,7,0,2026-05-31T17:47:20.315617+05:30
Jalandhar,Punjab,31.326,75.5762,32.0,37,0.0,978.8,8.05,38.2,146,134.6,35.6,2.4,298.0,165.0,7.7,0,5,7,0,2026-05-31T17:47:20.315623+05:30
Dehradun,Uttarakhand,30.6284,78.0322,17.2,77,0.0,830.8,7.25,30.2,101,6.7,4.3,1.3,228.0,136.0,0.9,3,5,7,0,2026-05-31T17:47:20.315630+05:30
Shimla,Himachal Pradesh,31.1048,77.1734,12.5,98,0.0,783.9,2.85,22.3,101,16.9,13.1,5.2,292.0,132.0,1.1,3,10,3,0,2026-05-31T17:47:20.315638+05:30
Manali,Himachal Pradesh,32.2396,77.1887,17.4,75,0.0,819.3,7.6,33.5,122,12.5,6.4,2.0,166.0,154.0,0.3,3,5,7,0,2026-05-31T17:47:20.315645+05:30
Gurgaon,Haryana,28.4595,77.0266,28.7,61,0.0,979.8,7.65,46.4,803,421.0,70.5,8.2,471.0,157.0,13.1,7,5,7,1,2026-05-31T17:47:20.315652+05:30
Noida,Uttar Pradesh,28.5355,77.391,28.0,65,0.0,983.1,7.6,51.5,803,421.0,70.5,8.2,380.0,157.0,13.1,7,5,7,1,2026-05-31T17:47:20.315658+05:30
Ghaziabad,Uttar Pradesh,28.6692,77.4538,27.4,71,0.0,981.5,7.6,54.4,131,100.4,30.5,4.6,315.0,153.0,9.9,7,5,7,1,2026-05-31T17:47:20.315665+05:30
Faridabad,Haryana,28.4089,77.3178,28.5,64,0.0,982.2,7.65,49.7,803,421.0,70.5,8.2,442.0,157.0,13.1,7,5,7,1,2026-05-31T17:47:20.315673+05:30
Meerut,Uttar Pradesh,28.9845,77.7064,26.4,73,0.0,980.7,6.9,35.6,131,100.4,30.5,4.6,312.0,153.0,9.9,7,5,7,1,2026-05-31T17:47:20.315679+05:30
Agra,Uttar Pradesh,27.1767,78.0081,34.5,35,0.1,985.2,7.95,33.1,548,146.2,32.5,2.7,250.0,150.0,4.6,3,5,7,1,2026-05-31T17:47:20.315685+05:30
Varanasi,Uttar Pradesh,25.3176,82.9739,33.8,49,0.0,994.4,8.65,31.0,169,61.2,36.0,3.2,375.0,171.0,8.1,0,5,7,1,2026-05-31T17:47:20.315692+05:30
Prayagraj,Uttar Pradesh,25.4358,81.8463,35.3,36,0.0,993.1,8.55,25.2,166,54.4,31.4,2.9,269.0,169.0,7.2,0,5,10,1,2026-05-31T17:47:20.315699+05:30
Gorakhpur,Uttar Pradesh,26.7606,83.3732,31.4,61,0.0,994.7,8.55,26.3,154,61.7,39.3,3.4,327.0,159.0,6.5,3,5,7,1,2026-05-31T17:47:20.315707+05:30
Bareilly,Uttar Pradesh,28.367,79.4304,26.6,76,0.0,986.6,7.95,33.5,135,32.2,19.8,3.2,283.0,151.0,3.3,7,5,7,1,2026-05-31T17:47:20.315714+05:30
Aligarh,Uttar Pradesh,27.8974,78.088,26.6,73,0.1,983.7,7.75,44.6,146,158.8,38.2,3.5,286.0,161.0,10.2,10,5,7,1,2026-05-31T17:47:20.315720+05:30
Moradabad,Uttar Pradesh,28.8386,78.7733,25.5,85,0.0,983.2,7.75,30.2,150,42.1,25.4,4.6,353.0,170.0,11.3,7,5,7,1,2026-05-31T17:47:20.315726+05:30
Saharanpur,Uttar Pradesh,29.9637,77.546,27.9,62,0.0,975.5,6.55,32.8,129,36.6,21.4,2.6,326.0,153.0,2.9,7,5,7,1,2026-05-31T17:47:20.315732+05:30
Jhansi,Uttar Pradesh,25.4484,78.5685,34.5,35,0.0,975.5,8.35,19.4,124,30.6,14.0,1.8,216.0,144.0,6.9,0,5,7,1,2026-05-31T17:47:23.543693+05:30
Surat,Gujarat,21.1702,72.8311,32.7,62,0.0,1004.5,7.7,49.7,78,27.9,19.6,12.1,195.0,44.0,29.5,3,5,4,1,2026-05-31T17:47:23.543729+05:30
Vadodara,Gujarat,22.3072,73.1812,36.2,43,0.0,1000.9,8.05,43.6,73,59.0,21.2,2.4,144.0,89.0,3.7,0,5,7,1,2026-05-31T17:47:23.543740+05:30
Rajkot,Gujarat,22.3039,70.8022,37.8,37,0.0,990.7,7.7,43.6,65,48.4,23.1,1.4,111.0,91.0,4.1,0,5,10,1,2026-05-31T17:47:23.543749+05:30
Thane,Maharashtra,19.2183,72.9781,32.2,64,0.0,1006.3,7.8,37.1,62,26.4,16.3,5.2,148.0,65.0,4.6,3,5,4,1,2026-05-31T17:47:23.543757+05:30
Nagpur,Maharashtra,21.1458,79.0882,37.8,20,0.0,970.2,8.8,39.6,95,50.4,20.6,5.0,176.0,127.0,12.3,0,5,10,0,2026-05-31T17:47:23.543765+05:30
Nashik,Maharashtra,19.9975,73.7898,30.6,51,0.1,944.8,8.1,46.8,55,23.2,12.0,1.3,120.0,68.0,0.8,3,5,7,1,2026-05-31T17:47:23.543772+05:30
Aurangabad,Maharashtra,19.8762,75.3433,35.1,25,0.0,942.4,8.85,51.8,65,59.6,19.6,1.7,127.0,102.0,2.5,0,5,10,0,2026-05-31T17:47:23.543780+05:30
Solapur,Maharashtra,17.6599,75.9064,36.6,25,0.1,954.9,8.9,62.3,65,61.5,20.6,1.5,129.0,99.0,1.9,3,5,10,0,2026-05-31T17:47:23.543788+05:30
Kolhapur,Maharashtra,16.705,74.2433,30.6,55,0.0,947.3,8.75,47.5,42,15.0,9.1,2.6,133.0,82.0,1.6,0,5,7,1,2026-05-31T17:47:23.543795+05:30
Goa,Goa,15.2993,74.124,31.9,64,0.0,996.8,7.35,33.1,51,12.7,8.2,0.9,150.0,57.0,1.0,3,5,7,1,2026-05-31T17:47:23.543802+05:30
Jodhpur,Rajasthan,26.2389,73.0243,37.7,31,0.0,980.1,8.4,39.6,84,206.3,37.4,1.0,124.0,93.0,1.8,0,5,10,1,2026-05-31T17:47:23.543808+05:30
Udaipur,Rajasthan,24.5854,73.7125,34.5,31,0.0,944.8,8.75,36.7,64,98.0,27.2,0.9,127.0,101.0,3.4,0,5,7,0,2026-05-31T17:47:23.543816+05:30
Kota,Rajasthan,25.2138,75.8648,37.0,25,0.0,975.9,8.3,28.8,75,58.9,21.3,1.4,141.0,117.0,4.1,0,5,10,0,2026-05-31T17:47:23.543824+05:30
Bikaner,Rajasthan,28.0229,73.3119,35.8,34,0.0,979.4,8.35,28.1,58,212.8,44.6,0.5,133.0,92.0,2.7,0,5,10,1,2026-05-31T17:47:23.543832+05:30
Ajmer,Rajasthan,26.4499,74.6399,31.5,47,0.0,953.2,8.3,40.3,51,99.4,26.6,1.0,131.0,106.0,2.2,0,5,7,1,2026-05-31T17:47:23.543839+05:30
Gwalior,Madhya Pradesh,26.2183,78.1828,33.8,44,0.0,980.7,8.15,19.1,110,51.6,18.2,1.0,189.0,137.0,3.7,0,5,7,1,2026-05-31T17:47:23.543845+05:30
Indore,Madhya Pradesh,22.7196,75.8577,35.5,28,0.1,946.3,8.15,67.7,64,55.3,20.6,1.4,163.0,108.0,2.5,3,5,10,0,2026-05-31T17:47:23.543852+05:30
Bhopal,Madhya Pradesh,23.2599,77.4126,35.5,23,0.0,951.4,8.6,42.1,94,29.6,11.6,1.0,166.0,131.0,2.8,0,5,10,0,2026-05-31T17:47:23.543860+05:30
Jabalpur,Madhya Pradesh,23.1815,79.9864,32.8,37,0.0,959.7,8.75,48.6,111,52.2,24.6,2.3,176.0,134.0,3.9,0,5,7,1,2026-05-31T17:47:23.543866+05:30
Ujjain,Madhya Pradesh,23.1765,75.7885,35.8,30,0.1,951.7,8.3,52.6,63,58.1,21.6,0.9,140.0,104.0,2.9,3,5,10,0,2026-05-31T17:47:23.543874+05:30
Visakhapatnam,Andhra Pradesh,17.6868,83.2185,32.5,68,0.0,999.2,9.0,44.6,120,50.3,39.7,18.0,412.0,109.0,40.5,3,5,7,1,2026-05-31T17:47:23.543881+05:30
Vijayawada,Andhra Pradesh,16.5062,80.648,38.1,33,0.0,998.1,8.95,41.4,114,55.5,38.3,9.3,216.0,124.0,8.0,0,5,10,1,2026-05-31T17:47:23.543888+05:30
Guntur,Andhra Pradesh,16.3067,80.4365,37.4,37,0.0,999.5,8.55,45.0,95,56.5,33.4,6.1,224.0,116.0,6.1,0,5,10,1,2026-05-31T17:47:23.543895+05:30
Nellore,Andhra Pradesh,14.4426,79.9865,33.8,60,0.0,1002.8,8.3,33.1,92,34.0,27.5,3.5,167.0,143.0,3.5,0,5,4,1,2026-05-31T17:47:23.543903+05:30
Kurnool,Andhra Pradesh,15.8281,78.0373,35.8,40,0.0,973.9,9.0,55.1,61,41.9,21.9,2.1,150.0,120.0,7.0,0,5,10,1,2026-05-31T17:47:23.543910+05:30
Kakinada,Andhra Pradesh,16.9891,82.2475,36.2,51,0.0,1002.5,8.8,37.8,90,38.2,29.6,3.2,275.0,125.0,2.9,0,5,7,1,2026-05-31T17:47:23.543917+05:30
Tirupati,Andhra Pradesh,13.6288,79.4192,32.5,51,0.0,988.5,9.05,34.9,73,26.8,19.0,6.4,222.0,110.0,3.7,0,5,7,1,2026-05-31T17:47:23.543925+05:30
Warangal,Telangana,17.9689,79.5941,36.2,34,0.0,975.2,8.55,59.0,96,46.4,26.7,4.4,180.0,114.0,5.3,0,5,10,1,2026-05-31T17:47:23.543931+05:30
Nizamabad,Telangana,18.6725,78.0941,36.0,28,0.0,961.9,9.0,40.0,86,81.3,27.3,1.4,139.0,107.0,2.8,0,5,10,0,2026-05-31T17:47:23.543938+05:30
Mysore,Karnataka,12.2958,76.6396,27.0,70,0.1,928.5,9.15,44.6,54,15.9,11.0,4.1,209.0,111.0,1.7,10,5,7,1,2026-05-31T17:47:23.543945+05:30
Mangalore,Karnataka,12.9141,74.856,29.0,82,0.0,1006.2,8.75,29.5,45,13.8,8.7,1.7,176.0,68.0,1.5,7,5,4,1,2026-05-31T17:47:23.543952+05:30
Hubli-Dharwad,Karnataka,15.3647,75.124,30.7,55,0.0,939.9,8.9,43.6,39,13.5,8.4,2.1,151.0,82.0,1.0,0,5,7,1,2026-05-31T17:47:23.543959+05:30
Belgaum,Karnataka,15.8497,74.4977,28.2,66,0.0,925.5,7.55,44.6,37,14.1,9.3,1.9,132.0,71.0,1.2,7,5,7,1,2026-05-31T17:47:26.774605+05:30
Coimbatore,Tamil Nadu,11.0168,76.9558,29.2,67,0.0,961.1,7.95,43.2,44,10.5,8.5,4.5,160.0,77.0,2.0,7,5,7,1,2026-05-31T17:47:26.774643+05:30
Madurai,Tamil Nadu,9.9252,78.1198,32.8,49,0.0,991.2,8.8,33.1,114,38.9,19.4,4.7,176.0,140.0,3.3,0,5,7,1,2026-05-31T17:47:26.774654+05:30
Trichy,Tamil Nadu,10.7905,78.7047,29.8,86,0.0,997.7,8.9,34.2,69,25.3,15.2,6.4,158.0,114.0,3.2,7,5,7,1,2026-05-31T17:47:26.774663+05:30
Salem,Tamil Nadu,11.6643,78.146,26.4,84,0.2,976.1,8.35,47.9,137,29.8,19.8,5.4,204.0,152.0,8.6,10,5,7,1,2026-05-31T17:47:26.774671+05:30
Tirunelveli,Tamil Nadu,8.7139,77.7567,35.0,40,0.1,1001.0,8.45,24.5,39,10.3,6.7,2.7,126.0,76.0,1.1,3,5,4,1,2026-05-31T17:47:26.774680+05:30
Vellore,Tamil Nadu,12.9165,79.1325,27.4,85,0.0,983.0,8.45,37.1,98,27.1,21.8,10.0,208.0,97.0,3.0,7,5,7,1,2026-05-31T17:47:26.774688+05:30
Erode,Tamil Nadu,11.341,77.7172,31.1,60,0.0,988.2,8.75,27.7,80,19.2,12.5,4.8,179.0,121.0,2.2,0,5,7,1,2026-05-31T17:47:26.774696+05:30
Kochi,Kerala,9.9312,76.2673,25.6,90,0.0,1009.4,7.75,32.8,62,13.5,9.1,5.2,133.0,64.0,2.7,7,0,4,1,2026-05-31T17:47:26.774703+05:30
Thiruvananthapuram,Kerala,8.5241,76.9366,26.8,88,0.1,1008.6,7.35,31.3,36,11.9,6.9,1.5,126.0,65.0,0.5,10,0,4,1,2026-05-31T17:47:26.774711+05:30
Kozhikode,Kerala,11.2588,75.7804,27.3,89,0.1,1007.9,8.65,29.2,32,8.1,4.9,0.6,181.0,63.0,0.5,10,5,4,1,2026-05-31T17:47:26.774718+05:30
Thrissur,Kerala,10.5276,76.2144,26.9,88,0.0,1007.5,7.4,32.4,56,12.8,8.7,4.5,131.0,57.0,1.6,7,5,4,1,2026-05-31T17:47:26.774726+05:30
Kannur,Kerala,11.8745,75.3704,27.3,92,0.1,1007.1,7.1,31.0,40,10.6,6.8,1.5,200.0,64.0,1.0,10,5,4,1,2026-05-31T17:47:26.774733+05:30
Patna,Bihar,25.5941,85.1376,31.8,67,0.0,997.4,8.8,33.5,195,75.0,57.6,7.3,406.0,178.0,16.5,3,5,7,1,2026-05-31T17:47:26.774741+05:30
Gaya,Bihar,24.7914,85.0002,32.8,56,0.0,991.0,8.85,21.2,172,53.6,40.0,4.2,317.0,167.0,12.1,0,5,7,1,2026-05-31T17:47:26.774749+05:30
Muzaffarpur,Bihar,26.1209,85.3647,31.9,68,0.0,997.3,8.75,33.5,195,80.8,62.9,10.9,425.0,165.0,16.3,3,5,7,1,2026-05-31T17:47:26.774757+05:30
Bhagalpur,Bihar,25.2425,87.0117,32.2,66,0.0,997.9,8.75,25.9,212,78.7,61.2,8.4,373.0,213.0,30.0,3,5,7,1,2026-05-31T17:47:26.774763+05:30
Ranchi,Jharkhand,23.3441,85.3096,27.5,67,0.0,936.2,9.2,32.4,136,56.6,39.1,4.0,249.0,157.0,9.1,7,5,7,1,2026-05-31T17:47:26.774771+05:30
Jamshedpur,Jharkhand,22.8046,86.2029,27.5,82,0.0,988.6,5.55,36.7,187,61.7,48.3,9.6,414.0,170.0,24.3,7,5,3,1,2026-05-31T17:47:26.774777+05:30
Dhanbad,Jharkhand,23.7957,86.4304,28.9,72,0.3,977.9,8.85,24.5,168,85.2,70.5,26.3,544.0,178.0,78.7,10,5,7,1,2026-05-31T17:47:26.774784+05:30
Bokaro,Jharkhand,23.6693,86.1511,29.9,72,0.0,981.5,9.0,27.0,185,86.6,71.0,24.0,746.0,200.0,84.9,7,5,7,1,2026-05-31T17:47:26.774791+05:30
Bhubaneswar,Odisha,20.2961,85.8245,29.4,83,0.0,999.8,8.85,26.3,128,50.4,36.6,5.7,361.0,133.0,8.0,7,5,7,1,2026-05-31T17:47:26.774799+05:30
Cuttack,Odisha,20.4625,85.8828,29.6,85,0.3,1001.6,9.1,24.5,128,50.4,36.6,5.7,311.0,133.0,8.0,10,5,4,1,2026-05-31T17:47:26.774805+05:30
Rourkela,Odisha,22.2604,84.8536,31.0,63,0.0,982.2,8.9,37.1,172,46.4,33.1,4.4,327.0,179.0,10.4,3,5,7,1,2026-05-31T17:47:26.774812+05:30
Raipur,Chhattisgarh,21.2514,81.6296,38.2,20,0.0,971.0,8.85,31.3,148,52.7,31.8,10.3,239.0,153.0,31.6,0,5,10,0,2026-05-31T17:47:26.774819+05:30
Bhilai,Chhattisgarh,21.1938,81.3509,37.7,22,0.0,971.5,8.85,29.5,136,54.4,28.5,11.5,275.0,134.0,29.4,0,5,10,0,2026-05-31T17:47:26.774827+05:30
Guwahati,Assam,26.1158,91.7086,30.4,80,0.0,998.3,8.75,29.9,79,29.9,20.9,4.1,355.0,93.0,1.9,3,5,7,1,2026-05-31T17:47:26.774833+05:30
Agartala,Tripura,23.8315,91.2868,31.0,72,0.0,1003.0,8.85,23.8,183,46.3,38.9,17.0,365.0,135.0,9.7,3,5,4,1,2026-05-31T17:47:26.774840+05:30
Shillong,Meghalaya,25.5788,91.8933,20.9,95,0.1,856.9,9.05,23.8,67,22.1,15.3,4.5,258.0,98.0,2.8,6,5,7,1,2026-05-31T17:47:26.774847+05:30
Imphal,Manipur,24.817,93.9368,24.2,90,0.0,922.1,9.0,24.5,68,5.6,5.4,5.7,298.0,55.0,1.4,3,5,7,1,2026-05-31T17:47:26.774854+05:30
Aizawl,Mizoram,23.7271,92.7176,22.0,95,0.0,891.0,8.2,27.7,38,9.5,7.6,3.8,232.0,53.0,0.6,3,5,7,1,2026-05-31T17:47:26.774860+05:30
Kohima,Nagaland,25.6701,94.1077,21.6,98,0.2,854.6,1.95,23.0,51,7.8,6.8,4.6,207.0,51.0,0.6,6,5,3,1,2026-05-31T17:47:26.774867+05:30
Gangtok,Sikkim,27.3314,88.6138,20.8,78,0.0,837.4,9.2,42.5,86,32.0,20.1,3.0,257.0,125.0,2.0,3,5,7,1,2026-05-31T17:47:26.774873+05:30
Siliguri,West Bengal,26.7271,88.3953,31.0,68,0.0,989.4,8.6,20.2,137,51.5,31.0,4.8,526.0,144.0,4.5,3,5,7,1,2026-05-31T17:47:30.024071+05:30
Durgapur,West Bengal,23.5204,87.3119,30.2,75,0.0,992.3,8.95,23.8,185,79.9,70.5,25.1,435.0,182.0,61.2,3,5,7,1,2026-05-31T17:47:30.024109+05:30
Asansol,West Bengal,23.6739,86.9524,26.5,94,0.0,991.2,9.0,29.2,167,77.1,65.9,24.2,381.0,167.0,53.0,7,5,7,1,2026-05-31T17:47:30.024121+05:30
Pondicherry,Puducherry,11.9139,79.8145,31.3,74,0.0,1005.8,8.85,38.9,119,34.7,27.5,12.0,193.0,135.0,6.1,3,5,4,1,2026-05-31T17:47:30.024131+05:30
Port Blair,Andaman and Nicobar Islands,11.6234,92.7265,26.5,90,0.0,1005.8,8.0,36.0,35,9.0,5.1,0.4,139.0,78.0,0.4,7,5,4,1,2026-05-31T17:47:30.024139+05:30
Haridwar,Uttarakhand,29.9457,78.1642,27.3,64,0.0,973.8,7.15,27.4,123,27.9,17.1,2.1,242.0,147.0,2.6,7,5,7,1,2026-05-31T17:47:30.024147+05:30
Rishikesh,Uttarakhand,30.0869,78.2676,24.6,92,0.1,966.5,6.9,29.9,103,19.4,12.3,3.2,245.0,123.0,1.6,6,5,7,1,2026-05-31T17:47:30.024155+05:30
Nainital,Uttarakhand,29.3919,79.4542,16.2,77,0.0,805.8,6.15,25.6,107,28.2,17.3,3.4,245.0,135.0,2.6,3,5,7,0,2026-05-31T17:47:30.024162+05:30
Mussoorie,Uttarakhand,30.4599,78.0664,15.3,76,0.0,803.0,7.65,37.4,125,16.2,10.6,2.1,239.0,141.0,1.7,3,5,7,0,2026-05-31T17:47:30.024170+05:30
Dharamshala,Himachal Pradesh,32.219,76.3234,20.6,56,0.1,869.5,7.85,36.7,96,22.8,11.0,1.8,254.0,134.0,0.7,3,5,7,0,2026-05-31T17:47:30.024177+05:30
Dalhousie,Himachal Pradesh,32.5387,75.971,16.5,80,0.0,805.1,7.7,23.0,139,41.3,15.0,2.6,265.0,150.0,2.1,3,5,7,0,2026-05-31T17:47:30.024185+05:30
Patiala,Punjab,30.3398,76.3869,29.4,50,0.0,977.7,7.5,44.6,343,362.3,54.0,2.2,284.0,162.0,6.8,4,5,7,1,2026-05-31T17:47:30.024193+05:30
Bhatinda,Punjab,30.211,74.9455,33.0,41,0.0,982.0,8.2,33.5,361,957.4,156.0,3.8,237.0,164.0,13.6,0,5,7,1,2026-05-31T17:47:30.024201+05:30
Rohtak,Haryana,28.8955,76.6066,29.9,56,0.0,980.4,7.6,47.5,514,378.1,75.4,5.3,347.0,193.0,14.6,4,5,7,1,2026-05-31T17:47:30.024208+05:30
Panipat,Haryana,29.3909,76.9635,28.4,61,0.0,979.7,7.4,32.4,646,244.0,54.1,5.6,314.0,181.0,17.3,7,5,7,1,2026-05-31T17:47:30.024215+05:30
Mathura,Uttar Pradesh,27.4924,77.6737,31.3,47,0.1,984.4,7.9,40.3,499,161.1,34.1,2.8,294.0,146.0,3.7,3,5,7,1,2026-05-31T17:47:30.024222+05:30
Vrindavan,Uttar Pradesh,27.5823,77.7027,30.1,53,0.2,985.1,7.85,39.6,499,161.1,34.1,2.8,278.0,146.0,3.7,3,5,7,1,2026-05-31T17:47:30.024229+05:30
Ayodhya,Uttar Pradesh,26.7922,82.1998,29.1,70,0.0,993.4,8.25,38.5,148,52.2,28.6,3.9,287.0,144.0,4.6,7,5,7,1,2026-05-31T17:47:30.024236+05:30
Ratlam,Madhya Pradesh,23.3315,75.0367,34.7,33,0.0,953.0,8.4,47.2,64,60.8,22.8,0.8,126.0,101.0,3.3,0,5,7,0,2026-05-31T17:47:30.024242+05:30
Sagar,Madhya Pradesh,23.8388,78.7378,32.5,38,0.0,948.4,8.65,49.0,94,17.1,7.8,0.9,151.0,132.0,2.6,0,5,7,1,2026-05-31T17:47:30.024249+05:30
Satna,Madhya Pradesh,24.6005,80.8322,33.7,33,0.0,969.3,8.7,30.6,134,31.3,18.7,1.3,225.0,150.0,4.9,0,5,7,0,2026-05-31T17:47:30.024257+05:30
Akola,Maharashtra,20.7002,77.0082,36.4,25,0.0,972.6,8.75,64.1,73,60.5,22.1,1.9,126.0,118.0,5.1,0,5,10,0,2026-05-31T17:47:30.024265+05:30
Amravati,Maharashtra,20.9374,77.7796,37.0,23,0.0,964.5,8.75,48.6,73,62.4,22.6,2.2,146.0,119.0,5.4,0,5,10,0,2026-05-31T17:47:30.024273+05:30
Latur,Maharashtra,18.4088,76.5604,35.8,20,0.0,937.9,8.95,44.3,67,85.9,25.7,1.3,134.0,98.0,1.9,0,5,10,0,2026-05-31T17:47:30.024281+05:30
Nanded,Maharashtra,19.1383,77.3091,37.3,22,0.0,965.6,8.85,47.2,75,97.1,27.2,1.5,138.0,94.0,1.2,0,5,10,0,2026-05-31T17:47:30.024289+05:30
Gulbarga,Karnataka,17.3297,76.8343,36.8,25,0.0,956.3,8.95,52.2,59,49.4,18.2,1.9,136.0,103.0,2.0,0,5,10,0,2026-05-31T17:47:30.024296+05:30
Bidar,Karnataka,17.9104,77.5199,33.3,36,0.1,933.5,9.0,45.4,73,75.9,26.2,2.1,149.0,107.0,3.0,3,5,7,0,2026-05-31T17:47:30.024303+05:30
Hospet,Karnataka,15.2689,76.3909,33.2,54,0.0,953.6,9.0,52.2,46,22.4,11.6,2.7,144.0,102.0,3.0,0,5,7,1,2026-05-31T17:47:30.024309+05:30
Tirupur,Tamil Nadu,11.1085,77.3411,31.6,54,0.0,974.1,8.5,36.0,68,15.9,11.2,5.3,160.0,106.0,2.7,0,5,7,1,2026-05-31T17:47:30.024316+05:30
Alappuzha,Kerala,9.4981,76.3388,26.4,91,0.1,1009.5,6.4,27.7,46,11.6,7.1,3.9,104.0,63.0,1.5,10,0,4,1,2026-05-31T17:47:30.024323+05:30
Munnar,Kerala,10.0889,77.0595,19.0,96,0.1,857.6,7.95,25.9,41,19.9,10.6,2.7,144.0,85.0,1.3,6,10,7,1,2026-05-31T17:47:30.024331+05:30
Silchar,Assam,24.8333,92.7789,30.1,79,0.0,1001.6,8.2,20.2,112,35.5,25.9,6.1,253.0,79.0,4.5,3,5,4,1,2026-05-31T17:47:30.024338+05:30
Dibrugarh,Assam,27.4728,94.912,29.0,86,0.1,992.8,5.15,22.7,111,22.4,18.6,6.8,246.0,66.0,1.6,10,5,3,1,2026-05-31T17:47:30.024344+05:30
