city,state,latitude,longitude,temp,humidity,rain,pressure,uv_index,wind_gusts,aqi,pm10,pm2_5,no2,co,o3,so2,mosquito_risk,arthritis_risk,migraine_risk,frizz_risk,updated_at
Delhi,Delhi,28.6139,77.209,26.4,53,0.0,977.1,7.6,31.7,288,376.3,75.2,16.3,492.0,97.0,19.6,4,5,7,0,2026-05-02T03:25:13.625862+05:30
Mumbai,Maharashtra,19.076,72.8777,27.8,81,0.0,1006.1,7.9,41.4,65,54.7,17.3,8.6,230.0,63.0,15.7,7,5,4,1,2026-05-02T03:25:13.625909+05:30
Bangalore,Karnataka,12.9716,77.5946,22.1,84,0.0,909.6,9.5,40.0,101,33.3,29.2,22.2,398.0,75.0,10.3,3,5,7,1,2026-05-02T03:25:13.625926+05:30
Hyderabad,Telangana,17.385,78.4867,28.6,37,0.0,949.7,9.25,33.1,80,66.1,38.5,39.0,317.0,51.0,13.8,4,5,7,0,2026-05-02T03:25:13.625944+05:30
Chennai,Tamil Nadu,13.0827,80.2707,29.5,81,0.0,1004.3,9.25,56.9,61,13.3,9.3,5.0,238.0,70.0,3.5,7,5,4,1,2026-05-02T03:25:13.625954+05:30
Kolkata,West Bengal,22.5726,88.3639,25.0,89,0.0,1001.9,8.9,46.1,90,47.8,43.0,19.6,245.0,51.0,9.0,7,5,4,1,2026-05-02T03:25:13.625963+05:30
Pune,Maharashtra,18.5204,73.8567,22.5,81,0.0,945.7,8.5,47.5,55,35.3,14.6,11.2,200.0,47.0,10.0,3,5,7,1,2026-05-02T03:25:13.625971+05:30
Ahmedabad,Gujarat,23.0225,72.5714,28.9,74,0.0,997.5,8.1,50.4,54,31.7,13.2,4.3,244.0,62.0,5.9,7,5,7,1,2026-05-02T03:25:13.625981+05:30
Jaipur,Rajasthan,26.9124,75.7873,26.4,47,0.0,953.8,8.15,42.8,150,116.6,33.5,17.7,346.0,46.0,5.1,4,5,7,0,2026-05-02T03:25:13.625989+05:30
Lucknow,Uttar Pradesh,26.8467,80.9462,23.7,71,0.0,989.2,8.1,30.6,95,49.1,31.0,9.2,340.0,93.0,8.8,3,5,7,1,2026-05-02T03:25:13.625997+05:30
Kanpur,Uttar Pradesh,26.4499,80.3319,25.3,65,0.0,987.3,8.1,61.9,126,212.8,48.0,8.2,353.0,95.0,11.5,7,5,7,1,2026-05-02T03:25:13.626004+05:30
Chandigarh,Chandigarh,30.7333,76.7794,22.4,61,0.0,962.9,7.6,43.2,94,45.4,33.8,32.0,385.0,31.0,8.5,3,5,7,0,2026-05-02T03:25:13.626012+05:30
Srinagar,Jammu and Kashmir,34.0837,74.7973,8.2,100,0.0,835.8,8.8,29.9,83,47.8,43.5,32.1,584.0,10.0,2.1,3,10,7,0,2026-05-02T03:25:13.626020+05:30
Jammu,Jammu and Kashmir,32.7266,74.857,19.7,69,0.0,966.0,8.4,31.3,57,18.5,16.6,18.3,280.0,49.0,2.7,3,5,7,0,2026-05-02T03:25:13.626028+05:30
Amritsar,Punjab,31.634,74.8723,24.1,56,0.0,974.2,8.25,45.0,126,37.1,26.4,6.9,515.0,88.0,5.9,0,5,7,0,2026-05-02T03:25:13.626038+05:30
Ludhiana,Punjab,30.901,75.8573,24.2,59,0.0,972.4,7.85,33.1,155,173.7,62.4,18.3,902.0,64.0,18.9,0,5,7,0,2026-05-02T03:25:13.626045+05:30
Jalandhar,Punjab,31.326,75.5762,22.8,62,0.0,973.2,7.95,32.4,154,107.1,60.1,24.9,617.0,54.0,11.5,3,5,7,0,2026-05-02T03:25:13.626052+05:30
Dehradun,Uttarakhand,30.6284,78.0322,9.9,96,0.0,822.6,8.0,46.1,75,27.0,22.4,26.1,282.0,28.0,0.2,3,10,7,0,2026-05-02T03:25:13.626062+05:30
Shimla,Himachal Pradesh,31.1048,77.1734,8.5,82,0.0,776.4,8.1,49.3,70,32.9,25.7,22.2,275.0,59.0,4.3,3,10,7,0,2026-05-02T03:25:13.626069+05:30
Manali,Himachal Pradesh,32.2396,77.1887,5.9,71,0.0,808.1,9.6,37.8,46,9.8,9.0,37.8,261.0,78.0,0.0,3,5,7,0,2026-05-02T03:25:13.626076+05:30
Gurgaon,Haryana,28.4595,77.0266,25.2,57,0.0,975.4,7.7,30.6,1363,1013.3,143.4,11.2,468.0,104.0,15.1,4,5,7,1,2026-05-02T03:25:13.626083+05:30
Noida,Uttar Pradesh,28.5355,77.391,23.7,64,0.0,978.7,7.65,35.3,1363,1013.3,143.4,11.2,445.0,104.0,15.1,3,5,7,1,2026-05-02T03:25:13.626090+05:30
Ghaziabad,Uttar Pradesh,28.6692,77.4538,24.2,62,0.0,976.9,7.6,39.6,173,196.0,49.5,8.6,389.0,103.0,16.8,3,5,7,1,2026-05-02T03:25:13.626097+05:30
Faridabad,Haryana,28.4089,77.3178,25.4,58,0.0,977.9,7.65,25.2,1363,1013.3,143.4,11.2,441.0,104.0,15.1,4,5,7,1,2026-05-02T03:25:13.626104+05:30
Meerut,Uttar Pradesh,28.9845,77.7064,23.5,69,0.0,976.1,7.5,34.2,173,196.0,49.5,8.6,401.0,103.0,16.8,3,5,7,1,2026-05-02T03:25:13.626110+05:30
Agra,Uttar Pradesh,27.1767,78.0081,26.4,57,0.0,982.5,7.95,38.2,754,1069.2,136.4,6.5,369.0,101.0,10.0,4,5,7,1,2026-05-02T03:25:13.626117+05:30
Varanasi,Uttar Pradesh,25.3176,82.9739,23.5,78,0.0,993.9,8.6,29.2,94,55.3,39.1,12.5,444.0,99.0,12.5,3,5,7,1,2026-05-02T03:25:13.626124+05:30
Prayagraj,Uttar Pradesh,25.4358,81.8463,24.5,69,0.0,991.7,8.5,28.8,101,55.3,40.3,13.4,441.0,92.0,12.4,3,5,7,1,2026-05-02T03:25:13.626133+05:30
Gorakhpur,Uttar Pradesh,26.7606,83.3732,21.0,97,0.0,994.3,8.45,28.4,77,31.7,21.5,8.4,506.0,95.0,4.6,3,5,7,1,2026-05-02T03:25:13.626139+05:30
Bareilly,Uttar Pradesh,28.367,79.4304,22.6,76,0.0,982.3,7.9,32.8,107,69.4,33.3,6.0,335.0,99.0,4.9,3,5,7,1,2026-05-02T03:25:13.626145+05:30
Aligarh,Uttar Pradesh,27.8974,78.088,24.5,62,0.0,980.1,7.75,40.3,661,590.5,92.7,7.7,358.0,103.0,15.3,3,5,7,1,2026-05-02T03:25:13.626151+05:30
Moradabad,Uttar Pradesh,28.8386,78.7733,23.0,75,0.0,979.0,7.7,39.6,106,79.6,40.2,9.9,319.0,97.0,8.0,3,5,7,1,2026-05-02T03:25:13.626158+05:30
Saharanpur,Uttar Pradesh,29.9637,77.546,22.2,77,0.0,970.6,7.3,34.6,124,70.8,44.6,14.1,417.0,68.0,8.7,3,5,7,1,2026-05-02T03:25:13.626163+05:30
Jhansi,Uttar Pradesh,25.4484,78.5685,25.0,60,0.0,972.4,8.4,41.0,77,65.9,31.7,11.3,286.0,49.0,8.5,4,5,7,1,2026-05-02T03:25:16.964940+05:30
Surat,Gujarat,21.1702,72.8311,28.1,83,0.0,1003.2,7.7,54.0,61,29.6,15.5,15.3,244.0,57.0,26.6,7,5,4,1,2026-05-02T03:25:16.964975+05:30
Vadodara,Gujarat,22.3072,73.1812,27.9,84,0.0,1000.1,8.05,49.7,54,18.7,11.4,9.6,203.0,54.0,12.4,7,5,4,1,2026-05-02T03:25:16.964985+05:30
Rajkot,Gujarat,22.3039,70.8022,26.5,84,0.0,989.3,7.75,56.9,49,24.9,11.1,3.2,154.0,65.0,4.2,7,5,7,1,2026-05-02T03:25:16.964994+05:30
Thane,Maharashtra,19.2183,72.9781,27.4,82,0.0,1005.5,7.95,38.9,65,54.7,17.3,8.6,255.0,63.0,15.7,7,5,4,1,2026-05-02T03:25:16.965003+05:30
Nagpur,Maharashtra,21.1458,79.0882,30.2,31,0.0,968.2,8.9,41.8,84,38.4,22.8,12.6,240.0,66.0,11.5,0,5,7,0,2026-05-02T03:25:16.965012+05:30
Nashik,Maharashtra,19.9975,73.7898,22.7,90,0.0,942.7,8.25,47.9,60,40.6,17.6,11.8,203.0,50.0,11.9,3,5,7,1,2026-05-02T03:25:16.965020+05:30
Aurangabad,Maharashtra,19.8762,75.3433,25.1,61,0.0,941.6,9.05,44.3,54,30.4,13.8,10.1,182.0,58.0,11.9,7,5,7,1,2026-05-02T03:25:16.965028+05:30
Solapur,Maharashtra,17.6599,75.9064,27.1,48,0.0,954.8,9.05,42.1,51,24.2,11.2,5.9,168.0,59.0,3.5,4,5,7,0,2026-05-02T03:25:16.965036+05:30
Kolhapur,Maharashtra,16.705,74.2433,21.9,82,0.0,945.6,8.95,49.3,60,36.2,17.3,10.6,185.0,44.0,2.2,3,5,7,1,2026-05-02T03:25:16.965043+05:30
Goa,Goa,15.2993,74.124,25.4,95,0.0,996.6,8.9,40.3,65,41.6,26.0,12.0,313.0,55.0,3.0,7,5,7,1,2026-05-02T03:25:16.965051+05:30
Jodhpur,Rajasthan,26.2389,73.0243,30.5,41,0.0,975.7,8.35,40.7,132,166.2,27.2,3.2,180.0,78.0,3.6,0,5,7,0,2026-05-02T03:25:16.965058+05:30
Udaipur,Rajasthan,24.5854,73.7125,26.4,59,0.0,941.3,8.8,40.7,55,24.4,14.3,5.6,187.0,67.0,7.3,4,5,7,1,2026-05-02T03:25:16.965066+05:30
Kota,Rajasthan,25.2138,75.8648,30.6,35,0.0,972.2,8.35,40.3,63,26.1,13.8,2.9,198.0,99.0,6.6,0,5,7,0,2026-05-02T03:25:16.965073+05:30
Bikaner,Rajasthan,28.0229,73.3119,28.9,28,0.0,974.1,8.3,34.6,79,60.3,21.9,4.5,231.0,67.0,3.9,4,5,7,0,2026-05-02T03:25:16.965080+05:30
Ajmer,Rajasthan,26.4499,74.6399,29.4,32,0.0,948.4,8.3,47.2,65,75.2,20.1,2.9,179.0,78.0,3.4,4,5,7,0,2026-05-02T03:25:16.965087+05:30
Gwalior,Madhya Pradesh,26.2183,78.1828,26.0,53,0.0,977.7,8.15,44.6,83,152.3,44.7,7.1,281.0,72.0,6.4,4,5,7,0,2026-05-02T03:25:16.965094+05:30
Indore,Madhya Pradesh,22.7196,75.8577,26.5,64,0.0,944.0,7.95,49.3,59,19.0,13.1,3.9,179.0,89.0,10.6,7,5,7,1,2026-05-02T03:25:16.965100+05:30
Bhopal,Madhya Pradesh,23.2599,77.4126,29.1,36,0.0,948.6,8.7,64.4,75,33.2,19.2,4.2,197.0,73.0,4.8,4,5,7,0,2026-05-02T03:25:16.965107+05:30
Jabalpur,Madhya Pradesh,23.1815,79.9864,26.5,41,0.0,955.9,8.85,50.0,80,59.6,23.5,9.1,214.0,71.0,3.8,4,5,7,0,2026-05-02T03:25:16.965114+05:30
Ujjain,Madhya Pradesh,23.1765,75.7885,26.6,67,0.0,949.5,8.55,47.5,58,17.8,11.8,3.5,177.0,82.0,10.1,7,5,7,1,2026-05-02T03:25:16.965121+05:30
Visakhapatnam,Andhra Pradesh,17.6868,83.2185,26.1,89,0.0,1001.0,9.1,51.8,56,21.8,16.9,18.3,271.0,55.0,3.6,7,5,4,1,2026-05-02T03:25:16.965128+05:30
Vijayawada,Andhra Pradesh,16.5062,80.648,27.9,90,0.0,998.9,9.2,36.7,98,24.4,20.8,4.6,204.0,119.0,7.5,7,5,7,1,2026-05-02T03:25:16.965134+05:30
Guntur,Andhra Pradesh,16.3067,80.4365,28.9,87,0.0,1000.0,9.2,40.0,99,27.2,24.2,5.2,211.0,132.0,9.7,7,5,4,1,2026-05-02T03:25:16.965141+05:30
Nellore,Andhra Pradesh,14.4426,79.9865,30.0,68,0.0,1001.8,9.2,49.0,114,28.3,26.4,8.1,253.0,110.0,14.4,7,5,4,1,2026-05-02T03:25:16.965148+05:30
Kurnool,Andhra Pradesh,15.8281,78.0373,29.7,44,0.0,974.0,9.2,32.0,65,17.1,12.6,10.2,200.0,59.0,3.2,4,5,7,1,2026-05-02T03:25:16.965155+05:30
Kakinada,Andhra Pradesh,16.9891,82.2475,27.9,97,0.0,1004.6,9.15,45.0,51,17.9,12.1,2.4,223.0,70.0,1.5,7,5,4,1,2026-05-02T03:25:16.965162+05:30
Tirupati,Andhra Pradesh,13.6288,79.4192,28.9,63,0.0,988.5,9.25,47.9,102,33.4,31.1,12.5,357.0,91.0,24.9,7,5,7,1,2026-05-02T03:25:16.965169+05:30
Warangal,Telangana,17.9689,79.5941,26.9,66,0.0,974.7,9.15,40.0,88,55.6,41.7,28.5,380.0,37.0,6.4,7,5,7,1,2026-05-02T03:25:16.965175+05:30
Nizamabad,Telangana,18.6725,78.0941,29.3,31,0.0,961.1,9.1,32.0,71,32.8,21.8,13.4,255.0,64.0,5.4,4,5,7,0,2026-05-02T03:25:16.965182+05:30
Mysore,Karnataka,12.2958,76.6396,22.2,91,0.0,926.4,9.4,43.9,79,25.5,23.1,13.5,254.0,66.0,2.5,3,5,7,1,2026-05-02T03:25:16.965188+05:30
Mangalore,Karnataka,12.9141,74.856,27.9,86,0.0,1005.1,9.05,43.2,65,25.3,16.1,5.4,381.0,56.0,1.9,7,5,4,1,2026-05-02T03:25:16.965195+05:30
Hubli-Dharwad,Karnataka,15.3647,75.124,21.6,99,0.0,938.9,9.2,48.6,56,22.2,15.5,6.8,192.0,56.0,1.8,3,5,7,1,2026-05-02T03:25:16.965201+05:30
Belgaum,Karnataka,15.8497,74.4977,20.5,93,0.0,922.9,9.2,44.6,56,34.9,18.0,9.9,165.0,51.0,0.8,3,5,7,1,2026-05-02T03:25:20.314778+05:30
Coimbatore,Tamil Nadu,11.0168,76.9558,25.8,85,0.0,959.8,9.0,53.3,71,27.8,23.7,7.1,259.0,67.0,3.6,7,5,7,1,2026-05-02T03:25:20.314814+05:30
Madurai,Tamil Nadu,9.9252,78.1198,29.0,80,0.0,990.8,8.95,52.2,74,32.5,30.2,35.3,386.0,22.0,7.2,7,5,7,1,2026-05-02T03:25:20.314826+05:30
Trichy,Tamil Nadu,10.7905,78.7047,29.0,77,0.0,997.5,9.1,45.7,70,9.6,9.3,8.8,322.0,72.0,5.1,7,5,7,1,2026-05-02T03:25:20.314834+05:30
Salem,Tamil Nadu,11.6643,78.146,28.5,62,0.0,975.4,9.3,58.3,110,38.3,33.9,20.8,382.0,62.0,8.3,7,5,7,1,2026-05-02T03:25:20.314842+05:30
Tirunelveli,Tamil Nadu,8.7139,77.7567,28.4,70,0.0,1000.8,8.95,36.4,51,21.4,20.4,11.0,373.0,44.0,2.5,7,5,4,1,2026-05-02T03:25:20.314850+05:30
Vellore,Tamil Nadu,12.9165,79.1325,28.4,67,0.0,982.0,9.3,39.2,112,35.9,33.5,15.0,316.0,67.0,19.6,7,5,7,1,2026-05-02T03:25:20.314858+05:30
Erode,Tamil Nadu,11.341,77.7172,27.9,74,0.0,987.0,9.25,51.8,85,30.4,27.3,18.3,297.0,50.0,3.7,7,5,7,1,2026-05-02T03:25:20.314865+05:30
Kochi,Kerala,9.9312,76.2673,26.7,92,0.0,1007.3,8.8,31.7,71,39.2,37.5,39.0,415.0,13.0,5.8,7,5,4,1,2026-05-02T03:25:20.314873+05:30
Thiruvananthapuram,Kerala,8.5241,76.9366,25.9,96,0.0,1006.5,7.35,35.3,42,21.7,14.8,4.6,407.0,81.0,2.1,7,5,4,1,2026-05-02T03:25:20.314879+05:30
Kozhikode,Kerala,11.2588,75.7804,25.8,95,0.0,1006.4,8.35,44.6,62,27.8,17.2,3.6,823.0,78.0,1.4,7,5,4,1,2026-05-02T03:25:20.314887+05:30
Thrissur,Kerala,10.5276,76.2144,26.0,97,0.0,1005.7,8.15,35.3,73,40.0,33.1,19.6,373.0,38.0,4.1,7,5,4,1,2026-05-02T03:25:20.314895+05:30
Kannur,Kerala,11.8745,75.3704,27.8,87,0.0,1005.2,9.05,48.6,68,26.4,20.1,16.3,804.0,40.0,2.4,7,5,4,1,2026-05-02T03:25:20.314902+05:30
Patna,Bihar,25.5941,85.1376,21.0,94,0.0,997.5,8.7,26.6,95,36.4,32.4,12.4,391.0,83.0,9.4,3,5,7,1,2026-05-02T03:25:20.314908+05:30
Gaya,Bihar,24.7914,85.0002,21.7,89,0.0,990.3,8.8,27.7,96,40.0,30.0,9.4,366.0,104.0,8.6,3,5,7,1,2026-05-02T03:25:20.314915+05:30
Muzaffarpur,Bihar,26.1209,85.3647,20.0,97,0.0,997.7,8.7,28.1,85,39.9,35.5,12.9,416.0,76.0,8.6,3,5,7,1,2026-05-02T03:25:20.314921+05:30
Bhagalpur,Bihar,25.2425,87.0117,21.0,92,0.0,998.3,8.65,30.2,87,54.4,46.1,16.2,271.0,72.0,9.8,3,5,7,1,2026-05-02T03:25:20.314927+05:30
Ranchi,Jharkhand,23.3441,85.3096,20.6,68,0.0,932.6,9.2,44.3,95,85.4,33.4,10.6,294.0,110.0,5.5,3,5,7,0,2026-05-02T03:25:20.314934+05:30
Jamshedpur,Jharkhand,22.8046,86.2029,22.6,90,0.0,986.5,9.05,61.6,118,98.5,62.2,31.2,591.0,55.0,21.0,3,5,7,1,2026-05-02T03:25:20.314941+05:30
Dhanbad,Jharkhand,23.7957,86.4304,21.8,88,0.0,975.7,9.0,29.9,154,104.3,82.9,60.1,634.0,42.0,65.7,3,5,7,1,2026-05-02T03:25:20.314947+05:30
Bokaro,Jharkhand,23.6693,86.1511,21.0,99,0.0,979.5,8.8,36.4,150,125.7,87.3,70.0,3544.0,19.0,57.9,3,5,7,1,2026-05-02T03:25:20.314954+05:30
Bhubaneswar,Odisha,20.2961,85.8245,24.8,96,0.0,998.9,9.1,46.1,66,23.2,20.5,9.0,207.0,63.0,5.0,3,5,7,1,2026-05-02T03:25:20.314960+05:30
Cuttack,Odisha,20.4625,85.8828,25.2,95,0.0,1000.7,9.15,51.8,66,23.2,20.5,9.0,217.0,63.0,5.0,7,5,4,1,2026-05-02T03:25:20.314966+05:30
Rourkela,Odisha,22.2604,84.8536,22.4,75,0.0,980.6,8.6,47.5,126,117.3,69.2,36.7,288.0,48.0,28.7,3,5,7,1,2026-05-02T03:25:20.314972+05:30
Raipur,Chhattisgarh,21.2514,81.6296,28.0,38,0.0,969.4,9.0,50.0,109,143.9,66.1,50.3,470.0,52.0,11.5,4,5,7,0,2026-05-02T03:25:20.314978+05:30
Bhilai,Chhattisgarh,21.1938,81.3509,28.0,42,0.0,969.7,9.0,48.2,110,143.0,65.9,44.0,508.0,54.0,10.6,4,5,7,0,2026-05-02T03:25:20.314986+05:30
Guwahati,Assam,26.1158,91.7086,19.8,98,0.0,1000.1,7.0,18.0,73,12.3,10.9,5.5,421.0,76.0,1.1,3,10,4,1,2026-05-02T03:25:20.314993+05:30
Agartala,Tripura,23.8315,91.2868,21.7,96,0.0,1004.1,8.55,36.7,77,10.9,10.7,15.2,187.0,28.0,2.5,3,5,4,1,2026-05-02T03:25:20.314999+05:30
Shillong,Meghalaya,25.5788,91.8933,12.8,96,0.0,851.5,6.8,34.9,56,19.2,18.8,7.4,257.0,59.0,1.5,3,10,7,0,2026-05-02T03:25:20.315006+05:30
Imphal,Manipur,24.817,93.9368,16.5,100,0.1,920.6,6.3,33.1,72,31.0,30.4,19.0,365.0,19.0,0.8,6,10,7,1,2026-05-02T03:25:20.315012+05:30
Aizawl,Mizoram,23.7271,92.7176,14.7,97,0.0,889.2,8.95,38.9,41,5.0,3.9,3.0,187.0,52.0,0.4,3,10,7,0,2026-05-02T03:25:20.315019+05:30
Kohima,Nagaland,25.6701,94.1077,14.4,97,0.1,851.2,6.65,29.5,53,12.9,11.4,6.2,265.0,53.0,0.6,6,10,7,0,2026-05-02T03:25:20.315025+05:30
Gangtok,Sikkim,27.3314,88.6138,11.3,94,0.0,832.1,3.9,31.0,55,17.9,11.7,6.2,466.0,107.0,0.6,3,10,3,0,2026-05-02T03:25:20.315098+05:30
Siliguri,West Bengal,26.7271,88.3953,19.6,98,0.5,991.1,6.05,24.1,70,37.4,29.0,11.3,317.0,94.0,3.7,6,10,7,1,2026-05-02T03:25:23.648763+05:30
Durgapur,West Bengal,23.5204,87.3119,23.0,92,0.0,991.2,8.9,31.0,152,77.1,64.3,27.7,499.0,78.0,37.1,3,5,7,1,2026-05-02T03:25:23.648800+05:30
Asansol,West Bengal,23.6739,86.9524,22.0,94,0.0,989.9,8.95,29.5,150,80.1,67.5,30.1,772.0,75.0,52.9,3,5,7,1,2026-05-02T03:25:23.648811+05:30
Pondicherry,Puducherry,11.9139,79.8145,28.7,85,0.0,1005.8,9.15,53.3,56,7.9,6.3,7.4,282.0,60.0,4.7,7,5,4,1,2026-05-02T03:25:23.648821+05:30
Port Blair,Andaman and Nicobar Islands,11.6234,92.7265,24.5,92,0.0,1005.7,9.0,31.3,27,6.6,4.5,0.3,205.0,60.0,0.8,3,5,4,1,2026-05-02T03:25:23.648829+05:30
Haridwar,Uttarakhand,29.9457,78.1642,19.6,84,0.0,968.9,7.4,30.6,110,67.3,43.1,13.0,277.0,64.0,5.1,3,10,7,1,2026-05-02T03:25:23.648837+05:30
Rishikesh,Uttarakhand,30.0869,78.2676,18.0,91,0.0,961.4,7.5,24.8,100,65.0,37.0,7.9,298.0,80.0,2.4,3,10,7,1,2026-05-02T03:25:23.648845+05:30
Nainital,Uttarakhand,29.3919,79.4542,10.8,95,0.0,799.1,7.85,42.1,92,73.6,32.0,13.0,276.0,75.0,4.4,3,10,7,0,2026-05-02T03:25:23.648853+05:30
Mussoorie,Uttarakhand,30.4599,78.0664,11.7,84,0.0,796.8,7.9,52.9,110,71.2,46.4,27.7,280.0,40.0,6.1,3,10,7,0,2026-05-02T03:25:23.648860+05:30
Dharamshala,Himachal Pradesh,32.219,76.3234,19.5,52,0.0,863.8,8.25,48.2,39,7.3,6.5,9.5,231.0,49.0,0.2,0,5,7,0,2026-05-02T03:25:23.648867+05:30
Dalhousie,Himachal Pradesh,32.5387,75.971,7.8,87,0.0,795.2,8.5,42.5,61,19.2,17.6,30.8,343.0,30.0,1.3,3,10,7,0,2026-05-02T03:25:23.648875+05:30
Patiala,Punjab,30.3398,76.3869,23.9,67,0.0,972.3,7.5,35.6,448,329.7,65.0,10.6,475.0,90.0,17.6,3,5,7,1,2026-05-02T03:25:23.648882+05:30
Bhatinda,Punjab,30.211,74.9455,25.8,43,0.0,977.0,8.15,43.6,194,71.9,37.4,15.6,342.0,64.0,7.5,4,5,7,0,2026-05-02T03:25:23.648889+05:30
Rohtak,Haryana,28.8955,76.6066,25.1,58,0.0,975.6,7.65,28.1,544,607.2,109.0,17.2,620.0,91.0,22.4,4,5,7,1,2026-05-02T03:25:23.648897+05:30
Panipat,Haryana,29.3909,76.9635,23.3,68,0.0,974.7,7.45,29.2,893,436.8,81.7,14.9,394.0,81.0,15.8,3,5,7,1,2026-05-02T03:25:23.648903+05:30
Mathura,Uttar Pradesh,27.4924,77.6737,25.6,59,0.0,981.3,7.9,29.2,727,964.9,129.9,6.4,356.0,102.0,10.2,4,5,7,1,2026-05-02T03:25:23.648911+05:30
Vrindavan,Uttar Pradesh,27.5823,77.7027,25.6,57,0.0,981.7,7.85,28.8,727,964.9,129.9,6.4,355.0,102.0,10.2,4,5,7,1,2026-05-02T03:25:23.648917+05:30
Ayodhya,Uttar Pradesh,26.7922,82.1998,22.2,83,0.0,991.8,8.25,27.4,87,32.6,23.0,8.0,371.0,99.0,5.4,3,5,7,1,2026-05-02T03:25:23.648925+05:30
Ratlam,Madhya Pradesh,23.3315,75.0367,25.4,78,0.0,950.3,8.55,49.7,56,18.6,10.7,4.1,161.0,72.0,11.0,7,5,7,1,2026-05-02T03:25:23.648932+05:30
Sagar,Madhya Pradesh,23.8388,78.7378,24.0,43,0.0,943.9,8.7,45.0,67,44.4,18.5,4.3,199.0,78.0,3.2,0,5,7,0,2026-05-02T03:25:23.648939+05:30
Satna,Madhya Pradesh,24.6005,80.8322,24.0,61,0.0,965.8,8.75,60.1,77,58.2,29.7,10.7,302.0,104.0,9.9,3,5,7,0,2026-05-02T03:25:23.648946+05:30
Akola,Maharashtra,20.7002,77.0082,30.0,42,0.0,971.4,8.85,45.0,54,21.2,11.9,5.7,184.0,75.0,16.2,4,5,7,0,2026-05-02T03:25:23.648954+05:30
Amravati,Maharashtra,20.9374,77.7796,29.6,42,0.0,963.3,8.9,41.0,55,22.8,13.2,6.0,203.0,81.0,16.8,4,5,7,0,2026-05-02T03:25:23.648961+05:30
Latur,Maharashtra,18.4088,76.5604,27.0,43,0.0,937.2,9.05,43.6,58,24.4,12.3,5.6,187.0,75.0,4.4,4,5,7,0,2026-05-02T03:25:23.648969+05:30
Nanded,Maharashtra,19.1383,77.3091,30.0,41,0.0,965.2,9.0,36.0,60,19.4,12.7,6.9,173.0,70.0,5.4,4,5,7,0,2026-05-02T03:25:23.648975+05:30
Gulbarga,Karnataka,17.3297,76.8343,28.5,44,0.0,955.9,9.1,42.1,55,18.7,10.1,4.5,171.0,70.0,3.3,4,5,7,0,2026-05-02T03:25:23.648981+05:30
Bidar,Karnataka,17.9104,77.5199,27.9,37,0.0,932.9,9.15,30.2,68,42.4,28.5,24.7,187.0,42.0,5.5,4,5,7,0,2026-05-02T03:25:23.648987+05:30
Hospet,Karnataka,15.2689,76.3909,24.9,82,0.0,954.0,9.25,46.8,56,21.8,14.6,6.7,187.0,59.0,2.2,3,5,7,1,2026-05-02T03:25:23.648994+05:30
Tirupur,Tamil Nadu,11.1085,77.3411,26.4,84,0.0,973.1,9.25,61.6,81,31.0,26.8,16.1,208.0,52.0,4.1,7,5,7,1,2026-05-02T03:25:23.649000+05:30
Alappuzha,Kerala,9.4981,76.3388,27.1,91,0.0,1007.4,8.95,38.2,61,35.4,27.9,20.8,350.0,55.0,5.1,7,5,4,1,2026-05-02T03:25:23.649007+05:30
Munnar,Kerala,10.0889,77.0595,17.4,94,0.0,855.0,8.8,27.4,49,20.9,18.1,10.4,296.0,41.0,1.3,3,10,7,1,2026-05-02T03:25:23.649014+05:30
Silchar,Assam,24.8333,92.7789,20.0,98,0.0,1004.6,8.55,26.6,95,17.6,16.4,7.7,256.0,66.0,1.9,3,5,4,1,2026-05-02T03:25:23.649020+05:30
Dibrugarh,Assam,27.4728,94.912,20.0,98,0.2,993.9,8.3,20.9,71,42.0,35.6,31.3,344.0,10.0,1.6,6,5,7,1,2026-05-02T03:25:23.649027+05:30
