city,state,latitude,longitude,temp,humidity,rain,pressure,uv_index,wind_gusts,aqi,pm10,pm2_5,mosquito_risk,arthritis_risk,migraine_risk,frizz_risk,updated_at
Delhi,Delhi,28.6139,77.209,17.4,80,0.0,986.6,5.85,37.1,342,275.7,67.1,3,5,3,0,2026-03-04T04:03:12.488301+05:30
Mumbai,Maharashtra,19.076,72.8777,27.8,65,0.0,1009.2,7.4,25.6,124,46.1,45.2,7,0,4,1,2026-03-04T04:03:12.488342+05:30
Bangalore,Karnataka,12.9716,77.5946,19.5,73,0.0,912.1,9.1,36.7,98,39.3,37.0,3,5,7,0,2026-03-04T04:03:12.488358+05:30
Hyderabad,Telangana,17.385,78.4867,22.9,61,0.0,954.8,8.4,24.5,120,52.7,51.5,3,5,7,0,2026-03-04T04:03:12.488367+05:30
Chennai,Tamil Nadu,13.0827,80.2707,23.1,91,0.0,1009.2,8.8,28.4,116,52.6,47.0,3,0,4,1,2026-03-04T04:03:12.488375+05:30
Kolkata,West Bengal,22.5726,88.3639,20.1,76,0.0,1009.6,7.75,18.7,164,143.0,112.5,3,0,4,0,2026-03-04T04:03:12.488384+05:30
Pune,Maharashtra,18.5204,73.8567,22.5,68,0.0,949.6,7.95,31.3,81,31.0,30.5,3,5,7,1,2026-03-04T04:03:12.488396+05:30
Ahmedabad,Gujarat,23.0225,72.5714,22.5,64,0.0,1005.8,7.2,19.1,84,37.8,28.8,3,5,4,0,2026-03-04T04:03:12.488403+05:30
Jaipur,Rajasthan,26.9124,75.7873,21.1,36,0.0,963.7,6.6,33.5,100,55.3,36.7,0,5,7,0,2026-03-04T04:03:12.488410+05:30
Lucknow,Uttar Pradesh,26.8467,80.9462,17.6,74,0.0,997.0,6.35,26.3,152,305.5,68.2,3,5,7,0,2026-03-04T04:03:12.488418+05:30
Kanpur,Uttar Pradesh,26.4499,80.3319,16.1,82,0.0,995.4,6.35,29.9,178,343.7,61.7,3,10,7,0,2026-03-04T04:03:12.488425+05:30
Chandigarh,Chandigarh,30.7333,76.7794,16.4,76,0.0,971.6,5.75,36.0,86,31.4,28.1,3,5,3,0,2026-03-04T04:03:12.488432+05:30
Srinagar,Jammu and Kashmir,34.0837,74.7973,4.3,79,0.0,841.3,6.45,15.8,136,69.6,59.4,3,5,7,0,2026-03-04T04:03:12.488439+05:30
Jammu,Jammu and Kashmir,32.7266,74.857,14.8,79,0.0,976.4,6.35,27.0,98,40.6,36.6,3,5,7,0,2026-03-04T04:03:12.488446+05:30
Amritsar,Punjab,31.634,74.8723,16.8,71,0.0,984.7,6.3,22.7,103,79.6,69.6,3,5,7,0,2026-03-04T04:03:12.488453+05:30
Ludhiana,Punjab,30.901,75.8573,18.2,71,0.0,982.5,6.0,32.4,143,82.0,75.4,3,5,3,0,2026-03-04T04:03:12.488459+05:30
Jalandhar,Punjab,31.326,75.5762,15.0,90,0.0,983.7,6.15,29.2,145,92.7,84.5,3,10,7,0,2026-03-04T04:03:12.488470+05:30
Dehradun,Uttarakhand,30.6284,78.0322,10.9,50,0.0,829.1,6.1,32.0,59,18.7,17.1,0,5,7,0,2026-03-04T04:03:12.488476+05:30
Shimla,Himachal Pradesh,31.1048,77.1734,9.8,47,0.0,783.4,6.15,55.1,72,34.0,26.7,0,5,7,1,2026-03-04T04:03:12.488483+05:30
Manali,Himachal Pradesh,32.2396,77.1887,16.5,16,0.0,822.0,7.35,32.4,50,19.6,13.9,0,5,7,1,2026-03-04T04:03:12.488489+05:30
Gurgaon,Haryana,28.4595,77.0266,14.7,90,0.0,985.1,5.95,36.0,1233,933.2,127.6,3,10,3,0,2026-03-04T04:03:12.488496+05:30
Noida,Uttar Pradesh,28.5355,77.391,17.9,77,0.0,988.2,5.85,36.4,1233,933.2,127.6,3,5,3,0,2026-03-04T04:03:12.488502+05:30
Ghaziabad,Uttar Pradesh,28.6692,77.4538,17.3,81,0.0,986.2,5.85,33.8,268,233.8,63.6,3,10,3,0,2026-03-04T04:03:12.488509+05:30
Faridabad,Haryana,28.4089,77.3178,16.9,76,0.0,987.4,5.9,34.6,1233,933.2,127.6,3,5,3,0,2026-03-04T04:03:12.488516+05:30
Meerut,Uttar Pradesh,28.9845,77.7064,15.7,89,0.0,984.7,5.7,36.4,268,233.8,63.6,3,10,3,0,2026-03-04T04:03:12.488522+05:30
Agra,Uttar Pradesh,27.1767,78.0081,15.6,70,0.0,991.6,6.2,37.4,418,386.5,65.4,3,5,7,0,2026-03-04T04:03:12.488529+05:30
Varanasi,Uttar Pradesh,25.3176,82.9739,17.0,77,0.0,1001.4,7.0,19.8,137,82.9,54.6,3,5,4,0,2026-03-04T04:03:12.488540+05:30
Prayagraj,Uttar Pradesh,25.4358,81.8463,17.1,82,0.0,999.9,6.9,26.6,141,127.6,59.0,3,10,7,0,2026-03-04T04:03:12.488547+05:30
Gorakhpur,Uttar Pradesh,26.7606,83.3732,16.3,89,0.0,1000.7,6.75,7.9,159,121.1,100.6,3,10,4,0,2026-03-04T04:03:12.488554+05:30
Bareilly,Uttar Pradesh,28.367,79.4304,15.6,87,0.0,990.0,6.05,16.2,154,233.8,88.2,3,10,7,0,2026-03-04T04:03:12.488560+05:30
Aligarh,Uttar Pradesh,27.8974,78.088,15.4,75,0.0,989.1,5.95,32.8,709,577.4,103.6,3,5,3,0,2026-03-04T04:03:12.488566+05:30
Moradabad,Uttar Pradesh,28.8386,78.7733,15.2,88,0.0,986.7,5.9,19.8,151,181.6,73.8,3,10,3,0,2026-03-04T04:03:12.488572+05:30
Saharanpur,Uttar Pradesh,29.9637,77.546,15.4,81,0.0,978.5,5.5,40.3,138,113.2,66.1,3,10,3,0,2026-03-04T04:03:12.488578+05:30
Jhansi,Uttar Pradesh,25.4484,78.5685,16.7,77,0.0,981.6,6.8,33.8,72,18.0,14.6,3,5,7,0,2026-03-04T04:03:15.741328+05:30
Surat,Gujarat,21.1702,72.8311,23.4,68,0.0,1009.4,7.1,27.7,157,55.6,52.9,3,0,4,1,2026-03-04T04:03:15.741357+05:30
Vadodara,Gujarat,22.3072,73.1812,22.5,64,0.0,1007.5,7.2,19.1,153,85.2,81.0,3,5,4,0,2026-03-04T04:03:15.741367+05:30
Rajkot,Gujarat,22.3039,70.8022,21.5,76,0.0,998.1,7.0,20.5,62,24.5,18.6,3,5,7,1,2026-03-04T04:03:15.741374+05:30
Thane,Maharashtra,19.2183,72.9781,25.5,62,0.0,1008.9,7.4,36.4,124,46.1,45.2,7,0,4,1,2026-03-04T04:03:15.741382+05:30
Nagpur,Maharashtra,21.1458,79.0882,20.3,68,0.0,976.0,7.75,22.3,70,19.3,16.2,3,5,7,0,2026-03-04T04:03:15.741389+05:30
Nashik,Maharashtra,19.9975,73.7898,22.9,50,0.0,947.4,7.55,24.1,90,29.9,29.0,0,5,7,0,2026-03-04T04:03:15.741396+05:30
Aurangabad,Maharashtra,19.8762,75.3433,21.6,52,0.0,945.7,8.1,29.5,75,29.8,29.4,0,5,7,0,2026-03-04T04:03:15.741403+05:30
Solapur,Maharashtra,17.6599,75.9064,22.3,71,0.0,957.9,8.35,18.7,82,19.3,18.7,3,5,7,1,2026-03-04T04:03:15.741410+05:30
Kolhapur,Maharashtra,16.705,74.2433,21.4,76,0.0,948.2,8.45,35.6,155,94.5,93.6,3,5,7,1,2026-03-04T04:03:15.741417+05:30
Goa,Goa,15.2993,74.124,25.8,90,0.0,998.4,8.5,36.7,90,49.2,45.4,7,5,7,1,2026-03-04T04:03:15.741424+05:30
Jodhpur,Rajasthan,26.2389,73.0243,19.6,60,0.0,987.3,6.9,13.3,73,59.8,31.2,0,5,7,0,2026-03-04T04:03:15.741431+05:30
Udaipur,Rajasthan,24.5854,73.7125,17.6,54,0.0,950.1,7.5,13.3,61,30.9,16.6,0,5,7,0,2026-03-04T04:03:15.741438+05:30
Kota,Rajasthan,25.2138,75.8648,15.1,87,0.0,982.7,6.9,15.5,85,42.1,33.1,3,10,7,0,2026-03-04T04:03:15.741445+05:30
Bikaner,Rajasthan,28.0229,73.3119,20.7,49,0.0,986.2,6.6,23.8,69,40.0,19.7,0,5,7,0,2026-03-04T04:03:15.741453+05:30
Ajmer,Rajasthan,26.4499,74.6399,20.5,34,0.0,958.6,6.85,21.2,73,43.4,25.1,0,5,7,0,2026-03-04T04:03:15.741460+05:30
Gwalior,Madhya Pradesh,26.2183,78.1828,17.1,62,0.0,987.0,6.55,31.7,102,30.0,24.4,3,5,7,0,2026-03-04T04:03:15.741467+05:30
Indore,Madhya Pradesh,22.7196,75.8577,19.1,61,0.0,950.7,7.45,18.4,88,34.3,30.9,3,5,7,0,2026-03-04T04:03:15.741473+05:30
Bhopal,Madhya Pradesh,23.2599,77.4126,19.3,53,0.0,956.6,7.35,22.7,76,39.9,32.0,0,5,7,0,2026-03-04T04:03:15.741480+05:30
Jabalpur,Madhya Pradesh,23.1815,79.9864,18.1,69,0.0,964.5,7.4,24.5,72,37.3,27.4,3,5,7,0,2026-03-04T04:03:15.741487+05:30
Ujjain,Madhya Pradesh,23.1765,75.7885,18.0,67,0.0,956.8,7.35,16.2,108,49.1,44.8,3,5,7,0,2026-03-04T04:03:15.741494+05:30
Visakhapatnam,Andhra Pradesh,17.6868,83.2185,22.6,96,0.0,1006.4,8.4,35.3,134,57.0,54.5,3,5,4,1,2026-03-04T04:03:15.741501+05:30
Vijayawada,Andhra Pradesh,16.5062,80.648,23.3,90,0.0,1005.3,8.45,19.8,133,52.0,47.7,3,5,4,1,2026-03-04T04:03:15.741509+05:30
Guntur,Andhra Pradesh,16.3067,80.4365,22.7,89,0.0,1006.4,8.45,24.8,123,45.3,41.4,3,5,4,1,2026-03-04T04:03:15.741516+05:30
Nellore,Andhra Pradesh,14.4426,79.9865,22.8,91,0.0,1008.0,8.65,28.8,111,47.5,44.2,3,0,4,1,2026-03-04T04:03:15.741523+05:30
Kurnool,Andhra Pradesh,15.8281,78.0373,25.3,53,0.0,978.4,8.45,28.4,103,39.8,38.0,4,5,7,0,2026-03-04T04:03:15.741530+05:30
Kakinada,Andhra Pradesh,16.9891,82.2475,22.1,89,0.0,1010.2,8.4,33.1,116,46.0,40.0,3,0,4,1,2026-03-04T04:03:15.741536+05:30
Tirupati,Andhra Pradesh,13.6288,79.4192,19.9,72,0.0,993.8,8.8,36.4,151,79.6,76.1,3,5,7,0,2026-03-04T04:03:15.741543+05:30
Warangal,Telangana,17.9689,79.5941,22.8,67,0.0,980.7,8.2,23.0,119,53.2,52.5,3,5,7,1,2026-03-04T04:03:15.741550+05:30
Nizamabad,Telangana,18.6725,78.0941,20.6,74,0.0,966.6,8.1,25.2,83,22.8,20.8,3,5,7,0,2026-03-04T04:03:15.741556+05:30
Mysore,Karnataka,12.2958,76.6396,19.8,72,0.0,928.5,9.15,40.7,107,36.7,35.0,3,5,7,0,2026-03-04T04:03:15.741562+05:30
Mangalore,Karnataka,12.9141,74.856,28.0,81,0.0,1007.2,8.75,30.2,72,34.5,30.4,7,5,4,1,2026-03-04T04:03:15.741568+05:30
Hubli-Dharwad,Karnataka,15.3647,75.124,21.2,95,0.0,940.9,8.65,24.5,93,28.9,28.4,3,5,7,1,2026-03-04T04:03:15.741575+05:30
Belgaum,Karnataka,15.8497,74.4977,21.0,93,0.0,925.7,8.7,28.8,118,57.9,55.2,3,5,7,1,2026-03-04T04:03:18.996331+05:30
Coimbatore,Tamil Nadu,11.0168,76.9558,21.3,62,0.0,962.6,9.15,42.5,112,35.3,34.6,3,5,7,0,2026-03-04T04:03:18.996360+05:30
Madurai,Tamil Nadu,9.9252,78.1198,22.2,82,0.0,994.5,9.1,25.6,103,45.9,44.8,3,5,7,1,2026-03-04T04:03:18.996370+05:30
Trichy,Tamil Nadu,10.7905,78.7047,21.3,96,0.0,1001.7,9.0,30.2,100,51.0,47.7,3,5,4,1,2026-03-04T04:03:18.996378+05:30
Salem,Tamil Nadu,11.6643,78.146,21.6,80,0.0,978.6,9.05,35.6,126,55.2,53.3,3,5,7,1,2026-03-04T04:03:18.996386+05:30
Tirunelveli,Tamil Nadu,8.7139,77.7567,20.2,90,0.0,1004.6,9.15,33.5,95,45.6,44.1,3,5,4,1,2026-03-04T04:03:18.996393+05:30
Vellore,Tamil Nadu,12.9165,79.1325,20.3,89,0.0,986.7,8.9,40.0,141,78.9,75.2,3,5,7,1,2026-03-04T04:03:18.996400+05:30
Erode,Tamil Nadu,11.341,77.7172,22.4,92,0.0,990.7,9.05,29.2,105,38.2,36.8,3,5,7,1,2026-03-04T04:03:18.996408+05:30
Kochi,Kerala,9.9312,76.2673,26.6,81,0.0,1009.5,8.95,33.5,107,36.6,35.5,7,0,4,1,2026-03-04T04:03:18.996415+05:30
Thiruvananthapuram,Kerala,8.5241,76.9366,27.5,75,0.0,1008.6,9.0,26.6,92,39.0,37.1,7,0,4,1,2026-03-04T04:03:18.996422+05:30
Kozhikode,Kerala,11.2588,75.7804,27.5,81,0.0,1008.4,8.85,30.6,73,35.7,31.0,7,0,4,1,2026-03-04T04:03:18.996429+05:30
Thrissur,Kerala,10.5276,76.2144,24.3,94,0.0,1007.8,8.9,38.5,107,51.3,48.8,3,5,4,1,2026-03-04T04:03:18.996437+05:30
Kannur,Kerala,11.8745,75.3704,26.8,83,0.0,1007.6,8.85,34.6,70,29.0,25.8,7,5,4,1,2026-03-04T04:03:18.996444+05:30
Patna,Bihar,25.5941,85.1376,19.4,72,0.0,1004.2,7.2,16.6,154,143.9,116.2,3,5,4,0,2026-03-04T04:03:18.996451+05:30
Gaya,Bihar,24.7914,85.0002,16.7,64,0.0,997.7,7.3,19.4,122,94.5,65.4,3,5,7,0,2026-03-04T04:03:18.996458+05:30
Muzaffarpur,Bihar,26.1209,85.3647,18.3,72,0.0,1004.2,7.15,13.7,161,143.9,118.3,3,5,4,0,2026-03-04T04:03:18.996464+05:30
Bhagalpur,Bihar,25.2425,87.0117,17.9,78,0.0,1005.2,7.2,10.1,152,144.8,96.9,3,5,4,0,2026-03-04T04:03:18.996471+05:30
Ranchi,Jharkhand,23.3441,85.3096,18.1,51,0.0,940.2,7.95,30.6,77,67.5,39.1,0,5,7,0,2026-03-04T04:03:18.996478+05:30
Jamshedpur,Jharkhand,22.8046,86.2029,17.1,77,0.0,994.3,7.85,22.3,104,78.9,58.8,3,5,7,0,2026-03-04T04:03:18.996485+05:30
Dhanbad,Jharkhand,23.7957,86.4304,16.8,67,0.0,983.4,7.7,24.5,113,83.8,61.9,3,5,7,0,2026-03-04T04:03:18.996491+05:30
Bokaro,Jharkhand,23.6693,86.1511,16.8,58,0.0,987.6,7.7,27.4,116,92.2,69.4,0,5,7,0,2026-03-04T04:03:18.996499+05:30
Bhubaneswar,Odisha,20.2961,85.8245,22.4,97,0.0,1005.5,8.1,29.5,152,77.3,71.2,3,5,4,1,2026-03-04T04:03:18.996505+05:30
Cuttack,Odisha,20.4625,85.8828,21.7,98,0.0,1007.5,8.15,28.8,152,77.3,71.2,3,5,4,1,2026-03-04T04:03:18.996512+05:30
Rourkela,Odisha,22.2604,84.8536,19.0,65,0.0,988.4,7.75,19.4,93,45.9,31.5,3,5,7,0,2026-03-04T04:03:18.996518+05:30
Raipur,Chhattisgarh,21.2514,81.6296,20.6,55,0.0,977.4,7.8,23.0,134,72.2,68.2,0,5,7,0,2026-03-04T04:03:18.996525+05:30
Bhilai,Chhattisgarh,21.1938,81.3509,19.8,57,0.0,977.6,7.8,20.9,126,57.7,53.6,0,5,7,0,2026-03-04T04:03:18.996531+05:30
Guwahati,Assam,26.1158,91.7086,20.5,80,0.0,1005.4,7.1,16.6,154,73.3,64.7,3,5,4,1,2026-03-04T04:03:18.996537+05:30
Agartala,Tripura,23.8315,91.2868,18.7,90,0.0,1009.5,7.5,22.7,166,94.1,83.8,3,5,4,1,2026-03-04T04:03:18.996544+05:30
Shillong,Meghalaya,25.5788,91.8933,9.8,76,0.0,855.6,7.5,25.2,151,64.7,54.5,3,5,7,0,2026-03-04T04:03:18.996550+05:30
Imphal,Manipur,24.817,93.9368,12.0,80,0.0,924.7,7.7,23.4,152,66.1,60.3,3,5,7,0,2026-03-04T04:03:18.996557+05:30
Aizawl,Mizoram,23.7271,92.7176,15.1,72,0.0,893.5,7.7,27.0,157,85.7,78.2,3,5,7,0,2026-03-04T04:03:18.996563+05:30
Kohima,Nagaland,25.6701,94.1077,11.1,64,0.0,854.6,7.55,36.0,150,67.8,59.8,3,5,7,0,2026-03-04T04:03:18.996569+05:30
Gangtok,Sikkim,27.3314,88.6138,10.6,91,0.0,837.5,7.45,20.9,151,70.1,53.4,3,10,7,0,2026-03-04T04:03:18.996576+05:30
Siliguri,West Bengal,26.7271,88.3953,19.2,67,0.0,997.8,7.15,21.6,162,110.4,89.4,3,5,7,0,2026-03-04T04:03:22.248650+05:30
Durgapur,West Bengal,23.5204,87.3119,20.7,63,0.0,998.8,7.7,24.1,91,85.9,45.4,3,5,7,0,2026-03-04T04:03:22.248680+05:30
Asansol,West Bengal,23.6739,86.9524,21.5,62,0.0,997.4,7.7,22.3,89,63.1,35.7,3,5,7,0,2026-03-04T04:03:22.248689+05:30
Pondicherry,Puducherry,11.9139,79.8145,21.9,97,0.0,1010.5,8.85,27.7,109,44.4,39.2,3,0,4,1,2026-03-04T04:03:22.248696+05:30
Port Blair,Andaman and Nicobar Islands,11.6234,92.7265,26.8,76,0.0,1008.4,8.8,27.0,78,39.8,30.4,7,0,4,1,2026-03-04T04:03:22.248705+05:30
Haridwar,Uttarakhand,29.9457,78.1642,15.4,90,0.0,977.2,5.6,19.8,118,67.5,58.2,3,10,3,0,2026-03-04T04:03:22.248712+05:30
Rishikesh,Uttarakhand,30.0869,78.2676,16.3,85,0.0,969.8,5.65,23.8,92,45.1,39.3,3,10,3,0,2026-03-04T04:03:22.248720+05:30
Nainital,Uttarakhand,29.3919,79.4542,14.0,60,0.0,805.5,6.5,53.3,119,69.8,58.1,0,5,7,0,2026-03-04T04:03:22.248727+05:30
Mussoorie,Uttarakhand,30.4599,78.0664,13.5,56,0.0,802.6,6.0,40.3,90,36.7,32.7,0,5,3,0,2026-03-04T04:03:22.248734+05:30
Dharamshala,Himachal Pradesh,32.219,76.3234,19.3,29,0.0,871.3,6.25,29.5,46,13.9,7.3,0,5,7,0,2026-03-04T04:03:22.248740+05:30
Dalhousie,Himachal Pradesh,32.5387,75.971,14.8,25,0.0,804.9,6.45,23.8,84,28.7,25.7,0,5,7,1,2026-03-04T04:03:22.248747+05:30
Patiala,Punjab,30.3398,76.3869,16.3,83,0.0,981.5,5.65,34.2,254,224.0,68.2,3,10,3,0,2026-03-04T04:03:22.248754+05:30
Bhatinda,Punjab,30.211,74.9455,17.6,83,0.0,987.7,6.3,25.9,141,91.5,69.4,3,10,7,0,2026-03-04T04:03:22.248761+05:30
Rohtak,Haryana,28.8955,76.6066,16.2,88,0.0,985.4,5.85,35.6,464,294.3,66.6,3,10,3,0,2026-03-04T04:03:22.248767+05:30
Panipat,Haryana,29.3909,76.9635,16.3,86,0.0,983.7,5.65,35.3,1085,763.7,114.6,3,10,3,0,2026-03-04T04:03:22.248773+05:30
Mathura,Uttar Pradesh,27.4924,77.6737,20.8,45,0.0,990.6,6.1,34.6,471,404.2,69.6,0,5,7,0,2026-03-04T04:03:22.248779+05:30
Vrindavan,Uttar Pradesh,27.5823,77.7027,16.4,68,0.0,991.0,6.1,36.4,471,404.2,69.6,3,5,7,0,2026-03-04T04:03:22.248786+05:30
Ayodhya,Uttar Pradesh,26.7922,82.1998,16.8,87,0.0,998.8,6.5,10.1,153,220.3,89.9,3,10,7,0,2026-03-04T04:03:22.248792+05:30
Ratlam,Madhya Pradesh,23.3315,75.0367,16.5,92,0.0,957.3,7.35,13.0,96,56.5,51.7,3,10,7,0,2026-03-04T04:03:22.248799+05:30
Sagar,Madhya Pradesh,23.8388,78.7378,18.2,65,0.0,953.0,7.3,24.5,64,31.3,24.6,3,5,7,0,2026-03-04T04:03:22.248806+05:30
Satna,Madhya Pradesh,24.6005,80.8322,16.9,62,0.0,974.6,7.25,36.4,75,27.5,18.5,3,5,7,0,2026-03-04T04:03:22.248812+05:30
Akola,Maharashtra,20.7002,77.0082,20.6,65,0.0,977.9,7.8,15.1,74,24.8,21.5,3,5,7,0,2026-03-04T04:03:22.248819+05:30
Amravati,Maharashtra,20.9374,77.7796,20.9,54,0.0,969.8,7.75,20.2,70,21.7,17.6,0,5,7,0,2026-03-04T04:03:22.248826+05:30
Latur,Maharashtra,18.4088,76.5604,22.1,56,0.0,941.2,8.25,23.8,81,32.8,31.3,0,5,7,0,2026-03-04T04:03:22.248832+05:30
Nanded,Maharashtra,19.1383,77.3091,21.7,63,0.0,970.7,8.0,17.3,75,36.8,35.5,3,5,7,0,2026-03-04T04:03:22.248839+05:30
Gulbarga,Karnataka,17.3297,76.8343,23.1,54,0.0,960.2,8.35,20.9,96,26.8,26.3,0,5,7,0,2026-03-04T04:03:22.248845+05:30
Bidar,Karnataka,17.9104,77.5199,22.0,65,0.0,936.7,8.3,26.6,99,42.3,41.1,3,5,7,0,2026-03-04T04:03:22.248851+05:30
Hospet,Karnataka,15.2689,76.3909,25.9,51,0.0,956.8,8.65,25.9,105,35.7,35.2,4,5,7,0,2026-03-04T04:03:22.248857+05:30
Tirupur,Tamil Nadu,11.1085,77.3411,22.6,84,0.0,976.7,9.15,32.0,117,38.2,37.1,3,5,7,1,2026-03-04T04:03:22.248864+05:30
Alappuzha,Kerala,9.4981,76.3388,26.6,82,0.0,1009.5,8.95,32.8,99,41.9,39.7,7,0,4,1,2026-03-04T04:03:22.248870+05:30
Munnar,Kerala,10.0889,77.0595,17.4,56,0.0,855.3,9.45,22.7,95,29.9,29.0,0,5,7,0,2026-03-04T04:03:22.248878+05:30
Silchar,Assam,24.8333,92.7789,20.0,77,0.0,1008.5,7.45,16.2,157,65.4,57.9,3,0,4,0,2026-03-04T04:03:22.248884+05:30
Dibrugarh,Assam,27.4728,94.912,19.1,96,0.0,999.7,7.15,9.7,132,50.2,41.7,3,10,7,1,2026-03-04T04:03:22.248891+05:30
