city,state,latitude,longitude,temp,humidity,rain,pressure,uv_index,wind_gusts,aqi,pm10,pm2_5,mosquito_risk,arthritis_risk,migraine_risk,frizz_risk,updated_at
Delhi,Delhi,28.6139,77.209,29.9,35,0.0,979.1,7.05,31.3,141,209.1,44.4,4,5,7,0,2026-04-29T23:43:45.826455+05:30
Mumbai,Maharashtra,19.076,72.8777,28.7,81,0.0,1008.3,8.05,46.1,77,44.4,20.9,7,0,4,1,2026-04-29T23:43:45.826497+05:30
Bangalore,Karnataka,12.9716,77.5946,27.2,51,0.0,912.5,9.5,37.4,98,54.5,48.1,4,5,7,1,2026-04-29T23:43:45.826512+05:30
Hyderabad,Telangana,17.385,78.4867,31.5,37,0.0,952.7,9.3,27.4,121,56.0,48.0,0,5,7,0,2026-04-29T23:43:45.826522+05:30
Chennai,Tamil Nadu,13.0827,80.2707,29.8,83,0.0,1007.0,9.25,55.8,56,18.8,14.5,7,5,4,1,2026-04-29T23:43:45.826531+05:30
Kolkata,West Bengal,22.5726,88.3639,25.4,90,0.0,1004.7,8.85,50.4,66,15.7,12.3,7,5,4,1,2026-04-29T23:43:45.826541+05:30
Pune,Maharashtra,18.5204,73.8567,26.4,59,0.0,948.0,8.6,43.6,66,29.7,17.4,4,5,7,1,2026-04-29T23:43:45.826559+05:30
Ahmedabad,Gujarat,23.0225,72.5714,31.2,63,0.0,998.9,8.2,52.9,52,49.7,16.9,3,5,7,1,2026-04-29T23:43:45.826567+05:30
Jaipur,Rajasthan,26.9124,75.7873,31.6,21,0.0,956.5,8.05,48.2,162,374.4,52.4,0,5,7,0,2026-04-29T23:43:45.826574+05:30
Lucknow,Uttar Pradesh,26.8467,80.9462,28.0,60,0.0,990.8,7.9,40.0,143,62.6,52.0,4,5,7,1,2026-04-29T23:43:45.826582+05:30
Kanpur,Uttar Pradesh,26.4499,80.3319,30.1,43,0.0,988.5,7.9,43.2,158,170.0,57.4,0,5,7,1,2026-04-29T23:43:45.826589+05:30
Chandigarh,Chandigarh,30.7333,76.7794,21.9,70,0.0,964.8,7.4,34.6,66,30.3,26.3,3,5,7,1,2026-04-29T23:43:45.826596+05:30
Srinagar,Jammu and Kashmir,34.0837,74.7973,10.6,96,0.0,838.9,5.8,21.6,97,48.9,45.4,3,10,3,0,2026-04-29T23:43:45.826604+05:30
Jammu,Jammu and Kashmir,32.7266,74.857,19.2,71,0.0,969.3,7.0,51.5,68,43.4,31.0,3,5,7,0,2026-04-29T23:43:45.826612+05:30
Amritsar,Punjab,31.634,74.8723,22.9,63,0.0,977.4,8.1,40.7,127,46.0,35.9,3,5,7,0,2026-04-29T23:43:45.826619+05:30
Ludhiana,Punjab,30.901,75.8573,24.6,66,0.0,975.1,7.7,28.8,93,94.5,58.7,3,5,7,1,2026-04-29T23:43:45.826626+05:30
Jalandhar,Punjab,31.326,75.5762,23.3,67,0.0,976.2,7.9,33.8,90,64.5,55.9,3,5,7,1,2026-04-29T23:43:45.826635+05:30
Dehradun,Uttarakhand,30.6284,78.0322,12.5,78,0.0,826.3,6.15,40.7,54,19.2,11.7,3,5,7,0,2026-04-29T23:43:45.826643+05:30
Shimla,Himachal Pradesh,31.1048,77.1734,9.3,76,0.0,779.2,7.9,40.7,52,22.9,13.9,3,5,7,0,2026-04-29T23:43:45.826650+05:30
Manali,Himachal Pradesh,32.2396,77.1887,9.8,82,0.0,814.3,6.9,38.9,72,7.7,5.4,3,10,7,0,2026-04-29T23:43:45.826657+05:30
Gurgaon,Haryana,28.4595,77.0266,29.1,36,0.0,977.5,7.4,30.2,628,1743.4,192.3,4,5,7,0,2026-04-29T23:43:45.826663+05:30
Noida,Uttar Pradesh,28.5355,77.391,26.0,48,0.0,980.3,6.95,33.8,628,1743.4,192.3,4,5,7,0,2026-04-29T23:43:45.826670+05:30
Ghaziabad,Uttar Pradesh,28.6692,77.4538,26.9,44,0.0,978.7,6.85,31.3,132,179.7,41.1,4,5,7,0,2026-04-29T23:43:45.826677+05:30
Faridabad,Haryana,28.4089,77.3178,28.8,38,0.0,979.8,6.95,35.3,628,1743.4,192.3,4,5,7,0,2026-04-29T23:43:45.826683+05:30
Meerut,Uttar Pradesh,28.9845,77.7064,27.0,42,0.0,977.8,6.45,29.5,132,179.7,41.1,4,5,7,0,2026-04-29T23:43:45.826690+05:30
Agra,Uttar Pradesh,27.1767,78.0081,30.4,37,0.0,983.7,7.5,47.2,876,1613.1,182.5,0,5,7,0,2026-04-29T23:43:45.826697+05:30
Varanasi,Uttar Pradesh,25.3176,82.9739,27.6,66,0.0,996.6,8.45,52.2,131,39.1,30.5,7,5,7,1,2026-04-29T23:43:45.826707+05:30
Prayagraj,Uttar Pradesh,25.4358,81.8463,28.7,59,0.0,993.5,8.35,58.3,122,46.7,37.1,4,5,7,1,2026-04-29T23:43:45.826715+05:30
Gorakhpur,Uttar Pradesh,26.7606,83.3732,24.5,85,0.0,997.3,8.25,38.9,113,55.4,35.5,3,5,7,1,2026-04-29T23:43:45.826722+05:30
Bareilly,Uttar Pradesh,28.367,79.4304,26.9,53,0.0,983.9,7.45,30.6,101,70.1,39.2,4,5,7,1,2026-04-29T23:43:45.826728+05:30
Aligarh,Uttar Pradesh,27.8974,78.088,27.9,43,0.0,981.8,5.25,28.8,458,819.6,102.7,4,5,3,0,2026-04-29T23:43:45.826734+05:30
Moradabad,Uttar Pradesh,28.8386,78.7733,27.0,45,0.0,980.4,5.2,28.1,126,86.4,45.5,4,5,3,0,2026-04-29T23:43:45.826741+05:30
Saharanpur,Uttar Pradesh,29.9637,77.546,24.9,59,0.0,972.2,7.05,34.6,92,68.7,38.8,0,5,7,1,2026-04-29T23:43:45.826749+05:30
Jhansi,Uttar Pradesh,25.4484,78.5685,30.4,38,0.0,974.1,7.7,38.5,58,100.4,33.3,0,5,7,0,2026-04-29T23:43:49.075949+05:30
Surat,Gujarat,21.1702,72.8311,28.2,87,0.0,1005.1,7.85,46.8,68,27.8,17.2,7,5,4,1,2026-04-29T23:43:49.075978+05:30
Vadodara,Gujarat,22.3072,73.1812,29.6,72,0.0,1001.8,8.15,54.7,59,23.4,14.5,7,5,4,1,2026-04-29T23:43:49.075987+05:30
Rajkot,Gujarat,22.3039,70.8022,28.0,74,0.0,992.1,7.9,51.8,51,39.2,13.2,7,5,7,1,2026-04-29T23:43:49.075994+05:30
Thane,Maharashtra,19.2183,72.9781,28.5,82,0.0,1007.7,8.05,40.7,77,44.4,20.9,7,5,4,1,2026-04-29T23:43:49.076001+05:30
Nagpur,Maharashtra,21.1458,79.0882,34.0,17,0.0,970.1,8.85,60.1,62,18.3,14.9,0,5,7,0,2026-04-29T23:43:49.076008+05:30
Nashik,Maharashtra,19.9975,73.7898,24.9,68,0.0,945.1,8.3,45.7,60,35.3,15.9,3,5,7,1,2026-04-29T23:43:49.076015+05:30
Aurangabad,Maharashtra,19.8762,75.3433,30.1,32,0.0,943.4,9.05,55.8,66,21.9,11.6,0,5,7,0,2026-04-29T23:43:49.076025+05:30
Solapur,Maharashtra,17.6599,75.9064,33.6,24,0.0,955.9,9.1,38.5,77,28.5,24.6,0,5,7,0,2026-04-29T23:43:49.076032+05:30
Kolhapur,Maharashtra,16.705,74.2433,24.9,74,0.0,947.9,9.0,44.3,69,24.6,15.3,3,5,7,1,2026-04-29T23:43:49.076039+05:30
Goa,Goa,15.2993,74.124,29.5,79,0.0,998.5,8.75,43.2,71,41.0,21.5,7,5,7,1,2026-04-29T23:43:49.076046+05:30
Jodhpur,Rajasthan,26.2389,73.0243,31.9,34,0.0,978.3,8.25,50.4,137,166.7,31.2,0,5,7,0,2026-04-29T23:43:49.076052+05:30
Udaipur,Rajasthan,24.5854,73.7125,30.6,28,0.0,943.8,8.75,41.4,51,38.5,15.2,0,5,7,0,2026-04-29T23:43:49.076058+05:30
Kota,Rajasthan,25.2138,75.8648,32.7,24,0.0,975.1,8.3,43.6,63,62.9,25.7,0,5,7,0,2026-04-29T23:43:49.076065+05:30
Bikaner,Rajasthan,28.0229,73.3119,30.4,28,0.0,977.3,8.15,37.1,79,94.8,27.5,0,5,7,0,2026-04-29T23:43:49.076072+05:30
Ajmer,Rajasthan,26.4499,74.6399,29.9,32,0.0,952.0,8.2,51.5,73,108.7,25.1,4,5,7,0,2026-04-29T23:43:49.076078+05:30
Gwalior,Madhya Pradesh,26.2183,78.1828,31.0,28,0.0,979.0,8.05,44.3,175,227.2,54.0,0,5,7,0,2026-04-29T23:43:49.076085+05:30
Indore,Madhya Pradesh,22.7196,75.8577,30.8,25,0.0,946.1,8.65,55.4,58,23.3,14.7,0,5,7,0,2026-04-29T23:43:49.076091+05:30
Bhopal,Madhya Pradesh,23.2599,77.4126,31.8,20,0.0,951.0,8.6,53.3,60,20.2,11.3,0,5,7,0,2026-04-29T23:43:49.076097+05:30
Jabalpur,Madhya Pradesh,23.1815,79.9864,31.6,19,0.0,958.0,8.75,40.7,46,11.9,8.4,0,5,7,0,2026-04-29T23:43:49.076103+05:30
Ujjain,Madhya Pradesh,23.1765,75.7885,30.2,25,0.0,951.3,8.55,52.6,68,26.0,17.2,0,5,7,0,2026-04-29T23:43:49.076109+05:30
Visakhapatnam,Andhra Pradesh,17.6868,83.2185,28.4,86,0.0,1003.2,9.1,54.4,59,18.6,14.6,7,5,4,1,2026-04-29T23:43:49.076116+05:30
Vijayawada,Andhra Pradesh,16.5062,80.648,29.2,82,0.0,1002.0,8.75,36.0,80,17.9,15.4,7,5,4,1,2026-04-29T23:43:49.076122+05:30
Guntur,Andhra Pradesh,16.3067,80.4365,29.2,88,0.0,1003.2,8.9,37.1,106,17.8,15.5,7,5,4,1,2026-04-29T23:43:49.076128+05:30
Nellore,Andhra Pradesh,14.4426,79.9865,29.6,79,0.0,1005.6,9.25,37.4,71,14.6,12.9,7,5,4,1,2026-04-29T23:43:49.076135+05:30
Kurnool,Andhra Pradesh,15.8281,78.0373,33.0,35,0.0,975.9,8.8,28.8,119,54.1,44.2,0,5,7,0,2026-04-29T23:43:49.076141+05:30
Kakinada,Andhra Pradesh,16.9891,82.2475,29.1,82,0.0,1006.8,9.1,43.6,53,18.5,13.7,7,5,4,1,2026-04-29T23:43:49.076148+05:30
Tirupati,Andhra Pradesh,13.6288,79.4192,30.1,68,0.0,991.5,9.3,31.0,70,13.6,13.0,3,5,7,1,2026-04-29T23:43:49.076154+05:30
Warangal,Telangana,17.9689,79.5941,31.2,45,0.0,977.1,9.15,32.0,127,46.7,43.8,0,5,7,1,2026-04-29T23:43:49.076160+05:30
Nizamabad,Telangana,18.6725,78.0941,32.7,23,0.0,962.2,9.1,38.9,93,43.9,34.7,0,5,7,0,2026-04-29T23:43:49.076166+05:30
Mysore,Karnataka,12.2958,76.6396,24.6,80,0.0,929.2,9.35,43.2,126,36.1,29.8,3,5,7,1,2026-04-29T23:43:49.076172+05:30
Mangalore,Karnataka,12.9141,74.856,30.1,71,0.0,1007.3,9.1,41.4,76,50.2,24.4,3,5,4,1,2026-04-29T23:43:49.076179+05:30
Hubli-Dharwad,Karnataka,15.3647,75.124,25.1,92,0.0,941.5,9.0,54.0,73,27.0,17.3,7,5,7,1,2026-04-29T23:43:49.076185+05:30
Belgaum,Karnataka,15.8497,74.4977,24.2,91,0.0,926.5,9.2,43.6,68,26.6,15.4,3,5,7,1,2026-04-29T23:43:52.326064+05:30
Coimbatore,Tamil Nadu,11.0168,76.9558,26.0,86,0.0,962.1,9.3,52.2,78,25.9,21.3,7,5,7,1,2026-04-29T23:43:52.326094+05:30
Madurai,Tamil Nadu,9.9252,78.1198,30.4,65,0.0,993.8,8.35,47.2,64,14.8,14.3,3,5,7,1,2026-04-29T23:43:52.326103+05:30
Trichy,Tamil Nadu,10.7905,78.7047,29.6,71,0.0,1000.1,9.2,45.4,51,7.5,7.0,7,5,4,1,2026-04-29T23:43:52.326111+05:30
Salem,Tamil Nadu,11.6643,78.146,30.7,58,0.0,977.6,8.85,40.7,85,8.8,8.5,0,5,7,1,2026-04-29T23:43:52.326118+05:30
Tirunelveli,Tamil Nadu,8.7139,77.7567,28.0,78,0.0,1004.2,8.5,32.0,52,15.9,15.1,7,5,4,1,2026-04-29T23:43:52.326125+05:30
Vellore,Tamil Nadu,12.9165,79.1325,29.6,71,0.0,984.5,9.35,36.4,74,17.2,16.5,7,5,7,1,2026-04-29T23:43:52.326133+05:30
Erode,Tamil Nadu,11.341,77.7172,29.2,70,0.0,989.2,8.65,45.0,80,30.0,27.5,7,5,7,1,2026-04-29T23:43:52.326140+05:30
Kochi,Kerala,9.9312,76.2673,26.1,91,0.0,1010.4,7.7,34.9,80,32.6,29.0,7,0,4,1,2026-04-29T23:43:52.326147+05:30
Thiruvananthapuram,Kerala,8.5241,76.9366,25.6,96,0.0,1009.6,8.05,27.0,45,10.0,7.2,7,0,4,1,2026-04-29T23:43:52.326154+05:30
Kozhikode,Kerala,11.2588,75.7804,27.3,85,0.1,1008.8,9.0,36.0,70,43.5,20.3,10,0,4,1,2026-04-29T23:43:52.326161+05:30
Thrissur,Kerala,10.5276,76.2144,26.4,93,0.1,1008.5,8.05,33.1,84,35.0,30.9,10,0,4,1,2026-04-29T23:43:52.326168+05:30
Kannur,Kerala,11.8745,75.3704,29.6,73,0.0,1007.9,9.0,42.8,77,48.5,23.7,7,5,4,1,2026-04-29T23:43:52.326175+05:30
Patna,Bihar,25.5941,85.1376,25.1,82,0.0,999.3,8.55,39.2,98,32.0,24.0,7,5,7,1,2026-04-29T23:43:52.326181+05:30
Gaya,Bihar,24.7914,85.0002,27.1,74,0.0,992.1,8.65,57.2,127,37.7,32.0,7,5,7,1,2026-04-29T23:43:52.326188+05:30
Muzaffarpur,Bihar,26.1209,85.3647,24.4,82,0.0,1000.6,8.55,54.4,86,32.2,24.0,3,5,4,1,2026-04-29T23:43:52.326194+05:30
Bhagalpur,Bihar,25.2425,87.0117,23.8,84,0.0,1001.2,8.55,55.1,66,15.9,11.7,3,5,4,1,2026-04-29T23:43:52.326201+05:30
Ranchi,Jharkhand,23.3441,85.3096,22.8,80,0.0,936.2,9.15,40.7,101,42.1,36.7,3,5,7,1,2026-04-29T23:43:52.326207+05:30
Jamshedpur,Jharkhand,22.8046,86.2029,25.9,85,0.0,989.7,8.95,47.9,123,41.2,38.6,7,5,7,1,2026-04-29T23:43:52.326214+05:30
Dhanbad,Jharkhand,23.7957,86.4304,25.1,86,0.0,979.6,8.9,58.3,158,77.8,75.4,7,5,7,1,2026-04-29T23:43:52.326220+05:30
Bokaro,Jharkhand,23.6693,86.1511,25.5,81,0.0,982.7,8.9,61.6,155,80.6,75.9,7,5,7,1,2026-04-29T23:43:52.326226+05:30
Bhubaneswar,Odisha,20.2961,85.8245,27.5,89,0.0,1000.8,9.1,56.9,55,11.7,9.3,7,5,4,1,2026-04-29T23:43:52.326233+05:30
Cuttack,Odisha,20.4625,85.8828,27.8,87,0.0,1002.6,9.1,45.4,55,11.7,9.3,7,5,4,1,2026-04-29T23:43:52.326240+05:30
Rourkela,Odisha,22.2604,84.8536,28.8,50,0.0,984.1,8.9,49.7,145,41.0,38.4,4,5,7,1,2026-04-29T23:43:52.326246+05:30
Raipur,Chhattisgarh,21.2514,81.6296,32.3,26,0.0,971.4,8.9,54.0,103,33.2,28.9,0,5,7,0,2026-04-29T23:43:52.326253+05:30
Bhilai,Chhattisgarh,21.1938,81.3509,31.6,27,0.0,971.9,8.9,51.8,98,27.1,22.8,0,5,7,0,2026-04-29T23:43:52.326259+05:30
Guwahati,Assam,26.1158,91.7086,20.5,99,0.1,1004.8,7.15,31.3,67,24.8,21.1,6,5,4,1,2026-04-29T23:43:52.326265+05:30
Agartala,Tripura,23.8315,91.2868,21.7,90,0.0,1007.7,6.55,38.2,79,34.8,29.6,3,5,4,1,2026-04-29T23:43:52.326271+05:30
Shillong,Meghalaya,25.5788,91.8933,13.9,79,0.0,856.7,7.5,49.3,29,13.3,9.0,3,5,7,0,2026-04-29T23:43:52.326277+05:30
Imphal,Manipur,24.817,93.9368,15.9,97,0.0,923.8,6.15,23.8,83,30.3,28.8,3,10,7,0,2026-04-29T23:43:52.326283+05:30
Aizawl,Mizoram,23.7271,92.7176,14.6,98,0.0,893.3,6.2,30.2,81,31.8,22.6,3,10,7,0,2026-04-29T23:43:52.326289+05:30
Kohima,Nagaland,25.6701,94.1077,15.1,81,0.0,855.0,7.25,25.6,53,23.8,13.3,3,10,7,0,2026-04-29T23:43:52.326296+05:30
Gangtok,Sikkim,27.3314,88.6138,14.5,74,0.1,836.3,5.5,29.2,47,8.9,6.0,6,5,3,0,2026-04-29T23:43:52.326302+05:30
Siliguri,West Bengal,26.7271,88.3953,20.4,94,0.0,994.8,1.8,32.8,58,17.8,12.6,3,5,3,1,2026-04-29T23:43:55.584214+05:30
Durgapur,West Bengal,23.5204,87.3119,25.0,88,0.0,993.8,8.85,43.6,137,42.0,40.9,7,5,7,1,2026-04-29T23:43:55.584243+05:30
Asansol,West Bengal,23.6739,86.9524,24.7,91,0.0,992.9,8.85,64.8,151,55.2,53.8,3,5,7,1,2026-04-29T23:43:55.584253+05:30
Pondicherry,Puducherry,11.9139,79.8145,29.6,79,0.0,1008.6,9.05,52.9,51,11.9,8.7,7,0,4,1,2026-04-29T23:43:55.584260+05:30
Port Blair,Andaman and Nicobar Islands,11.6234,92.7265,27.1,84,0.0,1008.0,9.1,28.1,33,10.1,7.6,7,0,4,1,2026-04-29T23:43:55.584269+05:30
Haridwar,Uttarakhand,29.9457,78.1642,21.4,72,0.0,970.5,6.45,27.4,81,85.7,39.6,3,5,7,1,2026-04-29T23:43:55.584276+05:30
Rishikesh,Uttarakhand,30.0869,78.2676,19.6,76,0.0,963.2,6.85,26.3,80,101.5,36.6,3,5,7,0,2026-04-29T23:43:55.584283+05:30
Nainital,Uttarakhand,29.3919,79.4542,13.1,83,0.0,802.7,5.65,47.5,94,136.0,46.2,3,10,3,0,2026-04-29T23:43:55.584291+05:30
Mussoorie,Uttarakhand,30.4599,78.0664,13.4,65,0.0,800.1,5.9,36.7,68,56.0,29.7,3,5,3,0,2026-04-29T23:43:55.584298+05:30
Dharamshala,Himachal Pradesh,32.219,76.3234,19.5,43,0.0,866.4,7.95,51.8,43,17.8,12.0,0,5,7,0,2026-04-29T23:43:55.584305+05:30
Dalhousie,Himachal Pradesh,32.5387,75.971,10.4,79,0.0,799.3,7.5,51.8,55,41.3,26.2,3,5,7,0,2026-04-29T23:43:55.584312+05:30
Patiala,Punjab,30.3398,76.3869,25.9,55,0.0,974.5,7.35,49.7,161,114.3,45.9,4,5,7,1,2026-04-29T23:43:55.584319+05:30
Bhatinda,Punjab,30.211,74.9455,27.4,50,0.0,979.7,8.05,47.2,93,327.8,74.7,4,5,7,0,2026-04-29T23:43:55.584326+05:30
Rohtak,Haryana,28.8955,76.6066,27.9,44,0.0,977.9,7.45,27.7,198,530.9,75.2,4,5,7,0,2026-04-29T23:43:55.584332+05:30
Panipat,Haryana,29.3909,76.9635,25.9,59,0.0,976.5,7.3,37.1,501,931.3,108.5,4,5,7,1,2026-04-29T23:43:55.584338+05:30
Mathura,Uttar Pradesh,27.4924,77.6737,29.4,38,0.0,982.7,7.6,38.2,722,1438.0,168.6,4,5,7,0,2026-04-29T23:43:55.584345+05:30
Vrindavan,Uttar Pradesh,27.5823,77.7027,29.0,39,0.0,983.1,7.5,39.6,722,1438.0,168.6,4,5,7,0,2026-04-29T23:43:55.584351+05:30
Ayodhya,Uttar Pradesh,26.7922,82.1998,24.7,83,0.0,993.8,8.05,37.4,143,52.7,39.0,3,5,7,1,2026-04-29T23:43:55.584356+05:30
Ratlam,Madhya Pradesh,23.3315,75.0367,29.9,30,0.0,952.4,8.5,47.9,78,24.7,15.0,4,5,7,0,2026-04-29T23:43:55.584362+05:30
Sagar,Madhya Pradesh,23.8388,78.7378,30.1,23,0.0,947.0,8.65,43.9,49,27.9,14.3,0,5,7,0,2026-04-29T23:43:55.584368+05:30
Satna,Madhya Pradesh,24.6005,80.8322,30.0,34,0.0,968.1,8.6,45.7,66,58.0,29.8,4,5,7,0,2026-04-29T23:43:55.584374+05:30
Akola,Maharashtra,20.7002,77.0082,32.2,22,0.0,972.9,8.85,54.4,76,20.4,12.9,0,5,7,0,2026-04-29T23:43:55.584381+05:30
Amravati,Maharashtra,20.9374,77.7796,33.1,18,0.0,964.9,8.85,59.8,78,17.7,11.4,0,5,7,0,2026-04-29T23:43:55.584388+05:30
Latur,Maharashtra,18.4088,76.5604,31.0,22,0.0,938.4,9.05,29.2,71,41.6,35.0,0,5,7,0,2026-04-29T23:43:55.584396+05:30
Nanded,Maharashtra,19.1383,77.3091,33.8,19,0.0,966.7,9.0,32.0,71,33.8,27.2,0,5,7,0,2026-04-29T23:43:55.584407+05:30
Gulbarga,Karnataka,17.3297,76.8343,33.0,30,0.0,957.7,9.1,27.0,87,50.9,42.7,0,5,7,0,2026-04-29T23:43:55.584413+05:30
Bidar,Karnataka,17.9104,77.5199,30.8,33,0.0,934.7,9.15,32.0,96,59.0,48.8,0,5,7,0,2026-04-29T23:43:55.584419+05:30
Hospet,Karnataka,15.2689,76.3909,28.8,59,0.0,956.3,9.0,42.8,116,36.1,30.5,4,5,7,1,2026-04-29T23:43:55.584424+05:30
Tirupur,Tamil Nadu,11.1085,77.3411,27.1,82,0.0,975.2,8.95,54.0,88,30.9,27.3,7,5,7,1,2026-04-29T23:43:55.584431+05:30
Alappuzha,Kerala,9.4981,76.3388,25.8,93,0.0,1010.4,7.5,32.4,66,33.9,28.3,7,0,4,1,2026-04-29T23:43:55.584437+05:30
Munnar,Kerala,10.0889,77.0595,18.5,95,0.0,858.0,8.25,25.9,77,32.2,30.0,3,10,7,1,2026-04-29T23:43:55.584443+05:30
Silchar,Assam,24.8333,92.7789,20.2,97,0.0,1008.2,6.25,24.8,95,33.9,31.3,3,0,4,1,2026-04-29T23:43:55.584449+05:30
Dibrugarh,Assam,27.4728,94.912,21.5,97,0.3,997.8,6.3,31.0,100,26.1,22.5,6,5,7,1,2026-04-29T23:43:55.584456+05:30
