city,state,latitude,longitude,temp,humidity,rain,pressure,uv_index,wind_gusts,aqi,pm10,pm2_5,no2,co,o3,so2,mosquito_risk,arthritis_risk,migraine_risk,frizz_risk,updated_at
Delhi,Delhi,28.6139,77.209,33.8,41,0.0,979.4,7.75,38.5,182,410.7,99.2,35.3,386.0,72.0,18.3,0,5,7,1,2026-06-18T22:06:22.846975+05:30
Mumbai,Maharashtra,19.076,72.8777,30.2,66,0.0,1008.3,7.7,43.2,62,32.2,16.4,8.2,168.0,44.0,6.0,3,0,4,1,2026-06-18T22:06:22.847024+05:30
Bangalore,Karnataka,12.9716,77.5946,21.6,95,0.0,912.6,7.0,34.6,55,19.3,15.3,30.7,627.0,30.0,7.6,3,5,7,1,2026-06-18T22:06:22.847041+05:30
Hyderabad,Telangana,17.385,78.4867,32.4,38,0.0,952.9,9.05,37.8,72,56.9,45.8,48.8,484.0,28.0,12.4,0,5,7,1,2026-06-18T22:06:22.847052+05:30
Chennai,Tamil Nadu,13.0827,80.2707,28.9,76,0.0,1006.7,6.6,31.0,140,33.3,24.7,12.4,393.0,120.0,7.9,7,5,4,1,2026-06-18T22:06:22.847062+05:30
Kolkata,West Bengal,22.5726,88.3639,28.8,88,0.0,1003.5,8.95,42.1,131,50.1,44.0,14.2,473.0,75.0,11.6,7,5,4,1,2026-06-18T22:06:22.847071+05:30
Pune,Maharashtra,18.5204,73.8567,25.6,73,0.0,948.6,8.3,43.9,51,26.5,16.4,7.0,154.0,53.0,5.8,7,5,7,1,2026-06-18T22:06:22.847078+05:30
Ahmedabad,Gujarat,23.0225,72.5714,29.1,76,0.1,1000.4,4.45,30.2,67,31.2,18.5,10.1,228.0,58.0,6.6,10,5,0,1,2026-06-18T22:06:22.847085+05:30
Jaipur,Rajasthan,26.9124,75.7873,31.1,48,0.0,957.3,8.2,33.1,118,133.2,55.9,30.6,277.0,38.0,10.9,0,5,7,1,2026-06-18T22:06:22.847092+05:30
Lucknow,Uttar Pradesh,26.8467,80.9462,32.9,55,0.0,989.7,8.35,43.2,157,172.8,65.2,19.5,383.0,80.0,10.9,0,5,7,1,2026-06-18T22:06:22.847104+05:30
Kanpur,Uttar Pradesh,26.4499,80.3319,34.1,50,0.0,988.0,8.25,43.2,155,266.4,73.8,23.3,389.0,70.0,9.9,0,5,7,1,2026-06-18T22:06:22.847110+05:30
Chandigarh,Chandigarh,30.7333,76.7794,28.8,56,0.0,965.1,7.8,28.8,142,60.1,50.1,38.6,761.0,80.0,12.6,4,5,7,1,2026-06-18T22:06:22.847118+05:30
Srinagar,Jammu and Kashmir,34.0837,74.7973,18.9,83,0.0,841.7,8.85,34.9,75,32.2,30.4,33.0,1319.0,31.0,1.1,3,10,7,0,2026-06-18T22:06:22.847125+05:30
Jammu,Jammu and Kashmir,32.7266,74.857,32.1,42,0.0,968.7,8.65,29.9,117,52.7,43.8,55.0,444.0,63.0,7.3,0,5,7,1,2026-06-18T22:06:22.847132+05:30
Amritsar,Punjab,31.634,74.8723,29.4,72,0.0,976.3,8.5,25.2,155,77.3,64.7,44.8,654.0,77.0,14.0,7,5,7,1,2026-06-18T22:06:22.847139+05:30
Ludhiana,Punjab,30.901,75.8573,30.6,61,0.0,974.6,7.4,28.8,154,59.8,51.5,26.6,1002.0,78.0,7.6,3,5,7,1,2026-06-18T22:06:22.847146+05:30
Jalandhar,Punjab,31.326,75.5762,30.8,57,0.0,975.4,8.25,27.7,153,66.8,57.9,30.8,788.0,81.0,8.7,0,5,7,1,2026-06-18T22:06:22.847152+05:30
Dehradun,Uttarakhand,30.6284,78.0322,18.1,87,0.0,829.0,7.7,24.5,100,33.4,17.8,14.6,234.0,96.0,1.3,3,10,7,0,2026-06-18T22:06:22.847159+05:30
Shimla,Himachal Pradesh,31.1048,77.1734,15.3,78,0.0,783.2,7.75,35.6,112,44.8,27.7,15.0,431.0,100.0,0.9,3,5,7,0,2026-06-18T22:06:22.847165+05:30
Manali,Himachal Pradesh,32.2396,77.1887,15.5,93,0.0,817.0,9.6,29.5,50,7.2,7.0,49.2,244.0,70.0,0.2,3,10,7,0,2026-06-18T22:06:22.847179+05:30
Gurgaon,Haryana,28.4595,77.0266,31.7,50,0.0,977.9,7.85,36.4,206,429.3,99.4,49.3,553.0,55.0,20.5,0,5,7,1,2026-06-18T22:06:22.847185+05:30
Noida,Uttar Pradesh,28.5355,77.391,32.3,50,0.0,980.6,7.8,26.3,206,429.3,99.4,49.3,941.0,55.0,20.5,0,5,7,1,2026-06-18T22:06:22.847191+05:30
Ghaziabad,Uttar Pradesh,28.6692,77.4538,31.5,51,0.0,978.9,7.35,31.3,189,231.9,94.1,43.8,619.0,68.0,21.8,0,5,7,1,2026-06-18T22:06:22.847198+05:30
Faridabad,Haryana,28.4089,77.3178,33.5,42,0.0,980.1,7.85,37.8,206,429.3,99.4,49.3,569.0,55.0,20.5,0,5,7,1,2026-06-18T22:06:22.847208+05:30
Meerut,Uttar Pradesh,28.9845,77.7064,31.3,58,0.0,977.6,7.7,42.1,189,231.9,94.1,43.8,562.0,68.0,21.8,0,5,7,1,2026-06-18T22:06:22.847214+05:30
Agra,Uttar Pradesh,27.1767,78.0081,34.1,45,0.0,984.1,8.15,31.7,198,396.7,118.5,71.0,447.0,20.0,21.7,0,5,7,1,2026-06-18T22:06:22.847221+05:30
Varanasi,Uttar Pradesh,25.3176,82.9739,33.1,53,0.0,994.2,8.8,31.3,141,46.8,33.6,20.3,426.0,72.0,10.5,0,5,7,1,2026-06-18T22:06:22.847227+05:30
Prayagraj,Uttar Pradesh,25.4358,81.8463,34.5,44,0.0,992.7,8.3,32.0,124,77.3,44.0,16.2,340.0,69.0,8.4,0,5,7,1,2026-06-18T22:06:22.847236+05:30
Gorakhpur,Uttar Pradesh,26.7606,83.3732,32.1,56,0.0,993.3,8.7,31.0,151,113.2,65.7,28.3,501.0,70.0,14.7,0,5,7,1,2026-06-18T22:06:22.847243+05:30
Bareilly,Uttar Pradesh,28.367,79.4304,30.8,63,0.0,982.6,8.15,26.3,158,90.6,58.1,24.5,459.0,83.0,13.6,3,5,7,1,2026-06-18T22:06:22.847251+05:30
Aligarh,Uttar Pradesh,27.8974,78.088,31.8,51,0.0,981.8,7.95,32.4,230,344.6,114.1,66.6,552.0,41.0,20.1,0,5,7,1,2026-06-18T22:06:22.847257+05:30
Moradabad,Uttar Pradesh,28.8386,78.7733,31.6,58,0.0,979.6,7.95,32.0,166,119.7,83.1,51.5,563.0,50.0,16.8,0,5,7,1,2026-06-18T22:06:22.847263+05:30
Saharanpur,Uttar Pradesh,29.9637,77.546,30.6,50,0.0,971.7,7.55,24.5,168,136.0,66.8,29.8,406.0,73.0,13.8,0,5,7,1,2026-06-18T22:06:22.847269+05:30
Jhansi,Uttar Pradesh,25.4484,78.5685,32.8,46,0.0,974.9,8.5,32.0,82,47.5,27.5,7.1,185.0,65.0,4.3,0,5,7,1,2026-06-18T22:06:26.083391+05:30
Surat,Gujarat,21.1702,72.8311,29.5,78,0.0,1005.6,7.6,49.7,72,35.0,20.5,19.4,259.0,30.0,31.8,7,5,4,1,2026-06-18T22:06:26.083429+05:30
Vadodara,Gujarat,22.3072,73.1812,27.3,92,0.5,1003.3,5.25,50.4,65,28.5,18.6,19.2,141.0,34.0,14.3,10,5,0,1,2026-06-18T22:06:26.083440+05:30
Rajkot,Gujarat,22.3039,70.8022,30.0,69,0.0,992.6,4.15,45.7,58,30.7,14.5,5.3,135.0,47.0,4.9,7,5,3,1,2026-06-18T22:06:26.083448+05:30
Thane,Maharashtra,19.2183,72.9781,30.2,66,0.0,1007.7,7.7,40.7,62,32.2,16.4,8.2,177.0,44.0,6.0,3,5,4,1,2026-06-18T22:06:26.083455+05:30
Nagpur,Maharashtra,21.1458,79.0882,31.1,65,0.0,971.5,7.55,50.4,77,62.6,43.9,35.1,313.0,45.0,22.2,3,5,7,1,2026-06-18T22:06:26.083462+05:30
Nashik,Maharashtra,19.9975,73.7898,25.8,73,0.0,945.6,8.0,45.4,51,26.8,14.3,4.0,130.0,51.0,1.7,7,5,7,1,2026-06-18T22:06:26.083469+05:30
Aurangabad,Maharashtra,19.8762,75.3433,30.2,45,0.0,943.8,8.9,43.2,51,30.2,18.3,5.6,135.0,83.0,4.8,0,5,7,1,2026-06-18T22:06:26.083477+05:30
Solapur,Maharashtra,17.6599,75.9064,30.6,45,0.0,956.8,8.7,43.9,55,34.0,23.7,14.4,154.0,70.0,4.5,0,5,7,1,2026-06-18T22:06:26.083484+05:30
Kolhapur,Maharashtra,16.705,74.2433,24.9,69,0.0,948.9,8.75,43.6,53,27.0,17.0,5.4,170.0,54.0,2.6,3,5,7,1,2026-06-18T22:06:26.083492+05:30
Goa,Goa,15.2993,74.124,27.4,80,0.0,999.3,8.65,33.5,61,37.1,19.3,4.3,373.0,46.0,1.8,7,5,7,1,2026-06-18T22:06:26.083499+05:30
Jodhpur,Rajasthan,26.2389,73.0243,32.9,48,0.0,979.9,8.4,42.5,104,146.7,34.2,6.3,167.0,62.0,2.0,0,5,7,1,2026-06-18T22:06:26.083505+05:30
Udaipur,Rajasthan,24.5854,73.7125,27.7,75,0.0,944.9,7.9,33.1,65,27.1,15.7,10.0,241.0,46.0,1.3,7,5,7,1,2026-06-18T22:06:26.083512+05:30
Kota,Rajasthan,25.2138,75.8648,31.0,58,0.0,976.7,8.35,41.0,74,28.2,19.1,7.7,288.0,71.0,5.6,0,5,7,1,2026-06-18T22:06:26.083520+05:30
Bikaner,Rajasthan,28.0229,73.3119,31.1,60,0.0,978.1,8.45,54.7,124,76.8,32.2,4.8,440.0,62.0,2.6,0,5,7,1,2026-06-18T22:06:26.083526+05:30
Ajmer,Rajasthan,26.4499,74.6399,29.0,62,0.0,952.5,8.35,41.4,85,52.9,27.2,9.3,212.0,59.0,3.9,7,5,7,1,2026-06-18T22:06:26.083533+05:30
Gwalior,Madhya Pradesh,26.2183,78.1828,34.7,39,0.0,979.8,8.25,34.6,96,67.8,34.0,9.7,159.0,59.0,4.1,0,5,7,1,2026-06-18T22:06:26.083540+05:30
Indore,Madhya Pradesh,22.7196,75.8577,29.1,56,0.0,947.4,8.6,40.7,74,26.3,20.6,11.2,241.0,59.0,5.1,4,5,7,1,2026-06-18T22:06:26.083547+05:30
Bhopal,Madhya Pradesh,23.2599,77.4126,28.1,68,0.0,952.2,8.65,35.3,76,32.7,22.6,5.9,341.0,76.0,3.2,7,5,7,1,2026-06-18T22:06:26.083554+05:30
Jabalpur,Madhya Pradesh,23.1815,79.9864,27.9,77,0.0,959.5,3.75,36.0,72,31.7,26.0,15.7,283.0,63.0,4.5,7,5,3,1,2026-06-18T22:06:26.083560+05:30
Ujjain,Madhya Pradesh,23.1765,75.7885,28.8,59,0.0,952.9,8.55,45.4,67,32.1,24.6,7.4,272.0,61.0,4.3,4,5,7,1,2026-06-18T22:06:26.083568+05:30
Visakhapatnam,Andhra Pradesh,17.6868,83.2185,28.4,94,0.0,1002.3,8.15,28.4,116,48.3,36.7,30.0,1615.0,102.0,46.6,7,5,4,1,2026-06-18T22:06:26.083575+05:30
Vijayawada,Andhra Pradesh,16.5062,80.648,30.9,73,0.0,1000.9,8.65,27.4,93,55.4,49.7,28.5,873.0,61.0,12.0,3,5,4,1,2026-06-18T22:06:26.083582+05:30
Guntur,Andhra Pradesh,16.3067,80.4365,31.1,73,0.0,1002.0,8.7,38.5,96,65.2,58.9,42.4,936.0,43.0,12.8,3,5,4,1,2026-06-18T22:06:26.083589+05:30
Nellore,Andhra Pradesh,14.4426,79.9865,30.1,75,0.0,1004.7,8.05,37.8,91,32.4,24.9,6.2,274.0,120.0,6.8,3,5,4,1,2026-06-18T22:06:26.083597+05:30
Kurnool,Andhra Pradesh,15.8281,78.0373,30.2,60,0.0,976.0,8.7,36.0,69,38.0,28.6,15.9,435.0,72.0,6.8,0,5,7,1,2026-06-18T22:06:26.083604+05:30
Kakinada,Andhra Pradesh,16.9891,82.2475,29.5,87,0.0,1005.8,5.6,24.8,108,41.0,24.6,3.4,319.0,117.0,4.1,7,5,0,1,2026-06-18T22:06:26.083611+05:30
Tirupati,Andhra Pradesh,13.6288,79.4192,26.8,84,0.0,991.1,7.2,30.6,78,27.8,22.8,25.8,255.0,52.0,5.5,7,5,7,1,2026-06-18T22:06:26.083617+05:30
Warangal,Telangana,17.9689,79.5941,30.9,64,0.0,977.2,8.9,32.0,117,40.9,35.2,18.9,621.0,76.0,10.6,3,5,7,1,2026-06-18T22:06:26.083624+05:30
Nizamabad,Telangana,18.6725,78.0941,32.8,39,0.0,963.9,8.9,34.2,81,60.5,40.9,27.2,333.0,54.0,6.6,0,5,7,1,2026-06-18T22:06:26.083631+05:30
Mysore,Karnataka,12.2958,76.6396,22.1,96,0.0,929.5,8.3,25.6,45,26.8,19.8,30.5,346.0,32.0,4.3,3,5,7,1,2026-06-18T22:06:26.083637+05:30
Mangalore,Karnataka,12.9141,74.856,25.7,97,0.0,1008.3,7.7,24.8,67,44.7,27.5,18.2,566.0,30.0,5.6,7,0,4,1,2026-06-18T22:06:26.083644+05:30
Hubli-Dharwad,Karnataka,15.3647,75.124,24.4,83,0.0,941.8,8.85,38.5,51,24.7,15.3,7.0,158.0,52.0,2.0,3,5,7,1,2026-06-18T22:06:26.083651+05:30
Belgaum,Karnataka,15.8497,74.4977,22.6,86,0.0,926.6,8.95,37.4,55,24.9,15.7,7.7,138.0,42.0,2.1,3,5,7,1,2026-06-18T22:06:29.312594+05:30
Coimbatore,Tamil Nadu,11.0168,76.9558,23.8,90,0.0,963.3,8.75,33.5,40,13.3,11.3,17.8,316.0,44.0,4.3,3,5,7,1,2026-06-18T22:06:29.312629+05:30
Madurai,Tamil Nadu,9.9252,78.1198,28.3,72,0.0,994.3,7.6,42.5,66,27.6,22.1,28.6,442.0,50.0,5.0,7,5,7,1,2026-06-18T22:06:29.312641+05:30
Trichy,Tamil Nadu,10.7905,78.7047,29.4,66,0.0,1000.4,8.5,45.0,60,22.2,18.6,17.6,251.0,71.0,5.3,7,5,4,1,2026-06-18T22:06:29.312650+05:30
Salem,Tamil Nadu,11.6643,78.146,27.0,77,0.0,978.5,8.05,38.2,56,19.5,16.4,19.5,484.0,65.0,7.8,7,5,7,1,2026-06-18T22:06:29.312659+05:30
Tirunelveli,Tamil Nadu,8.7139,77.7567,29.6,61,0.0,1004.6,8.0,30.2,52,16.1,12.0,9.8,248.0,46.0,2.6,7,5,4,1,2026-06-18T22:06:29.312667+05:30
Vellore,Tamil Nadu,12.9165,79.1325,25.2,94,0.0,985.1,8.2,45.0,64,18.6,16.5,10.6,245.0,75.0,3.7,7,5,7,1,2026-06-18T22:06:29.312675+05:30
Erode,Tamil Nadu,11.341,77.7172,26.5,81,0.0,990.3,7.7,31.3,53,16.9,14.3,18.7,433.0,60.0,3.4,7,5,7,1,2026-06-18T22:06:29.312683+05:30
Kochi,Kerala,9.9312,76.2673,26.1,95,0.1,1010.8,5.15,36.0,74,29.5,26.1,37.5,437.0,8.0,9.3,10,0,0,1,2026-06-18T22:06:29.312691+05:30
Thiruvananthapuram,Kerala,8.5241,76.9366,24.6,96,0.0,1010.5,7.1,42.1,57,20.8,10.9,4.4,305.0,53.0,2.1,3,0,4,1,2026-06-18T22:06:29.312699+05:30
Kozhikode,Kerala,11.2588,75.7804,25.5,99,0.0,1009.7,6.6,33.5,53,29.4,14.8,3.3,745.0,61.0,2.0,7,0,4,1,2026-06-18T22:06:29.312705+05:30
Thrissur,Kerala,10.5276,76.2144,24.9,99,0.0,1009.2,4.1,28.1,87,33.2,30.2,27.6,709.0,13.0,6.1,3,0,0,1,2026-06-18T22:06:29.312713+05:30
Kannur,Kerala,11.8745,75.3704,25.4,96,0.0,1008.8,8.05,36.4,55,46.9,31.8,33.4,495.0,22.0,6.9,7,0,4,1,2026-06-18T22:06:29.312720+05:30
Patna,Bihar,25.5941,85.1376,31.4,64,0.0,996.9,8.85,35.6,158,150.4,91.3,68.6,566.0,25.0,25.7,3,5,7,1,2026-06-18T22:06:29.312727+05:30
Gaya,Bihar,24.7914,85.0002,30.6,65,0.0,990.7,8.85,34.2,160,97.6,65.0,26.7,256.0,73.0,13.3,3,5,7,1,2026-06-18T22:06:29.312734+05:30
Muzaffarpur,Bihar,26.1209,85.3647,30.9,74,0.0,996.7,8.85,23.8,158,150.4,91.5,58.6,788.0,36.0,21.6,3,5,7,1,2026-06-18T22:06:29.312740+05:30
Bhagalpur,Bihar,25.2425,87.0117,31.7,65,0.0,997.5,8.45,26.6,154,69.8,61.0,14.6,538.0,121.0,15.8,3,5,7,1,2026-06-18T22:06:29.312746+05:30
Ranchi,Jharkhand,23.3441,85.3096,26.4,77,0.0,935.9,7.6,34.9,151,65.9,55.6,11.0,283.0,114.0,9.7,7,5,7,1,2026-06-18T22:06:29.312753+05:30
Jamshedpur,Jharkhand,22.8046,86.2029,30.0,74,0.0,988.5,8.9,34.2,156,94.5,72.9,26.6,291.0,87.0,35.7,7,5,7,1,2026-06-18T22:06:29.312760+05:30
Dhanbad,Jharkhand,23.7957,86.4304,30.2,73,0.0,977.2,8.85,50.4,172,123.9,96.2,50.6,285.0,77.0,143.8,3,5,7,1,2026-06-18T22:06:29.312767+05:30
Bokaro,Jharkhand,23.6693,86.1511,29.7,70,0.0,981.0,8.85,28.8,169,108.0,86.4,36.3,323.0,86.0,107.8,7,5,7,1,2026-06-18T22:06:29.312774+05:30
Bhubaneswar,Odisha,20.2961,85.8245,29.5,83,0.0,1000.6,8.75,32.4,126,48.2,41.8,9.6,441.0,135.0,10.3,7,5,4,1,2026-06-18T22:06:29.312781+05:30
Cuttack,Odisha,20.4625,85.8828,29.4,84,0.0,1002.3,9.1,33.1,126,48.2,41.8,9.6,701.0,135.0,10.3,7,5,4,1,2026-06-18T22:06:29.312788+05:30
Rourkela,Odisha,22.2604,84.8536,30.3,72,0.0,982.9,8.7,31.0,153,77.5,60.3,9.7,669.0,128.0,7.9,3,5,7,1,2026-06-18T22:06:29.312795+05:30
Raipur,Chhattisgarh,21.2514,81.6296,26.8,94,0.0,972.9,8.95,49.3,109,50.4,43.1,49.4,625.0,44.0,77.8,7,5,7,1,2026-06-18T22:06:29.312802+05:30
Bhilai,Chhattisgarh,21.1938,81.3509,27.0,94,0.0,973.4,8.9,37.1,103,49.9,42.6,47.6,816.0,42.0,64.9,7,5,7,1,2026-06-18T22:06:29.312808+05:30
Guwahati,Assam,26.1158,91.7086,26.8,95,0.0,999.3,8.8,33.1,91,27.1,23.8,9.5,510.0,70.0,3.4,7,5,7,1,2026-06-18T22:06:29.312815+05:30
Agartala,Tripura,23.8315,91.2868,27.0,91,0.0,1004.7,8.55,32.0,82,31.8,27.1,13.6,260.0,53.0,3.8,7,5,4,1,2026-06-18T22:06:29.312822+05:30
Shillong,Meghalaya,25.5788,91.8933,18.5,95,0.0,856.2,7.8,23.0,72,11.8,9.8,6.7,354.0,91.0,3.3,3,10,7,1,2026-06-18T22:06:29.312828+05:30
Imphal,Manipur,24.817,93.9368,23.6,87,0.0,922.3,9.15,29.9,83,20.2,17.1,11.5,368.0,53.0,3.2,3,5,7,1,2026-06-18T22:06:29.312835+05:30
Aizawl,Mizoram,23.7271,92.7176,20.0,93,0.0,892.0,8.9,24.1,51,14.3,11.8,4.6,208.0,64.0,1.3,3,5,7,1,2026-06-18T22:06:29.312842+05:30
Kohima,Nagaland,25.6701,94.1077,19.8,95,0.0,854.9,7.65,25.9,64,16.9,14.2,7.3,382.0,64.0,1.8,3,10,7,1,2026-06-18T22:06:29.312848+05:30
Gangtok,Sikkim,27.3314,88.6138,17.8,98,0.3,836.5,8.15,33.5,88,10.8,9.1,5.9,444.0,128.0,4.2,6,10,7,1,2026-06-18T22:06:29.312855+05:30
Siliguri,West Bengal,26.7271,88.3953,24.4,99,0.1,991.1,8.75,23.0,112,33.6,26.8,9.3,613.0,121.0,4.5,6,5,7,1,2026-06-18T22:06:32.545215+05:30
Durgapur,West Bengal,23.5204,87.3119,29.2,81,0.0,992.3,8.85,41.4,194,98.5,86.8,35.3,893.0,80.0,56.1,7,5,7,1,2026-06-18T22:06:32.545252+05:30
Asansol,West Bengal,23.6739,86.9524,29.7,79,0.0,990.8,8.85,41.8,188,99.0,81.3,37.2,511.0,94.0,69.1,7,5,7,1,2026-06-18T22:06:32.545264+05:30
Pondicherry,Puducherry,11.9139,79.8145,28.3,75,0.0,1008.5,7.95,41.0,75,28.1,20.9,14.7,299.0,106.0,10.4,7,0,4,1,2026-06-18T22:06:32.545274+05:30
Port Blair,Andaman and Nicobar Islands,11.6234,92.7265,23.9,99,0.3,1010.2,8.7,32.4,22,6.4,3.5,0.4,98.0,44.0,0.3,6,0,4,1,2026-06-18T22:06:32.545282+05:30
Haridwar,Uttarakhand,29.9457,78.1642,28.0,70,0.0,970.0,7.5,41.4,138,74.7,48.1,16.6,451.0,106.0,12.3,7,5,7,1,2026-06-18T22:06:32.545290+05:30
Rishikesh,Uttarakhand,30.0869,78.2676,26.4,76,0.0,962.9,7.6,22.0,136,82.9,43.1,8.7,485.0,135.0,9.8,7,5,7,1,2026-06-18T22:06:32.545298+05:30
Nainital,Uttarakhand,29.3919,79.4542,15.9,95,0.0,803.9,6.9,23.8,125,61.2,31.5,11.3,368.0,102.0,5.4,3,10,7,0,2026-06-18T22:06:32.545306+05:30
Mussoorie,Uttarakhand,30.4599,78.0664,16.0,92,0.0,801.4,7.55,29.9,137,56.8,34.6,15.1,376.0,107.0,6.0,3,10,7,0,2026-06-18T22:06:32.545314+05:30
Dharamshala,Himachal Pradesh,32.219,76.3234,20.2,77,0.0,866.8,8.5,43.9,69,25.1,18.6,19.8,431.0,45.0,0.5,3,5,7,1,2026-06-18T22:06:32.545321+05:30
Dalhousie,Himachal Pradesh,32.5387,75.971,14.9,93,0.0,802.3,8.45,34.2,127,45.8,26.7,23.1,639.0,107.0,2.6,3,10,7,0,2026-06-18T22:06:32.545328+05:30
Patiala,Punjab,30.3398,76.3869,31.4,51,0.0,974.2,7.7,32.8,157,187.2,72.4,21.1,517.0,82.0,8.0,0,5,7,1,2026-06-18T22:06:32.545336+05:30
Bhatinda,Punjab,30.211,74.9455,32.5,48,0.0,979.6,8.3,29.9,140,60.3,46.1,27.2,395.0,67.0,7.8,0,5,7,1,2026-06-18T22:06:32.545343+05:30
Rohtak,Haryana,28.8955,76.6066,31.1,52,0.0,978.0,7.8,34.9,172,638.9,122.5,37.5,350.0,62.0,9.9,0,5,7,1,2026-06-18T22:06:32.545350+05:30
Panipat,Haryana,29.3909,76.9635,31.0,53,0.0,976.5,7.6,31.7,369,1415.6,213.7,23.3,557.0,81.0,8.2,0,5,7,1,2026-06-18T22:06:32.545358+05:30
Mathura,Uttar Pradesh,27.4924,77.6737,31.7,52,0.0,983.0,8.1,27.0,185,254.3,87.1,78.9,830.0,10.0,12.1,0,5,7,1,2026-06-18T22:06:32.545364+05:30
Vrindavan,Uttar Pradesh,27.5823,77.7027,31.5,51,0.0,983.4,8.05,27.0,185,254.3,87.1,78.9,630.0,10.0,12.1,0,5,7,1,2026-06-18T22:06:32.545371+05:30
Ayodhya,Uttar Pradesh,26.7922,82.1998,31.6,62,0.0,991.6,8.4,29.9,154,138.3,68.2,24.5,505.0,75.0,12.7,3,5,7,1,2026-06-18T22:06:32.545378+05:30
Ratlam,Madhya Pradesh,23.3315,75.0367,27.8,64,0.0,953.8,8.45,46.4,65,38.3,27.5,6.5,182.0,62.0,4.3,7,5,7,1,2026-06-18T22:06:32.545385+05:30
Sagar,Madhya Pradesh,23.8388,78.7378,27.6,66,0.0,948.7,8.55,46.4,69,32.0,24.2,10.9,180.0,61.0,2.8,7,5,7,1,2026-06-18T22:06:32.545392+05:30
Satna,Madhya Pradesh,24.6005,80.8322,31.3,55,0.0,969.2,8.8,30.6,86,51.0,29.8,11.3,192.0,66.0,3.6,0,5,7,1,2026-06-18T22:06:32.545399+05:30
Akola,Maharashtra,20.7002,77.0082,33.7,33,0.0,973.4,8.8,45.7,64,45.2,24.9,12.5,175.0,70.0,6.2,0,5,7,0,2026-06-18T22:06:32.545406+05:30
Amravati,Maharashtra,20.9374,77.7796,32.9,40,0.0,965.8,8.8,42.1,68,45.8,26.1,15.9,190.0,59.0,6.2,0,5,7,1,2026-06-18T22:06:32.545414+05:30
Latur,Maharashtra,18.4088,76.5604,30.0,44,0.0,939.1,8.55,42.8,60,50.2,35.6,22.5,357.0,62.0,5.1,4,5,7,1,2026-06-18T22:06:32.545421+05:30
Nanded,Maharashtra,19.1383,77.3091,33.0,42,0.0,967.3,8.8,38.9,64,56.6,33.6,23.0,396.0,53.0,5.5,0,5,7,1,2026-06-18T22:06:32.545427+05:30
Gulbarga,Karnataka,17.3297,76.8343,30.9,42,0.0,957.8,8.9,42.1,62,47.5,33.5,42.1,242.0,50.0,7.3,0,5,7,1,2026-06-18T22:06:32.545433+05:30
Bidar,Karnataka,17.9104,77.5199,28.7,63,0.0,935.0,8.95,35.3,65,65.9,46.2,41.9,518.0,39.0,6.9,7,5,7,1,2026-06-18T22:06:32.545440+05:30
Hospet,Karnataka,15.2689,76.3909,25.8,79,0.0,956.6,8.45,44.6,52,21.2,14.5,7.9,175.0,67.0,2.1,7,5,7,1,2026-06-18T22:06:32.545447+05:30
Tirupur,Tamil Nadu,11.1085,77.3411,25.1,87,0.0,976.5,8.5,33.5,53,19.4,16.5,22.6,260.0,47.0,5.3,7,5,7,1,2026-06-18T22:06:32.545453+05:30
Alappuzha,Kerala,9.4981,76.3388,26.2,91,0.0,1011.0,7.35,32.0,63,27.6,19.7,20.4,159.0,33.0,5.8,7,0,4,1,2026-06-18T22:06:32.545460+05:30
Munnar,Kerala,10.0889,77.0595,16.6,98,0.0,857.3,2.35,25.9,31,4.7,4.2,11.8,165.0,36.0,2.1,3,10,3,1,2026-06-18T22:06:32.545468+05:30
Silchar,Assam,24.8333,92.7789,25.2,94,0.1,1004.3,8.5,40.3,105,27.1,23.4,8.4,312.0,73.0,4.1,10,5,4,1,2026-06-18T22:06:32.545474+05:30
Dibrugarh,Assam,27.4728,94.912,25.3,98,0.2,993.7,8.45,22.7,71,20.5,18.4,8.7,305.0,84.0,1.8,10,5,7,1,2026-06-18T22:06:32.545480+05:30
