city,state,latitude,longitude,temp,humidity,rain,pressure,uv_index,wind_gusts,aqi,pm10,pm2_5,mosquito_risk,arthritis_risk,migraine_risk,frizz_risk,updated_at
Delhi,Delhi,28.6139,77.209,17.0,83,0.0,984.8,6.1,43.2,182,304.5,54.1,3,10,7,0,2026-03-16T04:01:36.217785+05:30
Mumbai,Maharashtra,19.076,72.8777,27.2,80,0.0,1008.5,7.7,19.4,103,70.1,31.9,7,0,4,1,2026-03-16T04:01:36.217833+05:30
Bangalore,Karnataka,12.9716,77.5946,19.9,74,0.0,910.9,9.35,18.0,82,31.7,31.2,3,5,7,0,2026-03-16T04:01:36.217849+05:30
Hyderabad,Telangana,17.385,78.4867,22.7,74,0.0,952.5,8.75,27.4,96,31.8,25.4,3,5,7,1,2026-03-16T04:01:36.217859+05:30
Chennai,Tamil Nadu,13.0827,80.2707,25.3,83,0.0,1008.1,9.1,32.4,39,11.9,9.0,7,0,4,1,2026-03-16T04:01:36.217869+05:30
Kolkata,West Bengal,22.5726,88.3639,24.2,91,0.0,1006.0,8.05,33.5,63,30.4,25.6,3,5,4,1,2026-03-16T04:01:36.217878+05:30
Pune,Maharashtra,18.5204,73.8567,17.5,78,0.0,947.2,8.25,40.7,90,59.6,41.7,3,5,7,0,2026-03-16T04:01:36.217890+05:30
Ahmedabad,Gujarat,23.0225,72.5714,22.9,67,0.0,1002.0,7.15,25.6,66,35.0,18.6,3,5,4,1,2026-03-16T04:01:36.217898+05:30
Jaipur,Rajasthan,26.9124,75.7873,22.4,26,0.0,958.6,6.9,36.0,132,407.9,73.8,0,5,7,0,2026-03-16T04:01:36.217906+05:30
Lucknow,Uttar Pradesh,26.8467,80.9462,19.3,71,0.0,993.0,6.65,61.6,100,40.7,34.6,3,5,7,0,2026-03-16T04:01:36.217914+05:30
Kanpur,Uttar Pradesh,26.4499,80.3319,19.3,72,0.0,991.1,6.7,50.4,138,102.7,31.9,3,5,7,0,2026-03-16T04:01:36.217921+05:30
Chandigarh,Chandigarh,30.7333,76.7794,14.0,82,0.0,969.5,5.9,50.8,72,19.6,15.5,3,10,3,0,2026-03-16T04:01:36.217929+05:30
Srinagar,Jammu and Kashmir,34.0837,74.7973,4.6,91,0.0,836.4,4.2,19.8,69,4.1,4.0,3,10,3,0,2026-03-16T04:01:36.217936+05:30
Jammu,Jammu and Kashmir,32.7266,74.857,14.0,82,0.0,973.2,4.9,42.1,84,21.3,16.6,3,10,3,0,2026-03-16T04:01:36.217943+05:30
Amritsar,Punjab,31.634,74.8723,13.2,91,0.0,980.9,6.45,35.6,96,39.5,25.1,3,10,7,0,2026-03-16T04:01:36.217950+05:30
Ludhiana,Punjab,30.901,75.8573,13.8,91,0.0,979.5,6.2,50.8,96,43.7,29.6,3,10,7,0,2026-03-16T04:01:36.217957+05:30
Jalandhar,Punjab,31.326,75.5762,13.4,91,0.0,980.6,6.3,47.5,94,29.0,18.7,3,10,7,0,2026-03-16T04:01:36.217966+05:30
Dehradun,Uttarakhand,30.6284,78.0322,8.3,74,0.0,827.0,6.3,39.2,51,16.5,5.8,3,5,7,0,2026-03-16T04:01:36.217972+05:30
Shimla,Himachal Pradesh,31.1048,77.1734,6.1,78,0.0,779.4,6.3,50.8,53,10.1,4.8,3,5,7,0,2026-03-16T04:01:36.217979+05:30
Manali,Himachal Pradesh,32.2396,77.1887,8.0,72,0.0,814.1,7.1,29.5,49,6.6,3.3,3,5,7,0,2026-03-16T04:01:36.217986+05:30
Gurgaon,Haryana,28.4595,77.0266,16.5,87,0.0,982.9,6.2,46.1,1462,1922.2,213.7,3,10,7,0,2026-03-16T04:01:36.217993+05:30
Noida,Uttar Pradesh,28.5355,77.391,17.0,84,0.0,986.4,6.15,42.8,1462,1922.2,213.7,3,10,7,0,2026-03-16T04:01:36.217999+05:30
Ghaziabad,Uttar Pradesh,28.6692,77.4538,16.4,85,0.0,984.6,6.1,45.7,115,44.2,28.5,3,10,7,0,2026-03-16T04:01:36.218006+05:30
Faridabad,Haryana,28.4089,77.3178,16.8,88,0.0,985.3,6.15,42.1,1462,1922.2,213.7,3,10,7,0,2026-03-16T04:01:36.218013+05:30
Meerut,Uttar Pradesh,28.9845,77.7064,15.8,85,0.0,983.4,6.0,53.6,115,44.2,28.5,3,10,3,0,2026-03-16T04:01:36.218020+05:30
Agra,Uttar Pradesh,27.1767,78.0081,17.6,87,0.0,988.2,6.5,36.7,922,1143.7,136.4,3,10,7,0,2026-03-16T04:01:36.218027+05:30
Varanasi,Uttar Pradesh,25.3176,82.9739,21.0,75,0.0,997.6,7.35,39.2,141,108.7,82.9,3,5,7,1,2026-03-16T04:01:36.218036+05:30
Prayagraj,Uttar Pradesh,25.4358,81.8463,20.4,76,0.0,995.5,7.2,35.3,111,56.6,46.7,3,5,7,0,2026-03-16T04:01:36.218043+05:30
Gorakhpur,Uttar Pradesh,26.7606,83.3732,19.2,72,0.0,997.0,6.85,52.9,151,86.4,72.2,3,5,7,0,2026-03-16T04:01:36.218050+05:30
Bareilly,Uttar Pradesh,28.367,79.4304,17.7,82,0.0,989.3,6.3,60.8,116,47.3,39.3,3,10,7,0,2026-03-16T04:01:36.218058+05:30
Aligarh,Uttar Pradesh,27.8974,78.088,17.2,88,0.0,986.7,6.25,37.4,406,558.8,75.0,3,10,7,0,2026-03-16T04:01:36.218065+05:30
Moradabad,Uttar Pradesh,28.8386,78.7733,16.7,83,0.0,985.9,6.15,69.1,125,57.2,34.2,3,10,7,0,2026-03-16T04:01:36.218071+05:30
Saharanpur,Uttar Pradesh,29.9637,77.546,14.5,87,0.0,977.2,5.75,42.5,120,34.8,27.7,3,10,3,0,2026-03-16T04:01:36.218078+05:30
Jhansi,Uttar Pradesh,25.4484,78.5685,22.2,68,0.0,976.6,7.15,28.8,79,23.2,17.9,3,5,7,0,2026-03-16T04:01:39.511142+05:30
Surat,Gujarat,21.1702,72.8311,25.7,89,0.0,1006.6,7.4,24.1,124,47.3,27.9,7,5,4,1,2026-03-16T04:01:39.511171+05:30
Vadodara,Gujarat,22.3072,73.1812,24.0,93,0.0,1004.3,7.1,25.2,85,38.4,24.4,3,5,4,1,2026-03-16T04:01:39.511181+05:30
Rajkot,Gujarat,22.3039,70.8022,23.0,86,0.0,994.6,7.3,30.2,68,40.5,19.5,3,5,7,1,2026-03-16T04:01:39.511188+05:30
Thane,Maharashtra,19.2183,72.9781,25.2,91,0.0,1008.0,7.7,32.0,103,70.1,31.9,7,0,4,1,2026-03-16T04:01:39.511196+05:30
Nagpur,Maharashtra,21.1458,79.0882,24.9,71,0.0,971.8,7.95,22.0,126,55.1,50.6,3,5,7,1,2026-03-16T04:01:39.511203+05:30
Nashik,Maharashtra,19.9975,73.7898,19.5,66,0.0,944.8,7.7,28.1,74,70.5,33.8,3,5,7,0,2026-03-16T04:01:39.511209+05:30
Aurangabad,Maharashtra,19.8762,75.3433,21.8,57,0.0,943.2,8.05,30.2,74,46.6,27.6,0,5,7,0,2026-03-16T04:01:39.511216+05:30
Solapur,Maharashtra,17.6599,75.9064,22.0,61,0.0,956.2,8.65,25.6,109,33.8,31.5,3,5,7,0,2026-03-16T04:01:39.511224+05:30
Kolhapur,Maharashtra,16.705,74.2433,18.6,77,0.0,946.7,8.75,35.6,119,45.4,33.9,3,5,7,0,2026-03-16T04:01:39.511230+05:30
Goa,Goa,15.2993,74.124,26.5,83,0.0,997.5,8.8,32.0,116,58.0,38.0,7,5,7,1,2026-03-16T04:01:39.511238+05:30
Jodhpur,Rajasthan,26.2389,73.0243,23.8,26,0.0,982.0,7.2,38.9,99,153.7,24.3,0,5,7,0,2026-03-16T04:01:39.511245+05:30
Udaipur,Rajasthan,24.5854,73.7125,21.3,35,0.0,945.6,7.85,33.1,57,17.2,9.0,0,5,7,0,2026-03-16T04:01:39.511251+05:30
Kota,Rajasthan,25.2138,75.8648,20.7,40,0.0,977.2,7.2,25.6,61,14.6,9.6,0,5,7,0,2026-03-16T04:01:39.511258+05:30
Bikaner,Rajasthan,28.0229,73.3119,23.5,27,0.0,980.4,6.9,25.9,47,24.3,7.8,0,5,7,0,2026-03-16T04:01:39.511265+05:30
Ajmer,Rajasthan,26.4499,74.6399,20.7,45,0.0,953.1,7.15,38.9,70,49.1,19.2,0,5,7,0,2026-03-16T04:01:39.511271+05:30
Gwalior,Madhya Pradesh,26.2183,78.1828,21.4,73,0.0,982.2,6.85,27.7,98,92.4,30.9,3,5,7,1,2026-03-16T04:01:39.511277+05:30
Indore,Madhya Pradesh,22.7196,75.8577,21.3,46,0.0,947.0,7.75,31.3,62,28.2,16.4,0,5,7,0,2026-03-16T04:01:39.511284+05:30
Bhopal,Madhya Pradesh,23.2599,77.4126,20.0,51,0.0,952.3,7.65,32.0,57,20.0,11.9,0,5,7,0,2026-03-16T04:01:39.511290+05:30
Jabalpur,Madhya Pradesh,23.1815,79.9864,22.9,51,0.0,959.8,7.8,41.0,66,29.1,22.3,0,5,7,0,2026-03-16T04:01:39.511296+05:30
Ujjain,Madhya Pradesh,23.1765,75.7885,21.4,48,0.0,952.8,7.65,29.9,65,28.8,17.0,0,5,7,0,2026-03-16T04:01:39.511304+05:30
Visakhapatnam,Andhra Pradesh,17.6868,83.2185,24.8,89,0.0,1005.1,8.7,40.0,66,22.8,18.4,3,5,4,1,2026-03-16T04:01:39.511310+05:30
Vijayawada,Andhra Pradesh,16.5062,80.648,23.6,89,0.0,1004.0,8.8,27.0,57,13.9,11.6,3,5,4,1,2026-03-16T04:01:39.511317+05:30
Guntur,Andhra Pradesh,16.3067,80.4365,23.9,88,0.0,1005.0,8.8,28.1,55,13.0,10.8,3,5,4,1,2026-03-16T04:01:39.511324+05:30
Nellore,Andhra Pradesh,14.4426,79.9865,24.1,91,0.0,1006.8,8.95,30.2,49,9.3,8.0,3,5,4,1,2026-03-16T04:01:39.511331+05:30
Kurnool,Andhra Pradesh,15.8281,78.0373,25.5,64,0.0,976.9,8.55,20.5,85,21.9,19.8,7,5,7,1,2026-03-16T04:01:39.511338+05:30
Kakinada,Andhra Pradesh,16.9891,82.2475,23.1,91,0.0,1009.2,8.7,26.6,57,17.1,11.9,3,0,4,1,2026-03-16T04:01:39.511345+05:30
Tirupati,Andhra Pradesh,13.6288,79.4192,21.8,89,0.0,992.4,9.1,25.6,64,24.2,22.5,3,5,7,1,2026-03-16T04:01:39.511351+05:30
Warangal,Telangana,17.9689,79.5941,23.3,86,0.0,978.7,8.6,31.7,79,14.4,12.6,3,5,7,1,2026-03-16T04:01:39.511357+05:30
Nizamabad,Telangana,18.6725,78.0941,25.5,59,0.0,963.7,8.45,26.3,135,42.5,38.3,4,5,7,1,2026-03-16T04:01:39.511363+05:30
Mysore,Karnataka,12.2958,76.6396,20.8,93,0.0,928.1,9.35,29.2,95,51.2,47.6,3,5,7,1,2026-03-16T04:01:39.511370+05:30
Mangalore,Karnataka,12.9141,74.856,27.9,82,0.0,1006.4,9.0,20.9,90,41.0,36.9,7,5,4,1,2026-03-16T04:01:39.511376+05:30
Hubli-Dharwad,Karnataka,15.3647,75.124,22.0,88,0.0,939.9,8.95,29.9,110,38.2,35.4,3,5,7,1,2026-03-16T04:01:39.511382+05:30
Belgaum,Karnataka,15.8497,74.4977,20.7,99,0.0,924.5,9.0,34.2,112,51.3,32.8,3,5,7,1,2026-03-16T04:01:42.790678+05:30
Coimbatore,Tamil Nadu,11.0168,76.9558,22.2,95,0.0,961.8,9.3,33.5,75,45.3,42.0,3,5,7,1,2026-03-16T04:01:42.790711+05:30
Madurai,Tamil Nadu,9.9252,78.1198,24.7,84,0.0,993.6,9.3,20.2,52,20.7,19.4,3,5,7,1,2026-03-16T04:01:42.790721+05:30
Trichy,Tamil Nadu,10.7905,78.7047,24.3,95,0.0,1000.7,9.2,22.0,51,18.6,16.8,3,5,4,1,2026-03-16T04:01:42.790729+05:30
Salem,Tamil Nadu,11.6643,78.146,23.5,84,0.0,977.9,9.25,13.3,67,25.1,24.9,3,5,7,1,2026-03-16T04:01:42.790737+05:30
Tirunelveli,Tamil Nadu,8.7139,77.7567,23.8,88,0.0,1003.5,9.3,40.3,51,28.2,26.6,3,5,4,1,2026-03-16T04:01:42.790744+05:30
Vellore,Tamil Nadu,12.9165,79.1325,20.8,88,0.0,985.4,9.15,32.0,84,38.4,37.3,3,5,7,1,2026-03-16T04:01:42.790751+05:30
Erode,Tamil Nadu,11.341,77.7172,24.6,89,0.0,989.6,9.25,22.0,47,10.0,9.1,3,5,7,1,2026-03-16T04:01:42.790775+05:30
Kochi,Kerala,9.9312,76.2673,27.1,82,0.0,1008.8,9.1,37.1,74,27.2,25.8,7,0,4,1,2026-03-16T04:01:42.790784+05:30
Thiruvananthapuram,Kerala,8.5241,76.9366,27.3,83,0.0,1007.7,9.15,31.0,49,12.7,9.5,7,5,4,1,2026-03-16T04:01:42.790791+05:30
Kozhikode,Kerala,11.2588,75.7804,27.5,82,0.0,1007.9,9.0,31.3,67,26.0,21.9,7,5,4,1,2026-03-16T04:01:42.790798+05:30
Thrissur,Kerala,10.5276,76.2144,26.3,88,0.0,1007.1,9.05,39.2,75,26.5,24.3,7,5,4,1,2026-03-16T04:01:42.790806+05:30
Kannur,Kerala,11.8745,75.3704,27.1,84,0.0,1007.1,9.0,32.0,80,31.3,28.1,7,5,4,1,2026-03-16T04:01:42.790813+05:30
Patna,Bihar,25.5941,85.1376,22.7,81,0.0,1000.3,7.55,53.3,158,92.9,74.5,3,5,4,1,2026-03-16T04:01:42.790820+05:30
Gaya,Bihar,24.7914,85.0002,21.4,91,0.0,993.7,7.65,45.4,143,89.6,62.9,3,5,7,1,2026-03-16T04:01:42.790827+05:30
Muzaffarpur,Bihar,26.1209,85.3647,20.2,95,0.0,1000.5,7.5,50.8,160,103.4,88.9,3,5,4,1,2026-03-16T04:01:42.790833+05:30
Bhagalpur,Bihar,25.2425,87.0117,21.7,88,0.0,1001.6,7.55,53.6,152,88.0,81.7,3,5,4,1,2026-03-16T04:01:42.790840+05:30
Ranchi,Jharkhand,23.3441,85.3096,20.6,90,0.0,937.0,7.7,37.1,124,79.4,69.2,3,5,7,1,2026-03-16T04:01:42.790846+05:30
Jamshedpur,Jharkhand,22.8046,86.2029,23.0,84,0.0,991.0,8.05,41.0,150,80.6,70.8,3,5,7,1,2026-03-16T04:01:42.790853+05:30
Dhanbad,Jharkhand,23.7957,86.4304,22.7,79,0.0,978.9,7.55,44.6,167,134.6,129.0,3,5,7,1,2026-03-16T04:01:42.790859+05:30
Bokaro,Jharkhand,23.6693,86.1511,22.9,73,0.0,983.1,7.25,33.1,158,108.0,99.0,3,5,7,1,2026-03-16T04:01:42.790865+05:30
Bhubaneswar,Odisha,20.2961,85.8245,24.6,88,0.0,1003.2,8.5,39.6,64,22.9,17.9,3,5,4,1,2026-03-16T04:01:42.790872+05:30
Cuttack,Odisha,20.4625,85.8828,24.5,91,0.0,1005.3,8.5,43.6,64,22.9,17.9,3,5,4,1,2026-03-16T04:01:42.790878+05:30
Rourkela,Odisha,22.2604,84.8536,23.7,87,0.0,985.2,8.0,47.2,154,75.7,65.4,3,5,7,1,2026-03-16T04:01:42.790884+05:30
Raipur,Chhattisgarh,21.2514,81.6296,24.4,66,0.0,973.6,8.25,43.9,140,64.5,57.9,3,5,7,1,2026-03-16T04:01:42.790890+05:30
Bhilai,Chhattisgarh,21.1938,81.3509,24.3,68,0.0,973.8,8.25,44.3,134,60.5,54.0,3,5,7,1,2026-03-16T04:01:42.790897+05:30
Guwahati,Assam,26.1158,91.7086,20.5,91,0.0,1003.5,7.15,33.5,79,32.5,27.7,3,5,4,1,2026-03-16T04:01:42.790903+05:30
Agartala,Tripura,23.8315,91.2868,22.6,95,0.0,1007.8,7.85,37.1,61,14.0,11.6,3,5,4,1,2026-03-16T04:01:42.790910+05:30
Shillong,Meghalaya,25.5788,91.8933,12.3,94,0.0,855.0,7.9,74.2,51,10.0,8.2,3,10,7,0,2026-03-16T04:01:42.790917+05:30
Imphal,Manipur,24.817,93.9368,15.5,85,0.1,924.1,8.15,66.2,91,39.5,32.8,6,10,7,0,2026-03-16T04:01:42.790924+05:30
Aizawl,Mizoram,23.7271,92.7176,16.6,87,0.0,893.6,8.1,48.2,84,43.9,29.9,3,10,7,0,2026-03-16T04:01:42.790931+05:30
Kohima,Nagaland,25.6701,94.1077,13.9,76,0.0,854.0,7.05,100.4,72,32.6,25.1,3,5,7,0,2026-03-16T04:01:42.790938+05:30
Gangtok,Sikkim,27.3314,88.6138,11.0,77,0.0,833.5,7.8,23.4,110,55.8,37.1,3,5,7,0,2026-03-16T04:01:42.790944+05:30
Siliguri,West Bengal,26.7271,88.3953,18.6,78,0.0,993.9,6.75,27.4,152,100.1,77.5,3,5,7,0,2026-03-16T04:01:46.079831+05:30
Durgapur,West Bengal,23.5204,87.3119,22.4,92,0.0,994.4,7.85,33.1,150,70.8,65.9,3,5,7,1,2026-03-16T04:01:46.079869+05:30
Asansol,West Bengal,23.6739,86.9524,22.7,86,0.0,992.9,7.8,39.2,155,94.1,89.4,3,5,7,1,2026-03-16T04:01:46.079879+05:30
Pondicherry,Puducherry,11.9139,79.8145,24.0,97,0.0,1009.3,9.05,31.7,30,10.2,7.1,3,0,4,1,2026-03-16T04:01:46.079886+05:30
Port Blair,Andaman and Nicobar Islands,11.6234,92.7265,27.7,80,0.0,1007.3,9.0,22.7,83,20.3,16.4,7,5,4,1,2026-03-16T04:01:46.079894+05:30
Haridwar,Uttarakhand,29.9457,78.1642,17.0,73,0.0,976.1,5.85,51.8,77,18.9,14.7,3,5,3,0,2026-03-16T04:01:46.079902+05:30
Rishikesh,Uttarakhand,30.0869,78.2676,15.5,75,0.0,968.6,5.95,44.6,63,18.3,10.8,3,5,3,0,2026-03-16T04:01:46.079909+05:30
Nainital,Uttarakhand,29.3919,79.4542,13.0,54,0.3,804.2,6.75,68.8,70,25.9,11.7,3,5,7,0,2026-03-16T04:01:46.079917+05:30
Mussoorie,Uttarakhand,30.4599,78.0664,9.4,67,0.0,799.2,6.25,58.3,67,19.2,11.0,3,5,7,0,2026-03-16T04:01:46.079924+05:30
Dharamshala,Himachal Pradesh,32.219,76.3234,12.6,61,0.0,866.0,6.05,34.9,46,8.0,3.3,3,5,7,0,2026-03-16T04:01:46.079931+05:30
Dalhousie,Himachal Pradesh,32.5387,75.971,8.1,67,0.0,798.5,3.9,28.1,71,14.3,10.4,3,5,3,0,2026-03-16T04:01:46.079939+05:30
Patiala,Punjab,30.3398,76.3869,13.6,92,0.0,979.1,5.9,47.9,93,39.3,27.2,3,10,3,0,2026-03-16T04:01:46.079946+05:30
Bhatinda,Punjab,30.211,74.9455,15.6,90,0.0,982.3,6.6,31.7,88,31.5,24.0,3,10,7,0,2026-03-16T04:01:46.079952+05:30
Rohtak,Haryana,28.8955,76.6066,15.8,85,0.0,982.9,6.15,47.5,222,420.0,65.7,3,10,7,0,2026-03-16T04:01:46.079959+05:30
Panipat,Haryana,29.3909,76.9635,15.3,85,0.0,981.6,5.9,49.7,124,253.3,41.2,3,10,3,0,2026-03-16T04:01:46.079965+05:30
Mathura,Uttar Pradesh,27.4924,77.6737,17.1,85,0.0,988.0,6.4,34.6,862,1192.1,139.7,3,10,7,0,2026-03-16T04:01:46.079973+05:30
Vrindavan,Uttar Pradesh,27.5823,77.7027,16.7,88,0.0,988.4,6.35,38.2,862,1192.1,139.7,3,10,7,0,2026-03-16T04:01:46.079979+05:30
Ayodhya,Uttar Pradesh,26.7922,82.1998,19.5,68,0.0,994.9,6.6,57.6,121,64.5,55.5,3,5,7,0,2026-03-16T04:01:46.079986+05:30
Ratlam,Madhya Pradesh,23.3315,75.0367,22.3,46,0.0,953.9,7.6,34.2,64,29.9,16.9,0,5,7,0,2026-03-16T04:01:46.079993+05:30
Sagar,Madhya Pradesh,23.8388,78.7378,24.0,36,0.0,948.6,7.6,30.6,52,19.2,12.6,0,5,7,0,2026-03-16T04:01:46.079999+05:30
Satna,Madhya Pradesh,24.6005,80.8322,21.8,67,0.0,970.3,7.6,43.6,75,45.8,33.3,3,5,7,0,2026-03-16T04:01:46.080006+05:30
Akola,Maharashtra,20.7002,77.0082,24.3,55,0.0,974.0,8.0,24.8,78,26.8,18.5,0,5,7,0,2026-03-16T04:01:46.080013+05:30
Amravati,Maharashtra,20.9374,77.7796,23.5,59,0.0,966.0,7.8,29.9,82,29.5,21.5,0,5,7,0,2026-03-16T04:01:46.080019+05:30
Latur,Maharashtra,18.4088,76.5604,21.1,64,0.0,938.7,8.55,20.9,106,49.2,42.4,3,5,7,0,2026-03-16T04:01:46.080026+05:30
Nanded,Maharashtra,19.1383,77.3091,23.1,56,0.0,967.4,8.25,20.5,124,64.3,56.2,0,5,7,0,2026-03-16T04:01:46.080032+05:30
Gulbarga,Karnataka,17.3297,76.8343,25.3,60,0.0,958.1,8.65,22.0,118,45.2,40.3,4,5,7,1,2026-03-16T04:01:46.080039+05:30
Bidar,Karnataka,17.9104,77.5199,23.9,64,0.0,934.6,8.65,41.0,107,43.5,37.8,3,5,7,1,2026-03-16T04:01:46.080045+05:30
Hospet,Karnataka,15.2689,76.3909,25.5,77,0.0,955.7,8.9,19.1,121,50.5,48.4,7,5,7,1,2026-03-16T04:01:46.080051+05:30
Tirupur,Tamil Nadu,11.1085,77.3411,24.4,87,0.0,975.7,9.3,40.0,60,25.9,23.9,3,5,7,1,2026-03-16T04:01:46.080057+05:30
Alappuzha,Kerala,9.4981,76.3388,26.1,87,0.0,1009.1,9.1,32.4,70,25.8,23.7,7,0,4,1,2026-03-16T04:01:46.080064+05:30
Munnar,Kerala,10.0889,77.0595,17.6,91,0.0,855.0,9.6,30.2,63,31.7,30.3,3,10,7,1,2026-03-16T04:01:46.080071+05:30
Silchar,Assam,24.8333,92.7789,20.0,95,0.0,1008.3,7.9,37.1,88,25.6,22.8,3,0,4,1,2026-03-16T04:01:46.080077+05:30
Dibrugarh,Assam,27.4728,94.912,17.9,95,1.2,997.9,5.0,36.7,79,35.5,25.0,6,10,3,1,2026-03-16T04:01:46.080084+05:30
