city,state,latitude,longitude,temp,humidity,rain,pressure,uv_index,wind_gusts,aqi,pm10,pm2_5,mosquito_risk,arthritis_risk,migraine_risk,frizz_risk,updated_at
Delhi,Delhi,28.6139,77.209,34.8,24,0.0,978.1,7.45,54.0,417,761.8,109.0,0,5,7,0,2026-04-27T21:58:08.106926+05:30
Mumbai,Maharashtra,19.076,72.8777,28.9,82,0.0,1006.7,8.0,43.9,86,46.7,24.0,7,5,4,1,2026-04-27T21:58:08.106973+05:30
Bangalore,Karnataka,12.9716,77.5946,29.5,33,0.0,911.5,9.55,33.5,164,33.9,28.3,4,5,7,0,2026-04-27T21:58:08.106990+05:30
Hyderabad,Telangana,17.385,78.4867,33.5,34,0.0,951.5,9.25,33.8,151,53.3,47.0,0,5,7,0,2026-04-27T21:58:08.107000+05:30
Chennai,Tamil Nadu,13.0827,80.2707,29.4,82,0.0,1005.9,9.25,54.7,56,17.5,12.4,7,5,4,1,2026-04-27T21:58:08.107009+05:30
Kolkata,West Bengal,22.5726,88.3639,28.8,84,0.0,1001.8,8.85,50.0,55,16.9,14.0,7,5,4,1,2026-04-27T21:58:08.107018+05:30
Pune,Maharashtra,18.5204,73.8567,28.4,69,0.0,946.8,8.55,41.8,120,36.0,21.7,7,5,7,1,2026-04-27T21:58:08.107030+05:30
Ahmedabad,Gujarat,23.0225,72.5714,35.2,31,0.0,998.8,8.2,50.0,64,20.0,9.4,0,5,10,0,2026-04-27T21:58:08.107038+05:30
Jaipur,Rajasthan,26.9124,75.7873,32.0,31,0.0,956.1,8.05,51.8,125,197.0,37.4,0,5,7,0,2026-04-27T21:58:08.107047+05:30
Lucknow,Uttar Pradesh,26.8467,80.9462,35.8,21,0.0,987.8,7.9,38.5,146,268.2,65.9,0,5,10,0,2026-04-27T21:58:08.107055+05:30
Kanpur,Uttar Pradesh,26.4499,80.3319,36.2,20,0.0,986.1,7.95,44.3,247,491.7,76.8,0,5,10,0,2026-04-27T21:58:08.107063+05:30
Chandigarh,Chandigarh,30.7333,76.7794,29.9,28,0.0,963.5,7.45,45.7,115,16.7,14.7,4,5,7,0,2026-04-27T21:58:08.107071+05:30
Srinagar,Jammu and Kashmir,34.0837,74.7973,13.6,85,0.0,837.0,8.3,21.2,71,54.9,43.7,3,10,7,0,2026-04-27T21:58:08.107079+05:30
Jammu,Jammu and Kashmir,32.7266,74.857,28.7,39,0.0,968.0,8.25,33.8,101,32.2,27.4,4,5,7,0,2026-04-27T21:58:08.107088+05:30
Amritsar,Punjab,31.634,74.8723,30.4,35,0.0,975.5,8.1,39.6,114,46.0,25.5,0,5,7,0,2026-04-27T21:58:08.107095+05:30
Ludhiana,Punjab,30.901,75.8573,31.5,30,0.0,973.8,7.7,41.4,97,57.7,25.7,0,5,7,0,2026-04-27T21:58:08.107102+05:30
Jalandhar,Punjab,31.326,75.5762,30.2,34,0.0,974.5,7.7,36.7,111,95.2,30.9,0,5,7,0,2026-04-27T21:58:08.107112+05:30
Dehradun,Uttarakhand,30.6284,78.0322,16.7,46,0.0,825.9,7.9,45.7,121,11.3,9.3,0,5,7,0,2026-04-27T21:58:08.107120+05:30
Shimla,Himachal Pradesh,31.1048,77.1734,15.6,43,0.0,782.1,7.95,46.4,116,12.7,8.7,0,5,7,0,2026-04-27T21:58:08.107127+05:30
Manali,Himachal Pradesh,32.2396,77.1887,12.3,65,0.0,814.2,9.9,41.0,126,19.7,12.2,3,5,7,0,2026-04-27T21:58:08.107134+05:30
Gurgaon,Haryana,28.4595,77.0266,32.3,28,0.0,976.6,7.55,48.6,883,784.2,109.0,0,5,7,0,2026-04-27T21:58:08.107141+05:30
Noida,Uttar Pradesh,28.5355,77.391,35.2,23,0.0,979.2,7.45,47.9,883,784.2,109.0,0,5,10,0,2026-04-27T21:58:08.107149+05:30
Ghaziabad,Uttar Pradesh,28.6692,77.4538,35.0,22,0.0,977.5,7.45,46.4,337,618.4,93.1,0,5,7,0,2026-04-27T21:58:08.107155+05:30
Faridabad,Haryana,28.4089,77.3178,35.0,23,0.0,978.6,7.5,51.1,883,784.2,109.0,0,5,7,0,2026-04-27T21:58:08.107162+05:30
Meerut,Uttar Pradesh,28.9845,77.7064,33.3,24,0.0,976.2,7.35,46.1,337,618.4,93.1,0,5,7,0,2026-04-27T21:58:08.107171+05:30
Agra,Uttar Pradesh,27.1767,78.0081,35.0,24,0.0,983.0,7.8,49.3,464,501.1,82.2,0,5,7,0,2026-04-27T21:58:08.107179+05:30
Varanasi,Uttar Pradesh,25.3176,82.9739,33.0,37,0.0,991.9,8.5,38.9,130,115.9,68.7,0,5,7,1,2026-04-27T21:58:08.107188+05:30
Prayagraj,Uttar Pradesh,25.4358,81.8463,33.5,31,0.0,990.2,8.4,43.6,121,105.5,46.0,0,5,7,0,2026-04-27T21:58:08.107196+05:30
Gorakhpur,Uttar Pradesh,26.7606,83.3732,28.9,59,0.0,993.2,8.35,38.9,159,74.7,57.0,4,5,7,1,2026-04-27T21:58:08.107203+05:30
Bareilly,Uttar Pradesh,28.367,79.4304,31.2,33,0.0,980.8,7.7,45.4,144,32.4,29.2,0,5,7,0,2026-04-27T21:58:08.107210+05:30
Aligarh,Uttar Pradesh,27.8974,78.088,35.0,22,0.0,980.4,7.6,44.6,642,957.4,135.5,0,5,7,0,2026-04-27T21:58:08.107217+05:30
Moradabad,Uttar Pradesh,28.8386,78.7733,31.0,38,0.0,978.0,7.55,48.2,123,156.9,47.5,0,5,7,0,2026-04-27T21:58:08.107226+05:30
Saharanpur,Uttar Pradesh,29.9637,77.546,31.5,26,0.0,970.2,7.1,47.2,108,76.1,21.9,0,5,7,0,2026-04-27T21:58:08.107232+05:30
Jhansi,Uttar Pradesh,25.4484,78.5685,36.5,18,0.0,973.7,8.3,49.3,62,28.8,16.6,0,5,10,0,2026-04-27T21:58:11.390013+05:30
Surat,Gujarat,21.1702,72.8311,29.3,74,0.0,1004.1,7.8,38.9,87,35.6,22.1,7,5,4,1,2026-04-27T21:58:11.390050+05:30
Vadodara,Gujarat,22.3072,73.1812,32.2,42,0.0,1001.1,8.15,50.0,86,30.3,23.6,0,5,4,1,2026-04-27T21:58:11.390064+05:30
Rajkot,Gujarat,22.3039,70.8022,30.9,45,0.0,991.6,7.9,57.2,49,34.8,13.5,0,5,7,1,2026-04-27T21:58:11.390074+05:30
Thane,Maharashtra,19.2183,72.9781,29.1,80,0.0,1006.0,8.05,36.0,86,46.7,24.0,7,5,4,1,2026-04-27T21:58:11.390082+05:30
Nagpur,Maharashtra,21.1458,79.0882,37.2,16,0.0,970.3,8.7,37.4,121,34.8,25.4,0,5,10,0,2026-04-27T21:58:11.390090+05:30
Nashik,Maharashtra,19.9975,73.7898,28.5,70,0.0,944.2,8.3,36.4,103,28.3,18.5,7,5,7,1,2026-04-27T21:58:11.390097+05:30
Aurangabad,Maharashtra,19.8762,75.3433,34.0,19,0.0,942.6,9.0,33.8,106,32.2,26.4,0,5,7,0,2026-04-27T21:58:11.390104+05:30
Solapur,Maharashtra,17.6599,75.9064,35.0,21,0.0,954.2,9.05,29.5,119,33.4,26.8,0,5,7,0,2026-04-27T21:58:11.390111+05:30
Kolhapur,Maharashtra,16.705,74.2433,25.6,75,0.0,946.7,9.0,51.8,77,33.5,18.2,7,5,7,1,2026-04-27T21:58:11.390118+05:30
Goa,Goa,15.2993,74.124,29.5,72,0.0,996.8,8.95,35.6,71,45.6,19.6,7,5,7,1,2026-04-27T21:58:11.390125+05:30
Jodhpur,Rajasthan,26.2389,73.0243,35.3,16,0.0,978.6,8.3,46.4,123,252.4,34.1,0,5,10,0,2026-04-27T21:58:11.390132+05:30
Udaipur,Rajasthan,24.5854,73.7125,32.7,17,0.0,944.3,8.75,45.0,64,16.8,9.4,0,5,7,0,2026-04-27T21:58:11.390139+05:30
Kota,Rajasthan,25.2138,75.8648,33.8,24,0.0,974.6,8.3,34.9,67,25.7,16.6,0,5,7,0,2026-04-27T21:58:11.390146+05:30
Bikaner,Rajasthan,28.0229,73.3119,33.6,28,0.0,976.9,8.1,68.4,61,72.9,21.5,0,5,7,0,2026-04-27T21:58:11.390152+05:30
Ajmer,Rajasthan,26.4499,74.6399,31.4,29,0.0,951.3,8.25,55.8,60,75.2,21.1,0,5,7,0,2026-04-27T21:58:11.390159+05:30
Gwalior,Madhya Pradesh,26.2183,78.1828,35.7,21,0.0,978.9,8.05,40.0,78,60.1,19.3,0,5,10,0,2026-04-27T21:58:11.390166+05:30
Indore,Madhya Pradesh,22.7196,75.8577,33.4,16,0.0,946.3,8.6,52.6,78,17.5,14.1,0,5,7,0,2026-04-27T21:58:11.390172+05:30
Bhopal,Madhya Pradesh,23.2599,77.4126,35.8,13,0.0,950.6,8.6,44.3,78,18.2,11.3,0,5,10,0,2026-04-27T21:58:11.390179+05:30
Jabalpur,Madhya Pradesh,23.1815,79.9864,32.2,27,0.0,958.5,8.75,54.0,73,38.3,18.3,0,5,7,0,2026-04-27T21:58:11.390186+05:30
Ujjain,Madhya Pradesh,23.1765,75.7885,32.0,16,0.0,951.5,8.55,50.0,71,17.2,13.6,0,5,7,0,2026-04-27T21:58:11.390193+05:30
Visakhapatnam,Andhra Pradesh,17.6868,83.2185,28.9,83,0.0,1002.7,9.2,55.1,58,24.6,18.1,7,5,4,1,2026-04-27T21:58:11.390200+05:30
Vijayawada,Andhra Pradesh,16.5062,80.648,29.4,78,0.0,1000.9,9.15,35.3,66,20.3,16.5,7,5,4,1,2026-04-27T21:58:11.390206+05:30
Guntur,Andhra Pradesh,16.3067,80.4365,29.2,82,0.0,1002.1,9.0,38.2,92,20.7,17.7,7,5,4,1,2026-04-27T21:58:11.390213+05:30
Nellore,Andhra Pradesh,14.4426,79.9865,29.5,74,0.0,1003.8,9.3,47.2,101,20.1,16.9,7,5,4,1,2026-04-27T21:58:11.390220+05:30
Kurnool,Andhra Pradesh,15.8281,78.0373,35.4,26,0.0,974.1,9.2,29.9,171,49.5,41.1,0,5,10,0,2026-04-27T21:58:11.390227+05:30
Kakinada,Andhra Pradesh,16.9891,82.2475,29.1,79,0.0,1006.2,8.9,41.8,54,23.2,15.3,7,5,4,1,2026-04-27T21:58:11.390233+05:30
Tirupati,Andhra Pradesh,13.6288,79.4192,30.0,64,0.0,990.0,9.05,43.2,116,25.0,23.5,7,5,7,1,2026-04-27T21:58:11.390240+05:30
Warangal,Telangana,17.9689,79.5941,33.4,36,0.0,976.0,8.85,36.0,157,35.6,32.1,0,5,7,1,2026-04-27T21:58:11.390246+05:30
Nizamabad,Telangana,18.6725,78.0941,32.0,26,0.0,961.5,9.1,32.4,105,60.8,48.7,0,5,7,0,2026-04-27T21:58:11.390252+05:30
Mysore,Karnataka,12.2958,76.6396,25.7,80,0.0,927.5,9.45,39.2,141,33.4,29.8,7,5,7,1,2026-04-27T21:58:11.390258+05:30
Mangalore,Karnataka,12.9141,74.856,29.9,75,0.0,1005.4,8.15,39.6,77,32.4,24.3,7,5,4,1,2026-04-27T21:58:11.390264+05:30
Hubli-Dharwad,Karnataka,15.3647,75.124,26.6,76,0.0,939.7,9.2,47.5,98,28.2,24.6,7,5,7,1,2026-04-27T21:58:11.390271+05:30
Belgaum,Karnataka,15.8497,74.4977,24.2,89,0.0,924.7,9.2,39.2,88,24.2,15.2,3,5,7,1,2026-04-27T21:58:14.667707+05:30
Coimbatore,Tamil Nadu,11.0168,76.9558,28.5,72,0.0,960.8,9.35,47.5,111,25.5,23.9,7,5,7,1,2026-04-27T21:58:14.667735+05:30
Madurai,Tamil Nadu,9.9252,78.1198,29.9,71,0.0,992.9,8.75,45.0,85,8.5,8.2,7,5,7,1,2026-04-27T21:58:14.667745+05:30
Trichy,Tamil Nadu,10.7905,78.7047,30.0,69,0.0,998.9,9.1,41.0,56,9.8,9.5,7,5,7,1,2026-04-27T21:58:14.667752+05:30
Salem,Tamil Nadu,11.6643,78.146,32.3,37,0.0,975.7,9.2,37.4,123,22.2,19.5,0,5,7,0,2026-04-27T21:58:14.667759+05:30
Tirunelveli,Tamil Nadu,8.7139,77.7567,29.6,67,0.0,1002.7,8.95,45.0,75,19.8,18.6,7,5,4,1,2026-04-27T21:58:14.667766+05:30
Vellore,Tamil Nadu,12.9165,79.1325,29.0,71,0.0,983.2,9.25,38.9,105,30.5,28.8,7,5,7,1,2026-04-27T21:58:14.667773+05:30
Erode,Tamil Nadu,11.341,77.7172,33.3,38,0.0,987.3,9.3,42.5,130,19.7,17.4,0,5,7,1,2026-04-27T21:58:14.667780+05:30
Kochi,Kerala,9.9312,76.2673,28.4,82,0.0,1008.0,8.8,36.4,81,38.1,33.8,7,0,4,1,2026-04-27T21:58:14.667786+05:30
Thiruvananthapuram,Kerala,8.5241,76.9366,26.8,91,0.0,1007.8,8.45,38.2,55,19.0,14.7,7,5,4,1,2026-04-27T21:58:14.667793+05:30
Kozhikode,Kerala,11.2588,75.7804,28.4,85,0.0,1006.7,8.55,38.2,61,27.7,20.5,7,5,4,1,2026-04-27T21:58:14.667799+05:30
Thrissur,Kerala,10.5276,76.2144,28.9,82,0.0,1006.0,8.75,36.4,77,24.4,21.9,7,5,4,1,2026-04-27T21:58:14.667805+05:30
Kannur,Kerala,11.8745,75.3704,29.0,81,0.0,1006.2,9.05,42.1,73,33.8,28.3,7,5,4,1,2026-04-27T21:58:14.667812+05:30
Patna,Bihar,25.5941,85.1376,26.8,71,0.0,997.4,8.6,37.8,156,74.5,52.3,7,5,7,1,2026-04-27T21:58:14.667819+05:30
Gaya,Bihar,24.7914,85.0002,28.4,66,0.0,989.8,8.65,32.8,191,62.9,50.1,7,5,7,1,2026-04-27T21:58:14.667825+05:30
Muzaffarpur,Bihar,26.1209,85.3647,25.5,73,0.0,998.0,8.55,39.2,130,94.5,63.3,7,5,7,1,2026-04-27T21:58:14.667831+05:30
Bhagalpur,Bihar,25.2425,87.0117,23.9,81,0.0,999.1,7.5,43.2,130,33.5,28.4,3,5,7,1,2026-04-27T21:58:14.667837+05:30
Ranchi,Jharkhand,23.3441,85.3096,28.0,45,0.0,934.6,9.15,44.3,95,40.7,21.8,4,5,7,0,2026-04-27T21:58:14.667844+05:30
Jamshedpur,Jharkhand,22.8046,86.2029,32.0,41,0.0,986.3,9.0,43.2,126,50.9,33.8,0,5,7,1,2026-04-27T21:58:14.667851+05:30
Dhanbad,Jharkhand,23.7957,86.4304,27.5,78,0.0,976.0,8.9,43.6,126,97.6,73.3,7,5,7,1,2026-04-27T21:58:14.667856+05:30
Bokaro,Jharkhand,23.6693,86.1511,29.8,67,0.0,979.8,8.65,46.1,128,110.6,68.5,7,5,7,1,2026-04-27T21:58:14.667862+05:30
Bhubaneswar,Odisha,20.2961,85.8245,28.0,81,0.0,999.7,9.1,51.5,51,18.5,15.4,7,5,7,1,2026-04-27T21:58:14.667868+05:30
Cuttack,Odisha,20.4625,85.8828,28.3,80,0.0,1001.1,9.15,43.9,51,18.5,15.4,7,5,4,1,2026-04-27T21:58:14.667874+05:30
Rourkela,Odisha,22.2604,84.8536,34.0,29,0.0,980.6,8.9,40.0,129,52.3,36.7,0,5,7,0,2026-04-27T21:58:14.667880+05:30
Raipur,Chhattisgarh,21.2514,81.6296,34.4,27,0.0,971.5,8.95,58.3,131,67.8,47.8,0,5,7,0,2026-04-27T21:58:14.667886+05:30
Bhilai,Chhattisgarh,21.1938,81.3509,35.2,25,0.0,972.0,8.95,50.0,106,64.5,39.7,0,5,10,0,2026-04-27T21:58:14.667892+05:30
Guwahati,Assam,26.1158,91.7086,22.0,88,0.0,1000.6,3.15,23.4,104,43.7,33.6,3,5,0,1,2026-04-27T21:58:14.667898+05:30
Agartala,Tripura,23.8315,91.2868,23.6,96,0.0,1004.3,7.75,57.2,78,19.6,14.6,3,5,4,1,2026-04-27T21:58:14.667904+05:30
Shillong,Meghalaya,25.5788,91.8933,15.8,97,0.1,854.3,2.2,48.2,86,9.2,4.8,6,10,3,0,2026-04-27T21:58:14.667910+05:30
Imphal,Manipur,24.817,93.9368,18.8,96,0.3,922.3,6.4,30.6,152,39.2,29.0,6,10,7,1,2026-04-27T21:58:14.667917+05:30
Aizawl,Mizoram,23.7271,92.7176,17.3,94,0.0,890.6,8.95,46.8,79,25.8,15.8,3,10,7,1,2026-04-27T21:58:14.667923+05:30
Kohima,Nagaland,25.6701,94.1077,16.2,95,0.1,853.5,3.2,37.1,136,23.9,16.4,6,10,3,0,2026-04-27T21:58:14.667929+05:30
Gangtok,Sikkim,27.3314,88.6138,13.4,99,0.0,834.3,8.85,42.5,92,48.8,37.1,3,10,7,0,2026-04-27T21:58:14.667935+05:30
Siliguri,West Bengal,26.7271,88.3953,22.0,79,0.0,991.8,8.4,34.6,107,20.9,18.5,3,5,7,1,2026-04-27T21:58:17.938210+05:30
Durgapur,West Bengal,23.5204,87.3119,25.9,90,0.0,990.5,8.85,45.4,175,59.1,52.6,7,5,7,1,2026-04-27T21:58:17.938242+05:30
Asansol,West Bengal,23.6739,86.9524,26.8,87,0.0,989.4,8.9,38.9,116,60.8,51.1,7,5,7,1,2026-04-27T21:58:17.938254+05:30
Pondicherry,Puducherry,11.9139,79.8145,29.5,79,0.0,1007.6,9.2,46.8,52,14.3,10.0,7,5,4,1,2026-04-27T21:58:17.938263+05:30
Port Blair,Andaman and Nicobar Islands,11.6234,92.7265,28.2,82,0.0,1007.6,9.1,33.1,43,10.5,7.6,7,5,4,1,2026-04-27T21:58:17.938280+05:30
Haridwar,Uttarakhand,29.9457,78.1642,27.5,38,0.0,968.0,7.25,29.5,119,22.6,13.4,4,5,7,0,2026-04-27T21:58:17.938288+05:30
Rishikesh,Uttarakhand,30.0869,78.2676,25.3,39,0.0,960.4,7.35,26.6,132,56.5,16.5,4,5,7,0,2026-04-27T21:58:17.938296+05:30
Nainital,Uttarakhand,29.3919,79.4542,16.5,45,0.0,802.4,8.2,38.2,157,41.0,14.1,0,5,7,0,2026-04-27T21:58:17.938305+05:30
Mussoorie,Uttarakhand,30.4599,78.0664,16.0,48,0.0,799.0,7.75,51.8,127,14.6,11.2,0,5,7,0,2026-04-27T21:58:17.938313+05:30
Dharamshala,Himachal Pradesh,32.219,76.3234,22.0,40,0.0,866.4,8.1,51.8,105,14.4,11.3,0,5,7,0,2026-04-27T21:58:17.938321+05:30
Dalhousie,Himachal Pradesh,32.5387,75.971,14.2,64,0.0,800.9,8.3,40.3,115,18.3,16.3,3,5,7,0,2026-04-27T21:58:17.938329+05:30
Patiala,Punjab,30.3398,76.3869,33.0,24,0.0,973.2,7.35,50.8,330,661.2,81.7,0,5,7,0,2026-04-27T21:58:17.938338+05:30
Bhatinda,Punjab,30.211,74.9455,32.5,27,0.0,978.3,8.0,61.6,72,71.5,25.7,0,5,7,0,2026-04-27T21:58:17.938346+05:30
Rohtak,Haryana,28.8955,76.6066,32.3,28,0.0,976.8,7.5,59.0,543,957.4,123.4,0,5,7,0,2026-04-27T21:58:17.938355+05:30
Panipat,Haryana,29.3909,76.9635,34.0,23,0.0,975.4,7.3,63.4,1026,1937.2,219.8,0,5,7,0,2026-04-27T21:58:17.938363+05:30
Mathura,Uttar Pradesh,27.4924,77.6737,33.7,26,0.0,982.1,7.75,42.5,689,920.1,126.7,0,5,7,0,2026-04-27T21:58:17.938371+05:30
Vrindavan,Uttar Pradesh,27.5823,77.7027,33.3,26,0.0,982.5,7.65,41.8,689,920.1,126.7,0,5,7,0,2026-04-27T21:58:17.938379+05:30
Ayodhya,Uttar Pradesh,26.7922,82.1998,30.5,50,0.0,990.4,8.1,33.1,147,129.0,66.4,0,5,7,1,2026-04-27T21:58:17.938388+05:30
Ratlam,Madhya Pradesh,23.3315,75.0367,31.5,20,0.0,952.2,8.45,50.8,83,17.5,13.3,0,5,7,0,2026-04-27T21:58:17.938399+05:30
Sagar,Madhya Pradesh,23.8388,78.7378,30.9,30,0.0,946.6,8.6,61.9,79,17.8,13.2,0,5,7,0,2026-04-27T21:58:17.938407+05:30
Satna,Madhya Pradesh,24.6005,80.8322,32.5,27,0.0,967.4,8.6,59.8,61,28.5,13.6,0,5,7,0,2026-04-27T21:58:17.938414+05:30
Akola,Maharashtra,20.7002,77.0082,34.8,20,0.0,972.1,8.85,33.8,113,26.2,21.4,0,5,7,0,2026-04-27T21:58:17.938422+05:30
Amravati,Maharashtra,20.9374,77.7796,35.6,17,0.0,964.4,8.9,35.6,107,25.0,20.1,0,5,10,0,2026-04-27T21:58:17.938432+05:30
Latur,Maharashtra,18.4088,76.5604,32.3,20,0.0,937.5,9.05,40.3,115,40.5,30.0,0,5,7,0,2026-04-27T21:58:17.938441+05:30
Nanded,Maharashtra,19.1383,77.3091,33.9,29,0.0,965.3,9.0,40.7,99,34.0,26.5,0,5,7,0,2026-04-27T21:58:17.938448+05:30
Gulbarga,Karnataka,17.3297,76.8343,34.2,25,0.0,956.1,9.05,31.3,139,44.0,36.9,0,5,7,0,2026-04-27T21:58:17.938453+05:30
Bidar,Karnataka,17.9104,77.5199,30.5,31,0.0,933.2,9.1,31.3,111,50.9,40.4,0,5,7,0,2026-04-27T21:58:17.938459+05:30
Hospet,Karnataka,15.2689,76.3909,30.9,41,0.0,953.9,9.25,36.4,165,37.5,34.9,0,5,7,0,2026-04-27T21:58:17.938464+05:30
Tirupur,Tamil Nadu,11.1085,77.3411,29.9,68,0.0,973.7,9.35,36.7,136,28.4,25.1,7,5,7,1,2026-04-27T21:58:17.938470+05:30
Alappuzha,Kerala,9.4981,76.3388,26.6,95,0.0,1008.6,7.95,34.9,75,31.8,26.8,7,0,4,1,2026-04-27T21:58:17.938476+05:30
Munnar,Kerala,10.0889,77.0595,18.8,87,0.0,856.7,9.6,26.6,80,36.1,33.3,3,10,7,1,2026-04-27T21:58:17.938482+05:30
Silchar,Assam,24.8333,92.7789,22.3,98,0.2,1004.3,8.75,32.8,155,39.5,27.4,6,5,4,1,2026-04-27T21:58:17.938488+05:30
Dibrugarh,Assam,27.4728,94.912,20.9,95,0.0,995.6,1.7,24.1,98,43.0,34.0,3,5,3,1,2026-04-27T21:58:17.938494+05:30
