city,state,latitude,longitude,temp,humidity,rain,pressure,uv_index,wind_gusts,aqi,pm10,pm2_5,mosquito_risk,arthritis_risk,migraine_risk,frizz_risk,updated_at
Delhi,Delhi,28.6139,77.209,28.2,47,0.0,986.1,6.0,28.8,395,393.0,91.7,4,5,3,0,2026-03-13T11:22:01.463036+05:30
Mumbai,Maharashtra,19.076,72.8777,28.8,68,0.0,1009.2,7.65,26.6,155,65.2,62.9,7,0,4,1,2026-03-13T11:22:01.463087+05:30
Bangalore,Karnataka,12.9716,77.5946,30.4,26,0.0,914.4,9.3,28.4,78,48.3,36.7,0,5,7,0,2026-03-13T11:22:01.463103+05:30
Hyderabad,Telangana,17.385,78.4867,35.0,21,0.0,955.8,8.65,18.7,99,43.7,34.3,0,5,7,0,2026-03-13T11:22:01.463113+05:30
Chennai,Tamil Nadu,13.0827,80.2707,32.5,54,0.0,1009.9,9.05,30.6,70,20.1,16.2,0,0,4,1,2026-03-13T11:22:01.463122+05:30
Kolkata,West Bengal,22.5726,88.3639,31.8,64,0.0,1007.6,8.0,28.4,150,54.2,42.6,3,5,4,1,2026-03-13T11:22:01.463131+05:30
Pune,Maharashtra,18.5204,73.8567,35.4,20,0.0,950.7,8.2,26.6,150,23.4,21.0,0,5,10,0,2026-03-13T11:22:01.463145+05:30
Ahmedabad,Gujarat,23.0225,72.5714,32.3,40,0.0,1004.7,7.5,21.6,89,72.4,37.7,0,5,4,1,2026-03-13T11:22:01.463153+05:30
Jaipur,Rajasthan,26.9124,75.7873,32.5,32,0.0,963.0,6.95,24.5,119,172.8,46.8,0,5,7,0,2026-03-13T11:22:01.463161+05:30
Lucknow,Uttar Pradesh,26.8467,80.9462,31.0,46,0.0,995.6,5.95,26.6,174,332.5,93.6,0,5,3,1,2026-03-13T11:22:01.463169+05:30
Kanpur,Uttar Pradesh,26.4499,80.3319,30.6,52,0.0,994.2,6.35,21.2,287,461.0,96.9,0,5,7,1,2026-03-13T11:22:01.463179+05:30
Chandigarh,Chandigarh,30.7333,76.7794,26.8,49,0.0,971.3,5.15,30.6,84,45.2,21.7,4,5,3,0,2026-03-13T11:22:01.463187+05:30
Srinagar,Jammu and Kashmir,34.0837,74.7973,12.4,71,0.0,845.2,6.85,14.0,66,27.4,19.4,3,5,7,0,2026-03-13T11:22:01.463194+05:30
Jammu,Jammu and Kashmir,32.7266,74.857,27.3,46,0.0,976.2,6.45,23.0,83,22.8,16.4,4,5,7,0,2026-03-13T11:22:01.463202+05:30
Amritsar,Punjab,31.634,74.8723,25.8,59,0.0,984.5,6.05,23.8,110,41.3,28.0,4,5,7,1,2026-03-13T11:22:01.463208+05:30
Ludhiana,Punjab,30.901,75.8573,26.6,49,0.0,982.0,5.75,28.8,112,52.0,39.1,4,5,3,0,2026-03-13T11:22:01.463215+05:30
Jalandhar,Punjab,31.326,75.5762,26.3,56,0.0,983.3,5.65,26.6,113,78.9,44.5,4,5,3,1,2026-03-13T11:22:01.463224+05:30
Dehradun,Uttarakhand,30.6284,78.0322,20.9,27,0.0,832.9,6.0,28.1,42,42.1,13.7,0,5,3,0,2026-03-13T11:22:01.463231+05:30
Shimla,Himachal Pradesh,31.1048,77.1734,19.2,37,0.0,788.0,5.2,38.5,57,31.7,9.9,0,5,3,0,2026-03-13T11:22:01.463238+05:30
Manali,Himachal Pradesh,32.2396,77.1887,18.9,14,0.0,822.8,8.15,38.5,44,16.8,6.2,0,5,7,1,2026-03-13T11:22:01.463245+05:30
Gurgaon,Haryana,28.4595,77.0266,28.4,48,0.0,984.8,6.1,26.6,1215,1259.1,168.6,4,5,7,1,2026-03-13T11:22:01.463253+05:30
Noida,Uttar Pradesh,28.5355,77.391,28.9,45,0.0,987.6,5.95,28.4,1215,1259.1,168.6,4,5,3,0,2026-03-13T11:22:01.463260+05:30
Ghaziabad,Uttar Pradesh,28.6692,77.4538,27.9,53,0.0,985.7,5.85,27.7,238,291.5,79.4,4,5,3,1,2026-03-13T11:22:01.463266+05:30
Faridabad,Haryana,28.4089,77.3178,28.5,48,0.0,986.9,6.0,27.0,1215,1259.1,168.6,4,5,3,1,2026-03-13T11:22:01.463274+05:30
Meerut,Uttar Pradesh,28.9845,77.7064,28.1,52,0.0,984.2,5.3,28.8,238,291.5,79.4,4,5,3,1,2026-03-13T11:22:01.463280+05:30
Agra,Uttar Pradesh,27.1767,78.0081,31.4,45,0.0,991.0,6.2,22.0,544,748.8,139.7,0,5,7,1,2026-03-13T11:22:01.463287+05:30
Varanasi,Uttar Pradesh,25.3176,82.9739,32.2,41,0.0,999.5,7.35,26.6,127,286.8,63.6,0,5,7,1,2026-03-13T11:22:01.463297+05:30
Prayagraj,Uttar Pradesh,25.4358,81.8463,32.4,41,0.0,998.1,7.05,22.0,150,407.9,79.9,0,5,7,1,2026-03-13T11:22:01.463305+05:30
Gorakhpur,Uttar Pradesh,26.7606,83.3732,30.0,65,0.0,998.9,7.0,28.1,181,128.1,108.3,7,5,7,1,2026-03-13T11:22:01.463312+05:30
Bareilly,Uttar Pradesh,28.367,79.4304,28.9,58,0.0,989.0,6.4,26.6,153,105.5,60.5,4,5,7,1,2026-03-13T11:22:01.463321+05:30
Aligarh,Uttar Pradesh,27.8974,78.088,31.4,38,0.0,988.4,6.0,29.2,642,653.8,124.3,0,5,3,0,2026-03-13T11:22:01.463328+05:30
Moradabad,Uttar Pradesh,28.8386,78.7733,28.6,54,0.0,986.0,5.65,27.0,152,78.5,53.1,4,5,3,1,2026-03-13T11:22:01.463335+05:30
Saharanpur,Uttar Pradesh,29.9637,77.546,27.0,53,0.0,978.0,4.85,28.1,144,61.5,35.3,4,5,3,1,2026-03-13T11:22:01.463341+05:30
Jhansi,Uttar Pradesh,25.4484,78.5685,32.7,29,0.0,981.1,6.85,18.7,54,232.8,51.7,0,5,7,0,2026-03-13T11:22:04.689599+05:30
Surat,Gujarat,21.1702,72.8311,32.0,43,0.0,1008.8,7.35,23.8,148,55.5,50.5,0,0,4,1,2026-03-13T11:22:04.689630+05:30
Vadodara,Gujarat,22.3072,73.1812,34.6,28,0.0,1006.7,7.5,22.0,107,38.3,26.6,0,5,4,0,2026-03-13T11:22:04.689640+05:30
Rajkot,Gujarat,22.3039,70.8022,32.0,35,0.0,997.0,7.3,30.2,82,87.1,33.5,0,5,7,0,2026-03-13T11:22:04.689648+05:30
Thane,Maharashtra,19.2183,72.9781,34.1,37,0.0,1008.9,7.65,38.9,155,65.2,62.9,0,0,4,1,2026-03-13T11:22:04.689656+05:30
Nagpur,Maharashtra,21.1458,79.0882,35.7,20,0.0,975.9,8.05,18.7,91,28.2,20.4,0,5,10,0,2026-03-13T11:22:04.689663+05:30
Nashik,Maharashtra,19.9975,73.7898,33.5,21,0.0,948.3,7.85,32.4,73,19.9,14.9,0,5,7,0,2026-03-13T11:22:04.689670+05:30
Aurangabad,Maharashtra,19.8762,75.3433,34.6,18,0.0,946.7,8.35,29.5,73,22.5,20.5,0,5,7,0,2026-03-13T11:22:04.689677+05:30
Solapur,Maharashtra,17.6599,75.9064,33.4,33,0.0,959.4,8.6,24.8,90,40.5,33.6,0,5,7,0,2026-03-13T11:22:04.689684+05:30
Kolhapur,Maharashtra,16.705,74.2433,32.1,36,0.0,950.0,8.7,44.6,153,64.7,60.3,0,5,7,0,2026-03-13T11:22:04.689691+05:30
Goa,Goa,15.2993,74.124,31.5,63,0.0,999.5,8.7,32.8,141,54.0,46.2,3,5,7,1,2026-03-13T11:22:04.689698+05:30
Jodhpur,Rajasthan,26.2389,73.0243,32.1,30,0.0,985.9,6.9,19.4,72,100.1,29.2,0,5,7,0,2026-03-13T11:22:04.689705+05:30
Udaipur,Rajasthan,24.5854,73.7125,33.1,22,0.0,949.7,7.85,32.8,46,78.0,26.0,0,5,7,0,2026-03-13T11:22:04.689711+05:30
Kota,Rajasthan,25.2138,75.8648,33.5,21,0.0,981.9,7.1,16.6,70,42.0,18.2,0,5,7,0,2026-03-13T11:22:04.689718+05:30
Bikaner,Rajasthan,28.0229,73.3119,29.5,45,0.0,985.6,6.6,24.8,83,76.4,38.0,4,5,7,1,2026-03-13T11:22:04.689724+05:30
Ajmer,Rajasthan,26.4499,74.6399,32.4,31,0.0,957.5,7.05,19.4,61,145.8,43.8,0,5,7,0,2026-03-13T11:22:04.689731+05:30
Gwalior,Madhya Pradesh,26.2183,78.1828,30.1,46,0.0,986.6,6.8,20.2,79,333.4,93.8,0,5,7,1,2026-03-13T11:22:04.689738+05:30
Indore,Madhya Pradesh,22.7196,75.8577,33.6,16,0.0,951.3,7.75,32.4,61,9.7,7.5,0,5,7,0,2026-03-13T11:22:04.689744+05:30
Bhopal,Madhya Pradesh,23.2599,77.4126,33.1,22,0.0,957.0,7.55,29.9,75,23.1,21.6,0,5,7,0,2026-03-13T11:22:04.689751+05:30
Jabalpur,Madhya Pradesh,23.1815,79.9864,33.1,29,0.0,964.4,7.75,18.7,78,27.9,20.1,0,5,7,0,2026-03-13T11:22:04.689758+05:30
Ujjain,Madhya Pradesh,23.1765,75.7885,32.2,24,0.0,957.0,7.7,25.2,58,18.2,10.9,0,5,7,0,2026-03-13T11:22:04.689765+05:30
Visakhapatnam,Andhra Pradesh,17.6868,83.2185,31.8,61,0.0,1006.4,8.65,39.6,93,37.3,32.0,3,5,4,1,2026-03-13T11:22:04.689772+05:30
Vijayawada,Andhra Pradesh,16.5062,80.648,31.8,61,0.0,1005.3,8.75,29.9,92,23.7,20.4,3,5,4,1,2026-03-13T11:22:04.689779+05:30
Guntur,Andhra Pradesh,16.3067,80.4365,32.8,51,0.0,1006.3,8.75,31.0,84,24.4,20.8,0,5,4,1,2026-03-13T11:22:04.689786+05:30
Nellore,Andhra Pradesh,14.4426,79.9865,33.8,45,0.0,1008.2,8.9,28.8,75,27.3,24.7,0,0,4,1,2026-03-13T11:22:04.689793+05:30
Kurnool,Andhra Pradesh,15.8281,78.0373,35.8,26,0.0,979.0,8.75,23.8,90,44.4,36.8,0,5,10,0,2026-03-13T11:22:04.689800+05:30
Kakinada,Andhra Pradesh,16.9891,82.2475,32.7,57,0.0,1010.2,8.7,31.3,80,27.1,22.5,0,0,4,1,2026-03-13T11:22:04.689807+05:30
Tirupati,Andhra Pradesh,13.6288,79.4192,32.7,43,0.0,994.2,9.05,32.4,102,27.0,24.7,0,5,7,1,2026-03-13T11:22:04.689813+05:30
Warangal,Telangana,17.9689,79.5941,33.0,48,0.0,980.9,8.5,29.5,115,35.9,31.2,0,5,7,1,2026-03-13T11:22:04.689820+05:30
Nizamabad,Telangana,18.6725,78.0941,33.4,35,0.0,967.3,8.4,23.4,119,47.1,40.3,0,5,7,0,2026-03-13T11:22:04.689827+05:30
Mysore,Karnataka,12.2958,76.6396,30.3,37,0.0,930.8,9.3,32.0,72,35.9,28.9,0,5,7,0,2026-03-13T11:22:04.689834+05:30
Mangalore,Karnataka,12.9141,74.856,29.0,80,0.0,1008.0,8.95,24.8,116,43.2,38.4,7,0,4,1,2026-03-13T11:22:04.689841+05:30
Hubli-Dharwad,Karnataka,15.3647,75.124,32.1,36,0.0,943.2,8.9,29.9,73,31.5,26.3,0,5,7,0,2026-03-13T11:22:04.689847+05:30
Belgaum,Karnataka,15.8497,74.4977,33.2,23,0.0,928.2,8.95,43.6,114,30.5,25.4,0,5,7,0,2026-03-13T11:22:07.907798+05:30
Coimbatore,Tamil Nadu,11.0168,76.9558,31.1,50,0.0,964.2,9.25,41.0,76,34.1,27.1,0,5,7,1,2026-03-13T11:22:07.907828+05:30
Madurai,Tamil Nadu,9.9252,78.1198,31.7,51,0.0,995.4,9.25,26.6,83,21.7,17.2,0,5,7,1,2026-03-13T11:22:07.907838+05:30
Trichy,Tamil Nadu,10.7905,78.7047,30.8,57,0.0,1002.5,9.15,23.8,90,24.0,20.3,0,5,4,1,2026-03-13T11:22:07.907847+05:30
Salem,Tamil Nadu,11.6643,78.146,30.7,56,0.0,980.0,9.2,24.1,97,37.3,34.2,0,5,7,1,2026-03-13T11:22:07.907854+05:30
Tirunelveli,Tamil Nadu,8.7139,77.7567,32.2,51,0.0,1005.4,9.2,29.9,65,15.2,12.3,0,5,4,1,2026-03-13T11:22:07.907861+05:30
Vellore,Tamil Nadu,12.9165,79.1325,32.4,41,0.0,987.3,9.1,32.8,104,31.7,29.2,0,5,7,1,2026-03-13T11:22:07.907869+05:30
Erode,Tamil Nadu,11.341,77.7172,31.4,55,0.0,991.7,9.15,22.3,84,29.4,26.5,0,5,7,1,2026-03-13T11:22:07.907876+05:30
Kochi,Kerala,9.9312,76.2673,28.2,81,0.0,1009.9,9.1,33.5,98,30.7,29.0,7,0,4,1,2026-03-13T11:22:07.907884+05:30
Thiruvananthapuram,Kerala,8.5241,76.9366,28.1,80,0.0,1009.4,9.1,24.1,59,23.3,19.4,7,0,4,1,2026-03-13T11:22:07.907891+05:30
Kozhikode,Kerala,11.2588,75.7804,29.4,77,0.0,1009.3,8.95,30.6,98,35.6,32.7,7,0,4,1,2026-03-13T11:22:07.907897+05:30
Thrissur,Kerala,10.5276,76.2144,33.9,52,0.0,1008.1,9.05,37.8,96,36.1,33.2,0,0,4,1,2026-03-13T11:22:07.907904+05:30
Kannur,Kerala,11.8745,75.3704,31.0,67,0.0,1008.5,9.0,29.5,106,38.6,34.5,3,0,4,1,2026-03-13T11:22:07.907911+05:30
Patna,Bihar,25.5941,85.1376,30.7,60,0.0,1002.1,7.5,25.2,180,125.7,101.7,0,5,4,1,2026-03-13T11:22:07.907918+05:30
Gaya,Bihar,24.7914,85.0002,32.2,39,0.0,995.5,7.6,23.0,152,136.4,54.1,0,5,7,1,2026-03-13T11:22:07.907924+05:30
Muzaffarpur,Bihar,26.1209,85.3647,29.7,64,0.0,1002.3,7.45,24.8,187,105.5,88.7,7,5,4,1,2026-03-13T11:22:07.907931+05:30
Bhagalpur,Bihar,25.2425,87.0117,31.3,62,0.0,1002.4,7.5,26.6,177,102.7,88.7,3,5,4,1,2026-03-13T11:22:07.907937+05:30
Ranchi,Jharkhand,23.3441,85.3096,31.9,19,0.0,940.7,8.2,29.9,92,66.6,21.2,0,5,7,0,2026-03-13T11:22:07.907943+05:30
Jamshedpur,Jharkhand,22.8046,86.2029,33.5,45,0.0,992.7,8.1,16.6,162,120.1,89.4,0,5,7,1,2026-03-13T11:22:07.907950+05:30
Dhanbad,Jharkhand,23.7957,86.4304,34.1,25,0.0,981.6,8.0,29.9,176,142.5,102.2,0,5,7,0,2026-03-13T11:22:07.907957+05:30
Bokaro,Jharkhand,23.6693,86.1511,34.4,22,0.0,985.7,8.0,31.0,158,125.7,68.7,0,5,7,0,2026-03-13T11:22:07.907964+05:30
Bhubaneswar,Odisha,20.2961,85.8245,31.8,61,0.0,1004.9,8.4,34.9,117,40.6,32.9,3,5,4,1,2026-03-13T11:22:07.907970+05:30
Cuttack,Odisha,20.4625,85.8828,32.8,61,0.0,1006.7,8.45,30.6,117,40.6,32.9,3,5,4,1,2026-03-13T11:22:07.907976+05:30
Rourkela,Odisha,22.2604,84.8536,35.2,27,0.0,987.1,8.0,26.3,108,106.9,44.4,0,5,10,0,2026-03-13T11:22:07.907983+05:30
Raipur,Chhattisgarh,21.2514,81.6296,35.9,24,0.0,976.9,8.15,17.6,141,94.8,67.8,0,5,10,0,2026-03-13T11:22:07.907989+05:30
Bhilai,Chhattisgarh,21.1938,81.3509,36.0,23,0.0,977.3,8.15,13.3,141,98.0,71.7,0,5,10,0,2026-03-13T11:22:07.907996+05:30
Guwahati,Assam,26.1158,91.7086,26.0,78,0.0,1003.5,6.9,32.8,160,64.0,57.6,7,5,4,1,2026-03-13T11:22:07.908002+05:30
Agartala,Tripura,23.8315,91.2868,26.2,79,0.0,1009.1,7.6,28.1,150,40.9,34.5,7,0,4,1,2026-03-13T11:22:07.908009+05:30
Shillong,Meghalaya,25.5788,91.8933,16.4,76,0.0,857.4,7.0,54.0,153,35.4,29.9,3,5,7,0,2026-03-13T11:22:07.908015+05:30
Imphal,Manipur,24.817,93.9368,21.7,71,0.0,925.1,7.4,62.6,156,65.7,54.7,3,5,7,1,2026-03-13T11:22:07.908022+05:30
Aizawl,Mizoram,23.7271,92.7176,24.3,47,0.0,895.4,7.15,72.4,155,63.6,51.3,0,5,7,0,2026-03-13T11:22:07.908029+05:30
Kohima,Nagaland,25.6701,94.1077,18.8,74,0.0,856.4,6.25,81.4,137,54.5,44.7,3,5,7,0,2026-03-13T11:22:07.908035+05:30
Gangtok,Sikkim,27.3314,88.6138,17.0,83,0.0,838.9,4.55,17.3,112,35.0,31.5,3,10,3,0,2026-03-13T11:22:07.908042+05:30
Siliguri,West Bengal,26.7271,88.3953,22.0,81,0.0,996.4,7.3,30.6,159,66.4,59.5,3,5,7,1,2026-03-13T11:22:11.126479+05:30
Durgapur,West Bengal,23.5204,87.3119,33.5,47,0.0,996.5,7.95,29.2,178,110.4,90.1,0,5,7,1,2026-03-13T11:22:11.126512+05:30
Asansol,West Bengal,23.6739,86.9524,33.5,44,0.0,995.0,7.95,27.0,177,114.1,87.5,0,5,7,1,2026-03-13T11:22:11.126523+05:30
Pondicherry,Puducherry,11.9139,79.8145,32.3,57,0.0,1011.0,9.0,27.7,67,19.4,14.1,0,0,4,1,2026-03-13T11:22:11.126555+05:30
Port Blair,Andaman and Nicobar Islands,11.6234,92.7265,29.2,68,0.0,1008.5,8.95,23.4,59,13.9,11.2,7,0,4,1,2026-03-13T11:22:11.126564+05:30
Haridwar,Uttarakhand,29.9457,78.1642,29.0,40,0.0,976.3,5.45,28.4,96,36.3,17.6,4,5,3,0,2026-03-13T11:22:11.126573+05:30
Rishikesh,Uttarakhand,30.0869,78.2676,29.6,33,0.0,968.9,5.7,28.4,71,35.5,14.3,4,5,3,0,2026-03-13T11:22:11.126582+05:30
Nainital,Uttarakhand,29.3919,79.4542,22.9,46,0.0,809.6,6.7,44.3,92,37.8,17.6,0,5,7,0,2026-03-13T11:22:11.126590+05:30
Mussoorie,Uttarakhand,30.4599,78.0664,22.2,32,0.0,806.3,5.45,30.2,73,49.0,16.4,0,5,3,0,2026-03-13T11:22:11.126598+05:30
Dharamshala,Himachal Pradesh,32.219,76.3234,23.9,32,0.0,871.8,6.0,26.6,46,24.1,7.2,0,5,3,0,2026-03-13T11:22:11.126606+05:30
Dalhousie,Himachal Pradesh,32.5387,75.971,21.2,24,0.0,807.0,6.45,31.0,74,42.1,16.5,0,5,7,1,2026-03-13T11:22:11.126614+05:30
Patiala,Punjab,30.3398,76.3869,26.8,50,0.0,981.1,5.2,29.2,204,377.2,66.8,4,5,3,0,2026-03-13T11:22:11.126622+05:30
Bhatinda,Punjab,30.211,74.9455,26.9,55,0.0,987.7,6.05,27.7,138,56.5,35.4,4,5,7,1,2026-03-13T11:22:11.126630+05:30
Rohtak,Haryana,28.8955,76.6066,28.1,49,0.0,985.1,5.35,24.8,537,491.7,98.7,4,5,3,1,2026-03-13T11:22:11.126637+05:30
Panipat,Haryana,29.3909,76.9635,27.7,54,0.0,983.3,5.15,25.9,887,765.5,119.0,4,5,3,1,2026-03-13T11:22:11.126645+05:30
Mathura,Uttar Pradesh,27.4924,77.6737,31.0,43,0.0,989.9,5.8,26.3,605,882.9,149.5,0,5,3,1,2026-03-13T11:22:11.126653+05:30
Vrindavan,Uttar Pradesh,27.5823,77.7027,31.6,38,0.0,990.2,5.85,29.2,605,882.9,149.5,0,5,3,0,2026-03-13T11:22:11.126661+05:30
Ayodhya,Uttar Pradesh,26.7922,82.1998,30.1,53,0.0,997.3,6.4,28.8,158,185.3,120.6,0,5,7,1,2026-03-13T11:22:11.126668+05:30
Ratlam,Madhya Pradesh,23.3315,75.0367,32.6,21,0.0,957.7,7.6,29.2,52,25.5,11.9,0,5,7,0,2026-03-13T11:22:11.126676+05:30
Sagar,Madhya Pradesh,23.8388,78.7378,34.0,22,0.0,953.2,7.5,28.1,57,14.1,11.8,0,5,7,0,2026-03-13T11:22:11.126684+05:30
Satna,Madhya Pradesh,24.6005,80.8322,35.1,20,0.0,973.7,7.15,29.9,64,142.5,27.6,0,5,10,0,2026-03-13T11:22:11.126692+05:30
Akola,Maharashtra,20.7002,77.0082,36.2,23,0.0,977.5,8.05,20.2,82,24.6,19.4,0,5,10,0,2026-03-13T11:22:11.126700+05:30
Amravati,Maharashtra,20.9374,77.7796,36.3,20,0.0,970.0,8.0,14.0,88,28.2,21.1,0,5,10,0,2026-03-13T11:22:11.126709+05:30
Latur,Maharashtra,18.4088,76.5604,32.6,34,0.0,942.4,8.5,21.2,95,44.7,34.8,0,5,7,0,2026-03-13T11:22:11.126716+05:30
Nanded,Maharashtra,19.1383,77.3091,35.4,28,0.0,971.2,8.3,20.9,110,29.3,27.0,0,5,10,0,2026-03-13T11:22:11.126724+05:30
Gulbarga,Karnataka,17.3297,76.8343,34.5,28,0.0,961.0,8.6,32.0,90,43.3,36.8,0,5,7,0,2026-03-13T11:22:11.126731+05:30
Bidar,Karnataka,17.9104,77.5199,33.2,29,0.0,938.3,8.55,26.6,102,41.0,33.1,0,5,7,0,2026-03-13T11:22:11.126739+05:30
Hospet,Karnataka,15.2689,76.3909,31.2,43,0.0,958.1,8.9,24.1,85,39.3,32.9,0,5,7,1,2026-03-13T11:22:11.126746+05:30
Tirupur,Tamil Nadu,11.1085,77.3411,31.3,51,0.0,977.9,9.25,29.9,88,31.0,27.5,0,5,7,1,2026-03-13T11:22:11.126752+05:30
Alappuzha,Kerala,9.4981,76.3388,28.2,80,0.0,1010.1,9.1,27.7,90,31.2,29.5,7,0,4,1,2026-03-13T11:22:11.126758+05:30
Munnar,Kerala,10.0889,77.0595,29.7,32,0.0,860.6,9.55,24.1,72,18.3,15.3,4,5,7,0,2026-03-13T11:22:11.126764+05:30
Silchar,Assam,24.8333,92.7789,27.6,71,0.0,1007.5,7.75,36.4,165,94.8,80.3,7,5,4,1,2026-03-13T11:22:11.126770+05:30
Dibrugarh,Assam,27.4728,94.912,22.9,84,0.0,998.0,5.5,24.8,137,52.6,47.4,3,5,3,1,2026-03-13T11:22:11.126777+05:30
