city,state,latitude,longitude,temp,humidity,rain,pressure,uv_index,wind_gusts,aqi,pm10,pm2_5,mosquito_risk,arthritis_risk,migraine_risk,frizz_risk,updated_at
Delhi,Delhi,28.6139,77.209,32.0,48,0.0,990.6,6.05,22.3,475,300.8,108.3,0,5,7,1,2026-03-10T12:25:30.171064+05:30
Mumbai,Maharashtra,19.076,72.8777,30.3,53,0.0,1011.4,7.55,17.3,110,77.3,74.5,0,0,4,1,2026-03-10T12:25:30.171107+05:30
Bangalore,Karnataka,12.9716,77.5946,28.9,24,0.0,916.5,9.25,32.8,118,38.0,27.5,4,5,7,0,2026-03-10T12:25:30.171139+05:30
Hyderabad,Telangana,17.385,78.4867,32.2,40,0.0,959.1,8.6,30.6,128,64.5,48.9,0,5,7,1,2026-03-10T12:25:30.171151+05:30
Chennai,Tamil Nadu,13.0827,80.2707,30.9,54,0.0,1013.3,8.95,34.2,95,26.4,20.2,0,0,4,1,2026-03-10T12:25:30.171159+05:30
Kolkata,West Bengal,22.5726,88.3639,28.6,71,0.0,1013.1,4.85,13.7,115,51.9,39.8,7,0,0,1,2026-03-10T12:25:30.171168+05:30
Pune,Maharashtra,18.5204,73.8567,35.6,27,0.0,953.4,8.1,37.4,64,31.7,25.6,0,5,10,0,2026-03-10T12:25:30.171180+05:30
Ahmedabad,Gujarat,23.0225,72.5714,37.2,20,0.0,1008.2,7.4,15.8,55,18.5,15.7,0,0,7,0,2026-03-10T12:25:30.171188+05:30
Jaipur,Rajasthan,26.9124,75.7873,35.6,19,0.0,967.7,6.85,22.0,80,139.7,29.8,0,5,10,0,2026-03-10T12:25:30.171196+05:30
Lucknow,Uttar Pradesh,26.8467,80.9462,31.1,56,0.0,1001.3,6.55,20.2,173,122.9,110.1,0,5,4,1,2026-03-10T12:25:30.171204+05:30
Kanpur,Uttar Pradesh,26.4499,80.3319,31.4,55,0.0,999.3,6.6,15.5,166,204.9,118.7,0,5,7,1,2026-03-10T12:25:30.171212+05:30
Chandigarh,Chandigarh,30.7333,76.7794,29.1,65,0.0,976.9,5.95,19.1,121,109.7,56.5,7,5,3,1,2026-03-10T12:25:30.171220+05:30
Srinagar,Jammu and Kashmir,34.0837,74.7973,15.1,70,0.0,850.7,3.8,22.3,115,46.2,31.5,3,5,3,0,2026-03-10T12:25:30.171228+05:30
Jammu,Jammu and Kashmir,32.7266,74.857,24.6,61,0.0,980.8,6.05,38.2,97,54.6,34.8,3,5,7,1,2026-03-10T12:25:30.171235+05:30
Amritsar,Punjab,31.634,74.8723,28.8,65,0.0,989.3,6.0,26.6,163,76.6,56.9,7,5,3,1,2026-03-10T12:25:30.171242+05:30
Ludhiana,Punjab,30.901,75.8573,29.9,60,0.0,986.7,5.6,18.4,168,134.6,86.8,4,5,3,1,2026-03-10T12:25:30.171249+05:30
Jalandhar,Punjab,31.326,75.5762,30.7,59,0.0,988.0,6.2,25.9,166,104.1,77.1,0,5,7,1,2026-03-10T12:25:30.171258+05:30
Dehradun,Uttarakhand,30.6284,78.0322,21.5,63,0.0,838.8,6.4,28.1,73,32.9,15.4,3,5,7,0,2026-03-10T12:25:30.171265+05:30
Shimla,Himachal Pradesh,31.1048,77.1734,21.2,45,0.0,794.1,6.05,34.6,79,40.0,14.8,0,5,7,0,2026-03-10T12:25:30.171274+05:30
Manali,Himachal Pradesh,32.2396,77.1887,22.3,21,0.0,829.0,7.35,41.4,53,27.1,9.7,0,5,7,1,2026-03-10T12:25:30.171282+05:30
Gurgaon,Haryana,28.4595,77.0266,32.2,47,0.0,989.1,5.7,20.5,628,504.8,121.5,0,5,3,1,2026-03-10T12:25:30.171289+05:30
Noida,Uttar Pradesh,28.5355,77.391,32.1,49,0.0,992.1,6.05,22.7,628,504.8,121.5,0,5,7,1,2026-03-10T12:25:30.171296+05:30
Ghaziabad,Uttar Pradesh,28.6692,77.4538,30.9,55,0.0,990.5,5.95,16.9,285,231.9,101.3,0,5,3,1,2026-03-10T12:25:30.171303+05:30
Faridabad,Haryana,28.4089,77.3178,32.0,49,0.0,991.4,5.95,22.3,628,504.8,121.5,0,5,3,1,2026-03-10T12:25:30.171310+05:30
Meerut,Uttar Pradesh,28.9845,77.7064,30.6,57,0.0,989.5,5.85,16.2,285,231.9,101.3,0,5,3,1,2026-03-10T12:25:30.171317+05:30
Agra,Uttar Pradesh,27.1767,78.0081,34.5,38,0.0,995.3,6.45,22.3,191,423.8,107.1,0,5,7,1,2026-03-10T12:25:30.171323+05:30
Varanasi,Uttar Pradesh,25.3176,82.9739,31.5,57,0.0,1004.7,7.25,14.8,182,117.1,107.3,0,5,4,1,2026-03-10T12:25:30.171332+05:30
Prayagraj,Uttar Pradesh,25.4358,81.8463,31.6,55,0.0,1003.2,7.1,14.4,179,117.3,106.9,0,5,4,1,2026-03-10T12:25:30.171340+05:30
Gorakhpur,Uttar Pradesh,26.7606,83.3732,29.7,58,0.0,1005.3,6.95,20.2,194,104.3,93.8,4,5,4,1,2026-03-10T12:25:30.171346+05:30
Bareilly,Uttar Pradesh,28.367,79.4304,29.8,64,0.0,995.0,5.9,18.0,176,177.4,143.4,7,5,3,1,2026-03-10T12:25:30.171355+05:30
Aligarh,Uttar Pradesh,27.8974,78.088,32.6,47,0.0,993.1,6.15,22.0,189,273.8,98.0,0,5,7,1,2026-03-10T12:25:30.171362+05:30
Moradabad,Uttar Pradesh,28.8386,78.7733,29.7,64,0.0,991.8,5.25,23.4,176,163.4,137.8,7,5,3,1,2026-03-10T12:25:30.171368+05:30
Saharanpur,Uttar Pradesh,29.9637,77.546,29.4,62,0.0,984.0,5.65,19.4,163,146.7,94.3,7,5,3,1,2026-03-10T12:25:30.171374+05:30
Jhansi,Uttar Pradesh,25.4484,78.5685,34.8,32,0.0,985.1,7.05,25.2,90,224.0,60.5,0,5,7,0,2026-03-10T12:25:33.390965+05:30
Surat,Gujarat,21.1702,72.8311,37.0,27,0.0,1011.1,7.3,23.4,97,44.6,43.9,0,0,7,0,2026-03-10T12:25:33.390996+05:30
Vadodara,Gujarat,22.3072,73.1812,39.5,19,0.0,1009.5,7.4,15.5,68,21.7,18.9,0,0,7,0,2026-03-10T12:25:33.391006+05:30
Rajkot,Gujarat,22.3039,70.8022,35.3,27,0.0,1000.7,7.25,33.1,58,28.6,22.1,0,5,7,0,2026-03-10T12:25:33.391015+05:30
Thane,Maharashtra,19.2183,72.9781,38.8,18,0.0,1010.8,7.55,32.0,110,77.3,74.5,0,0,7,0,2026-03-10T12:25:33.391022+05:30
Nagpur,Maharashtra,21.1458,79.0882,34.6,29,0.0,979.3,7.95,23.4,73,55.2,45.1,0,5,7,0,2026-03-10T12:25:33.391029+05:30
Nashik,Maharashtra,19.9975,73.7898,35.1,19,0.0,951.1,7.75,29.2,52,16.3,12.7,0,5,10,0,2026-03-10T12:25:33.391036+05:30
Aurangabad,Maharashtra,19.8762,75.3433,35.3,20,0.0,949.7,8.3,21.2,72,17.1,12.7,0,5,10,0,2026-03-10T12:25:33.391044+05:30
Solapur,Maharashtra,17.6599,75.9064,32.7,43,0.0,962.3,8.5,29.2,89,54.6,45.2,0,5,7,1,2026-03-10T12:25:33.391051+05:30
Kolhapur,Maharashtra,16.705,74.2433,32.5,36,0.0,952.3,8.6,40.7,101,55.4,46.2,0,5,7,0,2026-03-10T12:25:33.391058+05:30
Goa,Goa,15.2993,74.124,35.7,41,0.0,1000.7,8.6,37.4,151,60.3,51.8,0,5,7,1,2026-03-10T12:25:33.391065+05:30
Jodhpur,Rajasthan,26.2389,73.0243,35.9,17,0.0,991.0,7.15,23.0,76,67.1,29.7,0,5,10,0,2026-03-10T12:25:33.391072+05:30
Udaipur,Rajasthan,24.5854,73.7125,34.8,15,0.0,954.5,7.75,21.6,41,17.6,6.2,0,5,7,0,2026-03-10T12:25:33.391079+05:30
Kota,Rajasthan,25.2138,75.8648,36.1,21,0.0,986.4,7.15,13.7,66,75.2,28.0,0,5,10,0,2026-03-10T12:25:33.391086+05:30
Bikaner,Rajasthan,28.0229,73.3119,33.8,23,0.0,989.5,6.85,25.6,59,31.3,22.3,0,5,7,0,2026-03-10T12:25:33.391092+05:30
Ajmer,Rajasthan,26.4499,74.6399,35.0,17,0.0,962.4,7.1,21.6,58,182.1,29.6,0,5,7,0,2026-03-10T12:25:33.391099+05:30
Gwalior,Madhya Pradesh,26.2183,78.1828,33.6,38,0.0,990.7,6.75,24.5,118,305.5,71.7,0,5,7,1,2026-03-10T12:25:33.391106+05:30
Indore,Madhya Pradesh,22.7196,75.8577,35.3,19,0.0,955.0,7.65,26.3,69,14.9,9.9,0,5,10,0,2026-03-10T12:25:33.391112+05:30
Bhopal,Madhya Pradesh,23.2599,77.4126,35.7,23,0.0,960.6,7.55,23.8,58,17.9,9.4,0,5,10,0,2026-03-10T12:25:33.391144+05:30
Jabalpur,Madhya Pradesh,23.1815,79.9864,34.0,29,0.0,968.0,7.65,25.9,79,52.4,23.3,0,5,7,0,2026-03-10T12:25:33.391154+05:30
Ujjain,Madhya Pradesh,23.1765,75.7885,34.7,22,0.0,960.8,7.55,19.1,87,19.1,12.4,0,5,7,0,2026-03-10T12:25:33.391162+05:30
Visakhapatnam,Andhra Pradesh,17.6868,83.2185,31.9,47,0.0,1010.0,8.55,34.6,133,62.2,46.7,0,0,4,1,2026-03-10T12:25:33.391169+05:30
Vijayawada,Andhra Pradesh,16.5062,80.648,31.6,43,0.0,1009.1,8.6,21.6,134,42.3,34.2,0,0,4,1,2026-03-10T12:25:33.391176+05:30
Guntur,Andhra Pradesh,16.3067,80.4365,31.5,45,0.0,1010.3,8.65,24.8,130,43.9,34.7,0,0,4,1,2026-03-10T12:25:33.391183+05:30
Nellore,Andhra Pradesh,14.4426,79.9865,31.8,45,0.0,1012.1,8.85,29.9,104,32.1,25.0,0,0,4,1,2026-03-10T12:25:33.391190+05:30
Kurnool,Andhra Pradesh,15.8281,78.0373,33.7,29,0.0,982.3,8.65,32.4,113,58.1,42.7,0,5,7,0,2026-03-10T12:25:33.391196+05:30
Kakinada,Andhra Pradesh,16.9891,82.2475,31.9,46,0.0,1014.0,8.6,27.0,115,47.8,35.3,0,0,4,1,2026-03-10T12:25:33.391203+05:30
Tirupati,Andhra Pradesh,13.6288,79.4192,30.6,43,0.0,997.4,8.95,34.6,145,29.8,24.7,0,5,7,1,2026-03-10T12:25:33.391210+05:30
Warangal,Telangana,17.9689,79.5941,31.3,54,0.0,985.0,8.4,27.0,134,60.8,48.2,0,5,7,1,2026-03-10T12:25:33.391216+05:30
Nizamabad,Telangana,18.6725,78.0941,33.9,40,0.0,970.4,8.3,29.5,128,65.2,54.6,0,5,7,1,2026-03-10T12:25:33.391222+05:30
Mysore,Karnataka,12.2958,76.6396,30.0,24,0.0,932.7,9.25,36.7,119,48.0,34.1,4,5,7,0,2026-03-10T12:25:33.391229+05:30
Mangalore,Karnataka,12.9141,74.856,28.8,82,0.0,1009.7,8.9,33.5,108,50.9,41.2,7,0,4,1,2026-03-10T12:25:33.391236+05:30
Hubli-Dharwad,Karnataka,15.3647,75.124,33.2,30,0.0,945.0,8.8,43.9,95,64.5,51.1,0,5,7,0,2026-03-10T12:25:33.391243+05:30
Belgaum,Karnataka,15.8497,74.4977,32.8,31,0.0,930.1,8.85,45.4,85,53.3,43.5,0,5,7,0,2026-03-10T12:25:36.616978+05:30
Coimbatore,Tamil Nadu,11.0168,76.9558,31.1,33,0.0,966.0,9.25,43.2,121,42.3,30.7,0,5,7,0,2026-03-10T12:25:36.617006+05:30
Madurai,Tamil Nadu,9.9252,78.1198,33.3,38,0.0,996.7,9.2,43.6,117,30.9,26.2,0,5,7,1,2026-03-10T12:25:36.617016+05:30
Trichy,Tamil Nadu,10.7905,78.7047,31.8,46,0.0,1004.1,8.7,37.4,117,30.3,26.7,0,5,4,1,2026-03-10T12:25:36.617024+05:30
Salem,Tamil Nadu,11.6643,78.146,31.7,42,0.0,981.9,9.15,37.4,138,41.4,31.9,0,5,7,1,2026-03-10T12:25:36.617031+05:30
Tirunelveli,Tamil Nadu,8.7139,77.7567,33.3,37,0.0,1006.9,9.2,43.6,95,26.4,21.7,0,5,4,1,2026-03-10T12:25:36.617039+05:30
Vellore,Tamil Nadu,12.9165,79.1325,30.1,44,0.0,990.2,9.05,36.4,148,34.1,28.9,0,5,7,1,2026-03-10T12:25:36.617046+05:30
Erode,Tamil Nadu,11.341,77.7172,32.6,35,0.0,993.6,9.1,36.7,123,49.0,38.1,0,5,7,0,2026-03-10T12:25:36.617053+05:30
Kochi,Kerala,9.9312,76.2673,28.0,78,0.0,1011.7,9.05,40.3,152,60.3,50.4,7,0,4,1,2026-03-10T12:25:36.617061+05:30
Thiruvananthapuram,Kerala,8.5241,76.9366,28.3,63,0.0,1010.7,9.1,27.0,123,40.3,32.4,7,0,4,1,2026-03-10T12:25:36.617069+05:30
Kozhikode,Kerala,11.2588,75.7804,29.5,65,0.0,1010.9,8.95,24.1,99,56.5,47.6,7,0,4,1,2026-03-10T12:25:36.617076+05:30
Thrissur,Kerala,10.5276,76.2144,35.5,30,0.0,1009.6,9.0,36.7,151,42.4,31.0,0,0,7,0,2026-03-10T12:25:36.617083+05:30
Kannur,Kerala,11.8745,75.3704,30.0,70,0.0,1010.3,8.95,39.2,95,44.5,37.3,7,0,4,1,2026-03-10T12:25:36.617090+05:30
Patna,Bihar,25.5941,85.1376,31.2,56,0.0,1007.6,7.4,24.8,176,89.2,80.1,0,5,4,1,2026-03-10T12:25:36.617097+05:30
Gaya,Bihar,24.7914,85.0002,30.0,66,0.0,1000.6,7.5,15.8,177,75.7,65.4,7,5,4,1,2026-03-10T12:25:36.617103+05:30
Muzaffarpur,Bihar,26.1209,85.3647,31.5,53,0.0,1007.8,7.35,22.0,177,97.8,88.0,0,5,4,1,2026-03-10T12:25:36.617109+05:30
Bhagalpur,Bihar,25.2425,87.0117,31.3,52,0.0,1008.2,7.4,17.6,167,93.1,79.9,0,0,4,1,2026-03-10T12:25:36.617115+05:30
Ranchi,Jharkhand,23.3441,85.3096,29.7,41,0.0,943.6,8.15,24.1,159,79.2,63.6,4,5,7,0,2026-03-10T12:25:36.617139+05:30
Jamshedpur,Jharkhand,22.8046,86.2029,30.6,58,0.0,996.8,8.05,32.4,141,75.4,61.7,0,5,7,1,2026-03-10T12:25:36.617148+05:30
Dhanbad,Jharkhand,23.7957,86.4304,29.9,55,0.0,986.4,7.55,23.4,170,80.3,70.3,4,5,7,1,2026-03-10T12:25:36.617154+05:30
Bokaro,Jharkhand,23.6693,86.1511,29.9,57,0.0,990.2,7.95,19.4,176,85.9,76.8,4,5,7,1,2026-03-10T12:25:36.617161+05:30
Bhubaneswar,Odisha,20.2961,85.8245,32.1,52,0.0,1008.7,8.35,32.8,103,59.1,45.6,0,0,4,1,2026-03-10T12:25:36.617167+05:30
Cuttack,Odisha,20.4625,85.8828,33.1,51,0.0,1010.4,8.35,29.2,103,59.1,45.6,0,0,4,1,2026-03-10T12:25:36.617174+05:30
Rourkela,Odisha,22.2604,84.8536,33.5,46,0.0,990.4,7.95,22.3,160,86.8,71.5,0,5,7,1,2026-03-10T12:25:36.617180+05:30
Raipur,Chhattisgarh,21.2514,81.6296,34.6,33,0.0,980.5,8.05,14.8,156,93.6,69.2,0,5,7,0,2026-03-10T12:25:36.617186+05:30
Bhilai,Chhattisgarh,21.1938,81.3509,35.3,31,0.0,980.9,8.05,11.9,152,96.2,68.5,0,5,10,0,2026-03-10T12:25:36.617192+05:30
Guwahati,Assam,26.1158,91.7086,30.5,58,0.0,1007.8,7.3,11.2,156,84.5,73.6,0,5,4,1,2026-03-10T12:25:36.617198+05:30
Agartala,Tripura,23.8315,91.2868,30.6,54,0.0,1012.3,7.7,12.6,168,85.9,72.9,0,0,4,1,2026-03-10T12:25:36.617205+05:30
Shillong,Meghalaya,25.5788,91.8933,20.0,49,0.0,862.6,6.75,18.4,154,61.7,54.2,0,5,7,0,2026-03-10T12:25:36.617212+05:30
Imphal,Manipur,24.817,93.9368,25.0,52,0.0,929.0,6.35,28.8,153,48.2,41.9,4,5,7,0,2026-03-10T12:25:36.617218+05:30
Aizawl,Mizoram,23.7271,92.7176,26.4,43,0.0,899.0,7.85,28.4,153,54.1,41.8,4,5,7,0,2026-03-10T12:25:36.617224+05:30
Kohima,Nagaland,25.6701,94.1077,18.5,82,0.0,860.8,6.8,50.0,141,43.1,37.7,3,10,7,0,2026-03-10T12:25:36.617231+05:30
Gangtok,Sikkim,27.3314,88.6138,22.0,50,0.0,845.7,6.25,19.8,153,57.0,46.6,0,5,7,0,2026-03-10T12:25:36.617237+05:30
Siliguri,West Bengal,26.7271,88.3953,27.7,53,0.0,1001.0,7.35,23.4,165,70.3,55.8,4,5,4,1,2026-03-10T12:25:39.837820+05:30
Durgapur,West Bengal,23.5204,87.3119,29.5,64,0.0,1002.0,7.8,24.5,158,61.7,52.2,7,5,4,1,2026-03-10T12:25:39.837856+05:30
Asansol,West Bengal,23.6739,86.9524,29.8,61,0.0,1000.4,7.9,22.0,162,70.1,60.1,7,5,4,1,2026-03-10T12:25:39.837868+05:30
Pondicherry,Puducherry,11.9139,79.8145,30.2,61,0.0,1014.0,8.95,36.0,89,26.8,20.0,3,0,4,1,2026-03-10T12:25:39.837878+05:30
Port Blair,Andaman and Nicobar Islands,11.6234,92.7265,29.1,71,0.0,1010.1,8.95,29.5,79,26.5,22.8,7,0,4,1,2026-03-10T12:25:39.837888+05:30
Haridwar,Uttarakhand,29.9457,78.1642,29.3,62,0.0,982.7,5.85,21.2,153,132.2,89.4,7,5,3,1,2026-03-10T12:25:39.837897+05:30
Rishikesh,Uttarakhand,30.0869,78.2676,28.6,64,0.0,975.3,5.9,23.0,151,123.9,75.9,7,5,3,1,2026-03-10T12:25:39.837908+05:30
Nainital,Uttarakhand,29.3919,79.4542,21.5,69,0.0,814.1,6.75,51.5,170,144.4,108.3,3,5,7,0,2026-03-10T12:25:39.837919+05:30
Mussoorie,Uttarakhand,30.4599,78.0664,21.3,68,0.0,811.4,6.25,37.1,140,115.0,65.4,3,5,7,0,2026-03-10T12:25:39.837929+05:30
Dharamshala,Himachal Pradesh,32.219,76.3234,24.7,44,0.0,877.4,6.45,20.5,58,30.5,10.3,0,5,7,0,2026-03-10T12:25:39.837938+05:30
Dalhousie,Himachal Pradesh,32.5387,75.971,22.4,36,0.0,812.3,6.1,19.4,90,53.0,20.0,0,5,7,0,2026-03-10T12:25:39.837946+05:30
Patiala,Punjab,30.3398,76.3869,30.5,59,0.0,986.2,5.9,18.4,168,163.0,82.9,0,5,3,1,2026-03-10T12:25:39.837953+05:30
Bhatinda,Punjab,30.211,74.9455,32.2,47,0.0,991.5,6.45,15.5,155,116.2,47.5,0,5,7,1,2026-03-10T12:25:39.837961+05:30
Rohtak,Haryana,28.8955,76.6066,32.0,48,0.0,989.5,5.35,19.8,501,358.6,109.2,0,5,3,1,2026-03-10T12:25:39.837967+05:30
Panipat,Haryana,29.3909,76.9635,30.9,55,0.0,988.4,5.9,16.6,568,310.1,100.1,0,5,3,1,2026-03-10T12:25:39.837974+05:30
Mathura,Uttar Pradesh,27.4924,77.6737,34.3,36,0.0,994.3,6.35,23.8,351,542.0,125.3,0,5,7,1,2026-03-10T12:25:39.837981+05:30
Vrindavan,Uttar Pradesh,27.5823,77.7027,33.6,40,0.0,994.8,6.3,24.8,351,542.0,125.3,0,5,7,1,2026-03-10T12:25:39.837988+05:30
Ayodhya,Uttar Pradesh,26.7922,82.1998,30.5,57,0.0,1003.2,6.75,19.4,190,108.5,98.5,0,5,4,1,2026-03-10T12:25:39.837994+05:30
Ratlam,Madhya Pradesh,23.3315,75.0367,35.2,21,0.0,961.6,7.55,18.4,71,15.9,9.0,0,5,10,0,2026-03-10T12:25:39.838001+05:30
Sagar,Madhya Pradesh,23.8388,78.7378,35.2,24,0.0,957.3,7.5,19.8,46,51.7,16.9,0,5,10,0,2026-03-10T12:25:39.838008+05:30
Satna,Madhya Pradesh,24.6005,80.8322,33.8,35,0.0,978.2,7.5,20.2,124,125.3,65.9,0,5,7,1,2026-03-10T12:25:39.838015+05:30
Akola,Maharashtra,20.7002,77.0082,37.3,20,0.0,980.7,8.0,18.4,68,18.7,11.8,0,5,10,0,2026-03-10T12:25:39.838023+05:30
Amravati,Maharashtra,20.9374,77.7796,37.2,19,0.0,973.2,7.95,19.4,71,21.0,12.4,0,5,10,0,2026-03-10T12:25:39.838030+05:30
Latur,Maharashtra,18.4088,76.5604,33.1,34,0.0,945.4,8.4,26.6,95,48.9,39.1,0,5,7,0,2026-03-10T12:25:39.838037+05:30
Nanded,Maharashtra,19.1383,77.3091,35.7,29,0.0,974.1,8.2,19.8,117,45.6,37.1,0,5,10,0,2026-03-10T12:25:39.838044+05:30
Gulbarga,Karnataka,17.3297,76.8343,33.7,39,0.0,964.1,8.5,30.6,105,61.0,49.6,0,5,7,1,2026-03-10T12:25:39.838050+05:30
Bidar,Karnataka,17.9104,77.5199,33.3,35,0.0,940.9,8.45,31.0,119,61.9,50.8,0,5,7,0,2026-03-10T12:25:39.838056+05:30
Hospet,Karnataka,15.2689,76.3909,32.5,33,0.0,960.4,8.8,36.4,112,64.0,49.8,0,5,7,0,2026-03-10T12:25:39.838063+05:30
Tirupur,Tamil Nadu,11.1085,77.3411,32.3,32,0.0,979.6,9.25,43.9,126,51.8,39.1,0,5,7,0,2026-03-10T12:25:39.838069+05:30
Alappuzha,Kerala,9.4981,76.3388,28.2,74,0.0,1011.7,9.05,33.5,150,64.7,55.9,7,0,4,1,2026-03-10T12:25:39.838076+05:30
Munnar,Kerala,10.0889,77.0595,29.7,28,0.0,861.9,9.55,27.4,116,24.5,18.2,4,5,7,0,2026-03-10T12:25:39.838083+05:30
Silchar,Assam,24.8333,92.7789,30.8,56,0.0,1010.7,7.65,13.3,170,92.7,80.6,0,0,4,1,2026-03-10T12:25:39.838090+05:30
Dibrugarh,Assam,27.4728,94.912,29.2,60,0.0,1001.1,7.4,15.5,166,89.9,77.3,4,5,4,1,2026-03-10T12:25:39.838096+05:30
