city,state,latitude,longitude,temp,humidity,rain,pressure,uv_index,wind_gusts,aqi,pm10,pm2_5,no2,co,o3,so2,mosquito_risk,arthritis_risk,migraine_risk,frizz_risk,updated_at
Delhi,Delhi,28.6139,77.209,42.0,13,0.0,980.0,7.75,43.9,625,577.4,93.6,2.6,218.0,175.0,12.2,0,5,10,0,2026-05-24T12:53:18.005456+05:30
Mumbai,Maharashtra,19.076,72.8777,33.2,62,0.0,1010.7,7.15,46.8,40,13.9,10.4,3.3,212.0,98.0,6.4,3,0,4,1,2026-05-24T12:53:18.005509+05:30
Bangalore,Karnataka,12.9716,77.5946,29.0,59,0.0,913.6,4.45,33.8,52,17.6,13.0,1.4,204.0,102.0,2.3,4,5,3,1,2026-05-24T12:53:18.005526+05:30
Hyderabad,Telangana,17.385,78.4867,37.4,32,0.0,953.7,9.25,47.5,78,19.0,14.6,1.2,205.0,131.0,5.1,0,5,10,1,2026-05-24T12:53:18.005536+05:30
Chennai,Tamil Nadu,13.0827,80.2707,38.1,42,0.0,1005.4,8.6,40.0,80,31.8,25.0,4.0,267.0,162.0,9.6,0,5,7,1,2026-05-24T12:53:18.005545+05:30
Kolkata,West Bengal,22.5726,88.3639,36.0,59,0.0,1002.4,8.95,40.3,94,50.3,35.9,1.7,254.0,136.0,7.5,0,5,7,1,2026-05-24T12:53:18.005552+05:30
Pune,Maharashtra,18.5204,73.8567,34.0,42,0.2,950.7,8.2,44.3,38,13.2,8.6,1.2,136.0,89.0,3.7,3,5,7,1,2026-05-24T12:53:18.005559+05:30
Ahmedabad,Gujarat,23.0225,72.5714,39.0,36,0.0,1002.4,8.15,39.2,61,18.3,12.8,0.9,132.0,81.0,2.9,0,5,7,1,2026-05-24T12:53:18.005566+05:30
Jaipur,Rajasthan,26.9124,75.7873,41.5,15,0.0,958.9,8.25,47.9,194,464.7,86.4,0.7,148.0,112.0,3.7,0,5,10,0,2026-05-24T12:53:18.005580+05:30
Lucknow,Uttar Pradesh,26.8467,80.9462,42.0,14,0.0,989.2,8.2,48.6,185,339.9,71.5,0.9,206.0,168.0,8.4,0,5,10,0,2026-05-24T12:53:18.005587+05:30
Kanpur,Uttar Pradesh,26.4499,80.3319,42.5,13,0.0,988.1,8.2,44.3,514,558.8,89.9,1.2,183.0,162.0,8.2,0,5,10,0,2026-05-24T12:53:18.005594+05:30
Chandigarh,Chandigarh,30.7333,76.7794,39.3,16,0.0,965.7,7.75,47.9,73,46.8,18.3,1.3,173.0,150.0,7.1,0,5,10,0,2026-05-24T12:53:18.005601+05:30
Srinagar,Jammu and Kashmir,34.0837,74.7973,23.6,43,0.0,844.4,8.7,29.9,79,24.4,10.9,0.9,192.0,143.0,2.6,0,5,7,0,2026-05-24T12:53:18.005608+05:30
Jammu,Jammu and Kashmir,32.7266,74.857,36.5,24,0.0,970.0,8.55,36.4,68,51.2,17.1,0.6,184.0,141.0,2.3,0,5,10,0,2026-05-24T12:53:18.005615+05:30
Amritsar,Punjab,31.634,74.8723,37.6,22,0.0,977.6,8.4,42.5,92,44.5,18.3,0.8,200.0,152.0,3.3,0,5,10,0,2026-05-24T12:53:18.005622+05:30
Ludhiana,Punjab,30.901,75.8573,40.0,15,0.0,975.5,8.0,30.6,80,48.9,19.1,0.9,214.0,153.0,4.1,0,5,10,0,2026-05-24T12:53:18.005628+05:30
Jalandhar,Punjab,31.326,75.5762,40.0,18,0.0,976.4,8.2,30.6,86,60.5,21.9,0.8,237.0,158.0,3.0,0,5,10,0,2026-05-24T12:53:18.005635+05:30
Dehradun,Uttarakhand,30.6284,78.0322,28.2,27,0.0,832.5,8.2,47.2,59,35.9,11.8,0.4,162.0,129.0,0.7,4,5,7,0,2026-05-24T12:53:18.005642+05:30
Shimla,Himachal Pradesh,31.1048,77.1734,24.5,25,0.0,788.8,8.25,65.5,60,41.8,14.3,0.4,138.0,127.0,1.7,0,5,7,0,2026-05-24T12:53:18.005653+05:30
Manali,Himachal Pradesh,32.2396,77.1887,24.8,29,0.1,821.6,9.45,49.7,72,27.1,8.8,2.2,124.0,140.0,0.3,3,5,7,0,2026-05-24T12:53:18.005660+05:30
Gurgaon,Haryana,28.4595,77.0266,41.2,14,0.0,978.9,7.8,38.9,1124,1706.2,214.7,2.3,208.0,178.0,11.9,0,5,10,0,2026-05-24T12:53:18.005667+05:30
Noida,Uttar Pradesh,28.5355,77.391,42.2,13,0.0,981.2,7.75,40.0,1124,1706.2,214.7,2.3,235.0,178.0,11.9,0,5,10,0,2026-05-24T12:53:18.005673+05:30
Ghaziabad,Uttar Pradesh,28.6692,77.4538,41.4,15,0.0,979.4,7.75,42.8,439,451.7,80.6,2.7,217.0,186.0,14.7,0,5,10,0,2026-05-24T12:53:18.005679+05:30
Faridabad,Haryana,28.4089,77.3178,41.8,13,0.0,980.6,7.8,46.1,1124,1706.2,214.7,2.3,220.0,178.0,11.9,0,5,10,0,2026-05-24T12:53:18.005686+05:30
Meerut,Uttar Pradesh,28.9845,77.7064,40.3,17,0.0,978.2,7.65,45.4,439,451.7,80.6,2.7,202.0,186.0,14.7,0,5,10,0,2026-05-24T12:53:18.005694+05:30
Agra,Uttar Pradesh,27.1767,78.0081,42.4,12,0.0,984.8,8.1,41.8,810,998.4,123.9,0.5,195.0,171.0,9.1,0,5,10,0,2026-05-24T12:53:18.005701+05:30
Varanasi,Uttar Pradesh,25.3176,82.9739,43.0,15,0.0,993.1,8.75,46.4,152,314.8,61.9,0.5,202.0,157.0,6.3,0,5,10,0,2026-05-24T12:53:18.005709+05:30
Prayagraj,Uttar Pradesh,25.4358,81.8463,42.6,15,0.0,992.0,8.6,46.4,154,321.3,66.8,0.6,179.0,159.0,7.0,0,5,10,0,2026-05-24T12:53:18.005715+05:30
Gorakhpur,Uttar Pradesh,26.7606,83.3732,38.9,31,0.0,992.9,8.6,34.9,152,140.2,63.3,1.6,287.0,220.0,12.8,0,5,10,1,2026-05-24T12:53:18.005739+05:30
Bareilly,Uttar Pradesh,28.367,79.4304,38.3,24,0.0,982.8,8.05,43.6,123,47.4,26.7,1.2,227.0,189.0,9.5,0,5,10,0,2026-05-24T12:53:18.005746+05:30
Aligarh,Uttar Pradesh,27.8974,78.088,41.0,17,0.0,982.5,7.9,42.8,719,1154.8,155.5,1.8,220.0,191.0,15.8,0,5,10,0,2026-05-24T12:53:18.005753+05:30
Moradabad,Uttar Pradesh,28.8386,78.7733,38.7,26,0.0,979.9,7.85,48.2,133,67.8,33.4,1.9,246.0,187.0,9.9,0,5,10,0,2026-05-24T12:53:18.005760+05:30
Saharanpur,Uttar Pradesh,29.9637,77.546,39.2,19,0.0,971.9,7.4,54.0,84,88.7,24.2,2.0,197.0,170.0,9.4,0,5,10,0,2026-05-24T12:53:18.005766+05:30
Jhansi,Uttar Pradesh,25.4484,78.5685,42.0,15,0.0,976.1,8.45,45.7,92,135.0,39.6,0.9,142.0,124.0,5.7,0,5,10,0,2026-05-24T12:53:21.335190+05:30
Surat,Gujarat,21.1702,72.8311,36.7,47,0.0,1008.0,7.7,43.9,55,21.1,15.9,8.7,293.0,62.0,32.2,0,0,7,1,2026-05-24T12:53:21.335226+05:30
Vadodara,Gujarat,22.3072,73.1812,39.3,34,0.0,1004.6,8.1,42.8,55,21.7,14.6,1.3,131.0,94.0,4.9,0,5,7,1,2026-05-24T12:53:21.335237+05:30
Rajkot,Gujarat,22.3039,70.8022,38.2,38,0.0,995.2,7.7,47.2,60,17.6,11.6,0.8,116.0,80.0,4.0,0,5,10,1,2026-05-24T12:53:21.335246+05:30
Thane,Maharashtra,19.2183,72.9781,35.2,53,0.1,1009.8,7.3,40.0,40,13.9,10.4,3.3,222.0,98.0,6.4,3,0,7,1,2026-05-24T12:53:21.335254+05:30
Nagpur,Maharashtra,21.1458,79.0882,43.0,14,0.0,971.7,8.9,46.8,67,60.5,26.8,3.4,153.0,145.0,14.3,0,5,10,0,2026-05-24T12:53:21.335262+05:30
Nashik,Maharashtra,19.9975,73.7898,32.7,56,0.0,948.2,8.15,46.8,32,10.3,6.5,0.6,125.0,75.0,0.9,0,5,7,1,2026-05-24T12:53:21.335269+05:30
Aurangabad,Maharashtra,19.8762,75.3433,38.0,22,0.0,946.0,8.95,49.0,51,25.7,12.4,0.7,134.0,107.0,3.0,0,5,10,0,2026-05-24T12:53:21.335277+05:30
Solapur,Maharashtra,17.6599,75.9064,36.7,36,0.0,959.0,9.05,46.8,67,22.9,15.9,1.0,141.0,111.0,2.8,0,5,10,1,2026-05-24T12:53:21.335285+05:30
Kolhapur,Maharashtra,16.705,74.2433,31.8,53,0.0,951.0,8.7,42.8,40,13.0,9.1,1.1,139.0,83.0,1.5,0,5,7,1,2026-05-24T12:53:21.335292+05:30
Goa,Goa,15.2993,74.124,32.5,63,0.1,1000.2,5.75,28.8,39,12.8,8.8,0.5,164.0,67.0,1.0,6,5,0,1,2026-05-24T12:53:21.335300+05:30
Jodhpur,Rajasthan,26.2389,73.0243,39.8,19,0.0,982.4,8.45,54.7,183,433.1,83.1,0.7,124.0,98.0,3.7,0,5,10,0,2026-05-24T12:53:21.335308+05:30
Udaipur,Rajasthan,24.5854,73.7125,37.5,25,0.0,948.0,8.8,54.0,79,54.2,21.4,0.5,123.0,98.0,3.0,0,5,10,0,2026-05-24T12:53:21.335315+05:30
Kota,Rajasthan,25.2138,75.8648,42.5,17,0.0,978.0,8.4,44.3,89,134.1,39.3,0.8,133.0,104.0,4.2,0,5,10,0,2026-05-24T12:53:21.335322+05:30
Bikaner,Rajasthan,28.0229,73.3119,43.0,11,0.0,978.4,8.45,57.2,152,183.5,85.0,0.5,122.0,105.0,3.3,0,5,10,0,2026-05-24T12:53:21.335330+05:30
Ajmer,Rajasthan,26.4499,74.6399,38.1,19,0.0,954.9,8.4,63.0,111,136.4,43.8,0.5,129.0,99.0,3.2,0,5,10,0,2026-05-24T12:53:21.335337+05:30
Gwalior,Madhya Pradesh,26.2183,78.1828,42.2,14,0.0,980.9,8.25,46.1,108,127.6,37.8,0.6,174.0,142.0,5.6,0,5,10,0,2026-05-24T12:53:21.335344+05:30
Indore,Madhya Pradesh,22.7196,75.8577,39.0,22,0.0,949.6,8.7,45.4,63,48.3,19.8,0.8,149.0,114.0,4.5,0,5,10,0,2026-05-24T12:53:21.335350+05:30
Bhopal,Madhya Pradesh,23.2599,77.4126,41.5,14,0.0,953.8,8.7,45.7,76,85.9,27.9,0.6,142.0,117.0,3.5,0,5,10,0,2026-05-24T12:53:21.335357+05:30
Jabalpur,Madhya Pradesh,23.1815,79.9864,42.2,14,0.0,960.5,8.85,38.5,76,89.6,32.0,0.7,148.0,135.0,5.8,0,5,10,0,2026-05-24T12:53:21.335363+05:30
Ujjain,Madhya Pradesh,23.1765,75.7885,39.4,25,0.0,954.9,8.6,45.4,65,45.4,19.7,0.6,141.0,111.0,4.5,0,5,10,0,2026-05-24T12:53:21.335371+05:30
Visakhapatnam,Andhra Pradesh,17.6868,83.2185,38.2,52,0.0,999.7,9.1,32.8,128,81.3,72.9,15.5,1295.0,264.0,68.2,0,5,10,1,2026-05-24T12:53:21.335378+05:30
Vijayawada,Andhra Pradesh,16.5062,80.648,41.0,32,0.0,999.5,9.1,49.3,105,31.3,25.8,1.5,203.0,154.0,6.7,0,5,10,1,2026-05-24T12:53:21.335385+05:30
Guntur,Andhra Pradesh,16.3067,80.4365,40.9,32,0.0,1000.8,9.15,48.2,97,28.6,22.9,1.3,196.0,146.0,5.6,0,5,7,1,2026-05-24T12:53:21.335393+05:30
Nellore,Andhra Pradesh,14.4426,79.9865,39.4,34,0.0,1003.7,8.9,45.0,66,21.9,18.1,1.9,180.0,144.0,7.0,0,5,7,1,2026-05-24T12:53:21.335401+05:30
Kurnool,Andhra Pradesh,15.8281,78.0373,36.8,38,0.0,977.3,9.05,47.2,61,18.7,15.3,1.4,162.0,132.0,8.3,0,5,10,1,2026-05-24T12:53:21.335409+05:30
Kakinada,Andhra Pradesh,16.9891,82.2475,41.5,32,0.0,1003.0,8.65,36.4,87,41.1,35.0,2.9,210.0,197.0,6.8,0,5,7,1,2026-05-24T12:53:21.335417+05:30
Tirupati,Andhra Pradesh,13.6288,79.4192,38.8,34,0.0,989.7,9.1,42.5,69,27.4,22.9,1.9,163.0,138.0,3.9,0,5,10,1,2026-05-24T12:53:21.335424+05:30
Warangal,Telangana,17.9689,79.5941,40.8,22,0.0,977.3,9.0,49.3,104,39.1,23.6,1.6,207.0,149.0,6.2,0,5,10,0,2026-05-24T12:53:21.335431+05:30
Nizamabad,Telangana,18.6725,78.0941,39.5,23,0.0,965.3,9.1,45.4,79,38.4,18.5,0.8,155.0,126.0,3.6,0,5,10,0,2026-05-24T12:53:21.335438+05:30
Mysore,Karnataka,12.2958,76.6396,31.7,51,0.0,930.4,7.55,42.5,42,13.6,8.5,1.1,140.0,87.0,1.4,0,5,7,1,2026-05-24T12:53:21.335444+05:30
Mangalore,Karnataka,12.9141,74.856,30.4,72,0.0,1008.8,8.3,35.3,55,11.9,7.9,1.0,119.0,70.0,1.2,3,0,4,1,2026-05-24T12:53:21.335451+05:30
Hubli-Dharwad,Karnataka,15.3647,75.124,29.0,61,0.0,943.4,9.1,35.6,26,8.9,6.2,0.9,139.0,75.0,1.0,7,5,7,1,2026-05-24T12:53:21.335459+05:30
Belgaum,Karnataka,15.8497,74.4977,31.0,51,0.0,929.0,9.05,38.2,24,7.3,5.3,0.8,129.0,71.0,1.2,0,5,7,1,2026-05-24T12:53:24.659042+05:30
Coimbatore,Tamil Nadu,11.0168,76.9558,32.8,48,0.1,962.6,8.6,48.2,36,13.0,8.6,1.0,142.0,86.0,1.8,3,5,7,1,2026-05-24T12:53:24.659078+05:30
Madurai,Tamil Nadu,9.9252,78.1198,38.2,34,0.0,992.5,8.9,44.3,61,13.1,7.4,0.7,138.0,102.0,1.6,0,5,10,1,2026-05-24T12:53:24.659089+05:30
Trichy,Tamil Nadu,10.7905,78.7047,36.5,43,0.0,999.0,8.4,52.6,53,14.6,9.5,1.1,153.0,100.0,2.2,0,5,10,1,2026-05-24T12:53:24.659098+05:30
Salem,Tamil Nadu,11.6643,78.146,36.4,41,0.0,977.5,8.9,49.0,67,13.8,9.7,2.5,152.0,112.0,7.9,0,5,10,1,2026-05-24T12:53:24.659107+05:30
Tirunelveli,Tamil Nadu,8.7139,77.7567,33.5,51,0.2,1003.7,8.85,44.3,28,5.4,4.0,0.9,116.0,79.0,1.2,3,5,4,1,2026-05-24T12:53:24.659114+05:30
Vellore,Tamil Nadu,12.9165,79.1325,37.5,37,0.0,983.5,9.05,47.2,67,19.4,15.1,0.8,161.0,124.0,2.3,0,5,10,1,2026-05-24T12:53:24.659122+05:30
Erode,Tamil Nadu,11.341,77.7172,37.1,38,0.0,988.8,8.95,62.6,52,15.3,9.8,1.2,164.0,106.0,1.9,0,5,10,1,2026-05-24T12:53:24.659130+05:30
Kochi,Kerala,9.9312,76.2673,27.2,87,0.3,1011.6,8.6,36.4,54,11.0,7.4,2.2,103.0,75.0,2.5,10,0,4,1,2026-05-24T12:53:24.659138+05:30
Thiruvananthapuram,Kerala,8.5241,76.9366,28.0,84,0.2,1010.7,8.3,46.4,36,13.0,7.5,0.7,101.0,71.0,0.7,10,0,4,1,2026-05-24T12:53:24.659145+05:30
Kozhikode,Kerala,11.2588,75.7804,30.3,71,0.0,1009.8,8.35,37.4,34,12.1,7.1,0.7,136.0,74.0,0.7,3,0,4,1,2026-05-24T12:53:24.659152+05:30
Thrissur,Kerala,10.5276,76.2144,29.5,76,0.1,1009.5,8.2,37.4,57,11.3,7.9,1.2,112.0,70.0,1.3,10,0,4,1,2026-05-24T12:53:24.659160+05:30
Kannur,Kerala,11.8745,75.3704,30.9,69,0.0,1009.0,7.2,41.4,49,11.8,7.6,1.1,120.0,66.0,1.1,3,0,4,1,2026-05-24T12:53:24.659166+05:30
Patna,Bihar,25.5941,85.1376,39.8,30,0.0,996.1,8.8,31.7,164,177.4,67.3,2.1,262.0,228.0,14.1,0,5,10,1,2026-05-24T12:53:24.659173+05:30
Gaya,Bihar,24.7914,85.0002,41.1,20,0.0,989.9,8.65,30.6,156,322.2,63.3,0.4,198.0,171.0,7.4,0,5,10,0,2026-05-24T12:53:24.659181+05:30
Muzaffarpur,Bihar,26.1209,85.3647,35.2,57,0.0,996.4,8.8,29.9,160,112.5,58.4,2.3,404.0,214.0,15.8,0,5,10,1,2026-05-24T12:53:24.659187+05:30
Bhagalpur,Bihar,25.2425,87.0117,37.7,46,0.0,996.7,8.75,25.6,154,109.9,58.2,3.1,312.0,214.0,25.4,0,5,10,1,2026-05-24T12:53:24.659194+05:30
Ranchi,Jharkhand,23.3441,85.3096,36.5,25,0.0,936.7,9.3,34.6,112,200.7,48.1,0.6,169.0,161.0,8.4,0,5,10,0,2026-05-24T12:53:24.659202+05:30
Jamshedpur,Jharkhand,22.8046,86.2029,39.8,33,0.1,987.3,9.1,49.7,142,88.2,50.9,2.3,236.0,216.0,24.0,3,5,10,1,2026-05-24T12:53:24.659208+05:30
Dhanbad,Jharkhand,23.7957,86.4304,40.2,20,0.0,976.8,9.05,36.0,157,173.7,65.7,7.6,181.0,224.0,47.6,0,5,10,0,2026-05-24T12:53:24.659215+05:30
Bokaro,Jharkhand,23.6693,86.1511,40.0,21,0.0,980.5,9.1,30.2,158,237.5,61.7,7.8,203.0,199.0,41.0,0,5,10,0,2026-05-24T12:53:24.659222+05:30
Bhubaneswar,Odisha,20.2961,85.8245,37.3,56,0.0,998.9,9.15,42.8,88,40.6,32.2,1.4,226.0,151.0,7.2,0,5,10,1,2026-05-24T12:53:24.659229+05:30
Cuttack,Odisha,20.4625,85.8828,37.1,59,0.0,1000.5,9.2,40.0,88,40.6,32.2,1.4,262.0,151.0,7.2,0,5,7,1,2026-05-24T12:53:24.659236+05:30
Rourkela,Odisha,22.2604,84.8536,40.7,34,0.0,981.5,8.95,44.3,132,87.1,42.6,1.4,246.0,203.0,16.0,0,5,10,1,2026-05-24T12:53:24.659243+05:30
Raipur,Chhattisgarh,21.2514,81.6296,43.0,15,0.0,972.3,9.0,36.7,105,76.4,32.5,2.8,138.0,151.0,16.7,0,5,10,0,2026-05-24T12:53:24.659250+05:30
Bhilai,Chhattisgarh,21.1938,81.3509,42.0,17,0.0,972.5,9.0,30.2,93,69.6,29.3,3.6,132.0,132.0,15.0,0,5,10,0,2026-05-24T12:53:24.659257+05:30
Guwahati,Assam,26.1158,91.7086,30.4,66,0.0,999.0,8.75,24.8,70,26.3,13.0,1.3,294.0,106.0,3.1,3,5,7,1,2026-05-24T12:53:24.659264+05:30
Agartala,Tripura,23.8315,91.2868,30.1,80,0.0,1004.1,7.8,43.9,76,31.3,18.1,2.3,165.0,112.0,2.6,3,5,4,1,2026-05-24T12:53:24.659271+05:30
Shillong,Meghalaya,25.5788,91.8933,24.8,64,0.0,857.6,9.15,49.0,50,31.7,11.5,1.0,192.0,105.0,2.7,3,5,7,1,2026-05-24T12:53:24.659278+05:30
Imphal,Manipur,24.817,93.9368,28.5,60,0.1,922.9,9.05,38.9,73,59.0,21.2,0.3,190.0,91.0,1.9,7,5,7,1,2026-05-24T12:53:24.659285+05:30
Aizawl,Mizoram,23.7271,92.7176,28.4,56,0.0,893.2,8.65,38.9,73,31.9,13.2,0.2,168.0,81.0,1.2,4,5,7,1,2026-05-24T12:53:24.659292+05:30
Kohima,Nagaland,25.6701,94.1077,25.8,66,0.1,856.0,9.3,33.1,51,46.7,17.5,0.3,199.0,99.0,1.9,10,5,7,1,2026-05-24T12:53:24.659299+05:30
Gangtok,Sikkim,27.3314,88.6138,22.6,66,0.0,837.7,8.8,34.9,103,53.2,22.8,0.5,278.0,150.0,3.5,3,5,7,0,2026-05-24T12:53:24.659305+05:30
Siliguri,West Bengal,26.7271,88.3953,31.4,62,0.1,990.1,8.7,26.6,109,70.8,39.1,1.3,402.0,162.0,7.2,6,5,7,1,2026-05-24T12:53:27.993700+05:30
Durgapur,West Bengal,23.5204,87.3119,37.3,56,0.0,991.1,8.9,48.6,153,90.8,70.8,7.7,655.0,242.0,52.1,0,5,10,1,2026-05-24T12:53:27.993750+05:30
Asansol,West Bengal,23.6739,86.9524,37.7,45,0.1,990.1,8.9,37.8,152,114.6,70.5,6.7,359.0,244.0,48.4,3,5,10,1,2026-05-24T12:53:27.993761+05:30
Pondicherry,Puducherry,11.9139,79.8145,35.8,50,0.0,1007.0,8.7,47.9,91,29.1,22.8,5.8,211.0,138.0,12.4,0,5,7,1,2026-05-24T12:53:27.993770+05:30
Port Blair,Andaman and Nicobar Islands,11.6234,92.7265,29.1,85,0.1,1007.5,8.9,34.2,30,8.8,5.1,0.3,105.0,60.0,0.4,10,5,4,1,2026-05-24T12:53:27.993779+05:30
Haridwar,Uttarakhand,29.9457,78.1642,39.3,21,0.0,969.9,7.55,57.2,74,28.5,15.8,1.3,191.0,169.0,6.2,0,5,10,0,2026-05-24T12:53:27.993787+05:30
Rishikesh,Uttarakhand,30.0869,78.2676,38.0,22,0.0,962.9,7.65,49.7,75,40.6,17.0,0.8,181.0,155.0,3.8,0,5,10,0,2026-05-24T12:53:27.993795+05:30
Nainital,Uttarakhand,29.3919,79.4542,26.0,27,0.1,808.4,8.5,53.3,75,41.1,19.1,1.3,194.0,169.0,6.9,7,5,7,0,2026-05-24T12:53:27.993803+05:30
Mussoorie,Uttarakhand,30.4599,78.0664,24.8,33,0.0,805.6,8.05,67.0,71,34.5,16.7,0.9,155.0,150.0,3.2,0,5,7,0,2026-05-24T12:53:27.993810+05:30
Dharamshala,Himachal Pradesh,32.219,76.3234,28.0,30,0.0,870.5,8.4,37.1,46,29.5,9.5,0.2,154.0,132.0,0.8,4,5,7,0,2026-05-24T12:53:27.993817+05:30
Dalhousie,Himachal Pradesh,32.5387,75.971,24.2,31,0.0,807.4,8.65,43.2,67,40.6,14.5,0.9,132.0,143.0,1.3,0,5,7,0,2026-05-24T12:53:27.993824+05:30
Patiala,Punjab,30.3398,76.3869,40.5,14,0.0,975.2,7.65,38.9,473,737.6,85.2,1.2,182.0,160.0,7.7,0,5,10,0,2026-05-24T12:53:27.993832+05:30
Bhatinda,Punjab,30.211,74.9455,41.5,16,0.0,980.0,8.3,34.9,92,60.1,22.6,2.4,193.0,180.0,16.3,0,5,10,0,2026-05-24T12:53:27.993838+05:30
Rohtak,Haryana,28.8955,76.6066,41.0,15,0.0,979.2,7.75,32.0,819,832.6,109.2,0.7,200.0,161.0,5.5,0,5,10,0,2026-05-24T12:53:27.993845+05:30
Panipat,Haryana,29.3909,76.9635,41.1,15,0.0,977.3,7.6,44.6,1664,2190.5,237.0,2.0,168.0,159.0,9.5,0,5,10,0,2026-05-24T12:53:27.993852+05:30
Mathura,Uttar Pradesh,27.4924,77.6737,42.3,13,0.0,984.0,8.0,40.0,678,1028.2,125.7,0.4,199.0,163.0,7.3,0,5,10,0,2026-05-24T12:53:27.993859+05:30
Vrindavan,Uttar Pradesh,27.5823,77.7027,42.0,13,0.0,984.3,8.0,38.2,678,1028.2,125.7,0.4,200.0,163.0,7.3,0,5,10,0,2026-05-24T12:53:27.993865+05:30
Ayodhya,Uttar Pradesh,26.7922,82.1998,39.4,26,0.0,991.0,8.35,37.1,154,413.5,92.0,1.1,237.0,192.0,11.8,0,5,10,1,2026-05-24T12:53:27.993872+05:30
Ratlam,Madhya Pradesh,23.3315,75.0367,38.1,29,0.0,956.2,8.55,49.7,64,34.2,17.5,0.6,130.0,108.0,4.7,0,5,10,1,2026-05-24T12:53:27.993879+05:30
Sagar,Madhya Pradesh,23.8388,78.7378,41.0,15,0.0,950.3,8.75,46.4,78,136.9,37.4,0.6,133.0,121.0,4.3,0,5,10,0,2026-05-24T12:53:27.993886+05:30
Satna,Madhya Pradesh,24.6005,80.8322,41.3,16,0.0,969.5,8.8,47.2,142,113.2,34.8,0.5,150.0,126.0,3.5,0,5,10,0,2026-05-24T12:53:27.993893+05:30
Akola,Maharashtra,20.7002,77.0082,40.2,28,0.0,975.2,8.85,51.5,57,38.0,16.6,1.2,134.0,110.0,6.1,0,5,10,1,2026-05-24T12:53:27.993901+05:30
Amravati,Maharashtra,20.9374,77.7796,41.4,18,0.0,967.0,8.85,47.5,58,43.7,18.6,1.4,141.0,115.0,7.1,0,5,10,0,2026-05-24T12:53:27.993909+05:30
Latur,Maharashtra,18.4088,76.5604,36.5,31,0.0,941.8,9.05,38.9,69,20.4,12.4,0.7,156.0,116.0,4.1,0,5,10,1,2026-05-24T12:53:27.993916+05:30
Nanded,Maharashtra,19.1383,77.3091,39.7,24,0.0,969.1,9.0,38.9,61,36.0,17.2,0.9,150.0,117.0,3.5,0,5,10,0,2026-05-24T12:53:27.993924+05:30
Gulbarga,Karnataka,17.3297,76.8343,36.8,37,0.0,959.9,6.65,45.4,69,18.9,13.8,1.1,154.0,116.0,3.2,0,5,10,1,2026-05-24T12:53:27.993931+05:30
Bidar,Karnataka,17.9104,77.5199,36.2,34,0.0,937.4,9.1,46.4,80,21.7,14.3,0.9,163.0,129.0,5.9,0,5,10,1,2026-05-24T12:53:27.993937+05:30
Hospet,Karnataka,15.2689,76.3909,32.2,49,0.0,957.8,8.9,40.7,37,13.5,9.7,1.4,160.0,83.0,2.2,0,5,7,1,2026-05-24T12:53:27.993944+05:30
Tirupur,Tamil Nadu,11.1085,77.3411,36.2,42,0.0,975.5,8.9,49.7,52,14.7,9.5,1.2,145.0,100.0,2.1,0,5,10,1,2026-05-24T12:53:27.993951+05:30
Alappuzha,Kerala,9.4981,76.3388,27.0,89,0.2,1011.7,8.5,37.4,47,13.6,8.7,2.0,98.0,80.0,2.3,10,0,4,1,2026-05-24T12:53:27.993957+05:30
Munnar,Kerala,10.0889,77.0595,21.0,79,0.0,859.5,8.95,31.3,25,4.3,3.3,1.1,113.0,71.0,1.1,3,5,7,1,2026-05-24T12:53:27.993964+05:30
Silchar,Assam,24.8333,92.7789,30.2,74,0.0,1003.4,8.95,43.2,65,17.8,11.3,0.9,214.0,92.0,2.3,3,5,4,1,2026-05-24T12:53:27.993971+05:30
Dibrugarh,Assam,27.4728,94.912,26.4,89,0.0,993.5,8.45,37.1,59,15.7,10.4,1.7,229.0,104.0,1.5,7,5,7,1,2026-05-24T12:53:27.993978+05:30
