city,state,latitude,longitude,temp,humidity,rain,pressure,uv_index,wind_gusts,aqi,pm10,pm2_5,no2,co,o3,so2,mosquito_risk,arthritis_risk,migraine_risk,frizz_risk,updated_at
Delhi,Delhi,28.6139,77.209,25.9,96,0.4,973.5,4.75,25.2,112,45.9,45.5,44.5,624.0,41.0,18.8,10,5,3,1,2026-07-08T23:49:51.933835+05:30
Mumbai,Maharashtra,19.076,72.8777,28.0,89,0.0,1004.4,5.85,60.1,61,33.1,15.6,6.1,166.0,37.0,4.5,7,5,0,1,2026-07-08T23:49:51.933875+05:30
Bangalore,Karnataka,12.9716,77.5946,21.5,87,0.0,911.2,5.95,62.6,23,7.4,5.8,10.8,229.0,33.0,3.8,3,5,3,1,2026-07-08T23:49:51.933891+05:30
Hyderabad,Telangana,17.385,78.4867,24.8,85,0.0,949.7,8.45,62.6,32,9.0,6.7,8.2,251.0,44.0,4.5,3,5,7,1,2026-07-08T23:49:51.933901+05:30
Chennai,Tamil Nadu,13.0827,80.2707,31.6,54,0.0,1005.0,8.2,52.2,65,19.4,14.4,14.9,343.0,53.0,7.1,0,5,4,1,2026-07-08T23:49:51.933909+05:30
Kolkata,West Bengal,22.5726,88.3639,27.8,94,0.0,1000.8,7.2,40.0,69,23.3,17.3,6.1,175.0,64.0,5.9,7,5,4,1,2026-07-08T23:49:51.933918+05:30
Pune,Maharashtra,18.5204,73.8567,24.1,90,0.0,944.7,7.75,59.0,19,3.5,2.8,7.6,141.0,37.0,5.7,3,5,7,1,2026-07-08T23:49:51.933924+05:30
Ahmedabad,Gujarat,23.0225,72.5714,29.1,79,0.0,994.5,6.85,40.0,78,43.4,23.8,8.1,281.0,54.0,5.5,7,5,7,1,2026-07-08T23:49:51.933931+05:30
Jaipur,Rajasthan,26.9124,75.7873,27.7,87,0.0,951.0,8.1,36.7,97,89.9,42.5,32.1,481.0,43.0,11.3,7,5,7,1,2026-07-08T23:49:51.933938+05:30
Lucknow,Uttar Pradesh,26.8467,80.9462,26.5,97,0.3,985.0,6.65,47.9,69,16.5,16.5,12.7,303.0,76.0,7.0,10,5,7,1,2026-07-08T23:49:51.933949+05:30
Kanpur,Uttar Pradesh,26.4499,80.3319,27.3,92,0.0,982.4,7.35,43.9,59,12.3,12.1,11.5,340.0,74.0,4.2,7,5,7,1,2026-07-08T23:49:51.933956+05:30
Chandigarh,Chandigarh,30.7333,76.7794,27.1,90,0.0,960.8,4.6,29.2,123,61.7,61.5,70.3,787.0,12.0,17.4,7,5,3,1,2026-07-08T23:49:51.933963+05:30
Srinagar,Jammu and Kashmir,34.0837,74.7973,20.6,75,0.0,834.7,9.1,26.6,80,31.5,28.4,28.4,1187.0,52.0,4.7,3,5,7,0,2026-07-08T23:49:51.933970+05:30
Jammu,Jammu and Kashmir,32.7266,74.857,27.0,90,0.0,964.3,8.2,31.7,151,91.3,77.3,28.7,602.0,99.0,9.2,7,5,7,1,2026-07-08T23:49:51.933977+05:30
Amritsar,Punjab,31.634,74.8723,28.2,87,0.0,971.8,8.4,38.9,164,61.5,55.2,21.3,654.0,77.0,9.2,7,5,7,1,2026-07-08T23:49:51.933984+05:30
Ludhiana,Punjab,30.901,75.8573,28.1,90,0.0,970.2,5.95,28.1,145,72.4,68.0,51.8,725.0,16.0,16.2,7,5,3,1,2026-07-08T23:49:51.933998+05:30
Jalandhar,Punjab,31.326,75.5762,27.6,90,0.0,971.1,7.45,32.4,151,50.6,50.6,35.3,734.0,45.0,14.3,7,5,7,1,2026-07-08T23:49:51.934014+05:30
Dehradun,Uttarakhand,30.6284,78.0322,18.9,96,0.2,825.5,1.35,17.6,60,17.0,16.9,39.8,314.0,39.0,1.8,6,10,3,1,2026-07-08T23:49:51.934028+05:30
Shimla,Himachal Pradesh,31.1048,77.1734,15.8,96,0.0,779.7,3.3,17.3,58,8.4,8.1,26.7,606.0,55.0,1.3,3,10,3,0,2026-07-08T23:49:51.934044+05:30
Manali,Himachal Pradesh,32.2396,77.1887,20.5,82,0.5,815.2,6.75,39.6,48,6.7,6.7,96.5,427.0,11.0,0.1,6,5,7,1,2026-07-08T23:49:51.934054+05:30
Gurgaon,Haryana,28.4595,77.0266,25.7,98,0.5,971.9,6.45,27.7,119,47.1,46.8,51.4,664.0,44.0,20.9,10,5,7,1,2026-07-08T23:49:51.934061+05:30
Noida,Uttar Pradesh,28.5355,77.391,26.0,95,1.0,974.5,5.75,32.4,119,47.1,46.8,51.4,582.0,44.0,20.9,10,5,3,1,2026-07-08T23:49:51.934067+05:30
Ghaziabad,Uttar Pradesh,28.6692,77.4538,25.9,96,3.4,972.9,6.5,29.5,100,32.6,32.1,18.6,356.0,65.0,6.6,10,5,7,1,2026-07-08T23:49:51.934073+05:30
Faridabad,Haryana,28.4089,77.3178,26.1,95,0.6,973.9,3.65,32.4,119,47.1,46.8,51.4,495.0,44.0,20.9,10,5,3,1,2026-07-08T23:49:51.934079+05:30
Meerut,Uttar Pradesh,28.9845,77.7064,26.0,96,0.8,972.3,7.4,29.2,100,32.6,32.1,18.6,351.0,65.0,6.6,10,5,7,1,2026-07-08T23:49:51.934085+05:30
Agra,Uttar Pradesh,27.1767,78.0081,26.3,97,0.0,977.4,6.0,31.7,75,19.0,18.4,16.1,300.0,79.0,8.0,7,5,3,1,2026-07-08T23:49:51.934091+05:30
Varanasi,Uttar Pradesh,25.3176,82.9739,27.4,95,0.0,990.2,5.6,25.9,62,23.6,23.3,37.7,532.0,30.0,32.7,7,5,3,1,2026-07-08T23:49:51.934098+05:30
Prayagraj,Uttar Pradesh,25.4358,81.8463,27.8,91,0.3,988.2,6.65,37.4,59,18.4,18.3,19.2,254.0,52.0,10.1,10,5,7,1,2026-07-08T23:49:51.934105+05:30
Gorakhpur,Uttar Pradesh,26.7606,83.3732,26.7,97,0.1,990.6,6.6,36.4,76,19.6,19.5,11.5,238.0,85.0,5.2,10,5,7,1,2026-07-08T23:49:51.934111+05:30
Bareilly,Uttar Pradesh,28.367,79.4304,25.9,97,0.2,978.1,6.1,47.2,68,17.5,17.2,9.1,243.0,93.0,4.7,10,5,7,1,2026-07-08T23:49:51.934125+05:30
Aligarh,Uttar Pradesh,27.8974,78.088,26.0,97,0.1,975.2,5.8,37.1,80,19.1,19.0,15.2,306.0,77.0,8.0,10,5,3,1,2026-07-08T23:49:51.934132+05:30
Moradabad,Uttar Pradesh,28.8386,78.7733,25.9,95,0.1,974.6,7.25,44.6,80,17.6,17.3,9.0,264.0,93.0,5.7,10,5,7,1,2026-07-08T23:49:51.934138+05:30
Saharanpur,Uttar Pradesh,29.9637,77.546,27.2,94,0.2,967.6,2.35,25.6,105,79.4,78.0,70.2,633.0,2.0,20.4,10,5,3,1,2026-07-08T23:49:51.934144+05:30
Jhansi,Uttar Pradesh,25.4484,78.5685,27.4,84,0.0,968.4,7.85,45.0,49,10.0,9.8,6.8,244.0,91.0,3.8,7,5,7,1,2026-07-08T23:49:55.355973+05:30
Surat,Gujarat,21.1702,72.8311,28.9,86,0.0,1000.5,1.8,47.2,76,33.1,20.4,19.5,276.0,28.0,31.5,7,5,0,1,2026-07-08T23:49:55.356007+05:30
Vadodara,Gujarat,22.3072,73.1812,29.0,84,0.0,997.2,6.75,37.1,75,40.2,23.6,14.4,163.0,36.0,9.9,7,5,7,1,2026-07-08T23:49:55.356018+05:30
Rajkot,Gujarat,22.3039,70.8022,27.6,84,0.0,987.1,5.85,46.4,69,38.6,20.3,5.3,115.0,44.0,5.1,7,5,3,1,2026-07-08T23:49:55.356027+05:30
Thane,Maharashtra,19.2183,72.9781,26.9,96,0.0,1003.7,4.75,39.6,61,33.1,15.6,6.1,183.0,37.0,4.5,7,5,0,1,2026-07-08T23:49:55.356036+05:30
Nagpur,Maharashtra,21.1458,79.0882,26.3,88,0.4,967.6,8.2,47.2,37,10.1,9.6,15.2,254.0,53.0,10.4,10,5,7,1,2026-07-08T23:49:55.356045+05:30
Nashik,Maharashtra,19.9975,73.7898,24.1,97,0.0,940.4,0.85,46.4,29,8.8,5.4,9.5,128.0,28.0,3.9,3,5,3,1,2026-07-08T23:49:55.356053+05:30
Aurangabad,Maharashtra,19.8762,75.3433,24.3,87,0.0,939.8,6.7,45.7,27,15.4,8.3,9.2,209.0,36.0,8.6,3,5,7,1,2026-07-08T23:49:55.356060+05:30
Solapur,Maharashtra,17.6599,75.9064,25.4,86,0.0,954.2,7.7,63.4,24,5.8,4.7,6.9,134.0,33.0,2.7,7,5,7,1,2026-07-08T23:49:55.356069+05:30
Kolhapur,Maharashtra,16.705,74.2433,22.8,94,0.0,945.8,7.4,63.0,19,4.3,3.6,5.0,136.0,38.0,2.2,3,5,7,1,2026-07-08T23:49:55.356077+05:30
Goa,Goa,15.2993,74.124,24.5,98,0.1,998.1,8.1,44.3,52,28.9,16.2,3.2,282.0,42.0,1.1,6,5,7,1,2026-07-08T23:49:55.356085+05:30
Jodhpur,Rajasthan,26.2389,73.0243,25.2,96,0.0,974.1,6.9,56.2,150,227.2,57.7,4.9,207.0,75.0,2.5,7,5,7,1,2026-07-08T23:49:55.356092+05:30
Udaipur,Rajasthan,24.5854,73.7125,26.5,80,0.0,939.6,8.15,37.1,73,46.1,26.7,8.4,150.0,72.0,7.6,7,5,7,1,2026-07-08T23:49:55.356100+05:30
Kota,Rajasthan,25.2138,75.8648,26.4,89,0.0,970.3,7.6,39.6,72,41.2,28.1,11.7,206.0,64.0,4.7,7,5,7,1,2026-07-08T23:49:55.356108+05:30
Bikaner,Rajasthan,28.0229,73.3119,29.9,78,0.0,972.1,8.05,30.6,152,96.2,46.2,3.5,175.0,72.0,2.9,7,5,7,1,2026-07-08T23:49:55.356115+05:30
Ajmer,Rajasthan,26.4499,74.6399,25.6,87,0.0,946.4,7.9,39.6,118,89.9,43.8,10.2,198.0,62.0,4.7,7,5,7,1,2026-07-08T23:49:55.356123+05:30
Gwalior,Madhya Pradesh,26.2183,78.1828,26.3,93,0.0,973.2,7.15,24.8,59,19.8,19.0,11.4,285.0,84.0,5.0,7,5,7,1,2026-07-08T23:49:55.356131+05:30
Indore,Madhya Pradesh,22.7196,75.8577,23.8,96,0.4,941.4,4.95,46.8,61,39.0,23.0,10.7,282.0,55.0,9.8,6,5,3,1,2026-07-08T23:49:55.356139+05:30
Bhopal,Madhya Pradesh,23.2599,77.4126,24.4,93,0.1,946.5,0.5,44.6,61,30.4,19.2,7.7,224.0,69.0,4.0,6,5,3,1,2026-07-08T23:49:55.356146+05:30
Jabalpur,Madhya Pradesh,23.1815,79.9864,24.8,97,0.3,954.3,5.95,43.6,45,10.4,10.2,7.4,272.0,75.0,2.2,6,5,3,1,2026-07-08T23:49:55.356154+05:30
Ujjain,Madhya Pradesh,23.1765,75.7885,25.5,90,0.0,947.0,1.25,43.6,61,33.3,20.4,9.2,226.0,52.0,9.1,7,5,3,1,2026-07-08T23:49:55.356162+05:30
Visakhapatnam,Andhra Pradesh,17.6868,83.2185,28.1,82,0.0,1000.0,9.0,50.4,75,32.8,23.3,12.5,231.0,84.0,23.2,7,5,4,1,2026-07-08T23:49:55.356170+05:30
Vijayawada,Andhra Pradesh,16.5062,80.648,29.7,83,0.0,998.6,6.3,49.3,55,25.3,19.4,7.5,181.0,81.0,5.1,7,5,7,1,2026-07-08T23:49:55.356177+05:30
Guntur,Andhra Pradesh,16.3067,80.4365,32.8,48,0.0,999.6,5.45,53.3,54,20.3,16.8,11.6,191.0,58.0,4.2,0,5,3,1,2026-07-08T23:49:55.356185+05:30
Nellore,Andhra Pradesh,14.4426,79.9865,32.4,50,0.0,1002.7,8.5,48.2,39,12.7,8.6,7.6,174.0,41.0,3.7,0,5,4,1,2026-07-08T23:49:55.356193+05:30
Kurnool,Andhra Pradesh,15.8281,78.0373,28.4,66,0.0,974.6,4.7,60.8,29,7.0,5.1,5.8,124.0,38.0,2.2,7,5,3,1,2026-07-08T23:49:55.356202+05:30
Kakinada,Andhra Pradesh,16.9891,82.2475,29.3,75,0.0,1003.4,8.45,52.6,65,37.5,23.8,2.1,175.0,99.0,3.5,7,5,4,1,2026-07-08T23:49:55.356209+05:30
Tirupati,Andhra Pradesh,13.6288,79.4192,30.1,58,0.0,989.2,8.4,46.1,38,14.7,12.0,16.6,123.0,32.0,3.3,0,5,7,1,2026-07-08T23:49:55.356217+05:30
Warangal,Telangana,17.9689,79.5941,28.7,67,0.0,974.2,5.55,54.0,35,16.2,13.6,11.4,246.0,47.0,4.1,7,5,3,1,2026-07-08T23:49:55.356224+05:30
Nizamabad,Telangana,18.6725,78.0941,26.1,85,0.0,960.4,5.6,59.8,30,10.2,8.5,9.6,246.0,50.0,5.4,7,5,3,1,2026-07-08T23:49:55.356232+05:30
Mysore,Karnataka,12.2958,76.6396,21.5,91,0.0,928.8,6.15,55.8,21,6.3,4.5,5.9,123.0,36.0,1.8,3,5,7,1,2026-07-08T23:49:55.356239+05:30
Mangalore,Karnataka,12.9141,74.856,23.7,98,0.4,1008.2,8.65,52.6,56,24.0,15.3,10.8,326.0,27.0,2.8,6,0,4,1,2026-07-08T23:49:55.356247+05:30
Hubli-Dharwad,Karnataka,15.3647,75.124,22.3,96,0.0,939.7,7.3,71.3,19,4.4,3.1,4.5,112.0,37.0,1.3,3,5,7,1,2026-07-08T23:49:55.356254+05:30
Belgaum,Karnataka,15.8497,74.4977,20.9,99,0.1,924.1,2.5,64.1,18,4.5,3.2,4.3,103.0,37.0,1.4,6,5,3,1,2026-07-08T23:49:58.812247+05:30
Coimbatore,Tamil Nadu,11.0168,76.9558,22.7,96,0.0,962.0,8.8,51.1,28,12.3,9.2,10.3,221.0,25.0,3.2,3,5,7,1,2026-07-08T23:49:58.812302+05:30
Madurai,Tamil Nadu,9.9252,78.1198,29.3,59,0.0,993.1,8.7,52.2,64,13.7,10.6,16.7,150.0,19.0,5.0,4,5,7,1,2026-07-08T23:49:58.812315+05:30
Trichy,Tamil Nadu,10.7905,78.7047,28.7,65,0.0,999.7,8.75,69.1,47,15.3,9.0,5.6,125.0,37.0,2.5,7,5,7,1,2026-07-08T23:49:58.812326+05:30
Salem,Tamil Nadu,11.6643,78.146,25.5,85,0.0,977.6,8.55,43.9,57,17.9,12.7,13.7,326.0,31.0,6.1,7,5,7,1,2026-07-08T23:49:58.812336+05:30
Tirunelveli,Tamil Nadu,8.7139,77.7567,29.3,62,0.0,1003.7,8.65,55.8,42,14.5,9.8,6.7,155.0,34.0,2.3,7,5,4,1,2026-07-08T23:49:58.812345+05:30
Vellore,Tamil Nadu,12.9165,79.1325,29.6,55,0.0,983.2,8.9,50.4,40,12.7,8.7,9.4,129.0,40.0,3.4,4,5,7,1,2026-07-08T23:49:58.812354+05:30
Erode,Tamil Nadu,11.341,77.7172,25.4,82,0.0,989.6,8.8,50.4,51,18.7,14.3,16.3,203.0,26.0,4.1,7,5,7,1,2026-07-08T23:49:58.812364+05:30
Kochi,Kerala,9.9312,76.2673,25.1,97,0.1,1011.0,8.5,40.3,58,22.9,19.3,22.2,303.0,12.0,6.2,10,0,4,1,2026-07-08T23:49:58.812374+05:30
Thiruvananthapuram,Kerala,8.5241,76.9366,24.4,95,0.0,1010.0,8.45,56.2,47,17.9,11.4,6.1,232.0,38.0,2.5,3,0,4,1,2026-07-08T23:49:58.812382+05:30
Kozhikode,Kerala,11.2588,75.7804,24.0,95,0.1,1010.1,8.15,38.9,48,21.4,13.8,4.2,369.0,39.0,1.7,6,0,4,1,2026-07-08T23:49:58.812390+05:30
Thrissur,Kerala,10.5276,76.2144,24.1,99,0.1,1009.4,8.45,40.0,58,27.8,24.1,20.7,826.0,10.0,5.1,6,0,4,1,2026-07-08T23:49:58.812400+05:30
Kannur,Kerala,11.8745,75.3704,23.8,98,0.0,1009.3,8.25,29.9,51,29.3,22.1,22.5,243.0,13.0,4.6,3,0,4,1,2026-07-08T23:49:58.812409+05:30
Patna,Bihar,25.5941,85.1376,27.8,94,0.2,994.5,7.25,26.6,83,30.6,30.3,23.9,259.0,47.0,11.9,10,5,7,1,2026-07-08T23:49:58.812418+05:30
Gaya,Bihar,24.7914,85.0002,27.6,93,0.0,987.0,6.95,32.4,62,25.7,24.4,18.4,331.0,48.0,15.3,7,5,7,1,2026-07-08T23:49:58.812426+05:30
Muzaffarpur,Bihar,26.1209,85.3647,27.0,96,0.1,994.8,7.65,27.7,81,29.9,29.6,20.6,408.0,58.0,9.6,10,5,7,1,2026-07-08T23:49:58.812435+05:30
Bhagalpur,Bihar,25.2425,87.0117,26.9,97,0.1,995.8,6.1,23.0,93,35.4,34.2,21.2,358.0,55.0,18.5,10,5,7,1,2026-07-08T23:49:58.812443+05:30
Ranchi,Jharkhand,23.3441,85.3096,25.3,81,0.0,932.3,8.0,47.5,55,13.7,12.2,9.3,184.0,62.0,10.0,7,5,7,1,2026-07-08T23:49:58.812452+05:30
Jamshedpur,Jharkhand,22.8046,86.2029,28.1,84,0.0,985.2,5.35,36.0,77,35.6,31.3,25.1,520.0,46.0,28.5,7,5,3,1,2026-07-08T23:49:58.812460+05:30
Dhanbad,Jharkhand,23.7957,86.4304,26.3,97,0.0,974.2,7.3,34.9,118,50.3,47.5,48.8,528.0,26.0,104.1,7,5,7,1,2026-07-08T23:49:58.812469+05:30
Bokaro,Jharkhand,23.6693,86.1511,26.7,96,0.0,978.0,8.0,34.2,93,53.9,49.5,50.8,2382.0,18.0,98.8,7,5,7,1,2026-07-08T23:49:58.812477+05:30
Bhubaneswar,Odisha,20.2961,85.8245,28.2,81,0.0,997.8,7.85,56.9,67,22.1,15.9,4.8,131.0,68.0,4.1,7,5,7,1,2026-07-08T23:49:58.812486+05:30
Cuttack,Odisha,20.4625,85.8828,28.3,80,0.0,999.4,7.45,47.2,67,22.1,15.9,4.8,139.0,68.0,4.1,7,5,7,1,2026-07-08T23:49:58.812494+05:30
Rourkela,Odisha,22.2604,84.8536,27.7,83,0.0,979.3,6.2,43.9,60,24.6,21.2,16.4,250.0,41.0,8.0,7,5,7,1,2026-07-08T23:49:58.812503+05:30
Raipur,Chhattisgarh,21.2514,81.6296,27.6,77,0.0,968.5,6.9,55.1,53,12.9,12.8,19.1,205.0,60.0,32.5,7,5,7,1,2026-07-08T23:49:58.812511+05:30
Bhilai,Chhattisgarh,21.1938,81.3509,27.4,77,0.0,968.9,8.05,58.7,52,11.3,11.2,17.9,374.0,63.0,30.6,7,5,7,1,2026-07-08T23:49:58.812518+05:30
Guwahati,Assam,26.1158,91.7086,26.8,97,0.0,996.7,6.3,20.2,49,11.8,11.4,10.0,220.0,44.0,2.3,7,5,7,1,2026-07-08T23:49:58.812526+05:30
Agartala,Tripura,23.8315,91.2868,24.6,99,0.4,1002.7,5.95,36.4,50,7.4,6.6,7.5,149.0,57.0,1.0,6,5,0,1,2026-07-08T23:49:58.812533+05:30
Shillong,Meghalaya,25.5788,91.8933,20.5,93,0.0,854.5,2.85,25.9,28,1.7,1.6,7.0,227.0,54.0,2.8,3,5,3,1,2026-07-08T23:49:58.812540+05:30
Imphal,Manipur,24.817,93.9368,22.9,98,0.0,920.3,1.15,29.5,23,7.9,7.4,9.0,351.0,38.0,1.8,3,5,3,1,2026-07-08T23:49:58.812548+05:30
Aizawl,Mizoram,23.7271,92.7176,18.7,98,0.1,889.5,0.95,41.4,25,0.9,0.8,2.5,117.0,52.0,0.6,6,10,3,1,2026-07-08T23:49:58.812556+05:30
Kohima,Nagaland,25.6701,94.1077,20.9,93,0.0,852.9,6.2,19.1,22,2.0,1.9,4.5,304.0,48.0,1.0,3,5,7,1,2026-07-08T23:49:58.812563+05:30
Gangtok,Sikkim,27.3314,88.6138,19.2,97,0.1,834.5,5.2,32.4,43,5.4,5.4,5.3,302.0,92.0,2.0,6,10,3,1,2026-07-08T23:49:58.812570+05:30
Siliguri,West Bengal,26.7271,88.3953,25.4,97,0.1,987.7,7.35,27.0,59,22.5,22.4,13.4,379.0,83.0,5.3,10,5,7,1,2026-07-08T23:50:04.114869+05:30
Durgapur,West Bengal,23.5204,87.3119,27.3,95,0.1,989.4,8.55,36.7,102,37.6,34.1,25.3,335.0,44.0,30.5,10,5,7,1,2026-07-08T23:50:04.114903+05:30
Asansol,West Bengal,23.6739,86.9524,27.4,93,0.1,988.0,7.5,35.6,97,32.5,29.7,26.6,718.0,45.0,34.2,10,5,7,1,2026-07-08T23:50:04.114915+05:30
Pondicherry,Puducherry,11.9139,79.8145,28.5,80,0.0,1007.3,8.0,46.4,74,24.6,17.8,18.0,256.0,50.0,8.7,7,5,4,1,2026-07-08T23:50:04.114926+05:30
Port Blair,Andaman and Nicobar Islands,11.6234,92.7265,27.9,74,0.0,1008.0,7.9,38.5,59,22.1,13.1,0.2,90.0,56.0,0.4,7,0,4,1,2026-07-08T23:50:04.114935+05:30
Haridwar,Uttarakhand,29.9457,78.1642,26.6,97,0.3,966.0,5.2,22.3,84,51.6,50.5,51.6,331.0,26.0,13.0,10,5,3,1,2026-07-08T23:50:04.114946+05:30
Rishikesh,Uttarakhand,30.0869,78.2676,26.1,94,0.3,958.9,5.8,14.8,57,12.6,12.4,11.5,454.0,83.0,3.8,10,5,3,1,2026-07-08T23:50:04.114955+05:30
Nainital,Uttarakhand,29.3919,79.4542,16.9,99,0.2,800.5,8.05,39.6,48,12.7,12.1,8.4,253.0,80.0,2.8,6,10,7,1,2026-07-08T23:50:04.114965+05:30
Mussoorie,Uttarakhand,30.4599,78.0664,16.8,100,0.1,797.9,1.0,18.7,61,24.0,23.7,42.6,353.0,45.0,9.5,6,10,3,1,2026-07-08T23:50:04.114973+05:30
Dharamshala,Himachal Pradesh,32.219,76.3234,21.8,93,0.0,863.5,7.75,24.8,45,8.1,7.9,18.7,728.0,34.0,0.8,3,5,7,1,2026-07-08T23:50:04.114983+05:30
Dalhousie,Himachal Pradesh,32.5387,75.971,17.1,97,0.0,799.4,8.2,26.3,109,54.6,51.7,43.5,857.0,76.0,5.6,3,10,7,1,2026-07-08T23:50:04.114992+05:30
Patiala,Punjab,30.3398,76.3869,27.5,90,0.0,969.8,6.2,28.4,134,56.0,55.9,41.9,796.0,27.0,12.2,7,5,7,1,2026-07-08T23:50:04.115001+05:30
Bhatinda,Punjab,30.211,74.9455,29.2,82,0.0,974.5,8.05,37.1,513,371.6,90.6,18.8,472.0,72.0,11.3,7,5,7,1,2026-07-08T23:50:04.115009+05:30
Rohtak,Haryana,28.8955,76.6066,26.3,95,0.2,972.8,6.05,31.3,123,48.8,48.7,45.8,595.0,34.0,18.7,10,5,7,1,2026-07-08T23:50:04.115018+05:30
Panipat,Haryana,29.3909,76.9635,26.6,95,0.6,971.9,6.0,25.2,113,51.7,51.5,39.7,781.0,32.0,15.2,10,5,3,1,2026-07-08T23:50:04.115027+05:30
Mathura,Uttar Pradesh,27.4924,77.6737,26.4,96,0.0,976.5,4.85,37.1,85,19.6,19.4,17.8,306.0,75.0,4.2,7,5,3,1,2026-07-08T23:50:04.115035+05:30
Vrindavan,Uttar Pradesh,27.5823,77.7027,26.6,94,0.1,976.9,5.2,36.4,85,19.6,19.4,17.8,296.0,75.0,4.2,10,5,3,1,2026-07-08T23:50:04.115044+05:30
Ayodhya,Uttar Pradesh,26.7922,82.1998,26.9,96,0.3,988.2,6.6,41.8,76,20.5,20.4,12.2,301.0,84.0,5.4,10,5,7,1,2026-07-08T23:50:04.115052+05:30
Ratlam,Madhya Pradesh,23.3315,75.0367,25.1,97,0.4,948.0,1.4,43.9,60,30.9,19.6,10.4,195.0,49.0,11.3,10,5,3,1,2026-07-08T23:50:04.115061+05:30
Sagar,Madhya Pradesh,23.8388,78.7378,24.2,97,0.1,942.3,4.55,41.8,52,8.2,6.6,4.9,202.0,82.0,2.2,6,5,3,1,2026-07-08T23:50:04.115069+05:30
Satna,Madhya Pradesh,24.6005,80.8322,25.8,93,0.0,963.2,8.55,46.1,47,10.7,10.4,6.7,248.0,85.0,5.0,7,5,7,1,2026-07-08T23:50:04.115078+05:30
Akola,Maharashtra,20.7002,77.0082,27.3,78,0.0,969.7,6.9,38.9,32,13.5,11.7,14.1,263.0,51.0,11.8,7,5,7,1,2026-07-08T23:50:04.115087+05:30
Amravati,Maharashtra,20.9374,77.7796,26.1,85,0.0,961.9,8.0,41.4,32,13.2,11.5,15.3,171.0,51.0,13.1,7,5,7,1,2026-07-08T23:50:04.115097+05:30
Latur,Maharashtra,18.4088,76.5604,25.3,79,0.0,936.1,5.65,60.1,30,10.0,6.8,7.9,165.0,42.0,5.2,7,5,3,1,2026-07-08T23:50:04.115107+05:30
Nanded,Maharashtra,19.1383,77.3091,27.1,76,0.0,964.1,7.7,55.1,29,9.7,8.3,10.7,212.0,44.0,4.2,7,5,7,1,2026-07-08T23:50:04.115128+05:30
Gulbarga,Karnataka,17.3297,76.8343,25.1,87,0.0,955.8,6.0,65.2,25,6.9,4.9,7.4,133.0,34.0,3.0,7,5,3,1,2026-07-08T23:50:04.115145+05:30
Bidar,Karnataka,17.9104,77.5199,23.8,93,0.0,931.9,7.1,64.1,31,8.7,6.4,8.1,177.0,46.0,3.2,3,5,7,1,2026-07-08T23:50:04.115160+05:30
Hospet,Karnataka,15.2689,76.3909,24.3,85,0.0,954.6,7.25,67.7,22,5.2,3.6,4.9,120.0,36.0,1.7,3,5,7,1,2026-07-08T23:50:04.115172+05:30
Tirupur,Tamil Nadu,11.1085,77.3411,23.6,91,0.0,975.6,8.85,56.2,52,20.1,16.5,22.0,179.0,17.0,5.7,3,5,7,1,2026-07-08T23:50:04.115186+05:30
Alappuzha,Kerala,9.4981,76.3388,25.6,94,0.0,1011.1,8.5,43.9,55,21.1,15.0,15.3,209.0,27.0,5.9,7,0,4,1,2026-07-08T23:50:04.115201+05:30
Munnar,Kerala,10.0889,77.0595,16.4,98,0.0,857.6,6.75,60.1,27,10.4,7.9,9.3,90.0,20.0,1.4,3,10,7,1,2026-07-08T23:50:04.115213+05:30
Silchar,Assam,24.8333,92.7789,25.6,97,0.2,1001.8,1.0,37.1,27,6.5,6.0,6.1,208.0,46.0,2.3,10,5,0,1,2026-07-08T23:50:04.115222+05:30
Dibrugarh,Assam,27.4728,94.912,25.7,99,0.1,990.9,7.55,27.7,47,15.3,14.8,15.9,227.0,37.0,1.9,10,5,7,1,2026-07-08T23:50:04.115230+05:30
