city,state,latitude,longitude,temp,humidity,rain,pressure,uv_index,wind_gusts,aqi,pm10,pm2_5,mosquito_risk,arthritis_risk,migraine_risk,frizz_risk,updated_at
Delhi,Delhi,28.6139,77.209,25.5,55,0.0,983.3,6.5,42.8,147,188.1,57.2,4,5,7,0,2026-03-27T22:30:41.441138+05:30
Mumbai,Maharashtra,19.076,72.8777,29.1,73,0.0,1009.2,8.0,28.4,156,35.0,26.7,7,0,4,1,2026-03-27T22:30:41.441183+05:30
Bangalore,Karnataka,12.9716,77.5946,26.0,47,0.0,912.7,9.5,28.1,78,29.4,25.7,4,5,7,0,2026-03-27T22:30:41.441198+05:30
Hyderabad,Telangana,17.385,78.4867,26.5,62,0.0,954.9,9.0,37.4,83,75.7,68.0,7,5,7,1,2026-03-27T22:30:41.441208+05:30
Chennai,Tamil Nadu,13.0827,80.2707,26.5,85,0.0,1008.2,9.2,29.5,68,26.7,16.6,7,0,4,1,2026-03-27T22:30:41.441217+05:30
Kolkata,West Bengal,22.5726,88.3639,26.9,91,0.0,1005.7,8.45,25.9,103,37.0,32.7,7,5,4,1,2026-03-27T22:30:41.441227+05:30
Pune,Maharashtra,18.5204,73.8567,27.6,54,0.0,950.0,8.55,39.2,130,40.7,35.4,4,5,7,1,2026-03-27T22:30:41.441238+05:30
Ahmedabad,Gujarat,23.0225,72.5714,28.6,51,0.0,1003.0,7.9,34.9,62,41.6,27.2,4,5,4,1,2026-03-27T22:30:41.441246+05:30
Jaipur,Rajasthan,26.9124,75.7873,27.1,38,0.0,960.3,7.35,43.2,120,119.2,32.0,4,5,7,0,2026-03-27T22:30:41.441254+05:30
Lucknow,Uttar Pradesh,26.8467,80.9462,24.0,61,0.0,993.7,6.5,49.3,92,142.5,48.3,3,5,7,0,2026-03-27T22:30:41.441262+05:30
Kanpur,Uttar Pradesh,26.4499,80.3319,22.7,77,0.0,992.2,6.65,64.1,135,244.9,61.5,3,5,7,1,2026-03-27T22:30:41.441270+05:30
Chandigarh,Chandigarh,30.7333,76.7794,21.2,71,0.0,968.3,6.45,31.3,75,51.6,42.0,3,5,7,0,2026-03-27T22:30:41.441278+05:30
Srinagar,Jammu and Kashmir,34.0837,74.7973,10.1,75,0.0,836.5,7.5,18.4,99,68.5,56.3,3,5,7,0,2026-03-27T22:30:41.441285+05:30
Jammu,Jammu and Kashmir,32.7266,74.857,23.5,66,0.0,972.0,7.15,20.2,83,47.0,40.4,3,5,7,1,2026-03-27T22:30:41.441292+05:30
Amritsar,Punjab,31.634,74.8723,20.8,69,0.0,980.3,7.1,25.9,85,56.8,48.4,3,5,7,0,2026-03-27T22:30:41.441298+05:30
Ludhiana,Punjab,30.901,75.8573,22.3,65,0.0,978.6,4.55,25.9,88,82.9,47.4,3,5,3,0,2026-03-27T22:30:41.441305+05:30
Jalandhar,Punjab,31.326,75.5762,22.6,65,0.0,979.7,4.4,22.3,88,71.2,51.3,3,5,3,0,2026-03-27T22:30:41.441314+05:30
Dehradun,Uttarakhand,30.6284,78.0322,12.5,89,0.0,827.5,5.8,27.0,53,33.1,22.9,3,10,3,0,2026-03-27T22:30:41.441323+05:30
Shimla,Himachal Pradesh,31.1048,77.1734,10.5,82,0.0,781.3,6.0,37.4,62,35.9,27.2,3,10,3,0,2026-03-27T22:30:41.441330+05:30
Manali,Himachal Pradesh,32.2396,77.1887,13.3,90,0.0,816.2,8.3,27.7,118,27.8,13.3,3,10,7,0,2026-03-27T22:30:41.441336+05:30
Gurgaon,Haryana,28.4595,77.0266,23.5,65,0.0,981.6,6.65,40.7,874,347.4,80.3,3,5,7,1,2026-03-27T22:30:41.441343+05:30
Noida,Uttar Pradesh,28.5355,77.391,24.8,64,0.0,984.8,6.5,41.0,874,347.4,80.3,3,5,7,1,2026-03-27T22:30:41.441349+05:30
Ghaziabad,Uttar Pradesh,28.6692,77.4538,24.6,62,0.0,982.9,6.45,40.0,131,136.9,54.4,3,5,7,1,2026-03-27T22:30:41.441355+05:30
Faridabad,Haryana,28.4089,77.3178,23.4,69,0.0,984.0,6.55,41.4,874,347.4,80.3,3,5,7,1,2026-03-27T22:30:41.441362+05:30
Meerut,Uttar Pradesh,28.9845,77.7064,22.3,68,0.0,981.4,6.35,41.4,131,136.9,54.4,3,5,7,1,2026-03-27T22:30:41.441368+05:30
Agra,Uttar Pradesh,27.1767,78.0081,23.7,67,0.0,988.1,6.9,47.5,709,486.2,89.2,3,5,7,1,2026-03-27T22:30:41.441375+05:30
Varanasi,Uttar Pradesh,25.3176,82.9739,23.0,71,0.0,998.4,7.3,42.5,86,48.4,40.5,3,5,7,1,2026-03-27T22:30:41.441383+05:30
Prayagraj,Uttar Pradesh,25.4358,81.8463,21.9,77,0.0,997.6,7.5,37.8,86,36.2,25.0,3,5,7,1,2026-03-27T22:30:41.441390+05:30
Gorakhpur,Uttar Pradesh,26.7606,83.3732,22.1,68,0.0,996.7,6.85,50.0,94,46.2,28.8,3,5,7,0,2026-03-27T22:30:41.441399+05:30
Bareilly,Uttar Pradesh,28.367,79.4304,21.7,79,0.0,986.5,6.4,41.0,74,34.3,27.2,3,5,7,1,2026-03-27T22:30:41.441406+05:30
Aligarh,Uttar Pradesh,27.8974,78.088,22.5,74,0.0,985.7,6.3,37.8,338,235.6,68.5,3,5,7,1,2026-03-27T22:30:41.441412+05:30
Moradabad,Uttar Pradesh,28.8386,78.7733,21.5,78,0.0,983.4,5.7,45.0,80,38.9,31.0,3,5,3,1,2026-03-27T22:30:41.441418+05:30
Saharanpur,Uttar Pradesh,29.9637,77.546,20.9,74,0.0,975.4,6.15,32.8,86,62.6,48.3,3,5,7,1,2026-03-27T22:30:41.441424+05:30
Jhansi,Uttar Pradesh,25.4484,78.5685,22.2,66,0.0,977.7,7.55,61.2,81,84.1,29.9,3,5,7,0,2026-03-27T22:30:45.627616+05:30
Surat,Gujarat,21.1702,72.8311,27.9,71,0.0,1007.3,7.75,27.7,117,42.8,37.6,7,5,4,1,2026-03-27T22:30:45.627647+05:30
Vadodara,Gujarat,22.3072,73.1812,29.8,39,0.0,1004.6,7.9,29.2,73,51.9,38.4,4,5,4,0,2026-03-27T22:30:45.627657+05:30
Rajkot,Gujarat,22.3039,70.8022,26.4,55,0.0,996.1,7.75,36.7,52,13.9,10.3,4,5,7,1,2026-03-27T22:30:45.627665+05:30
Thane,Maharashtra,19.2183,72.9781,28.3,70,0.0,1008.6,8.0,39.6,156,35.0,26.7,7,0,4,1,2026-03-27T22:30:45.627672+05:30
Nagpur,Maharashtra,21.1458,79.0882,27.6,37,0.0,972.3,8.25,46.4,94,27.0,23.8,4,5,7,0,2026-03-27T22:30:45.627680+05:30
Nashik,Maharashtra,19.9975,73.7898,25.9,50,0.0,946.7,8.2,43.2,72,30.5,23.3,4,5,7,0,2026-03-27T22:30:45.627687+05:30
Aurangabad,Maharashtra,19.8762,75.3433,29.1,30,0.0,945.2,8.75,36.4,73,22.9,18.1,4,5,7,0,2026-03-27T22:30:45.627694+05:30
Solapur,Maharashtra,17.6599,75.9064,30.6,37,0.0,957.8,8.85,22.0,105,48.2,42.4,0,5,7,0,2026-03-27T22:30:45.627707+05:30
Kolhapur,Maharashtra,16.705,74.2433,24.6,91,0.0,949.4,8.95,47.9,154,55.4,51.3,3,5,7,1,2026-03-27T22:30:45.627714+05:30
Goa,Goa,15.2993,74.124,29.6,82,0.0,998.8,8.9,31.7,92,43.7,35.2,7,5,7,1,2026-03-27T22:30:45.627721+05:30
Jodhpur,Rajasthan,26.2389,73.0243,28.1,37,0.0,983.4,7.7,36.0,73,75.4,20.5,4,5,7,0,2026-03-27T22:30:45.627728+05:30
Udaipur,Rajasthan,24.5854,73.7125,25.7,46,0.0,947.7,8.35,43.2,48,50.6,17.7,4,5,7,0,2026-03-27T22:30:45.627735+05:30
Kota,Rajasthan,25.2138,75.8648,29.0,35,0.0,978.8,7.7,41.4,65,29.7,20.3,4,5,7,0,2026-03-27T22:30:45.627742+05:30
Bikaner,Rajasthan,28.0229,73.3119,26.9,42,0.0,982.2,7.45,30.2,63,31.1,11.8,4,5,7,0,2026-03-27T22:30:45.627748+05:30
Ajmer,Rajasthan,26.4499,74.6399,26.9,37,0.0,955.2,7.65,40.0,58,25.7,14.6,4,5,7,0,2026-03-27T22:30:45.627755+05:30
Gwalior,Madhya Pradesh,26.2183,78.1828,24.8,61,0.0,983.7,7.25,55.8,119,335.3,71.2,3,5,7,1,2026-03-27T22:30:45.627761+05:30
Indore,Madhya Pradesh,22.7196,75.8577,25.2,48,0.0,948.5,8.2,41.8,44,23.9,16.3,4,5,7,0,2026-03-27T22:30:45.627768+05:30
Bhopal,Madhya Pradesh,23.2599,77.4126,27.3,33,0.0,953.4,8.1,45.0,44,27.2,14.1,4,5,7,0,2026-03-27T22:30:45.627775+05:30
Jabalpur,Madhya Pradesh,23.1815,79.9864,27.2,46,0.0,959.7,8.15,46.4,55,23.6,14.9,4,5,7,0,2026-03-27T22:30:45.627782+05:30
Ujjain,Madhya Pradesh,23.1765,75.7885,25.6,50,0.0,954.1,8.1,41.8,42,26.9,17.8,4,5,7,0,2026-03-27T22:30:45.627789+05:30
Visakhapatnam,Andhra Pradesh,17.6868,83.2185,27.0,85,0.0,1004.9,8.95,38.2,78,33.8,25.1,7,5,4,1,2026-03-27T22:30:45.627795+05:30
Vijayawada,Andhra Pradesh,16.5062,80.648,26.8,77,0.0,1003.4,9.0,24.1,75,25.0,20.0,7,5,4,1,2026-03-27T22:30:45.627802+05:30
Guntur,Andhra Pradesh,16.3067,80.4365,26.3,87,0.0,1004.6,9.05,30.2,71,24.3,19.9,7,5,4,1,2026-03-27T22:30:45.627808+05:30
Nellore,Andhra Pradesh,14.4426,79.9865,26.2,88,0.0,1006.8,9.15,28.1,67,20.3,13.6,7,5,4,1,2026-03-27T22:30:45.627815+05:30
Kurnool,Andhra Pradesh,15.8281,78.0373,31.5,37,0.0,976.9,9.05,17.6,76,35.7,29.6,0,5,7,0,2026-03-27T22:30:45.627822+05:30
Kakinada,Andhra Pradesh,16.9891,82.2475,25.9,90,0.0,1008.6,9.0,28.1,67,28.1,17.9,7,0,4,1,2026-03-27T22:30:45.627829+05:30
Tirupati,Andhra Pradesh,13.6288,79.4192,27.0,75,0.0,992.7,9.25,30.2,96,37.1,31.9,7,5,7,1,2026-03-27T22:30:45.627835+05:30
Warangal,Telangana,17.9689,79.5941,29.2,58,0.0,978.6,8.85,26.3,82,39.0,35.0,4,5,7,1,2026-03-27T22:30:45.627842+05:30
Nizamabad,Telangana,18.6725,78.0941,29.8,44,0.0,964.9,8.75,29.5,97,53.4,43.4,4,5,7,1,2026-03-27T22:30:45.627848+05:30
Mysore,Karnataka,12.2958,76.6396,24.9,80,0.0,929.5,9.45,40.3,76,39.8,36.0,3,5,7,1,2026-03-27T22:30:45.627855+05:30
Mangalore,Karnataka,12.9141,74.856,30.0,82,0.0,1007.9,9.1,25.9,96,40.3,32.9,7,5,4,1,2026-03-27T22:30:45.627861+05:30
Hubli-Dharwad,Karnataka,15.3647,75.124,25.8,83,0.0,941.9,9.1,44.6,116,30.7,28.4,7,5,7,1,2026-03-27T22:30:45.627868+05:30
Belgaum,Karnataka,15.8497,74.4977,23.5,91,0.0,926.9,9.15,38.2,110,42.8,39.6,3,5,7,1,2026-03-27T22:30:49.375358+05:30
Coimbatore,Tamil Nadu,11.0168,76.9558,25.8,81,0.0,963.3,9.4,39.2,80,37.4,34.2,7,5,7,1,2026-03-27T22:30:49.375389+05:30
Madurai,Tamil Nadu,9.9252,78.1198,27.2,75,0.0,994.6,9.35,22.3,79,39.5,33.2,7,5,7,1,2026-03-27T22:30:49.375400+05:30
Trichy,Tamil Nadu,10.7905,78.7047,26.4,81,0.0,1000.9,9.3,18.0,90,36.2,31.8,7,5,4,1,2026-03-27T22:30:49.375408+05:30
Salem,Tamil Nadu,11.6643,78.146,28.2,59,0.0,978.0,9.35,25.2,98,43.7,38.1,4,5,7,1,2026-03-27T22:30:49.375416+05:30
Tirunelveli,Tamil Nadu,8.7139,77.7567,27.6,74,0.0,1004.8,9.35,42.1,61,21.0,17.8,7,5,4,1,2026-03-27T22:30:49.375423+05:30
Vellore,Tamil Nadu,12.9165,79.1325,26.3,77,0.0,985.7,9.3,30.6,96,46.9,40.7,7,5,7,1,2026-03-27T22:30:49.375430+05:30
Erode,Tamil Nadu,11.341,77.7172,29.3,58,0.0,989.8,9.35,23.4,91,35.4,30.3,4,5,7,1,2026-03-27T22:30:49.375439+05:30
Kochi,Kerala,9.9312,76.2673,29.0,80,0.0,1010.5,9.2,40.3,83,33.6,31.0,7,0,4,1,2026-03-27T22:30:49.375454+05:30
Thiruvananthapuram,Kerala,8.5241,76.9366,29.0,78,0.0,1009.6,9.2,32.8,90,26.3,18.9,7,0,4,1,2026-03-27T22:30:49.375467+05:30
Kozhikode,Kerala,11.2588,75.7804,29.1,83,0.0,1009.3,9.1,31.7,88,34.5,26.8,7,0,4,1,2026-03-27T22:30:49.375481+05:30
Thrissur,Kerala,10.5276,76.2144,28.5,82,0.0,1008.8,9.15,41.0,94,36.0,32.5,7,0,4,1,2026-03-27T22:30:49.375494+05:30
Kannur,Kerala,11.8745,75.3704,29.5,76,0.0,1008.3,9.1,32.4,99,39.2,31.8,7,0,4,1,2026-03-27T22:30:49.375506+05:30
Patna,Bihar,25.5941,85.1376,24.6,66,0.0,1000.5,7.95,43.9,142,51.1,40.2,3,5,4,1,2026-03-27T22:30:49.375518+05:30
Gaya,Bihar,24.7914,85.0002,24.1,67,0.0,994.7,8.05,31.3,69,38.5,23.4,3,5,7,1,2026-03-27T22:30:49.375529+05:30
Muzaffarpur,Bihar,26.1209,85.3647,22.1,90,0.0,1000.2,7.6,38.2,154,78.9,63.6,3,5,4,1,2026-03-27T22:30:49.375568+05:30
Bhagalpur,Bihar,25.2425,87.0117,22.8,83,0.0,1001.9,8.0,37.1,130,60.8,35.5,3,5,4,1,2026-03-27T22:30:49.375585+05:30
Ranchi,Jharkhand,23.3441,85.3096,21.6,66,0.0,937.5,8.7,29.2,91,29.2,25.0,3,5,7,0,2026-03-27T22:30:49.375598+05:30
Jamshedpur,Jharkhand,22.8046,86.2029,28.3,53,0.0,990.8,8.55,25.6,136,37.3,25.4,4,5,7,1,2026-03-27T22:30:49.375610+05:30
Dhanbad,Jharkhand,23.7957,86.4304,27.6,41,0.0,979.5,8.45,32.8,116,49.8,34.3,4,5,7,0,2026-03-27T22:30:49.375623+05:30
Bokaro,Jharkhand,23.6693,86.1511,26.3,46,0.0,983.9,8.3,31.0,115,46.0,31.9,4,5,7,0,2026-03-27T22:30:49.375635+05:30
Bhubaneswar,Odisha,20.2961,85.8245,26.3,86,0.0,1004.8,8.75,28.4,98,34.3,30.3,7,5,4,1,2026-03-27T22:30:49.375647+05:30
Cuttack,Odisha,20.4625,85.8828,26.1,85,0.0,1007.0,8.8,35.3,98,34.3,30.3,7,5,4,1,2026-03-27T22:30:49.375659+05:30
Rourkela,Odisha,22.2604,84.8536,23.4,87,0.1,985.7,8.45,39.6,151,38.2,34.8,6,5,7,1,2026-03-27T22:30:49.375671+05:30
Raipur,Chhattisgarh,21.2514,81.6296,27.4,58,0.0,973.2,8.5,48.6,121,37.1,34.5,4,5,7,1,2026-03-27T22:30:49.375682+05:30
Bhilai,Chhattisgarh,21.1938,81.3509,27.2,57,0.0,973.5,8.55,44.6,111,29.0,26.4,4,5,7,1,2026-03-27T22:30:49.375694+05:30
Guwahati,Assam,26.1158,91.7086,24.9,78,0.0,1002.6,7.9,28.4,155,126.2,97.1,3,5,4,1,2026-03-27T22:30:49.375705+05:30
Agartala,Tripura,23.8315,91.2868,26.1,74,0.0,1006.0,8.2,19.1,156,83.4,75.2,7,5,4,1,2026-03-27T22:30:49.375718+05:30
Shillong,Meghalaya,25.5788,91.8933,12.9,86,0.0,855.4,8.15,42.1,123,49.2,40.9,3,10,7,0,2026-03-27T22:30:49.375730+05:30
Imphal,Manipur,24.817,93.9368,16.3,66,0.0,923.4,8.55,44.3,130,84.8,69.8,3,5,7,0,2026-03-27T22:30:49.375742+05:30
Aizawl,Mizoram,23.7271,92.7176,19.1,62,0.0,892.8,8.5,28.8,105,63.1,48.2,3,5,7,0,2026-03-27T22:30:49.375754+05:30
Kohima,Nagaland,25.6701,94.1077,14.7,75,0.0,854.8,8.45,47.5,98,62.6,46.2,3,5,7,0,2026-03-27T22:30:49.375766+05:30
Gangtok,Sikkim,27.3314,88.6138,12.8,95,0.0,836.1,7.6,19.4,110,59.1,45.4,3,10,7,0,2026-03-27T22:30:49.375777+05:30
Siliguri,West Bengal,26.7271,88.3953,19.3,85,0.0,995.3,7.7,33.1,160,95.5,70.5,3,10,7,1,2026-03-27T22:30:52.820286+05:30
Durgapur,West Bengal,23.5204,87.3119,28.3,61,0.0,994.0,8.4,31.7,149,41.8,30.2,7,5,7,1,2026-03-27T22:30:52.820314+05:30
Asansol,West Bengal,23.6739,86.9524,28.8,56,0.0,992.5,8.45,28.4,96,46.7,30.9,4,5,7,1,2026-03-27T22:30:52.820325+05:30
Pondicherry,Puducherry,11.9139,79.8145,24.7,91,0.0,1009.6,9.2,25.2,68,27.4,17.0,3,0,4,1,2026-03-27T22:30:52.820334+05:30
Port Blair,Andaman and Nicobar Islands,11.6234,92.7265,28.5,79,0.0,1007.0,9.15,25.6,68,28.2,21.4,7,5,4,1,2026-03-27T22:30:52.820342+05:30
Haridwar,Uttarakhand,29.9457,78.1642,20.3,81,0.0,974.1,5.75,38.5,84,49.8,41.0,3,5,3,1,2026-03-27T22:30:52.820351+05:30
Rishikesh,Uttarakhand,30.0869,78.2676,19.8,76,0.0,966.9,6.15,28.4,63,42.1,29.3,3,5,7,0,2026-03-27T22:30:52.820359+05:30
Nainital,Uttarakhand,29.3919,79.4542,15.7,54,0.0,804.1,6.65,50.4,57,31.0,22.9,0,5,7,0,2026-03-27T22:30:52.820367+05:30
Mussoorie,Uttarakhand,30.4599,78.0664,13.6,77,0.0,800.3,5.8,32.8,72,47.0,35.9,3,5,3,0,2026-03-27T22:30:52.820375+05:30
Dharamshala,Himachal Pradesh,32.219,76.3234,17.9,69,0.0,867.5,6.95,19.1,54,29.6,19.2,3,5,7,0,2026-03-27T22:30:52.820382+05:30
Dalhousie,Himachal Pradesh,32.5387,75.971,14.2,79,0.0,801.2,7.2,19.4,71,51.8,42.1,3,5,7,0,2026-03-27T22:30:52.820391+05:30
Patiala,Punjab,30.3398,76.3869,20.7,72,0.0,977.9,6.35,30.2,96,59.0,45.1,3,5,7,0,2026-03-27T22:30:52.820398+05:30
Bhatinda,Punjab,30.211,74.9455,22.3,66,0.0,983.7,7.0,27.0,87,39.1,34.8,3,5,7,0,2026-03-27T22:30:52.820405+05:30
Rohtak,Haryana,28.8955,76.6066,23.2,68,0.0,981.9,6.55,38.5,155,191.4,56.0,3,5,7,1,2026-03-27T22:30:52.820413+05:30
Panipat,Haryana,29.3909,76.9635,22.4,69,0.0,980.3,6.35,37.4,178,92.9,43.1,3,5,7,1,2026-03-27T22:30:52.820420+05:30
Mathura,Uttar Pradesh,27.4924,77.6737,22.8,73,0.0,987.1,6.8,32.4,735,403.3,84.3,3,5,7,1,2026-03-27T22:30:52.820427+05:30
Vrindavan,Uttar Pradesh,27.5823,77.7027,22.8,73,0.0,987.6,6.75,39.2,735,403.3,84.3,3,5,7,1,2026-03-27T22:30:52.820434+05:30
Ayodhya,Uttar Pradesh,26.7922,82.1998,22.4,75,0.0,995.2,6.8,50.4,83,51.1,29.4,3,5,7,1,2026-03-27T22:30:52.820441+05:30
Ratlam,Madhya Pradesh,23.3315,75.0367,25.9,56,0.0,954.9,8.05,38.2,40,24.1,14.1,4,5,7,1,2026-03-27T22:30:52.820448+05:30
Sagar,Madhya Pradesh,23.8388,78.7378,27.7,37,0.0,948.8,8.05,39.2,51,42.3,17.3,4,5,7,0,2026-03-27T22:30:52.820455+05:30
Satna,Madhya Pradesh,24.6005,80.8322,24.7,54,0.0,971.6,7.75,55.4,83,52.5,20.3,0,5,7,0,2026-03-27T22:30:52.820462+05:30
Akola,Maharashtra,20.7002,77.0082,27.6,42,0.0,975.2,8.45,43.6,76,18.0,13.6,4,5,7,0,2026-03-27T22:30:52.820470+05:30
Amravati,Maharashtra,20.9374,77.7796,27.6,38,0.0,967.1,8.45,43.9,75,17.8,13.6,4,5,7,0,2026-03-27T22:30:52.820478+05:30
Latur,Maharashtra,18.4088,76.5604,27.5,42,0.0,940.2,8.8,25.2,92,43.0,33.5,4,5,7,0,2026-03-27T22:30:52.820486+05:30
Nanded,Maharashtra,19.1383,77.3091,31.1,39,0.0,968.6,8.65,28.1,86,41.3,33.4,0,5,7,0,2026-03-27T22:30:52.820492+05:30
Gulbarga,Karnataka,17.3297,76.8343,30.9,37,0.0,959.3,8.85,32.0,118,40.3,35.6,0,5,7,0,2026-03-27T22:30:52.820499+05:30
Bidar,Karnataka,17.9104,77.5199,28.8,46,0.0,936.4,8.85,29.9,89,49.8,42.8,4,5,7,0,2026-03-27T22:30:52.820506+05:30
Hospet,Karnataka,15.2689,76.3909,29.8,50,0.0,956.4,9.1,25.2,121,41.3,35.2,4,5,7,1,2026-03-27T22:30:52.820512+05:30
Tirupur,Tamil Nadu,11.1085,77.3411,28.2,72,0.0,976.5,9.4,28.1,94,44.6,39.3,7,5,7,1,2026-03-27T22:30:52.820519+05:30
Alappuzha,Kerala,9.4981,76.3388,29.0,81,0.0,1010.6,9.15,35.6,82,36.7,30.2,7,0,4,1,2026-03-27T22:30:52.820526+05:30
Munnar,Kerala,10.0889,77.0595,20.8,98,0.0,858.1,9.7,33.8,74,39.9,36.7,3,5,7,1,2026-03-27T22:30:52.820554+05:30
Silchar,Assam,24.8333,92.7789,24.3,76,0.0,1005.2,8.25,16.2,156,107.1,86.8,3,5,4,1,2026-03-27T22:30:52.820564+05:30
Dibrugarh,Assam,27.4728,94.912,23.8,86,0.0,997.3,3.6,10.8,124,66.4,56.0,3,5,3,1,2026-03-27T22:30:52.820571+05:30
