city,state,latitude,longitude,temp,humidity,rain,pressure,uv_index,wind_gusts,aqi,pm10,pm2_5,mosquito_risk,arthritis_risk,migraine_risk,frizz_risk,updated_at
Delhi,Delhi,28.6139,77.209,25.8,56,0.0,987.7,6.6,27.7,228,180.7,67.3,4,5,7,1,2026-03-25T10:26:57.389134+05:30
Mumbai,Maharashtra,19.076,72.8777,28.0,80,0.0,1011.1,7.95,22.7,89,43.1,28.5,7,0,4,1,2026-03-25T10:26:57.389190+05:30
Bangalore,Karnataka,12.9716,77.5946,28.3,53,0.0,915.1,9.5,30.6,75,22.0,18.8,4,5,7,1,2026-03-25T10:26:57.389204+05:30
Hyderabad,Telangana,17.385,78.4867,31.3,47,0.0,957.1,9.0,22.3,90,21.0,15.5,0,5,7,1,2026-03-25T10:26:57.389214+05:30
Chennai,Tamil Nadu,13.0827,80.2707,31.4,55,0.0,1011.0,9.2,32.0,32,19.0,12.8,0,0,4,1,2026-03-25T10:26:57.389222+05:30
Kolkata,West Bengal,22.5726,88.3639,30.0,69,0.0,1010.1,8.4,25.6,86,31.3,24.2,7,0,4,1,2026-03-25T10:26:57.389230+05:30
Pune,Maharashtra,18.5204,73.8567,31.5,31,0.0,951.8,8.5,29.2,91,31.8,25.3,0,5,7,0,2026-03-25T10:26:57.389240+05:30
Ahmedabad,Gujarat,23.0225,72.5714,30.4,56,0.0,1006.1,7.9,22.3,66,19.0,11.7,0,5,4,1,2026-03-25T10:26:57.389246+05:30
Jaipur,Rajasthan,26.9124,75.7873,26.6,44,0.0,964.8,7.35,23.4,113,430.3,65.2,4,5,7,0,2026-03-25T10:26:57.389252+05:30
Lucknow,Uttar Pradesh,26.8467,80.9462,27.9,46,0.0,998.1,7.15,36.7,115,145.3,46.0,4,5,7,0,2026-03-25T10:26:57.389258+05:30
Kanpur,Uttar Pradesh,26.4499,80.3319,27.0,58,0.0,996.7,7.15,28.8,151,261.7,60.3,4,5,7,1,2026-03-25T10:26:57.389264+05:30
Chandigarh,Chandigarh,30.7333,76.7794,24.9,60,0.0,972.5,6.55,33.5,72,34.2,24.9,0,5,7,1,2026-03-25T10:26:57.389270+05:30
Srinagar,Jammu and Kashmir,34.0837,74.7973,14.6,51,0.0,844.3,7.5,13.0,80,40.9,28.2,0,5,7,0,2026-03-25T10:26:57.389277+05:30
Jammu,Jammu and Kashmir,32.7266,74.857,24.7,53,0.0,975.9,7.2,18.7,84,33.2,26.4,0,5,7,0,2026-03-25T10:26:57.389283+05:30
Amritsar,Punjab,31.634,74.8723,25.1,68,0.0,984.5,6.35,20.2,123,64.7,57.6,7,5,7,1,2026-03-25T10:26:57.389289+05:30
Ludhiana,Punjab,30.901,75.8573,25.5,61,0.0,982.6,6.7,24.5,125,64.5,56.9,7,5,7,1,2026-03-25T10:26:57.389295+05:30
Jalandhar,Punjab,31.326,75.5762,24.7,68,0.0,983.7,6.85,23.0,123,65.4,59.0,3,5,7,1,2026-03-25T10:26:57.389302+05:30
Dehradun,Uttarakhand,30.6284,78.0322,17.0,55,0.0,831.9,7.0,23.0,54,15.8,7.9,0,5,7,0,2026-03-25T10:26:57.389308+05:30
Shimla,Himachal Pradesh,31.1048,77.1734,16.0,56,0.0,786.8,7.05,44.6,58,21.9,12.9,0,5,7,0,2026-03-25T10:26:57.389313+05:30
Manali,Himachal Pradesh,32.2396,77.1887,19.3,18,0.0,820.7,9.1,30.6,77,17.5,9.1,0,5,7,1,2026-03-25T10:26:57.389319+05:30
Gurgaon,Haryana,28.4595,77.0266,25.6,62,0.0,986.2,6.75,24.1,711,683.6,117.6,7,5,7,1,2026-03-25T10:26:57.389324+05:30
Noida,Uttar Pradesh,28.5355,77.391,26.1,58,0.0,989.2,6.55,27.4,711,683.6,117.6,4,5,7,1,2026-03-25T10:26:57.389330+05:30
Ghaziabad,Uttar Pradesh,28.6692,77.4538,25.3,62,0.0,987.3,6.55,28.8,155,137.4,58.2,7,5,7,1,2026-03-25T10:26:57.389336+05:30
Faridabad,Haryana,28.4089,77.3178,25.9,61,0.0,988.6,6.5,25.6,711,683.6,117.6,7,5,7,1,2026-03-25T10:26:57.389341+05:30
Meerut,Uttar Pradesh,28.9845,77.7064,25.2,64,0.0,985.7,6.3,33.8,155,137.4,58.2,7,5,7,1,2026-03-25T10:26:57.389347+05:30
Agra,Uttar Pradesh,27.1767,78.0081,28.7,42,0.0,992.9,7.0,28.4,454,376.3,87.8,4,5,7,0,2026-03-25T10:26:57.389354+05:30
Varanasi,Uttar Pradesh,25.3176,82.9739,29.9,44,0.0,1002.2,7.75,29.9,108,158.8,45.3,4,5,4,1,2026-03-25T10:26:57.389361+05:30
Prayagraj,Uttar Pradesh,25.4358,81.8463,29.0,49,0.0,1001.0,7.65,21.6,99,190.5,50.2,4,5,4,1,2026-03-25T10:26:57.389367+05:30
Gorakhpur,Uttar Pradesh,26.7606,83.3732,28.3,53,0.0,1001.2,7.25,29.2,93,94.8,42.6,4,5,4,1,2026-03-25T10:26:57.389374+05:30
Bareilly,Uttar Pradesh,28.367,79.4304,25.2,64,0.0,990.9,6.85,30.2,104,57.5,39.9,7,5,7,1,2026-03-25T10:26:57.389379+05:30
Aligarh,Uttar Pradesh,27.8974,78.088,26.4,58,0.0,990.3,6.75,29.2,375,361.4,88.2,4,5,7,1,2026-03-25T10:26:57.389385+05:30
Moradabad,Uttar Pradesh,28.8386,78.7733,24.9,63,0.0,987.7,6.65,31.3,106,68.9,44.0,3,5,7,1,2026-03-25T10:26:57.389390+05:30
Saharanpur,Uttar Pradesh,29.9637,77.546,24.1,62,0.0,979.6,6.3,36.0,117,63.6,53.1,3,5,7,1,2026-03-25T10:26:57.389395+05:30
Jhansi,Uttar Pradesh,25.4484,78.5685,29.8,43,0.0,982.8,7.65,30.2,84,287.8,47.6,4,5,7,0,2026-03-25T10:27:00.994818+05:30
Surat,Gujarat,21.1702,72.8311,29.5,65,0.0,1010.2,7.7,21.2,99,34.8,28.2,7,0,4,1,2026-03-25T10:27:00.994851+05:30
Vadodara,Gujarat,22.3072,73.1812,31.3,51,0.0,1008.2,7.6,16.9,80,28.9,23.0,0,0,4,1,2026-03-25T10:27:00.994862+05:30
Rajkot,Gujarat,22.3039,70.8022,26.9,69,0.0,998.2,7.7,26.3,35,19.3,9.5,7,5,7,1,2026-03-25T10:27:00.994871+05:30
Thane,Maharashtra,19.2183,72.9781,30.8,60,0.0,1010.6,7.95,35.6,89,43.1,28.5,0,0,4,1,2026-03-25T10:27:00.994880+05:30
Nagpur,Maharashtra,21.1458,79.0882,32.1,33,0.0,976.8,8.2,20.5,107,43.7,32.6,0,5,7,0,2026-03-25T10:27:00.994889+05:30
Nashik,Maharashtra,19.9975,73.7898,29.5,40,0.0,949.0,8.15,26.3,75,20.1,11.4,4,5,7,0,2026-03-25T10:27:00.994897+05:30
Aurangabad,Maharashtra,19.8762,75.3433,30.7,35,0.0,947.9,8.7,30.2,59,19.2,13.2,0,5,7,0,2026-03-25T10:27:00.994906+05:30
Solapur,Maharashtra,17.6599,75.9064,31.2,52,0.0,960.3,8.85,33.1,96,46.6,38.4,0,5,7,1,2026-03-25T10:27:00.994915+05:30
Kolhapur,Maharashtra,16.705,74.2433,30.7,43,0.0,951.0,8.95,42.1,139,63.8,48.8,0,5,7,1,2026-03-25T10:27:00.994923+05:30
Goa,Goa,15.2993,74.124,31.2,65,0.0,1000.4,8.95,29.2,100,41.2,31.3,3,5,4,1,2026-03-25T10:27:00.994931+05:30
Jodhpur,Rajasthan,26.2389,73.0243,29.6,35,0.0,986.8,7.15,27.4,56,52.0,20.4,4,5,7,0,2026-03-25T10:27:00.994939+05:30
Udaipur,Rajasthan,24.5854,73.7125,30.4,37,0.0,950.7,8.1,25.6,56,34.0,11.5,0,5,7,0,2026-03-25T10:27:00.994947+05:30
Kota,Rajasthan,25.2138,75.8648,29.5,43,0.0,983.2,7.7,33.1,79,35.3,20.2,4,5,7,0,2026-03-25T10:27:00.994955+05:30
Bikaner,Rajasthan,28.0229,73.3119,29.0,32,0.0,985.5,5.95,27.7,56,82.0,21.2,4,5,3,0,2026-03-25T10:27:00.994963+05:30
Ajmer,Rajasthan,26.4499,74.6399,27.2,43,0.0,958.8,7.5,31.0,63,176.5,33.9,4,5,7,0,2026-03-25T10:27:00.994971+05:30
Gwalior,Madhya Pradesh,26.2183,78.1828,29.5,39,0.0,988.2,7.35,28.1,149,491.7,85.2,4,5,7,0,2026-03-25T10:27:00.994979+05:30
Indore,Madhya Pradesh,22.7196,75.8577,29.3,42,0.0,951.9,8.15,24.8,64,28.9,18.0,4,5,7,0,2026-03-25T10:27:00.994987+05:30
Bhopal,Madhya Pradesh,23.2599,77.4126,31.3,34,0.0,957.6,8.05,21.6,63,30.3,13.9,0,5,7,0,2026-03-25T10:27:00.994995+05:30
Jabalpur,Madhya Pradesh,23.1815,79.9864,29.6,47,0.0,965.7,8.2,24.8,64,38.2,14.7,4,5,7,1,2026-03-25T10:27:00.995003+05:30
Ujjain,Madhya Pradesh,23.1765,75.7885,29.0,43,0.0,957.6,8.0,21.2,77,36.9,26.3,4,5,7,0,2026-03-25T10:27:00.995012+05:30
Visakhapatnam,Andhra Pradesh,17.6868,83.2185,31.0,61,0.0,1007.9,8.95,37.1,72,36.1,24.4,3,5,4,1,2026-03-25T10:27:00.995021+05:30
Vijayawada,Andhra Pradesh,16.5062,80.648,29.8,66,0.0,1006.9,9.0,24.5,59,16.6,10.6,7,5,4,1,2026-03-25T10:27:00.995029+05:30
Guntur,Andhra Pradesh,16.3067,80.4365,30.0,64,0.0,1008.0,9.0,25.9,57,13.9,9.4,7,0,4,1,2026-03-25T10:27:00.995037+05:30
Nellore,Andhra Pradesh,14.4426,79.9865,30.9,58,0.0,1009.7,9.1,29.9,35,12.5,10.0,0,0,4,1,2026-03-25T10:27:00.995046+05:30
Kurnool,Andhra Pradesh,15.8281,78.0373,32.6,46,0.0,980.4,8.9,18.4,67,13.0,10.5,0,5,7,1,2026-03-25T10:27:00.995056+05:30
Kakinada,Andhra Pradesh,16.9891,82.2475,31.3,59,0.0,1011.7,8.95,27.7,52,24.4,13.4,0,0,4,1,2026-03-25T10:27:00.995064+05:30
Tirupati,Andhra Pradesh,13.6288,79.4192,29.6,58,0.0,995.6,9.2,29.5,58,11.0,8.4,4,5,7,1,2026-03-25T10:27:00.995071+05:30
Warangal,Telangana,17.9689,79.5941,29.2,64,0.0,983.0,8.85,25.6,82,18.9,14.1,7,5,7,1,2026-03-25T10:27:00.995079+05:30
Nizamabad,Telangana,18.6725,78.0941,31.5,48,0.0,968.7,8.75,32.8,101,44.6,38.1,0,5,7,1,2026-03-25T10:27:00.995087+05:30
Mysore,Karnataka,12.2958,76.6396,29.5,51,0.0,931.7,9.45,34.9,86,23.6,22.4,4,5,7,1,2026-03-25T10:27:00.995093+05:30
Mangalore,Karnataka,12.9141,74.856,28.8,80,0.0,1009.3,9.05,26.6,105,53.8,40.4,7,0,4,1,2026-03-25T10:27:00.995100+05:30
Hubli-Dharwad,Karnataka,15.3647,75.124,29.0,60,0.0,943.9,9.1,33.1,125,53.0,41.1,4,5,7,1,2026-03-25T10:27:00.995107+05:30
Belgaum,Karnataka,15.8497,74.4977,29.8,51,0.0,928.9,9.05,25.6,115,44.7,32.6,4,5,7,1,2026-03-25T10:27:04.244485+05:30
Coimbatore,Tamil Nadu,11.0168,76.9558,29.8,58,0.0,965.3,9.4,36.4,57,7.5,6.7,4,5,7,1,2026-03-25T10:27:04.244516+05:30
Madurai,Tamil Nadu,9.9252,78.1198,29.8,61,0.0,996.8,9.35,25.9,53,13.5,10.6,7,5,7,1,2026-03-25T10:27:04.244528+05:30
Trichy,Tamil Nadu,10.7905,78.7047,29.0,66,0.0,1003.8,9.3,22.7,53,18.7,14.3,7,5,4,1,2026-03-25T10:27:04.244537+05:30
Salem,Tamil Nadu,11.6643,78.146,30.0,58,0.0,981.1,9.35,31.0,77,21.9,21.0,4,5,7,1,2026-03-25T10:27:04.244546+05:30
Tirunelveli,Tamil Nadu,8.7139,77.7567,31.6,53,0.0,1006.5,9.3,37.4,38,8.3,6.5,0,5,4,1,2026-03-25T10:27:04.244555+05:30
Vellore,Tamil Nadu,12.9165,79.1325,29.3,59,0.0,988.5,9.3,32.0,62,13.8,12.1,4,5,7,1,2026-03-25T10:27:04.244564+05:30
Erode,Tamil Nadu,11.341,77.7172,29.9,62,0.0,992.8,9.3,24.8,52,12.0,9.8,7,5,7,1,2026-03-25T10:27:04.244572+05:30
Kochi,Kerala,9.9312,76.2673,28.0,82,0.0,1011.3,9.15,32.4,82,30.5,23.8,7,0,4,1,2026-03-25T10:27:04.244579+05:30
Thiruvananthapuram,Kerala,8.5241,76.9366,28.3,78,0.0,1010.3,9.2,30.2,65,24.2,18.7,7,0,4,1,2026-03-25T10:27:04.244585+05:30
Kozhikode,Kerala,11.2588,75.7804,30.0,73,0.0,1010.4,9.1,29.5,89,50.2,37.6,7,0,4,1,2026-03-25T10:27:04.244592+05:30
Thrissur,Kerala,10.5276,76.2144,32.4,57,0.0,1009.5,9.15,37.1,81,30.2,23.1,0,0,4,1,2026-03-25T10:27:04.244599+05:30
Kannur,Kerala,11.8745,75.3704,31.1,64,0.0,1009.8,9.05,28.8,103,54.8,41.7,3,0,4,1,2026-03-25T10:27:04.244606+05:30
Patna,Bihar,25.5941,85.1376,29.5,45,0.0,1004.7,7.35,32.4,110,82.4,40.6,4,5,4,1,2026-03-25T10:27:04.244612+05:30
Gaya,Bihar,24.7914,85.0002,29.1,51,0.0,998.4,8.05,23.0,118,66.1,30.0,4,5,7,1,2026-03-25T10:27:04.244619+05:30
Muzaffarpur,Bihar,26.1209,85.3647,29.1,51,0.0,1004.4,7.35,26.6,118,81.7,47.8,4,5,4,1,2026-03-25T10:27:04.244626+05:30
Bhagalpur,Bihar,25.2425,87.0117,28.5,65,0.0,1005.2,8.0,28.1,152,91.3,65.0,7,5,4,1,2026-03-25T10:27:04.244633+05:30
Ranchi,Jharkhand,23.3441,85.3096,28.2,40,0.0,942.2,7.95,31.0,100,48.1,21.7,4,5,7,0,2026-03-25T10:27:04.244639+05:30
Jamshedpur,Jharkhand,22.8046,86.2029,31.0,52,0.0,994.9,8.55,16.6,141,82.7,57.3,0,5,7,1,2026-03-25T10:27:04.244646+05:30
Dhanbad,Jharkhand,23.7957,86.4304,31.6,34,0.0,984.1,8.45,31.3,156,68.9,37.6,0,5,7,0,2026-03-25T10:27:04.244652+05:30
Bokaro,Jharkhand,23.6693,86.1511,30.8,39,0.0,988.2,8.4,28.1,152,69.4,37.7,0,5,7,0,2026-03-25T10:27:04.244659+05:30
Bhubaneswar,Odisha,20.2961,85.8245,29.4,71,0.0,1006.9,8.6,28.4,69,34.0,25.1,7,5,4,1,2026-03-25T10:27:04.244666+05:30
Cuttack,Odisha,20.4625,85.8828,30.6,67,0.0,1008.5,8.65,27.4,69,34.0,25.1,3,0,4,1,2026-03-25T10:27:04.244673+05:30
Rourkela,Odisha,22.2604,84.8536,31.1,57,0.0,989.4,8.45,20.9,139,69.2,47.5,0,5,7,1,2026-03-25T10:27:04.244680+05:30
Raipur,Chhattisgarh,21.2514,81.6296,30.9,53,0.0,978.8,8.1,29.2,150,69.6,62.4,0,5,7,1,2026-03-25T10:27:04.244686+05:30
Bhilai,Chhattisgarh,21.1938,81.3509,30.3,58,0.0,979.1,7.7,25.9,121,62.6,56.5,0,5,7,1,2026-03-25T10:27:04.244692+05:30
Guwahati,Assam,26.1158,91.7086,24.8,76,0.0,1006.2,7.85,28.1,126,55.1,38.9,3,5,4,1,2026-03-25T10:27:04.244699+05:30
Agartala,Tripura,23.8315,91.2868,28.8,72,0.0,1010.6,8.2,27.4,158,58.0,46.3,7,0,4,1,2026-03-25T10:27:04.244705+05:30
Shillong,Meghalaya,25.5788,91.8933,17.7,53,0.0,859.3,8.25,67.0,112,55.6,36.8,0,5,7,0,2026-03-25T10:27:04.244712+05:30
Imphal,Manipur,24.817,93.9368,19.1,76,0.0,927.2,8.35,72.4,114,68.0,45.2,3,5,7,0,2026-03-25T10:27:04.244719+05:30
Aizawl,Mizoram,23.7271,92.7176,23.6,49,0.0,897.6,8.4,43.9,118,65.9,37.3,0,5,7,0,2026-03-25T10:27:04.244725+05:30
Kohima,Nagaland,25.6701,94.1077,17.9,58,0.0,858.3,8.1,76.7,89,63.8,40.6,0,5,7,0,2026-03-25T10:27:04.244731+05:30
Gangtok,Sikkim,27.3314,88.6138,16.3,73,0.0,839.3,8.05,18.0,81,28.0,18.9,3,5,7,0,2026-03-25T10:27:04.244738+05:30
Siliguri,West Bengal,26.7271,88.3953,21.0,80,0.0,997.9,7.75,25.6,155,76.1,54.0,3,5,7,1,2026-03-25T10:27:07.496621+05:30
Durgapur,West Bengal,23.5204,87.3119,31.6,53,0.0,999.1,8.4,27.0,155,90.1,61.5,0,5,7,1,2026-03-25T10:27:07.496651+05:30
Asansol,West Bengal,23.6739,86.9524,32.1,45,0.0,997.5,8.4,26.6,147,73.1,42.1,0,5,7,1,2026-03-25T10:27:07.496660+05:30
Pondicherry,Puducherry,11.9139,79.8145,30.2,62,0.0,1012.3,9.2,29.5,31,15.3,9.6,3,0,4,1,2026-03-25T10:27:07.496668+05:30
Port Blair,Andaman and Nicobar Islands,11.6234,92.7265,28.1,77,0.0,1009.6,9.1,24.5,69,22.0,17.0,7,0,4,1,2026-03-25T10:27:07.496676+05:30
Haridwar,Uttarakhand,29.9457,78.1642,25.3,59,0.0,977.8,6.45,26.6,89,28.3,25.9,4,5,7,1,2026-03-25T10:27:07.496683+05:30
Rishikesh,Uttarakhand,30.0869,78.2676,25.4,60,0.0,970.1,6.5,25.2,78,33.1,25.3,4,5,7,1,2026-03-25T10:27:07.496691+05:30
Nainital,Uttarakhand,29.3919,79.4542,19.0,62,0.0,808.3,7.3,27.7,79,24.0,19.4,3,5,7,0,2026-03-25T10:27:07.496699+05:30
Mussoorie,Uttarakhand,30.4599,78.0664,17.9,63,0.0,804.8,6.85,26.6,76,20.8,15.2,3,5,7,0,2026-03-25T10:27:07.496706+05:30
Dharamshala,Himachal Pradesh,32.219,76.3234,19.8,58,0.0,870.9,6.95,19.4,72,16.9,5.3,0,5,7,0,2026-03-25T10:27:07.496713+05:30
Dalhousie,Himachal Pradesh,32.5387,75.971,18.1,43,0.0,805.5,7.35,19.4,71,21.0,12.1,0,5,7,0,2026-03-25T10:27:07.496721+05:30
Patiala,Punjab,30.3398,76.3869,25.8,62,0.0,982.2,6.35,28.4,149,52.2,47.1,7,5,7,1,2026-03-25T10:27:07.496728+05:30
Bhatinda,Punjab,30.211,74.9455,26.7,55,0.0,987.8,6.7,23.8,142,46.0,44.0,4,5,7,1,2026-03-25T10:27:07.496734+05:30
Rohtak,Haryana,28.8955,76.6066,25.7,62,0.0,986.5,6.25,21.2,389,258.0,71.9,7,5,7,1,2026-03-25T10:27:07.496742+05:30
Panipat,Haryana,29.3909,76.9635,25.8,62,0.0,984.7,6.35,28.8,639,242.1,64.3,7,5,7,1,2026-03-25T10:27:07.496748+05:30
Mathura,Uttar Pradesh,27.4924,77.6737,27.4,51,0.0,991.9,6.9,21.2,503,478.7,101.7,4,5,7,1,2026-03-25T10:27:07.496755+05:30
Vrindavan,Uttar Pradesh,27.5823,77.7027,27.2,54,0.0,992.2,6.85,24.5,503,478.7,101.7,4,5,7,1,2026-03-25T10:27:07.496761+05:30
Ayodhya,Uttar Pradesh,26.7922,82.1998,29.0,44,0.0,999.6,7.3,35.6,99,115.0,47.5,4,5,7,0,2026-03-25T10:27:07.496768+05:30
Ratlam,Madhya Pradesh,23.3315,75.0367,30.0,41,0.0,958.1,8.05,25.6,72,33.1,19.5,4,5,7,0,2026-03-25T10:27:07.496775+05:30
Sagar,Madhya Pradesh,23.8388,78.7378,30.8,35,0.0,954.4,8.05,22.0,61,67.8,19.6,0,5,7,0,2026-03-25T10:27:07.496782+05:30
Satna,Madhya Pradesh,24.6005,80.8322,30.0,36,0.0,976.2,7.5,27.7,75,227.2,39.0,4,5,7,0,2026-03-25T10:27:07.496789+05:30
Akola,Maharashtra,20.7002,77.0082,31.8,38,0.0,978.8,8.45,23.8,56,15.3,12.3,0,5,7,0,2026-03-25T10:27:07.496796+05:30
Amravati,Maharashtra,20.9374,77.7796,32.1,36,0.0,970.9,8.45,20.2,63,18.7,14.9,0,5,7,0,2026-03-25T10:27:07.496803+05:30
Latur,Maharashtra,18.4088,76.5604,30.2,52,0.0,943.5,8.8,15.5,105,44.5,37.0,0,5,7,1,2026-03-25T10:27:07.496810+05:30
Nanded,Maharashtra,19.1383,77.3091,32.6,44,0.0,972.3,8.65,20.5,96,48.5,41.8,0,5,7,1,2026-03-25T10:27:07.496817+05:30
Gulbarga,Karnataka,17.3297,76.8343,31.8,45,0.0,962.2,8.85,49.0,101,42.8,34.5,0,5,7,1,2026-03-25T10:27:07.496823+05:30
Bidar,Karnataka,17.9104,77.5199,30.7,46,0.0,939.2,8.85,24.8,95,39.0,31.9,0,5,7,1,2026-03-25T10:27:07.496829+05:30
Hospet,Karnataka,15.2689,76.3909,29.7,54,0.0,959.1,9.05,21.2,114,40.5,33.4,4,5,7,1,2026-03-25T10:27:07.496836+05:30
Tirupur,Tamil Nadu,11.1085,77.3411,30.2,59,0.0,979.0,9.4,29.2,57,10.7,9.1,0,5,7,1,2026-03-25T10:27:07.496842+05:30
Alappuzha,Kerala,9.4981,76.3388,28.2,81,0.0,1011.3,9.15,28.1,80,32.8,25.3,7,0,4,1,2026-03-25T10:27:07.496848+05:30
Munnar,Kerala,10.0889,77.0595,27.8,49,0.0,861.1,9.65,31.0,56,6.0,5.1,4,5,7,1,2026-03-25T10:27:07.496855+05:30
Silchar,Assam,24.8333,92.7789,24.8,74,0.0,1010.8,8.2,36.0,159,88.9,63.6,3,0,4,1,2026-03-25T10:27:07.496862+05:30
Dibrugarh,Assam,27.4728,94.912,19.4,90,0.1,1001.4,5.55,27.7,75,24.4,19.4,6,10,0,1,2026-03-25T10:27:07.496870+05:30
