city,state,latitude,longitude,temp,humidity,rain,pressure,uv_index,wind_gusts,aqi,pm10,pm2_5,mosquito_risk,arthritis_risk,migraine_risk,frizz_risk,updated_at
Delhi,Delhi,28.6139,77.209,30.7,26,0.0,984.5,5.8,29.2,419,309.2,46.2,0,5,3,0,2026-03-14T14:09:35.435918+05:30
Mumbai,Maharashtra,19.076,72.8777,28.4,75,0.0,1009.2,7.7,18.0,120,61.9,52.6,7,0,4,1,2026-03-14T14:09:35.435967+05:30
Bangalore,Karnataka,12.9716,77.5946,32.1,24,0.0,913.7,9.3,32.8,103,42.5,32.9,0,5,7,0,2026-03-14T14:09:35.435983+05:30
Hyderabad,Telangana,17.385,78.4867,36.0,21,0.0,954.6,8.7,30.2,101,46.6,30.5,0,5,10,0,2026-03-14T14:09:35.435993+05:30
Chennai,Tamil Nadu,13.0827,80.2707,33.5,46,0.0,1009.3,9.05,31.3,58,18.2,14.0,0,0,4,1,2026-03-14T14:09:35.436002+05:30
Kolkata,West Bengal,22.5726,88.3639,31.9,60,0.0,1006.7,8.1,33.8,84,33.2,23.7,0,5,4,1,2026-03-14T14:09:35.436011+05:30
Pune,Maharashtra,18.5204,73.8567,37.5,16,0.0,949.4,8.25,47.2,105,36.1,29.6,0,5,10,0,2026-03-14T14:09:35.436025+05:30
Ahmedabad,Gujarat,23.0225,72.5714,36.8,21,0.0,1002.5,7.5,24.1,80,63.3,24.3,0,5,7,0,2026-03-14T14:09:35.436033+05:30
Jaipur,Rajasthan,26.9124,75.7873,34.4,16,0.0,960.7,6.95,31.0,140,130.9,29.9,0,5,7,0,2026-03-14T14:09:35.436040+05:30
Lucknow,Uttar Pradesh,26.8467,80.9462,33.1,30,0.0,994.4,6.7,25.2,170,159.3,47.1,0,5,7,0,2026-03-14T14:09:35.436049+05:30
Kanpur,Uttar Pradesh,26.4499,80.3319,32.6,30,0.0,992.8,6.65,19.4,368,299.0,57.9,0,5,7,0,2026-03-14T14:09:35.436056+05:30
Chandigarh,Chandigarh,30.7333,76.7794,28.1,38,0.0,969.9,5.25,19.4,72,22.1,15.7,4,5,3,0,2026-03-14T14:09:35.436064+05:30
Srinagar,Jammu and Kashmir,34.0837,74.7973,16.0,48,0.0,842.7,5.6,14.8,91,27.5,11.6,0,5,3,0,2026-03-14T14:09:35.436072+05:30
Jammu,Jammu and Kashmir,32.7266,74.857,27.5,43,0.0,973.3,6.45,20.5,78,25.1,14.1,4,5,7,0,2026-03-14T14:09:35.436079+05:30
Amritsar,Punjab,31.634,74.8723,26.8,47,0.0,981.8,4.85,17.3,73,11.7,10.1,4,5,3,0,2026-03-14T14:09:35.436087+05:30
Ludhiana,Punjab,30.901,75.8573,27.4,30,0.0,980.1,5.25,23.0,87,25.1,18.8,4,5,3,0,2026-03-14T14:09:35.436094+05:30
Jalandhar,Punjab,31.326,75.5762,29.2,31,0.0,980.9,6.35,23.8,92,34.9,16.6,4,5,7,0,2026-03-14T14:09:35.436103+05:30
Dehradun,Uttarakhand,30.6284,78.0322,20.5,44,0.0,831.7,4.2,21.6,53,24.6,8.9,0,5,3,0,2026-03-14T14:09:35.436111+05:30
Shimla,Himachal Pradesh,31.1048,77.1734,18.2,50,0.0,786.5,5.75,34.6,57,24.3,8.1,0,5,3,0,2026-03-14T14:09:35.436118+05:30
Manali,Himachal Pradesh,32.2396,77.1887,20.0,24,0.0,820.9,7.5,34.2,48,37.3,8.1,0,5,7,1,2026-03-14T14:09:35.436148+05:30
Gurgaon,Haryana,28.4595,77.0266,30.6,27,0.0,983.1,5.9,27.0,1226,1169.7,119.2,0,5,3,0,2026-03-14T14:09:35.436157+05:30
Noida,Uttar Pradesh,28.5355,77.391,31.2,24,0.0,986.0,5.8,28.1,1226,1169.7,119.2,0,5,3,0,2026-03-14T14:09:35.436165+05:30
Ghaziabad,Uttar Pradesh,28.6692,77.4538,30.5,30,0.0,984.1,5.9,26.6,285,197.4,38.3,0,5,3,0,2026-03-14T14:09:35.436171+05:30
Faridabad,Haryana,28.4089,77.3178,30.4,27,0.0,985.2,5.6,33.1,1226,1169.7,119.2,0,5,3,0,2026-03-14T14:09:35.436179+05:30
Meerut,Uttar Pradesh,28.9845,77.7064,29.9,29,0.0,982.9,5.8,26.6,285,197.4,38.3,4,5,3,0,2026-03-14T14:09:35.436188+05:30
Agra,Uttar Pradesh,27.1767,78.0081,33.9,18,0.0,988.9,6.3,22.0,734,366.0,61.0,0,5,7,0,2026-03-14T14:09:35.436196+05:30
Varanasi,Uttar Pradesh,25.3176,82.9739,34.7,35,0.0,998.0,7.05,31.7,136,119.0,36.2,0,5,7,1,2026-03-14T14:09:35.436206+05:30
Prayagraj,Uttar Pradesh,25.4358,81.8463,34.4,36,0.0,996.5,7.1,19.4,152,167.6,46.4,0,5,7,1,2026-03-14T14:09:35.436213+05:30
Gorakhpur,Uttar Pradesh,26.7606,83.3732,31.2,36,0.0,997.7,6.7,25.2,143,160.7,50.8,0,5,7,0,2026-03-14T14:09:35.436221+05:30
Bareilly,Uttar Pradesh,28.367,79.4304,29.1,44,0.0,988.1,6.4,20.2,146,48.1,31.8,4,5,7,0,2026-03-14T14:09:35.436228+05:30
Aligarh,Uttar Pradesh,27.8974,78.088,33.1,21,0.0,986.6,6.3,27.4,702,529.0,76.4,0,5,7,0,2026-03-14T14:09:35.436235+05:30
Moradabad,Uttar Pradesh,28.8386,78.7733,29.0,42,0.0,984.9,5.8,22.3,147,53.3,30.2,4,5,3,0,2026-03-14T14:09:35.436241+05:30
Saharanpur,Uttar Pradesh,29.9637,77.546,29.3,40,0.0,976.7,4.8,25.6,137,63.6,29.9,4,5,3,0,2026-03-14T14:09:35.436248+05:30
Jhansi,Uttar Pradesh,25.4484,78.5685,35.6,24,0.0,978.5,7.2,26.6,129,198.8,48.5,0,5,10,0,2026-03-14T14:09:38.776762+05:30
Surat,Gujarat,21.1702,72.8311,32.5,34,0.0,1008.0,7.35,22.0,138,132.7,60.3,0,0,4,0,2026-03-14T14:09:38.776792+05:30
Vadodara,Gujarat,22.3072,73.1812,37.4,21,0.0,1004.9,7.5,27.4,97,111.1,38.8,0,5,7,0,2026-03-14T14:09:38.776802+05:30
Rajkot,Gujarat,22.3039,70.8022,36.3,22,0.0,995.2,7.35,33.1,91,87.8,27.7,0,5,10,0,2026-03-14T14:09:38.776809+05:30
Thane,Maharashtra,19.2183,72.9781,34.8,37,0.0,1008.9,7.65,33.8,120,61.9,52.6,0,0,4,1,2026-03-14T14:09:38.776817+05:30
Nagpur,Maharashtra,21.1458,79.0882,36.9,18,0.0,973.8,8.1,15.5,116,47.3,38.9,0,5,10,0,2026-03-14T14:09:38.776824+05:30
Nashik,Maharashtra,19.9975,73.7898,35.0,17,0.0,947.3,7.9,37.1,88,25.1,21.9,0,5,7,0,2026-03-14T14:09:38.776831+05:30
Aurangabad,Maharashtra,19.8762,75.3433,34.8,22,0.0,945.7,8.4,23.4,88,30.7,23.4,0,5,7,0,2026-03-14T14:09:38.776838+05:30
Solapur,Maharashtra,17.6599,75.9064,36.2,24,0.0,957.9,8.6,20.9,109,47.4,37.3,0,5,10,0,2026-03-14T14:09:38.776845+05:30
Kolhapur,Maharashtra,16.705,74.2433,33.8,33,0.0,949.2,8.7,46.1,151,44.1,39.1,0,5,7,0,2026-03-14T14:09:38.776852+05:30
Goa,Goa,15.2993,74.124,31.9,61,0.0,999.3,8.75,31.7,133,42.3,37.8,3,5,7,1,2026-03-14T14:09:38.776859+05:30
Jodhpur,Rajasthan,26.2389,73.0243,36.9,17,0.0,982.3,7.1,38.2,85,112.9,29.5,0,5,10,0,2026-03-14T14:09:38.776865+05:30
Udaipur,Rajasthan,24.5854,73.7125,34.7,15,0.0,947.5,7.85,37.4,67,47.8,16.1,0,5,7,0,2026-03-14T14:09:38.776872+05:30
Kota,Rajasthan,25.2138,75.8648,36.4,19,0.0,978.6,7.25,23.8,66,44.1,23.1,0,5,10,0,2026-03-14T14:09:38.776878+05:30
Bikaner,Rajasthan,28.0229,73.3119,34.8,20,0.0,981.6,6.7,23.8,58,58.1,17.1,0,5,7,0,2026-03-14T14:09:38.776885+05:30
Ajmer,Rajasthan,26.4499,74.6399,34.5,20,0.0,954.8,7.1,37.8,84,130.4,30.7,0,5,7,0,2026-03-14T14:09:38.776892+05:30
Gwalior,Madhya Pradesh,26.2183,78.1828,32.7,33,0.0,984.2,6.7,20.9,223,143.4,37.3,0,5,7,0,2026-03-14T14:09:38.776900+05:30
Indore,Madhya Pradesh,22.7196,75.8577,36.6,16,0.0,949.1,7.8,36.4,84,28.6,19.2,0,5,10,0,2026-03-14T14:09:38.776906+05:30
Bhopal,Madhya Pradesh,23.2599,77.4126,36.4,18,0.0,954.8,7.65,34.2,68,26.4,19.3,0,5,10,0,2026-03-14T14:09:38.776912+05:30
Jabalpur,Madhya Pradesh,23.1815,79.9864,35.9,17,0.0,962.6,7.8,32.0,78,12.6,11.4,0,5,10,0,2026-03-14T14:09:38.776919+05:30
Ujjain,Madhya Pradesh,23.1765,75.7885,35.5,18,0.0,954.9,7.7,39.6,82,27.2,16.7,0,5,10,0,2026-03-14T14:09:38.776926+05:30
Visakhapatnam,Andhra Pradesh,17.6868,83.2185,31.6,56,0.0,1005.9,8.65,40.7,65,21.4,16.3,0,5,4,1,2026-03-14T14:09:38.776932+05:30
Vijayawada,Andhra Pradesh,16.5062,80.648,33.8,49,0.0,1004.3,8.75,32.0,66,21.2,15.5,0,5,4,1,2026-03-14T14:09:38.776939+05:30
Guntur,Andhra Pradesh,16.3067,80.4365,33.4,51,0.0,1005.7,8.75,34.6,64,25.6,19.2,0,5,4,1,2026-03-14T14:09:38.776945+05:30
Nellore,Andhra Pradesh,14.4426,79.9865,35.4,40,0.0,1007.3,8.9,32.0,62,31.8,25.3,0,5,7,1,2026-03-14T14:09:38.776953+05:30
Kurnool,Andhra Pradesh,15.8281,78.0373,38.1,21,0.0,977.6,8.75,24.1,98,44.4,30.7,0,5,10,0,2026-03-14T14:09:38.776960+05:30
Kakinada,Andhra Pradesh,16.9891,82.2475,33.7,50,0.0,1009.4,8.7,33.1,58,17.4,12.3,0,0,4,1,2026-03-14T14:09:38.776967+05:30
Tirupati,Andhra Pradesh,13.6288,79.4192,34.2,34,0.0,993.2,9.0,32.4,73,30.0,23.6,0,5,7,1,2026-03-14T14:09:38.776973+05:30
Warangal,Telangana,17.9689,79.5941,33.8,43,0.0,980.4,8.5,28.4,96,39.7,30.3,0,5,7,1,2026-03-14T14:09:38.776979+05:30
Nizamabad,Telangana,18.6725,78.0941,36.0,28,0.0,965.8,8.45,25.6,119,47.1,35.2,0,5,10,0,2026-03-14T14:09:38.776986+05:30
Mysore,Karnataka,12.2958,76.6396,33.6,21,0.0,930.1,9.3,32.0,101,36.0,28.5,0,5,7,0,2026-03-14T14:09:38.776992+05:30
Mangalore,Karnataka,12.9141,74.856,28.5,82,0.0,1007.5,8.95,28.8,105,34.7,29.7,7,5,4,1,2026-03-14T14:09:38.776999+05:30
Hubli-Dharwad,Karnataka,15.3647,75.124,33.9,35,0.0,942.3,8.95,42.8,108,41.1,34.0,0,5,7,1,2026-03-14T14:09:38.777005+05:30
Belgaum,Karnataka,15.8497,74.4977,30.1,51,0.0,927.4,8.95,43.2,122,46.6,40.5,0,5,7,1,2026-03-14T14:09:42.120080+05:30
Coimbatore,Tamil Nadu,11.0168,76.9558,34.6,25,0.0,963.1,9.3,33.8,72,23.4,18.3,0,5,7,0,2026-03-14T14:09:42.120112+05:30
Madurai,Tamil Nadu,9.9252,78.1198,35.2,36,0.0,993.9,9.25,24.8,63,8.4,6.6,0,5,10,1,2026-03-14T14:09:42.120123+05:30
Trichy,Tamil Nadu,10.7905,78.7047,34.4,40,0.0,1000.9,9.2,23.4,68,11.7,9.3,0,5,4,1,2026-03-14T14:09:42.120166+05:30
Salem,Tamil Nadu,11.6643,78.146,33.6,42,0.0,978.7,9.2,19.8,99,24.4,20.1,0,5,7,1,2026-03-14T14:09:42.120174+05:30
Tirunelveli,Tamil Nadu,8.7139,77.7567,35.2,38,0.0,1003.9,9.25,36.7,51,7.4,6.0,0,5,7,1,2026-03-14T14:09:42.120182+05:30
Vellore,Tamil Nadu,12.9165,79.1325,34.5,27,0.0,986.2,9.1,32.4,99,33.5,28.3,0,5,7,0,2026-03-14T14:09:42.120189+05:30
Erode,Tamil Nadu,11.341,77.7172,35.3,31,0.0,990.2,9.2,22.3,67,15.9,12.6,0,5,10,0,2026-03-14T14:09:42.120195+05:30
Kochi,Kerala,9.9312,76.2673,28.0,81,0.0,1009.8,9.1,30.2,87,21.4,19.6,7,0,4,1,2026-03-14T14:09:42.120203+05:30
Thiruvananthapuram,Kerala,8.5241,76.9366,28.2,77,0.0,1009.0,9.1,23.0,59,16.6,14.8,7,0,4,1,2026-03-14T14:09:42.120210+05:30
Kozhikode,Kerala,11.2588,75.7804,29.5,75,0.0,1008.9,9.0,26.3,76,27.3,24.6,7,0,4,1,2026-03-14T14:09:42.120216+05:30
Thrissur,Kerala,10.5276,76.2144,32.0,62,0.0,1008.1,9.05,35.3,96,26.0,22.9,3,0,4,1,2026-03-14T14:09:42.120224+05:30
Kannur,Kerala,11.8745,75.3704,30.1,71,0.0,1008.4,9.0,31.7,95,28.8,25.0,3,0,4,1,2026-03-14T14:09:42.120230+05:30
Patna,Bihar,25.5941,85.1376,32.9,41,0.0,1000.7,7.5,22.0,150,134.1,45.3,0,5,4,1,2026-03-14T14:09:42.120237+05:30
Gaya,Bihar,24.7914,85.0002,34.1,32,0.0,994.1,7.6,22.7,126,92.0,30.2,0,5,7,0,2026-03-14T14:09:42.120243+05:30
Muzaffarpur,Bihar,26.1209,85.3647,33.0,41,0.0,1000.5,7.45,25.9,162,97.6,43.0,0,5,4,1,2026-03-14T14:09:42.120251+05:30
Bhagalpur,Bihar,25.2425,87.0117,33.2,42,0.0,1001.3,7.5,23.8,160,138.3,50.9,0,5,4,1,2026-03-14T14:09:42.120257+05:30
Ranchi,Jharkhand,23.3441,85.3096,34.1,19,0.0,939.3,8.25,27.7,82,38.1,14.3,0,5,7,0,2026-03-14T14:09:42.120263+05:30
Jamshedpur,Jharkhand,22.8046,86.2029,36.4,29,0.0,990.8,8.1,20.5,144,76.1,38.5,0,5,10,0,2026-03-14T14:09:42.120270+05:30
Dhanbad,Jharkhand,23.7957,86.4304,36.6,21,0.0,980.1,8.0,22.7,154,78.0,35.9,0,5,10,0,2026-03-14T14:09:42.120276+05:30
Bokaro,Jharkhand,23.6693,86.1511,36.8,19,0.0,984.1,8.0,26.3,150,64.5,27.8,0,5,10,0,2026-03-14T14:09:42.120283+05:30
Bhubaneswar,Odisha,20.2961,85.8245,32.4,57,0.0,1004.1,8.45,39.2,71,29.8,21.8,0,5,4,1,2026-03-14T14:09:42.120290+05:30
Cuttack,Odisha,20.4625,85.8828,35.3,45,0.0,1005.3,8.45,34.2,71,29.8,21.8,0,5,7,1,2026-03-14T14:09:42.120297+05:30
Rourkela,Odisha,22.2604,84.8536,38.7,19,0.0,984.9,8.05,34.6,100,34.2,25.8,0,5,10,0,2026-03-14T14:09:42.120303+05:30
Raipur,Chhattisgarh,21.2514,81.6296,37.7,23,0.0,975.0,8.2,40.3,130,36.2,30.2,0,5,10,0,2026-03-14T14:09:42.120309+05:30
Bhilai,Chhattisgarh,21.1938,81.3509,38.1,24,0.0,975.4,8.2,30.6,126,32.0,26.7,0,5,10,0,2026-03-14T14:09:42.120315+05:30
Guwahati,Assam,26.1158,91.7086,23.2,85,0.0,1003.4,7.4,36.0,80,34.1,21.7,3,5,4,1,2026-03-14T14:09:42.120322+05:30
Agartala,Tripura,23.8315,91.2868,24.8,80,0.0,1009.1,7.8,39.2,79,43.4,31.8,3,0,4,1,2026-03-14T14:09:42.120328+05:30
Shillong,Meghalaya,25.5788,91.8933,17.1,67,0.0,857.2,7.85,73.8,52,16.1,10.5,3,5,7,0,2026-03-14T14:09:42.120334+05:30
Imphal,Manipur,24.817,93.9368,18.5,83,0.0,925.1,7.1,79.9,150,60.1,39.8,3,10,7,0,2026-03-14T14:09:42.120342+05:30
Aizawl,Mizoram,23.7271,92.7176,20.9,69,0.0,895.7,8.0,63.4,118,48.4,36.3,3,5,7,0,2026-03-14T14:09:42.120348+05:30
Kohima,Nagaland,25.6701,94.1077,17.0,70,0.0,855.8,6.9,100.8,113,46.2,29.9,3,5,7,0,2026-03-14T14:09:42.120355+05:30
Gangtok,Sikkim,27.3314,88.6138,17.0,77,0.0,837.3,7.55,22.3,88,25.9,18.5,3,5,7,0,2026-03-14T14:09:42.120361+05:30
Siliguri,West Bengal,26.7271,88.3953,22.7,77,0.0,994.8,7.4,33.1,124,71.5,44.4,3,5,7,1,2026-03-14T14:09:45.460752+05:30
Durgapur,West Bengal,23.5204,87.3119,35.7,38,0.0,995.3,7.95,28.1,151,80.6,43.1,0,5,10,1,2026-03-14T14:09:45.460786+05:30
Asansol,West Bengal,23.6739,86.9524,35.8,35,0.0,993.6,7.95,21.6,138,81.0,39.1,0,5,10,1,2026-03-14T14:09:45.460797+05:30
Pondicherry,Puducherry,11.9139,79.8145,34.3,45,0.0,1009.8,9.05,28.4,55,15.8,11.9,0,0,4,1,2026-03-14T14:09:45.460807+05:30
Port Blair,Andaman and Nicobar Islands,11.6234,92.7265,28.4,74,0.0,1008.1,8.95,24.5,82,11.8,9.2,7,0,4,1,2026-03-14T14:09:45.460816+05:30
Haridwar,Uttarakhand,29.9457,78.1642,29.4,43,0.0,975.2,4.95,24.8,106,35.3,23.2,4,5,3,0,2026-03-14T14:09:45.460825+05:30
Rishikesh,Uttarakhand,30.0869,78.2676,29.5,36,0.0,967.8,4.5,25.9,71,27.8,16.6,4,5,3,0,2026-03-14T14:09:45.460834+05:30
Nainital,Uttarakhand,29.3919,79.4542,20.9,47,0.0,807.7,6.3,34.9,84,42.8,25.3,0,5,7,0,2026-03-14T14:09:45.460842+05:30
Mussoorie,Uttarakhand,30.4599,78.0664,21.5,40,0.0,805.1,4.5,25.9,77,27.6,15.4,0,5,3,0,2026-03-14T14:09:45.460851+05:30
Dharamshala,Himachal Pradesh,32.219,76.3234,23.9,23,0.0,870.2,5.65,22.0,42,25.1,7.6,0,5,3,0,2026-03-14T14:09:45.460858+05:30
Dalhousie,Himachal Pradesh,32.5387,75.971,21.4,26,0.0,805.5,6.2,18.7,65,22.4,10.9,0,5,7,0,2026-03-14T14:09:45.460867+05:30
Patiala,Punjab,30.3398,76.3869,28.8,28,0.0,979.5,5.65,24.5,318,266.4,39.5,4,5,3,0,2026-03-14T14:09:45.460876+05:30
Bhatinda,Punjab,30.211,74.9455,30.2,36,0.0,984.9,5.9,20.2,88,21.0,16.3,0,5,3,0,2026-03-14T14:09:45.460884+05:30
Rohtak,Haryana,28.8955,76.6066,30.7,29,0.0,983.4,6.0,28.4,529,313.9,42.0,0,5,3,0,2026-03-14T14:09:45.460891+05:30
Panipat,Haryana,29.3909,76.9635,29.9,33,0.0,981.8,5.75,25.6,973,624.0,67.5,4,5,3,0,2026-03-14T14:09:45.460899+05:30
Mathura,Uttar Pradesh,27.4924,77.6737,32.8,20,0.0,988.2,5.85,38.2,715,441.4,61.0,0,5,3,0,2026-03-14T14:09:45.460906+05:30
Vrindavan,Uttar Pradesh,27.5823,77.7027,32.9,22,0.0,988.4,5.95,34.9,715,441.4,61.0,0,5,3,0,2026-03-14T14:09:45.460914+05:30
Ayodhya,Uttar Pradesh,26.7922,82.1998,31.7,40,0.0,996.2,6.85,24.5,153,217.9,61.7,0,5,7,1,2026-03-14T14:09:45.460921+05:30
Ratlam,Madhya Pradesh,23.3315,75.0367,35.8,15,0.0,955.8,7.65,39.2,75,23.3,14.4,0,5,10,0,2026-03-14T14:09:45.460928+05:30
Sagar,Madhya Pradesh,23.8388,78.7378,35.7,16,0.0,951.3,7.65,32.8,57,17.5,14.0,0,5,10,0,2026-03-14T14:09:45.460937+05:30
Satna,Madhya Pradesh,24.6005,80.8322,37.0,19,0.0,971.9,7.6,29.5,82,104.3,29.1,0,5,10,0,2026-03-14T14:09:45.460945+05:30
Akola,Maharashtra,20.7002,77.0082,38.3,14,0.0,976.0,8.1,13.3,92,26.2,22.6,0,5,10,0,2026-03-14T14:09:45.460953+05:30
Amravati,Maharashtra,20.9374,77.7796,38.3,13,0.0,968.4,8.1,14.8,100,23.0,20.8,0,5,10,0,2026-03-14T14:09:45.460960+05:30
Latur,Maharashtra,18.4088,76.5604,34.4,26,0.0,941.2,8.5,26.6,100,43.1,33.9,0,5,7,0,2026-03-14T14:09:45.460966+05:30
Nanded,Maharashtra,19.1383,77.3091,37.5,22,0.0,969.2,8.3,31.0,124,51.1,39.7,0,5,10,0,2026-03-14T14:09:45.460973+05:30
Gulbarga,Karnataka,17.3297,76.8343,37.2,20,0.0,959.7,8.6,38.9,98,43.4,34.1,0,5,10,0,2026-03-14T14:09:45.460978+05:30
Bidar,Karnataka,17.9104,77.5199,34.8,25,0.0,937.1,8.55,37.1,98,45.2,32.6,0,5,7,0,2026-03-14T14:09:45.460984+05:30
Hospet,Karnataka,15.2689,76.3909,34.2,34,0.0,957.3,8.9,29.2,110,43.3,34.2,0,5,7,1,2026-03-14T14:09:45.460990+05:30
Tirupur,Tamil Nadu,11.1085,77.3411,35.5,27,0.0,976.5,9.3,29.5,72,17.8,14.2,0,5,10,0,2026-03-14T14:09:45.460996+05:30
Alappuzha,Kerala,9.4981,76.3388,28.0,79,0.0,1009.9,9.1,27.0,74,19.3,17.9,7,0,4,1,2026-03-14T14:09:45.461003+05:30
Munnar,Kerala,10.0889,77.0595,29.4,39,0.0,860.0,9.6,32.0,58,9.7,7.8,4,5,7,0,2026-03-14T14:09:45.461011+05:30
Silchar,Assam,24.8333,92.7789,22.5,89,0.0,1009.2,7.4,36.4,121,44.4,33.8,3,0,4,1,2026-03-14T14:09:45.461017+05:30
Dibrugarh,Assam,27.4728,94.912,20.8,87,0.0,997.8,4.6,20.5,97,38.0,32.9,3,5,3,1,2026-03-14T14:09:45.461024+05:30
