city,state,latitude,longitude,temp,humidity,rain,pressure,uv_index,wind_gusts,aqi,pm10,pm2_5,no2,co,o3,so2,mosquito_risk,arthritis_risk,migraine_risk,frizz_risk,updated_at
Delhi,Delhi,28.6139,77.209,24.9,73,0.0,982.0,7.6,30.2,241,239.3,75.4,37.4,656.0,75.0,27.4,3,5,7,1,2026-05-31T00:50:54.829327+05:30
Mumbai,Maharashtra,19.076,72.8777,30.6,71,0.0,1007.6,7.75,41.4,58,21.6,13.2,4.6,145.0,48.0,3.6,3,5,4,1,2026-05-31T00:50:54.829375+05:30
Bangalore,Karnataka,12.9716,77.5946,22.5,90,0.0,911.6,9.25,39.2,60,24.0,20.4,37.5,652.0,41.0,7.5,3,5,7,1,2026-05-31T00:50:54.829392+05:30
Hyderabad,Telangana,17.385,78.4867,29.7,50,0.0,952.2,9.15,48.2,63,18.9,15.5,13.0,826.0,74.0,8.2,4,5,7,1,2026-05-31T00:50:54.829402+05:30
Chennai,Tamil Nadu,13.0827,80.2707,30.2,71,0.0,1005.8,8.7,34.2,114,25.8,20.9,12.7,442.0,87.0,7.1,3,5,4,1,2026-05-31T00:50:54.829412+05:30
Kolkata,West Bengal,22.5726,88.3639,27.0,85,0.0,1005.0,8.85,15.8,138,69.8,61.0,29.8,444.0,28.0,11.1,7,5,4,1,2026-05-31T00:50:54.829422+05:30
Pune,Maharashtra,18.5204,73.8567,25.8,82,0.0,947.6,8.35,45.4,43,14.3,10.1,7.4,153.0,40.0,5.7,7,5,7,1,2026-05-31T00:50:54.829429+05:30
Ahmedabad,Gujarat,23.0225,72.5714,27.0,78,0.0,1000.1,8.1,58.0,72,33.6,18.9,4.3,198.0,57.0,4.1,7,5,4,1,2026-05-31T00:50:54.829437+05:30
Jaipur,Rajasthan,26.9124,75.7873,27.2,53,0.0,957.7,8.15,36.4,98,43.0,22.5,13.1,441.0,70.0,6.1,4,5,7,1,2026-05-31T00:50:54.829450+05:30
Lucknow,Uttar Pradesh,26.8467,80.9462,25.9,79,0.0,992.8,7.8,29.5,73,40.0,33.5,21.9,366.0,62.0,8.5,7,5,7,1,2026-05-31T00:50:54.829458+05:30
Kanpur,Uttar Pradesh,26.4499,80.3319,27.3,71,0.0,990.6,8.05,24.1,99,184.4,43.5,11.2,317.0,90.0,5.1,7,5,7,1,2026-05-31T00:50:54.829464+05:30
Chandigarh,Chandigarh,30.7333,76.7794,22.1,86,0.0,968.4,6.25,38.9,98,58.2,39.7,29.0,852.0,65.0,5.9,3,5,7,1,2026-05-31T00:50:54.829472+05:30
Srinagar,Jammu and Kashmir,34.0837,74.7973,13.6,93,0.0,838.6,8.95,24.1,93,55.9,54.2,37.7,825.0,13.0,0.0,3,10,7,0,2026-05-31T00:50:54.829479+05:30
Jammu,Jammu and Kashmir,32.7266,74.857,26.0,57,0.0,972.8,8.5,24.1,135,142.0,79.2,53.3,561.0,30.0,6.4,4,5,7,1,2026-05-31T00:50:54.829486+05:30
Amritsar,Punjab,31.634,74.8723,23.8,76,0.0,980.5,8.35,31.0,152,99.0,47.4,19.0,584.0,80.0,6.2,3,5,7,1,2026-05-31T00:50:54.829495+05:30
Ludhiana,Punjab,30.901,75.8573,23.1,79,0.0,978.0,7.85,36.7,186,267.3,80.8,29.4,675.0,77.0,12.0,3,5,7,1,2026-05-31T00:50:54.829501+05:30
Jalandhar,Punjab,31.326,75.5762,23.5,83,0.0,979.4,8.05,36.0,136,88.9,47.3,30.4,662.0,64.0,6.6,3,5,7,1,2026-05-31T00:50:54.829508+05:30
Dehradun,Uttarakhand,30.6284,78.0322,14.5,69,0.0,829.1,6.95,27.4,72,46.2,33.8,35.5,305.0,52.0,1.7,3,5,7,0,2026-05-31T00:50:54.829515+05:30
Shimla,Himachal Pradesh,31.1048,77.1734,11.6,69,0.0,782.1,4.7,34.6,101,38.5,22.2,14.0,420.0,100.0,0.1,3,5,3,0,2026-05-31T00:50:54.829525+05:30
Manali,Himachal Pradesh,32.2396,77.1887,14.4,84,0.3,817.9,6.75,30.2,106,14.9,11.8,46.7,315.0,90.0,0.3,6,10,7,0,2026-05-31T00:50:54.829532+05:30
Gurgaon,Haryana,28.4595,77.0266,24.3,84,0.0,980.4,7.7,31.3,978,1099.0,171.8,39.6,1104.0,79.0,32.8,3,5,7,1,2026-05-31T00:50:54.829539+05:30
Noida,Uttar Pradesh,28.5355,77.391,24.9,70,0.0,983.1,7.65,25.6,978,1099.0,171.8,39.6,721.0,79.0,32.8,3,5,7,1,2026-05-31T00:50:54.829546+05:30
Ghaziabad,Uttar Pradesh,28.6692,77.4538,24.7,69,0.0,981.3,7.6,30.6,130,160.2,51.6,19.3,484.0,94.0,10.3,3,5,7,1,2026-05-31T00:50:54.829553+05:30
Faridabad,Haryana,28.4089,77.3178,25.0,71,0.0,982.5,7.65,26.6,978,1099.0,171.8,39.6,671.0,79.0,32.8,7,5,7,1,2026-05-31T00:50:54.829563+05:30
Meerut,Uttar Pradesh,28.9845,77.7064,23.6,79,0.0,980.5,7.55,42.1,130,160.2,51.6,19.3,470.0,94.0,10.3,3,5,7,1,2026-05-31T00:50:54.829571+05:30
Agra,Uttar Pradesh,27.1767,78.0081,26.7,63,0.0,985.9,7.8,27.4,394,2041.5,268.2,7.4,449.0,118.0,7.7,7,5,7,1,2026-05-31T00:50:54.829579+05:30
Varanasi,Uttar Pradesh,25.3176,82.9739,27.7,70,0.0,996.0,8.7,25.6,95,54.0,47.8,18.9,528.0,93.0,14.2,7,5,7,1,2026-05-31T00:50:54.829586+05:30
Prayagraj,Uttar Pradesh,25.4358,81.8463,27.4,69,0.0,994.7,8.6,27.7,95,32.1,28.3,15.3,400.0,89.0,8.1,7,5,7,1,2026-05-31T00:50:54.829593+05:30
Gorakhpur,Uttar Pradesh,26.7606,83.3732,26.0,80,0.0,996.3,8.55,36.7,84,33.3,27.7,15.0,316.0,92.0,5.5,7,5,7,1,2026-05-31T00:50:54.829602+05:30
Bareilly,Uttar Pradesh,28.367,79.4304,23.8,86,0.0,986.1,7.9,48.2,94,43.1,39.8,25.3,350.0,68.0,7.5,3,5,7,1,2026-05-31T00:50:54.829609+05:30
Aligarh,Uttar Pradesh,27.8974,78.088,25.4,68,0.0,984.2,7.75,34.6,185,167.2,46.8,7.5,421.0,122.0,8.9,7,5,7,1,2026-05-31T00:50:54.829617+05:30
Moradabad,Uttar Pradesh,28.8386,78.7733,24.1,79,0.0,983.1,7.75,44.3,91,50.2,37.5,15.6,374.0,93.0,7.2,3,5,7,1,2026-05-31T00:50:54.829624+05:30
Saharanpur,Uttar Pradesh,29.9637,77.546,22.3,89,0.0,975.3,6.65,40.0,91,82.9,64.7,53.6,635.0,27.0,12.3,3,5,7,1,2026-05-31T00:50:54.829630+05:30
Jhansi,Uttar Pradesh,25.4484,78.5685,28.4,52,0.0,975.8,8.3,31.0,73,31.7,19.2,10.1,252.0,65.0,4.0,4,5,7,1,2026-05-31T00:50:58.065848+05:30
Surat,Gujarat,21.1702,72.8311,30.0,75,0.0,1005.5,7.7,49.3,76,31.0,19.5,12.0,242.0,43.0,20.5,7,5,4,1,2026-05-31T00:50:58.065885+05:30
Vadodara,Gujarat,22.3072,73.1812,26.4,85,0.2,1005.3,8.05,41.8,73,27.2,18.4,13.4,187.0,35.0,11.6,10,5,4,1,2026-05-31T00:50:58.065896+05:30
Rajkot,Gujarat,22.3039,70.8022,29.3,71,0.0,992.5,7.7,44.6,66,31.7,17.2,3.4,113.0,47.0,3.6,7,5,7,1,2026-05-31T00:50:58.065905+05:30
Thane,Maharashtra,19.2183,72.9781,30.5,72,0.0,1007.0,7.8,41.4,58,21.6,13.2,4.6,146.0,48.0,3.6,3,5,4,1,2026-05-31T00:50:58.065913+05:30
Nagpur,Maharashtra,21.1458,79.0882,30.5,52,0.0,970.8,8.85,61.2,79,44.7,27.5,11.4,279.0,67.0,9.1,0,5,7,1,2026-05-31T00:50:58.065921+05:30
Nashik,Maharashtra,19.9975,73.7898,25.5,85,0.0,944.7,8.1,49.3,55,14.8,9.6,5.5,132.0,44.0,2.2,7,5,7,1,2026-05-31T00:50:58.065929+05:30
Aurangabad,Maharashtra,19.8762,75.3433,27.5,68,0.0,943.3,8.9,46.1,64,20.8,13.4,6.9,136.0,60.0,7.8,7,5,7,1,2026-05-31T00:50:58.065937+05:30
Solapur,Maharashtra,17.6599,75.9064,30.5,42,0.0,956.5,8.95,60.5,44,14.9,10.5,5.2,149.0,58.0,2.2,0,5,7,1,2026-05-31T00:50:58.065944+05:30
Kolhapur,Maharashtra,16.705,74.2433,25.2,89,0.0,947.9,8.75,50.0,32,10.2,7.9,5.3,149.0,44.0,2.1,7,5,7,1,2026-05-31T00:50:58.065952+05:30
Goa,Goa,15.2993,74.124,26.8,97,0.0,998.6,6.9,32.4,51,20.8,15.3,5.7,499.0,43.0,1.5,7,5,7,1,2026-05-31T00:50:58.065960+05:30
Jodhpur,Rajasthan,26.2389,73.0243,27.5,64,0.0,979.9,8.4,36.7,125,74.3,26.0,4.8,230.0,87.0,2.3,7,5,7,1,2026-05-31T00:50:58.065967+05:30
Udaipur,Rajasthan,24.5854,73.7125,25.0,63,0.0,944.8,8.8,34.6,77,47.8,23.8,5.8,203.0,81.0,4.9,7,5,7,1,2026-05-31T00:50:58.065974+05:30
Kota,Rajasthan,25.2138,75.8648,29.9,49,0.0,976.5,8.3,33.1,76,39.1,23.0,6.9,243.0,80.0,4.0,4,5,7,1,2026-05-31T00:50:58.065982+05:30
Bikaner,Rajasthan,28.0229,73.3119,28.4,50,0.0,978.7,8.35,29.2,97,53.7,26.0,3.5,189.0,92.0,2.8,4,5,7,1,2026-05-31T00:50:58.065989+05:30
Ajmer,Rajasthan,26.4499,74.6399,25.7,59,0.0,952.1,8.3,34.6,66,34.7,19.2,7.9,224.0,69.0,2.3,4,5,7,1,2026-05-31T00:50:58.065997+05:30
Gwalior,Madhya Pradesh,26.2183,78.1828,25.8,68,0.0,980.9,8.1,32.8,74,195.1,51.8,8.6,279.0,85.0,5.2,7,5,7,1,2026-05-31T00:50:58.066004+05:30
Indore,Madhya Pradesh,22.7196,75.8577,30.5,44,0.0,947.3,8.55,44.6,83,53.6,31.4,7.7,249.0,74.0,5.2,0,5,7,1,2026-05-31T00:50:58.066011+05:30
Bhopal,Madhya Pradesh,23.2599,77.4126,30.3,37,0.0,951.1,8.55,36.7,73,41.4,24.6,6.9,184.0,80.0,4.6,0,5,7,0,2026-05-31T00:50:58.066019+05:30
Jabalpur,Madhya Pradesh,23.1815,79.9864,28.4,56,0.0,958.8,8.75,42.5,63,34.6,20.1,9.4,216.0,74.0,4.2,4,5,7,1,2026-05-31T00:50:58.066026+05:30
Ujjain,Madhya Pradesh,23.1765,75.7885,28.8,41,0.0,952.8,8.5,54.7,82,51.7,27.9,6.7,260.0,69.0,4.6,4,5,7,0,2026-05-31T00:50:58.066034+05:30
Visakhapatnam,Andhra Pradesh,17.6868,83.2185,28.9,88,0.0,1000.9,9.05,34.9,104,43.7,35.9,31.9,389.0,88.0,46.4,7,5,4,1,2026-05-31T00:50:58.066042+05:30
Vijayawada,Andhra Pradesh,16.5062,80.648,30.5,72,0.0,999.9,9.05,42.1,90,49.9,43.3,24.8,321.0,49.0,7.2,3,5,7,1,2026-05-31T00:50:58.066049+05:30
Guntur,Andhra Pradesh,16.3067,80.4365,29.6,74,0.0,1001.1,8.85,42.8,90,56.3,48.4,37.9,260.0,33.0,8.3,7,5,4,1,2026-05-31T00:50:58.066056+05:30
Nellore,Andhra Pradesh,14.4426,79.9865,28.9,73,0.0,1003.9,7.6,34.6,70,25.0,21.0,11.4,242.0,78.0,6.4,7,5,4,1,2026-05-31T00:50:58.066064+05:30
Kurnool,Andhra Pradesh,15.8281,78.0373,28.3,59,0.0,975.8,8.6,61.2,56,12.1,10.6,9.6,195.0,70.0,6.2,4,5,7,1,2026-05-31T00:50:58.066071+05:30
Kakinada,Andhra Pradesh,16.9891,82.2475,29.6,72,0.0,1004.5,9.05,39.2,95,30.6,25.1,6.9,344.0,109.0,5.7,7,5,4,1,2026-05-31T00:50:58.066078+05:30
Tirupati,Andhra Pradesh,13.6288,79.4192,27.5,69,0.0,989.9,8.35,28.4,68,19.7,17.3,14.6,208.0,58.0,2.1,7,5,7,1,2026-05-31T00:50:58.066085+05:30
Warangal,Telangana,17.9689,79.5941,31.6,41,0.0,975.6,8.7,57.2,87,52.3,40.4,22.4,316.0,48.0,6.1,0,5,7,1,2026-05-31T00:50:58.066091+05:30
Nizamabad,Telangana,18.6725,78.0941,30.8,38,0.0,962.2,9.0,60.1,80,57.2,33.3,20.3,248.0,60.0,6.4,0,5,7,0,2026-05-31T00:50:58.066097+05:30
Mysore,Karnataka,12.2958,76.6396,22.9,91,0.0,929.0,8.95,50.4,38,12.9,12.1,19.6,245.0,44.0,3.1,3,5,7,1,2026-05-31T00:50:58.066104+05:30
Mangalore,Karnataka,12.9141,74.856,26.2,95,0.0,1007.5,7.65,31.0,33,14.5,12.7,14.6,309.0,33.0,3.6,7,5,4,1,2026-05-31T00:50:58.066111+05:30
Hubli-Dharwad,Karnataka,15.3647,75.124,24.5,93,0.0,940.9,8.75,48.6,31,8.0,6.2,5.8,156.0,42.0,1.3,3,5,7,1,2026-05-31T00:50:58.066117+05:30
Belgaum,Karnataka,15.8497,74.4977,23.8,93,0.0,926.0,8.65,45.7,25,8.2,6.1,4.0,136.0,47.0,1.5,3,5,7,1,2026-05-31T00:51:01.312414+05:30
Coimbatore,Tamil Nadu,11.0168,76.9558,25.2,85,0.0,962.2,8.95,48.6,31,7.4,7.0,7.7,199.0,51.0,3.4,7,5,7,1,2026-05-31T00:51:01.312455+05:30
Madurai,Tamil Nadu,9.9252,78.1198,30.2,60,0.0,992.6,8.75,34.9,74,36.7,32.5,54.5,206.0,2.0,7.8,0,5,7,1,2026-05-31T00:51:01.312467+05:30
Trichy,Tamil Nadu,10.7905,78.7047,28.9,74,0.0,999.4,8.85,42.1,44,17.1,15.4,23.8,172.0,26.0,5.3,7,5,7,1,2026-05-31T00:51:01.312477+05:30
Salem,Tamil Nadu,11.6643,78.146,29.3,62,0.0,977.3,7.1,32.0,58,18.0,13.8,15.7,265.0,53.0,6.3,7,5,7,1,2026-05-31T00:51:01.312486+05:30
Tirunelveli,Tamil Nadu,8.7139,77.7567,29.4,65,0.0,1003.0,7.3,19.4,23,8.8,7.7,9.5,171.0,31.0,2.2,7,5,4,1,2026-05-31T00:51:01.312495+05:30
Vellore,Tamil Nadu,12.9165,79.1325,26.5,81,0.0,983.6,8.85,37.1,64,28.7,24.4,17.9,259.0,49.0,4.1,7,5,7,1,2026-05-31T00:51:01.312504+05:30
Erode,Tamil Nadu,11.341,77.7172,28.3,70,0.0,989.0,7.15,55.1,33,12.3,10.8,16.9,357.0,37.0,4.4,7,5,7,1,2026-05-31T00:51:01.312512+05:30
Kochi,Kerala,9.9312,76.2673,25.9,96,0.0,1009.8,7.55,29.2,47,23.1,21.9,27.1,296.0,17.0,6.1,7,0,4,1,2026-05-31T00:51:01.312519+05:30
Thiruvananthapuram,Kerala,8.5241,76.9366,24.2,97,0.0,1009.4,7.95,31.0,25,8.6,4.7,1.8,264.0,51.0,0.6,3,0,4,1,2026-05-31T00:51:01.312526+05:30
Kozhikode,Kerala,11.2588,75.7804,25.8,96,0.0,1009.0,7.5,27.4,31,5.7,4.3,2.8,417.0,63.0,1.4,7,0,4,1,2026-05-31T00:51:01.312533+05:30
Thrissur,Kerala,10.5276,76.2144,25.4,96,0.0,1008.3,7.75,28.8,40,19.7,18.8,21.8,323.0,16.0,6.0,7,0,4,1,2026-05-31T00:51:01.312541+05:30
Kannur,Kerala,11.8745,75.3704,26.0,97,0.0,1008.1,8.35,28.8,30,14.6,13.0,16.6,290.0,29.0,3.1,7,0,4,1,2026-05-31T00:51:01.312548+05:30
Patna,Bihar,25.5941,85.1376,27.1,83,0.0,999.2,8.8,38.9,147,61.0,53.9,16.3,416.0,99.0,15.0,7,5,7,1,2026-05-31T00:51:01.312555+05:30
Gaya,Bihar,24.7914,85.0002,27.1,79,0.0,992.3,8.85,26.3,153,62.6,56.5,10.2,484.0,133.0,20.4,7,5,7,1,2026-05-31T00:51:01.312562+05:30
Muzaffarpur,Bihar,26.1209,85.3647,25.9,84,0.1,999.7,8.8,30.6,135,56.0,51.0,21.1,468.0,80.0,13.9,10,5,7,1,2026-05-31T00:51:01.312568+05:30
Bhagalpur,Bihar,25.2425,87.0117,27.0,81,0.0,1000.6,8.65,20.2,152,106.6,73.1,20.2,442.0,90.0,20.2,7,5,4,1,2026-05-31T00:51:01.312574+05:30
Ranchi,Jharkhand,23.3441,85.3096,23.3,90,0.0,936.9,9.25,42.1,142,50.8,41.3,8.5,340.0,116.0,8.7,3,5,7,1,2026-05-31T00:51:01.312581+05:30
Jamshedpur,Jharkhand,22.8046,86.2029,26.2,88,0.0,990.3,9.05,29.2,124,40.7,34.5,21.2,507.0,53.0,14.5,7,5,7,1,2026-05-31T00:51:01.312587+05:30
Dhanbad,Jharkhand,23.7957,86.4304,26.0,87,0.0,979.5,9.0,20.9,160,85.9,76.6,56.1,634.0,39.0,148.9,7,5,7,1,2026-05-31T00:51:01.312595+05:30
Bokaro,Jharkhand,23.6693,86.1511,26.2,87,0.0,983.1,9.05,31.3,164,88.9,79.2,45.8,1491.0,65.0,146.4,7,5,7,1,2026-05-31T00:51:01.312602+05:30
Bhubaneswar,Odisha,20.2961,85.8245,27.4,93,0.0,1001.4,9.1,27.0,100,36.1,28.9,12.3,449.0,63.0,5.2,7,5,4,1,2026-05-31T00:51:01.312609+05:30
Cuttack,Odisha,20.4625,85.8828,27.1,92,0.0,1003.2,9.2,25.2,100,36.1,28.9,12.3,394.0,63.0,5.2,7,5,4,1,2026-05-31T00:51:01.312616+05:30
Rourkela,Odisha,22.2604,84.8536,26.0,87,0.1,984.5,9.0,45.4,143,49.6,39.3,12.5,423.0,103.0,15.6,10,5,7,1,2026-05-31T00:51:01.312624+05:30
Raipur,Chhattisgarh,21.2514,81.6296,26.7,75,0.0,973.1,9.0,52.6,124,50.5,39.0,19.6,309.0,107.0,34.1,7,5,7,1,2026-05-31T00:51:01.312630+05:30
Bhilai,Chhattisgarh,21.1938,81.3509,27.0,71,0.0,973.8,9.0,47.9,125,50.3,36.7,28.8,319.0,80.0,45.6,7,5,7,1,2026-05-31T00:51:01.312637+05:30
Guwahati,Assam,26.1158,91.7086,25.8,84,0.0,1000.6,8.75,23.8,87,47.8,34.3,19.6,343.0,20.0,1.7,7,5,4,1,2026-05-31T00:51:01.312660+05:30
Agartala,Tripura,23.8315,91.2868,26.0,87,0.0,1004.3,8.85,22.7,167,172.8,148.1,78.3,640.0,20.0,16.1,7,5,4,1,2026-05-31T00:51:01.312668+05:30
Shillong,Meghalaya,25.5788,91.8933,19.7,85,0.0,857.5,7.25,27.4,76,31.9,18.2,11.7,300.0,42.0,1.8,3,10,7,1,2026-05-31T00:51:01.312674+05:30
Imphal,Manipur,24.817,93.9368,22.4,99,0.0,922.7,7.85,20.5,101,38.5,30.5,16.7,397.0,33.0,2.9,3,5,7,1,2026-05-31T00:51:01.312681+05:30
Aizawl,Mizoram,23.7271,92.7176,19.7,100,0.0,890.5,9.1,20.5,63,25.5,20.3,23.1,364.0,19.0,2.2,3,10,7,1,2026-05-31T00:51:01.312687+05:30
Kohima,Nagaland,25.6701,94.1077,19.4,91,0.0,855.5,7.9,22.0,75,25.8,17.5,15.6,354.0,35.0,1.6,3,10,7,1,2026-05-31T00:51:01.312694+05:30
Gangtok,Sikkim,27.3314,88.6138,15.7,79,0.1,837.7,9.2,42.5,65,34.0,22.7,19.3,543.0,57.0,1.7,6,5,7,0,2026-05-31T00:51:01.312701+05:30
Siliguri,West Bengal,26.7271,88.3953,26.1,76,0.0,992.3,8.75,20.2,114,94.5,60.3,31.6,808.0,71.0,7.8,7,5,7,1,2026-05-31T00:51:04.584426+05:30
Durgapur,West Bengal,23.5204,87.3119,26.5,91,0.0,994.5,8.95,27.4,160,72.6,66.8,35.7,654.0,59.0,39.7,7,5,7,1,2026-05-31T00:51:04.584465+05:30
Asansol,West Bengal,23.6739,86.9524,26.5,87,0.0,993.1,9.0,36.0,157,72.2,64.3,38.8,667.0,54.0,53.5,7,5,7,1,2026-05-31T00:51:04.584477+05:30
Pondicherry,Puducherry,11.9139,79.8145,28.8,86,0.0,1007.2,8.85,37.4,74,12.1,9.5,11.2,232.0,45.0,7.3,7,5,4,1,2026-05-31T00:51:04.584486+05:30
Port Blair,Andaman and Nicobar Islands,11.6234,92.7265,25.8,95,0.1,1005.8,8.65,39.2,33,9.3,5.5,0.3,117.0,72.0,0.4,10,5,4,1,2026-05-31T00:51:04.584494+05:30
Haridwar,Uttarakhand,29.9457,78.1642,22.8,87,0.0,973.8,6.95,28.4,81,50.3,41.2,36.4,374.0,30.0,6.2,3,5,7,1,2026-05-31T00:51:04.584502+05:30
Rishikesh,Uttarakhand,30.0869,78.2676,22.3,83,0.0,966.2,7.15,33.1,76,45.8,31.7,22.5,419.0,72.0,3.8,3,5,7,1,2026-05-31T00:51:04.584509+05:30
Nainital,Uttarakhand,29.3919,79.4542,10.4,99,0.0,802.6,7.95,25.6,99,30.7,23.5,17.4,342.0,85.0,2.7,3,10,7,0,2026-05-31T00:51:04.584517+05:30
Mussoorie,Uttarakhand,30.4599,78.0664,13.1,70,0.0,801.3,7.15,30.2,82,59.1,37.7,39.9,376.0,63.0,6.8,3,5,7,0,2026-05-31T00:51:04.584525+05:30
Dharamshala,Himachal Pradesh,32.219,76.3234,18.3,92,0.1,868.6,6.9,31.3,46,15.5,11.7,17.8,227.0,47.0,0.1,6,10,7,1,2026-05-31T00:51:04.584533+05:30
Dalhousie,Himachal Pradesh,32.5387,75.971,14.0,86,0.0,803.6,6.45,34.2,73,50.2,31.0,51.6,476.0,32.0,2.6,3,10,7,0,2026-05-31T00:51:04.584540+05:30
Patiala,Punjab,30.3398,76.3869,22.4,88,0.0,977.6,7.45,36.0,855,409.8,76.8,9.8,503.0,107.0,7.9,3,5,7,1,2026-05-31T00:51:04.584547+05:30
Bhatinda,Punjab,30.211,74.9455,24.9,78,0.0,982.7,8.2,29.2,936,700.4,165.3,18.6,368.0,73.0,8.6,3,5,7,1,2026-05-31T00:51:04.584554+05:30
Rohtak,Haryana,28.8955,76.6066,24.0,89,0.0,981.0,7.6,38.9,611,239.3,89.6,44.2,481.0,64.0,23.5,3,5,7,1,2026-05-31T00:51:04.584561+05:30
Panipat,Haryana,29.3909,76.9635,22.9,89,0.0,979.9,7.45,35.6,1049,114.6,57.3,27.0,449.0,71.0,13.7,3,5,7,1,2026-05-31T00:51:04.584567+05:30
Mathura,Uttar Pradesh,27.4924,77.6737,25.7,64,0.0,985.3,7.9,25.2,341,1106.4,149.9,25.2,389.0,74.0,8.3,7,5,7,1,2026-05-31T00:51:04.584575+05:30
Vrindavan,Uttar Pradesh,27.5823,77.7027,25.8,63,0.0,985.7,7.85,24.1,341,1106.4,149.9,25.2,398.0,74.0,8.3,7,5,7,1,2026-05-31T00:51:04.584581+05:30
Ayodhya,Uttar Pradesh,26.7922,82.1998,25.7,82,0.0,994.6,7.9,26.3,81,46.1,39.1,29.3,338.0,50.0,7.5,7,5,7,1,2026-05-31T00:51:04.584588+05:30
Ratlam,Madhya Pradesh,23.3315,75.0367,25.6,82,0.1,953.8,8.45,41.8,82,47.6,25.5,5.5,201.0,70.0,4.9,10,5,7,1,2026-05-31T00:51:04.584594+05:30
Sagar,Madhya Pradesh,23.8388,78.7378,28.2,52,0.0,948.3,8.6,38.2,62,25.7,16.0,8.1,203.0,84.0,4.1,4,5,7,1,2026-05-31T00:51:04.584601+05:30
Satna,Madhya Pradesh,24.6005,80.8322,27.2,61,0.0,969.8,8.7,30.6,93,27.9,23.5,8.7,282.0,123.0,8.5,7,5,7,1,2026-05-31T00:51:04.584608+05:30
Akola,Maharashtra,20.7002,77.0082,33.5,41,0.0,972.5,8.75,63.7,78,40.4,24.1,8.5,173.0,71.0,7.6,0,5,7,1,2026-05-31T00:51:04.584615+05:30
Amravati,Maharashtra,20.9374,77.7796,32.7,39,0.0,964.6,8.75,54.0,79,44.8,25.4,10.2,212.0,69.0,7.0,0,5,7,1,2026-05-31T00:51:04.584623+05:30
Latur,Maharashtra,18.4088,76.5604,29.9,38,0.0,938.5,8.95,45.0,54,20.5,14.3,5.1,264.0,81.0,4.5,4,5,7,0,2026-05-31T00:51:04.584630+05:30
Nanded,Maharashtra,19.1383,77.3091,32.6,35,0.0,966.2,8.9,63.7,74,31.5,20.5,7.3,238.0,77.0,4.2,0,5,7,0,2026-05-31T00:51:04.584637+05:30
Gulbarga,Karnataka,17.3297,76.8343,30.0,49,0.0,957.6,8.95,52.6,46,11.1,9.1,8.6,225.0,62.0,2.3,4,5,7,1,2026-05-31T00:51:04.584660+05:30
Bidar,Karnataka,17.9104,77.5199,29.0,43,0.0,933.9,9.0,49.7,66,26.4,20.9,27.5,274.0,40.0,3.6,4,5,7,0,2026-05-31T00:51:04.584667+05:30
Hospet,Karnataka,15.2689,76.3909,26.4,81,0.0,955.7,9.0,56.9,37,7.9,6.7,6.6,169.0,49.0,1.6,7,5,7,1,2026-05-31T00:51:04.584673+05:30
Tirupur,Tamil Nadu,11.1085,77.3411,26.2,82,0.0,975.4,8.25,44.6,35,15.0,13.1,19.3,223.0,34.0,4.9,7,5,7,1,2026-05-31T00:51:04.584680+05:30
Alappuzha,Kerala,9.4981,76.3388,25.5,100,0.0,1009.9,7.55,25.6,33,13.4,11.3,10.9,144.0,46.0,2.7,7,0,4,1,2026-05-31T00:51:04.584687+05:30
Munnar,Kerala,10.0889,77.0595,18.1,100,0.0,857.5,8.25,27.7,21,10.7,10.5,11.3,166.0,28.0,1.5,3,10,7,1,2026-05-31T00:51:04.584694+05:30
Silchar,Assam,24.8333,92.7789,26.7,94,0.0,1003.0,8.95,22.0,137,71.9,55.8,15.2,412.0,71.0,8.4,7,5,4,1,2026-05-31T00:51:04.584701+05:30
Dibrugarh,Assam,27.4728,94.912,27.2,83,0.0,994.5,8.65,23.4,109,51.7,44.0,28.3,590.0,17.0,2.8,7,5,7,1,2026-05-31T00:51:04.584708+05:30
