city,state,latitude,longitude,temp,humidity,rain,pressure,uv_index,wind_gusts,aqi,pm10,pm2_5,no2,co,o3,so2,mosquito_risk,arthritis_risk,migraine_risk,frizz_risk,updated_at
Delhi,Delhi,28.6139,77.209,28.2,88,0.0,976.9,7.15,26.3,134,63.8,45.1,33.4,665.0,68.0,30.6,7,5,7,1,2026-07-03T01:50:09.455056+05:30
Mumbai,Maharashtra,19.076,72.8777,25.5,94,0.3,1005.2,0.7,45.0,40,20.5,10.3,5.2,158.0,52.0,4.2,10,5,0,1,2026-07-03T01:50:09.455131+05:30
Bangalore,Karnataka,12.9716,77.5946,21.3,86,0.0,910.7,8.25,61.9,19,4.0,3.3,9.4,171.0,38.0,3.6,3,5,7,1,2026-07-03T01:50:09.455151+05:30
Hyderabad,Telangana,17.385,78.4867,24.4,83,0.1,949.7,8.1,61.6,24,5.2,4.0,7.9,166.0,39.0,4.1,6,5,7,1,2026-07-03T01:50:09.455162+05:30
Chennai,Tamil Nadu,13.0827,80.2707,27.5,84,0.0,1004.8,8.45,47.9,37,7.7,7.2,15.7,365.0,37.0,8.6,7,5,4,1,2026-07-03T01:50:09.455173+05:30
Kolkata,West Bengal,22.5726,88.3639,27.1,96,0.0,998.8,7.1,36.4,61,30.3,28.7,17.1,320.0,45.0,9.0,7,5,7,1,2026-07-03T01:50:09.455182+05:30
Pune,Maharashtra,18.5204,73.8567,22.2,92,0.1,944.6,0.85,46.4,19,2.5,2.2,7.1,135.0,41.0,4.9,6,5,3,1,2026-07-03T01:50:09.455191+05:30
Ahmedabad,Gujarat,23.0225,72.5714,28.7,82,0.0,996.5,3.25,30.6,58,19.3,12.1,14.4,192.0,34.0,5.4,7,5,3,1,2026-07-03T01:50:09.455200+05:30
Jaipur,Rajasthan,26.9124,75.7873,26.5,94,0.0,953.7,7.9,24.8,134,107.1,48.7,20.4,270.0,47.0,7.4,7,5,7,1,2026-07-03T01:50:09.455208+05:30
Lucknow,Uttar Pradesh,26.8467,80.9462,27.0,95,0.5,988.4,6.85,28.1,91,34.6,34.6,14.2,445.0,75.0,6.6,10,5,7,1,2026-07-03T01:50:09.455221+05:30
Kanpur,Uttar Pradesh,26.4499,80.3319,26.7,96,0.4,986.6,7.4,26.6,89,27.7,27.6,13.3,344.0,89.0,6.2,10,5,7,1,2026-07-03T01:50:09.455229+05:30
Chandigarh,Chandigarh,30.7333,76.7794,27.4,82,0.0,964.0,7.7,28.1,111,49.8,45.3,43.2,387.0,39.0,8.7,7,5,7,1,2026-07-03T01:50:09.455238+05:30
Srinagar,Jammu and Kashmir,34.0837,74.7973,19.7,90,0.0,838.8,9.05,28.1,83,26.8,25.5,33.9,1000.0,13.0,2.1,3,10,7,1,2026-07-03T01:50:09.455249+05:30
Jammu,Jammu and Kashmir,32.7266,74.857,27.8,80,0.0,967.8,8.6,23.8,128,89.2,62.9,66.6,323.0,11.0,6.3,7,5,7,1,2026-07-03T01:50:09.455257+05:30
Amritsar,Punjab,31.634,74.8723,28.1,86,0.0,975.1,8.45,32.8,170,130.9,83.4,25.9,508.0,62.0,8.3,7,5,7,1,2026-07-03T01:50:09.455265+05:30
Ludhiana,Punjab,30.901,75.8573,28.0,88,0.0,973.3,7.95,25.6,153,151.8,65.0,30.2,511.0,62.0,11.9,7,5,7,1,2026-07-03T01:50:09.455273+05:30
Jalandhar,Punjab,31.326,75.5762,27.7,86,0.0,974.2,8.2,26.6,160,122.9,81.5,38.1,534.0,51.0,12.6,7,5,7,1,2026-07-03T01:50:09.455280+05:30
Dehradun,Uttarakhand,30.6284,78.0322,17.9,99,0.3,828.4,8.0,23.8,47,11.1,10.7,19.2,223.0,71.0,1.4,6,10,7,1,2026-07-03T01:50:09.455289+05:30
Shimla,Himachal Pradesh,31.1048,77.1734,14.9,98,0.0,781.7,8.05,28.4,53,27.2,19.1,18.1,300.0,68.0,0.1,3,10,7,0,2026-07-03T01:50:09.455297+05:30
Manali,Himachal Pradesh,32.2396,77.1887,19.5,85,0.1,817.6,9.5,29.9,52,2.9,2.9,52.3,326.0,73.0,0.1,6,10,7,1,2026-07-03T01:50:09.455307+05:30
Gurgaon,Haryana,28.4595,77.0266,28.0,88,0.0,975.3,7.7,24.1,153,77.8,54.2,33.4,798.0,71.0,23.4,7,5,7,1,2026-07-03T01:50:09.455315+05:30
Noida,Uttar Pradesh,28.5355,77.391,28.2,87,0.0,978.3,7.0,23.0,153,77.8,54.2,33.4,582.0,71.0,23.4,7,5,7,1,2026-07-03T01:50:09.455323+05:30
Ghaziabad,Uttar Pradesh,28.6692,77.4538,27.9,88,0.0,976.7,6.9,29.9,97,47.7,46.1,24.2,431.0,59.0,9.7,7,5,7,1,2026-07-03T01:50:09.455330+05:30
Faridabad,Haryana,28.4089,77.3178,28.0,89,0.0,977.5,6.45,26.3,153,77.8,54.2,33.4,565.0,71.0,23.4,7,5,7,1,2026-07-03T01:50:09.455337+05:30
Meerut,Uttar Pradesh,28.9845,77.7064,26.3,94,0.0,975.9,7.0,26.6,97,47.7,46.1,24.2,473.0,59.0,9.7,7,5,7,1,2026-07-03T01:50:09.455345+05:30
Agra,Uttar Pradesh,27.1767,78.0081,28.3,81,0.0,981.5,5.85,18.0,95,41.8,29.0,20.4,638.0,71.0,8.5,7,5,3,1,2026-07-03T01:50:09.455352+05:30
Varanasi,Uttar Pradesh,25.3176,82.9739,27.8,91,0.0,991.0,5.6,30.6,100,30.6,30.6,15.7,385.0,74.0,9.1,7,5,3,1,2026-07-03T01:50:09.455359+05:30
Prayagraj,Uttar Pradesh,25.4358,81.8463,26.5,95,0.3,990.1,6.65,29.2,90,28.2,28.2,13.3,382.0,84.0,6.2,10,5,7,1,2026-07-03T01:50:09.455367+05:30
Gorakhpur,Uttar Pradesh,26.7606,83.3732,28.2,88,0.0,991.3,7.35,34.9,105,39.7,39.7,18.2,444.0,65.0,7.4,7,5,7,1,2026-07-03T01:50:09.455375+05:30
Bareilly,Uttar Pradesh,28.367,79.4304,28.0,92,0.0,981.2,7.4,26.6,103,67.8,66.8,36.2,590.0,43.0,13.6,7,5,7,1,2026-07-03T01:50:09.455384+05:30
Aligarh,Uttar Pradesh,27.8974,78.088,28.4,88,0.0,979.2,7.1,26.6,101,34.7,27.8,18.8,519.0,72.0,6.9,7,5,7,1,2026-07-03T01:50:09.455391+05:30
Moradabad,Uttar Pradesh,28.8386,78.7733,28.2,88,0.0,978.2,7.25,25.2,111,90.1,87.3,52.1,601.0,34.0,17.4,7,5,7,1,2026-07-03T01:50:09.455398+05:30
Saharanpur,Uttar Pradesh,29.9637,77.546,27.5,87,0.0,970.9,7.25,27.0,111,65.0,60.3,32.3,458.0,60.0,11.4,7,5,7,1,2026-07-03T01:50:09.455408+05:30
Jhansi,Uttar Pradesh,25.4484,78.5685,26.8,96,0.5,972.2,7.15,23.8,92,27.4,19.3,7.1,234.0,76.0,2.0,10,5,7,1,2026-07-03T01:50:12.728129+05:30
Surat,Gujarat,21.1702,72.8311,26.1,96,0.1,1001.6,2.6,31.0,60,18.5,14.8,28.4,381.0,22.0,39.3,10,5,0,1,2026-07-03T01:50:12.728163+05:30
Vadodara,Gujarat,22.3072,73.1812,27.1,89,0.0,999.1,4.8,38.2,48,11.9,9.5,12.7,171.0,40.0,4.5,7,5,3,1,2026-07-03T01:50:12.728173+05:30
Rajkot,Gujarat,22.3039,70.8022,26.6,93,0.0,989.1,6.05,38.9,51,21.9,11.2,6.3,114.0,43.0,5.9,7,5,7,1,2026-07-03T01:50:12.728182+05:30
Thane,Maharashtra,19.2183,72.9781,24.0,99,0.2,1004.5,0.6,37.4,40,20.5,10.3,5.2,206.0,52.0,4.2,6,5,0,1,2026-07-03T01:50:12.728190+05:30
Nagpur,Maharashtra,21.1458,79.0882,25.5,90,0.0,967.5,3.85,36.0,54,7.7,7.4,12.0,202.0,50.0,8.6,7,5,3,1,2026-07-03T01:50:12.728197+05:30
Nashik,Maharashtra,19.9975,73.7898,22.0,97,0.1,941.0,0.3,43.2,19,2.4,2.0,10.8,140.0,35.0,6.5,6,5,3,1,2026-07-03T01:50:12.728205+05:30
Aurangabad,Maharashtra,19.8762,75.3433,23.0,94,0.0,939.6,1.45,46.8,20,2.5,2.2,8.5,142.0,40.0,8.9,3,5,3,1,2026-07-03T01:50:12.728212+05:30
Solapur,Maharashtra,17.6599,75.9064,23.7,90,0.2,954.4,4.7,54.0,21,3.9,3.1,5.6,130.0,40.0,2.3,6,5,3,1,2026-07-03T01:50:12.728219+05:30
Kolhapur,Maharashtra,16.705,74.2433,22.4,92,0.0,945.8,2.1,50.8,20,3.5,2.7,3.6,123.0,46.0,1.7,3,5,3,1,2026-07-03T01:50:12.728226+05:30
Goa,Goa,15.2993,74.124,23.6,98,0.0,997.6,4.2,28.4,42,19.3,10.9,2.7,236.0,48.0,0.8,3,5,3,1,2026-07-03T01:50:12.728234+05:30
Jodhpur,Rajasthan,26.2389,73.0243,30.1,68,0.0,976.5,8.4,45.4,123,103.4,31.1,6.5,125.0,56.0,1.9,3,5,7,1,2026-07-03T01:50:12.728242+05:30
Udaipur,Rajasthan,24.5854,73.7125,25.2,89,0.0,940.9,6.85,29.2,60,18.6,14.3,6.2,139.0,70.0,5.1,7,5,7,1,2026-07-03T01:50:12.728250+05:30
Kota,Rajasthan,25.2138,75.8648,28.2,82,0.0,972.7,7.9,30.6,71,26.8,19.9,7.6,262.0,73.0,3.9,7,5,7,1,2026-07-03T01:50:12.728257+05:30
Bikaner,Rajasthan,28.0229,73.3119,31.8,55,0.0,974.6,8.45,41.8,156,93.4,42.8,4.2,152.0,59.0,1.7,0,5,7,1,2026-07-03T01:50:12.728264+05:30
Ajmer,Rajasthan,26.4499,74.6399,27.2,83,0.2,949.0,6.2,43.2,95,59.8,33.2,11.7,161.0,54.0,4.1,10,5,7,1,2026-07-03T01:50:12.728272+05:30
Gwalior,Madhya Pradesh,26.2183,78.1828,28.8,83,0.0,977.1,8.15,22.3,101,53.3,27.6,15.4,542.0,66.0,4.5,7,5,7,1,2026-07-03T01:50:12.728279+05:30
Indore,Madhya Pradesh,22.7196,75.8577,23.8,96,0.0,942.5,1.6,34.9,53,12.9,12.7,11.7,315.0,48.0,5.2,3,5,3,1,2026-07-03T01:50:12.728287+05:30
Bhopal,Madhya Pradesh,23.2599,77.4126,24.3,98,0.0,947.6,5.2,36.4,65,20.3,16.9,7.9,345.0,66.0,2.3,3,5,3,1,2026-07-03T01:50:12.728294+05:30
Jabalpur,Madhya Pradesh,23.1815,79.9864,24.7,98,0.1,955.1,7.65,23.8,69,26.0,19.8,9.5,216.0,67.0,2.9,6,5,7,1,2026-07-03T01:50:12.728301+05:30
Ujjain,Madhya Pradesh,23.1765,75.7885,24.0,97,0.0,948.1,7.8,40.0,53,14.7,14.3,7.4,248.0,61.0,4.3,3,5,7,1,2026-07-03T01:50:12.728309+05:30
Visakhapatnam,Andhra Pradesh,17.6868,83.2185,26.7,82,0.0,997.3,1.55,47.5,49,12.3,10.1,15.8,231.0,42.0,25.9,7,5,3,1,2026-07-03T01:50:12.728316+05:30
Vijayawada,Andhra Pradesh,16.5062,80.648,27.7,78,0.0,998.6,4.65,58.0,43,13.2,11.1,11.3,163.0,44.0,7.2,7,5,3,1,2026-07-03T01:50:12.728322+05:30
Guntur,Andhra Pradesh,16.3067,80.4365,28.1,76,0.0,999.9,4.65,47.5,39,9.8,8.4,11.5,150.0,41.0,7.7,7,5,3,1,2026-07-03T01:50:12.728330+05:30
Nellore,Andhra Pradesh,14.4426,79.9865,28.2,73,0.0,1003.4,8.65,49.7,30,4.8,3.1,5.5,157.0,45.0,4.4,7,5,4,1,2026-07-03T01:50:12.728337+05:30
Kurnool,Andhra Pradesh,15.8281,78.0373,26.4,76,0.0,974.8,4.55,53.3,24,5.7,3.7,7.7,133.0,39.0,2.1,7,5,3,1,2026-07-03T01:50:12.728346+05:30
Kakinada,Andhra Pradesh,16.9891,82.2475,26.2,90,0.1,1002.4,6.65,54.7,39,17.8,13.4,9.0,224.0,51.0,5.8,10,5,4,1,2026-07-03T01:50:12.728353+05:30
Tirupati,Andhra Pradesh,13.6288,79.4192,28.9,59,0.0,989.1,8.0,51.5,21,5.0,3.4,4.7,100.0,46.0,1.4,4,5,7,1,2026-07-03T01:50:12.728360+05:30
Warangal,Telangana,17.9689,79.5941,25.0,92,0.2,974.6,1.2,53.3,30,8.6,7.3,9.8,191.0,38.0,3.1,10,5,3,1,2026-07-03T01:50:12.728367+05:30
Nizamabad,Telangana,18.6725,78.0941,23.8,96,0.1,960.6,1.05,52.9,30,7.4,5.9,8.0,152.0,39.0,4.8,6,5,3,1,2026-07-03T01:50:12.728374+05:30
Mysore,Karnataka,12.2958,76.6396,21.5,92,0.0,928.1,5.1,55.1,20,2.8,2.3,5.5,127.0,40.0,1.7,3,5,3,1,2026-07-03T01:50:12.728381+05:30
Mangalore,Karnataka,12.9141,74.856,25.3,94,0.1,1007.4,8.5,46.8,30,15.8,9.0,4.6,120.0,39.0,1.6,10,5,4,1,2026-07-03T01:50:12.728388+05:30
Hubli-Dharwad,Karnataka,15.3647,75.124,22.0,97,0.0,939.4,7.1,64.8,20,1.0,0.9,3.7,105.0,43.0,1.0,3,5,7,1,2026-07-03T01:50:12.728396+05:30
Belgaum,Karnataka,15.8497,74.4977,21.4,98,0.0,923.8,2.5,61.6,21,3.6,2.5,3.8,107.0,44.0,1.6,3,5,3,1,2026-07-03T01:50:16.044938+05:30
Coimbatore,Tamil Nadu,11.0168,76.9558,22.4,96,0.0,961.3,8.35,61.9,18,5.3,4.0,6.2,172.0,36.0,2.5,3,5,7,1,2026-07-03T01:50:16.044972+05:30
Madurai,Tamil Nadu,9.9252,78.1198,28.9,61,0.0,992.3,8.7,63.7,37,7.3,6.6,11.9,123.0,27.0,4.0,7,5,7,1,2026-07-03T01:50:16.044983+05:30
Trichy,Tamil Nadu,10.7905,78.7047,29.0,62,0.0,998.6,7.85,65.9,24,6.1,4.0,4.4,114.0,41.0,2.2,7,5,7,1,2026-07-03T01:50:16.044993+05:30
Salem,Tamil Nadu,11.6643,78.146,26.0,77,0.0,976.8,8.75,36.4,34,10.7,9.5,16.5,359.0,28.0,6.8,7,5,7,1,2026-07-03T01:50:16.045002+05:30
Tirunelveli,Tamil Nadu,8.7139,77.7567,28.6,64,0.0,1003.3,8.45,54.4,23,6.0,5.0,7.5,139.0,30.0,2.3,7,5,4,1,2026-07-03T01:50:16.045010+05:30
Vellore,Tamil Nadu,12.9165,79.1325,28.5,61,0.0,982.7,8.3,48.2,24,5.8,4.7,9.8,150.0,39.0,3.5,7,5,7,1,2026-07-03T01:50:16.045018+05:30
Erode,Tamil Nadu,11.341,77.7172,25.2,82,0.0,988.7,8.8,54.4,28,10.7,9.6,15.0,152.0,29.0,3.6,7,5,7,1,2026-07-03T01:50:16.045026+05:30
Kochi,Kerala,9.9312,76.2673,24.7,96,0.1,1010.6,6.75,42.8,46,10.2,8.3,11.9,174.0,25.0,3.5,6,0,4,1,2026-07-03T01:50:16.045034+05:30
Thiruvananthapuram,Kerala,8.5241,76.9366,24.5,94,0.1,1010.2,7.4,44.6,40,10.1,5.8,2.6,122.0,40.0,1.1,6,0,4,1,2026-07-03T01:50:16.045042+05:30
Kozhikode,Kerala,11.2588,75.7804,24.1,99,0.1,1009.7,2.85,43.6,25,10.5,5.1,0.9,169.0,53.0,0.6,6,0,0,1,2026-07-03T01:50:16.045049+05:30
Thrissur,Kerala,10.5276,76.2144,23.9,99,0.1,1008.8,2.75,35.3,40,10.7,8.8,9.1,257.0,29.0,2.8,6,0,0,1,2026-07-03T01:50:16.045058+05:30
Kannur,Kerala,11.8745,75.3704,24.3,98,0.1,1008.7,2.4,43.6,25,12.8,7.1,4.9,147.0,38.0,1.2,6,0,0,1,2026-07-03T01:50:16.045065+05:30
Patna,Bihar,25.5941,85.1376,27.6,94,0.0,994.2,7.1,37.4,91,28.9,28.6,15.6,365.0,75.0,14.6,7,5,7,1,2026-07-03T01:50:16.045073+05:30
Gaya,Bihar,24.7914,85.0002,26.9,92,0.0,987.1,6.4,32.4,78,24.5,24.3,13.1,339.0,72.0,10.9,7,5,7,1,2026-07-03T01:50:16.045080+05:30
Muzaffarpur,Bihar,26.1209,85.3647,28.1,88,0.0,994.5,6.65,32.8,89,31.2,31.1,17.2,442.0,66.0,11.4,7,5,7,1,2026-07-03T01:50:16.045087+05:30
Bhagalpur,Bihar,25.2425,87.0117,27.8,90,0.0,995.3,7.9,32.8,85,30.6,30.3,15.0,365.0,67.0,9.8,7,5,7,1,2026-07-03T01:50:16.045095+05:30
Ranchi,Jharkhand,23.3441,85.3096,23.1,99,0.0,930.9,7.5,39.6,80,8.9,8.8,7.5,291.0,74.0,5.4,3,5,7,1,2026-07-03T01:50:16.045103+05:30
Jamshedpur,Jharkhand,22.8046,86.2029,25.8,96,0.0,983.9,7.0,34.6,80,23.4,22.9,12.9,318.0,57.0,10.1,7,5,7,1,2026-07-03T01:50:16.045130+05:30
Dhanbad,Jharkhand,23.7957,86.4304,26.1,93,0.0,973.4,8.05,32.4,111,38.6,38.2,42.4,344.0,40.0,99.1,7,5,7,1,2026-07-03T01:50:16.045139+05:30
Bokaro,Jharkhand,23.6693,86.1511,25.7,96,0.1,977.1,7.75,34.6,111,41.8,41.3,43.0,420.0,39.0,104.2,10,5,7,1,2026-07-03T01:50:16.045147+05:30
Bhubaneswar,Odisha,20.2961,85.8245,26.0,97,0.0,994.2,7.3,25.2,64,20.1,19.9,13.0,361.0,62.0,4.7,7,5,7,1,2026-07-03T01:50:16.045154+05:30
Cuttack,Odisha,20.4625,85.8828,26.2,97,0.0,995.9,7.3,31.0,64,20.1,19.9,13.0,319.0,62.0,4.7,7,5,7,1,2026-07-03T01:50:16.045161+05:30
Rourkela,Odisha,22.2604,84.8536,25.3,99,0.0,977.3,7.55,33.8,119,44.6,44.5,15.9,431.0,85.0,22.4,7,5,7,1,2026-07-03T01:50:16.045168+05:30
Raipur,Chhattisgarh,21.2514,81.6296,25.1,97,0.0,968.0,2.95,29.5,76,14.8,14.5,23.6,252.0,52.0,33.4,7,5,3,1,2026-07-03T01:50:16.045175+05:30
Bhilai,Chhattisgarh,21.1938,81.3509,24.8,97,0.1,968.5,3.15,35.3,67,12.1,11.8,18.8,585.0,55.0,25.5,6,5,3,1,2026-07-03T01:50:16.045183+05:30
Guwahati,Assam,26.1158,91.7086,26.6,94,0.1,997.0,8.65,27.7,32,7.9,7.8,12.3,229.0,26.0,1.2,10,5,7,1,2026-07-03T01:50:16.045190+05:30
Agartala,Tripura,23.8315,91.2868,26.5,94,0.0,1001.1,6.05,29.5,52,14.4,13.7,16.1,198.0,32.0,3.8,7,5,4,1,2026-07-03T01:50:16.045197+05:30
Shillong,Meghalaya,25.5788,91.8933,19.1,94,0.0,853.6,8.8,27.4,28,5.8,5.7,6.8,270.0,54.0,2.6,3,10,7,1,2026-07-03T01:50:16.045205+05:30
Imphal,Manipur,24.817,93.9368,23.3,96,0.0,919.6,8.8,23.8,38,10.6,10.4,9.4,562.0,40.0,2.3,3,5,7,1,2026-07-03T01:50:16.045212+05:30
Aizawl,Mizoram,23.7271,92.7176,20.6,100,0.0,888.5,8.0,19.1,33,6.7,6.6,11.8,190.0,18.0,0.8,3,5,7,1,2026-07-03T01:50:16.045219+05:30
Kohima,Nagaland,25.6701,94.1077,19.5,95,0.1,852.1,8.55,27.0,23,4.8,4.8,7.5,232.0,31.0,0.6,6,10,7,1,2026-07-03T01:50:16.045226+05:30
Gangtok,Sikkim,27.3314,88.6138,19.2,93,0.0,835.1,8.95,32.0,39,8.5,8.4,6.5,304.0,87.0,1.4,3,10,7,1,2026-07-03T01:50:16.045233+05:30
Siliguri,West Bengal,26.7271,88.3953,27.1,94,0.0,987.7,8.65,23.4,70,31.1,31.0,18.9,530.0,70.0,5.9,7,5,7,1,2026-07-03T01:50:19.308282+05:30
Durgapur,West Bengal,23.5204,87.3119,26.6,96,0.0,988.6,6.35,33.8,100,37.0,36.7,29.3,415.0,44.0,27.9,7,5,7,1,2026-07-03T01:50:19.308317+05:30
Asansol,West Bengal,23.6739,86.9524,26.1,95,0.1,987.3,5.15,33.8,96,31.4,31.1,31.6,357.0,48.0,35.4,10,5,3,1,2026-07-03T01:50:19.308328+05:30
Pondicherry,Puducherry,11.9139,79.8145,29.7,64,0.0,1006.4,7.9,36.7,55,15.6,13.9,17.4,234.0,42.0,9.4,7,5,4,1,2026-07-03T01:50:19.308338+05:30
Port Blair,Andaman and Nicobar Islands,11.6234,92.7265,26.5,93,0.0,1005.1,7.45,52.6,40,15.9,8.5,0.2,92.0,66.0,0.5,7,5,4,1,2026-07-03T01:50:19.308346+05:30
Haridwar,Uttarakhand,29.9457,78.1642,26.4,92,0.0,969.2,7.1,21.2,89,55.1,51.1,26.6,334.0,66.0,9.4,7,5,7,1,2026-07-03T01:50:19.308355+05:30
Rishikesh,Uttarakhand,30.0869,78.2676,25.0,96,0.0,962.0,7.0,18.4,58,30.6,27.0,10.9,322.0,101.0,5.6,7,5,7,1,2026-07-03T01:50:19.308362+05:30
Nainital,Uttarakhand,29.3919,79.4542,15.7,98,0.0,802.7,7.65,25.9,81,43.7,41.0,20.3,411.0,57.0,2.7,3,10,7,0,2026-07-03T01:50:19.308370+05:30
Mussoorie,Uttarakhand,30.4599,78.0664,16.8,100,0.1,801.3,7.95,28.1,61,30.0,27.3,19.6,269.0,83.0,8.2,6,10,7,1,2026-07-03T01:50:19.308378+05:30
Dharamshala,Himachal Pradesh,32.219,76.3234,22.3,90,0.0,866.5,8.45,38.9,30,10.1,9.2,12.7,403.0,72.0,0.1,3,5,7,1,2026-07-03T01:50:19.308387+05:30
Dalhousie,Himachal Pradesh,32.5387,75.971,16.9,93,0.0,802.1,8.15,32.0,84,34.2,24.5,33.2,420.0,43.0,1.6,3,10,7,0,2026-07-03T01:50:19.308395+05:30
Patiala,Punjab,30.3398,76.3869,28.1,85,0.0,972.9,7.6,30.2,136,265.4,62.2,21.4,472.0,71.0,11.7,7,5,7,1,2026-07-03T01:50:19.308402+05:30
Bhatinda,Punjab,30.211,74.9455,29.3,79,0.0,977.4,8.25,40.0,187,395.8,114.1,18.8,420.0,74.0,7.2,7,5,7,1,2026-07-03T01:50:19.308409+05:30
Rohtak,Haryana,28.8955,76.6066,28.4,83,0.0,975.8,6.0,31.7,157,406.1,86.4,36.9,840.0,63.0,28.5,7,5,3,1,2026-07-03T01:50:19.308416+05:30
Panipat,Haryana,29.3909,76.9635,26.8,90,0.1,975.0,6.4,31.7,245,1158.6,163.9,22.5,463.0,70.0,10.2,10,5,7,1,2026-07-03T01:50:19.308423+05:30
Mathura,Uttar Pradesh,27.4924,77.6737,28.4,83,0.0,980.5,6.15,23.8,118,43.2,30.2,17.7,516.0,81.0,6.9,7,5,7,1,2026-07-03T01:50:19.308430+05:30
Vrindavan,Uttar Pradesh,27.5823,77.7027,28.6,80,0.0,981.0,7.6,22.3,118,43.2,30.2,17.7,495.0,81.0,6.9,7,5,7,1,2026-07-03T01:50:19.308437+05:30
Ayodhya,Uttar Pradesh,26.7922,82.1998,28.6,86,0.0,989.2,7.3,29.5,107,31.1,31.1,13.8,544.0,77.0,5.0,7,5,7,1,2026-07-03T01:50:19.308444+05:30
Ratlam,Madhya Pradesh,23.3315,75.0367,24.2,97,0.0,949.3,3.6,33.8,48,16.1,15.5,6.9,200.0,63.0,5.1,3,5,3,1,2026-07-03T01:50:19.308451+05:30
Sagar,Madhya Pradesh,23.8388,78.7378,24.0,98,0.0,944.1,8.4,31.7,71,26.0,20.5,7.4,211.0,78.0,2.1,3,5,7,1,2026-07-03T01:50:19.308457+05:30
Satna,Madhya Pradesh,24.6005,80.8322,24.9,97,0.1,965.1,8.35,30.2,74,25.9,21.6,11.8,232.0,71.0,4.9,6,5,7,1,2026-07-03T01:50:19.308464+05:30
Akola,Maharashtra,20.7002,77.0082,25.0,94,0.0,969.9,4.85,34.6,24,5.1,5.0,11.2,153.0,36.0,7.7,7,5,3,1,2026-07-03T01:50:19.308472+05:30
Amravati,Maharashtra,20.9374,77.7796,24.6,98,0.2,961.9,2.1,44.6,24,5.6,5.5,11.7,164.0,37.0,8.1,6,5,3,1,2026-07-03T01:50:19.308480+05:30
Latur,Maharashtra,18.4088,76.5604,23.2,94,0.1,936.1,1.1,49.0,23,3.9,3.2,5.7,143.0,41.0,2.3,6,5,3,1,2026-07-03T01:50:19.308487+05:30
Nanded,Maharashtra,19.1383,77.3091,24.6,90,0.0,964.3,0.8,43.6,26,5.4,4.2,6.6,143.0,40.0,3.3,3,5,3,1,2026-07-03T01:50:19.308494+05:30
Gulbarga,Karnataka,17.3297,76.8343,24.0,90,0.1,956.1,2.1,46.4,21,4.8,3.3,6.3,144.0,40.0,2.6,6,5,3,1,2026-07-03T01:50:19.308501+05:30
Bidar,Karnataka,17.9104,77.5199,22.8,95,0.2,931.8,3.75,59.4,22,4.3,3.4,6.2,128.0,41.0,2.2,6,5,3,1,2026-07-03T01:50:19.308508+05:30
Hospet,Karnataka,15.2689,76.3909,23.4,90,0.0,954.3,5.5,62.6,20,1.7,1.6,5.0,120.0,42.0,1.5,3,5,3,1,2026-07-03T01:50:19.308515+05:30
Tirupur,Tamil Nadu,11.1085,77.3411,23.5,90,0.0,974.9,8.65,58.0,32,13.0,12.0,19.1,138.0,22.0,4.7,3,5,7,1,2026-07-03T01:50:19.308521+05:30
Alappuzha,Kerala,9.4981,76.3388,24.8,96,0.1,1010.6,8.4,41.4,41,9.1,6.2,6.7,82.0,35.0,2.2,6,0,4,1,2026-07-03T01:50:19.308527+05:30
Munnar,Kerala,10.0889,77.0595,17.1,100,0.1,857.0,1.2,46.4,20,1.6,1.4,4.1,88.0,35.0,1.7,6,10,3,1,2026-07-03T01:50:19.308535+05:30
Silchar,Assam,24.8333,92.7789,25.4,96,0.2,1001.0,8.75,19.8,72,15.9,15.5,7.0,185.0,51.0,3.7,10,5,4,1,2026-07-03T01:50:19.308542+05:30
Dibrugarh,Assam,27.4728,94.912,26.1,98,0.2,990.8,8.85,24.1,48,17.3,16.9,18.4,303.0,26.0,1.4,10,5,7,1,2026-07-03T01:50:19.308548+05:30
