city,state,latitude,longitude,temp,humidity,rain,pressure,uv_index,wind_gusts,aqi,pm10,pm2_5,mosquito_risk,arthritis_risk,migraine_risk,frizz_risk,updated_at
Delhi,Delhi,28.6139,77.209,19.3,79,0.0,989.0,5.85,23.8,160,179.3,76.6,3,5,3,0,2026-03-22T00:10:33.285723+05:30
Mumbai,Maharashtra,19.076,72.8777,28.1,59,0.0,1010.2,7.9,29.2,89,32.9,28.9,4,0,4,1,2026-03-22T00:10:33.285764+05:30
Bangalore,Karnataka,12.9716,77.5946,24.2,72,0.0,913.0,9.4,25.2,108,36.9,34.5,3,5,7,1,2026-03-22T00:10:33.285779+05:30
Hyderabad,Telangana,17.385,78.4867,24.7,76,0.0,955.4,8.85,28.1,93,29.7,24.6,3,5,7,1,2026-03-22T00:10:33.285788+05:30
Chennai,Tamil Nadu,13.0827,80.2707,27.3,80,0.0,1009.4,9.1,35.6,38,14.5,9.9,7,0,4,1,2026-03-22T00:10:33.285797+05:30
Kolkata,West Bengal,22.5726,88.3639,21.1,92,0.0,1010.3,7.5,19.8,65,38.8,36.7,3,0,4,1,2026-03-22T00:10:33.285805+05:30
Pune,Maharashtra,18.5204,73.8567,23.7,70,0.0,949.9,8.4,24.1,87,38.6,32.5,3,5,7,1,2026-03-22T00:10:33.285816+05:30
Ahmedabad,Gujarat,23.0225,72.5714,24.1,48,0.0,1005.7,7.6,15.1,66,49.0,37.8,0,5,4,0,2026-03-22T00:10:33.285824+05:30
Jaipur,Rajasthan,26.9124,75.7873,19.7,73,0.0,964.7,6.75,34.2,76,88.9,36.1,3,5,7,0,2026-03-22T00:10:33.285831+05:30
Lucknow,Uttar Pradesh,26.8467,80.9462,20.3,77,0.0,999.4,6.25,24.5,102,70.5,53.1,3,5,7,1,2026-03-22T00:10:33.285839+05:30
Kanpur,Uttar Pradesh,26.4499,80.3319,20.7,67,0.0,997.4,6.7,25.6,116,224.9,56.5,3,5,7,0,2026-03-22T00:10:33.285846+05:30
Chandigarh,Chandigarh,30.7333,76.7794,15.5,91,0.0,973.7,6.35,28.4,80,40.5,36.9,3,10,7,0,2026-03-22T00:10:33.285853+05:30
Srinagar,Jammu and Kashmir,34.0837,74.7973,6.0,88,0.0,840.7,6.7,14.0,73,83.4,78.7,3,10,7,0,2026-03-22T00:10:33.285860+05:30
Jammu,Jammu and Kashmir,32.7266,74.857,16.8,86,0.0,978.4,6.45,16.9,101,65.7,56.9,3,10,7,0,2026-03-22T00:10:33.285867+05:30
Amritsar,Punjab,31.634,74.8723,16.8,82,0.0,987.1,6.1,15.8,120,103.6,93.1,3,10,7,0,2026-03-22T00:10:33.285874+05:30
Ludhiana,Punjab,30.901,75.8573,16.6,84,0.0,984.8,6.0,23.0,152,52.5,46.8,3,10,3,0,2026-03-22T00:10:33.285881+05:30
Jalandhar,Punjab,31.326,75.5762,16.6,85,0.0,986.0,6.3,20.5,134,61.5,53.8,3,10,7,0,2026-03-22T00:10:33.285890+05:30
Dehradun,Uttarakhand,30.6284,78.0322,9.9,89,0.0,830.0,6.7,22.7,65,26.8,22.6,3,10,7,0,2026-03-22T00:10:33.285897+05:30
Shimla,Himachal Pradesh,31.1048,77.1734,7.1,88,0.0,782.6,6.6,33.5,51,40.0,32.0,3,10,7,0,2026-03-22T00:10:33.285904+05:30
Manali,Himachal Pradesh,32.2396,77.1887,9.6,43,0.0,817.5,8.65,22.0,78,23.5,19.4,0,5,7,1,2026-03-22T00:10:33.285916+05:30
Gurgaon,Haryana,28.4595,77.0266,17.9,86,0.0,987.4,6.1,20.5,171,162.5,94.8,3,10,7,0,2026-03-22T00:10:33.285924+05:30
Noida,Uttar Pradesh,28.5355,77.391,19.3,78,0.0,990.5,6.15,22.7,171,162.5,94.8,3,5,7,0,2026-03-22T00:10:33.285930+05:30
Ghaziabad,Uttar Pradesh,28.6692,77.4538,18.0,83,0.0,988.7,5.85,21.6,157,149.0,68.7,3,10,3,0,2026-03-22T00:10:33.285936+05:30
Faridabad,Haryana,28.4089,77.3178,18.3,82,0.0,989.6,6.4,20.9,171,162.5,94.8,3,10,7,0,2026-03-22T00:10:33.285943+05:30
Meerut,Uttar Pradesh,28.9845,77.7064,16.7,86,0.0,987.2,6.15,22.0,157,149.0,68.7,3,10,7,0,2026-03-22T00:10:33.285949+05:30
Agra,Uttar Pradesh,27.1767,78.0081,19.9,70,0.0,993.6,6.8,28.1,202,447.0,106.6,3,5,7,0,2026-03-22T00:10:33.285955+05:30
Varanasi,Uttar Pradesh,25.3176,82.9739,18.6,89,0.0,1003.4,5.1,26.3,106,97.3,83.6,3,10,0,1,2026-03-22T00:10:33.285964+05:30
Prayagraj,Uttar Pradesh,25.4358,81.8463,19.7,82,0.0,1001.7,7.35,25.2,100,76.1,65.9,3,10,4,1,2026-03-22T00:10:33.285971+05:30
Gorakhpur,Uttar Pradesh,26.7606,83.3732,16.3,98,0.0,1003.4,5.7,17.3,112,91.3,87.3,3,10,0,0,2026-03-22T00:10:33.285977+05:30
Bareilly,Uttar Pradesh,28.367,79.4304,17.6,88,0.0,992.5,6.6,18.0,123,49.7,48.0,3,10,7,0,2026-03-22T00:10:33.285986+05:30
Aligarh,Uttar Pradesh,27.8974,78.088,17.2,83,0.0,991.3,6.5,20.2,163,245.9,92.2,3,10,7,0,2026-03-22T00:10:33.285992+05:30
Moradabad,Uttar Pradesh,28.8386,78.7733,17.2,84,0.0,989.2,6.45,18.4,143,74.5,66.8,3,10,7,0,2026-03-22T00:10:33.285999+05:30
Saharanpur,Uttar Pradesh,29.9637,77.546,16.0,89,0.0,980.9,6.1,27.0,148,111.1,70.8,3,10,7,0,2026-03-22T00:10:33.286022+05:30
Jhansi,Uttar Pradesh,25.4484,78.5685,21.2,54,0.0,983.1,7.4,24.5,80,84.8,33.3,0,5,7,0,2026-03-22T00:10:36.503383+05:30
Surat,Gujarat,21.1702,72.8311,25.5,52,0.0,1009.1,7.55,28.1,110,43.1,36.6,4,0,4,0,2026-03-22T00:10:36.503413+05:30
Vadodara,Gujarat,22.3072,73.1812,25.7,52,0.0,1007.5,7.55,16.9,60,33.4,28.1,4,5,4,0,2026-03-22T00:10:36.503423+05:30
Rajkot,Gujarat,22.3039,70.8022,24.3,63,0.0,998.0,7.05,19.4,58,45.9,26.3,3,5,7,1,2026-03-22T00:10:36.503431+05:30
Thane,Maharashtra,19.2183,72.9781,26.8,46,0.0,1009.7,7.85,42.8,89,32.9,28.9,4,0,4,0,2026-03-22T00:10:36.503438+05:30
Nagpur,Maharashtra,21.1458,79.0882,24.6,38,0.0,976.4,8.3,24.8,62,16.5,13.4,0,5,7,0,2026-03-22T00:10:36.503445+05:30
Nashik,Maharashtra,19.9975,73.7898,23.3,41,0.0,947.6,8.05,22.7,60,27.0,23.6,0,5,7,0,2026-03-22T00:10:36.503452+05:30
Aurangabad,Maharashtra,19.8762,75.3433,24.1,34,0.0,945.8,8.6,24.5,78,24.5,18.9,0,5,7,0,2026-03-22T00:10:36.503458+05:30
Solapur,Maharashtra,17.6599,75.9064,26.9,45,0.0,958.4,8.75,27.7,74,29.6,21.5,4,5,7,0,2026-03-22T00:10:36.503466+05:30
Kolhapur,Maharashtra,16.705,74.2433,19.5,63,0.0,948.8,8.85,26.6,85,51.6,38.0,3,5,7,0,2026-03-22T00:10:36.503472+05:30
Goa,Goa,15.2993,74.124,25.8,87,0.0,999.1,8.85,35.3,88,63.6,38.2,7,5,7,1,2026-03-22T00:10:36.503479+05:30
Jodhpur,Rajasthan,26.2389,73.0243,23.1,49,0.0,987.4,6.6,24.1,63,40.0,15.9,0,5,7,0,2026-03-22T00:10:36.503486+05:30
Udaipur,Rajasthan,24.5854,73.7125,21.7,50,0.0,949.9,7.1,11.9,53,32.1,17.3,0,5,7,0,2026-03-22T00:10:36.503492+05:30
Kota,Rajasthan,25.2138,75.8648,21.9,57,0.0,983.3,7.5,22.0,77,32.8,21.7,0,5,7,0,2026-03-22T00:10:36.503499+05:30
Bikaner,Rajasthan,28.0229,73.3119,21.5,66,0.0,987.5,6.25,31.7,53,31.9,13.7,3,5,7,0,2026-03-22T00:10:36.503505+05:30
Ajmer,Rajasthan,26.4499,74.6399,20.6,66,0.0,959.1,7.4,30.2,67,59.0,28.4,3,5,7,0,2026-03-22T00:10:36.503512+05:30
Gwalior,Madhya Pradesh,26.2183,78.1828,22.1,58,0.0,988.8,7.1,25.6,89,259.8,57.3,0,5,7,0,2026-03-22T00:10:36.503518+05:30
Indore,Madhya Pradesh,22.7196,75.8577,21.2,53,0.0,950.8,7.95,22.7,58,27.1,20.7,0,5,7,0,2026-03-22T00:10:36.503524+05:30
Bhopal,Madhya Pradesh,23.2599,77.4126,20.8,53,0.0,956.9,7.9,23.8,63,27.6,20.9,0,5,7,0,2026-03-22T00:10:36.503530+05:30
Jabalpur,Madhya Pradesh,23.1815,79.9864,20.7,58,0.0,965.4,8.0,31.3,64,20.1,14.3,0,5,7,0,2026-03-22T00:10:36.503537+05:30
Ujjain,Madhya Pradesh,23.1765,75.7885,20.9,60,0.0,956.7,7.75,19.4,63,29.5,23.7,0,5,7,0,2026-03-22T00:10:36.503544+05:30
Visakhapatnam,Andhra Pradesh,17.6868,83.2185,24.6,89,0.0,1006.9,8.8,35.3,72,19.6,16.7,3,5,4,1,2026-03-22T00:10:36.503550+05:30
Vijayawada,Andhra Pradesh,16.5062,80.648,25.6,87,0.0,1005.5,8.85,24.8,62,18.7,16.2,7,5,4,1,2026-03-22T00:10:36.503557+05:30
Guntur,Andhra Pradesh,16.3067,80.4365,25.6,90,0.0,1006.7,8.85,23.8,58,20.3,17.5,7,5,4,1,2026-03-22T00:10:36.503563+05:30
Nellore,Andhra Pradesh,14.4426,79.9865,26.6,84,0.0,1008.5,9.0,35.3,45,12.1,8.2,7,0,4,1,2026-03-22T00:10:36.503570+05:30
Kurnool,Andhra Pradesh,15.8281,78.0373,27.6,62,0.0,978.3,8.9,24.1,99,38.8,32.9,7,5,7,1,2026-03-22T00:10:36.503577+05:30
Kakinada,Andhra Pradesh,16.9891,82.2475,23.9,92,0.0,1010.5,8.85,26.6,38,11.4,8.2,3,0,4,1,2026-03-22T00:10:36.503583+05:30
Tirupati,Andhra Pradesh,13.6288,79.4192,25.5,84,0.0,994.3,8.85,25.6,74,24.5,21.9,7,5,7,1,2026-03-22T00:10:36.503590+05:30
Warangal,Telangana,17.9689,79.5941,25.3,74,0.0,980.9,8.65,22.7,101,41.4,35.3,7,5,7,1,2026-03-22T00:10:36.503596+05:30
Nizamabad,Telangana,18.6725,78.0941,26.5,53,0.0,966.5,8.6,34.9,86,41.2,28.1,4,5,7,1,2026-03-22T00:10:36.503602+05:30
Mysore,Karnataka,12.2958,76.6396,23.5,79,0.0,929.5,9.4,39.6,86,48.9,42.4,3,5,7,1,2026-03-22T00:10:36.503608+05:30
Mangalore,Karnataka,12.9141,74.856,29.5,77,0.0,1008.0,9.05,29.2,67,34.2,20.1,7,0,4,1,2026-03-22T00:10:36.503614+05:30
Hubli-Dharwad,Karnataka,15.3647,75.124,23.1,57,0.0,942.0,9.05,27.4,77,21.0,17.6,0,5,7,0,2026-03-22T00:10:36.503621+05:30
Belgaum,Karnataka,15.8497,74.4977,22.3,66,0.0,926.7,9.1,34.2,70,45.8,28.2,3,5,7,0,2026-03-22T00:10:39.722283+05:30
Coimbatore,Tamil Nadu,11.0168,76.9558,24.5,79,0.0,963.6,9.35,40.7,80,28.7,24.5,3,5,7,1,2026-03-22T00:10:39.722315+05:30
Madurai,Tamil Nadu,9.9252,78.1198,25.7,79,0.0,995.5,9.3,36.7,69,20.4,18.3,7,5,7,1,2026-03-22T00:10:39.722325+05:30
Trichy,Tamil Nadu,10.7905,78.7047,26.2,89,0.0,1001.8,9.25,26.3,55,20.0,17.1,7,5,4,1,2026-03-22T00:10:39.722333+05:30
Salem,Tamil Nadu,11.6643,78.146,26.9,77,0.0,979.0,9.3,24.8,96,34.1,30.4,7,5,7,1,2026-03-22T00:10:39.722341+05:30
Tirunelveli,Tamil Nadu,8.7139,77.7567,26.2,80,0.0,1005.4,9.3,42.8,91,28.2,26.3,7,5,4,1,2026-03-22T00:10:39.722348+05:30
Vellore,Tamil Nadu,12.9165,79.1325,25.7,79,0.0,986.8,9.2,32.0,96,26.0,23.6,7,5,7,1,2026-03-22T00:10:39.722355+05:30
Erode,Tamil Nadu,11.341,77.7172,27.7,76,0.0,991.1,9.3,29.9,81,14.6,13.1,7,5,7,1,2026-03-22T00:10:39.722362+05:30
Kochi,Kerala,9.9312,76.2673,28.5,77,0.0,1010.2,9.15,33.8,80,33.6,31.1,7,0,4,1,2026-03-22T00:10:39.722369+05:30
Thiruvananthapuram,Kerala,8.5241,76.9366,27.4,81,0.0,1009.5,8.55,24.8,91,21.3,17.6,7,0,4,1,2026-03-22T00:10:39.722376+05:30
Kozhikode,Kerala,11.2588,75.7804,29.5,77,0.0,1009.0,9.05,31.3,61,25.5,16.5,7,0,4,1,2026-03-22T00:10:39.722383+05:30
Thrissur,Kerala,10.5276,76.2144,28.0,78,0.0,1008.2,9.15,38.9,78,45.1,42.0,7,0,4,1,2026-03-22T00:10:39.722390+05:30
Kannur,Kerala,11.8745,75.3704,28.7,79,0.0,1008.3,9.1,34.9,65,28.2,18.4,7,0,4,1,2026-03-22T00:10:39.722397+05:30
Patna,Bihar,25.5941,85.1376,18.9,94,0.0,1006.5,7.2,24.5,140,71.0,67.3,3,10,4,1,2026-03-22T00:10:39.722404+05:30
Gaya,Bihar,24.7914,85.0002,18.7,93,0.0,999.6,7.65,24.8,110,48.8,45.1,3,10,7,1,2026-03-22T00:10:39.722410+05:30
Muzaffarpur,Bihar,26.1209,85.3647,16.9,100,0.0,1006.6,5.2,23.8,145,82.2,79.4,3,10,0,1,2026-03-22T00:10:39.722417+05:30
Bhagalpur,Bihar,25.2425,87.0117,18.9,97,0.0,1006.8,5.85,24.5,112,43.7,40.9,3,10,0,1,2026-03-22T00:10:39.722423+05:30
Ranchi,Jharkhand,23.3441,85.3096,16.8,91,0.0,940.6,8.35,32.0,92,39.5,37.6,3,10,7,0,2026-03-22T00:10:39.722430+05:30
Jamshedpur,Jharkhand,22.8046,86.2029,21.5,79,0.0,995.4,7.75,28.1,117,58.7,56.6,3,5,7,1,2026-03-22T00:10:39.722436+05:30
Dhanbad,Jharkhand,23.7957,86.4304,19.5,80,0.0,984.4,7.6,27.0,143,70.3,66.6,3,5,7,0,2026-03-22T00:10:39.722443+05:30
Bokaro,Jharkhand,23.6693,86.1511,18.7,88,0.0,988.7,5.8,37.4,143,70.3,67.1,3,10,3,1,2026-03-22T00:10:39.722449+05:30
Bhubaneswar,Odisha,20.2961,85.8245,23.7,90,0.0,1006.1,8.55,28.1,99,52.5,48.1,3,5,4,1,2026-03-22T00:10:39.722456+05:30
Cuttack,Odisha,20.4625,85.8828,23.9,87,0.0,1008.3,8.6,24.8,99,52.5,48.1,3,0,4,1,2026-03-22T00:10:39.722462+05:30
Rourkela,Odisha,22.2604,84.8536,22.5,70,0.0,989.0,8.15,29.9,106,27.4,25.0,3,5,7,1,2026-03-22T00:10:39.722469+05:30
Raipur,Chhattisgarh,21.2514,81.6296,22.3,46,0.0,978.0,8.35,31.7,116,26.9,24.4,0,5,7,0,2026-03-22T00:10:39.722475+05:30
Bhilai,Chhattisgarh,21.1938,81.3509,21.4,46,0.0,978.2,8.35,33.8,102,20.9,18.1,0,5,7,0,2026-03-22T00:10:39.722480+05:30
Guwahati,Assam,26.1158,91.7086,20.2,87,0.1,1006.2,2.65,19.4,87,32.2,27.9,6,5,0,1,2026-03-22T00:10:39.722486+05:30
Agartala,Tripura,23.8315,91.2868,20.8,87,0.0,1009.5,5.1,18.4,105,37.6,31.0,3,0,0,1,2026-03-22T00:10:39.722492+05:30
Shillong,Meghalaya,25.5788,91.8933,10.4,99,0.0,855.5,5.05,30.6,69,37.6,25.3,3,10,3,0,2026-03-22T00:10:39.722499+05:30
Imphal,Manipur,24.817,93.9368,16.0,86,0.0,923.6,7.45,25.9,88,40.4,32.9,3,10,7,0,2026-03-22T00:10:39.722505+05:30
Aizawl,Mizoram,23.7271,92.7176,15.6,93,0.0,893.0,5.35,42.8,111,55.6,44.6,3,10,3,0,2026-03-22T00:10:39.722512+05:30
Kohima,Nagaland,25.6701,94.1077,12.6,99,0.2,854.7,7.0,57.2,70,13.6,10.1,6,10,7,0,2026-03-22T00:10:39.722518+05:30
Gangtok,Sikkim,27.3314,88.6138,9.0,86,0.0,835.5,1.95,16.6,81,33.6,28.5,3,10,3,0,2026-03-22T00:10:39.722524+05:30
Siliguri,West Bengal,26.7271,88.3953,15.7,65,0.0,998.0,0.45,29.2,100,75.2,60.5,3,5,3,0,2026-03-22T00:10:42.950617+05:30
Durgapur,West Bengal,23.5204,87.3119,21.1,81,0.0,999.9,7.8,20.9,117,52.9,49.6,3,5,7,1,2026-03-22T00:10:42.950665+05:30
Asansol,West Bengal,23.6739,86.9524,20.8,82,0.0,998.5,6.55,22.7,120,48.8,44.7,3,5,7,1,2026-03-22T00:10:42.950685+05:30
Pondicherry,Puducherry,11.9139,79.8145,25.8,93,0.0,1010.5,9.15,30.6,32,14.8,9.8,7,0,4,1,2026-03-22T00:10:42.950703+05:30
Port Blair,Andaman and Nicobar Islands,11.6234,92.7265,28.1,80,0.0,1008.3,9.1,14.8,47,13.8,10.6,7,0,4,1,2026-03-22T00:10:42.950719+05:30
Haridwar,Uttarakhand,29.9457,78.1642,16.3,92,0.0,979.2,6.2,21.6,84,65.9,55.6,3,10,7,0,2026-03-22T00:10:42.950732+05:30
Rishikesh,Uttarakhand,30.0869,78.2676,16.8,80,0.0,971.6,6.25,20.9,75,30.9,27.5,3,5,7,0,2026-03-22T00:10:42.950745+05:30
Nainital,Uttarakhand,29.3919,79.4542,12.1,83,0.0,806.2,6.9,34.2,55,28.0,26.3,3,10,7,0,2026-03-22T00:10:42.950756+05:30
Mussoorie,Uttarakhand,30.4599,78.0664,10.9,74,0.0,802.5,6.6,26.3,69,45.1,41.1,3,5,7,0,2026-03-22T00:10:42.950768+05:30
Dharamshala,Himachal Pradesh,32.219,76.3234,14.2,59,0.0,870.6,6.6,17.6,72,20.5,15.5,0,5,7,0,2026-03-22T00:10:42.950780+05:30
Dalhousie,Himachal Pradesh,32.5387,75.971,10.1,66,0.0,803.2,6.25,17.3,76,51.1,43.8,3,5,7,0,2026-03-22T00:10:42.950793+05:30
Patiala,Punjab,30.3398,76.3869,15.3,92,0.0,984.0,5.85,23.8,153,238.4,55.1,3,10,3,0,2026-03-22T00:10:42.950806+05:30
Bhatinda,Punjab,30.211,74.9455,17.4,86,0.0,989.9,5.55,18.0,134,95.7,78.0,3,10,3,0,2026-03-22T00:10:42.950819+05:30
Rohtak,Haryana,28.8955,76.6066,17.7,87,0.0,987.8,5.9,22.7,165,170.9,80.1,3,10,3,0,2026-03-22T00:10:42.950831+05:30
Panipat,Haryana,29.3909,76.9635,16.3,89,0.0,986.4,6.0,24.8,164,198.8,68.7,3,10,3,0,2026-03-22T00:10:42.950843+05:30
Mathura,Uttar Pradesh,27.4924,77.6737,18.4,78,0.0,992.6,6.7,23.8,164,376.3,102.4,3,5,7,0,2026-03-22T00:10:42.950854+05:30
Vrindavan,Uttar Pradesh,27.5823,77.7027,17.7,83,0.0,993.0,6.65,21.6,164,376.3,102.4,3,10,7,0,2026-03-22T00:10:42.950865+05:30
Ayodhya,Uttar Pradesh,26.7922,82.1998,17.9,95,0.0,1001.4,6.95,22.0,90,53.6,46.1,3,10,4,1,2026-03-22T00:10:42.950877+05:30
Ratlam,Madhya Pradesh,23.3315,75.0367,23.3,57,0.0,957.5,7.55,21.2,58,33.3,26.3,0,5,7,0,2026-03-22T00:10:42.950888+05:30
Sagar,Madhya Pradesh,23.8388,78.7378,20.7,49,0.0,953.9,7.9,28.4,73,20.3,14.1,0,5,7,0,2026-03-22T00:10:42.950899+05:30
Satna,Madhya Pradesh,24.6005,80.8322,20.3,61,0.0,975.9,7.8,32.8,70,64.3,21.2,3,5,7,0,2026-03-22T00:10:42.950910+05:30
Akola,Maharashtra,20.7002,77.0082,24.2,41,0.0,977.6,8.25,21.6,59,28.5,23.8,0,5,7,0,2026-03-22T00:10:42.950922+05:30
Amravati,Maharashtra,20.9374,77.7796,23.4,40,0.0,969.9,8.3,25.2,57,22.2,17.7,0,5,7,0,2026-03-22T00:10:42.950935+05:30
Latur,Maharashtra,18.4088,76.5604,24.8,49,0.0,941.3,8.65,34.2,77,35.3,19.8,0,5,7,0,2026-03-22T00:10:42.950946+05:30
Nanded,Maharashtra,19.1383,77.3091,25.9,42,0.0,970.5,8.5,28.1,68,50.6,36.0,4,5,7,0,2026-03-22T00:10:42.950957+05:30
Gulbarga,Karnataka,17.3297,76.8343,28.1,37,0.0,959.8,8.75,42.1,88,33.5,28.3,4,5,7,0,2026-03-22T00:10:42.950969+05:30
Bidar,Karnataka,17.9104,77.5199,26.1,46,0.0,937.2,8.75,40.3,76,34.6,23.3,4,5,7,0,2026-03-22T00:10:42.950981+05:30
Hospet,Karnataka,15.2689,76.3909,27.8,56,0.0,956.9,9.0,19.4,128,32.9,26.8,4,5,7,1,2026-03-22T00:10:42.950992+05:30
Tirupur,Tamil Nadu,11.1085,77.3411,26.9,69,0.0,977.3,9.4,25.2,90,20.1,17.3,7,5,7,1,2026-03-22T00:10:42.951025+05:30
Alappuzha,Kerala,9.4981,76.3388,27.4,83,0.0,1010.6,9.1,29.2,75,24.3,19.6,7,0,4,1,2026-03-22T00:10:42.951039+05:30
Munnar,Kerala,10.0889,77.0595,20.0,89,0.0,857.7,9.65,30.6,69,27.2,24.2,3,5,7,1,2026-03-22T00:10:42.951050+05:30
Silchar,Assam,24.8333,92.7789,22.3,85,0.0,1007.5,6.8,22.3,102,53.8,44.9,3,5,4,1,2026-03-22T00:10:42.951062+05:30
Dibrugarh,Assam,27.4728,94.912,20.9,92,0.0,999.0,7.6,32.4,90,42.0,34.8,3,5,7,1,2026-03-22T00:10:42.951073+05:30
