city,state,latitude,longitude,temp,humidity,rain,pressure,uv_index,wind_gusts,aqi,pm10,pm2_5,no2,co,o3,so2,mosquito_risk,arthritis_risk,migraine_risk,frizz_risk,updated_at
Delhi,Delhi,28.6139,77.209,31.8,72,0.0,977.6,7.7,30.2,568,517.8,154.6,55.9,714.0,14.0,19.3,3,5,7,1,2026-07-18T00:44:06.229602+05:30
Mumbai,Maharashtra,19.076,72.8777,25.5,93,0.2,1007.8,7.25,37.1,67,30.0,14.0,9.2,227.0,44.0,7.9,10,5,4,1,2026-07-18T00:44:06.229640+05:30
Bangalore,Karnataka,12.9716,77.5946,21.0,91,0.0,912.1,5.05,47.5,41,7.6,5.9,12.9,251.0,35.0,4.3,3,5,3,1,2026-07-18T00:44:06.229653+05:30
Hyderabad,Telangana,17.385,78.4867,24.4,84,0.0,952.3,2.7,43.6,63,14.2,9.2,8.8,191.0,48.0,4.3,3,5,3,1,2026-07-18T00:44:06.229660+05:30
Chennai,Tamil Nadu,13.0827,80.2707,25.0,94,0.1,1007.2,5.15,40.0,75,17.5,13.4,22.1,245.0,33.0,12.8,10,5,0,1,2026-07-18T00:44:06.229666+05:30
Kolkata,West Bengal,22.5726,88.3639,26.0,97,0.1,1001.1,8.2,37.1,69,17.8,14.5,8.3,282.0,79.0,6.2,10,5,4,1,2026-07-18T00:44:06.229673+05:30
Pune,Maharashtra,18.5204,73.8567,23.3,88,0.0,947.4,7.7,45.7,41,6.5,5.1,10.5,153.0,34.0,8.0,3,5,7,1,2026-07-18T00:44:06.229678+05:30
Ahmedabad,Gujarat,23.0225,72.5714,28.4,77,0.0,999.3,5.5,34.6,70,28.0,17.1,10.0,172.0,45.0,4.9,7,5,3,1,2026-07-18T00:44:06.229683+05:30
Jaipur,Rajasthan,26.9124,75.7873,31.7,52,0.0,955.6,7.25,36.0,301,445.2,82.2,15.8,244.0,46.0,5.6,0,5,7,1,2026-07-18T00:44:06.229689+05:30
Lucknow,Uttar Pradesh,26.8467,80.9462,28.2,90,0.0,988.3,8.2,26.3,163,136.0,74.0,18.2,499.0,77.0,10.1,7,5,7,1,2026-07-18T00:44:06.229697+05:30
Kanpur,Uttar Pradesh,26.4499,80.3319,29.4,86,0.0,986.5,8.15,25.6,167,140.6,72.9,29.9,595.0,43.0,9.4,7,5,7,1,2026-07-18T00:44:06.229702+05:30
Chandigarh,Chandigarh,30.7333,76.7794,28.9,79,0.0,963.4,5.8,27.7,152,71.7,64.5,33.1,918.0,73.0,16.2,7,5,3,1,2026-07-18T00:44:06.229707+05:30
Srinagar,Jammu and Kashmir,34.0837,74.7973,25.2,69,0.0,838.7,9.05,25.9,101,56.2,51.7,47.8,656.0,23.0,4.0,7,5,7,1,2026-07-18T00:44:06.229712+05:30
Jammu,Jammu and Kashmir,32.7266,74.857,29.0,82,0.0,966.7,8.6,25.2,154,72.2,54.4,32.8,482.0,41.0,5.9,7,5,7,1,2026-07-18T00:44:06.229717+05:30
Amritsar,Punjab,31.634,74.8723,30.5,71,0.0,974.4,8.25,20.5,170,178.8,112.5,75.8,475.0,3.0,13.5,3,5,7,1,2026-07-18T00:44:06.229721+05:30
Ludhiana,Punjab,30.901,75.8573,30.5,82,0.0,972.8,5.8,22.0,179,171.8,122.5,77.6,1504.0,14.0,13.9,3,5,3,1,2026-07-18T00:44:06.229728+05:30
Jalandhar,Punjab,31.326,75.5762,29.8,83,0.0,973.7,8.2,18.7,180,142.0,94.3,61.2,1618.0,9.0,7.0,7,5,7,1,2026-07-18T00:44:06.229732+05:30
Dehradun,Uttarakhand,30.6284,78.0322,19.7,100,0.0,828.6,6.75,25.2,100,57.0,49.4,21.8,338.0,109.0,7.9,3,10,7,1,2026-07-18T00:44:06.229737+05:30
Shimla,Himachal Pradesh,31.1048,77.1734,17.5,90,0.0,783.5,5.65,36.0,108,54.2,43.1,14.3,308.0,75.0,3.6,3,10,3,0,2026-07-18T00:44:06.229742+05:30
Manali,Himachal Pradesh,32.2396,77.1887,20.4,94,0.0,817.9,6.45,29.5,52,18.7,15.6,25.0,262.0,47.0,0.0,3,5,7,1,2026-07-18T00:44:06.229748+05:30
Gurgaon,Haryana,28.4595,77.0266,31.1,67,0.0,976.1,6.9,33.8,518,633.3,149.9,31.5,494.0,36.0,11.8,3,5,7,1,2026-07-18T00:44:06.229753+05:30
Noida,Uttar Pradesh,28.5355,77.391,30.5,76,0.0,979.0,7.7,25.6,518,633.3,149.9,31.5,667.0,36.0,11.8,3,5,7,1,2026-07-18T00:44:06.229758+05:30
Ghaziabad,Uttar Pradesh,28.6692,77.4538,29.6,81,0.0,977.1,7.7,26.3,483,570.0,169.5,56.4,1219.0,17.0,22.6,7,5,7,1,2026-07-18T00:44:06.229762+05:30
Faridabad,Haryana,28.4089,77.3178,32.1,67,0.0,978.4,6.5,29.9,518,633.3,149.9,31.5,506.0,36.0,11.8,3,5,7,1,2026-07-18T00:44:06.229766+05:30
Meerut,Uttar Pradesh,28.9845,77.7064,29.7,84,0.0,976.0,7.35,24.5,483,570.0,169.5,56.4,890.0,17.0,22.6,7,5,7,1,2026-07-18T00:44:06.229771+05:30
Agra,Uttar Pradesh,27.1767,78.0081,32.5,60,0.0,982.4,6.9,31.0,156,97.1,48.4,17.2,257.0,56.0,6.3,0,5,7,1,2026-07-18T00:44:06.229776+05:30
Varanasi,Uttar Pradesh,25.3176,82.9739,27.4,98,0.0,992.4,6.55,22.0,129,57.7,46.9,18.1,415.0,74.0,10.3,7,5,7,1,2026-07-18T00:44:06.229781+05:30
Prayagraj,Uttar Pradesh,25.4358,81.8463,27.8,98,0.0,991.1,5.8,27.7,155,93.1,57.0,19.1,326.0,70.0,10.5,7,5,3,1,2026-07-18T00:44:06.229786+05:30
Gorakhpur,Uttar Pradesh,26.7606,83.3732,27.4,97,0.2,992.3,4.55,25.9,82,20.7,20.5,17.7,446.0,64.0,5.3,10,5,3,1,2026-07-18T00:44:06.229790+05:30
Bareilly,Uttar Pradesh,28.367,79.4304,27.5,95,0.0,982.0,8.0,29.5,160,101.5,68.0,16.3,441.0,86.0,9.4,7,5,7,1,2026-07-18T00:44:06.229797+05:30
Aligarh,Uttar Pradesh,27.8974,78.088,30.4,76,0.0,980.1,6.9,27.7,365,337.1,107.1,24.9,313.0,39.0,6.5,3,5,7,1,2026-07-18T00:44:06.229801+05:30
Moradabad,Uttar Pradesh,28.8386,78.7733,28.1,91,0.0,978.7,7.85,24.1,180,133.6,88.0,20.9,583.0,86.0,14.2,7,5,7,1,2026-07-18T00:44:06.229806+05:30
Saharanpur,Uttar Pradesh,29.9637,77.546,28.4,93,0.0,970.2,7.35,32.4,172,279.4,112.5,33.2,511.0,63.0,13.9,7,5,7,1,2026-07-18T00:44:06.229810+05:30
Jhansi,Uttar Pradesh,25.4484,78.5685,29.4,74,0.0,973.3,7.3,37.4,94,43.5,26.5,9.8,207.0,67.0,7.4,7,5,7,1,2026-07-18T00:44:09.597529+05:30
Surat,Gujarat,21.1702,72.8311,28.3,83,0.0,1004.6,7.35,44.6,72,25.2,17.7,22.5,307.0,25.0,34.7,7,5,4,1,2026-07-18T00:44:09.597563+05:30
Vadodara,Gujarat,22.3072,73.1812,28.6,86,0.0,1001.7,6.35,40.0,68,21.9,15.8,18.5,175.0,29.0,15.9,7,5,4,1,2026-07-18T00:44:09.597571+05:30
Rajkot,Gujarat,22.3039,70.8022,27.1,83,0.0,991.8,7.1,48.6,61,22.6,12.7,6.4,115.0,38.0,5.8,7,5,7,1,2026-07-18T00:44:09.597578+05:30
Thane,Maharashtra,19.2183,72.9781,24.7,99,0.2,1007.4,7.2,37.1,67,30.0,14.0,9.2,234.0,44.0,7.9,6,5,4,1,2026-07-18T00:44:09.597585+05:30
Nagpur,Maharashtra,21.1458,79.0882,25.5,93,0.1,970.9,1.75,31.7,87,27.6,20.0,15.5,268.0,42.0,10.8,10,5,3,1,2026-07-18T00:44:09.597591+05:30
Nashik,Maharashtra,19.9975,73.7898,23.0,95,0.0,944.2,6.4,42.1,41,6.7,4.7,13.1,153.0,31.0,12.2,3,5,7,1,2026-07-18T00:44:09.597598+05:30
Aurangabad,Maharashtra,19.8762,75.3433,23.3,93,0.0,942.8,8.35,38.9,53,10.1,7.2,9.0,154.0,45.0,10.0,3,5,7,1,2026-07-18T00:44:09.597603+05:30
Solapur,Maharashtra,17.6599,75.9064,24.1,94,0.1,956.9,3.15,37.4,52,13.5,9.0,6.5,211.0,40.0,2.8,6,5,3,1,2026-07-18T00:44:09.597609+05:30
Kolhapur,Maharashtra,16.705,74.2433,22.7,90,0.0,947.9,8.1,48.2,33,5.5,4.0,4.9,148.0,41.0,2.4,3,5,7,1,2026-07-18T00:44:09.597616+05:30
Goa,Goa,15.2993,74.124,24.2,96,0.0,999.2,7.35,36.0,61,33.2,18.2,5.2,285.0,43.0,1.7,3,5,7,1,2026-07-18T00:44:09.597621+05:30
Jodhpur,Rajasthan,26.2389,73.0243,31.4,54,0.0,978.7,8.45,43.9,128,164.8,43.0,7.2,134.0,50.0,2.3,0,5,7,1,2026-07-18T00:44:09.597627+05:30
Udaipur,Rajasthan,24.5854,73.7125,26.6,71,0.0,943.5,8.3,34.9,72,36.1,21.1,8.4,139.0,62.0,6.6,7,5,7,1,2026-07-18T00:44:09.597633+05:30
Kota,Rajasthan,25.2138,75.8648,31.5,57,0.0,974.8,7.9,32.4,84,30.4,20.0,9.5,171.0,65.0,6.9,0,5,7,1,2026-07-18T00:44:09.597639+05:30
Bikaner,Rajasthan,28.0229,73.3119,33.5,46,0.0,976.5,8.3,40.3,127,232.8,70.1,2.3,123.0,67.0,4.0,0,5,7,1,2026-07-18T00:44:09.597644+05:30
Ajmer,Rajasthan,26.4499,74.6399,29.1,60,0.0,951.1,8.25,43.2,78,31.9,18.8,11.4,163.0,48.0,4.5,4,5,7,1,2026-07-18T00:44:09.597649+05:30
Gwalior,Madhya Pradesh,26.2183,78.1828,29.9,71,0.0,978.3,6.7,31.3,109,42.6,25.3,9.8,154.0,62.0,3.3,7,5,7,1,2026-07-18T00:44:09.597654+05:30
Indore,Madhya Pradesh,22.7196,75.8577,26.4,79,0.0,945.9,5.35,37.4,72,23.8,18.1,8.8,255.0,72.0,8.8,7,5,3,1,2026-07-18T00:44:09.597660+05:30
Bhopal,Madhya Pradesh,23.2599,77.4126,26.4,84,0.0,950.8,1.85,32.8,81,34.3,23.6,9.3,292.0,58.0,4.9,7,5,3,1,2026-07-18T00:44:09.597666+05:30
Jabalpur,Madhya Pradesh,23.1815,79.9864,24.7,91,0.0,958.0,8.8,32.8,82,35.7,25.6,8.3,252.0,66.0,5.5,3,5,7,1,2026-07-18T00:44:09.597671+05:30
Ujjain,Madhya Pradesh,23.1765,75.7885,26.8,76,0.0,951.4,8.2,37.8,73,25.7,18.5,7.0,216.0,71.0,7.8,7,5,7,1,2026-07-18T00:44:09.597678+05:30
Visakhapatnam,Andhra Pradesh,17.6868,83.2185,27.0,91,0.1,999.5,8.05,39.2,85,32.2,26.5,23.1,299.0,53.0,35.5,10,5,7,1,2026-07-18T00:44:09.597684+05:30
Vijayawada,Andhra Pradesh,16.5062,80.648,28.9,79,0.0,1000.5,2.4,42.8,85,20.4,15.0,9.4,263.0,56.0,3.7,7,5,0,1,2026-07-18T00:44:09.597690+05:30
Guntur,Andhra Pradesh,16.3067,80.4365,26.8,86,0.0,1002.5,1.3,46.4,81,24.3,15.4,9.6,239.0,52.0,4.0,7,5,0,1,2026-07-18T00:44:09.597697+05:30
Nellore,Andhra Pradesh,14.4426,79.9865,26.8,80,0.0,1005.5,0.65,47.2,55,14.3,8.5,9.1,149.0,47.0,4.9,7,5,0,1,2026-07-18T00:44:09.597703+05:30
Kurnool,Andhra Pradesh,15.8281,78.0373,24.1,93,0.0,976.8,5.65,46.4,55,14.9,9.8,10.3,167.0,44.0,2.4,3,5,3,1,2026-07-18T00:44:09.597709+05:30
Kakinada,Andhra Pradesh,16.9891,82.2475,29.0,74,0.0,1004.5,5.45,42.1,85,27.6,17.8,6.3,258.0,80.0,4.7,7,5,0,1,2026-07-18T00:44:09.597715+05:30
Tirupati,Andhra Pradesh,13.6288,79.4192,25.2,96,0.2,990.9,1.4,39.2,68,19.2,16.2,27.2,202.0,14.0,3.4,10,5,3,1,2026-07-18T00:44:09.597720+05:30
Warangal,Telangana,17.9689,79.5941,26.8,81,0.0,976.8,8.5,39.6,85,26.4,18.1,10.4,274.0,46.0,4.9,7,5,7,1,2026-07-18T00:44:09.597726+05:30
Nizamabad,Telangana,18.6725,78.0941,24.4,98,0.1,963.3,0.9,44.6,78,23.7,16.5,10.4,244.0,50.0,8.0,6,5,3,1,2026-07-18T00:44:09.597731+05:30
Mysore,Karnataka,12.2958,76.6396,21.9,87,0.0,929.5,4.25,53.6,28,9.3,5.9,7.4,139.0,40.0,2.2,3,5,3,1,2026-07-18T00:44:09.597736+05:30
Mangalore,Karnataka,12.9141,74.856,24.1,96,0.0,1008.9,3.55,32.8,56,28.0,16.4,10.2,265.0,34.0,3.2,3,0,0,1,2026-07-18T00:44:09.597741+05:30
Hubli-Dharwad,Karnataka,15.3647,75.124,22.4,91,0.0,941.4,8.1,50.0,22,3.6,2.5,4.2,122.0,43.0,1.5,3,5,7,1,2026-07-18T00:44:09.597747+05:30
Belgaum,Karnataka,15.8497,74.4977,21.4,94,0.0,926.1,8.5,48.6,22,4.7,3.0,4.7,118.0,40.0,2.0,3,5,7,1,2026-07-18T00:44:12.966180+05:30
Coimbatore,Tamil Nadu,11.0168,76.9558,22.8,92,0.0,962.8,6.6,49.7,44,11.8,8.1,8.9,241.0,34.0,3.6,3,5,7,1,2026-07-18T00:44:12.966212+05:30
Madurai,Tamil Nadu,9.9252,78.1198,29.0,57,0.0,993.9,7.85,34.9,71,28.4,18.5,18.6,229.0,43.0,5.8,4,5,7,1,2026-07-18T00:44:12.966221+05:30
Trichy,Tamil Nadu,10.7905,78.7047,28.8,61,0.0,1000.2,7.35,41.8,55,14.7,9.7,11.6,127.0,37.0,4.2,7,5,4,1,2026-07-18T00:44:12.966228+05:30
Salem,Tamil Nadu,11.6643,78.146,25.6,85,0.0,978.3,6.55,34.2,69,26.0,20.3,26.2,329.0,26.0,8.8,7,5,7,1,2026-07-18T00:44:12.966235+05:30
Tirunelveli,Tamil Nadu,8.7139,77.7567,28.8,61,0.0,1004.9,8.7,46.8,48,10.1,7.2,7.8,139.0,41.0,2.5,7,5,4,1,2026-07-18T00:44:12.966242+05:30
Vellore,Tamil Nadu,12.9165,79.1325,25.9,93,0.0,984.5,3.35,42.1,53,11.7,8.2,13.3,190.0,38.0,4.1,7,5,3,1,2026-07-18T00:44:12.966248+05:30
Erode,Tamil Nadu,11.341,77.7172,26.1,77,0.0,990.1,5.9,44.3,55,17.9,13.6,17.0,204.0,34.0,4.8,7,5,3,1,2026-07-18T00:44:12.966253+05:30
Kochi,Kerala,9.9312,76.2673,24.0,95,0.1,1011.5,8.05,42.8,56,16.4,12.0,16.5,152.0,24.0,5.0,6,0,4,1,2026-07-18T00:44:12.966260+05:30
Thiruvananthapuram,Kerala,8.5241,76.9366,24.2,99,0.0,1010.9,8.35,42.5,59,20.0,10.6,5.1,176.0,48.0,2.1,3,0,4,1,2026-07-18T00:44:12.966265+05:30
Kozhikode,Kerala,11.2588,75.7804,24.5,95,0.0,1010.6,8.55,34.9,52,23.4,11.2,2.8,347.0,55.0,1.7,3,0,4,1,2026-07-18T00:44:12.966271+05:30
Thrissur,Kerala,10.5276,76.2144,23.8,99,0.0,1009.8,7.85,38.5,54,20.5,15.9,12.7,344.0,26.0,4.1,3,0,4,1,2026-07-18T00:44:12.966277+05:30
Kannur,Kerala,11.8745,75.3704,24.4,98,0.0,1009.8,5.1,32.0,52,23.7,15.9,17.5,437.0,20.0,3.6,3,0,0,1,2026-07-18T00:44:12.966283+05:30
Patna,Bihar,25.5941,85.1376,28.0,92,0.0,994.9,7.4,27.0,97,34.8,34.1,18.1,367.0,65.0,8.5,7,5,7,1,2026-07-18T00:44:12.966288+05:30
Gaya,Bihar,24.7914,85.0002,26.6,97,0.1,988.3,8.2,24.1,96,27.9,27.7,13.9,456.0,75.0,7.1,10,5,7,1,2026-07-18T00:44:12.966294+05:30
Muzaffarpur,Bihar,26.1209,85.3647,27.1,96,0.1,995.3,8.15,29.2,92,32.2,31.4,17.6,355.0,63.0,7.1,10,5,7,1,2026-07-18T00:44:12.966299+05:30
Bhagalpur,Bihar,25.2425,87.0117,27.3,94,0.1,995.7,7.4,27.4,71,25.5,25.3,17.1,312.0,60.0,11.9,10,5,7,1,2026-07-18T00:44:12.966304+05:30
Ranchi,Jharkhand,23.3441,85.3096,23.2,97,0.0,933.2,9.2,24.8,71,24.2,23.2,11.8,300.0,71.0,5.2,3,5,7,1,2026-07-18T00:44:12.966309+05:30
Jamshedpur,Jharkhand,22.8046,86.2029,26.1,97,0.1,985.0,8.4,25.9,96,39.5,38.9,25.8,313.0,56.0,24.7,10,5,7,1,2026-07-18T00:44:12.966315+05:30
Dhanbad,Jharkhand,23.7957,86.4304,26.1,97,0.0,973.7,7.7,27.0,115,91.0,90.1,69.1,273.0,19.0,176.9,7,5,7,1,2026-07-18T00:44:12.966321+05:30
Bokaro,Jharkhand,23.6693,86.1511,26.6,95,0.0,977.9,7.7,29.9,100,55.8,54.8,36.1,769.0,53.0,129.9,7,5,7,1,2026-07-18T00:44:12.966326+05:30
Bhubaneswar,Odisha,20.2961,85.8245,25.4,98,0.2,997.8,8.35,31.7,71,22.6,19.0,7.0,280.0,91.0,5.6,10,5,7,1,2026-07-18T00:44:12.966331+05:30
Cuttack,Odisha,20.4625,85.8828,25.8,97,0.2,999.4,8.05,33.5,71,22.6,19.0,7.0,261.0,91.0,5.6,10,5,7,1,2026-07-18T00:44:12.966336+05:30
Rourkela,Odisha,22.2604,84.8536,25.9,96,0.1,980.0,7.6,25.6,70,25.4,22.6,13.5,297.0,58.0,5.2,10,5,7,1,2026-07-18T00:44:12.966341+05:30
Raipur,Chhattisgarh,21.2514,81.6296,23.8,96,0.0,971.3,6.75,36.0,93,39.8,27.9,27.5,243.0,50.0,35.7,3,5,7,1,2026-07-18T00:44:12.966346+05:30
Bhilai,Chhattisgarh,21.1938,81.3509,23.6,95,0.2,971.8,8.2,39.2,87,33.3,25.8,22.9,497.0,49.0,28.8,6,5,7,1,2026-07-18T00:44:12.966351+05:30
Guwahati,Assam,26.1158,91.7086,25.2,97,0.1,997.8,6.8,20.9,54,11.7,10.5,8.5,269.0,54.0,2.2,10,5,7,1,2026-07-18T00:44:12.966356+05:30
Agartala,Tripura,23.8315,91.2868,26.0,90,0.0,1003.5,8.0,45.7,53,15.3,12.0,6.3,154.0,66.0,2.2,7,5,4,1,2026-07-18T00:44:12.966361+05:30
Shillong,Meghalaya,25.5788,91.8933,20.0,97,0.1,854.5,3.35,38.2,29,1.1,1.0,5.8,150.0,48.0,1.7,6,5,3,1,2026-07-18T00:44:12.966366+05:30
Imphal,Manipur,24.817,93.9368,23.0,98,0.0,921.6,7.35,34.2,62,17.2,11.7,5.2,488.0,58.0,2.0,3,5,7,1,2026-07-18T00:44:12.966370+05:30
Aizawl,Mizoram,23.7271,92.7176,20.4,86,0.0,891.1,7.75,42.8,56,11.1,6.9,1.7,123.0,56.0,1.0,3,5,7,1,2026-07-18T00:44:12.966375+05:30
Kohima,Nagaland,25.6701,94.1077,20.5,89,0.0,853.6,5.1,28.1,51,7.8,6.0,4.6,243.0,50.0,1.0,3,5,3,1,2026-07-18T00:44:12.966381+05:30
Gangtok,Sikkim,27.3314,88.6138,19.2,98,0.1,836.0,7.8,23.0,45,6.0,4.9,4.2,223.0,95.0,2.0,6,10,7,1,2026-07-18T00:44:12.966386+05:30
Siliguri,West Bengal,26.7271,88.3953,25.4,98,0.1,989.1,3.55,38.5,66,26.3,21.3,8.5,248.0,91.0,3.9,10,5,3,1,2026-07-18T00:44:16.344998+05:30
Durgapur,West Bengal,23.5204,87.3119,26.2,98,0.1,989.1,8.65,31.3,88,43.9,43.8,38.7,492.0,42.0,46.9,10,5,7,1,2026-07-18T00:44:16.345030+05:30
Asansol,West Bengal,23.6739,86.9524,26.5,97,0.1,987.1,7.8,29.5,88,50.4,50.2,49.4,327.0,34.0,64.6,10,5,7,1,2026-07-18T00:44:16.345046+05:30
Pondicherry,Puducherry,11.9139,79.8145,26.8,84,0.0,1008.6,5.45,41.8,69,26.4,18.6,17.3,319.0,46.0,12.5,7,0,0,1,2026-07-18T00:44:16.345058+05:30
Port Blair,Andaman and Nicobar Islands,11.6234,92.7265,26.9,87,0.0,1008.1,8.7,40.3,40,14.1,6.9,0.2,89.0,43.0,0.4,7,0,4,1,2026-07-18T00:44:16.345068+05:30
Haridwar,Uttarakhand,29.9457,78.1642,27.9,93,0.0,968.9,7.4,29.2,165,108.7,93.6,32.5,413.0,76.0,17.2,7,5,7,1,2026-07-18T00:44:16.345076+05:30
Rishikesh,Uttarakhand,30.0869,78.2676,27.0,94,0.0,961.8,7.0,29.2,151,66.8,53.6,6.8,374.0,151.0,11.6,7,5,7,1,2026-07-18T00:44:16.345084+05:30
Nainital,Uttarakhand,29.3919,79.4542,18.1,99,0.0,804.0,7.9,23.8,140,41.2,28.9,9.8,375.0,116.0,7.7,3,10,7,1,2026-07-18T00:44:16.345093+05:30
Mussoorie,Uttarakhand,30.4599,78.0664,18.4,100,0.1,801.6,7.4,27.7,143,78.7,61.9,14.6,425.0,130.0,14.2,6,10,7,1,2026-07-18T00:44:16.345101+05:30
Dharamshala,Himachal Pradesh,32.219,76.3234,22.4,99,0.0,866.5,8.45,24.1,73,11.4,9.2,14.7,466.0,59.0,0.6,3,5,7,1,2026-07-18T00:44:16.345111+05:30
Dalhousie,Himachal Pradesh,32.5387,75.971,19.2,100,0.1,803.7,8.65,23.4,117,48.3,33.3,14.8,574.0,104.0,3.4,6,10,7,1,2026-07-18T00:44:16.345119+05:30
Patiala,Punjab,30.3398,76.3869,30.1,79,0.0,972.3,7.6,22.7,194,374.4,147.6,65.1,691.0,29.0,13.9,3,5,7,1,2026-07-18T00:44:16.345125+05:30
Bhatinda,Punjab,30.211,74.9455,33.4,52,0.0,977.4,7.65,31.3,176,219.3,129.5,83.5,580.0,3.0,12.4,0,5,7,1,2026-07-18T00:44:16.345130+05:30
Rohtak,Haryana,28.8955,76.6066,30.8,70,0.0,976.2,7.65,31.3,707,510.4,130.9,45.8,407.0,18.0,6.8,3,5,7,1,2026-07-18T00:44:16.345135+05:30
Panipat,Haryana,29.3909,76.9635,29.4,84,0.0,974.6,6.9,28.1,1093,821.4,199.3,57.3,865.0,13.0,9.5,7,5,7,1,2026-07-18T00:44:16.345140+05:30
Mathura,Uttar Pradesh,27.4924,77.6737,31.0,68,0.0,981.3,7.65,27.0,655,735.7,125.3,23.8,267.0,43.0,5.6,3,5,7,1,2026-07-18T00:44:16.345146+05:30
Vrindavan,Uttar Pradesh,27.5823,77.7027,31.1,67,0.0,981.8,7.5,26.3,655,735.7,125.3,23.8,304.0,43.0,5.6,3,5,7,1,2026-07-18T00:44:16.345151+05:30
Ayodhya,Uttar Pradesh,26.7922,82.1998,28.2,98,0.0,990.4,6.3,20.9,105,86.1,57.9,13.6,695.0,86.0,6.1,7,5,7,1,2026-07-18T00:44:16.345157+05:30
Ratlam,Madhya Pradesh,23.3315,75.0367,25.9,83,0.0,952.4,8.05,33.8,71,22.8,16.4,7.0,190.0,68.0,9.3,7,5,7,1,2026-07-18T00:44:16.345162+05:30
Sagar,Madhya Pradesh,23.8388,78.7378,25.2,93,0.0,946.6,7.1,34.9,88,35.7,24.2,7.7,227.0,67.0,5.4,7,5,7,1,2026-07-18T00:44:16.345167+05:30
Satna,Madhya Pradesh,24.6005,80.8322,26.4,93,0.0,966.9,7.95,35.3,106,52.5,32.7,11.3,197.0,61.0,5.4,7,5,7,1,2026-07-18T00:44:16.345173+05:30
Akola,Maharashtra,20.7002,77.0082,28.5,70,0.0,973.4,2.6,39.6,65,15.0,10.3,9.7,176.0,40.0,7.3,7,5,3,1,2026-07-18T00:44:16.345179+05:30
Amravati,Maharashtra,20.9374,77.7796,26.2,93,0.4,965.5,0.95,40.0,67,16.8,12.0,11.2,194.0,44.0,8.0,10,5,3,1,2026-07-18T00:44:16.345185+05:30
Latur,Maharashtra,18.4088,76.5604,23.9,89,0.0,938.8,2.3,36.0,55,18.0,11.6,6.7,178.0,43.0,3.5,3,5,3,1,2026-07-18T00:44:16.345190+05:30
Nanded,Maharashtra,19.1383,77.3091,24.8,96,0.1,967.4,1.3,33.8,69,18.0,12.3,7.2,206.0,58.0,4.2,6,5,3,1,2026-07-18T00:44:16.345196+05:30
Gulbarga,Karnataka,17.3297,76.8343,23.8,94,0.0,958.3,3.7,42.5,52,18.0,11.4,8.7,159.0,40.0,3.2,3,5,3,1,2026-07-18T00:44:16.345201+05:30
Bidar,Karnataka,17.9104,77.5199,23.6,91,0.0,934.5,2.9,40.3,69,29.3,16.8,9.3,176.0,48.0,2.9,3,5,3,1,2026-07-18T00:44:16.345206+05:30
Hospet,Karnataka,15.2689,76.3909,24.2,82,0.0,956.3,5.75,54.4,30,4.7,3.3,4.3,131.0,42.0,1.6,3,5,3,1,2026-07-18T00:44:16.345211+05:30
Tirupur,Tamil Nadu,11.1085,77.3411,23.9,87,0.0,976.4,4.35,51.1,58,19.6,15.2,19.1,188.0,31.0,6.1,3,5,3,1,2026-07-18T00:44:16.345216+05:30
Alappuzha,Kerala,9.4981,76.3388,26.3,92,0.0,1011.3,7.6,42.5,58,13.0,7.5,7.7,87.0,45.0,3.2,7,0,4,1,2026-07-18T00:44:16.345222+05:30
Munnar,Kerala,10.0889,77.0595,16.0,98,0.0,857.7,8.2,40.7,31,6.2,4.5,7.9,111.0,30.0,1.8,3,10,7,0,2026-07-18T00:44:16.345229+05:30
Silchar,Assam,24.8333,92.7789,26.3,95,0.1,1003.1,8.05,30.6,70,21.1,14.6,5.4,267.0,67.0,3.7,10,5,4,1,2026-07-18T00:44:16.345235+05:30
Dibrugarh,Assam,27.4728,94.912,26.3,96,0.1,991.9,0.95,33.5,53,13.0,11.0,7.3,181.0,58.0,1.7,10,5,3,1,2026-07-18T00:44:16.345240+05:30
