city,state,latitude,longitude,temp,humidity,rain,pressure,uv_index,wind_gusts,aqi,pm10,pm2_5,no2,co,o3,so2,mosquito_risk,arthritis_risk,migraine_risk,frizz_risk,updated_at
Delhi,Delhi,28.6139,77.209,30.9,28,0.0,978.0,7.7,39.6,548,570.0,132.7,33.4,505.0,37.0,13.6,0,5,7,0,2026-05-26T04:36:36.574022+05:30
Mumbai,Maharashtra,19.076,72.8777,28.9,80,0.0,1007.7,7.85,38.5,53,17.4,11.8,6.4,286.0,40.0,4.6,7,5,4,1,2026-05-26T04:36:36.574057+05:30
Bangalore,Karnataka,12.9716,77.5946,21.8,92,0.0,911.0,9.25,26.6,61,24.8,22.5,17.6,318.0,53.0,6.1,3,5,7,1,2026-05-26T04:36:36.574072+05:30
Hyderabad,Telangana,17.385,78.4867,28.4,58,0.0,951.7,8.95,33.8,95,25.8,21.1,14.4,196.0,56.0,7.4,4,5,7,1,2026-05-26T04:36:36.574082+05:30
Chennai,Tamil Nadu,13.0827,80.2707,29.5,71,0.0,1004.7,9.05,41.8,72,24.2,21.4,15.6,319.0,57.0,12.1,7,5,4,1,2026-05-26T04:36:36.574090+05:30
Kolkata,West Bengal,22.5726,88.3639,29.4,87,0.0,1002.2,8.95,39.6,95,25.6,21.7,5.9,241.0,82.0,5.1,7,5,4,1,2026-05-26T04:36:36.574098+05:30
Pune,Maharashtra,18.5204,73.8567,24.4,91,0.0,947.6,8.45,38.5,51,13.1,11.0,15.3,153.0,23.0,14.8,3,5,7,1,2026-05-26T04:36:36.574105+05:30
Ahmedabad,Gujarat,23.0225,72.5714,29.1,73,0.0,1000.9,8.15,36.4,78,41.3,19.6,5.4,133.0,40.0,4.8,7,5,4,1,2026-05-26T04:36:36.574112+05:30
Jaipur,Rajasthan,26.9124,75.7873,32.0,46,0.0,956.9,8.25,37.1,237,337.1,75.9,3.9,141.0,56.0,4.8,0,5,7,1,2026-05-26T04:36:36.574126+05:30
Lucknow,Uttar Pradesh,26.8467,80.9462,28.9,63,0.0,988.4,8.2,45.0,423,398.6,128.1,42.4,444.0,22.0,13.1,7,5,7,1,2026-05-26T04:36:36.574133+05:30
Kanpur,Uttar Pradesh,26.4499,80.3319,32.2,27,0.0,986.1,8.2,48.2,420,195.1,53.9,25.1,359.0,26.0,6.8,0,5,7,0,2026-05-26T04:36:36.574140+05:30
Chandigarh,Chandigarh,30.7333,76.7794,24.0,40,0.0,962.6,7.75,43.9,86,34.2,29.2,32.8,432.0,17.0,5.5,0,5,7,0,2026-05-26T04:36:36.574147+05:30
Srinagar,Jammu and Kashmir,34.0837,74.7973,10.1,99,0.0,842.1,9.0,18.7,66,39.0,36.9,22.3,397.0,19.0,0.0,3,10,7,0,2026-05-26T04:36:36.574154+05:30
Jammu,Jammu and Kashmir,32.7266,74.857,25.4,36,0.0,968.0,8.55,37.4,66,20.7,19.3,18.3,155.0,23.0,1.2,4,5,7,0,2026-05-26T04:36:36.574161+05:30
Amritsar,Punjab,31.634,74.8723,25.5,38,0.0,975.6,8.4,31.0,79,36.6,27.9,21.1,324.0,54.0,4.3,4,5,7,0,2026-05-26T04:36:36.574167+05:30
Ludhiana,Punjab,30.901,75.8573,27.4,30,0.0,973.5,8.0,38.9,81,27.2,24.1,17.1,372.0,47.0,5.7,4,5,7,0,2026-05-26T04:36:36.574173+05:30
Jalandhar,Punjab,31.326,75.5762,26.2,34,0.0,974.4,8.2,37.1,79,31.7,23.7,21.2,490.0,49.0,3.9,4,5,7,0,2026-05-26T04:36:36.574179+05:30
Dehradun,Uttarakhand,30.6284,78.0322,12.4,71,0.0,824.4,8.2,40.3,61,20.9,10.7,16.6,187.0,35.0,0.0,3,5,7,0,2026-05-26T04:36:36.574185+05:30
Shimla,Himachal Pradesh,31.1048,77.1734,12.4,36,0.0,779.7,8.3,56.9,60,20.4,13.6,12.9,169.0,58.0,0.8,0,5,7,1,2026-05-26T04:36:36.574194+05:30
Manali,Himachal Pradesh,32.2396,77.1887,10.3,57,0.0,813.0,9.3,42.8,53,1.5,0.8,6.8,162.0,113.0,0.0,0,5,7,0,2026-05-26T04:36:36.574202+05:30
Gurgaon,Haryana,28.4595,77.0266,28.3,38,0.0,976.4,7.8,34.9,1377,579.3,136.4,30.7,509.0,42.0,17.6,4,5,7,0,2026-05-26T04:36:36.574208+05:30
Noida,Uttar Pradesh,28.5355,77.391,30.4,28,0.0,979.2,7.75,34.9,1377,579.3,136.4,30.7,506.0,42.0,17.6,0,5,7,0,2026-05-26T04:36:36.574215+05:30
Ghaziabad,Uttar Pradesh,28.6692,77.4538,30.0,27,0.0,977.4,7.7,37.1,445,529.0,150.4,52.1,506.0,13.0,23.0,4,5,7,0,2026-05-26T04:36:36.574221+05:30
Faridabad,Haryana,28.4089,77.3178,31.5,26,0.0,978.7,7.75,39.6,1377,579.3,136.4,30.7,539.0,42.0,17.6,0,5,7,0,2026-05-26T04:36:36.574228+05:30
Meerut,Uttar Pradesh,28.9845,77.7064,29.8,25,0.0,975.8,7.65,37.8,445,529.0,150.4,52.1,486.0,13.0,23.0,4,5,7,0,2026-05-26T04:36:36.574234+05:30
Agra,Uttar Pradesh,27.1767,78.0081,32.7,37,0.0,982.6,8.05,37.4,1000,1281.5,195.6,12.3,186.0,42.0,6.2,0,5,7,0,2026-05-26T04:36:36.574240+05:30
Varanasi,Uttar Pradesh,25.3176,82.9739,30.0,76,0.0,992.3,8.75,45.7,116,85.4,53.1,39.7,629.0,17.0,10.6,7,5,7,1,2026-05-26T04:36:36.574247+05:30
Prayagraj,Uttar Pradesh,25.4358,81.8463,30.4,33,0.0,990.8,8.6,43.9,139,124.8,66.6,36.2,394.0,21.0,11.1,0,5,7,0,2026-05-26T04:36:36.574253+05:30
Gorakhpur,Uttar Pradesh,26.7606,83.3732,26.0,76,0.0,993.9,8.6,41.8,157,65.4,56.3,9.7,337.0,102.0,15.9,7,5,7,1,2026-05-26T04:36:36.574261+05:30
Bareilly,Uttar Pradesh,28.367,79.4304,27.0,41,0.0,980.7,8.0,30.6,171,151.3,64.3,22.0,595.0,71.0,9.4,4,5,7,0,2026-05-26T04:36:36.574268+05:30
Aligarh,Uttar Pradesh,27.8974,78.088,29.2,36,0.0,979.8,7.85,37.8,969,430.3,148.5,46.0,591.0,11.0,15.7,4,5,7,0,2026-05-26T04:36:36.574274+05:30
Moradabad,Uttar Pradesh,28.8386,78.7733,28.0,41,0.0,977.7,7.85,36.7,169,261.7,119.2,55.0,740.0,42.0,22.5,4,5,7,0,2026-05-26T04:36:36.574280+05:30
Saharanpur,Uttar Pradesh,29.9637,77.546,26.3,35,0.0,969.7,7.4,45.4,116,58.1,41.7,39.2,450.0,9.0,8.1,4,5,7,0,2026-05-26T04:36:36.574287+05:30
Jhansi,Uttar Pradesh,25.4484,78.5685,33.4,29,0.0,973.7,8.45,46.1,56,43.7,24.6,5.4,156.0,67.0,6.8,0,5,7,0,2026-05-26T04:36:39.866989+05:30
Surat,Gujarat,21.1702,72.8311,29.1,80,0.0,1005.7,7.7,43.2,61,28.4,17.7,19.4,332.0,31.0,31.3,7,5,4,1,2026-05-26T04:36:39.867018+05:30
Vadodara,Gujarat,22.3072,73.1812,30.1,78,0.0,1002.9,8.1,39.6,52,21.1,15.9,14.8,166.0,26.0,13.1,3,5,4,1,2026-05-26T04:36:39.867028+05:30
Rajkot,Gujarat,22.3039,70.8022,27.5,80,0.0,993.0,7.7,45.0,67,31.9,13.8,4.1,117.0,43.0,4.7,7,5,7,1,2026-05-26T04:36:39.867035+05:30
Thane,Maharashtra,19.2183,72.9781,28.1,90,0.0,1007.1,7.85,33.8,53,17.4,11.8,6.4,468.0,40.0,4.6,7,5,4,1,2026-05-26T04:36:39.867043+05:30
Nagpur,Maharashtra,21.1458,79.0882,35.2,28,0.0,970.2,8.9,42.1,81,48.7,27.2,11.7,218.0,62.0,8.6,0,5,10,0,2026-05-26T04:36:39.867049+05:30
Nashik,Maharashtra,19.9975,73.7898,25.0,90,0.0,945.0,8.15,36.7,35,10.9,7.9,5.9,124.0,35.0,3.6,7,5,7,1,2026-05-26T04:36:39.867056+05:30
Aurangabad,Maharashtra,19.8762,75.3433,26.4,81,0.0,943.2,9.0,34.6,50,11.6,8.4,9.4,157.0,35.0,6.5,7,5,7,1,2026-05-26T04:36:39.867063+05:30
Solapur,Maharashtra,17.6599,75.9064,28.1,72,0.0,956.6,8.95,40.0,62,12.7,11.5,8.4,167.0,64.0,7.4,7,5,7,1,2026-05-26T04:36:39.867069+05:30
Kolhapur,Maharashtra,16.705,74.2433,24.4,93,0.0,947.5,6.95,42.8,36,9.0,7.5,6.8,143.0,33.0,2.6,3,5,7,1,2026-05-26T04:36:39.867076+05:30
Goa,Goa,15.2993,74.124,26.5,95,0.0,997.6,7.2,25.9,35,18.4,15.1,8.8,415.0,36.0,1.8,7,5,7,1,2026-05-26T04:36:39.867082+05:30
Jodhpur,Rajasthan,26.2389,73.0243,31.2,56,0.0,979.9,8.4,39.2,255,333.4,78.7,2.2,122.0,55.0,2.6,0,5,7,1,2026-05-26T04:36:39.867088+05:30
Udaipur,Rajasthan,24.5854,73.7125,27.0,61,0.0,944.6,8.85,36.4,85,42.6,24.3,3.4,135.0,51.0,2.6,7,5,7,1,2026-05-26T04:36:39.867095+05:30
Kota,Rajasthan,25.2138,75.8648,32.8,32,0.0,975.6,8.4,36.7,63,42.5,27.2,5.6,157.0,56.0,5.2,0,5,7,0,2026-05-26T04:36:39.867101+05:30
Bikaner,Rajasthan,28.0229,73.3119,32.0,38,0.0,977.2,8.4,41.0,174,238.0,86.1,3.9,145.0,58.0,3.5,0,5,7,0,2026-05-26T04:36:39.867108+05:30
Ajmer,Rajasthan,26.4499,74.6399,30.0,51,0.0,952.1,8.4,46.4,121,64.7,31.8,3.0,130.0,57.0,3.7,4,5,7,1,2026-05-26T04:36:39.867114+05:30
Gwalior,Madhya Pradesh,26.2183,78.1828,33.3,36,0.0,978.7,8.25,45.7,69,113.9,47.6,4.3,149.0,59.0,3.4,0,5,7,1,2026-05-26T04:36:39.867120+05:30
Indore,Madhya Pradesh,22.7196,75.8577,28.1,64,0.0,946.9,8.65,41.8,60,13.0,10.7,5.8,162.0,62.0,10.6,7,5,7,1,2026-05-26T04:36:39.867126+05:30
Bhopal,Madhya Pradesh,23.2599,77.4126,32.3,32,0.0,951.5,8.7,40.0,69,24.2,17.8,3.4,191.0,88.0,6.8,0,5,7,0,2026-05-26T04:36:39.867133+05:30
Jabalpur,Madhya Pradesh,23.1815,79.9864,32.8,27,0.0,958.4,8.85,39.2,74,34.2,21.5,6.3,214.0,74.0,4.2,0,5,7,0,2026-05-26T04:36:39.867139+05:30
Ujjain,Madhya Pradesh,23.1765,75.7885,28.4,66,0.0,952.4,8.6,39.6,58,13.0,10.2,6.5,163.0,51.0,11.5,7,5,7,1,2026-05-26T04:36:39.867145+05:30
Visakhapatnam,Andhra Pradesh,17.6868,83.2185,30.2,86,0.0,1000.3,9.05,37.4,107,35.7,28.8,28.7,440.0,83.0,44.2,3,5,4,1,2026-05-26T04:36:39.867152+05:30
Vijayawada,Andhra Pradesh,16.5062,80.648,31.3,71,0.0,998.9,9.1,38.9,95,31.4,27.9,10.7,339.0,85.0,7.9,3,5,7,1,2026-05-26T04:36:39.867158+05:30
Guntur,Andhra Pradesh,16.3067,80.4365,31.5,54,0.0,1000.1,9.1,40.7,90,33.2,29.0,10.8,240.0,81.0,7.4,0,5,4,1,2026-05-26T04:36:39.867164+05:30
Nellore,Andhra Pradesh,14.4426,79.9865,30.9,51,0.0,1002.7,9.0,35.3,64,17.2,14.5,5.9,200.0,86.0,4.3,0,5,4,1,2026-05-26T04:36:39.867171+05:30
Kurnool,Andhra Pradesh,15.8281,78.0373,28.5,74,0.0,975.9,9.05,62.3,66,10.7,8.8,9.8,200.0,42.0,5.2,7,5,7,1,2026-05-26T04:36:39.867177+05:30
Kakinada,Andhra Pradesh,16.9891,82.2475,31.4,70,0.0,1004.0,9.0,40.3,75,30.6,23.3,3.0,312.0,127.0,4.0,3,5,4,1,2026-05-26T04:36:39.867184+05:30
Tirupati,Andhra Pradesh,13.6288,79.4192,28.4,60,0.0,988.7,9.1,25.9,61,19.0,17.2,13.3,193.0,50.0,2.5,4,5,7,1,2026-05-26T04:36:39.867190+05:30
Warangal,Telangana,17.9689,79.5941,31.9,45,0.0,975.9,9.1,43.9,100,52.7,35.5,15.2,290.0,60.0,5.5,0,5,7,1,2026-05-26T04:36:39.867196+05:30
Nizamabad,Telangana,18.6725,78.0941,31.2,45,0.0,963.4,9.05,35.3,81,31.9,23.9,7.4,187.0,78.0,5.5,0,5,7,1,2026-05-26T04:36:39.867201+05:30
Mysore,Karnataka,12.2958,76.6396,23.0,89,0.0,928.4,9.15,41.8,54,14.7,12.3,10.5,252.0,42.0,2.7,3,5,7,1,2026-05-26T04:36:39.867207+05:30
Mangalore,Karnataka,12.9141,74.856,25.8,93,0.0,1006.9,8.05,32.0,66,30.2,25.7,19.9,345.0,18.0,5.1,7,5,4,1,2026-05-26T04:36:39.867213+05:30
Hubli-Dharwad,Karnataka,15.3647,75.124,23.9,95,0.0,940.6,8.5,47.9,27,4.6,3.9,5.5,163.0,34.0,1.3,3,5,7,1,2026-05-26T04:36:39.867219+05:30
Belgaum,Karnataka,15.8497,74.4977,22.6,98,0.0,925.2,9.0,41.4,26,7.2,5.7,5.0,151.0,35.0,1.0,3,5,7,1,2026-05-26T04:36:43.162717+05:30
Coimbatore,Tamil Nadu,11.0168,76.9558,24.8,87,0.0,961.5,8.85,52.2,38,11.0,8.8,7.3,172.0,40.0,3.3,3,5,7,1,2026-05-26T04:36:43.162744+05:30
Madurai,Tamil Nadu,9.9252,78.1198,27.5,73,0.0,992.2,8.5,40.0,72,44.8,42.6,38.7,198.0,0.0,6.8,7,5,7,1,2026-05-26T04:36:43.162757+05:30
Trichy,Tamil Nadu,10.7905,78.7047,27.7,73,0.0,998.6,8.95,32.4,54,5.3,4.9,10.6,201.0,33.0,3.7,7,5,7,1,2026-05-26T04:36:43.162768+05:30
Salem,Tamil Nadu,11.6643,78.146,26.7,75,0.0,976.8,9.0,40.0,70,27.4,24.9,22.4,220.0,35.0,8.1,7,5,7,1,2026-05-26T04:36:43.162778+05:30
Tirunelveli,Tamil Nadu,8.7139,77.7567,28.0,73,0.0,1002.7,8.45,26.3,38,12.1,9.7,8.1,207.0,32.0,2.6,7,5,4,1,2026-05-26T04:36:43.162787+05:30
Vellore,Tamil Nadu,12.9165,79.1325,27.6,67,0.0,982.6,9.0,36.4,69,24.0,22.9,15.8,255.0,39.0,4.3,7,5,7,1,2026-05-26T04:36:43.162797+05:30
Erode,Tamil Nadu,11.341,77.7172,26.9,77,0.0,988.5,8.9,43.9,49,13.0,11.6,17.5,214.0,29.0,4.2,7,5,7,1,2026-05-26T04:36:43.162806+05:30
Kochi,Kerala,9.9312,76.2673,25.3,97,0.1,1009.7,8.15,29.9,58,20.0,18.5,20.3,410.0,6.0,5.2,10,0,4,1,2026-05-26T04:36:43.162815+05:30
Thiruvananthapuram,Kerala,8.5241,76.9366,25.1,97,0.0,1009.2,7.65,33.1,36,11.0,7.3,3.5,285.0,62.0,1.9,7,0,4,1,2026-05-26T04:36:43.162824+05:30
Kozhikode,Kerala,11.2588,75.7804,23.8,98,0.1,1009.8,7.6,31.0,36,12.1,8.2,2.6,483.0,59.0,1.4,6,0,4,1,2026-05-26T04:36:43.162832+05:30
Thrissur,Kerala,10.5276,76.2144,24.0,99,0.1,1007.8,8.6,30.2,57,17.7,16.6,16.8,291.0,11.0,4.5,6,5,4,1,2026-05-26T04:36:43.162842+05:30
Kannur,Kerala,11.8745,75.3704,26.2,87,0.0,1007.8,8.25,32.8,65,27.9,24.0,21.8,377.0,15.0,3.2,7,5,4,1,2026-05-26T04:36:43.162851+05:30
Patna,Bihar,25.5941,85.1376,26.5,85,0.0,996.5,8.8,38.2,155,33.3,29.6,12.8,348.0,85.0,14.2,7,5,7,1,2026-05-26T04:36:43.162860+05:30
Gaya,Bihar,24.7914,85.0002,27.9,87,0.0,988.8,8.9,37.4,157,93.6,66.4,39.7,440.0,17.0,12.1,7,5,7,1,2026-05-26T04:36:43.162868+05:30
Muzaffarpur,Bihar,26.1209,85.3647,25.2,86,0.0,997.1,8.8,45.7,155,31.1,26.5,11.8,324.0,83.0,11.3,7,5,7,1,2026-05-26T04:36:43.162876+05:30
Bhagalpur,Bihar,25.2425,87.0117,24.6,89,0.0,997.9,8.8,41.0,104,43.5,39.0,14.6,320.0,64.0,7.0,3,5,7,1,2026-05-26T04:36:43.162884+05:30
Ranchi,Jharkhand,23.3441,85.3096,26.1,55,0.0,934.5,9.1,43.6,105,55.5,38.3,12.3,304.0,97.0,17.1,4,5,7,1,2026-05-26T04:36:43.162893+05:30
Jamshedpur,Jharkhand,22.8046,86.2029,28.3,78,0.0,987.2,9.05,43.2,117,53.3,48.7,19.5,302.0,65.0,23.8,7,5,7,1,2026-05-26T04:36:43.162901+05:30
Dhanbad,Jharkhand,23.7957,86.4304,28.0,63,0.0,975.5,9.05,31.3,158,78.9,65.2,55.5,262.0,43.0,108.0,7,5,7,1,2026-05-26T04:36:43.162910+05:30
Bokaro,Jharkhand,23.6693,86.1511,27.5,61,0.0,979.3,9.0,34.6,157,78.5,59.6,40.5,307.0,29.0,68.4,7,5,7,1,2026-05-26T04:36:43.162944+05:30
Bhubaneswar,Odisha,20.2961,85.8245,29.4,89,0.0,999.1,9.1,39.6,96,21.9,18.0,3.7,201.0,92.0,3.9,7,5,7,1,2026-05-26T04:36:43.162952+05:30
Cuttack,Odisha,20.4625,85.8828,29.6,87,0.0,1000.9,9.15,36.0,96,21.9,18.0,3.7,210.0,92.0,3.9,7,5,4,1,2026-05-26T04:36:43.162959+05:30
Rourkela,Odisha,22.2604,84.8536,28.1,87,0.0,981.9,8.75,40.3,117,87.3,69.8,36.5,307.0,50.0,24.8,7,5,7,1,2026-05-26T04:36:43.162965+05:30
Raipur,Chhattisgarh,21.2514,81.6296,32.7,33,0.0,971.3,8.95,35.6,125,63.6,44.8,41.4,552.0,25.0,43.5,0,5,7,0,2026-05-26T04:36:43.162971+05:30
Bhilai,Chhattisgarh,21.1938,81.3509,31.6,38,0.0,971.8,8.95,40.0,120,68.7,43.9,38.6,826.0,23.0,40.9,0,5,7,0,2026-05-26T04:36:43.162978+05:30
Guwahati,Assam,26.1158,91.7086,22.5,96,0.1,1001.0,8.75,25.9,55,24.6,13.9,6.3,309.0,79.0,2.4,6,5,4,1,2026-05-26T04:36:43.162984+05:30
Agartala,Tripura,23.8315,91.2868,24.3,98,0.0,1004.8,8.75,34.9,69,20.7,17.9,9.7,195.0,55.0,3.4,3,5,4,1,2026-05-26T04:36:43.162990+05:30
Shillong,Meghalaya,25.5788,91.8933,18.2,98,0.3,855.6,8.85,36.0,34,4.7,2.1,4.5,225.0,78.0,3.5,6,10,7,1,2026-05-26T04:36:43.162997+05:30
Imphal,Manipur,24.817,93.9368,20.2,99,0.0,922.6,9.25,32.4,67,5.6,5.0,6.2,308.0,48.0,2.3,3,5,7,1,2026-05-26T04:36:43.163003+05:30
Aizawl,Mizoram,23.7271,92.7176,17.5,97,0.0,890.7,9.05,36.0,53,15.8,10.7,2.9,170.0,50.0,1.2,3,10,7,1,2026-05-26T04:36:43.163009+05:30
Kohima,Nagaland,25.6701,94.1077,16.5,91,0.0,853.4,8.65,32.0,57,9.9,5.1,3.4,235.0,64.0,1.5,3,10,7,0,2026-05-26T04:36:43.163015+05:30
Gangtok,Sikkim,27.3314,88.6138,14.4,96,0.1,834.9,9.2,40.3,84,18.8,13.2,6.2,378.0,115.0,3.2,6,10,7,0,2026-05-26T04:36:43.163022+05:30
Siliguri,West Bengal,26.7271,88.3953,22.6,95,0.0,991.7,8.7,27.7,117,49.4,34.7,14.9,359.0,90.0,4.0,3,5,7,1,2026-05-26T04:36:46.468567+05:30
Durgapur,West Bengal,23.5204,87.3119,28.0,96,0.0,991.2,8.95,33.8,151,56.8,54.6,30.4,705.0,54.0,43.3,7,5,7,1,2026-05-26T04:36:46.468591+05:30
Asansol,West Bengal,23.6739,86.9524,27.9,97,0.0,989.5,9.0,35.6,151,63.6,57.0,41.2,410.0,50.0,58.8,7,5,7,1,2026-05-26T04:36:46.468601+05:30
Pondicherry,Puducherry,11.9139,79.8145,28.4,80,0.0,1006.4,8.8,45.0,67,14.8,12.9,15.6,273.0,37.0,8.9,7,5,4,1,2026-05-26T04:36:46.468609+05:30
Port Blair,Andaman and Nicobar Islands,11.6234,92.7265,23.8,99,0.2,1007.7,4.65,38.5,30,12.3,6.8,0.3,116.0,63.0,0.4,6,5,0,1,2026-05-26T04:36:46.468616+05:30
Haridwar,Uttarakhand,29.9457,78.1642,24.1,45,0.0,967.8,7.55,32.8,98,44.8,33.3,27.3,229.0,21.0,4.1,0,5,7,0,2026-05-26T04:36:46.468623+05:30
Rishikesh,Uttarakhand,30.0869,78.2676,21.0,56,0.0,960.5,7.65,29.9,88,57.3,34.3,13.7,271.0,67.0,3.3,0,5,7,0,2026-05-26T04:36:46.468630+05:30
Nainital,Uttarakhand,29.3919,79.4542,15.6,46,0.0,802.2,8.5,35.6,107,75.4,43.5,33.0,227.0,28.0,4.3,0,5,7,0,2026-05-26T04:36:46.468637+05:30
Mussoorie,Uttarakhand,30.4599,78.0664,16.2,38,0.0,799.5,8.05,54.0,80,46.8,25.8,26.2,180.0,32.0,3.1,0,5,7,0,2026-05-26T04:36:46.468644+05:30
Dharamshala,Himachal Pradesh,32.219,76.3234,20.8,24,0.0,865.3,8.45,45.0,32,6.1,4.0,5.6,147.0,67.0,0.1,0,5,7,1,2026-05-26T04:36:46.468651+05:30
Dalhousie,Himachal Pradesh,32.5387,75.971,10.1,53,0.0,797.9,8.7,42.1,52,11.8,10.0,12.9,195.0,38.0,0.2,0,5,7,0,2026-05-26T04:36:46.468658+05:30
Patiala,Punjab,30.3398,76.3869,28.5,28,0.0,972.8,7.65,42.5,280,251.5,58.9,14.5,335.0,56.0,6.7,4,5,7,0,2026-05-26T04:36:46.468665+05:30
Bhatinda,Punjab,30.211,74.9455,30.2,32,0.0,978.9,8.3,27.4,89,60.8,39.6,23.5,323.0,47.0,8.5,0,5,7,0,2026-05-26T04:36:46.468671+05:30
Rohtak,Haryana,28.8955,76.6066,29.0,32,0.0,976.5,7.75,32.4,716,923.9,194.2,21.6,392.0,51.0,7.0,4,5,7,0,2026-05-26T04:36:46.468677+05:30
Panipat,Haryana,29.3909,76.9635,29.3,25,0.0,974.8,7.55,37.4,924,1069.2,227.7,17.7,408.0,49.0,5.8,4,5,7,0,2026-05-26T04:36:46.468683+05:30
Mathura,Uttar Pradesh,27.4924,77.6737,31.5,33,0.0,981.6,8.0,35.6,774,737.6,135.5,19.7,216.0,33.0,6.6,0,5,7,0,2026-05-26T04:36:46.468690+05:30
Vrindavan,Uttar Pradesh,27.5823,77.7027,31.0,32,0.0,982.0,7.95,33.5,774,737.6,135.5,19.7,254.0,33.0,6.6,0,5,7,0,2026-05-26T04:36:46.468696+05:30
Ayodhya,Uttar Pradesh,26.7922,82.1998,26.5,74,0.0,991.1,8.3,39.2,161,89.2,68.5,15.6,330.0,81.0,16.4,7,5,7,1,2026-05-26T04:36:46.468702+05:30
Ratlam,Madhya Pradesh,23.3315,75.0367,27.0,78,0.0,953.6,8.55,40.0,56,12.6,9.6,7.5,164.0,43.0,12.6,7,5,7,1,2026-05-26T04:36:46.468709+05:30
Sagar,Madhya Pradesh,23.8388,78.7378,31.4,30,0.0,947.7,8.75,42.5,63,29.3,19.6,4.3,177.0,81.0,5.0,0,5,7,0,2026-05-26T04:36:46.468715+05:30
Satna,Madhya Pradesh,24.6005,80.8322,31.1,28,0.0,967.1,8.8,53.6,63,38.4,20.3,9.6,174.0,61.0,3.4,0,5,7,0,2026-05-26T04:36:46.468721+05:30
Akola,Maharashtra,20.7002,77.0082,31.5,50,0.0,973.3,8.4,42.5,63,16.4,14.1,7.6,142.0,74.0,13.5,0,5,7,1,2026-05-26T04:36:46.468729+05:30
Amravati,Maharashtra,20.9374,77.7796,32.5,43,0.0,965.4,8.85,40.3,69,19.6,17.2,7.1,197.0,87.0,14.1,0,5,7,1,2026-05-26T04:36:46.468736+05:30
Latur,Maharashtra,18.4088,76.5604,27.8,65,0.0,938.8,8.85,31.7,68,15.3,13.3,7.0,182.0,76.0,5.7,7,5,7,1,2026-05-26T04:36:46.468743+05:30
Nanded,Maharashtra,19.1383,77.3091,31.0,53,0.0,966.9,7.3,34.2,72,17.2,13.1,6.2,167.0,63.0,2.4,0,5,7,1,2026-05-26T04:36:46.468749+05:30
Gulbarga,Karnataka,17.3297,76.8343,28.3,68,0.0,957.7,9.0,34.2,63,12.9,11.6,8.9,176.0,59.0,5.6,7,5,7,1,2026-05-26T04:36:46.468755+05:30
Bidar,Karnataka,17.9104,77.5199,27.4,63,0.0,934.2,9.05,33.5,87,28.3,22.5,8.9,207.0,73.0,5.1,7,5,7,1,2026-05-26T04:36:46.468761+05:30
Hospet,Karnataka,15.2689,76.3909,25.0,90,0.0,955.7,6.8,53.3,41,4.9,4.2,5.6,157.0,37.0,1.5,7,5,7,1,2026-05-26T04:36:46.468767+05:30
Tirupur,Tamil Nadu,11.1085,77.3411,25.5,85,0.0,974.6,9.05,54.0,52,17.7,15.5,20.9,148.0,27.0,5.4,7,5,7,1,2026-05-26T04:36:46.468774+05:30
Alappuzha,Kerala,9.4981,76.3388,25.1,97,0.2,1009.8,8.25,28.8,45,12.9,11.0,12.1,241.0,36.0,4.5,10,0,4,1,2026-05-26T04:36:46.468780+05:30
Munnar,Kerala,10.0889,77.0595,17.2,100,0.0,857.0,9.05,28.4,30,8.1,7.7,7.2,162.0,24.0,1.2,3,10,7,1,2026-05-26T04:36:46.468787+05:30
Silchar,Assam,24.8333,92.7789,23.9,97,0.3,1004.2,8.9,29.9,67,14.1,9.8,5.2,224.0,70.0,2.3,6,5,4,1,2026-05-26T04:36:46.468793+05:30
Dibrugarh,Assam,27.4728,94.912,22.1,98,0.0,995.6,8.95,25.2,70,28.5,21.5,15.3,251.0,50.0,2.3,3,5,7,1,2026-05-26T04:36:46.468800+05:30
