city,state,latitude,longitude,temp,humidity,rain,pressure,uv_index,wind_gusts,aqi,pm10,pm2_5,mosquito_risk,arthritis_risk,migraine_risk,frizz_risk,updated_at
Delhi,Delhi,28.6139,77.209,20.6,74,0.0,983.4,5.9,18.0,421,312.9,86.4,3,5,3,0,2026-03-06T05:23:33.391764+05:30
Mumbai,Maharashtra,19.076,72.8777,27.5,66,0.0,1008.3,7.4,24.8,100,33.9,31.4,7,0,4,1,2026-03-06T05:23:33.391802+05:30
Bangalore,Karnataka,12.9716,77.5946,19.2,68,0.0,910.2,9.15,24.5,94,46.6,42.0,3,5,7,0,2026-03-06T05:23:33.391818+05:30
Hyderabad,Telangana,17.385,78.4867,22.2,50,0.0,952.6,8.5,25.6,104,43.3,39.8,0,5,7,0,2026-03-06T05:23:33.391827+05:30
Chennai,Tamil Nadu,13.0827,80.2707,23.6,93,0.0,1007.0,8.9,31.3,83,23.6,20.1,3,5,4,1,2026-03-06T05:23:33.391837+05:30
Kolkata,West Bengal,22.5726,88.3639,21.4,99,0.0,1007.6,7.8,14.8,165,108.5,98.0,3,5,4,1,2026-03-06T05:23:33.391845+05:30
Pune,Maharashtra,18.5204,73.8567,21.0,59,0.0,948.4,8.0,28.8,88,56.2,54.2,0,5,7,0,2026-03-06T05:23:33.391858+05:30
Ahmedabad,Gujarat,23.0225,72.5714,20.0,88,0.0,1004.3,7.25,21.2,67,21.3,19.9,3,5,4,1,2026-03-06T05:23:33.391865+05:30
Jaipur,Rajasthan,26.9124,75.7873,21.8,43,0.0,960.5,6.7,20.9,99,146.7,26.1,0,5,7,0,2026-03-06T05:23:33.391873+05:30
Lucknow,Uttar Pradesh,26.8467,80.9462,20.6,83,0.0,994.5,6.4,22.7,169,141.6,99.4,3,5,7,1,2026-03-06T05:23:33.391880+05:30
Kanpur,Uttar Pradesh,26.4499,80.3319,19.9,90,0.0,992.3,6.4,14.8,181,285.0,101.0,3,10,7,1,2026-03-06T05:23:33.391888+05:30
Chandigarh,Chandigarh,30.7333,76.7794,19.4,70,0.0,968.5,5.8,21.6,106,53.0,38.6,3,5,3,0,2026-03-06T05:23:33.391896+05:30
Srinagar,Jammu and Kashmir,34.0837,74.7973,6.2,73,0.0,838.6,6.7,16.6,143,76.8,54.2,3,5,7,0,2026-03-06T05:23:33.391903+05:30
Jammu,Jammu and Kashmir,32.7266,74.857,16.9,87,0.0,972.4,6.45,19.8,117,49.6,41.8,3,10,7,0,2026-03-06T05:23:33.391910+05:30
Amritsar,Punjab,31.634,74.8723,18.0,83,0.0,980.9,6.05,14.4,151,110.6,93.6,3,10,7,0,2026-03-06T05:23:33.391917+05:30
Ludhiana,Punjab,30.901,75.8573,20.4,81,0.0,978.8,6.05,14.4,160,108.3,90.1,3,5,7,1,2026-03-06T05:23:33.391924+05:30
Jalandhar,Punjab,31.326,75.5762,18.0,92,0.0,980.0,6.15,15.8,160,120.6,101.7,3,10,7,1,2026-03-06T05:23:33.391933+05:30
Dehradun,Uttarakhand,30.6284,78.0322,11.6,55,0.0,827.1,6.15,26.6,75,30.5,26.5,0,5,7,0,2026-03-06T05:23:33.391940+05:30
Shimla,Himachal Pradesh,31.1048,77.1734,12.0,49,0.0,782.6,6.25,30.6,72,48.7,28.1,0,5,7,0,2026-03-06T05:23:33.391947+05:30
Manali,Himachal Pradesh,32.2396,77.1887,17.6,17,0.0,820.9,7.2,37.4,62,36.6,22.0,0,5,7,1,2026-03-06T05:23:33.391954+05:30
Gurgaon,Haryana,28.4595,77.0266,17.9,81,0.0,981.7,6.0,16.2,1405,612.8,114.8,3,10,3,0,2026-03-06T05:23:33.391961+05:30
Noida,Uttar Pradesh,28.5355,77.391,20.7,74,0.0,984.9,5.9,17.3,1405,612.8,114.8,3,5,3,0,2026-03-06T05:23:33.391968+05:30
Ghaziabad,Uttar Pradesh,28.6692,77.4538,20.3,80,0.0,983.0,5.9,13.7,295,300.8,97.1,3,5,3,1,2026-03-06T05:23:33.391977+05:30
Faridabad,Haryana,28.4089,77.3178,20.6,67,0.0,984.2,5.95,16.9,1405,612.8,114.8,3,5,3,0,2026-03-06T05:23:33.391983+05:30
Meerut,Uttar Pradesh,28.9845,77.7064,19.1,92,0.0,981.7,5.75,11.2,295,300.8,97.1,3,10,3,1,2026-03-06T05:23:33.391990+05:30
Agra,Uttar Pradesh,27.1767,78.0081,17.6,76,0.0,988.2,6.3,20.2,532,449.8,91.5,3,5,7,0,2026-03-06T05:23:33.391997+05:30
Varanasi,Uttar Pradesh,25.3176,82.9739,19.5,86,0.0,998.9,7.1,16.6,161,166.2,93.6,3,10,7,1,2026-03-06T05:23:33.392006+05:30
Prayagraj,Uttar Pradesh,25.4358,81.8463,19.8,88,0.0,996.9,6.95,14.8,164,176.5,114.6,3,10,7,1,2026-03-06T05:23:33.392013+05:30
Gorakhpur,Uttar Pradesh,26.7606,83.3732,17.5,87,0.0,998.8,6.8,20.9,172,116.6,103.6,3,10,7,0,2026-03-06T05:23:33.392020+05:30
Bareilly,Uttar Pradesh,28.367,79.4304,18.7,94,0.0,987.6,6.1,20.9,169,113.9,83.6,3,10,7,1,2026-03-06T05:23:33.392026+05:30
Aligarh,Uttar Pradesh,27.8974,78.088,19.0,81,0.0,985.8,6.05,19.1,710,540.2,135.5,3,10,7,0,2026-03-06T05:23:33.392033+05:30
Moradabad,Uttar Pradesh,28.8386,78.7733,18.6,95,0.0,984.2,5.9,24.1,176,99.4,93.6,3,10,3,1,2026-03-06T05:23:33.392040+05:30
Saharanpur,Uttar Pradesh,29.9637,77.546,18.1,94,0.0,975.9,5.55,25.6,160,110.1,83.4,3,10,3,1,2026-03-06T05:23:33.392046+05:30
Jhansi,Uttar Pradesh,25.4484,78.5685,19.8,56,0.0,978.2,6.9,25.2,60,27.5,16.1,0,5,7,0,2026-03-06T05:23:36.719556+05:30
Surat,Gujarat,21.1702,72.8311,22.7,76,0.0,1008.0,7.15,22.7,122,37.0,36.2,3,0,4,1,2026-03-06T05:23:36.719590+05:30
Vadodara,Gujarat,22.3072,73.1812,20.9,76,0.0,1006.1,7.25,19.1,92,36.4,36.1,3,5,4,1,2026-03-06T05:23:36.719602+05:30
Rajkot,Gujarat,22.3039,70.8022,20.0,98,0.0,996.8,7.1,23.4,54,15.8,12.3,3,5,7,1,2026-03-06T05:23:36.719612+05:30
Thane,Maharashtra,19.2183,72.9781,24.5,63,0.0,1007.9,7.4,36.7,100,33.9,31.4,3,5,4,1,2026-03-06T05:23:36.719621+05:30
Nagpur,Maharashtra,21.1458,79.0882,18.4,65,0.0,973.1,7.85,25.6,54,22.0,14.9,3,5,7,0,2026-03-06T05:23:36.719630+05:30
Nashik,Maharashtra,19.9975,73.7898,21.4,51,0.0,945.9,7.6,34.2,73,26.5,23.7,0,5,7,0,2026-03-06T05:23:36.719639+05:30
Aurangabad,Maharashtra,19.8762,75.3433,23.2,43,0.0,944.4,8.1,24.5,66,24.3,21.4,0,5,7,0,2026-03-06T05:23:36.719647+05:30
Solapur,Maharashtra,17.6599,75.9064,20.1,63,0.0,956.6,8.4,19.8,75,24.6,22.8,3,5,7,0,2026-03-06T05:23:36.719656+05:30
Kolhapur,Maharashtra,16.705,74.2433,19.3,58,0.0,947.1,8.55,32.4,151,84.3,83.1,0,5,7,0,2026-03-06T05:23:36.719664+05:30
Goa,Goa,15.2993,74.124,23.7,95,0.0,997.3,8.6,31.3,155,82.4,79.6,3,5,7,1,2026-03-06T05:23:36.719672+05:30
Jodhpur,Rajasthan,26.2389,73.0243,20.2,46,0.0,984.4,6.95,21.6,72,81.7,17.3,0,5,7,0,2026-03-06T05:23:36.719681+05:30
Udaipur,Rajasthan,24.5854,73.7125,15.9,38,0.0,947.0,7.6,20.5,47,10.0,9.6,0,5,7,0,2026-03-06T05:23:36.719689+05:30
Kota,Rajasthan,25.2138,75.8648,18.3,67,0.0,979.4,7.0,17.6,77,21.8,18.6,3,5,7,0,2026-03-06T05:23:36.719698+05:30
Bikaner,Rajasthan,28.0229,73.3119,21.2,45,0.0,982.6,6.65,20.9,59,65.0,15.9,0,5,7,0,2026-03-06T05:23:36.719707+05:30
Ajmer,Rajasthan,26.4499,74.6399,19.0,46,0.0,955.5,6.95,23.8,66,37.7,11.7,0,5,7,0,2026-03-06T05:23:36.719715+05:30
Gwalior,Madhya Pradesh,26.2183,78.1828,20.2,66,0.0,983.4,6.6,22.0,83,109.0,28.8,3,5,7,0,2026-03-06T05:23:36.719723+05:30
Indore,Madhya Pradesh,22.7196,75.8577,16.2,67,0.0,948.1,7.55,22.7,79,27.0,23.6,3,5,7,0,2026-03-06T05:23:36.719731+05:30
Bhopal,Madhya Pradesh,23.2599,77.4126,17.4,59,0.0,953.6,7.4,24.8,66,38.4,28.4,0,5,7,0,2026-03-06T05:23:36.719739+05:30
Jabalpur,Madhya Pradesh,23.1815,79.9864,17.0,79,0.0,961.4,7.5,27.7,60,36.6,24.6,3,5,7,0,2026-03-06T05:23:36.719748+05:30
Ujjain,Madhya Pradesh,23.1765,75.7885,16.3,69,0.0,953.9,7.45,19.1,100,18.0,17.5,3,5,7,0,2026-03-06T05:23:36.719756+05:30
Visakhapatnam,Andhra Pradesh,17.6868,83.2185,23.6,94,0.0,1002.7,8.45,36.7,137,57.3,54.2,3,5,4,1,2026-03-06T05:23:36.719764+05:30
Vijayawada,Andhra Pradesh,16.5062,80.648,23.1,82,0.0,1001.8,8.55,18.4,127,58.9,57.0,3,5,4,1,2026-03-06T05:23:36.719773+05:30
Guntur,Andhra Pradesh,16.3067,80.4365,23.6,77,0.0,1003.1,8.55,16.9,111,47.4,45.1,3,5,4,1,2026-03-06T05:23:36.719781+05:30
Nellore,Andhra Pradesh,14.4426,79.9865,23.5,80,0.0,1005.0,8.75,29.9,93,31.5,30.2,3,5,4,1,2026-03-06T05:23:36.719790+05:30
Kurnool,Andhra Pradesh,15.8281,78.0373,24.4,50,0.0,976.3,8.55,23.8,77,25.0,22.6,0,5,7,0,2026-03-06T05:23:36.719799+05:30
Kakinada,Andhra Pradesh,16.9891,82.2475,22.3,94,0.0,1006.5,8.5,35.3,119,50.1,46.7,3,5,4,1,2026-03-06T05:23:36.719807+05:30
Tirupati,Andhra Pradesh,13.6288,79.4192,20.0,82,0.0,991.5,8.85,29.5,115,51.0,49.8,3,5,7,1,2026-03-06T05:23:36.719813+05:30
Warangal,Telangana,17.9689,79.5941,23.7,51,0.0,977.6,8.3,26.3,82,27.4,26.5,0,5,7,0,2026-03-06T05:23:36.719819+05:30
Nizamabad,Telangana,18.6725,78.0941,22.6,54,0.0,964.7,8.2,31.3,92,40.2,38.4,0,5,7,0,2026-03-06T05:23:36.719825+05:30
Mysore,Karnataka,12.2958,76.6396,20.6,97,0.0,927.4,9.2,35.6,115,49.4,48.5,3,5,7,1,2026-03-06T05:23:36.719831+05:30
Mangalore,Karnataka,12.9141,74.856,28.4,79,0.0,1006.1,8.8,24.5,127,50.8,47.3,7,5,4,1,2026-03-06T05:23:36.719837+05:30
Hubli-Dharwad,Karnataka,15.3647,75.124,18.6,93,0.0,939.5,8.75,35.3,82,45.2,43.7,3,10,7,1,2026-03-06T05:23:36.719844+05:30
Belgaum,Karnataka,15.8497,74.4977,19.8,71,0.0,924.4,8.8,38.9,119,64.7,62.9,3,5,7,0,2026-03-06T05:23:40.047979+05:30
Coimbatore,Tamil Nadu,11.0168,76.9558,21.3,91,0.0,961.1,9.15,37.8,106,53.0,51.5,3,5,7,1,2026-03-06T05:23:40.048011+05:30
Madurai,Tamil Nadu,9.9252,78.1198,23.1,94,0.0,992.9,9.15,27.4,88,40.0,38.8,3,5,7,1,2026-03-06T05:23:40.048022+05:30
Trichy,Tamil Nadu,10.7905,78.7047,22.4,100,0.0,999.9,9.05,25.2,93,32.0,30.6,3,5,7,1,2026-03-06T05:23:40.048030+05:30
Salem,Tamil Nadu,11.6643,78.146,22.8,80,0.0,977.2,9.05,15.5,99,46.2,44.0,3,5,7,1,2026-03-06T05:23:40.048037+05:30
Tirunelveli,Tamil Nadu,8.7139,77.7567,22.7,81,0.0,1003.2,9.15,49.0,85,47.6,46.6,3,5,4,1,2026-03-06T05:23:40.048044+05:30
Vellore,Tamil Nadu,12.9165,79.1325,20.1,93,0.0,984.5,8.95,32.8,118,54.1,52.0,3,5,7,1,2026-03-06T05:23:40.048052+05:30
Erode,Tamil Nadu,11.341,77.7172,22.9,82,0.0,989.0,9.05,19.8,90,34.1,32.1,3,5,7,1,2026-03-06T05:23:40.048058+05:30
Kochi,Kerala,9.9312,76.2673,27.4,82,0.0,1008.2,9.0,33.1,141,58.0,57.2,7,0,4,1,2026-03-06T05:23:40.048065+05:30
Thiruvananthapuram,Kerala,8.5241,76.9366,27.7,78,0.0,1007.5,9.0,32.4,89,29.1,26.4,7,5,4,1,2026-03-06T05:23:40.048072+05:30
Kozhikode,Kerala,11.2588,75.7804,27.6,85,0.0,1007.2,8.9,26.3,117,42.0,38.6,7,5,4,1,2026-03-06T05:23:40.048079+05:30
Thrissur,Kerala,10.5276,76.2144,25.8,92,0.0,1006.5,8.95,33.5,134,58.7,56.5,7,5,4,1,2026-03-06T05:23:40.048087+05:30
Kannur,Kerala,11.8745,75.3704,26.9,84,0.0,1006.5,8.85,29.5,122,43.3,40.6,7,5,4,1,2026-03-06T05:23:40.048094+05:30
Patna,Bihar,25.5941,85.1376,21.1,81,0.0,1002.5,7.25,23.4,163,121.1,99.9,3,5,4,1,2026-03-06T05:23:40.048100+05:30
Gaya,Bihar,24.7914,85.0002,18.3,90,0.0,995.3,7.35,22.7,151,97.3,81.3,3,10,7,1,2026-03-06T05:23:40.048107+05:30
Muzaffarpur,Bihar,26.1209,85.3647,18.4,87,0.0,1002.6,7.2,22.7,170,139.7,118.7,3,10,4,1,2026-03-06T05:23:40.048113+05:30
Bhagalpur,Bihar,25.2425,87.0117,21.0,79,0.0,1003.3,7.3,18.7,162,114.6,95.5,3,5,4,1,2026-03-06T05:23:40.048119+05:30
Ranchi,Jharkhand,23.3441,85.3096,17.6,73,0.0,937.4,8.0,28.4,121,122.0,62.9,3,5,7,0,2026-03-06T05:23:40.048126+05:30
Jamshedpur,Jharkhand,22.8046,86.2029,22.7,75,0.0,992.2,7.9,24.1,155,85.7,62.9,3,5,7,1,2026-03-06T05:23:40.048133+05:30
Dhanbad,Jharkhand,23.7957,86.4304,22.2,64,0.0,981.2,7.75,29.9,166,141.6,122.0,3,5,7,0,2026-03-06T05:23:40.048139+05:30
Bokaro,Jharkhand,23.6693,86.1511,21.0,70,0.0,985.3,7.8,30.2,169,156.0,130.4,3,5,7,0,2026-03-06T05:23:40.048145+05:30
Bhubaneswar,Odisha,20.2961,85.8245,24.1,91,0.0,1003.3,8.2,32.0,152,62.2,53.7,3,5,4,1,2026-03-06T05:23:40.048151+05:30
Cuttack,Odisha,20.4625,85.8828,23.9,95,0.0,1005.4,8.25,34.6,152,62.2,53.7,3,5,4,1,2026-03-06T05:23:40.048158+05:30
Rourkela,Odisha,22.2604,84.8536,19.7,78,0.0,985.5,7.8,13.0,121,74.5,42.5,3,5,7,0,2026-03-06T05:23:40.048164+05:30
Raipur,Chhattisgarh,21.2514,81.6296,22.4,47,0.0,974.5,7.9,22.7,97,33.8,25.7,0,5,7,0,2026-03-06T05:23:40.048170+05:30
Bhilai,Chhattisgarh,21.1938,81.3509,21.7,49,0.0,974.8,7.95,23.8,78,32.9,23.7,0,5,7,0,2026-03-06T05:23:40.048176+05:30
Guwahati,Assam,26.1158,91.7086,21.9,82,0.0,1003.6,7.25,20.5,149,73.8,66.6,3,5,4,1,2026-03-06T05:23:40.048182+05:30
Agartala,Tripura,23.8315,91.2868,19.8,86,0.0,1007.9,7.6,17.3,160,87.8,78.5,3,10,4,1,2026-03-06T05:23:40.048188+05:30
Shillong,Meghalaya,25.5788,91.8933,8.9,64,0.0,854.2,7.6,35.3,123,51.5,44.2,3,5,7,0,2026-03-06T05:23:40.048195+05:30
Imphal,Manipur,24.817,93.9368,13.9,82,0.0,924.1,7.8,33.8,151,90.6,86.6,3,10,7,0,2026-03-06T05:23:40.048201+05:30
Aizawl,Mizoram,23.7271,92.7176,15.8,74,0.0,892.6,7.75,33.8,166,169.5,161.6,3,5,7,0,2026-03-06T05:23:40.048207+05:30
Kohima,Nagaland,25.6701,94.1077,13.2,71,0.0,854.9,7.65,43.6,145,74.0,69.8,3,5,7,0,2026-03-06T05:23:40.048214+05:30
Gangtok,Sikkim,27.3314,88.6138,13.8,94,0.0,838.2,7.55,16.6,99,35.9,31.4,3,10,7,0,2026-03-06T05:23:40.048220+05:30
Siliguri,West Bengal,26.7271,88.3953,21.1,60,0.0,996.2,7.2,16.6,135,58.8,56.0,0,5,7,0,2026-03-06T05:23:43.386468+05:30
Durgapur,West Bengal,23.5204,87.3119,21.7,73,0.0,996.9,7.75,25.9,159,123.4,100.6,3,5,7,1,2026-03-06T05:23:43.386493+05:30
Asansol,West Bengal,23.6739,86.9524,22.2,69,0.0,995.2,7.75,22.3,157,113.9,94.1,3,5,7,1,2026-03-06T05:23:43.386502+05:30
Pondicherry,Puducherry,11.9139,79.8145,21.8,96,0.0,1008.4,8.9,24.5,71,24.5,20.9,3,0,4,1,2026-03-06T05:23:43.386510+05:30
Port Blair,Andaman and Nicobar Islands,11.6234,92.7265,26.1,76,0.0,1007.7,8.85,14.4,52,19.0,11.8,7,5,4,1,2026-03-06T05:23:43.386517+05:30
Haridwar,Uttarakhand,29.9457,78.1642,18.5,91,0.0,974.8,5.7,26.3,150,75.4,58.0,3,10,3,1,2026-03-06T05:23:43.386525+05:30
Rishikesh,Uttarakhand,30.0869,78.2676,18.8,83,0.0,967.4,5.75,23.0,130,74.5,56.8,3,10,3,0,2026-03-06T05:23:43.386532+05:30
Nainital,Uttarakhand,29.3919,79.4542,15.1,80,0.0,804.6,6.55,42.5,156,113.6,79.9,3,5,7,0,2026-03-06T05:23:43.386539+05:30
Mussoorie,Uttarakhand,30.4599,78.0664,13.9,67,0.0,800.9,6.05,36.0,122,74.3,51.9,3,5,7,0,2026-03-06T05:23:43.386545+05:30
Dharamshala,Himachal Pradesh,32.219,76.3234,21.5,25,0.0,869.2,5.6,22.0,54,26.0,12.1,0,5,3,0,2026-03-06T05:23:43.386551+05:30
Dalhousie,Himachal Pradesh,32.5387,75.971,17.0,33,0.0,803.3,5.8,23.4,90,32.1,25.7,0,5,3,0,2026-03-06T05:23:43.386558+05:30
Patiala,Punjab,30.3398,76.3869,19.5,87,0.0,978.2,5.7,13.0,260,90.1,73.8,3,10,3,1,2026-03-06T05:23:43.386565+05:30
Bhatinda,Punjab,30.211,74.9455,19.4,73,0.0,984.1,6.4,17.6,144,73.3,62.9,3,5,7,0,2026-03-06T05:23:43.386572+05:30
Rohtak,Haryana,28.8955,76.6066,18.7,78,0.0,982.1,5.9,16.9,544,294.3,77.8,3,5,3,0,2026-03-06T05:23:43.386578+05:30
Panipat,Haryana,29.3909,76.9635,18.9,92,0.0,980.6,5.7,11.2,1135,577.4,106.9,3,10,3,1,2026-03-06T05:23:43.386584+05:30
Mathura,Uttar Pradesh,27.4924,77.6737,18.4,66,0.0,987.1,6.2,19.8,670,413.5,85.4,3,5,7,0,2026-03-06T05:23:43.386591+05:30
Vrindavan,Uttar Pradesh,27.5823,77.7027,19.0,69,0.0,987.6,6.15,19.8,670,413.5,85.4,3,5,7,0,2026-03-06T05:23:43.386597+05:30
Ayodhya,Uttar Pradesh,26.7922,82.1998,18.0,89,0.0,996.6,6.55,21.6,170,130.9,102.2,3,10,7,1,2026-03-06T05:23:43.386603+05:30
Ratlam,Madhya Pradesh,23.3315,75.0367,21.2,49,0.0,955.2,7.4,19.1,87,12.3,11.8,0,5,7,0,2026-03-06T05:23:43.386610+05:30
Sagar,Madhya Pradesh,23.8388,78.7378,17.8,61,0.0,949.8,7.35,23.4,55,29.4,17.3,3,5,7,0,2026-03-06T05:23:43.386616+05:30
Satna,Madhya Pradesh,24.6005,80.8322,19.1,63,0.0,971.6,7.3,32.4,70,94.5,28.6,3,5,7,0,2026-03-06T05:23:43.386622+05:30
Akola,Maharashtra,20.7002,77.0082,19.5,67,0.0,975.5,7.85,19.8,75,36.3,30.0,3,5,7,0,2026-03-06T05:23:43.386629+05:30
Amravati,Maharashtra,20.9374,77.7796,19.9,57,0.0,967.4,7.8,15.8,74,36.7,29.5,0,5,7,0,2026-03-06T05:23:43.386635+05:30
Latur,Maharashtra,18.4088,76.5604,18.9,53,0.0,939.2,8.3,32.4,82,23.5,20.8,0,5,7,0,2026-03-06T05:23:43.386641+05:30
Nanded,Maharashtra,19.1383,77.3091,18.2,62,0.0,968.5,8.1,20.5,97,49.7,47.3,3,5,7,0,2026-03-06T05:23:43.386648+05:30
Gulbarga,Karnataka,17.3297,76.8343,21.9,49,0.0,958.2,8.4,34.2,77,31.8,29.2,0,5,7,0,2026-03-06T05:23:43.386653+05:30
Bidar,Karnataka,17.9104,77.5199,20.4,57,0.0,934.8,8.35,32.8,85,35.5,32.5,0,5,7,0,2026-03-06T05:23:43.386659+05:30
Hospet,Karnataka,15.2689,76.3909,22.1,64,0.0,955.2,8.75,22.7,91,49.8,47.7,3,5,7,0,2026-03-06T05:23:43.386665+05:30
Tirupur,Tamil Nadu,11.1085,77.3411,23.1,87,0.0,974.9,9.2,28.4,111,54.0,52.3,3,5,7,1,2026-03-06T05:23:43.386672+05:30
Alappuzha,Kerala,9.4981,76.3388,27.2,82,0.0,1008.3,9.0,30.6,118,48.8,46.3,7,0,4,1,2026-03-06T05:23:43.386678+05:30
Munnar,Kerala,10.0889,77.0595,15.9,75,0.0,854.1,9.5,29.2,90,38.3,37.1,3,5,7,0,2026-03-06T05:23:43.386685+05:30
Silchar,Assam,24.8333,92.7789,20.5,77,0.0,1007.0,7.55,12.6,157,112.2,105.9,3,5,4,1,2026-03-06T05:23:43.386691+05:30
Dibrugarh,Assam,27.4728,94.912,19.8,89,0.0,997.9,7.25,14.8,110,32.6,30.7,3,10,7,1,2026-03-06T05:23:43.386698+05:30
