city,state,latitude,longitude,temp,humidity,rain,pressure,uv_index,wind_gusts,aqi,pm10,pm2_5,no2,co,o3,so2,mosquito_risk,arthritis_risk,migraine_risk,frizz_risk,updated_at
Delhi,Delhi,28.6139,77.209,32.1,20,0.0,978.5,7.75,34.9,696,543.9,118.3,21.0,216.0,48.0,8.8,0,5,7,0,2026-05-22T03:51:20.197069+05:30
Mumbai,Maharashtra,19.076,72.8777,29.8,76,0.0,1006.9,7.45,34.2,55,21.4,13.3,10.1,169.0,42.0,8.2,7,5,4,1,2026-05-22T03:51:20.197117+05:30
Bangalore,Karnataka,12.9716,77.5946,22.1,96,0.0,910.7,6.3,33.1,41,6.7,6.4,11.4,159.0,44.0,3.5,3,5,7,1,2026-05-22T03:51:20.197138+05:30
Hyderabad,Telangana,17.385,78.4867,30.8,52,0.0,950.5,8.75,45.7,103,31.0,25.8,7.8,237.0,88.0,7.9,0,5,7,1,2026-05-22T03:51:20.197154+05:30
Chennai,Tamil Nadu,13.0827,80.2707,28.2,77,0.0,1003.5,9.05,40.3,69,22.9,19.2,15.5,304.0,60.0,10.5,7,5,4,1,2026-05-22T03:51:20.197163+05:30
Kolkata,West Bengal,22.5726,88.3639,29.2,95,0.0,1002.1,8.95,29.2,117,42.5,35.6,7.1,388.0,79.0,5.5,7,5,4,1,2026-05-22T03:51:20.197171+05:30
Pune,Maharashtra,18.5204,73.8567,25.5,84,0.0,947.3,8.45,47.2,58,14.8,11.2,11.3,167.0,49.0,11.6,7,5,7,1,2026-05-22T03:51:20.197178+05:30
Ahmedabad,Gujarat,23.0225,72.5714,31.2,37,0.0,1000.0,8.2,35.6,74,33.5,20.3,5.5,145.0,51.0,3.1,0,5,4,0,2026-05-22T03:51:20.197185+05:30
Jaipur,Rajasthan,26.9124,75.7873,31.3,25,0.0,957.0,8.25,41.4,173,282.2,58.6,5.5,190.0,60.0,4.1,0,5,7,0,2026-05-22T03:51:20.197193+05:30
Lucknow,Uttar Pradesh,26.8467,80.9462,31.1,43,0.0,988.4,8.25,32.8,270,223.5,68.5,14.7,423.0,51.0,6.0,0,5,7,1,2026-05-22T03:51:20.197200+05:30
Kanpur,Uttar Pradesh,26.4499,80.3319,32.7,31,0.0,986.8,8.25,39.6,432,473.1,76.8,10.1,222.0,58.0,5.0,0,5,7,0,2026-05-22T03:51:20.197206+05:30
Chandigarh,Chandigarh,30.7333,76.7794,27.2,39,0.0,962.9,7.75,50.4,93,48.5,30.0,18.4,253.0,53.0,11.6,4,5,7,0,2026-05-22T03:51:20.197213+05:30
Srinagar,Jammu and Kashmir,34.0837,74.7973,12.7,97,0.0,842.9,8.95,37.1,67,45.5,20.3,19.0,251.0,44.0,2.5,3,10,7,0,2026-05-22T03:51:20.197220+05:30
Jammu,Jammu and Kashmir,32.7266,74.857,28.0,38,0.0,969.0,8.55,45.0,84,44.2,22.8,16.4,172.0,42.0,2.3,4,5,7,0,2026-05-22T03:51:20.197226+05:30
Amritsar,Punjab,31.634,74.8723,29.6,36,0.0,976.6,8.45,45.4,93,64.5,31.5,6.6,249.0,90.0,6.2,4,5,7,0,2026-05-22T03:51:20.197232+05:30
Ludhiana,Punjab,30.901,75.8573,28.2,36,0.0,973.9,8.0,32.8,111,48.4,27.5,10.6,335.0,64.0,6.2,4,5,7,0,2026-05-22T03:51:20.197238+05:30
Jalandhar,Punjab,31.326,75.5762,29.2,32,0.0,975.0,7.7,34.2,100,109.4,40.0,13.4,289.0,60.0,6.4,4,5,7,0,2026-05-22T03:51:20.197244+05:30
Dehradun,Uttarakhand,30.6284,78.0322,14.7,66,0.0,826.2,8.2,42.8,71,26.9,16.6,26.6,259.0,5.0,0.4,3,5,7,0,2026-05-22T03:51:20.197250+05:30
Shimla,Himachal Pradesh,31.1048,77.1734,15.4,39,0.0,782.2,8.3,45.7,71,47.1,23.8,23.2,199.0,51.0,5.6,0,5,7,0,2026-05-22T03:51:20.197258+05:30
Manali,Himachal Pradesh,32.2396,77.1887,11.4,69,0.0,816.2,7.75,50.4,34,5.4,2.1,19.7,164.0,91.0,0.0,3,5,7,0,2026-05-22T03:51:20.197265+05:30
Gurgaon,Haryana,28.4595,77.0266,30.8,23,0.0,976.9,7.85,35.3,1916,1944.6,300.8,15.1,196.0,60.0,8.2,0,5,7,0,2026-05-22T03:51:20.197271+05:30
Noida,Uttar Pradesh,28.5355,77.391,32.0,21,0.0,979.8,7.8,30.6,1916,1944.6,300.8,15.1,198.0,60.0,8.2,0,5,7,0,2026-05-22T03:51:20.197276+05:30
Ghaziabad,Uttar Pradesh,28.6692,77.4538,32.3,21,0.0,978.0,7.75,31.3,605,413.5,104.3,23.9,221.0,44.0,12.0,0,5,7,0,2026-05-22T03:51:20.197282+05:30
Faridabad,Haryana,28.4089,77.3178,32.5,19,0.0,979.1,7.85,38.5,1916,1944.6,300.8,15.1,202.0,60.0,8.2,0,5,7,0,2026-05-22T03:51:20.197288+05:30
Meerut,Uttar Pradesh,28.9845,77.7064,31.9,23,0.0,976.6,7.65,29.2,605,413.5,104.3,23.9,228.0,44.0,12.0,0,5,7,0,2026-05-22T03:51:20.197294+05:30
Agra,Uttar Pradesh,27.1767,78.0081,31.4,22,0.0,983.2,8.1,41.0,945,1348.6,176.5,9.4,184.0,63.0,5.1,0,5,7,0,2026-05-22T03:51:20.197300+05:30
Varanasi,Uttar Pradesh,25.3176,82.9739,30.5,76,0.0,992.9,8.75,34.2,134,63.6,39.2,33.4,553.0,27.0,9.6,3,5,7,1,2026-05-22T03:51:20.197306+05:30
Prayagraj,Uttar Pradesh,25.4358,81.8463,31.5,30,0.0,991.4,8.65,37.8,147,101.7,46.1,32.4,215.0,27.0,8.0,0,5,7,0,2026-05-22T03:51:20.197311+05:30
Gorakhpur,Uttar Pradesh,26.7606,83.3732,28.7,79,0.0,993.6,8.65,32.0,160,61.2,53.2,12.9,483.0,81.0,9.4,7,5,7,1,2026-05-22T03:51:20.197318+05:30
Bareilly,Uttar Pradesh,28.367,79.4304,28.1,61,0.0,981.5,8.05,23.8,198,389.3,130.9,36.1,471.0,32.0,12.8,7,5,7,1,2026-05-22T03:51:20.197324+05:30
Aligarh,Uttar Pradesh,27.8974,78.088,30.3,27,0.0,980.9,7.9,30.6,1110,1020.7,174.6,19.1,229.0,46.0,7.1,0,5,7,0,2026-05-22T03:51:20.197330+05:30
Moradabad,Uttar Pradesh,28.8386,78.7733,31.1,34,0.0,978.8,7.9,26.3,242,284.1,112.7,40.2,467.0,17.0,14.6,0,5,7,0,2026-05-22T03:51:20.197335+05:30
Saharanpur,Uttar Pradesh,29.9637,77.546,29.0,34,0.0,970.7,7.4,45.4,153,59.5,37.7,25.2,340.0,61.0,13.7,4,5,7,0,2026-05-22T03:51:20.197341+05:30
Jhansi,Uttar Pradesh,25.4484,78.5685,30.8,19,0.0,974.1,8.5,45.0,62,26.7,14.8,3.8,145.0,70.0,1.6,0,5,7,0,2026-05-22T03:51:23.561501+05:30
Surat,Gujarat,21.1702,72.8311,28.9,86,0.0,1005.0,7.75,40.3,77,29.6,20.6,27.0,400.0,24.0,43.9,7,5,4,1,2026-05-22T03:51:23.561534+05:30
Vadodara,Gujarat,22.3072,73.1812,30.5,59,0.0,1002.2,8.15,40.7,81,25.1,15.8,13.9,126.0,34.0,15.0,0,5,4,1,2026-05-22T03:51:23.561545+05:30
Rajkot,Gujarat,22.3039,70.8022,27.6,78,0.0,992.6,7.75,43.6,70,40.3,19.7,6.3,131.0,43.0,6.1,7,5,7,1,2026-05-22T03:51:23.561553+05:30
Thane,Maharashtra,19.2183,72.9781,29.6,76,0.0,1006.4,7.7,31.7,55,21.4,13.3,10.1,184.0,42.0,8.2,7,5,4,1,2026-05-22T03:51:23.561561+05:30
Nagpur,Maharashtra,21.1458,79.0882,34.7,26,0.0,968.7,8.95,46.4,73,34.5,25.7,13.7,242.0,57.0,9.6,0,5,7,0,2026-05-22T03:51:23.561569+05:30
Nashik,Maharashtra,19.9975,73.7898,25.5,79,0.0,944.3,8.15,34.2,49,16.8,9.8,8.1,149.0,38.0,4.6,7,5,7,1,2026-05-22T03:51:23.561576+05:30
Aurangabad,Maharashtra,19.8762,75.3433,28.6,60,0.0,942.5,8.3,49.7,67,20.8,13.6,9.1,160.0,50.0,5.6,4,5,7,1,2026-05-22T03:51:23.561584+05:30
Solapur,Maharashtra,17.6599,75.9064,29.2,61,0.0,955.7,8.8,37.1,78,14.2,11.4,6.9,202.0,56.0,3.3,7,5,7,1,2026-05-22T03:51:23.561592+05:30
Kolhapur,Maharashtra,16.705,74.2433,24.3,89,0.0,946.8,8.35,42.8,55,13.8,10.9,7.5,173.0,46.0,3.0,3,5,7,1,2026-05-22T03:51:23.561599+05:30
Goa,Goa,15.2993,74.124,26.5,91,0.0,996.6,6.85,30.2,45,19.7,16.1,7.4,325.0,46.0,1.5,7,5,7,1,2026-05-22T03:51:23.561607+05:30
Jodhpur,Rajasthan,26.2389,73.0243,31.2,36,0.0,980.3,8.45,37.4,171,280.3,65.2,3.7,147.0,56.0,3.2,0,5,7,0,2026-05-22T03:51:23.561614+05:30
Udaipur,Rajasthan,24.5854,73.7125,27.8,29,0.0,944.4,8.85,40.7,66,39.5,18.7,4.0,136.0,67.0,2.9,4,5,7,0,2026-05-22T03:51:23.561622+05:30
Kota,Rajasthan,25.2138,75.8648,31.1,22,0.0,976.1,8.45,43.6,73,31.3,19.9,7.8,177.0,46.0,4.0,0,5,7,0,2026-05-22T03:51:23.561629+05:30
Bikaner,Rajasthan,28.0229,73.3119,32.6,33,0.0,978.0,8.4,38.5,168,347.4,115.3,3.1,133.0,58.0,2.3,0,5,7,0,2026-05-22T03:51:23.561637+05:30
Ajmer,Rajasthan,26.4499,74.6399,29.2,31,0.0,952.4,8.4,44.6,84,53.7,22.9,4.0,155.0,64.0,3.5,4,5,7,0,2026-05-22T03:51:23.561643+05:30
Gwalior,Madhya Pradesh,26.2183,78.1828,31.9,21,0.0,979.4,8.3,45.0,71,40.9,18.2,4.9,147.0,67.0,2.6,0,5,7,0,2026-05-22T03:51:23.561651+05:30
Indore,Madhya Pradesh,22.7196,75.8577,30.8,28,0.0,946.2,8.7,43.2,74,44.8,24.3,4.0,214.0,92.0,6.6,0,5,7,0,2026-05-22T03:51:23.561659+05:30
Bhopal,Madhya Pradesh,23.2599,77.4126,31.3,24,0.0,951.2,8.7,42.5,70,35.2,23.8,7.5,246.0,54.0,4.4,0,5,7,0,2026-05-22T03:51:23.561666+05:30
Jabalpur,Madhya Pradesh,23.1815,79.9864,31.1,21,0.0,957.6,8.9,37.8,66,38.8,27.2,30.7,219.0,37.0,5.6,0,5,7,0,2026-05-22T03:51:23.561673+05:30
Ujjain,Madhya Pradesh,23.1765,75.7885,30.5,29,0.0,951.8,8.65,40.7,74,46.0,25.6,4.5,208.0,85.0,7.7,0,5,7,0,2026-05-22T03:51:23.561681+05:30
Visakhapatnam,Andhra Pradesh,17.6868,83.2185,30.7,80,0.0,998.0,9.1,39.2,141,47.6,37.6,25.0,408.0,94.0,37.9,3,5,7,1,2026-05-22T03:51:23.561688+05:30
Vijayawada,Andhra Pradesh,16.5062,80.648,32.4,70,0.0,997.0,9.15,49.0,124,43.5,35.3,6.6,293.0,111.0,7.8,3,5,7,1,2026-05-22T03:51:23.561696+05:30
Guntur,Andhra Pradesh,16.3067,80.4365,32.8,59,0.0,998.2,9.15,47.9,124,52.5,43.1,8.8,281.0,93.0,8.0,0,5,7,1,2026-05-22T03:51:23.561703+05:30
Nellore,Andhra Pradesh,14.4426,79.9865,30.6,57,0.0,1001.8,9.0,46.8,80,22.2,17.3,5.1,168.0,98.0,6.2,0,5,4,1,2026-05-22T03:51:23.561711+05:30
Kurnool,Andhra Pradesh,15.8281,78.0373,29.9,64,0.0,974.9,9.05,55.4,84,14.5,12.9,9.5,197.0,58.0,3.5,7,5,7,1,2026-05-22T03:51:23.561719+05:30
Kakinada,Andhra Pradesh,16.9891,82.2475,31.8,73,0.0,1002.0,9.1,43.6,93,35.4,25.8,3.9,267.0,129.0,4.5,3,5,4,1,2026-05-22T03:51:23.561726+05:30
Tirupati,Andhra Pradesh,13.6288,79.4192,25.7,80,0.0,988.1,9.1,39.2,69,17.5,14.5,4.8,203.0,88.0,1.5,7,5,7,1,2026-05-22T03:51:23.561733+05:30
Warangal,Telangana,17.9689,79.5941,32.6,37,0.0,973.5,9.0,46.8,122,60.8,48.7,22.0,287.0,54.0,6.7,0,5,7,0,2026-05-22T03:51:23.561740+05:30
Nizamabad,Telangana,18.6725,78.0941,33.0,40,0.0,961.2,9.1,37.4,117,62.2,51.0,27.4,208.0,44.0,7.1,0,5,7,1,2026-05-22T03:51:23.561747+05:30
Mysore,Karnataka,12.2958,76.6396,23.0,89,0.0,927.7,2.35,43.9,24,5.4,4.8,7.2,136.0,41.0,1.9,3,5,3,1,2026-05-22T03:51:23.561754+05:30
Mangalore,Karnataka,12.9141,74.856,25.4,96,0.0,1006.1,8.75,38.2,44,12.0,9.7,8.4,203.0,32.0,2.5,7,5,4,1,2026-05-22T03:51:23.561761+05:30
Hubli-Dharwad,Karnataka,15.3647,75.124,23.2,96,0.0,939.7,9.05,51.5,23,5.9,4.9,6.4,134.0,38.0,1.2,3,5,7,1,2026-05-22T03:51:23.561769+05:30
Belgaum,Karnataka,15.8497,74.4977,22.3,96,0.0,924.4,8.85,35.6,45,10.2,8.6,5.5,166.0,42.0,1.0,3,5,7,1,2026-05-22T03:51:26.938702+05:30
Coimbatore,Tamil Nadu,11.0168,76.9558,25.2,85,0.0,960.2,8.85,57.6,23,5.6,4.7,6.0,144.0,39.0,2.4,7,5,7,1,2026-05-22T03:51:26.938737+05:30
Madurai,Tamil Nadu,9.9252,78.1198,29.0,64,0.0,990.9,8.4,49.0,64,24.8,24.3,40.0,162.0,0.0,6.2,7,5,7,1,2026-05-22T03:51:26.938748+05:30
Trichy,Tamil Nadu,10.7905,78.7047,28.5,66,0.0,997.6,8.95,46.8,33,6.8,5.6,6.8,136.0,42.0,3.0,7,5,7,1,2026-05-22T03:51:26.938758+05:30
Salem,Tamil Nadu,11.6643,78.146,28.0,71,0.0,976.1,9.0,31.7,54,16.5,15.1,22.7,212.0,26.0,6.4,7,5,7,1,2026-05-22T03:51:26.938768+05:30
Tirunelveli,Tamil Nadu,8.7139,77.7567,28.6,72,0.0,1001.2,7.95,46.8,22,6.1,5.2,5.8,165.0,35.0,2.0,7,5,4,1,2026-05-22T03:51:26.938777+05:30
Vellore,Tamil Nadu,12.9165,79.1325,27.5,69,0.0,982.4,8.7,44.3,66,9.5,9.0,9.4,202.0,70.0,3.7,7,5,7,1,2026-05-22T03:51:26.938786+05:30
Erode,Tamil Nadu,11.341,77.7172,28.4,67,0.0,987.6,8.2,51.8,39,12.1,10.7,14.7,168.0,33.0,3.8,7,5,7,1,2026-05-22T03:51:26.938793+05:30
Kochi,Kerala,9.9312,76.2673,25.4,96,0.1,1008.2,6.7,37.4,55,16.9,15.9,22.6,131.0,9.0,5.2,10,0,4,1,2026-05-22T03:51:26.938802+05:30
Thiruvananthapuram,Kerala,8.5241,76.9366,25.5,98,0.1,1007.7,7.55,38.9,26,8.9,6.0,3.0,108.0,52.0,1.1,10,5,4,1,2026-05-22T03:51:26.938809+05:30
Kozhikode,Kerala,11.2588,75.7804,26.0,97,0.0,1007.1,8.0,33.1,27,9.5,6.2,1.7,161.0,57.0,0.8,7,5,4,1,2026-05-22T03:51:26.938816+05:30
Thrissur,Kerala,10.5276,76.2144,25.3,95,0.1,1006.3,7.15,34.6,55,18.3,17.4,21.0,186.0,8.0,4.6,10,5,4,1,2026-05-22T03:51:26.938825+05:30
Kannur,Kerala,11.8745,75.3704,25.4,97,0.0,1006.3,7.6,32.4,31,7.7,6.4,9.4,157.0,28.0,2.4,7,5,4,1,2026-05-22T03:51:26.938832+05:30
Patna,Bihar,25.5941,85.1376,28.1,86,0.0,996.8,8.85,28.8,155,37.6,32.9,14.5,407.0,83.0,16.0,7,5,7,1,2026-05-22T03:51:26.938839+05:30
Gaya,Bihar,24.7914,85.0002,29.4,81,0.0,989.6,8.9,30.6,155,53.3,49.5,13.6,443.0,99.0,18.7,7,5,7,1,2026-05-22T03:51:26.938845+05:30
Muzaffarpur,Bihar,26.1209,85.3647,27.2,88,0.0,997.3,8.85,33.5,152,32.8,29.7,15.0,408.0,73.0,11.8,7,5,7,1,2026-05-22T03:51:26.938852+05:30
Bhagalpur,Bihar,25.2425,87.0117,27.2,91,0.0,998.2,8.85,33.1,123,48.1,41.9,13.9,499.0,82.0,12.9,7,5,7,1,2026-05-22T03:51:26.938859+05:30
Ranchi,Jharkhand,23.3441,85.3096,25.5,68,0.0,934.2,9.3,31.3,146,122.0,73.3,39.4,555.0,45.0,22.4,7,5,7,1,2026-05-22T03:51:26.938866+05:30
Jamshedpur,Jharkhand,22.8046,86.2029,28.4,95,0.0,986.9,9.1,27.4,156,90.3,68.2,23.7,387.0,45.0,15.6,7,5,7,1,2026-05-22T03:51:26.938872+05:30
Dhanbad,Jharkhand,23.7957,86.4304,28.8,87,0.0,976.2,9.1,30.6,167,108.7,95.2,45.6,567.0,42.0,137.2,7,5,7,1,2026-05-22T03:51:26.938880+05:30
Bokaro,Jharkhand,23.6693,86.1511,28.2,88,0.0,980.0,9.1,24.8,166,110.8,96.4,41.2,597.0,68.0,130.6,7,5,7,1,2026-05-22T03:51:26.938887+05:30
Bhubaneswar,Odisha,20.2961,85.8245,29.2,98,0.0,997.7,9.15,36.7,157,40.2,32.2,5.6,329.0,103.0,6.2,7,5,7,1,2026-05-22T03:51:26.938894+05:30
Cuttack,Odisha,20.4625,85.8828,29.4,98,0.0,999.5,9.2,33.5,157,40.2,32.2,5.6,343.0,103.0,6.2,7,5,7,1,2026-05-22T03:51:26.938901+05:30
Rourkela,Odisha,22.2604,84.8536,29.5,63,0.0,980.9,9.05,34.6,161,190.0,114.3,59.5,726.0,12.0,25.6,7,5,7,1,2026-05-22T03:51:26.938909+05:30
Raipur,Chhattisgarh,21.2514,81.6296,32.2,40,0.0,969.6,8.9,38.5,152,98.5,82.4,71.1,638.0,1.0,55.3,0,5,7,1,2026-05-22T03:51:26.938916+05:30
Bhilai,Chhattisgarh,21.1938,81.3509,31.2,34,0.0,969.9,8.5,36.4,119,66.6,52.5,46.0,653.0,18.0,39.4,0,5,7,0,2026-05-22T03:51:26.938923+05:30
Guwahati,Assam,26.1158,91.7086,24.8,98,0.0,999.0,8.8,26.6,104,57.4,53.4,16.6,441.0,31.0,2.8,3,5,7,1,2026-05-22T03:51:26.938930+05:30
Agartala,Tripura,23.8315,91.2868,26.0,98,0.0,1003.4,8.8,33.5,86,32.0,20.2,12.3,233.0,54.0,2.5,7,5,4,1,2026-05-22T03:51:26.938937+05:30
Shillong,Meghalaya,25.5788,91.8933,18.5,96,0.0,855.4,7.4,25.9,84,26.1,20.8,6.0,255.0,66.0,4.9,3,10,7,1,2026-05-22T03:51:26.938944+05:30
Imphal,Manipur,24.817,93.9368,22.1,98,0.0,921.4,8.75,34.9,134,63.6,57.4,23.3,463.0,20.0,2.2,3,5,7,1,2026-05-22T03:51:26.938951+05:30
Aizawl,Mizoram,23.7271,92.7176,19.8,100,0.0,890.1,8.5,30.6,78,23.8,18.9,5.6,238.0,39.0,1.4,3,10,7,1,2026-05-22T03:51:26.938958+05:30
Kohima,Nagaland,25.6701,94.1077,17.4,93,0.0,853.2,9.0,26.6,112,43.7,34.9,9.6,219.0,29.0,1.0,3,10,7,1,2026-05-22T03:51:26.938965+05:30
Gangtok,Sikkim,27.3314,88.6138,16.6,89,0.3,836.1,9.15,35.6,71,15.8,13.2,4.9,485.0,107.0,1.9,6,10,7,0,2026-05-22T03:51:26.938972+05:30
Siliguri,West Bengal,26.7271,88.3953,25.5,86,0.0,990.4,8.0,21.2,135,55.2,46.7,14.7,346.0,98.0,6.1,7,5,7,1,2026-05-22T03:51:30.310276+05:30
Durgapur,West Bengal,23.5204,87.3119,28.9,95,0.0,991.1,9.0,30.2,161,75.9,67.5,29.8,520.0,41.0,34.7,7,5,7,1,2026-05-22T03:51:30.310312+05:30
Asansol,West Bengal,23.6739,86.9524,28.8,94,0.0,989.9,9.05,30.6,160,73.3,66.1,31.9,605.0,44.0,41.7,7,5,7,1,2026-05-22T03:51:30.310324+05:30
Pondicherry,Puducherry,11.9139,79.8145,29.2,70,0.0,1005.8,8.95,45.4,67,16.5,14.6,16.7,340.0,41.0,5.9,7,5,4,1,2026-05-22T03:51:30.310334+05:30
Port Blair,Andaman and Nicobar Islands,11.6234,92.7265,24.9,98,0.1,1005.4,3.7,39.2,28,8.2,5.4,0.3,116.0,64.0,0.3,6,5,0,1,2026-05-22T03:51:30.310344+05:30
Haridwar,Uttarakhand,29.9457,78.1642,26.9,53,0.0,968.9,7.55,33.1,130,64.5,46.2,31.3,265.0,35.0,9.4,4,5,7,1,2026-05-22T03:51:30.310354+05:30
Rishikesh,Uttarakhand,30.0869,78.2676,23.0,66,0.0,961.4,7.7,27.0,109,64.0,41.9,20.2,266.0,59.0,8.3,3,5,7,1,2026-05-22T03:51:30.310364+05:30
Nainital,Uttarakhand,29.3919,79.4542,16.8,54,0.0,803.8,8.5,45.4,153,204.4,66.4,22.3,265.0,76.0,7.2,0,5,7,0,2026-05-22T03:51:30.310390+05:30
Mussoorie,Uttarakhand,30.4599,78.0664,18.8,36,0.0,801.8,8.1,51.1,105,63.1,42.5,42.7,213.0,16.0,7.6,0,5,7,0,2026-05-22T03:51:30.310398+05:30
Dharamshala,Himachal Pradesh,32.219,76.3234,23.5,30,0.0,867.4,8.3,52.6,51,13.7,8.6,11.1,171.0,39.0,0.0,0,5,7,0,2026-05-22T03:51:30.310405+05:30
Dalhousie,Himachal Pradesh,32.5387,75.971,13.3,57,0.0,800.7,6.95,62.3,71,31.1,19.8,36.2,249.0,6.0,0.9,0,5,7,0,2026-05-22T03:51:30.310414+05:30
Patiala,Punjab,30.3398,76.3869,28.9,39,0.0,972.8,7.7,54.0,152,314.8,61.7,13.3,482.0,51.0,6.3,4,5,7,0,2026-05-22T03:51:30.310422+05:30
Bhatinda,Punjab,30.211,74.9455,30.7,34,0.0,979.2,8.35,40.3,106,71.5,29.9,14.4,261.0,53.0,6.5,0,5,7,0,2026-05-22T03:51:30.310429+05:30
Rohtak,Haryana,28.8955,76.6066,30.5,25,0.0,977.1,7.8,30.2,947,705.9,130.4,15.5,177.0,53.0,3.6,0,5,7,0,2026-05-22T03:51:30.310436+05:30
Panipat,Haryana,29.3909,76.9635,31.6,24,0.0,975.4,7.6,43.9,1715,1367.2,219.8,19.1,253.0,42.0,4.7,0,5,7,0,2026-05-22T03:51:30.310444+05:30
Mathura,Uttar Pradesh,27.4924,77.6737,31.5,22,0.0,982.1,8.0,32.4,864,1076.6,141.6,8.4,166.0,66.0,3.8,0,5,7,0,2026-05-22T03:51:30.310451+05:30
Vrindavan,Uttar Pradesh,27.5823,77.7027,31.2,23,0.0,982.5,8.0,32.0,864,1076.6,141.6,8.4,171.0,66.0,3.8,0,5,7,0,2026-05-22T03:51:30.310458+05:30
Ayodhya,Uttar Pradesh,26.7922,82.1998,29.3,79,0.0,991.2,8.4,29.5,158,73.3,68.0,13.4,491.0,86.0,10.9,7,5,7,1,2026-05-22T03:51:30.310465+05:30
Ratlam,Madhya Pradesh,23.3315,75.0367,29.9,33,0.0,953.3,8.6,38.9,74,47.1,26.5,5.8,194.0,76.0,10.2,4,5,7,0,2026-05-22T03:51:30.310472+05:30
Sagar,Madhya Pradesh,23.8388,78.7378,30.4,18,0.0,947.3,8.75,39.6,58,29.3,15.8,8.1,168.0,69.0,4.3,0,5,7,0,2026-05-22T03:51:30.310479+05:30
Satna,Madhya Pradesh,24.6005,80.8322,30.8,24,0.0,967.0,8.8,38.9,67,25.4,14.8,10.3,173.0,71.0,4.4,0,5,7,0,2026-05-22T03:51:30.310486+05:30
Akola,Maharashtra,20.7002,77.0082,33.8,30,0.0,971.7,8.9,47.2,82,41.4,26.5,9.6,227.0,66.0,6.5,0,5,7,0,2026-05-22T03:51:30.310495+05:30
Amravati,Maharashtra,20.9374,77.7796,34.4,27,0.0,963.7,8.9,42.1,82,39.9,27.8,13.3,224.0,59.0,5.2,0,5,7,0,2026-05-22T03:51:30.310504+05:30
Latur,Maharashtra,18.4088,76.5604,30.0,55,0.0,937.5,9.0,42.8,83,28.8,23.3,7.0,208.0,91.0,8.6,4,5,7,1,2026-05-22T03:51:30.310512+05:30
Nanded,Maharashtra,19.1383,77.3091,34.2,35,0.0,965.2,9.0,39.6,94,47.3,37.5,20.8,174.0,48.0,6.4,0,5,7,1,2026-05-22T03:51:30.310520+05:30
Gulbarga,Karnataka,17.3297,76.8343,29.5,62,0.0,956.7,8.75,62.6,80,10.9,9.4,8.1,195.0,56.0,2.9,7,5,7,1,2026-05-22T03:51:30.310527+05:30
Bidar,Karnataka,17.9104,77.5199,29.1,57,0.0,932.9,9.05,42.8,92,37.1,29.3,8.0,215.0,89.0,5.0,4,5,7,1,2026-05-22T03:51:30.310534+05:30
Hospet,Karnataka,15.2689,76.3909,25.0,85,0.2,955.2,8.25,43.9,37,5.9,5.1,6.4,148.0,42.0,1.4,10,5,7,1,2026-05-22T03:51:30.310541+05:30
Tirupur,Tamil Nadu,11.1085,77.3411,26.6,80,0.0,973.7,9.05,61.9,42,13.4,12.1,17.1,145.0,29.0,4.3,7,5,7,1,2026-05-22T03:51:30.310548+05:30
Alappuzha,Kerala,9.4981,76.3388,26.2,93,0.0,1008.1,8.35,36.0,41,10.4,8.2,10.4,97.0,38.0,2.8,7,0,4,1,2026-05-22T03:51:30.310555+05:30
Munnar,Kerala,10.0889,77.0595,17.0,98,0.0,855.2,6.45,31.7,22,6.7,6.0,7.4,117.0,26.0,1.4,3,10,7,1,2026-05-22T03:51:30.310563+05:30
Silchar,Assam,24.8333,92.7789,25.6,99,0.2,1003.0,8.9,32.0,106,47.4,36.4,8.7,323.0,75.0,5.8,10,5,4,1,2026-05-22T03:51:30.310570+05:30
Dibrugarh,Assam,27.4728,94.912,25.6,95,0.2,993.2,8.95,22.3,91,28.9,26.7,26.0,522.0,12.0,1.1,10,5,7,1,2026-05-22T03:51:30.310577+05:30
