city,state,latitude,longitude,temp,humidity,rain,pressure,uv_index,wind_gusts,aqi,pm10,pm2_5,no2,co,o3,so2,mosquito_risk,arthritis_risk,migraine_risk,frizz_risk,updated_at
Delhi,Delhi,28.6139,77.209,36.5,34,0.0,978.5,7.75,28.1,256,318.5,71.9,9.6,331.0,116.0,14.8,0,5,10,1,2026-06-24T10:33:00.652829+05:30
Mumbai,Maharashtra,19.076,72.8777,25.1,93,0.3,1007.9,0.75,31.3,45,30.5,14.0,13.1,357.0,55.0,9.4,10,5,0,1,2026-06-24T10:33:00.652876+05:30
Bangalore,Karnataka,12.9716,77.5946,24.6,67,0.0,912.9,7.9,60.1,26,11.7,7.2,5.5,290.0,53.0,3.5,3,5,7,1,2026-06-24T10:33:00.652892+05:30
Hyderabad,Telangana,17.385,78.4867,28.5,59,0.0,951.7,6.5,42.8,24,3.7,3.6,2.9,203.0,68.0,3.0,4,5,7,1,2026-06-24T10:33:00.652902+05:30
Chennai,Tamil Nadu,13.0827,80.2707,32.1,52,0.0,1006.6,8.85,47.5,61,21.9,16.6,11.4,397.0,92.0,12.6,0,5,4,1,2026-06-24T10:33:00.652910+05:30
Kolkata,West Bengal,22.5726,88.3639,30.7,71,0.0,1001.7,8.85,21.2,150,61.7,52.4,5.3,460.0,161.0,19.3,3,5,4,1,2026-06-24T10:33:00.652918+05:30
Pune,Maharashtra,18.5204,73.8567,24.8,79,0.1,946.9,3.8,38.5,20,5.4,4.1,6.9,189.0,60.0,6.4,6,5,3,1,2026-06-24T10:33:00.652925+05:30
Ahmedabad,Gujarat,23.0225,72.5714,34.5,49,0.0,999.0,8.05,42.8,74,54.6,20.3,2.1,137.0,66.0,2.9,0,5,7,1,2026-06-24T10:33:00.652932+05:30
Jaipur,Rajasthan,26.9124,75.7873,31.8,48,0.0,956.8,8.2,49.3,114,161.1,43.0,4.1,217.0,93.0,6.1,0,5,7,1,2026-06-24T10:33:00.652938+05:30
Lucknow,Uttar Pradesh,26.8467,80.9462,38.5,30,0.0,988.4,8.3,33.5,152,208.2,57.5,2.9,250.0,125.0,6.4,0,5,10,1,2026-06-24T10:33:00.652955+05:30
Kanpur,Uttar Pradesh,26.4499,80.3319,38.2,31,0.0,986.9,8.3,33.8,194,417.2,82.7,2.6,188.0,126.0,5.8,0,5,10,1,2026-06-24T10:33:00.652962+05:30
Chandigarh,Chandigarh,30.7333,76.7794,34.7,38,0.0,964.7,7.8,31.7,99,41.9,30.5,3.7,437.0,183.0,12.1,0,5,7,1,2026-06-24T10:33:00.652969+05:30
Srinagar,Jammu and Kashmir,34.0837,74.7973,25.0,48,0.0,841.4,9.1,19.1,72,16.2,13.6,3.0,389.0,146.0,4.3,4,5,7,0,2026-06-24T10:33:00.652977+05:30
Jammu,Jammu and Kashmir,32.7266,74.857,34.6,38,0.0,968.4,8.65,29.5,80,38.0,24.4,3.9,298.0,165.0,6.1,0,5,7,1,2026-06-24T10:33:00.652984+05:30
Amritsar,Punjab,31.634,74.8723,33.2,49,0.0,976.4,8.45,41.4,124,93.8,45.9,5.8,314.0,151.0,9.2,0,5,7,1,2026-06-24T10:33:00.652990+05:30
Ludhiana,Punjab,30.901,75.8573,35.5,39,0.0,974.2,8.0,37.4,150,231.4,67.3,6.1,442.0,163.0,11.9,0,5,10,1,2026-06-24T10:33:00.652996+05:30
Jalandhar,Punjab,31.326,75.5762,35.9,34,0.0,975.1,8.25,27.4,136,142.5,56.7,7.1,390.0,166.0,10.2,0,5,10,1,2026-06-24T10:33:00.653003+05:30
Dehradun,Uttarakhand,30.6284,78.0322,24.1,52,0.0,830.6,7.7,26.6,63,16.8,15.6,0.8,190.0,153.0,2.7,0,5,7,0,2026-06-24T10:33:00.653010+05:30
Shimla,Himachal Pradesh,31.1048,77.1734,22.3,41,0.1,785.6,7.7,33.1,64,17.5,12.1,0.8,216.0,140.0,2.5,3,5,7,0,2026-06-24T10:33:00.653016+05:30
Manali,Himachal Pradesh,32.2396,77.1887,25.1,47,0.0,819.1,8.0,38.5,41,5.5,4.5,5.9,159.0,113.0,0.4,4,5,7,0,2026-06-24T10:33:00.653025+05:30
Gurgaon,Haryana,28.4595,77.0266,35.1,39,0.0,977.2,7.8,24.1,552,1143.7,155.5,7.4,265.0,117.0,9.7,0,5,10,1,2026-06-24T10:33:00.653034+05:30
Noida,Uttar Pradesh,28.5355,77.391,35.0,41,0.0,980.0,7.8,24.8,552,1143.7,155.5,7.4,378.0,117.0,9.7,0,5,7,1,2026-06-24T10:33:00.653040+05:30
Ghaziabad,Uttar Pradesh,28.6692,77.4538,35.5,39,0.0,978.3,7.75,17.3,231,425.6,96.4,11.1,274.0,140.0,23.9,0,5,10,1,2026-06-24T10:33:00.653046+05:30
Faridabad,Haryana,28.4089,77.3178,34.6,42,0.0,979.4,7.8,24.1,552,1143.7,155.5,7.4,281.0,117.0,9.7,0,5,7,1,2026-06-24T10:33:00.653053+05:30
Meerut,Uttar Pradesh,28.9845,77.7064,34.5,45,0.0,977.2,7.7,23.0,231,425.6,96.4,11.1,240.0,140.0,23.9,0,5,7,1,2026-06-24T10:33:00.653059+05:30
Agra,Uttar Pradesh,27.1767,78.0081,35.6,37,0.0,983.5,8.1,28.8,219,514.1,73.1,5.0,179.0,120.0,4.9,0,5,10,1,2026-06-24T10:33:00.653068+05:30
Varanasi,Uttar Pradesh,25.3176,82.9739,37.3,39,0.0,992.6,8.75,43.9,113,47.4,23.2,2.8,235.0,128.0,7.7,0,5,10,1,2026-06-24T10:33:00.653074+05:30
Prayagraj,Uttar Pradesh,25.4358,81.8463,36.9,40,0.0,991.2,8.2,38.5,112,106.6,38.5,2.9,195.0,138.0,8.7,0,5,10,1,2026-06-24T10:33:00.653081+05:30
Gorakhpur,Uttar Pradesh,26.7606,83.3732,35.9,47,0.0,992.1,8.6,28.1,155,141.6,80.3,5.5,382.0,203.0,14.0,0,5,10,1,2026-06-24T10:33:00.653087+05:30
Bareilly,Uttar Pradesh,28.367,79.4304,35.6,40,0.0,982.2,8.1,26.3,152,302.7,87.1,5.8,286.0,154.0,12.8,0,5,10,1,2026-06-24T10:33:00.653095+05:30
Aligarh,Uttar Pradesh,27.8974,78.088,35.0,39,0.0,981.4,7.95,32.4,359,525.3,82.7,4.4,217.0,117.0,8.0,0,5,7,1,2026-06-24T10:33:00.653101+05:30
Moradabad,Uttar Pradesh,28.8386,78.7733,35.6,41,0.0,979.3,7.9,29.2,162,431.2,112.0,8.8,283.0,168.0,20.4,0,5,10,1,2026-06-24T10:33:00.653107+05:30
Saharanpur,Uttar Pradesh,29.9637,77.546,33.4,51,0.0,971.5,7.45,25.6,154,77.1,34.6,4.8,362.0,184.0,11.3,0,5,7,1,2026-06-24T10:33:00.653113+05:30
Jhansi,Uttar Pradesh,25.4484,78.5685,32.3,49,0.0,974.6,8.45,41.4,82,39.6,21.4,2.5,164.0,111.0,9.1,0,5,7,1,2026-06-24T10:33:04.042290+05:30
Surat,Gujarat,21.1702,72.8311,31.0,69,0.0,1004.4,1.2,50.4,75,72.6,31.3,15.6,469.0,50.0,45.1,3,5,0,1,2026-06-24T10:33:04.042325+05:30
Vadodara,Gujarat,22.3072,73.1812,33.4,55,0.0,1001.5,5.55,50.0,71,55.6,24.3,4.0,156.0,75.0,8.2,0,5,0,1,2026-06-24T10:33:04.042336+05:30
Rajkot,Gujarat,22.3039,70.8022,34.0,46,0.0,991.3,7.55,45.4,70,44.6,18.5,2.0,104.0,69.0,4.5,0,5,7,1,2026-06-24T10:33:04.042345+05:30
Thane,Maharashtra,19.2183,72.9781,24.9,98,0.1,1007.1,0.7,31.3,45,30.5,14.0,13.1,305.0,55.0,9.4,6,5,0,1,2026-06-24T10:33:04.042353+05:30
Nagpur,Maharashtra,21.1458,79.0882,29.6,66,0.0,971.2,8.8,25.2,42,10.0,10.0,12.8,207.0,81.0,36.2,7,5,7,1,2026-06-24T10:33:04.042361+05:30
Nashik,Maharashtra,19.9975,73.7898,25.2,77,0.0,943.9,1.05,40.3,19,5.2,2.8,6.6,125.0,52.0,1.7,7,5,3,1,2026-06-24T10:33:04.042368+05:30
Aurangabad,Maharashtra,19.8762,75.3433,23.5,93,0.4,942.1,5.65,36.4,24,15.4,7.2,5.4,148.0,58.0,5.5,6,5,3,1,2026-06-24T10:33:04.042375+05:30
Solapur,Maharashtra,17.6599,75.9064,30.2,51,0.0,956.2,5.2,57.6,21,5.6,3.2,1.6,127.0,71.0,1.7,0,5,3,1,2026-06-24T10:33:04.042382+05:30
Kolhapur,Maharashtra,16.705,74.2433,23.3,86,0.2,947.8,4.3,42.1,22,3.6,3.3,4.0,174.0,60.0,1.9,6,5,3,1,2026-06-24T10:33:04.042390+05:30
Goa,Goa,15.2993,74.124,27.0,83,0.1,999.6,6.1,29.5,35,18.2,9.5,1.8,175.0,61.0,1.3,10,5,7,1,2026-06-24T10:33:04.042398+05:30
Jodhpur,Rajasthan,26.2389,73.0243,34.5,46,0.0,978.8,8.4,41.0,138,248.7,55.8,1.2,113.0,70.0,3.1,0,5,7,1,2026-06-24T10:33:04.042404+05:30
Udaipur,Rajasthan,24.5854,73.7125,32.0,49,0.0,943.9,8.75,34.2,71,55.3,22.5,0.9,115.0,73.0,2.9,0,5,7,1,2026-06-24T10:33:04.042411+05:30
Kota,Rajasthan,25.2138,75.8648,35.5,43,0.0,975.1,8.3,35.6,80,69.6,29.7,3.0,167.0,97.0,9.6,0,5,10,1,2026-06-24T10:33:04.042418+05:30
Bikaner,Rajasthan,28.0229,73.3119,36.7,38,0.0,977.0,8.45,40.0,153,304.5,103.8,0.7,134.0,92.0,4.1,0,5,10,1,2026-06-24T10:33:04.042424+05:30
Ajmer,Rajasthan,26.4499,74.6399,27.5,68,0.1,952.0,8.35,39.6,83,121.1,38.6,1.4,125.0,78.0,4.0,10,5,7,1,2026-06-24T10:33:04.042431+05:30
Gwalior,Madhya Pradesh,26.2183,78.1828,35.2,42,0.0,979.2,8.15,36.4,109,54.2,25.7,1.8,149.0,108.0,4.6,0,5,10,1,2026-06-24T10:33:04.042438+05:30
Indore,Madhya Pradesh,22.7196,75.8577,27.7,72,0.0,946.0,7.65,37.1,68,49.2,23.9,4.7,196.0,81.0,9.7,7,5,7,1,2026-06-24T10:33:04.042444+05:30
Bhopal,Madhya Pradesh,23.2599,77.4126,29.2,69,0.0,951.1,3.8,47.2,54,37.3,21.5,2.0,249.0,110.0,5.3,7,5,3,1,2026-06-24T10:33:04.042451+05:30
Jabalpur,Madhya Pradesh,23.1815,79.9864,32.4,53,0.0,959.1,8.55,27.0,53,9.5,8.3,2.0,154.0,106.0,5.4,0,5,7,1,2026-06-24T10:33:04.042457+05:30
Ujjain,Madhya Pradesh,23.1765,75.7885,29.3,68,0.0,951.5,3.8,36.4,74,52.7,26.0,3.2,168.0,80.0,9.6,7,5,3,1,2026-06-24T10:33:04.042464+05:30
Visakhapatnam,Andhra Pradesh,17.6868,83.2185,32.7,59,0.0,1000.5,6.65,38.2,73,22.9,20.0,12.5,414.0,102.0,35.7,0,5,4,1,2026-06-24T10:33:04.042470+05:30
Vijayawada,Andhra Pradesh,16.5062,80.648,32.8,52,0.0,1000.6,8.75,32.0,63,7.5,6.2,2.6,155.0,74.0,5.2,0,5,4,1,2026-06-24T10:33:04.042476+05:30
Guntur,Andhra Pradesh,16.3067,80.4365,32.8,52,0.0,1001.9,8.0,35.6,55,5.6,4.8,2.1,141.0,71.0,4.9,0,5,4,1,2026-06-24T10:33:04.042482+05:30
Nellore,Andhra Pradesh,14.4426,79.9865,33.7,47,0.0,1004.6,8.8,45.7,47,10.5,6.6,2.2,151.0,72.0,4.6,0,5,4,1,2026-06-24T10:33:04.042489+05:30
Kurnool,Andhra Pradesh,15.8281,78.0373,30.6,55,0.0,976.4,6.9,51.1,18,5.8,3.6,1.4,111.0,69.0,2.3,0,5,7,1,2026-06-24T10:33:04.042497+05:30
Kakinada,Andhra Pradesh,16.9891,82.2475,32.3,56,0.0,1004.8,7.9,34.6,65,22.4,17.2,2.5,240.0,104.0,5.1,0,5,4,1,2026-06-24T10:33:04.042503+05:30
Tirupati,Andhra Pradesh,13.6288,79.4192,31.8,49,0.0,990.6,8.7,40.7,47,12.3,8.6,4.0,126.0,71.0,2.4,0,5,7,1,2026-06-24T10:33:04.042509+05:30
Warangal,Telangana,17.9689,79.5941,30.4,57,0.0,976.8,6.75,37.8,43,4.7,4.5,1.9,147.0,70.0,2.7,0,5,7,1,2026-06-24T10:33:04.042516+05:30
Nizamabad,Telangana,18.6725,78.0941,30.6,56,0.1,962.7,6.5,38.5,23,3.6,3.6,3.0,133.0,59.0,3.5,3,5,7,1,2026-06-24T10:33:04.042523+05:30
Mysore,Karnataka,12.2958,76.6396,26.6,63,0.0,930.6,8.7,55.8,22,7.4,4.4,2.3,123.0,60.0,1.6,7,5,7,1,2026-06-24T10:33:04.042529+05:30
Mangalore,Karnataka,12.9141,74.856,25.7,92,0.1,1009.3,8.35,38.9,40,13.2,8.4,4.4,159.0,45.0,1.9,10,0,4,1,2026-06-24T10:33:04.042536+05:30
Hubli-Dharwad,Karnataka,15.3647,75.124,25.5,78,0.1,941.6,5.9,49.3,20,5.8,3.1,2.2,110.0,57.0,1.0,10,5,3,1,2026-06-24T10:33:04.042543+05:30
Belgaum,Karnataka,15.8497,74.4977,23.3,83,0.0,926.0,7.55,46.1,21,5.8,2.9,2.4,119.0,54.0,1.0,3,5,7,1,2026-06-24T10:33:07.265871+05:30
Coimbatore,Tamil Nadu,11.0168,76.9558,29.4,59,0.0,963.8,8.15,50.8,29,8.4,5.6,2.1,177.0,66.0,2.6,4,5,7,1,2026-06-24T10:33:07.265906+05:30
Madurai,Tamil Nadu,9.9252,78.1198,33.9,42,0.0,993.8,7.75,27.4,62,14.3,9.5,5.6,160.0,71.0,4.1,0,5,7,1,2026-06-24T10:33:07.265917+05:30
Trichy,Tamil Nadu,10.7905,78.7047,32.7,47,0.0,1000.2,7.85,46.4,29,16.6,10.6,3.8,124.0,66.0,3.5,0,5,4,1,2026-06-24T10:33:07.265925+05:30
Salem,Tamil Nadu,11.6643,78.146,29.8,61,0.0,978.5,8.7,37.4,50,23.5,16.3,7.1,210.0,90.0,10.3,7,5,7,1,2026-06-24T10:33:07.265934+05:30
Tirunelveli,Tamil Nadu,8.7139,77.7567,34.7,43,0.0,1004.2,8.25,46.8,27,6.7,4.9,2.0,133.0,65.0,1.5,0,5,4,1,2026-06-24T10:33:07.265941+05:30
Vellore,Tamil Nadu,12.9165,79.1325,31.0,53,0.0,984.6,7.7,51.8,39,13.4,9.2,4.2,144.0,73.0,4.1,0,5,7,1,2026-06-24T10:33:07.265949+05:30
Erode,Tamil Nadu,11.341,77.7172,30.7,53,0.0,990.3,8.35,47.5,46,14.4,9.9,4.5,180.0,73.0,3.5,0,5,7,1,2026-06-24T10:33:07.265956+05:30
Kochi,Kerala,9.9312,76.2673,27.9,80,0.0,1011.9,7.05,47.9,48,9.2,6.9,5.4,193.0,58.0,4.1,7,0,4,1,2026-06-24T10:33:07.265963+05:30
Thiruvananthapuram,Kerala,8.5241,76.9366,28.1,78,0.1,1010.8,7.95,43.9,32,10.2,7.0,1.9,131.0,64.0,1.8,10,0,4,1,2026-06-24T10:33:07.265970+05:30
Kozhikode,Kerala,11.2588,75.7804,25.6,92,0.1,1011.4,8.35,43.2,24,9.9,5.5,0.7,138.0,54.0,0.7,10,0,4,1,2026-06-24T10:33:07.265976+05:30
Thrissur,Kerala,10.5276,76.2144,25.3,94,0.2,1010.2,7.4,40.3,49,8.4,6.7,3.8,168.0,59.0,2.7,10,0,4,1,2026-06-24T10:33:07.265983+05:30
Kannur,Kerala,11.8745,75.3704,25.6,94,0.4,1010.4,8.5,39.6,34,8.5,5.1,2.9,128.0,49.0,1.6,10,0,4,1,2026-06-24T10:33:07.265990+05:30
Patna,Bihar,25.5941,85.1376,36.1,44,0.0,995.5,8.85,28.1,164,67.1,51.0,7.2,287.0,178.0,15.1,0,5,10,1,2026-06-24T10:33:07.265997+05:30
Gaya,Bihar,24.7914,85.0002,35.5,47,0.0,989.4,8.9,31.7,133,40.4,29.3,3.4,204.0,145.0,13.7,0,5,10,1,2026-06-24T10:33:07.266004+05:30
Muzaffarpur,Bihar,26.1209,85.3647,32.7,67,0.0,995.9,8.8,30.2,162,102.4,76.1,6.5,476.0,214.0,21.0,3,5,7,1,2026-06-24T10:33:07.266010+05:30
Bhagalpur,Bihar,25.2425,87.0117,33.8,64,0.0,996.6,8.8,25.2,155,104.5,64.3,7.1,379.0,191.0,37.4,3,5,7,1,2026-06-24T10:33:07.266016+05:30
Ranchi,Jharkhand,23.3441,85.3096,31.8,51,0.0,935.2,8.45,34.2,103,38.3,26.3,2.2,194.0,135.0,12.5,0,5,7,1,2026-06-24T10:33:07.266023+05:30
Jamshedpur,Jharkhand,22.8046,86.2029,32.1,65,0.0,987.0,8.75,23.8,133,45.4,38.8,5.3,238.0,158.0,29.2,3,5,7,1,2026-06-24T10:33:07.266030+05:30
Dhanbad,Jharkhand,23.7957,86.4304,34.5,51,0.0,975.8,8.75,29.5,152,69.6,47.5,14.3,218.0,148.0,54.4,0,5,7,1,2026-06-24T10:33:07.266036+05:30
Bokaro,Jharkhand,23.6693,86.1511,35.0,47,0.0,979.6,8.9,31.0,138,62.2,42.4,12.3,225.0,146.0,51.3,0,5,7,1,2026-06-24T10:33:07.266043+05:30
Bhubaneswar,Odisha,20.2961,85.8245,32.2,64,0.0,999.0,9.05,27.4,86,22.9,21.9,5.0,225.0,148.0,13.9,3,5,7,1,2026-06-24T10:33:07.266049+05:30
Cuttack,Odisha,20.4625,85.8828,32.3,64,0.0,1000.7,9.1,32.0,86,22.9,21.9,5.0,275.0,148.0,13.9,3,5,4,1,2026-06-24T10:33:07.266056+05:30
Rourkela,Odisha,22.2604,84.8536,32.4,60,0.0,982.0,8.8,29.5,132,26.3,24.3,4.9,230.0,136.0,18.9,0,5,7,1,2026-06-24T10:33:07.266062+05:30
Raipur,Chhattisgarh,21.2514,81.6296,32.5,55,0.0,972.3,8.75,32.4,65,17.9,17.7,13.9,454.0,93.0,47.6,0,5,7,1,2026-06-24T10:33:07.266069+05:30
Bhilai,Chhattisgarh,21.1938,81.3509,31.4,59,0.0,972.8,8.9,30.6,59,15.5,15.3,12.1,679.0,93.0,41.4,0,5,7,1,2026-06-24T10:33:07.266075+05:30
Guwahati,Assam,26.1158,91.7086,28.9,76,0.0,997.7,8.75,22.7,57,21.9,13.5,2.0,298.0,123.0,3.1,7,5,7,1,2026-06-24T10:33:07.266081+05:30
Agartala,Tripura,23.8315,91.2868,30.4,74,0.0,1002.6,7.8,23.8,69,20.3,17.0,5.6,184.0,116.0,2.9,3,5,4,1,2026-06-24T10:33:07.266087+05:30
Shillong,Meghalaya,25.5788,91.8933,23.6,75,0.1,856.1,7.8,21.6,42,10.7,6.3,2.0,231.0,113.0,3.1,6,5,7,1,2026-06-24T10:33:07.266093+05:30
Imphal,Manipur,24.817,93.9368,27.5,74,0.0,920.4,8.25,28.1,49,9.2,6.7,1.3,184.0,105.0,1.6,7,5,7,1,2026-06-24T10:33:07.266100+05:30
Aizawl,Mizoram,23.7271,92.7176,23.6,82,0.0,890.3,4.85,21.2,23,10.5,6.5,0.8,143.0,95.0,0.8,3,5,3,1,2026-06-24T10:33:07.266106+05:30
Kohima,Nagaland,25.6701,94.1077,20.9,96,0.0,852.9,7.5,26.3,34,5.6,4.4,1.2,185.0,99.0,1.1,3,5,7,1,2026-06-24T10:33:07.266113+05:30
Gangtok,Sikkim,27.3314,88.6138,24.2,61,0.0,836.9,8.85,36.4,72,26.5,13.7,1.2,290.0,139.0,3.7,3,5,7,1,2026-06-24T10:33:07.266120+05:30
Siliguri,West Bengal,26.7271,88.3953,29.1,75,0.0,989.2,8.75,24.1,86,33.3,21.1,2.8,418.0,153.0,9.7,7,5,7,1,2026-06-24T10:33:10.497027+05:30
Durgapur,West Bengal,23.5204,87.3119,32.0,63,0.0,990.5,8.8,26.6,163,88.0,66.6,25.6,533.0,147.0,78.8,3,5,7,1,2026-06-24T10:33:10.497062+05:30
Asansol,West Bengal,23.6739,86.9524,34.0,56,0.0,989.0,8.8,29.9,154,77.3,55.5,19.1,525.0,144.0,58.8,0,5,7,1,2026-06-24T10:33:10.497073+05:30
Pondicherry,Puducherry,11.9139,79.8145,32.2,56,0.0,1008.3,8.55,31.3,62,24.1,19.3,10.9,319.0,87.0,11.7,0,0,4,1,2026-06-24T10:33:10.497083+05:30
Port Blair,Andaman and Nicobar Islands,11.6234,92.7265,31.0,71,0.0,1006.6,8.75,51.5,29,9.9,6.0,0.2,87.0,56.0,0.4,3,5,4,1,2026-06-24T10:33:10.497092+05:30
Haridwar,Uttarakhand,29.9457,78.1642,33.9,48,0.0,969.8,7.6,23.8,104,43.0,25.2,1.7,282.0,173.0,6.1,0,5,7,1,2026-06-24T10:33:10.497100+05:30
Rishikesh,Uttarakhand,30.0869,78.2676,33.2,48,0.0,962.7,7.7,25.2,65,23.4,19.6,1.2,253.0,157.0,4.6,0,5,7,1,2026-06-24T10:33:10.497107+05:30
Nainital,Uttarakhand,29.3919,79.4542,22.8,44,0.1,806.7,7.8,28.8,76,61.7,26.2,1.1,253.0,171.0,6.0,3,5,7,0,2026-06-24T10:33:10.497114+05:30
Mussoorie,Uttarakhand,30.4599,78.0664,21.7,59,0.0,803.6,7.55,39.2,71,20.1,19.2,1.1,240.0,165.0,4.3,0,5,7,0,2026-06-24T10:33:10.497122+05:30
Dharamshala,Himachal Pradesh,32.219,76.3234,25.7,55,0.0,867.9,8.5,42.1,50,16.4,12.5,0.5,259.0,139.0,1.0,4,5,7,0,2026-06-24T10:33:10.497130+05:30
Dalhousie,Himachal Pradesh,32.5387,75.971,22.3,61,0.0,805.1,7.45,33.1,78,31.8,21.9,1.1,242.0,170.0,3.4,3,5,7,0,2026-06-24T10:33:10.497137+05:30
Patiala,Punjab,30.3398,76.3869,35.6,38,0.0,973.9,7.65,27.7,158,568.1,97.1,4.8,302.0,159.0,10.1,0,5,10,1,2026-06-24T10:33:10.497145+05:30
Bhatinda,Punjab,30.211,74.9455,35.7,37,0.0,979.3,8.3,25.2,134,147.6,49.5,4.7,205.0,130.0,13.6,0,5,10,1,2026-06-24T10:33:10.497152+05:30
Rohtak,Haryana,28.8955,76.6066,35.2,39,0.0,977.4,7.75,19.8,303,99.7,37.8,3.3,232.0,109.0,3.3,0,5,10,1,2026-06-24T10:33:10.497159+05:30
Panipat,Haryana,29.3909,76.9635,34.7,43,0.0,976.1,7.65,20.9,668,167.2,50.9,7.2,270.0,99.0,9.3,0,5,7,1,2026-06-24T10:33:10.497167+05:30
Mathura,Uttar Pradesh,27.4924,77.6737,33.2,46,0.0,982.6,8.05,26.6,213,616.5,81.3,5.0,213.0,105.0,2.8,0,5,7,1,2026-06-24T10:33:10.497174+05:30
Vrindavan,Uttar Pradesh,27.5823,77.7027,32.8,48,0.0,983.0,8.05,28.1,213,616.5,81.3,5.0,198.0,105.0,2.8,0,5,7,1,2026-06-24T10:33:10.497181+05:30
Ayodhya,Uttar Pradesh,26.7922,82.1998,36.4,40,0.0,990.2,8.35,29.5,155,206.3,71.5,6.4,280.0,195.0,13.7,0,5,10,1,2026-06-24T10:33:10.497187+05:30
Ratlam,Madhya Pradesh,23.3315,75.0367,30.9,62,0.0,952.4,8.0,41.4,76,52.7,26.0,3.3,139.0,80.0,9.3,3,5,7,1,2026-06-24T10:33:10.497195+05:30
Sagar,Madhya Pradesh,23.8388,78.7378,31.6,55,0.0,947.7,4.85,28.8,57,38.1,18.9,1.4,184.0,109.0,3.7,0,5,3,1,2026-06-24T10:33:10.497201+05:30
Satna,Madhya Pradesh,24.6005,80.8322,34.0,46,0.0,968.0,8.75,38.9,81,72.6,26.2,1.6,164.0,114.0,4.7,0,5,7,1,2026-06-24T10:33:10.497208+05:30
Akola,Maharashtra,20.7002,77.0082,24.9,93,0.4,973.2,8.6,28.1,33,11.8,8.7,4.8,147.0,83.0,7.5,6,5,7,1,2026-06-24T10:33:10.497216+05:30
Amravati,Maharashtra,20.9374,77.7796,28.8,70,0.0,965.2,8.15,39.2,30,11.2,9.1,4.9,161.0,87.0,9.5,7,5,7,1,2026-06-24T10:33:10.497223+05:30
Latur,Maharashtra,18.4088,76.5604,28.5,61,0.1,938.5,3.3,47.2,20,12.5,6.3,3.0,156.0,70.0,2.6,10,5,3,1,2026-06-24T10:33:10.497230+05:30
Nanded,Maharashtra,19.1383,77.3091,26.1,83,0.1,966.4,7.2,36.7,22,4.1,4.1,2.9,141.0,56.0,2.0,10,5,7,1,2026-06-24T10:33:10.497237+05:30
Gulbarga,Karnataka,17.3297,76.8343,30.3,55,0.0,957.6,4.75,68.8,19,5.0,3.0,2.0,124.0,67.0,1.8,0,5,3,1,2026-06-24T10:33:10.497243+05:30
Bidar,Karnataka,17.9104,77.5199,28.3,62,0.1,933.9,7.95,42.8,19,3.9,3.2,2.8,127.0,67.0,2.5,10,5,7,1,2026-06-24T10:33:10.497250+05:30
Hospet,Karnataka,15.2689,76.3909,28.0,65,0.0,956.0,8.3,56.5,20,6.6,3.4,1.6,109.0,64.0,1.6,7,5,7,1,2026-06-24T10:33:10.497256+05:30
Tirupur,Tamil Nadu,11.1085,77.3411,31.6,50,0.0,976.8,8.25,49.3,53,14.5,10.0,4.3,144.0,75.0,4.1,0,5,7,1,2026-06-24T10:33:10.497262+05:30
Alappuzha,Kerala,9.4981,76.3388,28.4,79,0.0,1011.8,7.6,45.0,39,11.0,8.1,4.2,88.0,64.0,3.5,7,0,4,1,2026-06-24T10:33:10.497268+05:30
Munnar,Kerala,10.0889,77.0595,19.5,87,0.0,859.6,7.3,40.3,21,5.8,3.9,1.8,93.0,57.0,1.4,3,10,7,1,2026-06-24T10:33:10.497274+05:30
Silchar,Assam,24.8333,92.7789,30.9,72,0.0,1001.2,8.2,22.7,63,15.9,12.7,1.8,198.0,106.0,3.2,3,5,4,1,2026-06-24T10:33:10.497281+05:30
Dibrugarh,Assam,27.4728,94.912,30.2,74,0.0,991.2,8.55,29.2,69,17.9,13.8,1.3,201.0,129.0,1.3,3,5,7,1,2026-06-24T10:33:10.497288+05:30
