city,state,latitude,longitude,temp,humidity,rain,pressure,uv_index,wind_gusts,aqi,pm10,pm2_5,no2,co,o3,so2,mosquito_risk,arthritis_risk,migraine_risk,frizz_risk,updated_at
Delhi,Delhi,28.6139,77.209,32.9,52,0.0,978.2,7.75,33.8,162,312.9,130.4,78.8,814.0,18.0,31.2,0,5,7,1,2026-06-27T02:50:59.258542+05:30
Mumbai,Maharashtra,19.076,72.8777,26.5,91,0.1,1006.0,6.8,36.4,61,22.9,12.8,9.9,271.0,41.0,6.7,10,5,4,1,2026-06-27T02:50:59.258586+05:30
Bangalore,Karnataka,12.9716,77.5946,20.6,93,0.0,910.1,9.1,47.5,31,9.8,7.4,12.0,197.0,41.0,4.8,3,5,7,1,2026-06-27T02:50:59.258601+05:30
Hyderabad,Telangana,17.385,78.4867,24.8,86,0.0,950.1,6.35,35.6,66,35.0,22.6,9.7,231.0,66.0,5.3,3,5,7,1,2026-06-27T02:50:59.258611+05:30
Chennai,Tamil Nadu,13.0827,80.2707,28.4,77,0.0,1003.8,8.0,40.7,64,19.3,15.0,15.5,231.0,50.0,7.9,7,5,4,1,2026-06-27T02:50:59.258619+05:30
Kolkata,West Bengal,22.5726,88.3639,27.6,92,0.0,1002.6,8.85,33.5,88,31.4,28.9,14.7,296.0,49.0,6.1,7,5,4,1,2026-06-27T02:50:59.258626+05:30
Pune,Maharashtra,18.5204,73.8567,23.1,90,0.0,945.4,7.95,40.7,43,13.8,11.1,13.9,128.0,28.0,9.1,3,5,7,1,2026-06-27T02:50:59.258633+05:30
Ahmedabad,Gujarat,23.0225,72.5714,31.7,52,0.0,998.2,8.05,34.2,69,37.5,18.7,5.9,108.0,46.0,3.3,0,5,7,1,2026-06-27T02:50:59.258640+05:30
Jaipur,Rajasthan,26.9124,75.7873,28.6,68,0.0,955.9,8.2,26.3,99,188.6,48.1,12.7,216.0,43.0,4.9,7,5,7,1,2026-06-27T02:50:59.258647+05:30
Lucknow,Uttar Pradesh,26.8467,80.9462,32.9,50,0.0,988.6,8.2,26.6,126,86.6,42.3,12.3,240.0,87.0,6.1,0,5,7,1,2026-06-27T02:50:59.258657+05:30
Kanpur,Uttar Pradesh,26.4499,80.3319,33.5,51,0.0,987.0,7.95,28.4,130,74.7,38.0,16.1,213.0,64.0,5.0,0,5,7,1,2026-06-27T02:50:59.258664+05:30
Chandigarh,Chandigarh,30.7333,76.7794,28.2,71,0.0,964.4,7.8,26.6,151,90.6,68.0,62.0,796.0,8.0,6.7,7,5,7,1,2026-06-27T02:50:59.258671+05:30
Srinagar,Jammu and Kashmir,34.0837,74.7973,17.9,82,0.0,839.9,9.1,23.8,80,34.3,33.6,32.6,556.0,1.0,1.0,3,10,7,0,2026-06-27T02:50:59.258678+05:30
Jammu,Jammu and Kashmir,32.7266,74.857,28.5,68,0.0,968.4,8.65,28.4,140,115.0,71.2,55.2,497.0,33.0,8.8,7,5,7,1,2026-06-27T02:50:59.258684+05:30
Amritsar,Punjab,31.634,74.8723,28.5,84,0.0,976.1,8.5,12.6,152,101.5,78.7,38.0,804.0,47.0,6.7,7,5,7,1,2026-06-27T02:50:59.258691+05:30
Ludhiana,Punjab,30.901,75.8573,31.1,64,0.0,973.9,8.05,27.4,157,126.2,96.2,67.0,931.0,13.0,12.2,3,5,7,1,2026-06-27T02:50:59.258697+05:30
Jalandhar,Punjab,31.326,75.5762,30.6,63,0.0,975.1,8.25,27.0,153,123.4,95.0,62.0,696.0,16.0,9.2,3,5,7,1,2026-06-27T02:50:59.258704+05:30
Dehradun,Uttarakhand,30.6284,78.0322,16.8,98,0.0,828.5,7.9,36.4,73,33.1,22.8,31.3,213.0,22.0,0.4,3,10,7,1,2026-06-27T02:50:59.258711+05:30
Shimla,Himachal Pradesh,31.1048,77.1734,12.7,97,0.0,781.2,4.85,34.2,86,51.0,31.5,17.3,307.0,61.0,0.0,3,10,3,0,2026-06-27T02:50:59.258720+05:30
Manali,Himachal Pradesh,32.2396,77.1887,14.7,88,0.0,816.3,8.25,34.6,48,8.6,8.2,48.9,228.0,66.0,0.0,3,10,7,0,2026-06-27T02:50:59.258728+05:30
Gurgaon,Haryana,28.4595,77.0266,30.4,65,0.0,976.5,7.55,28.4,155,202.6,89.6,64.8,598.0,11.0,20.5,3,5,7,1,2026-06-27T02:50:59.258735+05:30
Noida,Uttar Pradesh,28.5355,77.391,30.7,67,0.0,979.4,7.8,20.9,155,202.6,89.6,64.8,977.0,11.0,20.5,3,5,7,1,2026-06-27T02:50:59.258741+05:30
Ghaziabad,Uttar Pradesh,28.6692,77.4538,28.2,81,0.0,977.5,7.75,17.3,161,211.9,118.0,71.9,1213.0,30.0,28.1,7,5,7,1,2026-06-27T02:50:59.258747+05:30
Faridabad,Haryana,28.4089,77.3178,31.5,58,0.0,978.8,7.8,33.5,155,202.6,89.6,64.8,753.0,11.0,20.5,0,5,7,1,2026-06-27T02:50:59.258753+05:30
Meerut,Uttar Pradesh,28.9845,77.7064,31.5,54,0.0,976.6,7.55,25.2,161,211.9,118.0,71.9,723.0,30.0,28.1,0,5,7,1,2026-06-27T02:50:59.258760+05:30
Agra,Uttar Pradesh,27.1767,78.0081,31.5,58,0.0,982.7,8.1,28.8,145,77.1,42.7,38.9,331.0,21.0,7.7,0,5,7,1,2026-06-27T02:50:59.258766+05:30
Varanasi,Uttar Pradesh,25.3176,82.9739,29.8,78,0.0,993.6,7.9,21.2,96,29.6,26.4,14.4,235.0,76.0,7.6,7,5,7,1,2026-06-27T02:50:59.258772+05:30
Prayagraj,Uttar Pradesh,25.4358,81.8463,30.7,75,0.0,991.8,8.7,27.7,107,35.4,27.2,13.5,254.0,71.0,7.0,3,5,7,1,2026-06-27T02:50:59.258779+05:30
Gorakhpur,Uttar Pradesh,26.7606,83.3732,29.8,74,0.0,993.6,8.3,27.7,151,102.2,81.0,30.2,520.0,49.0,10.7,7,5,7,1,2026-06-27T02:50:59.258785+05:30
Bareilly,Uttar Pradesh,28.367,79.4304,31.1,58,0.0,981.9,8.1,26.3,153,133.6,90.1,56.3,477.0,37.0,18.3,0,5,7,1,2026-06-27T02:50:59.258793+05:30
Aligarh,Uttar Pradesh,27.8974,78.088,30.2,69,0.0,980.2,7.35,24.8,147,149.0,65.7,46.6,432.0,19.0,6.9,3,5,7,1,2026-06-27T02:50:59.258799+05:30
Moradabad,Uttar Pradesh,28.8386,78.7733,30.9,51,0.0,978.9,7.95,29.2,156,175.1,118.3,69.5,644.0,12.0,17.2,0,5,7,1,2026-06-27T02:50:59.258805+05:30
Saharanpur,Uttar Pradesh,29.9637,77.546,29.5,65,0.0,971.2,7.45,22.0,160,293.4,144.4,88.5,837.0,2.0,24.4,7,5,7,1,2026-06-27T02:50:59.258812+05:30
Jhansi,Uttar Pradesh,25.4484,78.5685,31.1,54,0.0,973.7,8.45,32.8,88,45.4,25.7,12.3,154.0,53.0,2.8,0,5,7,1,2026-06-27T02:51:02.519056+05:30
Surat,Gujarat,21.1702,72.8311,28.8,80,0.0,1003.4,7.6,42.1,85,40.4,23.4,18.6,275.0,30.0,31.8,7,5,4,1,2026-06-27T02:51:02.519090+05:30
Vadodara,Gujarat,22.3072,73.1812,30.6,69,0.0,1000.4,8.0,41.0,77,29.9,21.0,18.4,118.0,25.0,12.9,3,5,4,1,2026-06-27T02:51:02.519126+05:30
Rajkot,Gujarat,22.3039,70.8022,28.8,71,0.0,991.2,7.55,45.4,65,35.5,16.6,7.2,97.0,38.0,6.8,7,5,7,1,2026-06-27T02:51:02.519137+05:30
Thane,Maharashtra,19.2183,72.9781,26.4,90,0.0,1005.3,6.5,33.1,61,22.9,12.8,9.9,264.0,41.0,6.7,7,5,4,1,2026-06-27T02:51:02.519145+05:30
Nagpur,Maharashtra,21.1458,79.0882,26.4,94,0.0,969.5,8.85,31.0,79,28.4,25.3,22.0,251.0,34.0,11.9,7,5,7,1,2026-06-27T02:51:02.519152+05:30
Nashik,Maharashtra,19.9975,73.7898,23.4,94,0.0,942.7,7.9,38.2,52,19.3,12.6,11.7,121.0,33.0,11.2,3,5,7,1,2026-06-27T02:51:02.519160+05:30
Aurangabad,Maharashtra,19.8762,75.3433,24.8,83,0.0,941.2,7.3,29.2,60,18.2,11.9,7.9,147.0,53.0,7.9,3,5,7,1,2026-06-27T02:51:02.519167+05:30
Solapur,Maharashtra,17.6599,75.9064,26.7,73,0.0,954.7,1.6,39.6,58,19.2,13.5,10.1,144.0,42.0,4.2,7,5,3,1,2026-06-27T02:51:02.519175+05:30
Kolhapur,Maharashtra,16.705,74.2433,22.9,91,0.0,945.9,6.35,37.1,40,18.7,15.3,10.2,119.0,27.0,1.6,3,5,7,1,2026-06-27T02:51:02.519183+05:30
Goa,Goa,15.2993,74.124,25.2,98,0.0,996.6,7.4,29.5,46,20.2,13.5,5.3,325.0,39.0,1.6,7,5,7,1,2026-06-27T02:51:02.519190+05:30
Jodhpur,Rajasthan,26.2389,73.0243,28.1,76,0.0,978.4,8.45,25.9,98,95.0,30.9,10.5,196.0,40.0,2.2,7,5,7,1,2026-06-27T02:51:02.519197+05:30
Udaipur,Rajasthan,24.5854,73.7125,26.6,71,0.0,942.7,8.65,29.2,75,46.2,22.6,14.2,138.0,38.0,2.7,7,5,7,1,2026-06-27T02:51:02.519204+05:30
Kota,Rajasthan,25.2138,75.8648,29.0,69,0.0,974.7,8.3,28.1,91,37.6,22.4,8.5,252.0,58.0,4.7,7,5,7,1,2026-06-27T02:51:02.519211+05:30
Bikaner,Rajasthan,28.0229,73.3119,30.9,58,0.0,977.0,8.45,29.5,115,117.3,42.7,3.5,120.0,60.0,2.2,0,5,7,1,2026-06-27T02:51:02.519218+05:30
Ajmer,Rajasthan,26.4499,74.6399,27.1,70,0.0,951.0,8.35,35.6,86,39.0,21.8,7.9,149.0,52.0,3.7,7,5,7,1,2026-06-27T02:51:02.519225+05:30
Gwalior,Madhya Pradesh,26.2183,78.1828,31.5,54,0.0,978.7,7.65,29.9,74,42.1,24.4,8.3,157.0,57.0,2.0,0,5,7,1,2026-06-27T02:51:02.519232+05:30
Indore,Madhya Pradesh,22.7196,75.8577,26.0,80,0.0,944.4,8.6,29.5,92,39.2,26.6,14.5,473.0,47.0,5.0,7,5,7,1,2026-06-27T02:51:02.519239+05:30
Bhopal,Madhya Pradesh,23.2599,77.4126,26.2,83,0.0,950.1,8.65,24.5,89,37.4,29.6,10.5,330.0,53.0,3.9,7,5,7,1,2026-06-27T02:51:02.519246+05:30
Jabalpur,Madhya Pradesh,23.1815,79.9864,28.0,81,0.0,958.0,8.85,23.4,69,25.8,22.9,13.3,345.0,56.0,3.5,7,5,7,1,2026-06-27T02:51:02.519253+05:30
Ujjain,Madhya Pradesh,23.1765,75.7885,26.6,79,0.0,950.0,8.5,31.7,90,44.7,29.5,10.1,540.0,51.0,4.5,7,5,7,1,2026-06-27T02:51:02.519261+05:30
Visakhapatnam,Andhra Pradesh,17.6868,83.2185,28.8,91,0.0,998.8,6.45,40.0,89,41.4,36.4,39.1,554.0,50.0,53.6,7,5,7,1,2026-06-27T02:51:02.519269+05:30
Vijayawada,Andhra Pradesh,16.5062,80.648,29.9,70,0.0,998.3,8.35,29.9,78,29.3,25.8,12.8,253.0,60.0,4.4,7,5,7,1,2026-06-27T02:51:02.519275+05:30
Guntur,Andhra Pradesh,16.3067,80.4365,29.8,67,0.0,999.8,7.7,40.3,74,27.2,22.8,12.0,167.0,63.0,4.7,7,5,7,1,2026-06-27T02:51:02.519283+05:30
Nellore,Andhra Pradesh,14.4426,79.9865,27.8,78,0.0,1003.1,8.1,37.4,54,15.8,11.8,7.8,143.0,62.0,4.4,7,5,4,1,2026-06-27T02:51:02.519291+05:30
Kurnool,Andhra Pradesh,15.8281,78.0373,25.3,94,0.1,974.8,8.05,37.1,56,23.6,15.9,12.5,156.0,46.0,3.7,10,5,7,1,2026-06-27T02:51:02.519299+05:30
Kakinada,Andhra Pradesh,16.9891,82.2475,28.7,84,0.0,1002.5,6.95,38.9,68,26.1,22.6,9.0,630.0,80.0,6.6,7,5,4,1,2026-06-27T02:51:02.519306+05:30
Tirupati,Andhra Pradesh,13.6288,79.4192,26.4,80,0.0,988.5,8.35,31.0,50,17.3,14.8,25.1,174.0,12.0,2.5,7,5,7,1,2026-06-27T02:51:02.519313+05:30
Warangal,Telangana,17.9689,79.5941,27.8,74,0.0,974.9,6.7,33.8,73,27.1,21.5,9.7,286.0,61.0,2.9,7,5,7,1,2026-06-27T02:51:02.519320+05:30
Nizamabad,Telangana,18.6725,78.0941,25.2,95,0.0,961.6,7.25,39.2,73,23.8,17.9,8.3,254.0,62.0,2.0,7,5,7,1,2026-06-27T02:51:02.519327+05:30
Mysore,Karnataka,12.2958,76.6396,21.5,94,0.0,927.3,9.0,42.8,26,9.0,6.4,7.2,122.0,39.0,2.2,3,5,7,1,2026-06-27T02:51:02.519334+05:30
Mangalore,Karnataka,12.9141,74.856,24.2,99,0.1,1006.4,8.65,39.2,40,15.9,9.6,6.4,172.0,40.0,2.7,6,5,4,1,2026-06-27T02:51:02.519341+05:30
Hubli-Dharwad,Karnataka,15.3647,75.124,22.0,97,0.0,939.1,8.4,42.1,20,4.9,3.2,3.8,113.0,40.0,1.3,3,5,7,1,2026-06-27T02:51:02.519349+05:30
Belgaum,Karnataka,15.8497,74.4977,21.2,98,0.0,923.5,8.5,39.2,30,13.6,8.7,5.7,98.0,36.0,1.3,3,5,7,1,2026-06-27T02:51:05.764355+05:30
Coimbatore,Tamil Nadu,11.0168,76.9558,24.3,90,0.0,960.2,8.85,42.8,32,11.5,7.6,6.3,201.0,36.0,3.2,3,5,7,1,2026-06-27T02:51:05.764392+05:30
Madurai,Tamil Nadu,9.9252,78.1198,28.7,61,0.0,991.0,8.6,35.6,70,29.9,28.1,36.4,139.0,3.0,7.5,7,5,7,1,2026-06-27T02:51:05.764404+05:30
Trichy,Tamil Nadu,10.7905,78.7047,28.4,65,0.0,997.5,8.6,47.5,43,12.1,8.2,8.1,131.0,31.0,3.3,7,5,7,1,2026-06-27T02:51:05.764414+05:30
Salem,Tamil Nadu,11.6643,78.146,26.8,79,0.0,975.8,8.85,32.8,59,17.9,15.2,20.1,387.0,28.0,7.1,7,5,7,1,2026-06-27T02:51:05.764423+05:30
Tirunelveli,Tamil Nadu,8.7139,77.7567,28.4,65,0.0,1001.6,7.95,40.0,27,9.7,7.3,6.4,155.0,38.0,2.4,7,5,4,1,2026-06-27T02:51:05.764431+05:30
Vellore,Tamil Nadu,12.9165,79.1325,27.2,68,0.0,982.1,8.9,37.8,50,17.2,15.0,20.6,294.0,26.0,4.5,7,5,7,1,2026-06-27T02:51:05.764439+05:30
Erode,Tamil Nadu,11.341,77.7172,27.1,73,0.0,987.5,8.8,47.2,50,15.3,12.5,14.8,149.0,28.0,3.6,7,5,7,1,2026-06-27T02:51:05.764447+05:30
Kochi,Kerala,9.9312,76.2673,26.1,92,0.1,1008.1,8.55,34.2,50,18.0,14.1,15.2,268.0,23.0,4.2,10,0,4,1,2026-06-27T02:51:05.764455+05:30
Thiruvananthapuram,Kerala,8.5241,76.9366,24.9,93,0.0,1007.3,7.5,40.0,31,11.7,7.0,2.9,214.0,50.0,1.6,3,5,4,1,2026-06-27T02:51:05.764462+05:30
Kozhikode,Kerala,11.2588,75.7804,24.5,99,0.0,1007.6,8.5,37.1,26,11.9,5.8,1.5,149.0,55.0,1.1,3,5,4,1,2026-06-27T02:51:05.764469+05:30
Thrissur,Kerala,10.5276,76.2144,25.0,99,0.0,1006.6,8.55,35.6,49,15.4,12.2,10.0,401.0,27.0,3.0,7,5,4,1,2026-06-27T02:51:05.764477+05:30
Kannur,Kerala,11.8745,75.3704,24.3,99,0.0,1006.8,8.65,36.4,35,14.1,9.2,9.2,242.0,29.0,2.4,3,5,4,1,2026-06-27T02:51:05.764484+05:30
Patna,Bihar,25.5941,85.1376,29.8,82,0.0,996.6,8.75,22.0,137,61.0,55.8,16.7,425.0,85.0,13.9,7,5,7,1,2026-06-27T02:51:05.764491+05:30
Gaya,Bihar,24.7914,85.0002,29.6,73,0.0,990.2,8.9,29.5,93,40.5,39.3,18.4,242.0,78.0,14.2,7,5,7,1,2026-06-27T02:51:05.764498+05:30
Muzaffarpur,Bihar,26.1209,85.3647,28.6,85,0.0,997.1,8.9,24.5,153,61.9,56.7,17.1,968.0,86.0,12.6,7,5,7,1,2026-06-27T02:51:05.764505+05:30
Bhagalpur,Bihar,25.2425,87.0117,29.5,83,0.0,997.3,8.65,25.9,104,38.3,35.9,15.5,596.0,82.0,26.8,7,5,7,1,2026-06-27T02:51:05.764511+05:30
Ranchi,Jharkhand,23.3441,85.3096,24.3,93,0.0,934.6,8.8,34.9,82,28.3,27.6,12.5,385.0,82.0,25.5,3,5,7,1,2026-06-27T02:51:05.764518+05:30
Jamshedpur,Jharkhand,22.8046,86.2029,27.0,95,0.0,987.6,9.1,27.7,87,41.1,39.7,32.6,847.0,31.0,28.8,7,5,7,1,2026-06-27T02:51:05.764526+05:30
Dhanbad,Jharkhand,23.7957,86.4304,28.2,81,0.0,976.7,8.85,28.1,136,58.3,56.1,54.2,1751.0,29.0,147.8,7,5,7,1,2026-06-27T02:51:05.764532+05:30
Bokaro,Jharkhand,23.6693,86.1511,28.1,87,0.0,980.3,8.85,36.4,137,55.5,53.2,38.7,1147.0,48.0,117.9,7,5,7,1,2026-06-27T02:51:05.764539+05:30
Bhubaneswar,Odisha,20.2961,85.8245,28.0,96,0.0,998.3,8.75,39.2,77,39.2,34.8,16.8,235.0,58.0,6.2,7,5,7,1,2026-06-27T02:51:05.764546+05:30
Cuttack,Odisha,20.4625,85.8828,28.0,95,0.0,1000.1,9.1,43.6,77,39.2,34.8,16.8,279.0,58.0,6.2,7,5,4,1,2026-06-27T02:51:05.764553+05:30
Rourkela,Odisha,22.2604,84.8536,28.1,87,0.0,981.7,8.95,50.4,76,19.6,18.6,9.3,242.0,94.0,17.6,7,5,7,1,2026-06-27T02:51:05.764559+05:30
Raipur,Chhattisgarh,21.2514,81.6296,28.7,77,0.0,970.9,8.25,36.7,96,36.6,36.3,46.6,972.0,27.0,64.0,7,5,7,1,2026-06-27T02:51:05.764566+05:30
Bhilai,Chhattisgarh,21.1938,81.3509,29.2,71,0.0,971.4,8.95,33.8,99,34.5,34.0,38.8,1081.0,37.0,53.6,7,5,7,1,2026-06-27T02:51:05.764572+05:30
Guwahati,Assam,26.1158,91.7086,26.3,90,0.0,999.0,8.5,34.9,82,30.6,28.9,11.0,422.0,47.0,3.3,7,5,7,1,2026-06-27T02:51:05.764579+05:30
Agartala,Tripura,23.8315,91.2868,26.3,93,0.0,1004.0,8.5,32.4,74,16.2,14.7,10.7,166.0,40.0,2.5,7,5,4,1,2026-06-27T02:51:05.764585+05:30
Shillong,Meghalaya,25.5788,91.8933,19.2,97,0.0,855.7,6.3,29.2,54,5.4,4.8,4.5,237.0,87.0,2.8,3,10,7,1,2026-06-27T02:51:05.764592+05:30
Imphal,Manipur,24.817,93.9368,22.7,99,0.0,920.9,8.35,31.0,53,22.0,19.5,10.6,316.0,49.0,3.3,3,5,7,1,2026-06-27T02:51:05.764599+05:30
Aizawl,Mizoram,23.7271,92.7176,19.5,98,0.0,890.7,8.1,27.4,56,5.6,4.8,2.3,129.0,55.0,1.1,3,10,7,1,2026-06-27T02:51:05.764607+05:30
Kohima,Nagaland,25.6701,94.1077,19.9,97,0.0,853.7,8.15,22.7,48,8.1,6.6,3.5,285.0,68.0,1.3,3,10,7,1,2026-06-27T02:51:05.764614+05:30
Gangtok,Sikkim,27.3314,88.6138,17.6,89,0.1,836.0,8.55,39.2,71,8.1,7.7,9.3,614.0,101.0,1.9,6,10,7,0,2026-06-27T02:51:05.764621+05:30
Siliguri,West Bengal,26.7271,88.3953,24.9,99,0.2,990.8,8.8,18.4,107,27.4,24.6,9.4,443.0,119.0,3.7,6,5,7,1,2026-06-27T02:51:09.005584+05:30
Durgapur,West Bengal,23.5204,87.3119,27.5,94,0.0,991.8,9.05,31.3,110,40.4,39.5,29.6,479.0,45.0,41.3,7,5,7,1,2026-06-27T02:51:09.005622+05:30
Asansol,West Bengal,23.6739,86.9524,27.7,88,0.0,990.3,9.05,29.2,100,33.5,32.1,28.3,333.0,49.0,41.3,7,5,7,1,2026-06-27T02:51:09.005637+05:30
Pondicherry,Puducherry,11.9139,79.8145,27.6,80,0.0,1005.6,8.5,45.4,75,31.1,21.9,18.0,241.0,56.0,17.9,7,5,4,1,2026-06-27T02:51:09.005648+05:30
Port Blair,Andaman and Nicobar Islands,11.6234,92.7265,25.8,94,0.1,1005.9,8.75,39.2,22,4.1,2.5,0.2,86.0,48.0,0.2,10,5,4,1,2026-06-27T02:51:09.005659+05:30
Haridwar,Uttarakhand,29.9457,78.1642,27.4,76,0.0,969.5,7.6,23.8,147,205.4,79.6,25.9,303.0,73.0,14.1,7,5,7,1,2026-06-27T02:51:09.005668+05:30
Rishikesh,Uttarakhand,30.0869,78.2676,24.7,87,0.0,962.3,7.65,23.8,106,109.2,43.0,12.8,356.0,91.0,4.9,3,5,7,1,2026-06-27T02:51:09.005676+05:30
Nainital,Uttarakhand,29.3919,79.4542,16.2,79,0.0,803.9,6.8,31.0,95,76.4,41.4,25.8,325.0,40.0,2.6,3,5,7,0,2026-06-27T02:51:09.005684+05:30
Mussoorie,Uttarakhand,30.4599,78.0664,16.9,83,0.0,801.8,7.55,42.5,108,96.6,48.1,44.4,305.0,36.0,7.6,3,10,7,0,2026-06-27T02:51:09.005693+05:30
Dharamshala,Himachal Pradesh,32.219,76.3234,22.8,69,0.0,867.8,7.85,32.8,64,15.8,15.0,13.6,315.0,56.0,0.0,3,5,7,1,2026-06-27T02:51:09.005700+05:30
Dalhousie,Himachal Pradesh,32.5387,75.971,15.0,93,0.0,802.4,8.3,31.7,123,66.4,42.4,18.2,412.0,61.0,1.6,3,10,7,0,2026-06-27T02:51:09.005708+05:30
Patiala,Punjab,30.3398,76.3869,30.7,62,0.0,973.7,7.65,27.0,160,193.2,112.9,61.5,609.0,13.0,12.5,3,5,7,1,2026-06-27T02:51:09.005715+05:30
Bhatinda,Punjab,30.211,74.9455,31.3,65,0.0,978.8,7.9,25.6,155,115.3,88.7,49.1,454.0,33.0,11.3,3,5,7,1,2026-06-27T02:51:09.005722+05:30
Rohtak,Haryana,28.8955,76.6066,29.7,72,0.0,976.8,7.75,22.7,158,324.1,123.9,76.0,788.0,0.0,16.4,7,5,7,1,2026-06-27T02:51:09.005729+05:30
Panipat,Haryana,29.3909,76.9635,29.2,76,0.0,975.5,7.6,22.7,170,325.0,143.4,74.6,650.0,0.0,13.9,7,5,7,1,2026-06-27T02:51:09.005737+05:30
Mathura,Uttar Pradesh,27.4924,77.6737,30.0,66,0.0,981.6,6.0,22.3,131,98.3,40.0,37.0,364.0,25.0,4.6,7,5,3,1,2026-06-27T02:51:09.005744+05:30
Vrindavan,Uttar Pradesh,27.5823,77.7027,29.7,70,0.0,982.1,4.6,21.2,131,98.3,40.0,37.0,338.0,25.0,4.6,7,5,3,1,2026-06-27T02:51:09.005751+05:30
Ayodhya,Uttar Pradesh,26.7922,82.1998,30.5,71,0.0,991.1,8.4,24.5,137,50.6,34.7,10.8,436.0,95.0,7.1,3,5,7,1,2026-06-27T02:51:09.005758+05:30
Ratlam,Madhya Pradesh,23.3315,75.0367,26.3,80,0.0,951.3,8.45,30.6,84,48.1,30.3,9.9,203.0,55.0,8.3,7,5,7,1,2026-06-27T02:51:09.005766+05:30
Sagar,Madhya Pradesh,23.8388,78.7378,26.7,81,0.0,946.7,8.7,30.6,66,23.6,19.0,10.5,225.0,63.0,2.5,7,5,7,1,2026-06-27T02:51:09.005773+05:30
Satna,Madhya Pradesh,24.6005,80.8322,28.5,76,0.0,967.7,8.8,22.7,70,34.2,26.4,17.3,185.0,45.0,4.4,7,5,7,1,2026-06-27T02:51:09.005780+05:30
Akola,Maharashtra,20.7002,77.0082,26.9,95,0.0,971.8,8.5,38.9,77,27.9,18.3,10.7,193.0,59.0,4.1,7,5,7,1,2026-06-27T02:51:09.005787+05:30
Amravati,Maharashtra,20.9374,77.7796,25.7,98,0.0,963.8,8.0,37.4,78,25.1,17.6,10.9,242.0,59.0,4.2,7,5,7,1,2026-06-27T02:51:09.005795+05:30
Latur,Maharashtra,18.4088,76.5604,25.4,90,0.1,937.0,6.45,39.2,68,36.0,21.8,9.8,189.0,57.0,4.0,10,5,7,1,2026-06-27T02:51:09.005803+05:30
Nanded,Maharashtra,19.1383,77.3091,25.8,93,0.1,965.5,7.0,34.2,73,29.2,18.9,8.4,178.0,63.0,1.7,10,5,7,1,2026-06-27T02:51:09.005810+05:30
Gulbarga,Karnataka,17.3297,76.8343,26.2,76,0.0,956.2,4.3,34.2,64,28.2,17.9,16.3,162.0,35.0,4.6,7,5,3,1,2026-06-27T02:51:09.005817+05:30
Bidar,Karnataka,17.9104,77.5199,24.3,89,0.0,932.4,2.5,34.2,70,36.2,23.2,14.9,188.0,53.0,6.6,3,5,3,1,2026-06-27T02:51:09.005824+05:30
Hospet,Karnataka,15.2689,76.3909,23.8,87,0.0,954.2,7.05,42.1,25,6.6,4.6,5.5,130.0,38.0,1.6,3,5,7,1,2026-06-27T02:51:09.005831+05:30
Tirupur,Tamil Nadu,11.1085,77.3411,25.4,84,0.0,973.7,8.75,47.9,54,17.1,14.7,18.4,155.0,23.0,4.6,7,5,7,1,2026-06-27T02:51:09.005838+05:30
Alappuzha,Kerala,9.4981,76.3388,26.1,93,0.1,1008.1,8.4,37.4,42,16.1,10.9,9.5,200.0,40.0,3.0,10,0,4,1,2026-06-27T02:51:09.005845+05:30
Munnar,Kerala,10.0889,77.0595,16.3,89,0.0,855.1,9.05,30.6,24,8.6,6.8,8.1,90.0,24.0,1.7,3,10,7,0,2026-06-27T02:51:09.005851+05:30
Silchar,Assam,24.8333,92.7789,25.8,96,0.1,1003.2,8.85,27.7,76,21.4,17.8,6.6,208.0,90.0,3.4,10,5,4,1,2026-06-27T02:51:09.005858+05:30
Dibrugarh,Assam,27.4728,94.912,25.2,98,0.2,992.1,6.65,27.7,70,11.9,10.3,5.8,264.0,92.0,1.5,10,5,7,1,2026-06-27T02:51:09.005864+05:30
