city,state,latitude,longitude,temp,humidity,rain,pressure,uv_index,wind_gusts,aqi,pm10,pm2_5,mosquito_risk,arthritis_risk,migraine_risk,frizz_risk,updated_at
Delhi,Delhi,28.6139,77.209,25.7,38,0.0,984.3,7.25,31.3,314,497.3,92.2,4,5,7,0,2026-04-13T23:35:15.901469+05:30
Mumbai,Maharashtra,19.076,72.8777,28.3,85,0.0,1009.5,8.0,20.9,113,74.5,38.5,7,0,4,1,2026-04-13T23:35:15.901523+05:30
Bangalore,Karnataka,12.9716,77.5946,26.5,51,0.0,913.2,9.6,30.6,86,29.1,24.8,4,5,7,0,2026-04-13T23:35:15.901539+05:30
Hyderabad,Telangana,17.385,78.4867,31.4,43,0.0,953.9,9.25,32.0,100,44.1,37.6,0,5,7,1,2026-04-13T23:35:15.901550+05:30
Chennai,Tamil Nadu,13.0827,80.2707,28.1,81,0.0,1008.6,9.3,35.6,41,13.2,8.2,7,0,4,1,2026-04-13T23:35:15.901560+05:30
Kolkata,West Bengal,22.5726,88.3639,27.3,88,0.0,1005.7,8.85,28.1,75,27.5,21.0,7,5,4,1,2026-04-13T23:35:15.901570+05:30
Pune,Maharashtra,18.5204,73.8567,25.1,82,0.0,949.7,8.6,40.3,85,35.7,25.3,7,5,7,1,2026-04-13T23:35:15.901583+05:30
Ahmedabad,Gujarat,23.0225,72.5714,29.8,35,0.0,1002.5,8.1,29.5,79,74.0,53.6,4,5,4,0,2026-04-13T23:35:15.901592+05:30
Jaipur,Rajasthan,26.9124,75.7873,28.0,42,0.0,960.8,7.9,25.6,147,148.1,44.8,4,5,7,0,2026-04-13T23:35:15.901600+05:30
Lucknow,Uttar Pradesh,26.8467,80.9462,25.5,50,0.0,994.1,7.75,41.0,115,392.1,67.8,4,5,7,0,2026-04-13T23:35:15.901609+05:30
Kanpur,Uttar Pradesh,26.4499,80.3319,24.6,54,0.0,992.3,7.75,31.0,322,420.0,69.4,0,5,7,0,2026-04-13T23:35:15.901617+05:30
Chandigarh,Chandigarh,30.7333,76.7794,22.7,58,0.0,970.4,7.2,27.0,99,22.1,18.3,0,5,7,0,2026-04-13T23:35:15.901625+05:30
Srinagar,Jammu and Kashmir,34.0837,74.7973,10.1,76,0.0,840.8,8.1,15.1,96,61.2,52.6,3,5,7,0,2026-04-13T23:35:15.901633+05:30
Jammu,Jammu and Kashmir,32.7266,74.857,20.3,72,0.0,974.6,7.4,29.5,72,39.2,34.9,3,5,7,0,2026-04-13T23:35:15.901640+05:30
Amritsar,Punjab,31.634,74.8723,22.7,60,0.0,982.8,7.8,20.9,95,38.2,33.9,0,5,7,0,2026-04-13T23:35:15.901647+05:30
Ludhiana,Punjab,30.901,75.8573,23.7,50,0.0,980.7,7.45,24.8,95,27.2,25.7,0,5,7,0,2026-04-13T23:35:15.901654+05:30
Jalandhar,Punjab,31.326,75.5762,22.6,55,0.0,981.8,7.6,23.0,103,38.8,33.2,0,5,7,0,2026-04-13T23:35:15.901669+05:30
Dehradun,Uttarakhand,30.6284,78.0322,14.9,73,0.0,830.9,7.5,29.2,111,18.3,16.1,3,5,7,0,2026-04-13T23:35:15.901676+05:30
Shimla,Himachal Pradesh,31.1048,77.1734,13.4,67,0.0,785.5,7.7,35.6,95,22.2,14.3,3,5,7,0,2026-04-13T23:35:15.901683+05:30
Manali,Himachal Pradesh,32.2396,77.1887,14.0,61,0.0,820.7,9.8,31.0,119,19.3,12.7,3,5,7,0,2026-04-13T23:35:15.901691+05:30
Gurgaon,Haryana,28.4595,77.0266,22.5,47,0.0,982.4,7.35,25.9,955,584.9,94.1,0,5,7,0,2026-04-13T23:35:15.901698+05:30
Noida,Uttar Pradesh,28.5355,77.391,25.3,39,0.0,985.8,7.3,31.7,955,584.9,94.1,4,5,7,0,2026-04-13T23:35:15.901705+05:30
Ghaziabad,Uttar Pradesh,28.6692,77.4538,24.0,43,0.0,984.0,7.25,31.3,188,538.3,93.4,0,5,7,0,2026-04-13T23:35:15.901712+05:30
Faridabad,Haryana,28.4089,77.3178,24.5,37,0.0,984.9,7.3,29.2,955,584.9,94.1,0,5,7,0,2026-04-13T23:35:15.901719+05:30
Meerut,Uttar Pradesh,28.9845,77.7064,22.2,49,0.0,982.7,7.15,33.1,188,538.3,93.4,0,5,7,0,2026-04-13T23:35:15.901725+05:30
Agra,Uttar Pradesh,27.1767,78.0081,25.1,57,0.0,988.7,7.65,24.8,759,683.6,105.5,4,5,7,0,2026-04-13T23:35:15.901732+05:30
Varanasi,Uttar Pradesh,25.3176,82.9739,24.7,44,0.0,998.2,8.35,35.3,100,71.5,31.0,0,5,7,0,2026-04-13T23:35:15.901744+05:30
Prayagraj,Uttar Pradesh,25.4358,81.8463,25.9,44,0.0,997.0,8.25,35.3,93,121.1,36.2,4,5,7,0,2026-04-13T23:35:15.901751+05:30
Gorakhpur,Uttar Pradesh,26.7606,83.3732,23.5,34,0.0,997.3,8.15,24.1,92,98.3,26.8,0,5,7,0,2026-04-13T23:35:15.901758+05:30
Bareilly,Uttar Pradesh,28.367,79.4304,22.3,54,0.0,987.6,7.5,36.0,108,116.2,34.9,0,5,7,0,2026-04-13T23:35:15.901765+05:30
Aligarh,Uttar Pradesh,27.8974,78.088,22.6,45,0.0,986.5,7.45,32.0,637,760.0,117.1,0,5,7,0,2026-04-13T23:35:15.901772+05:30
Moradabad,Uttar Pradesh,28.8386,78.7733,22.4,54,0.0,984.6,7.35,33.1,82,198.8,55.8,0,5,7,0,2026-04-13T23:35:15.901778+05:30
Saharanpur,Uttar Pradesh,29.9637,77.546,22.6,59,0.0,977.0,6.95,27.0,102,29.5,25.5,0,5,7,0,2026-04-13T23:35:15.901784+05:30
Jhansi,Uttar Pradesh,25.4484,78.5685,28.0,35,0.0,979.1,8.15,26.6,173,112.2,31.5,4,5,7,0,2026-04-13T23:35:19.253896+05:30
Surat,Gujarat,21.1702,72.8311,28.0,86,0.0,1007.4,7.75,26.6,124,55.3,36.0,7,5,4,1,2026-04-13T23:35:19.253928+05:30
Vadodara,Gujarat,22.3072,73.1812,28.6,65,0.0,1004.8,8.05,24.5,122,66.8,51.1,7,5,4,1,2026-04-13T23:35:19.253939+05:30
Rajkot,Gujarat,22.3039,70.8022,26.9,60,0.0,995.7,7.8,35.6,70,42.1,18.6,4,5,7,1,2026-04-13T23:35:19.253948+05:30
Thane,Maharashtra,19.2183,72.9781,27.4,88,0.0,1009.0,8.0,34.2,113,74.5,38.5,7,0,4,1,2026-04-13T23:35:19.253955+05:30
Nagpur,Maharashtra,21.1458,79.0882,29.4,56,0.0,972.7,8.85,25.2,124,48.8,34.6,4,5,7,1,2026-04-13T23:35:19.253984+05:30
Nashik,Maharashtra,19.9975,73.7898,25.4,74,0.0,946.8,8.25,35.3,85,42.6,29.3,7,5,7,1,2026-04-13T23:35:19.253992+05:30
Aurangabad,Maharashtra,19.8762,75.3433,30.8,33,0.0,944.9,8.95,34.6,75,35.2,25.1,0,5,7,0,2026-04-13T23:35:19.254000+05:30
Solapur,Maharashtra,17.6599,75.9064,32.4,29,0.0,957.1,9.05,30.2,94,39.6,33.5,0,5,7,0,2026-04-13T23:35:19.254008+05:30
Kolhapur,Maharashtra,16.705,74.2433,23.0,86,0.0,948.6,9.05,43.2,84,35.9,25.1,3,5,7,1,2026-04-13T23:35:19.254015+05:30
Goa,Goa,15.2993,74.124,27.9,78,0.0,999.0,9.05,29.9,88,62.9,30.6,7,5,7,1,2026-04-13T23:35:19.254023+05:30
Jodhpur,Rajasthan,26.2389,73.0243,28.8,34,0.0,982.8,8.15,26.6,73,156.9,36.8,4,5,7,0,2026-04-13T23:35:19.254031+05:30
Udaipur,Rajasthan,24.5854,73.7125,25.9,34,0.0,948.0,8.7,29.9,83,39.5,15.8,4,5,7,0,2026-04-13T23:35:19.254038+05:30
Kota,Rajasthan,25.2138,75.8648,25.5,56,0.0,979.7,8.15,17.3,101,104.3,32.2,4,5,7,1,2026-04-13T23:35:19.254045+05:30
Bikaner,Rajasthan,28.0229,73.3119,30.9,27,0.0,981.5,7.95,19.4,75,24.7,12.1,0,5,7,0,2026-04-13T23:35:19.254053+05:30
Ajmer,Rajasthan,26.4499,74.6399,27.6,32,0.0,955.3,8.1,29.9,66,74.5,30.5,4,5,7,0,2026-04-13T23:35:19.254060+05:30
Gwalior,Madhya Pradesh,26.2183,78.1828,26.5,49,0.0,984.2,7.9,31.7,278,119.2,35.5,4,5,7,0,2026-04-13T23:35:19.254067+05:30
Indore,Madhya Pradesh,22.7196,75.8577,25.4,46,0.0,949.0,8.55,32.0,106,57.5,38.1,4,5,7,0,2026-04-13T23:35:19.254075+05:30
Bhopal,Madhya Pradesh,23.2599,77.4126,28.4,39,0.0,954.5,8.5,25.2,86,75.9,34.2,4,5,7,0,2026-04-13T23:35:19.254082+05:30
Jabalpur,Madhya Pradesh,23.1815,79.9864,26.8,53,0.0,961.9,8.65,27.4,93,95.7,27.7,4,5,7,1,2026-04-13T23:35:19.254089+05:30
Ujjain,Madhya Pradesh,23.1765,75.7885,26.0,45,0.0,954.8,8.45,31.0,107,75.4,60.1,4,5,7,0,2026-04-13T23:35:19.254097+05:30
Visakhapatnam,Andhra Pradesh,17.6868,83.2185,28.2,85,0.0,1004.5,9.15,40.0,68,23.3,14.4,7,5,4,1,2026-04-13T23:35:19.254105+05:30
Vijayawada,Andhra Pradesh,16.5062,80.648,27.1,86,0.0,1003.4,9.2,27.7,60,17.6,12.3,7,5,4,1,2026-04-13T23:35:19.254112+05:30
Guntur,Andhra Pradesh,16.3067,80.4365,27.6,85,0.0,1004.6,9.25,32.0,63,18.9,13.2,7,5,4,1,2026-04-13T23:35:19.254119+05:30
Nellore,Andhra Pradesh,14.4426,79.9865,27.3,83,0.0,1006.7,9.3,35.6,53,13.0,9.0,7,5,4,1,2026-04-13T23:35:19.254127+05:30
Kurnool,Andhra Pradesh,15.8281,78.0373,33.8,34,0.0,976.7,9.2,26.6,95,50.1,40.7,0,5,7,0,2026-04-13T23:35:19.254135+05:30
Kakinada,Andhra Pradesh,16.9891,82.2475,27.3,87,0.0,1008.5,9.2,32.8,55,19.8,10.3,7,0,4,1,2026-04-13T23:35:19.254142+05:30
Tirupati,Andhra Pradesh,13.6288,79.4192,27.3,75,0.0,993.3,9.4,31.0,67,23.3,20.4,7,5,7,1,2026-04-13T23:35:19.254149+05:30
Warangal,Telangana,17.9689,79.5941,30.4,59,0.0,978.7,9.1,33.8,84,33.4,29.3,0,5,7,1,2026-04-13T23:35:19.254156+05:30
Nizamabad,Telangana,18.6725,78.0941,30.8,47,0.0,964.2,9.05,32.0,99,51.9,41.8,0,5,7,1,2026-04-13T23:35:19.254163+05:30
Mysore,Karnataka,12.2958,76.6396,25.5,79,0.0,929.9,9.5,45.4,90,41.4,34.2,7,5,7,1,2026-04-13T23:35:19.254170+05:30
Mangalore,Karnataka,12.9141,74.856,29.5,84,0.0,1007.6,9.15,24.8,96,46.7,33.3,7,5,4,1,2026-04-13T23:35:19.254177+05:30
Hubli-Dharwad,Karnataka,15.3647,75.124,24.4,86,0.0,942.0,9.25,35.6,91,28.2,22.1,3,5,7,1,2026-04-13T23:35:19.254184+05:30
Belgaum,Karnataka,15.8497,74.4977,22.7,87,0.0,926.4,9.3,40.0,84,41.9,25.1,3,5,7,1,2026-04-13T23:35:22.601098+05:30
Coimbatore,Tamil Nadu,11.0168,76.9558,26.3,83,0.0,963.4,9.45,35.3,91,50.3,40.6,7,5,7,1,2026-04-13T23:35:22.601128+05:30
Madurai,Tamil Nadu,9.9252,78.1198,28.4,82,0.0,995.1,9.35,36.7,75,22.5,20.7,7,5,7,1,2026-04-13T23:35:22.601138+05:30
Trichy,Tamil Nadu,10.7905,78.7047,27.9,83,0.0,1001.4,9.35,27.7,57,16.0,14.7,7,5,4,1,2026-04-13T23:35:22.601148+05:30
Salem,Tamil Nadu,11.6643,78.146,28.9,68,0.0,978.6,9.45,20.9,78,27.8,24.6,7,5,7,1,2026-04-13T23:35:22.601156+05:30
Tirunelveli,Tamil Nadu,8.7139,77.7567,28.6,79,0.0,1004.9,9.25,46.8,80,32.6,26.5,7,5,4,1,2026-04-13T23:35:22.601164+05:30
Vellore,Tamil Nadu,12.9165,79.1325,27.0,69,0.0,986.2,9.45,30.2,83,37.4,34.5,7,5,7,1,2026-04-13T23:35:22.601172+05:30
Erode,Tamil Nadu,11.341,77.7172,29.5,70,0.0,990.3,9.4,29.2,67,15.8,14.3,7,5,7,1,2026-04-13T23:35:22.601181+05:30
Kochi,Kerala,9.9312,76.2673,29.5,80,0.0,1010.1,9.1,32.8,92,45.2,39.3,7,0,4,1,2026-04-13T23:35:22.601189+05:30
Thiruvananthapuram,Kerala,8.5241,76.9366,28.7,83,0.0,1009.6,8.9,27.4,81,42.7,24.6,7,0,4,1,2026-04-13T23:35:22.601197+05:30
Kozhikode,Kerala,11.2588,75.7804,29.7,82,0.0,1009.1,9.15,32.0,92,48.4,26.5,7,0,4,1,2026-04-13T23:35:22.601205+05:30
Thrissur,Kerala,10.5276,76.2144,29.1,85,0.0,1008.2,9.1,39.6,90,56.5,42.7,7,0,4,1,2026-04-13T23:35:22.601213+05:30
Kannur,Kerala,11.8745,75.3704,29.2,83,0.0,1008.2,9.15,33.1,106,51.3,34.5,7,0,4,1,2026-04-13T23:35:22.601221+05:30
Patna,Bihar,25.5941,85.1376,26.0,43,0.0,1000.7,8.45,31.3,95,73.1,35.0,4,5,4,0,2026-04-13T23:35:22.601228+05:30
Gaya,Bihar,24.7914,85.0002,25.6,46,0.0,994.6,8.55,23.8,102,87.3,34.5,4,5,7,0,2026-04-13T23:35:22.601236+05:30
Muzaffarpur,Bihar,26.1209,85.3647,24.7,64,0.0,1000.6,8.45,22.3,112,103.1,61.9,3,5,4,1,2026-04-13T23:35:22.601243+05:30
Bhagalpur,Bihar,25.2425,87.0117,25.8,73,0.0,1001.4,8.5,14.4,136,109.0,62.2,7,5,4,1,2026-04-13T23:35:22.601251+05:30
Ranchi,Jharkhand,23.3441,85.3096,24.2,44,0.0,938.4,9.1,20.5,81,111.1,33.4,0,5,7,0,2026-04-13T23:35:22.601259+05:30
Jamshedpur,Jharkhand,22.8046,86.2029,28.1,69,0.0,990.4,8.95,16.9,123,77.8,60.8,7,5,7,1,2026-04-13T23:35:22.601267+05:30
Dhanbad,Jharkhand,23.7957,86.4304,26.7,50,0.0,979.9,8.9,21.2,158,144.8,86.1,4,5,7,0,2026-04-13T23:35:22.601274+05:30
Bokaro,Jharkhand,23.6693,86.1511,26.8,52,0.0,984.2,8.9,21.2,154,146.2,81.0,4,5,7,1,2026-04-13T23:35:22.601282+05:30
Bhubaneswar,Odisha,20.2961,85.8245,27.3,86,0.0,1003.1,9.05,32.0,65,21.7,15.3,7,5,4,1,2026-04-13T23:35:22.601290+05:30
Cuttack,Odisha,20.4625,85.8828,27.3,87,0.0,1004.9,9.1,29.2,65,21.7,15.3,7,5,4,1,2026-04-13T23:35:22.601298+05:30
Rourkela,Odisha,22.2604,84.8536,28.2,69,0.0,984.6,8.85,24.8,161,71.2,51.2,7,5,7,1,2026-04-13T23:35:22.601305+05:30
Raipur,Chhattisgarh,21.2514,81.6296,30.1,39,0.0,973.9,8.9,34.2,126,89.2,77.3,0,5,7,0,2026-04-13T23:35:22.601313+05:30
Bhilai,Chhattisgarh,21.1938,81.3509,28.6,48,0.0,974.1,8.9,32.8,109,57.5,44.0,4,5,7,1,2026-04-13T23:35:22.601319+05:30
Guwahati,Assam,26.1158,91.7086,23.5,85,0.0,1003.5,8.4,39.6,144,47.0,38.5,3,5,4,1,2026-04-13T23:35:22.601326+05:30
Agartala,Tripura,23.8315,91.2868,24.4,91,0.0,1007.1,8.65,24.8,87,38.1,32.8,3,5,4,1,2026-04-13T23:35:22.601334+05:30
Shillong,Meghalaya,25.5788,91.8933,14.1,89,0.0,856.5,8.8,75.2,106,37.6,27.9,3,10,7,0,2026-04-13T23:35:22.601341+05:30
Imphal,Manipur,24.817,93.9368,18.6,85,0.0,924.6,9.0,66.6,120,71.9,49.7,3,10,7,1,2026-04-13T23:35:22.601348+05:30
Aizawl,Mizoram,23.7271,92.7176,19.5,74,0.0,893.4,8.9,46.8,99,65.2,38.0,3,5,7,0,2026-04-13T23:35:22.601356+05:30
Kohima,Nagaland,25.6701,94.1077,15.5,77,0.0,856.0,8.95,106.6,94,42.7,22.8,3,5,7,0,2026-04-13T23:35:22.601363+05:30
Gangtok,Sikkim,27.3314,88.6138,14.4,82,0.0,837.8,8.65,15.1,113,79.6,44.2,3,10,7,0,2026-04-13T23:35:22.601369+05:30
Siliguri,West Bengal,26.7271,88.3953,20.8,73,0.0,995.5,8.35,26.3,151,117.3,67.1,3,5,7,0,2026-04-13T23:35:25.951832+05:30
Durgapur,West Bengal,23.5204,87.3119,27.7,81,0.0,994.9,8.8,19.4,158,99.7,84.8,7,5,7,1,2026-04-13T23:35:25.951865+05:30
Asansol,West Bengal,23.6739,86.9524,29.0,62,0.0,993.5,8.85,16.6,143,90.8,53.6,7,5,7,1,2026-04-13T23:35:25.951875+05:30
Pondicherry,Puducherry,11.9139,79.8145,26.6,92,0.0,1010.0,9.25,31.7,33,10.4,6.4,7,0,4,1,2026-04-13T23:35:25.951884+05:30
Port Blair,Andaman and Nicobar Islands,11.6234,92.7265,28.8,80,0.0,1008.3,9.2,12.2,63,26.1,15.6,7,0,4,1,2026-04-13T23:35:25.951892+05:30
Haridwar,Uttarakhand,29.9457,78.1642,21.2,72,0.0,975.6,7.05,26.6,105,34.9,28.9,3,5,7,0,2026-04-13T23:35:25.951900+05:30
Rishikesh,Uttarakhand,30.0869,78.2676,21.2,64,0.0,968.5,7.05,29.2,126,22.9,17.6,3,5,7,0,2026-04-13T23:35:25.951908+05:30
Nainital,Uttarakhand,29.3919,79.4542,18.8,33,0.0,807.3,7.9,34.6,119,26.4,14.5,0,5,7,0,2026-04-13T23:35:25.951915+05:30
Mussoorie,Uttarakhand,30.4599,78.0664,16.3,57,0.0,803.6,7.5,33.1,119,29.9,28.2,0,5,7,0,2026-04-13T23:35:25.951923+05:30
Dharamshala,Himachal Pradesh,32.219,76.3234,19.2,56,0.0,870.9,7.75,21.2,95,22.3,15.3,0,5,7,0,2026-04-13T23:35:25.951931+05:30
Dalhousie,Himachal Pradesh,32.5387,75.971,15.9,57,0.0,804.8,7.45,21.2,92,39.0,30.9,0,5,7,0,2026-04-13T23:35:25.951939+05:30
Patiala,Punjab,30.3398,76.3869,23.3,49,0.0,979.8,7.1,26.3,278,396.7,56.3,0,5,7,0,2026-04-13T23:35:25.951947+05:30
Bhatinda,Punjab,30.211,74.9455,25.0,40,0.0,985.2,7.75,23.4,93,48.3,21.9,4,5,7,0,2026-04-13T23:35:25.951954+05:30
Rohtak,Haryana,28.8955,76.6066,23.1,42,0.0,982.9,7.25,30.6,478,423.8,80.6,0,5,7,0,2026-04-13T23:35:25.951983+05:30
Panipat,Haryana,29.3909,76.9635,22.9,47,0.0,981.8,7.1,30.6,938,564.4,99.9,0,5,7,0,2026-04-13T23:35:25.951991+05:30
Mathura,Uttar Pradesh,27.4924,77.6737,26.8,38,0.0,988.0,7.6,25.9,739,817.7,112.2,4,5,7,0,2026-04-13T23:35:25.951999+05:30
Vrindavan,Uttar Pradesh,27.5823,77.7027,23.1,49,0.0,988.3,7.55,27.7,739,817.7,112.2,0,5,7,0,2026-04-13T23:35:25.952006+05:30
Ayodhya,Uttar Pradesh,26.7922,82.1998,24.8,43,0.0,995.8,7.95,36.0,88,220.7,40.2,0,5,7,0,2026-04-13T23:35:25.952014+05:30
Ratlam,Madhya Pradesh,23.3315,75.0367,26.7,48,0.0,955.3,8.35,30.2,86,40.7,33.6,4,5,7,0,2026-04-13T23:35:25.952021+05:30
Sagar,Madhya Pradesh,23.8388,78.7378,29.5,35,0.0,950.8,8.5,25.6,104,143.4,30.2,4,5,7,0,2026-04-13T23:35:25.952028+05:30
Satna,Madhya Pradesh,24.6005,80.8322,27.6,38,0.0,972.4,8.55,25.2,131,99.4,23.2,4,5,7,0,2026-04-13T23:35:25.952037+05:30
Akola,Maharashtra,20.7002,77.0082,29.0,50,0.0,975.0,8.75,31.7,84,27.7,20.9,4,5,7,1,2026-04-13T23:35:25.952045+05:30
Amravati,Maharashtra,20.9374,77.7796,27.6,45,0.0,966.8,8.8,24.5,87,25.8,20.0,4,5,7,0,2026-04-13T23:35:25.952053+05:30
Latur,Maharashtra,18.4088,76.5604,30.2,45,0.0,939.8,9.05,33.1,120,41.8,31.1,0,5,7,1,2026-04-13T23:35:25.952060+05:30
Nanded,Maharashtra,19.1383,77.3091,29.0,57,0.0,968.0,8.9,18.0,91,49.8,38.1,4,5,7,1,2026-04-13T23:35:25.952067+05:30
Gulbarga,Karnataka,17.3297,76.8343,32.9,46,0.0,958.6,9.1,18.0,135,48.9,41.8,0,5,7,1,2026-04-13T23:35:25.952074+05:30
Bidar,Karnataka,17.9104,77.5199,31.0,51,0.0,935.9,9.15,27.7,106,69.2,58.1,0,5,7,1,2026-04-13T23:35:25.952080+05:30
Hospet,Karnataka,15.2689,76.3909,30.5,64,0.0,956.6,9.3,35.6,112,55.3,47.3,3,5,7,1,2026-04-13T23:35:25.952088+05:30
Tirupur,Tamil Nadu,11.1085,77.3411,28.6,77,0.0,976.8,9.45,29.5,83,31.9,26.8,7,5,7,1,2026-04-13T23:35:25.952096+05:30
Alappuzha,Kerala,9.4981,76.3388,29.0,81,0.0,1010.4,9.05,28.1,89,52.0,38.8,7,0,4,1,2026-04-13T23:35:25.952103+05:30
Munnar,Kerala,10.0889,77.0595,22.0,89,0.0,858.5,9.7,32.4,85,42.1,36.4,3,5,7,1,2026-04-13T23:35:25.952111+05:30
Silchar,Assam,24.8333,92.7789,24.0,84,0.0,1006.2,8.65,37.4,140,56.7,41.4,3,5,4,1,2026-04-13T23:35:25.952118+05:30
Dibrugarh,Assam,27.4728,94.912,21.4,85,0.0,998.9,7.15,24.5,116,51.9,35.2,3,5,7,1,2026-04-13T23:35:25.952125+05:30
