city,state,latitude,longitude,temp,humidity,rain,pressure,uv_index,wind_gusts,aqi,pm10,pm2_5,no2,co,o3,so2,mosquito_risk,arthritis_risk,migraine_risk,frizz_risk,updated_at
Delhi,Delhi,28.6139,77.209,29.4,80,0.0,974.6,6.7,38.5,360,247.7,96.6,40.8,534.0,30.0,14.6,7,5,7,1,2026-07-14T01:47:23.704532+05:30
Mumbai,Maharashtra,19.076,72.8777,27.7,82,0.0,1006.8,7.75,45.0,59,29.0,15.1,4.2,128.0,47.0,3.9,7,5,4,1,2026-07-14T01:47:23.704578+05:30
Bangalore,Karnataka,12.9716,77.5946,21.5,81,0.0,910.5,8.45,42.1,56,10.1,7.6,12.0,221.0,38.0,4.4,3,5,7,1,2026-07-14T01:47:23.704594+05:30
Hyderabad,Telangana,17.385,78.4867,28.2,57,0.0,949.6,8.7,45.4,57,13.9,10.7,8.0,190.0,54.0,4.5,4,5,7,1,2026-07-14T01:47:23.704603+05:30
Chennai,Tamil Nadu,13.0827,80.2707,30.0,75,0.0,1002.5,8.45,35.6,76,36.4,22.7,14.3,240.0,67.0,8.8,7,5,4,1,2026-07-14T01:47:23.704611+05:30
Kolkata,West Bengal,22.5726,88.3639,25.9,97,0.3,998.8,8.35,25.9,152,61.0,46.7,12.4,538.0,84.0,11.0,10,5,7,1,2026-07-14T01:47:23.704620+05:30
Pune,Maharashtra,18.5204,73.8567,23.0,89,0.0,946.1,8.15,50.4,46,8.5,5.9,6.7,119.0,37.0,5.6,3,5,7,1,2026-07-14T01:47:23.704631+05:30
Ahmedabad,Gujarat,23.0225,72.5714,28.4,71,0.0,998.2,6.85,42.5,62,28.1,15.5,6.2,124.0,39.0,3.7,7,5,7,1,2026-07-14T01:47:23.704638+05:30
Jaipur,Rajasthan,26.9124,75.7873,29.1,63,0.0,952.9,7.85,39.2,370,388.4,76.6,12.5,182.0,47.0,5.1,7,5,7,1,2026-07-14T01:47:23.704644+05:30
Lucknow,Uttar Pradesh,26.8467,80.9462,29.2,71,0.0,985.4,8.2,40.3,125,78.0,40.3,12.8,200.0,60.0,8.0,7,5,7,1,2026-07-14T01:47:23.704655+05:30
Kanpur,Uttar Pradesh,26.4499,80.3319,29.3,73,0.0,983.9,8.0,31.7,113,102.7,43.1,12.7,198.0,62.0,8.9,7,5,7,1,2026-07-14T01:47:23.704661+05:30
Chandigarh,Chandigarh,30.7333,76.7794,28.1,78,0.0,960.4,7.4,22.0,166,195.1,122.5,50.5,792.0,51.0,20.0,7,5,7,1,2026-07-14T01:47:23.704667+05:30
Srinagar,Jammu and Kashmir,34.0837,74.7973,17.9,91,0.0,836.1,8.95,23.8,79,42.6,38.8,33.4,983.0,26.0,2.7,3,10,7,1,2026-07-14T01:47:23.704674+05:30
Jammu,Jammu and Kashmir,32.7266,74.857,25.1,94,0.0,964.4,8.45,30.2,153,103.1,83.4,58.5,763.0,18.0,7.4,7,5,7,1,2026-07-14T01:47:23.704680+05:30
Amritsar,Punjab,31.634,74.8723,26.8,92,0.0,972.2,8.35,19.4,185,232.8,162.1,81.1,1137.0,27.0,18.1,7,5,7,1,2026-07-14T01:47:23.704686+05:30
Ludhiana,Punjab,30.901,75.8573,28.2,90,0.0,970.1,7.9,24.8,171,158.8,122.5,52.7,1825.0,29.0,10.8,7,5,7,1,2026-07-14T01:47:23.704692+05:30
Jalandhar,Punjab,31.326,75.5762,26.9,92,0.0,971.1,8.15,18.0,174,166.2,128.5,53.5,1343.0,26.0,10.6,7,5,7,1,2026-07-14T01:47:23.704700+05:30
Dehradun,Uttarakhand,30.6284,78.0322,17.7,99,0.0,825.8,8.1,26.3,101,114.1,50.9,14.7,225.0,115.0,5.5,3,10,7,1,2026-07-14T01:47:23.704706+05:30
Shimla,Himachal Pradesh,31.1048,77.1734,15.3,94,0.0,779.8,8.1,36.7,122,157.9,85.0,13.0,406.0,124.0,3.1,3,10,7,0,2026-07-14T01:47:23.704713+05:30
Manali,Himachal Pradesh,32.2396,77.1887,18.1,91,0.0,814.9,9.45,32.4,52,14.7,12.0,62.3,242.0,33.0,0.1,3,10,7,1,2026-07-14T01:47:23.704721+05:30
Gurgaon,Haryana,28.4595,77.0266,29.0,82,0.0,973.1,6.7,31.3,582,758.1,184.9,28.8,351.0,37.0,11.3,7,5,7,1,2026-07-14T01:47:23.704729+05:30
Noida,Uttar Pradesh,28.5355,77.391,29.7,80,0.0,976.0,7.2,32.0,582,758.1,184.9,28.8,639.0,37.0,11.3,7,5,7,1,2026-07-14T01:47:23.704735+05:30
Ghaziabad,Uttar Pradesh,28.6692,77.4538,29.1,84,0.0,974.3,7.45,26.3,275,232.4,98.5,47.7,755.0,31.0,19.0,7,5,7,1,2026-07-14T01:47:23.704741+05:30
Faridabad,Haryana,28.4089,77.3178,29.6,80,0.0,975.3,7.25,36.7,582,758.1,184.9,28.8,440.0,37.0,11.3,7,5,7,1,2026-07-14T01:47:23.704747+05:30
Meerut,Uttar Pradesh,28.9845,77.7064,29.9,84,0.0,973.0,7.3,25.2,275,232.4,98.5,47.7,649.0,31.0,19.0,7,5,7,1,2026-07-14T01:47:23.704754+05:30
Agra,Uttar Pradesh,27.1767,78.0081,30.1,63,0.0,979.6,8.0,36.0,140,188.6,61.7,16.4,204.0,48.0,5.6,3,5,7,1,2026-07-14T01:47:23.704760+05:30
Varanasi,Uttar Pradesh,25.3176,82.9739,29.8,73,0.0,989.8,8.5,20.9,116,63.8,39.6,16.1,422.0,51.0,9.3,7,5,7,1,2026-07-14T01:47:23.704766+05:30
Prayagraj,Uttar Pradesh,25.4358,81.8463,29.7,72,0.0,988.4,8.6,29.2,107,60.1,34.9,12.6,208.0,60.0,8.1,7,5,7,1,2026-07-14T01:47:23.704772+05:30
Gorakhpur,Uttar Pradesh,26.7606,83.3732,26.2,97,0.3,990.1,6.9,29.5,152,88.7,58.0,19.1,308.0,62.0,7.2,10,5,7,1,2026-07-14T01:47:23.704778+05:30
Bareilly,Uttar Pradesh,28.367,79.4304,28.5,90,0.0,978.2,7.95,26.6,176,179.7,73.8,21.1,298.0,48.0,7.7,7,5,7,1,2026-07-14T01:47:23.704786+05:30
Aligarh,Uttar Pradesh,27.8974,78.088,29.7,68,0.0,977.2,7.8,32.8,524,810.3,181.6,13.8,219.0,56.0,5.2,7,5,7,1,2026-07-14T01:47:23.704792+05:30
Moradabad,Uttar Pradesh,28.8386,78.7733,29.1,83,0.0,975.1,7.75,24.1,193,238.4,108.0,40.0,481.0,29.0,11.4,7,5,7,1,2026-07-14T01:47:23.704798+05:30
Saharanpur,Uttar Pradesh,29.9637,77.546,28.3,87,0.0,967.6,7.35,22.0,191,344.6,160.2,74.3,587.0,10.0,21.5,7,5,7,1,2026-07-14T01:47:23.704804+05:30
Jhansi,Uttar Pradesh,25.4484,78.5685,29.7,64,0.0,971.1,8.4,41.8,102,46.9,27.7,9.1,167.0,66.0,9.4,7,5,7,1,2026-07-14T01:47:26.992330+05:30
Surat,Gujarat,21.1702,72.8311,28.1,80,0.0,1003.9,7.05,53.6,65,26.5,16.5,14.9,238.0,34.0,25.8,7,5,4,1,2026-07-14T01:47:26.992367+05:30
Vadodara,Gujarat,22.3072,73.1812,27.7,80,0.0,1000.7,8.0,46.4,59,27.4,16.1,6.8,115.0,39.0,5.0,7,5,4,1,2026-07-14T01:47:26.992378+05:30
Rajkot,Gujarat,22.3039,70.8022,26.9,84,0.0,990.4,6.7,48.6,59,22.9,11.8,3.7,96.0,41.0,3.0,7,5,7,1,2026-07-14T01:47:26.992387+05:30
Thane,Maharashtra,19.2183,72.9781,26.9,86,0.0,1006.1,7.45,37.8,59,29.0,15.1,4.2,151.0,47.0,3.9,7,5,4,1,2026-07-14T01:47:26.992394+05:30
Nagpur,Maharashtra,21.1458,79.0882,27.5,72,0.0,968.3,8.55,55.1,87,39.8,26.3,15.3,225.0,38.0,8.1,7,5,7,1,2026-07-14T01:47:26.992401+05:30
Nashik,Maharashtra,19.9975,73.7898,22.9,93,0.0,942.9,6.9,55.1,49,9.1,6.5,8.2,134.0,34.0,6.0,3,5,7,1,2026-07-14T01:47:26.992409+05:30
Aurangabad,Maharashtra,19.8762,75.3433,23.1,86,0.0,941.4,9.0,50.8,54,12.0,8.9,10.6,154.0,38.0,11.6,3,5,7,1,2026-07-14T01:47:26.992432+05:30
Solapur,Maharashtra,17.6599,75.9064,24.6,77,0.0,955.6,8.95,41.4,49,13.6,9.8,6.4,142.0,38.0,2.6,3,5,7,1,2026-07-14T01:47:26.992439+05:30
Kolhapur,Maharashtra,16.705,74.2433,22.8,92,0.0,946.9,8.75,49.0,45,9.6,6.8,4.8,126.0,38.0,2.5,3,5,7,1,2026-07-14T01:47:26.992447+05:30
Goa,Goa,15.2993,74.124,24.8,98,0.0,997.8,8.4,35.3,59,36.0,25.9,9.1,327.0,35.0,2.2,3,5,7,1,2026-07-14T01:47:26.992454+05:30
Jodhpur,Rajasthan,26.2389,73.0243,30.4,58,0.0,976.5,8.4,51.1,190,441.4,99.9,3.1,101.0,52.0,2.6,0,5,7,1,2026-07-14T01:47:26.992460+05:30
Udaipur,Rajasthan,24.5854,73.7125,24.6,74,0.0,941.2,7.3,47.5,68,33.4,17.8,3.7,99.0,54.0,3.3,3,5,7,1,2026-07-14T01:47:26.992467+05:30
Kota,Rajasthan,25.2138,75.8648,28.9,68,0.0,972.7,8.3,38.9,90,30.9,20.0,7.5,162.0,68.0,6.8,7,5,7,1,2026-07-14T01:47:26.992474+05:30
Bikaner,Rajasthan,28.0229,73.3119,32.0,52,0.0,973.2,8.4,40.0,163,299.0,80.3,3.3,112.0,60.0,3.9,0,5,7,1,2026-07-14T01:47:26.992482+05:30
Ajmer,Rajasthan,26.4499,74.6399,27.9,67,0.0,948.4,7.85,56.5,99,45.1,22.9,5.8,123.0,56.0,3.6,7,5,7,1,2026-07-14T01:47:26.992489+05:30
Gwalior,Madhya Pradesh,26.2183,78.1828,29.1,67,0.0,975.8,8.2,42.8,106,91.0,44.1,11.1,148.0,53.0,5.6,7,5,7,1,2026-07-14T01:47:26.992495+05:30
Indore,Madhya Pradesh,22.7196,75.8577,24.5,87,0.0,944.0,8.25,51.1,66,19.2,13.1,7.2,154.0,45.0,8.4,3,5,7,1,2026-07-14T01:47:26.992501+05:30
Bhopal,Madhya Pradesh,23.2599,77.4126,25.8,78,0.0,948.8,8.6,42.8,75,29.8,21.2,7.1,206.0,64.0,6.5,7,5,7,1,2026-07-14T01:47:26.992508+05:30
Jabalpur,Madhya Pradesh,23.1815,79.9864,26.7,76,0.0,956.1,7.1,39.6,89,46.6,27.4,7.3,207.0,58.0,4.6,7,5,7,1,2026-07-14T01:47:26.992514+05:30
Ujjain,Madhya Pradesh,23.1765,75.7885,25.3,85,0.0,949.6,8.4,49.0,65,20.3,13.6,7.3,174.0,44.0,9.2,7,5,7,1,2026-07-14T01:47:26.992522+05:30
Visakhapatnam,Andhra Pradesh,17.6868,83.2185,30.0,65,0.0,996.6,7.65,23.0,110,57.9,34.6,28.7,299.0,40.0,41.8,7,5,7,1,2026-07-14T01:47:26.992529+05:30
Vijayawada,Andhra Pradesh,16.5062,80.648,31.2,64,0.0,996.7,6.45,46.1,81,39.1,31.5,21.5,320.0,33.0,8.0,3,5,7,1,2026-07-14T01:47:26.992536+05:30
Guntur,Andhra Pradesh,16.3067,80.4365,32.0,54,0.0,998.0,6.55,47.2,77,28.4,23.8,18.2,230.0,40.0,7.2,0,5,7,1,2026-07-14T01:47:26.992543+05:30
Nellore,Andhra Pradesh,14.4426,79.9865,30.6,57,0.0,1001.0,8.8,46.8,71,28.9,20.4,12.0,144.0,54.0,6.5,0,5,4,1,2026-07-14T01:47:26.992550+05:30
Kurnool,Andhra Pradesh,15.8281,78.0373,29.0,53,0.0,974.1,7.45,42.5,56,13.6,9.8,7.2,140.0,53.0,4.3,4,5,7,1,2026-07-14T01:47:26.992558+05:30
Kakinada,Andhra Pradesh,16.9891,82.2475,29.8,67,0.0,1000.8,8.45,48.2,82,48.8,27.9,11.2,225.0,57.0,7.0,7,5,4,1,2026-07-14T01:47:26.992564+05:30
Tirupati,Andhra Pradesh,13.6288,79.4192,30.2,48,0.0,987.2,8.55,38.9,84,29.6,20.8,22.3,121.0,35.0,2.7,0,5,7,1,2026-07-14T01:47:26.992571+05:30
Warangal,Telangana,17.9689,79.5941,28.7,68,0.0,973.8,7.7,40.0,69,21.1,17.4,10.7,228.0,51.0,4.5,7,5,7,1,2026-07-14T01:47:26.992577+05:30
Nizamabad,Telangana,18.6725,78.0941,27.9,65,0.0,961.2,8.6,42.1,59,19.2,14.8,7.4,158.0,63.0,7.0,7,5,7,1,2026-07-14T01:47:26.992583+05:30
Mysore,Karnataka,12.2958,76.6396,20.6,95,0.0,927.5,8.3,42.1,51,11.4,8.7,11.1,156.0,32.0,2.7,3,5,7,1,2026-07-14T01:47:26.992589+05:30
Mangalore,Karnataka,12.9141,74.856,26.2,87,0.0,1006.9,8.0,37.8,56,19.9,13.2,8.0,177.0,30.0,2.8,7,5,4,1,2026-07-14T01:47:26.992596+05:30
Hubli-Dharwad,Karnataka,15.3647,75.124,21.1,98,0.0,939.9,8.5,52.2,42,10.3,6.9,5.2,131.0,37.0,2.0,3,5,7,1,2026-07-14T01:47:26.992603+05:30
Belgaum,Karnataka,15.8497,74.4977,20.6,98,0.0,924.5,8.7,45.7,40,9.2,6.2,4.3,103.0,38.0,1.9,3,5,7,1,2026-07-14T01:47:30.297433+05:30
Coimbatore,Tamil Nadu,11.0168,76.9558,24.1,93,0.0,960.5,8.9,54.4,52,12.7,10.3,10.6,170.0,25.0,3.5,3,5,7,1,2026-07-14T01:47:30.297470+05:30
Madurai,Tamil Nadu,9.9252,78.1198,28.4,63,0.0,991.1,8.2,41.0,65,24.1,19.3,26.5,131.0,16.0,6.3,7,5,7,1,2026-07-14T01:47:30.297481+05:30
Trichy,Tamil Nadu,10.7905,78.7047,28.8,63,0.0,997.7,8.75,46.4,64,12.6,9.3,11.3,116.0,35.0,4.0,7,5,7,1,2026-07-14T01:47:30.297490+05:30
Salem,Tamil Nadu,11.6643,78.146,25.4,86,0.0,976.0,7.7,26.3,68,20.8,15.6,17.2,298.0,30.0,6.2,7,5,7,1,2026-07-14T01:47:30.297498+05:30
Tirunelveli,Tamil Nadu,8.7139,77.7567,28.7,65,0.0,1001.2,8.45,47.2,46,11.6,7.7,6.0,139.0,37.0,2.3,7,5,4,1,2026-07-14T01:47:30.297506+05:30
Vellore,Tamil Nadu,12.9165,79.1325,30.2,49,0.0,981.3,8.65,41.0,72,18.7,12.6,9.9,136.0,48.0,4.1,0,5,7,1,2026-07-14T01:47:30.297513+05:30
Erode,Tamil Nadu,11.341,77.7172,26.5,78,0.0,987.7,8.25,55.1,60,20.7,15.1,16.6,163.0,26.0,4.3,7,5,7,1,2026-07-14T01:47:30.297520+05:30
Kochi,Kerala,9.9312,76.2673,27.3,87,0.0,1008.9,8.4,45.4,55,19.8,14.6,11.9,100.0,23.0,3.8,7,0,4,1,2026-07-14T01:47:30.297527+05:30
Thiruvananthapuram,Kerala,8.5241,76.9366,25.6,95,0.1,1008.3,8.1,52.6,52,17.9,10.2,4.4,120.0,41.0,1.9,10,0,4,1,2026-07-14T01:47:30.297534+05:30
Kozhikode,Kerala,11.2588,75.7804,25.4,95,0.0,1007.9,8.65,46.1,52,20.9,10.9,2.8,178.0,46.0,1.7,7,5,4,1,2026-07-14T01:47:30.297540+05:30
Thrissur,Kerala,10.5276,76.2144,26.0,91,0.0,1007.2,8.5,43.9,54,20.4,14.1,8.8,132.0,27.0,3.3,7,5,4,1,2026-07-14T01:47:30.297548+05:30
Kannur,Kerala,11.8745,75.3704,25.7,94,0.0,1007.2,8.7,45.0,52,16.8,10.7,8.0,194.0,28.0,2.5,7,5,4,1,2026-07-14T01:47:30.297555+05:30
Patna,Bihar,25.5941,85.1376,27.1,96,0.1,993.7,8.55,25.6,149,75.2,49.1,21.3,331.0,56.0,9.7,10,5,7,1,2026-07-14T01:47:30.297562+05:30
Gaya,Bihar,24.7914,85.0002,28.6,82,0.0,986.6,8.7,26.6,127,80.8,56.1,20.8,363.0,43.0,8.0,7,5,7,1,2026-07-14T01:47:30.297569+05:30
Muzaffarpur,Bihar,26.1209,85.3647,26.9,97,0.0,993.8,8.4,29.5,150,81.7,54.0,21.2,456.0,59.0,10.5,7,5,7,1,2026-07-14T01:47:30.297576+05:30
Bhagalpur,Bihar,25.2425,87.0117,27.0,97,0.0,993.9,8.45,24.1,150,75.9,58.1,24.1,295.0,38.0,14.8,7,5,7,1,2026-07-14T01:47:30.297582+05:30
Ranchi,Jharkhand,23.3441,85.3096,24.8,87,0.0,931.3,7.85,33.8,126,117.1,67.8,27.9,475.0,34.0,8.7,3,5,7,1,2026-07-14T01:47:30.297589+05:30
Jamshedpur,Jharkhand,22.8046,86.2029,27.0,93,0.0,983.9,8.45,29.2,142,111.3,68.7,33.4,493.0,38.0,39.9,7,5,7,1,2026-07-14T01:47:30.297595+05:30
Dhanbad,Jharkhand,23.7957,86.4304,26.5,94,0.0,973.1,6.15,26.6,159,146.2,116.2,70.1,1855.0,7.0,199.0,7,5,7,1,2026-07-14T01:47:30.297602+05:30
Bokaro,Jharkhand,23.6693,86.1511,26.8,95,0.0,976.9,8.5,29.9,158,145.8,107.8,51.7,1549.0,15.0,157.3,7,5,7,1,2026-07-14T01:47:30.297610+05:30
Bhubaneswar,Odisha,20.2961,85.8245,27.8,94,0.0,995.2,1.2,30.2,127,102.4,73.1,38.0,368.0,19.0,15.6,7,5,3,1,2026-07-14T01:47:30.297616+05:30
Cuttack,Odisha,20.4625,85.8828,27.7,90,0.0,997.0,1.35,24.8,127,102.4,73.1,38.0,534.0,19.0,15.6,7,5,3,1,2026-07-14T01:47:30.297623+05:30
Rourkela,Odisha,22.2604,84.8536,28.5,85,0.0,977.7,6.6,35.6,114,93.4,52.0,15.4,439.0,62.0,16.0,7,5,7,1,2026-07-14T01:47:30.297629+05:30
Raipur,Chhattisgarh,21.2514,81.6296,27.8,73,0.0,969.0,8.65,30.2,119,68.7,41.8,31.1,384.0,42.0,54.0,7,5,7,1,2026-07-14T01:47:30.297636+05:30
Bhilai,Chhattisgarh,21.1938,81.3509,27.6,73,0.0,969.5,8.5,34.2,111,65.0,38.6,23.8,641.0,45.0,39.6,7,5,7,1,2026-07-14T01:47:30.297642+05:30
Guwahati,Assam,26.1158,91.7086,25.5,98,0.0,995.0,7.8,25.2,57,6.0,5.7,7.8,335.0,39.0,1.2,7,5,7,1,2026-07-14T01:47:30.297649+05:30
Agartala,Tripura,23.8315,91.2868,26.0,96,0.0,999.0,8.0,22.0,56,7.9,7.6,8.1,223.0,61.0,3.2,7,5,7,1,2026-07-14T01:47:30.297655+05:30
Shillong,Meghalaya,25.5788,91.8933,19.1,97,0.0,852.0,7.9,27.4,40,10.3,8.4,6.6,261.0,62.0,3.9,3,10,7,1,2026-07-14T01:47:30.297661+05:30
Imphal,Manipur,24.817,93.9368,22.8,99,0.0,917.7,9.1,25.9,53,21.9,21.0,16.8,387.0,37.0,3.7,3,5,7,1,2026-07-14T01:47:30.297668+05:30
Aizawl,Mizoram,23.7271,92.7176,20.0,98,0.0,886.4,8.95,18.0,53,7.1,6.8,7.6,202.0,23.0,0.7,3,5,7,1,2026-07-14T01:47:30.297674+05:30
Kohima,Nagaland,25.6701,94.1077,18.6,96,0.0,849.8,8.15,25.9,33,7.7,7.5,9.9,225.0,25.0,1.0,3,10,7,1,2026-07-14T01:47:30.297681+05:30
Gangtok,Sikkim,27.3314,88.6138,18.7,100,0.0,833.8,5.45,25.2,45,5.9,5.8,8.1,295.0,90.0,1.5,3,10,3,1,2026-07-14T01:47:30.297687+05:30
Siliguri,West Bengal,26.7271,88.3953,25.3,97,1.0,986.5,3.9,25.2,53,14.7,14.3,16.3,397.0,76.0,3.6,10,5,3,1,2026-07-14T01:47:33.597240+05:30
Durgapur,West Bengal,23.5204,87.3119,26.5,97,0.0,987.8,5.15,28.1,153,113.9,90.1,56.1,1125.0,12.0,57.7,7,5,3,1,2026-07-14T01:47:33.597277+05:30
Asansol,West Bengal,23.6739,86.9524,26.8,96,0.0,986.4,8.0,25.2,144,103.8,78.7,57.5,430.0,13.0,64.9,7,5,7,1,2026-07-14T01:47:33.597288+05:30
Pondicherry,Puducherry,11.9139,79.8145,29.2,71,0.0,1004.7,8.3,42.5,70,23.1,14.6,11.7,187.0,55.0,6.7,7,5,4,1,2026-07-14T01:47:33.597297+05:30
Port Blair,Andaman and Nicobar Islands,11.6234,92.7265,26.8,85,0.0,1003.4,8.35,60.1,48,24.3,10.1,0.1,84.0,48.0,0.4,7,5,4,1,2026-07-14T01:47:33.597305+05:30
Haridwar,Uttarakhand,29.9457,78.1642,26.8,87,0.0,965.9,7.5,20.9,190,240.3,121.1,41.1,371.0,48.0,17.0,7,5,7,1,2026-07-14T01:47:33.597312+05:30
Rishikesh,Uttarakhand,30.0869,78.2676,24.9,90,0.0,958.8,7.6,22.0,168,223.1,86.6,10.5,313.0,116.0,12.0,3,5,7,1,2026-07-14T01:47:33.597319+05:30
Nainital,Uttarakhand,29.3919,79.4542,15.4,99,0.0,799.8,8.5,27.7,162,153.7,71.0,14.3,232.0,80.0,7.2,3,10,7,0,2026-07-14T01:47:33.597327+05:30
Mussoorie,Uttarakhand,30.4599,78.0664,15.7,99,0.0,797.9,8.0,39.6,166,174.2,78.9,18.5,293.0,98.0,11.4,3,10,7,0,2026-07-14T01:47:33.597334+05:30
Dharamshala,Himachal Pradesh,32.219,76.3234,22.0,76,0.0,863.6,8.4,34.9,75,49.4,26.5,17.3,309.0,58.0,1.4,3,5,7,1,2026-07-14T01:47:33.597342+05:30
Dalhousie,Himachal Pradesh,32.5387,75.971,15.5,97,0.0,798.7,8.55,27.7,124,117.6,71.9,57.3,446.0,50.0,6.4,3,10,7,0,2026-07-14T01:47:33.597349+05:30
Patiala,Punjab,30.3398,76.3869,28.9,90,0.0,969.6,7.5,22.3,179,205.8,129.0,57.7,746.0,18.0,9.1,7,5,7,1,2026-07-14T01:47:33.597356+05:30
Bhatinda,Punjab,30.211,74.9455,31.1,63,0.0,974.7,8.25,23.4,179,333.4,151.8,68.4,312.0,18.0,16.1,3,5,7,1,2026-07-14T01:47:33.597363+05:30
Rohtak,Haryana,28.8955,76.6066,29.6,72,0.0,973.2,7.65,31.3,508,258.9,81.7,14.8,224.0,54.0,3.3,7,5,7,1,2026-07-14T01:47:33.597369+05:30
Panipat,Haryana,29.3909,76.9635,29.1,82,0.0,972.1,7.55,22.7,492,659.4,140.2,22.5,466.0,47.0,5.1,7,5,7,1,2026-07-14T01:47:33.597376+05:30
Mathura,Uttar Pradesh,27.4924,77.6737,30.4,63,0.0,978.4,7.9,32.0,759,994.7,170.0,15.6,207.0,52.0,4.8,3,5,7,1,2026-07-14T01:47:33.597383+05:30
Vrindavan,Uttar Pradesh,27.5823,77.7027,30.5,62,0.0,978.8,7.9,32.8,759,994.7,170.0,15.6,200.0,52.0,4.8,3,5,7,1,2026-07-14T01:47:33.597389+05:30
Ayodhya,Uttar Pradesh,26.7922,82.1998,27.0,95,0.0,987.9,8.05,31.0,142,79.6,59.8,26.1,447.0,36.0,6.1,7,5,7,1,2026-07-14T01:47:33.597395+05:30
Ratlam,Madhya Pradesh,23.3315,75.0367,24.8,89,0.0,950.5,8.2,48.6,63,18.5,12.5,7.8,146.0,41.0,9.8,3,5,7,1,2026-07-14T01:47:33.597402+05:30
Sagar,Madhya Pradesh,23.8388,78.7378,26.8,69,0.0,944.8,8.25,49.7,88,44.5,25.3,6.3,173.0,65.0,4.5,7,5,7,1,2026-07-14T01:47:33.597408+05:30
Satna,Madhya Pradesh,24.6005,80.8322,28.2,67,0.0,964.7,8.7,41.4,95,85.4,38.0,6.5,181.0,64.0,4.2,7,5,7,1,2026-07-14T01:47:33.597430+05:30
Akola,Maharashtra,20.7002,77.0082,27.8,67,0.0,971.7,8.5,50.0,58,17.3,12.0,7.5,132.0,45.0,7.4,7,5,7,1,2026-07-14T01:47:33.597438+05:30
Amravati,Maharashtra,20.9374,77.7796,27.4,68,0.0,963.3,8.6,51.8,60,17.5,12.0,8.0,123.0,45.0,8.5,7,5,7,1,2026-07-14T01:47:33.597445+05:30
Latur,Maharashtra,18.4088,76.5604,24.1,75,0.0,937.3,8.25,45.4,52,14.7,10.3,5.6,137.0,46.0,3.1,3,5,7,1,2026-07-14T01:47:33.597452+05:30
Nanded,Maharashtra,19.1383,77.3091,27.2,64,0.0,965.4,8.1,43.6,57,19.1,14.1,5.5,148.0,66.0,5.0,7,5,7,1,2026-07-14T01:47:33.597458+05:30
Gulbarga,Karnataka,17.3297,76.8343,25.2,71,0.0,956.6,8.05,47.2,51,13.2,9.4,6.2,117.0,44.0,2.9,7,5,7,1,2026-07-14T01:47:33.597465+05:30
Bidar,Karnataka,17.9104,77.5199,25.3,66,0.0,932.7,7.9,41.0,55,14.8,10.7,5.3,121.0,56.0,2.5,7,5,7,1,2026-07-14T01:47:33.597472+05:30
Hospet,Karnataka,15.2689,76.3909,23.3,85,0.0,955.0,7.4,47.9,48,10.1,7.1,5.7,134.0,39.0,2.0,3,5,7,1,2026-07-14T01:47:33.597478+05:30
Tirupur,Tamil Nadu,11.1085,77.3411,24.8,89,0.0,974.1,8.9,59.0,62,23.8,18.0,21.2,149.0,18.0,5.2,3,5,7,1,2026-07-14T01:47:33.597484+05:30
Alappuzha,Kerala,9.4981,76.3388,27.5,86,0.0,1009.0,7.75,45.7,55,20.8,12.1,7.0,83.0,37.0,3.0,7,0,4,1,2026-07-14T01:47:33.597490+05:30
Munnar,Kerala,10.0889,77.0595,16.1,92,0.0,855.4,8.6,35.6,40,9.8,7.4,8.7,98.0,23.0,1.8,3,10,7,0,2026-07-14T01:47:33.597497+05:30
Silchar,Assam,24.8333,92.7789,26.9,95,0.1,998.3,8.8,23.4,72,15.1,12.9,5.8,192.0,69.0,3.0,10,5,7,1,2026-07-14T01:47:33.597503+05:30
Dibrugarh,Assam,27.4728,94.912,27.4,88,0.0,988.0,8.45,25.6,56,25.4,24.9,23.7,352.0,26.0,2.7,7,5,7,1,2026-07-14T01:47:33.597509+05:30
