city,state,latitude,longitude,temp,humidity,rain,pressure,uv_index,wind_gusts,aqi,pm10,pm2_5,mosquito_risk,arthritis_risk,migraine_risk,frizz_risk,updated_at
Delhi,Delhi,28.6139,77.209,17.8,79,0.0,984.9,5.85,21.2,324,159.3,63.8,3,5,3,0,2026-03-17T07:56:56.349640+05:30
Mumbai,Maharashtra,19.076,72.8777,26.4,77,0.0,1010.3,7.7,18.4,103,109.2,41.7,7,0,4,1,2026-03-17T07:56:56.349688+05:30
Bangalore,Karnataka,12.9716,77.5946,20.7,80,0.0,912.9,9.35,41.0,98,37.0,35.6,3,5,7,1,2026-03-17T07:56:56.349704+05:30
Hyderabad,Telangana,17.385,78.4867,22.5,84,0.0,955.4,7.65,20.9,94,25.4,20.7,3,5,7,1,2026-03-17T07:56:56.349714+05:30
Chennai,Tamil Nadu,13.0827,80.2707,26.9,81,0.0,1010.4,9.1,32.0,34,13.1,10.4,7,0,4,1,2026-03-17T07:56:56.349724+05:30
Kolkata,West Bengal,22.5726,88.3639,25.4,87,0.0,1009.5,7.85,56.2,84,39.6,36.3,7,0,4,1,2026-03-17T07:56:56.349733+05:30
Pune,Maharashtra,18.5204,73.8567,18.2,65,0.0,948.8,8.25,37.1,86,92.7,51.5,3,5,7,0,2026-03-17T07:56:56.349745+05:30
Ahmedabad,Gujarat,23.0225,72.5714,21.6,79,0.0,1003.8,7.55,19.8,56,36.3,20.9,3,5,4,1,2026-03-17T07:56:56.349753+05:30
Jaipur,Rajasthan,26.9124,75.7873,20.1,63,0.0,960.4,6.85,38.5,237,447.0,97.6,3,5,7,0,2026-03-17T07:56:56.349761+05:30
Lucknow,Uttar Pradesh,26.8467,80.9462,21.6,58,0.0,995.1,6.45,22.0,91,45.5,32.7,0,5,7,0,2026-03-17T07:56:56.349770+05:30
Kanpur,Uttar Pradesh,26.4499,80.3319,21.1,67,0.0,993.6,6.7,25.9,122,110.1,40.0,3,5,7,0,2026-03-17T07:56:56.349778+05:30
Chandigarh,Chandigarh,30.7333,76.7794,14.4,67,0.0,970.5,5.65,17.6,61,27.9,16.9,3,5,3,0,2026-03-17T07:56:56.349785+05:30
Srinagar,Jammu and Kashmir,34.0837,74.7973,2.7,92,0.0,838.8,6.8,15.5,81,25.4,23.6,3,10,7,0,2026-03-17T07:56:56.349792+05:30
Jammu,Jammu and Kashmir,32.7266,74.857,14.1,63,0.0,975.2,6.75,16.2,71,30.5,28.3,3,5,7,0,2026-03-17T07:56:56.349798+05:30
Amritsar,Punjab,31.634,74.8723,12.0,86,0.0,983.8,6.55,17.3,83,48.1,32.0,3,10,7,0,2026-03-17T07:56:56.349805+05:30
Ludhiana,Punjab,30.901,75.8573,12.5,72,0.0,981.2,6.3,14.4,76,45.4,26.6,3,5,7,0,2026-03-17T07:56:56.349811+05:30
Jalandhar,Punjab,31.326,75.5762,12.5,80,0.0,982.5,6.4,16.6,71,43.1,25.3,3,5,7,0,2026-03-17T07:56:56.349820+05:30
Dehradun,Uttarakhand,30.6284,78.0322,8.6,40,0.0,827.9,5.2,23.8,37,14.1,5.4,0,5,3,1,2026-03-17T07:56:56.349827+05:30
Shimla,Himachal Pradesh,31.1048,77.1734,7.8,55,0.0,781.3,5.65,23.0,49,21.3,12.0,0,5,3,1,2026-03-17T07:56:56.349834+05:30
Manali,Himachal Pradesh,32.2396,77.1887,8.1,27,0.0,815.1,8.55,29.9,46,10.9,4.2,0,5,7,1,2026-03-17T07:56:56.349842+05:30
Gurgaon,Haryana,28.4595,77.0266,15.8,85,0.0,983.3,5.4,20.2,1599,923.9,144.8,3,10,3,0,2026-03-17T07:56:56.349849+05:30
Noida,Uttar Pradesh,28.5355,77.391,17.9,80,0.0,986.5,5.45,20.5,1599,923.9,144.8,3,5,3,0,2026-03-17T07:56:56.349856+05:30
Ghaziabad,Uttar Pradesh,28.6692,77.4538,16.8,82,0.0,984.6,5.6,21.2,118,71.5,49.5,3,10,3,0,2026-03-17T07:56:56.349865+05:30
Faridabad,Haryana,28.4089,77.3178,17.0,86,0.0,985.6,5.3,20.5,1599,923.9,144.8,3,10,3,0,2026-03-17T07:56:56.349872+05:30
Meerut,Uttar Pradesh,28.9845,77.7064,16.1,81,0.0,983.2,5.8,17.6,118,71.5,49.5,3,10,3,0,2026-03-17T07:56:56.349878+05:30
Agra,Uttar Pradesh,27.1767,78.0081,19.4,77,0.0,989.4,6.55,16.2,671,407.9,84.3,3,5,7,0,2026-03-17T07:56:56.349884+05:30
Varanasi,Uttar Pradesh,25.3176,82.9739,22.6,79,0.0,999.8,7.35,18.0,151,80.6,66.6,3,5,7,1,2026-03-17T07:56:56.349893+05:30
Prayagraj,Uttar Pradesh,25.4358,81.8463,21.8,80,0.0,998.3,7.2,20.9,138,60.8,44.6,3,5,7,1,2026-03-17T07:56:56.349900+05:30
Gorakhpur,Uttar Pradesh,26.7606,83.3732,20.2,71,0.0,999.5,7.05,29.5,92,70.5,51.1,3,5,7,0,2026-03-17T07:56:56.349909+05:30
Bareilly,Uttar Pradesh,28.367,79.4304,18.7,73,0.0,988.7,5.3,16.9,98,64.3,37.8,3,5,3,0,2026-03-17T07:56:56.349916+05:30
Aligarh,Uttar Pradesh,27.8974,78.088,17.8,82,0.0,987.3,5.6,18.0,410,194.2,72.6,3,10,3,0,2026-03-17T07:56:56.349922+05:30
Moradabad,Uttar Pradesh,28.8386,78.7733,17.8,72,0.0,985.3,5.0,17.3,104,76.6,55.6,3,5,3,0,2026-03-17T07:56:56.349928+05:30
Saharanpur,Uttar Pradesh,29.9637,77.546,16.8,65,0.0,977.5,4.8,15.5,120,45.6,40.0,3,5,3,0,2026-03-17T07:56:56.349934+05:30
Jhansi,Uttar Pradesh,25.4484,78.5685,22.3,44,0.0,979.0,7.2,25.9,93,52.4,22.2,0,5,7,0,2026-03-17T07:56:59.570067+05:30
Surat,Gujarat,21.1702,72.8311,25.4,87,0.0,1008.7,7.4,26.3,97,50.5,36.2,7,0,4,1,2026-03-17T07:56:59.570100+05:30
Vadodara,Gujarat,22.3072,73.1812,22.7,96,0.0,1006.4,7.5,25.9,72,35.2,27.0,3,5,4,1,2026-03-17T07:56:59.570110+05:30
Rajkot,Gujarat,22.3039,70.8022,22.2,86,0.0,995.4,7.35,24.5,56,42.3,16.2,3,5,7,1,2026-03-17T07:56:59.570118+05:30
Thane,Maharashtra,19.2183,72.9781,24.2,87,0.0,1010.0,7.7,30.6,103,109.2,41.7,3,0,4,1,2026-03-17T07:56:59.570124+05:30
Nagpur,Maharashtra,21.1458,79.0882,24.1,68,0.0,974.9,8.05,21.2,100,56.6,51.9,3,5,7,1,2026-03-17T07:56:59.570131+05:30
Nashik,Maharashtra,19.9975,73.7898,19.2,69,0.0,946.5,7.9,27.4,75,104.5,34.9,3,5,7,0,2026-03-17T07:56:59.570137+05:30
Aurangabad,Maharashtra,19.8762,75.3433,21.2,64,0.0,945.1,8.4,29.2,61,63.8,27.2,3,5,7,0,2026-03-17T07:56:59.570144+05:30
Solapur,Maharashtra,17.6599,75.9064,22.6,57,0.0,958.4,8.5,24.8,90,30.2,26.0,0,5,7,0,2026-03-17T07:56:59.570150+05:30
Kolhapur,Maharashtra,16.705,74.2433,19.6,88,0.0,948.9,8.7,44.3,90,71.0,61.5,3,10,7,1,2026-03-17T07:56:59.570157+05:30
Goa,Goa,15.2993,74.124,26.5,79,0.0,999.5,8.75,36.7,77,51.8,36.1,7,5,7,1,2026-03-17T07:56:59.570164+05:30
Jodhpur,Rajasthan,26.2389,73.0243,20.6,62,0.0,983.6,6.0,30.6,104,238.0,73.8,3,5,3,0,2026-03-17T07:56:59.570171+05:30
Udaipur,Rajasthan,24.5854,73.7125,21.0,38,0.0,946.5,7.85,34.2,35,61.7,13.6,0,5,7,0,2026-03-17T07:56:59.570177+05:30
Kota,Rajasthan,25.2138,75.8648,19.2,49,0.0,979.5,7.3,28.1,63,208.6,49.6,0,5,7,0,2026-03-17T07:56:59.570183+05:30
Bikaner,Rajasthan,28.0229,73.3119,18.9,71,0.0,983.8,6.7,19.8,74,124.3,41.1,3,5,7,0,2026-03-17T07:56:59.570190+05:30
Ajmer,Rajasthan,26.4499,74.6399,21.1,54,0.0,954.9,6.9,37.4,102,363.2,84.5,0,5,7,0,2026-03-17T07:56:59.570196+05:30
Gwalior,Madhya Pradesh,26.2183,78.1828,20.9,67,0.0,984.3,6.9,30.6,96,128.5,37.6,3,5,7,0,2026-03-17T07:56:59.570202+05:30
Indore,Madhya Pradesh,22.7196,75.8577,20.7,63,0.0,948.8,7.75,31.0,58,29.4,18.3,3,5,7,0,2026-03-17T07:56:59.570207+05:30
Bhopal,Madhya Pradesh,23.2599,77.4126,22.3,49,0.0,954.6,7.7,29.9,47,12.4,11.1,0,5,7,0,2026-03-17T07:56:59.570213+05:30
Jabalpur,Madhya Pradesh,23.1815,79.9864,21.5,52,0.0,962.7,7.75,25.6,55,32.7,28.8,0,5,7,0,2026-03-17T07:56:59.570219+05:30
Ujjain,Madhya Pradesh,23.1765,75.7885,20.5,64,0.0,954.5,7.65,26.3,56,38.2,21.1,3,5,7,0,2026-03-17T07:56:59.570225+05:30
Visakhapatnam,Andhra Pradesh,17.6868,83.2185,25.7,81,0.0,1007.6,8.7,40.0,56,23.6,20.8,7,5,4,1,2026-03-17T07:56:59.570231+05:30
Vijayawada,Andhra Pradesh,16.5062,80.648,24.9,84,0.0,1006.3,8.8,28.4,49,19.8,17.8,3,5,4,1,2026-03-17T07:56:59.570237+05:30
Guntur,Andhra Pradesh,16.3067,80.4365,25.0,86,0.0,1007.4,8.8,28.1,46,18.5,16.6,7,5,4,1,2026-03-17T07:56:59.570243+05:30
Nellore,Andhra Pradesh,14.4426,79.9865,25.8,83,0.0,1009.4,8.95,29.9,39,11.1,8.6,7,0,4,1,2026-03-17T07:56:59.570250+05:30
Kurnool,Andhra Pradesh,15.8281,78.0373,25.4,76,0.0,979.3,8.3,32.0,76,10.5,9.1,7,5,7,1,2026-03-17T07:56:59.570256+05:30
Kakinada,Andhra Pradesh,16.9891,82.2475,25.1,86,0.0,1011.4,8.75,28.1,39,18.1,15.1,7,0,4,1,2026-03-17T07:56:59.570262+05:30
Tirupati,Andhra Pradesh,13.6288,79.4192,24.5,84,0.0,994.9,9.1,27.4,54,21.0,18.3,3,5,7,1,2026-03-17T07:56:59.570267+05:30
Warangal,Telangana,17.9689,79.5941,23.3,88,0.0,981.5,8.25,32.8,69,15.5,13.9,3,5,7,1,2026-03-17T07:56:59.570273+05:30
Nizamabad,Telangana,18.6725,78.0941,24.8,66,0.0,967.0,8.45,31.7,130,42.6,39.6,3,5,7,1,2026-03-17T07:56:59.570278+05:30
Mysore,Karnataka,12.2958,76.6396,20.5,91,0.0,929.7,9.35,36.4,125,61.7,57.7,3,5,7,1,2026-03-17T07:56:59.570284+05:30
Mangalore,Karnataka,12.9141,74.856,26.6,82,0.0,1008.6,8.95,19.8,104,54.6,47.0,7,0,4,1,2026-03-17T07:56:59.570290+05:30
Hubli-Dharwad,Karnataka,15.3647,75.124,21.3,94,0.0,941.9,8.85,32.0,85,34.6,24.4,3,5,7,1,2026-03-17T07:56:59.570296+05:30
Belgaum,Karnataka,15.8497,74.4977,20.3,90,0.0,926.1,8.95,31.0,77,52.0,42.5,3,5,7,1,2026-03-17T07:57:02.788015+05:30
Coimbatore,Tamil Nadu,11.0168,76.9558,23.2,80,0.0,963.8,9.3,29.9,100,41.2,38.5,3,5,7,1,2026-03-17T07:57:02.788047+05:30
Madurai,Tamil Nadu,9.9252,78.1198,25.2,85,0.0,995.7,7.0,21.2,51,16.8,15.2,7,5,7,1,2026-03-17T07:57:02.788057+05:30
Trichy,Tamil Nadu,10.7905,78.7047,25.6,89,0.0,1002.9,9.2,22.7,53,16.2,14.0,7,5,4,1,2026-03-17T07:57:02.788065+05:30
Salem,Tamil Nadu,11.6643,78.146,25.1,86,0.0,980.0,9.25,25.9,68,27.6,26.1,7,5,7,1,2026-03-17T07:57:02.788072+05:30
Tirunelveli,Tamil Nadu,8.7139,77.7567,25.1,87,0.0,1005.9,7.15,36.0,59,27.5,26.4,7,5,4,1,2026-03-17T07:57:02.788079+05:30
Vellore,Tamil Nadu,12.9165,79.1325,24.0,83,0.0,987.9,9.15,32.0,65,16.5,14.7,3,5,7,1,2026-03-17T07:57:02.788085+05:30
Erode,Tamil Nadu,11.341,77.7172,25.7,84,0.0,991.8,9.25,29.9,50,10.6,8.9,7,5,7,1,2026-03-17T07:57:02.788091+05:30
Kochi,Kerala,9.9312,76.2673,27.4,82,0.0,1010.2,8.75,32.0,85,33.9,32.0,7,0,4,1,2026-03-17T07:57:02.788097+05:30
Thiruvananthapuram,Kerala,8.5241,76.9366,26.9,84,0.0,1009.6,8.2,22.7,55,13.1,12.0,7,0,4,1,2026-03-17T07:57:02.788103+05:30
Kozhikode,Kerala,11.2588,75.7804,26.1,85,0.0,1009.5,9.0,28.4,95,42.7,37.3,7,0,4,1,2026-03-17T07:57:02.788110+05:30
Thrissur,Kerala,10.5276,76.2144,25.4,89,0.0,1008.8,8.25,34.2,86,33.2,30.6,7,0,4,1,2026-03-17T07:57:02.788116+05:30
Kannur,Kerala,11.8745,75.3704,25.4,77,0.0,1008.8,9.0,29.5,107,51.0,46.0,7,0,4,1,2026-03-17T07:57:02.788123+05:30
Patna,Bihar,25.5941,85.1376,24.3,72,0.0,1002.7,7.5,25.9,152,104.1,88.7,3,5,4,1,2026-03-17T07:57:02.788129+05:30
Gaya,Bihar,24.7914,85.0002,22.8,78,0.0,996.6,7.6,27.7,110,44.0,41.2,3,5,7,1,2026-03-17T07:57:02.788135+05:30
Muzaffarpur,Bihar,26.1209,85.3647,22.1,81,0.0,1002.6,7.45,34.2,156,118.0,97.1,3,5,4,1,2026-03-17T07:57:02.788141+05:30
Bhagalpur,Bihar,25.2425,87.0117,24.1,81,0.0,1003.3,7.5,27.7,142,64.3,61.2,3,5,4,1,2026-03-17T07:57:02.788147+05:30
Ranchi,Jharkhand,23.3441,85.3096,21.4,68,0.0,940.1,8.2,47.9,114,54.7,48.9,3,5,7,0,2026-03-17T07:57:02.788154+05:30
Jamshedpur,Jharkhand,22.8046,86.2029,23.9,81,0.0,994.3,8.15,39.6,121,70.3,62.2,3,5,7,1,2026-03-17T07:57:02.788160+05:30
Dhanbad,Jharkhand,23.7957,86.4304,24.1,70,0.0,982.7,8.0,47.2,151,105.2,99.0,3,5,7,1,2026-03-17T07:57:02.788166+05:30
Bokaro,Jharkhand,23.6693,86.1511,25.2,67,0.0,986.9,8.0,53.3,133,88.0,81.7,7,5,7,1,2026-03-17T07:57:02.788174+05:30
Bhubaneswar,Odisha,20.2961,85.8245,25.9,84,0.0,1006.4,8.45,35.3,69,15.6,12.6,7,5,4,1,2026-03-17T07:57:02.788180+05:30
Cuttack,Odisha,20.4625,85.8828,25.4,87,0.0,1008.3,8.5,30.6,69,15.6,12.6,7,0,4,1,2026-03-17T07:57:02.788186+05:30
Rourkela,Odisha,22.2604,84.8536,23.5,76,0.0,988.2,8.05,48.6,147,79.4,70.5,3,5,7,1,2026-03-17T07:57:02.788193+05:30
Raipur,Chhattisgarh,21.2514,81.6296,26.3,65,0.0,977.0,8.15,31.3,141,81.5,75.4,7,5,7,1,2026-03-17T07:57:02.788198+05:30
Bhilai,Chhattisgarh,21.1938,81.3509,26.4,66,0.0,977.2,8.15,34.9,133,64.5,59.3,7,5,7,1,2026-03-17T07:57:02.788204+05:30
Guwahati,Assam,26.1158,91.7086,20.7,88,0.0,1004.7,7.5,45.4,81,35.5,28.8,3,5,4,1,2026-03-17T07:57:02.788210+05:30
Agartala,Tripura,23.8315,91.2868,23.4,88,0.0,1010.5,7.9,43.6,69,7.1,6.4,3,0,4,1,2026-03-17T07:57:02.788216+05:30
Shillong,Meghalaya,25.5788,91.8933,12.8,83,0.0,856.8,7.2,77.8,59,13.1,10.0,3,10,7,0,2026-03-17T07:57:02.788222+05:30
Imphal,Manipur,24.817,93.9368,12.5,93,0.7,927.3,8.1,91.4,99,52.0,42.5,6,10,7,0,2026-03-17T07:57:02.788229+05:30
Aizawl,Mizoram,23.7271,92.7176,18.5,79,0.0,896.1,7.95,61.9,98,38.1,30.4,3,5,7,0,2026-03-17T07:57:02.788236+05:30
Kohima,Nagaland,25.6701,94.1077,14.0,64,0.0,856.4,8.05,99.4,84,37.0,30.4,3,5,7,0,2026-03-17T07:57:02.788242+05:30
Gangtok,Sikkim,27.3314,88.6138,12.1,75,0.0,836.5,7.55,19.4,84,62.4,31.8,3,5,7,0,2026-03-17T07:57:02.788249+05:30
Siliguri,West Bengal,26.7271,88.3953,20.8,63,0.0,995.7,7.4,43.2,122,78.5,58.1,3,5,7,0,2026-03-17T07:57:06.011968+05:30
Durgapur,West Bengal,23.5204,87.3119,24.2,82,0.0,998.2,8.0,47.9,154,80.6,76.4,3,5,7,1,2026-03-17T07:57:06.012002+05:30
Asansol,West Bengal,23.6739,86.9524,24.6,75,0.0,997.0,8.0,46.8,144,79.2,74.0,3,5,7,1,2026-03-17T07:57:06.012012+05:30
Pondicherry,Puducherry,11.9139,79.8145,26.0,89,0.0,1011.6,9.05,28.1,32,11.0,8.0,7,0,4,1,2026-03-17T07:57:06.012021+05:30
Port Blair,Andaman and Nicobar Islands,11.6234,92.7265,27.6,79,0.0,1010.3,9.0,19.1,85,13.6,11.3,7,0,4,1,2026-03-17T07:57:06.012028+05:30
Haridwar,Uttarakhand,29.9457,78.1642,17.6,58,0.0,976.1,4.75,18.4,66,16.4,12.2,0,5,3,0,2026-03-17T07:57:06.012034+05:30
Rishikesh,Uttarakhand,30.0869,78.2676,17.1,51,0.0,968.8,4.65,19.8,56,18.5,11.7,0,5,3,0,2026-03-17T07:57:06.012040+05:30
Nainital,Uttarakhand,29.3919,79.4542,15.5,40,0.0,805.6,4.85,37.8,60,18.3,11.9,0,5,3,0,2026-03-17T07:57:06.012046+05:30
Mussoorie,Uttarakhand,30.4599,78.0664,11.5,36,0.0,800.9,5.55,30.2,57,15.5,10.5,0,5,3,1,2026-03-17T07:57:06.012052+05:30
Dharamshala,Himachal Pradesh,32.219,76.3234,14.7,24,0.0,868.0,5.75,26.6,46,9.1,6.1,0,5,3,1,2026-03-17T07:57:06.012058+05:30
Dalhousie,Himachal Pradesh,32.5387,75.971,11.0,20,0.0,801.3,6.15,24.8,58,19.1,15.2,0,5,7,1,2026-03-17T07:57:06.012065+05:30
Patiala,Punjab,30.3398,76.3869,13.6,74,0.0,980.3,5.75,16.9,80,46.6,34.9,3,5,3,0,2026-03-17T07:57:06.012071+05:30
Bhatinda,Punjab,30.211,74.9455,13.4,80,0.0,986.6,6.55,19.1,92,64.0,30.9,3,5,7,0,2026-03-17T07:57:06.012077+05:30
Rohtak,Haryana,28.8955,76.6066,14.8,84,0.0,983.9,5.85,24.1,573,202.6,74.3,3,10,3,0,2026-03-17T07:57:06.012084+05:30
Panipat,Haryana,29.3909,76.9635,14.8,80,0.0,982.3,5.9,16.6,307,148.1,64.0,3,5,3,0,2026-03-17T07:57:06.012091+05:30
Mathura,Uttar Pradesh,27.4924,77.6737,17.8,82,0.0,988.6,6.1,17.6,613,305.5,80.1,3,10,7,0,2026-03-17T07:57:06.012097+05:30
Vrindavan,Uttar Pradesh,27.5823,77.7027,18.0,82,0.0,989.1,6.1,18.0,613,305.5,80.1,3,10,7,0,2026-03-17T07:57:06.012103+05:30
Ayodhya,Uttar Pradesh,26.7922,82.1998,20.3,68,0.0,997.4,6.5,25.2,94,53.4,40.0,3,5,7,0,2026-03-17T07:57:06.012109+05:30
Ratlam,Madhya Pradesh,23.3315,75.0367,22.2,55,0.0,955.5,7.6,33.1,55,45.4,22.4,0,5,7,0,2026-03-17T07:57:06.012115+05:30
Sagar,Madhya Pradesh,23.8388,78.7378,22.2,47,0.0,951.0,7.65,31.3,36,8.1,7.9,0,5,7,0,2026-03-17T07:57:06.012121+05:30
Satna,Madhya Pradesh,24.6005,80.8322,22.9,68,0.0,972.8,7.55,35.3,92,73.3,61.5,3,5,7,1,2026-03-17T07:57:06.012127+05:30
Akola,Maharashtra,20.7002,77.0082,23.2,64,0.0,977.0,8.05,25.9,69,40.5,29.5,3,5,7,0,2026-03-17T07:57:06.012134+05:30
Amravati,Maharashtra,20.9374,77.7796,22.7,56,0.0,968.8,8.05,31.0,77,43.1,33.9,0,5,7,0,2026-03-17T07:57:06.012140+05:30
Latur,Maharashtra,18.4088,76.5604,22.3,56,0.0,941.1,8.5,25.2,90,37.3,26.7,0,5,7,0,2026-03-17T07:57:06.012145+05:30
Nanded,Maharashtra,19.1383,77.3091,23.3,56,0.0,970.6,8.3,19.8,98,46.0,41.1,0,5,7,0,2026-03-17T07:57:06.012151+05:30
Gulbarga,Karnataka,17.3297,76.8343,24.6,63,0.0,960.2,7.65,29.9,116,38.0,35.5,3,5,7,1,2026-03-17T07:57:06.012157+05:30
Bidar,Karnataka,17.9104,77.5199,23.4,67,0.0,937.2,7.9,28.8,127,28.1,26.0,3,5,7,1,2026-03-17T07:57:06.012163+05:30
Hospet,Karnataka,15.2689,76.3909,24.5,80,0.0,957.5,8.65,46.8,119,42.6,38.4,3,5,7,1,2026-03-17T07:57:06.012168+05:30
Tirupur,Tamil Nadu,11.1085,77.3411,24.1,83,0.0,977.7,9.35,34.2,77,22.8,21.1,3,5,7,1,2026-03-17T07:57:06.012174+05:30
Alappuzha,Kerala,9.4981,76.3388,27.2,84,0.0,1010.4,9.05,30.2,82,30.0,28.1,7,0,4,1,2026-03-17T07:57:06.012181+05:30
Munnar,Kerala,10.0889,77.0595,20.3,80,0.0,857.6,9.6,29.2,79,28.2,26.9,3,5,7,1,2026-03-17T07:57:06.012187+05:30
Silchar,Assam,24.8333,92.7789,19.0,83,0.0,1011.6,7.9,43.2,78,42.8,37.6,3,5,4,0,2026-03-17T07:57:06.012193+05:30
Dibrugarh,Assam,27.4728,94.912,18.7,90,0.0,999.3,5.75,42.8,89,48.9,37.5,3,10,3,1,2026-03-17T07:57:06.012198+05:30
