city,state,latitude,longitude,temp,humidity,rain,pressure,uv_index,wind_gusts,aqi,pm10,pm2_5,mosquito_risk,arthritis_risk,migraine_risk,frizz_risk,updated_at
Delhi,Delhi,28.6139,77.209,27.5,46,0.0,980.1,7.4,27.7,171,232.4,62.2,4,5,7,0,2026-04-24T05:20:38.283599+05:30
Mumbai,Maharashtra,19.076,72.8777,28.8,82,0.0,1006.5,8.05,24.5,81,27.5,16.2,7,5,4,1,2026-04-24T05:20:38.283649+05:30
Bangalore,Karnataka,12.9716,77.5946,23.5,68,0.0,909.7,9.6,34.9,78,35.2,32.4,3,5,7,1,2026-04-24T05:20:38.283666+05:30
Hyderabad,Telangana,17.385,78.4867,25.6,68,0.0,951.4,9.3,40.3,124,48.8,41.8,7,5,7,1,2026-04-24T05:20:38.283676+05:30
Chennai,Tamil Nadu,13.0827,80.2707,27.9,87,0.0,1005.1,8.7,33.5,30,10.7,7.4,7,5,4,1,2026-04-24T05:20:38.283689+05:30
Kolkata,West Bengal,22.5726,88.3639,27.7,94,0.0,1004.8,8.9,25.2,97,29.6,25.9,7,5,4,1,2026-04-24T05:20:38.283701+05:30
Pune,Maharashtra,18.5204,73.8567,25.2,80,0.0,946.9,8.6,28.1,109,67.8,61.0,7,5,7,1,2026-04-24T05:20:38.283709+05:30
Ahmedabad,Gujarat,23.0225,72.5714,26.7,64,0.0,1000.6,8.2,23.4,51,8.7,5.5,7,5,4,1,2026-04-24T05:20:38.283718+05:30
Jaipur,Rajasthan,26.9124,75.7873,28.2,32,0.0,958.1,8.05,29.9,73,136.9,21.7,4,5,7,0,2026-04-24T05:20:38.283727+05:30
Lucknow,Uttar Pradesh,26.8467,80.9462,24.6,54,0.0,991.1,7.9,19.8,177,153.7,35.9,0,5,7,0,2026-04-24T05:20:38.283736+05:30
Kanpur,Uttar Pradesh,26.4499,80.3319,23.7,62,0.0,989.2,7.95,18.4,264,185.8,38.9,3,5,7,0,2026-04-24T05:20:38.283743+05:30
Chandigarh,Chandigarh,30.7333,76.7794,24.8,53,0.0,965.6,7.4,28.8,69,23.5,19.4,0,5,7,0,2026-04-24T05:20:38.283751+05:30
Srinagar,Jammu and Kashmir,34.0837,74.7973,11.4,80,0.0,840.4,8.5,29.5,75,47.0,33.1,3,5,7,0,2026-04-24T05:20:38.283758+05:30
Jammu,Jammu and Kashmir,32.7266,74.857,23.9,63,0.0,969.7,8.2,36.7,70,22.1,17.9,3,5,7,1,2026-04-24T05:20:38.283765+05:30
Amritsar,Punjab,31.634,74.8723,24.4,69,0.0,977.6,8.1,38.5,90,46.1,32.5,3,5,7,1,2026-04-24T05:20:38.283772+05:30
Ludhiana,Punjab,30.901,75.8573,25.9,65,0.0,975.6,7.7,35.3,86,34.8,31.2,7,5,7,1,2026-04-24T05:20:38.283781+05:30
Jalandhar,Punjab,31.326,75.5762,24.7,69,0.0,976.6,7.85,30.6,88,48.2,39.5,3,5,7,1,2026-04-24T05:20:38.283788+05:30
Dehradun,Uttarakhand,30.6284,78.0322,17.8,51,0.0,830.2,7.85,45.4,53,11.3,9.7,0,5,7,0,2026-04-24T05:20:38.283795+05:30
Shimla,Himachal Pradesh,31.1048,77.1734,15.9,60,0.0,784.4,7.9,49.0,55,23.2,16.9,0,5,7,0,2026-04-24T05:20:38.283803+05:30
Manali,Himachal Pradesh,32.2396,77.1887,18.0,49,0.0,822.0,9.3,33.5,53,23.7,16.1,0,5,7,0,2026-04-24T05:20:38.283810+05:30
Gurgaon,Haryana,28.4595,77.0266,23.2,65,0.0,978.3,7.5,23.0,637,815.8,105.9,3,5,7,1,2026-04-24T05:20:38.283817+05:30
Noida,Uttar Pradesh,28.5355,77.391,27.4,45,0.0,981.6,7.45,27.4,637,815.8,105.9,4,5,7,0,2026-04-24T05:20:38.283824+05:30
Ghaziabad,Uttar Pradesh,28.6692,77.4538,26.9,51,0.0,979.8,7.4,27.0,167,251.5,71.5,4,5,7,0,2026-04-24T05:20:38.283830+05:30
Faridabad,Haryana,28.4089,77.3178,28.8,36,0.0,980.6,7.5,25.9,637,815.8,105.9,4,5,7,0,2026-04-24T05:20:38.283837+05:30
Meerut,Uttar Pradesh,28.9845,77.7064,25.8,54,0.0,978.5,7.35,25.6,167,251.5,71.5,4,5,7,0,2026-04-24T05:20:38.283844+05:30
Agra,Uttar Pradesh,27.1767,78.0081,23.0,59,0.0,984.9,7.8,28.1,573,780.4,77.1,0,5,7,0,2026-04-24T05:20:38.283855+05:30
Varanasi,Uttar Pradesh,25.3176,82.9739,24.4,53,0.0,995.4,8.5,22.0,139,247.7,66.1,0,5,7,0,2026-04-24T05:20:38.283862+05:30
Prayagraj,Uttar Pradesh,25.4358,81.8463,25.9,50,0.0,993.9,8.35,19.8,145,256.1,64.5,4,5,7,0,2026-04-24T05:20:38.283869+05:30
Gorakhpur,Uttar Pradesh,26.7606,83.3732,23.8,86,0.0,994.9,8.3,24.5,120,177.0,48.3,3,5,7,1,2026-04-24T05:20:38.283876+05:30
Bareilly,Uttar Pradesh,28.367,79.4304,24.6,62,0.0,983.9,7.7,22.3,120,151.3,47.3,3,5,7,1,2026-04-24T05:20:38.283883+05:30
Aligarh,Uttar Pradesh,27.8974,78.088,23.6,56,0.0,982.3,7.6,25.6,444,294.3,50.1,0,5,7,0,2026-04-24T05:20:38.283890+05:30
Moradabad,Uttar Pradesh,28.8386,78.7733,24.6,63,0.0,980.7,7.5,33.5,142,242.1,84.5,3,5,7,1,2026-04-24T05:20:38.283896+05:30
Saharanpur,Uttar Pradesh,29.9637,77.546,22.7,71,0.0,972.4,7.15,25.9,105,46.0,42.7,3,5,7,1,2026-04-24T05:20:38.283903+05:30
Jhansi,Uttar Pradesh,25.4484,78.5685,25.7,35,0.0,976.0,8.3,31.0,44,12.7,12.4,4,5,7,0,2026-04-24T05:20:41.498160+05:30
Surat,Gujarat,21.1702,72.8311,27.8,80,0.0,1005.2,7.9,21.2,100,35.5,26.0,7,5,4,1,2026-04-24T05:20:41.498190+05:30
Vadodara,Gujarat,22.3072,73.1812,27.3,51,0.0,1003.1,8.15,23.8,77,36.2,25.9,4,5,4,1,2026-04-24T05:20:41.498199+05:30
Rajkot,Gujarat,22.3039,70.8022,24.0,94,0.0,994.0,7.9,32.0,33,7.6,5.1,3,5,7,1,2026-04-24T05:20:41.498206+05:30
Thane,Maharashtra,19.2183,72.9781,27.0,84,0.0,1006.0,8.05,37.8,81,27.5,16.2,7,5,4,1,2026-04-24T05:20:41.498213+05:30
Nagpur,Maharashtra,21.1458,79.0882,26.6,65,0.0,971.1,8.9,32.4,110,57.0,53.9,7,5,7,1,2026-04-24T05:20:41.498221+05:30
Nashik,Maharashtra,19.9975,73.7898,26.0,60,0.0,944.7,8.35,36.7,80,33.3,28.5,4,5,7,1,2026-04-24T05:20:41.498227+05:30
Aurangabad,Maharashtra,19.8762,75.3433,27.3,45,0.0,943.5,9.05,33.1,85,38.1,33.6,4,5,7,0,2026-04-24T05:20:41.498234+05:30
Solapur,Maharashtra,17.6599,75.9064,26.0,65,0.0,955.4,9.1,31.7,102,45.1,41.6,7,5,7,1,2026-04-24T05:20:41.498241+05:30
Kolhapur,Maharashtra,16.705,74.2433,23.6,87,0.0,945.7,9.05,46.4,133,69.4,66.8,3,5,7,1,2026-04-24T05:20:41.498248+05:30
Goa,Goa,15.2993,74.124,28.2,91,0.0,995.1,9.0,28.4,82,43.3,34.9,7,5,7,1,2026-04-24T05:20:41.498255+05:30
Jodhpur,Rajasthan,26.2389,73.0243,29.2,49,0.0,980.7,8.25,29.5,54,76.8,14.0,4,5,7,1,2026-04-24T05:20:41.498261+05:30
Udaipur,Rajasthan,24.5854,73.7125,24.4,52,0.0,945.6,8.8,33.1,45,37.0,12.0,0,5,7,0,2026-04-24T05:20:41.498268+05:30
Kota,Rajasthan,25.2138,75.8648,25.9,44,0.0,976.9,8.3,22.0,53,19.8,11.5,4,5,7,0,2026-04-24T05:20:41.498275+05:30
Bikaner,Rajasthan,28.0229,73.3119,30.9,39,0.0,978.8,8.1,30.6,62,24.7,8.4,0,5,7,0,2026-04-24T05:20:41.498282+05:30
Ajmer,Rajasthan,26.4499,74.6399,25.5,52,0.0,953.0,8.25,31.3,35,22.4,8.7,4,5,7,0,2026-04-24T05:20:41.498289+05:30
Gwalior,Madhya Pradesh,26.2183,78.1828,27.5,41,0.0,981.0,8.05,27.4,35,10.5,5.1,4,5,7,0,2026-04-24T05:20:41.498296+05:30
Indore,Madhya Pradesh,22.7196,75.8577,25.3,42,0.0,946.7,8.65,29.5,62,24.7,11.7,4,5,7,0,2026-04-24T05:20:41.498302+05:30
Bhopal,Madhya Pradesh,23.2599,77.4126,25.9,41,0.0,952.2,8.65,22.7,66,16.1,9.7,4,5,7,0,2026-04-24T05:20:41.498345+05:30
Jabalpur,Madhya Pradesh,23.1815,79.9864,27.0,41,0.0,959.8,8.75,22.7,67,28.7,25.8,4,5,7,0,2026-04-24T05:20:41.498357+05:30
Ujjain,Madhya Pradesh,23.1765,75.7885,26.2,34,0.0,952.5,8.55,29.5,62,33.3,15.9,4,5,7,0,2026-04-24T05:20:41.498365+05:30
Visakhapatnam,Andhra Pradesh,17.6868,83.2185,26.6,89,0.0,1001.3,8.95,40.0,64,20.7,17.5,7,5,4,1,2026-04-24T05:20:41.498372+05:30
Vijayawada,Andhra Pradesh,16.5062,80.648,26.4,95,0.0,1000.5,9.25,29.2,53,14.7,12.4,7,5,4,1,2026-04-24T05:20:41.498378+05:30
Guntur,Andhra Pradesh,16.3067,80.4365,26.3,94,0.0,1001.6,9.2,30.2,54,12.6,10.5,7,5,4,1,2026-04-24T05:20:41.498385+05:30
Nellore,Andhra Pradesh,14.4426,79.9865,26.3,91,0.0,1003.6,9.15,35.6,41,9.7,7.9,7,5,4,1,2026-04-24T05:20:41.498393+05:30
Kurnool,Andhra Pradesh,15.8281,78.0373,28.9,59,0.0,974.8,9.25,26.3,90,27.4,21.9,4,5,7,1,2026-04-24T05:20:41.498400+05:30
Kakinada,Andhra Pradesh,16.9891,82.2475,26.6,93,0.0,1005.4,9.1,32.8,43,13.6,9.8,7,5,4,1,2026-04-24T05:20:41.498406+05:30
Tirupati,Andhra Pradesh,13.6288,79.4192,24.5,87,0.0,989.8,9.35,34.2,54,15.1,13.1,3,5,7,1,2026-04-24T05:20:41.498413+05:30
Warangal,Telangana,17.9689,79.5941,26.9,65,0.0,976.5,9.2,19.1,118,28.6,26.1,7,5,7,1,2026-04-24T05:20:41.498419+05:30
Nizamabad,Telangana,18.6725,78.0941,27.0,63,0.0,964.0,8.95,42.1,116,49.8,45.6,7,5,7,1,2026-04-24T05:20:41.498426+05:30
Mysore,Karnataka,12.2958,76.6396,23.5,91,0.0,926.5,9.5,40.3,92,47.1,43.3,3,5,7,1,2026-04-24T05:20:41.498433+05:30
Mangalore,Karnataka,12.9141,74.856,29.5,81,0.0,1004.0,9.1,32.4,82,29.2,22.8,7,5,4,1,2026-04-24T05:20:41.498439+05:30
Hubli-Dharwad,Karnataka,15.3647,75.124,23.8,76,0.0,938.9,9.2,50.0,93,42.6,39.3,3,5,7,1,2026-04-24T05:20:41.498446+05:30
Belgaum,Karnataka,15.8497,74.4977,23.1,85,0.0,923.4,9.25,41.0,98,45.1,40.7,3,5,7,1,2026-04-24T05:20:44.719205+05:30
Coimbatore,Tamil Nadu,11.0168,76.9558,24.1,93,0.0,959.7,9.4,34.6,93,46.7,42.8,3,5,7,1,2026-04-24T05:20:44.719235+05:30
Madurai,Tamil Nadu,9.9252,78.1198,26.8,90,0.0,990.9,9.0,29.5,52,20.5,19.4,7,5,7,1,2026-04-24T05:20:44.719246+05:30
Trichy,Tamil Nadu,10.7905,78.7047,27.5,93,0.0,997.9,9.3,24.1,46,18.6,16.6,7,5,7,1,2026-04-24T05:20:44.719254+05:30
Salem,Tamil Nadu,11.6643,78.146,25.7,91,0.0,975.5,9.35,27.7,62,18.8,17.3,7,5,7,1,2026-04-24T05:20:44.719262+05:30
Tirunelveli,Tamil Nadu,8.7139,77.7567,25.4,87,0.0,1000.9,9.2,41.8,70,31.0,28.8,7,5,4,1,2026-04-24T05:20:44.719270+05:30
Vellore,Tamil Nadu,12.9165,79.1325,24.0,92,0.0,982.8,9.4,31.3,72,27.8,25.1,3,5,7,1,2026-04-24T05:20:44.719277+05:30
Erode,Tamil Nadu,11.341,77.7172,27.4,85,0.0,987.2,9.35,27.7,49,9.5,8.7,7,5,7,1,2026-04-24T05:20:44.719284+05:30
Kochi,Kerala,9.9312,76.2673,28.9,81,0.0,1006.0,8.85,32.4,79,27.9,25.9,7,5,4,1,2026-04-24T05:20:44.719291+05:30
Thiruvananthapuram,Kerala,8.5241,76.9366,28.5,84,0.0,1005.2,9.05,24.8,65,25.0,21.1,7,5,4,1,2026-04-24T05:20:44.719298+05:30
Kozhikode,Kerala,11.2588,75.7804,29.1,82,0.0,1005.4,9.1,33.1,87,36.1,28.4,7,5,4,1,2026-04-24T05:20:44.719305+05:30
Thrissur,Kerala,10.5276,76.2144,27.8,89,0.0,1004.5,9.15,36.7,84,36.2,32.7,7,5,4,1,2026-04-24T05:20:44.719335+05:30
Kannur,Kerala,11.8745,75.3704,29.0,81,0.0,1004.6,9.1,31.0,89,32.8,27.1,7,5,4,1,2026-04-24T05:20:44.719344+05:30
Patna,Bihar,25.5941,85.1376,26.5,91,0.0,998.4,8.6,25.2,155,91.5,73.1,7,5,7,1,2026-04-24T05:20:44.719351+05:30
Gaya,Bihar,24.7914,85.0002,25.6,58,0.0,991.7,8.7,18.7,142,191.9,72.6,4,5,7,1,2026-04-24T05:20:44.719358+05:30
Muzaffarpur,Bihar,26.1209,85.3647,25.8,92,0.0,998.9,8.6,32.4,153,80.8,67.8,7,5,7,1,2026-04-24T05:20:44.719364+05:30
Bhagalpur,Bihar,25.2425,87.0117,26.8,94,0.0,999.7,8.65,22.0,153,75.9,61.7,7,5,7,1,2026-04-24T05:20:44.719371+05:30
Ranchi,Jharkhand,23.3441,85.3096,24.3,48,0.0,936.9,9.15,25.6,99,223.1,57.9,0,5,7,0,2026-04-24T05:20:44.719377+05:30
Jamshedpur,Jharkhand,22.8046,86.2029,27.2,93,0.0,989.5,9.0,32.4,152,101.0,76.1,7,5,7,1,2026-04-24T05:20:44.719384+05:30
Dhanbad,Jharkhand,23.7957,86.4304,28.2,84,0.0,978.6,8.95,35.6,160,193.2,112.2,7,5,7,1,2026-04-24T05:20:44.719390+05:30
Bokaro,Jharkhand,23.6693,86.1511,25.3,79,0.0,982.9,8.95,24.1,157,242.1,109.9,7,5,7,1,2026-04-24T05:20:44.719397+05:30
Bhubaneswar,Odisha,20.2961,85.8245,26.3,94,0.0,1000.1,9.15,34.6,92,27.5,23.5,7,5,4,1,2026-04-24T05:20:44.719403+05:30
Cuttack,Odisha,20.4625,85.8828,26.8,91,0.0,1002.1,9.2,34.9,92,27.5,23.5,7,5,4,1,2026-04-24T05:20:44.719410+05:30
Rourkela,Odisha,22.2604,84.8536,25.6,71,0.0,982.9,8.95,30.2,113,104.5,52.6,7,5,7,1,2026-04-24T05:20:44.719416+05:30
Raipur,Chhattisgarh,21.2514,81.6296,28.2,47,0.0,972.4,8.85,24.5,104,53.1,50.2,4,5,7,0,2026-04-24T05:20:44.719422+05:30
Bhilai,Chhattisgarh,21.1938,81.3509,26.9,53,0.0,972.6,8.9,21.2,109,54.9,51.9,4,5,7,1,2026-04-24T05:20:44.719429+05:30
Guwahati,Assam,26.1158,91.7086,26.7,85,0.0,1002.0,8.55,23.4,135,72.4,53.9,7,5,4,1,2026-04-24T05:20:44.719435+05:30
Agartala,Tripura,23.8315,91.2868,26.8,95,0.0,1006.0,8.65,25.9,109,43.0,38.3,7,5,4,1,2026-04-24T05:20:44.719441+05:30
Shillong,Meghalaya,25.5788,91.8933,13.6,90,0.0,856.0,6.0,27.0,118,66.1,44.8,3,10,3,0,2026-04-24T05:20:44.719448+05:30
Imphal,Manipur,24.817,93.9368,18.8,90,0.0,923.8,9.1,35.3,149,127.1,80.8,3,10,7,1,2026-04-24T05:20:44.719455+05:30
Aizawl,Mizoram,23.7271,92.7176,20.2,81,0.0,892.6,8.45,37.1,126,83.1,45.9,3,5,7,1,2026-04-24T05:20:44.719461+05:30
Kohima,Nagaland,25.6701,94.1077,17.2,91,0.0,855.8,9.05,38.9,119,78.0,55.8,3,10,7,0,2026-04-24T05:20:44.719467+05:30
Gangtok,Sikkim,27.3314,88.6138,17.4,95,0.0,838.4,8.75,24.5,104,26.5,20.3,3,10,7,1,2026-04-24T05:20:44.719474+05:30
Siliguri,West Bengal,26.7271,88.3953,22.7,86,0.0,994.5,8.45,19.1,151,86.1,70.5,3,5,7,1,2026-04-24T05:20:47.938295+05:30
Durgapur,West Bengal,23.5204,87.3119,27.6,89,0.0,993.6,8.65,37.4,156,55.5,51.9,7,5,7,1,2026-04-24T05:20:47.938363+05:30
Asansol,West Bengal,23.6739,86.9524,28.2,85,0.0,992.1,8.9,39.6,154,86.6,67.3,7,5,7,1,2026-04-24T05:20:47.938374+05:30
Pondicherry,Puducherry,11.9139,79.8145,27.0,95,0.0,1006.5,9.25,29.5,25,8.3,5.4,7,5,4,1,2026-04-24T05:20:47.938382+05:30
Port Blair,Andaman and Nicobar Islands,11.6234,92.7265,29.5,72,0.0,1005.1,9.1,23.8,31,7.1,3.6,7,5,4,1,2026-04-24T05:20:47.938394+05:30
Haridwar,Uttarakhand,29.9457,78.1642,23.3,63,0.0,971.5,7.2,33.8,83,29.2,27.4,3,5,7,0,2026-04-24T05:20:47.938401+05:30
Rishikesh,Uttarakhand,30.0869,78.2676,23.4,59,0.0,964.9,7.35,37.8,69,25.8,24.4,0,5,7,0,2026-04-24T05:20:47.938408+05:30
Nainital,Uttarakhand,29.3919,79.4542,23.3,39,0.0,807.0,8.2,46.1,86,25.4,22.1,0,5,7,0,2026-04-24T05:20:47.938415+05:30
Mussoorie,Uttarakhand,30.4599,78.0664,21.0,42,0.0,803.7,7.75,49.3,72,20.1,19.5,0,5,7,0,2026-04-24T05:20:47.938422+05:30
Dharamshala,Himachal Pradesh,32.219,76.3234,25.1,28,0.0,869.0,8.05,33.8,43,15.3,9.1,4,5,7,0,2026-04-24T05:20:47.938428+05:30
Dalhousie,Himachal Pradesh,32.5387,75.971,21.2,29,0.0,804.1,8.3,35.3,60,17.9,15.3,0,5,7,0,2026-04-24T05:20:47.938435+05:30
Patiala,Punjab,30.3398,76.3869,23.6,70,0.0,975.1,7.35,24.8,156,152.3,44.9,3,5,7,1,2026-04-24T05:20:47.938442+05:30
Bhatinda,Punjab,30.211,74.9455,26.3,54,0.0,980.6,8.0,27.7,80,43.4,31.0,4,5,7,1,2026-04-24T05:20:47.938448+05:30
Rohtak,Haryana,28.8955,76.6066,25.1,60,0.0,978.7,7.45,25.9,195,308.3,63.6,4,5,7,1,2026-04-24T05:20:47.938454+05:30
Panipat,Haryana,29.3909,76.9635,24.9,65,0.0,977.3,7.3,26.6,518,448.9,92.2,3,5,7,1,2026-04-24T05:20:47.938460+05:30
Mathura,Uttar Pradesh,27.4924,77.6737,23.1,60,0.0,983.6,7.75,26.3,435,349.2,41.4,0,5,7,0,2026-04-24T05:20:47.938466+05:30
Vrindavan,Uttar Pradesh,27.5823,77.7027,22.9,62,0.0,984.0,7.7,22.0,435,349.2,41.4,3,5,7,0,2026-04-24T05:20:47.938472+05:30
Ayodhya,Uttar Pradesh,26.7922,82.1998,23.6,54,0.0,993.1,8.05,20.2,136,269.2,53.1,0,5,7,0,2026-04-24T05:20:47.938478+05:30
Ratlam,Madhya Pradesh,23.3315,75.0367,26.9,36,0.0,953.3,8.5,25.9,62,38.3,18.6,4,5,7,0,2026-04-24T05:20:47.938485+05:30
Sagar,Madhya Pradesh,23.8388,78.7378,28.1,35,0.0,949.2,8.65,27.7,56,18.9,18.2,4,5,7,0,2026-04-24T05:20:47.938491+05:30
Satna,Madhya Pradesh,24.6005,80.8322,26.1,41,0.0,969.8,8.65,20.9,68,30.0,29.2,4,5,7,0,2026-04-24T05:20:47.938497+05:30
Akola,Maharashtra,20.7002,77.0082,28.6,46,0.0,973.3,8.9,28.8,87,24.8,22.3,4,5,7,0,2026-04-24T05:20:47.938504+05:30
Amravati,Maharashtra,20.9374,77.7796,27.1,54,0.0,965.5,8.9,23.0,86,29.4,26.3,4,5,7,1,2026-04-24T05:20:47.938511+05:30
Latur,Maharashtra,18.4088,76.5604,24.5,65,0.0,938.4,8.8,34.6,100,43.1,39.5,3,5,7,1,2026-04-24T05:20:47.938518+05:30
Nanded,Maharashtra,19.1383,77.3091,26.5,60,0.0,967.0,9.05,34.6,114,41.2,38.5,4,5,7,1,2026-04-24T05:20:47.938524+05:30
Gulbarga,Karnataka,17.3297,76.8343,26.8,60,0.0,956.8,8.35,32.4,117,56.3,49.7,4,5,7,1,2026-04-24T05:20:47.938530+05:30
Bidar,Karnataka,17.9104,77.5199,26.3,60,0.0,933.8,8.45,37.8,115,52.0,46.6,4,5,7,1,2026-04-24T05:20:47.938536+05:30
Hospet,Karnataka,15.2689,76.3909,26.4,71,0.0,954.1,9.25,60.8,102,43.1,39.8,7,5,7,1,2026-04-24T05:20:47.938543+05:30
Tirupur,Tamil Nadu,11.1085,77.3411,26.1,90,0.0,973.3,9.45,32.8,67,23.3,20.6,7,5,7,1,2026-04-24T05:20:47.938549+05:30
Alappuzha,Kerala,9.4981,76.3388,28.4,83,0.0,1006.2,9.0,27.0,78,27.6,24.6,7,5,4,1,2026-04-24T05:20:47.938556+05:30
Munnar,Kerala,10.0889,77.0595,20.0,76,0.0,854.2,9.65,25.6,70,28.0,26.4,3,5,7,0,2026-04-24T05:20:47.938562+05:30
Silchar,Assam,24.8333,92.7789,25.1,86,0.0,1004.9,8.75,22.0,155,114.1,73.8,7,5,4,1,2026-04-24T05:20:47.938568+05:30
Dibrugarh,Assam,27.4728,94.912,25.7,82,0.0,996.1,8.65,11.9,77,31.5,28.9,7,5,7,1,2026-04-24T05:20:47.938574+05:30
