city,state,latitude,longitude,temp,humidity,rain,pressure,uv_index,wind_gusts,aqi,pm10,pm2_5,no2,co,o3,so2,mosquito_risk,arthritis_risk,migraine_risk,frizz_risk,updated_at
Delhi,Delhi,28.6139,77.209,31.7,79,0.0,974.3,7.3,26.3,203,67.3,49.9,31.7,783.0,123.0,34.4,3,5,7,1,2026-07-05T20:44:36.223329+05:30
Mumbai,Maharashtra,19.076,72.8777,26.3,92,0.5,999.9,1.05,74.9,29,29.7,12.8,5.6,136.0,55.0,4.1,10,5,3,1,2026-07-05T20:44:36.223377+05:30
Bangalore,Karnataka,12.9716,77.5946,23.0,73,0.0,910.2,8.0,75.6,30,9.5,6.7,7.0,203.0,48.0,3.1,3,5,7,1,2026-07-05T20:44:36.223393+05:30
Hyderabad,Telangana,17.385,78.4867,24.8,83,0.0,948.0,1.55,60.1,28,3.9,3.2,4.8,157.0,50.0,3.0,3,5,3,1,2026-07-05T20:44:36.223403+05:30
Chennai,Tamil Nadu,13.0827,80.2707,34.6,39,0.0,1003.4,8.9,56.9,52,24.8,16.5,9.5,300.0,75.0,6.6,0,5,4,1,2026-07-05T20:44:36.223411+05:30
Kolkata,West Bengal,22.5726,88.3639,26.7,96,0.4,994.0,2.9,40.7,46,17.3,15.5,9.2,274.0,71.0,6.8,10,5,3,1,2026-07-05T20:44:36.223419+05:30
Pune,Maharashtra,18.5204,73.8567,23.5,93,1.8,939.9,0.35,55.8,21,2.5,2.3,6.6,126.0,45.0,3.7,6,5,3,1,2026-07-05T20:44:36.223426+05:30
Ahmedabad,Gujarat,23.0225,72.5714,27.7,96,0.2,992.5,5.2,27.7,78,59.4,33.6,18.1,515.0,83.0,8.8,10,5,3,1,2026-07-05T20:44:36.223433+05:30
Jaipur,Rajasthan,26.9124,75.7873,31.1,72,0.0,951.4,8.05,24.1,118,33.3,27.1,28.5,531.0,86.0,12.1,3,5,7,1,2026-07-05T20:44:36.223441+05:30
Lucknow,Uttar Pradesh,26.8467,80.9462,31.1,81,0.0,984.9,8.2,21.6,122,39.0,38.8,23.6,354.0,79.0,10.6,3,5,7,1,2026-07-05T20:44:36.223452+05:30
Kanpur,Uttar Pradesh,26.4499,80.3319,31.6,80,0.0,983.0,7.65,22.0,123,30.2,30.0,20.8,368.0,89.0,9.1,3,5,7,1,2026-07-05T20:44:36.223460+05:30
Chandigarh,Chandigarh,30.7333,76.7794,30.4,77,0.0,960.3,7.45,26.3,177,98.3,92.2,43.6,1485.0,107.0,20.5,3,5,7,1,2026-07-05T20:44:36.223468+05:30
Srinagar,Jammu and Kashmir,34.0837,74.7973,27.8,49,0.0,836.3,9.05,19.8,105,34.8,29.5,19.4,555.0,83.0,3.8,4,5,7,1,2026-07-05T20:44:36.223475+05:30
Jammu,Jammu and Kashmir,32.7266,74.857,32.1,66,0.0,962.2,8.45,36.0,165,88.0,72.2,25.2,624.0,110.0,9.4,3,5,7,1,2026-07-05T20:44:36.223481+05:30
Amritsar,Punjab,31.634,74.8723,32.0,73,0.0,970.6,8.45,54.7,165,107.3,93.4,30.5,653.0,90.0,11.2,3,5,7,1,2026-07-05T20:44:36.223487+05:30
Ludhiana,Punjab,30.901,75.8573,31.4,81,0.0,969.4,7.9,31.7,177,135.5,114.1,42.4,1232.0,91.0,14.5,3,5,7,1,2026-07-05T20:44:36.223496+05:30
Jalandhar,Punjab,31.326,75.5762,31.0,81,0.0,970.1,7.9,24.5,175,106.6,97.8,34.2,1030.0,82.0,8.9,3,5,7,1,2026-07-05T20:44:36.223502+05:30
Dehradun,Uttarakhand,30.6284,78.0322,19.8,99,0.0,826.8,6.8,29.2,96,27.8,27.5,17.3,300.0,99.0,3.3,3,10,7,1,2026-07-05T20:44:36.223509+05:30
Shimla,Himachal Pradesh,31.1048,77.1734,17.4,92,0.0,780.6,6.9,34.9,122,45.9,44.1,12.5,499.0,110.0,2.2,3,10,7,1,2026-07-05T20:44:36.223516+05:30
Manali,Himachal Pradesh,32.2396,77.1887,20.8,95,0.0,815.5,9.6,34.9,94,17.8,17.7,51.1,239.0,80.0,0.3,3,5,7,1,2026-07-05T20:44:36.223524+05:30
Gurgaon,Haryana,28.4595,77.0266,31.1,78,0.0,972.7,5.95,24.5,151,106.2,57.2,45.8,839.0,83.0,26.9,3,5,3,1,2026-07-05T20:44:36.223531+05:30
Noida,Uttar Pradesh,28.5355,77.391,31.7,79,0.0,975.8,6.2,27.7,151,106.2,57.2,45.8,865.0,83.0,26.9,3,5,7,1,2026-07-05T20:44:36.223538+05:30
Ghaziabad,Uttar Pradesh,28.6692,77.4538,31.3,81,0.0,974.2,6.7,23.8,136,55.9,52.7,36.6,628.0,69.0,17.6,3,5,7,1,2026-07-05T20:44:36.223544+05:30
Faridabad,Haryana,28.4089,77.3178,32.3,74,0.0,975.1,5.9,31.7,151,106.2,57.2,45.8,558.0,83.0,26.9,3,5,3,1,2026-07-05T20:44:36.223552+05:30
Meerut,Uttar Pradesh,28.9845,77.7064,30.7,83,0.0,973.1,7.45,26.3,136,55.9,52.7,36.6,563.0,69.0,17.6,3,5,7,1,2026-07-05T20:44:36.223558+05:30
Agra,Uttar Pradesh,27.1767,78.0081,32.0,74,0.0,978.8,7.8,32.0,122,63.6,42.1,30.3,592.0,73.0,12.8,3,5,7,1,2026-07-05T20:44:36.223564+05:30
Varanasi,Uttar Pradesh,25.3176,82.9739,29.3,88,0.2,989.1,7.75,40.0,85,38.4,38.2,19.4,315.0,69.0,10.5,10,5,7,1,2026-07-05T20:44:36.223571+05:30
Prayagraj,Uttar Pradesh,25.4358,81.8463,29.7,86,0.0,987.6,8.1,33.8,107,29.2,28.9,14.8,361.0,86.0,6.7,7,5,7,1,2026-07-05T20:44:36.223578+05:30
Gorakhpur,Uttar Pradesh,26.7606,83.3732,31.1,75,0.0,989.6,8.5,41.4,96,29.6,29.6,15.0,376.0,89.0,7.4,3,5,7,1,2026-07-05T20:44:36.223584+05:30
Bareilly,Uttar Pradesh,28.367,79.4304,31.6,75,0.0,978.8,6.65,22.0,109,45.3,43.9,27.4,394.0,73.0,14.1,3,5,7,1,2026-07-05T20:44:36.223592+05:30
Aligarh,Uttar Pradesh,27.8974,78.088,32.1,70,0.0,976.9,6.5,25.9,133,73.3,49.0,31.3,435.0,84.0,15.0,3,5,7,1,2026-07-05T20:44:36.223598+05:30
Moradabad,Uttar Pradesh,28.8386,78.7733,31.5,77,0.0,975.7,7.0,29.2,127,48.1,47.8,26.8,410.0,78.0,13.8,3,5,7,1,2026-07-05T20:44:36.223604+05:30
Saharanpur,Uttar Pradesh,29.9637,77.546,29.9,78,0.0,967.6,6.8,25.2,155,60.1,59.5,24.1,556.0,92.0,13.7,7,5,7,1,2026-07-05T20:44:36.223611+05:30
Jhansi,Uttar Pradesh,25.4484,78.5685,28.8,97,0.0,969.5,7.35,31.7,100,22.7,22.2,14.4,374.0,84.0,6.0,7,5,7,1,2026-07-05T20:44:39.598445+05:30
Surat,Gujarat,21.1702,72.8311,26.2,99,0.0,997.2,6.3,28.8,81,24.7,18.9,28.9,731.0,33.0,41.4,7,5,7,1,2026-07-05T20:44:39.598478+05:30
Vadodara,Gujarat,22.3072,73.1812,28.5,94,0.0,994.5,6.45,27.0,65,28.6,21.7,14.3,510.0,80.0,7.4,7,5,7,1,2026-07-05T20:44:39.598489+05:30
Rajkot,Gujarat,22.3039,70.8022,27.3,94,0.1,985.2,1.45,42.8,71,48.9,21.4,8.0,139.0,53.0,5.1,10,5,3,1,2026-07-05T20:44:39.598498+05:30
Thane,Maharashtra,19.2183,72.9781,26.0,95,0.8,999.0,1.3,50.4,29,29.7,12.8,5.6,141.0,55.0,4.1,10,5,3,1,2026-07-05T20:44:39.598507+05:30
Nagpur,Maharashtra,21.1458,79.0882,27.2,90,0.0,965.3,4.85,28.8,53,10.4,10.1,11.0,264.0,71.0,8.5,7,5,3,1,2026-07-05T20:44:39.598516+05:30
Nashik,Maharashtra,19.9975,73.7898,23.6,95,0.0,936.3,5.85,50.8,24,2.1,1.9,6.4,123.0,43.0,1.4,3,5,3,1,2026-07-05T20:44:39.598524+05:30
Aurangabad,Maharashtra,19.8762,75.3433,24.8,82,0.0,936.4,8.15,50.8,31,2.5,2.4,7.4,157.0,45.0,6.3,3,5,7,1,2026-07-05T20:44:39.598532+05:30
Solapur,Maharashtra,17.6599,75.9064,25.1,81,0.0,952.0,2.85,73.4,25,2.8,2.6,4.5,121.0,45.0,1.8,7,5,3,1,2026-07-05T20:44:39.598540+05:30
Kolhapur,Maharashtra,16.705,74.2433,22.5,95,0.1,943.1,2.8,69.8,23,3.7,3.0,3.7,127.0,51.0,1.5,6,5,3,1,2026-07-05T20:44:39.598548+05:30
Goa,Goa,15.2993,74.124,23.6,100,0.4,996.2,7.85,46.8,48,26.5,12.6,1.6,221.0,57.0,0.7,6,5,7,1,2026-07-05T20:44:39.598556+05:30
Jodhpur,Rajasthan,26.2389,73.0243,32.0,67,0.1,973.3,8.4,24.5,113,88.9,36.8,11.6,235.0,73.0,3.5,6,5,7,1,2026-07-05T20:44:39.598564+05:30
Udaipur,Rajasthan,24.5854,73.7125,26.5,95,0.0,938.3,8.5,27.0,71,34.1,21.0,9.4,345.0,63.0,3.4,7,5,7,1,2026-07-05T20:44:39.598572+05:30
Kota,Rajasthan,25.2138,75.8648,31.5,71,0.0,969.9,8.2,23.0,110,33.6,30.6,15.8,474.0,89.0,13.8,3,5,7,1,2026-07-05T20:44:39.598580+05:30
Bikaner,Rajasthan,28.0229,73.3119,37.5,36,0.0,971.3,7.85,25.9,136,86.6,45.4,5.9,273.0,96.0,7.9,0,5,10,1,2026-07-05T20:44:39.598588+05:30
Ajmer,Rajasthan,26.4499,74.6399,29.5,78,0.0,946.6,8.35,21.2,90,50.8,29.0,16.6,345.0,72.0,4.1,7,5,7,1,2026-07-05T20:44:39.598597+05:30
Gwalior,Madhya Pradesh,26.2183,78.1828,31.0,79,0.0,974.5,7.0,24.8,113,23.2,22.5,9.6,478.0,95.0,5.0,3,5,7,1,2026-07-05T20:44:39.598604+05:30
Indore,Madhya Pradesh,22.7196,75.8577,27.0,91,0.0,939.9,8.35,27.0,61,32.2,31.5,22.2,627.0,55.0,6.3,7,5,7,1,2026-07-05T20:44:39.598612+05:30
Bhopal,Madhya Pradesh,23.2599,77.4126,26.3,91,0.0,945.7,8.55,19.4,72,21.7,21.3,9.9,604.0,77.0,3.3,7,5,7,1,2026-07-05T20:44:39.598620+05:30
Jabalpur,Madhya Pradesh,23.1815,79.9864,26.2,95,0.0,953.6,7.6,35.6,71,16.2,16.1,7.0,265.0,80.0,2.4,7,5,7,1,2026-07-05T20:44:39.598627+05:30
Ujjain,Madhya Pradesh,23.1765,75.7885,27.3,88,0.0,945.4,8.45,28.1,58,29.0,27.8,11.5,942.0,74.0,3.1,7,5,7,1,2026-07-05T20:44:39.598636+05:30
Visakhapatnam,Andhra Pradesh,17.6868,83.2185,29.4,66,0.0,996.0,3.15,64.8,30,12.7,9.1,10.6,198.0,51.0,18.5,7,5,3,1,2026-07-05T20:44:39.598644+05:30
Vijayawada,Andhra Pradesh,16.5062,80.648,31.6,52,0.0,996.9,4.15,46.1,31,20.9,13.3,6.0,167.0,58.0,4.9,0,5,3,1,2026-07-05T20:44:39.598651+05:30
Guntur,Andhra Pradesh,16.3067,80.4365,32.2,48,0.0,998.3,7.35,55.8,28,19.9,12.1,4.6,137.0,60.0,4.2,0,5,7,1,2026-07-05T20:44:39.598659+05:30
Nellore,Andhra Pradesh,14.4426,79.9865,33.7,40,0.0,1001.2,4.15,58.3,34,17.0,9.2,3.3,129.0,59.0,2.4,0,5,0,1,2026-07-05T20:44:39.598668+05:30
Kurnool,Andhra Pradesh,15.8281,78.0373,28.1,63,0.0,973.4,7.0,71.6,30,6.4,3.9,3.5,106.0,49.0,2.3,7,5,7,1,2026-07-05T20:44:39.598677+05:30
Kakinada,Andhra Pradesh,16.9891,82.2475,29.6,67,0.0,1001.1,3.0,85.0,32,17.6,12.4,6.0,188.0,59.0,4.3,7,5,0,1,2026-07-05T20:44:39.598685+05:30
Tirupati,Andhra Pradesh,13.6288,79.4192,31.6,43,0.0,987.8,7.8,55.4,35,16.5,10.3,4.1,124.0,61.0,1.9,0,5,7,1,2026-07-05T20:44:39.598692+05:30
Warangal,Telangana,17.9689,79.5941,25.8,85,0.1,972.7,1.0,53.3,28,4.2,3.9,4.7,132.0,49.0,2.5,10,5,3,1,2026-07-05T20:44:39.598700+05:30
Nizamabad,Telangana,18.6725,78.0941,25.3,86,0.1,958.4,1.3,50.8,28,3.5,3.0,4.4,126.0,46.0,2.5,10,5,3,1,2026-07-05T20:44:39.598708+05:30
Mysore,Karnataka,12.2958,76.6396,22.3,87,0.0,927.5,8.25,69.8,28,5.3,3.8,4.4,127.0,47.0,1.6,3,5,7,1,2026-07-05T20:44:39.598716+05:30
Mangalore,Karnataka,12.9141,74.856,28.2,76,0.0,1006.3,6.25,60.8,53,26.3,14.7,3.5,103.0,47.0,1.7,7,5,4,1,2026-07-05T20:44:39.598724+05:30
Hubli-Dharwad,Karnataka,15.3647,75.124,21.7,96,0.1,937.8,6.0,68.8,25,2.4,1.6,2.9,105.0,49.0,0.9,6,5,3,1,2026-07-05T20:44:39.598732+05:30
Belgaum,Karnataka,15.8497,74.4977,21.5,94,0.0,922.0,3.9,61.9,23,2.2,1.5,2.7,107.0,53.0,1.0,3,5,3,1,2026-07-05T20:44:42.983988+05:30
Coimbatore,Tamil Nadu,11.0168,76.9558,24.5,82,0.0,961.4,8.3,63.0,27,14.3,9.1,5.6,143.0,42.0,2.5,3,5,7,1,2026-07-05T20:44:42.984020+05:30
Madurai,Tamil Nadu,9.9252,78.1198,29.9,51,0.0,992.3,8.25,69.8,48,24.0,13.9,10.4,129.0,50.0,3.8,4,5,7,1,2026-07-05T20:44:42.984032+05:30
Trichy,Tamil Nadu,10.7905,78.7047,31.0,46,0.0,998.0,8.6,75.6,37,20.8,11.6,4.1,123.0,54.0,2.3,0,5,7,1,2026-07-05T20:44:42.984041+05:30
Salem,Tamil Nadu,11.6643,78.146,27.2,67,0.0,976.2,6.65,41.8,43,18.8,12.7,10.0,217.0,47.0,4.6,7,5,7,1,2026-07-05T20:44:42.984049+05:30
Tirunelveli,Tamil Nadu,8.7139,77.7567,29.6,57,0.0,1003.6,8.25,55.1,37,19.7,11.1,4.5,119.0,47.0,1.6,4,5,4,1,2026-07-05T20:44:42.984058+05:30
Vellore,Tamil Nadu,12.9165,79.1325,31.8,41,0.0,981.8,8.1,60.1,36,18.9,11.2,3.9,126.0,64.0,2.3,0,5,7,1,2026-07-05T20:44:42.984067+05:30
Erode,Tamil Nadu,11.341,77.7172,27.4,71,0.0,988.0,8.7,56.5,35,21.1,14.1,11.4,161.0,40.0,3.0,7,5,7,1,2026-07-05T20:44:42.984074+05:30
Kochi,Kerala,9.9312,76.2673,28.1,80,0.0,1009.8,7.05,41.4,54,26.0,17.9,14.7,113.0,26.0,4.4,7,0,4,1,2026-07-05T20:44:42.984082+05:30
Thiruvananthapuram,Kerala,8.5241,76.9366,26.4,87,0.0,1009.7,7.75,48.6,51,30.0,14.2,2.8,105.0,55.0,1.0,7,0,4,1,2026-07-05T20:44:42.984090+05:30
Kozhikode,Kerala,11.2588,75.7804,25.2,96,0.0,1008.8,8.05,42.8,48,26.9,12.7,1.0,125.0,55.0,0.8,7,0,4,1,2026-07-05T20:44:42.984098+05:30
Thrissur,Kerala,10.5276,76.2144,26.2,91,0.0,1008.0,6.8,46.1,52,21.0,13.4,7.2,133.0,38.0,2.8,7,0,4,1,2026-07-05T20:44:42.984106+05:30
Kannur,Kerala,11.8745,75.3704,27.3,82,0.1,1007.5,8.15,51.1,50,25.2,13.1,3.1,113.0,48.0,1.3,10,5,4,1,2026-07-05T20:44:42.984114+05:30
Patna,Bihar,25.5941,85.1376,30.3,75,0.0,992.1,8.05,55.1,70,17.7,17.1,12.9,287.0,74.0,7.6,3,5,7,1,2026-07-05T20:44:42.984122+05:30
Gaya,Bihar,24.7914,85.0002,28.1,88,0.0,985.0,7.5,52.2,63,14.3,14.2,9.4,278.0,77.0,6.0,7,5,7,1,2026-07-05T20:44:42.984129+05:30
Muzaffarpur,Bihar,26.1209,85.3647,30.8,69,0.0,992.2,8.5,53.3,73,20.7,20.1,14.4,244.0,74.0,6.9,3,5,7,1,2026-07-05T20:44:42.984137+05:30
Bhagalpur,Bihar,25.2425,87.0117,29.0,79,0.1,992.6,8.6,59.8,57,11.6,11.5,7.6,164.0,79.0,4.7,10,5,7,1,2026-07-05T20:44:42.984144+05:30
Ranchi,Jharkhand,23.3441,85.3096,23.6,96,0.0,928.1,5.25,51.1,55,14.6,14.6,13.9,217.0,73.0,19.6,3,5,3,1,2026-07-05T20:44:42.984152+05:30
Jamshedpur,Jharkhand,22.8046,86.2029,26.4,95,0.0,979.6,7.0,46.4,50,14.8,14.3,19.5,396.0,51.0,25.7,7,5,7,1,2026-07-05T20:44:42.984160+05:30
Dhanbad,Jharkhand,23.7957,86.4304,26.3,90,0.0,969.6,6.9,55.8,66,19.9,19.7,25.3,193.0,60.0,53.7,7,5,7,1,2026-07-05T20:44:42.984168+05:30
Bokaro,Jharkhand,23.6693,86.1511,26.3,92,0.1,973.4,5.8,51.1,66,19.7,19.5,23.7,209.0,64.0,52.8,10,5,3,1,2026-07-05T20:44:42.984176+05:30
Bhubaneswar,Odisha,20.2961,85.8245,26.8,90,0.0,990.9,2.35,40.7,37,7.2,7.1,8.9,221.0,57.0,4.0,7,5,3,1,2026-07-05T20:44:42.984184+05:30
Cuttack,Odisha,20.4625,85.8828,26.7,94,0.0,992.4,2.6,37.8,37,7.2,7.1,8.9,245.0,57.0,4.0,7,5,3,1,2026-07-05T20:44:42.984191+05:30
Rourkela,Odisha,22.2604,84.8536,25.9,96,0.2,974.4,6.25,46.1,52,18.7,18.6,11.7,353.0,69.0,9.8,10,5,7,1,2026-07-05T20:44:42.984199+05:30
Raipur,Chhattisgarh,21.2514,81.6296,25.4,97,0.7,966.3,5.15,48.2,66,21.8,21.7,24.0,252.0,74.0,34.1,10,5,3,1,2026-07-05T20:44:42.984206+05:30
Bhilai,Chhattisgarh,21.1938,81.3509,25.7,96,0.7,966.9,5.4,49.0,59,19.5,19.3,18.1,457.0,77.0,27.1,10,5,3,1,2026-07-05T20:44:42.984214+05:30
Guwahati,Assam,26.1158,91.7086,28.2,87,0.0,995.3,8.55,37.4,32,8.7,8.6,7.2,201.0,36.0,1.3,7,5,7,1,2026-07-05T20:44:42.984221+05:30
Agartala,Tripura,23.8315,91.2868,25.8,97,0.1,999.4,1.9,53.6,32,6.1,5.7,7.1,161.0,54.0,1.8,10,5,3,1,2026-07-05T20:44:42.984229+05:30
Shillong,Meghalaya,25.5788,91.8933,20.1,97,0.0,853.6,8.5,42.8,29,5.3,5.2,6.8,257.0,47.0,1.8,3,5,7,1,2026-07-05T20:44:42.984236+05:30
Imphal,Manipur,24.817,93.9368,24.3,95,0.0,920.4,3.1,30.6,26,8.4,8.3,7.6,367.0,35.0,2.1,3,5,3,1,2026-07-05T20:44:42.984244+05:30
Aizawl,Mizoram,23.7271,92.7176,21.2,96,0.0,887.9,3.2,29.2,22,2.5,2.5,3.4,141.0,37.0,0.5,3,5,3,1,2026-07-05T20:44:42.984251+05:30
Kohima,Nagaland,25.6701,94.1077,22.7,86,0.0,853.0,8.95,27.7,27,6.6,6.4,9.0,222.0,41.0,1.3,3,5,7,1,2026-07-05T20:44:42.984258+05:30
Gangtok,Sikkim,27.3314,88.6138,19.6,95,0.0,835.2,8.2,32.8,46,5.6,5.5,5.2,270.0,101.0,1.2,3,10,7,1,2026-07-05T20:44:42.984266+05:30
Siliguri,West Bengal,26.7271,88.3953,25.3,99,0.2,987.6,8.65,42.8,57,10.3,10.2,6.3,240.0,99.0,2.8,10,5,7,1,2026-07-05T20:44:46.407187+05:30
Durgapur,West Bengal,23.5204,87.3119,27.3,88,0.0,983.8,6.7,54.0,55,18.0,17.5,19.1,305.0,54.0,20.1,7,5,7,1,2026-07-05T20:44:46.407220+05:30
Asansol,West Bengal,23.6739,86.9524,27.2,86,0.0,982.7,6.8,54.7,55,14.5,14.3,18.1,297.0,60.0,19.5,7,5,7,1,2026-07-05T20:44:46.407232+05:30
Pondicherry,Puducherry,11.9139,79.8145,32.9,46,0.0,1005.3,8.35,51.5,52,20.1,12.7,10.8,198.0,59.0,10.6,0,5,4,1,2026-07-05T20:44:46.407241+05:30
Port Blair,Andaman and Nicobar Islands,11.6234,92.7265,28.1,84,0.0,1008.0,8.15,47.9,51,19.4,11.4,0.3,95.0,50.0,0.5,7,0,4,1,2026-07-05T20:44:46.407250+05:30
Haridwar,Uttarakhand,29.9457,78.1642,29.9,82,0.0,966.2,6.95,22.7,123,44.9,44.6,13.7,377.0,105.0,8.0,7,5,7,1,2026-07-05T20:44:46.407259+05:30
Rishikesh,Uttarakhand,30.0869,78.2676,28.8,84,0.0,959.3,6.95,23.8,95,28.2,27.9,6.2,395.0,110.0,4.6,7,5,7,1,2026-07-05T20:44:46.407267+05:30
Nainital,Uttarakhand,29.3919,79.4542,18.0,100,0.1,802.4,6.45,26.3,60,15.1,15.0,11.4,312.0,78.0,2.5,6,10,7,1,2026-07-05T20:44:46.407276+05:30
Mussoorie,Uttarakhand,30.4599,78.0664,18.5,99,0.0,799.9,6.2,35.3,123,46.9,46.3,16.6,379.0,126.0,10.7,3,10,7,1,2026-07-05T20:44:46.407285+05:30
Dharamshala,Himachal Pradesh,32.219,76.3234,23.3,82,0.0,863.4,8.25,30.2,63,4.4,4.3,10.6,391.0,72.0,0.7,3,5,7,1,2026-07-05T20:44:46.407312+05:30
Dalhousie,Himachal Pradesh,32.5387,75.971,18.8,97,0.0,799.8,8.0,27.7,149,42.8,37.0,18.6,536.0,126.0,3.6,3,10,7,1,2026-07-05T20:44:46.407324+05:30
Patiala,Punjab,30.3398,76.3869,30.9,81,0.0,969.2,6.9,18.7,173,129.9,108.5,39.0,762.0,99.0,16.3,3,5,7,1,2026-07-05T20:44:46.407332+05:30
Bhatinda,Punjab,30.211,74.9455,33.7,64,0.0,974.2,7.45,23.0,187,140.6,85.7,34.6,555.0,111.0,19.3,3,5,7,1,2026-07-05T20:44:46.407340+05:30
Rohtak,Haryana,28.8955,76.6066,31.8,72,0.0,972.9,7.4,31.3,202,66.4,50.6,25.9,791.0,140.0,23.2,3,5,7,1,2026-07-05T20:44:46.407347+05:30
Panipat,Haryana,29.3909,76.9635,30.5,79,0.0,971.8,6.95,37.8,189,95.2,75.7,27.5,565.0,115.0,25.1,3,5,7,1,2026-07-05T20:44:46.407355+05:30
Mathura,Uttar Pradesh,27.4924,77.6737,32.5,71,0.0,977.9,7.05,32.0,115,97.3,48.5,40.9,426.0,69.0,9.4,3,5,7,1,2026-07-05T20:44:46.407363+05:30
Vrindavan,Uttar Pradesh,27.5823,77.7027,32.8,72,0.0,978.3,6.7,30.6,115,97.3,48.5,40.9,417.0,69.0,9.4,3,5,7,1,2026-07-05T20:44:46.407371+05:30
Ayodhya,Uttar Pradesh,26.7922,82.1998,31.2,72,0.0,987.4,8.3,41.0,104,32.5,32.2,16.2,353.0,84.0,6.0,3,5,7,1,2026-07-05T20:44:46.407378+05:30
Ratlam,Madhya Pradesh,23.3315,75.0367,26.2,92,0.0,946.6,8.45,33.8,53,26.3,25.0,9.3,312.0,73.0,3.2,7,5,7,1,2026-07-05T20:44:46.407386+05:30
Sagar,Madhya Pradesh,23.8388,78.7378,25.6,99,0.1,942.9,8.1,23.0,73,17.1,16.8,8.4,233.0,74.0,2.4,10,5,7,1,2026-07-05T20:44:46.407394+05:30
Satna,Madhya Pradesh,24.6005,80.8322,25.2,98,0.2,963.6,8.2,34.6,108,15.5,15.3,7.1,248.0,98.0,3.0,10,5,7,1,2026-07-05T20:44:46.407402+05:30
Akola,Maharashtra,20.7002,77.0082,27.8,82,0.0,966.7,6.45,31.0,40,6.0,6.0,8.9,156.0,52.0,3.7,7,5,7,1,2026-07-05T20:44:46.407410+05:30
Amravati,Maharashtra,20.9374,77.7796,28.0,83,0.0,959.5,7.35,35.3,41,5.3,5.3,8.5,269.0,50.0,3.3,7,5,7,1,2026-07-05T20:44:46.407419+05:30
Latur,Maharashtra,18.4088,76.5604,23.8,89,0.0,933.5,1.25,59.4,24,2.7,2.5,3.9,124.0,46.0,1.6,3,5,3,1,2026-07-05T20:44:46.407427+05:30
Nanded,Maharashtra,19.1383,77.3091,25.8,86,0.1,961.9,5.75,47.9,28,3.0,2.7,4.7,135.0,46.0,3.4,10,5,3,1,2026-07-05T20:44:46.407435+05:30
Gulbarga,Karnataka,17.3297,76.8343,25.8,74,0.0,953.9,5.1,72.0,26,3.0,2.5,5.4,117.0,46.0,2.2,7,5,3,1,2026-07-05T20:44:46.407443+05:30
Bidar,Karnataka,17.9104,77.5199,23.1,93,0.0,929.6,1.8,59.8,25,2.7,2.6,5.6,121.0,47.0,1.8,3,5,3,1,2026-07-05T20:44:46.407450+05:30
Hospet,Karnataka,15.2689,76.3909,24.4,81,0.0,953.1,2.3,78.5,26,4.8,3.1,3.7,115.0,48.0,1.3,3,5,3,1,2026-07-05T20:44:46.407457+05:30
Tirupur,Tamil Nadu,11.1085,77.3411,26.3,74,0.0,974.0,7.55,71.3,37,20.9,14.8,13.9,127.0,36.0,4.1,7,5,7,1,2026-07-05T20:44:46.407465+05:30
Alappuzha,Kerala,9.4981,76.3388,28.0,81,0.0,1010.1,8.45,42.1,52,31.1,17.7,9.1,87.0,44.0,2.5,7,0,4,1,2026-07-05T20:44:46.407473+05:30
Munnar,Kerala,10.0889,77.0595,16.2,97,0.1,856.5,4.55,58.0,25,14.4,9.0,6.3,95.0,38.0,2.0,6,10,3,0,2026-07-05T20:44:46.407481+05:30
Silchar,Assam,24.8333,92.7789,26.7,97,0.2,999.9,8.95,34.2,45,16.1,16.0,7.9,194.0,43.0,3.1,10,5,7,1,2026-07-05T20:44:46.407489+05:30
Dibrugarh,Assam,27.4728,94.912,30.9,77,0.0,989.2,8.95,26.3,41,19.2,19.0,14.0,191.0,29.0,2.1,3,5,7,1,2026-07-05T20:44:46.407497+05:30
