city,state,latitude,longitude,temp,humidity,rain,pressure,uv_index,wind_gusts,aqi,pm10,pm2_5,no2,co,o3,so2,mosquito_risk,arthritis_risk,migraine_risk,frizz_risk,updated_at
Delhi,Delhi,28.6139,77.209,41.0,29,0.0,972.7,7.75,35.3,165,177.0,62.2,6.2,311.0,182.0,14.8,0,5,10,1,2026-06-28T16:39:31.494302+05:30
Mumbai,Maharashtra,19.076,72.8777,29.0,78,0.0,1002.8,7.4,35.6,57,25.1,12.7,4.9,169.0,75.0,4.5,7,5,4,1,2026-06-28T16:39:31.494342+05:30
Bangalore,Karnataka,12.9716,77.5946,24.2,85,0.1,908.2,8.3,55.8,42,7.3,5.1,7.7,333.0,65.0,2.5,6,5,7,1,2026-06-28T16:39:31.494357+05:30
Hyderabad,Telangana,17.385,78.4867,29.1,70,0.0,947.4,8.55,41.4,64,10.7,7.7,0.9,284.0,111.0,2.0,7,5,7,1,2026-06-28T16:39:31.494367+05:30
Chennai,Tamil Nadu,13.0827,80.2707,31.2,71,0.0,1000.8,8.85,40.7,66,28.4,20.4,4.0,223.0,129.0,6.6,3,5,4,1,2026-06-28T16:39:31.494375+05:30
Kolkata,West Bengal,22.5726,88.3639,31.0,75,0.0,998.4,8.85,33.1,67,30.5,25.6,6.2,447.0,90.0,6.0,3,5,7,1,2026-06-28T16:39:31.494382+05:30
Pune,Maharashtra,18.5204,73.8567,25.7,82,0.2,942.9,6.1,43.6,41,13.6,10.6,5.6,142.0,82.0,4.6,10,5,7,1,2026-06-28T16:39:31.494389+05:30
Ahmedabad,Gujarat,23.0225,72.5714,39.0,34,0.0,993.6,7.85,34.9,71,53.2,20.4,1.2,124.0,94.0,2.6,0,5,10,1,2026-06-28T16:39:31.494395+05:30
Jaipur,Rajasthan,26.9124,75.7873,38.7,31,0.0,951.7,7.35,36.0,140,137.4,39.6,0.8,132.0,95.0,2.6,0,5,10,1,2026-06-28T16:39:31.494402+05:30
Lucknow,Uttar Pradesh,26.8467,80.9462,39.1,35,0.0,983.1,8.35,33.8,114,138.3,45.8,0.9,192.0,152.0,6.1,0,5,10,1,2026-06-28T16:39:31.494413+05:30
Kanpur,Uttar Pradesh,26.4499,80.3319,39.6,34,0.0,981.5,8.2,31.3,110,140.6,42.0,1.1,160.0,139.0,5.1,0,5,10,1,2026-06-28T16:39:31.494419+05:30
Chandigarh,Chandigarh,30.7333,76.7794,36.7,42,0.0,959.6,7.8,28.1,191,56.8,43.3,1.6,310.0,185.0,10.9,0,5,10,1,2026-06-28T16:39:31.494426+05:30
Srinagar,Jammu and Kashmir,34.0837,74.7973,32.9,29,0.0,838.8,9.1,28.1,111,21.4,13.9,0.5,258.0,143.0,1.7,0,5,7,0,2026-06-28T16:39:31.494433+05:30
Jammu,Jammu and Kashmir,32.7266,74.857,38.7,36,0.0,963.7,8.7,31.0,122,59.0,37.5,1.3,263.0,148.0,5.6,0,5,10,1,2026-06-28T16:39:31.494440+05:30
Amritsar,Punjab,31.634,74.8723,37.3,47,0.0,971.2,8.5,44.6,158,66.1,44.5,1.1,307.0,184.0,9.2,0,5,10,1,2026-06-28T16:39:31.494446+05:30
Ludhiana,Punjab,30.901,75.8573,38.7,36,0.0,969.1,8.0,60.8,165,60.5,44.0,1.2,295.0,162.0,5.5,0,5,10,1,2026-06-28T16:39:31.494453+05:30
Jalandhar,Punjab,31.326,75.5762,37.0,45,0.0,970.3,8.25,56.9,166,77.3,47.0,1.6,310.0,164.0,6.3,0,5,10,1,2026-06-28T16:39:31.494461+05:30
Dehradun,Uttarakhand,30.6284,78.0322,24.0,69,0.0,827.8,7.05,34.9,108,45.3,31.4,1.7,244.0,154.0,4.1,3,5,7,1,2026-06-28T16:39:31.494467+05:30
Shimla,Himachal Pradesh,31.1048,77.1734,21.4,66,0.0,783.0,7.5,32.0,142,43.9,31.9,0.2,263.0,164.0,6.9,3,5,7,0,2026-06-28T16:39:31.494473+05:30
Manali,Himachal Pradesh,32.2396,77.1887,23.2,80,0.1,816.9,9.05,35.3,57,29.6,25.5,16.9,187.0,108.0,0.4,6,5,7,1,2026-06-28T16:39:31.494481+05:30
Gurgaon,Haryana,28.4595,77.0266,39.4,32,0.0,971.5,7.8,37.1,171,276.6,71.0,4.1,249.0,175.0,10.7,0,5,10,1,2026-06-28T16:39:31.494488+05:30
Noida,Uttar Pradesh,28.5355,77.391,37.9,44,0.0,974.0,7.8,23.4,171,276.6,71.0,4.1,395.0,175.0,10.7,0,5,10,1,2026-06-28T16:39:31.494494+05:30
Ghaziabad,Uttar Pradesh,28.6692,77.4538,38.5,37,0.0,972.6,7.75,26.3,169,193.2,66.6,4.3,314.0,212.0,20.2,0,5,10,1,2026-06-28T16:39:31.494500+05:30
Faridabad,Haryana,28.4089,77.3178,40.1,32,0.0,973.4,7.55,28.8,171,276.6,71.0,4.1,238.0,175.0,10.7,0,5,10,1,2026-06-28T16:39:31.494506+05:30
Meerut,Uttar Pradesh,28.9845,77.7064,38.5,37,0.0,971.6,7.45,28.1,169,193.2,66.6,4.3,308.0,212.0,20.2,0,5,10,1,2026-06-28T16:39:31.494511+05:30
Agra,Uttar Pradesh,27.1767,78.0081,39.8,36,0.0,977.3,7.5,44.3,178,421.9,66.6,0.6,177.0,124.0,3.7,0,5,10,1,2026-06-28T16:39:31.494517+05:30
Varanasi,Uttar Pradesh,25.3176,82.9739,38.0,42,0.0,987.6,8.8,33.8,124,52.5,33.4,0.5,244.0,159.0,5.6,0,5,10,1,2026-06-28T16:39:31.494524+05:30
Prayagraj,Uttar Pradesh,25.4358,81.8463,39.1,37,0.0,985.7,8.75,34.9,114,63.6,31.0,1.6,187.0,143.0,6.3,0,5,10,1,2026-06-28T16:39:31.494530+05:30
Gorakhpur,Uttar Pradesh,26.7606,83.3732,35.1,53,0.0,987.3,8.2,33.5,158,78.0,37.8,0.3,230.0,162.0,3.9,0,5,10,1,2026-06-28T16:39:31.494536+05:30
Bareilly,Uttar Pradesh,28.367,79.4304,38.4,41,0.0,976.4,8.1,24.1,154,126.2,49.4,1.0,253.0,162.0,6.0,0,5,10,1,2026-06-28T16:39:31.494545+05:30
Aligarh,Uttar Pradesh,27.8974,78.088,38.7,41,0.0,975.2,7.35,30.6,166,383.7,77.5,0.7,189.0,135.0,5.8,0,5,10,1,2026-06-28T16:39:31.494551+05:30
Moradabad,Uttar Pradesh,28.8386,78.7733,38.4,40,0.0,973.5,7.55,28.8,181,139.2,53.1,1.4,262.0,167.0,9.4,0,5,10,1,2026-06-28T16:39:31.494557+05:30
Saharanpur,Uttar Pradesh,29.9637,77.546,36.4,43,0.0,966.5,7.45,44.3,170,106.4,60.3,1.7,291.0,207.0,14.0,0,5,10,1,2026-06-28T16:39:31.494565+05:30
Jhansi,Uttar Pradesh,25.4484,78.5685,38.0,38,0.0,968.8,7.4,47.2,78,50.1,21.9,1.2,141.0,106.0,3.9,0,5,10,1,2026-06-28T16:39:34.844987+05:30
Surat,Gujarat,21.1702,72.8311,34.1,50,0.0,999.7,7.6,44.3,79,47.6,25.3,19.3,210.0,45.0,48.6,0,5,7,1,2026-06-28T16:39:34.845016+05:30
Vadodara,Gujarat,22.3072,73.1812,39.4,30,0.0,995.8,7.9,44.3,75,55.9,25.2,1.5,131.0,105.0,2.7,0,5,10,1,2026-06-28T16:39:34.845027+05:30
Rajkot,Gujarat,22.3039,70.8022,36.6,41,0.1,987.1,7.55,39.6,68,46.1,19.3,1.1,102.0,97.0,4.2,3,5,10,1,2026-06-28T16:39:34.845036+05:30
Thane,Maharashtra,19.2183,72.9781,29.4,77,0.1,1002.1,5.4,25.9,57,25.1,12.7,4.9,157.0,75.0,4.5,10,5,0,1,2026-06-28T16:39:34.845044+05:30
Nagpur,Maharashtra,21.1458,79.0882,31.1,67,0.0,966.2,8.85,38.9,92,45.8,35.4,9.1,209.0,140.0,28.1,3,5,7,1,2026-06-28T16:39:34.845052+05:30
Nashik,Maharashtra,19.9975,73.7898,29.1,59,0.0,940.1,7.55,36.7,52,18.2,9.5,3.2,126.0,68.0,0.9,4,5,7,1,2026-06-28T16:39:34.845060+05:30
Aurangabad,Maharashtra,19.8762,75.3433,30.1,53,0.0,938.2,6.2,28.8,65,29.7,15.9,2.2,156.0,85.0,1.9,0,5,7,1,2026-06-28T16:39:34.845067+05:30
Solapur,Maharashtra,17.6599,75.9064,28.2,73,0.0,951.3,7.9,27.7,52,15.6,10.1,2.0,126.0,109.0,2.4,7,5,7,1,2026-06-28T16:39:34.845075+05:30
Kolhapur,Maharashtra,16.705,74.2433,24.5,89,0.3,943.1,7.0,42.8,31,5.5,4.7,4.7,139.0,53.0,1.3,6,5,7,1,2026-06-28T16:39:34.845084+05:30
Goa,Goa,15.2993,74.124,26.2,97,0.2,994.7,4.55,31.3,31,11.6,6.7,1.7,138.0,52.0,0.8,10,5,3,1,2026-06-28T16:39:34.845092+05:30
Jodhpur,Rajasthan,26.2389,73.0243,39.1,30,0.0,974.5,8.4,38.9,128,227.7,44.7,0.6,111.0,89.0,1.7,0,5,10,1,2026-06-28T16:39:34.845099+05:30
Udaipur,Rajasthan,24.5854,73.7125,32.0,56,0.1,940.2,8.45,28.1,66,46.4,20.0,0.5,110.0,89.0,2.0,3,5,7,1,2026-06-28T16:39:34.845127+05:30
Kota,Rajasthan,25.2138,75.8648,38.1,37,0.0,970.2,8.2,36.7,72,80.3,28.3,1.0,142.0,100.0,4.0,0,5,10,1,2026-06-28T16:39:34.845137+05:30
Bikaner,Rajasthan,28.0229,73.3119,41.8,25,0.0,972.2,8.45,37.4,117,118.7,41.0,0.3,115.0,82.0,2.1,0,5,10,1,2026-06-28T16:39:34.845144+05:30
Ajmer,Rajasthan,26.4499,74.6399,36.1,40,0.0,947.4,8.35,47.2,91,119.7,40.0,0.6,120.0,87.0,2.2,0,5,10,1,2026-06-28T16:39:34.845152+05:30
Gwalior,Madhya Pradesh,26.2183,78.1828,39.3,34,0.0,973.3,8.25,52.2,79,95.7,35.5,0.3,151.0,105.0,2.9,0,5,10,1,2026-06-28T16:39:34.845159+05:30
Indore,Madhya Pradesh,22.7196,75.8577,30.7,60,0.0,941.9,8.15,34.6,84,51.2,27.6,1.3,242.0,105.0,4.2,0,5,7,1,2026-06-28T16:39:34.845165+05:30
Bhopal,Madhya Pradesh,23.2599,77.4126,27.3,88,0.2,946.6,8.5,37.1,87,46.0,27.3,2.0,213.0,103.0,2.9,10,5,7,1,2026-06-28T16:39:34.845173+05:30
Jabalpur,Madhya Pradesh,23.1815,79.9864,33.8,52,0.0,953.7,8.65,25.6,79,28.2,21.4,1.0,204.0,130.0,2.2,0,5,7,1,2026-06-28T16:39:34.845180+05:30
Ujjain,Madhya Pradesh,23.1765,75.7885,29.5,67,0.0,947.4,8.5,37.1,79,49.2,25.3,0.9,206.0,104.0,3.3,7,5,7,1,2026-06-28T16:39:34.845187+05:30
Visakhapatnam,Andhra Pradesh,17.6868,83.2185,29.7,77,0.1,997.3,8.25,46.1,84,28.7,21.6,7.7,296.0,123.0,21.0,10,5,7,1,2026-06-28T16:39:34.845195+05:30
Vijayawada,Andhra Pradesh,16.5062,80.648,33.1,57,0.1,995.6,6.7,40.3,84,27.1,19.8,2.8,152.0,118.0,6.4,3,5,7,1,2026-06-28T16:39:34.845202+05:30
Guntur,Andhra Pradesh,16.3067,80.4365,32.6,60,0.1,996.6,6.6,44.3,79,25.8,18.2,1.4,151.0,118.0,5.3,3,5,7,1,2026-06-28T16:39:34.845209+05:30
Nellore,Andhra Pradesh,14.4426,79.9865,32.8,60,0.2,999.1,8.1,33.1,62,23.1,16.5,2.5,132.0,124.0,3.8,3,5,7,1,2026-06-28T16:39:34.845217+05:30
Kurnool,Andhra Pradesh,15.8281,78.0373,34.3,48,0.0,970.3,7.65,55.8,53,13.4,7.3,0.6,121.0,78.0,1.3,0,5,7,1,2026-06-28T16:39:34.845225+05:30
Kakinada,Andhra Pradesh,16.9891,82.2475,31.3,76,0.1,1000.5,6.85,37.4,68,29.2,20.4,1.9,198.0,126.0,4.7,6,5,4,1,2026-06-28T16:39:34.845233+05:30
Tirupati,Andhra Pradesh,13.6288,79.4192,31.3,67,0.1,984.6,8.45,37.4,57,20.4,11.8,3.9,126.0,95.0,1.5,6,5,7,1,2026-06-28T16:39:34.845240+05:30
Warangal,Telangana,17.9689,79.5941,29.1,85,0.2,972.2,8.0,25.9,79,21.0,14.7,2.2,184.0,98.0,1.9,10,5,7,1,2026-06-28T16:39:34.845247+05:30
Nizamabad,Telangana,18.6725,78.0941,31.1,62,0.0,958.1,8.65,36.0,92,30.2,19.7,0.5,171.0,118.0,3.4,3,5,7,1,2026-06-28T16:39:34.845254+05:30
Mysore,Karnataka,12.2958,76.6396,26.2,67,0.0,925.4,7.45,56.2,30,3.6,2.8,2.5,126.0,62.0,1.0,7,5,7,1,2026-06-28T16:39:34.845261+05:30
Mangalore,Karnataka,12.9141,74.856,26.2,92,0.6,1004.4,7.8,45.0,43,9.6,5.7,1.8,115.0,50.0,0.8,10,5,4,1,2026-06-28T16:39:34.845268+05:30
Hubli-Dharwad,Karnataka,15.3647,75.124,24.0,91,0.1,936.6,7.95,40.3,25,2.5,2.2,3.7,120.0,50.0,0.8,6,5,7,1,2026-06-28T16:39:34.845275+05:30
Belgaum,Karnataka,15.8497,74.4977,23.0,95,0.0,921.3,7.2,45.0,27,2.2,1.9,3.5,107.0,48.0,1.1,3,5,7,1,2026-06-28T16:39:38.189037+05:30
Coimbatore,Tamil Nadu,11.0168,76.9558,28.5,65,0.0,958.2,8.9,60.8,29,3.2,2.6,1.8,134.0,59.0,1.3,7,5,7,1,2026-06-28T16:39:38.189069+05:30
Madurai,Tamil Nadu,9.9252,78.1198,34.5,42,0.1,987.9,8.75,57.6,66,20.1,8.8,1.6,136.0,80.0,1.5,3,5,7,1,2026-06-28T16:39:38.189080+05:30
Trichy,Tamil Nadu,10.7905,78.7047,34.4,49,0.1,994.3,8.4,49.3,49,19.1,9.4,2.5,142.0,83.0,1.9,3,5,7,1,2026-06-28T16:39:38.189088+05:30
Salem,Tamil Nadu,11.6643,78.146,27.6,83,0.0,973.5,8.85,43.6,55,16.1,9.4,2.9,143.0,96.0,4.4,7,5,7,1,2026-06-28T16:39:38.189096+05:30
Tirunelveli,Tamil Nadu,8.7139,77.7567,34.4,45,0.0,999.1,8.65,46.4,37,6.4,4.3,1.4,101.0,62.0,0.9,0,5,7,1,2026-06-28T16:39:38.189104+05:30
Vellore,Tamil Nadu,12.9165,79.1325,27.8,86,0.3,978.6,8.95,31.0,60,26.7,13.3,4.0,160.0,86.0,2.6,10,5,7,1,2026-06-28T16:39:38.189139+05:30
Erode,Tamil Nadu,11.341,77.7172,34.1,45,0.0,984.3,8.75,51.1,48,5.3,4.0,1.9,146.0,78.0,1.4,0,5,7,1,2026-06-28T16:39:38.189147+05:30
Kochi,Kerala,9.9312,76.2673,26.1,89,0.1,1007.4,8.55,43.9,51,10.2,6.6,3.6,109.0,49.0,1.7,10,5,4,1,2026-06-28T16:39:38.189155+05:30
Thiruvananthapuram,Kerala,8.5241,76.9366,26.5,90,0.1,1006.6,8.05,46.8,39,12.8,6.8,1.1,94.0,60.0,0.5,10,5,4,1,2026-06-28T16:39:38.189163+05:30
Kozhikode,Kerala,11.2588,75.7804,25.9,95,0.1,1006.5,8.5,39.2,39,12.6,6.4,0.7,100.0,56.0,0.4,10,5,4,1,2026-06-28T16:39:38.189169+05:30
Thrissur,Kerala,10.5276,76.2144,26.2,93,0.1,1005.6,8.5,39.2,53,10.1,6.8,2.3,123.0,52.0,1.1,10,5,4,1,2026-06-28T16:39:38.189177+05:30
Kannur,Kerala,11.8745,75.3704,26.4,95,0.2,1005.2,8.6,41.8,44,9.7,5.4,1.6,112.0,50.0,0.5,10,5,4,1,2026-06-28T16:39:38.189184+05:30
Patna,Bihar,25.5941,85.1376,35.7,55,0.0,990.3,7.55,35.3,159,56.3,44.5,3.3,260.0,174.0,7.2,0,5,10,1,2026-06-28T16:39:38.189190+05:30
Gaya,Bihar,24.7914,85.0002,36.9,46,0.0,984.1,8.6,35.6,127,40.4,33.6,2.2,210.0,150.0,5.9,0,5,10,1,2026-06-28T16:39:38.189199+05:30
Muzaffarpur,Bihar,26.1209,85.3647,34.8,61,0.0,990.1,7.75,29.5,172,62.9,50.8,5.6,347.0,177.0,9.1,3,5,7,1,2026-06-28T16:39:38.189205+05:30
Bhagalpur,Bihar,25.2425,87.0117,34.9,59,0.0,991.1,7.75,30.6,121,45.9,42.0,6.0,256.0,174.0,16.3,0,5,7,1,2026-06-28T16:39:38.189212+05:30
Ranchi,Jharkhand,23.3441,85.3096,28.5,73,0.0,931.3,9.0,31.3,120,38.3,37.4,3.9,233.0,135.0,8.9,7,5,7,1,2026-06-28T16:39:38.189219+05:30
Jamshedpur,Jharkhand,22.8046,86.2029,33.0,63,0.0,983.2,9.0,31.3,155,46.9,44.6,5.5,283.0,178.0,19.5,3,5,7,1,2026-06-28T16:39:38.189226+05:30
Dhanbad,Jharkhand,23.7957,86.4304,31.9,69,0.0,971.8,8.85,38.9,155,61.7,59.8,20.5,223.0,176.0,73.9,3,5,7,1,2026-06-28T16:39:38.189233+05:30
Bokaro,Jharkhand,23.6693,86.1511,34.2,54,0.0,975.5,8.8,35.3,155,52.2,50.3,17.0,313.0,157.0,59.2,0,5,7,1,2026-06-28T16:39:38.189240+05:30
Bhubaneswar,Odisha,20.2961,85.8245,28.6,93,0.3,995.7,8.65,35.3,109,35.6,32.0,4.7,277.0,147.0,8.6,10,5,7,1,2026-06-28T16:39:38.189247+05:30
Cuttack,Odisha,20.4625,85.8828,28.4,94,0.3,997.4,9.05,27.4,109,35.6,32.0,4.7,284.0,147.0,8.6,10,5,7,1,2026-06-28T16:39:38.189253+05:30
Rourkela,Odisha,22.2604,84.8536,31.9,65,0.0,978.3,9.0,31.3,138,38.1,36.1,3.3,305.0,167.0,11.8,3,5,7,1,2026-06-28T16:39:38.189260+05:30
Raipur,Chhattisgarh,21.2514,81.6296,32.9,63,0.1,967.1,8.95,31.0,114,43.8,40.4,12.4,571.0,141.0,36.0,6,5,7,1,2026-06-28T16:39:38.189267+05:30
Bhilai,Chhattisgarh,21.1938,81.3509,31.1,65,0.2,967.8,8.7,31.3,112,39.6,35.7,11.9,692.0,128.0,33.1,6,5,7,1,2026-06-28T16:39:38.189273+05:30
Guwahati,Assam,26.1158,91.7086,30.7,79,0.0,991.9,7.2,46.4,70,15.3,13.7,2.4,217.0,91.0,1.6,3,5,7,1,2026-06-28T16:39:38.189279+05:30
Agartala,Tripura,23.8315,91.2868,31.0,76,0.0,998.4,6.2,40.7,51,11.7,11.0,5.2,145.0,83.0,1.6,3,5,7,1,2026-06-28T16:39:38.189286+05:30
Shillong,Meghalaya,25.5788,91.8933,24.2,74,0.1,852.9,6.65,42.1,46,9.5,8.8,3.6,159.0,82.0,1.2,6,5,7,1,2026-06-28T16:39:38.189292+05:30
Imphal,Manipur,24.817,93.9368,28.2,67,0.0,917.3,8.7,36.7,54,5.3,4.8,1.5,171.0,63.0,0.9,7,5,7,1,2026-06-28T16:39:38.189299+05:30
Aizawl,Mizoram,23.7271,92.7176,23.5,79,0.0,887.6,8.35,34.2,30,4.6,4.1,1.4,119.0,65.0,0.7,3,5,7,1,2026-06-28T16:39:38.189305+05:30
Kohima,Nagaland,25.6701,94.1077,23.2,91,0.1,851.1,8.85,28.8,39,7.6,6.4,1.8,134.0,60.0,0.7,6,5,7,1,2026-06-28T16:39:38.189311+05:30
Gangtok,Sikkim,27.3314,88.6138,20.9,96,0.1,832.2,6.05,36.0,98,7.3,6.2,3.5,318.0,111.0,2.2,6,5,7,1,2026-06-28T16:39:38.189318+05:30
Siliguri,West Bengal,26.7271,88.3953,28.6,83,0.0,983.7,6.6,27.0,99,25.0,22.1,5.4,458.0,123.0,5.0,7,5,7,1,2026-06-28T16:39:41.538509+05:30
Durgapur,West Bengal,23.5204,87.3119,31.3,79,0.0,986.7,8.85,30.2,132,74.0,72.2,20.2,909.0,188.0,62.6,3,5,7,1,2026-06-28T16:39:41.538541+05:30
Asansol,West Bengal,23.6739,86.9524,31.8,71,0.0,985.4,8.85,36.7,132,67.3,65.7,17.6,364.0,183.0,54.2,3,5,7,1,2026-06-28T16:39:41.538553+05:30
Pondicherry,Puducherry,11.9139,79.8145,31.2,73,0.0,1002.4,8.2,43.9,64,32.6,23.3,4.8,166.0,125.0,5.9,3,5,4,1,2026-06-28T16:39:41.538562+05:30
Port Blair,Andaman and Nicobar Islands,11.6234,92.7265,26.3,93,0.1,1004.9,1.65,39.6,21,5.9,3.6,0.3,91.0,45.0,0.1,10,5,0,1,2026-06-28T16:39:41.538571+05:30
Haridwar,Uttarakhand,29.9457,78.1642,37.4,41,0.0,964.8,7.6,36.7,153,109.4,55.6,1.5,273.0,192.0,10.0,0,5,10,1,2026-06-28T16:39:41.538580+05:30
Rishikesh,Uttarakhand,30.0869,78.2676,33.6,60,0.1,958.1,7.4,26.3,134,117.1,53.4,0.6,269.0,172.0,7.1,3,5,7,1,2026-06-28T16:39:41.538588+05:30
Nainital,Uttarakhand,29.3919,79.4542,19.5,96,0.1,802.3,8.0,32.0,143,112.5,50.5,1.6,254.0,174.0,10.3,6,10,7,1,2026-06-28T16:39:41.538597+05:30
Mussoorie,Uttarakhand,30.4599,78.0664,21.8,77,0.1,800.9,7.35,39.2,141,88.7,55.9,2.2,243.0,181.0,8.6,6,5,7,1,2026-06-28T16:39:41.538605+05:30
Dharamshala,Himachal Pradesh,32.219,76.3234,26.5,73,0.1,865.0,6.65,33.8,89,23.2,17.3,0.7,277.0,134.0,1.1,10,5,7,1,2026-06-28T16:39:41.538613+05:30
Dalhousie,Himachal Pradesh,32.5387,75.971,23.3,75,0.1,803.2,7.85,30.2,121,43.8,30.2,1.5,267.0,154.0,2.6,6,5,7,1,2026-06-28T16:39:41.538622+05:30
Patiala,Punjab,30.3398,76.3869,38.0,37,0.0,968.8,7.6,38.2,178,279.4,71.0,2.7,309.0,175.0,7.5,0,5,10,1,2026-06-28T16:39:41.538630+05:30
Bhatinda,Punjab,30.211,74.9455,39.5,36,0.0,974.1,8.3,46.1,189,62.2,36.6,2.7,266.0,151.0,9.0,0,5,10,1,2026-06-28T16:39:41.538637+05:30
Rohtak,Haryana,28.8955,76.6066,37.2,41,0.1,972.3,7.75,36.7,165,261.7,69.2,2.5,287.0,162.0,7.5,3,5,10,1,2026-06-28T16:39:41.538645+05:30
Panipat,Haryana,29.3909,76.9635,37.0,43,0.1,970.9,7.65,33.8,173,538.3,101.7,3.5,283.0,187.0,17.0,3,5,10,1,2026-06-28T16:39:41.538652+05:30
Mathura,Uttar Pradesh,27.4924,77.6737,39.0,36,0.0,976.4,7.45,32.4,206,230.5,54.6,0.4,170.0,128.0,3.4,0,5,10,1,2026-06-28T16:39:41.538660+05:30
Vrindavan,Uttar Pradesh,27.5823,77.7027,38.6,38,0.0,976.8,7.4,28.8,206,230.5,54.6,0.4,183.0,128.0,3.4,0,5,10,1,2026-06-28T16:39:41.538668+05:30
Ayodhya,Uttar Pradesh,26.7922,82.1998,35.7,52,0.0,985.4,8.45,22.0,140,94.3,41.0,0.0,192.0,158.0,4.5,0,5,10,1,2026-06-28T16:39:41.538676+05:30
Ratlam,Madhya Pradesh,23.3315,75.0367,28.1,75,0.0,948.4,8.45,31.0,78,51.2,25.0,0.7,147.0,97.0,2.3,7,5,7,1,2026-06-28T16:39:41.538683+05:30
Sagar,Madhya Pradesh,23.8388,78.7378,33.6,49,0.0,942.6,8.1,36.0,76,38.3,21.7,0.8,162.0,110.0,1.8,0,5,7,1,2026-06-28T16:39:41.538691+05:30
Satna,Madhya Pradesh,24.6005,80.8322,37.0,39,0.0,962.8,8.8,32.0,76,46.3,23.3,0.4,160.0,119.0,2.9,0,5,10,1,2026-06-28T16:39:41.538698+05:30
Akola,Maharashtra,20.7002,77.0082,29.7,72,0.1,968.9,8.05,31.7,82,43.9,25.7,2.0,134.0,107.0,7.3,10,5,7,1,2026-06-28T16:39:41.538707+05:30
Amravati,Maharashtra,20.9374,77.7796,29.6,74,0.2,960.8,8.05,26.6,77,41.1,26.3,2.6,170.0,115.0,9.2,10,5,7,1,2026-06-28T16:39:41.538716+05:30
Latur,Maharashtra,18.4088,76.5604,26.8,82,0.2,933.8,8.2,38.9,84,23.9,14.3,1.4,143.0,107.0,2.8,10,5,7,1,2026-06-28T16:39:41.538723+05:30
Nanded,Maharashtra,19.1383,77.3091,27.8,84,0.2,962.3,7.55,36.0,78,29.6,18.0,1.4,185.0,112.0,2.9,10,5,7,1,2026-06-28T16:39:41.538731+05:30
Gulbarga,Karnataka,17.3297,76.8343,31.3,61,0.0,952.4,7.85,26.3,57,9.1,6.2,2.2,167.0,102.0,2.1,3,5,7,1,2026-06-28T16:39:41.538738+05:30
Bidar,Karnataka,17.9104,77.5199,27.1,80,0.2,929.8,7.75,26.3,66,18.3,12.1,2.7,148.0,103.0,2.4,10,5,7,1,2026-06-28T16:39:41.538746+05:30
Hospet,Karnataka,15.2689,76.3909,26.6,83,0.1,950.9,8.9,47.2,27,2.8,2.5,2.6,128.0,61.0,1.3,10,5,7,1,2026-06-28T16:39:41.538753+05:30
Tirupur,Tamil Nadu,11.1085,77.3411,30.0,63,0.1,970.9,8.9,63.4,50,5.8,4.4,1.9,127.0,75.0,1.8,10,5,7,1,2026-06-28T16:39:41.538761+05:30
Alappuzha,Kerala,9.4981,76.3388,26.0,90,0.1,1007.5,8.5,42.1,49,11.0,6.6,2.6,85.0,55.0,1.2,10,5,4,1,2026-06-28T16:39:41.538769+05:30
Munnar,Kerala,10.0889,77.0595,17.9,97,0.1,854.6,8.25,41.4,27,4.4,3.3,2.4,99.0,55.0,0.9,6,10,7,1,2026-06-28T16:39:41.538777+05:30
Silchar,Assam,24.8333,92.7789,28.4,85,0.3,997.7,8.3,31.7,58,6.8,6.4,3.0,192.0,73.0,1.8,10,5,7,1,2026-06-28T16:39:41.538785+05:30
Dibrugarh,Assam,27.4728,94.912,27.5,96,0.1,987.2,2.75,40.3,63,11.5,10.5,6.8,200.0,71.0,1.7,10,5,3,1,2026-06-28T16:39:41.538793+05:30
