city,state,latitude,longitude,temp,humidity,rain,pressure,uv_index,wind_gusts,aqi,pm10,pm2_5,mosquito_risk,arthritis_risk,migraine_risk,frizz_risk,updated_at
Delhi,Delhi,28.6139,77.209,28.4,45,0.0,981.8,6.5,42.8,163,155.1,30.5,4,5,7,0,2026-03-27T17:13:08.488978+05:30
Mumbai,Maharashtra,19.076,72.8777,29.5,63,0.0,1006.8,8.0,28.4,172,44.6,39.5,7,5,4,1,2026-03-27T17:13:08.489015+05:30
Bangalore,Karnataka,12.9716,77.5946,34.0,19,0.0,910.6,9.5,28.1,103,22.6,17.3,0,5,7,0,2026-03-27T17:13:08.489030+05:30
Hyderabad,Telangana,17.385,78.4867,35.1,31,0.0,951.3,9.0,23.4,96,33.8,26.0,0,5,10,0,2026-03-27T17:13:08.489040+05:30
Chennai,Tamil Nadu,13.0827,80.2707,30.9,56,0.0,1005.7,9.2,29.5,68,31.5,18.3,0,5,4,1,2026-03-27T17:13:08.489049+05:30
Kolkata,West Bengal,22.5726,88.3639,32.4,52,0.0,1002.5,8.45,22.7,124,47.0,33.4,0,5,4,1,2026-03-27T17:13:08.489078+05:30
Pune,Maharashtra,18.5204,73.8567,35.0,29,0.0,947.7,8.55,39.2,116,41.9,30.5,0,5,7,0,2026-03-27T17:13:08.489091+05:30
Ahmedabad,Gujarat,23.0225,72.5714,36.5,25,0.0,1000.8,7.9,34.9,59,41.7,16.0,0,5,7,0,2026-03-27T17:13:08.489100+05:30
Jaipur,Rajasthan,26.9124,75.7873,32.1,26,0.0,957.9,7.35,43.2,103,285.9,38.4,0,5,7,0,2026-03-27T17:13:08.489108+05:30
Lucknow,Uttar Pradesh,26.8467,80.9462,31.9,32,0.0,991.1,6.5,49.3,89,82.7,20.7,0,5,7,0,2026-03-27T17:13:08.489116+05:30
Kanpur,Uttar Pradesh,26.4499,80.3319,31.3,39,0.0,989.6,6.65,64.1,143,219.3,32.1,0,5,7,0,2026-03-27T17:13:08.489123+05:30
Chandigarh,Chandigarh,30.7333,76.7794,26.7,47,0.0,967.3,6.45,31.3,71,29.6,17.0,4,5,7,0,2026-03-27T17:13:08.489131+05:30
Srinagar,Jammu and Kashmir,34.0837,74.7973,19.9,42,0.0,840.4,7.5,16.6,102,16.7,8.3,0,5,7,0,2026-03-27T17:13:08.489138+05:30
Jammu,Jammu and Kashmir,32.7266,74.857,28.2,48,0.0,971.5,7.15,20.2,84,21.6,12.2,4,5,7,1,2026-03-27T17:13:08.489146+05:30
Amritsar,Punjab,31.634,74.8723,27.6,43,0.0,979.9,7.1,25.9,93,37.0,20.9,4,5,7,0,2026-03-27T17:13:08.489155+05:30
Ludhiana,Punjab,30.901,75.8573,27.8,41,0.0,977.6,4.55,25.9,85,31.9,16.2,4,5,3,0,2026-03-27T17:13:08.489162+05:30
Jalandhar,Punjab,31.326,75.5762,27.4,45,0.0,978.9,4.4,22.3,85,31.5,19.0,4,5,3,0,2026-03-27T17:13:08.489171+05:30
Dehradun,Uttarakhand,30.6284,78.0322,17.4,56,0.0,827.8,5.8,27.0,61,24.5,15.1,0,5,3,0,2026-03-27T17:13:08.489178+05:30
Shimla,Himachal Pradesh,31.1048,77.1734,15.2,60,0.0,782.6,6.0,37.4,59,19.8,12.0,0,5,3,0,2026-03-27T17:13:08.489184+05:30
Manali,Himachal Pradesh,32.2396,77.1887,18.0,65,0.0,817.5,8.3,27.7,118,22.4,9.1,3,5,7,0,2026-03-27T17:13:08.489192+05:30
Gurgaon,Haryana,28.4595,77.0266,28.3,45,0.0,980.1,6.65,40.7,874,1061.7,107.3,4,5,7,0,2026-03-27T17:13:08.489198+05:30
Noida,Uttar Pradesh,28.5355,77.391,28.1,47,0.0,983.3,6.5,41.0,874,1061.7,107.3,4,5,7,0,2026-03-27T17:13:08.489205+05:30
Ghaziabad,Uttar Pradesh,28.6692,77.4538,28.0,47,0.0,981.4,6.45,40.0,134,158.3,32.5,4,5,7,0,2026-03-27T17:13:08.489211+05:30
Faridabad,Haryana,28.4089,77.3178,28.0,47,0.0,982.5,6.55,41.4,874,1061.7,107.3,4,5,7,0,2026-03-27T17:13:08.489218+05:30
Meerut,Uttar Pradesh,28.9845,77.7064,27.5,48,0.0,980.1,6.35,41.4,134,158.3,32.5,4,5,7,0,2026-03-27T17:13:08.489224+05:30
Agra,Uttar Pradesh,27.1767,78.0081,29.9,39,0.0,986.5,6.9,47.5,687,651.9,85.2,4,5,7,0,2026-03-27T17:13:08.489232+05:30
Varanasi,Uttar Pradesh,25.3176,82.9739,32.5,35,0.0,994.8,7.3,42.5,87,41.3,16.0,0,5,7,0,2026-03-27T17:13:08.489241+05:30
Prayagraj,Uttar Pradesh,25.4358,81.8463,31.3,41,0.0,993.3,7.5,37.8,86,35.4,15.1,0,5,7,1,2026-03-27T17:13:08.489248+05:30
Gorakhpur,Uttar Pradesh,26.7606,83.3732,32.5,28,0.0,993.6,6.85,50.0,109,45.6,17.5,0,5,7,0,2026-03-27T17:13:08.489254+05:30
Bareilly,Uttar Pradesh,28.367,79.4304,26.8,56,0.0,985.6,6.4,41.0,68,36.9,19.6,4,5,7,1,2026-03-27T17:13:08.489260+05:30
Aligarh,Uttar Pradesh,27.8974,78.088,27.1,56,0.0,984.7,6.3,37.8,338,264.5,51.9,4,5,7,1,2026-03-27T17:13:08.489267+05:30
Moradabad,Uttar Pradesh,28.8386,78.7733,27.3,50,0.0,982.3,5.7,45.0,77,40.0,18.3,4,5,3,0,2026-03-27T17:13:08.489274+05:30
Saharanpur,Uttar Pradesh,29.9637,77.546,27.1,45,0.0,973.9,6.15,32.8,80,29.6,17.3,4,5,7,0,2026-03-27T17:13:08.489279+05:30
Jhansi,Uttar Pradesh,25.4484,78.5685,30.3,42,0.0,975.4,7.55,61.2,92,73.8,17.8,0,5,7,0,2026-03-27T17:13:11.741336+05:30
Surat,Gujarat,21.1702,72.8311,34.9,28,0.0,1005.4,7.75,27.7,121,34.6,24.6,0,5,4,0,2026-03-27T17:13:11.741369+05:30
Vadodara,Gujarat,22.3072,73.1812,38.0,23,0.0,1002.4,7.9,29.2,73,30.0,16.1,0,5,7,0,2026-03-27T17:13:11.741380+05:30
Rajkot,Gujarat,22.3039,70.8022,35.6,21,0.0,994.3,7.75,36.7,51,23.1,12.2,0,5,10,0,2026-03-27T17:13:11.741389+05:30
Thane,Maharashtra,19.2183,72.9781,32.3,47,0.0,1006.4,8.0,39.6,172,44.6,39.5,0,5,4,1,2026-03-27T17:13:11.741398+05:30
Nagpur,Maharashtra,21.1458,79.0882,37.1,19,0.0,969.2,8.25,46.4,115,14.3,9.5,0,5,10,0,2026-03-27T17:13:11.741407+05:30
Nashik,Maharashtra,19.9975,73.7898,33.7,24,0.0,945.0,8.2,43.2,82,26.1,17.8,0,5,7,0,2026-03-27T17:13:11.741415+05:30
Aurangabad,Maharashtra,19.8762,75.3433,36.6,16,0.0,942.2,8.75,37.1,90,26.3,18.3,0,5,10,0,2026-03-27T17:13:11.741423+05:30
Solapur,Maharashtra,17.6599,75.9064,38.1,19,0.0,954.9,8.85,27.4,126,38.5,29.9,0,5,10,0,2026-03-27T17:13:11.741431+05:30
Kolhapur,Maharashtra,16.705,74.2433,30.8,56,0.0,948.0,8.95,47.9,155,38.4,33.1,0,5,7,1,2026-03-27T17:13:11.741439+05:30
Goa,Goa,15.2993,74.124,31.4,73,0.0,996.9,8.9,31.7,95,32.7,24.0,3,5,7,1,2026-03-27T17:13:11.741447+05:30
Jodhpur,Rajasthan,26.2389,73.0243,34.2,25,0.0,981.9,7.7,36.0,78,91.5,16.4,0,5,7,0,2026-03-27T17:13:11.741456+05:30
Udaipur,Rajasthan,24.5854,73.7125,31.4,29,0.0,945.9,8.35,43.2,42,38.9,12.7,0,5,7,0,2026-03-27T17:13:11.741463+05:30
Kota,Rajasthan,25.2138,75.8648,36.0,20,0.0,975.9,7.7,41.4,67,51.0,16.1,0,5,10,0,2026-03-27T17:13:11.741471+05:30
Bikaner,Rajasthan,28.0229,73.3119,32.0,28,0.0,981.2,7.45,30.2,66,19.8,9.4,0,5,7,0,2026-03-27T17:13:11.741479+05:30
Ajmer,Rajasthan,26.4499,74.6399,31.8,28,0.0,953.2,7.65,40.0,58,35.6,12.2,0,5,7,0,2026-03-27T17:13:11.741486+05:30
Gwalior,Madhya Pradesh,26.2183,78.1828,31.3,37,0.0,980.8,7.25,55.8,99,126.2,30.0,0,5,7,0,2026-03-27T17:13:11.741494+05:30
Indore,Madhya Pradesh,22.7196,75.8577,34.1,18,0.0,946.7,8.2,41.8,46,17.3,7.8,0,5,7,0,2026-03-27T17:13:11.741501+05:30
Bhopal,Madhya Pradesh,23.2599,77.4126,35.7,16,0.0,951.0,8.1,45.0,48,35.0,9.9,0,5,10,0,2026-03-27T17:13:11.741509+05:30
Jabalpur,Madhya Pradesh,23.1815,79.9864,35.2,19,0.0,957.6,8.15,46.4,76,13.4,7.7,0,5,10,0,2026-03-27T17:13:11.741516+05:30
Ujjain,Madhya Pradesh,23.1765,75.7885,33.8,21,0.0,952.3,8.1,41.8,42,21.7,8.4,0,5,7,0,2026-03-27T17:13:11.741524+05:30
Visakhapatnam,Andhra Pradesh,17.6868,83.2185,30.0,64,0.0,1001.9,8.95,38.2,80,34.5,23.6,7,5,4,1,2026-03-27T17:13:11.741532+05:30
Vijayawada,Andhra Pradesh,16.5062,80.648,35.7,42,0.0,999.8,9.0,26.3,76,34.9,23.3,0,5,10,1,2026-03-27T17:13:11.741540+05:30
Guntur,Andhra Pradesh,16.3067,80.4365,35.0,40,0.0,1001.2,9.05,30.2,71,33.8,22.2,0,5,4,1,2026-03-27T17:13:11.741548+05:30
Nellore,Andhra Pradesh,14.4426,79.9865,33.0,43,0.0,1004.0,9.15,28.1,83,33.6,22.4,0,5,4,1,2026-03-27T17:13:11.741557+05:30
Kurnool,Andhra Pradesh,15.8281,78.0373,38.8,19,0.0,973.9,9.05,17.6,104,31.8,23.1,0,5,10,0,2026-03-27T17:13:11.741566+05:30
Kakinada,Andhra Pradesh,16.9891,82.2475,34.5,44,0.0,1005.0,9.0,28.1,68,29.7,17.5,0,5,4,1,2026-03-27T17:13:11.741573+05:30
Tirupati,Andhra Pradesh,13.6288,79.4192,35.1,32,0.0,989.5,9.25,30.2,97,37.4,27.9,0,5,10,0,2026-03-27T17:13:11.741579+05:30
Warangal,Telangana,17.9689,79.5941,36.2,32,0.0,976.0,8.85,26.3,82,31.5,24.4,0,5,10,1,2026-03-27T17:13:11.741586+05:30
Nizamabad,Telangana,18.6725,78.0941,36.7,24,0.0,962.4,8.75,29.5,101,28.6,19.8,0,5,10,0,2026-03-27T17:13:11.741592+05:30
Mysore,Karnataka,12.2958,76.6396,35.5,15,0.0,926.8,9.45,44.6,113,22.2,16.5,0,5,10,0,2026-03-27T17:13:11.741599+05:30
Mangalore,Karnataka,12.9141,74.856,29.8,82,0.0,1004.9,9.1,25.9,97,40.2,32.0,7,5,4,1,2026-03-27T17:13:11.741605+05:30
Hubli-Dharwad,Karnataka,15.3647,75.124,29.7,60,0.0,940.4,9.1,44.6,125,28.4,22.4,4,5,7,1,2026-03-27T17:13:11.741612+05:30
Belgaum,Karnataka,15.8497,74.4977,29.4,61,0.0,925.7,9.15,38.2,140,33.3,28.3,7,5,7,1,2026-03-27T17:13:14.996230+05:30
Coimbatore,Tamil Nadu,11.0168,76.9558,36.1,21,0.0,959.5,9.4,43.2,115,22.9,17.6,0,5,10,0,2026-03-27T17:13:14.996261+05:30
Madurai,Tamil Nadu,9.9252,78.1198,36.0,30,0.0,990.2,9.35,21.6,83,28.5,18.2,0,5,10,0,2026-03-27T17:13:14.996271+05:30
Trichy,Tamil Nadu,10.7905,78.7047,34.4,45,0.0,997.2,9.3,18.0,87,36.9,26.1,0,5,7,1,2026-03-27T17:13:14.996279+05:30
Salem,Tamil Nadu,11.6643,78.146,37.3,20,0.0,974.6,9.35,25.9,142,30.2,22.9,0,5,10,0,2026-03-27T17:13:14.996286+05:30
Tirunelveli,Tamil Nadu,8.7139,77.7567,37.6,22,0.0,999.9,9.35,47.5,70,21.9,14.2,0,5,10,0,2026-03-27T17:13:14.996294+05:30
Vellore,Tamil Nadu,12.9165,79.1325,34.3,30,0.0,982.6,9.3,30.6,94,28.8,19.8,0,5,7,0,2026-03-27T17:13:14.996300+05:30
Erode,Tamil Nadu,11.341,77.7172,37.3,27,0.0,985.9,9.35,25.9,95,33.6,26.2,0,5,10,0,2026-03-27T17:13:14.996308+05:30
Kochi,Kerala,9.9312,76.2673,29.5,78,0.0,1006.1,9.2,40.3,95,29.8,24.9,7,5,4,1,2026-03-27T17:13:14.996315+05:30
Thiruvananthapuram,Kerala,8.5241,76.9366,29.7,75,0.0,1005.8,9.2,32.8,112,21.0,15.4,7,5,4,1,2026-03-27T17:13:14.996322+05:30
Kozhikode,Kerala,11.2588,75.7804,30.6,75,0.0,1005.8,9.1,31.7,89,33.2,26.5,3,5,4,1,2026-03-27T17:13:14.996329+05:30
Thrissur,Kerala,10.5276,76.2144,31.6,66,0.0,1004.6,9.15,41.0,118,30.9,25.4,3,5,4,1,2026-03-27T17:13:14.996337+05:30
Kannur,Kerala,11.8745,75.3704,31.1,69,0.0,1005.4,9.1,32.4,101,36.6,28.9,3,5,4,1,2026-03-27T17:13:14.996344+05:30
Patna,Bihar,25.5941,85.1376,32.5,33,0.0,997.2,7.95,43.9,152,42.5,18.5,0,5,7,0,2026-03-27T17:13:14.996351+05:30
Gaya,Bihar,24.7914,85.0002,31.2,42,0.0,991.1,8.05,31.3,98,43.5,15.8,0,5,7,1,2026-03-27T17:13:14.996357+05:30
Muzaffarpur,Bihar,26.1209,85.3647,30.1,46,0.0,997.3,7.6,38.2,175,47.5,22.9,0,5,7,1,2026-03-27T17:13:14.996364+05:30
Bhagalpur,Bihar,25.2425,87.0117,30.3,64,0.0,998.0,8.0,31.3,160,34.1,20.2,3,5,7,1,2026-03-27T17:13:14.996371+05:30
Ranchi,Jharkhand,23.3441,85.3096,29.1,36,0.0,936.0,8.7,33.8,109,23.8,13.2,4,5,7,0,2026-03-27T17:13:14.996377+05:30
Jamshedpur,Jharkhand,22.8046,86.2029,35.2,26,0.0,987.4,8.55,22.3,152,34.2,12.8,0,5,10,0,2026-03-27T17:13:14.996384+05:30
Dhanbad,Jharkhand,23.7957,86.4304,34.2,24,0.0,976.7,8.45,25.6,116,38.1,16.5,0,5,7,0,2026-03-27T17:13:14.996391+05:30
Bokaro,Jharkhand,23.6693,86.1511,33.8,23,0.0,980.8,8.3,27.0,114,40.5,17.2,0,5,7,0,2026-03-27T17:13:14.996398+05:30
Bhubaneswar,Odisha,20.2961,85.8245,31.8,63,0.0,1000.2,8.75,29.2,128,38.9,31.7,3,5,4,1,2026-03-27T17:13:14.996405+05:30
Cuttack,Odisha,20.4625,85.8828,27.7,70,0.0,1003.0,8.8,35.3,128,38.9,31.7,7,5,4,1,2026-03-27T17:13:14.996412+05:30
Rourkela,Odisha,22.2604,84.8536,32.5,41,0.0,982.1,8.45,31.7,162,29.5,24.2,0,5,7,1,2026-03-27T17:13:14.996418+05:30
Raipur,Chhattisgarh,21.2514,81.6296,35.4,32,0.0,971.2,8.5,48.6,135,27.9,21.7,0,5,10,1,2026-03-27T17:13:14.996424+05:30
Bhilai,Chhattisgarh,21.1938,81.3509,35.7,32,0.0,971.5,8.55,44.6,119,24.6,18.5,0,5,10,1,2026-03-27T17:13:14.996430+05:30
Guwahati,Assam,26.1158,91.7086,27.3,65,0.0,1000.3,7.9,28.4,153,85.0,56.6,7,5,4,1,2026-03-27T17:13:14.996436+05:30
Agartala,Tripura,23.8315,91.2868,30.1,59,0.0,1003.5,8.2,19.1,168,63.8,52.5,0,5,4,1,2026-03-27T17:13:14.996443+05:30
Shillong,Meghalaya,25.5788,91.8933,16.2,70,0.0,854.5,8.15,42.1,151,64.3,46.2,3,5,7,0,2026-03-27T17:13:14.996450+05:30
Imphal,Manipur,24.817,93.9368,21.3,50,0.0,921.2,8.55,44.3,142,49.5,35.4,0,5,7,0,2026-03-27T17:13:14.996457+05:30
Aizawl,Mizoram,23.7271,92.7176,23.5,48,0.0,891.3,8.5,28.8,137,50.5,34.2,0,5,7,0,2026-03-27T17:13:14.996464+05:30
Kohima,Nagaland,25.6701,94.1077,16.1,84,0.0,853.3,8.45,51.5,128,48.3,31.3,3,10,7,0,2026-03-27T17:13:14.996471+05:30
Gangtok,Sikkim,27.3314,88.6138,15.2,88,0.0,835.3,7.6,19.4,134,65.0,46.7,3,10,7,0,2026-03-27T17:13:14.996478+05:30
Siliguri,West Bengal,26.7271,88.3953,21.0,87,0.0,992.7,7.7,33.1,160,84.5,56.2,3,5,7,1,2026-03-27T17:13:18.254946+05:30
Durgapur,West Bengal,23.5204,87.3119,35.8,24,0.0,991.3,8.4,20.2,153,40.4,20.1,0,5,10,0,2026-03-27T17:13:18.254973+05:30
Asansol,West Bengal,23.6739,86.9524,35.3,22,0.0,990.0,8.45,20.2,105,36.7,15.8,0,5,10,0,2026-03-27T17:13:18.254982+05:30
Pondicherry,Puducherry,11.9139,79.8145,31.4,58,0.0,1006.5,9.2,25.2,68,31.4,17.1,0,5,4,1,2026-03-27T17:13:18.254989+05:30
Port Blair,Andaman and Nicobar Islands,11.6234,92.7265,28.3,78,0.0,1004.8,9.15,25.6,70,31.4,22.9,7,5,4,1,2026-03-27T17:13:18.254996+05:30
Haridwar,Uttarakhand,29.9457,78.1642,26.9,45,0.0,972.4,5.75,38.5,79,30.9,17.2,4,5,3,0,2026-03-27T17:13:18.255003+05:30
Rishikesh,Uttarakhand,30.0869,78.2676,25.4,49,0.0,965.2,6.15,28.4,62,27.6,14.9,4,5,7,0,2026-03-27T17:13:18.255010+05:30
Nainital,Uttarakhand,29.3919,79.4542,20.5,42,0.0,804.7,6.65,50.4,59,23.5,11.5,0,5,7,0,2026-03-27T17:13:18.255017+05:30
Mussoorie,Uttarakhand,30.4599,78.0664,17.9,55,0.0,800.7,5.8,32.8,73,28.2,15.9,0,5,3,0,2026-03-27T17:13:18.255024+05:30
Dharamshala,Himachal Pradesh,32.219,76.3234,20.7,65,0.0,867.4,6.95,19.1,68,19.2,8.7,3,5,7,0,2026-03-27T17:13:18.255030+05:30
Dalhousie,Himachal Pradesh,32.5387,75.971,18.6,64,0.0,802.7,7.2,19.4,68,22.7,11.5,3,5,7,0,2026-03-27T17:13:18.255037+05:30
Patiala,Punjab,30.3398,76.3869,27.2,45,0.0,976.9,6.35,30.2,144,27.5,18.3,4,5,7,0,2026-03-27T17:13:18.255043+05:30
Bhatinda,Punjab,30.211,74.9455,28.6,40,0.0,982.6,7.0,27.0,86,24.4,15.0,4,5,7,0,2026-03-27T17:13:18.255049+05:30
Rohtak,Haryana,28.8955,76.6066,28.0,46,0.0,980.3,6.55,38.5,160,277.5,38.9,4,5,7,0,2026-03-27T17:13:18.255085+05:30
Panipat,Haryana,29.3909,76.9635,27.5,46,0.0,979.0,6.35,37.4,253,609.1,61.0,4,5,7,0,2026-03-27T17:13:18.255093+05:30
Mathura,Uttar Pradesh,27.4924,77.6737,28.5,49,0.0,985.7,6.8,32.4,680,566.2,73.1,4,5,7,1,2026-03-27T17:13:18.255100+05:30
Vrindavan,Uttar Pradesh,27.5823,77.7027,27.9,53,0.0,986.3,6.75,39.2,680,566.2,73.1,4,5,7,1,2026-03-27T17:13:18.255106+05:30
Ayodhya,Uttar Pradesh,26.7922,82.1998,31.4,32,0.0,992.5,6.8,50.4,79,28.4,15.9,0,5,7,0,2026-03-27T17:13:18.255112+05:30
Ratlam,Madhya Pradesh,23.3315,75.0367,33.2,26,0.0,953.4,8.05,38.2,42,23.1,8.7,0,5,7,0,2026-03-27T17:13:18.255118+05:30
Sagar,Madhya Pradesh,23.8388,78.7378,35.1,19,0.0,946.7,8.05,39.2,62,40.2,11.8,0,5,10,0,2026-03-27T17:13:18.255124+05:30
Satna,Madhya Pradesh,24.6005,80.8322,29.5,47,0.0,968.8,7.75,55.4,103,63.6,16.6,4,5,7,1,2026-03-27T17:13:18.255130+05:30
Akola,Maharashtra,20.7002,77.0082,38.0,14,0.0,972.3,8.45,43.6,63,23.0,16.1,0,5,10,0,2026-03-27T17:13:18.255137+05:30
Amravati,Maharashtra,20.9374,77.7796,37.1,19,0.0,964.5,8.45,43.9,63,22.7,15.9,0,5,10,0,2026-03-27T17:13:18.255143+05:30
Latur,Maharashtra,18.4088,76.5604,35.3,21,0.0,938.4,8.8,25.2,95,36.7,26.3,0,5,10,0,2026-03-27T17:13:18.255150+05:30
Nanded,Maharashtra,19.1383,77.3091,37.7,19,0.0,966.0,8.65,28.1,87,34.2,24.5,0,5,10,0,2026-03-27T17:13:18.255156+05:30
Gulbarga,Karnataka,17.3297,76.8343,37.8,20,0.0,956.3,8.85,32.0,127,42.1,32.1,0,5,10,0,2026-03-27T17:13:18.255163+05:30
Bidar,Karnataka,17.9104,77.5199,35.9,23,0.0,933.7,8.85,29.9,101,27.5,19.7,0,5,10,0,2026-03-27T17:13:18.255171+05:30
Hospet,Karnataka,15.2689,76.3909,36.6,23,0.0,953.9,9.1,26.6,121,31.1,24.4,0,5,10,0,2026-03-27T17:13:18.255176+05:30
Tirupur,Tamil Nadu,11.1085,77.3411,37.4,21,0.0,972.5,9.4,34.9,112,31.8,25.1,0,5,10,0,2026-03-27T17:13:18.255182+05:30
Alappuzha,Kerala,9.4981,76.3388,29.6,78,0.0,1006.2,9.15,35.6,95,26.7,21.0,7,5,4,1,2026-03-27T17:13:18.255188+05:30
Munnar,Kerala,10.0889,77.0595,28.3,53,0.0,857.6,9.7,33.8,91,22.9,15.6,4,5,7,1,2026-03-27T17:13:18.255194+05:30
Silchar,Assam,24.8333,92.7789,30.2,50,0.0,1002.2,8.25,16.2,155,76.8,51.9,0,5,4,1,2026-03-27T17:13:18.255200+05:30
Dibrugarh,Assam,27.4728,94.912,25.9,72,0.0,994.7,3.6,12.6,123,59.5,42.6,7,5,3,1,2026-03-27T17:13:18.255206+05:30
