city,state,latitude,longitude,temp,humidity,rain,pressure,uv_index,wind_gusts,aqi,pm10,pm2_5,mosquito_risk,arthritis_risk,migraine_risk,frizz_risk,updated_at
Delhi,Delhi,28.6139,77.209,38.1,17,0.0,979.4,7.3,38.9,456,480.6,54.9,0,5,10,0,2026-04-21T15:17:05.246940+05:30
Mumbai,Maharashtra,19.076,72.8777,29.2,82,0.0,1005.4,7.25,21.2,137,48.4,32.4,7,5,4,1,2026-04-21T15:17:05.247010+05:30
Bangalore,Karnataka,12.9716,77.5946,35.2,25,0.0,909.8,9.6,25.2,86,24.4,19.3,0,5,10,0,2026-04-21T15:17:05.247030+05:30
Hyderabad,Telangana,17.385,78.4867,36.2,31,0.0,951.0,8.75,24.1,100,37.1,32.0,0,5,10,1,2026-04-21T15:17:05.247041+05:30
Chennai,Tamil Nadu,13.0827,80.2707,35.4,52,0.0,1003.6,9.3,36.4,36,13.9,10.5,0,5,7,1,2026-04-21T15:17:05.247049+05:30
Kolkata,West Bengal,22.5726,88.3639,34.4,63,0.0,1000.1,8.95,32.4,78,51.0,42.7,3,5,4,1,2026-04-21T15:17:05.247062+05:30
Pune,Maharashtra,18.5204,73.8567,38.2,23,0.0,946.5,8.5,33.5,105,34.9,28.9,0,5,10,0,2026-04-21T15:17:05.247070+05:30
Ahmedabad,Gujarat,23.0225,72.5714,40.5,14,0.0,999.6,8.15,25.9,52,11.3,5.8,0,5,10,0,2026-04-21T15:17:05.247078+05:30
Jaipur,Rajasthan,26.9124,75.7873,39.3,12,0.0,957.3,7.95,33.5,113,292.4,37.0,0,5,10,0,2026-04-21T15:17:05.247086+05:30
Lucknow,Uttar Pradesh,26.8467,80.9462,40.3,14,0.0,988.3,7.9,50.0,108,119.7,22.5,0,5,10,0,2026-04-21T15:17:05.247094+05:30
Kanpur,Uttar Pradesh,26.4499,80.3319,38.6,21,0.0,987.5,7.9,37.8,289,510.4,53.9,0,5,10,0,2026-04-21T15:17:05.247101+05:30
Chandigarh,Chandigarh,30.7333,76.7794,37.7,16,0.0,965.3,7.25,34.6,90,25.6,12.9,0,5,10,0,2026-04-21T15:17:05.247108+05:30
Srinagar,Jammu and Kashmir,34.0837,74.7973,23.8,30,0.0,843.2,8.45,15.1,77,26.4,10.2,0,5,7,0,2026-04-21T15:17:05.247114+05:30
Jammu,Jammu and Kashmir,32.7266,74.857,37.6,15,0.0,969.6,8.0,31.3,61,29.1,11.1,0,5,10,0,2026-04-21T15:17:05.247121+05:30
Amritsar,Punjab,31.634,74.8723,38.3,13,0.0,977.6,7.95,32.4,69,26.7,11.0,0,5,10,0,2026-04-21T15:17:05.247128+05:30
Ludhiana,Punjab,30.901,75.8573,39.4,11,0.0,974.8,7.5,32.0,71,52.0,13.6,0,5,10,0,2026-04-21T15:17:05.247137+05:30
Jalandhar,Punjab,31.326,75.5762,39.0,11,0.0,976.2,7.7,33.1,77,62.9,15.5,0,5,10,0,2026-04-21T15:17:05.247143+05:30
Dehradun,Uttarakhand,30.6284,78.0322,24.9,38,0.0,831.1,7.7,41.4,82,20.3,8.7,0,5,7,0,2026-04-21T15:17:05.247152+05:30
Shimla,Himachal Pradesh,31.1048,77.1734,24.7,26,0.0,787.4,7.75,49.3,80,21.7,9.3,0,5,7,0,2026-04-21T15:17:05.247159+05:30
Manali,Himachal Pradesh,32.2396,77.1887,25.8,36,0.0,822.3,9.9,33.1,98,22.5,7.5,4,5,7,0,2026-04-21T15:17:05.247166+05:30
Gurgaon,Haryana,28.4595,77.0266,38.7,16,0.0,977.9,7.4,38.5,1294,1847.7,168.1,0,5,10,0,2026-04-21T15:17:05.247172+05:30
Noida,Uttar Pradesh,28.5355,77.391,38.4,17,0.0,980.8,7.35,38.9,1294,1847.7,168.1,0,5,10,0,2026-04-21T15:17:05.247178+05:30
Ghaziabad,Uttar Pradesh,28.6692,77.4538,38.0,18,0.0,979.0,7.3,37.8,315,384.6,47.5,0,5,10,0,2026-04-21T15:17:05.247184+05:30
Faridabad,Haryana,28.4089,77.3178,38.8,17,0.0,980.2,7.35,37.1,1294,1847.7,168.1,0,5,10,0,2026-04-21T15:17:05.247190+05:30
Meerut,Uttar Pradesh,28.9845,77.7064,38.1,16,0.0,977.5,7.2,40.0,315,384.6,47.5,0,5,10,0,2026-04-21T15:17:05.247197+05:30
Agra,Uttar Pradesh,27.1767,78.0081,39.5,15,0.0,984.2,7.7,32.0,983,817.7,76.1,0,5,10,0,2026-04-21T15:17:05.247205+05:30
Varanasi,Uttar Pradesh,25.3176,82.9739,42.2,12,0.0,991.7,8.55,40.0,101,214.7,36.0,0,5,10,0,2026-04-21T15:17:05.247211+05:30
Prayagraj,Uttar Pradesh,25.4358,81.8463,40.7,13,0.0,991.0,8.35,33.8,98,121.1,24.4,0,5,10,0,2026-04-21T15:17:05.247218+05:30
Gorakhpur,Uttar Pradesh,26.7606,83.3732,41.8,10,0.0,990.4,8.3,49.7,101,33.8,10.7,0,5,10,0,2026-04-21T15:17:05.247226+05:30
Bareilly,Uttar Pradesh,28.367,79.4304,39.0,12,0.0,982.0,7.6,44.3,83,24.6,13.0,0,5,10,0,2026-04-21T15:17:05.247233+05:30
Aligarh,Uttar Pradesh,27.8974,78.088,39.7,13,0.0,981.7,7.45,41.4,794,1031.9,98.3,0,5,10,0,2026-04-21T15:17:05.247239+05:30
Moradabad,Uttar Pradesh,28.8386,78.7733,38.4,13,0.0,979.2,7.4,39.6,107,30.3,13.7,0,5,10,0,2026-04-21T15:17:05.247246+05:30
Saharanpur,Uttar Pradesh,29.9637,77.546,37.2,17,0.0,971.9,7.0,32.8,84,73.1,16.5,0,5,10,0,2026-04-21T15:17:05.247252+05:30
Jhansi,Uttar Pradesh,25.4484,78.5685,41.1,12,0.0,973.9,8.25,38.2,102,175.6,29.7,0,5,10,0,2026-04-21T15:17:08.521527+05:30
Surat,Gujarat,21.1702,72.8311,34.1,41,0.0,1004.3,7.85,27.4,100,41.0,29.0,0,5,4,1,2026-04-21T15:17:08.521556+05:30
Vadodara,Gujarat,22.3072,73.1812,40.8,19,0.0,1001.6,8.15,28.1,83,25.4,13.5,0,5,7,0,2026-04-21T15:17:08.521566+05:30
Rajkot,Gujarat,22.3039,70.8022,37.6,23,0.0,992.6,7.85,27.4,54,21.7,8.6,0,5,10,0,2026-04-21T15:17:08.521574+05:30
Thane,Maharashtra,19.2183,72.9781,33.1,55,0.0,1005.1,7.65,34.6,137,48.4,32.4,0,5,4,1,2026-04-21T15:17:08.521581+05:30
Nagpur,Maharashtra,21.1458,79.0882,40.2,16,0.0,969.5,8.95,23.8,116,31.4,25.8,0,5,10,0,2026-04-21T15:17:08.521589+05:30
Nashik,Maharashtra,19.9975,73.7898,36.9,23,0.0,943.6,8.3,33.1,83,35.6,25.4,0,5,10,0,2026-04-21T15:17:08.521595+05:30
Aurangabad,Maharashtra,19.8762,75.3433,38.2,17,0.0,942.0,8.2,23.0,109,31.9,24.3,0,5,10,0,2026-04-21T15:17:08.521603+05:30
Solapur,Maharashtra,17.6599,75.9064,37.3,24,0.0,954.6,9.0,20.9,128,38.9,32.4,0,5,10,0,2026-04-21T15:17:08.521610+05:30
Kolhapur,Maharashtra,16.705,74.2433,31.2,48,0.0,946.6,9.05,29.5,103,45.5,38.4,0,5,7,1,2026-04-21T15:17:08.521618+05:30
Goa,Goa,15.2993,74.124,31.6,64,0.0,995.3,9.05,25.2,75,27.0,17.1,3,5,7,1,2026-04-21T15:17:08.521624+05:30
Jodhpur,Rajasthan,26.2389,73.0243,40.2,16,0.0,980.5,8.1,34.2,119,156.5,24.2,0,5,10,0,2026-04-21T15:17:08.521631+05:30
Udaipur,Rajasthan,24.5854,73.7125,37.6,11,0.0,945.8,8.7,42.5,59,9.7,7.4,0,5,10,0,2026-04-21T15:17:08.521638+05:30
Kota,Rajasthan,25.2138,75.8648,40.5,13,0.0,975.5,8.2,27.7,49,43.8,13.7,0,5,10,0,2026-04-21T15:17:08.521645+05:30
Bikaner,Rajasthan,28.0229,73.3119,40.3,13,0.0,979.1,8.05,31.3,76,41.3,12.0,0,5,10,0,2026-04-21T15:17:08.521651+05:30
Ajmer,Rajasthan,26.4499,74.6399,37.6,18,0.0,952.8,8.15,34.6,58,99.4,20.0,0,5,10,0,2026-04-21T15:17:08.521658+05:30
Gwalior,Madhya Pradesh,26.2183,78.1828,38.9,17,0.0,980.0,7.95,31.7,229,85.2,18.2,0,5,10,0,2026-04-21T15:17:08.521664+05:30
Indore,Madhya Pradesh,22.7196,75.8577,37.9,16,0.0,946.8,8.6,36.0,85,21.7,16.6,0,5,10,0,2026-04-21T15:17:08.521671+05:30
Bhopal,Madhya Pradesh,23.2599,77.4126,39.2,13,0.0,951.5,8.6,34.6,72,19.7,12.6,0,5,10,0,2026-04-21T15:17:08.521678+05:30
Jabalpur,Madhya Pradesh,23.1815,79.9864,39.1,16,0.0,958.4,8.8,31.3,77,37.0,14.3,0,5,10,0,2026-04-21T15:17:08.521684+05:30
Ujjain,Madhya Pradesh,23.1765,75.7885,38.6,14,0.0,952.4,8.55,38.9,66,21.3,15.8,0,5,10,0,2026-04-21T15:17:08.521690+05:30
Visakhapatnam,Andhra Pradesh,17.6868,83.2185,34.4,58,0.0,1000.5,9.15,41.4,57,20.4,15.7,0,5,4,1,2026-04-21T15:17:08.521697+05:30
Vijayawada,Andhra Pradesh,16.5062,80.648,38.4,36,0.0,998.1,8.95,30.2,54,18.6,13.9,0,5,10,1,2026-04-21T15:17:08.521703+05:30
Guntur,Andhra Pradesh,16.3067,80.4365,39.1,35,0.0,999.2,8.85,29.5,55,21.4,16.4,0,5,10,1,2026-04-21T15:17:08.521710+05:30
Nellore,Andhra Pradesh,14.4426,79.9865,39.4,38,0.0,1001.0,9.3,37.1,48,21.7,16.3,0,5,7,1,2026-04-21T15:17:08.521717+05:30
Kurnool,Andhra Pradesh,15.8281,78.0373,37.6,34,0.0,974.1,9.25,56.2,86,34.7,28.2,0,5,10,1,2026-04-21T15:17:08.521724+05:30
Kakinada,Andhra Pradesh,16.9891,82.2475,37.7,39,0.0,1003.0,9.2,32.0,47,15.1,9.4,0,5,7,1,2026-04-21T15:17:08.521730+05:30
Tirupati,Andhra Pradesh,13.6288,79.4192,38.8,23,0.0,987.4,9.35,30.6,57,21.5,17.5,0,5,10,0,2026-04-21T15:17:08.521736+05:30
Warangal,Telangana,17.9689,79.5941,36.7,42,0.0,975.6,9.15,30.2,85,37.5,31.8,0,5,10,1,2026-04-21T15:17:08.521742+05:30
Nizamabad,Telangana,18.6725,78.0941,38.7,22,0.0,961.8,9.1,26.3,121,36.1,31.1,0,5,10,0,2026-04-21T15:17:08.521748+05:30
Mysore,Karnataka,12.2958,76.6396,36.7,19,0.0,926.1,9.5,40.3,88,27.9,21.4,0,5,10,0,2026-04-21T15:17:08.521754+05:30
Mangalore,Karnataka,12.9141,74.856,28.8,84,0.0,1003.6,9.1,24.5,85,36.9,27.9,7,5,4,1,2026-04-21T15:17:08.521761+05:30
Hubli-Dharwad,Karnataka,15.3647,75.124,33.1,45,0.0,939.3,9.25,29.5,97,39.9,31.7,0,5,7,1,2026-04-21T15:17:08.521768+05:30
Belgaum,Karnataka,15.8497,74.4977,31.0,50,0.0,924.8,9.25,24.5,132,45.6,37.1,0,5,7,1,2026-04-21T15:17:11.794313+05:30
Coimbatore,Tamil Nadu,11.0168,76.9558,36.3,33,0.0,958.3,9.4,51.5,92,24.3,19.6,0,5,10,1,2026-04-21T15:17:11.794347+05:30
Madurai,Tamil Nadu,9.9252,78.1198,38.4,28,0.0,988.5,9.15,42.8,61,17.7,13.7,0,5,10,1,2026-04-21T15:17:11.794359+05:30
Trichy,Tamil Nadu,10.7905,78.7047,37.8,34,0.0,995.2,9.3,23.8,52,13.3,9.5,0,5,10,1,2026-04-21T15:17:11.794369+05:30
Salem,Tamil Nadu,11.6643,78.146,38.7,26,0.0,973.3,9.4,17.6,71,21.4,16.9,0,5,10,0,2026-04-21T15:17:11.794378+05:30
Tirunelveli,Tamil Nadu,8.7139,77.7567,34.4,52,0.0,999.4,8.75,43.6,62,19.0,15.7,0,5,7,1,2026-04-21T15:17:11.794387+05:30
Vellore,Tamil Nadu,12.9165,79.1325,38.1,23,0.0,980.7,9.4,26.6,64,19.3,15.2,0,5,10,0,2026-04-21T15:17:11.794395+05:30
Erode,Tamil Nadu,11.341,77.7172,40.5,20,0.0,984.3,9.35,24.8,58,19.3,14.8,0,5,10,0,2026-04-21T15:17:11.794404+05:30
Kochi,Kerala,9.9312,76.2673,29.3,80,0.0,1005.0,9.05,32.0,71,21.7,17.8,7,5,4,1,2026-04-21T15:17:11.794412+05:30
Thiruvananthapuram,Kerala,8.5241,76.9366,29.3,81,0.0,1004.3,8.7,27.7,58,16.2,12.4,7,5,4,1,2026-04-21T15:17:11.794420+05:30
Kozhikode,Kerala,11.2588,75.7804,30.7,75,0.0,1004.5,9.1,31.0,68,28.8,18.2,3,5,4,1,2026-04-21T15:17:11.794428+05:30
Thrissur,Kerala,10.5276,76.2144,33.5,61,0.0,1003.5,9.05,36.4,73,22.5,17.9,3,5,4,1,2026-04-21T15:17:11.794437+05:30
Kannur,Kerala,11.8745,75.3704,31.5,70,0.0,1004.0,9.1,31.7,74,31.4,21.8,3,5,4,1,2026-04-21T15:17:11.794445+05:30
Patna,Bihar,25.5941,85.1376,40.8,15,0.0,993.6,8.7,37.4,116,152.3,30.0,0,5,10,0,2026-04-21T15:17:11.794453+05:30
Gaya,Bihar,24.7914,85.0002,41.4,13,0.0,987.7,8.75,33.5,132,180.7,35.5,0,5,10,0,2026-04-21T15:17:11.794461+05:30
Muzaffarpur,Bihar,26.1209,85.3647,40.7,15,0.0,993.2,8.65,35.3,119,110.6,25.7,0,5,10,0,2026-04-21T15:17:11.794468+05:30
Bhagalpur,Bihar,25.2425,87.0117,38.5,27,0.0,994.3,8.7,28.4,161,80.3,25.0,0,5,10,1,2026-04-21T15:17:11.794476+05:30
Ranchi,Jharkhand,23.3441,85.3096,37.0,17,0.0,934.4,9.25,37.1,132,54.2,18.0,0,5,10,0,2026-04-21T15:17:11.794484+05:30
Jamshedpur,Jharkhand,22.8046,86.2029,40.1,25,0.0,984.8,9.05,23.8,186,85.7,29.7,0,5,10,1,2026-04-21T15:17:11.794492+05:30
Dhanbad,Jharkhand,23.7957,86.4304,41.7,13,0.0,973.5,9.05,28.8,146,142.0,32.9,0,5,10,0,2026-04-21T15:17:11.794499+05:30
Bokaro,Jharkhand,23.6693,86.1511,41.9,12,0.0,977.4,9.05,32.8,125,114.3,30.0,0,5,10,0,2026-04-21T15:17:11.794507+05:30
Bhubaneswar,Odisha,20.2961,85.8245,34.6,61,0.0,997.5,9.15,29.2,94,44.5,40.0,3,5,7,1,2026-04-21T15:17:11.794514+05:30
Cuttack,Odisha,20.4625,85.8828,38.3,43,0.0,998.8,9.15,33.5,94,44.5,40.0,0,5,10,1,2026-04-21T15:17:11.794522+05:30
Rourkela,Odisha,22.2604,84.8536,41.3,19,0.0,979.4,8.95,26.3,151,29.5,20.0,0,5,10,0,2026-04-21T15:17:11.794529+05:30
Raipur,Chhattisgarh,21.2514,81.6296,41.1,16,0.0,970.1,9.0,33.5,106,34.0,29.3,0,5,10,0,2026-04-21T15:17:11.794537+05:30
Bhilai,Chhattisgarh,21.1938,81.3509,41.4,16,0.0,970.3,9.0,31.0,113,33.1,28.1,0,5,10,0,2026-04-21T15:17:11.794545+05:30
Guwahati,Assam,26.1158,91.7086,28.9,77,0.0,995.3,8.6,51.8,91,33.3,23.5,7,5,7,1,2026-04-21T15:17:11.794553+05:30
Agartala,Tripura,23.8315,91.2868,28.1,78,0.0,1002.2,8.8,38.9,84,40.9,33.6,7,5,4,1,2026-04-21T15:17:11.794560+05:30
Shillong,Meghalaya,25.5788,91.8933,21.7,66,0.0,854.5,9.05,76.7,59,25.2,18.0,3,5,7,0,2026-04-21T15:17:11.794568+05:30
Imphal,Manipur,24.817,93.9368,22.6,82,0.0,920.6,9.2,78.8,153,62.4,43.4,3,5,7,1,2026-04-21T15:17:11.794576+05:30
Aizawl,Mizoram,23.7271,92.7176,24.7,76,0.0,891.2,9.05,64.8,102,55.8,42.5,3,5,7,1,2026-04-21T15:17:11.794583+05:30
Kohima,Nagaland,25.6701,94.1077,22.6,59,0.0,853.1,9.15,105.1,98,54.4,32.0,0,5,7,0,2026-04-21T15:17:11.794592+05:30
Gangtok,Sikkim,27.3314,88.6138,22.3,64,0.0,835.8,9.0,16.2,106,28.5,17.7,3,5,7,0,2026-04-21T15:17:11.794599+05:30
Siliguri,West Bengal,26.7271,88.3953,28.2,74,0.0,988.0,8.6,30.6,128,61.2,46.0,7,5,7,1,2026-04-21T15:17:15.083175+05:30
Durgapur,West Bengal,23.5204,87.3119,34.8,45,0.0,989.6,8.95,60.8,151,165.3,34.5,0,5,7,1,2026-04-21T15:17:15.083206+05:30
Asansol,West Bengal,23.6739,86.9524,42.0,13,0.0,986.6,9.0,32.8,145,158.3,34.0,0,5,10,0,2026-04-21T15:17:15.083216+05:30
Pondicherry,Puducherry,11.9139,79.8145,37.1,47,0.0,1004.0,9.25,33.1,50,17.0,15.7,0,5,7,1,2026-04-21T15:17:15.083224+05:30
Port Blair,Andaman and Nicobar Islands,11.6234,92.7265,30.4,67,0.0,1004.6,9.1,15.1,59,16.1,13.6,3,5,4,1,2026-04-21T15:17:15.083231+05:30
Haridwar,Uttarakhand,29.9457,78.1642,37.0,20,0.0,970.4,7.1,35.6,94,23.5,11.4,0,5,10,0,2026-04-21T15:17:15.083239+05:30
Rishikesh,Uttarakhand,30.0869,78.2676,35.5,21,0.0,963.4,7.2,37.4,90,21.4,10.8,0,5,10,0,2026-04-21T15:17:15.083246+05:30
Nainital,Uttarakhand,29.3919,79.4542,28.4,19,0.0,807.6,8.05,50.4,110,21.9,11.4,4,5,7,0,2026-04-21T15:17:15.083253+05:30
Mussoorie,Uttarakhand,30.4599,78.0664,26.3,27,0.0,804.4,7.55,39.2,97,20.9,10.8,4,5,7,0,2026-04-21T15:17:15.083260+05:30
Dharamshala,Himachal Pradesh,32.219,76.3234,30.0,22,0.0,869.5,7.85,33.8,84,23.6,8.4,4,5,7,0,2026-04-21T15:17:15.083267+05:30
Dalhousie,Himachal Pradesh,32.5387,75.971,28.7,21,0.0,806.3,8.1,31.0,81,26.3,10.9,4,5,7,0,2026-04-21T15:17:15.083274+05:30
Patiala,Punjab,30.3398,76.3869,39.0,12,0.0,974.4,7.2,30.2,388,683.6,62.9,0,5,10,0,2026-04-21T15:17:15.083281+05:30
Bhatinda,Punjab,30.211,74.9455,40.6,12,0.0,979.9,7.85,34.9,71,45.1,13.5,0,5,10,0,2026-04-21T15:17:15.083288+05:30
Rohtak,Haryana,28.8955,76.6066,38.9,13,0.0,978.3,7.35,40.0,629,683.6,67.1,0,5,10,0,2026-04-21T15:17:15.083294+05:30
Panipat,Haryana,29.3909,76.9635,39.0,13,0.0,976.5,7.15,36.7,1170,1374.6,119.0,0,5,10,0,2026-04-21T15:17:15.083301+05:30
Mathura,Uttar Pradesh,27.4924,77.6737,40.0,15,0.0,983.1,7.6,32.8,1073,786.0,72.6,0,5,10,0,2026-04-21T15:17:15.083307+05:30
Vrindavan,Uttar Pradesh,27.5823,77.7027,39.9,15,0.0,983.4,7.55,37.8,1073,786.0,72.6,0,5,10,0,2026-04-21T15:17:15.083314+05:30
Ayodhya,Uttar Pradesh,26.7922,82.1998,41.5,11,0.0,989.2,8.05,49.0,88,26.8,11.7,0,5,10,0,2026-04-21T15:17:15.083320+05:30
Ratlam,Madhya Pradesh,23.3315,75.0367,36.5,20,0.0,953.4,8.4,32.0,71,22.5,16.0,0,5,10,0,2026-04-21T15:17:15.083327+05:30
Sagar,Madhya Pradesh,23.8388,78.7378,39.2,14,0.0,947.5,8.65,33.1,74,21.9,9.2,0,5,10,0,2026-04-21T15:17:15.083333+05:30
Satna,Madhya Pradesh,24.6005,80.8322,40.1,15,0.0,967.2,8.65,35.3,91,197.0,28.5,0,5,10,0,2026-04-21T15:17:15.083339+05:30
Akola,Maharashtra,20.7002,77.0082,41.9,14,0.0,971.5,8.85,27.4,96,27.6,21.4,0,5,10,0,2026-04-21T15:17:15.083346+05:30
Amravati,Maharashtra,20.9374,77.7796,40.4,16,0.0,964.1,8.8,37.8,90,25.5,19.4,0,5,10,0,2026-04-21T15:17:15.083353+05:30
Latur,Maharashtra,18.4088,76.5604,37.4,19,0.0,937.7,9.1,37.1,109,44.0,38.2,0,5,10,0,2026-04-21T15:17:15.083360+05:30
Nanded,Maharashtra,19.1383,77.3091,41.0,15,0.0,965.1,9.0,27.7,108,33.5,27.5,0,5,10,0,2026-04-21T15:17:15.083366+05:30
Gulbarga,Karnataka,17.3297,76.8343,37.5,24,0.0,956.0,9.15,23.0,103,35.9,29.8,0,5,10,0,2026-04-21T15:17:15.083372+05:30
Bidar,Karnataka,17.9104,77.5199,36.5,24,0.0,933.6,8.1,22.3,105,35.5,29.6,0,5,10,0,2026-04-21T15:17:15.083378+05:30
Hospet,Karnataka,15.2689,76.3909,33.0,52,0.0,953.9,9.3,21.6,103,37.6,29.6,0,5,7,1,2026-04-21T15:17:15.083384+05:30
Tirupur,Tamil Nadu,11.1085,77.3411,39.1,24,0.0,971.2,9.45,40.7,75,20.3,16.2,0,5,10,0,2026-04-21T15:17:15.083390+05:30
Alappuzha,Kerala,9.4981,76.3388,29.3,81,0.0,1005.1,8.4,30.2,67,21.4,16.4,7,5,4,1,2026-04-21T15:17:15.083396+05:30
Munnar,Kerala,10.0889,77.0595,27.9,64,0.0,856.4,9.65,33.8,74,20.3,16.0,7,5,7,1,2026-04-21T15:17:15.083402+05:30
Silchar,Assam,24.8333,92.7789,28.1,80,0.0,1001.4,8.8,40.0,150,52.3,41.0,7,5,4,1,2026-04-21T15:17:15.083409+05:30
Dibrugarh,Assam,27.4728,94.912,24.9,84,0.0,990.6,7.95,41.8,66,15.5,12.6,3,5,7,1,2026-04-21T15:17:15.083415+05:30
