city,state,latitude,longitude,temp,humidity,rain,pressure,uv_index,wind_gusts,aqi,pm10,pm2_5,no2,co,o3,so2,mosquito_risk,arthritis_risk,migraine_risk,frizz_risk,updated_at
Delhi,Delhi,28.6139,77.209,28.1,91,0.1,979.1,6.25,21.6,206,184.9,68.0,32.7,693.0,52.0,26.5,10,5,7,1,2026-07-20T09:26:21.170107+05:30
Mumbai,Maharashtra,19.076,72.8777,26.6,88,0.1,1007.1,7.4,47.5,56,32.5,14.1,8.8,345.0,45.0,7.3,10,5,4,1,2026-07-20T09:26:21.170150+05:30
Bangalore,Karnataka,12.9716,77.5946,23.9,71,0.0,913.3,9.1,54.0,48,9.2,5.3,8.2,339.0,34.0,4.2,3,5,7,1,2026-07-20T09:26:21.170162+05:30
Hyderabad,Telangana,17.385,78.4867,26.6,73,0.1,952.8,7.95,50.8,41,6.7,5.0,6.1,264.0,36.0,4.6,10,5,7,1,2026-07-20T09:26:21.170170+05:30
Chennai,Tamil Nadu,13.0827,80.2707,29.6,75,0.0,1007.6,3.8,43.9,76,40.9,28.2,19.8,469.0,52.0,15.0,7,5,0,1,2026-07-20T09:26:21.170177+05:30
Kolkata,West Bengal,22.5726,88.3639,28.8,85,0.0,1003.8,4.55,28.4,72,35.2,24.6,4.7,309.0,112.0,9.5,7,5,0,1,2026-07-20T09:26:21.170184+05:30
Pune,Maharashtra,18.5204,73.8567,24.6,82,0.0,946.7,5.2,51.1,21,5.2,3.1,6.4,165.0,39.0,5.6,3,5,3,1,2026-07-20T09:26:21.170190+05:30
Ahmedabad,Gujarat,23.0225,72.5714,29.7,73,0.1,998.3,6.85,35.6,63,23.8,12.0,6.6,175.0,39.0,6.2,10,5,7,1,2026-07-20T09:26:21.170196+05:30
Jaipur,Rajasthan,26.9124,75.7873,31.9,53,0.0,956.2,5.35,28.8,131,199.3,42.1,10.6,239.0,53.0,7.3,0,5,3,1,2026-07-20T09:26:21.170202+05:30
Lucknow,Uttar Pradesh,26.8467,80.9462,28.4,84,0.0,990.3,7.85,28.4,134,27.8,19.4,7.8,377.0,102.0,7.1,7,5,7,1,2026-07-20T09:26:21.170207+05:30
Kanpur,Uttar Pradesh,26.4499,80.3319,25.9,98,0.2,988.9,7.35,23.4,115,20.8,12.7,8.6,201.0,80.0,4.7,10,5,7,1,2026-07-20T09:26:21.170213+05:30
Chandigarh,Chandigarh,30.7333,76.7794,25.7,97,1.0,964.7,1.5,27.7,162,227.2,72.2,10.8,493.0,105.0,18.4,10,5,3,1,2026-07-20T09:26:21.170218+05:30
Srinagar,Jammu and Kashmir,34.0837,74.7973,23.1,83,0.0,839.5,9.05,18.7,73,20.8,16.5,6.5,372.0,104.0,5.7,3,5,7,1,2026-07-20T09:26:21.170223+05:30
Jammu,Jammu and Kashmir,32.7266,74.857,28.2,84,0.1,967.8,7.2,25.9,131,76.1,35.5,10.5,260.0,92.0,3.8,10,5,7,1,2026-07-20T09:26:21.170235+05:30
Amritsar,Punjab,31.634,74.8723,29.3,82,0.0,975.6,7.55,33.5,177,407.9,138.3,13.5,392.0,80.0,13.5,7,5,7,1,2026-07-20T09:26:21.170241+05:30
Ludhiana,Punjab,30.901,75.8573,28.6,84,0.0,974.0,7.05,31.0,192,237.0,81.5,12.9,375.0,85.0,15.7,7,5,7,1,2026-07-20T09:26:21.170246+05:30
Jalandhar,Punjab,31.326,75.5762,26.9,92,0.1,975.1,2.8,31.7,183,298.0,105.2,14.9,330.0,82.0,16.4,10,5,3,1,2026-07-20T09:26:21.170250+05:30
Dehradun,Uttarakhand,30.6284,78.0322,19.2,96,0.6,828.4,0.8,17.3,55,35.0,14.4,3.9,227.0,95.0,3.0,6,10,3,1,2026-07-20T09:26:21.170256+05:30
Shimla,Himachal Pradesh,31.1048,77.1734,16.9,99,0.0,783.1,4.4,21.6,84,101.5,35.9,5.6,220.0,102.0,4.9,3,10,3,1,2026-07-20T09:26:21.170261+05:30
Manali,Himachal Pradesh,32.2396,77.1887,21.7,94,0.1,817.7,8.6,27.4,36,5.5,5.0,12.4,185.0,52.0,0.4,6,5,7,1,2026-07-20T09:26:21.170268+05:30
Gurgaon,Haryana,28.4595,77.0266,27.9,93,0.2,977.6,5.4,25.6,392,192.3,65.7,25.4,494.0,50.0,13.3,10,5,3,1,2026-07-20T09:26:21.170275+05:30
Noida,Uttar Pradesh,28.5355,77.391,27.7,94,0.0,980.6,5.25,24.8,392,192.3,65.7,25.4,472.0,50.0,13.3,7,5,3,1,2026-07-20T09:26:21.170280+05:30
Ghaziabad,Uttar Pradesh,28.6692,77.4538,27.8,92,0.2,978.8,5.45,29.2,168,78.0,31.8,14.1,318.0,63.0,8.6,10,5,3,1,2026-07-20T09:26:21.170285+05:30
Faridabad,Haryana,28.4089,77.3178,27.5,93,0.1,979.9,4.35,31.3,392,192.3,65.7,25.4,479.0,50.0,13.3,10,5,3,1,2026-07-20T09:26:21.170290+05:30
Meerut,Uttar Pradesh,28.9845,77.7064,27.1,92,0.1,977.9,5.75,27.0,168,78.0,31.8,14.1,370.0,63.0,8.6,10,5,3,1,2026-07-20T09:26:21.170295+05:30
Agra,Uttar Pradesh,27.1767,78.0081,28.0,91,0.1,984.5,2.5,25.2,92,25.1,19.8,15.9,214.0,50.0,9.0,10,5,3,1,2026-07-20T09:26:21.170300+05:30
Varanasi,Uttar Pradesh,25.3176,82.9739,27.4,89,0.1,994.5,8.0,18.4,116,40.0,37.5,14.2,371.0,98.0,20.6,10,5,7,1,2026-07-20T09:26:21.170306+05:30
Prayagraj,Uttar Pradesh,25.4358,81.8463,29.9,80,0.0,992.9,7.3,24.8,122,35.7,31.3,10.5,262.0,111.0,14.6,7,5,7,1,2026-07-20T09:26:21.170310+05:30
Gorakhpur,Uttar Pradesh,26.7606,83.3732,26.5,95,0.2,994.8,8.4,24.8,70,9.9,9.9,8.7,323.0,94.0,8.8,10,5,7,1,2026-07-20T09:26:21.170315+05:30
Bareilly,Uttar Pradesh,28.367,79.4304,26.1,95,0.4,983.6,5.6,23.8,107,21.6,19.3,12.7,295.0,81.0,3.7,10,5,3,1,2026-07-20T09:26:21.170322+05:30
Aligarh,Uttar Pradesh,27.8974,78.088,27.9,86,0.1,982.0,3.6,23.4,152,66.6,30.4,13.9,250.0,59.0,7.0,10,5,3,1,2026-07-20T09:26:21.170327+05:30
Moradabad,Uttar Pradesh,28.8386,78.7733,25.9,96,0.1,980.5,5.25,25.9,133,28.5,16.9,10.1,280.0,89.0,7.0,10,5,3,1,2026-07-20T09:26:21.170332+05:30
Saharanpur,Uttar Pradesh,29.9637,77.546,26.3,93,0.3,972.0,4.9,24.5,156,46.3,19.1,6.9,281.0,79.0,8.6,10,5,3,1,2026-07-20T09:26:21.170337+05:30
Jhansi,Uttar Pradesh,25.4484,78.5685,29.1,77,0.0,974.7,3.3,25.9,84,20.3,15.6,11.0,226.0,52.0,6.0,7,5,3,1,2026-07-20T09:26:24.526375+05:30
Surat,Gujarat,21.1702,72.8311,27.1,92,0.2,1003.8,6.55,49.3,65,27.0,20.2,23.3,518.0,23.0,52.3,10,5,4,1,2026-07-20T09:26:24.526407+05:30
Vadodara,Gujarat,22.3072,73.1812,29.0,77,0.1,1001.0,7.05,40.0,63,20.3,10.9,9.2,180.0,35.0,8.9,10,5,4,1,2026-07-20T09:26:24.526416+05:30
Rajkot,Gujarat,22.3039,70.8022,28.2,79,0.0,990.0,6.6,53.3,59,24.6,10.4,3.6,112.0,45.0,4.0,7,5,7,1,2026-07-20T09:26:24.526423+05:30
Thane,Maharashtra,19.2183,72.9781,26.2,93,0.1,1006.5,7.5,36.4,56,32.5,14.1,8.8,248.0,45.0,7.3,10,5,4,1,2026-07-20T09:26:24.526431+05:30
Nagpur,Maharashtra,21.1458,79.0882,28.6,77,0.0,971.0,7.6,30.2,67,15.2,12.5,12.8,215.0,42.0,12.8,7,5,7,1,2026-07-20T09:26:24.526437+05:30
Nashik,Maharashtra,19.9975,73.7898,23.9,89,0.0,943.3,7.35,51.5,22,4.2,2.4,5.3,139.0,40.0,4.9,3,5,7,1,2026-07-20T09:26:24.526443+05:30
Aurangabad,Maharashtra,19.8762,75.3433,25.8,79,0.1,942.5,6.9,53.3,32,5.5,3.5,4.7,143.0,41.0,7.5,10,5,7,1,2026-07-20T09:26:24.526449+05:30
Solapur,Maharashtra,17.6599,75.9064,27.2,69,0.0,956.8,7.3,47.5,35,2.9,2.8,4.0,122.0,41.0,2.9,7,5,7,1,2026-07-20T09:26:24.526455+05:30
Kolhapur,Maharashtra,16.705,74.2433,23.9,85,0.0,947.8,8.75,47.9,27,5.3,4.0,4.8,142.0,38.0,2.3,3,5,7,1,2026-07-20T09:26:24.526460+05:30
Goa,Goa,15.2993,74.124,25.3,96,0.3,999.7,5.1,34.6,59,21.0,10.2,1.8,171.0,48.0,0.9,10,5,3,1,2026-07-20T09:26:24.526466+05:30
Jodhpur,Rajasthan,26.2389,73.0243,31.6,58,0.0,978.5,7.05,37.1,85,208.6,49.1,3.2,124.0,51.0,3.4,0,5,7,1,2026-07-20T09:26:24.526472+05:30
Udaipur,Rajasthan,24.5854,73.7125,26.8,72,0.0,943.2,6.75,32.8,65,28.7,15.7,5.9,120.0,47.0,7.4,7,5,7,1,2026-07-20T09:26:24.526478+05:30
Kota,Rajasthan,25.2138,75.8648,29.7,68,0.0,975.4,1.05,29.2,76,24.3,17.5,9.3,185.0,59.0,9.9,7,5,3,1,2026-07-20T09:26:24.526483+05:30
Bikaner,Rajasthan,28.0229,73.3119,33.6,48,0.0,976.8,7.85,36.7,107,118.0,36.1,1.7,125.0,59.0,3.0,0,5,7,1,2026-07-20T09:26:24.526489+05:30
Ajmer,Rajasthan,26.4499,74.6399,28.1,70,0.0,951.0,7.85,34.9,69,27.8,17.2,6.2,157.0,64.0,7.4,7,5,7,1,2026-07-20T09:26:24.526494+05:30
Gwalior,Madhya Pradesh,26.2183,78.1828,29.0,78,0.1,979.9,1.25,29.5,77,18.7,14.4,10.6,180.0,57.0,8.5,10,5,3,1,2026-07-20T09:26:24.526500+05:30
Indore,Madhya Pradesh,22.7196,75.8577,27.3,72,0.0,945.4,3.95,33.1,60,14.7,10.3,8.3,243.0,35.0,8.8,7,5,3,1,2026-07-20T09:26:24.526505+05:30
Bhopal,Madhya Pradesh,23.2599,77.4126,26.7,83,0.0,951.0,5.5,29.9,70,20.4,14.6,6.2,272.0,64.0,5.8,7,5,3,1,2026-07-20T09:26:24.526511+05:30
Jabalpur,Madhya Pradesh,23.1815,79.9864,27.4,85,0.0,958.9,4.8,27.0,85,24.6,16.9,5.4,226.0,74.0,3.3,7,5,3,1,2026-07-20T09:26:24.526516+05:30
Ujjain,Madhya Pradesh,23.1765,75.7885,27.0,77,0.0,951.0,6.3,29.5,62,15.8,10.5,6.2,179.0,39.0,8.9,7,5,7,1,2026-07-20T09:26:24.526522+05:30
Visakhapatnam,Andhra Pradesh,17.6868,83.2185,29.4,76,0.0,1001.0,8.15,38.9,77,28.3,22.7,20.1,364.0,55.0,42.9,7,5,4,1,2026-07-20T09:26:24.526528+05:30
Vijayawada,Andhra Pradesh,16.5062,80.648,28.8,77,0.1,1001.9,6.35,42.1,58,9.9,7.6,5.0,164.0,50.0,6.4,10,5,4,1,2026-07-20T09:26:24.526533+05:30
Guntur,Andhra Pradesh,16.3067,80.4365,29.9,66,0.0,1003.1,5.6,40.0,54,8.4,6.3,5.1,166.0,46.0,6.8,7,5,0,1,2026-07-20T09:26:24.526538+05:30
Nellore,Andhra Pradesh,14.4426,79.9865,29.7,63,0.0,1006.0,8.1,36.7,62,12.8,8.0,5.3,123.0,39.0,4.6,7,5,4,1,2026-07-20T09:26:24.526544+05:30
Kurnool,Andhra Pradesh,15.8281,78.0373,28.1,67,0.0,977.4,8.5,49.0,42,4.0,2.9,3.8,120.0,39.0,2.3,7,5,7,1,2026-07-20T09:26:24.526550+05:30
Kakinada,Andhra Pradesh,16.9891,82.2475,30.7,66,0.0,1005.5,6.85,49.3,65,22.8,15.2,5.4,209.0,67.0,6.2,3,5,4,1,2026-07-20T09:26:24.526556+05:30
Tirupati,Andhra Pradesh,13.6288,79.4192,29.3,63,0.0,991.6,3.9,31.0,62,15.4,10.1,6.3,124.0,45.0,2.4,7,5,3,1,2026-07-20T09:26:24.526561+05:30
Warangal,Telangana,17.9689,79.5941,28.5,72,0.0,977.8,7.3,45.7,56,7.9,6.2,4.0,155.0,44.0,2.9,7,5,7,1,2026-07-20T09:26:24.526565+05:30
Nizamabad,Telangana,18.6725,78.0941,26.5,79,0.0,964.2,5.35,46.1,51,8.6,5.0,4.8,142.0,39.0,5.5,7,5,3,1,2026-07-20T09:26:24.526570+05:30
Mysore,Karnataka,12.2958,76.6396,24.9,71,0.0,930.6,8.0,49.7,32,2.5,2.0,4.5,130.0,38.0,2.1,3,5,7,1,2026-07-20T09:26:24.526575+05:30
Mangalore,Karnataka,12.9141,74.856,25.7,89,0.0,1010.2,8.5,37.4,55,20.0,10.7,5.8,199.0,39.0,3.0,7,0,4,1,2026-07-20T09:26:24.526580+05:30
Hubli-Dharwad,Karnataka,15.3647,75.124,24.3,80,0.0,941.7,7.35,56.2,24,2.9,2.0,4.2,116.0,38.0,1.1,3,5,7,1,2026-07-20T09:26:24.526585+05:30
Belgaum,Karnataka,15.8497,74.4977,22.3,90,0.0,926.0,8.75,49.3,23,3.3,2.5,4.8,117.0,34.0,1.9,3,5,7,1,2026-07-20T09:26:27.890966+05:30
Coimbatore,Tamil Nadu,11.0168,76.9558,26.7,73,0.0,963.9,8.7,53.3,38,8.0,5.2,4.0,167.0,43.0,2.9,7,5,7,1,2026-07-20T09:26:27.890999+05:30
Madurai,Tamil Nadu,9.9252,78.1198,31.8,50,0.0,994.4,8.15,34.9,65,14.3,10.3,8.3,160.0,46.0,5.4,0,5,7,1,2026-07-20T09:26:27.891009+05:30
Trichy,Tamil Nadu,10.7905,78.7047,31.0,57,0.0,1001.0,6.05,52.6,53,7.7,5.3,3.9,138.0,44.0,3.2,0,5,4,1,2026-07-20T09:26:27.891016+05:30
Salem,Tamil Nadu,11.6643,78.146,28.0,71,0.0,979.3,8.1,33.8,58,16.1,12.1,10.3,216.0,44.0,12.3,7,5,7,1,2026-07-20T09:26:27.891023+05:30
Tirunelveli,Tamil Nadu,8.7139,77.7567,32.5,50,0.0,1005.3,7.55,44.6,35,4.6,3.4,3.2,128.0,46.0,2.0,0,5,4,1,2026-07-20T09:26:27.891029+05:30
Vellore,Tamil Nadu,12.9165,79.1325,29.9,57,0.0,985.0,8.8,38.9,72,8.1,5.9,4.5,142.0,49.0,3.8,4,5,7,1,2026-07-20T09:26:27.891035+05:30
Erode,Tamil Nadu,11.341,77.7172,30.2,58,0.0,991.2,7.85,42.1,52,9.1,6.9,6.9,180.0,40.0,4.0,0,5,7,1,2026-07-20T09:26:27.891041+05:30
Kochi,Kerala,9.9312,76.2673,26.9,83,0.0,1012.3,8.0,34.2,52,13.1,8.3,7.5,179.0,38.0,3.6,7,0,4,1,2026-07-20T09:26:27.891047+05:30
Thiruvananthapuram,Kerala,8.5241,76.9366,27.0,81,0.0,1011.5,7.6,42.8,46,12.1,6.8,3.5,156.0,46.0,1.7,7,0,4,1,2026-07-20T09:26:27.891053+05:30
Kozhikode,Kerala,11.2588,75.7804,25.5,89,0.0,1011.9,8.05,32.4,33,13.3,5.7,1.2,148.0,52.0,1.0,7,0,4,1,2026-07-20T09:26:27.891059+05:30
Thrissur,Kerala,10.5276,76.2144,26.0,89,0.0,1011.0,8.55,35.3,51,11.8,7.9,5.4,192.0,39.0,2.4,7,0,4,1,2026-07-20T09:26:27.891065+05:30
Kannur,Kerala,11.8745,75.3704,24.8,92,0.1,1011.1,8.55,32.8,44,13.4,6.3,4.5,167.0,44.0,1.8,6,0,4,1,2026-07-20T09:26:27.891071+05:30
Patna,Bihar,25.5941,85.1376,27.5,92,0.1,997.8,8.45,25.9,84,36.6,36.1,16.2,498.0,69.0,19.5,10,5,7,1,2026-07-20T09:26:27.891076+05:30
Gaya,Bihar,24.7914,85.0002,27.8,90,0.1,990.9,7.5,23.0,79,27.8,26.7,11.5,318.0,75.0,13.4,10,5,7,1,2026-07-20T09:26:27.891081+05:30
Muzaffarpur,Bihar,26.1209,85.3647,26.5,95,0.4,998.2,7.95,31.7,72,23.8,23.6,14.8,400.0,74.0,14.0,10,5,7,1,2026-07-20T09:26:27.891087+05:30
Bhagalpur,Bihar,25.2425,87.0117,26.5,95,0.3,999.4,2.15,28.4,81,16.5,15.4,11.6,299.0,65.0,11.1,10,5,3,1,2026-07-20T09:26:27.891093+05:30
Ranchi,Jharkhand,23.3441,85.3096,26.1,86,0.0,935.4,6.5,31.3,66,15.8,11.8,4.5,248.0,104.0,9.6,7,5,7,1,2026-07-20T09:26:27.891098+05:30
Jamshedpur,Jharkhand,22.8046,86.2029,28.8,83,0.0,988.2,7.1,31.0,85,31.5,28.2,10.5,381.0,108.0,31.8,7,5,7,1,2026-07-20T09:26:27.891103+05:30
Dhanbad,Jharkhand,23.7957,86.4304,28.2,83,0.0,977.5,3.65,32.0,134,48.4,46.0,38.8,1129.0,60.0,89.4,7,5,3,1,2026-07-20T09:26:27.891108+05:30
Bokaro,Jharkhand,23.6693,86.1511,28.1,85,0.0,981.2,4.8,35.3,131,45.3,43.2,33.2,3103.0,72.0,77.7,7,5,3,1,2026-07-20T09:26:27.891113+05:30
Bhubaneswar,Odisha,20.2961,85.8245,30.1,80,0.0,999.3,8.55,27.4,87,30.4,23.7,6.8,273.0,103.0,10.4,3,5,7,1,2026-07-20T09:26:27.891118+05:30
Cuttack,Odisha,20.4625,85.8828,29.7,85,0.0,1001.1,8.7,30.6,87,30.4,23.7,6.8,288.0,103.0,10.4,7,5,4,1,2026-07-20T09:26:27.891123+05:30
Rourkela,Odisha,22.2604,84.8536,28.5,81,0.0,982.1,8.2,29.2,79,28.2,19.9,7.4,298.0,101.0,15.5,7,5,7,1,2026-07-20T09:26:27.891128+05:30
Raipur,Chhattisgarh,21.2514,81.6296,27.9,82,0.0,972.1,7.35,31.7,92,20.2,19.0,28.0,342.0,40.0,50.8,7,5,7,1,2026-07-20T09:26:27.891133+05:30
Bhilai,Chhattisgarh,21.1938,81.3509,27.9,79,0.0,972.5,7.35,32.4,86,20.4,18.6,22.8,782.0,41.0,41.7,7,5,7,1,2026-07-20T09:26:27.891138+05:30
Guwahati,Assam,26.1158,91.7086,26.1,96,0.0,1001.4,3.05,20.2,52,5.6,5.4,3.8,192.0,70.0,2.0,7,5,0,1,2026-07-20T09:26:27.891142+05:30
Agartala,Tripura,23.8315,91.2868,25.9,95,0.1,1005.9,7.6,30.2,49,10.9,9.4,6.7,152.0,49.0,2.5,10,5,4,1,2026-07-20T09:26:27.891147+05:30
Shillong,Meghalaya,25.5788,91.8933,19.3,97,0.9,857.7,2.25,24.1,19,1.9,1.8,5.4,200.0,48.0,1.8,6,10,3,1,2026-07-20T09:26:27.891151+05:30
Imphal,Manipur,24.817,93.9368,25.9,75,0.0,923.9,1.35,27.4,44,5.6,5.6,6.7,241.0,43.0,1.1,7,5,3,1,2026-07-20T09:26:27.891156+05:30
Aizawl,Mizoram,23.7271,92.7176,20.1,95,0.4,892.6,0.95,19.1,47,7.7,5.7,3.9,143.0,43.0,0.6,6,5,3,1,2026-07-20T09:26:27.891161+05:30
Kohima,Nagaland,25.6701,94.1077,22.6,82,0.0,856.7,5.45,23.0,17,2.2,2.2,2.7,196.0,57.0,0.7,3,5,3,1,2026-07-20T09:26:27.891166+05:30
Gangtok,Sikkim,27.3314,88.6138,19.1,100,0.1,838.5,3.65,32.8,38,2.7,2.6,5.1,266.0,82.0,0.6,6,10,3,1,2026-07-20T09:26:27.891171+05:30
Siliguri,West Bengal,26.7271,88.3953,25.0,98,0.9,992.7,2.4,27.0,50,6.4,6.3,10.3,444.0,72.0,2.0,10,5,3,1,2026-07-20T09:26:31.241890+05:30
Durgapur,West Bengal,23.5204,87.3119,26.7,92,0.2,992.9,8.55,28.8,105,41.2,36.1,27.1,289.0,67.0,49.5,10,5,7,1,2026-07-20T09:26:31.241925+05:30
Asansol,West Bengal,23.6739,86.9524,28.1,86,0.0,991.4,7.5,30.2,99,36.9,33.6,29.4,557.0,64.0,57.5,7,5,7,1,2026-07-20T09:26:31.241935+05:30
Pondicherry,Puducherry,11.9139,79.8145,30.9,61,0.0,1008.9,7.8,40.0,68,19.3,13.6,10.1,291.0,52.0,7.1,3,0,4,1,2026-07-20T09:26:31.241943+05:30
Port Blair,Andaman and Nicobar Islands,11.6234,92.7265,29.5,73,0.0,1008.6,6.3,43.2,52,12.6,7.0,0.3,88.0,48.0,0.4,7,0,4,1,2026-07-20T09:26:31.241950+05:30
Haridwar,Uttarakhand,29.9457,78.1642,26.3,96,0.2,970.5,1.2,28.8,146,50.6,16.8,5.3,242.0,82.0,9.6,10,5,3,1,2026-07-20T09:26:31.241958+05:30
Rishikesh,Uttarakhand,30.0869,78.2676,25.9,97,0.1,963.0,1.75,23.0,102,14.1,5.4,3.3,237.0,98.0,8.3,10,5,3,1,2026-07-20T09:26:31.241965+05:30
Nainital,Uttarakhand,29.3919,79.4542,17.4,100,0.4,804.5,1.5,37.1,55,9.7,8.9,6.4,271.0,91.0,1.1,6,10,3,1,2026-07-20T09:26:31.241971+05:30
Mussoorie,Uttarakhand,30.4599,78.0664,17.8,98,0.1,801.3,0.65,23.8,92,21.8,11.0,7.7,258.0,96.0,9.4,6,10,3,1,2026-07-20T09:26:31.241978+05:30
Dharamshala,Himachal Pradesh,32.219,76.3234,21.3,100,0.2,866.2,3.2,25.6,44,13.1,6.8,5.3,250.0,78.0,1.2,6,5,3,1,2026-07-20T09:26:31.241984+05:30
Dalhousie,Himachal Pradesh,32.5387,75.971,18.7,100,0.2,802.6,6.55,21.2,92,51.1,22.5,8.7,329.0,98.0,2.2,6,10,7,1,2026-07-20T09:26:31.241991+05:30
Patiala,Punjab,30.3398,76.3869,27.4,91,0.1,973.6,6.6,29.5,207,80.6,44.9,11.8,303.0,80.0,13.7,10,5,7,1,2026-07-20T09:26:31.241998+05:30
Bhatinda,Punjab,30.211,74.9455,33.6,62,0.0,978.1,4.7,33.8,341,683.6,204.9,14.2,175.0,77.0,7.3,3,5,3,1,2026-07-20T09:26:31.242004+05:30
Rohtak,Haryana,28.8955,76.6066,29.1,86,0.0,977.7,4.5,25.9,577,137.4,58.7,20.0,357.0,61.0,10.3,7,5,3,1,2026-07-20T09:26:31.242010+05:30
Panipat,Haryana,29.3909,76.9635,27.5,94,0.1,976.2,4.3,35.6,602,140.6,62.6,16.4,392.0,68.0,12.2,10,5,3,1,2026-07-20T09:26:31.242016+05:30
Mathura,Uttar Pradesh,27.4924,77.6737,28.0,90,0.1,983.2,2.0,25.9,160,29.7,20.7,16.3,217.0,47.0,5.2,10,5,3,1,2026-07-20T09:26:31.242022+05:30
Vrindavan,Uttar Pradesh,27.5823,77.7027,27.9,91,0.1,983.5,1.45,25.6,160,29.7,20.7,16.3,228.0,47.0,5.2,10,5,3,1,2026-07-20T09:26:31.242029+05:30
Ayodhya,Uttar Pradesh,26.7922,82.1998,27.3,88,0.1,992.8,7.6,27.4,83,14.1,14.0,9.2,394.0,84.0,8.0,10,5,7,1,2026-07-20T09:26:31.242035+05:30
Ratlam,Madhya Pradesh,23.3315,75.0367,26.9,79,0.1,951.8,5.55,31.3,62,16.9,10.5,6.0,155.0,40.0,9.2,10,5,3,1,2026-07-20T09:26:31.242041+05:30
Sagar,Madhya Pradesh,23.8388,78.7378,27.5,78,0.0,947.5,6.7,30.2,77,18.2,13.4,4.7,192.0,69.0,3.0,7,5,7,1,2026-07-20T09:26:31.242047+05:30
Satna,Madhya Pradesh,24.6005,80.8322,28.6,82,0.0,968.5,6.95,28.4,96,42.5,20.7,3.9,180.0,85.0,4.0,7,5,7,1,2026-07-20T09:26:31.242054+05:30
Akola,Maharashtra,20.7002,77.0082,29.3,68,0.0,973.5,7.95,47.9,50,9.2,5.7,7.7,131.0,33.0,9.8,7,5,7,1,2026-07-20T09:26:31.242060+05:30
Amravati,Maharashtra,20.9374,77.7796,27.5,77,0.0,965.6,4.7,39.2,51,9.4,6.0,8.2,142.0,33.0,10.8,7,5,3,1,2026-07-20T09:26:31.242066+05:30
Latur,Maharashtra,18.4088,76.5604,25.9,75,0.0,939.1,1.6,42.5,33,5.4,4.1,4.2,140.0,36.0,2.7,7,5,3,1,2026-07-20T09:26:31.242072+05:30
Nanded,Maharashtra,19.1383,77.3091,26.9,78,0.0,967.8,4.95,40.7,50,7.7,4.8,3.8,142.0,43.0,3.2,7,5,3,1,2026-07-20T09:26:31.242078+05:30
Gulbarga,Karnataka,17.3297,76.8343,26.6,71,0.0,958.6,7.15,55.4,33,3.5,3.4,7.9,132.0,29.0,4.0,7,5,7,1,2026-07-20T09:26:31.242083+05:30
Bidar,Karnataka,17.9104,77.5199,24.4,90,0.0,934.9,7.6,49.7,46,6.7,4.7,6.1,133.0,33.0,2.1,3,5,7,1,2026-07-20T09:26:31.242088+05:30
Hospet,Karnataka,15.2689,76.3909,26.3,72,0.0,956.8,7.9,56.5,33,3.4,2.5,4.1,110.0,38.0,1.8,7,5,7,1,2026-07-20T09:26:31.242093+05:30
Tirupur,Tamil Nadu,11.1085,77.3411,28.2,65,0.0,977.3,8.4,53.3,54,11.6,8.8,7.5,155.0,40.0,4.9,7,5,7,1,2026-07-20T09:26:31.242099+05:30
Alappuzha,Kerala,9.4981,76.3388,26.7,86,0.0,1012.4,8.55,34.9,51,13.9,8.0,5.4,97.0,46.0,2.8,7,0,4,1,2026-07-20T09:26:31.242104+05:30
Munnar,Kerala,10.0889,77.0595,19.1,86,0.1,859.4,8.6,38.9,26,3.4,2.6,3.2,100.0,41.0,1.7,6,10,7,1,2026-07-20T09:26:31.242110+05:30
Silchar,Assam,24.8333,92.7789,25.6,88,0.2,1005.8,0.85,19.4,62,15.2,12.8,6.2,213.0,47.0,3.2,10,5,0,1,2026-07-20T09:26:31.242116+05:30
Dibrugarh,Assam,27.4728,94.912,30.4,65,0.0,995.0,8.45,26.3,77,13.5,12.4,2.1,147.0,104.0,1.9,3,5,7,1,2026-07-20T09:26:31.242122+05:30
