city,state,latitude,longitude,temp,humidity,rain,pressure,uv_index,wind_gusts,aqi,pm10,pm2_5,no2,co,o3,so2,mosquito_risk,arthritis_risk,migraine_risk,frizz_risk,updated_at
Delhi,Delhi,28.6139,77.209,27.8,90,0.0,976.6,7.15,28.8,129,50.5,41.0,28.6,487.0,66.0,25.7,7,5,7,1,2026-07-03T03:39:38.617582+05:30
Mumbai,Maharashtra,19.076,72.8777,25.8,93,0.3,1004.1,0.7,49.3,39,20.7,10.4,4.5,110.0,52.0,4.0,10,5,0,1,2026-07-03T03:39:38.617620+05:30
Bangalore,Karnataka,12.9716,77.5946,21.4,88,0.0,910.1,8.25,59.4,18,2.6,2.4,6.8,142.0,39.0,3.5,3,5,7,1,2026-07-03T03:39:38.617635+05:30
Hyderabad,Telangana,17.385,78.4867,24.5,83,0.0,948.7,8.1,59.8,24,5.2,3.7,6.6,136.0,39.0,3.7,3,5,7,1,2026-07-03T03:39:38.617644+05:30
Chennai,Tamil Nadu,13.0827,80.2707,29.4,66,0.0,1004.0,8.45,45.0,36,6.4,5.8,14.1,288.0,34.0,8.5,7,5,4,1,2026-07-03T03:39:38.617652+05:30
Kolkata,West Bengal,22.5726,88.3639,27.2,94,0.0,998.0,7.1,35.6,63,34.0,32.2,17.9,262.0,43.0,9.5,7,5,7,1,2026-07-03T03:39:38.617659+05:30
Pune,Maharashtra,18.5204,73.8567,22.4,92,0.0,943.6,0.85,51.5,19,2.4,2.0,5.8,111.0,41.0,4.3,3,5,3,1,2026-07-03T03:39:38.617666+05:30
Ahmedabad,Gujarat,23.0225,72.5714,27.8,86,0.0,996.2,3.25,36.4,58,22.5,12.9,8.5,165.0,37.0,4.5,7,5,3,1,2026-07-03T03:39:38.617672+05:30
Jaipur,Rajasthan,26.9124,75.7873,25.8,98,0.0,953.0,7.9,26.3,131,87.5,41.1,15.9,237.0,49.0,5.9,7,5,7,1,2026-07-03T03:39:38.617678+05:30
Lucknow,Uttar Pradesh,26.8467,80.9462,26.0,98,0.1,987.6,6.85,30.2,89,25.0,24.9,9.3,409.0,81.0,4.2,10,5,7,1,2026-07-03T03:39:38.617691+05:30
Kanpur,Uttar Pradesh,26.4499,80.3319,27.1,97,0.4,985.3,7.4,28.8,86,22.1,22.0,7.5,309.0,96.0,4.1,10,5,7,1,2026-07-03T03:39:38.617697+05:30
Chandigarh,Chandigarh,30.7333,76.7794,26.7,91,0.0,963.6,7.7,21.2,111,47.7,43.7,39.8,378.0,30.0,7.2,7,5,7,1,2026-07-03T03:39:38.617704+05:30
Srinagar,Jammu and Kashmir,34.0837,74.7973,18.2,99,0.0,839.2,9.05,25.2,82,20.3,19.0,26.5,643.0,21.0,1.3,3,10,7,1,2026-07-03T03:39:38.617711+05:30
Jammu,Jammu and Kashmir,32.7266,74.857,26.3,83,0.0,967.8,8.6,23.8,134,50.2,36.8,52.2,334.0,12.0,3.8,7,5,7,1,2026-07-03T03:39:38.617717+05:30
Amritsar,Punjab,31.634,74.8723,27.7,87,0.0,975.2,8.45,30.6,169,105.0,70.1,22.6,545.0,62.0,9.1,7,5,7,1,2026-07-03T03:39:38.617722+05:30
Ludhiana,Punjab,30.901,75.8573,27.7,92,0.0,973.0,7.95,28.1,154,153.7,63.8,26.3,470.0,58.0,11.8,7,5,7,1,2026-07-03T03:39:38.617729+05:30
Jalandhar,Punjab,31.326,75.5762,27.4,91,0.0,974.0,8.2,30.6,162,118.5,71.9,33.1,512.0,47.0,12.5,7,5,7,1,2026-07-03T03:39:38.617737+05:30
Dehradun,Uttarakhand,30.6284,78.0322,17.6,100,0.0,827.2,8.0,27.4,40,6.5,6.4,15.3,224.0,56.0,0.8,3,10,7,1,2026-07-03T03:39:38.617744+05:30
Shimla,Himachal Pradesh,31.1048,77.1734,15.6,85,0.0,781.5,8.05,24.8,54,23.4,16.8,13.6,273.0,65.0,0.1,3,10,7,0,2026-07-03T03:39:38.617750+05:30
Manali,Himachal Pradesh,32.2396,77.1887,19.3,74,0.0,817.1,9.5,34.2,52,1.0,1.0,16.0,268.0,104.0,0.1,3,5,7,0,2026-07-03T03:39:38.617758+05:30
Gurgaon,Haryana,28.4595,77.0266,26.8,95,0.1,974.9,7.7,25.2,152,60.5,45.6,27.0,518.0,66.0,19.4,10,5,7,1,2026-07-03T03:39:38.617765+05:30
Noida,Uttar Pradesh,28.5355,77.391,28.0,91,0.0,977.9,7.0,31.3,152,60.5,45.6,27.0,485.0,66.0,19.4,7,5,7,1,2026-07-03T03:39:38.617771+05:30
Ghaziabad,Uttar Pradesh,28.6692,77.4538,27.8,88,0.0,976.3,6.9,28.4,95,43.0,41.0,20.3,404.0,64.0,7.9,7,5,7,1,2026-07-03T03:39:38.617777+05:30
Faridabad,Haryana,28.4089,77.3178,28.1,91,0.0,977.2,6.45,33.1,152,60.5,45.6,27.0,480.0,66.0,19.4,7,5,7,1,2026-07-03T03:39:38.617783+05:30
Meerut,Uttar Pradesh,28.9845,77.7064,26.6,95,0.1,975.4,7.0,29.2,95,43.0,41.0,20.3,429.0,64.0,7.9,10,5,7,1,2026-07-03T03:39:38.617789+05:30
Agra,Uttar Pradesh,27.1767,78.0081,28.7,85,0.0,981.1,5.85,17.6,93,36.2,26.7,14.3,533.0,83.0,5.8,7,5,3,1,2026-07-03T03:39:38.617795+05:30
Varanasi,Uttar Pradesh,25.3176,82.9739,27.7,93,0.0,990.0,5.6,34.6,101,38.6,38.6,16.3,359.0,69.0,10.9,7,5,3,1,2026-07-03T03:39:38.617801+05:30
Prayagraj,Uttar Pradesh,25.4358,81.8463,25.9,98,0.0,989.2,6.65,30.2,90,29.1,29.0,11.3,343.0,89.0,6.1,7,5,7,1,2026-07-03T03:39:38.617808+05:30
Gorakhpur,Uttar Pradesh,26.7606,83.3732,28.8,84,0.0,990.7,7.35,37.1,99,38.3,38.2,18.2,505.0,59.0,7.8,7,5,7,1,2026-07-03T03:39:38.617814+05:30
Bareilly,Uttar Pradesh,28.367,79.4304,27.9,91,0.0,980.8,7.4,31.7,110,58.0,56.9,25.4,520.0,57.0,9.3,7,5,7,1,2026-07-03T03:39:38.617822+05:30
Aligarh,Uttar Pradesh,27.8974,78.088,28.4,87,0.0,979.1,7.1,25.6,98,36.7,27.0,16.4,446.0,75.0,5.2,7,5,7,1,2026-07-03T03:39:38.617828+05:30
Moradabad,Uttar Pradesh,28.8386,78.7733,28.0,88,0.0,978.0,7.25,29.9,121,93.1,91.0,42.9,557.0,44.0,14.3,7,5,7,1,2026-07-03T03:39:38.617834+05:30
Saharanpur,Uttar Pradesh,29.9637,77.546,26.9,90,0.0,970.4,7.25,34.9,111,70.5,65.9,38.7,397.0,42.0,11.3,7,5,7,1,2026-07-03T03:39:38.617840+05:30
Jhansi,Uttar Pradesh,25.4484,78.5685,26.3,97,0.1,971.7,7.15,24.5,88,27.4,17.5,6.2,208.0,79.0,1.8,10,5,7,1,2026-07-03T03:39:41.979120+05:30
Surat,Gujarat,21.1702,72.8311,26.1,96,0.0,1001.0,2.6,27.7,60,19.8,15.7,27.5,318.0,25.0,38.6,7,5,0,1,2026-07-03T03:39:41.979153+05:30
Vadodara,Gujarat,22.3072,73.1812,27.6,87,0.0,998.4,4.8,41.4,48,11.1,8.4,9.8,154.0,43.0,3.4,7,5,3,1,2026-07-03T03:39:41.979163+05:30
Rajkot,Gujarat,22.3039,70.8022,26.9,88,0.0,988.4,6.05,42.1,50,20.0,10.4,6.2,102.0,41.0,5.6,7,5,7,1,2026-07-03T03:39:41.979171+05:30
Thane,Maharashtra,19.2183,72.9781,25.1,97,0.1,1003.5,0.6,33.1,39,20.7,10.4,4.5,151.0,52.0,4.0,10,5,0,1,2026-07-03T03:39:41.979179+05:30
Nagpur,Maharashtra,21.1458,79.0882,24.9,95,0.1,966.4,3.85,37.1,51,8.3,8.1,12.7,199.0,41.0,9.1,6,5,3,1,2026-07-03T03:39:41.979186+05:30
Nashik,Maharashtra,19.9975,73.7898,22.4,97,0.0,940.2,0.3,38.5,18,1.5,1.4,9.2,126.0,36.0,6.4,3,5,3,1,2026-07-03T03:39:41.979194+05:30
Aurangabad,Maharashtra,19.8762,75.3433,23.5,90,0.0,938.8,1.45,49.3,19,2.4,2.1,7.7,142.0,40.0,8.2,3,5,3,1,2026-07-03T03:39:41.979201+05:30
Solapur,Maharashtra,17.6599,75.9064,24.0,88,0.0,953.6,4.7,55.8,20,3.2,2.7,5.1,124.0,39.0,2.2,3,5,3,1,2026-07-03T03:39:41.979208+05:30
Kolhapur,Maharashtra,16.705,74.2433,21.9,96,0.0,945.1,2.1,51.8,20,4.1,2.7,2.6,107.0,46.0,1.5,3,5,3,1,2026-07-03T03:39:41.979216+05:30
Goa,Goa,15.2993,74.124,23.2,99,0.1,996.8,4.2,27.7,42,19.8,10.9,2.1,283.0,48.0,0.8,6,5,3,1,2026-07-03T03:39:41.979223+05:30
Jodhpur,Rajasthan,26.2389,73.0243,29.6,66,0.0,976.5,8.4,40.7,120,116.9,34.3,4.8,118.0,56.0,1.7,7,5,7,1,2026-07-03T03:39:41.979229+05:30
Udaipur,Rajasthan,24.5854,73.7125,25.2,87,0.0,940.2,6.85,36.4,61,22.4,12.7,5.8,134.0,60.0,4.4,7,5,7,1,2026-07-03T03:39:41.979237+05:30
Kota,Rajasthan,25.2138,75.8648,26.4,91,0.0,972.2,7.9,36.4,70,23.1,17.9,8.2,220.0,62.0,3.7,7,5,7,1,2026-07-03T03:39:41.979244+05:30
Bikaner,Rajasthan,28.0229,73.3119,30.2,65,0.0,974.5,8.45,38.2,156,83.4,40.0,4.4,133.0,53.0,1.6,3,5,7,1,2026-07-03T03:39:41.979251+05:30
Ajmer,Rajasthan,26.4499,74.6399,26.5,77,0.0,948.2,6.2,49.7,95,49.9,28.1,9.1,134.0,53.0,4.1,7,5,7,1,2026-07-03T03:39:41.979258+05:30
Gwalior,Madhya Pradesh,26.2183,78.1828,28.4,86,0.0,976.4,8.15,15.5,97,52.9,26.4,9.2,468.0,70.0,2.9,7,5,7,1,2026-07-03T03:39:41.979264+05:30
Indore,Madhya Pradesh,22.7196,75.8577,24.2,96,0.1,942.0,1.6,41.0,51,14.1,13.9,9.6,239.0,49.0,5.8,6,5,3,1,2026-07-03T03:39:41.979271+05:30
Bhopal,Madhya Pradesh,23.2599,77.4126,24.6,96,0.0,947.0,5.2,37.8,63,18.3,15.5,7.2,274.0,68.0,2.0,3,5,3,1,2026-07-03T03:39:41.979278+05:30
Jabalpur,Madhya Pradesh,23.1815,79.9864,24.3,97,0.1,954.3,7.65,29.2,69,20.7,16.9,7.0,196.0,72.0,2.5,6,5,7,1,2026-07-03T03:39:41.979284+05:30
Ujjain,Madhya Pradesh,23.1765,75.7885,24.5,96,0.0,947.9,7.8,38.9,52,18.5,17.8,7.2,223.0,59.0,6.2,3,5,7,1,2026-07-03T03:39:41.979291+05:30
Visakhapatnam,Andhra Pradesh,17.6868,83.2185,28.9,69,0.0,995.9,1.55,50.4,47,12.6,10.3,16.4,236.0,38.0,26.0,7,5,3,1,2026-07-03T03:39:41.979298+05:30
Vijayawada,Andhra Pradesh,16.5062,80.648,29.6,65,0.0,997.7,4.65,50.8,44,9.3,8.1,11.3,132.0,38.0,7.6,7,5,3,1,2026-07-03T03:39:41.979306+05:30
Guntur,Andhra Pradesh,16.3067,80.4365,29.7,63,0.0,999.0,4.65,50.0,40,8.5,7.5,12.1,135.0,33.0,8.1,7,5,3,1,2026-07-03T03:39:41.979313+05:30
Nellore,Andhra Pradesh,14.4426,79.9865,30.0,60,0.0,1002.2,8.65,52.2,27,5.5,3.3,5.5,103.0,43.0,4.2,4,5,4,1,2026-07-03T03:39:41.979320+05:30
Kurnool,Andhra Pradesh,15.8281,78.0373,26.2,76,0.0,974.0,4.55,58.7,21,9.2,4.9,7.2,125.0,37.0,2.1,7,5,3,1,2026-07-03T03:39:41.979328+05:30
Kakinada,Andhra Pradesh,16.9891,82.2475,26.9,86,0.0,1001.4,6.65,46.1,39,15.7,12.5,9.5,239.0,47.0,6.0,7,5,4,1,2026-07-03T03:39:41.979334+05:30
Tirupati,Andhra Pradesh,13.6288,79.4192,28.5,62,0.0,988.2,8.0,49.3,19,6.1,3.7,4.7,104.0,43.0,1.5,7,5,7,1,2026-07-03T03:39:41.979341+05:30
Warangal,Telangana,17.9689,79.5941,25.0,91,0.1,973.6,1.2,45.0,31,7.3,6.1,8.7,143.0,35.0,2.7,10,5,3,1,2026-07-03T03:39:41.979347+05:30
Nizamabad,Telangana,18.6725,78.0941,24.4,89,0.1,959.5,1.05,51.8,30,5.9,4.6,7.7,131.0,38.0,4.8,6,5,3,1,2026-07-03T03:39:41.979353+05:30
Mysore,Karnataka,12.2958,76.6396,21.5,91,0.0,927.3,5.1,57.2,18,1.8,1.6,4.1,114.0,41.0,1.6,3,5,3,1,2026-07-03T03:39:41.979360+05:30
Mangalore,Karnataka,12.9141,74.856,25.1,94,0.0,1006.6,8.5,50.8,31,16.9,9.2,3.5,96.0,39.0,1.5,7,5,4,1,2026-07-03T03:39:41.979366+05:30
Hubli-Dharwad,Karnataka,15.3647,75.124,21.6,99,0.0,938.6,7.1,60.8,20,1.5,1.0,2.5,96.0,44.0,0.9,3,5,7,1,2026-07-03T03:39:41.979373+05:30
Belgaum,Karnataka,15.8497,74.4977,20.8,97,0.0,923.1,2.5,52.6,21,2.3,1.8,3.1,104.0,44.0,1.4,3,5,3,1,2026-07-03T03:39:45.264025+05:30
Coimbatore,Tamil Nadu,11.0168,76.9558,22.8,95,0.0,960.8,8.35,60.8,17,3.5,2.6,4.5,143.0,38.0,2.2,3,5,7,1,2026-07-03T03:39:45.264096+05:30
Madurai,Tamil Nadu,9.9252,78.1198,28.7,62,0.0,991.8,8.7,60.8,35,8.7,8.1,14.7,111.0,18.0,4.3,7,5,7,1,2026-07-03T03:39:45.264108+05:30
Trichy,Tamil Nadu,10.7905,78.7047,28.0,68,0.0,998.2,7.85,68.0,21,5.4,3.7,4.5,101.0,40.0,2.3,7,5,7,1,2026-07-03T03:39:45.264116+05:30
Salem,Tamil Nadu,11.6643,78.146,25.7,80,0.0,976.5,8.75,36.4,33,10.9,9.8,17.0,239.0,24.0,6.9,7,5,7,1,2026-07-03T03:39:45.264124+05:30
Tirunelveli,Tamil Nadu,8.7139,77.7567,28.7,64,0.0,1002.7,8.45,51.8,23,4.9,4.3,6.7,132.0,29.0,2.2,7,5,4,1,2026-07-03T03:39:45.264131+05:30
Vellore,Tamil Nadu,12.9165,79.1325,28.0,63,0.0,982.2,8.3,49.3,21,6.2,4.7,9.3,149.0,37.0,3.5,7,5,7,1,2026-07-03T03:39:45.264139+05:30
Erode,Tamil Nadu,11.341,77.7172,25.3,81,0.0,988.2,8.8,59.0,28,9.6,8.8,13.4,128.0,30.0,3.4,7,5,7,1,2026-07-03T03:39:45.264147+05:30
Kochi,Kerala,9.9312,76.2673,25.3,93,0.0,1009.9,6.75,41.0,42,8.4,6.1,8.2,155.0,28.0,2.8,7,0,4,1,2026-07-03T03:39:45.264154+05:30
Thiruvananthapuram,Kerala,8.5241,76.9366,23.8,97,0.0,1009.4,7.4,46.8,38,8.5,4.8,2.2,127.0,40.0,1.0,3,0,4,1,2026-07-03T03:39:45.264161+05:30
Kozhikode,Kerala,11.2588,75.7804,24.3,98,0.1,1008.8,2.85,43.2,24,9.6,4.6,0.7,126.0,52.0,0.5,6,0,0,1,2026-07-03T03:39:45.264167+05:30
Thrissur,Kerala,10.5276,76.2144,23.9,99,0.1,1008.3,2.75,42.1,37,8.8,6.8,6.7,221.0,30.0,2.2,6,0,0,1,2026-07-03T03:39:45.264175+05:30
Kannur,Kerala,11.8745,75.3704,25.0,96,0.2,1007.6,2.4,49.7,25,7.4,4.0,2.5,96.0,41.0,0.9,10,5,0,1,2026-07-03T03:39:45.264182+05:30
Patna,Bihar,25.5941,85.1376,28.4,88,0.0,993.2,7.1,37.8,88,31.9,31.5,16.5,362.0,64.0,14.9,7,5,7,1,2026-07-03T03:39:45.264188+05:30
Gaya,Bihar,24.7914,85.0002,27.2,88,0.0,986.3,6.4,32.4,76,25.7,25.6,15.4,350.0,61.0,12.9,7,5,7,1,2026-07-03T03:39:45.264194+05:30
Muzaffarpur,Bihar,26.1209,85.3647,28.4,85,0.0,993.5,6.65,36.4,87,33.2,33.1,15.9,428.0,62.0,10.4,7,5,7,1,2026-07-03T03:39:45.264201+05:30
Bhagalpur,Bihar,25.2425,87.0117,27.6,92,0.0,994.3,7.9,33.1,82,36.0,35.6,16.9,391.0,57.0,9.8,7,5,7,1,2026-07-03T03:39:45.264207+05:30
Ranchi,Jharkhand,23.3441,85.3096,23.5,99,0.1,930.0,7.5,40.7,77,7.3,7.3,6.5,275.0,71.0,6.0,6,5,7,1,2026-07-03T03:39:45.264214+05:30
Jamshedpur,Jharkhand,22.8046,86.2029,25.7,97,0.0,982.8,7.0,36.0,74,26.0,25.4,14.2,308.0,48.0,9.7,7,5,7,1,2026-07-03T03:39:45.264220+05:30
Dhanbad,Jharkhand,23.7957,86.4304,25.2,98,0.0,972.6,8.05,33.8,105,47.8,47.1,40.6,308.0,31.0,105.6,7,5,7,1,2026-07-03T03:39:45.264227+05:30
Bokaro,Jharkhand,23.6693,86.1511,25.2,99,0.0,976.3,7.75,37.1,107,46.7,46.1,40.8,384.0,34.0,111.8,7,5,7,1,2026-07-03T03:39:45.264233+05:30
Bhubaneswar,Odisha,20.2961,85.8245,25.0,98,0.2,993.7,7.3,29.2,64,19.4,19.2,12.5,381.0,61.0,5.0,10,5,7,1,2026-07-03T03:39:45.264241+05:30
Cuttack,Odisha,20.4625,85.8828,25.6,97,0.0,995.3,7.3,30.6,64,19.4,19.2,12.5,271.0,61.0,5.0,7,5,7,1,2026-07-03T03:39:45.264250+05:30
Rourkela,Odisha,22.2604,84.8536,25.4,97,0.0,976.5,7.55,34.2,118,44.1,44.0,17.7,425.0,69.0,24.6,7,5,7,1,2026-07-03T03:39:45.264256+05:30
Raipur,Chhattisgarh,21.2514,81.6296,24.3,98,0.1,966.9,2.95,31.7,73,13.4,12.4,23.8,251.0,47.0,35.9,6,5,3,1,2026-07-03T03:39:45.264262+05:30
Bhilai,Chhattisgarh,21.1938,81.3509,24.2,98,0.3,967.5,3.15,38.5,64,11.4,10.4,18.9,537.0,49.0,28.1,6,5,3,1,2026-07-03T03:39:45.264269+05:30
Guwahati,Assam,26.1158,91.7086,25.6,96,0.1,996.3,8.65,23.8,31,6.8,6.5,10.4,208.0,34.0,1.2,10,5,7,1,2026-07-03T03:39:45.264275+05:30
Agartala,Tripura,23.8315,91.2868,26.8,94,0.0,1000.8,6.05,29.5,51,14.1,13.5,16.1,182.0,25.0,3.7,7,5,4,1,2026-07-03T03:39:45.264281+05:30
Shillong,Meghalaya,25.5788,91.8933,18.8,99,0.0,853.5,8.8,27.0,27,5.7,5.6,5.6,250.0,54.0,2.4,3,10,7,1,2026-07-03T03:39:45.264288+05:30
Imphal,Manipur,24.817,93.9368,22.8,97,0.0,919.3,8.8,23.8,36,9.5,9.3,6.8,377.0,43.0,2.1,3,5,7,1,2026-07-03T03:39:45.264294+05:30
Aizawl,Mizoram,23.7271,92.7176,20.4,99,0.0,887.8,8.0,19.8,29,5.7,5.6,9.5,166.0,18.0,0.7,3,5,7,1,2026-07-03T03:39:45.264301+05:30
Kohima,Nagaland,25.6701,94.1077,18.9,96,0.0,851.6,8.55,28.1,20,3.5,3.4,6.1,207.0,34.0,0.6,3,10,7,1,2026-07-03T03:39:45.264307+05:30
Gangtok,Sikkim,27.3314,88.6138,18.5,96,0.1,834.7,8.95,32.8,38,7.5,7.4,6.3,336.0,82.0,1.6,6,10,7,1,2026-07-03T03:39:45.264314+05:30
Siliguri,West Bengal,26.7271,88.3953,27.1,94,0.0,987.2,8.65,24.1,68,29.7,29.6,17.5,454.0,69.0,5.9,7,5,7,1,2026-07-03T03:39:48.903242+05:30
Durgapur,West Bengal,23.5204,87.3119,26.2,98,0.0,987.7,6.35,37.4,93,49.1,47.5,34.2,387.0,27.0,31.9,7,5,7,1,2026-07-03T03:39:48.903272+05:30
Asansol,West Bengal,23.6739,86.9524,25.9,98,0.0,986.3,5.15,35.3,91,37.8,36.9,34.9,315.0,32.0,40.3,7,5,3,1,2026-07-03T03:39:48.903282+05:30
Pondicherry,Puducherry,11.9139,79.8145,30.2,58,0.0,1005.9,7.9,38.9,54,11.7,10.7,15.5,98.0,35.0,5.5,0,5,4,1,2026-07-03T03:39:48.903289+05:30
Port Blair,Andaman and Nicobar Islands,11.6234,92.7265,26.8,90,0.0,1004.4,7.45,49.0,39,16.6,8.6,0.2,93.0,64.0,0.5,7,5,4,1,2026-07-03T03:39:48.903296+05:30
Haridwar,Uttarakhand,29.9457,78.1642,27.0,91,0.0,968.5,7.1,28.1,90,56.8,53.2,33.4,271.0,44.0,8.7,7,5,7,1,2026-07-03T03:39:48.903303+05:30
Rishikesh,Uttarakhand,30.0869,78.2676,26.4,88,0.0,961.4,7.0,22.0,61,24.7,21.9,8.7,277.0,96.0,4.2,7,5,7,1,2026-07-03T03:39:48.903309+05:30
Nainital,Uttarakhand,29.3919,79.4542,15.4,100,0.0,802.1,7.65,26.6,84,37.8,35.4,15.8,396.0,72.0,2.5,3,10,7,0,2026-07-03T03:39:48.903316+05:30
Mussoorie,Uttarakhand,30.4599,78.0664,16.4,99,0.0,800.0,7.95,28.4,62,24.2,22.1,19.7,241.0,71.0,7.4,3,10,7,1,2026-07-03T03:39:48.903323+05:30
Dharamshala,Himachal Pradesh,32.219,76.3234,22.2,78,0.0,866.0,8.45,30.6,30,5.6,5.1,7.9,311.0,89.0,0.1,3,5,7,1,2026-07-03T03:39:48.903329+05:30
Dalhousie,Himachal Pradesh,32.5387,75.971,16.1,97,0.0,801.7,8.15,33.1,83,25.9,18.9,19.4,301.0,59.0,1.1,3,10,7,0,2026-07-03T03:39:48.903336+05:30
Patiala,Punjab,30.3398,76.3869,27.5,95,0.1,972.4,7.6,29.5,140,224.4,60.5,20.0,483.0,66.0,12.2,10,5,7,1,2026-07-03T03:39:48.903343+05:30
Bhatinda,Punjab,30.211,74.9455,28.9,82,0.0,977.6,8.25,36.7,181,420.0,119.7,16.5,439.0,76.0,6.9,7,5,7,1,2026-07-03T03:39:48.903349+05:30
Rohtak,Haryana,28.8955,76.6066,26.9,93,0.0,975.5,6.0,29.2,160,330.6,83.8,31.5,781.0,61.0,27.9,7,5,3,1,2026-07-03T03:39:48.903355+05:30
Panipat,Haryana,29.3909,76.9635,26.9,95,0.1,974.3,6.4,27.7,364,1285.2,187.7,21.9,437.0,63.0,11.9,10,5,7,1,2026-07-03T03:39:48.903361+05:30
Mathura,Uttar Pradesh,27.4924,77.6737,28.4,85,0.0,980.4,6.15,22.0,115,37.1,25.6,11.4,494.0,91.0,4.7,7,5,7,1,2026-07-03T03:39:48.903368+05:30
Vrindavan,Uttar Pradesh,27.5823,77.7027,28.4,84,0.0,980.8,7.6,22.0,115,37.1,25.6,11.4,463.0,91.0,4.7,7,5,7,1,2026-07-03T03:39:48.903374+05:30
Ayodhya,Uttar Pradesh,26.7922,82.1998,26.5,97,0.1,989.3,7.3,35.3,102,29.7,29.7,11.6,513.0,81.0,4.4,10,5,7,1,2026-07-03T03:39:48.903380+05:30
Ratlam,Madhya Pradesh,23.3315,75.0367,24.5,97,0.0,949.0,3.6,36.0,48,19.8,18.9,7.7,200.0,55.0,7.2,3,5,3,1,2026-07-03T03:39:48.903386+05:30
Sagar,Madhya Pradesh,23.8388,78.7378,25.0,91,0.0,943.3,8.4,34.6,70,21.5,17.1,6.7,215.0,78.0,1.8,7,5,7,1,2026-07-03T03:39:48.903391+05:30
Satna,Madhya Pradesh,24.6005,80.8322,24.7,97,0.1,964.2,8.35,29.5,72,22.4,18.3,9.2,218.0,73.0,3.6,6,5,7,1,2026-07-03T03:39:48.903397+05:30
Akola,Maharashtra,20.7002,77.0082,25.2,91,0.1,969.2,4.85,42.1,22,3.7,3.5,10.1,135.0,34.0,7.8,10,5,3,1,2026-07-03T03:39:48.903405+05:30
Amravati,Maharashtra,20.9374,77.7796,24.1,97,0.0,961.2,2.1,44.3,23,4.1,4.0,11.1,154.0,34.0,8.7,3,5,3,1,2026-07-03T03:39:48.903412+05:30
Latur,Maharashtra,18.4088,76.5604,23.5,91,0.0,935.4,1.1,55.1,21,3.2,2.9,5.6,135.0,40.0,2.4,3,5,3,1,2026-07-03T03:39:48.903419+05:30
Nanded,Maharashtra,19.1383,77.3091,25.3,83,0.0,963.4,0.8,46.1,26,3.9,3.2,6.3,135.0,39.0,3.0,7,5,3,1,2026-07-03T03:39:48.903425+05:30
Gulbarga,Karnataka,17.3297,76.8343,24.2,87,0.0,955.3,2.1,58.3,19,4.5,3.2,5.2,136.0,40.0,2.5,3,5,3,1,2026-07-03T03:39:48.903431+05:30
Bidar,Karnataka,17.9104,77.5199,23.6,87,0.0,931.2,3.75,58.7,21,3.6,3.0,5.6,119.0,39.0,2.0,3,5,3,1,2026-07-03T03:39:48.903437+05:30
Hospet,Karnataka,15.2689,76.3909,23.6,87,0.0,953.8,5.5,65.5,19,1.6,1.3,3.7,109.0,43.0,1.4,3,5,3,1,2026-07-03T03:39:48.903443+05:30
Tirupur,Tamil Nadu,11.1085,77.3411,23.8,90,0.0,974.4,8.65,61.9,33,11.9,11.0,17.0,118.0,23.0,4.2,3,5,7,1,2026-07-03T03:39:48.903449+05:30
Alappuzha,Kerala,9.4981,76.3388,25.4,91,0.2,1010.1,8.4,41.0,38,7.1,4.5,4.3,80.0,39.0,1.7,10,0,4,1,2026-07-03T03:39:48.903455+05:30
Munnar,Kerala,10.0889,77.0595,16.9,100,0.4,856.5,1.2,49.0,18,1.0,0.9,3.3,84.0,34.0,1.6,6,10,3,1,2026-07-03T03:39:48.903461+05:30
Silchar,Assam,24.8333,92.7789,25.7,97,0.3,1000.3,8.75,22.0,67,12.9,12.6,6.7,192.0,52.0,3.6,10,5,4,1,2026-07-03T03:39:48.903467+05:30
Dibrugarh,Assam,27.4728,94.912,26.2,97,0.0,990.1,8.85,15.5,50,21.3,20.7,18.8,196.0,21.0,1.4,7,5,7,1,2026-07-03T03:39:48.903473+05:30
