city,state,latitude,longitude,temp,humidity,rain,pressure,uv_index,wind_gusts,aqi,pm10,pm2_5,no2,co,o3,so2,mosquito_risk,arthritis_risk,migraine_risk,frizz_risk,updated_at
Delhi,Delhi,28.6139,77.209,22.2,83,0.0,984.3,7.55,30.2,117,144.8,41.7,19.6,484.0,67.0,14.0,3,5,7,1,2026-05-05T05:26:30.613357+05:30
Mumbai,Maharashtra,19.076,72.8777,28.2,79,0.0,1007.2,7.85,40.0,61,51.9,17.6,8.2,209.0,62.0,11.6,7,5,4,1,2026-05-05T05:26:30.613402+05:30
Bangalore,Karnataka,12.9716,77.5946,22.5,82,0.0,911.1,8.5,37.4,81,44.8,25.1,16.8,284.0,56.0,8.2,3,5,7,1,2026-05-05T05:26:30.613419+05:30
Hyderabad,Telangana,17.385,78.4867,26.1,69,0.0,952.4,9.25,41.0,80,44.0,29.0,18.3,270.0,63.0,5.7,7,5,7,1,2026-05-05T05:26:30.613430+05:30
Chennai,Tamil Nadu,13.0827,80.2707,28.3,81,0.0,1005.2,7.45,42.5,71,36.6,24.6,6.4,259.0,85.0,6.6,7,5,4,1,2026-05-05T05:26:30.613446+05:30
Kolkata,West Bengal,22.5726,88.3639,22.8,96,0.0,1008.2,8.9,36.0,74,25.8,21.8,18.5,302.0,34.0,9.1,3,0,4,1,2026-05-05T05:26:30.613454+05:30
Pune,Maharashtra,18.5204,73.8567,21.5,96,0.0,946.6,8.45,45.4,54,24.7,12.7,12.2,197.0,43.0,11.1,3,5,7,1,2026-05-05T05:26:30.613462+05:30
Ahmedabad,Gujarat,23.0225,72.5714,27.9,74,0.0,1000.6,8.1,28.4,66,25.0,15.4,6.9,181.0,47.0,5.9,7,5,4,1,2026-05-05T05:26:30.613472+05:30
Jaipur,Rajasthan,26.9124,75.7873,23.4,60,0.0,959.1,8.1,53.6,220,76.1,28.5,3.2,303.0,103.0,4.6,0,5,7,0,2026-05-05T05:26:30.613480+05:30
Lucknow,Uttar Pradesh,26.8467,80.9462,22.0,80,0.0,996.0,6.55,26.3,93,28.1,21.9,8.8,390.0,92.0,8.3,3,5,7,1,2026-05-05T05:26:30.613488+05:30
Kanpur,Uttar Pradesh,26.4499,80.3319,22.9,82,0.0,993.8,8.0,32.0,196,334.3,54.5,7.1,441.0,98.0,9.6,3,5,7,1,2026-05-05T05:26:30.613496+05:30
Chandigarh,Chandigarh,30.7333,76.7794,19.5,54,0.0,969.6,7.55,32.8,89,28.5,17.9,15.1,259.0,53.0,3.0,0,5,7,0,2026-05-05T05:26:30.613504+05:30
Srinagar,Jammu and Kashmir,34.0837,74.7973,6.9,98,0.0,842.5,8.7,30.6,58,18.8,14.2,6.9,332.0,100.0,2.3,3,10,7,0,2026-05-05T05:26:30.613513+05:30
Jammu,Jammu and Kashmir,32.7266,74.857,17.9,71,0.0,974.7,8.3,32.0,95,28.6,21.5,13.5,257.0,49.0,2.0,3,5,7,0,2026-05-05T05:26:30.613520+05:30
Amritsar,Punjab,31.634,74.8723,20.4,69,0.0,982.6,8.2,29.5,105,56.5,34.6,9.3,365.0,78.0,13.7,3,5,7,0,2026-05-05T05:26:30.613528+05:30
Ludhiana,Punjab,30.901,75.8573,19.7,73,0.0,979.9,7.8,26.3,129,56.2,31.4,13.7,455.0,63.0,6.6,3,5,7,0,2026-05-05T05:26:30.613535+05:30
Jalandhar,Punjab,31.326,75.5762,19.0,73,0.0,981.0,7.95,24.8,122,51.7,34.8,14.8,418.0,67.0,13.1,3,5,7,0,2026-05-05T05:26:30.613542+05:30
Dehradun,Uttarakhand,30.6284,78.0322,7.6,92,0.0,827.5,7.85,37.4,59,13.8,9.6,22.6,203.0,21.0,0.0,3,10,7,0,2026-05-05T05:26:30.613552+05:30
Shimla,Himachal Pradesh,31.1048,77.1734,5.3,79,0.0,779.6,7.6,30.2,71,22.5,12.5,13.3,217.0,77.0,0.9,3,5,7,0,2026-05-05T05:26:30.613559+05:30
Manali,Himachal Pradesh,32.2396,77.1887,8.8,74,0.0,816.3,9.3,36.7,109,2.2,1.6,4.7,214.0,145.0,0.0,3,5,7,0,2026-05-05T05:26:30.613582+05:30
Gurgaon,Haryana,28.4595,77.0266,22.3,81,0.0,982.3,7.65,36.0,790,529.0,86.1,18.5,451.0,66.0,16.4,3,5,7,1,2026-05-05T05:26:30.613589+05:30
Noida,Uttar Pradesh,28.5355,77.391,22.0,83,0.0,986.0,7.55,39.2,790,529.0,86.1,18.5,463.0,66.0,16.4,3,5,7,1,2026-05-05T05:26:30.613596+05:30
Ghaziabad,Uttar Pradesh,28.6692,77.4538,22.0,83,0.0,984.2,7.5,30.6,94,95.5,34.6,12.5,450.0,67.0,7.6,3,5,7,1,2026-05-05T05:26:30.613603+05:30
Faridabad,Haryana,28.4089,77.3178,22.1,84,0.0,985.2,7.6,40.3,790,529.0,86.1,18.5,473.0,66.0,16.4,3,5,7,1,2026-05-05T05:26:30.613609+05:30
Meerut,Uttar Pradesh,28.9845,77.7064,21.2,86,0.0,983.1,7.45,39.2,94,95.5,34.6,12.5,546.0,67.0,7.6,3,5,7,1,2026-05-05T05:26:30.613616+05:30
Agra,Uttar Pradesh,27.1767,78.0081,24.5,79,0.0,988.6,7.9,59.8,662,145.3,53.4,13.0,404.0,72.0,12.0,3,5,7,1,2026-05-05T05:26:30.613622+05:30
Varanasi,Uttar Pradesh,25.3176,82.9739,22.4,94,0.0,999.9,8.1,29.2,147,55.1,51.7,12.6,426.0,86.0,14.9,3,5,7,1,2026-05-05T05:26:30.613629+05:30
Prayagraj,Uttar Pradesh,25.4358,81.8463,22.9,86,0.0,998.3,7.95,31.7,134,42.1,38.5,11.6,454.0,90.0,10.9,3,5,7,1,2026-05-05T05:26:30.613638+05:30
Gorakhpur,Uttar Pradesh,26.7606,83.3732,20.7,87,0.0,1000.3,7.0,24.5,75,22.3,17.0,9.1,436.0,83.0,4.1,3,5,4,1,2026-05-05T05:26:30.613645+05:30
Bareilly,Uttar Pradesh,28.367,79.4304,21.6,84,0.0,989.3,7.8,27.7,95,43.5,31.9,18.5,361.0,60.0,12.2,3,5,7,1,2026-05-05T05:26:30.613652+05:30
Aligarh,Uttar Pradesh,27.8974,78.088,22.9,81,0.0,987.1,7.7,43.2,278,216.5,63.3,12.0,408.0,73.0,14.2,3,5,7,1,2026-05-05T05:26:30.613658+05:30
Moradabad,Uttar Pradesh,28.8386,78.7733,21.4,86,0.0,986.0,7.65,29.9,108,58.3,42.6,31.2,643.0,35.0,9.5,3,5,7,1,2026-05-05T05:26:30.613664+05:30
Saharanpur,Uttar Pradesh,29.9637,77.546,20.5,61,0.0,977.1,7.15,30.2,98,33.5,24.5,22.8,365.0,20.0,5.1,3,5,7,0,2026-05-05T05:26:30.613670+05:30
Jhansi,Uttar Pradesh,25.4484,78.5685,24.4,81,0.0,977.9,8.3,39.2,96,102.9,41.3,3.9,336.0,99.0,7.5,3,5,7,1,2026-05-05T05:26:33.868635+05:30
Surat,Gujarat,21.1702,72.8311,28.3,79,0.0,1005.2,7.7,41.8,65,49.4,22.6,19.6,243.0,52.0,32.8,7,5,4,1,2026-05-05T05:26:33.868671+05:30
Vadodara,Gujarat,22.3072,73.1812,27.8,82,0.0,1002.9,8.05,37.4,60,40.0,17.9,9.3,195.0,53.0,13.3,7,5,4,1,2026-05-05T05:26:33.868683+05:30
Rajkot,Gujarat,22.3039,70.8022,25.0,95,0.0,992.0,7.7,47.9,56,42.4,15.7,2.3,142.0,63.0,1.8,7,5,7,1,2026-05-05T05:26:33.868692+05:30
Thane,Maharashtra,19.2183,72.9781,27.5,84,0.0,1006.6,7.85,38.5,61,51.9,17.6,8.2,229.0,62.0,11.6,7,5,4,1,2026-05-05T05:26:33.868700+05:30
Nagpur,Maharashtra,21.1458,79.0882,28.2,34,0.0,971.2,8.9,52.9,77,58.4,41.9,36.3,250.0,19.0,14.0,4,5,7,0,2026-05-05T05:26:33.868708+05:30
Nashik,Maharashtra,19.9975,73.7898,22.4,95,0.0,944.0,8.2,38.2,57,31.0,16.6,13.8,187.0,41.0,10.6,3,5,7,1,2026-05-05T05:26:33.868715+05:30
Aurangabad,Maharashtra,19.8762,75.3433,23.6,68,0.0,942.5,9.05,32.8,58,39.5,16.3,13.7,195.0,50.0,15.1,3,5,7,1,2026-05-05T05:26:33.868722+05:30
Solapur,Maharashtra,17.6599,75.9064,25.3,56,0.0,956.0,9.1,49.7,53,21.0,10.0,8.2,187.0,46.0,3.4,4,5,7,0,2026-05-05T05:26:33.868730+05:30
Kolhapur,Maharashtra,16.705,74.2433,21.9,98,0.0,946.6,8.95,46.8,57,29.9,18.7,8.7,166.0,39.0,0.5,3,5,7,1,2026-05-05T05:26:33.868736+05:30
Goa,Goa,15.2993,74.124,26.5,93,0.0,997.2,8.95,35.6,66,55.5,26.5,9.7,202.0,48.0,1.7,7,5,7,1,2026-05-05T05:26:33.868744+05:30
Jodhpur,Rajasthan,26.2389,73.0243,26.0,54,0.0,981.0,8.3,36.0,88,132.7,24.7,2.6,181.0,97.0,3.7,4,5,7,0,2026-05-05T05:26:33.868751+05:30
Udaipur,Rajasthan,24.5854,73.7125,20.0,80,0.0,945.6,8.75,57.6,65,44.4,19.7,3.3,206.0,85.0,5.3,3,5,7,1,2026-05-05T05:26:33.868758+05:30
Kota,Rajasthan,25.2138,75.8648,24.4,57,0.0,978.6,8.3,46.4,72,44.5,28.6,5.6,319.0,74.0,8.5,0,5,7,0,2026-05-05T05:26:33.868765+05:30
Bikaner,Rajasthan,28.0229,73.3119,24.9,49,0.0,980.0,8.2,33.1,91,35.0,17.4,2.7,217.0,90.0,3.7,0,5,7,0,2026-05-05T05:26:33.868772+05:30
Ajmer,Rajasthan,26.4499,74.6399,23.4,57,0.0,953.4,8.2,41.0,63,54.2,20.4,2.4,242.0,102.0,4.9,0,5,7,0,2026-05-05T05:26:33.868779+05:30
Gwalior,Madhya Pradesh,26.2183,78.1828,24.6,74,0.0,983.6,8.1,37.8,108,100.4,37.1,3.6,334.0,108.0,4.6,3,5,7,1,2026-05-05T05:26:33.868785+05:30
Indore,Madhya Pradesh,22.7196,75.8577,25.6,57,0.0,946.7,8.6,41.8,66,42.0,22.4,4.8,355.0,88.0,8.1,4,5,7,1,2026-05-05T05:26:33.868792+05:30
Bhopal,Madhya Pradesh,23.2599,77.4126,25.5,56,0.0,952.3,8.65,46.1,56,40.4,26.3,2.3,273.0,117.0,6.6,4,5,7,1,2026-05-05T05:26:33.868798+05:30
Jabalpur,Madhya Pradesh,23.1815,79.9864,23.6,72,0.0,960.7,8.2,72.0,70,56.3,34.0,7.9,251.0,107.0,13.3,3,5,7,1,2026-05-05T05:26:33.868805+05:30
Ujjain,Madhya Pradesh,23.1765,75.7885,25.0,61,0.0,952.3,8.55,41.0,69,50.2,27.2,7.0,384.0,79.0,8.4,7,5,7,1,2026-05-05T05:26:33.868812+05:30
Visakhapatnam,Andhra Pradesh,17.6868,83.2185,25.6,99,0.0,1003.3,9.2,35.3,82,37.7,29.9,36.9,1406.0,39.0,4.0,7,5,4,1,2026-05-05T05:26:33.868819+05:30
Vijayawada,Andhra Pradesh,16.5062,80.648,28.2,90,0.0,1001.6,9.2,34.9,86,21.0,17.0,6.5,209.0,66.0,3.4,7,5,4,1,2026-05-05T05:26:33.868825+05:30
Guntur,Andhra Pradesh,16.3067,80.4365,28.6,86,0.0,1002.7,9.2,38.2,86,20.6,16.3,5.8,195.0,69.0,2.8,7,5,4,1,2026-05-05T05:26:33.868832+05:30
Nellore,Andhra Pradesh,14.4426,79.9865,28.4,83,0.0,1004.3,8.4,37.4,77,27.6,21.7,6.6,261.0,81.0,6.6,7,5,4,1,2026-05-05T05:26:33.868839+05:30
Kurnool,Andhra Pradesh,15.8281,78.0373,28.2,46,0.0,975.5,9.2,42.8,74,43.9,27.1,22.9,264.0,38.0,4.8,4,5,7,0,2026-05-05T05:26:33.868846+05:30
Kakinada,Andhra Pradesh,16.9891,82.2475,26.4,97,0.0,1007.1,9.15,31.0,77,26.4,18.5,2.1,288.0,87.0,1.2,7,5,4,1,2026-05-05T05:26:33.868853+05:30
Tirupati,Andhra Pradesh,13.6288,79.4192,27.0,73,0.0,989.5,8.1,31.7,103,42.5,36.3,19.9,297.0,44.0,5.1,7,5,7,1,2026-05-05T05:26:33.868860+05:30
Warangal,Telangana,17.9689,79.5941,27.0,73,0.0,977.3,9.05,42.8,90,32.8,25.6,7.4,240.0,93.0,9.4,7,5,7,1,2026-05-05T05:26:33.868865+05:30
Nizamabad,Telangana,18.6725,78.0941,27.0,44,0.0,963.0,9.1,31.7,85,42.8,32.2,26.4,311.0,40.0,7.4,4,5,7,0,2026-05-05T05:26:33.868872+05:30
Mysore,Karnataka,12.2958,76.6396,22.8,92,0.0,927.7,8.8,40.7,71,31.3,18.9,7.8,161.0,51.0,1.2,3,5,7,1,2026-05-05T05:26:33.868879+05:30
Mangalore,Karnataka,12.9141,74.856,27.2,86,0.0,1006.3,7.25,44.3,67,41.9,17.1,4.1,206.0,53.0,1.7,7,5,4,1,2026-05-05T05:26:33.868886+05:30
Hubli-Dharwad,Karnataka,15.3647,75.124,21.9,98,0.0,939.9,9.2,52.9,55,29.8,15.5,6.9,172.0,41.0,1.1,3,5,7,1,2026-05-05T05:26:33.868893+05:30
Belgaum,Karnataka,15.8497,74.4977,20.0,99,0.0,924.0,9.2,50.4,57,34.2,16.5,7.1,170.0,43.0,0.5,3,5,7,1,2026-05-05T05:26:37.153478+05:30
Coimbatore,Tamil Nadu,11.0168,76.9558,23.8,89,0.0,960.9,9.35,34.6,64,27.8,13.8,5.3,218.0,70.0,2.3,3,5,7,1,2026-05-05T05:26:37.153513+05:30
Madurai,Tamil Nadu,9.9252,78.1198,27.2,70,0.0,991.7,3.55,38.9,88,35.6,25.0,19.4,301.0,36.0,5.6,7,5,3,1,2026-05-05T05:26:37.153525+05:30
Trichy,Tamil Nadu,10.7905,78.7047,28.4,72,0.0,998.1,8.75,55.4,84,52.5,34.0,18.3,250.0,61.0,6.3,7,5,7,1,2026-05-05T05:26:37.153534+05:30
Salem,Tamil Nadu,11.6643,78.146,26.7,65,0.0,976.4,9.3,47.2,85,58.1,33.3,15.2,264.0,65.0,8.1,7,5,7,1,2026-05-05T05:26:37.153542+05:30
Tirunelveli,Tamil Nadu,8.7139,77.7567,27.8,72,0.0,1002.0,3.75,32.0,81,49.0,25.2,9.0,309.0,42.0,2.5,7,5,0,1,2026-05-05T05:26:37.153550+05:30
Vellore,Tamil Nadu,12.9165,79.1325,27.0,65,0.0,983.0,7.6,43.6,112,62.4,43.0,12.4,272.0,68.0,6.9,7,5,7,1,2026-05-05T05:26:37.153558+05:30
Erode,Tamil Nadu,11.341,77.7172,27.8,72,0.0,988.1,9.25,46.1,73,29.9,19.9,18.2,233.0,49.0,4.7,7,5,7,1,2026-05-05T05:26:37.153583+05:30
Kochi,Kerala,9.9312,76.2673,24.9,96,0.1,1008.4,6.1,29.2,89,30.9,18.5,9.2,232.0,58.0,3.0,6,0,4,1,2026-05-05T05:26:37.153590+05:30
Thiruvananthapuram,Kerala,8.5241,76.9366,24.7,91,0.0,1007.6,7.5,38.2,75,49.6,21.8,5.7,305.0,65.0,2.9,3,5,4,1,2026-05-05T05:26:37.153598+05:30
Kozhikode,Kerala,11.2588,75.7804,25.0,96,0.0,1007.7,8.8,36.7,65,45.4,15.4,1.1,245.0,76.0,0.5,7,5,4,1,2026-05-05T05:26:37.153605+05:30
Thrissur,Kerala,10.5276,76.2144,24.4,99,0.0,1006.8,6.15,27.7,82,31.4,17.5,9.1,200.0,55.0,2.3,3,5,4,1,2026-05-05T05:26:37.153613+05:30
Kannur,Kerala,11.8745,75.3704,25.8,94,0.0,1006.9,8.45,40.7,67,41.9,17.4,6.7,232.0,50.0,1.4,7,5,4,1,2026-05-05T05:26:37.153619+05:30
Patna,Bihar,25.5941,85.1376,22.0,97,0.0,1003.4,8.7,34.6,126,51.5,48.4,12.7,395.0,75.0,9.7,3,5,4,1,2026-05-05T05:26:37.153626+05:30
Gaya,Bihar,24.7914,85.0002,22.2,98,0.0,996.0,8.75,29.5,119,22.3,21.7,10.0,346.0,104.0,16.1,3,5,7,1,2026-05-05T05:26:37.153633+05:30
Muzaffarpur,Bihar,26.1209,85.3647,22.0,95,0.0,1003.7,8.1,29.9,112,44.8,40.0,11.2,376.0,70.0,7.2,3,5,4,1,2026-05-05T05:26:37.153639+05:30
Bhagalpur,Bihar,25.2425,87.0117,22.0,96,0.0,1004.8,8.7,30.6,120,49.6,45.5,12.9,330.0,76.0,12.2,3,5,4,1,2026-05-05T05:26:37.153646+05:30
Ranchi,Jharkhand,23.3441,85.3096,19.9,98,0.0,938.1,9.25,45.4,104,44.9,34.3,8.6,296.0,92.0,12.9,3,10,7,1,2026-05-05T05:26:37.153653+05:30
Jamshedpur,Jharkhand,22.8046,86.2029,22.0,96,0.0,992.5,9.05,34.6,96,34.5,28.5,19.2,603.0,67.0,21.1,3,5,7,1,2026-05-05T05:26:37.153660+05:30
Dhanbad,Jharkhand,23.7957,86.4304,22.0,98,0.0,981.5,9.0,45.0,150,51.5,47.4,58.0,394.0,30.0,83.1,3,5,7,1,2026-05-05T05:26:37.153667+05:30
Bokaro,Jharkhand,23.6693,86.1511,22.2,96,0.0,985.3,9.0,42.8,152,58.8,54.0,56.8,544.0,27.0,86.9,3,5,7,1,2026-05-05T05:26:37.153674+05:30
Bhubaneswar,Odisha,20.2961,85.8245,25.9,98,0.0,1003.5,9.1,34.9,65,18.9,14.1,9.7,191.0,49.0,3.8,7,5,4,1,2026-05-05T05:26:37.153681+05:30
Cuttack,Odisha,20.4625,85.8828,25.8,98,0.0,1005.6,9.15,36.7,65,18.9,14.1,9.7,194.0,49.0,3.8,7,5,4,1,2026-05-05T05:26:37.153688+05:30
Rourkela,Odisha,22.2604,84.8536,23.4,90,0.0,986.2,8.95,52.6,102,56.7,43.7,20.1,529.0,89.0,49.3,3,5,7,1,2026-05-05T05:26:37.153695+05:30
Raipur,Chhattisgarh,21.2514,81.6296,26.1,60,0.0,973.9,8.95,47.9,104,49.8,40.9,21.5,311.0,65.0,9.4,4,5,7,1,2026-05-05T05:26:37.153702+05:30
Bhilai,Chhattisgarh,21.1938,81.3509,26.2,56,0.0,974.2,8.95,54.4,104,60.1,49.1,38.7,218.0,45.0,10.6,4,5,7,1,2026-05-05T05:26:37.153708+05:30
Guwahati,Assam,26.1158,91.7086,21.2,97,0.2,1005.8,8.65,23.8,85,19.9,15.3,10.4,342.0,46.0,1.7,6,5,4,1,2026-05-05T05:26:37.153715+05:30
Agartala,Tripura,23.8315,91.2868,22.2,97,0.0,1009.4,8.7,19.4,107,76.1,69.4,55.9,326.0,9.0,3.1,3,0,4,1,2026-05-05T05:26:37.153722+05:30
Shillong,Meghalaya,25.5788,91.8933,13.7,95,0.0,857.4,9.05,25.2,56,17.5,11.1,8.2,283.0,49.0,0.5,3,10,7,0,2026-05-05T05:26:37.153729+05:30
Imphal,Manipur,24.817,93.9368,17.0,90,0.0,925.3,9.2,31.7,91,62.2,53.4,21.3,441.0,28.0,0.9,3,10,7,0,2026-05-05T05:26:37.153736+05:30
Aizawl,Mizoram,23.7271,92.7176,14.5,99,0.0,893.2,9.05,24.8,65,49.9,32.4,16.6,316.0,18.0,0.4,3,10,7,0,2026-05-05T05:26:37.153743+05:30
Kohima,Nagaland,25.6701,94.1077,13.5,96,0.0,855.5,9.15,31.0,68,24.8,18.8,11.1,240.0,28.0,0.3,3,10,7,0,2026-05-05T05:26:37.153750+05:30
Gangtok,Sikkim,27.3314,88.6138,11.9,99,0.2,838.0,9.0,39.2,58,25.4,19.4,12.4,349.0,86.0,1.3,6,10,7,0,2026-05-05T05:26:37.153757+05:30
Siliguri,West Bengal,26.7271,88.3953,20.5,96,0.0,996.9,8.55,25.6,80,51.3,36.2,17.3,375.0,80.0,2.8,3,5,7,1,2026-05-05T05:26:40.402497+05:30
Durgapur,West Bengal,23.5204,87.3119,22.4,96,0.1,997.0,8.95,34.2,116,43.2,40.3,34.8,256.0,33.0,40.9,6,5,7,1,2026-05-05T05:26:40.402533+05:30
Asansol,West Bengal,23.6739,86.9524,22.5,97,0.0,995.7,8.95,41.4,128,39.9,37.1,39.2,435.0,38.0,57.5,3,5,7,1,2026-05-05T05:26:40.402545+05:30
Pondicherry,Puducherry,11.9139,79.8145,28.0,88,0.0,1006.7,9.15,32.4,73,37.1,25.3,7.2,298.0,96.0,10.5,7,5,4,1,2026-05-05T05:26:40.402554+05:30
Port Blair,Andaman and Nicobar Islands,11.6234,92.7265,27.6,87,0.0,1006.9,8.6,39.2,26,8.8,6.4,0.3,172.0,57.0,0.2,7,5,4,1,2026-05-05T05:26:40.402580+05:30
Haridwar,Uttarakhand,29.9457,78.1642,17.8,73,0.0,975.4,7.35,34.2,85,19.2,14.7,16.3,209.0,31.0,2.5,3,5,7,0,2026-05-05T05:26:40.402589+05:30
Rishikesh,Uttarakhand,30.0869,78.2676,15.8,82,0.0,967.7,7.45,26.3,71,12.6,8.6,9.3,216.0,55.0,0.9,3,10,7,0,2026-05-05T05:26:40.402597+05:30
Nainital,Uttarakhand,29.3919,79.4542,9.6,74,0.0,803.7,7.8,29.5,68,11.0,8.8,16.0,218.0,55.0,1.5,3,5,7,0,2026-05-05T05:26:40.402605+05:30
Mussoorie,Uttarakhand,30.4599,78.0664,8.2,72,0.0,799.8,7.6,48.6,77,16.6,11.5,17.2,191.0,44.0,2.8,3,5,7,0,2026-05-05T05:26:40.402613+05:30
Dharamshala,Himachal Pradesh,32.219,76.3234,17.1,48,0.0,869.5,8.2,41.0,51,16.7,6.3,9.6,211.0,72.0,0.1,0,5,7,0,2026-05-05T05:26:40.402620+05:30
Dalhousie,Himachal Pradesh,32.5387,75.971,6.2,97,0.0,800.3,8.45,40.3,77,30.7,17.5,20.3,319.0,35.0,0.9,3,10,7,0,2026-05-05T05:26:40.402629+05:30
Patiala,Punjab,30.3398,76.3869,22.0,54,0.0,979.5,7.45,42.5,397,263.6,41.6,7.5,298.0,89.0,5.0,0,5,7,0,2026-05-05T05:26:40.402636+05:30
Bhatinda,Punjab,30.211,74.9455,23.0,73,0.0,984.5,8.1,31.7,616,685.5,149.0,6.5,330.0,94.0,10.0,3,5,7,1,2026-05-05T05:26:40.402644+05:30
Rohtak,Haryana,28.8955,76.6066,22.4,80,0.0,982.5,7.55,33.1,409,394.9,66.4,19.3,423.0,70.0,17.2,3,5,7,1,2026-05-05T05:26:40.402651+05:30
Panipat,Haryana,29.3909,76.9635,21.5,82,0.0,981.5,7.4,31.0,855,836.3,99.4,10.9,328.0,77.0,7.0,3,5,7,1,2026-05-05T05:26:40.402658+05:30
Mathura,Uttar Pradesh,27.4924,77.6737,24.0,78,0.0,987.8,7.8,71.3,575,242.1,66.6,11.6,397.0,71.0,9.8,3,5,7,1,2026-05-05T05:26:40.402665+05:30
Vrindavan,Uttar Pradesh,27.5823,77.7027,24.0,76,0.0,988.3,7.8,71.3,575,242.1,66.6,11.6,397.0,71.0,9.8,3,5,7,1,2026-05-05T05:26:40.402671+05:30
Ayodhya,Uttar Pradesh,26.7922,82.1998,21.0,78,0.0,998.2,4.95,23.4,81,24.7,19.3,8.4,401.0,89.0,5.8,3,5,3,1,2026-05-05T05:26:40.402679+05:30
Ratlam,Madhya Pradesh,23.3315,75.0367,24.4,82,0.0,953.6,8.5,38.9,62,41.1,23.1,5.1,220.0,69.0,8.3,3,5,7,1,2026-05-05T05:26:40.402686+05:30
Sagar,Madhya Pradesh,23.8388,78.7378,24.1,74,0.0,949.0,8.65,51.5,67,46.0,31.1,4.5,321.0,100.0,7.3,3,5,7,1,2026-05-05T05:26:40.402692+05:30
Satna,Madhya Pradesh,24.6005,80.8322,22.5,81,0.0,972.1,8.7,46.4,111,67.3,57.3,7.3,387.0,115.0,19.4,3,5,7,1,2026-05-05T05:26:40.402699+05:30
Akola,Maharashtra,20.7002,77.0082,27.9,55,0.0,973.7,8.9,37.1,53,26.0,15.0,6.2,170.0,73.0,13.7,4,5,7,1,2026-05-05T05:26:40.402706+05:30
Amravati,Maharashtra,20.9374,77.7796,26.6,29,0.0,965.5,8.85,38.9,53,25.9,15.0,7.1,312.0,75.0,13.1,4,5,7,0,2026-05-05T05:26:40.402714+05:30
Latur,Maharashtra,18.4088,76.5604,25.1,41,0.0,938.2,9.1,35.6,58,35.3,15.8,7.6,188.0,73.0,4.9,4,5,7,0,2026-05-05T05:26:40.402721+05:30
Nanded,Maharashtra,19.1383,77.3091,26.9,27,0.0,966.8,8.95,27.4,63,28.7,18.5,16.4,286.0,50.0,7.3,4,5,7,0,2026-05-05T05:26:40.402728+05:30
Gulbarga,Karnataka,17.3297,76.8343,26.5,40,0.0,957.4,9.15,37.4,53,20.3,10.0,6.9,232.0,52.0,3.5,4,5,7,0,2026-05-05T05:26:40.402734+05:30
Bidar,Karnataka,17.9104,77.5199,26.0,34,0.0,934.0,9.15,33.5,63,28.9,17.2,12.3,354.0,64.0,6.2,4,5,7,0,2026-05-05T05:26:40.402741+05:30
Hospet,Karnataka,15.2689,76.3909,23.6,89,0.0,954.7,9.25,37.4,60,24.3,13.6,8.5,183.0,43.0,3.0,3,5,7,1,2026-05-05T05:26:40.402748+05:30
Tirupur,Tamil Nadu,11.1085,77.3411,24.7,89,0.0,974.3,9.35,42.1,73,35.6,22.3,20.3,190.0,47.0,5.2,3,5,7,1,2026-05-05T05:26:40.402754+05:30
Alappuzha,Kerala,9.4981,76.3388,25.4,97,0.0,1008.5,7.05,29.5,82,37.4,19.1,9.1,155.0,62.0,4.1,7,0,4,1,2026-05-05T05:26:40.402761+05:30
Munnar,Kerala,10.0889,77.0595,17.5,98,0.0,856.0,8.8,25.2,70,12.8,8.9,6.5,209.0,58.0,0.9,3,10,7,1,2026-05-05T05:26:40.402768+05:30
Silchar,Assam,24.8333,92.7789,21.9,83,0.0,1008.6,8.85,19.4,95,55.2,40.7,20.1,231.0,32.0,4.0,3,0,4,1,2026-05-05T05:26:40.402774+05:30
Dibrugarh,Assam,27.4728,94.912,21.7,95,0.0,999.1,8.8,32.0,63,13.0,12.7,17.3,286.0,16.0,0.5,3,5,7,1,2026-05-05T05:26:40.402781+05:30
