city,state,latitude,longitude,temp,humidity,rain,pressure,uv_index,wind_gusts,aqi,pm10,pm2_5,no2,co,o3,so2,mosquito_risk,arthritis_risk,migraine_risk,frizz_risk,updated_at
Delhi,Delhi,28.6139,77.209,40.7,15,0.0,978.1,7.8,36.4,534,663.1,127.6,12.3,262.0,133.0,12.1,0,5,10,0,2026-05-22T17:52:37.937965+05:30
Mumbai,Maharashtra,19.076,72.8777,31.5,70,0.0,1007.9,7.15,35.6,61,27.5,19.2,12.2,219.0,81.0,7.7,3,5,4,1,2026-05-22T17:52:37.938006+05:30
Bangalore,Karnataka,12.9716,77.5946,28.5,54,0.0,911.6,7.45,44.3,47,12.0,9.2,14.5,1183.0,91.0,3.8,4,5,7,1,2026-05-22T17:52:37.938021+05:30
Hyderabad,Telangana,17.385,78.4867,37.5,36,0.0,951.6,7.45,50.4,107,41.6,29.6,6.2,277.0,145.0,8.1,0,5,10,1,2026-05-22T17:52:37.938031+05:30
Chennai,Tamil Nadu,13.0827,80.2707,34.2,58,0.0,1003.7,9.05,41.8,106,31.0,21.8,6.7,253.0,146.0,6.3,0,5,4,1,2026-05-22T17:52:37.938039+05:30
Kolkata,West Bengal,22.5726,88.3639,32.5,85,0.0,1000.5,8.95,36.7,118,42.4,30.2,6.5,384.0,85.0,6.5,3,5,4,1,2026-05-22T17:52:37.938047+05:30
Pune,Maharashtra,18.5204,73.8567,28.4,67,0.0,948.3,8.45,36.0,62,15.3,12.9,10.0,279.0,89.0,4.8,7,5,7,1,2026-05-22T17:52:37.938073+05:30
Ahmedabad,Gujarat,23.0225,72.5714,41.5,18,0.0,998.4,8.15,42.1,73,38.6,19.0,2.4,171.0,102.0,2.5,0,5,10,0,2026-05-22T17:52:37.938083+05:30
Jaipur,Rajasthan,26.9124,75.7873,39.2,15,0.0,956.8,8.25,42.1,150,269.2,51.1,1.9,160.0,103.0,2.4,0,5,10,0,2026-05-22T17:52:37.938094+05:30
Lucknow,Uttar Pradesh,26.8467,80.9462,41.0,22,0.0,987.7,8.25,37.8,173,203.0,60.3,6.9,210.0,140.0,8.1,0,5,10,0,2026-05-22T17:52:37.938102+05:30
Kanpur,Uttar Pradesh,26.4499,80.3319,41.3,15,0.0,985.9,8.25,39.6,285,532.7,86.1,4.4,174.0,123.0,4.8,0,5,10,0,2026-05-22T17:52:37.938108+05:30
Chandigarh,Chandigarh,30.7333,76.7794,37.1,19,0.0,965.6,7.75,68.8,109,91.7,29.0,3.5,252.0,129.0,6.2,0,5,10,0,2026-05-22T17:52:37.938115+05:30
Srinagar,Jammu and Kashmir,34.0837,74.7973,16.0,83,0.1,843.6,8.95,37.8,63,34.9,13.2,4.9,284.0,109.0,2.7,6,10,7,0,2026-05-22T17:52:37.938123+05:30
Jammu,Jammu and Kashmir,32.7266,74.857,35.3,23,0.0,970.1,8.55,41.8,82,108.3,30.0,2.8,166.0,125.0,1.7,0,5,10,0,2026-05-22T17:52:37.938129+05:30
Amritsar,Punjab,31.634,74.8723,37.0,23,0.0,977.9,8.45,56.2,83,92.0,30.9,5.7,183.0,123.0,4.0,0,5,10,0,2026-05-22T17:52:37.938136+05:30
Ludhiana,Punjab,30.901,75.8573,37.4,23,0.0,975.6,8.05,42.8,95,97.3,31.1,2.4,201.0,127.0,3.4,0,5,10,0,2026-05-22T17:52:37.938142+05:30
Jalandhar,Punjab,31.326,75.5762,37.0,23,0.0,976.6,8.2,47.5,90,98.0,29.9,2.5,236.0,126.0,2.5,0,5,10,0,2026-05-22T17:52:37.938148+05:30
Dehradun,Uttarakhand,30.6284,78.0322,24.0,38,0.0,831.7,8.2,34.9,103,64.7,19.7,1.6,161.0,129.0,2.4,0,5,7,0,2026-05-22T17:52:37.938155+05:30
Shimla,Himachal Pradesh,31.1048,77.1734,20.7,34,0.0,786.9,7.6,38.9,84,68.5,20.5,1.5,165.0,123.0,1.8,0,5,7,0,2026-05-22T17:52:37.938163+05:30
Manali,Himachal Pradesh,32.2396,77.1887,18.9,82,0.2,820.1,8.05,51.8,82,11.0,5.2,8.9,143.0,125.0,0.5,6,10,7,0,2026-05-22T17:52:37.938172+05:30
Gurgaon,Haryana,28.4595,77.0266,39.6,18,0.0,976.9,7.85,37.1,1475,1516.2,216.1,12.0,286.0,133.0,10.1,0,5,10,0,2026-05-22T17:52:37.938178+05:30
Noida,Uttar Pradesh,28.5355,77.391,40.2,16,0.0,979.1,7.8,37.1,1475,1516.2,216.1,12.0,263.0,133.0,10.1,0,5,10,0,2026-05-22T17:52:37.938190+05:30
Ghaziabad,Uttar Pradesh,28.6692,77.4538,38.5,22,0.0,977.5,7.8,38.5,428,551.3,109.2,7.2,235.0,156.0,14.6,0,5,10,0,2026-05-22T17:52:37.938196+05:30
Faridabad,Haryana,28.4089,77.3178,40.7,16,0.0,978.6,7.85,37.4,1475,1516.2,216.1,12.0,238.0,133.0,10.1,0,5,10,0,2026-05-22T17:52:37.938202+05:30
Meerut,Uttar Pradesh,28.9845,77.7064,37.4,22,0.0,976.7,7.7,37.8,428,551.3,109.2,7.2,238.0,156.0,14.6,0,5,10,0,2026-05-22T17:52:37.938208+05:30
Agra,Uttar Pradesh,27.1767,78.0081,40.5,16,0.0,982.4,8.1,44.6,860,1050.5,156.5,7.7,169.0,105.0,4.1,0,5,10,0,2026-05-22T17:52:37.938214+05:30
Varanasi,Uttar Pradesh,25.3176,82.9739,41.3,21,0.0,990.8,8.75,35.3,176,214.2,64.3,8.6,213.0,151.0,10.9,0,5,10,0,2026-05-22T17:52:37.938221+05:30
Prayagraj,Uttar Pradesh,25.4358,81.8463,41.4,16,0.0,989.5,8.65,38.2,184,162.5,46.7,5.3,194.0,142.0,8.2,0,5,10,0,2026-05-22T17:52:37.938227+05:30
Gorakhpur,Uttar Pradesh,26.7606,83.3732,37.3,40,0.0,991.3,8.6,31.3,179,188.6,68.2,4.5,372.0,181.0,13.0,0,5,10,1,2026-05-22T17:52:37.938236+05:30
Bareilly,Uttar Pradesh,28.367,79.4304,37.2,34,0.0,981.2,8.05,31.3,177,134.6,55.8,5.6,251.0,155.0,10.2,0,5,10,1,2026-05-22T17:52:37.938242+05:30
Aligarh,Uttar Pradesh,27.8974,78.088,38.8,21,0.0,980.4,7.95,37.8,802,916.4,139.7,6.9,188.0,135.0,8.1,0,5,10,0,2026-05-22T17:52:37.938248+05:30
Moradabad,Uttar Pradesh,28.8386,78.7733,37.1,32,0.0,978.6,7.9,37.8,201,190.0,76.1,10.2,317.0,146.0,10.9,0,5,10,1,2026-05-22T17:52:37.938254+05:30
Saharanpur,Uttar Pradesh,29.9637,77.546,37.0,22,0.0,971.7,7.5,46.8,177,84.3,40.3,13.4,232.0,125.0,6.9,0,5,10,0,2026-05-22T17:52:37.938260+05:30
Jhansi,Uttar Pradesh,25.4484,78.5685,40.3,17,0.0,973.3,8.5,42.1,59,114.8,33.5,1.9,138.0,103.0,3.1,0,5,10,0,2026-05-22T17:52:41.282739+05:30
Surat,Gujarat,21.1702,72.8311,33.2,55,0.0,1005.0,7.75,42.5,73,35.3,24.4,20.1,344.0,39.0,49.2,0,5,4,1,2026-05-22T17:52:41.282770+05:30
Vadodara,Gujarat,22.3072,73.1812,39.8,27,0.0,1001.0,8.15,45.7,74,53.8,28.3,3.0,183.0,125.0,6.7,0,5,7,1,2026-05-22T17:52:41.282781+05:30
Rajkot,Gujarat,22.3039,70.8022,39.2,25,0.0,991.1,7.8,45.4,75,50.8,24.9,1.6,138.0,120.0,5.4,0,5,10,0,2026-05-22T17:52:41.282791+05:30
Thane,Maharashtra,19.2183,72.9781,32.3,63,0.0,1007.2,7.15,32.4,61,27.5,19.2,12.2,199.0,81.0,7.7,3,5,4,1,2026-05-22T17:52:41.282800+05:30
Nagpur,Maharashtra,21.1458,79.0882,43.2,12,0.0,968.1,8.75,42.8,115,29.1,18.3,5.7,176.0,130.0,11.9,0,5,10,0,2026-05-22T17:52:41.282808+05:30
Nashik,Maharashtra,19.9975,73.7898,29.9,60,0.1,945.6,8.15,46.4,51,19.4,12.3,2.4,156.0,85.0,1.2,7,5,7,1,2026-05-22T17:52:41.282817+05:30
Aurangabad,Maharashtra,19.8762,75.3433,35.2,29,0.1,942.4,3.15,48.2,62,34.7,19.1,1.6,177.0,121.0,3.7,3,5,6,0,2026-05-22T17:52:41.282826+05:30
Solapur,Maharashtra,17.6599,75.9064,34.9,42,0.0,956.5,8.95,38.9,73,38.9,25.0,2.1,171.0,132.0,5.1,0,5,7,1,2026-05-22T17:52:41.282835+05:30
Kolhapur,Maharashtra,16.705,74.2433,29.8,65,0.2,949.5,7.95,45.4,42,12.1,9.2,4.4,220.0,87.0,1.8,10,5,7,1,2026-05-22T17:52:41.282843+05:30
Goa,Goa,15.2993,74.124,27.9,87,0.1,998.3,6.55,27.4,32,10.4,7.3,1.8,187.0,60.0,0.8,10,5,7,1,2026-05-22T17:52:41.282851+05:30
Jodhpur,Rajasthan,26.2389,73.0243,39.6,17,0.0,979.7,8.45,35.6,154,332.5,62.6,1.3,133.0,108.0,2.9,0,5,10,0,2026-05-22T17:52:41.282860+05:30
Udaipur,Rajasthan,24.5854,73.7125,37.0,14,0.0,944.7,8.9,40.7,59,84.8,26.8,0.8,130.0,102.0,1.7,0,5,10,0,2026-05-22T17:52:41.282868+05:30
Kota,Rajasthan,25.2138,75.8648,41.0,10,0.0,975.1,8.4,40.3,62,51.3,18.6,1.6,131.0,111.0,2.5,0,5,10,0,2026-05-22T17:52:41.282876+05:30
Bikaner,Rajasthan,28.0229,73.3119,41.1,15,0.0,977.6,8.4,25.9,165,155.5,44.7,0.5,150.0,101.0,2.1,0,5,10,0,2026-05-22T17:52:41.282884+05:30
Ajmer,Rajasthan,26.4499,74.6399,37.1,16,0.0,952.5,8.4,43.2,75,123.4,35.0,1.2,135.0,103.0,2.1,0,5,10,0,2026-05-22T17:52:41.282892+05:30
Gwalior,Madhya Pradesh,26.2183,78.1828,40.2,14,0.0,978.8,8.3,45.4,78,186.3,51.7,1.7,146.0,106.0,2.1,0,5,10,0,2026-05-22T17:52:41.282900+05:30
Indore,Madhya Pradesh,22.7196,75.8577,38.7,20,0.0,946.3,8.7,42.1,67,32.4,19.1,1.8,193.0,115.0,3.1,0,5,10,0,2026-05-22T17:52:41.282907+05:30
Bhopal,Madhya Pradesh,23.2599,77.4126,40.2,13,0.0,950.7,8.7,40.7,76,23.2,13.6,1.4,175.0,119.0,3.0,0,5,10,0,2026-05-22T17:52:41.282915+05:30
Jabalpur,Madhya Pradesh,23.1815,79.9864,40.2,11,0.0,957.6,8.9,39.6,80,22.5,10.7,2.1,141.0,116.0,1.8,0,5,10,0,2026-05-22T17:52:41.282923+05:30
Ujjain,Madhya Pradesh,23.1765,75.7885,39.0,19,0.0,951.5,8.65,40.3,65,37.3,20.4,0.9,158.0,112.0,2.7,0,5,10,0,2026-05-22T17:52:41.282931+05:30
Visakhapatnam,Andhra Pradesh,17.6868,83.2185,35.1,61,0.0,998.6,9.0,45.0,150,62.6,50.9,28.4,574.0,162.0,61.8,3,5,10,1,2026-05-22T17:52:41.282938+05:30
Vijayawada,Andhra Pradesh,16.5062,80.648,38.8,36,0.0,997.1,9.1,52.9,125,38.9,34.0,10.3,242.0,125.0,7.3,0,5,10,1,2026-05-22T17:52:41.282946+05:30
Guntur,Andhra Pradesh,16.3067,80.4365,39.2,33,0.0,998.5,9.1,52.2,119,44.4,34.2,6.2,226.0,143.0,8.4,0,5,10,1,2026-05-22T17:52:41.282954+05:30
Nellore,Andhra Pradesh,14.4426,79.9865,38.1,37,0.0,1002.0,8.2,50.0,73,49.8,33.8,3.9,178.0,133.0,5.5,0,5,7,1,2026-05-22T17:52:41.282962+05:30
Kurnool,Andhra Pradesh,15.8281,78.0373,33.8,41,0.0,974.5,9.0,46.8,70,30.2,21.3,2.6,182.0,144.0,7.3,0,5,7,1,2026-05-22T17:52:41.282970+05:30
Kakinada,Andhra Pradesh,16.9891,82.2475,39.7,41,0.0,1001.3,9.05,42.5,167,37.4,28.0,5.0,357.0,152.0,4.7,0,5,7,1,2026-05-22T17:52:41.282978+05:30
Tirupati,Andhra Pradesh,13.6288,79.4192,35.6,46,0.0,988.1,7.75,33.1,70,25.6,18.3,6.2,362.0,116.0,4.0,0,5,10,1,2026-05-22T17:52:41.282986+05:30
Warangal,Telangana,17.9689,79.5941,40.5,21,0.0,974.0,9.1,45.0,146,34.6,29.2,7.9,208.0,156.0,11.4,0,5,10,0,2026-05-22T17:52:41.282993+05:30
Nizamabad,Telangana,18.6725,78.0941,39.7,19,0.0,961.2,9.05,41.8,103,39.0,25.1,2.1,257.0,140.0,5.7,0,5,10,0,2026-05-22T17:52:41.283000+05:30
Mysore,Karnataka,12.2958,76.6396,25.2,75,0.0,928.6,8.65,52.9,40,7.5,5.8,6.3,170.0,84.0,1.6,7,5,7,1,2026-05-22T17:52:41.283009+05:30
Mangalore,Karnataka,12.9141,74.856,26.9,91,0.1,1008.3,8.1,41.8,38,7.5,4.9,2.0,138.0,60.0,1.0,10,0,4,1,2026-05-22T17:52:41.283017+05:30
Hubli-Dharwad,Karnataka,15.3647,75.124,27.0,72,0.0,941.4,8.25,41.0,33,6.8,5.4,4.1,163.0,70.0,0.8,7,5,7,1,2026-05-22T17:52:41.283025+05:30
Belgaum,Karnataka,15.8497,74.4977,26.4,78,0.1,927.0,8.6,40.7,36,9.2,7.1,4.3,162.0,74.0,1.6,10,5,7,1,2026-05-22T17:52:44.616238+05:30
Coimbatore,Tamil Nadu,11.0168,76.9558,28.6,68,0.0,961.5,8.25,55.8,38,8.1,5.9,3.7,175.0,79.0,1.7,7,5,7,1,2026-05-22T17:52:44.616270+05:30
Madurai,Tamil Nadu,9.9252,78.1198,36.1,40,0.0,990.9,8.85,51.5,59,26.9,12.5,4.2,187.0,99.0,2.0,0,5,10,1,2026-05-22T17:52:44.616281+05:30
Trichy,Tamil Nadu,10.7905,78.7047,35.7,42,0.0,996.4,8.9,55.1,44,11.3,8.3,7.7,204.0,90.0,2.6,0,5,10,1,2026-05-22T17:52:44.616291+05:30
Salem,Tamil Nadu,11.6643,78.146,35.2,43,0.0,975.7,8.85,43.6,81,24.0,12.7,4.6,192.0,119.0,5.8,0,5,10,1,2026-05-22T17:52:44.616301+05:30
Tirunelveli,Tamil Nadu,8.7139,77.7567,33.7,46,0.0,1001.6,8.3,51.1,34,5.5,4.4,2.5,123.0,72.0,0.9,0,5,4,1,2026-05-22T17:52:44.616310+05:30
Vellore,Tamil Nadu,12.9165,79.1325,33.9,48,0.0,981.9,8.4,53.3,73,47.7,22.8,8.8,218.0,117.0,3.6,0,5,7,1,2026-05-22T17:52:44.616319+05:30
Erode,Tamil Nadu,11.341,77.7172,34.8,40,0.0,986.8,8.75,49.0,46,10.4,6.9,4.8,179.0,96.0,1.9,0,5,7,1,2026-05-22T17:52:44.616329+05:30
Kochi,Kerala,9.9312,76.2673,27.2,88,0.2,1010.4,8.15,33.5,49,9.5,7.1,5.5,207.0,63.0,2.5,10,0,4,1,2026-05-22T17:52:44.616338+05:30
Thiruvananthapuram,Kerala,8.5241,76.9366,25.8,91,0.1,1009.3,7.95,40.0,31,10.4,6.3,1.6,118.0,67.0,0.5,10,0,4,1,2026-05-22T17:52:44.616347+05:30
Kozhikode,Kerala,11.2588,75.7804,27.6,86,0.0,1009.1,7.6,43.2,30,6.3,3.9,0.7,172.0,62.0,0.4,7,0,4,1,2026-05-22T17:52:44.616356+05:30
Thrissur,Kerala,10.5276,76.2144,26.1,92,0.1,1008.7,8.05,37.4,48,7.8,6.1,3.3,182.0,63.0,1.6,10,0,4,1,2026-05-22T17:52:44.616366+05:30
Kannur,Kerala,11.8745,75.3704,27.6,86,0.0,1008.3,7.9,41.8,34,7.0,4.7,2.4,125.0,60.0,0.8,7,0,4,1,2026-05-22T17:52:44.616374+05:30
Patna,Bihar,25.5941,85.1376,36.9,54,0.0,994.4,8.85,28.4,202,90.6,71.9,9.9,468.0,202.0,19.9,0,5,10,1,2026-05-22T17:52:44.616383+05:30
Gaya,Bihar,24.7914,85.0002,38.0,33,0.0,987.5,8.9,29.5,175,166.7,64.5,11.3,342.0,133.0,12.1,0,5,10,1,2026-05-22T17:52:44.616392+05:30
Muzaffarpur,Bihar,26.1209,85.3647,30.3,79,0.0,995.1,8.85,31.3,185,84.5,67.5,12.0,447.0,180.0,19.3,3,5,7,1,2026-05-22T17:52:44.616400+05:30
Bhagalpur,Bihar,25.2425,87.0117,33.0,68,0.0,995.9,8.8,33.8,160,52.4,43.5,9.7,401.0,196.0,25.1,3,5,7,1,2026-05-22T17:52:44.616408+05:30
Ranchi,Jharkhand,23.3441,85.3096,32.8,33,0.0,933.9,9.3,29.2,153,54.7,22.9,7.1,295.0,116.0,5.3,0,5,7,0,2026-05-22T17:52:44.616417+05:30
Jamshedpur,Jharkhand,22.8046,86.2029,36.0,50,0.0,985.1,9.1,33.5,184,102.2,73.3,11.5,418.0,177.0,27.9,0,5,10,1,2026-05-22T17:52:44.616425+05:30
Dhanbad,Jharkhand,23.7957,86.4304,36.0,53,0.0,974.2,9.05,33.5,174,124.8,90.1,42.3,278.0,135.0,118.7,0,5,10,1,2026-05-22T17:52:44.616434+05:30
Bokaro,Jharkhand,23.6693,86.1511,35.5,50,0.0,977.9,9.1,28.8,177,104.8,61.9,30.1,378.0,135.0,108.5,0,5,10,1,2026-05-22T17:52:44.616442+05:30
Bhubaneswar,Odisha,20.2961,85.8245,33.6,70,0.0,996.9,9.15,42.8,117,57.5,42.4,6.6,292.0,117.0,7.4,3,5,7,1,2026-05-22T17:52:44.616450+05:30
Cuttack,Odisha,20.4625,85.8828,33.8,71,0.0,998.7,9.2,36.4,117,57.5,42.4,6.6,305.0,117.0,7.4,3,5,7,1,2026-05-22T17:52:44.616459+05:30
Rourkela,Odisha,22.2604,84.8536,33.6,54,0.0,978.9,9.0,44.3,203,77.3,51.0,11.5,487.0,144.0,10.0,0,5,7,1,2026-05-22T17:52:44.616467+05:30
Raipur,Chhattisgarh,21.2514,81.6296,42.5,13,0.0,969.0,9.0,41.4,149,31.0,25.3,21.0,157.0,109.0,23.3,0,5,10,0,2026-05-22T17:52:44.616475+05:30
Bhilai,Chhattisgarh,21.1938,81.3509,41.3,15,0.0,969.5,8.7,38.2,102,32.9,27.3,23.8,199.0,104.0,30.5,0,5,10,0,2026-05-22T17:52:44.616483+05:30
Guwahati,Assam,26.1158,91.7086,27.9,88,0.0,997.9,8.8,23.0,87,20.3,17.0,5.3,361.0,89.0,1.8,7,5,7,1,2026-05-22T17:52:44.616492+05:30
Agartala,Tripura,23.8315,91.2868,29.4,83,0.0,1002.4,8.85,29.5,99,42.8,31.9,11.2,246.0,104.0,4.5,7,5,4,1,2026-05-22T17:52:44.616501+05:30
Shillong,Meghalaya,25.5788,91.8933,21.6,85,0.0,855.9,7.25,24.5,69,11.1,8.6,8.1,285.0,83.0,2.0,3,5,7,1,2026-05-22T17:52:44.616509+05:30
Imphal,Manipur,24.817,93.9368,26.5,75,0.0,921.1,9.3,35.6,89,23.3,17.8,6.3,281.0,83.0,2.5,7,5,7,1,2026-05-22T17:52:44.616518+05:30
Aizawl,Mizoram,23.7271,92.7176,20.8,98,0.3,890.7,8.35,28.4,70,23.7,15.0,4.2,224.0,82.0,1.4,6,5,7,1,2026-05-22T17:52:44.616527+05:30
Kohima,Nagaland,25.6701,94.1077,20.8,93,0.0,854.0,9.2,25.9,81,25.9,20.0,5.1,238.0,91.0,1.9,3,5,7,1,2026-05-22T17:52:44.616535+05:30
Gangtok,Sikkim,27.3314,88.6138,19.8,90,0.2,836.0,9.15,34.6,89,11.4,8.6,6.3,316.0,119.0,1.8,6,10,7,1,2026-05-22T17:52:44.616543+05:30
Siliguri,West Bengal,26.7271,88.3953,29.0,76,0.0,988.9,8.7,21.2,119,39.3,26.8,8.7,586.0,131.0,4.1,7,5,7,1,2026-05-22T17:52:48.005362+05:30
Durgapur,West Bengal,23.5204,87.3119,29.1,93,0.2,990.5,9.0,38.2,159,86.6,65.9,22.1,537.0,128.0,44.0,10,5,7,1,2026-05-22T17:52:48.005407+05:30
Asansol,West Bengal,23.6739,86.9524,30.8,88,0.0,988.0,9.05,39.6,157,100.6,73.1,26.2,784.0,134.0,41.8,3,5,7,1,2026-05-22T17:52:48.005420+05:30
Pondicherry,Puducherry,11.9139,79.8145,30.5,83,0.0,1004.8,8.95,45.7,131,35.0,27.9,20.1,258.0,143.0,7.8,3,5,4,1,2026-05-22T17:52:48.005429+05:30
Port Blair,Andaman and Nicobar Islands,11.6234,92.7265,26.0,90,0.0,1006.7,1.35,34.2,28,3.4,2.2,0.6,144.0,60.0,0.2,7,5,0,1,2026-05-22T17:52:48.005439+05:30
Haridwar,Uttarakhand,29.9457,78.1642,37.0,22,0.0,969.7,7.55,27.7,173,138.3,34.8,2.7,219.0,135.0,4.5,0,5,10,0,2026-05-22T17:52:48.005448+05:30
Rishikesh,Uttarakhand,30.0869,78.2676,35.0,26,0.0,962.8,7.7,30.2,145,142.5,35.3,1.4,204.0,139.0,4.0,0,5,7,0,2026-05-22T17:52:48.005458+05:30
Nainital,Uttarakhand,29.3919,79.4542,23.3,44,0.0,807.6,8.5,50.4,159,184.4,57.2,2.2,239.0,158.0,9.0,0,5,7,0,2026-05-22T17:52:48.005471+05:30
Mussoorie,Uttarakhand,30.4599,78.0664,21.7,40,0.0,804.5,8.1,45.7,131,127.6,29.9,2.3,182.0,128.0,2.9,0,5,7,0,2026-05-22T17:52:48.005481+05:30
Dharamshala,Himachal Pradesh,32.219,76.3234,25.5,40,0.0,869.7,8.25,42.1,61,53.0,14.6,1.0,156.0,113.0,1.0,4,5,7,0,2026-05-22T17:52:48.005490+05:30
Dalhousie,Himachal Pradesh,32.5387,75.971,20.2,45,0.0,806.2,8.45,45.0,72,63.3,19.1,2.6,163.0,122.0,1.5,0,5,7,0,2026-05-22T17:52:48.005500+05:30
Patiala,Punjab,30.3398,76.3869,38.3,20,0.0,974.9,7.65,53.3,532,750.6,95.2,2.4,182.0,131.0,5.5,0,5,10,0,2026-05-22T17:52:48.005509+05:30
Bhatinda,Punjab,30.211,74.9455,39.2,19,0.0,980.1,8.3,40.0,101,78.2,26.8,2.8,200.0,134.0,6.9,0,5,10,0,2026-05-22T17:52:48.005517+05:30
Rohtak,Haryana,28.8955,76.6066,39.2,17,0.0,977.5,7.8,34.9,769,793.5,142.0,8.3,210.0,120.0,6.0,0,5,10,0,2026-05-22T17:52:48.005525+05:30
Panipat,Haryana,29.3909,76.9635,38.8,17,0.0,976.0,7.65,42.8,1609,584.9,106.2,5.6,188.0,118.0,8.3,0,5,10,0,2026-05-22T17:52:48.005533+05:30
Mathura,Uttar Pradesh,27.4924,77.6737,40.2,17,0.0,981.4,8.05,41.8,673,1017.0,139.7,5.5,179.0,113.0,3.3,0,5,10,0,2026-05-22T17:52:48.005542+05:30
Vrindavan,Uttar Pradesh,27.5823,77.7027,39.8,18,0.0,982.0,8.0,40.0,673,1017.0,139.7,5.5,186.0,113.0,3.3,0,5,10,0,2026-05-22T17:52:48.005550+05:30
Ayodhya,Uttar Pradesh,26.7922,82.1998,38.1,42,0.0,989.2,8.4,29.5,166,128.1,54.0,4.4,361.0,162.0,10.6,0,5,10,1,2026-05-22T17:52:48.005559+05:30
Ratlam,Madhya Pradesh,23.3315,75.0367,37.7,20,0.0,953.0,8.6,38.5,66,41.9,21.7,0.7,141.0,111.0,2.7,0,5,10,0,2026-05-22T17:52:48.005567+05:30
Sagar,Madhya Pradesh,23.8388,78.7378,39.3,13,0.0,947.3,8.75,39.6,65,46.7,16.8,1.0,138.0,118.0,2.4,0,5,10,0,2026-05-22T17:52:48.005575+05:30
Satna,Madhya Pradesh,24.6005,80.8322,39.5,14,0.0,966.8,8.8,39.2,71,56.5,16.7,1.6,152.0,118.0,1.9,0,5,10,0,2026-05-22T17:52:48.005583+05:30
Akola,Maharashtra,20.7002,77.0082,40.2,20,0.0,971.6,8.9,49.7,91,37.4,22.7,2.5,155.0,127.0,7.1,0,5,10,0,2026-05-22T17:52:48.005593+05:30
Amravati,Maharashtra,20.9374,77.7796,41.0,15,0.0,963.2,8.85,45.4,87,36.9,22.7,3.0,169.0,128.0,7.5,0,5,10,0,2026-05-22T17:52:48.005602+05:30
Latur,Maharashtra,18.4088,76.5604,36.2,39,0.0,939.3,9.0,41.0,89,62.2,41.0,2.3,202.0,131.0,5.4,0,5,10,1,2026-05-22T17:52:48.005610+05:30
Nanded,Maharashtra,19.1383,77.3091,39.9,21,0.0,965.5,8.95,39.6,105,47.7,29.7,2.1,169.0,136.0,6.5,0,5,10,0,2026-05-22T17:52:48.005618+05:30
Gulbarga,Karnataka,17.3297,76.8343,33.3,43,0.0,957.0,8.95,51.5,76,36.9,24.3,3.0,204.0,137.0,5.5,0,5,7,1,2026-05-22T17:52:48.005626+05:30
Bidar,Karnataka,17.9104,77.5199,34.2,36,0.0,934.3,9.0,56.9,105,44.1,28.3,2.8,235.0,143.0,6.9,0,5,7,1,2026-05-22T17:52:48.005634+05:30
Hospet,Karnataka,15.2689,76.3909,32.0,52,0.0,955.3,9.05,46.4,40,16.5,11.6,4.6,208.0,99.0,2.9,0,5,7,1,2026-05-22T17:52:48.005642+05:30
Tirupur,Tamil Nadu,11.1085,77.3411,31.4,59,0.0,973.9,8.35,61.9,44,10.0,7.0,4.6,162.0,90.0,2.2,0,5,7,1,2026-05-22T17:52:48.005650+05:30
Alappuzha,Kerala,9.4981,76.3388,27.0,87,0.2,1010.4,7.95,36.4,36,8.5,5.8,3.6,101.0,65.0,1.2,10,0,4,1,2026-05-22T17:52:48.005659+05:30
Munnar,Kerala,10.0889,77.0595,18.0,99,0.3,857.8,5.1,32.0,33,5.8,4.6,3.7,140.0,71.0,1.3,6,10,3,1,2026-05-22T17:52:48.005668+05:30
Silchar,Assam,24.8333,92.7789,27.5,92,0.2,1001.7,8.95,24.8,91,32.9,22.2,5.9,285.0,92.0,3.7,10,5,4,1,2026-05-22T17:52:48.005677+05:30
Dibrugarh,Assam,27.4728,94.912,27.7,89,0.0,991.8,8.95,27.4,97,41.6,33.9,8.0,293.0,91.0,2.2,7,5,7,1,2026-05-22T17:52:48.005685+05:30
