city,state,latitude,longitude,temp,humidity,rain,pressure,uv_index,wind_gusts,aqi,pm10,pm2_5,no2,co,o3,so2,mosquito_risk,arthritis_risk,migraine_risk,frizz_risk,updated_at
Delhi,Delhi,28.6139,77.209,29.9,77,0.0,975.3,7.7,21.2,164,54.8,36.3,27.5,888.0,140.0,27.4,7,5,7,1,2026-07-02T19:37:09.708463+05:30
Mumbai,Maharashtra,19.076,72.8777,26.1,93,0.6,1004.5,1.45,45.4,40,21.1,11.5,10.2,247.0,51.0,6.8,10,5,0,1,2026-07-02T19:37:09.708506+05:30
Bangalore,Karnataka,12.9716,77.5946,23.7,76,0.0,910.9,4.5,61.6,27,5.0,4.2,12.7,410.0,44.0,3.5,3,5,3,1,2026-07-02T19:37:09.708521+05:30
Hyderabad,Telangana,17.385,78.4867,26.6,70,0.0,949.5,5.45,50.4,29,9.5,7.7,10.0,253.0,56.0,4.3,7,5,3,1,2026-07-02T19:37:09.708531+05:30
Chennai,Tamil Nadu,13.0827,80.2707,30.1,73,0.0,1004.2,6.4,45.0,48,13.1,10.8,13.8,363.0,74.0,7.2,3,5,4,1,2026-07-02T19:37:09.708539+05:30
Kolkata,West Bengal,22.5726,88.3639,26.9,97,0.1,999.6,7.9,37.8,62,26.0,25.2,15.5,759.0,58.0,10.0,10,5,7,1,2026-07-02T19:37:09.708547+05:30
Pune,Maharashtra,18.5204,73.8567,23.0,92,0.1,944.2,1.25,45.4,21,4.9,3.9,11.6,189.0,40.0,5.6,6,5,3,1,2026-07-02T19:37:09.708555+05:30
Ahmedabad,Gujarat,23.0225,72.5714,30.2,73,0.0,995.7,6.75,43.9,56,16.2,11.3,11.9,215.0,60.0,5.9,3,5,7,1,2026-07-02T19:37:09.708562+05:30
Jaipur,Rajasthan,26.9124,75.7873,31.2,71,0.0,952.5,8.15,23.4,122,154.6,55.8,22.4,522.0,64.0,8.3,3,5,7,1,2026-07-02T19:37:09.708569+05:30
Lucknow,Uttar Pradesh,26.8467,80.9462,30.7,82,0.0,986.2,7.0,26.3,135,33.4,33.2,22.0,578.0,103.0,11.6,3,5,7,1,2026-07-02T19:37:09.708581+05:30
Kanpur,Uttar Pradesh,26.4499,80.3319,31.3,77,0.0,984.1,6.65,19.4,135,30.2,28.4,17.0,382.0,115.0,9.7,3,5,7,1,2026-07-02T19:37:09.708588+05:30
Chandigarh,Chandigarh,30.7333,76.7794,28.7,81,0.0,961.9,5.5,40.7,159,53.1,36.8,42.0,814.0,108.0,11.8,7,5,3,1,2026-07-02T19:37:09.708595+05:30
Srinagar,Jammu and Kashmir,34.0837,74.7973,24.7,69,0.0,838.6,9.05,21.2,116,28.1,20.5,15.0,872.0,101.0,3.4,3,5,7,1,2026-07-02T19:37:09.708602+05:30
Jammu,Jammu and Kashmir,32.7266,74.857,30.5,68,0.0,965.7,8.55,26.6,150,115.3,57.3,31.3,531.0,105.0,6.2,3,5,7,1,2026-07-02T19:37:09.708609+05:30
Amritsar,Punjab,31.634,74.8723,30.9,74,0.0,973.2,8.45,28.8,177,191.9,92.4,23.3,556.0,91.0,6.4,3,5,7,1,2026-07-02T19:37:09.708615+05:30
Ludhiana,Punjab,30.901,75.8573,30.4,79,0.0,971.2,4.3,28.8,151,125.7,62.9,29.6,519.0,99.0,11.5,3,5,3,1,2026-07-02T19:37:09.708624+05:30
Jalandhar,Punjab,31.326,75.5762,30.1,79,0.0,972.3,6.1,31.3,158,184.4,91.0,33.0,482.0,93.0,8.9,3,5,7,1,2026-07-02T19:37:09.708630+05:30
Dehradun,Uttarakhand,30.6284,78.0322,19.4,95,0.0,826.9,5.7,25.2,95,7.7,7.1,12.2,252.0,117.0,1.9,3,10,3,1,2026-07-02T19:37:09.708637+05:30
Shimla,Himachal Pradesh,31.1048,77.1734,16.6,96,0.0,780.9,6.15,25.2,101,21.1,13.2,14.1,450.0,111.0,1.6,3,10,7,0,2026-07-02T19:37:09.708645+05:30
Manali,Himachal Pradesh,32.2396,77.1887,20.8,84,0.0,816.1,9.0,42.5,108,26.2,25.8,94.3,258.0,59.0,0.3,3,5,7,1,2026-07-02T19:37:09.708653+05:30
Gurgaon,Haryana,28.4595,77.0266,29.7,75,0.0,973.8,7.8,24.8,205,103.6,60.1,31.6,922.0,166.0,32.0,7,5,7,1,2026-07-02T19:37:09.708660+05:30
Noida,Uttar Pradesh,28.5355,77.391,30.2,76,0.0,976.8,7.65,21.2,205,103.6,60.1,31.6,754.0,166.0,32.0,3,5,7,1,2026-07-02T19:37:09.708666+05:30
Ghaziabad,Uttar Pradesh,28.6692,77.4538,29.8,78,0.0,975.1,7.35,20.5,139,29.0,26.0,18.6,476.0,111.0,12.0,7,5,7,1,2026-07-02T19:37:09.708672+05:30
Faridabad,Haryana,28.4089,77.3178,30.0,76,0.0,976.0,7.7,25.6,205,103.6,60.1,31.6,642.0,166.0,32.0,7,5,7,1,2026-07-02T19:37:09.708680+05:30
Meerut,Uttar Pradesh,28.9845,77.7064,29.3,82,0.0,974.1,7.55,26.3,139,29.0,26.0,18.6,537.0,111.0,12.0,7,5,7,1,2026-07-02T19:37:09.708686+05:30
Agra,Uttar Pradesh,27.1767,78.0081,30.6,68,0.0,980.0,7.4,33.1,129,95.0,46.4,19.6,531.0,102.0,10.9,3,5,7,1,2026-07-02T19:37:09.708692+05:30
Varanasi,Uttar Pradesh,25.3176,82.9739,30.3,81,0.0,990.5,5.5,29.2,119,42.3,42.3,18.9,520.0,93.0,11.6,3,5,3,1,2026-07-02T19:37:09.708717+05:30
Prayagraj,Uttar Pradesh,25.4358,81.8463,29.7,84,0.0,988.8,6.95,23.4,118,32.0,31.9,12.3,600.0,106.0,7.2,7,5,7,1,2026-07-02T19:37:09.708727+05:30
Gorakhpur,Uttar Pradesh,26.7606,83.3732,30.1,84,0.0,990.7,8.15,32.8,123,32.1,32.1,13.8,454.0,89.0,6.5,3,5,7,1,2026-07-02T19:37:09.708734+05:30
Bareilly,Uttar Pradesh,28.367,79.4304,29.6,83,0.0,979.7,7.3,32.8,132,42.4,41.6,21.5,501.0,101.0,13.2,7,5,7,1,2026-07-02T19:37:09.708743+05:30
Aligarh,Uttar Pradesh,27.8974,78.088,30.8,64,0.0,977.8,7.2,29.5,158,75.9,44.0,20.4,505.0,119.0,16.6,3,5,7,1,2026-07-02T19:37:09.708749+05:30
Moradabad,Uttar Pradesh,28.8386,78.7733,29.6,81,0.0,976.7,6.75,36.0,118,53.9,49.0,25.7,406.0,100.0,14.7,7,5,7,1,2026-07-02T19:37:09.708755+05:30
Saharanpur,Uttar Pradesh,29.9637,77.546,28.8,84,0.0,968.7,7.25,36.0,115,42.3,38.2,22.6,548.0,104.0,7.9,7,5,7,1,2026-07-02T19:37:09.708762+05:30
Jhansi,Uttar Pradesh,25.4484,78.5685,28.9,81,0.0,970.7,7.7,35.3,97,53.1,28.6,10.6,245.0,89.0,5.3,7,5,7,1,2026-07-02T19:37:12.989542+05:30
Surat,Gujarat,21.1702,72.8311,26.2,95,0.2,1000.9,0.5,29.5,59,19.0,17.1,33.5,482.0,22.0,45.2,10,5,0,1,2026-07-02T19:37:12.989573+05:30
Vadodara,Gujarat,22.3072,73.1812,28.0,85,0.0,998.3,7.45,37.8,47,13.1,10.7,15.9,269.0,49.0,5.0,7,5,7,1,2026-07-02T19:37:12.989584+05:30
Rajkot,Gujarat,22.3039,70.8022,28.3,81,0.0,987.9,5.7,47.2,56,13.5,8.3,5.8,155.0,56.0,4.2,7,5,3,1,2026-07-02T19:37:12.989592+05:30
Thane,Maharashtra,19.2183,72.9781,24.8,98,0.4,1004.0,1.1,35.6,40,21.1,11.5,10.2,297.0,51.0,6.8,6,5,0,1,2026-07-02T19:37:12.989600+05:30
Nagpur,Maharashtra,21.1458,79.0882,26.5,93,0.1,967.8,1.4,34.2,65,10.5,10.0,14.6,286.0,63.0,15.9,10,5,3,1,2026-07-02T19:37:12.989608+05:30
Nashik,Maharashtra,19.9975,73.7898,23.0,95,0.1,940.6,2.05,54.4,21,2.2,2.2,8.1,155.0,43.0,2.3,6,5,3,1,2026-07-02T19:37:12.989616+05:30
Aurangabad,Maharashtra,19.8762,75.3433,23.9,91,0.1,939.4,5.85,52.2,28,3.1,3.0,8.6,184.0,45.0,6.1,6,5,3,1,2026-07-02T19:37:12.989623+05:30
Solapur,Maharashtra,17.6599,75.9064,27.1,70,0.0,954.3,6.05,54.4,29,5.7,4.5,5.4,137.0,48.0,2.2,7,5,7,1,2026-07-02T19:37:12.989631+05:30
Kolhapur,Maharashtra,16.705,74.2433,22.4,93,0.0,945.5,1.85,46.4,22,5.0,4.5,7.8,172.0,41.0,2.2,3,5,3,1,2026-07-02T19:37:12.989638+05:30
Goa,Goa,15.2993,74.124,24.9,98,0.0,996.7,4.85,33.5,39,20.3,12.0,4.5,270.0,48.0,1.0,3,5,3,1,2026-07-02T19:37:12.989646+05:30
Jodhpur,Rajasthan,26.2389,73.0243,37.7,35,0.0,974.8,8.4,46.1,120,114.1,35.3,12.4,156.0,62.0,2.6,0,5,10,1,2026-07-02T19:37:12.989653+05:30
Udaipur,Rajasthan,24.5854,73.7125,26.9,82,0.0,940.7,7.7,31.3,63,15.8,10.9,6.7,194.0,68.0,1.9,7,5,7,1,2026-07-02T19:37:12.989660+05:30
Kota,Rajasthan,25.2138,75.8648,30.4,75,0.0,971.7,7.3,35.6,74,38.8,25.8,12.8,326.0,81.0,9.3,3,5,7,1,2026-07-02T19:37:12.989668+05:30
Bikaner,Rajasthan,28.0229,73.3119,36.3,41,0.0,973.5,8.45,33.5,152,199.3,61.2,3.3,185.0,68.0,2.1,0,5,10,1,2026-07-02T19:37:12.989676+05:30
Ajmer,Rajasthan,26.4499,74.6399,30.6,64,0.0,947.9,8.05,50.0,93,73.6,37.7,13.4,203.0,60.0,2.6,3,5,7,1,2026-07-02T19:37:12.989684+05:30
Gwalior,Madhya Pradesh,26.2183,78.1828,31.1,72,0.0,975.5,8.15,43.2,101,91.0,39.3,9.3,398.0,109.0,4.9,3,5,7,1,2026-07-02T19:37:12.989691+05:30
Indore,Madhya Pradesh,22.7196,75.8577,25.0,96,0.1,942.4,3.7,42.8,62,16.2,13.9,9.1,474.0,76.0,3.2,10,5,3,1,2026-07-02T19:37:12.989697+05:30
Bhopal,Madhya Pradesh,23.2599,77.4126,24.8,95,0.3,947.8,7.3,37.4,71,32.1,23.5,5.9,436.0,93.0,2.9,6,5,7,1,2026-07-02T19:37:12.989725+05:30
Jabalpur,Madhya Pradesh,23.1815,79.9864,24.4,98,0.1,955.4,3.7,25.6,67,41.6,28.1,16.8,241.0,60.0,5.1,6,5,3,1,2026-07-02T19:37:12.989734+05:30
Ujjain,Madhya Pradesh,23.1765,75.7885,24.9,95,0.4,947.9,7.2,32.0,57,22.4,17.6,6.2,319.0,78.0,2.4,6,5,7,1,2026-07-02T19:37:12.989742+05:30
Visakhapatnam,Andhra Pradesh,17.6868,83.2185,26.9,90,0.2,997.0,2.5,38.9,53,14.3,13.5,24.1,286.0,54.0,40.6,10,5,3,1,2026-07-02T19:37:12.989750+05:30
Vijayawada,Andhra Pradesh,16.5062,80.648,31.7,55,0.0,997.9,7.0,58.3,41,20.3,16.6,10.8,217.0,58.0,5.5,0,5,7,1,2026-07-02T19:37:12.989757+05:30
Guntur,Andhra Pradesh,16.3067,80.4365,31.3,57,0.0,999.2,7.4,56.5,36,19.9,16.3,11.2,256.0,56.0,5.2,0,5,7,1,2026-07-02T19:37:12.989764+05:30
Nellore,Andhra Pradesh,14.4426,79.9865,26.8,84,0.2,1003.4,7.9,47.5,37,14.1,10.9,7.0,129.0,76.0,3.9,10,5,4,1,2026-07-02T19:37:12.989772+05:30
Kurnool,Andhra Pradesh,15.8281,78.0373,27.4,76,0.0,974.4,7.1,63.7,33,9.4,6.4,5.9,136.0,57.0,2.7,7,5,7,1,2026-07-02T19:37:12.989779+05:30
Kakinada,Andhra Pradesh,16.9891,82.2475,28.9,75,0.0,1002.1,7.85,64.4,42,13.9,10.4,6.4,260.0,71.0,4.8,7,5,4,1,2026-07-02T19:37:12.989786+05:30
Tirupati,Andhra Pradesh,13.6288,79.4192,31.4,56,0.0,988.3,7.55,49.0,32,9.4,8.5,14.9,137.0,41.0,2.5,0,5,7,1,2026-07-02T19:37:12.989793+05:30
Warangal,Telangana,17.9689,79.5941,27.7,77,0.0,974.4,3.55,52.2,30,11.7,10.1,8.8,183.0,47.0,3.1,7,5,3,1,2026-07-02T19:37:12.989799+05:30
Nizamabad,Telangana,18.6725,78.0941,25.1,86,0.2,960.7,1.1,45.7,29,10.0,8.2,9.7,175.0,46.0,6.2,10,5,3,1,2026-07-02T19:37:12.989806+05:30
Mysore,Karnataka,12.2958,76.6396,22.5,87,0.0,927.8,7.25,60.5,26,4.2,3.5,8.9,156.0,43.0,1.9,3,5,7,1,2026-07-02T19:37:12.989813+05:30
Mangalore,Karnataka,12.9141,74.856,24.9,93,0.0,1007.3,4.65,43.2,25,18.7,10.1,6.2,157.0,44.0,1.7,3,5,0,1,2026-07-02T19:37:12.989820+05:30
Hubli-Dharwad,Karnataka,15.3647,75.124,22.4,97,0.0,939.1,7.65,54.7,23,2.1,1.9,7.7,138.0,42.0,1.1,3,5,7,1,2026-07-02T19:37:12.989827+05:30
Belgaum,Karnataka,15.8497,74.4977,21.2,99,0.0,923.5,7.45,50.8,22,4.0,2.8,5.5,139.0,44.0,1.3,3,5,7,1,2026-07-02T19:37:16.265599+05:30
Coimbatore,Tamil Nadu,11.0168,76.9558,24.1,89,0.0,960.9,8.35,61.2,27,5.9,5.2,7.9,222.0,41.0,2.6,3,5,7,1,2026-07-02T19:37:16.265630+05:30
Madurai,Tamil Nadu,9.9252,78.1198,31.0,53,0.0,991.1,8.65,56.5,44,7.9,5.5,6.6,163.0,60.0,2.7,0,5,7,1,2026-07-02T19:37:16.265641+05:30
Trichy,Tamil Nadu,10.7905,78.7047,31.4,53,0.0,997.9,8.75,63.7,34,5.6,4.2,4.8,126.0,56.0,2.2,0,5,7,1,2026-07-02T19:37:16.265650+05:30
Salem,Tamil Nadu,11.6643,78.146,28.9,68,0.0,976.1,8.2,34.9,38,7.9,6.6,8.6,457.0,60.0,5.6,7,5,7,1,2026-07-02T19:37:16.265658+05:30
Tirunelveli,Tamil Nadu,8.7139,77.7567,30.3,58,0.0,1002.3,8.65,51.5,31,6.3,4.8,4.8,133.0,48.0,1.5,0,5,4,1,2026-07-02T19:37:16.265666+05:30
Vellore,Tamil Nadu,12.9165,79.1325,31.3,54,0.0,981.9,7.65,45.0,33,5.3,4.9,7.6,150.0,57.0,2.9,0,5,7,1,2026-07-02T19:37:16.265674+05:30
Erode,Tamil Nadu,11.341,77.7172,28.5,65,0.0,987.7,8.65,52.6,34,7.8,6.6,11.2,214.0,49.0,2.8,7,5,7,1,2026-07-02T19:37:16.265682+05:30
Kochi,Kerala,9.9312,76.2673,26.3,93,0.1,1009.8,8.45,43.2,51,15.9,12.9,16.6,156.0,30.0,4.2,10,0,4,1,2026-07-02T19:37:16.265689+05:30
Thiruvananthapuram,Kerala,8.5241,76.9366,26.8,81,0.0,1008.9,8.45,46.8,46,12.3,7.0,3.2,121.0,44.0,1.1,7,0,4,1,2026-07-02T19:37:16.265697+05:30
Kozhikode,Kerala,11.2588,75.7804,24.5,98,0.0,1009.2,8.1,35.3,26,9.6,5.1,1.5,217.0,55.0,0.8,3,0,4,1,2026-07-02T19:37:16.265724+05:30
Thrissur,Kerala,10.5276,76.2144,25.7,91,0.1,1008.2,8.55,34.2,46,13.8,11.8,11.2,359.0,33.0,3.0,10,0,4,1,2026-07-02T19:37:16.265735+05:30
Kannur,Kerala,11.8745,75.3704,24.6,96,0.4,1008.5,8.6,36.7,22,15.3,10.2,12.1,241.0,34.0,1.9,6,0,4,1,2026-07-02T19:37:16.265742+05:30
Patna,Bihar,25.5941,85.1376,30.3,81,0.0,993.9,5.8,34.6,125,34.9,34.8,18.1,397.0,97.0,14.0,3,5,3,1,2026-07-02T19:37:16.265750+05:30
Gaya,Bihar,24.7914,85.0002,27.6,95,0.3,987.3,6.45,27.0,92,29.0,28.8,11.3,332.0,96.0,8.5,10,5,7,1,2026-07-02T19:37:16.265758+05:30
Muzaffarpur,Bihar,26.1209,85.3647,30.0,82,0.0,994.2,6.55,35.6,113,33.8,33.6,19.6,386.0,81.0,11.1,7,5,7,1,2026-07-02T19:37:16.265765+05:30
Bhagalpur,Bihar,25.2425,87.0117,29.1,81,0.0,995.2,6.0,35.3,90,26.9,26.5,12.4,304.0,94.0,10.2,7,5,3,1,2026-07-02T19:37:16.265773+05:30
Ranchi,Jharkhand,23.3441,85.3096,24.1,96,0.0,931.1,6.8,37.4,89,26.7,26.7,15.2,759.0,78.0,18.6,3,5,7,1,2026-07-02T19:37:16.265781+05:30
Jamshedpur,Jharkhand,22.8046,86.2029,27.6,87,0.0,983.9,7.1,32.8,96,18.6,18.5,12.5,377.0,68.0,8.7,7,5,7,1,2026-07-02T19:37:16.265788+05:30
Dhanbad,Jharkhand,23.7957,86.4304,28.3,85,0.0,973.3,7.8,36.7,124,44.0,43.8,35.6,496.0,89.0,73.6,7,5,7,1,2026-07-02T19:37:16.265795+05:30
Bokaro,Jharkhand,23.6693,86.1511,28.1,88,0.0,976.9,7.0,37.8,124,43.3,43.1,32.5,449.0,98.0,79.9,7,5,7,1,2026-07-02T19:37:16.265802+05:30
Bhubaneswar,Odisha,20.2961,85.8245,26.8,96,0.2,994.7,8.75,23.4,93,19.2,18.6,12.5,590.0,92.0,7.4,10,5,7,1,2026-07-02T19:37:16.265809+05:30
Cuttack,Odisha,20.4625,85.8828,27.6,94,0.2,996.4,8.45,24.8,93,19.2,18.6,12.5,466.0,92.0,7.4,10,5,7,1,2026-07-02T19:37:16.265816+05:30
Rourkela,Odisha,22.2604,84.8536,26.4,97,0.0,977.5,5.75,34.6,120,40.6,40.5,16.5,1097.0,108.0,26.6,7,5,3,1,2026-07-02T19:37:16.265824+05:30
Raipur,Chhattisgarh,21.2514,81.6296,26.2,94,0.1,968.0,5.0,35.6,84,26.5,25.5,33.5,546.0,54.0,52.7,10,5,3,1,2026-07-02T19:37:16.265831+05:30
Bhilai,Chhattisgarh,21.1938,81.3509,25.7,96,0.2,968.7,4.7,38.5,74,21.4,20.7,24.0,919.0,63.0,39.4,10,5,3,1,2026-07-02T19:37:16.265839+05:30
Guwahati,Assam,26.1158,91.7086,28.6,94,0.0,996.0,7.8,22.7,47,7.5,7.4,6.9,423.0,61.0,1.3,7,5,7,1,2026-07-02T19:37:16.265846+05:30
Agartala,Tripura,23.8315,91.2868,28.3,86,0.0,1000.7,8.05,28.4,55,15.0,14.8,10.1,235.0,67.0,2.4,7,5,4,1,2026-07-02T19:37:16.265853+05:30
Shillong,Meghalaya,25.5788,91.8933,20.8,96,0.0,854.5,8.55,26.6,39,7.3,7.2,9.5,416.0,58.0,1.7,3,5,7,1,2026-07-02T19:37:16.265860+05:30
Imphal,Manipur,24.817,93.9368,25.6,86,0.0,920.0,9.0,25.9,49,12.2,12.0,12.2,782.0,43.0,2.4,7,5,7,1,2026-07-02T19:37:16.265867+05:30
Aizawl,Mizoram,23.7271,92.7176,22.1,98,0.0,888.7,8.9,16.6,41,8.0,7.8,10.8,199.0,33.0,0.9,3,5,7,1,2026-07-02T19:37:16.265874+05:30
Kohima,Nagaland,25.6701,94.1077,21.6,93,0.0,853.0,8.85,25.9,33,5.6,5.6,8.1,379.0,43.0,0.7,3,5,7,1,2026-07-02T19:37:16.265882+05:30
Gangtok,Sikkim,27.3314,88.6138,19.9,98,0.0,836.5,8.35,30.6,46,8.9,8.8,14.3,268.0,82.0,1.3,3,10,7,1,2026-07-02T19:37:16.265889+05:30
Siliguri,West Bengal,26.7271,88.3953,28.6,87,0.0,987.7,8.3,27.7,78,19.3,19.2,11.3,670.0,99.0,3.5,7,5,7,1,2026-07-02T19:37:19.716479+05:30
Durgapur,West Bengal,23.5204,87.3119,28.4,88,0.0,988.5,7.3,36.7,120,39.2,38.9,24.5,444.0,94.0,29.5,7,5,7,1,2026-07-02T19:37:19.716516+05:30
Asansol,West Bengal,23.6739,86.9524,29.2,81,0.0,986.9,7.0,38.2,107,36.3,36.0,30.3,437.0,93.0,38.2,7,5,7,1,2026-07-02T19:37:19.716534+05:30
Pondicherry,Puducherry,11.9139,79.8145,30.8,69,0.0,1005.5,8.4,26.6,76,17.4,14.8,15.7,248.0,85.0,12.1,3,5,4,1,2026-07-02T19:37:19.716546+05:30
Port Blair,Andaman and Nicobar Islands,11.6234,92.7265,25.3,94,0.2,1006.9,3.1,47.2,39,19.7,10.0,0.5,101.0,59.0,0.5,10,5,0,1,2026-07-02T19:37:19.716556+05:30
Haridwar,Uttarakhand,29.9457,78.1642,28.5,89,0.0,967.3,5.3,23.4,92,36.2,31.7,14.9,421.0,114.0,7.6,7,5,3,1,2026-07-02T19:37:19.716565+05:30
Rishikesh,Uttarakhand,30.0869,78.2676,27.0,96,0.0,960.2,3.95,29.2,72,26.1,22.8,8.7,377.0,115.0,4.5,7,5,3,1,2026-07-02T19:37:19.716575+05:30
Nainital,Uttarakhand,29.3919,79.4542,18.2,99,0.0,802.7,7.45,21.2,97,36.0,33.9,10.0,412.0,98.0,2.9,3,10,7,1,2026-07-02T19:37:19.716585+05:30
Mussoorie,Uttarakhand,30.4599,78.0664,18.3,97,0.0,800.0,5.35,26.6,94,20.8,18.5,17.9,378.0,103.0,5.7,3,10,3,1,2026-07-02T19:37:19.716594+05:30
Dharamshala,Himachal Pradesh,32.219,76.3234,22.7,94,0.0,865.0,4.75,33.1,76,10.8,7.8,11.7,349.0,80.0,0.8,3,5,3,1,2026-07-02T19:37:19.716603+05:30
Dalhousie,Himachal Pradesh,32.5387,75.971,18.6,95,0.0,801.6,3.85,24.1,136,61.0,30.5,19.4,513.0,122.0,3.4,3,10,3,1,2026-07-02T19:37:19.716613+05:30
Patiala,Punjab,30.3398,76.3869,30.0,78,0.0,970.9,7.55,34.6,142,74.3,38.3,19.4,435.0,114.0,9.1,7,5,7,1,2026-07-02T19:37:19.716622+05:30
Bhatinda,Punjab,30.211,74.9455,32.6,63,0.0,975.6,8.3,46.4,437,355.8,101.5,21.3,393.0,103.0,12.7,3,5,7,1,2026-07-02T19:37:19.716631+05:30
Rohtak,Haryana,28.8955,76.6066,30.1,74,0.0,974.1,7.65,31.3,171,237.0,58.0,26.8,450.0,130.0,17.0,3,5,7,1,2026-07-02T19:37:19.716641+05:30
Panipat,Haryana,29.3909,76.9635,29.4,80,0.0,973.1,7.2,24.8,153,840.1,109.0,17.1,434.0,124.0,13.8,7,5,7,1,2026-07-02T19:37:19.716650+05:30
Mathura,Uttar Pradesh,27.4924,77.6737,30.2,73,0.0,979.1,7.95,37.4,144,131.3,59.1,32.6,428.0,104.0,10.2,3,5,7,1,2026-07-02T19:37:19.716659+05:30
Vrindavan,Uttar Pradesh,27.5823,77.7027,30.3,70,0.0,979.4,7.9,35.6,144,131.3,59.1,32.6,464.0,104.0,10.2,3,5,7,1,2026-07-02T19:37:19.716668+05:30
Ayodhya,Uttar Pradesh,26.7922,82.1998,30.0,85,0.0,988.4,6.9,25.9,120,32.2,32.1,12.4,441.0,96.0,5.2,7,5,7,1,2026-07-02T19:37:19.716677+05:30
Ratlam,Madhya Pradesh,23.3315,75.0367,24.8,95,0.4,948.8,7.15,41.0,54,17.3,14.6,4.6,187.0,79.0,2.5,6,5,7,1,2026-07-02T19:37:19.716686+05:30
Sagar,Madhya Pradesh,23.8388,78.7378,24.8,98,0.1,944.0,1.45,34.6,72,39.3,25.4,6.6,200.0,89.0,5.3,6,5,3,1,2026-07-02T19:37:19.716695+05:30
Satna,Madhya Pradesh,24.6005,80.8322,26.6,96,0.1,964.3,8.0,21.2,80,28.3,22.9,8.3,289.0,105.0,4.4,10,5,7,1,2026-07-02T19:37:19.716724+05:30
Akola,Maharashtra,20.7002,77.0082,25.6,94,0.2,970.4,6.45,38.5,33,8.3,7.5,9.1,176.0,57.0,3.5,10,5,7,1,2026-07-02T19:37:19.716734+05:30
Amravati,Maharashtra,20.9374,77.7796,25.8,91,0.1,962.4,3.7,42.1,33,8.2,7.5,9.8,183.0,57.0,3.9,10,5,3,1,2026-07-02T19:37:19.716742+05:30
Latur,Maharashtra,18.4088,76.5604,25.0,81,0.1,936.5,1.15,51.1,28,8.0,5.8,4.5,148.0,52.0,2.2,10,5,3,1,2026-07-02T19:37:19.716749+05:30
Nanded,Maharashtra,19.1383,77.3091,27.4,73,0.0,964.7,2.2,46.4,28,9.8,7.2,8.5,189.0,45.0,3.7,7,5,3,1,2026-07-02T19:37:19.716755+05:30
Gulbarga,Karnataka,17.3297,76.8343,27.8,64,0.0,955.8,4.55,55.8,30,6.6,4.9,7.4,146.0,48.0,2.8,7,5,3,1,2026-07-02T19:37:19.716762+05:30
Bidar,Karnataka,17.9104,77.5199,24.9,82,0.1,931.9,2.1,50.0,26,8.6,6.8,9.7,151.0,49.0,2.1,6,5,3,1,2026-07-02T19:37:19.716768+05:30
Hospet,Karnataka,15.2689,76.3909,23.5,94,0.1,954.2,6.95,57.6,25,2.8,2.5,7.3,123.0,44.0,1.5,6,5,7,1,2026-07-02T19:37:19.716775+05:30
Tirupur,Tamil Nadu,11.1085,77.3411,26.0,78,0.0,973.9,8.7,61.2,33,8.8,7.6,13.2,185.0,45.0,3.8,7,5,7,1,2026-07-02T19:37:19.716781+05:30
Alappuzha,Kerala,9.4981,76.3388,26.2,91,0.1,1009.9,8.35,46.4,47,13.0,9.2,9.9,88.0,40.0,2.5,10,0,4,1,2026-07-02T19:37:19.716788+05:30
Munnar,Kerala,10.0889,77.0595,16.9,100,0.2,856.7,8.25,43.2,27,5.9,5.1,6.9,103.0,44.0,1.7,6,10,7,1,2026-07-02T19:37:19.716795+05:30
Silchar,Assam,24.8333,92.7789,29.1,90,0.1,999.4,8.7,25.6,74,28.2,27.6,10.7,355.0,80.0,6.7,10,5,7,1,2026-07-02T19:37:19.716801+05:30
Dibrugarh,Assam,27.4728,94.912,30.4,83,0.0,989.2,8.85,21.6,51,24.7,24.2,18.8,305.0,58.0,3.5,3,5,7,1,2026-07-02T19:37:19.716808+05:30
