city,state,latitude,longitude,temp,humidity,rain,pressure,uv_index,wind_gusts,aqi,pm10,pm2_5,mosquito_risk,arthritis_risk,migraine_risk,frizz_risk,updated_at
Delhi,Delhi,28.6139,77.209,31.4,23,0.0,981.5,6.9,29.2,198,243.1,33.4,0,5,7,0,2026-04-06T16:30:53.879517+05:30
Mumbai,Maharashtra,19.076,72.8777,27.4,72,0.0,1009.0,7.95,24.1,113,34.2,18.7,7,0,4,1,2026-04-06T16:30:53.879559+05:30
Bangalore,Karnataka,12.9716,77.5946,33.6,28,0.0,911.0,9.65,33.1,87,15.1,12.2,0,5,7,0,2026-04-06T16:30:53.879575+05:30
Hyderabad,Telangana,17.385,78.4867,36.7,21,0.0,951.0,9.15,31.3,115,15.4,10.5,0,5,10,0,2026-04-06T16:30:53.879589+05:30
Chennai,Tamil Nadu,13.0827,80.2707,32.0,68,0.0,1005.1,8.7,29.2,101,27.6,22.4,3,5,4,1,2026-04-06T16:30:53.879598+05:30
Kolkata,West Bengal,22.5726,88.3639,30.8,62,0.0,1004.6,8.65,28.1,188,63.6,56.0,3,5,4,1,2026-04-06T16:30:53.879607+05:30
Pune,Maharashtra,18.5204,73.8567,31.0,39,0.0,948.4,8.55,34.6,113,25.8,18.5,0,5,7,0,2026-04-06T16:30:53.879615+05:30
Ahmedabad,Gujarat,23.0225,72.5714,35.6,20,0.0,1000.4,7.95,30.2,79,24.3,9.1,0,5,7,0,2026-04-06T16:30:53.879622+05:30
Jaipur,Rajasthan,26.9124,75.7873,27.7,37,0.0,958.9,7.55,33.1,115,139.2,22.6,4,5,7,0,2026-04-06T16:30:53.879630+05:30
Lucknow,Uttar Pradesh,26.8467,80.9462,32.8,23,0.0,991.8,7.45,35.3,110,136.4,24.5,0,5,7,0,2026-04-06T16:30:53.879638+05:30
Kanpur,Uttar Pradesh,26.4499,80.3319,31.5,28,0.0,990.6,7.45,29.5,116,299.0,37.7,0,5,7,0,2026-04-06T16:30:53.879645+05:30
Chandigarh,Chandigarh,30.7333,76.7794,30.2,25,0.0,967.2,6.9,16.6,109,31.5,10.9,0,5,7,0,2026-04-06T16:30:53.879652+05:30
Srinagar,Jammu and Kashmir,34.0837,74.7973,16.4,55,0.0,839.1,7.9,16.6,94,15.1,9.8,0,5,7,0,2026-04-06T16:30:53.879660+05:30
Jammu,Jammu and Kashmir,32.7266,74.857,28.4,36,0.0,971.6,7.55,19.8,80,21.7,10.9,4,5,7,0,2026-04-06T16:30:53.879669+05:30
Amritsar,Punjab,31.634,74.8723,29.6,29,0.0,979.1,7.5,11.2,101,19.8,13.0,4,5,7,0,2026-04-06T16:30:53.879677+05:30
Ludhiana,Punjab,30.901,75.8573,30.5,24,0.0,977.1,7.1,16.6,99,66.6,16.4,0,5,7,0,2026-04-06T16:30:53.879683+05:30
Jalandhar,Punjab,31.326,75.5762,29.9,26,0.0,978.2,7.25,13.0,85,28.8,11.0,4,5,7,0,2026-04-06T16:30:53.879689+05:30
Dehradun,Uttarakhand,30.6284,78.0322,17.0,52,0.0,828.8,6.65,25.6,98,18.2,8.0,0,5,7,0,2026-04-06T16:30:53.879696+05:30
Shimla,Himachal Pradesh,31.1048,77.1734,15.7,55,0.0,783.5,6.25,27.7,99,22.5,17.1,0,5,7,0,2026-04-06T16:30:53.879703+05:30
Manali,Himachal Pradesh,32.2396,77.1887,14.7,80,0.0,817.2,9.6,28.1,122,11.9,7.1,3,5,7,0,2026-04-06T16:30:53.879711+05:30
Gurgaon,Haryana,28.4595,77.0266,31.0,25,0.0,980.1,7.0,25.9,674,670.6,67.8,0,5,7,0,2026-04-06T16:30:53.879718+05:30
Noida,Uttar Pradesh,28.5355,77.391,31.6,23,0.0,983.1,6.95,29.9,674,670.6,67.8,0,5,7,0,2026-04-06T16:30:53.879725+05:30
Ghaziabad,Uttar Pradesh,28.6692,77.4538,31.1,24,0.0,981.2,6.9,26.3,140,180.2,31.8,0,5,7,0,2026-04-06T16:30:53.879731+05:30
Faridabad,Haryana,28.4089,77.3178,31.5,23,0.0,982.4,6.95,27.4,674,670.6,67.8,0,5,7,0,2026-04-06T16:30:53.879739+05:30
Meerut,Uttar Pradesh,28.9845,77.7064,30.2,28,0.0,980.1,6.8,25.2,140,180.2,31.8,0,5,7,0,2026-04-06T16:30:53.879745+05:30
Agra,Uttar Pradesh,27.1767,78.0081,29.7,33,0.0,987.1,7.3,36.4,225,497.3,52.5,4,5,7,0,2026-04-06T16:30:53.879752+05:30
Varanasi,Uttar Pradesh,25.3176,82.9739,33.0,27,0.0,995.7,7.7,29.9,91,41.1,15.9,0,5,7,0,2026-04-06T16:30:53.879759+05:30
Prayagraj,Uttar Pradesh,25.4358,81.8463,33.0,24,0.0,994.4,7.6,28.1,119,67.8,20.5,0,5,7,0,2026-04-06T16:30:53.879766+05:30
Gorakhpur,Uttar Pradesh,26.7606,83.3732,33.2,24,0.0,994.8,7.8,27.4,100,37.3,14.6,0,5,7,0,2026-04-06T16:30:53.879772+05:30
Bareilly,Uttar Pradesh,28.367,79.4304,31.4,24,0.0,985.1,7.15,32.4,110,48.0,14.8,0,5,7,0,2026-04-06T16:30:53.879778+05:30
Aligarh,Uttar Pradesh,27.8974,78.088,31.5,24,0.0,984.3,7.1,24.1,285,499.2,55.6,0,5,7,0,2026-04-06T16:30:53.879784+05:30
Moradabad,Uttar Pradesh,28.8386,78.7733,30.4,28,0.0,982.1,7.0,30.6,109,50.6,17.1,0,5,7,0,2026-04-06T16:30:53.879792+05:30
Saharanpur,Uttar Pradesh,29.9637,77.546,30.7,25,0.0,974.1,6.6,23.4,113,61.7,13.0,0,5,7,0,2026-04-06T16:30:53.879798+05:30
Jhansi,Uttar Pradesh,25.4484,78.5685,29.6,35,0.0,977.4,7.85,21.6,107,69.8,17.2,4,5,7,0,2026-04-06T16:30:59.124553+05:30
Surat,Gujarat,21.1702,72.8311,29.5,51,0.0,1007.1,7.7,31.7,78,36.8,26.0,4,5,4,1,2026-04-06T16:30:59.124588+05:30
Vadodara,Gujarat,22.3072,73.1812,34.8,26,0.0,1003.3,7.95,34.9,92,23.8,11.9,0,5,4,0,2026-04-06T16:30:59.124600+05:30
Rajkot,Gujarat,22.3039,70.8022,34.7,24,0.0,993.2,7.7,40.0,90,42.0,15.8,0,5,7,0,2026-04-06T16:30:59.124609+05:30
Thane,Maharashtra,19.2183,72.9781,29.3,61,0.0,1008.4,7.95,37.4,113,34.2,18.7,7,0,4,1,2026-04-06T16:30:59.124618+05:30
Nagpur,Maharashtra,21.1458,79.0882,34.2,27,0.0,970.6,8.7,21.2,123,17.1,10.9,0,5,7,0,2026-04-06T16:30:59.124626+05:30
Nashik,Maharashtra,19.9975,73.7898,30.1,37,0.0,945.2,8.2,33.8,92,22.6,10.2,0,5,7,0,2026-04-06T16:30:59.124634+05:30
Aurangabad,Maharashtra,19.8762,75.3433,32.7,26,0.0,943.1,8.9,28.4,113,21.9,12.7,0,5,7,0,2026-04-06T16:30:59.124641+05:30
Solapur,Maharashtra,17.6599,75.9064,35.8,17,0.0,955.7,9.0,33.1,66,17.4,8.3,0,5,10,0,2026-04-06T16:30:59.124650+05:30
Kolhapur,Maharashtra,16.705,74.2433,29.5,46,0.0,947.9,9.0,40.7,65,15.3,8.2,4,5,7,1,2026-04-06T16:30:59.124658+05:30
Goa,Goa,15.2993,74.124,30.5,54,0.0,998.2,9.0,38.9,66,31.8,13.4,0,5,7,1,2026-04-06T16:30:59.124667+05:30
Jodhpur,Rajasthan,26.2389,73.0243,33.0,20,0.0,980.8,7.85,38.5,88,179.7,22.9,0,5,7,0,2026-04-06T16:30:59.124675+05:30
Udaipur,Rajasthan,24.5854,73.7125,30.2,23,0.0,945.2,8.4,37.1,91,20.8,7.6,0,5,7,0,2026-04-06T16:30:59.124683+05:30
Kota,Rajasthan,25.2138,75.8648,33.8,19,0.0,976.8,7.85,28.8,89,67.3,15.5,0,5,7,0,2026-04-06T16:30:59.124691+05:30
Bikaner,Rajasthan,28.0229,73.3119,31.5,25,0.0,980.0,7.65,28.1,67,39.2,11.1,0,5,7,0,2026-04-06T16:30:59.124699+05:30
Ajmer,Rajasthan,26.4499,74.6399,30.3,25,0.0,953.2,7.8,34.2,73,58.6,14.0,0,5,7,0,2026-04-06T16:30:59.124706+05:30
Gwalior,Madhya Pradesh,26.2183,78.1828,30.2,35,0.0,982.1,7.6,27.0,85,47.8,11.6,0,5,7,0,2026-04-06T16:30:59.124713+05:30
Indore,Madhya Pradesh,22.7196,75.8577,32.4,21,0.0,946.6,8.35,26.6,103,15.7,10.8,0,5,7,0,2026-04-06T16:30:59.124719+05:30
Bhopal,Madhya Pradesh,23.2599,77.4126,33.1,19,0.0,951.7,8.3,28.8,96,26.1,9.1,0,5,7,0,2026-04-06T16:30:59.124725+05:30
Jabalpur,Madhya Pradesh,23.1815,79.9864,33.1,22,0.0,959.5,8.2,19.8,95,21.5,9.5,0,5,7,0,2026-04-06T16:30:59.124731+05:30
Ujjain,Madhya Pradesh,23.1765,75.7885,32.3,21,0.0,952.4,8.2,26.6,92,14.0,8.0,0,5,7,0,2026-04-06T16:30:59.124738+05:30
Visakhapatnam,Andhra Pradesh,17.6868,83.2185,30.4,68,0.0,1002.6,9.1,34.9,108,28.6,23.3,3,5,4,1,2026-04-06T16:30:59.124744+05:30
Vijayawada,Andhra Pradesh,16.5062,80.648,33.8,52,0.0,1000.6,9.0,31.0,81,34.3,26.4,0,5,4,1,2026-04-06T16:30:59.124750+05:30
Guntur,Andhra Pradesh,16.3067,80.4365,34.2,49,0.0,1001.5,9.2,31.7,93,48.3,37.0,0,5,4,1,2026-04-06T16:30:59.124756+05:30
Nellore,Andhra Pradesh,14.4426,79.9865,35.1,50,0.0,1003.3,8.65,27.7,126,34.8,29.1,0,5,7,1,2026-04-06T16:30:59.124763+05:30
Kurnool,Andhra Pradesh,15.8281,78.0373,38.6,19,0.0,974.2,9.2,36.7,110,13.6,10.2,0,5,10,0,2026-04-06T16:30:59.124770+05:30
Kakinada,Andhra Pradesh,16.9891,82.2475,32.2,60,0.0,1006.1,8.45,26.3,61,18.7,13.7,0,5,4,1,2026-04-06T16:30:59.124777+05:30
Tirupati,Andhra Pradesh,13.6288,79.4192,33.6,55,0.0,989.3,8.15,19.4,116,46.6,40.9,0,5,7,1,2026-04-06T16:30:59.124783+05:30
Warangal,Telangana,17.9689,79.5941,32.4,58,0.0,976.3,9.05,36.7,135,33.9,21.8,0,5,7,1,2026-04-06T16:30:59.124789+05:30
Nizamabad,Telangana,18.6725,78.0941,35.0,27,0.0,962.8,8.95,27.7,84,23.5,13.4,0,5,7,0,2026-04-06T16:30:59.124794+05:30
Mysore,Karnataka,12.2958,76.6396,33.9,30,0.0,927.3,9.55,38.5,81,18.1,14.2,0,5,7,0,2026-04-06T16:30:59.124801+05:30
Mangalore,Karnataka,12.9141,74.856,29.2,72,0.0,1006.4,9.2,37.4,59,26.5,13.3,7,5,4,1,2026-04-06T16:30:59.124807+05:30
Hubli-Dharwad,Karnataka,15.3647,75.124,32.9,28,0.0,940.4,9.2,36.0,69,12.4,5.8,0,5,7,0,2026-04-06T16:30:59.124813+05:30
Belgaum,Karnataka,15.8497,74.4977,29.0,48,0.0,925.8,9.25,36.4,58,23.6,10.3,4,5,7,1,2026-04-06T16:31:02.963301+05:30
Coimbatore,Tamil Nadu,11.0168,76.9558,31.9,48,0.0,960.7,9.5,51.1,73,22.5,17.9,0,5,7,1,2026-04-06T16:31:02.963331+05:30
Madurai,Tamil Nadu,9.9252,78.1198,31.8,63,0.0,991.6,3.3,24.5,107,24.5,20.5,3,5,3,1,2026-04-06T16:31:02.963340+05:30
Trichy,Tamil Nadu,10.7905,78.7047,34.2,56,0.0,997.2,8.8,23.0,102,28.5,24.0,0,5,7,1,2026-04-06T16:31:02.963348+05:30
Salem,Tamil Nadu,11.6643,78.146,37.2,33,0.0,974.4,9.25,32.8,133,18.2,15.0,0,5,10,1,2026-04-06T16:31:02.963355+05:30
Tirunelveli,Tamil Nadu,8.7139,77.7567,30.4,70,0.0,1001.9,8.8,25.6,62,19.7,16.8,3,5,4,1,2026-04-06T16:31:02.963362+05:30
Vellore,Tamil Nadu,12.9165,79.1325,33.6,54,0.0,982.2,9.4,31.7,147,43.9,39.3,0,5,7,1,2026-04-06T16:31:02.963368+05:30
Erode,Tamil Nadu,11.341,77.7172,37.5,37,0.0,985.9,9.4,29.9,100,16.7,14.1,0,5,10,1,2026-04-06T16:31:02.963375+05:30
Kochi,Kerala,9.9312,76.2673,29.9,72,0.0,1007.8,9.2,36.7,68,29.2,16.2,7,5,4,1,2026-04-06T16:31:02.963382+05:30
Thiruvananthapuram,Kerala,8.5241,76.9366,29.5,78,0.0,1007.0,5.8,39.2,56,27.0,16.5,7,5,0,1,2026-04-06T16:31:02.963388+05:30
Kozhikode,Kerala,11.2588,75.7804,30.3,69,0.0,1006.8,9.15,38.5,60,36.3,17.9,3,5,4,1,2026-04-06T16:31:02.963395+05:30
Thrissur,Kerala,10.5276,76.2144,32.3,60,0.0,1005.9,9.2,41.0,71,27.0,15.8,0,5,4,1,2026-04-06T16:31:02.963402+05:30
Kannur,Kerala,11.8745,75.3704,30.9,63,0.0,1006.3,9.2,43.9,57,30.2,15.3,3,5,4,1,2026-04-06T16:31:02.963409+05:30
Patna,Bihar,25.5941,85.1376,32.8,31,0.0,998.5,6.6,29.2,85,26.4,13.4,0,5,7,0,2026-04-06T16:31:02.963415+05:30
Gaya,Bihar,24.7914,85.0002,30.3,47,0.0,992.6,6.15,28.8,90,23.7,13.5,0,5,7,1,2026-04-06T16:31:02.963422+05:30
Muzaffarpur,Bihar,26.1209,85.3647,32.6,30,0.0,998.3,7.45,28.1,90,27.0,13.8,0,5,7,0,2026-04-06T16:31:02.963429+05:30
Bhagalpur,Bihar,25.2425,87.0117,30.0,46,0.0,999.8,7.65,27.0,117,18.9,13.9,4,5,7,1,2026-04-06T16:31:02.963435+05:30
Ranchi,Jharkhand,23.3441,85.3096,24.4,70,0.0,937.6,7.8,27.0,79,34.1,21.5,3,5,7,1,2026-04-06T16:31:02.963443+05:30
Jamshedpur,Jharkhand,22.8046,86.2029,28.9,66,0.0,989.5,8.65,24.8,154,38.3,30.2,7,5,7,1,2026-04-06T16:31:02.963449+05:30
Dhanbad,Jharkhand,23.7957,86.4304,29.7,47,0.0,978.8,7.85,20.5,112,50.1,35.5,4,5,7,1,2026-04-06T16:31:02.963455+05:30
Bokaro,Jharkhand,23.6693,86.1511,27.7,62,0.0,982.9,7.65,21.2,96,42.6,27.4,7,5,7,1,2026-04-06T16:31:02.963482+05:30
Bhubaneswar,Odisha,20.2961,85.8245,30.2,67,0.0,1001.6,8.95,23.8,95,25.0,21.6,3,5,4,1,2026-04-06T16:31:02.963491+05:30
Cuttack,Odisha,20.4625,85.8828,28.6,75,0.0,1003.6,8.95,31.7,95,25.0,21.6,7,5,4,1,2026-04-06T16:31:02.963497+05:30
Rourkela,Odisha,22.2604,84.8536,30.0,63,0.0,983.5,8.4,36.4,142,44.8,35.6,7,5,7,1,2026-04-06T16:31:02.963503+05:30
Raipur,Chhattisgarh,21.2514,81.6296,31.2,44,0.0,972.9,8.8,26.6,150,36.8,24.5,0,5,7,1,2026-04-06T16:31:02.963509+05:30
Bhilai,Chhattisgarh,21.1938,81.3509,32.7,40,0.0,972.8,8.75,25.6,138,20.6,12.9,0,5,7,1,2026-04-06T16:31:02.963516+05:30
Guwahati,Assam,26.1158,91.7086,30.8,49,0.0,998.6,8.25,34.9,96,32.1,25.9,0,5,7,1,2026-04-06T16:31:02.963523+05:30
Agartala,Tripura,23.8315,91.2868,30.7,57,0.0,1004.7,8.5,19.4,204,63.1,56.9,0,5,4,1,2026-04-06T16:31:02.963529+05:30
Shillong,Meghalaya,25.5788,91.8933,16.2,80,0.0,855.6,7.85,71.6,104,37.5,31.9,3,5,7,0,2026-04-06T16:31:02.963536+05:30
Imphal,Manipur,24.817,93.9368,22.8,59,0.0,922.6,8.85,53.3,132,28.8,23.7,0,5,7,0,2026-04-06T16:31:02.963542+05:30
Aizawl,Mizoram,23.7271,92.7176,25.3,51,0.0,893.0,8.75,35.3,137,46.1,38.5,4,5,7,0,2026-04-06T16:31:02.963548+05:30
Kohima,Nagaland,25.6701,94.1077,20.3,53,0.0,854.9,8.75,81.4,92,32.1,24.5,0,5,7,0,2026-04-06T16:31:02.963555+05:30
Gangtok,Sikkim,27.3314,88.6138,16.7,76,0.0,836.9,8.5,21.6,99,20.5,16.2,3,5,7,0,2026-04-06T16:31:02.963562+05:30
Siliguri,West Bengal,26.7271,88.3953,25.8,59,0.0,992.4,8.05,19.8,115,20.8,15.5,4,5,7,1,2026-04-06T16:31:06.394014+05:30
Durgapur,West Bengal,23.5204,87.3119,30.0,54,0.0,994.2,8.45,23.8,142,52.3,41.3,4,5,7,1,2026-04-06T16:31:06.394046+05:30
Asansol,West Bengal,23.6739,86.9524,30.1,52,0.0,992.6,7.6,23.4,124,50.3,38.1,0,5,7,1,2026-04-06T16:31:06.394058+05:30
Pondicherry,Puducherry,11.9139,79.8145,33.5,62,0.0,1005.6,8.75,25.6,101,25.4,20.0,3,5,4,1,2026-04-06T16:31:06.394068+05:30
Port Blair,Andaman and Nicobar Islands,11.6234,92.7265,29.7,65,0.0,1006.7,9.2,19.4,28,10.5,6.9,7,5,4,1,2026-04-06T16:31:06.394078+05:30
Haridwar,Uttarakhand,29.9457,78.1642,30.6,25,0.0,972.6,6.7,25.9,98,18.1,8.3,0,5,7,0,2026-04-06T16:31:06.394087+05:30
Rishikesh,Uttarakhand,30.0869,78.2676,29.0,28,0.0,965.5,6.8,26.3,97,19.3,8.0,4,5,7,0,2026-04-06T16:31:06.394096+05:30
Nainital,Uttarakhand,29.3919,79.4542,20.6,41,0.0,805.6,5.85,38.5,110,34.5,11.6,0,5,3,0,2026-04-06T16:31:06.394104+05:30
Mussoorie,Uttarakhand,30.4599,78.0664,18.7,40,0.0,801.9,6.45,29.2,99,18.0,7.7,0,5,7,0,2026-04-06T16:31:06.394112+05:30
Dharamshala,Himachal Pradesh,32.219,76.3234,20.4,65,0.0,867.7,7.45,22.3,102,12.2,7.7,3,5,7,0,2026-04-06T16:31:06.394120+05:30
Dalhousie,Himachal Pradesh,32.5387,75.971,18.6,48,0.0,802.7,6.95,19.8,94,14.2,8.6,0,5,7,0,2026-04-06T16:31:06.394129+05:30
Patiala,Punjab,30.3398,76.3869,31.0,22,0.0,976.4,6.75,21.6,109,339.0,36.4,0,5,7,0,2026-04-06T16:31:06.394137+05:30
Bhatinda,Punjab,30.211,74.9455,30.1,28,0.0,982.4,7.45,20.9,92,24.2,10.3,0,5,7,0,2026-04-06T16:31:06.394145+05:30
Rohtak,Haryana,28.8955,76.6066,30.9,24,0.0,980.5,6.95,25.6,368,316.6,35.3,0,5,7,0,2026-04-06T16:31:06.394154+05:30
Panipat,Haryana,29.3909,76.9635,30.8,25,0.0,978.9,6.75,26.6,472,547.6,52.9,0,5,7,0,2026-04-06T16:31:06.394162+05:30
Mathura,Uttar Pradesh,27.4924,77.6737,30.3,30,0.0,986.2,7.2,27.7,415,366.9,41.9,0,5,7,0,2026-04-06T16:31:06.394170+05:30
Vrindavan,Uttar Pradesh,27.5823,77.7027,31.3,25,0.0,986.3,7.2,31.0,415,366.9,41.9,0,5,7,0,2026-04-06T16:31:06.394178+05:30
Ayodhya,Uttar Pradesh,26.7922,82.1998,33.2,22,0.0,993.2,7.6,30.2,108,64.0,17.1,0,5,7,0,2026-04-06T16:31:06.394186+05:30
Ratlam,Madhya Pradesh,23.3315,75.0367,31.9,23,0.0,953.6,8.2,33.8,90,13.4,6.5,0,5,7,0,2026-04-06T16:31:06.394194+05:30
Sagar,Madhya Pradesh,23.8388,78.7378,31.1,30,0.0,948.6,8.3,21.6,91,22.8,7.3,0,5,7,0,2026-04-06T16:31:06.394202+05:30
Satna,Madhya Pradesh,24.6005,80.8322,32.2,23,0.0,970.0,8.2,25.2,98,67.5,17.5,0,5,7,0,2026-04-06T16:31:06.394210+05:30
Akola,Maharashtra,20.7002,77.0082,35.9,17,0.0,973.1,8.65,28.1,109,16.2,11.0,0,5,10,0,2026-04-06T16:31:06.394218+05:30
Amravati,Maharashtra,20.9374,77.7796,35.4,18,0.0,965.1,8.7,27.4,112,16.1,11.0,0,5,10,0,2026-04-06T16:31:06.394227+05:30
Latur,Maharashtra,18.4088,76.5604,33.6,18,0.0,938.5,9.0,28.8,61,16.1,8.1,0,5,7,0,2026-04-06T16:31:06.394235+05:30
Nanded,Maharashtra,19.1383,77.3091,35.4,23,0.0,966.8,8.85,23.4,91,17.7,10.8,0,5,10,0,2026-04-06T16:31:06.394243+05:30
Gulbarga,Karnataka,17.3297,76.8343,36.8,14,0.0,956.8,9.0,32.0,59,19.9,8.5,0,5,10,0,2026-04-06T16:31:06.394251+05:30
Bidar,Karnataka,17.9104,77.5199,35.2,21,0.0,933.9,9.05,28.1,75,20.2,9.1,0,5,10,0,2026-04-06T16:31:06.394259+05:30
Hospet,Karnataka,15.2689,76.3909,36.5,20,0.0,954.1,9.25,31.0,77,9.5,5.6,0,5,10,0,2026-04-06T16:31:06.394266+05:30
Tirupur,Tamil Nadu,11.1085,77.3411,34.1,45,0.0,973.4,9.2,45.4,94,21.0,17.2,0,5,7,1,2026-04-06T16:31:06.394274+05:30
Alappuzha,Kerala,9.4981,76.3388,29.9,72,0.0,1007.9,6.35,33.8,66,35.9,18.8,7,5,4,1,2026-04-06T16:31:06.394282+05:30
Munnar,Kerala,10.0889,77.0595,22.8,90,0.0,857.1,6.45,33.5,64,20.3,16.4,3,5,7,1,2026-04-06T16:31:06.394290+05:30
Silchar,Assam,24.8333,92.7789,29.9,59,0.0,1003.8,8.5,19.1,153,52.7,44.9,4,5,4,1,2026-04-06T16:31:06.394298+05:30
Dibrugarh,Assam,27.4728,94.912,26.2,69,0.0,993.3,8.3,38.2,100,34.0,28.5,7,5,7,1,2026-04-06T16:31:06.394306+05:30
