city,state,latitude,longitude,temp,humidity,rain,pressure,uv_index,wind_gusts,aqi,pm10,pm2_5,no2,co,o3,so2,mosquito_risk,arthritis_risk,migraine_risk,frizz_risk,updated_at
Delhi,Delhi,28.6139,77.209,35.3,28,0.0,981.2,7.55,34.2,189,241.2,51.2,7.3,449.0,222.0,22.3,0,5,10,0,2026-05-09T17:27:02.433596+05:30
Mumbai,Maharashtra,19.076,72.8777,33.8,51,0.0,1003.9,7.85,47.9,122,47.0,24.7,12.5,289.0,125.0,8.3,0,5,4,1,2026-05-09T17:27:02.433643+05:30
Bangalore,Karnataka,12.9716,77.5946,26.9,67,0.0,909.1,9.45,44.3,48,13.0,11.6,12.2,363.0,77.0,3.9,7,5,7,1,2026-05-09T17:27:02.433661+05:30
Hyderabad,Telangana,17.385,78.4867,35.0,27,0.0,950.9,9.05,33.8,77,18.7,12.3,2.6,299.0,154.0,3.8,0,5,7,0,2026-05-09T17:27:02.433672+05:30
Chennai,Tamil Nadu,13.0827,80.2707,28.2,76,0.0,1004.9,8.35,39.6,25,5.5,3.8,3.6,137.0,48.0,4.1,7,5,4,1,2026-05-09T17:27:02.433682+05:30
Kolkata,West Bengal,22.5726,88.3639,27.5,80,0.1,1005.6,8.9,22.0,205,48.4,39.5,7.4,671.0,180.0,14.4,10,5,4,1,2026-05-09T17:27:02.433692+05:30
Pune,Maharashtra,18.5204,73.8567,36.7,20,0.0,945.1,8.5,35.6,138,50.3,28.1,1.5,228.0,171.0,5.0,0,5,10,0,2026-05-09T17:27:02.433700+05:30
Ahmedabad,Gujarat,23.0225,72.5714,42.5,10,0.0,997.7,8.1,33.8,68,30.7,11.2,1.0,177.0,135.0,2.2,0,5,10,0,2026-05-09T17:27:02.433711+05:30
Jaipur,Rajasthan,26.9124,75.7873,37.1,20,0.0,957.7,8.15,28.8,164,159.3,33.9,0.5,240.0,175.0,5.6,0,5,10,0,2026-05-09T17:27:02.433719+05:30
Lucknow,Uttar Pradesh,26.8467,80.9462,30.5,48,0.0,992.7,8.0,36.4,155,63.8,33.5,2.7,313.0,176.0,8.6,0,5,7,1,2026-05-09T17:27:02.433728+05:30
Kanpur,Uttar Pradesh,26.4499,80.3319,30.6,41,0.0,990.4,8.05,38.5,189,161.6,42.0,2.9,294.0,180.0,9.1,0,5,7,0,2026-05-09T17:27:02.433736+05:30
Chandigarh,Chandigarh,30.7333,76.7794,33.8,28,0.0,967.5,7.6,31.7,181,143.0,35.5,1.0,272.0,199.0,8.6,0,5,7,0,2026-05-09T17:27:02.433745+05:30
Srinagar,Jammu and Kashmir,34.0837,74.7973,26.9,34,0.0,842.7,8.85,18.0,111,36.1,8.7,1.8,380.0,150.0,1.0,4,5,7,0,2026-05-09T17:27:02.433754+05:30
Jammu,Jammu and Kashmir,32.7266,74.857,34.2,29,0.0,971.4,8.4,29.9,174,125.7,43.1,0.3,289.0,187.0,6.4,0,5,7,0,2026-05-09T17:27:02.433763+05:30
Amritsar,Punjab,31.634,74.8723,36.5,28,0.0,978.8,8.3,24.8,170,308.3,65.9,1.1,287.0,206.0,11.2,0,5,10,0,2026-05-09T17:27:02.433770+05:30
Ludhiana,Punjab,30.901,75.8573,35.1,30,0.0,977.0,7.9,32.4,167,312.9,54.4,1.2,293.0,182.0,3.3,0,5,10,0,2026-05-09T17:27:02.433778+05:30
Jalandhar,Punjab,31.326,75.5762,34.8,30,0.0,978.1,8.05,25.9,165,268.2,54.0,0.4,306.0,185.0,7.1,0,5,7,0,2026-05-09T17:27:02.433785+05:30
Dehradun,Uttarakhand,30.6284,78.0322,19.6,62,0.0,831.6,8.0,28.1,127,45.5,18.0,0.6,233.0,163.0,2.5,3,5,7,0,2026-05-09T17:27:02.433795+05:30
Shimla,Himachal Pradesh,31.1048,77.1734,18.7,54,0.0,786.5,8.05,34.2,150,85.2,28.6,1.0,239.0,187.0,10.8,0,5,7,0,2026-05-09T17:27:02.433803+05:30
Manali,Himachal Pradesh,32.2396,77.1887,17.7,66,0.0,819.1,10.1,39.2,128,35.2,7.1,0.4,183.0,168.0,0.2,3,5,7,0,2026-05-09T17:27:02.433810+05:30
Gurgaon,Haryana,28.4595,77.0266,35.1,28,0.0,979.6,7.65,27.4,991,702.2,88.7,6.1,390.0,218.0,19.7,0,5,10,0,2026-05-09T17:27:02.433818+05:30
Noida,Uttar Pradesh,28.5355,77.391,33.2,36,0.0,983.0,7.6,29.5,991,702.2,88.7,6.1,379.0,218.0,19.7,0,5,7,0,2026-05-09T17:27:02.433826+05:30
Ghaziabad,Uttar Pradesh,28.6692,77.4538,33.2,35,0.0,981.5,7.55,27.4,155,179.3,37.1,3.3,282.0,182.0,7.5,0,5,7,0,2026-05-09T17:27:02.433833+05:30
Faridabad,Haryana,28.4089,77.3178,34.2,32,0.0,982.0,7.6,37.1,991,702.2,88.7,6.1,365.0,218.0,19.7,0,5,7,0,2026-05-09T17:27:02.433839+05:30
Meerut,Uttar Pradesh,28.9845,77.7064,31.5,45,0.0,980.7,7.45,27.7,155,179.3,37.1,3.3,287.0,182.0,7.5,0,5,7,1,2026-05-09T17:27:02.433846+05:30
Agra,Uttar Pradesh,27.1767,78.0081,33.2,38,0.0,985.9,7.9,28.8,901,717.1,85.4,2.8,277.0,176.0,8.4,0,5,7,1,2026-05-09T17:27:02.433853+05:30
Varanasi,Uttar Pradesh,25.3176,82.9739,30.0,48,0.0,996.3,8.55,36.4,197,68.7,42.1,3.6,400.0,211.0,17.2,4,5,7,1,2026-05-09T17:27:02.433860+05:30
Prayagraj,Uttar Pradesh,25.4358,81.8463,30.7,44,0.0,994.6,8.35,46.4,188,67.1,41.6,3.5,387.0,207.0,13.5,0,5,7,1,2026-05-09T17:27:02.433870+05:30
Gorakhpur,Uttar Pradesh,26.7606,83.3732,29.4,50,0.0,997.0,8.4,37.4,164,61.9,38.9,1.8,365.0,190.0,7.5,4,5,7,1,2026-05-09T17:27:02.433877+05:30
Bareilly,Uttar Pradesh,28.367,79.4304,31.6,43,0.0,986.0,7.75,33.5,156,116.2,31.3,1.2,266.0,174.0,7.3,0,5,7,1,2026-05-09T17:27:02.433883+05:30
Aligarh,Uttar Pradesh,27.8974,78.088,32.5,36,0.0,984.3,7.7,29.2,468,436.8,62.2,2.5,284.0,183.0,11.3,0,5,7,0,2026-05-09T17:27:02.433890+05:30
Moradabad,Uttar Pradesh,28.8386,78.7733,31.1,43,0.0,983.1,7.65,32.8,167,121.1,36.1,2.6,297.0,191.0,13.8,0,5,7,1,2026-05-09T17:27:02.433897+05:30
Saharanpur,Uttar Pradesh,29.9637,77.546,31.4,41,0.0,975.0,7.3,31.0,165,54.7,23.7,2.0,263.0,181.0,7.7,0,5,7,1,2026-05-09T17:27:02.433903+05:30
Jhansi,Uttar Pradesh,25.4484,78.5685,33.0,30,0.0,975.3,8.35,52.2,162,111.5,31.4,1.6,250.0,174.0,13.4,0,5,7,0,2026-05-09T17:27:05.725268+05:30
Surat,Gujarat,21.1702,72.8311,40.6,17,0.0,1002.2,7.7,34.9,105,68.9,47.6,57.2,149.0,81.0,101.8,0,5,7,0,2026-05-09T17:27:05.725320+05:30
Vadodara,Gujarat,22.3072,73.1812,42.3,12,0.0,999.5,8.05,31.0,104,34.1,15.2,1.0,163.0,167.0,7.7,0,5,10,0,2026-05-09T17:27:05.725332+05:30
Rajkot,Gujarat,22.3039,70.8022,39.2,19,0.0,991.2,7.7,45.4,61,40.4,13.8,1.1,145.0,141.0,5.6,0,5,10,0,2026-05-09T17:27:05.725341+05:30
Thane,Maharashtra,19.2183,72.9781,37.0,35,0.0,1002.7,7.85,43.2,122,47.0,24.7,12.5,240.0,125.0,8.3,0,5,7,1,2026-05-09T17:27:05.725349+05:30
Nagpur,Maharashtra,21.1458,79.0882,36.4,26,0.0,970.6,8.9,47.9,157,48.8,21.0,5.8,219.0,171.0,18.1,0,5,10,0,2026-05-09T17:27:05.725356+05:30
Nashik,Maharashtra,19.9975,73.7898,37.8,15,0.0,942.4,8.15,51.5,106,44.8,19.4,1.4,185.0,151.0,5.1,0,5,10,0,2026-05-09T17:27:05.725364+05:30
Aurangabad,Maharashtra,19.8762,75.3433,38.0,13,0.0,941.0,9.05,31.0,140,34.8,15.3,1.1,191.0,156.0,5.1,0,5,10,0,2026-05-09T17:27:05.725371+05:30
Solapur,Maharashtra,17.6599,75.9064,38.0,20,0.0,953.7,9.05,31.3,110,33.9,21.0,1.4,208.0,166.0,4.4,0,5,10,0,2026-05-09T17:27:05.725379+05:30
Kolhapur,Maharashtra,16.705,74.2433,37.2,21,0.0,944.2,8.9,37.8,127,31.2,21.1,2.8,219.0,155.0,3.5,0,5,10,0,2026-05-09T17:27:05.725387+05:30
Goa,Goa,15.2993,74.124,34.8,51,0.0,993.1,8.75,51.1,83,39.8,21.9,1.6,223.0,119.0,3.2,0,5,7,1,2026-05-09T17:27:05.725394+05:30
Jodhpur,Rajasthan,26.2389,73.0243,41.1,12,0.0,979.4,8.35,41.4,115,115.0,24.3,0.0,147.0,149.0,3.4,0,5,10,0,2026-05-09T17:27:05.725402+05:30
Udaipur,Rajasthan,24.5854,73.7125,37.5,14,0.0,944.8,8.8,44.3,62,48.2,10.9,0.4,147.0,127.0,2.7,0,5,10,0,2026-05-09T17:27:05.725410+05:30
Kota,Rajasthan,25.2138,75.8648,38.3,19,0.0,975.1,8.35,45.4,113,62.2,20.4,1.1,224.0,163.0,4.8,0,5,10,0,2026-05-09T17:27:05.725417+05:30
Bikaner,Rajasthan,28.0229,73.3119,40.2,12,0.0,978.9,8.25,25.9,142,176.0,41.8,0.3,233.0,166.0,8.7,0,5,10,0,2026-05-09T17:27:05.725424+05:30
Ajmer,Rajasthan,26.4499,74.6399,37.5,14,0.0,952.6,8.3,47.2,123,89.6,26.0,0.6,234.0,165.0,3.6,0,5,10,0,2026-05-09T17:27:05.725431+05:30
Gwalior,Madhya Pradesh,26.2183,78.1828,35.0,26,0.0,980.3,8.1,28.8,153,225.8,46.4,1.0,269.0,174.0,7.1,0,5,7,0,2026-05-09T17:27:05.725438+05:30
Indore,Madhya Pradesh,22.7196,75.8577,38.5,11,0.0,945.3,8.6,50.4,94,43.9,9.9,1.2,186.0,135.0,2.1,0,5,10,0,2026-05-09T17:27:05.725445+05:30
Bhopal,Madhya Pradesh,23.2599,77.4126,37.7,14,0.0,951.0,8.65,45.4,110,46.9,10.8,0.8,170.0,138.0,2.8,0,5,10,0,2026-05-09T17:27:05.725452+05:30
Jabalpur,Madhya Pradesh,23.1815,79.9864,35.2,20,0.0,958.4,8.8,38.2,151,41.8,17.2,5.0,184.0,144.0,5.2,0,5,10,0,2026-05-09T17:27:05.725458+05:30
Ujjain,Madhya Pradesh,23.1765,75.7885,38.2,12,0.0,951.2,8.55,48.6,82,40.2,9.8,0.9,148.0,130.0,2.5,0,5,10,0,2026-05-09T17:27:05.725465+05:30
Visakhapatnam,Andhra Pradesh,17.6868,83.2185,30.2,66,0.0,1002.2,9.1,35.3,76,15.7,12.7,18.9,465.0,43.0,17.9,3,5,4,1,2026-05-09T17:27:05.725473+05:30
Vijayawada,Andhra Pradesh,16.5062,80.648,34.0,47,0.0,999.7,9.2,38.9,45,10.2,7.9,2.3,146.0,86.0,4.9,0,5,7,1,2026-05-09T17:27:05.725479+05:30
Guntur,Andhra Pradesh,16.3067,80.4365,34.5,44,0.0,1000.9,9.2,33.1,44,12.1,9.5,2.0,160.0,105.0,4.2,0,5,4,1,2026-05-09T17:27:05.725486+05:30
Nellore,Andhra Pradesh,14.4426,79.9865,31.4,62,0.0,1003.2,9.2,40.0,28,6.1,4.2,1.5,123.0,53.0,1.6,3,5,4,1,2026-05-09T17:27:05.725494+05:30
Kurnool,Andhra Pradesh,15.8281,78.0373,38.1,26,0.0,972.7,9.15,38.5,42,12.5,7.9,0.7,168.0,122.0,1.0,0,5,10,0,2026-05-09T17:27:05.725501+05:30
Kakinada,Andhra Pradesh,16.9891,82.2475,30.0,72,0.0,1005.8,9.15,36.4,26,6.0,4.0,0.9,139.0,50.0,0.5,7,5,4,1,2026-05-09T17:27:05.725508+05:30
Tirupati,Andhra Pradesh,13.6288,79.4192,28.0,69,0.0,989.3,7.35,39.2,27,4.6,3.4,2.6,130.0,56.0,0.6,7,5,7,1,2026-05-09T17:27:05.725515+05:30
Warangal,Telangana,17.9689,79.5941,35.8,31,0.0,976.0,9.15,32.4,69,24.4,15.1,1.2,228.0,153.0,5.2,0,5,10,0,2026-05-09T17:27:05.725521+05:30
Nizamabad,Telangana,18.6725,78.0941,35.8,24,0.0,962.2,9.1,35.6,111,35.7,19.0,0.0,218.0,165.0,3.0,0,5,10,0,2026-05-09T17:27:05.725527+05:30
Mysore,Karnataka,12.2958,76.6396,30.5,52,1.2,924.9,9.4,38.9,58,18.7,16.2,4.8,191.0,102.0,3.3,3,5,7,1,2026-05-09T17:27:05.725534+05:30
Mangalore,Karnataka,12.9141,74.856,30.5,74,0.0,1002.5,8.0,38.2,77,26.1,15.3,1.3,164.0,110.0,1.2,3,5,4,1,2026-05-09T17:27:05.725541+05:30
Hubli-Dharwad,Karnataka,15.3647,75.124,37.0,19,0.0,937.0,9.15,43.6,78,15.0,10.1,1.4,179.0,156.0,2.2,0,5,10,0,2026-05-09T17:27:05.725547+05:30
Belgaum,Karnataka,15.8497,74.4977,34.5,23,0.0,922.9,9.15,41.4,95,27.9,18.0,1.5,200.0,165.0,3.2,0,5,7,0,2026-05-09T17:27:09.014350+05:30
Coimbatore,Tamil Nadu,11.0168,76.9558,25.0,87,0.0,958.7,7.75,24.8,65,17.7,16.0,5.1,236.0,112.0,4.9,7,5,7,1,2026-05-09T17:27:09.014396+05:30
Madurai,Tamil Nadu,9.9252,78.1198,26.9,86,1.0,989.9,4.7,40.3,67,11.8,11.5,5.2,264.0,94.0,9.3,10,5,3,1,2026-05-09T17:27:09.014408+05:30
Trichy,Tamil Nadu,10.7905,78.7047,27.8,79,0.0,996.5,3.2,33.8,38,10.0,9.8,11.6,206.0,79.0,22.7,7,5,3,1,2026-05-09T17:27:09.014417+05:30
Salem,Tamil Nadu,11.6643,78.146,27.9,72,0.0,974.0,8.25,31.7,49,9.7,9.4,6.5,180.0,98.0,10.6,7,5,7,1,2026-05-09T17:27:09.014429+05:30
Tirunelveli,Tamil Nadu,8.7139,77.7567,27.0,84,0.1,1000.1,4.75,25.2,57,14.4,13.8,6.6,188.0,86.0,4.7,10,5,0,1,2026-05-09T17:27:09.014438+05:30
Vellore,Tamil Nadu,12.9165,79.1325,25.6,85,0.1,982.8,6.85,48.2,44,10.4,10.1,5.2,171.0,82.0,7.2,10,5,7,1,2026-05-09T17:27:09.014446+05:30
Erode,Tamil Nadu,11.341,77.7172,29.1,71,0.0,985.7,8.1,36.4,60,13.8,13.2,6.8,203.0,97.0,6.1,7,5,7,1,2026-05-09T17:27:09.014454+05:30
Kochi,Kerala,9.9312,76.2673,28.0,80,0.0,1005.2,7.85,32.0,96,20.1,18.7,10.2,309.0,102.0,2.4,7,5,4,1,2026-05-09T17:27:09.014462+05:30
Thiruvananthapuram,Kerala,8.5241,76.9366,27.6,79,0.0,1004.3,4.7,28.4,58,11.2,7.8,2.0,199.0,118.0,0.9,7,5,0,1,2026-05-09T17:27:09.014469+05:30
Kozhikode,Kerala,11.2588,75.7804,27.6,86,0.2,1004.4,8.5,37.4,64,10.8,6.8,0.7,262.0,112.0,0.6,10,5,4,1,2026-05-09T17:27:09.014476+05:30
Thrissur,Kerala,10.5276,76.2144,27.2,82,0.1,1003.7,8.25,34.6,76,20.5,19.3,4.6,310.0,110.0,2.1,10,5,4,1,2026-05-09T17:27:09.014485+05:30
Kannur,Kerala,11.8745,75.3704,28.2,82,0.0,1003.7,8.95,39.2,71,16.5,10.9,0.9,204.0,111.0,0.9,7,5,4,1,2026-05-09T17:27:09.014492+05:30
Patna,Bihar,25.5941,85.1376,29.2,62,0.0,999.8,8.4,32.0,196,66.1,50.4,7.3,421.0,204.0,18.4,7,5,7,1,2026-05-09T17:27:09.014499+05:30
Gaya,Bihar,24.7914,85.0002,29.9,54,0.0,993.3,8.55,33.5,195,68.2,41.9,3.9,393.0,203.0,18.7,4,5,7,1,2026-05-09T17:27:09.014505+05:30
Muzaffarpur,Bihar,26.1209,85.3647,28.5,63,0.0,1000.2,8.65,34.9,185,65.4,51.1,7.3,385.0,191.0,15.8,7,5,4,1,2026-05-09T17:27:09.014512+05:30
Bhagalpur,Bihar,25.2425,87.0117,27.5,66,0.0,1001.7,8.7,30.6,201,70.8,51.8,7.8,361.0,198.0,12.6,7,5,4,1,2026-05-09T17:27:09.014519+05:30
Ranchi,Jharkhand,23.3441,85.3096,22.9,72,0.1,936.9,9.2,29.2,163,64.0,36.2,1.8,233.0,164.0,7.9,6,5,7,1,2026-05-09T17:27:09.014526+05:30
Jamshedpur,Jharkhand,22.8046,86.2029,24.0,75,0.0,991.9,8.85,31.7,169,54.7,37.1,4.3,569.0,192.0,18.5,3,5,7,1,2026-05-09T17:27:09.014533+05:30
Dhanbad,Jharkhand,23.7957,86.4304,24.9,74,0.3,980.3,8.95,35.6,154,78.2,59.6,19.9,569.0,205.0,50.4,6,5,7,1,2026-05-09T17:27:09.014540+05:30
Bokaro,Jharkhand,23.6693,86.1511,27.7,63,1.0,983.9,9.0,38.2,182,91.7,64.3,16.6,815.0,203.0,44.9,10,5,7,1,2026-05-09T17:27:09.014547+05:30
Bhubaneswar,Odisha,20.2961,85.8245,30.9,57,0.0,1001.6,9.1,31.7,49,16.8,10.4,2.9,215.0,100.0,3.7,0,5,4,1,2026-05-09T17:27:09.014554+05:30
Cuttack,Odisha,20.4625,85.8828,31.0,58,0.0,1003.5,9.15,43.2,49,16.8,10.4,2.9,228.0,100.0,3.7,0,5,4,1,2026-05-09T17:27:09.014561+05:30
Rourkela,Odisha,22.2604,84.8536,32.0,50,0.0,983.7,8.7,49.3,187,60.3,30.9,3.0,252.0,187.0,24.9,0,5,7,1,2026-05-09T17:27:09.014568+05:30
Raipur,Chhattisgarh,21.2514,81.6296,31.8,34,0.0,973.5,8.95,60.5,180,33.8,17.7,7.8,249.0,183.0,4.2,0,5,7,0,2026-05-09T17:27:09.014575+05:30
Bhilai,Chhattisgarh,21.1938,81.3509,34.6,27,0.0,973.5,8.95,42.8,153,32.1,16.1,7.7,300.0,166.0,3.8,0,5,7,0,2026-05-09T17:27:09.014582+05:30
Guwahati,Assam,26.1158,91.7086,26.9,75,0.0,1001.1,8.65,25.2,114,36.2,25.5,3.3,321.0,126.0,1.8,7,5,4,1,2026-05-09T17:27:09.014589+05:30
Agartala,Tripura,23.8315,91.2868,29.5,70,0.0,1004.9,8.8,20.2,202,60.5,48.2,11.2,401.0,183.0,5.2,7,5,4,1,2026-05-09T17:27:09.014596+05:30
Shillong,Meghalaya,25.5788,91.8933,18.8,76,0.0,857.5,8.4,24.5,117,42.3,26.4,2.9,293.0,140.0,2.7,3,5,7,0,2026-05-09T17:27:09.014603+05:30
Imphal,Manipur,24.817,93.9368,26.6,57,0.0,922.7,9.2,28.1,116,34.3,19.4,5.2,352.0,118.0,2.2,4,5,7,1,2026-05-09T17:27:09.014610+05:30
Aizawl,Mizoram,23.7271,92.7176,23.9,56,0.0,892.1,9.0,24.8,128,52.2,28.3,3.3,255.0,132.0,4.5,0,5,7,0,2026-05-09T17:27:09.014616+05:30
Kohima,Nagaland,25.6701,94.1077,19.0,85,0.0,855.6,9.15,28.8,104,29.3,18.7,2.9,298.0,129.0,1.4,3,10,7,1,2026-05-09T17:27:09.014623+05:30
Gangtok,Sikkim,27.3314,88.6138,16.6,74,0.0,837.9,8.95,35.3,98,28.5,16.1,4.2,239.0,126.0,1.4,3,5,7,0,2026-05-09T17:27:09.014630+05:30
Siliguri,West Bengal,26.7271,88.3953,27.4,71,0.0,993.0,8.55,26.3,122,39.9,24.3,4.8,792.0,148.0,2.3,7,5,7,1,2026-05-09T17:27:12.315759+05:30
Durgapur,West Bengal,23.5204,87.3119,26.9,80,0.0,995.3,8.9,42.8,146,54.1,44.8,17.6,459.0,163.0,40.8,7,5,7,1,2026-05-09T17:27:12.315795+05:30
Asansol,West Bengal,23.6739,86.9524,26.9,76,0.0,993.8,8.9,47.2,129,53.8,43.4,18.6,404.0,163.0,44.5,7,5,7,1,2026-05-09T17:27:12.315807+05:30
Pondicherry,Puducherry,11.9139,79.8145,27.0,89,0.1,1006.0,2.2,38.2,27,4.3,3.0,2.6,137.0,49.0,0.5,10,5,0,1,2026-05-09T17:27:12.315817+05:30
Port Blair,Andaman and Nicobar Islands,11.6234,92.7265,26.6,86,0.1,1004.8,8.1,43.6,27,2.8,1.9,0.6,171.0,56.0,0.1,10,5,4,1,2026-05-09T17:27:12.315826+05:30
Haridwar,Uttarakhand,29.9457,78.1642,31.0,45,0.0,973.4,7.4,28.1,167,62.9,27.0,0.5,265.0,178.0,6.5,0,5,7,1,2026-05-09T17:27:12.315833+05:30
Rishikesh,Uttarakhand,30.0869,78.2676,29.4,49,0.0,966.1,7.5,26.6,165,58.6,25.1,0.8,251.0,178.0,6.5,4,5,7,1,2026-05-09T17:27:12.315842+05:30
Nainital,Uttarakhand,29.3919,79.4542,17.0,70,0.0,806.4,7.9,30.2,138,41.1,20.0,0.4,246.0,162.0,3.3,3,5,7,0,2026-05-09T17:27:12.315849+05:30
Mussoorie,Uttarakhand,30.4599,78.0664,18.0,63,0.0,804.1,7.85,40.0,155,56.1,26.0,1.2,238.0,178.0,6.7,3,5,7,0,2026-05-09T17:27:12.315856+05:30
Dharamshala,Himachal Pradesh,32.219,76.3234,23.4,60,0.0,870.0,8.25,37.4,143,59.0,28.4,0.2,267.0,172.0,4.2,0,5,7,0,2026-05-09T17:27:12.315864+05:30
Dalhousie,Himachal Pradesh,32.5387,75.971,20.3,57,0.0,806.8,8.5,34.6,168,92.7,40.3,0.6,245.0,187.0,6.8,0,5,7,0,2026-05-09T17:27:12.315871+05:30
Patiala,Punjab,30.3398,76.3869,34.8,26,0.0,976.5,7.5,29.2,237,331.6,54.1,2.2,245.0,189.0,7.5,0,5,7,0,2026-05-09T17:27:12.315878+05:30
Bhatinda,Punjab,30.211,74.9455,37.0,26,0.0,981.7,8.2,25.6,503,415.4,81.0,1.9,271.0,213.0,19.9,0,5,10,0,2026-05-09T17:27:12.315885+05:30
Rohtak,Haryana,28.8955,76.6066,35.3,29,0.0,979.9,7.6,27.0,355,359.5,63.8,3.7,299.0,231.0,17.4,0,5,10,0,2026-05-09T17:27:12.315892+05:30
Panipat,Haryana,29.3909,76.9635,33.2,36,0.0,979.2,7.45,31.0,583,530.9,72.2,4.6,266.0,217.0,21.2,0,5,7,1,2026-05-09T17:27:12.315899+05:30
Mathura,Uttar Pradesh,27.4924,77.6737,33.8,33,0.0,985.0,7.85,27.0,774,657.5,78.9,2.4,300.0,178.0,7.5,0,5,7,0,2026-05-09T17:27:12.315905+05:30
Vrindavan,Uttar Pradesh,27.5823,77.7027,34.1,31,0.0,985.5,7.8,27.4,774,657.5,78.9,2.4,287.0,178.0,7.5,0,5,7,0,2026-05-09T17:27:12.315912+05:30
Ayodhya,Uttar Pradesh,26.7922,82.1998,30.1,51,0.0,994.8,8.15,38.9,140,64.0,33.5,1.6,338.0,173.0,6.8,0,5,7,1,2026-05-09T17:27:12.315919+05:30
Ratlam,Madhya Pradesh,23.3315,75.0367,38.0,13,0.0,952.4,8.5,40.7,84,34.7,8.9,0.5,145.0,132.0,2.1,0,5,10,0,2026-05-09T17:27:12.315926+05:30
Sagar,Madhya Pradesh,23.8388,78.7378,37.3,16,0.0,947.0,8.65,44.6,128,49.2,14.3,0.8,159.0,150.0,6.0,0,5,10,0,2026-05-09T17:27:12.315932+05:30
Satna,Madhya Pradesh,24.6005,80.8322,35.0,25,0.0,968.9,8.65,38.5,165,60.1,23.1,1.8,211.0,188.0,7.8,0,5,7,0,2026-05-09T17:27:12.315939+05:30
Akola,Maharashtra,20.7002,77.0082,39.9,13,0.0,971.1,8.85,38.2,135,61.9,19.1,0.8,192.0,169.0,11.2,0,5,10,0,2026-05-09T17:27:12.315946+05:30
Amravati,Maharashtra,20.9374,77.7796,38.3,17,0.0,964.2,8.85,34.6,129,60.8,19.2,0.8,203.0,169.0,6.6,0,5,10,0,2026-05-09T17:27:12.315953+05:30
Latur,Maharashtra,18.4088,76.5604,36.2,21,0.0,937.5,9.05,46.8,118,46.4,27.8,1.2,202.0,173.0,12.3,0,5,10,0,2026-05-09T17:27:12.315960+05:30
Nanded,Maharashtra,19.1383,77.3091,38.1,17,0.0,965.6,9.0,31.3,125,50.3,24.7,1.4,217.0,164.0,5.0,0,5,10,0,2026-05-09T17:27:12.315967+05:30
Gulbarga,Karnataka,17.3297,76.8343,37.7,21,0.0,955.3,8.9,34.6,91,21.5,13.6,1.9,209.0,163.0,3.1,0,5,10,0,2026-05-09T17:27:12.315973+05:30
Bidar,Karnataka,17.9104,77.5199,34.7,27,0.0,933.6,8.75,34.6,98,25.6,15.4,1.0,207.0,161.0,2.7,0,5,7,0,2026-05-09T17:27:12.315980+05:30
Hospet,Karnataka,15.2689,76.3909,35.5,27,0.0,951.7,9.2,36.0,49,13.9,9.6,3.0,201.0,152.0,5.1,0,5,10,0,2026-05-09T17:27:12.315986+05:30
Tirupur,Tamil Nadu,11.1085,77.3411,27.0,78,0.0,972.5,7.95,29.9,77,18.5,17.5,5.6,236.0,126.0,7.2,7,5,7,1,2026-05-09T17:27:12.315993+05:30
Alappuzha,Kerala,9.4981,76.3388,28.0,78,0.1,1005.3,7.8,31.0,105,17.1,15.2,8.0,184.0,126.0,3.2,10,5,4,1,2026-05-09T17:27:12.315999+05:30
Munnar,Kerala,10.0889,77.0595,19.2,88,0.0,854.1,5.9,24.1,52,13.1,12.2,5.3,173.0,76.0,2.1,3,10,3,1,2026-05-09T17:27:12.316006+05:30
Silchar,Assam,24.8333,92.7789,30.0,66,0.0,1003.0,8.7,16.9,143,55.8,33.1,4.9,365.0,142.0,7.0,7,5,4,1,2026-05-09T17:27:12.316013+05:30
Dibrugarh,Assam,27.4728,94.912,29.0,75,0.0,994.5,8.7,19.4,126,30.5,23.0,6.9,313.0,130.0,2.1,7,5,7,1,2026-05-09T17:27:12.316019+05:30
