city,state,latitude,longitude,temp,humidity,rain,pressure,uv_index,wind_gusts,aqi,pm10,pm2_5,no2,co,o3,so2,mosquito_risk,arthritis_risk,migraine_risk,frizz_risk,updated_at
Delhi,Delhi,28.6139,77.209,30.4,80,0.0,972.3,7.65,29.5,640,512.2,149.9,46.5,997.0,52.0,21.3,3,5,7,1,2026-07-12T20:28:50.878772+05:30
Mumbai,Maharashtra,19.076,72.8777,28.1,85,0.0,1005.6,6.6,56.5,52,36.8,14.8,6.2,158.0,45.0,5.4,7,5,4,1,2026-07-12T20:28:50.878821+05:30
Bangalore,Karnataka,12.9716,77.5946,25.7,67,0.0,910.7,8.8,48.2,50,25.3,14.1,9.1,242.0,60.0,3.9,7,5,7,1,2026-07-12T20:28:50.878838+05:30
Hyderabad,Telangana,17.385,78.4867,30.1,52,0.0,949.2,8.95,50.0,59,30.6,17.6,8.5,256.0,67.0,4.1,0,5,7,1,2026-07-12T20:28:50.878848+05:30
Chennai,Tamil Nadu,13.0827,80.2707,31.4,72,0.0,1002.9,8.85,34.2,90,41.6,25.3,6.2,201.0,119.0,7.4,3,5,4,1,2026-07-12T20:28:50.878857+05:30
Kolkata,West Bengal,22.5726,88.3639,28.8,90,0.0,998.1,8.5,25.2,146,69.2,56.9,14.7,482.0,77.0,11.6,7,5,7,1,2026-07-12T20:28:50.878865+05:30
Pune,Maharashtra,18.5204,73.8567,24.0,85,0.0,945.2,8.25,58.0,34,19.8,9.1,5.6,137.0,42.0,4.7,3,5,7,1,2026-07-12T20:28:50.878872+05:30
Ahmedabad,Gujarat,23.0225,72.5714,32.9,54,0.0,994.1,8.1,51.8,66,47.7,22.1,4.2,128.0,63.0,3.7,0,5,7,1,2026-07-12T20:28:50.878880+05:30
Jaipur,Rajasthan,26.9124,75.7873,30.7,58,0.0,951.0,8.15,37.8,382,420.0,85.0,9.1,186.0,76.0,5.2,0,5,7,1,2026-07-12T20:28:50.878887+05:30
Lucknow,Uttar Pradesh,26.8467,80.9462,31.7,65,0.0,983.3,8.2,36.7,138,105.9,47.1,11.3,247.0,73.0,6.6,3,5,7,1,2026-07-12T20:28:50.878906+05:30
Kanpur,Uttar Pradesh,26.4499,80.3319,31.4,65,0.0,982.1,7.75,40.0,117,102.2,39.7,8.2,158.0,85.0,6.3,3,5,7,1,2026-07-12T20:28:50.878914+05:30
Chandigarh,Chandigarh,30.7333,76.7794,29.2,82,0.0,958.3,7.7,52.9,158,168.1,82.4,22.7,941.0,119.0,17.5,7,5,7,1,2026-07-12T20:28:50.878921+05:30
Srinagar,Jammu and Kashmir,34.0837,74.7973,17.5,94,0.1,836.3,8.65,28.8,97,17.6,15.1,17.1,544.0,80.0,3.2,6,10,7,1,2026-07-12T20:28:50.878929+05:30
Jammu,Jammu and Kashmir,32.7266,74.857,27.3,84,0.0,962.5,8.6,30.6,139,108.0,57.2,22.2,479.0,127.0,6.3,7,5,7,1,2026-07-12T20:28:50.878939+05:30
Amritsar,Punjab,31.634,74.8723,28.5,84,0.0,970.3,8.45,37.1,160,191.4,90.1,19.6,433.0,82.0,6.3,7,5,7,1,2026-07-12T20:28:50.878946+05:30
Ludhiana,Punjab,30.901,75.8573,30.5,79,0.0,967.8,7.9,41.0,170,226.3,108.0,21.5,442.0,98.0,9.3,3,5,7,1,2026-07-12T20:28:50.878953+05:30
Jalandhar,Punjab,31.326,75.5762,28.7,81,0.0,968.9,8.15,47.9,163,139.2,76.6,18.7,590.0,96.0,6.2,7,5,7,1,2026-07-12T20:28:50.878959+05:30
Dehradun,Uttarakhand,30.6284,78.0322,19.7,99,0.0,823.7,7.5,31.7,110,94.8,45.9,8.3,226.0,119.0,5.7,3,10,7,1,2026-07-12T20:28:50.878966+05:30
Shimla,Himachal Pradesh,31.1048,77.1734,16.8,94,0.0,778.5,8.25,47.9,109,75.7,38.8,8.4,309.0,120.0,7.4,3,10,7,0,2026-07-12T20:28:50.878972+05:30
Manali,Himachal Pradesh,32.2396,77.1887,21.2,80,0.0,814.2,8.6,35.3,137,11.6,9.0,22.7,251.0,125.0,0.7,3,5,7,1,2026-07-12T20:28:50.878983+05:30
Gurgaon,Haryana,28.4595,77.0266,30.1,81,0.0,970.7,7.7,32.4,725,802.8,172.3,30.2,358.0,60.0,11.8,3,5,7,1,2026-07-12T20:28:50.878990+05:30
Noida,Uttar Pradesh,28.5355,77.391,30.3,79,0.0,973.8,7.7,28.1,725,802.8,172.3,30.2,677.0,60.0,11.8,3,5,7,1,2026-07-12T20:28:50.878996+05:30
Ghaziabad,Uttar Pradesh,28.6692,77.4538,30.3,81,0.0,972.1,7.7,29.5,524,568.1,163.4,31.6,615.0,75.0,19.2,3,5,7,1,2026-07-12T20:28:50.879003+05:30
Faridabad,Haryana,28.4089,77.3178,30.5,78,0.0,973.0,7.75,31.3,725,802.8,172.3,30.2,302.0,60.0,11.8,3,5,7,1,2026-07-12T20:28:50.879009+05:30
Meerut,Uttar Pradesh,28.9845,77.7064,29.9,80,0.0,970.8,7.55,36.4,524,568.1,163.4,31.6,363.0,75.0,19.2,7,5,7,1,2026-07-12T20:28:50.879015+05:30
Agra,Uttar Pradesh,27.1767,78.0081,31.1,64,0.0,977.8,8.0,38.2,138,197.0,51.8,11.1,191.0,73.0,5.2,3,5,7,1,2026-07-12T20:28:50.879022+05:30
Varanasi,Uttar Pradesh,25.3176,82.9739,30.7,76,0.0,988.3,8.25,37.1,95,56.9,37.6,12.5,325.0,79.0,9.4,3,5,7,1,2026-07-12T20:28:50.879028+05:30
Prayagraj,Uttar Pradesh,25.4358,81.8463,31.6,65,0.0,986.9,8.45,42.8,97,48.9,31.1,7.7,180.0,86.0,7.5,3,5,7,1,2026-07-12T20:28:50.879035+05:30
Gorakhpur,Uttar Pradesh,26.7606,83.3732,27.6,93,0.1,987.9,7.65,38.5,133,72.6,45.1,12.9,306.0,87.0,6.7,10,5,7,1,2026-07-12T20:28:50.879041+05:30
Bareilly,Uttar Pradesh,28.367,79.4304,30.4,79,0.0,975.9,8.0,31.7,169,326.9,123.4,12.3,280.0,86.0,7.8,3,5,7,1,2026-07-12T20:28:50.879049+05:30
Aligarh,Uttar Pradesh,27.8974,78.088,31.5,71,0.0,974.9,7.85,36.0,578,558.8,119.2,11.0,191.0,76.0,5.2,3,5,7,1,2026-07-12T20:28:50.879056+05:30
Moradabad,Uttar Pradesh,28.8386,78.7733,30.8,81,0.0,972.8,7.8,36.4,188,558.8,175.1,23.8,348.0,90.0,13.9,3,5,7,1,2026-07-12T20:28:50.879062+05:30
Saharanpur,Uttar Pradesh,29.9637,77.546,29.6,87,0.0,965.1,7.35,33.1,173,240.3,111.8,34.0,370.0,77.0,15.7,7,5,7,1,2026-07-12T20:28:50.879069+05:30
Jhansi,Uttar Pradesh,25.4484,78.5685,30.3,63,0.0,969.5,8.35,44.6,83,59.1,30.7,5.7,151.0,81.0,6.3,3,5,7,1,2026-07-12T20:28:54.119313+05:30
Surat,Gujarat,21.1702,72.8311,28.7,84,0.0,1001.5,5.85,68.4,58,30.3,15.7,11.2,171.0,38.0,20.1,7,5,0,1,2026-07-12T20:28:54.119345+05:30
Vadodara,Gujarat,22.3072,73.1812,29.0,80,0.0,997.6,8.05,62.3,57,35.7,19.9,7.4,117.0,52.0,8.3,7,5,7,1,2026-07-12T20:28:54.119356+05:30
Rajkot,Gujarat,22.3039,70.8022,29.6,67,0.0,987.0,7.7,61.6,59,38.5,16.9,2.3,99.0,52.0,2.5,7,5,7,1,2026-07-12T20:28:54.119365+05:30
Thane,Maharashtra,19.2183,72.9781,27.5,88,0.0,1004.9,6.05,52.6,52,36.8,14.8,6.2,181.0,45.0,5.4,7,5,4,1,2026-07-12T20:28:54.119372+05:30
Nagpur,Maharashtra,21.1458,79.0882,29.3,70,0.0,967.2,7.6,42.1,74,46.3,24.8,9.7,175.0,68.0,12.5,7,5,7,1,2026-07-12T20:28:54.119379+05:30
Nashik,Maharashtra,19.9975,73.7898,24.1,89,0.0,941.6,8.05,65.5,36,19.2,9.7,5.6,118.0,48.0,4.7,3,5,7,1,2026-07-12T20:28:54.119387+05:30
Aurangabad,Maharashtra,19.8762,75.3433,26.7,69,0.0,940.1,8.9,55.4,52,35.9,16.4,3.8,135.0,74.0,6.4,7,5,7,1,2026-07-12T20:28:54.119394+05:30
Solapur,Maharashtra,17.6599,75.9064,28.5,59,0.0,954.2,8.85,50.0,50,29.9,13.5,2.9,124.0,58.0,1.9,4,5,7,1,2026-07-12T20:28:54.119401+05:30
Kolhapur,Maharashtra,16.705,74.2433,23.5,89,0.0,946.3,8.3,54.4,34,19.0,9.7,4.4,133.0,41.0,2.3,3,5,7,1,2026-07-12T20:28:54.119408+05:30
Goa,Goa,15.2993,74.124,26.6,90,0.0,997.4,7.4,37.4,54,22.8,11.4,2.5,198.0,44.0,1.3,7,5,7,1,2026-07-12T20:28:54.119416+05:30
Jodhpur,Rajasthan,26.2389,73.0243,34.6,44,0.0,972.0,8.4,51.8,175,263.6,57.3,3.0,108.0,74.0,2.2,0,5,7,1,2026-07-12T20:28:54.119423+05:30
Udaipur,Rajasthan,24.5854,73.7125,29.2,60,0.0,938.4,8.8,56.2,72,47.8,24.4,3.0,115.0,85.0,4.5,4,5,7,1,2026-07-12T20:28:54.119430+05:30
Kota,Rajasthan,25.2138,75.8648,31.2,58,0.0,970.4,8.25,37.1,79,56.7,29.3,4.7,161.0,87.0,5.9,0,5,7,1,2026-07-12T20:28:54.119437+05:30
Bikaner,Rajasthan,28.0229,73.3119,34.0,48,0.0,971.3,8.45,41.4,159,250.5,67.5,2.1,120.0,75.0,3.0,0,5,7,1,2026-07-12T20:28:54.119444+05:30
Ajmer,Rajasthan,26.4499,74.6399,29.6,61,0.0,945.6,8.35,48.6,77,52.3,27.3,4.3,133.0,79.0,3.2,7,5,7,1,2026-07-12T20:28:54.119450+05:30
Gwalior,Madhya Pradesh,26.2183,78.1828,29.6,69,0.0,973.9,8.2,43.2,83,61.5,31.7,5.5,158.0,83.0,5.2,7,5,7,1,2026-07-12T20:28:54.119481+05:30
Indore,Madhya Pradesh,22.7196,75.8577,27.0,77,0.0,942.3,8.55,54.0,64,58.6,32.8,5.4,208.0,79.0,6.8,7,5,7,1,2026-07-12T20:28:54.119488+05:30
Bhopal,Madhya Pradesh,23.2599,77.4126,27.9,73,0.0,947.1,7.85,43.2,69,52.4,28.9,5.1,203.0,75.0,4.7,7,5,7,1,2026-07-12T20:28:54.119496+05:30
Jabalpur,Madhya Pradesh,23.1815,79.9864,27.9,69,0.0,955.2,6.5,39.2,74,47.7,25.3,4.2,175.0,78.0,4.5,7,5,7,1,2026-07-12T20:28:54.119502+05:30
Ujjain,Madhya Pradesh,23.1765,75.7885,27.8,73,0.0,947.6,8.35,54.0,64,61.0,33.3,3.8,170.0,78.0,5.3,7,5,7,1,2026-07-12T20:28:54.119510+05:30
Visakhapatnam,Andhra Pradesh,17.6868,83.2185,32.0,56,0.0,996.9,8.7,41.8,98,51.3,29.0,19.0,325.0,76.0,34.1,0,5,7,1,2026-07-12T20:28:54.119517+05:30
Vijayawada,Andhra Pradesh,16.5062,80.648,32.9,52,0.0,997.2,7.6,45.4,88,43.9,26.9,9.6,178.0,67.0,5.3,0,5,7,1,2026-07-12T20:28:54.119524+05:30
Guntur,Andhra Pradesh,16.3067,80.4365,33.9,43,0.0,998.4,8.2,48.2,81,43.0,25.6,9.5,193.0,66.0,5.1,0,5,7,1,2026-07-12T20:28:54.119531+05:30
Nellore,Andhra Pradesh,14.4426,79.9865,34.4,42,0.0,1001.2,7.95,45.7,70,45.3,24.2,4.9,174.0,104.0,4.4,0,5,4,1,2026-07-12T20:28:54.119538+05:30
Kurnool,Andhra Pradesh,15.8281,78.0373,32.8,40,0.0,972.7,8.35,48.2,56,28.0,14.3,5.3,128.0,74.0,5.8,0,5,7,1,2026-07-12T20:28:54.119547+05:30
Kakinada,Andhra Pradesh,16.9891,82.2475,31.6,59,0.0,1001.3,8.65,49.0,89,45.1,21.8,5.1,249.0,94.0,4.1,0,5,4,1,2026-07-12T20:28:54.119554+05:30
Tirupati,Andhra Pradesh,13.6288,79.4192,32.6,55,0.0,987.0,8.65,33.1,79,78.2,39.5,29.9,286.0,56.0,5.6,0,5,7,1,2026-07-12T20:28:54.119562+05:30
Warangal,Telangana,17.9689,79.5941,29.5,71,0.0,973.7,8.9,43.6,74,45.4,27.0,10.3,271.0,57.0,4.9,7,5,7,1,2026-07-12T20:28:54.119569+05:30
Nizamabad,Telangana,18.6725,78.0941,29.2,60,0.0,959.6,8.9,45.7,63,39.6,22.0,7.4,225.0,66.0,4.4,4,5,7,1,2026-07-12T20:28:54.119576+05:30
Mysore,Karnataka,12.2958,76.6396,23.6,82,0.0,927.7,8.65,44.3,42,16.6,8.6,5.0,127.0,54.0,2.1,3,5,7,1,2026-07-12T20:28:54.119583+05:30
Mangalore,Karnataka,12.9141,74.856,27.2,83,0.0,1007.1,5.45,42.1,42,16.3,8.9,3.5,108.0,43.0,1.8,7,5,0,1,2026-07-12T20:28:54.119590+05:30
Hubli-Dharwad,Karnataka,15.3647,75.124,24.1,84,0.0,939.6,8.8,50.4,31,15.1,7.6,3.4,118.0,44.0,1.4,3,5,7,1,2026-07-12T20:28:54.119597+05:30
Belgaum,Karnataka,15.8497,74.4977,22.0,94,0.0,924.2,8.5,50.8,31,15.1,7.5,4.3,120.0,39.0,1.8,3,5,7,1,2026-07-12T20:28:57.361839+05:30
Coimbatore,Tamil Nadu,11.0168,76.9558,25.1,86,0.0,960.4,8.2,56.5,43,11.4,7.4,4.3,152.0,49.0,2.6,7,5,7,1,2026-07-12T20:28:57.361872+05:30
Madurai,Tamil Nadu,9.9252,78.1198,31.6,54,0.0,990.3,8.0,39.2,67,35.2,13.4,5.1,140.0,67.0,2.8,0,5,7,1,2026-07-12T20:28:57.361883+05:30
Trichy,Tamil Nadu,10.7905,78.7047,31.9,52,0.0,996.8,8.4,55.8,51,36.4,19.0,10.6,124.0,55.0,3.9,0,5,7,1,2026-07-12T20:28:57.361892+05:30
Salem,Tamil Nadu,11.6643,78.146,29.1,65,0.0,975.1,8.65,33.5,64,29.0,14.7,7.3,225.0,63.0,4.8,7,5,7,1,2026-07-12T20:28:57.361900+05:30
Tirunelveli,Tamil Nadu,8.7139,77.7567,30.3,57,0.0,1001.3,7.95,46.4,33,11.8,6.9,3.2,112.0,50.0,1.6,0,5,4,1,2026-07-12T20:28:57.361908+05:30
Vellore,Tamil Nadu,12.9165,79.1325,34.3,41,0.0,980.5,8.45,41.0,70,50.4,26.1,11.0,208.0,66.0,3.9,0,5,7,1,2026-07-12T20:28:57.361915+05:30
Erode,Tamil Nadu,11.341,77.7172,28.6,68,0.0,987.0,8.55,51.8,54,21.3,11.7,9.1,153.0,52.0,2.8,7,5,7,1,2026-07-12T20:28:57.361923+05:30
Kochi,Kerala,9.9312,76.2673,27.5,84,0.0,1009.3,7.9,42.1,49,16.1,10.8,9.6,114.0,36.0,3.7,7,0,4,1,2026-07-12T20:28:57.361930+05:30
Thiruvananthapuram,Kerala,8.5241,76.9366,26.5,86,0.0,1008.5,7.65,49.3,37,15.1,8.6,3.2,101.0,46.0,1.2,7,0,4,1,2026-07-12T20:28:57.361939+05:30
Kozhikode,Kerala,11.2588,75.7804,25.9,92,0.0,1008.4,8.05,44.3,35,16.6,7.8,1.1,114.0,50.0,1.0,7,0,4,1,2026-07-12T20:28:57.361946+05:30
Thrissur,Kerala,10.5276,76.2144,26.4,88,0.0,1007.7,7.8,39.2,42,14.8,9.6,6.5,137.0,39.0,2.7,7,5,4,1,2026-07-12T20:28:57.361955+05:30
Kannur,Kerala,11.8745,75.3704,26.9,86,0.0,1007.5,7.8,46.8,39,15.1,8.4,4.2,114.0,41.0,1.6,7,5,4,1,2026-07-12T20:28:57.361962+05:30
Patna,Bihar,25.5941,85.1376,30.6,75,0.0,991.0,8.25,38.5,138,114.6,65.2,20.7,276.0,67.0,10.8,3,5,7,1,2026-07-12T20:28:57.361969+05:30
Gaya,Bihar,24.7914,85.0002,30.1,75,0.0,984.9,8.8,38.9,115,78.7,50.8,15.5,273.0,67.0,8.1,3,5,7,1,2026-07-12T20:28:57.361976+05:30
Muzaffarpur,Bihar,26.1209,85.3647,28.8,91,0.0,990.9,7.2,42.5,136,148.5,82.0,25.1,365.0,64.0,12.0,7,5,7,1,2026-07-12T20:28:57.361983+05:30
Bhagalpur,Bihar,25.2425,87.0117,31.2,79,0.0,991.9,8.35,40.3,113,92.4,61.5,25.7,442.0,60.0,11.4,3,5,7,1,2026-07-12T20:28:57.361990+05:30
Ranchi,Jharkhand,23.3441,85.3096,25.1,90,0.0,930.6,9.25,37.8,96,53.0,35.5,12.2,218.0,78.0,8.2,7,5,7,1,2026-07-12T20:28:57.361997+05:30
Jamshedpur,Jharkhand,22.8046,86.2029,28.4,84,0.0,983.0,9.05,29.2,112,65.7,41.7,14.9,277.0,76.0,15.0,7,5,7,1,2026-07-12T20:28:57.362004+05:30
Dhanbad,Jharkhand,23.7957,86.4304,27.8,93,0.1,972.0,8.8,29.5,151,114.6,90.1,51.4,811.0,52.0,174.8,10,5,7,1,2026-07-12T20:28:57.362011+05:30
Bokaro,Jharkhand,23.6693,86.1511,28.7,85,0.0,976.0,8.95,32.4,144,108.0,83.6,42.1,327.0,67.0,154.8,7,5,7,1,2026-07-12T20:28:57.362018+05:30
Bhubaneswar,Odisha,20.2961,85.8245,29.5,81,0.0,995.1,8.5,37.1,122,48.0,34.7,12.1,264.0,80.0,7.6,7,5,7,1,2026-07-12T20:28:57.362025+05:30
Cuttack,Odisha,20.4625,85.8828,29.9,80,0.0,996.9,8.4,39.6,122,48.0,34.7,12.1,284.0,80.0,7.6,7,5,7,1,2026-07-12T20:28:57.362032+05:30
Rourkela,Odisha,22.2604,84.8536,26.6,93,0.0,977.4,8.85,32.8,108,48.1,35.2,7.9,297.0,116.0,14.6,7,5,7,1,2026-07-12T20:28:57.362039+05:30
Raipur,Chhattisgarh,21.2514,81.6296,29.3,64,0.0,968.3,6.1,45.7,97,51.9,32.9,17.0,299.0,84.0,34.4,7,5,7,1,2026-07-12T20:28:57.362046+05:30
Bhilai,Chhattisgarh,21.1938,81.3509,28.8,67,0.0,968.9,7.4,47.5,91,53.7,32.5,13.5,486.0,87.0,27.4,7,5,7,1,2026-07-12T20:28:57.362052+05:30
Guwahati,Assam,26.1158,91.7086,26.8,99,0.1,993.2,4.15,18.7,40,11.0,10.9,9.6,323.0,55.0,3.0,10,5,3,1,2026-07-12T20:28:57.362060+05:30
Agartala,Tripura,23.8315,91.2868,26.3,98,0.1,998.5,7.9,31.7,87,42.8,38.1,13.0,252.0,86.0,5.9,10,5,7,1,2026-07-12T20:28:57.362067+05:30
Shillong,Meghalaya,25.5788,91.8933,21.4,94,0.0,851.8,3.55,39.6,40,5.9,5.0,6.0,319.0,71.0,3.6,3,5,3,1,2026-07-12T20:28:57.362074+05:30
Imphal,Manipur,24.817,93.9368,24.4,96,0.0,917.3,7.15,20.5,44,27.1,22.4,17.3,489.0,52.0,5.8,3,5,7,1,2026-07-12T20:28:57.362081+05:30
Aizawl,Mizoram,23.7271,92.7176,20.9,92,0.0,886.8,7.8,36.7,51,20.2,12.2,2.1,163.0,73.0,2.8,3,5,7,1,2026-07-12T20:28:57.362088+05:30
Kohima,Nagaland,25.6701,94.1077,21.3,97,0.1,850.8,8.05,19.4,38,11.9,10.3,8.6,258.0,53.0,2.1,6,5,7,1,2026-07-12T20:28:57.362095+05:30
Gangtok,Sikkim,27.3314,88.6138,20.2,95,0.2,832.8,4.0,30.2,49,3.6,3.5,3.9,279.0,108.0,1.0,6,5,3,1,2026-07-12T20:28:57.362102+05:30
Siliguri,West Bengal,26.7271,88.3953,25.9,97,0.2,984.6,7.9,23.4,58,18.4,16.7,8.3,471.0,104.0,3.1,10,5,7,1,2026-07-12T20:29:00.609503+05:30
Durgapur,West Bengal,23.5204,87.3119,28.5,91,0.1,986.9,5.2,28.1,151,88.0,68.2,33.4,984.0,69.0,43.2,10,5,3,1,2026-07-12T20:29:00.609537+05:30
Asansol,West Bengal,23.6739,86.9524,28.0,94,0.2,985.5,8.3,28.8,136,78.7,57.7,33.6,315.0,66.0,44.0,10,5,7,1,2026-07-12T20:29:00.609548+05:30
Pondicherry,Puducherry,11.9139,79.8145,30.8,77,0.0,1004.0,8.65,45.0,77,44.9,25.4,11.8,187.0,95.0,9.3,3,5,4,1,2026-07-12T20:29:00.609557+05:30
Port Blair,Andaman and Nicobar Islands,11.6234,92.7265,27.4,83,0.1,1005.5,8.7,55.8,52,22.5,9.8,0.3,91.0,46.0,0.4,10,5,4,1,2026-07-12T20:29:00.609565+05:30
Haridwar,Uttarakhand,29.9457,78.1642,29.6,84,0.0,963.4,7.45,37.4,158,185.8,94.8,21.5,404.0,92.0,12.4,7,5,7,1,2026-07-12T20:29:00.609574+05:30
Rishikesh,Uttarakhand,30.0869,78.2676,28.2,86,0.0,956.3,7.6,29.9,130,140.2,66.4,8.8,319.0,122.0,9.6,7,5,7,1,2026-07-12T20:29:00.609581+05:30
Nainital,Uttarakhand,29.3919,79.4542,17.7,100,0.0,799.1,6.3,32.8,151,177.0,73.1,10.3,225.0,103.0,6.6,3,10,7,1,2026-07-12T20:29:00.609589+05:30
Mussoorie,Uttarakhand,30.4599,78.0664,17.6,100,0.0,796.5,8.0,43.2,127,128.1,67.5,12.3,268.0,115.0,9.7,3,10,7,1,2026-07-12T20:29:00.609597+05:30
Dharamshala,Himachal Pradesh,32.219,76.3234,22.2,80,0.0,861.3,8.45,28.8,98,38.8,22.3,7.3,515.0,102.0,1.6,3,5,7,1,2026-07-12T20:29:00.609604+05:30
Dalhousie,Himachal Pradesh,32.5387,75.971,17.7,89,0.0,798.0,8.65,25.6,122,69.8,37.8,15.8,582.0,125.0,2.9,3,10,7,0,2026-07-12T20:29:00.609613+05:30
Patiala,Punjab,30.3398,76.3869,29.7,84,0.0,967.4,7.5,29.9,166,290.6,129.0,28.8,431.0,83.0,10.8,7,5,7,1,2026-07-12T20:29:00.609621+05:30
Bhatinda,Punjab,30.211,74.9455,32.3,72,0.0,972.8,8.25,37.1,362,354.8,155.1,32.2,322.0,70.0,10.2,3,5,7,1,2026-07-12T20:29:00.609628+05:30
Rohtak,Haryana,28.8955,76.6066,30.3,83,0.0,971.0,7.65,37.8,1042,571.8,132.7,19.5,241.0,63.0,4.6,3,5,7,1,2026-07-12T20:29:00.609635+05:30
Panipat,Haryana,29.3909,76.9635,29.8,79,0.0,969.7,7.45,44.6,1413,1099.0,220.7,25.0,368.0,55.0,7.6,7,5,7,1,2026-07-12T20:29:00.609642+05:30
Mathura,Uttar Pradesh,27.4924,77.6737,31.9,60,0.0,976.4,7.95,36.7,837,983.5,146.2,10.8,163.0,77.0,3.7,0,5,7,1,2026-07-12T20:29:00.609649+05:30
Vrindavan,Uttar Pradesh,27.5823,77.7027,32.0,60,0.0,976.7,7.9,36.0,837,983.5,146.2,10.8,167.0,77.0,3.7,0,5,7,1,2026-07-12T20:29:00.609656+05:30
Ayodhya,Uttar Pradesh,26.7922,82.1998,28.8,90,0.0,985.7,7.05,36.4,138,109.2,55.2,15.8,341.0,67.0,6.8,7,5,7,1,2026-07-12T20:29:00.609664+05:30
Ratlam,Madhya Pradesh,23.3315,75.0367,27.8,75,0.0,948.4,8.45,58.0,63,58.0,30.6,3.1,123.0,78.0,5.5,7,5,7,1,2026-07-12T20:29:00.609671+05:30
Sagar,Madhya Pradesh,23.8388,78.7378,27.7,70,0.0,943.6,7.65,43.2,73,51.8,26.8,3.4,154.0,76.0,3.3,7,5,7,1,2026-07-12T20:29:00.609677+05:30
Satna,Madhya Pradesh,24.6005,80.8322,30.0,61,0.0,964.0,8.5,45.7,79,43.9,24.4,4.7,157.0,81.0,3.6,7,5,7,1,2026-07-12T20:29:00.609684+05:30
Akola,Maharashtra,20.7002,77.0082,31.3,53,0.0,969.5,7.9,45.0,58,41.4,20.9,6.2,150.0,72.0,6.8,0,5,7,1,2026-07-12T20:29:00.609691+05:30
Amravati,Maharashtra,20.9374,77.7796,29.8,62,0.0,961.5,5.85,44.3,60,40.7,20.6,7.1,149.0,73.0,7.7,7,5,3,1,2026-07-12T20:29:00.609699+05:30
Latur,Maharashtra,18.4088,76.5604,27.6,58,0.0,936.3,8.85,46.8,51,30.7,15.0,2.6,143.0,70.0,2.3,4,5,7,1,2026-07-12T20:29:00.609707+05:30
Nanded,Maharashtra,19.1383,77.3091,30.5,56,0.0,963.6,8.85,39.6,57,36.9,20.3,4.8,159.0,73.0,3.3,0,5,7,1,2026-07-12T20:29:00.609714+05:30
Gulbarga,Karnataka,17.3297,76.8343,29.0,56,0.0,955.2,8.75,49.7,51,28.2,13.9,4.4,149.0,63.0,2.4,4,5,7,1,2026-07-12T20:29:00.609721+05:30
Bidar,Karnataka,17.9104,77.5199,28.6,54,0.0,931.7,8.9,47.9,56,33.4,18.5,6.3,134.0,67.0,2.3,4,5,7,1,2026-07-12T20:29:00.609728+05:30
Hospet,Karnataka,15.2689,76.3909,28.1,58,0.0,953.9,8.55,52.9,38,18.9,9.2,3.3,122.0,53.0,1.8,4,5,7,1,2026-07-12T20:29:00.609734+05:30
Tirupur,Tamil Nadu,11.1085,77.3411,26.6,78,0.0,973.6,8.4,61.9,57,24.3,13.4,11.1,142.0,49.0,3.7,7,5,7,1,2026-07-12T20:29:00.609740+05:30
Alappuzha,Kerala,9.4981,76.3388,27.7,84,0.0,1009.4,7.9,42.8,44,14.7,8.7,5.1,82.0,45.0,2.2,7,0,4,1,2026-07-12T20:29:00.609748+05:30
Munnar,Kerala,10.0889,77.0595,16.8,100,0.0,856.7,8.05,38.5,35,12.5,8.1,4.9,103.0,45.0,1.9,3,10,7,1,2026-07-12T20:29:00.609755+05:30
Silchar,Assam,24.8333,92.7789,27.2,97,0.0,997.4,6.4,30.2,71,40.7,27.5,6.3,310.0,80.0,6.0,7,5,7,1,2026-07-12T20:29:00.609762+05:30
Dibrugarh,Assam,27.4728,94.912,27.1,97,0.2,988.4,3.7,23.8,58,17.5,17.3,12.5,292.0,60.0,2.7,10,5,3,1,2026-07-12T20:29:00.609769+05:30
