city,state,latitude,longitude,temp,humidity,rain,pressure,uv_index,wind_gusts,aqi,pm10,pm2_5,mosquito_risk,arthritis_risk,migraine_risk,frizz_risk,updated_at
Delhi,Delhi,28.6139,77.209,19.3,87,0.0,986.4,6.55,26.3,152,118.7,92.0,3,10,7,1,2026-03-24T04:06:35.058244+05:30
Mumbai,Maharashtra,19.076,72.8777,27.6,80,0.0,1008.1,7.95,27.0,98,45.1,26.7,7,0,4,1,2026-03-24T04:06:35.058288+05:30
Bangalore,Karnataka,12.9716,77.5946,21.7,84,0.0,911.4,9.5,38.9,84,37.5,32.2,3,5,7,1,2026-03-24T04:06:35.058302+05:30
Hyderabad,Telangana,17.385,78.4867,23.4,79,0.0,953.1,8.95,20.2,86,26.0,21.0,3,5,7,1,2026-03-24T04:06:35.058312+05:30
Chennai,Tamil Nadu,13.0827,80.2707,26.1,80,0.0,1008.1,9.25,33.5,35,14.0,8.7,7,0,4,1,2026-03-24T04:06:35.058321+05:30
Kolkata,West Bengal,22.5726,88.3639,22.0,96,0.0,1008.7,8.3,20.9,148,55.1,48.3,3,0,4,1,2026-03-24T04:06:35.058329+05:30
Pune,Maharashtra,18.5204,73.8567,22.8,58,0.0,948.0,8.5,28.1,81,45.9,39.3,0,5,7,0,2026-03-24T04:06:35.058341+05:30
Ahmedabad,Gujarat,23.0225,72.5714,23.5,67,0.0,1003.2,7.75,15.5,78,31.7,23.5,3,5,4,1,2026-03-24T04:06:35.058348+05:30
Jaipur,Rajasthan,26.9124,75.7873,20.4,79,0.0,961.8,7.25,14.8,124,146.7,47.5,3,5,7,1,2026-03-24T04:06:35.058355+05:30
Lucknow,Uttar Pradesh,26.8467,80.9462,20.0,79,0.0,997.1,7.1,29.2,148,85.9,52.4,3,5,7,1,2026-03-24T04:06:35.058362+05:30
Kanpur,Uttar Pradesh,26.4499,80.3319,19.3,81,0.0,995.3,7.0,26.3,189,171.4,60.8,3,10,7,0,2026-03-24T04:06:35.058370+05:30
Chandigarh,Chandigarh,30.7333,76.7794,15.6,86,0.0,972.0,6.5,34.9,104,51.8,47.5,3,10,7,0,2026-03-24T04:06:35.058377+05:30
Srinagar,Jammu and Kashmir,34.0837,74.7973,7.0,92,0.0,842.2,7.55,15.1,86,38.2,35.3,3,10,7,0,2026-03-24T04:06:35.058385+05:30
Jammu,Jammu and Kashmir,32.7266,74.857,16.9,74,0.0,976.6,7.2,32.4,83,24.2,23.2,3,5,7,0,2026-03-24T04:06:35.058392+05:30
Amritsar,Punjab,31.634,74.8723,16.8,88,0.0,984.1,7.15,27.0,118,63.6,53.4,3,10,7,0,2026-03-24T04:06:35.058399+05:30
Ludhiana,Punjab,30.901,75.8573,17.1,84,0.0,982.1,6.65,31.0,148,99.7,84.5,3,10,7,0,2026-03-24T04:06:35.058406+05:30
Jalandhar,Punjab,31.326,75.5762,16.2,91,0.0,983.4,6.95,30.6,131,79.9,70.5,3,10,7,0,2026-03-24T04:06:35.058422+05:30
Dehradun,Uttarakhand,30.6284,78.0322,8.8,83,0.0,828.6,6.95,34.2,61,15.0,12.9,3,10,7,0,2026-03-24T04:06:35.058430+05:30
Shimla,Himachal Pradesh,31.1048,77.1734,6.9,83,0.0,781.7,7.0,50.4,77,36.4,32.5,3,10,7,0,2026-03-24T04:06:35.058438+05:30
Manali,Himachal Pradesh,32.2396,77.1887,9.5,52,0.0,816.9,9.15,27.7,53,12.0,10.1,0,5,7,0,2026-03-24T04:06:35.058445+05:30
Gurgaon,Haryana,28.4595,77.0266,18.3,92,0.0,984.7,6.65,24.5,155,149.0,98.7,3,10,7,1,2026-03-24T04:06:35.058452+05:30
Noida,Uttar Pradesh,28.5355,77.391,18.7,91,0.0,988.0,6.55,25.2,155,149.0,98.7,3,10,7,1,2026-03-24T04:06:35.058459+05:30
Ghaziabad,Uttar Pradesh,28.6692,77.4538,18.1,92,0.0,986.1,6.25,25.2,152,113.9,92.2,3,10,7,1,2026-03-24T04:06:35.058465+05:30
Faridabad,Haryana,28.4089,77.3178,18.1,91,0.0,987.2,6.6,23.0,155,149.0,98.7,3,10,7,1,2026-03-24T04:06:35.058472+05:30
Meerut,Uttar Pradesh,28.9845,77.7064,16.5,97,0.0,984.9,6.45,27.4,152,113.9,92.2,3,10,7,0,2026-03-24T04:06:35.058478+05:30
Agra,Uttar Pradesh,27.1767,78.0081,18.3,92,0.0,991.3,6.45,23.0,159,150.9,71.7,3,10,7,1,2026-03-24T04:06:35.058486+05:30
Varanasi,Uttar Pradesh,25.3176,82.9739,20.3,72,0.0,1000.6,7.7,24.1,120,105.0,57.2,3,5,4,0,2026-03-24T04:06:35.058495+05:30
Prayagraj,Uttar Pradesh,25.4358,81.8463,21.1,72,0.0,999.1,7.6,21.2,119,58.0,41.1,3,5,7,0,2026-03-24T04:06:35.058502+05:30
Gorakhpur,Uttar Pradesh,26.7606,83.3732,18.5,90,0.0,1000.1,7.45,31.7,136,62.9,47.7,3,10,4,1,2026-03-24T04:06:35.058509+05:30
Bareilly,Uttar Pradesh,28.367,79.4304,17.6,97,0.0,990.5,6.8,27.0,106,79.9,49.8,3,10,7,1,2026-03-24T04:06:35.058516+05:30
Aligarh,Uttar Pradesh,27.8974,78.088,17.3,95,0.0,988.9,6.7,21.6,150,201.2,85.2,3,10,7,1,2026-03-24T04:06:35.058537+05:30
Moradabad,Uttar Pradesh,28.8386,78.7733,16.6,97,0.0,987.3,6.6,28.4,128,82.2,69.6,3,10,7,1,2026-03-24T04:06:35.058544+05:30
Saharanpur,Uttar Pradesh,29.9637,77.546,15.5,97,0.0,979.2,6.25,36.4,151,106.6,90.3,3,10,7,0,2026-03-24T04:06:35.058551+05:30
Jhansi,Uttar Pradesh,25.4484,78.5685,18.9,82,0.0,980.5,7.55,26.6,89,131.3,46.4,3,10,7,0,2026-03-24T04:06:38.315754+05:30
Surat,Gujarat,21.1702,72.8311,25.0,81,0.0,1007.2,7.05,20.5,133,62.2,51.6,7,5,4,1,2026-03-24T04:06:38.315787+05:30
Vadodara,Gujarat,22.3072,73.1812,24.1,62,0.0,1005.1,7.7,20.9,92,61.0,41.6,3,5,4,1,2026-03-24T04:06:38.315799+05:30
Rajkot,Gujarat,22.3039,70.8022,21.7,90,0.0,995.5,7.3,21.2,63,7.8,6.1,3,5,7,1,2026-03-24T04:06:38.315808+05:30
Thane,Maharashtra,19.2183,72.9781,25.4,80,0.0,1007.7,7.75,41.8,98,45.1,26.7,7,5,4,1,2026-03-24T04:06:38.315815+05:30
Nagpur,Maharashtra,21.1458,79.0882,23.1,59,0.0,973.6,8.45,21.2,86,54.8,47.8,0,5,7,0,2026-03-24T04:06:38.315822+05:30
Nashik,Maharashtra,19.9975,73.7898,23.7,56,0.0,945.7,8.05,31.3,62,54.4,27.7,0,5,7,0,2026-03-24T04:06:38.315829+05:30
Aurangabad,Maharashtra,19.8762,75.3433,24.5,48,0.0,944.1,8.55,23.8,63,35.3,18.6,0,5,7,0,2026-03-24T04:06:38.315835+05:30
Solapur,Maharashtra,17.6599,75.9064,23.7,56,0.0,956.4,8.8,20.9,92,50.1,40.7,0,5,7,0,2026-03-24T04:06:38.315842+05:30
Kolhapur,Maharashtra,16.705,74.2433,18.9,89,0.0,946.9,8.95,43.9,114,62.9,58.9,3,10,7,1,2026-03-24T04:06:38.315849+05:30
Goa,Goa,15.2993,74.124,27.6,82,0.0,997.6,8.9,30.6,84,54.0,41.1,7,5,7,1,2026-03-24T04:06:38.315855+05:30
Jodhpur,Rajasthan,26.2389,73.0243,24.9,50,0.0,984.3,7.1,15.1,75,47.3,20.2,0,5,7,0,2026-03-24T04:06:38.315861+05:30
Udaipur,Rajasthan,24.5854,73.7125,19.7,66,0.0,947.5,8.1,23.8,61,57.7,22.1,3,5,7,0,2026-03-24T04:06:38.315868+05:30
Kota,Rajasthan,25.2138,75.8648,20.0,86,0.0,980.8,7.65,15.1,84,111.5,43.8,3,5,7,1,2026-03-24T04:06:38.315875+05:30
Bikaner,Rajasthan,28.0229,73.3119,24.5,52,0.0,983.7,7.15,19.1,70,45.8,19.4,0,5,7,0,2026-03-24T04:06:38.315881+05:30
Ajmer,Rajasthan,26.4499,74.6399,22.1,70,0.0,956.1,7.6,23.8,73,108.3,37.8,3,5,7,1,2026-03-24T04:06:38.315887+05:30
Gwalior,Madhya Pradesh,26.2183,78.1828,19.4,89,0.0,986.3,7.2,27.0,104,96.2,47.4,3,10,7,1,2026-03-24T04:06:38.315893+05:30
Indore,Madhya Pradesh,22.7196,75.8577,20.5,65,0.0,948.1,8.1,24.8,61,27.2,17.8,3,5,7,0,2026-03-24T04:06:38.315900+05:30
Bhopal,Madhya Pradesh,23.2599,77.4126,20.1,71,0.0,954.3,8.05,30.6,53,42.7,22.9,3,5,7,0,2026-03-24T04:06:38.315906+05:30
Jabalpur,Madhya Pradesh,23.1815,79.9864,21.6,65,0.0,962.7,8.15,25.9,63,39.6,20.5,3,5,7,0,2026-03-24T04:06:38.315912+05:30
Ujjain,Madhya Pradesh,23.1765,75.7885,20.5,65,0.0,954.0,8.0,16.2,69,31.0,20.8,3,5,7,0,2026-03-24T04:06:38.315919+05:30
Visakhapatnam,Andhra Pradesh,17.6868,83.2185,24.2,91,0.0,1005.1,8.95,36.7,88,34.2,27.8,3,5,4,1,2026-03-24T04:06:38.315926+05:30
Vijayawada,Andhra Pradesh,16.5062,80.648,24.0,92,0.0,1003.7,9.0,23.8,64,21.7,17.1,3,5,4,1,2026-03-24T04:06:38.315932+05:30
Guntur,Andhra Pradesh,16.3067,80.4365,23.9,94,0.0,1004.9,9.0,29.2,62,18.6,14.7,3,5,4,1,2026-03-24T04:06:38.315939+05:30
Nellore,Andhra Pradesh,14.4426,79.9865,24.8,89,0.0,1006.7,9.15,31.0,42,12.2,7.6,3,5,4,1,2026-03-24T04:06:38.315945+05:30
Kurnool,Andhra Pradesh,15.8281,78.0373,25.9,72,0.0,976.8,9.0,22.3,65,11.7,9.5,7,5,7,1,2026-03-24T04:06:38.315952+05:30
Kakinada,Andhra Pradesh,16.9891,82.2475,23.1,96,0.0,1008.9,8.95,28.8,54,22.1,14.1,3,0,4,1,2026-03-24T04:06:38.315959+05:30
Tirupati,Andhra Pradesh,13.6288,79.4192,22.7,89,0.0,992.6,9.25,27.7,65,25.7,23.0,3,5,7,1,2026-03-24T04:06:38.315965+05:30
Warangal,Telangana,17.9689,79.5941,23.6,82,0.0,979.1,8.8,27.7,104,23.4,21.1,3,5,7,1,2026-03-24T04:06:38.315972+05:30
Nizamabad,Telangana,18.6725,78.0941,25.3,63,0.0,964.5,8.75,30.6,123,39.2,34.8,7,5,7,1,2026-03-24T04:06:38.315978+05:30
Mysore,Karnataka,12.2958,76.6396,22.1,88,0.0,928.1,9.45,45.7,102,52.5,45.6,3,5,7,1,2026-03-24T04:06:38.315984+05:30
Mangalore,Karnataka,12.9141,74.856,28.8,80,0.0,1006.3,9.1,22.0,74,35.9,30.5,7,5,4,1,2026-03-24T04:06:38.315990+05:30
Hubli-Dharwad,Karnataka,15.3647,75.124,22.5,89,0.0,940.2,9.0,43.2,83,25.0,21.8,3,5,7,1,2026-03-24T04:06:38.315996+05:30
Belgaum,Karnataka,15.8497,74.4977,21.4,97,0.0,925.0,9.05,42.5,83,44.1,36.1,3,5,7,1,2026-03-24T04:06:41.576131+05:30
Coimbatore,Tamil Nadu,11.0168,76.9558,22.1,73,0.0,962.0,9.4,31.7,78,31.4,25.6,3,5,7,1,2026-03-24T04:06:41.576161+05:30
Madurai,Tamil Nadu,9.9252,78.1198,25.1,85,0.0,993.8,9.35,27.7,61,27.2,24.3,7,5,7,1,2026-03-24T04:06:41.576171+05:30
Trichy,Tamil Nadu,10.7905,78.7047,23.7,94,0.0,1000.8,9.3,23.0,56,18.9,16.4,3,5,4,1,2026-03-24T04:06:41.576179+05:30
Salem,Tamil Nadu,11.6643,78.146,24.0,84,0.0,977.9,9.35,24.5,79,36.6,32.7,3,5,7,1,2026-03-24T04:06:41.576186+05:30
Tirunelveli,Tamil Nadu,8.7139,77.7567,25.8,80,0.0,1003.8,9.35,38.5,60,24.6,20.8,7,5,4,1,2026-03-24T04:06:41.576193+05:30
Vellore,Tamil Nadu,12.9165,79.1325,22.4,89,0.0,985.4,9.3,32.8,73,36.1,32.9,3,5,7,1,2026-03-24T04:06:41.576200+05:30
Erode,Tamil Nadu,11.341,77.7172,24.6,85,0.0,989.9,9.35,19.8,58,21.9,19.0,3,5,7,1,2026-03-24T04:06:41.576207+05:30
Kochi,Kerala,9.9312,76.2673,27.3,84,0.0,1008.6,9.15,35.6,88,49.5,46.4,7,0,4,1,2026-03-24T04:06:41.576214+05:30
Thiruvananthapuram,Kerala,8.5241,76.9366,28.4,80,0.0,1007.4,9.2,32.0,82,28.0,19.7,7,5,4,1,2026-03-24T04:06:41.576221+05:30
Kozhikode,Kerala,11.2588,75.7804,27.6,83,0.0,1007.9,9.1,28.4,66,28.8,19.6,7,5,4,1,2026-03-24T04:06:41.576228+05:30
Thrissur,Kerala,10.5276,76.2144,25.3,84,0.0,1007.2,9.15,39.6,82,64.0,56.9,7,5,4,1,2026-03-24T04:06:41.576236+05:30
Kannur,Kerala,11.8745,75.3704,28.1,80,0.0,1006.8,9.1,28.4,68,33.6,28.1,7,5,4,1,2026-03-24T04:06:41.576243+05:30
Patna,Bihar,25.5941,85.1376,21.6,81,0.0,1002.9,7.9,35.3,152,140.6,104.3,3,5,4,1,2026-03-24T04:06:41.576250+05:30
Gaya,Bihar,24.7914,85.0002,20.9,74,0.0,996.2,7.95,20.9,102,141.1,54.2,3,5,7,1,2026-03-24T04:06:41.576256+05:30
Muzaffarpur,Bihar,26.1209,85.3647,20.4,82,0.0,1002.9,7.85,30.6,156,128.5,107.8,3,5,4,1,2026-03-24T04:06:41.576262+05:30
Bhagalpur,Bihar,25.2425,87.0117,21.3,79,0.0,1003.7,7.85,28.4,124,52.4,49.9,3,5,4,1,2026-03-24T04:06:41.576268+05:30
Ranchi,Jharkhand,23.3441,85.3096,19.8,60,0.0,938.9,8.3,32.0,67,61.7,22.4,0,5,7,0,2026-03-24T04:06:41.576275+05:30
Jamshedpur,Jharkhand,22.8046,86.2029,22.9,75,0.0,993.2,8.45,27.0,148,101.5,89.2,3,5,7,1,2026-03-24T04:06:41.576281+05:30
Dhanbad,Jharkhand,23.7957,86.4304,21.8,67,0.0,982.0,8.35,28.8,157,133.2,118.0,3,5,7,0,2026-03-24T04:06:41.576287+05:30
Bokaro,Jharkhand,23.6693,86.1511,23.0,57,0.0,986.2,8.35,24.5,154,140.6,109.2,0,5,7,0,2026-03-24T04:06:41.576294+05:30
Bhubaneswar,Odisha,20.2961,85.8245,24.4,94,0.0,1004.4,8.75,31.3,110,31.1,25.2,3,5,4,1,2026-03-24T04:06:41.576301+05:30
Cuttack,Odisha,20.4625,85.8828,24.2,94,0.0,1006.3,8.75,26.6,110,31.1,25.2,3,5,4,1,2026-03-24T04:06:41.576307+05:30
Rourkela,Odisha,22.2604,84.8536,19.0,79,0.0,986.7,8.0,21.2,90,43.8,28.2,3,5,7,0,2026-03-24T04:06:41.576313+05:30
Raipur,Chhattisgarh,21.2514,81.6296,23.6,49,0.0,975.4,8.5,20.5,118,63.8,53.2,0,5,7,0,2026-03-24T04:06:41.576319+05:30
Bhilai,Chhattisgarh,21.1938,81.3509,23.5,52,0.0,975.7,8.5,17.6,119,70.1,59.1,0,5,7,0,2026-03-24T04:06:41.576325+05:30
Guwahati,Assam,26.1158,91.7086,20.7,86,0.0,1004.6,7.75,29.2,80,36.0,33.9,3,5,4,1,2026-03-24T04:06:41.576331+05:30
Agartala,Tripura,23.8315,91.2868,20.4,77,0.0,1009.1,8.05,15.5,155,73.6,70.5,3,0,4,1,2026-03-24T04:06:41.576337+05:30
Shillong,Meghalaya,25.5788,91.8933,7.6,79,0.0,853.6,6.05,40.3,66,23.0,21.5,3,5,7,0,2026-03-24T04:06:41.576344+05:30
Imphal,Manipur,24.817,93.9368,12.7,90,0.0,924.0,8.2,43.2,79,42.8,40.6,3,10,7,0,2026-03-24T04:06:41.576351+05:30
Aizawl,Mizoram,23.7271,92.7176,12.8,79,0.0,892.4,8.35,31.7,77,37.0,33.9,3,5,7,0,2026-03-24T04:06:41.576358+05:30
Kohima,Nagaland,25.6701,94.1077,10.9,92,0.0,854.0,7.9,55.4,69,28.3,26.0,3,10,7,0,2026-03-24T04:06:41.576364+05:30
Gangtok,Sikkim,27.3314,88.6138,11.2,89,0.0,835.9,2.3,18.0,76,23.2,21.9,3,10,3,0,2026-03-24T04:06:41.576371+05:30
Siliguri,West Bengal,26.7271,88.3953,17.9,70,0.0,996.4,6.4,37.8,99,40.7,39.1,3,5,7,0,2026-03-24T04:06:44.834818+05:30
Durgapur,West Bengal,23.5204,87.3119,21.6,83,0.0,997.6,8.0,21.2,158,105.5,99.2,3,5,7,1,2026-03-24T04:06:44.834852+05:30
Asansol,West Bengal,23.6739,86.9524,22.3,74,0.0,996.0,8.0,23.4,137,74.3,67.5,3,5,7,1,2026-03-24T04:06:44.834863+05:30
Pondicherry,Puducherry,11.9139,79.8145,23.5,100,0.0,1009.2,9.2,30.2,30,10.9,6.4,3,0,4,1,2026-03-24T04:06:44.834872+05:30
Port Blair,Andaman and Nicobar Islands,11.6234,92.7265,27.4,82,0.0,1006.6,9.15,25.6,39,14.1,8.1,7,5,4,1,2026-03-24T04:06:44.834881+05:30
Haridwar,Uttarakhand,29.9457,78.1642,16.2,93,0.0,977.7,6.4,32.0,114,63.6,56.5,3,10,7,0,2026-03-24T04:06:44.834891+05:30
Rishikesh,Uttarakhand,30.0869,78.2676,16.8,80,0.0,970.3,6.45,30.6,85,44.5,36.0,3,5,7,0,2026-03-24T04:06:44.834900+05:30
Nainital,Uttarakhand,29.3919,79.4542,12.7,70,0.0,805.0,7.3,49.0,85,51.9,44.7,3,5,7,0,2026-03-24T04:06:44.834909+05:30
Mussoorie,Uttarakhand,30.4599,78.0664,10.7,73,0.0,801.4,6.8,45.0,90,36.6,33.1,3,5,7,0,2026-03-24T04:06:44.834917+05:30
Dharamshala,Himachal Pradesh,32.219,76.3234,14.8,48,0.0,869.5,7.05,28.4,62,8.8,6.4,0,5,7,0,2026-03-24T04:06:44.834924+05:30
Dalhousie,Himachal Pradesh,32.5387,75.971,10.6,53,0.0,802.4,7.35,25.2,77,31.4,28.6,0,5,7,0,2026-03-24T04:06:44.834934+05:30
Patiala,Punjab,30.3398,76.3869,16.1,89,0.0,981.5,6.4,33.1,139,95.9,77.8,3,10,7,0,2026-03-24T04:06:44.834942+05:30
Bhatinda,Punjab,30.211,74.9455,18.5,82,0.0,986.6,6.7,26.3,132,76.4,50.3,3,10,7,0,2026-03-24T04:06:44.834950+05:30
Rohtak,Haryana,28.8955,76.6066,18.0,96,0.0,984.9,6.05,25.2,134,114.8,78.2,3,10,7,1,2026-03-24T04:06:44.834958+05:30
Panipat,Haryana,29.3909,76.9635,16.8,95,0.0,983.5,6.35,27.4,142,94.8,72.4,3,10,7,0,2026-03-24T04:06:44.834966+05:30
Mathura,Uttar Pradesh,27.4924,77.6737,17.7,95,0.0,990.2,6.6,21.2,155,155.5,80.1,3,10,7,1,2026-03-24T04:06:44.834974+05:30
Vrindavan,Uttar Pradesh,27.5823,77.7027,17.6,94,0.0,990.7,6.6,21.6,155,155.5,80.1,3,10,7,1,2026-03-24T04:06:44.834982+05:30
Ayodhya,Uttar Pradesh,26.7922,82.1998,18.6,83,0.0,998.5,7.25,33.5,138,64.5,48.5,3,10,7,0,2026-03-24T04:06:44.834989+05:30
Ratlam,Madhya Pradesh,23.3315,75.0367,22.4,54,0.0,954.9,8.0,18.7,62,30.3,19.2,0,5,7,0,2026-03-24T04:06:44.834997+05:30
Sagar,Madhya Pradesh,23.8388,78.7378,21.9,62,0.0,950.8,8.0,28.1,56,46.4,25.3,3,5,7,0,2026-03-24T04:06:44.835005+05:30
Satna,Madhya Pradesh,24.6005,80.8322,21.1,69,0.0,973.2,7.65,26.3,69,106.9,35.0,3,5,7,0,2026-03-24T04:06:44.835013+05:30
Akola,Maharashtra,20.7002,77.0082,23.1,67,0.0,975.0,8.4,21.6,71,42.8,36.9,3,5,7,1,2026-03-24T04:06:44.835021+05:30
Amravati,Maharashtra,20.9374,77.7796,22.9,63,0.0,967.2,8.4,23.8,70,45.6,40.7,3,5,7,0,2026-03-24T04:06:44.835029+05:30
Latur,Maharashtra,18.4088,76.5604,23.3,52,0.0,939.0,8.75,19.4,92,49.7,38.5,0,5,7,0,2026-03-24T04:06:44.835037+05:30
Nanded,Maharashtra,19.1383,77.3091,24.0,64,0.0,968.4,8.6,20.9,110,56.6,48.2,3,5,7,1,2026-03-24T04:06:44.835045+05:30
Gulbarga,Karnataka,17.3297,76.8343,26.0,58,0.0,958.4,8.85,37.4,89,45.9,34.7,4,5,7,1,2026-03-24T04:06:44.835053+05:30
Bidar,Karnataka,17.9104,77.5199,24.9,60,0.0,935.2,8.85,34.9,107,44.0,36.7,0,5,7,1,2026-03-24T04:06:44.835059+05:30
Hospet,Karnataka,15.2689,76.3909,25.3,82,0.0,955.8,9.05,26.3,112,70.3,56.8,7,5,7,1,2026-03-24T04:06:44.835065+05:30
Tirupur,Tamil Nadu,11.1085,77.3411,24.7,84,0.0,976.0,9.45,26.3,68,30.7,26.1,3,5,7,1,2026-03-24T04:06:44.835070+05:30
Alappuzha,Kerala,9.4981,76.3388,27.0,83,0.0,1008.6,9.15,32.0,83,48.8,38.6,7,0,4,1,2026-03-24T04:06:44.835077+05:30
Munnar,Kerala,10.0889,77.0595,18.1,93,0.0,855.1,9.7,30.6,70,32.0,27.1,3,10,7,1,2026-03-24T04:06:44.835083+05:30
Silchar,Assam,24.8333,92.7789,18.8,81,0.0,1008.1,8.0,20.5,120,58.9,56.1,3,5,4,0,2026-03-24T04:06:44.835090+05:30
Dibrugarh,Assam,27.4728,94.912,19.4,94,0.0,999.4,7.35,12.2,63,13.9,13.6,3,10,7,1,2026-03-24T04:06:44.835096+05:30
