city,state,latitude,longitude,temp,humidity,rain,pressure,uv_index,wind_gusts,aqi,pm10,pm2_5,no2,co,o3,so2,mosquito_risk,arthritis_risk,migraine_risk,frizz_risk,updated_at
Delhi,Delhi,28.6139,77.209,21.8,86,0.0,984.2,7.55,22.0,119,111.8,66.6,45.9,942.0,59.0,23.7,3,5,7,1,2026-05-06T01:39:27.111117+05:30
Mumbai,Maharashtra,19.076,72.8777,27.8,80,0.0,1007.9,7.85,46.8,75,64.5,23.5,7.6,347.0,69.0,24.7,7,5,4,1,2026-05-06T01:39:27.111174+05:30
Bangalore,Karnataka,12.9716,77.5946,23.1,72,0.0,910.6,9.55,32.8,99,58.7,42.0,24.6,395.0,88.0,12.0,3,5,7,1,2026-05-06T01:39:27.111191+05:30
Hyderabad,Telangana,17.385,78.4867,27.4,61,0.0,952.2,9.3,37.8,81,41.4,34.3,8.8,305.0,96.0,7.2,7,5,7,1,2026-05-06T01:39:27.111203+05:30
Chennai,Tamil Nadu,13.0827,80.2707,28.6,82,0.0,1006.1,9.25,42.1,68,19.2,12.6,5.2,171.0,73.0,2.5,7,5,4,1,2026-05-06T01:39:27.111223+05:30
Kolkata,West Bengal,22.5726,88.3639,25.0,94,0.0,1007.3,8.9,29.5,78,19.3,17.8,14.8,338.0,38.0,5.8,7,5,4,1,2026-05-06T01:39:27.111234+05:30
Pune,Maharashtra,18.5204,73.8567,23.1,90,0.0,947.2,8.5,58.3,60,41.6,21.0,14.3,223.0,59.0,15.3,3,5,7,1,2026-05-06T01:39:27.111243+05:30
Ahmedabad,Gujarat,23.0225,72.5714,29.0,73,0.0,1001.3,8.1,26.6,87,92.2,43.5,28.8,209.0,34.0,15.7,7,5,4,1,2026-05-06T01:39:27.111261+05:30
Jaipur,Rajasthan,26.9124,75.7873,22.5,75,0.0,960.3,8.1,31.7,127,274.7,60.5,7.7,441.0,96.0,5.7,3,5,7,1,2026-05-06T01:39:27.111271+05:30
Lucknow,Uttar Pradesh,26.8467,80.9462,22.4,90,0.0,994.3,8.05,27.4,117,79.2,65.9,35.7,669.0,50.0,17.3,3,5,7,1,2026-05-06T01:39:27.111280+05:30
Kanpur,Uttar Pradesh,26.4499,80.3319,22.8,92,0.0,992.5,8.05,19.8,129,102.4,70.3,31.8,629.0,63.0,16.2,3,5,7,1,2026-05-06T01:39:27.111288+05:30
Chandigarh,Chandigarh,30.7333,76.7794,18.9,77,0.0,969.4,7.55,36.4,74,46.9,34.3,48.1,792.0,11.0,3.5,3,5,7,0,2026-05-06T01:39:27.111297+05:30
Srinagar,Jammu and Kashmir,34.0837,74.7973,7.9,98,0.0,840.6,8.65,27.0,61,42.3,39.2,31.1,744.0,26.0,2.4,3,10,7,0,2026-05-06T01:39:27.111306+05:30
Jammu,Jammu and Kashmir,32.7266,74.857,19.0,58,0.0,973.4,8.25,29.9,64,29.5,21.5,24.9,325.0,38.0,2.8,0,5,7,0,2026-05-06T01:39:27.111316+05:30
Amritsar,Punjab,31.634,74.8723,22.4,56,0.0,981.9,8.15,31.3,92,72.4,36.4,6.2,431.0,105.0,8.9,0,5,7,0,2026-05-06T01:39:27.111327+05:30
Ludhiana,Punjab,30.901,75.8573,20.8,74,0.0,979.7,7.8,29.9,125,114.3,79.6,35.2,763.0,43.0,19.2,3,5,7,0,2026-05-06T01:39:27.111335+05:30
Jalandhar,Punjab,31.326,75.5762,20.0,73,0.0,980.7,7.95,32.0,104,102.2,58.8,22.2,673.0,61.0,14.2,3,5,7,0,2026-05-06T01:39:27.111343+05:30
Dehradun,Uttarakhand,30.6284,78.0322,8.0,95,0.0,826.5,7.45,34.9,55,54.7,20.3,26.9,226.0,40.0,0.5,3,10,7,0,2026-05-06T01:39:27.111354+05:30
Shimla,Himachal Pradesh,31.1048,77.1734,7.0,78,0.0,780.2,7.5,42.5,59,50.6,25.3,29.3,271.0,40.0,0.4,3,5,7,0,2026-05-06T01:39:27.111362+05:30
Manali,Himachal Pradesh,32.2396,77.1887,6.1,70,0.0,812.9,9.5,40.7,92,9.1,6.1,28.4,307.0,103.0,0.1,3,5,7,0,2026-05-06T01:39:27.111369+05:30
Gurgaon,Haryana,28.4595,77.0266,21.1,91,0.0,982.5,7.65,24.8,175,161.6,74.0,40.5,1382.0,52.0,27.2,3,5,7,1,2026-05-06T01:39:27.111377+05:30
Noida,Uttar Pradesh,28.5355,77.391,21.0,86,0.0,985.6,7.55,20.5,175,161.6,74.0,40.5,841.0,52.0,27.2,3,5,7,1,2026-05-06T01:39:27.111384+05:30
Ghaziabad,Uttar Pradesh,28.6692,77.4538,20.5,91,0.0,983.6,7.55,24.1,102,115.7,57.6,24.1,580.0,77.0,11.4,3,5,7,1,2026-05-06T01:39:27.111392+05:30
Faridabad,Haryana,28.4089,77.3178,21.5,85,0.0,984.8,7.6,19.4,175,161.6,74.0,40.5,1008.0,52.0,27.2,3,5,7,1,2026-05-06T01:39:27.111400+05:30
Meerut,Uttar Pradesh,28.9845,77.7064,19.6,92,0.0,982.2,7.45,23.4,102,115.7,57.6,24.1,541.0,77.0,11.4,3,10,7,1,2026-05-06T01:39:27.111410+05:30
Agra,Uttar Pradesh,27.1767,78.0081,22.5,87,0.0,988.6,7.9,20.9,279,199.8,69.6,19.0,521.0,61.0,17.6,3,5,7,1,2026-05-06T01:39:27.111419+05:30
Varanasi,Uttar Pradesh,25.3176,82.9739,24.0,83,0.0,998.3,8.55,26.3,135,65.4,53.6,19.1,536.0,83.0,17.9,3,5,7,1,2026-05-06T01:39:27.111428+05:30
Prayagraj,Uttar Pradesh,25.4358,81.8463,23.8,88,0.0,996.7,8.45,31.0,122,72.4,58.9,27.3,625.0,56.0,16.4,3,5,7,1,2026-05-06T01:39:27.111438+05:30
Gorakhpur,Uttar Pradesh,26.7606,83.3732,22.1,88,0.0,998.1,8.45,29.2,89,34.1,30.9,19.6,560.0,61.0,7.7,3,5,7,1,2026-05-06T01:39:27.111446+05:30
Bareilly,Uttar Pradesh,28.367,79.4304,20.1,84,0.0,987.4,7.85,24.1,120,80.6,65.2,29.9,402.0,57.0,13.6,3,5,7,1,2026-05-06T01:39:27.111454+05:30
Aligarh,Uttar Pradesh,27.8974,78.088,21.4,86,0.0,986.5,7.7,24.5,160,169.5,61.7,19.0,510.0,76.0,14.8,3,5,7,1,2026-05-06T01:39:27.111461+05:30
Moradabad,Uttar Pradesh,28.8386,78.7733,19.5,90,0.0,984.3,7.65,24.1,113,70.1,51.6,20.6,539.0,71.0,12.1,3,10,7,1,2026-05-06T01:39:27.111468+05:30
Saharanpur,Uttar Pradesh,29.9637,77.546,18.8,88,0.0,976.2,7.25,24.5,82,74.3,48.9,29.9,688.0,49.0,11.2,3,10,7,1,2026-05-06T01:39:27.111476+05:30
Jhansi,Uttar Pradesh,25.4484,78.5685,23.9,73,0.0,978.5,8.35,30.6,115,159.7,44.4,5.6,363.0,88.0,4.8,3,5,7,1,2026-05-06T01:39:30.356790+05:30
Surat,Gujarat,21.1702,72.8311,27.9,85,0.0,1006.1,7.7,34.9,82,43.5,23.5,22.1,280.0,51.0,35.8,7,5,4,1,2026-05-06T01:39:30.356822+05:30
Vadodara,Gujarat,22.3072,73.1812,27.6,83,0.0,1004.1,8.05,25.9,76,35.4,21.9,22.6,239.0,39.0,29.3,7,5,4,1,2026-05-06T01:39:30.356833+05:30
Rajkot,Gujarat,22.3039,70.8022,26.5,83,0.0,993.8,7.7,47.5,67,42.0,16.6,6.7,187.0,56.0,7.2,7,5,7,1,2026-05-06T01:39:30.356842+05:30
Thane,Maharashtra,19.2183,72.9781,27.0,82,0.0,1007.3,7.9,42.5,75,64.5,23.5,7.6,329.0,69.0,24.7,7,5,4,1,2026-05-06T01:39:30.356850+05:30
Nagpur,Maharashtra,21.1458,79.0882,30.7,32,0.0,972.7,8.9,35.6,82,41.2,23.5,9.4,274.0,81.0,7.7,0,5,7,0,2026-05-06T01:39:30.356858+05:30
Nashik,Maharashtra,19.9975,73.7898,23.3,81,0.0,944.3,8.2,41.4,64,50.2,20.7,9.1,212.0,50.0,1.1,3,5,7,1,2026-05-06T01:39:30.356867+05:30
Aurangabad,Maharashtra,19.8762,75.3433,28.2,36,0.0,943.5,9.05,36.7,64,31.1,17.9,7.6,192.0,65.0,3.4,4,5,7,0,2026-05-06T01:39:30.356875+05:30
Solapur,Maharashtra,17.6599,75.9064,29.4,37,0.0,955.8,9.05,42.5,59,26.1,16.5,9.4,186.0,78.0,5.9,4,5,7,0,2026-05-06T01:39:30.356884+05:30
Kolhapur,Maharashtra,16.705,74.2433,23.2,89,0.0,946.7,8.95,45.0,62,34.1,17.8,9.8,168.0,45.0,2.6,3,5,7,1,2026-05-06T01:39:30.356892+05:30
Goa,Goa,15.2993,74.124,27.6,83,0.0,997.0,8.9,39.2,67,47.7,22.3,7.1,179.0,51.0,1.9,7,5,7,1,2026-05-06T01:39:30.356900+05:30
Jodhpur,Rajasthan,26.2389,73.0243,27.8,35,0.0,983.7,8.3,28.1,114,159.3,38.5,14.0,257.0,74.0,6.1,4,5,7,0,2026-05-06T01:39:30.356908+05:30
Udaipur,Rajasthan,24.5854,73.7125,24.5,55,0.0,945.9,8.75,22.0,78,139.2,37.8,6.5,202.0,70.0,4.3,0,5,7,0,2026-05-06T01:39:30.356916+05:30
Kota,Rajasthan,25.2138,75.8648,25.0,63,0.0,979.1,8.3,27.7,88,103.4,41.9,13.8,389.0,59.0,6.0,7,5,7,1,2026-05-06T01:39:30.356924+05:30
Bikaner,Rajasthan,28.0229,73.3119,26.0,44,0.0,982.5,8.25,28.8,103,63.6,30.2,3.1,314.0,109.0,8.4,4,5,7,0,2026-05-06T01:39:30.356932+05:30
Ajmer,Rajasthan,26.4499,74.6399,23.3,50,0.0,955.3,8.25,36.7,75,68.0,28.6,10.6,290.0,68.0,4.8,0,5,7,0,2026-05-06T01:39:30.356939+05:30
Gwalior,Madhya Pradesh,26.2183,78.1828,22.5,87,0.0,983.6,8.15,22.3,113,255.2,59.1,10.3,392.0,78.0,7.0,3,5,7,1,2026-05-06T01:39:30.356947+05:30
Indore,Madhya Pradesh,22.7196,75.8577,26.9,46,0.0,947.6,8.6,34.6,72,59.6,24.9,4.9,269.0,96.0,4.6,4,5,7,0,2026-05-06T01:39:30.356955+05:30
Bhopal,Madhya Pradesh,23.2599,77.4126,26.4,46,0.0,953.5,8.65,36.0,74,51.1,34.3,3.3,274.0,112.0,7.0,4,5,7,0,2026-05-06T01:39:30.356963+05:30
Jabalpur,Madhya Pradesh,23.1815,79.9864,25.4,61,0.0,961.4,8.8,35.6,92,48.0,35.0,8.0,254.0,117.0,9.1,7,5,7,1,2026-05-06T01:39:30.356971+05:30
Ujjain,Madhya Pradesh,23.1765,75.7885,25.5,49,0.0,953.5,8.55,32.4,72,65.7,28.6,5.8,258.0,83.0,5.3,4,5,7,0,2026-05-06T01:39:30.356979+05:30
Visakhapatnam,Andhra Pradesh,17.6868,83.2185,26.1,91,0.0,1003.8,9.15,28.4,83,40.3,31.5,37.2,450.0,30.0,5.5,7,5,4,1,2026-05-06T01:39:30.356987+05:30
Vijayawada,Andhra Pradesh,16.5062,80.648,28.5,84,0.0,1001.6,9.2,43.2,77,22.8,19.5,7.8,202.0,58.0,4.2,7,5,4,1,2026-05-06T01:39:30.356994+05:30
Guntur,Andhra Pradesh,16.3067,80.4365,28.6,84,0.0,1002.8,9.25,39.2,82,22.9,19.3,6.6,191.0,65.0,4.2,7,5,4,1,2026-05-06T01:39:30.357002+05:30
Nellore,Andhra Pradesh,14.4426,79.9865,27.7,91,0.0,1004.9,9.25,39.2,79,18.0,13.2,7.5,180.0,62.0,7.1,7,5,4,1,2026-05-06T01:39:30.357011+05:30
Kurnool,Andhra Pradesh,15.8281,78.0373,28.9,62,0.0,975.2,8.95,40.7,79,40.2,34.3,3.6,249.0,106.0,7.1,7,5,7,1,2026-05-06T01:39:30.357020+05:30
Kakinada,Andhra Pradesh,16.9891,82.2475,27.2,92,0.0,1007.3,9.15,31.7,62,25.1,16.4,3.3,219.0,65.0,0.9,7,5,4,1,2026-05-06T01:39:30.357028+05:30
Tirupati,Andhra Pradesh,13.6288,79.4192,27.5,82,0.0,990.3,9.3,30.2,121,39.7,34.0,26.4,235.0,35.0,11.2,7,5,7,1,2026-05-06T01:39:30.357035+05:30
Warangal,Telangana,17.9689,79.5941,27.9,68,0.0,977.8,9.2,41.0,82,35.6,31.2,8.1,258.0,82.0,11.7,7,5,7,1,2026-05-06T01:39:30.357043+05:30
Nizamabad,Telangana,18.6725,78.0941,29.3,36,0.0,962.9,9.05,35.6,87,58.0,34.9,19.5,292.0,73.0,7.2,4,5,7,0,2026-05-06T01:39:30.357050+05:30
Mysore,Karnataka,12.2958,76.6396,22.5,88,0.0,926.9,9.4,29.2,73,39.2,26.4,18.5,234.0,58.0,4.1,3,5,7,1,2026-05-06T01:39:30.357058+05:30
Mangalore,Karnataka,12.9141,74.856,27.6,85,0.0,1005.5,9.05,53.6,63,35.9,16.9,3.0,179.0,59.0,1.3,7,5,4,1,2026-05-06T01:39:30.357066+05:30
Hubli-Dharwad,Karnataka,15.3647,75.124,23.5,85,0.0,939.3,8.8,41.8,59,26.0,14.2,8.3,181.0,44.0,2.3,3,5,7,1,2026-05-06T01:39:30.357074+05:30
Belgaum,Karnataka,15.8497,74.4977,21.9,92,0.0,924.3,8.6,48.6,60,40.3,20.4,12.3,167.0,38.0,1.6,3,5,7,1,2026-05-06T01:39:33.620165+05:30
Coimbatore,Tamil Nadu,11.0168,76.9558,23.6,99,0.0,960.1,9.35,26.3,65,22.5,15.1,15.2,260.0,62.0,3.8,3,5,7,1,2026-05-06T01:39:33.620198+05:30
Madurai,Tamil Nadu,9.9252,78.1198,25.8,94,0.0,991.4,8.8,36.0,82,50.6,36.2,23.3,364.0,49.0,6.4,7,5,7,1,2026-05-06T01:39:33.620211+05:30
Trichy,Tamil Nadu,10.7905,78.7047,26.5,81,0.0,998.2,9.15,27.0,98,39.5,30.3,16.6,318.0,61.0,4.3,7,5,7,1,2026-05-06T01:39:33.620221+05:30
Salem,Tamil Nadu,11.6643,78.146,26.5,72,0.0,976.0,9.25,42.8,103,67.5,44.9,20.1,309.0,72.0,9.5,7,5,7,1,2026-05-06T01:39:33.620230+05:30
Tirunelveli,Tamil Nadu,8.7139,77.7567,27.6,73,0.0,1001.3,7.95,40.3,73,27.5,21.7,10.8,310.0,59.0,5.5,7,5,4,1,2026-05-06T01:39:33.620239+05:30
Vellore,Tamil Nadu,12.9165,79.1325,26.5,86,0.0,983.6,9.3,34.9,119,53.1,46.1,22.7,231.0,37.0,7.4,7,5,7,1,2026-05-06T01:39:33.620247+05:30
Erode,Tamil Nadu,11.341,77.7172,27.2,73,0.0,987.8,9.25,30.6,78,34.1,23.9,21.1,356.0,50.0,3.9,7,5,7,1,2026-05-06T01:39:33.620256+05:30
Kochi,Kerala,9.9312,76.2673,26.6,91,0.0,1007.1,6.25,31.3,62,45.9,40.0,41.5,175.0,5.0,6.5,7,5,4,1,2026-05-06T01:39:33.620264+05:30
Thiruvananthapuram,Kerala,8.5241,76.9366,25.0,93,0.0,1006.3,8.7,31.0,57,29.9,13.9,5.3,262.0,78.0,2.8,7,5,4,1,2026-05-06T01:39:33.620272+05:30
Kozhikode,Kerala,11.2588,75.7804,26.0,96,0.0,1006.3,9.05,39.6,57,41.8,20.0,4.2,506.0,66.0,2.4,7,5,4,1,2026-05-06T01:39:33.620280+05:30
Thrissur,Kerala,10.5276,76.2144,24.6,100,0.0,1005.7,8.9,31.3,64,62.6,53.3,42.1,374.0,6.0,5.1,3,5,4,1,2026-05-06T01:39:33.620289+05:30
Kannur,Kerala,11.8745,75.3704,27.8,81,0.0,1005.3,9.05,55.8,64,33.5,17.1,8.7,278.0,43.0,1.9,7,5,4,1,2026-05-06T01:39:33.620297+05:30
Patna,Bihar,25.5941,85.1376,24.1,82,0.0,1001.0,8.7,35.6,149,73.6,63.1,24.1,793.0,88.0,16.8,3,5,4,1,2026-05-06T01:39:33.620305+05:30
Gaya,Bihar,24.7914,85.0002,23.0,82,0.0,995.0,8.75,38.9,107,44.2,37.1,7.8,315.0,123.0,9.1,3,5,7,1,2026-05-06T01:39:33.620313+05:30
Muzaffarpur,Bihar,26.1209,85.3647,23.5,86,0.0,1000.9,8.7,45.7,149,87.3,75.0,30.9,481.0,78.0,19.1,3,5,4,1,2026-05-06T01:39:33.620320+05:30
Bhagalpur,Bihar,25.2425,87.0117,25.5,81,0.0,1001.5,8.7,38.9,112,55.1,49.9,15.4,424.0,90.0,18.7,7,5,4,1,2026-05-06T01:39:33.620329+05:30
Ranchi,Jharkhand,23.3441,85.3096,20.8,81,0.0,938.4,9.2,34.9,102,42.4,34.0,4.1,260.0,148.0,10.7,3,5,7,1,2026-05-06T01:39:33.620337+05:30
Jamshedpur,Jharkhand,22.8046,86.2029,24.0,81,0.0,992.4,9.0,41.8,96,38.2,31.5,20.3,220.0,78.0,27.9,3,5,7,1,2026-05-06T01:39:33.620345+05:30
Dhanbad,Jharkhand,23.7957,86.4304,24.5,79,0.0,980.6,8.95,32.8,151,82.7,72.2,38.4,1227.0,81.0,53.5,3,5,7,1,2026-05-06T01:39:33.620353+05:30
Bokaro,Jharkhand,23.6693,86.1511,23.5,75,0.0,984.4,9.0,42.8,150,64.5,50.9,25.1,311.0,109.0,31.3,3,5,7,1,2026-05-06T01:39:33.620362+05:30
Bhubaneswar,Odisha,20.2961,85.8245,25.2,91,0.0,1003.9,9.1,35.3,41,20.9,16.8,11.1,218.0,38.0,3.7,7,5,4,1,2026-05-06T01:39:33.620370+05:30
Cuttack,Odisha,20.4625,85.8828,25.2,91,0.0,1005.7,9.15,33.8,41,20.9,16.8,11.1,223.0,38.0,3.7,7,5,4,1,2026-05-06T01:39:33.620378+05:30
Rourkela,Odisha,22.2604,84.8536,22.6,96,0.0,986.6,8.95,43.6,103,53.6,41.7,9.4,454.0,113.0,39.5,3,5,7,1,2026-05-06T01:39:33.620385+05:30
Raipur,Chhattisgarh,21.2514,81.6296,26.4,69,0.0,975.3,9.0,34.6,107,58.4,42.6,19.3,277.0,82.0,6.0,7,5,7,1,2026-05-06T01:39:33.620393+05:30
Bhilai,Chhattisgarh,21.1938,81.3509,26.7,63,0.0,975.5,9.0,27.7,113,54.1,40.6,32.9,398.0,59.0,7.4,7,5,7,1,2026-05-06T01:39:33.620401+05:30
Guwahati,Assam,26.1158,91.7086,22.4,88,0.0,1002.7,8.65,31.7,70,35.0,30.3,11.7,263.0,47.0,1.8,3,5,4,1,2026-05-06T01:39:33.620409+05:30
Agartala,Tripura,23.8315,91.2868,23.4,97,0.0,1007.4,8.8,19.8,102,27.6,24.4,23.1,365.0,25.0,3.0,3,5,4,1,2026-05-06T01:39:33.620418+05:30
Shillong,Meghalaya,25.5788,91.8933,15.0,95,0.0,856.1,8.9,27.7,66,30.5,27.0,8.3,234.0,75.0,0.5,3,10,7,0,2026-05-06T01:39:33.620426+05:30
Imphal,Manipur,24.817,93.9368,19.0,97,0.0,923.3,9.2,28.4,89,45.6,37.3,17.6,268.0,34.0,4.3,3,10,7,1,2026-05-06T01:39:33.620435+05:30
Aizawl,Mizoram,23.7271,92.7176,16.7,95,0.0,892.1,9.05,25.2,66,24.8,19.3,11.3,254.0,31.0,0.6,3,10,7,0,2026-05-06T01:39:33.620444+05:30
Kohima,Nagaland,25.6701,94.1077,14.5,86,0.0,853.9,9.15,30.6,64,36.1,23.4,9.8,269.0,57.0,1.0,3,10,7,0,2026-05-06T01:39:33.620452+05:30
Gangtok,Sikkim,27.3314,88.6138,11.2,94,0.0,835.9,8.85,38.9,50,19.8,17.2,21.5,403.0,46.0,0.9,3,10,7,0,2026-05-06T01:39:33.620461+05:30
Siliguri,West Bengal,26.7271,88.3953,21.0,94,0.0,994.1,8.6,21.2,76,48.5,40.3,29.0,1116.0,66.0,4.6,3,5,7,1,2026-05-06T01:39:36.887020+05:30
Durgapur,West Bengal,23.5204,87.3119,23.6,92,0.0,996.4,8.9,29.2,121,36.9,34.1,31.2,919.0,49.0,45.5,3,5,7,1,2026-05-06T01:39:36.887051+05:30
Asansol,West Bengal,23.6739,86.9524,23.9,90,0.0,995.0,8.95,35.6,123,59.8,54.4,34.0,270.0,60.0,51.2,3,5,7,1,2026-05-06T01:39:36.887062+05:30
Pondicherry,Puducherry,11.9139,79.8145,28.0,86,0.0,1007.0,8.75,37.8,67,20.0,12.0,1.5,202.0,78.0,0.4,7,5,4,1,2026-05-06T01:39:36.887071+05:30
Port Blair,Andaman and Nicobar Islands,11.6234,92.7265,26.8,88,0.0,1006.1,8.35,36.0,28,5.8,5.0,0.5,209.0,59.0,2.8,7,5,4,1,2026-05-06T01:39:36.887079+05:30
Haridwar,Uttarakhand,29.9457,78.1642,18.4,78,0.0,974.3,7.35,24.5,67,54.0,34.8,23.2,253.0,31.0,4.2,3,5,7,0,2026-05-06T01:39:36.887087+05:30
Rishikesh,Uttarakhand,30.0869,78.2676,15.9,87,0.0,966.7,7.45,23.4,57,62.9,23.3,10.3,322.0,76.0,1.1,3,10,7,0,2026-05-06T01:39:36.887095+05:30
Nainital,Uttarakhand,29.3919,79.4542,9.3,70,0.0,802.3,6.8,35.3,65,45.2,26.3,16.8,212.0,60.0,2.9,3,5,7,0,2026-05-06T01:39:36.887102+05:30
Mussoorie,Uttarakhand,30.4599,78.0664,8.8,77,0.0,799.3,7.3,33.1,61,81.7,33.6,29.8,217.0,49.0,7.2,3,5,7,0,2026-05-06T01:39:36.887110+05:30
Dharamshala,Himachal Pradesh,32.219,76.3234,15.8,55,0.0,868.2,8.15,42.5,49,20.8,11.5,11.4,208.0,59.0,0.3,0,5,7,0,2026-05-06T01:39:36.887121+05:30
Dalhousie,Himachal Pradesh,32.5387,75.971,6.5,83,0.0,799.7,8.3,39.2,63,43.2,25.8,39.9,382.0,31.0,2.1,3,10,7,0,2026-05-06T01:39:36.887129+05:30
Patiala,Punjab,30.3398,76.3869,20.9,81,0.0,979.2,7.45,40.0,287,73.1,44.2,19.2,444.0,60.0,7.5,3,5,7,1,2026-05-06T01:39:36.887136+05:30
Bhatinda,Punjab,30.211,74.9455,22.3,65,0.0,985.0,8.1,24.5,184,272.9,68.5,8.5,431.0,89.0,9.3,3,5,7,0,2026-05-06T01:39:36.887144+05:30
Rohtak,Haryana,28.8955,76.6066,21.2,84,0.0,983.1,7.55,29.2,180,151.8,75.4,38.7,638.0,59.0,32.9,3,5,7,1,2026-05-06T01:39:36.887150+05:30
Panipat,Haryana,29.3909,76.9635,19.9,90,0.0,981.3,7.4,25.2,642,383.7,85.4,21.6,655.0,79.0,14.1,3,10,7,1,2026-05-06T01:39:36.887157+05:30
Mathura,Uttar Pradesh,27.4924,77.6737,22.1,82,0.0,987.8,7.85,24.1,184,190.9,63.3,20.6,498.0,72.0,13.0,3,5,7,1,2026-05-06T01:39:36.887165+05:30
Vrindavan,Uttar Pradesh,27.5823,77.7027,22.2,82,0.0,988.2,7.8,23.8,184,190.9,63.3,20.6,484.0,72.0,13.0,3,5,7,1,2026-05-06T01:39:36.887172+05:30
Ayodhya,Uttar Pradesh,26.7922,82.1998,21.7,92,0.0,996.1,8.2,19.4,86,51.8,43.7,23.9,532.0,63.0,8.6,3,5,7,1,2026-05-06T01:39:36.887179+05:30
Ratlam,Madhya Pradesh,23.3315,75.0367,25.3,53,0.0,953.9,8.5,31.7,69,64.3,27.6,5.1,290.0,80.0,5.1,4,5,7,0,2026-05-06T01:39:36.887186+05:30
Sagar,Madhya Pradesh,23.8388,78.7378,24.7,56,0.0,949.6,8.65,34.2,100,50.9,36.7,6.2,263.0,105.0,7.3,0,5,7,0,2026-05-06T01:39:36.887192+05:30
Satna,Madhya Pradesh,24.6005,80.8322,22.8,81,0.0,971.4,8.7,42.5,118,52.4,42.1,16.1,387.0,74.0,8.5,3,5,7,1,2026-05-06T01:39:36.887199+05:30
Akola,Maharashtra,20.7002,77.0082,29.6,34,0.0,973.2,8.85,33.1,62,43.7,19.7,7.0,197.0,75.0,9.3,4,5,7,0,2026-05-06T01:39:36.887207+05:30
Amravati,Maharashtra,20.9374,77.7796,30.0,31,0.0,966.0,8.85,37.4,62,39.1,18.9,7.5,185.0,76.0,8.5,4,5,7,0,2026-05-06T01:39:36.887215+05:30
Latur,Maharashtra,18.4088,76.5604,28.7,28,0.0,938.1,8.95,44.3,69,64.7,35.2,21.1,308.0,55.0,8.8,4,5,7,0,2026-05-06T01:39:36.887222+05:30
Nanded,Maharashtra,19.1383,77.3091,29.8,32,0.0,966.4,9.0,28.4,74,62.6,35.4,26.8,355.0,48.0,7.8,4,5,7,0,2026-05-06T01:39:36.887229+05:30
Gulbarga,Karnataka,17.3297,76.8343,29.6,29,0.0,957.2,9.15,26.6,63,31.5,20.4,17.2,294.0,56.0,5.7,4,5,7,0,2026-05-06T01:39:36.887235+05:30
Bidar,Karnataka,17.9104,77.5199,27.4,41,0.0,933.7,8.7,29.2,74,62.4,37.5,23.5,254.0,69.0,7.2,4,5,7,0,2026-05-06T01:39:36.887242+05:30
Hospet,Karnataka,15.2689,76.3909,26.1,72,0.0,954.7,8.95,30.2,70,30.2,19.0,23.4,181.0,43.0,4.5,7,5,7,1,2026-05-06T01:39:36.887248+05:30
Tirupur,Tamil Nadu,11.1085,77.3411,24.6,87,0.0,973.7,9.35,23.8,77,38.9,27.0,27.4,235.0,37.0,5.9,3,5,7,1,2026-05-06T01:39:36.887255+05:30
Alappuzha,Kerala,9.4981,76.3388,26.2,94,0.0,1007.1,8.95,32.0,53,37.4,24.2,17.9,127.0,48.0,5.3,7,5,4,1,2026-05-06T01:39:36.887261+05:30
Munnar,Kerala,10.0889,77.0595,16.4,97,0.0,853.9,6.5,21.6,61,36.1,24.7,13.0,255.0,38.0,2.2,3,10,7,0,2026-05-06T01:39:36.887268+05:30
Silchar,Assam,24.8333,92.7789,22.0,96,0.1,1007.0,8.85,25.9,90,35.7,27.8,8.8,234.0,70.0,3.0,6,5,4,1,2026-05-06T01:39:36.887275+05:30
Dibrugarh,Assam,27.4728,94.912,20.7,97,0.2,996.8,8.8,25.2,60,10.8,8.2,12.1,231.0,45.0,0.3,6,5,7,1,2026-05-06T01:39:36.887282+05:30
