city,state,latitude,longitude,temp,humidity,rain,pressure,uv_index,wind_gusts,aqi,pm10,pm2_5,no2,co,o3,so2,mosquito_risk,arthritis_risk,migraine_risk,frizz_risk,updated_at
Delhi,Delhi,28.6139,77.209,35.8,42,0.0,979.7,7.7,37.8,532,482.4,85.7,5.3,346.0,196.0,18.7,0,5,10,1,2026-05-29T13:31:28.590290+05:30
Mumbai,Maharashtra,19.076,72.8777,33.5,58,0.0,1008.4,7.8,41.8,63,40.6,21.6,3.7,152.0,94.0,5.8,0,0,4,1,2026-05-29T13:31:28.590334+05:30
Bangalore,Karnataka,12.9716,77.5946,31.3,50,0.0,912.8,7.0,29.5,53,16.6,10.9,2.5,254.0,137.0,3.3,0,5,7,1,2026-05-29T13:31:28.590348+05:30
Hyderabad,Telangana,17.385,78.4867,36.7,31,0.0,952.4,9.1,39.6,57,15.8,12.5,1.7,222.0,148.0,5.5,0,5,10,1,2026-05-29T13:31:28.590358+05:30
Chennai,Tamil Nadu,13.0827,80.2707,38.5,38,0.0,1004.6,8.85,42.1,78,34.6,26.1,3.2,301.0,193.0,6.9,0,5,7,1,2026-05-29T13:31:28.590365+05:30
Kolkata,West Bengal,22.5726,88.3639,32.5,60,0.0,1004.1,8.9,56.9,100,54.6,31.5,1.6,366.0,142.0,8.2,0,5,4,1,2026-05-29T13:31:28.590372+05:30
Pune,Maharashtra,18.5204,73.8567,34.8,40,0.0,948.6,8.4,48.2,41,17.6,10.8,1.5,140.0,109.0,3.9,0,5,7,1,2026-05-29T13:31:28.590379+05:30
Ahmedabad,Gujarat,23.0225,72.5714,40.6,30,0.0,998.0,8.1,47.9,73,54.0,23.1,1.2,135.0,91.0,3.2,0,5,10,1,2026-05-29T13:31:28.590386+05:30
Jaipur,Rajasthan,26.9124,75.7873,38.8,28,0.0,955.9,8.2,54.7,113,165.8,39.6,1.3,145.0,117.0,4.2,0,5,10,1,2026-05-29T13:31:28.590397+05:30
Lucknow,Uttar Pradesh,26.8467,80.9462,34.0,45,0.0,991.9,8.15,47.5,95,73.1,37.7,2.2,333.0,172.0,10.2,0,5,7,1,2026-05-29T13:31:28.590403+05:30
Kanpur,Uttar Pradesh,26.4499,80.3319,36.5,36,0.0,989.5,8.2,37.1,189,159.3,37.8,1.9,266.0,176.0,9.8,0,5,10,1,2026-05-29T13:31:28.590410+05:30
Chandigarh,Chandigarh,30.7333,76.7794,35.0,27,0.0,966.9,7.7,56.9,143,99.9,36.2,2.8,341.0,180.0,9.2,0,5,7,0,2026-05-29T13:31:28.590417+05:30
Srinagar,Jammu and Kashmir,34.0837,74.7973,27.1,30,0.0,842.7,8.9,28.1,74,20.1,8.9,0.9,266.0,158.0,2.1,4,5,7,0,2026-05-29T13:31:28.590424+05:30
Jammu,Jammu and Kashmir,32.7266,74.857,36.0,27,0.0,970.0,8.5,45.7,115,270.1,65.7,1.7,324.0,192.0,11.4,0,5,10,0,2026-05-29T13:31:28.590431+05:30
Amritsar,Punjab,31.634,74.8723,37.0,28,0.0,976.9,8.4,46.1,160,542.0,116.9,1.3,314.0,173.0,10.4,0,5,10,0,2026-05-29T13:31:28.590438+05:30
Ludhiana,Punjab,30.901,75.8573,36.6,32,0.0,975.3,7.95,52.6,448,907.1,138.8,1.7,280.0,178.0,10.2,0,5,10,1,2026-05-29T13:31:28.590444+05:30
Jalandhar,Punjab,31.326,75.5762,37.1,26,0.0,976.3,8.15,47.2,204,642.6,115.0,1.7,284.0,180.0,10.8,0,5,10,0,2026-05-29T13:31:28.590450+05:30
Dehradun,Uttarakhand,30.6284,78.0322,21.5,53,0.1,832.4,8.1,36.0,99,72.9,28.0,1.9,258.0,164.0,5.5,3,5,7,0,2026-05-29T13:31:28.590456+05:30
Shimla,Himachal Pradesh,31.1048,77.1734,21.4,41,0.1,787.0,7.65,30.6,107,83.8,34.0,4.1,329.0,171.0,7.1,3,5,7,0,2026-05-29T13:31:28.590470+05:30
Manali,Himachal Pradesh,32.2396,77.1887,19.4,58,0.1,819.5,9.35,41.4,114,16.6,8.0,1.9,153.0,164.0,0.6,3,5,7,0,2026-05-29T13:31:28.590478+05:30
Gurgaon,Haryana,28.4595,77.0266,35.2,44,0.0,978.1,7.8,40.3,1187,625.8,112.0,4.1,290.0,185.0,13.8,0,5,10,1,2026-05-29T13:31:28.590484+05:30
Noida,Uttar Pradesh,28.5355,77.391,35.7,43,0.0,981.4,7.7,36.4,1187,625.8,112.0,4.1,326.0,185.0,13.8,0,5,10,1,2026-05-29T13:31:28.590490+05:30
Ghaziabad,Uttar Pradesh,28.6692,77.4538,34.8,46,0.0,979.8,7.7,40.7,354,313.9,53.0,2.3,285.0,180.0,11.1,0,5,7,1,2026-05-29T13:31:28.590496+05:30
Faridabad,Haryana,28.4089,77.3178,35.7,42,0.0,980.6,7.75,37.4,1187,625.8,112.0,4.1,297.0,185.0,13.8,0,5,10,1,2026-05-29T13:31:28.590504+05:30
Meerut,Uttar Pradesh,28.9845,77.7064,33.3,50,0.0,979.1,7.6,56.2,354,313.9,53.0,2.3,299.0,180.0,11.1,0,5,7,1,2026-05-29T13:31:28.590510+05:30
Agra,Uttar Pradesh,27.1767,78.0081,37.5,35,0.0,984.6,8.05,63.0,1182,486.2,104.3,2.3,302.0,178.0,9.9,0,5,10,1,2026-05-29T13:31:28.590516+05:30
Varanasi,Uttar Pradesh,25.3176,82.9739,33.3,50,0.0,995.6,8.7,45.7,113,72.4,45.5,2.4,337.0,196.0,16.1,0,5,7,1,2026-05-29T13:31:28.590522+05:30
Prayagraj,Uttar Pradesh,25.4358,81.8463,35.2,43,0.0,993.6,8.6,38.5,112,69.4,41.8,3.2,323.0,181.0,12.6,0,5,10,1,2026-05-29T13:31:28.590528+05:30
Gorakhpur,Uttar Pradesh,26.7606,83.3732,29.5,65,0.0,996.9,8.35,47.5,98,54.8,35.9,1.7,275.0,171.0,8.8,7,5,7,1,2026-05-29T13:31:28.590535+05:30
Bareilly,Uttar Pradesh,28.367,79.4304,33.6,47,0.0,985.4,7.95,48.6,110,51.3,28.0,1.9,287.0,163.0,7.8,0,5,7,1,2026-05-29T13:31:28.590552+05:30
Aligarh,Uttar Pradesh,27.8974,78.088,35.5,42,0.0,982.9,7.85,44.3,913,534.6,88.7,2.3,269.0,180.0,11.2,0,5,10,1,2026-05-29T13:31:28.590558+05:30
Moradabad,Uttar Pradesh,28.8386,78.7733,34.2,43,0.0,982.1,7.8,51.1,110,50.6,28.3,2.1,291.0,174.0,9.1,0,5,7,1,2026-05-29T13:31:28.590565+05:30
Saharanpur,Uttar Pradesh,29.9637,77.546,32.8,47,0.0,974.2,7.45,49.0,113,78.0,27.9,1.4,271.0,166.0,6.5,0,5,7,1,2026-05-29T13:31:28.590571+05:30
Jhansi,Uttar Pradesh,25.4484,78.5685,38.3,31,0.0,974.7,8.45,77.8,75,66.8,25.7,1.1,189.0,136.0,7.9,0,5,10,1,2026-05-29T13:31:33.736242+05:30
Surat,Gujarat,21.1702,72.8311,34.5,52,0.0,1005.3,7.65,58.0,84,57.0,27.1,6.6,188.0,64.0,23.9,0,5,4,1,2026-05-29T13:31:33.736274+05:30
Vadodara,Gujarat,22.3072,73.1812,38.2,39,0.0,1001.3,8.05,54.0,79,58.9,27.6,1.4,143.0,98.0,4.0,0,5,7,1,2026-05-29T13:31:33.736285+05:30
Rajkot,Gujarat,22.3039,70.8022,39.1,35,0.0,991.4,7.7,55.8,73,53.8,23.6,0.8,113.0,84.0,3.3,0,5,10,1,2026-05-29T13:31:33.736293+05:30
Thane,Maharashtra,19.2183,72.9781,35.8,49,0.0,1007.4,7.8,40.3,63,40.6,21.6,3.7,143.0,94.0,5.8,0,5,7,1,2026-05-29T13:31:33.736301+05:30
Nagpur,Maharashtra,21.1458,79.0882,39.8,25,0.0,970.4,8.85,53.6,73,39.0,22.8,3.6,148.0,146.0,17.7,0,5,10,0,2026-05-29T13:31:33.736309+05:30
Nashik,Maharashtra,19.9975,73.7898,34.8,38,0.0,946.0,8.1,51.8,58,35.7,17.6,0.8,122.0,86.0,1.5,0,5,7,1,2026-05-29T13:31:33.736317+05:30
Aurangabad,Maharashtra,19.8762,75.3433,38.5,24,0.0,943.9,8.95,45.7,56,32.6,17.1,1.0,137.0,124.0,4.8,0,5,10,0,2026-05-29T13:31:33.736324+05:30
Solapur,Maharashtra,17.6599,75.9064,37.3,33,0.0,956.4,8.95,37.1,45,14.1,8.8,1.1,136.0,115.0,1.9,0,5,10,1,2026-05-29T13:31:33.736332+05:30
Kolhapur,Maharashtra,16.705,74.2433,35.3,38,0.0,948.3,8.8,47.2,31,16.9,9.9,1.3,134.0,102.0,1.7,0,5,10,1,2026-05-29T13:31:33.736339+05:30
Goa,Goa,15.2993,74.124,33.8,61,0.1,998.0,5.5,30.6,49,14.1,9.6,0.6,125.0,69.0,1.1,6,5,3,1,2026-05-29T13:31:33.736347+05:30
Jodhpur,Rajasthan,26.2389,73.0243,38.5,36,0.0,977.8,8.4,49.7,271,450.8,76.4,0.6,124.0,90.0,2.4,0,5,10,1,2026-05-29T13:31:33.736354+05:30
Udaipur,Rajasthan,24.5854,73.7125,36.0,37,0.0,943.8,8.8,52.2,67,52.4,24.7,0.6,121.0,93.0,3.6,0,5,10,1,2026-05-29T13:31:33.736361+05:30
Kota,Rajasthan,25.2138,75.8648,41.2,26,0.0,974.2,8.4,45.0,67,74.5,31.1,0.9,131.0,114.0,6.3,0,5,10,1,2026-05-29T13:31:33.736368+05:30
Bikaner,Rajasthan,28.0229,73.3119,42.0,23,0.0,975.5,8.4,72.4,160,240.3,80.1,0.4,148.0,96.0,4.1,0,5,10,1,2026-05-29T13:31:33.736375+05:30
Ajmer,Rajasthan,26.4499,74.6399,36.8,34,0.0,950.9,8.35,70.9,80,58.1,26.5,0.6,127.0,100.0,3.3,0,5,10,1,2026-05-29T13:31:33.736381+05:30
Gwalior,Madhya Pradesh,26.2183,78.1828,38.2,34,0.0,979.8,8.25,59.0,151,149.5,45.6,1.1,235.0,146.0,6.8,0,5,10,1,2026-05-29T13:31:33.736386+05:30
Indore,Madhya Pradesh,22.7196,75.8577,37.5,30,0.0,946.6,8.6,52.2,69,64.7,28.9,1.0,155.0,104.0,4.9,0,5,10,1,2026-05-29T13:31:33.736392+05:30
Bhopal,Madhya Pradesh,23.2599,77.4126,39.5,24,0.0,951.1,8.65,47.5,64,64.0,28.3,0.7,150.0,113.0,4.4,0,5,10,0,2026-05-29T13:31:33.736398+05:30
Jabalpur,Madhya Pradesh,23.1815,79.9864,41.0,21,0.0,958.3,8.8,33.8,75,31.8,15.6,0.8,157.0,134.0,4.6,0,5,10,0,2026-05-29T13:31:33.736403+05:30
Ujjain,Madhya Pradesh,23.1765,75.7885,38.0,29,0.0,951.8,8.55,51.8,69,63.1,27.7,0.7,132.0,98.0,4.2,0,5,10,1,2026-05-29T13:31:33.736409+05:30
Visakhapatnam,Andhra Pradesh,17.6868,83.2185,37.8,46,0.0,998.6,9.0,49.0,119,51.6,42.8,10.2,379.0,226.0,46.5,0,5,10,1,2026-05-29T13:31:33.736415+05:30
Vijayawada,Andhra Pradesh,16.5062,80.648,40.4,36,0.0,998.2,9.0,51.5,90,21.8,17.0,1.5,188.0,166.0,6.7,0,5,10,1,2026-05-29T13:31:33.736421+05:30
Guntur,Andhra Pradesh,16.3067,80.4365,39.5,36,0.0,999.5,9.0,50.8,85,20.0,15.0,1.3,174.0,156.0,5.5,0,5,10,1,2026-05-29T13:31:33.736426+05:30
Nellore,Andhra Pradesh,14.4426,79.9865,38.8,37,0.0,1002.5,8.95,50.0,76,19.4,15.4,1.9,157.0,146.0,7.0,0,5,7,1,2026-05-29T13:31:33.736433+05:30
Kurnool,Andhra Pradesh,15.8281,78.0373,36.8,42,0.0,975.6,8.65,43.6,56,13.9,10.3,1.3,150.0,131.0,7.3,0,5,10,1,2026-05-29T13:31:33.736439+05:30
Kakinada,Andhra Pradesh,16.9891,82.2475,40.5,36,0.0,1002.2,9.0,59.8,112,32.5,25.9,2.3,257.0,166.0,5.5,0,5,7,1,2026-05-29T13:31:33.736445+05:30
Tirupati,Andhra Pradesh,13.6288,79.4192,38.5,33,0.0,988.6,8.8,35.6,70,26.4,15.2,0.7,156.0,133.0,3.2,0,5,10,1,2026-05-29T13:31:33.736450+05:30
Warangal,Telangana,17.9689,79.5941,38.6,31,0.0,976.2,9.0,42.1,71,28.3,18.7,1.1,176.0,152.0,6.7,0,5,10,1,2026-05-29T13:31:33.736456+05:30
Nizamabad,Telangana,18.6725,78.0941,38.0,31,0.0,963.6,8.95,38.9,65,28.8,16.9,1.0,158.0,141.0,5.4,0,5,10,1,2026-05-29T13:31:33.736461+05:30
Mysore,Karnataka,12.2958,76.6396,32.3,48,0.0,929.7,8.3,47.5,37,9.6,6.7,1.3,144.0,116.0,1.6,0,5,7,1,2026-05-29T13:31:33.736466+05:30
Mangalore,Karnataka,12.9141,74.856,30.4,76,0.0,1007.7,7.9,33.1,43,7.2,4.8,1.2,131.0,78.0,1.3,3,5,4,1,2026-05-29T13:31:33.736472+05:30
Hubli-Dharwad,Karnataka,15.3647,75.124,34.2,44,0.0,941.8,8.5,43.6,31,16.6,10.3,1.1,138.0,96.0,1.1,0,5,7,1,2026-05-29T13:31:33.736479+05:30
Belgaum,Karnataka,15.8497,74.4977,33.0,43,0.0,927.0,8.95,46.4,29,16.0,10.5,1.0,133.0,83.0,1.3,0,5,7,1,2026-05-29T13:31:37.818872+05:30
Coimbatore,Tamil Nadu,11.0168,76.9558,34.9,40,0.0,961.8,8.05,58.0,30,8.5,5.8,1.1,165.0,91.0,1.7,0,5,7,1,2026-05-29T13:31:37.818904+05:30
Madurai,Tamil Nadu,9.9252,78.1198,38.0,37,0.0,991.5,8.75,29.9,68,8.9,7.0,1.5,172.0,121.0,2.1,0,5,10,1,2026-05-29T13:31:37.818913+05:30
Trichy,Tamil Nadu,10.7905,78.7047,37.8,39,0.0,997.9,8.05,37.1,45,9.7,7.1,1.2,139.0,118.0,2.4,0,5,10,1,2026-05-29T13:31:37.818922+05:30
Salem,Tamil Nadu,11.6643,78.146,37.9,33,0.0,976.5,7.6,42.8,56,16.4,12.3,2.1,181.0,150.0,8.8,0,5,10,1,2026-05-29T13:31:37.818930+05:30
Tirunelveli,Tamil Nadu,8.7139,77.7567,39.1,35,0.0,1001.8,8.65,41.4,23,4.4,3.2,1.0,114.0,64.0,0.7,0,5,7,1,2026-05-29T13:31:37.818938+05:30
Vellore,Tamil Nadu,12.9165,79.1325,35.1,48,0.0,982.2,8.6,36.4,66,25.4,14.8,0.6,173.0,147.0,3.4,0,5,10,1,2026-05-29T13:31:37.818945+05:30
Erode,Tamil Nadu,11.341,77.7172,37.5,32,0.0,987.9,8.05,54.7,38,11.0,7.1,1.5,167.0,119.0,1.8,0,5,10,1,2026-05-29T13:31:37.818954+05:30
Kochi,Kerala,9.9312,76.2673,29.8,76,0.0,1010.1,8.05,33.8,45,7.0,5.0,2.1,105.0,69.0,2.3,7,0,4,1,2026-05-29T13:31:37.818961+05:30
Thiruvananthapuram,Kerala,8.5241,76.9366,28.8,79,0.1,1010.0,7.8,38.2,22,8.1,4.5,0.9,97.0,52.0,0.7,10,0,4,1,2026-05-29T13:31:37.818968+05:30
Kozhikode,Kerala,11.2588,75.7804,30.2,75,0.1,1008.9,7.6,38.2,30,6.4,3.9,0.4,107.0,68.0,0.7,6,0,4,1,2026-05-29T13:31:37.818975+05:30
Thrissur,Kerala,10.5276,76.2144,29.2,77,0.1,1008.4,7.8,36.0,43,6.8,5.3,1.3,114.0,74.0,2.0,10,0,4,1,2026-05-29T13:31:37.818984+05:30
Kannur,Kerala,11.8745,75.3704,30.8,70,0.0,1008.2,7.9,35.6,33,6.3,4.2,1.2,104.0,71.0,0.9,3,0,4,1,2026-05-29T13:31:37.818991+05:30
Patna,Bihar,25.5941,85.1376,28.9,71,0.0,999.5,8.75,54.0,110,50.3,36.9,2.0,300.0,192.0,12.7,7,5,7,1,2026-05-29T13:31:37.818998+05:30
Gaya,Bihar,24.7914,85.0002,32.0,58,0.0,991.7,8.85,40.3,134,61.0,35.0,1.8,301.0,179.0,12.9,0,5,7,1,2026-05-29T13:31:37.819005+05:30
Muzaffarpur,Bihar,26.1209,85.3647,29.7,72,0.0,999.7,8.75,43.2,106,48.7,33.3,1.8,258.0,185.0,9.1,7,5,7,1,2026-05-29T13:31:37.819012+05:30
Bhagalpur,Bihar,25.2425,87.0117,27.0,92,0.5,999.3,8.7,34.9,116,58.6,37.6,2.7,263.0,192.0,17.1,10,5,7,1,2026-05-29T13:31:37.819020+05:30
Ranchi,Jharkhand,23.3441,85.3096,29.0,54,0.0,936.8,9.2,50.4,97,61.9,36.4,1.5,434.0,174.0,13.1,4,5,7,1,2026-05-29T13:31:37.819027+05:30
Jamshedpur,Jharkhand,22.8046,86.2029,28.6,81,0.0,989.3,9.05,55.4,95,69.2,32.5,1.7,254.0,154.0,10.2,7,5,7,1,2026-05-29T13:31:37.819034+05:30
Dhanbad,Jharkhand,23.7957,86.4304,26.8,80,0.0,978.5,9.0,36.7,147,69.2,47.8,13.2,311.0,159.0,49.8,7,5,7,1,2026-05-29T13:31:37.819041+05:30
Bokaro,Jharkhand,23.6693,86.1511,27.6,78,0.0,982.4,9.0,36.0,150,76.6,50.3,17.1,296.0,161.0,65.2,7,5,7,1,2026-05-29T13:31:37.819048+05:30
Bhubaneswar,Odisha,20.2961,85.8245,28.5,90,0.1,1001.2,9.05,32.4,92,50.5,38.3,1.7,229.0,138.0,7.2,10,5,4,1,2026-05-29T13:31:37.819054+05:30
Cuttack,Odisha,20.4625,85.8828,29.0,93,0.5,1002.6,9.1,30.6,92,50.5,38.3,1.7,225.0,138.0,7.2,10,5,4,1,2026-05-29T13:31:37.819060+05:30
Rourkela,Odisha,22.2604,84.8536,31.9,57,0.0,983.5,8.95,46.1,109,72.2,50.8,2.0,318.0,230.0,22.4,0,5,7,1,2026-05-29T13:31:37.819066+05:30
Raipur,Chhattisgarh,21.2514,81.6296,42.7,19,0.0,970.2,8.9,36.7,92,51.5,26.9,4.7,144.0,173.0,26.9,0,5,10,0,2026-05-29T13:31:37.819071+05:30
Bhilai,Chhattisgarh,21.1938,81.3509,41.0,24,0.0,970.7,8.9,51.8,85,36.4,22.2,5.0,192.0,154.0,23.3,0,5,10,1,2026-05-29T13:31:37.819077+05:30
Guwahati,Assam,26.1158,91.7086,32.8,53,0.0,1000.1,8.7,27.7,120,57.9,34.8,1.1,303.0,147.0,3.2,0,5,4,1,2026-05-29T13:31:37.819082+05:30
Agartala,Tripura,23.8315,91.2868,32.8,63,0.0,1004.4,8.8,18.0,94,32.7,20.0,2.7,200.0,181.0,2.0,3,5,4,1,2026-05-29T13:31:37.819088+05:30
Shillong,Meghalaya,25.5788,91.8933,23.0,64,0.1,858.8,9.1,25.9,79,62.9,28.5,0.5,201.0,141.0,3.7,6,5,7,0,2026-05-29T13:31:37.819094+05:30
Imphal,Manipur,24.817,93.9368,30.0,44,0.0,922.8,9.25,19.8,125,85.4,29.4,0.1,184.0,131.0,3.2,4,5,7,1,2026-05-29T13:31:37.819100+05:30
Aizawl,Mizoram,23.7271,92.7176,28.9,44,0.0,892.5,9.05,27.0,74,59.0,21.5,0.3,178.0,120.0,2.7,4,5,7,0,2026-05-29T13:31:37.819106+05:30
Kohima,Nagaland,25.6701,94.1077,24.0,75,0.1,856.4,8.7,28.4,102,62.6,25.8,0.5,208.0,126.0,2.3,6,5,7,1,2026-05-29T13:31:37.819112+05:30
Gangtok,Sikkim,27.3314,88.6138,21.4,54,0.1,840.9,9.0,34.9,61,29.7,19.3,0.7,236.0,133.0,1.5,3,5,7,0,2026-05-29T13:31:37.819118+05:30
Siliguri,West Bengal,26.7271,88.3953,33.0,47,0.1,993.1,8.7,29.9,122,50.1,31.2,1.2,297.0,144.0,2.4,3,5,7,1,2026-05-29T13:31:42.040861+05:30
Durgapur,West Bengal,23.5204,87.3119,24.8,97,0.3,993.7,8.95,50.0,151,56.1,41.7,9.2,320.0,162.0,31.6,6,5,7,1,2026-05-29T13:31:42.040892+05:30
Asansol,West Bengal,23.6739,86.9524,25.8,96,0.6,990.9,8.95,38.2,144,59.1,45.1,9.8,325.0,164.0,35.2,10,5,7,1,2026-05-29T13:31:42.040901+05:30
Pondicherry,Puducherry,11.9139,79.8145,35.9,48,0.0,1006.0,8.8,42.1,69,32.5,27.0,5.0,239.0,190.0,14.0,0,5,7,1,2026-05-29T13:31:42.040909+05:30
Port Blair,Andaman and Nicobar Islands,11.6234,92.7265,30.7,72,0.0,1005.6,8.85,41.0,42,7.9,4.0,0.3,123.0,88.0,0.4,3,5,4,1,2026-05-29T13:31:42.040917+05:30
Haridwar,Uttarakhand,29.9457,78.1642,33.1,44,0.0,973.0,7.5,46.8,113,78.5,27.3,1.1,258.0,163.0,6.4,0,5,7,1,2026-05-29T13:31:42.040924+05:30
Rishikesh,Uttarakhand,30.0869,78.2676,33.5,36,0.0,965.8,7.6,38.2,134,82.0,28.1,0.9,260.0,162.0,5.4,0,5,7,1,2026-05-29T13:31:42.040931+05:30
Nainital,Uttarakhand,29.3919,79.4542,20.0,59,0.0,807.7,8.4,37.4,105,55.5,23.1,0.7,327.0,151.0,3.6,0,5,7,0,2026-05-29T13:31:42.040937+05:30
Mussoorie,Uttarakhand,30.4599,78.0664,18.2,62,0.1,804.6,8.05,34.6,115,109.7,33.3,1.5,263.0,166.0,6.3,6,5,7,0,2026-05-29T13:31:42.040944+05:30
Dharamshala,Himachal Pradesh,32.219,76.3234,22.1,60,0.1,869.2,8.45,33.8,85,56.5,18.6,1.1,245.0,159.0,4.3,3,5,7,0,2026-05-29T13:31:42.040950+05:30
Dalhousie,Himachal Pradesh,32.5387,75.971,18.7,64,0.2,805.7,8.65,34.2,96,160.7,46.6,1.5,294.0,195.0,12.3,6,5,7,0,2026-05-29T13:31:42.040956+05:30
Patiala,Punjab,30.3398,76.3869,35.5,38,0.0,975.0,7.6,51.5,1289,748.8,112.9,1.8,260.0,181.0,10.4,0,5,10,1,2026-05-29T13:31:42.040963+05:30
Bhatinda,Punjab,30.211,74.9455,38.8,31,0.0,978.7,8.25,54.0,722,1553.4,265.4,2.1,285.0,181.0,14.6,0,5,10,1,2026-05-29T13:31:42.040969+05:30
Rohtak,Haryana,28.8955,76.6066,36.2,42,0.0,978.1,7.7,40.0,1011,1408.2,200.7,3.8,294.0,209.0,17.3,0,5,10,1,2026-05-29T13:31:42.040974+05:30
Panipat,Haryana,29.3909,76.9635,34.8,44,0.0,977.5,7.6,47.2,1886,2972.8,333.4,3.3,282.0,206.0,17.7,0,5,7,1,2026-05-29T13:31:42.040980+05:30
Mathura,Uttar Pradesh,27.4924,77.6737,36.7,40,0.0,983.5,7.95,55.1,800,715.3,135.5,2.4,293.0,177.0,9.0,0,5,10,1,2026-05-29T13:31:42.040986+05:30
Vrindavan,Uttar Pradesh,27.5823,77.7027,36.3,42,0.0,983.9,7.95,54.4,800,715.3,135.5,2.4,295.0,177.0,9.0,0,5,10,1,2026-05-29T13:31:42.040991+05:30
Ayodhya,Uttar Pradesh,26.7922,82.1998,31.2,58,0.0,994.5,8.3,45.0,94,65.2,45.8,1.6,351.0,181.0,13.0,0,5,7,1,2026-05-29T13:31:42.040997+05:30
Ratlam,Madhya Pradesh,23.3315,75.0367,37.3,33,0.0,952.9,8.5,53.3,70,61.2,27.0,0.6,129.0,98.0,4.0,0,5,10,1,2026-05-29T13:31:42.041003+05:30
Sagar,Madhya Pradesh,23.8388,78.7378,39.6,21,0.0,947.8,8.7,35.6,65,38.4,19.9,0.7,143.0,124.0,4.9,0,5,10,0,2026-05-29T13:31:42.041009+05:30
Satna,Madhya Pradesh,24.6005,80.8322,37.8,28,0.0,968.8,8.75,32.0,117,58.2,37.3,1.5,277.0,186.0,16.0,0,5,10,1,2026-05-29T13:31:42.041015+05:30
Akola,Maharashtra,20.7002,77.0082,40.0,23,0.0,973.3,8.8,49.3,61,46.2,21.5,1.2,132.0,109.0,5.2,0,5,10,0,2026-05-29T13:31:42.041021+05:30
Amravati,Maharashtra,20.9374,77.7796,41.0,22,0.0,965.1,8.8,46.4,62,44.7,21.7,1.4,132.0,112.0,5.8,0,5,10,0,2026-05-29T13:31:42.041029+05:30
Latur,Maharashtra,18.4088,76.5604,37.3,28,0.0,939.8,8.95,37.8,52,13.0,7.9,0.8,133.0,115.0,2.0,0,5,10,0,2026-05-29T13:31:42.041034+05:30
Nanded,Maharashtra,19.1383,77.3091,39.3,29,0.0,967.3,8.9,39.2,61,29.1,16.9,1.2,152.0,139.0,5.3,0,5,10,1,2026-05-29T13:31:42.041040+05:30
Gulbarga,Karnataka,17.3297,76.8343,37.5,33,0.0,958.0,8.95,40.3,41,12.2,7.6,1.3,147.0,119.0,2.3,0,5,10,1,2026-05-29T13:31:42.041046+05:30
Bidar,Karnataka,17.9104,77.5199,36.5,30,0.0,935.5,9.0,40.0,58,14.5,10.4,1.2,146.0,141.0,4.4,0,5,10,1,2026-05-29T13:31:42.041052+05:30
Hospet,Karnataka,15.2689,76.3909,34.0,49,0.0,955.8,8.15,45.7,45,17.3,10.8,1.2,147.0,108.0,2.1,0,5,7,1,2026-05-29T13:31:42.041058+05:30
Tirupur,Tamil Nadu,11.1085,77.3411,38.3,32,0.0,974.4,7.7,62.3,39,10.2,6.9,1.6,157.0,110.0,2.1,0,5,10,1,2026-05-29T13:31:42.041064+05:30
Alappuzha,Kerala,9.4981,76.3388,29.3,78,0.0,1010.4,8.15,38.2,33,5.5,3.9,1.6,98.0,60.0,1.4,7,0,4,1,2026-05-29T13:31:42.041070+05:30
Munnar,Kerala,10.0889,77.0595,21.0,82,0.0,859.0,5.1,28.4,26,5.8,4.2,1.3,112.0,77.0,1.1,3,5,3,1,2026-05-29T13:31:42.041076+05:30
Silchar,Assam,24.8333,92.7789,34.8,46,0.0,1001.8,8.9,20.5,146,72.4,35.9,1.2,276.0,148.0,5.7,0,5,4,1,2026-05-29T13:31:42.041081+05:30
Dibrugarh,Assam,27.4728,94.912,32.8,54,0.0,992.8,8.85,13.0,130,64.3,32.2,0.9,243.0,149.0,2.3,0,5,7,1,2026-05-29T13:31:42.041087+05:30
