city,state,latitude,longitude,temp,humidity,rain,pressure,uv_index,wind_gusts,aqi,pm10,pm2_5,no2,co,o3,so2,mosquito_risk,arthritis_risk,migraine_risk,frizz_risk,updated_at
Delhi,Delhi,28.6139,77.209,33.7,58,0.0,975.1,7.7,28.4,167,397.7,111.1,9.0,303.0,199.0,22.0,0,5,7,1,2026-07-11T11:46:10.322930+05:30
Mumbai,Maharashtra,19.076,72.8777,28.6,82,0.0,1008.9,6.15,52.9,57,32.9,14.5,3.8,148.0,65.0,5.1,7,0,4,1,2026-07-11T11:46:10.322973+05:30
Bangalore,Karnataka,12.9716,77.5946,28.1,50,0.0,913.8,7.2,46.8,40,23.2,9.5,4.8,202.0,56.0,3.1,4,5,7,1,2026-07-11T11:46:10.322989+05:30
Hyderabad,Telangana,17.385,78.4867,31.3,48,0.0,953.0,8.2,47.2,66,35.4,12.9,2.0,168.0,70.0,2.8,0,5,7,1,2026-07-11T11:46:10.322998+05:30
Chennai,Tamil Nadu,13.0827,80.2707,35.1,47,0.1,1006.2,8.0,33.8,67,45.9,24.4,6.5,197.0,115.0,11.7,3,5,7,1,2026-07-11T11:46:10.323007+05:30
Kolkata,West Bengal,22.5726,88.3639,32.3,67,0.0,999.6,3.05,33.8,97,70.5,43.2,4.3,353.0,145.0,19.2,3,5,3,1,2026-07-11T11:46:10.323019+05:30
Pune,Maharashtra,18.5204,73.8567,28.0,65,0.0,948.5,7.8,57.2,35,31.8,11.2,1.7,117.0,63.0,3.6,7,5,7,1,2026-07-11T11:46:10.323027+05:30
Ahmedabad,Gujarat,23.0225,72.5714,32.9,56,0.0,998.0,5.65,50.8,70,43.7,16.4,2.0,119.0,68.0,3.3,0,5,3,1,2026-07-11T11:46:10.323033+05:30
Jaipur,Rajasthan,26.9124,75.7873,31.2,60,0.0,953.7,7.8,36.0,459,540.2,92.7,1.5,141.0,88.0,3.7,0,5,7,1,2026-07-11T11:46:10.323040+05:30
Lucknow,Uttar Pradesh,26.8467,80.9462,33.6,60,0.0,985.1,2.9,52.2,140,169.5,62.6,2.3,191.0,144.0,6.4,0,5,3,1,2026-07-11T11:46:10.323049+05:30
Kanpur,Uttar Pradesh,26.4499,80.3319,33.8,56,0.0,984.0,8.15,46.8,121,201.6,54.9,1.9,147.0,119.0,5.1,0,5,7,1,2026-07-11T11:46:10.323055+05:30
Chandigarh,Chandigarh,30.7333,76.7794,30.7,73,0.0,960.7,7.7,25.2,125,54.0,30.5,3.3,401.0,179.0,11.8,3,5,7,1,2026-07-11T11:46:10.323061+05:30
Srinagar,Jammu and Kashmir,34.0837,74.7973,30.1,41,0.0,837.3,9.05,32.0,88,30.2,23.5,1.6,377.0,172.0,3.9,0,5,7,0,2026-07-11T11:46:10.323068+05:30
Jammu,Jammu and Kashmir,32.7266,74.857,31.9,63,0.0,964.0,8.55,22.7,155,50.1,41.0,2.9,376.0,186.0,4.5,3,5,7,1,2026-07-11T11:46:10.323074+05:30
Amritsar,Punjab,31.634,74.8723,32.4,65,0.0,971.8,8.4,28.4,156,88.5,41.9,2.6,348.0,150.0,3.3,3,5,7,1,2026-07-11T11:46:10.323080+05:30
Ludhiana,Punjab,30.901,75.8573,31.9,67,0.0,970.2,7.95,31.0,147,149.5,55.6,3.0,394.0,143.0,7.3,3,5,7,1,2026-07-11T11:46:10.323087+05:30
Jalandhar,Punjab,31.326,75.5762,29.5,78,0.0,971.3,8.1,23.8,156,97.1,43.0,2.9,355.0,155.0,5.3,7,5,7,1,2026-07-11T11:46:10.323093+05:30
Dehradun,Uttarakhand,30.6284,78.0322,20.9,91,0.1,825.9,7.8,24.8,35,9.1,8.4,1.1,230.0,115.0,0.7,6,5,7,1,2026-07-11T11:46:10.323100+05:30
Shimla,Himachal Pradesh,31.1048,77.1734,22.3,61,0.0,782.6,3.85,33.8,60,30.9,24.4,1.3,262.0,164.0,8.2,3,5,3,0,2026-07-11T11:46:10.323107+05:30
Manali,Himachal Pradesh,32.2396,77.1887,24.0,79,0.0,816.2,7.8,28.1,60,21.2,20.4,13.8,206.0,104.0,1.4,3,5,7,1,2026-07-11T11:46:10.323117+05:30
Gurgaon,Haryana,28.4595,77.0266,34.2,54,0.0,973.7,7.5,30.6,218,778.6,151.8,7.0,190.0,151.0,15.1,0,5,7,1,2026-07-11T11:46:10.323124+05:30
Noida,Uttar Pradesh,28.5355,77.391,34.2,57,0.0,976.5,7.7,28.1,218,778.6,151.8,7.0,325.0,151.0,15.1,0,5,7,1,2026-07-11T11:46:10.323130+05:30
Ghaziabad,Uttar Pradesh,28.6692,77.4538,33.7,60,0.0,974.7,7.7,30.6,140,297.1,98.5,8.7,509.0,222.0,31.0,0,5,7,1,2026-07-11T11:46:10.323136+05:30
Faridabad,Haryana,28.4089,77.3178,34.0,58,0.0,975.8,7.7,29.2,218,778.6,151.8,7.0,217.0,151.0,15.1,0,5,7,1,2026-07-11T11:46:10.323142+05:30
Meerut,Uttar Pradesh,28.9845,77.7064,32.7,68,0.0,973.6,7.65,31.3,140,297.1,98.5,8.7,320.0,222.0,31.0,3,5,7,1,2026-07-11T11:46:10.323148+05:30
Agra,Uttar Pradesh,27.1767,78.0081,34.2,55,0.0,980.4,8.05,35.6,161,380.9,74.7,2.2,144.0,111.0,4.3,0,5,7,1,2026-07-11T11:46:10.323154+05:30
Varanasi,Uttar Pradesh,25.3176,82.9739,33.3,61,0.0,990.1,7.6,47.5,107,65.2,38.8,2.5,227.0,122.0,8.3,3,5,7,1,2026-07-11T11:46:10.323160+05:30
Prayagraj,Uttar Pradesh,25.4358,81.8463,34.2,56,0.0,988.7,8.45,45.7,112,67.1,38.6,2.2,168.0,122.0,8.6,0,5,7,1,2026-07-11T11:46:10.323167+05:30
Gorakhpur,Uttar Pradesh,26.7606,83.3732,31.8,73,0.0,989.2,6.05,35.6,95,149.5,58.0,2.4,247.0,147.0,6.8,3,5,7,1,2026-07-11T11:46:10.323173+05:30
Bareilly,Uttar Pradesh,28.367,79.4304,32.2,68,0.0,978.6,7.85,29.2,101,49.0,24.9,2.5,309.0,171.0,11.6,3,5,7,1,2026-07-11T11:46:10.323180+05:30
Aligarh,Uttar Pradesh,27.8974,78.088,34.0,58,0.0,977.8,7.75,33.5,162,431.2,105.0,3.4,183.0,142.0,9.5,0,5,7,1,2026-07-11T11:46:10.323187+05:30
Moradabad,Uttar Pradesh,28.8386,78.7733,32.6,66,0.0,975.4,7.8,32.4,102,76.4,36.9,3.9,335.0,186.0,21.4,3,5,7,1,2026-07-11T11:46:10.323194+05:30
Saharanpur,Uttar Pradesh,29.9637,77.546,31.1,72,0.0,967.9,7.35,52.2,82,25.0,19.3,2.7,354.0,167.0,6.8,3,5,7,1,2026-07-11T11:46:10.323200+05:30
Jhansi,Uttar Pradesh,25.4484,78.5685,33.3,55,0.0,972.2,8.4,43.9,97,78.0,35.0,2.0,134.0,104.0,8.4,0,5,7,1,2026-07-11T11:46:13.704918+05:30
Surat,Gujarat,21.1702,72.8311,30.8,72,0.0,1004.6,5.4,65.9,63,31.5,16.5,6.7,207.0,49.0,22.3,3,5,0,1,2026-07-11T11:46:13.704949+05:30
Vadodara,Gujarat,22.3072,73.1812,31.7,62,0.0,1001.2,7.85,55.1,64,39.3,15.0,2.0,126.0,64.0,3.0,3,5,4,1,2026-07-11T11:46:13.704959+05:30
Rajkot,Gujarat,22.3039,70.8022,33.4,52,0.0,990.4,7.2,59.8,61,49.7,19.6,1.2,96.0,68.0,3.2,0,5,7,1,2026-07-11T11:46:13.704968+05:30
Thane,Maharashtra,19.2183,72.9781,30.3,71,0.1,1008.0,6.55,46.4,57,32.9,14.5,3.8,140.0,65.0,5.1,6,0,4,1,2026-07-11T11:46:13.704976+05:30
Nagpur,Maharashtra,21.1458,79.0882,31.2,56,0.0,971.0,6.8,52.2,88,65.7,24.4,4.7,129.0,72.0,14.8,0,5,7,1,2026-07-11T11:46:13.704983+05:30
Nashik,Maharashtra,19.9975,73.7898,28.0,64,0.0,944.7,7.75,63.7,41,31.3,12.1,1.3,105.0,62.0,1.7,7,5,7,1,2026-07-11T11:46:13.704991+05:30
Aurangabad,Maharashtra,19.8762,75.3433,29.3,58,0.0,943.5,8.85,60.1,52,46.9,15.5,1.6,109.0,72.0,5.0,4,5,7,1,2026-07-11T11:46:13.704999+05:30
Solapur,Maharashtra,17.6599,75.9064,30.9,55,0.0,957.5,7.65,50.0,48,38.5,12.8,1.1,104.0,67.0,1.7,0,5,7,1,2026-07-11T11:46:13.705007+05:30
Kolhapur,Maharashtra,16.705,74.2433,27.3,71,0.0,949.1,7.55,53.6,36,33.2,12.1,1.4,111.0,58.0,1.7,7,5,7,1,2026-07-11T11:46:13.705015+05:30
Goa,Goa,15.2993,74.124,29.8,74,0.1,1000.3,8.15,36.4,57,25.0,10.9,0.9,104.0,53.0,1.3,10,5,4,1,2026-07-11T11:46:13.705022+05:30
Jodhpur,Rajasthan,26.2389,73.0243,32.7,51,0.0,975.8,8.45,57.2,196,206.8,46.7,0.9,107.0,71.0,2.3,0,5,7,1,2026-07-11T11:46:13.705030+05:30
Udaipur,Rajasthan,24.5854,73.7125,29.3,60,0.0,941.9,8.4,56.9,76,48.2,18.3,1.3,104.0,66.0,2.8,4,5,7,1,2026-07-11T11:46:13.705037+05:30
Kota,Rajasthan,25.2138,75.8648,32.9,51,0.0,973.4,8.3,41.4,92,69.4,28.3,1.5,120.0,85.0,5.4,0,5,7,1,2026-07-11T11:46:13.705043+05:30
Bikaner,Rajasthan,28.0229,73.3119,34.0,49,0.0,973.3,8.45,41.0,158,203.5,68.9,0.6,105.0,78.0,4.0,0,5,7,1,2026-07-11T11:46:13.705050+05:30
Ajmer,Rajasthan,26.4499,74.6399,30.0,60,0.0,948.6,8.15,52.2,88,79.6,30.5,1.1,111.0,77.0,3.0,4,5,7,1,2026-07-11T11:46:13.705057+05:30
Gwalior,Madhya Pradesh,26.2183,78.1828,32.7,58,0.0,976.7,8.15,42.1,93,84.5,34.3,1.3,124.0,98.0,3.3,0,5,7,1,2026-07-11T11:46:13.705063+05:30
Indore,Madhya Pradesh,22.7196,75.8577,29.0,61,0.0,945.4,8.55,57.6,74,60.5,22.7,1.9,147.0,73.0,3.5,7,5,7,1,2026-07-11T11:46:13.705071+05:30
Bhopal,Madhya Pradesh,23.2599,77.4126,29.9,60,0.0,950.4,8.6,47.2,82,71.9,25.3,1.3,153.0,80.0,3.8,4,5,7,1,2026-07-11T11:46:13.705079+05:30
Jabalpur,Madhya Pradesh,23.1815,79.9864,29.5,68,0.0,957.9,7.15,38.9,89,41.8,22.2,2.1,149.0,77.0,6.3,7,5,7,1,2026-07-11T11:46:13.705086+05:30
Ujjain,Madhya Pradesh,23.1765,75.7885,29.5,60,0.0,950.7,8.25,56.9,75,55.2,21.0,1.4,126.0,72.0,3.6,4,5,7,1,2026-07-11T11:46:13.705093+05:30
Visakhapatnam,Andhra Pradesh,17.6868,83.2185,33.5,61,0.0,999.9,7.7,38.5,91,65.0,37.0,6.3,307.0,147.0,23.8,3,5,7,1,2026-07-11T11:46:13.705100+05:30
Vijayawada,Andhra Pradesh,16.5062,80.648,35.4,47,0.0,1000.6,5.25,42.5,92,32.4,17.8,2.1,131.0,93.0,4.9,0,5,3,1,2026-07-11T11:46:13.705107+05:30
Guntur,Andhra Pradesh,16.3067,80.4365,36.1,42,0.0,1001.9,4.85,45.4,88,33.5,16.2,1.9,140.0,82.0,4.1,0,5,3,1,2026-07-11T11:46:13.705115+05:30
Nellore,Andhra Pradesh,14.4426,79.9865,34.7,49,0.0,1004.8,7.7,41.4,64,40.4,16.9,2.0,112.0,84.0,6.0,0,5,4,1,2026-07-11T11:46:13.705123+05:30
Kurnool,Andhra Pradesh,15.8281,78.0373,34.0,44,0.0,977.0,7.4,48.6,60,28.9,11.7,2.8,110.0,61.0,5.2,0,5,7,1,2026-07-11T11:46:13.705131+05:30
Kakinada,Andhra Pradesh,16.9891,82.2475,34.4,54,0.0,1004.1,5.7,41.0,78,50.2,29.3,3.1,221.0,129.0,6.2,0,5,0,1,2026-07-11T11:46:13.705138+05:30
Tirupati,Andhra Pradesh,13.6288,79.4192,36.3,39,0.0,990.3,8.2,36.4,61,39.3,13.2,1.2,105.0,73.0,1.3,0,5,10,1,2026-07-11T11:46:13.705145+05:30
Warangal,Telangana,17.9689,79.5941,31.5,58,0.0,977.4,5.2,37.4,80,41.7,16.2,1.4,124.0,79.0,2.8,0,5,3,1,2026-07-11T11:46:13.705152+05:30
Nizamabad,Telangana,18.6725,78.0941,30.5,55,0.0,964.2,8.55,46.1,72,37.4,15.5,2.1,118.0,67.0,5.5,0,5,7,1,2026-07-11T11:46:13.705159+05:30
Mysore,Karnataka,12.2958,76.6396,27.7,62,0.1,930.3,6.0,47.2,30,14.2,5.7,1.9,117.0,65.0,1.8,10,5,3,1,2026-07-11T11:46:13.705165+05:30
Mangalore,Karnataka,12.9141,74.856,28.1,81,0.0,1009.6,8.3,46.1,52,28.2,11.6,1.1,94.0,52.0,1.6,7,0,4,1,2026-07-11T11:46:13.705172+05:30
Hubli-Dharwad,Karnataka,15.3647,75.124,28.8,61,0.0,942.5,7.4,53.3,33,20.7,8.5,1.5,100.0,56.0,1.3,7,5,7,1,2026-07-11T11:46:13.705179+05:30
Belgaum,Karnataka,15.8497,74.4977,26.6,69,0.0,927.4,7.8,52.9,30,22.8,8.7,1.2,100.0,54.0,1.4,7,5,7,1,2026-07-11T11:46:17.095420+05:30
Coimbatore,Tamil Nadu,11.0168,76.9558,30.9,56,0.0,963.2,7.95,48.6,30,12.4,5.6,1.4,128.0,67.0,2.0,0,5,7,1,2026-07-11T11:46:17.095451+05:30
Madurai,Tamil Nadu,9.9252,78.1198,34.5,45,0.0,993.5,8.2,26.6,55,32.7,13.9,2.2,147.0,101.0,2.9,0,5,7,1,2026-07-11T11:46:17.095462+05:30
Trichy,Tamil Nadu,10.7905,78.7047,35.7,43,0.0,999.7,7.85,49.0,43,19.3,8.4,1.4,115.0,74.0,2.1,0,5,10,1,2026-07-11T11:46:17.095471+05:30
Salem,Tamil Nadu,11.6643,78.146,31.0,60,0.0,978.6,7.95,32.8,57,28.6,14.2,2.8,167.0,98.0,7.8,0,5,7,1,2026-07-11T11:46:17.095479+05:30
Tirunelveli,Tamil Nadu,8.7139,77.7567,36.7,39,0.0,1003.6,8.4,48.2,28,5.7,3.5,1.1,115.0,71.0,1.4,0,5,7,1,2026-07-11T11:46:17.095486+05:30
Vellore,Tamil Nadu,12.9165,79.1325,35.7,40,0.0,984.0,8.65,41.4,52,35.3,14.9,1.8,151.0,90.0,2.7,0,5,10,1,2026-07-11T11:46:17.095494+05:30
Erode,Tamil Nadu,11.341,77.7172,34.8,44,0.0,989.8,7.85,38.2,45,21.1,10.2,2.1,143.0,87.0,2.4,0,5,7,1,2026-07-11T11:46:17.095501+05:30
Kochi,Kerala,9.9312,76.2673,28.6,79,0.0,1011.7,7.45,38.2,50,13.2,6.4,2.8,110.0,52.0,2.2,7,0,4,1,2026-07-11T11:46:17.095509+05:30
Thiruvananthapuram,Kerala,8.5241,76.9366,28.9,77,0.0,1010.3,8.0,49.3,38,15.3,9.0,1.6,108.0,76.0,1.5,7,0,4,1,2026-07-11T11:46:17.095515+05:30
Kozhikode,Kerala,11.2588,75.7804,28.7,79,0.0,1010.7,7.5,40.3,39,23.3,9.3,0.6,125.0,56.0,1.0,7,0,4,1,2026-07-11T11:46:17.095522+05:30
Thrissur,Kerala,10.5276,76.2144,29.0,76,0.1,1009.8,7.75,39.6,53,13.2,6.4,1.6,101.0,54.0,1.4,10,0,4,1,2026-07-11T11:46:17.095530+05:30
Kannur,Kerala,11.8745,75.3704,28.9,77,0.0,1010.0,8.2,45.0,49,23.9,10.1,1.1,104.0,58.0,1.4,7,0,4,1,2026-07-11T11:46:17.095537+05:30
Patna,Bihar,25.5941,85.1376,28.6,92,0.0,992.9,6.25,34.6,93,61.5,32.4,3.7,217.0,114.0,6.3,7,5,7,1,2026-07-11T11:46:17.095545+05:30
Gaya,Bihar,24.7914,85.0002,32.0,69,0.0,986.9,7.2,45.4,98,87.1,43.3,3.0,182.0,109.0,9.4,3,5,7,1,2026-07-11T11:46:17.095552+05:30
Muzaffarpur,Bihar,26.1209,85.3647,31.4,72,0.0,992.1,4.85,35.3,99,50.1,27.1,3.9,255.0,118.0,6.2,3,5,3,1,2026-07-11T11:46:17.095558+05:30
Bhagalpur,Bihar,25.2425,87.0117,32.1,71,0.0,993.0,7.25,34.6,79,54.9,33.5,5.2,218.0,122.0,11.6,3,5,7,1,2026-07-11T11:46:17.095565+05:30
Ranchi,Jharkhand,23.3441,85.3096,29.2,64,0.0,932.8,7.55,39.6,91,79.6,36.1,1.6,165.0,114.0,8.4,7,5,7,1,2026-07-11T11:46:17.095572+05:30
Jamshedpur,Jharkhand,22.8046,86.2029,30.8,72,0.0,985.1,8.55,34.2,101,80.8,45.5,5.0,223.0,135.0,23.0,3,5,7,1,2026-07-11T11:46:17.095579+05:30
Dhanbad,Jharkhand,23.7957,86.4304,31.0,70,0.2,973.6,8.3,36.4,130,74.5,40.9,8.5,181.0,123.0,35.1,6,5,7,1,2026-07-11T11:46:17.095586+05:30
Bokaro,Jharkhand,23.6693,86.1511,29.5,80,0.1,977.6,8.1,38.5,120,85.9,44.9,9.0,176.0,123.0,39.1,10,5,7,1,2026-07-11T11:46:17.095593+05:30
Bhubaneswar,Odisha,20.2961,85.8245,33.3,60,0.0,997.6,8.25,36.4,78,70.5,34.6,3.5,168.0,113.0,8.9,0,5,7,1,2026-07-11T11:46:17.095600+05:30
Cuttack,Odisha,20.4625,85.8828,33.3,60,0.0,999.4,8.4,36.0,78,70.5,34.6,3.5,208.0,113.0,8.9,0,5,7,1,2026-07-11T11:46:17.095607+05:30
Rourkela,Odisha,22.2604,84.8536,29.4,74,0.0,980.2,8.1,33.5,127,84.8,41.3,3.3,219.0,117.0,11.8,7,5,7,1,2026-07-11T11:46:17.095614+05:30
Raipur,Chhattisgarh,21.2514,81.6296,30.9,60,0.0,971.3,7.6,40.3,120,76.8,39.1,6.5,143.0,114.0,26.7,0,5,7,1,2026-07-11T11:46:17.095622+05:30
Bhilai,Chhattisgarh,21.1938,81.3509,31.1,57,0.0,971.7,7.4,42.8,113,65.9,33.5,5.9,290.0,107.0,22.0,0,5,7,1,2026-07-11T11:46:17.095628+05:30
Guwahati,Assam,26.1158,91.7086,28.3,91,0.1,993.0,8.55,25.2,44,9.1,9.0,2.5,267.0,108.0,2.5,10,5,7,1,2026-07-11T11:46:17.095635+05:30
Agartala,Tripura,23.8315,91.2868,28.4,91,0.0,998.8,7.8,36.4,59,26.8,22.3,3.9,246.0,116.0,6.4,7,5,7,1,2026-07-11T11:46:17.095642+05:30
Shillong,Meghalaya,25.5788,91.8933,24.6,74,0.1,852.8,3.95,24.5,34,6.3,6.0,2.1,215.0,109.0,5.3,6,5,3,1,2026-07-11T11:46:17.095649+05:30
Imphal,Manipur,24.817,93.9368,28.5,75,0.1,917.1,8.5,29.5,34,3.8,3.6,0.9,215.0,99.0,2.7,10,5,7,1,2026-07-11T11:46:17.095676+05:30
Aizawl,Mizoram,23.7271,92.7176,24.3,74,0.1,887.8,8.5,43.6,33,1.9,1.6,0.7,143.0,94.0,2.0,6,5,7,1,2026-07-11T11:46:17.095685+05:30
Kohima,Nagaland,25.6701,94.1077,22.5,97,0.4,850.6,6.4,26.6,33,3.5,3.3,0.7,166.0,97.0,2.4,6,5,7,1,2026-07-11T11:46:17.095692+05:30
Gangtok,Sikkim,27.3314,88.6138,24.0,74,0.0,834.1,8.5,28.4,44,5.4,5.3,2.1,234.0,107.0,1.8,3,5,7,1,2026-07-11T11:46:17.095699+05:30
Siliguri,West Bengal,26.7271,88.3953,29.1,86,0.1,984.8,5.0,19.4,98,19.3,18.8,2.8,346.0,123.0,4.4,10,5,3,1,2026-07-11T11:46:20.486724+05:30
Durgapur,West Bengal,23.5204,87.3119,32.1,66,0.0,988.0,6.75,39.6,133,72.9,49.7,17.0,720.0,124.0,51.7,3,5,7,1,2026-07-11T11:46:20.486759+05:30
Asansol,West Bengal,23.6739,86.9524,32.4,63,0.0,986.7,7.3,38.9,120,69.8,41.3,11.8,241.0,119.0,37.6,3,5,7,1,2026-07-11T11:46:20.486770+05:30
Pondicherry,Puducherry,11.9139,79.8145,35.1,47,0.0,1007.7,8.15,41.4,65,40.5,23.7,3.9,164.0,120.0,9.4,0,5,7,1,2026-07-11T11:46:20.486779+05:30
Port Blair,Andaman and Nicobar Islands,11.6234,92.7265,30.1,73,0.0,1006.9,8.8,57.6,37,20.3,9.6,0.2,85.0,44.0,0.4,3,5,4,1,2026-07-11T11:46:20.486786+05:30
Haridwar,Uttarakhand,29.9457,78.1642,31.3,67,0.1,966.3,7.5,28.4,63,10.6,9.8,1.6,275.0,147.0,4.1,6,5,7,1,2026-07-11T11:46:20.486794+05:30
Rishikesh,Uttarakhand,30.0869,78.2676,29.9,71,0.0,959.3,7.15,23.4,45,4.5,4.3,1.1,254.0,131.0,3.6,7,5,7,1,2026-07-11T11:46:20.486802+05:30
Nainital,Uttarakhand,29.3919,79.4542,22.8,73,0.0,802.8,3.75,23.4,44,11.1,8.8,1.6,241.0,137.0,3.3,3,5,3,1,2026-07-11T11:46:20.486810+05:30
Mussoorie,Uttarakhand,30.4599,78.0664,21.4,81,0.1,799.6,7.85,29.5,50,8.9,8.3,1.5,246.0,141.0,2.5,6,5,7,1,2026-07-11T11:46:20.486818+05:30
Dharamshala,Himachal Pradesh,32.219,76.3234,24.9,76,0.0,864.1,8.4,34.9,46,10.6,8.6,1.0,306.0,144.0,1.9,3,5,7,1,2026-07-11T11:46:20.486826+05:30
Dalhousie,Himachal Pradesh,32.5387,75.971,22.1,81,0.1,801.6,8.6,25.9,94,31.3,23.8,2.0,364.0,182.0,3.8,6,5,7,1,2026-07-11T11:46:20.486833+05:30
Patiala,Punjab,30.3398,76.3869,31.7,67,0.0,969.9,7.5,30.6,122,120.1,47.3,4.4,317.0,136.0,10.1,3,5,7,1,2026-07-11T11:46:20.486840+05:30
Bhatinda,Punjab,30.211,74.9455,35.4,52,0.0,974.7,8.25,24.8,165,389.3,112.2,3.8,183.0,143.0,11.8,0,5,10,1,2026-07-11T11:46:20.486846+05:30
Rohtak,Haryana,28.8955,76.6066,34.3,56,0.0,973.8,7.65,28.4,441,879.2,144.4,2.5,164.0,121.0,4.2,0,5,7,1,2026-07-11T11:46:20.486853+05:30
Panipat,Haryana,29.3909,76.9635,32.9,65,0.0,972.5,7.55,23.0,504,1095.2,165.3,6.8,268.0,149.0,24.4,3,5,7,1,2026-07-11T11:46:20.486860+05:30
Mathura,Uttar Pradesh,27.4924,77.6737,34.4,55,0.0,979.2,7.85,30.6,257,1121.3,152.7,2.3,152.0,108.0,3.7,0,5,7,1,2026-07-11T11:46:20.486868+05:30
Vrindavan,Uttar Pradesh,27.5823,77.7027,34.7,54,0.0,979.6,7.9,30.6,257,1121.3,152.7,2.3,147.0,108.0,3.7,0,5,7,1,2026-07-11T11:46:20.486874+05:30
Ayodhya,Uttar Pradesh,26.7922,82.1998,32.6,67,0.0,987.1,6.95,35.6,123,160.2,58.2,2.1,245.0,126.0,6.1,3,5,7,1,2026-07-11T11:46:20.486881+05:30
Ratlam,Madhya Pradesh,23.3315,75.0367,29.9,58,0.0,951.6,5.6,55.4,72,52.9,19.8,1.3,108.0,71.0,3.7,4,5,3,1,2026-07-11T11:46:20.486889+05:30
Sagar,Madhya Pradesh,23.8388,78.7378,30.7,59,0.0,946.4,7.9,47.9,88,65.9,26.0,1.2,135.0,89.0,5.5,0,5,7,1,2026-07-11T11:46:20.486895+05:30
Satna,Madhya Pradesh,24.6005,80.8322,32.9,55,0.0,965.9,8.15,45.4,102,61.7,34.2,1.2,141.0,112.0,5.7,0,5,7,1,2026-07-11T11:46:20.486902+05:30
Akola,Maharashtra,20.7002,77.0082,31.3,54,0.0,973.8,8.75,51.8,68,40.3,15.7,2.1,108.0,69.0,6.9,0,5,7,1,2026-07-11T11:46:20.486909+05:30
Amravati,Maharashtra,20.9374,77.7796,29.8,60,0.0,966.0,8.2,52.2,70,43.3,17.4,2.6,111.0,68.0,8.5,4,5,7,1,2026-07-11T11:46:20.486917+05:30
Latur,Maharashtra,18.4088,76.5604,30.0,56,0.0,939.9,8.6,45.4,52,43.5,13.6,0.9,105.0,65.0,1.9,4,5,7,1,2026-07-11T11:46:20.486924+05:30
Nanded,Maharashtra,19.1383,77.3091,30.7,55,0.0,968.0,8.2,46.1,62,36.4,14.2,1.7,113.0,65.0,3.3,0,5,7,1,2026-07-11T11:46:20.486930+05:30
Gulbarga,Karnataka,17.3297,76.8343,30.8,55,0.0,959.0,7.75,50.8,54,32.4,11.8,1.6,110.0,67.0,2.2,0,5,7,1,2026-07-11T11:46:20.486937+05:30
Bidar,Karnataka,17.9104,77.5199,30.0,57,0.0,935.6,6.2,46.4,60,34.5,12.2,1.5,110.0,69.0,1.8,4,5,7,1,2026-07-11T11:46:20.486944+05:30
Hospet,Karnataka,15.2689,76.3909,31.7,46,0.0,956.9,8.3,51.8,41,28.3,10.8,1.9,108.0,57.0,1.9,0,5,7,1,2026-07-11T11:46:20.486951+05:30
Tirupur,Tamil Nadu,11.1085,77.3411,33.1,47,0.0,976.7,8.05,54.0,50,19.6,9.7,2.1,145.0,85.0,2.8,0,5,7,1,2026-07-11T11:46:20.486957+05:30
Alappuzha,Kerala,9.4981,76.3388,28.6,79,0.0,1011.7,8.0,39.6,46,15.3,8.1,2.4,86.0,64.0,2.3,7,0,4,1,2026-07-11T11:46:20.486964+05:30
Munnar,Kerala,10.0889,77.0595,19.6,88,0.2,859.3,8.15,38.2,20,4.8,2.5,1.1,92.0,54.0,1.3,6,10,7,1,2026-07-11T11:46:20.486972+05:30
Silchar,Assam,24.8333,92.7789,31.2,73,0.0,997.2,7.95,30.2,33,9.2,7.6,1.3,213.0,100.0,4.7,3,5,7,1,2026-07-11T11:46:20.486980+05:30
Dibrugarh,Assam,27.4728,94.912,32.0,70,0.0,986.5,6.55,30.2,52,6.4,5.9,1.3,161.0,100.0,1.7,3,5,7,1,2026-07-11T11:46:20.486986+05:30
