city,state,latitude,longitude,temp,humidity,rain,pressure,uv_index,wind_gusts,aqi,pm10,pm2_5,mosquito_risk,arthritis_risk,migraine_risk,frizz_risk,updated_at
Delhi,Delhi,28.6139,77.209,31.4,29,0.0,980.1,7.25,31.7,395,745.1,95.5,0,5,7,0,2026-04-20T20:23:35.410937+05:30
Mumbai,Maharashtra,19.076,72.8777,28.5,82,0.0,1007.3,8.05,22.3,116,34.6,22.7,7,5,4,1,2026-04-20T20:23:35.410981+05:30
Bangalore,Karnataka,12.9716,77.5946,30.0,39,0.0,911.1,9.55,22.0,189,34.3,30.7,4,5,7,0,2026-04-20T20:23:35.410998+05:30
Hyderabad,Telangana,17.385,78.4867,32.1,41,0.0,953.2,9.3,47.2,183,55.3,49.6,0,5,7,1,2026-04-20T20:23:35.411008+05:30
Chennai,Tamil Nadu,13.0827,80.2707,29.4,78,0.0,1006.8,9.25,35.6,38,13.4,9.3,7,5,4,1,2026-04-20T20:23:35.411017+05:30
Kolkata,West Bengal,22.5726,88.3639,28.8,86,0.0,1004.4,8.9,32.4,113,24.4,20.1,7,5,4,1,2026-04-20T20:23:35.411030+05:30
Pune,Maharashtra,18.5204,73.8567,30.9,47,0.0,947.9,8.55,43.9,164,46.0,41.8,0,5,7,1,2026-04-20T20:23:35.411037+05:30
Ahmedabad,Gujarat,23.0225,72.5714,33.5,26,0.0,1000.6,8.15,24.8,91,33.8,16.4,0,5,4,0,2026-04-20T20:23:35.411044+05:30
Jaipur,Rajasthan,26.9124,75.7873,34.3,18,0.0,957.8,7.95,30.6,139,166.2,29.0,0,5,7,0,2026-04-20T20:23:35.411052+05:30
Lucknow,Uttar Pradesh,26.8467,80.9462,33.6,24,0.0,989.5,7.9,38.5,139,149.5,33.4,0,5,7,0,2026-04-20T20:23:35.411059+05:30
Kanpur,Uttar Pradesh,26.4499,80.3319,30.6,35,0.0,987.7,7.9,32.8,191,383.7,55.4,0,5,7,0,2026-04-20T20:23:35.411067+05:30
Chandigarh,Chandigarh,30.7333,76.7794,27.6,31,0.0,966.1,7.25,32.8,124,30.4,16.9,4,5,7,0,2026-04-20T20:23:35.411075+05:30
Srinagar,Jammu and Kashmir,34.0837,74.7973,15.1,72,0.0,841.7,8.25,26.6,97,41.7,26.0,3,5,7,0,2026-04-20T20:23:35.411083+05:30
Jammu,Jammu and Kashmir,32.7266,74.857,28.4,41,0.0,970.5,7.9,27.4,92,40.2,24.7,4,5,7,0,2026-04-20T20:23:35.411090+05:30
Amritsar,Punjab,31.634,74.8723,28.3,35,0.0,978.8,7.9,31.0,117,29.6,18.5,4,5,7,0,2026-04-20T20:23:35.411103+05:30
Ludhiana,Punjab,30.901,75.8573,30.5,21,0.0,976.5,7.5,32.8,109,51.8,21.5,0,5,7,0,2026-04-20T20:23:35.411113+05:30
Jalandhar,Punjab,31.326,75.5762,29.2,26,0.0,977.8,7.65,31.3,113,44.2,18.7,4,5,7,0,2026-04-20T20:23:35.411119+05:30
Dehradun,Uttarakhand,30.6284,78.0322,20.3,41,0.0,830.1,7.7,42.8,105,32.7,15.0,0,5,7,0,2026-04-20T20:23:35.411126+05:30
Shimla,Himachal Pradesh,31.1048,77.1734,17.5,37,0.0,784.9,7.75,46.8,122,35.0,14.3,0,5,7,0,2026-04-20T20:23:35.411132+05:30
Manali,Himachal Pradesh,32.2396,77.1887,18.1,46,0.0,821.5,9.85,29.2,116,22.5,9.1,0,5,7,0,2026-04-20T20:23:35.411139+05:30
Gurgaon,Haryana,28.4595,77.0266,29.9,29,0.0,978.7,7.4,30.6,1157,1575.8,179.7,4,5,7,0,2026-04-20T20:23:35.411146+05:30
Noida,Uttar Pradesh,28.5355,77.391,31.2,29,0.0,981.6,7.3,31.3,1157,1575.8,179.7,0,5,7,0,2026-04-20T20:23:35.411152+05:30
Ghaziabad,Uttar Pradesh,28.6692,77.4538,30.7,30,0.0,979.7,7.3,31.0,183,536.4,73.3,0,5,7,0,2026-04-20T20:23:35.411158+05:30
Faridabad,Haryana,28.4089,77.3178,32.1,24,0.0,981.0,7.35,32.8,1157,1575.8,179.7,0,5,7,0,2026-04-20T20:23:35.411165+05:30
Meerut,Uttar Pradesh,28.9845,77.7064,29.3,35,0.0,978.3,7.2,34.2,183,536.4,73.3,4,5,7,0,2026-04-20T20:23:35.411174+05:30
Agra,Uttar Pradesh,27.1767,78.0081,30.8,36,0.0,984.4,7.7,26.3,677,879.2,105.7,0,5,7,0,2026-04-20T20:23:35.411182+05:30
Varanasi,Uttar Pradesh,25.3176,82.9739,33.7,27,0.0,993.3,8.4,31.7,142,32.5,21.1,0,5,7,0,2026-04-20T20:23:35.411189+05:30
Prayagraj,Uttar Pradesh,25.4358,81.8463,35.3,34,0.0,992.1,7.85,25.9,135,59.0,23.3,0,5,10,1,2026-04-20T20:23:35.411196+05:30
Gorakhpur,Uttar Pradesh,26.7606,83.3732,33.6,26,0.0,992.7,8.35,36.0,163,98.5,31.4,0,5,7,0,2026-04-20T20:23:35.411202+05:30
Bareilly,Uttar Pradesh,28.367,79.4304,30.4,29,0.0,983.1,7.55,34.6,135,39.8,21.8,0,5,7,0,2026-04-20T20:23:35.411208+05:30
Aligarh,Uttar Pradesh,27.8974,78.088,30.7,27,0.0,982.2,7.45,34.9,553,1199.5,148.5,0,5,7,0,2026-04-20T20:23:35.411214+05:30
Moradabad,Uttar Pradesh,28.8386,78.7733,29.5,32,0.0,980.3,7.4,38.9,123,104.5,35.0,4,5,7,0,2026-04-20T20:23:35.411220+05:30
Saharanpur,Uttar Pradesh,29.9637,77.546,28.1,37,0.0,972.5,6.95,29.5,113,125.3,34.9,4,5,7,0,2026-04-20T20:23:35.411225+05:30
Jhansi,Uttar Pradesh,25.4484,78.5685,34.4,26,0.0,975.6,8.2,32.4,132,37.4,14.7,0,5,7,0,2026-04-20T20:23:38.633295+05:30
Surat,Gujarat,21.1702,72.8311,28.1,68,0.0,1005.3,7.85,24.5,94,38.4,34.7,7,5,4,1,2026-04-20T20:23:38.633329+05:30
Vadodara,Gujarat,22.3072,73.1812,32.8,35,0.0,1002.3,8.1,27.7,140,33.2,24.9,0,5,4,0,2026-04-20T20:23:38.633378+05:30
Rajkot,Gujarat,22.3039,70.8022,30.7,31,0.0,993.5,7.85,31.3,95,27.3,14.1,0,5,7,0,2026-04-20T20:23:38.633388+05:30
Thane,Maharashtra,19.2183,72.9781,27.8,80,0.0,1006.7,8.05,33.8,116,34.6,22.7,7,5,4,1,2026-04-20T20:23:38.633396+05:30
Nagpur,Maharashtra,21.1458,79.0882,32.1,41,0.0,972.1,8.5,37.4,133,38.0,34.6,0,5,7,1,2026-04-20T20:23:38.633403+05:30
Nashik,Maharashtra,19.9975,73.7898,28.7,50,0.0,945.2,8.3,34.9,128,18.9,14.6,4,5,7,1,2026-04-20T20:23:38.633410+05:30
Aurangabad,Maharashtra,19.8762,75.3433,32.7,26,0.0,943.4,8.95,23.8,128,31.7,28.0,0,5,7,0,2026-04-20T20:23:38.633417+05:30
Solapur,Maharashtra,17.6599,75.9064,31.7,44,0.0,956.3,8.7,20.2,160,42.3,35.5,0,5,7,1,2026-04-20T20:23:38.633424+05:30
Kolhapur,Maharashtra,16.705,74.2433,27.1,77,0.0,947.5,9.05,39.2,154,43.8,40.4,7,5,7,1,2026-04-20T20:23:38.633432+05:30
Goa,Goa,15.2993,74.124,28.9,77,0.0,997.0,9.0,30.2,86,34.5,23.1,7,5,7,1,2026-04-20T20:23:38.633439+05:30
Jodhpur,Rajasthan,26.2389,73.0243,33.6,23,0.0,980.9,8.15,27.0,117,220.7,32.9,0,5,7,0,2026-04-20T20:23:38.633445+05:30
Udaipur,Rajasthan,24.5854,73.7125,30.4,27,0.0,946.3,8.7,31.3,69,17.1,7.9,0,5,7,0,2026-04-20T20:23:38.633452+05:30
Kota,Rajasthan,25.2138,75.8648,33.4,23,0.0,975.9,8.25,28.8,103,29.5,15.1,0,5,7,0,2026-04-20T20:23:38.633458+05:30
Bikaner,Rajasthan,28.0229,73.3119,34.2,26,0.0,979.5,7.95,35.3,114,35.5,12.0,0,5,7,0,2026-04-20T20:23:38.633465+05:30
Ajmer,Rajasthan,26.4499,74.6399,30.6,27,0.0,953.1,8.1,26.3,103,67.1,16.5,0,5,7,0,2026-04-20T20:23:38.633471+05:30
Gwalior,Madhya Pradesh,26.2183,78.1828,33.4,26,0.0,980.5,8.0,38.2,131,74.3,21.7,0,5,7,0,2026-04-20T20:23:38.633477+05:30
Indore,Madhya Pradesh,22.7196,75.8577,29.9,35,0.0,947.5,8.6,37.8,114,22.6,19.4,4,5,7,0,2026-04-20T20:23:38.633484+05:30
Bhopal,Madhya Pradesh,23.2599,77.4126,33.0,20,0.0,952.4,7.5,34.9,115,17.3,15.4,0,5,7,0,2026-04-20T20:23:38.633491+05:30
Jabalpur,Madhya Pradesh,23.1815,79.9864,31.9,33,0.0,959.9,8.15,35.6,118,18.2,16.5,0,5,7,0,2026-04-20T20:23:38.633497+05:30
Ujjain,Madhya Pradesh,23.1765,75.7885,30.3,34,0.0,953.2,8.55,36.0,105,21.3,18.6,0,5,7,0,2026-04-20T20:23:38.633504+05:30
Visakhapatnam,Andhra Pradesh,17.6868,83.2185,28.2,85,0.0,1003.2,9.2,41.8,53,19.8,15.0,7,5,4,1,2026-04-20T20:23:38.633510+05:30
Vijayawada,Andhra Pradesh,16.5062,80.648,30.2,68,0.0,1001.8,9.2,27.0,68,24.0,21.8,3,5,4,1,2026-04-20T20:23:38.633516+05:30
Guntur,Andhra Pradesh,16.3067,80.4365,29.2,75,0.0,1003.1,9.25,30.2,96,27.4,25.3,7,5,4,1,2026-04-20T20:23:38.633522+05:30
Nellore,Andhra Pradesh,14.4426,79.9865,29.2,78,0.0,1005.0,9.25,38.9,89,14.9,11.2,7,5,4,1,2026-04-20T20:23:38.633529+05:30
Kurnool,Andhra Pradesh,15.8281,78.0373,35.4,35,0.0,974.9,9.2,43.2,154,43.1,36.4,0,5,10,1,2026-04-20T20:23:38.633536+05:30
Kakinada,Andhra Pradesh,16.9891,82.2475,28.9,79,0.0,1006.9,9.2,33.1,41,19.2,13.2,7,5,4,1,2026-04-20T20:23:38.633543+05:30
Tirupati,Andhra Pradesh,13.6288,79.4192,30.7,62,0.0,991.2,9.3,32.4,115,23.8,22.1,3,5,7,1,2026-04-20T20:23:38.633549+05:30
Warangal,Telangana,17.9689,79.5941,33.7,45,0.0,977.3,9.15,27.7,184,59.6,54.7,0,5,7,1,2026-04-20T20:23:38.633555+05:30
Nizamabad,Telangana,18.6725,78.0941,31.6,46,0.0,964.2,9.1,33.8,139,53.3,46.3,0,5,7,1,2026-04-20T20:23:38.633562+05:30
Mysore,Karnataka,12.2958,76.6396,26.4,70,0.0,927.9,9.45,40.7,169,46.1,41.3,7,5,7,1,2026-04-20T20:23:38.633568+05:30
Mangalore,Karnataka,12.9141,74.856,29.9,82,0.0,1005.8,9.1,23.8,80,41.1,25.2,7,5,4,1,2026-04-20T20:23:38.633575+05:30
Hubli-Dharwad,Karnataka,15.3647,75.124,28.4,67,0.0,940.0,9.2,33.8,170,37.8,34.5,7,5,7,1,2026-04-20T20:23:38.633581+05:30
Belgaum,Karnataka,15.8497,74.4977,26.2,80,0.0,925.1,9.25,30.2,170,34.6,30.3,7,5,7,1,2026-04-20T20:23:41.852803+05:30
Coimbatore,Tamil Nadu,11.0168,76.9558,26.8,76,0.0,961.1,9.4,47.2,162,52.5,49.7,7,5,7,1,2026-04-20T20:23:41.852837+05:30
Madurai,Tamil Nadu,9.9252,78.1198,30.2,65,0.0,993.0,9.3,45.0,125,20.0,18.6,3,5,7,1,2026-04-20T20:23:41.852849+05:30
Trichy,Tamil Nadu,10.7905,78.7047,31.0,64,0.0,999.0,9.3,29.2,94,18.3,17.2,3,5,7,1,2026-04-20T20:23:41.852858+05:30
Salem,Tamil Nadu,11.6643,78.146,32.2,41,0.0,976.1,9.35,21.2,134,20.9,18.9,0,5,7,1,2026-04-20T20:23:41.852865+05:30
Tirunelveli,Tamil Nadu,8.7139,77.7567,30.4,64,0.0,1003.1,9.2,56.2,98,18.1,15.9,3,5,4,1,2026-04-20T20:23:41.852872+05:30
Vellore,Tamil Nadu,12.9165,79.1325,29.8,62,0.0,984.1,9.35,34.2,112,27.5,26.0,7,5,7,1,2026-04-20T20:23:41.852879+05:30
Erode,Tamil Nadu,11.341,77.7172,33.8,34,0.0,987.2,9.35,31.7,141,21.4,19.4,0,5,7,0,2026-04-20T20:23:41.852886+05:30
Kochi,Kerala,9.9312,76.2673,28.7,83,0.0,1008.4,9.05,31.3,74,27.0,20.8,7,0,4,1,2026-04-20T20:23:41.852894+05:30
Thiruvananthapuram,Kerala,8.5241,76.9366,28.4,83,0.0,1008.1,8.9,31.7,63,22.5,15.3,7,0,4,1,2026-04-20T20:23:41.852906+05:30
Kozhikode,Kerala,11.2588,75.7804,29.7,80,0.0,1007.0,9.1,30.6,65,34.6,21.8,7,5,4,1,2026-04-20T20:23:41.852913+05:30
Thrissur,Kerala,10.5276,76.2144,29.7,78,0.0,1006.0,9.05,36.4,75,24.8,19.7,7,5,4,1,2026-04-20T20:23:41.852920+05:30
Kannur,Kerala,11.8745,75.3704,30.1,75,0.0,1006.3,9.1,31.3,74,33.6,23.5,3,5,4,1,2026-04-20T20:23:41.852928+05:30
Patna,Bihar,25.5941,85.1376,33.6,42,0.0,996.1,8.05,28.8,171,83.6,40.0,0,5,7,1,2026-04-20T20:23:41.852934+05:30
Gaya,Bihar,24.7914,85.0002,35.0,32,0.0,990.0,8.5,34.2,162,68.0,31.2,0,5,7,0,2026-04-20T20:23:41.852940+05:30
Muzaffarpur,Bihar,26.1209,85.3647,31.2,64,0.0,996.1,8.25,27.4,169,92.2,47.5,3,5,7,1,2026-04-20T20:23:41.852947+05:30
Bhagalpur,Bihar,25.2425,87.0117,31.6,69,0.0,997.1,8.65,19.1,195,96.4,61.2,3,5,7,1,2026-04-20T20:23:41.852953+05:30
Ranchi,Jharkhand,23.3441,85.3096,29.4,49,0.0,936.6,9.25,35.3,132,39.2,19.0,4,5,7,1,2026-04-20T20:23:41.852960+05:30
Jamshedpur,Jharkhand,22.8046,86.2029,30.3,63,0.0,988.8,9.05,42.8,187,61.5,39.3,3,5,7,1,2026-04-20T20:23:41.852966+05:30
Dhanbad,Jharkhand,23.7957,86.4304,32.3,51,0.0,977.5,9.0,29.5,151,88.9,51.0,0,5,7,1,2026-04-20T20:23:41.852973+05:30
Bokaro,Jharkhand,23.6693,86.1511,31.9,48,0.0,981.5,8.8,36.7,145,82.2,47.6,0,5,7,1,2026-04-20T20:23:41.852979+05:30
Bhubaneswar,Odisha,20.2961,85.8245,27.7,85,0.0,1001.6,9.1,34.9,106,16.8,13.3,7,5,4,1,2026-04-20T20:23:41.852985+05:30
Cuttack,Odisha,20.4625,85.8828,29.2,77,0.0,1003.3,9.15,32.4,106,16.8,13.3,7,5,4,1,2026-04-20T20:23:41.852992+05:30
Rourkela,Odisha,22.2604,84.8536,31.3,53,0.0,983.0,8.85,52.2,197,62.9,39.0,0,5,7,1,2026-04-20T20:23:41.852998+05:30
Raipur,Chhattisgarh,21.2514,81.6296,34.9,29,0.0,972.6,8.65,40.3,166,35.2,31.8,0,5,7,0,2026-04-20T20:23:41.853004+05:30
Bhilai,Chhattisgarh,21.1938,81.3509,35.1,36,0.0,973.0,8.25,38.2,158,30.2,28.0,0,5,10,1,2026-04-20T20:23:41.853010+05:30
Guwahati,Assam,26.1158,91.7086,26.9,86,0.0,998.9,8.5,36.4,83,27.0,22.9,7,5,7,1,2026-04-20T20:23:41.853017+05:30
Agartala,Tripura,23.8315,91.2868,28.1,81,0.0,1005.4,8.6,33.1,101,35.7,30.6,7,5,4,1,2026-04-20T20:23:41.853023+05:30
Shillong,Meghalaya,25.5788,91.8933,17.6,92,0.0,855.5,6.8,72.0,72,26.2,22.5,3,10,7,1,2026-04-20T20:23:41.853030+05:30
Imphal,Manipur,24.817,93.9368,20.5,89,0.0,922.4,9.15,68.4,105,53.1,45.9,3,5,7,1,2026-04-20T20:23:41.853036+05:30
Aizawl,Mizoram,23.7271,92.7176,23.0,75,0.0,892.7,8.95,69.8,123,49.1,41.2,3,5,7,1,2026-04-20T20:23:41.853043+05:30
Kohima,Nagaland,25.6701,94.1077,18.4,80,0.0,854.1,8.2,102.6,77,40.6,29.5,3,5,7,0,2026-04-20T20:23:41.853049+05:30
Gangtok,Sikkim,27.3314,88.6138,18.0,87,0.0,836.7,8.8,19.1,102,19.0,15.5,3,10,7,0,2026-04-20T20:23:41.853055+05:30
Siliguri,West Bengal,26.7271,88.3953,24.4,84,0.0,991.3,8.45,23.0,102,41.2,35.9,3,5,7,1,2026-04-20T20:23:45.078550+05:30
Durgapur,West Bengal,23.5204,87.3119,28.3,81,0.0,993.0,8.9,44.3,197,79.6,63.1,7,5,7,1,2026-04-20T20:23:45.078585+05:30
Asansol,West Bengal,23.6739,86.9524,29.3,75,0.0,991.5,8.95,48.2,160,73.1,42.8,7,5,7,1,2026-04-20T20:23:45.078596+05:30
Pondicherry,Puducherry,11.9139,79.8145,28.2,84,0.0,1008.0,9.25,33.1,31,11.2,7.6,7,0,4,1,2026-04-20T20:23:45.078604+05:30
Port Blair,Andaman and Nicobar Islands,11.6234,92.7265,29.8,71,0.0,1007.9,9.05,17.3,64,17.9,14.7,7,5,4,1,2026-04-20T20:23:45.078612+05:30
Haridwar,Uttarakhand,29.9457,78.1642,26.8,43,0.0,971.3,7.05,33.8,107,44.7,20.7,4,5,7,0,2026-04-20T20:23:45.078620+05:30
Rishikesh,Uttarakhand,30.0869,78.2676,24.3,55,0.0,964.4,7.2,36.7,102,36.7,15.1,0,5,7,0,2026-04-20T20:23:45.078628+05:30
Nainital,Uttarakhand,29.3919,79.4542,23.7,21,0.0,806.9,8.05,60.1,116,46.7,17.6,0,5,7,0,2026-04-20T20:23:45.078635+05:30
Mussoorie,Uttarakhand,30.4599,78.0664,19.8,35,0.0,802.3,7.55,46.4,103,41.7,18.4,0,5,7,0,2026-04-20T20:23:45.078643+05:30
Dharamshala,Himachal Pradesh,32.219,76.3234,23.5,32,0.0,868.9,7.8,31.7,92,31.9,12.1,0,5,7,0,2026-04-20T20:23:45.078650+05:30
Dalhousie,Himachal Pradesh,32.5387,75.971,20.7,29,0.0,803.8,8.1,31.0,96,37.8,16.4,0,5,7,0,2026-04-20T20:23:45.078658+05:30
Patiala,Punjab,30.3398,76.3869,30.1,23,0.0,975.5,7.15,28.4,324,427.5,56.7,0,5,7,0,2026-04-20T20:23:45.078665+05:30
Bhatinda,Punjab,30.211,74.9455,31.8,24,0.0,981.4,7.8,31.3,124,28.6,15.1,0,5,7,0,2026-04-20T20:23:45.078671+05:30
Rohtak,Haryana,28.8955,76.6066,29.0,24,0.0,979.0,7.3,32.0,708,951.8,115.3,4,5,7,0,2026-04-20T20:23:45.078678+05:30
Panipat,Haryana,29.3909,76.9635,29.1,27,0.0,977.5,7.1,26.6,1257,1531.1,171.4,4,5,7,0,2026-04-20T20:23:45.078685+05:30
Mathura,Uttar Pradesh,27.4924,77.6737,30.9,36,0.0,983.5,7.6,26.6,778,1289.0,143.4,0,5,7,0,2026-04-20T20:23:45.078692+05:30
Vrindavan,Uttar Pradesh,27.5823,77.7027,31.4,31,0.0,984.0,7.55,26.3,778,1289.0,143.4,0,5,7,0,2026-04-20T20:23:45.078699+05:30
Ayodhya,Uttar Pradesh,26.7922,82.1998,32.8,27,0.0,991.2,8.1,37.1,152,91.5,28.2,0,5,7,0,2026-04-20T20:23:45.078705+05:30
Ratlam,Madhya Pradesh,23.3315,75.0367,29.1,45,0.0,953.8,8.45,29.9,113,17.3,14.3,4,5,7,0,2026-04-20T20:23:45.078712+05:30
Sagar,Madhya Pradesh,23.8388,78.7378,33.6,22,0.0,948.6,7.95,36.0,111,13.3,12.3,0,5,7,0,2026-04-20T20:23:45.078719+05:30
Satna,Madhya Pradesh,24.6005,80.8322,33.4,27,0.0,968.6,7.65,41.8,129,21.7,13.6,0,5,7,0,2026-04-20T20:23:45.078725+05:30
Akola,Maharashtra,20.7002,77.0082,34.3,31,0.0,973.5,8.9,29.5,142,32.1,28.8,0,5,7,0,2026-04-20T20:23:45.078732+05:30
Amravati,Maharashtra,20.9374,77.7796,32.5,46,0.0,965.7,8.8,27.0,146,30.2,27.4,0,5,7,1,2026-04-20T20:23:45.078739+05:30
Latur,Maharashtra,18.4088,76.5604,28.3,51,0.0,939.2,8.65,24.5,152,43.8,37.3,4,5,7,1,2026-04-20T20:23:45.078745+05:30
Nanded,Maharashtra,19.1383,77.3091,31.7,48,0.0,967.4,8.75,21.2,141,50.8,42.4,0,5,7,1,2026-04-20T20:23:45.078751+05:30
Gulbarga,Karnataka,17.3297,76.8343,31.9,39,0.0,958.2,9.1,39.2,173,43.3,36.3,0,5,7,1,2026-04-20T20:23:45.078758+05:30
Bidar,Karnataka,17.9104,77.5199,30.0,47,0.0,935.3,9.15,42.5,144,54.9,45.1,4,5,7,1,2026-04-20T20:23:45.078764+05:30
Hospet,Karnataka,15.2689,76.3909,33.1,50,0.0,954.3,9.25,22.7,191,61.2,51.0,0,5,7,1,2026-04-20T20:23:45.078771+05:30
Tirupur,Tamil Nadu,11.1085,77.3411,32.1,45,0.0,974.0,9.4,29.2,160,29.3,26.4,0,5,7,1,2026-04-20T20:23:45.078777+05:30
Alappuzha,Kerala,9.4981,76.3388,28.9,81,0.0,1008.8,9.0,29.2,65,25.6,18.3,7,0,4,1,2026-04-20T20:23:45.078783+05:30
Munnar,Kerala,10.0889,77.0595,22.9,91,0.0,857.4,9.65,32.0,96,24.1,22.1,3,5,7,1,2026-04-20T20:23:45.078791+05:30
Silchar,Assam,24.8333,92.7789,25.6,89,0.0,1003.8,8.6,42.5,114,60.8,49.4,7,5,4,1,2026-04-20T20:23:45.078798+05:30
Dibrugarh,Assam,27.4728,94.912,24.6,88,0.0,993.8,8.75,16.6,104,23.8,20.4,3,5,7,1,2026-04-20T20:23:45.078804+05:30
