city,state,latitude,longitude,temp,humidity,rain,pressure,uv_index,wind_gusts,aqi,pm10,pm2_5,mosquito_risk,arthritis_risk,migraine_risk,frizz_risk,updated_at
Delhi,Delhi,28.6139,77.209,31.0,33,0.0,979.3,6.15,21.6,141,174.6,32.2,0,5,7,0,2026-03-28T17:01:51.578503+05:30
Mumbai,Maharashtra,19.076,72.8777,27.4,81,0.0,1006.1,8.0,24.5,112,25.8,16.6,7,5,4,1,2026-03-28T17:01:51.578551+05:30
Bangalore,Karnataka,12.9716,77.5946,27.4,56,0.0,909.5,9.5,42.5,145,43.3,35.0,4,5,7,1,2026-03-28T17:01:51.578566+05:30
Hyderabad,Telangana,17.385,78.4867,37.1,18,0.0,949.0,9.0,24.8,125,30.5,24.4,0,5,10,0,2026-03-28T17:01:51.578576+05:30
Chennai,Tamil Nadu,13.0827,80.2707,30.9,61,0.0,1003.9,9.25,34.6,68,27.5,19.5,3,5,4,1,2026-03-28T17:01:51.578585+05:30
Kolkata,West Bengal,22.5726,88.3639,29.5,64,0.0,1002.7,8.4,31.7,181,61.5,52.2,7,5,4,1,2026-03-28T17:01:51.578594+05:30
Pune,Maharashtra,18.5204,73.8567,34.3,23,0.0,946.0,8.5,49.0,91,17.1,14.2,0,5,7,0,2026-03-28T17:01:51.578606+05:30
Ahmedabad,Gujarat,23.0225,72.5714,35.2,35,0.0,997.9,7.95,34.2,38,45.8,10.2,0,5,10,1,2026-03-28T17:01:51.578615+05:30
Jaipur,Rajasthan,26.9124,75.7873,33.5,24,0.0,955.7,7.25,32.4,94,164.4,20.4,0,5,7,0,2026-03-28T17:01:51.578623+05:30
Lucknow,Uttar Pradesh,26.8467,80.9462,32.2,31,0.0,989.3,7.15,28.1,129,178.3,33.3,0,5,7,0,2026-03-28T17:01:51.578630+05:30
Kanpur,Uttar Pradesh,26.4499,80.3319,31.3,39,0.0,987.9,6.95,25.2,194,351.1,46.9,0,5,7,0,2026-03-28T17:01:51.578639+05:30
Chandigarh,Chandigarh,30.7333,76.7794,28.4,49,0.0,965.1,5.25,23.4,109,18.6,13.9,4,5,3,1,2026-03-28T17:01:51.578646+05:30
Srinagar,Jammu and Kashmir,34.0837,74.7973,18.0,57,0.0,837.7,6.0,16.2,98,31.7,13.2,0,5,3,0,2026-03-28T17:01:51.578653+05:30
Jammu,Jammu and Kashmir,32.7266,74.857,28.3,46,0.0,969.0,6.85,16.6,99,13.9,12.0,4,5,7,0,2026-03-28T17:01:51.578661+05:30
Amritsar,Punjab,31.634,74.8723,28.7,49,0.0,977.0,6.15,14.0,132,19.0,13.4,4,5,7,1,2026-03-28T17:01:51.578668+05:30
Ludhiana,Punjab,30.901,75.8573,29.4,41,0.0,975.1,6.15,13.7,94,33.9,14.0,4,5,7,0,2026-03-28T17:01:51.578674+05:30
Jalandhar,Punjab,31.326,75.5762,28.9,43,0.0,976.3,6.25,11.5,102,28.8,12.8,4,5,7,0,2026-03-28T17:01:51.578683+05:30
Dehradun,Uttarakhand,30.6284,78.0322,18.2,67,0.0,827.2,5.8,22.3,78,24.8,16.4,3,5,3,0,2026-03-28T17:01:51.578690+05:30
Shimla,Himachal Pradesh,31.1048,77.1734,16.4,67,0.0,782.1,6.0,33.1,97,19.0,13.6,3,5,3,0,2026-03-28T17:01:51.578696+05:30
Manali,Himachal Pradesh,32.2396,77.1887,19.0,61,0.0,817.2,8.55,29.9,118,24.0,7.5,3,5,7,0,2026-03-28T17:01:51.578703+05:30
Gurgaon,Haryana,28.4595,77.0266,31.0,33,0.0,977.7,6.3,17.3,440,610.9,67.8,0,5,7,0,2026-03-28T17:01:51.578710+05:30
Noida,Uttar Pradesh,28.5355,77.391,31.1,32,0.0,980.8,6.05,21.6,440,610.9,67.8,0,5,7,0,2026-03-28T17:01:51.578716+05:30
Ghaziabad,Uttar Pradesh,28.6692,77.4538,30.5,37,0.0,979.1,5.8,20.5,124,111.1,27.3,0,5,3,0,2026-03-28T17:01:51.578723+05:30
Faridabad,Haryana,28.4089,77.3178,31.1,30,0.0,980.0,6.3,19.8,440,610.9,67.8,0,5,7,0,2026-03-28T17:01:51.578730+05:30
Meerut,Uttar Pradesh,28.9845,77.7064,29.9,41,0.0,977.7,5.85,23.0,124,111.1,27.3,4,5,3,0,2026-03-28T17:01:51.578739+05:30
Agra,Uttar Pradesh,27.1767,78.0081,34.0,26,0.0,983.5,6.35,25.6,443,711.5,68.7,0,5,7,0,2026-03-28T17:01:51.578746+05:30
Varanasi,Uttar Pradesh,25.3176,82.9739,32.3,33,0.0,993.5,7.8,37.4,101,72.9,23.2,0,5,7,0,2026-03-28T17:01:51.578756+05:30
Prayagraj,Uttar Pradesh,25.4358,81.8463,32.4,34,0.0,991.9,7.7,30.2,98,102.2,25.8,0,5,7,0,2026-03-28T17:01:51.578764+05:30
Gorakhpur,Uttar Pradesh,26.7606,83.3732,30.8,39,0.0,993.0,7.0,28.1,92,52.9,21.7,0,5,7,0,2026-03-28T17:01:51.578770+05:30
Bareilly,Uttar Pradesh,28.367,79.4304,30.0,43,0.0,982.8,6.35,24.5,80,29.9,17.5,4,5,7,1,2026-03-28T17:01:51.578779+05:30
Aligarh,Uttar Pradesh,27.8974,78.088,31.5,36,0.0,981.7,6.45,23.8,227,556.9,63.8,0,5,7,0,2026-03-28T17:01:51.578786+05:30
Moradabad,Uttar Pradesh,28.8386,78.7733,29.8,45,0.0,979.7,6.1,23.0,87,35.0,20.4,4,5,7,1,2026-03-28T17:01:51.578793+05:30
Saharanpur,Uttar Pradesh,29.9637,77.546,29.2,45,0.0,971.9,5.25,24.8,107,46.9,19.4,4,5,3,1,2026-03-28T17:01:51.578799+05:30
Jhansi,Uttar Pradesh,25.4484,78.5685,35.4,23,0.0,973.0,7.1,31.3,94,44.0,11.1,0,5,10,0,2026-03-28T17:01:54.909769+05:30
Surat,Gujarat,21.1702,72.8311,29.3,61,0.0,1003.8,7.75,30.6,85,28.6,20.0,7,5,4,1,2026-03-28T17:01:54.909798+05:30
Vadodara,Gujarat,22.3072,73.1812,36.0,33,0.0,1000.0,7.95,32.8,60,32.7,10.9,0,5,7,1,2026-03-28T17:01:54.909808+05:30
Rajkot,Gujarat,22.3039,70.8022,33.3,41,0.0,991.2,7.75,43.2,37,19.6,8.6,0,5,7,1,2026-03-28T17:01:54.909816+05:30
Thane,Maharashtra,19.2183,72.9781,29.5,62,0.0,1005.7,8.0,37.8,112,25.8,16.6,7,5,4,1,2026-03-28T17:01:54.909823+05:30
Nagpur,Maharashtra,21.1458,79.0882,36.5,23,0.0,967.9,8.5,31.3,71,14.1,8.8,0,5,10,0,2026-03-28T17:01:54.909831+05:30
Nashik,Maharashtra,19.9975,73.7898,32.2,25,0.0,943.2,8.2,43.6,61,26.6,8.9,0,5,7,0,2026-03-28T17:01:54.909838+05:30
Aurangabad,Maharashtra,19.8762,75.3433,36.1,15,0.0,940.3,8.75,43.6,79,10.4,7.4,0,5,10,0,2026-03-28T17:01:54.909844+05:30
Solapur,Maharashtra,17.6599,75.9064,37.7,17,0.0,953.0,8.85,31.7,86,18.6,13.1,0,5,10,0,2026-03-28T17:01:54.909851+05:30
Kolhapur,Maharashtra,16.705,74.2433,31.8,40,0.0,945.6,8.95,43.6,128,34.5,28.5,0,5,7,1,2026-03-28T17:01:54.909858+05:30
Goa,Goa,15.2993,74.124,30.9,69,0.0,995.5,8.95,28.4,93,38.8,31.9,3,5,7,1,2026-03-28T17:01:54.909865+05:30
Jodhpur,Rajasthan,26.2389,73.0243,34.4,25,0.0,978.4,7.8,31.0,62,231.9,27.6,0,5,7,0,2026-03-28T17:01:54.909872+05:30
Udaipur,Rajasthan,24.5854,73.7125,31.3,34,0.0,943.1,8.35,33.5,42,32.1,8.1,0,5,7,0,2026-03-28T17:01:54.909880+05:30
Kota,Rajasthan,25.2138,75.8648,36.7,19,0.0,973.5,7.65,24.5,47,103.6,18.8,0,5,10,0,2026-03-28T17:01:54.909887+05:30
Bikaner,Rajasthan,28.0229,73.3119,35.3,25,0.0,976.6,7.2,20.9,44,29.3,8.7,0,5,10,0,2026-03-28T17:01:54.909894+05:30
Ajmer,Rajasthan,26.4499,74.6399,33.0,27,0.0,950.4,7.65,30.6,46,46.1,11.9,0,5,7,0,2026-03-28T17:01:54.909900+05:30
Gwalior,Madhya Pradesh,26.2183,78.1828,34.3,28,0.0,978.8,6.95,36.4,148,73.8,19.7,0,5,7,0,2026-03-28T17:01:54.909907+05:30
Indore,Madhya Pradesh,22.7196,75.8577,33.3,26,0.0,944.4,8.2,37.1,49,14.5,6.9,0,5,7,0,2026-03-28T17:01:54.909913+05:30
Bhopal,Madhya Pradesh,23.2599,77.4126,34.7,24,0.0,949.5,8.15,31.3,49,26.7,8.4,0,5,7,0,2026-03-28T17:01:54.909919+05:30
Jabalpur,Madhya Pradesh,23.1815,79.9864,34.1,26,0.0,957.1,8.25,29.9,55,30.6,10.3,0,5,7,0,2026-03-28T17:01:54.909926+05:30
Ujjain,Madhya Pradesh,23.1765,75.7885,33.0,29,0.0,950.1,8.15,34.2,44,14.2,5.7,0,5,7,0,2026-03-28T17:01:54.909934+05:30
Visakhapatnam,Andhra Pradesh,17.6868,83.2185,30.1,67,0.0,1000.0,9.0,41.8,95,41.8,29.1,3,5,4,1,2026-03-28T17:01:54.909941+05:30
Vijayawada,Andhra Pradesh,16.5062,80.648,36.1,36,0.0,997.9,9.05,30.6,81,48.0,36.7,0,5,10,1,2026-03-28T17:01:54.909948+05:30
Guntur,Andhra Pradesh,16.3067,80.4365,34.3,44,0.0,999.5,9.05,33.1,81,48.5,36.8,0,5,7,1,2026-03-28T17:01:54.909954+05:30
Nellore,Andhra Pradesh,14.4426,79.9865,33.0,50,0.0,1002.0,9.2,34.6,105,40.6,30.5,0,5,4,1,2026-03-28T17:01:54.909961+05:30
Kurnool,Andhra Pradesh,15.8281,78.0373,38.2,23,0.0,972.2,9.0,33.5,150,51.0,40.9,0,5,10,0,2026-03-28T17:01:54.909968+05:30
Kakinada,Andhra Pradesh,16.9891,82.2475,34.0,46,0.0,1003.3,9.0,35.3,73,32.5,19.2,0,5,4,1,2026-03-28T17:01:54.909974+05:30
Tirupati,Andhra Pradesh,13.6288,79.4192,35.3,31,0.0,987.4,9.3,27.4,101,46.4,34.8,0,5,10,0,2026-03-28T17:01:54.909981+05:30
Warangal,Telangana,17.9689,79.5941,37.8,22,0.0,973.8,8.85,25.6,116,28.1,23.9,0,5,10,0,2026-03-28T17:01:54.909987+05:30
Nizamabad,Telangana,18.6725,78.0941,37.3,17,0.0,960.4,8.8,26.3,92,12.1,9.1,0,5,10,0,2026-03-28T17:01:54.909993+05:30
Mysore,Karnataka,12.2958,76.6396,28.5,58,0.0,925.9,9.45,45.7,147,37.6,30.9,4,5,7,1,2026-03-28T17:01:54.910000+05:30
Mangalore,Karnataka,12.9141,74.856,29.6,81,0.0,1004.0,9.1,23.8,95,37.3,29.3,7,5,4,1,2026-03-28T17:01:54.910006+05:30
Hubli-Dharwad,Karnataka,15.3647,75.124,29.8,57,0.0,938.7,9.1,44.3,131,48.9,37.3,4,5,7,1,2026-03-28T17:01:54.910013+05:30
Belgaum,Karnataka,15.8497,74.4977,28.8,59,0.0,924.3,9.2,36.4,125,39.8,30.7,4,5,7,1,2026-03-28T17:01:58.242793+05:30
Coimbatore,Tamil Nadu,11.0168,76.9558,31.7,51,0.0,958.6,9.45,54.4,109,33.1,27.1,0,5,7,1,2026-03-28T17:01:58.242823+05:30
Madurai,Tamil Nadu,9.9252,78.1198,36.4,32,0.0,988.7,9.4,38.5,102,25.3,19.0,0,5,10,1,2026-03-28T17:01:58.242833+05:30
Trichy,Tamil Nadu,10.7905,78.7047,35.7,40,0.0,995.4,9.35,25.9,75,21.8,16.6,0,5,10,1,2026-03-28T17:01:58.242841+05:30
Salem,Tamil Nadu,11.6643,78.146,36.8,29,0.0,973.0,9.4,30.6,144,42.4,33.5,0,5,10,0,2026-03-28T17:01:58.242848+05:30
Tirunelveli,Tamil Nadu,8.7139,77.7567,35.1,45,0.0,998.8,9.35,47.5,89,24.7,20.5,0,5,10,1,2026-03-28T17:01:58.242855+05:30
Vellore,Tamil Nadu,12.9165,79.1325,34.8,30,0.0,980.7,9.35,31.0,125,50.9,40.3,0,5,7,0,2026-03-28T17:01:58.242863+05:30
Erode,Tamil Nadu,11.341,77.7172,37.5,28,0.0,984.1,9.35,26.3,137,36.2,28.2,0,5,10,0,2026-03-28T17:01:58.242870+05:30
Kochi,Kerala,9.9312,76.2673,29.3,80,0.0,1005.6,8.8,31.7,94,31.2,26.2,7,5,4,1,2026-03-28T17:01:58.242878+05:30
Thiruvananthapuram,Kerala,8.5241,76.9366,29.2,80,0.0,1005.1,9.15,39.6,65,23.0,17.9,7,5,4,1,2026-03-28T17:01:58.242885+05:30
Kozhikode,Kerala,11.2588,75.7804,30.5,74,0.0,1004.8,9.1,31.0,81,27.2,21.3,3,5,4,1,2026-03-28T17:01:58.242891+05:30
Thrissur,Kerala,10.5276,76.2144,31.5,68,0.0,1004.0,9.15,36.4,91,30.6,26.0,3,5,4,1,2026-03-28T17:01:58.242898+05:30
Kannur,Kerala,11.8745,75.3704,30.6,70,0.0,1004.5,9.1,31.0,90,32.2,25.7,3,5,4,1,2026-03-28T17:01:58.242905+05:30
Patna,Bihar,25.5941,85.1376,29.8,46,0.0,997.2,7.9,29.5,91,56.1,20.0,4,5,7,1,2026-03-28T17:01:58.242911+05:30
Gaya,Bihar,24.7914,85.0002,29.1,52,0.0,990.3,7.7,24.1,92,52.7,20.0,4,5,7,1,2026-03-28T17:01:58.242918+05:30
Muzaffarpur,Bihar,26.1209,85.3647,29.0,49,0.0,997.3,7.85,20.5,107,56.2,22.5,4,5,7,1,2026-03-28T17:01:58.242924+05:30
Bhagalpur,Bihar,25.2425,87.0117,26.9,64,0.0,998.6,7.3,25.2,107,78.7,27.7,7,5,7,1,2026-03-28T17:01:58.242931+05:30
Ranchi,Jharkhand,23.3441,85.3096,28.7,38,0.0,934.4,8.7,31.7,128,40.4,22.9,4,5,7,0,2026-03-28T17:01:58.242938+05:30
Jamshedpur,Jharkhand,22.8046,86.2029,32.5,44,0.0,986.7,8.5,32.4,157,61.7,44.0,0,5,7,1,2026-03-28T17:01:58.242944+05:30
Dhanbad,Jharkhand,23.7957,86.4304,30.5,44,0.0,976.4,8.4,30.2,150,67.1,46.6,0,5,7,1,2026-03-28T17:01:58.242951+05:30
Bokaro,Jharkhand,23.6693,86.1511,28.2,54,0.0,980.5,8.45,31.0,137,61.9,39.9,4,5,7,1,2026-03-28T17:01:58.242958+05:30
Bhubaneswar,Odisha,20.2961,85.8245,31.0,63,0.0,999.2,8.8,31.7,138,44.8,36.4,3,5,7,1,2026-03-28T17:01:58.242965+05:30
Cuttack,Odisha,20.4625,85.8828,33.3,51,0.0,1000.3,8.85,30.6,138,44.8,36.4,0,5,4,1,2026-03-28T17:01:58.242971+05:30
Rourkela,Odisha,22.2604,84.8536,34.1,35,0.0,980.6,8.45,43.9,156,35.3,24.7,0,5,7,1,2026-03-28T17:01:58.242979+05:30
Raipur,Chhattisgarh,21.2514,81.6296,37.4,18,0.0,969.4,8.55,34.6,95,21.7,12.3,0,5,10,0,2026-03-28T17:01:58.242988+05:30
Bhilai,Chhattisgarh,21.1938,81.3509,37.3,18,0.0,969.8,8.6,33.8,80,18.5,9.7,0,5,10,0,2026-03-28T17:01:58.242994+05:30
Guwahati,Assam,26.1158,91.7086,22.3,86,0.0,1000.7,4.5,28.1,151,30.3,26.0,3,5,0,1,2026-03-28T17:01:58.243000+05:30
Agartala,Tripura,23.8315,91.2868,24.2,80,0.0,1004.8,6.4,38.5,145,51.2,41.6,3,5,4,1,2026-03-28T17:01:58.243027+05:30
Shillong,Meghalaya,25.5788,91.8933,12.5,87,0.0,852.4,4.85,43.9,95,23.3,18.2,3,10,3,0,2026-03-28T17:01:58.243068+05:30
Imphal,Manipur,24.817,93.9368,17.6,85,0.0,920.7,7.7,52.6,147,50.9,39.6,3,10,7,0,2026-03-28T17:01:58.243078+05:30
Aizawl,Mizoram,23.7271,92.7176,18.4,86,0.1,890.4,7.2,38.2,115,49.6,38.3,6,10,7,0,2026-03-28T17:01:58.243086+05:30
Kohima,Nagaland,25.6701,94.1077,13.8,89,0.0,851.5,4.95,71.3,113,44.8,35.6,3,10,3,0,2026-03-28T17:01:58.243092+05:30
Gangtok,Sikkim,27.3314,88.6138,13.5,89,0.0,833.4,7.6,17.3,94,9.7,8.7,3,10,7,0,2026-03-28T17:01:58.243099+05:30
Siliguri,West Bengal,26.7271,88.3953,19.9,83,0.0,992.1,7.35,26.3,153,46.9,38.3,3,10,7,1,2026-03-28T17:02:01.578157+05:30
Durgapur,West Bengal,23.5204,87.3119,29.4,54,0.0,991.8,8.35,28.4,125,81.3,64.5,4,5,7,1,2026-03-28T17:02:01.578188+05:30
Asansol,West Bengal,23.6739,86.9524,31.0,43,0.0,990.1,8.4,31.7,128,78.2,59.0,0,5,7,1,2026-03-28T17:02:01.578198+05:30
Pondicherry,Puducherry,11.9139,79.8145,31.7,65,0.0,1004.6,9.25,32.4,62,23.0,17.8,3,5,4,1,2026-03-28T17:02:01.578205+05:30
Port Blair,Andaman and Nicobar Islands,11.6234,92.7265,28.1,80,0.0,1004.8,9.15,27.0,69,27.1,20.1,7,5,4,1,2026-03-28T17:02:01.578213+05:30
Haridwar,Uttarakhand,29.9457,78.1642,30.0,43,0.0,970.3,5.7,27.0,94,21.2,15.8,4,5,3,0,2026-03-28T17:02:01.578221+05:30
Rishikesh,Uttarakhand,30.0869,78.2676,28.6,46,0.0,963.1,5.8,24.8,81,19.3,13.2,4,5,3,0,2026-03-28T17:02:01.578228+05:30
Nainital,Uttarakhand,29.3919,79.4542,20.9,56,0.0,803.8,4.8,25.9,92,27.3,18.6,0,5,3,0,2026-03-28T17:02:01.578235+05:30
Mussoorie,Uttarakhand,30.4599,78.0664,18.7,64,0.0,800.1,5.65,25.9,86,24.0,19.0,3,5,3,0,2026-03-28T17:02:01.578243+05:30
Dharamshala,Himachal Pradesh,32.219,76.3234,20.7,74,0.0,865.7,6.9,16.6,97,17.6,10.1,3,5,7,0,2026-03-28T17:02:01.578249+05:30
Dalhousie,Himachal Pradesh,32.5387,75.971,19.1,60,0.0,801.1,6.5,17.3,103,16.9,11.6,0,5,7,0,2026-03-28T17:02:01.578257+05:30
Patiala,Punjab,30.3398,76.3869,29.5,41,0.0,974.5,5.9,17.3,96,152.7,27.3,4,5,3,0,2026-03-28T17:02:01.578264+05:30
Bhatinda,Punjab,30.211,74.9455,31.8,30,0.0,979.6,6.9,17.3,78,41.8,14.8,0,5,7,0,2026-03-28T17:02:01.578271+05:30
Rohtak,Haryana,28.8955,76.6066,30.4,38,0.0,978.0,6.55,14.8,149,189.5,28.7,0,5,7,0,2026-03-28T17:02:01.578277+05:30
Panipat,Haryana,29.3909,76.9635,30.0,39,0.0,976.6,5.7,19.4,309,289.6,39.2,4,5,3,0,2026-03-28T17:02:01.578284+05:30
Mathura,Uttar Pradesh,27.4924,77.6737,32.7,33,0.0,982.8,6.35,20.9,287,501.1,51.9,0,5,7,0,2026-03-28T17:02:01.578290+05:30
Vrindavan,Uttar Pradesh,27.5823,77.7027,32.2,33,0.0,983.3,6.35,22.7,287,501.1,51.9,0,5,7,0,2026-03-28T17:02:01.578296+05:30
Ayodhya,Uttar Pradesh,26.7922,82.1998,31.3,37,0.0,991.1,6.85,31.7,96,68.0,22.4,0,5,7,0,2026-03-28T17:02:01.578303+05:30
Ratlam,Madhya Pradesh,23.3315,75.0367,32.1,34,0.0,951.3,8.1,37.1,45,15.8,6.0,0,5,7,0,2026-03-28T17:02:01.578309+05:30
Sagar,Madhya Pradesh,23.8388,78.7378,34.1,25,0.0,946.1,8.15,32.4,54,72.2,13.7,0,5,7,0,2026-03-28T17:02:01.578315+05:30
Satna,Madhya Pradesh,24.6005,80.8322,34.3,22,0.0,966.9,8.1,23.8,98,46.1,13.4,0,5,7,0,2026-03-28T17:02:01.578321+05:30
Akola,Maharashtra,20.7002,77.0082,36.9,16,0.0,970.7,8.5,37.1,56,16.2,7.4,0,5,10,0,2026-03-28T17:02:01.578328+05:30
Amravati,Maharashtra,20.9374,77.7796,36.7,20,0.0,962.8,8.45,33.5,57,15.9,6.8,0,5,10,0,2026-03-28T17:02:01.578335+05:30
Latur,Maharashtra,18.4088,76.5604,35.7,18,0.0,936.2,8.8,32.4,78,13.9,10.4,0,5,10,0,2026-03-28T17:02:01.578342+05:30
Nanded,Maharashtra,19.1383,77.3091,38.4,14,0.0,964.0,8.7,28.8,74,9.5,7.5,0,5,10,0,2026-03-28T17:02:01.578348+05:30
Gulbarga,Karnataka,17.3297,76.8343,38.1,16,0.0,954.4,8.9,31.7,109,25.0,18.0,0,5,10,0,2026-03-28T17:02:01.578354+05:30
Bidar,Karnataka,17.9104,77.5199,36.5,17,0.0,931.9,8.85,28.8,105,17.5,13.6,0,5,10,0,2026-03-28T17:02:01.578360+05:30
Hospet,Karnataka,15.2689,76.3909,35.5,29,0.0,952.2,9.1,45.0,135,52.0,40.4,0,5,10,0,2026-03-28T17:02:01.578366+05:30
Tirupur,Tamil Nadu,11.1085,77.3411,37.3,24,0.0,970.7,9.45,43.2,131,35.3,27.4,0,5,10,0,2026-03-28T17:02:01.578372+05:30
Alappuzha,Kerala,9.4981,76.3388,29.1,82,0.0,1005.8,9.15,31.3,85,29.0,23.7,7,5,4,1,2026-03-28T17:02:01.578378+05:30
Munnar,Kerala,10.0889,77.0595,23.6,83,0.0,855.6,9.7,40.7,76,27.2,22.1,3,5,7,1,2026-03-28T17:02:01.578385+05:30
Silchar,Assam,24.8333,92.7789,22.8,81,0.0,1004.0,3.4,30.2,153,57.5,46.0,3,5,0,1,2026-03-28T17:02:01.578391+05:30
Dibrugarh,Assam,27.4728,94.912,20.6,86,0.1,995.6,4.5,31.0,119,41.7,32.1,6,5,3,1,2026-03-28T17:02:01.578398+05:30
