city,state,latitude,longitude,temp,humidity,rain,pressure,uv_index,wind_gusts,aqi,pm10,pm2_5,no2,co,o3,so2,mosquito_risk,arthritis_risk,migraine_risk,frizz_risk,updated_at
Delhi,Delhi,28.6139,77.209,33.1,44,0.0,980.0,7.8,37.1,381,590.5,142.0,45.3,464.0,45.0,18.9,0,5,7,1,2026-06-20T00:27:04.864347+05:30
Mumbai,Maharashtra,19.076,72.8777,29.9,66,0.0,1009.0,7.7,45.0,56,26.1,13.4,8.2,170.0,43.0,6.9,7,0,4,1,2026-06-20T00:27:04.864400+05:30
Bangalore,Karnataka,12.9716,77.5946,21.4,93,0.0,912.6,6.65,29.2,58,29.3,26.4,41.4,1412.0,35.0,11.2,3,5,7,1,2026-06-20T00:27:04.864416+05:30
Hyderabad,Telangana,17.385,78.4867,28.6,68,0.0,952.7,8.8,37.4,73,59.6,51.9,52.0,676.0,21.0,14.8,7,5,7,1,2026-06-20T00:27:04.864427+05:30
Chennai,Tamil Nadu,13.0827,80.2707,28.7,79,0.0,1007.8,7.6,36.4,116,29.6,23.5,10.7,368.0,123.0,9.6,7,5,4,1,2026-06-20T00:27:04.864435+05:30
Kolkata,West Bengal,22.5726,88.3639,26.9,89,0.0,1003.9,9.0,27.4,107,39.0,36.2,12.2,520.0,91.0,9.3,7,5,4,1,2026-06-20T00:27:04.864444+05:30
Pune,Maharashtra,18.5204,73.8567,24.5,79,0.0,948.9,8.25,41.4,48,13.3,8.7,7.3,157.0,41.0,6.2,3,5,7,1,2026-06-20T00:27:04.864451+05:30
Ahmedabad,Gujarat,23.0225,72.5714,30.1,63,0.0,1001.1,6.65,39.6,67,28.8,18.2,9.6,176.0,48.0,5.6,3,5,4,1,2026-06-20T00:27:04.864459+05:30
Jaipur,Rajasthan,26.9124,75.7873,28.4,60,0.0,957.9,8.2,28.8,120,190.5,52.3,11.9,210.0,52.0,5.0,4,5,7,1,2026-06-20T00:27:04.864467+05:30
Lucknow,Uttar Pradesh,26.8467,80.9462,33.0,47,0.0,989.5,8.35,47.5,158,328.8,91.5,16.8,237.0,77.0,9.7,0,5,7,1,2026-06-20T00:27:04.864478+05:30
Kanpur,Uttar Pradesh,26.4499,80.3319,34.0,42,0.0,988.3,8.3,40.3,156,454.5,99.0,18.3,253.0,59.0,7.3,0,5,7,1,2026-06-20T00:27:04.864487+05:30
Chandigarh,Chandigarh,30.7333,76.7794,27.0,74,0.0,965.7,7.8,29.5,125,54.5,48.5,26.4,813.0,88.0,13.9,7,5,7,1,2026-06-20T00:27:04.864494+05:30
Srinagar,Jammu and Kashmir,34.0837,74.7973,16.7,91,0.0,842.1,7.7,31.3,72,25.6,24.7,32.6,1083.0,26.0,2.3,3,10,7,0,2026-06-20T00:27:04.864502+05:30
Jammu,Jammu and Kashmir,32.7266,74.857,26.5,71,0.0,969.6,8.6,60.8,95,65.4,54.2,60.6,751.0,35.0,8.9,7,5,7,1,2026-06-20T00:27:04.864510+05:30
Amritsar,Punjab,31.634,74.8723,27.0,78,0.0,977.5,8.4,29.5,122,59.6,48.0,33.8,644.0,66.0,12.6,7,5,7,1,2026-06-20T00:27:04.864518+05:30
Ludhiana,Punjab,30.901,75.8573,28.0,73,0.0,975.6,8.05,26.3,151,109.0,56.5,20.9,731.0,72.0,7.2,7,5,7,1,2026-06-20T00:27:04.864525+05:30
Jalandhar,Punjab,31.326,75.5762,27.7,75,0.0,976.5,8.25,28.1,151,108.3,57.0,23.2,964.0,75.0,8.9,7,5,7,1,2026-06-20T00:27:04.864532+05:30
Dehradun,Uttarakhand,30.6284,78.0322,17.1,92,0.0,828.8,7.7,30.2,72,31.1,24.3,33.7,223.0,51.0,1.3,3,10,7,0,2026-06-20T00:27:04.864540+05:30
Shimla,Himachal Pradesh,31.1048,77.1734,12.7,96,0.0,781.6,7.75,28.4,101,62.9,47.3,22.1,343.0,89.0,5.4,3,10,7,0,2026-06-20T00:27:04.864551+05:30
Manali,Himachal Pradesh,32.2396,77.1887,15.7,87,0.0,817.9,9.45,38.9,46,5.8,5.6,30.1,386.0,97.0,0.0,3,10,7,0,2026-06-20T00:27:04.864559+05:30
Gurgaon,Haryana,28.4595,77.0266,30.4,59,0.0,978.4,7.9,32.0,504,337.1,105.5,56.4,1160.0,30.0,18.5,0,5,7,1,2026-06-20T00:27:04.864567+05:30
Noida,Uttar Pradesh,28.5355,77.391,31.4,55,0.0,981.2,7.85,28.4,504,337.1,105.5,56.4,873.0,30.0,18.5,0,5,7,1,2026-06-20T00:27:04.864574+05:30
Ghaziabad,Uttar Pradesh,28.6692,77.4538,29.9,59,0.0,979.4,7.8,25.6,252,532.7,136.4,39.2,465.0,59.0,21.6,4,5,7,1,2026-06-20T00:27:04.864581+05:30
Faridabad,Haryana,28.4089,77.3178,32.6,48,0.0,980.6,7.9,35.6,504,337.1,105.5,56.4,973.0,30.0,18.5,0,5,7,1,2026-06-20T00:27:04.864588+05:30
Meerut,Uttar Pradesh,28.9845,77.7064,29.4,64,0.0,978.4,7.75,31.7,252,532.7,136.4,39.2,577.0,59.0,21.6,7,5,7,1,2026-06-20T00:27:04.864595+05:30
Agra,Uttar Pradesh,27.1767,78.0081,31.8,50,0.0,985.0,8.15,37.8,337,651.9,98.7,29.1,329.0,41.0,8.6,0,5,7,1,2026-06-20T00:27:04.864602+05:30
Varanasi,Uttar Pradesh,25.3176,82.9739,31.6,62,0.0,994.0,8.8,33.8,103,69.6,46.2,24.8,466.0,46.0,11.2,3,5,7,1,2026-06-20T00:27:04.864610+05:30
Prayagraj,Uttar Pradesh,25.4358,81.8463,33.2,51,0.0,992.2,8.7,36.7,108,69.2,43.8,21.3,343.0,47.0,8.5,0,5,7,1,2026-06-20T00:27:04.864618+05:30
Gorakhpur,Uttar Pradesh,26.7606,83.3732,29.1,83,0.1,993.5,8.7,29.9,160,139.7,95.9,57.4,625.0,45.0,23.8,10,5,7,1,2026-06-20T00:27:04.864625+05:30
Bareilly,Uttar Pradesh,28.367,79.4304,30.3,63,0.0,983.1,8.15,32.4,154,181.6,92.2,27.0,413.0,80.0,15.8,3,5,7,1,2026-06-20T00:27:04.864635+05:30
Aligarh,Uttar Pradesh,27.8974,78.088,30.7,60,0.0,982.3,8.0,35.3,355,444.2,112.0,31.4,564.0,50.0,9.2,0,5,7,1,2026-06-20T00:27:04.864642+05:30
Moradabad,Uttar Pradesh,28.8386,78.7733,30.6,63,0.0,980.0,7.95,34.2,162,242.1,135.5,56.8,437.0,47.0,20.8,3,5,7,1,2026-06-20T00:27:04.864652+05:30
Saharanpur,Uttar Pradesh,29.9637,77.546,28.4,68,0.0,972.6,7.55,27.0,162,322.2,103.4,20.2,517.0,85.0,11.2,7,5,7,1,2026-06-20T00:27:04.864659+05:30
Jhansi,Uttar Pradesh,25.4484,78.5685,30.5,58,0.0,975.9,8.5,36.0,73,57.0,25.9,4.8,156.0,67.0,2.2,0,5,7,1,2026-06-20T00:27:08.414383+05:30
Surat,Gujarat,21.1702,72.8311,29.5,74,0.0,1006.8,7.6,43.6,67,27.4,17.3,17.9,264.0,34.0,29.5,7,5,4,1,2026-06-20T00:27:08.414417+05:30
Vadodara,Gujarat,22.3072,73.1812,27.5,89,0.1,1003.8,7.85,37.8,60,21.3,14.9,16.4,141.0,32.0,15.6,10,5,4,1,2026-06-20T00:27:08.414427+05:30
Rajkot,Gujarat,22.3039,70.8022,28.5,70,0.0,993.9,7.5,42.1,62,40.4,17.6,4.5,113.0,42.0,3.8,7,5,7,1,2026-06-20T00:27:08.414435+05:30
Thane,Maharashtra,19.2183,72.9781,29.8,65,0.0,1008.4,7.7,39.6,56,26.1,13.4,8.2,179.0,43.0,6.9,7,0,4,1,2026-06-20T00:27:08.414443+05:30
Nagpur,Maharashtra,21.1458,79.0882,31.8,44,0.0,972.1,8.85,39.6,80,30.7,23.5,20.1,277.0,51.0,10.1,0,5,7,1,2026-06-20T00:27:08.414451+05:30
Nashik,Maharashtra,19.9975,73.7898,24.6,80,0.0,946.1,8.05,42.8,48,20.1,11.8,5.5,126.0,46.0,3.6,3,5,7,1,2026-06-20T00:27:08.414458+05:30
Aurangabad,Maharashtra,19.8762,75.3433,28.3,51,0.0,944.6,8.95,42.5,58,15.0,10.9,5.6,138.0,76.0,6.1,4,5,7,1,2026-06-20T00:27:08.414466+05:30
Solapur,Maharashtra,17.6599,75.9064,29.9,49,0.0,957.7,8.3,42.1,52,14.3,10.4,4.7,146.0,68.0,2.2,4,5,7,1,2026-06-20T00:27:08.414474+05:30
Kolhapur,Maharashtra,16.705,74.2433,24.0,85,0.0,949.0,8.0,38.9,48,13.2,9.6,6.6,169.0,38.0,3.0,3,5,7,1,2026-06-20T00:27:08.414482+05:30
Goa,Goa,15.2993,74.124,26.1,90,0.0,999.5,8.4,27.7,57,24.2,16.8,7.5,623.0,39.0,2.3,7,5,7,1,2026-06-20T00:27:08.414489+05:30
Jodhpur,Rajasthan,26.2389,73.0243,30.8,56,0.0,980.7,8.4,36.7,102,157.9,38.4,9.2,139.0,47.0,2.6,0,5,7,1,2026-06-20T00:27:08.414497+05:30
Udaipur,Rajasthan,24.5854,73.7125,26.1,74,0.0,945.7,7.9,37.4,64,49.6,24.1,8.7,195.0,57.0,3.8,7,5,7,1,2026-06-20T00:27:08.414505+05:30
Kota,Rajasthan,25.2138,75.8648,29.0,66,0.0,977.2,8.35,52.9,68,29.3,23.1,12.7,179.0,44.0,4.3,7,5,7,1,2026-06-20T00:27:08.414513+05:30
Bikaner,Rajasthan,28.0229,73.3119,29.5,69,0.0,979.1,8.45,22.7,113,108.0,36.9,6.5,172.0,50.0,2.9,7,5,7,1,2026-06-20T00:27:08.414521+05:30
Ajmer,Rajasthan,26.4499,74.6399,27.8,68,0.0,953.0,8.35,34.6,87,53.6,30.3,11.7,168.0,48.0,4.0,7,5,7,1,2026-06-20T00:27:08.414528+05:30
Gwalior,Madhya Pradesh,26.2183,78.1828,30.6,56,0.0,980.9,8.3,40.7,89,73.1,30.9,4.9,145.0,69.0,2.3,0,5,7,1,2026-06-20T00:27:08.414536+05:30
Indore,Madhya Pradesh,22.7196,75.8577,27.8,64,0.0,948.1,8.6,46.8,62,36.1,25.3,11.9,264.0,55.0,6.1,7,5,7,1,2026-06-20T00:27:08.414543+05:30
Bhopal,Madhya Pradesh,23.2599,77.4126,27.0,62,0.0,952.8,8.7,38.5,64,21.6,17.5,6.1,251.0,66.0,3.0,7,5,7,1,2026-06-20T00:27:08.414550+05:30
Jabalpur,Madhya Pradesh,23.1815,79.9864,29.0,60,0.0,960.1,8.0,34.2,66,35.0,25.0,14.4,204.0,62.0,5.2,4,5,7,1,2026-06-20T00:27:08.414557+05:30
Ujjain,Madhya Pradesh,23.1765,75.7885,28.0,65,0.0,953.4,8.55,46.4,62,43.8,29.3,7.9,270.0,60.0,5.1,7,5,7,1,2026-06-20T00:27:08.414565+05:30
Visakhapatnam,Andhra Pradesh,17.6868,83.2185,28.5,95,0.0,1002.1,8.85,30.6,98,40.2,35.9,38.5,333.0,84.0,46.5,7,5,4,1,2026-06-20T00:27:08.414573+05:30
Vijayawada,Andhra Pradesh,16.5062,80.648,30.3,78,0.0,1001.0,8.75,27.4,82,35.6,31.8,14.3,295.0,75.0,6.2,3,5,4,1,2026-06-20T00:27:08.414580+05:30
Guntur,Andhra Pradesh,16.3067,80.4365,30.6,75,0.0,1002.1,8.9,30.2,77,33.8,29.7,15.2,284.0,73.0,6.2,3,5,4,1,2026-06-20T00:27:08.414588+05:30
Nellore,Andhra Pradesh,14.4426,79.9865,29.3,76,0.0,1005.1,6.9,35.6,90,32.2,28.6,7.7,296.0,130.0,14.0,7,5,4,1,2026-06-20T00:27:08.414596+05:30
Kurnool,Andhra Pradesh,15.8281,78.0373,29.2,57,0.0,976.6,8.0,38.2,69,48.4,40.2,33.0,441.0,52.0,13.5,4,5,7,1,2026-06-20T00:27:08.414605+05:30
Kakinada,Andhra Pradesh,16.9891,82.2475,28.9,84,0.0,1005.9,5.55,38.2,97,28.0,21.8,5.3,333.0,114.0,4.3,7,5,0,1,2026-06-20T00:27:08.414612+05:30
Tirupati,Andhra Pradesh,13.6288,79.4192,27.3,76,0.0,991.4,5.4,28.4,74,30.4,26.4,20.4,391.0,74.0,8.1,7,5,3,1,2026-06-20T00:27:08.414620+05:30
Warangal,Telangana,17.9689,79.5941,29.6,68,0.0,977.4,8.15,36.7,83,55.2,46.9,30.8,637.0,32.0,7.4,7,5,7,1,2026-06-20T00:27:08.414627+05:30
Nizamabad,Telangana,18.6725,78.0941,30.7,53,0.0,964.1,8.95,31.3,70,36.7,27.5,16.8,713.0,72.0,6.0,0,5,7,1,2026-06-20T00:27:08.414634+05:30
Mysore,Karnataka,12.2958,76.6396,22.4,95,0.0,929.7,6.9,25.2,51,22.6,19.3,34.8,296.0,13.0,4.4,3,5,7,1,2026-06-20T00:27:08.414641+05:30
Mangalore,Karnataka,12.9141,74.856,26.1,90,0.0,1008.5,6.95,24.8,60,39.5,27.6,19.5,405.0,26.0,7.0,7,0,4,1,2026-06-20T00:27:08.414649+05:30
Hubli-Dharwad,Karnataka,15.3647,75.124,23.3,89,0.0,942.3,8.9,40.7,49,14.8,9.4,6.1,146.0,40.0,1.9,3,5,7,1,2026-06-20T00:27:08.414656+05:30
Belgaum,Karnataka,15.8497,74.4977,21.6,97,0.0,926.7,8.9,41.0,50,15.3,10.7,8.7,144.0,32.0,2.5,3,5,7,1,2026-06-20T00:27:11.763714+05:30
Coimbatore,Tamil Nadu,11.0168,76.9558,24.0,95,0.0,962.9,8.35,33.1,33,23.1,20.5,32.7,352.0,5.0,5.8,3,5,7,1,2026-06-20T00:27:11.763747+05:30
Madurai,Tamil Nadu,9.9252,78.1198,26.5,91,0.0,994.1,8.1,32.8,57,25.4,23.1,44.5,486.0,12.0,7.7,7,5,7,1,2026-06-20T00:27:11.763759+05:30
Trichy,Tamil Nadu,10.7905,78.7047,26.2,93,0.0,1001.1,8.15,40.0,46,18.3,16.2,18.3,216.0,54.0,3.9,7,5,4,1,2026-06-20T00:27:11.763768+05:30
Salem,Tamil Nadu,11.6643,78.146,24.6,94,0.0,978.8,8.0,29.2,58,27.9,24.4,24.2,452.0,72.0,11.3,3,5,7,1,2026-06-20T00:27:11.763777+05:30
Tirunelveli,Tamil Nadu,8.7139,77.7567,28.8,68,0.0,1004.5,8.1,31.7,50,25.1,20.1,19.2,329.0,35.0,3.5,7,5,4,1,2026-06-20T00:27:11.763785+05:30
Vellore,Tamil Nadu,12.9165,79.1325,24.7,94,0.1,985.3,8.05,28.4,71,22.8,20.1,12.2,227.0,81.0,4.8,6,5,7,1,2026-06-20T00:27:11.763794+05:30
Erode,Tamil Nadu,11.341,77.7172,25.2,93,0.0,990.7,7.25,27.7,47,31.4,27.6,43.3,537.0,24.0,6.4,7,5,7,1,2026-06-20T00:27:11.763802+05:30
Kochi,Kerala,9.9312,76.2673,27.0,89,0.0,1010.5,7.9,24.8,64,49.6,41.1,43.8,155.0,7.0,11.2,7,0,4,1,2026-06-20T00:27:11.763810+05:30
Thiruvananthapuram,Kerala,8.5241,76.9366,25.0,94,0.0,1010.2,7.4,34.6,59,33.5,15.4,3.3,425.0,60.0,1.9,7,0,4,1,2026-06-20T00:27:11.763817+05:30
Kozhikode,Kerala,11.2588,75.7804,25.6,93,0.0,1009.7,8.25,23.0,51,30.0,14.6,2.6,357.0,59.0,1.8,7,0,4,1,2026-06-20T00:27:11.763824+05:30
Thrissur,Kerala,10.5276,76.2144,25.7,91,0.0,1008.9,6.3,24.1,64,61.7,51.1,40.5,865.0,16.0,11.1,7,0,4,1,2026-06-20T00:27:11.763832+05:30
Kannur,Kerala,11.8745,75.3704,25.4,96,0.0,1009.0,7.75,25.6,60,39.9,27.6,26.6,759.0,25.0,6.4,7,0,4,1,2026-06-20T00:27:11.763840+05:30
Patna,Bihar,25.5941,85.1376,28.4,88,0.0,997.5,8.65,28.1,155,104.3,75.7,32.9,622.0,69.0,18.5,7,5,7,1,2026-06-20T00:27:11.763847+05:30
Gaya,Bihar,24.7914,85.0002,30.2,65,0.0,990.9,8.45,38.5,136,63.1,40.6,11.8,229.0,77.0,6.3,3,5,7,1,2026-06-20T00:27:11.763855+05:30
Muzaffarpur,Bihar,26.1209,85.3647,26.1,92,0.0,997.9,8.65,41.8,155,78.0,63.6,17.1,497.0,101.0,15.5,7,5,7,1,2026-06-20T00:27:11.763862+05:30
Bhagalpur,Bihar,25.2425,87.0117,26.7,96,0.0,998.3,8.45,48.2,160,67.1,61.5,17.5,378.0,94.0,28.6,7,5,7,1,2026-06-20T00:27:11.763869+05:30
Ranchi,Jharkhand,23.3441,85.3096,24.7,94,0.0,935.9,8.0,43.9,137,41.2,38.4,11.1,306.0,109.0,9.8,3,5,7,1,2026-06-20T00:27:11.763898+05:30
Jamshedpur,Jharkhand,22.8046,86.2029,27.1,97,0.0,988.8,8.85,35.3,153,57.5,53.9,23.2,480.0,82.0,29.4,7,5,7,1,2026-06-20T00:27:11.763906+05:30
Dhanbad,Jharkhand,23.7957,86.4304,27.5,85,0.0,977.3,7.85,40.0,162,69.2,66.4,41.9,547.0,79.0,110.3,7,5,7,1,2026-06-20T00:27:11.763913+05:30
Bokaro,Jharkhand,23.6693,86.1511,27.6,84,0.0,981.1,7.5,38.5,156,56.8,54.6,29.1,349.0,92.0,76.1,7,5,7,1,2026-06-20T00:27:11.763921+05:30
Bhubaneswar,Odisha,20.2961,85.8245,27.8,97,0.0,1000.8,8.15,43.2,90,29.1,27.4,9.9,303.0,114.0,6.7,7,5,4,1,2026-06-20T00:27:11.763928+05:30
Cuttack,Odisha,20.4625,85.8828,27.3,95,0.0,1002.5,7.2,37.1,90,29.1,27.4,9.9,476.0,114.0,6.7,7,5,4,1,2026-06-20T00:27:11.763935+05:30
Rourkela,Odisha,22.2604,84.8536,27.7,89,0.0,983.1,9.0,47.9,151,68.9,64.7,25.6,392.0,95.0,20.5,7,5,7,1,2026-06-20T00:27:11.763942+05:30
Raipur,Chhattisgarh,21.2514,81.6296,29.1,73,0.0,972.9,7.55,34.2,103,60.3,52.0,51.9,603.0,33.0,50.3,7,5,7,1,2026-06-20T00:27:11.763949+05:30
Bhilai,Chhattisgarh,21.1938,81.3509,28.6,76,0.0,973.4,8.5,38.5,103,75.9,64.7,62.9,649.0,27.0,55.5,7,5,7,1,2026-06-20T00:27:11.763956+05:30
Guwahati,Assam,26.1158,91.7086,26.2,91,0.0,999.4,8.7,32.8,98,76.4,61.2,15.0,401.0,62.0,6.6,7,5,7,1,2026-06-20T00:27:11.763963+05:30
Agartala,Tripura,23.8315,91.2868,25.9,91,0.0,1004.8,8.0,30.2,88,25.6,22.6,10.6,212.0,60.0,3.0,7,5,4,1,2026-06-20T00:27:11.763971+05:30
Shillong,Meghalaya,25.5788,91.8933,19.7,92,0.0,856.4,7.9,23.8,56,31.1,23.1,5.6,260.0,96.0,3.7,3,10,7,1,2026-06-20T00:27:11.763978+05:30
Imphal,Manipur,24.817,93.9368,23.0,92,0.0,922.1,8.15,31.3,57,24.8,21.8,12.5,455.0,41.0,2.7,3,5,7,1,2026-06-20T00:27:11.763986+05:30
Aizawl,Mizoram,23.7271,92.7176,19.4,94,0.0,891.6,8.55,32.0,50,8.6,7.2,4.1,174.0,59.0,1.4,3,10,7,1,2026-06-20T00:27:11.763994+05:30
Kohima,Nagaland,25.6701,94.1077,18.4,98,0.0,853.8,7.85,21.6,46,8.4,6.4,5.0,369.0,66.0,1.2,3,10,7,1,2026-06-20T00:27:11.764001+05:30
Gangtok,Sikkim,27.3314,88.6138,17.8,97,1.0,836.1,8.45,33.8,75,12.2,10.8,6.8,415.0,127.0,5.8,6,10,7,1,2026-06-20T00:27:11.764008+05:30
Siliguri,West Bengal,26.7271,88.3953,24.7,98,0.0,991.4,6.45,23.4,101,54.0,44.9,10.3,635.0,117.0,9.4,3,5,7,1,2026-06-20T00:27:15.116240+05:30
Durgapur,West Bengal,23.5204,87.3119,26.5,81,0.0,992.6,8.85,29.5,162,82.2,78.9,36.2,1175.0,68.0,53.4,7,5,7,1,2026-06-20T00:27:15.116275+05:30
Asansol,West Bengal,23.6739,86.9524,27.7,84,0.0,991.0,8.9,33.1,161,70.3,67.3,39.0,609.0,67.0,68.4,7,5,7,1,2026-06-20T00:27:15.116286+05:30
Pondicherry,Puducherry,11.9139,79.8145,25.7,92,0.0,1009.5,7.4,60.8,98,19.8,16.6,13.1,270.0,90.0,12.7,7,0,4,1,2026-06-20T00:27:15.116295+05:30
Port Blair,Andaman and Nicobar Islands,11.6234,92.7265,26.8,85,0.0,1008.8,8.75,32.0,27,13.0,5.8,0.2,98.0,42.0,0.4,7,0,4,1,2026-06-20T00:27:15.116304+05:30
Haridwar,Uttarakhand,29.9457,78.1642,27.7,75,0.0,970.7,7.65,24.1,150,194.6,84.5,31.6,534.0,79.0,15.6,7,5,7,1,2026-06-20T00:27:15.116313+05:30
Rishikesh,Uttarakhand,30.0869,78.2676,27.0,73,0.0,963.6,7.75,26.3,148,57.9,46.9,14.2,494.0,130.0,9.0,7,5,7,1,2026-06-20T00:27:15.116322+05:30
Nainital,Uttarakhand,29.3919,79.4542,15.4,94,0.0,803.7,8.6,29.9,110,47.1,39.7,16.1,397.0,78.0,4.5,3,10,7,0,2026-06-20T00:27:15.116330+05:30
Mussoorie,Uttarakhand,30.4599,78.0664,15.9,90,0.0,801.7,7.6,36.7,115,55.9,51.7,39.9,356.0,80.0,11.3,3,10,7,0,2026-06-20T00:27:15.116339+05:30
Dharamshala,Himachal Pradesh,32.219,76.3234,21.1,74,0.0,867.8,8.2,40.0,51,12.6,10.5,15.0,363.0,58.0,0.5,3,5,7,1,2026-06-20T00:27:15.116347+05:30
Dalhousie,Himachal Pradesh,32.5387,75.971,13.7,95,0.0,801.9,7.95,26.6,86,41.6,35.5,42.5,420.0,34.0,1.9,3,10,7,0,2026-06-20T00:27:15.116355+05:30
Patiala,Punjab,30.3398,76.3869,28.4,69,0.0,975.0,7.7,31.7,260,651.9,134.6,16.9,430.0,81.0,10.9,7,5,7,1,2026-06-20T00:27:15.116364+05:30
Bhatinda,Punjab,30.211,74.9455,28.8,67,0.0,980.7,8.3,27.7,135,62.4,42.3,24.9,382.0,51.0,5.1,7,5,7,1,2026-06-20T00:27:15.116371+05:30
Rohtak,Haryana,28.8955,76.6066,29.7,58,0.0,978.7,7.8,30.2,541,592.3,141.6,57.9,373.0,24.0,11.4,4,5,7,1,2026-06-20T00:27:15.116380+05:30
Panipat,Haryana,29.3909,76.9635,29.0,66,0.0,977.3,7.65,28.4,1003,1706.2,282.2,24.0,507.0,73.0,9.1,7,5,7,1,2026-06-20T00:27:15.116387+05:30
Mathura,Uttar Pradesh,27.4924,77.6737,30.7,53,0.0,983.7,8.1,31.7,195,259.8,71.2,43.7,334.0,28.0,7.6,0,5,7,1,2026-06-20T00:27:15.116395+05:30
Vrindavan,Uttar Pradesh,27.5823,77.7027,30.8,54,0.0,984.1,8.1,31.3,195,259.8,71.2,43.7,327.0,28.0,7.6,0,5,7,1,2026-06-20T00:27:15.116403+05:30
Ayodhya,Uttar Pradesh,26.7922,82.1998,31.1,63,0.0,991.0,8.45,44.3,156,121.1,60.8,25.5,470.0,54.0,8.9,3,5,7,1,2026-06-20T00:27:15.116410+05:30
Ratlam,Madhya Pradesh,23.3315,75.0367,27.6,66,0.0,954.4,6.6,47.9,61,41.2,26.4,5.2,191.0,73.0,5.5,7,5,7,1,2026-06-20T00:27:15.116418+05:30
Sagar,Madhya Pradesh,23.8388,78.7378,28.4,61,0.0,949.1,8.75,35.6,58,23.4,16.7,6.0,188.0,75.0,3.5,7,5,7,1,2026-06-20T00:27:15.116426+05:30
Satna,Madhya Pradesh,24.6005,80.8322,31.2,52,0.0,969.0,8.8,32.8,76,31.9,22.8,12.7,193.0,58.0,3.9,0,5,7,1,2026-06-20T00:27:15.116434+05:30
Akola,Maharashtra,20.7002,77.0082,31.4,43,0.0,974.6,8.8,44.6,56,21.4,15.0,11.0,174.0,67.0,6.2,0,5,7,1,2026-06-20T00:27:15.116443+05:30
Amravati,Maharashtra,20.9374,77.7796,29.8,52,0.0,966.7,8.8,39.2,57,21.9,15.8,13.8,338.0,61.0,6.2,4,5,7,1,2026-06-20T00:27:15.116451+05:30
Latur,Maharashtra,18.4088,76.5604,30.1,41,0.0,939.4,8.8,27.0,59,20.4,16.1,9.4,258.0,66.0,2.6,0,5,7,0,2026-06-20T00:27:15.116459+05:30
Nanded,Maharashtra,19.1383,77.3091,31.3,41,0.0,967.6,8.85,35.3,62,45.6,38.1,34.9,302.0,38.0,8.4,0,5,7,1,2026-06-20T00:27:15.116467+05:30
Gulbarga,Karnataka,17.3297,76.8343,30.2,47,0.0,958.8,8.1,36.7,57,29.5,23.7,29.1,232.0,44.0,4.9,0,5,7,1,2026-06-20T00:27:15.116474+05:30
Bidar,Karnataka,17.9104,77.5199,28.9,51,0.0,935.2,8.45,32.8,71,64.5,56.1,62.7,425.0,11.0,8.3,4,5,7,1,2026-06-20T00:27:15.116482+05:30
Hospet,Karnataka,15.2689,76.3909,26.3,73,0.0,956.9,5.8,40.0,52,18.1,12.7,8.8,184.0,55.0,2.1,7,5,3,1,2026-06-20T00:27:15.116490+05:30
Tirupur,Tamil Nadu,11.1085,77.3411,25.4,85,0.0,976.5,8.4,33.1,51,36.7,33.5,51.2,263.0,8.0,9.4,7,5,7,1,2026-06-20T00:27:15.116497+05:30
Alappuzha,Kerala,9.4981,76.3388,27.2,86,0.0,1010.7,7.5,28.8,58,38.1,24.8,18.8,93.0,40.0,6.2,7,0,4,1,2026-06-20T00:27:15.116505+05:30
Munnar,Kerala,10.0889,77.0595,16.6,95,0.0,856.8,5.65,26.6,17,11.8,11.0,19.5,212.0,9.0,1.5,3,10,3,0,2026-06-20T00:27:15.116513+05:30
Silchar,Assam,24.8333,92.7789,24.4,97,0.1,1004.5,8.2,24.5,83,30.3,24.4,9.7,283.0,85.0,4.9,6,5,4,1,2026-06-20T00:27:15.116520+05:30
Dibrugarh,Assam,27.4728,94.912,24.6,98,0.1,993.3,8.9,28.4,67,20.3,17.8,7.0,281.0,91.0,1.9,6,5,7,1,2026-06-20T00:27:15.116527+05:30
