city,state,latitude,longitude,temp,humidity,rain,pressure,uv_index,wind_gusts,aqi,pm10,pm2_5,mosquito_risk,arthritis_risk,migraine_risk,frizz_risk,updated_at
Delhi,Delhi,28.6139,77.209,21.1,69,0.0,984.0,6.15,38.2,159,364.1,60.8,3,5,7,0,2026-03-15T23:01:35.387920+05:30
Mumbai,Maharashtra,19.076,72.8777,27.5,84,0.0,1010.7,7.7,19.8,105,63.6,30.4,7,0,4,1,2026-03-15T23:01:35.387959+05:30
Bangalore,Karnataka,12.9716,77.5946,23.3,55,0.0,913.2,9.3,19.1,114,26.9,26.3,0,5,7,0,2026-03-15T23:01:35.387974+05:30
Hyderabad,Telangana,17.385,78.4867,24.5,66,0.0,955.5,8.7,29.2,92,45.3,38.9,3,5,7,1,2026-03-15T23:01:35.387985+05:30
Chennai,Tamil Nadu,13.0827,80.2707,26.2,80,0.0,1010.1,9.05,32.0,44,10.2,7.7,7,0,4,1,2026-03-15T23:01:35.387994+05:30
Kolkata,West Bengal,22.5726,88.3639,25.3,89,0.0,1007.4,7.9,36.4,58,21.2,17.2,7,5,4,1,2026-03-15T23:01:35.388003+05:30
Pune,Maharashtra,18.5204,73.8567,22.3,56,0.0,950.2,8.25,41.8,146,44.0,35.3,0,5,7,0,2026-03-15T23:01:35.388015+05:30
Ahmedabad,Gujarat,23.0225,72.5714,28.7,28,0.0,1002.7,7.5,27.7,69,58.3,29.6,4,5,4,0,2026-03-15T23:01:35.388023+05:30
Jaipur,Rajasthan,26.9124,75.7873,26.5,25,0.0,959.7,6.95,46.4,127,181.1,38.2,4,5,7,0,2026-03-15T23:01:35.388030+05:30
Lucknow,Uttar Pradesh,26.8467,80.9462,21.0,68,0.0,995.8,6.5,49.0,120,37.7,29.3,3,5,7,0,2026-03-15T23:01:35.388038+05:30
Kanpur,Uttar Pradesh,26.4499,80.3319,21.2,65,0.0,993.3,6.6,41.8,160,258.0,46.1,3,5,7,0,2026-03-15T23:01:35.388044+05:30
Chandigarh,Chandigarh,30.7333,76.7794,16.0,92,0.0,972.2,6.0,31.3,79,31.4,20.4,3,10,3,0,2026-03-15T23:01:35.388052+05:30
Srinagar,Jammu and Kashmir,34.0837,74.7973,5.6,94,0.0,838.4,4.95,27.7,90,13.1,12.3,3,10,3,0,2026-03-15T23:01:35.388059+05:30
Jammu,Jammu and Kashmir,32.7266,74.857,15.0,88,0.0,975.0,2.9,49.0,90,51.3,34.7,3,10,3,0,2026-03-15T23:01:35.388066+05:30
Amritsar,Punjab,31.634,74.8723,14.4,97,0.0,983.4,3.5,34.2,112,38.8,25.0,3,10,3,0,2026-03-15T23:01:35.388073+05:30
Ludhiana,Punjab,30.901,75.8573,15.6,94,0.0,981.9,5.15,31.0,118,50.4,33.8,3,10,3,0,2026-03-15T23:01:35.388079+05:30
Jalandhar,Punjab,31.326,75.5762,14.9,94,0.0,983.0,5.05,35.3,113,35.4,23.2,3,10,3,0,2026-03-15T23:01:35.388088+05:30
Dehradun,Uttarakhand,30.6284,78.0322,9.7,78,0.0,828.8,5.25,34.2,55,19.8,9.3,3,5,3,0,2026-03-15T23:01:35.388094+05:30
Shimla,Himachal Pradesh,31.1048,77.1734,7.2,80,0.0,781.6,5.95,56.2,60,16.3,7.9,3,5,3,0,2026-03-15T23:01:35.388101+05:30
Manali,Himachal Pradesh,32.2396,77.1887,8.3,85,0.1,814.8,6.9,38.5,48,2.8,1.7,6,10,7,0,2026-03-15T23:01:35.388108+05:30
Gurgaon,Haryana,28.4595,77.0266,20.4,73,0.0,982.4,6.25,45.4,1091,2414.0,271.9,3,5,7,0,2026-03-15T23:01:35.388114+05:30
Noida,Uttar Pradesh,28.5355,77.391,20.7,71,0.0,985.6,6.15,36.7,1091,2414.0,271.9,3,5,7,0,2026-03-15T23:01:35.388120+05:30
Ghaziabad,Uttar Pradesh,28.6692,77.4538,19.9,73,0.0,983.8,6.15,34.9,153,249.6,43.8,3,5,7,0,2026-03-15T23:01:35.388127+05:30
Faridabad,Haryana,28.4089,77.3178,20.5,71,0.0,984.8,6.2,39.6,1091,2414.0,271.9,3,5,7,0,2026-03-15T23:01:35.388133+05:30
Meerut,Uttar Pradesh,28.9845,77.7064,18.6,80,0.0,982.7,6.0,27.7,153,249.6,43.8,3,5,3,0,2026-03-15T23:01:35.388140+05:30
Agra,Uttar Pradesh,27.1767,78.0081,20.1,75,0.0,988.8,6.6,36.7,800,1251.7,155.1,3,5,7,0,2026-03-15T23:01:35.388146+05:30
Varanasi,Uttar Pradesh,25.3176,82.9739,23.4,63,0.0,999.7,7.35,32.4,146,70.5,56.2,3,5,7,0,2026-03-15T23:01:35.388155+05:30
Prayagraj,Uttar Pradesh,25.4358,81.8463,23.4,63,0.0,998.0,7.25,42.8,122,38.1,30.0,3,5,7,0,2026-03-15T23:01:35.388162+05:30
Gorakhpur,Uttar Pradesh,26.7606,83.3732,21.7,65,0.0,999.6,7.1,40.3,152,63.1,50.6,3,5,7,0,2026-03-15T23:01:35.388168+05:30
Bareilly,Uttar Pradesh,28.367,79.4304,18.5,93,0.0,989.1,6.35,34.6,142,36.8,24.7,3,10,7,1,2026-03-15T23:01:35.388177+05:30
Aligarh,Uttar Pradesh,27.8974,78.088,19.0,83,0.0,987.0,6.3,40.7,168,715.3,95.5,3,10,7,1,2026-03-15T23:01:35.388183+05:30
Moradabad,Uttar Pradesh,28.8386,78.7733,18.6,84,0.0,985.6,6.2,29.5,150,38.1,23.5,3,10,7,0,2026-03-15T23:01:35.388189+05:30
Saharanpur,Uttar Pradesh,29.9637,77.546,16.8,79,0.0,978.4,5.8,33.1,143,36.6,21.2,3,5,3,0,2026-03-15T23:01:35.388198+05:30
Jhansi,Uttar Pradesh,25.4484,78.5685,23.6,59,0.0,978.1,7.2,31.7,81,37.0,20.3,0,5,7,0,2026-03-15T23:01:38.698980+05:30
Surat,Gujarat,21.1702,72.8311,26.1,87,0.0,1008.3,7.4,25.2,130,48.7,29.8,7,0,4,1,2026-03-15T23:01:38.699012+05:30
Vadodara,Gujarat,22.3072,73.1812,26.6,63,0.0,1005.3,7.5,25.9,89,48.4,31.3,7,5,4,1,2026-03-15T23:01:38.699025+05:30
Rajkot,Gujarat,22.3039,70.8022,25.9,67,0.0,995.7,7.35,31.0,68,51.8,25.2,7,5,7,1,2026-03-15T23:01:38.699034+05:30
Thane,Maharashtra,19.2183,72.9781,25.9,89,0.0,1010.2,7.7,33.8,105,63.6,30.4,7,0,4,1,2026-03-15T23:01:38.699042+05:30
Nagpur,Maharashtra,21.1458,79.0882,26.7,61,0.0,974.3,8.15,22.3,119,38.4,34.8,7,5,7,1,2026-03-15T23:01:38.699051+05:30
Nashik,Maharashtra,19.9975,73.7898,21.4,65,0.0,947.0,7.9,40.7,71,58.9,29.5,3,5,7,0,2026-03-15T23:01:38.699060+05:30
Aurangabad,Maharashtra,19.8762,75.3433,26.4,43,0.0,945.7,8.4,31.0,101,35.6,26.0,4,5,7,0,2026-03-15T23:01:38.699068+05:30
Solapur,Maharashtra,17.6599,75.9064,26.0,51,0.0,957.7,8.65,24.1,120,55.5,50.5,4,5,7,0,2026-03-15T23:01:38.699077+05:30
Kolhapur,Maharashtra,16.705,74.2433,22.9,74,0.0,949.9,8.7,39.6,129,37.0,28.1,3,5,7,1,2026-03-15T23:01:38.699086+05:30
Goa,Goa,15.2993,74.124,28.1,77,0.0,1000.2,8.75,32.0,118,49.1,36.0,7,5,4,1,2026-03-15T23:01:38.699095+05:30
Jodhpur,Rajasthan,26.2389,73.0243,26.9,21,0.0,982.9,7.25,27.4,109,153.7,29.3,4,5,7,0,2026-03-15T23:01:38.699104+05:30
Udaipur,Rajasthan,24.5854,73.7125,23.8,22,0.0,947.1,7.85,38.2,64,40.7,15.0,0,5,7,0,2026-03-15T23:01:38.699112+05:30
Kota,Rajasthan,25.2138,75.8648,24.3,36,0.0,978.1,7.3,35.3,65,51.8,32.4,0,5,7,0,2026-03-15T23:01:38.699121+05:30
Bikaner,Rajasthan,28.0229,73.3119,26.8,27,0.0,982.2,6.9,41.4,56,12.0,7.2,4,5,7,0,2026-03-15T23:01:38.699129+05:30
Ajmer,Rajasthan,26.4499,74.6399,25.5,35,0.0,954.6,7.25,37.4,75,58.0,23.2,4,5,7,0,2026-03-15T23:01:38.699136+05:30
Gwalior,Madhya Pradesh,26.2183,78.1828,23.1,72,0.0,983.3,6.9,45.4,105,118.5,40.7,3,5,7,1,2026-03-15T23:01:38.699144+05:30
Indore,Madhya Pradesh,22.7196,75.8577,23.6,43,0.0,948.6,7.8,35.6,64,36.6,24.2,0,5,7,0,2026-03-15T23:01:38.699152+05:30
Bhopal,Madhya Pradesh,23.2599,77.4126,24.1,45,0.0,954.0,7.7,42.8,63,36.0,21.4,0,5,7,0,2026-03-15T23:01:38.699160+05:30
Jabalpur,Madhya Pradesh,23.1815,79.9864,24.8,52,0.0,961.5,7.8,38.2,81,28.2,21.4,0,5,7,0,2026-03-15T23:01:38.699169+05:30
Ujjain,Madhya Pradesh,23.1765,75.7885,23.7,42,0.0,954.4,7.7,34.6,68,34.1,20.5,0,5,7,0,2026-03-15T23:01:38.699177+05:30
Visakhapatnam,Andhra Pradesh,17.6868,83.2185,25.5,86,0.0,1007.5,8.65,40.0,64,20.8,16.3,7,5,4,1,2026-03-15T23:01:38.699185+05:30
Vijayawada,Andhra Pradesh,16.5062,80.648,24.5,89,0.0,1005.7,8.75,29.2,57,17.3,15.1,3,5,4,1,2026-03-15T23:01:38.699193+05:30
Guntur,Andhra Pradesh,16.3067,80.4365,24.8,88,0.0,1006.9,8.75,30.2,54,14.8,12.8,3,5,4,1,2026-03-15T23:01:38.699201+05:30
Nellore,Andhra Pradesh,14.4426,79.9865,25.4,87,0.0,1008.6,8.95,29.9,51,8.6,6.8,7,0,4,1,2026-03-15T23:01:38.699210+05:30
Kurnool,Andhra Pradesh,15.8281,78.0373,29.5,44,0.0,978.6,8.75,20.2,113,43.2,37.5,4,5,7,0,2026-03-15T23:01:38.699219+05:30
Kakinada,Andhra Pradesh,16.9891,82.2475,24.0,92,0.0,1011.2,8.7,31.7,57,16.8,11.9,3,0,4,1,2026-03-15T23:01:38.699227+05:30
Tirupati,Andhra Pradesh,13.6288,79.4192,24.7,84,0.0,994.6,9.05,29.5,66,16.0,14.6,3,5,7,1,2026-03-15T23:01:38.699235+05:30
Warangal,Telangana,17.9689,79.5941,26.2,70,0.0,980.7,8.55,31.7,74,32.0,28.9,7,5,7,1,2026-03-15T23:01:38.699243+05:30
Nizamabad,Telangana,18.6725,78.0941,27.0,54,0.0,966.2,8.4,33.1,122,88.5,78.0,4,5,7,1,2026-03-15T23:01:38.699251+05:30
Mysore,Karnataka,12.2958,76.6396,22.9,84,0.0,929.8,9.3,32.8,106,36.8,33.8,3,5,7,1,2026-03-15T23:01:38.699259+05:30
Mangalore,Karnataka,12.9141,74.856,29.1,78,0.0,1009.0,8.95,27.7,84,27.6,23.1,7,0,4,1,2026-03-15T23:01:38.699267+05:30
Hubli-Dharwad,Karnataka,15.3647,75.124,23.3,85,0.0,942.7,8.95,43.2,115,36.2,34.9,3,5,7,1,2026-03-15T23:01:38.699274+05:30
Belgaum,Karnataka,15.8497,74.4977,22.4,93,0.0,927.5,9.0,40.0,122,37.5,30.7,3,5,7,1,2026-03-15T23:01:42.012410+05:30
Coimbatore,Tamil Nadu,11.0168,76.9558,24.7,82,0.0,963.9,9.3,36.0,71,34.6,31.5,3,5,7,1,2026-03-15T23:01:42.012443+05:30
Madurai,Tamil Nadu,9.9252,78.1198,26.3,70,0.0,995.9,9.25,23.4,54,8.9,8.1,7,5,7,1,2026-03-15T23:01:42.012490+05:30
Trichy,Tamil Nadu,10.7905,78.7047,25.9,86,0.0,1002.5,9.15,20.2,54,12.0,11.0,7,5,4,1,2026-03-15T23:01:42.012504+05:30
Salem,Tamil Nadu,11.6643,78.146,26.0,65,0.0,979.1,9.2,14.8,86,20.3,19.7,7,5,7,1,2026-03-15T23:01:42.012512+05:30
Tirunelveli,Tamil Nadu,8.7139,77.7567,27.0,79,0.0,1005.9,9.25,38.2,50,12.5,11.4,7,5,4,1,2026-03-15T23:01:42.012520+05:30
Vellore,Tamil Nadu,12.9165,79.1325,24.5,72,0.0,987.1,9.1,31.0,90,24.8,24.0,3,5,7,1,2026-03-15T23:01:42.012526+05:30
Erode,Tamil Nadu,11.341,77.7172,28.0,50,0.0,990.9,9.2,20.5,56,13.4,12.7,4,5,7,1,2026-03-15T23:01:42.012533+05:30
Kochi,Kerala,9.9312,76.2673,28.0,80,0.0,1011.2,9.1,34.2,73,38.8,37.7,7,0,4,1,2026-03-15T23:01:42.012540+05:30
Thiruvananthapuram,Kerala,8.5241,76.9366,28.0,80,0.0,1010.5,9.1,27.0,71,11.7,8.6,7,0,4,1,2026-03-15T23:01:42.012547+05:30
Kozhikode,Kerala,11.2588,75.7804,28.7,80,0.0,1009.8,9.0,32.8,68,24.4,20.5,7,0,4,1,2026-03-15T23:01:42.012553+05:30
Thrissur,Kerala,10.5276,76.2144,27.4,85,0.0,1009.3,9.05,40.0,73,31.3,29.5,7,0,4,1,2026-03-15T23:01:42.012560+05:30
Kannur,Kerala,11.8745,75.3704,27.7,82,0.0,1009.3,8.95,33.5,80,29.6,26.4,7,0,4,1,2026-03-15T23:01:42.012567+05:30
Patna,Bihar,25.5941,85.1376,24.3,77,0.0,1002.6,7.55,27.4,161,71.2,58.3,3,5,4,1,2026-03-15T23:01:42.012573+05:30
Gaya,Bihar,24.7914,85.0002,23.8,78,0.0,994.9,7.65,30.2,143,63.6,47.1,3,5,7,1,2026-03-15T23:01:42.012579+05:30
Muzaffarpur,Bihar,26.1209,85.3647,22.6,82,0.0,1002.9,7.5,38.5,161,86.8,72.2,3,5,4,1,2026-03-15T23:01:42.012586+05:30
Bhagalpur,Bihar,25.2425,87.0117,24.5,86,0.0,1002.5,7.55,32.4,151,68.0,53.7,3,5,4,1,2026-03-15T23:01:42.012591+05:30
Ranchi,Jharkhand,23.3441,85.3096,21.5,80,0.0,938.5,8.3,45.7,155,52.0,47.5,3,5,7,1,2026-03-15T23:01:42.012598+05:30
Jamshedpur,Jharkhand,22.8046,86.2029,24.0,82,0.0,992.7,8.15,37.4,156,59.8,53.1,3,5,7,1,2026-03-15T23:01:42.012604+05:30
Dhanbad,Jharkhand,23.7957,86.4304,24.2,77,0.0,981.0,8.0,31.7,161,83.8,79.4,3,5,7,1,2026-03-15T23:01:42.012610+05:30
Bokaro,Jharkhand,23.6693,86.1511,24.0,78,0.0,984.9,8.0,28.1,154,72.9,68.5,3,5,7,1,2026-03-15T23:01:42.012616+05:30
Bhubaneswar,Odisha,20.2961,85.8245,25.5,85,0.0,1005.5,8.5,42.5,57,16.9,14.0,7,5,4,1,2026-03-15T23:01:42.012622+05:30
Cuttack,Odisha,20.4625,85.8828,25.5,87,0.0,1007.4,8.5,37.4,57,16.9,14.0,7,5,4,1,2026-03-15T23:01:42.012628+05:30
Rourkela,Odisha,22.2604,84.8536,25.8,79,0.0,987.2,8.1,55.4,184,57.6,51.8,7,5,7,1,2026-03-15T23:01:42.012635+05:30
Raipur,Chhattisgarh,21.2514,81.6296,26.4,56,0.0,975.8,8.2,35.6,145,57.3,52.4,4,5,7,1,2026-03-15T23:01:42.012641+05:30
Bhilai,Chhattisgarh,21.1938,81.3509,25.5,61,0.0,975.9,8.2,36.7,134,57.4,53.0,7,5,7,1,2026-03-15T23:01:42.012647+05:30
Guwahati,Assam,26.1158,91.7086,21.3,94,0.0,1004.6,7.4,40.0,70,22.9,20.1,3,5,4,1,2026-03-15T23:01:42.012653+05:30
Agartala,Tripura,23.8315,91.2868,20.8,95,0.0,1010.0,7.75,52.9,54,23.3,21.7,3,0,4,1,2026-03-15T23:01:42.012659+05:30
Shillong,Meghalaya,25.5788,91.8933,12.7,93,0.0,856.4,7.85,81.0,56,6.5,6.0,3,10,7,0,2026-03-15T23:01:42.012666+05:30
Imphal,Manipur,24.817,93.9368,16.0,84,0.3,926.9,8.15,70.2,81,45.1,38.6,6,10,7,0,2026-03-15T23:01:42.012673+05:30
Aizawl,Mizoram,23.7271,92.7176,16.0,91,0.0,896.3,8.1,56.9,81,28.2,23.0,3,10,7,0,2026-03-15T23:01:42.012679+05:30
Kohima,Nagaland,25.6701,94.1077,15.1,75,0.0,855.8,7.8,111.2,67,36.9,29.3,3,5,7,0,2026-03-15T23:01:42.012685+05:30
Gangtok,Sikkim,27.3314,88.6138,12.1,77,0.0,836.3,7.05,20.9,97,61.9,41.9,3,5,7,0,2026-03-15T23:01:42.012691+05:30
Siliguri,West Bengal,26.7271,88.3953,19.0,87,0.0,996.5,7.45,26.3,126,76.4,57.6,3,10,7,1,2026-03-15T23:01:45.325886+05:30
Durgapur,West Bengal,23.5204,87.3119,23.9,90,0.0,996.4,8.05,36.4,155,84.1,78.7,3,5,7,1,2026-03-15T23:01:45.325912+05:30
Asansol,West Bengal,23.6739,86.9524,24.2,87,0.0,994.7,8.05,33.5,165,71.0,66.4,3,5,7,1,2026-03-15T23:01:45.325921+05:30
Pondicherry,Puducherry,11.9139,79.8145,24.8,92,0.0,1011.3,9.0,28.1,34,8.1,5.7,3,0,4,1,2026-03-15T23:01:45.325928+05:30
Port Blair,Andaman and Nicobar Islands,11.6234,92.7265,27.8,81,0.0,1009.8,8.95,21.6,72,14.9,12.1,7,0,4,1,2026-03-15T23:01:45.325936+05:30
Haridwar,Uttarakhand,29.9457,78.1642,19.7,60,0.0,976.1,5.85,34.6,86,29.8,18.2,0,5,3,0,2026-03-15T23:01:45.325943+05:30
Rishikesh,Uttarakhand,30.0869,78.2676,18.9,60,0.0,968.7,5.65,36.7,67,27.5,16.4,0,5,3,0,2026-03-15T23:01:45.325950+05:30
Nainital,Uttarakhand,29.3919,79.4542,14.7,55,0.0,805.7,5.35,58.7,76,27.3,16.7,0,5,3,0,2026-03-15T23:01:45.325957+05:30
Mussoorie,Uttarakhand,30.4599,78.0664,11.3,65,0.0,801.0,5.35,46.8,75,26.8,17.8,3,5,3,0,2026-03-15T23:01:45.325964+05:30
Dharamshala,Himachal Pradesh,32.219,76.3234,13.2,71,0.0,868.3,4.15,40.7,45,5.4,4.0,3,5,3,0,2026-03-15T23:01:45.325971+05:30
Dalhousie,Himachal Pradesh,32.5387,75.971,8.8,77,0.0,801.1,3.65,32.8,73,38.5,28.8,3,5,3,0,2026-03-15T23:01:45.325978+05:30
Patiala,Punjab,30.3398,76.3869,16.5,91,0.0,981.6,5.9,33.1,115,42.0,25.8,3,10,3,0,2026-03-15T23:01:45.325985+05:30
Bhatinda,Punjab,30.211,74.9455,16.1,88,0.0,985.9,6.4,46.8,101,290.6,64.7,3,10,7,0,2026-03-15T23:01:45.325992+05:30
Rohtak,Haryana,28.8955,76.6066,18.6,82,0.0,984.1,6.15,41.0,266,715.3,94.5,3,10,7,0,2026-03-15T23:01:45.325999+05:30
Panipat,Haryana,29.3909,76.9635,18.2,81,0.0,983.2,5.95,47.5,173,378.1,56.1,3,10,3,0,2026-03-15T23:01:45.326005+05:30
Mathura,Uttar Pradesh,27.4924,77.6737,19.8,80,0.0,987.8,6.5,37.1,291,774.9,93.8,3,5,7,1,2026-03-15T23:01:45.326012+05:30
Vrindavan,Uttar Pradesh,27.5823,77.7027,19.5,83,0.0,988.3,6.45,38.2,291,774.9,93.8,3,10,7,1,2026-03-15T23:01:45.326018+05:30
Ayodhya,Uttar Pradesh,26.7922,82.1998,20.7,69,0.0,997.7,6.9,47.2,118,39.9,31.2,3,5,7,0,2026-03-15T23:01:45.326025+05:30
Ratlam,Madhya Pradesh,23.3315,75.0367,26.0,43,0.0,955.1,7.65,38.5,66,32.0,17.6,4,5,7,0,2026-03-15T23:01:45.326031+05:30
Sagar,Madhya Pradesh,23.8388,78.7378,25.8,38,0.0,950.3,7.65,36.7,56,24.7,16.1,4,5,7,0,2026-03-15T23:01:45.326038+05:30
Satna,Madhya Pradesh,24.6005,80.8322,25.3,64,0.0,972.2,7.6,51.1,76,44.2,27.1,7,5,7,1,2026-03-15T23:01:45.326044+05:30
Akola,Maharashtra,20.7002,77.0082,27.6,40,0.0,975.8,8.15,29.2,110,32.4,25.0,4,5,7,0,2026-03-15T23:01:45.326051+05:30
Amravati,Maharashtra,20.9374,77.7796,26.8,48,0.0,967.8,8.1,27.7,109,32.6,27.1,4,5,7,0,2026-03-15T23:01:45.326059+05:30
Latur,Maharashtra,18.4088,76.5604,24.9,46,0.0,940.3,8.55,25.6,125,39.8,34.8,0,5,7,0,2026-03-15T23:01:45.326065+05:30
Nanded,Maharashtra,19.1383,77.3091,27.9,42,0.0,969.5,8.35,19.1,126,61.5,54.1,4,5,7,0,2026-03-15T23:01:45.326071+05:30
Gulbarga,Karnataka,17.3297,76.8343,26.8,55,0.0,960.2,8.6,24.1,144,43.7,38.3,4,5,7,1,2026-03-15T23:01:45.326077+05:30
Bidar,Karnataka,17.9104,77.5199,24.9,59,0.0,936.7,7.65,45.4,122,45.6,38.6,0,5,7,1,2026-03-15T23:01:45.326084+05:30
Hospet,Karnataka,15.2689,76.3909,27.4,64,0.0,957.7,8.9,27.4,142,60.5,52.7,7,5,7,1,2026-03-15T23:01:45.326090+05:30
Tirupur,Tamil Nadu,11.1085,77.3411,26.5,80,0.0,977.3,9.3,28.4,58,25.0,23.3,7,5,7,1,2026-03-15T23:01:45.326096+05:30
Alappuzha,Kerala,9.4981,76.3388,27.8,82,0.0,1011.3,9.05,30.2,69,35.3,32.6,7,0,4,1,2026-03-15T23:01:45.326103+05:30
Munnar,Kerala,10.0889,77.0595,20.1,82,0.0,858.2,9.55,34.9,59,30.2,28.1,3,5,7,1,2026-03-15T23:01:45.326110+05:30
Silchar,Assam,24.8333,92.7789,20.4,93,0.0,1010.6,7.8,42.5,94,39.7,37.4,3,0,4,1,2026-03-15T23:01:45.326116+05:30
Dibrugarh,Assam,27.4728,94.912,18.5,92,0.0,999.6,4.5,40.0,71,33.1,26.4,3,10,3,1,2026-03-15T23:01:45.326122+05:30
