city,state,latitude,longitude,temp,humidity,rain,pressure,uv_index,wind_gusts,aqi,pm10,pm2_5,mosquito_risk,arthritis_risk,migraine_risk,frizz_risk,updated_at
Delhi,Delhi,28.6139,77.209,21.7,62,0.0,984.3,6.1,41.4,415,267.3,63.8,3,5,7,0,2026-03-16T22:34:55.964035+05:30
Mumbai,Maharashtra,19.076,72.8777,27.5,79,0.0,1009.9,7.7,18.0,104,105.9,33.1,7,0,4,1,2026-03-16T22:34:55.964089+05:30
Bangalore,Karnataka,12.9716,77.5946,23.6,64,0.0,913.1,9.35,16.9,124,35.4,33.8,3,5,7,1,2026-03-16T22:34:55.964107+05:30
Hyderabad,Telangana,17.385,78.4867,23.8,72,0.0,954.5,8.65,22.3,98,41.4,35.4,3,5,7,1,2026-03-16T22:34:55.964117+05:30
Chennai,Tamil Nadu,13.0827,80.2707,26.6,82,0.0,1009.9,9.05,31.0,38,9.1,6.8,7,0,4,1,2026-03-16T22:34:55.964126+05:30
Kolkata,West Bengal,22.5726,88.3639,25.1,89,0.0,1009.1,8.15,41.8,76,21.4,18.0,7,0,4,1,2026-03-16T22:34:55.964136+05:30
Pune,Maharashtra,18.5204,73.8567,22.7,61,0.0,948.9,8.25,42.8,106,47.0,33.8,3,5,7,0,2026-03-16T22:34:55.964149+05:30
Ahmedabad,Gujarat,23.0225,72.5714,25.7,34,0.0,1002.4,7.45,28.4,62,45.4,27.0,4,5,4,0,2026-03-16T22:34:55.964158+05:30
Jaipur,Rajasthan,26.9124,75.7873,25.5,25,0.0,959.3,6.9,31.3,157,79.9,30.5,4,5,7,0,2026-03-16T22:34:55.964166+05:30
Lucknow,Uttar Pradesh,26.8467,80.9462,24.7,54,0.0,994.2,6.65,48.6,86,57.3,43.3,0,5,7,0,2026-03-16T22:34:55.964175+05:30
Kanpur,Uttar Pradesh,26.4499,80.3319,24.3,57,0.0,992.3,6.7,35.3,112,249.6,56.1,0,5,7,0,2026-03-16T22:34:55.964183+05:30
Chandigarh,Chandigarh,30.7333,76.7794,14.6,77,0.0,970.6,5.25,43.2,66,34.8,25.4,3,5,3,0,2026-03-16T22:34:55.964191+05:30
Srinagar,Jammu and Kashmir,34.0837,74.7973,4.4,88,0.0,838.3,5.0,21.6,57,44.7,43.1,3,10,3,0,2026-03-16T22:34:55.964198+05:30
Jammu,Jammu and Kashmir,32.7266,74.857,15.2,75,0.0,976.1,6.5,34.2,65,60.5,47.3,3,5,7,0,2026-03-16T22:34:55.964207+05:30
Amritsar,Punjab,31.634,74.8723,13.4,87,0.0,984.2,6.45,34.2,79,53.1,35.9,3,10,7,0,2026-03-16T22:34:55.964214+05:30
Ludhiana,Punjab,30.901,75.8573,13.9,73,0.0,981.7,6.15,42.8,81,37.4,23.6,3,5,7,0,2026-03-16T22:34:55.964221+05:30
Jalandhar,Punjab,31.326,75.5762,13.4,83,0.0,983.1,6.3,43.2,72,40.4,23.4,3,10,7,0,2026-03-16T22:34:55.964235+05:30
Dehradun,Uttarakhand,30.6284,78.0322,9.3,70,0.0,828.9,5.25,31.0,63,39.2,11.1,3,5,3,0,2026-03-16T22:34:55.964243+05:30
Shimla,Himachal Pradesh,31.1048,77.1734,7.2,58,0.0,781.3,4.4,35.6,80,37.0,11.8,0,5,3,1,2026-03-16T22:34:55.964250+05:30
Manali,Himachal Pradesh,32.2396,77.1887,6.1,68,0.0,815.5,5.2,43.2,85,21.2,8.1,3,5,3,0,2026-03-16T22:34:55.964258+05:30
Gurgaon,Haryana,28.4595,77.0266,20.4,70,0.0,982.6,6.2,45.7,1772,1333.7,179.3,3,5,7,0,2026-03-16T22:34:55.964266+05:30
Noida,Uttar Pradesh,28.5355,77.391,21.3,64,0.0,985.8,6.1,42.1,1772,1333.7,179.3,3,5,7,0,2026-03-16T22:34:55.964273+05:30
Ghaziabad,Uttar Pradesh,28.6692,77.4538,20.6,68,0.0,983.9,6.1,45.7,113,99.4,37.0,3,5,7,0,2026-03-16T22:34:55.964280+05:30
Faridabad,Haryana,28.4089,77.3178,21.3,61,0.0,985.0,6.15,41.0,1772,1333.7,179.3,3,5,7,0,2026-03-16T22:34:55.964305+05:30
Meerut,Uttar Pradesh,28.9845,77.7064,19.3,76,0.0,982.8,6.0,53.6,113,99.4,37.0,3,5,3,0,2026-03-16T22:34:55.964313+05:30
Agra,Uttar Pradesh,27.1767,78.0081,20.8,72,0.0,987.3,6.5,34.9,885,1173.5,137.4,3,5,7,0,2026-03-16T22:34:55.964321+05:30
Varanasi,Uttar Pradesh,25.3176,82.9739,23.5,74,0.0,998.3,7.35,29.9,149,65.2,52.9,3,5,7,1,2026-03-16T22:34:55.964333+05:30
Prayagraj,Uttar Pradesh,25.4358,81.8463,23.4,75,0.0,996.7,7.2,33.8,128,53.6,44.8,3,5,7,1,2026-03-16T22:34:55.964340+05:30
Gorakhpur,Uttar Pradesh,26.7606,83.3732,23.0,50,0.0,998.4,6.85,31.3,123,77.3,52.5,0,5,7,0,2026-03-16T22:34:55.964348+05:30
Bareilly,Uttar Pradesh,28.367,79.4304,20.8,71,0.0,988.1,6.3,60.8,95,99.0,58.7,3,5,7,0,2026-03-16T22:34:55.964358+05:30
Aligarh,Uttar Pradesh,27.8974,78.088,20.2,75,0.0,986.2,6.25,37.1,563,579.3,68.0,3,5,7,0,2026-03-16T22:34:55.964366+05:30
Moradabad,Uttar Pradesh,28.8386,78.7733,20.2,68,0.0,984.9,6.15,69.1,99,85.0,45.1,3,5,7,0,2026-03-16T22:34:55.964373+05:30
Saharanpur,Uttar Pradesh,29.9637,77.546,18.2,70,0.0,977.5,5.7,40.7,82,82.2,56.8,3,5,3,0,2026-03-16T22:34:55.964382+05:30
Jhansi,Uttar Pradesh,25.4484,78.5685,25.5,44,0.0,978.2,7.15,27.4,89,157.9,45.5,4,5,7,0,2026-03-16T22:34:59.185046+05:30
Surat,Gujarat,21.1702,72.8311,25.5,92,0.0,1007.9,7.35,28.1,99,52.0,31.7,7,5,4,1,2026-03-16T22:34:59.185081+05:30
Vadodara,Gujarat,22.3072,73.1812,26.1,70,0.0,1004.9,7.0,28.4,77,51.2,30.3,7,5,4,1,2026-03-16T22:34:59.185091+05:30
Rajkot,Gujarat,22.3039,70.8022,27.3,61,0.0,995.1,7.3,25.6,64,43.7,20.8,7,5,7,1,2026-03-16T22:34:59.185099+05:30
Thane,Maharashtra,19.2183,72.9781,25.8,86,0.0,1009.4,7.7,31.3,104,105.9,33.1,7,0,4,1,2026-03-16T22:34:59.185107+05:30
Nagpur,Maharashtra,21.1458,79.0882,27.1,44,0.0,973.2,7.95,20.5,105,46.8,38.9,4,5,7,0,2026-03-16T22:34:59.185115+05:30
Nashik,Maharashtra,19.9975,73.7898,22.4,69,0.0,946.4,7.9,26.6,79,67.5,26.8,3,5,7,1,2026-03-16T22:34:59.185122+05:30
Aurangabad,Maharashtra,19.8762,75.3433,25.7,38,0.0,944.7,8.45,28.8,68,26.8,17.9,4,5,7,0,2026-03-16T22:34:59.185130+05:30
Solapur,Maharashtra,17.6599,75.9064,26.2,47,0.0,957.0,8.65,26.6,99,47.5,43.2,4,5,7,0,2026-03-16T22:34:59.185139+05:30
Kolhapur,Maharashtra,16.705,74.2433,21.9,75,0.0,948.5,8.75,41.0,96,34.7,27.7,3,5,7,1,2026-03-16T22:34:59.185146+05:30
Goa,Goa,15.2993,74.124,27.9,76,0.0,999.6,8.75,33.1,90,51.3,28.3,7,5,7,1,2026-03-16T22:34:59.185154+05:30
Jodhpur,Rajasthan,26.2389,73.0243,25.3,23,0.0,982.0,7.2,34.2,105,98.0,23.3,4,5,7,0,2026-03-16T22:34:59.185162+05:30
Udaipur,Rajasthan,24.5854,73.7125,23.9,25,0.0,946.6,7.8,33.5,70,28.6,12.3,0,5,7,0,2026-03-16T22:34:59.185170+05:30
Kota,Rajasthan,25.2138,75.8648,25.5,29,0.0,977.8,7.2,23.0,68,92.0,46.0,4,5,7,0,2026-03-16T22:34:59.185177+05:30
Bikaner,Rajasthan,28.0229,73.3119,24.4,37,0.0,982.2,6.9,28.4,77,75.2,33.1,0,5,7,0,2026-03-16T22:34:59.185185+05:30
Ajmer,Rajasthan,26.4499,74.6399,26.6,22,0.0,953.9,7.15,32.4,63,55.8,23.7,4,5,7,0,2026-03-16T22:34:59.185192+05:30
Gwalior,Madhya Pradesh,26.2183,78.1828,24.3,56,0.0,982.9,6.8,31.0,102,93.1,39.5,0,5,7,0,2026-03-16T22:34:59.185199+05:30
Indore,Madhya Pradesh,22.7196,75.8577,23.8,44,0.0,948.3,7.75,33.1,62,41.9,29.6,0,5,7,0,2026-03-16T22:34:59.185206+05:30
Bhopal,Madhya Pradesh,23.2599,77.4126,25.6,38,0.0,953.8,7.65,32.4,51,32.4,22.6,4,5,7,0,2026-03-16T22:34:59.185213+05:30
Jabalpur,Madhya Pradesh,23.1815,79.9864,26.0,39,0.0,961.3,7.8,37.4,62,16.9,12.7,4,5,7,0,2026-03-16T22:34:59.185221+05:30
Ujjain,Madhya Pradesh,23.1765,75.7885,24.2,47,0.0,954.2,7.65,32.4,61,30.9,22.2,0,5,7,0,2026-03-16T22:34:59.185229+05:30
Visakhapatnam,Andhra Pradesh,17.6868,83.2185,24.7,82,0.0,1007.6,8.7,40.0,57,16.6,14.2,3,5,4,1,2026-03-16T22:34:59.185236+05:30
Vijayawada,Andhra Pradesh,16.5062,80.648,25.1,79,0.0,1005.6,8.75,26.6,46,14.3,13.1,7,5,4,1,2026-03-16T22:34:59.185243+05:30
Guntur,Andhra Pradesh,16.3067,80.4365,24.9,82,0.0,1006.7,8.75,28.4,43,12.7,11.6,3,5,4,1,2026-03-16T22:34:59.185251+05:30
Nellore,Andhra Pradesh,14.4426,79.9865,25.2,84,0.0,1008.7,8.95,32.4,47,6.9,5.0,7,0,4,1,2026-03-16T22:34:59.185259+05:30
Kurnool,Andhra Pradesh,15.8281,78.0373,28.3,55,0.0,978.0,8.8,26.3,93,31.4,27.9,4,5,7,1,2026-03-16T22:34:59.185266+05:30
Kakinada,Andhra Pradesh,16.9891,82.2475,23.5,86,0.0,1011.2,8.7,31.0,37,9.9,7.5,3,0,4,1,2026-03-16T22:34:59.185274+05:30
Tirupati,Andhra Pradesh,13.6288,79.4192,24.8,82,0.0,994.4,9.05,28.4,58,19.2,17.3,3,5,7,1,2026-03-16T22:34:59.185281+05:30
Warangal,Telangana,17.9689,79.5941,26.4,71,0.0,980.1,8.5,32.0,72,28.5,25.2,7,5,7,1,2026-03-16T22:34:59.185305+05:30
Nizamabad,Telangana,18.6725,78.0941,26.7,51,0.0,965.5,8.45,33.1,134,53.4,49.8,4,5,7,0,2026-03-16T22:34:59.185313+05:30
Mysore,Karnataka,12.2958,76.6396,23.2,77,0.0,929.7,9.35,33.5,130,45.5,42.6,3,5,7,1,2026-03-16T22:34:59.185320+05:30
Mangalore,Karnataka,12.9141,74.856,29.2,75,0.0,1008.1,9.0,23.8,102,46.0,35.4,7,0,4,1,2026-03-16T22:34:59.185327+05:30
Hubli-Dharwad,Karnataka,15.3647,75.124,23.7,80,0.0,942.1,8.95,44.6,116,39.5,33.5,3,5,7,1,2026-03-16T22:34:59.185334+05:30
Belgaum,Karnataka,15.8497,74.4977,22.2,85,0.0,926.6,9.0,37.1,84,34.6,23.7,3,5,7,1,2026-03-16T22:35:02.426811+05:30
Coimbatore,Tamil Nadu,11.0168,76.9558,24.5,81,0.0,963.6,9.3,40.0,91,43.3,41.4,3,5,7,1,2026-03-16T22:35:02.426843+05:30
Madurai,Tamil Nadu,9.9252,78.1198,26.0,79,0.0,995.6,9.25,22.3,54,11.8,10.9,7,5,7,1,2026-03-16T22:35:02.426854+05:30
Trichy,Tamil Nadu,10.7905,78.7047,26.5,83,0.0,1002.0,9.2,22.7,59,15.0,13.6,7,5,4,1,2026-03-16T22:35:02.426863+05:30
Salem,Tamil Nadu,11.6643,78.146,27.1,70,0.0,978.9,9.25,16.6,106,31.3,29.8,7,5,7,1,2026-03-16T22:35:02.426871+05:30
Tirunelveli,Tamil Nadu,8.7139,77.7567,26.3,78,0.0,1005.6,9.25,38.9,59,20.2,19.1,7,5,4,1,2026-03-16T22:35:02.426879+05:30
Vellore,Tamil Nadu,12.9165,79.1325,25.1,78,0.0,987.0,9.15,29.9,78,23.7,22.3,7,5,7,1,2026-03-16T22:35:02.426887+05:30
Erode,Tamil Nadu,11.341,77.7172,28.1,63,0.0,991.3,9.2,23.8,70,22.8,21.3,7,5,7,1,2026-03-16T22:35:02.426895+05:30
Kochi,Kerala,9.9312,76.2673,27.9,82,0.0,1010.6,9.1,32.0,80,31.9,30.4,7,0,4,1,2026-03-16T22:35:02.426902+05:30
Thiruvananthapuram,Kerala,8.5241,76.9366,28.1,80,0.0,1009.8,9.15,28.4,82,15.7,13.5,7,0,4,1,2026-03-16T22:35:02.426910+05:30
Kozhikode,Kerala,11.2588,75.7804,28.8,79,0.0,1009.3,9.0,31.7,77,34.3,29.0,7,0,4,1,2026-03-16T22:35:02.426917+05:30
Thrissur,Kerala,10.5276,76.2144,27.4,85,0.0,1008.8,9.05,35.6,80,35.7,33.6,7,0,4,1,2026-03-16T22:35:02.426925+05:30
Kannur,Kerala,11.8745,75.3704,28.8,77,0.0,1008.5,8.9,29.9,91,46.9,41.7,7,0,4,1,2026-03-16T22:35:02.426933+05:30
Patna,Bihar,25.5941,85.1376,26.6,64,0.0,1001.0,7.5,24.5,153,87.8,70.1,7,5,4,1,2026-03-16T22:35:02.426940+05:30
Gaya,Bihar,24.7914,85.0002,25.0,63,0.0,994.4,7.25,33.5,129,57.9,44.2,7,5,7,1,2026-03-16T22:35:02.426947+05:30
Muzaffarpur,Bihar,26.1209,85.3647,24.8,63,0.0,1001.3,7.5,21.6,157,92.9,72.2,3,5,4,1,2026-03-16T22:35:02.426954+05:30
Bhagalpur,Bihar,25.2425,87.0117,24.8,78,0.0,1002.2,7.55,31.7,154,62.9,52.0,3,5,4,1,2026-03-16T22:35:02.426961+05:30
Ranchi,Jharkhand,23.3441,85.3096,21.6,72,0.0,938.9,8.0,35.3,132,46.3,41.1,3,5,7,1,2026-03-16T22:35:02.426969+05:30
Jamshedpur,Jharkhand,22.8046,86.2029,21.4,82,0.0,994.0,8.0,39.6,141,64.3,56.0,3,5,7,1,2026-03-16T22:35:02.426977+05:30
Dhanbad,Jharkhand,23.7957,86.4304,23.0,73,0.0,981.4,7.6,35.6,159,93.6,82.2,3,5,7,1,2026-03-16T22:35:02.426984+05:30
Bokaro,Jharkhand,23.6693,86.1511,23.5,74,0.0,985.3,7.8,28.4,153,77.1,67.5,3,5,7,1,2026-03-16T22:35:02.426991+05:30
Bhubaneswar,Odisha,20.2961,85.8245,25.4,87,0.0,1005.4,8.5,37.4,73,17.3,14.9,7,5,4,1,2026-03-16T22:35:02.426999+05:30
Cuttack,Odisha,20.4625,85.8828,24.8,87,0.0,1007.3,8.5,39.6,73,17.3,14.9,3,5,4,1,2026-03-16T22:35:02.427006+05:30
Rourkela,Odisha,22.2604,84.8536,24.4,69,0.0,987.0,8.0,42.1,150,47.8,42.7,3,5,7,1,2026-03-16T22:35:02.427012+05:30
Raipur,Chhattisgarh,21.2514,81.6296,27.0,51,0.0,975.1,8.2,36.0,131,47.0,43.8,4,5,7,0,2026-03-16T22:35:02.427019+05:30
Bhilai,Chhattisgarh,21.1938,81.3509,26.1,54,0.0,975.3,8.2,34.2,126,50.2,46.8,4,5,7,1,2026-03-16T22:35:02.427026+05:30
Guwahati,Assam,26.1158,91.7086,23.2,82,0.0,1002.9,7.2,42.5,79,28.1,25.7,3,5,4,1,2026-03-16T22:35:02.427033+05:30
Agartala,Tripura,23.8315,91.2868,22.1,93,0.0,1009.2,5.55,31.7,69,30.0,26.3,3,0,0,1,2026-03-16T22:35:02.427041+05:30
Shillong,Meghalaya,25.5788,91.8933,13.1,94,0.0,855.5,7.85,74.2,52,13.3,11.8,3,10,7,0,2026-03-16T22:35:02.427048+05:30
Imphal,Manipur,24.817,93.9368,16.4,82,0.0,925.2,8.2,70.2,85,44.6,38.5,3,10,7,0,2026-03-16T22:35:02.427055+05:30
Aizawl,Mizoram,23.7271,92.7176,17.5,81,0.0,895.3,8.05,51.8,91,51.2,41.7,3,10,7,0,2026-03-16T22:35:02.427062+05:30
Kohima,Nagaland,25.6701,94.1077,15.1,70,0.0,855.2,7.9,110.5,71,34.3,28.3,3,5,7,0,2026-03-16T22:35:02.427070+05:30
Gangtok,Sikkim,27.3314,88.6138,10.7,76,0.0,835.7,7.85,18.7,78,41.0,25.7,3,5,7,0,2026-03-16T22:35:02.427077+05:30
Siliguri,West Bengal,26.7271,88.3953,19.2,82,0.0,995.8,7.5,27.0,121,64.3,47.5,3,10,7,0,2026-03-16T22:35:05.648695+05:30
Durgapur,West Bengal,23.5204,87.3119,23.7,79,0.0,997.1,7.75,41.4,153,68.2,59.8,3,5,7,1,2026-03-16T22:35:05.648731+05:30
Asansol,West Bengal,23.6739,86.9524,24.0,75,0.0,995.6,7.75,46.1,153,72.4,61.5,3,5,7,1,2026-03-16T22:35:05.648742+05:30
Pondicherry,Puducherry,11.9139,79.8145,25.2,90,0.0,1010.8,9.05,32.4,33,9.1,6.3,7,0,4,1,2026-03-16T22:35:05.648752+05:30
Port Blair,Andaman and Nicobar Islands,11.6234,92.7265,27.8,80,0.0,1009.5,9.0,20.2,66,14.5,12.3,7,0,4,1,2026-03-16T22:35:05.648762+05:30
Haridwar,Uttarakhand,29.9457,78.1642,18.1,66,0.0,976.2,5.85,51.8,66,40.4,30.6,3,5,3,0,2026-03-16T22:35:05.648772+05:30
Rishikesh,Uttarakhand,30.0869,78.2676,17.5,64,0.0,968.8,5.9,32.4,76,31.8,15.5,3,5,3,0,2026-03-16T22:35:05.648781+05:30
Nainital,Uttarakhand,29.3919,79.4542,15.4,50,0.0,805.7,6.75,68.8,62,36.6,24.3,0,5,7,0,2026-03-16T22:35:05.648790+05:30
Mussoorie,Uttarakhand,30.4599,78.0664,11.6,56,0.0,801.6,5.3,31.7,58,43.7,25.8,0,5,3,0,2026-03-16T22:35:05.648799+05:30
Dharamshala,Himachal Pradesh,32.219,76.3234,12.8,47,0.0,868.3,4.9,37.8,73,20.0,10.2,0,5,3,0,2026-03-16T22:35:05.648808+05:30
Dalhousie,Himachal Pradesh,32.5387,75.971,9.4,55,0.0,801.3,5.2,26.3,59,34.3,22.2,0,5,3,0,2026-03-16T22:35:05.648817+05:30
Patiala,Punjab,30.3398,76.3869,14.1,82,0.0,980.6,5.8,52.6,74,41.3,27.5,3,10,3,0,2026-03-16T22:35:05.648826+05:30
Bhatinda,Punjab,30.211,74.9455,15.2,78,0.0,986.9,6.55,36.0,86,49.1,29.8,3,5,7,0,2026-03-16T22:35:05.648834+05:30
Rohtak,Haryana,28.8955,76.6066,19.2,74,0.0,983.6,6.15,48.2,682,450.8,90.6,3,5,7,0,2026-03-16T22:35:05.648842+05:30
Panipat,Haryana,29.3909,76.9635,18.0,78,0.0,982.4,5.9,41.4,284,257.0,69.8,3,5,3,0,2026-03-16T22:35:05.648850+05:30
Mathura,Uttar Pradesh,27.4924,77.6737,20.3,67,0.0,986.9,6.4,34.2,983,1523.6,175.6,3,5,7,0,2026-03-16T22:35:05.648858+05:30
Vrindavan,Uttar Pradesh,27.5823,77.7027,20.6,68,0.0,987.6,6.35,37.1,983,1523.6,175.6,3,5,7,0,2026-03-16T22:35:05.648866+05:30
Ayodhya,Uttar Pradesh,26.7922,82.1998,23.2,54,0.0,996.5,6.75,33.1,102,77.8,53.0,0,5,7,0,2026-03-16T22:35:05.648874+05:30
Ratlam,Madhya Pradesh,23.3315,75.0367,26.7,45,0.0,954.9,7.55,34.2,69,28.3,18.5,4,5,7,0,2026-03-16T22:35:05.648882+05:30
Sagar,Madhya Pradesh,23.8388,78.7378,25.8,37,0.0,950.2,7.6,29.2,61,19.7,10.3,4,5,7,0,2026-03-16T22:35:05.648891+05:30
Satna,Madhya Pradesh,24.6005,80.8322,25.1,66,0.0,971.9,7.6,38.9,83,39.2,25.4,7,5,7,1,2026-03-16T22:35:05.648898+05:30
Akola,Maharashtra,20.7002,77.0082,27.8,37,0.0,975.2,8.1,23.4,85,42.4,28.1,4,5,7,0,2026-03-16T22:35:05.648907+05:30
Amravati,Maharashtra,20.9374,77.7796,26.6,43,0.0,966.9,8.05,31.0,83,43.8,31.0,4,5,7,0,2026-03-16T22:35:05.648915+05:30
Latur,Maharashtra,18.4088,76.5604,23.4,58,0.0,939.9,8.55,24.5,94,44.4,39.8,0,5,7,0,2026-03-16T22:35:05.648923+05:30
Nanded,Maharashtra,19.1383,77.3091,26.8,53,0.0,969.0,8.35,19.8,106,58.0,52.7,4,5,7,1,2026-03-16T22:35:05.648931+05:30
Gulbarga,Karnataka,17.3297,76.8343,26.8,50,0.0,959.6,8.65,31.0,140,42.7,38.8,4,5,7,0,2026-03-16T22:35:05.648939+05:30
Bidar,Karnataka,17.9104,77.5199,24.4,60,0.0,936.1,8.6,37.1,134,50.5,46.0,0,5,7,1,2026-03-16T22:35:05.648946+05:30
Hospet,Karnataka,15.2689,76.3909,25.7,69,0.0,957.5,8.9,36.0,154,46.4,42.4,7,5,7,1,2026-03-16T22:35:05.648953+05:30
Tirupur,Tamil Nadu,11.1085,77.3411,27.2,70,0.0,977.0,9.3,27.0,70,35.6,33.8,7,5,7,1,2026-03-16T22:35:05.648961+05:30
Alappuzha,Kerala,9.4981,76.3388,27.4,83,0.0,1010.8,9.1,30.2,79,29.7,27.4,7,0,4,1,2026-03-16T22:35:05.648968+05:30
Munnar,Kerala,10.0889,77.0595,20.1,92,0.0,858.0,9.6,33.1,73,30.5,29.2,3,5,7,1,2026-03-16T22:35:05.648976+05:30
Silchar,Assam,24.8333,92.7789,19.9,90,0.0,1009.4,7.85,48.6,68,29.7,25.4,3,5,4,1,2026-03-16T22:35:05.648983+05:30
Dibrugarh,Assam,27.4728,94.912,18.5,93,0.0,998.0,3.25,40.7,79,35.6,31.0,3,10,3,1,2026-03-16T22:35:05.648991+05:30
