city,state,latitude,longitude,temp,humidity,rain,pressure,uv_index,wind_gusts,aqi,pm10,pm2_5,no2,co,o3,so2,mosquito_risk,arthritis_risk,migraine_risk,frizz_risk,updated_at
Delhi,Delhi,28.6139,77.209,30.2,47,0.0,980.4,7.6,43.6,491,191.4,60.5,18.3,527.0,124.0,18.9,0,5,7,1,2026-05-03T21:21:23.559460+05:30
Mumbai,Maharashtra,19.076,72.8777,29.1,78,0.0,1007.4,7.85,41.0,69,35.5,17.3,11.4,247.0,63.0,17.6,7,5,4,1,2026-05-03T21:21:23.559510+05:30
Bangalore,Karnataka,12.9716,77.5946,27.4,49,0.0,911.0,7.85,29.2,75,87.3,57.0,102.7,1116.0,18.0,24.7,4,5,7,0,2026-05-03T21:21:23.559527+05:30
Hyderabad,Telangana,17.385,78.4867,34.5,23,0.0,951.8,9.25,33.8,70,69.8,44.0,57.5,603.0,42.0,17.8,0,5,7,0,2026-05-03T21:21:23.559538+05:30
Chennai,Tamil Nadu,13.0827,80.2707,30.8,80,0.0,1005.5,8.65,51.1,161,35.6,29.3,7.6,265.0,150.0,5.1,3,5,4,1,2026-05-03T21:21:23.559549+05:30
Kolkata,West Bengal,22.5726,88.3639,24.9,91,0.0,1006.0,8.95,42.8,162,79.2,66.1,23.6,648.0,87.0,21.9,3,5,4,1,2026-05-03T21:21:23.559563+05:30
Pune,Maharashtra,18.5204,73.8567,26.6,67,0.0,947.5,8.5,47.9,61,28.5,12.5,8.5,221.0,76.0,6.5,7,5,7,1,2026-05-03T21:21:23.559573+05:30
Ahmedabad,Gujarat,23.0225,72.5714,31.2,68,0.0,997.5,8.1,47.5,77,42.3,16.6,7.4,224.0,97.0,6.4,3,5,7,1,2026-05-03T21:21:23.559583+05:30
Jaipur,Rajasthan,26.9124,75.7873,29.5,40,0.0,955.8,8.15,43.2,114,90.1,35.3,33.6,410.0,64.0,8.0,4,5,7,0,2026-05-03T21:21:23.559592+05:30
Lucknow,Uttar Pradesh,26.8467,80.9462,28.3,61,0.0,992.3,8.1,36.4,158,49.2,38.6,9.6,346.0,132.0,11.3,7,5,7,1,2026-05-03T21:21:23.559601+05:30
Kanpur,Uttar Pradesh,26.4499,80.3319,28.6,56,0.0,990.0,8.1,38.2,168,333.4,58.7,8.8,337.0,135.0,10.8,4,5,7,1,2026-05-03T21:21:23.559610+05:30
Chandigarh,Chandigarh,30.7333,76.7794,25.5,51,0.0,966.7,7.6,62.3,152,146.7,44.2,17.5,606.0,114.0,10.4,4,5,7,0,2026-05-03T21:21:23.559619+05:30
Srinagar,Jammu and Kashmir,34.0837,74.7973,11.5,94,0.0,840.7,8.75,38.9,77,28.6,18.2,14.5,1116.0,99.0,4.1,3,10,7,0,2026-05-03T21:21:23.559629+05:30
Jammu,Jammu and Kashmir,32.7266,74.857,24.5,55,0.0,971.0,8.25,32.4,143,39.3,23.7,11.6,303.0,125.0,5.4,0,5,7,0,2026-05-03T21:21:23.559637+05:30
Amritsar,Punjab,31.634,74.8723,24.5,60,0.0,978.5,8.1,51.5,158,138.3,43.3,4.0,397.0,147.0,8.1,0,5,7,0,2026-05-03T21:21:23.559644+05:30
Ludhiana,Punjab,30.901,75.8573,27.1,44,0.0,976.2,7.85,47.9,179,421.9,83.1,9.2,547.0,130.0,9.2,4,5,7,0,2026-05-03T21:21:23.559654+05:30
Jalandhar,Punjab,31.326,75.5762,26.0,51,0.0,977.6,8.05,49.7,158,360.4,70.1,8.8,493.0,137.0,8.5,4,5,7,0,2026-05-03T21:21:23.559661+05:30
Dehradun,Uttarakhand,30.6284,78.0322,14.2,82,0.0,828.9,7.45,42.5,110,63.6,29.6,22.9,316.0,97.0,2.6,3,10,7,0,2026-05-03T21:21:23.559672+05:30
Shimla,Himachal Pradesh,31.1048,77.1734,10.7,75,0.0,781.8,7.65,42.1,139,96.4,32.2,17.9,385.0,130.0,11.0,3,5,7,0,2026-05-03T21:21:23.559678+05:30
Manali,Himachal Pradesh,32.2396,77.1887,9.1,77,0.1,815.0,9.7,40.7,128,14.2,8.1,15.9,256.0,132.0,0.7,6,5,7,0,2026-05-03T21:21:23.559686+05:30
Gurgaon,Haryana,28.4595,77.0266,29.4,47,0.0,978.6,7.7,45.7,1446,1132.5,159.7,19.8,613.0,122.0,20.2,4,5,7,1,2026-05-03T21:21:23.559693+05:30
Noida,Uttar Pradesh,28.5355,77.391,27.5,58,0.0,982.0,7.6,45.4,1446,1132.5,159.7,19.8,532.0,122.0,20.2,4,5,7,1,2026-05-03T21:21:23.559700+05:30
Ghaziabad,Uttar Pradesh,28.6692,77.4538,28.0,56,0.0,980.2,7.6,50.4,313,278.5,60.1,7.5,402.0,137.0,12.3,4,5,7,1,2026-05-03T21:21:23.559706+05:30
Faridabad,Haryana,28.4089,77.3178,28.6,53,0.0,981.2,7.65,49.0,1446,1132.5,159.7,19.8,558.0,122.0,20.2,4,5,7,1,2026-05-03T21:21:23.559713+05:30
Meerut,Uttar Pradesh,28.9845,77.7064,26.2,66,0.0,979.3,7.45,47.5,313,278.5,60.1,7.5,463.0,137.0,12.3,7,5,7,1,2026-05-03T21:21:23.559720+05:30
Agra,Uttar Pradesh,27.1767,78.0081,29.3,51,0.0,984.3,7.95,69.8,804,342.7,71.5,23.9,363.0,93.0,17.6,4,5,7,1,2026-05-03T21:21:23.559727+05:30
Varanasi,Uttar Pradesh,25.3176,82.9739,29.3,57,0.0,996.5,8.65,36.4,201,72.2,61.5,13.3,454.0,159.0,22.6,4,5,7,1,2026-05-03T21:21:23.559734+05:30
Prayagraj,Uttar Pradesh,25.4358,81.8463,29.3,57,0.0,994.4,8.5,36.0,194,58.2,49.4,11.8,433.0,144.0,14.7,4,5,7,1,2026-05-03T21:21:23.559743+05:30
Gorakhpur,Uttar Pradesh,26.7606,83.3732,25.1,73,0.0,997.8,7.95,37.8,155,46.2,35.5,7.8,393.0,137.0,5.7,7,5,7,1,2026-05-03T21:21:23.559750+05:30
Bareilly,Uttar Pradesh,28.367,79.4304,27.4,58,0.0,985.6,7.9,42.1,162,137.4,44.9,10.8,348.0,120.0,12.1,4,5,7,1,2026-05-03T21:21:23.559757+05:30
Aligarh,Uttar Pradesh,27.8974,78.088,27.7,58,0.0,982.6,7.75,50.4,752,1139.9,133.2,6.3,384.0,138.0,10.7,4,5,7,1,2026-05-03T21:21:23.559764+05:30
Moradabad,Uttar Pradesh,28.8386,78.7733,26.8,61,0.0,982.0,7.7,46.8,159,130.9,51.1,15.5,392.0,114.0,13.5,7,5,7,1,2026-05-03T21:21:23.559770+05:30
Saharanpur,Uttar Pradesh,29.9637,77.546,25.2,72,0.0,974.2,7.3,45.4,150,124.3,51.7,19.0,516.0,107.0,14.3,7,5,7,1,2026-05-03T21:21:23.559776+05:30
Jhansi,Uttar Pradesh,25.4484,78.5685,31.6,37,0.0,974.5,8.4,29.5,129,68.9,28.9,5.6,291.0,112.0,15.8,0,5,7,0,2026-05-03T21:21:26.840565+05:30
Surat,Gujarat,21.1702,72.8311,29.1,81,0.0,1003.7,7.7,55.8,61,23.8,15.0,15.9,232.0,60.0,26.7,7,5,4,1,2026-05-03T21:21:26.840604+05:30
Vadodara,Gujarat,22.3072,73.1812,29.8,71,0.0,1000.0,8.05,51.8,63,19.4,13.0,12.9,266.0,68.0,18.4,7,5,4,1,2026-05-03T21:21:26.840616+05:30
Rajkot,Gujarat,22.3039,70.8022,31.8,50,0.0,989.9,7.7,51.1,58,31.0,13.5,4.9,170.0,85.0,6.7,0,5,7,1,2026-05-03T21:21:26.840625+05:30
Thane,Maharashtra,19.2183,72.9781,29.0,78,0.0,1006.6,7.9,39.6,69,35.5,17.3,11.4,272.0,63.0,17.6,7,5,4,1,2026-05-03T21:21:26.840633+05:30
Nagpur,Maharashtra,21.1458,79.0882,35.2,19,0.0,969.6,8.9,37.1,83,85.7,32.2,20.8,411.0,75.0,14.6,0,5,10,0,2026-05-03T21:21:26.840642+05:30
Nashik,Maharashtra,19.9975,73.7898,25.8,68,0.0,944.3,8.15,49.0,63,23.6,11.7,6.6,199.0,76.0,6.7,7,5,7,1,2026-05-03T21:21:26.840649+05:30
Aurangabad,Maharashtra,19.8762,75.3433,31.7,23,0.0,942.7,9.05,50.8,68,28.3,12.3,4.4,179.0,100.0,5.3,0,5,7,0,2026-05-03T21:21:26.840657+05:30
Solapur,Maharashtra,17.6599,75.9064,33.5,19,0.0,954.8,9.1,40.7,60,39.5,17.2,9.1,200.0,83.0,3.0,0,5,7,0,2026-05-03T21:21:26.840665+05:30
Kolhapur,Maharashtra,16.705,74.2433,25.0,80,0.0,947.3,8.95,47.2,62,32.6,16.0,8.6,196.0,71.0,3.1,7,5,7,1,2026-05-03T21:21:26.840672+05:30
Goa,Goa,15.2993,74.124,29.1,74,0.0,998.3,8.9,36.7,67,47.7,17.0,4.3,190.0,62.0,1.3,7,5,7,1,2026-05-03T21:21:26.840680+05:30
Jodhpur,Rajasthan,26.2389,73.0243,30.2,44,0.0,977.4,8.3,69.8,119,255.2,39.0,4.6,525.0,110.0,3.6,0,5,7,1,2026-05-03T21:21:26.840687+05:30
Udaipur,Rajasthan,24.5854,73.7125,29.1,36,0.0,942.0,8.8,39.2,87,30.7,13.0,2.9,190.0,110.0,3.5,4,5,7,0,2026-05-03T21:21:26.840694+05:30
Kota,Rajasthan,25.2138,75.8648,33.4,26,0.0,974.3,8.35,37.8,85,50.5,21.7,8.3,230.0,87.0,4.5,0,5,7,0,2026-05-03T21:21:26.840702+05:30
Bikaner,Rajasthan,28.0229,73.3119,33.3,24,0.0,976.9,8.25,44.3,95,90.1,25.8,3.1,183.0,105.0,4.7,0,5,7,0,2026-05-03T21:21:26.840709+05:30
Ajmer,Rajasthan,26.4499,74.6399,32.1,25,0.0,950.7,8.3,45.4,87,55.1,20.3,9.1,218.0,88.0,4.2,0,5,7,0,2026-05-03T21:21:26.840717+05:30
Gwalior,Madhya Pradesh,26.2183,78.1828,32.0,35,0.0,979.6,8.15,42.8,99,69.6,26.1,7.3,280.0,94.0,6.1,0,5,7,0,2026-05-03T21:21:26.840724+05:30
Indore,Madhya Pradesh,22.7196,75.8577,32.3,25,0.0,945.3,8.7,41.8,81,16.5,13.0,7.5,268.0,106.0,6.3,0,5,7,0,2026-05-03T21:21:26.840730+05:30
Bhopal,Madhya Pradesh,23.2599,77.4126,32.8,20,0.0,950.1,8.65,32.4,69,66.6,24.4,10.1,496.0,77.0,4.2,0,5,7,0,2026-05-03T21:21:26.840737+05:30
Jabalpur,Madhya Pradesh,23.1815,79.9864,32.0,18,0.0,957.9,8.85,29.2,74,71.5,27.4,19.1,306.0,74.0,5.9,0,5,7,0,2026-05-03T21:21:26.840743+05:30
Ujjain,Madhya Pradesh,23.1765,75.7885,32.5,26,0.0,950.6,8.6,42.5,82,17.5,13.3,4.0,214.0,108.0,4.9,0,5,7,0,2026-05-03T21:21:26.840750+05:30
Visakhapatnam,Andhra Pradesh,17.6868,83.2185,28.2,91,0.0,1002.9,9.15,47.5,66,30.3,24.1,23.3,329.0,75.0,5.3,7,5,4,1,2026-05-03T21:21:26.840757+05:30
Vijayawada,Andhra Pradesh,16.5062,80.648,30.7,74,0.0,1000.8,9.15,29.2,160,35.2,30.0,6.3,401.0,142.0,7.3,3,5,4,1,2026-05-03T21:21:26.840763+05:30
Guntur,Andhra Pradesh,16.3067,80.4365,32.0,64,0.0,1002.0,9.2,34.6,131,48.1,38.9,14.7,308.0,112.0,9.2,3,5,4,1,2026-05-03T21:21:26.840770+05:30
Nellore,Andhra Pradesh,14.4426,79.9865,31.0,68,0.0,1003.5,9.2,37.1,158,33.1,29.1,5.2,264.0,157.0,7.2,3,5,4,1,2026-05-03T21:21:26.840777+05:30
Kurnool,Andhra Pradesh,15.8281,78.0373,34.2,25,0.0,974.0,9.15,41.4,89,60.3,31.5,19.4,402.0,86.0,8.4,0,5,7,0,2026-05-03T21:21:26.840784+05:30
Kakinada,Andhra Pradesh,16.9891,82.2475,29.0,87,0.0,1006.3,9.15,33.1,60,31.1,22.4,2.2,394.0,110.0,2.7,7,5,4,1,2026-05-03T21:21:26.840791+05:30
Tirupati,Andhra Pradesh,13.6288,79.4192,31.6,48,0.0,989.4,7.25,27.4,105,31.4,23.2,13.9,367.0,116.0,6.8,0,5,7,1,2026-05-03T21:21:26.840797+05:30
Warangal,Telangana,17.9689,79.5941,31.5,50,0.0,976.1,9.15,38.9,99,79.6,47.6,27.0,366.0,80.0,15.0,0,5,7,1,2026-05-03T21:21:26.840804+05:30
Nizamabad,Telangana,18.6725,78.0941,31.5,24,0.0,961.2,9.1,44.6,72,100.8,37.5,19.5,371.0,79.0,6.1,0,5,7,0,2026-05-03T21:21:26.840810+05:30
Mysore,Karnataka,12.2958,76.6396,25.5,75,0.0,928.7,8.95,36.7,74,36.1,20.4,15.4,226.0,81.0,3.2,7,5,7,1,2026-05-03T21:21:26.840817+05:30
Mangalore,Karnataka,12.9141,74.856,29.5,70,0.0,1007.0,9.0,42.8,69,53.2,16.6,3.0,168.0,65.0,1.5,7,5,4,1,2026-05-03T21:21:26.840824+05:30
Hubli-Dharwad,Karnataka,15.3647,75.124,25.8,76,0.0,940.3,9.15,44.6,58,27.5,13.6,6.3,191.0,70.0,1.8,7,5,7,1,2026-05-03T21:21:26.840830+05:30
Belgaum,Karnataka,15.8497,74.4977,23.2,88,0.0,925.3,9.15,45.0,59,27.9,14.1,8.5,180.0,57.0,2.6,3,5,7,1,2026-05-03T21:21:30.128223+05:30
Coimbatore,Tamil Nadu,11.0168,76.9558,27.3,70,0.0,961.7,9.25,49.0,64,27.5,18.9,9.5,207.0,68.0,3.6,7,5,7,1,2026-05-03T21:21:30.128260+05:30
Madurai,Tamil Nadu,9.9252,78.1198,31.6,54,0.0,992.6,8.9,33.1,132,28.9,24.4,14.6,346.0,96.0,4.9,0,5,7,1,2026-05-03T21:21:30.128272+05:30
Trichy,Tamil Nadu,10.7905,78.7047,31.5,50,0.0,998.9,9.2,40.0,128,27.9,24.5,8.9,273.0,114.0,3.6,0,5,7,1,2026-05-03T21:21:30.128280+05:30
Salem,Tamil Nadu,11.6643,78.146,32.0,49,0.0,976.6,9.25,42.1,155,38.1,30.6,20.8,365.0,108.0,12.9,0,5,7,1,2026-05-03T21:21:30.128289+05:30
Tirunelveli,Tamil Nadu,8.7139,77.7567,31.7,57,0.0,1003.2,8.15,36.0,73,21.7,18.3,6.7,254.0,75.0,2.2,0,5,4,1,2026-05-03T21:21:30.128297+05:30
Vellore,Tamil Nadu,12.9165,79.1325,33.3,40,0.0,983.0,9.3,38.9,102,36.6,30.3,12.0,260.0,120.0,5.8,0,5,7,1,2026-05-03T21:21:30.128304+05:30
Erode,Tamil Nadu,11.341,77.7172,30.6,59,0.0,988.4,9.25,46.1,103,26.8,20.7,11.7,242.0,83.0,2.8,0,5,7,1,2026-05-03T21:21:30.128312+05:30
Kochi,Kerala,9.9312,76.2673,28.2,88,0.0,1009.7,9.05,32.0,95,56.5,42.4,43.6,313.0,18.0,7.9,7,0,4,1,2026-05-03T21:21:30.128319+05:30
Thiruvananthapuram,Kerala,8.5241,76.9366,26.9,88,0.0,1009.5,8.65,36.0,56,26.0,16.6,2.5,257.0,71.0,1.0,7,0,4,1,2026-05-03T21:21:30.128326+05:30
Kozhikode,Kerala,11.2588,75.7804,28.6,79,0.0,1008.6,9.0,42.1,65,64.7,19.2,1.5,195.0,71.0,0.7,7,0,4,1,2026-05-03T21:21:30.128334+05:30
Thrissur,Kerala,10.5276,76.2144,27.6,80,0.0,1008.1,8.75,36.7,94,52.0,33.2,20.9,347.0,45.0,3.8,7,0,4,1,2026-05-03T21:21:30.128341+05:30
Kannur,Kerala,11.8745,75.3704,29.8,68,0.0,1007.9,9.0,46.8,66,55.4,17.4,3.0,190.0,64.0,0.9,7,5,4,1,2026-05-03T21:21:30.128348+05:30
Patna,Bihar,25.5941,85.1376,25.9,79,0.0,1000.9,8.55,41.8,183,62.4,54.1,11.9,495.0,141.0,10.8,7,5,4,1,2026-05-03T21:21:30.128355+05:30
Gaya,Bihar,24.7914,85.0002,27.3,69,0.0,993.6,8.7,41.0,201,69.4,59.5,8.2,374.0,156.0,9.7,7,5,7,1,2026-05-03T21:21:30.128362+05:30
Muzaffarpur,Bihar,26.1209,85.3647,25.2,76,0.0,1001.4,8.7,41.4,146,53.6,45.6,15.1,417.0,112.0,9.3,7,5,4,1,2026-05-03T21:21:30.128368+05:30
Bhagalpur,Bihar,25.2425,87.0117,23.9,88,0.0,1002.5,8.65,41.8,155,61.0,48.9,13.7,362.0,112.0,9.4,3,5,4,1,2026-05-03T21:21:30.128374+05:30
Ranchi,Jharkhand,23.3441,85.3096,23.5,74,0.0,937.2,9.25,29.2,114,51.7,34.9,11.9,531.0,118.0,18.8,3,5,7,1,2026-05-03T21:21:30.128381+05:30
Jamshedpur,Jharkhand,22.8046,86.2029,26.1,74,0.0,990.5,9.05,38.5,200,53.2,39.1,7.4,355.0,126.0,13.4,7,5,7,1,2026-05-03T21:21:30.128388+05:30
Dhanbad,Jharkhand,23.7957,86.4304,24.5,84,0.0,979.9,9.0,30.2,198,76.1,66.8,36.3,610.0,111.0,72.4,3,5,7,1,2026-05-03T21:21:30.128395+05:30
Bokaro,Jharkhand,23.6693,86.1511,23.9,87,0.0,983.7,9.0,39.2,220,83.6,72.9,37.2,603.0,131.0,86.9,3,5,7,1,2026-05-03T21:21:30.128402+05:30
Bhubaneswar,Odisha,20.2961,85.8245,26.5,93,0.0,1002.3,9.1,41.4,91,21.4,18.6,7.7,256.0,82.0,4.9,7,5,4,1,2026-05-03T21:21:30.128408+05:30
Cuttack,Odisha,20.4625,85.8828,26.8,89,0.0,1004.0,9.15,41.0,91,21.4,18.6,7.7,315.0,82.0,4.9,7,5,4,1,2026-05-03T21:21:30.128415+05:30
Rourkela,Odisha,22.2604,84.8536,28.3,64,0.0,983.5,8.95,38.5,149,90.8,57.6,31.6,398.0,93.0,33.7,7,5,7,1,2026-05-03T21:21:30.128421+05:30
Raipur,Chhattisgarh,21.2514,81.6296,33.9,22,0.0,971.8,9.0,32.4,144,90.6,64.3,47.3,587.0,69.0,15.4,0,5,7,0,2026-05-03T21:21:30.128427+05:30
Bhilai,Chhattisgarh,21.1938,81.3509,32.5,24,0.0,971.9,9.0,35.6,108,74.3,45.6,39.1,937.0,65.0,10.8,0,5,7,0,2026-05-03T21:21:30.128434+05:30
Guwahati,Assam,26.1158,91.7086,21.4,96,0.3,1004.5,7.2,19.1,59,19.0,17.1,10.0,380.0,63.0,2.0,6,5,4,1,2026-05-03T21:21:30.128440+05:30
Agartala,Tripura,23.8315,91.2868,21.7,96,0.0,1009.3,8.7,36.7,61,25.0,21.8,17.1,217.0,63.0,2.6,3,0,4,1,2026-05-03T21:21:30.128447+05:30
Shillong,Meghalaya,25.5788,91.8933,14.0,93,0.0,857.1,6.5,24.8,54,17.8,15.1,13.5,483.0,66.0,1.7,3,10,7,0,2026-05-03T21:21:30.128453+05:30
Imphal,Manipur,24.817,93.9368,18.3,97,0.0,925.5,9.15,37.8,63,43.9,33.3,25.1,719.0,46.0,5.5,3,10,7,1,2026-05-03T21:21:30.128459+05:30
Aizawl,Mizoram,23.7271,92.7176,17.1,93,0.0,893.6,8.5,55.1,41,16.9,13.2,8.5,282.0,45.0,0.7,3,10,7,0,2026-05-03T21:21:30.128466+05:30
Kohima,Nagaland,25.6701,94.1077,14.0,92,0.0,855.5,4.25,24.8,45,10.4,8.4,8.3,336.0,65.0,0.9,3,10,3,0,2026-05-03T21:21:30.128472+05:30
Gangtok,Sikkim,27.3314,88.6138,12.8,99,0.0,837.6,7.95,42.1,85,11.7,10.7,7.8,431.0,117.0,1.6,3,10,7,0,2026-05-03T21:21:30.128478+05:30
Siliguri,West Bengal,26.7271,88.3953,22.6,81,0.0,995.3,8.15,28.1,94,26.0,23.4,15.5,381.0,106.0,4.0,3,5,7,1,2026-05-03T21:21:33.437418+05:30
Durgapur,West Bengal,23.5204,87.3119,24.0,93,0.0,995.4,8.9,32.8,142,65.7,57.7,25.1,400.0,96.0,30.7,3,5,7,1,2026-05-03T21:21:33.437454+05:30
Asansol,West Bengal,23.6739,86.9524,24.1,89,0.0,994.0,8.95,29.2,161,70.1,61.9,30.4,468.0,104.0,52.3,3,5,7,1,2026-05-03T21:21:33.437466+05:30
Pondicherry,Puducherry,11.9139,79.8145,30.6,82,0.0,1006.8,8.55,44.3,174,28.1,21.4,4.4,210.0,122.0,1.6,3,5,4,1,2026-05-03T21:21:33.437476+05:30
Port Blair,Andaman and Nicobar Islands,11.6234,92.7265,28.0,84,0.0,1009.2,8.9,25.6,27,5.2,3.7,0.7,349.0,54.0,0.3,7,0,4,1,2026-05-03T21:21:33.437485+05:30
Haridwar,Uttarakhand,29.9457,78.1642,24.3,72,0.0,972.8,7.35,40.0,137,122.5,47.7,14.4,418.0,112.0,10.4,3,5,7,1,2026-05-03T21:21:33.437493+05:30
Rishikesh,Uttarakhand,30.0869,78.2676,23.1,72,0.0,965.6,7.45,37.4,138,144.4,42.6,10.4,466.0,122.0,6.9,3,5,7,1,2026-05-03T21:21:33.437501+05:30
Nainital,Uttarakhand,29.3919,79.4542,11.3,99,0.0,802.9,8.4,34.9,136,91.5,36.1,5.8,390.0,122.0,3.8,3,10,7,0,2026-05-03T21:21:33.437509+05:30
Mussoorie,Uttarakhand,30.4599,78.0664,11.9,87,0.0,800.7,7.3,53.3,134,136.9,46.4,24.2,393.0,105.0,12.8,3,10,7,0,2026-05-03T21:21:33.437516+05:30
Dharamshala,Himachal Pradesh,32.219,76.3234,16.7,71,0.1,866.9,6.85,41.4,122,49.6,22.5,11.2,234.0,125.0,4.0,6,5,7,0,2026-05-03T21:21:33.437524+05:30
Dalhousie,Himachal Pradesh,32.5387,75.971,9.7,97,0.0,801.8,7.95,48.2,133,58.9,27.4,22.6,273.0,118.0,5.0,3,10,7,0,2026-05-03T21:21:33.437532+05:30
Patiala,Punjab,30.3398,76.3869,28.3,51,0.0,975.5,7.5,63.0,763,832.6,122.9,9.8,391.0,124.0,10.8,4,5,7,1,2026-05-03T21:21:33.437540+05:30
Bhatinda,Punjab,30.211,74.9455,26.0,57,0.0,980.4,8.15,56.5,374,637.0,114.3,5.1,331.0,146.0,12.5,4,5,7,1,2026-05-03T21:21:33.437548+05:30
Rohtak,Haryana,28.8955,76.6066,28.5,53,0.0,979.4,7.65,52.6,759,597.9,88.9,11.3,503.0,145.0,17.8,4,5,7,1,2026-05-03T21:21:33.437555+05:30
Panipat,Haryana,29.3909,76.9635,27.4,62,0.0,977.7,7.45,54.0,1254,614.7,95.0,8.6,486.0,137.0,11.6,7,5,7,1,2026-05-03T21:21:33.437562+05:30
Mathura,Uttar Pradesh,27.4924,77.6737,28.2,54,0.0,983.3,7.9,60.8,872,1393.3,157.4,13.5,338.0,105.0,9.2,4,5,7,1,2026-05-03T21:21:33.437569+05:30
Vrindavan,Uttar Pradesh,27.5823,77.7027,27.7,58,0.0,983.8,7.9,59.4,872,1393.3,157.4,13.5,368.0,105.0,9.2,4,5,7,1,2026-05-03T21:21:33.437576+05:30
Ayodhya,Uttar Pradesh,26.7922,82.1998,26.5,62,0.0,995.1,8.25,40.7,157,49.9,39.1,9.8,320.0,130.0,5.8,7,5,7,1,2026-05-03T21:21:33.437583+05:30
Ratlam,Madhya Pradesh,23.3315,75.0367,30.4,31,0.0,951.3,8.5,47.2,91,16.1,11.0,2.1,185.0,115.0,4.7,0,5,7,0,2026-05-03T21:21:33.437589+05:30
Sagar,Madhya Pradesh,23.8388,78.7378,29.7,35,0.0,946.9,8.7,39.6,70,63.3,22.6,3.8,218.0,95.0,3.0,4,5,7,0,2026-05-03T21:21:33.437596+05:30
Satna,Madhya Pradesh,24.6005,80.8322,29.6,47,0.0,968.8,8.7,27.7,112,49.1,24.5,9.4,254.0,107.0,5.7,4,5,7,1,2026-05-03T21:21:33.437603+05:30
Akola,Maharashtra,20.7002,77.0082,34.2,15,0.0,971.5,8.85,41.4,72,32.0,13.9,7.2,199.0,100.0,9.5,0,5,7,0,2026-05-03T21:21:33.437610+05:30
Amravati,Maharashtra,20.9374,77.7796,33.9,14,0.0,964.0,8.85,42.1,71,34.0,14.1,7.6,208.0,99.0,9.4,0,5,7,0,2026-05-03T21:21:33.437618+05:30
Latur,Maharashtra,18.4088,76.5604,32.8,16,0.0,937.6,9.05,40.0,63,51.3,22.0,13.2,385.0,75.0,6.1,0,5,7,0,2026-05-03T21:21:33.437625+05:30
Nanded,Maharashtra,19.1383,77.3091,33.2,17,0.0,965.1,9.0,36.0,62,50.6,21.1,13.3,294.0,75.0,3.5,0,5,7,0,2026-05-03T21:21:33.437631+05:30
Gulbarga,Karnataka,17.3297,76.8343,33.7,14,0.0,955.8,9.1,41.4,67,68.7,25.8,24.7,227.0,63.0,4.6,0,5,7,0,2026-05-03T21:21:33.437637+05:30
Bidar,Karnataka,17.9104,77.5199,31.0,26,0.0,933.4,9.15,37.4,70,72.6,31.7,22.3,477.0,67.0,5.4,0,5,7,0,2026-05-03T21:21:33.437643+05:30
Hospet,Karnataka,15.2689,76.3909,30.0,44,0.0,954.5,9.2,36.7,64,66.6,34.9,38.8,248.0,55.0,5.1,4,5,7,1,2026-05-03T21:21:33.437650+05:30
Tirupur,Tamil Nadu,11.1085,77.3411,28.5,66,0.0,974.8,9.35,51.8,81,26.8,19.6,13.0,208.0,76.0,4.5,7,5,7,1,2026-05-03T21:21:33.437656+05:30
Alappuzha,Kerala,9.4981,76.3388,28.2,86,0.0,1009.8,9.0,36.0,83,47.7,30.0,19.3,131.0,54.0,3.9,7,0,4,1,2026-05-03T21:21:33.437664+05:30
Munnar,Kerala,10.0889,77.0595,17.2,98,0.0,857.5,9.3,28.1,68,26.5,20.6,8.0,327.0,76.0,1.8,3,10,7,1,2026-05-03T21:21:33.437671+05:30
Silchar,Assam,24.8333,92.7789,21.0,99,0.0,1008.8,8.35,36.4,56,40.3,27.1,9.5,313.0,83.0,5.8,3,0,4,1,2026-05-03T21:21:33.437677+05:30
Dibrugarh,Assam,27.4728,94.912,22.6,88,0.0,999.1,8.2,21.6,60,22.1,21.6,17.2,593.0,38.0,2.1,3,5,7,1,2026-05-03T21:21:33.437683+05:30
