city,state,latitude,longitude,temp,humidity,rain,pressure,uv_index,wind_gusts,aqi,pm10,pm2_5,mosquito_risk,arthritis_risk,migraine_risk,frizz_risk,updated_at
Delhi,Delhi,28.6139,77.209,23.0,72,0.0,980.7,6.3,36.7,198,318.5,84.8,3,5,7,1,2026-03-30T04:05:03.285742+05:30
Mumbai,Maharashtra,19.076,72.8777,27.3,86,0.0,1006.8,8.0,22.7,55,26.0,12.1,7,5,4,1,2026-03-30T04:05:03.285776+05:30
Bangalore,Karnataka,12.9716,77.5946,22.6,81,0.0,910.2,9.45,32.0,130,70.5,62.6,3,5,7,1,2026-03-30T04:05:03.285791+05:30
Hyderabad,Telangana,17.385,78.4867,26.3,62,0.0,950.7,8.3,28.1,86,56.5,47.8,7,5,7,1,2026-03-30T04:05:03.285800+05:30
Chennai,Tamil Nadu,13.0827,80.2707,26.5,91,0.0,1005.7,9.3,30.2,57,18.9,13.5,7,5,4,1,2026-03-30T04:05:03.285807+05:30
Kolkata,West Bengal,22.5726,88.3639,25.2,94,0.0,1005.9,8.5,27.4,118,40.3,34.7,7,5,4,1,2026-03-30T04:05:03.285814+05:30
Pune,Maharashtra,18.5204,73.8567,21.7,100,0.0,946.2,8.55,38.5,70,36.1,29.8,3,5,7,1,2026-03-30T04:05:03.285826+05:30
Ahmedabad,Gujarat,23.0225,72.5714,26.1,72,0.0,1001.0,8.0,24.8,50,37.7,17.4,7,5,4,1,2026-03-30T04:05:03.285832+05:30
Jaipur,Rajasthan,26.9124,75.7873,23.8,52,0.0,957.8,5.2,39.2,103,85.7,19.4,0,5,3,0,2026-03-30T04:05:03.285838+05:30
Lucknow,Uttar Pradesh,26.8467,80.9462,23.4,64,0.0,991.7,7.3,20.5,114,82.0,44.7,3,5,7,1,2026-03-30T04:05:03.285845+05:30
Kanpur,Uttar Pradesh,26.4499,80.3319,22.4,70,0.0,989.7,7.3,17.6,102,72.6,33.3,3,5,7,1,2026-03-30T04:05:03.285850+05:30
Chandigarh,Chandigarh,30.7333,76.7794,20.3,81,0.0,966.7,5.85,21.2,86,29.9,22.2,3,5,3,1,2026-03-30T04:05:03.285857+05:30
Srinagar,Jammu and Kashmir,34.0837,74.7973,9.7,81,0.0,839.2,6.25,25.9,78,43.4,38.3,3,10,7,0,2026-03-30T04:05:03.285863+05:30
Jammu,Jammu and Kashmir,32.7266,74.857,20.0,77,0.0,970.9,5.45,44.6,82,19.8,18.4,3,5,3,0,2026-03-30T04:05:03.285869+05:30
Amritsar,Punjab,31.634,74.8723,19.6,81,0.0,979.0,5.05,41.8,91,46.0,33.2,3,10,3,1,2026-03-30T04:05:03.285875+05:30
Ludhiana,Punjab,30.901,75.8573,21.3,82,0.0,977.1,5.5,42.5,125,66.4,50.3,3,5,3,1,2026-03-30T04:05:03.285881+05:30
Jalandhar,Punjab,31.326,75.5762,20.5,79,0.0,978.2,4.9,42.5,107,71.7,45.3,3,5,3,1,2026-03-30T04:05:03.285889+05:30
Dehradun,Uttarakhand,30.6284,78.0322,14.0,66,0.0,828.5,6.95,25.2,53,7.5,6.7,3,5,7,0,2026-03-30T04:05:03.285895+05:30
Shimla,Himachal Pradesh,31.1048,77.1734,12.1,58,0.0,781.9,6.45,24.5,66,10.9,10.2,0,5,7,0,2026-03-30T04:05:03.285901+05:30
Manali,Himachal Pradesh,32.2396,77.1887,14.9,38,0.0,818.0,8.15,33.8,37,2.9,2.4,0,5,7,0,2026-03-30T04:05:03.285908+05:30
Gurgaon,Haryana,28.4595,77.0266,22.3,77,0.0,978.9,6.05,35.6,831,862.4,154.1,3,5,7,1,2026-03-30T04:05:03.285914+05:30
Noida,Uttar Pradesh,28.5355,77.391,22.7,74,0.0,982.2,6.2,36.0,831,862.4,154.1,3,5,7,1,2026-03-30T04:05:03.285921+05:30
Ghaziabad,Uttar Pradesh,28.6692,77.4538,22.3,74,0.0,980.6,5.15,36.7,150,149.0,58.3,3,5,3,1,2026-03-30T04:05:03.285926+05:30
Faridabad,Haryana,28.4089,77.3178,22.1,77,0.0,981.4,6.0,36.0,831,862.4,154.1,3,5,3,1,2026-03-30T04:05:03.285932+05:30
Meerut,Uttar Pradesh,28.9845,77.7064,21.9,72,0.0,979.5,6.2,30.6,150,149.0,58.3,3,5,7,1,2026-03-30T04:05:03.285940+05:30
Agra,Uttar Pradesh,27.1767,78.0081,23.2,73,0.0,985.4,6.45,47.9,207,343.7,75.7,3,5,7,1,2026-03-30T04:05:03.285946+05:30
Varanasi,Uttar Pradesh,25.3176,82.9739,21.4,85,0.0,995.9,7.95,19.1,93,77.3,48.2,3,5,7,1,2026-03-30T04:05:03.285955+05:30
Prayagraj,Uttar Pradesh,25.4358,81.8463,21.9,71,0.0,994.2,7.85,34.9,97,69.4,46.4,3,5,7,1,2026-03-30T04:05:03.285961+05:30
Gorakhpur,Uttar Pradesh,26.7606,83.3732,20.8,87,0.0,996.7,7.7,27.7,136,76.8,62.2,3,5,7,1,2026-03-30T04:05:03.285967+05:30
Bareilly,Uttar Pradesh,28.367,79.4304,21.7,81,0.0,984.9,6.55,21.6,100,56.0,36.8,3,5,7,1,2026-03-30T04:05:03.285973+05:30
Aligarh,Uttar Pradesh,27.8974,78.088,21.5,76,0.0,983.1,6.3,37.4,241,351.1,75.4,3,5,7,1,2026-03-30T04:05:03.285978+05:30
Moradabad,Uttar Pradesh,28.8386,78.7733,22.8,74,0.0,981.8,6.8,22.3,137,95.7,56.7,3,5,7,1,2026-03-30T04:05:03.285985+05:30
Saharanpur,Uttar Pradesh,29.9637,77.546,21.2,81,0.0,973.7,6.4,20.5,93,31.0,25.3,3,5,7,1,2026-03-30T04:05:03.285991+05:30
Jhansi,Uttar Pradesh,25.4484,78.5685,24.8,54,0.0,975.3,7.15,33.8,62,6.7,4.4,0,5,7,0,2026-03-30T04:05:06.511263+05:30
Surat,Gujarat,21.1702,72.8311,26.2,94,0.0,1005.2,7.8,24.8,79,40.9,33.9,7,5,4,1,2026-03-30T04:05:06.511294+05:30
Vadodara,Gujarat,22.3072,73.1812,26.6,88,0.0,1003.1,8.0,26.3,61,38.5,26.3,7,5,4,1,2026-03-30T04:05:06.511306+05:30
Rajkot,Gujarat,22.3039,70.8022,24.4,88,0.0,993.5,7.75,31.7,55,51.9,16.2,3,5,7,1,2026-03-30T04:05:06.511317+05:30
Thane,Maharashtra,19.2183,72.9781,26.0,86,0.0,1006.3,8.0,35.6,55,26.0,12.1,7,5,4,1,2026-03-30T04:05:06.511327+05:30
Nagpur,Maharashtra,21.1458,79.0882,25.9,59,0.0,970.6,8.55,25.9,63,24.9,20.8,4,5,7,1,2026-03-30T04:05:06.511337+05:30
Nashik,Maharashtra,19.9975,73.7898,20.8,77,0.0,943.6,8.25,28.1,38,20.4,12.2,3,5,7,1,2026-03-30T04:05:06.511347+05:30
Aurangabad,Maharashtra,19.8762,75.3433,25.0,54,0.0,942.1,8.75,42.8,40,19.6,18.2,4,5,7,0,2026-03-30T04:05:06.511356+05:30
Solapur,Maharashtra,17.6599,75.9064,25.6,61,0.0,954.5,8.9,27.4,56,20.4,19.2,7,5,7,1,2026-03-30T04:05:06.511367+05:30
Kolhapur,Maharashtra,16.705,74.2433,20.3,98,0.0,945.0,7.75,42.1,67,19.0,18.2,3,5,7,1,2026-03-30T04:05:06.511377+05:30
Goa,Goa,15.2993,74.124,26.3,85,0.0,995.1,8.9,31.3,65,16.4,13.1,7,5,7,1,2026-03-30T04:05:06.511386+05:30
Jodhpur,Rajasthan,26.2389,73.0243,25.2,63,0.0,980.8,7.8,41.4,133,204.0,32.5,7,5,7,1,2026-03-30T04:05:06.511396+05:30
Udaipur,Rajasthan,24.5854,73.7125,23.7,68,0.0,945.1,8.1,30.2,35,30.2,11.6,3,5,7,1,2026-03-30T04:05:06.511406+05:30
Kota,Rajasthan,25.2138,75.8648,24.6,53,0.0,976.7,6.9,27.4,37,13.1,6.9,0,5,7,0,2026-03-30T04:05:06.511416+05:30
Bikaner,Rajasthan,28.0229,73.3119,25.1,36,0.0,978.7,5.15,43.6,122,217.0,58.9,4,5,3,0,2026-03-30T04:05:06.511450+05:30
Ajmer,Rajasthan,26.4499,74.6399,23.0,68,0.0,952.5,7.25,32.0,42,24.9,10.3,3,5,7,1,2026-03-30T04:05:06.511462+05:30
Gwalior,Madhya Pradesh,26.2183,78.1828,24.4,65,0.0,980.9,6.4,37.1,63,38.6,9.2,3,5,7,1,2026-03-30T04:05:06.511472+05:30
Indore,Madhya Pradesh,22.7196,75.8577,22.5,72,0.0,946.1,7.75,22.7,44,24.4,13.6,3,5,7,1,2026-03-30T04:05:06.511481+05:30
Bhopal,Madhya Pradesh,23.2599,77.4126,23.5,61,0.0,952.0,8.2,31.0,30,12.2,8.0,3,5,7,0,2026-03-30T04:05:06.511491+05:30
Jabalpur,Madhya Pradesh,23.1815,79.9864,23.9,70,0.0,958.9,8.35,25.9,52,18.3,14.5,3,5,7,1,2026-03-30T04:05:06.511500+05:30
Ujjain,Madhya Pradesh,23.1765,75.7885,23.0,72,0.0,951.9,7.75,25.2,44,24.4,14.0,3,5,7,1,2026-03-30T04:05:06.511511+05:30
Visakhapatnam,Andhra Pradesh,17.6868,83.2185,26.5,88,0.0,1002.0,9.0,38.5,65,22.4,17.3,7,5,4,1,2026-03-30T04:05:06.511521+05:30
Vijayawada,Andhra Pradesh,16.5062,80.648,26.4,93,0.0,1000.8,9.1,29.5,79,19.7,15.9,7,5,4,1,2026-03-30T04:05:06.511530+05:30
Guntur,Andhra Pradesh,16.3067,80.4365,26.4,94,0.0,1001.8,9.1,31.3,89,20.0,16.8,7,5,4,1,2026-03-30T04:05:06.511540+05:30
Nellore,Andhra Pradesh,14.4426,79.9865,25.6,92,0.0,1003.9,9.25,31.7,70,20.6,17.2,7,5,4,1,2026-03-30T04:05:06.511550+05:30
Kurnool,Andhra Pradesh,15.8281,78.0373,28.1,62,0.0,974.4,8.35,25.2,99,59.8,52.4,7,5,7,1,2026-03-30T04:05:06.511560+05:30
Kakinada,Andhra Pradesh,16.9891,82.2475,25.7,93,0.0,1005.8,9.05,28.8,53,21.1,14.4,7,5,4,1,2026-03-30T04:05:06.511570+05:30
Tirupati,Andhra Pradesh,13.6288,79.4192,24.7,92,0.0,990.3,9.35,29.5,100,29.9,27.8,3,5,7,1,2026-03-30T04:05:06.511579+05:30
Warangal,Telangana,17.9689,79.5941,26.2,84,0.0,976.1,8.9,32.4,104,50.5,46.4,7,5,7,1,2026-03-30T04:05:06.511589+05:30
Nizamabad,Telangana,18.6725,78.0941,26.5,62,0.0,962.5,8.85,43.6,77,48.0,46.7,7,5,7,1,2026-03-30T04:05:06.511599+05:30
Mysore,Karnataka,12.2958,76.6396,22.9,89,0.0,926.6,8.9,22.0,128,68.0,60.5,3,5,7,1,2026-03-30T04:05:06.511608+05:30
Mangalore,Karnataka,12.9141,74.856,29.6,77,0.0,1004.4,9.05,24.1,75,24.9,18.2,7,5,4,1,2026-03-30T04:05:06.511618+05:30
Hubli-Dharwad,Karnataka,15.3647,75.124,23.1,82,0.0,938.0,9.15,30.2,70,22.7,15.1,3,5,7,1,2026-03-30T04:05:06.511627+05:30
Belgaum,Karnataka,15.8497,74.4977,21.3,86,0.0,922.7,9.2,30.2,58,12.1,11.6,3,5,7,1,2026-03-30T04:05:09.729105+05:30
Coimbatore,Tamil Nadu,11.0168,76.9558,23.9,86,0.0,960.2,9.45,27.7,99,39.1,34.8,3,5,7,1,2026-03-30T04:05:09.729130+05:30
Madurai,Tamil Nadu,9.9252,78.1198,25.2,89,0.0,991.5,9.4,34.9,79,33.8,32.5,7,5,7,1,2026-03-30T04:05:09.729139+05:30
Trichy,Tamil Nadu,10.7905,78.7047,25.9,94,0.0,998.5,9.35,22.0,76,30.5,27.4,7,5,7,1,2026-03-30T04:05:09.729147+05:30
Salem,Tamil Nadu,11.6643,78.146,26.8,78,0.0,976.1,9.4,19.8,87,29.3,27.1,7,5,7,1,2026-03-30T04:05:09.729153+05:30
Tirunelveli,Tamil Nadu,8.7139,77.7567,25.2,81,0.0,1001.3,9.4,50.8,72,36.4,34.3,7,5,4,1,2026-03-30T04:05:09.729160+05:30
Vellore,Tamil Nadu,12.9165,79.1325,25.3,92,0.0,983.2,8.6,30.2,107,38.4,35.9,7,5,7,1,2026-03-30T04:05:09.729166+05:30
Erode,Tamil Nadu,11.341,77.7172,26.9,81,0.0,987.6,9.4,19.8,90,20.3,18.9,7,5,7,1,2026-03-30T04:05:09.729173+05:30
Kochi,Kerala,9.9312,76.2673,28.3,82,0.0,1006.4,9.2,28.8,92,41.9,40.0,7,5,4,1,2026-03-30T04:05:09.729179+05:30
Thiruvananthapuram,Kerala,8.5241,76.9366,28.1,82,0.0,1005.7,9.25,30.6,73,29.2,23.7,7,5,4,1,2026-03-30T04:05:09.729184+05:30
Kozhikode,Kerala,11.2588,75.7804,27.2,89,0.1,1006.0,6.6,25.6,102,50.2,43.8,10,5,4,1,2026-03-30T04:05:09.729190+05:30
Thrissur,Kerala,10.5276,76.2144,26.4,88,0.0,1005.0,9.15,28.1,97,38.9,35.3,7,5,4,1,2026-03-30T04:05:09.729197+05:30
Kannur,Kerala,11.8745,75.3704,28.4,84,0.0,1004.9,7.9,23.0,100,48.7,44.6,7,5,4,1,2026-03-30T04:05:09.729203+05:30
Patna,Bihar,25.5941,85.1376,22.1,91,0.0,1000.4,8.1,31.7,141,80.8,72.9,3,5,4,1,2026-03-30T04:05:09.729209+05:30
Gaya,Bihar,24.7914,85.0002,22.3,88,0.0,992.7,8.2,21.2,109,57.5,49.5,3,5,7,1,2026-03-30T04:05:09.729215+05:30
Muzaffarpur,Bihar,26.1209,85.3647,20.7,93,0.0,1000.8,8.1,33.8,150,82.4,74.0,3,5,4,1,2026-03-30T04:05:09.729221+05:30
Bhagalpur,Bihar,25.2425,87.0117,21.6,97,0.0,1001.9,8.1,20.9,153,84.5,74.3,3,5,4,1,2026-03-30T04:05:09.729227+05:30
Ranchi,Jharkhand,23.3441,85.3096,22.0,89,0.0,936.6,8.7,35.3,98,60.5,41.2,3,5,7,1,2026-03-30T04:05:09.729233+05:30
Jamshedpur,Jharkhand,22.8046,86.2029,25.5,87,0.0,990.3,8.6,30.6,133,54.6,48.0,7,5,7,1,2026-03-30T04:05:09.729239+05:30
Dhanbad,Jharkhand,23.7957,86.4304,24.2,83,0.0,979.4,8.55,36.7,160,110.4,104.1,3,5,7,1,2026-03-30T04:05:09.729244+05:30
Bokaro,Jharkhand,23.6693,86.1511,23.5,86,0.0,983.5,8.55,27.7,156,104.3,94.5,3,5,7,1,2026-03-30T04:05:09.729250+05:30
Bhubaneswar,Odisha,20.2961,85.8245,26.3,87,0.0,1001.2,8.8,41.0,77,24.7,19.3,7,5,4,1,2026-03-30T04:05:09.729256+05:30
Cuttack,Odisha,20.4625,85.8828,26.4,86,0.0,1003.0,8.85,38.5,77,24.7,19.3,7,5,4,1,2026-03-30T04:05:09.729262+05:30
Rourkela,Odisha,22.2604,84.8536,26.2,82,0.0,983.6,8.5,27.4,123,41.3,32.1,7,5,7,1,2026-03-30T04:05:09.729267+05:30
Raipur,Chhattisgarh,21.2514,81.6296,27.2,46,0.0,971.6,8.6,26.3,106,38.9,34.9,4,5,7,0,2026-03-30T04:05:09.729273+05:30
Bhilai,Chhattisgarh,21.1938,81.3509,26.1,52,0.0,971.8,8.65,29.2,79,27.0,22.2,4,5,7,0,2026-03-30T04:05:09.729279+05:30
Guwahati,Assam,26.1158,91.7086,21.2,94,0.0,1003.0,7.55,20.9,93,38.8,32.8,3,5,4,1,2026-03-30T04:05:09.729285+05:30
Agartala,Tripura,23.8315,91.2868,22.1,93,0.0,1006.4,8.25,28.8,144,57.5,51.6,3,5,4,1,2026-03-30T04:05:09.729291+05:30
Shillong,Meghalaya,25.5788,91.8933,11.3,93,0.0,853.7,6.6,38.2,79,49.9,35.7,3,10,7,0,2026-03-30T04:05:09.729297+05:30
Imphal,Manipur,24.817,93.9368,15.9,89,0.0,922.5,7.95,58.3,151,108.0,86.4,3,10,7,0,2026-03-30T04:05:09.729302+05:30
Aizawl,Mizoram,23.7271,92.7176,15.9,95,0.0,891.4,8.45,52.2,151,64.5,55.3,3,10,7,0,2026-03-30T04:05:09.729308+05:30
Kohima,Nagaland,25.6701,94.1077,12.4,78,0.0,852.9,8.5,71.6,120,85.2,63.6,3,5,7,0,2026-03-30T04:05:09.729314+05:30
Gangtok,Sikkim,27.3314,88.6138,12.3,90,0.0,834.9,8.25,20.2,79,53.7,42.8,3,10,7,0,2026-03-30T04:05:09.729320+05:30
Siliguri,West Bengal,26.7271,88.3953,17.6,80,0.0,995.0,7.7,16.6,149,110.6,81.0,3,5,7,0,2026-03-30T04:05:12.955514+05:30
Durgapur,West Bengal,23.5204,87.3119,23.9,89,0.0,995.1,8.5,24.5,161,87.1,82.7,3,5,7,1,2026-03-30T04:05:12.955545+05:30
Asansol,West Bengal,23.6739,86.9524,24.2,87,0.0,993.5,8.5,25.6,158,91.3,86.1,3,5,7,1,2026-03-30T04:05:12.955557+05:30
Pondicherry,Puducherry,11.9139,79.8145,25.5,98,0.0,1007.2,9.25,28.1,54,16.4,11.7,7,5,4,1,2026-03-30T04:05:12.955567+05:30
Port Blair,Andaman and Nicobar Islands,11.6234,92.7265,28.0,76,0.0,1005.7,9.2,16.6,70,26.5,20.9,7,5,4,1,2026-03-30T04:05:12.955576+05:30
Haridwar,Uttarakhand,29.9457,78.1642,21.5,70,0.0,972.6,6.0,22.7,80,25.7,19.4,3,5,3,0,2026-03-30T04:05:12.955589+05:30
Rishikesh,Uttarakhand,30.0869,78.2676,21.8,62,0.0,965.5,5.9,20.9,68,26.4,20.4,3,5,3,0,2026-03-30T04:05:12.955597+05:30
Nainital,Uttarakhand,29.3919,79.4542,18.2,48,0.0,804.8,7.4,46.1,73,32.4,20.3,0,5,7,0,2026-03-30T04:05:12.955605+05:30
Mussoorie,Uttarakhand,30.4599,78.0664,16.8,52,0.0,801.5,6.95,35.3,74,18.0,15.3,0,5,7,0,2026-03-30T04:05:12.955613+05:30
Dharamshala,Himachal Pradesh,32.219,76.3234,19.5,42,0.0,867.2,5.2,40.3,39,5.2,4.9,0,5,3,0,2026-03-30T04:05:12.955620+05:30
Dalhousie,Himachal Pradesh,32.5387,75.971,15.5,47,0.0,801.2,6.05,46.4,74,22.8,21.5,0,5,7,0,2026-03-30T04:05:12.955629+05:30
Patiala,Punjab,30.3398,76.3869,20.4,87,0.0,976.1,5.65,24.1,179,92.4,29.7,3,5,3,1,2026-03-30T04:05:12.955637+05:30
Bhatinda,Punjab,30.211,74.9455,21.0,83,0.0,981.3,3.5,40.3,196,413.5,85.2,3,5,3,1,2026-03-30T04:05:12.955645+05:30
Rohtak,Haryana,28.8955,76.6066,21.0,81,0.0,979.2,6.8,23.0,379,434.0,108.0,3,5,7,1,2026-03-30T04:05:12.955652+05:30
Panipat,Haryana,29.3909,76.9635,20.6,76,0.0,978.1,6.4,24.5,620,241.2,69.4,3,5,7,1,2026-03-30T04:05:12.955660+05:30
Mathura,Uttar Pradesh,27.4924,77.6737,22.6,80,0.0,984.5,6.3,36.7,211,209.5,52.2,3,5,7,1,2026-03-30T04:05:12.955667+05:30
Vrindavan,Uttar Pradesh,27.5823,77.7027,22.6,82,0.0,984.8,6.3,36.7,211,209.5,52.2,3,5,7,1,2026-03-30T04:05:12.955674+05:30
Ayodhya,Uttar Pradesh,26.7922,82.1998,20.3,81,0.0,994.2,7.5,25.6,145,90.8,63.1,3,5,7,1,2026-03-30T04:05:12.955682+05:30
Ratlam,Madhya Pradesh,23.3315,75.0367,23.6,70,0.0,952.6,7.6,28.8,42,25.1,13.8,3,5,7,1,2026-03-30T04:05:12.955689+05:30
Sagar,Madhya Pradesh,23.8388,78.7378,25.1,56,0.0,948.1,8.2,40.0,30,11.8,7.1,4,5,7,0,2026-03-30T04:05:12.955696+05:30
Satna,Madhya Pradesh,24.6005,80.8322,24.7,53,0.0,969.1,8.2,41.4,63,44.6,21.7,0,5,7,0,2026-03-30T04:05:12.955704+05:30
Akola,Maharashtra,20.7002,77.0082,25.0,68,0.0,973.3,8.55,31.3,50,10.6,9.3,7,5,7,1,2026-03-30T04:05:12.955712+05:30
Amravati,Maharashtra,20.9374,77.7796,24.9,62,0.0,965.0,8.55,19.4,48,12.5,11.1,3,5,7,1,2026-03-30T04:05:12.955720+05:30
Latur,Maharashtra,18.4088,76.5604,23.8,56,0.0,937.4,8.4,36.7,47,24.0,20.3,0,5,7,0,2026-03-30T04:05:12.955728+05:30
Nanded,Maharashtra,19.1383,77.3091,25.4,64,0.0,966.5,7.2,52.9,54,20.1,17.6,7,5,7,1,2026-03-30T04:05:12.955736+05:30
Gulbarga,Karnataka,17.3297,76.8343,27.1,50,0.0,955.8,8.9,30.2,60,27.4,25.2,4,5,7,0,2026-03-30T04:05:12.955744+05:30
Bidar,Karnataka,17.9104,77.5199,27.2,56,0.0,932.9,8.1,29.5,69,30.7,29.1,4,5,7,1,2026-03-30T04:05:12.955752+05:30
Hospet,Karnataka,15.2689,76.3909,25.6,77,0.0,953.6,8.25,31.3,77,37.3,33.5,7,5,7,1,2026-03-30T04:05:12.955760+05:30
Tirupur,Tamil Nadu,11.1085,77.3411,26.0,81,0.0,973.8,9.5,19.1,111,36.6,33.2,7,5,7,1,2026-03-30T04:05:12.955768+05:30
Alappuzha,Kerala,9.4981,76.3388,28.3,82,0.0,1006.6,9.2,25.6,87,43.3,38.5,7,5,4,1,2026-03-30T04:05:12.955776+05:30
Munnar,Kerala,10.0889,77.0595,19.5,91,0.0,854.5,7.65,28.1,95,40.5,39.3,3,10,7,1,2026-03-30T04:05:12.955785+05:30
Silchar,Assam,24.8333,92.7789,21.1,90,0.0,1005.8,8.35,29.2,153,90.8,72.6,3,5,4,1,2026-03-30T04:05:12.955794+05:30
Dibrugarh,Assam,27.4728,94.912,19.9,91,0.0,997.7,6.75,11.2,83,40.7,36.6,3,10,7,1,2026-03-30T04:05:12.955802+05:30
