city,state,latitude,longitude,temp,humidity,rain,pressure,uv_index,wind_gusts,aqi,pm10,pm2_5,mosquito_risk,arthritis_risk,migraine_risk,frizz_risk,updated_at
Delhi,Delhi,28.6139,77.209,21.2,69,0.0,986.6,6.3,21.6,174,216.5,61.9,3,5,7,0,2026-03-26T05:09:02.139913+05:30
Mumbai,Maharashtra,19.076,72.8777,27.9,80,0.0,1008.7,7.95,27.7,79,37.3,21.6,7,0,4,1,2026-03-26T05:09:02.139951+05:30
Bangalore,Karnataka,12.9716,77.5946,20.9,81,0.0,911.3,9.45,35.6,74,32.2,29.0,3,5,7,1,2026-03-26T05:09:02.139983+05:30
Hyderabad,Telangana,17.385,78.4867,23.7,77,0.0,953.9,9.0,30.2,97,36.8,29.1,3,5,7,1,2026-03-26T05:09:02.139993+05:30
Chennai,Tamil Nadu,13.0827,80.2707,26.4,81,0.0,1008.3,9.2,30.2,52,26.5,18.4,7,0,4,1,2026-03-26T05:09:02.140002+05:30
Kolkata,West Bengal,22.5726,88.3639,24.5,97,0.0,1009.1,8.45,19.4,96,49.2,43.1,3,0,4,1,2026-03-26T05:09:02.140011+05:30
Pune,Maharashtra,18.5204,73.8567,23.8,91,0.0,948.7,8.5,31.7,95,53.7,43.9,3,5,7,1,2026-03-26T05:09:02.140022+05:30
Ahmedabad,Gujarat,23.0225,72.5714,23.1,70,0.0,1004.0,7.9,22.7,62,23.7,16.1,3,5,4,1,2026-03-26T05:09:02.140029+05:30
Jaipur,Rajasthan,26.9124,75.7873,22.4,54,0.0,962.4,7.25,30.2,104,115.5,29.8,0,5,7,0,2026-03-26T05:09:02.140036+05:30
Lucknow,Uttar Pradesh,26.8467,80.9462,20.2,65,0.0,996.8,7.15,34.2,108,221.7,51.6,3,5,7,0,2026-03-26T05:09:02.140043+05:30
Kanpur,Uttar Pradesh,26.4499,80.3319,20.3,78,0.0,995.2,7.15,28.4,166,295.2,57.7,3,5,7,1,2026-03-26T05:09:02.140050+05:30
Chandigarh,Chandigarh,30.7333,76.7794,18.1,77,0.0,972.0,6.4,33.1,70,23.3,19.0,3,5,7,0,2026-03-26T05:09:02.140057+05:30
Srinagar,Jammu and Kashmir,34.0837,74.7973,9.9,85,0.0,843.8,7.5,18.4,93,27.7,23.3,3,10,7,0,2026-03-26T05:09:02.140064+05:30
Jammu,Jammu and Kashmir,32.7266,74.857,19.8,78,0.0,977.6,7.05,29.5,84,30.2,26.7,3,5,7,0,2026-03-26T05:09:02.140071+05:30
Amritsar,Punjab,31.634,74.8723,18.8,86,0.0,985.2,6.65,35.3,110,36.7,32.1,3,10,7,1,2026-03-26T05:09:02.140078+05:30
Ludhiana,Punjab,30.901,75.8573,20.1,75,0.0,982.8,5.95,34.2,100,31.2,28.1,3,5,3,0,2026-03-26T05:09:02.140084+05:30
Jalandhar,Punjab,31.326,75.5762,19.7,82,0.0,984.0,6.8,32.4,105,30.4,22.3,3,10,7,1,2026-03-26T05:09:02.140092+05:30
Dehradun,Uttarakhand,30.6284,78.0322,13.2,80,0.0,831.3,6.9,32.8,52,13.3,11.1,3,5,7,0,2026-03-26T05:09:02.140099+05:30
Shimla,Himachal Pradesh,31.1048,77.1734,10.9,73,0.0,785.1,6.95,45.4,59,30.9,21.2,3,5,7,0,2026-03-26T05:09:02.140105+05:30
Manali,Himachal Pradesh,32.2396,77.1887,12.8,57,0.0,821.2,8.5,27.0,45,25.8,18.0,0,5,7,0,2026-03-26T05:09:02.140112+05:30
Gurgaon,Haryana,28.4595,77.0266,19.2,80,0.0,985.0,6.45,18.4,418,364.1,84.3,3,5,7,0,2026-03-26T05:09:02.140119+05:30
Noida,Uttar Pradesh,28.5355,77.391,20.6,72,0.0,988.2,6.2,20.9,418,364.1,84.3,3,5,7,0,2026-03-26T05:09:02.140126+05:30
Ghaziabad,Uttar Pradesh,28.6692,77.4538,19.3,76,0.0,986.3,6.5,23.4,148,141.6,49.1,3,5,7,0,2026-03-26T05:09:02.140132+05:30
Faridabad,Haryana,28.4089,77.3178,19.5,75,0.0,987.4,6.0,19.8,418,364.1,84.3,3,5,3,0,2026-03-26T05:09:02.140139+05:30
Meerut,Uttar Pradesh,28.9845,77.7064,18.2,77,0.0,984.8,6.0,29.5,148,141.6,49.1,3,5,3,0,2026-03-26T05:09:02.140145+05:30
Agra,Uttar Pradesh,27.1767,78.0081,19.9,70,0.0,991.4,6.95,21.2,278,376.3,74.5,3,5,7,0,2026-03-26T05:09:02.140151+05:30
Varanasi,Uttar Pradesh,25.3176,82.9739,18.2,71,0.0,1001.1,7.8,29.5,102,118.5,43.7,3,5,4,0,2026-03-26T05:09:02.140160+05:30
Prayagraj,Uttar Pradesh,25.4358,81.8463,21.7,55,0.0,999.5,7.65,27.4,98,169.0,40.5,0,5,7,0,2026-03-26T05:09:02.140167+05:30
Gorakhpur,Uttar Pradesh,26.7606,83.3732,17.3,74,0.0,1000.3,7.55,16.6,97,55.3,41.7,3,5,4,0,2026-03-26T05:09:02.140176+05:30
Bareilly,Uttar Pradesh,28.367,79.4304,17.6,89,0.0,989.9,6.8,28.1,88,96.4,39.3,3,10,7,0,2026-03-26T05:09:02.140183+05:30
Aligarh,Uttar Pradesh,27.8974,78.088,18.3,78,0.0,989.1,6.5,23.8,288,347.4,72.9,3,5,7,0,2026-03-26T05:09:02.140189+05:30
Moradabad,Uttar Pradesh,28.8386,78.7733,17.7,79,0.0,986.7,6.65,33.1,97,104.8,46.4,3,5,7,0,2026-03-26T05:09:02.140197+05:30
Saharanpur,Uttar Pradesh,29.9637,77.546,17.3,83,0.0,978.7,6.25,39.2,115,33.1,29.3,3,10,7,0,2026-03-26T05:09:02.140203+05:30
Jhansi,Uttar Pradesh,25.4484,78.5685,21.1,54,0.0,980.9,7.6,27.4,102,100.4,27.8,0,5,7,0,2026-03-26T05:09:05.490157+05:30
Surat,Gujarat,21.1702,72.8311,25.0,82,0.0,1007.5,7.7,24.5,90,32.1,25.6,7,5,4,1,2026-03-26T05:09:05.490187+05:30
Vadodara,Gujarat,22.3072,73.1812,24.5,62,0.0,1005.8,7.9,26.3,93,53.4,52.3,3,5,4,1,2026-03-26T05:09:05.490196+05:30
Rajkot,Gujarat,22.3039,70.8022,22.0,90,0.0,996.4,7.75,30.2,44,44.1,14.0,3,5,7,1,2026-03-26T05:09:05.490204+05:30
Thane,Maharashtra,19.2183,72.9781,26.0,81,0.0,1008.2,7.95,40.3,79,37.3,21.6,7,0,4,1,2026-03-26T05:09:05.490212+05:30
Nagpur,Maharashtra,21.1458,79.0882,24.6,65,0.0,974.7,8.45,28.8,78,20.6,16.2,3,5,7,1,2026-03-26T05:09:05.490219+05:30
Nashik,Maharashtra,19.9975,73.7898,24.8,55,0.0,946.3,8.15,22.3,76,48.0,39.2,0,5,7,0,2026-03-26T05:09:05.490226+05:30
Aurangabad,Maharashtra,19.8762,75.3433,24.5,50,0.0,944.7,8.65,25.9,55,24.4,18.3,0,5,7,0,2026-03-26T05:09:05.490233+05:30
Solapur,Maharashtra,17.6599,75.9064,25.1,71,0.0,957.6,8.85,13.7,100,53.8,47.6,7,5,7,1,2026-03-26T05:09:05.490240+05:30
Kolhapur,Maharashtra,16.705,74.2433,22.3,92,0.0,947.8,8.95,25.2,149,94.1,83.8,3,5,7,1,2026-03-26T05:09:05.490247+05:30
Goa,Goa,15.2993,74.124,26.8,88,0.0,997.1,8.75,28.4,92,45.8,38.0,7,5,7,1,2026-03-26T05:09:05.490253+05:30
Jodhpur,Rajasthan,26.2389,73.0243,24.3,51,0.0,985.5,7.65,30.6,66,52.5,23.0,0,5,7,0,2026-03-26T05:09:05.490260+05:30
Udaipur,Rajasthan,24.5854,73.7125,21.6,49,0.0,948.6,8.15,28.8,37,7.9,7.3,0,5,7,0,2026-03-26T05:09:05.490267+05:30
Kota,Rajasthan,25.2138,75.8648,19.7,88,0.0,980.9,7.65,16.2,75,30.0,23.0,3,10,7,1,2026-03-26T05:09:05.490273+05:30
Bikaner,Rajasthan,28.0229,73.3119,22.8,53,0.0,983.8,6.85,27.4,43,49.6,14.5,0,5,7,0,2026-03-26T05:09:05.490279+05:30
Ajmer,Rajasthan,26.4499,74.6399,24.1,48,0.0,957.0,7.55,29.5,60,44.4,16.6,0,5,7,0,2026-03-26T05:09:05.490286+05:30
Gwalior,Madhya Pradesh,26.2183,78.1828,22.4,62,0.0,986.6,7.3,20.2,137,103.8,26.4,3,5,7,0,2026-03-26T05:09:05.490292+05:30
Indore,Madhya Pradesh,22.7196,75.8577,21.8,61,0.0,949.1,8.15,23.4,81,18.6,16.8,3,5,7,0,2026-03-26T05:09:05.490298+05:30
Bhopal,Madhya Pradesh,23.2599,77.4126,23.4,55,0.0,955.3,8.1,21.6,54,15.9,8.0,0,5,7,0,2026-03-26T05:09:05.490303+05:30
Jabalpur,Madhya Pradesh,23.1815,79.9864,22.4,55,0.0,963.5,8.2,23.4,57,38.2,15.8,0,5,7,0,2026-03-26T05:09:05.490310+05:30
Ujjain,Madhya Pradesh,23.1765,75.7885,22.7,55,0.0,955.1,8.1,25.9,81,10.7,9.6,0,5,7,0,2026-03-26T05:09:05.490316+05:30
Visakhapatnam,Andhra Pradesh,17.6868,83.2185,25.3,90,0.0,1005.7,8.85,31.3,75,39.7,30.6,7,5,4,1,2026-03-26T05:09:05.490323+05:30
Vijayawada,Andhra Pradesh,16.5062,80.648,24.3,92,0.0,1004.5,9.0,17.3,63,27.2,20.8,3,5,4,1,2026-03-26T05:09:05.490329+05:30
Guntur,Andhra Pradesh,16.3067,80.4365,24.3,95,0.0,1005.6,9.0,24.5,59,22.6,17.6,3,5,4,1,2026-03-26T05:09:05.490336+05:30
Nellore,Andhra Pradesh,14.4426,79.9865,25.0,89,0.0,1007.2,9.1,29.5,51,19.7,13.7,7,5,4,1,2026-03-26T05:09:05.490343+05:30
Kurnool,Andhra Pradesh,15.8281,78.0373,26.3,67,0.0,977.6,9.0,23.0,89,27.8,22.8,7,5,7,1,2026-03-26T05:09:05.490350+05:30
Kakinada,Andhra Pradesh,16.9891,82.2475,23.7,92,0.0,1009.4,8.95,23.0,59,31.5,20.8,3,0,4,1,2026-03-26T05:09:05.490357+05:30
Tirupati,Andhra Pradesh,13.6288,79.4192,22.3,91,0.0,992.9,9.2,32.8,62,39.7,36.0,3,5,7,1,2026-03-26T05:09:05.490364+05:30
Warangal,Telangana,17.9689,79.5941,24.4,81,0.0,980.1,8.8,24.8,84,25.5,22.0,3,5,7,1,2026-03-26T05:09:05.490370+05:30
Nizamabad,Telangana,18.6725,78.0941,26.3,69,0.0,965.9,8.75,23.0,99,49.0,44.4,7,5,7,1,2026-03-26T05:09:05.490376+05:30
Mysore,Karnataka,12.2958,76.6396,22.0,67,0.0,927.9,9.4,39.2,75,29.2,26.5,3,5,7,0,2026-03-26T05:09:05.490383+05:30
Mangalore,Karnataka,12.9141,74.856,29.1,83,0.0,1005.8,9.1,31.0,102,48.4,43.4,7,5,4,1,2026-03-26T05:09:05.490389+05:30
Hubli-Dharwad,Karnataka,15.3647,75.124,22.4,88,0.0,940.5,9.0,28.4,125,57.2,51.5,3,5,7,1,2026-03-26T05:09:05.490395+05:30
Belgaum,Karnataka,15.8497,74.4977,21.2,93,0.0,925.0,9.0,31.7,128,60.5,49.4,3,5,7,1,2026-03-26T05:09:08.836341+05:30
Coimbatore,Tamil Nadu,11.0168,76.9558,23.5,83,0.0,962.1,9.4,43.9,53,15.1,14.1,3,5,7,1,2026-03-26T05:09:08.836375+05:30
Madurai,Tamil Nadu,9.9252,78.1198,24.4,88,0.0,993.8,9.35,27.0,56,24.8,22.9,3,5,7,1,2026-03-26T05:09:08.836387+05:30
Trichy,Tamil Nadu,10.7905,78.7047,23.2,95,0.0,1000.7,9.3,25.9,58,25.6,20.4,3,5,4,1,2026-03-26T05:09:08.836397+05:30
Salem,Tamil Nadu,11.6643,78.146,23.2,90,0.0,977.9,9.35,33.5,74,42.7,40.4,3,5,7,1,2026-03-26T05:09:08.836406+05:30
Tirunelveli,Tamil Nadu,8.7139,77.7567,25.7,82,0.0,1003.9,9.3,37.4,43,15.1,12.6,7,5,4,1,2026-03-26T05:09:08.836416+05:30
Vellore,Tamil Nadu,12.9165,79.1325,21.6,95,0.0,985.7,9.3,32.4,72,43.8,39.0,3,5,7,1,2026-03-26T05:09:08.836424+05:30
Erode,Tamil Nadu,11.341,77.7172,24.4,91,0.0,989.8,9.3,19.8,52,20.1,18.2,3,5,7,1,2026-03-26T05:09:08.836432+05:30
Kochi,Kerala,9.9312,76.2673,28.7,78,0.0,1007.8,9.2,35.6,88,41.2,36.8,7,5,4,1,2026-03-26T05:09:08.836441+05:30
Thiruvananthapuram,Kerala,8.5241,76.9366,28.7,81,0.0,1006.9,9.2,30.6,85,19.6,16.3,7,5,4,1,2026-03-26T05:09:08.836450+05:30
Kozhikode,Kerala,11.2588,75.7804,28.9,83,0.0,1007.1,9.1,32.4,96,41.6,32.2,7,5,4,1,2026-03-26T05:09:08.836458+05:30
Thrissur,Kerala,10.5276,76.2144,27.1,91,0.0,1006.2,9.15,38.5,90,53.6,45.9,7,5,4,1,2026-03-26T05:09:08.836467+05:30
Kannur,Kerala,11.8745,75.3704,28.6,83,0.0,1006.3,9.1,34.9,100,45.8,39.0,7,5,4,1,2026-03-26T05:09:08.836475+05:30
Patna,Bihar,25.5941,85.1376,19.9,78,0.0,1003.4,8.0,25.2,141,143.4,106.4,3,5,4,0,2026-03-26T05:09:08.836484+05:30
Gaya,Bihar,24.7914,85.0002,18.7,78,0.0,996.9,8.1,24.1,97,48.4,31.5,3,5,7,0,2026-03-26T05:09:08.836491+05:30
Muzaffarpur,Bihar,26.1209,85.3647,19.3,78,0.0,1003.7,7.95,17.3,150,123.9,102.4,3,5,4,0,2026-03-26T05:09:08.836500+05:30
Bhagalpur,Bihar,25.2425,87.0117,21.3,68,0.0,1004.8,8.0,14.0,135,71.7,58.0,3,5,4,0,2026-03-26T05:09:08.836507+05:30
Ranchi,Jharkhand,23.3441,85.3096,21.2,54,0.0,940.5,8.7,36.0,71,45.6,28.9,0,5,7,0,2026-03-26T05:09:08.836515+05:30
Jamshedpur,Jharkhand,22.8046,86.2029,23.9,86,0.0,993.9,8.55,22.0,159,144.8,123.4,3,5,7,1,2026-03-26T05:09:08.836523+05:30
Dhanbad,Jharkhand,23.7957,86.4304,21.4,67,0.0,983.0,8.45,24.5,150,90.8,77.3,3,5,7,0,2026-03-26T05:09:08.836532+05:30
Bokaro,Jharkhand,23.6693,86.1511,21.5,66,0.0,987.4,8.45,21.2,137,87.1,67.5,3,5,7,0,2026-03-26T05:09:08.836540+05:30
Bhubaneswar,Odisha,20.2961,85.8245,24.9,95,0.0,1005.0,8.75,12.2,86,46.2,36.7,3,5,4,1,2026-03-26T05:09:08.836548+05:30
Cuttack,Odisha,20.4625,85.8828,24.8,95,0.0,1007.1,8.8,13.0,86,46.2,36.7,3,5,4,1,2026-03-26T05:09:08.836556+05:30
Rourkela,Odisha,22.2604,84.8536,23.4,93,0.0,988.1,8.45,34.6,123,46.1,36.4,3,5,7,1,2026-03-26T05:09:08.836564+05:30
Raipur,Chhattisgarh,21.2514,81.6296,23.2,65,0.0,976.7,8.5,24.5,135,81.3,73.1,3,5,7,1,2026-03-26T05:09:08.836571+05:30
Bhilai,Chhattisgarh,21.1938,81.3509,22.2,68,0.0,977.0,8.5,21.6,129,92.7,83.1,3,5,7,0,2026-03-26T05:09:08.836578+05:30
Guwahati,Assam,26.1158,91.7086,21.2,91,0.0,1006.5,7.9,25.9,123,59.8,50.2,3,5,4,1,2026-03-26T05:09:08.836585+05:30
Agartala,Tripura,23.8315,91.2868,21.4,97,0.0,1009.7,8.2,15.8,157,107.3,95.2,3,0,4,1,2026-03-26T05:09:08.836593+05:30
Shillong,Meghalaya,25.5788,91.8933,8.5,87,0.0,855.6,8.3,25.9,103,58.0,41.4,3,10,7,0,2026-03-26T05:09:08.836602+05:30
Imphal,Manipur,24.817,93.9368,15.3,85,0.0,925.9,8.55,45.0,128,75.9,56.1,3,10,7,0,2026-03-26T05:09:08.836611+05:30
Aizawl,Mizoram,23.7271,92.7176,15.4,80,0.0,894.1,8.45,41.0,125,73.1,48.9,3,5,7,0,2026-03-26T05:09:08.836617+05:30
Kohima,Nagaland,25.6701,94.1077,12.2,61,0.0,855.9,8.45,49.0,107,56.1,43.4,3,5,7,0,2026-03-26T05:09:08.836624+05:30
Gangtok,Sikkim,27.3314,88.6138,12.2,84,0.0,837.8,7.4,19.8,80,36.3,29.3,3,10,7,0,2026-03-26T05:09:08.836630+05:30
Siliguri,West Bengal,26.7271,88.3953,18.6,76,0.0,998.3,7.95,33.5,151,90.1,70.1,3,5,7,0,2026-03-26T05:09:12.189709+05:30
Durgapur,West Bengal,23.5204,87.3119,23.5,85,0.0,998.3,8.4,18.4,155,131.3,115.9,3,5,7,1,2026-03-26T05:09:12.189742+05:30
Asansol,West Bengal,23.6739,86.9524,24.0,84,0.0,996.9,8.4,19.8,133,88.7,75.0,3,5,7,1,2026-03-26T05:09:12.189754+05:30
Pondicherry,Puducherry,11.9139,79.8145,23.7,96,0.0,1009.5,9.2,27.4,44,24.1,15.4,3,0,4,1,2026-03-26T05:09:12.189763+05:30
Port Blair,Andaman and Nicobar Islands,11.6234,92.7265,27.4,78,0.0,1006.9,9.15,29.2,56,15.4,10.0,7,5,4,1,2026-03-26T05:09:12.189773+05:30
Haridwar,Uttarakhand,29.9457,78.1642,19.0,81,0.0,977.2,6.4,41.8,89,36.7,27.7,3,10,7,0,2026-03-26T05:09:12.189783+05:30
Rishikesh,Uttarakhand,30.0869,78.2676,19.7,74,0.0,970.0,6.45,38.2,72,26.5,21.0,3,5,7,0,2026-03-26T05:09:12.189792+05:30
Nainital,Uttarakhand,29.3919,79.4542,16.3,63,0.0,807.1,7.3,65.2,69,23.5,20.5,3,5,7,0,2026-03-26T05:09:12.189800+05:30
Mussoorie,Uttarakhand,30.4599,78.0664,14.7,69,0.0,803.8,6.8,42.1,77,24.3,20.3,3,5,7,0,2026-03-26T05:09:12.189808+05:30
Dharamshala,Himachal Pradesh,32.219,76.3234,18.4,38,0.0,871.7,7.0,23.8,50,19.8,11.6,0,5,7,0,2026-03-26T05:09:12.189816+05:30
Dalhousie,Himachal Pradesh,32.5387,75.971,14.9,51,0.0,805.5,7.15,22.3,69,25.7,22.0,0,5,7,0,2026-03-26T05:09:12.189825+05:30
Patiala,Punjab,30.3398,76.3869,18.8,73,0.0,981.8,6.15,32.8,155,285.9,41.8,3,5,7,0,2026-03-26T05:09:12.189832+05:30
Bhatinda,Punjab,30.211,74.9455,19.8,81,0.0,987.9,6.2,31.7,106,39.3,27.8,3,10,7,1,2026-03-26T05:09:12.189840+05:30
Rohtak,Haryana,28.8955,76.6066,19.0,80,0.0,985.3,6.2,22.3,190,411.6,87.5,3,5,7,0,2026-03-26T05:09:12.189848+05:30
Panipat,Haryana,29.3909,76.9635,18.7,73,0.0,983.8,6.1,25.2,455,610.9,93.1,3,5,7,0,2026-03-26T05:09:12.189856+05:30
Mathura,Uttar Pradesh,27.4924,77.6737,19.1,75,0.0,990.5,6.85,23.0,263,486.2,88.5,3,5,7,0,2026-03-26T05:09:12.189864+05:30
Vrindavan,Uttar Pradesh,27.5823,77.7027,18.7,77,0.0,990.8,6.8,26.6,263,486.2,88.5,3,5,7,0,2026-03-26T05:09:12.189872+05:30
Ayodhya,Uttar Pradesh,26.7922,82.1998,18.2,68,0.0,998.4,7.3,32.4,92,172.8,44.4,3,5,7,0,2026-03-26T05:09:12.189880+05:30
Ratlam,Madhya Pradesh,23.3315,75.0367,24.1,50,0.0,955.9,8.05,26.3,56,8.5,7.5,0,5,7,0,2026-03-26T05:09:12.189888+05:30
Sagar,Madhya Pradesh,23.8388,78.7378,22.8,52,0.0,952.2,8.05,21.6,53,44.9,14.6,0,5,7,0,2026-03-26T05:09:12.189896+05:30
Satna,Madhya Pradesh,24.6005,80.8322,22.3,51,0.0,974.4,8.05,26.3,81,113.6,25.4,0,5,7,0,2026-03-26T05:09:12.189904+05:30
Akola,Maharashtra,20.7002,77.0082,23.3,72,0.0,975.9,8.4,25.2,50,21.6,18.7,3,5,7,1,2026-03-26T05:09:12.189913+05:30
Amravati,Maharashtra,20.9374,77.7796,22.5,68,0.0,968.0,8.4,23.4,54,23.0,20.4,3,5,7,1,2026-03-26T05:09:12.189921+05:30
Latur,Maharashtra,18.4088,76.5604,23.6,71,0.0,940.4,8.75,28.1,86,42.0,36.3,3,5,7,1,2026-03-26T05:09:12.189929+05:30
Nanded,Maharashtra,19.1383,77.3091,26.1,62,0.0,969.4,8.6,24.1,81,29.6,25.7,7,5,7,1,2026-03-26T05:09:12.189937+05:30
Gulbarga,Karnataka,17.3297,76.8343,26.2,64,0.0,959.4,8.85,20.2,96,50.6,43.5,7,5,7,1,2026-03-26T05:09:12.189944+05:30
Bidar,Karnataka,17.9104,77.5199,25.2,70,0.0,936.3,8.85,22.7,92,43.9,37.8,7,5,7,1,2026-03-26T05:09:12.189952+05:30
Hospet,Karnataka,15.2689,76.3909,26.0,79,0.0,956.3,9.05,25.6,109,39.9,34.3,7,5,7,1,2026-03-26T05:09:12.189991+05:30
Tirupur,Tamil Nadu,11.1085,77.3411,24.2,82,0.0,975.9,9.4,32.0,54,23.3,21.6,3,5,7,1,2026-03-26T05:09:12.190009+05:30
Alappuzha,Kerala,9.4981,76.3388,28.3,81,0.0,1007.9,9.15,31.7,82,39.5,34.0,7,5,4,1,2026-03-26T05:09:12.190017+05:30
Munnar,Kerala,10.0889,77.0595,17.9,61,0.0,854.7,9.7,27.4,56,19.7,17.8,3,5,7,0,2026-03-26T05:09:12.190027+05:30
Silchar,Assam,24.8333,92.7789,20.9,91,0.0,1009.3,8.2,20.2,159,81.7,61.5,3,0,4,1,2026-03-26T05:09:12.190035+05:30
Dibrugarh,Assam,27.4728,94.912,19.4,88,0.0,1001.3,8.05,8.3,87,29.3,27.0,3,10,4,1,2026-03-26T05:09:12.190044+05:30
