city,state,latitude,longitude,temp,humidity,rain,pressure,uv_index,wind_gusts,aqi,pm10,pm2_5,no2,co,o3,so2,mosquito_risk,arthritis_risk,migraine_risk,frizz_risk,updated_at
Delhi,Delhi,28.6139,77.209,29.0,84,0.0,978.1,7.7,21.2,139,80.1,46.7,37.0,937.0,79.0,32.8,7,5,7,1,2026-07-02T23:56:18.039270+05:30
Mumbai,Maharashtra,19.076,72.8777,25.1,94,1.0,1006.5,1.45,45.4,40,21.1,10.7,6.8,231.0,52.0,5.1,10,5,0,1,2026-07-02T23:56:18.039308+05:30
Bangalore,Karnataka,12.9716,77.5946,22.1,83,0.0,912.2,4.5,61.6,22,6.1,4.8,13.0,241.0,35.0,3.9,3,5,3,1,2026-07-02T23:56:18.039323+05:30
Hyderabad,Telangana,17.385,78.4867,25.8,74,0.1,951.0,5.45,50.4,26,6.8,5.6,9.6,221.0,40.0,4.7,10,5,3,1,2026-07-02T23:56:18.039333+05:30
Chennai,Tamil Nadu,13.0827,80.2707,27.0,88,0.0,1006.3,6.4,45.0,37,12.1,10.7,18.1,462.0,42.0,9.2,7,5,4,1,2026-07-02T23:56:18.039341+05:30
Kolkata,West Bengal,22.5726,88.3639,27.3,95,0.0,1000.2,7.9,37.8,61,25.3,23.9,13.9,417.0,55.0,8.6,7,5,4,1,2026-07-02T23:56:18.039353+05:30
Pune,Maharashtra,18.5204,73.8567,22.2,95,0.0,945.9,1.25,45.4,19,4.1,3.6,8.7,174.0,42.0,5.5,3,5,3,1,2026-07-02T23:56:18.039360+05:30
Ahmedabad,Gujarat,23.0225,72.5714,29.2,79,0.0,997.6,6.75,43.9,57,19.4,16.1,23.3,248.0,28.0,7.2,7,5,7,1,2026-07-02T23:56:18.039366+05:30
Jaipur,Rajasthan,26.9124,75.7873,26.8,97,0.1,955.3,8.15,23.4,132,120.1,55.1,29.8,366.0,37.0,10.3,10,5,7,1,2026-07-02T23:56:18.039373+05:30
Lucknow,Uttar Pradesh,26.8467,80.9462,29.1,86,0.0,988.5,7.0,26.3,92,40.0,39.9,22.2,550.0,70.0,10.5,7,5,7,1,2026-07-02T23:56:18.039382+05:30
Kanpur,Uttar Pradesh,26.4499,80.3319,28.6,89,0.1,986.8,6.65,19.4,90,35.4,35.2,23.5,447.0,72.0,9.5,10,5,7,1,2026-07-02T23:56:18.039388+05:30
Chandigarh,Chandigarh,30.7333,76.7794,27.5,85,0.0,964.8,5.5,40.7,109,66.1,60.3,57.6,449.0,39.0,10.9,7,5,3,1,2026-07-02T23:56:18.039395+05:30
Srinagar,Jammu and Kashmir,34.0837,74.7973,20.5,86,0.0,839.3,9.05,21.2,85,31.8,29.8,38.8,1271.0,13.0,3.3,3,5,7,1,2026-07-02T23:56:18.039401+05:30
Jammu,Jammu and Kashmir,32.7266,74.857,28.3,82,0.0,967.8,8.55,26.6,119,115.9,72.9,73.3,391.0,18.0,9.6,7,5,7,1,2026-07-02T23:56:18.039407+05:30
Amritsar,Punjab,31.634,74.8723,28.5,86,0.0,975.7,8.45,28.8,171,162.1,97.8,33.4,480.0,53.0,8.0,7,5,7,1,2026-07-02T23:56:18.039414+05:30
Ludhiana,Punjab,30.901,75.8573,28.4,89,0.0,974.1,4.3,28.8,152,130.4,77.1,41.2,620.0,53.0,12.9,7,5,3,1,2026-07-02T23:56:18.039420+05:30
Jalandhar,Punjab,31.326,75.5762,28.3,84,0.0,975.1,6.1,31.3,159,137.4,95.7,46.7,577.0,47.0,12.4,7,5,7,1,2026-07-02T23:56:18.039426+05:30
Dehradun,Uttarakhand,30.6284,78.0322,18.9,98,0.1,829.9,5.7,25.2,66,12.9,12.4,26.2,238.0,76.0,2.0,6,10,3,1,2026-07-02T23:56:18.039432+05:30
Shimla,Himachal Pradesh,31.1048,77.1734,15.2,99,0.0,782.8,6.15,25.2,62,28.1,20.3,24.9,362.0,63.0,0.1,3,10,7,0,2026-07-02T23:56:18.039439+05:30
Manali,Himachal Pradesh,32.2396,77.1887,19.9,89,0.3,819.1,9.0,42.5,56,9.0,8.9,111.8,354.0,17.0,0.0,6,10,7,1,2026-07-02T23:56:18.039449+05:30
Gurgaon,Haryana,28.4595,77.0266,28.6,85,0.0,976.5,7.8,24.8,168,93.8,59.4,40.5,1301.0,81.0,27.4,7,5,7,1,2026-07-02T23:56:18.039455+05:30
Noida,Uttar Pradesh,28.5355,77.391,28.8,83,0.0,979.5,7.65,21.2,168,93.8,59.4,40.5,616.0,81.0,27.4,7,5,7,1,2026-07-02T23:56:18.039462+05:30
Ghaziabad,Uttar Pradesh,28.6692,77.4538,28.7,85,0.0,977.9,7.35,20.5,98,42.8,41.2,29.0,421.0,56.0,11.1,7,5,7,1,2026-07-02T23:56:18.039469+05:30
Faridabad,Haryana,28.4089,77.3178,28.7,85,0.0,978.7,7.7,25.6,168,93.8,59.4,40.5,680.0,81.0,27.4,7,5,7,1,2026-07-02T23:56:18.039475+05:30
Meerut,Uttar Pradesh,28.9845,77.7064,26.6,93,0.0,977.2,7.55,26.3,98,42.8,41.2,29.0,486.0,56.0,11.1,7,5,7,1,2026-07-02T23:56:18.039481+05:30
Agra,Uttar Pradesh,27.1767,78.0081,29.1,77,0.0,982.4,7.4,33.1,97,49.4,36.3,28.0,695.0,60.0,12.1,7,5,7,1,2026-07-02T23:56:18.039487+05:30
Varanasi,Uttar Pradesh,25.3176,82.9739,28.3,89,0.0,992.4,5.5,29.2,100,32.7,32.7,15.4,507.0,80.0,8.8,7,5,3,1,2026-07-02T23:56:18.039516+05:30
Prayagraj,Uttar Pradesh,25.4358,81.8463,28.3,90,0.2,990.7,6.95,23.4,90,34.7,34.7,17.1,429.0,75.0,7.0,10,5,7,1,2026-07-02T23:56:18.039523+05:30
Gorakhpur,Uttar Pradesh,26.7606,83.3732,29.7,81,0.0,993.0,8.15,32.8,112,37.1,37.0,19.6,418.0,69.0,8.6,7,5,7,1,2026-07-02T23:56:18.039530+05:30
Bareilly,Uttar Pradesh,28.367,79.4304,28.5,89,0.0,982.4,7.3,32.8,97,66.8,65.9,40.2,636.0,48.0,17.0,7,5,7,1,2026-07-02T23:56:18.039542+05:30
Aligarh,Uttar Pradesh,27.8974,78.088,29.1,81,0.0,980.4,7.2,29.5,104,47.6,38.0,22.7,509.0,71.0,10.7,7,5,7,1,2026-07-02T23:56:18.039549+05:30
Moradabad,Uttar Pradesh,28.8386,78.7733,28.5,87,0.0,979.5,6.75,36.0,103,88.9,85.7,48.8,644.0,44.0,18.5,7,5,7,1,2026-07-02T23:56:18.039556+05:30
Saharanpur,Uttar Pradesh,29.9637,77.546,27.8,89,0.0,971.9,7.25,36.0,110,64.0,58.7,34.6,560.0,74.0,13.2,7,5,7,1,2026-07-02T23:56:18.039562+05:30
Jhansi,Uttar Pradesh,25.4484,78.5685,28.5,82,0.0,972.7,7.7,35.3,95,33.1,23.4,9.5,273.0,69.0,2.8,7,5,7,1,2026-07-02T23:56:21.339394+05:30
Surat,Gujarat,21.1702,72.8311,25.4,100,0.4,1003.2,0.5,29.5,60,21.8,18.0,29.6,435.0,21.0,37.7,10,5,0,1,2026-07-02T23:56:21.339426+05:30
Vadodara,Gujarat,22.3072,73.1812,27.7,88,0.0,1000.0,7.45,37.8,48,14.8,12.2,16.6,192.0,36.0,5.5,7,5,4,1,2026-07-02T23:56:21.339440+05:30
Rajkot,Gujarat,22.3039,70.8022,27.0,91,0.0,990.2,5.7,47.2,52,22.8,12.0,6.4,141.0,46.0,5.6,7,5,3,1,2026-07-02T23:56:21.339451+05:30
Thane,Maharashtra,19.2183,72.9781,24.5,99,0.2,1005.9,1.1,35.6,40,21.1,10.7,6.8,273.0,52.0,5.1,6,5,0,1,2026-07-02T23:56:21.339461+05:30
Nagpur,Maharashtra,21.1458,79.0882,25.7,91,0.0,968.7,1.4,34.2,57,8.0,7.4,12.1,214.0,57.0,9.7,7,5,3,1,2026-07-02T23:56:21.339471+05:30
Nashik,Maharashtra,19.9975,73.7898,22.3,97,0.0,942.5,2.05,54.4,20,2.6,2.3,11.5,166.0,36.0,6.4,3,5,3,1,2026-07-02T23:56:21.339480+05:30
Aurangabad,Maharashtra,19.8762,75.3433,23.4,95,0.1,941.1,5.85,52.2,23,2.8,2.7,9.1,137.0,41.0,8.2,6,5,3,1,2026-07-02T23:56:21.339509+05:30
Solapur,Maharashtra,17.6599,75.9064,24.3,86,0.1,955.9,6.05,54.4,24,4.3,3.6,6.1,140.0,41.0,2.5,6,5,7,1,2026-07-02T23:56:21.339520+05:30
Kolhapur,Maharashtra,16.705,74.2433,22.4,93,0.0,947.0,1.85,46.4,20,4.1,3.5,5.1,149.0,45.0,2.1,3,5,3,1,2026-07-02T23:56:21.339530+05:30
Goa,Goa,15.2993,74.124,23.6,99,0.1,998.7,4.85,33.5,42,20.8,12.5,4.0,196.0,46.0,1.0,6,5,3,1,2026-07-02T23:56:21.339540+05:30
Jodhpur,Rajasthan,26.2389,73.0243,30.8,60,0.0,977.6,8.4,46.1,124,139.7,37.7,10.2,146.0,54.0,2.6,0,5,7,1,2026-07-02T23:56:21.339550+05:30
Udaipur,Rajasthan,24.5854,73.7125,25.2,88,0.0,942.4,7.7,31.3,60,18.2,13.5,6.1,158.0,79.0,4.8,7,5,7,1,2026-07-02T23:56:21.339559+05:30
Kota,Rajasthan,25.2138,75.8648,28.8,82,0.0,974.0,7.3,35.6,72,30.7,21.3,8.5,328.0,82.0,5.4,7,5,7,1,2026-07-02T23:56:21.339568+05:30
Bikaner,Rajasthan,28.0229,73.3119,32.6,52,0.0,975.6,8.45,33.5,156,123.9,51.5,4.0,183.0,63.0,2.0,0,5,7,1,2026-07-02T23:56:21.339577+05:30
Ajmer,Rajasthan,26.4499,74.6399,29.3,71,0.0,950.1,8.05,50.0,94,71.5,37.8,16.0,218.0,48.0,3.6,7,5,7,1,2026-07-02T23:56:21.339586+05:30
Gwalior,Madhya Pradesh,26.2183,78.1828,29.2,79,0.0,977.8,8.15,43.2,102,98.5,47.1,22.6,525.0,69.0,7.0,7,5,7,1,2026-07-02T23:56:21.339595+05:30
Indore,Madhya Pradesh,22.7196,75.8577,24.0,97,0.0,943.8,3.7,42.8,55,14.8,14.4,14.0,408.0,49.0,4.8,3,5,3,1,2026-07-02T23:56:21.339605+05:30
Bhopal,Madhya Pradesh,23.2599,77.4126,24.4,97,0.1,948.8,7.3,37.4,68,21.9,17.2,7.8,405.0,71.0,2.4,6,5,7,1,2026-07-02T23:56:21.339614+05:30
Jabalpur,Madhya Pradesh,23.1815,79.9864,25.0,98,0.1,956.7,3.7,25.6,69,34.9,25.4,13.4,262.0,63.0,3.6,10,5,3,1,2026-07-02T23:56:21.339623+05:30
Ujjain,Madhya Pradesh,23.1765,75.7885,24.3,96,0.1,949.3,7.2,32.0,54,15.2,14.6,8.1,301.0,61.0,3.7,6,5,7,1,2026-07-02T23:56:21.339633+05:30
Visakhapatnam,Andhra Pradesh,17.6868,83.2185,26.2,88,0.0,998.2,2.5,38.9,50,14.1,11.8,18.5,268.0,45.0,31.0,7,5,3,1,2026-07-02T23:56:21.339642+05:30
Vijayawada,Andhra Pradesh,16.5062,80.648,28.0,78,0.0,1000.0,7.0,58.3,41,20.6,16.8,12.7,229.0,47.0,6.8,7,5,4,1,2026-07-02T23:56:21.339651+05:30
Guntur,Andhra Pradesh,16.3067,80.4365,27.6,82,0.0,1001.5,7.4,56.5,37,15.8,13.1,11.4,191.0,50.0,6.8,7,5,4,1,2026-07-02T23:56:21.339660+05:30
Nellore,Andhra Pradesh,14.4426,79.9865,26.9,90,0.1,1004.8,7.9,47.5,34,7.0,4.9,5.8,251.0,51.0,4.6,10,5,4,1,2026-07-02T23:56:21.339670+05:30
Kurnool,Andhra Pradesh,15.8281,78.0373,26.6,75,0.0,976.2,7.1,63.7,28,4.1,3.5,7.8,140.0,41.0,2.1,7,5,7,1,2026-07-02T23:56:21.339680+05:30
Kakinada,Andhra Pradesh,16.9891,82.2475,27.2,80,0.1,1003.8,7.85,64.4,40,16.7,12.3,7.6,206.0,57.0,4.8,10,5,4,1,2026-07-02T23:56:21.339690+05:30
Tirupati,Andhra Pradesh,13.6288,79.4192,30.3,54,0.0,990.8,7.55,49.0,23,5.4,4.3,7.0,107.0,45.0,1.6,0,5,7,1,2026-07-02T23:56:21.339699+05:30
Warangal,Telangana,17.9689,79.5941,25.8,88,0.0,976.2,3.55,52.2,29,12.6,11.1,11.4,275.0,42.0,3.9,7,5,3,1,2026-07-02T23:56:21.339708+05:30
Nizamabad,Telangana,18.6725,78.0941,24.2,96,0.1,962.1,1.1,45.7,29,9.5,7.8,9.1,188.0,39.0,4.6,6,5,3,1,2026-07-02T23:56:21.339717+05:30
Mysore,Karnataka,12.2958,76.6396,21.7,91,0.0,929.4,7.25,60.5,21,4.4,3.5,7.8,142.0,39.0,2.0,3,5,7,1,2026-07-02T23:56:21.339726+05:30
Mangalore,Karnataka,12.9141,74.856,25.3,94,0.2,1009.0,4.65,43.2,28,19.4,11.3,6.1,166.0,38.0,1.9,10,0,0,1,2026-07-02T23:56:21.339735+05:30
Hubli-Dharwad,Karnataka,15.3647,75.124,21.9,99,0.1,940.6,7.65,54.7,20,1.6,1.5,5.4,121.0,42.0,1.2,6,5,7,1,2026-07-02T23:56:21.339745+05:30
Belgaum,Karnataka,15.8497,74.4977,21.5,98,0.0,925.1,7.45,50.8,21,2.9,2.2,4.5,114.0,45.0,1.9,3,5,7,1,2026-07-02T23:56:24.654753+05:30
Coimbatore,Tamil Nadu,11.0168,76.9558,23.1,93,0.0,962.7,8.35,61.2,21,6.4,5.6,8.4,211.0,34.0,3.1,3,5,7,1,2026-07-02T23:56:24.654787+05:30
Madurai,Tamil Nadu,9.9252,78.1198,29.4,59,0.0,993.6,8.65,56.5,39,7.3,6.3,10.2,148.0,36.0,3.9,4,5,7,1,2026-07-02T23:56:24.654801+05:30
Trichy,Tamil Nadu,10.7905,78.7047,29.1,63,0.0,1000.0,8.75,63.7,28,5.6,3.7,4.4,133.0,42.0,2.2,7,5,4,1,2026-07-02T23:56:24.654813+05:30
Salem,Tamil Nadu,11.6643,78.146,26.5,77,0.0,978.1,8.2,34.9,35,10.4,9.3,15.6,536.0,34.0,6.7,7,5,7,1,2026-07-02T23:56:24.654824+05:30
Tirunelveli,Tamil Nadu,8.7139,77.7567,29.1,62,0.0,1004.5,8.65,51.5,24,6.7,5.8,8.2,140.0,32.0,2.3,7,5,4,1,2026-07-02T23:56:24.654834+05:30
Vellore,Tamil Nadu,12.9165,79.1325,29.4,58,0.0,984.1,7.65,45.0,28,5.6,4.9,10.2,133.0,42.0,3.6,4,5,7,1,2026-07-02T23:56:24.654843+05:30
Erode,Tamil Nadu,11.341,77.7172,26.2,78,0.0,989.9,8.65,52.6,27,12.0,10.7,17.0,190.0,29.0,4.0,7,5,7,1,2026-07-02T23:56:24.654853+05:30
Kochi,Kerala,9.9312,76.2673,24.5,95,0.0,1012.1,8.45,43.2,49,14.0,11.8,17.6,169.0,20.0,4.7,3,0,4,1,2026-07-02T23:56:24.654864+05:30
Thiruvananthapuram,Kerala,8.5241,76.9366,24.8,93,0.0,1011.3,8.45,46.8,42,11.4,6.8,3.4,127.0,39.0,1.4,3,0,4,1,2026-07-02T23:56:24.654873+05:30
Kozhikode,Kerala,11.2588,75.7804,23.9,99,0.1,1010.7,8.1,35.3,26,11.3,5.8,1.4,224.0,51.0,0.8,6,0,4,1,2026-07-02T23:56:24.654883+05:30
Thrissur,Kerala,10.5276,76.2144,24.2,99,0.2,1010.2,8.55,34.2,43,15.4,13.4,13.2,275.0,27.0,3.9,6,0,4,1,2026-07-02T23:56:24.654893+05:30
Kannur,Kerala,11.8745,75.3704,24.5,98,0.2,1009.9,8.6,36.7,24,16.8,10.3,9.4,226.0,35.0,2.1,6,0,4,1,2026-07-02T23:56:24.654903+05:30
Patna,Bihar,25.5941,85.1376,28.0,93,0.0,995.8,5.8,34.6,96,30.6,30.5,16.2,409.0,83.0,14.1,7,5,3,1,2026-07-02T23:56:24.654913+05:30
Gaya,Bihar,24.7914,85.0002,27.1,93,0.0,988.8,6.45,27.0,82,26.4,26.2,12.4,349.0,80.0,9.4,7,5,7,1,2026-07-02T23:56:24.654923+05:30
Muzaffarpur,Bihar,26.1209,85.3647,28.6,87,0.0,996.0,6.55,35.6,92,32.7,32.5,18.3,434.0,72.0,11.6,7,5,7,1,2026-07-02T23:56:24.654932+05:30
Bhagalpur,Bihar,25.2425,87.0117,28.3,89,0.0,996.6,6.0,35.3,88,27.7,27.4,13.6,314.0,75.0,9.2,7,5,3,1,2026-07-02T23:56:24.654942+05:30
Ranchi,Jharkhand,23.3441,85.3096,23.5,98,0.0,932.7,6.8,37.4,84,17.1,16.9,11.1,288.0,71.0,11.1,3,5,7,1,2026-07-02T23:56:24.654952+05:30
Jamshedpur,Jharkhand,22.8046,86.2029,26.4,94,0.0,985.3,7.1,32.8,86,20.0,19.7,11.9,343.0,63.0,10.8,7,5,7,1,2026-07-02T23:56:24.654961+05:30
Dhanbad,Jharkhand,23.7957,86.4304,26.9,92,0.0,975.0,7.8,36.7,116,39.5,39.1,43.4,372.0,50.0,89.8,7,5,7,1,2026-07-02T23:56:24.654971+05:30
Bokaro,Jharkhand,23.6693,86.1511,26.5,94,0.1,978.8,7.0,37.8,116,40.6,40.4,42.9,465.0,48.0,93.7,10,5,7,1,2026-07-02T23:56:24.654980+05:30
Bhubaneswar,Odisha,20.2961,85.8245,26.0,99,0.0,995.8,8.75,23.4,64,22.5,21.8,14.8,375.0,65.0,5.4,7,5,7,1,2026-07-02T23:56:24.654990+05:30
Cuttack,Odisha,20.4625,85.8828,26.5,96,0.0,997.4,8.45,24.8,64,22.5,21.8,14.8,424.0,65.0,5.4,7,5,7,1,2026-07-02T23:56:24.654999+05:30
Rourkela,Odisha,22.2604,84.8536,25.5,97,0.0,978.7,5.75,34.6,120,43.3,43.1,15.8,459.0,99.0,23.6,7,5,3,1,2026-07-02T23:56:24.655009+05:30
Raipur,Chhattisgarh,21.2514,81.6296,25.2,97,0.2,969.6,5.0,35.6,79,21.7,21.1,26.7,247.0,50.0,37.3,10,5,3,1,2026-07-02T23:56:24.655018+05:30
Bhilai,Chhattisgarh,21.1938,81.3509,25.5,94,0.1,970.3,4.7,38.5,69,18.2,17.8,21.3,624.0,54.0,28.2,10,5,3,1,2026-07-02T23:56:24.655028+05:30
Guwahati,Assam,26.1158,91.7086,26.8,97,0.3,997.4,7.8,22.7,32,8.1,7.9,11.3,255.0,32.0,1.4,10,5,7,1,2026-07-02T23:56:24.655038+05:30
Agartala,Tripura,23.8315,91.2868,26.9,92,0.0,1001.9,8.05,28.4,53,13.0,12.3,12.4,217.0,45.0,3.7,7,5,4,1,2026-07-02T23:56:24.655047+05:30
Shillong,Meghalaya,25.5788,91.8933,19.4,94,0.0,854.4,8.55,26.6,30,7.2,7.1,8.5,303.0,54.0,2.7,3,10,7,1,2026-07-02T23:56:24.655057+05:30
Imphal,Manipur,24.817,93.9368,24.1,93,0.0,920.7,9.0,25.9,41,15.3,15.0,14.7,822.0,30.0,2.8,3,5,7,1,2026-07-02T23:56:24.655066+05:30
Aizawl,Mizoram,23.7271,92.7176,21.0,99,0.1,889.5,8.9,16.6,36,9.7,9.5,12.6,222.0,25.0,0.9,6,5,7,1,2026-07-02T23:56:24.655075+05:30
Kohima,Nagaland,25.6701,94.1077,20.4,91,0.1,853.0,8.85,25.9,26,5.5,5.5,10.4,286.0,22.0,0.8,6,5,7,1,2026-07-02T23:56:24.655085+05:30
Gangtok,Sikkim,27.3314,88.6138,19.4,95,0.1,837.5,8.35,30.6,41,9.5,9.3,10.2,275.0,84.0,1.5,6,10,7,1,2026-07-02T23:56:24.655094+05:30
Siliguri,West Bengal,26.7271,88.3953,27.6,92,0.0,989.3,8.3,27.7,72,30.3,30.2,19.5,521.0,74.0,5.7,7,5,7,1,2026-07-02T23:56:27.983458+05:30
Durgapur,West Bengal,23.5204,87.3119,26.9,95,0.0,989.9,7.3,36.7,110,30.2,30.0,22.0,472.0,66.0,22.8,7,5,7,1,2026-07-02T23:56:27.983511+05:30
Asansol,West Bengal,23.6739,86.9524,27.5,91,0.0,988.5,7.0,38.2,100,29.3,29.1,26.8,492.0,67.0,30.5,7,5,7,1,2026-07-02T23:56:27.983527+05:30
Pondicherry,Puducherry,11.9139,79.8145,30.3,63,0.0,1007.7,8.4,26.6,55,18.3,15.6,19.7,479.0,51.0,14.1,3,5,4,1,2026-07-02T23:56:27.983538+05:30
Port Blair,Andaman and Nicobar Islands,11.6234,92.7265,26.2,95,0.0,1006.5,3.1,47.2,40,16.4,8.5,0.3,92.0,65.0,0.5,7,5,0,1,2026-07-02T23:56:27.983549+05:30
Haridwar,Uttarakhand,29.9457,78.1642,27.3,93,0.0,970.5,5.3,23.4,87,52.4,47.7,23.0,486.0,90.0,10.5,7,5,3,1,2026-07-02T23:56:27.983558+05:30
Rishikesh,Uttarakhand,30.0869,78.2676,25.6,96,0.0,963.4,3.95,29.2,66,38.2,34.5,16.1,417.0,97.0,6.8,7,5,3,1,2026-07-02T23:56:27.983568+05:30
Nainital,Uttarakhand,29.3919,79.4542,16.8,95,0.0,804.2,7.45,21.2,78,43.8,41.6,22.2,408.0,53.0,3.2,3,10,7,0,2026-07-02T23:56:27.983578+05:30
Mussoorie,Uttarakhand,30.4599,78.0664,17.0,100,0.1,802.4,5.35,26.6,59,33.1,29.9,21.4,339.0,88.0,8.9,6,10,3,1,2026-07-02T23:56:27.983587+05:30
Dharamshala,Himachal Pradesh,32.219,76.3234,22.4,92,0.0,867.5,4.75,33.1,40,11.4,10.6,21.2,471.0,33.0,0.3,3,5,3,1,2026-07-02T23:56:27.983596+05:30
Dalhousie,Himachal Pradesh,32.5387,75.971,17.1,95,0.0,802.9,3.85,24.1,84,47.4,34.5,52.1,601.0,19.0,2.3,3,10,3,1,2026-07-02T23:56:27.983606+05:30
Patiala,Punjab,30.3398,76.3869,28.6,84,0.0,973.8,7.55,34.6,135,115.9,48.2,25.9,466.0,70.0,10.3,7,5,7,1,2026-07-02T23:56:27.983616+05:30
Bhatinda,Punjab,30.211,74.9455,30.0,77,0.0,978.6,8.3,46.4,217,334.3,110.1,24.3,395.0,66.0,9.1,7,5,7,1,2026-07-02T23:56:27.983625+05:30
Rohtak,Haryana,28.8955,76.6066,28.7,81,0.0,977.0,7.65,31.3,159,321.3,75.7,41.7,740.0,72.0,27.3,7,5,7,1,2026-07-02T23:56:27.983634+05:30
Panipat,Haryana,29.3909,76.9635,28.6,82,0.0,975.9,7.2,24.8,190,808.4,125.7,22.5,502.0,81.0,9.3,7,5,7,1,2026-07-02T23:56:27.983643+05:30
Mathura,Uttar Pradesh,27.4924,77.6737,29.0,80,0.0,981.6,7.95,37.4,121,70.8,44.9,29.0,500.0,68.0,9.6,7,5,7,1,2026-07-02T23:56:27.983652+05:30
Vrindavan,Uttar Pradesh,27.5823,77.7027,29.0,77,0.0,982.0,7.9,35.6,121,70.8,44.9,29.0,481.0,68.0,9.6,7,5,7,1,2026-07-02T23:56:27.983662+05:30
Ayodhya,Uttar Pradesh,26.7922,82.1998,29.4,84,0.0,990.6,6.9,25.9,113,36.1,36.1,20.8,501.0,60.0,7.0,7,5,7,1,2026-07-02T23:56:27.983671+05:30
Ratlam,Madhya Pradesh,23.3315,75.0367,24.3,97,0.0,950.6,7.15,41.0,50,13.2,12.7,6.5,194.0,67.0,4.4,3,5,7,1,2026-07-02T23:56:27.983680+05:30
Sagar,Madhya Pradesh,23.8388,78.7378,24.1,99,0.0,945.3,1.45,34.6,71,29.8,23.0,9.4,214.0,71.0,2.8,3,5,3,1,2026-07-02T23:56:27.983689+05:30
Satna,Madhya Pradesh,24.6005,80.8322,25.7,97,0.1,966.4,8.0,21.2,75,27.6,24.2,14.6,252.0,71.0,6.2,10,5,7,1,2026-07-02T23:56:27.983699+05:30
Akola,Maharashtra,20.7002,77.0082,25.6,94,0.0,971.2,6.45,38.5,28,7.4,7.1,11.6,184.0,41.0,6.1,7,5,7,1,2026-07-02T23:56:27.983709+05:30
Amravati,Maharashtra,20.9374,77.7796,24.7,96,0.1,963.2,3.7,42.1,28,7.7,7.2,11.5,174.0,43.0,5.8,6,5,3,1,2026-07-02T23:56:27.983718+05:30
Latur,Maharashtra,18.4088,76.5604,23.5,93,0.1,937.6,1.15,51.1,25,5.1,4.0,5.5,149.0,44.0,2.3,6,5,3,1,2026-07-02T23:56:27.983728+05:30
Nanded,Maharashtra,19.1383,77.3091,24.6,91,0.1,966.0,2.2,46.4,26,9.3,7.0,7.5,157.0,41.0,4.1,6,5,3,1,2026-07-02T23:56:27.983737+05:30
Gulbarga,Karnataka,17.3297,76.8343,25.0,82,0.1,957.4,4.55,55.8,24,4.5,3.6,7.9,153.0,39.0,2.9,10,5,3,1,2026-07-02T23:56:27.983746+05:30
Bidar,Karnataka,17.9104,77.5199,23.0,93,0.2,933.2,2.1,50.0,24,5.7,4.7,7.4,143.0,42.0,2.4,6,5,3,1,2026-07-02T23:56:27.983755+05:30
Hospet,Karnataka,15.2689,76.3909,23.1,92,0.0,955.9,6.95,57.6,22,3.1,2.5,6.6,132.0,41.0,1.6,3,5,7,1,2026-07-02T23:56:27.983764+05:30
Tirupur,Tamil Nadu,11.1085,77.3411,24.1,88,0.0,976.3,8.7,61.2,32,14.5,13.5,21.2,167.0,23.0,5.4,3,5,7,1,2026-07-02T23:56:27.983773+05:30
Alappuzha,Kerala,9.4981,76.3388,25.2,94,0.1,1012.2,8.35,46.4,43,10.9,8.0,9.9,85.0,33.0,2.7,10,0,4,1,2026-07-02T23:56:27.983782+05:30
Munnar,Kerala,10.0889,77.0595,17.0,100,0.3,858.3,8.25,43.2,22,3.3,2.8,5.1,94.0,38.0,1.8,6,10,7,1,2026-07-02T23:56:27.983792+05:30
Silchar,Assam,24.8333,92.7789,26.1,95,0.0,1001.9,8.7,25.6,75,18.4,18.1,7.8,189.0,50.0,4.2,7,5,4,1,2026-07-02T23:56:27.983801+05:30
Dibrugarh,Assam,27.4728,94.912,27.0,97,0.1,991.0,8.85,21.6,47,15.7,15.4,13.6,492.0,42.0,1.5,10,5,7,1,2026-07-02T23:56:27.983810+05:30
