city,state,latitude,longitude,temp,humidity,rain,pressure,uv_index,wind_gusts,aqi,pm10,pm2_5,mosquito_risk,arthritis_risk,migraine_risk,frizz_risk,updated_at
Delhi,Delhi,28.6139,77.209,32.8,33,0.0,986.6,6.55,19.1,161,202.1,33.6,0,5,7,0,2026-03-26T14:31:21.601452+05:30
Mumbai,Maharashtra,19.076,72.8777,29.1,75,0.0,1008.5,7.95,29.5,81,46.1,34.2,7,0,4,1,2026-03-26T14:31:21.601492+05:30
Bangalore,Karnataka,12.9716,77.5946,34.0,19,0.0,913.1,9.45,36.4,75,28.0,20.0,0,5,7,0,2026-03-26T14:31:21.601508+05:30
Hyderabad,Telangana,17.385,78.4867,35.2,29,0.0,955.0,8.95,29.2,96,31.3,23.7,0,5,10,0,2026-03-26T14:31:21.601518+05:30
Chennai,Tamil Nadu,13.0827,80.2707,32.7,49,0.0,1009.0,9.2,31.7,59,30.6,19.2,0,0,4,1,2026-03-26T14:31:21.601527+05:30
Kolkata,West Bengal,22.5726,88.3639,32.5,56,0.0,1007.3,8.45,18.4,133,78.5,60.5,0,5,4,1,2026-03-26T14:31:21.601536+05:30
Pune,Maharashtra,18.5204,73.8567,38.5,20,0.0,949.4,8.5,34.2,97,36.6,26.4,0,5,10,0,2026-03-26T14:31:21.601548+05:30
Ahmedabad,Gujarat,23.0225,72.5714,38.3,23,0.0,1004.1,7.9,26.3,66,34.3,13.4,0,5,7,0,2026-03-26T14:31:21.601556+05:30
Jaipur,Rajasthan,26.9124,75.7873,33.6,27,0.0,963.4,7.1,28.8,91,129.5,23.9,0,5,7,0,2026-03-26T14:31:21.601563+05:30
Lucknow,Uttar Pradesh,26.8467,80.9462,35.7,21,0.0,995.7,7.15,34.2,116,64.0,18.9,0,5,10,0,2026-03-26T14:31:21.601571+05:30
Kanpur,Uttar Pradesh,26.4499,80.3319,33.8,30,0.0,994.8,7.15,25.9,169,285.0,37.0,0,5,7,0,2026-03-26T14:31:21.601579+05:30
Chandigarh,Chandigarh,30.7333,76.7794,31.8,32,0.0,972.7,6.45,32.8,66,20.4,13.4,0,5,7,0,2026-03-26T14:31:21.601586+05:30
Srinagar,Jammu and Kashmir,34.0837,74.7973,15.9,50,0.0,846.2,7.3,16.9,88,17.8,9.7,0,5,7,0,2026-03-26T14:31:21.601593+05:30
Jammu,Jammu and Kashmir,32.7266,74.857,29.5,36,0.0,977.4,6.6,29.2,80,25.6,13.6,4,5,7,0,2026-03-26T14:31:21.601603+05:30
Amritsar,Punjab,31.634,74.8723,29.2,42,0.0,986.0,6.7,33.1,84,36.6,16.5,4,5,7,0,2026-03-26T14:31:21.601610+05:30
Ludhiana,Punjab,30.901,75.8573,31.1,37,0.0,983.2,6.15,32.0,86,23.9,14.2,0,5,7,0,2026-03-26T14:31:21.601617+05:30
Jalandhar,Punjab,31.326,75.5762,29.9,42,0.0,984.6,6.8,32.0,83,35.3,14.9,4,5,7,0,2026-03-26T14:31:21.601626+05:30
Dehradun,Uttarakhand,30.6284,78.0322,20.9,45,0.0,834.2,6.9,41.4,60,13.7,6.4,0,5,7,0,2026-03-26T14:31:21.601632+05:30
Shimla,Himachal Pradesh,31.1048,77.1734,18.9,44,0.0,789.7,6.95,46.8,60,12.8,7.9,0,5,7,0,2026-03-26T14:31:21.601640+05:30
Manali,Himachal Pradesh,32.2396,77.1887,19.5,47,0.0,823.8,8.75,27.7,89,8.8,5.5,0,5,7,0,2026-03-26T14:31:21.601647+05:30
Gurgaon,Haryana,28.4595,77.0266,32.6,37,0.0,984.9,5.9,25.9,275,502.9,63.8,0,5,3,0,2026-03-26T14:31:21.601654+05:30
Noida,Uttar Pradesh,28.5355,77.391,33.1,34,0.0,988.1,6.45,17.3,275,502.9,63.8,0,5,7,0,2026-03-26T14:31:21.601660+05:30
Ghaziabad,Uttar Pradesh,28.6692,77.4538,32.6,34,0.0,986.3,6.55,24.1,132,163.9,30.0,0,5,7,0,2026-03-26T14:31:21.601667+05:30
Faridabad,Haryana,28.4089,77.3178,32.9,36,0.0,987.3,6.2,26.3,275,502.9,63.8,0,5,7,0,2026-03-26T14:31:21.601673+05:30
Meerut,Uttar Pradesh,28.9845,77.7064,32.9,32,0.0,985.0,6.15,28.8,132,163.9,30.0,0,5,7,0,2026-03-26T14:31:21.601679+05:30
Agra,Uttar Pradesh,27.1767,78.0081,36.5,23,0.0,990.6,6.95,22.7,189,350.2,47.4,0,5,10,0,2026-03-26T14:31:21.601685+05:30
Varanasi,Uttar Pradesh,25.3176,82.9739,35.3,22,0.0,999.8,7.8,29.5,101,81.7,21.2,0,5,10,0,2026-03-26T14:31:21.601694+05:30
Prayagraj,Uttar Pradesh,25.4358,81.8463,35.4,23,0.0,998.6,7.7,26.3,104,99.9,24.7,0,5,10,0,2026-03-26T14:31:21.601701+05:30
Gorakhpur,Uttar Pradesh,26.7606,83.3732,33.4,30,0.0,999.2,7.55,13.7,105,75.9,20.5,0,5,7,0,2026-03-26T14:31:21.601707+05:30
Bareilly,Uttar Pradesh,28.367,79.4304,33.4,32,0.0,989.5,6.8,29.9,91,27.0,16.8,0,5,7,0,2026-03-26T14:31:21.601714+05:30
Aligarh,Uttar Pradesh,27.8974,78.088,34.0,33,0.0,988.8,6.4,31.0,203,331.6,44.9,0,5,7,0,2026-03-26T14:31:21.601720+05:30
Moradabad,Uttar Pradesh,28.8386,78.7733,33.5,29,0.0,986.4,6.6,33.1,98,32.8,13.6,0,5,7,0,2026-03-26T14:31:21.601726+05:30
Saharanpur,Uttar Pradesh,29.9637,77.546,32.7,28,0.0,979.1,6.25,36.7,94,41.9,14.7,0,5,7,0,2026-03-26T14:31:21.601734+05:30
Jhansi,Uttar Pradesh,25.4484,78.5685,36.5,20,0.0,980.6,7.6,24.5,79,62.9,19.4,0,5,10,0,2026-03-26T14:31:24.871190+05:30
Surat,Gujarat,21.1702,72.8311,37.0,31,0.0,1007.9,7.7,23.4,94,40.2,27.9,0,5,7,1,2026-03-26T14:31:24.871222+05:30
Vadodara,Gujarat,22.3072,73.1812,39.8,20,0.0,1005.8,7.9,28.8,94,25.2,14.1,0,5,7,0,2026-03-26T14:31:24.871232+05:30
Rajkot,Gujarat,22.3039,70.8022,37.2,20,0.0,997.1,7.75,32.4,52,29.5,10.4,0,5,10,0,2026-03-26T14:31:24.871239+05:30
Thane,Maharashtra,19.2183,72.9781,35.4,48,0.0,1008.3,7.95,42.1,81,46.1,34.2,0,0,7,1,2026-03-26T14:31:24.871246+05:30
Nagpur,Maharashtra,21.1458,79.0882,38.1,23,0.0,974.5,8.45,22.3,114,36.7,28.7,0,5,10,0,2026-03-26T14:31:24.871254+05:30
Nashik,Maharashtra,19.9975,73.7898,35.2,24,0.0,947.4,8.15,29.9,80,32.1,20.1,0,5,10,0,2026-03-26T14:31:24.871261+05:30
Aurangabad,Maharashtra,19.8762,75.3433,36.0,23,0.0,946.0,8.65,23.0,66,20.0,13.0,0,5,10,0,2026-03-26T14:31:24.871268+05:30
Solapur,Maharashtra,17.6599,75.9064,36.3,28,0.0,958.8,8.85,23.8,112,42.3,33.2,0,5,10,0,2026-03-26T14:31:24.871275+05:30
Kolhapur,Maharashtra,16.705,74.2433,35.4,30,0.0,949.3,8.8,30.6,154,42.6,34.1,0,5,10,0,2026-03-26T14:31:24.871282+05:30
Goa,Goa,15.2993,74.124,33.7,59,0.0,997.8,7.75,32.4,97,38.2,29.6,0,5,7,1,2026-03-26T14:31:24.871289+05:30
Jodhpur,Rajasthan,26.2389,73.0243,35.8,24,0.0,986.7,7.45,30.6,74,77.3,17.3,0,5,10,0,2026-03-26T14:31:24.871296+05:30
Udaipur,Rajasthan,24.5854,73.7125,35.6,17,0.0,950.0,8.05,38.5,40,16.8,6.3,0,5,10,0,2026-03-26T14:31:24.871302+05:30
Kota,Rajasthan,25.2138,75.8648,37.6,21,0.0,981.0,7.65,16.9,77,31.4,20.2,0,5,10,0,2026-03-26T14:31:24.871309+05:30
Bikaner,Rajasthan,28.0229,73.3119,33.9,27,0.0,985.4,7.1,28.8,52,23.6,10.4,0,5,7,0,2026-03-26T14:31:24.871315+05:30
Ajmer,Rajasthan,26.4499,74.6399,34.5,22,0.0,957.9,7.35,33.5,57,68.2,13.6,0,5,7,0,2026-03-26T14:31:24.871322+05:30
Gwalior,Madhya Pradesh,26.2183,78.1828,35.6,25,0.0,986.4,7.3,23.4,84,110.1,23.6,0,5,10,0,2026-03-26T14:31:24.871328+05:30
Indore,Madhya Pradesh,22.7196,75.8577,36.0,22,0.0,950.6,8.15,30.2,67,13.6,7.1,0,5,10,0,2026-03-26T14:31:24.871334+05:30
Bhopal,Madhya Pradesh,23.2599,77.4126,37.9,17,0.0,955.8,8.05,29.5,60,18.6,8.7,0,5,10,0,2026-03-26T14:31:24.871365+05:30
Jabalpur,Madhya Pradesh,23.1815,79.9864,36.2,23,0.0,964.1,8.2,21.2,77,31.0,12.2,0,5,10,0,2026-03-26T14:31:24.871374+05:30
Ujjain,Madhya Pradesh,23.1765,75.7885,36.0,24,0.0,956.3,8.1,31.7,63,12.2,6.0,0,5,10,0,2026-03-26T14:31:24.871381+05:30
Visakhapatnam,Andhra Pradesh,17.6868,83.2185,33.1,59,0.0,1005.4,8.75,30.2,84,41.6,30.4,0,5,4,1,2026-03-26T14:31:24.871388+05:30
Vijayawada,Andhra Pradesh,16.5062,80.648,35.1,45,0.0,1003.6,9.0,22.0,70,42.1,29.7,0,5,7,1,2026-03-26T14:31:24.871394+05:30
Guntur,Andhra Pradesh,16.3067,80.4365,35.4,43,0.0,1004.8,9.0,27.7,67,39.2,27.1,0,5,7,1,2026-03-26T14:31:24.871405+05:30
Nellore,Andhra Pradesh,14.4426,79.9865,35.1,39,0.0,1007.0,9.1,31.7,55,28.6,18.2,0,5,7,1,2026-03-26T14:31:24.871412+05:30
Kurnool,Andhra Pradesh,15.8281,78.0373,39.6,18,0.0,977.1,9.0,29.2,83,31.3,22.5,0,5,10,0,2026-03-26T14:31:24.871420+05:30
Kakinada,Andhra Pradesh,16.9891,82.2475,35.6,46,0.0,1008.7,8.95,25.6,63,28.2,17.5,0,0,7,1,2026-03-26T14:31:24.871427+05:30
Tirupati,Andhra Pradesh,13.6288,79.4192,34.9,38,0.0,992.6,9.2,36.0,78,34.2,25.0,0,5,7,1,2026-03-26T14:31:24.871433+05:30
Warangal,Telangana,17.9689,79.5941,37.0,33,0.0,979.9,8.8,25.2,87,37.5,27.7,0,5,10,1,2026-03-26T14:31:24.871439+05:30
Nizamabad,Telangana,18.6725,78.0941,36.7,29,0.0,966.4,8.75,25.6,107,22.0,16.8,0,5,10,0,2026-03-26T14:31:24.871445+05:30
Mysore,Karnataka,12.2958,76.6396,35.7,19,0.0,928.9,9.4,38.5,80,28.8,21.0,0,5,10,0,2026-03-26T14:31:24.871452+05:30
Mangalore,Karnataka,12.9141,74.856,29.5,89,0.0,1005.1,9.1,30.6,118,38.8,31.5,7,5,4,1,2026-03-26T14:31:24.871459+05:30
Hubli-Dharwad,Karnataka,15.3647,75.124,35.5,28,0.0,941.7,9.1,32.4,122,27.3,21.5,0,5,10,0,2026-03-26T14:31:24.871466+05:30
Belgaum,Karnataka,15.8497,74.4977,33.2,33,0.0,927.4,9.1,31.7,129,35.4,28.3,0,5,7,0,2026-03-26T14:31:28.136221+05:30
Coimbatore,Tamil Nadu,11.0168,76.9558,35.4,27,0.0,961.8,9.4,42.5,72,26.4,19.7,0,5,10,0,2026-03-26T14:31:28.136251+05:30
Madurai,Tamil Nadu,9.9252,78.1198,35.2,37,0.0,992.9,9.35,27.4,62,31.3,21.8,0,5,10,1,2026-03-26T14:31:28.136262+05:30
Trichy,Tamil Nadu,10.7905,78.7047,34.0,43,0.0,1000.2,9.3,27.4,66,40.6,30.5,0,5,4,1,2026-03-26T14:31:28.136270+05:30
Salem,Tamil Nadu,11.6643,78.146,36.2,31,0.0,977.5,9.35,34.6,88,35.4,26.8,0,5,10,1,2026-03-26T14:31:28.136277+05:30
Tirunelveli,Tamil Nadu,8.7139,77.7567,36.4,35,0.0,1002.6,9.3,40.0,44,18.3,12.6,0,5,7,1,2026-03-26T14:31:28.136285+05:30
Vellore,Tamil Nadu,12.9165,79.1325,33.8,37,0.0,985.7,9.3,34.6,81,26.1,17.3,0,5,7,1,2026-03-26T14:31:28.136292+05:30
Erode,Tamil Nadu,11.341,77.7172,36.0,35,0.0,988.9,9.3,26.3,62,36.4,28.8,0,5,10,1,2026-03-26T14:31:28.136299+05:30
Kochi,Kerala,9.9312,76.2673,29.4,79,0.0,1007.1,9.2,34.2,97,35.5,27.9,7,5,4,1,2026-03-26T14:31:28.136307+05:30
Thiruvananthapuram,Kerala,8.5241,76.9366,29.2,76,0.0,1006.7,9.2,28.8,92,16.0,12.7,7,5,4,1,2026-03-26T14:31:28.136313+05:30
Kozhikode,Kerala,11.2588,75.7804,31.0,74,0.0,1006.4,9.1,30.6,98,42.3,34.3,3,5,4,1,2026-03-26T14:31:28.136320+05:30
Thrissur,Kerala,10.5276,76.2144,33.4,61,0.0,1005.7,9.15,39.2,98,30.0,22.7,3,5,4,1,2026-03-26T14:31:28.136327+05:30
Kannur,Kerala,11.8745,75.3704,32.5,66,0.0,1005.7,9.1,34.6,100,40.7,32.6,3,5,4,1,2026-03-26T14:31:28.136334+05:30
Patna,Bihar,25.5941,85.1376,33.5,27,0.0,1002.2,7.95,24.8,154,47.5,17.9,0,5,4,0,2026-03-26T14:31:28.136359+05:30
Gaya,Bihar,24.7914,85.0002,33.4,25,0.0,995.8,8.05,26.6,92,49.5,14.8,0,5,7,0,2026-03-26T14:31:28.136368+05:30
Muzaffarpur,Bihar,26.1209,85.3647,32.9,32,0.0,1002.1,7.95,17.6,157,40.6,20.5,0,5,4,0,2026-03-26T14:31:28.136375+05:30
Bhagalpur,Bihar,25.2425,87.0117,32.5,37,0.0,1002.8,8.0,15.1,125,52.3,20.8,0,5,4,0,2026-03-26T14:31:28.136381+05:30
Ranchi,Jharkhand,23.3441,85.3096,32.5,22,0.0,940.0,8.7,36.0,101,33.2,9.3,0,5,7,0,2026-03-26T14:31:28.136388+05:30
Jamshedpur,Jharkhand,22.8046,86.2029,35.2,33,0.0,992.0,8.55,22.0,167,82.4,55.6,0,5,10,1,2026-03-26T14:31:28.136395+05:30
Dhanbad,Jharkhand,23.7957,86.4304,35.1,25,0.0,981.3,8.45,23.8,153,62.6,30.9,0,5,10,0,2026-03-26T14:31:28.136401+05:30
Bokaro,Jharkhand,23.6693,86.1511,35.1,21,0.0,985.3,8.45,22.0,141,54.7,24.0,0,5,10,0,2026-03-26T14:31:28.136408+05:30
Bhubaneswar,Odisha,20.2961,85.8245,31.9,59,0.0,1004.4,8.75,18.0,102,80.8,64.5,0,5,4,1,2026-03-26T14:31:28.136415+05:30
Cuttack,Odisha,20.4625,85.8828,32.5,59,0.0,1006.4,8.8,11.9,102,80.8,64.5,0,5,4,1,2026-03-26T14:31:28.136422+05:30
Rourkela,Odisha,22.2604,84.8536,36.7,26,0.0,986.3,8.45,26.6,137,52.6,25.6,0,5,10,0,2026-03-26T14:31:28.136428+05:30
Raipur,Chhattisgarh,21.2514,81.6296,37.8,24,0.0,976.0,8.5,22.0,146,46.7,31.8,0,5,10,0,2026-03-26T14:31:28.136435+05:30
Bhilai,Chhattisgarh,21.1938,81.3509,37.9,24,0.0,976.5,8.5,19.8,150,45.9,32.9,0,5,10,0,2026-03-26T14:31:28.136441+05:30
Guwahati,Assam,26.1158,91.7086,29.4,58,0.0,1003.2,7.9,23.0,139,64.7,44.0,4,5,4,1,2026-03-26T14:31:28.136447+05:30
Agartala,Tripura,23.8315,91.2868,32.3,50,0.0,1007.2,8.2,20.5,162,72.2,51.3,0,5,4,1,2026-03-26T14:31:28.136454+05:30
Shillong,Meghalaya,25.5788,91.8933,19.7,46,0.0,858.3,8.3,26.6,110,50.8,32.9,0,5,7,0,2026-03-26T14:31:28.136460+05:30
Imphal,Manipur,24.817,93.9368,23.5,41,0.0,924.9,8.55,45.7,128,37.3,23.5,0,5,7,0,2026-03-26T14:31:28.136467+05:30
Aizawl,Mizoram,23.7271,92.7176,26.6,36,0.0,895.3,8.45,34.2,129,44.1,27.6,4,5,7,0,2026-03-26T14:31:28.136473+05:30
Kohima,Nagaland,25.6701,94.1077,18.4,69,0.0,856.8,8.45,47.5,108,39.1,25.3,3,5,7,0,2026-03-26T14:31:28.136479+05:30
Gangtok,Sikkim,27.3314,88.6138,18.1,67,0.0,839.0,8.05,18.7,100,40.3,29.3,3,5,7,0,2026-03-26T14:31:28.136485+05:30
Siliguri,West Bengal,26.7271,88.3953,24.0,67,0.0,996.4,7.9,32.8,154,73.6,50.2,3,5,7,1,2026-03-26T14:31:31.398389+05:30
Durgapur,West Bengal,23.5204,87.3119,34.2,39,0.0,996.3,8.4,21.2,163,74.5,45.4,0,5,7,1,2026-03-26T14:31:31.398420+05:30
Asansol,West Bengal,23.6739,86.9524,34.9,31,0.0,994.7,8.4,17.6,152,69.6,39.2,0,5,7,0,2026-03-26T14:31:31.398430+05:30
Pondicherry,Puducherry,11.9139,79.8145,32.8,51,0.0,1009.6,9.2,29.2,54,30.4,17.8,0,0,4,1,2026-03-26T14:31:31.398438+05:30
Port Blair,Andaman and Nicobar Islands,11.6234,92.7265,27.9,81,0.0,1006.5,9.15,26.6,61,13.6,9.1,7,5,4,1,2026-03-26T14:31:31.398446+05:30
Haridwar,Uttarakhand,29.9457,78.1642,33.5,26,0.0,977.1,6.4,48.2,79,16.7,11.1,0,5,7,0,2026-03-26T14:31:31.398453+05:30
Rishikesh,Uttarakhand,30.0869,78.2676,32.1,29,0.0,969.8,6.45,46.1,64,13.7,8.6,0,5,7,0,2026-03-26T14:31:31.398461+05:30
Nainital,Uttarakhand,29.3919,79.4542,23.6,46,0.0,810.6,7.25,65.9,86,21.9,14.0,0,5,7,0,2026-03-26T14:31:31.398467+05:30
Mussoorie,Uttarakhand,30.4599,78.0664,22.2,37,0.0,807.5,6.8,56.2,71,17.0,10.9,0,5,7,0,2026-03-26T14:31:31.398474+05:30
Dharamshala,Himachal Pradesh,32.219,76.3234,23.7,45,0.0,874.1,6.9,23.0,63,12.0,5.7,0,5,7,0,2026-03-26T14:31:31.398481+05:30
Dalhousie,Himachal Pradesh,32.5387,75.971,22.1,36,0.0,809.4,6.8,27.4,68,16.9,10.0,0,5,7,0,2026-03-26T14:31:31.398489+05:30
Patiala,Punjab,30.3398,76.3869,31.5,34,0.0,982.3,5.75,34.9,169,333.4,40.7,0,5,3,0,2026-03-26T14:31:31.398496+05:30
Bhatinda,Punjab,30.211,74.9455,29.3,45,0.0,989.0,5.75,40.7,87,36.0,20.7,4,5,3,1,2026-03-26T14:31:31.398502+05:30
Rohtak,Haryana,28.8955,76.6066,31.5,36,0.0,985.3,6.0,24.5,186,212.8,35.2,0,5,3,0,2026-03-26T14:31:31.398509+05:30
Panipat,Haryana,29.3909,76.9635,32.0,32,0.0,984.1,5.9,20.9,477,629.6,64.0,0,5,3,0,2026-03-26T14:31:31.398515+05:30
Mathura,Uttar Pradesh,27.4924,77.6737,34.9,28,0.0,989.9,6.8,32.0,173,192.3,36.1,0,5,7,0,2026-03-26T14:31:31.398522+05:30
Vrindavan,Uttar Pradesh,27.5823,77.7027,34.4,31,0.0,990.5,6.8,29.5,173,192.3,36.1,0,5,7,0,2026-03-26T14:31:31.398528+05:30
Ayodhya,Uttar Pradesh,26.7922,82.1998,35.7,23,0.0,997.2,7.3,32.8,98,74.5,22.9,0,5,10,0,2026-03-26T14:31:31.398535+05:30
Ratlam,Madhya Pradesh,23.3315,75.0367,35.6,24,0.0,957.2,8.05,29.5,46,9.2,4.6,0,5,10,0,2026-03-26T14:31:31.398542+05:30
Sagar,Madhya Pradesh,23.8388,78.7378,36.3,19,0.0,952.7,8.05,24.8,71,29.5,10.1,0,5,10,0,2026-03-26T14:31:31.398548+05:30
Satna,Madhya Pradesh,24.6005,80.8322,36.2,19,0.0,974.1,8.05,26.6,101,57.0,13.4,0,5,10,0,2026-03-26T14:31:31.398554+05:30
Akola,Maharashtra,20.7002,77.0082,38.7,21,0.0,976.4,8.4,24.1,70,21.5,14.8,0,5,10,0,2026-03-26T14:31:31.398561+05:30
Amravati,Maharashtra,20.9374,77.7796,39.2,18,0.0,968.6,8.4,23.8,74,20.3,13.8,0,5,10,0,2026-03-26T14:31:31.398568+05:30
Latur,Maharashtra,18.4088,76.5604,35.5,25,0.0,941.4,8.75,35.3,93,25.3,19.7,0,5,10,0,2026-03-26T14:31:31.398575+05:30
Nanded,Maharashtra,19.1383,77.3091,38.9,20,0.0,969.6,8.6,25.6,72,17.4,12.6,0,5,10,0,2026-03-26T14:31:31.398581+05:30
Gulbarga,Karnataka,17.3297,76.8343,34.8,37,0.0,960.8,8.85,16.9,102,33.9,26.3,0,5,7,1,2026-03-26T14:31:31.398586+05:30
Bidar,Karnataka,17.9104,77.5199,32.8,38,0.0,938.2,8.85,20.5,97,28.6,22.0,0,5,7,1,2026-03-26T14:31:31.398592+05:30
Hospet,Karnataka,15.2689,76.3909,36.7,25,0.0,956.4,9.05,28.1,95,30.9,25.2,0,5,10,0,2026-03-26T14:31:31.398598+05:30
Tirupur,Tamil Nadu,11.1085,77.3411,36.5,26,0.0,975.2,9.4,33.1,64,35.2,27.5,0,5,10,0,2026-03-26T14:31:31.398604+05:30
Alappuzha,Kerala,9.4981,76.3388,29.3,77,0.0,1007.6,9.15,29.5,89,30.0,24.3,7,5,4,1,2026-03-26T14:31:31.398611+05:30
Munnar,Kerala,10.0889,77.0595,32.8,31,0.0,859.5,9.7,26.6,60,25.8,17.1,0,5,7,0,2026-03-26T14:31:31.398617+05:30
Silchar,Assam,24.8333,92.7789,31.3,48,0.0,1006.0,8.25,18.7,156,62.4,39.5,0,5,4,1,2026-03-26T14:31:31.398624+05:30
Dibrugarh,Assam,27.4728,94.912,27.0,56,0.0,997.7,8.05,7.9,94,42.5,30.5,4,5,7,1,2026-03-26T14:31:31.398631+05:30
