city,state,latitude,longitude,temp,humidity,rain,pressure,uv_index,wind_gusts,aqi,pm10,pm2_5,mosquito_risk,arthritis_risk,migraine_risk,frizz_risk,updated_at
Delhi,Delhi,28.6139,77.209,25.9,44,0.0,986.0,5.75,37.4,219,620.3,99.4,4,5,3,0,2026-03-02T18:36:02.279382+05:30
Mumbai,Maharashtra,19.076,72.8777,26.4,78,0.0,1009.8,7.3,25.6,123,39.3,25.4,7,0,4,1,2026-03-02T18:36:02.279423+05:30
Bangalore,Karnataka,12.9716,77.5946,29.1,32,0.0,912.4,9.05,28.8,149,43.3,42.6,4,5,7,0,2026-03-02T18:36:02.279437+05:30
Hyderabad,Telangana,17.385,78.4867,30.4,39,0.0,954.8,8.3,16.6,151,46.0,45.6,0,5,7,0,2026-03-02T18:36:02.279447+05:30
Chennai,Tamil Nadu,13.0827,80.2707,27.7,59,0.0,1008.9,8.8,30.2,130,41.2,37.5,4,0,4,1,2026-03-02T18:36:02.279455+05:30
Kolkata,West Bengal,22.5726,88.3639,28.5,59,0.0,1006.9,7.65,16.6,170,96.2,82.9,4,5,4,1,2026-03-02T18:36:02.279464+05:30
Pune,Maharashtra,18.5204,73.8567,31.8,35,0.0,949.5,7.85,28.4,146,22.8,21.9,0,5,7,0,2026-03-02T18:36:02.279476+05:30
Ahmedabad,Gujarat,23.0225,72.5714,32.8,29,0.0,1004.1,7.1,15.5,126,33.5,23.5,0,5,4,0,2026-03-02T18:36:02.279483+05:30
Jaipur,Rajasthan,26.9124,75.7873,29.9,21,0.0,962.9,6.5,30.2,98,88.2,27.3,4,5,7,0,2026-03-02T18:36:02.279491+05:30
Lucknow,Uttar Pradesh,26.8467,80.9462,26.5,39,0.0,996.0,6.25,37.4,143,184.4,57.4,4,5,7,0,2026-03-02T18:36:02.279498+05:30
Kanpur,Uttar Pradesh,26.4499,80.3319,26.2,50,0.0,994.5,6.25,32.0,151,238.4,58.4,4,5,7,0,2026-03-02T18:36:02.279505+05:30
Chandigarh,Chandigarh,30.7333,76.7794,22.3,54,0.0,971.1,5.65,38.9,111,27.4,23.3,0,5,3,0,2026-03-02T18:36:02.279512+05:30
Srinagar,Jammu and Kashmir,34.0837,74.7973,16.0,28,0.0,843.4,6.55,17.6,143,56.0,46.8,0,5,7,1,2026-03-02T18:36:02.279519+05:30
Jammu,Jammu and Kashmir,32.7266,74.857,24.2,58,0.0,975.0,6.25,26.3,104,34.3,27.6,0,5,7,0,2026-03-02T18:36:02.279526+05:30
Amritsar,Punjab,31.634,74.8723,23.1,55,0.0,983.7,6.1,25.2,144,29.7,23.3,0,5,7,0,2026-03-02T18:36:02.279533+05:30
Ludhiana,Punjab,30.901,75.8573,24.0,52,0.0,981.6,5.85,32.4,159,55.2,39.5,0,5,3,0,2026-03-02T18:36:02.279539+05:30
Jalandhar,Punjab,31.326,75.5762,24.3,52,0.0,982.7,6.0,30.2,160,44.8,29.2,0,5,3,0,2026-03-02T18:36:02.279547+05:30
Dehradun,Uttarakhand,30.6284,78.0322,15.6,58,0.0,830.0,6.0,27.0,95,20.1,15.1,0,5,3,0,2026-03-02T18:36:02.279554+05:30
Shimla,Himachal Pradesh,31.1048,77.1734,12.8,49,0.0,784.7,6.0,56.5,98,19.8,14.1,0,5,3,0,2026-03-02T18:36:02.279560+05:30
Manali,Himachal Pradesh,32.2396,77.1887,16.5,68,0.0,820.2,7.7,36.7,107,17.1,12.3,3,5,7,0,2026-03-02T18:36:02.279567+05:30
Gurgaon,Haryana,28.4595,77.0266,23.8,53,0.0,984.4,5.85,35.3,845,1359.7,173.7,0,5,3,0,2026-03-02T18:36:02.279573+05:30
Noida,Uttar Pradesh,28.5355,77.391,26.2,42,0.0,987.5,5.75,37.1,845,1359.7,173.7,4,5,3,0,2026-03-02T18:36:02.279579+05:30
Ghaziabad,Uttar Pradesh,28.6692,77.4538,24.9,48,0.0,985.6,5.75,36.0,181,517.8,84.5,0,5,3,0,2026-03-02T18:36:02.279585+05:30
Faridabad,Haryana,28.4089,77.3178,24.8,48,0.0,986.8,5.8,33.1,845,1359.7,173.7,0,5,3,0,2026-03-02T18:36:02.279592+05:30
Meerut,Uttar Pradesh,28.9845,77.7064,23.2,51,0.0,984.0,5.6,38.9,181,517.8,84.5,0,5,3,0,2026-03-02T18:36:02.279599+05:30
Agra,Uttar Pradesh,27.1767,78.0081,26.4,48,0.0,990.6,6.1,35.3,350,413.5,76.1,4,5,7,0,2026-03-02T18:36:02.279605+05:30
Varanasi,Uttar Pradesh,25.3176,82.9739,24.0,51,0.0,1000.3,6.9,31.7,106,51.2,32.0,0,5,4,0,2026-03-02T18:36:02.279617+05:30
Prayagraj,Uttar Pradesh,25.4358,81.8463,25.2,49,0.0,998.9,6.75,29.9,104,56.6,33.8,4,5,7,0,2026-03-02T18:36:02.279624+05:30
Gorakhpur,Uttar Pradesh,26.7606,83.3732,23.8,50,0.0,999.1,6.6,25.2,130,59.0,46.3,0,5,7,0,2026-03-02T18:36:02.279630+05:30
Bareilly,Uttar Pradesh,28.367,79.4304,23.2,52,0.0,989.0,5.9,31.3,132,60.8,33.2,0,5,3,0,2026-03-02T18:36:02.279639+05:30
Aligarh,Uttar Pradesh,27.8974,78.088,24.8,51,0.0,988.3,5.85,34.2,506,916.4,138.3,0,5,3,0,2026-03-02T18:36:02.279646+05:30
Moradabad,Uttar Pradesh,28.8386,78.7733,23.0,48,0.0,985.8,5.75,35.6,140,94.8,34.2,0,5,3,0,2026-03-02T18:36:02.279652+05:30
Saharanpur,Uttar Pradesh,29.9637,77.546,22.8,47,0.0,977.4,5.4,52.9,114,79.9,33.3,0,5,3,0,2026-03-02T18:36:02.279657+05:30
Jhansi,Uttar Pradesh,25.4484,78.5685,27.4,37,0.0,981.0,6.7,29.2,75,40.9,22.6,4,5,7,0,2026-03-02T18:36:05.583573+05:30
Surat,Gujarat,21.1702,72.8311,28.0,58,0.0,1008.7,7.0,23.0,149,80.1,74.0,4,0,4,1,2026-03-02T18:36:05.583602+05:30
Vadodara,Gujarat,22.3072,73.1812,32.4,33,0.0,1006.3,7.1,13.0,152,44.7,38.4,0,5,4,0,2026-03-02T18:36:05.583613+05:30
Rajkot,Gujarat,22.3039,70.8022,32.4,34,0.0,996.2,6.9,21.2,79,30.7,16.5,0,5,7,0,2026-03-02T18:36:05.583624+05:30
Thane,Maharashtra,19.2183,72.9781,26.7,68,0.0,1009.3,7.3,35.6,123,39.3,25.4,7,0,4,1,2026-03-02T18:36:05.583632+05:30
Nagpur,Maharashtra,21.1458,79.0882,30.4,37,0.0,975.2,7.7,20.9,106,27.1,24.5,0,5,7,0,2026-03-02T18:36:05.583642+05:30
Nashik,Maharashtra,19.9975,73.7898,29.6,37,0.0,947.4,7.5,28.1,128,23.3,20.4,4,5,7,0,2026-03-02T18:36:05.583650+05:30
Aurangabad,Maharashtra,19.8762,75.3433,31.5,33,0.0,945.9,8.0,21.2,137,22.9,22.3,0,5,7,0,2026-03-02T18:36:05.583659+05:30
Solapur,Maharashtra,17.6599,75.9064,31.4,43,0.0,958.3,8.25,14.0,170,47.4,46.7,0,5,7,1,2026-03-02T18:36:05.583668+05:30
Kolhapur,Maharashtra,16.705,74.2433,29.0,46,0.0,948.7,8.35,37.4,146,38.4,37.8,4,5,7,1,2026-03-02T18:36:05.583677+05:30
Goa,Goa,15.2993,74.124,27.3,74,0.0,999.1,8.4,29.9,71,30.3,18.9,7,5,7,1,2026-03-02T18:36:05.583685+05:30
Jodhpur,Rajasthan,26.2389,73.0243,32.3,29,0.0,985.7,6.75,12.6,87,71.5,24.9,0,5,7,0,2026-03-02T18:36:05.583694+05:30
Udaipur,Rajasthan,24.5854,73.7125,28.9,35,0.0,949.4,7.4,15.5,102,32.9,22.8,4,5,7,0,2026-03-02T18:36:05.583702+05:30
Kota,Rajasthan,25.2138,75.8648,30.4,41,0.0,981.7,6.8,17.6,89,38.0,23.8,0,5,7,0,2026-03-02T18:36:05.583711+05:30
Bikaner,Rajasthan,28.0229,73.3119,30.7,30,0.0,985.0,6.5,20.2,70,44.9,22.7,0,5,7,0,2026-03-02T18:36:05.583720+05:30
Ajmer,Rajasthan,26.4499,74.6399,28.6,32,0.0,957.6,6.75,22.0,92,46.1,21.4,4,5,7,0,2026-03-02T18:36:05.583729+05:30
Gwalior,Madhya Pradesh,26.2183,78.1828,26.3,53,0.0,986.4,6.4,31.0,91,54.6,27.5,4,5,7,0,2026-03-02T18:36:05.583737+05:30
Indore,Madhya Pradesh,22.7196,75.8577,26.8,44,0.0,950.5,7.4,14.4,98,29.1,24.4,4,5,7,0,2026-03-02T18:36:05.583745+05:30
Bhopal,Madhya Pradesh,23.2599,77.4126,27.0,45,0.0,956.6,7.25,20.5,99,28.6,20.4,4,5,7,0,2026-03-02T18:36:05.583754+05:30
Jabalpur,Madhya Pradesh,23.1815,79.9864,27.8,36,0.0,964.6,7.35,20.9,82,29.8,19.9,4,5,7,0,2026-03-02T18:36:05.583762+05:30
Ujjain,Madhya Pradesh,23.1765,75.7885,28.2,47,0.0,956.6,7.25,11.5,117,34.9,28.6,4,5,7,0,2026-03-02T18:36:05.583771+05:30
Visakhapatnam,Andhra Pradesh,17.6868,83.2185,27.8,57,0.0,1005.3,8.35,37.8,150,43.1,39.6,4,5,4,1,2026-03-02T18:36:05.583779+05:30
Vijayawada,Andhra Pradesh,16.5062,80.648,30.9,46,0.0,1004.1,8.4,25.6,146,54.1,52.6,0,5,4,1,2026-03-02T18:36:05.583787+05:30
Guntur,Andhra Pradesh,16.3067,80.4365,29.7,42,0.0,1005.6,8.4,30.2,136,55.9,54.6,4,5,4,0,2026-03-02T18:36:05.583796+05:30
Nellore,Andhra Pradesh,14.4426,79.9865,28.3,51,0.0,1007.7,8.65,29.5,129,40.9,38.2,4,5,4,1,2026-03-02T18:36:05.583805+05:30
Kurnool,Andhra Pradesh,15.8281,78.0373,33.5,30,0.0,977.7,8.45,26.3,132,44.1,43.5,0,5,7,0,2026-03-02T18:36:05.583814+05:30
Kakinada,Andhra Pradesh,16.9891,82.2475,29.1,44,0.0,1008.9,8.35,29.2,140,39.9,36.8,4,0,4,0,2026-03-02T18:36:05.583823+05:30
Tirupati,Andhra Pradesh,13.6288,79.4192,30.0,39,0.0,992.8,8.75,32.4,142,52.6,51.2,4,5,7,0,2026-03-02T18:36:05.583831+05:30
Warangal,Telangana,17.9689,79.5941,31.3,45,0.0,980.4,8.15,17.3,141,46.3,45.6,0,5,7,1,2026-03-02T18:36:05.583845+05:30
Nizamabad,Telangana,18.6725,78.0941,30.8,35,0.0,966.7,8.05,25.6,129,29.9,29.1,0,5,7,0,2026-03-02T18:36:05.583853+05:30
Mysore,Karnataka,12.2958,76.6396,30.4,30,0.0,928.2,9.1,25.6,160,48.5,47.5,0,5,7,0,2026-03-02T18:36:05.583861+05:30
Mangalore,Karnataka,12.9141,74.856,28.5,74,0.0,1007.2,8.65,28.8,70,17.5,13.1,7,5,4,1,2026-03-02T18:36:05.583870+05:30
Hubli-Dharwad,Karnataka,15.3647,75.124,31.0,34,0.0,941.2,8.6,23.4,152,37.7,37.0,0,5,7,0,2026-03-02T18:36:05.583878+05:30
Belgaum,Karnataka,15.8497,74.4977,25.5,66,0.0,926.6,8.65,38.9,161,32.8,31.3,7,5,7,1,2026-03-02T18:36:08.893898+05:30
Coimbatore,Tamil Nadu,11.0168,76.9558,31.5,31,0.0,961.1,9.1,29.5,148,44.7,43.7,0,5,7,0,2026-03-02T18:36:08.893927+05:30
Madurai,Tamil Nadu,9.9252,78.1198,32.6,29,0.0,992.2,9.05,32.8,133,40.3,39.2,0,5,7,0,2026-03-02T18:36:08.893939+05:30
Trichy,Tamil Nadu,10.7905,78.7047,31.1,42,0.0,999.8,8.95,32.0,145,47.3,45.9,0,5,7,1,2026-03-02T18:36:08.893948+05:30
Salem,Tamil Nadu,11.6643,78.146,32.6,31,0.0,976.7,9.0,32.4,146,46.9,46.0,0,5,7,0,2026-03-02T18:36:08.893956+05:30
Tirunelveli,Tamil Nadu,8.7139,77.7567,29.8,54,0.0,1002.7,9.05,40.3,135,36.1,35.0,4,5,4,1,2026-03-02T18:36:08.893965+05:30
Vellore,Tamil Nadu,12.9165,79.1325,30.0,41,0.0,985.4,8.85,37.1,148,44.7,43.4,4,5,7,0,2026-03-02T18:36:08.893973+05:30
Erode,Tamil Nadu,11.341,77.7172,34.6,28,0.0,987.8,9.0,23.4,138,46.4,45.2,0,5,7,0,2026-03-02T18:36:08.893981+05:30
Kochi,Kerala,9.9312,76.2673,28.2,79,0.0,1007.9,8.9,35.6,141,28.9,27.4,7,5,4,1,2026-03-02T18:36:08.893989+05:30
Thiruvananthapuram,Kerala,8.5241,76.9366,28.5,74,0.0,1007.6,8.85,27.7,128,32.1,29.4,7,5,4,1,2026-03-02T18:36:08.893997+05:30
Kozhikode,Kerala,11.2588,75.7804,28.9,72,0.0,1007.6,8.75,31.7,65,20.0,15.2,7,5,4,1,2026-03-02T18:36:08.894005+05:30
Thrissur,Kerala,10.5276,76.2144,28.5,72,0.0,1006.4,8.85,38.5,112,24.9,23.5,7,5,4,1,2026-03-02T18:36:08.894014+05:30
Kannur,Kerala,11.8745,75.3704,28.6,74,0.0,1007.3,8.75,34.9,71,20.7,16.2,7,5,4,1,2026-03-02T18:36:08.894021+05:30
Patna,Bihar,25.5941,85.1376,25.6,44,0.0,1002.8,7.05,28.8,129,66.6,40.0,4,5,4,0,2026-03-02T18:36:08.894046+05:30
Gaya,Bihar,24.7914,85.0002,22.6,49,0.0,996.4,7.15,23.8,123,51.2,29.0,0,5,7,0,2026-03-02T18:36:08.894055+05:30
Muzaffarpur,Bihar,26.1209,85.3647,24.2,42,0.0,1002.5,7.0,27.0,127,58.9,39.2,0,5,4,0,2026-03-02T18:36:08.894063+05:30
Bhagalpur,Bihar,25.2425,87.0117,22.8,61,0.0,1003.4,7.1,19.4,149,89.2,44.9,3,5,4,0,2026-03-02T18:36:08.894070+05:30
Ranchi,Jharkhand,23.3441,85.3096,24.1,24,0.0,940.0,7.8,40.3,99,34.3,18.5,0,5,7,0,2026-03-02T18:36:08.894079+05:30
Jamshedpur,Jharkhand,22.8046,86.2029,29.4,22,0.0,992.3,7.75,18.7,140,41.8,22.4,4,5,7,0,2026-03-02T18:36:08.894087+05:30
Dhanbad,Jharkhand,23.7957,86.4304,28.8,20,0.0,981.6,7.6,33.8,127,56.5,32.4,4,5,7,0,2026-03-02T18:36:08.894095+05:30
Bokaro,Jharkhand,23.6693,86.1511,26.5,24,0.0,985.9,7.6,37.1,131,56.1,31.3,4,5,7,0,2026-03-02T18:36:08.894103+05:30
Bhubaneswar,Odisha,20.2961,85.8245,28.8,66,0.0,1003.8,8.05,28.4,180,62.4,56.6,7,5,4,1,2026-03-02T18:36:08.894111+05:30
Cuttack,Odisha,20.4625,85.8828,32.6,36,0.0,1004.9,8.1,21.2,180,62.4,56.6,0,5,4,0,2026-03-02T18:36:08.894119+05:30
Rourkela,Odisha,22.2604,84.8536,29.4,28,0.0,986.6,7.65,24.8,118,42.5,27.8,4,5,7,0,2026-03-02T18:36:08.894127+05:30
Raipur,Chhattisgarh,21.2514,81.6296,30.5,35,0.0,976.7,7.75,24.1,95,51.5,40.6,0,5,7,0,2026-03-02T18:36:08.894134+05:30
Bhilai,Chhattisgarh,21.1938,81.3509,30.4,38,0.0,977.1,7.8,22.7,90,52.3,41.4,0,5,7,0,2026-03-02T18:36:08.894142+05:30
Guwahati,Assam,26.1158,91.7086,23.3,74,0.0,1004.0,7.0,28.4,153,76.4,60.5,3,5,4,1,2026-03-02T18:36:08.894149+05:30
Agartala,Tripura,23.8315,91.2868,24.7,74,0.0,1007.9,7.3,18.0,135,108.7,91.3,3,5,4,1,2026-03-02T18:36:08.894157+05:30
Shillong,Meghalaya,25.5788,91.8933,12.1,72,0.0,855.7,7.35,66.2,115,52.7,41.9,3,5,7,0,2026-03-02T18:36:08.894165+05:30
Imphal,Manipur,24.817,93.9368,15.8,69,0.0,923.9,7.6,72.4,150,78.2,62.4,3,5,7,0,2026-03-02T18:36:08.894173+05:30
Aizawl,Mizoram,23.7271,92.7176,18.1,76,0.0,893.6,7.6,42.8,139,75.0,70.3,3,5,7,0,2026-03-02T18:36:08.894181+05:30
Kohima,Nagaland,25.6701,94.1077,12.3,83,0.0,854.6,7.45,82.8,146,76.4,61.9,3,10,7,0,2026-03-02T18:36:08.894189+05:30
Gangtok,Sikkim,27.3314,88.6138,12.9,84,0.0,836.7,5.8,19.4,130,73.3,52.4,3,10,3,0,2026-03-02T18:36:08.894196+05:30
Siliguri,West Bengal,26.7271,88.3953,20.2,72,0.0,996.0,7.0,20.5,170,97.8,71.0,3,5,7,0,2026-03-02T18:36:12.205134+05:30
Durgapur,West Bengal,23.5204,87.3119,29.3,19,0.0,996.5,7.6,26.3,127,53.6,27.9,4,5,7,0,2026-03-02T18:36:12.205167+05:30
Asansol,West Bengal,23.6739,86.9524,29.3,20,0.0,995.0,7.6,28.4,106,50.8,25.7,4,5,7,0,2026-03-02T18:36:12.205179+05:30
Pondicherry,Puducherry,11.9139,79.8145,26.9,63,0.0,1009.7,8.8,29.5,124,38.8,34.5,7,0,4,1,2026-03-02T18:36:12.205189+05:30
Port Blair,Andaman and Nicobar Islands,11.6234,92.7265,27.6,74,0.0,1007.8,8.75,16.2,79,33.5,26.4,7,5,4,1,2026-03-02T18:36:12.205199+05:30
Haridwar,Uttarakhand,29.9457,78.1642,24.2,42,0.0,976.0,5.55,41.8,120,31.5,24.8,0,5,3,0,2026-03-02T18:36:12.205208+05:30
Rishikesh,Uttarakhand,30.0869,78.2676,22.6,53,0.0,968.7,5.6,31.3,120,22.0,19.1,0,5,3,0,2026-03-02T18:36:12.205217+05:30
Nainital,Uttarakhand,29.3919,79.4542,16.1,61,0.0,805.9,6.4,45.7,119,26.4,20.4,3,5,7,0,2026-03-02T18:36:12.205227+05:30
Mussoorie,Uttarakhand,30.4599,78.0664,15.1,58,0.0,802.3,5.9,33.8,118,23.3,20.8,0,5,3,0,2026-03-02T18:36:12.205236+05:30
Dharamshala,Himachal Pradesh,32.219,76.3234,18.8,59,0.0,870.5,6.1,26.3,108,27.4,20.3,0,5,7,0,2026-03-02T18:36:12.205245+05:30
Dalhousie,Himachal Pradesh,32.5387,75.971,17.9,36,0.0,805.4,6.35,22.3,116,38.1,30.5,0,5,7,0,2026-03-02T18:36:12.205255+05:30
Patiala,Punjab,30.3398,76.3869,23.0,51,0.0,980.9,5.55,37.4,158,365.1,68.5,0,5,3,0,2026-03-02T18:36:12.205263+05:30
Bhatinda,Punjab,30.211,74.9455,24.2,54,0.0,987.1,6.2,24.8,158,49.9,40.0,0,5,7,0,2026-03-02T18:36:12.205272+05:30
Rohtak,Haryana,28.8955,76.6066,24.1,50,0.0,984.9,5.75,34.9,295,694.8,107.6,0,5,3,0,2026-03-02T18:36:12.205281+05:30
Panipat,Haryana,29.3909,76.9635,23.1,51,0.0,983.1,5.55,35.3,701,1259.1,158.3,0,5,3,0,2026-03-02T18:36:12.205289+05:30
Mathura,Uttar Pradesh,27.4924,77.6737,26.6,47,0.0,989.7,6.0,29.2,412,637.0,99.9,4,5,3,0,2026-03-02T18:36:12.205298+05:30
Vrindavan,Uttar Pradesh,27.5823,77.7027,25.7,51,0.0,990.1,5.95,31.3,412,637.0,99.9,4,5,3,0,2026-03-02T18:36:12.205307+05:30
Ayodhya,Uttar Pradesh,26.7922,82.1998,24.4,39,0.0,997.5,6.4,34.6,128,60.3,39.0,0,5,7,0,2026-03-02T18:36:12.205316+05:30
Ratlam,Madhya Pradesh,23.3315,75.0367,29.5,45,0.0,957.3,7.25,7.2,105,29.1,24.4,4,5,7,1,2026-03-02T18:36:12.205324+05:30
Sagar,Madhya Pradesh,23.8388,78.7378,27.6,39,0.0,953.3,7.2,25.2,89,24.4,15.7,4,5,7,0,2026-03-02T18:36:12.205333+05:30
Satna,Madhya Pradesh,24.6005,80.8322,26.5,29,0.0,974.5,7.15,38.2,92,32.2,19.0,4,5,7,0,2026-03-02T18:36:12.205341+05:30
Akola,Maharashtra,20.7002,77.0082,32.1,31,0.0,977.1,7.75,25.9,121,22.9,21.7,0,5,7,0,2026-03-02T18:36:12.205351+05:30
Amravati,Maharashtra,20.9374,77.7796,30.8,29,0.0,969.1,7.7,24.5,117,23.5,21.9,0,5,7,0,2026-03-02T18:36:12.205360+05:30
Latur,Maharashtra,18.4088,76.5604,30.1,38,0.0,941.5,8.15,26.3,155,32.0,31.7,0,5,7,0,2026-03-02T18:36:12.205369+05:30
Nanded,Maharashtra,19.1383,77.3091,32.0,38,0.0,970.5,7.95,17.3,128,27.1,26.2,0,5,7,0,2026-03-02T18:36:12.205378+05:30
Gulbarga,Karnataka,17.3297,76.8343,32.4,34,0.0,959.9,8.25,19.4,170,51.1,50.4,0,5,7,0,2026-03-02T18:36:12.205386+05:30
Bidar,Karnataka,17.9104,77.5199,30.4,38,0.0,937.0,8.2,16.2,152,30.6,30.3,0,5,7,0,2026-03-02T18:36:12.205395+05:30
Hospet,Karnataka,15.2689,76.3909,33.5,28,0.0,956.3,8.6,21.2,170,48.2,47.7,0,5,7,0,2026-03-02T18:36:12.205403+05:30
Tirupur,Tamil Nadu,11.1085,77.3411,33.6,27,0.0,974.4,9.1,33.5,153,50.5,49.2,0,5,7,0,2026-03-02T18:36:12.205411+05:30
Alappuzha,Kerala,9.4981,76.3388,28.1,80,0.0,1008.0,8.9,32.8,157,24.5,22.5,7,0,4,1,2026-03-02T18:36:12.205420+05:30
Munnar,Kerala,10.0889,77.0595,24.9,62,0.0,857.7,9.4,22.0,127,40.3,39.3,3,5,7,1,2026-03-02T18:36:12.205429+05:30
Silchar,Assam,24.8333,92.7789,25.2,64,0.0,1006.5,7.35,18.7,153,102.4,81.0,7,5,4,1,2026-03-02T18:36:12.205438+05:30
Dibrugarh,Assam,27.4728,94.912,22.2,76,0.0,999.0,7.05,12.6,151,108.3,85.2,3,5,7,1,2026-03-02T18:36:12.205446+05:30
