city,state,latitude,longitude,temp,humidity,rain,pressure,uv_index,wind_gusts,aqi,pm10,pm2_5,mosquito_risk,arthritis_risk,migraine_risk,frizz_risk,updated_at
Delhi,Delhi,28.6139,77.209,31.3,35,0.0,981.2,7.2,28.4,164,234.2,59.6,0,5,7,0,2026-04-19T20:13:02.589050+05:30
Mumbai,Maharashtra,19.076,72.8777,30.0,67,0.0,1007.5,7.9,25.9,116,35.3,20.9,7,5,4,1,2026-04-19T20:13:02.589089+05:30
Bangalore,Karnataka,12.9716,77.5946,29.9,35,0.0,911.4,9.55,29.2,157,34.2,30.3,4,5,7,0,2026-04-19T20:13:02.589106+05:30
Hyderabad,Telangana,17.385,78.4867,29.0,62,0.0,952.9,9.25,27.0,151,57.7,47.3,7,5,7,1,2026-04-19T20:13:02.589116+05:30
Chennai,Tamil Nadu,13.0827,80.2707,29.2,78,0.0,1006.5,9.3,36.0,35,12.3,8.2,7,5,4,1,2026-04-19T20:13:02.589126+05:30
Kolkata,West Bengal,22.5726,88.3639,28.4,85,0.0,1003.9,8.9,32.4,77,29.3,24.6,7,5,4,1,2026-04-19T20:13:02.589138+05:30
Pune,Maharashtra,18.5204,73.8567,30.5,52,0.0,948.7,8.6,37.1,167,48.3,42.6,0,5,7,1,2026-04-19T20:13:02.589147+05:30
Ahmedabad,Gujarat,23.0225,72.5714,33.8,22,0.0,1000.5,8.0,25.6,90,22.6,13.6,0,5,4,0,2026-04-19T20:13:02.589155+05:30
Jaipur,Rajasthan,26.9124,75.7873,33.6,13,0.0,958.5,7.8,40.3,116,157.9,31.9,0,5,7,0,2026-04-19T20:13:02.589164+05:30
Lucknow,Uttar Pradesh,26.8467,80.9462,34.3,30,0.0,990.0,7.9,37.4,136,130.9,37.5,0,5,7,0,2026-04-19T20:13:02.589171+05:30
Kanpur,Uttar Pradesh,26.4499,80.3319,31.2,47,0.0,988.6,7.9,23.4,192,285.9,48.9,0,5,7,1,2026-04-19T20:13:02.589178+05:30
Chandigarh,Chandigarh,30.7333,76.7794,26.6,50,0.0,967.9,6.05,33.8,121,43.1,19.0,4,5,7,0,2026-04-19T20:13:02.589186+05:30
Srinagar,Jammu and Kashmir,34.0837,74.7973,13.0,80,0.0,843.9,7.35,21.2,66,34.7,17.9,3,5,7,0,2026-04-19T20:13:02.589193+05:30
Jammu,Jammu and Kashmir,32.7266,74.857,28.0,46,0.0,972.8,5.65,32.4,67,78.9,34.0,4,5,3,0,2026-04-19T20:13:02.589201+05:30
Amritsar,Punjab,31.634,74.8723,27.0,55,0.0,980.6,7.45,25.9,106,62.4,25.9,4,5,7,1,2026-04-19T20:13:02.589208+05:30
Ludhiana,Punjab,30.901,75.8573,29.6,39,0.0,978.6,7.35,42.5,116,69.2,23.9,4,5,7,0,2026-04-19T20:13:02.589219+05:30
Jalandhar,Punjab,31.326,75.5762,28.5,47,0.0,979.5,6.6,28.1,109,88.0,23.0,4,5,7,1,2026-04-19T20:13:02.589226+05:30
Dehradun,Uttarakhand,30.6284,78.0322,18.6,52,0.0,831.8,6.3,46.1,93,44.8,15.0,0,5,7,0,2026-04-19T20:13:02.589233+05:30
Shimla,Himachal Pradesh,31.1048,77.1734,17.4,47,0.0,786.4,6.7,45.7,107,46.1,14.3,0,5,7,0,2026-04-19T20:13:02.589240+05:30
Manali,Himachal Pradesh,32.2396,77.1887,14.6,73,0.1,823.7,6.95,40.7,84,15.4,5.9,6,5,7,0,2026-04-19T20:13:02.589246+05:30
Gurgaon,Haryana,28.4595,77.0266,28.5,44,0.0,979.5,7.35,25.2,528,631.4,92.0,4,5,7,0,2026-04-19T20:13:02.589253+05:30
Noida,Uttar Pradesh,28.5355,77.391,31.1,36,0.0,982.6,7.35,26.6,528,631.4,92.0,0,5,7,0,2026-04-19T20:13:02.589259+05:30
Ghaziabad,Uttar Pradesh,28.6692,77.4538,30.4,37,0.0,980.7,7.3,29.2,159,137.8,51.1,0,5,7,0,2026-04-19T20:13:02.589266+05:30
Faridabad,Haryana,28.4089,77.3178,30.9,34,0.0,981.8,7.3,28.8,528,631.4,92.0,0,5,7,0,2026-04-19T20:13:02.589272+05:30
Meerut,Uttar Pradesh,28.9845,77.7064,29.8,36,0.0,979.8,7.05,31.7,159,137.8,51.1,4,5,7,0,2026-04-19T20:13:02.589278+05:30
Agra,Uttar Pradesh,27.1767,78.0081,31.9,36,0.0,985.0,7.55,27.7,412,571.8,84.3,0,5,7,0,2026-04-19T20:13:02.589287+05:30
Varanasi,Uttar Pradesh,25.3176,82.9739,33.5,27,0.0,993.7,8.45,29.5,150,90.8,36.9,0,5,7,0,2026-04-19T20:13:02.589293+05:30
Prayagraj,Uttar Pradesh,25.4358,81.8463,33.8,32,0.0,992.7,8.35,29.9,142,93.1,34.6,0,5,7,0,2026-04-19T20:13:02.589300+05:30
Gorakhpur,Uttar Pradesh,26.7606,83.3732,32.7,46,0.0,993.2,8.3,32.4,166,69.6,34.9,0,5,7,1,2026-04-19T20:13:02.589307+05:30
Bareilly,Uttar Pradesh,28.367,79.4304,30.6,44,0.0,983.9,7.35,32.8,138,36.2,19.0,0,5,7,1,2026-04-19T20:13:02.589313+05:30
Aligarh,Uttar Pradesh,27.8974,78.088,30.9,32,0.0,982.8,7.5,39.6,229,510.4,79.9,0,5,7,0,2026-04-19T20:13:02.589319+05:30
Moradabad,Uttar Pradesh,28.8386,78.7733,29.9,43,0.0,981.2,7.35,37.1,135,53.0,26.0,4,5,7,0,2026-04-19T20:13:02.589327+05:30
Saharanpur,Uttar Pradesh,29.9637,77.546,27.5,48,0.0,974.4,6.5,36.0,121,96.4,35.7,4,5,7,0,2026-04-19T20:13:02.589333+05:30
Jhansi,Uttar Pradesh,25.4484,78.5685,33.3,41,0.0,975.6,8.25,32.0,104,28.7,15.4,0,5,7,1,2026-04-19T20:13:05.931500+05:30
Surat,Gujarat,21.1702,72.8311,28.9,69,0.0,1005.7,7.75,25.2,98,49.6,41.9,7,5,4,1,2026-04-19T20:13:05.931527+05:30
Vadodara,Gujarat,22.3072,73.1812,33.9,29,0.0,1002.4,8.15,29.9,131,38.5,27.8,0,5,4,0,2026-04-19T20:13:05.931536+05:30
Rajkot,Gujarat,22.3039,70.8022,31.0,25,0.0,993.6,7.25,27.0,93,15.3,10.6,0,5,7,0,2026-04-19T20:13:05.931543+05:30
Thane,Maharashtra,19.2183,72.9781,29.1,67,0.0,1006.9,8.05,37.4,116,35.3,20.9,7,5,4,1,2026-04-19T20:13:05.931549+05:30
Nagpur,Maharashtra,21.1458,79.0882,33.8,34,0.0,970.9,8.9,21.6,151,30.0,27.8,0,5,7,0,2026-04-19T20:13:05.931556+05:30
Nashik,Maharashtra,19.9975,73.7898,29.5,41,0.0,946.1,8.05,33.5,136,37.7,30.7,4,5,7,0,2026-04-19T20:13:05.931562+05:30
Aurangabad,Maharashtra,19.8762,75.3433,31.0,42,0.0,944.6,9.0,46.8,145,36.8,31.7,0,5,7,1,2026-04-19T20:13:05.931568+05:30
Solapur,Maharashtra,17.6599,75.9064,29.1,58,0.0,957.1,8.75,52.6,162,63.6,57.4,4,5,7,1,2026-04-19T20:13:05.931574+05:30
Kolhapur,Maharashtra,16.705,74.2433,26.6,79,0.0,948.5,9.0,45.7,160,41.1,35.7,7,5,7,1,2026-04-19T20:13:05.931580+05:30
Goa,Goa,15.2993,74.124,29.2,76,0.0,997.8,9.0,28.8,86,49.2,26.0,7,5,7,1,2026-04-19T20:13:05.931585+05:30
Jodhpur,Rajasthan,26.2389,73.0243,33.1,23,0.0,981.5,8.15,28.4,99,130.4,21.2,0,5,7,0,2026-04-19T20:13:05.931591+05:30
Udaipur,Rajasthan,24.5854,73.7125,31.3,25,0.0,946.4,8.6,40.3,93,13.4,7.1,0,5,7,0,2026-04-19T20:13:05.931597+05:30
Kota,Rajasthan,25.2138,75.8648,35.1,20,0.0,976.5,8.2,36.7,106,19.2,17.5,0,5,10,0,2026-04-19T20:13:05.931603+05:30
Bikaner,Rajasthan,28.0229,73.3119,34.9,22,0.0,980.3,7.9,25.2,122,51.3,12.5,0,5,7,0,2026-04-19T20:13:05.931651+05:30
Ajmer,Rajasthan,26.4499,74.6399,30.6,22,0.0,953.7,7.65,32.4,105,25.7,12.7,0,5,7,0,2026-04-19T20:13:05.931660+05:30
Gwalior,Madhya Pradesh,26.2183,78.1828,33.7,27,0.0,980.8,7.6,29.9,116,25.1,14.0,0,5,7,0,2026-04-19T20:13:05.931667+05:30
Indore,Madhya Pradesh,22.7196,75.8577,31.5,35,0.0,947.7,8.6,31.0,113,32.2,28.8,0,5,7,0,2026-04-19T20:13:05.931674+05:30
Bhopal,Madhya Pradesh,23.2599,77.4126,33.6,27,0.0,952.7,8.6,34.9,138,28.0,19.4,0,5,7,0,2026-04-19T20:13:05.931679+05:30
Jabalpur,Madhya Pradesh,23.1815,79.9864,33.8,33,0.0,959.6,8.75,21.2,133,34.5,22.5,0,5,7,0,2026-04-19T20:13:05.931685+05:30
Ujjain,Madhya Pradesh,23.1765,75.7885,32.4,32,0.0,953.4,8.5,33.5,105,32.0,28.5,0,5,7,0,2026-04-19T20:13:05.931692+05:30
Visakhapatnam,Andhra Pradesh,17.6868,83.2185,28.3,84,0.0,1003.8,9.15,36.7,62,21.2,15.1,7,5,4,1,2026-04-19T20:13:05.931698+05:30
Vijayawada,Andhra Pradesh,16.5062,80.648,30.0,67,0.0,1002.4,9.2,31.0,54,17.6,13.5,7,5,4,1,2026-04-19T20:13:05.931704+05:30
Guntur,Andhra Pradesh,16.3067,80.4365,28.8,77,0.0,1003.5,9.25,34.6,71,19.8,15.8,7,5,4,1,2026-04-19T20:13:05.931709+05:30
Nellore,Andhra Pradesh,14.4426,79.9865,29.3,74,0.0,1004.5,9.25,33.8,86,13.9,10.8,7,5,4,1,2026-04-19T20:13:05.931716+05:30
Kurnool,Andhra Pradesh,15.8281,78.0373,35.7,35,0.0,975.1,9.2,32.4,146,53.1,42.5,0,5,10,1,2026-04-19T20:13:05.931723+05:30
Kakinada,Andhra Pradesh,16.9891,82.2475,28.8,77,0.0,1007.7,9.2,32.0,50,16.1,9.4,7,5,4,1,2026-04-19T20:13:05.931729+05:30
Tirupati,Andhra Pradesh,13.6288,79.4192,31.4,51,0.0,990.7,9.35,34.6,105,23.5,21.2,0,5,7,1,2026-04-19T20:13:05.931734+05:30
Warangal,Telangana,17.9689,79.5941,34.6,44,0.0,977.5,9.15,30.6,112,46.6,40.4,0,5,7,1,2026-04-19T20:13:05.931740+05:30
Nizamabad,Telangana,18.6725,78.0941,34.4,37,0.0,963.9,8.95,41.0,165,57.4,49.2,0,5,7,1,2026-04-19T20:13:05.931746+05:30
Mysore,Karnataka,12.2958,76.6396,26.7,73,0.0,928.1,9.45,43.6,142,42.1,36.6,7,5,7,1,2026-04-19T20:13:05.931751+05:30
Mangalore,Karnataka,12.9141,74.856,30.0,79,0.0,1006.6,9.1,22.3,71,43.1,25.6,7,5,4,1,2026-04-19T20:13:05.931757+05:30
Hubli-Dharwad,Karnataka,15.3647,75.124,27.6,74,0.0,940.5,9.2,32.0,127,34.3,28.3,7,5,7,1,2026-04-19T20:13:05.931763+05:30
Belgaum,Karnataka,15.8497,74.4977,25.1,89,0.0,925.8,9.25,32.4,122,39.6,30.2,7,5,7,1,2026-04-19T20:13:09.273713+05:30
Coimbatore,Tamil Nadu,11.0168,76.9558,27.0,76,0.0,961.5,9.4,55.4,143,46.8,42.4,7,5,7,1,2026-04-19T20:13:09.273743+05:30
Madurai,Tamil Nadu,9.9252,78.1198,31.2,58,0.0,992.5,9.3,41.8,116,19.0,16.8,0,5,7,1,2026-04-19T20:13:09.273752+05:30
Trichy,Tamil Nadu,10.7905,78.7047,31.1,63,0.0,998.8,9.3,28.4,77,18.2,16.4,3,5,7,1,2026-04-19T20:13:09.273759+05:30
Salem,Tamil Nadu,11.6643,78.146,32.4,41,0.0,976.1,9.35,21.6,118,23.7,19.4,0,5,7,1,2026-04-19T20:13:09.273766+05:30
Tirunelveli,Tamil Nadu,8.7139,77.7567,31.0,59,0.0,1002.6,9.25,51.5,105,16.8,14.6,0,5,4,1,2026-04-19T20:13:09.273772+05:30
Vellore,Tamil Nadu,12.9165,79.1325,30.0,57,0.0,983.7,9.4,29.9,105,25.8,23.7,4,5,7,1,2026-04-19T20:13:09.273779+05:30
Erode,Tamil Nadu,11.341,77.7172,34.2,33,0.0,987.2,9.35,28.4,139,27.8,23.2,0,5,7,0,2026-04-19T20:13:09.273786+05:30
Kochi,Kerala,9.9312,76.2673,29.4,80,0.0,1008.4,9.1,25.2,88,25.0,19.6,7,0,4,1,2026-04-19T20:13:09.273792+05:30
Thiruvananthapuram,Kerala,8.5241,76.9366,28.7,82,0.0,1008.0,9.1,27.4,67,25.5,16.8,7,0,4,1,2026-04-19T20:13:09.273799+05:30
Kozhikode,Kerala,11.2588,75.7804,29.8,79,0.0,1007.4,9.1,31.3,64,31.8,19.8,7,5,4,1,2026-04-19T20:13:09.273805+05:30
Thrissur,Kerala,10.5276,76.2144,29.3,81,0.0,1006.6,9.15,33.8,71,22.4,18.2,7,5,4,1,2026-04-19T20:13:09.273813+05:30
Kannur,Kerala,11.8745,75.3704,29.8,75,0.0,1006.8,9.1,34.2,68,35.2,23.2,7,5,4,1,2026-04-19T20:13:09.273819+05:30
Patna,Bihar,25.5941,85.1376,33.2,53,0.0,997.0,8.6,27.0,177,69.8,52.6,0,5,7,1,2026-04-19T20:13:09.273826+05:30
Gaya,Bihar,24.7914,85.0002,33.9,30,0.0,990.4,8.7,34.9,156,89.2,39.2,0,5,7,0,2026-04-19T20:13:09.273832+05:30
Muzaffarpur,Bihar,26.1209,85.3647,30.6,64,0.0,997.3,8.6,29.5,169,75.2,57.7,3,5,7,1,2026-04-19T20:13:09.273838+05:30
Bhagalpur,Bihar,25.2425,87.0117,29.7,72,0.0,998.7,8.6,27.0,199,58.6,52.3,7,5,7,1,2026-04-19T20:13:09.273844+05:30
Ranchi,Jharkhand,23.3441,85.3096,31.4,26,0.0,936.5,9.15,45.0,164,62.6,31.3,0,5,7,0,2026-04-19T20:13:09.273850+05:30
Jamshedpur,Jharkhand,22.8046,86.2029,31.3,65,0.0,988.6,9.0,37.1,201,65.7,53.2,3,5,7,1,2026-04-19T20:13:09.273856+05:30
Dhanbad,Jharkhand,23.7957,86.4304,32.1,64,0.0,977.5,8.95,33.8,170,109.2,63.3,3,5,7,1,2026-04-19T20:13:09.273863+05:30
Bokaro,Jharkhand,23.6693,86.1511,32.6,49,0.0,981.4,8.95,42.1,156,105.2,56.8,0,5,7,1,2026-04-19T20:13:09.273869+05:30
Bhubaneswar,Odisha,20.2961,85.8245,27.7,87,0.0,1001.8,9.1,34.2,69,25.4,20.5,7,5,4,1,2026-04-19T20:13:09.273875+05:30
Cuttack,Odisha,20.4625,85.8828,28.9,81,0.0,1003.1,9.15,34.6,69,25.4,20.5,7,5,4,1,2026-04-19T20:13:09.273881+05:30
Rourkela,Odisha,22.2604,84.8536,33.2,57,0.0,982.5,8.9,43.2,211,76.4,58.3,0,5,7,1,2026-04-19T20:13:09.273887+05:30
Raipur,Chhattisgarh,21.2514,81.6296,34.9,33,0.0,972.5,8.95,33.8,184,53.1,49.9,0,5,7,1,2026-04-19T20:13:09.273893+05:30
Bhilai,Chhattisgarh,21.1938,81.3509,33.9,35,0.0,972.8,8.95,31.7,158,42.6,39.2,0,5,7,1,2026-04-19T20:13:09.273899+05:30
Guwahati,Assam,26.1158,91.7086,26.4,88,0.0,1000.9,8.55,29.2,117,40.4,34.6,7,5,4,1,2026-04-19T20:13:09.273905+05:30
Agartala,Tripura,23.8315,91.2868,28.0,82,0.0,1005.1,8.75,25.2,117,40.5,35.0,7,5,4,1,2026-04-19T20:13:09.273911+05:30
Shillong,Meghalaya,25.5788,91.8933,16.5,92,0.0,856.2,8.15,48.2,103,27.2,22.8,3,10,7,0,2026-04-19T20:13:09.273918+05:30
Imphal,Manipur,24.817,93.9368,20.2,86,0.0,923.2,8.85,61.2,150,61.2,49.5,3,5,7,1,2026-04-19T20:13:09.273924+05:30
Aizawl,Mizoram,23.7271,92.7176,21.0,84,0.0,892.7,8.3,40.0,155,86.8,72.6,3,5,7,1,2026-04-19T20:13:09.273931+05:30
Kohima,Nagaland,25.6701,94.1077,17.2,85,0.0,854.8,8.7,50.8,118,50.1,38.4,3,10,7,0,2026-04-19T20:13:09.273937+05:30
Gangtok,Sikkim,27.3314,88.6138,17.8,89,0.0,837.7,8.9,23.4,94,18.6,16.2,3,10,7,0,2026-04-19T20:13:09.273943+05:30
Siliguri,West Bengal,26.7271,88.3953,22.4,92,0.0,993.5,8.4,21.2,121,36.9,31.4,3,5,7,1,2026-04-19T20:13:12.628201+05:30
Durgapur,West Bengal,23.5204,87.3119,29.0,84,0.0,992.9,8.9,28.1,214,69.4,62.4,7,5,7,1,2026-04-19T20:13:12.628232+05:30
Asansol,West Bengal,23.6739,86.9524,29.9,79,0.0,991.5,8.9,33.8,200,87.1,54.4,7,5,7,1,2026-04-19T20:13:12.628242+05:30
Pondicherry,Puducherry,11.9139,79.8145,28.3,84,0.0,1007.6,9.25,31.0,38,12.0,8.0,7,5,4,1,2026-04-19T20:13:12.628250+05:30
Port Blair,Andaman and Nicobar Islands,11.6234,92.7265,29.3,76,0.0,1007.6,9.15,13.0,52,13.4,11.2,7,5,4,1,2026-04-19T20:13:12.628258+05:30
Haridwar,Uttarakhand,29.9457,78.1642,28.2,49,0.0,973.0,6.25,28.8,115,53.1,22.4,4,5,7,1,2026-04-19T20:13:12.628265+05:30
Rishikesh,Uttarakhand,30.0869,78.2676,25.3,61,0.0,965.8,6.55,31.7,110,53.8,18.2,7,5,7,1,2026-04-19T20:13:12.628272+05:30
Nainital,Uttarakhand,29.3919,79.4542,24.6,29,0.0,808.1,7.8,70.9,120,37.1,15.3,0,5,7,0,2026-04-19T20:13:12.628280+05:30
Mussoorie,Uttarakhand,30.4599,78.0664,20.6,45,0.0,804.4,6.6,45.7,112,65.7,23.2,0,5,7,0,2026-04-19T20:13:12.628286+05:30
Dharamshala,Himachal Pradesh,32.219,76.3234,22.8,35,0.0,870.3,6.1,38.5,80,31.7,10.9,0,5,7,0,2026-04-19T20:13:12.628294+05:30
Dalhousie,Himachal Pradesh,32.5387,75.971,19.1,42,0.0,805.0,6.8,35.3,79,46.9,20.5,0,5,7,0,2026-04-19T20:13:12.628302+05:30
Patiala,Punjab,30.3398,76.3869,28.1,44,0.0,977.4,6.65,45.0,186,449.8,58.3,4,5,7,0,2026-04-19T20:13:12.628309+05:30
Bhatinda,Punjab,30.211,74.9455,30.3,35,0.0,983.3,7.85,41.0,139,70.8,20.7,0,5,7,0,2026-04-19T20:13:12.628315+05:30
Rohtak,Haryana,28.8955,76.6066,26.7,50,0.0,980.4,7.05,28.4,191,300.8,61.0,4,5,7,0,2026-04-19T20:13:12.628322+05:30
Panipat,Haryana,29.3909,76.9635,28.4,42,0.0,979.1,6.3,51.5,392,489.9,77.8,4,5,7,0,2026-04-19T20:13:12.628328+05:30
Mathura,Uttar Pradesh,27.4924,77.6737,31.3,34,0.0,984.2,7.65,44.3,329,506.6,74.5,0,5,7,0,2026-04-19T20:13:12.628335+05:30
Vrindavan,Uttar Pradesh,27.5823,77.7027,30.5,36,0.0,984.7,7.65,43.9,329,506.6,74.5,0,5,7,0,2026-04-19T20:13:12.628341+05:30
Ayodhya,Uttar Pradesh,26.7922,82.1998,34.0,25,0.0,991.2,8.05,40.0,154,65.2,26.3,0,5,7,0,2026-04-19T20:13:12.628348+05:30
Ratlam,Madhya Pradesh,23.3315,75.0367,30.6,47,0.0,954.1,8.45,27.4,114,22.6,19.6,0,5,7,1,2026-04-19T20:13:12.628354+05:30
Sagar,Madhya Pradesh,23.8388,78.7378,33.7,25,0.0,949.0,8.6,38.2,132,26.8,17.1,0,5,7,0,2026-04-19T20:13:12.628360+05:30
Satna,Madhya Pradesh,24.6005,80.8322,34.4,25,0.0,969.1,8.6,32.8,129,34.0,14.5,0,5,7,0,2026-04-19T20:13:12.628367+05:30
Akola,Maharashtra,20.7002,77.0082,34.3,35,0.0,973.7,8.85,32.0,129,42.7,37.0,0,5,7,1,2026-04-19T20:13:12.628373+05:30
Amravati,Maharashtra,20.9374,77.7796,33.1,38,0.0,965.7,8.85,15.8,128,39.5,33.3,0,5,7,1,2026-04-19T20:13:12.628380+05:30
Latur,Maharashtra,18.4088,76.5604,29.0,52,0.0,939.6,9.1,32.0,159,49.2,45.2,4,5,7,1,2026-04-19T20:13:12.628387+05:30
Nanded,Maharashtra,19.1383,77.3091,32.7,38,0.0,967.3,9.0,20.5,143,49.0,41.8,0,5,7,1,2026-04-19T20:13:12.628393+05:30
Gulbarga,Karnataka,17.3297,76.8343,29.3,55,0.0,958.4,9.1,56.5,166,46.2,40.0,4,5,7,1,2026-04-19T20:13:12.628400+05:30
Bidar,Karnataka,17.9104,77.5199,29.3,55,0.0,935.4,9.15,40.7,167,51.9,45.9,4,5,7,1,2026-04-19T20:13:12.628406+05:30
Hospet,Karnataka,15.2689,76.3909,31.8,52,0.0,955.1,9.25,36.4,175,48.2,42.0,0,5,7,1,2026-04-19T20:13:12.628412+05:30
Tirupur,Tamil Nadu,11.1085,77.3411,31.9,48,0.0,974.3,9.4,32.4,153,39.5,32.9,0,5,7,1,2026-04-19T20:13:12.628418+05:30
Alappuzha,Kerala,9.4981,76.3388,29.1,81,0.0,1008.7,9.1,22.7,91,26.2,19.3,7,0,4,1,2026-04-19T20:13:12.628425+05:30
Munnar,Kerala,10.0889,77.0595,23.2,96,0.0,857.5,9.65,39.6,92,31.4,27.4,3,5,7,1,2026-04-19T20:13:12.628432+05:30
Silchar,Assam,24.8333,92.7789,26.6,85,0.0,1004.6,8.8,28.1,154,69.4,59.0,7,5,4,1,2026-04-19T20:13:12.628438+05:30
Dibrugarh,Assam,27.4728,94.912,27.2,82,0.0,994.0,8.65,19.4,142,79.9,58.7,7,5,7,1,2026-04-19T20:13:12.628444+05:30
