city,state,latitude,longitude,temp,humidity,rain,pressure,uv_index,wind_gusts,aqi,pm10,pm2_5,mosquito_risk,arthritis_risk,migraine_risk,frizz_risk,updated_at
Delhi,Delhi,28.6139,77.209,21.4,92,0.0,987.6,6.1,21.2,346,800.9,177.0,3,5,7,1,2026-03-10T04:02:58.356027+05:30
Mumbai,Maharashtra,19.076,72.8777,29.1,56,0.0,1008.5,7.55,16.6,107,28.7,27.9,4,0,4,1,2026-03-10T04:02:58.356065+05:30
Bangalore,Karnataka,12.9716,77.5946,19.6,86,0.0,912.4,9.25,32.4,112,56.7,47.4,3,10,7,1,2026-03-10T04:02:58.356081+05:30
Hyderabad,Telangana,17.385,78.4867,21.8,90,0.0,955.4,8.6,30.2,118,60.1,51.3,3,5,7,1,2026-03-10T04:02:58.356091+05:30
Chennai,Tamil Nadu,13.0827,80.2707,25.1,76,0.0,1010.4,9.0,34.6,96,41.6,31.3,7,0,4,1,2026-03-10T04:02:58.356099+05:30
Kolkata,West Bengal,22.5726,88.3639,23.9,96,0.0,1011.6,7.75,14.8,118,46.8,40.6,3,0,4,1,2026-03-10T04:02:58.356107+05:30
Pune,Maharashtra,18.5204,73.8567,22.0,52,0.0,949.5,8.1,36.7,61,23.2,19.7,0,5,7,0,2026-03-10T04:02:58.356119+05:30
Ahmedabad,Gujarat,23.0225,72.5714,23.4,37,0.0,1004.8,7.4,16.2,55,13.6,12.4,0,5,4,0,2026-03-10T04:02:58.356126+05:30
Jaipur,Rajasthan,26.9124,75.7873,22.7,46,0.0,963.9,6.85,19.1,75,84.5,26.4,0,5,7,0,2026-03-10T04:02:58.356134+05:30
Lucknow,Uttar Pradesh,26.8467,80.9462,23.1,91,0.0,998.8,6.55,20.5,174,140.2,132.7,3,5,7,1,2026-03-10T04:02:58.356142+05:30
Kanpur,Uttar Pradesh,26.4499,80.3319,21.8,92,0.0,996.6,6.6,15.1,161,193.7,114.3,3,5,7,1,2026-03-10T04:02:58.356148+05:30
Chandigarh,Chandigarh,30.7333,76.7794,21.6,77,0.0,972.8,6.0,17.6,110,57.7,44.7,3,5,3,1,2026-03-10T04:02:58.356156+05:30
Srinagar,Jammu and Kashmir,34.0837,74.7973,9.9,91,0.2,845.5,3.55,23.4,132,57.0,38.0,6,10,3,0,2026-03-10T04:02:58.356163+05:30
Jammu,Jammu and Kashmir,32.7266,74.857,20.5,83,0.0,977.6,6.3,38.2,96,37.1,30.2,3,5,7,1,2026-03-10T04:02:58.356170+05:30
Amritsar,Punjab,31.634,74.8723,21.6,84,0.0,984.9,6.4,16.6,164,124.8,102.9,3,5,7,1,2026-03-10T04:02:58.356177+05:30
Ludhiana,Punjab,30.901,75.8573,21.7,85,0.0,983.0,5.95,15.1,161,160.2,111.3,3,5,3,1,2026-03-10T04:02:58.356183+05:30
Jalandhar,Punjab,31.326,75.5762,20.5,94,0.0,984.1,5.7,16.2,163,141.6,107.1,3,5,3,1,2026-03-10T04:02:58.356191+05:30
Dehradun,Uttarakhand,30.6284,78.0322,12.6,60,0.0,832.1,6.35,28.4,71,34.3,25.0,0,5,7,0,2026-03-10T04:02:58.356198+05:30
Shimla,Himachal Pradesh,31.1048,77.1734,12.0,68,0.0,786.5,6.3,40.7,73,59.1,35.7,3,5,7,0,2026-03-10T04:02:58.356204+05:30
Manali,Himachal Pradesh,32.2396,77.1887,16.7,31,0.0,824.0,6.85,34.2,45,30.7,15.1,0,5,7,1,2026-03-10T04:02:58.356211+05:30
Gurgaon,Haryana,28.4595,77.0266,18.4,98,0.0,986.0,6.1,16.6,604,769.3,158.8,3,10,7,1,2026-03-10T04:02:58.356218+05:30
Noida,Uttar Pradesh,28.5355,77.391,20.5,95,0.0,989.2,6.05,20.9,604,769.3,158.8,3,5,7,1,2026-03-10T04:02:58.356224+05:30
Ghaziabad,Uttar Pradesh,28.6692,77.4538,20.4,93,0.0,987.1,5.95,16.9,213,642.6,149.0,3,5,3,1,2026-03-10T04:02:58.356230+05:30
Faridabad,Haryana,28.4089,77.3178,18.0,99,0.0,988.4,6.1,19.8,604,769.3,158.8,3,10,7,1,2026-03-10T04:02:58.356237+05:30
Meerut,Uttar Pradesh,28.9845,77.7064,20.2,93,0.0,985.9,5.95,18.0,213,642.6,149.0,3,5,3,1,2026-03-10T04:02:58.356243+05:30
Agra,Uttar Pradesh,27.1767,78.0081,20.6,87,0.0,992.1,6.45,19.4,194,334.3,119.7,3,5,7,1,2026-03-10T04:02:58.356250+05:30
Varanasi,Uttar Pradesh,25.3176,82.9739,22.1,95,0.0,1002.9,7.25,19.4,183,135.0,129.9,3,5,4,1,2026-03-10T04:02:58.356258+05:30
Prayagraj,Uttar Pradesh,25.4358,81.8463,21.8,93,0.0,1001.1,7.1,13.0,185,139.2,134.1,3,5,4,1,2026-03-10T04:02:58.356265+05:30
Gorakhpur,Uttar Pradesh,26.7606,83.3732,21.2,92,0.0,1003.0,6.95,20.5,200,130.4,122.0,3,5,4,1,2026-03-10T04:02:58.356271+05:30
Bareilly,Uttar Pradesh,28.367,79.4304,20.8,97,0.0,991.8,5.5,17.6,171,127.1,109.2,3,5,3,1,2026-03-10T04:02:58.356278+05:30
Aligarh,Uttar Pradesh,27.8974,78.088,18.6,96,0.0,990.1,6.1,19.8,179,420.0,172.8,3,10,7,1,2026-03-10T04:02:58.356286+05:30
Moradabad,Uttar Pradesh,28.8386,78.7733,20.3,94,0.0,988.5,6.1,20.5,176,160.2,110.1,3,5,7,1,2026-03-10T04:02:58.356292+05:30
Saharanpur,Uttar Pradesh,29.9637,77.546,19.1,99,0.0,980.0,5.75,20.9,165,155.1,94.5,3,10,3,1,2026-03-10T04:02:58.356300+05:30
Jhansi,Uttar Pradesh,25.4484,78.5685,20.6,65,0.0,982.0,7.05,24.8,70,140.2,43.2,3,5,7,0,2026-03-10T04:03:01.677827+05:30
Surat,Gujarat,21.1702,72.8311,25.8,50,0.0,1008.3,7.3,23.8,98,32.2,32.1,4,0,4,0,2026-03-10T04:03:01.677857+05:30
Vadodara,Gujarat,22.3072,73.1812,24.4,46,0.0,1006.7,7.4,13.7,68,19.6,18.9,0,5,4,0,2026-03-10T04:03:01.677866+05:30
Rajkot,Gujarat,22.3039,70.8022,23.5,67,0.0,997.1,7.25,33.5,56,21.2,20.0,3,5,7,1,2026-03-10T04:03:01.677874+05:30
Thane,Maharashtra,19.2183,72.9781,26.0,49,0.0,1008.1,7.55,33.1,107,28.7,27.9,4,0,4,0,2026-03-10T04:03:01.677881+05:30
Nagpur,Maharashtra,21.1458,79.0882,17.7,67,0.0,975.3,7.95,25.6,76,19.6,13.7,3,5,7,0,2026-03-10T04:03:01.677889+05:30
Nashik,Maharashtra,19.9975,73.7898,23.0,42,0.0,947.0,7.75,27.0,59,15.1,14.1,0,5,7,0,2026-03-10T04:03:01.677896+05:30
Aurangabad,Maharashtra,19.8762,75.3433,21.7,55,0.0,945.7,8.25,22.3,64,36.8,32.5,0,5,7,0,2026-03-10T04:03:01.677903+05:30
Solapur,Maharashtra,17.6599,75.9064,22.0,65,0.0,958.9,8.5,27.0,76,38.4,34.7,3,5,7,0,2026-03-10T04:03:01.677910+05:30
Kolhapur,Maharashtra,16.705,74.2433,22.1,48,0.0,948.6,8.6,42.5,112,46.7,43.9,0,5,7,0,2026-03-10T04:03:01.677916+05:30
Goa,Goa,15.2993,74.124,25.0,96,0.0,998.3,8.65,37.1,150,71.9,65.0,7,5,7,1,2026-03-10T04:03:01.677923+05:30
Jodhpur,Rajasthan,26.2389,73.0243,22.3,36,0.0,987.3,7.15,20.5,63,188.6,32.9,0,5,7,0,2026-03-10T04:03:01.677930+05:30
Udaipur,Rajasthan,24.5854,73.7125,18.0,37,0.0,950.1,7.75,21.2,37,10.3,8.0,0,5,7,0,2026-03-10T04:03:01.677936+05:30
Kota,Rajasthan,25.2138,75.8648,19.0,62,0.0,982.3,7.15,16.2,66,26.6,21.2,3,5,7,0,2026-03-10T04:03:01.677943+05:30
Bikaner,Rajasthan,28.0229,73.3119,23.2,42,0.0,986.1,6.85,22.3,51,123.4,27.1,0,5,7,0,2026-03-10T04:03:01.677949+05:30
Ajmer,Rajasthan,26.4499,74.6399,21.9,34,0.0,958.6,7.15,18.7,52,27.8,13.3,0,5,7,0,2026-03-10T04:03:01.677956+05:30
Gwalior,Madhya Pradesh,26.2183,78.1828,21.6,73,0.0,987.5,6.75,23.4,89,201.2,54.4,3,5,7,1,2026-03-10T04:03:01.677963+05:30
Indore,Madhya Pradesh,22.7196,75.8577,19.0,51,0.0,950.2,7.7,24.5,74,34.9,28.6,0,5,7,0,2026-03-10T04:03:01.677970+05:30
Bhopal,Madhya Pradesh,23.2599,77.4126,20.4,47,0.0,956.3,7.55,22.0,67,25.3,19.0,0,5,7,0,2026-03-10T04:03:01.677976+05:30
Jabalpur,Madhya Pradesh,23.1815,79.9864,20.4,69,0.0,964.5,7.65,28.1,89,48.7,33.9,3,5,7,0,2026-03-10T04:03:01.677983+05:30
Ujjain,Madhya Pradesh,23.1765,75.7885,21.2,43,0.0,956.3,7.55,18.7,87,51.2,46.3,0,5,7,0,2026-03-10T04:03:01.677990+05:30
Visakhapatnam,Andhra Pradesh,17.6868,83.2185,24.2,89,0.0,1008.2,8.55,32.8,118,64.7,52.5,3,0,4,1,2026-03-10T04:03:01.677996+05:30
Vijayawada,Andhra Pradesh,16.5062,80.648,23.7,88,0.0,1006.7,8.6,20.2,117,65.9,55.1,3,5,4,1,2026-03-10T04:03:01.678003+05:30
Guntur,Andhra Pradesh,16.3067,80.4365,23.3,90,0.0,1007.8,8.6,22.0,111,59.8,51.1,3,5,4,1,2026-03-10T04:03:01.678010+05:30
Nellore,Andhra Pradesh,14.4426,79.9865,24.2,86,0.0,1009.5,8.85,28.4,94,50.1,37.1,3,0,4,1,2026-03-10T04:03:01.678017+05:30
Kurnool,Andhra Pradesh,15.8281,78.0373,24.1,80,0.0,979.3,8.65,31.7,101,45.9,39.3,3,5,7,1,2026-03-10T04:03:01.678024+05:30
Kakinada,Andhra Pradesh,16.9891,82.2475,22.2,93,0.0,1011.9,8.55,27.4,105,60.5,44.5,3,0,4,1,2026-03-10T04:03:01.678031+05:30
Tirupati,Andhra Pradesh,13.6288,79.4192,20.9,87,0.0,994.9,8.95,32.4,122,83.4,68.7,3,5,7,1,2026-03-10T04:03:01.678037+05:30
Warangal,Telangana,17.9689,79.5941,23.9,92,0.0,981.6,8.45,26.6,122,49.7,45.9,3,5,7,1,2026-03-10T04:03:01.678043+05:30
Nizamabad,Telangana,18.6725,78.0941,22.9,79,0.0,966.8,8.3,30.2,124,57.5,51.9,3,5,7,1,2026-03-10T04:03:01.678049+05:30
Mysore,Karnataka,12.2958,76.6396,20.9,79,0.0,929.0,9.25,36.7,125,51.6,44.1,3,5,7,1,2026-03-10T04:03:01.678055+05:30
Mangalore,Karnataka,12.9141,74.856,28.7,84,0.0,1006.8,8.9,29.5,121,40.6,36.8,7,5,4,1,2026-03-10T04:03:01.678061+05:30
Hubli-Dharwad,Karnataka,15.3647,75.124,23.0,64,0.0,941.6,8.8,46.8,90,44.1,39.3,3,5,7,0,2026-03-10T04:03:01.678068+05:30
Belgaum,Karnataka,15.8497,74.4977,21.6,49,0.0,926.2,8.85,48.6,93,38.2,32.8,0,5,7,0,2026-03-10T04:03:04.955944+05:30
Coimbatore,Tamil Nadu,11.0168,76.9558,22.2,72,0.0,963.5,9.25,43.2,118,57.9,49.8,3,5,7,1,2026-03-10T04:03:04.955970+05:30
Madurai,Tamil Nadu,9.9252,78.1198,23.1,81,0.0,995.3,9.2,38.5,107,55.5,47.0,3,5,7,1,2026-03-10T04:03:04.955979+05:30
Trichy,Tamil Nadu,10.7905,78.7047,22.8,90,0.0,1002.4,9.1,37.8,103,51.1,42.4,3,5,4,1,2026-03-10T04:03:04.955985+05:30
Salem,Tamil Nadu,11.6643,78.146,22.1,83,0.0,979.7,9.15,36.0,125,71.0,59.8,3,5,7,1,2026-03-10T04:03:04.955991+05:30
Tirunelveli,Tamil Nadu,8.7139,77.7567,24.5,77,0.0,1005.4,9.2,42.1,97,44.1,36.8,3,5,4,1,2026-03-10T04:03:04.955997+05:30
Vellore,Tamil Nadu,12.9165,79.1325,21.4,87,0.0,987.8,9.05,35.3,131,87.1,74.0,3,5,7,1,2026-03-10T04:03:04.956003+05:30
Erode,Tamil Nadu,11.341,77.7172,23.0,86,0.0,991.5,9.15,37.8,100,55.9,47.4,3,5,7,1,2026-03-10T04:03:04.956009+05:30
Kochi,Kerala,9.9312,76.2673,26.7,84,0.0,1009.5,9.05,40.3,146,67.1,61.7,7,0,4,1,2026-03-10T04:03:04.956015+05:30
Thiruvananthapuram,Kerala,8.5241,76.9366,27.6,82,0.0,1008.3,9.1,28.4,124,55.6,43.9,7,0,4,1,2026-03-10T04:03:04.956021+05:30
Kozhikode,Kerala,11.2588,75.7804,26.2,83,0.0,1008.7,8.95,24.1,103,36.4,33.3,7,0,4,1,2026-03-10T04:03:04.956026+05:30
Thrissur,Kerala,10.5276,76.2144,24.2,86,0.0,1007.9,9.0,35.3,143,73.3,70.8,3,5,4,1,2026-03-10T04:03:04.956033+05:30
Kannur,Kerala,11.8745,75.3704,26.2,82,0.0,1007.6,8.95,39.2,111,27.7,25.7,7,5,4,1,2026-03-10T04:03:04.956039+05:30
Patna,Bihar,25.5941,85.1376,23.0,88,0.0,1006.5,7.4,25.2,181,109.9,103.8,3,5,4,1,2026-03-10T04:03:04.956045+05:30
Gaya,Bihar,24.7914,85.0002,22.0,94,0.0,999.1,7.5,17.6,182,106.4,99.2,3,5,7,1,2026-03-10T04:03:04.956051+05:30
Muzaffarpur,Bihar,26.1209,85.3647,21.9,95,0.0,1006.6,7.35,24.8,183,109.0,102.4,3,5,4,1,2026-03-10T04:03:04.956056+05:30
Bhagalpur,Bihar,25.2425,87.0117,23.3,84,0.0,1007.2,7.4,19.4,170,89.9,81.0,3,5,4,1,2026-03-10T04:03:04.956062+05:30
Ranchi,Jharkhand,23.3441,85.3096,19.6,97,0.0,941.7,8.15,21.6,165,79.2,70.3,3,10,7,1,2026-03-10T04:03:04.956068+05:30
Jamshedpur,Jharkhand,22.8046,86.2029,22.8,89,0.0,996.2,8.05,31.0,155,33.2,28.9,3,5,7,1,2026-03-10T04:03:04.956074+05:30
Dhanbad,Jharkhand,23.7957,86.4304,21.6,85,0.0,984.8,7.9,18.0,176,85.4,79.9,3,5,7,1,2026-03-10T04:03:04.956080+05:30
Bokaro,Jharkhand,23.6693,86.1511,21.0,90,0.0,989.1,7.95,18.0,180,117.6,109.0,3,5,7,1,2026-03-10T04:03:04.956086+05:30
Bhubaneswar,Odisha,20.2961,85.8245,24.2,88,0.0,1007.0,8.35,29.5,94,42.5,37.1,3,5,4,1,2026-03-10T04:03:04.956091+05:30
Cuttack,Odisha,20.4625,85.8828,24.4,88,0.0,1009.2,8.4,29.2,94,42.5,37.1,3,0,4,1,2026-03-10T04:03:04.956097+05:30
Rourkela,Odisha,22.2604,84.8536,23.9,80,0.0,989.7,7.95,23.0,163,80.1,73.3,3,5,7,1,2026-03-10T04:03:04.956103+05:30
Raipur,Chhattisgarh,21.2514,81.6296,23.1,58,0.0,977.4,8.05,16.2,159,74.0,62.2,0,5,7,0,2026-03-10T04:03:04.956109+05:30
Bhilai,Chhattisgarh,21.1938,81.3509,22.0,63,0.0,977.7,8.05,13.3,153,62.4,51.3,3,5,7,0,2026-03-10T04:03:04.956115+05:30
Guwahati,Assam,26.1158,91.7086,23.3,77,0.0,1007.5,7.3,11.9,155,66.8,60.3,3,5,4,1,2026-03-10T04:03:04.956120+05:30
Agartala,Tripura,23.8315,91.2868,21.7,87,0.0,1011.7,7.7,13.3,163,118.0,108.0,3,0,4,1,2026-03-10T04:03:04.956126+05:30
Shillong,Meghalaya,25.5788,91.8933,11.0,81,0.0,858.9,5.25,19.1,154,72.9,64.7,3,10,3,0,2026-03-10T04:03:04.956132+05:30
Imphal,Manipur,24.817,93.9368,14.7,91,0.0,927.5,7.95,33.1,157,78.5,74.0,3,10,7,0,2026-03-10T04:03:04.956138+05:30
Aizawl,Mizoram,23.7271,92.7176,14.7,88,0.0,895.4,7.6,28.1,160,66.1,61.0,3,10,7,0,2026-03-10T04:03:04.956143+05:30
Kohima,Nagaland,25.6701,94.1077,13.8,79,0.0,858.4,7.05,47.2,150,51.5,47.6,3,5,7,0,2026-03-10T04:03:04.956149+05:30
Gangtok,Sikkim,27.3314,88.6138,12.8,68,0.0,840.8,5.2,19.4,159,46.4,39.6,3,5,3,0,2026-03-10T04:03:04.956155+05:30
Siliguri,West Bengal,26.7271,88.3953,20.5,61,0.0,1000.5,7.35,22.3,168,98.3,91.0,3,5,4,0,2026-03-10T04:03:08.226383+05:30
Durgapur,West Bengal,23.5204,87.3119,22.4,92,0.0,1000.6,7.85,16.2,164,59.4,53.9,3,5,4,1,2026-03-10T04:03:08.226407+05:30
Asansol,West Bengal,23.6739,86.9524,22.8,91,0.0,999.0,7.9,17.6,167,64.3,59.0,3,5,7,1,2026-03-10T04:03:08.226416+05:30
Pondicherry,Puducherry,11.9139,79.8145,23.2,90,0.0,1011.3,8.95,37.8,92,35.7,27.1,3,0,4,1,2026-03-10T04:03:08.226424+05:30
Port Blair,Andaman and Nicobar Islands,11.6234,92.7265,27.6,81,0.0,1008.6,8.9,37.8,83,28.7,24.5,7,0,4,1,2026-03-10T04:03:08.226430+05:30
Haridwar,Uttarakhand,29.9457,78.1642,20.9,93,0.0,978.9,5.85,21.6,155,75.7,59.1,3,5,3,1,2026-03-10T04:03:08.226437+05:30
Rishikesh,Uttarakhand,30.0869,78.2676,20.6,82,0.0,971.7,5.9,23.8,151,82.0,61.2,3,5,3,1,2026-03-10T04:03:08.226443+05:30
Nainital,Uttarakhand,29.3919,79.4542,16.6,85,0.0,809.2,6.75,54.0,165,144.8,99.0,3,10,7,0,2026-03-10T04:03:08.226449+05:30
Mussoorie,Uttarakhand,30.4599,78.0664,15.4,75,0.0,805.4,6.25,38.5,136,65.9,51.9,3,5,7,0,2026-03-10T04:03:08.226455+05:30
Dharamshala,Himachal Pradesh,32.219,76.3234,21.1,35,0.0,873.4,5.9,23.4,52,32.1,15.0,0,5,3,0,2026-03-10T04:03:08.226461+05:30
Dalhousie,Himachal Pradesh,32.5387,75.971,17.7,39,0.0,807.3,5.8,20.2,82,43.3,31.2,0,5,3,0,2026-03-10T04:03:08.226468+05:30
Patiala,Punjab,30.3398,76.3869,20.2,90,0.0,982.3,5.9,15.5,167,181.6,102.7,3,5,3,1,2026-03-10T04:03:08.226474+05:30
Bhatinda,Punjab,30.211,74.9455,21.1,82,0.0,987.6,6.5,14.4,157,94.8,79.2,3,5,7,1,2026-03-10T04:03:08.226479+05:30
Rohtak,Haryana,28.8955,76.6066,18.5,95,0.0,986.4,6.05,15.5,353,780.4,167.2,3,10,7,1,2026-03-10T04:03:08.226485+05:30
Panipat,Haryana,29.3909,76.9635,19.1,98,0.0,984.7,5.9,17.6,601,618.4,166.2,3,10,3,1,2026-03-10T04:03:08.226491+05:30
Mathura,Uttar Pradesh,27.4924,77.6737,19.3,86,0.0,991.3,6.35,21.6,208,627.7,151.3,3,10,7,1,2026-03-10T04:03:08.226497+05:30
Vrindavan,Uttar Pradesh,27.5823,77.7027,17.8,95,0.0,991.8,6.3,22.0,208,627.7,151.3,3,10,7,1,2026-03-10T04:03:08.226503+05:30
Ayodhya,Uttar Pradesh,26.7922,82.1998,22.6,92,0.0,1000.9,6.75,20.2,198,151.3,143.0,3,5,4,1,2026-03-10T04:03:08.226509+05:30
Ratlam,Madhya Pradesh,23.3315,75.0367,16.6,83,0.0,956.9,7.55,18.4,73,37.5,35.0,3,10,7,0,2026-03-10T04:03:08.226514+05:30
Sagar,Madhya Pradesh,23.8388,78.7378,20.5,56,0.0,953.0,7.5,16.2,52,18.3,13.4,0,5,7,0,2026-03-10T04:03:08.226520+05:30
Satna,Madhya Pradesh,24.6005,80.8322,21.2,79,0.0,975.6,7.5,23.4,120,93.4,59.8,3,5,7,1,2026-03-10T04:03:08.226526+05:30
Akola,Maharashtra,20.7002,77.0082,22.2,67,0.0,977.3,8.0,22.7,64,33.6,29.6,3,5,7,0,2026-03-10T04:03:08.226532+05:30
Amravati,Maharashtra,20.9374,77.7796,20.1,72,0.0,969.1,7.95,25.9,65,36.6,32.1,3,5,7,0,2026-03-10T04:03:08.226539+05:30
Latur,Maharashtra,18.4088,76.5604,20.7,65,0.0,941.2,8.4,28.8,88,48.3,40.7,3,5,7,0,2026-03-10T04:03:08.226545+05:30
Nanded,Maharashtra,19.1383,77.3091,23.0,58,0.0,970.4,8.2,22.7,93,71.9,62.6,0,5,7,0,2026-03-10T04:03:08.226550+05:30
Gulbarga,Karnataka,17.3297,76.8343,23.5,69,0.0,960.8,8.5,31.7,94,52.3,47.1,3,5,7,1,2026-03-10T04:03:08.226556+05:30
Bidar,Karnataka,17.9104,77.5199,21.1,80,0.0,936.9,8.45,32.8,111,59.8,53.4,3,5,7,1,2026-03-10T04:03:08.226561+05:30
Hospet,Karnataka,15.2689,76.3909,24.6,70,0.0,957.3,8.8,38.9,98,47.6,43.3,3,5,7,1,2026-03-10T04:03:08.226567+05:30
Tirupur,Tamil Nadu,11.1085,77.3411,22.7,80,0.0,977.5,9.25,43.2,108,60.1,51.5,3,5,7,1,2026-03-10T04:03:08.226572+05:30
Alappuzha,Kerala,9.4981,76.3388,26.6,83,0.0,1009.6,9.05,33.5,142,68.2,63.1,7,0,4,1,2026-03-10T04:03:08.226578+05:30
Munnar,Kerala,10.0889,77.0595,16.6,78,0.0,855.1,9.55,28.8,105,59.8,50.6,3,5,7,0,2026-03-10T04:03:08.226585+05:30
Silchar,Assam,24.8333,92.7789,21.6,89,0.0,1010.8,7.65,12.2,171,112.5,104.1,3,0,4,1,2026-03-10T04:03:08.226590+05:30
Dibrugarh,Assam,27.4728,94.912,22.8,88,0.0,1001.9,7.4,12.2,165,97.1,89.2,3,5,4,1,2026-03-10T04:03:08.226596+05:30
