city,state,latitude,longitude,temp,humidity,rain,pressure,uv_index,wind_gusts,aqi,pm10,pm2_5,mosquito_risk,arthritis_risk,migraine_risk,frizz_risk,updated_at
Delhi,Delhi,28.6139,77.209,25.4,65,0.0,985.5,5.8,32.8,313,298.0,59.0,7,5,3,1,2026-04-03T20:17:36.964618+05:30
Mumbai,Maharashtra,19.076,72.8777,28.3,73,0.0,1010.2,7.45,25.2,78,57.0,22.9,7,0,4,1,2026-04-03T20:17:36.964662+05:30
Bangalore,Karnataka,12.9716,77.5946,26.3,53,0.0,913.0,9.6,26.6,180,53.1,49.1,4,5,7,0,2026-04-03T20:17:36.964676+05:30
Hyderabad,Telangana,17.385,78.4867,31.4,34,0.0,953.6,8.85,19.8,107,33.3,27.9,0,5,7,0,2026-04-03T20:17:36.964685+05:30
Chennai,Tamil Nadu,13.0827,80.2707,28.4,74,0.0,1008.7,9.3,36.7,45,11.1,8.4,7,0,4,1,2026-04-03T20:17:36.964693+05:30
Kolkata,West Bengal,22.5726,88.3639,28.4,77,0.0,1005.6,8.65,20.2,122,31.8,29.2,7,5,4,1,2026-04-03T20:17:36.964701+05:30
Pune,Maharashtra,18.5204,73.8567,26.1,62,0.0,950.0,8.5,36.4,150,41.9,36.7,7,5,7,1,2026-04-03T20:17:36.964711+05:30
Ahmedabad,Gujarat,23.0225,72.5714,28.7,48,0.0,1003.3,7.2,42.1,65,33.9,13.8,4,5,4,1,2026-04-03T20:17:36.964718+05:30
Jaipur,Rajasthan,26.9124,75.7873,24.2,64,0.0,961.5,7.45,55.8,130,131.3,30.5,3,5,7,1,2026-04-03T20:17:36.964724+05:30
Lucknow,Uttar Pradesh,26.8467,80.9462,29.1,54,0.0,994.7,6.75,28.8,106,160.2,45.2,4,5,7,1,2026-04-03T20:17:36.964730+05:30
Kanpur,Uttar Pradesh,26.4499,80.3319,28.9,59,0.0,993.1,5.2,26.3,154,194.6,42.6,4,5,3,1,2026-04-03T20:17:36.964736+05:30
Chandigarh,Chandigarh,30.7333,76.7794,20.4,89,0.0,972.1,5.85,49.3,110,59.1,33.8,3,5,3,1,2026-04-03T20:17:36.964742+05:30
Srinagar,Jammu and Kashmir,34.0837,74.7973,11.7,75,0.0,839.7,6.65,35.3,101,32.9,26.5,3,5,7,0,2026-04-03T20:17:36.964748+05:30
Jammu,Jammu and Kashmir,32.7266,74.857,20.5,81,0.0,975.3,5.1,35.3,73,22.1,15.1,3,5,3,1,2026-04-03T20:17:36.964754+05:30
Amritsar,Punjab,31.634,74.8723,19.3,94,0.0,983.4,4.55,57.6,90,40.0,21.6,3,10,3,1,2026-04-03T20:17:36.964761+05:30
Ludhiana,Punjab,30.901,75.8573,20.1,86,0.0,981.8,4.9,45.4,105,89.6,44.1,3,5,3,1,2026-04-03T20:17:36.964766+05:30
Jalandhar,Punjab,31.326,75.5762,19.9,91,0.0,982.9,5.85,41.8,88,67.5,35.4,3,10,3,1,2026-04-03T20:17:36.964773+05:30
Dehradun,Uttarakhand,30.6284,78.0322,15.9,79,0.0,832.6,5.7,34.2,88,32.0,17.3,3,5,3,0,2026-04-03T20:17:36.964779+05:30
Shimla,Himachal Pradesh,31.1048,77.1734,13.0,82,0.0,785.4,5.95,51.5,94,26.0,18.1,3,10,3,0,2026-04-03T20:17:36.964784+05:30
Manali,Himachal Pradesh,32.2396,77.1887,14.5,84,0.0,821.4,7.1,46.1,62,8.8,5.3,3,10,7,0,2026-04-03T20:17:36.964790+05:30
Gurgaon,Haryana,28.4595,77.0266,24.2,68,0.0,984.0,6.45,32.0,743,317.6,58.8,3,5,7,1,2026-04-03T20:17:36.964797+05:30
Noida,Uttar Pradesh,28.5355,77.391,25.2,68,0.0,987.1,6.1,29.5,743,317.6,58.8,7,5,7,1,2026-04-03T20:17:36.964803+05:30
Ghaziabad,Uttar Pradesh,28.6692,77.4538,24.3,75,0.0,985.1,6.25,30.6,198,299.0,77.5,3,5,7,1,2026-04-03T20:17:36.964809+05:30
Faridabad,Haryana,28.4089,77.3178,24.5,63,0.0,986.3,6.5,30.2,743,317.6,58.8,3,5,7,1,2026-04-03T20:17:36.964815+05:30
Meerut,Uttar Pradesh,28.9845,77.7064,23.5,76,0.0,983.9,6.1,26.3,198,299.0,77.5,3,5,7,1,2026-04-03T20:17:36.964820+05:30
Agra,Uttar Pradesh,27.1767,78.0081,27.6,46,0.0,989.6,7.35,35.6,611,949.9,107.8,4,5,7,0,2026-04-03T20:17:36.964827+05:30
Varanasi,Uttar Pradesh,25.3176,82.9739,29.0,56,0.0,998.4,7.8,32.0,112,32.4,26.8,4,5,7,1,2026-04-03T20:17:36.964835+05:30
Prayagraj,Uttar Pradesh,25.4358,81.8463,29.9,54,0.0,997.4,7.25,36.7,87,39.5,29.5,4,5,7,1,2026-04-03T20:17:36.964840+05:30
Gorakhpur,Uttar Pradesh,26.7606,83.3732,28.9,41,0.0,997.1,7.1,39.6,118,32.2,20.9,4,5,7,0,2026-04-03T20:17:36.964845+05:30
Bareilly,Uttar Pradesh,28.367,79.4304,25.2,70,0.0,988.5,6.25,19.1,132,101.0,48.5,7,5,7,1,2026-04-03T20:17:36.964851+05:30
Aligarh,Uttar Pradesh,27.8974,78.088,24.9,60,0.0,987.6,7.1,28.1,556,646.3,90.8,0,5,7,1,2026-04-03T20:17:36.964856+05:30
Moradabad,Uttar Pradesh,28.8386,78.7733,24.4,76,0.0,985.9,6.05,20.5,142,127.1,55.9,3,5,7,1,2026-04-03T20:17:36.964862+05:30
Saharanpur,Uttar Pradesh,29.9637,77.546,22.4,77,0.0,978.8,6.55,29.9,127,179.3,53.3,3,5,7,1,2026-04-03T20:17:36.964867+05:30
Jhansi,Uttar Pradesh,25.4484,78.5685,27.3,56,0.0,979.5,7.7,40.3,102,33.3,21.6,4,5,7,1,2026-04-03T20:17:40.245451+05:30
Surat,Gujarat,21.1702,72.8311,27.3,78,0.0,1008.3,7.65,30.6,94,48.0,29.2,7,0,4,1,2026-04-03T20:17:40.245480+05:30
Vadodara,Gujarat,22.3072,73.1812,29.0,54,0.0,1005.5,7.85,33.1,78,41.0,19.6,4,5,4,1,2026-04-03T20:17:40.245489+05:30
Rajkot,Gujarat,22.3039,70.8022,25.9,67,0.0,995.8,7.15,45.4,63,18.1,8.0,7,5,7,1,2026-04-03T20:17:40.245497+05:30
Thane,Maharashtra,19.2183,72.9781,27.4,74,0.0,1009.7,7.6,37.1,78,57.0,22.9,7,0,4,1,2026-04-03T20:17:40.245506+05:30
Nagpur,Maharashtra,21.1458,79.0882,28.8,55,0.0,974.7,8.7,23.4,138,36.7,31.2,4,5,7,1,2026-04-03T20:17:40.245513+05:30
Nashik,Maharashtra,19.9975,73.7898,24.4,70,0.0,947.1,7.95,40.0,67,29.3,14.7,3,5,7,1,2026-04-03T20:17:40.245520+05:30
Aurangabad,Maharashtra,19.8762,75.3433,27.1,56,0.0,945.3,8.85,29.5,109,42.0,34.2,4,5,7,1,2026-04-03T20:17:40.245527+05:30
Solapur,Maharashtra,17.6599,75.9064,29.3,53,0.0,957.9,8.95,50.8,142,32.9,27.7,4,5,7,1,2026-04-03T20:17:40.245534+05:30
Kolhapur,Maharashtra,16.705,74.2433,24.8,80,0.0,949.3,8.95,34.6,155,39.1,35.9,3,5,7,1,2026-04-03T20:17:40.245541+05:30
Goa,Goa,15.2993,74.124,28.9,72,0.0,999.7,9.0,31.7,76,26.8,21.0,7,5,7,1,2026-04-03T20:17:40.245548+05:30
Jodhpur,Rajasthan,26.2389,73.0243,25.5,44,0.0,983.9,6.9,44.6,139,231.4,34.2,4,5,7,0,2026-04-03T20:17:40.245555+05:30
Udaipur,Rajasthan,24.5854,73.7125,23.9,48,0.0,947.5,8.1,54.7,52,40.4,14.6,0,5,7,0,2026-04-03T20:17:40.245561+05:30
Kota,Rajasthan,25.2138,75.8648,30.4,31,0.0,979.7,7.85,48.2,59,31.9,15.0,0,5,7,0,2026-04-03T20:17:40.245568+05:30
Bikaner,Rajasthan,28.0229,73.3119,22.8,62,0.0,983.6,7.15,54.7,64,69.6,20.0,3,5,7,0,2026-04-03T20:17:40.245574+05:30
Ajmer,Rajasthan,26.4499,74.6399,23.7,65,0.0,955.7,7.55,59.8,81,54.0,18.0,3,5,7,1,2026-04-03T20:17:40.245579+05:30
Gwalior,Madhya Pradesh,26.2183,78.1828,27.5,61,0.0,984.8,7.65,42.1,85,54.1,26.5,7,5,7,1,2026-04-03T20:17:40.245584+05:30
Indore,Madhya Pradesh,22.7196,75.8577,27.0,48,0.0,949.1,8.3,37.1,79,26.7,18.2,4,5,7,0,2026-04-03T20:17:40.245590+05:30
Bhopal,Madhya Pradesh,23.2599,77.4126,27.0,58,0.0,954.5,7.9,31.7,93,28.3,24.4,4,5,7,1,2026-04-03T20:17:40.245595+05:30
Jabalpur,Madhya Pradesh,23.1815,79.9864,29.0,56,0.0,963.4,8.3,22.3,105,31.9,27.8,4,5,7,1,2026-04-03T20:17:40.245600+05:30
Ujjain,Madhya Pradesh,23.1765,75.7885,26.9,50,0.0,954.8,8.2,36.0,72,23.8,14.8,4,5,7,0,2026-04-03T20:17:40.245606+05:30
Visakhapatnam,Andhra Pradesh,17.6868,83.2185,27.2,86,0.0,1005.1,9.0,41.8,59,13.6,11.3,7,5,4,1,2026-04-03T20:17:40.245611+05:30
Vijayawada,Andhra Pradesh,16.5062,80.648,29.5,58,0.0,1003.2,8.5,31.0,47,13.6,12.4,4,5,4,1,2026-04-03T20:17:40.245616+05:30
Guntur,Andhra Pradesh,16.3067,80.4365,28.0,77,0.0,1004.4,8.45,32.8,48,14.6,13.4,7,5,4,1,2026-04-03T20:17:40.245622+05:30
Nellore,Andhra Pradesh,14.4426,79.9865,27.9,80,0.0,1007.1,9.25,34.2,86,9.6,7.5,7,5,4,1,2026-04-03T20:17:40.245627+05:30
Kurnool,Andhra Pradesh,15.8281,78.0373,33.8,29,0.0,976.2,8.8,20.5,86,29.7,22.5,0,5,7,0,2026-04-03T20:17:40.245634+05:30
Kakinada,Andhra Pradesh,16.9891,82.2475,27.3,80,0.0,1008.4,8.85,39.6,33,6.2,4.5,7,0,4,1,2026-04-03T20:17:40.245639+05:30
Tirupati,Andhra Pradesh,13.6288,79.4192,29.4,52,0.0,993.1,9.35,31.7,91,18.7,16.9,4,5,7,1,2026-04-03T20:17:40.245644+05:30
Warangal,Telangana,17.9689,79.5941,31.8,53,0.0,978.8,8.75,17.6,86,39.6,34.7,0,5,7,1,2026-04-03T20:17:40.245649+05:30
Nizamabad,Telangana,18.6725,78.0941,30.9,50,0.0,965.3,8.4,25.9,118,54.6,47.4,0,5,7,1,2026-04-03T20:17:40.245654+05:30
Mysore,Karnataka,12.2958,76.6396,25.5,75,0.0,929.7,9.5,45.7,148,30.7,27.1,7,5,7,1,2026-04-03T20:17:40.245660+05:30
Mangalore,Karnataka,12.9141,74.856,29.6,79,0.0,1008.0,9.15,24.5,91,20.1,15.7,7,0,4,1,2026-04-03T20:17:40.245665+05:30
Hubli-Dharwad,Karnataka,15.3647,75.124,26.4,75,0.0,941.9,9.2,38.9,159,26.0,24.0,7,5,7,1,2026-04-03T20:17:40.245671+05:30
Belgaum,Karnataka,15.8497,74.4977,23.8,86,0.0,926.8,9.25,33.1,155,26.0,23.6,3,5,7,1,2026-04-03T20:17:43.526081+05:30
Coimbatore,Tamil Nadu,11.0168,76.9558,26.3,74,0.0,963.3,9.45,45.0,133,27.1,25.2,7,5,7,1,2026-04-03T20:17:43.526141+05:30
Madurai,Tamil Nadu,9.9252,78.1198,26.9,80,0.0,995.3,9.2,34.6,104,19.7,18.7,7,5,7,1,2026-04-03T20:17:43.526153+05:30
Trichy,Tamil Nadu,10.7905,78.7047,29.8,69,0.0,1001.2,9.4,34.6,94,16.5,15.8,7,5,4,1,2026-04-03T20:17:43.526162+05:30
Salem,Tamil Nadu,11.6643,78.146,32.6,42,0.0,977.9,9.45,33.1,122,17.7,16.3,0,5,7,1,2026-04-03T20:17:43.526170+05:30
Tirunelveli,Tamil Nadu,8.7139,77.7567,27.0,87,0.0,1005.3,9.35,37.1,81,20.5,18.9,7,5,4,1,2026-04-03T20:17:43.526177+05:30
Vellore,Tamil Nadu,12.9165,79.1325,29.3,57,0.0,985.4,9.4,37.1,121,29.8,28.8,4,5,7,1,2026-04-03T20:17:43.526185+05:30
Erode,Tamil Nadu,11.341,77.7172,32.5,51,0.0,989.5,9.4,29.2,120,20.4,18.4,0,5,7,1,2026-04-03T20:17:43.526192+05:30
Kochi,Kerala,9.9312,76.2673,29.5,78,0.0,1010.3,9.05,24.1,112,24.7,22.3,7,0,4,1,2026-04-03T20:17:43.526200+05:30
Thiruvananthapuram,Kerala,8.5241,76.9366,28.8,79,0.0,1009.9,9.0,23.8,90,22.6,17.2,7,0,4,1,2026-04-03T20:17:43.526207+05:30
Kozhikode,Kerala,11.2588,75.7804,29.2,79,0.0,1009.5,9.15,25.2,69,17.3,14.0,7,0,4,1,2026-04-03T20:17:43.526214+05:30
Thrissur,Kerala,10.5276,76.2144,29.0,79,0.0,1008.6,9.2,30.2,81,23.0,21.1,7,0,4,1,2026-04-03T20:17:43.526222+05:30
Kannur,Kerala,11.8745,75.3704,29.1,78,0.0,1008.5,9.15,27.4,71,22.8,19.2,7,0,4,1,2026-04-03T20:17:43.526230+05:30
Patna,Bihar,25.5941,85.1376,31.6,39,0.0,999.8,8.3,36.4,143,28.6,26.7,0,5,7,0,2026-04-03T20:17:43.526237+05:30
Gaya,Bihar,24.7914,85.0002,30.1,49,0.0,993.9,8.4,27.0,145,32.6,28.7,0,5,7,1,2026-04-03T20:17:43.526244+05:30
Muzaffarpur,Bihar,26.1209,85.3647,29.3,42,0.0,999.5,8.25,39.2,128,26.9,24.0,4,5,7,0,2026-04-03T20:17:43.526251+05:30
Bhagalpur,Bihar,25.2425,87.0117,29.3,57,0.0,999.8,8.3,23.8,133,44.0,30.6,4,5,7,1,2026-04-03T20:17:43.526258+05:30
Ranchi,Jharkhand,23.3441,85.3096,28.8,37,0.0,939.1,8.95,26.6,116,27.1,23.4,4,5,7,0,2026-04-03T20:17:43.526265+05:30
Jamshedpur,Jharkhand,22.8046,86.2029,32.2,46,0.0,990.4,8.8,23.4,169,38.9,32.5,0,5,7,1,2026-04-03T20:17:43.526272+05:30
Dhanbad,Jharkhand,23.7957,86.4304,33.4,33,0.0,979.9,8.7,21.6,151,42.3,38.4,0,5,7,0,2026-04-03T20:17:43.526280+05:30
Bokaro,Jharkhand,23.6693,86.1511,33.0,37,0.0,984.1,8.7,19.8,149,41.7,37.8,0,5,7,1,2026-04-03T20:17:43.526287+05:30
Bhubaneswar,Odisha,20.2961,85.8245,28.2,80,0.0,1003.5,8.95,30.2,108,19.0,17.1,7,5,4,1,2026-04-03T20:17:43.526293+05:30
Cuttack,Odisha,20.4625,85.8828,29.9,69,0.0,1005.1,9.0,37.8,108,19.0,17.1,7,5,4,1,2026-04-03T20:17:43.526300+05:30
Rourkela,Odisha,22.2604,84.8536,32.2,47,0.0,985.5,8.7,26.6,168,50.9,45.3,0,5,7,1,2026-04-03T20:17:43.526307+05:30
Raipur,Chhattisgarh,21.2514,81.6296,31.8,45,0.0,975.6,8.8,26.3,162,68.5,63.1,0,5,7,1,2026-04-03T20:17:43.526314+05:30
Bhilai,Chhattisgarh,21.1938,81.3509,30.9,50,0.0,975.9,8.8,27.7,133,57.3,51.8,0,5,7,1,2026-04-03T20:17:43.526321+05:30
Guwahati,Assam,26.1158,91.7086,26.6,84,0.0,1002.0,8.25,43.6,142,68.2,59.1,7,5,4,1,2026-04-03T20:17:43.526328+05:30
Agartala,Tripura,23.8315,91.2868,28.9,74,0.0,1005.4,8.45,23.8,96,46.2,40.7,7,5,4,1,2026-04-03T20:17:43.526335+05:30
Shillong,Meghalaya,25.5788,91.8933,14.8,91,0.0,856.7,8.55,55.1,109,50.6,42.6,3,10,7,0,2026-04-03T20:17:43.526342+05:30
Imphal,Manipur,24.817,93.9368,19.9,83,0.0,924.3,8.85,60.8,115,65.2,55.2,3,10,7,1,2026-04-03T20:17:43.526349+05:30
Aizawl,Mizoram,23.7271,92.7176,21.5,79,0.0,893.7,8.7,52.9,118,53.2,39.0,3,5,7,1,2026-04-03T20:17:43.526356+05:30
Kohima,Nagaland,25.6701,94.1077,16.5,96,0.0,856.0,8.75,80.3,103,46.2,37.8,3,10,7,0,2026-04-03T20:17:43.526363+05:30
Gangtok,Sikkim,27.3314,88.6138,17.2,93,0.0,838.8,7.55,19.1,119,60.3,49.2,3,10,7,1,2026-04-03T20:17:43.526370+05:30
Siliguri,West Bengal,26.7271,88.3953,24.0,77,0.0,993.9,8.2,18.7,153,80.3,64.5,3,5,7,1,2026-04-03T20:17:46.812225+05:30
Durgapur,West Bengal,23.5204,87.3119,33.0,46,0.0,994.4,8.65,17.3,169,76.4,70.3,0,5,7,1,2026-04-03T20:17:46.812253+05:30
Asansol,West Bengal,23.6739,86.9524,32.6,48,0.0,992.7,8.65,16.9,158,50.9,45.5,0,5,7,1,2026-04-03T20:17:46.812261+05:30
Pondicherry,Puducherry,11.9139,79.8145,27.1,86,0.0,1009.9,9.3,34.6,47,12.6,9.1,7,0,4,1,2026-04-03T20:17:46.812269+05:30
Port Blair,Andaman and Nicobar Islands,11.6234,92.7265,28.7,76,0.0,1008.7,9.2,22.7,44,19.4,10.5,7,0,4,1,2026-04-03T20:17:46.812277+05:30
Haridwar,Uttarakhand,29.9457,78.1642,24.3,78,0.0,977.4,6.15,22.0,131,148.1,59.8,3,5,7,1,2026-04-03T20:17:46.812283+05:30
Rishikesh,Uttarakhand,30.0869,78.2676,23.2,74,0.0,970.2,5.6,23.8,126,84.1,39.2,3,5,3,1,2026-04-03T20:17:46.812290+05:30
Nainital,Uttarakhand,29.3919,79.4542,19.1,61,0.0,808.4,5.0,36.4,118,59.0,30.2,3,5,3,0,2026-04-03T20:17:46.812296+05:30
Mussoorie,Uttarakhand,30.4599,78.0664,16.3,77,0.0,805.1,5.6,45.4,123,73.6,37.0,3,5,3,0,2026-04-03T20:17:46.812302+05:30
Dharamshala,Himachal Pradesh,32.219,76.3234,15.9,94,0.1,871.0,4.55,51.5,56,12.4,7.4,6,10,3,0,2026-04-03T20:17:46.812308+05:30
Dalhousie,Himachal Pradesh,32.5387,75.971,12.9,88,0.4,804.0,4.95,50.4,58,28.5,20.2,6,10,3,0,2026-04-03T20:17:46.812315+05:30
Patiala,Punjab,30.3398,76.3869,20.6,86,0.0,981.4,5.55,42.8,124,191.9,47.5,3,5,3,1,2026-04-03T20:17:46.812321+05:30
Bhatinda,Punjab,30.211,74.9455,20.6,86,0.0,986.2,6.45,44.6,87,101.5,23.6,3,5,7,1,2026-04-03T20:17:46.812326+05:30
Rohtak,Haryana,28.8955,76.6066,23.5,70,0.0,984.2,5.9,31.7,451,294.3,51.6,3,5,3,1,2026-04-03T20:17:46.812332+05:30
Panipat,Haryana,29.3909,76.9635,23.6,73,0.0,983.1,6.2,43.9,770,296.2,51.3,3,5,7,1,2026-04-03T20:17:46.812338+05:30
Mathura,Uttar Pradesh,27.4924,77.6737,26.2,54,0.0,989.0,7.25,31.7,655,416.3,59.5,4,5,7,1,2026-04-03T20:17:46.812343+05:30
Vrindavan,Uttar Pradesh,27.5823,77.7027,25.6,56,0.0,989.4,7.2,34.9,655,416.3,59.5,4,5,7,1,2026-04-03T20:17:46.812349+05:30
Ayodhya,Uttar Pradesh,26.7922,82.1998,27.4,55,0.0,995.9,6.6,36.0,104,58.7,29.2,4,5,7,1,2026-04-03T20:17:46.812355+05:30
Ratlam,Madhya Pradesh,23.3315,75.0367,26.7,51,0.0,955.7,8.15,42.8,68,23.7,13.5,4,5,7,0,2026-04-03T20:17:46.812361+05:30
Sagar,Madhya Pradesh,23.8388,78.7378,28.0,53,0.0,951.7,7.5,26.6,91,23.6,18.8,4,5,7,1,2026-04-03T20:17:46.812366+05:30
Satna,Madhya Pradesh,24.6005,80.8322,29.8,45,0.0,974.0,7.65,36.0,95,24.6,21.9,4,5,7,1,2026-04-03T20:17:46.812372+05:30
Akola,Maharashtra,20.7002,77.0082,29.8,57,0.0,976.4,8.6,31.3,129,42.3,38.2,4,5,7,1,2026-04-03T20:17:46.812378+05:30
Amravati,Maharashtra,20.9374,77.7796,29.3,59,0.0,968.8,8.65,43.6,132,47.1,42.7,4,5,7,1,2026-04-03T20:17:46.812385+05:30
Latur,Maharashtra,18.4088,76.5604,27.9,60,0.0,940.7,8.8,33.5,123,37.1,32.2,4,5,7,1,2026-04-03T20:17:46.812391+05:30
Nanded,Maharashtra,19.1383,77.3091,29.5,59,0.0,969.5,8.3,29.5,130,44.1,37.0,4,5,7,1,2026-04-03T20:17:46.812397+05:30
Gulbarga,Karnataka,17.3297,76.8343,33.9,27,0.0,958.9,8.5,36.7,164,24.4,21.5,0,5,7,0,2026-04-03T20:17:46.812402+05:30
Bidar,Karnataka,17.9104,77.5199,31.2,36,0.0,935.8,8.3,33.5,113,32.4,27.1,0,5,7,0,2026-04-03T20:17:46.812408+05:30
Hospet,Karnataka,15.2689,76.3909,30.4,50,0.0,956.4,9.2,36.4,179,32.6,28.8,0,5,7,1,2026-04-03T20:17:46.812413+05:30
Tirupur,Tamil Nadu,11.1085,77.3411,29.2,64,0.0,976.1,9.5,43.6,152,27.3,25.1,7,5,7,1,2026-04-03T20:17:46.812419+05:30
Alappuzha,Kerala,9.4981,76.3388,29.4,76,0.0,1010.4,9.2,23.0,95,23.4,19.0,7,0,4,1,2026-04-03T20:17:46.812424+05:30
Munnar,Kerala,10.0889,77.0595,21.8,91,0.0,858.6,8.0,29.2,64,16.7,15.9,3,5,7,1,2026-04-03T20:17:46.812430+05:30
Silchar,Assam,24.8333,92.7789,26.9,81,0.0,1005.4,8.5,29.2,150,92.2,79.2,7,5,4,1,2026-04-03T20:17:46.812436+05:30
Dibrugarh,Assam,27.4728,94.912,25.1,84,0.0,996.7,8.3,12.6,99,48.0,42.4,7,5,7,1,2026-04-03T20:17:46.812441+05:30
