city,state,latitude,longitude,temp,humidity,rain,pressure,uv_index,wind_gusts,aqi,pm10,pm2_5,no2,co,o3,so2,mosquito_risk,arthritis_risk,migraine_risk,frizz_risk,updated_at
Delhi,Delhi,28.6139,77.209,32.2,68,0.0,972.4,7.0,23.4,169,72.4,43.5,14.3,671.0,197.0,26.4,3,5,7,1,2026-07-04T17:38:41.737219+05:30
Mumbai,Maharashtra,19.076,72.8777,25.8,91,0.6,1000.2,0.3,55.4,30,8.4,5.7,9.0,245.0,47.0,3.0,10,5,0,1,2026-07-04T17:38:41.737285+05:30
Bangalore,Karnataka,12.9716,77.5946,26.0,59,0.0,908.6,5.8,67.3,26,9.0,5.4,9.6,306.0,51.0,2.3,4,5,3,1,2026-07-04T17:38:41.737303+05:30
Hyderabad,Telangana,17.385,78.4867,25.0,86,0.0,946.1,2.8,56.9,23,5.2,4.1,6.6,330.0,61.0,3.0,7,5,3,1,2026-07-04T17:38:41.737314+05:30
Chennai,Tamil Nadu,13.0827,80.2707,29.8,67,0.0,1002.0,2.15,41.8,36,17.2,12.6,12.2,496.0,75.0,9.1,7,5,0,1,2026-07-04T17:38:41.737326+05:30
Kolkata,West Bengal,22.5726,88.3639,30.3,78,0.0,991.5,7.5,50.4,48,12.1,10.9,8.6,615.0,80.0,7.9,3,5,7,1,2026-07-04T17:38:41.737337+05:30
Pune,Maharashtra,18.5204,73.8567,23.8,91,0.2,940.1,0.55,47.9,21,1.8,1.7,8.0,175.0,45.0,2.1,6,5,3,1,2026-07-04T17:38:41.737346+05:30
Ahmedabad,Gujarat,23.0225,72.5714,31.5,67,0.0,991.6,5.85,34.9,57,40.2,19.8,11.8,258.0,59.0,4.9,3,5,3,1,2026-07-04T17:38:41.737355+05:30
Jaipur,Rajasthan,26.9124,75.7873,33.2,59,0.0,949.0,7.4,27.7,113,73.6,31.8,3.8,277.0,149.0,5.6,0,5,7,1,2026-07-04T17:38:41.737364+05:30
Lucknow,Uttar Pradesh,26.8467,80.9462,34.7,62,0.0,981.4,7.7,21.6,125,24.7,24.0,4.6,352.0,137.0,6.2,3,5,7,1,2026-07-04T17:38:41.737379+05:30
Kanpur,Uttar Pradesh,26.4499,80.3319,35.0,59,0.0,979.4,8.05,28.4,131,23.2,22.5,4.2,295.0,146.0,6.9,0,5,7,1,2026-07-04T17:38:41.737389+05:30
Chandigarh,Chandigarh,30.7333,76.7794,31.4,72,0.0,958.8,7.1,23.0,142,32.5,31.1,8.7,588.0,165.0,16.6,3,5,7,1,2026-07-04T17:38:41.737397+05:30
Srinagar,Jammu and Kashmir,34.0837,74.7973,30.7,33,0.0,837.4,9.0,21.2,130,19.2,12.2,3.0,346.0,141.0,2.3,0,5,7,0,2026-07-04T17:38:41.737406+05:30
Jammu,Jammu and Kashmir,32.7266,74.857,36.1,42,0.0,962.3,8.6,29.9,176,30.9,24.4,3.9,328.0,185.0,3.7,0,5,10,1,2026-07-04T17:38:41.737414+05:30
Amritsar,Punjab,31.634,74.8723,35.9,50,0.0,970.1,8.45,29.2,132,42.1,33.2,4.0,386.0,154.0,4.1,0,5,10,1,2026-07-04T17:38:41.737423+05:30
Ludhiana,Punjab,30.901,75.8573,32.6,68,0.0,968.2,7.95,36.4,133,37.4,32.9,6.4,411.0,159.0,9.0,3,5,7,1,2026-07-04T17:38:41.737431+05:30
Jalandhar,Punjab,31.326,75.5762,33.3,65,0.0,969.3,8.2,34.2,151,42.1,34.9,5.1,437.0,164.0,5.7,3,5,7,1,2026-07-04T17:38:41.737439+05:30
Dehradun,Uttarakhand,30.6284,78.0322,22.5,85,0.0,825.6,7.15,26.3,75,8.1,8.0,2.3,258.0,121.0,1.3,3,5,7,1,2026-07-04T17:38:41.737448+05:30
Shimla,Himachal Pradesh,31.1048,77.1734,20.4,78,0.0,780.8,7.4,25.2,99,11.3,11.0,4.8,294.0,131.0,5.2,3,5,7,1,2026-07-04T17:38:41.737456+05:30
Manali,Himachal Pradesh,32.2396,77.1887,24.3,84,0.0,815.3,9.45,33.5,109,18.7,18.3,43.7,196.0,122.0,1.1,3,5,7,1,2026-07-04T17:38:41.737467+05:30
Gurgaon,Haryana,28.4595,77.0266,32.5,67,0.0,970.7,6.4,30.2,165,91.7,41.4,13.1,630.0,216.0,24.9,3,5,7,1,2026-07-04T17:38:41.737476+05:30
Noida,Uttar Pradesh,28.5355,77.391,31.9,73,0.0,973.7,6.8,27.4,165,91.7,41.4,13.1,520.0,216.0,24.9,3,5,7,1,2026-07-04T17:38:41.737483+05:30
Ghaziabad,Uttar Pradesh,28.6692,77.4538,31.3,76,0.0,972.1,7.55,28.4,155,32.5,30.9,7.0,304.0,172.0,15.6,3,5,7,1,2026-07-04T17:38:41.737494+05:30
Faridabad,Haryana,28.4089,77.3178,32.4,67,0.0,973.0,6.75,28.4,165,91.7,41.4,13.1,535.0,216.0,24.9,3,5,7,1,2026-07-04T17:38:41.737503+05:30
Meerut,Uttar Pradesh,28.9845,77.7064,31.7,74,0.0,971.0,7.0,26.3,155,32.5,30.9,7.0,330.0,172.0,15.6,3,5,7,1,2026-07-04T17:38:41.737512+05:30
Agra,Uttar Pradesh,27.1767,78.0081,32.3,72,0.0,976.2,6.65,22.3,165,34.5,31.1,6.5,303.0,165.0,6.2,3,5,7,1,2026-07-04T17:38:41.737519+05:30
Varanasi,Uttar Pradesh,25.3176,82.9739,35.0,56,0.0,984.9,8.7,31.0,86,18.1,17.8,6.5,378.0,116.0,6.1,0,5,7,1,2026-07-04T17:38:41.737528+05:30
Prayagraj,Uttar Pradesh,25.4358,81.8463,34.8,61,0.0,983.1,8.15,31.7,122,18.5,18.2,4.5,306.0,139.0,6.0,3,5,7,1,2026-07-04T17:38:41.737536+05:30
Gorakhpur,Uttar Pradesh,26.7606,83.3732,34.4,64,0.1,985.3,8.55,28.8,125,23.0,22.5,5.0,280.0,140.0,5.5,6,5,7,1,2026-07-04T17:38:41.737544+05:30
Bareilly,Uttar Pradesh,28.367,79.4304,33.7,64,0.0,975.7,7.9,24.1,154,31.4,28.9,6.4,337.0,148.0,6.9,3,5,7,1,2026-07-04T17:38:41.737555+05:30
Aligarh,Uttar Pradesh,27.8974,78.088,32.0,73,0.0,974.5,7.8,26.3,151,40.2,31.1,5.9,294.0,176.0,12.4,3,5,7,1,2026-07-04T17:38:41.737563+05:30
Moradabad,Uttar Pradesh,28.8386,78.7733,32.2,72,0.0,973.1,7.7,24.1,179,29.9,29.4,7.2,332.0,172.0,12.8,3,5,7,1,2026-07-04T17:38:41.737570+05:30
Saharanpur,Uttar Pradesh,29.9637,77.546,31.0,75,0.0,965.6,6.7,19.4,156,33.4,32.8,8.3,396.0,178.0,20.4,3,5,7,1,2026-07-04T17:38:41.737579+05:30
Jhansi,Uttar Pradesh,25.4484,78.5685,34.9,54,0.0,965.8,6.75,29.5,125,24.5,23.9,3.6,235.0,153.0,10.1,0,5,7,1,2026-07-04T17:38:45.146753+05:30
Surat,Gujarat,21.1702,72.8311,27.8,87,0.2,997.1,0.9,33.1,69,25.1,19.8,32.5,444.0,35.0,45.0,10,5,3,1,2026-07-04T17:38:45.146790+05:30
Vadodara,Gujarat,22.3072,73.1812,27.4,92,0.1,994.5,1.05,28.4,51,33.4,18.8,20.7,414.0,43.0,11.6,10,5,3,1,2026-07-04T17:38:45.146802+05:30
Rajkot,Gujarat,22.3039,70.8022,32.5,60,0.0,983.8,6.55,36.0,57,49.8,22.0,3.5,104.0,76.0,4.9,0,5,7,1,2026-07-04T17:38:45.146839+05:30
Thane,Maharashtra,19.2183,72.9781,25.7,94,0.5,999.4,0.4,39.2,30,8.4,5.7,9.0,241.0,47.0,3.0,10,5,3,1,2026-07-04T17:38:45.146852+05:30
Nagpur,Maharashtra,21.1458,79.0882,27.1,86,0.1,962.5,8.3,31.0,66,16.2,15.5,15.9,335.0,90.0,19.2,10,5,7,1,2026-07-04T17:38:45.146862+05:30
Nashik,Maharashtra,19.9975,73.7898,24.0,93,0.1,936.6,1.15,34.6,27,3.6,3.0,9.6,162.0,53.0,3.5,6,5,3,1,2026-07-04T17:38:45.146871+05:30
Aurangabad,Maharashtra,19.8762,75.3433,24.1,92,0.0,935.4,1.7,38.5,33,5.1,4.7,6.8,196.0,73.0,4.0,3,5,3,1,2026-07-04T17:38:45.146881+05:30
Solapur,Maharashtra,17.6599,75.9064,24.8,88,0.1,950.4,1.05,48.2,23,2.2,2.0,4.1,115.0,49.0,1.3,6,5,3,1,2026-07-04T17:38:45.146891+05:30
Kolhapur,Maharashtra,16.705,74.2433,22.3,96,0.3,941.9,1.3,51.8,22,2.6,2.1,5.0,142.0,45.0,1.0,6,5,3,1,2026-07-04T17:38:45.146900+05:30
Goa,Goa,15.2993,74.124,24.8,97,0.3,995.1,3.8,39.2,50,16.5,8.3,1.7,153.0,51.0,0.5,6,5,3,1,2026-07-04T17:38:45.146909+05:30
Jodhpur,Rajasthan,26.2389,73.0243,35.0,52,0.0,971.4,7.85,27.4,150,244.0,72.2,2.7,170.0,101.0,4.1,0,5,7,1,2026-07-04T17:38:45.146918+05:30
Udaipur,Rajasthan,24.5854,73.7125,27.8,84,0.2,936.5,4.0,34.2,57,93.8,31.8,2.1,219.0,91.0,4.9,10,5,3,1,2026-07-04T17:38:45.146928+05:30
Kota,Rajasthan,25.2138,75.8648,33.4,60,0.0,966.9,7.2,30.6,90,55.6,26.7,2.3,182.0,125.0,4.1,0,5,7,1,2026-07-04T17:38:45.146936+05:30
Bikaner,Rajasthan,28.0229,73.3119,38.4,38,0.0,969.9,7.05,25.9,117,64.5,30.2,1.0,229.0,132.0,3.5,0,5,10,1,2026-07-04T17:38:45.146945+05:30
Ajmer,Rajasthan,26.4499,74.6399,33.0,54,0.0,944.0,7.25,33.5,120,113.6,40.6,2.1,233.0,120.0,3.3,0,5,7,1,2026-07-04T17:38:45.146954+05:30
Gwalior,Madhya Pradesh,26.2183,78.1828,33.2,67,0.0,971.3,7.65,25.9,112,21.9,21.0,2.8,254.0,137.0,3.5,3,5,7,1,2026-07-04T17:38:45.146963+05:30
Indore,Madhya Pradesh,22.7196,75.8577,26.4,88,0.3,938.0,7.45,31.3,46,24.6,14.7,5.4,441.0,100.0,2.6,10,5,7,1,2026-07-04T17:38:45.146973+05:30
Bhopal,Madhya Pradesh,23.2599,77.4126,27.4,87,0.1,942.4,8.5,29.9,61,11.4,10.3,4.4,340.0,97.0,2.4,10,5,7,1,2026-07-04T17:38:45.146981+05:30
Jabalpur,Madhya Pradesh,23.1815,79.9864,26.8,96,0.0,950.4,8.8,24.8,102,24.2,23.9,4.8,221.0,122.0,7.4,7,5,7,1,2026-07-04T17:38:45.146990+05:30
Ujjain,Madhya Pradesh,23.1765,75.7885,27.2,82,0.1,943.5,7.4,30.6,50,25.4,14.5,3.5,265.0,90.0,2.5,10,5,7,1,2026-07-04T17:38:45.146999+05:30
Visakhapatnam,Andhra Pradesh,17.6868,83.2185,26.5,90,0.1,991.5,2.7,61.9,41,12.2,10.9,13.0,234.0,77.0,21.5,10,5,3,1,2026-07-04T17:38:45.147008+05:30
Vijayawada,Andhra Pradesh,16.5062,80.648,29.4,70,0.0,994.4,2.0,66.2,37,12.6,9.4,5.4,145.0,67.0,4.4,7,5,3,1,2026-07-04T17:38:45.147016+05:30
Guntur,Andhra Pradesh,16.3067,80.4365,31.2,58,0.0,996.1,2.05,51.8,33,11.3,8.1,5.5,145.0,62.0,4.5,0,5,3,1,2026-07-04T17:38:45.147025+05:30
Nellore,Andhra Pradesh,14.4426,79.9865,31.5,58,0.0,1000.1,1.65,46.8,31,16.5,8.2,3.8,127.0,64.0,2.8,0,5,0,1,2026-07-04T17:38:45.147035+05:30
Kurnool,Andhra Pradesh,15.8281,78.0373,29.4,59,0.0,971.2,1.15,62.3,28,4.9,3.2,3.3,126.0,58.0,1.6,4,5,3,1,2026-07-04T17:38:45.147045+05:30
Kakinada,Andhra Pradesh,16.9891,82.2475,28.2,77,0.0,997.7,1.75,77.0,37,9.7,7.5,3.8,164.0,77.0,3.4,7,5,3,1,2026-07-04T17:38:45.147053+05:30
Tirupati,Andhra Pradesh,13.6288,79.4192,32.2,48,0.0,985.6,2.6,50.0,32,15.0,8.7,6.3,126.0,59.0,1.7,0,5,3,1,2026-07-04T17:38:45.147062+05:30
Warangal,Telangana,17.9689,79.5941,28.3,71,0.0,970.0,2.25,58.3,28,4.2,4.0,5.3,146.0,54.0,1.4,7,5,3,1,2026-07-04T17:38:45.147070+05:30
Nizamabad,Telangana,18.6725,78.0941,27.1,72,0.0,956.6,1.9,54.0,24,4.5,4.5,5.5,150.0,60.0,3.3,7,5,3,1,2026-07-04T17:38:45.147079+05:30
Mysore,Karnataka,12.2958,76.6396,24.5,77,0.0,926.0,8.05,63.7,28,4.4,2.9,4.8,125.0,53.0,1.2,3,5,7,1,2026-07-04T17:38:45.147087+05:30
Mangalore,Karnataka,12.9141,74.856,24.5,94,0.1,1005.8,8.15,59.4,36,15.6,8.9,3.8,111.0,47.0,0.9,6,5,4,1,2026-07-04T17:38:45.147095+05:30
Hubli-Dharwad,Karnataka,15.3647,75.124,22.7,94,0.1,936.4,1.9,54.4,23,1.7,1.4,5.0,126.0,45.0,0.7,6,5,3,1,2026-07-04T17:38:45.147104+05:30
Belgaum,Karnataka,15.8497,74.4977,21.7,96,0.3,920.8,1.95,56.2,22,1.7,1.5,4.9,133.0,42.0,0.6,6,5,3,1,2026-07-04T17:38:48.633920+05:30
Coimbatore,Tamil Nadu,11.0168,76.9558,25.3,82,0.0,959.7,5.85,59.8,28,4.1,3.3,6.7,168.0,48.0,1.7,7,5,3,1,2026-07-04T17:38:48.633954+05:30
Madurai,Tamil Nadu,9.9252,78.1198,31.9,50,0.0,990.4,2.15,59.4,32,7.1,4.2,4.4,136.0,70.0,1.6,0,5,3,1,2026-07-04T17:38:48.633966+05:30
Trichy,Tamil Nadu,10.7905,78.7047,33.0,45,0.0,996.2,6.05,63.0,31,8.4,4.8,3.5,119.0,62.0,1.6,0,5,7,1,2026-07-04T17:38:48.633975+05:30
Salem,Tamil Nadu,11.6643,78.146,29.0,67,0.0,974.0,7.15,38.5,35,9.3,6.4,6.2,177.0,68.0,4.5,7,5,7,1,2026-07-04T17:38:48.633985+05:30
Tirunelveli,Tamil Nadu,8.7139,77.7567,30.8,55,0.0,1001.7,3.25,56.2,27,6.7,3.6,2.7,112.0,53.0,0.9,0,5,0,1,2026-07-04T17:38:48.633993+05:30
Vellore,Tamil Nadu,12.9165,79.1325,33.4,41,0.0,979.4,2.35,56.2,30,13.8,8.9,7.7,134.0,63.0,2.5,0,5,3,1,2026-07-04T17:38:48.634001+05:30
Erode,Tamil Nadu,11.341,77.7172,30.4,57,0.0,985.6,6.3,60.1,30,6.3,4.4,6.2,148.0,58.0,1.6,0,5,7,1,2026-07-04T17:38:48.634009+05:30
Kochi,Kerala,9.9312,76.2673,28.0,80,0.0,1008.7,6.9,45.7,39,18.7,9.7,6.1,184.0,48.0,2.1,7,0,4,1,2026-07-04T17:38:48.634017+05:30
Thiruvananthapuram,Kerala,8.5241,76.9366,26.2,90,0.0,1008.4,7.35,52.9,34,14.1,7.2,2.9,122.0,52.0,0.7,7,0,4,1,2026-07-04T17:38:48.634025+05:30
Kozhikode,Kerala,11.2588,75.7804,25.2,92,0.2,1007.9,5.85,36.4,31,13.9,6.7,1.0,157.0,60.0,0.7,10,5,0,1,2026-07-04T17:38:48.634032+05:30
Thrissur,Kerala,10.5276,76.2144,27.0,87,0.1,1007.0,7.8,39.2,35,12.6,7.7,5.6,154.0,44.0,1.3,10,5,4,1,2026-07-04T17:38:48.634041+05:30
Kannur,Kerala,11.8745,75.3704,27.0,85,0.1,1006.4,8.5,39.6,35,14.8,8.1,5.4,146.0,45.0,1.1,10,5,4,1,2026-07-04T17:38:48.634049+05:30
Patna,Bihar,25.5941,85.1376,32.3,71,0.1,988.3,8.5,37.8,120,16.4,15.9,5.6,281.0,140.0,7.5,6,5,7,1,2026-07-04T17:38:48.634056+05:30
Gaya,Bihar,24.7914,85.0002,32.8,68,0.0,981.9,8.5,38.5,59,14.3,13.5,4.8,204.0,95.0,3.9,3,5,7,1,2026-07-04T17:38:48.634064+05:30
Muzaffarpur,Bihar,26.1209,85.3647,34.1,68,0.0,988.1,8.1,31.7,132,18.2,17.8,7.5,270.0,140.0,7.0,3,5,7,1,2026-07-04T17:38:48.634071+05:30
Bhagalpur,Bihar,25.2425,87.0117,33.5,67,0.1,988.8,7.6,38.9,68,12.7,12.3,6.7,191.0,113.0,7.8,6,5,7,1,2026-07-04T17:38:48.634078+05:30
Ranchi,Jharkhand,23.3441,85.3096,25.0,93,0.1,926.8,7.15,55.1,67,18.9,18.6,6.8,336.0,126.0,20.0,10,5,7,1,2026-07-04T17:38:48.634086+05:30
Jamshedpur,Jharkhand,22.8046,86.2029,28.5,85,0.1,977.7,7.45,44.3,61,10.8,10.6,7.7,259.0,87.0,6.0,10,5,7,1,2026-07-04T17:38:48.634094+05:30
Dhanbad,Jharkhand,23.7957,86.4304,29.3,83,0.0,968.1,6.2,53.6,83,15.9,15.7,14.0,255.0,109.0,34.0,7,5,7,1,2026-07-04T17:38:48.634102+05:30
Bokaro,Jharkhand,23.6693,86.1511,28.1,89,0.0,971.9,5.1,51.1,87,15.7,15.5,13.2,235.0,114.0,36.8,7,5,3,1,2026-07-04T17:38:48.634109+05:30
Bhubaneswar,Odisha,20.2961,85.8245,26.4,95,0.2,987.1,2.95,35.3,73,12.0,11.4,13.2,335.0,65.0,3.9,10,5,3,1,2026-07-04T17:38:48.634117+05:30
Cuttack,Odisha,20.4625,85.8828,27.5,95,0.0,989.1,2.3,43.6,73,12.0,11.4,13.2,296.0,65.0,3.9,7,5,3,1,2026-07-04T17:38:48.634125+05:30
Rourkela,Odisha,22.2604,84.8536,28.2,87,0.0,971.6,6.7,51.8,66,13.2,13.0,7.1,278.0,103.0,13.1,7,5,7,1,2026-07-04T17:38:48.634134+05:30
Raipur,Chhattisgarh,21.2514,81.6296,26.0,96,0.2,963.0,7.3,33.1,68,23.2,23.1,16.4,333.0,109.0,37.0,10,5,7,1,2026-07-04T17:38:48.634142+05:30
Bhilai,Chhattisgarh,21.1938,81.3509,26.9,93,0.2,963.5,6.8,30.6,63,23.0,22.9,21.6,1415.0,90.0,43.7,10,5,7,1,2026-07-04T17:38:48.634149+05:30
Guwahati,Assam,26.1158,91.7086,30.0,85,0.0,990.0,8.7,33.1,48,7.6,7.4,4.2,251.0,86.0,1.3,7,5,7,1,2026-07-04T17:38:48.634157+05:30
Agartala,Tripura,23.8315,91.2868,30.3,82,0.0,994.8,8.55,27.7,49,10.4,10.0,10.6,161.0,78.0,1.2,3,5,7,1,2026-07-04T17:38:48.634165+05:30
Shillong,Meghalaya,25.5788,91.8933,22.3,96,0.1,850.7,8.3,34.9,39,4.9,4.9,6.0,220.0,70.0,1.1,6,5,7,1,2026-07-04T17:38:48.634172+05:30
Imphal,Manipur,24.817,93.9368,26.4,78,0.0,916.4,7.75,32.4,33,2.9,2.8,3.1,227.0,62.0,0.8,7,5,7,1,2026-07-04T17:38:48.634179+05:30
Aizawl,Mizoram,23.7271,92.7176,22.5,96,0.1,883.6,8.7,24.8,29,4.2,4.1,5.3,156.0,41.0,0.5,6,5,7,1,2026-07-04T17:38:48.634187+05:30
Kohima,Nagaland,25.6701,94.1077,24.5,84,0.0,850.0,9.1,29.2,36,4.1,4.1,4.1,181.0,60.0,0.5,3,5,7,1,2026-07-04T17:38:48.634194+05:30
Gangtok,Sikkim,27.3314,88.6138,21.6,97,0.1,832.6,8.5,32.4,50,9.8,9.5,5.5,242.0,102.0,0.9,6,5,7,1,2026-07-04T17:38:48.634202+05:30
Siliguri,West Bengal,26.7271,88.3953,32.2,72,0.0,981.7,8.7,24.5,82,15.8,15.5,7.7,506.0,110.0,2.4,3,5,7,1,2026-07-04T17:38:52.042592+05:30
Durgapur,West Bengal,23.5204,87.3119,30.5,77,0.0,982.6,6.95,52.6,66,15.5,15.2,14.1,290.0,94.0,19.7,3,5,7,1,2026-07-04T17:38:52.042627+05:30
Asansol,West Bengal,23.6739,86.9524,28.4,89,0.1,981.5,5.6,52.9,65,13.5,13.2,13.7,269.0,100.0,19.1,10,5,3,1,2026-07-04T17:38:52.042638+05:30
Pondicherry,Puducherry,11.9139,79.8145,29.7,70,0.0,1003.9,5.25,36.0,42,17.1,12.4,15.1,215.0,74.0,15.3,7,5,0,1,2026-07-04T17:38:52.042647+05:30
Port Blair,Andaman and Nicobar Islands,11.6234,92.7265,25.0,96,0.2,1005.6,5.1,58.7,50,19.6,10.6,0.6,100.0,50.0,0.4,10,5,0,1,2026-07-04T17:38:52.042656+05:30
Haridwar,Uttarakhand,29.9457,78.1642,31.8,71,0.0,964.0,6.55,18.7,140,27.6,27.5,4.3,330.0,182.0,12.6,3,5,7,1,2026-07-04T17:38:52.042664+05:30
Rishikesh,Uttarakhand,30.0869,78.2676,31.1,71,0.0,957.0,6.7,24.8,105,19.2,19.1,2.1,313.0,151.0,5.7,3,5,7,1,2026-07-04T17:38:52.042672+05:30
Nainital,Uttarakhand,29.3919,79.4542,19.8,97,0.1,801.1,6.65,25.2,87,14.9,14.6,3.4,261.0,130.0,4.9,6,10,7,1,2026-07-04T17:38:52.042681+05:30
Mussoorie,Uttarakhand,30.4599,78.0664,22.4,75,0.0,799.3,6.75,31.0,117,19.0,18.8,3.7,273.0,155.0,6.4,3,5,7,1,2026-07-04T17:38:52.042688+05:30
Dharamshala,Himachal Pradesh,32.219,76.3234,24.6,89,0.0,863.0,8.45,31.0,88,6.4,5.9,1.7,312.0,139.0,0.8,3,5,7,1,2026-07-04T17:38:52.042696+05:30
Dalhousie,Himachal Pradesh,32.5387,75.971,20.5,93,0.0,800.5,8.65,23.8,154,20.4,18.0,3.6,323.0,170.0,2.7,3,5,7,1,2026-07-04T17:38:52.042704+05:30
Patiala,Punjab,30.3398,76.3869,31.7,73,0.0,967.8,7.25,28.4,112,31.7,29.6,6.9,425.0,157.0,10.5,3,5,7,1,2026-07-04T17:38:52.042712+05:30
Bhatinda,Punjab,30.211,74.9455,34.3,58,0.0,972.8,7.95,25.9,191,61.9,41.2,6.5,335.0,197.0,21.6,0,5,7,1,2026-07-04T17:38:52.042719+05:30
Rohtak,Haryana,28.8955,76.6066,32.1,71,0.0,971.1,6.25,28.4,176,514.1,90.8,11.9,420.0,205.0,27.0,3,5,7,1,2026-07-04T17:38:52.042726+05:30
Panipat,Haryana,29.3909,76.9635,31.8,71,0.0,970.0,6.5,22.3,160,922.0,129.0,14.2,379.0,176.0,33.6,3,5,7,1,2026-07-04T17:38:52.042733+05:30
Mathura,Uttar Pradesh,27.4924,77.6737,33.0,69,0.0,975.3,6.7,23.0,155,53.8,31.8,6.9,297.0,172.0,4.4,3,5,7,1,2026-07-04T17:38:52.042739+05:30
Vrindavan,Uttar Pradesh,27.5823,77.7027,32.9,68,0.1,975.8,7.05,25.6,155,53.8,31.8,6.9,295.0,172.0,4.4,6,5,7,1,2026-07-04T17:38:52.042746+05:30
Ayodhya,Uttar Pradesh,26.7922,82.1998,34.5,62,0.0,983.3,8.05,25.6,118,23.1,22.6,5.9,266.0,126.0,5.4,3,5,7,1,2026-07-04T17:38:52.042753+05:30
Ratlam,Madhya Pradesh,23.3315,75.0367,26.6,90,0.3,944.3,6.1,30.6,43,33.1,15.9,2.7,188.0,83.0,2.3,10,5,7,1,2026-07-04T17:38:52.042760+05:30
Sagar,Madhya Pradesh,23.8388,78.7378,26.6,89,0.0,939.6,8.0,25.2,91,21.3,21.1,3.6,256.0,112.0,5.1,7,5,7,1,2026-07-04T17:38:52.042767+05:30
Satna,Madhya Pradesh,24.6005,80.8322,32.6,66,0.0,958.7,7.15,43.6,113,14.5,14.1,2.6,238.0,127.0,4.6,3,5,7,1,2026-07-04T17:38:52.042774+05:30
Akola,Maharashtra,20.7002,77.0082,28.8,72,0.1,965.2,6.95,40.7,31,7.3,6.0,5.6,164.0,81.0,8.4,10,5,7,1,2026-07-04T17:38:52.042782+05:30
Amravati,Maharashtra,20.9374,77.7796,26.7,92,0.2,957.2,7.25,47.2,36,6.5,5.2,5.6,172.0,82.0,8.8,10,5,7,1,2026-07-04T17:38:52.042790+05:30
Latur,Maharashtra,18.4088,76.5604,24.1,90,0.1,932.0,2.4,47.5,23,2.2,2.1,3.8,135.0,51.0,0.8,6,5,3,1,2026-07-04T17:38:52.042798+05:30
Nanded,Maharashtra,19.1383,77.3091,26.8,79,0.0,960.0,1.75,42.8,26,4.5,4.5,6.1,155.0,62.0,3.7,7,5,3,1,2026-07-04T17:38:52.042805+05:30
Gulbarga,Karnataka,17.3297,76.8343,25.7,80,0.1,952.1,1.5,54.0,25,3.9,2.8,5.6,147.0,50.0,1.9,10,5,3,1,2026-07-04T17:38:52.042847+05:30
Bidar,Karnataka,17.9104,77.5199,23.5,93,0.1,928.2,1.35,55.1,24,2.5,2.4,6.0,140.0,52.0,1.1,6,5,3,1,2026-07-04T17:38:52.042859+05:30
Hospet,Karnataka,15.2689,76.3909,26.1,72,0.0,951.3,1.7,65.2,28,2.6,2.0,3.9,116.0,55.0,1.3,7,5,3,1,2026-07-04T17:38:52.042867+05:30
Tirupur,Tamil Nadu,11.1085,77.3411,27.2,71,0.0,972.4,7.75,65.9,30,7.0,5.2,7.5,143.0,57.0,2.4,7,5,7,1,2026-07-04T17:38:52.042873+05:30
Alappuzha,Kerala,9.4981,76.3388,28.2,79,0.0,1008.9,6.75,47.2,36,17.6,9.0,3.3,89.0,56.0,1.4,7,0,4,1,2026-07-04T17:38:52.042881+05:30
Munnar,Kerala,10.0889,77.0595,16.6,99,0.5,855.5,3.75,63.7,27,4.6,3.2,4.9,100.0,49.0,1.0,6,10,3,1,2026-07-04T17:38:52.042888+05:30
Silchar,Assam,24.8333,92.7789,30.0,89,0.0,993.6,8.65,28.1,51,6.9,6.8,3.8,191.0,67.0,1.9,7,5,7,1,2026-07-04T17:38:52.042895+05:30
Dibrugarh,Assam,27.4728,94.912,33.7,73,0.0,984.3,8.9,26.3,54,9.1,8.9,5.3,245.0,72.0,1.1,3,5,7,1,2026-07-04T17:38:52.042902+05:30
