city,state,latitude,longitude,temp,humidity,rain,pressure,uv_index,wind_gusts,aqi,pm10,pm2_5,mosquito_risk,arthritis_risk,migraine_risk,frizz_risk,updated_at
Delhi,Delhi,28.6139,77.209,30.1,40,0.0,983.6,5.3,24.5,138,227.2,37.1,0,5,3,0,2026-03-31T17:24:12.030221+05:30
Mumbai,Maharashtra,19.076,72.8777,27.8,77,0.0,1006.5,8.0,25.2,64,24.6,14.0,7,5,4,1,2026-03-31T17:24:12.030262+05:30
Bangalore,Karnataka,12.9716,77.5946,32.4,25,0.0,909.9,9.55,32.0,132,32.5,25.0,0,5,7,0,2026-03-31T17:24:12.030277+05:30
Hyderabad,Telangana,17.385,78.4867,30.9,52,0.0,952.5,9.05,37.4,133,45.2,38.2,0,5,7,1,2026-03-31T17:24:12.030286+05:30
Chennai,Tamil Nadu,13.0827,80.2707,30.0,63,0.0,1006.2,9.25,29.2,49,14.5,10.7,7,5,4,1,2026-03-31T17:24:12.030295+05:30
Kolkata,West Bengal,22.5726,88.3639,28.5,78,0.0,1005.7,7.35,27.0,97,33.1,28.0,7,5,4,1,2026-03-31T17:24:12.030303+05:30
Pune,Maharashtra,18.5204,73.8567,33.4,42,0.0,946.8,8.55,28.4,115,42.6,31.8,0,5,7,1,2026-03-31T17:24:12.030315+05:30
Ahmedabad,Gujarat,23.0225,72.5714,35.8,33,0.0,999.5,7.8,27.0,61,31.8,12.4,0,5,10,1,2026-03-31T17:24:12.030322+05:30
Jaipur,Rajasthan,26.9124,75.7873,24.4,69,0.0,960.9,7.45,42.8,63,67.1,12.7,3,5,7,1,2026-03-31T17:24:12.030330+05:30
Lucknow,Uttar Pradesh,26.8467,80.9462,34.4,27,0.0,992.6,7.3,27.0,155,135.5,27.0,0,5,7,0,2026-03-31T17:24:12.030338+05:30
Kanpur,Uttar Pradesh,26.4499,80.3319,32.2,39,0.0,991.5,7.3,23.8,540,273.8,31.7,0,5,7,1,2026-03-31T17:24:12.030344+05:30
Chandigarh,Chandigarh,30.7333,76.7794,27.8,52,0.0,969.3,6.05,23.4,104,69.6,24.6,4,5,7,1,2026-03-31T17:24:12.030352+05:30
Srinagar,Jammu and Kashmir,34.0837,74.7973,16.5,57,0.0,841.9,7.65,16.9,71,15.1,7.2,0,5,7,0,2026-03-31T17:24:12.030358+05:30
Jammu,Jammu and Kashmir,32.7266,74.857,30.5,27,0.0,972.7,6.85,38.2,67,62.6,19.7,0,5,7,0,2026-03-31T17:24:12.030365+05:30
Amritsar,Punjab,31.634,74.8723,28.1,42,0.0,981.4,6.05,27.4,120,88.2,29.4,4,5,7,0,2026-03-31T17:24:12.030372+05:30
Ludhiana,Punjab,30.901,75.8573,28.7,42,0.0,979.5,6.35,25.9,255,153.7,34.2,4,5,7,0,2026-03-31T17:24:12.030378+05:30
Jalandhar,Punjab,31.326,75.5762,28.8,38,0.0,980.3,6.25,22.0,176,125.3,33.8,4,5,7,0,2026-03-31T17:24:12.030386+05:30
Dehradun,Uttarakhand,30.6284,78.0322,19.2,50,0.0,831.0,6.5,34.9,50,22.6,8.5,0,5,7,0,2026-03-31T17:24:12.030392+05:30
Shimla,Himachal Pradesh,31.1048,77.1734,17.0,53,0.0,786.0,6.4,32.0,57,35.2,14.6,0,5,7,0,2026-03-31T17:24:12.030399+05:30
Manali,Himachal Pradesh,32.2396,77.1887,17.1,69,0.0,820.7,9.0,38.2,75,7.6,3.1,3,5,7,0,2026-03-31T17:24:12.030405+05:30
Gurgaon,Haryana,28.4595,77.0266,29.7,42,0.0,982.1,6.05,25.6,180,351.1,46.1,4,5,7,0,2026-03-31T17:24:12.030411+05:30
Noida,Uttar Pradesh,28.5355,77.391,30.4,39,0.0,985.0,5.5,26.3,180,351.1,46.1,0,5,3,0,2026-03-31T17:24:12.030417+05:30
Ghaziabad,Uttar Pradesh,28.6692,77.4538,29.6,43,0.0,983.2,5.6,22.7,128,234.2,41.6,4,5,3,0,2026-03-31T17:24:12.030422+05:30
Faridabad,Haryana,28.4089,77.3178,30.1,39,0.0,984.3,5.95,29.9,180,351.1,46.1,0,5,3,0,2026-03-31T17:24:12.030429+05:30
Meerut,Uttar Pradesh,28.9845,77.7064,29.9,38,0.0,981.7,5.7,22.3,128,234.2,41.6,4,5,3,0,2026-03-31T17:24:12.030435+05:30
Agra,Uttar Pradesh,27.1767,78.0081,30.5,43,0.0,988.3,7.15,34.2,392,457.3,41.3,0,5,7,1,2026-03-31T17:24:12.030442+05:30
Varanasi,Uttar Pradesh,25.3176,82.9739,35.1,29,0.0,996.4,7.45,22.7,135,119.2,40.6,0,5,10,0,2026-03-31T17:24:12.030454+05:30
Prayagraj,Uttar Pradesh,25.4358,81.8463,35.0,28,0.0,995.0,7.55,19.8,151,110.1,34.5,0,5,7,0,2026-03-31T17:24:12.030463+05:30
Gorakhpur,Uttar Pradesh,26.7606,83.3732,33.0,38,0.0,996.3,7.35,22.0,159,46.7,23.5,0,5,7,1,2026-03-31T17:24:12.030470+05:30
Bareilly,Uttar Pradesh,28.367,79.4304,31.3,38,0.0,986.5,6.4,32.0,97,61.7,18.9,0,5,7,0,2026-03-31T17:24:12.030477+05:30
Aligarh,Uttar Pradesh,27.8974,78.088,30.6,44,0.0,985.9,6.4,25.2,418,310.1,39.0,0,5,7,1,2026-03-31T17:24:12.030485+05:30
Moradabad,Uttar Pradesh,28.8386,78.7733,30.2,38,0.0,983.6,6.25,28.4,106,68.7,21.0,0,5,7,0,2026-03-31T17:24:12.030491+05:30
Saharanpur,Uttar Pradesh,29.9637,77.546,28.6,40,0.0,976.0,5.65,25.2,152,137.4,35.6,4,5,3,0,2026-03-31T17:24:12.030497+05:30
Jhansi,Uttar Pradesh,25.4484,78.5685,29.7,46,0.0,978.1,7.8,56.2,48,22.2,10.4,4,5,7,1,2026-03-31T17:24:15.286669+05:30
Surat,Gujarat,21.1702,72.8311,29.5,67,0.0,1005.0,7.8,28.4,86,38.8,31.9,7,5,4,1,2026-03-31T17:24:15.286696+05:30
Vadodara,Gujarat,22.3072,73.1812,36.1,28,0.0,1001.6,8.0,27.4,76,19.8,11.3,0,5,7,0,2026-03-31T17:24:15.286706+05:30
Rajkot,Gujarat,22.3039,70.8022,33.9,35,0.0,992.2,7.75,34.2,61,69.8,25.3,0,5,7,1,2026-03-31T17:24:15.286715+05:30
Thane,Maharashtra,19.2183,72.9781,29.1,67,0.0,1006.0,8.0,37.1,64,24.6,14.0,7,5,4,1,2026-03-31T17:24:15.286722+05:30
Nagpur,Maharashtra,21.1458,79.0882,34.5,34,0.0,971.7,8.55,20.2,71,28.9,20.1,0,5,7,1,2026-03-31T17:24:15.286728+05:30
Nashik,Maharashtra,19.9975,73.7898,32.2,43,0.0,943.9,8.25,31.0,68,20.7,12.9,0,5,7,1,2026-03-31T17:24:15.286735+05:30
Aurangabad,Maharashtra,19.8762,75.3433,33.1,33,0.0,942.8,8.75,27.7,79,30.3,21.4,0,5,7,0,2026-03-31T17:24:15.286742+05:30
Solapur,Maharashtra,17.6599,75.9064,34.3,29,0.0,955.3,8.9,24.8,108,39.8,30.3,0,5,7,0,2026-03-31T17:24:15.286748+05:30
Kolhapur,Maharashtra,16.705,74.2433,30.1,58,0.0,946.5,9.0,26.6,97,41.4,33.3,0,5,7,1,2026-03-31T17:24:15.286755+05:30
Goa,Goa,15.2993,74.124,30.8,66,0.0,995.2,9.0,34.2,77,38.1,25.1,3,5,7,1,2026-03-31T17:24:15.286761+05:30
Jodhpur,Rajasthan,26.2389,73.0243,33.8,30,0.0,981.1,7.7,38.5,69,129.0,20.5,0,5,7,0,2026-03-31T17:24:15.286768+05:30
Udaipur,Rajasthan,24.5854,73.7125,31.4,31,0.0,945.3,8.2,37.4,45,22.5,9.5,0,5,7,0,2026-03-31T17:24:15.286774+05:30
Kota,Rajasthan,25.2138,75.8648,28.5,53,0.0,978.6,7.8,40.0,49,15.7,9.1,4,5,7,1,2026-03-31T17:24:15.286782+05:30
Bikaner,Rajasthan,28.0229,73.3119,33.9,19,0.0,980.5,6.55,38.5,60,56.0,16.9,0,5,7,0,2026-03-31T17:24:15.286789+05:30
Ajmer,Rajasthan,26.4499,74.6399,29.9,43,0.0,954.1,7.65,38.5,43,28.1,12.3,4,5,7,0,2026-03-31T17:24:15.286796+05:30
Gwalior,Madhya Pradesh,26.2183,78.1828,25.3,71,0.0,983.8,7.35,38.9,41,13.0,5.4,7,5,7,1,2026-03-31T17:24:15.286803+05:30
Indore,Madhya Pradesh,22.7196,75.8577,34.2,25,0.0,946.2,8.3,25.6,83,22.9,16.6,0,5,7,0,2026-03-31T17:24:15.286809+05:30
Bhopal,Madhya Pradesh,23.2599,77.4126,35.1,22,0.0,951.8,8.25,26.6,69,19.4,13.0,0,5,10,0,2026-03-31T17:24:15.286815+05:30
Jabalpur,Madhya Pradesh,23.1815,79.9864,33.7,32,0.0,960.4,8.35,37.4,63,55.4,15.2,0,5,7,0,2026-03-31T17:24:15.286822+05:30
Ujjain,Madhya Pradesh,23.1765,75.7885,34.3,27,0.0,951.9,8.2,25.6,70,25.1,17.6,0,5,7,0,2026-03-31T17:24:15.286829+05:30
Visakhapatnam,Andhra Pradesh,17.6868,83.2185,30.0,63,0.0,1003.3,9.0,35.6,64,24.4,20.1,7,5,4,1,2026-03-31T17:24:15.286836+05:30
Vijayawada,Andhra Pradesh,16.5062,80.648,33.7,47,0.0,1000.9,9.05,22.7,58,24.0,19.1,0,5,4,1,2026-03-31T17:24:15.286842+05:30
Guntur,Andhra Pradesh,16.3067,80.4365,33.4,50,0.0,1002.1,9.1,28.8,59,23.6,18.5,0,5,4,1,2026-03-31T17:24:15.286848+05:30
Nellore,Andhra Pradesh,14.4426,79.9865,30.6,60,0.0,1004.8,9.2,28.1,54,17.2,13.2,0,5,4,1,2026-03-31T17:24:15.286855+05:30
Kurnool,Andhra Pradesh,15.8281,78.0373,35.2,38,0.0,974.6,9.1,33.1,96,34.8,27.5,0,5,10,1,2026-03-31T17:24:15.286895+05:30
Kakinada,Andhra Pradesh,16.9891,82.2475,31.1,61,0.0,1006.5,9.05,33.8,49,18.1,13.0,3,5,4,1,2026-03-31T17:24:15.286903+05:30
Tirupati,Andhra Pradesh,13.6288,79.4192,33.9,37,0.0,989.5,9.3,37.1,77,25.0,19.6,0,5,7,1,2026-03-31T17:24:15.286911+05:30
Warangal,Telangana,17.9689,79.5941,32.0,55,0.0,977.7,8.9,26.3,135,57.4,46.3,0,5,7,1,2026-03-31T17:24:15.286917+05:30
Nizamabad,Telangana,18.6725,78.0941,33.7,38,0.0,963.4,8.8,33.5,101,49.9,39.8,0,5,7,1,2026-03-31T17:24:15.286924+05:30
Mysore,Karnataka,12.2958,76.6396,31.5,36,0.0,926.1,9.5,28.4,140,29.5,22.9,0,5,7,0,2026-03-31T17:24:15.286931+05:30
Mangalore,Karnataka,12.9141,74.856,29.7,79,0.0,1003.8,8.85,27.0,93,23.6,17.8,7,5,4,1,2026-03-31T17:24:15.286938+05:30
Hubli-Dharwad,Karnataka,15.3647,75.124,27.4,62,0.0,939.2,9.1,28.1,109,41.7,34.9,7,5,7,1,2026-03-31T17:24:15.286945+05:30
Belgaum,Karnataka,15.8497,74.4977,27.9,63,0.0,924.3,9.1,36.0,115,44.6,35.3,7,5,7,1,2026-03-31T17:24:18.546852+05:30
Coimbatore,Tamil Nadu,11.0168,76.9558,34.4,26,0.0,959.0,9.45,38.9,106,16.6,11.8,0,5,7,0,2026-03-31T17:24:18.546923+05:30
Madurai,Tamil Nadu,9.9252,78.1198,35.9,32,0.0,989.9,9.25,32.4,75,18.1,10.8,0,5,10,1,2026-03-31T17:24:18.546936+05:30
Trichy,Tamil Nadu,10.7905,78.7047,34.7,38,0.0,997.1,9.35,25.9,57,18.3,13.3,0,5,7,1,2026-03-31T17:24:18.546945+05:30
Salem,Tamil Nadu,11.6643,78.146,35.5,26,0.0,974.6,9.45,36.0,93,27.3,18.3,0,5,10,0,2026-03-31T17:24:18.546958+05:30
Tirunelveli,Tamil Nadu,8.7139,77.7567,32.4,55,0.0,1000.5,8.75,46.4,99,20.8,16.7,0,5,4,1,2026-03-31T17:24:18.546967+05:30
Vellore,Tamil Nadu,12.9165,79.1325,33.2,38,0.0,982.6,9.35,33.5,96,22.1,16.6,0,5,7,1,2026-03-31T17:24:18.546975+05:30
Erode,Tamil Nadu,11.341,77.7172,37.1,28,0.0,985.3,9.4,27.0,60,19.1,12.6,0,5,10,0,2026-03-31T17:24:18.546983+05:30
Kochi,Kerala,9.9312,76.2673,30.1,76,0.0,1005.6,9.2,28.4,150,44.7,39.7,3,5,4,1,2026-03-31T17:24:18.546992+05:30
Thiruvananthapuram,Kerala,8.5241,76.9366,29.8,74,0.0,1005.3,9.05,26.6,116,26.4,22.2,7,5,4,1,2026-03-31T17:24:18.547001+05:30
Kozhikode,Kerala,11.2588,75.7804,30.6,77,0.0,1004.6,8.65,28.8,138,31.0,25.6,3,5,4,1,2026-03-31T17:24:18.547010+05:30
Thrissur,Kerala,10.5276,76.2144,31.5,69,0.0,1003.7,8.85,36.7,130,35.2,29.6,3,5,4,1,2026-03-31T17:24:18.547019+05:30
Kannur,Kerala,11.8745,75.3704,30.9,71,0.0,1004.5,9.05,28.8,127,31.3,24.2,3,5,4,1,2026-03-31T17:24:18.547027+05:30
Patna,Bihar,25.5941,85.1376,30.9,58,0.0,1000.2,7.95,23.0,165,81.0,40.2,0,5,4,1,2026-03-31T17:24:18.547034+05:30
Gaya,Bihar,24.7914,85.0002,32.1,45,0.0,993.2,8.05,18.0,140,60.8,26.0,0,5,7,1,2026-03-31T17:24:18.547042+05:30
Muzaffarpur,Bihar,26.1209,85.3647,29.6,63,0.0,1000.5,7.8,26.6,170,87.3,48.5,7,5,4,1,2026-03-31T17:24:18.547050+05:30
Bhagalpur,Bihar,25.2425,87.0117,29.7,67,0.0,1001.0,8.1,21.6,164,92.9,68.2,7,5,4,1,2026-03-31T17:24:18.547057+05:30
Ranchi,Jharkhand,23.3441,85.3096,25.0,68,0.0,938.2,8.45,23.8,97,27.0,9.7,7,5,7,1,2026-03-31T17:24:18.547065+05:30
Jamshedpur,Jharkhand,22.8046,86.2029,31.8,50,0.0,990.8,8.65,27.0,152,54.0,35.2,0,5,7,1,2026-03-31T17:24:18.547077+05:30
Dhanbad,Jharkhand,23.7957,86.4304,27.9,65,0.0,980.0,8.55,27.0,164,55.2,31.8,7,5,7,1,2026-03-31T17:24:18.547085+05:30
Bokaro,Jharkhand,23.6693,86.1511,28.7,69,0.0,983.9,8.55,25.2,161,45.5,23.8,7,5,7,1,2026-03-31T17:24:18.547092+05:30
Bhubaneswar,Odisha,20.2961,85.8245,31.2,65,0.0,1001.7,8.85,26.6,137,53.6,44.4,3,5,4,1,2026-03-31T17:24:18.547100+05:30
Cuttack,Odisha,20.4625,85.8828,31.6,62,0.0,1003.5,8.85,30.6,137,53.6,44.4,3,5,4,1,2026-03-31T17:24:18.547108+05:30
Rourkela,Odisha,22.2604,84.8536,33.8,40,0.0,984.0,8.35,16.9,111,38.5,19.5,0,5,7,1,2026-03-31T17:24:18.547116+05:30
Raipur,Chhattisgarh,21.2514,81.6296,34.8,29,0.0,973.6,7.9,33.1,116,124.3,37.8,0,5,7,0,2026-03-31T17:24:18.547124+05:30
Bhilai,Chhattisgarh,21.1938,81.3509,34.8,28,0.0,973.8,8.45,29.2,92,94.3,33.3,0,5,7,0,2026-03-31T17:24:18.547132+05:30
Guwahati,Assam,26.1158,91.7086,26.8,76,0.0,1001.8,8.0,19.8,125,45.2,32.0,7,5,4,1,2026-03-31T17:24:18.547139+05:30
Agartala,Tripura,23.8315,91.2868,25.5,89,0.0,1006.9,8.3,20.9,100,32.7,28.8,7,5,4,1,2026-03-31T17:24:18.547148+05:30
Shillong,Meghalaya,25.5788,91.8933,16.4,81,0.0,856.5,8.35,39.6,100,27.6,19.2,3,10,7,0,2026-03-31T17:24:18.547155+05:30
Imphal,Manipur,24.817,93.9368,19.2,88,0.0,924.1,8.6,59.4,70,20.1,16.4,3,10,7,1,2026-03-31T17:24:18.547164+05:30
Aizawl,Mizoram,23.7271,92.7176,20.1,88,0.0,893.5,8.55,40.7,123,41.0,33.6,3,5,7,1,2026-03-31T17:24:18.547171+05:30
Kohima,Nagaland,25.6701,94.1077,16.9,89,0.0,855.2,8.45,78.1,73,17.9,11.8,3,10,7,0,2026-03-31T17:24:18.547177+05:30
Gangtok,Sikkim,27.3314,88.6138,17.0,85,0.0,837.5,8.25,19.4,132,18.1,14.1,3,10,7,0,2026-03-31T17:24:18.547183+05:30
Siliguri,West Bengal,26.7271,88.3953,23.1,74,0.0,994.4,6.8,20.5,162,73.1,54.2,3,5,7,1,2026-03-31T17:24:21.803739+05:30
Durgapur,West Bengal,23.5204,87.3119,29.0,70,0.0,995.3,8.5,20.9,159,82.9,64.5,7,5,7,1,2026-03-31T17:24:21.803768+05:30
Asansol,West Bengal,23.6739,86.9524,28.9,67,0.0,993.7,8.5,16.2,157,67.3,44.6,7,5,7,1,2026-03-31T17:24:21.803780+05:30
Pondicherry,Puducherry,11.9139,79.8145,30.6,59,0.0,1006.8,9.25,27.4,43,13.7,9.8,0,5,4,1,2026-03-31T17:24:21.803789+05:30
Port Blair,Andaman and Nicobar Islands,11.6234,92.7265,28.2,81,0.0,1007.1,9.15,12.2,41,6.2,4.8,7,5,4,1,2026-03-31T17:24:21.803798+05:30
Haridwar,Uttarakhand,29.9457,78.1642,29.5,35,0.0,974.5,6.05,25.2,92,83.4,26.7,4,5,7,0,2026-03-31T17:24:21.803807+05:30
Rishikesh,Uttarakhand,30.0869,78.2676,28.5,36,0.0,967.4,6.05,25.2,65,49.5,17.3,4,5,7,0,2026-03-31T17:24:21.803815+05:30
Nainital,Uttarakhand,29.3919,79.4542,22.9,28,0.0,808.1,7.3,44.3,73,38.5,13.7,0,5,7,0,2026-03-31T17:24:21.803824+05:30
Mussoorie,Uttarakhand,30.4599,78.0664,19.9,44,0.0,804.0,6.4,32.0,65,47.3,17.0,0,5,7,0,2026-03-31T17:24:21.803832+05:30
Dharamshala,Himachal Pradesh,32.219,76.3234,22.7,47,0.0,869.8,6.75,22.7,47,26.6,8.0,0,5,7,0,2026-03-31T17:24:21.803840+05:30
Dalhousie,Himachal Pradesh,32.5387,75.971,19.8,43,0.0,804.7,7.4,27.4,66,48.8,14.3,0,5,7,0,2026-03-31T17:24:21.803848+05:30
Patiala,Punjab,30.3398,76.3869,28.7,40,0.0,978.8,5.3,19.8,353,711.5,75.7,4,5,3,0,2026-03-31T17:24:21.803887+05:30
Bhatinda,Punjab,30.211,74.9455,28.1,46,0.0,984.7,6.65,31.7,117,113.9,28.2,4,5,7,0,2026-03-31T17:24:21.803898+05:30
Rohtak,Haryana,28.8955,76.6066,29.2,45,0.0,982.6,6.35,25.9,121,229.1,32.1,4,5,7,1,2026-03-31T17:24:21.803906+05:30
Panipat,Haryana,29.3909,76.9635,29.5,39,0.0,980.9,5.25,17.3,139,447.0,51.3,4,5,3,0,2026-03-31T17:24:21.803914+05:30
Mathura,Uttar Pradesh,27.4924,77.6737,30.8,42,0.0,987.2,6.9,24.1,142,230.5,27.4,0,5,7,1,2026-03-31T17:24:21.803922+05:30
Vrindavan,Uttar Pradesh,27.5823,77.7027,30.8,41,0.0,987.5,6.7,24.8,142,230.5,27.4,0,5,7,0,2026-03-31T17:24:21.803930+05:30
Ayodhya,Uttar Pradesh,26.7922,82.1998,34.3,28,0.0,994.6,7.15,25.2,128,41.2,19.2,0,5,7,0,2026-03-31T17:24:21.803938+05:30
Ratlam,Madhya Pradesh,23.3315,75.0367,34.6,29,0.0,952.6,8.15,29.5,61,21.4,14.3,0,5,7,0,2026-03-31T17:24:21.803945+05:30
Sagar,Madhya Pradesh,23.8388,78.7378,34.3,27,0.0,948.7,8.2,32.0,49,17.1,7.1,0,5,7,0,2026-03-31T17:24:21.803953+05:30
Satna,Madhya Pradesh,24.6005,80.8322,34.1,31,0.0,970.9,7.95,22.7,132,87.5,20.6,0,5,7,0,2026-03-31T17:24:21.803961+05:30
Akola,Maharashtra,20.7002,77.0082,36.9,23,0.0,972.8,8.55,18.0,87,17.5,13.2,0,5,10,0,2026-03-31T17:24:21.803969+05:30
Amravati,Maharashtra,20.9374,77.7796,36.2,26,0.0,965.3,8.55,17.3,85,14.8,11.4,0,5,10,0,2026-03-31T17:24:21.803978+05:30
Latur,Maharashtra,18.4088,76.5604,33.5,30,0.0,938.4,8.85,29.2,99,38.6,28.3,0,5,7,0,2026-03-31T17:24:21.803987+05:30
Nanded,Maharashtra,19.1383,77.3091,35.5,31,0.0,966.7,8.7,23.0,86,35.6,26.1,0,5,10,0,2026-03-31T17:24:21.803995+05:30
Gulbarga,Karnataka,17.3297,76.8343,34.3,34,0.0,956.9,8.95,28.1,119,45.5,37.1,0,5,7,1,2026-03-31T17:24:21.804003+05:30
Bidar,Karnataka,17.9104,77.5199,32.2,40,0.0,934.5,8.95,34.6,111,55.5,43.5,0,5,7,1,2026-03-31T17:24:21.804010+05:30
Hospet,Karnataka,15.2689,76.3909,32.9,42,0.0,953.8,9.15,40.3,155,46.2,41.0,0,5,7,1,2026-03-31T17:24:21.804018+05:30
Tirupur,Tamil Nadu,11.1085,77.3411,35.7,28,0.0,972.1,9.5,30.6,86,17.9,12.5,0,5,10,0,2026-03-31T17:24:21.804025+05:30
Alappuzha,Kerala,9.4981,76.3388,29.9,77,0.0,1005.6,9.2,24.8,185,42.6,38.4,7,5,4,1,2026-03-31T17:24:21.804033+05:30
Munnar,Kerala,10.0889,77.0595,21.9,80,1.2,855.5,9.7,29.9,78,19.3,13.4,6,5,7,1,2026-03-31T17:24:21.804041+05:30
Silchar,Assam,24.8333,92.7789,24.3,87,0.0,1006.4,8.35,25.6,83,20.7,17.4,3,5,4,1,2026-03-31T17:24:21.804049+05:30
Dibrugarh,Assam,27.4728,94.912,27.0,66,0.0,995.6,8.15,16.2,96,18.2,14.1,7,5,7,1,2026-03-31T17:24:21.804057+05:30
