city,state,latitude,longitude,temp,humidity,rain,pressure,uv_index,wind_gusts,aqi,pm10,pm2_5,mosquito_risk,arthritis_risk,migraine_risk,frizz_risk,updated_at
Delhi,Delhi,28.6139,77.209,39.6,17,0.0,979.8,7.4,29.5,380,335.3,43.5,0,5,10,0,2026-04-23T15:24:03.442881+05:30
Mumbai,Maharashtra,19.076,72.8777,29.8,75,0.0,1004.9,8.05,23.4,76,42.0,34.2,7,5,4,1,2026-04-23T15:24:03.442932+05:30
Bangalore,Karnataka,12.9716,77.5946,35.7,20,0.0,909.6,9.4,31.7,94,28.6,19.5,0,5,10,0,2026-04-23T15:24:03.442950+05:30
Hyderabad,Telangana,17.385,78.4867,31.2,49,0.0,952.2,8.75,39.2,117,43.1,36.4,0,5,7,1,2026-04-23T15:24:03.442963+05:30
Chennai,Tamil Nadu,13.0827,80.2707,35.1,53,0.0,1004.2,9.3,33.8,31,10.8,7.8,0,5,7,1,2026-04-23T15:24:03.442974+05:30
Kolkata,West Bengal,22.5726,88.3639,35.7,56,0.0,1001.1,8.85,23.4,83,42.1,35.7,0,5,7,1,2026-04-23T15:24:03.442987+05:30
Pune,Maharashtra,18.5204,73.8567,38.8,20,0.0,946.1,8.65,37.4,109,32.7,26.4,0,5,10,0,2026-04-23T15:24:03.442995+05:30
Ahmedabad,Gujarat,23.0225,72.5714,40.4,18,0.0,999.0,8.2,27.0,46,46.7,12.9,0,5,10,0,2026-04-23T15:24:03.443003+05:30
Jaipur,Rajasthan,26.9124,75.7873,39.0,13,0.0,957.8,8.05,29.9,137,101.0,15.3,0,5,10,0,2026-04-23T15:24:03.443011+05:30
Lucknow,Uttar Pradesh,26.8467,80.9462,41.2,14,0.0,989.2,7.85,37.4,192,199.3,36.9,0,5,10,0,2026-04-23T15:24:03.443038+05:30
Kanpur,Uttar Pradesh,26.4499,80.3319,39.7,21,0.0,988.1,7.9,29.2,425,502.9,58.1,0,5,10,0,2026-04-23T15:24:03.443048+05:30
Chandigarh,Chandigarh,30.7333,76.7794,38.9,18,0.0,965.7,7.4,30.6,108,30.4,18.0,0,5,10,0,2026-04-23T15:24:03.443058+05:30
Srinagar,Jammu and Kashmir,34.0837,74.7973,23.4,48,0.0,844.3,7.65,17.3,70,22.6,11.4,0,5,7,0,2026-04-23T15:24:03.443068+05:30
Jammu,Jammu and Kashmir,32.7266,74.857,38.8,23,0.0,969.8,8.2,32.0,70,30.4,14.3,0,5,10,0,2026-04-23T15:24:03.443077+05:30
Amritsar,Punjab,31.634,74.8723,40.0,19,0.0,977.5,7.55,33.8,105,45.9,23.9,0,5,10,0,2026-04-23T15:24:03.443087+05:30
Ludhiana,Punjab,30.901,75.8573,39.7,18,0.0,975.1,7.7,22.0,89,41.6,19.0,0,5,10,0,2026-04-23T15:24:03.443098+05:30
Jalandhar,Punjab,31.326,75.5762,41.4,16,0.0,976.0,7.85,33.8,94,56.0,21.6,0,5,10,0,2026-04-23T15:24:03.443105+05:30
Dehradun,Uttarakhand,30.6284,78.0322,27.5,39,0.0,832.8,7.85,38.5,101,21.8,11.7,4,5,7,0,2026-04-23T15:24:03.443112+05:30
Shimla,Himachal Pradesh,31.1048,77.1734,27.0,25,0.0,789.3,7.9,52.6,97,21.1,11.2,4,5,7,0,2026-04-23T15:24:03.443119+05:30
Manali,Himachal Pradesh,32.2396,77.1887,27.2,32,0.0,824.4,9.9,31.3,133,18.2,8.7,4,5,7,0,2026-04-23T15:24:03.443126+05:30
Gurgaon,Haryana,28.4595,77.0266,39.3,18,0.0,978.3,7.5,23.4,1180,886.6,86.1,0,5,10,0,2026-04-23T15:24:03.443134+05:30
Noida,Uttar Pradesh,28.5355,77.391,40.0,16,0.0,981.2,7.4,31.0,1180,886.6,86.1,0,5,10,0,2026-04-23T15:24:03.443140+05:30
Ghaziabad,Uttar Pradesh,28.6692,77.4538,39.4,19,0.0,979.5,7.4,29.5,286,223.5,35.3,0,5,10,0,2026-04-23T15:24:03.443150+05:30
Faridabad,Haryana,28.4089,77.3178,41.0,12,0.0,980.4,7.45,29.9,1180,886.6,86.1,0,5,10,0,2026-04-23T15:24:03.443157+05:30
Meerut,Uttar Pradesh,28.9845,77.7064,40.0,17,0.0,977.9,7.3,28.1,286,223.5,35.3,0,5,10,0,2026-04-23T15:24:03.443164+05:30
Agra,Uttar Pradesh,27.1767,78.0081,40.7,14,0.0,984.7,7.75,31.3,655,482.4,44.7,0,5,10,0,2026-04-23T15:24:03.443172+05:30
Varanasi,Uttar Pradesh,25.3176,82.9739,42.5,12,0.0,992.6,8.45,36.0,113,245.9,40.6,0,5,10,0,2026-04-23T15:24:03.443179+05:30
Prayagraj,Uttar Pradesh,25.4358,81.8463,42.1,12,0.0,991.5,8.35,32.4,125,221.2,36.6,0,5,10,0,2026-04-23T15:24:03.443187+05:30
Gorakhpur,Uttar Pradesh,26.7606,83.3732,41.5,15,0.0,991.9,8.3,30.6,156,128.1,33.8,0,5,10,0,2026-04-23T15:24:03.443193+05:30
Bareilly,Uttar Pradesh,28.367,79.4304,40.8,17,0.0,982.5,7.65,28.8,110,54.4,24.4,0,5,10,0,2026-04-23T15:24:03.443199+05:30
Aligarh,Uttar Pradesh,27.8974,78.088,41.1,12,0.0,982.1,7.55,30.6,662,601.6,61.9,0,5,10,0,2026-04-23T15:24:03.443205+05:30
Moradabad,Uttar Pradesh,28.8386,78.7733,40.6,16,0.0,979.6,7.5,32.0,125,57.9,22.4,0,5,10,0,2026-04-23T15:24:03.443212+05:30
Saharanpur,Uttar Pradesh,29.9637,77.546,39.0,20,0.0,972.2,7.1,33.1,111,80.6,24.4,0,5,10,0,2026-04-23T15:24:03.443218+05:30
Jhansi,Uttar Pradesh,25.4484,78.5685,43.0,9,0.0,974.6,8.25,29.2,64,13.9,9.4,0,5,10,0,2026-04-23T15:24:06.658366+05:30
Surat,Gujarat,21.1702,72.8311,35.1,46,0.0,1004.0,7.9,21.2,99,35.4,27.4,0,5,7,1,2026-04-23T15:24:06.658399+05:30
Vadodara,Gujarat,22.3072,73.1812,40.8,16,0.0,1001.3,8.2,24.8,78,26.3,14.7,0,5,7,0,2026-04-23T15:24:06.658410+05:30
Rajkot,Gujarat,22.3039,70.8022,39.3,21,0.0,991.5,7.9,30.6,46,30.5,10.0,0,5,10,0,2026-04-23T15:24:06.658418+05:30
Thane,Maharashtra,19.2183,72.9781,34.2,50,0.0,1004.8,8.05,35.6,76,42.0,34.2,0,5,4,1,2026-04-23T15:24:06.658426+05:30
Nagpur,Maharashtra,21.1458,79.0882,39.9,16,0.0,970.2,8.95,24.1,98,19.9,17.5,0,5,10,0,2026-04-23T15:24:06.658432+05:30
Nashik,Maharashtra,19.9975,73.7898,36.5,25,0.0,944.2,8.35,24.8,85,33.5,25.7,0,5,10,0,2026-04-23T15:24:06.658439+05:30
Aurangabad,Maharashtra,19.8762,75.3433,38.6,17,0.0,942.5,9.05,33.8,103,30.9,24.7,0,5,10,0,2026-04-23T15:24:06.658446+05:30
Solapur,Maharashtra,17.6599,75.9064,39.7,18,0.0,954.1,9.1,32.0,109,38.0,32.0,0,5,10,0,2026-04-23T15:24:06.658453+05:30
Kolhapur,Maharashtra,16.705,74.2433,37.3,25,0.0,945.5,9.05,46.4,119,37.1,32.0,0,5,10,0,2026-04-23T15:24:06.658459+05:30
Goa,Goa,15.2993,74.124,33.3,66,0.0,994.7,9.0,32.0,85,34.6,24.0,3,5,7,1,2026-04-23T15:24:06.658466+05:30
Jodhpur,Rajasthan,26.2389,73.0243,39.6,22,0.0,980.2,8.25,22.7,85,75.4,13.9,0,5,10,0,2026-04-23T15:24:06.658472+05:30
Udaipur,Rajasthan,24.5854,73.7125,36.3,22,0.0,945.3,8.75,31.3,48,38.0,9.9,0,5,10,0,2026-04-23T15:24:06.658479+05:30
Kota,Rajasthan,25.2138,75.8648,41.6,11,0.0,975.7,8.25,31.0,63,11.9,9.8,0,5,10,0,2026-04-23T15:24:06.658486+05:30
Bikaner,Rajasthan,28.0229,73.3119,41.4,14,0.0,978.6,8.15,23.4,63,131.8,25.0,0,5,10,0,2026-04-23T15:24:06.658492+05:30
Ajmer,Rajasthan,26.4499,74.6399,37.3,18,0.0,953.0,8.2,26.6,49,33.8,9.2,0,5,10,0,2026-04-23T15:24:06.658498+05:30
Gwalior,Madhya Pradesh,26.2183,78.1828,40.0,15,0.0,980.6,8.0,38.2,50,20.8,7.3,0,5,10,0,2026-04-23T15:24:06.658504+05:30
Indore,Madhya Pradesh,22.7196,75.8577,38.6,17,0.0,946.5,8.4,32.8,88,26.2,20.3,0,5,10,0,2026-04-23T15:24:06.658510+05:30
Bhopal,Madhya Pradesh,23.2599,77.4126,38.8,16,0.0,952.3,8.5,28.4,81,21.7,16.9,0,5,10,0,2026-04-23T15:24:06.658516+05:30
Jabalpur,Madhya Pradesh,23.1815,79.9864,39.3,16,0.0,959.4,8.8,25.2,81,15.8,12.8,0,5,10,0,2026-04-23T15:24:06.658523+05:30
Ujjain,Madhya Pradesh,23.1765,75.7885,38.8,17,0.0,952.5,8.55,33.5,68,22.9,18.2,0,5,10,0,2026-04-23T15:24:06.658529+05:30
Visakhapatnam,Andhra Pradesh,17.6868,83.2185,33.4,62,0.0,1000.1,9.25,33.8,66,26.4,21.1,3,5,4,1,2026-04-23T15:24:06.658535+05:30
Vijayawada,Andhra Pradesh,16.5062,80.648,38.2,38,0.0,998.7,9.25,22.7,61,26.1,20.2,0,5,10,1,2026-04-23T15:24:06.658541+05:30
Guntur,Andhra Pradesh,16.3067,80.4365,38.6,31,0.0,1000.0,9.3,26.6,65,28.8,23.1,0,5,7,1,2026-04-23T15:24:06.658547+05:30
Nellore,Andhra Pradesh,14.4426,79.9865,38.7,36,0.0,1001.8,9.3,32.0,44,21.3,15.4,0,5,7,1,2026-04-23T15:24:06.658554+05:30
Kurnool,Andhra Pradesh,15.8281,78.0373,40.8,21,0.0,972.8,8.8,44.6,91,39.3,33.1,0,5,10,0,2026-04-23T15:24:06.658561+05:30
Kakinada,Andhra Pradesh,16.9891,82.2475,38.4,42,0.0,1003.0,9.25,29.5,48,18.6,11.8,0,5,7,1,2026-04-23T15:24:06.658567+05:30
Tirupati,Andhra Pradesh,13.6288,79.4192,38.6,24,0.0,988.1,9.35,33.8,64,18.7,14.3,0,5,10,0,2026-04-23T15:24:06.658573+05:30
Warangal,Telangana,17.9689,79.5941,38.4,31,0.0,975.6,8.4,20.5,116,45.8,38.6,0,5,10,1,2026-04-23T15:24:06.658579+05:30
Nizamabad,Telangana,18.6725,78.0941,39.5,18,0.0,962.2,8.6,32.0,112,29.6,23.6,0,5,10,0,2026-04-23T15:24:06.658585+05:30
Mysore,Karnataka,12.2958,76.6396,37.3,18,0.0,926.0,9.2,39.6,102,27.5,19.9,0,5,10,0,2026-04-23T15:24:06.658591+05:30
Mangalore,Karnataka,12.9141,74.856,30.6,80,0.0,1002.7,8.7,25.9,83,36.8,27.5,3,5,4,1,2026-04-23T15:24:06.658597+05:30
Hubli-Dharwad,Karnataka,15.3647,75.124,31.3,49,0.0,939.5,9.25,40.7,114,31.2,26.1,0,5,7,1,2026-04-23T15:24:06.658603+05:30
Belgaum,Karnataka,15.8497,74.4977,29.4,57,0.0,924.4,9.25,34.9,145,31.7,27.6,4,5,7,1,2026-04-23T15:24:09.879961+05:30
Coimbatore,Tamil Nadu,11.0168,76.9558,37.5,24,0.0,958.5,9.4,33.8,89,21.0,15.8,0,5,10,0,2026-04-23T15:24:09.879996+05:30
Madurai,Tamil Nadu,9.9252,78.1198,38.8,30,0.0,988.8,9.3,31.0,50,10.3,8.6,0,5,10,1,2026-04-23T15:24:09.880007+05:30
Trichy,Tamil Nadu,10.7905,78.7047,37.6,37,0.0,995.8,9.3,23.4,46,8.8,7.8,0,5,10,1,2026-04-23T15:24:09.880015+05:30
Salem,Tamil Nadu,11.6643,78.146,38.7,26,0.0,973.8,9.4,29.9,65,22.2,17.1,0,5,10,0,2026-04-23T15:24:09.880023+05:30
Tirunelveli,Tamil Nadu,8.7139,77.7567,37.5,36,0.0,998.9,9.25,36.0,73,13.6,12.0,0,5,10,1,2026-04-23T15:24:09.880030+05:30
Vellore,Tamil Nadu,12.9165,79.1325,37.5,27,0.0,981.3,9.4,30.6,80,19.9,17.3,0,5,10,0,2026-04-23T15:24:09.880038+05:30
Erode,Tamil Nadu,11.341,77.7172,39.7,29,0.0,984.9,9.35,30.2,44,14.6,10.9,0,5,10,1,2026-04-23T15:24:09.880045+05:30
Kochi,Kerala,9.9312,76.2673,29.9,82,0.0,1004.5,9.05,29.9,80,21.7,18.9,7,5,4,1,2026-04-23T15:24:09.880053+05:30
Thiruvananthapuram,Kerala,8.5241,76.9366,29.7,79,0.0,1004.5,8.7,18.7,73,18.4,14.7,7,5,4,1,2026-04-23T15:24:09.880060+05:30
Kozhikode,Kerala,11.2588,75.7804,31.3,76,0.0,1004.1,9.1,30.2,74,22.7,17.7,3,5,4,1,2026-04-23T15:24:09.880067+05:30
Thrissur,Kerala,10.5276,76.2144,33.8,63,0.0,1003.0,9.15,37.4,81,20.2,16.7,3,5,4,1,2026-04-23T15:24:09.880075+05:30
Kannur,Kerala,11.8745,75.3704,32.3,69,0.0,1003.3,9.1,31.7,86,35.3,27.1,3,5,4,1,2026-04-23T15:24:09.880082+05:30
Patna,Bihar,25.5941,85.1376,39.5,20,0.0,995.6,8.6,23.8,179,146.2,42.3,0,5,10,0,2026-04-23T15:24:09.880089+05:30
Gaya,Bihar,24.7914,85.0002,41.3,13,0.0,989.2,8.5,33.5,139,190.0,38.9,0,5,10,0,2026-04-23T15:24:09.880096+05:30
Muzaffarpur,Bihar,26.1209,85.3647,38.3,31,0.0,995.6,8.65,25.9,165,114.1,40.9,0,5,10,1,2026-04-23T15:24:09.880102+05:30
Bhagalpur,Bihar,25.2425,87.0117,37.6,33,0.0,996.5,8.55,19.1,191,124.8,50.2,0,5,10,1,2026-04-23T15:24:09.880109+05:30
Ranchi,Jharkhand,23.3441,85.3096,37.1,13,0.0,936.0,8.8,37.4,127,150.4,25.4,0,5,10,0,2026-04-23T15:24:09.880118+05:30
Jamshedpur,Jharkhand,22.8046,86.2029,41.7,17,0.0,985.8,8.85,16.2,185,151.8,34.8,0,5,10,0,2026-04-23T15:24:09.880124+05:30
Dhanbad,Jharkhand,23.7957,86.4304,41.6,11,0.0,975.3,8.8,34.2,162,204.4,37.3,0,5,10,0,2026-04-23T15:24:09.880131+05:30
Bokaro,Jharkhand,23.6693,86.1511,41.0,11,0.0,979.3,8.65,37.1,155,206.8,38.1,0,5,10,0,2026-04-23T15:24:09.880137+05:30
Bhubaneswar,Odisha,20.2961,85.8245,37.1,52,0.0,997.5,9.15,35.6,145,47.6,38.2,0,5,10,1,2026-04-23T15:24:09.880144+05:30
Cuttack,Odisha,20.4625,85.8828,41.9,27,0.0,998.3,9.2,40.3,145,47.6,38.2,0,5,10,1,2026-04-23T15:24:09.880150+05:30
Rourkela,Odisha,22.2604,84.8536,41.5,12,0.0,980.5,8.8,19.1,119,80.3,19.0,0,5,10,0,2026-04-23T15:24:09.880157+05:30
Raipur,Chhattisgarh,21.2514,81.6296,41.1,13,0.0,971.1,7.9,29.5,147,19.6,15.8,0,5,10,0,2026-04-23T15:24:09.880163+05:30
Bhilai,Chhattisgarh,21.1938,81.3509,40.7,16,0.0,971.4,7.7,25.9,116,18.0,15.4,0,5,10,0,2026-04-23T15:24:09.880169+05:30
Guwahati,Assam,26.1158,91.7086,31.6,64,0.0,998.1,8.55,20.9,93,75.4,32.4,3,5,7,1,2026-04-23T15:24:09.880175+05:30
Agartala,Tripura,23.8315,91.2868,35.4,48,0.0,1001.7,8.4,20.5,78,79.9,29.6,0,5,7,1,2026-04-23T15:24:09.880181+05:30
Shillong,Meghalaya,25.5788,91.8933,23.6,52,0.0,856.8,8.95,36.0,113,81.5,33.3,0,5,7,0,2026-04-23T15:24:09.880187+05:30
Imphal,Manipur,24.817,93.9368,25.2,64,0.0,921.2,9.15,48.2,110,79.9,31.2,7,5,7,1,2026-04-23T15:24:09.880194+05:30
Aizawl,Mizoram,23.7271,92.7176,28.4,48,0.0,891.9,8.95,35.3,107,124.3,39.2,4,5,7,1,2026-04-23T15:24:09.880201+05:30
Kohima,Nagaland,25.6701,94.1077,21.7,70,0.0,854.5,9.05,50.0,112,58.1,26.7,3,5,7,0,2026-04-23T15:24:09.880207+05:30
Gangtok,Sikkim,27.3314,88.6138,23.8,61,0.0,838.6,8.9,22.0,136,52.7,31.1,3,5,7,0,2026-04-23T15:24:09.880213+05:30
Siliguri,West Bengal,26.7271,88.3953,27.7,70,0.0,991.1,8.55,22.3,149,67.3,37.4,7,5,7,1,2026-04-23T15:24:13.104545+05:30
Durgapur,West Bengal,23.5204,87.3119,40.6,25,0.0,989.9,8.95,25.9,153,192.8,46.1,0,5,10,1,2026-04-23T15:24:13.104579+05:30
Asansol,West Bengal,23.6739,86.9524,42.4,12,0.0,988.3,8.95,29.2,154,201.2,38.4,0,5,10,0,2026-04-23T15:24:13.104591+05:30
Pondicherry,Puducherry,11.9139,79.8145,36.2,51,0.0,1004.9,9.25,28.8,26,9.6,6.5,0,5,7,1,2026-04-23T15:24:13.104599+05:30
Port Blair,Andaman and Nicobar Islands,11.6234,92.7265,30.3,70,0.0,1004.1,9.15,23.8,33,12.8,6.1,3,5,4,1,2026-04-23T15:24:13.104608+05:30
Haridwar,Uttarakhand,29.9457,78.1642,39.1,22,0.0,970.9,7.2,36.7,114,40.0,19.0,0,5,10,0,2026-04-23T15:24:13.104615+05:30
Rishikesh,Uttarakhand,30.0869,78.2676,37.4,26,0.0,964.1,7.3,34.9,108,24.9,14.1,0,5,10,0,2026-04-23T15:24:13.104623+05:30
Nainital,Uttarakhand,29.3919,79.4542,30.5,23,0.0,809.5,8.15,47.9,127,37.8,18.0,0,5,7,0,2026-04-23T15:24:13.104630+05:30
Mussoorie,Uttarakhand,30.4599,78.0664,28.4,35,0.0,806.3,7.7,40.7,115,37.0,19.4,4,5,7,0,2026-04-23T15:24:13.104637+05:30
Dharamshala,Himachal Pradesh,32.219,76.3234,32.2,25,0.0,870.6,8.05,33.5,102,15.3,6.6,0,5,7,0,2026-04-23T15:24:13.104644+05:30
Dalhousie,Himachal Pradesh,32.5387,75.971,31.0,23,0.0,807.7,8.35,32.4,96,18.9,9.2,0,5,7,0,2026-04-23T15:24:13.104652+05:30
Patiala,Punjab,30.3398,76.3869,39.8,20,0.0,974.6,7.3,16.9,237,308.3,40.4,0,5,10,0,2026-04-23T15:24:13.104693+05:30
Bhatinda,Punjab,30.211,74.9455,42.3,12,0.0,979.5,8.0,28.1,84,49.0,18.7,0,5,10,0,2026-04-23T15:24:13.104700+05:30
Rohtak,Haryana,28.8955,76.6066,39.9,17,0.0,978.4,7.45,23.8,532,484.3,53.0,0,5,10,0,2026-04-23T15:24:13.104707+05:30
Panipat,Haryana,29.3909,76.9635,40.1,17,0.0,977.0,7.25,21.2,971,685.5,68.5,0,5,10,0,2026-04-23T15:24:13.104714+05:30
Mathura,Uttar Pradesh,27.4924,77.6737,40.6,14,0.0,983.7,7.7,24.8,614,383.7,36.9,0,5,10,0,2026-04-23T15:24:13.104721+05:30
Vrindavan,Uttar Pradesh,27.5823,77.7027,40.9,12,0.0,984.0,7.65,27.0,614,383.7,36.9,0,5,10,0,2026-04-23T15:24:13.104727+05:30
Ayodhya,Uttar Pradesh,26.7922,82.1998,41.9,15,0.0,990.3,8.05,39.6,133,83.6,24.8,0,5,10,0,2026-04-23T15:24:13.104733+05:30
Ratlam,Madhya Pradesh,23.3315,75.0367,37.0,22,0.0,953.4,8.5,31.7,81,20.4,16.2,0,5,10,0,2026-04-23T15:24:13.104740+05:30
Sagar,Madhya Pradesh,23.8388,78.7378,39.6,13,0.0,948.7,8.65,32.0,78,18.7,14.7,0,5,10,0,2026-04-23T15:24:13.104746+05:30
Satna,Madhya Pradesh,24.6005,80.8322,41.6,10,0.0,968.5,8.65,29.2,76,59.3,15.8,0,5,10,0,2026-04-23T15:24:13.104752+05:30
Akola,Maharashtra,20.7002,77.0082,42.2,13,0.0,971.8,8.75,23.8,86,25.4,20.0,0,5,10,0,2026-04-23T15:24:13.104759+05:30
Amravati,Maharashtra,20.9374,77.7796,40.7,15,0.0,964.6,8.4,20.9,84,23.2,18.3,0,5,10,0,2026-04-23T15:24:13.104766+05:30
Latur,Maharashtra,18.4088,76.5604,37.3,19,0.0,938.1,9.1,41.0,106,34.7,29.5,0,5,10,0,2026-04-23T15:24:13.104773+05:30
Nanded,Maharashtra,19.1383,77.3091,40.7,16,0.0,965.7,9.05,29.9,114,24.6,19.7,0,5,10,0,2026-04-23T15:24:13.104779+05:30
Gulbarga,Karnataka,17.3297,76.8343,39.3,22,0.0,956.0,8.8,49.7,126,41.0,34.8,0,5,10,0,2026-04-23T15:24:13.104785+05:30
Bidar,Karnataka,17.9104,77.5199,38.2,19,0.0,933.7,7.95,33.5,122,37.7,31.4,0,5,10,0,2026-04-23T15:24:13.104791+05:30
Hospet,Karnataka,15.2689,76.3909,37.2,27,0.0,952.9,8.75,27.7,95,39.5,33.2,0,5,10,0,2026-04-23T15:24:13.104798+05:30
Tirupur,Tamil Nadu,11.1085,77.3411,39.2,25,0.0,971.6,9.45,33.8,64,15.4,11.6,0,5,10,0,2026-04-23T15:24:13.104804+05:30
Alappuzha,Kerala,9.4981,76.3388,29.8,80,0.0,1004.7,9.1,28.1,81,21.4,17.7,7,5,4,1,2026-04-23T15:24:13.104810+05:30
Munnar,Kerala,10.0889,77.0595,32.1,28,0.0,857.3,9.65,20.5,67,12.4,9.7,0,5,7,0,2026-04-23T15:24:13.104817+05:30
Silchar,Assam,24.8333,92.7789,32.1,63,0.0,1001.3,8.7,19.1,118,82.0,39.7,3,5,4,1,2026-04-23T15:24:13.104823+05:30
Dibrugarh,Assam,27.4728,94.912,30.1,60,0.0,991.8,8.65,11.2,98,13.5,10.6,0,5,7,1,2026-04-23T15:24:13.104830+05:30
