city,state,latitude,longitude,temp,humidity,rain,pressure,uv_index,wind_gusts,aqi,pm10,pm2_5,mosquito_risk,arthritis_risk,migraine_risk,frizz_risk,updated_at
Delhi,Delhi,28.6139,77.209,25.7,46,0.0,981.0,6.05,21.6,136,172.3,73.8,4,5,7,0,2026-03-28T23:02:55.248148+05:30
Mumbai,Maharashtra,19.076,72.8777,27.1,83,0.0,1008.6,8.0,24.5,68,81.5,19.8,7,0,4,1,2026-03-28T23:02:55.248195+05:30
Bangalore,Karnataka,12.9716,77.5946,24.2,70,0.0,911.9,9.5,42.5,110,72.9,65.7,3,5,7,1,2026-03-28T23:02:55.248211+05:30
Hyderabad,Telangana,17.385,78.4867,29.2,49,0.0,951.6,9.0,24.8,106,53.7,49.1,4,5,7,1,2026-03-28T23:02:55.248221+05:30
Chennai,Tamil Nadu,13.0827,80.2707,27.0,84,0.0,1007.0,9.25,34.6,66,21.7,15.4,7,5,4,1,2026-03-28T23:02:55.248229+05:30
Kolkata,West Bengal,22.5726,88.3639,23.3,90,0.0,1006.1,8.4,31.7,139,48.0,43.3,3,5,4,1,2026-03-28T23:02:55.248238+05:30
Pune,Maharashtra,18.5204,73.8567,25.3,37,0.0,948.2,8.5,49.0,98,22.8,21.0,4,5,7,0,2026-03-28T23:02:55.248251+05:30
Ahmedabad,Gujarat,23.0225,72.5714,28.9,54,0.0,1000.6,7.95,34.2,35,14.4,7.8,4,5,4,1,2026-03-28T23:02:55.248259+05:30
Jaipur,Rajasthan,26.9124,75.7873,28.1,39,0.0,957.0,7.45,32.4,87,90.1,28.6,4,5,7,0,2026-03-28T23:02:55.248266+05:30
Lucknow,Uttar Pradesh,26.8467,80.9462,25.8,53,0.0,991.9,7.15,28.1,128,188.1,50.1,4,5,7,0,2026-03-28T23:02:55.248274+05:30
Kanpur,Uttar Pradesh,26.4499,80.3319,25.4,59,0.0,989.9,6.95,25.2,190,304.5,61.2,4,5,7,1,2026-03-28T23:02:55.248282+05:30
Chandigarh,Chandigarh,30.7333,76.7794,23.9,67,0.0,966.8,5.4,23.4,85,41.1,38.9,3,5,3,1,2026-03-28T23:02:55.248289+05:30
Srinagar,Jammu and Kashmir,34.0837,74.7973,12.8,76,0.0,837.2,6.0,16.2,91,66.8,54.9,3,5,3,0,2026-03-28T23:02:55.248298+05:30
Jammu,Jammu and Kashmir,32.7266,74.857,23.3,71,0.0,970.7,7.05,16.6,78,49.4,47.5,3,5,7,1,2026-03-28T23:02:55.248305+05:30
Amritsar,Punjab,31.634,74.8723,22.9,73,0.0,978.1,7.0,14.8,127,42.8,32.1,3,5,7,1,2026-03-28T23:02:55.248313+05:30
Ludhiana,Punjab,30.901,75.8573,24.1,65,0.0,976.7,6.05,13.7,104,86.8,74.7,3,5,7,1,2026-03-28T23:02:55.248320+05:30
Jalandhar,Punjab,31.326,75.5762,23.0,71,0.0,977.7,6.25,14.4,107,74.0,54.8,3,5,7,1,2026-03-28T23:02:55.248328+05:30
Dehradun,Uttarakhand,30.6284,78.0322,14.2,84,0.0,827.7,5.85,22.3,95,33.1,26.5,3,10,3,0,2026-03-28T23:02:55.248335+05:30
Shimla,Himachal Pradesh,31.1048,77.1734,12.2,85,0.0,781.6,6.15,33.1,102,35.2,30.6,3,10,7,0,2026-03-28T23:02:55.248343+05:30
Manali,Himachal Pradesh,32.2396,77.1887,15.5,65,0.0,816.9,8.45,29.9,116,30.9,14.3,3,5,7,0,2026-03-28T23:02:55.248349+05:30
Gurgaon,Haryana,28.4595,77.0266,23.2,59,0.0,979.1,6.2,17.3,344,285.9,89.4,0,5,7,0,2026-03-28T23:02:55.248356+05:30
Noida,Uttar Pradesh,28.5355,77.391,24.3,54,0.0,982.4,6.05,21.6,344,285.9,89.4,0,5,7,0,2026-03-28T23:02:55.248363+05:30
Ghaziabad,Uttar Pradesh,28.6692,77.4538,23.6,56,0.0,980.7,5.95,20.5,128,174.2,75.9,0,5,3,0,2026-03-28T23:02:55.248370+05:30
Faridabad,Haryana,28.4089,77.3178,24.1,51,0.0,981.6,6.15,19.8,344,285.9,89.4,0,5,7,0,2026-03-28T23:02:55.248377+05:30
Meerut,Uttar Pradesh,28.9845,77.7064,22.5,64,0.0,979.6,5.9,23.0,128,174.2,75.9,3,5,3,0,2026-03-28T23:02:55.248384+05:30
Agra,Uttar Pradesh,27.1767,78.0081,24.2,56,0.0,985.6,6.45,25.6,429,455.4,87.3,0,5,7,0,2026-03-28T23:02:55.248391+05:30
Varanasi,Uttar Pradesh,25.3176,82.9739,22.8,62,0.0,996.1,7.8,37.4,86,113.6,59.8,3,5,7,0,2026-03-28T23:02:55.248400+05:30
Prayagraj,Uttar Pradesh,25.4358,81.8463,24.3,60,0.0,994.3,7.7,30.2,89,129.0,61.9,0,5,7,0,2026-03-28T23:02:55.248408+05:30
Gorakhpur,Uttar Pradesh,26.7606,83.3732,22.8,79,0.0,996.4,6.1,28.1,93,70.1,43.8,3,5,7,1,2026-03-28T23:02:55.248415+05:30
Bareilly,Uttar Pradesh,28.367,79.4304,23.2,67,0.0,985.2,6.3,24.5,81,71.0,42.4,3,5,7,1,2026-03-28T23:02:55.248424+05:30
Aligarh,Uttar Pradesh,27.8974,78.088,22.0,65,0.0,983.4,6.2,23.8,278,482.4,98.3,3,5,7,0,2026-03-28T23:02:55.248433+05:30
Moradabad,Uttar Pradesh,28.8386,78.7733,23.4,66,0.0,982.0,6.1,23.0,93,89.6,66.8,3,5,7,1,2026-03-28T23:02:55.248439+05:30
Saharanpur,Uttar Pradesh,29.9637,77.546,22.5,70,0.0,973.9,5.15,24.8,107,92.9,71.0,3,5,3,1,2026-03-28T23:02:55.248445+05:30
Jhansi,Uttar Pradesh,25.4484,78.5685,25.0,51,0.0,975.8,7.05,25.9,88,56.2,22.1,4,5,7,0,2026-03-28T23:02:58.589944+05:30
Surat,Gujarat,21.1702,72.8311,27.0,86,0.0,1005.9,7.75,30.6,79,27.0,17.2,7,5,4,1,2026-03-28T23:02:58.589984+05:30
Vadodara,Gujarat,22.3072,73.1812,27.9,64,0.0,1003.1,7.95,32.8,59,33.6,21.5,7,5,4,1,2026-03-28T23:02:58.589996+05:30
Rajkot,Gujarat,22.3039,70.8022,26.0,75,0.0,993.8,7.8,43.2,37,17.8,8.0,7,5,7,1,2026-03-28T23:02:58.590004+05:30
Thane,Maharashtra,19.2183,72.9781,25.9,86,0.0,1008.1,8.0,37.8,68,81.5,19.8,7,0,4,1,2026-03-28T23:02:58.590011+05:30
Nagpur,Maharashtra,21.1458,79.0882,28.4,34,0.0,970.6,8.5,31.3,61,53.3,43.5,4,5,7,0,2026-03-28T23:02:58.590018+05:30
Nashik,Maharashtra,19.9975,73.7898,22.9,58,0.0,945.0,8.2,43.6,54,39.6,13.5,0,5,7,0,2026-03-28T23:02:58.590025+05:30
Aurangabad,Maharashtra,19.8762,75.3433,27.4,32,0.0,943.3,8.7,43.6,54,18.7,10.2,4,5,7,0,2026-03-28T23:02:58.590033+05:30
Solapur,Maharashtra,17.6599,75.9064,29.9,35,0.0,956.3,8.85,31.3,77,24.3,21.9,4,5,7,0,2026-03-28T23:02:58.590040+05:30
Kolhapur,Maharashtra,16.705,74.2433,22.3,77,0.0,947.7,8.95,43.6,120,25.7,24.8,3,5,7,1,2026-03-28T23:02:58.590047+05:30
Goa,Goa,15.2993,74.124,28.1,78,0.0,998.1,8.95,28.4,98,50.1,44.1,7,5,7,1,2026-03-28T23:02:58.590053+05:30
Jodhpur,Rajasthan,26.2389,73.0243,28.1,53,0.0,979.7,7.8,31.0,81,177.4,25.7,4,5,7,1,2026-03-28T23:02:58.590060+05:30
Udaipur,Rajasthan,24.5854,73.7125,24.6,56,0.0,944.9,8.35,33.5,38,19.3,7.0,0,5,7,0,2026-03-28T23:02:58.590067+05:30
Kota,Rajasthan,25.2138,75.8648,29.8,36,0.0,975.8,7.7,24.5,54,89.6,33.8,4,5,7,0,2026-03-28T23:02:58.590073+05:30
Bikaner,Rajasthan,28.0229,73.3119,29.7,37,0.0,977.4,7.5,20.9,45,82.9,21.7,4,5,7,0,2026-03-28T23:02:58.590080+05:30
Ajmer,Rajasthan,26.4499,74.6399,25.7,49,0.0,951.9,7.75,30.6,46,50.1,15.5,4,5,7,0,2026-03-28T23:02:58.590087+05:30
Gwalior,Madhya Pradesh,26.2183,78.1828,24.8,61,0.0,980.8,6.75,36.4,136,217.9,41.8,3,5,7,1,2026-03-28T23:02:58.590094+05:30
Indore,Madhya Pradesh,22.7196,75.8577,25.2,60,0.0,946.6,8.2,37.1,48,20.1,14.5,4,5,7,1,2026-03-28T23:02:58.590101+05:30
Bhopal,Madhya Pradesh,23.2599,77.4126,27.3,42,0.0,951.7,8.15,31.3,44,23.0,16.9,4,5,7,0,2026-03-28T23:02:58.590108+05:30
Jabalpur,Madhya Pradesh,23.1815,79.9864,26.2,54,0.0,958.9,8.25,29.9,57,35.9,22.6,4,5,7,1,2026-03-28T23:02:58.590115+05:30
Ujjain,Madhya Pradesh,23.1765,75.7885,25.5,60,0.0,952.3,8.15,34.2,46,20.6,13.5,4,5,7,1,2026-03-28T23:02:58.590123+05:30
Visakhapatnam,Andhra Pradesh,17.6868,83.2185,27.1,86,0.0,1002.6,9.0,41.8,92,29.5,20.4,7,5,4,1,2026-03-28T23:02:58.590129+05:30
Vijayawada,Andhra Pradesh,16.5062,80.648,27.0,85,0.0,1001.7,9.05,29.2,85,30.9,24.8,7,5,4,1,2026-03-28T23:02:58.590136+05:30
Guntur,Andhra Pradesh,16.3067,80.4365,26.7,89,0.0,1002.9,9.05,33.1,87,35.6,29.7,7,5,4,1,2026-03-28T23:02:58.590143+05:30
Nellore,Andhra Pradesh,14.4426,79.9865,26.7,88,0.0,1005.3,9.2,34.6,98,19.7,15.1,7,5,4,1,2026-03-28T23:02:58.590150+05:30
Kurnool,Andhra Pradesh,15.8281,78.0373,30.7,48,0.0,975.2,9.05,33.5,130,60.3,52.4,0,5,7,1,2026-03-28T23:02:58.590157+05:30
Kakinada,Andhra Pradesh,16.9891,82.2475,26.2,91,0.0,1006.7,9.0,35.3,72,27.2,16.3,7,5,4,1,2026-03-28T23:02:58.590164+05:30
Tirupati,Andhra Pradesh,13.6288,79.4192,26.8,82,0.0,991.7,9.25,27.4,104,47.1,43.3,7,5,7,1,2026-03-28T23:02:58.590170+05:30
Warangal,Telangana,17.9689,79.5941,29.8,56,0.0,976.7,8.85,25.6,108,81.7,76.8,4,5,7,1,2026-03-28T23:02:58.590177+05:30
Nizamabad,Telangana,18.6725,78.0941,27.6,50,0.0,962.3,8.8,26.3,83,31.2,28.3,4,5,7,1,2026-03-28T23:02:58.590183+05:30
Mysore,Karnataka,12.2958,76.6396,24.1,83,0.0,928.5,9.45,45.7,137,42.7,39.0,3,5,7,1,2026-03-28T23:02:58.590190+05:30
Mangalore,Karnataka,12.9141,74.856,29.6,80,0.0,1006.5,9.1,23.8,94,41.1,34.6,7,5,4,1,2026-03-28T23:02:58.590196+05:30
Hubli-Dharwad,Karnataka,15.3647,75.124,24.9,86,0.0,940.8,8.3,44.3,107,38.9,35.5,3,5,7,1,2026-03-28T23:02:58.590203+05:30
Belgaum,Karnataka,15.8497,74.4977,22.6,89,0.0,925.5,8.95,36.4,116,46.2,42.3,3,5,7,1,2026-03-28T23:03:01.939270+05:30
Coimbatore,Tamil Nadu,11.0168,76.9558,25.1,83,0.0,962.1,9.45,52.2,89,35.4,33.8,7,5,7,1,2026-03-28T23:03:01.939304+05:30
Madurai,Tamil Nadu,9.9252,78.1198,27.2,78,0.0,993.4,9.4,38.2,85,18.8,17.6,7,5,7,1,2026-03-28T23:03:01.939315+05:30
Trichy,Tamil Nadu,10.7905,78.7047,27.1,82,0.0,999.9,9.35,23.8,69,15.1,14.1,7,5,7,1,2026-03-28T23:03:01.939323+05:30
Salem,Tamil Nadu,11.6643,78.146,29.2,53,0.0,977.2,9.4,25.2,121,37.7,32.8,4,5,7,1,2026-03-28T23:03:01.939330+05:30
Tirunelveli,Tamil Nadu,8.7139,77.7567,28.2,68,0.0,1003.2,9.35,47.5,91,28.5,26.1,7,5,4,1,2026-03-28T23:03:01.939338+05:30
Vellore,Tamil Nadu,12.9165,79.1325,27.1,79,0.0,984.4,9.35,31.0,131,58.0,54.2,7,5,7,1,2026-03-28T23:03:01.939345+05:30
Erode,Tamil Nadu,11.341,77.7172,28.6,74,0.0,989.1,9.35,25.6,100,41.1,37.0,7,5,7,1,2026-03-28T23:03:01.939352+05:30
Kochi,Kerala,9.9312,76.2673,28.0,82,0.0,1009.5,8.45,31.7,94,41.2,39.1,7,0,4,1,2026-03-28T23:03:01.939359+05:30
Thiruvananthapuram,Kerala,8.5241,76.9366,28.6,81,0.0,1008.5,9.15,39.6,65,27.0,21.7,7,0,4,1,2026-03-28T23:03:01.939366+05:30
Kozhikode,Kerala,11.2588,75.7804,28.4,82,0.0,1008.1,9.1,31.0,78,32.8,26.4,7,0,4,1,2026-03-28T23:03:01.939373+05:30
Thrissur,Kerala,10.5276,76.2144,27.3,87,0.0,1007.6,9.15,36.4,90,47.5,44.9,7,5,4,1,2026-03-28T23:03:01.939381+05:30
Kannur,Kerala,11.8745,75.3704,28.7,82,0.0,1007.0,9.05,31.0,88,45.1,38.5,7,5,4,1,2026-03-28T23:03:01.939388+05:30
Patna,Bihar,25.5941,85.1376,23.9,77,0.0,1000.3,7.9,29.5,93,79.9,59.3,3,5,4,1,2026-03-28T23:03:01.939395+05:30
Gaya,Bihar,24.7914,85.0002,22.9,81,0.0,993.2,7.9,24.1,81,63.6,38.0,3,5,7,1,2026-03-28T23:03:01.939401+05:30
Muzaffarpur,Bihar,26.1209,85.3647,22.4,86,0.0,1000.5,7.85,21.2,110,70.3,53.6,3,5,4,1,2026-03-28T23:03:01.939407+05:30
Bhagalpur,Bihar,25.2425,87.0117,22.0,90,0.0,1001.8,7.75,25.2,102,39.8,33.2,3,5,4,1,2026-03-28T23:03:01.939413+05:30
Ranchi,Jharkhand,23.3441,85.3096,22.6,70,0.0,936.4,8.7,31.7,91,46.4,29.3,3,5,7,1,2026-03-28T23:03:01.939420+05:30
Jamshedpur,Jharkhand,22.8046,86.2029,25.7,79,0.0,989.8,8.5,32.4,141,56.8,52.4,7,5,7,1,2026-03-28T23:03:01.939426+05:30
Dhanbad,Jharkhand,23.7957,86.4304,24.3,72,0.0,979.4,8.4,30.2,154,80.1,75.0,3,5,7,1,2026-03-28T23:03:01.939433+05:30
Bokaro,Jharkhand,23.6693,86.1511,23.9,78,0.0,983.5,8.45,31.0,148,67.3,59.4,3,5,7,1,2026-03-28T23:03:01.939439+05:30
Bhubaneswar,Odisha,20.2961,85.8245,26.7,85,0.0,1000.7,8.8,31.7,117,35.4,27.8,7,5,4,1,2026-03-28T23:03:01.939447+05:30
Cuttack,Odisha,20.4625,85.8828,26.6,85,0.0,1002.8,8.8,28.4,117,35.4,27.8,7,5,4,1,2026-03-28T23:03:01.939454+05:30
Rourkela,Odisha,22.2604,84.8536,26.7,74,0.0,982.5,8.4,43.9,113,50.3,39.6,7,5,7,1,2026-03-28T23:03:01.939461+05:30
Raipur,Chhattisgarh,21.2514,81.6296,29.5,41,0.0,971.9,8.55,34.6,86,33.6,29.4,4,5,7,0,2026-03-28T23:03:01.939467+05:30
Bhilai,Chhattisgarh,21.1938,81.3509,28.7,46,0.0,972.0,8.55,33.8,74,30.4,26.1,4,5,7,0,2026-03-28T23:03:01.939474+05:30
Guwahati,Assam,26.1158,91.7086,20.8,95,0.0,1002.5,4.0,28.1,128,39.3,36.4,3,5,0,1,2026-03-28T23:03:01.939481+05:30
Agartala,Tripura,23.8315,91.2868,21.1,95,0.0,1006.6,6.4,38.5,135,84.8,78.7,3,5,4,1,2026-03-28T23:03:01.939487+05:30
Shillong,Meghalaya,25.5788,91.8933,10.2,88,0.0,852.8,3.7,43.9,80,21.7,17.2,3,10,3,0,2026-03-28T23:03:01.939494+05:30
Imphal,Manipur,24.817,93.9368,15.2,93,0.0,922.1,7.7,55.1,150,61.5,52.5,3,10,7,0,2026-03-28T23:03:01.939501+05:30
Aizawl,Mizoram,23.7271,92.7176,15.1,93,0.0,890.8,7.35,38.2,117,58.6,47.0,3,10,7,0,2026-03-28T23:03:01.939507+05:30
Kohima,Nagaland,25.6701,94.1077,13.1,82,0.0,852.5,4.95,71.3,108,32.5,24.7,3,10,3,0,2026-03-28T23:03:01.939514+05:30
Gangtok,Sikkim,27.3314,88.6138,11.5,83,0.0,833.9,6.7,17.3,73,24.7,22.6,3,10,7,0,2026-03-28T23:03:01.939520+05:30
Siliguri,West Bengal,26.7271,88.3953,17.4,84,0.0,994.8,7.5,26.3,135,41.8,33.3,3,10,7,0,2026-03-28T23:03:05.288062+05:30
Durgapur,West Bengal,23.5204,87.3119,23.7,80,0.0,994.9,8.35,28.4,141,65.7,59.0,3,5,7,1,2026-03-28T23:03:05.288099+05:30
Asansol,West Bengal,23.6739,86.9524,24.2,77,0.0,993.4,8.35,31.7,146,72.4,65.9,3,5,7,1,2026-03-28T23:03:05.288112+05:30
Pondicherry,Puducherry,11.9139,79.8145,25.8,94,0.0,1008.4,9.25,32.4,60,17.3,12.2,7,0,4,1,2026-03-28T23:03:05.288122+05:30
Port Blair,Andaman and Nicobar Islands,11.6234,92.7265,28.8,74,0.0,1006.1,9.15,27.0,69,24.9,20.0,7,5,4,1,2026-03-28T23:03:05.288132+05:30
Haridwar,Uttarakhand,29.9457,78.1642,22.2,79,0.0,972.8,5.7,27.0,95,42.0,39.1,3,5,3,1,2026-03-28T23:03:05.288142+05:30
Rishikesh,Uttarakhand,30.0869,78.2676,21.0,75,0.0,965.6,5.8,24.8,92,33.5,29.2,3,5,3,1,2026-03-28T23:03:05.288151+05:30
Nainital,Uttarakhand,29.3919,79.4542,16.7,68,0.0,803.9,4.8,25.9,95,31.2,26.5,3,5,3,0,2026-03-28T23:03:05.288160+05:30
Mussoorie,Uttarakhand,30.4599,78.0664,15.1,75,0.0,800.3,5.65,25.9,111,48.3,43.2,3,5,3,0,2026-03-28T23:03:05.288169+05:30
Dharamshala,Himachal Pradesh,32.219,76.3234,18.9,64,0.0,866.9,6.9,16.6,86,31.3,21.8,3,5,7,0,2026-03-28T23:03:05.288177+05:30
Dalhousie,Himachal Pradesh,32.5387,75.971,15.4,70,0.0,800.8,6.45,17.3,90,41.7,37.5,3,5,7,0,2026-03-28T23:03:05.288187+05:30
Patiala,Punjab,30.3398,76.3869,22.4,69,0.0,976.1,5.95,17.3,101,75.7,46.4,3,5,3,1,2026-03-28T23:03:05.288196+05:30
Bhatinda,Punjab,30.211,74.9455,23.6,62,0.0,980.6,6.95,17.3,78,41.3,27.3,3,5,7,0,2026-03-28T23:03:05.288205+05:30
Rohtak,Haryana,28.8955,76.6066,22.5,64,0.0,979.4,6.25,14.8,125,161.6,75.4,3,5,7,0,2026-03-28T23:03:05.288214+05:30
Panipat,Haryana,29.3909,76.9635,22.8,61,0.0,978.3,5.65,19.4,170,238.0,89.9,3,5,3,0,2026-03-28T23:03:05.288222+05:30
Mathura,Uttar Pradesh,27.4924,77.6737,23.5,60,0.0,984.4,6.5,20.9,249,418.2,84.8,0,5,7,0,2026-03-28T23:03:05.288231+05:30
Vrindavan,Uttar Pradesh,27.5823,77.7027,23.0,62,0.0,984.9,6.5,22.7,249,418.2,84.8,3,5,7,0,2026-03-28T23:03:05.288239+05:30
Ayodhya,Uttar Pradesh,26.7922,82.1998,23.1,68,0.0,993.9,6.85,31.7,98,95.7,41.6,3,5,7,1,2026-03-28T23:03:05.288247+05:30
Ratlam,Madhya Pradesh,23.3315,75.0367,26.1,55,0.0,953.1,8.1,37.1,48,21.6,12.2,4,5,7,1,2026-03-28T23:03:05.288255+05:30
Sagar,Madhya Pradesh,23.8388,78.7378,28.2,42,0.0,947.9,8.15,32.4,54,44.5,17.9,4,5,7,0,2026-03-28T23:03:05.288262+05:30
Satna,Madhya Pradesh,24.6005,80.8322,25.8,46,0.0,969.5,8.1,23.8,69,53.2,20.4,4,5,7,0,2026-03-28T23:03:05.288269+05:30
Akola,Maharashtra,20.7002,77.0082,27.4,45,0.0,973.3,8.5,37.1,55,22.9,14.9,4,5,7,0,2026-03-28T23:03:05.288277+05:30
Amravati,Maharashtra,20.9374,77.7796,28.0,46,0.0,965.1,8.45,33.5,50,20.8,14.2,4,5,7,0,2026-03-28T23:03:05.288284+05:30
Latur,Maharashtra,18.4088,76.5604,27.7,41,0.0,938.2,8.8,32.4,71,41.0,38.6,4,5,7,0,2026-03-28T23:03:05.288290+05:30
Nanded,Maharashtra,19.1383,77.3091,28.4,36,0.0,966.4,8.7,28.8,63,27.9,25.5,4,5,7,0,2026-03-28T23:03:05.288297+05:30
Gulbarga,Karnataka,17.3297,76.8343,29.9,36,0.0,957.3,8.85,31.7,88,31.5,27.5,4,5,7,0,2026-03-28T23:03:05.288303+05:30
Bidar,Karnataka,17.9104,77.5199,30.1,34,0.0,934.2,8.85,28.8,85,27.0,24.6,0,5,7,0,2026-03-28T23:03:05.288309+05:30
Hospet,Karnataka,15.2689,76.3909,28.1,65,0.0,955.4,9.1,30.6,114,46.4,41.8,7,5,7,1,2026-03-28T23:03:05.288316+05:30
Tirupur,Tamil Nadu,11.1085,77.3411,26.9,79,0.0,975.4,9.45,43.6,101,46.3,42.6,7,5,7,1,2026-03-28T23:03:05.288322+05:30
Alappuzha,Kerala,9.4981,76.3388,27.9,83,0.0,1009.5,9.1,31.3,87,35.4,30.9,7,0,4,1,2026-03-28T23:03:05.288328+05:30
Munnar,Kerala,10.0889,77.0595,20.6,95,0.0,857.1,9.7,40.7,80,48.7,46.0,3,5,7,1,2026-03-28T23:03:05.288336+05:30
Silchar,Assam,24.8333,92.7789,20.6,94,0.0,1005.9,4.85,30.2,153,77.8,65.7,3,5,0,1,2026-03-28T23:03:05.288343+05:30
Dibrugarh,Assam,27.4728,94.912,19.6,89,0.0,996.5,4.5,31.0,103,39.6,31.4,3,10,3,1,2026-03-28T23:03:05.288349+05:30
