city,state,latitude,longitude,temp,humidity,rain,pressure,uv_index,wind_gusts,aqi,pm10,pm2_5,mosquito_risk,arthritis_risk,migraine_risk,frizz_risk,updated_at
Delhi,Delhi,28.6139,77.209,27.4,53,0.0,984.3,6.9,20.9,124,226.3,73.3,4,5,7,1,2026-04-02T21:38:24.750259+05:30
Mumbai,Maharashtra,19.076,72.8777,27.9,71,0.0,1011.2,7.25,19.4,93,22.2,13.2,7,0,4,1,2026-04-02T21:38:24.750307+05:30
Bangalore,Karnataka,12.9716,77.5946,25.8,41,0.0,913.4,9.6,20.9,101,17.0,16.2,4,5,7,0,2026-04-02T21:38:24.750323+05:30
Hyderabad,Telangana,17.385,78.4867,28.9,45,0.0,955.5,9.1,25.9,82,30.5,27.1,4,5,7,0,2026-04-02T21:38:24.750333+05:30
Chennai,Tamil Nadu,13.0827,80.2707,27.9,81,0.0,1009.9,9.3,29.9,42,13.3,10.3,7,0,4,1,2026-04-02T21:38:24.750342+05:30
Kolkata,West Bengal,22.5726,88.3639,26.8,84,0.0,1007.3,8.6,24.1,77,20.0,17.9,7,5,4,1,2026-04-02T21:38:24.750352+05:30
Pune,Maharashtra,18.5204,73.8567,26.4,78,0.0,951.2,8.45,29.9,123,85.9,78.2,7,5,7,1,2026-04-02T21:38:24.750364+05:30
Ahmedabad,Gujarat,23.0225,72.5714,30.2,39,0.0,1003.5,7.9,29.5,81,25.0,14.6,0,5,4,0,2026-04-02T21:38:24.750372+05:30
Jaipur,Rajasthan,26.9124,75.7873,25.9,55,0.0,961.1,7.55,40.7,117,83.8,33.2,4,5,7,1,2026-04-02T21:38:24.750380+05:30
Lucknow,Uttar Pradesh,26.8467,80.9462,28.5,45,0.0,994.3,7.05,31.7,82,82.0,33.3,4,5,7,0,2026-04-02T21:38:24.750387+05:30
Kanpur,Uttar Pradesh,26.4499,80.3319,29.5,50,0.0,992.7,7.05,23.8,94,147.6,41.7,4,5,7,1,2026-04-02T21:38:24.750394+05:30
Chandigarh,Chandigarh,30.7333,76.7794,23.9,59,0.0,969.5,6.8,21.6,68,46.0,29.3,0,5,7,0,2026-04-02T21:38:24.750402+05:30
Srinagar,Jammu and Kashmir,34.0837,74.7973,10.9,82,0.0,841.9,7.5,14.8,109,49.5,39.1,3,10,7,0,2026-04-02T21:38:24.750410+05:30
Jammu,Jammu and Kashmir,32.7266,74.857,25.7,51,0.0,973.6,7.4,19.8,76,56.5,37.1,4,5,7,0,2026-04-02T21:38:24.750417+05:30
Amritsar,Punjab,31.634,74.8723,25.2,55,0.0,981.4,7.4,19.4,88,78.2,52.0,4,5,7,0,2026-04-02T21:38:24.750424+05:30
Ludhiana,Punjab,30.901,75.8573,25.8,52,0.0,979.7,7.0,16.2,121,125.7,72.9,4,5,7,0,2026-04-02T21:38:24.750431+05:30
Jalandhar,Punjab,31.326,75.5762,24.0,58,0.0,980.5,7.2,14.0,92,134.1,65.4,0,5,7,0,2026-04-02T21:38:24.750440+05:30
Dehradun,Uttarakhand,30.6284,78.0322,16.5,50,0.0,831.6,7.15,34.9,44,32.5,14.6,0,5,7,0,2026-04-02T21:38:24.750447+05:30
Shimla,Himachal Pradesh,31.1048,77.1734,14.1,53,0.0,785.3,7.25,33.8,53,48.1,24.0,0,5,7,0,2026-04-02T21:38:24.750454+05:30
Manali,Himachal Pradesh,32.2396,77.1887,16.4,53,0.0,822.2,9.1,26.6,84,24.0,12.8,0,5,7,0,2026-04-02T21:38:24.750461+05:30
Gurgaon,Haryana,28.4595,77.0266,24.6,68,0.0,982.7,7.0,19.4,190,231.4,67.1,3,5,7,1,2026-04-02T21:38:24.750468+05:30
Noida,Uttar Pradesh,28.5355,77.391,26.9,56,0.0,985.8,6.95,16.9,190,231.4,67.1,4,5,7,1,2026-04-02T21:38:24.750474+05:30
Ghaziabad,Uttar Pradesh,28.6692,77.4538,25.8,59,0.0,984.0,6.9,15.8,106,179.3,65.7,4,5,7,1,2026-04-02T21:38:24.750480+05:30
Faridabad,Haryana,28.4089,77.3178,24.9,64,0.0,985.1,6.95,18.7,190,231.4,67.1,3,5,7,1,2026-04-02T21:38:24.750487+05:30
Meerut,Uttar Pradesh,28.9845,77.7064,24.6,64,0.0,982.8,6.8,18.7,106,179.3,65.7,3,5,7,1,2026-04-02T21:38:24.750493+05:30
Agra,Uttar Pradesh,27.1767,78.0081,28.3,46,0.0,989.0,7.0,17.3,205,746.9,97.1,4,5,7,0,2026-04-02T21:38:24.750502+05:30
Varanasi,Uttar Pradesh,25.3176,82.9739,28.4,53,0.0,998.4,7.6,29.9,86,54.2,45.1,4,5,7,1,2026-04-02T21:38:24.750511+05:30
Prayagraj,Uttar Pradesh,25.4358,81.8463,30.0,48,0.0,997.1,7.5,21.6,72,47.8,37.4,4,5,7,1,2026-04-02T21:38:24.750518+05:30
Gorakhpur,Uttar Pradesh,26.7606,83.3732,27.3,36,0.0,996.9,7.8,39.6,84,32.9,23.2,4,5,7,0,2026-04-02T21:38:24.750525+05:30
Bareilly,Uttar Pradesh,28.367,79.4304,25.2,54,0.0,987.9,7.2,31.0,74,38.2,22.2,4,5,7,0,2026-04-02T21:38:24.750531+05:30
Aligarh,Uttar Pradesh,27.8974,78.088,26.5,51,0.0,986.9,7.05,17.3,129,140.2,57.4,4,5,7,0,2026-04-02T21:38:24.750538+05:30
Moradabad,Uttar Pradesh,28.8386,78.7733,24.3,57,0.0,985.0,7.0,26.6,85,58.1,37.5,0,5,7,0,2026-04-02T21:38:24.750544+05:30
Saharanpur,Uttar Pradesh,29.9637,77.546,22.8,63,0.0,976.8,6.5,24.8,86,62.6,46.0,3,5,7,0,2026-04-02T21:38:24.750550+05:30
Jhansi,Uttar Pradesh,25.4484,78.5685,30.6,41,0.0,978.8,6.45,22.0,78,22.2,19.4,0,5,7,0,2026-04-02T21:38:28.043411+05:30
Surat,Gujarat,21.1702,72.8311,26.8,72,0.0,1009.1,7.65,30.6,92,25.8,21.0,7,0,4,1,2026-04-02T21:38:28.043441+05:30
Vadodara,Gujarat,22.3072,73.1812,28.6,44,0.0,1006.0,7.9,34.9,124,31.3,28.1,4,5,4,0,2026-04-02T21:38:28.043451+05:30
Rajkot,Gujarat,22.3039,70.8022,25.8,69,0.0,996.5,7.05,36.7,67,39.8,17.8,7,5,7,1,2026-04-02T21:38:28.043459+05:30
Thane,Maharashtra,19.2183,72.9781,26.4,76,0.0,1010.7,7.25,33.1,93,22.2,13.2,7,0,4,1,2026-04-02T21:38:28.043466+05:30
Nagpur,Maharashtra,21.1458,79.0882,25.5,76,0.0,976.8,8.4,32.8,123,38.2,33.8,7,5,7,1,2026-04-02T21:38:28.043473+05:30
Nashik,Maharashtra,19.9975,73.7898,24.6,72,0.0,948.4,8.15,29.9,127,20.3,17.1,3,5,7,1,2026-04-02T21:38:28.043481+05:30
Aurangabad,Maharashtra,19.8762,75.3433,24.8,74,0.0,947.2,8.85,47.9,107,41.4,36.0,3,5,7,1,2026-04-02T21:38:28.043487+05:30
Solapur,Maharashtra,17.6599,75.9064,25.4,79,0.0,960.1,8.9,31.0,118,40.7,36.7,7,5,7,1,2026-04-02T21:38:28.043495+05:30
Kolhapur,Maharashtra,16.705,74.2433,23.4,89,0.0,950.2,8.95,34.6,145,72.6,68.5,3,5,7,1,2026-04-02T21:38:28.043502+05:30
Goa,Goa,15.2993,74.124,28.6,78,0.0,1000.1,8.85,29.5,75,25.1,20.8,7,5,4,1,2026-04-02T21:38:28.043509+05:30
Jodhpur,Rajasthan,26.2389,73.0243,28.3,41,0.0,984.6,7.8,36.7,81,261.7,42.4,4,5,7,0,2026-04-02T21:38:28.043516+05:30
Udaipur,Rajasthan,24.5854,73.7125,26.1,44,0.0,948.5,8.4,38.9,69,15.5,10.4,4,5,7,0,2026-04-02T21:38:28.043522+05:30
Kota,Rajasthan,25.2138,75.8648,30.0,24,0.0,979.9,7.85,27.7,67,30.6,26.8,4,5,7,0,2026-04-02T21:38:28.043529+05:30
Bikaner,Rajasthan,28.0229,73.3119,27.9,48,0.0,983.1,7.45,35.6,64,112.2,31.5,4,5,7,0,2026-04-02T21:38:28.043535+05:30
Ajmer,Rajasthan,26.4499,74.6399,28.2,34,0.0,956.0,7.5,33.1,64,26.7,15.4,4,5,7,0,2026-04-02T21:38:28.043541+05:30
Gwalior,Madhya Pradesh,26.2183,78.1828,31.1,44,0.0,984.4,6.45,22.0,74,30.7,27.6,0,5,7,1,2026-04-02T21:38:28.043548+05:30
Indore,Madhya Pradesh,22.7196,75.8577,26.2,62,0.0,950.4,8.3,40.7,104,39.7,34.8,7,5,7,1,2026-04-02T21:38:28.043555+05:30
Bhopal,Madhya Pradesh,23.2599,77.4126,27.2,58,0.0,956.5,7.85,33.1,92,33.3,29.3,4,5,7,1,2026-04-02T21:38:28.043561+05:30
Jabalpur,Madhya Pradesh,23.1815,79.9864,27.2,60,0.0,964.4,7.9,31.7,92,37.4,32.0,4,5,7,1,2026-04-02T21:38:28.043567+05:30
Ujjain,Madhya Pradesh,23.1765,75.7885,26.7,48,0.0,955.9,8.2,27.7,90,32.2,28.8,4,5,7,0,2026-04-02T21:38:28.043574+05:30
Visakhapatnam,Andhra Pradesh,17.6868,83.2185,26.7,82,0.0,1007.0,9.05,36.4,52,18.2,15.5,7,5,4,1,2026-04-02T21:38:28.043580+05:30
Vijayawada,Andhra Pradesh,16.5062,80.648,27.8,75,0.0,1005.7,9.15,24.1,46,15.3,13.9,7,5,4,1,2026-04-02T21:38:28.043587+05:30
Guntur,Andhra Pradesh,16.3067,80.4365,27.0,81,0.0,1006.9,9.15,27.4,40,14.9,13.6,7,5,4,1,2026-04-02T21:38:28.043593+05:30
Nellore,Andhra Pradesh,14.4426,79.9865,26.8,87,0.0,1008.7,9.25,28.1,38,10.7,8.4,7,0,4,1,2026-04-02T21:38:28.043600+05:30
Kurnool,Andhra Pradesh,15.8281,78.0373,31.7,33,0.0,978.5,9.15,24.1,67,32.2,26.9,0,5,7,0,2026-04-02T21:38:28.043607+05:30
Kakinada,Andhra Pradesh,16.9891,82.2475,26.5,86,0.0,1010.6,9.0,33.1,31,13.9,11.0,7,0,4,1,2026-04-02T21:38:28.043613+05:30
Tirupati,Andhra Pradesh,13.6288,79.4192,26.9,77,0.0,994.6,9.35,31.3,61,18.4,16.6,7,5,7,1,2026-04-02T21:38:28.043619+05:30
Warangal,Telangana,17.9689,79.5941,29.5,56,0.0,981.2,9.0,25.9,61,44.9,40.5,4,5,7,1,2026-04-02T21:38:28.043625+05:30
Nizamabad,Telangana,18.6725,78.0941,26.4,74,0.0,968.7,8.9,34.2,116,70.3,62.4,7,5,7,1,2026-04-02T21:38:28.043631+05:30
Mysore,Karnataka,12.2958,76.6396,24.7,79,0.0,930.3,9.5,34.9,102,39.1,35.4,3,5,7,1,2026-04-02T21:38:28.043638+05:30
Mangalore,Karnataka,12.9141,74.856,28.8,81,0.0,1009.2,9.05,22.7,77,29.6,25.0,7,0,4,1,2026-04-02T21:38:28.043644+05:30
Hubli-Dharwad,Karnataka,15.3647,75.124,24.7,79,0.0,943.1,9.2,37.8,126,16.6,15.9,3,5,7,1,2026-04-02T21:38:28.043650+05:30
Belgaum,Karnataka,15.8497,74.4977,22.8,92,0.0,927.8,9.1,32.4,111,38.8,35.9,3,5,7,1,2026-04-02T21:38:31.337459+05:30
Coimbatore,Tamil Nadu,11.0168,76.9558,25.8,79,0.0,964.1,9.45,44.3,99,24.0,22.3,7,5,7,1,2026-04-02T21:38:31.337491+05:30
Madurai,Tamil Nadu,9.9252,78.1198,28.2,71,0.0,996.0,9.4,33.5,80,10.6,10.1,7,5,7,1,2026-04-02T21:38:31.337504+05:30
Trichy,Tamil Nadu,10.7905,78.7047,26.8,68,0.0,1002.1,9.4,20.9,57,18.2,16.9,7,5,4,1,2026-04-02T21:38:31.337514+05:30
Salem,Tamil Nadu,11.6643,78.146,29.0,43,0.0,979.1,9.4,17.3,115,19.1,18.7,4,5,7,0,2026-04-02T21:38:31.337523+05:30
Tirunelveli,Tamil Nadu,8.7139,77.7567,28.2,71,0.0,1005.9,9.35,45.7,66,14.0,13.2,7,5,4,1,2026-04-02T21:38:31.337531+05:30
Vellore,Tamil Nadu,12.9165,79.1325,26.5,59,0.0,987.2,9.4,27.4,53,21.3,20.3,4,5,7,1,2026-04-02T21:38:31.337537+05:30
Erode,Tamil Nadu,11.341,77.7172,30.5,44,0.0,990.6,9.25,26.3,84,12.7,12.1,0,5,7,1,2026-04-02T21:38:31.337544+05:30
Kochi,Kerala,9.9312,76.2673,28.8,79,0.0,1011.2,9.2,31.0,84,31.5,28.5,7,0,4,1,2026-04-02T21:38:31.337551+05:30
Thiruvananthapuram,Kerala,8.5241,76.9366,29.5,72,0.0,1010.5,9.2,25.2,81,14.8,10.6,7,0,4,1,2026-04-02T21:38:31.337559+05:30
Kozhikode,Kerala,11.2588,75.7804,29.8,70,0.0,1010.0,8.75,25.2,59,21.1,15.9,7,0,4,1,2026-04-02T21:38:31.337565+05:30
Thrissur,Kerala,10.5276,76.2144,28.1,85,0.0,1009.4,9.15,32.0,69,25.2,22.8,7,0,4,1,2026-04-02T21:38:31.337572+05:30
Kannur,Kerala,11.8745,75.3704,28.9,78,0.0,1009.4,9.15,25.6,73,35.7,32.5,7,0,4,1,2026-04-02T21:38:31.337579+05:30
Patna,Bihar,25.5941,85.1376,28.4,55,0.0,1000.5,8.0,33.5,77,35.3,28.5,4,5,4,1,2026-04-02T21:38:31.337586+05:30
Gaya,Bihar,24.7914,85.0002,29.7,46,0.0,994.7,8.25,29.2,78,43.4,33.2,4,5,7,1,2026-04-02T21:38:31.337592+05:30
Muzaffarpur,Bihar,26.1209,85.3647,26.6,49,0.0,1000.2,8.25,31.3,77,33.6,27.3,4,5,4,0,2026-04-02T21:38:31.337598+05:30
Bhagalpur,Bihar,25.2425,87.0117,27.6,66,0.0,1001.1,7.85,26.6,82,29.7,21.5,7,5,4,1,2026-04-02T21:38:31.337604+05:30
Ranchi,Jharkhand,23.3441,85.3096,25.5,59,0.0,940.2,8.9,32.0,101,41.8,34.1,4,5,7,1,2026-04-02T21:38:31.337610+05:30
Jamshedpur,Jharkhand,22.8046,86.2029,29.7,62,0.0,992.3,8.7,31.7,119,50.2,39.1,7,5,7,1,2026-04-02T21:38:31.337616+05:30
Dhanbad,Jharkhand,23.7957,86.4304,31.5,45,0.0,981.1,8.65,27.0,152,73.8,66.6,0,5,7,1,2026-04-02T21:38:31.337622+05:30
Bokaro,Jharkhand,23.6693,86.1511,30.8,43,0.0,985.5,8.65,28.1,150,75.4,68.0,0,5,7,1,2026-04-02T21:38:31.337628+05:30
Bhubaneswar,Odisha,20.2961,85.8245,27.0,79,0.0,1005.3,8.9,30.6,54,15.8,13.9,7,5,4,1,2026-04-02T21:38:31.337635+05:30
Cuttack,Odisha,20.4625,85.8828,28.0,66,0.0,1007.0,8.95,23.0,54,15.8,13.9,7,5,4,1,2026-04-02T21:38:31.337641+05:30
Rourkela,Odisha,22.2604,84.8536,29.8,65,0.0,987.1,8.65,26.6,164,57.9,45.6,7,5,7,1,2026-04-02T21:38:31.337647+05:30
Raipur,Chhattisgarh,21.2514,81.6296,29.7,50,0.0,977.7,8.7,25.6,143,89.9,82.9,4,5,7,1,2026-04-02T21:38:31.337653+05:30
Bhilai,Chhattisgarh,21.1938,81.3509,28.6,55,0.0,978.0,8.7,24.8,134,68.9,61.2,4,5,7,1,2026-04-02T21:38:31.337659+05:30
Guwahati,Assam,26.1158,91.7086,25.8,83,0.0,1002.3,8.15,33.5,101,51.6,48.3,7,5,4,1,2026-04-02T21:38:31.337665+05:30
Agartala,Tripura,23.8315,91.2868,26.4,82,0.0,1007.3,8.4,43.2,108,28.5,24.7,7,5,4,1,2026-04-02T21:38:31.337671+05:30
Shillong,Meghalaya,25.5788,91.8933,15.7,88,0.0,857.9,8.55,70.9,95,34.0,30.0,3,10,7,0,2026-04-02T21:38:31.337678+05:30
Imphal,Manipur,24.817,93.9368,19.4,84,0.0,925.4,8.7,87.1,119,57.7,51.3,3,10,7,1,2026-04-02T21:38:31.337684+05:30
Aizawl,Mizoram,23.7271,92.7176,21.1,77,0.0,894.9,8.65,55.1,99,55.1,43.1,3,5,7,1,2026-04-02T21:38:31.337691+05:30
Kohima,Nagaland,25.6701,94.1077,16.0,86,0.0,856.4,8.65,105.5,92,47.0,39.2,3,10,7,0,2026-04-02T21:38:31.337697+05:30
Gangtok,Sikkim,27.3314,88.6138,16.5,93,0.0,838.9,8.5,20.5,90,49.4,41.8,3,10,7,0,2026-04-02T21:38:31.337703+05:30
Siliguri,West Bengal,26.7271,88.3953,23.3,68,0.0,994.8,8.05,21.6,143,77.3,65.2,3,5,7,1,2026-04-02T21:38:34.631326+05:30
Durgapur,West Bengal,23.5204,87.3119,30.4,60,0.0,996.0,8.6,21.6,152,84.3,76.4,0,5,7,1,2026-04-02T21:38:34.631356+05:30
Asansol,West Bengal,23.6739,86.9524,31.8,50,0.0,994.5,8.65,22.3,128,56.6,49.8,0,5,7,1,2026-04-02T21:38:34.631366+05:30
Pondicherry,Puducherry,11.9139,79.8145,24.9,89,0.0,1011.1,9.25,27.0,36,11.7,8.7,3,0,4,1,2026-04-02T21:38:34.631373+05:30
Port Blair,Andaman and Nicobar Islands,11.6234,92.7265,29.0,78,0.0,1009.1,9.1,32.0,43,10.5,6.4,7,0,4,1,2026-04-02T21:38:34.631382+05:30
Haridwar,Uttarakhand,29.9457,78.1642,22.0,62,0.0,975.4,6.65,29.2,61,35.0,25.3,3,5,7,0,2026-04-02T21:38:34.631389+05:30
Rishikesh,Uttarakhand,30.0869,78.2676,22.0,53,0.0,968.3,6.7,31.0,49,33.1,15.0,0,5,7,0,2026-04-02T21:38:34.631397+05:30
Nainital,Uttarakhand,29.3919,79.4542,20.7,31,0.0,808.5,7.55,42.1,52,32.4,15.2,0,5,7,0,2026-04-02T21:38:34.631404+05:30
Mussoorie,Uttarakhand,30.4599,78.0664,18.5,40,0.0,804.6,7.0,37.4,57,43.2,22.7,0,5,7,0,2026-04-02T21:38:34.631412+05:30
Dharamshala,Himachal Pradesh,32.219,76.3234,20.4,49,0.0,870.4,7.3,28.4,46,24.6,13.7,0,5,7,0,2026-04-02T21:38:34.631419+05:30
Dalhousie,Himachal Pradesh,32.5387,75.971,17.2,44,0.0,804.6,7.55,24.8,63,38.5,27.7,0,5,7,0,2026-04-02T21:38:34.631426+05:30
Patiala,Punjab,30.3398,76.3869,24.7,57,0.0,979.4,6.7,20.9,110,117.8,53.7,0,5,7,0,2026-04-02T21:38:34.631434+05:30
Bhatinda,Punjab,30.211,74.9455,24.6,63,0.0,984.5,7.15,50.4,97,211.4,43.0,3,5,7,1,2026-04-02T21:38:34.631441+05:30
Rohtak,Haryana,28.8955,76.6066,23.5,74,0.0,983.1,6.9,49.0,151,361.4,88.0,3,5,7,1,2026-04-02T21:38:34.631447+05:30
Panipat,Haryana,29.3909,76.9635,24.2,72,0.0,981.9,6.7,22.7,155,212.3,83.4,3,5,7,1,2026-04-02T21:38:34.631454+05:30
Mathura,Uttar Pradesh,27.4924,77.6737,26.8,53,0.0,988.1,7.2,18.0,178,423.8,69.2,4,5,7,1,2026-04-02T21:38:34.631460+05:30
Vrindavan,Uttar Pradesh,27.5823,77.7027,26.2,51,0.0,988.6,7.2,15.8,178,423.8,69.2,4,5,7,0,2026-04-02T21:38:34.631467+05:30
Ayodhya,Uttar Pradesh,26.7922,82.1998,27.4,41,0.0,995.4,7.65,36.4,82,45.9,24.8,4,5,7,0,2026-04-02T21:38:34.631474+05:30
Ratlam,Madhya Pradesh,23.3315,75.0367,27.3,46,0.0,956.3,8.15,33.1,89,24.8,21.5,4,5,7,0,2026-04-02T21:38:34.631480+05:30
Sagar,Madhya Pradesh,23.8388,78.7378,28.2,50,0.0,952.7,8.25,34.2,80,28.6,24.9,4,5,7,1,2026-04-02T21:38:34.631486+05:30
Satna,Madhya Pradesh,24.6005,80.8322,31.4,40,0.0,973.1,7.75,22.3,72,33.4,24.3,0,5,7,1,2026-04-02T21:38:34.631493+05:30
Akola,Maharashtra,20.7002,77.0082,26.3,74,0.0,978.9,8.6,23.4,98,43.9,38.9,7,5,7,1,2026-04-02T21:38:34.631500+05:30
Amravati,Maharashtra,20.9374,77.7796,26.5,74,0.0,971.2,8.55,38.9,95,41.8,36.2,7,5,7,1,2026-04-02T21:38:34.631507+05:30
Latur,Maharashtra,18.4088,76.5604,24.7,78,0.0,942.9,8.9,36.4,121,37.7,34.0,3,5,7,1,2026-04-02T21:38:34.631514+05:30
Nanded,Maharashtra,19.1383,77.3091,26.2,75,0.0,972.8,8.75,29.5,115,59.5,52.2,7,5,7,1,2026-04-02T21:38:34.631520+05:30
Gulbarga,Karnataka,17.3297,76.8343,28.4,58,0.0,961.4,8.95,45.4,106,21.9,19.0,4,5,7,1,2026-04-02T21:38:34.631526+05:30
Bidar,Karnataka,17.9104,77.5199,25.4,73,0.0,938.2,8.95,30.2,103,43.3,38.3,7,5,7,1,2026-04-02T21:38:34.631533+05:30
Hospet,Karnataka,15.2689,76.3909,28.8,62,0.0,958.0,9.15,33.8,130,26.1,22.5,7,5,7,1,2026-04-02T21:38:34.631539+05:30
Tirupur,Tamil Nadu,11.1085,77.3411,28.4,68,0.0,977.3,9.2,30.2,92,23.8,22.3,7,5,7,1,2026-04-02T21:38:34.631545+05:30
Alappuzha,Kerala,9.4981,76.3388,28.7,80,0.0,1011.4,9.2,27.4,88,28.1,22.9,7,0,4,1,2026-04-02T21:38:34.631551+05:30
Munnar,Kerala,10.0889,77.0595,21.4,94,0.0,858.9,9.75,34.9,65,28.2,27.0,3,5,7,1,2026-04-02T21:38:34.631557+05:30
Silchar,Assam,24.8333,92.7789,24.8,88,0.0,1007.2,8.4,34.2,144,81.0,70.3,3,5,4,1,2026-04-02T21:38:34.631563+05:30
Dibrugarh,Assam,27.4728,94.912,22.2,91,0.0,998.4,6.05,26.3,84,27.4,26.3,3,5,7,1,2026-04-02T21:38:34.631569+05:30
