city,state,latitude,longitude,temp,humidity,rain,pressure,uv_index,wind_gusts,aqi,pm10,pm2_5,no2,co,o3,so2,mosquito_risk,arthritis_risk,migraine_risk,frizz_risk,updated_at
Delhi,Delhi,28.6139,77.209,25.0,73,0.0,978.9,7.8,22.7,188,284.1,105.5,53.6,465.0,30.0,28.5,7,5,7,1,2026-06-16T03:15:15.871151+05:30
Mumbai,Maharashtra,19.076,72.8777,29.8,72,0.0,1007.0,7.7,45.0,58,33.4,15.2,3.5,136.0,49.0,3.2,7,5,4,1,2026-06-16T03:15:15.871196+05:30
Bangalore,Karnataka,12.9716,77.5946,21.2,90,0.0,910.6,8.7,33.8,60,12.2,9.6,13.8,256.0,35.0,4.6,3,5,7,1,2026-06-16T03:15:15.871212+05:30
Hyderabad,Telangana,17.385,78.4867,27.3,55,0.0,950.3,9.05,36.4,111,118.5,70.5,58.1,577.0,13.0,11.9,4,5,7,1,2026-06-16T03:15:15.871222+05:30
Chennai,Tamil Nadu,13.0827,80.2707,28.8,75,0.0,1003.7,5.6,35.6,85,35.5,24.2,12.1,247.0,68.0,12.1,7,5,0,1,2026-06-16T03:15:15.871230+05:30
Kolkata,West Bengal,22.5726,88.3639,28.8,88,0.0,1002.0,9.0,31.3,138,48.3,41.9,12.9,421.0,72.0,6.6,7,5,4,1,2026-06-16T03:15:15.871239+05:30
Pune,Maharashtra,18.5204,73.8567,24.1,87,0.0,947.4,8.3,47.2,52,22.9,11.8,7.3,131.0,40.0,6.6,3,5,7,1,2026-06-16T03:15:15.871246+05:30
Ahmedabad,Gujarat,23.0225,72.5714,30.2,65,0.0,999.2,8.05,46.4,60,25.4,12.0,4.0,113.0,47.0,3.4,3,5,7,1,2026-06-16T03:15:15.871253+05:30
Jaipur,Rajasthan,26.9124,75.7873,25.9,65,0.0,956.2,8.2,25.9,127,147.6,47.8,8.6,291.0,58.0,4.9,7,5,7,1,2026-06-16T03:15:15.871263+05:30
Lucknow,Uttar Pradesh,26.8467,80.9462,27.2,66,0.0,989.1,8.35,28.1,166,249.6,97.8,34.7,354.0,34.0,10.5,7,5,7,1,2026-06-16T03:15:15.871270+05:30
Kanpur,Uttar Pradesh,26.4499,80.3319,29.7,51,0.0,987.7,8.3,31.3,193,277.5,96.9,42.4,315.0,21.0,9.3,4,5,7,1,2026-06-16T03:15:15.871278+05:30
Chandigarh,Chandigarh,30.7333,76.7794,23.6,82,0.0,964.9,7.8,21.6,124,67.3,54.6,51.3,542.0,12.0,8.9,3,5,7,1,2026-06-16T03:15:15.871285+05:30
Srinagar,Jammu and Kashmir,34.0837,74.7973,14.3,99,0.0,838.6,8.15,25.9,80,33.3,31.8,29.1,476.0,8.0,0.0,3,10,7,0,2026-06-16T03:15:15.871292+05:30
Jammu,Jammu and Kashmir,32.7266,74.857,25.9,65,0.0,968.5,8.6,28.4,88,50.8,45.5,51.0,401.0,0.0,3.3,7,5,7,1,2026-06-16T03:15:15.871298+05:30
Amritsar,Punjab,31.634,74.8723,25.5,79,0.0,976.2,8.45,20.9,125,48.9,43.0,24.3,764.0,54.0,5.3,7,5,7,1,2026-06-16T03:15:15.871305+05:30
Ludhiana,Punjab,30.901,75.8573,26.3,81,0.0,974.5,8.05,21.2,166,205.8,110.1,59.6,878.0,16.0,15.5,7,5,7,1,2026-06-16T03:15:15.871311+05:30
Jalandhar,Punjab,31.326,75.5762,26.2,74,0.0,975.4,7.9,22.3,152,198.4,99.7,61.7,748.0,20.0,11.1,7,5,7,1,2026-06-16T03:15:15.871317+05:30
Dehradun,Uttarakhand,30.6284,78.0322,14.4,96,0.0,826.5,7.7,29.9,44,17.3,14.5,32.2,209.0,9.0,0.4,3,10,7,0,2026-06-16T03:15:15.871323+05:30
Shimla,Himachal Pradesh,31.1048,77.1734,10.7,82,0.0,779.3,7.5,25.2,59,26.8,24.4,26.6,237.0,27.0,0.4,3,10,7,0,2026-06-16T03:15:15.871331+05:30
Manali,Himachal Pradesh,32.2396,77.1887,12.3,70,0.0,814.5,8.65,38.2,28,5.5,3.9,56.2,229.0,47.0,0.0,3,5,7,0,2026-06-16T03:15:15.871338+05:30
Gurgaon,Haryana,28.4595,77.0266,24.8,75,0.0,977.2,7.9,28.1,607,707.8,162.5,49.8,413.0,23.0,19.1,3,5,7,1,2026-06-16T03:15:15.871344+05:30
Noida,Uttar Pradesh,28.5355,77.391,25.0,73,0.0,980.2,7.85,16.6,607,707.8,162.5,49.8,536.0,23.0,19.1,7,5,7,1,2026-06-16T03:15:15.871350+05:30
Ghaziabad,Uttar Pradesh,28.6692,77.4538,24.6,79,0.0,978.5,7.8,23.0,170,235.2,99.9,53.9,746.0,35.0,19.7,3,5,7,1,2026-06-16T03:15:15.871358+05:30
Faridabad,Haryana,28.4089,77.3178,26.2,63,0.0,979.5,7.85,24.5,607,707.8,162.5,49.8,522.0,23.0,19.1,7,5,7,1,2026-06-16T03:15:15.871364+05:30
Meerut,Uttar Pradesh,28.9845,77.7064,25.8,73,0.0,977.3,7.7,27.0,170,235.2,99.9,53.9,811.0,35.0,19.7,7,5,7,1,2026-06-16T03:15:15.871370+05:30
Agra,Uttar Pradesh,27.1767,78.0081,27.0,56,0.0,983.5,8.15,23.0,796,1005.8,149.5,16.1,412.0,53.0,5.4,4,5,7,1,2026-06-16T03:15:15.871377+05:30
Varanasi,Uttar Pradesh,25.3176,82.9739,31.9,52,0.0,992.8,8.8,37.4,153,147.1,74.7,42.3,457.0,40.0,16.9,0,5,7,1,2026-06-16T03:15:15.871384+05:30
Prayagraj,Uttar Pradesh,25.4358,81.8463,31.7,50,0.0,991.3,8.75,36.7,152,99.4,58.0,33.3,338.0,27.0,8.4,0,5,7,1,2026-06-16T03:15:15.871390+05:30
Gorakhpur,Uttar Pradesh,26.7606,83.3732,27.1,80,0.0,992.5,8.7,27.4,144,145.8,79.9,52.1,553.0,25.0,13.5,7,5,7,1,2026-06-16T03:15:15.871403+05:30
Bareilly,Uttar Pradesh,28.367,79.4304,24.8,82,0.0,982.7,8.15,26.3,156,79.2,59.0,34.1,366.0,45.0,11.0,3,5,7,1,2026-06-16T03:15:15.871409+05:30
Aligarh,Uttar Pradesh,27.8974,78.088,24.6,76,0.0,981.1,7.95,20.2,477,529.0,140.2,43.6,349.0,47.0,14.9,3,5,7,1,2026-06-16T03:15:15.871416+05:30
Moradabad,Uttar Pradesh,28.8386,78.7733,25.1,73,0.0,979.8,7.95,29.9,163,143.4,95.9,61.8,382.0,13.0,14.0,7,5,7,1,2026-06-16T03:15:15.871422+05:30
Saharanpur,Uttar Pradesh,29.9637,77.546,24.1,90,0.0,972.1,7.55,20.9,121,139.7,81.3,50.5,656.0,27.0,15.3,3,5,7,1,2026-06-16T03:15:15.871428+05:30
Jhansi,Uttar Pradesh,25.4484,78.5685,28.2,51,0.0,974.2,8.5,26.3,118,68.9,31.9,4.2,185.0,74.0,3.0,4,5,7,1,2026-06-16T03:15:19.114131+05:30
Surat,Gujarat,21.1702,72.8311,29.6,73,0.0,1004.5,7.6,46.8,70,32.2,18.5,14.5,237.0,36.0,25.1,7,5,4,1,2026-06-16T03:15:19.114167+05:30
Vadodara,Gujarat,22.3072,73.1812,30.6,62,0.0,1001.6,8.0,52.6,68,26.4,17.3,13.4,131.0,31.0,11.3,3,5,4,1,2026-06-16T03:15:19.114178+05:30
Rajkot,Gujarat,22.3039,70.8022,28.2,76,0.0,991.4,7.55,46.4,57,26.1,13.3,4.8,97.0,42.0,4.3,7,5,7,1,2026-06-16T03:15:19.114187+05:30
Thane,Maharashtra,19.2183,72.9781,29.4,73,0.0,1006.5,7.7,41.8,58,33.4,15.2,3.5,145.0,49.0,3.2,7,5,4,1,2026-06-16T03:15:19.114195+05:30
Nagpur,Maharashtra,21.1458,79.0882,29.2,55,0.0,969.9,8.9,56.2,110,55.2,36.6,21.1,290.0,35.0,8.1,4,5,7,1,2026-06-16T03:15:19.114202+05:30
Nashik,Maharashtra,19.9975,73.7898,24.4,88,0.0,944.3,8.05,43.9,51,19.8,10.5,4.5,120.0,42.0,2.1,3,5,7,1,2026-06-16T03:15:19.114209+05:30
Aurangabad,Maharashtra,19.8762,75.3433,25.5,75,0.0,943.0,8.95,54.0,55,19.3,11.6,6.8,124.0,42.0,6.3,7,5,7,1,2026-06-16T03:15:19.114217+05:30
Solapur,Maharashtra,17.6599,75.9064,26.9,67,0.0,956.2,8.9,44.6,57,16.6,11.2,6.2,145.0,51.0,5.4,7,5,7,1,2026-06-16T03:15:19.114224+05:30
Kolhapur,Maharashtra,16.705,74.2433,24.1,90,0.0,947.3,7.3,46.1,52,19.2,11.5,6.9,136.0,37.0,2.7,3,5,7,1,2026-06-16T03:15:19.114231+05:30
Goa,Goa,15.2993,74.124,26.0,89,0.0,997.3,8.65,28.8,57,25.0,15.0,5.4,369.0,42.0,2.0,7,5,7,1,2026-06-16T03:15:19.114238+05:30
Jodhpur,Rajasthan,26.2389,73.0243,31.2,57,0.0,978.8,8.45,37.8,154,189.1,46.3,4.9,129.0,50.0,2.1,0,5,7,1,2026-06-16T03:15:19.114246+05:30
Udaipur,Rajasthan,24.5854,73.7125,26.7,67,0.0,942.9,8.8,34.9,62,27.0,14.8,3.8,117.0,54.0,2.5,7,5,7,1,2026-06-16T03:15:19.114253+05:30
Kota,Rajasthan,25.2138,75.8648,28.2,64,0.0,974.8,8.4,32.0,92,37.1,21.7,7.4,159.0,61.0,5.1,7,5,7,1,2026-06-16T03:15:19.114260+05:30
Bikaner,Rajasthan,28.0229,73.3119,30.9,52,0.0,976.2,8.45,46.8,151,169.0,45.4,2.7,129.0,56.0,2.4,0,5,7,1,2026-06-16T03:15:19.114267+05:30
Ajmer,Rajasthan,26.4499,74.6399,26.9,60,0.0,950.8,8.3,40.7,90,47.0,22.2,7.2,162.0,49.0,4.1,4,5,7,1,2026-06-16T03:15:19.114273+05:30
Gwalior,Madhya Pradesh,26.2183,78.1828,27.9,52,0.0,979.4,4.75,31.7,131,62.6,29.9,4.7,219.0,70.0,2.5,4,5,3,1,2026-06-16T03:15:19.114280+05:30
Indore,Madhya Pradesh,22.7196,75.8577,27.3,68,0.0,945.8,8.6,45.0,86,36.9,25.6,8.4,199.0,61.0,8.3,7,5,7,1,2026-06-16T03:15:19.114286+05:30
Bhopal,Madhya Pradesh,23.2599,77.4126,27.2,66,0.0,950.7,8.65,36.0,98,43.7,26.4,15.9,325.0,43.0,2.8,7,5,7,1,2026-06-16T03:15:19.114293+05:30
Jabalpur,Madhya Pradesh,23.1815,79.9864,27.2,67,0.0,958.5,8.85,27.0,113,64.0,40.2,13.9,320.0,48.0,4.1,7,5,7,1,2026-06-16T03:15:19.114299+05:30
Ujjain,Madhya Pradesh,23.1765,75.7885,27.8,65,0.0,951.3,8.55,40.3,80,36.1,23.8,5.9,185.0,63.0,8.5,7,5,7,1,2026-06-16T03:15:19.114306+05:30
Visakhapatnam,Andhra Pradesh,17.6868,83.2185,29.6,87,0.0,999.0,8.6,37.4,162,116.6,92.9,56.4,1419.0,60.0,74.7,7,5,7,1,2026-06-16T03:15:19.114313+05:30
Vijayawada,Andhra Pradesh,16.5062,80.648,29.2,70,0.0,997.7,4.65,22.0,140,115.5,90.6,47.9,532.0,16.0,11.9,7,5,3,1,2026-06-16T03:15:19.114320+05:30
Guntur,Andhra Pradesh,16.3067,80.4365,29.6,64,0.0,998.8,8.55,37.8,151,147.6,118.7,64.6,357.0,5.0,16.5,7,5,7,1,2026-06-16T03:15:19.114327+05:30
Nellore,Andhra Pradesh,14.4426,79.9865,28.9,70,0.0,1001.6,8.35,39.6,83,46.0,32.9,11.0,299.0,83.0,10.6,7,5,4,1,2026-06-16T03:15:19.114334+05:30
Kurnool,Andhra Pradesh,15.8281,78.0373,28.0,53,0.0,974.4,8.95,38.5,79,47.6,32.7,22.8,205.0,39.0,6.5,4,5,7,1,2026-06-16T03:15:19.114341+05:30
Kakinada,Andhra Pradesh,16.9891,82.2475,29.0,83,0.0,1002.4,9.0,32.0,123,82.0,58.2,14.5,847.0,84.0,8.5,7,5,4,1,2026-06-16T03:15:19.114348+05:30
Tirupati,Andhra Pradesh,13.6288,79.4192,26.5,68,0.0,988.1,7.6,30.2,93,73.1,55.4,45.7,227.0,16.0,8.2,7,5,7,1,2026-06-16T03:15:19.114354+05:30
Warangal,Telangana,17.9689,79.5941,28.5,65,0.0,974.7,8.65,34.2,150,126.2,90.8,49.6,385.0,4.0,8.6,7,5,7,1,2026-06-16T03:15:19.114361+05:30
Nizamabad,Telangana,18.6725,78.0941,27.9,49,0.0,962.3,8.9,33.1,101,70.3,44.9,24.0,172.0,37.0,5.1,4,5,7,1,2026-06-16T03:15:19.114367+05:30
Mysore,Karnataka,12.2958,76.6396,20.9,96,0.0,927.7,9.0,32.8,52,15.9,11.8,11.5,219.0,36.0,2.4,3,5,7,1,2026-06-16T03:15:19.114374+05:30
Mangalore,Karnataka,12.9141,74.856,26.4,95,0.0,1006.5,8.5,45.0,57,27.6,19.2,14.1,221.0,20.0,3.1,7,5,4,1,2026-06-16T03:15:19.114380+05:30
Hubli-Dharwad,Karnataka,15.3647,75.124,22.3,95,0.0,939.6,8.1,48.2,48,18.4,9.6,5.0,143.0,39.0,1.7,3,5,7,1,2026-06-16T03:15:19.114387+05:30
Belgaum,Karnataka,15.8497,74.4977,21.7,97,0.0,924.5,5.75,43.6,51,22.0,14.4,8.1,130.0,30.0,0.6,3,5,3,1,2026-06-16T03:15:22.343125+05:30
Coimbatore,Tamil Nadu,11.0168,76.9558,24.1,98,0.0,960.6,8.75,41.0,56,20.0,14.5,11.0,211.0,33.0,3.6,3,5,7,1,2026-06-16T03:15:22.343162+05:30
Madurai,Tamil Nadu,9.9252,78.1198,28.7,66,0.0,991.4,8.55,36.7,94,41.8,30.4,36.0,166.0,11.0,6.1,7,5,7,1,2026-06-16T03:15:22.343174+05:30
Trichy,Tamil Nadu,10.7905,78.7047,29.1,66,0.0,998.0,8.1,37.8,77,50.6,33.9,22.3,190.0,37.0,5.6,7,5,7,1,2026-06-16T03:15:22.343182+05:30
Salem,Tamil Nadu,11.6643,78.146,26.1,83,0.0,976.1,8.3,28.8,69,24.1,17.5,15.9,277.0,41.0,6.4,7,5,7,1,2026-06-16T03:15:22.343191+05:30
Tirunelveli,Tamil Nadu,8.7139,77.7567,28.8,69,0.0,1001.3,8.65,26.3,50,15.0,11.4,8.7,142.0,35.0,2.9,7,5,4,1,2026-06-16T03:15:22.343199+05:30
Vellore,Tamil Nadu,12.9165,79.1325,25.8,68,0.0,982.0,2.75,36.4,93,70.5,49.5,37.2,536.0,26.0,9.0,7,5,3,1,2026-06-16T03:15:22.343207+05:30
Erode,Tamil Nadu,11.341,77.7172,26.4,84,0.0,987.8,8.6,30.2,64,22.2,16.3,14.7,199.0,35.0,4.0,7,5,7,1,2026-06-16T03:15:22.343215+05:30
Kochi,Kerala,9.9312,76.2673,23.9,99,0.2,1009.0,5.9,29.9,67,23.6,18.5,17.2,330.0,19.0,4.4,6,0,0,1,2026-06-16T03:15:22.343223+05:30
Thiruvananthapuram,Kerala,8.5241,76.9366,25.5,93,0.0,1007.9,7.7,38.5,51,21.4,11.1,3.8,267.0,51.0,2.0,7,5,4,1,2026-06-16T03:15:22.343231+05:30
Kozhikode,Kerala,11.2588,75.7804,26.4,90,0.0,1007.2,7.75,41.0,48,20.3,11.3,3.7,217.0,50.0,1.9,7,5,4,1,2026-06-16T03:15:22.343238+05:30
Thrissur,Kerala,10.5276,76.2144,25.1,99,0.0,1006.9,7.15,32.0,75,24.6,20.6,15.3,409.0,18.0,3.8,7,5,4,1,2026-06-16T03:15:22.343246+05:30
Kannur,Kerala,11.8745,75.3704,27.3,87,0.0,1006.7,8.3,42.5,52,19.8,13.4,11.1,161.0,27.0,2.7,7,5,4,1,2026-06-16T03:15:22.343253+05:30
Patna,Bihar,25.5941,85.1376,29.1,75,0.0,996.2,8.9,24.5,161,170.9,103.8,61.4,895.0,13.0,18.6,7,5,7,1,2026-06-16T03:15:22.343259+05:30
Gaya,Bihar,24.7914,85.0002,28.7,70,0.0,989.5,8.9,25.2,154,116.6,75.4,43.4,742.0,20.0,9.0,7,5,7,1,2026-06-16T03:15:22.343266+05:30
Muzaffarpur,Bihar,26.1209,85.3647,27.9,80,0.0,996.4,8.85,28.4,161,167.6,105.9,61.4,871.0,10.0,18.8,7,5,7,1,2026-06-16T03:15:22.343272+05:30
Bhagalpur,Bihar,25.2425,87.0117,28.7,84,0.0,997.5,8.85,26.3,155,82.9,74.5,18.1,682.0,80.0,21.3,7,5,7,1,2026-06-16T03:15:22.343279+05:30
Ranchi,Jharkhand,23.3441,85.3096,25.5,66,0.0,934.0,9.25,26.3,135,165.3,90.1,43.1,597.0,49.0,15.5,7,5,7,1,2026-06-16T03:15:22.343286+05:30
Jamshedpur,Jharkhand,22.8046,86.2029,27.6,79,0.0,987.0,9.1,22.3,151,88.2,72.2,27.7,366.0,64.0,24.3,7,5,7,1,2026-06-16T03:15:22.343293+05:30
Dhanbad,Jharkhand,23.7957,86.4304,27.7,80,0.0,976.0,9.1,27.0,167,125.3,113.2,74.9,673.0,37.0,199.4,7,5,7,1,2026-06-16T03:15:22.343300+05:30
Bokaro,Jharkhand,23.6693,86.1511,26.3,86,0.0,979.6,9.1,26.3,165,182.5,132.2,80.8,1622.0,5.0,156.1,7,5,7,1,2026-06-16T03:15:22.343307+05:30
Bhubaneswar,Odisha,20.2961,85.8245,28.2,97,0.0,998.2,9.05,42.1,136,60.5,47.8,12.0,446.0,77.0,6.8,7,5,7,1,2026-06-16T03:15:22.343315+05:30
Cuttack,Odisha,20.4625,85.8828,28.4,95,0.0,1000.0,9.1,39.2,136,60.5,47.8,12.0,480.0,77.0,6.8,7,5,4,1,2026-06-16T03:15:22.343322+05:30
Rourkela,Odisha,22.2604,84.8536,27.9,79,0.0,980.9,9.05,43.2,139,110.4,77.8,30.4,341.0,62.0,18.7,7,5,7,1,2026-06-16T03:15:22.343332+05:30
Raipur,Chhattisgarh,21.2514,81.6296,29.1,61,0.0,971.0,8.95,51.1,149,109.9,78.0,54.5,715.0,15.0,60.5,7,5,7,1,2026-06-16T03:15:22.343339+05:30
Bhilai,Chhattisgarh,21.1938,81.3509,29.0,66,0.0,971.4,8.95,52.2,150,126.2,85.2,51.6,983.0,18.0,57.5,7,5,7,1,2026-06-16T03:15:22.343346+05:30
Guwahati,Assam,26.1158,91.7086,25.1,100,0.0,999.2,8.15,23.4,78,35.4,31.4,6.2,439.0,84.0,3.9,7,5,7,1,2026-06-16T03:15:22.343353+05:30
Agartala,Tripura,23.8315,91.2868,25.8,93,0.0,1003.5,7.8,26.3,85,27.5,24.0,12.9,259.0,51.0,2.7,7,5,4,1,2026-06-16T03:15:22.343360+05:30
Shillong,Meghalaya,25.5788,91.8933,17.0,95,0.0,854.4,8.4,19.8,42,7.1,5.7,3.3,249.0,100.0,3.5,3,10,7,1,2026-06-16T03:15:22.343366+05:30
Imphal,Manipur,24.817,93.9368,21.9,97,0.0,920.9,8.6,31.0,76,31.5,28.7,14.1,308.0,37.0,2.8,3,5,7,1,2026-06-16T03:15:22.343373+05:30
Aizawl,Mizoram,23.7271,92.7176,18.7,99,0.0,890.0,7.8,23.8,48,11.7,9.9,4.7,177.0,38.0,0.7,3,10,7,1,2026-06-16T03:15:22.343379+05:30
Kohima,Nagaland,25.6701,94.1077,18.7,97,0.0,853.4,7.15,25.2,37,9.7,7.7,3.6,285.0,63.0,1.0,3,10,7,1,2026-06-16T03:15:22.343386+05:30
Gangtok,Sikkim,27.3314,88.6138,16.7,89,0.0,835.3,8.85,37.4,62,22.6,19.5,9.7,710.0,102.0,2.1,3,10,7,0,2026-06-16T03:15:22.343394+05:30
Siliguri,West Bengal,26.7271,88.3953,24.2,97,0.0,990.8,8.75,19.8,105,49.5,40.6,10.1,457.0,109.0,4.5,3,5,7,1,2026-06-16T03:15:25.590725+05:30
Durgapur,West Bengal,23.5204,87.3119,27.5,94,0.0,991.2,9.0,33.8,170,82.9,77.8,29.9,648.0,67.0,42.9,7,5,7,1,2026-06-16T03:15:25.590764+05:30
Asansol,West Bengal,23.6739,86.9524,27.5,90,0.0,989.7,9.05,37.1,161,74.5,68.2,26.2,506.0,75.0,38.1,7,5,7,1,2026-06-16T03:15:25.590776+05:30
Pondicherry,Puducherry,11.9139,79.8145,28.8,76,0.0,1005.5,7.15,36.4,86,32.2,20.0,10.2,209.0,69.0,7.7,7,5,4,1,2026-06-16T03:15:25.590784+05:30
Port Blair,Andaman and Nicobar Islands,11.6234,92.7265,27.5,83,0.0,1007.0,7.95,43.9,37,14.3,8.1,0.2,85.0,43.0,0.4,7,5,4,1,2026-06-16T03:15:25.590793+05:30
Haridwar,Uttarakhand,29.9457,78.1642,22.9,89,0.0,970.6,7.6,27.0,88,78.5,57.4,42.5,388.0,43.0,12.8,3,5,7,1,2026-06-16T03:15:25.590801+05:30
Rishikesh,Uttarakhand,30.0869,78.2676,20.8,94,0.0,963.2,7.7,22.7,74,41.3,26.0,13.2,305.0,107.0,7.8,3,5,7,1,2026-06-16T03:15:25.590809+05:30
Nainital,Uttarakhand,29.3919,79.4542,16.0,67,0.0,803.2,7.85,31.0,85,41.1,31.1,31.6,295.0,28.0,2.9,3,5,7,0,2026-06-16T03:15:25.590816+05:30
Mussoorie,Uttarakhand,30.4599,78.0664,15.9,62,0.0,800.6,7.45,37.8,65,38.1,29.0,36.3,230.0,47.0,6.9,3,5,7,0,2026-06-16T03:15:25.590824+05:30
Dharamshala,Himachal Pradesh,32.219,76.3234,21.1,52,0.0,866.5,8.55,41.0,28,9.2,7.1,17.6,185.0,31.0,0.0,0,5,7,0,2026-06-16T03:15:25.590832+05:30
Dalhousie,Himachal Pradesh,32.5387,75.971,12.0,85,0.0,799.7,8.55,31.0,59,25.6,23.5,42.8,311.0,8.0,0.7,3,10,7,0,2026-06-16T03:15:25.590858+05:30
Patiala,Punjab,30.3398,76.3869,25.6,81,0.0,974.0,7.7,28.4,400,366.9,116.6,31.9,481.0,53.0,13.2,7,5,7,1,2026-06-16T03:15:25.590866+05:30
Bhatinda,Punjab,30.211,74.9455,28.8,64,0.0,979.0,8.3,23.4,164,205.8,82.0,38.2,334.0,41.0,10.4,7,5,7,1,2026-06-16T03:15:25.590873+05:30
Rohtak,Haryana,28.8955,76.6066,25.5,69,0.0,977.6,7.8,19.1,244,347.4,109.9,53.5,287.0,25.0,19.4,7,5,7,1,2026-06-16T03:15:25.590880+05:30
Panipat,Haryana,29.3909,76.9635,25.6,78,0.0,976.3,7.65,24.8,352,288.7,92.4,27.0,744.0,51.0,10.4,7,5,7,1,2026-06-16T03:15:25.590887+05:30
Mathura,Uttar Pradesh,27.4924,77.6737,25.1,73,0.0,982.4,8.0,23.8,634,428.4,90.8,21.9,417.0,40.0,3.2,7,5,7,1,2026-06-16T03:15:25.590894+05:30
Vrindavan,Uttar Pradesh,27.5823,77.7027,25.6,69,0.0,982.9,7.95,23.4,634,428.4,90.8,21.9,456.0,40.0,3.2,7,5,7,1,2026-06-16T03:15:25.590900+05:30
Ayodhya,Uttar Pradesh,26.7922,82.1998,27.4,76,0.0,990.7,8.45,26.3,159,182.5,97.1,62.6,391.0,5.0,11.5,7,5,7,1,2026-06-16T03:15:25.590907+05:30
Ratlam,Madhya Pradesh,23.3315,75.0367,27.0,73,0.0,952.4,8.5,39.2,77,29.5,19.8,6.6,169.0,53.0,11.8,7,5,7,1,2026-06-16T03:15:25.590914+05:30
Sagar,Madhya Pradesh,23.8388,78.7378,28.4,53,0.0,947.3,8.75,34.9,103,46.4,22.4,10.3,180.0,58.0,1.9,4,5,7,1,2026-06-16T03:15:25.590922+05:30
Satna,Madhya Pradesh,24.6005,80.8322,30.0,48,0.0,967.8,8.8,34.2,106,69.4,37.6,8.4,173.0,69.0,4.1,4,5,7,1,2026-06-16T03:15:25.590929+05:30
Akola,Maharashtra,20.7002,77.0082,30.6,52,0.0,972.9,8.8,43.2,81,29.7,19.8,9.0,142.0,67.0,12.6,0,5,7,1,2026-06-16T03:15:25.590938+05:30
Amravati,Maharashtra,20.9374,77.7796,30.1,49,0.0,964.8,8.8,54.7,86,41.2,26.5,12.7,225.0,63.0,11.1,0,5,7,1,2026-06-16T03:15:25.590946+05:30
Latur,Maharashtra,18.4088,76.5604,26.4,61,0.0,938.4,8.9,33.5,65,18.5,12.9,5.4,152.0,65.0,5.5,7,5,7,1,2026-06-16T03:15:25.590954+05:30
Nanded,Maharashtra,19.1383,77.3091,29.7,46,0.0,966.7,8.7,35.6,79,33.5,22.7,12.7,177.0,45.0,4.0,4,5,7,1,2026-06-16T03:15:25.590961+05:30
Gulbarga,Karnataka,17.3297,76.8343,27.1,64,0.0,956.8,8.9,41.0,68,13.8,10.4,6.6,156.0,60.0,5.1,7,5,7,1,2026-06-16T03:15:25.590968+05:30
Bidar,Karnataka,17.9104,77.5199,26.7,50,0.0,933.5,6.85,34.2,94,59.4,39.3,26.1,218.0,38.0,5.4,4,5,7,0,2026-06-16T03:15:25.590974+05:30
Hospet,Karnataka,15.2689,76.3909,24.6,81,0.0,954.8,6.45,33.8,57,15.5,9.3,6.6,156.0,39.0,2.1,3,5,7,1,2026-06-16T03:15:25.590981+05:30
Tirupur,Tamil Nadu,11.1085,77.3411,25.3,89,0.0,974.0,8.8,47.9,65,27.6,20.5,18.9,176.0,26.0,5.0,7,5,7,1,2026-06-16T03:15:25.590987+05:30
Alappuzha,Kerala,9.4981,76.3388,24.4,99,0.2,1009.3,7.55,33.8,60,22.5,13.8,9.8,364.0,42.0,3.5,6,0,4,1,2026-06-16T03:15:25.590994+05:30
Munnar,Kerala,10.0889,77.0595,16.1,89,0.0,855.3,7.5,29.5,52,13.3,10.5,7.9,138.0,29.0,1.6,3,10,7,0,2026-06-16T03:15:25.591001+05:30
Silchar,Assam,24.8333,92.7789,24.9,97,0.0,1003.2,8.95,26.3,69,20.1,17.2,6.4,254.0,82.0,3.4,3,5,4,1,2026-06-16T03:15:25.591008+05:30
Dibrugarh,Assam,27.4728,94.912,24.5,94,0.0,992.9,8.8,17.3,57,14.6,13.5,13.1,268.0,56.0,1.2,3,5,7,1,2026-06-16T03:15:25.591014+05:30
