city,state,latitude,longitude,temp,humidity,rain,pressure,uv_index,wind_gusts,aqi,pm10,pm2_5,mosquito_risk,arthritis_risk,migraine_risk,frizz_risk,updated_at
Delhi,Delhi,28.6139,77.209,21.6,57,0.0,986.7,7.15,37.8,768,795.3,138.3,0,5,7,0,2026-04-11T02:12:06.686467+05:30
Mumbai,Maharashtra,19.076,72.8777,28.6,79,0.0,1009.7,7.95,25.2,101,66.6,41.1,7,0,4,1,2026-04-11T02:12:06.686507+05:30
Bangalore,Karnataka,12.9716,77.5946,24.6,82,0.0,913.0,9.65,28.1,92,35.7,33.4,3,5,7,1,2026-04-11T02:12:06.686522+05:30
Hyderabad,Telangana,17.385,78.4867,28.1,59,0.0,954.5,9.25,27.0,103,83.8,53.2,4,5,7,1,2026-04-11T02:12:06.686532+05:30
Chennai,Tamil Nadu,13.0827,80.2707,28.4,84,0.0,1008.7,9.15,36.0,62,19.7,13.8,7,0,4,1,2026-04-11T02:12:06.686541+05:30
Kolkata,West Bengal,22.5726,88.3639,23.8,94,0.0,1007.7,8.75,18.7,154,56.0,41.4,3,5,4,1,2026-04-11T02:12:06.686550+05:30
Pune,Maharashtra,18.5204,73.8567,24.5,82,0.0,949.8,8.55,40.7,94,64.7,41.2,3,5,7,1,2026-04-11T02:12:06.686561+05:30
Ahmedabad,Gujarat,23.0225,72.5714,27.4,38,0.0,1004.8,8.05,21.6,74,48.8,25.0,4,5,4,0,2026-04-11T02:12:06.686569+05:30
Jaipur,Rajasthan,26.9124,75.7873,24.5,42,0.0,963.7,7.85,33.1,159,106.9,30.5,0,5,7,0,2026-04-11T02:12:06.686576+05:30
Lucknow,Uttar Pradesh,26.8467,80.9462,21.2,53,0.0,995.9,7.65,44.6,183,735.7,141.1,0,5,7,0,2026-04-11T02:12:06.686584+05:30
Kanpur,Uttar Pradesh,26.4499,80.3319,20.0,65,0.0,994.6,7.7,40.0,435,1009.6,146.2,3,5,7,0,2026-04-11T02:12:06.686590+05:30
Chandigarh,Chandigarh,30.7333,76.7794,18.8,64,0.0,972.0,7.1,32.0,75,17.3,16.4,3,5,7,0,2026-04-11T02:12:06.686598+05:30
Srinagar,Jammu and Kashmir,34.0837,74.7973,9.9,73,0.0,842.7,8.05,23.4,71,50.3,35.5,3,5,7,0,2026-04-11T02:12:06.686604+05:30
Jammu,Jammu and Kashmir,32.7266,74.857,17.9,77,0.0,977.1,7.75,27.0,65,39.6,31.1,3,5,7,0,2026-04-11T02:12:06.686611+05:30
Amritsar,Punjab,31.634,74.8723,20.1,70,0.0,985.5,7.7,30.6,73,75.7,26.1,3,5,7,0,2026-04-11T02:12:06.686618+05:30
Ludhiana,Punjab,30.901,75.8573,20.7,61,0.0,983.1,7.2,32.0,70,25.6,24.0,3,5,7,0,2026-04-11T02:12:06.686625+05:30
Jalandhar,Punjab,31.326,75.5762,19.9,67,0.0,984.4,7.5,26.6,74,43.8,20.4,3,5,7,0,2026-04-11T02:12:06.686634+05:30
Dehradun,Uttarakhand,30.6284,78.0322,11.6,57,0.0,829.4,7.55,36.4,54,12.3,10.2,0,5,7,0,2026-04-11T02:12:06.686641+05:30
Shimla,Himachal Pradesh,31.1048,77.1734,8.7,60,0.0,783.1,7.2,47.5,68,17.7,14.3,0,5,7,0,2026-04-11T02:12:06.686647+05:30
Manali,Himachal Pradesh,32.2396,77.1887,12.9,58,0.0,819.5,9.55,37.4,97,22.1,13.6,0,5,7,0,2026-04-11T02:12:06.686654+05:30
Gurgaon,Haryana,28.4595,77.0266,19.4,70,0.0,985.2,7.3,31.7,2186,2265.0,279.4,3,5,7,0,2026-04-11T02:12:06.686660+05:30
Noida,Uttar Pradesh,28.5355,77.391,21.2,61,0.0,988.1,7.2,37.4,2186,2265.0,279.4,3,5,7,0,2026-04-11T02:12:06.686667+05:30
Ghaziabad,Uttar Pradesh,28.6692,77.4538,20.0,63,0.0,986.2,7.15,39.2,593,670.6,122.9,3,5,7,0,2026-04-11T02:12:06.686673+05:30
Faridabad,Haryana,28.4089,77.3178,21.7,57,0.0,987.5,7.25,38.9,2186,2265.0,279.4,0,5,7,0,2026-04-11T02:12:06.686680+05:30
Meerut,Uttar Pradesh,28.9845,77.7064,18.8,67,0.0,984.6,7.05,39.6,593,670.6,122.9,3,5,7,0,2026-04-11T02:12:06.686686+05:30
Agra,Uttar Pradesh,27.1767,78.0081,20.2,64,0.0,991.3,7.55,31.7,1170,1449.1,173.7,3,5,7,0,2026-04-11T02:12:06.686692+05:30
Varanasi,Uttar Pradesh,25.3176,82.9739,20.3,55,0.0,1000.2,8.3,39.6,88,241.2,50.6,0,5,4,0,2026-04-11T02:12:06.686701+05:30
Prayagraj,Uttar Pradesh,25.4358,81.8463,21.3,57,0.0,998.9,8.15,40.7,96,329.7,64.7,0,5,7,0,2026-04-11T02:12:06.686708+05:30
Gorakhpur,Uttar Pradesh,26.7606,83.3732,20.5,44,0.0,998.7,8.1,34.6,94,374.4,74.5,0,5,7,0,2026-04-11T02:12:06.686716+05:30
Bareilly,Uttar Pradesh,28.367,79.4304,18.2,71,0.0,989.1,7.45,44.3,104,300.8,78.7,3,5,7,0,2026-04-11T02:12:06.686723+05:30
Aligarh,Uttar Pradesh,27.8974,78.088,19.4,66,0.0,988.9,7.35,46.4,1237,1579.5,229.1,3,5,7,0,2026-04-11T02:12:06.686729+05:30
Moradabad,Uttar Pradesh,28.8386,78.7733,18.3,70,0.0,986.0,7.25,40.0,127,203.5,62.2,3,5,7,0,2026-04-11T02:12:06.686735+05:30
Saharanpur,Uttar Pradesh,29.9637,77.546,19.1,59,0.0,978.3,6.85,42.5,88,39.9,19.3,0,5,7,0,2026-04-11T02:12:06.686741+05:30
Jhansi,Uttar Pradesh,25.4484,78.5685,22.8,41,0.0,981.3,8.1,26.6,75,19.1,12.0,0,5,7,0,2026-04-11T02:12:10.037336+05:30
Surat,Gujarat,21.1702,72.8311,26.8,59,0.0,1008.2,7.8,29.5,135,44.4,33.1,4,0,4,1,2026-04-11T02:12:10.037405+05:30
Vadodara,Gujarat,22.3072,73.1812,25.9,49,0.0,1006.4,8.05,16.6,74,31.8,23.5,4,5,4,0,2026-04-11T02:12:10.037421+05:30
Rajkot,Gujarat,22.3039,70.8022,26.0,66,0.0,997.5,7.75,33.8,73,42.1,31.3,7,5,7,1,2026-04-11T02:12:10.037433+05:30
Thane,Maharashtra,19.2183,72.9781,26.5,86,0.0,1009.1,7.95,39.2,101,66.6,41.1,7,0,4,1,2026-04-11T02:12:10.037444+05:30
Nagpur,Maharashtra,21.1458,79.0882,26.5,49,0.0,974.9,8.75,21.2,76,37.3,20.6,4,5,7,0,2026-04-11T02:12:10.037453+05:30
Nashik,Maharashtra,19.9975,73.7898,25.2,57,0.0,947.3,8.25,37.8,91,70.8,56.2,4,5,7,1,2026-04-11T02:12:10.037461+05:30
Aurangabad,Maharashtra,19.8762,75.3433,27.2,43,0.0,945.6,8.9,29.2,84,47.4,28.5,4,5,7,0,2026-04-11T02:12:10.037468+05:30
Solapur,Maharashtra,17.6599,75.9064,29.7,46,0.0,957.6,9.0,18.4,71,28.7,21.1,4,5,7,1,2026-04-11T02:12:10.037476+05:30
Kolhapur,Maharashtra,16.705,74.2433,22.8,74,0.0,948.8,9.05,44.6,92,67.5,43.9,3,5,7,1,2026-04-11T02:12:10.037485+05:30
Goa,Goa,15.2993,74.124,27.3,80,0.0,998.9,9.05,33.1,90,93.8,40.4,7,5,7,1,2026-04-11T02:12:10.037492+05:30
Jodhpur,Rajasthan,26.2389,73.0243,26.1,36,0.0,986.1,8.05,27.4,63,55.8,19.2,4,5,7,0,2026-04-11T02:12:10.037500+05:30
Udaipur,Rajasthan,24.5854,73.7125,22.5,39,0.0,950.0,8.6,37.1,47,55.4,17.4,0,5,7,0,2026-04-11T02:12:10.037508+05:30
Kota,Rajasthan,25.2138,75.8648,22.4,54,0.0,982.4,8.1,22.0,80,77.5,38.3,0,5,7,0,2026-04-11T02:12:10.037516+05:30
Bikaner,Rajasthan,28.0229,73.3119,26.1,39,0.0,985.5,7.9,32.8,64,36.3,15.4,4,5,7,0,2026-04-11T02:12:10.037524+05:30
Ajmer,Rajasthan,26.4499,74.6399,23.3,40,0.0,958.0,8.0,34.6,79,65.4,33.9,0,5,7,0,2026-04-11T02:12:10.037531+05:30
Gwalior,Madhya Pradesh,26.2183,78.1828,22.9,54,0.0,986.8,7.8,27.0,93,66.8,20.7,0,5,7,0,2026-04-11T02:12:10.037538+05:30
Indore,Madhya Pradesh,22.7196,75.8577,21.8,48,0.0,950.6,8.5,22.0,75,34.1,19.6,0,5,7,0,2026-04-11T02:12:10.037546+05:30
Bhopal,Madhya Pradesh,23.2599,77.4126,23.4,38,0.0,956.7,8.5,21.6,64,28.8,15.0,0,5,7,0,2026-04-11T02:12:10.037554+05:30
Jabalpur,Madhya Pradesh,23.1815,79.9864,24.7,43,0.0,964.3,8.6,16.6,74,38.8,18.7,0,5,7,0,2026-04-11T02:12:10.037561+05:30
Ujjain,Madhya Pradesh,23.1765,75.7885,22.5,46,0.0,956.7,8.4,19.4,62,34.5,19.6,0,5,7,0,2026-04-11T02:12:10.037569+05:30
Visakhapatnam,Andhra Pradesh,17.6868,83.2185,27.6,87,0.0,1005.2,9.15,41.8,92,26.5,20.8,7,5,4,1,2026-04-11T02:12:10.037577+05:30
Vijayawada,Andhra Pradesh,16.5062,80.648,27.8,87,0.0,1003.9,9.2,24.5,76,20.4,17.2,7,5,4,1,2026-04-11T02:12:10.037585+05:30
Guntur,Andhra Pradesh,16.3067,80.4365,27.8,88,0.0,1005.0,9.25,32.0,76,20.8,18.1,7,5,4,1,2026-04-11T02:12:10.037592+05:30
Nellore,Andhra Pradesh,14.4426,79.9865,27.6,86,0.0,1006.9,9.0,39.2,69,17.8,14.1,7,5,4,1,2026-04-11T02:12:10.037601+05:30
Kurnool,Andhra Pradesh,15.8281,78.0373,30.8,55,0.0,977.5,9.25,26.3,88,32.4,27.3,0,5,7,1,2026-04-11T02:12:10.037609+05:30
Kakinada,Andhra Pradesh,16.9891,82.2475,27.7,89,0.0,1009.1,9.2,35.3,68,23.5,16.3,7,0,4,1,2026-04-11T02:12:10.037616+05:30
Tirupati,Andhra Pradesh,13.6288,79.4192,26.3,86,0.0,993.6,9.1,31.7,88,19.4,17.1,7,5,7,1,2026-04-11T02:12:10.037624+05:30
Warangal,Telangana,17.9689,79.5941,28.4,74,0.0,979.7,9.1,25.9,109,63.1,47.7,7,5,7,1,2026-04-11T02:12:10.037631+05:30
Nizamabad,Telangana,18.6725,78.0941,26.9,60,0.0,965.8,9.0,18.4,82,46.2,29.0,4,5,7,1,2026-04-11T02:12:10.037639+05:30
Mysore,Karnataka,12.2958,76.6396,23.4,89,0.0,929.9,9.55,30.2,117,39.3,34.0,3,5,7,1,2026-04-11T02:12:10.037647+05:30
Mangalore,Karnataka,12.9141,74.856,29.6,80,0.0,1008.0,8.6,27.0,72,99.7,33.5,7,0,4,1,2026-04-11T02:12:10.037654+05:30
Hubli-Dharwad,Karnataka,15.3647,75.124,24.4,77,0.0,941.3,9.25,36.0,77,65.9,35.3,3,5,7,1,2026-04-11T02:12:10.037662+05:30
Belgaum,Karnataka,15.8497,74.4977,23.0,78,0.0,926.2,9.3,40.0,83,88.0,43.8,3,5,7,1,2026-04-11T02:12:13.389734+05:30
Coimbatore,Tamil Nadu,11.0168,76.9558,24.7,81,0.0,963.6,8.85,32.0,74,36.6,29.1,3,5,7,1,2026-04-11T02:12:13.389761+05:30
Madurai,Tamil Nadu,9.9252,78.1198,27.5,88,0.0,994.6,8.9,40.3,81,24.9,22.3,7,5,7,1,2026-04-11T02:12:13.389770+05:30
Trichy,Tamil Nadu,10.7905,78.7047,27.6,90,0.0,1001.5,8.9,24.8,66,20.1,17.7,7,5,4,1,2026-04-11T02:12:13.389778+05:30
Salem,Tamil Nadu,11.6643,78.146,27.7,81,0.0,978.9,8.7,15.8,81,21.8,19.8,7,5,7,1,2026-04-11T02:12:13.389786+05:30
Tirunelveli,Tamil Nadu,8.7139,77.7567,26.0,83,0.0,1004.5,9.2,45.4,72,31.7,26.7,7,5,4,1,2026-04-11T02:12:13.389794+05:30
Vellore,Tamil Nadu,12.9165,79.1325,26.3,78,0.0,986.2,9.5,31.3,94,23.5,21.0,7,5,7,1,2026-04-11T02:12:13.389801+05:30
Erode,Tamil Nadu,11.341,77.7172,28.8,75,0.0,990.8,8.1,27.4,73,36.2,32.8,7,5,7,1,2026-04-11T02:12:13.389808+05:30
Kochi,Kerala,9.9312,76.2673,26.5,86,0.0,1010.6,7.35,30.6,74,25.9,24.0,7,0,4,1,2026-04-11T02:12:13.389815+05:30
Thiruvananthapuram,Kerala,8.5241,76.9366,27.4,85,0.0,1009.2,9.05,32.8,67,30.6,17.5,7,0,4,1,2026-04-11T02:12:13.389822+05:30
Kozhikode,Kerala,11.2588,75.7804,27.4,87,0.0,1009.9,9.1,27.4,68,45.5,17.8,7,0,4,1,2026-04-11T02:12:13.389828+05:30
Thrissur,Kerala,10.5276,76.2144,26.0,90,0.0,1009.0,8.55,34.2,75,24.6,20.0,7,0,4,1,2026-04-11T02:12:13.389836+05:30
Kannur,Kerala,11.8745,75.3704,26.8,87,0.0,1009.1,8.15,31.3,69,61.9,22.6,7,0,4,1,2026-04-11T02:12:13.389843+05:30
Patna,Bihar,25.5941,85.1376,22.8,53,0.0,1002.1,8.45,31.7,70,59.1,30.6,0,5,4,0,2026-04-11T02:12:13.389850+05:30
Gaya,Bihar,24.7914,85.0002,22.7,49,0.0,996.0,8.55,33.5,75,53.7,27.1,0,5,7,0,2026-04-11T02:12:13.389856+05:30
Muzaffarpur,Bihar,26.1209,85.3647,20.4,49,0.0,1002.1,8.45,25.9,68,65.2,29.0,0,5,4,0,2026-04-11T02:12:13.389862+05:30
Bhagalpur,Bihar,25.2425,87.0117,22.5,60,0.0,1002.5,8.45,22.3,82,46.9,23.1,0,5,4,0,2026-04-11T02:12:13.389869+05:30
Ranchi,Jharkhand,23.3441,85.3096,20.6,48,0.0,939.0,9.05,32.8,80,59.5,24.6,0,5,7,0,2026-04-11T02:12:13.389876+05:30
Jamshedpur,Jharkhand,22.8046,86.2029,24.0,75,0.0,992.4,8.85,17.6,128,96.6,64.5,3,5,7,1,2026-04-11T02:12:13.389882+05:30
Dhanbad,Jharkhand,23.7957,86.4304,20.8,64,0.0,981.5,8.8,26.3,131,101.7,75.0,3,5,7,0,2026-04-11T02:12:13.389889+05:30
Bokaro,Jharkhand,23.6693,86.1511,23.1,49,0.0,985.9,8.8,27.0,120,97.1,71.2,0,5,7,0,2026-04-11T02:12:13.389895+05:30
Bhubaneswar,Odisha,20.2961,85.8245,26.7,95,0.0,1004.1,9.0,27.0,121,38.2,33.1,7,5,4,1,2026-04-11T02:12:13.389903+05:30
Cuttack,Odisha,20.4625,85.8828,26.8,97,0.0,1005.8,9.05,20.2,121,38.2,33.1,7,5,4,1,2026-04-11T02:12:13.389910+05:30
Rourkela,Odisha,22.2604,84.8536,24.1,71,0.0,986.7,8.75,16.2,80,69.6,42.5,3,5,7,1,2026-04-11T02:12:13.389916+05:30
Raipur,Chhattisgarh,21.2514,81.6296,25.8,35,0.0,976.2,8.85,21.6,121,82.2,61.9,4,5,7,0,2026-04-11T02:12:13.389922+05:30
Bhilai,Chhattisgarh,21.1938,81.3509,24.5,39,0.0,976.5,8.85,19.1,117,67.3,46.9,0,5,7,0,2026-04-11T02:12:13.389929+05:30
Guwahati,Assam,26.1158,91.7086,21.5,88,0.0,1003.6,8.3,23.4,83,45.3,39.7,3,5,4,1,2026-04-11T02:12:13.389935+05:30
Agartala,Tripura,23.8315,91.2868,20.6,96,0.0,1007.9,8.6,25.6,152,88.7,73.6,3,5,4,1,2026-04-11T02:12:13.389941+05:30
Shillong,Meghalaya,25.5788,91.8933,10.2,70,0.0,854.5,8.75,56.5,72,36.6,29.8,3,5,7,0,2026-04-11T02:12:13.389947+05:30
Imphal,Manipur,24.817,93.9368,14.7,85,0.0,923.7,8.95,52.9,91,60.3,46.2,3,10,7,0,2026-04-11T02:12:13.389953+05:30
Aizawl,Mizoram,23.7271,92.7176,15.2,88,0.0,892.9,8.8,41.4,72,57.3,29.9,3,10,7,0,2026-04-11T02:12:13.389960+05:30
Kohima,Nagaland,25.6701,94.1077,11.0,88,0.0,853.4,8.85,77.0,65,40.6,29.5,3,10,7,0,2026-04-11T02:12:13.389966+05:30
Gangtok,Sikkim,27.3314,88.6138,11.7,89,0.1,835.5,8.2,18.7,70,37.3,30.3,6,10,7,0,2026-04-11T02:12:13.389972+05:30
Siliguri,West Bengal,26.7271,88.3953,18.6,62,0.0,995.3,8.35,18.0,102,63.8,51.9,3,5,7,0,2026-04-11T02:12:16.746034+05:30
Durgapur,West Bengal,23.5204,87.3119,24.0,60,0.0,996.9,8.75,21.6,128,85.2,63.6,0,5,7,0,2026-04-11T02:12:16.746068+05:30
Asansol,West Bengal,23.6739,86.9524,24.3,47,0.0,995.4,8.8,22.3,106,72.2,48.0,0,5,7,0,2026-04-11T02:12:16.746077+05:30
Pondicherry,Puducherry,11.9139,79.8145,26.9,92,0.0,1010.1,9.35,33.5,59,19.3,13.1,7,0,4,1,2026-04-11T02:12:16.746085+05:30
Port Blair,Andaman and Nicobar Islands,11.6234,92.7265,28.9,75,0.0,1007.5,9.25,22.3,34,4.2,2.9,7,5,4,1,2026-04-11T02:12:16.746093+05:30
Haridwar,Uttarakhand,29.9457,78.1642,15.5,82,0.0,976.4,7.0,41.4,70,28.7,28.2,3,10,7,0,2026-04-11T02:12:16.746100+05:30
Rishikesh,Uttarakhand,30.0869,78.2676,16.2,74,0.0,969.0,7.05,40.0,84,28.2,22.5,3,5,7,0,2026-04-11T02:12:16.746107+05:30
Nainital,Uttarakhand,29.3919,79.4542,15.6,46,0.0,805.3,7.9,69.1,85,59.6,24.1,0,5,7,0,2026-04-11T02:12:16.746113+05:30
Mussoorie,Uttarakhand,30.4599,78.0664,13.3,61,0.0,802.0,7.45,52.2,61,27.2,26.1,3,5,7,0,2026-04-11T02:12:16.746119+05:30
Dharamshala,Himachal Pradesh,32.219,76.3234,17.0,41,0.0,871.0,7.65,22.7,103,18.1,10.0,0,5,7,0,2026-04-11T02:12:16.746125+05:30
Dalhousie,Himachal Pradesh,32.5387,75.971,12.8,57,0.0,804.1,7.65,23.8,57,27.5,21.9,0,5,7,0,2026-04-11T02:12:16.746133+05:30
Patiala,Punjab,30.3398,76.3869,19.7,63,0.0,982.0,7.05,34.6,756,799.1,91.0,3,5,7,0,2026-04-11T02:12:16.746139+05:30
Bhatinda,Punjab,30.211,74.9455,21.0,61,0.0,988.4,7.4,29.9,73,52.0,24.3,3,5,7,0,2026-04-11T02:12:16.746145+05:30
Rohtak,Haryana,28.8955,76.6066,19.9,62,0.0,985.6,7.2,33.1,1111,1046.8,151.8,3,5,7,0,2026-04-11T02:12:16.746152+05:30
Panipat,Haryana,29.3909,76.9635,19.9,60,0.0,983.9,7.0,35.6,2040,1907.3,230.5,0,5,7,0,2026-04-11T02:12:16.746157+05:30
Mathura,Uttar Pradesh,27.4924,77.6737,24.0,46,0.0,990.4,7.5,31.7,1298,1493.8,190.0,0,5,7,0,2026-04-11T02:12:16.746163+05:30
Vrindavan,Uttar Pradesh,27.5823,77.7027,20.0,64,0.0,990.7,7.45,38.2,1298,1493.8,190.0,3,5,7,0,2026-04-11T02:12:16.746169+05:30
Ayodhya,Uttar Pradesh,26.7922,82.1998,20.2,51,0.0,997.2,7.85,42.8,99,577.4,113.9,0,5,7,0,2026-04-11T02:12:16.746176+05:30
Ratlam,Madhya Pradesh,23.3315,75.0367,22.0,52,0.0,957.3,8.35,20.2,65,31.3,17.6,0,5,7,0,2026-04-11T02:12:16.746182+05:30
Sagar,Madhya Pradesh,23.8388,78.7378,23.7,36,0.0,953.3,8.5,28.1,66,31.4,15.0,0,5,7,0,2026-04-11T02:12:16.746188+05:30
Satna,Madhya Pradesh,24.6005,80.8322,22.9,39,0.0,974.5,8.5,34.2,90,23.1,14.0,0,5,7,0,2026-04-11T02:12:16.746194+05:30
Akola,Maharashtra,20.7002,77.0082,28.4,38,0.0,976.7,8.7,21.6,85,52.5,33.4,4,5,7,0,2026-04-11T02:12:16.746200+05:30
Amravati,Maharashtra,20.9374,77.7796,26.2,38,0.0,968.5,8.75,22.0,82,41.8,24.1,4,5,7,0,2026-04-11T02:12:16.746207+05:30
Latur,Maharashtra,18.4088,76.5604,26.8,55,0.0,940.7,9.0,16.6,73,45.5,28.5,4,5,7,1,2026-04-11T02:12:16.746213+05:30
Nanded,Maharashtra,19.1383,77.3091,27.8,55,0.0,969.4,8.9,13.0,75,47.0,30.4,4,5,7,1,2026-04-11T02:12:16.746218+05:30
Gulbarga,Karnataka,17.3297,76.8343,30.1,43,0.0,959.4,9.1,18.4,72,28.2,20.8,0,5,7,1,2026-04-11T02:12:16.746224+05:30
Bidar,Karnataka,17.9104,77.5199,27.8,48,0.0,936.6,9.05,28.1,77,46.0,28.2,4,5,7,0,2026-04-11T02:12:16.746230+05:30
Hospet,Karnataka,15.2689,76.3909,29.1,60,0.0,957.0,9.25,25.9,87,45.9,32.2,4,5,7,1,2026-04-11T02:12:16.746235+05:30
Tirupur,Tamil Nadu,11.1085,77.3411,25.7,81,0.0,977.3,9.25,35.6,81,45.8,40.5,7,5,7,1,2026-04-11T02:12:16.746241+05:30
Alappuzha,Kerala,9.4981,76.3388,26.2,86,0.0,1010.6,7.4,28.4,75,26.4,17.3,7,0,4,1,2026-04-11T02:12:16.746246+05:30
Munnar,Kerala,10.0889,77.0595,20.9,89,0.0,857.7,8.05,37.4,79,24.6,22.9,3,5,7,1,2026-04-11T02:12:16.746253+05:30
Silchar,Assam,24.8333,92.7789,19.7,92,0.0,1007.7,8.6,24.5,124,71.5,54.4,3,10,4,1,2026-04-11T02:12:16.746259+05:30
Dibrugarh,Assam,27.4728,94.912,19.6,94,0.0,998.6,8.4,19.1,92,24.1,19.2,3,10,7,1,2026-04-11T02:12:16.746265+05:30
