city,state,latitude,longitude,temp,humidity,rain,pressure,uv_index,wind_gusts,aqi,pm10,pm2_5,mosquito_risk,arthritis_risk,migraine_risk,frizz_risk,updated_at
Delhi,Delhi,28.6139,77.209,31.0,36,0.0,984.8,6.85,23.8,151,203.5,49.4,0,5,7,0,2026-04-01T16:30:54.960004+05:30
Mumbai,Maharashtra,19.076,72.8777,27.4,76,0.0,1007.1,7.85,23.8,64,29.9,16.3,7,5,4,1,2026-04-01T16:30:54.960045+05:30
Bangalore,Karnataka,12.9716,77.5946,33.5,23,0.0,910.1,9.55,28.8,88,22.3,16.9,0,5,7,0,2026-04-01T16:30:54.960060+05:30
Hyderabad,Telangana,17.385,78.4867,34.7,34,0.0,951.4,9.1,27.0,106,30.2,24.2,0,5,7,1,2026-04-01T16:30:54.960070+05:30
Chennai,Tamil Nadu,13.0827,80.2707,31.4,50,0.0,1006.1,9.15,29.5,44,9.5,7.1,0,5,4,1,2026-04-01T16:30:54.960078+05:30
Kolkata,West Bengal,22.5726,88.3639,32.8,57,0.0,1004.9,8.6,19.4,143,59.0,42.0,0,5,4,1,2026-04-01T16:30:54.960087+05:30
Pune,Maharashtra,18.5204,73.8567,34.2,41,0.0,947.1,8.5,32.0,118,42.5,34.8,0,5,7,1,2026-04-01T16:30:54.960098+05:30
Ahmedabad,Gujarat,23.0225,72.5714,36.2,25,0.0,999.9,7.85,25.9,88,32.7,15.0,0,5,10,0,2026-04-01T16:30:54.960105+05:30
Jaipur,Rajasthan,26.9124,75.7873,29.3,46,0.0,960.7,6.7,31.0,120,122.9,21.9,4,5,7,1,2026-04-01T16:30:54.960113+05:30
Lucknow,Uttar Pradesh,26.8467,80.9462,35.6,27,0.0,992.6,7.15,27.4,91,69.6,18.3,0,5,10,0,2026-04-01T16:30:54.960121+05:30
Kanpur,Uttar Pradesh,26.4499,80.3319,33.4,37,0.0,991.5,7.35,28.8,138,192.8,30.2,0,5,7,1,2026-04-01T16:30:54.960128+05:30
Chandigarh,Chandigarh,30.7333,76.7794,27.6,47,0.0,971.1,6.55,16.6,81,55.6,17.1,4,5,7,0,2026-04-01T16:30:54.960136+05:30
Srinagar,Jammu and Kashmir,34.0837,74.7973,17.0,54,0.0,843.9,7.1,20.5,85,31.7,15.1,0,5,7,0,2026-04-01T16:30:54.960142+05:30
Jammu,Jammu and Kashmir,32.7266,74.857,29.6,35,0.0,975.3,6.4,20.5,80,64.5,20.8,4,5,7,0,2026-04-01T16:30:54.960149+05:30
Amritsar,Punjab,31.634,74.8723,28.9,39,0.0,983.4,6.9,14.4,120,106.2,29.7,4,5,7,0,2026-04-01T16:30:54.960156+05:30
Ludhiana,Punjab,30.901,75.8573,28.7,38,0.0,981.4,6.65,18.4,121,57.7,21.5,4,5,7,0,2026-04-01T16:30:54.960162+05:30
Jalandhar,Punjab,31.326,75.5762,28.7,39,0.0,982.4,6.75,14.8,111,71.9,23.7,4,5,7,0,2026-04-01T16:30:54.960170+05:30
Dehradun,Uttarakhand,30.6284,78.0322,19.2,48,0.0,832.8,6.4,32.0,66,32.1,9.5,0,5,7,0,2026-04-01T16:30:54.960176+05:30
Shimla,Himachal Pradesh,31.1048,77.1734,16.8,49,0.0,787.3,6.1,30.2,80,45.8,17.2,0,5,7,0,2026-04-01T16:30:54.960183+05:30
Manali,Himachal Pradesh,32.2396,77.1887,17.1,71,0.0,822.4,8.45,29.9,94,14.0,5.5,3,5,7,0,2026-04-01T16:30:54.960190+05:30
Gurgaon,Haryana,28.4595,77.0266,30.0,44,0.0,983.4,6.95,30.6,512,468.5,64.7,4,5,7,1,2026-04-01T16:30:54.960199+05:30
Noida,Uttar Pradesh,28.5355,77.391,31.5,34,0.0,986.3,6.85,22.3,512,468.5,64.7,0,5,7,0,2026-04-01T16:30:54.960205+05:30
Ghaziabad,Uttar Pradesh,28.6692,77.4538,31.1,35,0.0,984.5,6.85,22.7,134,192.3,44.4,0,5,7,0,2026-04-01T16:30:54.960211+05:30
Faridabad,Haryana,28.4089,77.3178,30.6,38,0.0,985.5,6.9,26.6,512,468.5,64.7,0,5,7,0,2026-04-01T16:30:54.960218+05:30
Meerut,Uttar Pradesh,28.9845,77.7064,31.3,36,0.0,983.2,6.5,24.1,134,192.3,44.4,0,5,7,0,2026-04-01T16:30:54.960224+05:30
Agra,Uttar Pradesh,27.1767,78.0081,30.8,41,0.0,989.2,7.25,28.8,442,244.9,34.8,0,5,7,0,2026-04-01T16:30:54.960230+05:30
Varanasi,Uttar Pradesh,25.3176,82.9739,35.0,36,0.0,996.7,7.55,25.6,99,36.9,17.3,0,5,7,1,2026-04-01T16:30:54.960238+05:30
Prayagraj,Uttar Pradesh,25.4358,81.8463,35.1,32,0.0,995.2,7.9,36.0,70,34.8,17.3,0,5,10,0,2026-04-01T16:30:54.960246+05:30
Gorakhpur,Uttar Pradesh,26.7606,83.3732,33.5,33,0.0,996.0,7.8,23.8,126,25.6,14.4,0,5,7,0,2026-04-01T16:30:54.960252+05:30
Bareilly,Uttar Pradesh,28.367,79.4304,33.6,26,0.0,987.4,6.95,27.4,102,99.9,28.2,0,5,7,0,2026-04-01T16:30:54.960258+05:30
Aligarh,Uttar Pradesh,27.8974,78.088,32.3,32,0.0,987.1,7.0,21.6,294,314.8,47.5,0,5,7,0,2026-04-01T16:30:54.960264+05:30
Moradabad,Uttar Pradesh,28.8386,78.7733,32.3,30,0.0,984.8,6.85,27.4,115,106.2,30.9,0,5,7,0,2026-04-01T16:30:54.960270+05:30
Saharanpur,Uttar Pradesh,29.9637,77.546,27.8,49,0.0,977.8,6.2,21.2,96,63.3,24.4,4,5,7,1,2026-04-01T16:30:54.960276+05:30
Jhansi,Uttar Pradesh,25.4484,78.5685,34.5,30,0.0,977.1,7.8,32.0,62,41.4,17.0,0,5,7,0,2026-04-01T16:30:58.263717+05:30
Surat,Gujarat,21.1702,72.8311,30.8,48,0.0,1005.8,7.65,25.2,88,44.2,32.6,0,5,4,1,2026-04-01T16:30:58.263747+05:30
Vadodara,Gujarat,22.3072,73.1812,36.3,22,0.0,1002.3,7.9,29.2,101,27.2,17.1,0,5,7,0,2026-04-01T16:30:58.263758+05:30
Rajkot,Gujarat,22.3039,70.8022,33.1,29,0.0,993.0,7.25,33.8,85,21.7,13.2,0,5,7,0,2026-04-01T16:30:58.263766+05:30
Thane,Maharashtra,19.2183,72.9781,29.4,61,0.0,1006.6,7.85,34.2,64,29.9,16.3,7,5,4,1,2026-04-01T16:30:58.263774+05:30
Nagpur,Maharashtra,21.1458,79.0882,26.0,72,0.0,973.8,8.6,48.6,163,30.5,23.9,7,5,7,1,2026-04-01T16:30:58.263781+05:30
Nashik,Maharashtra,19.9975,73.7898,32.5,42,0.0,944.3,8.1,32.0,58,30.6,21.2,0,5,7,1,2026-04-01T16:30:58.263789+05:30
Aurangabad,Maharashtra,19.8762,75.3433,32.7,39,0.0,943.0,8.8,45.7,109,43.3,33.1,0,5,7,1,2026-04-01T16:30:58.263795+05:30
Solapur,Maharashtra,17.6599,75.9064,36.6,27,0.0,954.6,8.9,25.2,113,32.0,26.1,0,5,10,0,2026-04-01T16:30:58.263803+05:30
Kolhapur,Maharashtra,16.705,74.2433,30.4,56,0.0,946.8,8.95,34.2,146,43.4,37.1,0,5,7,1,2026-04-01T16:30:58.263810+05:30
Goa,Goa,15.2993,74.124,31.2,67,0.0,996.4,8.85,32.8,70,20.2,15.6,3,5,7,1,2026-04-01T16:30:58.263817+05:30
Jodhpur,Rajasthan,26.2389,73.0243,33.3,28,0.0,982.1,7.75,33.1,102,79.6,14.7,0,5,7,0,2026-04-01T16:30:58.263824+05:30
Udaipur,Rajasthan,24.5854,73.7125,32.8,25,0.0,945.7,8.4,36.7,54,26.0,9.9,0,5,7,0,2026-04-01T16:30:58.263831+05:30
Kota,Rajasthan,25.2138,75.8648,35.5,28,0.0,977.3,7.45,22.7,60,36.6,15.6,0,5,10,0,2026-04-01T16:30:58.263838+05:30
Bikaner,Rajasthan,28.0229,73.3119,33.6,18,0.0,981.3,6.85,19.4,50,48.2,12.8,0,5,7,0,2026-04-01T16:30:58.263845+05:30
Ajmer,Rajasthan,26.4499,74.6399,32.8,26,0.0,954.1,7.4,26.6,59,34.9,11.8,0,5,7,0,2026-04-01T16:30:58.263852+05:30
Gwalior,Madhya Pradesh,26.2183,78.1828,32.1,37,0.0,983.7,7.5,35.3,75,31.0,12.9,0,5,7,0,2026-04-01T16:30:58.263858+05:30
Indore,Madhya Pradesh,22.7196,75.8577,34.6,28,0.0,946.6,8.3,35.3,81,33.6,24.3,0,5,7,0,2026-04-01T16:30:58.263865+05:30
Bhopal,Madhya Pradesh,23.2599,77.4126,32.7,37,0.0,953.1,8.25,39.2,68,26.0,17.9,0,5,7,1,2026-04-01T16:30:58.263871+05:30
Jabalpur,Madhya Pradesh,23.1815,79.9864,35.0,29,0.0,960.5,8.2,40.7,94,23.7,16.3,0,5,7,0,2026-04-01T16:30:58.263878+05:30
Ujjain,Madhya Pradesh,23.1765,75.7885,34.8,28,0.0,952.1,8.2,30.2,70,31.9,22.8,0,5,7,0,2026-04-01T16:30:58.263885+05:30
Visakhapatnam,Andhra Pradesh,17.6868,83.2185,30.5,62,0.0,1003.2,9.05,35.6,72,19.2,14.4,3,5,4,1,2026-04-01T16:30:58.263892+05:30
Vijayawada,Andhra Pradesh,16.5062,80.648,34.9,43,0.0,1000.6,9.05,29.5,63,16.8,12.3,0,5,4,1,2026-04-01T16:30:58.263900+05:30
Guntur,Andhra Pradesh,16.3067,80.4365,34.0,42,0.0,1002.1,9.1,29.9,62,18.0,12.9,0,5,4,1,2026-04-01T16:30:58.263907+05:30
Nellore,Andhra Pradesh,14.4426,79.9865,32.5,47,0.0,1004.6,9.2,29.9,47,11.9,8.3,0,5,4,1,2026-04-01T16:30:58.263914+05:30
Kurnool,Andhra Pradesh,15.8281,78.0373,37.4,28,0.0,973.9,9.1,23.0,80,25.0,18.6,0,5,10,0,2026-04-01T16:30:58.263922+05:30
Kakinada,Andhra Pradesh,16.9891,82.2475,33.0,47,0.0,1006.3,9.05,35.3,53,11.2,7.9,0,5,4,1,2026-04-01T16:30:58.263928+05:30
Tirupati,Andhra Pradesh,13.6288,79.4192,34.7,33,0.0,989.4,9.35,31.7,60,16.9,13.2,0,5,7,1,2026-04-01T16:30:58.263935+05:30
Warangal,Telangana,17.9689,79.5941,35.4,38,0.0,976.6,8.95,30.6,111,38.0,30.9,0,5,10,1,2026-04-01T16:30:58.263942+05:30
Nizamabad,Telangana,18.6725,78.0941,36.3,30,0.0,962.4,8.85,23.0,134,35.3,27.5,0,5,10,0,2026-04-01T16:30:58.263949+05:30
Mysore,Karnataka,12.2958,76.6396,33.3,26,0.0,926.5,9.5,27.7,122,31.0,23.8,0,5,7,0,2026-04-01T16:30:58.263956+05:30
Mangalore,Karnataka,12.9141,74.856,29.7,80,0.0,1004.2,9.05,22.3,93,31.4,24.5,7,5,4,1,2026-04-01T16:30:58.263962+05:30
Hubli-Dharwad,Karnataka,15.3647,75.124,27.4,67,0.0,939.6,9.15,37.4,124,41.3,32.9,7,5,7,1,2026-04-01T16:30:58.263969+05:30
Belgaum,Karnataka,15.8497,74.4977,26.1,77,0.0,924.5,9.1,26.6,142,39.1,33.6,7,5,7,1,2026-04-01T16:31:01.600894+05:30
Coimbatore,Tamil Nadu,11.0168,76.9558,35.3,23,0.0,959.2,9.45,34.2,75,19.0,12.1,0,5,10,0,2026-04-01T16:31:01.600927+05:30
Madurai,Tamil Nadu,9.9252,78.1198,36.2,28,0.0,990.0,9.0,24.8,59,14.1,7.5,0,5,10,0,2026-04-01T16:31:01.600939+05:30
Trichy,Tamil Nadu,10.7905,78.7047,35.0,31,0.0,997.2,9.2,26.3,56,18.7,14.9,0,5,7,0,2026-04-01T16:31:01.600947+05:30
Salem,Tamil Nadu,11.6643,78.146,36.2,28,0.0,974.5,9.4,31.0,79,25.4,18.8,0,5,10,0,2026-04-01T16:31:01.600955+05:30
Tirunelveli,Tamil Nadu,8.7139,77.7567,37.4,26,0.0,999.8,9.35,41.0,54,12.9,6.7,0,5,10,0,2026-04-01T16:31:01.600963+05:30
Vellore,Tamil Nadu,12.9165,79.1325,33.8,32,0.0,982.6,9.4,32.8,63,13.9,9.4,0,5,7,0,2026-04-01T16:31:01.600970+05:30
Erode,Tamil Nadu,11.341,77.7172,36.8,30,0.0,985.8,9.3,21.2,54,21.5,15.8,0,5,10,1,2026-04-01T16:31:01.600977+05:30
Kochi,Kerala,9.9312,76.2673,29.7,77,0.0,1005.6,9.15,28.4,129,26.9,22.5,7,5,4,1,2026-04-01T16:31:01.600984+05:30
Thiruvananthapuram,Kerala,8.5241,76.9366,29.5,75,0.0,1005.1,9.15,28.4,106,16.1,13.7,7,5,4,1,2026-04-01T16:31:01.600991+05:30
Kozhikode,Kerala,11.2588,75.7804,30.6,73,0.0,1005.2,9.15,25.9,66,24.7,18.2,3,5,4,1,2026-04-01T16:31:01.600997+05:30
Thrissur,Kerala,10.5276,76.2144,32.0,66,0.0,1004.0,9.2,33.8,98,22.6,16.1,3,5,4,1,2026-04-01T16:31:01.601004+05:30
Kannur,Kerala,11.8745,75.3704,30.9,71,0.0,1004.6,9.1,26.3,82,33.4,25.9,3,5,4,1,2026-04-01T16:31:01.601011+05:30
Patna,Bihar,25.5941,85.1376,34.5,37,0.0,999.3,8.2,25.2,164,22.1,12.4,0,5,7,1,2026-04-01T16:31:01.601019+05:30
Gaya,Bihar,24.7914,85.0002,33.4,40,0.0,993.1,7.95,31.3,103,45.5,17.8,0,5,7,1,2026-04-01T16:31:01.601025+05:30
Muzaffarpur,Bihar,26.1209,85.3647,34.0,38,0.0,998.9,8.15,39.2,167,30.7,20.2,0,5,7,1,2026-04-01T16:31:01.601032+05:30
Bhagalpur,Bihar,25.2425,87.0117,31.1,58,0.0,1000.2,8.25,32.0,160,46.1,32.9,0,5,4,1,2026-04-01T16:31:01.601039+05:30
Ranchi,Jharkhand,23.3441,85.3096,30.0,39,0.0,938.6,8.85,31.3,128,72.2,26.7,4,5,7,0,2026-04-01T16:31:01.601046+05:30
Jamshedpur,Jharkhand,22.8046,86.2029,36.2,29,0.0,989.4,8.7,20.5,161,66.1,32.8,0,5,10,0,2026-04-01T16:31:01.601052+05:30
Dhanbad,Jharkhand,23.7957,86.4304,35.2,28,0.0,978.9,8.6,23.8,162,68.2,31.4,0,5,10,0,2026-04-01T16:31:01.601059+05:30
Bokaro,Jharkhand,23.6693,86.1511,34.7,27,0.0,983.1,8.6,28.4,152,69.8,31.2,0,5,7,0,2026-04-01T16:31:01.601066+05:30
Bhubaneswar,Odisha,20.2961,85.8245,33.8,48,0.0,1001.7,8.85,30.2,103,39.2,29.0,0,5,4,1,2026-04-01T16:31:01.601073+05:30
Cuttack,Odisha,20.4625,85.8828,35.2,43,0.0,1003.0,8.9,24.8,103,39.2,29.0,0,5,7,1,2026-04-01T16:31:01.601080+05:30
Rourkela,Odisha,22.2604,84.8536,35.7,32,0.0,984.0,8.6,14.0,169,80.8,35.3,0,5,10,1,2026-04-01T16:31:01.601087+05:30
Raipur,Chhattisgarh,21.2514,81.6296,36.5,26,0.0,973.3,8.7,18.0,151,29.3,22.1,0,5,10,0,2026-04-01T16:31:01.601093+05:30
Bhilai,Chhattisgarh,21.1938,81.3509,36.8,26,0.0,973.6,8.7,19.1,129,27.9,22.0,0,5,10,0,2026-04-01T16:31:01.601100+05:30
Guwahati,Assam,26.1158,91.7086,26.9,78,0.0,1000.1,8.05,34.6,112,36.4,29.3,7,5,4,1,2026-04-01T16:31:01.601107+05:30
Agartala,Tripura,23.8315,91.2868,31.4,59,0.0,1004.9,8.35,23.4,104,41.3,32.2,0,5,4,1,2026-04-01T16:31:01.601114+05:30
Shillong,Meghalaya,25.5788,91.8933,17.1,76,0.0,855.7,8.45,58.3,88,41.4,31.3,3,5,7,0,2026-04-01T16:31:01.601120+05:30
Imphal,Manipur,24.817,93.9368,20.8,75,0.0,922.9,8.7,63.4,98,42.0,30.0,3,5,7,1,2026-04-01T16:31:01.601127+05:30
Aizawl,Mizoram,23.7271,92.7176,24.1,61,0.0,893.4,8.6,41.4,92,38.5,25.9,3,5,7,1,2026-04-01T16:31:01.601134+05:30
Kohima,Nagaland,25.6701,94.1077,17.7,81,0.0,854.4,8.55,81.7,86,37.4,27.0,3,10,7,0,2026-04-01T16:31:01.601141+05:30
Gangtok,Sikkim,27.3314,88.6138,18.4,74,0.0,836.8,8.45,20.2,104,34.5,26.0,3,5,7,0,2026-04-01T16:31:01.601148+05:30
Siliguri,West Bengal,26.7271,88.3953,23.9,79,0.0,992.7,8.05,32.4,154,65.0,51.1,3,5,7,1,2026-04-01T16:31:04.911596+05:30
Durgapur,West Bengal,23.5204,87.3119,35.4,32,0.0,993.6,8.55,21.2,155,64.3,34.9,0,5,10,1,2026-04-01T16:31:04.911629+05:30
Asansol,West Bengal,23.6739,86.9524,35.0,32,0.0,992.2,8.6,22.0,153,65.9,33.2,0,5,7,0,2026-04-01T16:31:04.911639+05:30
Pondicherry,Puducherry,11.9139,79.8145,32.0,52,0.0,1006.6,8.6,26.6,40,9.1,6.4,0,5,4,1,2026-04-01T16:31:04.911648+05:30
Port Blair,Andaman and Nicobar Islands,11.6234,92.7265,27.7,83,0.0,1006.8,3.85,13.0,42,16.2,14.4,7,5,0,1,2026-04-01T16:31:04.911657+05:30
Haridwar,Uttarakhand,29.9457,78.1642,28.8,40,0.0,976.3,6.6,28.4,76,41.6,17.8,4,5,7,0,2026-04-01T16:31:04.911665+05:30
Rishikesh,Uttarakhand,30.0869,78.2676,28.5,36,0.0,969.3,6.6,32.0,77,34.5,12.6,4,5,7,0,2026-04-01T16:31:04.911673+05:30
Nainital,Uttarakhand,29.3919,79.4542,23.1,36,0.0,809.1,7.45,36.7,94,53.6,19.8,0,5,7,0,2026-04-01T16:31:04.911680+05:30
Mussoorie,Uttarakhand,30.4599,78.0664,19.8,43,0.0,805.7,6.4,38.9,72,44.4,14.5,0,5,7,0,2026-04-01T16:31:04.911687+05:30
Dharamshala,Himachal Pradesh,32.219,76.3234,22.5,51,0.0,871.8,6.25,24.5,72,38.0,12.7,0,5,7,0,2026-04-01T16:31:04.911695+05:30
Dalhousie,Himachal Pradesh,32.5387,75.971,20.8,43,0.0,806.9,5.7,20.9,74,37.6,12.1,0,5,3,0,2026-04-01T16:31:04.911702+05:30
Patiala,Punjab,30.3398,76.3869,28.8,40,0.0,980.8,5.7,16.2,129,117.3,27.2,4,5,3,0,2026-04-01T16:31:04.911709+05:30
Bhatinda,Punjab,30.211,74.9455,28.2,43,0.0,985.2,6.05,24.1,110,129.0,30.6,4,5,7,0,2026-04-01T16:31:04.911716+05:30
Rohtak,Haryana,28.8955,76.6066,29.4,45,0.0,983.8,6.6,26.3,168,231.9,48.9,4,5,7,1,2026-04-01T16:31:04.911722+05:30
Panipat,Haryana,29.3909,76.9635,29.5,45,0.0,982.6,6.25,15.1,161,181.6,47.1,4,5,7,1,2026-04-01T16:31:04.911729+05:30
Mathura,Uttar Pradesh,27.4924,77.6737,29.7,47,0.0,988.6,7.15,30.6,411,186.3,31.8,4,5,7,1,2026-04-01T16:31:04.911736+05:30
Vrindavan,Uttar Pradesh,27.5823,77.7027,30.2,44,0.0,989.3,7.1,26.3,411,186.3,31.8,0,5,7,1,2026-04-01T16:31:04.911743+05:30
Ayodhya,Uttar Pradesh,26.7922,82.1998,34.5,33,0.0,994.3,7.55,25.6,80,23.8,14.1,0,5,7,0,2026-04-01T16:31:04.911749+05:30
Ratlam,Madhya Pradesh,23.3315,75.0367,35.0,28,0.0,953.3,8.15,34.2,67,28.8,21.0,0,5,7,0,2026-04-01T16:31:04.911756+05:30
Sagar,Madhya Pradesh,23.8388,78.7378,35.3,24,0.0,949.1,8.25,33.1,70,23.9,13.1,0,5,10,0,2026-04-01T16:31:04.911762+05:30
Satna,Madhya Pradesh,24.6005,80.8322,34.0,33,0.0,971.0,8.0,26.6,81,30.7,16.8,0,5,7,0,2026-04-01T16:31:04.911769+05:30
Akola,Maharashtra,20.7002,77.0082,35.4,36,0.0,973.5,8.55,27.0,98,29.2,20.4,0,5,10,1,2026-04-01T16:31:04.911776+05:30
Amravati,Maharashtra,20.9374,77.7796,35.1,31,0.0,966.1,8.6,27.0,99,24.2,16.6,0,5,10,0,2026-04-01T16:31:04.911782+05:30
Latur,Maharashtra,18.4088,76.5604,33.4,35,0.0,938.1,8.85,25.6,114,31.0,24.5,0,5,7,0,2026-04-01T16:31:04.911789+05:30
Nanded,Maharashtra,19.1383,77.3091,35.6,34,0.0,966.6,8.75,23.0,112,33.3,26.1,0,5,10,1,2026-04-01T16:31:04.911795+05:30
Gulbarga,Karnataka,17.3297,76.8343,36.3,27,0.0,956.5,8.95,24.1,109,32.5,27.0,0,5,10,0,2026-04-01T16:31:04.911801+05:30
Bidar,Karnataka,17.9104,77.5199,34.0,35,0.0,933.9,8.95,26.6,116,30.9,24.7,0,5,7,1,2026-04-01T16:31:04.911807+05:30
Hospet,Karnataka,15.2689,76.3909,34.1,36,0.0,953.7,9.15,23.4,142,39.3,32.4,0,5,7,1,2026-04-01T16:31:04.911813+05:30
Tirupur,Tamil Nadu,11.1085,77.3411,36.1,26,0.0,972.5,9.4,21.6,61,21.2,15.4,0,5,10,0,2026-04-01T16:31:04.911820+05:30
Alappuzha,Kerala,9.4981,76.3388,29.6,78,0.0,1005.6,9.2,26.6,147,23.6,21.0,7,5,4,1,2026-04-01T16:31:04.911826+05:30
Munnar,Kerala,10.0889,77.0595,26.3,67,0.0,856.4,9.75,30.6,69,18.5,9.9,7,5,7,1,2026-04-01T16:31:04.911833+05:30
Silchar,Assam,24.8333,92.7789,27.9,72,0.0,1004.6,8.4,35.3,118,47.0,37.7,7,5,4,1,2026-04-01T16:31:04.911839+05:30
Dibrugarh,Assam,27.4728,94.912,24.5,85,0.0,995.1,7.65,31.3,110,45.6,36.4,3,5,7,1,2026-04-01T16:31:04.911846+05:30
