city,state,latitude,longitude,temp,humidity,rain,pressure,uv_index,wind_gusts,aqi,pm10,pm2_5,mosquito_risk,arthritis_risk,migraine_risk,frizz_risk,updated_at
Delhi,Delhi,28.6139,77.209,25.2,61,0.0,985.4,5.3,24.5,131,259.8,54.4,7,5,3,1,2026-03-31T20:35:04.554996+05:30
Mumbai,Maharashtra,19.076,72.8777,27.7,77,0.0,1008.7,8.0,25.2,59,21.2,11.8,7,0,4,1,2026-03-31T20:35:04.555047+05:30
Bangalore,Karnataka,12.9716,77.5946,28.3,37,0.0,912.6,9.55,32.0,126,34.0,30.0,4,5,7,0,2026-03-31T20:35:04.555063+05:30
Hyderabad,Telangana,17.385,78.4867,26.2,74,0.0,954.6,9.05,37.4,131,49.7,45.5,7,5,7,1,2026-03-31T20:35:04.555075+05:30
Chennai,Tamil Nadu,13.0827,80.2707,27.8,72,0.0,1008.9,9.25,29.2,48,14.7,11.0,7,0,4,1,2026-03-31T20:35:04.555085+05:30
Kolkata,West Bengal,22.5726,88.3639,27.0,87,0.0,1008.2,7.35,27.0,86,30.6,27.6,7,0,4,1,2026-03-31T20:35:04.555095+05:30
Pune,Maharashtra,18.5204,73.8567,28.5,71,0.0,948.6,8.55,28.4,130,56.5,47.0,7,5,7,1,2026-03-31T20:35:04.555111+05:30
Ahmedabad,Gujarat,23.0225,72.5714,31.3,45,0.0,1001.1,7.8,27.0,62,50.1,28.4,0,5,4,1,2026-03-31T20:35:04.555120+05:30
Jaipur,Rajasthan,26.9124,75.7873,22.6,79,0.0,961.6,7.45,42.8,61,69.2,19.8,3,5,7,1,2026-03-31T20:35:04.555130+05:30
Lucknow,Uttar Pradesh,26.8467,80.9462,29.0,43,0.0,994.7,7.3,27.0,155,141.1,40.7,4,5,7,0,2026-03-31T20:35:04.555139+05:30
Kanpur,Uttar Pradesh,26.4499,80.3319,27.4,58,0.0,993.2,7.3,23.8,432,236.6,40.9,4,5,7,1,2026-03-31T20:35:04.555147+05:30
Chandigarh,Chandigarh,30.7333,76.7794,22.4,69,0.0,970.7,6.05,23.4,90,79.6,37.1,3,5,7,1,2026-03-31T20:35:04.555157+05:30
Srinagar,Jammu and Kashmir,34.0837,74.7973,13.2,71,0.0,842.3,7.65,16.9,70,41.0,30.9,3,5,7,0,2026-03-31T20:35:04.555166+05:30
Jammu,Jammu and Kashmir,32.7266,74.857,25.9,45,0.0,974.8,6.85,38.2,68,75.4,42.4,4,5,7,0,2026-03-31T20:35:04.555175+05:30
Amritsar,Punjab,31.634,74.8723,24.2,63,0.0,982.9,6.05,27.4,118,104.1,46.8,3,5,7,1,2026-03-31T20:35:04.555184+05:30
Ludhiana,Punjab,30.901,75.8573,24.7,60,0.0,981.0,6.35,25.9,172,142.5,48.1,0,5,7,1,2026-03-31T20:35:04.555192+05:30
Jalandhar,Punjab,31.326,75.5762,24.2,63,0.0,982.1,6.25,22.0,158,103.4,42.3,3,5,7,1,2026-03-31T20:35:04.555202+05:30
Dehradun,Uttarakhand,30.6284,78.0322,15.7,68,0.0,831.9,6.5,34.9,51,31.4,16.7,3,5,7,0,2026-03-31T20:35:04.555209+05:30
Shimla,Himachal Pradesh,31.1048,77.1734,13.2,72,0.0,785.4,6.4,32.0,58,36.9,22.6,3,5,7,0,2026-03-31T20:35:04.555217+05:30
Manali,Himachal Pradesh,32.2396,77.1887,14.7,90,0.0,821.8,9.0,38.2,80,12.2,7.3,3,10,7,0,2026-03-31T20:35:04.555225+05:30
Gurgaon,Haryana,28.4595,77.0266,22.6,75,0.0,983.7,6.05,25.6,168,879.2,113.2,3,5,7,1,2026-03-31T20:35:04.555233+05:30
Noida,Uttar Pradesh,28.5355,77.391,25.3,61,0.0,986.8,5.5,26.3,168,879.2,113.2,7,5,3,1,2026-03-31T20:35:04.555243+05:30
Ghaziabad,Uttar Pradesh,28.6692,77.4538,25.2,62,0.0,984.9,5.6,22.7,122,176.5,51.7,7,5,3,1,2026-03-31T20:35:04.555252+05:30
Faridabad,Haryana,28.4089,77.3178,24.0,65,0.0,986.1,5.95,29.9,168,879.2,113.2,3,5,3,1,2026-03-31T20:35:04.555260+05:30
Meerut,Uttar Pradesh,28.9845,77.7064,24.1,64,0.0,983.7,5.7,22.3,122,176.5,51.7,3,5,3,1,2026-03-31T20:35:04.555267+05:30
Agra,Uttar Pradesh,27.1767,78.0081,26.0,62,0.0,989.8,7.15,34.2,346,573.7,70.8,7,5,7,1,2026-03-31T20:35:04.555275+05:30
Varanasi,Uttar Pradesh,25.3176,82.9739,28.4,51,0.0,998.3,7.45,22.7,145,136.4,68.2,4,5,7,1,2026-03-31T20:35:04.555286+05:30
Prayagraj,Uttar Pradesh,25.4358,81.8463,29.8,46,0.0,996.8,7.55,19.8,152,84.1,40.6,4,5,7,1,2026-03-31T20:35:04.555295+05:30
Gorakhpur,Uttar Pradesh,26.7606,83.3732,26.8,64,0.0,998.4,7.35,22.0,157,42.5,28.2,7,5,7,1,2026-03-31T20:35:04.555303+05:30
Bareilly,Uttar Pradesh,28.367,79.4304,25.4,59,0.0,988.5,6.4,32.0,89,84.3,30.9,4,5,7,1,2026-03-31T20:35:04.555310+05:30
Aligarh,Uttar Pradesh,27.8974,78.088,24.9,66,0.0,987.5,6.4,25.2,249,380.0,67.1,3,5,7,1,2026-03-31T20:35:04.555319+05:30
Moradabad,Uttar Pradesh,28.8386,78.7733,24.6,58,0.0,985.6,6.25,28.4,95,73.1,33.6,0,5,7,0,2026-03-31T20:35:04.555328+05:30
Saharanpur,Uttar Pradesh,29.9637,77.546,23.7,60,0.0,977.7,5.65,25.2,150,187.7,48.7,0,5,3,0,2026-03-31T20:35:04.555336+05:30
Jhansi,Uttar Pradesh,25.4484,78.5685,25.5,67,0.0,980.0,7.8,56.2,55,30.0,20.1,7,5,7,1,2026-03-31T20:35:07.864272+05:30
Surat,Gujarat,21.1702,72.8311,26.9,78,0.0,1006.6,7.8,28.4,81,28.5,22.1,7,5,4,1,2026-03-31T20:35:07.864307+05:30
Vadodara,Gujarat,22.3072,73.1812,30.7,48,0.0,1003.3,8.0,27.4,76,30.3,25.0,0,5,4,1,2026-03-31T20:35:07.864319+05:30
Rajkot,Gujarat,22.3039,70.8022,27.0,58,0.0,994.5,7.75,34.2,68,44.0,24.2,4,5,7,1,2026-03-31T20:35:07.864328+05:30
Thane,Maharashtra,19.2183,72.9781,26.7,79,0.0,1008.2,8.0,37.1,59,21.2,11.8,7,0,4,1,2026-03-31T20:35:07.864337+05:30
Nagpur,Maharashtra,21.1458,79.0882,30.4,52,0.0,973.3,8.55,20.2,95,47.0,39.3,0,5,7,1,2026-03-31T20:35:07.864345+05:30
Nashik,Maharashtra,19.9975,73.7898,25.6,74,0.0,945.8,8.25,31.0,65,11.4,7.5,7,5,7,1,2026-03-31T20:35:07.864353+05:30
Aurangabad,Maharashtra,19.8762,75.3433,28.7,50,0.0,943.9,8.75,27.7,86,38.3,29.8,4,5,7,1,2026-03-31T20:35:07.864362+05:30
Solapur,Maharashtra,17.6599,75.9064,30.5,44,0.0,957.2,8.9,24.8,123,52.7,44.6,0,5,7,1,2026-03-31T20:35:07.864370+05:30
Kolhapur,Maharashtra,16.705,74.2433,25.6,80,0.0,948.2,9.0,26.6,105,74.3,68.5,7,5,7,1,2026-03-31T20:35:07.864378+05:30
Goa,Goa,15.2993,74.124,28.9,77,0.0,998.2,9.0,34.2,78,35.9,24.8,7,5,7,1,2026-03-31T20:35:07.864386+05:30
Jodhpur,Rajasthan,26.2389,73.0243,29.6,38,0.0,983.1,7.7,38.5,68,158.8,25.2,4,5,7,0,2026-03-31T20:35:07.864395+05:30
Udaipur,Rajasthan,24.5854,73.7125,27.2,46,0.0,946.9,8.2,37.4,48,20.7,10.3,4,5,7,0,2026-03-31T20:35:07.864404+05:30
Kota,Rajasthan,25.2138,75.8648,24.4,74,0.0,980.4,7.8,40.0,50,24.7,20.2,3,5,7,1,2026-03-31T20:35:07.864412+05:30
Bikaner,Rajasthan,28.0229,73.3119,29.7,30,0.0,982.3,6.55,38.5,54,35.4,16.0,4,5,7,0,2026-03-31T20:35:07.864420+05:30
Ajmer,Rajasthan,26.4499,74.6399,24.3,69,0.0,955.5,7.65,38.5,44,27.5,18.5,3,5,7,1,2026-03-31T20:35:07.864428+05:30
Gwalior,Madhya Pradesh,26.2183,78.1828,24.6,74,0.0,985.8,7.35,38.9,46,37.6,13.3,3,5,7,1,2026-03-31T20:35:07.864436+05:30
Indore,Madhya Pradesh,22.7196,75.8577,28.6,43,0.0,947.7,8.3,25.6,87,32.2,27.8,4,5,7,0,2026-03-31T20:35:07.864443+05:30
Bhopal,Madhya Pradesh,23.2599,77.4126,29.0,36,0.0,953.5,8.25,26.6,81,27.3,23.3,4,5,7,0,2026-03-31T20:35:07.864451+05:30
Jabalpur,Madhya Pradesh,23.1815,79.9864,28.9,51,0.0,962.0,8.35,37.4,66,54.6,25.7,4,5,7,1,2026-03-31T20:35:07.864459+05:30
Ujjain,Madhya Pradesh,23.1765,75.7885,28.8,43,0.0,953.6,8.2,25.6,80,33.9,29.2,4,5,7,0,2026-03-31T20:35:07.864469+05:30
Visakhapatnam,Andhra Pradesh,17.6868,83.2185,27.1,79,0.0,1005.2,9.0,35.6,65,23.7,19.6,7,5,4,1,2026-03-31T20:35:07.864477+05:30
Vijayawada,Andhra Pradesh,16.5062,80.648,28.4,71,0.0,1003.8,9.05,22.7,58,15.4,13.3,7,5,4,1,2026-03-31T20:35:07.864485+05:30
Guntur,Andhra Pradesh,16.3067,80.4365,27.3,74,0.0,1005.2,9.1,28.8,58,16.0,13.9,7,5,4,1,2026-03-31T20:35:07.864493+05:30
Nellore,Andhra Pradesh,14.4426,79.9865,27.1,79,0.0,1007.6,9.2,28.1,52,12.3,9.2,7,5,4,1,2026-03-31T20:35:07.864502+05:30
Kurnool,Andhra Pradesh,15.8281,78.0373,29.6,64,0.0,977.7,9.1,33.1,103,35.0,30.0,7,5,7,1,2026-03-31T20:35:07.864510+05:30
Kakinada,Andhra Pradesh,16.9891,82.2475,26.9,80,0.0,1008.9,9.05,33.8,50,16.2,11.9,7,0,4,1,2026-03-31T20:35:07.864518+05:30
Tirupati,Andhra Pradesh,13.6288,79.4192,27.8,74,0.0,993.2,9.3,37.1,82,16.9,15.3,7,5,7,1,2026-03-31T20:35:07.864526+05:30
Warangal,Telangana,17.9689,79.5941,29.1,70,0.0,979.6,8.9,26.3,141,90.3,81.0,7,5,7,1,2026-03-31T20:35:07.864534+05:30
Nizamabad,Telangana,18.6725,78.0941,28.9,56,0.0,965.4,8.8,33.5,106,77.8,67.3,4,5,7,1,2026-03-31T20:35:07.864541+05:30
Mysore,Karnataka,12.2958,76.6396,27.2,57,0.0,928.6,9.5,28.4,140,45.5,38.5,4,5,7,1,2026-03-31T20:35:07.864549+05:30
Mangalore,Karnataka,12.9141,74.856,29.7,76,0.0,1007.1,8.85,27.0,93,24.4,17.2,7,5,4,1,2026-03-31T20:35:07.864557+05:30
Hubli-Dharwad,Karnataka,15.3647,75.124,24.2,75,0.0,942.0,9.1,28.1,110,48.4,43.9,3,5,7,1,2026-03-31T20:35:07.864565+05:30
Belgaum,Karnataka,15.8497,74.4977,25.2,82,0.0,926.4,9.1,36.0,122,58.1,50.2,7,5,7,1,2026-03-31T20:35:11.087874+05:30
Coimbatore,Tamil Nadu,11.0168,76.9558,26.7,80,0.0,962.2,9.45,38.9,93,25.7,21.5,7,5,7,1,2026-03-31T20:35:11.087907+05:30
Madurai,Tamil Nadu,9.9252,78.1198,29.9,59,0.0,993.5,9.25,32.4,71,15.9,13.2,4,5,7,1,2026-03-31T20:35:11.087919+05:30
Trichy,Tamil Nadu,10.7905,78.7047,29.1,66,0.0,1000.3,9.35,25.9,67,14.6,12.9,7,5,4,1,2026-03-31T20:35:11.087930+05:30
Salem,Tamil Nadu,11.6643,78.146,30.4,47,0.0,977.5,9.45,36.0,107,31.4,27.3,0,5,7,1,2026-03-31T20:35:11.087940+05:30
Tirunelveli,Tamil Nadu,8.7139,77.7567,28.5,71,0.0,1003.9,8.75,46.4,81,18.7,17.5,7,5,4,1,2026-03-31T20:35:11.087949+05:30
Vellore,Tamil Nadu,12.9165,79.1325,28.3,64,0.0,985.8,9.35,33.5,90,15.4,13.5,7,5,7,1,2026-03-31T20:35:11.087958+05:30
Erode,Tamil Nadu,11.341,77.7172,32.1,41,0.0,988.9,9.4,27.0,83,24.0,20.0,0,5,7,1,2026-03-31T20:35:11.087967+05:30
Kochi,Kerala,9.9312,76.2673,29.8,78,0.0,1008.5,9.2,28.4,154,45.9,41.8,7,0,4,1,2026-03-31T20:35:11.087976+05:30
Thiruvananthapuram,Kerala,8.5241,76.9366,28.7,79,0.0,1008.2,9.05,26.6,111,25.1,20.6,7,0,4,1,2026-03-31T20:35:11.087986+05:30
Kozhikode,Kerala,11.2588,75.7804,30.0,78,0.0,1007.9,8.65,28.8,136,27.0,20.3,7,5,4,1,2026-03-31T20:35:11.087995+05:30
Thrissur,Kerala,10.5276,76.2144,29.2,80,0.0,1007.1,8.85,36.7,128,39.5,36.1,7,5,4,1,2026-03-31T20:35:11.088005+05:30
Kannur,Kerala,11.8745,75.3704,29.7,76,0.0,1007.2,9.05,28.8,113,30.7,25.6,7,5,4,1,2026-03-31T20:35:11.088015+05:30
Patna,Bihar,25.5941,85.1376,27.4,77,0.0,1001.7,7.95,23.0,162,82.0,56.5,7,5,4,1,2026-03-31T20:35:11.088024+05:30
Gaya,Bihar,24.7914,85.0002,26.5,80,0.0,995.2,8.05,18.0,139,71.2,39.9,7,5,7,1,2026-03-31T20:35:11.088033+05:30
Muzaffarpur,Bihar,26.1209,85.3647,25.9,78,0.0,1001.8,7.8,26.6,168,84.5,67.1,7,5,4,1,2026-03-31T20:35:11.088041+05:30
Bhagalpur,Bihar,25.2425,87.0117,27.0,77,0.0,1003.2,8.1,21.6,163,90.3,78.0,7,5,4,1,2026-03-31T20:35:11.088051+05:30
Ranchi,Jharkhand,23.3441,85.3096,24.5,71,0.0,939.6,8.45,23.8,87,28.0,16.6,3,5,7,1,2026-03-31T20:35:11.088060+05:30
Jamshedpur,Jharkhand,22.8046,86.2029,27.5,76,0.0,992.9,8.65,27.0,139,49.4,40.9,7,5,7,1,2026-03-31T20:35:11.088068+05:30
Dhanbad,Jharkhand,23.7957,86.4304,26.0,74,0.0,982.0,8.55,27.0,162,79.4,65.7,7,5,7,1,2026-03-31T20:35:11.088077+05:30
Bokaro,Jharkhand,23.6693,86.1511,25.3,80,0.0,986.0,8.55,25.2,159,65.2,49.7,7,5,7,1,2026-03-31T20:35:11.088086+05:30
Bhubaneswar,Odisha,20.2961,85.8245,27.3,85,0.0,1004.1,8.85,26.6,149,32.8,30.0,7,5,4,1,2026-03-31T20:35:11.088095+05:30
Cuttack,Odisha,20.4625,85.8828,28.6,78,0.0,1005.8,8.85,30.6,149,32.8,30.0,7,5,4,1,2026-03-31T20:35:11.088104+05:30
Rourkela,Odisha,22.2604,84.8536,29.6,61,0.0,986.2,8.35,16.9,102,48.3,35.5,7,5,7,1,2026-03-31T20:35:11.088112+05:30
Raipur,Chhattisgarh,21.2514,81.6296,30.7,42,0.0,975.2,7.9,33.1,124,132.2,60.5,0,5,7,1,2026-03-31T20:35:11.088121+05:30
Bhilai,Chhattisgarh,21.1938,81.3509,30.4,43,0.0,975.4,8.45,29.2,99,102.9,53.6,0,5,7,1,2026-03-31T20:35:11.088129+05:30
Guwahati,Assam,26.1158,91.7086,24.6,86,0.0,1004.3,8.0,19.8,117,48.1,38.5,3,5,4,1,2026-03-31T20:35:11.088138+05:30
Agartala,Tripura,23.8315,91.2868,24.2,93,0.0,1008.8,8.3,20.9,90,48.8,45.3,3,0,4,1,2026-03-31T20:35:11.088146+05:30
Shillong,Meghalaya,25.5788,91.8933,14.5,91,0.0,857.8,8.35,39.6,91,17.7,15.0,3,10,7,0,2026-03-31T20:35:11.088156+05:30
Imphal,Manipur,24.817,93.9368,18.0,93,0.0,925.4,8.6,59.4,64,36.9,34.2,3,10,7,1,2026-03-31T20:35:11.088166+05:30
Aizawl,Mizoram,23.7271,92.7176,18.8,95,0.0,894.4,8.55,40.7,119,43.7,38.5,3,10,7,1,2026-03-31T20:35:11.088175+05:30
Kohima,Nagaland,25.6701,94.1077,15.6,95,0.0,856.4,8.45,78.1,58,18.3,15.1,3,10,7,0,2026-03-31T20:35:11.088184+05:30
Gangtok,Sikkim,27.3314,88.6138,14.9,97,0.2,838.3,8.25,19.4,117,27.3,24.3,6,10,7,0,2026-03-31T20:35:11.088193+05:30
Siliguri,West Bengal,26.7271,88.3953,21.9,78,0.0,996.6,6.8,20.5,161,90.1,71.5,3,5,7,1,2026-03-31T20:35:14.322106+05:30
Durgapur,West Bengal,23.5204,87.3119,27.1,81,0.0,997.2,8.5,20.9,166,73.3,64.7,7,5,7,1,2026-03-31T20:35:14.322138+05:30
Asansol,West Bengal,23.6739,86.9524,27.6,76,0.0,995.7,8.5,16.2,155,64.3,56.1,7,5,7,1,2026-03-31T20:35:14.322150+05:30
Pondicherry,Puducherry,11.9139,79.8145,25.9,86,0.0,1009.8,9.25,27.4,44,15.0,11.0,7,0,4,1,2026-03-31T20:35:14.322160+05:30
Port Blair,Andaman and Nicobar Islands,11.6234,92.7265,28.4,79,0.0,1008.3,9.15,12.2,39,7.3,5.6,7,0,4,1,2026-03-31T20:35:14.322170+05:30
Haridwar,Uttarakhand,29.9457,78.1642,23.9,55,0.0,976.6,6.05,25.2,88,97.6,37.6,0,5,7,0,2026-03-31T20:35:14.322179+05:30
Rishikesh,Uttarakhand,30.0869,78.2676,22.6,59,0.0,969.5,6.05,25.2,61,71.5,27.1,0,5,7,0,2026-03-31T20:35:14.322189+05:30
Nainital,Uttarakhand,29.3919,79.4542,19.3,41,0.0,808.2,7.3,44.3,70,47.5,22.4,0,5,7,0,2026-03-31T20:35:14.322198+05:30
Mussoorie,Uttarakhand,30.4599,78.0664,16.2,60,0.0,804.1,6.4,32.0,62,93.8,36.0,0,5,7,0,2026-03-31T20:35:14.322207+05:30
Dharamshala,Himachal Pradesh,32.219,76.3234,19.4,51,0.0,870.7,6.75,22.7,47,29.1,14.5,0,5,7,0,2026-03-31T20:35:14.322216+05:30
Dalhousie,Himachal Pradesh,32.5387,75.971,16.0,60,0.0,804.6,7.4,27.4,64,54.1,26.1,0,5,7,0,2026-03-31T20:35:14.322226+05:30
Patiala,Punjab,30.3398,76.3869,22.8,65,0.0,980.5,5.3,19.8,265,359.5,66.1,3,5,3,0,2026-03-31T20:35:14.322235+05:30
Bhatinda,Punjab,30.211,74.9455,23.0,72,0.0,985.7,6.65,31.7,115,77.3,31.3,3,5,7,1,2026-03-31T20:35:14.322244+05:30
Rohtak,Haryana,28.8955,76.6066,22.8,76,0.0,984.1,6.35,25.9,120,366.0,60.5,3,5,7,1,2026-03-31T20:35:14.322253+05:30
Panipat,Haryana,29.3909,76.9635,23.3,69,0.0,982.8,5.25,17.3,138,465.7,75.9,3,5,3,1,2026-03-31T20:35:14.322262+05:30
Mathura,Uttar Pradesh,27.4924,77.6737,25.2,65,0.0,988.8,6.9,24.1,135,571.8,74.5,7,5,7,1,2026-03-31T20:35:14.322272+05:30
Vrindavan,Uttar Pradesh,27.5823,77.7027,25.3,64,0.0,989.3,6.7,24.8,135,571.8,74.5,7,5,7,1,2026-03-31T20:35:14.322281+05:30
Ayodhya,Uttar Pradesh,26.7922,82.1998,27.6,53,0.0,996.2,7.15,25.2,124,48.3,25.6,4,5,7,1,2026-03-31T20:35:14.322290+05:30
Ratlam,Madhya Pradesh,23.3315,75.0367,29.7,43,0.0,954.5,8.15,29.5,74,21.4,17.9,4,5,7,0,2026-03-31T20:35:14.322299+05:30
Sagar,Madhya Pradesh,23.8388,78.7378,27.8,46,0.0,950.9,8.2,32.0,48,17.2,11.6,4,5,7,0,2026-03-31T20:35:14.322308+05:30
Satna,Madhya Pradesh,24.6005,80.8322,29.8,39,0.0,972.9,7.95,22.7,137,78.9,25.3,4,5,7,0,2026-03-31T20:35:14.322317+05:30
Akola,Maharashtra,20.7002,77.0082,31.4,40,0.0,974.1,8.55,18.0,97,34.7,30.2,0,5,7,1,2026-03-31T20:35:14.322327+05:30
Amravati,Maharashtra,20.9374,77.7796,30.8,46,0.0,966.7,8.55,17.3,97,28.4,24.9,0,5,7,1,2026-03-31T20:35:14.322336+05:30
Latur,Maharashtra,18.4088,76.5604,28.7,49,0.0,940.4,8.85,29.2,101,54.0,44.2,4,5,7,1,2026-03-31T20:35:14.322344+05:30
Nanded,Maharashtra,19.1383,77.3091,30.7,49,0.0,968.4,8.7,23.0,89,52.0,43.8,0,5,7,1,2026-03-31T20:35:14.322353+05:30
Gulbarga,Karnataka,17.3297,76.8343,29.6,51,0.0,959.6,8.95,28.1,131,54.6,46.9,4,5,7,1,2026-03-31T20:35:14.322361+05:30
Bidar,Karnataka,17.9104,77.5199,26.0,67,0.0,936.4,8.95,34.6,118,75.0,64.5,7,5,7,1,2026-03-31T20:35:14.322370+05:30
Hospet,Karnataka,15.2689,76.3909,27.4,69,0.0,956.6,9.15,40.3,177,51.8,48.1,7,5,7,1,2026-03-31T20:35:14.322378+05:30
Tirupur,Tamil Nadu,11.1085,77.3411,31.9,30,0.0,975.1,9.5,30.6,92,27.2,21.9,0,5,7,0,2026-03-31T20:35:14.322387+05:30
Alappuzha,Kerala,9.4981,76.3388,29.0,81,0.0,1008.9,9.2,24.8,178,37.1,32.7,7,0,4,1,2026-03-31T20:35:14.322396+05:30
Munnar,Kerala,10.0889,77.0595,23.1,72,0.0,857.3,9.7,29.9,78,34.6,30.2,3,5,7,1,2026-03-31T20:35:14.322405+05:30
Silchar,Assam,24.8333,92.7789,22.8,94,0.0,1008.1,8.35,25.6,80,61.5,56.3,3,0,4,1,2026-03-31T20:35:14.322415+05:30
Dibrugarh,Assam,27.4728,94.912,24.9,81,0.0,998.0,8.15,16.2,84,37.1,33.5,3,5,7,1,2026-03-31T20:35:14.322424+05:30
