city,state,latitude,longitude,temp,humidity,rain,pressure,uv_index,wind_gusts,aqi,pm10,pm2_5,mosquito_risk,arthritis_risk,migraine_risk,frizz_risk,updated_at
Delhi,Delhi,28.6139,77.209,31.4,32,0.0,979.6,6.15,21.6,139,168.1,31.4,0,5,7,0,2026-03-28T16:06:11.533733+05:30
Mumbai,Maharashtra,19.076,72.8777,27.8,75,0.0,1006.4,8.0,24.5,98,25.6,18.5,7,5,4,1,2026-03-28T16:06:11.533783+05:30
Bangalore,Karnataka,12.9716,77.5946,29.0,49,0.0,909.7,9.5,42.5,116,41.9,33.8,4,5,7,1,2026-03-28T16:06:11.533829+05:30
Hyderabad,Telangana,17.385,78.4867,37.8,18,0.0,949.3,9.0,24.8,115,31.9,25.6,0,5,10,0,2026-03-28T16:06:11.533848+05:30
Chennai,Tamil Nadu,13.0827,80.2707,32.3,58,0.0,1004.1,9.25,34.6,68,28.8,20.3,0,5,4,1,2026-03-28T16:06:11.533863+05:30
Kolkata,West Bengal,22.5726,88.3639,31.0,57,0.0,1002.5,8.4,31.7,161,61.0,50.6,0,5,4,1,2026-03-28T16:06:11.533879+05:30
Pune,Maharashtra,18.5204,73.8567,35.7,23,0.0,946.4,8.5,49.0,79,17.9,14.6,0,5,10,0,2026-03-28T16:06:11.533897+05:30
Ahmedabad,Gujarat,23.0225,72.5714,35.6,33,0.0,998.3,7.95,34.2,37,51.0,11.0,0,5,10,1,2026-03-28T16:06:11.533911+05:30
Jaipur,Rajasthan,26.9124,75.7873,34.0,23,0.0,956.1,7.25,32.4,96,177.4,21.4,0,5,7,0,2026-03-28T16:06:11.533923+05:30
Lucknow,Uttar Pradesh,26.8467,80.9462,32.8,29,0.0,989.4,7.15,28.1,127,154.1,30.7,0,5,7,0,2026-03-28T16:06:11.533941+05:30
Kanpur,Uttar Pradesh,26.4499,80.3319,32.0,37,0.0,988.1,6.95,25.2,193,341.8,45.8,0,5,7,0,2026-03-28T16:06:11.533953+05:30
Chandigarh,Chandigarh,30.7333,76.7794,29.2,46,0.0,965.6,5.25,23.4,90,18.9,14.0,4,5,3,1,2026-03-28T16:06:11.533965+05:30
Srinagar,Jammu and Kashmir,34.0837,74.7973,18.8,50,0.0,838.2,6.0,16.2,90,27.5,11.8,0,5,3,0,2026-03-28T16:06:11.533976+05:30
Jammu,Jammu and Kashmir,32.7266,74.857,28.9,43,0.0,969.5,6.85,16.6,73,13.5,11.9,4,5,7,0,2026-03-28T16:06:11.533987+05:30
Amritsar,Punjab,31.634,74.8723,29.2,44,0.0,977.3,6.15,14.0,133,18.5,13.5,4,5,7,0,2026-03-28T16:06:11.534000+05:30
Ludhiana,Punjab,30.901,75.8573,29.9,39,0.0,975.4,6.15,13.7,94,29.9,13.6,4,5,7,0,2026-03-28T16:06:11.534012+05:30
Jalandhar,Punjab,31.326,75.5762,29.5,43,0.0,976.6,6.25,11.5,102,28.1,12.7,4,5,7,0,2026-03-28T16:06:11.534030+05:30
Dehradun,Uttarakhand,30.6284,78.0322,18.6,66,0.0,827.6,5.8,22.3,62,22.3,14.1,3,5,3,0,2026-03-28T16:06:11.534039+05:30
Shimla,Himachal Pradesh,31.1048,77.1734,16.9,65,0.0,782.6,6.0,33.1,82,17.2,11.1,3,5,3,0,2026-03-28T16:06:11.534046+05:30
Manali,Himachal Pradesh,32.2396,77.1887,19.6,58,0.0,817.6,8.55,29.9,109,23.7,7.0,0,5,7,0,2026-03-28T16:06:11.534053+05:30
Gurgaon,Haryana,28.4595,77.0266,31.7,31,0.0,978.0,6.3,17.3,444,678.0,73.6,0,5,7,0,2026-03-28T16:06:11.534060+05:30
Noida,Uttar Pradesh,28.5355,77.391,31.6,31,0.0,981.1,6.05,21.6,444,678.0,73.6,0,5,7,0,2026-03-28T16:06:11.534066+05:30
Ghaziabad,Uttar Pradesh,28.6692,77.4538,30.9,36,0.0,979.3,5.8,20.5,123,110.1,27.7,0,5,3,0,2026-03-28T16:06:11.534072+05:30
Faridabad,Haryana,28.4089,77.3178,31.8,30,0.0,980.3,6.3,19.8,444,678.0,73.6,0,5,7,0,2026-03-28T16:06:11.534081+05:30
Meerut,Uttar Pradesh,28.9845,77.7064,30.6,39,0.0,978.0,5.85,23.0,123,110.1,27.7,0,5,3,0,2026-03-28T16:06:11.534089+05:30
Agra,Uttar Pradesh,27.1767,78.0081,34.8,25,0.0,983.6,6.35,25.6,432,674.3,66.8,0,5,7,0,2026-03-28T16:06:11.534095+05:30
Varanasi,Uttar Pradesh,25.3176,82.9739,33.4,31,0.0,993.6,7.8,37.4,89,77.8,23.5,0,5,7,0,2026-03-28T16:06:11.534103+05:30
Prayagraj,Uttar Pradesh,25.4358,81.8463,33.2,33,0.0,991.9,7.7,30.2,84,101.7,25.4,0,5,7,0,2026-03-28T16:06:11.534110+05:30
Gorakhpur,Uttar Pradesh,26.7606,83.3732,31.5,37,0.0,993.1,7.0,28.1,91,49.8,21.0,0,5,7,0,2026-03-28T16:06:11.534117+05:30
Bareilly,Uttar Pradesh,28.367,79.4304,30.7,41,0.0,983.2,6.35,24.5,81,31.0,16.8,0,5,7,0,2026-03-28T16:06:11.534124+05:30
Aligarh,Uttar Pradesh,27.8974,78.088,32.2,34,0.0,982.0,6.45,23.8,212,525.3,59.8,0,5,7,0,2026-03-28T16:06:11.534130+05:30
Moradabad,Uttar Pradesh,28.8386,78.7733,30.4,44,0.0,980.1,6.1,23.0,87,37.7,20.5,0,5,7,1,2026-03-28T16:06:11.534136+05:30
Saharanpur,Uttar Pradesh,29.9637,77.546,29.8,43,0.0,972.2,5.25,24.8,98,39.5,18.7,4,5,3,0,2026-03-28T16:06:11.534143+05:30
Jhansi,Uttar Pradesh,25.4484,78.5685,36.2,21,0.0,973.2,7.1,31.3,94,52.2,12.9,0,5,10,0,2026-03-28T16:06:14.750107+05:30
Surat,Gujarat,21.1702,72.8311,30.2,56,0.0,1004.4,7.75,30.6,86,26.5,21.4,0,5,4,1,2026-03-28T16:06:14.750137+05:30
Vadodara,Gujarat,22.3072,73.1812,36.5,31,0.0,1000.5,7.95,32.8,61,27.4,10.1,0,5,7,1,2026-03-28T16:06:14.750148+05:30
Rajkot,Gujarat,22.3039,70.8022,34.3,40,0.0,991.4,7.75,43.2,34,20.1,8.8,0,5,7,1,2026-03-28T16:06:14.750156+05:30
Thane,Maharashtra,19.2183,72.9781,30.5,59,0.0,1006.0,8.0,37.8,98,25.6,18.5,0,5,4,1,2026-03-28T16:06:14.750164+05:30
Nagpur,Maharashtra,21.1458,79.0882,37.4,20,0.0,968.3,8.5,31.3,61,14.4,10.1,0,5,10,0,2026-03-28T16:06:14.750172+05:30
Nashik,Maharashtra,19.9975,73.7898,33.6,24,0.0,943.5,8.2,43.6,57,22.6,8.3,0,5,7,0,2026-03-28T16:06:14.750179+05:30
Aurangabad,Maharashtra,19.8762,75.3433,36.8,16,0.0,940.8,8.75,43.6,68,10.1,8.3,0,5,10,0,2026-03-28T16:06:14.750186+05:30
Solapur,Maharashtra,17.6599,75.9064,38.3,17,0.0,953.4,8.85,31.7,88,19.2,13.8,0,5,10,0,2026-03-28T16:06:14.750194+05:30
Kolhapur,Maharashtra,16.705,74.2433,33.3,33,0.0,945.8,8.95,43.6,128,33.8,27.3,0,5,7,0,2026-03-28T16:06:14.750202+05:30
Goa,Goa,15.2993,74.124,31.7,69,0.0,995.7,8.95,28.4,93,37.1,30.3,3,5,7,1,2026-03-28T16:06:14.750209+05:30
Jodhpur,Rajasthan,26.2389,73.0243,35.2,26,0.0,978.6,7.8,31.0,60,207.2,25.8,0,5,10,0,2026-03-28T16:06:14.750216+05:30
Udaipur,Rajasthan,24.5854,73.7125,32.2,33,0.0,943.5,8.35,33.5,41,27.4,7.5,0,5,7,0,2026-03-28T16:06:14.750223+05:30
Kota,Rajasthan,25.2138,75.8648,37.3,20,0.0,973.8,7.65,24.5,43,106.9,19.0,0,5,10,0,2026-03-28T16:06:14.750229+05:30
Bikaner,Rajasthan,28.0229,73.3119,35.7,24,0.0,977.0,7.2,20.9,41,28.1,7.9,0,5,10,0,2026-03-28T16:06:14.750236+05:30
Ajmer,Rajasthan,26.4499,74.6399,33.7,26,0.0,950.7,7.65,30.6,43,59.1,13.5,0,5,7,0,2026-03-28T16:06:14.750242+05:30
Gwalior,Madhya Pradesh,26.2183,78.1828,34.6,26,0.0,979.1,6.95,36.4,149,85.9,22.2,0,5,7,0,2026-03-28T16:06:14.750249+05:30
Indore,Madhya Pradesh,22.7196,75.8577,34.6,23,0.0,944.7,8.2,37.1,46,14.3,6.8,0,5,7,0,2026-03-28T16:06:14.750255+05:30
Bhopal,Madhya Pradesh,23.2599,77.4126,35.6,23,0.0,949.7,8.15,31.3,46,30.5,8.6,0,5,10,0,2026-03-28T16:06:14.750262+05:30
Jabalpur,Madhya Pradesh,23.1815,79.9864,34.7,26,0.0,957.3,8.25,29.9,53,30.5,10.4,0,5,7,0,2026-03-28T16:06:14.750268+05:30
Ujjain,Madhya Pradesh,23.1765,75.7885,34.0,27,0.0,950.4,8.15,34.2,42,13.9,5.5,0,5,7,0,2026-03-28T16:06:14.750275+05:30
Visakhapatnam,Andhra Pradesh,17.6868,83.2185,32.2,56,0.0,1000.2,9.0,41.8,94,46.0,32.1,0,5,4,1,2026-03-28T16:06:14.750281+05:30
Vijayawada,Andhra Pradesh,16.5062,80.648,37.2,33,0.0,997.8,9.05,30.6,80,46.4,34.2,0,5,10,1,2026-03-28T16:06:14.750287+05:30
Guntur,Andhra Pradesh,16.3067,80.4365,36.1,40,0.0,999.4,9.05,33.1,80,47.3,35.0,0,5,10,1,2026-03-28T16:06:14.750294+05:30
Nellore,Andhra Pradesh,14.4426,79.9865,34.4,50,0.0,1002.1,9.2,34.6,80,43.4,32.4,0,5,4,1,2026-03-28T16:06:14.750301+05:30
Kurnool,Andhra Pradesh,15.8281,78.0373,38.8,23,0.0,972.5,9.0,33.5,135,52.4,41.7,0,5,10,0,2026-03-28T16:06:14.750309+05:30
Kakinada,Andhra Pradesh,16.9891,82.2475,36.4,39,0.0,1003.0,9.0,35.3,73,34.0,19.9,0,5,7,1,2026-03-28T16:06:14.750315+05:30
Tirupati,Andhra Pradesh,13.6288,79.4192,36.3,28,0.0,987.5,9.3,27.4,101,46.4,34.2,0,5,10,0,2026-03-28T16:06:14.750321+05:30
Warangal,Telangana,17.9689,79.5941,38.6,22,0.0,974.0,8.85,25.6,102,31.5,26.8,0,5,10,0,2026-03-28T16:06:14.750328+05:30
Nizamabad,Telangana,18.6725,78.0941,38.0,18,0.0,960.8,8.8,26.3,93,12.7,9.5,0,5,10,0,2026-03-28T16:06:14.750334+05:30
Mysore,Karnataka,12.2958,76.6396,32.2,39,0.0,925.9,9.45,45.7,125,37.3,30.6,0,5,7,1,2026-03-28T16:06:14.750340+05:30
Mangalore,Karnataka,12.9141,74.856,29.8,81,0.0,1003.6,9.1,23.8,95,38.4,30.7,7,5,4,1,2026-03-28T16:06:14.750347+05:30
Hubli-Dharwad,Karnataka,15.3647,75.124,31.3,46,0.0,938.7,9.1,44.3,113,51.6,39.1,0,5,7,1,2026-03-28T16:06:14.750353+05:30
Belgaum,Karnataka,15.8497,74.4977,30.5,50,0.0,924.5,9.2,36.4,115,36.3,28.3,0,5,7,1,2026-03-28T16:06:17.965929+05:30
Coimbatore,Tamil Nadu,11.0168,76.9558,32.9,46,0.0,958.7,9.45,54.4,98,33.2,26.5,0,5,7,1,2026-03-28T16:06:17.965960+05:30
Madurai,Tamil Nadu,9.9252,78.1198,36.9,33,0.0,988.7,9.4,38.5,80,25.2,19.0,0,5,10,1,2026-03-28T16:06:17.965970+05:30
Trichy,Tamil Nadu,10.7905,78.7047,36.5,35,0.0,995.5,9.35,25.9,76,22.3,16.8,0,5,10,1,2026-03-28T16:06:17.965978+05:30
Salem,Tamil Nadu,11.6643,78.146,37.5,28,0.0,973.1,9.4,30.6,121,42.0,33.3,0,5,10,0,2026-03-28T16:06:17.965986+05:30
Tirunelveli,Tamil Nadu,8.7139,77.7567,37.3,35,0.0,998.7,9.35,47.5,74,23.3,19.0,0,5,10,1,2026-03-28T16:06:17.965994+05:30
Vellore,Tamil Nadu,12.9165,79.1325,35.7,30,0.0,980.8,9.35,31.0,118,50.4,39.6,0,5,10,0,2026-03-28T16:06:17.966001+05:30
Erode,Tamil Nadu,11.341,77.7172,38.3,27,0.0,984.3,9.35,26.3,116,36.4,28.5,0,5,10,0,2026-03-28T16:06:17.966009+05:30
Kochi,Kerala,9.9312,76.2673,29.2,81,0.0,1005.6,8.8,31.7,94,31.2,26.5,7,5,4,1,2026-03-28T16:06:17.966016+05:30
Thiruvananthapuram,Kerala,8.5241,76.9366,29.2,80,0.0,1005.1,9.15,39.6,65,22.8,17.7,7,5,4,1,2026-03-28T16:06:17.966023+05:30
Kozhikode,Kerala,11.2588,75.7804,30.6,75,0.0,1004.9,9.1,31.0,82,26.8,21.1,3,5,4,1,2026-03-28T16:06:17.966030+05:30
Thrissur,Kerala,10.5276,76.2144,32.6,64,0.0,1004.0,9.15,36.4,90,32.7,27.5,3,5,4,1,2026-03-28T16:06:17.966038+05:30
Kannur,Kerala,11.8745,75.3704,31.3,68,0.0,1004.4,9.1,31.0,90,32.1,26.0,3,5,4,1,2026-03-28T16:06:17.966045+05:30
Patna,Bihar,25.5941,85.1376,30.3,47,0.0,997.2,7.9,29.5,88,59.4,20.0,0,5,7,1,2026-03-28T16:06:17.966052+05:30
Gaya,Bihar,24.7914,85.0002,29.9,49,0.0,990.6,7.7,24.1,84,52.5,19.5,4,5,7,1,2026-03-28T16:06:17.966058+05:30
Muzaffarpur,Bihar,26.1209,85.3647,29.4,49,0.0,997.4,7.85,20.5,107,59.0,21.7,4,5,7,1,2026-03-28T16:06:17.966064+05:30
Bhagalpur,Bihar,25.2425,87.0117,27.7,60,0.0,998.7,7.3,25.2,106,78.0,27.3,4,5,7,1,2026-03-28T16:06:17.966071+05:30
Ranchi,Jharkhand,23.3441,85.3096,29.3,37,0.0,934.4,8.7,31.7,122,44.8,25.8,4,5,7,0,2026-03-28T16:06:17.966078+05:30
Jamshedpur,Jharkhand,22.8046,86.2029,32.9,44,0.0,986.8,8.5,32.4,129,65.7,48.3,0,5,7,1,2026-03-28T16:06:17.966085+05:30
Dhanbad,Jharkhand,23.7957,86.4304,31.7,39,0.0,976.2,8.4,30.2,146,69.2,49.2,0,5,7,1,2026-03-28T16:06:17.966091+05:30
Bokaro,Jharkhand,23.6693,86.1511,29.8,49,0.0,980.3,8.45,31.0,134,63.6,42.0,4,5,7,1,2026-03-28T16:06:17.966098+05:30
Bhubaneswar,Odisha,20.2961,85.8245,32.8,56,0.0,998.8,8.8,31.7,124,47.6,38.2,0,5,7,1,2026-03-28T16:06:17.966104+05:30
Cuttack,Odisha,20.4625,85.8828,35.1,44,0.0,999.9,8.85,30.6,124,47.6,38.2,0,5,10,1,2026-03-28T16:06:17.966110+05:30
Rourkela,Odisha,22.2604,84.8536,34.8,34,0.0,980.7,8.45,43.9,147,38.8,27.0,0,5,7,1,2026-03-28T16:06:17.966117+05:30
Raipur,Chhattisgarh,21.2514,81.6296,38.2,19,0.0,969.6,8.55,34.6,96,24.4,13.3,0,5,10,0,2026-03-28T16:06:17.966123+05:30
Bhilai,Chhattisgarh,21.1938,81.3509,38.3,17,0.0,969.9,8.6,33.8,81,20.1,10.3,0,5,10,0,2026-03-28T16:06:17.966129+05:30
Guwahati,Assam,26.1158,91.7086,22.5,83,0.0,1000.2,4.5,28.1,151,31.2,26.0,3,5,0,1,2026-03-28T16:06:17.966135+05:30
Agartala,Tripura,23.8315,91.2868,24.8,77,0.0,1004.8,6.4,38.5,147,48.4,38.3,3,5,4,1,2026-03-28T16:06:17.966142+05:30
Shillong,Meghalaya,25.5788,91.8933,13.1,85,0.0,852.5,4.85,43.9,98,23.0,17.2,3,10,3,0,2026-03-28T16:06:17.966148+05:30
Imphal,Manipur,24.817,93.9368,18.4,82,0.0,920.7,7.7,52.6,146,53.1,41.4,3,10,7,0,2026-03-28T16:06:17.966155+05:30
Aizawl,Mizoram,23.7271,92.7176,19.1,82,0.0,890.5,7.2,38.2,114,49.1,37.4,3,10,7,0,2026-03-28T16:06:17.966162+05:30
Kohima,Nagaland,25.6701,94.1077,14.0,90,0.0,851.7,4.95,71.3,112,46.1,36.2,3,10,3,0,2026-03-28T16:06:17.966168+05:30
Gangtok,Sikkim,27.3314,88.6138,14.2,86,0.0,833.5,7.6,17.3,98,8.8,7.7,3,10,7,0,2026-03-28T16:06:17.966175+05:30
Siliguri,West Bengal,26.7271,88.3953,20.7,80,0.0,992.1,7.35,26.3,154,48.4,38.5,3,5,7,1,2026-03-28T16:06:21.182301+05:30
Durgapur,West Bengal,23.5204,87.3119,31.7,47,0.0,991.4,8.35,28.4,120,84.8,65.0,0,5,7,1,2026-03-28T16:06:21.182331+05:30
Asansol,West Bengal,23.6739,86.9524,32.0,40,0.0,989.8,8.4,31.7,116,80.3,60.1,0,5,7,1,2026-03-28T16:06:21.182341+05:30
Pondicherry,Puducherry,11.9139,79.8145,33.9,58,0.0,1004.6,9.25,32.4,61,25.7,20.3,0,5,4,1,2026-03-28T16:06:21.182349+05:30
Port Blair,Andaman and Nicobar Islands,11.6234,92.7265,28.1,81,0.0,1004.3,9.15,27.0,69,28.7,20.9,7,5,4,1,2026-03-28T16:06:21.182357+05:30
Haridwar,Uttarakhand,29.9457,78.1642,30.5,42,0.0,970.7,5.7,27.0,75,19.6,14.5,0,5,3,1,2026-03-28T16:06:21.182365+05:30
Rishikesh,Uttarakhand,30.0869,78.2676,29.3,44,0.0,963.5,5.8,24.8,65,20.1,12.8,4,5,3,0,2026-03-28T16:06:21.182373+05:30
Nainital,Uttarakhand,29.3919,79.4542,21.4,54,0.0,804.2,4.8,25.9,78,27.9,18.1,0,5,3,0,2026-03-28T16:06:21.182381+05:30
Mussoorie,Uttarakhand,30.4599,78.0664,19.4,61,0.0,800.6,5.65,25.9,69,22.2,17.2,3,5,3,0,2026-03-28T16:06:21.182388+05:30
Dharamshala,Himachal Pradesh,32.219,76.3234,20.9,73,0.0,866.3,6.9,16.6,88,17.3,9.2,3,5,7,0,2026-03-28T16:06:21.182396+05:30
Dalhousie,Himachal Pradesh,32.5387,75.971,19.3,60,0.0,801.7,6.5,17.3,85,16.1,11.1,0,5,7,0,2026-03-28T16:06:21.182404+05:30
Patiala,Punjab,30.3398,76.3869,30.2,39,0.0,974.9,5.9,17.3,95,171.8,28.6,0,5,3,0,2026-03-28T16:06:21.182411+05:30
Bhatinda,Punjab,30.211,74.9455,32.5,28,0.0,979.7,6.9,17.3,78,41.0,14.2,0,5,7,0,2026-03-28T16:06:21.182418+05:30
Rohtak,Haryana,28.8955,76.6066,31.2,35,0.0,978.3,6.55,14.8,150,202.6,29.8,0,5,7,0,2026-03-28T16:06:21.182425+05:30
Panipat,Haryana,29.3909,76.9635,30.7,37,0.0,977.0,5.7,19.4,315,323.2,42.4,0,5,3,0,2026-03-28T16:06:21.182431+05:30
Mathura,Uttar Pradesh,27.4924,77.6737,33.4,32,0.0,983.0,6.35,20.9,280,516.0,53.0,0,5,7,0,2026-03-28T16:06:21.182438+05:30
Vrindavan,Uttar Pradesh,27.5823,77.7027,32.9,32,0.0,983.5,6.35,22.7,280,516.0,53.0,0,5,7,0,2026-03-28T16:06:21.182445+05:30
Ayodhya,Uttar Pradesh,26.7922,82.1998,32.1,34,0.0,991.2,6.85,31.7,96,70.5,22.6,0,5,7,0,2026-03-28T16:06:21.182451+05:30
Ratlam,Madhya Pradesh,23.3315,75.0367,33.0,31,0.0,951.5,8.1,37.1,43,14.6,5.6,0,5,7,0,2026-03-28T16:06:21.182458+05:30
Sagar,Madhya Pradesh,23.8388,78.7378,34.8,24,0.0,946.4,8.15,32.4,51,71.2,13.1,0,5,7,0,2026-03-28T16:06:21.182464+05:30
Satna,Madhya Pradesh,24.6005,80.8322,34.9,23,0.0,967.1,8.1,23.8,88,46.7,14.2,0,5,7,0,2026-03-28T16:06:21.182471+05:30
Akola,Maharashtra,20.7002,77.0082,37.8,18,0.0,970.9,8.5,37.1,49,15.4,6.8,0,5,10,0,2026-03-28T16:06:21.182479+05:30
Amravati,Maharashtra,20.9374,77.7796,37.6,20,0.0,963.0,8.45,33.5,49,15.5,7.0,0,5,10,0,2026-03-28T16:06:21.182487+05:30
Latur,Maharashtra,18.4088,76.5604,36.4,17,0.0,936.6,8.8,32.4,79,13.5,10.4,0,5,10,0,2026-03-28T16:06:21.182494+05:30
Nanded,Maharashtra,19.1383,77.3091,39.1,16,0.0,964.3,8.7,28.8,75,9.1,7.0,0,5,10,0,2026-03-28T16:06:21.182501+05:30
Gulbarga,Karnataka,17.3297,76.8343,38.9,15,0.0,954.9,8.9,31.7,100,25.6,18.7,0,5,10,0,2026-03-28T16:06:21.182507+05:30
Bidar,Karnataka,17.9104,77.5199,37.1,16,0.0,932.3,8.85,28.8,99,17.5,13.5,0,5,10,0,2026-03-28T16:06:21.182513+05:30
Hospet,Karnataka,15.2689,76.3909,35.9,28,0.0,952.5,9.1,45.0,123,52.2,40.3,0,5,10,0,2026-03-28T16:06:21.182520+05:30
Tirupur,Tamil Nadu,11.1085,77.3411,38.4,22,0.0,970.9,9.45,43.2,112,34.9,27.1,0,5,10,0,2026-03-28T16:06:21.182527+05:30
Alappuzha,Kerala,9.4981,76.3388,29.1,82,0.0,1005.8,9.15,31.3,85,29.7,24.4,7,5,4,1,2026-03-28T16:06:21.182534+05:30
Munnar,Kerala,10.0889,77.0595,24.8,76,0.0,855.7,9.7,40.7,75,26.9,21.5,3,5,7,1,2026-03-28T16:06:21.182541+05:30
Silchar,Assam,24.8333,92.7789,23.4,78,0.0,1004.0,3.4,30.2,153,57.3,45.4,3,5,0,1,2026-03-28T16:06:21.182548+05:30
Dibrugarh,Assam,27.4728,94.912,20.8,85,0.0,995.6,4.5,31.0,120,42.7,31.7,3,5,3,1,2026-03-28T16:06:21.182554+05:30
