city,state,latitude,longitude,temp,humidity,rain,pressure,uv_index,wind_gusts,aqi,pm10,pm2_5,no2,co,o3,so2,mosquito_risk,arthritis_risk,migraine_risk,frizz_risk,updated_at
Delhi,Delhi,28.6139,77.209,25.6,94,0.1,977.9,5.1,34.6,130,29.3,27.8,30.8,273.0,48.0,24.5,10,5,3,1,2026-07-21T05:27:34.500218+05:30
Mumbai,Maharashtra,19.076,72.8777,26.2,91,0.4,1005.7,6.85,53.3,59,36.9,16.1,4.2,119.0,48.0,4.2,10,5,4,1,2026-07-21T05:27:34.500260+05:30
Bangalore,Karnataka,12.9716,77.5946,19.7,94,0.0,911.1,8.5,46.1,34,5.6,4.0,8.2,158.0,29.0,4.4,3,10,7,1,2026-07-21T05:27:34.500275+05:30
Hyderabad,Telangana,17.385,78.4867,23.4,91,0.0,950.9,3.85,47.2,31,5.5,4.2,7.2,138.0,33.0,4.4,3,5,3,1,2026-07-21T05:27:34.500285+05:30
Chennai,Tamil Nadu,13.0827,80.2707,26.7,78,0.0,1006.5,7.85,37.1,77,14.3,11.4,18.4,334.0,23.0,8.3,7,5,4,1,2026-07-21T05:27:34.500293+05:30
Kolkata,West Bengal,22.5726,88.3639,25.4,97,0.2,1002.1,6.3,27.7,71,13.0,11.7,9.8,263.0,54.0,6.1,10,5,4,1,2026-07-21T05:27:34.500305+05:30
Pune,Maharashtra,18.5204,73.8567,23.0,88,0.0,945.1,2.65,54.7,23,4.0,2.7,4.2,106.0,39.0,3.8,3,5,3,1,2026-07-21T05:27:34.500312+05:30
Ahmedabad,Gujarat,23.0225,72.5714,27.3,82,0.0,996.7,5.9,32.0,62,26.0,16.8,11.8,141.0,28.0,4.4,7,5,3,1,2026-07-21T05:27:34.500319+05:30
Jaipur,Rajasthan,26.9124,75.7873,24.8,97,0.0,954.7,2.5,25.9,94,17.7,13.9,11.1,173.0,58.0,5.0,3,5,3,1,2026-07-21T05:27:34.500325+05:30
Lucknow,Uttar Pradesh,26.8467,80.9462,24.9,98,0.5,989.3,6.15,39.2,74,18.3,17.9,13.8,370.0,69.0,7.3,6,5,7,1,2026-07-21T05:27:34.500334+05:30
Kanpur,Uttar Pradesh,26.4499,80.3319,25.8,99,0.0,987.2,6.85,26.3,72,30.5,24.9,20.1,308.0,44.0,7.2,7,5,7,1,2026-07-21T05:27:34.500341+05:30
Chandigarh,Chandigarh,30.7333,76.7794,24.8,95,0.0,964.7,3.05,30.6,96,13.3,10.9,8.7,273.0,90.0,3.4,3,5,3,1,2026-07-21T05:27:34.500348+05:30
Srinagar,Jammu and Kashmir,34.0837,74.7973,19.7,99,0.1,838.8,8.25,18.4,57,8.6,8.4,14.4,205.0,32.0,0.6,6,10,7,1,2026-07-21T05:27:34.500355+05:30
Jammu,Jammu and Kashmir,32.7266,74.857,24.8,96,0.1,968.2,4.85,34.6,98,56.9,30.9,10.8,235.0,78.0,2.1,6,5,3,1,2026-07-21T05:27:34.500361+05:30
Amritsar,Punjab,31.634,74.8723,25.6,95,0.1,976.1,8.25,41.4,158,60.3,34.2,17.2,434.0,53.0,8.8,10,5,7,1,2026-07-21T05:27:34.500368+05:30
Ludhiana,Punjab,30.901,75.8573,25.6,99,0.2,974.5,6.75,42.8,122,36.2,27.0,15.6,388.0,70.0,11.6,10,5,7,1,2026-07-21T05:27:34.500374+05:30
Jalandhar,Punjab,31.326,75.5762,25.4,98,0.0,975.6,7.6,39.2,149,39.9,26.3,17.2,375.0,62.0,11.7,7,5,7,1,2026-07-21T05:27:34.500381+05:30
Dehradun,Uttarakhand,30.6284,78.0322,17.1,98,0.1,827.7,0.75,22.7,49,2.0,1.7,3.2,205.0,112.0,1.0,6,10,3,1,2026-07-21T05:27:34.500387+05:30
Shimla,Himachal Pradesh,31.1048,77.1734,14.8,98,0.0,782.1,0.7,20.2,64,9.7,5.9,4.3,213.0,103.0,1.4,3,10,3,0,2026-07-21T05:27:34.500394+05:30
Manali,Himachal Pradesh,32.2396,77.1887,19.2,88,0.0,817.2,7.75,23.8,29,3.8,3.8,10.4,247.0,56.0,0.1,3,10,7,1,2026-07-21T05:27:34.500404+05:30
Gurgaon,Haryana,28.4595,77.0266,25.0,97,0.0,976.3,5.85,39.6,118,37.3,27.1,26.1,273.0,53.0,16.3,7,5,3,1,2026-07-21T05:27:34.500411+05:30
Noida,Uttar Pradesh,28.5355,77.391,25.7,96,0.0,979.2,6.15,39.2,118,37.3,27.1,26.1,261.0,53.0,16.3,7,5,7,1,2026-07-21T05:27:34.500417+05:30
Ghaziabad,Uttar Pradesh,28.6692,77.4538,25.7,95,0.0,977.6,5.95,43.2,105,20.4,20.1,16.7,316.0,48.0,7.2,7,5,3,1,2026-07-21T05:27:34.500423+05:30
Faridabad,Haryana,28.4089,77.3178,25.6,95,0.1,978.5,5.85,42.5,118,37.3,27.1,26.1,257.0,53.0,16.3,10,5,3,1,2026-07-21T05:27:34.500428+05:30
Meerut,Uttar Pradesh,28.9845,77.7064,25.4,95,0.0,976.9,6.75,42.8,105,20.4,20.1,16.7,365.0,48.0,7.2,7,5,7,1,2026-07-21T05:27:34.500434+05:30
Agra,Uttar Pradesh,27.1767,78.0081,25.2,96,0.1,982.3,6.65,22.0,69,25.4,16.5,14.5,176.0,54.0,4.0,10,5,7,1,2026-07-21T05:27:34.500441+05:30
Varanasi,Uttar Pradesh,25.3176,82.9739,25.4,98,0.0,993.2,6.4,38.2,76,24.0,23.9,15.9,344.0,57.0,10.1,7,5,7,1,2026-07-21T05:27:34.500448+05:30
Prayagraj,Uttar Pradesh,25.4358,81.8463,26.2,93,0.0,991.2,2.75,30.6,77,14.2,14.1,10.7,227.0,82.0,4.9,7,5,3,1,2026-07-21T05:27:34.500454+05:30
Gorakhpur,Uttar Pradesh,26.7606,83.3732,24.9,96,0.1,994.2,5.25,43.2,63,18.7,18.5,12.3,322.0,52.0,8.2,6,5,3,1,2026-07-21T05:27:34.500460+05:30
Bareilly,Uttar Pradesh,28.367,79.4304,25.5,94,0.0,982.6,3.7,47.2,67,17.8,17.5,12.0,348.0,75.0,6.3,7,5,3,1,2026-07-21T05:27:34.500468+05:30
Aligarh,Uttar Pradesh,27.8974,78.088,25.2,96,0.8,979.5,6.25,32.8,94,34.8,22.1,18.3,245.0,56.0,8.2,10,5,7,1,2026-07-21T05:27:34.500474+05:30
Moradabad,Uttar Pradesh,28.8386,78.7733,25.5,94,0.0,979.4,5.6,48.6,69,19.7,19.2,12.0,369.0,75.0,8.4,7,5,3,1,2026-07-21T05:27:34.500481+05:30
Saharanpur,Uttar Pradesh,29.9637,77.546,25.3,96,0.1,971.8,6.65,44.6,79,33.6,32.5,22.4,343.0,45.0,8.2,10,5,7,1,2026-07-21T05:27:34.500487+05:30
Jhansi,Uttar Pradesh,25.4484,78.5685,25.6,94,0.0,973.0,4.5,27.7,64,23.6,17.8,19.7,213.0,36.0,5.0,7,5,3,1,2026-07-21T05:27:37.742652+05:30
Surat,Gujarat,21.1702,72.8311,25.6,96,0.1,1002.3,6.2,51.8,65,24.3,16.9,21.3,304.0,28.0,31.4,10,5,4,1,2026-07-21T05:27:37.742684+05:30
Vadodara,Gujarat,22.3072,73.1812,25.4,94,0.1,999.5,6.35,40.3,58,18.3,12.4,10.0,146.0,32.0,5.9,10,5,7,1,2026-07-21T05:27:37.742696+05:30
Rajkot,Gujarat,22.3039,70.8022,25.7,91,0.0,988.6,6.65,42.8,61,20.1,10.4,5.0,99.0,39.0,4.1,7,5,7,1,2026-07-21T05:27:37.742742+05:30
Thane,Maharashtra,19.2183,72.9781,24.8,97,0.1,1005.2,7.05,44.3,59,36.9,16.1,4.2,138.0,48.0,4.2,6,5,4,1,2026-07-21T05:27:37.742752+05:30
Nagpur,Maharashtra,21.1458,79.0882,24.2,98,0.2,969.3,1.85,37.4,61,7.1,5.7,10.7,163.0,43.0,8.7,6,5,3,1,2026-07-21T05:27:37.742761+05:30
Nashik,Maharashtra,19.9975,73.7898,22.2,96,0.0,941.7,4.65,52.9,21,5.5,3.5,7.0,115.0,36.0,6.2,3,5,3,1,2026-07-21T05:27:37.742769+05:30
Aurangabad,Maharashtra,19.8762,75.3433,22.8,94,0.0,940.6,5.65,57.6,28,4.2,2.9,7.0,127.0,36.0,7.7,3,5,3,1,2026-07-21T05:27:37.742777+05:30
Solapur,Maharashtra,17.6599,75.9064,23.7,82,0.0,955.4,6.25,53.6,24,7.9,5.3,5.8,122.0,32.0,2.4,3,5,7,1,2026-07-21T05:27:37.742784+05:30
Kolhapur,Maharashtra,16.705,74.2433,22.3,93,0.0,946.4,8.05,57.6,26,6.0,3.9,2.9,95.0,37.0,1.9,3,5,7,1,2026-07-21T05:27:37.742791+05:30
Goa,Goa,15.2993,74.124,23.5,98,0.1,998.2,7.45,35.3,58,22.5,13.0,2.9,261.0,38.0,0.9,6,5,7,1,2026-07-21T05:27:37.742797+05:30
Jodhpur,Rajasthan,26.2389,73.0243,29.3,68,0.0,977.3,7.9,34.9,80,83.6,20.7,6.0,132.0,53.0,2.8,7,5,7,1,2026-07-21T05:27:37.742804+05:30
Udaipur,Rajasthan,24.5854,73.7125,24.0,94,0.1,941.0,7.45,31.3,60,11.8,7.1,8.2,136.0,49.0,6.8,6,5,7,1,2026-07-21T05:27:37.742810+05:30
Kota,Rajasthan,25.2138,75.8648,26.8,90,0.0,973.3,1.2,27.7,68,22.4,18.8,16.5,186.0,39.0,7.3,7,5,3,1,2026-07-21T05:27:37.742817+05:30
Bikaner,Rajasthan,28.0229,73.3119,31.6,57,0.0,975.8,8.4,32.4,88,80.1,25.4,3.1,110.0,47.0,3.3,0,5,7,1,2026-07-21T05:27:37.742827+05:30
Ajmer,Rajasthan,26.4499,74.6399,27.1,77,0.0,949.4,5.15,37.8,59,15.3,13.2,14.5,138.0,40.0,5.8,7,5,3,1,2026-07-21T05:27:37.742834+05:30
Gwalior,Madhya Pradesh,26.2183,78.1828,24.6,91,0.0,978.0,5.15,20.2,64,15.4,10.9,13.9,164.0,45.0,2.2,3,5,3,1,2026-07-21T05:27:37.742840+05:30
Indore,Madhya Pradesh,22.7196,75.8577,23.8,94,0.0,943.2,4.6,37.8,53,8.3,7.1,9.8,169.0,35.0,9.0,3,5,3,1,2026-07-21T05:27:37.742847+05:30
Bhopal,Madhya Pradesh,23.2599,77.4126,23.6,98,0.4,948.6,3.25,28.4,63,9.3,8.5,7.9,217.0,47.0,2.3,6,5,3,1,2026-07-21T05:27:37.742854+05:30
Jabalpur,Madhya Pradesh,23.1815,79.9864,23.8,99,0.2,956.8,1.65,22.0,62,10.5,9.6,7.5,200.0,60.0,2.2,6,5,3,1,2026-07-21T05:27:37.742860+05:30
Ujjain,Madhya Pradesh,23.1765,75.7885,23.9,96,0.1,948.7,1.5,31.7,53,7.6,6.5,8.7,196.0,39.0,8.3,6,5,3,1,2026-07-21T05:27:37.742866+05:30
Visakhapatnam,Andhra Pradesh,17.6868,83.2185,26.5,89,0.0,999.3,7.05,35.6,79,10.5,9.5,19.1,291.0,48.0,32.2,7,5,7,1,2026-07-21T05:27:37.742873+05:30
Vijayawada,Andhra Pradesh,16.5062,80.648,26.2,85,0.0,1000.3,3.95,47.5,58,13.8,11.8,12.3,162.0,33.0,4.8,7,5,0,1,2026-07-21T05:27:37.742879+05:30
Guntur,Andhra Pradesh,16.3067,80.4365,26.3,84,0.0,1001.6,6.9,47.2,54,10.2,8.0,11.2,164.0,33.0,5.9,7,5,4,1,2026-07-21T05:27:37.742885+05:30
Nellore,Andhra Pradesh,14.4426,79.9865,27.5,74,0.0,1004.6,5.85,41.0,59,9.7,5.4,6.9,136.0,34.0,4.7,7,5,0,1,2026-07-21T05:27:37.742893+05:30
Kurnool,Andhra Pradesh,15.8281,78.0373,24.9,79,0.0,976.1,8.05,50.8,38,12.4,7.5,8.3,123.0,32.0,3.0,3,5,7,1,2026-07-21T05:27:37.742900+05:30
Kakinada,Andhra Pradesh,16.9891,82.2475,26.4,82,0.0,1004.2,8.05,54.4,65,12.0,9.4,7.5,164.0,56.0,4.1,7,5,4,1,2026-07-21T05:27:37.742906+05:30
Tirupati,Andhra Pradesh,13.6288,79.4192,26.1,72,0.0,990.3,8.4,33.5,61,9.1,6.5,10.5,155.0,22.0,1.8,7,5,7,1,2026-07-21T05:27:37.742912+05:30
Warangal,Telangana,17.9689,79.5941,24.6,92,0.1,975.9,4.1,35.3,39,5.7,4.4,5.9,137.0,39.0,1.7,6,5,3,1,2026-07-21T05:27:37.742918+05:30
Nizamabad,Telangana,18.6725,78.0941,23.7,94,0.0,962.1,4.3,46.8,36,6.1,4.2,6.8,141.0,34.0,4.1,3,5,3,1,2026-07-21T05:27:37.742924+05:30
Mysore,Karnataka,12.2958,76.6396,20.7,94,0.0,928.6,8.3,43.6,24,5.8,3.9,5.3,106.0,30.0,2.0,3,5,7,1,2026-07-21T05:27:37.742931+05:30
Mangalore,Karnataka,12.9141,74.856,23.3,98,0.0,1007.8,8.0,35.3,52,14.7,9.9,9.2,136.0,22.0,3.5,3,5,4,1,2026-07-21T05:27:37.742937+05:30
Hubli-Dharwad,Karnataka,15.3647,75.124,21.6,97,0.0,940.0,5.85,55.4,17,3.3,1.8,2.0,96.0,39.0,1.0,3,5,3,1,2026-07-21T05:27:37.742943+05:30
Belgaum,Karnataka,15.8497,74.4977,20.4,97,0.0,924.3,8.8,53.3,19,5.4,3.5,3.6,118.0,36.0,2.2,3,5,7,1,2026-07-21T05:27:40.987977+05:30
Coimbatore,Tamil Nadu,11.0168,76.9558,22.7,95,0.0,962.0,8.45,47.9,32,8.0,6.3,8.7,163.0,19.0,3.1,3,5,7,1,2026-07-21T05:27:40.988006+05:30
Madurai,Tamil Nadu,9.9252,78.1198,27.2,63,0.0,993.3,8.6,31.7,58,19.1,14.6,22.1,154.0,12.0,7.0,7,5,7,1,2026-07-21T05:27:40.988016+05:30
Trichy,Tamil Nadu,10.7905,78.7047,27.1,70,0.0,1000.0,8.55,45.7,40,8.8,6.0,6.2,118.0,30.0,3.2,7,5,4,1,2026-07-21T05:27:40.988024+05:30
Salem,Tamil Nadu,11.6643,78.146,23.9,90,0.0,977.8,8.15,30.2,58,17.8,14.3,20.9,413.0,15.0,7.4,3,5,7,1,2026-07-21T05:27:40.988031+05:30
Tirunelveli,Tamil Nadu,8.7139,77.7567,27.6,69,0.0,1004.2,8.2,40.3,35,9.1,6.0,7.3,149.0,25.0,2.6,7,5,4,1,2026-07-21T05:27:40.988039+05:30
Vellore,Tamil Nadu,12.9165,79.1325,26.0,69,0.0,984.2,8.1,38.2,60,15.7,13.0,21.3,162.0,13.0,5.0,7,5,7,1,2026-07-21T05:27:40.988045+05:30
Erode,Tamil Nadu,11.341,77.7172,25.1,82,0.0,989.7,8.35,37.4,49,13.1,11.0,15.0,128.0,20.0,4.3,7,5,7,1,2026-07-21T05:27:40.988052+05:30
Kochi,Kerala,9.9312,76.2673,25.6,92,0.0,1010.3,8.55,28.8,53,13.9,12.0,14.3,158.0,10.0,4.7,7,0,4,1,2026-07-21T05:27:40.988059+05:30
Thiruvananthapuram,Kerala,8.5241,76.9366,24.8,94,0.0,1009.8,7.65,38.5,47,15.7,10.9,7.9,152.0,31.0,3.9,3,0,4,1,2026-07-21T05:27:40.988066+05:30
Kozhikode,Kerala,11.2588,75.7804,23.8,97,0.0,1009.5,8.0,33.8,34,11.5,6.6,3.1,219.0,40.0,2.3,3,0,4,1,2026-07-21T05:27:40.988072+05:30
Thrissur,Kerala,10.5276,76.2144,23.9,98,0.0,1008.7,8.3,33.1,50,13.6,11.7,11.7,240.0,11.0,3.8,3,0,4,1,2026-07-21T05:27:40.988079+05:30
Kannur,Kerala,11.8745,75.3704,24.0,97,0.0,1008.7,7.95,31.3,41,11.9,7.9,9.9,201.0,18.0,2.6,3,0,4,1,2026-07-21T05:27:40.988086+05:30
Patna,Bihar,25.5941,85.1376,25.8,95,0.0,997.3,8.7,39.2,74,27.2,26.6,18.9,306.0,43.0,15.7,7,5,7,1,2026-07-21T05:27:40.988093+05:30
Gaya,Bihar,24.7914,85.0002,25.6,98,0.1,990.0,8.05,34.6,69,35.2,34.0,16.1,564.0,48.0,16.5,10,5,7,1,2026-07-21T05:27:40.988100+05:30
Muzaffarpur,Bihar,26.1209,85.3647,25.5,93,0.0,997.9,8.3,42.8,65,25.6,25.1,17.8,257.0,39.0,13.0,7,5,7,1,2026-07-21T05:27:40.988106+05:30
Bhagalpur,Bihar,25.2425,87.0117,25.9,95,0.0,998.7,5.75,38.2,63,17.1,16.8,17.6,296.0,32.0,7.9,7,5,3,1,2026-07-21T05:27:40.988113+05:30
Ranchi,Jharkhand,23.3441,85.3096,23.1,99,0.1,933.4,3.15,28.4,72,15.8,15.2,10.4,415.0,72.0,19.7,6,5,3,1,2026-07-21T05:27:40.988119+05:30
Jamshedpur,Jharkhand,22.8046,86.2029,25.1,97,0.2,986.4,2.8,22.0,90,20.0,18.2,12.0,383.0,52.0,12.0,10,5,3,1,2026-07-21T05:27:40.988125+05:30
Dhanbad,Jharkhand,23.7957,86.4304,25.1,95,0.1,976.1,6.6,35.6,139,33.9,32.9,35.6,287.0,28.0,83.0,10,5,7,1,2026-07-21T05:27:40.988131+05:30
Bokaro,Jharkhand,23.6693,86.1511,25.1,97,0.0,979.8,6.4,33.1,141,43.3,42.0,39.1,1476.0,26.0,94.1,7,5,7,1,2026-07-21T05:27:40.988138+05:30
Bhubaneswar,Odisha,20.2961,85.8245,26.1,95,0.1,997.7,5.8,27.7,87,35.4,31.9,15.5,367.0,54.0,6.5,10,5,3,1,2026-07-21T05:27:40.988144+05:30
Cuttack,Odisha,20.4625,85.8828,26.6,97,0.2,999.4,6.8,30.2,87,35.4,31.9,15.5,290.0,54.0,6.5,10,5,7,1,2026-07-21T05:27:40.988150+05:30
Rourkela,Odisha,22.2604,84.8536,25.3,98,0.2,980.4,1.05,21.6,113,33.4,29.7,13.0,255.0,79.0,18.4,10,5,3,1,2026-07-21T05:27:40.988157+05:30
Raipur,Chhattisgarh,21.2514,81.6296,24.3,98,0.2,970.4,1.0,32.4,93,16.7,15.9,24.9,501.0,51.0,38.1,6,5,3,1,2026-07-21T05:27:40.988163+05:30
Bhilai,Chhattisgarh,21.1938,81.3509,24.2,98,0.2,970.9,1.05,38.2,85,12.4,11.9,19.4,585.0,53.0,31.8,6,5,3,1,2026-07-21T05:27:40.988170+05:30
Guwahati,Assam,26.1158,91.7086,24.8,99,0.0,1000.8,7.25,28.4,39,7.3,7.0,8.0,225.0,41.0,1.5,3,5,4,1,2026-07-21T05:27:40.988176+05:30
Agartala,Tripura,23.8315,91.2868,24.9,98,0.0,1004.4,8.4,27.4,52,6.8,6.4,10.0,162.0,34.0,1.9,3,5,4,1,2026-07-21T05:27:40.988183+05:30
Shillong,Meghalaya,25.5788,91.8933,19.1,98,0.1,856.7,6.15,19.8,18,1.0,1.0,4.6,192.0,40.0,1.8,6,10,7,1,2026-07-21T05:27:40.988190+05:30
Imphal,Manipur,24.817,93.9368,22.1,90,0.0,922.6,7.8,24.1,58,7.8,7.5,11.6,287.0,30.0,2.3,3,5,7,1,2026-07-21T05:27:40.988196+05:30
Aizawl,Mizoram,23.7271,92.7176,19.6,99,0.1,891.0,3.1,30.2,27,4.6,4.2,7.3,138.0,17.0,0.5,6,10,3,1,2026-07-21T05:27:40.988203+05:30
Kohima,Nagaland,25.6701,94.1077,19.0,95,0.0,855.2,8.3,23.0,22,3.6,3.5,6.2,253.0,23.0,0.6,3,10,7,1,2026-07-21T05:27:40.988209+05:30
Gangtok,Sikkim,27.3314,88.6138,17.4,100,0.0,837.1,8.75,25.2,28,5.0,4.9,7.1,272.0,59.0,1.1,3,10,7,1,2026-07-21T05:27:40.988216+05:30
Siliguri,West Bengal,26.7271,88.3953,24.4,98,0.0,992.2,7.9,36.0,45,8.6,8.5,9.0,183.0,61.0,2.6,3,5,7,1,2026-07-21T05:27:44.264336+05:30
Durgapur,West Bengal,23.5204,87.3119,25.5,96,0.1,991.4,7.3,31.7,101,25.0,24.3,24.9,325.0,34.0,26.2,10,5,7,1,2026-07-21T05:27:44.264366+05:30
Asansol,West Bengal,23.6739,86.9524,25.2,97,0.1,990.1,7.05,36.7,101,24.0,23.3,27.3,363.0,34.0,32.7,10,5,7,1,2026-07-21T05:27:44.264376+05:30
Pondicherry,Puducherry,11.9139,79.8145,27.6,75,0.0,1008.0,7.85,37.1,80,37.8,29.7,25.0,311.0,34.0,9.0,7,0,4,1,2026-07-21T05:27:44.264384+05:30
Port Blair,Andaman and Nicobar Islands,11.6234,92.7265,26.8,86,0.0,1007.8,8.75,44.3,60,18.1,9.5,0.2,95.0,50.0,0.4,7,5,4,1,2026-07-21T05:27:44.264391+05:30
Haridwar,Uttarakhand,29.9457,78.1642,25.2,98,0.0,970.3,6.55,31.0,79,40.6,38.0,27.2,328.0,45.0,8.2,7,5,7,1,2026-07-21T05:27:44.264398+05:30
Rishikesh,Uttarakhand,30.0869,78.2676,24.6,96,0.0,963.0,5.15,25.6,58,14.5,13.2,7.2,290.0,91.0,3.8,3,5,3,1,2026-07-21T05:27:44.264405+05:30
Nainital,Uttarakhand,29.3919,79.4542,15.9,99,0.0,803.3,6.8,42.5,45,6.5,6.4,5.8,259.0,85.0,1.9,3,10,7,0,2026-07-21T05:27:44.264412+05:30
Mussoorie,Uttarakhand,30.4599,78.0664,16.0,100,0.1,800.5,1.05,27.0,57,11.3,10.0,9.3,222.0,99.0,5.7,6,10,3,0,2026-07-21T05:27:44.264419+05:30
Dharamshala,Himachal Pradesh,32.219,76.3234,20.2,100,0.1,866.2,4.0,25.6,36,1.8,1.3,6.1,224.0,74.0,1.1,6,5,3,1,2026-07-21T05:27:44.264426+05:30
Dalhousie,Himachal Pradesh,32.5387,75.971,17.3,100,0.1,802.4,1.65,30.2,85,21.4,10.5,4.9,304.0,100.0,2.8,6,10,3,1,2026-07-21T05:27:44.264433+05:30
Patiala,Punjab,30.3398,76.3869,26.2,94,0.0,973.9,2.8,37.4,101,30.0,25.8,14.3,350.0,77.0,8.4,7,5,3,1,2026-07-21T05:27:44.264440+05:30
Bhatinda,Punjab,30.211,74.9455,28.6,83,0.0,977.9,7.5,37.4,345,510.4,119.7,16.4,336.0,46.0,6.7,7,5,7,1,2026-07-21T05:27:44.264447+05:30
Rohtak,Haryana,28.8955,76.6066,25.8,93,0.0,977.0,5.25,27.7,138,35.6,30.4,37.4,368.0,41.0,23.8,7,5,3,1,2026-07-21T05:27:44.264453+05:30
Panipat,Haryana,29.3909,76.9635,25.9,95,0.0,975.8,4.65,36.4,144,35.4,31.4,23.9,327.0,49.0,11.7,7,5,3,1,2026-07-21T05:27:44.264459+05:30
Mathura,Uttar Pradesh,27.4924,77.6737,26.0,95,1.4,981.0,7.0,27.4,83,24.9,15.1,17.5,232.0,47.0,3.3,10,5,7,1,2026-07-21T05:27:44.264466+05:30
Vrindavan,Uttar Pradesh,27.5823,77.7027,25.9,96,0.8,981.4,6.9,28.1,83,24.9,15.1,17.5,206.0,47.0,3.3,10,5,7,1,2026-07-21T05:27:44.264472+05:30
Ayodhya,Uttar Pradesh,26.7922,82.1998,25.1,96,0.0,991.7,5.3,43.9,66,19.3,19.3,11.5,356.0,67.0,6.6,7,5,3,1,2026-07-21T05:27:44.264478+05:30
Ratlam,Madhya Pradesh,23.3315,75.0367,23.7,98,0.0,949.6,1.0,36.0,51,7.0,5.5,8.7,166.0,39.0,8.6,3,5,3,1,2026-07-21T05:27:44.264485+05:30
Sagar,Madhya Pradesh,23.8388,78.7378,22.9,97,0.4,945.4,1.2,29.2,54,8.0,7.3,7.7,189.0,56.0,1.1,6,5,3,1,2026-07-21T05:27:44.264491+05:30
Satna,Madhya Pradesh,24.6005,80.8322,24.7,96,0.4,966.4,3.85,24.5,64,11.4,10.0,7.9,213.0,68.0,2.4,6,5,3,1,2026-07-21T05:27:44.264497+05:30
Akola,Maharashtra,20.7002,77.0082,24.9,92,0.0,971.5,2.65,49.3,39,6.1,4.3,7.6,134.0,37.0,5.9,3,5,3,1,2026-07-21T05:27:44.264504+05:30
Amravati,Maharashtra,20.9374,77.7796,24.2,96,0.1,963.5,2.0,50.8,42,6.9,5.0,8.2,141.0,37.0,6.3,6,5,3,1,2026-07-21T05:27:44.264511+05:30
Latur,Maharashtra,18.4088,76.5604,22.9,92,0.0,937.2,5.1,49.3,29,5.6,4.1,5.3,136.0,33.0,2.5,3,5,3,1,2026-07-21T05:27:44.264517+05:30
Nanded,Maharashtra,19.1383,77.3091,24.3,91,0.0,965.6,2.9,45.4,34,6.2,4.4,6.1,133.0,34.0,2.9,3,5,3,1,2026-07-21T05:27:44.264523+05:30
Gulbarga,Karnataka,17.3297,76.8343,23.4,83,0.0,957.0,4.95,52.9,25,7.7,5.1,6.3,126.0,32.0,3.0,3,5,3,1,2026-07-21T05:27:44.264529+05:30
Bidar,Karnataka,17.9104,77.5199,22.5,96,0.0,932.9,5.75,50.4,29,4.5,3.7,6.4,122.0,31.0,2.2,3,5,3,1,2026-07-21T05:27:44.264535+05:30
Hospet,Karnataka,15.2689,76.3909,23.1,87,0.0,955.4,7.8,52.9,23,4.8,3.0,3.4,99.0,37.0,1.6,3,5,7,1,2026-07-21T05:27:44.264541+05:30
Tirupur,Tamil Nadu,11.1085,77.3411,23.5,91,0.0,975.8,8.7,54.4,52,16.6,14.3,19.5,137.0,13.0,5.5,3,5,7,1,2026-07-21T05:27:44.264547+05:30
Alappuzha,Kerala,9.4981,76.3388,25.6,91,0.0,1010.5,8.1,31.0,51,13.0,9.5,10.7,87.0,25.0,4.7,7,0,4,1,2026-07-21T05:27:44.264554+05:30
Munnar,Kerala,10.0889,77.0595,15.9,94,0.0,856.7,9.05,34.6,27,6.9,5.0,6.9,89.0,18.0,1.2,3,10,7,0,2026-07-21T05:27:44.264561+05:30
Silchar,Assam,24.8333,92.7789,24.9,96,0.0,1003.9,7.8,28.1,65,15.7,14.5,11.5,280.0,47.0,5.7,3,5,4,1,2026-07-21T05:27:44.264567+05:30
Dibrugarh,Assam,27.4728,94.912,25.1,96,0.1,994.5,8.6,23.0,68,46.3,45.4,31.5,171.0,16.0,2.8,10,5,7,1,2026-07-21T05:27:44.264574+05:30
