city,state,latitude,longitude,temp,humidity,rain,pressure,uv_index,wind_gusts,aqi,pm10,pm2_5,no2,co,o3,so2,mosquito_risk,arthritis_risk,migraine_risk,frizz_risk,updated_at
Delhi,Delhi,28.6139,77.209,38.0,37,0.0,976.2,7.65,34.6,308,614.7,117.6,5.3,218.0,136.0,11.4,0,5,10,1,2026-07-16T15:40:29.135347+05:30
Mumbai,Maharashtra,19.076,72.8777,28.2,79,0.0,1006.8,6.9,32.0,70,45.3,25.2,9.9,188.0,85.0,11.3,7,5,4,1,2026-07-16T15:40:29.135388+05:30
Bangalore,Karnataka,12.9716,77.5946,30.3,37,0.0,911.3,9.05,39.6,61,44.0,20.5,5.6,279.0,87.0,2.5,0,5,7,0,2026-07-16T15:40:29.135403+05:30
Hyderabad,Telangana,17.385,78.4867,31.5,47,0.0,950.2,8.6,47.9,61,34.8,14.8,3.7,229.0,93.0,2.8,0,5,7,1,2026-07-16T15:40:29.135413+05:30
Chennai,Tamil Nadu,13.0827,80.2707,37.5,28,0.0,1003.4,8.4,42.8,79,39.7,25.9,5.1,245.0,146.0,5.8,0,5,7,0,2026-07-16T15:40:29.135421+05:30
Kolkata,West Bengal,22.5726,88.3639,31.7,72,0.1,995.2,7.6,35.3,64,12.7,11.0,4.1,343.0,107.0,5.9,6,5,7,1,2026-07-16T15:40:29.135428+05:30
Pune,Maharashtra,18.5204,73.8567,26.8,68,0.1,946.3,7.95,46.1,50,22.9,10.0,3.0,145.0,64.0,3.7,10,5,7,1,2026-07-16T15:40:29.135435+05:30
Ahmedabad,Gujarat,23.0225,72.5714,34.6,47,0.1,997.4,7.0,36.0,83,51.7,19.8,2.1,147.0,86.0,3.6,3,5,7,1,2026-07-16T15:40:29.135442+05:30
Jaipur,Rajasthan,26.9124,75.7873,36.1,40,0.0,955.1,8.2,40.0,188,191.9,48.7,1.6,145.0,103.0,3.1,0,5,10,1,2026-07-16T15:40:29.135448+05:30
Lucknow,Uttar Pradesh,26.8467,80.9462,33.7,68,0.0,986.0,6.5,29.9,163,170.9,71.7,4.5,276.0,170.0,12.6,3,5,7,1,2026-07-16T15:40:29.135477+05:30
Kanpur,Uttar Pradesh,26.4499,80.3319,35.3,54,0.0,984.2,7.5,33.1,166,237.5,81.7,3.5,174.0,154.0,9.0,0,5,10,1,2026-07-16T15:40:29.135487+05:30
Chandigarh,Chandigarh,30.7333,76.7794,34.4,53,0.0,962.3,7.7,32.4,177,75.2,50.1,2.9,443.0,197.0,11.4,0,5,7,1,2026-07-16T15:40:29.135496+05:30
Srinagar,Jammu and Kashmir,34.0837,74.7973,32.4,34,0.0,839.6,9.0,18.0,129,23.4,14.3,1.3,281.0,167.0,2.7,0,5,7,0,2026-07-16T15:40:29.135504+05:30
Jammu,Jammu and Kashmir,32.7266,74.857,35.4,49,0.0,966.1,8.55,21.2,160,51.9,37.4,1.5,363.0,182.0,4.6,0,5,10,1,2026-07-16T15:40:29.135510+05:30
Amritsar,Punjab,31.634,74.8723,34.8,53,0.0,974.1,7.65,20.9,177,78.2,53.6,2.9,345.0,204.0,10.1,0,5,7,1,2026-07-16T15:40:29.135516+05:30
Ludhiana,Punjab,30.901,75.8573,36.1,47,0.0,971.9,7.95,29.9,173,75.9,50.1,2.2,338.0,161.0,4.6,0,5,10,1,2026-07-16T15:40:29.135522+05:30
Jalandhar,Punjab,31.326,75.5762,35.0,53,0.0,973.0,8.2,23.0,181,78.9,50.6,2.1,369.0,179.0,5.8,0,5,7,1,2026-07-16T15:40:29.135531+05:30
Dehradun,Uttarakhand,30.6284,78.0322,23.5,80,0.1,828.8,7.6,29.2,90,43.1,28.8,0.9,304.0,164.0,5.3,6,5,7,1,2026-07-16T15:40:29.135537+05:30
Shimla,Himachal Pradesh,31.1048,77.1734,22.8,59,0.0,784.9,8.25,41.4,120,49.8,31.5,0.9,266.0,160.0,7.2,0,5,7,0,2026-07-16T15:40:29.135543+05:30
Manali,Himachal Pradesh,32.2396,77.1887,26.6,64,0.0,819.0,9.6,33.5,77,13.3,5.9,0.6,175.0,147.0,1.0,7,5,7,1,2026-07-16T15:40:29.135551+05:30
Gurgaon,Haryana,28.4595,77.0266,37.9,35,0.0,974.8,7.75,34.9,328,650.1,118.5,6.1,222.0,127.0,8.9,0,5,10,1,2026-07-16T15:40:29.135557+05:30
Noida,Uttar Pradesh,28.5355,77.391,37.2,41,0.0,977.4,7.65,28.1,328,650.1,118.5,6.1,285.0,127.0,8.9,0,5,10,1,2026-07-16T15:40:29.135564+05:30
Ghaziabad,Uttar Pradesh,28.6692,77.4538,36.5,44,0.0,975.7,7.65,33.5,195,506.6,113.4,4.8,179.0,152.0,14.3,0,5,10,1,2026-07-16T15:40:29.135570+05:30
Faridabad,Haryana,28.4089,77.3178,37.7,37,0.0,976.9,7.7,35.3,328,650.1,118.5,6.1,183.0,127.0,8.9,0,5,10,1,2026-07-16T15:40:29.135576+05:30
Meerut,Uttar Pradesh,28.9845,77.7064,35.3,50,0.0,974.5,7.6,38.9,195,506.6,113.4,4.8,195.0,152.0,14.3,0,5,10,1,2026-07-16T15:40:29.135582+05:30
Agra,Uttar Pradesh,27.1767,78.0081,36.7,43,0.0,981.2,6.9,36.4,151,345.5,75.9,3.3,150.0,118.0,3.4,0,5,10,1,2026-07-16T15:40:29.135588+05:30
Varanasi,Uttar Pradesh,25.3176,82.9739,29.7,87,0.2,989.6,7.55,28.8,187,174.6,82.7,4.6,411.0,178.0,10.8,10,5,7,1,2026-07-16T15:40:29.135594+05:30
Prayagraj,Uttar Pradesh,25.4358,81.8463,34.4,60,0.0,988.2,6.75,33.8,172,159.7,67.8,4.0,225.0,156.0,10.2,0,5,7,1,2026-07-16T15:40:29.135601+05:30
Gorakhpur,Uttar Pradesh,26.7606,83.3732,30.1,84,0.3,990.0,7.95,25.2,155,40.3,31.8,5.1,356.0,139.0,4.5,6,5,7,1,2026-07-16T15:40:29.135607+05:30
Bareilly,Uttar Pradesh,28.367,79.4304,34.7,57,0.0,979.1,7.8,29.2,175,222.6,87.5,3.3,323.0,173.0,11.7,0,5,7,1,2026-07-16T15:40:29.135615+05:30
Aligarh,Uttar Pradesh,27.8974,78.088,35.8,47,0.0,978.7,7.8,31.7,179,655.7,133.6,4.0,171.0,147.0,9.5,0,5,10,1,2026-07-16T15:40:29.135621+05:30
Moradabad,Uttar Pradesh,28.8386,78.7733,35.2,55,0.0,976.2,7.8,36.0,186,177.0,83.6,3.4,299.0,169.0,9.8,0,5,10,1,2026-07-16T15:40:29.135626+05:30
Saharanpur,Uttar Pradesh,29.9637,77.546,33.9,59,0.0,968.7,7.4,34.6,170,128.5,62.2,3.6,298.0,174.0,11.2,0,5,7,1,2026-07-16T15:40:29.135632+05:30
Jhansi,Uttar Pradesh,25.4484,78.5685,35.1,51,0.0,971.9,6.15,38.5,107,89.2,30.4,1.6,126.0,106.0,3.3,0,5,10,1,2026-07-16T15:40:32.423104+05:30
Surat,Gujarat,21.1702,72.8311,30.4,71,0.0,1003.6,7.7,40.3,76,33.5,22.3,15.4,216.0,46.0,51.9,3,5,4,1,2026-07-16T15:40:32.423139+05:30
Vadodara,Gujarat,22.3072,73.1812,32.5,62,0.0,1000.5,6.5,39.2,72,47.3,21.9,2.9,147.0,96.0,7.2,3,5,4,1,2026-07-16T15:40:32.423150+05:30
Rajkot,Gujarat,22.3039,70.8022,34.3,49,0.0,989.5,6.3,34.2,70,63.3,22.3,1.5,108.0,69.0,3.1,0,5,7,1,2026-07-16T15:40:32.423159+05:30
Thane,Maharashtra,19.2183,72.9781,27.3,82,0.1,1006.2,6.55,30.6,70,45.3,25.2,9.9,182.0,85.0,11.3,10,5,4,1,2026-07-16T15:40:32.423169+05:30
Nagpur,Maharashtra,21.1458,79.0882,33.2,50,0.0,968.6,8.55,41.4,90,60.1,24.0,8.7,141.0,100.0,18.4,0,5,7,1,2026-07-16T15:40:32.423177+05:30
Nashik,Maharashtra,19.9975,73.7898,26.9,73,0.2,943.3,7.85,40.7,57,29.1,13.7,2.1,151.0,79.0,4.0,10,5,7,1,2026-07-16T15:40:32.423186+05:30
Aurangabad,Maharashtra,19.8762,75.3433,31.4,53,0.0,941.5,8.95,44.3,57,38.1,15.4,1.4,137.0,94.0,4.2,0,5,7,1,2026-07-16T15:40:32.423194+05:30
Solapur,Maharashtra,17.6599,75.9064,32.9,45,0.0,954.7,8.5,45.4,55,36.0,12.0,1.2,118.0,84.0,1.7,0,5,7,1,2026-07-16T15:40:32.423202+05:30
Kolhapur,Maharashtra,16.705,74.2433,26.0,74,0.0,946.8,7.75,44.6,51,21.0,9.8,2.8,128.0,62.0,1.6,7,5,7,1,2026-07-16T15:40:32.423210+05:30
Goa,Goa,15.2993,74.124,28.4,78,0.1,997.8,6.15,30.2,73,32.8,14.0,1.1,146.0,58.0,1.1,10,5,7,1,2026-07-16T15:40:32.423218+05:30
Jodhpur,Rajasthan,26.2389,73.0243,36.6,37,0.0,977.9,8.4,36.7,119,250.5,52.3,0.8,112.0,83.0,1.5,0,5,10,1,2026-07-16T15:40:32.423226+05:30
Udaipur,Rajasthan,24.5854,73.7125,31.5,51,0.0,943.0,8.8,31.0,78,78.5,28.2,0.8,114.0,83.0,2.3,0,5,7,1,2026-07-16T15:40:32.423234+05:30
Kota,Rajasthan,25.2138,75.8648,35.8,43,0.0,973.8,8.3,31.7,89,85.9,30.7,1.3,133.0,111.0,4.8,0,5,10,1,2026-07-16T15:40:32.423242+05:30
Bikaner,Rajasthan,28.0229,73.3119,39.2,31,0.0,975.8,8.4,37.4,136,182.5,54.7,0.4,108.0,80.0,2.2,0,5,10,1,2026-07-16T15:40:32.423250+05:30
Ajmer,Rajasthan,26.4499,74.6399,33.7,45,0.0,950.6,8.35,43.6,87,135.5,40.2,0.9,122.0,93.0,2.4,0,5,7,1,2026-07-16T15:40:32.423258+05:30
Gwalior,Madhya Pradesh,26.2183,78.1828,35.1,50,0.0,976.9,8.1,37.1,118,130.9,39.7,1.3,136.0,106.0,2.0,0,5,10,1,2026-07-16T15:40:32.423265+05:30
Indore,Madhya Pradesh,22.7196,75.8577,32.6,46,0.0,944.9,7.75,39.2,70,45.9,22.5,1.8,178.0,100.0,3.9,0,5,7,1,2026-07-16T15:40:32.423273+05:30
Bhopal,Madhya Pradesh,23.2599,77.4126,32.2,57,0.0,949.4,8.3,38.5,88,65.0,25.9,1.3,171.0,107.0,4.5,0,5,7,1,2026-07-16T15:40:32.423280+05:30
Jabalpur,Madhya Pradesh,23.1815,79.9864,32.0,59,0.0,955.8,8.7,35.3,113,72.2,31.2,1.8,154.0,112.0,4.4,0,5,7,1,2026-07-16T15:40:32.423288+05:30
Ujjain,Madhya Pradesh,23.1765,75.7885,31.7,54,0.0,950.2,8.45,36.0,72,49.9,24.1,1.2,144.0,96.0,3.9,0,5,7,1,2026-07-16T15:40:32.423296+05:30
Visakhapatnam,Andhra Pradesh,17.6868,83.2185,33.1,54,0.0,996.8,5.75,36.4,97,43.8,25.0,17.4,321.0,101.0,41.2,0,5,3,1,2026-07-16T15:40:32.423304+05:30
Vijayawada,Andhra Pradesh,16.5062,80.648,30.4,64,0.1,998.1,7.0,46.8,72,30.3,20.2,3.8,157.0,99.0,5.4,6,5,7,1,2026-07-16T15:40:32.423311+05:30
Guntur,Andhra Pradesh,16.3067,80.4365,34.7,47,0.0,999.2,7.6,45.7,70,29.7,17.8,2.8,139.0,97.0,4.5,0,5,7,1,2026-07-16T15:40:32.423319+05:30
Nellore,Andhra Pradesh,14.4426,79.9865,35.6,38,0.1,1002.0,8.0,43.2,66,43.2,20.0,3.4,120.0,104.0,4.7,3,5,7,1,2026-07-16T15:40:32.423327+05:30
Kurnool,Andhra Pradesh,15.8281,78.0373,34.8,39,0.0,973.8,8.15,43.9,66,41.6,17.0,1.6,119.0,97.0,6.2,0,5,7,1,2026-07-16T15:40:32.423336+05:30
Kakinada,Andhra Pradesh,16.9891,82.2475,32.4,59,0.2,1001.8,3.2,45.0,78,47.0,22.4,2.6,143.0,119.0,5.9,3,5,0,1,2026-07-16T15:40:32.423344+05:30
Tirupati,Andhra Pradesh,13.6288,79.4192,36.1,31,0.0,987.7,8.25,29.2,74,34.1,15.0,3.8,112.0,87.0,1.3,0,5,10,1,2026-07-16T15:40:32.423351+05:30
Warangal,Telangana,17.9689,79.5941,32.2,52,0.0,974.9,1.95,43.2,68,40.2,18.8,2.9,143.0,89.0,4.5,0,5,3,1,2026-07-16T15:40:32.423359+05:30
Nizamabad,Telangana,18.6725,78.0941,29.7,63,0.0,961.6,6.35,41.8,62,39.1,16.8,1.2,134.0,95.0,3.5,7,5,7,1,2026-07-16T15:40:32.423367+05:30
Mysore,Karnataka,12.2958,76.6396,29.1,51,0.0,927.9,8.75,44.3,59,27.9,13.2,2.7,131.0,82.0,1.5,4,5,7,1,2026-07-16T15:40:32.423374+05:30
Mangalore,Karnataka,12.9141,74.856,28.2,75,0.0,1007.3,7.75,29.5,74,29.8,13.4,1.0,111.0,64.0,1.7,7,5,4,1,2026-07-16T15:40:32.423381+05:30
Hubli-Dharwad,Karnataka,15.3647,75.124,26.9,67,0.0,939.9,6.95,47.5,55,40.7,15.3,1.6,124.0,61.0,0.9,7,5,7,1,2026-07-16T15:40:32.423389+05:30
Belgaum,Karnataka,15.8497,74.4977,25.3,73,0.1,924.9,7.95,46.4,51,26.5,11.0,2.1,113.0,59.0,1.5,10,5,7,1,2026-07-16T15:40:35.674487+05:30
Coimbatore,Tamil Nadu,11.0168,76.9558,31.4,52,0.0,960.5,8.55,53.6,59,22.9,11.7,1.7,137.0,79.0,1.9,0,5,7,1,2026-07-16T15:40:35.674523+05:30
Madurai,Tamil Nadu,9.9252,78.1198,39.2,25,0.0,989.8,8.25,46.4,87,31.1,17.3,2.2,138.0,126.0,2.4,0,5,10,0,2026-07-16T15:40:35.674538+05:30
Trichy,Tamil Nadu,10.7905,78.7047,38.2,27,0.0,996.4,8.05,45.7,69,28.1,15.9,1.6,125.0,107.0,2.2,0,5,10,0,2026-07-16T15:40:35.674548+05:30
Salem,Tamil Nadu,11.6643,78.146,34.1,38,0.0,974.9,8.0,20.5,76,31.9,17.3,3.0,142.0,118.0,5.1,0,5,7,1,2026-07-16T15:40:35.674557+05:30
Tirunelveli,Tamil Nadu,8.7139,77.7567,38.5,27,0.0,1000.2,8.0,40.7,61,20.7,11.6,1.6,123.0,87.0,1.5,0,5,7,0,2026-07-16T15:40:35.674565+05:30
Vellore,Tamil Nadu,12.9165,79.1325,37.5,24,0.0,980.8,8.05,42.1,72,56.7,25.3,3.8,140.0,101.0,2.4,0,5,10,0,2026-07-16T15:40:35.674572+05:30
Erode,Tamil Nadu,11.341,77.7172,37.0,27,0.0,986.2,8.3,47.2,68,22.7,12.3,2.6,150.0,99.0,1.9,0,5,10,0,2026-07-16T15:40:35.674580+05:30
Kochi,Kerala,9.9312,76.2673,28.5,77,0.0,1009.0,8.55,28.8,79,30.6,14.0,2.3,124.0,74.0,2.7,7,0,4,1,2026-07-16T15:40:35.674588+05:30
Thiruvananthapuram,Kerala,8.5241,76.9366,28.5,76,0.0,1007.9,7.75,40.7,67,37.6,17.5,2.7,101.0,72.0,1.3,7,5,4,1,2026-07-16T15:40:35.674595+05:30
Kozhikode,Kerala,11.2588,75.7804,28.9,74,0.0,1007.9,8.0,34.9,66,29.9,13.0,0.7,112.0,64.0,1.2,7,5,4,1,2026-07-16T15:40:35.674602+05:30
Thrissur,Kerala,10.5276,76.2144,29.4,70,0.0,1007.2,8.5,36.4,73,29.9,13.5,1.6,103.0,65.0,1.7,7,5,4,1,2026-07-16T15:40:35.674610+05:30
Kannur,Kerala,11.8745,75.3704,29.3,69,0.0,1007.4,7.5,32.0,70,40.5,16.4,1.7,98.0,59.0,1.2,7,5,4,1,2026-07-16T15:40:35.674617+05:30
Patna,Bihar,25.5941,85.1376,31.5,79,0.0,992.0,6.45,29.9,138,25.1,24.6,4.4,336.0,153.0,9.2,3,5,7,1,2026-07-16T15:40:35.674624+05:30
Gaya,Bihar,24.7914,85.0002,33.6,67,0.1,985.0,8.45,22.7,134,19.4,18.7,2.9,309.0,136.0,5.2,6,5,7,1,2026-07-16T15:40:35.674631+05:30
Muzaffarpur,Bihar,26.1209,85.3647,32.6,70,0.0,992.3,6.55,28.4,127,25.5,25.2,4.7,259.0,153.0,9.0,3,5,7,1,2026-07-16T15:40:35.674638+05:30
Bhagalpur,Bihar,25.2425,87.0117,31.3,78,0.2,992.3,8.65,31.0,96,22.5,17.1,4.9,215.0,134.0,10.0,6,5,7,1,2026-07-16T15:40:35.674645+05:30
Ranchi,Jharkhand,23.3441,85.3096,27.4,79,0.1,930.5,8.75,36.7,86,14.5,13.5,3.6,250.0,115.0,6.3,10,5,7,1,2026-07-16T15:40:35.674652+05:30
Jamshedpur,Jharkhand,22.8046,86.2029,28.9,84,0.1,981.6,6.15,36.0,84,23.3,21.2,7.3,448.0,131.0,19.1,10,5,7,1,2026-07-16T15:40:35.674659+05:30
Dhanbad,Jharkhand,23.7957,86.4304,31.7,69,0.0,970.9,8.5,33.8,106,26.8,23.5,12.2,209.0,133.0,37.4,3,5,7,1,2026-07-16T15:40:35.674666+05:30
Bokaro,Jharkhand,23.6693,86.1511,31.1,76,0.0,974.7,8.35,33.5,108,23.7,21.0,12.4,208.0,119.0,38.5,3,5,7,1,2026-07-16T15:40:35.674673+05:30
Bhubaneswar,Odisha,20.2961,85.8245,26.9,94,0.3,993.0,6.8,50.4,89,20.7,17.1,8.9,301.0,95.0,9.6,10,5,7,1,2026-07-16T15:40:35.674680+05:30
Cuttack,Odisha,20.4625,85.8828,27.8,92,0.2,994.5,6.95,40.0,89,20.7,17.1,8.9,254.0,95.0,9.6,10,5,7,1,2026-07-16T15:40:35.674688+05:30
Rourkela,Odisha,22.2604,84.8536,28.5,89,0.0,976.9,7.7,36.7,90,13.8,13.4,5.3,336.0,110.0,6.9,7,5,7,1,2026-07-16T15:40:35.674695+05:30
Raipur,Chhattisgarh,21.2514,81.6296,30.6,71,0.0,968.6,5.25,38.2,152,59.6,41.3,24.5,183.0,93.0,56.3,3,5,3,1,2026-07-16T15:40:35.674703+05:30
Bhilai,Chhattisgarh,21.1938,81.3509,28.8,77,0.0,969.3,4.4,36.4,136,56.3,34.7,17.0,791.0,102.0,39.8,7,5,3,1,2026-07-16T15:40:35.674710+05:30
Guwahati,Assam,26.1158,91.7086,30.7,74,0.0,993.2,6.7,22.7,58,11.5,9.2,3.1,262.0,86.0,1.4,3,5,7,1,2026-07-16T15:40:35.674717+05:30
Agartala,Tripura,23.8315,91.2868,31.3,70,0.0,998.2,8.35,43.6,62,17.6,10.7,3.3,173.0,109.0,1.8,3,5,7,1,2026-07-16T15:40:35.674724+05:30
Shillong,Meghalaya,25.5788,91.8933,26.1,63,0.0,853.8,8.5,33.5,42,11.1,7.3,2.3,154.0,92.0,1.6,7,5,7,1,2026-07-16T15:40:35.674730+05:30
Imphal,Manipur,24.817,93.9368,27.1,81,0.2,916.9,6.9,24.1,58,12.9,7.8,2.1,193.0,86.0,1.3,10,5,7,1,2026-07-16T15:40:35.674737+05:30
Aizawl,Mizoram,23.7271,92.7176,23.6,87,0.2,887.5,8.1,34.9,57,10.6,5.5,2.1,142.0,72.0,0.7,6,5,7,1,2026-07-16T15:40:35.674744+05:30
Kohima,Nagaland,25.6701,94.1077,22.7,95,0.1,851.1,8.05,24.1,45,8.4,5.4,2.1,142.0,72.0,0.8,6,5,7,1,2026-07-16T15:40:35.674751+05:30
Gangtok,Sikkim,27.3314,88.6138,21.5,100,0.1,834.7,7.2,37.4,45,3.0,2.6,3.5,238.0,95.0,1.5,6,5,7,1,2026-07-16T15:40:35.674758+05:30
Siliguri,West Bengal,26.7271,88.3953,31.8,69,0.0,985.2,7.4,24.1,68,16.2,13.5,3.7,300.0,119.0,2.5,3,5,7,1,2026-07-16T15:40:38.937401+05:30
Durgapur,West Bengal,23.5204,87.3119,32.9,62,0.1,984.9,7.05,35.3,85,18.4,16.8,10.8,259.0,128.0,25.0,6,5,7,1,2026-07-16T15:40:38.937433+05:30
Asansol,West Bengal,23.6739,86.9524,32.9,67,0.0,983.8,8.05,32.8,84,21.9,19.0,9.8,256.0,139.0,23.0,3,5,7,1,2026-07-16T15:40:38.937445+05:30
Pondicherry,Puducherry,11.9139,79.8145,34.7,49,0.0,1005.0,8.2,43.9,76,51.1,34.5,12.2,216.0,157.0,9.4,0,5,4,1,2026-07-16T15:40:38.937454+05:30
Port Blair,Andaman and Nicobar Islands,11.6234,92.7265,30.0,72,0.0,1005.8,8.45,50.0,52,17.0,8.4,0.4,93.0,45.0,0.5,7,5,4,1,2026-07-16T15:40:38.937484+05:30
Haridwar,Uttarakhand,29.9457,78.1642,34.5,56,0.0,967.0,7.5,28.8,146,100.1,59.3,2.3,334.0,190.0,11.9,0,5,7,1,2026-07-16T15:40:38.937494+05:30
Rishikesh,Uttarakhand,30.0869,78.2676,33.3,59,0.0,960.0,7.6,25.2,125,77.5,47.8,1.3,323.0,181.0,9.8,0,5,7,1,2026-07-16T15:40:38.937503+05:30
Nainital,Uttarakhand,29.3919,79.4542,20.6,87,0.0,803.7,6.45,28.1,139,76.6,44.6,2.4,300.0,169.0,10.6,3,5,7,1,2026-07-16T15:40:38.937512+05:30
Mussoorie,Uttarakhand,30.4599,78.0664,22.6,75,0.0,802.1,7.3,41.4,137,73.6,50.3,1.7,290.0,195.0,9.8,3,5,7,1,2026-07-16T15:40:38.937520+05:30
Dharamshala,Himachal Pradesh,32.219,76.3234,26.7,66,0.0,867.0,8.45,31.3,90,31.3,20.6,0.7,269.0,149.0,2.4,7,5,7,1,2026-07-16T15:40:38.937528+05:30
Dalhousie,Himachal Pradesh,32.5387,75.971,22.4,78,0.1,804.0,7.75,30.2,144,43.1,29.5,1.0,254.0,172.0,3.3,6,5,7,1,2026-07-16T15:40:38.937537+05:30
Patiala,Punjab,30.3398,76.3869,34.7,55,0.0,971.5,7.6,31.0,180,362.3,85.7,2.6,260.0,154.0,7.1,0,5,7,1,2026-07-16T15:40:38.937544+05:30
Bhatinda,Punjab,30.211,74.9455,38.9,35,0.0,976.8,7.65,28.1,178,176.5,60.1,2.2,177.0,128.0,6.0,0,5,10,1,2026-07-16T15:40:38.937552+05:30
Rohtak,Haryana,28.8955,76.6066,36.9,41,0.0,975.0,7.05,29.9,560,767.4,124.3,3.1,160.0,117.0,5.8,0,5,10,1,2026-07-16T15:40:38.937559+05:30
Panipat,Haryana,29.3909,76.9635,35.4,49,0.0,973.6,6.85,34.2,988,2652.4,304.5,3.7,205.0,126.0,10.4,0,5,10,1,2026-07-16T15:40:38.937567+05:30
Mathura,Uttar Pradesh,27.4924,77.6737,36.0,47,0.0,980.3,7.9,33.5,498,832.6,126.2,4.2,160.0,109.0,3.1,0,5,10,1,2026-07-16T15:40:38.937575+05:30
Vrindavan,Uttar Pradesh,27.5823,77.7027,36.1,47,0.0,980.7,7.9,32.0,498,832.6,126.2,4.2,155.0,109.0,3.1,0,5,10,1,2026-07-16T15:40:38.937582+05:30
Ayodhya,Uttar Pradesh,26.7922,82.1998,27.3,93,0.3,988.1,7.95,28.4,181,119.7,62.2,4.9,352.0,153.0,6.4,10,5,7,1,2026-07-16T15:40:38.937590+05:30
Ratlam,Madhya Pradesh,23.3315,75.0367,31.8,53,0.0,951.1,7.8,32.8,71,57.4,25.9,1.0,124.0,94.0,3.6,0,5,7,1,2026-07-16T15:40:38.937598+05:30
Sagar,Madhya Pradesh,23.8388,78.7378,27.5,79,0.1,945.6,8.3,44.6,92,78.2,31.4,1.2,135.0,103.0,2.9,10,5,7,1,2026-07-16T15:40:38.937605+05:30
Satna,Madhya Pradesh,24.6005,80.8322,29.2,82,0.2,965.1,7.75,35.3,138,170.4,58.4,1.5,145.0,121.0,3.2,10,5,7,1,2026-07-16T15:40:38.937613+05:30
Akola,Maharashtra,20.7002,77.0082,35.2,44,0.0,971.2,8.75,43.6,67,40.9,17.2,1.5,123.0,94.0,5.1,0,5,10,1,2026-07-16T15:40:38.937622+05:30
Amravati,Maharashtra,20.9374,77.7796,33.7,49,0.0,963.4,8.75,42.5,69,41.1,17.4,1.9,124.0,96.0,5.8,0,5,7,1,2026-07-16T15:40:38.937630+05:30
Latur,Maharashtra,18.4088,76.5604,30.9,51,0.0,937.0,2.5,37.4,54,37.4,12.9,1.0,117.0,77.0,1.7,0,5,3,1,2026-07-16T15:40:38.937639+05:30
Nanded,Maharashtra,19.1383,77.3091,31.3,56,0.1,965.3,8.75,36.4,62,34.6,14.8,1.2,126.0,91.0,2.8,3,5,7,1,2026-07-16T15:40:38.937647+05:30
Gulbarga,Karnataka,17.3297,76.8343,32.5,47,0.1,956.1,8.45,40.3,56,34.5,12.5,1.5,119.0,89.0,2.0,3,5,7,1,2026-07-16T15:40:38.937654+05:30
Bidar,Karnataka,17.9104,77.5199,27.5,69,0.1,932.7,8.2,38.5,57,40.4,15.9,2.0,130.0,89.0,2.7,10,5,7,1,2026-07-16T15:40:38.937662+05:30
Hospet,Karnataka,15.2689,76.3909,31.8,45,0.0,953.9,8.25,46.4,54,45.2,16.6,2.3,123.0,73.0,1.6,0,5,7,1,2026-07-16T15:40:38.937669+05:30
Tirupur,Tamil Nadu,11.1085,77.3411,33.2,46,0.0,973.3,8.2,59.0,70,24.2,13.1,2.4,138.0,96.0,2.5,0,5,7,1,2026-07-16T15:40:38.937677+05:30
Alappuzha,Kerala,9.4981,76.3388,28.6,77,0.0,1009.0,8.05,33.8,72,34.0,16.1,2.9,95.0,76.0,2.8,7,0,4,1,2026-07-16T15:40:38.937685+05:30
Munnar,Kerala,10.0889,77.0595,19.8,88,0.0,857.4,8.75,32.8,58,17.9,9.1,1.3,111.0,74.0,1.5,3,10,7,1,2026-07-16T15:40:38.937693+05:30
Silchar,Assam,24.8333,92.7789,33.8,63,0.0,996.3,8.15,45.0,60,24.0,14.0,2.0,176.0,106.0,3.5,3,5,7,1,2026-07-16T15:40:38.937701+05:30
Dibrugarh,Assam,27.4728,94.912,31.4,72,0.0,987.0,8.3,25.9,48,6.4,6.0,3.3,199.0,102.0,1.4,3,5,7,1,2026-07-16T15:40:38.937708+05:30
