city,state,latitude,longitude,temp,humidity,rain,pressure,uv_index,wind_gusts,aqi,pm10,pm2_5,no2,co,o3,so2,mosquito_risk,arthritis_risk,migraine_risk,frizz_risk,updated_at
Delhi,Delhi,28.6139,77.209,34.7,41,0.0,979.7,7.8,37.1,368,484.3,116.2,38.6,381.0,64.0,16.6,0,5,7,1,2026-06-19T21:37:05.593480+05:30
Mumbai,Maharashtra,19.076,72.8777,30.5,63,0.0,1008.9,7.7,45.0,57,25.9,13.4,8.6,177.0,43.0,6.7,3,0,4,1,2026-06-19T21:37:05.593529+05:30
Bangalore,Karnataka,12.9716,77.5946,22.2,90,0.0,913.0,6.65,29.2,57,29.6,26.8,56.2,1141.0,28.0,11.5,3,5,7,1,2026-06-19T21:37:05.593545+05:30
Hyderabad,Telangana,17.385,78.4867,30.6,57,0.0,953.4,8.8,37.4,72,56.9,48.8,54.5,526.0,29.0,14.3,0,5,7,1,2026-06-19T21:37:05.593555+05:30
Chennai,Tamil Nadu,13.0827,80.2707,29.8,83,0.0,1007.1,7.6,36.4,129,33.9,26.3,11.5,324.0,131.0,10.3,7,5,4,1,2026-06-19T21:37:05.593564+05:30
Kolkata,West Bengal,22.5726,88.3639,27.0,84,0.0,1004.3,9.0,27.4,105,51.1,48.3,18.1,641.0,79.0,13.0,7,5,4,1,2026-06-19T21:37:05.593572+05:30
Pune,Maharashtra,18.5204,73.8567,26.1,69,0.0,948.8,8.25,41.4,49,13.5,8.9,6.5,151.0,48.0,5.1,7,5,7,1,2026-06-19T21:37:05.593580+05:30
Ahmedabad,Gujarat,23.0225,72.5714,30.4,66,0.0,1000.4,6.65,39.6,68,42.3,23.7,13.9,181.0,50.0,5.8,3,5,4,1,2026-06-19T21:37:05.593586+05:30
Jaipur,Rajasthan,26.9124,75.7873,29.2,66,0.0,957.6,8.2,28.8,122,194.6,51.8,14.0,449.0,54.0,5.4,7,5,7,1,2026-06-19T21:37:05.593594+05:30
Lucknow,Uttar Pradesh,26.8467,80.9462,34.3,44,0.0,989.3,8.35,47.5,158,297.1,80.8,14.3,325.0,84.0,8.0,0,5,7,1,2026-06-19T21:37:05.593605+05:30
Kanpur,Uttar Pradesh,26.4499,80.3319,35.8,38,0.0,987.9,8.3,40.3,155,402.3,85.7,15.7,222.0,69.0,6.9,0,5,10,1,2026-06-19T21:37:05.593613+05:30
Chandigarh,Chandigarh,30.7333,76.7794,28.5,67,0.0,965.5,7.8,29.5,155,53.6,46.2,24.4,820.0,106.0,13.3,7,5,7,1,2026-06-19T21:37:05.593620+05:30
Srinagar,Jammu and Kashmir,34.0837,74.7973,17.7,86,0.0,842.3,7.7,31.3,76,16.8,15.6,24.5,860.0,58.0,1.7,3,10,7,0,2026-06-19T21:37:05.593628+05:30
Jammu,Jammu and Kashmir,32.7266,74.857,29.2,56,0.0,969.5,8.6,60.8,103,58.8,45.8,47.6,608.0,69.0,7.8,4,5,7,1,2026-06-19T21:37:05.593635+05:30
Amritsar,Punjab,31.634,74.8723,28.8,69,0.0,977.3,8.4,29.5,144,68.5,51.3,30.6,670.0,88.0,12.8,7,5,7,1,2026-06-19T21:37:05.593641+05:30
Ludhiana,Punjab,30.901,75.8573,29.5,67,0.0,975.4,8.05,26.3,152,110.1,57.4,21.0,648.0,87.0,7.9,7,5,7,1,2026-06-19T21:37:05.593648+05:30
Jalandhar,Punjab,31.326,75.5762,29.1,69,0.0,976.4,8.25,28.1,152,105.9,58.4,24.4,850.0,82.0,7.7,7,5,7,1,2026-06-19T21:37:05.593654+05:30
Dehradun,Uttarakhand,30.6284,78.0322,18.0,92,0.0,829.1,7.7,30.2,103,31.3,24.0,24.4,225.0,85.0,1.5,3,10,7,1,2026-06-19T21:37:05.593661+05:30
Shimla,Himachal Pradesh,31.1048,77.1734,14.0,96,0.0,782.6,7.75,28.4,125,58.2,41.6,21.0,459.0,104.0,6.8,3,10,7,0,2026-06-19T21:37:05.593669+05:30
Manali,Himachal Pradesh,32.2396,77.1887,17.0,85,0.0,818.2,9.45,38.9,65,6.8,5.7,65.4,333.0,65.0,0.3,3,10,7,0,2026-06-19T21:37:05.593678+05:30
Gurgaon,Haryana,28.4595,77.0266,32.0,55,0.0,978.1,7.9,32.0,501,412.6,109.9,47.4,1050.0,50.0,16.0,0,5,7,1,2026-06-19T21:37:05.593686+05:30
Noida,Uttar Pradesh,28.5355,77.391,32.5,53,0.0,980.9,7.85,28.4,501,412.6,109.9,47.4,697.0,50.0,16.0,0,5,7,1,2026-06-19T21:37:05.593692+05:30
Ghaziabad,Uttar Pradesh,28.6692,77.4538,32.0,53,0.0,979.1,7.8,25.6,228,391.2,117.6,39.5,401.0,69.0,21.6,0,5,7,1,2026-06-19T21:37:05.593701+05:30
Faridabad,Haryana,28.4089,77.3178,34.1,44,0.0,980.3,7.9,35.6,501,412.6,109.9,47.4,745.0,50.0,16.0,0,5,7,1,2026-06-19T21:37:05.593708+05:30
Meerut,Uttar Pradesh,28.9845,77.7064,31.1,61,0.0,977.8,7.75,31.7,228,391.2,117.6,39.5,502.0,69.0,21.6,3,5,7,1,2026-06-19T21:37:05.593715+05:30
Agra,Uttar Pradesh,27.1767,78.0081,34.4,39,0.0,984.5,8.15,37.8,358,188.1,62.2,32.5,281.0,44.0,10.1,0,5,7,1,2026-06-19T21:37:05.593721+05:30
Varanasi,Uttar Pradesh,25.3176,82.9739,32.2,57,0.1,994.2,8.8,33.8,99,85.2,53.4,26.4,1096.0,60.0,12.9,3,5,7,1,2026-06-19T21:37:05.593729+05:30
Prayagraj,Uttar Pradesh,25.4358,81.8463,35.7,39,0.0,992.0,8.7,36.7,112,69.2,42.0,16.8,284.0,61.0,8.4,0,5,10,1,2026-06-19T21:37:05.593736+05:30
Gorakhpur,Uttar Pradesh,26.7606,83.3732,32.3,63,0.0,993.0,8.7,29.9,161,123.9,81.3,40.4,537.0,70.0,19.6,3,5,7,1,2026-06-19T21:37:05.593743+05:30
Bareilly,Uttar Pradesh,28.367,79.4304,31.9,56,0.0,982.9,8.15,32.4,153,150.4,81.3,21.1,365.0,107.0,15.5,0,5,7,1,2026-06-19T21:37:05.593751+05:30
Aligarh,Uttar Pradesh,27.8974,78.088,32.4,52,0.0,982.0,8.0,35.3,340,428.4,110.1,31.1,471.0,56.0,9.7,0,5,7,1,2026-06-19T21:37:05.593757+05:30
Moradabad,Uttar Pradesh,28.8386,78.7733,31.7,62,0.0,979.8,7.95,34.2,159,211.9,114.6,41.4,477.0,82.0,18.6,3,5,7,1,2026-06-19T21:37:05.593763+05:30
Saharanpur,Uttar Pradesh,29.9637,77.546,30.0,61,0.0,972.1,7.55,27.0,160,370.7,108.5,22.8,509.0,89.0,12.5,7,5,7,1,2026-06-19T21:37:05.593770+05:30
Jhansi,Uttar Pradesh,25.4484,78.5685,33.0,46,0.0,975.7,8.5,36.0,72,33.6,19.0,6.1,153.0,65.0,2.6,0,5,7,1,2026-06-19T21:37:08.938532+05:30
Surat,Gujarat,21.1702,72.8311,29.7,75,0.0,1006.5,7.6,43.6,67,28.8,18.8,20.7,270.0,31.0,33.1,7,5,4,1,2026-06-19T21:37:08.938566+05:30
Vadodara,Gujarat,22.3072,73.1812,29.8,71,0.0,1003.2,7.85,37.8,61,21.3,14.9,14.9,156.0,39.0,14.0,7,5,4,1,2026-06-19T21:37:08.938577+05:30
Rajkot,Gujarat,22.3039,70.8022,30.6,59,0.0,992.9,7.5,42.1,62,41.9,17.8,4.0,115.0,50.0,3.3,0,5,7,1,2026-06-19T21:37:08.938586+05:30
Thane,Maharashtra,19.2183,72.9781,30.4,63,0.0,1008.3,7.7,39.6,57,25.9,13.4,8.6,179.0,43.0,6.7,3,0,4,1,2026-06-19T21:37:08.938595+05:30
Nagpur,Maharashtra,21.1458,79.0882,33.3,41,0.0,972.4,8.85,39.6,83,27.9,20.5,16.0,327.0,69.0,12.1,0,5,7,1,2026-06-19T21:37:08.938603+05:30
Nashik,Maharashtra,19.9975,73.7898,26.6,64,0.0,946.2,8.05,42.8,49,18.1,10.8,4.2,123.0,54.0,2.2,7,5,7,1,2026-06-19T21:37:08.938611+05:30
Aurangabad,Maharashtra,19.8762,75.3433,30.9,40,0.0,944.3,8.95,42.5,64,16.4,12.3,5.0,156.0,102.0,6.4,0,5,7,0,2026-06-19T21:37:08.938619+05:30
Solapur,Maharashtra,17.6599,75.9064,32.8,39,0.0,956.8,8.3,42.1,52,23.1,17.1,11.6,287.0,65.0,3.4,0,5,7,1,2026-06-19T21:37:08.938628+05:30
Kolhapur,Maharashtra,16.705,74.2433,25.5,74,0.0,949.0,8.0,38.9,50,13.2,9.3,5.7,159.0,44.0,2.6,7,5,7,1,2026-06-19T21:37:08.938635+05:30
Goa,Goa,15.2993,74.124,27.6,82,0.0,999.2,8.4,27.7,58,19.0,11.9,4.3,458.0,42.0,1.7,7,5,7,1,2026-06-19T21:37:08.938643+05:30
Jodhpur,Rajasthan,26.2389,73.0243,32.8,48,0.0,980.4,8.4,36.7,101,177.9,41.2,9.4,160.0,52.0,2.4,0,5,7,1,2026-06-19T21:37:08.938651+05:30
Udaipur,Rajasthan,24.5854,73.7125,26.2,83,0.0,945.3,7.9,37.4,63,46.0,22.8,7.1,242.0,64.0,3.3,7,5,7,1,2026-06-19T21:37:08.938659+05:30
Kota,Rajasthan,25.2138,75.8648,29.7,67,0.0,977.3,8.35,52.9,67,32.5,23.3,13.0,296.0,50.0,4.4,7,5,7,1,2026-06-19T21:37:08.938666+05:30
Bikaner,Rajasthan,28.0229,73.3119,32.3,58,0.0,978.6,8.45,22.7,110,105.9,37.1,6.6,285.0,57.0,2.9,0,5,7,1,2026-06-19T21:37:08.938674+05:30
Ajmer,Rajasthan,26.4499,74.6399,28.4,62,0.0,952.9,8.35,34.6,84,74.3,36.6,13.8,181.0,47.0,3.7,7,5,7,1,2026-06-19T21:37:08.938681+05:30
Gwalior,Madhya Pradesh,26.2183,78.1828,31.8,50,0.0,980.7,8.3,40.7,90,71.9,30.0,6.2,153.0,67.0,2.8,0,5,7,1,2026-06-19T21:37:08.938689+05:30
Indore,Madhya Pradesh,22.7196,75.8577,29.3,54,0.0,948.2,8.6,46.8,62,30.2,21.4,12.2,234.0,57.0,5.2,4,5,7,1,2026-06-19T21:37:08.938697+05:30
Bhopal,Madhya Pradesh,23.2599,77.4126,28.8,58,0.0,952.8,8.7,38.5,64,21.7,17.3,6.2,410.0,72.0,3.3,4,5,7,1,2026-06-19T21:37:08.938705+05:30
Jabalpur,Madhya Pradesh,23.1815,79.9864,29.4,62,0.0,959.8,8.0,34.2,64,39.3,28.6,14.8,198.0,65.0,5.1,7,5,7,1,2026-06-19T21:37:08.938713+05:30
Ujjain,Madhya Pradesh,23.1765,75.7885,29.1,56,0.0,953.5,8.55,46.4,62,36.7,23.9,6.1,227.0,66.0,3.9,4,5,7,1,2026-06-19T21:37:08.938721+05:30
Visakhapatnam,Andhra Pradesh,17.6868,83.2185,28.6,96,0.0,1002.7,8.85,30.6,128,46.9,43.0,40.3,388.0,85.0,55.7,7,5,4,1,2026-06-19T21:37:08.938729+05:30
Vijayawada,Andhra Pradesh,16.5062,80.648,30.9,73,0.0,1001.3,8.75,27.4,80,59.5,54.9,35.9,444.0,59.0,11.8,3,5,4,1,2026-06-19T21:37:08.938736+05:30
Guntur,Andhra Pradesh,16.3067,80.4365,30.9,73,0.0,1002.6,8.9,30.2,76,51.9,47.4,35.3,444.0,52.0,10.2,3,5,4,1,2026-06-19T21:37:08.938744+05:30
Nellore,Andhra Pradesh,14.4426,79.9865,29.8,77,0.0,1005.5,6.9,35.6,96,33.9,28.1,7.0,332.0,127.0,9.3,7,5,4,1,2026-06-19T21:37:08.938752+05:30
Kurnool,Andhra Pradesh,15.8281,78.0373,30.7,55,0.0,976.8,8.0,38.2,67,44.0,36.0,28.7,352.0,65.0,13.9,0,5,7,1,2026-06-19T21:37:08.938761+05:30
Kakinada,Andhra Pradesh,16.9891,82.2475,29.6,79,0.0,1006.0,5.55,38.2,120,26.9,21.5,5.8,303.0,118.0,5.0,7,5,0,1,2026-06-19T21:37:08.938768+05:30
Tirupati,Andhra Pradesh,13.6288,79.4192,28.4,70,0.0,991.5,5.4,28.4,72,46.0,40.6,46.2,312.0,38.0,8.5,7,5,3,1,2026-06-19T21:37:08.938776+05:30
Warangal,Telangana,17.9689,79.5941,31.5,59,0.0,978.0,8.15,36.7,79,66.1,56.1,34.7,515.0,39.0,10.3,0,5,7,1,2026-06-19T21:37:08.938784+05:30
Nizamabad,Telangana,18.6725,78.0941,32.3,47,0.0,964.5,8.95,31.3,71,33.2,24.2,12.8,617.0,77.0,4.9,0,5,7,1,2026-06-19T21:37:08.938791+05:30
Mysore,Karnataka,12.2958,76.6396,23.0,91,0.0,929.9,6.9,25.2,52,19.2,15.8,29.8,322.0,26.0,3.8,3,5,7,1,2026-06-19T21:37:08.938799+05:30
Mangalore,Karnataka,12.9141,74.856,27.0,85,0.0,1008.3,6.95,24.8,62,31.4,20.8,16.7,376.0,29.0,5.4,7,0,4,1,2026-06-19T21:37:08.938807+05:30
Hubli-Dharwad,Karnataka,15.3647,75.124,25.3,76,0.0,941.9,8.9,40.7,50,19.1,11.7,6.3,171.0,49.0,1.8,7,5,7,1,2026-06-19T21:37:08.938814+05:30
Belgaum,Karnataka,15.8497,74.4977,23.0,88,0.0,926.7,8.9,41.0,50,15.4,10.2,7.0,145.0,39.0,2.4,3,5,7,1,2026-06-19T21:37:12.372916+05:30
Coimbatore,Tamil Nadu,11.0168,76.9558,25.1,90,0.1,963.4,8.35,33.1,30,19.6,17.1,29.2,437.0,14.0,5.4,10,5,7,1,2026-06-19T21:37:12.372949+05:30
Madurai,Tamil Nadu,9.9252,78.1198,26.3,95,0.1,994.5,8.1,32.8,57,24.8,22.2,43.9,400.0,19.0,7.4,10,5,7,1,2026-06-19T21:37:12.372960+05:30
Trichy,Tamil Nadu,10.7905,78.7047,26.2,91,0.1,1001.6,8.15,40.0,50,17.8,14.8,15.4,224.0,69.0,3.3,10,5,4,1,2026-06-19T21:37:12.372969+05:30
Salem,Tamil Nadu,11.6643,78.146,24.4,94,0.1,979.6,8.0,29.2,86,21.3,17.9,18.1,461.0,85.0,9.0,6,5,7,1,2026-06-19T21:37:12.372978+05:30
Tirunelveli,Tamil Nadu,8.7139,77.7567,29.7,63,0.0,1004.2,8.1,31.7,48,21.4,16.8,14.9,317.0,48.0,2.8,7,5,4,1,2026-06-19T21:37:12.372987+05:30
Vellore,Tamil Nadu,12.9165,79.1325,26.2,92,0.1,985.0,8.05,28.4,73,24.9,21.3,18.6,356.0,74.0,5.1,10,5,7,1,2026-06-19T21:37:12.372995+05:30
Erode,Tamil Nadu,11.341,77.7172,26.1,87,0.0,991.4,7.25,27.7,46,22.2,18.7,29.0,387.0,45.0,4.8,7,5,7,1,2026-06-19T21:37:12.373004+05:30
Kochi,Kerala,9.9312,76.2673,27.6,84,0.0,1010.7,7.9,24.8,60,51.7,43.7,53.0,217.0,1.0,12.3,7,0,4,1,2026-06-19T21:37:12.373012+05:30
Thiruvananthapuram,Kerala,8.5241,76.9366,26.3,88,0.0,1010.1,7.4,34.6,59,33.1,16.4,4.1,269.0,68.0,2.4,7,0,4,1,2026-06-19T21:37:12.373020+05:30
Kozhikode,Kerala,11.2588,75.7804,26.8,86,0.0,1009.8,8.25,23.0,51,28.6,14.2,3.0,303.0,65.0,2.1,7,0,4,1,2026-06-19T21:37:12.373028+05:30
Thrissur,Kerala,10.5276,76.2144,26.1,90,0.0,1009.2,6.3,24.1,59,58.3,48.7,42.0,643.0,15.0,10.2,7,0,4,1,2026-06-19T21:37:12.373036+05:30
Kannur,Kerala,11.8745,75.3704,26.8,90,0.0,1009.0,7.75,25.6,61,33.4,21.8,23.8,484.0,30.0,5.2,7,0,4,1,2026-06-19T21:37:12.373043+05:30
Patna,Bihar,25.5941,85.1376,31.7,71,0.0,996.6,8.65,28.1,155,140.2,91.3,45.0,672.0,62.0,21.9,3,5,7,1,2026-06-19T21:37:12.373051+05:30
Gaya,Bihar,24.7914,85.0002,30.9,60,0.0,990.7,8.45,38.5,143,96.9,62.9,29.7,249.0,66.0,13.7,0,5,7,1,2026-06-19T21:37:12.373058+05:30
Muzaffarpur,Bihar,26.1209,85.3647,26.7,90,0.0,997.3,8.65,41.8,156,84.1,65.9,24.5,487.0,94.0,15.9,7,5,7,1,2026-06-19T21:37:12.373066+05:30
Bhagalpur,Bihar,25.2425,87.0117,26.2,95,0.0,999.4,8.45,48.2,181,68.7,61.0,16.6,268.0,121.0,27.7,7,5,7,1,2026-06-19T21:37:12.373073+05:30
Ranchi,Jharkhand,23.3441,85.3096,24.8,92,0.0,936.3,8.0,43.9,140,40.7,38.9,9.1,290.0,131.0,10.4,3,5,7,1,2026-06-19T21:37:12.373081+05:30
Jamshedpur,Jharkhand,22.8046,86.2029,27.8,92,0.0,989.1,8.85,35.3,154,54.5,50.6,18.8,667.0,107.0,29.8,7,5,7,1,2026-06-19T21:37:12.373089+05:30
Dhanbad,Jharkhand,23.7957,86.4304,28.3,78,0.0,978.0,7.85,40.0,164,71.0,67.3,40.3,381.0,90.0,99.2,7,5,7,1,2026-06-19T21:37:12.373097+05:30
Bokaro,Jharkhand,23.6693,86.1511,27.9,82,0.0,981.6,7.5,38.5,158,55.4,52.5,25.6,315.0,104.0,65.5,7,5,7,1,2026-06-19T21:37:12.373105+05:30
Bhubaneswar,Odisha,20.2961,85.8245,27.0,93,0.0,1001.2,8.15,43.2,106,30.0,28.2,12.0,797.0,109.0,7.0,7,5,4,1,2026-06-19T21:37:12.373113+05:30
Cuttack,Odisha,20.4625,85.8828,27.3,95,0.0,1002.9,7.2,37.1,106,30.0,28.2,12.0,663.0,109.0,7.0,7,5,4,1,2026-06-19T21:37:12.373121+05:30
Rourkela,Odisha,22.2604,84.8536,28.4,86,0.0,983.4,9.0,47.9,151,59.3,55.1,19.4,533.0,119.0,17.2,7,5,7,1,2026-06-19T21:37:12.373130+05:30
Raipur,Chhattisgarh,21.2514,81.6296,30.1,72,0.0,973.5,7.55,34.2,101,48.4,40.9,40.3,435.0,59.0,55.5,3,5,7,1,2026-06-19T21:37:12.373138+05:30
Bhilai,Chhattisgarh,21.1938,81.3509,29.5,74,0.0,973.9,8.5,38.5,99,61.9,51.5,46.4,432.0,49.0,51.4,7,5,7,1,2026-06-19T21:37:12.373145+05:30
Guwahati,Assam,26.1158,91.7086,26.8,88,0.0,1000.1,8.7,32.8,96,66.1,51.9,12.6,517.0,65.0,5.9,7,5,4,1,2026-06-19T21:37:12.373153+05:30
Agartala,Tripura,23.8315,91.2868,26.7,87,0.0,1005.8,8.0,30.2,89,31.0,28.6,12.9,254.0,58.0,3.0,7,5,4,1,2026-06-19T21:37:12.373160+05:30
Shillong,Meghalaya,25.5788,91.8933,19.7,93,0.0,857.1,7.9,23.8,56,33.9,26.5,7.0,288.0,90.0,2.9,3,10,7,1,2026-06-19T21:37:12.373168+05:30
Imphal,Manipur,24.817,93.9368,23.8,86,0.0,922.9,8.15,31.3,59,24.6,20.8,11.5,369.0,49.0,2.8,3,5,7,1,2026-06-19T21:37:12.373176+05:30
Aizawl,Mizoram,23.7271,92.7176,19.7,93,0.0,892.4,8.55,32.0,52,11.5,9.6,5.1,184.0,60.0,1.4,3,10,7,1,2026-06-19T21:37:12.373183+05:30
Kohima,Nagaland,25.6701,94.1077,19.4,97,0.0,855.1,7.85,21.6,49,9.5,7.9,7.4,330.0,59.0,1.5,3,10,7,1,2026-06-19T21:37:12.373191+05:30
Gangtok,Sikkim,27.3314,88.6138,18.1,97,0.3,837.1,8.45,33.8,76,10.8,9.7,6.4,465.0,130.0,5.4,6,10,7,1,2026-06-19T21:37:12.373198+05:30
Siliguri,West Bengal,26.7271,88.3953,25.6,90,0.1,991.3,6.45,23.4,102,51.0,42.5,10.5,702.0,120.0,8.8,10,5,7,1,2026-06-19T21:37:15.729137+05:30
Durgapur,West Bengal,23.5204,87.3119,27.0,82,0.0,993.1,8.85,29.5,164,89.2,85.0,38.3,1058.0,76.0,57.7,7,5,7,1,2026-06-19T21:37:15.729174+05:30
Asansol,West Bengal,23.6739,86.9524,28.8,83,0.0,991.5,8.9,33.1,162,76.4,72.4,39.9,622.0,79.0,67.2,7,5,7,1,2026-06-19T21:37:15.729186+05:30
Pondicherry,Puducherry,11.9139,79.8145,28.8,88,0.0,1009.1,7.4,60.8,129,26.9,21.4,8.8,268.0,108.0,6.3,7,0,4,1,2026-06-19T21:37:15.729196+05:30
Port Blair,Andaman and Nicobar Islands,11.6234,92.7265,26.9,85,0.0,1009.8,8.75,32.0,26,13.5,6.0,0.3,98.0,42.0,0.4,7,0,4,1,2026-06-19T21:37:15.729229+05:30
Haridwar,Uttarakhand,29.9457,78.1642,29.6,68,0.0,970.2,7.65,24.1,154,159.3,73.1,23.0,496.0,108.0,14.2,7,5,7,1,2026-06-19T21:37:15.729239+05:30
Rishikesh,Uttarakhand,30.0869,78.2676,29.2,67,0.0,963.1,7.75,26.3,158,59.1,46.9,9.7,496.0,149.0,9.5,7,5,7,1,2026-06-19T21:37:15.729247+05:30
Nainital,Uttarakhand,29.3919,79.4542,16.7,90,0.0,804.4,8.6,29.9,136,53.4,42.1,10.4,366.0,110.0,5.6,3,10,7,0,2026-06-19T21:37:15.729256+05:30
Mussoorie,Uttarakhand,30.4599,78.0664,15.8,94,0.0,801.5,7.6,36.7,146,54.8,49.0,30.2,368.0,111.0,10.4,3,10,7,0,2026-06-19T21:37:15.729265+05:30
Dharamshala,Himachal Pradesh,32.219,76.3234,21.6,74,0.0,867.8,8.2,40.0,80,21.5,15.6,14.1,386.0,72.0,0.7,3,5,7,1,2026-06-19T21:37:15.729273+05:30
Dalhousie,Himachal Pradesh,32.5387,75.971,14.5,99,0.0,802.3,7.95,26.6,123,46.3,33.6,32.0,550.0,88.0,2.7,3,10,7,0,2026-06-19T21:37:15.729282+05:30
Patiala,Punjab,30.3398,76.3869,30.1,61,0.0,974.9,7.7,31.7,200,642.6,132.7,16.4,364.0,92.0,10.6,3,5,7,1,2026-06-19T21:37:15.729291+05:30
Bhatinda,Punjab,30.211,74.9455,30.6,59,0.0,980.6,8.3,27.7,139,63.3,41.2,23.5,342.0,56.0,5.3,0,5,7,1,2026-06-19T21:37:15.729299+05:30
Rohtak,Haryana,28.8955,76.6066,31.1,52,0.0,978.2,7.8,30.2,554,493.6,119.0,52.0,436.0,37.0,10.2,0,5,7,1,2026-06-19T21:37:15.729307+05:30
Panipat,Haryana,29.3909,76.9635,30.7,57,0.0,976.9,7.65,28.4,972,1646.6,269.2,28.7,475.0,70.0,9.0,0,5,7,1,2026-06-19T21:37:15.729315+05:30
Mathura,Uttar Pradesh,27.4924,77.6737,31.9,50,0.0,983.4,8.1,31.7,197,238.4,73.6,44.6,355.0,34.0,7.9,0,5,7,1,2026-06-19T21:37:15.729323+05:30
Vrindavan,Uttar Pradesh,27.5823,77.7027,31.6,55,0.0,983.7,8.1,31.3,197,238.4,73.6,44.6,310.0,34.0,7.9,0,5,7,1,2026-06-19T21:37:15.729330+05:30
Ayodhya,Uttar Pradesh,26.7922,82.1998,32.3,59,0.0,990.8,8.45,44.3,157,98.3,51.0,18.6,463.0,72.0,8.3,0,5,7,1,2026-06-19T21:37:15.729338+05:30
Ratlam,Madhya Pradesh,23.3315,75.0367,28.1,66,0.0,954.1,6.6,47.9,60,44.4,26.7,4.5,200.0,75.0,4.3,7,5,7,1,2026-06-19T21:37:15.729346+05:30
Sagar,Madhya Pradesh,23.8388,78.7378,29.2,61,0.0,949.0,8.75,35.6,58,25.2,16.7,6.0,178.0,78.0,3.2,7,5,7,1,2026-06-19T21:37:15.729354+05:30
Satna,Madhya Pradesh,24.6005,80.8322,30.9,63,0.0,968.7,8.8,32.8,76,35.7,23.9,11.1,206.0,67.0,3.9,3,5,7,1,2026-06-19T21:37:15.729362+05:30
Akola,Maharashtra,20.7002,77.0082,32.8,39,0.0,974.4,8.8,44.6,56,22.4,15.5,10.7,153.0,75.0,6.2,0,5,7,1,2026-06-19T21:37:15.729370+05:30
Amravati,Maharashtra,20.9374,77.7796,31.6,41,0.0,966.7,8.8,39.2,57,24.3,17.2,14.6,267.0,67.0,6.6,0,5,7,1,2026-06-19T21:37:15.729379+05:30
Latur,Maharashtra,18.4088,76.5604,30.6,41,0.0,939.9,8.8,27.0,61,25.3,20.3,12.8,285.0,63.0,3.1,0,5,7,0,2026-06-19T21:37:15.729388+05:30
Nanded,Maharashtra,19.1383,77.3091,33.5,32,0.0,968.0,8.85,35.3,60,36.6,29.0,23.4,326.0,59.0,6.1,0,5,7,0,2026-06-19T21:37:15.729396+05:30
Gulbarga,Karnataka,17.3297,76.8343,31.5,43,0.0,958.6,8.1,36.7,56,33.4,26.4,37.0,268.0,42.0,5.4,0,5,7,1,2026-06-19T21:37:15.729404+05:30
Bidar,Karnataka,17.9104,77.5199,28.9,60,0.0,935.5,8.45,32.8,68,58.0,49.0,54.9,452.0,28.0,8.6,4,5,7,1,2026-06-19T21:37:15.729412+05:30
Hospet,Karnataka,15.2689,76.3909,27.1,68,0.0,956.7,5.8,40.0,52,20.0,13.8,13.3,173.0,61.0,2.2,7,5,3,1,2026-06-19T21:37:15.729421+05:30
Tirupur,Tamil Nadu,11.1085,77.3411,26.2,85,0.0,977.0,8.4,33.1,47,27.7,24.4,37.9,301.0,29.0,7.8,7,5,7,1,2026-06-19T21:37:15.729428+05:30
Alappuzha,Kerala,9.4981,76.3388,27.5,84,0.0,1010.7,7.5,28.8,57,37.3,25.5,23.0,107.0,41.0,7.0,7,0,4,1,2026-06-19T21:37:15.729437+05:30
Munnar,Kerala,10.0889,77.0595,17.0,98,0.0,857.7,5.65,26.6,23,8.5,8.1,17.6,216.0,18.0,1.6,3,10,3,1,2026-06-19T21:37:15.729444+05:30
Silchar,Assam,24.8333,92.7789,25.6,96,0.2,1004.9,8.2,24.5,85,30.7,24.6,10.5,388.0,80.0,5.0,10,5,4,1,2026-06-19T21:37:15.729452+05:30
Dibrugarh,Assam,27.4728,94.912,26.0,97,0.0,993.9,8.9,28.4,67,18.3,16.6,10.8,323.0,80.0,2.6,7,5,7,1,2026-06-19T21:37:15.729460+05:30
