city,state,latitude,longitude,temp,humidity,rain,pressure,uv_index,wind_gusts,aqi,pm10,pm2_5,mosquito_risk,arthritis_risk,migraine_risk,frizz_risk,updated_at
Delhi,Delhi,28.6139,77.209,27.4,38,0.0,983.8,6.0,24.5,358,226.8,55.3,4,5,3,0,2026-03-14T19:21:38.994728+05:30
Mumbai,Maharashtra,19.076,72.8777,28.0,75,0.0,1009.0,7.65,18.4,178,71.9,38.2,7,0,4,1,2026-03-14T19:21:38.994772+05:30
Bangalore,Karnataka,12.9716,77.5946,27.4,31,0.0,912.9,9.3,32.8,138,32.4,28.1,4,5,7,0,2026-03-14T19:21:38.994788+05:30
Hyderabad,Telangana,17.385,78.4867,30.5,39,0.0,954.3,8.7,30.2,144,48.2,37.5,0,5,7,0,2026-03-14T19:21:38.994798+05:30
Chennai,Tamil Nadu,13.0827,80.2707,27.5,76,0.0,1009.8,9.05,32.0,54,12.4,9.5,7,0,4,1,2026-03-14T19:21:38.994806+05:30
Kolkata,West Bengal,22.5726,88.3639,26.4,80,0.0,1008.5,8.05,33.8,83,24.3,19.7,7,0,4,1,2026-03-14T19:21:38.994816+05:30
Pune,Maharashtra,18.5204,73.8567,29.6,26,0.0,949.3,8.25,47.5,170,33.4,30.6,4,5,7,0,2026-03-14T19:21:38.994828+05:30
Ahmedabad,Gujarat,23.0225,72.5714,31.9,31,0.0,1001.8,7.5,24.8,78,54.2,22.8,0,5,4,0,2026-03-14T19:21:38.994835+05:30
Jaipur,Rajasthan,26.9124,75.7873,28.5,31,0.0,959.7,7.0,28.8,149,102.2,30.0,4,5,7,0,2026-03-14T19:21:38.994844+05:30
Lucknow,Uttar Pradesh,26.8467,80.9462,27.9,44,0.0,993.9,6.7,24.5,164,167.2,51.2,4,5,7,0,2026-03-14T19:21:38.994851+05:30
Kanpur,Uttar Pradesh,26.4499,80.3319,28.4,45,0.0,992.1,6.7,17.3,354,196.0,50.8,4,5,7,0,2026-03-14T19:21:38.994858+05:30
Chandigarh,Chandigarh,30.7333,76.7794,21.8,61,0.0,968.8,5.2,20.2,80,29.4,26.1,3,5,3,0,2026-03-14T19:21:38.994866+05:30
Srinagar,Jammu and Kashmir,34.0837,74.7973,13.3,69,0.0,840.0,5.6,19.1,95,49.8,28.6,3,5,3,0,2026-03-14T19:21:38.994873+05:30
Jammu,Jammu and Kashmir,32.7266,74.857,24.2,57,0.0,972.2,6.35,19.1,78,40.3,30.9,0,5,7,0,2026-03-14T19:21:38.994880+05:30
Amritsar,Punjab,31.634,74.8723,21.7,67,0.0,980.8,4.65,17.6,101,30.4,28.1,3,5,3,0,2026-03-14T19:21:38.994887+05:30
Ludhiana,Punjab,30.901,75.8573,23.4,53,0.0,979.1,5.25,20.2,86,49.8,34.0,0,5,3,0,2026-03-14T19:21:38.994894+05:30
Jalandhar,Punjab,31.326,75.5762,23.2,55,0.0,980.2,6.15,23.0,91,39.3,24.6,0,5,7,0,2026-03-14T19:21:38.994903+05:30
Dehradun,Uttarakhand,30.6284,78.0322,15.2,68,0.0,829.3,4.2,21.6,68,24.4,11.8,3,5,3,0,2026-03-14T19:21:38.994910+05:30
Shimla,Himachal Pradesh,31.1048,77.1734,12.9,67,0.0,783.2,5.5,22.3,70,19.7,12.2,3,5,3,0,2026-03-14T19:21:38.994918+05:30
Manali,Himachal Pradesh,32.2396,77.1887,14.1,40,0.0,819.7,7.3,29.2,72,39.3,10.2,0,5,7,0,2026-03-14T19:21:38.994925+05:30
Gurgaon,Haryana,28.4595,77.0266,25.3,48,0.0,982.2,5.85,19.4,941,326.9,67.5,4,5,3,0,2026-03-14T19:21:38.994935+05:30
Noida,Uttar Pradesh,28.5355,77.391,26.2,43,0.0,985.3,5.75,23.8,941,326.9,67.5,4,5,3,0,2026-03-14T19:21:38.994941+05:30
Ghaziabad,Uttar Pradesh,28.6692,77.4538,25.9,44,0.0,983.4,5.95,23.8,240,190.9,59.8,4,5,3,0,2026-03-14T19:21:38.994948+05:30
Faridabad,Haryana,28.4089,77.3178,23.8,50,0.0,984.7,5.75,22.7,941,326.9,67.5,0,5,3,0,2026-03-14T19:21:38.994955+05:30
Meerut,Uttar Pradesh,28.9845,77.7064,24.4,53,0.0,982.0,5.8,27.4,240,190.9,59.8,0,5,3,0,2026-03-14T19:21:38.994961+05:30
Agra,Uttar Pradesh,27.1767,78.0081,25.2,40,0.0,988.5,6.35,15.5,635,149.5,57.0,4,5,7,0,2026-03-14T19:21:38.994968+05:30
Varanasi,Uttar Pradesh,25.3176,82.9739,29.1,52,0.0,997.7,6.85,27.7,136,93.8,46.7,4,5,7,1,2026-03-14T19:21:38.994977+05:30
Prayagraj,Uttar Pradesh,25.4358,81.8463,28.4,55,0.0,995.9,7.1,15.5,151,80.1,36.3,4,5,7,1,2026-03-14T19:21:38.994985+05:30
Gorakhpur,Uttar Pradesh,26.7606,83.3732,26.2,55,0.0,997.8,6.7,24.8,132,99.9,51.1,4,5,7,1,2026-03-14T19:21:38.994991+05:30
Bareilly,Uttar Pradesh,28.367,79.4304,24.4,62,0.0,987.4,6.4,19.4,133,47.3,30.0,3,5,7,1,2026-03-14T19:21:38.994998+05:30
Aligarh,Uttar Pradesh,27.8974,78.088,24.1,38,0.0,986.4,6.3,26.6,579,305.5,82.4,0,5,7,0,2026-03-14T19:21:38.995007+05:30
Moradabad,Uttar Pradesh,28.8386,78.7733,23.5,54,0.0,984.2,5.95,23.0,138,85.2,43.0,0,5,3,0,2026-03-14T19:21:38.995013+05:30
Saharanpur,Uttar Pradesh,29.9637,77.546,22.6,50,0.0,976.0,4.65,23.8,127,100.4,39.8,0,5,3,0,2026-03-14T19:21:38.995019+05:30
Jhansi,Uttar Pradesh,25.4484,78.5685,28.4,44,0.0,978.0,7.2,20.2,148,110.6,41.2,4,5,7,0,2026-03-14T19:21:42.219263+05:30
Surat,Gujarat,21.1702,72.8311,26.6,63,0.0,1007.4,7.35,23.4,143,91.3,59.6,7,5,4,1,2026-03-14T19:21:42.219329+05:30
Vadodara,Gujarat,22.3072,73.1812,31.6,31,0.0,1004.2,7.5,28.1,99,55.4,29.0,0,5,4,0,2026-03-14T19:21:42.219342+05:30
Rajkot,Gujarat,22.3039,70.8022,31.6,27,0.0,994.9,7.35,34.9,95,68.2,22.9,0,5,7,0,2026-03-14T19:21:42.219352+05:30
Thane,Maharashtra,19.2183,72.9781,28.1,66,0.0,1008.5,7.65,31.7,178,71.9,38.2,7,0,4,1,2026-03-14T19:21:42.219361+05:30
Nagpur,Maharashtra,21.1458,79.0882,31.0,35,0.0,972.7,8.1,19.8,200,40.2,35.5,0,5,7,0,2026-03-14T19:21:42.219370+05:30
Nashik,Maharashtra,19.9975,73.7898,27.6,24,0.0,946.7,7.9,39.2,132,22.1,16.6,4,5,7,0,2026-03-14T19:21:42.219379+05:30
Aurangabad,Maharashtra,19.8762,75.3433,31.1,31,0.0,944.3,8.4,32.8,154,27.1,23.9,0,5,7,0,2026-03-14T19:21:42.219387+05:30
Solapur,Maharashtra,17.6599,75.9064,30.8,40,0.0,957.0,8.6,18.7,169,46.2,38.2,0,5,7,0,2026-03-14T19:21:42.219396+05:30
Kolhapur,Maharashtra,16.705,74.2433,26.6,69,0.0,949.0,8.7,44.6,177,58.0,53.6,7,5,7,1,2026-03-14T19:21:42.219403+05:30
Goa,Goa,15.2993,74.124,28.7,75,0.0,999.2,8.75,32.4,135,40.4,35.7,7,5,7,1,2026-03-14T19:21:42.219410+05:30
Jodhpur,Rajasthan,26.2389,73.0243,31.4,24,0.0,981.7,7.1,37.4,88,156.5,34.6,0,5,7,0,2026-03-14T19:21:42.219417+05:30
Udaipur,Rajasthan,24.5854,73.7125,28.4,24,0.0,946.7,7.85,37.1,67,35.0,15.9,4,5,7,0,2026-03-14T19:21:42.219424+05:30
Kota,Rajasthan,25.2138,75.8648,29.3,33,0.0,978.0,7.25,13.7,104,39.7,24.2,4,5,7,0,2026-03-14T19:21:42.219430+05:30
Bikaner,Rajasthan,28.0229,73.3119,30.5,26,0.0,981.2,6.7,21.6,96,85.4,23.6,0,5,7,0,2026-03-14T19:21:42.219436+05:30
Ajmer,Rajasthan,26.4499,74.6399,28.1,30,0.0,953.9,7.05,41.4,78,38.0,18.0,4,5,7,0,2026-03-14T19:21:42.219443+05:30
Gwalior,Madhya Pradesh,26.2183,78.1828,26.6,57,0.0,983.6,6.9,22.0,268,92.9,32.0,4,5,7,1,2026-03-14T19:21:42.219449+05:30
Indore,Madhya Pradesh,22.7196,75.8577,28.2,25,0.0,948.1,7.8,38.2,137,22.1,19.0,4,5,7,0,2026-03-14T19:21:42.219455+05:30
Bhopal,Madhya Pradesh,23.2599,77.4126,28.3,30,0.0,953.4,7.65,35.3,139,24.7,22.0,4,5,7,0,2026-03-14T19:21:42.219461+05:30
Jabalpur,Madhya Pradesh,23.1815,79.9864,28.7,31,0.0,961.3,7.8,27.0,130,19.0,18.0,4,5,7,0,2026-03-14T19:21:42.219468+05:30
Ujjain,Madhya Pradesh,23.1765,75.7885,27.1,31,0.0,953.6,7.7,41.8,111,23.9,19.2,4,5,7,0,2026-03-14T19:21:42.219475+05:30
Visakhapatnam,Andhra Pradesh,17.6868,83.2185,26.5,80,0.0,1006.7,8.65,41.0,58,15.5,12.2,7,5,4,1,2026-03-14T19:21:42.219482+05:30
Vijayawada,Andhra Pradesh,16.5062,80.648,27.8,69,0.0,1004.8,8.75,31.3,59,15.0,11.9,7,5,4,1,2026-03-14T19:21:42.219489+05:30
Guntur,Andhra Pradesh,16.3067,80.4365,26.9,76,0.0,1006.0,8.75,33.8,57,15.9,12.2,7,5,4,1,2026-03-14T19:21:42.219495+05:30
Nellore,Andhra Pradesh,14.4426,79.9865,27.2,75,0.0,1008.1,8.9,33.1,72,15.9,12.5,7,0,4,1,2026-03-14T19:21:42.219502+05:30
Kurnool,Andhra Pradesh,15.8281,78.0373,33.0,26,0.0,976.9,8.75,23.4,139,46.4,34.5,0,5,7,0,2026-03-14T19:21:42.219510+05:30
Kakinada,Andhra Pradesh,16.9891,82.2475,26.4,78,0.0,1010.8,8.7,34.6,52,11.9,8.1,7,0,4,1,2026-03-14T19:21:42.219516+05:30
Tirupati,Andhra Pradesh,13.6288,79.4192,29.0,51,0.0,993.7,9.0,32.4,76,20.1,17.5,4,5,7,1,2026-03-14T19:21:42.219523+05:30
Warangal,Telangana,17.9689,79.5941,29.1,55,0.0,979.6,8.5,27.7,95,43.9,37.1,4,5,7,1,2026-03-14T19:21:42.219529+05:30
Nizamabad,Telangana,18.6725,78.0941,29.6,48,0.0,965.1,8.4,30.2,153,60.3,48.1,4,5,7,1,2026-03-14T19:21:42.219536+05:30
Mysore,Karnataka,12.2958,76.6396,28.4,37,0.0,929.3,9.3,32.8,151,38.4,32.8,4,5,7,0,2026-03-14T19:21:42.219542+05:30
Mangalore,Karnataka,12.9141,74.856,28.7,80,0.0,1008.1,8.95,24.8,102,28.0,23.4,7,0,4,1,2026-03-14T19:21:42.219548+05:30
Hubli-Dharwad,Karnataka,15.3647,75.124,26.7,71,0.0,941.8,8.9,46.4,163,44.8,37.5,7,5,7,1,2026-03-14T19:21:42.219554+05:30
Belgaum,Karnataka,15.8497,74.4977,24.9,78,0.0,926.8,8.95,44.3,179,49.9,46.9,3,5,7,1,2026-03-14T19:21:45.442449+05:30
Coimbatore,Tamil Nadu,11.0168,76.9558,27.8,40,0.0,962.9,9.3,37.1,107,19.8,16.8,4,5,7,0,2026-03-14T19:21:45.442478+05:30
Madurai,Tamil Nadu,9.9252,78.1198,31.0,49,0.0,994.1,9.25,28.8,59,8.5,7.4,0,5,7,1,2026-03-14T19:21:45.442488+05:30
Trichy,Tamil Nadu,10.7905,78.7047,30.3,52,0.0,1001.2,9.2,27.0,65,12.4,11.2,0,5,4,1,2026-03-14T19:21:45.442496+05:30
Salem,Tamil Nadu,11.6643,78.146,29.4,39,0.0,978.4,9.2,23.8,94,20.0,17.5,4,5,7,0,2026-03-14T19:21:45.442504+05:30
Tirunelveli,Tamil Nadu,8.7139,77.7567,28.8,69,0.0,1004.6,9.25,36.4,55,8.8,8.1,7,5,4,1,2026-03-14T19:21:45.442512+05:30
Vellore,Tamil Nadu,12.9165,79.1325,28.5,48,0.0,986.6,9.1,32.8,96,23.2,21.3,4,5,7,1,2026-03-14T19:21:45.442519+05:30
Erode,Tamil Nadu,11.341,77.7172,31.9,38,0.0,989.7,9.2,24.8,61,14.8,12.9,0,5,7,0,2026-03-14T19:21:45.442526+05:30
Kochi,Kerala,9.9312,76.2673,28.5,79,0.0,1009.9,9.1,31.3,124,18.4,16.7,7,0,4,1,2026-03-14T19:21:45.442533+05:30
Thiruvananthapuram,Kerala,8.5241,76.9366,28.0,79,0.0,1009.5,9.1,26.3,81,13.4,9.7,7,0,4,1,2026-03-14T19:21:45.442540+05:30
Kozhikode,Kerala,11.2588,75.7804,28.7,82,0.0,1009.4,9.0,24.8,79,22.6,19.4,7,0,4,1,2026-03-14T19:21:45.442547+05:30
Thrissur,Kerala,10.5276,76.2144,28.3,81,0.0,1008.5,9.05,36.0,116,17.1,15.7,7,0,4,1,2026-03-14T19:21:45.442555+05:30
Kannur,Kerala,11.8745,75.3704,28.4,80,0.0,1008.7,8.95,29.2,95,26.2,22.6,7,0,4,1,2026-03-14T19:21:45.442562+05:30
Patna,Bihar,25.5941,85.1376,29.2,56,0.0,1001.0,7.5,20.2,137,92.4,51.2,4,5,4,1,2026-03-14T19:21:45.442569+05:30
Gaya,Bihar,24.7914,85.0002,29.3,48,0.0,994.3,7.55,21.2,124,83.6,40.0,4,5,7,1,2026-03-14T19:21:45.442576+05:30
Muzaffarpur,Bihar,26.1209,85.3647,28.2,55,0.0,1001.1,7.45,24.5,159,96.2,55.6,4,5,4,1,2026-03-14T19:21:45.442582+05:30
Bhagalpur,Bihar,25.2425,87.0117,28.0,56,0.0,1002.0,7.5,20.5,157,108.7,54.4,4,5,4,1,2026-03-14T19:21:45.442589+05:30
Ranchi,Jharkhand,23.3441,85.3096,27.6,23,0.0,939.1,8.2,24.5,126,24.5,18.3,4,5,7,0,2026-03-14T19:21:45.442596+05:30
Jamshedpur,Jharkhand,22.8046,86.2029,30.2,51,0.0,991.4,8.1,29.2,169,56.5,37.8,0,5,7,1,2026-03-14T19:21:45.442602+05:30
Dhanbad,Jharkhand,23.7957,86.4304,31.7,27,0.0,980.4,7.95,19.8,157,72.9,53.3,0,5,7,0,2026-03-14T19:21:45.442609+05:30
Bokaro,Jharkhand,23.6693,86.1511,30.2,28,0.0,984.5,8.0,20.2,152,56.1,42.3,0,5,7,0,2026-03-14T19:21:45.442616+05:30
Bhubaneswar,Odisha,20.2961,85.8245,25.8,83,0.0,1005.6,8.4,38.9,65,15.8,13.3,7,5,4,1,2026-03-14T19:21:45.442623+05:30
Cuttack,Odisha,20.4625,85.8828,26.6,77,0.0,1007.1,8.45,34.2,65,15.8,13.3,7,5,4,1,2026-03-14T19:21:45.442629+05:30
Rourkela,Odisha,22.2604,84.8536,31.7,39,0.0,985.0,8.05,25.2,179,42.1,39.1,0,5,7,0,2026-03-14T19:21:45.442636+05:30
Raipur,Chhattisgarh,21.2514,81.6296,30.6,40,0.0,974.9,8.15,34.2,176,50.5,46.0,0,5,7,0,2026-03-14T19:21:45.442642+05:30
Bhilai,Chhattisgarh,21.1938,81.3509,29.6,42,0.0,975.1,8.15,27.7,164,47.5,42.4,4,5,7,0,2026-03-14T19:21:45.442648+05:30
Guwahati,Assam,26.1158,91.7086,22.7,88,0.0,1004.7,7.35,32.0,71,27.4,21.1,3,5,4,1,2026-03-14T19:21:45.442654+05:30
Agartala,Tripura,23.8315,91.2868,24.7,80,0.0,1009.2,7.8,48.6,80,41.3,33.2,3,0,4,1,2026-03-14T19:21:45.442661+05:30
Shillong,Meghalaya,25.5788,91.8933,13.3,91,0.0,857.3,7.85,73.8,58,29.1,21.9,3,10,7,0,2026-03-14T19:21:45.442668+05:30
Imphal,Manipur,24.817,93.9368,16.8,89,0.0,925.8,7.1,82.8,146,62.6,51.8,3,10,7,0,2026-03-14T19:21:45.442675+05:30
Aizawl,Mizoram,23.7271,92.7176,18.4,77,0.0,895.1,8.0,63.4,110,55.3,40.5,3,5,7,0,2026-03-14T19:21:45.442681+05:30
Kohima,Nagaland,25.6701,94.1077,14.6,77,0.0,856.4,6.9,100.8,108,37.8,27.8,3,5,7,0,2026-03-14T19:21:45.442687+05:30
Gangtok,Sikkim,27.3314,88.6138,13.8,89,0.0,837.6,7.55,20.2,89,20.5,15.5,3,10,7,0,2026-03-14T19:21:45.442694+05:30
Siliguri,West Bengal,26.7271,88.3953,21.3,79,0.0,995.6,7.4,31.7,142,66.6,47.4,3,5,7,1,2026-03-14T19:21:48.679147+05:30
Durgapur,West Bengal,23.5204,87.3119,28.8,61,0.0,995.9,7.95,23.4,154,63.6,49.6,7,5,7,1,2026-03-14T19:21:48.679176+05:30
Asansol,West Bengal,23.6739,86.9524,30.2,52,0.0,994.3,7.95,21.2,146,63.1,44.4,0,5,7,1,2026-03-14T19:21:48.679186+05:30
Pondicherry,Puducherry,11.9139,79.8145,26.6,86,0.0,1010.7,9.05,29.9,51,12.1,9.1,7,0,4,1,2026-03-14T19:21:48.679194+05:30
Port Blair,Andaman and Nicobar Islands,11.6234,92.7265,27.7,79,0.0,1010.3,8.95,23.0,80,15.0,11.7,7,0,4,1,2026-03-14T19:21:48.679202+05:30
Haridwar,Uttarakhand,29.9457,78.1642,25.3,57,0.0,974.7,5.0,21.2,101,40.6,25.4,4,5,3,1,2026-03-14T19:21:48.679209+05:30
Rishikesh,Uttarakhand,30.0869,78.2676,23.4,60,0.0,967.5,4.55,20.9,88,24.0,15.3,0,5,3,0,2026-03-14T19:21:48.679217+05:30
Nainital,Uttarakhand,29.3919,79.4542,17.2,64,0.0,805.9,6.15,34.9,105,38.2,28.3,3,5,7,0,2026-03-14T19:21:48.679224+05:30
Mussoorie,Uttarakhand,30.4599,78.0664,15.9,64,0.0,802.2,4.9,25.2,90,32.5,22.0,3,5,3,0,2026-03-14T19:21:48.679232+05:30
Dharamshala,Himachal Pradesh,32.219,76.3234,19.6,35,0.0,868.6,5.45,17.6,72,28.7,12.6,0,5,3,0,2026-03-14T19:21:48.679239+05:30
Dalhousie,Himachal Pradesh,32.5387,75.971,17.2,47,0.0,803.0,6.05,18.7,80,32.8,18.5,0,5,7,0,2026-03-14T19:21:48.679247+05:30
Patiala,Punjab,30.3398,76.3869,22.5,49,0.0,978.6,5.45,27.0,195,134.1,41.6,0,5,3,0,2026-03-14T19:21:48.679254+05:30
Bhatinda,Punjab,30.211,74.9455,24.4,53,0.0,984.1,6.15,22.0,93,34.7,31.3,0,5,7,0,2026-03-14T19:21:48.679261+05:30
Rohtak,Haryana,28.8955,76.6066,26.1,49,0.0,982.3,5.9,22.0,416,192.3,54.4,4,5,3,0,2026-03-14T19:21:48.679267+05:30
Panipat,Haryana,29.3909,76.9635,23.7,58,0.0,980.9,5.6,23.0,809,350.2,68.5,0,5,3,0,2026-03-14T19:21:48.679292+05:30
Mathura,Uttar Pradesh,27.4924,77.6737,24.0,42,0.0,987.6,5.95,29.2,564,151.8,47.0,0,5,3,0,2026-03-14T19:21:48.679300+05:30
Vrindavan,Uttar Pradesh,27.5823,77.7027,23.9,43,0.0,988.1,5.9,35.3,564,151.8,47.0,0,5,3,0,2026-03-14T19:21:48.679307+05:30
Ayodhya,Uttar Pradesh,26.7922,82.1998,26.3,58,0.0,995.6,6.85,21.6,152,74.7,43.0,4,5,7,1,2026-03-14T19:21:48.679313+05:30
Ratlam,Madhya Pradesh,23.3315,75.0367,28.7,27,0.0,954.7,7.65,39.6,114,23.0,16.5,4,5,7,0,2026-03-14T19:21:48.679320+05:30
Sagar,Madhya Pradesh,23.8388,78.7378,28.1,32,0.0,950.0,7.6,34.2,131,19.6,16.6,4,5,7,0,2026-03-14T19:21:48.679326+05:30
Satna,Madhya Pradesh,24.6005,80.8322,30.0,29,0.0,971.0,7.6,26.3,118,40.5,20.2,4,5,7,0,2026-03-14T19:21:48.679333+05:30
Akola,Maharashtra,20.7002,77.0082,32.2,28,0.0,974.5,8.1,17.3,160,27.4,25.0,0,5,7,0,2026-03-14T19:21:48.679341+05:30
Amravati,Maharashtra,20.9374,77.7796,30.3,29,0.0,966.6,8.05,22.3,164,27.6,25.4,0,5,7,0,2026-03-14T19:21:48.679348+05:30
Latur,Maharashtra,18.4088,76.5604,30.5,39,0.0,940.3,8.5,26.6,160,49.8,41.0,0,5,7,0,2026-03-14T19:21:48.679355+05:30
Nanded,Maharashtra,19.1383,77.3091,31.8,33,0.0,968.3,8.3,31.0,180,51.2,42.7,0,5,7,0,2026-03-14T19:21:48.679361+05:30
Gulbarga,Karnataka,17.3297,76.8343,32.9,31,0.0,959.1,8.6,38.9,168,46.2,36.4,0,5,7,0,2026-03-14T19:21:48.679368+05:30
Bidar,Karnataka,17.9104,77.5199,29.9,36,0.0,936.0,8.55,37.1,157,57.7,43.2,4,5,7,0,2026-03-14T19:21:48.679374+05:30
Hospet,Karnataka,15.2689,76.3909,32.4,42,0.0,956.1,8.85,28.1,176,44.6,37.8,0,5,7,1,2026-03-14T19:21:48.679380+05:30
Tirupur,Tamil Nadu,11.1085,77.3411,31.3,28,0.0,976.1,9.3,30.2,83,18.7,16.3,0,5,7,0,2026-03-14T19:21:48.679387+05:30
Alappuzha,Kerala,9.4981,76.3388,28.7,77,0.0,1010.0,9.1,28.4,110,17.2,15.0,7,0,4,1,2026-03-14T19:21:48.679394+05:30
Munnar,Kerala,10.0889,77.0595,22.7,82,0.0,858.4,9.55,28.8,65,15.4,14.4,3,5,7,1,2026-03-14T19:21:48.679402+05:30
Silchar,Assam,24.8333,92.7789,20.7,91,0.0,1010.3,7.75,39.6,109,35.6,30.2,3,0,4,1,2026-03-14T19:21:48.679409+05:30
Dibrugarh,Assam,27.4728,94.912,19.9,91,0.1,999.8,4.45,22.0,91,31.5,27.2,6,10,3,1,2026-03-14T19:21:48.679416+05:30
