city,state,latitude,longitude,temp,humidity,rain,pressure,uv_index,wind_gusts,aqi,pm10,pm2_5,no2,co,o3,so2,mosquito_risk,arthritis_risk,migraine_risk,frizz_risk,updated_at
Delhi,Delhi,28.6139,77.209,28.1,52,0.0,980.3,7.65,42.5,158,257.0,78.2,20.2,464.0,86.0,17.7,4,5,7,1,2026-05-12T04:27:16.272226+05:30
Mumbai,Maharashtra,19.076,72.8777,28.4,80,0.0,1004.4,7.9,45.7,89,69.4,30.6,29.3,597.0,45.0,28.3,7,5,4,1,2026-05-12T04:27:16.272287+05:30
Bangalore,Karnataka,12.9716,77.5946,21.8,76,0.0,908.6,8.5,41.0,69,33.4,27.4,37.4,291.0,37.0,11.2,3,5,7,1,2026-05-12T04:27:16.272305+05:30
Hyderabad,Telangana,17.385,78.4867,26.1,70,0.0,950.5,9.0,34.6,57,15.5,12.3,10.0,188.0,59.0,5.0,7,5,7,1,2026-05-12T04:27:16.272316+05:30
Chennai,Tamil Nadu,13.0827,80.2707,27.4,85,0.0,1003.6,9.2,38.5,25,8.4,6.9,7.9,146.0,33.0,1.6,7,5,4,1,2026-05-12T04:27:16.272330+05:30
Kolkata,West Bengal,22.5726,88.3639,25.0,92,0.0,1006.0,9.0,29.5,99,51.5,46.2,25.6,345.0,27.0,8.5,7,5,4,1,2026-05-12T04:27:16.272340+05:30
Pune,Maharashtra,18.5204,73.8567,26.5,44,0.0,944.6,8.5,58.0,65,37.3,20.8,16.8,234.0,67.0,19.0,4,5,7,0,2026-05-12T04:27:16.272349+05:30
Ahmedabad,Gujarat,23.0225,72.5714,31.3,43,0.0,997.5,8.15,28.8,61,20.6,11.5,3.8,175.0,67.0,4.4,0,5,7,1,2026-05-12T04:27:16.272360+05:30
Jaipur,Rajasthan,26.9124,75.7873,28.0,46,0.0,956.2,8.2,50.0,144,143.4,44.6,6.4,375.0,89.0,6.8,4,5,7,0,2026-05-12T04:27:16.272368+05:30
Lucknow,Uttar Pradesh,26.8467,80.9462,26.5,51,0.0,991.8,8.15,31.3,93,31.4,26.9,18.4,404.0,76.0,8.0,4,5,7,0,2026-05-12T04:27:16.272376+05:30
Kanpur,Uttar Pradesh,26.4499,80.3319,27.3,49,0.0,989.8,8.15,30.6,110,133.2,30.3,10.9,352.0,89.0,6.0,4,5,7,0,2026-05-12T04:27:16.272384+05:30
Chandigarh,Chandigarh,30.7333,76.7794,21.9,74,0.0,965.7,7.65,39.2,140,70.5,48.7,23.5,328.0,55.0,11.3,3,5,7,1,2026-05-12T04:27:16.272392+05:30
Srinagar,Jammu and Kashmir,34.0837,74.7973,10.1,100,0.0,839.8,8.6,35.6,96,52.4,39.3,25.1,230.0,16.0,1.6,3,10,7,0,2026-05-12T04:27:16.272400+05:30
Jammu,Jammu and Kashmir,32.7266,74.857,21.8,73,0.0,968.9,8.45,29.9,139,46.8,36.9,20.0,314.0,35.0,2.7,3,5,7,1,2026-05-12T04:27:16.272408+05:30
Amritsar,Punjab,31.634,74.8723,23.6,78,0.0,977.7,8.35,50.0,160,122.9,75.7,8.6,801.0,82.0,8.6,3,5,7,1,2026-05-12T04:27:16.272415+05:30
Ludhiana,Punjab,30.901,75.8573,23.8,79,0.0,975.5,7.9,45.7,160,128.5,91.3,16.3,758.0,90.0,31.7,3,5,7,1,2026-05-12T04:27:16.272422+05:30
Jalandhar,Punjab,31.326,75.5762,23.1,80,0.0,976.4,8.1,34.2,160,108.3,78.5,10.2,652.0,109.0,20.8,3,5,7,1,2026-05-12T04:27:16.272431+05:30
Dehradun,Uttarakhand,30.6284,78.0322,11.5,100,0.0,826.1,8.1,32.4,91,20.4,15.9,15.8,324.0,55.0,0.0,3,10,7,0,2026-05-12T04:27:16.272442+05:30
Shimla,Himachal Pradesh,31.1048,77.1734,10.4,74,0.0,779.7,8.2,31.3,135,53.2,40.5,20.0,372.0,65.0,4.2,3,5,7,0,2026-05-12T04:27:16.272450+05:30
Manali,Himachal Pradesh,32.2396,77.1887,8.4,55,0.0,812.0,8.9,42.5,56,5.8,4.3,17.5,196.0,108.0,0.0,0,5,7,1,2026-05-12T04:27:16.272457+05:30
Gurgaon,Haryana,28.4595,77.0266,26.7,59,0.0,978.4,7.75,38.5,512,583.0,107.8,15.4,413.0,89.0,15.4,4,5,7,1,2026-05-12T04:27:16.272464+05:30
Noida,Uttar Pradesh,28.5355,77.391,25.0,67,0.0,981.7,7.7,48.2,512,583.0,107.8,15.4,412.0,89.0,15.4,7,5,7,1,2026-05-12T04:27:16.272471+05:30
Ghaziabad,Uttar Pradesh,28.6692,77.4538,25.5,65,0.0,980.0,7.65,32.8,153,180.7,66.1,11.6,395.0,93.0,10.1,7,5,7,1,2026-05-12T04:27:16.272478+05:30
Faridabad,Haryana,28.4089,77.3178,27.1,58,0.0,981.1,7.7,44.6,512,583.0,107.8,15.4,406.0,89.0,15.4,4,5,7,1,2026-05-12T04:27:16.272484+05:30
Meerut,Uttar Pradesh,28.9845,77.7064,24.2,76,0.0,979.0,7.6,34.9,153,180.7,66.1,11.6,448.0,93.0,10.1,3,5,7,1,2026-05-12T04:27:16.272491+05:30
Agra,Uttar Pradesh,27.1767,78.0081,27.6,50,0.0,985.0,8.05,41.8,329,778.6,99.4,6.5,349.0,104.0,9.4,4,5,7,1,2026-05-12T04:27:16.272497+05:30
Varanasi,Uttar Pradesh,25.3176,82.9739,26.8,61,0.0,995.9,8.7,29.9,126,47.4,44.5,10.9,432.0,125.0,23.8,7,5,7,1,2026-05-12T04:27:16.272504+05:30
Prayagraj,Uttar Pradesh,25.4358,81.8463,27.1,54,0.0,994.2,8.55,32.4,106,58.1,54.0,15.4,467.0,99.0,18.6,4,5,7,1,2026-05-12T04:27:16.272513+05:30
Gorakhpur,Uttar Pradesh,26.7606,83.3732,24.6,67,0.0,997.0,8.55,41.4,102,47.3,42.7,10.8,506.0,116.0,15.5,3,5,7,1,2026-05-12T04:27:16.272520+05:30
Bareilly,Uttar Pradesh,28.367,79.4304,24.7,68,0.0,984.6,7.95,30.6,116,69.2,46.0,13.0,376.0,92.0,5.6,3,5,7,1,2026-05-12T04:27:16.272526+05:30
Aligarh,Uttar Pradesh,27.8974,78.088,26.4,59,0.0,982.9,7.85,28.8,179,523.4,86.1,8.9,391.0,96.0,9.9,4,5,7,1,2026-05-12T04:27:16.272533+05:30
Moradabad,Uttar Pradesh,28.8386,78.7733,24.6,71,0.0,981.5,7.8,37.4,138,74.0,59.6,14.3,396.0,103.0,9.2,3,5,7,1,2026-05-12T04:27:16.272539+05:30
Saharanpur,Uttar Pradesh,29.9637,77.546,24.0,73,0.0,973.2,7.2,37.4,137,65.9,52.4,23.6,378.0,52.0,9.0,3,5,7,1,2026-05-12T04:27:16.272545+05:30
Jhansi,Uttar Pradesh,25.4484,78.5685,27.4,48,0.0,975.4,8.45,26.3,113,91.7,34.3,3.7,393.0,107.0,6.4,4,5,7,0,2026-05-12T04:27:19.646338+05:30
Surat,Gujarat,21.1702,72.8311,31.0,45,0.0,1001.7,7.75,33.8,93,32.7,23.5,23.4,227.0,44.0,30.8,0,5,4,1,2026-05-12T04:27:19.646370+05:30
Vadodara,Gujarat,22.3072,73.1812,32.1,24,0.0,999.8,8.1,28.1,73,39.5,30.7,22.4,213.0,43.0,11.9,0,5,7,0,2026-05-12T04:27:19.646381+05:30
Rajkot,Gujarat,22.3039,70.8022,25.5,90,0.0,990.5,7.75,49.0,53,21.1,9.4,5.6,154.0,56.0,6.2,7,5,7,1,2026-05-12T04:27:19.646389+05:30
Thane,Maharashtra,19.2183,72.9781,27.7,84,0.0,1003.8,7.9,40.0,89,69.4,30.6,29.3,518.0,45.0,28.3,7,5,4,1,2026-05-12T04:27:19.646396+05:30
Nagpur,Maharashtra,21.1458,79.0882,29.5,43,0.0,970.0,8.95,38.2,106,70.8,54.6,44.7,291.0,39.0,22.8,4,5,7,0,2026-05-12T04:27:19.646404+05:30
Nashik,Maharashtra,19.9975,73.7898,26.8,35,0.0,941.7,8.2,46.1,69,44.2,23.5,20.7,242.0,53.0,6.0,4,5,7,0,2026-05-12T04:27:19.646411+05:30
Aurangabad,Maharashtra,19.8762,75.3433,30.2,25,0.0,940.2,9.1,37.4,64,28.4,17.9,14.2,301.0,88.0,8.3,0,5,7,0,2026-05-12T04:27:19.646418+05:30
Solapur,Maharashtra,17.6599,75.9064,28.8,66,0.0,953.6,9.1,35.3,71,23.6,18.7,10.9,318.0,81.0,9.9,7,5,7,1,2026-05-12T04:27:19.646426+05:30
Kolhapur,Maharashtra,16.705,74.2433,23.5,94,0.0,945.0,8.75,57.6,78,37.1,21.4,9.5,188.0,53.0,2.1,3,5,7,1,2026-05-12T04:27:19.646433+05:30
Goa,Goa,15.2993,74.124,26.9,95,0.0,994.9,8.85,33.8,82,70.1,33.5,13.1,292.0,59.0,3.5,7,5,7,1,2026-05-12T04:27:19.646440+05:30
Jodhpur,Rajasthan,26.2389,73.0243,31.9,20,0.0,978.8,8.3,42.5,122,183.5,28.6,2.8,169.0,75.0,2.3,0,5,7,0,2026-05-12T04:27:19.646447+05:30
Udaipur,Rajasthan,24.5854,73.7125,29.6,24,0.0,942.9,8.85,34.9,43,19.5,8.2,3.1,157.0,80.0,4.3,4,5,7,0,2026-05-12T04:27:19.646455+05:30
Kota,Rajasthan,25.2138,75.8648,28.5,39,0.0,975.2,8.4,44.3,97,70.5,38.0,4.5,439.0,95.0,11.1,4,5,7,0,2026-05-12T04:27:19.646462+05:30
Bikaner,Rajasthan,28.0229,73.3119,30.8,28,0.0,976.8,8.35,38.2,82,93.1,38.5,2.8,169.0,102.0,5.5,0,5,7,0,2026-05-12T04:27:19.646469+05:30
Ajmer,Rajasthan,26.4499,74.6399,29.8,24,0.0,951.0,8.35,55.1,82,41.6,17.9,8.5,312.0,65.0,4.8,4,5,7,0,2026-05-12T04:27:19.646476+05:30
Gwalior,Madhya Pradesh,26.2183,78.1828,27.0,48,0.0,980.4,8.25,37.8,118,118.5,37.6,3.8,332.0,115.0,6.6,4,5,7,0,2026-05-12T04:27:19.646482+05:30
Indore,Madhya Pradesh,22.7196,75.8577,29.5,26,0.0,945.3,8.7,29.9,75,75.4,28.3,5.2,361.0,105.0,9.6,4,5,7,0,2026-05-12T04:27:19.646489+05:30
Bhopal,Madhya Pradesh,23.2599,77.4126,28.4,41,0.0,950.8,8.7,39.2,90,58.3,35.3,3.2,317.0,116.0,6.1,4,5,7,0,2026-05-12T04:27:19.646497+05:30
Jabalpur,Madhya Pradesh,23.1815,79.9864,26.3,49,0.0,959.1,8.9,36.4,98,41.2,32.2,9.2,295.0,118.0,10.0,4,5,7,0,2026-05-12T04:27:19.646504+05:30
Ujjain,Madhya Pradesh,23.1765,75.7885,28.4,29,0.0,950.5,8.6,28.8,81,72.4,34.5,8.5,342.0,79.0,8.5,4,5,7,0,2026-05-12T04:27:19.646511+05:30
Visakhapatnam,Andhra Pradesh,17.6868,83.2185,25.5,96,0.0,1001.4,8.1,37.1,65,28.7,26.0,29.5,1912.0,16.0,6.3,7,5,4,1,2026-05-12T04:27:19.646518+05:30
Vijayawada,Andhra Pradesh,16.5062,80.648,27.1,85,0.0,999.6,9.15,33.5,52,24.3,22.6,17.2,202.0,20.0,5.4,7,5,7,1,2026-05-12T04:27:19.646526+05:30
Guntur,Andhra Pradesh,16.3067,80.4365,27.2,86,0.0,1000.9,9.2,40.3,53,21.1,19.4,18.3,168.0,18.0,7.2,7,5,4,1,2026-05-12T04:27:19.646533+05:30
Nellore,Andhra Pradesh,14.4426,79.9865,25.4,96,0.0,1002.5,9.2,37.4,27,11.1,9.0,9.6,174.0,31.0,3.4,7,5,4,1,2026-05-12T04:27:19.646541+05:30
Kurnool,Andhra Pradesh,15.8281,78.0373,27.4,61,0.0,973.9,7.45,40.0,51,11.4,7.7,6.2,164.0,53.0,1.7,7,5,7,1,2026-05-12T04:27:19.646549+05:30
Kakinada,Andhra Pradesh,16.9891,82.2475,26.9,89,0.0,1004.7,8.65,40.3,24,7.7,5.0,2.7,182.0,52.0,1.4,7,5,4,1,2026-05-12T04:27:19.646556+05:30
Tirupati,Andhra Pradesh,13.6288,79.4192,24.5,94,0.0,987.9,9.25,36.7,51,27.2,25.0,39.3,271.0,1.0,4.8,3,5,7,1,2026-05-12T04:27:19.646563+05:30
Warangal,Telangana,17.9689,79.5941,26.0,82,0.0,975.9,8.95,39.2,62,12.3,10.7,10.8,186.0,36.0,10.0,7,5,7,1,2026-05-12T04:27:19.646570+05:30
Nizamabad,Telangana,18.6725,78.0941,27.4,54,0.0,961.3,9.15,29.2,65,25.5,20.1,10.3,255.0,85.0,5.4,4,5,7,1,2026-05-12T04:27:19.646577+05:30
Mysore,Karnataka,12.2958,76.6396,21.2,95,0.0,924.9,5.85,38.2,77,38.1,34.5,25.8,316.0,36.0,2.9,3,5,3,1,2026-05-12T04:27:19.646584+05:30
Mangalore,Karnataka,12.9141,74.856,25.9,92,0.0,1003.2,8.2,36.0,79,48.8,40.9,23.2,354.0,29.0,4.9,7,5,4,1,2026-05-12T04:27:19.646591+05:30
Hubli-Dharwad,Karnataka,15.3647,75.124,24.2,92,0.0,938.2,9.1,45.4,75,34.5,17.7,4.5,179.0,63.0,1.8,3,5,7,1,2026-05-12T04:27:19.646598+05:30
Belgaum,Karnataka,15.8497,74.4977,22.8,89,0.0,922.4,9.15,45.0,73,40.7,21.8,8.1,161.0,49.0,0.5,3,5,7,1,2026-05-12T04:27:23.014968+05:30
Coimbatore,Tamil Nadu,11.0168,76.9558,23.5,97,0.0,958.1,8.7,32.0,72,33.8,25.7,13.9,351.0,56.0,4.9,3,5,7,1,2026-05-12T04:27:23.014999+05:30
Madurai,Tamil Nadu,9.9252,78.1198,25.5,96,0.0,989.2,8.6,34.6,81,37.3,36.2,38.2,352.0,22.0,12.2,7,5,7,1,2026-05-12T04:27:23.015010+05:30
Trichy,Tamil Nadu,10.7905,78.7047,25.5,94,0.0,996.3,8.15,24.1,72,29.3,26.8,35.4,449.0,8.0,10.2,7,5,7,1,2026-05-12T04:27:23.015020+05:30
Salem,Tamil Nadu,11.6643,78.146,23.6,94,0.0,974.1,6.9,26.3,85,44.6,39.8,56.0,458.0,6.0,11.9,3,5,7,1,2026-05-12T04:27:23.015029+05:30
Tirunelveli,Tamil Nadu,8.7139,77.7567,26.4,78,0.0,999.2,9.0,38.9,61,22.2,21.1,10.4,339.0,38.0,1.5,7,5,7,1,2026-05-12T04:27:23.015037+05:30
Vellore,Tamil Nadu,12.9165,79.1325,25.3,90,0.0,981.5,9.25,30.6,62,37.5,34.7,32.2,302.0,14.0,15.5,7,5,7,1,2026-05-12T04:27:23.015045+05:30
Erode,Tamil Nadu,11.341,77.7172,24.6,88,0.0,985.8,5.9,20.9,85,47.4,41.8,43.2,424.0,22.0,5.9,3,5,3,1,2026-05-12T04:27:23.015054+05:30
Kochi,Kerala,9.9312,76.2673,25.5,96,0.0,1005.1,7.75,36.0,75,44.8,42.6,24.4,462.0,17.0,4.1,7,5,4,1,2026-05-12T04:27:23.015062+05:30
Thiruvananthapuram,Kerala,8.5241,76.9366,25.4,93,0.0,1004.4,8.6,38.2,41,18.3,14.6,5.0,265.0,86.0,3.3,7,5,4,1,2026-05-12T04:27:23.015070+05:30
Kozhikode,Kerala,11.2588,75.7804,24.4,97,0.0,1004.2,8.9,39.2,58,26.8,19.5,4.0,534.0,94.0,2.2,3,5,4,1,2026-05-12T04:27:23.015078+05:30
Thrissur,Kerala,10.5276,76.2144,24.5,99,0.0,1003.4,2.45,31.0,76,42.5,39.7,18.2,298.0,41.0,3.4,3,5,0,1,2026-05-12T04:27:23.015087+05:30
Kannur,Kerala,11.8745,75.3704,25.2,92,0.0,1003.5,8.65,41.8,64,35.2,30.6,18.2,376.0,39.0,2.5,7,5,4,1,2026-05-12T04:27:23.015095+05:30
Patna,Bihar,25.5941,85.1376,25.2,78,0.0,1000.0,8.55,35.6,117,47.5,45.3,12.5,392.0,102.0,21.1,7,5,4,1,2026-05-12T04:27:23.015102+05:30
Gaya,Bihar,24.7914,85.0002,26.4,70,0.0,992.6,8.6,34.9,115,37.8,35.2,20.2,320.0,68.0,52.1,7,5,7,1,2026-05-12T04:27:23.015110+05:30
Muzaffarpur,Bihar,26.1209,85.3647,24.0,82,0.0,1000.7,8.75,38.5,114,47.4,44.7,11.8,381.0,102.0,13.8,3,5,4,1,2026-05-12T04:27:23.015117+05:30
Bhagalpur,Bihar,25.2425,87.0117,24.1,89,0.0,1001.8,7.75,28.4,126,69.2,64.7,12.0,299.0,96.0,10.0,3,5,4,1,2026-05-12T04:27:23.015125+05:30
Ranchi,Jharkhand,23.3441,85.3096,21.9,91,0.0,936.6,9.3,31.7,113,63.8,46.1,12.6,225.0,90.0,21.1,3,5,7,1,2026-05-12T04:27:23.015133+05:30
Jamshedpur,Jharkhand,22.8046,86.2029,24.7,92,0.0,990.2,9.1,39.6,78,28.1,26.3,27.6,260.0,27.0,20.7,3,5,7,1,2026-05-12T04:27:23.015140+05:30
Dhanbad,Jharkhand,23.7957,86.4304,24.6,92,0.0,979.4,9.05,37.8,127,41.6,39.9,43.4,242.0,18.0,56.6,3,5,7,1,2026-05-12T04:27:23.015148+05:30
Bokaro,Jharkhand,23.6693,86.1511,24.2,89,0.0,983.0,9.1,36.0,136,51.9,50.6,50.0,1966.0,18.0,66.8,3,5,7,1,2026-05-12T04:27:23.015156+05:30
Bhubaneswar,Odisha,20.2961,85.8245,25.1,95,0.0,1001.3,9.15,33.5,68,31.2,27.7,25.2,344.0,19.0,7.8,7,5,4,1,2026-05-12T04:27:23.015164+05:30
Cuttack,Odisha,20.4625,85.8828,25.4,95,0.0,1003.3,9.2,37.4,68,31.2,27.7,25.2,340.0,19.0,7.8,7,5,4,1,2026-05-12T04:27:23.015173+05:30
Rourkela,Odisha,22.2604,84.8536,25.4,87,0.0,984.2,9.0,35.6,109,41.0,34.0,16.1,269.0,81.0,51.0,7,5,7,1,2026-05-12T04:27:23.015181+05:30
Raipur,Chhattisgarh,21.2514,81.6296,28.0,48,0.0,971.8,9.05,31.7,103,57.5,38.3,28.5,274.0,61.0,5.3,4,5,7,0,2026-05-12T04:27:23.015189+05:30
Bhilai,Chhattisgarh,21.1938,81.3509,27.2,54,0.0,972.1,9.05,31.3,100,54.8,36.4,31.8,358.0,58.0,5.6,4,5,7,1,2026-05-12T04:27:23.015196+05:30
Guwahati,Assam,26.1158,91.7086,20.8,92,0.0,1003.3,8.65,25.2,73,40.9,36.7,13.6,463.0,44.0,3.0,3,5,4,1,2026-05-12T04:27:23.015204+05:30
Agartala,Tripura,23.8315,91.2868,21.5,96,0.0,1007.1,8.85,14.4,93,26.0,23.6,10.4,390.0,67.0,2.0,3,5,4,1,2026-05-12T04:27:23.015211+05:30
Shillong,Meghalaya,25.5788,91.8933,13.9,84,0.0,855.5,6.75,20.9,70,26.7,23.3,10.5,348.0,55.0,0.7,3,10,7,0,2026-05-12T04:27:23.015219+05:30
Imphal,Manipur,24.817,93.9368,15.4,96,0.0,922.8,9.2,21.2,73,55.6,51.8,21.3,520.0,24.0,1.0,3,10,7,0,2026-05-12T04:27:23.015228+05:30
Aizawl,Mizoram,23.7271,92.7176,14.0,100,0.0,890.7,9.05,26.6,72,22.5,20.0,9.8,456.0,18.0,0.3,3,10,7,0,2026-05-12T04:27:23.015235+05:30
Kohima,Nagaland,25.6701,94.1077,12.9,92,0.0,853.8,8.9,29.5,53,20.5,17.3,11.4,276.0,24.0,0.4,3,10,7,0,2026-05-12T04:27:23.015243+05:30
Gangtok,Sikkim,27.3314,88.6138,10.8,73,0.0,835.2,9.0,40.7,69,33.5,22.1,17.1,379.0,52.0,0.6,3,5,7,0,2026-05-12T04:27:23.015271+05:30
Siliguri,West Bengal,26.7271,88.3953,22.3,86,0.0,995.0,8.5,24.5,101,70.3,52.9,19.7,389.0,82.0,4.4,3,5,7,1,2026-05-12T04:27:26.388449+05:30
Durgapur,West Bengal,23.5204,87.3119,24.8,97,0.0,994.7,9.0,27.4,123,35.4,32.7,30.4,244.0,18.0,30.7,3,5,7,1,2026-05-12T04:27:26.388484+05:30
Asansol,West Bengal,23.6739,86.9524,24.7,96,0.0,993.4,9.05,31.7,110,26.4,24.6,27.6,526.0,25.0,36.1,3,5,7,1,2026-05-12T04:27:26.388496+05:30
Pondicherry,Puducherry,11.9139,79.8145,26.2,93,0.0,1004.8,8.85,30.6,33,8.4,6.8,8.0,234.0,30.0,3.0,7,5,4,1,2026-05-12T04:27:26.388506+05:30
Port Blair,Andaman and Nicobar Islands,11.6234,92.7265,25.6,96,0.0,1004.2,8.15,35.6,26,7.5,5.5,0.3,113.0,54.0,0.1,7,5,4,1,2026-05-12T04:27:26.388515+05:30
Haridwar,Uttarakhand,29.9457,78.1642,21.1,86,0.0,971.4,7.2,32.4,120,55.8,42.1,18.9,318.0,58.0,5.8,3,5,7,1,2026-05-12T04:27:26.388524+05:30
Rishikesh,Uttarakhand,30.0869,78.2676,19.3,88,0.0,964.1,7.35,20.9,112,60.1,39.6,8.3,361.0,89.0,3.5,3,10,7,1,2026-05-12T04:27:26.388533+05:30
Nainital,Uttarakhand,29.3919,79.4542,12.2,90,0.0,802.9,8.25,44.3,110,57.4,43.2,17.9,285.0,73.0,4.5,3,10,7,0,2026-05-12T04:27:26.388542+05:30
Mussoorie,Uttarakhand,30.4599,78.0664,12.3,87,0.0,799.6,7.95,44.3,119,43.3,33.1,21.9,322.0,51.0,5.1,3,10,7,0,2026-05-12T04:27:26.388552+05:30
Dharamshala,Himachal Pradesh,32.219,76.3234,20.1,47,0.0,866.7,8.35,35.6,89,29.0,18.2,10.5,262.0,49.0,0.0,0,5,7,0,2026-05-12T04:27:26.388561+05:30
Dalhousie,Himachal Pradesh,32.5387,75.971,9.8,74,0.0,798.3,8.55,43.2,150,68.7,43.8,27.0,314.0,30.0,1.5,3,5,7,0,2026-05-12T04:27:26.388570+05:30
Patiala,Punjab,30.3398,76.3869,24.5,75,0.0,975.3,7.6,47.5,370,156.0,82.4,14.9,425.0,95.0,23.6,3,5,7,1,2026-05-12T04:27:26.388579+05:30
Bhatinda,Punjab,30.211,74.9455,26.9,60,0.0,980.5,8.2,40.7,352,215.6,76.4,6.7,440.0,111.0,14.0,4,5,7,1,2026-05-12T04:27:26.388587+05:30
Rohtak,Haryana,28.8955,76.6066,26.4,62,0.0,978.6,7.7,45.0,229,359.5,88.9,20.3,565.0,85.0,22.1,7,5,7,1,2026-05-12T04:27:26.388596+05:30
Panipat,Haryana,29.3909,76.9635,24.1,77,0.0,977.7,7.55,38.2,515,442.4,93.8,16.1,433.0,83.0,12.1,3,5,7,1,2026-05-12T04:27:26.388604+05:30
Mathura,Uttar Pradesh,27.4924,77.6737,26.6,55,0.0,984.0,7.95,28.4,327,603.5,95.7,8.0,382.0,96.0,9.7,4,5,7,1,2026-05-12T04:27:26.388613+05:30
Vrindavan,Uttar Pradesh,27.5823,77.7027,26.6,55,0.0,984.4,7.95,29.9,327,603.5,95.7,8.0,395.0,96.0,9.7,4,5,7,1,2026-05-12T04:27:26.388621+05:30
Ayodhya,Uttar Pradesh,26.7922,82.1998,23.9,68,0.0,994.5,8.3,36.4,99,53.8,50.8,37.7,414.0,51.0,11.5,3,5,7,1,2026-05-12T04:27:26.388629+05:30
Ratlam,Madhya Pradesh,23.3315,75.0367,29.4,28,0.0,950.8,8.55,31.0,70,34.0,24.8,8.7,266.0,63.0,6.4,4,5,7,0,2026-05-12T04:27:26.388637+05:30
Sagar,Madhya Pradesh,23.8388,78.7378,26.6,48,0.0,947.4,8.75,33.1,98,49.8,30.0,7.0,316.0,111.0,6.7,4,5,7,0,2026-05-12T04:27:26.388645+05:30
Satna,Madhya Pradesh,24.6005,80.8322,25.5,53,0.0,969.2,8.75,35.3,98,36.1,27.8,13.5,313.0,92.0,10.5,4,5,7,0,2026-05-12T04:27:26.388654+05:30
Akola,Maharashtra,20.7002,77.0082,31.0,36,0.0,971.1,8.95,34.6,85,55.5,32.8,25.2,339.0,46.0,6.0,0,5,7,0,2026-05-12T04:27:26.388663+05:30
Amravati,Maharashtra,20.9374,77.7796,29.0,40,0.0,963.9,8.95,38.2,88,49.9,32.4,28.2,325.0,45.0,7.4,4,5,7,0,2026-05-12T04:27:26.388672+05:30
Latur,Maharashtra,18.4088,76.5604,28.5,43,0.0,936.7,9.1,38.9,70,18.0,13.4,9.3,254.0,88.0,8.6,4,5,7,0,2026-05-12T04:27:26.388680+05:30
Nanded,Maharashtra,19.1383,77.3091,28.8,46,0.0,965.0,9.05,29.9,71,22.4,17.9,9.9,277.0,80.0,5.4,4,5,7,0,2026-05-12T04:27:26.388688+05:30
Gulbarga,Karnataka,17.3297,76.8343,28.2,45,0.0,955.8,8.8,28.4,58,21.6,15.2,14.6,240.0,70.0,9.6,4,5,7,0,2026-05-12T04:27:26.388696+05:30
Bidar,Karnataka,17.9104,77.5199,26.2,52,0.0,932.5,9.15,36.0,61,25.5,19.7,10.8,228.0,87.0,6.3,4,5,7,0,2026-05-12T04:27:26.388704+05:30
Hospet,Karnataka,15.2689,76.3909,25.0,89,0.0,953.4,9.2,27.7,71,25.1,18.9,10.8,218.0,56.0,2.8,7,5,7,1,2026-05-12T04:27:26.388712+05:30
Tirupur,Tamil Nadu,11.1085,77.3411,23.7,97,0.0,971.7,9.0,31.7,87,42.6,37.4,37.2,294.0,25.0,8.0,3,5,7,1,2026-05-12T04:27:26.388720+05:30
Alappuzha,Kerala,9.4981,76.3388,26.1,96,0.0,1005.2,8.55,34.2,63,31.9,27.5,14.1,366.0,61.0,4.7,7,5,4,1,2026-05-12T04:27:26.388729+05:30
Munnar,Kerala,10.0889,77.0595,15.8,82,0.0,852.1,8.4,19.1,72,30.6,28.3,11.2,231.0,36.0,0.3,3,10,7,0,2026-05-12T04:27:26.388737+05:30
Silchar,Assam,24.8333,92.7789,21.5,95,0.0,1006.0,8.85,22.3,102,46.4,41.6,13.0,548.0,77.0,5.9,3,5,4,1,2026-05-12T04:27:26.388743+05:30
Dibrugarh,Assam,27.4728,94.912,19.4,97,0.0,997.5,8.75,19.4,79,43.3,40.2,33.2,517.0,16.0,1.3,3,10,7,1,2026-05-12T04:27:26.388750+05:30
