city,state,latitude,longitude,temp,humidity,rain,pressure,uv_index,wind_gusts,aqi,pm10,pm2_5,mosquito_risk,arthritis_risk,migraine_risk,frizz_risk,updated_at
Delhi,Delhi,28.6139,77.209,17.4,88,0.0,987.5,6.45,31.7,159,160.7,61.7,3,10,7,0,2026-03-22T04:58:47.844497+05:30
Mumbai,Maharashtra,19.076,72.8777,27.6,64,0.0,1009.3,7.9,30.2,84,30.0,24.2,7,0,4,1,2026-03-22T04:58:47.844537+05:30
Bangalore,Karnataka,12.9716,77.5946,22.0,89,0.0,911.8,9.45,26.6,99,46.6,41.8,3,5,7,1,2026-03-22T04:58:47.844552+05:30
Hyderabad,Telangana,17.385,78.4867,23.4,88,0.0,953.7,8.9,23.8,100,46.0,34.3,3,5,7,1,2026-03-22T04:58:47.844563+05:30
Chennai,Tamil Nadu,13.0827,80.2707,26.9,84,0.0,1008.6,9.2,32.0,40,15.0,10.0,7,0,4,1,2026-03-22T04:58:47.844571+05:30
Kolkata,West Bengal,22.5726,88.3639,20.0,93,0.0,1009.7,8.25,22.7,85,46.8,45.3,3,0,4,1,2026-03-22T04:58:47.844580+05:30
Pune,Maharashtra,18.5204,73.8567,22.6,67,0.0,949.1,8.45,26.3,82,49.4,45.5,3,5,7,1,2026-03-22T04:58:47.844591+05:30
Ahmedabad,Gujarat,23.0225,72.5714,21.6,57,0.0,1005.1,7.8,20.2,73,30.5,21.1,0,5,4,0,2026-03-22T04:58:47.844599+05:30
Jaipur,Rajasthan,26.9124,75.7873,18.9,75,0.0,963.6,7.25,29.5,79,117.3,32.0,3,5,7,0,2026-03-22T04:58:47.844607+05:30
Lucknow,Uttar Pradesh,26.8467,80.9462,19.0,86,0.0,998.0,6.9,26.6,106,61.2,59.8,3,10,7,1,2026-03-22T04:58:47.844615+05:30
Kanpur,Uttar Pradesh,26.4499,80.3319,17.8,82,0.0,996.1,7.0,29.5,120,117.1,53.0,3,10,7,0,2026-03-22T04:58:47.844622+05:30
Chandigarh,Chandigarh,30.7333,76.7794,13.8,95,0.0,972.2,6.35,34.9,82,34.1,29.6,3,10,7,0,2026-03-22T04:58:47.844630+05:30
Srinagar,Jammu and Kashmir,34.0837,74.7973,3.5,88,0.0,839.2,7.45,14.0,97,43.0,39.3,3,10,7,0,2026-03-22T04:58:47.844637+05:30
Jammu,Jammu and Kashmir,32.7266,74.857,13.6,93,0.0,977.2,6.5,23.4,100,38.4,35.4,3,10,7,0,2026-03-22T04:58:47.844645+05:30
Amritsar,Punjab,31.634,74.8723,14.2,91,0.0,985.8,6.75,22.3,150,97.6,87.5,3,10,7,0,2026-03-22T04:58:47.844651+05:30
Ludhiana,Punjab,30.901,75.8573,14.8,91,0.0,983.3,6.45,27.7,151,63.8,54.2,3,10,7,0,2026-03-22T04:58:47.844658+05:30
Jalandhar,Punjab,31.326,75.5762,14.6,92,0.0,984.7,6.75,24.1,142,84.1,73.1,3,10,7,0,2026-03-22T04:58:47.844667+05:30
Dehradun,Uttarakhand,30.6284,78.0322,8.3,86,0.0,827.8,6.4,23.0,37,18.5,13.9,3,10,7,0,2026-03-22T04:58:47.844675+05:30
Shimla,Himachal Pradesh,31.1048,77.1734,6.1,87,0.0,780.7,6.65,33.8,58,37.1,29.0,3,10,7,0,2026-03-22T04:58:47.844681+05:30
Manali,Himachal Pradesh,32.2396,77.1887,9.0,37,0.0,816.3,8.8,29.9,44,17.3,13.4,0,5,7,1,2026-03-22T04:58:47.844688+05:30
Gurgaon,Haryana,28.4595,77.0266,15.8,93,0.0,985.9,6.55,28.8,213,188.1,68.2,3,10,7,0,2026-03-22T04:58:47.844695+05:30
Noida,Uttar Pradesh,28.5355,77.391,17.4,88,0.0,989.1,6.45,31.0,213,188.1,68.2,3,10,7,0,2026-03-22T04:58:47.844701+05:30
Ghaziabad,Uttar Pradesh,28.6692,77.4538,16.2,91,0.0,987.1,6.45,31.0,153,155.5,60.8,3,10,7,0,2026-03-22T04:58:47.844707+05:30
Faridabad,Haryana,28.4089,77.3178,16.1,92,0.0,988.3,6.5,28.8,213,188.1,68.2,3,10,7,0,2026-03-22T04:58:47.844714+05:30
Meerut,Uttar Pradesh,28.9845,77.7064,15.0,94,0.0,985.5,6.35,32.8,153,155.5,60.8,3,10,7,0,2026-03-22T04:58:47.844722+05:30
Agra,Uttar Pradesh,27.1767,78.0081,17.1,89,0.0,992.7,6.7,31.0,434,681.7,115.0,3,10,7,0,2026-03-22T04:58:47.844730+05:30
Varanasi,Uttar Pradesh,25.3176,82.9739,17.2,94,0.0,1002.0,7.6,27.4,97,49.2,43.7,3,10,4,1,2026-03-22T04:58:47.844742+05:30
Prayagraj,Uttar Pradesh,25.4358,81.8463,18.3,86,0.0,1000.5,7.5,23.8,108,73.1,66.4,3,10,4,0,2026-03-22T04:58:47.844749+05:30
Gorakhpur,Uttar Pradesh,26.7606,83.3732,15.4,100,0.0,1001.8,7.3,13.0,151,124.3,121.1,3,10,4,0,2026-03-22T04:58:47.844755+05:30
Bareilly,Uttar Pradesh,28.367,79.4304,15.6,95,0.0,991.0,6.65,29.9,114,60.5,57.2,3,10,7,0,2026-03-22T04:58:47.844762+05:30
Aligarh,Uttar Pradesh,27.8974,78.088,16.1,91,0.0,990.0,6.55,31.3,177,282.2,78.5,3,10,7,0,2026-03-22T04:58:47.844768+05:30
Moradabad,Uttar Pradesh,28.8386,78.7733,15.2,93,0.0,987.7,6.5,31.0,135,84.3,74.0,3,10,7,0,2026-03-22T04:58:47.844774+05:30
Saharanpur,Uttar Pradesh,29.9637,77.546,13.7,97,0.0,979.3,6.15,35.6,142,104.3,74.0,3,10,7,0,2026-03-22T04:58:47.844780+05:30
Jhansi,Uttar Pradesh,25.4484,78.5685,18.1,71,0.0,982.1,7.45,29.2,70,106.4,28.6,3,5,7,0,2026-03-22T04:58:51.179852+05:30
Surat,Gujarat,21.1702,72.8311,24.0,69,0.0,1009.0,7.65,25.6,105,42.4,32.7,3,0,4,1,2026-03-22T04:58:51.179882+05:30
Vadodara,Gujarat,22.3072,73.1812,23.1,49,0.0,1006.9,7.8,16.9,67,34.2,25.8,0,5,4,0,2026-03-22T04:58:51.179892+05:30
Rajkot,Gujarat,22.3039,70.8022,22.3,87,0.0,997.8,7.6,26.3,59,50.8,20.7,3,5,7,1,2026-03-22T04:58:51.179900+05:30
Thane,Maharashtra,19.2183,72.9781,24.2,61,0.0,1008.9,7.9,43.2,84,30.0,24.2,3,0,4,1,2026-03-22T04:58:51.179907+05:30
Nagpur,Maharashtra,21.1458,79.0882,21.1,48,0.0,976.2,8.2,22.0,53,8.2,7.6,0,5,7,0,2026-03-22T04:58:51.179915+05:30
Nashik,Maharashtra,19.9975,73.7898,22.0,51,0.0,946.6,8.05,30.6,58,17.6,15.7,0,5,7,0,2026-03-22T04:58:51.179921+05:30
Aurangabad,Maharashtra,19.8762,75.3433,21.7,53,0.0,945.2,8.6,25.9,53,18.2,16.9,0,5,7,0,2026-03-22T04:58:51.179927+05:30
Solapur,Maharashtra,17.6599,75.9064,22.6,57,0.0,957.4,8.75,25.9,65,28.7,19.6,0,5,7,0,2026-03-22T04:58:51.179934+05:30
Kolhapur,Maharashtra,16.705,74.2433,17.1,76,0.0,947.1,8.9,30.6,90,51.1,41.7,3,5,7,0,2026-03-22T04:58:51.179942+05:30
Goa,Goa,15.2993,74.124,22.7,94,0.0,997.7,8.85,35.3,80,61.5,45.1,3,5,7,1,2026-03-22T04:58:51.179949+05:30
Jodhpur,Rajasthan,26.2389,73.0243,20.3,69,0.0,987.3,7.55,22.3,66,48.7,21.0,3,5,7,0,2026-03-22T04:58:51.179955+05:30
Udaipur,Rajasthan,24.5854,73.7125,19.5,60,0.0,949.1,8.2,28.1,56,41.0,20.2,0,5,7,0,2026-03-22T04:58:51.179961+05:30
Kota,Rajasthan,25.2138,75.8648,19.9,68,0.0,982.8,7.6,13.7,78,46.0,33.5,3,5,7,0,2026-03-22T04:58:51.179968+05:30
Bikaner,Rajasthan,28.0229,73.3119,20.7,66,0.0,986.2,7.1,15.8,56,48.8,22.5,3,5,7,0,2026-03-22T04:58:51.179975+05:30
Ajmer,Rajasthan,26.4499,74.6399,20.2,66,0.0,958.1,7.5,22.0,68,61.7,25.0,3,5,7,0,2026-03-22T04:58:51.179981+05:30
Gwalior,Madhya Pradesh,26.2183,78.1828,19.9,75,0.0,987.8,6.95,34.9,101,472.2,73.8,3,5,7,0,2026-03-22T04:58:51.179987+05:30
Indore,Madhya Pradesh,22.7196,75.8577,19.5,57,0.0,950.0,8.05,18.7,62,22.4,17.3,0,5,7,0,2026-03-22T04:58:51.179994+05:30
Bhopal,Madhya Pradesh,23.2599,77.4126,18.4,64,0.0,956.3,7.9,24.5,56,16.6,13.0,3,5,7,0,2026-03-22T04:58:51.180001+05:30
Jabalpur,Madhya Pradesh,23.1815,79.9864,18.3,63,0.0,964.7,8.05,29.5,57,17.6,15.5,3,5,7,0,2026-03-22T04:58:51.180008+05:30
Ujjain,Madhya Pradesh,23.1765,75.7885,19.6,58,0.0,956.1,8.0,14.8,67,25.9,21.4,0,5,7,0,2026-03-22T04:58:51.180015+05:30
Visakhapatnam,Andhra Pradesh,17.6868,83.2185,23.5,93,0.0,1005.6,8.85,30.6,81,29.9,27.0,3,5,4,1,2026-03-22T04:58:51.180022+05:30
Vijayawada,Andhra Pradesh,16.5062,80.648,25.1,91,0.0,1004.3,8.25,19.8,66,18.6,15.5,7,5,4,1,2026-03-22T04:58:51.180029+05:30
Guntur,Andhra Pradesh,16.3067,80.4365,25.4,92,0.0,1005.3,8.25,23.4,68,17.3,14.5,7,5,4,1,2026-03-22T04:58:51.180035+05:30
Nellore,Andhra Pradesh,14.4426,79.9865,26.1,86,0.0,1007.1,9.1,30.6,50,14.4,10.6,7,5,4,1,2026-03-22T04:58:51.180042+05:30
Kurnool,Andhra Pradesh,15.8281,78.0373,25.6,81,0.0,977.4,8.95,25.6,74,22.4,18.4,7,5,7,1,2026-03-22T04:58:51.180050+05:30
Kakinada,Andhra Pradesh,16.9891,82.2475,22.9,96,0.0,1009.2,8.9,25.6,36,12.5,8.0,3,0,4,1,2026-03-22T04:58:51.180057+05:30
Tirupati,Andhra Pradesh,13.6288,79.4192,23.8,91,0.0,993.0,9.2,28.1,77,27.5,23.6,3,5,7,1,2026-03-22T04:58:51.180063+05:30
Warangal,Telangana,17.9689,79.5941,23.9,88,0.0,979.9,8.75,25.9,95,48.8,41.3,3,5,7,1,2026-03-22T04:58:51.180086+05:30
Nizamabad,Telangana,18.6725,78.0941,24.5,70,0.0,965.9,8.65,27.0,82,60.1,44.4,3,5,7,1,2026-03-22T04:58:51.180094+05:30
Mysore,Karnataka,12.2958,76.6396,22.3,86,0.0,928.7,9.4,28.1,90,55.3,47.3,3,5,7,1,2026-03-22T04:58:51.180100+05:30
Mangalore,Karnataka,12.9141,74.856,29.4,76,0.0,1006.4,9.1,25.6,69,39.0,28.6,7,5,4,1,2026-03-22T04:58:51.180107+05:30
Hubli-Dharwad,Karnataka,15.3647,75.124,20.6,66,0.0,940.2,9.05,33.5,61,36.8,25.4,3,5,7,0,2026-03-22T04:58:51.180114+05:30
Belgaum,Karnataka,15.8497,74.4977,21.2,55,0.0,924.9,9.1,37.1,68,49.5,26.8,0,5,7,0,2026-03-22T04:58:54.502100+05:30
Coimbatore,Tamil Nadu,11.0168,76.9558,22.0,76,0.0,962.8,9.4,32.4,77,32.1,27.6,3,5,7,1,2026-03-22T04:58:54.502134+05:30
Madurai,Tamil Nadu,9.9252,78.1198,24.4,86,0.0,994.0,9.35,29.2,68,29.5,26.8,3,5,7,1,2026-03-22T04:58:54.502145+05:30
Trichy,Tamil Nadu,10.7905,78.7047,25.4,94,0.0,1001.1,9.3,23.0,59,34.9,30.3,7,5,4,1,2026-03-22T04:58:54.502153+05:30
Salem,Tamil Nadu,11.6643,78.146,24.3,84,0.0,978.8,9.35,20.2,78,34.1,28.3,3,5,7,1,2026-03-22T04:58:54.502160+05:30
Tirunelveli,Tamil Nadu,8.7139,77.7567,24.6,88,0.0,1004.0,9.3,29.5,79,34.1,32.0,3,5,4,1,2026-03-22T04:58:54.502167+05:30
Vellore,Tamil Nadu,12.9165,79.1325,23.6,90,0.0,985.8,9.3,32.8,106,49.7,44.5,3,5,7,1,2026-03-22T04:58:54.502174+05:30
Erode,Tamil Nadu,11.341,77.7172,23.9,83,0.0,990.7,9.3,32.8,59,15.4,12.7,3,5,7,1,2026-03-22T04:58:54.502181+05:30
Kochi,Kerala,9.9312,76.2673,27.3,82,0.0,1009.0,9.15,29.5,74,25.6,23.8,7,0,4,1,2026-03-22T04:58:54.502188+05:30
Thiruvananthapuram,Kerala,8.5241,76.9366,27.5,80,0.0,1007.9,9.1,23.0,62,14.2,12.1,7,5,4,1,2026-03-22T04:58:54.502195+05:30
Kozhikode,Kerala,11.2588,75.7804,28.7,80,0.0,1007.9,9.1,27.0,60,29.9,21.0,7,5,4,1,2026-03-22T04:58:54.502202+05:30
Thrissur,Kerala,10.5276,76.2144,25.6,83,0.0,1007.4,9.15,34.6,69,20.7,19.6,7,5,4,1,2026-03-22T04:58:54.502209+05:30
Kannur,Kerala,11.8745,75.3704,28.0,82,0.0,1007.0,9.1,26.6,64,29.0,22.6,7,5,4,1,2026-03-22T04:58:54.502216+05:30
Patna,Bihar,25.5941,85.1376,18.2,97,0.0,1005.2,7.55,20.5,153,120.6,114.8,3,10,4,1,2026-03-22T04:58:54.502223+05:30
Gaya,Bihar,24.7914,85.0002,17.2,96,0.0,998.1,7.75,22.7,126,78.9,74.3,3,10,7,1,2026-03-22T04:58:54.502230+05:30
Muzaffarpur,Bihar,26.1209,85.3647,16.6,100,0.0,1005.3,7.65,14.0,155,143.0,140.2,3,10,4,1,2026-03-22T04:58:54.502237+05:30
Bhagalpur,Bihar,25.2425,87.0117,18.5,97,0.0,1005.6,7.2,18.4,140,102.9,99.9,3,10,4,1,2026-03-22T04:58:54.502243+05:30
Ranchi,Jharkhand,23.3441,85.3096,14.7,94,0.0,939.2,8.45,28.8,89,47.7,42.6,3,10,7,0,2026-03-22T04:58:54.502250+05:30
Jamshedpur,Jharkhand,22.8046,86.2029,20.1,86,0.0,994.9,8.35,19.8,111,75.7,72.6,3,5,7,1,2026-03-22T04:58:54.502257+05:30
Dhanbad,Jharkhand,23.7957,86.4304,18.1,85,0.0,983.1,7.7,22.7,138,77.1,73.1,3,10,7,0,2026-03-22T04:58:54.502264+05:30
Bokaro,Jharkhand,23.6693,86.1511,17.2,96,0.0,987.4,8.2,23.4,139,92.0,87.8,3,10,7,1,2026-03-22T04:58:54.502270+05:30
Bhubaneswar,Odisha,20.2961,85.8245,22.6,90,0.0,1005.4,8.6,30.2,97,34.1,31.7,3,5,4,1,2026-03-22T04:58:54.502277+05:30
Cuttack,Odisha,20.4625,85.8828,22.4,87,0.0,1007.6,8.35,21.6,97,34.1,31.7,3,5,4,1,2026-03-22T04:58:54.502284+05:30
Rourkela,Odisha,22.2604,84.8536,20.3,82,0.0,988.9,8.25,19.4,94,35.9,33.1,3,5,7,1,2026-03-22T04:58:54.502290+05:30
Raipur,Chhattisgarh,21.2514,81.6296,19.2,62,0.0,977.9,8.4,18.4,102,18.9,18.5,3,5,7,0,2026-03-22T04:58:54.502297+05:30
Bhilai,Chhattisgarh,21.1938,81.3509,18.7,62,0.0,978.2,8.4,14.8,83,21.5,20.8,3,5,7,0,2026-03-22T04:58:54.502304+05:30
Guwahati,Assam,26.1158,91.7086,19.4,91,0.0,1004.3,7.6,13.0,83,31.9,29.4,3,10,4,1,2026-03-22T04:58:54.502310+05:30
Agartala,Tripura,23.8315,91.2868,18.7,92,0.0,1009.1,8.0,18.4,128,62.6,57.6,3,5,4,1,2026-03-22T04:58:54.502317+05:30
Shillong,Meghalaya,25.5788,91.8933,9.8,92,0.1,853.8,7.95,19.1,64,12.6,9.9,6,10,7,0,2026-03-22T04:58:54.502324+05:30
Imphal,Manipur,24.817,93.9368,14.6,90,0.3,923.0,8.1,46.8,85,24.0,22.5,6,10,7,0,2026-03-22T04:58:54.502331+05:30
Aizawl,Mizoram,23.7271,92.7176,14.2,97,0.0,892.3,7.3,44.6,95,5.7,4.8,3,10,7,0,2026-03-22T04:58:54.502338+05:30
Kohima,Nagaland,25.6701,94.1077,11.7,99,0.6,853.5,7.05,56.9,72,17.1,15.0,6,10,7,0,2026-03-22T04:58:54.502344+05:30
Gangtok,Sikkim,27.3314,88.6138,8.1,86,0.0,833.5,7.6,20.5,61,12.9,11.8,3,10,7,0,2026-03-22T04:58:54.502351+05:30
Siliguri,West Bengal,26.7271,88.3953,15.9,71,0.0,996.5,6.95,15.8,115,58.4,53.9,3,5,7,0,2026-03-22T04:58:57.832991+05:30
Durgapur,West Bengal,23.5204,87.3119,20.1,84,0.0,998.8,8.2,20.2,109,53.0,50.3,3,5,7,1,2026-03-22T04:58:57.833024+05:30
Asansol,West Bengal,23.6739,86.9524,19.5,84,0.0,997.4,7.9,22.3,111,51.7,48.2,3,10,7,1,2026-03-22T04:58:57.833037+05:30
Pondicherry,Puducherry,11.9139,79.8145,24.5,100,0.0,1009.8,9.15,29.9,36,15.0,10.1,3,0,4,1,2026-03-22T04:58:57.833047+05:30
Port Blair,Andaman and Nicobar Islands,11.6234,92.7265,27.3,84,0.0,1008.1,9.1,19.8,44,15.0,11.7,7,0,4,1,2026-03-22T04:58:57.833056+05:30
Haridwar,Uttarakhand,29.9457,78.1642,13.8,97,0.0,977.7,6.25,23.8,82,50.4,43.4,3,10,7,0,2026-03-22T04:58:57.833094+05:30
Rishikesh,Uttarakhand,30.0869,78.2676,15.1,82,0.0,970.0,6.35,25.2,54,25.2,20.2,3,10,7,0,2026-03-22T04:58:57.833110+05:30
Nainital,Uttarakhand,29.3919,79.4542,11.2,82,0.0,804.0,7.15,36.0,61,19.6,17.8,3,10,7,0,2026-03-22T04:58:57.833119+05:30
Mussoorie,Uttarakhand,30.4599,78.0664,9.8,75,0.0,800.5,6.5,25.2,60,29.9,24.4,3,5,7,0,2026-03-22T04:58:57.833126+05:30
Dharamshala,Himachal Pradesh,32.219,76.3234,13.6,29,0.0,868.8,6.1,20.9,58,10.9,5.3,0,5,7,1,2026-03-22T04:58:57.833133+05:30
Dalhousie,Himachal Pradesh,32.5387,75.971,9.0,46,0.0,801.3,6.95,19.8,82,32.9,28.1,0,5,7,1,2026-03-22T04:58:57.833141+05:30
Patiala,Punjab,30.3398,76.3869,14.0,95,0.0,982.4,6.2,31.3,153,56.0,48.8,3,10,7,0,2026-03-22T04:58:57.833148+05:30
Bhatinda,Punjab,30.211,74.9455,15.7,92,0.0,988.7,6.95,20.2,132,98.7,72.4,3,10,7,0,2026-03-22T04:58:57.833155+05:30
Rohtak,Haryana,28.8955,76.6066,15.6,92,0.0,986.4,6.45,29.2,164,151.8,60.3,3,10,7,0,2026-03-22T04:58:57.833161+05:30
Panipat,Haryana,29.3909,76.9635,14.2,94,0.0,984.5,6.25,31.3,181,94.5,54.6,3,10,7,0,2026-03-22T04:58:57.833168+05:30
Mathura,Uttar Pradesh,27.4924,77.6737,17.0,89,0.0,991.5,5.95,28.4,369,583.0,105.9,3,10,3,0,2026-03-22T04:58:57.833175+05:30
Vrindavan,Uttar Pradesh,27.5823,77.7027,17.0,89,0.0,992.1,5.95,30.2,369,583.0,105.9,3,10,3,0,2026-03-22T04:58:57.833181+05:30
Ayodhya,Uttar Pradesh,26.7922,82.1998,16.8,97,0.0,999.7,7.1,22.3,86,65.4,60.5,3,10,7,1,2026-03-22T04:58:57.833188+05:30
Ratlam,Madhya Pradesh,23.3315,75.0367,19.3,69,0.0,956.7,7.85,16.6,60,26.2,21.5,3,5,7,0,2026-03-22T04:58:57.833194+05:30
Sagar,Madhya Pradesh,23.8388,78.7378,17.7,60,0.0,953.0,7.95,30.6,60,26.5,17.5,0,5,7,0,2026-03-22T04:58:57.833201+05:30
Satna,Madhya Pradesh,24.6005,80.8322,18.1,69,0.0,974.9,7.9,33.5,63,90.1,21.6,3,5,7,0,2026-03-22T04:58:57.833207+05:30
Akola,Maharashtra,20.7002,77.0082,20.8,55,0.0,977.5,8.3,23.4,54,11.4,10.0,0,5,7,0,2026-03-22T04:58:57.833214+05:30
Amravati,Maharashtra,20.9374,77.7796,20.8,48,0.0,969.4,8.1,24.1,51,10.0,8.6,0,5,7,0,2026-03-22T04:58:57.833221+05:30
Latur,Maharashtra,18.4088,76.5604,20.6,59,0.0,940.2,8.7,29.5,64,36.7,22.5,0,5,7,0,2026-03-22T04:58:57.833228+05:30
Nanded,Maharashtra,19.1383,77.3091,22.0,52,0.0,970.4,8.55,29.2,69,18.2,17.0,0,5,7,0,2026-03-22T04:58:57.833234+05:30
Gulbarga,Karnataka,17.3297,76.8343,25.4,54,0.0,959.2,8.75,27.4,70,38.9,31.2,4,5,7,0,2026-03-22T04:58:57.833241+05:30
Bidar,Karnataka,17.9104,77.5199,23.5,71,0.0,935.8,8.8,34.2,79,51.2,38.2,3,5,7,1,2026-03-22T04:58:57.833247+05:30
Hospet,Karnataka,15.2689,76.3909,23.6,69,0.0,955.7,9.0,29.5,74,28.0,23.9,3,5,7,1,2026-03-22T04:58:57.833254+05:30
Tirupur,Tamil Nadu,11.1085,77.3411,23.6,81,0.0,976.7,9.4,29.9,73,21.9,17.8,3,5,7,1,2026-03-22T04:58:57.833260+05:30
Alappuzha,Kerala,9.4981,76.3388,26.8,81,0.0,1009.0,9.1,30.2,67,20.4,16.8,7,0,4,1,2026-03-22T04:58:57.833266+05:30
Munnar,Kerala,10.0889,77.0595,18.6,95,0.0,855.9,8.7,29.2,70,25.6,22.5,3,10,7,1,2026-03-22T04:58:57.833273+05:30
Silchar,Assam,24.8333,92.7789,19.9,93,0.0,1007.9,7.95,20.2,107,30.6,27.5,3,10,4,1,2026-03-22T04:58:57.833280+05:30
Dibrugarh,Assam,27.4728,94.912,20.5,94,0.1,998.3,1.25,28.4,114,53.4,46.7,6,5,3,1,2026-03-22T04:58:57.833287+05:30
