city,state,latitude,longitude,temp,humidity,rain,pressure,uv_index,wind_gusts,aqi,pm10,pm2_5,no2,co,o3,so2,mosquito_risk,arthritis_risk,migraine_risk,frizz_risk,updated_at
Delhi,Delhi,28.6139,77.209,26.1,91,0.0,975.3,6.5,36.0,88,37.3,37.1,18.6,306.0,69.0,19.2,7,5,7,1,2026-07-24T05:32:57.760524+05:30
Mumbai,Maharashtra,19.076,72.8777,26.6,85,0.0,1002.6,7.7,64.4,58,35.0,13.5,3.6,102.0,42.0,3.3,7,5,4,1,2026-07-24T05:32:57.760571+05:30
Bangalore,Karnataka,12.9716,77.5946,20.1,97,0.0,910.5,8.75,51.1,40,11.2,6.0,7.2,186.0,30.0,4.0,3,5,7,1,2026-07-24T05:32:57.760588+05:30
Hyderabad,Telangana,17.385,78.4867,23.7,82,0.0,949.4,6.55,62.3,64,20.5,12.7,5.8,146.0,39.0,4.1,3,5,7,1,2026-07-24T05:32:57.760598+05:30
Chennai,Tamil Nadu,13.0827,80.2707,26.6,86,0.0,1005.3,7.95,43.9,71,25.1,19.0,17.9,244.0,48.0,16.2,7,5,4,1,2026-07-24T05:32:57.760607+05:30
Kolkata,West Bengal,22.5726,88.3639,25.8,95,0.0,1000.5,3.3,31.3,69,27.2,23.0,9.8,236.0,65.0,8.7,7,5,0,1,2026-07-24T05:32:57.760615+05:30
Pune,Maharashtra,18.5204,73.8567,22.4,90,0.0,942.1,7.15,67.3,35,4.0,2.0,2.7,101.0,39.0,2.3,3,5,7,1,2026-07-24T05:32:57.760621+05:30
Ahmedabad,Gujarat,23.0225,72.5714,25.4,97,0.3,991.3,2.0,58.3,55,7.2,4.6,8.0,114.0,40.0,3.0,10,5,3,1,2026-07-24T05:32:57.760628+05:30
Jaipur,Rajasthan,26.9124,75.7873,24.8,97,0.1,950.5,6.3,28.4,71,19.2,19.1,9.3,282.0,76.0,6.0,6,5,7,1,2026-07-24T05:32:57.760634+05:30
Lucknow,Uttar Pradesh,26.8467,80.9462,25.1,98,0.1,987.2,6.5,26.3,76,16.7,16.6,13.8,214.0,46.0,8.5,10,5,7,1,2026-07-24T05:32:57.760644+05:30
Kanpur,Uttar Pradesh,26.4499,80.3319,25.3,98,0.0,984.6,7.15,27.4,67,9.7,9.5,12.2,232.0,44.0,3.6,7,5,7,1,2026-07-24T05:32:57.760650+05:30
Chandigarh,Chandigarh,30.7333,76.7794,26.8,80,0.0,962.8,7.55,28.1,84,22.5,22.4,21.0,241.0,40.0,5.8,7,5,7,1,2026-07-24T05:32:57.760657+05:30
Srinagar,Jammu and Kashmir,34.0837,74.7973,17.5,93,0.1,838.7,6.85,22.3,72,18.0,17.5,16.8,214.0,40.0,3.1,6,10,7,1,2026-07-24T05:32:57.760665+05:30
Jammu,Jammu and Kashmir,32.7266,74.857,23.5,93,0.1,967.3,8.3,28.1,93,33.5,32.1,27.6,208.0,29.0,2.2,6,5,7,1,2026-07-24T05:32:57.760671+05:30
Amritsar,Punjab,31.634,74.8723,24.7,95,0.3,974.9,8.05,30.2,91,35.6,35.2,23.0,312.0,38.0,3.7,6,5,7,1,2026-07-24T05:32:57.760677+05:30
Ludhiana,Punjab,30.901,75.8573,27.1,88,0.0,972.2,7.85,36.7,124,35.0,34.6,24.9,474.0,44.0,10.7,7,5,7,1,2026-07-24T05:32:57.760683+05:30
Jalandhar,Punjab,31.326,75.5762,25.1,96,0.0,973.6,8.05,28.8,117,53.3,53.1,30.3,651.0,35.0,13.3,7,5,7,1,2026-07-24T05:32:57.760688+05:30
Dehradun,Uttarakhand,30.6284,78.0322,17.2,98,0.0,826.2,7.6,27.4,52,14.2,14.0,23.9,171.0,28.0,1.3,3,10,7,1,2026-07-24T05:32:57.760694+05:30
Shimla,Himachal Pradesh,31.1048,77.1734,13.2,100,0.1,779.5,5.05,24.8,49,4.9,4.8,8.9,290.0,60.0,1.0,6,10,3,0,2026-07-24T05:32:57.760702+05:30
Manali,Himachal Pradesh,32.2396,77.1887,17.9,85,0.0,814.4,9.3,30.2,15,3.1,3.0,12.9,217.0,30.0,0.0,3,10,7,0,2026-07-24T05:32:57.760712+05:30
Gurgaon,Haryana,28.4595,77.0266,25.7,94,0.1,973.6,6.65,37.1,99,37.6,37.6,15.4,274.0,74.0,15.2,10,5,7,1,2026-07-24T05:32:57.760717+05:30
Noida,Uttar Pradesh,28.5355,77.391,26.3,90,0.0,976.8,6.05,38.9,99,37.6,37.6,15.4,293.0,74.0,15.2,7,5,7,1,2026-07-24T05:32:57.760723+05:30
Ghaziabad,Uttar Pradesh,28.6692,77.4538,26.2,90,0.0,975.2,6.5,43.9,77,36.0,35.9,13.0,308.0,72.0,10.6,7,5,7,1,2026-07-24T05:32:57.760729+05:30
Faridabad,Haryana,28.4089,77.3178,26.1,91,0.0,975.9,5.95,42.8,99,37.6,37.6,15.4,274.0,74.0,15.2,7,5,3,1,2026-07-24T05:32:57.760735+05:30
Meerut,Uttar Pradesh,28.9845,77.7064,26.1,90,0.0,974.4,6.15,49.3,77,36.0,35.9,13.0,323.0,72.0,10.6,7,5,7,1,2026-07-24T05:32:57.760741+05:30
Agra,Uttar Pradesh,27.1767,78.0081,25.4,98,0.1,979.2,6.55,32.8,91,21.1,21.0,12.8,240.0,60.0,8.1,10,5,7,1,2026-07-24T05:32:57.760747+05:30
Varanasi,Uttar Pradesh,25.3176,82.9739,25.8,95,0.2,991.7,8.15,22.7,76,25.6,25.3,37.7,361.0,13.0,29.3,10,5,7,1,2026-07-24T05:32:57.760755+05:30
Prayagraj,Uttar Pradesh,25.4358,81.8463,26.3,96,0.1,989.8,8.35,19.8,66,16.5,16.1,19.1,249.0,35.0,7.4,10,5,7,1,2026-07-24T05:32:57.760761+05:30
Gorakhpur,Uttar Pradesh,26.7606,83.3732,25.5,97,0.0,992.0,6.6,28.8,79,30.2,30.0,14.4,288.0,65.0,8.0,7,5,7,1,2026-07-24T05:32:57.760768+05:30
Bareilly,Uttar Pradesh,28.367,79.4304,25.4,92,0.0,979.9,6.75,43.2,74,32.9,32.8,11.0,331.0,80.0,8.6,7,5,7,1,2026-07-24T05:32:57.760776+05:30
Aligarh,Uttar Pradesh,27.8974,78.088,25.9,93,0.0,977.4,6.95,35.6,85,40.3,40.3,12.4,257.0,70.0,12.4,7,5,7,1,2026-07-24T05:32:57.760782+05:30
Moradabad,Uttar Pradesh,28.8386,78.7733,26.3,86,0.0,976.9,6.5,50.0,70,30.2,30.0,10.3,319.0,84.0,9.0,7,5,7,1,2026-07-24T05:32:57.760788+05:30
Saharanpur,Uttar Pradesh,29.9637,77.546,26.4,86,0.0,969.4,7.05,46.8,74,30.2,29.5,21.3,308.0,38.0,7.2,7,5,7,1,2026-07-24T05:32:57.760794+05:30
Jhansi,Uttar Pradesh,25.4484,78.5685,25.9,84,0.0,969.8,6.95,36.0,66,11.2,10.9,12.4,179.0,31.0,4.6,7,5,7,1,2026-07-24T05:33:01.052165+05:30
Surat,Gujarat,21.1702,72.8311,26.6,89,0.1,997.6,6.3,63.7,61,23.1,13.0,14.2,234.0,28.0,24.1,10,5,7,1,2026-07-24T05:33:01.052209+05:30
Vadodara,Gujarat,22.3072,73.1812,25.7,94,0.1,994.3,5.7,59.4,50,7.4,4.7,5.8,109.0,34.0,3.3,10,5,3,1,2026-07-24T05:33:01.052220+05:30
Rajkot,Gujarat,22.3039,70.8022,25.1,95,1.1,983.9,1.25,51.5,53,14.1,6.9,3.3,92.0,41.0,2.8,10,5,3,1,2026-07-24T05:33:01.052230+05:30
Thane,Maharashtra,19.2183,72.9781,25.3,94,0.0,1001.7,7.75,52.6,58,35.0,13.5,3.6,109.0,42.0,3.3,7,5,4,1,2026-07-24T05:33:01.052239+05:30
Nagpur,Maharashtra,21.1458,79.0882,24.6,85,0.0,967.9,7.4,46.1,58,8.5,6.8,9.7,145.0,32.0,8.5,3,5,7,1,2026-07-24T05:33:01.052247+05:30
Nashik,Maharashtra,19.9975,73.7898,22.0,97,0.1,937.9,4.2,68.0,17,9.1,4.6,3.7,96.0,37.0,3.0,6,5,3,1,2026-07-24T05:33:01.052255+05:30
Aurangabad,Maharashtra,19.8762,75.3433,22.6,91,0.0,937.5,7.95,66.6,21,5.3,2.9,4.8,108.0,36.0,4.9,3,5,7,1,2026-07-24T05:33:01.052264+05:30
Solapur,Maharashtra,17.6599,75.9064,24.1,81,0.0,953.1,5.35,66.2,59,3.5,2.3,3.4,100.0,35.0,1.8,3,5,3,1,2026-07-24T05:33:01.052272+05:30
Kolhapur,Maharashtra,16.705,74.2433,22.1,94,0.0,944.1,8.85,68.4,59,7.0,4.1,2.0,95.0,36.0,1.2,3,5,7,1,2026-07-24T05:33:01.052279+05:30
Goa,Goa,15.2993,74.124,22.9,98,0.1,996.1,8.7,48.6,94,61.2,25.0,1.9,219.0,37.0,0.7,6,5,7,1,2026-07-24T05:33:01.052287+05:30
Jodhpur,Rajasthan,26.2389,73.0243,26.9,96,0.0,972.5,8.1,23.4,61,21.7,20.9,15.5,241.0,51.0,2.9,7,5,7,1,2026-07-24T05:33:01.052295+05:30
Udaipur,Rajasthan,24.5854,73.7125,23.5,98,0.0,935.8,5.1,42.1,51,19.6,19.0,13.8,217.0,37.0,4.3,3,5,3,1,2026-07-24T05:33:01.052303+05:30
Kota,Rajasthan,25.2138,75.8648,25.8,91,0.0,968.9,8.2,40.0,70,11.5,10.9,15.0,293.0,24.0,5.7,7,5,7,1,2026-07-24T05:33:01.052310+05:30
Bikaner,Rajasthan,28.0229,73.3119,27.7,82,0.0,972.0,8.2,28.8,71,35.2,28.2,6.3,316.0,73.0,5.1,7,5,7,1,2026-07-24T05:33:01.052318+05:30
Ajmer,Rajasthan,26.4499,74.6399,24.7,96,0.1,944.8,8.2,32.8,62,26.3,25.8,12.1,270.0,62.0,5.1,6,5,7,1,2026-07-24T05:33:01.052326+05:30
Gwalior,Madhya Pradesh,26.2183,78.1828,25.5,94,0.0,974.6,7.85,32.0,75,14.3,14.1,12.4,215.0,46.0,4.3,7,5,7,1,2026-07-24T05:33:01.052333+05:30
Indore,Madhya Pradesh,22.7196,75.8577,23.7,90,0.0,939.7,5.9,51.8,28,4.0,3.2,6.4,131.0,40.0,7.1,3,5,3,1,2026-07-24T05:33:01.052339+05:30
Bhopal,Madhya Pradesh,23.2599,77.4126,23.5,92,0.0,945.9,8.45,46.8,36,5.8,4.5,6.8,138.0,35.0,5.4,3,5,7,1,2026-07-24T05:33:01.052347+05:30
Jabalpur,Madhya Pradesh,23.1815,79.9864,24.0,88,0.0,955.1,7.0,37.1,50,16.2,13.8,10.0,166.0,32.0,6.6,3,5,7,1,2026-07-24T05:33:01.052355+05:30
Ujjain,Madhya Pradesh,23.1765,75.7885,23.5,94,0.1,944.7,5.6,54.0,31,2.4,2.2,6.2,148.0,37.0,4.2,6,5,3,1,2026-07-24T05:33:01.052363+05:30
Visakhapatnam,Andhra Pradesh,17.6868,83.2185,25.0,91,0.2,1000.3,8.0,47.9,71,25.4,18.7,17.8,300.0,73.0,31.9,10,5,4,1,2026-07-24T05:33:01.052371+05:30
Vijayawada,Andhra Pradesh,16.5062,80.648,28.8,64,0.0,999.5,5.25,45.4,64,29.8,20.5,9.9,190.0,53.0,6.6,7,5,3,1,2026-07-24T05:33:01.052379+05:30
Guntur,Andhra Pradesh,16.3067,80.4365,29.5,62,0.0,1000.9,4.85,45.0,65,30.3,20.5,11.8,185.0,41.0,5.6,7,5,0,1,2026-07-24T05:33:01.052387+05:30
Nellore,Andhra Pradesh,14.4426,79.9865,25.5,88,0.0,1004.0,7.6,43.2,65,35.9,21.9,9.9,282.0,46.0,6.5,7,5,4,1,2026-07-24T05:33:01.052395+05:30
Kurnool,Andhra Pradesh,15.8281,78.0373,25.6,74,0.0,974.7,7.5,56.5,60,45.2,21.2,6.1,118.0,43.0,4.9,7,5,7,1,2026-07-24T05:33:01.052404+05:30
Kakinada,Andhra Pradesh,16.9891,82.2475,28.8,81,0.0,1004.0,8.85,57.6,64,32.0,19.6,3.5,218.0,85.0,5.5,7,5,4,1,2026-07-24T05:33:01.052412+05:30
Tirupati,Andhra Pradesh,13.6288,79.4192,25.4,81,0.0,989.5,6.5,36.7,66,28.8,18.8,15.3,162.0,27.0,4.6,7,5,7,1,2026-07-24T05:33:01.052421+05:30
Warangal,Telangana,17.9689,79.5941,26.0,71,0.0,975.2,3.8,48.6,70,29.2,17.6,7.8,152.0,36.0,3.6,7,5,3,1,2026-07-24T05:33:01.052428+05:30
Nizamabad,Telangana,18.6725,78.0941,24.7,77,0.0,960.3,6.4,54.7,62,10.3,5.5,5.4,120.0,31.0,2.3,3,5,7,1,2026-07-24T05:33:01.052437+05:30
Mysore,Karnataka,12.2958,76.6396,20.4,96,0.0,927.5,7.2,46.4,28,8.2,4.4,4.4,111.0,31.0,1.6,3,5,7,1,2026-07-24T05:33:01.052445+05:30
Mangalore,Karnataka,12.9141,74.856,23.2,99,0.1,1006.5,8.65,43.2,51,21.7,10.5,3.5,149.0,29.0,1.7,6,5,4,1,2026-07-24T05:33:01.052454+05:30
Hubli-Dharwad,Karnataka,15.3647,75.124,21.2,98,0.0,938.1,8.95,64.1,58,24.7,10.7,1.7,96.0,43.0,0.9,3,5,7,1,2026-07-24T05:33:01.052462+05:30
Belgaum,Karnataka,15.8497,74.4977,20.6,96,0.0,922.3,8.9,67.7,61,14.1,6.9,1.9,94.0,37.0,1.2,3,5,7,1,2026-07-24T05:33:04.309218+05:30
Coimbatore,Tamil Nadu,11.0168,76.9558,22.3,94,0.0,960.7,8.8,51.1,38,8.0,5.9,7.5,175.0,20.0,2.6,3,5,7,1,2026-07-24T05:33:04.309258+05:30
Madurai,Tamil Nadu,9.9252,78.1198,27.4,65,0.0,992.0,8.85,33.1,64,26.1,23.4,35.3,157.0,2.0,6.1,7,5,7,1,2026-07-24T05:33:04.309269+05:30
Trichy,Tamil Nadu,10.7905,78.7047,27.5,67,0.0,998.8,8.75,44.6,54,8.6,6.1,6.9,105.0,25.0,3.3,7,5,7,1,2026-07-24T05:33:04.309278+05:30
Salem,Tamil Nadu,11.6643,78.146,24.8,77,0.0,976.7,8.0,33.8,63,24.4,18.0,21.0,351.0,20.0,7.5,3,5,7,1,2026-07-24T05:33:04.309287+05:30
Tirunelveli,Tamil Nadu,8.7139,77.7567,27.4,73,0.0,1002.5,8.75,50.8,42,7.0,5.8,6.7,153.0,26.0,2.4,7,5,4,1,2026-07-24T05:33:04.309294+05:30
Vellore,Tamil Nadu,12.9165,79.1325,26.3,69,0.0,983.3,6.85,39.6,75,36.2,26.4,24.7,149.0,14.0,6.0,7,5,7,1,2026-07-24T05:33:04.309302+05:30
Erode,Tamil Nadu,11.341,77.7172,24.9,81,0.0,988.6,8.35,40.7,53,14.4,11.8,15.1,155.0,20.0,4.3,3,5,7,1,2026-07-24T05:33:04.309310+05:30
Kochi,Kerala,9.9312,76.2673,25.0,94,0.1,1009.1,8.25,35.6,55,10.3,9.1,13.2,185.0,11.0,4.6,10,0,4,1,2026-07-24T05:33:04.309318+05:30
Thiruvananthapuram,Kerala,8.5241,76.9366,24.2,96,0.0,1008.2,8.55,41.4,51,10.7,7.1,4.8,184.0,35.0,3.2,3,0,4,1,2026-07-24T05:33:04.309325+05:30
Kozhikode,Kerala,11.2588,75.7804,23.5,96,0.0,1008.1,8.5,35.6,37,12.7,6.2,2.7,280.0,38.0,1.6,3,0,4,1,2026-07-24T05:33:04.309332+05:30
Thrissur,Kerala,10.5276,76.2144,23.6,98,0.0,1007.6,8.6,36.7,52,11.3,10.2,13.2,349.0,7.0,3.5,3,5,4,1,2026-07-24T05:33:04.309339+05:30
Kannur,Kerala,11.8745,75.3704,23.1,98,0.1,1007.4,8.4,38.9,42,7.2,3.7,5.3,149.0,27.0,1.6,6,5,4,1,2026-07-24T05:33:04.309347+05:30
Patna,Bihar,25.5941,85.1376,25.7,97,0.0,995.0,6.85,24.5,82,34.8,34.7,18.9,308.0,51.0,13.0,7,5,7,1,2026-07-24T05:33:04.309353+05:30
Gaya,Bihar,24.7914,85.0002,25.9,94,0.0,988.3,7.55,25.2,74,41.4,41.3,24.8,246.0,33.0,10.9,7,5,7,1,2026-07-24T05:33:04.309360+05:30
Muzaffarpur,Bihar,26.1209,85.3647,25.8,96,0.0,995.1,6.35,27.7,84,33.9,33.8,16.6,360.0,56.0,10.2,7,5,7,1,2026-07-24T05:33:04.309367+05:30
Bhagalpur,Bihar,25.2425,87.0117,26.2,94,0.0,995.7,6.5,26.3,67,30.4,30.3,18.5,253.0,36.0,17.0,7,5,7,1,2026-07-24T05:33:04.309374+05:30
Ranchi,Jharkhand,23.3441,85.3096,21.7,93,0.0,932.2,6.1,28.8,50,20.7,17.9,12.2,176.0,43.0,19.7,3,5,7,1,2026-07-24T05:33:04.309381+05:30
Jamshedpur,Jharkhand,22.8046,86.2029,25.5,84,0.0,985.8,8.45,38.9,61,22.2,19.0,20.1,238.0,32.0,28.3,7,5,7,1,2026-07-24T05:33:04.309388+05:30
Dhanbad,Jharkhand,23.7957,86.4304,24.3,94,0.0,974.3,7.45,27.4,81,31.7,30.2,34.9,176.0,24.0,80.0,3,5,7,1,2026-07-24T05:33:04.309395+05:30
Bokaro,Jharkhand,23.6693,86.1511,24.8,94,0.0,978.2,7.6,29.5,66,28.2,26.6,26.9,195.0,30.0,64.7,3,5,7,1,2026-07-24T05:33:04.309401+05:30
Bhubaneswar,Odisha,20.2961,85.8245,26.0,95,0.1,998.3,7.85,37.1,69,23.7,19.2,10.8,231.0,57.0,9.0,10,5,7,1,2026-07-24T05:33:04.309408+05:30
Cuttack,Odisha,20.4625,85.8828,26.2,95,0.0,1000.0,8.1,38.9,69,23.7,19.2,10.8,246.0,57.0,9.0,7,5,4,1,2026-07-24T05:33:04.309415+05:30
Rourkela,Odisha,22.2604,84.8536,24.6,95,0.1,980.6,5.05,36.0,56,25.6,20.4,12.0,255.0,37.0,7.1,6,5,3,1,2026-07-24T05:33:04.309422+05:30
Raipur,Chhattisgarh,21.2514,81.6296,24.8,83,0.0,969.7,6.1,47.2,69,45.8,31.7,24.3,245.0,33.0,37.8,3,5,7,1,2026-07-24T05:33:04.309428+05:30
Bhilai,Chhattisgarh,21.1938,81.3509,24.6,84,0.0,970.1,5.6,52.2,68,41.2,29.2,21.4,371.0,34.0,34.5,3,5,3,1,2026-07-24T05:33:04.309434+05:30
Guwahati,Assam,26.1158,91.7086,25.5,97,0.0,997.1,8.5,19.4,50,13.9,13.4,7.8,256.0,45.0,3.2,7,5,7,1,2026-07-24T05:33:04.309441+05:30
Agartala,Tripura,23.8315,91.2868,24.5,96,0.0,1002.3,7.9,35.3,46,9.4,7.4,7.4,167.0,49.0,2.4,3,5,4,1,2026-07-24T05:33:04.309447+05:30
Shillong,Meghalaya,25.5788,91.8933,19.9,94,0.0,854.2,8.05,25.6,25,2.3,2.1,3.5,186.0,54.0,2.2,3,10,7,1,2026-07-24T05:33:04.309454+05:30
Imphal,Manipur,24.817,93.9368,22.4,97,0.0,920.0,8.5,17.3,40,8.8,7.9,5.3,272.0,37.0,1.9,3,5,7,1,2026-07-24T05:33:04.309460+05:30
Aizawl,Mizoram,23.7271,92.7176,19.8,92,0.0,889.2,8.75,27.7,21,1.7,1.4,2.4,140.0,41.0,1.0,3,10,7,1,2026-07-24T05:33:04.309466+05:30
Kohima,Nagaland,25.6701,94.1077,20.0,95,0.1,852.8,8.5,22.0,22,4.4,3.9,5.3,231.0,35.0,0.8,6,5,7,1,2026-07-24T05:33:04.309472+05:30
Gangtok,Sikkim,27.3314,88.6138,16.9,97,0.1,834.0,7.65,32.4,35,12.3,12.1,9.1,376.0,63.0,1.9,6,10,7,1,2026-07-24T05:33:04.309479+05:30
Siliguri,West Bengal,26.7271,88.3953,24.7,95,0.0,988.3,7.95,27.7,58,25.8,25.3,10.7,218.0,75.0,4.6,3,5,7,1,2026-07-24T05:33:07.569502+05:30
Durgapur,West Bengal,23.5204,87.3119,25.7,94,0.0,989.3,5.25,30.6,83,38.3,37.0,43.3,720.0,12.0,64.7,7,5,3,1,2026-07-24T05:33:07.569540+05:30
Asansol,West Bengal,23.6739,86.9524,25.2,94,0.0,987.9,6.35,26.3,75,28.0,27.0,35.4,431.0,23.0,59.5,7,5,7,1,2026-07-24T05:33:07.569552+05:30
Pondicherry,Puducherry,11.9139,79.8145,27.6,77,0.0,1007.0,7.65,50.4,67,12.5,10.1,11.2,236.0,47.0,8.9,7,5,4,1,2026-07-24T05:33:07.569560+05:30
Port Blair,Andaman and Nicobar Islands,11.6234,92.7265,27.0,84,0.0,1006.2,5.3,45.7,36,12.6,7.5,0.2,96.0,46.0,0.4,7,5,0,1,2026-07-24T05:33:07.569568+05:30
Haridwar,Uttarakhand,29.9457,78.1642,25.5,96,0.0,967.5,6.25,38.2,71,33.6,33.1,25.6,306.0,29.0,5.5,7,5,7,1,2026-07-24T05:33:07.569576+05:30
Rishikesh,Uttarakhand,30.0869,78.2676,25.4,84,0.0,960.3,6.45,24.8,55,16.7,16.5,9.7,255.0,66.0,3.8,7,5,7,1,2026-07-24T05:33:07.569583+05:30
Nainital,Uttarakhand,29.3919,79.4542,15.0,100,0.0,800.9,7.8,44.3,53,16.1,16.1,7.3,238.0,66.0,2.6,3,10,7,0,2026-07-24T05:33:07.569591+05:30
Mussoorie,Uttarakhand,30.4599,78.0664,15.6,100,0.0,798.6,7.25,33.5,60,22.5,22.3,27.9,202.0,33.0,4.6,3,10,7,0,2026-07-24T05:33:07.569598+05:30
Dharamshala,Himachal Pradesh,32.219,76.3234,19.7,90,0.0,864.8,6.4,31.3,39,9.0,8.7,11.7,312.0,33.0,1.0,3,10,7,1,2026-07-24T05:33:07.569606+05:30
Dalhousie,Himachal Pradesh,32.5387,75.971,16.6,91,0.1,801.3,8.6,30.2,77,36.4,35.7,30.0,180.0,33.0,3.5,6,10,7,0,2026-07-24T05:33:07.569615+05:30
Patiala,Punjab,30.3398,76.3869,26.9,87,0.0,971.6,7.5,46.1,81,25.7,25.6,17.2,347.0,60.0,10.3,7,5,7,1,2026-07-24T05:33:07.569622+05:30
Bhatinda,Punjab,30.211,74.9455,27.6,83,0.0,976.1,7.75,33.8,102,40.6,40.4,22.5,361.0,46.0,7.1,7,5,7,1,2026-07-24T05:33:07.569629+05:30
Rohtak,Haryana,28.8955,76.6066,26.2,91,0.0,974.2,5.95,40.0,90,36.3,36.3,18.3,295.0,72.0,20.9,7,5,3,1,2026-07-24T05:33:07.569636+05:30
Panipat,Haryana,29.3909,76.9635,26.7,86,0.0,973.2,6.7,43.9,81,32.9,32.8,15.4,315.0,71.0,15.5,7,5,7,1,2026-07-24T05:33:07.569644+05:30
Mathura,Uttar Pradesh,27.4924,77.6737,25.8,95,0.0,978.3,6.6,34.2,86,32.1,32.1,12.0,240.0,66.0,8.0,7,5,7,1,2026-07-24T05:33:07.569651+05:30
Vrindavan,Uttar Pradesh,27.5823,77.7027,25.9,94,0.0,978.8,6.35,33.8,86,32.1,32.1,12.0,248.0,66.0,8.0,7,5,7,1,2026-07-24T05:33:07.569657+05:30
Ayodhya,Uttar Pradesh,26.7922,82.1998,25.4,97,0.4,989.6,6.2,26.6,84,38.2,38.2,16.0,364.0,57.0,8.4,10,5,7,1,2026-07-24T05:33:07.569664+05:30
Ratlam,Madhya Pradesh,23.3315,75.0367,23.1,98,0.3,945.0,7.8,54.7,25,1.6,1.6,6.4,189.0,34.0,3.8,6,5,7,1,2026-07-24T05:33:07.569670+05:30
Sagar,Madhya Pradesh,23.8388,78.7378,23.7,86,0.0,942.8,7.7,41.0,36,6.8,5.3,7.4,146.0,37.0,6.2,3,5,7,1,2026-07-24T05:33:07.569677+05:30
Satna,Madhya Pradesh,24.6005,80.8322,24.7,86,0.0,964.9,7.35,32.0,46,12.1,11.2,9.5,178.0,37.0,7.5,3,5,7,1,2026-07-24T05:33:07.569684+05:30
Akola,Maharashtra,20.7002,77.0082,24.5,90,0.1,968.9,8.05,51.5,40,5.2,3.9,8.3,119.0,28.0,4.5,6,5,7,1,2026-07-24T05:33:07.569691+05:30
Amravati,Maharashtra,20.9374,77.7796,23.5,96,0.1,961.5,7.85,50.8,47,5.1,3.9,7.8,124.0,28.0,4.0,6,5,7,1,2026-07-24T05:33:07.569698+05:30
Latur,Maharashtra,18.4088,76.5604,22.8,84,0.0,934.8,7.7,59.8,56,6.9,4.1,3.2,104.0,36.0,1.5,3,5,7,1,2026-07-24T05:33:07.569705+05:30
Nanded,Maharashtra,19.1383,77.3091,24.7,79,0.0,963.6,7.75,54.0,57,12.7,6.4,5.0,115.0,34.0,3.2,3,5,7,1,2026-07-24T05:33:07.569711+05:30
Gulbarga,Karnataka,17.3297,76.8343,24.2,79,0.0,955.2,7.2,61.6,62,7.9,4.9,4.8,103.0,36.0,2.6,3,5,7,1,2026-07-24T05:33:07.569718+05:30
Bidar,Karnataka,17.9104,77.5199,22.6,84,0.0,931.0,6.2,61.2,62,11.0,5.8,4.8,107.0,34.0,2.3,3,5,7,1,2026-07-24T05:33:07.569724+05:30
Hospet,Karnataka,15.2689,76.3909,23.2,86,0.0,953.6,8.9,65.9,53,35.3,15.0,2.9,98.0,46.0,1.4,3,5,7,1,2026-07-24T05:33:07.569731+05:30
Tirupur,Tamil Nadu,11.1085,77.3411,23.4,88,0.0,974.7,8.65,52.6,56,18.3,15.2,19.8,148.0,13.0,5.2,3,5,7,1,2026-07-24T05:33:07.569737+05:30
Alappuzha,Kerala,9.4981,76.3388,25.4,96,0.0,1008.9,8.6,33.5,56,11.5,8.5,9.2,161.0,26.0,4.8,7,0,4,1,2026-07-24T05:33:07.569744+05:30
Munnar,Kerala,10.0889,77.0595,15.5,97,0.0,855.5,9.0,39.6,37,4.6,3.9,6.4,87.0,17.0,1.2,3,10,7,0,2026-07-24T05:33:07.569751+05:30
Silchar,Assam,24.8333,92.7789,25.6,96,0.0,1001.5,8.8,23.4,53,11.7,10.0,6.5,264.0,54.0,4.4,7,5,4,1,2026-07-24T05:33:07.569757+05:30
Dibrugarh,Assam,27.4728,94.912,25.1,97,0.1,991.9,6.15,22.0,53,7.9,7.7,6.2,182.0,56.0,1.0,10,5,7,1,2026-07-24T05:33:07.569764+05:30
