city,state,latitude,longitude,temp,humidity,rain,pressure,uv_index,wind_gusts,aqi,pm10,pm2_5,no2,co,o3,so2,mosquito_risk,arthritis_risk,migraine_risk,frizz_risk,updated_at
Delhi,Delhi,28.6139,77.209,38.2,18,0.0,976.4,7.75,45.0,707,972.3,183.5,33.0,347.0,58.0,16.2,0,5,10,0,2026-05-18T21:56:26.990475+05:30
Mumbai,Maharashtra,19.076,72.8777,29.5,81,0.0,1005.2,7.55,44.6,68,41.7,21.0,9.7,231.0,66.0,5.9,7,5,4,1,2026-05-18T21:56:26.990520+05:30
Bangalore,Karnataka,12.9716,77.5946,23.0,94,0.0,911.3,8.55,32.8,83,42.6,37.0,43.2,420.0,62.0,11.1,3,5,7,1,2026-05-18T21:56:26.990534+05:30
Hyderabad,Telangana,17.385,78.4867,32.9,37,0.0,951.8,9.25,25.6,78,30.4,26.5,18.1,388.0,80.0,7.4,0,5,7,1,2026-05-18T21:56:26.990544+05:30
Chennai,Tamil Nadu,13.0827,80.2707,30.2,85,0.0,1004.9,9.05,45.0,100,22.9,16.4,6.9,226.0,99.0,6.1,3,5,4,1,2026-05-18T21:56:26.990551+05:30
Kolkata,West Bengal,22.5726,88.3639,29.1,89,0.0,1002.2,8.95,34.9,71,25.1,21.3,11.5,323.0,61.0,9.1,7,5,4,1,2026-05-18T21:56:26.990559+05:30
Pune,Maharashtra,18.5204,73.8567,28.6,73,0.0,945.5,8.4,48.6,136,39.5,28.5,12.4,233.0,140.0,24.5,7,5,7,1,2026-05-18T21:56:26.990566+05:30
Ahmedabad,Gujarat,23.0225,72.5714,37.7,16,0.0,997.5,8.05,35.6,64,45.2,24.3,13.4,249.0,67.0,4.9,0,5,10,0,2026-05-18T21:56:26.990572+05:30
Jaipur,Rajasthan,26.9124,75.7873,37.5,17,0.0,955.8,8.25,43.2,157,206.8,47.0,13.2,267.0,70.0,6.7,0,5,10,0,2026-05-18T21:56:26.990582+05:30
Lucknow,Uttar Pradesh,26.8467,80.9462,35.1,32,0.0,987.1,8.2,37.4,181,289.6,88.7,25.7,473.0,77.0,15.8,0,5,10,0,2026-05-18T21:56:26.990588+05:30
Kanpur,Uttar Pradesh,26.4499,80.3319,36.0,31,0.0,985.1,8.25,44.3,336,625.8,128.5,19.6,428.0,82.0,13.4,0,5,10,0,2026-05-18T21:56:26.990594+05:30
Chandigarh,Chandigarh,30.7333,76.7794,32.8,34,0.0,962.4,7.75,38.5,134,31.7,26.4,20.0,603.0,110.0,14.7,0,5,7,0,2026-05-18T21:56:26.990602+05:30
Srinagar,Jammu and Kashmir,34.0837,74.7973,18.1,74,0.0,838.6,8.95,21.2,70,34.8,22.8,28.0,1356.0,53.0,3.2,3,5,7,0,2026-05-18T21:56:26.990609+05:30
Jammu,Jammu and Kashmir,32.7266,74.857,31.9,39,0.0,965.9,8.55,29.2,132,40.2,35.7,43.6,701.0,56.0,7.0,0,5,7,1,2026-05-18T21:56:26.990615+05:30
Amritsar,Punjab,31.634,74.8723,33.4,46,0.0,973.5,8.45,24.5,125,62.9,41.1,29.3,517.0,83.0,15.7,0,5,7,1,2026-05-18T21:56:26.990621+05:30
Ludhiana,Punjab,30.901,75.8573,33.2,48,0.0,972.0,8.0,25.9,95,101.3,46.0,20.9,1012.0,70.0,8.7,0,5,7,1,2026-05-18T21:56:26.990627+05:30
Jalandhar,Punjab,31.326,75.5762,33.9,37,0.0,972.8,8.2,25.6,106,95.7,42.0,19.8,1008.0,79.0,9.2,0,5,7,1,2026-05-18T21:56:26.990633+05:30
Dehradun,Uttarakhand,30.6284,78.0322,18.1,71,0.0,826.1,8.2,38.9,133,18.0,16.7,28.0,256.0,103.0,5.3,3,5,7,0,2026-05-18T21:56:26.990639+05:30
Shimla,Himachal Pradesh,31.1048,77.1734,18.3,55,0.0,783.3,8.3,45.7,133,19.2,15.1,15.5,276.0,122.0,6.2,0,5,7,0,2026-05-18T21:56:26.990646+05:30
Manali,Himachal Pradesh,32.2396,77.1887,13.3,63,0.0,814.3,9.9,54.0,48,9.9,7.3,96.5,405.0,13.0,0.2,3,5,7,0,2026-05-18T21:56:26.990652+05:30
Gurgaon,Haryana,28.4595,77.0266,34.5,26,0.0,974.8,7.85,43.6,1258,1952.1,292.4,27.7,534.0,60.0,13.6,0,5,7,0,2026-05-18T21:56:26.990660+05:30
Noida,Uttar Pradesh,28.5355,77.391,36.0,24,0.0,977.4,7.75,34.9,1258,1952.1,292.4,27.7,390.0,60.0,13.6,0,5,10,0,2026-05-18T21:56:26.990666+05:30
Ghaziabad,Uttar Pradesh,28.6692,77.4538,36.0,24,0.0,975.7,7.75,36.0,558,808.4,165.3,35.9,397.0,60.0,22.5,0,5,10,0,2026-05-18T21:56:26.990672+05:30
Faridabad,Haryana,28.4089,77.3178,37.8,19,0.0,977.0,7.8,45.4,1258,1952.1,292.4,27.7,449.0,60.0,13.6,0,5,10,0,2026-05-18T21:56:26.990684+05:30
Meerut,Uttar Pradesh,28.9845,77.7064,35.0,41,0.0,974.3,7.65,37.4,558,808.4,165.3,35.9,536.0,60.0,22.5,0,5,7,1,2026-05-18T21:56:26.990690+05:30
Agra,Uttar Pradesh,27.1767,78.0081,35.9,27,0.0,981.2,8.1,45.0,636,687.3,118.7,25.1,257.0,53.0,11.3,0,5,10,0,2026-05-18T21:56:26.990696+05:30
Varanasi,Uttar Pradesh,25.3176,82.9739,35.2,34,0.0,991.7,8.7,46.4,107,97.6,54.6,33.6,693.0,53.0,16.0,0,5,10,1,2026-05-18T21:56:26.990702+05:30
Prayagraj,Uttar Pradesh,25.4358,81.8463,36.2,26,0.0,989.8,8.6,44.6,130,201.6,78.5,23.5,270.0,77.0,14.9,0,5,10,0,2026-05-18T21:56:26.990709+05:30
Gorakhpur,Uttar Pradesh,26.7606,83.3732,30.6,68,0.0,991.6,8.6,27.4,161,242.1,116.2,51.6,574.0,57.0,24.0,3,5,7,1,2026-05-18T21:56:26.990727+05:30
Bareilly,Uttar Pradesh,28.367,79.4304,30.8,61,0.0,979.5,8.0,33.8,154,64.0,54.2,33.0,580.0,85.0,17.1,3,5,7,1,2026-05-18T21:56:26.990733+05:30
Aligarh,Uttar Pradesh,27.8974,78.088,33.5,40,0.0,978.5,7.9,40.0,764,953.7,190.9,28.7,416.0,60.0,13.1,0,5,7,1,2026-05-18T21:56:26.990739+05:30
Moradabad,Uttar Pradesh,28.8386,78.7733,32.5,54,0.0,976.2,7.85,38.9,162,194.6,97.1,58.2,931.0,58.0,22.6,0,5,7,1,2026-05-18T21:56:26.990745+05:30
Saharanpur,Uttar Pradesh,29.9637,77.546,33.2,34,0.0,968.4,7.4,36.0,116,68.2,34.3,17.3,370.0,93.0,12.0,0,5,7,0,2026-05-18T21:56:26.990751+05:30
Jhansi,Uttar Pradesh,25.4484,78.5685,35.3,25,0.0,972.4,8.45,46.4,70,38.5,23.0,8.7,190.0,62.0,5.0,0,5,10,0,2026-05-18T21:56:30.271811+05:30
Surat,Gujarat,21.1702,72.8311,30.2,73,0.0,1002.7,7.25,33.5,91,38.4,27.4,29.1,451.0,44.0,43.9,3,5,4,1,2026-05-18T21:56:30.271842+05:30
Vadodara,Gujarat,22.3072,73.1812,33.5,42,0.0,999.9,7.85,37.1,93,42.0,28.0,24.9,431.0,64.0,13.8,0,5,7,1,2026-05-18T21:56:30.271852+05:30
Rajkot,Gujarat,22.3039,70.8022,30.4,41,0.0,991.1,7.1,40.0,67,50.3,21.2,7.4,160.0,59.0,6.7,0,5,7,0,2026-05-18T21:56:30.271860+05:30
Thane,Maharashtra,19.2183,72.9781,29.9,75,0.0,1004.6,7.6,39.6,68,41.7,21.0,9.7,218.0,66.0,5.9,7,5,4,1,2026-05-18T21:56:30.271869+05:30
Nagpur,Maharashtra,21.1458,79.0882,36.1,26,0.0,968.9,8.95,36.7,117,31.0,24.0,26.4,330.0,75.0,16.0,0,5,10,0,2026-05-18T21:56:30.271877+05:30
Nashik,Maharashtra,19.9975,73.7898,30.1,44,0.0,943.5,6.7,46.4,84,27.6,18.0,8.9,244.0,95.0,4.9,0,5,7,1,2026-05-18T21:56:30.271885+05:30
Aurangabad,Maharashtra,19.8762,75.3433,34.8,20,0.0,941.0,9.0,38.9,75,24.8,16.0,7.5,238.0,104.0,6.0,0,5,7,0,2026-05-18T21:56:30.271893+05:30
Solapur,Maharashtra,17.6599,75.9064,34.1,40,0.0,954.3,8.6,32.8,125,34.6,30.6,9.0,252.0,120.0,5.7,0,5,7,1,2026-05-18T21:56:30.271901+05:30
Kolhapur,Maharashtra,16.705,74.2433,26.1,85,0.0,946.4,8.45,41.4,88,29.2,18.3,7.0,181.0,67.0,3.7,7,5,7,1,2026-05-18T21:56:30.271909+05:30
Goa,Goa,15.2993,74.124,27.1,98,0.1,996.7,7.15,34.9,66,50.2,21.4,4.9,201.0,53.0,1.8,10,5,7,1,2026-05-18T21:56:30.271916+05:30
Jodhpur,Rajasthan,26.2389,73.0243,35.8,15,0.0,978.4,8.35,41.0,136,236.1,46.9,9.0,180.0,76.0,3.1,0,5,10,0,2026-05-18T21:56:30.271924+05:30
Udaipur,Rajasthan,24.5854,73.7125,33.2,20,0.0,943.6,8.85,45.4,57,32.9,15.8,3.6,166.0,92.0,3.0,0,5,7,0,2026-05-18T21:56:30.271931+05:30
Kota,Rajasthan,25.2138,75.8648,36.8,21,0.0,973.6,8.4,36.0,83,68.9,31.7,16.3,238.0,56.0,4.8,0,5,10,0,2026-05-18T21:56:30.271938+05:30
Bikaner,Rajasthan,28.0229,73.3119,36.5,13,0.0,976.4,8.4,41.0,84,92.4,31.0,2.5,160.0,91.0,2.3,0,5,10,0,2026-05-18T21:56:30.271945+05:30
Ajmer,Rajasthan,26.4499,74.6399,34.2,22,0.0,951.1,8.4,42.1,81,46.8,19.6,6.2,233.0,83.0,4.6,0,5,7,0,2026-05-18T21:56:30.271952+05:30
Gwalior,Madhya Pradesh,26.2183,78.1828,37.3,20,0.0,977.5,8.25,47.5,82,78.5,30.2,12.5,225.0,59.0,6.5,0,5,10,0,2026-05-18T21:56:30.271960+05:30
Indore,Madhya Pradesh,22.7196,75.8577,36.5,19,0.0,945.0,8.65,52.2,75,69.2,38.4,21.4,400.0,71.0,10.1,0,5,10,0,2026-05-18T21:56:30.271967+05:30
Bhopal,Madhya Pradesh,23.2599,77.4126,36.5,18,0.0,949.6,8.7,38.9,68,55.2,25.1,8.1,427.0,82.0,6.2,0,5,10,0,2026-05-18T21:56:30.271975+05:30
Jabalpur,Madhya Pradesh,23.1815,79.9864,34.4,27,0.0,957.0,8.85,34.9,86,51.9,28.1,18.8,326.0,77.0,7.1,0,5,7,0,2026-05-18T21:56:30.271982+05:30
Ujjain,Madhya Pradesh,23.1765,75.7885,35.5,20,0.0,950.0,8.4,37.8,72,41.6,24.7,7.0,352.0,84.0,5.1,0,5,10,0,2026-05-18T21:56:30.271989+05:30
Visakhapatnam,Andhra Pradesh,17.6868,83.2185,29.9,84,0.0,1001.6,9.05,47.9,64,23.0,17.3,16.8,298.0,64.0,30.7,7,5,4,1,2026-05-18T21:56:30.271994+05:30
Vijayawada,Andhra Pradesh,16.5062,80.648,31.0,67,0.0,1000.4,8.6,33.1,91,23.6,19.0,6.5,258.0,95.0,8.8,3,5,4,1,2026-05-18T21:56:30.272000+05:30
Guntur,Andhra Pradesh,16.3067,80.4365,30.3,79,0.0,1001.6,9.2,36.0,97,25.0,21.1,5.5,253.0,106.0,7.5,3,5,4,1,2026-05-18T21:56:30.272006+05:30
Nellore,Andhra Pradesh,14.4426,79.9865,30.8,77,0.0,1003.2,9.1,40.7,127,23.2,19.2,5.7,252.0,128.0,9.5,3,5,4,1,2026-05-18T21:56:30.272013+05:30
Kurnool,Andhra Pradesh,15.8281,78.0373,33.9,43,0.0,974.4,8.8,33.5,59,30.4,24.7,16.7,317.0,60.0,3.7,0,5,7,1,2026-05-18T21:56:30.272019+05:30
Kakinada,Andhra Pradesh,16.9891,82.2475,30.4,77,0.0,1005.3,9.1,38.2,55,20.1,13.5,2.3,224.0,83.0,2.3,3,5,4,1,2026-05-18T21:56:30.272025+05:30
Tirupati,Andhra Pradesh,13.6288,79.4192,29.4,72,0.0,989.3,8.6,29.2,85,30.7,28.5,20.7,322.0,90.0,10.0,7,5,7,1,2026-05-18T21:56:30.272031+05:30
Warangal,Telangana,17.9689,79.5941,32.2,54,0.0,976.3,9.15,36.4,71,43.1,39.3,19.1,485.0,76.0,7.8,0,5,7,1,2026-05-18T21:56:30.272036+05:30
Nizamabad,Telangana,18.6725,78.0941,33.8,38,0.0,961.5,9.1,28.1,112,38.4,33.8,11.2,316.0,101.0,6.0,0,5,7,1,2026-05-18T21:56:30.272042+05:30
Mysore,Karnataka,12.2958,76.6396,23.4,87,0.0,928.3,4.5,37.8,71,11.5,10.5,11.5,267.0,70.0,3.1,3,5,3,1,2026-05-18T21:56:30.272047+05:30
Mangalore,Karnataka,12.9141,74.856,24.6,98,0.1,1006.6,3.45,27.0,58,18.1,14.9,13.8,350.0,54.0,4.8,6,5,0,1,2026-05-18T21:56:30.272053+05:30
Hubli-Dharwad,Karnataka,15.3647,75.124,24.9,94,0.0,939.4,8.6,50.0,58,20.0,13.7,10.7,177.0,52.0,2.6,3,5,7,1,2026-05-18T21:56:30.272059+05:30
Belgaum,Karnataka,15.8497,74.4977,24.6,91,0.0,924.6,7.95,49.0,57,27.2,15.5,8.8,145.0,49.0,2.5,3,5,7,1,2026-05-18T21:56:33.545877+05:30
Coimbatore,Tamil Nadu,11.0168,76.9558,25.0,85,0.0,961.6,5.9,52.9,39,5.3,4.9,7.3,225.0,62.0,3.0,7,5,3,1,2026-05-18T21:56:33.545909+05:30
Madurai,Tamil Nadu,9.9252,78.1198,28.8,71,0.0,992.6,8.8,37.8,63,18.0,17.2,29.9,618.0,33.0,6.6,7,5,7,1,2026-05-18T21:56:33.545919+05:30
Trichy,Tamil Nadu,10.7905,78.7047,27.8,90,0.0,999.0,9.0,30.2,60,14.5,13.9,17.4,368.0,59.0,4.6,7,5,7,1,2026-05-18T21:56:33.545928+05:30
Salem,Tamil Nadu,11.6643,78.146,28.3,74,0.0,976.9,8.9,35.6,82,11.5,10.9,14.3,451.0,75.0,6.3,7,5,7,1,2026-05-18T21:56:33.545936+05:30
Tirunelveli,Tamil Nadu,8.7139,77.7567,29.0,68,0.0,1003.5,8.4,26.6,34,11.0,8.7,7.9,250.0,50.0,1.5,7,5,4,1,2026-05-18T21:56:33.545944+05:30
Vellore,Tamil Nadu,12.9165,79.1325,28.2,90,0.0,983.1,9.15,33.8,91,21.3,19.6,12.1,279.0,91.0,7.3,7,5,7,1,2026-05-18T21:56:33.545952+05:30
Erode,Tamil Nadu,11.341,77.7172,27.8,73,0.0,988.6,7.4,36.0,48,9.6,9.2,13.9,247.0,63.0,3.7,7,5,7,1,2026-05-18T21:56:33.545959+05:30
Kochi,Kerala,9.9312,76.2673,26.0,95,0.1,1009.4,6.85,37.8,38,9.0,7.7,10.2,227.0,49.0,2.8,10,0,4,1,2026-05-18T21:56:33.545966+05:30
Thiruvananthapuram,Kerala,8.5241,76.9366,25.4,96,0.1,1009.6,7.6,37.1,36,18.0,10.4,1.8,145.0,63.0,0.7,10,0,4,1,2026-05-18T21:56:33.545974+05:30
Kozhikode,Kerala,11.2588,75.7804,25.5,97,0.0,1008.2,4.2,24.5,36,6.8,5.6,5.2,374.0,65.0,2.3,7,0,0,1,2026-05-18T21:56:33.545982+05:30
Thrissur,Kerala,10.5276,76.2144,25.0,99,0.0,1007.8,5.6,30.2,33,9.2,8.3,10.9,367.0,46.0,3.4,7,5,0,1,2026-05-18T21:56:33.545990+05:30
Kannur,Kerala,11.8745,75.3704,26.0,94,0.0,1007.3,3.05,32.4,47,8.9,8.1,11.0,312.0,54.0,3.0,7,5,0,1,2026-05-18T21:56:33.545998+05:30
Patna,Bihar,25.5941,85.1376,30.6,76,0.0,995.3,8.8,30.6,172,72.4,59.4,15.8,571.0,126.0,18.9,3,5,7,1,2026-05-18T21:56:33.546005+05:30
Gaya,Bihar,24.7914,85.0002,31.6,55,0.0,988.4,8.85,38.2,136,112.5,66.1,17.5,549.0,113.0,17.3,0,5,7,1,2026-05-18T21:56:33.546012+05:30
Muzaffarpur,Bihar,26.1209,85.3647,29.8,75,0.0,995.7,8.8,32.4,158,78.0,63.6,17.3,565.0,116.0,18.0,7,5,7,1,2026-05-18T21:56:33.546019+05:30
Bhagalpur,Bihar,25.2425,87.0117,28.9,82,0.0,997.1,8.8,37.4,157,39.8,34.5,10.9,453.0,105.0,9.2,7,5,7,1,2026-05-18T21:56:33.546026+05:30
Ranchi,Jharkhand,23.3441,85.3096,27.6,50,0.0,933.9,9.25,42.1,138,55.9,38.3,14.7,286.0,91.0,7.7,4,5,7,1,2026-05-18T21:56:33.546034+05:30
Jamshedpur,Jharkhand,22.8046,86.2029,30.3,52,0.0,985.9,9.05,37.8,127,76.4,56.2,24.7,564.0,97.0,26.1,0,5,7,1,2026-05-18T21:56:33.546041+05:30
Dhanbad,Jharkhand,23.7957,86.4304,30.2,51,0.0,975.2,9.0,38.9,159,97.8,79.6,68.2,789.0,49.0,142.0,0,5,7,1,2026-05-18T21:56:33.546048+05:30
Bokaro,Jharkhand,23.6693,86.1511,29.9,56,0.0,978.6,9.05,37.8,154,95.7,65.2,46.8,1160.0,62.0,90.3,4,5,7,1,2026-05-18T21:56:33.546055+05:30
Bhubaneswar,Odisha,20.2961,85.8245,29.6,84,0.0,999.4,9.1,41.0,65,20.0,16.5,6.2,234.0,81.0,6.1,7,5,7,1,2026-05-18T21:56:33.546062+05:30
Cuttack,Odisha,20.4625,85.8828,29.9,83,0.0,1001.0,9.15,31.0,65,20.0,16.5,6.2,268.0,81.0,6.1,7,5,4,1,2026-05-18T21:56:33.546069+05:30
Rourkela,Odisha,22.2604,84.8536,30.8,55,0.0,980.6,8.95,39.2,147,71.0,49.0,18.9,520.0,124.0,14.6,0,5,7,1,2026-05-18T21:56:33.546076+05:30
Raipur,Chhattisgarh,21.2514,81.6296,33.8,34,0.0,970.1,8.95,42.8,109,51.9,48.2,41.1,405.0,65.0,48.1,0,5,7,0,2026-05-18T21:56:33.546083+05:30
Bhilai,Chhattisgarh,21.1938,81.3509,33.7,33,0.0,970.5,8.95,43.2,99,46.3,42.8,40.6,758.0,64.0,47.4,0,5,7,0,2026-05-18T21:56:33.546091+05:30
Guwahati,Assam,26.1158,91.7086,23.4,98,0.0,1000.8,8.3,27.7,67,21.5,19.8,11.9,408.0,60.0,4.1,3,5,4,1,2026-05-18T21:56:33.546098+05:30
Agartala,Tripura,23.8315,91.2868,26.9,88,0.0,1003.8,8.9,47.5,76,33.4,26.4,13.5,281.0,52.0,2.5,7,5,4,1,2026-05-18T21:56:33.546105+05:30
Shillong,Meghalaya,25.5788,91.8933,17.3,94,0.0,855.4,7.8,44.3,46,19.4,14.6,11.9,572.0,61.0,3.5,3,10,7,1,2026-05-18T21:56:33.546112+05:30
Imphal,Manipur,24.817,93.9368,21.1,95,0.0,921.9,9.2,36.7,90,48.9,37.7,21.1,947.0,48.0,6.1,3,5,7,1,2026-05-18T21:56:33.546119+05:30
Aizawl,Mizoram,23.7271,92.7176,19.8,93,0.0,890.7,9.1,33.1,74,39.7,26.9,9.5,225.0,65.0,3.8,3,10,7,1,2026-05-18T21:56:33.546127+05:30
Kohima,Nagaland,25.6701,94.1077,17.8,91,0.0,854.1,8.8,33.8,60,22.0,13.5,10.7,369.0,49.0,2.5,3,10,7,1,2026-05-18T21:56:33.546134+05:30
Gangtok,Sikkim,27.3314,88.6138,16.6,97,0.1,836.3,9.05,35.6,83,34.0,29.5,18.5,713.0,89.0,3.0,6,10,7,0,2026-05-18T21:56:33.546141+05:30
Siliguri,West Bengal,26.7271,88.3953,24.2,95,0.0,991.5,8.75,31.3,115,56.9,45.8,14.9,535.0,110.0,7.5,3,5,7,1,2026-05-18T21:56:36.826388+05:30
Durgapur,West Bengal,23.5204,87.3119,29.9,84,0.0,990.3,8.95,37.8,152,95.5,82.4,40.0,543.0,71.0,53.7,7,5,7,1,2026-05-18T21:56:36.826418+05:30
Asansol,West Bengal,23.6739,86.9524,30.0,63,0.0,988.7,8.95,33.5,153,83.4,69.2,49.6,468.0,60.0,70.3,7,5,7,1,2026-05-18T21:56:36.826428+05:30
Pondicherry,Puducherry,11.9139,79.8145,29.6,79,0.0,1006.8,8.85,39.2,109,17.2,13.0,9.5,293.0,79.0,9.5,7,5,4,1,2026-05-18T21:56:36.826437+05:30
Port Blair,Andaman and Nicobar Islands,11.6234,92.7265,26.4,92,0.0,1007.4,8.55,45.7,26,7.9,4.7,0.2,124.0,49.0,0.3,7,5,4,1,2026-05-18T21:56:36.826445+05:30
Haridwar,Uttarakhand,29.9457,78.1642,29.5,53,0.0,966.5,7.55,27.0,146,77.5,34.7,20.1,497.0,98.0,13.4,4,5,7,1,2026-05-18T21:56:36.826454+05:30
Rishikesh,Uttarakhand,30.0869,78.2676,28.3,52,0.0,959.5,7.65,28.8,155,36.8,21.8,11.6,426.0,132.0,10.0,4,5,7,1,2026-05-18T21:56:36.826462+05:30
Nainital,Uttarakhand,29.3919,79.4542,17.7,72,0.0,802.8,8.5,31.3,162,31.8,24.2,10.4,372.0,136.0,8.4,3,5,7,0,2026-05-18T21:56:36.826470+05:30
Mussoorie,Uttarakhand,30.4599,78.0664,17.3,63,0.0,799.3,8.05,45.4,147,31.5,23.2,25.2,366.0,106.0,11.7,3,5,7,0,2026-05-18T21:56:36.826477+05:30
Dharamshala,Himachal Pradesh,32.219,76.3234,24.6,50,0.0,866.7,8.45,40.0,84,16.1,13.5,15.9,294.0,54.0,1.3,0,5,7,0,2026-05-18T21:56:36.826484+05:30
Dalhousie,Himachal Pradesh,32.5387,75.971,17.4,72,0.0,801.9,8.7,41.0,142,23.8,21.1,26.3,551.0,108.0,3.6,3,5,7,0,2026-05-18T21:56:36.826493+05:30
Patiala,Punjab,30.3398,76.3869,33.7,39,0.0,971.6,7.65,35.3,490,252.4,67.3,16.3,526.0,74.0,9.7,0,5,7,1,2026-05-18T21:56:36.826500+05:30
Bhatinda,Punjab,30.211,74.9455,34.4,29,0.0,976.9,8.3,37.8,86,62.4,40.5,22.5,355.0,66.0,7.7,0,5,7,0,2026-05-18T21:56:36.826507+05:30
Rohtak,Haryana,28.8955,76.6066,35.0,24,0.0,975.0,7.75,42.8,878,1151.1,192.3,17.8,300.0,68.0,5.8,0,5,7,0,2026-05-18T21:56:36.826515+05:30
Panipat,Haryana,29.3909,76.9635,33.8,34,0.0,973.3,7.6,36.7,1706,1896.2,300.8,17.1,498.0,70.0,7.7,0,5,7,0,2026-05-18T21:56:36.826522+05:30
Mathura,Uttar Pradesh,27.4924,77.6737,35.5,24,0.0,980.1,8.0,42.8,691,802.8,123.9,17.7,317.0,61.0,5.4,0,5,10,0,2026-05-18T21:56:36.826529+05:30
Vrindavan,Uttar Pradesh,27.5823,77.7027,34.5,28,0.0,980.5,8.0,40.0,691,802.8,123.9,17.7,330.0,61.0,5.4,0,5,7,0,2026-05-18T21:56:36.826536+05:30
Ayodhya,Uttar Pradesh,26.7922,82.1998,31.0,58,0.0,989.1,8.35,23.0,159,177.9,82.7,31.5,587.0,76.0,15.3,0,5,7,1,2026-05-18T21:56:36.826543+05:30
Ratlam,Madhya Pradesh,23.3315,75.0367,34.4,22,0.0,951.0,8.55,47.2,71,35.6,18.5,2.7,187.0,98.0,4.5,0,5,7,0,2026-05-18T21:56:36.826550+05:30
Sagar,Madhya Pradesh,23.8388,78.7378,34.0,25,0.0,946.3,8.75,43.6,70,56.2,22.2,8.8,183.0,70.0,2.9,0,5,7,0,2026-05-18T21:56:36.826557+05:30
Satna,Madhya Pradesh,24.6005,80.8322,34.9,25,0.0,966.5,8.75,55.1,78,84.3,30.9,10.8,229.0,78.0,4.4,0,5,7,0,2026-05-18T21:56:36.826564+05:30
Akola,Maharashtra,20.7002,77.0082,38.6,18,0.0,970.3,8.85,31.7,81,38.1,25.6,23.5,299.0,68.0,6.6,0,5,10,0,2026-05-18T21:56:36.826572+05:30
Amravati,Maharashtra,20.9374,77.7796,37.3,21,0.0,963.0,8.9,33.5,85,38.3,27.4,31.3,354.0,59.0,8.4,0,5,10,0,2026-05-18T21:56:36.826579+05:30
Latur,Maharashtra,18.4088,76.5604,33.7,36,0.0,937.5,9.05,31.7,118,34.8,30.3,13.2,255.0,103.0,7.0,0,5,7,1,2026-05-18T21:56:36.826587+05:30
Nanded,Maharashtra,19.1383,77.3091,36.0,27,0.0,964.8,9.0,30.6,103,35.4,30.5,21.0,395.0,88.0,7.5,0,5,10,0,2026-05-18T21:56:36.826594+05:30
Gulbarga,Karnataka,17.3297,76.8343,31.0,56,0.0,955.8,9.05,27.4,115,33.9,30.0,20.5,302.0,90.0,7.2,0,5,7,1,2026-05-18T21:56:36.826601+05:30
Bidar,Karnataka,17.9104,77.5199,31.8,42,0.0,933.4,9.1,32.8,105,39.3,34.7,20.0,312.0,81.0,5.6,0,5,7,1,2026-05-18T21:56:36.826608+05:30
Hospet,Karnataka,15.2689,76.3909,28.1,75,0.0,954.5,8.45,39.2,123,16.5,14.6,10.2,258.0,89.0,3.6,7,5,7,1,2026-05-18T21:56:36.826614+05:30
Tirupur,Tamil Nadu,11.1085,77.3411,26.1,81,0.0,974.9,8.25,51.1,48,9.5,8.9,12.5,194.0,61.0,4.7,7,5,7,1,2026-05-18T21:56:36.826621+05:30
Alappuzha,Kerala,9.4981,76.3388,25.8,98,0.0,1009.8,7.3,39.2,34,10.2,7.8,6.4,130.0,59.0,1.6,7,0,4,1,2026-05-18T21:56:36.826628+05:30
Munnar,Kerala,10.0889,77.0595,17.8,100,0.1,857.2,5.25,26.6,32,5.9,5.7,8.9,140.0,44.0,1.8,6,10,3,1,2026-05-18T21:56:36.826635+05:30
Silchar,Assam,24.8333,92.7789,23.7,96,0.3,1003.5,6.05,22.0,85,53.7,38.8,16.6,323.0,64.0,8.9,6,5,4,1,2026-05-18T21:56:36.826641+05:30
Dibrugarh,Assam,27.4728,94.912,21.7,95,0.0,995.1,7.85,26.6,85,60.5,51.9,31.3,334.0,32.0,4.7,3,5,7,1,2026-05-18T21:56:36.826646+05:30
