city,state,latitude,longitude,temp,humidity,rain,pressure,uv_index,wind_gusts,aqi,pm10,pm2_5,no2,co,o3,so2,mosquito_risk,arthritis_risk,migraine_risk,frizz_risk,updated_at
Delhi,Delhi,28.6139,77.209,23.8,76,0.0,982.7,7.6,30.2,226,227.2,65.0,22.4,506.0,78.0,20.5,3,5,7,1,2026-05-31T05:40:59.711054+05:30
Mumbai,Maharashtra,19.076,72.8777,29.6,71,0.0,1008.2,7.8,41.4,59,30.2,17.3,3.8,158.0,52.0,2.6,7,0,4,1,2026-05-31T05:40:59.711104+05:30
Bangalore,Karnataka,12.9716,77.5946,22.0,94,0.0,911.1,9.25,39.2,78,28.0,23.1,17.3,305.0,54.0,5.9,3,5,7,1,2026-05-31T05:40:59.711121+05:30
Hyderabad,Telangana,17.385,78.4867,27.7,60,0.0,952.3,9.05,48.2,64,16.3,14.2,9.6,255.0,57.0,4.2,4,5,7,1,2026-05-31T05:40:59.711132+05:30
Chennai,Tamil Nadu,13.0827,80.2707,28.8,76,0.0,1005.4,7.9,34.2,81,31.9,27.2,16.5,409.0,54.0,12.1,7,5,4,1,2026-05-31T05:40:59.711142+05:30
Kolkata,West Bengal,22.5726,88.3639,26.5,88,0.0,1005.3,8.85,15.8,151,139.7,124.8,45.4,676.0,8.0,15.7,7,5,4,1,2026-05-31T05:40:59.711152+05:30
Pune,Maharashtra,18.5204,73.8567,25.0,86,0.0,948.3,7.95,45.4,47,12.9,9.1,6.5,135.0,39.0,5.2,7,5,7,1,2026-05-31T05:40:59.711160+05:30
Ahmedabad,Gujarat,23.0225,72.5714,27.2,73,0.0,1000.7,8.1,58.0,74,44.4,24.1,5.6,194.0,41.0,5.4,7,5,4,1,2026-05-31T05:40:59.711169+05:30
Jaipur,Rajasthan,26.9124,75.7873,24.7,66,0.0,958.9,8.15,36.4,86,104.3,33.1,15.6,386.0,42.0,7.3,3,5,7,1,2026-05-31T05:40:59.711184+05:30
Lucknow,Uttar Pradesh,26.8467,80.9462,25.0,80,0.0,993.1,8.15,29.5,70,27.4,24.3,15.4,307.0,70.0,7.8,7,5,7,1,2026-05-31T05:40:59.711192+05:30
Kanpur,Uttar Pradesh,26.4499,80.3319,25.5,79,0.0,991.2,8.1,24.1,122,151.3,36.7,14.1,310.0,67.0,6.4,7,5,7,1,2026-05-31T05:40:59.711200+05:30
Chandigarh,Chandigarh,30.7333,76.7794,23.3,63,0.0,969.2,6.3,38.9,83,35.9,22.1,12.3,674.0,91.0,4.7,3,5,7,0,2026-05-31T05:40:59.711208+05:30
Srinagar,Jammu and Kashmir,34.0837,74.7973,12.1,79,0.0,839.1,8.95,24.1,104,74.0,50.3,24.8,228.0,9.0,1.2,3,5,7,0,2026-05-31T05:40:59.711217+05:30
Jammu,Jammu and Kashmir,32.7266,74.857,23.8,66,0.0,973.0,8.5,24.1,117,70.3,52.6,44.3,418.0,3.0,3.0,3,5,7,1,2026-05-31T05:40:59.711225+05:30
Amritsar,Punjab,31.634,74.8723,22.5,80,0.0,980.9,8.3,31.0,106,34.1,25.4,18.0,579.0,68.0,6.5,3,5,7,1,2026-05-31T05:40:59.711232+05:30
Ludhiana,Punjab,30.901,75.8573,22.6,87,0.0,979.0,7.25,36.7,105,32.5,18.8,10.7,514.0,103.0,9.1,3,5,7,1,2026-05-31T05:40:59.711239+05:30
Jalandhar,Punjab,31.326,75.5762,22.5,92,0.0,980.0,7.2,36.0,80,29.2,18.0,11.6,571.0,106.0,12.5,3,5,7,1,2026-05-31T05:40:59.711248+05:30
Dehradun,Uttarakhand,30.6284,78.0322,14.2,76,0.0,829.5,5.25,27.4,62,26.5,21.0,24.4,259.0,23.0,0.4,3,5,3,0,2026-05-31T05:40:59.711255+05:30
Shimla,Himachal Pradesh,31.1048,77.1734,12.5,66,0.0,783.8,6.25,34.6,70,15.9,11.2,12.4,305.0,82.0,0.2,3,5,7,0,2026-05-31T05:40:59.711265+05:30
Manali,Himachal Pradesh,32.2396,77.1887,12.8,81,0.1,817.2,7.1,30.2,31,3.5,2.2,30.3,258.0,71.0,0.1,6,10,7,0,2026-05-31T05:40:59.711274+05:30
Gurgaon,Haryana,28.4595,77.0266,23.5,78,0.0,980.9,7.7,31.3,1109,402.3,91.0,18.1,554.0,79.0,14.1,3,5,7,1,2026-05-31T05:40:59.711281+05:30
Noida,Uttar Pradesh,28.5355,77.391,23.4,79,0.0,984.2,7.65,25.6,1109,402.3,91.0,18.1,467.0,79.0,14.1,3,5,7,1,2026-05-31T05:40:59.711289+05:30
Ghaziabad,Uttar Pradesh,28.6692,77.4538,23.5,78,0.0,982.4,7.6,30.6,119,86.8,38.4,16.2,419.0,75.0,8.8,3,5,7,1,2026-05-31T05:40:59.711298+05:30
Faridabad,Haryana,28.4089,77.3178,23.7,77,0.0,983.5,7.65,26.6,1109,402.3,91.0,18.1,458.0,79.0,14.1,3,5,7,1,2026-05-31T05:40:59.711305+05:30
Meerut,Uttar Pradesh,28.9845,77.7064,22.8,83,0.0,981.3,7.5,42.1,119,86.8,38.4,16.2,426.0,75.0,8.8,3,5,7,1,2026-05-31T05:40:59.711312+05:30
Agra,Uttar Pradesh,27.1767,78.0081,25.6,72,0.0,987.1,7.9,27.4,636,534.6,83.4,11.6,445.0,73.0,6.1,7,5,7,1,2026-05-31T05:40:59.711319+05:30
Varanasi,Uttar Pradesh,25.3176,82.9739,25.9,82,0.0,996.2,8.7,25.6,94,62.6,58.7,28.6,600.0,52.0,14.6,7,5,7,1,2026-05-31T05:40:59.711326+05:30
Prayagraj,Uttar Pradesh,25.4358,81.8463,25.9,79,0.0,994.7,8.55,27.7,81,39.2,37.3,19.7,448.0,70.0,12.1,7,5,7,1,2026-05-31T05:40:59.711334+05:30
Gorakhpur,Uttar Pradesh,26.7606,83.3732,22.9,93,0.1,997.4,8.55,36.7,78,31.4,27.6,14.3,270.0,85.0,6.8,6,5,7,1,2026-05-31T05:40:59.711343+05:30
Bareilly,Uttar Pradesh,28.367,79.4304,23.3,88,0.0,987.3,7.95,48.2,93,36.0,32.8,19.6,368.0,57.0,4.8,3,5,7,1,2026-05-31T05:40:59.711350+05:30
Aligarh,Uttar Pradesh,27.8974,78.088,24.6,77,0.0,985.2,7.75,34.6,184,146.7,42.8,15.4,390.0,68.0,10.6,3,5,7,1,2026-05-31T05:40:59.711357+05:30
Moradabad,Uttar Pradesh,28.8386,78.7733,24.1,81,0.0,984.2,7.75,44.3,92,47.0,43.1,24.3,427.0,58.0,7.5,3,5,7,1,2026-05-31T05:40:59.711364+05:30
Saharanpur,Uttar Pradesh,29.9637,77.546,23.1,85,0.0,976.2,4.95,40.0,77,63.3,52.2,37.4,533.0,39.0,10.3,3,5,3,1,2026-05-31T05:40:59.711371+05:30
Jhansi,Uttar Pradesh,25.4484,78.5685,27.0,65,0.0,976.7,8.35,31.0,62,56.3,27.8,10.4,245.0,66.0,5.4,7,5,7,1,2026-05-31T05:41:03.248927+05:30
Surat,Gujarat,21.1702,72.8311,26.8,96,0.1,1005.4,7.65,49.3,78,38.6,26.6,21.8,258.0,32.0,36.9,10,5,4,1,2026-05-31T05:41:03.248959+05:30
Vadodara,Gujarat,22.3072,73.1812,25.0,92,0.0,1002.9,8.0,41.8,76,34.1,21.4,8.7,138.0,35.0,4.9,7,5,4,1,2026-05-31T05:41:03.248970+05:30
Rajkot,Gujarat,22.3039,70.8022,28.4,78,0.0,992.6,7.7,44.6,66,29.6,15.8,2.5,103.0,49.0,2.9,7,5,7,1,2026-05-31T05:41:03.248980+05:30
Thane,Maharashtra,19.2183,72.9781,29.5,75,0.0,1007.6,7.8,41.4,59,30.2,17.3,3.8,152.0,52.0,2.6,7,5,4,1,2026-05-31T05:41:03.248989+05:30
Nagpur,Maharashtra,21.1458,79.0882,28.1,62,0.0,971.9,8.85,61.2,87,59.3,39.6,29.8,244.0,16.0,7.9,7,5,7,1,2026-05-31T05:41:03.248998+05:30
Nashik,Maharashtra,19.9975,73.7898,24.0,91,0.1,944.2,8.1,49.3,56,23.2,13.9,5.1,120.0,42.0,1.2,6,5,7,1,2026-05-31T05:41:03.249007+05:30
Aurangabad,Maharashtra,19.8762,75.3433,25.8,75,0.0,944.1,8.9,46.1,64,19.0,12.1,6.1,125.0,43.0,4.3,7,5,7,1,2026-05-31T05:41:03.249015+05:30
Solapur,Maharashtra,17.6599,75.9064,27.1,69,0.0,957.6,8.95,60.5,58,19.5,13.4,6.6,130.0,43.0,3.0,7,5,7,1,2026-05-31T05:41:03.249024+05:30
Kolhapur,Maharashtra,16.705,74.2433,25.1,87,0.0,948.3,8.75,50.0,39,5.7,4.6,3.8,147.0,46.0,1.8,7,5,7,1,2026-05-31T05:41:03.249033+05:30
Goa,Goa,15.2993,74.124,26.5,99,0.1,998.3,7.25,32.4,50,19.8,14.6,4.8,225.0,43.0,1.4,10,5,7,1,2026-05-31T05:41:03.249041+05:30
Jodhpur,Rajasthan,26.2389,73.0243,28.0,59,0.0,981.1,8.4,36.7,96,85.9,22.4,5.8,146.0,58.0,3.2,4,5,7,1,2026-05-31T05:41:03.249049+05:30
Udaipur,Rajasthan,24.5854,73.7125,24.5,65,0.0,944.1,8.8,34.6,70,39.5,19.2,5.0,135.0,63.0,4.6,3,5,7,1,2026-05-31T05:41:03.249057+05:30
Kota,Rajasthan,25.2138,75.8648,27.6,57,0.0,977.0,8.35,33.1,67,24.5,14.5,8.5,227.0,52.0,3.4,4,5,7,1,2026-05-31T05:41:03.249066+05:30
Bikaner,Rajasthan,28.0229,73.3119,26.3,62,0.0,980.0,8.35,29.2,69,25.1,8.3,6.0,195.0,50.0,1.8,7,5,7,1,2026-05-31T05:41:03.249073+05:30
Ajmer,Rajasthan,26.4499,74.6399,24.5,65,0.0,953.1,8.3,34.6,56,14.9,8.4,6.1,164.0,62.0,2.6,3,5,7,1,2026-05-31T05:41:03.249082+05:30
Gwalior,Madhya Pradesh,26.2183,78.1828,25.4,70,0.0,982.0,8.15,32.8,76,117.1,48.1,6.9,252.0,77.0,4.7,7,5,7,1,2026-05-31T05:41:03.249089+05:30
Indore,Madhya Pradesh,22.7196,75.8577,26.2,69,0.0,946.8,8.55,44.6,72,29.6,20.3,6.7,212.0,60.0,7.5,7,5,7,1,2026-05-31T05:41:03.249097+05:30
Bhopal,Madhya Pradesh,23.2599,77.4126,27.6,54,0.0,951.6,8.6,36.7,66,19.0,13.8,6.6,278.0,70.0,7.0,4,5,7,1,2026-05-31T05:41:03.249105+05:30
Jabalpur,Madhya Pradesh,23.1815,79.9864,26.5,64,0.0,959.9,8.75,42.5,64,28.5,20.0,16.3,300.0,57.0,6.6,7,5,7,1,2026-05-31T05:41:03.249113+05:30
Ujjain,Madhya Pradesh,23.1765,75.7885,26.5,67,0.0,952.2,8.4,54.7,71,27.8,18.9,5.6,228.0,55.0,5.3,7,5,7,1,2026-05-31T05:41:03.249122+05:30
Visakhapatnam,Andhra Pradesh,17.6868,83.2185,27.9,83,0.0,1001.0,9.0,34.9,102,42.1,37.4,22.9,439.0,61.0,23.9,7,5,4,1,2026-05-31T05:41:03.249130+05:30
Vijayawada,Andhra Pradesh,16.5062,80.648,29.1,68,0.0,1000.0,9.05,42.1,78,22.0,20.3,12.7,251.0,53.0,6.6,7,5,4,1,2026-05-31T05:41:03.249142+05:30
Guntur,Andhra Pradesh,16.3067,80.4365,28.0,69,0.0,1001.3,8.95,42.8,75,20.4,18.3,12.0,245.0,55.0,5.6,7,5,4,1,2026-05-31T05:41:03.249151+05:30
Nellore,Andhra Pradesh,14.4426,79.9865,27.2,79,0.0,1003.8,8.25,34.6,68,21.0,18.2,12.8,177.0,48.0,4.5,7,5,4,1,2026-05-31T05:41:03.249160+05:30
Kurnool,Andhra Pradesh,15.8281,78.0373,27.5,75,0.0,976.6,8.95,61.2,55,14.4,12.5,9.4,177.0,48.0,3.6,7,5,7,1,2026-05-31T05:41:03.249168+05:30
Kakinada,Andhra Pradesh,16.9891,82.2475,28.4,80,0.0,1004.6,8.85,39.2,78,29.2,25.1,8.7,374.0,84.0,6.2,7,5,4,1,2026-05-31T05:41:03.249176+05:30
Tirupati,Andhra Pradesh,13.6288,79.4192,25.7,74,0.0,989.5,8.95,28.4,67,26.6,24.2,27.1,190.0,15.0,2.6,7,5,7,1,2026-05-31T05:41:03.249184+05:30
Warangal,Telangana,17.9689,79.5941,29.5,51,0.0,976.1,9.0,57.2,91,20.6,18.1,15.8,289.0,59.0,12.0,4,5,7,1,2026-05-31T05:41:03.249192+05:30
Nizamabad,Telangana,18.6725,78.0941,29.8,47,0.0,963.9,9.0,60.1,85,37.4,27.2,16.9,231.0,47.0,6.2,4,5,7,1,2026-05-31T05:41:03.249200+05:30
Mysore,Karnataka,12.2958,76.6396,21.6,96,0.0,927.9,9.15,50.4,51,10.9,9.6,7.8,146.0,50.0,2.0,3,5,7,1,2026-05-31T05:41:03.249208+05:30
Mangalore,Karnataka,12.9141,74.856,25.7,93,0.0,1007.1,8.6,31.0,38,16.1,13.1,9.9,227.0,39.0,2.7,7,5,4,1,2026-05-31T05:41:03.249216+05:30
Hubli-Dharwad,Karnataka,15.3647,75.124,23.6,95,0.0,941.0,8.9,48.6,37,8.0,5.7,2.9,150.0,50.0,1.0,3,5,7,1,2026-05-31T05:41:03.249224+05:30
Belgaum,Karnataka,15.8497,74.4977,23.2,95,0.0,925.9,7.3,45.7,23,4.0,3.4,4.0,128.0,44.0,1.5,3,5,7,1,2026-05-31T05:41:06.593051+05:30
Coimbatore,Tamil Nadu,11.0168,76.9558,24.5,89,0.0,961.0,8.1,48.6,27,8.8,6.4,4.4,148.0,60.0,2.6,3,5,7,1,2026-05-31T05:41:06.593084+05:30
Madurai,Tamil Nadu,9.9252,78.1198,27.6,70,0.0,992.0,8.75,34.9,71,38.0,31.1,40.2,175.0,2.0,5.5,7,5,7,1,2026-05-31T05:41:06.593095+05:30
Trichy,Tamil Nadu,10.7905,78.7047,27.4,75,0.0,998.5,8.85,42.1,50,14.1,12.7,17.0,172.0,30.0,4.3,7,5,7,1,2026-05-31T05:41:06.593104+05:30
Salem,Tamil Nadu,11.6643,78.146,26.7,76,0.0,976.7,8.75,32.0,68,22.5,19.2,21.2,230.0,28.0,7.3,7,5,7,1,2026-05-31T05:41:06.593114+05:30
Tirunelveli,Tamil Nadu,8.7139,77.7567,27.6,74,0.0,1002.6,8.75,19.4,19,5.7,4.7,5.4,167.0,39.0,1.8,7,5,4,1,2026-05-31T05:41:06.593123+05:30
Vellore,Tamil Nadu,12.9165,79.1325,25.0,85,0.0,983.1,8.7,37.1,86,51.2,45.6,32.7,277.0,12.0,5.8,7,5,7,1,2026-05-31T05:41:06.593132+05:30
Erode,Tamil Nadu,11.341,77.7172,26.5,80,0.0,988.3,8.45,55.1,47,14.4,12.3,14.7,213.0,35.0,3.6,7,5,7,1,2026-05-31T05:41:06.593140+05:30
Kochi,Kerala,9.9312,76.2673,25.8,95,0.0,1009.0,8.35,29.2,58,23.3,21.6,23.0,226.0,13.0,5.4,7,0,4,1,2026-05-31T05:41:06.593149+05:30
Thiruvananthapuram,Kerala,8.5241,76.9366,24.9,97,0.0,1008.8,8.0,31.0,27,6.3,3.6,1.7,107.0,57.0,0.6,3,0,4,1,2026-05-31T05:41:06.593156+05:30
Kozhikode,Kerala,11.2588,75.7804,24.8,100,0.0,1008.2,7.45,27.4,29,8.6,5.7,2.0,315.0,59.0,1.0,3,0,4,1,2026-05-31T05:41:06.593165+05:30
Thrissur,Kerala,10.5276,76.2144,24.8,95,0.0,1007.4,7.85,28.8,53,19.2,17.2,17.9,232.0,21.0,6.1,3,5,4,1,2026-05-31T05:41:06.593174+05:30
Kannur,Kerala,11.8745,75.3704,25.5,94,0.0,1007.4,8.65,28.8,35,13.5,10.9,8.6,216.0,36.0,2.3,7,5,4,1,2026-05-31T05:41:06.593181+05:30
Patna,Bihar,25.5941,85.1376,24.0,88,0.0,1000.2,8.6,38.9,151,70.5,64.3,30.2,348.0,37.0,14.4,3,5,4,1,2026-05-31T05:41:06.593189+05:30
Gaya,Bihar,24.7914,85.0002,26.5,80,0.0,992.7,8.85,26.3,153,66.1,54.7,20.8,450.0,70.0,14.8,7,5,7,1,2026-05-31T05:41:06.593196+05:30
Muzaffarpur,Bihar,26.1209,85.3647,24.5,87,0.0,1000.5,8.8,30.6,135,56.2,51.9,21.3,341.0,61.0,13.3,3,5,4,1,2026-05-31T05:41:06.593204+05:30
Bhagalpur,Bihar,25.2425,87.0117,26.3,87,0.0,1000.9,8.75,20.2,154,130.9,101.0,46.3,473.0,24.0,16.4,7,5,4,1,2026-05-31T05:41:06.593212+05:30
Ranchi,Jharkhand,23.3441,85.3096,22.6,97,0.0,936.4,9.25,42.1,144,83.6,68.2,25.3,318.0,68.0,8.2,3,5,7,1,2026-05-31T05:41:06.593220+05:30
Jamshedpur,Jharkhand,22.8046,86.2029,25.4,92,0.0,989.8,9.05,29.2,127,77.1,61.2,39.6,503.0,21.0,16.5,7,5,7,1,2026-05-31T05:41:06.593227+05:30
Dhanbad,Jharkhand,23.7957,86.4304,25.3,91,0.0,979.0,8.85,20.9,165,135.5,122.0,57.7,553.0,15.0,265.0,7,5,7,1,2026-05-31T05:41:06.593236+05:30
Bokaro,Jharkhand,23.6693,86.1511,25.5,93,0.0,982.8,9.05,31.3,171,176.0,159.7,63.0,1865.0,16.0,283.2,7,5,7,1,2026-05-31T05:41:06.593243+05:30
Bhubaneswar,Odisha,20.2961,85.8245,26.5,96,0.0,1000.4,9.1,27.0,110,61.9,54.2,28.4,381.0,19.0,9.5,7,5,4,1,2026-05-31T05:41:06.593251+05:30
Cuttack,Odisha,20.4625,85.8828,26.5,96,0.0,1002.2,9.15,25.2,110,61.9,54.2,28.4,357.0,19.0,9.5,7,5,4,1,2026-05-31T05:41:06.593259+05:30
Rourkela,Odisha,22.2604,84.8536,24.1,95,0.0,983.8,8.7,45.4,144,84.3,66.8,25.2,414.0,52.0,14.8,3,5,7,1,2026-05-31T05:41:06.593267+05:30
Raipur,Chhattisgarh,21.2514,81.6296,26.1,80,0.0,973.0,9.0,52.6,124,56.0,49.8,29.8,407.0,70.0,42.2,7,5,7,1,2026-05-31T05:41:06.593275+05:30
Bhilai,Chhattisgarh,21.1938,81.3509,25.9,81,0.0,973.4,9.0,47.9,129,70.3,62.2,48.4,429.0,59.0,82.4,7,5,7,1,2026-05-31T05:41:06.593282+05:30
Guwahati,Assam,26.1158,91.7086,25.6,84,0.0,1001.7,8.75,23.8,70,21.7,15.0,10.2,375.0,35.0,1.7,7,5,4,1,2026-05-31T05:41:06.593290+05:30
Agartala,Tripura,23.8315,91.2868,26.0,89,0.0,1005.4,8.85,22.7,159,99.9,86.8,47.5,689.0,27.0,9.3,7,5,4,1,2026-05-31T05:41:06.593298+05:30
Shillong,Meghalaya,25.5788,91.8933,19.6,90,0.0,858.2,7.95,27.4,69,20.7,12.1,6.4,292.0,46.0,1.5,3,10,7,1,2026-05-31T05:41:06.593306+05:30
Imphal,Manipur,24.817,93.9368,21.5,97,0.2,923.6,8.55,20.5,88,28.5,18.6,7.4,265.0,45.0,1.9,6,5,7,1,2026-05-31T05:41:06.593314+05:30
Aizawl,Mizoram,23.7271,92.7176,19.8,99,0.1,891.4,7.8,20.5,51,9.3,6.6,7.0,224.0,34.0,0.9,6,10,7,1,2026-05-31T05:41:06.593323+05:30
Kohima,Nagaland,25.6701,94.1077,19.2,92,0.0,855.7,3.7,22.0,63,16.6,10.4,7.2,297.0,46.0,1.0,3,10,3,1,2026-05-31T05:41:06.593331+05:30
Gangtok,Sikkim,27.3314,88.6138,15.0,76,0.0,838.0,9.15,42.5,65,24.2,17.0,11.3,449.0,19.0,0.4,3,5,7,0,2026-05-31T05:41:06.593339+05:30
Siliguri,West Bengal,26.7271,88.3953,24.5,83,0.0,993.2,8.7,20.2,127,95.2,76.8,31.2,814.0,16.0,3.1,3,5,7,1,2026-05-31T05:41:09.982012+05:30
Durgapur,West Bengal,23.5204,87.3119,25.5,95,0.0,994.4,8.95,27.4,162,106.6,95.5,50.0,700.0,15.0,45.4,7,5,7,1,2026-05-31T05:41:09.982044+05:30
Asansol,West Bengal,23.6739,86.9524,25.5,93,0.0,992.9,8.9,36.0,159,84.3,72.9,45.6,554.0,21.0,38.3,7,5,7,1,2026-05-31T05:41:09.982055+05:30
Pondicherry,Puducherry,11.9139,79.8145,27.8,87,0.0,1006.7,8.75,37.4,81,11.0,9.2,13.7,321.0,29.0,7.6,7,5,4,1,2026-05-31T05:41:09.982065+05:30
Port Blair,Andaman and Nicobar Islands,11.6234,92.7265,24.9,98,0.1,1007.1,8.1,39.2,31,12.4,7.3,0.3,124.0,77.0,0.4,6,5,4,1,2026-05-31T05:41:09.982074+05:30
Haridwar,Uttarakhand,29.9457,78.1642,23.0,78,0.0,974.6,4.4,28.4,69,47.6,36.6,23.4,328.0,68.0,7.2,3,5,3,1,2026-05-31T05:41:09.982082+05:30
Rishikesh,Uttarakhand,30.0869,78.2676,21.6,78,0.0,967.3,5.7,33.1,61,30.4,18.1,10.8,394.0,101.0,2.7,3,5,3,1,2026-05-31T05:41:09.982090+05:30
Nainital,Uttarakhand,29.3919,79.4542,9.6,97,0.0,802.5,6.75,25.6,61,19.3,14.8,13.4,271.0,83.0,1.5,3,10,7,0,2026-05-31T05:41:09.982098+05:30
Mussoorie,Uttarakhand,30.4599,78.0664,13.3,69,0.0,802.0,5.25,30.2,63,31.9,25.4,40.6,265.0,25.0,3.7,3,5,3,0,2026-05-31T05:41:09.982106+05:30
Dharamshala,Himachal Pradesh,32.219,76.3234,17.8,86,0.0,868.5,6.85,31.3,38,9.7,6.9,19.0,222.0,23.0,0.3,3,10,7,0,2026-05-31T05:41:09.982114+05:30
Dalhousie,Himachal Pradesh,32.5387,75.971,13.0,89,0.0,803.3,7.85,34.2,65,42.4,26.4,31.6,266.0,51.0,2.5,3,10,7,0,2026-05-31T05:41:09.982122+05:30
Patiala,Punjab,30.3398,76.3869,22.8,84,0.0,978.3,7.5,36.0,465,43.5,19.5,8.3,459.0,96.0,3.9,3,5,7,1,2026-05-31T05:41:09.982129+05:30
Bhatinda,Punjab,30.211,74.9455,23.5,80,0.0,983.5,8.2,29.2,579,308.3,68.2,13.3,341.0,74.0,8.8,3,5,7,1,2026-05-31T05:41:09.982137+05:30
Rohtak,Haryana,28.8955,76.6066,23.3,87,0.0,981.2,7.6,38.9,634,525.3,122.0,26.1,500.0,58.0,16.2,3,5,7,1,2026-05-31T05:41:09.982144+05:30
Panipat,Haryana,29.3909,76.9635,22.6,85,0.0,980.3,7.45,35.6,1074,994.7,167.2,25.4,518.0,50.0,11.5,3,5,7,1,2026-05-31T05:41:09.982152+05:30
Mathura,Uttar Pradesh,27.4924,77.6737,24.6,78,0.0,986.2,7.85,25.2,632,299.9,68.0,13.1,475.0,73.0,6.2,3,5,7,1,2026-05-31T05:41:09.982160+05:30
Vrindavan,Uttar Pradesh,27.5823,77.7027,24.7,77,0.0,986.6,7.85,24.1,632,299.9,68.0,13.1,469.0,73.0,6.2,3,5,7,1,2026-05-31T05:41:09.982167+05:30
Ayodhya,Uttar Pradesh,26.7922,82.1998,24.3,84,0.0,995.0,8.25,26.3,73,29.8,28.1,16.5,270.0,79.0,8.0,3,5,7,1,2026-05-31T05:41:09.982175+05:30
Ratlam,Madhya Pradesh,23.3315,75.0367,24.9,87,0.0,953.4,8.4,41.8,72,22.5,15.5,5.8,150.0,45.0,5.3,3,5,7,1,2026-05-31T05:41:09.982182+05:30
Sagar,Madhya Pradesh,23.8388,78.7378,26.5,57,0.0,948.3,8.65,38.2,53,16.4,10.6,8.0,272.0,88.0,4.8,4,5,7,1,2026-05-31T05:41:09.982189+05:30
Satna,Madhya Pradesh,24.6005,80.8322,25.6,71,0.0,969.7,8.7,30.6,62,24.9,20.4,10.7,386.0,100.0,7.9,7,5,7,1,2026-05-31T05:41:09.982197+05:30
Akola,Maharashtra,20.7002,77.0082,26.3,72,0.0,974.7,8.75,63.7,76,38.5,22.1,5.0,134.0,59.0,7.0,7,5,7,1,2026-05-31T05:41:09.982205+05:30
Amravati,Maharashtra,20.9374,77.7796,28.5,51,0.0,966.4,8.75,54.0,76,38.2,22.2,4.8,170.0,70.0,8.1,4,5,7,1,2026-05-31T05:41:09.982213+05:30
Latur,Maharashtra,18.4088,76.5604,26.8,65,0.0,939.8,8.95,45.0,58,24.3,16.2,5.9,151.0,58.0,6.9,7,5,7,1,2026-05-31T05:41:09.982221+05:30
Nanded,Maharashtra,19.1383,77.3091,30.8,53,0.0,967.9,8.9,63.7,76,31.7,21.2,5.5,143.0,67.0,6.8,0,5,7,1,2026-05-31T05:41:09.982229+05:30
Gulbarga,Karnataka,17.3297,76.8343,27.9,65,0.0,958.5,8.95,52.6,53,19.6,14.1,7.0,156.0,46.0,3.1,7,5,7,1,2026-05-31T05:41:09.982236+05:30
Bidar,Karnataka,17.9104,77.5199,27.5,54,0.0,935.0,9.0,49.7,65,27.8,20.3,9.8,232.0,63.0,5.4,4,5,7,1,2026-05-31T05:41:09.982244+05:30
Hospet,Karnataka,15.2689,76.3909,25.1,89,0.0,956.3,8.95,56.9,47,9.8,7.6,4.3,157.0,47.0,1.3,7,5,7,1,2026-05-31T05:41:09.982251+05:30
Tirupur,Tamil Nadu,11.1085,77.3411,25.0,88,0.0,974.4,8.25,44.6,48,16.5,14.0,16.3,143.0,34.0,4.1,7,5,7,1,2026-05-31T05:41:09.982258+05:30
Alappuzha,Kerala,9.4981,76.3388,25.4,99,0.0,1009.3,8.15,25.6,38,12.6,9.7,8.5,114.0,46.0,2.2,7,0,4,1,2026-05-31T05:41:09.982266+05:30
Munnar,Kerala,10.0889,77.0595,17.5,92,0.0,856.5,8.3,27.7,25,9.5,8.5,6.6,138.0,29.0,1.2,3,10,7,1,2026-05-31T05:41:09.982274+05:30
Silchar,Assam,24.8333,92.7789,26.6,93,0.0,1003.9,8.9,22.0,132,72.4,48.5,13.9,285.0,59.0,6.5,7,5,4,1,2026-05-31T05:41:09.982282+05:30
Dibrugarh,Assam,27.4728,94.912,26.8,82,0.0,995.3,6.1,23.4,121,59.1,49.4,20.5,312.0,37.0,3.2,7,5,7,1,2026-05-31T05:41:09.982290+05:30
