city,state,latitude,longitude,temp,humidity,rain,pressure,uv_index,wind_gusts,aqi,pm10,pm2_5,mosquito_risk,arthritis_risk,migraine_risk,frizz_risk,updated_at
Delhi,Delhi,28.6139,77.209,30.2,26,0.0,983.7,5.7,31.7,157,274.7,50.2,0,5,3,0,2026-03-01T15:59:12.914346+05:30
Mumbai,Maharashtra,19.076,72.8777,26.6,65,0.0,1007.9,7.25,24.1,76,57.4,29.2,7,5,4,1,2026-03-01T15:59:12.914379+05:30
Bangalore,Karnataka,12.9716,77.5946,30.4,34,0.0,910.5,9.05,22.7,152,44.1,43.0,0,5,7,0,2026-03-01T15:59:12.914393+05:30
Hyderabad,Telangana,17.385,78.4867,32.9,30,0.0,951.9,8.3,27.4,127,35.9,35.2,0,5,7,0,2026-03-01T15:59:12.914404+05:30
Chennai,Tamil Nadu,13.0827,80.2707,31.3,47,0.0,1006.5,8.75,33.1,146,46.0,42.1,0,5,4,1,2026-03-01T15:59:12.914412+05:30
Kolkata,West Bengal,22.5726,88.3639,31.4,48,0.0,1004.7,7.6,25.2,99,42.3,39.6,0,5,4,1,2026-03-01T15:59:12.914420+05:30
Pune,Maharashtra,18.5204,73.8567,34.0,24,0.0,947.1,7.85,34.2,83,22.2,21.2,0,5,7,0,2026-03-01T15:59:12.914430+05:30
Ahmedabad,Gujarat,23.0225,72.5714,33.9,28,0.0,1001.7,7.05,21.2,100,33.2,18.1,0,5,4,0,2026-03-01T15:59:12.914437+05:30
Jaipur,Rajasthan,26.9124,75.7873,32.3,16,0.0,960.5,6.45,25.2,91,83.4,22.3,0,5,7,0,2026-03-01T15:59:12.914444+05:30
Lucknow,Uttar Pradesh,26.8467,80.9462,31.5,15,0.0,993.4,6.2,38.5,132,84.8,28.1,0,5,7,0,2026-03-01T15:59:12.914452+05:30
Kanpur,Uttar Pradesh,26.4499,80.3319,31.4,20,0.0,991.9,6.2,31.3,152,197.0,37.3,0,5,7,0,2026-03-01T15:59:12.914458+05:30
Chandigarh,Chandigarh,30.7333,76.7794,27.6,30,0.0,969.3,5.6,31.0,90,34.1,23.7,4,5,3,0,2026-03-01T15:59:12.914465+05:30
Srinagar,Jammu and Kashmir,34.0837,74.7973,17.9,17,0.0,842.0,6.4,15.1,151,27.8,18.1,0,5,7,1,2026-03-01T15:59:12.914473+05:30
Jammu,Jammu and Kashmir,32.7266,74.857,27.5,34,0.0,973.5,6.15,25.2,99,34.2,20.7,4,5,7,0,2026-03-01T15:59:12.914480+05:30
Amritsar,Punjab,31.634,74.8723,27.7,34,0.0,982.2,6.1,20.5,134,43.9,25.0,4,5,7,0,2026-03-01T15:59:12.914487+05:30
Ludhiana,Punjab,30.901,75.8573,28.4,28,0.0,979.9,5.8,25.9,153,54.0,33.1,4,5,3,0,2026-03-01T15:59:12.914494+05:30
Jalandhar,Punjab,31.326,75.5762,28.1,29,0.0,981.1,5.95,23.0,155,58.8,30.2,4,5,3,0,2026-03-01T15:59:12.914503+05:30
Dehradun,Uttarakhand,30.6284,78.0322,18.0,46,0.0,829.3,5.95,32.4,66,24.3,15.1,0,5,3,0,2026-03-01T15:59:12.914509+05:30
Shimla,Himachal Pradesh,31.1048,77.1734,15.9,39,0.0,784.4,6.0,50.4,71,23.8,14.8,0,5,3,0,2026-03-01T15:59:12.914515+05:30
Manali,Himachal Pradesh,32.2396,77.1887,18.3,27,0.0,818.2,7.6,34.9,51,16.2,8.8,0,5,7,1,2026-03-01T15:59:12.914522+05:30
Gurgaon,Haryana,28.4595,77.0266,30.2,24,0.0,982.2,5.8,31.0,387,799.1,93.6,0,5,3,0,2026-03-01T15:59:12.914529+05:30
Noida,Uttar Pradesh,28.5355,77.391,30.6,24,0.0,985.2,5.75,31.3,387,799.1,93.6,0,5,3,0,2026-03-01T15:59:12.914535+05:30
Ghaziabad,Uttar Pradesh,28.6692,77.4538,29.5,28,0.0,983.4,5.7,28.1,152,215.1,42.6,4,5,3,0,2026-03-01T15:59:12.914542+05:30
Faridabad,Haryana,28.4089,77.3178,30.0,25,0.0,984.5,5.75,28.8,387,799.1,93.6,4,5,3,0,2026-03-01T15:59:12.914548+05:30
Meerut,Uttar Pradesh,28.9845,77.7064,29.3,28,0.0,982.0,5.6,31.7,152,215.1,42.6,4,5,3,0,2026-03-01T15:59:12.914555+05:30
Agra,Uttar Pradesh,27.1767,78.0081,31.6,19,0.0,988.5,6.05,27.4,168,301.7,48.5,0,5,7,0,2026-03-01T15:59:12.914562+05:30
Varanasi,Uttar Pradesh,25.3176,82.9739,30.5,39,0.0,997.4,6.85,26.6,142,49.6,26.6,0,5,7,0,2026-03-01T15:59:12.914571+05:30
Prayagraj,Uttar Pradesh,25.4358,81.8463,30.5,33,0.0,996.0,6.75,28.1,142,59.1,26.3,0,5,7,0,2026-03-01T15:59:12.914577+05:30
Gorakhpur,Uttar Pradesh,26.7606,83.3732,29.9,25,0.0,996.4,6.55,32.4,116,35.2,23.2,4,5,7,0,2026-03-01T15:59:12.914584+05:30
Bareilly,Uttar Pradesh,28.367,79.4304,28.9,26,0.0,986.9,5.9,35.6,124,42.4,29.4,4,5,3,0,2026-03-01T15:59:12.914590+05:30
Aligarh,Uttar Pradesh,27.8974,78.088,30.6,21,0.0,986.1,5.8,31.3,174,489.9,70.3,0,5,3,0,2026-03-01T15:59:12.914600+05:30
Moradabad,Uttar Pradesh,28.8386,78.7733,28.8,26,0.0,983.8,5.7,33.8,129,48.7,30.3,4,5,3,0,2026-03-01T15:59:12.914608+05:30
Saharanpur,Uttar Pradesh,29.9637,77.546,28.0,27,0.0,975.9,5.35,38.2,138,45.3,20.4,4,5,3,0,2026-03-01T15:59:12.914614+05:30
Jhansi,Uttar Pradesh,25.4484,78.5685,31.9,22,0.0,978.4,6.65,24.5,69,57.7,23.1,0,5,7,0,2026-03-01T15:59:16.615303+05:30
Surat,Gujarat,21.1702,72.8311,29.8,49,0.0,1006.6,6.95,28.4,105,56.3,45.5,4,5,4,1,2026-03-01T15:59:16.615330+05:30
Vadodara,Gujarat,22.3072,73.1812,34.1,29,0.0,1003.6,7.05,11.9,118,40.3,32.0,0,5,4,0,2026-03-01T15:59:16.615340+05:30
Rajkot,Gujarat,22.3039,70.8022,32.8,30,0.0,994.1,6.9,23.4,65,42.4,20.1,0,5,7,0,2026-03-01T15:59:16.615347+05:30
Thane,Maharashtra,19.2183,72.9781,28.6,52,0.0,1007.3,7.25,36.4,76,57.4,29.2,4,5,4,1,2026-03-01T15:59:16.615354+05:30
Nagpur,Maharashtra,21.1458,79.0882,34.2,25,0.0,971.9,7.65,30.6,118,13.6,12.9,0,5,7,0,2026-03-01T15:59:16.615360+05:30
Nashik,Maharashtra,19.9975,73.7898,32.1,25,0.0,944.7,7.45,28.8,87,23.6,21.1,0,5,7,0,2026-03-01T15:59:16.615366+05:30
Aurangabad,Maharashtra,19.8762,75.3433,33.5,23,0.0,943.1,8.0,28.8,86,20.8,19.3,0,5,7,0,2026-03-01T15:59:16.615372+05:30
Solapur,Maharashtra,17.6599,75.9064,33.3,32,0.0,955.6,8.25,19.8,97,27.8,27.3,0,5,7,0,2026-03-01T15:59:16.615378+05:30
Kolhapur,Maharashtra,16.705,74.2433,31.8,28,0.0,946.6,8.35,38.2,66,21.3,20.7,0,5,7,0,2026-03-01T15:59:16.615384+05:30
Goa,Goa,15.2993,74.124,29.2,57,0.0,996.9,8.4,35.3,56,19.7,15.2,4,5,7,1,2026-03-01T15:59:16.615390+05:30
Jodhpur,Rajasthan,26.2389,73.0243,33.6,20,0.0,983.5,6.75,18.0,68,51.0,17.3,0,5,7,0,2026-03-01T15:59:16.615396+05:30
Udaipur,Rajasthan,24.5854,73.7125,30.2,28,0.0,946.9,7.35,25.2,57,24.6,14.1,0,5,7,0,2026-03-01T15:59:16.615401+05:30
Kota,Rajasthan,25.2138,75.8648,32.7,25,0.0,979.1,6.8,20.2,76,30.5,16.1,0,5,7,0,2026-03-01T15:59:16.615406+05:30
Bikaner,Rajasthan,28.0229,73.3119,32.4,19,0.0,982.8,6.45,16.2,64,49.9,21.6,0,5,7,0,2026-03-01T15:59:16.615412+05:30
Ajmer,Rajasthan,26.4499,74.6399,31.7,20,0.0,955.3,6.7,17.6,76,35.9,15.3,0,5,7,0,2026-03-01T15:59:16.615418+05:30
Gwalior,Madhya Pradesh,26.2183,78.1828,30.6,26,0.0,984.1,6.35,28.8,103,56.3,20.8,0,5,7,0,2026-03-01T15:59:16.615423+05:30
Indore,Madhya Pradesh,22.7196,75.8577,30.5,31,0.0,948.0,7.35,22.3,73,23.2,16.2,0,5,7,0,2026-03-01T15:59:16.615429+05:30
Bhopal,Madhya Pradesh,23.2599,77.4126,30.1,33,0.0,953.9,7.2,25.9,68,22.2,17.2,0,5,7,0,2026-03-01T15:59:16.615435+05:30
Jabalpur,Madhya Pradesh,23.1815,79.9864,31.9,22,0.0,961.2,7.3,39.2,88,12.3,11.3,0,5,7,0,2026-03-01T15:59:16.615441+05:30
Ujjain,Madhya Pradesh,23.1765,75.7885,30.5,31,0.0,953.8,7.25,20.5,82,24.3,16.4,0,5,7,0,2026-03-01T15:59:16.615447+05:30
Visakhapatnam,Andhra Pradesh,17.6868,83.2185,29.3,59,0.0,1002.7,8.3,39.2,151,56.5,53.1,4,5,4,1,2026-03-01T15:59:16.615453+05:30
Vijayawada,Andhra Pradesh,16.5062,80.648,33.0,48,0.0,1001.3,8.4,28.1,151,43.1,41.1,0,5,4,1,2026-03-01T15:59:16.615459+05:30
Guntur,Andhra Pradesh,16.3067,80.4365,33.5,41,0.0,1002.5,8.4,28.4,145,40.9,39.6,0,5,4,1,2026-03-01T15:59:16.615464+05:30
Nellore,Andhra Pradesh,14.4426,79.9865,33.1,36,0.0,1004.7,8.6,31.0,141,43.5,41.4,0,5,4,1,2026-03-01T15:59:16.615471+05:30
Kurnool,Andhra Pradesh,15.8281,78.0373,35.5,26,0.0,974.8,8.4,20.5,117,32.8,32.1,0,5,10,0,2026-03-01T15:59:16.615478+05:30
Kakinada,Andhra Pradesh,16.9891,82.2475,33.6,37,0.0,1005.9,8.3,33.5,151,49.2,44.9,0,5,4,1,2026-03-01T15:59:16.615484+05:30
Tirupati,Andhra Pradesh,13.6288,79.4192,33.1,33,0.0,989.9,8.7,28.4,152,37.8,36.6,0,5,7,0,2026-03-01T15:59:16.615489+05:30
Warangal,Telangana,17.9689,79.5941,33.0,43,0.0,977.5,8.1,27.7,136,44.1,43.2,0,5,7,1,2026-03-01T15:59:16.615495+05:30
Nizamabad,Telangana,18.6725,78.0941,34.5,26,0.0,963.6,8.0,20.9,122,23.0,22.5,0,5,7,0,2026-03-01T15:59:16.615500+05:30
Mysore,Karnataka,12.2958,76.6396,31.5,32,0.0,926.8,9.05,36.0,120,48.7,47.3,0,5,7,0,2026-03-01T15:59:16.615506+05:30
Mangalore,Karnataka,12.9141,74.856,28.0,74,0.0,1004.8,8.65,32.0,49,14.5,10.1,7,5,4,1,2026-03-01T15:59:16.615512+05:30
Hubli-Dharwad,Karnataka,15.3647,75.124,33.2,24,0.0,939.1,8.55,33.5,76,32.5,31.5,0,5,7,0,2026-03-01T15:59:16.615518+05:30
Belgaum,Karnataka,15.8497,74.4977,31.3,28,0.0,924.5,8.6,38.5,93,21.4,20.7,0,5,7,0,2026-03-01T15:59:19.904639+05:30
Coimbatore,Tamil Nadu,11.0168,76.9558,33.0,32,0.0,959.6,9.05,34.9,148,47.3,46.0,0,5,7,0,2026-03-01T15:59:19.904664+05:30
Madurai,Tamil Nadu,9.9252,78.1198,34.3,33,0.0,990.6,9.0,26.3,151,36.0,34.2,0,5,7,0,2026-03-01T15:59:19.904673+05:30
Trichy,Tamil Nadu,10.7905,78.7047,35.2,31,0.0,997.4,8.9,27.7,149,36.7,34.6,0,5,10,0,2026-03-01T15:59:19.904680+05:30
Salem,Tamil Nadu,11.6643,78.146,35.8,26,0.0,974.6,8.95,26.3,150,39.6,38.1,0,5,10,0,2026-03-01T15:59:19.904687+05:30
Tirunelveli,Tamil Nadu,8.7139,77.7567,35.3,30,0.0,1000.7,9.05,43.6,140,37.3,35.6,0,5,7,0,2026-03-01T15:59:19.904694+05:30
Vellore,Tamil Nadu,12.9165,79.1325,33.2,30,0.0,982.9,8.8,36.7,155,38.6,37.3,0,5,7,0,2026-03-01T15:59:19.904700+05:30
Erode,Tamil Nadu,11.341,77.7172,35.7,29,0.0,986.2,8.95,27.7,140,38.9,37.5,0,5,10,0,2026-03-01T15:59:19.904707+05:30
Kochi,Kerala,9.9312,76.2673,28.4,75,0.0,1006.4,8.9,36.4,114,45.1,43.4,7,5,4,1,2026-03-01T15:59:19.904713+05:30
Thiruvananthapuram,Kerala,8.5241,76.9366,28.4,78,0.0,1005.9,8.95,24.1,130,29.1,27.3,7,5,4,1,2026-03-01T15:59:19.904719+05:30
Kozhikode,Kerala,11.2588,75.7804,29.3,71,0.0,1006.0,8.75,31.3,75,17.1,13.2,7,5,4,1,2026-03-01T15:59:19.904725+05:30
Thrissur,Kerala,10.5276,76.2144,31.4,62,0.0,1004.6,8.85,40.3,111,41.6,40.0,3,5,4,1,2026-03-01T15:59:19.904732+05:30
Kannur,Kerala,11.8745,75.3704,30.0,63,0.0,1005.4,8.75,38.2,51,14.9,10.8,7,5,4,1,2026-03-01T15:59:19.904738+05:30
Patna,Bihar,25.5941,85.1376,31.0,30,0.0,999.8,7.0,28.8,121,79.6,39.1,0,5,7,0,2026-03-01T15:59:19.904744+05:30
Gaya,Bihar,24.7914,85.0002,29.7,38,0.0,993.5,7.1,19.1,107,46.1,29.5,4,5,7,0,2026-03-01T15:59:19.904751+05:30
Muzaffarpur,Bihar,26.1209,85.3647,30.8,31,0.0,999.5,6.95,31.0,124,82.0,35.9,0,5,7,0,2026-03-01T15:59:19.904757+05:30
Bhagalpur,Bihar,25.2425,87.0117,29.1,43,0.0,1000.6,7.05,22.3,106,67.8,41.6,4,5,4,0,2026-03-01T15:59:19.904763+05:30
Ranchi,Jharkhand,23.3441,85.3096,28.4,28,0.0,937.3,7.75,24.5,89,30.5,29.0,4,5,7,0,2026-03-01T15:59:19.904768+05:30
Jamshedpur,Jharkhand,22.8046,86.2029,32.1,25,0.0,989.9,7.7,10.8,134,44.6,39.0,0,5,7,0,2026-03-01T15:59:19.904774+05:30
Dhanbad,Jharkhand,23.7957,86.4304,32.4,22,0.0,978.9,7.55,24.1,152,33.9,30.9,0,5,7,0,2026-03-01T15:59:19.904780+05:30
Bokaro,Jharkhand,23.6693,86.1511,32.0,22,0.0,983.0,7.55,22.0,152,31.5,29.6,0,5,7,0,2026-03-01T15:59:19.904786+05:30
Bhubaneswar,Odisha,20.2961,85.8245,32.5,37,0.0,1001.1,8.05,27.0,107,40.7,39.3,0,5,4,0,2026-03-01T15:59:19.904791+05:30
Cuttack,Odisha,20.4625,85.8828,34.7,30,0.0,1002.6,8.05,27.0,107,40.7,39.3,0,5,4,0,2026-03-01T15:59:19.904797+05:30
Rourkela,Odisha,22.2604,84.8536,32.7,28,0.0,984.1,7.6,18.0,126,46.4,45.6,0,5,7,0,2026-03-01T15:59:19.904803+05:30
Raipur,Chhattisgarh,21.2514,81.6296,34.6,28,0.0,973.3,7.75,27.4,158,34.9,34.5,0,5,7,0,2026-03-01T15:59:19.904808+05:30
Bhilai,Chhattisgarh,21.1938,81.3509,34.3,30,0.0,973.6,7.75,28.1,159,27.5,27.0,0,5,7,0,2026-03-01T15:59:19.904814+05:30
Guwahati,Assam,26.1158,91.7086,25.4,65,0.0,1000.9,7.0,32.0,162,77.5,60.3,7,5,4,1,2026-03-01T15:59:19.904820+05:30
Agartala,Tripura,23.8315,91.2868,30.0,47,0.0,1004.8,7.35,27.4,124,42.3,35.0,4,5,4,1,2026-03-01T15:59:19.904826+05:30
Shillong,Meghalaya,25.5788,91.8933,15.3,52,0.0,853.8,6.8,56.9,151,63.6,44.5,0,5,7,0,2026-03-01T15:59:19.904831+05:30
Imphal,Manipur,24.817,93.9368,20.2,46,0.0,921.4,7.55,49.3,151,52.4,36.2,0,5,7,0,2026-03-01T15:59:19.904837+05:30
Aizawl,Mizoram,23.7271,92.7176,22.6,43,0.0,892.1,7.55,40.3,123,47.6,32.8,0,5,7,0,2026-03-01T15:59:19.904843+05:30
Kohima,Nagaland,25.6701,94.1077,14.9,71,0.0,852.8,7.4,70.9,152,71.9,49.5,3,5,7,0,2026-03-01T15:59:19.904849+05:30
Gangtok,Sikkim,27.3314,88.6138,12.9,84,0.0,834.5,5.3,12.6,137,62.9,42.6,3,10,3,0,2026-03-01T15:59:19.904855+05:30
Siliguri,West Bengal,26.7271,88.3953,22.3,57,0.0,993.0,7.0,31.0,171,102.4,69.2,0,5,7,0,2026-03-01T15:59:23.199735+05:30
Durgapur,West Bengal,23.5204,87.3119,33.6,19,0.0,993.7,7.55,26.3,126,35.7,30.4,0,5,7,0,2026-03-01T15:59:23.199760+05:30
Asansol,West Bengal,23.6739,86.9524,33.1,21,0.0,992.5,7.55,22.7,112,36.2,32.0,0,5,7,0,2026-03-01T15:59:23.199770+05:30
Pondicherry,Puducherry,11.9139,79.8145,32.3,46,0.0,1007.1,8.8,28.1,142,44.8,41.1,0,5,4,1,2026-03-01T15:59:23.199777+05:30
Port Blair,Andaman and Nicobar Islands,11.6234,92.7265,27.5,70,0.0,1005.1,8.7,25.6,97,21.2,18.6,7,5,4,1,2026-03-01T15:59:23.199784+05:30
Haridwar,Uttarakhand,29.9457,78.1642,28.4,30,0.0,974.0,5.4,37.1,108,29.3,20.4,4,5,3,0,2026-03-01T15:59:23.199790+05:30
Rishikesh,Uttarakhand,30.0869,78.2676,27.3,37,0.0,966.7,5.5,34.9,89,30.4,20.7,4,5,3,0,2026-03-01T15:59:23.199797+05:30
Nainital,Uttarakhand,29.3919,79.4542,19.7,41,0.0,805.6,6.3,40.0,85,36.3,25.4,0,5,7,0,2026-03-01T15:59:23.199803+05:30
Mussoorie,Uttarakhand,30.4599,78.0664,18.1,49,0.0,802.2,5.85,39.6,89,29.1,20.6,0,5,3,0,2026-03-01T15:59:23.199810+05:30
Dharamshala,Himachal Pradesh,32.219,76.3234,22.0,36,0.0,869.4,6.05,27.4,58,29.2,16.5,0,5,7,0,2026-03-01T15:59:23.199815+05:30
Dalhousie,Himachal Pradesh,32.5387,75.971,20.6,30,0.0,804.8,6.25,30.2,92,38.4,24.0,0,5,7,0,2026-03-01T15:59:23.199822+05:30
Patiala,Punjab,30.3398,76.3869,28.3,28,0.0,979.1,5.5,28.4,155,294.3,54.7,4,5,3,0,2026-03-01T15:59:23.199828+05:30
Bhatinda,Punjab,30.211,74.9455,29.8,32,0.0,985.0,6.2,21.2,151,59.1,33.1,4,5,7,0,2026-03-01T15:59:23.199834+05:30
Rohtak,Haryana,28.8955,76.6066,29.9,28,0.0,982.7,5.7,30.6,159,323.2,52.9,4,5,3,0,2026-03-01T15:59:23.199840+05:30
Panipat,Haryana,29.3909,76.9635,29.1,28,0.0,981.1,5.5,29.9,398,760.0,84.8,4,5,3,0,2026-03-01T15:59:23.199846+05:30
Mathura,Uttar Pradesh,27.4924,77.6737,31.2,22,0.0,987.6,5.95,25.6,168,308.3,47.7,0,5,3,0,2026-03-01T15:59:23.199852+05:30
Vrindavan,Uttar Pradesh,27.5823,77.7027,30.9,23,0.0,988.0,5.95,28.4,168,308.3,47.7,0,5,3,0,2026-03-01T15:59:23.199858+05:30
Ayodhya,Uttar Pradesh,26.7922,82.1998,31.0,19,0.0,994.9,6.35,36.4,119,37.3,23.6,0,5,7,0,2026-03-01T15:59:23.199863+05:30
Ratlam,Madhya Pradesh,23.3315,75.0367,30.7,32,0.0,954.6,7.2,27.7,75,23.8,15.9,0,5,7,0,2026-03-01T15:59:23.199870+05:30
Sagar,Madhya Pradesh,23.8388,78.7378,30.1,29,0.0,950.4,7.15,20.2,59,20.7,14.5,0,5,7,0,2026-03-01T15:59:23.199876+05:30
Satna,Madhya Pradesh,24.6005,80.8322,31.7,25,0.0,971.1,7.1,31.7,101,35.0,19.5,0,5,7,0,2026-03-01T15:59:23.199881+05:30
Akola,Maharashtra,20.7002,77.0082,35.3,22,0.0,974.0,7.7,28.4,68,16.5,15.5,0,5,10,0,2026-03-01T15:59:23.199888+05:30
Amravati,Maharashtra,20.9374,77.7796,35.2,22,0.0,966.2,7.65,27.4,72,14.7,13.8,0,5,10,0,2026-03-01T15:59:23.199895+05:30
Latur,Maharashtra,18.4088,76.5604,32.6,27,0.0,938.7,8.15,25.6,82,26.3,25.7,0,5,7,0,2026-03-01T15:59:23.199901+05:30
Nanded,Maharashtra,19.1383,77.3091,35.2,25,0.0,967.1,7.9,15.5,77,18.3,17.8,0,5,10,0,2026-03-01T15:59:23.199907+05:30
Gulbarga,Karnataka,17.3297,76.8343,34.1,28,0.0,957.0,8.25,17.6,98,34.6,34.0,0,5,7,0,2026-03-01T15:59:23.199913+05:30
Bidar,Karnataka,17.9104,77.5199,31.9,34,0.0,934.4,8.2,20.5,112,27.4,27.0,0,5,7,0,2026-03-01T15:59:23.199919+05:30
Hospet,Karnataka,15.2689,76.3909,33.7,27,0.0,954.1,8.55,24.5,93,36.4,35.6,0,5,7,0,2026-03-01T15:59:23.199924+05:30
Tirupur,Tamil Nadu,11.1085,77.3411,34.9,30,0.0,972.8,9.1,21.2,152,44.7,43.3,0,5,7,0,2026-03-01T15:59:23.199930+05:30
Alappuzha,Kerala,9.4981,76.3388,28.4,78,0.0,1006.5,8.9,34.9,145,32.7,31.1,7,5,4,1,2026-03-01T15:59:23.199936+05:30
Munnar,Kerala,10.0889,77.0595,28.5,39,0.0,857.0,9.4,25.2,131,38.6,37.4,4,5,7,0,2026-03-01T15:59:23.199942+05:30
Silchar,Assam,24.8333,92.7789,28.8,45,0.0,1003.5,7.3,20.5,157,59.8,40.5,4,5,4,0,2026-03-01T15:59:23.199948+05:30
Dibrugarh,Assam,27.4728,94.912,21.5,71,0.0,996.1,7.0,13.7,161,83.4,68.0,3,5,7,0,2026-03-01T15:59:23.199954+05:30
