city,state,latitude,longitude,temp,humidity,rain,pressure,uv_index,wind_gusts,aqi,pm10,pm2_5,mosquito_risk,arthritis_risk,migraine_risk,frizz_risk,updated_at
Delhi,Delhi,28.6139,77.209,27.5,53,0.0,976.8,6.1,49.3,399,82.7,34.3,4,5,7,1,2026-04-29T03:31:05.809217+05:30
Mumbai,Maharashtra,19.076,72.8777,26.7,92,0.0,1005.5,8.05,40.3,81,32.0,20.4,7,5,4,1,2026-04-29T03:31:05.809273+05:30
Bangalore,Karnataka,12.9716,77.5946,25.0,49,0.0,909.3,9.55,47.9,91,19.7,18.3,4,5,7,0,2026-04-29T03:31:05.809290+05:30
Hyderabad,Telangana,17.385,78.4867,28.5,53,0.0,949.9,9.3,34.2,108,56.3,46.2,4,5,7,1,2026-04-29T03:31:05.809302+05:30
Chennai,Tamil Nadu,13.0827,80.2707,28.4,86,0.0,1004.3,8.75,55.8,49,13.4,9.7,7,5,4,1,2026-04-29T03:31:05.809312+05:30
Kolkata,West Bengal,22.5726,88.3639,27.8,90,0.0,1001.5,7.95,46.1,85,23.0,19.6,7,5,4,1,2026-04-29T03:31:05.809320+05:30
Pune,Maharashtra,18.5204,73.8567,25.6,44,0.0,944.8,8.65,42.8,74,34.3,23.1,4,5,7,0,2026-04-29T03:31:05.809332+05:30
Ahmedabad,Gujarat,23.0225,72.5714,29.1,34,0.0,997.8,8.2,46.4,50,29.8,12.1,4,5,7,0,2026-04-29T03:31:05.809340+05:30
Jaipur,Rajasthan,26.9124,75.7873,29.4,26,0.0,953.6,8.1,46.8,113,502.9,93.8,4,5,7,0,2026-04-29T03:31:05.809348+05:30
Lucknow,Uttar Pradesh,26.8467,80.9462,28.9,49,0.0,987.4,7.9,45.4,152,119.2,53.6,4,5,7,1,2026-04-29T03:31:05.809356+05:30
Kanpur,Uttar Pradesh,26.4499,80.3319,30.0,38,0.0,985.5,7.85,40.3,199,161.6,58.1,4,5,7,0,2026-04-29T03:31:05.809364+05:30
Chandigarh,Chandigarh,30.7333,76.7794,22.8,51,0.0,962.1,7.45,38.2,65,24.9,14.4,0,5,7,0,2026-04-29T03:31:05.809372+05:30
Srinagar,Jammu and Kashmir,34.0837,74.7973,10.2,100,0.0,838.0,5.6,34.2,92,47.1,42.8,3,10,3,0,2026-04-29T03:31:05.809381+05:30
Jammu,Jammu and Kashmir,32.7266,74.857,22.1,61,0.0,968.4,8.05,32.4,88,54.4,45.8,3,5,7,0,2026-04-29T03:31:05.809392+05:30
Amritsar,Punjab,31.634,74.8723,23.0,60,0.0,975.6,8.1,45.7,74,45.9,32.7,0,5,7,0,2026-04-29T03:31:05.809399+05:30
Ludhiana,Punjab,30.901,75.8573,23.4,65,0.0,972.0,7.7,35.6,85,49.7,34.7,3,5,7,1,2026-04-29T03:31:05.809407+05:30
Jalandhar,Punjab,31.326,75.5762,23.0,59,0.0,973.2,7.9,34.9,77,43.4,31.5,0,5,7,0,2026-04-29T03:31:05.809416+05:30
Dehradun,Uttarakhand,30.6284,78.0322,11.1,76,0.0,823.4,5.55,34.6,47,24.5,9.2,3,5,3,0,2026-04-29T03:31:05.809423+05:30
Shimla,Himachal Pradesh,31.1048,77.1734,7.9,76,0.0,775.8,7.65,33.5,48,20.2,7.2,3,5,7,0,2026-04-29T03:31:05.809431+05:30
Manali,Himachal Pradesh,32.2396,77.1887,9.8,73,0.0,811.9,7.7,35.3,89,6.5,5.1,3,5,7,0,2026-04-29T03:31:05.809438+05:30
Gurgaon,Haryana,28.4595,77.0266,26.5,54,0.0,975.0,7.35,55.1,1058,257.0,52.2,4,5,7,1,2026-04-29T03:31:05.809445+05:30
Noida,Uttar Pradesh,28.5355,77.391,25.2,60,0.0,978.1,6.15,47.2,1058,257.0,52.2,4,5,7,1,2026-04-29T03:31:05.809453+05:30
Ghaziabad,Uttar Pradesh,28.6692,77.4538,25.6,61,0.0,976.4,6.5,50.4,287,95.0,33.6,7,5,7,1,2026-04-29T03:31:05.809460+05:30
Faridabad,Haryana,28.4089,77.3178,27.2,51,0.0,977.5,5.5,49.3,1058,257.0,52.2,4,5,3,1,2026-04-29T03:31:05.809467+05:30
Meerut,Uttar Pradesh,28.9845,77.7064,25.0,60,0.0,975.4,6.4,49.0,287,95.0,33.6,4,5,7,1,2026-04-29T03:31:05.809473+05:30
Agra,Uttar Pradesh,27.1767,78.0081,27.4,43,0.0,981.7,6.85,38.2,780,558.8,85.2,4,5,7,0,2026-04-29T03:31:05.809480+05:30
Varanasi,Uttar Pradesh,25.3176,82.9739,28.9,57,0.0,991.7,8.5,47.5,120,62.6,47.1,4,5,7,1,2026-04-29T03:31:05.809495+05:30
Prayagraj,Uttar Pradesh,25.4358,81.8463,29.0,42,0.0,989.8,8.35,44.3,121,63.1,47.0,4,5,7,0,2026-04-29T03:31:05.809505+05:30
Gorakhpur,Uttar Pradesh,26.7606,83.3732,25.6,78,0.0,993.1,8.3,41.4,108,55.1,40.7,7,5,7,1,2026-04-29T03:31:05.809513+05:30
Bareilly,Uttar Pradesh,28.367,79.4304,25.6,61,0.0,980.5,6.65,38.2,110,70.3,29.3,7,5,7,1,2026-04-29T03:31:05.809519+05:30
Aligarh,Uttar Pradesh,27.8974,78.088,26.5,49,0.0,979.1,7.05,41.8,661,179.7,40.6,4,5,7,0,2026-04-29T03:31:05.809526+05:30
Moradabad,Uttar Pradesh,28.8386,78.7733,24.8,67,0.0,977.4,4.65,41.8,151,88.2,38.6,3,5,3,1,2026-04-29T03:31:05.809533+05:30
Saharanpur,Uttar Pradesh,29.9637,77.546,22.0,73,0.0,970.9,7.05,33.8,78,67.8,38.2,3,5,7,1,2026-04-29T03:31:05.809539+05:30
Jhansi,Uttar Pradesh,25.4484,78.5685,29.4,26,0.0,972.0,8.05,52.2,63,62.2,22.8,4,5,7,0,2026-04-29T03:31:10.204722+05:30
Surat,Gujarat,21.1702,72.8311,26.9,93,0.0,1003.4,7.85,43.6,72,29.8,18.3,7,5,4,1,2026-04-29T03:31:10.204757+05:30
Vadodara,Gujarat,22.3072,73.1812,27.5,80,0.0,1000.4,8.15,46.1,61,21.1,15.3,7,5,4,1,2026-04-29T03:31:10.204767+05:30
Rajkot,Gujarat,22.3039,70.8022,25.8,78,0.0,990.0,7.9,51.5,50,32.7,12.1,7,5,7,1,2026-04-29T03:31:10.204775+05:30
Thane,Maharashtra,19.2183,72.9781,26.4,93,0.0,1004.9,8.05,40.3,81,32.0,20.4,7,5,4,1,2026-04-29T03:31:10.204782+05:30
Nagpur,Maharashtra,21.1458,79.0882,30.5,24,0.0,969.2,8.85,57.2,79,20.7,17.5,0,5,7,0,2026-04-29T03:31:10.204789+05:30
Nashik,Maharashtra,19.9975,73.7898,25.0,37,0.0,942.7,8.3,43.2,61,36.4,19.2,4,5,7,0,2026-04-29T03:31:10.204796+05:30
Aurangabad,Maharashtra,19.8762,75.3433,28.1,31,0.0,941.1,9.05,52.6,57,20.5,10.0,4,5,7,0,2026-04-29T03:31:10.204803+05:30
Solapur,Maharashtra,17.6599,75.9064,29.8,36,0.0,953.9,9.1,40.0,86,29.8,26.6,4,5,7,0,2026-04-29T03:31:10.204810+05:30
Kolhapur,Maharashtra,16.705,74.2433,23.2,94,0.0,945.3,9.0,46.8,73,33.6,21.8,3,5,7,1,2026-04-29T03:31:10.204817+05:30
Goa,Goa,15.2993,74.124,28.9,80,0.0,995.2,8.95,45.0,69,62.4,30.7,7,5,7,1,2026-04-29T03:31:10.204825+05:30
Jodhpur,Rajasthan,26.2389,73.0243,30.2,35,0.0,976.9,8.0,46.1,123,262.6,45.6,0,5,7,0,2026-04-29T03:31:10.204831+05:30
Udaipur,Rajasthan,24.5854,73.7125,27.2,32,0.0,941.8,8.75,46.8,40,14.9,7.2,4,5,7,0,2026-04-29T03:31:10.204838+05:30
Kota,Rajasthan,25.2138,75.8648,31.4,26,0.0,973.0,8.3,45.0,44,18.5,9.7,0,5,7,0,2026-04-29T03:31:10.204845+05:30
Bikaner,Rajasthan,28.0229,73.3119,28.5,31,0.0,975.3,8.15,43.6,66,81.0,24.4,4,5,7,0,2026-04-29T03:31:10.204853+05:30
Ajmer,Rajasthan,26.4499,74.6399,29.0,30,0.0,948.6,8.25,56.5,50,118.5,24.9,4,5,7,0,2026-04-29T03:31:10.204859+05:30
Gwalior,Madhya Pradesh,26.2183,78.1828,29.5,29,0.0,976.9,7.85,54.4,80,364.1,71.9,4,5,7,0,2026-04-29T03:31:10.204866+05:30
Indore,Madhya Pradesh,22.7196,75.8577,27.5,33,0.0,944.9,8.65,53.3,53,21.0,12.6,4,5,7,0,2026-04-29T03:31:10.204872+05:30
Bhopal,Madhya Pradesh,23.2599,77.4126,29.5,23,0.0,949.0,8.65,50.0,49,24.0,13.6,4,5,7,0,2026-04-29T03:31:10.204878+05:30
Jabalpur,Madhya Pradesh,23.1815,79.9864,27.2,23,0.0,956.5,8.75,41.4,56,16.1,12.6,4,5,7,0,2026-04-29T03:31:10.204885+05:30
Ujjain,Madhya Pradesh,23.1765,75.7885,27.4,34,0.0,950.4,8.55,51.1,54,17.7,11.5,4,5,7,0,2026-04-29T03:31:10.204892+05:30
Visakhapatnam,Andhra Pradesh,17.6868,83.2185,27.6,91,0.0,1000.4,8.2,53.6,64,19.4,15.1,7,5,4,1,2026-04-29T03:31:10.204899+05:30
Vijayawada,Andhra Pradesh,16.5062,80.648,28.2,88,0.0,999.2,8.4,36.4,61,13.9,10.9,7,5,7,1,2026-04-29T03:31:10.204906+05:30
Guntur,Andhra Pradesh,16.3067,80.4365,28.1,88,0.0,1000.4,8.4,39.2,64,12.9,10.2,7,5,4,1,2026-04-29T03:31:10.204912+05:30
Nellore,Andhra Pradesh,14.4426,79.9865,27.7,80,0.0,1002.4,9.25,40.3,55,11.8,10.2,7,5,4,1,2026-04-29T03:31:10.204919+05:30
Kurnool,Andhra Pradesh,15.8281,78.0373,29.3,45,0.0,973.1,8.85,44.3,109,36.3,32.2,4,5,7,1,2026-04-29T03:31:10.204926+05:30
Kakinada,Andhra Pradesh,16.9891,82.2475,28.3,88,0.0,1004.5,8.9,41.8,55,16.9,11.8,7,5,4,1,2026-04-29T03:31:10.204933+05:30
Tirupati,Andhra Pradesh,13.6288,79.4192,27.0,82,0.0,988.5,9.3,37.1,59,13.3,11.6,7,5,7,1,2026-04-29T03:31:10.204939+05:30
Warangal,Telangana,17.9689,79.5941,27.5,81,0.0,975.5,9.15,34.9,95,23.7,21.8,7,5,7,1,2026-04-29T03:31:10.204945+05:30
Nizamabad,Telangana,18.6725,78.0941,29.5,44,0.0,961.3,9.1,34.6,97,50.6,45.2,4,5,7,0,2026-04-29T03:31:10.204952+05:30
Mysore,Karnataka,12.2958,76.6396,22.9,97,0.0,925.6,9.35,42.5,95,29.7,27.4,3,5,7,1,2026-04-29T03:31:10.204958+05:30
Mangalore,Karnataka,12.9141,74.856,28.1,83,0.0,1003.7,9.1,37.8,71,54.8,26.4,7,5,4,1,2026-04-29T03:31:10.204964+05:30
Hubli-Dharwad,Karnataka,15.3647,75.124,24.2,93,0.0,938.3,9.1,62.6,69,30.3,14.4,3,5,7,1,2026-04-29T03:31:10.204971+05:30
Belgaum,Karnataka,15.8497,74.4977,23.1,97,0.0,923.3,9.25,49.7,71,37.0,19.8,3,5,7,1,2026-04-29T03:31:14.374356+05:30
Coimbatore,Tamil Nadu,11.0168,76.9558,25.6,88,0.0,958.8,9.15,52.2,68,14.5,13.1,7,5,7,1,2026-04-29T03:31:14.374392+05:30
Madurai,Tamil Nadu,9.9252,78.1198,28.4,73,0.0,990.4,7.65,47.5,62,19.2,18.5,7,5,7,1,2026-04-29T03:31:14.374403+05:30
Trichy,Tamil Nadu,10.7905,78.7047,28.2,76,0.0,996.9,8.45,45.7,47,11.1,10.3,7,5,7,1,2026-04-29T03:31:14.374412+05:30
Salem,Tamil Nadu,11.6643,78.146,28.0,66,0.0,974.6,8.85,42.5,58,11.4,11.0,7,5,7,1,2026-04-29T03:31:14.374420+05:30
Tirunelveli,Tamil Nadu,8.7139,77.7567,27.6,79,0.0,1000.6,5.9,42.5,60,18.3,17.0,7,5,0,1,2026-04-29T03:31:14.374428+05:30
Vellore,Tamil Nadu,12.9165,79.1325,26.6,79,0.0,981.7,9.2,38.5,64,19.9,19.2,7,5,7,1,2026-04-29T03:31:14.374436+05:30
Erode,Tamil Nadu,11.341,77.7172,27.9,77,0.0,986.2,8.7,37.1,72,23.6,22.1,7,5,7,1,2026-04-29T03:31:14.374444+05:30
Kochi,Kerala,9.9312,76.2673,27.1,89,0.0,1006.3,6.45,30.2,67,21.2,18.8,7,5,4,1,2026-04-29T03:31:14.374451+05:30
Thiruvananthapuram,Kerala,8.5241,76.9366,24.1,97,0.0,1006.0,5.7,26.3,51,10.2,7.8,3,5,0,1,2026-04-29T03:31:14.374459+05:30
Kozhikode,Kerala,11.2588,75.7804,26.8,95,0.0,1005.0,9.0,31.0,58,19.0,14.1,7,5,4,1,2026-04-29T03:31:14.374466+05:30
Thrissur,Kerala,10.5276,76.2144,26.4,95,0.0,1004.5,7.25,33.1,69,24.4,22.2,7,5,4,1,2026-04-29T03:31:14.374473+05:30
Kannur,Kerala,11.8745,75.3704,27.5,88,0.0,1004.2,8.85,37.1,71,27.1,19.4,7,5,4,1,2026-04-29T03:31:14.374480+05:30
Patna,Bihar,25.5941,85.1376,25.5,85,0.0,996.0,8.6,43.2,113,46.8,33.9,7,5,7,1,2026-04-29T03:31:14.374487+05:30
Gaya,Bihar,24.7914,85.0002,27.0,64,0.0,988.4,8.65,44.6,112,63.3,36.2,7,5,7,1,2026-04-29T03:31:14.374494+05:30
Muzaffarpur,Bihar,26.1209,85.3647,24.5,85,0.0,996.7,8.6,42.8,105,45.6,31.9,3,5,7,1,2026-04-29T03:31:14.374500+05:30
Bhagalpur,Bihar,25.2425,87.0117,24.0,92,0.0,997.8,8.6,37.8,91,28.3,19.2,3,5,7,1,2026-04-29T03:31:14.374506+05:30
Ranchi,Jharkhand,23.3441,85.3096,24.5,56,0.0,933.1,9.15,48.6,77,36.0,26.7,0,5,7,0,2026-04-29T03:31:14.374513+05:30
Jamshedpur,Jharkhand,22.8046,86.2029,25.9,86,0.0,986.0,9.0,46.8,119,59.6,48.2,7,5,7,1,2026-04-29T03:31:14.374520+05:30
Dhanbad,Jharkhand,23.7957,86.4304,25.3,96,0.0,975.1,8.9,55.1,154,102.4,87.8,7,5,7,1,2026-04-29T03:31:14.374526+05:30
Bokaro,Jharkhand,23.6693,86.1511,25.0,91,0.0,978.6,8.9,47.5,152,105.5,82.0,7,5,7,1,2026-04-29T03:31:14.374532+05:30
Bhubaneswar,Odisha,20.2961,85.8245,27.7,86,0.0,997.8,9.1,52.2,68,14.8,11.4,7,5,7,1,2026-04-29T03:31:14.374539+05:30
Cuttack,Odisha,20.4625,85.8828,27.8,86,0.0,999.7,9.1,48.2,68,14.8,11.4,7,5,7,1,2026-04-29T03:31:14.374545+05:30
Rourkela,Odisha,22.2604,84.8536,27.6,58,0.0,980.2,8.9,47.9,83,51.6,41.8,4,5,7,1,2026-04-29T03:31:14.374552+05:30
Raipur,Chhattisgarh,21.2514,81.6296,30.0,42,0.0,970.1,8.9,51.5,92,40.0,36.0,4,5,7,0,2026-04-29T03:31:14.374558+05:30
Bhilai,Chhattisgarh,21.1938,81.3509,29.0,50,0.0,970.8,8.9,52.6,90,39.6,35.5,4,5,7,1,2026-04-29T03:31:14.374565+05:30
Guwahati,Assam,26.1158,91.7086,21.0,98,0.8,1000.7,4.25,23.8,70,20.7,16.1,6,5,0,1,2026-04-29T03:31:14.374571+05:30
Agartala,Tripura,23.8315,91.2868,24.4,94,0.0,1003.2,5.45,40.0,73,34.6,15.8,3,5,0,1,2026-04-29T03:31:14.374577+05:30
Shillong,Meghalaya,25.5788,91.8933,15.9,98,0.0,854.2,2.7,34.9,32,10.8,5.9,3,10,3,0,2026-04-29T03:31:14.374584+05:30
Imphal,Manipur,24.817,93.9368,17.8,98,0.0,921.6,7.25,25.9,67,14.2,7.8,3,10,7,1,2026-04-29T03:31:14.374592+05:30
Aizawl,Mizoram,23.7271,92.7176,17.8,85,0.0,890.0,4.75,40.3,76,56.1,18.4,3,10,3,0,2026-04-29T03:31:14.374598+05:30
Kohima,Nagaland,25.6701,94.1077,15.4,94,0.1,852.7,5.7,22.0,39,3.1,2.1,6,10,3,0,2026-04-29T03:31:14.374605+05:30
Gangtok,Sikkim,27.3314,88.6138,13.3,96,0.1,833.8,1.8,31.3,70,15.7,12.0,6,10,3,0,2026-04-29T03:31:14.374612+05:30
Siliguri,West Bengal,26.7271,88.3953,21.0,98,0.1,991.2,4.5,36.4,93,44.2,31.4,6,5,3,1,2026-04-29T03:31:17.743557+05:30
Durgapur,West Bengal,23.5204,87.3119,26.3,97,0.0,990.3,8.75,31.0,150,85.2,72.9,7,5,7,1,2026-04-29T03:31:17.743593+05:30
Asansol,West Bengal,23.6739,86.9524,25.9,97,0.0,989.0,8.9,35.3,152,92.0,80.1,7,5,7,1,2026-04-29T03:31:17.743604+05:30
Pondicherry,Puducherry,11.9139,79.8145,28.8,79,0.0,1005.6,8.8,52.6,47,14.9,12.3,7,5,4,1,2026-04-29T03:31:17.743612+05:30
Port Blair,Andaman and Nicobar Islands,11.6234,92.7265,26.4,87,0.0,1006.0,8.55,27.7,48,12.5,9.5,7,5,4,1,2026-04-29T03:31:17.743620+05:30
Haridwar,Uttarakhand,29.9457,78.1642,20.6,61,0.0,968.1,7.25,54.7,73,46.6,23.6,3,5,7,0,2026-04-29T03:31:17.743628+05:30
Rishikesh,Uttarakhand,30.0869,78.2676,18.0,73,0.0,960.4,7.35,45.0,71,64.0,24.6,3,5,7,0,2026-04-29T03:31:17.743635+05:30
Nainital,Uttarakhand,29.3919,79.4542,12.3,64,0.0,799.7,7.25,46.1,81,60.8,25.8,3,5,7,0,2026-04-29T03:31:17.743643+05:30
Mussoorie,Uttarakhand,30.4599,78.0664,13.0,56,0.0,797.5,7.25,40.0,65,39.7,16.3,0,5,7,0,2026-04-29T03:31:17.743650+05:30
Dharamshala,Himachal Pradesh,32.219,76.3234,20.8,39,0.0,864.5,7.7,55.4,47,6.3,3.9,0,5,7,0,2026-04-29T03:31:17.743658+05:30
Dalhousie,Himachal Pradesh,32.5387,75.971,8.1,90,0.0,795.3,7.0,31.0,72,21.9,19.0,3,10,7,0,2026-04-29T03:31:17.743665+05:30
Patiala,Punjab,30.3398,76.3869,26.2,43,0.0,971.6,7.35,43.6,161,85.2,49.5,4,5,7,0,2026-04-29T03:31:17.743673+05:30
Bhatinda,Punjab,30.211,74.9455,26.0,46,0.0,976.9,8.05,59.8,88,164.4,41.0,4,5,7,0,2026-04-29T03:31:17.743680+05:30
Rohtak,Haryana,28.8955,76.6066,26.2,46,0.0,975.3,6.9,46.4,627,170.0,51.6,4,5,7,0,2026-04-29T03:31:17.743687+05:30
Panipat,Haryana,29.3909,76.9635,25.8,49,0.0,974.7,7.1,41.0,1154,247.7,62.6,4,5,7,0,2026-04-29T03:31:17.743694+05:30
Mathura,Uttar Pradesh,27.4924,77.6737,26.5,45,0.0,980.4,7.65,33.5,759,497.3,79.9,4,5,7,0,2026-04-29T03:31:17.743702+05:30
Vrindavan,Uttar Pradesh,27.5823,77.7027,26.1,46,0.0,980.8,7.55,40.3,759,497.3,79.9,4,5,7,0,2026-04-29T03:31:17.743709+05:30
Ayodhya,Uttar Pradesh,26.7922,82.1998,27.5,66,0.0,990.3,7.8,33.8,127,60.1,44.0,7,5,7,1,2026-04-29T03:31:17.743717+05:30
Ratlam,Madhya Pradesh,23.3315,75.0367,25.5,47,0.0,951.2,8.5,51.1,53,17.2,10.8,4,5,7,0,2026-04-29T03:31:17.743723+05:30
Sagar,Madhya Pradesh,23.8388,78.7378,27.2,24,0.0,945.5,8.4,48.6,44,18.1,10.5,4,5,7,0,2026-04-29T03:31:17.743729+05:30
Satna,Madhya Pradesh,24.6005,80.8322,28.1,33,0.0,965.5,8.35,50.8,63,104.1,39.2,4,5,7,0,2026-04-29T03:31:17.743736+05:30
Akola,Maharashtra,20.7002,77.0082,30.5,28,0.0,971.4,8.85,52.9,67,22.2,17.5,0,5,7,0,2026-04-29T03:31:17.743742+05:30
Amravati,Maharashtra,20.9374,77.7796,30.2,24,0.0,963.3,8.85,54.4,66,21.8,17.7,0,5,7,0,2026-04-29T03:31:17.743749+05:30
Latur,Maharashtra,18.4088,76.5604,28.4,35,0.0,936.6,9.1,30.6,82,24.9,21.1,4,5,7,0,2026-04-29T03:31:17.743756+05:30
Nanded,Maharashtra,19.1383,77.3091,28.5,38,0.0,964.7,9.0,33.8,80,26.0,22.9,4,5,7,0,2026-04-29T03:31:17.743762+05:30
Gulbarga,Karnataka,17.3297,76.8343,29.5,45,0.0,955.3,9.15,39.6,79,32.0,27.1,4,5,7,1,2026-04-29T03:31:17.743768+05:30
Bidar,Karnataka,17.9104,77.5199,27.8,48,0.0,932.1,9.15,29.9,94,47.0,42.1,4,5,7,0,2026-04-29T03:31:17.743775+05:30
Hospet,Karnataka,15.2689,76.3909,26.0,85,0.0,953.0,8.8,55.8,86,26.7,20.0,7,5,7,1,2026-04-29T03:31:17.743781+05:30
Tirupur,Tamil Nadu,11.1085,77.3411,26.3,87,0.0,972.1,8.9,52.6,83,25.1,23.3,7,5,7,1,2026-04-29T03:31:17.743787+05:30
Alappuzha,Kerala,9.4981,76.3388,25.4,97,0.0,1006.6,7.0,28.8,67,26.1,23.2,7,5,4,1,2026-04-29T03:31:17.743793+05:30
Munnar,Kerala,10.0889,77.0595,17.7,81,0.0,854.2,8.15,27.4,74,24.3,22.5,3,10,7,0,2026-04-29T03:31:17.743800+05:30
Silchar,Assam,24.8333,92.7789,21.8,95,0.1,1003.9,4.15,33.8,67,16.7,13.6,6,5,0,1,2026-04-29T03:31:17.743806+05:30
Dibrugarh,Assam,27.4728,94.912,21.1,98,0.0,995.8,5.5,26.6,103,44.0,38.0,3,5,3,1,2026-04-29T03:31:17.743812+05:30
