city,state,latitude,longitude,temp,humidity,rain,pressure,uv_index,wind_gusts,aqi,pm10,pm2_5,mosquito_risk,arthritis_risk,migraine_risk,frizz_risk,updated_at
Delhi,Delhi,28.6139,77.209,28.8,39,0.0,979.6,7.4,27.7,177,218.9,59.3,4,5,7,0,2026-04-24T04:20:35.323789+05:30
Mumbai,Maharashtra,19.076,72.8777,28.9,81,0.0,1005.9,8.05,24.5,82,27.9,15.7,7,5,4,1,2026-04-24T04:20:35.323828+05:30
Bangalore,Karnataka,12.9716,77.5946,23.9,68,0.0,909.3,9.6,34.9,78,32.9,30.3,3,5,7,1,2026-04-24T04:20:35.323843+05:30
Hyderabad,Telangana,17.385,78.4867,25.8,67,0.0,950.9,9.3,40.3,124,51.3,44.5,7,5,7,1,2026-04-24T04:20:35.323853+05:30
Chennai,Tamil Nadu,13.0827,80.2707,28.0,87,0.0,1004.5,8.9,33.5,30,10.8,7.4,7,5,4,1,2026-04-24T04:20:35.323862+05:30
Kolkata,West Bengal,22.5726,88.3639,27.8,93,0.0,1003.9,8.9,25.2,97,29.3,25.6,7,5,4,1,2026-04-24T04:20:35.323873+05:30
Pune,Maharashtra,18.5204,73.8567,25.3,78,0.0,946.5,8.6,28.1,108,64.5,57.7,7,5,7,1,2026-04-24T04:20:35.323882+05:30
Ahmedabad,Gujarat,23.0225,72.5714,26.8,60,0.0,1000.3,8.2,23.4,51,7.7,5.2,4,5,4,1,2026-04-24T04:20:35.323889+05:30
Jaipur,Rajasthan,26.9124,75.7873,28.7,30,0.0,957.9,8.05,29.9,78,96.6,18.9,4,5,7,0,2026-04-24T04:20:35.323898+05:30
Lucknow,Uttar Pradesh,26.8467,80.9462,25.8,48,0.0,990.3,7.9,19.8,180,192.8,41.0,4,5,7,0,2026-04-24T04:20:35.323906+05:30
Kanpur,Uttar Pradesh,26.4499,80.3319,24.6,59,0.0,988.5,7.95,18.4,278,222.6,42.4,0,5,7,1,2026-04-24T04:20:35.323913+05:30
Chandigarh,Chandigarh,30.7333,76.7794,25.6,50,0.0,965.3,7.35,28.8,69,24.6,20.1,4,5,7,0,2026-04-24T04:20:35.323923+05:30
Srinagar,Jammu and Kashmir,34.0837,74.7973,11.5,80,0.0,839.9,8.6,29.5,74,49.1,35.5,3,5,7,0,2026-04-24T04:20:35.323930+05:30
Jammu,Jammu and Kashmir,32.7266,74.857,24.3,61,0.0,969.6,8.2,36.7,70,24.0,19.2,3,5,7,1,2026-04-24T04:20:35.323937+05:30
Amritsar,Punjab,31.634,74.8723,24.9,66,0.0,977.5,8.1,38.5,92,44.1,31.0,3,5,7,1,2026-04-24T04:20:35.323944+05:30
Ludhiana,Punjab,30.901,75.8573,26.1,63,0.0,975.6,7.6,35.3,86,33.2,29.0,7,5,7,1,2026-04-24T04:20:35.323953+05:30
Jalandhar,Punjab,31.326,75.5762,25.3,67,0.0,976.5,7.85,30.6,88,45.3,37.3,7,5,7,1,2026-04-24T04:20:35.323960+05:30
Dehradun,Uttarakhand,30.6284,78.0322,18.0,52,0.0,830.1,7.85,45.4,53,13.5,11.8,0,5,7,0,2026-04-24T04:20:35.323967+05:30
Shimla,Himachal Pradesh,31.1048,77.1734,16.0,60,0.0,784.3,7.95,49.0,55,25.8,18.0,0,5,7,0,2026-04-24T04:20:35.323974+05:30
Manali,Himachal Pradesh,32.2396,77.1887,18.2,51,0.0,821.9,9.3,33.5,53,24.1,16.3,0,5,7,0,2026-04-24T04:20:35.323981+05:30
Gurgaon,Haryana,28.4595,77.0266,23.7,60,0.0,977.8,7.55,23.0,678,504.8,76.8,0,5,7,0,2026-04-24T04:20:35.323987+05:30
Noida,Uttar Pradesh,28.5355,77.391,28.2,43,0.0,981.0,7.45,27.4,678,504.8,76.8,4,5,7,0,2026-04-24T04:20:35.323994+05:30
Ghaziabad,Uttar Pradesh,28.6692,77.4538,27.7,47,0.0,979.4,7.4,27.0,169,256.1,70.8,4,5,7,0,2026-04-24T04:20:35.324000+05:30
Faridabad,Haryana,28.4089,77.3178,28.5,35,0.0,980.1,7.5,25.9,678,504.8,76.8,4,5,7,0,2026-04-24T04:20:35.324006+05:30
Meerut,Uttar Pradesh,28.9845,77.7064,25.2,59,0.0,978.3,7.35,25.6,169,256.1,70.8,4,5,7,1,2026-04-24T04:20:35.324013+05:30
Agra,Uttar Pradesh,27.1767,78.0081,23.6,57,0.0,984.7,7.8,28.1,573,825.2,80.3,0,5,7,0,2026-04-24T04:20:35.324021+05:30
Varanasi,Uttar Pradesh,25.3176,82.9739,24.0,54,0.0,994.6,8.5,22.0,138,245.9,66.1,0,5,7,0,2026-04-24T04:20:35.324027+05:30
Prayagraj,Uttar Pradesh,25.4358,81.8463,26.5,47,0.0,993.3,8.35,19.8,145,255.2,65.4,4,5,7,0,2026-04-24T04:20:35.324035+05:30
Gorakhpur,Uttar Pradesh,26.7606,83.3732,24.2,78,0.0,993.9,8.3,24.5,120,164.8,45.3,3,5,7,1,2026-04-24T04:20:35.324042+05:30
Bareilly,Uttar Pradesh,28.367,79.4304,24.9,60,0.0,983.5,7.7,22.3,120,156.9,46.4,0,5,7,1,2026-04-24T04:20:35.324048+05:30
Aligarh,Uttar Pradesh,27.8974,78.088,23.9,53,0.0,982.0,7.6,25.6,458,323.2,51.5,0,5,7,0,2026-04-24T04:20:35.324054+05:30
Moradabad,Uttar Pradesh,28.8386,78.7733,25.1,61,0.0,980.3,7.5,33.5,140,217.9,79.9,7,5,7,1,2026-04-24T04:20:35.324060+05:30
Saharanpur,Uttar Pradesh,29.9637,77.546,22.8,72,0.0,972.3,7.15,25.9,103,46.7,43.1,3,5,7,1,2026-04-24T04:20:35.324068+05:30
Jhansi,Uttar Pradesh,25.4484,78.5685,26.7,35,0.0,975.5,8.3,31.0,43,13.6,13.2,4,5,7,0,2026-04-24T04:20:38.573036+05:30
Surat,Gujarat,21.1702,72.8311,28.3,83,0.0,1004.7,7.9,21.2,101,33.4,25.7,7,5,4,1,2026-04-24T04:20:38.573065+05:30
Vadodara,Gujarat,22.3072,73.1812,28.1,59,0.0,1002.7,8.2,23.8,77,37.5,29.0,4,5,4,1,2026-04-24T04:20:38.573076+05:30
Rajkot,Gujarat,22.3039,70.8022,24.1,93,0.0,993.6,7.9,32.0,34,7.0,4.8,3,5,7,1,2026-04-24T04:20:38.573085+05:30
Thane,Maharashtra,19.2183,72.9781,27.1,85,0.0,1005.4,8.05,37.8,82,27.9,15.7,7,5,4,1,2026-04-24T04:20:38.573093+05:30
Nagpur,Maharashtra,21.1458,79.0882,27.6,62,0.0,970.6,8.95,32.4,107,61.7,58.4,7,5,7,1,2026-04-24T04:20:38.573101+05:30
Nashik,Maharashtra,19.9975,73.7898,26.2,58,0.0,944.1,8.35,36.7,81,32.4,28.1,4,5,7,1,2026-04-24T04:20:38.573109+05:30
Aurangabad,Maharashtra,19.8762,75.3433,27.9,45,0.0,943.2,9.05,33.1,85,38.8,33.9,4,5,7,0,2026-04-24T04:20:38.573117+05:30
Solapur,Maharashtra,17.6599,75.9064,26.1,67,0.0,955.0,9.1,31.7,102,45.3,42.0,7,5,7,1,2026-04-24T04:20:38.573125+05:30
Kolhapur,Maharashtra,16.705,74.2433,23.7,87,0.0,945.2,9.0,46.4,131,71.5,68.7,3,5,7,1,2026-04-24T04:20:38.573132+05:30
Goa,Goa,15.2993,74.124,28.1,92,0.0,994.4,9.0,28.4,82,41.7,33.2,7,5,7,1,2026-04-24T04:20:38.573140+05:30
Jodhpur,Rajasthan,26.2389,73.0243,29.5,47,0.0,980.4,8.25,29.5,54,78.0,14.2,4,5,7,1,2026-04-24T04:20:38.573148+05:30
Udaipur,Rajasthan,24.5854,73.7125,24.8,52,0.0,945.3,8.8,33.1,44,36.7,12.3,0,5,7,0,2026-04-24T04:20:38.573155+05:30
Kota,Rajasthan,25.2138,75.8648,26.3,41,0.0,976.5,8.3,22.0,53,19.9,11.3,4,5,7,0,2026-04-24T04:20:38.573163+05:30
Bikaner,Rajasthan,28.0229,73.3119,32.0,37,0.0,978.6,8.0,30.6,63,25.2,8.6,0,5,7,0,2026-04-24T04:20:38.573171+05:30
Ajmer,Rajasthan,26.4499,74.6399,25.8,50,0.0,952.8,8.25,31.3,37,16.0,7.8,4,5,7,0,2026-04-24T04:20:38.573178+05:30
Gwalior,Madhya Pradesh,26.2183,78.1828,27.8,43,0.0,980.6,8.05,27.4,37,10.1,5.2,4,5,7,0,2026-04-24T04:20:38.573186+05:30
Indore,Madhya Pradesh,22.7196,75.8577,25.7,42,0.0,946.4,8.65,29.5,62,20.3,11.6,4,5,7,0,2026-04-24T04:20:38.573194+05:30
Bhopal,Madhya Pradesh,23.2599,77.4126,26.6,39,0.0,951.9,8.65,22.7,67,14.2,10.5,4,5,7,0,2026-04-24T04:20:38.573201+05:30
Jabalpur,Madhya Pradesh,23.1815,79.9864,27.6,43,0.0,958.9,8.8,22.7,68,27.6,24.9,4,5,7,0,2026-04-24T04:20:38.573208+05:30
Ujjain,Madhya Pradesh,23.1765,75.7885,26.5,35,0.0,952.2,8.55,29.5,62,28.8,15.1,4,5,7,0,2026-04-24T04:20:38.573216+05:30
Visakhapatnam,Andhra Pradesh,17.6868,83.2185,26.8,88,0.0,1000.6,9.15,40.0,64,20.1,16.6,7,5,4,1,2026-04-24T04:20:38.573224+05:30
Vijayawada,Andhra Pradesh,16.5062,80.648,26.4,94,0.0,1000.1,9.2,29.2,53,13.2,11.0,7,5,4,1,2026-04-24T04:20:38.573231+05:30
Guntur,Andhra Pradesh,16.3067,80.4365,26.5,93,0.0,1001.2,9.25,30.2,55,12.1,10.0,7,5,4,1,2026-04-24T04:20:38.573238+05:30
Nellore,Andhra Pradesh,14.4426,79.9865,26.6,90,0.0,1003.0,9.3,35.6,41,9.3,7.3,7,5,4,1,2026-04-24T04:20:38.573246+05:30
Kurnool,Andhra Pradesh,15.8281,78.0373,29.9,56,0.0,974.2,9.25,26.3,91,28.3,22.8,4,5,7,1,2026-04-24T04:20:38.573254+05:30
Kakinada,Andhra Pradesh,16.9891,82.2475,26.5,93,0.0,1004.8,9.25,32.8,43,13.4,9.4,7,5,4,1,2026-04-24T04:20:38.573262+05:30
Tirupati,Andhra Pradesh,13.6288,79.4192,25.1,86,0.0,989.3,9.35,34.2,55,13.9,12.2,7,5,7,1,2026-04-24T04:20:38.573269+05:30
Warangal,Telangana,17.9689,79.5941,27.5,64,0.0,976.0,9.2,19.1,119,31.1,28.6,7,5,7,1,2026-04-24T04:20:38.573277+05:30
Nizamabad,Telangana,18.6725,78.0941,27.9,61,0.0,962.9,9.05,42.1,116,49.2,45.3,7,5,7,1,2026-04-24T04:20:38.573284+05:30
Mysore,Karnataka,12.2958,76.6396,23.8,89,0.0,926.3,9.5,40.3,92,44.7,41.0,3,5,7,1,2026-04-24T04:20:38.573292+05:30
Mangalore,Karnataka,12.9141,74.856,29.4,81,0.0,1003.8,9.1,32.4,83,28.7,22.1,7,5,4,1,2026-04-24T04:20:38.573299+05:30
Hubli-Dharwad,Karnataka,15.3647,75.124,23.6,75,0.0,938.2,9.2,50.0,93,40.2,37.4,3,5,7,1,2026-04-24T04:20:38.573307+05:30
Belgaum,Karnataka,15.8497,74.4977,23.4,85,0.0,922.9,9.25,41.0,99,44.0,39.9,3,5,7,1,2026-04-24T04:20:41.819433+05:30
Coimbatore,Tamil Nadu,11.0168,76.9558,24.4,91,0.0,959.4,9.45,34.6,93,48.3,44.2,3,5,7,1,2026-04-24T04:20:41.819470+05:30
Madurai,Tamil Nadu,9.9252,78.1198,27.1,90,0.0,990.5,9.3,29.5,51,18.4,17.3,7,5,7,1,2026-04-24T04:20:41.819481+05:30
Trichy,Tamil Nadu,10.7905,78.7047,27.6,91,0.0,997.4,9.15,24.1,46,18.1,16.2,7,5,7,1,2026-04-24T04:20:41.819490+05:30
Salem,Tamil Nadu,11.6643,78.146,25.9,89,0.0,975.0,9.4,27.7,62,21.2,19.8,7,5,7,1,2026-04-24T04:20:41.819498+05:30
Tirunelveli,Tamil Nadu,8.7139,77.7567,26.4,83,0.0,1000.5,9.25,41.8,70,31.1,28.9,7,5,4,1,2026-04-24T04:20:41.819506+05:30
Vellore,Tamil Nadu,12.9165,79.1325,24.4,91,0.0,982.3,9.4,31.3,73,29.3,26.8,3,5,7,1,2026-04-24T04:20:41.819514+05:30
Erode,Tamil Nadu,11.341,77.7172,27.6,82,0.0,986.7,9.35,27.7,48,9.8,9.1,7,5,7,1,2026-04-24T04:20:41.819522+05:30
Kochi,Kerala,9.9312,76.2673,28.8,81,0.0,1005.7,9.05,32.4,79,28.2,26.5,7,5,4,1,2026-04-24T04:20:41.819529+05:30
Thiruvananthapuram,Kerala,8.5241,76.9366,28.5,84,0.0,1004.9,9.05,24.8,65,25.4,21.4,7,5,4,1,2026-04-24T04:20:41.819536+05:30
Kozhikode,Kerala,11.2588,75.7804,28.8,83,0.0,1005.0,9.1,33.1,87,37.7,29.3,7,5,4,1,2026-04-24T04:20:41.819543+05:30
Thrissur,Kerala,10.5276,76.2144,27.9,88,0.0,1004.2,9.1,36.7,84,35.5,32.1,7,5,4,1,2026-04-24T04:20:41.819551+05:30
Kannur,Kerala,11.8745,75.3704,29.1,81,0.0,1004.2,9.1,31.0,89,32.6,26.7,7,5,4,1,2026-04-24T04:20:41.819559+05:30
Patna,Bihar,25.5941,85.1376,26.8,88,0.0,997.8,8.6,25.2,155,102.7,76.1,7,5,7,1,2026-04-24T04:20:41.819566+05:30
Gaya,Bihar,24.7914,85.0002,26.1,55,0.0,990.9,8.7,18.7,140,189.1,71.0,4,5,7,1,2026-04-24T04:20:41.819573+05:30
Muzaffarpur,Bihar,26.1209,85.3647,26.0,91,0.0,998.1,8.6,32.4,153,83.1,68.2,7,5,7,1,2026-04-24T04:20:41.819580+05:30
Bhagalpur,Bihar,25.2425,87.0117,27.0,94,0.0,998.9,8.6,22.0,153,75.9,60.8,7,5,7,1,2026-04-24T04:20:41.819587+05:30
Ranchi,Jharkhand,23.3441,85.3096,24.2,42,0.0,936.3,9.2,25.6,98,217.5,56.0,0,5,7,0,2026-04-24T04:20:41.819594+05:30
Jamshedpur,Jharkhand,22.8046,86.2029,27.5,91,0.0,988.7,9.0,32.4,152,100.1,73.6,7,5,7,1,2026-04-24T04:20:41.819601+05:30
Dhanbad,Jharkhand,23.7957,86.4304,28.6,82,0.0,977.9,8.95,35.6,161,190.5,111.3,7,5,7,1,2026-04-24T04:20:41.819629+05:30
Bokaro,Jharkhand,23.6693,86.1511,26.2,74,0.0,982.1,8.95,24.1,157,236.1,106.9,7,5,7,1,2026-04-24T04:20:41.819637+05:30
Bhubaneswar,Odisha,20.2961,85.8245,26.4,94,0.0,999.5,9.15,34.6,91,26.9,22.8,7,5,7,1,2026-04-24T04:20:41.819644+05:30
Cuttack,Odisha,20.4625,85.8828,27.0,90,0.0,1001.4,9.15,34.9,91,26.9,22.8,7,5,4,1,2026-04-24T04:20:41.819651+05:30
Rourkela,Odisha,22.2604,84.8536,26.0,71,0.0,982.3,8.65,30.2,112,102.7,51.9,7,5,7,1,2026-04-24T04:20:41.819658+05:30
Raipur,Chhattisgarh,21.2514,81.6296,28.8,45,0.0,971.7,9.0,24.5,105,51.9,49.1,4,5,7,0,2026-04-24T04:20:41.819665+05:30
Bhilai,Chhattisgarh,21.1938,81.3509,27.4,50,0.0,972.0,9.0,21.2,109,56.2,53.2,4,5,7,1,2026-04-24T04:20:41.819672+05:30
Guwahati,Assam,26.1158,91.7086,26.7,87,0.0,1001.2,8.55,23.4,132,75.9,56.2,7,5,4,1,2026-04-24T04:20:41.819679+05:30
Agartala,Tripura,23.8315,91.2868,27.0,95,0.0,1005.2,8.75,25.9,107,47.1,41.2,7,5,4,1,2026-04-24T04:20:41.819686+05:30
Shillong,Meghalaya,25.5788,91.8933,12.9,87,0.0,854.8,6.35,27.0,117,65.7,45.6,3,10,7,0,2026-04-24T04:20:41.819693+05:30
Imphal,Manipur,24.817,93.9368,18.8,89,0.0,923.1,9.1,35.3,146,123.9,79.9,3,10,7,1,2026-04-24T04:20:41.819700+05:30
Aizawl,Mizoram,23.7271,92.7176,20.2,81,0.0,892.0,8.45,37.1,125,92.7,47.1,3,5,7,1,2026-04-24T04:20:41.819707+05:30
Kohima,Nagaland,25.6701,94.1077,16.9,92,0.0,855.0,9.05,38.9,117,78.9,56.3,3,10,7,0,2026-04-24T04:20:41.819714+05:30
Gangtok,Sikkim,27.3314,88.6138,17.2,97,0.0,837.8,8.85,24.5,104,36.4,28.1,3,10,7,1,2026-04-24T04:20:41.819721+05:30
Siliguri,West Bengal,26.7271,88.3953,22.9,84,0.0,993.7,8.4,19.1,151,99.2,79.4,3,5,7,1,2026-04-24T04:20:45.070926+05:30
Durgapur,West Bengal,23.5204,87.3119,27.8,89,0.0,993.0,8.9,37.4,156,53.3,50.3,7,5,7,1,2026-04-24T04:20:45.070958+05:30
Asansol,West Bengal,23.6739,86.9524,28.7,83,0.0,991.4,8.9,39.6,154,85.4,65.2,7,5,7,1,2026-04-24T04:20:45.070970+05:30
Pondicherry,Puducherry,11.9139,79.8145,26.9,95,0.0,1006.0,8.6,29.5,25,8.6,5.5,7,5,4,1,2026-04-24T04:20:45.070979+05:30
Port Blair,Andaman and Nicobar Islands,11.6234,92.7265,29.5,72,0.0,1004.4,9.15,23.8,31,7.3,3.6,7,5,4,1,2026-04-24T04:20:45.070988+05:30
Haridwar,Uttarakhand,29.9457,78.1642,23.3,66,0.0,971.3,7.25,33.8,83,31.8,29.7,3,5,7,1,2026-04-24T04:20:45.070996+05:30
Rishikesh,Uttarakhand,30.0869,78.2676,23.8,59,0.0,964.5,7.35,37.8,77,28.0,26.3,0,5,7,0,2026-04-24T04:20:45.071004+05:30
Nainital,Uttarakhand,29.3919,79.4542,23.4,39,0.0,806.8,8.2,46.1,96,27.1,22.2,0,5,7,0,2026-04-24T04:20:45.071013+05:30
Mussoorie,Uttarakhand,30.4599,78.0664,21.1,43,0.0,803.5,7.75,49.3,72,23.7,23.0,0,5,7,0,2026-04-24T04:20:45.071021+05:30
Dharamshala,Himachal Pradesh,32.219,76.3234,25.3,31,0.0,869.2,8.05,33.8,43,15.3,9.6,4,5,7,0,2026-04-24T04:20:45.071029+05:30
Dalhousie,Himachal Pradesh,32.5387,75.971,21.3,30,0.0,804.1,8.3,35.3,60,19.8,17.2,0,5,7,0,2026-04-24T04:20:45.071038+05:30
Patiala,Punjab,30.3398,76.3869,24.1,67,0.0,974.9,7.35,24.8,157,183.5,48.8,3,5,7,1,2026-04-24T04:20:45.071046+05:30
Bhatinda,Punjab,30.211,74.9455,26.8,52,0.0,980.5,8.0,27.7,80,39.8,27.6,4,5,7,1,2026-04-24T04:20:45.071053+05:30
Rohtak,Haryana,28.8955,76.6066,25.2,64,0.0,978.3,7.45,25.9,202,266.4,56.3,7,5,7,1,2026-04-24T04:20:45.071061+05:30
Panipat,Haryana,29.3909,76.9635,25.5,62,0.0,977.0,7.3,26.6,532,446.1,90.6,7,5,7,1,2026-04-24T04:20:45.071069+05:30
Mathura,Uttar Pradesh,27.4924,77.6737,23.2,62,0.0,983.4,7.7,26.3,441,406.1,46.3,3,5,7,0,2026-04-24T04:20:45.071077+05:30
Vrindavan,Uttar Pradesh,27.5823,77.7027,23.1,62,0.0,983.8,7.7,22.0,441,406.1,46.3,3,5,7,0,2026-04-24T04:20:45.071085+05:30
Ayodhya,Uttar Pradesh,26.7922,82.1998,24.3,52,0.0,992.2,8.05,20.2,137,260.8,51.5,0,5,7,0,2026-04-24T04:20:45.071093+05:30
Ratlam,Madhya Pradesh,23.3315,75.0367,26.9,39,0.0,952.9,8.5,25.9,62,33.5,17.8,4,5,7,0,2026-04-24T04:20:45.071100+05:30
Sagar,Madhya Pradesh,23.8388,78.7378,28.4,37,0.0,948.7,8.65,27.7,55,20.1,19.4,4,5,7,0,2026-04-24T04:20:45.071109+05:30
Satna,Madhya Pradesh,24.6005,80.8322,26.6,41,0.0,969.3,8.65,20.9,66,28.3,27.6,4,5,7,0,2026-04-24T04:20:45.071117+05:30
Akola,Maharashtra,20.7002,77.0082,28.9,48,0.0,973.2,8.9,28.8,87,28.9,25.4,4,5,7,1,2026-04-24T04:20:45.071125+05:30
Amravati,Maharashtra,20.9374,77.7796,27.5,53,0.0,965.1,8.9,23.0,86,31.9,28.2,4,5,7,1,2026-04-24T04:20:45.071134+05:30
Latur,Maharashtra,18.4088,76.5604,24.7,64,0.0,938.2,9.1,34.6,101,42.4,39.0,3,5,7,1,2026-04-24T04:20:45.071142+05:30
Nanded,Maharashtra,19.1383,77.3091,27.1,58,0.0,966.5,9.05,34.6,116,43.0,40.0,4,5,7,1,2026-04-24T04:20:45.071150+05:30
Gulbarga,Karnataka,17.3297,76.8343,27.0,60,0.0,956.2,9.15,32.4,116,56.7,49.6,4,5,7,1,2026-04-24T04:20:45.071158+05:30
Bidar,Karnataka,17.9104,77.5199,26.9,60,0.0,933.5,8.5,37.8,114,51.1,46.1,4,5,7,1,2026-04-24T04:20:45.071166+05:30
Hospet,Karnataka,15.2689,76.3909,26.7,68,0.0,953.5,9.25,60.8,101,44.7,41.4,7,5,7,1,2026-04-24T04:20:45.071173+05:30
Tirupur,Tamil Nadu,11.1085,77.3411,26.5,86,0.0,972.9,9.45,32.8,67,24.3,21.5,7,5,7,1,2026-04-24T04:20:45.071181+05:30
Alappuzha,Kerala,9.4981,76.3388,28.1,83,0.0,1005.9,9.0,27.0,78,28.5,25.4,7,5,4,1,2026-04-24T04:20:45.071189+05:30
Munnar,Kerala,10.0889,77.0595,20.4,82,0.0,854.0,9.65,25.6,70,28.1,26.4,3,5,7,1,2026-04-24T04:20:45.071197+05:30
Silchar,Assam,24.8333,92.7789,25.1,86,0.0,1004.1,8.75,22.0,154,115.9,76.1,7,5,4,1,2026-04-24T04:20:45.071205+05:30
Dibrugarh,Assam,27.4728,94.912,25.7,82,0.0,995.1,8.65,11.9,77,30.9,28.2,7,5,7,1,2026-04-24T04:20:45.071213+05:30
