city,state,latitude,longitude,temp,humidity,rain,pressure,uv_index,wind_gusts,aqi,pm10,pm2_5,no2,co,o3,so2,mosquito_risk,arthritis_risk,migraine_risk,frizz_risk,updated_at
Delhi,Delhi,28.6139,77.209,28.3,85,0.0,976.3,5.65,28.1,88,19.8,19.8,23.2,729.0,115.0,21.4,7,5,3,1,2026-07-21T19:27:09.980378+05:30
Mumbai,Maharashtra,19.076,72.8777,25.8,91,0.3,1005.3,7.15,55.4,63,32.4,14.6,9.8,302.0,43.0,5.3,10,5,4,1,2026-07-21T19:27:09.980436+05:30
Bangalore,Karnataka,12.9716,77.5946,25.0,65,0.0,911.4,8.4,47.2,40,12.9,8.5,12.6,413.0,54.0,3.5,7,5,7,1,2026-07-21T19:27:09.980452+05:30
Hyderabad,Telangana,17.385,78.4867,24.0,88,0.2,951.3,3.95,40.7,44,26.4,14.8,13.2,392.0,55.0,4.5,6,5,3,1,2026-07-21T19:27:09.980463+05:30
Chennai,Tamil Nadu,13.0827,80.2707,29.5,77,0.0,1005.7,7.75,31.0,104,34.7,23.9,9.8,342.0,118.0,6.7,7,5,4,1,2026-07-21T19:27:09.980473+05:30
Kolkata,West Bengal,22.5726,88.3639,26.5,95,0.0,1001.2,5.65,29.5,59,14.7,14.2,13.1,615.0,65.0,8.0,7,5,0,1,2026-07-21T19:27:09.980483+05:30
Pune,Maharashtra,18.5204,73.8567,22.6,94,0.2,944.6,2.7,55.8,26,8.1,5.2,8.4,194.0,37.0,3.9,6,5,3,1,2026-07-21T19:27:09.980491+05:30
Ahmedabad,Gujarat,23.0225,72.5714,29.8,72,0.0,994.8,4.9,33.5,65,37.3,19.7,8.3,230.0,65.0,4.8,7,5,3,1,2026-07-21T19:27:09.980498+05:30
Jaipur,Rajasthan,26.9124,75.7873,27.8,82,0.0,952.7,1.1,36.0,61,30.5,15.1,12.9,344.0,74.0,4.6,7,5,3,1,2026-07-21T19:27:09.980506+05:30
Lucknow,Uttar Pradesh,26.8467,80.9462,26.7,93,0.2,988.2,6.05,42.1,82,29.8,29.6,9.5,420.0,123.0,11.1,10,5,7,1,2026-07-21T19:27:09.980523+05:30
Kanpur,Uttar Pradesh,26.4499,80.3319,28.2,84,0.0,985.8,7.35,32.8,72,18.8,18.7,10.3,271.0,112.0,8.5,7,5,7,1,2026-07-21T19:27:09.980532+05:30
Chandigarh,Chandigarh,30.7333,76.7794,28.4,84,0.0,963.3,6.0,33.1,66,20.6,20.5,20.5,587.0,112.0,7.7,7,5,3,1,2026-07-21T19:27:09.980540+05:30
Srinagar,Jammu and Kashmir,34.0837,74.7973,18.8,98,0.2,839.1,7.0,22.7,56,11.6,11.4,19.5,782.0,70.0,3.5,6,10,7,1,2026-07-21T19:27:09.980548+05:30
Jammu,Jammu and Kashmir,32.7266,74.857,24.5,94,0.2,967.2,5.8,32.4,93,20.8,15.6,20.2,372.0,83.0,4.6,6,5,3,1,2026-07-21T19:27:09.980556+05:30
Amritsar,Punjab,31.634,74.8723,27.0,92,0.0,974.5,8.25,42.5,100,20.3,19.5,14.4,506.0,96.0,4.6,7,5,7,1,2026-07-21T19:27:09.980565+05:30
Ludhiana,Punjab,30.901,75.8573,29.5,80,0.0,972.5,3.2,40.3,83,21.3,21.2,14.6,488.0,119.0,8.3,7,5,3,1,2026-07-21T19:27:09.980572+05:30
Jalandhar,Punjab,31.326,75.5762,28.9,84,0.0,973.6,6.1,36.0,106,18.7,18.7,14.1,513.0,114.0,8.5,7,5,7,1,2026-07-21T19:27:09.980580+05:30
Dehradun,Uttarakhand,30.6284,78.0322,19.9,100,0.0,828.0,3.65,25.2,64,3.9,3.8,7.7,253.0,109.0,1.1,3,10,3,1,2026-07-21T19:27:09.980588+05:30
Shimla,Himachal Pradesh,31.1048,77.1734,17.0,95,0.0,782.2,6.1,21.2,49,3.5,3.4,8.7,386.0,99.0,1.2,3,10,7,1,2026-07-21T19:27:09.980596+05:30
Manali,Himachal Pradesh,32.2396,77.1887,22.0,86,0.0,817.7,5.8,25.9,51,1.2,1.1,12.6,222.0,86.0,0.7,3,5,3,1,2026-07-21T19:27:09.980606+05:30
Gurgaon,Haryana,28.4595,77.0266,28.1,87,0.0,974.6,5.9,28.4,86,17.5,17.3,20.8,919.0,114.0,14.8,7,5,3,1,2026-07-21T19:27:09.980614+05:30
Noida,Uttar Pradesh,28.5355,77.391,28.5,82,0.0,977.8,6.25,34.2,86,17.5,17.3,20.8,523.0,114.0,14.8,7,5,7,1,2026-07-21T19:27:09.980622+05:30
Ghaziabad,Uttar Pradesh,28.6692,77.4538,28.5,84,0.0,976.3,2.9,34.9,73,15.0,15.0,8.8,271.0,113.0,8.0,7,5,3,1,2026-07-21T19:27:09.980631+05:30
Faridabad,Haryana,28.4089,77.3178,28.3,83,0.0,977.1,6.7,33.8,86,17.5,17.3,20.8,475.0,114.0,14.8,7,5,7,1,2026-07-21T19:27:09.980639+05:30
Meerut,Uttar Pradesh,28.9845,77.7064,28.6,81,0.0,975.4,6.45,44.3,73,15.0,15.0,8.8,341.0,113.0,8.0,7,5,7,1,2026-07-21T19:27:09.980646+05:30
Agra,Uttar Pradesh,27.1767,78.0081,28.2,86,0.1,980.8,6.95,24.1,71,23.4,18.3,11.7,359.0,104.0,5.4,10,5,7,1,2026-07-21T19:27:09.980653+05:30
Varanasi,Uttar Pradesh,25.3176,82.9739,27.4,90,0.0,992.4,8.6,40.7,96,25.6,25.2,10.0,505.0,108.0,12.7,7,5,7,1,2026-07-21T19:27:09.980660+05:30
Prayagraj,Uttar Pradesh,25.4358,81.8463,27.5,94,0.0,990.3,7.7,35.6,118,31.2,30.6,9.7,276.0,127.0,13.0,7,5,7,1,2026-07-21T19:27:09.980668+05:30
Gorakhpur,Uttar Pradesh,26.7606,83.3732,28.4,86,0.0,993.0,7.55,41.4,70,23.4,23.1,8.8,302.0,95.0,5.2,7,5,7,1,2026-07-21T19:27:09.980675+05:30
Bareilly,Uttar Pradesh,28.367,79.4304,28.3,91,0.0,981.1,4.5,50.8,59,15.3,15.3,8.4,362.0,103.0,8.2,7,5,3,1,2026-07-21T19:27:09.980684+05:30
Aligarh,Uttar Pradesh,27.8974,78.088,27.4,91,0.0,978.9,7.05,33.8,75,12.4,12.3,11.0,228.0,98.0,6.0,7,5,7,1,2026-07-21T19:27:09.980691+05:30
Moradabad,Uttar Pradesh,28.8386,78.7733,27.9,87,0.1,978.0,6.15,52.2,61,13.9,13.9,9.0,340.0,94.0,6.1,10,5,7,1,2026-07-21T19:27:09.980698+05:30
Saharanpur,Uttar Pradesh,29.9637,77.546,29.0,81,0.0,970.0,6.35,46.1,91,14.3,14.3,7.4,401.0,98.0,4.3,7,5,7,1,2026-07-21T19:27:09.980705+05:30
Jhansi,Uttar Pradesh,25.4484,78.5685,28.6,84,0.2,971.0,5.5,16.9,83,29.6,19.7,6.5,178.0,121.0,11.8,10,5,3,1,2026-07-21T19:27:13.257789+05:30
Surat,Gujarat,21.1702,72.8311,26.5,93,0.3,1000.9,4.35,50.4,70,29.0,20.0,26.6,329.0,24.0,40.6,10,5,0,1,2026-07-21T19:27:13.257822+05:30
Vadodara,Gujarat,22.3072,73.1812,27.1,88,0.0,997.7,4.95,34.2,61,21.4,14.3,17.6,256.0,38.0,6.2,7,5,3,1,2026-07-21T19:27:13.257833+05:30
Rajkot,Gujarat,22.3039,70.8022,26.9,92,0.1,987.3,5.25,41.8,61,23.6,12.8,5.5,115.0,57.0,4.5,10,5,3,1,2026-07-21T19:27:13.257843+05:30
Thane,Maharashtra,19.2183,72.9781,25.7,95,0.2,1004.5,6.25,45.0,63,32.4,14.6,9.8,313.0,43.0,5.3,10,5,4,1,2026-07-21T19:27:13.257852+05:30
Nagpur,Maharashtra,21.1458,79.0882,24.7,96,0.4,968.5,1.0,33.8,53,7.3,6.9,14.6,225.0,36.0,9.5,6,5,3,1,2026-07-21T19:27:13.257860+05:30
Nashik,Maharashtra,19.9975,73.7898,22.9,95,0.1,940.6,1.6,58.0,24,2.8,2.1,8.5,162.0,39.0,2.0,6,5,3,1,2026-07-21T19:27:13.257869+05:30
Aurangabad,Maharashtra,19.8762,75.3433,23.6,95,0.1,939.7,2.85,50.4,29,8.2,5.6,7.1,155.0,53.0,4.3,6,5,3,1,2026-07-21T19:27:13.257876+05:30
Solapur,Maharashtra,17.6599,75.9064,24.7,90,0.1,955.0,4.6,52.2,32,12.3,7.2,4.2,138.0,50.0,1.8,6,5,3,1,2026-07-21T19:27:13.257884+05:30
Kolhapur,Maharashtra,16.705,74.2433,21.5,96,0.1,946.2,6.4,54.4,30,8.2,5.4,6.3,143.0,36.0,1.9,6,5,7,1,2026-07-21T19:27:13.257891+05:30
Goa,Goa,15.2993,74.124,23.8,99,0.2,998.7,7.35,36.7,58,24.9,12.2,3.2,212.0,45.0,1.1,6,5,7,1,2026-07-21T19:27:13.257899+05:30
Jodhpur,Rajasthan,26.2389,73.0243,33.5,50,0.0,975.0,7.15,35.6,88,61.2,23.2,6.3,123.0,79.0,2.1,0,5,7,1,2026-07-21T19:27:13.257907+05:30
Udaipur,Rajasthan,24.5854,73.7125,25.3,95,0.1,939.5,3.3,29.5,55,18.9,11.0,5.3,132.0,66.0,3.1,10,5,3,1,2026-07-21T19:27:13.257915+05:30
Kota,Rajasthan,25.2138,75.8648,26.4,95,0.0,971.5,2.6,23.4,60,10.6,7.9,9.0,264.0,75.0,5.2,7,5,3,1,2026-07-21T19:27:13.257923+05:30
Bikaner,Rajasthan,28.0229,73.3119,29.5,81,0.1,974.5,8.0,34.6,79,94.1,30.6,2.1,126.0,85.0,3.5,10,5,7,1,2026-07-21T19:27:13.257931+05:30
Ajmer,Rajasthan,26.4499,74.6399,27.8,78,0.0,947.7,4.55,31.0,58,29.3,16.4,8.5,207.0,79.0,3.1,7,5,3,1,2026-07-21T19:27:13.257938+05:30
Gwalior,Madhya Pradesh,26.2183,78.1828,28.0,85,0.0,976.2,7.4,18.7,60,26.7,16.6,5.3,192.0,101.0,3.6,7,5,7,1,2026-07-21T19:27:13.257946+05:30
Indore,Madhya Pradesh,22.7196,75.8577,24.0,94,0.1,942.0,5.85,32.8,52,18.6,14.8,15.7,319.0,39.0,6.4,6,5,3,1,2026-07-21T19:27:13.257954+05:30
Bhopal,Madhya Pradesh,23.2599,77.4126,24.0,97,0.2,947.3,1.55,31.0,56,9.2,8.8,7.5,286.0,57.0,3.2,6,5,3,1,2026-07-21T19:27:13.257962+05:30
Jabalpur,Madhya Pradesh,23.1815,79.9864,24.8,97,0.2,955.8,5.8,20.9,50,6.1,6.1,8.8,235.0,56.0,3.4,6,5,3,1,2026-07-21T19:27:13.257970+05:30
Ujjain,Madhya Pradesh,23.1765,75.7885,24.7,93,0.2,947.3,4.2,29.9,52,17.5,13.3,8.1,251.0,51.0,5.8,6,5,3,1,2026-07-21T19:27:13.257978+05:30
Visakhapatnam,Andhra Pradesh,17.6868,83.2185,25.9,95,0.0,999.4,8.75,39.6,64,14.8,13.1,25.6,336.0,30.0,39.1,7,5,7,1,2026-07-21T19:27:13.257986+05:30
Vijayawada,Andhra Pradesh,16.5062,80.648,29.3,68,0.0,1000.4,5.0,52.2,60,31.8,20.5,11.2,203.0,50.0,6.4,7,5,0,1,2026-07-21T19:27:13.257993+05:30
Guntur,Andhra Pradesh,16.3067,80.4365,30.0,64,0.0,1001.6,4.75,50.8,57,33.2,21.1,13.4,170.0,45.0,7.1,7,5,0,1,2026-07-21T19:27:13.258001+05:30
Nellore,Andhra Pradesh,14.4426,79.9865,30.2,61,0.0,1004.3,6.8,42.5,54,32.1,19.7,8.7,174.0,85.0,5.3,3,5,4,1,2026-07-21T19:27:13.258010+05:30
Kurnool,Andhra Pradesh,15.8281,78.0373,27.4,70,0.0,975.8,4.55,50.0,45,21.1,11.3,6.3,145.0,62.0,2.5,7,5,3,1,2026-07-21T19:27:13.258019+05:30
Kakinada,Andhra Pradesh,16.9891,82.2475,29.0,74,0.0,1004.1,6.85,55.1,55,27.8,13.6,5.7,209.0,66.0,4.8,7,5,4,1,2026-07-21T19:27:13.258027+05:30
Tirupati,Andhra Pradesh,13.6288,79.4192,28.4,79,0.0,990.0,8.0,36.7,57,34.0,21.7,22.1,332.0,42.0,2.8,7,5,7,1,2026-07-21T19:27:13.258035+05:30
Warangal,Telangana,17.9689,79.5941,26.3,86,0.1,976.3,3.5,45.4,49,19.4,15.3,11.6,235.0,46.0,5.0,10,5,3,1,2026-07-21T19:27:13.258042+05:30
Nizamabad,Telangana,18.6725,78.0941,24.3,94,0.2,961.9,2.55,38.2,45,19.2,12.8,8.1,190.0,54.0,4.2,6,5,3,1,2026-07-21T19:27:13.258050+05:30
Mysore,Karnataka,12.2958,76.6396,24.6,75,0.0,928.8,8.0,48.6,30,9.6,6.0,5.9,154.0,55.0,1.8,3,5,7,1,2026-07-21T19:27:13.258058+05:30
Mangalore,Karnataka,12.9141,74.856,26.1,93,0.0,1007.7,7.85,33.5,53,16.6,10.1,7.6,166.0,37.0,2.4,7,5,4,1,2026-07-21T19:27:13.258065+05:30
Hubli-Dharwad,Karnataka,15.3647,75.124,23.2,87,0.0,940.5,5.9,58.3,25,8.6,5.5,4.3,126.0,46.0,1.1,3,5,3,1,2026-07-21T19:27:13.258072+05:30
Belgaum,Karnataka,15.8497,74.4977,21.4,98,0.3,924.8,7.75,58.3,23,8.2,4.8,4.1,119.0,41.0,1.6,6,5,7,1,2026-07-21T19:27:16.531284+05:30
Coimbatore,Tamil Nadu,11.0168,76.9558,26.2,78,0.0,961.3,8.8,52.2,39,9.3,7.0,6.1,170.0,52.0,2.8,7,5,7,1,2026-07-21T19:27:16.531314+05:30
Madurai,Tamil Nadu,9.9252,78.1198,33.8,43,0.0,991.4,8.5,33.5,57,27.7,11.9,7.8,171.0,85.0,3.3,0,5,7,1,2026-07-21T19:27:16.531325+05:30
Trichy,Tamil Nadu,10.7905,78.7047,33.7,43,0.0,998.4,8.8,47.2,48,27.8,13.3,7.5,208.0,73.0,3.1,0,5,7,1,2026-07-21T19:27:16.531335+05:30
Salem,Tamil Nadu,11.6643,78.146,31.0,62,0.0,976.3,8.2,24.1,59,30.0,15.3,8.2,244.0,78.0,5.4,3,5,7,1,2026-07-21T19:27:16.531363+05:30
Tirunelveli,Tamil Nadu,8.7139,77.7567,32.8,48,0.0,1002.4,8.65,46.1,43,13.4,10.2,3.9,130.0,61.0,1.9,0,5,4,1,2026-07-21T19:27:16.531374+05:30
Vellore,Tamil Nadu,12.9165,79.1325,27.9,87,0.1,983.5,7.8,37.1,64,46.6,27.1,17.9,249.0,64.0,4.6,10,5,7,1,2026-07-21T19:27:16.531382+05:30
Erode,Tamil Nadu,11.341,77.7172,30.6,58,0.0,988.1,8.8,37.8,53,15.6,10.2,9.6,182.0,67.0,3.0,0,5,7,1,2026-07-21T19:27:16.531390+05:30
Kochi,Kerala,9.9312,76.2673,27.4,88,0.0,1009.8,8.65,26.3,57,13.9,10.0,10.7,145.0,37.0,3.8,7,0,4,1,2026-07-21T19:27:16.531397+05:30
Thiruvananthapuram,Kerala,8.5241,76.9366,27.0,86,0.0,1009.1,8.0,36.4,54,17.8,11.0,6.5,119.0,47.0,1.6,7,0,4,1,2026-07-21T19:27:16.531405+05:30
Kozhikode,Kerala,11.2588,75.7804,26.4,89,0.0,1009.1,8.4,30.2,36,12.8,6.7,1.6,148.0,49.0,1.3,7,0,4,1,2026-07-21T19:27:16.531412+05:30
Thrissur,Kerala,10.5276,76.2144,26.6,90,0.0,1008.3,8.5,31.3,54,10.9,8.3,7.5,184.0,37.0,2.8,7,0,4,1,2026-07-21T19:27:16.531420+05:30
Kannur,Kerala,11.8745,75.3704,26.8,86,0.0,1008.3,7.9,28.8,46,14.6,8.8,7.4,131.0,35.0,1.9,7,0,4,1,2026-07-21T19:27:16.531427+05:30
Patna,Bihar,25.5941,85.1376,27.8,87,0.0,996.3,8.0,44.6,91,19.7,19.4,10.9,320.0,102.0,9.7,7,5,7,1,2026-07-21T19:27:16.531434+05:30
Gaya,Bihar,24.7914,85.0002,28.9,78,0.0,989.0,6.9,38.9,69,10.2,10.2,6.5,326.0,80.0,5.0,7,5,7,1,2026-07-21T19:27:16.531441+05:30
Muzaffarpur,Bihar,26.1209,85.3647,29.0,76,0.0,996.5,8.25,45.0,86,25.2,24.8,11.8,287.0,95.0,8.2,7,5,7,1,2026-07-21T19:27:16.531448+05:30
Bhagalpur,Bihar,25.2425,87.0117,28.9,78,0.0,997.3,6.15,38.5,64,19.4,19.2,12.9,270.0,66.0,7.0,7,5,7,1,2026-07-21T19:27:16.531454+05:30
Ranchi,Jharkhand,23.3441,85.3096,22.9,98,0.0,932.9,7.6,38.9,58,7.7,7.6,10.1,287.0,83.0,13.4,3,5,7,1,2026-07-21T19:27:16.531462+05:30
Jamshedpur,Jharkhand,22.8046,86.2029,25.9,97,0.1,985.8,6.2,30.6,59,12.3,12.3,15.4,382.0,61.0,15.5,10,5,7,1,2026-07-21T19:27:16.531469+05:30
Dhanbad,Jharkhand,23.7957,86.4304,26.4,88,0.0,975.2,5.95,35.6,90,34.6,34.3,39.0,481.0,32.0,89.1,7,5,3,1,2026-07-21T19:27:16.531476+05:30
Bokaro,Jharkhand,23.6693,86.1511,25.9,91,0.1,979.1,6.45,40.0,99,32.2,31.9,43.5,732.0,31.0,106.1,10,5,7,1,2026-07-21T19:27:16.531484+05:30
Bhubaneswar,Odisha,20.2961,85.8245,26.0,96,0.5,997.8,8.25,24.5,77,20.4,19.4,15.1,428.0,75.0,5.8,10,5,7,1,2026-07-21T19:27:16.531491+05:30
Cuttack,Odisha,20.4625,85.8828,26.5,95,0.4,999.6,8.55,23.0,77,20.4,19.4,15.1,331.0,75.0,5.8,10,5,7,1,2026-07-21T19:27:16.531498+05:30
Rourkela,Odisha,22.2604,84.8536,24.7,96,0.3,980.1,1.1,22.0,82,14.1,13.9,14.9,508.0,86.0,15.1,6,5,3,1,2026-07-21T19:27:16.531505+05:30
Raipur,Chhattisgarh,21.2514,81.6296,24.9,96,0.4,969.9,1.55,30.2,82,17.9,16.9,33.2,445.0,23.0,46.0,6,5,3,1,2026-07-21T19:27:16.531512+05:30
Bhilai,Chhattisgarh,21.1938,81.3509,24.7,97,0.3,970.3,1.75,37.1,75,15.7,14.8,25.7,687.0,31.0,37.3,6,5,3,1,2026-07-21T19:27:16.531519+05:30
Guwahati,Assam,26.1158,91.7086,27.6,97,0.0,998.4,7.25,20.2,39,9.1,8.9,7.3,309.0,47.0,1.5,7,5,7,1,2026-07-21T19:27:16.531526+05:30
Agartala,Tripura,23.8315,91.2868,26.7,90,0.0,1003.5,7.5,33.5,51,10.6,10.1,10.2,192.0,51.0,2.0,7,5,4,1,2026-07-21T19:27:16.531533+05:30
Shillong,Meghalaya,25.5788,91.8933,19.8,91,0.0,856.1,6.95,20.9,33,7.2,7.0,8.0,235.0,50.0,2.3,3,10,7,1,2026-07-21T19:27:16.531540+05:30
Imphal,Manipur,24.817,93.9368,24.6,92,0.0,921.5,8.8,22.7,58,12.2,11.6,11.0,300.0,44.0,2.0,3,5,7,1,2026-07-21T19:27:16.531548+05:30
Aizawl,Mizoram,23.7271,92.7176,20.3,98,0.0,890.8,8.5,20.9,28,4.1,3.9,6.7,149.0,36.0,0.5,3,5,7,1,2026-07-21T19:27:16.531555+05:30
Kohima,Nagaland,25.6701,94.1077,21.2,93,0.0,854.9,8.6,24.8,33,7.1,7.0,6.8,192.0,53.0,0.9,3,5,7,1,2026-07-21T19:27:16.531562+05:30
Gangtok,Sikkim,27.3314,88.6138,18.3,98,0.1,837.1,6.8,29.2,32,3.5,3.4,6.2,217.0,69.0,0.8,6,10,7,1,2026-07-21T19:27:16.531569+05:30
Siliguri,West Bengal,26.7271,88.3953,27.9,78,0.0,990.1,6.9,41.0,49,9.9,9.7,11.8,458.0,75.0,2.8,7,5,7,1,2026-07-21T19:27:19.805626+05:30
Durgapur,West Bengal,23.5204,87.3119,26.0,96,0.0,990.4,6.15,35.3,78,29.0,28.6,32.2,353.0,39.0,33.2,7,5,7,1,2026-07-21T19:27:19.805659+05:30
Asansol,West Bengal,23.6739,86.9524,26.2,93,0.0,989.1,7.2,36.0,76,25.8,25.4,36.4,372.0,36.0,40.6,7,5,7,1,2026-07-21T19:27:19.805670+05:30
Pondicherry,Puducherry,11.9139,79.8145,29.3,85,0.0,1006.6,8.05,33.8,81,36.1,26.4,19.8,198.0,94.0,8.7,7,5,4,1,2026-07-21T19:27:19.805679+05:30
Port Blair,Andaman and Nicobar Islands,11.6234,92.7265,26.3,88,0.1,1008.6,8.55,39.6,53,13.8,8.0,0.5,107.0,48.0,0.5,10,0,4,1,2026-07-21T19:27:19.805688+05:30
Haridwar,Uttarakhand,29.9457,78.1642,28.3,91,0.0,968.5,6.9,29.2,76,10.3,10.3,5.0,280.0,98.0,4.0,7,5,7,1,2026-07-21T19:27:19.805697+05:30
Rishikesh,Uttarakhand,30.0869,78.2676,27.0,95,0.0,961.4,5.2,23.8,55,7.3,7.3,3.7,337.0,99.0,2.5,7,5,3,1,2026-07-21T19:27:19.805704+05:30
Nainital,Uttarakhand,29.3919,79.4542,18.7,83,0.0,803.7,7.4,56.2,45,6.2,6.2,3.8,227.0,91.0,1.4,3,10,7,0,2026-07-21T19:27:19.805712+05:30
Mussoorie,Uttarakhand,30.4599,78.0664,18.2,99,0.0,801.1,3.45,29.5,73,8.7,8.6,11.5,343.0,105.0,3.8,3,10,3,1,2026-07-21T19:27:19.805720+05:30
Dharamshala,Himachal Pradesh,32.219,76.3234,22.4,94,0.0,865.8,1.6,36.7,48,4.3,3.5,7.1,405.0,89.0,0.9,3,5,3,1,2026-07-21T19:27:19.805726+05:30
Dalhousie,Himachal Pradesh,32.5387,75.971,18.0,100,0.1,802.2,1.95,31.7,72,12.6,8.9,10.9,429.0,119.0,2.6,6,10,3,1,2026-07-21T19:27:19.805734+05:30
Patiala,Punjab,30.3398,76.3869,28.9,84,0.0,972.3,5.9,40.3,76,21.4,21.3,11.6,402.0,117.0,7.7,7,5,3,1,2026-07-21T19:27:19.805741+05:30
Bhatinda,Punjab,30.211,74.9455,31.0,66,0.0,976.8,6.25,42.1,156,29.8,19.1,10.4,311.0,145.0,13.5,3,5,7,1,2026-07-21T19:27:19.805748+05:30
Rohtak,Haryana,28.8955,76.6066,28.1,89,0.0,975.2,1.1,27.7,87,17.8,17.7,19.5,352.0,130.0,19.6,7,5,3,1,2026-07-21T19:27:19.805755+05:30
Panipat,Haryana,29.3909,76.9635,29.0,80,0.0,974.2,1.3,41.0,82,16.1,16.0,11.6,377.0,124.0,13.6,7,5,3,1,2026-07-21T19:27:19.805762+05:30
Mathura,Uttar Pradesh,27.4924,77.6737,29.0,83,0.0,979.8,6.55,30.2,67,14.2,12.8,18.2,349.0,86.0,3.9,7,5,7,1,2026-07-21T19:27:19.805769+05:30
Vrindavan,Uttar Pradesh,27.5823,77.7027,28.9,82,0.0,980.2,6.4,29.5,67,14.2,12.8,18.2,311.0,86.0,3.9,7,5,7,1,2026-07-21T19:27:19.805776+05:30
Ayodhya,Uttar Pradesh,26.7922,82.1998,26.8,92,0.0,990.7,7.15,42.1,95,27.6,27.1,8.7,392.0,108.0,6.9,7,5,7,1,2026-07-21T19:27:19.805783+05:30
Ratlam,Madhya Pradesh,23.3315,75.0367,24.6,96,0.3,948.2,0.95,28.4,51,15.1,10.7,6.2,158.0,58.0,6.2,6,5,3,1,2026-07-21T19:27:19.805790+05:30
Sagar,Madhya Pradesh,23.8388,78.7378,24.8,93,0.1,944.0,1.35,31.7,50,7.8,6.9,3.9,190.0,83.0,1.9,6,5,3,1,2026-07-21T19:27:19.805797+05:30
Satna,Madhya Pradesh,24.6005,80.8322,25.4,94,0.2,965.5,5.75,22.7,56,21.7,13.8,7.1,195.0,94.0,2.6,10,5,3,1,2026-07-21T19:27:19.805804+05:30
Akola,Maharashtra,20.7002,77.0082,25.8,93,0.3,970.4,1.5,45.0,34,7.9,6.7,9.7,164.0,46.0,3.5,10,5,3,1,2026-07-21T19:27:19.805812+05:30
Amravati,Maharashtra,20.9374,77.7796,25.0,91,0.2,962.6,1.15,47.2,34,7.8,6.4,10.3,146.0,45.0,4.0,10,5,3,1,2026-07-21T19:27:19.805820+05:30
Latur,Maharashtra,18.4088,76.5604,23.3,93,0.2,937.0,2.4,45.4,34,14.5,8.7,4.4,153.0,52.0,1.6,6,5,3,1,2026-07-21T19:27:19.805827+05:30
Nanded,Maharashtra,19.1383,77.3091,24.6,93,0.2,965.5,1.15,34.6,43,20.0,12.1,6.4,224.0,54.0,3.0,6,5,3,1,2026-07-21T19:27:19.805834+05:30
Gulbarga,Karnataka,17.3297,76.8343,24.3,91,0.1,956.9,3.5,52.9,39,14.2,8.4,7.4,151.0,56.0,2.6,6,5,3,1,2026-07-21T19:27:19.805841+05:30
Bidar,Karnataka,17.9104,77.5199,23.1,93,0.2,933.0,4.3,48.6,36,15.6,9.7,9.8,174.0,53.0,1.9,6,5,3,1,2026-07-21T19:27:19.805848+05:30
Hospet,Karnataka,15.2689,76.3909,27.0,66,0.0,955.2,4.7,51.8,28,10.0,5.9,4.2,130.0,49.0,1.6,7,5,3,1,2026-07-21T19:27:19.805854+05:30
Tirupur,Tamil Nadu,11.1085,77.3411,27.6,71,0.0,974.5,8.75,56.9,55,17.9,11.6,10.9,160.0,64.0,3.9,7,5,7,1,2026-07-21T19:27:19.805861+05:30
Alappuzha,Kerala,9.4981,76.3388,27.5,89,0.0,1009.7,8.55,28.8,55,15.7,10.4,7.9,92.0,43.0,2.9,7,0,4,1,2026-07-21T19:27:19.805867+05:30
Munnar,Kerala,10.0889,77.0595,17.0,99,0.0,857.3,9.0,33.8,34,10.6,7.9,6.7,130.0,53.0,2.2,3,10,7,1,2026-07-21T19:27:19.805875+05:30
Silchar,Assam,24.8333,92.7789,27.2,94,0.1,1002.8,7.9,19.1,64,14.3,13.2,5.1,215.0,75.0,4.5,10,5,4,1,2026-07-21T19:27:19.805881+05:30
Dibrugarh,Assam,27.4728,94.912,29.7,76,0.0,991.8,8.7,19.1,71,21.1,20.7,8.7,216.0,78.0,2.2,7,5,7,1,2026-07-21T19:27:19.805888+05:30
