city,state,latitude,longitude,temp,humidity,rain,pressure,uv_index,wind_gusts,aqi,pm10,pm2_5,no2,co,o3,so2,mosquito_risk,arthritis_risk,migraine_risk,frizz_risk,updated_at
Delhi,Delhi,28.6139,77.209,29.2,60,0.0,976.6,7.75,32.8,191,339.9,116.2,62.3,337.0,4.0,26.0,4,5,7,1,2026-06-24T03:46:18.606460+05:30
Mumbai,Maharashtra,19.076,72.8777,25.4,94,0.3,1005.1,2.15,34.2,38,29.2,11.1,6.2,180.0,54.0,3.9,10,5,0,1,2026-06-24T03:46:18.606508+05:30
Bangalore,Karnataka,12.9716,77.5946,20.9,82,0.0,910.4,7.4,66.6,23,8.2,5.9,8.7,189.0,35.0,4.3,3,5,7,1,2026-06-24T03:46:18.606524+05:30
Hyderabad,Telangana,17.385,78.4867,26.0,64,0.0,950.1,6.55,43.6,28,5.9,4.8,8.1,133.0,35.0,4.9,7,5,7,1,2026-06-24T03:46:18.606534+05:30
Chennai,Tamil Nadu,13.0827,80.2707,28.1,69,0.0,1004.8,8.7,40.3,56,20.2,17.7,21.9,270.0,35.0,8.3,7,5,4,1,2026-06-24T03:46:18.606542+05:30
Kolkata,West Bengal,22.5726,88.3639,28.2,92,0.0,999.9,5.65,24.5,151,42.0,38.6,12.4,635.0,72.0,10.6,7,5,3,1,2026-06-24T03:46:18.606550+05:30
Pune,Maharashtra,18.5204,73.8567,22.6,94,0.1,944.3,2.0,36.7,17,2.0,2.0,6.8,124.0,43.0,4.4,6,5,3,1,2026-06-24T03:46:18.606557+05:30
Ahmedabad,Gujarat,23.0225,72.5714,29.9,67,0.0,996.5,8.0,37.8,73,40.3,19.3,5.0,108.0,45.0,3.0,7,5,7,1,2026-06-24T03:46:18.606564+05:30
Jaipur,Rajasthan,26.9124,75.7873,27.4,65,0.0,953.7,8.15,32.8,127,69.6,32.5,15.7,274.0,43.0,6.2,7,5,7,1,2026-06-24T03:46:18.606577+05:30
Lucknow,Uttar Pradesh,26.8467,80.9462,32.0,43,0.0,986.9,8.3,35.6,152,223.1,68.9,32.1,295.0,43.0,10.9,0,5,7,1,2026-06-24T03:46:18.606587+05:30
Kanpur,Uttar Pradesh,26.4499,80.3319,32.4,41,0.0,985.6,8.3,34.9,184,227.7,71.2,41.2,256.0,26.0,10.4,0,5,7,1,2026-06-24T03:46:18.606594+05:30
Chandigarh,Chandigarh,30.7333,76.7794,26.0,69,0.0,962.5,7.8,25.9,95,47.8,47.0,51.9,634.0,6.0,6.4,7,5,7,1,2026-06-24T03:46:18.606602+05:30
Srinagar,Jammu and Kashmir,34.0837,74.7973,14.6,99,0.0,835.9,9.1,20.9,76,27.8,27.1,28.0,394.0,6.0,0.0,3,10,7,0,2026-06-24T03:46:18.606609+05:30
Jammu,Jammu and Kashmir,32.7266,74.857,28.5,52,0.0,966.2,8.6,31.3,77,36.4,35.2,45.8,361.0,9.0,2.5,4,5,7,1,2026-06-24T03:46:18.606616+05:30
Amritsar,Punjab,31.634,74.8723,27.8,66,0.0,973.8,8.45,19.8,131,90.1,57.5,42.0,560.0,30.0,7.4,7,5,7,1,2026-06-24T03:46:18.606623+05:30
Ludhiana,Punjab,30.901,75.8573,28.3,66,0.0,972.1,8.0,24.5,135,146.7,90.6,59.7,829.0,18.0,12.9,7,5,7,1,2026-06-24T03:46:18.606632+05:30
Jalandhar,Punjab,31.326,75.5762,28.5,60,0.0,973.1,8.25,25.9,128,116.6,80.1,60.4,724.0,14.0,8.5,4,5,7,1,2026-06-24T03:46:18.606639+05:30
Dehradun,Uttarakhand,30.6284,78.0322,14.7,98,0.0,825.3,7.7,33.8,62,25.3,24.0,25.1,237.0,23.0,0.3,3,10,7,0,2026-06-24T03:46:18.606647+05:30
Shimla,Himachal Pradesh,31.1048,77.1734,12.9,78,0.0,779.6,7.7,35.3,60,27.0,24.4,14.1,304.0,45.0,0.0,3,5,7,0,2026-06-24T03:46:18.606653+05:30
Manali,Himachal Pradesh,32.2396,77.1887,12.7,85,0.0,813.2,8.05,34.2,34,4.2,3.6,47.3,254.0,66.0,0.0,3,10,7,0,2026-06-24T03:46:18.606662+05:30
Gurgaon,Haryana,28.4595,77.0266,28.0,62,0.0,975.0,7.8,28.4,439,357.6,117.1,43.8,340.0,20.0,12.4,7,5,7,1,2026-06-24T03:46:18.606669+05:30
Noida,Uttar Pradesh,28.5355,77.391,28.1,68,0.0,978.0,7.8,19.8,439,357.6,117.1,43.8,382.0,20.0,12.4,7,5,7,1,2026-06-24T03:46:18.606675+05:30
Ghaziabad,Uttar Pradesh,28.6692,77.4538,28.2,68,0.0,976.3,7.75,25.6,180,426.5,129.9,68.3,389.0,0.0,26.9,7,5,7,1,2026-06-24T03:46:18.606682+05:30
Faridabad,Haryana,28.4089,77.3178,28.6,63,0.0,977.3,7.8,30.6,439,357.6,117.1,43.8,342.0,20.0,12.4,7,5,7,1,2026-06-24T03:46:18.606688+05:30
Meerut,Uttar Pradesh,28.9845,77.7064,28.0,69,0.0,975.1,7.65,20.9,180,426.5,129.9,68.3,488.0,0.0,26.9,7,5,7,1,2026-06-24T03:46:18.606695+05:30
Agra,Uttar Pradesh,27.1767,78.0081,29.8,54,0.0,981.6,8.1,28.4,240,199.8,60.5,19.5,334.0,47.0,4.4,4,5,7,1,2026-06-24T03:46:18.606702+05:30
Varanasi,Uttar Pradesh,25.3176,82.9739,32.0,52,0.0,991.4,8.75,36.0,122,32.6,25.1,9.8,205.0,68.0,7.4,0,5,7,1,2026-06-24T03:46:18.606709+05:30
Prayagraj,Uttar Pradesh,25.4358,81.8463,31.8,51,0.0,989.8,8.65,38.9,129,41.7,32.5,16.4,200.0,54.0,6.6,0,5,7,1,2026-06-24T03:46:18.606716+05:30
Gorakhpur,Uttar Pradesh,26.7606,83.3732,28.5,79,0.0,990.5,8.6,25.9,155,113.2,72.4,28.8,925.0,47.0,10.4,7,5,7,1,2026-06-24T03:46:18.606723+05:30
Bareilly,Uttar Pradesh,28.367,79.4304,30.2,47,0.0,980.4,8.1,32.4,152,188.6,78.2,42.6,427.0,38.0,16.5,0,5,7,1,2026-06-24T03:46:18.606735+05:30
Aligarh,Uttar Pradesh,27.8974,78.088,28.4,59,0.0,979.2,7.9,29.5,361,250.5,85.2,28.5,386.0,37.0,5.6,4,5,7,1,2026-06-24T03:46:18.606741+05:30
Moradabad,Uttar Pradesh,28.8386,78.7733,29.8,55,0.0,977.5,7.9,30.6,159,298.0,116.9,60.5,522.0,3.0,14.8,4,5,7,1,2026-06-24T03:46:18.606747+05:30
Saharanpur,Uttar Pradesh,29.9637,77.546,27.2,74,0.0,969.5,7.45,25.2,156,159.7,91.0,62.8,707.0,0.0,12.6,7,5,7,1,2026-06-24T03:46:18.606753+05:30
Jhansi,Uttar Pradesh,25.4484,78.5685,29.6,57,0.0,972.5,7.85,29.9,90,29.3,21.1,7.4,200.0,61.0,4.1,4,5,7,1,2026-06-24T03:46:21.924962+05:30
Surat,Gujarat,21.1702,72.8311,28.8,79,0.0,1001.6,1.4,47.5,71,53.4,27.4,24.5,262.0,30.0,38.8,7,5,0,1,2026-06-24T03:46:21.924993+05:30
Vadodara,Gujarat,22.3072,73.1812,29.2,80,0.0,998.8,4.5,48.6,67,35.0,20.1,18.4,218.0,27.0,18.5,7,5,3,1,2026-06-24T03:46:21.925004+05:30
Rajkot,Gujarat,22.3039,70.8022,27.8,81,0.0,989.0,7.55,43.9,71,35.0,16.2,5.5,95.0,42.0,5.6,7,5,7,1,2026-06-24T03:46:21.925013+05:30
Thane,Maharashtra,19.2183,72.9781,24.6,97,0.3,1004.4,1.8,28.8,38,29.2,11.1,6.2,182.0,54.0,3.9,6,5,0,1,2026-06-24T03:46:21.925021+05:30
Nagpur,Maharashtra,21.1458,79.0882,26.5,88,0.0,969.3,8.85,28.4,45,9.1,9.1,18.7,185.0,48.0,17.7,7,5,7,1,2026-06-24T03:46:21.925029+05:30
Nashik,Maharashtra,19.9975,73.7898,22.7,95,0.0,941.3,2.55,39.2,21,10.8,5.9,12.1,134.0,38.0,6.8,3,5,3,1,2026-06-24T03:46:21.925037+05:30
Aurangabad,Maharashtra,19.8762,75.3433,22.9,94,0.1,939.7,2.1,39.2,22,6.3,5.0,8.8,153.0,49.0,2.6,6,5,3,1,2026-06-24T03:46:21.925045+05:30
Solapur,Maharashtra,17.6599,75.9064,24.3,88,0.2,953.7,5.85,49.3,20,2.8,2.6,5.7,131.0,38.0,2.0,6,5,3,1,2026-06-24T03:46:21.925052+05:30
Kolhapur,Maharashtra,16.705,74.2433,21.7,97,0.1,945.1,4.75,45.4,21,2.2,2.0,3.2,117.0,47.0,1.4,6,5,3,1,2026-06-24T03:46:21.925059+05:30
Goa,Goa,15.2993,74.124,23.2,98,0.2,996.8,6.0,27.0,31,17.3,9.7,2.4,199.0,49.0,0.8,6,5,3,1,2026-06-24T03:46:21.925066+05:30
Jodhpur,Rajasthan,26.2389,73.0243,31.3,47,0.0,976.2,8.4,38.2,133,176.5,46.0,5.6,124.0,44.0,2.1,0,5,7,1,2026-06-24T03:46:21.925073+05:30
Udaipur,Rajasthan,24.5854,73.7125,26.2,70,0.0,941.1,8.8,31.7,69,37.3,22.3,10.3,148.0,43.0,7.6,7,5,7,1,2026-06-24T03:46:21.925080+05:30
Kota,Rajasthan,25.2138,75.8648,29.7,57,0.0,972.8,8.3,32.0,79,35.2,21.4,8.6,182.0,58.0,4.1,4,5,7,1,2026-06-24T03:46:21.925087+05:30
Bikaner,Rajasthan,28.0229,73.3119,31.4,44,0.0,974.1,8.45,31.0,148,253.3,68.7,3.7,142.0,56.0,3.3,0,5,7,1,2026-06-24T03:46:21.925094+05:30
Ajmer,Rajasthan,26.4499,74.6399,27.7,56,0.0,948.5,8.35,41.8,82,74.3,27.4,10.9,200.0,39.0,3.8,4,5,7,1,2026-06-24T03:46:21.925101+05:30
Gwalior,Madhya Pradesh,26.2183,78.1828,29.8,56,0.0,977.4,7.65,34.9,111,81.3,36.3,12.4,155.0,47.0,3.4,4,5,7,1,2026-06-24T03:46:21.925108+05:30
Indore,Madhya Pradesh,22.7196,75.8577,25.0,83,0.0,943.3,7.15,48.2,63,30.3,26.7,13.0,265.0,51.0,6.6,7,5,7,1,2026-06-24T03:46:21.925115+05:30
Bhopal,Madhya Pradesh,23.2599,77.4126,24.5,89,0.0,948.9,2.2,24.5,53,12.7,12.1,8.4,274.0,49.0,2.2,3,5,3,1,2026-06-24T03:46:21.925123+05:30
Jabalpur,Madhya Pradesh,23.1815,79.9864,26.1,86,0.0,957.4,7.85,31.7,58,8.5,8.3,10.1,249.0,51.0,2.8,7,5,7,1,2026-06-24T03:46:21.925131+05:30
Ujjain,Madhya Pradesh,23.1765,75.7885,26.2,75,0.0,948.8,7.3,34.2,70,30.2,25.4,8.8,282.0,62.0,7.6,7,5,7,1,2026-06-24T03:46:21.925138+05:30
Visakhapatnam,Andhra Pradesh,17.6868,83.2185,28.3,78,0.0,999.6,8.05,38.9,76,20.5,19.7,28.0,323.0,34.0,40.1,7,5,7,1,2026-06-24T03:46:21.925145+05:30
Vijayawada,Andhra Pradesh,16.5062,80.648,29.1,61,0.0,999.2,8.8,34.6,68,21.0,19.9,18.6,164.0,26.0,5.1,7,5,7,1,2026-06-24T03:46:21.925151+05:30
Guntur,Andhra Pradesh,16.3067,80.4365,29.1,58,0.0,1000.5,8.7,37.4,59,16.2,15.3,16.9,138.0,27.0,4.8,4,5,4,1,2026-06-24T03:46:21.925159+05:30
Nellore,Andhra Pradesh,14.4426,79.9865,29.1,61,0.0,1003.4,8.85,49.3,43,16.6,14.7,13.6,145.0,41.0,7.6,7,5,4,1,2026-06-24T03:46:21.925166+05:30
Kurnool,Andhra Pradesh,15.8281,78.0373,26.2,70,0.0,975.0,7.75,56.9,21,3.8,3.2,7.3,115.0,33.0,3.9,7,5,7,1,2026-06-24T03:46:21.925174+05:30
Kakinada,Andhra Pradesh,16.9891,82.2475,28.5,84,0.0,1003.5,8.85,35.6,63,20.7,19.9,16.4,269.0,34.0,6.4,7,5,4,1,2026-06-24T03:46:21.925181+05:30
Tirupati,Andhra Pradesh,13.6288,79.4192,26.8,65,0.0,989.0,8.15,40.3,39,15.9,13.5,20.2,149.0,15.0,2.0,7,5,7,1,2026-06-24T03:46:21.925188+05:30
Warangal,Telangana,17.9689,79.5941,28.1,61,0.0,975.0,7.95,43.6,44,12.5,11.0,14.3,197.0,36.0,4.9,7,5,7,1,2026-06-24T03:46:21.925195+05:30
Nizamabad,Telangana,18.6725,78.0941,27.5,62,0.0,961.1,5.2,40.3,26,7.2,5.7,6.7,186.0,39.0,2.0,7,5,3,1,2026-06-24T03:46:21.925202+05:30
Mysore,Karnataka,12.2958,76.6396,21.5,88,0.0,927.2,5.6,54.7,19,10.3,6.1,5.2,111.0,39.0,1.7,3,5,3,1,2026-06-24T03:46:21.925209+05:30
Mangalore,Karnataka,12.9141,74.856,24.4,97,0.0,1006.7,8.55,42.5,38,14.1,9.4,5.8,142.0,35.0,2.0,3,5,4,1,2026-06-24T03:46:21.925216+05:30
Hubli-Dharwad,Karnataka,15.3647,75.124,21.6,98,0.0,938.4,7.5,54.4,18,2.5,1.9,2.5,95.0,41.0,0.8,3,5,7,1,2026-06-24T03:46:21.925223+05:30
Belgaum,Karnataka,15.8497,74.4977,20.5,98,0.0,923.0,6.2,48.2,21,2.2,1.8,3.1,96.0,45.0,0.9,3,5,7,1,2026-06-24T03:46:25.237462+05:30
Coimbatore,Tamil Nadu,11.0168,76.9558,23.4,89,0.0,960.9,8.15,50.0,23,12.7,8.8,10.4,171.0,24.0,2.8,3,5,7,1,2026-06-24T03:46:25.237498+05:30
Madurai,Tamil Nadu,9.9252,78.1198,28.0,63,0.0,992.1,7.4,30.2,64,27.5,26.3,32.5,162.0,0.0,6.4,7,5,7,1,2026-06-24T03:46:25.237511+05:30
Trichy,Tamil Nadu,10.7905,78.7047,28.1,63,0.0,998.6,8.45,47.2,24,6.6,5.4,7.1,108.0,38.0,3.2,7,5,7,1,2026-06-24T03:46:25.237521+05:30
Salem,Tamil Nadu,11.6643,78.146,25.7,83,0.0,976.5,8.45,27.4,45,16.4,14.8,21.7,351.0,23.0,9.2,7,5,7,1,2026-06-24T03:46:25.237530+05:30
Tirunelveli,Tamil Nadu,8.7139,77.7567,27.9,66,0.0,1002.8,8.4,42.1,26,7.2,5.6,6.0,160.0,36.0,1.8,7,5,4,1,2026-06-24T03:46:25.237539+05:30
Vellore,Tamil Nadu,12.9165,79.1325,27.3,61,0.0,982.8,8.1,45.7,34,12.5,10.0,14.0,154.0,31.0,4.7,7,5,7,1,2026-06-24T03:46:25.237547+05:30
Erode,Tamil Nadu,11.341,77.7172,25.7,78,0.0,988.2,7.75,34.2,37,17.3,15.3,16.3,139.0,24.0,4.2,7,5,7,1,2026-06-24T03:46:25.237557+05:30
Kochi,Kerala,9.9312,76.2673,25.6,94,0.1,1009.5,7.65,38.2,49,8.8,8.0,20.8,122.0,8.0,4.8,10,0,4,1,2026-06-24T03:46:25.237566+05:30
Thiruvananthapuram,Kerala,8.5241,76.9366,24.6,94,0.2,1009.2,8.35,46.1,32,11.3,7.8,5.1,157.0,44.0,2.4,6,0,4,1,2026-06-24T03:46:25.237576+05:30
Kozhikode,Kerala,11.2588,75.7804,24.4,98,0.2,1008.8,7.85,26.6,23,11.7,6.6,2.2,136.0,49.0,1.0,6,0,4,1,2026-06-24T03:46:25.237584+05:30
Thrissur,Kerala,10.5276,76.2144,24.4,99,0.2,1008.0,6.85,34.2,48,9.9,9.3,18.3,170.0,5.0,3.7,6,0,4,1,2026-06-24T03:46:25.237594+05:30
Kannur,Kerala,11.8745,75.3704,24.7,96,0.1,1007.6,8.6,31.3,32,11.0,7.5,10.1,131.0,26.0,2.2,6,5,4,1,2026-06-24T03:46:25.237603+05:30
Patna,Bihar,25.5941,85.1376,29.2,82,0.0,993.7,8.85,26.6,160,135.0,104.1,51.5,553.0,29.0,21.6,7,5,7,1,2026-06-24T03:46:25.237612+05:30
Gaya,Bihar,24.7914,85.0002,29.0,62,0.0,987.8,8.9,30.2,135,56.2,37.4,10.2,210.0,77.0,18.0,7,5,7,1,2026-06-24T03:46:25.237621+05:30
Muzaffarpur,Bihar,26.1209,85.3647,27.2,85,0.0,994.1,8.85,27.4,162,96.4,79.6,17.1,807.0,73.0,15.1,7,5,7,1,2026-06-24T03:46:25.237630+05:30
Bhagalpur,Bihar,25.2425,87.0117,28.2,83,0.0,994.2,8.8,30.6,152,80.8,66.6,18.0,506.0,68.0,38.2,7,5,7,1,2026-06-24T03:46:25.237639+05:30
Ranchi,Jharkhand,23.3441,85.3096,24.5,75,0.0,933.0,7.3,30.6,97,47.6,37.5,8.6,241.0,77.0,8.6,3,5,7,1,2026-06-24T03:46:25.237647+05:30
Jamshedpur,Jharkhand,22.8046,86.2029,26.9,81,0.0,985.7,8.65,30.2,124,49.6,44.9,11.3,275.0,104.0,28.0,7,5,7,1,2026-06-24T03:46:25.237655+05:30
Dhanbad,Jharkhand,23.7957,86.4304,27.6,71,0.0,973.9,8.8,30.2,152,64.5,53.8,36.7,245.0,56.0,85.6,7,5,7,1,2026-06-24T03:46:25.237664+05:30
Bokaro,Jharkhand,23.6693,86.1511,27.8,69,0.0,977.8,8.7,28.8,132,54.9,45.4,20.4,267.0,73.0,51.1,7,5,7,1,2026-06-24T03:46:25.237672+05:30
Bhubaneswar,Odisha,20.2961,85.8245,27.0,95,0.0,997.9,8.9,31.3,81,36.3,34.8,14.8,294.0,48.0,7.6,7,5,7,1,2026-06-24T03:46:25.237680+05:30
Cuttack,Odisha,20.4625,85.8828,27.2,93,0.1,999.5,7.35,35.6,81,36.3,34.8,14.8,295.0,48.0,7.6,10,5,7,1,2026-06-24T03:46:25.237689+05:30
Rourkela,Odisha,22.2604,84.8536,25.6,94,0.0,980.5,8.5,28.4,125,57.5,49.0,14.6,321.0,62.0,13.1,7,5,7,1,2026-06-24T03:46:25.237697+05:30
Raipur,Chhattisgarh,21.2514,81.6296,27.3,78,0.0,971.2,8.9,31.7,70,13.1,13.1,25.0,438.0,51.0,43.4,7,5,7,1,2026-06-24T03:46:25.237705+05:30
Bhilai,Chhattisgarh,21.1938,81.3509,26.6,82,0.0,971.5,8.95,29.9,63,10.8,10.7,19.1,447.0,60.0,34.4,7,5,7,1,2026-06-24T03:46:25.237714+05:30
Guwahati,Assam,26.1158,91.7086,23.8,99,0.0,996.9,8.75,25.6,60,14.6,11.0,4.9,353.0,86.0,2.0,3,5,7,1,2026-06-24T03:46:25.237722+05:30
Agartala,Tripura,23.8315,91.2868,26.2,91,0.0,1001.1,8.0,28.1,70,22.2,16.6,13.4,260.0,56.0,3.8,7,5,4,1,2026-06-24T03:46:25.237731+05:30
Shillong,Meghalaya,25.5788,91.8933,19.7,94,0.1,853.7,7.8,21.6,43,3.9,3.2,4.1,219.0,88.0,2.9,6,10,7,1,2026-06-24T03:46:25.237739+05:30
Imphal,Manipur,24.817,93.9368,22.2,98,0.1,919.1,8.15,29.9,53,15.8,14.0,7.5,393.0,47.0,2.3,6,5,7,1,2026-06-24T03:46:25.237748+05:30
Aizawl,Mizoram,23.7271,92.7176,19.4,97,0.0,888.1,8.2,19.4,24,5.3,5.3,5.3,187.0,30.0,0.5,3,10,7,1,2026-06-24T03:46:25.237757+05:30
Kohima,Nagaland,25.6701,94.1077,17.5,97,0.0,850.4,8.45,25.9,40,9.8,7.3,3.8,240.0,56.0,0.8,3,10,7,1,2026-06-24T03:46:25.237766+05:30
Gangtok,Sikkim,27.3314,88.6138,16.9,96,0.1,833.0,9.05,36.7,59,19.4,13.9,6.3,424.0,115.0,4.3,6,10,7,1,2026-06-24T03:46:25.237774+05:30
Siliguri,West Bengal,26.7271,88.3953,23.9,99,0.0,987.6,8.65,22.7,76,43.5,31.3,8.9,437.0,119.0,7.8,3,5,7,1,2026-06-24T03:46:28.557778+05:30
Durgapur,West Bengal,23.5204,87.3119,28.2,76,0.0,988.7,9.0,29.2,162,97.1,88.5,43.6,671.0,41.0,66.6,7,5,7,1,2026-06-24T03:46:28.557812+05:30
Asansol,West Bengal,23.6739,86.9524,28.2,72,0.0,987.4,8.95,33.8,154,72.4,61.7,40.7,1080.0,46.0,70.8,7,5,7,1,2026-06-24T03:46:28.557826+05:30
Pondicherry,Puducherry,11.9139,79.8145,28.6,64,0.0,1006.6,7.65,32.8,61,18.6,16.1,17.7,375.0,42.0,8.3,7,5,4,1,2026-06-24T03:46:28.557835+05:30
Port Blair,Andaman and Nicobar Islands,11.6234,92.7265,27.5,82,0.0,1005.9,8.65,43.9,27,11.4,6.8,0.2,86.0,49.0,0.3,7,5,4,1,2026-06-24T03:46:28.557845+05:30
Haridwar,Uttarakhand,29.9457,78.1642,24.9,89,0.0,967.7,7.6,26.3,113,77.8,51.2,37.5,371.0,31.0,8.3,3,5,7,1,2026-06-24T03:46:28.557854+05:30
Rishikesh,Uttarakhand,30.0869,78.2676,23.1,89,0.0,960.5,7.7,23.0,98,18.6,17.2,7.6,337.0,111.0,4.3,3,5,7,1,2026-06-24T03:46:28.557862+05:30
Nainital,Uttarakhand,29.3919,79.4542,16.0,86,0.0,801.9,6.95,29.5,79,29.3,26.8,23.2,323.0,50.0,3.9,3,10,7,0,2026-06-24T03:46:28.557872+05:30
Mussoorie,Uttarakhand,30.4599,78.0664,15.4,88,0.0,799.1,7.55,40.7,75,25.4,25.2,33.2,306.0,32.0,3.9,3,10,7,0,2026-06-24T03:46:28.557881+05:30
Dharamshala,Himachal Pradesh,32.219,76.3234,19.3,82,0.1,864.2,7.85,31.0,47,12.6,11.4,16.7,189.0,26.0,0.0,6,10,7,1,2026-06-24T03:46:28.557890+05:30
Dalhousie,Himachal Pradesh,32.5387,75.971,13.5,86,0.0,799.2,7.9,33.8,75,31.9,29.6,39.5,377.0,8.0,1.2,3,10,7,0,2026-06-24T03:46:28.557900+05:30
Patiala,Punjab,30.3398,76.3869,28.0,67,0.0,971.7,7.55,23.4,158,170.4,92.7,52.9,545.0,24.0,11.9,7,5,7,1,2026-06-24T03:46:28.557909+05:30
Bhatinda,Punjab,30.211,74.9455,29.4,55,0.0,976.5,8.25,27.7,137,84.1,51.8,34.0,358.0,40.0,9.8,4,5,7,1,2026-06-24T03:46:28.557917+05:30
Rohtak,Haryana,28.8955,76.6066,27.0,66,0.0,975.1,7.75,24.1,220,307.3,104.8,50.1,258.0,7.0,8.2,7,5,7,1,2026-06-24T03:46:28.557925+05:30
Panipat,Haryana,29.3909,76.9635,27.2,73,0.0,973.8,7.0,16.6,614,404.2,126.2,55.6,538.0,1.0,7.6,7,5,7,1,2026-06-24T03:46:28.557933+05:30
Mathura,Uttar Pradesh,27.4924,77.6737,28.6,63,0.0,980.7,8.05,25.6,213,76.4,31.5,12.4,347.0,67.0,2.6,7,5,7,1,2026-06-24T03:46:28.557941+05:30
Vrindavan,Uttar Pradesh,27.5823,77.7027,28.4,64,0.0,981.0,8.0,25.6,213,76.4,31.5,12.4,326.0,67.0,2.6,7,5,7,1,2026-06-24T03:46:28.557949+05:30
Ayodhya,Uttar Pradesh,26.7922,82.1998,29.5,60,0.0,988.8,8.4,28.8,151,170.0,94.5,63.6,410.0,2.0,11.1,4,5,7,1,2026-06-24T03:46:28.557957+05:30
Ratlam,Madhya Pradesh,23.3315,75.0367,25.6,81,0.0,949.8,8.0,37.4,73,24.8,19.8,7.8,203.0,63.0,11.5,7,5,7,1,2026-06-24T03:46:28.557966+05:30
Sagar,Madhya Pradesh,23.8388,78.7378,26.3,72,0.0,945.8,8.6,33.5,61,8.7,8.5,8.3,161.0,56.0,3.2,7,5,7,1,2026-06-24T03:46:28.557974+05:30
Satna,Madhya Pradesh,24.6005,80.8322,29.9,58,0.0,966.5,8.75,34.9,90,23.9,17.3,6.0,174.0,73.0,3.7,4,5,7,1,2026-06-24T03:46:28.557983+05:30
Akola,Maharashtra,20.7002,77.0082,25.7,92,0.0,970.9,5.6,37.4,33,8.7,8.1,11.7,164.0,49.0,5.6,7,5,3,1,2026-06-24T03:46:28.557992+05:30
Amravati,Maharashtra,20.9374,77.7796,25.1,92,0.0,963.2,8.5,33.5,31,7.7,7.5,11.8,171.0,45.0,4.1,7,5,7,1,2026-06-24T03:46:28.558001+05:30
Latur,Maharashtra,18.4088,76.5604,24.1,85,0.0,935.9,5.4,42.8,22,2.5,2.5,5.3,121.0,37.0,1.6,3,5,3,1,2026-06-24T03:46:28.558010+05:30
Nanded,Maharashtra,19.1383,77.3091,26.9,68,0.0,964.6,6.0,35.6,23,5.8,5.1,8.4,160.0,34.0,4.5,7,5,3,1,2026-06-24T03:46:28.558018+05:30
Gulbarga,Karnataka,17.3297,76.8343,25.0,79,0.0,955.5,4.55,55.4,22,2.9,2.6,6.9,128.0,35.0,2.6,7,5,3,1,2026-06-24T03:46:28.558026+05:30
Bidar,Karnataka,17.9104,77.5199,22.8,93,0.0,931.7,5.95,46.8,23,4.1,3.5,7.1,129.0,36.0,2.7,3,5,3,1,2026-06-24T03:46:28.558034+05:30
Hospet,Karnataka,15.2689,76.3909,23.7,83,0.0,954.0,5.75,57.2,20,2.3,1.9,3.5,103.0,40.0,1.3,3,5,3,1,2026-06-24T03:46:28.558040+05:30
Tirupur,Tamil Nadu,11.1085,77.3411,24.3,85,0.0,974.6,8.45,55.1,45,21.5,19.5,22.1,132.0,12.0,5.0,3,5,7,1,2026-06-24T03:46:28.558046+05:30
Alappuzha,Kerala,9.4981,76.3388,25.6,93,0.1,1009.6,7.35,40.0,39,12.7,9.5,8.9,82.0,34.0,3.3,10,0,4,1,2026-06-24T03:46:28.558052+05:30
Munnar,Kerala,10.0889,77.0595,15.9,95,0.0,856.3,7.2,38.9,18,6.1,4.8,7.3,87.0,18.0,0.7,3,10,7,0,2026-06-24T03:46:28.558058+05:30
Silchar,Assam,24.8333,92.7789,25.0,96,0.1,1000.7,8.25,22.0,68,22.4,19.0,7.8,252.0,74.0,3.5,10,5,4,1,2026-06-24T03:46:28.558064+05:30
Dibrugarh,Assam,27.4728,94.912,24.2,99,0.1,990.6,7.45,21.6,71,21.9,17.8,10.0,207.0,69.0,1.0,6,5,7,1,2026-06-24T03:46:28.558070+05:30
