city,state,latitude,longitude,temp,humidity,rain,pressure,uv_index,wind_gusts,aqi,pm10,pm2_5,no2,co,o3,so2,mosquito_risk,arthritis_risk,migraine_risk,frizz_risk,updated_at
Delhi,Delhi,28.6139,77.209,34.0,58,0.0,973.1,7.0,20.9,181,95.7,51.9,29.7,1156.0,138.0,28.2,0,5,7,1,2026-07-04T20:09:35.799419+05:30
Mumbai,Maharashtra,19.076,72.8777,26.4,91,0.4,1001.0,0.3,46.1,30,15.0,8.5,7.4,230.0,50.0,3.5,10,5,0,1,2026-07-04T20:09:35.799457+05:30
Bangalore,Karnataka,12.9716,77.5946,22.9,77,0.0,910.0,5.8,66.2,26,6.5,4.8,12.9,299.0,42.0,3.2,3,5,3,1,2026-07-04T20:09:35.799473+05:30
Hyderabad,Telangana,17.385,78.4867,24.0,88,0.1,946.9,2.8,59.0,25,5.5,4.2,7.0,242.0,51.0,3.2,6,5,3,1,2026-07-04T20:09:35.799483+05:30
Chennai,Tamil Nadu,13.0827,80.2707,29.4,71,0.0,1003.4,2.15,41.4,37,18.6,14.0,16.3,403.0,66.0,10.8,7,5,0,1,2026-07-04T20:09:35.799491+05:30
Kolkata,West Bengal,22.5726,88.3639,29.2,79,0.0,994.5,7.5,50.4,44,16.5,15.5,12.7,487.0,58.0,10.0,7,5,7,1,2026-07-04T20:09:35.799499+05:30
Pune,Maharashtra,18.5204,73.8567,23.0,92,0.2,940.8,0.55,44.6,21,1.5,1.5,6.3,163.0,47.0,2.4,6,5,3,1,2026-07-04T20:09:35.799506+05:30
Ahmedabad,Gujarat,23.0225,72.5714,27.1,88,0.0,992.9,5.85,24.5,56,41.7,22.9,20.9,253.0,44.0,5.6,7,5,3,1,2026-07-04T20:09:35.799513+05:30
Jaipur,Rajasthan,26.9124,75.7873,31.2,72,0.0,950.5,7.4,21.6,111,78.9,41.1,26.5,495.0,100.0,10.0,3,5,7,1,2026-07-04T20:09:35.799519+05:30
Lucknow,Uttar Pradesh,26.8467,80.9462,32.4,72,0.0,983.5,7.7,25.2,117,35.7,35.2,20.3,355.0,87.0,10.1,3,5,7,1,2026-07-04T20:09:35.799530+05:30
Kanpur,Uttar Pradesh,26.4499,80.3319,32.9,72,0.0,981.5,8.05,24.5,128,31.4,30.9,17.1,385.0,99.0,8.7,3,5,7,1,2026-07-04T20:09:35.799537+05:30
Chandigarh,Chandigarh,30.7333,76.7794,29.7,81,0.0,959.2,7.1,23.0,145,44.5,43.2,31.6,1169.0,114.0,21.1,7,5,7,1,2026-07-04T20:09:35.799544+05:30
Srinagar,Jammu and Kashmir,34.0837,74.7973,27.6,48,0.0,836.3,9.0,22.7,123,25.1,17.9,21.1,840.0,98.0,3.5,4,5,7,0,2026-07-04T20:09:35.799551+05:30
Jammu,Jammu and Kashmir,32.7266,74.857,33.7,51,0.0,961.9,8.6,29.9,176,42.3,37.6,38.1,589.0,122.0,6.7,0,5,7,1,2026-07-04T20:09:35.799558+05:30
Amritsar,Punjab,31.634,74.8723,33.6,58,0.0,970.2,8.45,29.2,134,52.5,46.6,25.4,583.0,95.0,5.7,0,5,7,1,2026-07-04T20:09:35.799564+05:30
Ludhiana,Punjab,30.901,75.8573,30.6,82,0.0,968.6,7.95,36.4,140,52.3,48.4,37.2,645.0,109.0,13.6,3,5,7,1,2026-07-04T20:09:35.799570+05:30
Jalandhar,Punjab,31.326,75.5762,32.1,74,0.0,969.6,8.2,34.2,153,61.0,55.2,41.2,950.0,96.0,8.7,3,5,7,1,2026-07-04T20:09:35.799576+05:30
Dehradun,Uttarakhand,30.6284,78.0322,20.9,94,0.0,825.5,7.15,26.3,71,11.9,11.8,14.8,287.0,95.0,1.8,3,5,7,1,2026-07-04T20:09:35.799583+05:30
Shimla,Himachal Pradesh,31.1048,77.1734,17.3,95,0.0,779.6,7.4,28.1,96,18.0,17.6,17.3,465.0,95.0,2.8,3,10,7,1,2026-07-04T20:09:35.799592+05:30
Manali,Himachal Pradesh,32.2396,77.1887,21.7,93,0.0,815.3,9.45,33.5,104,21.6,21.2,89.0,228.0,61.0,0.3,3,5,7,1,2026-07-04T20:09:35.799600+05:30
Gurgaon,Haryana,28.4595,77.0266,31.8,70,0.0,971.4,6.4,21.2,188,118.7,54.5,30.4,1156.0,160.0,31.9,3,5,7,1,2026-07-04T20:09:35.799606+05:30
Noida,Uttar Pradesh,28.5355,77.391,31.8,74,0.0,974.5,6.8,22.0,188,118.7,54.5,30.4,950.0,160.0,31.9,3,5,7,1,2026-07-04T20:09:35.799613+05:30
Ghaziabad,Uttar Pradesh,28.6692,77.4538,31.7,75,0.0,972.8,7.55,22.0,159,39.1,39.0,25.8,508.0,112.0,14.7,3,5,7,1,2026-07-04T20:09:35.799619+05:30
Faridabad,Haryana,28.4089,77.3178,33.3,64,0.0,973.8,6.75,26.3,188,118.7,54.5,30.4,898.0,160.0,31.9,3,5,7,1,2026-07-04T20:09:35.799625+05:30
Meerut,Uttar Pradesh,28.9845,77.7064,31.3,80,0.0,971.7,7.0,26.6,159,39.1,39.0,25.8,512.0,112.0,14.7,3,5,7,1,2026-07-04T20:09:35.799631+05:30
Agra,Uttar Pradesh,27.1767,78.0081,32.1,71,0.0,977.5,6.65,22.3,165,46.3,42.0,27.3,560.0,106.0,10.8,3,5,7,1,2026-07-04T20:09:35.799637+05:30
Varanasi,Uttar Pradesh,25.3176,82.9739,32.7,63,0.0,987.0,8.7,31.0,84,27.2,27.0,16.3,342.0,90.0,9.8,3,5,7,1,2026-07-04T20:09:35.799644+05:30
Prayagraj,Uttar Pradesh,25.4358,81.8463,32.5,68,0.0,985.5,8.15,30.2,118,25.9,25.6,13.6,364.0,103.0,8.6,3,5,7,1,2026-07-04T20:09:35.799652+05:30
Gorakhpur,Uttar Pradesh,26.7606,83.3732,32.4,69,0.0,987.8,8.55,28.8,118,35.0,34.7,16.2,326.0,97.0,8.3,3,5,7,1,2026-07-04T20:09:35.799658+05:30
Bareilly,Uttar Pradesh,28.367,79.4304,31.8,76,0.0,976.8,7.9,25.2,145,45.6,43.8,29.2,360.0,89.0,10.5,3,5,7,1,2026-07-04T20:09:35.799666+05:30
Aligarh,Uttar Pradesh,27.8974,78.088,31.6,76,0.0,975.4,7.8,25.2,160,43.4,35.0,13.8,478.0,148.0,13.6,3,5,7,1,2026-07-04T20:09:35.799673+05:30
Moradabad,Uttar Pradesh,28.8386,78.7733,31.4,78,0.0,973.8,7.7,22.7,175,48.0,47.6,27.4,459.0,103.0,13.6,3,5,7,1,2026-07-04T20:09:35.799679+05:30
Saharanpur,Uttar Pradesh,29.9637,77.546,30.6,80,0.0,966.1,6.7,27.4,158,45.3,44.9,27.7,675.0,122.0,22.4,3,5,7,1,2026-07-04T20:09:35.799685+05:30
Jhansi,Uttar Pradesh,25.4484,78.5685,32.4,72,0.0,967.3,6.75,30.2,131,21.2,20.9,7.6,292.0,110.0,6.2,3,5,7,1,2026-07-04T20:09:39.087831+05:30
Surat,Gujarat,21.1702,72.8311,26.5,96,0.3,998.1,0.9,28.8,68,18.8,14.2,26.2,450.0,45.0,34.9,10,5,3,1,2026-07-04T20:09:39.087866+05:30
Vadodara,Gujarat,22.3072,73.1812,26.6,95,0.4,995.4,1.05,27.7,52,29.5,20.1,28.4,303.0,34.0,12.4,10,5,3,1,2026-07-04T20:09:39.087879+05:30
Rajkot,Gujarat,22.3039,70.8022,27.7,84,0.0,985.1,6.55,33.8,58,43.4,20.5,6.7,110.0,60.0,5.6,7,5,7,1,2026-07-04T20:09:39.087890+05:30
Thane,Maharashtra,19.2183,72.9781,25.5,96,0.3,1000.2,0.4,31.0,30,15.0,8.5,7.4,229.0,50.0,3.5,10,5,0,1,2026-07-04T20:09:39.087900+05:30
Nagpur,Maharashtra,21.1458,79.0882,26.0,96,0.2,964.5,8.3,29.5,62,16.5,15.8,17.9,441.0,71.0,13.8,10,5,7,1,2026-07-04T20:09:39.087909+05:30
Nashik,Maharashtra,19.9975,73.7898,23.1,95,0.0,937.6,1.15,40.7,28,4.7,4.4,14.1,157.0,41.0,3.3,3,5,3,1,2026-07-04T20:09:39.087917+05:30
Aurangabad,Maharashtra,19.8762,75.3433,23.5,96,0.2,936.5,1.7,40.0,34,6.2,6.0,10.8,191.0,56.0,5.7,6,5,3,1,2026-07-04T20:09:39.087926+05:30
Solapur,Maharashtra,17.6599,75.9064,24.0,91,0.0,951.3,1.05,45.0,23,2.5,2.4,5.3,129.0,44.0,1.6,3,5,3,1,2026-07-04T20:09:39.087935+05:30
Kolhapur,Maharashtra,16.705,74.2433,22.3,96,0.1,943.1,1.3,51.5,22,2.5,2.2,4.8,133.0,47.0,1.2,6,5,3,1,2026-07-04T20:09:39.087943+05:30
Goa,Goa,15.2993,74.124,24.0,98,0.5,996.3,3.8,37.8,50,15.9,8.6,1.7,167.0,51.0,0.6,6,5,3,1,2026-07-04T20:09:39.087952+05:30
Jodhpur,Rajasthan,26.2389,73.0243,31.6,65,0.0,972.8,7.85,27.4,151,163.9,59.3,9.6,224.0,78.0,4.4,3,5,7,1,2026-07-04T20:09:39.087960+05:30
Udaipur,Rajasthan,24.5854,73.7125,25.9,95,0.1,937.9,4.0,34.9,60,82.0,32.6,9.6,316.0,66.0,4.8,10,5,3,1,2026-07-04T20:09:39.087968+05:30
Kota,Rajasthan,25.2138,75.8648,27.0,93,0.4,969.4,7.2,30.6,87,57.2,33.4,18.3,258.0,85.0,5.6,10,5,7,1,2026-07-04T20:09:39.087976+05:30
Bikaner,Rajasthan,28.0229,73.3119,36.1,43,0.0,970.7,7.05,31.3,116,57.2,30.3,5.5,241.0,107.0,4.2,0,5,10,1,2026-07-04T20:09:39.087984+05:30
Ajmer,Rajasthan,26.4499,74.6399,29.7,73,0.0,945.5,7.25,33.5,121,113.2,45.1,18.6,527.0,76.0,4.4,7,5,7,1,2026-07-04T20:09:39.087993+05:30
Gwalior,Madhya Pradesh,26.2183,78.1828,32.1,75,0.0,972.5,7.65,35.6,111,25.0,24.4,11.1,413.0,96.0,4.1,3,5,7,1,2026-07-04T20:09:39.088001+05:30
Indore,Madhya Pradesh,22.7196,75.8577,24.5,95,0.1,939.1,7.45,31.3,48,26.5,19.8,14.1,455.0,72.0,4.4,6,5,7,1,2026-07-04T20:09:39.088009+05:30
Bhopal,Madhya Pradesh,23.2599,77.4126,26.0,94,0.1,944.5,8.5,29.9,57,13.0,12.4,10.9,421.0,72.0,2.9,10,5,7,1,2026-07-04T20:09:39.088019+05:30
Jabalpur,Madhya Pradesh,23.1815,79.9864,25.6,98,0.0,952.2,8.8,28.1,99,22.7,22.5,8.6,249.0,93.0,5.9,7,5,7,1,2026-07-04T20:09:39.088027+05:30
Ujjain,Madhya Pradesh,23.1765,75.7885,24.7,95,0.1,944.6,7.4,30.6,49,26.9,17.9,7.9,388.0,71.0,3.4,6,5,7,1,2026-07-04T20:09:39.088036+05:30
Visakhapatnam,Andhra Pradesh,17.6868,83.2185,25.4,93,0.4,993.6,2.7,61.9,40,9.3,8.6,12.2,227.0,59.0,18.2,10,5,3,1,2026-07-04T20:09:39.088045+05:30
Vijayawada,Andhra Pradesh,16.5062,80.648,30.0,62,0.0,996.1,2.0,57.6,37,10.7,7.8,5.8,147.0,57.0,3.9,7,5,3,1,2026-07-04T20:09:39.088055+05:30
Guntur,Andhra Pradesh,16.3067,80.4365,30.0,61,0.0,997.6,2.05,49.7,32,9.4,6.7,5.8,150.0,55.0,3.9,7,5,3,1,2026-07-04T20:09:39.088062+05:30
Nellore,Andhra Pradesh,14.4426,79.9865,32.8,46,0.0,1001.0,1.65,57.6,30,14.0,7.4,3.8,130.0,58.0,2.5,0,5,0,1,2026-07-04T20:09:39.088069+05:30
Kurnool,Andhra Pradesh,15.8281,78.0373,28.0,63,0.0,972.5,1.15,56.2,28,4.7,3.5,5.5,124.0,49.0,2.3,7,5,3,1,2026-07-04T20:09:39.088077+05:30
Kakinada,Andhra Pradesh,16.9891,82.2475,28.0,75,0.0,999.6,1.75,79.9,36,9.6,7.3,5.4,167.0,68.0,4.6,7,5,3,1,2026-07-04T20:09:39.088084+05:30
Tirupati,Andhra Pradesh,13.6288,79.4192,31.3,49,0.0,987.3,2.6,50.4,31,14.1,8.8,6.3,135.0,54.0,1.8,0,5,3,1,2026-07-04T20:09:39.088091+05:30
Warangal,Telangana,17.9689,79.5941,25.9,85,0.0,971.6,2.25,53.6,29,4.9,4.7,6.3,149.0,51.0,2.1,7,5,3,1,2026-07-04T20:09:39.088098+05:30
Nizamabad,Telangana,18.6725,78.0941,24.2,95,0.0,957.6,1.9,52.9,27,4.5,4.4,6.9,153.0,50.0,3.4,3,5,3,1,2026-07-04T20:09:39.088104+05:30
Mysore,Karnataka,12.2958,76.6396,22.4,86,0.0,927.2,8.05,68.0,28,3.6,2.8,7.4,133.0,44.0,1.5,3,5,7,1,2026-07-04T20:09:39.088110+05:30
Mangalore,Karnataka,12.9141,74.856,26.0,89,0.0,1006.5,8.15,63.0,38,21.4,13.3,7.8,113.0,40.0,2.0,7,5,4,1,2026-07-04T20:09:39.088117+05:30
Hubli-Dharwad,Karnataka,15.3647,75.124,21.4,98,0.4,937.6,1.9,60.1,23,1.8,1.4,4.5,124.0,44.0,0.7,6,5,3,1,2026-07-04T20:09:39.088124+05:30
Belgaum,Karnataka,15.8497,74.4977,20.9,97,0.3,921.5,1.95,58.3,22,1.7,1.3,4.0,124.0,45.0,0.8,6,5,3,1,2026-07-04T20:09:42.368484+05:30
Coimbatore,Tamil Nadu,11.0168,76.9558,24.5,82,0.0,960.8,5.85,56.9,27,4.0,3.4,7.3,176.0,43.0,2.0,3,5,3,1,2026-07-04T20:09:42.368515+05:30
Madurai,Tamil Nadu,9.9252,78.1198,30.1,57,0.0,991.6,2.15,47.5,35,7.8,5.0,9.9,149.0,52.0,2.8,0,5,3,1,2026-07-04T20:09:42.368525+05:30
Trichy,Tamil Nadu,10.7905,78.7047,30.6,53,0.0,997.9,6.05,60.1,32,8.5,4.8,5.6,118.0,48.0,2.1,0,5,7,1,2026-07-04T20:09:42.368534+05:30
Salem,Tamil Nadu,11.6643,78.146,27.2,70,0.0,975.7,7.15,38.2,35,10.4,8.4,12.9,202.0,49.0,4.8,7,5,7,1,2026-07-04T20:09:42.368543+05:30
Tirunelveli,Tamil Nadu,8.7139,77.7567,29.6,61,0.0,1002.9,3.25,56.5,27,8.8,5.5,5.8,130.0,43.0,1.4,7,5,0,1,2026-07-04T20:09:42.368551+05:30
Vellore,Tamil Nadu,12.9165,79.1325,31.9,43,0.0,981.3,2.35,56.2,31,12.1,8.4,9.1,133.0,53.0,2.9,0,5,3,1,2026-07-04T20:09:42.368559+05:30
Erode,Tamil Nadu,11.341,77.7172,27.2,71,0.0,987.5,6.3,51.1,31,8.3,6.2,10.0,173.0,45.0,2.2,7,5,7,1,2026-07-04T20:09:42.368566+05:30
Kochi,Kerala,9.9312,76.2673,26.9,90,0.0,1009.8,6.9,44.6,40,25.6,16.4,19.8,220.0,26.0,4.4,7,0,4,1,2026-07-04T20:09:42.368574+05:30
Thiruvananthapuram,Kerala,8.5241,76.9366,24.7,97,0.0,1009.5,7.35,52.6,33,18.2,9.2,3.6,145.0,49.0,1.0,3,0,4,1,2026-07-04T20:09:42.368581+05:30
Kozhikode,Kerala,11.2588,75.7804,24.2,98,0.3,1009.1,5.85,37.1,31,15.4,7.3,1.1,209.0,58.0,0.7,6,0,0,1,2026-07-04T20:09:42.368588+05:30
Thrissur,Kerala,10.5276,76.2144,26.0,89,0.0,1008.0,7.8,43.6,35,20.7,15.0,15.2,234.0,32.0,3.6,7,0,4,1,2026-07-04T20:09:42.368597+05:30
Kannur,Kerala,11.8745,75.3704,28.1,78,0.0,1007.3,8.5,47.5,36,16.6,9.6,7.6,265.0,39.0,1.5,7,5,4,1,2026-07-04T20:09:42.368604+05:30
Patna,Bihar,25.5941,85.1376,31.7,78,0.0,991.0,8.5,37.8,118,25.3,25.0,15.8,349.0,101.0,10.9,3,5,7,1,2026-07-04T20:09:42.368611+05:30
Gaya,Bihar,24.7914,85.0002,30.7,77,0.0,983.9,8.5,38.5,59,24.6,23.9,14.2,275.0,69.0,7.2,3,5,7,1,2026-07-04T20:09:42.368619+05:30
Muzaffarpur,Bihar,26.1209,85.3647,31.8,74,0.0,991.1,8.1,31.0,126,29.9,29.6,17.9,336.0,99.0,9.4,3,5,7,1,2026-07-04T20:09:42.368626+05:30
Bhagalpur,Bihar,25.2425,87.0117,31.9,69,0.0,991.7,7.6,38.9,67,17.8,17.5,10.9,221.0,93.0,8.0,3,5,7,1,2026-07-04T20:09:42.368634+05:30
Ranchi,Jharkhand,23.3441,85.3096,24.7,92,0.0,928.1,7.15,52.9,66,20.3,20.1,11.2,526.0,101.0,20.5,3,5,7,1,2026-07-04T20:09:42.368641+05:30
Jamshedpur,Jharkhand,22.8046,86.2029,26.9,93,0.0,979.7,7.45,48.6,60,13.5,13.3,10.7,273.0,73.0,8.4,7,5,7,1,2026-07-04T20:09:42.368648+05:30
Dhanbad,Jharkhand,23.7957,86.4304,27.5,87,0.0,969.9,6.2,53.6,81,26.2,25.8,31.6,264.0,68.0,71.2,7,5,7,1,2026-07-04T20:09:42.368655+05:30
Bokaro,Jharkhand,23.6693,86.1511,26.6,91,0.0,973.7,5.1,51.1,84,23.9,23.5,29.1,263.0,73.0,72.4,7,5,3,1,2026-07-04T20:09:42.368663+05:30
Bhubaneswar,Odisha,20.2961,85.8245,26.1,96,0.1,989.6,2.95,31.0,67,16.7,16.1,17.1,400.0,52.0,5.4,10,5,3,1,2026-07-04T20:09:42.368670+05:30
Cuttack,Odisha,20.4625,85.8828,26.5,97,0.2,991.4,2.3,43.6,67,16.7,16.1,17.1,352.0,52.0,5.4,10,5,3,1,2026-07-04T20:09:42.368677+05:30
Rourkela,Odisha,22.2604,84.8536,27.6,88,0.0,973.7,6.7,51.8,64,15.5,15.4,10.0,288.0,90.0,12.6,7,5,7,1,2026-07-04T20:09:42.368684+05:30
Raipur,Chhattisgarh,21.2514,81.6296,25.6,97,0.5,965.1,7.3,29.5,69,26.1,26.1,27.9,794.0,78.0,45.5,10,5,7,1,2026-07-04T20:09:42.368691+05:30
Bhilai,Chhattisgarh,21.1938,81.3509,25.5,97,0.2,965.4,6.8,33.1,64,21.9,21.9,24.1,986.0,78.0,39.9,10,5,7,1,2026-07-04T20:09:42.368698+05:30
Guwahati,Assam,26.1158,91.7086,29.1,90,0.0,993.1,8.7,33.1,46,20.2,20.0,13.3,355.0,46.0,2.4,7,5,7,1,2026-07-04T20:09:42.368705+05:30
Agartala,Tripura,23.8315,91.2868,28.9,89,0.0,997.3,8.55,29.9,49,10.9,10.7,10.3,173.0,55.0,1.7,7,5,7,1,2026-07-04T20:09:42.368712+05:30
Shillong,Meghalaya,25.5788,91.8933,21.0,97,0.0,852.8,8.3,34.9,37,5.2,5.1,8.2,310.0,52.0,1.0,3,5,7,1,2026-07-04T20:09:42.368719+05:30
Imphal,Manipur,24.817,93.9368,24.9,82,0.0,919.1,7.75,31.3,31,8.4,8.3,8.2,329.0,46.0,1.5,3,5,7,1,2026-07-04T20:09:42.368726+05:30
Aizawl,Mizoram,23.7271,92.7176,22.0,97,0.0,885.9,8.7,26.3,25,5.6,5.5,11.2,169.0,26.0,0.9,3,5,7,1,2026-07-04T20:09:42.368733+05:30
Kohima,Nagaland,25.6701,94.1077,22.3,82,0.0,851.6,9.1,29.2,33,7.9,7.8,11.9,250.0,34.0,1.0,3,5,7,1,2026-07-04T20:09:42.368767+05:30
Gangtok,Sikkim,27.3314,88.6138,20.6,93,0.1,835.0,8.5,36.0,49,11.1,10.7,7.7,261.0,94.0,1.0,6,5,7,1,2026-07-04T20:09:42.368787+05:30
Siliguri,West Bengal,26.7271,88.3953,30.3,73,0.0,984.8,8.7,24.1,72,23.3,22.8,13.0,434.0,93.0,3.6,3,5,7,1,2026-07-04T20:09:45.657038+05:30
Durgapur,West Bengal,23.5204,87.3119,29.8,76,0.0,984.4,6.95,52.6,66,22.9,22.2,19.5,347.0,72.0,19.3,7,5,7,1,2026-07-04T20:09:45.657070+05:30
Asansol,West Bengal,23.6739,86.9524,28.4,87,0.0,983.1,5.6,52.9,64,20.6,20.1,20.8,303.0,75.0,20.1,7,5,3,1,2026-07-04T20:09:45.657081+05:30
Pondicherry,Puducherry,11.9139,79.8145,30.7,61,0.0,1005.3,5.25,41.0,42,18.3,12.9,16.3,227.0,63.0,14.2,3,5,0,1,2026-07-04T20:09:45.657090+05:30
Port Blair,Andaman and Nicobar Islands,11.6234,92.7265,25.7,96,0.2,1006.9,5.1,57.2,49,13.2,7.4,0.5,100.0,56.0,0.4,10,5,0,1,2026-07-04T20:09:45.657099+05:30
Haridwar,Uttarakhand,29.9457,78.1642,30.5,80,0.0,964.3,6.55,20.5,151,35.0,34.9,14.9,487.0,138.0,14.4,3,5,7,1,2026-07-04T20:09:45.657106+05:30
Rishikesh,Uttarakhand,30.0869,78.2676,29.8,80,0.0,957.4,6.7,24.8,113,23.6,23.6,6.8,465.0,133.0,7.0,7,5,7,1,2026-07-04T20:09:45.657114+05:30
Nainital,Uttarakhand,29.3919,79.4542,18.2,100,0.0,800.6,6.65,27.0,87,17.2,17.1,13.6,345.0,94.0,4.7,3,10,7,1,2026-07-04T20:09:45.657122+05:30
Mussoorie,Uttarakhand,30.4599,78.0664,18.6,100,0.0,798.3,6.75,33.5,119,26.0,25.9,17.1,413.0,125.0,9.3,3,10,7,1,2026-07-04T20:09:45.657130+05:30
Dharamshala,Himachal Pradesh,32.219,76.3234,23.2,95,0.0,863.0,8.45,29.2,95,9.4,8.9,10.3,369.0,111.0,0.8,3,5,7,1,2026-07-04T20:09:45.657138+05:30
Dalhousie,Himachal Pradesh,32.5387,75.971,18.9,100,0.0,799.7,8.65,33.1,160,25.0,22.4,11.2,552.0,157.0,3.7,3,10,7,1,2026-07-04T20:09:45.657146+05:30
Patiala,Punjab,30.3398,76.3869,30.5,81,0.0,968.4,7.25,28.4,122,47.8,46.6,27.5,680.0,110.0,13.5,3,5,7,1,2026-07-04T20:09:45.657154+05:30
Bhatinda,Punjab,30.211,74.9455,33.3,60,0.0,973.3,7.95,26.3,197,59.6,47.3,20.2,464.0,132.0,19.9,0,5,7,1,2026-07-04T20:09:45.657161+05:30
Rohtak,Haryana,28.8955,76.6066,31.8,71,0.0,971.8,6.25,19.4,189,577.4,113.2,24.8,590.0,151.0,30.2,3,5,7,1,2026-07-04T20:09:45.657168+05:30
Panipat,Haryana,29.3909,76.9635,31.0,79,0.0,970.5,6.5,22.3,180,571.8,113.4,29.9,682.0,126.0,31.5,3,5,7,1,2026-07-04T20:09:45.657175+05:30
Mathura,Uttar Pradesh,27.4924,77.6737,31.6,76,0.0,976.7,6.7,22.0,162,53.1,38.4,43.6,523.0,95.0,7.7,3,5,7,1,2026-07-04T20:09:45.657182+05:30
Vrindavan,Uttar Pradesh,27.5823,77.7027,31.8,76,0.0,977.1,7.05,22.7,162,53.1,38.4,43.6,506.0,95.0,7.7,3,5,7,1,2026-07-04T20:09:45.657189+05:30
Ayodhya,Uttar Pradesh,26.7922,82.1998,32.2,72,0.0,985.5,8.05,26.3,106,33.9,33.4,16.7,328.0,91.0,7.3,3,5,7,1,2026-07-04T20:09:45.657196+05:30
Ratlam,Madhya Pradesh,23.3315,75.0367,24.8,96,0.2,945.7,6.1,36.4,43,34.3,20.6,6.6,205.0,67.0,2.8,6,5,7,1,2026-07-04T20:09:45.657203+05:30
Sagar,Madhya Pradesh,23.8388,78.7378,25.8,95,0.3,941.4,8.0,24.8,84,20.9,20.8,5.7,273.0,97.0,4.2,10,5,7,1,2026-07-04T20:09:45.657210+05:30
Satna,Madhya Pradesh,24.6005,80.8322,31.0,69,0.0,961.1,7.15,31.3,103,17.3,17.1,12.6,276.0,85.0,4.7,3,5,7,1,2026-07-04T20:09:45.657218+05:30
Akola,Maharashtra,20.7002,77.0082,25.4,93,0.0,966.9,6.95,40.0,34,9.0,7.7,9.3,164.0,68.0,7.9,7,5,7,1,2026-07-04T20:09:45.657226+05:30
Amravati,Maharashtra,20.9374,77.7796,26.1,85,0.0,958.8,7.25,47.2,38,8.4,7.1,8.8,176.0,71.0,8.6,7,5,7,1,2026-07-04T20:09:45.657234+05:30
Latur,Maharashtra,18.4088,76.5604,23.3,93,0.1,933.1,2.4,47.5,24,2.2,2.2,4.8,140.0,48.0,1.2,6,5,3,1,2026-07-04T20:09:45.657242+05:30
Nanded,Maharashtra,19.1383,77.3091,25.7,84,0.0,961.3,1.75,46.1,29,4.7,4.6,7.6,153.0,53.0,3.0,7,5,3,1,2026-07-04T20:09:45.657249+05:30
Gulbarga,Karnataka,17.3297,76.8343,24.0,90,0.1,953.0,1.5,60.5,26,2.8,2.5,7.0,142.0,43.0,2.0,6,5,3,1,2026-07-04T20:09:45.657257+05:30
Bidar,Karnataka,17.9104,77.5199,23.0,92,0.0,929.3,1.35,55.1,25,2.7,2.5,6.8,137.0,46.0,1.4,3,5,3,1,2026-07-04T20:09:45.657264+05:30
Hospet,Karnataka,15.2689,76.3909,23.6,88,0.0,952.7,1.7,68.8,28,2.1,1.8,5.3,126.0,45.0,1.2,3,5,3,1,2026-07-04T20:09:45.657270+05:30
Tirupur,Tamil Nadu,11.1085,77.3411,25.6,77,0.0,973.9,7.75,59.4,30,8.1,6.6,11.7,153.0,43.0,3.2,7,5,7,1,2026-07-04T20:09:45.657277+05:30
Alappuzha,Kerala,9.4981,76.3388,26.8,90,0.0,1010.0,6.75,44.6,37,25.1,13.2,7.9,88.0,45.0,2.0,7,0,4,1,2026-07-04T20:09:45.657284+05:30
Munnar,Kerala,10.0889,77.0595,16.4,100,0.1,856.5,3.75,59.8,27,4.2,3.3,7.7,98.0,39.0,1.4,6,10,3,1,2026-07-04T20:09:45.657292+05:30
Silchar,Assam,24.8333,92.7789,30.9,71,0.0,996.2,8.65,29.9,51,13.4,13.2,7.1,197.0,51.0,3.0,3,5,7,1,2026-07-04T20:09:45.657299+05:30
Dibrugarh,Assam,27.4728,94.912,31.0,73,0.0,987.6,8.9,28.4,54,22.7,22.2,16.5,332.0,50.0,3.3,3,5,7,1,2026-07-04T20:09:45.657306+05:30
