city,state,latitude,longitude,temp,humidity,rain,pressure,uv_index,wind_gusts,aqi,pm10,pm2_5,no2,co,o3,so2,mosquito_risk,arthritis_risk,migraine_risk,frizz_risk,updated_at
Delhi,Delhi,28.6139,77.209,31.7,73,0.0,972.9,7.65,28.4,386,543.9,159.7,61.6,1416.0,49.0,22.0,3,5,7,1,2026-07-11T20:26:32.497949+05:30
Mumbai,Maharashtra,19.076,72.8777,28.1,84,0.0,1006.7,6.15,52.6,56,30.6,13.7,7.5,188.0,44.0,4.8,7,5,4,1,2026-07-11T20:26:32.497997+05:30
Bangalore,Karnataka,12.9716,77.5946,26.0,64,0.0,911.6,7.2,46.8,47,27.5,15.1,18.2,423.0,48.0,4.4,7,5,7,1,2026-07-11T20:26:32.498010+05:30
Hyderabad,Telangana,17.385,78.4867,30.0,53,0.0,950.4,8.35,47.9,64,39.9,20.1,12.1,257.0,63.0,4.2,4,5,7,1,2026-07-11T20:26:32.498019+05:30
Chennai,Tamil Nadu,13.0827,80.2707,30.1,74,0.0,1004.3,8.15,33.1,88,48.4,28.3,8.7,284.0,121.0,7.1,3,5,4,1,2026-07-11T20:26:32.498026+05:30
Kolkata,West Bengal,22.5726,88.3639,28.2,93,0.0,998.3,2.35,39.6,108,64.7,48.5,17.7,686.0,91.0,14.1,7,5,3,1,2026-07-11T20:26:32.498032+05:30
Pune,Maharashtra,18.5204,73.8567,24.0,85,0.0,946.2,7.65,57.2,35,18.3,9.2,8.0,153.0,42.0,5.0,3,5,7,1,2026-07-11T20:26:32.498038+05:30
Ahmedabad,Gujarat,23.0225,72.5714,32.4,57,0.0,995.1,6.1,48.6,66,46.1,23.4,5.8,154.0,72.0,4.0,0,5,7,1,2026-07-11T20:26:32.498044+05:30
Jaipur,Rajasthan,26.9124,75.7873,30.0,66,0.0,951.0,7.7,41.0,452,476.8,89.2,9.2,183.0,74.0,4.5,7,5,7,1,2026-07-11T20:26:32.498050+05:30
Lucknow,Uttar Pradesh,26.8467,80.9462,27.0,95,0.6,984.5,6.1,51.8,153,141.1,64.3,16.2,256.0,70.0,7.4,10,5,7,1,2026-07-11T20:26:32.498068+05:30
Kanpur,Uttar Pradesh,26.4499,80.3319,30.8,69,0.0,982.4,8.05,47.2,133,76.6,42.4,10.0,182.0,87.0,6.3,3,5,7,1,2026-07-11T20:26:32.498074+05:30
Chandigarh,Chandigarh,30.7333,76.7794,28.2,83,0.0,959.2,7.7,22.3,170,133.2,71.9,35.9,919.0,101.0,14.2,7,5,7,1,2026-07-11T20:26:32.498080+05:30
Srinagar,Jammu and Kashmir,34.0837,74.7973,22.4,80,0.0,835.5,9.0,26.6,126,15.7,14.6,17.4,680.0,110.0,2.8,3,5,7,1,2026-07-11T20:26:32.498086+05:30
Jammu,Jammu and Kashmir,32.7266,74.857,29.2,82,0.0,962.7,8.55,29.9,157,35.0,27.1,18.1,585.0,121.0,4.1,7,5,7,1,2026-07-11T20:26:32.498092+05:30
Amritsar,Punjab,31.634,74.8723,29.5,83,0.0,970.4,8.4,31.7,158,215.1,100.4,20.6,390.0,94.0,6.6,7,5,7,1,2026-07-11T20:26:32.498097+05:30
Ludhiana,Punjab,30.901,75.8573,29.9,82,0.0,968.6,7.9,31.0,158,381.8,133.2,35.4,348.0,81.0,9.3,7,5,7,1,2026-07-11T20:26:32.498102+05:30
Jalandhar,Punjab,31.326,75.5762,28.7,87,0.0,969.6,8.15,27.7,164,291.5,114.1,37.6,374.0,90.0,8.3,7,5,7,1,2026-07-11T20:26:32.498107+05:30
Dehradun,Uttarakhand,30.6284,78.0322,18.5,98,0.0,824.2,7.85,21.6,105,16.8,15.4,12.5,266.0,120.0,2.7,3,10,7,1,2026-07-11T20:26:32.498112+05:30
Shimla,Himachal Pradesh,31.1048,77.1734,16.3,95,0.0,779.0,3.75,31.3,157,42.7,34.7,9.4,528.0,147.0,8.7,3,10,3,0,2026-07-11T20:26:32.498117+05:30
Manali,Himachal Pradesh,32.2396,77.1887,19.9,95,0.1,813.9,7.7,19.1,117,4.5,4.3,36.6,246.0,112.0,0.7,6,10,7,1,2026-07-11T20:26:32.498125+05:30
Gurgaon,Haryana,28.4595,77.0266,31.9,70,0.0,971.4,7.7,30.2,469,728.3,165.3,45.1,518.0,54.0,12.8,3,5,7,1,2026-07-11T20:26:32.498131+05:30
Noida,Uttar Pradesh,28.5355,77.391,31.8,74,0.0,974.4,7.65,29.2,469,728.3,165.3,45.1,676.0,54.0,12.8,3,5,7,1,2026-07-11T20:26:32.498137+05:30
Ghaziabad,Uttar Pradesh,28.6692,77.4538,31.7,74,0.0,972.6,7.05,34.2,189,622.1,180.7,42.7,370.0,78.0,20.6,3,5,7,1,2026-07-11T20:26:32.498143+05:30
Faridabad,Haryana,28.4089,77.3178,31.5,80,0.0,973.7,7.65,31.3,469,728.3,165.3,45.1,334.0,54.0,12.8,3,5,7,1,2026-07-11T20:26:32.498147+05:30
Meerut,Uttar Pradesh,28.9845,77.7064,30.8,82,0.0,971.7,7.6,28.4,189,622.1,180.7,42.7,359.0,78.0,20.6,3,5,7,1,2026-07-11T20:26:32.498152+05:30
Agra,Uttar Pradesh,27.1767,78.0081,30.8,66,0.0,978.1,8.0,39.6,158,228.6,54.5,14.6,229.0,75.0,5.4,3,5,7,1,2026-07-11T20:26:32.498157+05:30
Varanasi,Uttar Pradesh,25.3176,82.9739,30.3,76,0.0,989.2,6.3,47.5,113,57.0,37.8,9.9,349.0,89.0,8.0,3,5,7,1,2026-07-11T20:26:32.498162+05:30
Prayagraj,Uttar Pradesh,25.4358,81.8463,31.5,65,0.0,987.3,8.25,43.9,114,68.9,42.0,9.3,207.0,89.0,8.0,3,5,7,1,2026-07-11T20:26:32.498166+05:30
Gorakhpur,Uttar Pradesh,26.7606,83.3732,26.6,96,0.0,988.7,6.05,36.0,104,78.0,54.0,16.0,369.0,93.0,7.9,7,5,7,1,2026-07-11T20:26:32.498171+05:30
Bareilly,Uttar Pradesh,28.367,79.4304,26.5,91,0.1,977.6,8.0,36.0,151,148.5,77.1,17.7,431.0,90.0,8.2,10,5,7,1,2026-07-11T20:26:32.498177+05:30
Aligarh,Uttar Pradesh,27.8974,78.088,31.0,73,0.0,975.8,7.8,32.8,296,461.0,107.6,15.4,203.0,78.0,5.6,3,5,7,1,2026-07-11T20:26:32.498181+05:30
Moradabad,Uttar Pradesh,28.8386,78.7733,27.1,93,0.1,974.3,7.8,33.5,153,246.8,110.4,18.1,422.0,118.0,11.5,10,5,7,1,2026-07-11T20:26:32.498185+05:30
Saharanpur,Uttar Pradesh,29.9637,77.546,29.1,86,0.0,966.1,7.35,23.4,152,111.3,60.1,17.6,453.0,105.0,11.5,7,5,7,1,2026-07-11T20:26:32.498190+05:30
Jhansi,Uttar Pradesh,25.4484,78.5685,30.2,63,0.0,969.7,8.4,46.8,96,53.6,29.4,6.6,158.0,85.0,6.5,3,5,7,1,2026-07-11T20:26:35.831763+05:30
Surat,Gujarat,21.1702,72.8311,28.9,83,0.0,1002.6,5.1,61.6,61,23.5,13.7,12.1,195.0,38.0,20.7,7,5,0,1,2026-07-11T20:26:35.831827+05:30
Vadodara,Gujarat,22.3072,73.1812,29.2,81,0.0,998.5,7.75,54.0,59,35.7,20.4,9.0,142.0,57.0,6.9,7,5,7,1,2026-07-11T20:26:35.831836+05:30
Rajkot,Gujarat,22.3039,70.8022,29.6,67,0.0,988.3,7.1,58.7,60,49.0,21.4,3.2,107.0,56.0,3.6,7,5,7,1,2026-07-11T20:26:35.831842+05:30
Thane,Maharashtra,19.2183,72.9781,27.6,87,0.0,1005.9,6.2,44.6,56,30.6,13.7,7.5,212.0,44.0,4.8,7,5,4,1,2026-07-11T20:26:35.831849+05:30
Nagpur,Maharashtra,21.1458,79.0882,29.0,67,0.0,968.0,6.8,47.2,85,52.5,27.2,10.9,207.0,69.0,10.7,7,5,7,1,2026-07-11T20:26:35.831854+05:30
Nashik,Maharashtra,19.9975,73.7898,23.9,89,0.0,942.7,7.45,63.7,37,16.5,9.0,5.4,121.0,44.0,2.0,3,5,7,1,2026-07-11T20:26:35.831859+05:30
Aurangabad,Maharashtra,19.8762,75.3433,26.6,72,0.0,941.1,8.9,60.5,51,25.5,12.7,4.4,135.0,66.0,5.2,7,5,7,1,2026-07-11T20:26:35.831865+05:30
Solapur,Maharashtra,17.6599,75.9064,28.6,61,0.0,954.9,7.85,48.2,46,33.8,14.1,4.1,129.0,56.0,2.0,7,5,7,1,2026-07-11T20:26:35.831870+05:30
Kolhapur,Maharashtra,16.705,74.2433,23.2,90,0.0,947.3,7.2,50.4,38,21.4,10.9,6.2,144.0,42.0,2.5,3,5,7,1,2026-07-11T20:26:35.831874+05:30
Goa,Goa,15.2993,74.124,26.7,88,0.0,998.3,8.0,34.2,55,21.7,11.0,3.1,168.0,45.0,1.4,7,5,7,1,2026-07-11T20:26:35.831880+05:30
Jodhpur,Rajasthan,26.2389,73.0243,33.8,50,0.0,973.0,8.4,53.6,198,408.9,88.9,3.7,120.0,73.0,2.2,0,5,7,1,2026-07-11T20:26:35.831884+05:30
Udaipur,Rajasthan,24.5854,73.7125,28.4,61,0.0,939.4,8.6,53.3,70,49.6,24.9,2.8,117.0,82.0,3.0,7,5,7,1,2026-07-11T20:26:35.831889+05:30
Kota,Rajasthan,25.2138,75.8648,31.2,57,0.0,970.8,8.3,42.5,86,41.4,21.9,4.9,154.0,81.0,5.2,0,5,7,1,2026-07-11T20:26:35.831894+05:30
Bikaner,Rajasthan,28.0229,73.3119,35.0,47,0.0,970.5,8.45,42.5,158,305.5,88.2,2.3,122.0,81.0,3.6,0,5,7,1,2026-07-11T20:26:35.831898+05:30
Ajmer,Rajasthan,26.4499,74.6399,30.1,59,0.0,946.2,8.25,52.2,81,39.8,21.2,4.4,136.0,78.0,2.9,0,5,7,1,2026-07-11T20:26:35.831903+05:30
Gwalior,Madhya Pradesh,26.2183,78.1828,29.6,69,0.0,974.4,8.15,45.7,89,49.2,28.5,6.3,159.0,83.0,4.9,7,5,7,1,2026-07-11T20:26:35.831908+05:30
Indore,Madhya Pradesh,22.7196,75.8577,26.8,76,0.0,943.0,8.45,61.2,70,41.0,22.7,6.1,222.0,77.0,5.7,7,5,7,1,2026-07-11T20:26:35.831912+05:30
Bhopal,Madhya Pradesh,23.2599,77.4126,28.0,70,0.0,947.9,8.55,50.4,81,44.5,24.3,5.4,232.0,74.0,4.2,7,5,7,1,2026-07-11T20:26:35.831916+05:30
Jabalpur,Madhya Pradesh,23.1815,79.9864,27.3,69,0.0,955.9,5.9,44.6,86,52.7,27.4,4.3,188.0,80.0,4.3,7,5,3,1,2026-07-11T20:26:35.831921+05:30
Ujjain,Madhya Pradesh,23.1765,75.7885,27.6,70,0.0,948.2,7.35,54.7,70,42.7,24.0,3.9,177.0,78.0,4.5,7,5,7,1,2026-07-11T20:26:35.831926+05:30
Visakhapatnam,Andhra Pradesh,17.6868,83.2185,30.9,66,0.0,998.2,7.7,37.8,94,47.5,29.2,17.5,325.0,89.0,30.7,3,5,7,1,2026-07-11T20:26:35.831930+05:30
Vijayawada,Andhra Pradesh,16.5062,80.648,32.7,56,0.0,998.7,5.95,44.6,88,41.0,27.0,16.5,220.0,49.0,5.8,0,5,3,1,2026-07-11T20:26:35.831935+05:30
Guntur,Andhra Pradesh,16.3067,80.4365,34.3,39,0.0,1000.0,5.5,47.5,83,41.9,26.0,15.3,211.0,49.0,5.3,0,5,0,1,2026-07-11T20:26:35.831939+05:30
Nellore,Andhra Pradesh,14.4426,79.9865,34.0,46,0.0,1002.4,7.85,42.5,66,47.1,25.3,6.2,254.0,103.0,4.7,0,5,4,1,2026-07-11T20:26:35.831945+05:30
Kurnool,Andhra Pradesh,15.8281,78.0373,32.1,42,0.0,974.0,7.7,47.5,60,41.4,18.5,7.2,135.0,68.0,5.9,0,5,7,1,2026-07-11T20:26:35.831950+05:30
Kakinada,Andhra Pradesh,16.9891,82.2475,31.3,64,0.0,1002.8,7.9,49.0,80,39.7,22.5,6.3,222.0,97.0,4.6,3,5,4,1,2026-07-11T20:26:35.831954+05:30
Tirupati,Andhra Pradesh,13.6288,79.4192,32.4,52,0.0,988.3,8.1,37.1,64,85.0,43.1,41.4,269.0,39.0,5.0,0,5,7,1,2026-07-11T20:26:35.831958+05:30
Warangal,Telangana,17.9689,79.5941,29.1,65,0.0,974.9,5.6,44.3,77,49.0,28.4,14.5,295.0,51.0,5.2,7,5,3,1,2026-07-11T20:26:35.831963+05:30
Nizamabad,Telangana,18.6725,78.0941,28.9,59,0.0,960.7,8.7,49.0,71,53.8,25.9,9.5,179.0,63.0,4.7,4,5,7,1,2026-07-11T20:26:35.831968+05:30
Mysore,Karnataka,12.2958,76.6396,24.2,82,0.0,928.8,6.0,43.2,33,17.9,9.3,7.8,161.0,55.0,2.1,3,5,3,1,2026-07-11T20:26:35.831972+05:30
Mangalore,Karnataka,12.9141,74.856,26.8,88,0.0,1007.6,8.15,44.6,53,19.4,10.0,4.2,127.0,45.0,1.9,7,5,4,1,2026-07-11T20:26:35.831976+05:30
Hubli-Dharwad,Karnataka,15.3647,75.124,24.0,86,0.0,940.6,7.25,49.3,33,14.6,7.7,5.2,138.0,45.0,1.5,3,5,7,1,2026-07-11T20:26:35.831981+05:30
Belgaum,Karnataka,15.8497,74.4977,22.1,91,0.0,925.2,8.35,49.7,32,15.8,7.9,5.4,118.0,39.0,1.6,3,5,7,1,2026-07-11T20:26:39.127903+05:30
Coimbatore,Tamil Nadu,11.0168,76.9558,25.1,89,0.0,961.5,8.25,47.9,35,14.5,9.5,10.2,173.0,41.0,3.1,7,5,7,1,2026-07-11T20:26:39.127938+05:30
Madurai,Tamil Nadu,9.9252,78.1198,31.9,58,0.0,991.5,8.15,28.1,55,12.3,8.8,24.5,240.0,33.0,4.5,0,5,7,1,2026-07-11T20:26:39.127947+05:30
Trichy,Tamil Nadu,10.7905,78.7047,31.8,55,0.0,998.3,8.05,47.9,48,21.4,11.6,8.5,139.0,61.0,3.0,0,5,7,1,2026-07-11T20:26:39.127955+05:30
Salem,Tamil Nadu,11.6643,78.146,29.1,68,0.0,976.3,7.8,27.4,60,35.3,17.2,11.4,321.0,67.0,5.3,7,5,7,1,2026-07-11T20:26:39.127962+05:30
Tirunelveli,Tamil Nadu,8.7139,77.7567,31.0,58,0.0,1002.8,8.6,49.3,31,12.1,6.9,4.5,129.0,54.0,1.7,0,5,4,1,2026-07-11T20:26:39.127969+05:30
Vellore,Tamil Nadu,12.9165,79.1325,33.1,38,0.0,982.0,8.75,41.4,57,65.7,32.9,21.6,228.0,50.0,4.6,0,5,7,1,2026-07-11T20:26:39.127975+05:30
Erode,Tamil Nadu,11.341,77.7172,29.5,67,0.0,988.3,7.85,35.6,52,38.2,15.9,11.5,183.0,55.0,2.9,7,5,7,1,2026-07-11T20:26:39.127981+05:30
Kochi,Kerala,9.9312,76.2673,27.4,88,0.0,1009.7,7.75,36.7,51,18.2,12.1,13.2,129.0,34.0,3.7,7,0,4,1,2026-07-11T20:26:39.127987+05:30
Thiruvananthapuram,Kerala,8.5241,76.9366,26.7,87,0.0,1009.2,8.0,49.3,36,15.1,8.6,4.7,117.0,52.0,1.4,7,0,4,1,2026-07-11T20:26:39.127992+05:30
Kozhikode,Kerala,11.2588,75.7804,26.1,94,0.1,1008.9,7.4,37.8,41,17.2,8.4,1.6,137.0,52.0,1.1,10,0,4,1,2026-07-11T20:26:39.127999+05:30
Thrissur,Kerala,10.5276,76.2144,26.9,88,0.0,1008.0,7.1,36.7,53,16.6,10.7,7.7,173.0,38.0,2.4,7,0,4,1,2026-07-11T20:26:39.128005+05:30
Kannur,Kerala,11.8745,75.3704,27.6,83,0.0,1008.1,8.05,41.4,50,15.0,8.7,7.1,154.0,42.0,1.9,7,0,4,1,2026-07-11T20:26:39.128012+05:30
Patna,Bihar,25.5941,85.1376,29.1,85,0.0,991.8,4.8,31.0,108,78.7,56.8,18.6,319.0,83.0,11.2,7,5,3,1,2026-07-11T20:26:39.128018+05:30
Gaya,Bihar,24.7914,85.0002,29.2,80,0.0,985.7,7.5,40.3,98,52.6,40.0,16.9,380.0,78.0,24.9,7,5,7,1,2026-07-11T20:26:39.128023+05:30
Muzaffarpur,Bihar,26.1209,85.3647,28.6,94,0.0,991.6,4.95,29.5,111,83.6,58.0,20.0,604.0,82.0,9.1,7,5,3,1,2026-07-11T20:26:39.128029+05:30
Bhagalpur,Bihar,25.2425,87.0117,29.1,81,0.0,992.5,7.65,34.2,81,26.9,21.0,11.2,375.0,84.0,6.6,7,5,7,1,2026-07-11T20:26:39.128035+05:30
Ranchi,Jharkhand,23.3441,85.3096,24.6,94,0.0,931.5,7.0,40.7,90,38.9,27.2,9.5,210.0,67.0,3.2,3,5,7,1,2026-07-11T20:26:39.128040+05:30
Jamshedpur,Jharkhand,22.8046,86.2029,29.0,79,0.0,983.9,8.5,34.2,110,40.4,29.6,13.6,307.0,68.0,10.7,7,5,7,1,2026-07-11T20:26:39.128046+05:30
Dhanbad,Jharkhand,23.7957,86.4304,27.3,90,0.0,972.3,8.65,32.0,125,39.2,31.8,35.2,310.0,41.0,73.8,7,5,7,1,2026-07-11T20:26:39.128052+05:30
Bokaro,Jharkhand,23.6693,86.1511,27.8,87,0.0,976.3,6.9,33.5,116,41.6,30.0,25.6,211.0,53.0,58.2,7,5,7,1,2026-07-11T20:26:39.128057+05:30
Bhubaneswar,Odisha,20.2961,85.8245,28.4,85,0.0,996.0,8.45,35.3,87,65.2,43.8,15.2,411.0,84.0,9.2,7,5,7,1,2026-07-11T20:26:39.128063+05:30
Cuttack,Odisha,20.4625,85.8828,29.2,83,0.0,997.7,8.55,36.0,87,65.2,43.8,15.2,464.0,84.0,9.2,7,5,7,1,2026-07-11T20:26:39.128068+05:30
Rourkela,Odisha,22.2604,84.8536,28.5,78,0.0,978.7,8.2,32.8,131,61.0,41.0,10.4,567.0,104.0,20.3,7,5,7,1,2026-07-11T20:26:39.128074+05:30
Raipur,Chhattisgarh,21.2514,81.6296,29.0,62,0.0,969.2,7.6,40.7,116,64.0,39.3,22.9,418.0,74.0,40.6,7,5,7,1,2026-07-11T20:26:39.128079+05:30
Bhilai,Chhattisgarh,21.1938,81.3509,28.6,63,0.0,969.7,7.4,45.4,109,65.0,37.7,18.4,568.0,79.0,33.2,7,5,7,1,2026-07-11T20:26:39.128085+05:30
Guwahati,Assam,26.1158,91.7086,26.3,99,0.1,993.1,8.55,24.5,45,13.5,13.4,9.7,314.0,64.0,2.4,10,5,7,1,2026-07-11T20:26:39.128090+05:30
Agartala,Tripura,23.8315,91.2868,26.4,99,0.2,998.9,6.75,35.6,79,45.1,38.4,11.8,270.0,80.0,5.2,10,5,7,1,2026-07-11T20:26:39.128095+05:30
Shillong,Meghalaya,25.5788,91.8933,21.5,94,0.0,851.7,3.95,27.4,42,4.3,4.1,8.0,313.0,84.0,3.8,3,5,3,1,2026-07-11T20:26:39.128101+05:30
Imphal,Manipur,24.817,93.9368,24.1,94,0.0,917.2,8.55,33.1,39,9.6,9.4,12.6,442.0,49.0,2.6,3,5,7,1,2026-07-11T20:26:39.128106+05:30
Aizawl,Mizoram,23.7271,92.7176,20.5,95,0.1,887.1,8.25,40.0,41,11.0,8.0,4.5,173.0,77.0,3.2,6,5,7,1,2026-07-11T20:26:39.128111+05:30
Kohima,Nagaland,25.6701,94.1077,21.4,98,0.2,850.4,6.6,20.9,37,7.5,7.3,9.2,285.0,52.0,1.7,6,5,7,1,2026-07-11T20:26:39.128117+05:30
Gangtok,Sikkim,27.3314,88.6138,19.6,96,0.4,832.4,8.5,30.6,49,7.3,7.3,6.3,297.0,96.0,1.0,6,10,7,1,2026-07-11T20:26:39.128122+05:30
Siliguri,West Bengal,26.7271,88.3953,26.0,99,0.3,984.6,5.0,25.6,90,26.3,26.1,11.9,639.0,100.0,3.4,10,5,3,1,2026-07-11T20:26:42.471269+05:30
Durgapur,West Bengal,23.5204,87.3119,28.5,85,0.0,987.2,6.3,35.3,129,40.2,36.4,44.1,712.0,37.0,65.3,7,5,7,1,2026-07-11T20:26:42.471299+05:30
Asansol,West Bengal,23.6739,86.9524,28.1,86,0.0,985.8,7.05,38.2,113,34.3,29.4,37.3,671.0,41.0,55.1,7,5,7,1,2026-07-11T20:26:42.471307+05:30
Pondicherry,Puducherry,11.9139,79.8145,30.1,77,0.0,1005.5,8.15,38.2,89,44.0,25.4,13.7,190.0,103.0,9.0,3,5,4,1,2026-07-11T20:26:42.471314+05:30
Port Blair,Andaman and Nicobar Islands,11.6234,92.7265,27.5,83,0.0,1006.5,8.8,57.6,34,14.8,7.9,0.4,99.0,48.0,0.4,7,5,4,1,2026-07-11T20:26:42.471320+05:30
Haridwar,Uttarakhand,29.9457,78.1642,27.6,95,0.0,964.7,7.5,20.5,154,76.1,49.4,15.4,449.0,114.0,10.9,7,5,7,1,2026-07-11T20:26:42.471326+05:30
Rishikesh,Uttarakhand,30.0869,78.2676,26.8,95,0.0,957.5,7.6,19.1,126,39.8,31.5,6.0,374.0,133.0,6.3,7,5,7,1,2026-07-11T20:26:42.471333+05:30
Nainital,Uttarakhand,29.3919,79.4542,17.7,100,0.0,800.0,3.1,27.7,111,44.4,30.7,13.1,299.0,105.0,7.7,3,10,3,1,2026-07-11T20:26:42.471345+05:30
Mussoorie,Uttarakhand,30.4599,78.0664,17.4,100,0.0,797.3,7.75,25.2,144,38.4,32.5,18.6,342.0,114.0,7.1,3,10,7,1,2026-07-11T20:26:42.471366+05:30
Dharamshala,Himachal Pradesh,32.219,76.3234,22.1,96,0.0,862.4,8.4,27.4,126,18.9,15.4,9.4,453.0,114.0,1.8,3,5,7,1,2026-07-11T20:26:42.471373+05:30
Dalhousie,Himachal Pradesh,32.5387,75.971,18.1,98,0.0,798.6,8.65,20.9,168,45.6,32.8,13.9,519.0,156.0,3.9,3,10,7,1,2026-07-11T20:26:42.471380+05:30
Patiala,Punjab,30.3398,76.3869,30.2,82,0.0,968.1,7.5,24.5,157,480.6,146.7,33.4,421.0,74.0,8.3,3,5,7,1,2026-07-11T20:26:42.471386+05:30
Bhatinda,Punjab,30.211,74.9455,33.1,67,0.0,972.6,8.1,27.0,175,226.8,109.0,30.4,362.0,78.0,11.7,3,5,7,1,2026-07-11T20:26:42.471392+05:30
Rohtak,Haryana,28.8955,76.6066,30.9,73,0.0,971.3,7.6,32.0,694,573.7,135.5,29.0,312.0,63.0,5.0,3,5,7,1,2026-07-11T20:26:42.471397+05:30
Panipat,Haryana,29.3909,76.9635,30.6,81,0.0,970.3,7.1,25.6,803,1002.1,200.7,26.5,357.0,65.0,8.3,3,5,7,1,2026-07-11T20:26:42.471403+05:30
Mathura,Uttar Pradesh,27.4924,77.6737,31.2,62,0.0,977.0,7.6,32.4,466,983.5,147.1,15.4,189.0,78.0,3.9,3,5,7,1,2026-07-11T20:26:42.471408+05:30
Vrindavan,Uttar Pradesh,27.5823,77.7027,31.4,60,0.0,977.5,7.75,30.6,466,983.5,147.1,15.4,185.0,78.0,3.9,0,5,7,1,2026-07-11T20:26:42.471413+05:30
Ayodhya,Uttar Pradesh,26.7922,82.1998,28.3,93,0.0,986.1,6.95,37.4,147,124.3,71.0,18.1,337.0,71.0,6.5,7,5,7,1,2026-07-11T20:26:42.471419+05:30
Ratlam,Madhya Pradesh,23.3315,75.0367,27.6,74,0.0,948.8,5.5,59.0,67,44.2,24.4,3.3,125.0,80.0,4.6,7,5,3,1,2026-07-11T20:26:42.471424+05:30
Sagar,Madhya Pradesh,23.8388,78.7378,27.8,68,0.0,944.0,7.7,52.6,88,48.0,24.8,3.6,155.0,77.0,2.8,7,5,7,1,2026-07-11T20:26:42.471429+05:30
Satna,Madhya Pradesh,24.6005,80.8322,29.8,59,0.0,964.1,8.15,45.0,94,49.2,28.0,6.7,161.0,80.0,4.1,4,5,7,1,2026-07-11T20:26:42.471434+05:30
Akola,Maharashtra,20.7002,77.0082,30.7,54,0.0,970.4,8.7,50.4,67,36.0,16.8,6.0,125.0,66.0,5.9,0,5,7,1,2026-07-11T20:26:42.471440+05:30
Amravati,Maharashtra,20.9374,77.7796,29.6,60,0.0,962.4,8.65,52.9,69,40.4,18.7,6.9,159.0,70.0,7.0,4,5,7,1,2026-07-11T20:26:42.471445+05:30
Latur,Maharashtra,18.4088,76.5604,27.6,59,0.0,936.9,8.5,46.8,52,36.8,15.5,3.3,144.0,65.0,2.3,4,5,7,1,2026-07-11T20:26:42.471451+05:30
Nanded,Maharashtra,19.1383,77.3091,29.7,56,0.0,964.4,8.1,46.4,63,46.3,21.7,6.6,173.0,68.0,3.3,4,5,7,1,2026-07-11T20:26:42.471456+05:30
Gulbarga,Karnataka,17.3297,76.8343,29.1,56,0.0,956.2,7.65,49.3,53,36.8,15.7,6.8,140.0,60.0,2.5,4,5,7,1,2026-07-11T20:26:42.471460+05:30
Bidar,Karnataka,17.9104,77.5199,28.0,54,0.0,932.6,6.4,44.3,60,42.6,18.9,6.8,155.0,66.0,2.2,4,5,7,1,2026-07-11T20:26:42.471464+05:30
Hospet,Karnataka,15.2689,76.3909,27.6,63,0.0,955.0,8.3,49.0,43,23.5,10.9,5.5,127.0,54.0,1.9,7,5,7,1,2026-07-11T20:26:42.471469+05:30
Tirupur,Tamil Nadu,11.1085,77.3411,27.4,76,0.0,974.6,8.1,50.0,54,37.5,16.3,12.9,171.0,52.0,3.9,7,5,7,1,2026-07-11T20:26:42.471473+05:30
Alappuzha,Kerala,9.4981,76.3388,27.7,87,0.0,1009.9,8.2,41.8,44,17.7,10.3,8.8,84.0,46.0,2.8,7,0,4,1,2026-07-11T20:26:42.471478+05:30
Munnar,Kerala,10.0889,77.0595,17.2,98,0.0,857.0,8.2,38.2,24,9.6,6.4,8.8,111.0,35.0,1.7,3,10,7,1,2026-07-11T20:26:42.471483+05:30
Silchar,Assam,24.8333,92.7789,27.2,97,0.0,997.8,7.95,27.7,41,14.1,13.3,7.8,322.0,75.0,3.9,7,5,7,1,2026-07-11T20:26:42.471488+05:30
Dibrugarh,Assam,27.4728,94.912,29.1,88,0.0,986.8,6.55,28.4,48,13.0,12.9,9.9,241.0,64.0,1.8,7,5,7,1,2026-07-11T20:26:42.471493+05:30
