city,state,latitude,longitude,temp,humidity,rain,pressure,uv_index,wind_gusts,aqi,pm10,pm2_5,mosquito_risk,arthritis_risk,migraine_risk,frizz_risk,updated_at
Delhi,Delhi,28.6139,77.209,26.3,49,0.0,989.4,6.45,29.2,153,163.4,53.8,4,5,7,0,2026-03-22T12:28:34.713561+05:30
Mumbai,Maharashtra,19.076,72.8777,29.8,56,0.0,1010.7,7.9,30.2,84,35.7,28.5,4,0,4,1,2026-03-22T12:28:34.713608+05:30
Bangalore,Karnataka,12.9716,77.5946,29.6,46,0.0,914.6,9.45,25.2,103,39.9,30.0,4,5,7,1,2026-03-22T12:28:34.713624+05:30
Hyderabad,Telangana,17.385,78.4867,31.2,44,0.0,957.1,8.9,29.5,95,47.7,28.6,0,5,7,1,2026-03-22T12:28:34.713634+05:30
Chennai,Tamil Nadu,13.0827,80.2707,32.9,52,0.0,1010.4,9.2,32.4,41,13.9,8.5,0,0,4,1,2026-03-22T12:28:34.713644+05:30
Kolkata,West Bengal,22.5726,88.3639,26.5,56,0.0,1011.3,8.25,20.5,108,47.8,44.5,4,0,4,1,2026-03-22T12:28:34.713654+05:30
Pune,Maharashtra,18.5204,73.8567,33.8,24,0.0,951.7,8.45,27.4,77,9.6,8.6,0,5,7,0,2026-03-22T12:28:34.713666+05:30
Ahmedabad,Gujarat,23.0225,72.5714,33.7,30,0.0,1006.9,7.55,22.0,74,31.5,15.0,0,5,4,0,2026-03-22T12:28:34.713674+05:30
Jaipur,Rajasthan,26.9124,75.7873,28.5,39,0.0,965.8,7.2,27.4,86,125.3,28.2,4,5,7,0,2026-03-22T12:28:34.713682+05:30
Lucknow,Uttar Pradesh,26.8467,80.9462,26.8,49,0.0,999.4,6.95,26.6,111,34.3,23.1,4,5,7,0,2026-03-22T12:28:34.713690+05:30
Kanpur,Uttar Pradesh,26.4499,80.3319,26.5,54,0.0,997.9,7.0,27.0,123,150.4,36.7,4,5,7,1,2026-03-22T12:28:34.713698+05:30
Chandigarh,Chandigarh,30.7333,76.7794,25.1,50,0.0,974.5,6.35,34.2,87,33.6,25.1,4,5,7,0,2026-03-22T12:28:34.713706+05:30
Srinagar,Jammu and Kashmir,34.0837,74.7973,15.3,47,0.0,845.1,7.5,14.0,111,28.5,22.2,0,5,7,0,2026-03-22T12:28:34.713713+05:30
Jammu,Jammu and Kashmir,32.7266,74.857,24.7,52,0.0,978.3,6.85,22.7,99,33.8,26.4,0,5,7,0,2026-03-22T12:28:34.713720+05:30
Amritsar,Punjab,31.634,74.8723,24.3,54,0.0,987.2,7.0,19.8,157,63.3,50.3,0,5,7,0,2026-03-22T12:28:34.713726+05:30
Ludhiana,Punjab,30.901,75.8573,24.5,53,0.0,985.3,6.6,27.0,129,63.3,52.5,0,5,7,0,2026-03-22T12:28:34.713733+05:30
Jalandhar,Punjab,31.326,75.5762,23.8,57,0.0,986.3,6.75,22.3,149,69.8,56.3,0,5,7,0,2026-03-22T12:28:34.713742+05:30
Dehradun,Uttarakhand,30.6284,78.0322,15.8,73,0.0,832.4,6.8,22.3,42,13.3,6.9,3,5,7,0,2026-03-22T12:28:34.713749+05:30
Shimla,Himachal Pradesh,31.1048,77.1734,15.3,54,0.0,787.4,6.85,37.1,66,17.3,9.5,0,5,7,0,2026-03-22T12:28:34.713758+05:30
Manali,Himachal Pradesh,32.2396,77.1887,18.2,19,0.0,821.0,8.85,33.8,75,10.2,5.6,0,5,7,1,2026-03-22T12:28:34.713765+05:30
Gurgaon,Haryana,28.4595,77.0266,26.4,53,0.0,987.9,6.55,24.1,238,918.3,113.2,4,5,7,1,2026-03-22T12:28:34.713787+05:30
Noida,Uttar Pradesh,28.5355,77.391,26.7,48,0.0,990.9,6.45,28.4,238,918.3,113.2,4,5,7,0,2026-03-22T12:28:34.713795+05:30
Ghaziabad,Uttar Pradesh,28.6692,77.4538,26.1,53,0.0,989.1,6.45,29.5,142,136.0,49.5,4,5,7,0,2026-03-22T12:28:34.713801+05:30
Faridabad,Haryana,28.4089,77.3178,26.6,51,0.0,990.3,6.5,25.6,238,918.3,113.2,4,5,7,0,2026-03-22T12:28:34.713807+05:30
Meerut,Uttar Pradesh,28.9845,77.7064,26.2,49,0.0,987.5,6.3,33.1,142,136.0,49.5,4,5,7,0,2026-03-22T12:28:34.713813+05:30
Agra,Uttar Pradesh,27.1767,78.0081,29.7,39,0.0,994.2,6.65,28.1,531,514.1,74.7,4,5,7,0,2026-03-22T12:28:34.713820+05:30
Varanasi,Uttar Pradesh,25.3176,82.9739,26.6,50,0.0,1003.4,7.1,28.4,102,51.6,23.5,4,5,4,0,2026-03-22T12:28:34.713829+05:30
Prayagraj,Uttar Pradesh,25.4358,81.8463,26.7,50,0.0,1002.1,7.5,26.6,122,30.2,21.2,4,5,4,0,2026-03-22T12:28:34.713836+05:30
Gorakhpur,Uttar Pradesh,26.7606,83.3732,24.7,57,0.0,1003.3,7.25,11.2,160,43.5,36.4,0,5,4,0,2026-03-22T12:28:34.713843+05:30
Bareilly,Uttar Pradesh,28.367,79.4304,26.4,53,0.0,992.6,6.65,31.0,106,52.3,33.3,4,5,7,0,2026-03-22T12:28:34.713852+05:30
Aligarh,Uttar Pradesh,27.8974,78.088,27.4,48,0.0,992.0,6.6,27.7,188,334.3,65.2,4,5,7,0,2026-03-22T12:28:34.713859+05:30
Moradabad,Uttar Pradesh,28.8386,78.7733,26.0,52,0.0,989.5,6.5,31.3,139,75.4,56.0,4,5,7,0,2026-03-22T12:28:34.713865+05:30
Saharanpur,Uttar Pradesh,29.9637,77.546,25.6,51,0.0,981.2,6.15,36.0,142,61.0,49.5,4,5,7,0,2026-03-22T12:28:34.713871+05:30
Jhansi,Uttar Pradesh,25.4484,78.5685,29.1,39,0.0,984.3,7.45,28.4,74,136.4,31.1,4,5,7,0,2026-03-22T12:28:37.931636+05:30
Surat,Gujarat,21.1702,72.8311,33.0,33,0.0,1010.7,7.65,25.2,96,59.8,46.8,0,0,4,0,2026-03-22T12:28:37.931670+05:30
Vadodara,Gujarat,22.3072,73.1812,35.3,23,0.0,1008.7,7.8,18.7,70,34.3,17.4,0,0,7,0,2026-03-22T12:28:37.931681+05:30
Rajkot,Gujarat,22.3039,70.8022,32.0,47,0.0,999.3,7.6,26.3,61,52.0,20.5,0,5,7,1,2026-03-22T12:28:37.931689+05:30
Thane,Maharashtra,19.2183,72.9781,36.0,22,0.0,1010.1,7.85,42.5,84,35.7,28.5,0,0,7,0,2026-03-22T12:28:37.931696+05:30
Nagpur,Maharashtra,21.1458,79.0882,30.8,26,0.0,978.5,8.35,19.4,44,20.7,11.8,0,5,7,0,2026-03-22T12:28:37.931703+05:30
Nashik,Maharashtra,19.9975,73.7898,30.8,30,0.0,949.3,8.05,29.2,52,19.0,8.6,0,5,7,0,2026-03-22T12:28:37.931709+05:30
Aurangabad,Maharashtra,19.8762,75.3433,31.4,23,0.0,948.4,8.6,27.0,54,12.4,10.1,0,5,7,0,2026-03-22T12:28:37.931717+05:30
Solapur,Maharashtra,17.6599,75.9064,34.0,27,0.0,960.7,8.75,24.5,68,40.3,27.8,0,5,7,0,2026-03-22T12:28:37.931724+05:30
Kolhapur,Maharashtra,16.705,74.2433,31.7,34,0.0,951.1,8.85,32.0,89,31.8,20.5,0,5,7,0,2026-03-22T12:28:37.931731+05:30
Goa,Goa,15.2993,74.124,32.4,52,0.0,1000.4,8.85,36.7,89,39.0,22.5,0,5,4,1,2026-03-22T12:28:37.931738+05:30
Jodhpur,Rajasthan,26.2389,73.0243,30.0,41,0.0,988.7,7.55,25.6,66,87.1,22.8,4,5,7,0,2026-03-22T12:28:37.931745+05:30
Udaipur,Rajasthan,24.5854,73.7125,29.7,30,0.0,951.9,8.15,29.2,58,38.1,12.7,4,5,7,0,2026-03-22T12:28:37.931751+05:30
Kota,Rajasthan,25.2138,75.8648,32.1,27,0.0,984.6,7.45,11.9,81,36.9,21.4,0,5,7,0,2026-03-22T12:28:37.931758+05:30
Bikaner,Rajasthan,28.0229,73.3119,28.2,43,0.0,987.7,7.2,16.9,62,95.9,23.7,4,5,7,0,2026-03-22T12:28:37.931766+05:30
Ajmer,Rajasthan,26.4499,74.6399,29.0,35,0.0,960.1,7.5,27.0,70,38.5,17.9,4,5,7,0,2026-03-22T12:28:37.931790+05:30
Gwalior,Madhya Pradesh,26.2183,78.1828,28.9,40,0.0,989.7,7.15,26.6,137,126.2,32.5,4,5,7,0,2026-03-22T12:28:37.931797+05:30
Indore,Madhya Pradesh,22.7196,75.8577,30.2,27,0.0,953.1,8.05,17.6,58,23.1,12.2,0,5,7,0,2026-03-22T12:28:37.931803+05:30
Bhopal,Madhya Pradesh,23.2599,77.4126,31.0,25,0.0,959.1,7.95,25.2,48,21.8,10.2,0,5,7,0,2026-03-22T12:28:37.931810+05:30
Jabalpur,Madhya Pradesh,23.1815,79.9864,28.9,33,0.0,967.0,8.05,29.9,52,63.6,18.0,4,5,7,0,2026-03-22T12:28:37.931816+05:30
Ujjain,Madhya Pradesh,23.1765,75.7885,29.8,31,0.0,958.9,8.0,13.3,65,25.0,13.2,4,5,7,0,2026-03-22T12:28:37.931824+05:30
Visakhapatnam,Andhra Pradesh,17.6868,83.2185,31.7,54,0.0,1007.3,8.85,34.2,80,28.0,22.4,0,5,4,1,2026-03-22T12:28:37.931830+05:30
Vijayawada,Andhra Pradesh,16.5062,80.648,31.2,61,0.0,1006.9,8.9,22.3,63,22.5,15.1,3,5,4,1,2026-03-22T12:28:37.931837+05:30
Guntur,Andhra Pradesh,16.3067,80.4365,31.4,62,0.0,1008.1,8.9,19.4,67,22.5,14.4,3,0,4,1,2026-03-22T12:28:37.931844+05:30
Nellore,Andhra Pradesh,14.4426,79.9865,33.6,49,0.0,1008.9,9.05,30.2,51,23.7,15.9,0,0,4,1,2026-03-22T12:28:37.931851+05:30
Kurnool,Andhra Pradesh,15.8281,78.0373,34.6,42,0.0,979.7,8.95,20.2,73,32.6,24.2,0,5,7,1,2026-03-22T12:28:37.931858+05:30
Kakinada,Andhra Pradesh,16.9891,82.2475,33.2,50,0.0,1011.1,8.3,27.0,36,19.3,12.8,0,0,4,1,2026-03-22T12:28:37.931865+05:30
Tirupati,Andhra Pradesh,13.6288,79.4192,32.0,51,0.0,994.9,9.2,29.2,74,23.5,16.4,0,5,7,1,2026-03-22T12:28:37.931870+05:30
Warangal,Telangana,17.9689,79.5941,31.0,54,0.0,983.0,8.75,19.8,109,40.9,29.4,0,5,7,1,2026-03-22T12:28:37.931876+05:30
Nizamabad,Telangana,18.6725,78.0941,32.3,38,0.0,968.9,8.65,27.4,87,26.8,21.4,0,5,7,1,2026-03-22T12:28:37.931882+05:30
Mysore,Karnataka,12.2958,76.6396,31.3,42,0.0,931.1,9.4,33.1,96,32.8,24.5,0,5,7,1,2026-03-22T12:28:37.931889+05:30
Mangalore,Karnataka,12.9141,74.856,29.1,79,0.0,1009.0,9.05,28.1,71,34.9,20.3,7,0,4,1,2026-03-22T12:28:37.931895+05:30
Hubli-Dharwad,Karnataka,15.3647,75.124,33.2,27,0.0,943.6,9.05,27.4,65,25.2,14.8,0,5,7,0,2026-03-22T12:28:37.931901+05:30
Belgaum,Karnataka,15.8497,74.4977,32.5,26,0.0,929.0,9.1,36.7,67,24.2,15.1,0,5,7,0,2026-03-22T12:28:41.146499+05:30
Coimbatore,Tamil Nadu,11.0168,76.9558,32.9,37,0.0,964.2,9.4,30.6,75,27.1,18.7,0,5,7,1,2026-03-22T12:28:41.146532+05:30
Madurai,Tamil Nadu,9.9252,78.1198,33.6,45,0.0,995.4,9.35,29.5,64,22.6,14.5,0,5,7,1,2026-03-22T12:28:41.146543+05:30
Trichy,Tamil Nadu,10.7905,78.7047,33.2,50,0.0,1002.3,9.25,24.1,68,19.0,13.3,0,5,4,1,2026-03-22T12:28:41.146551+05:30
Salem,Tamil Nadu,11.6643,78.146,32.0,50,0.0,980.1,9.3,20.9,79,31.8,23.5,0,5,7,1,2026-03-22T12:28:41.146559+05:30
Tirunelveli,Tamil Nadu,8.7139,77.7567,33.6,49,0.0,1005.5,9.3,29.5,69,17.7,12.1,0,5,4,1,2026-03-22T12:28:41.146566+05:30
Vellore,Tamil Nadu,12.9165,79.1325,33.5,42,0.0,987.6,9.25,35.3,99,30.4,22.6,0,5,7,1,2026-03-22T12:28:41.146573+05:30
Erode,Tamil Nadu,11.341,77.7172,32.9,50,0.0,991.7,9.3,32.8,58,24.4,16.8,0,5,7,1,2026-03-22T12:28:41.146580+05:30
Kochi,Kerala,9.9312,76.2673,28.7,78,0.0,1010.5,9.15,31.7,71,20.4,16.4,7,0,4,1,2026-03-22T12:28:41.146586+05:30
Thiruvananthapuram,Kerala,8.5241,76.9366,28.6,77,0.0,1009.7,9.15,25.9,57,20.2,17.6,7,0,4,1,2026-03-22T12:28:41.146593+05:30
Kozhikode,Kerala,11.2588,75.7804,30.2,73,0.0,1010.0,9.05,28.4,60,28.1,19.3,3,0,4,1,2026-03-22T12:28:41.146599+05:30
Thrissur,Kerala,10.5276,76.2144,34.2,52,0.0,1008.8,9.15,33.5,63,23.6,16.9,0,0,4,1,2026-03-22T12:28:41.146606+05:30
Kannur,Kerala,11.8745,75.3704,31.5,64,0.0,1009.5,9.1,31.7,65,36.7,21.4,3,0,4,1,2026-03-22T12:28:41.146614+05:30
Patna,Bihar,25.5941,85.1376,24.7,53,0.0,1006.5,7.7,20.9,161,58.0,48.3,0,5,4,0,2026-03-22T12:28:41.146621+05:30
Gaya,Bihar,24.7914,85.0002,25.2,53,0.0,999.5,7.8,22.7,147,44.6,29.1,4,5,7,0,2026-03-22T12:28:41.146627+05:30
Muzaffarpur,Bihar,26.1209,85.3647,23.5,61,0.0,1006.6,7.0,13.3,164,53.7,46.2,3,5,4,0,2026-03-22T12:28:41.146633+05:30
Bhagalpur,Bihar,25.2425,87.0117,23.5,64,0.0,1007.3,7.05,17.3,154,57.5,49.6,3,5,4,1,2026-03-22T12:28:41.146640+05:30
Ranchi,Jharkhand,23.3441,85.3096,23.9,41,0.0,941.7,8.45,29.9,87,68.5,17.3,0,5,7,0,2026-03-22T12:28:41.146646+05:30
Jamshedpur,Jharkhand,22.8046,86.2029,27.9,41,0.0,995.9,8.35,19.8,117,46.2,27.8,4,5,7,0,2026-03-22T12:28:41.146652+05:30
Dhanbad,Jharkhand,23.7957,86.4304,25.6,44,0.0,984.9,8.2,23.8,143,42.0,29.5,4,5,7,0,2026-03-22T12:28:41.146658+05:30
Bokaro,Jharkhand,23.6693,86.1511,25.7,44,0.0,988.8,8.25,24.5,148,49.5,25.8,4,5,7,0,2026-03-22T12:28:41.146665+05:30
Bhubaneswar,Odisha,20.2961,85.8245,30.2,51,0.0,1006.8,8.65,28.8,95,45.9,36.4,0,5,4,1,2026-03-22T12:28:41.146671+05:30
Cuttack,Odisha,20.4625,85.8828,30.2,52,0.0,1008.8,8.65,20.9,95,45.9,36.4,0,0,4,1,2026-03-22T12:28:41.146678+05:30
Rourkela,Odisha,22.2604,84.8536,28.5,39,0.0,990.1,8.25,19.4,91,41.3,20.3,4,5,7,0,2026-03-22T12:28:41.146684+05:30
Raipur,Chhattisgarh,21.2514,81.6296,30.8,25,0.0,979.8,8.4,18.4,86,25.4,17.1,0,5,7,0,2026-03-22T12:28:41.146689+05:30
Bhilai,Chhattisgarh,21.1938,81.3509,31.1,25,0.0,980.1,8.4,15.1,70,28.3,19.4,0,5,7,0,2026-03-22T12:28:41.146696+05:30
Guwahati,Assam,26.1158,91.7086,25.4,62,0.0,1005.6,7.6,18.0,91,26.1,21.8,7,5,4,1,2026-03-22T12:28:41.146702+05:30
Agartala,Tripura,23.8315,91.2868,27.5,53,0.0,1010.3,7.85,21.6,138,50.2,40.9,4,0,4,1,2026-03-22T12:28:41.146708+05:30
Shillong,Meghalaya,25.5788,91.8933,15.4,61,0.0,857.1,6.7,21.2,64,12.8,10.0,3,5,7,0,2026-03-22T12:28:41.146714+05:30
Imphal,Manipur,24.817,93.9368,18.5,77,0.0,924.7,8.15,51.8,76,5.7,5.0,3,5,7,0,2026-03-22T12:28:41.146721+05:30
Aizawl,Mizoram,23.7271,92.7176,19.6,68,0.0,895.3,8.2,44.6,73,7.5,6.2,3,5,7,0,2026-03-22T12:28:41.146727+05:30
Kohima,Nagaland,25.6701,94.1077,15.0,87,0.0,855.4,7.8,56.9,67,12.4,11.3,3,10,7,0,2026-03-22T12:28:41.146733+05:30
Gangtok,Sikkim,27.3314,88.6138,16.4,65,0.0,839.0,7.85,23.0,77,12.9,10.4,3,5,7,0,2026-03-22T12:28:41.146740+05:30
Siliguri,West Bengal,26.7271,88.3953,21.2,63,0.0,998.2,7.25,17.3,127,16.6,14.6,3,5,7,0,2026-03-22T12:28:44.366578+05:30
Durgapur,West Bengal,23.5204,87.3119,26.4,49,0.0,1000.4,7.95,19.8,112,46.9,39.9,4,5,4,0,2026-03-22T12:28:44.366612+05:30
Asansol,West Bengal,23.6739,86.9524,26.1,48,0.0,998.9,8.2,21.6,113,42.7,35.4,4,5,7,0,2026-03-22T12:28:44.366622+05:30
Pondicherry,Puducherry,11.9139,79.8145,33.4,53,0.0,1011.0,9.15,29.5,39,12.8,7.5,0,0,4,1,2026-03-22T12:28:44.366630+05:30
Port Blair,Andaman and Nicobar Islands,11.6234,92.7265,29.0,74,0.0,1009.0,9.1,20.9,45,12.3,10.0,7,0,4,1,2026-03-22T12:28:44.366638+05:30
Haridwar,Uttarakhand,29.9457,78.1642,25.4,59,0.0,979.6,6.25,24.5,91,35.3,27.2,4,5,7,1,2026-03-22T12:28:44.366645+05:30
Rishikesh,Uttarakhand,30.0869,78.2676,24.4,61,0.0,971.9,6.35,23.0,57,22.3,16.0,3,5,7,1,2026-03-22T12:28:44.366652+05:30
Nainital,Uttarakhand,29.3919,79.4542,17.3,68,0.0,808.7,7.1,40.3,63,22.3,16.2,3,5,7,0,2026-03-22T12:28:44.366659+05:30
Mussoorie,Uttarakhand,30.4599,78.0664,15.8,69,0.0,805.1,6.65,24.5,69,29.7,23.0,3,5,7,0,2026-03-22T12:28:44.366666+05:30
Dharamshala,Himachal Pradesh,32.219,76.3234,18.6,62,0.0,872.3,6.55,20.9,87,18.7,8.1,3,5,7,0,2026-03-22T12:28:44.366673+05:30
Dalhousie,Himachal Pradesh,32.5387,75.971,16.8,48,0.0,806.6,6.85,19.1,84,28.4,20.7,0,5,7,0,2026-03-22T12:28:44.366680+05:30
Patiala,Punjab,30.3398,76.3869,25.3,50,0.0,984.5,6.25,31.7,137,55.6,46.3,4,5,7,0,2026-03-22T12:28:44.366687+05:30
Bhatinda,Punjab,30.211,74.9455,26.1,52,0.0,990.4,6.8,21.6,153,76.8,57.0,4,5,7,0,2026-03-22T12:28:44.366694+05:30
Rohtak,Haryana,28.8955,76.6066,26.3,53,0.0,988.4,6.45,25.6,155,197.0,47.1,4,5,7,0,2026-03-22T12:28:44.366701+05:30
Panipat,Haryana,29.3909,76.9635,26.3,50,0.0,986.6,6.25,32.0,173,121.1,47.8,4,5,7,0,2026-03-22T12:28:44.366707+05:30
Mathura,Uttar Pradesh,27.4924,77.6737,28.8,43,0.0,993.3,6.15,25.6,441,462.9,67.1,4,5,7,0,2026-03-22T12:28:44.366713+05:30
Vrindavan,Uttar Pradesh,27.5823,77.7027,28.1,46,0.0,993.8,6.65,25.2,441,462.9,67.1,4,5,7,0,2026-03-22T12:28:44.366720+05:30
Ayodhya,Uttar Pradesh,26.7922,82.1998,25.9,52,0.0,1001.4,7.05,20.2,105,25.0,20.4,4,5,4,0,2026-03-22T12:28:44.366726+05:30
Ratlam,Madhya Pradesh,23.3315,75.0367,30.4,30,0.0,959.7,7.95,19.1,61,25.7,12.9,0,5,7,0,2026-03-22T12:28:44.366733+05:30
Sagar,Madhya Pradesh,23.8388,78.7378,29.4,29,0.0,955.8,7.95,30.2,53,64.5,17.6,4,5,7,0,2026-03-22T12:28:44.366739+05:30
Satna,Madhya Pradesh,24.6005,80.8322,26.6,47,0.0,977.1,7.9,33.5,63,123.9,26.8,4,5,7,0,2026-03-22T12:28:44.366745+05:30
Akola,Maharashtra,20.7002,77.0082,32.7,24,0.0,980.2,8.3,21.2,50,12.6,9.0,0,5,7,0,2026-03-22T12:28:44.366752+05:30
Amravati,Maharashtra,20.9374,77.7796,32.8,23,0.0,972.3,8.3,22.3,43,12.4,8.6,0,5,7,0,2026-03-22T12:28:44.366759+05:30
Latur,Maharashtra,18.4088,76.5604,32.0,26,0.0,943.8,8.7,28.8,66,26.4,16.9,0,5,7,0,2026-03-22T12:28:44.366765+05:30
Nanded,Maharashtra,19.1383,77.3091,34.3,24,0.0,972.8,8.5,28.4,66,8.6,7.1,0,5,7,0,2026-03-22T12:28:44.366790+05:30
Gulbarga,Karnataka,17.3297,76.8343,33.6,34,0.0,962.0,8.75,18.4,77,35.4,25.3,0,5,7,0,2026-03-22T12:28:44.366796+05:30
Bidar,Karnataka,17.9104,77.5199,32.1,36,0.0,939.2,8.75,22.7,86,52.4,34.3,0,5,7,0,2026-03-22T12:28:44.366802+05:30
Hospet,Karnataka,15.2689,76.3909,32.9,37,0.0,958.6,9.0,15.1,72,36.0,21.2,0,5,7,1,2026-03-22T12:28:44.366809+05:30
Tirupur,Tamil Nadu,11.1085,77.3411,33.7,39,0.0,977.7,9.4,29.9,66,23.8,16.4,0,5,7,1,2026-03-22T12:28:44.366814+05:30
Alappuzha,Kerala,9.4981,76.3388,28.6,79,0.0,1010.5,9.1,31.7,62,21.6,18.3,7,0,4,1,2026-03-22T12:28:44.366820+05:30
Munnar,Kerala,10.0889,77.0595,30.3,37,0.0,861.3,8.65,28.4,68,25.9,15.8,0,5,7,0,2026-03-22T12:28:44.366826+05:30
Silchar,Assam,24.8333,92.7789,24.9,73,0.0,1009.1,7.95,23.4,94,14.8,12.6,3,0,4,1,2026-03-22T12:28:44.366833+05:30
Dibrugarh,Assam,27.4728,94.912,21.0,88,0.0,999.1,3.55,28.4,120,44.4,34.1,3,5,3,1,2026-03-22T12:28:44.366839+05:30
