city,state,latitude,longitude,temp,humidity,rain,pressure,uv_index,wind_gusts,aqi,pm10,pm2_5,mosquito_risk,arthritis_risk,migraine_risk,frizz_risk,updated_at
Delhi,Delhi,28.6139,77.209,29.0,32,0.0,985.7,5.75,37.4,199,556.9,81.3,4,5,3,0,2026-03-02T17:04:01.697157+05:30
Mumbai,Maharashtra,19.076,72.8777,26.5,75,0.0,1009.1,7.3,25.6,111,43.5,26.5,7,0,4,1,2026-03-02T17:04:01.697207+05:30
Bangalore,Karnataka,12.9716,77.5946,30.7,28,0.0,911.9,9.05,28.8,136,37.3,36.4,0,5,7,0,2026-03-02T17:04:01.697223+05:30
Hyderabad,Telangana,17.385,78.4867,33.2,29,0.0,953.9,8.3,16.6,151,40.4,39.8,0,5,7,0,2026-03-02T17:04:01.697232+05:30
Chennai,Tamil Nadu,13.0827,80.2707,29.9,49,0.0,1008.3,8.8,30.2,132,42.0,38.1,4,0,4,1,2026-03-02T17:04:01.697241+05:30
Kolkata,West Bengal,22.5726,88.3639,30.5,52,0.0,1006.8,7.65,16.6,151,73.3,61.7,0,5,4,1,2026-03-02T17:04:01.697250+05:30
Pune,Maharashtra,18.5204,73.8567,34.8,25,0.0,948.6,7.85,28.4,111,22.5,21.5,0,5,7,0,2026-03-02T17:04:01.697261+05:30
Ahmedabad,Gujarat,23.0225,72.5714,34.8,25,0.0,1003.3,7.1,15.5,99,33.5,21.4,0,5,4,0,2026-03-02T17:04:01.697269+05:30
Jaipur,Rajasthan,26.9124,75.7873,32.5,19,0.0,962.6,6.5,30.2,97,109.2,24.4,0,5,7,0,2026-03-02T17:04:01.697277+05:30
Lucknow,Uttar Pradesh,26.8467,80.9462,29.8,27,0.0,995.8,6.25,37.4,138,156.5,48.7,4,5,7,0,2026-03-02T17:04:01.697285+05:30
Kanpur,Uttar Pradesh,26.4499,80.3319,29.8,37,0.0,994.2,6.25,32.0,149,288.7,58.1,4,5,7,0,2026-03-02T17:04:01.697292+05:30
Chandigarh,Chandigarh,30.7333,76.7794,26.3,39,0.0,970.9,5.65,38.9,90,26.6,20.1,4,5,3,0,2026-03-02T17:04:01.697299+05:30
Srinagar,Jammu and Kashmir,34.0837,74.7973,19.0,15,0.0,844.6,6.55,17.6,142,26.2,18.4,0,5,7,1,2026-03-02T17:04:01.697307+05:30
Jammu,Jammu and Kashmir,32.7266,74.857,27.7,42,0.0,974.8,6.25,26.3,104,24.6,16.9,4,5,7,0,2026-03-02T17:04:01.697315+05:30
Amritsar,Punjab,31.634,74.8723,27.2,43,0.0,983.5,6.1,25.2,146,25.8,17.4,4,5,7,0,2026-03-02T17:04:01.697324+05:30
Ludhiana,Punjab,30.901,75.8573,27.7,36,0.0,981.5,5.85,32.4,159,48.8,31.9,4,5,3,0,2026-03-02T17:04:01.697331+05:30
Jalandhar,Punjab,31.326,75.5762,27.7,38,0.0,982.5,6.0,30.2,160,51.7,26.3,4,5,3,0,2026-03-02T17:04:01.697340+05:30
Dehradun,Uttarakhand,30.6284,78.0322,17.9,54,0.0,830.7,6.0,27.0,64,17.3,11.8,0,5,3,0,2026-03-02T17:04:01.697347+05:30
Shimla,Himachal Pradesh,31.1048,77.1734,15.4,48,0.0,785.7,6.0,56.5,73,19.3,12.7,0,5,3,0,2026-03-02T17:04:01.697355+05:30
Manali,Himachal Pradesh,32.2396,77.1887,19.4,45,0.0,820.9,7.7,36.7,87,15.5,10.4,0,5,7,0,2026-03-02T17:04:01.697361+05:30
Gurgaon,Haryana,28.4595,77.0266,28.4,37,0.0,984.2,5.85,35.3,807,1613.1,177.9,4,5,3,0,2026-03-02T17:04:01.697368+05:30
Noida,Uttar Pradesh,28.5355,77.391,29.4,32,0.0,987.2,5.75,37.1,807,1613.1,177.9,4,5,3,0,2026-03-02T17:04:01.697375+05:30
Ghaziabad,Uttar Pradesh,28.6692,77.4538,28.3,35,0.0,985.3,5.75,36.0,173,466.6,70.8,4,5,3,0,2026-03-02T17:04:01.697381+05:30
Faridabad,Haryana,28.4089,77.3178,28.3,38,0.0,986.5,5.8,33.1,807,1613.1,177.9,4,5,3,0,2026-03-02T17:04:01.697388+05:30
Meerut,Uttar Pradesh,28.9845,77.7064,27.7,33,0.0,983.9,5.6,38.9,173,466.6,70.8,4,5,3,0,2026-03-02T17:04:01.697395+05:30
Agra,Uttar Pradesh,27.1767,78.0081,30.9,31,0.0,990.4,6.1,35.3,344,556.9,74.7,0,5,7,0,2026-03-02T17:04:01.697402+05:30
Varanasi,Uttar Pradesh,25.3176,82.9739,28.0,38,0.0,1000.1,6.9,31.7,92,52.7,27.1,4,5,4,0,2026-03-02T17:04:01.697411+05:30
Prayagraj,Uttar Pradesh,25.4358,81.8463,28.4,38,0.0,998.7,6.75,29.9,96,58.4,29.9,4,5,7,0,2026-03-02T17:04:01.697418+05:30
Gorakhpur,Uttar Pradesh,26.7606,83.3732,27.3,39,0.0,999.0,6.6,25.2,113,67.5,41.9,4,5,7,0,2026-03-02T17:04:01.697425+05:30
Bareilly,Uttar Pradesh,28.367,79.4304,27.1,39,0.0,988.8,5.9,31.3,132,53.3,34.2,4,5,3,0,2026-03-02T17:04:01.697431+05:30
Aligarh,Uttar Pradesh,27.8974,78.088,29.1,36,0.0,988.2,5.85,34.2,479,881.0,119.2,4,5,3,0,2026-03-02T17:04:01.697438+05:30
Moradabad,Uttar Pradesh,28.8386,78.7733,27.3,35,0.0,985.6,5.75,35.6,140,49.5,25.0,4,5,3,0,2026-03-02T17:04:01.697444+05:30
Saharanpur,Uttar Pradesh,29.9637,77.546,26.8,34,0.0,977.3,5.4,52.9,113,49.5,23.9,4,5,3,0,2026-03-02T17:04:01.697453+05:30
Jhansi,Uttar Pradesh,25.4484,78.5685,31.9,23,0.0,980.7,6.7,29.2,75,39.3,18.3,0,5,7,0,2026-03-02T17:04:05.010061+05:30
Surat,Gujarat,21.1702,72.8311,29.8,50,0.0,1008.1,7.0,23.0,145,70.1,61.0,4,0,4,1,2026-03-02T17:04:05.010091+05:30
Vadodara,Gujarat,22.3072,73.1812,35.0,26,0.0,1005.4,7.1,13.0,150,37.1,29.5,0,5,4,0,2026-03-02T17:04:05.010102+05:30
Rajkot,Gujarat,22.3039,70.8022,33.5,32,0.0,995.4,6.9,21.2,66,32.1,16.1,0,5,7,0,2026-03-02T17:04:05.010109+05:30
Thane,Maharashtra,19.2183,72.9781,28.1,64,0.0,1008.7,7.3,35.6,111,43.5,26.5,7,0,4,1,2026-03-02T17:04:05.010117+05:30
Nagpur,Maharashtra,21.1458,79.0882,33.5,25,0.0,974.5,7.7,20.9,89,19.7,17.1,0,5,7,0,2026-03-02T17:04:05.010124+05:30
Nashik,Maharashtra,19.9975,73.7898,31.6,31,0.0,946.7,7.5,28.1,104,21.8,19.4,0,5,7,0,2026-03-02T17:04:05.010131+05:30
Aurangabad,Maharashtra,19.8762,75.3433,33.6,25,0.0,945.0,8.0,21.2,108,20.9,20.2,0,5,7,0,2026-03-02T17:04:05.010137+05:30
Solapur,Maharashtra,17.6599,75.9064,33.2,33,0.0,957.5,8.25,14.0,136,42.7,42.0,0,5,7,0,2026-03-02T17:04:05.010144+05:30
Kolhapur,Maharashtra,16.705,74.2433,33.2,28,0.0,947.9,8.35,37.4,110,31.7,30.9,0,5,7,0,2026-03-02T17:04:05.010151+05:30
Goa,Goa,15.2993,74.124,28.4,71,0.0,998.3,8.4,29.9,70,28.3,17.6,7,5,7,1,2026-03-02T17:04:05.010158+05:30
Jodhpur,Rajasthan,26.2389,73.0243,34.4,22,0.0,985.3,6.75,12.6,85,73.1,21.8,0,5,7,0,2026-03-02T17:04:05.010165+05:30
Udaipur,Rajasthan,24.5854,73.7125,30.9,29,0.0,949.0,7.4,15.5,74,31.9,20.9,0,5,7,0,2026-03-02T17:04:05.010172+05:30
Kota,Rajasthan,25.2138,75.8648,33.4,24,0.0,981.3,6.8,17.6,89,34.1,17.6,0,5,7,0,2026-03-02T17:04:05.010179+05:30
Bikaner,Rajasthan,28.0229,73.3119,33.2,23,0.0,984.6,6.5,20.2,69,51.3,23.0,0,5,7,0,2026-03-02T17:04:05.010186+05:30
Ajmer,Rajasthan,26.4499,74.6399,32.0,23,0.0,957.5,6.75,22.0,81,42.5,17.7,0,5,7,0,2026-03-02T17:04:05.010192+05:30
Gwalior,Madhya Pradesh,26.2183,78.1828,30.1,35,0.0,986.0,6.4,31.0,90,46.2,22.7,0,5,7,0,2026-03-02T17:04:05.010198+05:30
Indore,Madhya Pradesh,22.7196,75.8577,30.7,31,0.0,950.2,7.4,14.4,91,24.6,19.7,0,5,7,0,2026-03-02T17:04:05.010204+05:30
Bhopal,Madhya Pradesh,23.2599,77.4126,30.7,31,0.0,956.2,7.25,20.5,81,29.8,19.3,0,5,7,0,2026-03-02T17:04:05.010211+05:30
Jabalpur,Madhya Pradesh,23.1815,79.9864,30.8,24,0.0,964.2,7.35,20.9,71,27.0,15.3,0,5,7,0,2026-03-02T17:04:05.010217+05:30
Ujjain,Madhya Pradesh,23.1765,75.7885,30.8,33,0.0,956.1,7.25,11.5,116,28.2,20.7,0,5,7,0,2026-03-02T17:04:05.010224+05:30
Visakhapatnam,Andhra Pradesh,17.6868,83.2185,30.0,46,0.0,1004.6,8.35,37.8,150,50.1,46.8,4,5,4,1,2026-03-02T17:04:05.010231+05:30
Vijayawada,Andhra Pradesh,16.5062,80.648,33.9,39,0.0,1003.0,8.4,25.6,145,50.5,48.5,0,5,4,1,2026-03-02T17:04:05.010237+05:30
Guntur,Andhra Pradesh,16.3067,80.4365,33.2,34,0.0,1004.3,8.4,30.2,136,47.6,46.0,0,5,4,0,2026-03-02T17:04:05.010244+05:30
Nellore,Andhra Pradesh,14.4426,79.9865,31.8,36,0.0,1006.7,8.65,29.5,128,43.5,40.9,0,5,4,0,2026-03-02T17:04:05.010251+05:30
Kurnool,Andhra Pradesh,15.8281,78.0373,35.5,23,0.0,976.9,8.45,26.3,124,42.1,41.3,0,5,10,0,2026-03-02T17:04:05.010259+05:30
Kakinada,Andhra Pradesh,16.9891,82.2475,32.9,33,0.0,1007.9,8.35,29.2,143,42.1,38.5,0,5,4,0,2026-03-02T17:04:05.010266+05:30
Tirupati,Andhra Pradesh,13.6288,79.4192,33.7,27,0.0,991.5,8.75,32.4,136,48.1,46.2,0,5,7,0,2026-03-02T17:04:05.010272+05:30
Warangal,Telangana,17.9689,79.5941,33.7,35,0.0,979.5,8.15,17.3,145,38.1,37.3,0,5,7,1,2026-03-02T17:04:05.010278+05:30
Nizamabad,Telangana,18.6725,78.0941,33.7,25,0.0,965.9,8.05,25.6,108,21.3,20.5,0,5,7,0,2026-03-02T17:04:05.010284+05:30
Mysore,Karnataka,12.2958,76.6396,32.3,25,0.0,927.8,9.1,25.6,151,40.4,39.2,0,5,7,0,2026-03-02T17:04:05.010290+05:30
Mangalore,Karnataka,12.9141,74.856,28.2,77,0.0,1006.3,8.65,28.8,62,17.5,14.0,7,5,4,1,2026-03-02T17:04:05.010297+05:30
Hubli-Dharwad,Karnataka,15.3647,75.124,32.3,31,0.0,940.6,8.6,23.4,114,35.0,34.2,0,5,7,0,2026-03-02T17:04:05.010303+05:30
Belgaum,Karnataka,15.8497,74.4977,29.5,46,0.0,926.0,8.65,38.9,133,33.2,32.0,4,5,7,1,2026-03-02T17:04:08.323790+05:30
Coimbatore,Tamil Nadu,11.0168,76.9558,33.6,26,0.0,960.6,9.1,29.5,148,38.4,37.1,0,5,7,0,2026-03-02T17:04:08.323820+05:30
Madurai,Tamil Nadu,9.9252,78.1198,35.5,25,0.0,991.3,9.05,32.8,124,35.6,34.2,0,5,10,0,2026-03-02T17:04:08.323831+05:30
Trichy,Tamil Nadu,10.7905,78.7047,34.2,30,0.0,999.0,8.95,32.0,140,44.7,42.8,0,5,7,0,2026-03-02T17:04:08.323840+05:30
Salem,Tamil Nadu,11.6643,78.146,35.3,23,0.0,976.0,9.0,32.4,137,42.7,41.3,0,5,10,0,2026-03-02T17:04:08.323850+05:30
Tirunelveli,Tamil Nadu,8.7139,77.7567,34.6,35,0.0,1001.6,9.05,40.3,137,35.0,33.6,0,5,4,1,2026-03-02T17:04:08.323857+05:30
Vellore,Tamil Nadu,12.9165,79.1325,33.1,27,0.0,984.5,8.85,37.1,147,44.2,42.5,0,5,7,0,2026-03-02T17:04:08.323864+05:30
Erode,Tamil Nadu,11.341,77.7172,36.5,26,0.0,987.1,9.0,23.4,123,42.0,40.5,0,5,10,0,2026-03-02T17:04:08.323872+05:30
Kochi,Kerala,9.9312,76.2673,28.2,77,0.0,1007.3,8.9,35.6,118,31.5,30.0,7,5,4,1,2026-03-02T17:04:08.323879+05:30
Thiruvananthapuram,Kerala,8.5241,76.9366,28.5,74,0.0,1007.0,8.85,27.7,112,31.1,28.6,7,5,4,1,2026-03-02T17:04:08.323886+05:30
Kozhikode,Kerala,11.2588,75.7804,29.2,72,0.0,1006.9,8.75,31.7,59,19.8,15.1,7,5,4,1,2026-03-02T17:04:08.323892+05:30
Thrissur,Kerala,10.5276,76.2144,30.2,64,0.0,1005.6,8.85,38.5,95,34.7,32.9,3,5,4,1,2026-03-02T17:04:08.323899+05:30
Kannur,Kerala,11.8745,75.3704,29.4,71,0.0,1006.6,8.75,34.9,55,22.3,18.8,7,5,4,1,2026-03-02T17:04:08.323905+05:30
Patna,Bihar,25.5941,85.1376,28.6,31,0.0,1002.6,7.05,28.8,129,80.8,32.9,4,5,4,0,2026-03-02T17:04:08.323912+05:30
Gaya,Bihar,24.7914,85.0002,26.6,42,0.0,996.2,7.15,23.8,125,51.2,21.0,4,5,7,0,2026-03-02T17:04:08.323918+05:30
Muzaffarpur,Bihar,26.1209,85.3647,28.2,29,0.0,1002.4,7.0,27.0,121,69.6,31.5,4,5,4,0,2026-03-02T17:04:08.323924+05:30
Bhagalpur,Bihar,25.2425,87.0117,26.3,53,0.0,1003.4,7.1,19.4,137,70.3,34.3,4,5,4,0,2026-03-02T17:04:08.323931+05:30
Ranchi,Jharkhand,23.3441,85.3096,27.6,20,0.0,939.8,7.8,40.3,92,37.8,15.6,4,5,7,0,2026-03-02T17:04:08.323937+05:30
Jamshedpur,Jharkhand,22.8046,86.2029,32.7,22,0.0,991.6,7.75,18.7,149,38.2,16.0,0,5,7,0,2026-03-02T17:04:08.323943+05:30
Dhanbad,Jharkhand,23.7957,86.4304,31.8,14,0.0,981.4,7.6,33.8,130,48.5,18.8,0,5,7,0,2026-03-02T17:04:08.323950+05:30
Bokaro,Jharkhand,23.6693,86.1511,30.8,16,0.0,985.4,7.6,37.1,134,48.1,18.7,0,5,7,0,2026-03-02T17:04:08.323956+05:30
Bhubaneswar,Odisha,20.2961,85.8245,34.2,34,0.0,1002.8,8.05,28.4,162,48.9,43.1,0,5,4,1,2026-03-02T17:04:08.323963+05:30
Cuttack,Odisha,20.4625,85.8828,34.7,27,0.0,1004.5,8.1,21.2,162,48.9,43.1,0,5,4,0,2026-03-02T17:04:08.323970+05:30
Rourkela,Odisha,22.2604,84.8536,33.4,16,0.0,986.0,7.65,24.8,128,29.6,13.9,0,5,7,0,2026-03-02T17:04:08.323976+05:30
Raipur,Chhattisgarh,21.2514,81.6296,33.2,27,0.0,976.2,7.75,24.1,95,36.7,24.8,0,5,7,0,2026-03-02T17:04:08.323982+05:30
Bhilai,Chhattisgarh,21.1938,81.3509,33.3,28,0.0,976.4,7.8,22.7,84,38.4,26.0,0,5,7,0,2026-03-02T17:04:08.323988+05:30
Guwahati,Assam,26.1158,91.7086,25.6,59,0.0,1003.5,7.0,28.4,153,68.9,50.9,4,5,4,1,2026-03-02T17:04:08.323994+05:30
Agartala,Tripura,23.8315,91.2868,27.7,59,0.0,1007.4,7.3,18.0,128,92.9,77.5,4,5,4,1,2026-03-02T17:04:08.324000+05:30
Shillong,Meghalaya,25.5788,91.8933,14.7,56,0.0,856.3,7.35,66.2,117,45.9,33.5,0,5,7,0,2026-03-02T17:04:08.324006+05:30
Imphal,Manipur,24.817,93.9368,18.3,60,0.0,923.7,7.6,72.4,148,66.1,50.1,0,5,7,0,2026-03-02T17:04:08.324012+05:30
Aizawl,Mizoram,23.7271,92.7176,20.9,65,0.0,893.8,7.6,42.8,135,60.8,56.3,3,5,7,0,2026-03-02T17:04:08.324019+05:30
Kohima,Nagaland,25.6701,94.1077,13.8,72,0.0,854.9,7.45,82.8,147,61.0,45.4,3,5,7,0,2026-03-02T17:04:08.324025+05:30
Gangtok,Sikkim,27.3314,88.6138,14.5,73,0.0,837.1,5.8,19.4,132,62.6,43.7,3,5,3,0,2026-03-02T17:04:08.324031+05:30
Siliguri,West Bengal,26.7271,88.3953,21.3,67,0.0,995.8,7.0,20.5,171,85.4,59.3,3,5,7,0,2026-03-02T17:04:11.644674+05:30
Durgapur,West Bengal,23.5204,87.3119,32.5,15,0.0,996.1,7.6,26.3,131,54.2,19.0,0,5,7,0,2026-03-02T17:04:11.644707+05:30
Asansol,West Bengal,23.6739,86.9524,32.3,15,0.0,994.8,7.6,28.4,109,51.1,18.5,0,5,7,0,2026-03-02T17:04:11.644738+05:30
Pondicherry,Puducherry,11.9139,79.8145,30.1,49,0.0,1009.0,8.8,29.5,125,39.9,35.6,0,0,4,1,2026-03-02T17:04:11.644749+05:30
Port Blair,Andaman and Nicobar Islands,11.6234,92.7265,27.3,77,0.0,1007.3,8.75,16.2,78,33.9,26.9,7,5,4,1,2026-03-02T17:04:11.644759+05:30
Haridwar,Uttarakhand,29.9457,78.1642,27.3,35,0.0,975.7,5.55,41.8,94,22.6,17.3,4,5,3,0,2026-03-02T17:04:11.644768+05:30
Rishikesh,Uttarakhand,30.0869,78.2676,26.7,38,0.0,968.3,5.6,31.3,89,23.1,17.8,4,5,3,0,2026-03-02T17:04:11.644776+05:30
Nainital,Uttarakhand,29.3919,79.4542,18.4,48,0.0,806.7,6.4,45.7,97,25.5,19.8,0,5,7,0,2026-03-02T17:04:11.644785+05:30
Mussoorie,Uttarakhand,30.4599,78.0664,18.2,48,0.0,803.5,5.9,33.8,86,19.9,15.1,0,5,3,0,2026-03-02T17:04:11.644794+05:30
Dharamshala,Himachal Pradesh,32.219,76.3234,21.1,47,0.0,870.9,6.1,26.3,85,22.4,14.8,0,5,7,0,2026-03-02T17:04:11.644802+05:30
Dalhousie,Himachal Pradesh,32.5387,75.971,20.3,33,0.0,806.1,6.35,22.3,102,28.9,20.1,0,5,7,0,2026-03-02T17:04:11.644811+05:30
Patiala,Punjab,30.3398,76.3869,27.1,36,0.0,980.8,5.55,37.4,158,446.1,68.0,4,5,3,0,2026-03-02T17:04:11.644819+05:30
Bhatinda,Punjab,30.211,74.9455,28.4,37,0.0,986.9,6.2,24.8,158,47.0,31.8,4,5,7,0,2026-03-02T17:04:11.644827+05:30
Rohtak,Haryana,28.8955,76.6066,28.4,34,0.0,984.6,5.75,34.9,270,705.9,91.3,4,5,3,0,2026-03-02T17:04:11.644835+05:30
Panipat,Haryana,29.3909,76.9635,27.5,36,0.0,983.0,5.55,35.3,665,1385.8,149.9,4,5,3,0,2026-03-02T17:04:11.644843+05:30
Mathura,Uttar Pradesh,27.4924,77.6737,30.8,31,0.0,989.4,6.0,29.2,401,698.5,92.0,0,5,3,0,2026-03-02T17:04:11.644851+05:30
Vrindavan,Uttar Pradesh,27.5823,77.7027,30.1,35,0.0,989.9,5.95,31.3,401,698.5,92.0,0,5,3,0,2026-03-02T17:04:11.644859+05:30
Ayodhya,Uttar Pradesh,26.7922,82.1998,28.7,25,0.0,997.3,6.4,34.6,118,51.8,35.3,4,5,7,0,2026-03-02T17:04:11.644866+05:30
Ratlam,Madhya Pradesh,23.3315,75.0367,31.4,31,0.0,956.8,7.25,7.2,104,24.7,19.0,0,5,7,0,2026-03-02T17:04:11.644874+05:30
Sagar,Madhya Pradesh,23.8388,78.7378,30.0,27,0.0,953.1,7.2,25.2,77,26.5,15.1,4,5,7,0,2026-03-02T17:04:11.644881+05:30
Satna,Madhya Pradesh,24.6005,80.8322,31.0,19,0.0,974.1,7.15,38.2,79,35.3,17.9,0,5,7,0,2026-03-02T17:04:11.644889+05:30
Akola,Maharashtra,20.7002,77.0082,35.0,24,0.0,976.1,7.75,25.9,92,20.5,18.9,0,5,7,0,2026-03-02T17:04:11.644897+05:30
Amravati,Maharashtra,20.9374,77.7796,35.0,19,0.0,968.4,7.7,24.5,85,19.2,17.3,0,5,7,0,2026-03-02T17:04:11.644906+05:30
Latur,Maharashtra,18.4088,76.5604,32.4,30,0.0,940.8,8.15,26.3,124,29.4,28.9,0,5,7,0,2026-03-02T17:04:11.644913+05:30
Nanded,Maharashtra,19.1383,77.3091,34.4,27,0.0,969.5,7.95,17.3,102,22.6,21.7,0,5,7,0,2026-03-02T17:04:11.644921+05:30
Gulbarga,Karnataka,17.3297,76.8343,34.0,28,0.0,959.1,8.25,19.4,132,47.3,46.6,0,5,7,0,2026-03-02T17:04:11.644928+05:30
Bidar,Karnataka,17.9104,77.5199,32.8,31,0.0,936.3,8.2,16.2,152,31.7,31.2,0,5,7,0,2026-03-02T17:04:11.644935+05:30
Hospet,Karnataka,15.2689,76.3909,34.0,27,0.0,955.5,8.6,21.2,121,43.4,42.7,0,5,7,0,2026-03-02T17:04:11.644942+05:30
Tirupur,Tamil Nadu,11.1085,77.3411,35.6,22,0.0,973.8,9.1,33.5,150,42.3,40.9,0,5,10,0,2026-03-02T17:04:11.644949+05:30
Alappuzha,Kerala,9.4981,76.3388,28.1,79,0.0,1007.4,8.9,32.8,149,27.9,26.1,7,5,4,1,2026-03-02T17:04:11.644957+05:30
Munnar,Kerala,10.0889,77.0595,28.5,42,0.0,857.9,9.4,22.0,129,35.6,34.3,4,5,7,0,2026-03-02T17:04:11.644965+05:30
Silchar,Assam,24.8333,92.7789,27.0,57,0.0,1006.2,7.35,18.7,153,79.4,59.3,4,5,4,1,2026-03-02T17:04:11.644973+05:30
Dibrugarh,Assam,27.4728,94.912,22.8,71,0.0,998.4,7.05,12.6,151,88.9,67.5,3,5,7,1,2026-03-02T17:04:11.644980+05:30
