city,state,latitude,longitude,temp,humidity,rain,pressure,uv_index,wind_gusts,aqi,pm10,pm2_5,mosquito_risk,arthritis_risk,migraine_risk,frizz_risk,updated_at
Delhi,Delhi,28.6139,77.209,38.4,20,0.0,979.9,7.35,31.0,445,489.9,55.3,0,5,10,0,2026-04-22T14:54:11.899658+05:30
Mumbai,Maharashtra,19.076,72.8777,29.7,73,0.0,1005.5,8.05,29.2,92,48.2,31.7,7,5,4,1,2026-04-22T14:54:11.899702+05:30
Bangalore,Karnataka,12.9716,77.5946,36.4,19,0.0,910.1,9.6,28.1,91,23.1,16.8,0,5,10,0,2026-04-22T14:54:11.899718+05:30
Hyderabad,Telangana,17.385,78.4867,38.9,24,0.0,950.9,9.3,34.6,130,49.4,42.8,0,5,10,0,2026-04-22T14:54:11.899727+05:30
Chennai,Tamil Nadu,13.0827,80.2707,35.8,48,0.0,1004.3,9.15,32.8,37,9.6,6.8,0,5,7,1,2026-04-22T14:54:11.899737+05:30
Kolkata,West Bengal,22.5726,88.3639,36.5,58,0.0,1000.4,8.95,33.5,174,105.9,43.2,0,5,7,1,2026-04-22T14:54:11.899749+05:30
Pune,Maharashtra,18.5204,73.8567,38.8,23,0.0,946.8,8.6,44.6,123,34.6,28.0,0,5,10,0,2026-04-22T14:54:11.899756+05:30
Ahmedabad,Gujarat,23.0225,72.5714,38.7,16,0.0,1000.5,8.2,24.5,42,11.8,6.6,0,5,7,0,2026-04-22T14:54:11.899764+05:30
Jaipur,Rajasthan,26.9124,75.7873,39.8,11,0.0,958.3,8.0,35.3,147,241.2,29.8,0,5,10,0,2026-04-22T14:54:11.899772+05:30
Lucknow,Uttar Pradesh,26.8467,80.9462,40.3,14,0.0,988.7,7.85,45.7,266,252.4,42.3,0,5,10,0,2026-04-22T14:54:11.899779+05:30
Kanpur,Uttar Pradesh,26.4499,80.3319,39.3,18,0.0,987.9,7.9,38.2,461,659.4,69.8,0,5,10,0,2026-04-22T14:54:11.899786+05:30
Chandigarh,Chandigarh,30.7333,76.7794,37.8,19,0.0,965.7,7.35,31.7,102,21.5,12.8,0,5,10,0,2026-04-22T14:54:11.899793+05:30
Srinagar,Jammu and Kashmir,34.0837,74.7973,25.2,34,0.0,843.4,8.5,15.5,70,21.7,8.5,4,5,7,0,2026-04-22T14:54:11.899801+05:30
Jammu,Jammu and Kashmir,32.7266,74.857,38.3,18,0.0,969.5,8.1,28.4,78,22.6,11.9,0,5,10,0,2026-04-22T14:54:11.899808+05:30
Amritsar,Punjab,31.634,74.8723,39.7,17,0.0,977.3,8.05,27.0,92,26.7,13.6,0,5,10,0,2026-04-22T14:54:11.899815+05:30
Ludhiana,Punjab,30.901,75.8573,39.8,17,0.0,975.0,7.6,28.4,78,36.1,12.9,0,5,10,0,2026-04-22T14:54:11.899824+05:30
Jalandhar,Punjab,31.326,75.5762,39.8,15,0.0,976.3,7.8,29.5,84,47.7,14.4,0,5,10,0,2026-04-22T14:54:11.899852+05:30
Dehradun,Uttarakhand,30.6284,78.0322,26.9,36,0.0,832.1,7.75,30.6,81,17.1,8.8,4,5,7,0,2026-04-22T14:54:11.899860+05:30
Shimla,Himachal Pradesh,31.1048,77.1734,25.8,29,0.0,788.3,7.85,54.4,92,19.3,9.3,4,5,7,0,2026-04-22T14:54:11.899867+05:30
Manali,Himachal Pradesh,32.2396,77.1887,28.4,35,0.0,823.8,9.8,31.7,93,20.0,8.2,4,5,7,0,2026-04-22T14:54:11.899877+05:30
Gurgaon,Haryana,28.4595,77.0266,38.9,20,0.0,978.4,7.45,28.1,1196,1553.4,142.0,0,5,10,0,2026-04-22T14:54:11.899884+05:30
Noida,Uttar Pradesh,28.5355,77.391,38.8,19,0.0,981.4,7.4,32.4,1196,1553.4,142.0,0,5,10,0,2026-04-22T14:54:11.899891+05:30
Ghaziabad,Uttar Pradesh,28.6692,77.4538,38.3,22,0.0,979.6,7.35,32.0,359,387.4,47.5,0,5,10,0,2026-04-22T14:54:11.899897+05:30
Faridabad,Haryana,28.4089,77.3178,39.8,16,0.0,980.6,7.4,33.8,1196,1553.4,142.0,0,5,10,0,2026-04-22T14:54:11.899903+05:30
Meerut,Uttar Pradesh,28.9845,77.7064,38.8,19,0.0,977.9,7.25,38.2,359,387.4,47.5,0,5,10,0,2026-04-22T14:54:11.899910+05:30
Agra,Uttar Pradesh,27.1767,78.0081,41.3,15,0.0,984.1,7.75,37.1,681,946.2,80.3,0,5,10,0,2026-04-22T14:54:11.899919+05:30
Varanasi,Uttar Pradesh,25.3176,82.9739,42.3,13,0.0,992.1,8.55,43.2,103,95.5,21.8,0,5,10,0,2026-04-22T14:54:11.899926+05:30
Prayagraj,Uttar Pradesh,25.4358,81.8463,41.8,14,0.0,991.0,8.4,40.7,118,117.8,24.9,0,5,10,0,2026-04-22T14:54:11.899936+05:30
Gorakhpur,Uttar Pradesh,26.7606,83.3732,41.8,11,0.0,990.9,8.25,41.8,116,105.2,27.6,0,5,10,0,2026-04-22T14:54:11.899942+05:30
Bareilly,Uttar Pradesh,28.367,79.4304,39.6,15,0.0,982.5,7.6,43.2,105,30.7,18.9,0,5,10,0,2026-04-22T14:54:11.899949+05:30
Aligarh,Uttar Pradesh,27.8974,78.088,41.1,13,0.0,981.8,7.5,37.4,794,938.8,90.3,0,5,10,0,2026-04-22T14:54:11.899956+05:30
Moradabad,Uttar Pradesh,28.8386,78.7733,39.0,17,0.0,979.6,7.45,40.0,122,34.9,17.7,0,5,10,0,2026-04-22T14:54:11.899962+05:30
Saharanpur,Uttar Pradesh,29.9637,77.546,37.8,18,0.0,972.3,7.05,36.4,106,87.3,18.9,0,5,10,0,2026-04-22T14:54:11.899968+05:30
Jhansi,Uttar Pradesh,25.4484,78.5685,42.1,11,0.0,974.8,8.3,31.0,60,31.7,8.7,0,5,10,0,2026-04-22T14:54:15.185781+05:30
Surat,Gujarat,21.1702,72.8311,35.2,38,0.0,1005.2,7.9,21.2,106,38.0,32.9,0,5,7,1,2026-04-22T14:54:15.185813+05:30
Vadodara,Gujarat,22.3072,73.1812,40.4,14,0.0,1002.4,8.15,25.9,89,21.4,17.1,0,5,7,0,2026-04-22T14:54:15.185825+05:30
Rajkot,Gujarat,22.3039,70.8022,37.1,26,0.0,992.8,7.85,32.0,54,24.3,10.9,0,5,10,0,2026-04-22T14:54:15.185859+05:30
Thane,Maharashtra,19.2183,72.9781,34.3,55,0.0,1005.3,8.05,41.8,92,48.2,31.7,0,5,4,1,2026-04-22T14:54:15.185871+05:30
Nagpur,Maharashtra,21.1458,79.0882,40.0,17,0.0,970.7,8.65,32.0,119,28.8,19.6,0,5,10,0,2026-04-22T14:54:15.185881+05:30
Nashik,Maharashtra,19.9975,73.7898,36.9,23,0.0,944.5,8.35,37.1,91,37.6,26.0,0,5,10,0,2026-04-22T14:54:15.185890+05:30
Aurangabad,Maharashtra,19.8762,75.3433,38.9,16,0.0,942.7,9.05,33.1,84,29.2,20.6,0,5,10,0,2026-04-22T14:54:15.185898+05:30
Solapur,Maharashtra,17.6599,75.9064,39.3,20,0.0,954.8,9.1,30.6,129,40.3,34.6,0,5,10,0,2026-04-22T14:54:15.185907+05:30
Kolhapur,Maharashtra,16.705,74.2433,33.6,41,0.0,946.8,9.05,41.8,102,47.3,40.9,0,5,7,1,2026-04-22T14:54:15.185915+05:30
Goa,Goa,15.2993,74.124,33.0,64,0.0,995.2,9.0,31.7,74,34.8,22.1,3,5,7,1,2026-04-22T14:54:15.185923+05:30
Jodhpur,Rajasthan,26.2389,73.0243,39.2,13,0.0,981.3,8.2,36.0,93,94.8,14.1,0,5,10,0,2026-04-22T14:54:15.185931+05:30
Udaipur,Rajasthan,24.5854,73.7125,36.5,14,0.0,946.8,8.75,44.3,58,14.5,11.0,0,5,10,0,2026-04-22T14:54:15.185939+05:30
Kota,Rajasthan,25.2138,75.8648,41.7,8,0.0,976.5,8.25,33.8,63,8.6,7.1,0,5,10,0,2026-04-22T14:54:15.185947+05:30
Bikaner,Rajasthan,28.0229,73.3119,40.6,15,0.0,979.2,8.05,32.4,71,60.5,16.6,0,5,10,0,2026-04-22T14:54:15.185954+05:30
Ajmer,Rajasthan,26.4499,74.6399,38.3,9,0.0,954.1,8.2,40.0,52,35.2,8.7,0,5,10,1,2026-04-22T14:54:15.185960+05:30
Gwalior,Madhya Pradesh,26.2183,78.1828,40.3,14,0.0,980.8,8.0,36.4,54,53.9,12.4,0,5,10,0,2026-04-22T14:54:15.185967+05:30
Indore,Madhya Pradesh,22.7196,75.8577,37.9,17,0.0,947.7,8.65,36.0,71,23.5,18.9,0,5,10,0,2026-04-22T14:54:15.185974+05:30
Bhopal,Madhya Pradesh,23.2599,77.4126,38.9,14,0.0,952.7,8.7,36.4,75,21.6,17.5,0,5,10,0,2026-04-22T14:54:15.185980+05:30
Jabalpur,Madhya Pradesh,23.1815,79.9864,39.5,12,0.0,959.5,8.8,32.4,82,21.8,12.9,0,5,10,0,2026-04-22T14:54:15.185987+05:30
Ujjain,Madhya Pradesh,23.1765,75.7885,38.4,15,0.0,953.4,8.6,35.3,60,19.4,15.7,0,5,10,0,2026-04-22T14:54:15.185993+05:30
Visakhapatnam,Andhra Pradesh,17.6868,83.2185,34.0,60,0.0,1000.6,9.2,38.5,61,19.2,15.0,0,5,4,1,2026-04-22T14:54:15.185999+05:30
Vijayawada,Andhra Pradesh,16.5062,80.648,38.9,33,0.0,998.9,9.25,28.4,57,19.3,15.8,0,5,10,1,2026-04-22T14:54:15.186005+05:30
Guntur,Andhra Pradesh,16.3067,80.4365,38.8,37,0.0,1000.2,9.2,32.0,62,24.6,20.3,0,5,7,1,2026-04-22T14:54:15.186012+05:30
Nellore,Andhra Pradesh,14.4426,79.9865,39.6,32,0.0,1001.8,9.25,32.4,51,17.0,13.4,0,5,7,1,2026-04-22T14:54:15.186019+05:30
Kurnool,Andhra Pradesh,15.8281,78.0373,39.7,29,0.0,973.5,9.25,23.8,105,35.4,30.5,0,5,10,1,2026-04-22T14:54:15.186026+05:30
Kakinada,Andhra Pradesh,16.9891,82.2475,38.5,43,0.0,1003.5,8.9,29.2,43,13.4,8.8,0,5,7,1,2026-04-22T14:54:15.186032+05:30
Tirupati,Andhra Pradesh,13.6288,79.4192,38.5,24,0.0,988.3,9.1,32.8,61,16.8,13.9,0,5,10,0,2026-04-22T14:54:15.186039+05:30
Warangal,Telangana,17.9689,79.5941,40.0,27,0.0,975.4,9.2,22.3,98,42.3,36.0,0,5,10,1,2026-04-22T14:54:15.186045+05:30
Nizamabad,Telangana,18.6725,78.0941,39.7,21,0.0,962.4,8.95,33.5,108,33.6,27.1,0,5,10,0,2026-04-22T14:54:15.186051+05:30
Mysore,Karnataka,12.2958,76.6396,37.2,20,0.0,926.3,9.45,37.4,89,23.5,17.2,0,5,10,0,2026-04-22T14:54:15.186057+05:30
Mangalore,Karnataka,12.9141,74.856,30.0,83,0.0,1003.1,9.1,26.6,80,30.6,24.4,7,5,4,1,2026-04-22T14:54:15.186063+05:30
Hubli-Dharwad,Karnataka,15.3647,75.124,37.0,28,0.0,938.6,9.2,47.5,112,41.0,33.5,0,5,10,0,2026-04-22T14:54:15.186070+05:30
Belgaum,Karnataka,15.8497,74.4977,28.0,69,0.0,925.1,9.25,39.6,134,53.1,42.8,7,5,7,1,2026-04-22T14:54:18.473203+05:30
Coimbatore,Tamil Nadu,11.0168,76.9558,37.2,26,0.0,958.9,9.4,37.8,93,25.3,19.3,0,5,10,0,2026-04-22T14:54:18.473232+05:30
Madurai,Tamil Nadu,9.9252,78.1198,38.2,30,0.0,989.3,9.3,38.2,57,11.0,8.9,0,5,10,1,2026-04-22T14:54:18.473241+05:30
Trichy,Tamil Nadu,10.7905,78.7047,37.4,38,0.0,996.0,9.2,20.2,59,9.5,8.1,0,5,10,1,2026-04-22T14:54:18.473248+05:30
Salem,Tamil Nadu,11.6643,78.146,38.2,28,0.0,974.1,9.0,24.5,60,18.9,14.8,0,5,10,1,2026-04-22T14:54:18.473255+05:30
Tirunelveli,Tamil Nadu,8.7139,77.7567,35.9,42,0.0,999.8,9.2,35.3,68,16.4,14.6,0,5,10,1,2026-04-22T14:54:18.473263+05:30
Vellore,Tamil Nadu,12.9165,79.1325,37.6,25,0.0,981.5,9.05,28.8,71,17.1,14.2,0,5,10,0,2026-04-22T14:54:18.473270+05:30
Erode,Tamil Nadu,11.341,77.7172,39.3,29,0.0,985.1,9.05,24.1,53,16.2,12.8,0,5,10,1,2026-04-22T14:54:18.473276+05:30
Kochi,Kerala,9.9312,76.2673,29.7,80,0.0,1005.0,9.1,31.0,74,25.4,20.7,7,5,4,1,2026-04-22T14:54:18.473282+05:30
Thiruvananthapuram,Kerala,8.5241,76.9366,29.3,81,0.0,1004.5,8.75,27.0,64,16.1,13.2,7,5,4,1,2026-04-22T14:54:18.473289+05:30
Kozhikode,Kerala,11.2588,75.7804,31.2,76,0.0,1004.3,9.1,30.6,67,20.2,16.1,3,5,4,1,2026-04-22T14:54:18.473296+05:30
Thrissur,Kerala,10.5276,76.2144,34.4,58,0.0,1003.5,9.1,38.9,73,22.9,18.3,0,5,4,1,2026-04-22T14:54:18.473303+05:30
Kannur,Kerala,11.8745,75.3704,32.4,68,0.0,1003.8,9.05,34.6,78,25.2,20.8,3,5,4,1,2026-04-22T14:54:18.473309+05:30
Patna,Bihar,25.5941,85.1376,40.9,14,0.0,994.2,8.65,43.6,122,243.1,44.2,0,5,10,0,2026-04-22T14:54:18.473315+05:30
Gaya,Bihar,24.7914,85.0002,41.4,15,0.0,988.3,8.75,41.4,119,170.9,33.3,0,5,10,0,2026-04-22T14:54:18.473321+05:30
Muzaffarpur,Bihar,26.1209,85.3647,38.9,26,0.0,994.1,8.65,16.2,122,264.5,48.8,0,5,10,0,2026-04-22T14:54:18.473328+05:30
Bhagalpur,Bihar,25.2425,87.0117,38.6,24,0.0,995.1,8.7,21.6,128,203.0,40.5,0,5,10,0,2026-04-22T14:54:18.473333+05:30
Ranchi,Jharkhand,23.3441,85.3096,38.3,13,0.0,935.1,9.25,36.4,129,115.3,24.6,0,5,10,0,2026-04-22T14:54:18.473339+05:30
Jamshedpur,Jharkhand,22.8046,86.2029,41.1,20,0.0,985.2,9.05,23.4,144,206.3,43.5,0,5,10,0,2026-04-22T14:54:18.473345+05:30
Dhanbad,Jharkhand,23.7957,86.4304,42.3,10,0.0,974.2,9.0,36.4,151,143.0,33.4,0,5,10,0,2026-04-22T14:54:18.473351+05:30
Bokaro,Jharkhand,23.6693,86.1511,41.5,10,0.0,978.5,9.0,40.7,135,123.9,30.5,0,5,10,0,2026-04-22T14:54:18.473357+05:30
Bhubaneswar,Odisha,20.2961,85.8245,38.3,49,0.0,997.5,9.15,33.1,145,59.4,49.9,0,5,10,1,2026-04-22T14:54:18.473363+05:30
Cuttack,Odisha,20.4625,85.8828,42.3,27,0.0,998.4,9.2,48.6,145,59.4,49.9,0,5,10,1,2026-04-22T14:54:18.473369+05:30
Rourkela,Odisha,22.2604,84.8536,42.4,16,0.0,979.5,9.0,46.4,149,68.9,22.7,0,5,10,0,2026-04-22T14:54:18.473374+05:30
Raipur,Chhattisgarh,21.2514,81.6296,42.2,12,0.0,971.2,8.9,33.5,147,34.7,18.0,0,5,10,0,2026-04-22T14:54:18.473380+05:30
Bhilai,Chhattisgarh,21.1938,81.3509,42.0,12,0.0,971.5,8.95,29.9,117,32.2,17.2,0,5,10,0,2026-04-22T14:54:18.473385+05:30
Guwahati,Assam,26.1158,91.7086,30.4,71,0.0,996.8,8.6,40.7,117,58.3,37.1,3,5,7,1,2026-04-22T14:54:18.473391+05:30
Agartala,Tripura,23.8315,91.2868,36.3,47,0.0,1000.8,8.85,31.7,78,40.7,29.8,0,5,7,1,2026-04-22T14:54:18.473397+05:30
Shillong,Meghalaya,25.5788,91.8933,22.6,54,0.0,855.7,9.05,75.2,69,49.2,22.6,0,5,7,0,2026-04-22T14:54:18.473403+05:30
Imphal,Manipur,24.817,93.9368,25.6,64,0.0,920.6,9.2,77.4,140,64.7,27.8,7,5,7,1,2026-04-22T14:54:18.473409+05:30
Aizawl,Mizoram,23.7271,92.7176,29.0,51,0.0,891.5,9.05,54.0,99,49.2,31.9,4,5,7,1,2026-04-22T14:54:18.473414+05:30
Kohima,Nagaland,25.6701,94.1077,21.8,65,0.0,853.8,9.15,92.2,110,55.2,25.6,3,5,7,0,2026-04-22T14:54:18.473420+05:30
Gangtok,Sikkim,27.3314,88.6138,22.5,59,0.0,837.1,8.9,23.8,117,39.3,21.8,0,5,7,0,2026-04-22T14:54:18.473426+05:30
Siliguri,West Bengal,26.7271,88.3953,29.3,62,0.0,989.4,8.5,22.7,128,68.5,44.9,7,5,7,1,2026-04-22T14:54:21.765695+05:30
Durgapur,West Bengal,23.5204,87.3119,42.7,12,0.0,989.1,8.95,31.7,154,201.6,41.8,0,5,10,0,2026-04-22T14:54:21.765726+05:30
Asansol,West Bengal,23.6739,86.9524,42.5,12,0.0,987.6,9.0,27.4,138,170.9,38.2,0,5,10,0,2026-04-22T14:54:21.765738+05:30
Pondicherry,Puducherry,11.9139,79.8145,36.7,44,0.0,1004.9,9.1,27.7,35,9.0,6.2,0,5,7,1,2026-04-22T14:54:21.765747+05:30
Port Blair,Andaman and Nicobar Islands,11.6234,92.7265,30.0,71,0.0,1004.6,9.15,23.4,41,12.5,9.3,7,5,4,1,2026-04-22T14:54:21.765756+05:30
Haridwar,Uttarakhand,29.9457,78.1642,37.2,23,0.0,970.9,7.15,34.6,105,26.2,15.1,0,5,10,0,2026-04-22T14:54:21.765764+05:30
Rishikesh,Uttarakhand,30.0869,78.2676,35.7,25,0.0,964.0,7.25,33.5,100,19.6,12.4,0,5,10,0,2026-04-22T14:54:21.765772+05:30
Nainital,Uttarakhand,29.3919,79.4542,29.4,26,0.0,808.5,8.05,42.5,118,21.3,13.7,4,5,7,0,2026-04-22T14:54:21.765781+05:30
Mussoorie,Uttarakhand,30.4599,78.0664,27.2,32,0.0,805.4,7.65,41.4,104,20.9,14.0,4,5,7,0,2026-04-22T14:54:21.765788+05:30
Dharamshala,Himachal Pradesh,32.219,76.3234,31.0,31,0.0,870.1,7.95,28.1,85,17.6,7.7,0,5,7,0,2026-04-22T14:54:21.765796+05:30
Dalhousie,Himachal Pradesh,32.5387,75.971,29.6,26,0.0,807.0,8.25,25.6,92,22.2,11.9,4,5,7,0,2026-04-22T14:54:21.765805+05:30
Patiala,Punjab,30.3398,76.3869,38.8,20,0.0,974.8,7.25,25.2,229,614.7,57.4,0,5,10,0,2026-04-22T14:54:21.765813+05:30
Bhatinda,Punjab,30.211,74.9455,42.0,12,0.0,979.9,7.9,29.9,79,40.0,15.3,0,5,10,0,2026-04-22T14:54:21.765821+05:30
Rohtak,Haryana,28.8955,76.6066,39.6,15,0.0,978.6,7.4,34.2,589,659.4,64.0,0,5,10,0,2026-04-22T14:54:21.765828+05:30
Panipat,Haryana,29.3909,76.9635,39.5,17,0.0,977.0,7.2,32.8,973,1329.9,116.4,0,5,10,0,2026-04-22T14:54:21.765885+05:30
Mathura,Uttar Pradesh,27.4924,77.6737,41.3,15,0.0,983.1,7.7,33.8,726,814.0,72.4,0,5,10,0,2026-04-22T14:54:21.765899+05:30
Vrindavan,Uttar Pradesh,27.5823,77.7027,41.3,15,0.0,983.5,7.65,34.6,726,814.0,72.4,0,5,10,0,2026-04-22T14:54:21.765907+05:30
Ayodhya,Uttar Pradesh,26.7922,82.1998,41.6,11,0.0,989.7,8.05,46.1,144,68.5,21.8,0,5,10,0,2026-04-22T14:54:21.765915+05:30
Ratlam,Madhya Pradesh,23.3315,75.0367,36.1,24,0.0,954.4,8.5,29.5,65,18.6,14.9,0,5,10,0,2026-04-22T14:54:21.765923+05:30
Sagar,Madhya Pradesh,23.8388,78.7378,38.6,11,0.0,949.2,8.7,38.5,74,9.8,6.3,0,5,10,0,2026-04-22T14:54:21.765933+05:30
Satna,Madhya Pradesh,24.6005,80.8322,40.5,14,0.0,968.1,8.7,48.6,89,62.6,16.8,0,5,10,0,2026-04-22T14:54:21.765941+05:30
Akola,Maharashtra,20.7002,77.0082,41.9,14,0.0,972.6,8.9,32.0,80,23.1,18.2,0,5,10,0,2026-04-22T14:54:21.765950+05:30
Amravati,Maharashtra,20.9374,77.7796,39.9,18,0.0,965.2,8.8,23.8,84,22.1,18.2,0,5,10,0,2026-04-22T14:54:21.765958+05:30
Latur,Maharashtra,18.4088,76.5604,38.1,19,0.0,938.1,8.35,31.3,125,35.3,29.3,0,5,10,0,2026-04-22T14:54:21.765966+05:30
Nanded,Maharashtra,19.1383,77.3091,40.8,17,0.0,965.9,8.9,22.0,102,27.0,22.5,0,5,10,0,2026-04-22T14:54:21.765973+05:30
Gulbarga,Karnataka,17.3297,76.8343,39.8,19,0.0,956.1,9.15,25.9,129,39.2,33.8,0,5,10,0,2026-04-22T14:54:21.765980+05:30
Bidar,Karnataka,17.9104,77.5199,37.4,22,0.0,934.1,6.95,47.5,120,36.1,30.3,0,5,10,0,2026-04-22T14:54:21.765988+05:30
Hospet,Karnataka,15.2689,76.3909,37.2,28,0.0,953.3,9.25,38.2,112,36.2,29.9,0,5,10,0,2026-04-22T14:54:21.765995+05:30
Tirupur,Tamil Nadu,11.1085,77.3411,38.6,29,0.0,971.9,9.3,27.4,72,19.9,15.6,0,5,10,1,2026-04-22T14:54:21.766002+05:30
Alappuzha,Kerala,9.4981,76.3388,29.3,83,0.0,1005.2,8.8,27.7,79,27.1,22.6,7,5,4,1,2026-04-22T14:54:21.766010+05:30
Munnar,Kerala,10.0889,77.0595,28.1,60,0.0,856.8,9.65,35.6,75,14.6,11.5,4,5,7,1,2026-04-22T14:54:21.766018+05:30
Silchar,Assam,24.8333,92.7789,30.7,70,0.0,1001.0,8.85,46.4,151,51.2,33.8,3,5,4,1,2026-04-22T14:54:21.766025+05:30
Dibrugarh,Assam,27.4728,94.912,24.4,82,0.0,993.1,8.6,23.4,78,10.2,7.9,3,5,7,1,2026-04-22T14:54:21.766033+05:30
