city,state,latitude,longitude,temp,humidity,rain,pressure,uv_index,wind_gusts,aqi,pm10,pm2_5,mosquito_risk,arthritis_risk,migraine_risk,frizz_risk,updated_at
Delhi,Delhi,28.6139,77.209,25.1,58,0.0,986.5,3.95,33.1,120,95.2,32.8,4,5,3,1,2026-03-19T14:19:19.634031+05:30
Mumbai,Maharashtra,19.076,72.8777,27.1,74,0.0,1009.7,7.75,21.2,70,47.1,37.6,7,0,4,1,2026-03-19T14:19:19.634082+05:30
Bangalore,Karnataka,12.9716,77.5946,29.8,37,0.0,912.4,9.35,23.0,92,27.5,23.5,4,5,7,0,2026-03-19T14:19:19.634097+05:30
Hyderabad,Telangana,17.385,78.4867,30.6,36,0.0,954.5,8.75,24.5,82,24.9,17.7,0,5,7,0,2026-03-19T14:19:19.634108+05:30
Chennai,Tamil Nadu,13.0827,80.2707,31.0,58,0.0,1008.6,9.1,29.5,45,16.0,12.7,0,0,4,1,2026-03-19T14:19:19.634118+05:30
Kolkata,West Bengal,22.5726,88.3639,31.0,58,0.0,1007.2,7.7,25.2,71,53.2,44.9,0,5,4,1,2026-03-19T14:19:19.634126+05:30
Pune,Maharashtra,18.5204,73.8567,30.7,37,0.0,949.6,8.3,34.2,101,38.6,27.0,0,5,7,0,2026-03-19T14:19:19.634139+05:30
Ahmedabad,Gujarat,23.0225,72.5714,33.5,36,0.0,1002.7,7.55,45.4,68,30.3,22.8,0,5,4,1,2026-03-19T14:19:19.634147+05:30
Jaipur,Rajasthan,26.9124,75.7873,26.1,49,0.0,961.7,7.05,31.7,137,138.8,30.4,4,5,7,0,2026-03-19T14:19:19.634155+05:30
Lucknow,Uttar Pradesh,26.8467,80.9462,33.5,27,0.0,994.9,6.8,28.1,96,46.1,16.2,0,5,7,0,2026-03-19T14:19:19.634164+05:30
Kanpur,Uttar Pradesh,26.4499,80.3319,32.9,34,0.0,993.1,6.85,32.8,120,256.1,36.3,0,5,7,0,2026-03-19T14:19:19.634171+05:30
Chandigarh,Chandigarh,30.7333,76.7794,18.6,83,0.2,973.0,3.9,19.1,60,75.4,21.5,6,10,3,0,2026-03-19T14:19:19.634180+05:30
Srinagar,Jammu and Kashmir,34.0837,74.7973,8.5,85,0.2,841.1,0.95,15.1,89,19.6,17.3,6,10,3,0,2026-03-19T14:19:19.634188+05:30
Jammu,Jammu and Kashmir,32.7266,74.857,20.0,75,0.0,977.0,3.0,35.3,58,50.6,17.2,3,5,3,0,2026-03-19T14:19:19.634196+05:30
Amritsar,Punjab,31.634,74.8723,17.8,93,0.0,984.8,2.45,22.7,82,122.9,38.2,3,10,3,1,2026-03-19T14:19:19.634203+05:30
Ludhiana,Punjab,30.901,75.8573,18.5,87,0.3,983.2,1.6,24.5,78,65.4,22.8,6,10,3,1,2026-03-19T14:19:19.634211+05:30
Jalandhar,Punjab,31.326,75.5762,18.2,86,0.1,984.4,2.7,27.7,78,89.9,29.2,6,10,3,0,2026-03-19T14:19:19.634220+05:30
Dehradun,Uttarakhand,30.6284,78.0322,12.4,79,0.3,831.1,5.3,32.0,42,24.6,6.7,6,5,3,0,2026-03-19T14:19:19.634228+05:30
Shimla,Himachal Pradesh,31.1048,77.1734,11.1,81,0.2,784.1,3.7,37.4,43,25.6,7.2,6,10,3,0,2026-03-19T14:19:19.634235+05:30
Manali,Himachal Pradesh,32.2396,77.1887,11.4,96,0.4,817.2,4.3,23.8,45,5.6,3.1,6,10,3,0,2026-03-19T14:19:19.634242+05:30
Gurgaon,Haryana,28.4595,77.0266,24.9,64,0.0,984.9,5.05,30.2,150,95.5,30.7,3,5,3,1,2026-03-19T14:19:19.634251+05:30
Noida,Uttar Pradesh,28.5355,77.391,25.4,57,0.0,988.0,4.25,32.8,150,95.5,30.7,4,5,3,1,2026-03-19T14:19:19.634259+05:30
Ghaziabad,Uttar Pradesh,28.6692,77.4538,25.0,59,0.0,986.3,4.2,34.2,109,70.8,21.5,4,5,3,1,2026-03-19T14:19:19.634266+05:30
Faridabad,Haryana,28.4089,77.3178,25.4,59,0.0,987.1,5.9,33.5,150,95.5,30.7,4,5,3,1,2026-03-19T14:19:19.634273+05:30
Meerut,Uttar Pradesh,28.9845,77.7064,23.3,66,0.0,985.5,3.35,35.6,109,70.8,21.5,3,5,3,1,2026-03-19T14:19:19.634280+05:30
Agra,Uttar Pradesh,27.1767,78.0081,31.2,31,0.0,990.1,6.7,37.8,626,856.8,83.1,0,5,7,0,2026-03-19T14:19:19.634287+05:30
Varanasi,Uttar Pradesh,25.3176,82.9739,34.5,35,0.0,997.8,7.5,52.9,122,54.2,38.6,0,5,7,1,2026-03-19T14:19:19.634297+05:30
Prayagraj,Uttar Pradesh,25.4358,81.8463,34.9,33,0.0,995.8,7.35,21.2,107,58.6,27.5,0,5,7,1,2026-03-19T14:19:19.634306+05:30
Gorakhpur,Uttar Pradesh,26.7606,83.3732,33.5,36,0.0,997.8,7.2,17.3,125,57.5,21.4,0,5,7,1,2026-03-19T14:19:19.634313+05:30
Bareilly,Uttar Pradesh,28.367,79.4304,27.8,41,0.0,990.1,6.15,34.2,84,23.9,10.4,4,5,7,0,2026-03-19T14:19:19.634320+05:30
Aligarh,Uttar Pradesh,27.8974,78.088,28.9,42,0.0,988.5,6.4,34.6,157,324.1,45.2,4,5,7,0,2026-03-19T14:19:19.634327+05:30
Moradabad,Uttar Pradesh,28.8386,78.7733,26.3,50,0.0,987.6,5.5,46.1,113,42.5,17.5,4,5,3,0,2026-03-19T14:19:19.634333+05:30
Saharanpur,Uttar Pradesh,29.9637,77.546,18.6,82,0.2,980.4,3.55,27.0,72,78.5,21.7,6,10,3,0,2026-03-19T14:19:19.634340+05:30
Jhansi,Uttar Pradesh,25.4484,78.5685,35.1,23,0.0,977.7,7.3,46.1,84,67.1,31.0,0,5,10,0,2026-03-19T14:19:22.861129+05:30
Surat,Gujarat,21.1702,72.8311,29.1,55,0.0,1008.0,7.45,30.6,77,30.9,23.1,4,0,4,1,2026-03-19T14:19:22.861160+05:30
Vadodara,Gujarat,22.3072,73.1812,34.1,39,0.0,1004.9,7.35,55.8,63,19.2,13.9,0,5,4,1,2026-03-19T14:19:22.861171+05:30
Rajkot,Gujarat,22.3039,70.8022,31.7,40,0.0,995.1,7.4,51.8,45,40.4,17.6,0,5,7,1,2026-03-19T14:19:22.861178+05:30
Thane,Maharashtra,19.2183,72.9781,30.3,55,0.0,1009.2,7.75,34.6,70,47.1,37.6,0,0,4,1,2026-03-19T14:19:22.861185+05:30
Nagpur,Maharashtra,21.1458,79.0882,32.4,34,0.0,974.3,7.85,22.7,105,50.5,40.9,0,5,7,0,2026-03-19T14:19:22.861193+05:30
Nashik,Maharashtra,19.9975,73.7898,30.4,39,0.0,946.4,7.95,38.9,56,20.3,15.1,0,5,7,0,2026-03-19T14:19:22.861200+05:30
Aurangabad,Maharashtra,19.8762,75.3433,32.0,30,0.0,944.9,8.45,29.2,74,31.5,21.1,0,5,7,0,2026-03-19T14:19:22.861207+05:30
Solapur,Maharashtra,17.6599,75.9064,32.5,32,0.0,957.9,8.65,33.5,79,30.3,21.0,0,5,7,0,2026-03-19T14:19:22.861214+05:30
Kolhapur,Maharashtra,16.705,74.2433,31.2,35,0.0,948.9,8.8,37.8,117,34.1,23.5,0,5,7,0,2026-03-19T14:19:22.861222+05:30
Goa,Goa,15.2993,74.124,31.0,55,0.0,999.2,8.8,30.6,80,33.1,21.6,0,5,7,1,2026-03-19T14:19:22.861229+05:30
Jodhpur,Rajasthan,26.2389,73.0243,29.1,42,0.0,984.8,6.8,40.7,68,122.9,24.3,4,5,7,0,2026-03-19T14:19:22.861235+05:30
Udaipur,Rajasthan,24.5854,73.7125,29.1,36,0.0,947.7,6.6,38.9,43,52.5,16.8,4,5,7,0,2026-03-19T14:19:22.861242+05:30
Kota,Rajasthan,25.2138,75.8648,31.6,36,0.0,979.7,7.35,34.2,84,102.7,37.3,0,5,7,0,2026-03-19T14:19:22.861248+05:30
Bikaner,Rajasthan,28.0229,73.3119,25.1,54,0.0,984.4,5.9,31.0,63,101.3,23.7,4,5,3,0,2026-03-19T14:19:22.861254+05:30
Ajmer,Rajasthan,26.4499,74.6399,27.3,47,0.0,956.2,5.2,31.0,67,74.7,18.2,4,5,3,0,2026-03-19T14:19:22.861260+05:30
Gwalior,Madhya Pradesh,26.2183,78.1828,32.0,33,0.0,984.5,7.0,31.3,134,139.2,37.4,0,5,7,0,2026-03-19T14:19:22.861267+05:30
Indore,Madhya Pradesh,22.7196,75.8577,33.5,17,0.0,948.6,7.9,41.4,57,24.7,18.5,0,5,7,0,2026-03-19T14:19:22.861273+05:30
Bhopal,Madhya Pradesh,23.2599,77.4126,33.4,22,0.0,954.5,7.8,34.9,70,19.1,15.5,0,5,7,0,2026-03-19T14:19:22.861279+05:30
Jabalpur,Madhya Pradesh,23.1815,79.9864,34.0,23,0.0,961.8,7.9,31.7,75,29.8,23.1,0,5,7,0,2026-03-19T14:19:22.861286+05:30
Ujjain,Madhya Pradesh,23.1765,75.7885,32.6,21,0.0,954.4,7.8,31.3,55,18.9,13.4,0,5,7,0,2026-03-19T14:19:22.861292+05:30
Visakhapatnam,Andhra Pradesh,17.6868,83.2185,30.6,57,0.0,1005.7,7.8,31.0,66,21.3,16.9,0,5,4,1,2026-03-19T14:19:22.861299+05:30
Vijayawada,Andhra Pradesh,16.5062,80.648,30.0,59,0.0,1004.7,8.35,28.4,64,15.2,11.0,4,5,4,1,2026-03-19T14:19:22.861305+05:30
Guntur,Andhra Pradesh,16.3067,80.4365,29.9,63,0.0,1006.0,8.4,23.0,64,16.2,10.4,7,5,4,1,2026-03-19T14:19:22.861311+05:30
Nellore,Andhra Pradesh,14.4426,79.9865,31.7,55,0.0,1007.3,9.0,23.8,36,15.8,11.4,0,5,4,1,2026-03-19T14:19:22.861318+05:30
Kurnool,Andhra Pradesh,15.8281,78.0373,32.5,36,0.0,978.1,8.85,18.7,63,14.8,10.8,0,5,7,0,2026-03-19T14:19:22.861326+05:30
Kakinada,Andhra Pradesh,16.9891,82.2475,29.6,63,0.0,1009.7,8.5,24.1,41,11.7,8.6,7,0,4,1,2026-03-19T14:19:22.861333+05:30
Tirupati,Andhra Pradesh,13.6288,79.4192,31.4,49,0.0,992.2,9.1,25.6,60,13.3,10.2,0,5,7,1,2026-03-19T14:19:22.861340+05:30
Warangal,Telangana,17.9689,79.5941,28.0,61,0.0,981.2,8.0,21.6,146,32.7,25.3,7,5,7,1,2026-03-19T14:19:22.861347+05:30
Nizamabad,Telangana,18.6725,78.0941,32.5,35,0.0,965.2,8.45,25.6,114,27.6,20.7,0,5,7,0,2026-03-19T14:19:22.861353+05:30
Mysore,Karnataka,12.2958,76.6396,31.6,34,0.0,929.0,9.35,31.3,96,26.7,23.7,0,5,7,0,2026-03-19T14:19:22.861360+05:30
Mangalore,Karnataka,12.9141,74.856,28.0,78,0.0,1007.6,8.95,24.1,86,25.0,19.2,7,5,4,1,2026-03-19T14:19:22.861366+05:30
Hubli-Dharwad,Karnataka,15.3647,75.124,31.0,37,0.0,941.9,8.95,36.4,96,33.4,26.4,0,5,7,0,2026-03-19T14:19:22.861373+05:30
Belgaum,Karnataka,15.8497,74.4977,30.4,34,0.0,926.8,9.0,37.4,100,32.9,21.9,0,5,7,0,2026-03-19T14:19:26.082520+05:30
Coimbatore,Tamil Nadu,11.0168,76.9558,31.4,49,0.0,962.5,9.3,39.2,65,17.2,14.6,0,5,7,1,2026-03-19T14:19:26.082550+05:30
Madurai,Tamil Nadu,9.9252,78.1198,32.9,48,0.0,993.5,9.25,20.5,50,13.7,11.7,0,5,7,1,2026-03-19T14:19:26.082579+05:30
Trichy,Tamil Nadu,10.7905,78.7047,34.0,45,0.0,999.8,9.2,25.2,52,16.0,13.9,0,5,7,1,2026-03-19T14:19:26.082589+05:30
Salem,Tamil Nadu,11.6643,78.146,34.2,40,0.0,977.3,9.25,20.2,74,22.6,20.1,0,5,7,1,2026-03-19T14:19:26.082597+05:30
Tirunelveli,Tamil Nadu,8.7139,77.7567,33.8,42,0.0,1003.4,8.5,24.1,64,15.1,13.8,0,5,4,1,2026-03-19T14:19:26.082605+05:30
Vellore,Tamil Nadu,12.9165,79.1325,32.4,47,0.0,985.0,9.15,23.4,57,15.5,10.4,0,5,7,1,2026-03-19T14:19:26.082613+05:30
Erode,Tamil Nadu,11.341,77.7172,34.4,41,0.0,988.8,9.25,23.4,56,14.1,12.8,0,5,7,1,2026-03-19T14:19:26.082620+05:30
Kochi,Kerala,9.9312,76.2673,28.0,77,0.0,1009.4,9.1,25.9,61,15.7,14.2,7,0,4,1,2026-03-19T14:19:26.082628+05:30
Thiruvananthapuram,Kerala,8.5241,76.9366,28.3,77,0.0,1008.5,8.1,20.5,59,13.5,12.9,7,0,4,1,2026-03-19T14:19:26.082635+05:30
Kozhikode,Kerala,11.2588,75.7804,29.2,73,0.0,1008.6,9.05,27.7,75,12.6,11.3,7,0,4,1,2026-03-19T14:19:26.082642+05:30
Thrissur,Kerala,10.5276,76.2144,32.5,57,0.0,1007.6,9.1,31.0,57,14.4,13.3,0,5,4,1,2026-03-19T14:19:26.082650+05:30
Kannur,Kerala,11.8745,75.3704,30.2,67,0.0,1008.2,9.0,30.6,65,19.7,15.7,3,0,4,1,2026-03-19T14:19:26.082658+05:30
Patna,Bihar,25.5941,85.1376,32.1,48,0.0,1000.8,7.25,50.8,163,71.9,51.0,0,5,4,1,2026-03-19T14:19:26.082665+05:30
Gaya,Bihar,24.7914,85.0002,33.3,40,0.0,994.0,7.55,29.9,115,49.0,36.7,0,5,7,1,2026-03-19T14:19:26.082671+05:30
Muzaffarpur,Bihar,26.1209,85.3647,32.0,48,0.0,1001.1,7.0,35.6,162,71.7,44.4,0,5,4,1,2026-03-19T14:19:26.082677+05:30
Bhagalpur,Bihar,25.2425,87.0117,29.8,59,0.0,1002.5,6.95,34.9,131,61.9,54.8,4,5,4,1,2026-03-19T14:19:26.082684+05:30
Ranchi,Jharkhand,23.3441,85.3096,30.3,32,0.0,939.2,6.75,35.3,95,38.6,28.7,0,5,7,0,2026-03-19T14:19:26.082691+05:30
Jamshedpur,Jharkhand,22.8046,86.2029,33.7,35,0.0,991.7,7.7,40.3,136,48.9,38.4,0,5,7,1,2026-03-19T14:19:26.082697+05:30
Dhanbad,Jharkhand,23.7957,86.4304,33.4,29,0.0,980.5,7.2,30.2,157,54.5,44.2,0,5,7,0,2026-03-19T14:19:26.082704+05:30
Bokaro,Jharkhand,23.6693,86.1511,30.5,42,0.0,985.3,7.15,35.6,143,44.9,34.7,0,5,7,1,2026-03-19T14:19:26.082711+05:30
Bhubaneswar,Odisha,20.2961,85.8245,32.7,49,0.0,1003.8,7.95,22.0,82,36.9,28.5,0,5,4,1,2026-03-19T14:19:26.082718+05:30
Cuttack,Odisha,20.4625,85.8828,33.2,45,0.0,1006.0,7.9,22.3,82,36.9,28.5,0,5,4,1,2026-03-19T14:19:26.082725+05:30
Rourkela,Odisha,22.2604,84.8536,31.2,44,0.0,986.8,7.15,25.6,123,54.6,44.2,0,5,7,1,2026-03-19T14:19:26.082732+05:30
Raipur,Chhattisgarh,21.2514,81.6296,31.7,36,0.0,976.4,7.75,27.7,137,55.8,46.4,0,5,7,0,2026-03-19T14:19:26.082738+05:30
Bhilai,Chhattisgarh,21.1938,81.3509,32.2,36,0.0,976.7,7.6,26.3,140,51.9,42.0,0,5,7,0,2026-03-19T14:19:26.082745+05:30
Guwahati,Assam,26.1158,91.7086,27.3,62,0.0,1003.6,7.5,29.5,115,50.3,34.6,7,5,4,1,2026-03-19T14:19:26.082751+05:30
Agartala,Tripura,23.8315,91.2868,29.5,53,0.0,1008.2,7.85,29.2,90,28.9,23.9,4,0,4,1,2026-03-19T14:19:26.082758+05:30
Shillong,Meghalaya,25.5788,91.8933,18.5,50,0.0,857.8,7.15,47.9,88,48.4,28.4,0,5,7,0,2026-03-19T14:19:26.082765+05:30
Imphal,Manipur,24.817,93.9368,21.7,63,0.0,924.5,8.25,60.8,94,37.7,22.3,3,5,7,0,2026-03-19T14:19:26.082772+05:30
Aizawl,Mizoram,23.7271,92.7176,24.5,49,0.0,895.2,8.05,40.0,74,32.7,23.1,0,5,7,0,2026-03-19T14:19:26.082778+05:30
Kohima,Nagaland,25.6701,94.1077,17.4,78,0.0,856.2,7.95,86.8,84,40.5,23.6,3,5,7,0,2026-03-19T14:19:26.082785+05:30
Gangtok,Sikkim,27.3314,88.6138,17.9,64,0.0,838.3,7.7,19.4,101,54.2,34.0,3,5,7,0,2026-03-19T14:19:26.082792+05:30
Siliguri,West Bengal,26.7271,88.3953,22.0,78,0.0,996.3,7.4,24.8,141,71.2,52.3,3,5,7,1,2026-03-19T14:19:29.309615+05:30
Durgapur,West Bengal,23.5204,87.3119,33.1,36,0.0,995.8,7.75,28.4,148,73.3,62.6,0,5,7,0,2026-03-19T14:19:29.309646+05:30
Asansol,West Bengal,23.6739,86.9524,33.4,33,0.0,994.1,7.65,25.6,153,61.7,51.6,0,5,7,0,2026-03-19T14:19:29.309656+05:30
Pondicherry,Puducherry,11.9139,79.8145,32.4,53,0.0,1008.9,9.1,26.6,37,16.3,12.0,0,0,4,1,2026-03-19T14:19:29.309664+05:30
Port Blair,Andaman and Nicobar Islands,11.6234,92.7265,27.5,80,0.0,1008.0,9.05,22.0,51,16.9,13.2,7,0,4,1,2026-03-19T14:19:29.309671+05:30
Haridwar,Uttarakhand,29.9457,78.1642,21.5,69,0.2,979.2,3.9,24.8,67,76.1,20.1,6,5,3,0,2026-03-19T14:19:29.309679+05:30
Rishikesh,Uttarakhand,30.0869,78.2676,21.5,68,0.1,971.6,4.2,28.1,62,48.1,12.2,6,5,3,0,2026-03-19T14:19:29.309686+05:30
Nainital,Uttarakhand,29.3919,79.4542,19.1,54,0.0,808.7,5.75,59.4,75,47.4,12.5,0,5,3,0,2026-03-19T14:19:29.309694+05:30
Mussoorie,Uttarakhand,30.4599,78.0664,12.9,83,0.1,803.3,5.1,41.0,60,79.6,20.6,6,10,3,0,2026-03-19T14:19:29.309701+05:30
Dharamshala,Himachal Pradesh,32.219,76.3234,14.2,89,0.1,869.8,3.8,29.9,46,17.6,7.1,6,10,3,0,2026-03-19T14:19:29.309708+05:30
Dalhousie,Himachal Pradesh,32.5387,75.971,11.9,80,0.0,803.2,4.55,25.2,55,56.3,17.4,3,5,3,0,2026-03-19T14:19:29.309716+05:30
Patiala,Punjab,30.3398,76.3869,19.1,84,0.1,982.9,3.85,25.2,100,64.7,22.5,6,10,3,1,2026-03-19T14:19:29.309723+05:30
Bhatinda,Punjab,30.211,74.9455,20.8,82,0.1,987.2,1.4,21.2,86,84.5,31.0,6,5,3,1,2026-03-19T14:19:29.309729+05:30
Rohtak,Haryana,28.8955,76.6066,21.5,84,0.0,986.0,4.9,28.8,132,107.3,39.3,3,5,3,1,2026-03-19T14:19:29.309736+05:30
Panipat,Haryana,29.3909,76.9635,20.5,82,0.0,985.0,3.65,36.0,122,89.2,36.2,3,5,3,1,2026-03-19T14:19:29.309742+05:30
Mathura,Uttar Pradesh,27.4924,77.6737,27.6,44,0.0,989.8,6.6,35.6,132,449.8,57.9,4,5,7,0,2026-03-19T14:19:29.309749+05:30
Vrindavan,Uttar Pradesh,27.5823,77.7027,27.2,45,0.0,990.4,6.55,34.2,132,449.8,57.9,4,5,7,0,2026-03-19T14:19:29.309755+05:30
Ayodhya,Uttar Pradesh,26.7922,82.1998,35.6,23,0.0,995.7,6.9,29.5,120,56.2,22.4,0,5,10,0,2026-03-19T14:19:29.309762+05:30
Ratlam,Madhya Pradesh,23.3315,75.0367,31.3,30,0.0,955.3,7.75,58.7,51,16.5,12.2,0,5,7,0,2026-03-19T14:19:29.309769+05:30
Sagar,Madhya Pradesh,23.8388,78.7378,34.0,18,0.0,950.9,7.75,43.6,55,13.6,11.1,0,5,7,0,2026-03-19T14:19:29.309775+05:30
Satna,Madhya Pradesh,24.6005,80.8322,36.0,18,0.0,971.4,7.7,31.0,82,33.2,20.0,0,5,10,0,2026-03-19T14:19:29.309782+05:30
Akola,Maharashtra,20.7002,77.0082,34.0,27,0.0,975.9,8.2,25.6,95,36.3,28.3,0,5,7,0,2026-03-19T14:19:29.309789+05:30
Amravati,Maharashtra,20.9374,77.7796,34.2,28,0.0,968.1,8.15,23.0,99,39.2,30.0,0,5,7,0,2026-03-19T14:19:29.309797+05:30
Latur,Maharashtra,18.4088,76.5604,30.2,38,0.0,940.8,8.55,37.4,89,29.6,21.4,0,5,7,0,2026-03-19T14:19:29.309804+05:30
Nanded,Maharashtra,19.1383,77.3091,33.7,29,0.0,969.1,8.4,19.8,95,34.2,25.9,0,5,7,0,2026-03-19T14:19:29.309811+05:30
Gulbarga,Karnataka,17.3297,76.8343,31.1,37,0.0,959.8,8.65,21.2,84,24.9,18.5,0,5,7,0,2026-03-19T14:19:29.309817+05:30
Bidar,Karnataka,17.9104,77.5199,31.4,33,0.0,936.4,8.6,28.1,88,24.2,16.8,0,5,7,0,2026-03-19T14:19:29.309823+05:30
Hospet,Karnataka,15.2689,76.3909,31.0,40,0.0,956.7,8.9,22.3,94,33.4,27.1,0,5,7,0,2026-03-19T14:19:29.309829+05:30
Tirupur,Tamil Nadu,11.1085,77.3411,33.9,36,0.0,975.6,9.35,28.8,61,19.1,16.7,0,5,7,1,2026-03-19T14:19:29.309836+05:30
Alappuzha,Kerala,9.4981,76.3388,28.2,77,0.0,1009.5,9.1,24.8,60,16.4,15.1,7,0,4,1,2026-03-19T14:19:29.309842+05:30
Munnar,Kerala,10.0889,77.0595,27.1,57,0.0,859.1,9.6,36.7,63,12.9,12.0,4,5,7,1,2026-03-19T14:19:29.309849+05:30
Silchar,Assam,24.8333,92.7789,29.6,54,0.0,1006.7,7.9,23.0,96,33.8,26.9,4,5,4,1,2026-03-19T14:19:29.309855+05:30
Dibrugarh,Assam,27.4728,94.912,23.1,70,0.0,998.8,6.3,19.8,95,40.6,25.4,3,5,7,1,2026-03-19T14:19:29.309862+05:30
