city,state,latitude,longitude,temp,humidity,rain,pressure,uv_index,wind_gusts,aqi,pm10,pm2_5,mosquito_risk,arthritis_risk,migraine_risk,frizz_risk,updated_at
Delhi,Delhi,28.6139,77.209,29.1,41,0.0,986.6,5.8,28.4,163,86.8,29.7,4,5,3,0,2026-03-31T10:42:23.082609+05:30
Mumbai,Maharashtra,19.076,72.8777,27.9,78,0.0,1011.0,8.05,25.2,68,33.2,21.0,7,0,4,1,2026-03-31T10:42:23.082662+05:30
Bangalore,Karnataka,12.9716,77.5946,29.0,49,0.0,914.4,9.1,24.8,90,30.3,26.3,4,5,7,1,2026-03-31T10:42:23.082678+05:30
Hyderabad,Telangana,17.385,78.4867,30.1,52,0.0,956.8,9.05,37.4,109,33.1,28.5,0,5,7,1,2026-03-31T10:42:23.082689+05:30
Chennai,Tamil Nadu,13.0827,80.2707,31.8,58,0.0,1010.0,9.3,30.2,49,17.5,12.9,0,0,4,1,2026-03-31T10:42:23.082698+05:30
Kolkata,West Bengal,22.5726,88.3639,30.2,72,0.0,1009.1,7.55,27.0,88,34.6,29.3,3,0,4,1,2026-03-31T10:42:23.082707+05:30
Pune,Maharashtra,18.5204,73.8567,30.6,58,0.0,951.0,8.55,31.0,88,40.5,29.9,0,5,7,1,2026-03-31T10:42:23.082719+05:30
Ahmedabad,Gujarat,23.0225,72.5714,31.5,48,0.0,1005.0,8.0,27.4,67,38.0,19.9,0,5,4,1,2026-03-31T10:42:23.082728+05:30
Jaipur,Rajasthan,26.9124,75.7873,29.0,40,0.0,963.4,7.2,50.4,78,93.1,18.9,4,5,7,0,2026-03-31T10:42:23.082737+05:30
Lucknow,Uttar Pradesh,26.8467,80.9462,31.5,47,0.0,996.5,7.3,27.0,152,156.0,50.1,0,5,7,1,2026-03-31T10:42:23.082745+05:30
Kanpur,Uttar Pradesh,26.4499,80.3319,29.8,57,0.0,995.3,7.25,28.1,463,370.7,71.7,4,5,7,1,2026-03-31T10:42:23.082753+05:30
Chandigarh,Chandigarh,30.7333,76.7794,27.6,56,0.0,971.9,6.45,23.0,114,90.1,26.7,4,5,7,1,2026-03-31T10:42:23.082761+05:30
Srinagar,Jammu and Kashmir,34.0837,74.7973,12.1,76,0.0,845.2,7.3,16.9,72,26.2,11.9,3,5,7,0,2026-03-31T10:42:23.082768+05:30
Jammu,Jammu and Kashmir,32.7266,74.857,30.1,33,0.0,975.6,6.85,38.2,71,55.2,16.8,0,5,7,0,2026-03-31T10:42:23.082776+05:30
Amritsar,Punjab,31.634,74.8723,26.3,59,0.0,984.0,6.5,28.4,148,222.6,50.6,4,5,7,1,2026-03-31T10:42:23.082784+05:30
Ludhiana,Punjab,30.901,75.8573,28.4,53,0.0,981.8,6.3,20.2,335,266.4,64.3,4,5,7,1,2026-03-31T10:42:23.082791+05:30
Jalandhar,Punjab,31.326,75.5762,28.1,55,0.0,982.8,6.55,27.0,204,282.2,61.2,4,5,7,1,2026-03-31T10:42:23.082801+05:30
Dehradun,Uttarakhand,30.6284,78.0322,20.2,47,0.0,833.5,7.1,34.9,48,26.5,7.0,0,5,7,0,2026-03-31T10:42:23.082809+05:30
Shimla,Himachal Pradesh,31.1048,77.1734,18.2,50,0.0,788.1,6.95,32.4,57,34.3,9.3,0,5,7,0,2026-03-31T10:42:23.082816+05:30
Manali,Himachal Pradesh,32.2396,77.1887,20.7,22,0.0,823.1,8.55,35.6,49,2.8,1.5,0,5,7,1,2026-03-31T10:42:23.082825+05:30
Gurgaon,Haryana,28.4595,77.0266,28.7,46,0.0,985.0,5.85,27.0,648,265.4,50.2,4,5,3,0,2026-03-31T10:42:23.082833+05:30
Noida,Uttar Pradesh,28.5355,77.391,29.3,43,0.0,988.1,5.85,27.0,648,265.4,50.2,4,5,3,0,2026-03-31T10:42:23.082840+05:30
Ghaziabad,Uttar Pradesh,28.6692,77.4538,28.7,45,0.0,986.2,6.0,25.2,151,83.8,27.3,4,5,3,0,2026-03-31T10:42:23.082847+05:30
Faridabad,Haryana,28.4089,77.3178,29.8,42,0.0,987.3,5.85,29.5,648,265.4,50.2,4,5,3,0,2026-03-31T10:42:23.082854+05:30
Meerut,Uttar Pradesh,28.9845,77.7064,29.3,44,0.0,984.8,6.35,28.1,151,83.8,27.3,4,5,7,0,2026-03-31T10:42:23.082861+05:30
Agra,Uttar Pradesh,27.1767,78.0081,33.1,31,0.0,991.4,6.8,31.7,567,286.8,43.9,0,5,7,0,2026-03-31T10:42:23.082869+05:30
Varanasi,Uttar Pradesh,25.3176,82.9739,31.7,50,0.0,1000.3,7.75,29.9,114,282.2,85.7,0,5,4,1,2026-03-31T10:42:23.082879+05:30
Prayagraj,Uttar Pradesh,25.4358,81.8463,32.1,46,0.0,999.0,7.85,26.6,126,271.0,82.9,0,5,7,1,2026-03-31T10:42:23.082887+05:30
Gorakhpur,Uttar Pradesh,26.7606,83.3732,28.8,65,0.0,1000.5,7.3,22.0,158,115.5,68.5,7,5,4,1,2026-03-31T10:42:23.082894+05:30
Bareilly,Uttar Pradesh,28.367,79.4304,31.0,44,0.0,989.9,6.8,32.0,104,98.0,36.6,0,5,7,1,2026-03-31T10:42:23.082902+05:30
Aligarh,Uttar Pradesh,27.8974,78.088,30.2,40,0.0,989.1,6.5,36.7,589,193.2,42.4,0,5,7,0,2026-03-31T10:42:23.082909+05:30
Moradabad,Uttar Pradesh,28.8386,78.7733,30.2,44,0.0,986.8,6.8,29.9,117,116.4,40.6,0,5,7,1,2026-03-31T10:42:23.082917+05:30
Saharanpur,Uttar Pradesh,29.9637,77.546,27.9,57,0.0,978.8,6.45,26.3,152,156.9,47.4,4,5,7,1,2026-03-31T10:42:23.082926+05:30
Jhansi,Uttar Pradesh,25.4484,78.5685,34.0,28,0.0,981.8,7.8,32.8,56,52.6,15.4,0,5,7,0,2026-03-31T10:42:26.344136+05:30
Surat,Gujarat,21.1702,72.8311,30.1,65,0.0,1009.7,7.8,28.8,88,52.5,38.2,3,0,4,1,2026-03-31T10:42:26.344168+05:30
Vadodara,Gujarat,22.3072,73.1812,32.7,45,0.0,1007.3,8.0,28.4,86,41.2,30.6,0,5,4,1,2026-03-31T10:42:26.344179+05:30
Rajkot,Gujarat,22.3039,70.8022,29.5,57,0.0,997.5,7.75,40.0,57,62.6,20.8,4,5,7,1,2026-03-31T10:42:26.344188+05:30
Thane,Maharashtra,19.2183,72.9781,30.0,64,0.0,1010.5,8.05,37.4,68,33.2,21.0,7,0,4,1,2026-03-31T10:42:26.344196+05:30
Nagpur,Maharashtra,21.1458,79.0882,30.0,54,0.0,976.9,8.55,20.2,60,26.3,15.5,4,5,7,1,2026-03-31T10:42:26.344204+05:30
Nashik,Maharashtra,19.9975,73.7898,28.5,63,0.0,948.6,8.3,29.5,65,32.1,14.5,7,5,7,1,2026-03-31T10:42:26.344212+05:30
Aurangabad,Maharashtra,19.8762,75.3433,30.2,44,0.0,947.5,8.75,22.7,63,28.2,21.5,0,5,7,1,2026-03-31T10:42:26.344219+05:30
Solapur,Maharashtra,17.6599,75.9064,29.1,55,0.0,960.1,8.9,24.8,88,45.2,35.2,4,5,7,1,2026-03-31T10:42:26.344227+05:30
Kolhapur,Maharashtra,16.705,74.2433,28.8,63,0.0,950.5,8.9,34.9,90,43.0,35.4,7,5,7,1,2026-03-31T10:42:26.344235+05:30
Goa,Goa,15.2993,74.124,32.0,56,0.0,999.7,9.0,32.8,73,35.6,23.6,0,5,7,1,2026-03-31T10:42:26.344242+05:30
Jodhpur,Rajasthan,26.2389,73.0243,30.4,46,0.0,985.7,7.7,36.4,74,64.0,17.5,0,5,7,1,2026-03-31T10:42:26.344249+05:30
Udaipur,Rajasthan,24.5854,73.7125,29.4,39,0.0,949.7,8.3,37.1,41,23.9,8.9,4,5,7,0,2026-03-31T10:42:26.344257+05:30
Kota,Rajasthan,25.2138,75.8648,32.8,43,0.0,982.1,7.8,42.5,53,32.1,16.1,0,5,7,1,2026-03-31T10:42:26.344264+05:30
Bikaner,Rajasthan,28.0229,73.3119,27.4,55,0.0,984.8,6.9,38.5,75,115.5,28.6,4,5,7,1,2026-03-31T10:42:26.344272+05:30
Ajmer,Rajasthan,26.4499,74.6399,27.8,49,0.0,958.5,7.65,37.1,44,32.4,10.4,4,5,7,1,2026-03-31T10:42:26.344278+05:30
Gwalior,Madhya Pradesh,26.2183,78.1828,33.8,30,0.0,987.0,7.45,26.3,57,15.2,7.3,0,5,7,0,2026-03-31T10:42:26.344284+05:30
Indore,Madhya Pradesh,22.7196,75.8577,32.0,38,0.0,951.1,8.3,26.3,50,21.0,11.3,0,5,7,0,2026-03-31T10:42:26.344291+05:30
Bhopal,Madhya Pradesh,23.2599,77.4126,33.3,32,0.0,957.4,8.25,26.6,49,31.7,12.8,0,5,7,0,2026-03-31T10:42:26.344298+05:30
Jabalpur,Madhya Pradesh,23.1815,79.9864,31.3,41,0.0,965.3,8.35,18.0,58,223.5,39.1,0,5,7,1,2026-03-31T10:42:26.344305+05:30
Ujjain,Madhya Pradesh,23.1765,75.7885,32.0,39,0.0,957.0,8.2,27.7,50,22.6,11.9,0,5,7,1,2026-03-31T10:42:26.344312+05:30
Visakhapatnam,Andhra Pradesh,17.6868,83.2185,31.8,57,0.0,1007.5,9.05,34.6,62,30.3,25.7,0,5,4,1,2026-03-31T10:42:26.344319+05:30
Vijayawada,Andhra Pradesh,16.5062,80.648,30.7,64,0.0,1006.4,9.05,23.8,63,22.4,17.6,3,5,4,1,2026-03-31T10:42:26.344327+05:30
Guntur,Andhra Pradesh,16.3067,80.4365,31.1,65,0.0,1007.4,9.1,27.7,64,23.2,18.9,3,5,4,1,2026-03-31T10:42:26.344333+05:30
Nellore,Andhra Pradesh,14.4426,79.9865,31.1,65,0.0,1008.8,9.2,30.2,56,20.8,16.5,3,0,4,1,2026-03-31T10:42:26.344341+05:30
Kurnool,Andhra Pradesh,15.8281,78.0373,33.1,46,0.0,979.3,9.1,31.7,88,30.6,26.5,0,5,7,1,2026-03-31T10:42:26.344348+05:30
Kakinada,Andhra Pradesh,16.9891,82.2475,32.1,57,0.0,1011.2,9.05,31.3,47,20.2,15.3,0,0,4,1,2026-03-31T10:42:26.344355+05:30
Tirupati,Andhra Pradesh,13.6288,79.4192,31.0,58,0.0,994.6,9.3,32.8,82,21.7,19.1,0,5,7,1,2026-03-31T10:42:26.344361+05:30
Warangal,Telangana,17.9689,79.5941,28.8,68,0.0,982.8,8.9,26.3,105,40.5,34.8,7,5,7,1,2026-03-31T10:42:26.344367+05:30
Nizamabad,Telangana,18.6725,78.0941,28.4,58,0.0,968.4,8.85,38.5,92,51.6,40.7,4,5,7,1,2026-03-31T10:42:26.344374+05:30
Mysore,Karnataka,12.2958,76.6396,28.1,60,0.0,930.8,8.8,30.6,109,47.5,41.7,4,5,7,1,2026-03-31T10:42:26.344381+05:30
Mangalore,Karnataka,12.9141,74.856,29.8,75,0.0,1007.9,8.9,27.0,94,29.1,22.6,7,5,4,1,2026-03-31T10:42:26.344387+05:30
Hubli-Dharwad,Karnataka,15.3647,75.124,29.7,56,0.0,943.3,9.15,27.4,73,32.7,26.5,4,5,7,1,2026-03-31T10:42:26.344394+05:30
Belgaum,Karnataka,15.8497,74.4977,28.0,64,0.0,928.2,9.15,36.4,75,36.8,28.7,7,5,7,1,2026-03-31T10:42:29.600781+05:30
Coimbatore,Tamil Nadu,11.0168,76.9558,30.5,57,0.0,964.0,9.5,38.2,91,14.9,12.7,0,5,7,1,2026-03-31T10:42:29.600814+05:30
Madurai,Tamil Nadu,9.9252,78.1198,31.4,56,0.0,995.6,9.35,31.0,70,20.4,18.0,0,5,7,1,2026-03-31T10:42:29.600825+05:30
Trichy,Tamil Nadu,10.7905,78.7047,31.3,59,0.0,1002.4,9.35,24.1,62,16.6,12.7,0,5,4,1,2026-03-31T10:42:29.600834+05:30
Salem,Tamil Nadu,11.6643,78.146,31.8,54,0.0,979.8,9.45,31.0,68,16.0,14.2,0,5,7,1,2026-03-31T10:42:29.600843+05:30
Tirunelveli,Tamil Nadu,8.7139,77.7567,32.7,52,0.0,1005.4,8.7,43.6,79,24.3,21.9,0,5,4,1,2026-03-31T10:42:29.600851+05:30
Vellore,Tamil Nadu,12.9165,79.1325,30.4,59,0.0,987.6,9.35,32.4,101,24.5,22.1,0,5,7,1,2026-03-31T10:42:29.600859+05:30
Erode,Tamil Nadu,11.341,77.7172,31.9,57,0.0,991.5,9.4,29.2,58,13.9,12.4,0,5,7,1,2026-03-31T10:42:29.600867+05:30
Kochi,Kerala,9.9312,76.2673,28.7,81,0.0,1009.9,9.1,27.7,110,41.0,37.0,7,0,4,1,2026-03-31T10:42:29.600874+05:30
Thiruvananthapuram,Kerala,8.5241,76.9366,28.1,80,0.0,1009.4,9.15,24.5,82,29.6,25.7,7,0,4,1,2026-03-31T10:42:29.600882+05:30
Kozhikode,Kerala,11.2588,75.7804,30.5,72,0.0,1009.0,8.25,27.7,113,48.2,41.4,3,0,4,1,2026-03-31T10:42:29.600889+05:30
Thrissur,Kerala,10.5276,76.2144,32.7,59,0.0,1008.1,8.85,37.4,133,38.1,33.8,0,0,4,1,2026-03-31T10:42:29.600897+05:30
Kannur,Kerala,11.8745,75.3704,31.3,65,0.0,1008.3,8.85,30.2,115,44.1,36.9,3,0,4,1,2026-03-31T10:42:29.600905+05:30
Patna,Bihar,25.5941,85.1376,29.0,69,0.0,1003.9,7.8,28.1,165,102.7,86.8,7,5,4,1,2026-03-31T10:42:29.600912+05:30
Gaya,Bihar,24.7914,85.0002,32.7,51,0.0,996.7,8.2,20.9,130,75.0,41.8,0,5,7,1,2026-03-31T10:42:29.600919+05:30
Muzaffarpur,Bihar,26.1209,85.3647,28.1,69,0.0,1004.3,7.95,26.6,171,106.2,92.7,7,5,4,1,2026-03-31T10:42:29.600926+05:30
Bhagalpur,Bihar,25.2425,87.0117,28.4,70,0.0,1004.9,8.1,21.6,163,83.4,71.7,7,5,4,1,2026-03-31T10:42:29.600933+05:30
Ranchi,Jharkhand,23.3441,85.3096,30.9,44,0.0,941.5,8.45,27.0,128,58.6,39.9,0,5,7,1,2026-03-31T10:42:29.600940+05:30
Jamshedpur,Jharkhand,22.8046,86.2029,32.1,59,0.0,993.9,8.65,27.4,152,69.4,59.6,0,5,7,1,2026-03-31T10:42:29.600947+05:30
Dhanbad,Jharkhand,23.7957,86.4304,30.9,60,0.0,983.0,8.55,30.2,170,102.7,89.2,0,5,7,1,2026-03-31T10:42:29.600955+05:30
Bokaro,Jharkhand,23.6693,86.1511,31.1,61,0.0,987.0,8.55,31.7,168,98.0,79.2,3,5,7,1,2026-03-31T10:42:29.600983+05:30
Bhubaneswar,Odisha,20.2961,85.8245,31.4,69,0.0,1006.1,8.7,26.6,63,31.3,26.2,3,5,4,1,2026-03-31T10:42:29.600992+05:30
Cuttack,Odisha,20.4625,85.8828,30.4,75,0.0,1008.2,8.2,30.6,63,31.3,26.2,3,0,4,1,2026-03-31T10:42:29.600999+05:30
Rourkela,Odisha,22.2604,84.8536,33.2,48,0.0,988.2,8.15,47.9,113,60.3,49.9,0,5,7,1,2026-03-31T10:42:29.601005+05:30
Raipur,Chhattisgarh,21.2514,81.6296,30.6,47,0.0,978.3,8.2,33.1,106,167.2,49.0,0,5,7,1,2026-03-31T10:42:29.601011+05:30
Bhilai,Chhattisgarh,21.1938,81.3509,30.1,52,0.0,978.6,8.25,29.2,86,245.9,53.9,0,5,7,1,2026-03-31T10:42:29.601018+05:30
Guwahati,Assam,26.1158,91.7086,26.0,75,0.0,1005.7,8.0,22.7,131,54.7,40.3,7,5,4,1,2026-03-31T10:42:29.601024+05:30
Agartala,Tripura,23.8315,91.2868,26.8,83,0.0,1010.3,8.3,20.2,112,29.9,26.7,7,0,4,1,2026-03-31T10:42:29.601031+05:30
Shillong,Meghalaya,25.5788,91.8933,19.5,61,0.0,859.6,8.25,37.4,117,43.1,28.2,3,5,7,0,2026-03-31T10:42:29.601038+05:30
Imphal,Manipur,24.817,93.9368,19.5,87,0.0,926.3,8.7,55.1,77,13.9,10.4,3,10,7,1,2026-03-31T10:42:29.601045+05:30
Aizawl,Mizoram,23.7271,92.7176,22.6,78,0.0,896.6,8.55,40.7,122,52.0,41.2,3,5,7,1,2026-03-31T10:42:29.601051+05:30
Kohima,Nagaland,25.6701,94.1077,18.8,78,0.0,858.6,8.55,66.6,78,34.9,21.4,3,5,7,0,2026-03-31T10:42:29.601058+05:30
Gangtok,Sikkim,27.3314,88.6138,17.7,78,0.0,840.8,8.3,16.6,132,37.4,27.9,3,5,7,0,2026-03-31T10:42:29.601064+05:30
Siliguri,West Bengal,26.7271,88.3953,22.7,79,0.0,998.2,7.65,20.5,164,84.5,61.9,3,5,7,1,2026-03-31T10:42:32.860915+05:30
Durgapur,West Bengal,23.5204,87.3119,30.9,67,0.0,998.0,8.5,20.9,159,85.7,77.3,3,5,7,1,2026-03-31T10:42:32.860946+05:30
Asansol,West Bengal,23.6739,86.9524,30.7,67,0.0,996.7,8.55,26.6,159,91.3,81.3,3,5,7,1,2026-03-31T10:42:32.861003+05:30
Pondicherry,Puducherry,11.9139,79.8145,30.8,66,0.0,1011.2,9.25,26.3,43,16.2,11.7,3,0,4,1,2026-03-31T10:42:32.861016+05:30
Port Blair,Andaman and Nicobar Islands,11.6234,92.7265,29.4,69,0.0,1009.6,9.2,12.6,53,15.3,12.8,7,0,4,1,2026-03-31T10:42:32.861025+05:30
Haridwar,Uttarakhand,29.9457,78.1642,29.4,44,0.0,977.3,6.6,30.6,100,88.2,26.2,4,5,7,0,2026-03-31T10:42:32.861033+05:30
Rishikesh,Uttarakhand,30.0869,78.2676,29.4,40,0.0,970.0,6.65,28.4,74,43.7,12.3,4,5,7,0,2026-03-31T10:42:32.861041+05:30
Nainital,Uttarakhand,29.3919,79.4542,24.6,37,0.0,810.7,7.5,43.6,79,56.9,17.3,0,5,7,0,2026-03-31T10:42:32.861048+05:30
Mussoorie,Uttarakhand,30.4599,78.0664,20.8,49,0.0,806.6,7.0,34.6,73,37.4,11.4,0,5,7,0,2026-03-31T10:42:32.861055+05:30
Dharamshala,Himachal Pradesh,32.219,76.3234,23.0,52,0.0,872.3,7.2,22.7,38,7.3,2.8,0,5,7,0,2026-03-31T10:42:32.861061+05:30
Dalhousie,Himachal Pradesh,32.5387,75.971,20.5,45,0.0,806.9,7.4,27.4,69,64.3,14.4,0,5,7,0,2026-03-31T10:42:32.861069+05:30
Patiala,Punjab,30.3398,76.3869,28.5,58,0.0,981.3,6.1,24.1,462,344.6,69.8,4,5,7,1,2026-03-31T10:42:32.861077+05:30
Bhatinda,Punjab,30.211,74.9455,27.0,54,0.0,987.1,6.6,34.9,127,75.7,29.3,4,5,7,1,2026-03-31T10:42:32.861084+05:30
Rohtak,Haryana,28.8955,76.6066,27.8,53,0.0,985.4,5.55,28.1,183,66.8,25.8,4,5,3,1,2026-03-31T10:42:32.861091+05:30
Panipat,Haryana,29.3909,76.9635,28.6,46,0.0,983.7,5.9,24.1,351,56.5,23.9,4,5,3,0,2026-03-31T10:42:32.861098+05:30
Mathura,Uttar Pradesh,27.4924,77.6737,30.9,39,0.0,990.4,6.95,30.6,331,178.8,37.1,0,5,7,0,2026-03-31T10:42:32.861105+05:30
Vrindavan,Uttar Pradesh,27.5823,77.7027,30.5,40,0.0,990.8,6.9,35.6,331,178.8,37.1,0,5,7,0,2026-03-31T10:42:32.861112+05:30
Ayodhya,Uttar Pradesh,26.7922,82.1998,30.9,54,0.0,998.1,7.45,30.6,128,138.8,52.4,0,5,7,1,2026-03-31T10:42:32.861118+05:30
Ratlam,Madhya Pradesh,23.3315,75.0367,31.1,45,0.0,957.8,8.15,29.2,46,21.1,11.1,0,5,7,1,2026-03-31T10:42:32.861125+05:30
Sagar,Madhya Pradesh,23.8388,78.7378,33.2,29,0.0,954.0,8.2,23.8,51,110.8,22.4,0,5,7,0,2026-03-31T10:42:32.861131+05:30
Satna,Madhya Pradesh,24.6005,80.8322,33.4,31,0.0,975.0,8.2,23.8,125,303.6,60.1,0,5,7,0,2026-03-31T10:42:32.861139+05:30
Akola,Maharashtra,20.7002,77.0082,32.4,43,0.0,978.9,8.5,18.0,67,29.7,20.8,0,5,7,1,2026-03-31T10:42:32.861146+05:30
Amravati,Maharashtra,20.9374,77.7796,31.8,45,0.0,971.1,8.55,17.3,64,28.7,20.0,0,5,7,1,2026-03-31T10:42:32.861154+05:30
Latur,Maharashtra,18.4088,76.5604,29.1,52,0.0,943.1,8.85,29.2,82,47.3,37.8,4,5,7,1,2026-03-31T10:42:32.861160+05:30
Nanded,Maharashtra,19.1383,77.3091,30.4,53,0.0,972.4,8.75,26.3,75,43.3,31.9,0,5,7,1,2026-03-31T10:42:32.861167+05:30
Gulbarga,Karnataka,17.3297,76.8343,31.0,48,0.0,961.7,8.95,40.7,110,49.5,41.6,0,5,7,1,2026-03-31T10:42:32.861174+05:30
Bidar,Karnataka,17.9104,77.5199,29.4,51,0.0,938.9,8.95,40.3,107,43.8,37.4,4,5,7,1,2026-03-31T10:42:32.861180+05:30
Hospet,Karnataka,15.2689,76.3909,29.0,61,0.0,958.2,9.15,21.6,94,44.8,39.1,7,5,7,1,2026-03-31T10:42:32.861187+05:30
Tirupur,Tamil Nadu,11.1085,77.3411,30.7,62,0.0,977.6,9.5,28.1,75,14.0,12.6,3,5,7,1,2026-03-31T10:42:32.861193+05:30
Alappuzha,Kerala,9.4981,76.3388,28.6,80,0.0,1010.1,9.2,25.9,108,44.6,40.4,7,0,4,1,2026-03-31T10:42:32.861199+05:30
Munnar,Kerala,10.0889,77.0595,27.8,52,0.0,860.2,9.75,28.4,79,15.3,12.3,4,5,7,1,2026-03-31T10:42:32.861207+05:30
Silchar,Assam,24.8333,92.7789,23.9,89,0.0,1009.6,8.35,23.4,96,30.7,24.0,3,0,4,1,2026-03-31T10:42:32.861213+05:30
Dibrugarh,Assam,27.4728,94.912,25.1,74,0.0,999.3,8.15,13.7,95,35.3,24.3,7,5,7,1,2026-03-31T10:42:32.861220+05:30
