city,state,latitude,longitude,temp,humidity,rain,pressure,uv_index,wind_gusts,aqi,pm10,pm2_5,mosquito_risk,arthritis_risk,migraine_risk,frizz_risk,updated_at
Delhi,Delhi,28.6139,77.209,39.2,18,0.0,979.1,7.1,46.4,581,239.3,48.8,0,5,10,0,2026-04-28T12:07:54.235547+05:30
Mumbai,Maharashtra,19.076,72.8777,33.5,54,0.0,1007.4,8.05,40.0,91,72.4,41.9,0,5,4,1,2026-04-28T12:07:54.235594+05:30
Bangalore,Karnataka,12.9716,77.5946,34.3,27,0.0,912.7,9.2,38.9,90,40.3,31.5,0,5,7,0,2026-04-28T12:07:54.235610+05:30
Hyderabad,Telangana,17.385,78.4867,38.4,23,0.0,952.6,9.3,42.1,105,40.2,31.9,0,5,10,0,2026-04-28T12:07:54.235621+05:30
Chennai,Tamil Nadu,13.0827,80.2707,35.6,47,0.0,1006.2,8.4,54.7,52,18.1,14.0,0,5,7,1,2026-04-28T12:07:54.235631+05:30
Kolkata,West Bengal,22.5726,88.3639,36.5,48,0.0,1001.0,8.85,42.8,63,36.1,30.0,0,5,7,1,2026-04-28T12:07:54.235639+05:30
Pune,Maharashtra,18.5204,73.8567,38.3,16,0.0,948.2,8.6,40.7,73,34.6,19.5,0,5,10,0,2026-04-28T12:07:54.235651+05:30
Ahmedabad,Gujarat,23.0225,72.5714,38.9,19,0.0,999.8,8.2,47.5,42,38.1,13.5,0,5,10,0,2026-04-28T12:07:54.235658+05:30
Jaipur,Rajasthan,26.9124,75.7873,38.5,17,0.0,957.5,8.1,37.8,163,229.1,29.4,0,5,10,0,2026-04-28T12:07:54.235666+05:30
Lucknow,Uttar Pradesh,26.8467,80.9462,38.0,32,0.0,989.4,7.9,42.1,137,104.5,48.7,0,5,10,1,2026-04-28T12:07:54.235673+05:30
Kanpur,Uttar Pradesh,26.4499,80.3319,39.9,21,0.0,987.7,7.95,35.6,181,405.1,73.3,0,5,10,0,2026-04-28T12:07:54.235680+05:30
Chandigarh,Chandigarh,30.7333,76.7794,34.7,24,0.0,964.9,5.8,38.2,45,40.0,15.3,0,5,3,0,2026-04-28T12:07:54.235691+05:30
Srinagar,Jammu and Kashmir,34.0837,74.7973,20.1,50,0.0,840.6,5.1,33.5,79,30.2,19.6,0,5,3,0,2026-04-28T12:07:54.235699+05:30
Jammu,Jammu and Kashmir,32.7266,74.857,31.2,36,0.0,969.7,6.6,48.6,57,24.1,11.1,0,5,7,0,2026-04-28T12:07:54.235707+05:30
Amritsar,Punjab,31.634,74.8723,33.8,31,0.0,977.1,6.9,30.2,83,48.5,15.9,0,5,7,0,2026-04-28T12:07:54.235714+05:30
Ludhiana,Punjab,30.901,75.8573,34.9,26,0.0,974.7,6.75,41.0,73,28.0,19.5,0,5,7,0,2026-04-28T12:07:54.235721+05:30
Jalandhar,Punjab,31.326,75.5762,33.2,31,0.0,975.7,6.9,28.8,79,43.2,18.9,0,5,7,0,2026-04-28T12:07:54.235730+05:30
Dehradun,Uttarakhand,30.6284,78.0322,25.0,28,0.0,831.1,4.95,43.6,38,19.7,6.5,4,5,3,0,2026-04-28T12:07:54.235737+05:30
Shimla,Himachal Pradesh,31.1048,77.1734,20.3,41,0.0,785.3,3.75,38.2,45,28.3,9.3,0,5,3,0,2026-04-28T12:07:54.235743+05:30
Manali,Himachal Pradesh,32.2396,77.1887,21.5,33,0.0,817.8,9.65,47.9,61,15.0,7.4,0,5,7,0,2026-04-28T12:07:54.235765+05:30
Gurgaon,Haryana,28.4595,77.0266,38.2,20,0.0,977.8,7.5,43.6,1291,754.4,82.7,0,5,10,0,2026-04-28T12:07:54.235771+05:30
Noida,Uttar Pradesh,28.5355,77.391,39.0,19,0.0,980.5,7.5,42.8,1291,754.4,82.7,0,5,10,0,2026-04-28T12:07:54.235778+05:30
Ghaziabad,Uttar Pradesh,28.6692,77.4538,38.2,21,0.0,979.0,7.15,49.0,471,211.9,49.4,0,5,10,0,2026-04-28T12:07:54.235784+05:30
Faridabad,Haryana,28.4089,77.3178,39.0,18,0.0,979.7,7.55,50.4,1291,754.4,82.7,0,5,10,0,2026-04-28T12:07:54.235790+05:30
Meerut,Uttar Pradesh,28.9845,77.7064,35.2,29,0.0,978.0,6.85,45.4,471,211.9,49.4,0,5,10,0,2026-04-28T12:07:54.235795+05:30
Agra,Uttar Pradesh,27.1767,78.0081,39.3,20,0.0,984.4,7.8,38.9,600,691.0,79.2,0,5,10,0,2026-04-28T12:07:54.235801+05:30
Varanasi,Uttar Pradesh,25.3176,82.9739,38.3,34,0.0,992.7,8.5,54.7,121,71.0,37.0,0,5,10,1,2026-04-28T12:07:54.235810+05:30
Prayagraj,Uttar Pradesh,25.4358,81.8463,39.3,29,0.0,991.5,8.4,40.3,125,92.4,38.6,0,5,10,1,2026-04-28T12:07:54.235817+05:30
Gorakhpur,Uttar Pradesh,26.7606,83.3732,34.0,43,0.0,993.6,8.3,35.6,123,60.1,33.8,0,5,7,1,2026-04-28T12:07:54.235823+05:30
Bareilly,Uttar Pradesh,28.367,79.4304,36.7,31,0.0,983.0,7.75,46.8,100,144.4,50.4,0,5,10,1,2026-04-28T12:07:54.235829+05:30
Aligarh,Uttar Pradesh,27.8974,78.088,38.8,21,0.0,982.0,7.65,66.6,721,691.0,96.6,0,5,10,0,2026-04-28T12:07:54.235836+05:30
Moradabad,Uttar Pradesh,28.8386,78.7733,36.3,31,0.0,980.0,7.4,45.7,129,66.1,40.5,0,5,10,1,2026-04-28T12:07:54.235844+05:30
Saharanpur,Uttar Pradesh,29.9637,77.546,35.7,29,0.0,972.0,6.65,45.4,72,41.1,22.2,0,5,10,0,2026-04-28T12:07:54.235850+05:30
Jhansi,Uttar Pradesh,25.4484,78.5685,40.2,17,0.0,975.0,8.3,33.8,55,15.5,8.0,0,5,10,0,2026-04-28T12:07:57.481078+05:30
Surat,Gujarat,21.1702,72.8311,37.5,35,0.0,1004.8,7.9,44.6,88,63.1,39.1,0,5,7,1,2026-04-28T12:07:57.481114+05:30
Vadodara,Gujarat,22.3072,73.1812,40.5,15,0.0,1002.0,8.15,43.2,67,42.0,16.2,0,5,7,0,2026-04-28T12:07:57.481124+05:30
Rajkot,Gujarat,22.3039,70.8022,40.2,18,0.0,992.1,7.9,51.5,42,41.1,12.8,0,5,10,0,2026-04-28T12:07:57.481133+05:30
Thane,Maharashtra,19.2183,72.9781,37.2,36,0.0,1006.3,8.05,37.4,91,72.4,41.9,0,5,7,1,2026-04-28T12:07:57.481141+05:30
Nagpur,Maharashtra,21.1458,79.0882,42.5,11,0.0,971.1,8.85,52.2,87,27.3,21.2,0,5,10,0,2026-04-28T12:07:57.481148+05:30
Nashik,Maharashtra,19.9975,73.7898,37.7,16,0.0,945.7,8.3,43.6,72,31.4,13.0,0,5,10,0,2026-04-28T12:07:57.481155+05:30
Aurangabad,Maharashtra,19.8762,75.3433,39.0,15,0.0,944.2,9.0,43.9,69,24.5,14.2,0,5,10,0,2026-04-28T12:07:57.481161+05:30
Solapur,Maharashtra,17.6599,75.9064,40.8,15,0.0,955.9,9.1,36.4,80,30.2,20.6,0,5,10,0,2026-04-28T12:07:57.481168+05:30
Kolhapur,Maharashtra,16.705,74.2433,37.5,23,0.0,947.9,5.95,51.5,72,48.9,27.1,0,5,6,0,2026-04-28T12:07:57.481175+05:30
Goa,Goa,15.2993,74.124,36.8,47,0.0,996.4,9.0,45.0,61,49.0,18.7,0,5,10,1,2026-04-28T12:07:57.481182+05:30
Jodhpur,Rajasthan,26.2389,73.0243,37.2,24,0.0,979.5,8.3,47.9,123,192.3,26.1,0,5,10,0,2026-04-28T12:07:57.481189+05:30
Udaipur,Rajasthan,24.5854,73.7125,36.6,15,0.0,945.4,8.75,48.2,34,46.8,10.0,0,5,10,0,2026-04-28T12:07:57.481196+05:30
Kota,Rajasthan,25.2138,75.8648,40.5,14,0.0,976.1,8.3,34.9,51,14.4,7.4,0,5,10,0,2026-04-28T12:07:57.481203+05:30
Bikaner,Rajasthan,28.0229,73.3119,39.2,19,0.0,977.7,8.15,56.9,79,117.6,35.6,0,5,10,0,2026-04-28T12:07:57.481209+05:30
Ajmer,Rajasthan,26.4499,74.6399,37.5,18,0.0,952.7,8.25,44.3,59,27.8,9.4,0,5,10,0,2026-04-28T12:07:57.481215+05:30
Gwalior,Madhya Pradesh,26.2183,78.1828,39.8,18,0.0,980.0,8.05,40.7,64,24.4,9.7,0,5,10,0,2026-04-28T12:07:57.481222+05:30
Indore,Madhya Pradesh,22.7196,75.8577,39.6,12,0.0,947.5,8.6,55.4,52,21.6,13.1,0,5,10,0,2026-04-28T12:07:57.481229+05:30
Bhopal,Madhya Pradesh,23.2599,77.4126,40.5,10,0.0,952.3,8.6,48.6,48,17.1,12.5,0,5,10,0,2026-04-28T12:07:57.481236+05:30
Jabalpur,Madhya Pradesh,23.1815,79.9864,41.2,13,0.0,958.9,8.75,41.0,58,20.8,10.2,0,5,10,0,2026-04-28T12:07:57.481242+05:30
Ujjain,Madhya Pradesh,23.1765,75.7885,39.2,12,0.0,952.9,8.55,55.4,52,19.2,9.4,0,5,10,0,2026-04-28T12:07:57.481249+05:30
Visakhapatnam,Andhra Pradesh,17.6868,83.2185,34.1,56,0.0,1001.9,9.15,56.5,72,32.4,20.9,0,5,4,1,2026-04-28T12:07:57.481255+05:30
Vijayawada,Andhra Pradesh,16.5062,80.648,37.5,39,0.0,1001.5,9.15,39.6,67,23.9,15.5,0,5,7,1,2026-04-28T12:07:57.481261+05:30
Guntur,Andhra Pradesh,16.3067,80.4365,37.3,41,0.0,1002.7,9.25,41.8,68,24.3,17.3,0,5,7,1,2026-04-28T12:07:57.481268+05:30
Nellore,Andhra Pradesh,14.4426,79.9865,39.2,32,0.0,1004.0,9.25,49.3,60,23.9,19.4,0,5,7,1,2026-04-28T12:07:57.481275+05:30
Kurnool,Andhra Pradesh,15.8281,78.0373,39.8,27,0.0,975.6,9.2,42.8,97,37.8,31.0,0,5,10,1,2026-04-28T12:07:57.481281+05:30
Kakinada,Andhra Pradesh,16.9891,82.2475,37.2,42,0.0,1005.8,9.2,45.4,64,28.3,16.7,0,5,7,1,2026-04-28T12:07:57.481287+05:30
Tirupati,Andhra Pradesh,13.6288,79.4192,38.5,30,0.0,989.7,8.6,40.0,67,23.1,18.3,0,5,10,1,2026-04-28T12:07:57.481293+05:30
Warangal,Telangana,17.9689,79.5941,38.5,35,0.0,977.4,9.15,43.6,87,32.1,26.4,0,5,10,1,2026-04-28T12:07:57.481299+05:30
Nizamabad,Telangana,18.6725,78.0941,40.4,14,0.0,963.7,9.1,42.5,103,28.8,21.2,0,5,10,0,2026-04-28T12:07:57.481305+05:30
Mysore,Karnataka,12.2958,76.6396,33.2,40,0.0,928.9,8.7,35.3,96,37.5,29.3,0,5,7,1,2026-04-28T12:07:57.481311+05:30
Mangalore,Karnataka,12.9141,74.856,33.3,55,0.0,1005.9,8.55,41.0,75,32.5,23.9,0,5,4,1,2026-04-28T12:07:57.481317+05:30
Hubli-Dharwad,Karnataka,15.3647,75.124,34.8,43,0.0,941.1,9.2,31.3,75,32.8,24.7,0,5,7,1,2026-04-28T12:07:57.481323+05:30
Belgaum,Karnataka,15.8497,74.4977,34.7,33,0.0,926.5,9.25,42.1,73,42.5,24.8,0,5,7,1,2026-04-28T12:08:01.118627+05:30
Coimbatore,Tamil Nadu,11.0168,76.9558,34.7,34,0.0,961.5,8.15,51.5,75,27.8,20.5,0,5,7,1,2026-04-28T12:08:01.118662+05:30
Madurai,Tamil Nadu,9.9252,78.1198,38.6,26,0.0,991.6,9.2,50.8,57,21.2,17.8,0,5,10,0,2026-04-28T12:08:01.118673+05:30
Trichy,Tamil Nadu,10.7905,78.7047,36.8,34,0.0,998.5,8.3,44.3,51,15.0,13.4,0,5,10,1,2026-04-28T12:08:01.118682+05:30
Salem,Tamil Nadu,11.6643,78.146,37.0,33,0.0,976.6,8.35,34.9,60,26.0,21.1,0,5,10,1,2026-04-28T12:08:01.118689+05:30
Tirunelveli,Tamil Nadu,8.7139,77.7567,38.6,29,0.0,1001.5,9.15,45.4,64,18.8,15.7,0,5,7,1,2026-04-28T12:08:01.118696+05:30
Vellore,Tamil Nadu,12.9165,79.1325,38.0,30,0.0,983.4,8.2,38.5,74,18.9,13.2,0,5,10,1,2026-04-28T12:08:01.118703+05:30
Erode,Tamil Nadu,11.341,77.7172,37.4,34,0.0,987.8,8.25,53.3,65,29.9,24.4,0,5,10,1,2026-04-28T12:08:01.118711+05:30
Kochi,Kerala,9.9312,76.2673,32.2,64,0.0,1007.7,7.8,38.9,73,10.3,9.2,3,5,4,1,2026-04-28T12:08:01.118718+05:30
Thiruvananthapuram,Kerala,8.5241,76.9366,31.4,67,0.0,1007.1,7.8,36.0,63,22.4,18.9,3,5,4,1,2026-04-28T12:08:01.118726+05:30
Kozhikode,Kerala,11.2588,75.7804,30.1,77,0.1,1007.2,6.65,37.4,65,18.2,13.6,6,5,4,1,2026-04-28T12:08:01.118733+05:30
Thrissur,Kerala,10.5276,76.2144,32.8,61,0.1,1006.1,6.8,38.2,71,14.7,12.7,6,5,4,1,2026-04-28T12:08:01.118740+05:30
Kannur,Kerala,11.8745,75.3704,32.6,63,0.0,1006.4,7.25,44.3,76,26.4,20.0,3,5,4,1,2026-04-28T12:08:01.118747+05:30
Patna,Bihar,25.5941,85.1376,33.0,53,0.0,996.8,8.6,34.2,100,61.9,40.3,0,5,7,1,2026-04-28T12:08:01.118771+05:30
Gaya,Bihar,24.7914,85.0002,37.0,41,0.0,989.6,8.7,34.2,107,60.1,39.9,0,5,10,1,2026-04-28T12:08:01.118777+05:30
Muzaffarpur,Bihar,26.1209,85.3647,32.0,54,0.0,997.1,8.4,33.5,97,54.9,35.0,0,5,7,1,2026-04-28T12:08:01.118783+05:30
Bhagalpur,Bihar,25.2425,87.0117,30.6,61,0.0,998.6,8.6,32.0,86,65.2,40.3,3,5,7,1,2026-04-28T12:08:01.118790+05:30
Ranchi,Jharkhand,23.3441,85.3096,37.1,20,0.0,935.4,8.9,50.4,94,43.2,19.0,0,5,10,0,2026-04-28T12:08:01.118796+05:30
Jamshedpur,Jharkhand,22.8046,86.2029,39.0,23,0.0,986.5,8.6,50.8,108,71.5,51.6,0,5,10,0,2026-04-28T12:08:01.118802+05:30
Dhanbad,Jharkhand,23.7957,86.4304,36.5,35,0.0,976.3,8.75,38.2,131,81.5,68.0,0,5,10,1,2026-04-28T12:08:01.118808+05:30
Bokaro,Jharkhand,23.6693,86.1511,39.2,26,0.0,979.5,8.85,50.8,125,78.0,65.2,0,5,10,1,2026-04-28T12:08:01.118814+05:30
Bhubaneswar,Odisha,20.2961,85.8245,36.5,50,0.0,999.1,9.1,42.5,64,29.6,24.4,0,5,10,1,2026-04-28T12:08:01.118820+05:30
Cuttack,Odisha,20.4625,85.8828,37.7,45,0.0,1000.4,9.15,43.9,64,29.6,24.4,0,5,7,1,2026-04-28T12:08:01.118826+05:30
Rourkela,Odisha,22.2604,84.8536,40.5,18,0.0,981.5,8.4,54.7,90,50.8,34.6,0,5,10,0,2026-04-28T12:08:01.118832+05:30
Raipur,Chhattisgarh,21.2514,81.6296,40.7,23,0.0,972.1,8.9,43.6,89,33.6,29.1,0,5,10,0,2026-04-28T12:08:01.118837+05:30
Bhilai,Chhattisgarh,21.1938,81.3509,40.0,25,0.0,972.5,8.95,49.3,91,28.6,24.3,0,5,10,1,2026-04-28T12:08:01.118843+05:30
Guwahati,Assam,26.1158,91.7086,29.3,61,0.0,998.6,8.1,32.4,82,17.1,10.4,7,5,7,1,2026-04-28T12:08:01.118848+05:30
Agartala,Tripura,23.8315,91.2868,26.8,84,0.0,1004.0,4.35,52.9,65,32.7,23.3,7,5,0,1,2026-04-28T12:08:01.118855+05:30
Shillong,Meghalaya,25.5788,91.8933,17.6,94,0.3,854.9,8.85,28.4,42,6.8,3.3,6,10,7,1,2026-04-28T12:08:01.118861+05:30
Imphal,Manipur,24.817,93.9368,21.8,77,0.0,922.3,3.85,27.0,103,27.0,26.7,3,5,3,1,2026-04-28T12:08:01.118867+05:30
Aizawl,Mizoram,23.7271,92.7176,21.7,74,0.1,891.2,5.85,52.9,84,31.1,19.3,6,5,3,1,2026-04-28T12:08:01.118872+05:30
Kohima,Nagaland,25.6701,94.1077,23.1,64,0.0,854.7,8.45,29.9,70,5.4,4.4,3,5,7,0,2026-04-28T12:08:01.118878+05:30
Gangtok,Sikkim,27.3314,88.6138,20.9,60,0.0,836.6,8.7,40.7,89,39.5,27.8,0,5,7,0,2026-04-28T12:08:01.118884+05:30
Siliguri,West Bengal,26.7271,88.3953,29.0,58,0.0,990.9,8.0,29.9,90,37.4,20.2,4,5,7,1,2026-04-28T12:08:04.354937+05:30
Durgapur,West Bengal,23.5204,87.3119,33.7,61,0.0,990.7,8.85,31.3,135,80.3,65.0,3,5,7,1,2026-04-28T12:08:04.354971+05:30
Asansol,West Bengal,23.6739,86.9524,35.5,53,0.0,989.4,8.9,30.2,121,77.3,63.8,0,5,10,1,2026-04-28T12:08:04.354983+05:30
Pondicherry,Puducherry,11.9139,79.8145,33.2,61,0.0,1007.8,8.85,47.9,45,16.5,14.7,3,5,4,1,2026-04-28T12:08:04.354991+05:30
Port Blair,Andaman and Nicobar Islands,11.6234,92.7265,34.2,49,0.1,1006.8,9.1,27.4,51,16.2,12.3,3,5,4,1,2026-04-28T12:08:04.355000+05:30
Haridwar,Uttarakhand,29.9457,78.1642,33.2,40,0.0,970.6,7.1,40.3,56,25.9,16.8,0,5,7,1,2026-04-28T12:08:04.355008+05:30
Rishikesh,Uttarakhand,30.0869,78.2676,32.8,41,0.0,963.3,7.05,32.4,52,30.3,12.7,0,5,7,1,2026-04-28T12:08:04.355015+05:30
Nainital,Uttarakhand,29.3919,79.4542,22.1,54,0.0,806.9,7.55,48.2,82,44.7,24.3,0,5,7,0,2026-04-28T12:08:04.355022+05:30
Mussoorie,Uttarakhand,30.4599,78.0664,22.0,37,0.0,803.8,4.15,42.8,49,31.0,11.0,0,5,3,0,2026-04-28T12:08:04.355029+05:30
Dharamshala,Himachal Pradesh,32.219,76.3234,26.2,35,0.0,868.6,7.45,43.9,47,17.8,10.3,4,5,7,0,2026-04-28T12:08:04.355036+05:30
Dalhousie,Himachal Pradesh,32.5387,75.971,19.6,60,0.0,804.6,6.9,38.5,46,22.1,11.6,0,5,7,0,2026-04-28T12:08:04.355044+05:30
Patiala,Punjab,30.3398,76.3869,38.3,18,0.0,974.0,7.2,51.5,388,236.6,36.9,0,5,10,0,2026-04-28T12:08:04.355051+05:30
Bhatinda,Punjab,30.211,74.9455,37.8,21,0.0,979.6,7.6,60.5,94,82.0,23.1,0,5,10,0,2026-04-28T12:08:04.355057+05:30
Rohtak,Haryana,28.8955,76.6066,38.0,21,0.0,977.8,7.0,58.0,671,262.6,42.3,0,5,10,0,2026-04-28T12:08:04.355064+05:30
Panipat,Haryana,29.3909,76.9635,38.2,19,0.0,976.5,6.4,49.3,1165,468.5,59.3,0,5,10,0,2026-04-28T12:08:04.355071+05:30
Mathura,Uttar Pradesh,27.4924,77.6737,38.8,21,0.0,983.5,7.75,42.5,587,735.7,79.4,0,5,10,0,2026-04-28T12:08:04.355078+05:30
Vrindavan,Uttar Pradesh,27.5823,77.7027,38.8,21,0.0,983.8,7.75,43.9,587,735.7,79.4,0,5,10,0,2026-04-28T12:08:04.355084+05:30
Ayodhya,Uttar Pradesh,26.7922,82.1998,35.5,39,0.0,991.4,8.1,51.5,124,65.0,37.4,0,5,10,1,2026-04-28T12:08:04.355090+05:30
Ratlam,Madhya Pradesh,23.3315,75.0367,37.9,15,0.0,954.0,8.45,49.7,52,19.0,7.9,0,5,10,0,2026-04-28T12:08:04.355096+05:30
Sagar,Madhya Pradesh,23.8388,78.7378,39.9,15,0.0,948.3,8.6,45.7,46,20.3,8.0,0,5,10,0,2026-04-28T12:08:04.355102+05:30
Satna,Madhya Pradesh,24.6005,80.8322,41.0,15,0.0,967.8,8.65,44.6,52,47.6,14.1,0,5,10,0,2026-04-28T12:08:04.355109+05:30
Akola,Maharashtra,20.7002,77.0082,40.9,16,0.0,973.6,8.4,41.4,65,26.7,17.3,0,5,10,0,2026-04-28T12:08:04.355115+05:30
Amravati,Maharashtra,20.9374,77.7796,41.3,13,0.0,966.0,8.85,46.1,63,27.4,17.8,0,5,10,0,2026-04-28T12:08:04.355122+05:30
Latur,Maharashtra,18.4088,76.5604,39.5,15,0.0,939.9,9.1,35.6,80,31.8,20.5,0,5,10,0,2026-04-28T12:08:04.355128+05:30
Nanded,Maharashtra,19.1383,77.3091,40.7,14,0.0,967.6,8.95,35.6,75,35.0,24.0,0,5,10,0,2026-04-28T12:08:04.355134+05:30
Gulbarga,Karnataka,17.3297,76.8343,40.4,17,0.0,957.6,9.0,33.5,91,37.1,28.6,0,5,10,0,2026-04-28T12:08:04.355140+05:30
Bidar,Karnataka,17.9104,77.5199,38.6,15,0.0,935.7,7.65,37.4,98,35.7,27.9,0,5,10,0,2026-04-28T12:08:04.355146+05:30
Hospet,Karnataka,15.2689,76.3909,35.4,41,0.0,955.7,9.25,36.7,91,36.4,27.7,0,5,10,1,2026-04-28T12:08:04.355151+05:30
Tirupur,Tamil Nadu,11.1085,77.3411,36.7,34,0.0,974.4,8.1,40.3,79,30.6,25.1,0,5,10,1,2026-04-28T12:08:04.355157+05:30
Alappuzha,Kerala,9.4981,76.3388,31.1,72,0.0,1007.8,7.65,36.4,74,15.3,13.7,3,5,4,1,2026-04-28T12:08:04.355163+05:30
Munnar,Kerala,10.0889,77.0595,24.2,62,0.0,858.7,8.8,26.6,81,24.0,19.7,3,5,7,1,2026-04-28T12:08:04.355170+05:30
Silchar,Assam,24.8333,92.7789,23.6,93,0.4,1004.2,1.2,31.3,96,14.6,14.6,6,5,0,1,2026-04-28T12:08:04.355177+05:30
Dibrugarh,Assam,27.4728,94.912,28.1,64,0.0,993.4,7.3,17.3,114,58.9,35.4,7,5,7,1,2026-04-28T12:08:04.355183+05:30
