city,state,latitude,longitude,temp,humidity,rain,pressure,uv_index,wind_gusts,aqi,pm10,pm2_5,mosquito_risk,arthritis_risk,migraine_risk,frizz_risk,updated_at
Delhi,Delhi,28.6139,77.209,21.6,70,0.0,986.6,5.85,32.8,296,470.3,99.2,3,5,3,0,2026-03-05T00:26:25.894225+05:30
Mumbai,Maharashtra,19.076,72.8777,29.0,58,0.0,1010.0,7.35,24.5,183,34.7,33.6,4,0,4,1,2026-03-05T00:26:25.894274+05:30
Bangalore,Karnataka,12.9716,77.5946,22.0,53,0.0,913.7,9.1,35.3,91,25.7,24.9,0,5,7,0,2026-03-05T00:26:25.894290+05:30
Hyderabad,Telangana,17.385,78.4867,23.7,59,0.0,955.6,8.4,25.6,95,44.7,42.1,0,5,7,0,2026-03-05T00:26:25.894300+05:30
Chennai,Tamil Nadu,13.0827,80.2707,24.7,90,0.0,1010.5,8.8,29.5,91,21.8,19.2,3,0,4,1,2026-03-05T00:26:25.894309+05:30
Kolkata,West Bengal,22.5726,88.3639,22.5,56,0.0,1008.2,7.75,18.7,168,132.2,102.7,0,0,4,0,2026-03-05T00:26:25.894318+05:30
Pune,Maharashtra,18.5204,73.8567,22.7,58,0.0,950.4,7.95,30.2,90,28.6,27.8,0,5,7,0,2026-03-05T00:26:25.894330+05:30
Ahmedabad,Gujarat,23.0225,72.5714,24.7,43,0.0,1006.2,7.2,19.8,75,29.0,26.7,0,5,4,0,2026-03-05T00:26:25.894339+05:30
Jaipur,Rajasthan,26.9124,75.7873,25.1,28,0.0,963.9,6.6,32.0,94,97.1,41.2,4,5,7,0,2026-03-05T00:26:25.894348+05:30
Lucknow,Uttar Pradesh,26.8467,80.9462,22.0,72,0.0,996.9,6.35,24.8,160,202.1,93.1,3,5,7,1,2026-03-05T00:26:25.894356+05:30
Kanpur,Uttar Pradesh,26.4499,80.3319,21.2,72,0.0,995.2,6.35,27.0,175,292.4,90.6,3,5,7,0,2026-03-05T00:26:25.894363+05:30
Chandigarh,Chandigarh,30.7333,76.7794,19.8,75,0.0,971.8,5.75,34.9,90,38.3,34.9,3,5,3,0,2026-03-05T00:26:25.894371+05:30
Srinagar,Jammu and Kashmir,34.0837,74.7973,8.4,82,0.0,843.4,6.15,14.8,151,130.9,102.4,3,10,7,0,2026-03-05T00:26:25.894379+05:30
Jammu,Jammu and Kashmir,32.7266,74.857,19.2,73,0.0,976.2,6.35,22.3,107,65.4,54.4,3,5,7,0,2026-03-05T00:26:25.894386+05:30
Amritsar,Punjab,31.634,74.8723,19.5,75,0.0,984.4,6.3,22.0,152,79.6,62.2,3,5,7,0,2026-03-05T00:26:25.894393+05:30
Ludhiana,Punjab,30.901,75.8573,21.6,76,0.0,982.5,5.95,28.8,155,107.6,85.9,3,5,3,1,2026-03-05T00:26:25.894399+05:30
Jalandhar,Punjab,31.326,75.5762,20.4,75,0.0,983.7,6.15,27.0,156,111.3,92.0,3,5,7,0,2026-03-05T00:26:25.894408+05:30
Dehradun,Uttarakhand,30.6284,78.0322,13.9,44,0.0,830.9,6.1,29.2,58,30.4,22.8,0,5,7,0,2026-03-05T00:26:25.894415+05:30
Shimla,Himachal Pradesh,31.1048,77.1734,14.4,43,0.0,787.0,6.15,50.4,73,36.1,25.6,0,5,7,0,2026-03-05T00:26:25.894422+05:30
Manali,Himachal Pradesh,32.2396,77.1887,17.8,27,0.0,824.1,7.75,32.8,58,31.0,17.6,0,5,7,1,2026-03-05T00:26:25.894428+05:30
Gurgaon,Haryana,28.4595,77.0266,19.0,77,0.0,985.0,5.95,31.0,1195,1214.4,168.6,3,5,3,0,2026-03-05T00:26:25.894435+05:30
Noida,Uttar Pradesh,28.5355,77.391,21.9,68,0.0,988.0,5.85,32.0,1195,1214.4,168.6,3,5,3,0,2026-03-05T00:26:25.894442+05:30
Ghaziabad,Uttar Pradesh,28.6692,77.4538,21.6,73,0.0,986.1,5.8,29.5,194,425.6,97.3,3,5,3,1,2026-03-05T00:26:25.894449+05:30
Faridabad,Haryana,28.4089,77.3178,22.0,60,0.0,987.3,5.9,29.9,1195,1214.4,168.6,0,5,3,0,2026-03-05T00:26:25.894456+05:30
Meerut,Uttar Pradesh,28.9845,77.7064,19.5,85,0.0,984.7,5.7,32.0,194,425.6,97.3,3,10,3,1,2026-03-05T00:26:25.894463+05:30
Agra,Uttar Pradesh,27.1767,78.0081,19.8,67,0.0,991.2,6.2,32.8,427,521.5,89.9,3,5,7,0,2026-03-05T00:26:25.894470+05:30
Varanasi,Uttar Pradesh,25.3176,82.9739,21.0,76,0.0,1000.8,7.0,18.4,153,157.9,91.5,3,5,4,1,2026-03-05T00:26:25.894479+05:30
Prayagraj,Uttar Pradesh,25.4358,81.8463,21.7,71,0.0,999.5,6.85,23.4,154,124.8,75.2,3,5,7,1,2026-03-05T00:26:25.894486+05:30
Gorakhpur,Uttar Pradesh,26.7606,83.3732,21.3,71,0.0,1000.3,6.7,12.2,167,168.6,133.6,3,5,4,0,2026-03-05T00:26:25.894492+05:30
Bareilly,Uttar Pradesh,28.367,79.4304,19.8,79,0.0,990.2,6.05,20.5,163,102.7,87.1,3,5,7,1,2026-03-05T00:26:25.894505+05:30
Aligarh,Uttar Pradesh,27.8974,78.088,19.4,73,0.0,989.0,5.95,28.8,615,787.9,143.4,3,5,3,0,2026-03-05T00:26:25.894512+05:30
Moradabad,Uttar Pradesh,28.8386,78.7733,19.6,82,0.0,986.9,5.85,23.4,159,320.4,113.2,3,10,3,1,2026-03-05T00:26:25.894519+05:30
Saharanpur,Uttar Pradesh,29.9637,77.546,19.2,80,0.0,978.8,5.5,39.2,152,144.8,77.8,3,5,3,0,2026-03-05T00:26:25.894528+05:30
Jhansi,Uttar Pradesh,25.4484,78.5685,21.7,52,0.0,981.4,6.8,31.7,62,30.0,24.9,0,5,7,0,2026-03-05T00:26:29.148728+05:30
Surat,Gujarat,21.1702,72.8311,25.9,51,0.0,1009.3,7.05,27.7,136,45.3,42.5,4,0,4,0,2026-03-05T00:26:29.148759+05:30
Vadodara,Gujarat,22.3072,73.1812,25.2,47,0.0,1007.9,7.2,18.7,138,39.9,36.9,4,5,4,0,2026-03-05T00:26:29.148769+05:30
Rajkot,Gujarat,22.3039,70.8022,24.0,47,0.0,999.0,7.0,25.9,85,20.1,19.3,0,5,7,0,2026-03-05T00:26:29.148778+05:30
Thane,Maharashtra,19.2183,72.9781,27.3,48,0.0,1009.6,7.35,35.3,183,34.7,33.6,4,0,4,0,2026-03-05T00:26:29.148785+05:30
Nagpur,Maharashtra,21.1458,79.0882,24.3,53,0.0,976.1,7.75,23.0,67,28.8,25.3,0,5,7,0,2026-03-05T00:26:29.148793+05:30
Nashik,Maharashtra,19.9975,73.7898,23.2,55,0.0,948.1,7.55,23.4,84,27.5,26.5,0,5,7,0,2026-03-05T00:26:29.148800+05:30
Aurangabad,Maharashtra,19.8762,75.3433,23.1,52,0.0,946.3,8.05,22.7,101,39.6,39.0,0,5,7,0,2026-03-05T00:26:29.148807+05:30
Solapur,Maharashtra,17.6599,75.9064,24.3,61,0.0,958.8,8.3,18.0,101,24.0,22.9,3,5,7,1,2026-03-05T00:26:29.148815+05:30
Kolhapur,Maharashtra,16.705,74.2433,20.5,86,0.0,949.9,8.45,37.8,154,76.6,76.1,3,5,7,1,2026-03-05T00:26:29.148823+05:30
Goa,Goa,15.2993,74.124,27.1,88,0.0,1000.5,8.5,35.6,118,61.9,58.2,7,5,4,1,2026-03-05T00:26:29.148830+05:30
Jodhpur,Rajasthan,26.2389,73.0243,24.5,44,0.0,987.5,6.9,18.0,83,73.1,33.9,0,5,7,0,2026-03-05T00:26:29.148838+05:30
Udaipur,Rajasthan,24.5854,73.7125,19.7,52,0.0,950.7,7.5,23.8,59,32.9,22.0,0,5,7,0,2026-03-05T00:26:29.148846+05:30
Kota,Rajasthan,25.2138,75.8648,19.4,69,0.0,982.5,6.9,17.6,82,57.0,41.6,3,5,7,0,2026-03-05T00:26:29.148853+05:30
Bikaner,Rajasthan,28.0229,73.3119,24.4,41,0.0,986.2,6.55,23.8,67,57.7,21.0,0,5,7,0,2026-03-05T00:26:29.148860+05:30
Ajmer,Rajasthan,26.4499,74.6399,23.5,37,0.0,958.7,6.85,23.4,71,70.1,27.3,0,5,7,0,2026-03-05T00:26:29.148867+05:30
Gwalior,Madhya Pradesh,26.2183,78.1828,23.0,51,0.0,986.7,6.5,29.2,80,55.4,32.9,0,5,7,0,2026-03-05T00:26:29.148874+05:30
Indore,Madhya Pradesh,22.7196,75.8577,21.7,50,0.0,951.2,7.45,20.5,80,41.0,33.8,0,5,7,0,2026-03-05T00:26:29.148882+05:30
Bhopal,Madhya Pradesh,23.2599,77.4126,21.7,41,0.0,957.0,7.3,23.0,68,31.2,27.6,0,5,7,0,2026-03-05T00:26:29.148889+05:30
Jabalpur,Madhya Pradesh,23.1815,79.9864,23.1,44,0.0,964.7,7.45,23.4,67,29.4,21.2,0,5,7,0,2026-03-05T00:26:29.148896+05:30
Ujjain,Madhya Pradesh,23.1765,75.7885,21.2,50,0.0,957.1,7.35,19.4,108,67.5,59.8,0,5,7,0,2026-03-05T00:26:29.148904+05:30
Visakhapatnam,Andhra Pradesh,17.6868,83.2185,24.4,82,0.0,1005.6,8.4,36.7,128,33.3,30.6,3,5,4,1,2026-03-05T00:26:29.148911+05:30
Vijayawada,Andhra Pradesh,16.5062,80.648,24.6,76,0.0,1005.1,8.45,22.3,121,27.2,26.1,3,5,4,1,2026-03-05T00:26:29.148918+05:30
Guntur,Andhra Pradesh,16.3067,80.4365,23.8,90,0.0,1006.6,8.45,25.2,110,27.2,26.3,3,5,4,1,2026-03-05T00:26:29.148925+05:30
Nellore,Andhra Pradesh,14.4426,79.9865,24.3,87,0.0,1008.9,8.65,29.9,96,14.4,13.1,3,0,4,1,2026-03-05T00:26:29.148932+05:30
Kurnool,Andhra Pradesh,15.8281,78.0373,28.0,44,0.0,979.0,8.45,27.0,89,18.2,17.4,4,5,7,0,2026-03-05T00:26:29.148940+05:30
Kakinada,Andhra Pradesh,16.9891,82.2475,22.3,93,0.0,1010.0,8.4,33.8,97,30.7,26.8,3,0,4,1,2026-03-05T00:26:29.148947+05:30
Tirupati,Andhra Pradesh,13.6288,79.4192,24.0,58,0.0,995.0,8.8,34.6,133,50.2,49.2,0,5,7,0,2026-03-05T00:26:29.148954+05:30
Warangal,Telangana,17.9689,79.5941,25.1,53,0.0,980.6,8.2,20.5,114,35.2,33.3,4,5,7,0,2026-03-05T00:26:29.148962+05:30
Nizamabad,Telangana,18.6725,78.0941,21.7,65,0.0,966.8,8.1,26.3,83,28.5,26.3,3,5,7,0,2026-03-05T00:26:29.148968+05:30
Mysore,Karnataka,12.2958,76.6396,21.6,88,0.0,930.5,9.15,40.3,90,27.2,26.4,3,5,7,1,2026-03-05T00:26:29.148976+05:30
Mangalore,Karnataka,12.9141,74.856,28.6,80,0.0,1009.4,8.75,29.2,94,44.0,39.1,7,0,4,1,2026-03-05T00:26:29.148983+05:30
Hubli-Dharwad,Karnataka,15.3647,75.124,23.2,84,0.0,942.9,8.65,25.6,126,25.7,25.2,3,5,7,1,2026-03-05T00:26:29.148991+05:30
Belgaum,Karnataka,15.8497,74.4977,22.0,90,0.0,927.7,8.7,32.4,114,58.4,57.3,3,5,7,1,2026-03-05T00:26:32.403650+05:30
Coimbatore,Tamil Nadu,11.0168,76.9558,21.7,86,0.0,964.6,9.15,43.2,94,51.5,50.2,3,5,7,1,2026-03-05T00:26:32.403688+05:30
Madurai,Tamil Nadu,9.9252,78.1198,25.3,82,0.0,996.4,9.1,25.9,87,25.0,24.2,7,5,7,1,2026-03-05T00:26:32.403701+05:30
Trichy,Tamil Nadu,10.7905,78.7047,23.7,90,0.0,1003.1,9.0,31.0,91,21.4,20.1,3,5,4,1,2026-03-05T00:26:32.403711+05:30
Salem,Tamil Nadu,11.6643,78.146,24.4,63,0.0,979.9,9.0,37.8,100,33.4,32.7,3,5,7,1,2026-03-05T00:26:32.403721+05:30
Tirunelveli,Tamil Nadu,8.7139,77.7567,24.9,85,0.0,1006.6,9.15,36.0,78,24.9,23.7,3,5,4,1,2026-03-05T00:26:32.403730+05:30
Vellore,Tamil Nadu,12.9165,79.1325,23.1,68,0.0,988.0,8.85,38.9,121,46.3,45.4,3,5,7,1,2026-03-05T00:26:32.403739+05:30
Erode,Tamil Nadu,11.341,77.7172,25.0,63,0.0,991.9,9.05,29.9,93,28.3,27.8,7,5,7,1,2026-03-05T00:26:32.403746+05:30
Kochi,Kerala,9.9312,76.2673,27.4,81,0.0,1011.6,8.95,34.6,99,47.3,46.6,7,0,4,1,2026-03-05T00:26:32.403754+05:30
Thiruvananthapuram,Kerala,8.5241,76.9366,27.3,80,0.0,1010.7,9.0,27.4,106,20.5,18.2,7,0,4,1,2026-03-05T00:26:32.403762+05:30
Kozhikode,Kerala,11.2588,75.7804,28.0,80,0.0,1010.6,8.85,31.0,94,37.5,32.9,7,0,4,1,2026-03-05T00:26:32.403769+05:30
Thrissur,Kerala,10.5276,76.2144,26.2,90,0.0,1010.0,8.9,37.8,105,45.5,44.0,7,0,4,1,2026-03-05T00:26:32.403777+05:30
Kannur,Kerala,11.8745,75.3704,27.6,83,0.0,1009.8,8.8,33.5,90,41.7,37.3,7,0,4,1,2026-03-05T00:26:32.403785+05:30
Patna,Bihar,25.5941,85.1376,23.2,65,0.0,1003.7,7.2,15.5,169,149.9,116.6,3,5,4,1,2026-03-05T00:26:32.403792+05:30
Gaya,Bihar,24.7914,85.0002,19.6,74,0.0,997.2,7.25,17.6,153,139.7,89.2,3,5,7,0,2026-03-05T00:26:32.403799+05:30
Muzaffarpur,Bihar,26.1209,85.3647,20.8,73,0.0,1003.7,7.15,14.0,169,149.5,118.3,3,5,4,0,2026-03-05T00:26:32.403807+05:30
Bhagalpur,Bihar,25.2425,87.0117,21.3,68,0.0,1004.4,7.2,8.3,163,134.1,101.7,3,5,4,0,2026-03-05T00:26:32.403814+05:30
Ranchi,Jharkhand,23.3441,85.3096,19.7,48,0.0,940.0,7.9,30.6,97,129.5,46.3,0,5,7,0,2026-03-05T00:26:32.403821+05:30
Jamshedpur,Jharkhand,22.8046,86.2029,23.1,61,0.0,993.6,7.85,19.1,147,148.1,81.5,3,5,7,0,2026-03-05T00:26:32.403828+05:30
Dhanbad,Jharkhand,23.7957,86.4304,22.4,50,0.0,982.8,7.7,23.4,152,100.4,70.1,0,5,7,0,2026-03-05T00:26:32.403834+05:30
Bokaro,Jharkhand,23.6693,86.1511,22.5,51,0.0,987.1,7.7,23.8,153,124.8,74.3,0,5,7,0,2026-03-05T00:26:32.403842+05:30
Bhubaneswar,Odisha,20.2961,85.8245,23.7,92,0.0,1004.3,8.15,27.0,155,71.9,63.8,3,5,4,1,2026-03-05T00:26:32.403849+05:30
Cuttack,Odisha,20.4625,85.8828,23.6,89,0.0,1006.3,8.15,27.0,155,71.9,63.8,3,5,4,1,2026-03-05T00:26:32.403856+05:30
Rourkela,Odisha,22.2604,84.8536,24.6,46,0.0,987.7,7.75,21.2,98,71.5,45.9,0,5,7,0,2026-03-05T00:26:32.403863+05:30
Raipur,Chhattisgarh,21.2514,81.6296,23.9,49,0.0,977.1,7.8,19.8,128,77.5,67.3,0,5,7,0,2026-03-05T00:26:32.403870+05:30
Bhilai,Chhattisgarh,21.1938,81.3509,23.6,49,0.0,977.5,7.8,16.9,115,71.9,63.1,0,5,7,0,2026-03-05T00:26:32.403876+05:30
Guwahati,Assam,26.1158,91.7086,21.1,83,0.0,1003.9,7.1,18.4,146,56.9,52.5,3,5,4,1,2026-03-05T00:26:32.403883+05:30
Agartala,Tripura,23.8315,91.2868,20.6,70,0.0,1008.4,7.5,20.9,162,113.2,89.4,3,0,4,0,2026-03-05T00:26:32.403889+05:30
Shillong,Meghalaya,25.5788,91.8933,11.0,92,0.0,856.1,7.5,29.9,129,46.2,42.0,3,10,7,0,2026-03-05T00:26:32.403897+05:30
Imphal,Manipur,24.817,93.9368,14.9,79,0.0,924.0,7.7,21.2,139,76.8,70.3,3,5,7,0,2026-03-05T00:26:32.403904+05:30
Aizawl,Mizoram,23.7271,92.7176,15.2,70,0.0,892.7,7.7,22.0,161,118.3,105.5,3,5,7,0,2026-03-05T00:26:32.403911+05:30
Kohima,Nagaland,25.6701,94.1077,13.3,73,0.0,855.0,7.55,38.5,151,78.9,72.2,3,5,7,0,2026-03-05T00:26:32.403917+05:30
Gangtok,Sikkim,27.3314,88.6138,11.7,85,0.0,837.6,7.45,22.7,130,60.3,52.0,3,10,7,0,2026-03-05T00:26:32.403925+05:30
Siliguri,West Bengal,26.7271,88.3953,20.5,70,0.0,997.0,7.1,19.8,156,86.4,74.7,3,5,7,0,2026-03-05T00:26:35.661824+05:30
Durgapur,West Bengal,23.5204,87.3119,23.0,51,0.0,998.0,7.7,20.5,140,103.4,77.5,0,5,7,0,2026-03-05T00:26:35.661856+05:30
Asansol,West Bengal,23.6739,86.9524,23.4,53,0.0,996.5,7.7,20.9,123,76.1,56.2,0,5,7,0,2026-03-05T00:26:35.661866+05:30
Pondicherry,Puducherry,11.9139,79.8145,22.6,96,0.0,1011.7,8.85,29.2,82,21.4,17.6,3,0,4,1,2026-03-05T00:26:35.661874+05:30
Port Blair,Andaman and Nicobar Islands,11.6234,92.7265,27.1,75,0.0,1007.7,8.8,25.6,100,38.9,33.4,7,5,4,1,2026-03-05T00:26:35.661883+05:30
Haridwar,Uttarakhand,29.9457,78.1642,19.1,79,0.0,977.4,5.6,19.8,129,104.5,68.5,3,5,3,0,2026-03-05T00:26:35.661890+05:30
Rishikesh,Uttarakhand,30.0869,78.2676,18.8,74,0.0,970.2,5.65,22.7,142,55.5,46.3,3,5,3,0,2026-03-05T00:26:35.661898+05:30
Nainital,Uttarakhand,29.3919,79.4542,15.9,63,0.0,807.2,6.45,57.2,143,79.9,64.0,3,5,7,0,2026-03-05T00:26:35.661906+05:30
Mussoorie,Uttarakhand,30.4599,78.0664,15.7,59,0.0,804.2,6.0,35.6,125,59.6,47.1,0,5,3,0,2026-03-05T00:26:35.661913+05:30
Dharamshala,Himachal Pradesh,32.219,76.3234,21.9,35,0.0,872.7,6.25,27.7,77,27.6,16.4,0,5,7,0,2026-03-05T00:26:35.661924+05:30
Dalhousie,Himachal Pradesh,32.5387,75.971,18.1,30,0.0,807.0,6.45,22.0,81,51.1,44.6,0,5,7,0,2026-03-05T00:26:35.661936+05:30
Patiala,Punjab,30.3398,76.3869,20.0,87,0.0,981.7,5.65,30.6,183,336.2,84.5,3,5,3,1,2026-03-05T00:26:35.661943+05:30
Bhatinda,Punjab,30.211,74.9455,20.7,77,0.0,987.3,6.3,22.7,151,64.0,41.6,3,5,7,1,2026-03-05T00:26:35.661950+05:30
Rohtak,Haryana,28.8955,76.6066,19.6,79,0.0,985.3,5.85,31.0,419,570.0,102.2,3,5,3,0,2026-03-05T00:26:35.661958+05:30
Panipat,Haryana,29.3909,76.9635,19.7,88,0.0,983.8,5.65,31.0,950,1139.9,156.0,3,10,3,1,2026-03-05T00:26:35.661965+05:30
Mathura,Uttar Pradesh,27.4924,77.6737,24.2,46,0.0,990.3,6.1,29.9,493,551.3,94.8,0,5,7,0,2026-03-05T00:26:35.661972+05:30
Vrindavan,Uttar Pradesh,27.5823,77.7027,20.1,67,0.0,990.6,6.1,31.7,493,551.3,94.8,3,5,7,0,2026-03-05T00:26:35.661980+05:30
Ayodhya,Uttar Pradesh,26.7922,82.1998,22.0,70,0.0,998.7,6.5,9.7,167,258.9,128.1,3,5,7,1,2026-03-05T00:26:35.661987+05:30
Ratlam,Madhya Pradesh,23.3315,75.0367,20.5,70,0.0,957.6,7.3,21.2,103,51.6,43.3,3,5,7,0,2026-03-05T00:26:35.661994+05:30
Sagar,Madhya Pradesh,23.8388,78.7378,23.5,37,0.0,953.6,7.25,25.6,59,28.7,22.5,0,5,7,0,2026-03-05T00:26:35.662001+05:30
Satna,Madhya Pradesh,24.6005,80.8322,21.9,51,0.0,974.4,7.25,34.9,83,37.4,27.0,0,5,7,0,2026-03-05T00:26:35.662008+05:30
Akola,Maharashtra,20.7002,77.0082,25.0,43,0.0,977.9,7.8,17.3,74,38.5,35.4,4,5,7,0,2026-03-05T00:26:35.662016+05:30
Amravati,Maharashtra,20.9374,77.7796,23.8,53,0.0,969.7,7.75,16.2,69,43.9,39.7,0,5,7,0,2026-03-05T00:26:35.662023+05:30
Latur,Maharashtra,18.4088,76.5604,24.7,47,0.0,941.9,8.25,19.8,101,47.0,44.2,0,5,7,0,2026-03-05T00:26:35.662030+05:30
Nanded,Maharashtra,19.1383,77.3091,25.1,55,0.0,970.9,8.0,13.0,75,30.6,28.7,4,5,7,0,2026-03-05T00:26:35.662037+05:30
Gulbarga,Karnataka,17.3297,76.8343,26.4,44,0.0,960.8,8.35,23.0,101,21.8,20.3,4,5,7,0,2026-03-05T00:26:35.662044+05:30
Bidar,Karnataka,17.9104,77.5199,23.5,52,0.0,937.4,8.3,25.9,89,44.2,40.9,0,5,7,0,2026-03-05T00:26:35.662051+05:30
Hospet,Karnataka,15.2689,76.3909,26.9,44,0.0,957.9,8.6,25.9,133,34.6,33.4,4,5,7,0,2026-03-05T00:26:35.662058+05:30
Tirupur,Tamil Nadu,11.1085,77.3411,24.8,57,0.0,978.3,9.15,32.4,105,45.8,44.9,0,5,7,0,2026-03-05T00:26:35.662065+05:30
Alappuzha,Kerala,9.4981,76.3388,27.4,79,0.0,1011.7,8.95,30.2,96,44.8,43.0,7,0,4,1,2026-03-05T00:26:35.662071+05:30
Munnar,Kerala,10.0889,77.0595,18.9,73,0.0,858.0,9.45,24.5,78,32.5,32.1,3,5,7,0,2026-03-05T00:26:35.662079+05:30
Silchar,Assam,24.8333,92.7789,22.5,67,0.0,1007.0,7.45,14.4,151,88.0,77.5,3,5,4,0,2026-03-05T00:26:35.662086+05:30
Dibrugarh,Assam,27.4728,94.912,22.0,82,0.0,997.8,7.15,9.0,127,54.4,49.1,3,5,7,1,2026-03-05T00:26:35.662093+05:30
