city,state,latitude,longitude,temp,humidity,rain,pressure,uv_index,wind_gusts,aqi,pm10,pm2_5,mosquito_risk,arthritis_risk,migraine_risk,frizz_risk,updated_at
Delhi,Delhi,28.6139,77.209,20.0,76,0.0,989.5,5.85,23.8,160,170.9,75.2,3,5,3,0,2026-03-21T22:58:18.785241+05:30
Mumbai,Maharashtra,19.076,72.8777,28.3,61,0.0,1010.4,7.9,29.2,95,32.7,27.5,7,0,4,1,2026-03-21T22:58:18.785284+05:30
Bangalore,Karnataka,12.9716,77.5946,25.0,62,0.0,913.5,9.4,25.2,126,38.1,35.4,7,5,7,1,2026-03-21T22:58:18.785299+05:30
Hyderabad,Telangana,17.385,78.4867,25.4,73,0.0,955.9,8.85,28.1,112,31.9,26.7,7,5,7,1,2026-03-21T22:58:18.785309+05:30
Chennai,Tamil Nadu,13.0827,80.2707,27.5,81,0.0,1010.0,9.1,35.6,38,14.4,9.7,7,0,4,1,2026-03-21T22:58:18.785316+05:30
Kolkata,West Bengal,22.5726,88.3639,21.4,90,0.0,1011.0,7.5,19.8,64,36.8,34.9,3,0,4,1,2026-03-21T22:58:18.785324+05:30
Pune,Maharashtra,18.5204,73.8567,24.7,66,0.0,950.4,8.4,24.1,87,37.5,30.0,3,5,7,1,2026-03-21T22:58:18.785334+05:30
Ahmedabad,Gujarat,23.0225,72.5714,25.0,47,0.0,1005.9,7.6,15.1,85,44.6,34.0,4,5,4,0,2026-03-21T22:58:18.785341+05:30
Jaipur,Rajasthan,26.9124,75.7873,20.5,70,0.0,965.3,6.75,34.2,75,92.7,34.9,3,5,7,0,2026-03-21T22:58:18.785348+05:30
Lucknow,Uttar Pradesh,26.8467,80.9462,20.9,74,0.0,999.9,6.25,24.5,103,66.6,47.8,3,5,7,1,2026-03-21T22:58:18.785355+05:30
Kanpur,Uttar Pradesh,26.4499,80.3319,20.8,69,0.0,998.1,6.7,25.6,115,231.0,55.9,3,5,7,0,2026-03-21T22:58:18.785361+05:30
Chandigarh,Chandigarh,30.7333,76.7794,16.4,88,0.0,974.3,6.35,28.4,80,39.8,36.1,3,10,7,0,2026-03-21T22:58:18.785367+05:30
Srinagar,Jammu and Kashmir,34.0837,74.7973,7.1,86,0.0,841.2,6.7,14.0,96,91.7,86.4,3,10,7,0,2026-03-21T22:58:18.785374+05:30
Jammu,Jammu and Kashmir,32.7266,74.857,18.9,74,0.0,979.0,6.45,16.9,99,67.5,57.0,3,5,7,0,2026-03-21T22:58:18.785380+05:30
Amritsar,Punjab,31.634,74.8723,17.7,79,0.0,987.5,6.1,15.8,116,94.5,84.5,3,5,7,0,2026-03-21T22:58:18.785386+05:30
Ludhiana,Punjab,30.901,75.8573,17.4,81,0.0,985.3,6.0,23.0,153,53.4,46.8,3,10,3,0,2026-03-21T22:58:18.785392+05:30
Jalandhar,Punjab,31.326,75.5762,17.3,82,0.0,986.4,6.3,20.5,136,59.1,51.0,3,10,7,0,2026-03-21T22:58:18.785399+05:30
Dehradun,Uttarakhand,30.6284,78.0322,10.4,87,0.0,830.7,6.7,22.7,76,26.4,22.3,3,10,7,0,2026-03-21T22:58:18.785405+05:30
Shimla,Himachal Pradesh,31.1048,77.1734,7.8,88,0.0,783.6,6.6,33.5,63,39.0,31.3,3,10,7,0,2026-03-21T22:58:18.785411+05:30
Manali,Himachal Pradesh,32.2396,77.1887,9.9,43,0.0,818.1,8.65,22.0,93,20.1,15.7,0,5,7,1,2026-03-21T22:58:18.785416+05:30
Gurgaon,Haryana,28.4595,77.0266,18.7,82,0.0,987.8,6.1,20.5,172,162.5,91.5,3,10,7,0,2026-03-21T22:58:18.785422+05:30
Noida,Uttar Pradesh,28.5355,77.391,20.0,75,0.0,991.1,6.15,22.7,172,162.5,91.5,3,5,7,0,2026-03-21T22:58:18.785427+05:30
Ghaziabad,Uttar Pradesh,28.6692,77.4538,18.8,79,0.0,989.0,5.85,21.6,158,135.0,66.4,3,5,3,0,2026-03-21T22:58:18.785433+05:30
Faridabad,Haryana,28.4089,77.3178,18.8,80,0.0,990.1,6.4,20.9,172,162.5,91.5,3,5,7,0,2026-03-21T22:58:18.785438+05:30
Meerut,Uttar Pradesh,28.9845,77.7064,17.5,83,0.0,987.6,6.15,22.0,158,135.0,66.4,3,10,7,0,2026-03-21T22:58:18.785443+05:30
Agra,Uttar Pradesh,27.1767,78.0081,20.7,67,0.0,994.1,6.8,28.1,194,441.4,99.4,3,5,7,0,2026-03-21T22:58:18.785449+05:30
Varanasi,Uttar Pradesh,25.3176,82.9739,19.4,85,0.0,1004.3,5.1,26.3,103,93.6,78.7,3,10,0,1,2026-03-21T22:58:18.785457+05:30
Prayagraj,Uttar Pradesh,25.4358,81.8463,20.4,80,0.0,1002.4,7.35,25.2,99,68.9,58.7,3,5,4,1,2026-03-21T22:58:18.785463+05:30
Gorakhpur,Uttar Pradesh,26.7606,83.3732,16.8,97,0.0,1004.0,5.7,17.3,112,60.1,56.3,3,10,0,1,2026-03-21T22:58:18.785468+05:30
Bareilly,Uttar Pradesh,28.367,79.4304,18.3,84,0.0,992.9,6.6,18.0,126,42.4,40.4,3,10,7,0,2026-03-21T22:58:18.785475+05:30
Aligarh,Uttar Pradesh,27.8974,78.088,18.6,75,0.0,991.6,6.5,20.2,163,261.7,87.5,3,5,7,0,2026-03-21T22:58:18.785481+05:30
Moradabad,Uttar Pradesh,28.8386,78.7733,18.0,82,0.0,989.6,6.45,18.4,143,69.4,63.6,3,10,7,0,2026-03-21T22:58:18.785486+05:30
Saharanpur,Uttar Pradesh,29.9637,77.546,17.2,83,0.0,981.4,6.1,27.0,149,109.9,64.3,3,10,7,0,2026-03-21T22:58:18.785493+05:30
Jhansi,Uttar Pradesh,25.4484,78.5685,22.3,51,0.0,983.5,7.4,24.5,81,66.4,29.8,0,5,7,0,2026-03-21T22:58:22.103565+05:30
Surat,Gujarat,21.1702,72.8311,25.6,54,0.0,1009.4,7.55,28.1,110,45.1,38.8,4,0,4,0,2026-03-21T22:58:22.103595+05:30
Vadodara,Gujarat,22.3072,73.1812,26.4,50,0.0,1007.7,7.55,16.9,70,30.2,25.0,4,5,4,0,2026-03-21T22:58:22.103604+05:30
Rajkot,Gujarat,22.3039,70.8022,25.5,50,0.0,998.0,7.05,19.4,67,43.4,24.7,4,5,7,0,2026-03-21T22:58:22.103613+05:30
Thane,Maharashtra,19.2183,72.9781,27.4,47,0.0,1009.9,7.85,42.8,95,32.7,27.5,4,0,4,0,2026-03-21T22:58:22.103621+05:30
Nagpur,Maharashtra,21.1458,79.0882,25.5,36,0.0,977.0,8.3,24.8,63,17.7,14.3,4,5,7,0,2026-03-21T22:58:22.103629+05:30
Nashik,Maharashtra,19.9975,73.7898,24.0,36,0.0,948.0,8.05,22.7,71,27.2,24.1,0,5,7,0,2026-03-21T22:58:22.103636+05:30
Aurangabad,Maharashtra,19.8762,75.3433,25.4,31,0.0,946.5,8.6,24.5,86,23.1,18.0,4,5,7,0,2026-03-21T22:58:22.103644+05:30
Solapur,Maharashtra,17.6599,75.9064,27.5,41,0.0,958.8,8.75,27.7,87,36.8,25.3,4,5,7,0,2026-03-21T22:58:22.103651+05:30
Kolhapur,Maharashtra,16.705,74.2433,20.8,61,0.0,949.3,8.85,26.6,84,50.4,38.5,3,5,7,0,2026-03-21T22:58:22.103658+05:30
Goa,Goa,15.2993,74.124,26.7,83,0.0,999.6,8.85,35.3,99,63.3,35.6,7,5,7,1,2026-03-21T22:58:22.103666+05:30
Jodhpur,Rajasthan,26.2389,73.0243,24.6,47,0.0,987.6,6.6,24.1,63,42.5,16.4,0,5,7,0,2026-03-21T22:58:22.103673+05:30
Udaipur,Rajasthan,24.5854,73.7125,22.4,50,0.0,950.3,7.1,11.9,64,31.2,16.2,0,5,7,0,2026-03-21T22:58:22.103679+05:30
Kota,Rajasthan,25.2138,75.8648,22.4,52,0.0,983.3,7.5,22.0,78,34.5,22.8,0,5,7,0,2026-03-21T22:58:22.103686+05:30
Bikaner,Rajasthan,28.0229,73.3119,22.6,60,0.0,987.6,6.25,31.7,52,31.9,13.7,0,5,7,0,2026-03-21T22:58:22.103693+05:30
Ajmer,Rajasthan,26.4499,74.6399,21.4,61,0.0,959.1,7.4,30.2,67,52.6,25.4,3,5,7,0,2026-03-21T22:58:22.103700+05:30
Gwalior,Madhya Pradesh,26.2183,78.1828,23.0,56,0.0,989.3,7.1,25.6,87,223.5,52.2,0,5,7,0,2026-03-21T22:58:22.103707+05:30
Indore,Madhya Pradesh,22.7196,75.8577,22.4,48,0.0,951.2,7.95,22.7,58,26.4,20.2,0,5,7,0,2026-03-21T22:58:22.103713+05:30
Bhopal,Madhya Pradesh,23.2599,77.4126,21.5,49,0.0,957.5,7.9,23.8,63,26.1,19.3,0,5,7,0,2026-03-21T22:58:22.103720+05:30
Jabalpur,Madhya Pradesh,23.1815,79.9864,21.7,54,0.0,966.1,8.0,31.3,64,20.1,14.2,0,5,7,0,2026-03-21T22:58:22.103727+05:30
Ujjain,Madhya Pradesh,23.1765,75.7885,22.7,51,0.0,957.2,7.75,19.4,63,31.1,24.7,0,5,7,0,2026-03-21T22:58:22.103734+05:30
Visakhapatnam,Andhra Pradesh,17.6868,83.2185,24.9,87,0.0,1007.5,8.8,35.3,73,19.7,16.8,3,5,4,1,2026-03-21T22:58:22.103741+05:30
Vijayawada,Andhra Pradesh,16.5062,80.648,26.2,83,0.0,1006.0,8.85,24.8,62,22.2,19.4,7,5,4,1,2026-03-21T22:58:22.103748+05:30
Guntur,Andhra Pradesh,16.3067,80.4365,25.9,88,0.0,1007.1,8.85,23.8,58,25.6,21.9,7,5,4,1,2026-03-21T22:58:22.103755+05:30
Nellore,Andhra Pradesh,14.4426,79.9865,26.9,83,0.0,1008.8,9.0,35.3,44,12.3,8.4,7,0,4,1,2026-03-21T22:58:22.103763+05:30
Kurnool,Andhra Pradesh,15.8281,78.0373,29.1,44,0.0,978.4,8.9,24.1,116,46.4,39.0,4,5,7,0,2026-03-21T22:58:22.103793+05:30
Kakinada,Andhra Pradesh,16.9891,82.2475,24.7,89,0.0,1011.1,8.85,26.6,38,11.1,7.9,3,0,4,1,2026-03-21T22:58:22.103801+05:30
Tirupati,Andhra Pradesh,13.6288,79.4192,26.4,79,0.0,994.6,8.85,25.6,74,27.7,24.7,7,5,7,1,2026-03-21T22:58:22.103808+05:30
Warangal,Telangana,17.9689,79.5941,25.7,72,0.0,981.4,8.65,22.7,105,49.0,42.0,7,5,7,1,2026-03-21T22:58:22.103814+05:30
Nizamabad,Telangana,18.6725,78.0941,27.2,54,0.0,967.1,8.6,34.9,88,50.6,34.5,4,5,7,1,2026-03-21T22:58:22.103821+05:30
Mysore,Karnataka,12.2958,76.6396,24.2,74,0.0,930.1,9.4,39.6,111,47.8,40.5,3,5,7,1,2026-03-21T22:58:22.103829+05:30
Mangalore,Karnataka,12.9141,74.856,29.6,77,0.0,1008.4,9.05,29.2,67,33.5,19.0,7,0,4,1,2026-03-21T22:58:22.103836+05:30
Hubli-Dharwad,Karnataka,15.3647,75.124,24.4,52,0.0,942.4,9.05,27.4,91,20.6,18.0,0,5,7,0,2026-03-21T22:58:22.103843+05:30
Belgaum,Karnataka,15.8497,74.4977,22.3,67,0.0,927.2,9.1,34.2,87,39.8,26.3,3,5,7,0,2026-03-21T22:58:25.423828+05:30
Coimbatore,Tamil Nadu,11.0168,76.9558,25.4,73,0.0,963.6,9.35,40.7,100,28.5,24.2,7,5,7,1,2026-03-21T22:58:25.423858+05:30
Madurai,Tamil Nadu,9.9252,78.1198,27.1,80,0.0,995.9,9.3,36.7,70,15.6,13.8,7,5,7,1,2026-03-21T22:58:25.423866+05:30
Trichy,Tamil Nadu,10.7905,78.7047,27.0,84,0.0,1001.9,9.25,26.3,55,18.0,15.6,7,5,4,1,2026-03-21T22:58:25.423873+05:30
Salem,Tamil Nadu,11.6643,78.146,27.7,70,0.0,979.1,9.3,24.8,111,34.8,31.0,7,5,7,1,2026-03-21T22:58:25.423879+05:30
Tirunelveli,Tamil Nadu,8.7139,77.7567,27.0,81,0.0,1005.6,9.3,42.8,93,23.1,21.2,7,5,4,1,2026-03-21T22:58:25.423886+05:30
Vellore,Tamil Nadu,12.9165,79.1325,26.6,76,0.0,987.2,9.2,32.0,98,23.7,21.4,7,5,7,1,2026-03-21T22:58:25.423892+05:30
Erode,Tamil Nadu,11.341,77.7172,28.9,68,0.0,990.9,9.3,29.9,95,15.9,14.2,7,5,7,1,2026-03-21T22:58:25.423899+05:30
Kochi,Kerala,9.9312,76.2673,28.9,75,0.0,1010.6,9.15,33.8,80,41.4,38.1,7,0,4,1,2026-03-21T22:58:25.423905+05:30
Thiruvananthapuram,Kerala,8.5241,76.9366,28.1,81,0.0,1010.0,8.55,24.8,96,21.0,17.1,7,0,4,1,2026-03-21T22:58:25.423911+05:30
Kozhikode,Kerala,11.2588,75.7804,29.6,76,0.0,1009.5,9.05,31.3,61,24.7,16.1,7,0,4,1,2026-03-21T22:58:25.423917+05:30
Thrissur,Kerala,10.5276,76.2144,28.2,76,0.0,1008.7,9.15,38.9,77,38.4,35.2,7,0,4,1,2026-03-21T22:58:25.423924+05:30
Kannur,Kerala,11.8745,75.3704,29.0,78,0.0,1009.0,9.1,34.9,66,27.8,17.7,7,0,4,1,2026-03-21T22:58:25.423930+05:30
Patna,Bihar,25.5941,85.1376,19.2,92,0.0,1007.1,7.2,24.5,139,70.3,66.8,3,10,4,1,2026-03-21T22:58:25.423936+05:30
Gaya,Bihar,24.7914,85.0002,19.3,90,0.0,1000.3,7.65,24.8,110,49.9,46.2,3,10,4,1,2026-03-21T22:58:25.423942+05:30
Muzaffarpur,Bihar,26.1209,85.3647,17.2,99,0.0,1007.3,5.2,23.8,143,78.7,75.9,3,10,0,1,2026-03-21T22:58:25.423947+05:30
Bhagalpur,Bihar,25.2425,87.0117,19.0,95,0.0,1007.7,5.85,24.5,114,42.4,39.5,3,10,0,1,2026-03-21T22:58:25.423953+05:30
Ranchi,Jharkhand,23.3441,85.3096,17.4,86,0.0,941.3,8.35,32.0,92,35.7,34.0,3,10,7,0,2026-03-21T22:58:25.423959+05:30
Jamshedpur,Jharkhand,22.8046,86.2029,21.8,76,0.0,996.2,7.75,28.1,117,52.4,50.4,3,5,7,1,2026-03-21T22:58:25.423965+05:30
Dhanbad,Jharkhand,23.7957,86.4304,19.8,78,0.0,985.1,7.6,27.0,144,58.1,54.5,3,5,7,0,2026-03-21T22:58:25.423971+05:30
Bokaro,Jharkhand,23.6693,86.1511,19.0,86,0.0,989.4,5.8,37.4,143,57.9,54.7,3,10,3,1,2026-03-21T22:58:25.423977+05:30
Bhubaneswar,Odisha,20.2961,85.8245,23.9,88,0.0,1006.6,8.55,28.1,112,46.9,42.7,3,5,4,1,2026-03-21T22:58:25.423984+05:30
Cuttack,Odisha,20.4625,85.8828,24.3,84,0.0,1008.7,8.6,24.8,112,46.9,42.7,3,0,4,1,2026-03-21T22:58:25.423990+05:30
Rourkela,Odisha,22.2604,84.8536,23.2,66,0.0,989.6,8.15,29.9,107,28.7,25.8,3,5,7,1,2026-03-21T22:58:25.423996+05:30
Raipur,Chhattisgarh,21.2514,81.6296,23.8,40,0.0,978.4,8.35,31.7,118,35.2,31.7,0,5,7,0,2026-03-21T22:58:25.424001+05:30
Bhilai,Chhattisgarh,21.1938,81.3509,22.7,42,0.0,978.6,8.35,33.8,105,20.7,18.0,0,5,7,0,2026-03-21T22:58:25.424007+05:30
Guwahati,Assam,26.1158,91.7086,20.7,86,0.1,1007.3,2.65,19.4,87,40.9,36.0,6,5,0,1,2026-03-21T22:58:25.424013+05:30
Agartala,Tripura,23.8315,91.2868,21.4,86,0.0,1010.1,5.1,18.4,107,35.2,29.4,3,0,0,1,2026-03-21T22:58:25.424018+05:30
Shillong,Meghalaya,25.5788,91.8933,10.3,99,0.1,856.2,5.05,30.6,70,30.9,20.8,6,10,3,0,2026-03-21T22:58:25.424024+05:30
Imphal,Manipur,24.817,93.9368,16.4,85,0.0,924.5,7.45,25.9,89,41.4,33.5,3,10,7,0,2026-03-21T22:58:25.424029+05:30
Aizawl,Mizoram,23.7271,92.7176,15.9,92,0.0,893.5,5.35,42.8,112,56.3,44.9,3,10,3,0,2026-03-21T22:58:25.424035+05:30
Kohima,Nagaland,25.6701,94.1077,13.2,97,0.2,855.6,7.0,57.2,71,18.3,13.5,6,10,7,0,2026-03-21T22:58:25.424040+05:30
Gangtok,Sikkim,27.3314,88.6138,9.6,85,0.0,836.2,1.95,16.6,88,34.7,29.5,3,10,3,0,2026-03-21T22:58:25.424046+05:30
Siliguri,West Bengal,26.7271,88.3953,16.1,67,0.0,998.7,0.45,29.2,96,71.5,56.6,3,5,3,0,2026-03-21T22:58:28.740986+05:30
Durgapur,West Bengal,23.5204,87.3119,21.5,79,0.0,1000.5,7.8,20.9,119,48.9,45.9,3,5,4,1,2026-03-21T22:58:28.741016+05:30
Asansol,West Bengal,23.6739,86.9524,21.0,81,0.0,999.1,6.55,22.7,122,46.7,42.8,3,5,7,1,2026-03-21T22:58:28.741026+05:30
Pondicherry,Puducherry,11.9139,79.8145,26.1,93,0.0,1011.0,9.15,30.6,32,14.6,9.6,7,0,4,1,2026-03-21T22:58:28.741034+05:30
Port Blair,Andaman and Nicobar Islands,11.6234,92.7265,28.2,79,0.0,1009.3,9.1,14.8,48,13.6,10.4,7,0,4,1,2026-03-21T22:58:28.741042+05:30
Haridwar,Uttarakhand,29.9457,78.1642,17.6,86,0.0,979.9,6.2,21.6,84,63.3,51.8,3,10,7,0,2026-03-21T22:58:28.741048+05:30
Rishikesh,Uttarakhand,30.0869,78.2676,17.2,82,0.0,972.3,6.25,20.9,84,30.6,27.2,3,10,7,0,2026-03-21T22:58:28.741054+05:30
Nainital,Uttarakhand,29.3919,79.4542,12.2,85,0.0,806.7,6.9,34.2,55,26.3,24.4,3,10,7,0,2026-03-21T22:58:28.741060+05:30
Mussoorie,Uttarakhand,30.4599,78.0664,11.0,77,0.0,803.1,6.6,26.3,81,44.7,40.7,3,5,7,0,2026-03-21T22:58:28.741066+05:30
Dharamshala,Himachal Pradesh,32.219,76.3234,14.6,62,0.0,871.1,6.6,17.6,78,25.8,19.6,3,5,7,0,2026-03-21T22:58:28.741071+05:30
Dalhousie,Himachal Pradesh,32.5387,75.971,10.7,71,0.0,803.8,6.25,17.3,75,54.4,46.1,3,5,7,0,2026-03-21T22:58:28.741077+05:30
Patiala,Punjab,30.3398,76.3869,16.1,88,0.0,984.5,5.85,23.8,153,220.7,53.8,3,10,3,0,2026-03-21T22:58:28.741082+05:30
Bhatinda,Punjab,30.211,74.9455,18.3,82,0.0,990.5,5.55,18.0,134,95.5,76.6,3,10,3,0,2026-03-21T22:58:28.741088+05:30
Rohtak,Haryana,28.8955,76.6066,18.4,84,0.0,988.2,5.9,22.7,165,163.9,79.2,3,10,3,0,2026-03-21T22:58:28.741094+05:30
Panipat,Haryana,29.3909,76.9635,17.2,86,0.0,986.7,6.0,24.8,164,206.8,71.2,3,10,3,0,2026-03-21T22:58:28.741099+05:30
Mathura,Uttar Pradesh,27.4924,77.6737,19.4,75,0.0,993.1,6.7,23.8,163,380.0,98.3,3,5,7,0,2026-03-21T22:58:28.741105+05:30
Vrindavan,Uttar Pradesh,27.5823,77.7027,18.4,81,0.0,993.6,6.65,21.6,163,380.0,98.3,3,10,7,0,2026-03-21T22:58:28.741110+05:30
Ayodhya,Uttar Pradesh,26.7922,82.1998,18.6,91,0.0,1002.0,6.95,22.0,91,51.8,44.6,3,10,4,1,2026-03-21T22:58:28.741116+05:30
Ratlam,Madhya Pradesh,23.3315,75.0367,23.7,59,0.0,957.9,7.55,21.2,58,31.9,24.3,0,5,7,0,2026-03-21T22:58:28.741122+05:30
Sagar,Madhya Pradesh,23.8388,78.7378,22.5,43,0.0,954.5,7.9,28.4,77,19.7,13.5,0,5,7,0,2026-03-21T22:58:28.741127+05:30
Satna,Madhya Pradesh,24.6005,80.8322,21.0,58,0.0,976.8,7.8,32.8,71,49.2,18.5,0,5,7,0,2026-03-21T22:58:28.741132+05:30
Akola,Maharashtra,20.7002,77.0082,24.5,39,0.0,978.1,8.25,21.6,69,33.2,28.2,0,5,7,0,2026-03-21T22:58:28.741139+05:30
Amravati,Maharashtra,20.9374,77.7796,24.6,37,0.0,970.4,8.3,25.2,69,26.7,21.7,0,5,7,0,2026-03-21T22:58:28.741145+05:30
Latur,Maharashtra,18.4088,76.5604,25.2,48,0.0,941.8,8.65,34.2,89,31.1,18.5,4,5,7,0,2026-03-21T22:58:28.741151+05:30
Nanded,Maharashtra,19.1383,77.3091,27.2,40,0.0,970.9,8.5,28.1,67,57.4,39.1,4,5,7,0,2026-03-21T22:58:28.741156+05:30
Gulbarga,Karnataka,17.3297,76.8343,28.6,37,0.0,960.4,8.75,42.1,107,35.2,29.3,4,5,7,0,2026-03-21T22:58:28.741162+05:30
Bidar,Karnataka,17.9104,77.5199,27.2,41,0.0,937.5,8.75,40.3,77,31.4,21.9,4,5,7,0,2026-03-21T22:58:28.741167+05:30
Hospet,Karnataka,15.2689,76.3909,28.9,54,0.0,957.2,9.0,19.4,146,30.5,25.2,4,5,7,1,2026-03-21T22:58:28.741172+05:30
Tirupur,Tamil Nadu,11.1085,77.3411,28.1,64,0.0,977.2,9.4,25.2,105,20.8,17.8,7,5,7,1,2026-03-21T22:58:28.741178+05:30
Alappuzha,Kerala,9.4981,76.3388,28.7,75,0.0,1010.8,9.1,29.2,76,24.7,19.3,7,0,4,1,2026-03-21T22:58:28.741183+05:30
Munnar,Kerala,10.0889,77.0595,20.5,88,0.0,858.3,9.65,30.6,68,30.0,27.0,3,5,7,1,2026-03-21T22:58:28.741188+05:30
Silchar,Assam,24.8333,92.7789,23.0,81,0.0,1008.0,6.8,22.3,101,54.7,45.6,3,0,4,1,2026-03-21T22:58:28.741194+05:30
Dibrugarh,Assam,27.4728,94.912,22.7,85,0.0,998.7,7.6,32.4,90,53.6,45.3,3,5,7,1,2026-03-21T22:58:28.741199+05:30
