city,state,latitude,longitude,temp,humidity,rain,pressure,uv_index,wind_gusts,aqi,pm10,pm2_5,mosquito_risk,arthritis_risk,migraine_risk,frizz_risk,updated_at
Delhi,Delhi,28.6139,77.209,34.8,23,0.0,985.3,6.15,25.6,174,379.0,54.5,0,5,7,0,2026-03-11T16:13:22.707310+05:30
Mumbai,Maharashtra,19.076,72.8777,27.4,90,0.0,1009.2,7.6,23.4,208,73.6,65.4,7,0,4,1,2026-03-11T16:13:22.707371+05:30
Bangalore,Karnataka,12.9716,77.5946,31.3,27,0.0,913.4,9.25,27.7,66,10.6,9.4,0,5,7,0,2026-03-11T16:13:22.707387+05:30
Hyderabad,Telangana,17.385,78.4867,34.9,20,0.0,955.4,8.6,24.8,87,34.9,25.8,0,5,7,0,2026-03-11T16:13:22.707398+05:30
Chennai,Tamil Nadu,13.0827,80.2707,31.2,54,0.0,1009.5,9.0,31.7,67,19.7,16.0,0,0,4,1,2026-03-11T16:13:22.707407+05:30
Kolkata,West Bengal,22.5726,88.3639,28.0,73,0.0,1008.1,6.85,22.0,149,56.9,48.3,7,0,4,1,2026-03-11T16:13:22.707417+05:30
Pune,Maharashtra,18.5204,73.8567,37.1,20,0.0,949.9,8.15,31.3,122,27.7,22.9,0,5,10,0,2026-03-11T16:13:22.707428+05:30
Ahmedabad,Gujarat,23.0225,72.5714,40.6,13,0.0,1003.2,7.4,25.9,89,17.3,15.0,0,5,7,0,2026-03-11T16:13:22.707436+05:30
Jaipur,Rajasthan,26.9124,75.7873,36.7,11,0.0,962.7,6.8,33.1,99,163.4,28.2,0,5,10,0,2026-03-11T16:13:22.707442+05:30
Lucknow,Uttar Pradesh,26.8467,80.9462,33.3,36,0.0,995.5,6.6,28.8,189,138.8,46.8,0,5,7,1,2026-03-11T16:13:22.707450+05:30
Kanpur,Uttar Pradesh,26.4499,80.3319,33.8,33,0.0,993.9,6.65,23.8,176,294.3,53.9,0,5,7,0,2026-03-11T16:13:22.707457+05:30
Chandigarh,Chandigarh,30.7333,76.7794,31.4,36,0.0,971.6,5.35,24.5,151,46.7,28.1,0,5,3,0,2026-03-11T16:13:22.707464+05:30
Srinagar,Jammu and Kashmir,34.0837,74.7973,10.5,92,0.3,845.8,4.1,28.1,124,25.5,16.5,6,10,3,0,2026-03-11T16:13:22.707471+05:30
Jammu,Jammu and Kashmir,32.7266,74.857,28.2,43,0.0,976.1,5.6,27.0,111,30.7,17.3,4,5,3,0,2026-03-11T16:13:22.707478+05:30
Amritsar,Punjab,31.634,74.8723,29.1,56,0.0,984.0,6.45,23.8,158,79.4,43.3,4,5,7,1,2026-03-11T16:13:22.707485+05:30
Ludhiana,Punjab,30.901,75.8573,32.9,28,0.0,981.5,6.3,14.8,176,75.0,47.6,0,5,7,0,2026-03-11T16:13:22.707493+05:30
Jalandhar,Punjab,31.326,75.5762,32.3,33,0.0,982.6,6.5,17.6,168,66.8,35.2,0,5,7,0,2026-03-11T16:13:22.707501+05:30
Dehradun,Uttarakhand,30.6284,78.0322,21.9,58,0.0,834.6,5.9,28.8,83,21.5,14.5,0,5,3,0,2026-03-11T16:13:22.707507+05:30
Shimla,Himachal Pradesh,31.1048,77.1734,19.9,48,0.0,789.8,5.85,46.8,111,20.3,14.5,0,5,3,0,2026-03-11T16:13:22.707514+05:30
Manali,Himachal Pradesh,32.2396,77.1887,18.5,39,0.0,825.4,6.7,42.5,65,26.0,11.8,0,5,7,0,2026-03-11T16:13:22.707520+05:30
Gurgaon,Haryana,28.4595,77.0266,35.1,22,0.0,983.7,6.15,24.5,403,1493.8,143.4,0,5,10,0,2026-03-11T16:13:22.707526+05:30
Noida,Uttar Pradesh,28.5355,77.391,35.2,22,0.0,986.7,6.15,25.9,403,1493.8,143.4,0,5,10,0,2026-03-11T16:13:22.707533+05:30
Ghaziabad,Uttar Pradesh,28.6692,77.4538,34.2,25,0.0,985.0,6.1,24.5,169,256.1,47.4,0,5,7,0,2026-03-11T16:13:22.707538+05:30
Faridabad,Haryana,28.4089,77.3178,35.0,21,0.0,986.0,6.15,23.0,403,1493.8,143.4,0,5,7,0,2026-03-11T16:13:22.707544+05:30
Meerut,Uttar Pradesh,28.9845,77.7064,33.8,26,0.0,983.7,5.5,29.2,169,256.1,47.4,0,5,3,0,2026-03-11T16:13:22.707550+05:30
Agra,Uttar Pradesh,27.1767,78.0081,37.3,22,0.0,989.5,6.5,18.4,258,609.1,65.2,0,5,10,0,2026-03-11T16:13:22.707555+05:30
Varanasi,Uttar Pradesh,25.3176,82.9739,31.7,48,0.0,999.6,7.3,23.0,192,129.0,88.2,0,5,7,1,2026-03-11T16:13:22.707563+05:30
Prayagraj,Uttar Pradesh,25.4358,81.8463,32.5,35,0.0,998.5,7.15,23.8,190,106.4,68.5,0,5,7,0,2026-03-11T16:13:22.707569+05:30
Gorakhpur,Uttar Pradesh,26.7606,83.3732,30.9,54,0.0,998.9,7.0,22.0,214,152.3,128.1,0,5,7,1,2026-03-11T16:13:22.707577+05:30
Bareilly,Uttar Pradesh,28.367,79.4304,32.8,35,0.0,988.4,6.35,30.6,203,80.3,58.3,0,5,7,0,2026-03-11T16:13:22.707584+05:30
Aligarh,Uttar Pradesh,27.8974,78.088,35.8,21,0.0,987.6,6.25,25.6,180,568.1,72.9,0,5,10,0,2026-03-11T16:13:22.707590+05:30
Moradabad,Uttar Pradesh,28.8386,78.7733,33.3,28,0.0,985.4,6.15,34.6,195,84.5,51.6,0,5,7,0,2026-03-11T16:13:22.707595+05:30
Saharanpur,Uttar Pradesh,29.9637,77.546,32.4,29,0.0,978.1,5.4,36.0,170,64.0,32.9,0,5,3,0,2026-03-11T16:13:22.707601+05:30
Jhansi,Uttar Pradesh,25.4484,78.5685,37.1,14,0.0,980.3,7.1,27.7,92,38.8,12.5,0,5,10,0,2026-03-11T16:13:25.994281+05:30
Surat,Gujarat,21.1702,72.8311,38.1,27,0.0,1007.2,7.3,27.4,111,42.7,37.5,0,5,7,0,2026-03-11T16:13:25.994317+05:30
Vadodara,Gujarat,22.3072,73.1812,41.9,12,0.0,1004.8,7.45,20.2,79,19.3,10.9,0,5,7,0,2026-03-11T16:13:25.994326+05:30
Rajkot,Gujarat,22.3039,70.8022,38.7,14,0.0,996.4,7.25,32.4,78,18.1,16.4,0,5,10,0,2026-03-11T16:13:25.994334+05:30
Thane,Maharashtra,19.2183,72.9781,31.2,65,0.0,1008.9,7.6,40.7,208,73.6,65.4,3,0,4,1,2026-03-11T16:13:25.994342+05:30
Nagpur,Maharashtra,21.1458,79.0882,37.1,18,0.0,974.8,8.0,12.6,98,46.7,22.8,0,5,10,0,2026-03-11T16:13:25.994349+05:30
Nashik,Maharashtra,19.9975,73.7898,36.9,17,0.0,947.3,7.75,25.6,119,26.8,22.0,0,5,10,0,2026-03-11T16:13:25.994355+05:30
Aurangabad,Maharashtra,19.8762,75.3433,36.7,18,0.0,945.8,8.3,18.4,129,32.2,25.3,0,5,10,0,2026-03-11T16:13:25.994360+05:30
Solapur,Maharashtra,17.6599,75.9064,35.0,26,0.0,958.7,8.5,20.5,116,32.9,26.4,0,5,7,0,2026-03-11T16:13:25.994367+05:30
Kolhapur,Maharashtra,16.705,74.2433,34.4,25,0.0,949.2,8.65,32.4,152,35.0,28.6,0,5,7,0,2026-03-11T16:13:25.994373+05:30
Goa,Goa,15.2993,74.124,31.3,64,0.0,998.1,8.7,39.6,153,56.0,47.3,3,5,7,1,2026-03-11T16:13:25.994378+05:30
Jodhpur,Rajasthan,26.2389,73.0243,37.2,14,0.0,985.7,7.2,31.7,86,68.2,16.7,0,5,10,0,2026-03-11T16:13:25.994384+05:30
Udaipur,Rajasthan,24.5854,73.7125,36.0,13,0.0,950.0,7.8,26.3,85,12.7,8.9,0,5,10,0,2026-03-11T16:13:25.994390+05:30
Kota,Rajasthan,25.2138,75.8648,38.1,13,0.0,981.1,7.2,18.7,75,50.5,14.9,0,5,10,0,2026-03-11T16:13:25.994395+05:30
Bikaner,Rajasthan,28.0229,73.3119,36.5,12,0.0,984.4,6.2,27.7,88,11.7,7.8,0,5,10,0,2026-03-11T16:13:25.994400+05:30
Ajmer,Rajasthan,26.4499,74.6399,35.4,16,0.0,957.9,7.15,27.7,84,36.9,14.8,0,5,10,0,2026-03-11T16:13:25.994406+05:30
Gwalior,Madhya Pradesh,26.2183,78.1828,35.9,16,0.0,985.6,6.8,29.9,106,53.1,14.8,0,5,10,0,2026-03-11T16:13:25.994411+05:30
Indore,Madhya Pradesh,22.7196,75.8577,35.9,13,0.0,951.2,7.7,20.9,80,23.4,12.1,0,5,10,0,2026-03-11T16:13:25.994416+05:30
Bhopal,Madhya Pradesh,23.2599,77.4126,36.1,15,0.0,956.6,7.55,24.8,86,36.4,14.1,0,5,10,0,2026-03-11T16:13:25.994422+05:30
Jabalpur,Madhya Pradesh,23.1815,79.9864,35.7,15,0.0,964.1,7.7,24.5,86,72.9,22.0,0,5,10,0,2026-03-11T16:13:25.994427+05:30
Ujjain,Madhya Pradesh,23.1765,75.7885,35.4,18,0.0,956.8,7.65,14.8,77,22.9,11.0,0,5,10,0,2026-03-11T16:13:25.994433+05:30
Visakhapatnam,Andhra Pradesh,17.6868,83.2185,31.5,42,0.0,1005.4,8.6,39.2,99,31.3,27.1,0,5,4,1,2026-03-11T16:13:25.994438+05:30
Vijayawada,Andhra Pradesh,16.5062,80.648,34.9,30,0.0,1004.0,8.7,19.1,90,19.1,15.9,0,5,4,0,2026-03-11T16:13:25.994444+05:30
Guntur,Andhra Pradesh,16.3067,80.4365,35.0,31,0.0,1005.2,8.7,20.2,77,19.3,14.8,0,5,4,0,2026-03-11T16:13:25.994449+05:30
Nellore,Andhra Pradesh,14.4426,79.9865,33.0,43,0.0,1007.9,8.9,28.4,67,14.6,12.6,0,5,4,1,2026-03-11T16:13:25.994456+05:30
Kurnool,Andhra Pradesh,15.8281,78.0373,36.3,20,0.0,978.2,8.7,25.2,62,23.2,17.2,0,5,10,0,2026-03-11T16:13:25.994462+05:30
Kakinada,Andhra Pradesh,16.9891,82.2475,35.4,34,0.0,1008.6,8.65,26.3,88,20.3,16.9,0,0,7,1,2026-03-11T16:13:25.994467+05:30
Tirupati,Andhra Pradesh,13.6288,79.4192,33.6,34,0.0,993.0,9.0,32.4,81,13.5,12.2,0,5,7,0,2026-03-11T16:13:25.994472+05:30
Warangal,Telangana,17.9689,79.5941,34.5,29,0.0,980.7,8.45,23.4,91,34.0,25.6,0,5,7,0,2026-03-11T16:13:25.994477+05:30
Nizamabad,Telangana,18.6725,78.0941,35.4,21,0.0,966.9,8.35,26.6,122,38.8,30.6,0,5,10,0,2026-03-11T16:13:25.994482+05:30
Mysore,Karnataka,12.2958,76.6396,31.8,28,0.0,929.6,9.25,28.8,63,12.5,10.7,0,5,7,0,2026-03-11T16:13:25.994488+05:30
Mangalore,Karnataka,12.9141,74.856,28.8,83,0.0,1006.4,8.9,29.5,111,35.3,30.4,7,5,4,1,2026-03-11T16:13:25.994493+05:30
Hubli-Dharwad,Karnataka,15.3647,75.124,34.6,21,0.0,942.0,8.85,37.1,93,26.9,20.8,0,5,7,0,2026-03-11T16:13:25.994499+05:30
Belgaum,Karnataka,15.8497,74.4977,34.0,22,0.0,927.2,8.9,41.0,117,41.7,33.2,0,5,7,0,2026-03-11T16:13:29.274763+05:30
Coimbatore,Tamil Nadu,11.0168,76.9558,33.4,29,0.0,962.3,9.25,35.6,71,16.4,14.3,0,5,7,0,2026-03-11T16:13:29.274799+05:30
Madurai,Tamil Nadu,9.9252,78.1198,34.0,39,0.0,993.0,8.3,32.8,66,17.3,15.4,0,5,7,1,2026-03-11T16:13:29.274808+05:30
Trichy,Tamil Nadu,10.7905,78.7047,34.4,37,0.0,1000.2,9.15,29.9,66,20.4,18.9,0,5,4,1,2026-03-11T16:13:29.274817+05:30
Salem,Tamil Nadu,11.6643,78.146,33.8,37,0.0,978.1,9.15,20.2,73,17.1,15.1,0,5,7,1,2026-03-11T16:13:29.274825+05:30
Tirunelveli,Tamil Nadu,8.7139,77.7567,32.9,52,0.0,1003.4,6.2,25.9,55,12.2,10.7,0,5,4,1,2026-03-11T16:13:29.274834+05:30
Vellore,Tamil Nadu,12.9165,79.1325,32.7,38,0.0,986.0,9.1,34.6,90,20.5,18.9,0,5,7,1,2026-03-11T16:13:29.274842+05:30
Erode,Tamil Nadu,11.341,77.7172,34.8,31,0.0,989.5,9.15,18.7,76,18.9,16.6,0,5,7,0,2026-03-11T16:13:29.274850+05:30
Kochi,Kerala,9.9312,76.2673,28.6,80,0.0,1008.0,8.25,38.9,120,36.0,31.2,7,0,4,1,2026-03-11T16:13:29.274858+05:30
Thiruvananthapuram,Kerala,8.5241,76.9366,28.6,75,0.0,1007.9,7.3,25.6,67,20.1,17.9,7,5,4,1,2026-03-11T16:13:29.274865+05:30
Kozhikode,Kerala,11.2588,75.7804,29.4,75,0.0,1007.9,8.95,31.3,123,37.3,32.0,7,5,4,1,2026-03-11T16:13:29.274872+05:30
Thrissur,Kerala,10.5276,76.2144,32.1,58,0.0,1006.6,9.05,39.2,91,18.5,16.2,0,5,4,1,2026-03-11T16:13:29.274881+05:30
Kannur,Kerala,11.8745,75.3704,29.7,75,0.0,1007.4,8.95,38.9,138,50.8,43.0,7,5,4,1,2026-03-11T16:13:29.274888+05:30
Patna,Bihar,25.5941,85.1376,30.8,56,0.0,1002.0,6.85,24.8,198,149.9,130.9,0,5,4,1,2026-03-11T16:13:29.274895+05:30
Gaya,Bihar,24.7914,85.0002,30.5,58,0.0,995.5,7.5,21.6,173,110.1,97.3,0,5,7,1,2026-03-11T16:13:29.274901+05:30
Muzaffarpur,Bihar,26.1209,85.3647,29.9,59,0.0,1002.1,7.4,22.0,215,149.9,130.4,4,5,4,1,2026-03-11T16:13:29.274908+05:30
Bhagalpur,Bihar,25.2425,87.0117,29.0,66,0.0,1002.8,7.15,18.4,173,84.5,73.8,7,5,4,1,2026-03-11T16:13:29.274914+05:30
Ranchi,Jharkhand,23.3441,85.3096,30.2,39,0.0,939.5,8.15,28.1,171,94.1,73.8,0,5,7,0,2026-03-11T16:13:29.274922+05:30
Jamshedpur,Jharkhand,22.8046,86.2029,29.7,65,0.0,992.2,8.05,24.1,159,108.3,88.7,7,5,7,1,2026-03-11T16:13:29.274928+05:30
Dhanbad,Jharkhand,23.7957,86.4304,29.5,54,0.0,981.5,7.6,23.8,190,123.4,107.1,4,5,7,1,2026-03-11T16:13:29.274935+05:30
Bokaro,Jharkhand,23.6693,86.1511,29.0,62,0.0,985.3,7.75,37.8,192,132.7,114.8,7,5,7,1,2026-03-11T16:13:29.274942+05:30
Bhubaneswar,Odisha,20.2961,85.8245,32.0,57,0.0,1003.5,8.35,28.4,118,40.5,33.4,0,5,4,1,2026-03-11T16:13:29.274950+05:30
Cuttack,Odisha,20.4625,85.8828,33.9,48,0.0,1005.0,8.4,27.4,118,40.5,33.4,0,5,4,1,2026-03-11T16:13:29.274957+05:30
Rourkela,Odisha,22.2604,84.8536,34.7,36,0.0,985.6,7.95,27.4,163,85.7,61.9,0,5,7,1,2026-03-11T16:13:29.274965+05:30
Raipur,Chhattisgarh,21.2514,81.6296,36.9,19,0.0,976.0,8.05,24.1,153,67.3,43.8,0,5,10,0,2026-03-11T16:13:29.274972+05:30
Bhilai,Chhattisgarh,21.1938,81.3509,37.3,21,0.0,976.3,8.05,19.1,150,68.5,42.7,0,5,10,0,2026-03-11T16:13:29.274979+05:30
Guwahati,Assam,26.1158,91.7086,30.5,54,0.0,1001.5,7.35,23.0,154,67.3,59.4,0,5,4,1,2026-03-11T16:13:29.274985+05:30
Agartala,Tripura,23.8315,91.2868,30.2,57,0.0,1007.0,7.75,15.8,170,77.1,67.3,0,5,4,1,2026-03-11T16:13:29.274992+05:30
Shillong,Meghalaya,25.5788,91.8933,19.0,60,0.0,858.0,6.65,19.1,135,48.8,43.3,0,5,7,0,2026-03-11T16:13:29.274998+05:30
Imphal,Manipur,24.817,93.9368,23.1,58,0.0,924.2,7.95,40.3,153,55.2,48.7,0,5,7,0,2026-03-11T16:13:29.275005+05:30
Aizawl,Mizoram,23.7271,92.7176,23.7,56,0.0,894.2,7.9,27.4,180,99.4,90.3,0,5,7,0,2026-03-11T16:13:29.275012+05:30
Kohima,Nagaland,25.6701,94.1077,18.3,76,0.0,856.2,7.05,32.8,140,58.9,52.4,3,5,7,0,2026-03-11T16:13:29.275019+05:30
Gangtok,Sikkim,27.3314,88.6138,19.7,64,0.0,839.5,6.3,19.8,133,53.9,47.3,3,5,7,0,2026-03-11T16:13:29.275026+05:30
Siliguri,West Bengal,26.7271,88.3953,25.0,73,0.0,995.1,5.75,21.2,166,92.4,80.6,7,5,3,1,2026-03-11T16:13:32.591118+05:30
Durgapur,West Bengal,23.5204,87.3119,30.9,56,0.0,996.3,7.6,20.5,163,90.1,78.5,0,5,7,1,2026-03-11T16:13:32.591157+05:30
Asansol,West Bengal,23.6739,86.9524,30.9,55,0.0,994.8,7.85,20.2,168,102.4,88.0,0,5,7,1,2026-03-11T16:13:32.591167+05:30
Pondicherry,Puducherry,11.9139,79.8145,31.8,56,0.0,1010.0,9.0,31.3,60,20.8,16.1,0,0,4,1,2026-03-11T16:13:32.591176+05:30
Port Blair,Andaman and Nicobar Islands,11.6234,92.7265,28.4,78,0.0,1007.9,8.95,20.2,61,21.1,18.6,7,5,4,1,2026-03-11T16:13:32.591185+05:30
Haridwar,Uttarakhand,29.9457,78.1642,32.7,28,0.0,976.4,5.9,38.5,157,47.3,26.0,0,5,3,0,2026-03-11T16:13:32.591193+05:30
Rishikesh,Uttarakhand,30.0869,78.2676,31.6,37,0.0,969.2,5.9,36.4,153,42.6,22.3,0,5,3,0,2026-03-11T16:13:32.591219+05:30
Nainital,Uttarakhand,29.3919,79.4542,23.8,51,0.0,810.1,6.8,64.4,172,77.8,57.9,0,5,7,0,2026-03-11T16:13:32.591228+05:30
Mussoorie,Uttarakhand,30.4599,78.0664,22.7,53,0.0,807.4,5.6,38.9,150,45.4,30.4,0,5,3,0,2026-03-11T16:13:32.591237+05:30
Dharamshala,Himachal Pradesh,32.219,76.3234,24.6,43,0.0,873.5,5.5,25.9,64,30.9,16.2,0,5,3,0,2026-03-11T16:13:32.591245+05:30
Dalhousie,Himachal Pradesh,32.5387,75.971,22.5,26,0.0,808.9,4.75,23.0,94,14.0,7.7,0,5,3,0,2026-03-11T16:13:32.591254+05:30
Patiala,Punjab,30.3398,76.3869,32.6,31,0.0,980.9,5.3,19.1,169,102.9,42.4,0,5,3,0,2026-03-11T16:13:32.591261+05:30
Bhatinda,Punjab,30.211,74.9455,33.7,26,0.0,986.1,6.6,25.2,152,83.8,36.8,0,5,7,0,2026-03-11T16:13:32.591268+05:30
Rohtak,Haryana,28.8955,76.6066,34.6,21,0.0,984.2,6.1,27.4,177,473.1,57.7,0,5,7,0,2026-03-11T16:13:32.591275+05:30
Panipat,Haryana,29.3909,76.9635,33.8,26,0.0,982.8,5.35,24.8,197,646.3,71.0,0,5,3,0,2026-03-11T16:13:32.591282+05:30
Mathura,Uttar Pradesh,27.4924,77.6737,36.9,19,0.0,988.6,6.4,21.2,199,486.2,59.5,0,5,10,0,2026-03-11T16:13:32.591288+05:30
Vrindavan,Uttar Pradesh,27.5823,77.7027,36.5,18,0.0,989.3,6.4,23.0,199,486.2,59.5,0,5,10,0,2026-03-11T16:13:32.591293+05:30
Ayodhya,Uttar Pradesh,26.7922,82.1998,31.8,45,0.0,997.3,6.8,25.2,198,116.9,80.1,0,5,7,1,2026-03-11T16:13:32.591299+05:30
Ratlam,Madhya Pradesh,23.3315,75.0367,36.6,16,0.0,957.4,7.6,19.8,80,22.1,11.0,0,5,10,0,2026-03-11T16:13:32.591306+05:30
Sagar,Madhya Pradesh,23.8388,78.7378,35.6,12,0.0,953.2,7.55,24.8,91,54.4,15.3,0,5,10,0,2026-03-11T16:13:32.591313+05:30
Satna,Madhya Pradesh,24.6005,80.8322,35.5,15,0.0,973.9,7.55,34.2,149,61.9,22.6,0,5,10,0,2026-03-11T16:13:32.591320+05:30
Akola,Maharashtra,20.7002,77.0082,38.7,17,0.0,976.1,8.0,18.4,97,29.2,16.4,0,5,10,0,2026-03-11T16:13:32.591327+05:30
Amravati,Maharashtra,20.9374,77.7796,38.2,17,0.0,968.7,8.0,11.9,101,32.6,17.2,0,5,10,0,2026-03-11T16:13:32.591334+05:30
Latur,Maharashtra,18.4088,76.5604,34.2,24,0.0,941.9,8.45,24.5,107,26.4,22.0,0,5,7,0,2026-03-11T16:13:32.591340+05:30
Nanded,Maharashtra,19.1383,77.3091,37.1,21,0.0,970.1,8.25,18.0,126,33.4,27.3,0,5,10,0,2026-03-11T16:13:32.591345+05:30
Gulbarga,Karnataka,17.3297,76.8343,36.2,21,0.0,960.3,8.5,21.6,102,37.1,28.7,0,5,10,0,2026-03-11T16:13:32.591351+05:30
Bidar,Karnataka,17.9104,77.5199,34.9,21,0.0,937.6,8.5,24.8,106,34.8,27.4,0,5,7,0,2026-03-11T16:13:32.591356+05:30
Hospet,Karnataka,15.2689,76.3909,34.5,23,0.0,957.0,8.8,28.4,75,23.3,18.9,0,5,7,0,2026-03-11T16:13:32.591361+05:30
Tirupur,Tamil Nadu,11.1085,77.3411,34.5,28,0.0,975.8,9.3,29.5,84,20.1,17.8,0,5,7,0,2026-03-11T16:13:32.591366+05:30
Alappuzha,Kerala,9.4981,76.3388,28.5,79,0.0,1008.1,8.6,37.8,127,37.6,31.7,7,0,4,1,2026-03-11T16:13:32.591372+05:30
Munnar,Kerala,10.0889,77.0595,29.1,39,0.0,859.0,8.0,27.4,63,14.9,12.8,4,5,7,0,2026-03-11T16:13:32.591378+05:30
Silchar,Assam,24.8333,92.7789,30.4,56,0.0,1005.3,7.65,13.7,169,89.2,77.5,0,5,4,1,2026-03-11T16:13:32.591384+05:30
Dibrugarh,Assam,27.4728,94.912,28.7,58,0.0,996.1,7.45,21.6,163,71.2,63.8,4,5,7,1,2026-03-11T16:13:32.591389+05:30
