city,state,latitude,longitude,temp,humidity,rain,pressure,uv_index,wind_gusts,aqi,pm10,pm2_5,mosquito_risk,arthritis_risk,migraine_risk,frizz_risk,updated_at
Delhi,Delhi,28.6139,77.209,18.3,84,0.0,985.1,6.1,53.6,156,366.9,59.6,3,10,7,0,2026-03-16T02:03:51.479023+05:30
Mumbai,Maharashtra,19.076,72.8777,26.9,86,0.0,1008.9,7.7,18.4,103,61.7,28.9,7,0,4,1,2026-03-16T02:03:51.479060+05:30
Bangalore,Karnataka,12.9716,77.5946,21.2,69,0.0,911.5,9.35,28.4,82,27.2,26.7,3,5,7,0,2026-03-16T02:03:51.479075+05:30
Hyderabad,Telangana,17.385,78.4867,23.0,72,0.0,953.5,8.75,29.5,91,25.3,22.1,3,5,7,1,2026-03-16T02:03:51.479084+05:30
Chennai,Tamil Nadu,13.0827,80.2707,25.3,83,0.0,1008.3,9.1,33.1,41,11.0,8.1,7,0,4,1,2026-03-16T02:03:51.479093+05:30
Kolkata,West Bengal,22.5726,88.3639,24.9,92,0.0,1005.8,8.05,32.8,59,21.6,18.3,3,5,4,1,2026-03-16T02:03:51.479101+05:30
Pune,Maharashtra,18.5204,73.8567,18.7,74,0.0,948.1,8.25,40.3,104,50.2,36.3,3,5,7,0,2026-03-16T02:03:51.479113+05:30
Ahmedabad,Gujarat,23.0225,72.5714,23.5,65,0.0,1002.6,7.15,27.0,71,47.7,25.0,3,5,4,1,2026-03-16T02:03:51.479120+05:30
Jaipur,Rajasthan,26.9124,75.7873,23.6,22,0.0,959.1,6.9,34.9,124,91.7,28.5,0,5,7,0,2026-03-16T02:03:51.479127+05:30
Lucknow,Uttar Pradesh,26.8467,80.9462,19.0,74,0.0,994.1,6.65,65.9,106,35.7,28.4,3,5,7,0,2026-03-16T02:03:51.479135+05:30
Kanpur,Uttar Pradesh,26.4499,80.3319,18.8,76,0.0,992.2,6.7,41.0,156,144.4,36.0,3,5,7,0,2026-03-16T02:03:51.479142+05:30
Chandigarh,Chandigarh,30.7333,76.7794,14.8,82,0.0,970.5,5.9,51.8,72,23.1,15.4,3,10,3,0,2026-03-16T02:03:51.479149+05:30
Srinagar,Jammu and Kashmir,34.0837,74.7973,5.3,94,0.0,837.7,4.2,25.6,79,6.2,6.0,3,10,3,0,2026-03-16T02:03:51.479156+05:30
Jammu,Jammu and Kashmir,32.7266,74.857,14.1,89,0.0,974.0,4.9,41.8,88,36.4,24.3,3,10,3,0,2026-03-16T02:03:51.479163+05:30
Amritsar,Punjab,31.634,74.8723,13.7,95,0.0,982.8,6.45,31.3,101,32.1,16.2,3,10,7,0,2026-03-16T02:03:51.479169+05:30
Ludhiana,Punjab,30.901,75.8573,14.7,96,0.0,980.7,6.2,43.9,106,63.1,34.3,3,10,7,0,2026-03-16T02:03:51.479176+05:30
Jalandhar,Punjab,31.326,75.5762,14.1,92,0.0,982.0,6.3,42.1,99,29.2,18.0,3,10,7,0,2026-03-16T02:03:51.479185+05:30
Dehradun,Uttarakhand,30.6284,78.0322,8.7,87,0.1,828.2,6.3,40.3,52,26.8,8.0,6,10,7,0,2026-03-16T02:03:51.479192+05:30
Shimla,Himachal Pradesh,31.1048,77.1734,6.7,81,0.0,780.5,6.3,50.4,56,15.4,7.2,3,10,7,0,2026-03-16T02:03:51.479199+05:30
Manali,Himachal Pradesh,32.2396,77.1887,8.5,79,0.1,814.7,7.1,37.1,49,11.3,4.3,6,5,7,0,2026-03-16T02:03:51.479205+05:30
Gurgaon,Haryana,28.4595,77.0266,17.6,87,0.0,983.4,6.2,42.5,1304,1829.1,210.5,3,10,7,0,2026-03-16T02:03:51.479212+05:30
Noida,Uttar Pradesh,28.5355,77.391,18.5,84,0.0,986.7,6.15,45.4,1304,1829.1,210.5,3,10,7,0,2026-03-16T02:03:51.479218+05:30
Ghaziabad,Uttar Pradesh,28.6692,77.4538,17.7,86,0.0,984.9,6.1,58.7,138,258.0,41.7,3,10,7,0,2026-03-16T02:03:51.479224+05:30
Faridabad,Haryana,28.4089,77.3178,18.3,83,0.0,985.8,6.15,39.2,1304,1829.1,210.5,3,10,7,0,2026-03-16T02:03:51.479231+05:30
Meerut,Uttar Pradesh,28.9845,77.7064,16.8,86,0.0,984.0,6.0,59.4,138,258.0,41.7,3,10,3,0,2026-03-16T02:03:51.479237+05:30
Agra,Uttar Pradesh,27.1767,78.0081,17.9,90,0.0,988.2,6.5,38.2,893,1005.8,125.3,3,10,7,1,2026-03-16T02:03:51.479244+05:30
Varanasi,Uttar Pradesh,25.3176,82.9739,20.9,74,0.0,998.6,7.35,37.1,142,64.3,51.7,3,5,7,0,2026-03-16T02:03:51.479253+05:30
Prayagraj,Uttar Pradesh,25.4358,81.8463,20.4,75,0.0,996.6,7.2,36.0,117,38.4,30.4,3,5,7,0,2026-03-16T02:03:51.479259+05:30
Gorakhpur,Uttar Pradesh,26.7606,83.3732,19.1,71,0.0,997.8,6.85,33.5,151,74.0,62.6,3,5,7,0,2026-03-16T02:03:51.479266+05:30
Bareilly,Uttar Pradesh,28.367,79.4304,18.3,86,0.0,986.9,6.3,74.5,126,33.4,18.7,3,10,7,0,2026-03-16T02:03:51.479279+05:30
Aligarh,Uttar Pradesh,27.8974,78.088,17.3,89,0.0,986.7,6.25,37.8,182,713.4,90.3,3,10,7,0,2026-03-16T02:03:51.479288+05:30
Moradabad,Uttar Pradesh,28.8386,78.7733,18.0,86,0.0,987.4,6.15,85.0,127,39.7,21.8,3,10,7,0,2026-03-16T02:03:51.479295+05:30
Saharanpur,Uttar Pradesh,29.9637,77.546,15.2,90,0.0,978.9,5.75,37.8,126,35.3,22.9,3,10,3,0,2026-03-16T02:03:51.479301+05:30
Jhansi,Uttar Pradesh,25.4484,78.5685,21.7,70,0.0,977.2,7.15,34.9,79,49.0,25.2,3,5,7,0,2026-03-16T02:03:54.754359+05:30
Surat,Gujarat,21.1702,72.8311,25.8,88,0.0,1007.2,7.4,26.3,126,43.9,26.2,7,5,4,1,2026-03-16T02:03:54.754388+05:30
Vadodara,Gujarat,22.3072,73.1812,24.4,84,0.0,1004.8,7.1,23.4,88,39.1,26.4,3,5,4,1,2026-03-16T02:03:54.754400+05:30
Rajkot,Gujarat,22.3039,70.8022,23.9,79,0.0,995.2,7.3,31.3,68,37.6,19.3,3,5,7,1,2026-03-16T02:03:54.754409+05:30
Thane,Maharashtra,19.2183,72.9781,24.8,94,0.0,1008.4,7.7,31.3,103,61.7,28.9,3,0,4,1,2026-03-16T02:03:54.754417+05:30
Nagpur,Maharashtra,21.1458,79.0882,25.9,65,0.0,972.6,7.95,22.0,106,39.1,35.5,7,5,7,1,2026-03-16T02:03:54.754425+05:30
Nashik,Maharashtra,19.9975,73.7898,19.9,64,0.0,945.1,7.7,29.5,73,67.1,32.7,3,5,7,0,2026-03-16T02:03:54.754433+05:30
Aurangabad,Maharashtra,19.8762,75.3433,23.0,55,0.0,943.8,8.05,27.0,74,41.9,27.3,0,5,7,0,2026-03-16T02:03:54.754441+05:30
Solapur,Maharashtra,17.6599,75.9064,23.9,56,0.0,957.3,8.65,23.0,106,47.5,43.7,0,5,7,0,2026-03-16T02:03:54.754449+05:30
Kolhapur,Maharashtra,16.705,74.2433,20.8,74,0.0,947.8,8.75,38.2,124,42.6,32.6,3,5,7,0,2026-03-16T02:03:54.754456+05:30
Goa,Goa,15.2993,74.124,27.4,80,0.0,998.6,8.8,31.7,114,54.4,37.5,7,5,7,1,2026-03-16T02:03:54.754464+05:30
Jodhpur,Rajasthan,26.2389,73.0243,24.5,23,0.0,982.8,7.2,36.7,106,222.6,35.5,0,5,7,0,2026-03-16T02:03:54.754472+05:30
Udaipur,Rajasthan,24.5854,73.7125,22.0,28,0.0,946.5,7.85,34.6,63,42.8,14.5,0,5,7,0,2026-03-16T02:03:54.754480+05:30
Kota,Rajasthan,25.2138,75.8648,21.7,38,0.0,977.8,7.2,29.2,65,32.6,18.3,0,5,7,0,2026-03-16T02:03:54.754487+05:30
Bikaner,Rajasthan,28.0229,73.3119,24.3,36,0.0,981.5,6.9,25.9,52,22.4,8.2,0,5,7,0,2026-03-16T02:03:54.754495+05:30
Ajmer,Rajasthan,26.4499,74.6399,23.3,39,0.0,954.1,7.15,39.2,75,59.6,21.9,0,5,7,0,2026-03-16T02:03:54.754502+05:30
Gwalior,Madhya Pradesh,26.2183,78.1828,22.0,68,0.0,982.9,6.85,32.4,104,108.0,39.0,3,5,7,0,2026-03-16T02:03:54.754510+05:30
Indore,Madhya Pradesh,22.7196,75.8577,21.9,47,0.0,947.5,7.75,32.4,66,32.5,19.0,0,5,7,0,2026-03-16T02:03:54.754518+05:30
Bhopal,Madhya Pradesh,23.2599,77.4126,21.0,52,0.0,952.8,7.65,32.0,61,36.8,21.5,0,5,7,0,2026-03-16T02:03:54.754525+05:30
Jabalpur,Madhya Pradesh,23.1815,79.9864,23.3,55,0.0,960.3,7.8,38.2,66,30.9,22.5,0,5,7,0,2026-03-16T02:03:54.754532+05:30
Ujjain,Madhya Pradesh,23.1765,75.7885,22.0,49,0.0,953.2,7.65,31.0,69,32.8,18.3,0,5,7,0,2026-03-16T02:03:54.754540+05:30
Visakhapatnam,Andhra Pradesh,17.6868,83.2185,25.0,88,0.0,1005.8,8.7,42.1,63,20.2,16.5,7,5,4,1,2026-03-16T02:03:54.754548+05:30
Vijayawada,Andhra Pradesh,16.5062,80.648,24.0,90,0.0,1004.6,8.8,27.7,56,15.4,13.2,3,5,4,1,2026-03-16T02:03:54.754555+05:30
Guntur,Andhra Pradesh,16.3067,80.4365,23.8,90,0.0,1005.6,8.8,29.2,53,13.5,11.5,3,5,4,1,2026-03-16T02:03:54.754563+05:30
Nellore,Andhra Pradesh,14.4426,79.9865,24.3,90,0.0,1007.1,8.95,32.8,50,8.5,7.0,3,5,4,1,2026-03-16T02:03:54.754571+05:30
Kurnool,Andhra Pradesh,15.8281,78.0373,26.4,54,0.0,977.7,8.55,21.6,83,23.2,21.0,4,5,7,1,2026-03-16T02:03:54.754580+05:30
Kakinada,Andhra Pradesh,16.9891,82.2475,23.3,89,0.0,1009.7,8.7,29.9,56,16.7,12.0,3,0,4,1,2026-03-16T02:03:54.754588+05:30
Tirupati,Andhra Pradesh,13.6288,79.4192,22.7,88,0.0,993.0,9.1,24.5,65,21.2,19.8,3,5,7,1,2026-03-16T02:03:54.754595+05:30
Warangal,Telangana,17.9689,79.5941,24.6,79,0.0,979.2,8.6,33.1,74,14.8,13.8,3,5,7,1,2026-03-16T02:03:54.754602+05:30
Nizamabad,Telangana,18.6725,78.0941,25.9,56,0.0,964.4,8.45,27.0,126,40.9,36.6,4,5,7,1,2026-03-16T02:03:54.754610+05:30
Mysore,Karnataka,12.2958,76.6396,21.5,90,0.0,928.7,9.35,32.8,90,38.1,35.7,3,5,7,1,2026-03-16T02:03:54.754618+05:30
Mangalore,Karnataka,12.9141,74.856,28.8,77,0.0,1007.2,9.0,24.5,83,29.8,26.0,7,5,4,1,2026-03-16T02:03:54.754625+05:30
Hubli-Dharwad,Karnataka,15.3647,75.124,22.6,87,0.0,941.3,8.95,37.4,108,36.3,34.5,3,5,7,1,2026-03-16T02:03:54.754631+05:30
Belgaum,Karnataka,15.8497,74.4977,21.7,96,0.0,925.9,9.0,37.4,116,48.0,33.9,3,5,7,1,2026-03-16T02:03:58.034110+05:30
Coimbatore,Tamil Nadu,11.0168,76.9558,23.0,92,0.0,962.2,9.3,42.5,70,34.2,31.7,3,5,7,1,2026-03-16T02:03:58.034136+05:30
Madurai,Tamil Nadu,9.9252,78.1198,24.6,81,0.0,994.1,9.3,19.1,53,17.1,16.0,3,5,7,1,2026-03-16T02:03:58.034144+05:30
Trichy,Tamil Nadu,10.7905,78.7047,24.5,94,0.0,1000.9,9.2,21.2,52,13.1,11.8,3,5,4,1,2026-03-16T02:03:58.034151+05:30
Salem,Tamil Nadu,11.6643,78.146,23.8,86,0.0,978.1,9.25,13.7,69,22.0,21.4,3,5,7,1,2026-03-16T02:03:58.034158+05:30
Tirunelveli,Tamil Nadu,8.7139,77.7567,24.9,87,0.0,1004.0,9.3,46.1,50,17.7,16.4,3,5,4,1,2026-03-16T02:03:58.034165+05:30
Vellore,Tamil Nadu,12.9165,79.1325,22.0,82,0.0,985.7,9.15,36.7,87,34.2,32.2,3,5,7,1,2026-03-16T02:03:58.034171+05:30
Erode,Tamil Nadu,11.341,77.7172,25.1,85,0.0,990.2,9.25,24.5,50,10.6,9.8,7,5,7,1,2026-03-16T02:03:58.034177+05:30
Kochi,Kerala,9.9312,76.2673,27.5,81,0.0,1009.4,9.1,34.6,77,43.2,42.6,7,0,4,1,2026-03-16T02:03:58.034183+05:30
Thiruvananthapuram,Kerala,8.5241,76.9366,27.7,80,0.0,1008.2,9.15,30.6,57,11.5,8.9,7,0,4,1,2026-03-16T02:03:58.034189+05:30
Kozhikode,Kerala,11.2588,75.7804,27.4,83,0.0,1008.5,9.0,29.2,66,25.5,21.5,7,0,4,1,2026-03-16T02:03:58.034195+05:30
Thrissur,Kerala,10.5276,76.2144,26.6,87,0.0,1007.6,9.05,37.8,75,43.0,41.1,7,5,4,1,2026-03-16T02:03:58.034201+05:30
Kannur,Kerala,11.8745,75.3704,27.1,85,0.0,1007.7,9.0,31.7,78,24.9,22.0,7,5,4,1,2026-03-16T02:03:58.034207+05:30
Patna,Bihar,25.5941,85.1376,22.9,84,0.1,1001.3,7.55,38.2,159,82.9,66.8,6,5,4,1,2026-03-16T02:03:58.034213+05:30
Gaya,Bihar,24.7914,85.0002,21.5,88,0.0,995.3,7.65,68.0,135,61.2,47.4,3,5,7,1,2026-03-16T02:03:58.034219+05:30
Muzaffarpur,Bihar,26.1209,85.3647,20.5,83,0.0,1001.7,7.5,29.9,159,96.9,80.8,3,5,4,1,2026-03-16T02:03:58.034225+05:30
Bhagalpur,Bihar,25.2425,87.0117,22.8,91,0.0,1000.6,7.55,41.8,151,72.9,61.0,3,5,4,1,2026-03-16T02:03:58.034231+05:30
Ranchi,Jharkhand,23.3441,85.3096,20.7,87,0.0,937.2,7.7,62.6,129,50.9,46.3,3,5,7,1,2026-03-16T02:03:58.034237+05:30
Jamshedpur,Jharkhand,22.8046,86.2029,23.5,82,0.0,990.7,8.05,55.4,130,63.1,55.5,3,5,7,1,2026-03-16T02:03:58.034242+05:30
Dhanbad,Jharkhand,23.7957,86.4304,23.2,82,0.0,979.0,7.55,32.0,160,76.8,70.5,3,5,7,1,2026-03-16T02:03:58.034248+05:30
Bokaro,Jharkhand,23.6693,86.1511,24.0,74,0.0,983.0,7.25,31.7,154,67.1,60.8,3,5,7,1,2026-03-16T02:03:58.034254+05:30
Bhubaneswar,Odisha,20.2961,85.8245,25.0,88,0.0,1003.5,8.5,37.8,57,14.5,11.8,7,5,4,1,2026-03-16T02:03:58.034260+05:30
Cuttack,Odisha,20.4625,85.8828,24.7,89,0.0,1005.4,8.5,40.7,57,14.5,11.8,3,5,4,1,2026-03-16T02:03:58.034266+05:30
Rourkela,Odisha,22.2604,84.8536,24.8,81,0.0,985.2,8.0,52.2,137,65.4,57.3,3,5,7,1,2026-03-16T02:03:58.034272+05:30
Raipur,Chhattisgarh,21.2514,81.6296,23.3,69,0.0,974.6,8.25,46.4,132,55.9,51.2,3,5,7,1,2026-03-16T02:03:58.034278+05:30
Bhilai,Chhattisgarh,21.1938,81.3509,24.7,65,0.0,974.8,8.25,45.0,127,56.6,51.2,3,5,7,1,2026-03-16T02:03:58.034283+05:30
Guwahati,Assam,26.1158,91.7086,20.4,90,0.0,1003.5,7.15,34.2,65,13.0,10.9,3,5,4,1,2026-03-16T02:03:58.034289+05:30
Agartala,Tripura,23.8315,91.2868,21.3,94,0.0,1007.4,7.85,45.0,57,14.8,12.7,3,5,4,1,2026-03-16T02:03:58.034295+05:30
Shillong,Meghalaya,25.5788,91.8933,12.5,92,0.0,855.0,7.9,69.8,51,4.8,4.0,3,10,7,0,2026-03-16T02:03:58.034301+05:30
Imphal,Manipur,24.817,93.9368,14.7,93,0.2,924.1,8.15,77.4,85,45.2,37.8,6,10,7,0,2026-03-16T02:03:58.034307+05:30
Aizawl,Mizoram,23.7271,92.7176,15.3,91,0.0,893.1,8.1,63.0,78,27.0,19.9,3,10,7,0,2026-03-16T02:03:58.034313+05:30
Kohima,Nagaland,25.6701,94.1077,14.1,78,0.0,853.8,7.05,96.5,69,32.4,26.5,3,5,7,0,2026-03-16T02:03:58.034318+05:30
Gangtok,Sikkim,27.3314,88.6138,11.4,76,0.0,833.5,7.8,20.9,103,61.2,40.2,3,5,7,0,2026-03-16T02:03:58.034324+05:30
Siliguri,West Bengal,26.7271,88.3953,18.8,85,0.0,993.6,6.75,30.6,131,81.7,58.3,3,10,7,1,2026-03-16T02:04:01.319977+05:30
Durgapur,West Bengal,23.5204,87.3119,23.5,94,0.0,994.3,7.85,42.5,142,64.0,61.5,3,5,7,1,2026-03-16T02:04:01.320009+05:30
Asansol,West Bengal,23.6739,86.9524,23.6,91,0.0,992.6,7.8,35.6,150,70.3,65.9,3,5,7,1,2026-03-16T02:04:01.320022+05:30
Pondicherry,Puducherry,11.9139,79.8145,23.9,95,0.0,1009.6,9.05,32.0,32,9.2,6.3,3,0,4,1,2026-03-16T02:04:01.320029+05:30
Port Blair,Andaman and Nicobar Islands,11.6234,92.7265,27.6,81,0.0,1007.2,9.0,20.2,78,15.8,12.7,7,5,4,1,2026-03-16T02:04:01.320036+05:30
Haridwar,Uttarakhand,29.9457,78.1642,17.0,83,0.1,978.6,5.85,36.0,78,27.0,17.0,6,10,3,0,2026-03-16T02:04:01.320043+05:30
Rishikesh,Uttarakhand,30.0869,78.2676,16.1,86,0.2,970.9,5.95,29.5,65,24.1,14.1,6,10,3,0,2026-03-16T02:04:01.320051+05:30
Nainital,Uttarakhand,29.3919,79.4542,14.1,56,0.0,804.7,6.75,83.9,70,24.3,14.9,0,5,7,0,2026-03-16T02:04:01.320058+05:30
Mussoorie,Uttarakhand,30.4599,78.0664,9.5,81,0.0,800.5,6.25,47.9,70,26.5,13.7,3,10,7,0,2026-03-16T02:04:01.320065+05:30
Dharamshala,Himachal Pradesh,32.219,76.3234,12.4,69,0.0,867.0,6.05,32.8,45,12.6,5.0,3,5,7,0,2026-03-16T02:04:01.320071+05:30
Dalhousie,Himachal Pradesh,32.5387,75.971,8.3,70,0.0,799.5,3.9,31.7,71,37.7,23.1,3,5,3,0,2026-03-16T02:04:01.320078+05:30
Patiala,Punjab,30.3398,76.3869,13.9,93,0.0,980.2,5.9,43.6,101,126.7,32.9,3,10,3,0,2026-03-16T02:04:01.320084+05:30
Bhatinda,Punjab,30.211,74.9455,15.2,95,0.0,984.6,6.6,32.0,106,257.0,62.6,3,10,7,0,2026-03-16T02:04:01.320091+05:30
Rohtak,Haryana,28.8955,76.6066,16.5,88,0.0,983.8,6.15,46.4,315,603.5,88.9,3,10,7,0,2026-03-16T02:04:01.320098+05:30
Panipat,Haryana,29.3909,76.9635,15.9,87,0.0,982.9,5.9,45.0,186,633.3,79.2,3,10,3,0,2026-03-16T02:04:01.320105+05:30
Mathura,Uttar Pradesh,27.4924,77.6737,17.5,90,0.0,987.8,6.4,34.6,352,841.9,108.5,3,10,7,0,2026-03-16T02:04:01.320111+05:30
Vrindavan,Uttar Pradesh,27.5823,77.7027,17.1,90,0.0,988.6,6.35,37.1,352,841.9,108.5,3,10,7,0,2026-03-16T02:04:01.320118+05:30
Ayodhya,Uttar Pradesh,26.7922,82.1998,18.9,73,0.0,995.9,6.6,51.5,111,44.8,34.0,3,5,7,0,2026-03-16T02:04:01.320124+05:30
Ratlam,Madhya Pradesh,23.3315,75.0367,24.1,43,0.0,954.4,7.6,34.9,67,35.7,18.7,0,5,7,0,2026-03-16T02:04:01.320130+05:30
Sagar,Madhya Pradesh,23.8388,78.7378,25.1,39,0.0,948.9,7.6,30.2,57,29.0,17.6,4,5,7,0,2026-03-16T02:04:01.320137+05:30
Satna,Madhya Pradesh,24.6005,80.8322,22.9,62,0.0,971.1,7.6,42.1,75,50.1,35.4,3,5,7,0,2026-03-16T02:04:01.320143+05:30
Akola,Maharashtra,20.7002,77.0082,25.6,50,0.0,974.6,8.0,24.8,79,32.8,21.9,4,5,7,0,2026-03-16T02:04:01.320150+05:30
Amravati,Maharashtra,20.9374,77.7796,23.9,58,0.0,966.5,7.8,30.2,84,32.5,24.0,0,5,7,0,2026-03-16T02:04:01.320157+05:30
Latur,Maharashtra,18.4088,76.5604,22.9,55,0.0,939.9,8.55,20.2,102,46.8,39.9,0,5,7,0,2026-03-16T02:04:01.320163+05:30
Nanded,Maharashtra,19.1383,77.3091,24.2,60,0.0,968.1,8.25,20.2,122,68.5,60.8,0,5,7,0,2026-03-16T02:04:01.320169+05:30
Gulbarga,Karnataka,17.3297,76.8343,25.3,61,0.0,958.9,8.65,34.6,109,44.8,38.2,7,5,7,1,2026-03-16T02:04:01.320175+05:30
Bidar,Karnataka,17.9104,77.5199,23.7,65,0.0,935.4,8.65,32.0,101,38.6,33.5,3,5,7,1,2026-03-16T02:04:01.320180+05:30
Hospet,Karnataka,15.2689,76.3909,25.7,78,0.0,956.8,8.9,21.2,117,53.0,48.9,7,5,7,1,2026-03-16T02:04:01.320186+05:30
Tirupur,Tamil Nadu,11.1085,77.3411,25.0,85,0.0,975.9,9.3,46.1,59,20.4,19.4,7,5,7,1,2026-03-16T02:04:01.320192+05:30
Alappuzha,Kerala,9.4981,76.3388,26.5,87,0.0,1009.5,9.1,30.6,71,29.7,28.0,7,0,4,1,2026-03-16T02:04:01.320198+05:30
Munnar,Kerala,10.0889,77.0595,18.9,91,0.0,856.1,9.6,32.4,60,26.7,24.6,3,10,7,1,2026-03-16T02:04:01.320204+05:30
Silchar,Assam,24.8333,92.7789,19.9,93,0.0,1008.0,7.9,42.5,89,37.3,34.6,3,5,4,1,2026-03-16T02:04:01.320210+05:30
Dibrugarh,Assam,27.4728,94.912,18.2,94,0.1,997.4,5.0,29.5,73,30.0,22.6,6,10,3,1,2026-03-16T02:04:01.320217+05:30
