city,state,latitude,longitude,temp,humidity,rain,pressure,uv_index,wind_gusts,aqi,pm10,pm2_5,mosquito_risk,arthritis_risk,migraine_risk,frizz_risk,updated_at
Delhi,Delhi,28.6139,77.209,42.2,13,0.0,982.4,7.25,50.4,343,257.0,46.9,0,5,10,0,2026-04-25T12:52:13.067483+05:30
Mumbai,Maharashtra,19.076,72.8777,38.1,40,0.0,1006.8,8.0,44.6,79,44.6,32.9,0,5,7,1,2026-04-25T12:52:13.067534+05:30
Bangalore,Karnataka,12.9716,77.5946,34.7,21,0.0,913.6,9.5,37.1,73,34.5,25.7,0,5,7,0,2026-04-25T12:52:13.067550+05:30
Hyderabad,Telangana,17.385,78.4867,37.6,20,0.0,954.4,9.3,31.7,123,49.7,41.4,0,5,10,0,2026-04-25T12:52:13.067561+05:30
Chennai,Tamil Nadu,13.0827,80.2707,35.0,53,0.0,1007.0,9.3,51.1,30,13.2,9.0,0,5,4,1,2026-04-25T12:52:13.067571+05:30
Kolkata,West Bengal,22.5726,88.3639,38.8,41,0.0,1004.9,8.45,43.9,80,44.6,34.6,0,5,7,1,2026-04-25T12:52:13.067584+05:30
Pune,Maharashtra,18.5204,73.8567,39.8,12,0.0,948.9,8.45,37.8,99,32.0,25.1,0,5,10,0,2026-04-25T12:52:13.067592+05:30
Ahmedabad,Gujarat,23.0225,72.5714,40.7,21,0.0,1001.8,8.2,24.1,62,71.5,20.5,0,5,7,0,2026-04-25T12:52:13.067601+05:30
Jaipur,Rajasthan,26.9124,75.7873,41.8,12,0.0,960.9,8.05,31.0,126,156.0,31.1,0,5,10,0,2026-04-25T12:52:13.067609+05:30
Lucknow,Uttar Pradesh,26.8467,80.9462,43.8,11,0.0,991.0,7.9,43.6,129,184.9,40.2,0,5,10,0,2026-04-25T12:52:13.067617+05:30
Kanpur,Uttar Pradesh,26.4499,80.3319,43.9,11,0.0,989.6,7.95,45.4,143,309.2,42.0,0,5,10,0,2026-04-25T12:52:13.067625+05:30
Chandigarh,Chandigarh,30.7333,76.7794,38.0,21,0.0,969.6,7.25,58.3,66,61.7,17.3,0,5,10,0,2026-04-25T12:52:13.067632+05:30
Srinagar,Jammu and Kashmir,34.0837,74.7973,18.6,61,0.0,847.8,8.6,36.7,71,54.7,14.5,3,5,7,0,2026-04-25T12:52:13.067641+05:30
Jammu,Jammu and Kashmir,32.7266,74.857,36.2,20,0.0,974.6,8.2,27.7,78,89.2,20.7,0,5,10,0,2026-04-25T12:52:13.067648+05:30
Amritsar,Punjab,31.634,74.8723,38.5,19,0.0,981.6,8.1,33.5,85,128.1,30.4,0,5,10,0,2026-04-25T12:52:13.067658+05:30
Ludhiana,Punjab,30.901,75.8573,39.2,17,0.0,979.6,7.7,48.6,77,90.3,23.5,0,5,10,0,2026-04-25T12:52:13.067667+05:30
Jalandhar,Punjab,31.326,75.5762,37.5,23,0.0,980.6,7.85,38.5,87,115.9,27.4,0,5,10,0,2026-04-25T12:52:13.067674+05:30
Dehradun,Uttarakhand,30.6284,78.0322,25.9,31,0.0,835.2,7.85,52.9,54,41.0,11.1,4,5,7,0,2026-04-25T12:52:13.067682+05:30
Shimla,Himachal Pradesh,31.1048,77.1734,24.6,23,0.0,791.0,7.45,55.8,56,44.6,11.4,0,5,7,0,2026-04-25T12:52:13.067689+05:30
Manali,Himachal Pradesh,32.2396,77.1887,21.5,38,0.0,823.0,9.85,43.9,83,35.3,9.2,0,5,7,0,2026-04-25T12:52:13.067696+05:30
Gurgaon,Haryana,28.4595,77.0266,40.8,15,0.0,981.4,7.45,51.1,865,746.9,88.5,0,5,10,0,2026-04-25T12:52:13.067703+05:30
Noida,Uttar Pradesh,28.5355,77.391,41.8,15,0.0,983.6,7.3,43.9,865,746.9,88.5,0,5,10,0,2026-04-25T12:52:13.067709+05:30
Ghaziabad,Uttar Pradesh,28.6692,77.4538,41.8,14,0.0,982.0,7.25,50.8,174,196.5,39.2,0,5,10,0,2026-04-25T12:52:13.067715+05:30
Faridabad,Haryana,28.4089,77.3178,41.6,13,0.0,982.9,7.35,52.6,865,746.9,88.5,0,5,10,0,2026-04-25T12:52:13.067722+05:30
Meerut,Uttar Pradesh,28.9845,77.7064,39.5,22,0.0,980.9,7.35,55.4,174,196.5,39.2,0,5,10,0,2026-04-25T12:52:13.067728+05:30
Agra,Uttar Pradesh,27.1767,78.0081,42.2,14,0.0,987.0,7.8,45.0,264,464.7,61.7,0,5,10,0,2026-04-25T12:52:13.067737+05:30
Varanasi,Uttar Pradesh,25.3176,82.9739,43.4,11,0.0,995.4,8.5,41.0,124,176.0,36.7,0,5,10,0,2026-04-25T12:52:13.067744+05:30
Prayagraj,Uttar Pradesh,25.4358,81.8463,42.5,12,0.0,994.3,8.4,29.5,92,191.4,39.9,0,5,10,0,2026-04-25T12:52:13.067751+05:30
Gorakhpur,Uttar Pradesh,26.7606,83.3732,39.7,23,0.0,996.4,8.35,41.4,154,138.3,56.6,0,5,10,0,2026-04-25T12:52:13.067757+05:30
Bareilly,Uttar Pradesh,28.367,79.4304,40.7,18,0.0,985.1,7.7,48.2,114,83.6,32.0,0,5,10,0,2026-04-25T12:52:13.067765+05:30
Aligarh,Uttar Pradesh,27.8974,78.088,42.1,14,0.0,984.6,7.6,47.9,332,321.3,47.8,0,5,10,0,2026-04-25T12:52:13.067772+05:30
Moradabad,Uttar Pradesh,28.8386,78.7733,39.8,21,0.0,982.6,7.5,49.3,156,69.4,46.2,0,5,10,0,2026-04-25T12:52:13.067781+05:30
Saharanpur,Uttar Pradesh,29.9637,77.546,36.9,25,0.0,976.2,7.1,53.6,100,84.8,23.9,0,5,10,0,2026-04-25T12:52:13.067787+05:30
Jhansi,Uttar Pradesh,25.4484,78.5685,43.2,11,0.0,977.4,8.3,29.5,57,94.3,21.4,0,5,10,0,2026-04-25T12:52:16.304488+05:30
Surat,Gujarat,21.1702,72.8311,42.2,18,0.0,1005.7,7.85,36.7,100,74.5,46.1,0,5,7,0,2026-04-25T12:52:16.304523+05:30
Vadodara,Gujarat,22.3072,73.1812,41.3,20,0.0,1003.7,8.15,25.2,82,71.2,26.6,0,5,7,0,2026-04-25T12:52:16.304534+05:30
Rajkot,Gujarat,22.3039,70.8022,40.0,18,0.0,994.7,7.9,33.1,48,62.9,17.3,0,5,10,0,2026-04-25T12:52:16.304541+05:30
Thane,Maharashtra,19.2183,72.9781,43.3,12,0.0,1005.9,8.0,47.5,79,44.6,32.9,0,5,7,0,2026-04-25T12:52:16.304548+05:30
Nagpur,Maharashtra,21.1458,79.0882,42.9,10,0.0,973.2,8.9,29.9,97,32.4,24.2,0,5,10,0,2026-04-25T12:52:16.304556+05:30
Nashik,Maharashtra,19.9975,73.7898,40.0,13,0.0,946.6,8.25,31.7,78,27.6,17.3,0,5,10,0,2026-04-25T12:52:16.304563+05:30
Aurangabad,Maharashtra,19.8762,75.3433,40.5,12,0.0,945.6,8.75,29.5,81,32.7,19.7,0,5,10,0,2026-04-25T12:52:16.304569+05:30
Solapur,Maharashtra,17.6599,75.9064,40.2,16,0.0,957.6,8.65,24.8,116,46.3,38.0,0,5,10,0,2026-04-25T12:52:16.304577+05:30
Kolhapur,Maharashtra,16.705,74.2433,38.5,19,0.0,948.8,9.05,34.2,150,48.9,40.0,0,5,10,0,2026-04-25T12:52:16.304584+05:30
Goa,Goa,15.2993,74.124,39.0,41,0.0,996.6,8.95,32.0,76,29.0,23.1,0,5,10,1,2026-04-25T12:52:16.304590+05:30
Jodhpur,Rajasthan,26.2389,73.0243,42.5,12,0.0,983.4,8.3,27.4,102,207.7,39.3,0,5,10,0,2026-04-25T12:52:16.304597+05:30
Udaipur,Rajasthan,24.5854,73.7125,39.3,15,0.0,948.3,8.8,42.5,56,63.8,16.1,0,5,10,0,2026-04-25T12:52:16.304604+05:30
Kota,Rajasthan,25.2138,75.8648,42.5,13,0.0,978.8,8.3,32.8,69,131.8,31.1,0,5,10,0,2026-04-25T12:52:16.304610+05:30
Bikaner,Rajasthan,28.0229,73.3119,42.4,12,0.0,982.2,8.15,33.8,68,104.5,26.3,0,5,10,0,2026-04-25T12:52:16.304617+05:30
Ajmer,Rajasthan,26.4499,74.6399,40.4,13,0.0,956.5,8.25,33.5,72,143.9,28.4,0,5,10,0,2026-04-25T12:52:16.304623+05:30
Gwalior,Madhya Pradesh,26.2183,78.1828,42.8,11,0.0,982.5,8.05,39.6,82,243.1,42.8,0,5,10,0,2026-04-25T12:52:16.304629+05:30
Indore,Madhya Pradesh,22.7196,75.8577,41.0,10,0.0,949.4,8.65,32.4,53,33.9,11.7,0,5,10,0,2026-04-25T12:52:16.304635+05:30
Bhopal,Madhya Pradesh,23.2599,77.4126,41.7,9,0.0,954.6,8.65,30.6,55,27.5,9.6,0,5,10,0,2026-04-25T12:52:16.304642+05:30
Jabalpur,Madhya Pradesh,23.1815,79.9864,41.7,10,0.0,962.1,8.75,32.0,56,16.6,8.8,0,5,10,0,2026-04-25T12:52:16.304648+05:30
Ujjain,Madhya Pradesh,23.1765,75.7885,41.0,12,0.0,954.9,8.55,29.2,55,48.8,14.2,0,5,10,0,2026-04-25T12:52:16.304655+05:30
Visakhapatnam,Andhra Pradesh,17.6868,83.2185,34.6,52,0.0,1003.6,8.7,44.3,61,21.5,16.6,0,5,4,1,2026-04-25T12:52:16.304662+05:30
Vijayawada,Andhra Pradesh,16.5062,80.648,39.2,35,0.0,1002.1,8.65,34.2,52,18.8,13.5,0,5,7,1,2026-04-25T12:52:16.304668+05:30
Guntur,Andhra Pradesh,16.3067,80.4365,38.6,35,0.0,1003.4,8.7,40.0,55,21.3,15.8,0,5,7,1,2026-04-25T12:52:16.304675+05:30
Nellore,Andhra Pradesh,14.4426,79.9865,39.5,31,0.0,1005.0,9.2,42.1,41,20.7,15.2,0,5,7,1,2026-04-25T12:52:16.304682+05:30
Kurnool,Andhra Pradesh,15.8281,78.0373,41.5,15,0.0,976.6,8.9,32.8,81,37.1,30.3,0,5,10,0,2026-04-25T12:52:16.304689+05:30
Kakinada,Andhra Pradesh,16.9891,82.2475,39.3,33,0.0,1006.6,8.45,39.6,41,15.3,10.0,0,5,7,1,2026-04-25T12:52:16.304695+05:30
Tirupati,Andhra Pradesh,13.6288,79.4192,39.2,23,0.0,990.8,9.35,37.4,57,22.1,17.2,0,5,10,0,2026-04-25T12:52:16.304701+05:30
Warangal,Telangana,17.9689,79.5941,39.2,27,0.0,979.4,8.9,28.1,109,41.0,33.9,0,5,10,1,2026-04-25T12:52:16.304707+05:30
Nizamabad,Telangana,18.6725,78.0941,40.0,16,0.0,965.5,9.05,27.7,118,31.9,22.8,0,5,10,0,2026-04-25T12:52:16.304714+05:30
Mysore,Karnataka,12.2958,76.6396,33.7,29,0.0,929.5,8.85,44.6,88,25.1,19.8,0,5,7,0,2026-04-25T12:52:16.304720+05:30
Mangalore,Karnataka,12.9141,74.856,33.4,66,0.0,1005.7,9.1,41.4,64,27.8,22.6,3,5,4,1,2026-04-25T12:52:16.304726+05:30
Hubli-Dharwad,Karnataka,15.3647,75.124,37.4,22,0.0,941.9,9.1,37.8,101,39.1,31.4,0,5,10,0,2026-04-25T12:52:16.304732+05:30
Belgaum,Karnataka,15.8497,74.4977,36.8,20,0.0,927.1,9.15,37.1,110,49.1,39.3,0,5,10,0,2026-04-25T12:52:19.529405+05:30
Coimbatore,Tamil Nadu,11.0168,76.9558,37.3,25,0.0,961.7,8.9,46.4,74,18.3,14.0,0,5,10,0,2026-04-25T12:52:19.529439+05:30
Madurai,Tamil Nadu,9.9252,78.1198,38.7,27,0.0,992.1,9.1,39.6,52,14.6,12.6,0,5,10,1,2026-04-25T12:52:19.529449+05:30
Trichy,Tamil Nadu,10.7905,78.7047,37.2,35,0.0,998.7,9.3,33.1,49,13.3,10.7,0,5,10,1,2026-04-25T12:52:19.529458+05:30
Salem,Tamil Nadu,11.6643,78.146,38.3,25,0.0,976.8,9.0,42.1,59,19.0,15.0,0,5,10,0,2026-04-25T12:52:19.529465+05:30
Tirunelveli,Tamil Nadu,8.7139,77.7567,38.7,27,0.0,1001.9,9.2,40.7,66,12.7,11.6,0,5,7,1,2026-04-25T12:52:19.529473+05:30
Vellore,Tamil Nadu,12.9165,79.1325,38.3,27,0.0,984.3,9.25,36.0,80,22.6,18.9,0,5,10,0,2026-04-25T12:52:19.529480+05:30
Erode,Tamil Nadu,11.341,77.7172,38.5,25,0.0,988.3,9.25,46.1,49,13.5,10.3,0,5,10,0,2026-04-25T12:52:19.529488+05:30
Kochi,Kerala,9.9312,76.2673,33.1,61,0.0,1007.4,8.05,39.2,93,26.0,23.4,3,5,4,1,2026-04-25T12:52:19.529496+05:30
Thiruvananthapuram,Kerala,8.5241,76.9366,30.9,75,0.0,1007.3,8.2,33.1,58,21.1,18.2,3,5,4,1,2026-04-25T12:52:19.529503+05:30
Kozhikode,Kerala,11.2588,75.7804,33.3,61,0.0,1006.4,8.55,37.1,70,26.5,23.1,3,5,4,1,2026-04-25T12:52:19.529510+05:30
Thrissur,Kerala,10.5276,76.2144,36.2,40,0.0,1005.2,8.15,44.3,88,19.3,17.0,0,5,7,1,2026-04-25T12:52:19.529517+05:30
Kannur,Kerala,11.8745,75.3704,33.5,60,0.0,1006.1,8.55,40.7,72,24.7,20.5,0,5,4,1,2026-04-25T12:52:19.529524+05:30
Patna,Bihar,25.5941,85.1376,41.0,22,0.0,998.5,8.65,60.1,151,109.4,61.9,0,5,10,0,2026-04-25T12:52:19.529531+05:30
Gaya,Bihar,24.7914,85.0002,41.8,12,0.0,992.3,8.7,48.2,108,108.0,27.8,0,5,10,0,2026-04-25T12:52:19.529537+05:30
Muzaffarpur,Bihar,26.1209,85.3647,34.2,58,0.0,1000.4,8.65,34.6,155,105.0,64.5,0,5,4,1,2026-04-25T12:52:19.529543+05:30
Bhagalpur,Bihar,25.2425,87.0117,37.2,49,0.0,1000.0,8.6,52.9,154,114.1,58.9,0,5,7,1,2026-04-25T12:52:19.529549+05:30
Ranchi,Jharkhand,23.3441,85.3096,37.3,16,0.0,939.1,9.2,28.8,119,59.0,28.4,0,5,10,0,2026-04-25T12:52:19.529557+05:30
Jamshedpur,Jharkhand,22.8046,86.2029,42.5,13,0.0,989.6,8.9,35.3,136,83.4,59.3,0,5,10,0,2026-04-25T12:52:19.529563+05:30
Dhanbad,Jharkhand,23.7957,86.4304,41.3,16,0.0,979.1,8.95,42.1,156,98.5,75.7,0,5,10,0,2026-04-25T12:52:19.529569+05:30
Bokaro,Jharkhand,23.6693,86.1511,41.3,15,0.0,982.7,9.0,34.6,156,95.7,58.8,0,5,10,0,2026-04-25T12:52:19.529575+05:30
Bhubaneswar,Odisha,20.2961,85.8245,35.5,59,0.0,1002.4,9.1,41.0,69,29.2,22.5,0,5,7,1,2026-04-25T12:52:19.529582+05:30
Cuttack,Odisha,20.4625,85.8828,36.4,57,0.0,1004.0,9.15,37.8,69,29.2,22.5,0,5,7,1,2026-04-25T12:52:19.529588+05:30
Rourkela,Odisha,22.2604,84.8536,42.0,15,0.0,984.2,8.6,45.0,136,58.7,47.6,0,5,10,0,2026-04-25T12:52:19.529594+05:30
Raipur,Chhattisgarh,21.2514,81.6296,42.5,11,0.0,974.4,9.0,31.0,118,36.9,29.6,0,5,10,0,2026-04-25T12:52:19.529599+05:30
Bhilai,Chhattisgarh,21.1938,81.3509,42.1,11,0.0,974.9,9.0,35.6,120,34.6,25.8,0,5,10,0,2026-04-25T12:52:19.529605+05:30
Guwahati,Assam,26.1158,91.7086,31.5,61,0.0,1001.8,8.55,42.1,161,104.1,63.6,3,5,4,1,2026-04-25T12:52:19.529610+05:30
Agartala,Tripura,23.8315,91.2868,36.8,42,0.0,1005.1,8.75,35.6,153,68.9,38.8,0,5,7,1,2026-04-25T12:52:19.529617+05:30
Shillong,Meghalaya,25.5788,91.8933,25.2,46,0.0,860.7,8.2,27.0,146,93.4,46.2,4,5,7,0,2026-04-25T12:52:19.529624+05:30
Imphal,Manipur,24.817,93.9368,32.5,35,0.0,924.2,9.1,34.2,155,85.0,39.3,0,5,7,0,2026-04-25T12:52:19.529630+05:30
Aizawl,Mizoram,23.7271,92.7176,33.4,21,0.0,895.2,8.95,37.8,121,84.5,30.4,0,5,7,0,2026-04-25T12:52:19.529637+05:30
Kohima,Nagaland,25.6701,94.1077,24.2,72,0.0,858.5,8.8,38.2,155,109.7,54.8,3,5,7,1,2026-04-25T12:52:19.529643+05:30
Gangtok,Sikkim,27.3314,88.6138,21.2,58,0.0,840.9,8.8,41.4,97,42.7,26.4,0,5,7,0,2026-04-25T12:52:19.529649+05:30
Siliguri,West Bengal,26.7271,88.3953,30.5,61,0.0,994.2,8.45,29.2,151,86.4,51.0,3,5,7,1,2026-04-25T12:52:22.764879+05:30
Durgapur,West Bengal,23.5204,87.3119,37.0,51,0.0,994.1,8.9,38.2,142,88.2,63.3,0,5,10,1,2026-04-25T12:52:22.764912+05:30
Asansol,West Bengal,23.6739,86.9524,38.8,41,0.0,992.6,8.95,38.9,140,85.9,67.5,0,5,10,1,2026-04-25T12:52:22.764924+05:30
Pondicherry,Puducherry,11.9139,79.8145,33.2,57,0.0,1008.3,9.15,44.6,24,11.4,7.6,0,0,4,1,2026-04-25T12:52:22.764931+05:30
Port Blair,Andaman and Nicobar Islands,11.6234,92.7265,34.2,50,0.0,1006.7,9.15,32.4,35,16.2,9.8,0,5,4,1,2026-04-25T12:52:22.764938+05:30
Haridwar,Uttarakhand,29.9457,78.1642,36.6,29,0.0,973.9,7.2,32.8,78,68.7,19.1,0,5,10,0,2026-04-25T12:52:22.764945+05:30
Rishikesh,Uttarakhand,30.0869,78.2676,35.8,28,0.0,966.8,7.35,37.4,64,58.6,16.2,0,5,10,0,2026-04-25T12:52:22.764952+05:30
Nainital,Uttarakhand,29.3919,79.4542,25.0,28,0.0,810.8,8.15,43.6,75,41.1,18.0,4,5,7,0,2026-04-25T12:52:22.764959+05:30
Mussoorie,Uttarakhand,30.4599,78.0664,24.1,30,0.0,808.3,7.75,58.7,67,54.7,15.7,0,5,7,0,2026-04-25T12:52:22.764965+05:30
Dharamshala,Himachal Pradesh,32.219,76.3234,28.4,22,0.0,873.7,7.55,59.0,48,49.2,10.5,4,5,7,0,2026-04-25T12:52:22.764972+05:30
Dalhousie,Himachal Pradesh,32.5387,75.971,23.3,28,0.0,810.5,8.1,45.7,57,64.7,15.0,0,5,7,0,2026-04-25T12:52:22.764979+05:30
Patiala,Punjab,30.3398,76.3869,39.5,15,0.0,978.8,7.35,56.2,403,517.8,56.0,0,5,10,0,2026-04-25T12:52:22.764986+05:30
Bhatinda,Punjab,30.211,74.9455,38.4,17,0.0,985.0,8.0,46.1,85,116.4,29.3,0,5,10,0,2026-04-25T12:52:22.764992+05:30
Rohtak,Haryana,28.8955,76.6066,40.8,15,0.0,982.0,7.45,54.4,574,367.9,55.2,0,5,10,0,2026-04-25T12:52:22.764998+05:30
Panipat,Haryana,29.3909,76.9635,42.2,13,0.0,979.7,7.15,51.1,990,696.6,75.2,0,5,10,0,2026-04-25T12:52:22.765004+05:30
Mathura,Uttar Pradesh,27.4924,77.6737,41.8,15,0.0,986.1,7.65,45.0,361,440.5,60.3,0,5,10,0,2026-04-25T12:52:22.765010+05:30
Vrindavan,Uttar Pradesh,27.5823,77.7027,41.8,15,0.0,986.5,7.55,45.0,361,440.5,60.3,0,5,10,0,2026-04-25T12:52:22.765016+05:30
Ayodhya,Uttar Pradesh,26.7922,82.1998,42.3,14,0.0,992.9,8.1,38.5,136,178.8,50.1,0,5,10,0,2026-04-25T12:52:22.765022+05:30
Ratlam,Madhya Pradesh,23.3315,75.0367,41.0,13,0.0,955.7,8.45,25.9,54,46.2,13.6,0,5,10,0,2026-04-25T12:52:22.765028+05:30
Sagar,Madhya Pradesh,23.8388,78.7378,40.8,12,0.0,951.4,8.65,29.9,67,25.1,10.5,0,5,10,0,2026-04-25T12:52:22.765034+05:30
Satna,Madhya Pradesh,24.6005,80.8322,42.0,11,0.0,971.2,8.7,43.9,60,151.8,30.2,0,5,10,0,2026-04-25T12:52:22.765039+05:30
Akola,Maharashtra,20.7002,77.0082,42.0,13,0.0,975.3,8.7,23.8,74,26.1,12.0,0,5,10,0,2026-04-25T12:52:22.765046+05:30
Amravati,Maharashtra,20.9374,77.7796,41.6,12,0.0,967.7,8.5,27.7,76,25.4,11.4,0,5,10,0,2026-04-25T12:52:22.765052+05:30
Latur,Maharashtra,18.4088,76.5604,39.6,14,0.0,941.2,8.8,32.8,102,31.5,24.8,0,5,10,0,2026-04-25T12:52:22.765059+05:30
Nanded,Maharashtra,19.1383,77.3091,41.5,13,0.0,968.9,8.6,28.1,106,27.4,18.5,0,5,10,0,2026-04-25T12:52:22.765064+05:30
Gulbarga,Karnataka,17.3297,76.8343,39.6,18,0.0,959.6,9.15,26.6,116,51.3,42.3,0,5,10,0,2026-04-25T12:52:22.765070+05:30
Bidar,Karnataka,17.9104,77.5199,38.2,18,0.0,937.4,8.9,27.0,120,43.9,36.7,0,5,10,0,2026-04-25T12:52:22.765076+05:30
Hospet,Karnataka,15.2689,76.3909,36.7,30,0.0,956.6,9.3,27.4,95,39.2,31.5,0,5,10,1,2026-04-25T12:52:22.765082+05:30
Tirupur,Tamil Nadu,11.1085,77.3411,38.5,24,0.0,974.7,9.4,42.1,55,14.8,11.4,0,5,10,0,2026-04-25T12:52:22.765088+05:30
Alappuzha,Kerala,9.4981,76.3388,31.4,74,0.0,1007.6,8.05,36.7,88,30.0,27.3,3,5,4,1,2026-04-25T12:52:22.765094+05:30
Munnar,Kerala,10.0889,77.0595,26.5,35,0.0,859.1,9.15,31.7,61,9.3,7.6,4,5,7,0,2026-04-25T12:52:22.765100+05:30
Silchar,Assam,24.8333,92.7789,34.5,52,0.0,1004.0,8.75,21.6,159,131.8,53.4,0,5,4,1,2026-04-25T12:52:22.765106+05:30
Dibrugarh,Assam,27.4728,94.912,27.5,71,0.0,996.8,8.6,31.7,96,68.0,33.3,7,5,7,1,2026-04-25T12:52:22.765112+05:30
