city,state,latitude,longitude,temp,humidity,rain,pressure,uv_index,wind_gusts,aqi,pm10,pm2_5,no2,co,o3,so2,mosquito_risk,arthritis_risk,migraine_risk,frizz_risk,updated_at
Delhi,Delhi,28.6139,77.209,42.3,13,0.0,977.7,7.75,38.5,613,517.8,76.8,4.2,274.0,187.0,10.5,0,5,10,0,2026-05-27T15:27:39.237594+05:30
Mumbai,Maharashtra,19.076,72.8777,34.0,53,0.0,1008.1,7.8,40.3,38,15.8,11.9,4.5,181.0,99.0,5.3,0,0,4,1,2026-05-27T15:27:39.237641+05:30
Bangalore,Karnataka,12.9716,77.5946,30.0,51,0.0,911.8,9.25,29.9,77,23.5,18.5,4.0,364.0,149.0,3.5,4,5,7,1,2026-05-27T15:27:39.237657+05:30
Hyderabad,Telangana,17.385,78.4867,35.4,40,0.0,951.6,8.95,36.0,70,25.7,19.2,2.4,260.0,158.0,5.8,0,5,10,1,2026-05-27T15:27:39.237667+05:30
Chennai,Tamil Nadu,13.0827,80.2707,35.9,49,0.0,1004.0,9.0,36.0,91,38.6,31.4,3.6,325.0,204.0,6.8,0,5,7,1,2026-05-27T15:27:39.237675+05:30
Kolkata,West Bengal,22.5726,88.3639,34.7,63,0.0,1000.7,8.9,41.0,114,54.2,36.3,2.4,300.0,122.0,7.2,3,5,4,1,2026-05-27T15:27:39.237683+05:30
Pune,Maharashtra,18.5204,73.8567,36.1,35,0.0,948.1,8.3,43.9,40,15.0,10.0,1.8,171.0,119.0,6.1,0,5,10,1,2026-05-27T15:27:39.237689+05:30
Ahmedabad,Gujarat,23.0225,72.5714,42.0,22,0.0,999.1,8.15,36.0,73,63.6,21.7,1.5,152.0,103.0,3.3,0,5,10,0,2026-05-27T15:27:39.237695+05:30
Jaipur,Rajasthan,26.9124,75.7873,42.8,13,0.0,956.7,8.25,47.2,164,310.1,53.7,1.0,155.0,120.0,3.6,0,5,10,0,2026-05-27T15:27:39.237709+05:30
Lucknow,Uttar Pradesh,26.8467,80.9462,42.9,14,0.0,986.7,8.2,36.0,155,128.5,36.3,1.9,259.0,205.0,11.4,0,5,10,0,2026-05-27T15:27:39.237715+05:30
Kanpur,Uttar Pradesh,26.4499,80.3319,42.9,13,0.0,985.3,8.2,40.3,306,413.5,68.2,1.7,191.0,204.0,11.3,0,5,10,0,2026-05-27T15:27:39.237721+05:30
Chandigarh,Chandigarh,30.7333,76.7794,40.7,13,0.0,963.7,7.75,37.8,138,18.2,11.5,2.2,264.0,188.0,8.2,0,5,10,0,2026-05-27T15:27:39.237728+05:30
Srinagar,Jammu and Kashmir,34.0837,74.7973,28.0,29,0.0,843.3,9.0,20.9,88,34.6,12.9,1.2,312.0,145.0,2.2,4,5,7,0,2026-05-27T15:27:39.237735+05:30
Jammu,Jammu and Kashmir,32.7266,74.857,41.6,12,0.0,966.7,8.6,58.0,96,39.9,15.9,1.6,207.0,156.0,2.5,0,5,10,0,2026-05-27T15:27:39.237741+05:30
Amritsar,Punjab,31.634,74.8723,42.6,12,0.0,974.9,8.45,31.3,101,39.7,16.2,1.8,203.0,163.0,5.8,0,5,10,0,2026-05-27T15:27:39.237747+05:30
Ludhiana,Punjab,30.901,75.8573,42.3,13,0.0,973.1,8.0,40.3,111,62.6,17.2,1.4,225.0,166.0,3.1,0,5,10,0,2026-05-27T15:27:39.237753+05:30
Jalandhar,Punjab,31.326,75.5762,42.1,14,0.0,974.1,8.2,38.9,115,71.9,19.5,1.4,254.0,172.0,4.4,0,5,10,0,2026-05-27T15:27:39.237759+05:30
Dehradun,Uttarakhand,30.6284,78.0322,25.6,39,0.0,831.0,8.2,33.5,112,20.4,13.2,1.1,231.0,185.0,4.4,4,5,7,0,2026-05-27T15:27:39.237765+05:30
Shimla,Himachal Pradesh,31.1048,77.1734,26.0,19,0.0,788.0,8.3,64.1,116,26.4,11.7,1.0,173.0,162.0,3.6,4,5,7,0,2026-05-27T15:27:39.237774+05:30
Manali,Himachal Pradesh,32.2396,77.1887,25.4,30,0.0,820.6,9.9,51.5,128,27.4,16.8,7.0,130.0,169.0,0.4,4,5,7,0,2026-05-27T15:27:39.237797+05:30
Gurgaon,Haryana,28.4595,77.0266,41.8,13,0.0,976.5,7.85,39.2,886,1337.4,162.5,4.1,239.0,189.0,9.1,0,5,10,0,2026-05-27T15:27:39.237804+05:30
Noida,Uttar Pradesh,28.5355,77.391,42.3,13,0.0,978.8,7.75,31.7,886,1337.4,162.5,4.1,280.0,189.0,9.1,0,5,10,0,2026-05-27T15:27:39.237810+05:30
Ghaziabad,Uttar Pradesh,28.6692,77.4538,42.0,14,0.0,977.2,7.75,35.3,385,356.7,60.8,3.2,209.0,200.0,12.4,0,5,10,0,2026-05-27T15:27:39.237818+05:30
Faridabad,Haryana,28.4089,77.3178,42.3,12,0.0,978.3,7.8,39.6,886,1337.4,162.5,4.1,247.0,189.0,9.1,0,5,10,0,2026-05-27T15:27:39.237823+05:30
Meerut,Uttar Pradesh,28.9845,77.7064,41.0,15,0.0,976.1,7.65,36.7,385,356.7,60.8,3.2,189.0,200.0,12.4,0,5,10,0,2026-05-27T15:27:39.237829+05:30
Agra,Uttar Pradesh,27.1767,78.0081,43.0,12,0.0,982.3,8.05,38.5,566,817.7,101.5,1.8,168.0,186.0,9.2,0,5,10,0,2026-05-27T15:27:39.237835+05:30
Varanasi,Uttar Pradesh,25.3176,82.9739,39.8,34,0.0,991.0,8.65,41.0,157,122.9,49.1,2.4,357.0,227.0,16.4,0,5,10,1,2026-05-27T15:27:39.237841+05:30
Prayagraj,Uttar Pradesh,25.4358,81.8463,43.7,14,0.0,988.4,8.55,53.6,163,142.0,47.3,2.1,178.0,215.0,12.9,0,5,10,0,2026-05-27T15:27:39.237848+05:30
Gorakhpur,Uttar Pradesh,26.7606,83.3732,36.4,41,0.0,992.2,8.55,42.1,138,66.6,36.6,1.9,331.0,190.0,11.0,0,5,10,1,2026-05-27T15:27:39.237856+05:30
Bareilly,Uttar Pradesh,28.367,79.4304,38.5,21,0.0,981.0,8.0,31.7,134,60.1,27.8,1.8,304.0,211.0,9.7,0,5,10,0,2026-05-27T15:27:39.237862+05:30
Aligarh,Uttar Pradesh,27.8974,78.088,41.2,15,0.0,980.2,7.9,38.9,580,769.3,102.2,2.4,217.0,210.0,11.2,0,5,10,0,2026-05-27T15:27:39.237868+05:30
Moradabad,Uttar Pradesh,28.8386,78.7733,38.0,23,0.0,978.2,7.85,32.0,148,54.2,33.9,2.9,255.0,240.0,15.4,0,5,10,0,2026-05-27T15:27:39.237874+05:30
Saharanpur,Uttar Pradesh,29.9637,77.546,38.6,20,0.0,970.6,7.4,34.9,139,87.8,23.3,2.7,208.0,213.0,12.3,0,5,10,0,2026-05-27T15:27:39.237880+05:30
Jhansi,Uttar Pradesh,25.4484,78.5685,43.2,16,0.0,973.0,8.45,52.2,70,73.1,24.0,0.8,135.0,118.0,4.1,0,5,10,0,2026-05-27T15:27:42.514973+05:30
Surat,Gujarat,21.1702,72.8311,35.2,49,0.0,1005.5,7.7,45.4,70,69.8,29.7,12.7,282.0,67.0,40.2,0,5,7,1,2026-05-27T15:27:42.515010+05:30
Vadodara,Gujarat,22.3072,73.1812,40.7,28,0.0,1001.7,8.05,41.8,69,75.2,27.6,1.5,158.0,105.0,3.5,0,5,7,1,2026-05-27T15:27:42.515020+05:30
Rajkot,Gujarat,22.3039,70.8022,41.8,23,0.0,992.0,7.75,46.4,70,61.9,23.1,1.0,124.0,104.0,4.1,0,5,10,1,2026-05-27T15:27:42.515029+05:30
Thane,Maharashtra,19.2183,72.9781,35.6,47,0.0,1007.1,7.8,37.8,38,15.8,11.9,4.5,168.0,99.0,5.3,0,5,7,1,2026-05-27T15:27:42.515037+05:30
Nagpur,Maharashtra,21.1458,79.0882,42.8,15,0.0,969.6,8.9,44.3,75,50.8,22.2,3.6,165.0,136.0,13.0,0,5,10,0,2026-05-27T15:27:42.515044+05:30
Nashik,Maharashtra,19.9975,73.7898,36.0,35,0.0,945.7,8.1,40.3,29,18.1,8.7,0.9,143.0,83.0,0.9,0,5,10,1,2026-05-27T15:27:42.515051+05:30
Aurangabad,Maharashtra,19.8762,75.3433,38.8,25,0.0,943.7,9.0,42.1,37,23.7,11.9,1.0,141.0,112.0,2.7,0,5,10,0,2026-05-27T15:27:42.515058+05:30
Solapur,Maharashtra,17.6599,75.9064,37.5,29,0.0,956.1,8.1,37.4,47,15.1,10.6,1.2,152.0,125.0,3.5,0,5,10,1,2026-05-27T15:27:42.515065+05:30
Kolhapur,Maharashtra,16.705,74.2433,32.7,48,0.1,948.0,8.1,44.3,34,12.3,8.2,1.5,149.0,104.0,1.7,3,5,7,1,2026-05-27T15:27:42.515074+05:30
Goa,Goa,15.2993,74.124,31.9,70,0.1,997.7,7.1,27.0,37,7.7,5.6,0.7,153.0,66.0,1.0,6,5,7,1,2026-05-27T15:27:42.515081+05:30
Jodhpur,Rajasthan,26.2389,73.0243,42.5,19,0.0,979.7,8.45,42.8,149,329.7,54.8,0.7,128.0,102.0,2.0,0,5,10,0,2026-05-27T15:27:42.515088+05:30
Udaipur,Rajasthan,24.5854,73.7125,39.3,20,0.0,945.7,8.85,39.6,69,78.5,21.2,0.6,129.0,106.0,2.4,0,5,10,0,2026-05-27T15:27:42.515095+05:30
Kota,Rajasthan,25.2138,75.8648,44.0,16,0.0,975.1,8.4,41.8,79,105.9,27.2,0.8,137.0,116.0,3.9,0,5,10,0,2026-05-27T15:27:42.515101+05:30
Bikaner,Rajasthan,28.0229,73.3119,45.0,12,0.0,976.8,8.4,43.9,129,83.4,36.6,0.3,151.0,105.0,2.3,0,5,10,0,2026-05-27T15:27:42.515108+05:30
Ajmer,Rajasthan,26.4499,74.6399,40.2,20,0.0,952.9,8.4,56.2,73,88.0,24.0,0.6,129.0,103.0,2.5,0,5,10,0,2026-05-27T15:27:42.515116+05:30
Gwalior,Madhya Pradesh,26.2183,78.1828,43.5,14,0.0,977.8,8.25,53.6,78,155.1,37.8,0.7,137.0,144.0,5.3,0,5,10,0,2026-05-27T15:27:42.515122+05:30
Indore,Madhya Pradesh,22.7196,75.8577,39.0,23,0.0,947.2,8.6,46.1,65,46.1,18.9,1.0,162.0,117.0,4.0,0,5,10,0,2026-05-27T15:27:42.515129+05:30
Bhopal,Madhya Pradesh,23.2599,77.4126,41.8,15,0.0,951.5,8.65,39.6,66,33.1,13.9,0.7,155.0,119.0,2.9,0,5,10,0,2026-05-27T15:27:42.515135+05:30
Jabalpur,Madhya Pradesh,23.1815,79.9864,43.5,13,0.0,957.3,8.85,42.1,79,41.4,17.3,0.8,141.0,129.0,3.4,0,5,10,0,2026-05-27T15:27:42.515142+05:30
Ujjain,Madhya Pradesh,23.1765,75.7885,39.8,23,0.0,952.5,8.55,47.9,67,43.7,19.6,0.7,141.0,118.0,4.3,0,5,10,0,2026-05-27T15:27:42.515150+05:30
Visakhapatnam,Andhra Pradesh,17.6868,83.2185,42.8,26,0.0,996.8,9.05,40.7,144,97.6,79.4,16.7,446.0,288.0,70.8,0,5,10,1,2026-05-27T15:27:42.515157+05:30
Vijayawada,Andhra Pradesh,16.5062,80.648,40.0,32,0.0,998.2,8.35,41.0,99,42.0,26.1,2.0,210.0,161.0,5.5,0,5,10,1,2026-05-27T15:27:42.515164+05:30
Guntur,Andhra Pradesh,16.3067,80.4365,40.0,31,0.0,999.3,8.85,38.9,88,35.7,22.1,1.6,202.0,154.0,4.4,0,5,10,1,2026-05-27T15:27:42.515170+05:30
Nellore,Andhra Pradesh,14.4426,79.9865,37.2,39,0.0,1002.4,9.0,36.0,73,23.1,18.9,2.5,176.0,161.0,6.8,0,5,7,1,2026-05-27T15:27:42.515178+05:30
Kurnool,Andhra Pradesh,15.8281,78.0373,36.0,37,0.0,975.1,5.7,46.4,59,19.0,14.8,1.4,173.0,146.0,7.8,0,5,6,1,2026-05-27T15:27:42.515185+05:30
Kakinada,Andhra Pradesh,16.9891,82.2475,39.9,34,0.0,1001.6,9.05,49.0,140,47.8,32.7,3.3,245.0,195.0,4.9,0,5,7,1,2026-05-27T15:27:42.515192+05:30
Tirupati,Andhra Pradesh,13.6288,79.4192,37.1,37,0.0,988.2,8.8,34.2,72,26.2,18.8,1.5,196.0,137.0,2.9,0,5,10,1,2026-05-27T15:27:42.515199+05:30
Warangal,Telangana,17.9689,79.5941,38.7,35,0.0,975.4,9.0,43.6,98,36.9,22.1,1.6,192.0,149.0,5.7,0,5,10,1,2026-05-27T15:27:42.515205+05:30
Nizamabad,Telangana,18.6725,78.0941,38.3,33,0.0,963.0,8.5,41.8,77,19.2,12.3,1.1,165.0,129.0,3.6,0,5,10,1,2026-05-27T15:27:42.515212+05:30
Mysore,Karnataka,12.2958,76.6396,30.7,49,0.0,928.5,8.5,40.7,54,21.4,15.6,2.1,190.0,131.0,1.9,0,5,7,1,2026-05-27T15:27:42.515218+05:30
Mangalore,Karnataka,12.9141,74.856,29.5,78,0.0,1007.0,8.05,29.5,55,13.6,8.7,1.1,126.0,75.0,1.5,7,5,4,1,2026-05-27T15:27:42.515225+05:30
Hubli-Dharwad,Karnataka,15.3647,75.124,31.0,57,0.0,940.6,5.75,36.0,33,8.4,6.4,1.4,149.0,100.0,1.0,0,5,3,1,2026-05-27T15:27:42.515232+05:30
Belgaum,Karnataka,15.8497,74.4977,30.6,54,0.0,926.7,7.45,36.7,32,11.6,8.2,1.4,147.0,94.0,1.5,0,5,7,1,2026-05-27T15:27:45.785918+05:30
Coimbatore,Tamil Nadu,11.0168,76.9558,31.9,55,0.0,961.3,8.85,53.3,41,13.1,9.8,1.6,166.0,108.0,2.3,0,5,7,1,2026-05-27T15:27:45.785955+05:30
Madurai,Tamil Nadu,9.9252,78.1198,36.7,41,0.0,990.6,8.4,41.4,95,35.2,24.1,2.5,196.0,164.0,3.5,0,5,10,1,2026-05-27T15:27:45.785966+05:30
Trichy,Tamil Nadu,10.7905,78.7047,38.2,33,0.0,996.8,8.3,52.2,58,18.4,14.2,1.8,166.0,127.0,2.7,0,5,10,1,2026-05-27T15:27:45.785975+05:30
Salem,Tamil Nadu,11.6643,78.146,38.4,32,0.0,975.2,8.35,40.0,76,23.2,18.8,2.8,180.0,167.0,8.7,0,5,10,1,2026-05-27T15:27:45.785983+05:30
Tirunelveli,Tamil Nadu,8.7139,77.7567,34.1,52,0.1,1001.6,8.6,32.0,32,9.1,5.9,1.3,127.0,84.0,0.9,3,5,4,1,2026-05-27T15:27:45.785990+05:30
Vellore,Tamil Nadu,12.9165,79.1325,37.2,38,0.0,981.7,8.7,35.3,83,32.7,22.8,1.6,180.0,151.0,3.0,0,5,10,1,2026-05-27T15:27:45.785998+05:30
Erode,Tamil Nadu,11.341,77.7172,37.2,37,0.0,986.7,7.35,37.4,52,19.4,14.6,2.1,193.0,137.0,2.2,0,5,10,1,2026-05-27T15:27:45.786005+05:30
Kochi,Kerala,9.9312,76.2673,29.0,79,0.1,1009.3,7.75,29.5,54,7.9,5.8,2.2,117.0,79.0,2.3,10,0,4,1,2026-05-27T15:27:45.786013+05:30
Thiruvananthapuram,Kerala,8.5241,76.9366,28.5,81,0.1,1008.7,8.0,35.3,28,12.1,6.3,0.9,111.0,65.0,0.7,10,0,4,1,2026-05-27T15:27:45.786020+05:30
Kozhikode,Kerala,11.2588,75.7804,27.7,90,0.2,1008.8,8.0,30.2,31,7.0,4.4,0.4,118.0,66.0,0.5,10,0,4,1,2026-05-27T15:27:45.786027+05:30
Thrissur,Kerala,10.5276,76.2144,27.6,88,0.1,1007.8,8.15,28.8,52,8.3,6.3,1.7,122.0,84.0,2.0,10,5,4,1,2026-05-27T15:27:45.786035+05:30
Kannur,Kerala,11.8745,75.3704,27.8,86,0.2,1008.0,7.95,23.8,54,9.7,6.5,1.0,116.0,75.0,1.1,10,0,4,1,2026-05-27T15:27:45.786044+05:30
Patna,Bihar,25.5941,85.1376,34.5,48,0.0,995.7,8.75,46.8,108,44.9,33.2,2.9,399.0,186.0,14.5,0,5,7,1,2026-05-27T15:27:45.786051+05:30
Gaya,Bihar,24.7914,85.0002,36.8,40,0.0,988.4,8.8,35.6,134,40.7,31.7,2.5,343.0,193.0,12.7,0,5,10,1,2026-05-27T15:27:45.786060+05:30
Muzaffarpur,Bihar,26.1209,85.3647,31.8,60,0.0,996.3,8.75,46.4,116,47.1,36.0,2.8,335.0,179.0,13.9,0,5,7,1,2026-05-27T15:27:45.786067+05:30
Bhagalpur,Bihar,25.2425,87.0117,31.3,64,0.0,997.4,8.7,41.4,90,24.2,20.1,3.8,321.0,151.0,16.1,3,5,7,1,2026-05-27T15:27:45.786073+05:30
Ranchi,Jharkhand,23.3441,85.3096,33.2,37,0.1,934.8,9.2,31.7,126,48.5,19.1,1.2,161.0,151.0,5.4,3,5,7,1,2026-05-27T15:27:45.786080+05:30
Jamshedpur,Jharkhand,22.8046,86.2029,30.1,76,0.0,987.1,9.05,45.0,151,82.2,43.5,3.1,182.0,196.0,17.1,3,5,7,1,2026-05-27T15:27:45.786087+05:30
Dhanbad,Jharkhand,23.7957,86.4304,30.5,71,0.0,975.9,9.0,36.4,160,101.3,58.8,8.1,190.0,223.0,42.1,3,5,7,1,2026-05-27T15:27:45.786094+05:30
Bokaro,Jharkhand,23.6693,86.1511,33.2,58,0.0,979.3,9.0,45.0,156,81.0,28.8,6.6,180.0,158.0,25.9,0,5,7,1,2026-05-27T15:27:45.786100+05:30
Bhubaneswar,Odisha,20.2961,85.8245,37.8,54,0.0,995.7,9.05,46.8,100,63.1,41.7,2.4,261.0,156.0,9.3,0,5,10,1,2026-05-27T15:27:45.786107+05:30
Cuttack,Odisha,20.4625,85.8828,38.2,53,0.0,997.2,9.1,43.6,100,63.1,41.7,2.4,267.0,156.0,9.3,0,5,10,1,2026-05-27T15:27:45.786113+05:30
Rourkela,Odisha,22.2604,84.8536,35.0,48,0.0,981.1,8.95,50.0,149,70.8,36.9,1.9,212.0,196.0,11.0,0,5,7,1,2026-05-27T15:27:45.786120+05:30
Raipur,Chhattisgarh,21.2514,81.6296,43.2,15,0.0,969.7,8.95,43.6,100,55.2,25.8,4.6,151.0,159.0,19.8,0,5,10,0,2026-05-27T15:27:45.786126+05:30
Bhilai,Chhattisgarh,21.1938,81.3509,41.6,18,0.0,970.5,8.95,43.9,92,54.1,24.9,4.9,198.0,142.0,17.6,0,5,10,0,2026-05-27T15:27:45.786133+05:30
Guwahati,Assam,26.1158,91.7086,27.9,75,0.0,999.1,8.75,28.4,77,31.0,20.8,2.2,316.0,123.0,3.9,7,5,7,1,2026-05-27T15:27:45.786139+05:30
Agartala,Tripura,23.8315,91.2868,28.5,79,0.0,1003.4,8.85,38.2,79,34.3,22.9,6.0,210.0,108.0,2.0,7,5,4,1,2026-05-27T15:27:45.786146+05:30
Shillong,Meghalaya,25.5788,91.8933,20.8,81,0.0,856.0,9.05,36.7,49,22.8,14.6,2.4,237.0,102.0,2.3,3,5,7,1,2026-05-27T15:27:45.786152+05:30
Imphal,Manipur,24.817,93.9368,27.8,57,0.0,921.9,9.25,39.6,76,50.3,21.2,1.1,177.0,110.0,2.7,4,5,7,1,2026-05-27T15:27:45.786159+05:30
Aizawl,Mizoram,23.7271,92.7176,23.1,76,0.0,890.9,9.05,33.8,69,49.2,23.5,0.6,154.0,96.0,1.7,3,5,7,1,2026-05-27T15:27:45.786165+05:30
Kohima,Nagaland,25.6701,94.1077,21.0,93,0.1,855.4,8.7,29.2,63,34.3,15.0,0.8,186.0,108.0,2.1,6,5,7,1,2026-05-27T15:27:45.786172+05:30
Gangtok,Sikkim,27.3314,88.6138,19.1,87,0.0,837.4,9.1,38.5,74,28.8,19.0,1.8,235.0,133.0,2.9,3,10,7,1,2026-05-27T15:27:45.786179+05:30
Siliguri,West Bengal,26.7271,88.3953,27.2,79,0.1,990.8,8.65,30.2,89,48.2,23.9,1.8,338.0,149.0,4.7,10,5,7,1,2026-05-27T15:27:49.072895+05:30
Durgapur,West Bengal,23.5204,87.3119,28.9,86,0.6,990.9,8.85,34.9,158,110.4,86.1,11.5,727.0,238.0,54.8,10,5,7,1,2026-05-27T15:27:49.072934+05:30
Asansol,West Bengal,23.6739,86.9524,28.0,89,0.1,989.6,8.95,39.6,158,113.6,89.4,10.9,521.0,251.0,55.3,10,5,7,1,2026-05-27T15:27:49.072946+05:30
Pondicherry,Puducherry,11.9139,79.8145,33.0,60,0.0,1005.7,8.45,42.1,74,39.3,34.9,8.2,298.0,211.0,16.1,0,5,4,1,2026-05-27T15:27:49.072955+05:30
Port Blair,Andaman and Nicobar Islands,11.6234,92.7265,29.5,68,0.0,1005.0,8.3,37.1,36,9.1,6.2,0.5,122.0,76.0,0.4,7,5,4,1,2026-05-27T15:27:49.072963+05:30
Haridwar,Uttarakhand,29.9457,78.1642,37.2,26,0.0,969.0,7.55,37.4,139,17.9,15.1,1.7,250.0,211.0,8.2,0,5,10,0,2026-05-27T15:27:49.072972+05:30
Rishikesh,Uttarakhand,30.0869,78.2676,36.2,28,0.0,962.0,7.7,35.6,132,17.3,14.1,1.1,244.0,200.0,6.2,0,5,10,0,2026-05-27T15:27:49.072980+05:30
Nainital,Uttarakhand,29.3919,79.4542,23.5,49,0.0,806.5,8.5,32.8,135,37.6,20.2,1.4,259.0,189.0,8.2,0,5,7,0,2026-05-27T15:27:49.072988+05:30
Mussoorie,Uttarakhand,30.4599,78.0664,24.3,41,0.0,804.5,8.1,50.0,133,17.4,15.0,1.6,224.0,213.0,8.1,0,5,7,0,2026-05-27T15:27:49.072995+05:30
Dharamshala,Himachal Pradesh,32.219,76.3234,30.0,25,0.0,869.0,8.45,46.4,103,23.4,10.5,0.6,162.0,163.0,1.1,4,5,7,0,2026-05-27T15:27:49.073003+05:30
Dalhousie,Himachal Pradesh,32.5387,75.971,26.3,24,0.0,807.1,8.7,40.7,116,25.3,13.8,1.7,170.0,187.0,1.9,4,5,7,0,2026-05-27T15:27:49.073010+05:30
Patiala,Punjab,30.3398,76.3869,42.5,12,0.0,972.7,7.7,44.3,523,976.0,104.1,1.3,209.0,167.0,4.4,0,5,10,0,2026-05-27T15:27:49.073018+05:30
Bhatinda,Punjab,30.211,74.9455,43.8,11,0.0,978.1,8.35,32.8,105,49.0,16.5,1.8,213.0,164.0,6.5,0,5,10,0,2026-05-27T15:27:49.073025+05:30
Rohtak,Haryana,28.8955,76.6066,41.5,15,0.0,976.7,7.8,35.6,853,804.7,98.3,1.9,220.0,172.0,5.2,0,5,10,0,2026-05-27T15:27:49.073032+05:30
Panipat,Haryana,29.3909,76.9635,42.2,14,0.0,974.9,7.6,38.2,1576,1885.0,197.4,2.5,192.0,173.0,9.3,0,5,10,0,2026-05-27T15:27:49.073039+05:30
Mathura,Uttar Pradesh,27.4924,77.6737,42.8,12,0.0,981.5,8.0,37.8,519,786.0,93.1,1.6,193.0,170.0,4.9,0,5,10,0,2026-05-27T15:27:49.073046+05:30
Vrindavan,Uttar Pradesh,27.5823,77.7027,42.3,13,0.0,981.9,8.0,36.4,519,786.0,93.1,1.6,201.0,170.0,4.9,0,5,10,0,2026-05-27T15:27:49.073052+05:30
Ayodhya,Uttar Pradesh,26.7922,82.1998,36.7,40,0.0,989.8,8.3,36.4,144,86.4,36.4,1.7,360.0,200.0,11.3,0,5,10,1,2026-05-27T15:27:49.073058+05:30
Ratlam,Madhya Pradesh,23.3315,75.0367,39.0,28,0.0,953.7,8.5,48.2,67,46.4,21.7,0.6,133.0,118.0,4.7,0,5,10,1,2026-05-27T15:27:49.073064+05:30
Sagar,Madhya Pradesh,23.8388,78.7378,42.0,13,0.0,947.3,8.7,45.0,74,41.4,16.4,0.6,136.0,126.0,2.9,0,5,10,0,2026-05-27T15:27:49.073070+05:30
Satna,Madhya Pradesh,24.6005,80.8322,42.0,16,0.0,966.3,8.75,51.1,62,87.3,25.1,0.7,140.0,124.0,3.3,0,5,10,0,2026-05-27T15:27:49.073076+05:30
Akola,Maharashtra,20.7002,77.0082,41.5,19,0.0,972.6,8.85,45.4,57,38.2,17.1,1.3,142.0,118.0,5.8,0,5,10,0,2026-05-27T15:27:49.073084+05:30
Amravati,Maharashtra,20.9374,77.7796,41.7,18,0.0,964.8,8.85,43.6,60,40.3,17.7,1.5,150.0,121.0,6.2,0,5,10,0,2026-05-27T15:27:49.073092+05:30
Latur,Maharashtra,18.4088,76.5604,37.2,33,0.0,939.3,8.7,41.4,59,15.1,10.9,1.0,168.0,123.0,4.0,0,5,10,1,2026-05-27T15:27:49.073099+05:30
Nanded,Maharashtra,19.1383,77.3091,39.4,31,0.0,966.7,8.9,39.6,68,14.3,9.4,1.0,165.0,117.0,3.0,0,5,10,1,2026-05-27T15:27:49.073107+05:30
Gulbarga,Karnataka,17.3297,76.8343,37.3,30,0.0,957.3,5.0,41.4,48,19.8,13.6,1.6,167.0,136.0,3.9,0,5,6,1,2026-05-27T15:27:49.073114+05:30
Bidar,Karnataka,17.9104,77.5199,36.2,35,0.0,934.9,7.4,41.8,67,21.7,15.7,1.5,176.0,143.0,5.6,0,5,10,1,2026-05-27T15:27:49.073120+05:30
Hospet,Karnataka,15.2689,76.3909,31.8,54,0.0,955.2,6.7,38.5,41,10.5,7.8,1.6,164.0,114.0,2.6,0,5,7,1,2026-05-27T15:27:49.073127+05:30
Tirupur,Tamil Nadu,11.1085,77.3411,33.8,47,0.1,974.0,7.1,52.9,53,17.9,13.2,2.1,162.0,130.0,2.7,3,5,7,1,2026-05-27T15:27:49.073133+05:30
Alappuzha,Kerala,9.4981,76.3388,30.0,72,0.0,1009.3,7.65,29.2,38,8.1,5.5,1.7,102.0,71.0,1.2,7,0,4,1,2026-05-27T15:27:49.073140+05:30
Munnar,Kerala,10.0889,77.0595,19.5,99,0.1,858.1,8.5,27.0,47,20.6,13.1,1.2,138.0,101.0,1.7,6,10,7,1,2026-05-27T15:27:49.073147+05:30
Silchar,Assam,24.8333,92.7789,26.8,82,0.0,1002.5,8.9,43.6,99,43.1,25.0,1.2,206.0,114.0,3.8,7,5,4,1,2026-05-27T15:27:49.073154+05:30
Dibrugarh,Assam,27.4728,94.912,31.1,60,0.0,992.8,8.65,23.8,93,58.3,22.0,1.3,213.0,132.0,3.0,0,5,7,1,2026-05-27T15:27:49.073160+05:30
