city,state,latitude,longitude,temp,humidity,rain,pressure,uv_index,wind_gusts,aqi,pm10,pm2_5,mosquito_risk,arthritis_risk,migraine_risk,frizz_risk,updated_at
Delhi,Delhi,28.6139,77.209,28.4,36,0.0,986.1,6.45,28.4,154,510.4,68.7,4,5,7,0,2026-03-22T16:56:56.957653+05:30
Mumbai,Maharashtra,19.076,72.8777,28.8,62,0.0,1008.0,7.9,28.4,154,48.5,36.8,7,0,4,1,2026-03-22T16:56:56.957701+05:30
Bangalore,Karnataka,12.9716,77.5946,28.8,46,0.0,911.9,9.45,25.2,121,45.8,34.9,4,5,7,0,2026-03-22T16:56:56.957718+05:30
Hyderabad,Telangana,17.385,78.4867,32.2,35,0.0,953.3,8.9,26.6,123,52.6,33.1,0,5,7,0,2026-03-22T16:56:56.957728+05:30
Chennai,Tamil Nadu,13.0827,80.2707,30.9,58,0.0,1007.9,9.2,32.4,39,14.2,8.8,0,5,4,1,2026-03-22T16:56:56.957736+05:30
Kolkata,West Bengal,22.5726,88.3639,26.8,55,0.0,1008.7,8.25,16.6,150,39.0,35.4,4,0,4,1,2026-03-22T16:56:56.957745+05:30
Pune,Maharashtra,18.5204,73.8567,35.2,19,0.0,948.3,8.45,29.5,103,19.2,12.4,0,5,10,0,2026-03-22T16:56:56.957758+05:30
Ahmedabad,Gujarat,23.0225,72.5714,35.2,25,0.0,1003.1,7.55,22.7,79,42.3,14.9,0,5,7,0,2026-03-22T16:56:56.957766+05:30
Jaipur,Rajasthan,26.9124,75.7873,30.1,27,0.0,962.3,7.2,29.9,86,131.8,22.8,0,5,7,0,2026-03-22T16:56:56.957774+05:30
Lucknow,Uttar Pradesh,26.8467,80.9462,29.0,34,0.0,996.5,6.95,26.6,112,124.3,28.6,4,5,7,0,2026-03-22T16:56:56.957782+05:30
Kanpur,Uttar Pradesh,26.4499,80.3319,28.0,41,0.0,995.1,7.0,27.7,132,473.1,58.6,4,5,7,0,2026-03-22T16:56:56.957789+05:30
Chandigarh,Chandigarh,30.7333,76.7794,24.5,50,0.0,971.8,6.35,33.1,98,34.1,30.3,0,5,7,0,2026-03-22T16:56:56.957797+05:30
Srinagar,Jammu and Kashmir,34.0837,74.7973,17.2,35,0.0,842.0,7.5,14.0,143,17.5,8.6,0,5,7,0,2026-03-22T16:56:56.957804+05:30
Jammu,Jammu and Kashmir,32.7266,74.857,26.0,43,0.0,975.6,6.85,22.0,101,24.9,19.4,4,5,7,0,2026-03-22T16:56:56.957811+05:30
Amritsar,Punjab,31.634,74.8723,25.7,47,0.0,984.2,7.0,20.5,157,55.4,32.5,4,5,7,0,2026-03-22T16:56:56.957818+05:30
Ludhiana,Punjab,30.901,75.8573,25.0,47,0.0,982.2,6.6,26.6,131,53.8,34.2,4,5,7,0,2026-03-22T16:56:56.957825+05:30
Jalandhar,Punjab,31.326,75.5762,25.1,49,0.0,983.3,6.75,21.6,150,85.7,36.2,4,5,7,0,2026-03-22T16:56:56.957834+05:30
Dehradun,Uttarakhand,30.6284,78.0322,15.1,71,0.0,830.4,6.8,24.1,101,21.9,17.8,3,5,7,0,2026-03-22T16:56:56.957842+05:30
Shimla,Himachal Pradesh,31.1048,77.1734,13.0,67,0.0,784.8,6.85,41.0,87,24.7,20.4,3,5,7,0,2026-03-22T16:56:56.957849+05:30
Manali,Himachal Pradesh,32.2396,77.1887,17.8,37,0.0,819.4,8.85,33.8,134,16.5,7.9,0,5,7,0,2026-03-22T16:56:56.957856+05:30
Gurgaon,Haryana,28.4595,77.0266,28.1,40,0.0,984.6,6.55,23.8,429,1218.2,124.3,4,5,7,0,2026-03-22T16:56:56.957863+05:30
Noida,Uttar Pradesh,28.5355,77.391,28.5,37,0.0,987.5,6.45,27.7,429,1218.2,124.3,4,5,7,0,2026-03-22T16:56:56.957870+05:30
Ghaziabad,Uttar Pradesh,28.6692,77.4538,28.0,40,0.0,985.6,6.45,28.1,146,431.2,63.8,4,5,7,0,2026-03-22T16:56:56.957879+05:30
Faridabad,Haryana,28.4089,77.3178,28.2,38,0.0,986.8,6.5,24.8,429,1218.2,124.3,4,5,7,0,2026-03-22T16:56:56.957886+05:30
Meerut,Uttar Pradesh,28.9845,77.7064,27.5,40,0.0,984.3,6.3,31.7,146,431.2,63.8,4,5,7,0,2026-03-22T16:56:56.957893+05:30
Agra,Uttar Pradesh,27.1767,78.0081,30.4,30,0.0,990.7,6.65,29.9,560,698.5,70.1,0,5,7,0,2026-03-22T16:56:56.957900+05:30
Varanasi,Uttar Pradesh,25.3176,82.9739,27.8,42,0.0,1000.9,7.1,28.4,103,23.5,17.9,4,5,4,0,2026-03-22T16:56:56.957909+05:30
Prayagraj,Uttar Pradesh,25.4358,81.8463,28.1,40,0.0,999.5,7.5,24.8,118,34.5,20.6,4,5,7,0,2026-03-22T16:56:56.957917+05:30
Gorakhpur,Uttar Pradesh,26.7606,83.3732,26.1,53,0.0,1000.7,7.25,11.2,159,25.7,21.1,4,5,4,0,2026-03-22T16:56:56.957924+05:30
Bareilly,Uttar Pradesh,28.367,79.4304,27.5,40,0.0,989.6,6.65,29.5,110,41.6,26.4,4,5,7,0,2026-03-22T16:56:56.957931+05:30
Aligarh,Uttar Pradesh,27.8974,78.088,28.8,36,0.0,988.7,6.6,27.7,261,990.9,111.5,4,5,7,0,2026-03-22T16:56:56.957938+05:30
Moradabad,Uttar Pradesh,28.8386,78.7733,27.3,40,0.0,986.4,6.5,30.6,135,52.3,27.2,4,5,7,0,2026-03-22T16:56:56.957947+05:30
Saharanpur,Uttar Pradesh,29.9637,77.546,26.6,38,0.0,978.3,6.15,34.2,142,240.3,49.8,4,5,7,0,2026-03-22T16:56:56.957953+05:30
Jhansi,Uttar Pradesh,25.4484,78.5685,30.0,33,0.0,981.0,7.45,32.4,80,58.8,16.6,4,5,7,0,2026-03-22T16:57:00.302855+05:30
Surat,Gujarat,21.1702,72.8311,32.8,35,0.0,1007.5,7.65,24.5,102,52.5,30.2,0,5,4,0,2026-03-22T16:57:00.302888+05:30
Vadodara,Gujarat,22.3072,73.1812,36.3,23,0.0,1004.9,7.8,20.2,98,40.5,19.4,0,5,7,0,2026-03-22T16:57:00.302900+05:30
Rajkot,Gujarat,22.3039,70.8022,34.6,30,0.0,995.7,7.6,28.8,63,60.8,17.8,0,5,7,0,2026-03-22T16:57:00.302910+05:30
Thane,Maharashtra,19.2183,72.9781,31.9,45,0.0,1007.7,7.85,41.0,154,48.5,36.8,0,5,4,1,2026-03-22T16:57:00.302919+05:30
Nagpur,Maharashtra,21.1458,79.0882,32.9,19,0.0,974.5,8.35,19.4,97,25.0,13.8,0,5,7,0,2026-03-22T16:57:00.302926+05:30
Nashik,Maharashtra,19.9975,73.7898,32.5,24,0.0,946.1,8.05,28.8,74,21.7,9.1,0,5,7,0,2026-03-22T16:57:00.302933+05:30
Aurangabad,Maharashtra,19.8762,75.3433,32.9,24,0.0,944.6,8.6,28.4,100,16.9,10.6,0,5,7,0,2026-03-22T16:57:00.302939+05:30
Solapur,Maharashtra,17.6599,75.9064,35.4,19,0.0,956.8,8.75,24.5,94,27.2,14.0,0,5,10,0,2026-03-22T16:57:00.302946+05:30
Kolhapur,Maharashtra,16.705,74.2433,32.8,27,0.0,947.5,8.85,33.1,91,28.2,15.7,0,5,7,0,2026-03-22T16:57:00.302953+05:30
Goa,Goa,15.2993,74.124,30.9,62,0.0,997.1,8.85,35.3,123,34.1,21.8,3,5,7,1,2026-03-22T16:57:00.302961+05:30
Jodhpur,Rajasthan,26.2389,73.0243,31.1,35,0.0,985.5,7.55,39.2,67,101.3,21.4,0,5,7,0,2026-03-22T16:57:00.302968+05:30
Udaipur,Rajasthan,24.5854,73.7125,30.1,25,0.0,948.3,8.15,26.6,64,36.0,10.9,0,5,7,0,2026-03-22T16:57:00.302974+05:30
Kota,Rajasthan,25.2138,75.8648,33.5,19,0.0,980.4,7.45,12.6,92,40.3,20.5,0,5,7,0,2026-03-22T16:57:00.302981+05:30
Bikaner,Rajasthan,28.0229,73.3119,28.8,44,0.0,984.8,7.2,22.3,65,75.4,18.7,4,5,7,0,2026-03-22T16:57:00.302987+05:30
Ajmer,Rajasthan,26.4499,74.6399,29.8,29,0.0,956.7,7.5,25.9,71,42.6,12.1,4,5,7,0,2026-03-22T16:57:00.302994+05:30
Gwalior,Madhya Pradesh,26.2183,78.1828,29.7,36,0.0,986.5,7.15,29.9,136,58.4,16.4,4,5,7,0,2026-03-22T16:57:00.303001+05:30
Indore,Madhya Pradesh,22.7196,75.8577,30.7,25,0.0,949.9,8.05,17.6,81,27.1,12.7,0,5,7,0,2026-03-22T16:57:00.303007+05:30
Bhopal,Madhya Pradesh,23.2599,77.4126,30.8,22,0.0,955.7,7.95,25.9,86,28.3,12.8,0,5,7,0,2026-03-22T16:57:00.303014+05:30
Jabalpur,Madhya Pradesh,23.1815,79.9864,29.4,30,0.0,963.9,8.05,29.9,85,42.8,15.0,4,5,7,0,2026-03-22T16:57:00.303020+05:30
Ujjain,Madhya Pradesh,23.1765,75.7885,30.7,29,0.0,955.7,8.0,13.3,68,28.3,12.4,0,5,7,0,2026-03-22T16:57:00.303027+05:30
Visakhapatnam,Andhra Pradesh,17.6868,83.2185,29.2,67,0.0,1005.1,8.85,36.7,81,27.2,20.0,7,5,4,1,2026-03-22T16:57:00.303033+05:30
Vijayawada,Andhra Pradesh,16.5062,80.648,32.1,51,0.0,1003.2,8.9,18.7,65,30.4,21.0,0,5,4,1,2026-03-22T16:57:00.303040+05:30
Guntur,Andhra Pradesh,16.3067,80.4365,31.2,58,0.0,1004.5,8.9,19.4,70,29.7,19.4,0,5,4,1,2026-03-22T16:57:00.303047+05:30
Nellore,Andhra Pradesh,14.4426,79.9865,32.3,52,0.0,1006.3,9.05,27.7,51,18.7,12.2,0,5,4,1,2026-03-22T16:57:00.303054+05:30
Kurnool,Andhra Pradesh,15.8281,78.0373,35.7,29,0.0,975.9,8.95,20.2,89,39.6,24.9,0,5,10,0,2026-03-22T16:57:00.303061+05:30
Kakinada,Andhra Pradesh,16.9891,82.2475,30.7,61,0.0,1008.6,8.3,28.8,40,18.2,11.0,3,0,4,1,2026-03-22T16:57:00.303067+05:30
Tirupati,Andhra Pradesh,13.6288,79.4192,33.4,38,0.0,991.2,9.2,28.4,74,25.3,17.2,0,5,7,1,2026-03-22T16:57:00.303074+05:30
Warangal,Telangana,17.9689,79.5941,32.4,42,0.0,979.2,8.75,21.2,116,46.0,29.9,0,5,7,1,2026-03-22T16:57:00.303080+05:30
Nizamabad,Telangana,18.6725,78.0941,33.3,32,0.0,964.9,8.65,27.4,103,20.2,13.3,0,5,7,0,2026-03-22T16:57:00.303086+05:30
Mysore,Karnataka,12.2958,76.6396,32.6,34,0.0,927.8,9.4,37.4,121,36.4,24.9,0,5,7,0,2026-03-22T16:57:00.303093+05:30
Mangalore,Karnataka,12.9141,74.856,29.4,73,0.0,1005.5,9.05,28.4,96,38.8,21.0,7,5,4,1,2026-03-22T16:57:00.303099+05:30
Hubli-Dharwad,Karnataka,15.3647,75.124,33.8,25,0.0,940.0,9.05,26.3,133,27.1,17.2,0,5,7,0,2026-03-22T16:57:00.303106+05:30
Belgaum,Karnataka,15.8497,74.4977,32.5,26,0.0,925.4,9.1,35.3,125,29.1,16.9,0,5,7,0,2026-03-22T16:57:03.646069+05:30
Coimbatore,Tamil Nadu,11.0168,76.9558,33.8,31,0.0,960.8,9.4,33.5,108,32.2,22.0,0,5,7,0,2026-03-22T16:57:03.646099+05:30
Madurai,Tamil Nadu,9.9252,78.1198,35.5,34,0.0,991.6,9.35,29.5,63,23.6,14.2,0,5,10,1,2026-03-22T16:57:03.646109+05:30
Trichy,Tamil Nadu,10.7905,78.7047,34.8,40,0.0,998.7,9.25,23.8,64,22.7,15.6,0,5,7,1,2026-03-22T16:57:03.646117+05:30
Salem,Tamil Nadu,11.6643,78.146,34.3,36,0.0,976.6,9.3,21.2,85,33.6,22.8,0,5,7,1,2026-03-22T16:57:03.646125+05:30
Tirunelveli,Tamil Nadu,8.7139,77.7567,35.5,35,0.0,1001.8,9.3,33.1,86,19.3,13.3,0,5,7,1,2026-03-22T16:57:03.646132+05:30
Vellore,Tamil Nadu,12.9165,79.1325,33.5,39,0.0,984.1,9.25,34.9,94,25.8,18.1,0,5,7,1,2026-03-22T16:57:03.646157+05:30
Erode,Tamil Nadu,11.341,77.7172,35.2,36,0.0,987.9,9.3,32.8,69,26.4,17.6,0,5,10,1,2026-03-22T16:57:03.646165+05:30
Kochi,Kerala,9.9312,76.2673,29.5,74,0.0,1007.0,9.15,34.9,104,29.0,20.4,7,5,4,1,2026-03-22T16:57:03.646172+05:30
Thiruvananthapuram,Kerala,8.5241,76.9366,29.3,74,0.0,1007.0,9.15,26.3,98,16.6,13.2,7,5,4,1,2026-03-22T16:57:03.646179+05:30
Kozhikode,Kerala,11.2588,75.7804,30.2,74,0.0,1006.7,9.05,31.0,61,31.7,17.5,3,5,4,1,2026-03-22T16:57:03.646186+05:30
Thrissur,Kerala,10.5276,76.2144,32.1,60,0.0,1005.5,9.15,38.2,85,36.1,24.8,0,5,4,1,2026-03-22T16:57:03.646192+05:30
Kannur,Kerala,11.8745,75.3704,30.9,68,0.0,1006.2,9.1,34.9,67,34.3,18.5,3,5,4,1,2026-03-22T16:57:03.646199+05:30
Patna,Bihar,25.5941,85.1376,26.3,45,0.0,1003.9,7.7,19.1,161,37.7,32.5,4,5,4,0,2026-03-22T16:57:03.646206+05:30
Gaya,Bihar,24.7914,85.0002,25.4,56,0.0,997.3,7.8,21.6,145,32.1,25.1,4,5,7,0,2026-03-22T16:57:03.646212+05:30
Muzaffarpur,Bihar,26.1209,85.3647,25.3,52,0.0,1004.0,7.0,11.5,163,36.7,31.0,4,5,4,0,2026-03-22T16:57:03.646219+05:30
Bhagalpur,Bihar,25.2425,87.0117,24.6,58,0.0,1004.8,7.05,17.3,155,46.2,39.2,0,5,4,0,2026-03-22T16:57:03.646225+05:30
Ranchi,Jharkhand,23.3441,85.3096,24.2,37,0.0,939.6,8.45,29.5,112,52.5,18.6,0,5,7,0,2026-03-22T16:57:03.646232+05:30
Jamshedpur,Jharkhand,22.8046,86.2029,28.5,35,0.0,993.3,8.35,19.1,118,43.2,15.3,4,5,7,0,2026-03-22T16:57:03.646238+05:30
Dhanbad,Jharkhand,23.7957,86.4304,26.3,40,0.0,982.4,8.2,23.8,138,37.4,23.4,4,5,7,0,2026-03-22T16:57:03.646245+05:30
Bokaro,Jharkhand,23.6693,86.1511,26.4,39,0.0,986.4,8.25,24.5,136,47.6,24.7,4,5,7,0,2026-03-22T16:57:03.646252+05:30
Bhubaneswar,Odisha,20.2961,85.8245,32.5,36,0.0,1003.6,8.65,28.4,127,41.8,34.8,0,5,4,0,2026-03-22T16:57:03.646258+05:30
Cuttack,Odisha,20.4625,85.8828,32.2,36,0.0,1005.3,8.65,20.9,127,41.8,34.8,0,5,4,0,2026-03-22T16:57:03.646264+05:30
Rourkela,Odisha,22.2604,84.8536,28.9,36,0.0,987.5,8.25,20.5,114,33.9,14.7,4,5,7,0,2026-03-22T16:57:03.646270+05:30
Raipur,Chhattisgarh,21.2514,81.6296,32.4,23,0.0,976.0,8.4,23.0,82,31.4,19.1,0,5,7,0,2026-03-22T16:57:03.646276+05:30
Bhilai,Chhattisgarh,21.1938,81.3509,32.8,23,0.0,976.1,8.4,16.9,70,29.9,16.9,0,5,7,0,2026-03-22T16:57:03.646282+05:30
Guwahati,Assam,26.1158,91.7086,25.0,63,0.0,1003.3,7.6,20.5,90,29.3,23.9,7,5,4,1,2026-03-22T16:57:03.646289+05:30
Agartala,Tripura,23.8315,91.2868,26.5,51,0.0,1008.3,7.85,22.0,135,39.1,33.6,4,0,4,0,2026-03-22T16:57:03.646295+05:30
Shillong,Meghalaya,25.5788,91.8933,13.5,72,0.0,855.4,6.7,24.8,73,20.2,17.0,3,5,7,0,2026-03-22T16:57:03.646301+05:30
Imphal,Manipur,24.817,93.9368,17.1,76,0.0,923.3,8.15,51.5,70,8.9,7.8,3,5,7,0,2026-03-22T16:57:03.646308+05:30
Aizawl,Mizoram,23.7271,92.7176,18.6,69,0.0,893.5,8.2,44.6,63,12.1,10.6,3,5,7,0,2026-03-22T16:57:03.646314+05:30
Kohima,Nagaland,25.6701,94.1077,13.3,93,0.0,853.8,7.8,56.9,62,8.3,7.2,3,10,7,0,2026-03-22T16:57:03.646320+05:30
Gangtok,Sikkim,27.3314,88.6138,13.6,80,0.0,836.6,7.85,19.4,95,17.6,16.7,3,5,7,0,2026-03-22T16:57:03.646327+05:30
Siliguri,West Bengal,26.7271,88.3953,20.3,65,0.0,996.3,7.25,17.3,109,23.0,21.8,3,5,7,0,2026-03-22T16:57:07.002766+05:30
Durgapur,West Bengal,23.5204,87.3119,27.0,41,0.0,997.9,7.95,18.4,121,31.2,25.3,4,5,7,0,2026-03-22T16:57:07.002798+05:30
Asansol,West Bengal,23.6739,86.9524,26.6,43,0.0,996.5,8.2,20.5,118,31.9,23.8,4,5,7,0,2026-03-22T16:57:07.002810+05:30
Pondicherry,Puducherry,11.9139,79.8145,32.0,54,0.0,1008.5,9.15,28.8,36,13.2,7.5,0,0,4,1,2026-03-22T16:57:07.002820+05:30
Port Blair,Andaman and Nicobar Islands,11.6234,92.7265,28.5,78,0.0,1007.7,9.1,20.9,45,12.3,9.2,7,5,4,1,2026-03-22T16:57:07.002828+05:30
Haridwar,Uttarakhand,29.9457,78.1642,26.9,41,0.0,976.7,6.25,25.9,109,94.3,32.8,4,5,7,0,2026-03-22T16:57:07.002835+05:30
Rishikesh,Uttarakhand,30.0869,78.2676,25.4,47,0.0,969.4,6.35,25.6,108,35.5,25.4,4,5,7,0,2026-03-22T16:57:07.002842+05:30
Nainital,Uttarakhand,29.3919,79.4542,17.0,62,0.0,806.7,7.1,37.8,114,34.1,28.2,3,5,7,0,2026-03-22T16:57:07.002850+05:30
Mussoorie,Uttarakhand,30.4599,78.0664,15.4,69,0.0,803.1,6.65,25.9,112,42.5,29.9,3,5,7,0,2026-03-22T16:57:07.002857+05:30
Dharamshala,Himachal Pradesh,32.219,76.3234,17.9,69,0.0,870.3,6.55,20.9,119,23.6,16.6,3,5,7,0,2026-03-22T16:57:07.002864+05:30
Dalhousie,Himachal Pradesh,32.5387,75.971,16.2,64,0.0,804.6,6.85,19.1,92,31.7,27.1,3,5,7,0,2026-03-22T16:57:07.002871+05:30
Patiala,Punjab,30.3398,76.3869,26.2,42,0.0,981.4,6.25,31.3,151,739.5,90.6,4,5,7,0,2026-03-22T16:57:07.002878+05:30
Bhatinda,Punjab,30.211,74.9455,27.0,43,0.0,987.2,6.8,19.4,151,109.9,37.6,4,5,7,0,2026-03-22T16:57:07.002884+05:30
Rohtak,Haryana,28.8955,76.6066,27.8,41,0.0,985.0,6.45,24.8,175,616.5,72.2,4,5,7,0,2026-03-22T16:57:07.002890+05:30
Panipat,Haryana,29.3909,76.9635,27.2,41,0.0,983.4,6.25,29.5,356,1393.3,143.0,4,5,7,0,2026-03-22T16:57:07.002897+05:30
Mathura,Uttar Pradesh,27.4924,77.6737,29.1,36,0.0,989.9,6.15,28.1,426,581.1,63.6,4,5,7,0,2026-03-22T16:57:07.002904+05:30
Vrindavan,Uttar Pradesh,27.5823,77.7027,29.3,36,0.0,990.4,6.65,28.1,426,581.1,63.6,4,5,7,0,2026-03-22T16:57:07.002911+05:30
Ayodhya,Uttar Pradesh,26.7922,82.1998,27.8,43,0.0,998.4,7.05,18.7,99,20.3,16.8,4,5,7,0,2026-03-22T16:57:07.002917+05:30
Ratlam,Madhya Pradesh,23.3315,75.0367,31.3,28,0.0,956.3,7.95,14.4,70,26.7,11.4,0,5,7,0,2026-03-22T16:57:07.002924+05:30
Sagar,Madhya Pradesh,23.8388,78.7378,29.3,30,0.0,952.6,7.95,29.9,94,37.8,15.3,4,5,7,0,2026-03-22T16:57:07.002930+05:30
Satna,Madhya Pradesh,24.6005,80.8322,28.3,32,0.0,974.4,7.9,32.4,102,66.6,19.0,4,5,7,0,2026-03-22T16:57:07.002936+05:30
Akola,Maharashtra,20.7002,77.0082,33.4,25,0.0,976.2,8.3,21.2,97,19.4,12.7,0,5,7,0,2026-03-22T16:57:07.002944+05:30
Amravati,Maharashtra,20.9374,77.7796,33.6,21,0.0,968.2,8.3,22.3,97,17.7,10.8,0,5,7,0,2026-03-22T16:57:07.002951+05:30
Latur,Maharashtra,18.4088,76.5604,33.0,22,0.0,940.1,8.7,28.8,91,20.9,13.3,0,5,7,0,2026-03-22T16:57:07.002957+05:30
Nanded,Maharashtra,19.1383,77.3091,35.2,20,0.0,968.6,8.5,28.4,103,15.8,9.9,0,5,10,0,2026-03-22T16:57:07.002964+05:30
Gulbarga,Karnataka,17.3297,76.8343,35.6,23,0.0,957.9,8.75,18.4,105,36.8,21.2,0,5,10,0,2026-03-22T16:57:07.002970+05:30
Bidar,Karnataka,17.9104,77.5199,33.8,24,0.0,935.5,8.75,20.5,103,34.3,21.2,0,5,7,0,2026-03-22T16:57:07.002977+05:30
Hospet,Karnataka,15.2689,76.3909,34.9,25,0.0,955.0,9.0,15.1,157,34.5,25.2,0,5,7,0,2026-03-22T16:57:07.002982+05:30
Tirupur,Tamil Nadu,11.1085,77.3411,35.3,30,0.0,974.1,9.4,31.0,97,28.6,19.3,0,5,10,0,2026-03-22T16:57:07.002988+05:30
Alappuzha,Kerala,9.4981,76.3388,29.5,76,0.0,1007.4,9.1,33.5,120,23.5,17.2,7,5,4,1,2026-03-22T16:57:07.002994+05:30
Munnar,Kerala,10.0889,77.0595,27.7,51,0.0,858.2,8.65,26.6,73,28.8,17.9,4,5,7,1,2026-03-22T16:57:07.003002+05:30
Silchar,Assam,24.8333,92.7789,23.8,76,0.0,1007.3,7.95,22.7,87,23.2,19.8,3,5,4,1,2026-03-22T16:57:07.003008+05:30
Dibrugarh,Assam,27.4728,94.912,21.5,83,0.0,997.8,3.55,28.4,134,27.7,24.3,3,5,3,1,2026-03-22T16:57:07.003015+05:30
