city,state,latitude,longitude,temp,humidity,rain,pressure,uv_index,wind_gusts,aqi,pm10,pm2_5,mosquito_risk,arthritis_risk,migraine_risk,frizz_risk,updated_at
Delhi,Delhi,28.6139,77.209,22.4,73,0.0,984.6,6.2,44.6,354,296.2,65.9,3,5,7,1,2026-04-04T03:07:43.686537+05:30
Mumbai,Maharashtra,19.076,72.8777,27.6,78,0.0,1009.1,7.85,19.8,80,54.1,24.2,7,0,4,1,2026-04-04T03:07:43.686580+05:30
Bangalore,Karnataka,12.9716,77.5946,21.9,80,0.0,911.5,9.35,28.8,88,28.3,26.9,3,5,7,1,2026-04-04T03:07:43.686596+05:30
Hyderabad,Telangana,17.385,78.4867,25.8,63,0.0,952.7,8.3,37.4,68,18.7,17.0,7,5,7,1,2026-04-04T03:07:43.686606+05:30
Chennai,Tamil Nadu,13.0827,80.2707,27.5,83,0.0,1007.0,7.95,36.4,43,11.8,8.7,7,5,4,1,2026-04-04T03:07:43.686615+05:30
Kolkata,West Bengal,22.5726,88.3639,26.8,96,0.0,1004.2,8.65,18.4,73,20.3,18.0,7,5,4,1,2026-04-04T03:07:43.686624+05:30
Pune,Maharashtra,18.5204,73.8567,21.4,81,0.0,948.2,8.5,38.9,121,46.2,35.7,3,5,7,1,2026-04-04T03:07:43.686636+05:30
Ahmedabad,Gujarat,23.0225,72.5714,25.6,65,0.0,1002.9,7.35,24.8,64,19.8,10.4,7,5,4,1,2026-04-04T03:07:43.686645+05:30
Jaipur,Rajasthan,26.9124,75.7873,22.2,81,0.0,960.6,7.4,43.2,126,106.9,36.7,3,5,7,1,2026-04-04T03:07:43.686653+05:30
Lucknow,Uttar Pradesh,26.8467,80.9462,24.7,65,0.0,993.8,6.05,34.9,124,227.7,67.8,3,5,7,1,2026-04-04T03:07:43.686661+05:30
Kanpur,Uttar Pradesh,26.4499,80.3319,24.6,71,0.0,992.1,4.55,30.6,185,444.2,86.1,3,5,3,1,2026-04-04T03:07:43.686669+05:30
Chandigarh,Chandigarh,30.7333,76.7794,19.7,84,0.0,970.0,6.15,34.6,80,47.6,36.3,3,10,7,1,2026-04-04T03:07:43.686677+05:30
Srinagar,Jammu and Kashmir,34.0837,74.7973,9.2,91,0.1,840.5,6.65,32.8,83,14.5,13.4,6,10,7,0,2026-04-04T03:07:43.686685+05:30
Jammu,Jammu and Kashmir,32.7266,74.857,18.1,89,0.0,975.7,7.15,21.6,65,19.7,12.0,3,10,7,1,2026-04-04T03:07:43.686692+05:30
Amritsar,Punjab,31.634,74.8723,18.1,98,0.0,983.1,7.1,30.2,74,62.6,24.0,3,10,7,1,2026-04-04T03:07:43.686700+05:30
Ludhiana,Punjab,30.901,75.8573,19.1,89,0.0,980.4,5.6,19.8,97,107.6,38.6,3,10,3,1,2026-04-04T03:07:43.686706+05:30
Jalandhar,Punjab,31.326,75.5762,18.6,93,0.0,981.6,6.3,21.2,83,46.0,30.3,3,10,7,1,2026-04-04T03:07:43.686715+05:30
Dehradun,Uttarakhand,30.6284,78.0322,14.6,74,0.0,830.7,5.05,34.6,44,25.7,11.4,3,5,3,0,2026-04-04T03:07:43.686724+05:30
Shimla,Himachal Pradesh,31.1048,77.1734,13.0,67,0.0,783.9,5.3,50.0,51,28.4,18.2,3,5,3,0,2026-04-04T03:07:43.686731+05:30
Manali,Himachal Pradesh,32.2396,77.1887,12.7,88,0.0,819.4,5.35,30.2,47,3.8,1.7,3,10,3,0,2026-04-04T03:07:43.686738+05:30
Gurgaon,Haryana,28.4595,77.0266,20.3,85,0.0,983.1,6.0,37.4,686,382.8,77.5,3,5,3,1,2026-04-04T03:07:43.686745+05:30
Noida,Uttar Pradesh,28.5355,77.391,22.5,72,0.0,986.0,6.45,43.2,686,382.8,77.5,3,5,7,1,2026-04-04T03:07:43.686753+05:30
Ghaziabad,Uttar Pradesh,28.6692,77.4538,21.0,79,0.0,984.1,6.25,43.2,267,253.3,58.9,3,5,7,1,2026-04-04T03:07:43.686759+05:30
Faridabad,Haryana,28.4089,77.3178,21.0,76,0.0,985.4,6.25,39.2,686,382.8,77.5,3,5,7,1,2026-04-04T03:07:43.686766+05:30
Meerut,Uttar Pradesh,28.9845,77.7064,20.7,83,0.0,982.6,6.05,45.0,267,253.3,58.9,3,5,7,1,2026-04-04T03:07:43.686774+05:30
Agra,Uttar Pradesh,27.1767,78.0081,22.3,71,0.0,988.8,6.5,30.2,695,536.4,75.9,3,5,7,1,2026-04-04T03:07:43.686781+05:30
Varanasi,Uttar Pradesh,25.3176,82.9739,24.8,75,0.0,996.9,7.5,28.1,82,32.9,27.7,3,5,7,1,2026-04-04T03:07:43.686790+05:30
Prayagraj,Uttar Pradesh,25.4358,81.8463,25.6,67,0.0,995.8,6.65,28.8,90,72.9,37.4,7,5,7,1,2026-04-04T03:07:43.686797+05:30
Gorakhpur,Uttar Pradesh,26.7606,83.3732,23.7,71,0.0,996.1,7.25,42.1,73,113.2,41.9,3,5,7,1,2026-04-04T03:07:43.686804+05:30
Bareilly,Uttar Pradesh,28.367,79.4304,22.6,83,0.0,987.3,5.5,27.7,116,121.1,50.3,3,5,3,1,2026-04-04T03:07:43.686810+05:30
Aligarh,Uttar Pradesh,27.8974,78.088,21.5,72,0.0,986.4,6.55,36.0,648,392.1,74.5,3,5,7,1,2026-04-04T03:07:43.686817+05:30
Moradabad,Uttar Pradesh,28.8386,78.7733,21.6,84,0.0,984.6,5.6,53.3,152,153.7,52.5,3,5,3,1,2026-04-04T03:07:43.686844+05:30
Saharanpur,Uttar Pradesh,29.9637,77.546,21.2,82,0.0,977.0,6.1,32.4,136,109.7,59.6,3,5,7,1,2026-04-04T03:07:43.686851+05:30
Jhansi,Uttar Pradesh,25.4484,78.5685,23.4,73,0.0,978.4,7.65,48.6,66,62.4,27.4,3,5,7,1,2026-04-04T03:07:47.034280+05:30
Surat,Gujarat,21.1702,72.8311,26.7,82,0.0,1007.1,7.65,23.4,92,26.6,21.0,7,5,4,1,2026-04-04T03:07:47.034314+05:30
Vadodara,Gujarat,22.3072,73.1812,26.0,87,0.0,1005.0,7.85,25.6,81,52.5,35.9,7,5,4,1,2026-04-04T03:07:47.034326+05:30
Rajkot,Gujarat,22.3039,70.8022,22.4,89,0.0,995.1,7.55,33.1,54,17.6,10.3,3,5,7,1,2026-04-04T03:07:47.034335+05:30
Thane,Maharashtra,19.2183,72.9781,25.7,85,0.0,1008.7,7.85,36.7,80,54.1,24.2,7,0,4,1,2026-04-04T03:07:47.034345+05:30
Nagpur,Maharashtra,21.1458,79.0882,25.2,72,0.0,973.0,8.05,29.9,85,45.6,42.1,7,5,7,1,2026-04-04T03:07:47.034354+05:30
Nashik,Maharashtra,19.9975,73.7898,20.3,89,0.0,945.8,8.15,37.8,66,48.5,23.7,3,5,7,1,2026-04-04T03:07:47.034363+05:30
Aurangabad,Maharashtra,19.8762,75.3433,24.6,64,0.0,944.3,8.7,37.8,101,47.4,38.6,3,5,7,1,2026-04-04T03:07:47.034371+05:30
Solapur,Maharashtra,17.6599,75.9064,24.1,80,0.0,957.4,8.8,21.6,96,46.4,42.1,3,5,7,1,2026-04-04T03:07:47.034379+05:30
Kolhapur,Maharashtra,16.705,74.2433,19.9,98,0.0,947.6,9.0,41.0,123,41.7,37.4,3,10,7,1,2026-04-04T03:07:47.034389+05:30
Goa,Goa,15.2993,74.124,27.4,77,0.0,998.0,8.45,31.7,77,41.3,34.5,7,5,7,1,2026-04-04T03:07:47.034397+05:30
Jodhpur,Rajasthan,26.2389,73.0243,21.4,68,0.0,983.9,7.35,26.6,125,174.6,28.1,3,5,7,0,2026-04-04T03:07:47.034406+05:30
Udaipur,Rajasthan,24.5854,73.7125,20.9,70,0.0,946.6,8.25,37.8,55,31.4,13.6,3,5,7,0,2026-04-04T03:07:47.034414+05:30
Kota,Rajasthan,25.2138,75.8648,25.0,67,0.0,979.5,7.3,40.7,60,41.3,20.3,7,5,7,1,2026-04-04T03:07:47.034423+05:30
Bikaner,Rajasthan,28.0229,73.3119,19.6,78,0.0,983.2,7.1,25.9,63,53.7,20.5,3,5,7,0,2026-04-04T03:07:47.034431+05:30
Ajmer,Rajasthan,26.4499,74.6399,21.3,77,0.0,955.1,6.95,34.9,82,60.5,19.7,3,5,7,1,2026-04-04T03:07:47.034439+05:30
Gwalior,Madhya Pradesh,26.2183,78.1828,23.4,77,0.0,983.9,7.3,31.3,80,234.2,53.6,3,5,7,1,2026-04-04T03:07:47.034447+05:30
Indore,Madhya Pradesh,22.7196,75.8577,22.3,74,0.0,948.2,8.3,40.7,71,36.6,24.2,3,5,7,1,2026-04-04T03:07:47.034455+05:30
Bhopal,Madhya Pradesh,23.2599,77.4126,24.3,61,0.0,953.9,8.25,34.2,70,33.9,29.4,3,5,7,1,2026-04-04T03:07:47.034464+05:30
Jabalpur,Madhya Pradesh,23.1815,79.9864,25.2,68,0.0,961.9,4.25,29.2,79,43.1,37.3,7,5,3,1,2026-04-04T03:07:47.034471+05:30
Ujjain,Madhya Pradesh,23.1765,75.7885,22.6,71,0.0,954.1,8.2,35.6,70,43.9,27.9,3,5,7,1,2026-04-04T03:07:47.034479+05:30
Visakhapatnam,Andhra Pradesh,17.6868,83.2185,26.3,89,0.0,1003.5,8.8,37.8,58,14.4,12.7,7,5,4,1,2026-04-04T03:07:47.034486+05:30
Vijayawada,Andhra Pradesh,16.5062,80.648,26.0,90,0.0,1002.4,8.3,18.0,43,11.7,10.5,7,5,4,1,2026-04-04T03:07:47.034493+05:30
Guntur,Andhra Pradesh,16.3067,80.4365,26.0,91,0.0,1003.4,8.4,16.9,39,10.7,9.4,7,5,4,1,2026-04-04T03:07:47.034500+05:30
Nellore,Andhra Pradesh,14.4426,79.9865,26.5,87,0.0,1005.2,8.65,29.9,41,9.5,7.5,7,5,4,1,2026-04-04T03:07:47.034507+05:30
Kurnool,Andhra Pradesh,15.8281,78.0373,29.0,47,0.0,976.0,8.4,32.0,57,19.0,16.7,4,5,7,1,2026-04-04T03:07:47.034515+05:30
Kakinada,Andhra Pradesh,16.9891,82.2475,25.2,93,0.0,1007.6,8.6,33.1,28,8.5,6.4,7,5,4,1,2026-04-04T03:07:47.034522+05:30
Tirupati,Andhra Pradesh,13.6288,79.4192,24.5,77,0.0,991.9,8.5,29.2,54,17.6,16.8,3,5,7,1,2026-04-04T03:07:47.034528+05:30
Warangal,Telangana,17.9689,79.5941,26.3,72,0.0,978.2,7.7,25.6,71,21.2,20.3,7,5,7,1,2026-04-04T03:07:47.034535+05:30
Nizamabad,Telangana,18.6725,78.0941,24.7,80,0.0,965.4,8.05,32.8,113,56.5,51.8,3,5,7,1,2026-04-04T03:07:47.034542+05:30
Mysore,Karnataka,12.2958,76.6396,22.6,90,0.0,928.0,9.0,29.5,74,26.5,25.0,3,5,7,1,2026-04-04T03:07:47.034549+05:30
Mangalore,Karnataka,12.9141,74.856,27.9,83,0.0,1006.7,7.85,23.4,67,22.9,18.9,7,5,4,1,2026-04-04T03:07:47.034555+05:30
Hubli-Dharwad,Karnataka,15.3647,75.124,22.8,91,0.0,940.6,8.9,31.0,77,26.0,24.2,3,5,7,1,2026-04-04T03:07:47.034562+05:30
Belgaum,Karnataka,15.8497,74.4977,20.9,100,0.0,925.2,8.7,34.6,91,40.4,35.7,3,5,7,1,2026-04-04T03:07:50.382866+05:30
Coimbatore,Tamil Nadu,11.0168,76.9558,24.6,81,0.0,961.6,8.4,45.7,72,28.2,26.4,3,5,7,1,2026-04-04T03:07:50.382897+05:30
Madurai,Tamil Nadu,9.9252,78.1198,24.7,86,0.0,992.9,9.2,21.2,59,26.2,25.4,3,5,7,1,2026-04-04T03:07:50.382907+05:30
Trichy,Tamil Nadu,10.7905,78.7047,26.3,86,0.0,999.6,8.95,26.3,57,13.0,12.3,7,5,7,1,2026-04-04T03:07:50.382915+05:30
Salem,Tamil Nadu,11.6643,78.146,26.7,78,0.0,977.6,8.6,41.0,58,14.5,13.8,7,5,7,1,2026-04-04T03:07:50.382923+05:30
Tirunelveli,Tamil Nadu,8.7139,77.7567,25.4,91,0.0,1003.0,7.75,19.1,66,26.1,24.6,7,5,4,1,2026-04-04T03:07:50.382931+05:30
Vellore,Tamil Nadu,12.9165,79.1325,25.4,81,0.0,984.6,8.65,30.6,75,18.3,16.8,7,5,7,1,2026-04-04T03:07:50.382938+05:30
Erode,Tamil Nadu,11.341,77.7172,26.9,75,0.0,989.1,8.65,33.5,57,22.3,21.3,7,5,7,1,2026-04-04T03:07:50.382945+05:30
Kochi,Kerala,9.9312,76.2673,27.4,81,0.0,1008.6,9.25,24.5,67,24.3,23.6,7,0,4,1,2026-04-04T03:07:50.382952+05:30
Thiruvananthapuram,Kerala,8.5241,76.9366,28.2,82,0.0,1007.5,8.4,30.6,64,21.7,18.3,7,5,4,1,2026-04-04T03:07:50.382959+05:30
Kozhikode,Kerala,11.2588,75.7804,27.3,84,0.0,1008.0,7.5,28.8,60,18.6,15.2,7,0,4,1,2026-04-04T03:07:50.382967+05:30
Thrissur,Kerala,10.5276,76.2144,26.3,83,0.0,1007.1,8.75,29.9,68,26.1,24.9,7,5,4,1,2026-04-04T03:07:50.382974+05:30
Kannur,Kerala,11.8745,75.3704,26.5,85,0.0,1007.3,7.65,28.1,71,26.5,23.3,7,5,4,1,2026-04-04T03:07:50.382981+05:30
Patna,Bihar,25.5941,85.1376,25.5,72,0.0,999.2,7.85,38.5,85,35.7,24.0,7,5,7,1,2026-04-04T03:07:50.382988+05:30
Gaya,Bihar,24.7914,85.0002,25.8,68,0.0,993.1,8.25,27.4,77,26.5,21.4,7,5,7,1,2026-04-04T03:07:50.382995+05:30
Muzaffarpur,Bihar,26.1209,85.3647,23.8,74,0.0,999.0,8.0,39.6,81,43.2,25.6,3,5,7,1,2026-04-04T03:07:50.383001+05:30
Bhagalpur,Bihar,25.2425,87.0117,24.5,72,0.0,999.8,8.2,28.1,78,26.8,24.6,3,5,7,1,2026-04-04T03:07:50.383008+05:30
Ranchi,Jharkhand,23.3441,85.3096,24.3,61,0.0,937.6,8.1,31.7,70,28.9,24.4,3,5,7,1,2026-04-04T03:07:50.383014+05:30
Jamshedpur,Jharkhand,22.8046,86.2029,26.7,72,0.0,989.9,8.45,26.6,107,47.1,41.7,7,5,7,1,2026-04-04T03:07:50.383020+05:30
Dhanbad,Jharkhand,23.7957,86.4304,26.9,57,0.0,978.8,7.85,25.9,132,43.5,40.2,4,5,7,1,2026-04-04T03:07:50.383027+05:30
Bokaro,Jharkhand,23.6693,86.1511,26.7,58,0.0,983.3,7.7,35.6,132,46.9,43.4,4,5,7,1,2026-04-04T03:07:50.383033+05:30
Bhubaneswar,Odisha,20.2961,85.8245,26.6,95,0.0,1002.3,8.95,27.0,57,17.1,15.0,7,5,4,1,2026-04-04T03:07:50.383040+05:30
Cuttack,Odisha,20.4625,85.8828,26.6,94,0.0,1004.0,9.0,30.2,57,17.1,15.0,7,5,4,1,2026-04-04T03:07:50.383048+05:30
Rourkela,Odisha,22.2604,84.8536,27.0,70,0.0,984.9,8.05,49.7,117,49.7,44.6,7,5,7,1,2026-04-04T03:07:50.383054+05:30
Raipur,Chhattisgarh,21.2514,81.6296,24.7,77,0.0,975.4,8.15,35.6,135,46.3,43.0,3,5,7,1,2026-04-04T03:07:50.383060+05:30
Bhilai,Chhattisgarh,21.1938,81.3509,24.5,79,0.0,975.5,8.1,29.2,103,35.4,31.7,3,5,7,1,2026-04-04T03:07:50.383067+05:30
Guwahati,Assam,26.1158,91.7086,24.3,91,0.0,1000.2,8.25,31.7,143,56.5,51.5,3,5,4,1,2026-04-04T03:07:50.383073+05:30
Agartala,Tripura,23.8315,91.2868,26.2,93,0.0,1004.4,8.5,29.2,69,9.5,8.1,7,5,4,1,2026-04-04T03:07:50.383080+05:30
Shillong,Meghalaya,25.5788,91.8933,16.1,86,0.0,854.9,8.55,57.6,106,44.0,36.9,3,10,7,0,2026-04-04T03:07:50.383087+05:30
Imphal,Manipur,24.817,93.9368,19.2,86,0.0,921.9,8.65,84.6,117,68.2,58.3,3,10,7,1,2026-04-04T03:07:50.383094+05:30
Aizawl,Mizoram,23.7271,92.7176,18.8,88,0.0,890.9,8.65,55.1,115,51.0,39.8,3,10,7,1,2026-04-04T03:07:50.383100+05:30
Kohima,Nagaland,25.6701,94.1077,16.4,75,0.0,853.5,8.55,94.0,101,55.6,48.0,3,5,7,0,2026-04-04T03:07:50.383107+05:30
Gangtok,Sikkim,27.3314,88.6138,15.4,93,0.0,836.0,8.3,18.0,107,43.3,34.2,3,10,7,0,2026-04-04T03:07:50.383114+05:30
Siliguri,West Bengal,26.7271,88.3953,22.0,76,0.0,992.5,8.2,27.7,155,96.2,80.6,3,5,7,1,2026-04-04T03:07:53.741020+05:30
Durgapur,West Bengal,23.5204,87.3119,27.8,77,0.0,993.4,8.55,18.7,159,64.0,59.8,7,5,7,1,2026-04-04T03:07:53.741052+05:30
Asansol,West Bengal,23.6739,86.9524,29.5,62,0.0,992.1,8.35,18.0,131,37.5,34.1,7,5,7,1,2026-04-04T03:07:53.741065+05:30
Pondicherry,Puducherry,11.9139,79.8145,26.4,95,0.0,1008.3,8.4,22.0,46,11.5,8.2,7,0,4,1,2026-04-04T03:07:53.741074+05:30
Port Blair,Andaman and Nicobar Islands,11.6234,92.7265,28.3,77,0.0,1005.6,8.7,21.2,41,18.3,9.9,7,5,4,1,2026-04-04T03:07:53.741082+05:30
Haridwar,Uttarakhand,29.9457,78.1642,21.7,76,0.0,975.4,5.35,34.9,94,44.0,33.3,3,5,3,1,2026-04-04T03:07:53.741089+05:30
Rishikesh,Uttarakhand,30.0869,78.2676,21.9,66,0.0,968.5,5.7,27.4,74,35.3,22.9,3,5,3,0,2026-04-04T03:07:53.741096+05:30
Nainital,Uttarakhand,29.3919,79.4542,19.0,42,0.0,807.1,4.75,36.4,64,30.5,20.4,0,5,3,0,2026-04-04T03:07:53.741104+05:30
Mussoorie,Uttarakhand,30.4599,78.0664,16.3,62,0.0,803.5,4.95,40.7,68,30.3,20.4,3,5,3,0,2026-04-04T03:07:53.741111+05:30
Dharamshala,Himachal Pradesh,32.219,76.3234,15.4,79,0.0,869.0,6.75,46.8,47,6.0,2.8,3,5,7,0,2026-04-04T03:07:53.741118+05:30
Dalhousie,Himachal Pradesh,32.5387,75.971,11.7,81,0.0,802.6,6.3,46.8,52,18.4,8.9,3,10,7,0,2026-04-04T03:07:53.741126+05:30
Patiala,Punjab,30.3398,76.3869,18.9,92,0.0,979.7,5.35,28.4,134,149.0,41.3,3,10,3,1,2026-04-04T03:07:53.741133+05:30
Bhatinda,Punjab,30.211,74.9455,18.5,96,0.0,985.5,6.75,31.0,87,166.7,38.5,3,10,7,1,2026-04-04T03:07:53.741140+05:30
Rohtak,Haryana,28.8955,76.6066,19.5,91,0.0,983.4,6.05,38.9,460,325.0,67.8,3,10,7,1,2026-04-04T03:07:53.741147+05:30
Panipat,Haryana,29.3909,76.9635,19.7,90,0.0,981.9,5.8,34.9,856,549.5,92.9,3,10,3,1,2026-04-04T03:07:53.741154+05:30
Mathura,Uttar Pradesh,27.4924,77.6737,21.7,77,0.0,988.0,6.0,31.7,572,380.9,63.6,3,5,3,1,2026-04-04T03:07:53.741160+05:30
Vrindavan,Uttar Pradesh,27.5823,77.7027,21.5,76,0.0,988.6,5.85,33.1,572,380.9,63.6,3,5,3,1,2026-04-04T03:07:53.741167+05:30
Ayodhya,Uttar Pradesh,26.7922,82.1998,23.4,70,0.0,994.8,7.05,37.4,87,141.6,52.0,3,5,7,1,2026-04-04T03:07:53.741173+05:30
Ratlam,Madhya Pradesh,23.3315,75.0367,24.1,62,0.0,955.0,8.1,35.6,66,45.4,23.6,3,5,7,1,2026-04-04T03:07:53.741180+05:30
Sagar,Madhya Pradesh,23.8388,78.7378,23.9,66,0.0,950.8,8.05,34.6,67,35.5,31.8,3,5,7,1,2026-04-04T03:07:53.741186+05:30
Satna,Madhya Pradesh,24.6005,80.8322,25.2,70,0.0,972.0,6.45,50.4,69,29.2,26.0,7,5,7,1,2026-04-04T03:07:53.741193+05:30
Akola,Maharashtra,20.7002,77.0082,25.6,71,0.0,975.3,7.1,23.0,99,39.6,35.9,7,5,7,1,2026-04-04T03:07:53.741200+05:30
Amravati,Maharashtra,20.9374,77.7796,24.7,76,0.0,967.5,7.15,27.4,98,40.3,36.6,3,5,7,1,2026-04-04T03:07:53.741207+05:30
Latur,Maharashtra,18.4088,76.5604,23.1,83,0.0,939.9,8.9,27.4,99,52.5,46.6,3,5,7,1,2026-04-04T03:07:53.741214+05:30
Nanded,Maharashtra,19.1383,77.3091,24.4,82,0.0,969.6,8.2,28.4,97,36.4,33.5,3,5,7,1,2026-04-04T03:07:53.741221+05:30
Gulbarga,Karnataka,17.3297,76.8343,26.8,65,0.0,958.7,8.55,34.6,85,39.0,36.2,7,5,7,1,2026-04-04T03:07:53.741227+05:30
Bidar,Karnataka,17.9104,77.5199,23.6,80,0.0,935.1,8.4,30.2,92,44.4,40.5,3,5,7,1,2026-04-04T03:07:53.741233+05:30
Hospet,Karnataka,15.2689,76.3909,26.4,77,0.0,955.6,8.5,24.5,85,25.4,24.4,7,5,7,1,2026-04-04T03:07:53.741240+05:30
Tirupur,Tamil Nadu,11.1085,77.3411,26.3,77,0.0,975.0,8.9,33.1,72,27.1,25.7,7,5,7,1,2026-04-04T03:07:53.741246+05:30
Alappuzha,Kerala,9.4981,76.3388,27.2,82,0.0,1008.6,8.75,24.5,64,22.1,20.1,7,0,4,1,2026-04-04T03:07:53.741252+05:30
Munnar,Kerala,10.0889,77.0595,20.5,93,0.0,856.3,9.3,33.8,60,20.4,19.8,3,5,7,1,2026-04-04T03:07:53.741259+05:30
Silchar,Assam,24.8333,92.7789,24.8,85,0.0,1003.4,8.45,36.7,150,86.1,71.9,3,5,4,1,2026-04-04T03:07:53.741266+05:30
Dibrugarh,Assam,27.4728,94.912,22.4,95,0.0,994.8,8.15,13.0,95,32.0,29.3,3,5,7,1,2026-04-04T03:07:53.741272+05:30
