city,state,latitude,longitude,temp,humidity,rain,pressure,uv_index,wind_gusts,aqi,pm10,pm2_5,no2,co,o3,so2,mosquito_risk,arthritis_risk,migraine_risk,frizz_risk,updated_at
Delhi,Delhi,28.6139,77.209,35.3,27,0.0,980.9,7.7,49.0,553,468.5,134.1,18.4,566.0,96.0,18.1,0,5,10,0,2026-05-17T09:22:57.261774+05:30
Mumbai,Maharashtra,19.076,72.8777,32.2,62,0.0,1007.3,7.35,45.0,59,46.8,20.9,6.4,219.0,61.0,7.0,3,5,4,1,2026-05-17T09:22:57.261835+05:30
Bangalore,Karnataka,12.9716,77.5946,27.3,63,0.0,911.5,9.45,36.7,128,42.4,31.3,14.5,726.0,97.0,12.1,7,5,7,1,2026-05-17T09:22:57.261853+05:30
Hyderabad,Telangana,17.385,78.4867,32.7,48,0.0,952.7,9.3,25.9,91,26.5,13.4,6.4,340.0,69.0,4.8,0,5,7,1,2026-05-17T09:22:57.261864+05:30
Chennai,Tamil Nadu,13.0827,80.2707,31.9,60,0.0,1005.6,9.15,40.7,50,25.1,17.6,7.8,303.0,94.0,13.8,0,5,4,1,2026-05-17T09:22:57.261874+05:30
Kolkata,West Bengal,22.5726,88.3639,32.8,70,0.0,1003.6,8.95,37.4,60,28.5,17.8,4.0,301.0,83.0,7.4,3,5,4,1,2026-05-17T09:22:57.261883+05:30
Pune,Maharashtra,18.5204,73.8567,29.9,55,0.0,947.9,8.5,38.9,65,39.7,23.2,12.0,281.0,78.0,24.9,4,5,7,1,2026-05-17T09:22:57.261891+05:30
Ahmedabad,Gujarat,23.0225,72.5714,34.1,47,0.0,1000.9,8.15,30.2,59,46.3,19.1,4.3,189.0,58.0,5.6,0,5,4,1,2026-05-17T09:22:57.261900+05:30
Jaipur,Rajasthan,26.9124,75.7873,35.5,24,0.0,959.4,8.25,38.5,151,300.8,58.3,8.3,320.0,101.0,11.0,0,5,10,0,2026-05-17T09:22:57.261916+05:30
Lucknow,Uttar Pradesh,26.8467,80.9462,36.3,29,0.0,990.8,8.2,46.4,151,199.3,65.2,13.4,385.0,114.0,14.1,0,5,10,0,2026-05-17T09:22:57.261925+05:30
Kanpur,Uttar Pradesh,26.4499,80.3319,37.3,25,0.0,989.4,8.2,47.2,154,277.5,73.6,10.8,313.0,126.0,14.0,0,5,10,0,2026-05-17T09:22:57.261933+05:30
Chandigarh,Chandigarh,30.7333,76.7794,33.2,31,0.0,966.0,7.75,45.4,77,41.6,21.9,6.6,511.0,129.0,10.9,0,5,7,0,2026-05-17T09:22:57.261942+05:30
Srinagar,Jammu and Kashmir,34.0837,74.7973,18.6,64,0.0,844.2,8.9,16.2,79,31.4,26.1,6.9,459.0,81.0,2.0,3,5,7,0,2026-05-17T09:22:57.261951+05:30
Jammu,Jammu and Kashmir,32.7266,74.857,31.8,39,0.0,969.6,8.5,39.6,64,28.9,21.0,8.5,327.0,92.0,3.5,0,5,7,0,2026-05-17T09:22:57.261959+05:30
Amritsar,Punjab,31.634,74.8723,32.1,41,0.0,977.9,8.4,34.2,101,44.7,29.1,11.5,538.0,109.0,7.9,0,5,7,1,2026-05-17T09:22:57.261966+05:30
Ludhiana,Punjab,30.901,75.8573,32.5,33,0.0,976.1,8.0,37.1,94,36.2,29.6,9.6,576.0,109.0,9.1,0,5,7,0,2026-05-17T09:22:57.261973+05:30
Jalandhar,Punjab,31.326,75.5762,31.9,37,0.0,976.9,8.15,34.9,110,53.0,40.4,13.9,630.0,105.0,8.1,0,5,7,0,2026-05-17T09:22:57.261981+05:30
Dehradun,Uttarakhand,30.6284,78.0322,23.0,42,0.0,831.0,8.2,45.0,58,35.9,12.0,1.6,162.0,115.0,0.2,0,5,7,0,2026-05-17T09:22:57.261989+05:30
Shimla,Himachal Pradesh,31.1048,77.1734,21.0,31,0.0,786.4,8.25,52.2,64,31.7,12.3,1.3,174.0,128.0,0.8,0,5,7,0,2026-05-17T09:22:57.261999+05:30
Manali,Himachal Pradesh,32.2396,77.1887,21.1,31,0.0,818.8,9.65,37.8,50,10.5,4.7,4.9,200.0,130.0,0.1,0,5,7,0,2026-05-17T09:22:57.262007+05:30
Gurgaon,Haryana,28.4595,77.0266,34.3,31,0.0,979.6,7.8,47.5,823,800.9,170.0,22.1,561.0,99.0,21.8,0,5,7,0,2026-05-17T09:22:57.262015+05:30
Noida,Uttar Pradesh,28.5355,77.391,34.9,31,0.0,982.2,7.75,38.9,823,800.9,170.0,22.1,633.0,99.0,21.8,0,5,7,0,2026-05-17T09:22:57.262023+05:30
Ghaziabad,Uttar Pradesh,28.6692,77.4538,34.0,34,0.0,980.4,7.7,44.3,403,399.5,123.4,13.2,476.0,110.0,17.0,0,5,7,0,2026-05-17T09:22:57.262033+05:30
Faridabad,Haryana,28.4089,77.3178,35.3,28,0.0,981.6,7.8,49.7,823,800.9,170.0,22.1,539.0,99.0,21.8,0,5,10,0,2026-05-17T09:22:57.262041+05:30
Meerut,Uttar Pradesh,28.9845,77.7064,33.2,36,0.0,979.0,7.65,47.5,403,399.5,123.4,13.2,379.0,110.0,17.0,0,5,7,1,2026-05-17T09:22:57.262049+05:30
Agra,Uttar Pradesh,27.1767,78.0081,35.8,28,0.0,986.1,8.05,41.8,693,773.0,160.2,16.4,437.0,97.0,22.7,0,5,10,0,2026-05-17T09:22:57.262057+05:30
Varanasi,Uttar Pradesh,25.3176,82.9739,38.3,25,0.0,994.5,8.7,51.1,153,118.7,50.8,16.7,545.0,111.0,25.8,0,5,10,0,2026-05-17T09:22:57.262065+05:30
Prayagraj,Uttar Pradesh,25.4358,81.8463,38.2,26,0.0,993.3,8.6,42.1,153,133.6,58.4,19.3,356.0,116.0,17.7,0,5,10,0,2026-05-17T09:22:57.262072+05:30
Gorakhpur,Uttar Pradesh,26.7606,83.3732,33.0,49,0.0,994.2,8.6,43.2,149,81.0,65.4,10.7,607.0,133.0,15.8,0,5,7,1,2026-05-17T09:22:57.262082+05:30
Bareilly,Uttar Pradesh,28.367,79.4304,32.0,43,0.0,983.9,8.0,41.4,116,114.6,61.7,12.3,373.0,101.0,12.1,0,5,7,1,2026-05-17T09:22:57.262089+05:30
Aligarh,Uttar Pradesh,27.8974,78.088,33.5,38,0.0,983.6,7.85,45.0,553,502.9,140.6,17.6,561.0,92.0,21.1,0,5,7,1,2026-05-17T09:22:57.262096+05:30
Moradabad,Uttar Pradesh,28.8386,78.7733,32.1,38,0.0,980.8,7.85,47.5,148,120.1,65.9,12.2,400.0,96.0,11.1,0,5,7,1,2026-05-17T09:22:57.262104+05:30
Saharanpur,Uttar Pradesh,29.9637,77.546,31.3,42,0.0,972.6,7.35,49.7,103,58.7,34.6,11.2,329.0,102.0,9.5,0,5,7,1,2026-05-17T09:22:57.262110+05:30
Jhansi,Uttar Pradesh,25.4484,78.5685,37.3,24,0.0,976.4,8.45,33.5,101,353.0,70.5,3.9,260.0,111.0,10.2,0,5,10,0,2026-05-17T09:23:00.797521+05:30
Surat,Gujarat,21.1702,72.8311,35.3,45,0.0,1005.2,7.75,38.5,85,56.3,34.9,32.5,263.0,36.0,80.7,0,5,7,1,2026-05-17T09:23:00.797557+05:30
Vadodara,Gujarat,22.3072,73.1812,34.7,44,0.0,1003.0,8.1,31.3,71,41.8,19.7,7.1,224.0,61.0,8.7,0,5,4,1,2026-05-17T09:23:00.797568+05:30
Rajkot,Gujarat,22.3039,70.8022,31.1,62,0.0,993.9,7.6,41.4,52,41.8,13.6,3.8,128.0,57.0,4.5,3,5,7,1,2026-05-17T09:23:00.797577+05:30
Thane,Maharashtra,19.2183,72.9781,32.8,61,0.0,1006.6,7.5,38.9,59,46.8,20.9,6.4,166.0,61.0,7.0,3,5,4,1,2026-05-17T09:23:00.797585+05:30
Nagpur,Maharashtra,21.1458,79.0882,36.0,38,0.0,972.0,9.0,34.2,112,44.9,35.5,12.9,259.0,92.0,28.8,0,5,10,1,2026-05-17T09:23:00.797593+05:30
Nashik,Maharashtra,19.9975,73.7898,32.8,34,0.0,945.3,8.2,42.1,61,42.3,16.1,3.4,185.0,77.0,3.1,0,5,7,0,2026-05-17T09:23:00.797601+05:30
Aurangabad,Maharashtra,19.8762,75.3433,34.9,23,0.0,943.9,9.05,41.0,55,37.6,19.7,5.4,191.0,112.0,16.0,0,5,7,0,2026-05-17T09:23:00.797608+05:30
Solapur,Maharashtra,17.6599,75.9064,35.0,35,0.0,956.0,9.1,34.2,77,32.1,27.0,9.0,349.0,110.0,9.6,0,5,7,1,2026-05-17T09:23:00.797615+05:30
Kolhapur,Maharashtra,16.705,74.2433,30.5,61,0.0,947.1,8.95,45.4,61,24.6,15.5,4.0,200.0,71.0,3.7,3,5,7,1,2026-05-17T09:23:00.797622+05:30
Goa,Goa,15.2993,74.124,31.5,70,0.0,996.5,8.9,42.8,57,25.8,13.0,1.8,192.0,59.0,1.5,3,5,7,1,2026-05-17T09:23:00.797629+05:30
Jodhpur,Rajasthan,26.2389,73.0243,35.8,27,0.0,982.1,8.4,29.2,104,81.0,18.7,4.2,177.0,78.0,3.5,0,5,10,0,2026-05-17T09:23:00.797636+05:30
Udaipur,Rajasthan,24.5854,73.7125,35.1,26,0.0,946.5,8.85,28.1,52,27.9,10.4,2.1,140.0,89.0,5.2,0,5,10,0,2026-05-17T09:23:00.797644+05:30
Kota,Rajasthan,25.2138,75.8648,37.3,23,0.0,977.4,8.4,37.1,82,313.9,55.5,5.8,273.0,90.0,7.0,0,5,10,0,2026-05-17T09:23:00.797652+05:30
Bikaner,Rajasthan,28.0229,73.3119,36.7,23,0.0,980.3,8.4,37.1,92,95.0,25.9,2.5,171.0,68.0,1.9,0,5,10,0,2026-05-17T09:23:00.797659+05:30
Ajmer,Rajasthan,26.4499,74.6399,34.8,26,0.0,954.4,8.4,36.4,88,170.4,37.8,4.4,202.0,108.0,7.0,0,5,7,0,2026-05-17T09:23:00.797666+05:30
Gwalior,Madhya Pradesh,26.2183,78.1828,37.6,22,0.0,981.5,8.25,42.1,187,780.4,131.8,6.7,285.0,110.0,17.0,0,5,10,0,2026-05-17T09:23:00.797673+05:30
Indore,Madhya Pradesh,22.7196,75.8577,34.9,25,0.0,947.6,8.7,42.1,48,21.7,12.4,2.7,259.0,100.0,5.3,0,5,7,0,2026-05-17T09:23:00.797680+05:30
Bhopal,Madhya Pradesh,23.2599,77.4126,36.4,23,0.0,952.7,8.7,41.4,52,17.3,11.8,2.3,217.0,95.0,4.2,0,5,10,0,2026-05-17T09:23:00.797687+05:30
Jabalpur,Madhya Pradesh,23.1815,79.9864,35.7,37,0.0,960.4,8.9,38.5,108,40.7,33.3,4.5,289.0,120.0,10.3,0,5,10,1,2026-05-17T09:23:00.797694+05:30
Ujjain,Madhya Pradesh,23.1765,75.7885,35.6,25,0.0,952.9,8.65,40.0,50,22.2,13.1,2.3,223.0,91.0,4.9,0,5,10,0,2026-05-17T09:23:00.797703+05:30
Visakhapatnam,Andhra Pradesh,17.6868,83.2185,33.0,61,0.0,1002.7,8.7,46.1,58,19.8,15.0,13.3,308.0,59.0,38.0,3,5,4,1,2026-05-17T09:23:00.797710+05:30
Vijayawada,Andhra Pradesh,16.5062,80.648,33.9,58,0.0,1001.3,9.15,37.1,49,15.4,11.5,3.3,202.0,91.0,7.6,0,5,4,1,2026-05-17T09:23:00.797717+05:30
Guntur,Andhra Pradesh,16.3067,80.4365,33.8,57,0.0,1002.4,9.2,31.7,50,13.9,10.5,2.5,187.0,89.0,3.9,0,5,4,1,2026-05-17T09:23:00.797724+05:30
Nellore,Andhra Pradesh,14.4426,79.9865,33.8,56,0.0,1003.8,9.15,38.5,41,22.2,18.3,8.1,256.0,95.0,21.5,0,5,4,1,2026-05-17T09:23:00.797733+05:30
Kurnool,Andhra Pradesh,15.8281,78.0373,34.1,44,0.0,975.9,9.2,34.2,82,16.4,8.9,3.1,170.0,69.0,3.8,0,5,7,1,2026-05-17T09:23:00.797741+05:30
Kakinada,Andhra Pradesh,16.9891,82.2475,34.2,56,0.0,1006.2,8.75,41.4,33,15.1,10.1,1.5,218.0,86.0,2.1,0,5,4,1,2026-05-17T09:23:00.797748+05:30
Tirupati,Andhra Pradesh,13.6288,79.4192,31.5,62,0.0,989.7,9.2,32.0,59,27.8,24.2,5.7,290.0,106.0,20.1,3,5,7,1,2026-05-17T09:23:00.797772+05:30
Warangal,Telangana,17.9689,79.5941,32.5,60,0.0,978.1,8.8,31.0,79,15.9,10.4,5.0,183.0,65.0,6.5,0,5,7,1,2026-05-17T09:23:00.797779+05:30
Nizamabad,Telangana,18.6725,78.0941,34.8,41,0.0,963.8,9.15,32.0,78,44.5,32.2,6.2,292.0,94.0,6.8,0,5,7,1,2026-05-17T09:23:00.797786+05:30
Mysore,Karnataka,12.2958,76.6396,27.5,67,0.0,927.9,8.0,48.2,96,29.6,23.7,9.7,391.0,85.0,3.6,7,5,7,1,2026-05-17T09:23:00.797794+05:30
Mangalore,Karnataka,12.9141,74.856,29.9,78,0.0,1005.1,8.7,39.6,67,28.0,20.5,8.1,214.0,58.0,3.4,7,5,4,1,2026-05-17T09:23:00.797801+05:30
Hubli-Dharwad,Karnataka,15.3647,75.124,29.6,64,0.0,940.1,9.15,48.6,59,19.0,13.0,4.6,193.0,69.0,3.1,7,5,7,1,2026-05-17T09:23:00.797808+05:30
Belgaum,Karnataka,15.8497,74.4977,29.1,64,0.0,925.4,9.15,44.6,58,23.7,14.5,3.6,180.0,81.0,3.7,7,5,7,1,2026-05-17T09:23:04.030196+05:30
Coimbatore,Tamil Nadu,11.0168,76.9558,28.8,67,0.0,960.8,8.4,44.3,72,39.3,24.2,4.7,331.0,113.0,5.6,7,5,7,1,2026-05-17T09:23:04.030234+05:30
Madurai,Tamil Nadu,9.9252,78.1198,31.0,63,0.0,991.9,8.8,31.3,98,55.2,30.6,8.1,351.0,100.0,6.3,3,5,7,1,2026-05-17T09:23:04.030246+05:30
Trichy,Tamil Nadu,10.7905,78.7047,30.9,68,0.0,998.4,7.65,20.9,85,48.9,30.7,8.7,312.0,88.0,7.3,3,5,7,1,2026-05-17T09:23:04.030255+05:30
Salem,Tamil Nadu,11.6643,78.146,30.1,66,0.0,976.4,8.5,27.7,109,40.0,27.4,11.1,365.0,89.0,15.6,3,5,7,1,2026-05-17T09:23:04.030263+05:30
Tirunelveli,Tamil Nadu,8.7139,77.7567,32.9,54,0.0,1001.9,8.8,35.6,55,10.5,8.3,3.0,307.0,88.0,2.3,0,5,4,1,2026-05-17T09:23:04.030271+05:30
Vellore,Tamil Nadu,12.9165,79.1325,31.1,61,0.0,983.1,9.2,27.7,93,33.4,27.8,8.4,324.0,95.0,28.9,3,5,7,1,2026-05-17T09:23:04.030279+05:30
Erode,Tamil Nadu,11.341,77.7172,30.4,66,0.0,988.0,8.55,46.8,91,23.9,18.6,12.5,350.0,82.0,4.8,3,5,7,1,2026-05-17T09:23:04.030286+05:30
Kochi,Kerala,9.9312,76.2673,27.5,84,0.1,1008.0,8.75,33.1,57,17.1,12.1,8.4,228.0,71.0,4.2,10,0,4,1,2026-05-17T09:23:04.030294+05:30
Thiruvananthapuram,Kerala,8.5241,76.9366,26.0,90,0.2,1008.2,8.15,36.0,50,14.8,9.2,2.3,192.0,85.0,1.1,10,0,4,1,2026-05-17T09:23:04.030302+05:30
Kozhikode,Kerala,11.2588,75.7804,30.6,71,0.0,1006.0,8.9,42.1,53,19.0,11.6,1.7,212.0,77.0,1.7,3,5,4,1,2026-05-17T09:23:04.030309+05:30
Thrissur,Kerala,10.5276,76.2144,26.8,89,0.1,1006.1,8.75,36.7,62,14.6,11.8,8.8,277.0,60.0,5.4,10,5,4,1,2026-05-17T09:23:04.030317+05:30
Kannur,Kerala,11.8745,75.3704,31.4,67,0.0,1005.2,8.95,45.0,57,21.2,15.5,5.8,257.0,65.0,2.9,3,5,4,1,2026-05-17T09:23:04.030325+05:30
Patna,Bihar,25.5941,85.1376,33.0,61,0.0,997.4,8.8,35.6,151,72.4,60.8,9.1,529.0,132.0,16.6,3,5,7,1,2026-05-17T09:23:04.030332+05:30
Gaya,Bihar,24.7914,85.0002,36.1,35,0.0,990.9,8.85,44.3,151,120.1,49.9,8.0,362.0,126.0,10.9,0,5,10,1,2026-05-17T09:23:04.030339+05:30
Muzaffarpur,Bihar,26.1209,85.3647,31.1,71,0.0,997.4,8.8,28.8,149,65.7,57.7,7.3,522.0,129.0,14.0,3,5,7,1,2026-05-17T09:23:04.030346+05:30
Bhagalpur,Bihar,25.2425,87.0117,31.8,68,0.0,998.1,8.8,35.3,153,57.4,51.7,9.3,554.0,122.0,17.6,3,5,7,1,2026-05-17T09:23:04.030353+05:30
Ranchi,Jharkhand,23.3441,85.3096,32.0,50,0.0,937.4,9.3,37.8,114,64.0,50.3,4.4,298.0,131.0,18.6,0,5,7,1,2026-05-17T09:23:04.030360+05:30
Jamshedpur,Jharkhand,22.8046,86.2029,33.8,59,0.0,988.6,9.1,36.0,103,41.0,30.2,9.9,314.0,104.0,29.5,0,5,7,1,2026-05-17T09:23:04.030366+05:30
Dhanbad,Jharkhand,23.7957,86.4304,34.0,53,0.0,977.5,9.05,42.1,153,62.6,55.2,22.6,369.0,109.0,77.1,0,5,7,1,2026-05-17T09:23:04.030373+05:30
Bokaro,Jharkhand,23.6693,86.1511,34.6,52,0.0,981.3,9.05,39.6,153,60.5,52.4,13.8,362.0,121.0,51.0,0,5,7,1,2026-05-17T09:23:04.030380+05:30
Bhubaneswar,Odisha,20.2961,85.8245,34.2,58,0.0,1001.1,9.15,43.9,44,21.9,12.3,2.6,195.0,77.0,5.0,0,5,4,1,2026-05-17T09:23:04.030387+05:30
Cuttack,Odisha,20.4625,85.8828,33.8,62,0.0,1002.8,9.2,41.8,44,21.9,12.3,2.6,195.0,77.0,5.0,3,5,4,1,2026-05-17T09:23:04.030393+05:30
Rourkela,Odisha,22.2604,84.8536,33.8,57,0.0,983.7,9.05,35.3,117,52.2,39.5,5.3,318.0,124.0,10.8,0,5,7,1,2026-05-17T09:23:04.030400+05:30
Raipur,Chhattisgarh,21.2514,81.6296,34.7,46,0.0,973.8,8.95,33.1,150,49.7,38.5,24.0,621.0,88.0,57.3,0,5,7,1,2026-05-17T09:23:04.030406+05:30
Bhilai,Chhattisgarh,21.1938,81.3509,33.9,49,0.0,974.1,9.0,34.9,150,41.2,30.6,16.4,902.0,93.0,42.7,0,5,7,1,2026-05-17T09:23:04.030413+05:30
Guwahati,Assam,26.1158,91.7086,23.9,95,0.6,1000.7,8.7,32.0,83,19.4,14.5,2.6,314.0,106.0,3.7,6,5,4,1,2026-05-17T09:23:04.030420+05:30
Agartala,Tripura,23.8315,91.2868,30.9,71,0.0,1004.6,8.9,38.2,68,22.9,14.0,3.9,155.0,68.0,2.2,3,5,4,1,2026-05-17T09:23:04.030427+05:30
Shillong,Meghalaya,25.5788,91.8933,21.4,85,0.2,856.8,9.1,45.0,62,3.4,2.4,2.5,272.0,89.0,3.2,6,5,7,1,2026-05-17T09:23:04.030434+05:30
Imphal,Manipur,24.817,93.9368,24.0,80,0.0,923.5,8.1,35.3,69,17.6,9.1,1.2,267.0,91.0,2.5,3,5,7,1,2026-05-17T09:23:04.030440+05:30
Aizawl,Mizoram,23.7271,92.7176,25.2,64,0.0,893.5,9.05,35.6,46,23.2,10.7,0.8,154.0,76.0,1.8,7,5,7,1,2026-05-17T09:23:04.030447+05:30
Kohima,Nagaland,25.6701,94.1077,21.6,86,0.0,855.7,8.65,29.5,65,22.9,12.4,0.7,203.0,100.0,2.6,3,5,7,1,2026-05-17T09:23:04.030454+05:30
Gangtok,Sikkim,27.3314,88.6138,20.9,70,0.0,836.9,9.1,34.9,52,20.9,15.1,1.3,404.0,135.0,2.1,3,5,7,0,2026-05-17T09:23:04.030460+05:30
Siliguri,West Bengal,26.7271,88.3953,26.4,76,0.0,991.3,8.7,27.0,85,36.2,26.9,2.8,393.0,141.0,3.0,7,5,7,1,2026-05-17T09:23:07.255018+05:30
Durgapur,West Bengal,23.5204,87.3119,34.2,58,0.0,992.0,8.95,44.6,149,53.1,46.1,27.0,556.0,82.0,76.0,0,5,7,1,2026-05-17T09:23:07.255054+05:30
Asansol,West Bengal,23.6739,86.9524,35.0,54,0.0,990.6,9.0,38.2,147,55.8,49.2,23.5,925.0,96.0,71.0,0,5,7,1,2026-05-17T09:23:07.255066+05:30
Pondicherry,Puducherry,11.9139,79.8145,30.2,74,0.0,1007.0,8.85,38.2,65,30.4,21.0,10.0,316.0,89.0,14.0,3,5,4,1,2026-05-17T09:23:07.255075+05:30
Port Blair,Andaman and Nicobar Islands,11.6234,92.7265,26.4,97,0.3,1008.1,1.3,42.5,30,10.4,6.3,0.4,109.0,58.0,0.2,10,0,0,1,2026-05-17T09:23:07.255084+05:30
Haridwar,Uttarakhand,29.9457,78.1642,30.8,49,0.0,970.9,7.55,38.9,85,40.4,25.4,6.0,273.0,141.0,9.5,0,5,7,1,2026-05-17T09:23:07.255092+05:30
Rishikesh,Uttarakhand,30.0869,78.2676,31.7,39,0.0,963.7,7.65,34.9,75,38.9,18.7,1.8,219.0,148.0,6.7,0,5,7,0,2026-05-17T09:23:07.255100+05:30
Nainital,Uttarakhand,29.3919,79.4542,23.0,34,0.0,807.3,8.5,39.6,71,30.4,17.4,2.6,174.0,143.0,5.1,0,5,7,0,2026-05-17T09:23:07.255107+05:30
Mussoorie,Uttarakhand,30.4599,78.0664,22.1,37,0.0,804.2,8.05,51.8,77,43.3,19.7,3.2,165.0,143.0,6.9,0,5,7,0,2026-05-17T09:23:07.255116+05:30
Dharamshala,Himachal Pradesh,32.219,76.3234,25.3,38,0.0,868.8,8.4,44.6,50,20.0,9.0,1.3,197.0,117.0,0.5,4,5,7,0,2026-05-17T09:23:07.255123+05:30
Dalhousie,Himachal Pradesh,32.5387,75.971,23.4,26,0.0,806.2,8.65,39.2,69,27.8,13.6,4.1,195.0,121.0,1.2,0,5,7,0,2026-05-17T09:23:07.255131+05:30
Patiala,Punjab,30.3398,76.3869,33.8,30,0.0,975.6,7.65,45.4,490,278.5,60.3,7.9,519.0,103.0,8.9,0,5,7,0,2026-05-17T09:23:07.255139+05:30
Bhatinda,Punjab,30.211,74.9455,34.8,33,0.0,981.4,8.3,37.8,89,65.2,34.7,10.0,399.0,98.0,12.3,0,5,7,0,2026-05-17T09:23:07.255146+05:30
Rohtak,Haryana,28.8955,76.6066,34.5,33,0.0,979.7,7.75,47.2,682,529.0,127.6,12.4,451.0,92.0,9.5,0,5,7,0,2026-05-17T09:23:07.255153+05:30
Panipat,Haryana,29.3909,76.9635,34.0,33,0.0,977.8,7.6,51.8,1416,1087.8,189.1,8.3,439.0,92.0,9.7,0,5,7,0,2026-05-17T09:23:07.255160+05:30
Mathura,Uttar Pradesh,27.4924,77.6737,34.3,34,0.0,985.1,8.0,44.6,731,655.7,144.8,15.5,406.0,82.0,15.8,0,5,7,0,2026-05-17T09:23:07.255166+05:30
Vrindavan,Uttar Pradesh,27.5823,77.7027,34.2,35,0.0,985.5,7.95,42.5,731,655.7,144.8,15.5,404.0,82.0,15.8,0,5,7,1,2026-05-17T09:23:07.255173+05:30
Ayodhya,Uttar Pradesh,26.7922,82.1998,33.8,43,0.0,992.4,8.35,43.2,151,118.0,61.7,18.8,387.0,102.0,15.0,0,5,7,1,2026-05-17T09:23:07.255180+05:30
Ratlam,Madhya Pradesh,23.3315,75.0367,34.4,28,0.0,954.0,8.55,37.4,52,24.0,13.8,2.5,195.0,87.0,4.8,0,5,7,0,2026-05-17T09:23:07.255187+05:30
Sagar,Madhya Pradesh,23.8388,78.7378,36.7,25,0.0,949.4,8.75,40.0,75,64.3,28.4,5.5,238.0,102.0,5.4,0,5,10,0,2026-05-17T09:23:07.255194+05:30
Satna,Madhya Pradesh,24.6005,80.8322,36.3,33,0.0,970.0,8.75,45.0,108,92.9,39.7,6.8,237.0,120.0,12.3,0,5,10,1,2026-05-17T09:23:07.255202+05:30
Akola,Maharashtra,20.7002,77.0082,37.5,23,0.0,974.0,8.9,34.9,51,23.7,14.6,5.5,190.0,108.0,8.5,0,5,10,0,2026-05-17T09:23:07.255209+05:30
Amravati,Maharashtra,20.9374,77.7796,37.0,27,0.0,966.3,8.95,28.1,53,22.4,15.9,8.9,191.0,100.0,10.9,0,5,10,0,2026-05-17T09:23:07.255218+05:30
Latur,Maharashtra,18.4088,76.5604,34.5,34,0.0,939.4,9.1,34.9,72,40.5,29.7,6.7,206.0,109.0,12.8,0,5,7,1,2026-05-17T09:23:07.255225+05:30
Nanded,Maharashtra,19.1383,77.3091,36.5,28,0.0,967.5,9.05,33.8,71,32.4,26.0,8.5,372.0,115.0,8.3,0,5,10,0,2026-05-17T09:23:07.255233+05:30
Gulbarga,Karnataka,17.3297,76.8343,34.3,45,0.0,957.6,9.15,34.2,82,42.6,33.3,9.7,336.0,91.0,11.5,0,5,7,1,2026-05-17T09:23:07.255240+05:30
Bidar,Karnataka,17.9104,77.5199,33.5,42,0.0,935.2,9.15,33.8,76,38.2,25.1,5.9,296.0,89.0,7.4,0,5,7,1,2026-05-17T09:23:07.255247+05:30
Hospet,Karnataka,15.2689,76.3909,29.5,69,0.0,955.0,9.2,37.4,91,20.0,14.5,6.0,199.0,63.0,5.0,7,5,7,1,2026-05-17T09:23:07.255254+05:30
Tirupur,Tamil Nadu,11.1085,77.3411,30.8,59,0.0,974.1,8.25,46.8,95,40.3,29.4,15.1,293.0,87.0,7.6,0,5,7,1,2026-05-17T09:23:07.255261+05:30
Alappuzha,Kerala,9.4981,76.3388,25.3,98,0.1,1008.6,8.8,32.4,54,18.1,12.2,5.9,228.0,79.0,3.6,10,0,4,1,2026-05-17T09:23:07.255268+05:30
Munnar,Kerala,10.0889,77.0595,21.8,82,0.0,857.1,7.05,25.9,60,10.8,6.8,2.5,207.0,93.0,1.7,3,5,7,1,2026-05-17T09:23:07.255275+05:30
Silchar,Assam,24.8333,92.7789,27.0,83,0.4,1004.9,8.7,31.3,65,15.9,9.8,2.3,205.0,75.0,3.2,10,5,4,1,2026-05-17T09:23:07.255283+05:30
Dibrugarh,Assam,27.4728,94.912,24.3,91,0.0,995.8,5.6,28.1,71,34.5,22.6,1.6,225.0,109.0,1.7,3,5,3,1,2026-05-17T09:23:07.255291+05:30
