city,state,latitude,longitude,temp,humidity,rain,pressure,uv_index,wind_gusts,aqi,pm10,pm2_5,no2,co,o3,so2,mosquito_risk,arthritis_risk,migraine_risk,frizz_risk,updated_at
Delhi,Delhi,28.6139,77.209,39.0,27,0.0,975.9,7.8,50.8,209,403.3,78.2,4.9,208.0,132.0,10.8,0,5,10,1,2026-06-07T17:19:57.142149+05:30
Mumbai,Maharashtra,19.076,72.8777,32.3,65,0.0,1005.2,7.7,40.3,73,65.0,22.1,4.6,153.0,80.0,5.1,3,5,4,1,2026-06-07T17:19:57.142187+05:30
Bangalore,Karnataka,12.9716,77.5946,25.4,70,0.0,910.1,8.25,45.0,31,4.0,3.9,9.3,340.0,62.0,3.2,7,5,7,1,2026-06-07T17:19:57.142201+05:30
Hyderabad,Telangana,17.385,78.4867,32.6,44,0.0,949.3,8.45,44.3,82,47.0,27.8,1.2,217.0,130.0,5.2,0,5,7,1,2026-06-07T17:19:57.142210+05:30
Chennai,Tamil Nadu,13.0827,80.2707,34.0,56,0.1,1002.4,8.05,43.2,50,22.4,16.3,3.2,206.0,114.0,5.4,3,5,4,1,2026-06-07T17:19:57.142218+05:30
Kolkata,West Bengal,22.5726,88.3639,28.0,92,0.2,999.8,7.4,26.6,132,35.7,32.2,12.6,504.0,83.0,8.4,10,5,7,1,2026-06-07T17:19:57.142226+05:30
Pune,Maharashtra,18.5204,73.8567,29.4,64,0.1,945.5,7.8,45.4,57,32.1,14.1,3.2,138.0,86.0,3.7,10,5,7,1,2026-06-07T17:19:57.142233+05:30
Ahmedabad,Gujarat,23.0225,72.5714,41.1,28,0.0,995.4,8.05,42.5,78,64.5,23.9,1.3,141.0,99.0,3.4,0,5,10,1,2026-06-07T17:19:57.142240+05:30
Jaipur,Rajasthan,26.9124,75.7873,37.9,29,0.0,954.4,8.25,32.0,136,205.4,45.3,0.0,140.0,101.0,2.7,0,5,10,1,2026-06-07T17:19:57.142250+05:30
Lucknow,Uttar Pradesh,26.8467,80.9462,38.5,27,0.0,986.0,8.3,34.9,153,210.5,54.8,2.0,234.0,140.0,5.4,0,5,10,1,2026-06-07T17:19:57.142258+05:30
Kanpur,Uttar Pradesh,26.4499,80.3319,39.9,22,0.0,984.2,8.3,35.6,177,428.4,72.4,1.5,181.0,139.0,5.8,0,5,10,0,2026-06-07T17:19:57.142265+05:30
Chandigarh,Chandigarh,30.7333,76.7794,35.7,32,0.0,962.4,7.8,25.9,168,36.9,27.0,1.8,349.0,188.0,9.5,0,5,10,1,2026-06-07T17:19:57.142297+05:30
Srinagar,Jammu and Kashmir,34.0837,74.7973,25.7,32,0.0,842.1,9.0,19.8,116,13.4,8.7,1.1,218.0,148.0,1.8,4,5,7,0,2026-06-07T17:19:57.142306+05:30
Jammu,Jammu and Kashmir,32.7266,74.857,38.1,17,0.0,966.7,8.6,27.7,136,15.3,9.5,0.7,159.0,166.0,2.2,0,5,10,0,2026-06-07T17:19:57.142312+05:30
Amritsar,Punjab,31.634,74.8723,38.8,20,0.0,974.3,8.45,25.2,159,39.9,26.6,0.3,235.0,195.0,7.4,0,5,10,0,2026-06-07T17:19:57.142319+05:30
Ludhiana,Punjab,30.901,75.8573,38.8,19,0.0,972.0,8.05,32.4,162,49.5,29.9,0.9,216.0,173.0,5.1,0,5,10,0,2026-06-07T17:19:57.142328+05:30
Jalandhar,Punjab,31.326,75.5762,39.4,18,0.0,972.9,8.25,28.8,159,44.0,25.0,0.1,203.0,177.0,4.8,0,5,10,0,2026-06-07T17:19:57.142335+05:30
Dehradun,Uttarakhand,30.6284,78.0322,23.5,56,0.0,829.1,8.3,48.6,125,21.7,14.1,0.1,216.0,158.0,3.5,0,5,7,0,2026-06-07T17:19:57.142345+05:30
Shimla,Himachal Pradesh,31.1048,77.1734,22.5,32,0.0,785.0,8.35,44.3,129,18.2,12.7,0.5,182.0,169.0,5.1,0,5,7,0,2026-06-07T17:19:57.142352+05:30
Manali,Himachal Pradesh,32.2396,77.1887,22.3,51,0.1,818.6,9.55,37.4,126,11.2,8.9,2.1,142.0,166.0,0.4,3,5,7,0,2026-06-07T17:19:57.142359+05:30
Gurgaon,Haryana,28.4595,77.0266,38.5,30,0.0,974.5,7.9,47.2,465,356.7,67.1,4.1,160.0,127.0,8.4,0,5,10,1,2026-06-07T17:19:57.142365+05:30
Noida,Uttar Pradesh,28.5355,77.391,38.9,26,0.0,977.2,7.85,41.0,465,356.7,67.1,4.1,235.0,127.0,8.4,0,5,10,1,2026-06-07T17:19:57.142371+05:30
Ghaziabad,Uttar Pradesh,28.6692,77.4538,37.1,34,0.0,975.6,7.8,41.4,182,308.3,72.2,2.6,221.0,155.0,13.4,0,5,10,1,2026-06-07T17:19:57.142377+05:30
Faridabad,Haryana,28.4089,77.3178,39.0,26,0.0,976.7,7.85,50.4,465,356.7,67.1,4.1,209.0,127.0,8.4,0,5,10,0,2026-06-07T17:19:57.142384+05:30
Meerut,Uttar Pradesh,28.9845,77.7064,36.2,38,0.0,974.7,7.7,35.6,182,308.3,72.2,2.6,217.0,155.0,13.4,0,5,10,1,2026-06-07T17:19:57.142390+05:30
Agra,Uttar Pradesh,27.1767,78.0081,39.0,28,0.0,980.8,8.15,31.3,386,698.5,98.5,1.6,148.0,120.0,4.0,0,5,10,1,2026-06-07T17:19:57.142396+05:30
Varanasi,Uttar Pradesh,25.3176,82.9739,38.4,27,0.0,989.9,8.8,40.3,145,103.4,39.5,2.3,235.0,174.0,9.1,0,5,10,1,2026-06-07T17:19:57.142403+05:30
Prayagraj,Uttar Pradesh,25.4358,81.8463,39.1,25,0.0,988.5,8.7,34.9,163,154.6,47.1,2.5,211.0,164.0,9.4,0,5,10,0,2026-06-07T17:19:57.142409+05:30
Gorakhpur,Uttar Pradesh,26.7606,83.3732,35.1,46,0.0,989.4,8.7,29.9,141,92.9,42.6,1.1,293.0,159.0,6.6,0,5,10,1,2026-06-07T17:19:57.142418+05:30
Bareilly,Uttar Pradesh,28.367,79.4304,36.0,42,0.0,979.4,8.15,39.6,158,87.1,41.1,1.7,254.0,171.0,7.9,0,5,10,1,2026-06-07T17:19:57.142425+05:30
Aligarh,Uttar Pradesh,27.8974,78.088,37.4,33,0.0,978.7,8.0,30.6,374,543.9,91.7,1.6,176.0,152.0,10.0,0,5,10,1,2026-06-07T17:19:57.142431+05:30
Moradabad,Uttar Pradesh,28.8386,78.7733,36.8,35,0.0,976.6,7.95,35.6,189,109.9,46.9,2.6,261.0,169.0,8.8,0,5,10,1,2026-06-07T17:19:57.142436+05:30
Saharanpur,Uttar Pradesh,29.9637,77.546,34.8,41,0.0,968.9,7.55,32.0,174,70.5,36.4,3.3,274.0,174.0,12.7,0,5,7,1,2026-06-07T17:19:57.142442+05:30
Jhansi,Uttar Pradesh,25.4484,78.5685,38.2,29,0.0,971.8,8.5,32.8,97,95.7,31.0,0.5,125.0,112.0,3.6,0,5,10,1,2026-06-07T17:20:18.254931+05:30
Surat,Gujarat,21.1702,72.8311,33.6,56,0.0,1002.3,7.6,46.1,90,56.5,23.9,10.8,231.0,56.0,31.1,0,5,4,1,2026-06-07T17:20:18.254960+05:30
Vadodara,Gujarat,22.3072,73.1812,38.5,33,0.0,998.5,7.65,42.8,88,76.8,30.5,1.4,129.0,110.0,4.9,0,5,10,1,2026-06-07T17:20:18.254970+05:30
Rajkot,Gujarat,22.3039,70.8022,36.8,50,0.0,988.5,7.3,50.4,69,61.2,24.2,1.2,113.0,98.0,4.8,0,5,10,1,2026-06-07T17:20:18.254978+05:30
Thane,Maharashtra,19.2183,72.9781,33.9,55,0.0,1004.3,7.7,40.3,73,65.0,22.1,4.6,143.0,80.0,5.1,0,5,4,1,2026-06-07T17:20:18.254986+05:30
Nagpur,Maharashtra,21.1458,79.0882,39.7,24,0.0,967.2,8.65,42.1,96,73.8,31.9,4.8,167.0,124.0,14.6,0,5,10,0,2026-06-07T17:20:18.254993+05:30
Nashik,Maharashtra,19.9975,73.7898,33.1,44,0.0,942.6,7.9,45.7,63,67.5,22.4,1.0,123.0,78.0,1.2,0,5,7,1,2026-06-07T17:20:18.255000+05:30
Aurangabad,Maharashtra,19.8762,75.3433,37.0,25,0.0,940.2,9.0,50.0,65,68.5,24.0,0.9,127.0,105.0,2.2,0,5,10,0,2026-06-07T17:20:18.255007+05:30
Solapur,Maharashtra,17.6599,75.9064,34.2,42,0.0,953.5,5.55,56.2,64,47.1,22.0,1.1,129.0,113.0,3.6,0,5,3,1,2026-06-07T17:20:18.255014+05:30
Kolhapur,Maharashtra,16.705,74.2433,26.7,72,0.0,946.0,8.35,44.3,34,19.0,10.4,2.2,131.0,80.0,1.8,7,5,7,1,2026-06-07T17:20:18.255021+05:30
Goa,Goa,15.2993,74.124,26.0,97,0.4,997.1,2.65,23.4,42,7.4,4.7,1.2,140.0,69.0,1.3,10,5,3,1,2026-06-07T17:20:18.255028+05:30
Jodhpur,Rajasthan,26.2389,73.0243,40.0,28,0.0,976.5,8.4,37.1,127,286.8,52.7,0.5,122.0,95.0,1.7,0,5,10,1,2026-06-07T17:20:18.255035+05:30
Udaipur,Rajasthan,24.5854,73.7125,35.8,35,0.0,942.4,8.8,34.2,78,61.0,22.9,0.5,122.0,96.0,2.8,0,5,10,1,2026-06-07T17:20:18.255042+05:30
Kota,Rajasthan,25.2138,75.8648,38.4,34,0.0,972.7,8.4,40.3,107,106.6,32.6,0.0,145.0,114.0,4.0,0,5,10,1,2026-06-07T17:20:18.255048+05:30
Bikaner,Rajasthan,28.0229,73.3119,41.9,18,0.0,974.5,8.45,31.3,130,125.7,43.5,0.2,144.0,102.0,2.6,0,5,10,0,2026-06-07T17:20:18.255054+05:30
Ajmer,Rajasthan,26.4499,74.6399,36.2,37,0.0,949.3,8.35,37.4,93,181.1,41.4,0.3,131.0,100.0,2.7,0,5,10,1,2026-06-07T17:20:18.255060+05:30
Gwalior,Madhya Pradesh,26.2183,78.1828,39.0,25,0.0,976.7,8.3,34.6,103,153.2,38.8,0.0,143.0,119.0,2.3,0,5,10,0,2026-06-07T17:20:18.255067+05:30
Indore,Madhya Pradesh,22.7196,75.8577,34.9,39,0.0,944.3,8.65,35.3,95,65.0,28.5,0.7,165.0,111.0,4.4,0,5,7,1,2026-06-07T17:20:18.255073+05:30
Bhopal,Madhya Pradesh,23.2599,77.4126,32.9,48,0.0,949.4,8.7,48.2,105,70.3,29.9,0.0,135.0,107.0,3.4,0,5,7,1,2026-06-07T17:20:18.255079+05:30
Jabalpur,Madhya Pradesh,23.1815,79.9864,36.4,33,0.0,956.2,8.9,33.8,112,91.3,33.5,0.3,137.0,113.0,2.8,0,5,10,1,2026-06-07T17:20:18.255086+05:30
Ujjain,Madhya Pradesh,23.1765,75.7885,34.9,40,0.0,949.5,8.6,34.9,91,65.4,28.5,0.5,132.0,111.0,4.7,0,5,7,1,2026-06-07T17:20:18.255093+05:30
Visakhapatnam,Andhra Pradesh,17.6868,83.2185,35.2,59,0.0,997.0,8.35,41.0,140,53.9,43.2,16.4,309.0,171.0,44.5,0,5,10,1,2026-06-07T17:20:18.255099+05:30
Vijayawada,Andhra Pradesh,16.5062,80.648,36.3,45,0.0,996.6,8.0,37.8,84,41.7,26.3,4.0,184.0,120.0,4.9,0,5,10,1,2026-06-07T17:20:18.255106+05:30
Guntur,Andhra Pradesh,16.3067,80.4365,36.5,42,0.0,998.0,7.9,43.9,84,45.6,26.8,1.9,192.0,127.0,4.3,0,5,10,1,2026-06-07T17:20:18.255113+05:30
Nellore,Andhra Pradesh,14.4426,79.9865,34.0,53,0.0,1001.1,8.2,37.4,57,26.0,18.6,2.2,169.0,131.0,5.1,0,5,4,1,2026-06-07T17:20:18.255120+05:30
Kurnool,Andhra Pradesh,15.8281,78.0373,33.6,50,0.0,972.8,8.4,36.0,62,46.2,26.0,1.2,161.0,136.0,8.8,0,5,7,1,2026-06-07T17:20:18.255127+05:30
Kakinada,Andhra Pradesh,16.9891,82.2475,36.4,47,0.0,1000.8,7.95,38.9,129,41.3,30.7,2.6,258.0,154.0,3.9,0,5,7,1,2026-06-07T17:20:18.255134+05:30
Tirupati,Andhra Pradesh,13.6288,79.4192,32.7,54,0.0,987.1,8.4,28.4,41,15.4,11.9,4.7,159.0,87.0,1.5,0,5,7,1,2026-06-07T17:20:18.255140+05:30
Warangal,Telangana,17.9689,79.5941,35.8,38,0.0,973.4,7.75,40.3,100,74.0,40.2,1.7,178.0,134.0,7.3,0,5,10,1,2026-06-07T17:20:18.255146+05:30
Nizamabad,Telangana,18.6725,78.0941,32.1,55,0.1,959.9,8.7,44.6,89,51.6,27.4,1.0,147.0,116.0,4.0,3,5,7,1,2026-06-07T17:20:18.255153+05:30
Mysore,Karnataka,12.2958,76.6396,26.7,68,0.0,927.0,6.95,46.8,29,2.9,2.7,5.6,152.0,55.0,1.4,7,5,7,1,2026-06-07T17:20:18.255159+05:30
Mangalore,Karnataka,12.9141,74.856,27.5,81,0.1,1006.1,2.0,28.8,26,9.7,5.8,3.3,133.0,54.0,1.0,10,5,0,1,2026-06-07T17:20:18.255165+05:30
Hubli-Dharwad,Karnataka,15.3647,75.124,24.9,84,0.1,939.2,4.25,38.5,31,12.4,6.2,2.4,138.0,74.0,1.1,6,5,3,1,2026-06-07T17:20:18.255172+05:30
Belgaum,Karnataka,15.8497,74.4977,24.6,85,0.1,924.1,3.9,37.4,26,16.4,7.8,2.7,136.0,62.0,1.4,6,5,3,1,2026-06-07T17:20:21.601958+05:30
Coimbatore,Tamil Nadu,11.0168,76.9558,26.8,74,0.1,960.4,5.4,63.0,27,2.8,2.3,2.4,163.0,57.0,1.2,10,5,3,1,2026-06-07T17:20:21.601991+05:30
Madurai,Tamil Nadu,9.9252,78.1198,33.6,46,0.0,990.6,8.55,66.2,30,3.6,2.5,2.0,108.0,68.0,1.1,0,5,7,1,2026-06-07T17:20:21.602004+05:30
Trichy,Tamil Nadu,10.7905,78.7047,34.2,50,0.0,996.3,7.9,50.0,35,5.6,3.7,2.0,156.0,78.0,1.5,0,5,7,1,2026-06-07T17:20:21.602014+05:30
Salem,Tamil Nadu,11.6643,78.146,32.1,53,0.0,974.5,8.6,47.2,36,3.9,3.4,3.0,135.0,84.0,4.0,0,5,7,1,2026-06-07T17:20:21.602023+05:30
Tirunelveli,Tamil Nadu,8.7139,77.7567,32.9,50,0.0,1001.8,8.0,49.0,24,6.3,3.5,1.6,98.0,53.0,0.5,0,5,4,1,2026-06-07T17:20:21.602030+05:30
Vellore,Tamil Nadu,12.9165,79.1325,32.6,56,0.0,980.2,7.85,44.3,38,5.9,5.1,3.7,198.0,84.0,1.9,0,5,7,1,2026-06-07T17:20:21.602038+05:30
Erode,Tamil Nadu,11.341,77.7172,31.9,53,0.0,986.5,8.0,59.4,31,3.0,2.4,2.2,140.0,72.0,1.4,0,5,7,1,2026-06-07T17:20:21.602045+05:30
Kochi,Kerala,9.9312,76.2673,26.7,87,0.2,1009.3,6.45,41.8,40,11.0,6.3,4.0,114.0,47.0,1.6,10,0,4,1,2026-06-07T17:20:21.602052+05:30
Thiruvananthapuram,Kerala,8.5241,76.9366,25.4,92,0.1,1009.4,6.9,46.1,31,12.8,6.7,0.9,95.0,55.0,0.3,10,0,4,1,2026-06-07T17:20:21.602059+05:30
Kozhikode,Kerala,11.2588,75.7804,27.1,84,0.1,1007.6,4.3,36.0,28,7.7,4.1,0.5,139.0,60.0,0.3,10,5,0,1,2026-06-07T17:20:21.602066+05:30
Thrissur,Kerala,10.5276,76.2144,25.7,95,0.1,1007.7,4.55,37.4,39,9.2,5.7,3.5,127.0,47.0,1.3,10,5,0,1,2026-06-07T17:20:21.602074+05:30
Kannur,Kerala,11.8745,75.3704,27.5,81,0.1,1006.9,1.25,35.3,26,7.4,4.6,1.6,136.0,59.0,0.6,10,5,0,1,2026-06-07T17:20:21.602080+05:30
Patna,Bihar,25.5941,85.1376,34.5,52,0.0,992.6,8.7,30.2,174,107.3,61.7,3.5,292.0,176.0,8.1,0,5,7,1,2026-06-07T17:20:21.602087+05:30
Gaya,Bihar,24.7914,85.0002,36.1,39,0.0,986.3,8.65,26.3,155,102.4,55.6,4.8,276.0,139.0,6.2,0,5,10,1,2026-06-07T17:20:21.602094+05:30
Muzaffarpur,Bihar,26.1209,85.3647,33.5,62,0.0,992.8,8.6,27.0,169,99.7,58.8,4.8,318.0,173.0,9.5,3,5,7,1,2026-06-07T17:20:21.602101+05:30
Bhagalpur,Bihar,25.2425,87.0117,33.3,63,0.0,993.7,8.85,37.4,177,73.3,54.7,4.9,331.0,180.0,14.2,3,5,7,1,2026-06-07T17:20:21.602108+05:30
Ranchi,Jharkhand,23.3441,85.3096,31.3,49,0.0,932.4,9.05,43.6,149,106.9,51.7,2.7,244.0,177.0,11.4,0,5,7,1,2026-06-07T17:20:21.602115+05:30
Jamshedpur,Jharkhand,22.8046,86.2029,31.3,69,0.0,984.6,9.1,38.9,191,91.5,71.2,7.6,269.0,181.0,22.5,3,5,7,1,2026-06-07T17:20:21.602121+05:30
Dhanbad,Jharkhand,23.7957,86.4304,32.8,58,0.1,973.4,8.45,34.6,178,99.2,71.5,19.1,269.0,168.0,52.7,3,5,7,1,2026-06-07T17:20:21.602128+05:30
Bokaro,Jharkhand,23.6693,86.1511,32.6,59,0.0,977.1,8.55,37.8,167,110.4,68.2,17.1,244.0,160.0,55.0,0,5,7,1,2026-06-07T17:20:21.602134+05:30
Bhubaneswar,Odisha,20.2961,85.8245,32.0,73,0.0,996.0,9.1,43.2,129,47.1,35.0,6.6,302.0,127.0,7.8,3,5,7,1,2026-06-07T17:20:21.602140+05:30
Cuttack,Odisha,20.4625,85.8828,28.9,87,0.2,998.2,9.2,41.8,129,47.1,35.0,6.6,330.0,127.0,7.8,10,5,7,1,2026-06-07T17:20:21.602147+05:30
Rourkela,Odisha,22.2604,84.8536,30.6,71,0.0,978.6,8.75,58.0,151,117.8,47.8,5.6,192.0,135.0,7.0,3,5,7,1,2026-06-07T17:20:21.602153+05:30
Raipur,Chhattisgarh,21.2514,81.6296,39.3,23,0.0,968.4,8.55,33.5,138,77.5,36.3,5.9,148.0,161.0,25.3,0,5,10,0,2026-06-07T17:20:21.602160+05:30
Bhilai,Chhattisgarh,21.1938,81.3509,38.7,25,0.0,968.8,8.4,29.5,139,75.2,34.5,6.2,165.0,141.0,20.8,0,5,10,0,2026-06-07T17:20:21.602167+05:30
Guwahati,Assam,26.1158,91.7086,31.0,72,0.0,993.8,8.8,33.1,123,49.7,43.7,2.8,296.0,118.0,3.6,3,5,7,1,2026-06-07T17:20:21.602174+05:30
Agartala,Tripura,23.8315,91.2868,29.8,84,0.0,1000.1,8.6,33.8,135,35.9,31.5,7.4,201.0,116.0,5.2,7,5,4,1,2026-06-07T17:20:21.602181+05:30
Shillong,Meghalaya,25.5788,91.8933,22.0,85,0.1,853.5,8.6,24.1,100,25.9,23.1,3.4,264.0,112.0,2.2,6,5,7,1,2026-06-07T17:20:21.602188+05:30
Imphal,Manipur,24.817,93.9368,27.0,73,0.0,917.8,8.5,31.3,82,7.3,6.7,4.2,215.0,84.0,1.6,7,5,7,1,2026-06-07T17:20:21.602195+05:30
Aizawl,Mizoram,23.7271,92.7176,23.5,79,0.0,888.3,9.05,28.4,87,27.1,21.0,1.9,175.0,92.0,1.6,3,5,7,1,2026-06-07T17:20:21.602201+05:30
Kohima,Nagaland,25.6701,94.1077,21.6,97,0.1,851.2,9.2,25.2,79,18.6,15.9,1.8,209.0,104.0,1.5,6,5,7,1,2026-06-07T17:20:21.602207+05:30
Gangtok,Sikkim,27.3314,88.6138,18.9,93,0.1,833.6,9.1,37.1,101,29.0,25.3,3.3,287.0,121.0,2.0,6,10,7,1,2026-06-07T17:20:21.602214+05:30
Siliguri,West Bengal,26.7271,88.3953,27.5,92,0.1,985.8,8.75,27.7,139,33.1,28.9,3.3,500.0,152.0,5.4,10,5,7,1,2026-06-07T17:20:24.950957+05:30
Durgapur,West Bengal,23.5204,87.3119,29.1,88,0.1,989.0,8.9,41.4,188,93.6,85.7,27.9,449.0,167.0,53.9,10,5,7,1,2026-06-07T17:20:24.950992+05:30
Asansol,West Bengal,23.6739,86.9524,31.3,72,0.0,987.1,8.9,37.4,177,97.1,83.6,28.2,367.0,170.0,51.6,3,5,7,1,2026-06-07T17:20:24.951006+05:30
Pondicherry,Puducherry,11.9139,79.8145,30.3,83,0.1,1004.0,7.55,45.4,49,16.9,12.4,4.3,170.0,97.0,5.9,6,5,4,1,2026-06-07T17:20:24.951017+05:30
Port Blair,Andaman and Nicobar Islands,11.6234,92.7265,28.3,86,0.0,1006.2,5.95,38.2,24,11.1,6.2,0.4,93.0,45.0,0.4,7,5,0,1,2026-06-07T17:20:24.951027+05:30
Haridwar,Uttarakhand,29.9457,78.1642,35.0,42,0.0,967.2,7.6,32.4,163,46.9,31.2,1.4,271.0,175.0,9.1,0,5,7,1,2026-06-07T17:20:24.951036+05:30
Rishikesh,Uttarakhand,30.0869,78.2676,34.6,41,0.0,960.2,7.7,37.1,151,39.8,25.8,0.7,239.0,168.0,6.8,0,5,7,1,2026-06-07T17:20:24.951045+05:30
Nainital,Uttarakhand,29.3919,79.4542,22.2,52,0.0,804.5,8.6,35.3,151,53.3,30.2,1.1,222.0,168.0,8.0,0,5,7,0,2026-06-07T17:20:24.951054+05:30
Mussoorie,Uttarakhand,30.4599,78.0664,21.1,58,0.0,802.1,8.15,47.5,161,41.2,28.0,0.9,213.0,176.0,7.6,0,5,7,0,2026-06-07T17:20:24.951063+05:30
Dharamshala,Himachal Pradesh,32.219,76.3234,26.9,34,0.0,867.0,8.5,43.9,118,14.0,9.9,0.1,165.0,154.0,1.4,4,5,7,0,2026-06-07T17:20:24.951072+05:30
Dalhousie,Himachal Pradesh,32.5387,75.971,23.3,36,0.0,804.8,8.75,39.6,139,20.8,14.9,0.2,169.0,172.0,3.0,0,5,7,0,2026-06-07T17:20:24.951082+05:30
Patiala,Punjab,30.3398,76.3869,38.5,21,0.0,971.4,7.7,33.8,153,195.1,48.8,0.8,206.0,171.0,6.9,0,5,10,0,2026-06-07T17:20:24.951091+05:30
Bhatinda,Punjab,30.211,74.9455,40.0,20,0.0,976.6,8.3,20.9,157,68.7,31.3,1.1,183.0,168.0,10.9,0,5,10,0,2026-06-07T17:20:24.951101+05:30
Rohtak,Haryana,28.8955,76.6066,38.5,28,0.0,974.7,7.8,43.9,277,325.0,63.6,0.7,150.0,126.0,5.8,0,5,10,1,2026-06-07T17:20:24.951110+05:30
Panipat,Haryana,29.3909,76.9635,38.1,30,0.0,973.0,7.65,32.8,562,756.2,108.0,2.1,210.0,141.0,12.9,0,5,10,1,2026-06-07T17:20:24.951118+05:30
Mathura,Uttar Pradesh,27.4924,77.6737,37.6,36,0.0,979.8,8.1,27.0,290,345.5,64.3,1.3,187.0,112.0,2.8,0,5,10,1,2026-06-07T17:20:24.951127+05:30
Vrindavan,Uttar Pradesh,27.5823,77.7027,37.9,34,0.0,980.2,8.05,25.9,290,345.5,64.3,1.3,163.0,112.0,2.8,0,5,10,1,2026-06-07T17:20:24.951135+05:30
Ayodhya,Uttar Pradesh,26.7922,82.1998,36.0,43,0.0,987.5,8.4,25.6,151,135.0,45.4,3.0,271.0,148.0,7.9,0,5,10,1,2026-06-07T17:20:24.951143+05:30
Ratlam,Madhya Pradesh,23.3315,75.0367,35.9,37,0.0,950.5,8.5,38.5,88,63.8,27.9,0.5,128.0,109.0,4.3,0,5,10,1,2026-06-07T17:20:24.951152+05:30
Sagar,Madhya Pradesh,23.8388,78.7378,35.8,32,0.0,945.6,8.2,38.2,97,93.8,32.5,0.1,137.0,113.0,3.7,0,5,10,1,2026-06-07T17:20:24.951161+05:30
Satna,Madhya Pradesh,24.6005,80.8322,37.9,24,0.0,965.4,8.8,37.1,137,114.8,36.0,0.2,140.0,119.0,2.6,0,5,10,0,2026-06-07T17:20:24.951170+05:30
Akola,Maharashtra,20.7002,77.0082,38.2,30,0.0,969.8,8.8,38.5,89,69.4,29.7,1.1,124.0,117.0,6.1,0,5,10,1,2026-06-07T17:20:24.951179+05:30
Amravati,Maharashtra,20.9374,77.7796,37.8,32,0.0,962.2,8.85,41.8,97,72.6,32.5,1.5,141.0,123.0,7.3,0,5,10,1,2026-06-07T17:20:24.951189+05:30
Latur,Maharashtra,18.4088,76.5604,33.8,40,0.0,936.2,8.5,35.6,79,50.6,23.6,0.0,125.0,113.0,3.5,0,5,7,1,2026-06-07T17:20:24.951197+05:30
Nanded,Maharashtra,19.1383,77.3091,33.5,53,0.3,963.7,8.9,36.4,85,59.8,27.9,0.3,139.0,114.0,3.0,3,5,7,1,2026-06-07T17:20:24.951206+05:30
Gulbarga,Karnataka,17.3297,76.8343,33.5,47,0.0,954.9,8.9,44.3,63,38.1,20.8,0.9,192.0,119.0,4.7,0,5,7,1,2026-06-07T17:20:24.951214+05:30
Bidar,Karnataka,17.9104,77.5199,33.1,46,0.0,931.9,9.0,32.4,85,49.5,26.8,0.7,153.0,117.0,6.1,0,5,7,1,2026-06-07T17:20:24.951222+05:30
Hospet,Karnataka,15.2689,76.3909,26.0,82,0.0,953.3,8.45,42.5,39,28.1,15.3,3.5,171.0,94.0,1.8,7,5,7,1,2026-06-07T17:20:24.951231+05:30
Tirupur,Tamil Nadu,11.1085,77.3411,29.3,64,0.0,973.1,8.55,67.0,31,3.5,2.8,2.5,121.0,70.0,1.8,7,5,7,1,2026-06-07T17:20:24.951239+05:30
Alappuzha,Kerala,9.4981,76.3388,26.5,89,0.1,1009.6,6.95,47.5,35,12.2,6.6,2.1,86.0,54.0,0.8,10,0,4,1,2026-06-07T17:20:24.951248+05:30
Munnar,Kerala,10.0889,77.0595,17.1,100,0.5,855.9,4.3,47.5,23,2.2,1.8,2.7,111.0,52.0,1.0,6,10,3,1,2026-06-07T17:20:24.951257+05:30
Silchar,Assam,24.8333,92.7789,28.8,88,0.2,998.6,8.1,27.7,102,36.7,30.2,2.7,249.0,114.0,4.5,10,5,7,1,2026-06-07T17:20:24.951266+05:30
Dibrugarh,Assam,27.4728,94.912,30.3,78,0.0,987.3,8.5,27.4,95,30.2,26.7,4.6,297.0,116.0,2.1,3,5,7,1,2026-06-07T17:20:24.951301+05:30
