city,state,latitude,longitude,temp,humidity,rain,pressure,uv_index,wind_gusts,aqi,pm10,pm2_5,mosquito_risk,arthritis_risk,migraine_risk,frizz_risk,updated_at
Delhi,Delhi,28.6139,77.209,41.0,14,0.0,981.2,7.25,50.4,353,378.1,53.6,0,5,10,0,2026-04-25T15:27:55.935810+05:30
Mumbai,Maharashtra,19.076,72.8777,38.0,31,0.0,1004.6,8.0,44.6,79,44.2,33.2,0,5,7,1,2026-04-25T15:27:55.935855+05:30
Bangalore,Karnataka,12.9716,77.5946,35.1,22,0.0,911.7,9.5,37.1,90,36.9,28.0,0,5,10,0,2026-04-25T15:27:55.935872+05:30
Hyderabad,Telangana,17.385,78.4867,38.5,19,0.0,952.3,9.3,31.7,126,52.7,44.6,0,5,10,0,2026-04-25T15:27:55.935882+05:30
Chennai,Tamil Nadu,13.0827,80.2707,33.8,52,0.0,1005.3,9.3,51.1,31,13.2,8.8,0,5,4,1,2026-04-25T15:27:55.935891+05:30
Kolkata,West Bengal,22.5726,88.3639,36.2,50,0.0,1002.6,8.45,43.9,82,37.7,29.1,0,5,7,1,2026-04-25T15:27:55.935903+05:30
Pune,Maharashtra,18.5204,73.8567,39.3,12,0.0,946.5,8.45,37.8,113,31.4,25.0,0,5,10,0,2026-04-25T15:27:55.935911+05:30
Ahmedabad,Gujarat,23.0225,72.5714,43.2,12,0.0,999.3,8.2,24.1,63,56.8,17.0,0,5,10,0,2026-04-25T15:27:55.935918+05:30
Jaipur,Rajasthan,26.9124,75.7873,40.5,14,0.0,959.2,8.05,31.0,126,174.6,32.1,0,5,10,0,2026-04-25T15:27:55.935926+05:30
Lucknow,Uttar Pradesh,26.8467,80.9462,42.8,11,0.0,989.1,7.9,43.6,131,279.4,45.5,0,5,10,0,2026-04-25T15:27:55.935934+05:30
Kanpur,Uttar Pradesh,26.4499,80.3319,43.7,10,0.0,987.3,7.95,45.4,150,445.2,53.4,0,5,10,0,2026-04-25T15:27:55.935941+05:30
Chandigarh,Chandigarh,30.7333,76.7794,34.5,29,0.0,968.6,7.25,58.3,67,52.2,16.5,0,5,7,0,2026-04-25T15:27:55.935949+05:30
Srinagar,Jammu and Kashmir,34.0837,74.7973,19.8,60,0.0,846.5,8.6,36.7,71,48.1,14.2,0,5,7,0,2026-04-25T15:27:55.935956+05:30
Jammu,Jammu and Kashmir,32.7266,74.857,36.2,21,0.0,973.0,8.2,27.7,78,95.5,21.5,0,5,10,0,2026-04-25T15:27:55.935966+05:30
Amritsar,Punjab,31.634,74.8723,38.5,18,0.0,980.5,8.1,33.5,87,165.8,35.4,0,5,10,0,2026-04-25T15:27:55.935973+05:30
Ludhiana,Punjab,30.901,75.8573,37.2,21,0.0,978.9,7.7,48.6,77,100.1,24.0,0,5,10,0,2026-04-25T15:27:55.935982+05:30
Jalandhar,Punjab,31.326,75.5762,36.7,20,0.0,980.1,7.85,38.5,88,151.3,30.2,0,5,10,0,2026-04-25T15:27:55.935988+05:30
Dehradun,Uttarakhand,30.6284,78.0322,25.4,33,0.0,833.9,7.85,52.9,58,45.9,13.0,4,5,7,0,2026-04-25T15:27:55.935995+05:30
Shimla,Himachal Pradesh,31.1048,77.1734,21.5,29,0.0,788.9,7.45,55.8,56,42.6,11.6,0,5,7,0,2026-04-25T15:27:55.936002+05:30
Manali,Himachal Pradesh,32.2396,77.1887,19.2,47,0.0,821.4,9.85,43.9,92,32.7,8.1,0,5,7,0,2026-04-25T15:27:55.936009+05:30
Gurgaon,Haryana,28.4595,77.0266,39.8,16,0.0,980.1,7.45,51.1,892,1259.1,126.2,0,5,10,0,2026-04-25T15:27:55.936016+05:30
Noida,Uttar Pradesh,28.5355,77.391,40.9,14,0.0,982.1,7.3,43.9,892,1259.1,126.2,0,5,10,0,2026-04-25T15:27:55.936022+05:30
Ghaziabad,Uttar Pradesh,28.6692,77.4538,40.4,15,0.0,980.7,7.25,50.8,178,278.5,43.8,0,5,10,0,2026-04-25T15:27:55.936029+05:30
Faridabad,Haryana,28.4089,77.3178,40.8,14,0.0,981.5,7.35,52.6,892,1259.1,126.2,0,5,10,0,2026-04-25T15:27:55.936035+05:30
Meerut,Uttar Pradesh,28.9845,77.7064,38.7,18,0.0,979.4,7.35,55.4,178,278.5,43.8,0,5,10,0,2026-04-25T15:27:55.936041+05:30
Agra,Uttar Pradesh,27.1767,78.0081,42.7,12,0.0,984.8,7.8,45.0,283,616.5,67.1,0,5,10,0,2026-04-25T15:27:55.936049+05:30
Varanasi,Uttar Pradesh,25.3176,82.9739,44.0,10,0.0,992.6,8.5,41.0,126,160.2,35.7,0,5,10,0,2026-04-25T15:27:55.936057+05:30
Prayagraj,Uttar Pradesh,25.4358,81.8463,43.0,12,0.0,991.7,8.4,29.5,129,149.9,34.1,0,5,10,0,2026-04-25T15:27:55.936064+05:30
Gorakhpur,Uttar Pradesh,26.7606,83.3732,39.2,22,0.0,993.7,8.35,41.4,162,136.4,45.3,0,5,10,0,2026-04-25T15:27:55.936073+05:30
Bareilly,Uttar Pradesh,28.367,79.4304,41.2,16,0.0,983.1,7.7,48.2,148,64.5,23.2,0,5,10,0,2026-04-25T15:27:55.936079+05:30
Aligarh,Uttar Pradesh,27.8974,78.088,42.5,12,0.0,982.4,7.6,47.9,341,521.5,63.3,0,5,10,0,2026-04-25T15:27:55.936086+05:30
Moradabad,Uttar Pradesh,28.8386,78.7733,39.6,20,0.0,981.2,7.5,49.3,160,87.8,31.4,0,5,10,0,2026-04-25T15:27:55.936092+05:30
Saharanpur,Uttar Pradesh,29.9637,77.546,37.2,19,0.0,974.0,7.1,53.6,103,100.8,24.1,0,5,10,0,2026-04-25T15:27:55.936098+05:30
Jhansi,Uttar Pradesh,25.4484,78.5685,43.2,11,0.0,974.9,8.3,29.5,64,120.1,26.3,0,5,10,0,2026-04-25T15:27:59.162620+05:30
Surat,Gujarat,21.1702,72.8311,42.6,14,0.0,1003.4,7.85,36.7,102,75.4,45.9,0,5,7,0,2026-04-25T15:27:59.162652+05:30
Vadodara,Gujarat,22.3072,73.1812,43.5,12,0.0,1001.1,8.15,25.2,84,58.9,20.7,0,5,7,0,2026-04-25T15:27:59.162662+05:30
Rajkot,Gujarat,22.3039,70.8022,41.8,13,0.0,992.3,7.9,33.1,49,49.7,15.3,0,5,10,0,2026-04-25T15:27:59.162670+05:30
Thane,Maharashtra,19.2183,72.9781,43.2,14,0.0,1003.3,8.0,47.5,79,44.2,33.2,0,5,7,0,2026-04-25T15:27:59.162677+05:30
Nagpur,Maharashtra,21.1458,79.0882,43.7,9,0.0,970.3,8.9,29.9,138,33.4,24.3,0,5,10,0,2026-04-25T15:27:59.162685+05:30
Nashik,Maharashtra,19.9975,73.7898,40.3,13,0.0,944.0,8.25,31.7,89,31.7,22.3,0,5,10,0,2026-04-25T15:27:59.162692+05:30
Aurangabad,Maharashtra,19.8762,75.3433,40.2,13,0.0,943.0,8.75,29.5,106,33.6,22.6,0,5,10,0,2026-04-25T15:27:59.162700+05:30
Solapur,Maharashtra,17.6599,75.9064,40.0,16,0.0,954.8,8.65,24.8,119,44.2,36.4,0,5,10,0,2026-04-25T15:27:59.162707+05:30
Kolhapur,Maharashtra,16.705,74.2433,38.5,18,0.0,946.4,9.05,34.2,150,46.9,39.0,0,5,10,0,2026-04-25T15:27:59.162715+05:30
Goa,Goa,15.2993,74.124,37.8,47,0.0,994.5,8.95,32.0,75,29.0,22.6,0,5,10,1,2026-04-25T15:27:59.162722+05:30
Jodhpur,Rajasthan,26.2389,73.0243,43.0,11,0.0,981.1,8.3,27.4,105,137.4,27.1,0,5,10,0,2026-04-25T15:27:59.162730+05:30
Udaipur,Rajasthan,24.5854,73.7125,39.2,15,0.0,946.1,8.8,42.5,58,63.1,16.5,0,5,10,0,2026-04-25T15:27:59.162737+05:30
Kota,Rajasthan,25.2138,75.8648,43.0,12,0.0,976.4,8.3,32.8,73,110.8,26.4,0,5,10,0,2026-04-25T15:27:59.162744+05:30
Bikaner,Rajasthan,28.0229,73.3119,43.2,12,0.0,979.7,8.15,33.8,69,105.0,25.1,0,5,10,0,2026-04-25T15:27:59.162751+05:30
Ajmer,Rajasthan,26.4499,74.6399,40.5,13,0.0,954.2,8.25,33.5,74,120.6,25.7,0,5,10,0,2026-04-25T15:27:59.162758+05:30
Gwalior,Madhya Pradesh,26.2183,78.1828,43.0,11,0.0,980.2,8.05,39.6,86,149.5,30.4,0,5,10,0,2026-04-25T15:27:59.162766+05:30
Indore,Madhya Pradesh,22.7196,75.8577,42.0,10,0.0,946.6,8.65,32.4,57,33.9,11.4,0,5,10,0,2026-04-25T15:27:59.162773+05:30
Bhopal,Madhya Pradesh,23.2599,77.4126,42.4,9,0.0,951.7,8.65,30.6,57,26.2,9.9,0,5,10,0,2026-04-25T15:27:59.162780+05:30
Jabalpur,Madhya Pradesh,23.1815,79.9864,41.8,10,0.0,959.3,8.75,32.0,87,17.3,9.6,0,5,10,0,2026-04-25T15:27:59.162787+05:30
Ujjain,Madhya Pradesh,23.1765,75.7885,41.5,11,0.0,952.2,8.55,29.2,56,49.2,14.6,0,5,10,0,2026-04-25T15:27:59.162795+05:30
Visakhapatnam,Andhra Pradesh,17.6868,83.2185,33.5,60,0.0,1001.7,8.7,44.3,61,20.6,15.7,0,5,4,1,2026-04-25T15:27:59.162802+05:30
Vijayawada,Andhra Pradesh,16.5062,80.648,39.0,30,0.0,1000.3,8.65,34.2,52,21.7,16.1,0,5,7,1,2026-04-25T15:27:59.162809+05:30
Guntur,Andhra Pradesh,16.3067,80.4365,37.5,36,0.0,1001.8,8.7,40.0,55,25.7,19.4,0,5,7,1,2026-04-25T15:27:59.162816+05:30
Nellore,Andhra Pradesh,14.4426,79.9865,36.2,46,0.0,1003.3,9.2,42.1,42,24.7,17.3,0,5,7,1,2026-04-25T15:27:59.162823+05:30
Kurnool,Andhra Pradesh,15.8281,78.0373,41.6,15,0.0,974.1,8.9,32.8,83,37.4,30.6,0,5,10,0,2026-04-25T15:27:59.162830+05:30
Kakinada,Andhra Pradesh,16.9891,82.2475,37.8,39,0.0,1004.9,8.45,39.6,42,14.3,9.1,0,5,7,1,2026-04-25T15:27:59.162838+05:30
Tirupati,Andhra Pradesh,13.6288,79.4192,39.4,22,0.0,988.3,9.35,37.4,58,27.5,20.3,0,5,10,0,2026-04-25T15:27:59.162844+05:30
Warangal,Telangana,17.9689,79.5941,39.6,23,0.0,977.0,8.9,28.1,106,46.4,38.8,0,5,10,0,2026-04-25T15:27:59.162851+05:30
Nizamabad,Telangana,18.6725,78.0941,40.3,15,0.0,963.1,9.05,27.7,116,31.9,22.1,0,5,10,0,2026-04-25T15:27:59.162858+05:30
Mysore,Karnataka,12.2958,76.6396,35.9,22,0.0,927.2,8.85,44.6,87,28.2,22.1,0,5,10,0,2026-04-25T15:27:59.162864+05:30
Mangalore,Karnataka,12.9141,74.856,33.1,64,0.0,1003.7,9.1,41.4,70,26.3,20.7,3,5,4,1,2026-04-25T15:27:59.162872+05:30
Hubli-Dharwad,Karnataka,15.3647,75.124,38.1,19,0.0,939.3,9.1,37.8,107,40.4,32.6,0,5,10,0,2026-04-25T15:27:59.162879+05:30
Belgaum,Karnataka,15.8497,74.4977,37.0,19,0.0,925.0,9.15,37.1,135,46.0,37.6,0,5,10,0,2026-04-25T15:28:02.402157+05:30
Coimbatore,Tamil Nadu,11.0168,76.9558,37.6,22,0.0,959.6,8.9,46.4,73,21.1,16.7,0,5,10,0,2026-04-25T15:28:02.402183+05:30
Madurai,Tamil Nadu,9.9252,78.1198,39.5,23,0.0,989.7,9.1,39.6,54,17.4,14.4,0,5,10,0,2026-04-25T15:28:02.402192+05:30
Trichy,Tamil Nadu,10.7905,78.7047,38.0,31,0.0,996.6,9.3,33.1,50,18.2,13.4,0,5,10,1,2026-04-25T15:28:02.402199+05:30
Salem,Tamil Nadu,11.6643,78.146,38.9,22,0.0,974.8,9.0,42.1,60,24.7,18.9,0,5,10,0,2026-04-25T15:28:02.402206+05:30
Tirunelveli,Tamil Nadu,8.7139,77.7567,37.8,27,0.0,1000.1,9.2,40.7,66,12.5,11.3,0,5,7,0,2026-04-25T15:28:02.402212+05:30
Vellore,Tamil Nadu,12.9165,79.1325,39.0,23,0.0,981.9,9.25,36.0,81,28.4,22.6,0,5,10,0,2026-04-25T15:28:02.402218+05:30
Erode,Tamil Nadu,11.341,77.7172,39.7,22,0.0,985.9,9.25,46.1,50,18.3,14.1,0,5,10,0,2026-04-25T15:28:02.402225+05:30
Kochi,Kerala,9.9312,76.2673,32.8,60,0.0,1005.1,8.05,39.2,92,24.6,22.4,0,5,4,1,2026-04-25T15:28:02.402231+05:30
Thiruvananthapuram,Kerala,8.5241,76.9366,31.0,69,0.0,1005.3,8.2,33.1,71,19.1,16.2,3,5,4,1,2026-04-25T15:28:02.402237+05:30
Kozhikode,Kerala,11.2588,75.7804,32.2,70,0.0,1004.3,8.55,37.1,95,22.1,18.9,3,5,4,1,2026-04-25T15:28:02.402242+05:30
Thrissur,Kerala,10.5276,76.2144,33.8,58,0.0,1003.2,8.15,44.3,86,18.7,16.2,0,5,4,1,2026-04-25T15:28:02.402249+05:30
Kannur,Kerala,11.8745,75.3704,32.5,66,0.0,1003.9,8.55,40.7,71,23.2,18.8,3,5,4,1,2026-04-25T15:28:02.402254+05:30
Patna,Bihar,25.5941,85.1376,33.3,55,0.0,997.6,8.65,60.1,160,147.1,51.2,0,5,7,1,2026-04-25T15:28:02.402260+05:30
Gaya,Bihar,24.7914,85.0002,41.8,11,0.0,990.0,8.7,48.2,151,81.3,21.1,0,5,10,0,2026-04-25T15:28:02.402266+05:30
Muzaffarpur,Bihar,26.1209,85.3647,31.5,64,0.1,998.3,8.65,34.6,156,136.0,58.4,6,5,7,1,2026-04-25T15:28:02.402271+05:30
Bhagalpur,Bihar,25.2425,87.0117,28.3,71,0.0,999.9,8.6,52.9,154,127.1,54.4,7,5,7,1,2026-04-25T15:28:02.402277+05:30
Ranchi,Jharkhand,23.3441,85.3096,37.2,16,0.0,936.5,9.2,28.8,169,53.3,25.9,0,5,10,0,2026-04-25T15:28:02.402283+05:30
Jamshedpur,Jharkhand,22.8046,86.2029,42.2,12,0.0,987.0,8.9,35.3,151,82.7,49.7,0,5,10,0,2026-04-25T15:28:02.402289+05:30
Dhanbad,Jharkhand,23.7957,86.4304,42.4,12,0.0,975.8,8.95,42.1,157,94.8,60.5,0,5,10,0,2026-04-25T15:28:02.402294+05:30
Bokaro,Jharkhand,23.6693,86.1511,42.0,12,0.0,979.7,9.0,34.6,164,78.7,41.3,0,5,10,0,2026-04-25T15:28:02.402300+05:30
Bhubaneswar,Odisha,20.2961,85.8245,32.8,66,0.0,1000.6,9.1,41.0,68,29.2,22.2,3,5,4,1,2026-04-25T15:28:02.402306+05:30
Cuttack,Odisha,20.4625,85.8828,34.5,61,0.0,1002.0,9.15,37.8,68,29.2,22.2,3,5,4,1,2026-04-25T15:28:02.402311+05:30
Rourkela,Odisha,22.2604,84.8536,42.3,12,0.0,981.5,8.6,45.0,184,46.7,33.9,0,5,10,0,2026-04-25T15:28:02.402317+05:30
Raipur,Chhattisgarh,21.2514,81.6296,42.5,10,0.0,971.8,9.0,31.0,180,30.6,21.7,0,5,10,0,2026-04-25T15:28:02.402323+05:30
Bhilai,Chhattisgarh,21.1938,81.3509,42.3,10,0.0,972.3,9.0,35.6,144,30.3,20.6,0,5,10,0,2026-04-25T15:28:02.402329+05:30
Guwahati,Assam,26.1158,91.7086,31.5,63,0.0,999.4,8.55,42.1,161,102.0,62.9,3,5,7,1,2026-04-25T15:28:02.402334+05:30
Agartala,Tripura,23.8315,91.2868,37.5,32,0.0,1002.5,8.75,35.6,153,70.5,39.5,0,5,7,1,2026-04-25T15:28:02.402340+05:30
Shillong,Meghalaya,25.5788,91.8933,24.0,54,0.0,858.5,8.2,27.0,146,84.5,43.3,0,5,7,0,2026-04-25T15:28:02.402346+05:30
Imphal,Manipur,24.817,93.9368,31.4,36,0.0,922.2,9.1,34.2,155,74.0,34.7,0,5,7,0,2026-04-25T15:28:02.402352+05:30
Aizawl,Mizoram,23.7271,92.7176,32.0,23,0.0,892.9,8.95,37.8,121,80.6,28.2,0,5,7,0,2026-04-25T15:28:02.402357+05:30
Kohima,Nagaland,25.6701,94.1077,22.0,74,0.0,856.1,8.8,38.2,156,106.9,57.2,3,5,7,1,2026-04-25T15:28:02.402363+05:30
Gangtok,Sikkim,27.3314,88.6138,19.5,68,0.0,838.6,8.8,41.4,111,44.9,26.6,3,5,7,0,2026-04-25T15:28:02.402369+05:30
Siliguri,West Bengal,26.7271,88.3953,30.6,59,0.0,991.4,8.45,29.2,150,87.3,51.5,0,5,7,1,2026-04-25T15:28:05.636807+05:30
Durgapur,West Bengal,23.5204,87.3119,37.8,44,0.0,991.7,8.9,38.2,141,88.2,62.2,0,5,10,1,2026-04-25T15:28:05.636840+05:30
Asansol,West Bengal,23.6739,86.9524,38.0,37,0.0,990.0,8.95,38.9,143,90.3,64.5,0,5,10,1,2026-04-25T15:28:05.636853+05:30
Pondicherry,Puducherry,11.9139,79.8145,32.2,64,0.0,1006.7,9.15,44.6,26,10.9,7.0,3,5,4,1,2026-04-25T15:28:05.636862+05:30
Port Blair,Andaman and Nicobar Islands,11.6234,92.7265,32.2,60,0.0,1005.2,9.15,32.4,38,18.0,11.5,0,5,4,1,2026-04-25T15:28:05.636872+05:30
Haridwar,Uttarakhand,29.9457,78.1642,36.2,27,0.0,972.2,7.2,32.8,80,61.2,18.7,0,5,10,0,2026-04-25T15:28:05.636881+05:30
Rishikesh,Uttarakhand,30.0869,78.2676,34.0,31,0.0,965.3,7.35,37.4,75,59.5,17.1,0,5,7,0,2026-04-25T15:28:05.636890+05:30
Nainital,Uttarakhand,29.3919,79.4542,24.5,30,0.0,808.9,8.15,43.6,114,50.1,20.3,0,5,7,0,2026-04-25T15:28:05.636899+05:30
Mussoorie,Uttarakhand,30.4599,78.0664,22.6,36,0.0,806.6,7.75,58.7,79,54.2,16.5,0,5,7,0,2026-04-25T15:28:05.636907+05:30
Dharamshala,Himachal Pradesh,32.219,76.3234,27.5,27,0.0,872.5,7.55,59.0,49,59.0,12.3,4,5,7,0,2026-04-25T15:28:05.636915+05:30
Dalhousie,Himachal Pradesh,32.5387,75.971,20.2,53,0.0,808.8,8.1,45.7,57,79.4,17.3,0,5,7,0,2026-04-25T15:28:05.636925+05:30
Patiala,Punjab,30.3398,76.3869,37.2,21,0.0,977.8,7.35,56.2,418,722.7,70.1,0,5,10,0,2026-04-25T15:28:05.636934+05:30
Bhatinda,Punjab,30.211,74.9455,39.2,17,0.0,983.4,8.0,46.1,86,127.6,30.0,0,5,10,0,2026-04-25T15:28:05.636942+05:30
Rohtak,Haryana,28.8955,76.6066,39.1,17,0.0,980.6,7.45,54.4,581,610.9,67.5,0,5,10,0,2026-04-25T15:28:05.636950+05:30
Panipat,Haryana,29.3909,76.9635,40.3,14,0.0,978.5,7.15,51.1,1010,1348.6,121.1,0,5,10,0,2026-04-25T15:28:05.636959+05:30
Mathura,Uttar Pradesh,27.4924,77.6737,41.7,13,0.0,984.2,7.65,45.0,376,627.7,71.7,0,5,10,0,2026-04-25T15:28:05.636967+05:30
Vrindavan,Uttar Pradesh,27.5823,77.7027,41.5,13,0.0,984.6,7.55,45.0,376,627.7,71.7,0,5,10,0,2026-04-25T15:28:05.636975+05:30
Ayodhya,Uttar Pradesh,26.7922,82.1998,43.2,12,0.0,991.0,8.1,38.5,150,160.7,39.5,0,5,10,0,2026-04-25T15:28:05.636983+05:30
Ratlam,Madhya Pradesh,23.3315,75.0367,41.7,12,0.0,953.0,8.45,25.9,55,47.8,14.3,0,5,10,0,2026-04-25T15:28:05.636991+05:30
Sagar,Madhya Pradesh,23.8388,78.7378,41.2,12,0.0,948.5,8.65,29.9,98,32.4,11.7,0,5,10,0,2026-04-25T15:28:05.636999+05:30
Satna,Madhya Pradesh,24.6005,80.8322,42.8,11,0.0,968.2,8.7,43.9,104,146.7,31.1,0,5,10,0,2026-04-25T15:28:05.637007+05:30
Akola,Maharashtra,20.7002,77.0082,42.2,12,0.0,972.5,8.7,23.8,80,27.0,14.3,0,5,10,0,2026-04-25T15:28:05.637016+05:30
Amravati,Maharashtra,20.9374,77.7796,42.2,11,0.0,964.9,8.5,27.7,76,25.9,13.2,0,5,10,0,2026-04-25T15:28:05.637026+05:30
Latur,Maharashtra,18.4088,76.5604,39.7,14,0.0,939.0,8.8,32.8,115,31.9,25.4,0,5,10,0,2026-04-25T15:28:05.637034+05:30
Nanded,Maharashtra,19.1383,77.3091,41.7,13,0.0,966.6,8.6,28.1,104,30.2,20.6,0,5,10,0,2026-04-25T15:28:05.637042+05:30
Gulbarga,Karnataka,17.3297,76.8343,40.2,16,0.0,957.2,9.15,26.6,124,49.1,41.0,0,5,10,0,2026-04-25T15:28:05.637049+05:30
Bidar,Karnataka,17.9104,77.5199,38.5,18,0.0,935.1,8.9,27.0,126,40.0,33.2,0,5,10,0,2026-04-25T15:28:05.637057+05:30
Hospet,Karnataka,15.2689,76.3909,38.6,20,0.0,953.8,9.3,27.4,95,42.3,34.8,0,5,10,0,2026-04-25T15:28:05.637065+05:30
Tirupur,Tamil Nadu,11.1085,77.3411,38.8,22,0.0,972.4,9.4,42.1,55,17.6,13.6,0,5,10,0,2026-04-25T15:28:05.637073+05:30
Alappuzha,Kerala,9.4981,76.3388,31.4,71,0.0,1005.5,8.05,36.7,100,29.9,27.4,3,5,4,1,2026-04-25T15:28:05.637081+05:30
Munnar,Kerala,10.0889,77.0595,26.1,41,0.0,857.6,9.15,31.7,61,12.2,10.3,4,5,7,0,2026-04-25T15:28:05.637090+05:30
Silchar,Assam,24.8333,92.7789,34.2,55,0.0,1001.5,8.75,21.6,159,112.5,46.6,0,5,4,1,2026-04-25T15:28:05.637098+05:30
Dibrugarh,Assam,27.4728,94.912,28.5,67,0.0,994.8,8.6,31.7,98,78.7,38.5,7,5,7,1,2026-04-25T15:28:05.637106+05:30
