city,state,latitude,longitude,temp,humidity,rain,pressure,uv_index,wind_gusts,aqi,pm10,pm2_5,no2,co,o3,so2,mosquito_risk,arthritis_risk,migraine_risk,frizz_risk,updated_at
Delhi,Delhi,28.6139,77.209,36.3,25,0.0,976.2,7.55,29.9,316,419.1,77.1,8.1,406.0,238.0,27.8,0,5,10,0,2026-05-01T17:10:52.852452+05:30
Mumbai,Maharashtra,19.076,72.8777,31.0,67,0.0,1006.2,7.9,45.7,66,51.7,20.4,6.3,217.0,88.0,14.8,3,5,4,1,2026-05-01T17:10:52.852526+05:30
Bangalore,Karnataka,12.9716,77.5946,31.7,42,0.0,909.5,9.55,36.0,162,40.4,31.3,17.2,816.0,177.0,8.2,0,5,7,1,2026-05-01T17:10:52.852558+05:30
Hyderabad,Telangana,17.385,78.4867,38.3,16,0.0,948.8,9.25,37.1,81,50.3,17.8,0.7,235.0,133.0,3.5,0,5,10,0,2026-05-01T17:10:52.852580+05:30
Chennai,Tamil Nadu,13.0827,80.2707,33.2,62,0.0,1002.1,9.25,50.8,127,34.2,28.5,5.6,233.0,185.0,11.1,3,5,4,1,2026-05-01T17:10:52.852600+05:30
Kolkata,West Bengal,22.5726,88.3639,28.6,70,0.0,1001.3,7.9,22.7,64,37.7,28.0,9.3,585.0,128.0,12.3,7,5,4,1,2026-05-01T17:10:52.852621+05:30
Pune,Maharashtra,18.5204,73.8567,33.2,32,0.0,946.2,8.5,50.0,55,40.9,12.5,1.8,171.0,98.0,2.3,0,5,7,0,2026-05-01T17:10:52.852639+05:30
Ahmedabad,Gujarat,23.0225,72.5714,42.9,16,0.0,994.3,8.1,45.0,56,49.4,14.7,2.2,182.0,116.0,3.3,0,5,10,0,2026-05-01T17:10:52.852658+05:30
Jaipur,Rajasthan,26.9124,75.7873,39.4,11,0.0,953.0,8.1,42.5,175,339.0,43.5,0.7,168.0,139.0,2.7,0,5,10,0,2026-05-01T17:10:52.852675+05:30
Lucknow,Uttar Pradesh,26.8467,80.9462,32.6,41,0.0,988.0,8.0,29.5,141,87.5,29.9,1.7,277.0,175.0,8.0,0,5,7,1,2026-05-01T17:10:52.852699+05:30
Kanpur,Uttar Pradesh,26.4499,80.3319,35.2,30,0.0,985.7,8.05,29.9,146,189.1,39.8,1.8,245.0,177.0,7.2,0,5,10,0,2026-05-01T17:10:52.852717+05:30
Chandigarh,Chandigarh,30.7333,76.7794,32.7,31,0.0,963.3,7.55,37.4,167,97.8,31.5,2.1,285.0,187.0,17.7,0,5,7,0,2026-05-01T17:10:52.852732+05:30
Srinagar,Jammu and Kashmir,34.0837,74.7973,20.1,56,0.0,839.4,8.75,22.7,93,13.4,9.0,0.9,259.0,142.0,2.4,0,5,7,0,2026-05-01T17:10:52.852747+05:30
Jammu,Jammu and Kashmir,32.7266,74.857,32.0,32,0.0,967.6,8.35,32.0,113,18.3,10.1,1.4,236.0,157.0,1.8,0,5,7,0,2026-05-01T17:10:52.852762+05:30
Amritsar,Punjab,31.634,74.8723,35.0,24,0.0,974.9,8.25,30.6,150,63.8,21.4,1.2,220.0,193.0,7.3,0,5,7,0,2026-05-01T17:10:52.852775+05:30
Ludhiana,Punjab,30.901,75.8573,34.8,25,0.0,972.9,7.85,33.5,168,175.1,43.2,0.5,263.0,170.0,6.8,0,5,7,0,2026-05-01T17:10:52.852789+05:30
Jalandhar,Punjab,31.326,75.5762,33.8,30,0.0,974.2,8.0,33.8,150,205.8,48.9,0.2,272.0,170.0,7.6,0,5,7,0,2026-05-01T17:10:52.852803+05:30
Dehradun,Uttarakhand,30.6284,78.0322,17.8,71,0.0,826.8,7.95,34.9,115,71.5,34.3,1.3,268.0,161.0,3.1,3,5,7,0,2026-05-01T17:10:52.852817+05:30
Shimla,Himachal Pradesh,31.1048,77.1734,17.4,48,0.0,782.0,8.1,46.8,142,47.8,24.4,0.7,185.0,173.0,12.6,0,5,7,0,2026-05-01T17:10:52.852832+05:30
Manali,Himachal Pradesh,32.2396,77.1887,14.4,78,0.0,814.3,10.1,42.5,113,6.8,5.3,0.1,150.0,158.0,0.4,3,5,7,0,2026-05-01T17:10:52.852849+05:30
Gurgaon,Haryana,28.4595,77.0266,35.2,26,0.0,974.9,7.7,31.7,1313,998.4,125.3,6.3,321.0,210.0,18.5,0,5,10,0,2026-05-01T17:10:52.852863+05:30
Noida,Uttar Pradesh,28.5355,77.391,34.8,35,0.0,977.8,7.6,29.2,1313,998.4,125.3,6.3,508.0,210.0,18.5,0,5,7,1,2026-05-01T17:10:52.852878+05:30
Ghaziabad,Uttar Pradesh,28.6692,77.4538,34.6,34,0.0,976.4,7.55,32.8,185,323.2,56.2,4.3,301.0,193.0,10.3,0,5,7,1,2026-05-01T17:10:52.852894+05:30
Faridabad,Haryana,28.4089,77.3178,35.8,28,0.0,976.9,7.65,29.5,1313,998.4,125.3,6.3,269.0,210.0,18.5,0,5,10,0,2026-05-01T17:10:52.852909+05:30
Meerut,Uttar Pradesh,28.9845,77.7064,33.2,37,0.0,975.5,7.5,34.9,185,323.2,56.2,4.3,288.0,193.0,10.3,0,5,7,1,2026-05-01T17:10:52.852923+05:30
Agra,Uttar Pradesh,27.1767,78.0081,37.8,21,0.0,980.4,7.9,27.7,565,420.0,58.2,2.1,218.0,156.0,7.2,0,5,10,0,2026-05-01T17:10:52.852938+05:30
Varanasi,Uttar Pradesh,25.3176,82.9739,33.8,38,0.0,992.0,8.55,29.5,162,81.0,27.5,2.1,271.0,181.0,10.9,0,5,7,1,2026-05-01T17:10:52.852952+05:30
Prayagraj,Uttar Pradesh,25.4358,81.8463,34.8,32,0.0,990.1,8.4,26.6,168,78.5,28.7,1.3,255.0,190.0,8.5,0,5,7,0,2026-05-01T17:10:52.852966+05:30
Gorakhpur,Uttar Pradesh,26.7606,83.3732,28.0,58,0.0,993.1,8.35,37.1,120,74.7,27.9,2.2,310.0,165.0,3.7,4,5,7,1,2026-05-01T17:10:52.852980+05:30
Bareilly,Uttar Pradesh,28.367,79.4304,32.5,39,0.0,981.2,7.85,34.6,138,266.4,50.3,1.1,265.0,182.0,11.1,0,5,7,1,2026-05-01T17:10:52.852997+05:30
Aligarh,Uttar Pradesh,27.8974,78.088,35.5,29,0.0,978.8,7.75,29.5,667,599.8,82.9,2.8,244.0,184.0,14.1,0,5,10,0,2026-05-01T17:10:52.853011+05:30
Moradabad,Uttar Pradesh,28.8386,78.7733,32.3,40,0.0,978.1,7.7,35.6,151,109.0,34.0,2.4,297.0,180.0,17.9,0,5,7,1,2026-05-01T17:10:52.853025+05:30
Saharanpur,Uttar Pradesh,29.9637,77.546,31.3,42,0.0,970.3,7.3,36.4,147,130.4,33.9,3.8,286.0,171.0,9.2,0,5,7,1,2026-05-01T17:10:52.853038+05:30
Jhansi,Uttar Pradesh,25.4484,78.5685,38.8,16,0.0,970.9,8.35,38.5,90,75.9,21.8,1.1,146.0,138.0,8.8,0,5,10,0,2026-05-01T17:10:56.421916+05:30
Surat,Gujarat,21.1702,72.8311,31.9,63,0.0,1002.3,7.7,56.9,63,36.3,17.5,11.8,223.0,70.0,28.5,3,5,4,1,2026-05-01T17:10:56.421986+05:30
Vadodara,Gujarat,22.3072,73.1812,38.4,37,0.0,997.9,8.05,52.9,56,35.3,14.1,1.9,186.0,119.0,3.6,0,5,10,1,2026-05-01T17:10:56.422028+05:30
Rajkot,Gujarat,22.3039,70.8022,40.0,21,0.0,988.3,7.7,54.4,49,40.9,14.1,1.3,145.0,108.0,5.2,0,5,10,0,2026-05-01T17:10:56.422065+05:30
Thane,Maharashtra,19.2183,72.9781,32.7,55,0.0,1005.2,7.9,41.0,66,51.7,20.4,6.3,212.0,88.0,14.8,0,5,4,1,2026-05-01T17:10:56.422102+05:30
Nagpur,Maharashtra,21.1458,79.0882,39.5,17,0.0,967.5,8.9,40.7,137,75.4,26.3,4.5,156.0,152.0,15.8,0,5,10,0,2026-05-01T17:10:56.422140+05:30
Nashik,Maharashtra,19.9975,73.7898,33.2,34,0.0,943.1,8.2,51.1,60,40.7,13.4,1.1,156.0,97.0,3.0,0,5,7,0,2026-05-01T17:10:56.422176+05:30
Aurangabad,Maharashtra,19.8762,75.3433,37.2,19,0.0,940.4,9.05,47.9,55,35.5,12.7,1.0,152.0,115.0,2.6,0,5,10,0,2026-05-01T17:10:56.422216+05:30
Solapur,Maharashtra,17.6599,75.9064,38.8,15,0.0,952.9,9.05,47.2,54,29.7,9.7,0.9,151.0,112.0,1.4,0,5,10,0,2026-05-01T17:10:56.422256+05:30
Kolhapur,Maharashtra,16.705,74.2433,32.7,34,0.0,946.3,8.95,47.5,59,35.7,12.9,2.0,157.0,95.0,1.1,0,5,7,0,2026-05-01T17:10:56.422295+05:30
Goa,Goa,15.2993,74.124,33.0,53,0.0,995.9,8.9,37.8,63,26.2,14.3,0.5,140.0,85.0,0.9,0,5,7,1,2026-05-01T17:10:56.422333+05:30
Jodhpur,Rajasthan,26.2389,73.0243,39.8,18,0.0,975.7,8.3,47.5,142,199.8,26.7,0.7,148.0,117.0,1.9,0,5,10,0,2026-05-01T17:10:56.422373+05:30
Udaipur,Rajasthan,24.5854,73.7125,38.0,18,0.0,941.0,8.75,38.9,59,57.0,14.7,0.6,145.0,113.0,1.8,0,5,10,0,2026-05-01T17:10:56.422412+05:30
Kota,Rajasthan,25.2138,75.8648,40.3,15,0.0,971.6,8.3,41.8,73,44.4,12.8,0.5,152.0,131.0,2.3,0,5,10,0,2026-05-01T17:10:56.422452+05:30
Bikaner,Rajasthan,28.0229,73.3119,41.2,11,0.0,973.7,8.25,38.5,77,79.4,17.9,0.2,156.0,120.0,4.0,0,5,10,0,2026-05-01T17:10:56.422492+05:30
Ajmer,Rajasthan,26.4499,74.6399,38.6,14,0.0,948.4,8.25,49.7,72,72.4,17.0,0.4,144.0,127.0,2.0,0,5,10,0,2026-05-01T17:10:56.422532+05:30
Gwalior,Madhya Pradesh,26.2183,78.1828,39.0,16,0.0,975.7,8.15,37.8,91,94.8,24.7,0.6,150.0,140.0,5.6,0,5,10,0,2026-05-01T17:10:56.422572+05:30
Indore,Madhya Pradesh,22.7196,75.8577,38.0,17,0.0,943.2,8.65,41.4,60,61.2,17.5,1.2,179.0,123.0,3.9,0,5,10,0,2026-05-01T17:10:56.422617+05:30
Bhopal,Madhya Pradesh,23.2599,77.4126,38.7,16,0.0,948.1,8.65,36.0,71,123.4,24.0,0.6,164.0,118.0,3.0,0,5,10,0,2026-05-01T17:10:56.422656+05:30
Jabalpur,Madhya Pradesh,23.1815,79.9864,38.3,17,0.0,955.6,8.8,32.8,95,114.3,27.9,1.6,152.0,133.0,3.7,0,5,10,0,2026-05-01T17:10:56.422695+05:30
Ujjain,Madhya Pradesh,23.1765,75.7885,38.5,16,0.0,948.6,8.55,40.3,59,66.6,17.2,0.8,152.0,122.0,3.3,0,5,10,0,2026-05-01T17:10:56.422735+05:30
Visakhapatnam,Andhra Pradesh,17.6868,83.2185,31.3,74,0.0,999.3,9.15,52.6,53,20.5,15.7,10.8,278.0,98.0,8.7,3,5,7,1,2026-05-01T17:10:56.422774+05:30
Vijayawada,Andhra Pradesh,16.5062,80.648,40.8,19,0.0,995.8,9.2,37.4,118,36.2,28.7,6.0,247.0,164.0,7.0,0,5,10,0,2026-05-01T17:10:56.422813+05:30
Guntur,Andhra Pradesh,16.3067,80.4365,40.2,21,0.0,997.1,9.2,40.7,131,34.6,25.1,4.9,257.0,161.0,5.0,0,5,10,0,2026-05-01T17:10:56.422850+05:30
Nellore,Andhra Pradesh,14.4426,79.9865,35.8,50,0.0,999.7,9.25,47.2,159,32.7,26.3,2.4,238.0,182.0,5.5,0,5,10,1,2026-05-01T17:10:56.422894+05:30
Kurnool,Andhra Pradesh,15.8281,78.0373,40.2,15,0.0,971.7,9.2,39.2,89,41.6,14.8,0.8,180.0,150.0,5.3,0,5,10,0,2026-05-01T17:10:56.422937+05:30
Kakinada,Andhra Pradesh,16.9891,82.2475,33.8,60,0.0,1002.4,9.15,41.0,48,20.7,15.1,2.0,223.0,112.0,2.5,0,5,4,1,2026-05-01T17:10:56.422975+05:30
Tirupati,Andhra Pradesh,13.6288,79.4192,30.8,54,0.1,986.4,9.3,57.2,149,46.1,38.1,3.8,265.0,176.0,4.6,3,5,7,1,2026-05-01T17:10:56.423017+05:30
Warangal,Telangana,17.9689,79.5941,39.0,17,0.0,973.3,9.15,34.9,106,39.1,15.6,0.6,162.0,139.0,4.8,0,5,10,0,2026-05-01T17:10:56.423057+05:30
Nizamabad,Telangana,18.6725,78.0941,38.7,16,0.0,959.8,9.1,33.5,77,41.3,16.3,0.6,152.0,131.0,2.4,0,5,10,0,2026-05-01T17:10:56.423098+05:30
Mysore,Karnataka,12.2958,76.6396,27.5,61,0.0,927.3,9.35,40.0,131,36.8,27.8,4.0,307.0,177.0,3.8,7,5,7,1,2026-05-01T17:10:56.423137+05:30
Mangalore,Karnataka,12.9141,74.856,31.3,70,0.0,1004.7,9.0,41.0,68,27.1,15.3,1.5,150.0,88.0,1.0,3,5,4,1,2026-05-01T17:10:56.423176+05:30
Hubli-Dharwad,Karnataka,15.3647,75.124,33.0,38,0.0,938.9,9.2,46.4,57,35.2,14.0,1.6,177.0,104.0,1.0,0,5,7,1,2026-05-01T17:10:56.423218+05:30
Belgaum,Karnataka,15.8497,74.4977,30.9,44,0.0,924.6,9.15,46.4,54,32.6,11.9,1.2,153.0,93.0,1.4,0,5,7,1,2026-05-01T17:10:59.953132+05:30
Coimbatore,Tamil Nadu,11.0168,76.9558,29.9,62,0.1,959.8,9.2,46.1,118,31.1,24.7,3.0,268.0,152.0,2.9,10,5,7,1,2026-05-01T17:10:59.953174+05:30
Madurai,Tamil Nadu,9.9252,78.1198,31.0,62,0.0,991.2,8.9,41.4,103,22.5,17.4,3.6,245.0,144.0,2.6,3,5,7,1,2026-05-01T17:10:59.953197+05:30
Trichy,Tamil Nadu,10.7905,78.7047,35.5,42,0.0,996.1,8.9,46.8,106,31.8,25.3,4.3,217.0,158.0,5.9,0,5,10,1,2026-05-01T17:10:59.953216+05:30
Salem,Tamil Nadu,11.6643,78.146,33.0,44,0.0,974.2,9.25,42.5,151,41.2,33.2,3.4,274.0,203.0,12.1,0,5,7,1,2026-05-01T17:10:59.953235+05:30
Tirunelveli,Tamil Nadu,8.7139,77.7567,32.3,52,0.0,1000.4,8.85,43.9,54,11.4,9.5,2.5,221.0,118.0,1.0,0,5,4,1,2026-05-01T17:10:59.953253+05:30
Vellore,Tamil Nadu,12.9165,79.1325,38.0,27,0.0,979.5,9.3,30.6,146,49.5,40.2,4.2,302.0,173.0,5.2,0,5,10,0,2026-05-01T17:10:59.953272+05:30
Erode,Tamil Nadu,11.341,77.7172,29.4,63,0.0,986.7,9.25,52.2,108,36.6,26.7,2.4,280.0,171.0,1.9,7,5,7,1,2026-05-01T17:10:59.953289+05:30
Kochi,Kerala,9.9312,76.2673,28.1,83,0.0,1007.3,8.8,33.5,55,19.7,14.6,2.9,187.0,104.0,1.7,7,5,4,1,2026-05-01T17:10:59.953307+05:30
Thiruvananthapuram,Kerala,8.5241,76.9366,27.2,88,0.1,1006.5,8.85,32.4,48,11.1,8.2,2.2,158.0,111.0,1.6,10,5,4,1,2026-05-01T17:10:59.953325+05:30
Kozhikode,Kerala,11.2588,75.7804,29.0,81,0.0,1006.1,7.7,38.9,59,32.6,17.4,0.6,175.0,78.0,1.0,7,5,4,1,2026-05-01T17:10:59.953343+05:30
Thrissur,Kerala,10.5276,76.2144,28.1,83,0.1,1005.5,8.7,35.6,62,27.1,19.7,3.1,162.0,107.0,1.9,10,5,4,1,2026-05-01T17:10:59.953364+05:30
Kannur,Kerala,11.8745,75.3704,31.6,65,0.0,1005.0,8.9,43.2,69,30.0,17.1,1.8,173.0,87.0,1.0,3,5,4,1,2026-05-01T17:10:59.953391+05:30
Patna,Bihar,25.5941,85.1376,27.1,69,0.0,996.5,8.4,28.4,146,73.6,34.8,3.7,353.0,181.0,6.7,7,5,7,1,2026-05-01T17:10:59.953416+05:30
Gaya,Bihar,24.7914,85.0002,31.2,44,0.0,989.2,8.7,23.0,160,83.8,29.9,2.1,325.0,178.0,6.8,0,5,7,1,2026-05-01T17:10:59.953434+05:30
Muzaffarpur,Bihar,26.1209,85.3647,22.0,91,0.1,996.9,6.55,31.3,141,57.4,31.9,4.5,349.0,177.0,9.3,6,5,7,1,2026-05-01T17:10:59.953452+05:30
Bhagalpur,Bihar,25.2425,87.0117,25.6,74,0.0,997.6,8.5,39.6,160,49.9,28.5,5.3,321.0,179.0,5.5,7,5,7,1,2026-05-01T17:10:59.953469+05:30
Ranchi,Jharkhand,23.3441,85.3096,24.9,62,0.1,934.0,9.05,33.5,141,96.2,35.5,2.9,183.0,160.0,7.8,6,5,7,1,2026-05-01T17:10:59.953486+05:30
Jamshedpur,Jharkhand,22.8046,86.2029,29.2,51,0.0,986.2,9.0,34.9,177,82.9,39.0,5.0,297.0,177.0,15.3,4,5,7,1,2026-05-01T17:10:59.953505+05:30
Dhanbad,Jharkhand,23.7957,86.4304,30.6,52,0.0,975.1,8.9,21.6,179,97.3,49.0,23.6,375.0,191.0,42.2,0,5,7,1,2026-05-01T17:10:59.953525+05:30
Bokaro,Jharkhand,23.6693,86.1511,31.9,41,0.0,979.1,8.95,25.9,184,92.0,39.0,18.1,289.0,179.0,40.5,0,5,7,1,2026-05-01T17:10:59.953541+05:30
Bhubaneswar,Odisha,20.2961,85.8245,31.9,62,0.0,997.5,8.4,44.3,77,48.2,23.6,5.0,259.0,130.0,4.4,3,5,7,1,2026-05-01T17:10:59.953558+05:30
Cuttack,Odisha,20.4625,85.8828,32.5,59,0.0,999.2,8.85,35.3,77,48.2,23.6,5.0,273.0,130.0,4.4,0,5,7,1,2026-05-01T17:10:59.953575+05:30
Rourkela,Odisha,22.2604,84.8536,34.3,34,0.0,979.4,8.9,38.9,180,87.8,44.0,4.3,202.0,208.0,32.6,0,5,7,1,2026-05-01T17:10:59.953592+05:30
Raipur,Chhattisgarh,21.2514,81.6296,37.2,21,0.0,969.3,8.95,47.5,143,99.9,31.5,5.4,162.0,161.0,4.0,0,5,10,0,2026-05-01T17:10:59.953608+05:30
Bhilai,Chhattisgarh,21.1938,81.3509,36.9,21,0.0,970.0,8.95,52.9,108,96.4,27.6,5.0,296.0,147.0,3.1,0,5,10,0,2026-05-01T17:10:59.953625+05:30
Guwahati,Assam,26.1158,91.7086,24.1,84,0.0,998.6,7.7,26.6,66,21.2,16.5,2.0,366.0,120.0,1.9,3,5,7,1,2026-05-01T17:10:59.953644+05:30
Agartala,Tripura,23.8315,91.2868,26.1,76,0.0,1002.5,5.1,40.7,71,38.4,34.2,11.0,214.0,128.0,3.4,7,5,0,1,2026-05-01T17:10:59.953662+05:30
Shillong,Meghalaya,25.5788,91.8933,17.0,83,0.0,853.1,7.5,29.5,57,10.5,8.8,2.9,220.0,104.0,1.7,3,10,7,0,2026-05-01T17:10:59.953679+05:30
Imphal,Manipur,24.817,93.9368,19.8,94,0.1,920.0,4.0,25.9,76,21.4,17.3,10.0,345.0,80.0,1.6,6,10,3,1,2026-05-01T17:10:59.953697+05:30
Aizawl,Mizoram,23.7271,92.7176,17.2,93,0.1,889.0,4.95,50.4,52,11.6,9.9,4.4,183.0,81.0,1.0,6,10,3,1,2026-05-01T17:10:59.953718+05:30
Kohima,Nagaland,25.6701,94.1077,17.8,92,0.0,851.9,4.45,23.0,53,19.2,13.1,5.1,249.0,82.0,1.4,3,10,3,1,2026-05-01T17:10:59.953735+05:30
Gangtok,Sikkim,27.3314,88.6138,15.4,84,0.0,833.7,8.9,39.2,84,17.5,9.6,3.9,266.0,123.0,0.6,3,10,7,0,2026-05-01T17:10:59.953751+05:30
Siliguri,West Bengal,26.7271,88.3953,24.2,78,0.0,989.8,6.6,30.6,75,23.9,14.5,7.4,501.0,122.0,1.5,3,5,7,1,2026-05-01T17:11:03.656131+05:30
Durgapur,West Bengal,23.5204,87.3119,28.8,66,0.0,990.5,8.85,18.4,167,99.7,64.5,18.4,477.0,221.0,55.6,7,5,7,1,2026-05-01T17:11:03.656187+05:30
Asansol,West Bengal,23.6739,86.9524,30.1,56,0.0,989.0,8.75,31.0,176,98.0,55.4,20.2,456.0,206.0,44.5,0,5,7,1,2026-05-01T17:11:03.656215+05:30
Pondicherry,Puducherry,11.9139,79.8145,31.6,72,0.0,1003.9,8.7,42.1,102,32.7,28.3,6.9,183.0,171.0,18.2,3,5,4,1,2026-05-01T17:11:03.656241+05:30
Port Blair,Andaman and Nicobar Islands,11.6234,92.7265,31.0,63,0.0,1005.1,9.1,28.8,31,7.0,5.0,0.6,154.0,62.0,3.6,3,5,4,1,2026-05-01T17:11:03.656265+05:30
Haridwar,Uttarakhand,29.9457,78.1642,30.4,48,0.0,968.8,7.4,28.8,145,126.2,33.2,1.2,293.0,170.0,9.3,0,5,7,1,2026-05-01T17:11:03.656290+05:30
Rishikesh,Uttarakhand,30.0869,78.2676,28.9,52,0.0,961.7,7.5,25.6,144,131.8,33.6,0.5,249.0,166.0,8.5,4,5,7,1,2026-05-01T17:11:03.656315+05:30
Nainital,Uttarakhand,29.3919,79.4542,16.2,65,0.1,801.9,8.3,43.9,131,119.7,30.3,0.8,237.0,160.0,5.0,6,5,7,0,2026-05-01T17:11:03.656340+05:30
Mussoorie,Uttarakhand,30.4599,78.0664,15.9,74,0.0,799.3,7.9,49.0,147,126.2,38.8,1.0,242.0,182.0,9.3,3,5,7,0,2026-05-01T17:11:03.656364+05:30
Dharamshala,Himachal Pradesh,32.219,76.3234,23.4,40,0.0,865.5,8.2,46.1,108,11.3,8.1,0.2,211.0,149.0,1.0,0,5,7,0,2026-05-01T17:11:03.656389+05:30
Dalhousie,Himachal Pradesh,32.5387,75.971,18.1,52,0.0,802.0,8.5,39.6,137,29.7,14.4,0.4,213.0,168.0,3.4,0,5,7,0,2026-05-01T17:11:03.656415+05:30
Patiala,Punjab,30.3398,76.3869,34.7,27,0.0,972.2,7.5,38.5,527,543.9,72.2,1.6,251.0,178.0,10.4,0,5,7,0,2026-05-01T17:11:03.656440+05:30
Bhatinda,Punjab,30.211,74.9455,36.5,21,0.0,977.3,8.1,31.3,312,137.4,34.7,1.9,227.0,168.0,11.6,0,5,10,0,2026-05-01T17:11:03.656464+05:30
Rohtak,Haryana,28.8955,76.6066,36.0,24,0.0,975.4,7.6,32.0,616,472.2,82.0,3.1,278.0,222.0,14.5,0,5,10,0,2026-05-01T17:11:03.656488+05:30
Panipat,Haryana,29.3909,76.9635,34.2,34,0.0,974.4,7.45,32.8,1126,631.4,91.7,4.8,252.0,224.0,24.5,0,5,7,0,2026-05-01T17:11:03.656512+05:30
Mathura,Uttar Pradesh,27.4924,77.6737,36.4,27,0.0,979.7,7.85,28.1,637,448.9,64.7,2.1,228.0,160.0,6.3,0,5,10,0,2026-05-01T17:11:03.656536+05:30
Vrindavan,Uttar Pradesh,27.5823,77.7027,36.5,27,0.0,980.1,7.8,28.4,637,448.9,64.7,2.1,227.0,160.0,6.3,0,5,10,0,2026-05-01T17:11:03.656560+05:30
Ayodhya,Uttar Pradesh,26.7922,82.1998,30.6,45,0.0,990.5,8.15,28.4,119,87.3,25.6,0.7,277.0,159.0,5.6,0,5,7,1,2026-05-01T17:11:03.656584+05:30
Ratlam,Madhya Pradesh,23.3315,75.0367,37.8,19,0.0,949.8,8.45,41.4,58,53.6,15.8,0.6,151.0,122.0,3.2,0,5,10,0,2026-05-01T17:11:03.656609+05:30
Sagar,Madhya Pradesh,23.8388,78.7378,37.3,16,0.0,944.8,8.65,39.2,82,50.5,16.2,0.4,143.0,131.0,3.7,0,5,10,0,2026-05-01T17:11:03.656633+05:30
Satna,Madhya Pradesh,24.6005,80.8322,35.0,25,0.0,966.0,8.65,48.2,96,115.7,27.0,0.6,150.0,134.0,3.1,0,5,7,0,2026-05-01T17:11:03.656657+05:30
Akola,Maharashtra,20.7002,77.0082,39.5,16,0.0,969.4,8.9,40.0,59,43.5,14.9,1.5,151.0,121.0,9.1,0,5,10,0,2026-05-01T17:11:03.656683+05:30
Amravati,Maharashtra,20.9374,77.7796,39.3,17,0.0,961.7,8.85,41.0,73,42.8,14.8,1.9,147.0,126.0,7.6,0,5,10,0,2026-05-01T17:11:03.656709+05:30
Latur,Maharashtra,18.4088,76.5604,38.2,14,0.0,936.1,9.1,38.5,59,35.6,12.0,0.3,137.0,112.0,3.5,0,5,10,0,2026-05-01T17:11:03.656733+05:30
Nanded,Maharashtra,19.1383,77.3091,39.4,17,0.0,963.4,9.0,32.8,64,42.0,15.3,0.6,152.0,122.0,1.5,0,5,10,0,2026-05-01T17:11:03.656756+05:30
Gulbarga,Karnataka,17.3297,76.8343,39.3,13,0.0,954.1,9.1,44.6,55,39.5,12.9,0.4,151.0,117.0,1.9,0,5,10,0,2026-05-01T17:11:03.656779+05:30
Bidar,Karnataka,17.9104,77.5199,37.8,15,0.0,931.7,9.15,40.3,68,39.6,14.7,1.3,158.0,128.0,4.4,0,5,10,0,2026-05-01T17:11:03.656803+05:30
Hospet,Karnataka,15.2689,76.3909,37.5,21,0.0,951.8,9.25,43.6,63,31.7,13.8,2.2,193.0,129.0,1.2,0,5,10,0,2026-05-01T17:11:03.656827+05:30
Tirupur,Tamil Nadu,11.1085,77.3411,31.1,59,0.1,972.8,9.2,46.1,131,36.1,27.6,3.2,268.0,175.0,3.1,3,5,7,1,2026-05-01T17:11:03.656851+05:30
Alappuzha,Kerala,9.4981,76.3388,27.0,90,0.0,1007.3,8.95,34.6,52,14.0,11.0,4.0,167.0,109.0,3.6,7,5,4,1,2026-05-01T17:11:03.656875+05:30
Munnar,Kerala,10.0889,77.0595,19.1,97,0.3,855.9,8.3,27.7,47,18.7,13.8,2.3,221.0,111.0,1.1,6,10,7,1,2026-05-01T17:11:03.656902+05:30
Silchar,Assam,24.8333,92.7789,23.0,94,0.1,1002.1,0.8,25.6,102,22.6,22.2,6.2,243.0,87.0,4.2,6,5,0,1,2026-05-01T17:11:03.656930+05:30
Dibrugarh,Assam,27.4728,94.912,22.6,89,0.0,993.7,5.65,22.3,65,21.6,14.4,4.0,279.0,106.0,1.5,3,5,3,1,2026-05-01T17:11:03.656953+05:30
