city,state,latitude,longitude,temp,humidity,rain,pressure,uv_index,wind_gusts,aqi,pm10,pm2_5,no2,co,o3,so2,mosquito_risk,arthritis_risk,migraine_risk,frizz_risk,updated_at
Delhi,Delhi,28.6139,77.209,24.9,62,0.0,985.2,7.55,47.9,440,307.3,61.9,17.0,498.0,131.0,21.9,3,5,7,1,2026-05-07T22:23:36.803937+05:30
Mumbai,Maharashtra,19.076,72.8777,29.0,83,0.0,1007.1,7.85,43.9,96,90.6,29.5,13.4,287.0,72.0,13.7,7,5,4,1,2026-05-07T22:23:36.803979+05:30
Bangalore,Karnataka,12.9716,77.5946,25.6,62,0.0,911.9,9.5,29.5,72,18.6,17.6,31.0,362.0,52.0,10.3,7,5,7,1,2026-05-07T22:23:36.803995+05:30
Hyderabad,Telangana,17.385,78.4867,29.4,52,0.0,954.6,9.25,33.1,84,25.1,19.8,12.3,316.0,90.0,7.1,4,5,7,1,2026-05-07T22:23:36.804005+05:30
Chennai,Tamil Nadu,13.0827,80.2707,29.7,71,0.0,1007.7,9.25,39.2,29,6.2,4.3,3.9,123.0,42.0,2.9,7,5,4,1,2026-05-07T22:23:36.804014+05:30
Kolkata,West Bengal,22.5726,88.3639,26.5,87,0.0,1008.8,8.9,37.8,85,41.6,39.5,19.6,1341.0,58.0,13.5,7,0,4,1,2026-05-07T22:23:36.804023+05:30
Pune,Maharashtra,18.5204,73.8567,30.1,45,0.0,947.8,8.45,41.4,133,58.9,33.4,11.6,341.0,139.0,18.1,0,5,7,1,2026-05-07T22:23:36.804030+05:30
Ahmedabad,Gujarat,23.0225,72.5714,36.0,19,0.0,1000.3,8.05,27.7,89,100.1,56.6,52.1,346.0,57.0,17.9,0,5,7,0,2026-05-07T22:23:36.804040+05:30
Jaipur,Rajasthan,26.9124,75.7873,25.6,52,0.0,959.6,8.1,62.6,111,143.0,45.4,26.2,443.0,73.0,7.6,4,5,7,0,2026-05-07T22:23:36.804048+05:30
Lucknow,Uttar Pradesh,26.8467,80.9462,23.6,72,0.0,996.7,8.05,32.4,137,68.2,39.6,14.1,457.0,110.0,12.1,3,5,7,1,2026-05-07T22:23:36.804056+05:30
Kanpur,Uttar Pradesh,26.4499,80.3319,25.2,63,0.0,994.6,8.05,38.9,140,225.4,50.8,10.9,352.0,111.0,8.9,7,5,7,1,2026-05-07T22:23:36.804063+05:30
Chandigarh,Chandigarh,30.7333,76.7794,23.2,56,0.0,971.2,5.9,46.8,144,58.1,37.6,31.3,490.0,85.0,6.7,0,5,3,0,2026-05-07T22:23:36.804071+05:30
Srinagar,Jammu and Kashmir,34.0837,74.7973,12.9,79,0.0,839.4,8.7,33.5,64,44.8,34.7,39.2,1242.0,43.0,6.3,3,5,7,0,2026-05-07T22:23:36.804079+05:30
Jammu,Jammu and Kashmir,32.7266,74.857,25.0,51,0.0,974.0,8.3,30.6,145,45.9,32.8,32.8,514.0,95.0,8.4,4,5,7,0,2026-05-07T22:23:36.804087+05:30
Amritsar,Punjab,31.634,74.8723,25.9,52,0.0,982.0,8.2,32.0,157,191.4,51.1,4.9,412.0,144.0,9.1,4,5,7,0,2026-05-07T22:23:36.804094+05:30
Ludhiana,Punjab,30.901,75.8573,24.3,62,0.0,980.4,7.8,40.0,174,213.3,57.5,13.6,401.0,116.0,8.9,3,5,7,1,2026-05-07T22:23:36.804100+05:30
Jalandhar,Punjab,31.326,75.5762,24.1,63,0.0,981.3,7.95,38.2,149,223.1,67.1,17.3,406.0,105.0,15.5,3,5,7,1,2026-05-07T22:23:36.804107+05:30
Dehradun,Uttarakhand,30.6284,78.0322,10.9,92,0.0,830.0,5.95,30.6,121,25.8,20.1,28.4,223.0,89.0,1.0,3,10,3,0,2026-05-07T22:23:36.804117+05:30
Shimla,Himachal Pradesh,31.1048,77.1734,8.5,87,0.0,782.4,6.25,28.8,128,19.0,15.1,20.5,499.0,93.0,1.5,3,10,7,0,2026-05-07T22:23:36.804124+05:30
Manali,Himachal Pradesh,32.2396,77.1887,10.0,87,0.0,817.2,9.35,33.1,91,47.7,11.1,27.6,337.0,99.0,0.8,3,10,7,0,2026-05-07T22:23:36.804131+05:30
Gurgaon,Haryana,28.4595,77.0266,24.8,58,0.0,983.1,7.65,53.6,1638,2458.7,284.1,16.0,460.0,133.0,18.9,0,5,7,0,2026-05-07T22:23:36.804138+05:30
Noida,Uttar Pradesh,28.5355,77.391,23.6,70,0.0,986.8,7.55,45.7,1638,2458.7,284.1,16.0,445.0,133.0,18.9,3,5,7,1,2026-05-07T22:23:36.804144+05:30
Ghaziabad,Uttar Pradesh,28.6692,77.4538,23.5,71,0.0,985.1,7.55,45.7,186,222.1,48.3,8.6,368.0,136.0,16.2,3,5,7,1,2026-05-07T22:23:36.804151+05:30
Faridabad,Haryana,28.4089,77.3178,24.1,66,0.0,985.8,7.6,51.1,1638,2458.7,284.1,16.0,479.0,133.0,18.9,3,5,7,1,2026-05-07T22:23:36.804158+05:30
Meerut,Uttar Pradesh,28.9845,77.7064,22.8,74,0.0,984.2,7.1,45.4,186,222.1,48.3,8.6,380.0,136.0,16.2,3,5,7,1,2026-05-07T22:23:36.804167+05:30
Agra,Uttar Pradesh,27.1767,78.0081,24.2,60,0.0,989.5,7.9,52.9,938,1777.0,197.9,8.6,329.0,123.0,12.3,0,5,7,0,2026-05-07T22:23:36.804174+05:30
Varanasi,Uttar Pradesh,25.3176,82.9739,25.7,66,0.0,1000.5,8.55,37.4,132,80.8,55.3,29.3,940.0,83.0,19.2,7,5,4,1,2026-05-07T22:23:36.804181+05:30
Prayagraj,Uttar Pradesh,25.4358,81.8463,26.1,55,0.0,998.7,8.45,31.7,129,68.0,41.2,21.3,416.0,91.0,13.3,4,5,7,1,2026-05-07T22:23:36.804190+05:30
Gorakhpur,Uttar Pradesh,26.7606,83.3732,23.0,81,0.0,1000.6,8.4,35.6,136,44.2,32.2,10.9,521.0,110.0,6.1,3,5,4,1,2026-05-07T22:23:36.804197+05:30
Bareilly,Uttar Pradesh,28.367,79.4304,21.9,88,0.0,989.8,7.2,26.6,126,60.8,33.6,15.8,357.0,98.0,7.0,3,5,7,1,2026-05-07T22:23:36.804203+05:30
Aligarh,Uttar Pradesh,27.8974,78.088,23.5,73,0.0,987.8,7.7,47.9,698,873.6,115.9,6.6,348.0,148.0,15.9,3,5,7,1,2026-05-07T22:23:36.804210+05:30
Moradabad,Uttar Pradesh,28.8386,78.7733,22.0,80,0.0,986.8,7.35,35.6,133,74.5,45.6,22.8,341.0,92.0,12.1,3,5,7,1,2026-05-07T22:23:36.804217+05:30
Saharanpur,Uttar Pradesh,29.9637,77.546,22.2,72,0.0,978.5,7.0,49.0,121,138.8,65.4,32.5,452.0,83.0,16.8,3,5,7,1,2026-05-07T22:23:36.804223+05:30
Jhansi,Uttar Pradesh,25.4484,78.5685,27.0,46,0.0,979.3,8.3,45.0,117,54.4,22.1,4.9,304.0,107.0,9.6,4,5,7,0,2026-05-07T22:23:40.057620+05:30
Surat,Gujarat,21.1702,72.8311,29.0,86,0.0,1005.4,7.7,31.7,131,67.5,34.2,35.1,381.0,66.0,46.2,7,5,4,1,2026-05-07T22:23:40.057650+05:30
Vadodara,Gujarat,22.3072,73.1812,33.8,24,0.0,1002.6,8.0,37.8,113,78.2,43.0,37.1,480.0,70.0,14.9,0,5,4,0,2026-05-07T22:23:40.057660+05:30
Rajkot,Gujarat,22.3039,70.8022,29.6,41,0.0,993.3,7.65,45.4,91,25.5,13.6,6.3,179.0,77.0,6.7,4,5,7,0,2026-05-07T22:23:40.057668+05:30
Thane,Maharashtra,19.2183,72.9781,28.8,84,0.0,1006.5,7.9,35.3,96,90.6,29.5,13.4,256.0,72.0,13.7,7,5,4,1,2026-05-07T22:23:40.057675+05:30
Nagpur,Maharashtra,21.1458,79.0882,30.5,40,0.0,974.1,8.9,48.6,195,75.9,57.9,33.1,275.0,110.0,31.8,0,5,7,0,2026-05-07T22:23:40.057682+05:30
Nashik,Maharashtra,19.9975,73.7898,28.9,46,0.0,945.4,8.15,41.4,100,51.3,25.4,17.2,325.0,81.0,4.1,4,5,7,0,2026-05-07T22:23:40.057689+05:30
Aurangabad,Maharashtra,19.8762,75.3433,31.5,18,0.0,943.7,9.0,33.1,131,48.8,25.0,13.3,318.0,106.0,7.6,0,5,7,0,2026-05-07T22:23:40.057696+05:30
Solapur,Maharashtra,17.6599,75.9064,33.2,30,0.0,956.7,9.05,33.8,118,50.4,37.1,7.2,494.0,118.0,5.6,0,5,7,0,2026-05-07T22:23:40.057704+05:30
Kolhapur,Maharashtra,16.705,74.2433,27.0,72,0.0,947.7,8.95,46.8,118,59.3,45.1,23.3,262.0,80.0,10.4,7,5,7,1,2026-05-07T22:23:40.057711+05:30
Goa,Goa,15.2993,74.124,29.4,76,0.0,997.1,8.9,38.9,80,71.0,42.4,12.8,249.0,82.0,5.2,7,5,7,1,2026-05-07T22:23:40.057752+05:30
Jodhpur,Rajasthan,26.2389,73.0243,33.3,18,0.0,980.9,8.3,40.3,109,209.1,35.6,7.0,223.0,96.0,3.4,0,5,7,0,2026-05-07T22:23:40.057769+05:30
Udaipur,Rajasthan,24.5854,73.7125,27.2,33,0.0,945.8,8.75,31.3,87,70.5,20.7,4.2,279.0,102.0,2.7,4,5,7,0,2026-05-07T22:23:40.057777+05:30
Kota,Rajasthan,25.2138,75.8648,30.3,31,0.0,978.1,8.3,39.6,110,97.6,44.8,22.2,385.0,83.0,8.3,0,5,7,0,2026-05-07T22:23:40.057784+05:30
Bikaner,Rajasthan,28.0229,73.3119,31.9,23,0.0,979.6,8.25,49.0,91,49.8,18.5,6.2,395.0,95.0,6.1,0,5,7,0,2026-05-07T22:23:40.057791+05:30
Ajmer,Rajasthan,26.4499,74.6399,29.3,25,0.0,953.3,8.25,46.4,90,93.1,28.8,12.2,273.0,82.0,5.3,4,5,7,0,2026-05-07T22:23:40.057798+05:30
Gwalior,Madhya Pradesh,26.2183,78.1828,24.9,57,0.0,984.2,7.9,54.0,105,85.2,30.4,8.1,318.0,104.0,7.2,0,5,7,0,2026-05-07T22:23:40.057805+05:30
Indore,Madhya Pradesh,22.7196,75.8577,31.6,23,0.0,948.4,8.6,34.6,125,47.4,32.4,19.1,433.0,89.0,8.7,0,5,7,0,2026-05-07T22:23:40.057812+05:30
Bhopal,Madhya Pradesh,23.2599,77.4126,31.4,21,0.0,953.4,8.65,34.2,122,34.5,25.3,14.6,570.0,90.0,6.7,0,5,7,0,2026-05-07T22:23:40.057819+05:30
Jabalpur,Madhya Pradesh,23.1815,79.9864,28.4,37,0.0,962.5,8.8,37.4,105,33.5,20.9,22.7,306.0,88.0,5.6,4,5,7,0,2026-05-07T22:23:40.057825+05:30
Ujjain,Madhya Pradesh,23.1765,75.7885,31.2,23,0.0,953.9,8.55,46.4,107,50.1,31.3,9.4,304.0,92.0,6.3,0,5,7,0,2026-05-07T22:23:40.057833+05:30
Visakhapatnam,Andhra Pradesh,17.6868,83.2185,27.4,87,0.0,1005.9,8.9,35.3,73,23.2,20.8,18.4,373.0,22.0,6.5,7,5,4,1,2026-05-07T22:23:40.057840+05:30
Vijayawada,Andhra Pradesh,16.5062,80.648,29.0,75,0.0,1003.9,9.15,33.1,49,11.5,9.9,7.5,178.0,30.0,6.6,7,5,4,1,2026-05-07T22:23:40.057846+05:30
Guntur,Andhra Pradesh,16.3067,80.4365,29.1,72,0.0,1005.1,9.2,37.4,51,12.7,11.2,8.0,188.0,39.0,8.2,7,5,4,1,2026-05-07T22:23:40.057853+05:30
Nellore,Andhra Pradesh,14.4426,79.9865,28.6,79,0.0,1006.8,9.2,39.6,31,7.9,5.6,2.5,151.0,38.0,1.5,7,5,4,1,2026-05-07T22:23:40.057860+05:30
Kurnool,Andhra Pradesh,15.8281,78.0373,31.1,50,0.0,977.1,9.2,40.7,74,18.3,14.1,5.3,180.0,84.0,2.2,0,5,7,1,2026-05-07T22:23:40.057868+05:30
Kakinada,Andhra Pradesh,16.9891,82.2475,27.4,87,0.0,1009.3,8.9,30.6,30,9.8,6.7,1.4,198.0,45.0,0.7,7,0,4,1,2026-05-07T22:23:40.057875+05:30
Tirupati,Andhra Pradesh,13.6288,79.4192,27.7,73,0.0,992.2,9.25,37.4,51,8.9,7.6,7.4,152.0,35.0,2.8,7,5,7,1,2026-05-07T22:23:40.057881+05:30
Warangal,Telangana,17.9689,79.5941,29.1,59,0.0,979.9,9.1,43.9,75,57.3,47.6,24.4,370.0,78.0,10.9,4,5,7,1,2026-05-07T22:23:40.057888+05:30
Nizamabad,Telangana,18.6725,78.0941,26.9,62,0.0,965.2,9.1,49.0,102,41.1,32.1,11.9,527.0,93.0,7.4,7,5,7,1,2026-05-07T22:23:40.057894+05:30
Mysore,Karnataka,12.2958,76.6396,23.8,81,0.0,928.5,9.2,32.4,81,39.2,32.9,45.3,330.0,55.0,9.6,3,5,7,1,2026-05-07T22:23:40.057900+05:30
Mangalore,Karnataka,12.9141,74.856,28.0,87,0.0,1006.0,8.45,34.2,62,42.6,27.8,14.9,363.0,63.0,5.2,7,5,4,1,2026-05-07T22:23:40.057907+05:30
Hubli-Dharwad,Karnataka,15.3647,75.124,26.0,71,0.0,940.9,9.15,49.3,126,38.0,31.1,9.2,303.0,111.0,4.0,7,5,7,1,2026-05-07T22:23:40.057914+05:30
Belgaum,Karnataka,15.8497,74.4977,24.6,77,0.0,925.6,8.35,43.6,107,55.4,40.6,23.3,293.0,69.0,8.1,3,5,7,1,2026-05-07T22:23:43.321612+05:30
Coimbatore,Tamil Nadu,11.0168,76.9558,25.6,85,0.0,961.0,7.0,29.2,62,27.4,23.7,13.7,388.0,76.0,6.2,7,5,7,1,2026-05-07T22:23:43.321645+05:30
Madurai,Tamil Nadu,9.9252,78.1198,28.9,72,0.0,992.5,6.8,25.6,67,20.4,17.8,11.5,300.0,84.0,5.4,7,5,7,1,2026-05-07T22:23:43.321658+05:30
Trichy,Tamil Nadu,10.7905,78.7047,29.0,75,0.0,999.5,8.05,34.2,69,14.5,13.9,13.7,269.0,77.0,6.8,7,5,7,1,2026-05-07T22:23:43.321668+05:30
Salem,Tamil Nadu,11.6643,78.146,28.2,70,0.0,976.7,8.8,40.3,86,24.3,22.7,12.4,446.0,93.0,11.6,7,5,7,1,2026-05-07T22:23:43.321676+05:30
Tirunelveli,Tamil Nadu,8.7139,77.7567,28.5,76,0.0,1002.5,5.1,32.4,65,24.9,22.4,11.3,304.0,70.0,2.6,7,5,0,1,2026-05-07T22:23:43.321685+05:30
Vellore,Tamil Nadu,12.9165,79.1325,27.9,76,0.0,985.2,9.25,29.2,58,11.0,9.9,12.7,170.0,32.0,1.9,7,5,7,1,2026-05-07T22:23:43.321694+05:30
Erode,Tamil Nadu,11.341,77.7172,28.1,76,0.0,988.6,8.1,35.6,67,19.7,17.8,12.0,538.0,91.0,4.1,7,5,7,1,2026-05-07T22:23:43.321702+05:30
Kochi,Kerala,9.9312,76.2673,26.5,91,0.0,1008.3,3.65,28.1,64,24.9,23.3,22.0,338.0,44.0,4.7,7,0,0,1,2026-05-07T22:23:43.321711+05:30
Thiruvananthapuram,Kerala,8.5241,76.9366,25.0,94,0.0,1007.4,7.15,31.3,70,18.3,14.3,6.7,377.0,95.0,3.6,7,5,4,1,2026-05-07T22:23:43.321744+05:30
Kozhikode,Kerala,11.2588,75.7804,26.9,91,0.0,1007.3,7.5,32.0,78,12.2,9.4,3.3,478.0,117.0,2.1,7,5,4,1,2026-05-07T22:23:43.321766+05:30
Thrissur,Kerala,10.5276,76.2144,25.8,95,0.0,1006.8,3.6,31.7,66,25.7,24.0,24.0,917.0,35.0,3.9,7,5,0,1,2026-05-07T22:23:43.321776+05:30
Kannur,Kerala,11.8745,75.3704,28.5,83,0.0,1006.3,8.15,41.0,83,23.6,17.5,12.3,568.0,80.0,2.9,7,5,4,1,2026-05-07T22:23:43.321785+05:30
Patna,Bihar,25.5941,85.1376,25.2,82,0.0,1003.7,8.65,39.2,159,59.0,51.8,28.8,658.0,84.0,16.6,7,5,4,1,2026-05-07T22:23:43.321793+05:30
Gaya,Bihar,24.7914,85.0002,24.5,76,0.0,997.2,8.75,42.8,180,61.2,56.5,19.5,516.0,108.0,15.3,3,5,7,1,2026-05-07T22:23:43.321801+05:30
Muzaffarpur,Bihar,26.1209,85.3647,25.1,69,0.0,1003.5,8.65,39.2,134,66.4,57.5,31.6,865.0,76.0,16.6,7,5,4,1,2026-05-07T22:23:43.321810+05:30
Bhagalpur,Bihar,25.2425,87.0117,24.8,77,0.0,1004.3,8.7,38.5,154,86.6,82.4,38.4,428.0,82.0,18.7,3,5,4,1,2026-05-07T22:23:43.321818+05:30
Ranchi,Jharkhand,23.3441,85.3096,22.4,70,0.0,940.7,9.2,33.5,146,42.1,37.4,10.9,800.0,136.0,16.5,3,5,7,1,2026-05-07T22:23:43.321826+05:30
Jamshedpur,Jharkhand,22.8046,86.2029,26.4,75,0.0,994.2,9.0,37.4,165,37.7,35.6,17.3,341.0,100.0,27.7,7,5,7,1,2026-05-07T22:23:43.321835+05:30
Dhanbad,Jharkhand,23.7957,86.4304,24.5,87,0.0,983.3,8.95,39.2,183,75.7,72.2,37.5,395.0,133.0,51.9,3,5,7,1,2026-05-07T22:23:43.321843+05:30
Bokaro,Jharkhand,23.6693,86.1511,24.5,86,0.0,987.2,8.95,41.8,172,67.3,63.6,32.5,716.0,136.0,45.8,3,5,7,1,2026-05-07T22:23:43.321851+05:30
Bhubaneswar,Odisha,20.2961,85.8245,26.7,94,0.0,1005.2,9.1,51.1,45,12.5,10.0,7.0,230.0,39.0,3.0,7,5,4,1,2026-05-07T22:23:43.321859+05:30
Cuttack,Odisha,20.4625,85.8828,26.9,92,0.0,1006.9,9.1,40.0,45,12.5,10.0,7.0,269.0,39.0,3.0,7,5,4,1,2026-05-07T22:23:43.321867+05:30
Rourkela,Odisha,22.2604,84.8536,26.5,51,0.0,987.6,8.95,34.6,168,68.5,57.3,24.9,584.0,102.0,30.2,4,5,7,0,2026-05-07T22:23:43.321876+05:30
Raipur,Chhattisgarh,21.2514,81.6296,30.2,31,0.0,975.4,8.95,32.0,207,73.3,63.6,41.0,380.0,112.0,14.1,0,5,7,0,2026-05-07T22:23:43.321884+05:30
Bhilai,Chhattisgarh,21.1938,81.3509,29.2,42,0.0,975.7,8.95,25.9,198,63.1,52.7,41.7,695.0,100.0,10.8,4,5,7,0,2026-05-07T22:23:43.321892+05:30
Guwahati,Assam,26.1158,91.7086,21.5,93,0.0,1005.1,8.65,24.8,103,53.2,47.5,16.6,331.0,44.0,2.7,3,5,4,1,2026-05-07T22:23:43.321900+05:30
Agartala,Tripura,23.8315,91.2868,24.2,88,0.0,1009.3,8.85,32.0,108,92.7,90.1,63.2,784.0,62.0,11.0,3,0,4,1,2026-05-07T22:23:43.321909+05:30
Shillong,Meghalaya,25.5788,91.8933,14.6,88,0.0,858.3,7.95,24.8,82,47.3,41.1,20.0,601.0,47.0,2.2,3,10,7,0,2026-05-07T22:23:43.321918+05:30
Imphal,Manipur,24.817,93.9368,18.5,93,0.0,925.1,9.1,31.7,107,57.5,49.7,28.4,746.0,40.0,6.7,3,10,7,1,2026-05-07T22:23:43.321927+05:30
Aizawl,Mizoram,23.7271,92.7176,17.7,90,0.0,894.5,9.05,23.4,69,28.9,23.9,16.5,355.0,47.0,1.4,3,10,7,0,2026-05-07T22:23:43.321935+05:30
Kohima,Nagaland,25.6701,94.1077,13.8,97,0.0,856.0,9.15,26.3,74,51.6,39.5,16.8,429.0,51.0,1.1,3,10,7,0,2026-05-07T22:23:43.321942+05:30
Gangtok,Sikkim,27.3314,88.6138,10.1,77,0.0,836.9,8.55,36.7,73,36.7,28.6,22.6,473.0,82.0,1.9,3,5,7,0,2026-05-07T22:23:43.321949+05:30
Siliguri,West Bengal,26.7271,88.3953,21.4,81,0.0,996.2,8.6,21.6,101,83.8,67.5,39.5,1318.0,67.0,7.5,3,5,7,1,2026-05-07T22:23:46.577200+05:30
Durgapur,West Bengal,23.5204,87.3119,24.1,91,0.0,998.3,8.9,45.4,163,68.0,65.0,26.0,524.0,122.0,38.0,3,5,7,1,2026-05-07T22:23:46.577236+05:30
Asansol,West Bengal,23.6739,86.9524,24.6,86,0.0,997.1,8.95,34.2,182,70.8,67.3,26.2,469.0,133.0,41.1,3,5,7,1,2026-05-07T22:23:46.577249+05:30
Pondicherry,Puducherry,11.9139,79.8145,28.9,80,0.0,1008.5,7.25,35.3,25,6.5,4.4,1.8,188.0,43.0,0.3,7,0,4,1,2026-05-07T22:23:46.577260+05:30
Port Blair,Andaman and Nicobar Islands,11.6234,92.7265,27.2,82,0.0,1008.0,8.45,34.9,30,8.1,6.2,0.4,192.0,68.0,0.3,7,0,4,1,2026-05-07T22:23:46.577270+05:30
Haridwar,Uttarakhand,29.9457,78.1642,21.2,71,0.0,977.1,7.1,34.2,139,121.1,53.0,23.5,433.0,99.0,10.8,3,5,7,0,2026-05-07T22:23:46.577279+05:30
Rishikesh,Uttarakhand,30.0869,78.2676,20.3,77,0.0,969.5,7.05,36.0,154,102.9,39.1,13.0,479.0,133.0,6.6,3,5,7,1,2026-05-07T22:23:46.577289+05:30
Nainital,Uttarakhand,29.3919,79.4542,8.8,91,0.0,804.2,7.4,29.5,110,50.5,31.4,19.0,347.0,83.0,4.9,3,10,7,0,2026-05-07T22:23:46.577297+05:30
Mussoorie,Uttarakhand,30.4599,78.0664,10.0,87,0.0,802.1,5.35,39.2,140,72.2,43.0,32.2,356.0,96.0,13.9,3,10,3,0,2026-05-07T22:23:46.577306+05:30
Dharamshala,Himachal Pradesh,32.219,76.3234,16.7,66,0.0,869.7,6.8,39.2,96,26.8,15.8,14.0,261.0,84.0,1.1,3,5,7,0,2026-05-07T22:23:46.577315+05:30
Dalhousie,Himachal Pradesh,32.5387,75.971,10.4,83,0.0,803.0,7.65,33.1,121,43.7,33.9,45.5,617.0,63.0,4.5,3,10,7,0,2026-05-07T22:23:46.577324+05:30
Patiala,Punjab,30.3398,76.3869,24.0,64,0.0,980.3,7.45,45.4,529,635.2,83.1,8.8,316.0,125.0,7.4,3,5,7,1,2026-05-07T22:23:46.577333+05:30
Bhatinda,Punjab,30.211,74.9455,26.9,52,0.0,984.3,8.1,42.8,550,1024.5,166.2,5.3,313.0,157.0,12.7,4,5,7,0,2026-05-07T22:23:46.577342+05:30
Rohtak,Haryana,28.8955,76.6066,24.4,64,0.0,983.3,7.6,51.8,877,927.6,117.6,15.6,361.0,137.0,23.2,3,5,7,1,2026-05-07T22:23:46.577351+05:30
Panipat,Haryana,29.3909,76.9635,23.7,73,0.0,982.7,7.1,52.2,1403,1862.6,197.0,8.2,395.0,141.0,12.7,3,5,7,1,2026-05-07T22:23:46.577359+05:30
Mathura,Uttar Pradesh,27.4924,77.6737,24.5,58,0.0,988.6,7.85,49.7,1049,2138.3,235.2,9.3,315.0,128.0,12.9,0,5,7,0,2026-05-07T22:23:46.577368+05:30
Vrindavan,Uttar Pradesh,27.5823,77.7027,24.5,60,0.0,989.1,7.8,50.8,1049,2138.3,235.2,9.3,323.0,128.0,12.9,0,5,7,1,2026-05-07T22:23:46.577376+05:30
Ayodhya,Uttar Pradesh,26.7922,82.1998,22.5,80,0.0,998.6,7.75,30.2,120,70.1,46.3,28.0,361.0,79.0,10.0,3,5,7,1,2026-05-07T22:23:46.577385+05:30
Ratlam,Madhya Pradesh,23.3315,75.0367,29.5,25,0.0,954.4,8.45,36.4,112,45.6,26.6,4.2,249.0,112.0,7.3,4,5,7,0,2026-05-07T22:23:46.577394+05:30
Sagar,Madhya Pradesh,23.8388,78.7378,27.3,35,0.0,950.9,8.65,35.3,105,21.0,12.8,12.7,224.0,86.0,4.0,4,5,7,0,2026-05-07T22:23:46.577402+05:30
Satna,Madhya Pradesh,24.6005,80.8322,25.4,45,0.0,973.2,8.65,40.3,151,46.4,24.9,6.5,253.0,139.0,8.0,4,5,7,0,2026-05-07T22:23:46.577411+05:30
Akola,Maharashtra,20.7002,77.0082,32.1,31,0.0,974.7,8.85,40.7,133,52.7,38.3,7.8,274.0,110.0,2.9,0,5,7,0,2026-05-07T22:23:46.577421+05:30
Amravati,Maharashtra,20.9374,77.7796,31.5,36,0.0,967.9,6.4,35.3,131,49.5,34.9,10.0,252.0,104.0,2.1,0,5,7,0,2026-05-07T22:23:46.577431+05:30
Latur,Maharashtra,18.4088,76.5604,30.5,35,0.0,940.3,8.35,35.3,102,68.5,49.7,16.8,299.0,92.0,13.7,0,5,7,0,2026-05-07T22:23:46.577440+05:30
Nanded,Maharashtra,19.1383,77.3091,30.5,44,0.0,969.1,8.3,44.6,104,49.6,37.1,17.7,342.0,87.0,5.0,0,5,7,1,2026-05-07T22:23:46.577449+05:30
Gulbarga,Karnataka,17.3297,76.8343,32.0,35,0.0,958.9,9.05,36.0,116,34.0,23.9,14.5,280.0,96.0,5.4,0,5,7,0,2026-05-07T22:23:46.577457+05:30
Bidar,Karnataka,17.9104,77.5199,28.5,43,0.0,936.3,9.0,34.2,93,60.5,45.9,35.7,520.0,70.0,6.3,4,5,7,0,2026-05-07T22:23:46.577466+05:30
Hospet,Karnataka,15.2689,76.3909,28.5,59,0.0,955.2,9.2,33.5,119,40.5,30.2,29.0,559.0,80.0,10.7,4,5,7,1,2026-05-07T22:23:46.577475+05:30
Tirupur,Tamil Nadu,11.1085,77.3411,27.1,77,0.0,974.5,7.5,28.1,76,29.2,26.3,17.2,354.0,86.0,6.3,7,5,7,1,2026-05-07T22:23:46.577485+05:30
Alappuzha,Kerala,9.4981,76.3388,25.8,97,0.1,1008.4,6.3,28.8,61,23.4,19.0,15.0,219.0,68.0,5.3,10,0,4,1,2026-05-07T22:23:46.577494+05:30
Munnar,Kerala,10.0889,77.0595,18.1,95,0.0,856.2,7.65,24.8,69,17.2,14.4,8.6,314.0,70.0,1.9,3,10,7,1,2026-05-07T22:23:46.577502+05:30
Silchar,Assam,24.8333,92.7789,23.5,94,0.0,1008.1,8.85,19.8,131,83.6,73.8,24.7,726.0,75.0,13.4,3,0,4,1,2026-05-07T22:23:46.577508+05:30
Dibrugarh,Assam,27.4728,94.912,23.0,86,0.0,999.3,8.8,22.7,76,33.4,29.3,14.7,338.0,42.0,1.8,3,5,7,1,2026-05-07T22:23:46.577515+05:30
