city,state,latitude,longitude,temp,humidity,rain,pressure,uv_index,wind_gusts,aqi,pm10,pm2_5,no2,co,o3,so2,mosquito_risk,arthritis_risk,migraine_risk,frizz_risk,updated_at
Delhi,Delhi,28.6139,77.209,28.6,75,0.0,976.1,7.7,24.1,203,115.5,58.8,32.0,463.0,45.0,19.5,7,5,7,1,2026-07-15T03:29:51.517757+05:30
Mumbai,Maharashtra,19.076,72.8777,27.8,77,0.1,1006.3,7.6,46.1,73,38.8,16.9,5.0,121.0,45.0,4.4,10,5,4,1,2026-07-15T03:29:51.517803+05:30
Bangalore,Karnataka,12.9716,77.5946,20.3,85,0.0,910.3,8.9,42.1,61,19.0,14.8,18.5,198.0,35.0,5.6,3,5,7,1,2026-07-15T03:29:51.517820+05:30
Hyderabad,Telangana,17.385,78.4867,27.1,59,0.0,950.3,9.05,44.6,71,33.2,24.0,13.5,204.0,49.0,6.8,4,5,7,1,2026-07-15T03:29:51.517830+05:30
Chennai,Tamil Nadu,13.0827,80.2707,29.3,79,0.0,1003.7,8.9,36.0,84,36.0,24.4,10.2,228.0,75.0,8.0,7,5,4,1,2026-07-15T03:29:51.517839+05:30
Kolkata,West Bengal,22.5726,88.3639,26.9,96,0.0,998.7,8.2,36.0,142,75.0,71.5,50.0,1051.0,8.0,22.1,7,5,7,1,2026-07-15T03:29:51.517848+05:30
Pune,Maharashtra,18.5204,73.8567,23.2,88,0.0,946.3,8.35,48.2,59,14.0,7.2,7.1,117.0,37.0,6.2,3,5,7,1,2026-07-15T03:29:51.517855+05:30
Ahmedabad,Gujarat,23.0225,72.5714,28.1,77,0.0,998.4,8.1,40.3,69,20.0,11.7,6.8,120.0,35.0,4.2,7,5,7,1,2026-07-15T03:29:51.517861+05:30
Jaipur,Rajasthan,26.9124,75.7873,28.6,60,0.0,954.6,8.05,38.5,414,700.4,126.2,7.7,196.0,49.0,3.9,4,5,7,1,2026-07-15T03:29:51.517868+05:30
Lucknow,Uttar Pradesh,26.8467,80.9462,29.1,77,0.0,986.4,8.2,21.2,165,142.5,72.9,21.1,234.0,42.0,8.0,7,5,7,1,2026-07-15T03:29:51.517878+05:30
Kanpur,Uttar Pradesh,26.4499,80.3319,29.1,74,0.0,984.8,7.6,27.7,154,129.9,63.1,14.0,146.0,52.0,5.9,7,5,7,1,2026-07-15T03:29:51.517885+05:30
Chandigarh,Chandigarh,30.7333,76.7794,26.4,86,0.0,962.0,7.7,26.6,173,100.8,86.4,50.2,941.0,18.0,9.4,7,5,7,1,2026-07-15T03:29:51.517892+05:30
Srinagar,Jammu and Kashmir,34.0837,74.7973,18.7,86,0.0,837.2,8.95,16.6,83,41.4,36.9,28.9,544.0,17.0,2.9,3,10,7,1,2026-07-15T03:29:51.517899+05:30
Jammu,Jammu and Kashmir,32.7266,74.857,25.5,88,0.0,965.8,8.55,23.8,154,82.7,68.7,50.9,695.0,0.0,3.4,7,5,7,1,2026-07-15T03:29:51.517905+05:30
Amritsar,Punjab,31.634,74.8723,27.8,87,0.0,973.8,8.4,20.2,190,212.3,169.0,81.9,1582.0,9.0,14.7,7,5,7,1,2026-07-15T03:29:51.517911+05:30
Ludhiana,Punjab,30.901,75.8573,28.0,90,0.0,971.7,7.95,23.0,187,189.1,159.3,85.2,1757.0,2.0,14.3,7,5,7,1,2026-07-15T03:29:51.517917+05:30
Jalandhar,Punjab,31.326,75.5762,27.0,92,0.0,972.7,8.15,22.3,197,235.2,183.9,85.2,1524.0,7.0,13.8,7,5,7,1,2026-07-15T03:29:51.517923+05:30
Dehradun,Uttarakhand,30.6284,78.0322,17.2,100,0.0,826.1,7.7,27.4,116,68.7,36.3,25.4,272.0,56.0,2.0,3,10,7,1,2026-07-15T03:29:51.517931+05:30
Shimla,Himachal Pradesh,31.1048,77.1734,13.4,100,0.0,779.3,8.2,38.2,134,53.4,32.8,10.3,404.0,92.0,1.7,3,10,7,0,2026-07-15T03:29:51.517938+05:30
Manali,Himachal Pradesh,32.2396,77.1887,17.8,83,0.0,815.5,9.25,32.0,54,6.9,4.7,13.8,232.0,110.0,0.1,3,10,7,0,2026-07-15T03:29:51.517962+05:30
Gurgaon,Haryana,28.4595,77.0266,29.0,72,0.0,974.6,7.75,29.5,241,108.0,51.1,22.0,389.0,49.0,9.1,7,5,7,1,2026-07-15T03:29:51.517969+05:30
Noida,Uttar Pradesh,28.5355,77.391,28.3,78,0.0,977.5,7.7,20.2,241,108.0,51.1,22.0,638.0,49.0,9.1,7,5,7,1,2026-07-15T03:29:51.517976+05:30
Ghaziabad,Uttar Pradesh,28.6692,77.4538,28.5,78,0.0,975.8,7.7,19.1,183,105.5,56.9,28.2,445.0,47.0,16.9,7,5,7,1,2026-07-15T03:29:51.517982+05:30
Faridabad,Haryana,28.4089,77.3178,28.7,74,0.0,976.8,7.75,23.8,241,108.0,51.1,22.0,541.0,49.0,9.1,7,5,7,1,2026-07-15T03:29:51.517991+05:30
Meerut,Uttar Pradesh,28.9845,77.7064,27.8,82,0.0,974.7,7.6,22.7,183,105.5,56.9,28.2,343.0,47.0,16.9,7,5,7,1,2026-07-15T03:29:51.517997+05:30
Agra,Uttar Pradesh,27.1767,78.0081,25.8,84,0.1,981.6,5.35,34.6,153,103.1,38.6,12.9,154.0,66.0,3.6,10,5,3,1,2026-07-15T03:29:51.518003+05:30
Varanasi,Uttar Pradesh,25.3176,82.9739,28.7,90,0.0,990.7,7.5,28.1,165,173.2,90.8,29.5,611.0,40.0,13.5,7,5,7,1,2026-07-15T03:29:51.518010+05:30
Prayagraj,Uttar Pradesh,25.4358,81.8463,29.7,72,0.0,989.3,8.6,27.0,161,136.4,73.1,21.7,214.0,44.0,9.5,7,5,7,1,2026-07-15T03:29:51.518016+05:30
Gorakhpur,Uttar Pradesh,26.7606,83.3732,26.6,94,0.0,991.0,8.25,27.0,162,108.0,55.2,12.5,620.0,85.0,6.0,7,5,7,1,2026-07-15T03:29:51.518023+05:30
Bareilly,Uttar Pradesh,28.367,79.4304,27.4,77,0.0,979.8,7.9,20.2,175,137.4,74.5,27.4,323.0,53.0,9.3,7,5,7,1,2026-07-15T03:29:51.518031+05:30
Aligarh,Uttar Pradesh,27.8974,78.088,25.6,88,0.3,978.6,7.55,34.2,184,115.9,51.0,13.3,161.0,65.0,3.7,10,5,7,1,2026-07-15T03:29:51.518037+05:30
Moradabad,Uttar Pradesh,28.8386,78.7733,27.3,81,0.1,977.3,7.8,22.3,183,153.7,73.1,21.8,484.0,59.0,10.9,10,5,7,1,2026-07-15T03:29:51.518043+05:30
Saharanpur,Uttar Pradesh,29.9637,77.546,27.3,88,0.0,969.3,7.35,24.8,192,173.2,111.5,41.4,926.0,33.0,16.6,7,5,7,1,2026-07-15T03:29:51.518049+05:30
Jhansi,Uttar Pradesh,25.4484,78.5685,28.9,65,0.0,972.4,7.35,37.4,116,59.0,35.3,11.2,155.0,48.0,9.3,7,5,7,1,2026-07-15T03:29:54.773847+05:30
Surat,Gujarat,21.1702,72.8311,25.1,96,0.2,1003.9,7.75,47.2,73,24.4,16.3,19.1,330.0,28.0,31.7,10,5,4,1,2026-07-15T03:29:54.773883+05:30
Vadodara,Gujarat,22.3072,73.1812,27.3,83,0.0,1000.9,7.0,42.1,68,19.8,12.6,8.4,127.0,33.0,5.2,7,5,4,1,2026-07-15T03:29:54.773894+05:30
Rajkot,Gujarat,22.3039,70.8022,26.2,90,0.0,990.2,7.25,40.7,56,14.0,7.8,4.3,98.0,39.0,3.1,7,5,7,1,2026-07-15T03:29:54.773903+05:30
Thane,Maharashtra,19.2183,72.9781,26.0,88,0.1,1005.7,7.25,36.0,73,38.8,16.9,5.0,168.0,45.0,4.4,10,5,4,1,2026-07-15T03:29:54.773911+05:30
Nagpur,Maharashtra,21.1458,79.0882,27.1,66,0.0,969.3,8.8,51.5,86,46.4,32.2,14.1,239.0,42.0,8.0,7,5,7,1,2026-07-15T03:29:54.773918+05:30
Nashik,Maharashtra,19.9975,73.7898,22.6,94,0.0,942.7,7.9,43.9,60,18.7,9.3,8.5,107.0,33.0,7.7,3,5,7,1,2026-07-15T03:29:54.773925+05:30
Aurangabad,Maharashtra,19.8762,75.3433,23.0,88,0.0,942.0,8.4,45.4,63,18.3,10.6,9.4,156.0,40.0,11.6,3,5,7,1,2026-07-15T03:29:54.773932+05:30
Solapur,Maharashtra,17.6599,75.9064,24.6,77,0.0,955.7,8.5,67.3,60,24.6,16.1,6.8,138.0,40.0,2.7,3,5,7,1,2026-07-15T03:29:54.773939+05:30
Kolhapur,Maharashtra,16.705,74.2433,22.0,94,0.0,946.9,8.35,51.8,56,17.1,9.4,4.2,118.0,40.0,2.3,3,5,7,1,2026-07-15T03:29:54.773963+05:30
Goa,Goa,15.2993,74.124,24.5,98,0.0,997.9,8.05,33.5,72,53.7,30.4,7.5,692.0,41.0,2.3,3,5,7,1,2026-07-15T03:29:54.773970+05:30
Jodhpur,Rajasthan,26.2389,73.0243,29.3,61,0.0,977.6,8.15,38.9,183,251.5,62.4,4.8,115.0,50.0,2.1,7,5,7,1,2026-07-15T03:29:54.773978+05:30
Udaipur,Rajasthan,24.5854,73.7125,24.5,81,0.0,942.2,8.8,34.9,74,51.3,25.6,7.0,115.0,46.0,3.8,3,5,7,1,2026-07-15T03:29:54.773985+05:30
Kota,Rajasthan,25.2138,75.8648,28.2,67,0.0,974.2,8.3,34.9,92,51.2,27.8,7.4,181.0,59.0,6.0,7,5,7,1,2026-07-15T03:29:54.773992+05:30
Bikaner,Rajasthan,28.0229,73.3119,30.8,53,0.0,975.6,8.4,38.5,171,210.0,70.1,3.0,121.0,56.0,3.7,0,5,7,1,2026-07-15T03:29:54.773999+05:30
Ajmer,Rajasthan,26.4499,74.6399,26.6,71,0.0,949.6,8.3,46.8,104,52.0,26.8,6.6,128.0,52.0,3.7,7,5,7,1,2026-07-15T03:29:54.774006+05:30
Gwalior,Madhya Pradesh,26.2183,78.1828,28.7,72,0.0,977.1,2.05,41.0,121,117.1,51.2,16.6,141.0,42.0,3.8,7,5,3,1,2026-07-15T03:29:54.774013+05:30
Indore,Madhya Pradesh,22.7196,75.8577,24.1,89,0.0,945.1,8.6,38.9,71,27.0,16.9,8.8,192.0,42.0,9.7,3,5,7,1,2026-07-15T03:29:54.774020+05:30
Bhopal,Madhya Pradesh,23.2599,77.4126,25.1,75,0.0,949.9,7.55,43.6,81,39.6,27.7,8.8,285.0,57.0,4.8,7,5,7,1,2026-07-15T03:29:54.774027+05:30
Jabalpur,Madhya Pradesh,23.1815,79.9864,25.9,76,0.0,956.8,8.8,32.4,100,48.7,32.7,7.6,240.0,57.0,3.9,7,5,7,1,2026-07-15T03:29:54.774033+05:30
Ujjain,Madhya Pradesh,23.1765,75.7885,24.7,88,0.0,950.6,8.45,38.2,71,30.0,17.9,8.8,199.0,39.0,9.9,3,5,7,1,2026-07-15T03:29:54.774041+05:30
Visakhapatnam,Andhra Pradesh,17.6868,83.2185,29.4,72,0.0,996.5,1.55,26.3,143,57.9,40.2,38.4,323.0,37.0,53.4,7,5,3,1,2026-07-15T03:29:54.774048+05:30
Vijayawada,Andhra Pradesh,16.5062,80.648,29.9,59,0.0,997.6,6.2,45.4,86,48.7,37.4,15.3,201.0,46.0,8.8,4,5,7,1,2026-07-15T03:29:54.774054+05:30
Guntur,Andhra Pradesh,16.3067,80.4365,30.0,56,0.0,999.0,6.85,48.2,81,45.2,34.8,16.7,208.0,43.0,8.4,4,5,7,1,2026-07-15T03:29:54.774061+05:30
Nellore,Andhra Pradesh,14.4426,79.9865,30.2,49,0.0,1001.9,8.25,49.7,74,53.7,40.4,13.0,242.0,74.0,7.3,0,5,4,1,2026-07-15T03:29:54.774068+05:30
Kurnool,Andhra Pradesh,15.8281,78.0373,28.9,57,0.0,974.6,8.8,64.1,62,22.1,15.5,8.4,138.0,52.0,4.4,4,5,7,1,2026-07-15T03:29:54.774076+05:30
Kakinada,Andhra Pradesh,16.9891,82.2475,29.5,68,0.0,1001.7,5.75,52.2,96,59.8,39.2,9.0,209.0,70.0,8.4,7,5,0,1,2026-07-15T03:29:54.774082+05:30
Tirupati,Andhra Pradesh,13.6288,79.4192,29.1,47,0.0,987.8,8.9,35.6,78,42.8,36.9,46.6,142.0,5.0,4.5,4,5,7,1,2026-07-15T03:29:54.774089+05:30
Warangal,Telangana,17.9689,79.5941,27.7,66,0.0,974.5,9.0,45.0,82,49.7,35.7,11.3,192.0,49.0,5.7,7,5,7,1,2026-07-15T03:29:54.774096+05:30
Nizamabad,Telangana,18.6725,78.0941,27.0,56,0.0,962.0,8.9,42.8,79,34.3,26.5,9.1,208.0,63.0,6.9,4,5,7,1,2026-07-15T03:29:54.774103+05:30
Mysore,Karnataka,12.2958,76.6396,20.1,96,0.0,927.7,8.8,44.3,58,22.4,16.2,11.1,154.0,43.0,2.8,3,5,7,1,2026-07-15T03:29:54.774109+05:30
Mangalore,Karnataka,12.9141,74.856,25.9,88,0.0,1007.3,8.75,38.2,63,31.8,19.4,9.4,151.0,30.0,3.1,7,5,4,1,2026-07-15T03:29:54.774116+05:30
Hubli-Dharwad,Karnataka,15.3647,75.124,21.5,95,0.0,940.1,7.0,51.8,54,14.3,8.8,4.6,123.0,38.0,1.9,3,5,7,1,2026-07-15T03:29:54.774122+05:30
Belgaum,Karnataka,15.8497,74.4977,20.6,97,0.0,924.7,6.8,51.5,54,19.2,10.5,4.5,110.0,38.0,2.2,3,5,7,1,2026-07-15T03:29:58.022564+05:30
Coimbatore,Tamil Nadu,11.0168,76.9558,23.7,92,0.0,960.7,6.8,51.5,58,20.3,13.8,6.4,176.0,44.0,3.9,3,5,7,1,2026-07-15T03:29:58.022600+05:30
Madurai,Tamil Nadu,9.9252,78.1198,28.6,68,0.0,991.4,8.8,33.5,77,44.7,36.0,45.5,140.0,12.0,8.6,7,5,7,1,2026-07-15T03:29:58.022611+05:30
Trichy,Tamil Nadu,10.7905,78.7047,28.8,65,0.0,998.1,8.8,47.5,67,30.6,22.5,17.2,127.0,38.0,5.0,7,5,7,1,2026-07-15T03:29:58.022620+05:30
Salem,Tamil Nadu,11.6643,78.146,25.4,86,0.0,976.1,7.35,21.6,74,33.1,25.7,23.9,277.0,28.0,7.3,7,5,7,1,2026-07-15T03:29:58.022628+05:30
Tirunelveli,Tamil Nadu,8.7139,77.7567,28.5,65,0.0,1001.6,8.55,44.3,54,17.5,12.2,7.5,133.0,34.0,2.8,7,5,4,1,2026-07-15T03:29:58.022636+05:30
Vellore,Tamil Nadu,12.9165,79.1325,28.8,45,0.0,981.9,8.75,39.2,81,57.5,47.1,44.4,253.0,15.0,10.5,4,5,7,0,2026-07-15T03:29:58.022644+05:30
Erode,Tamil Nadu,11.341,77.7172,26.5,77,0.0,987.9,8.35,45.7,64,23.7,17.5,12.7,170.0,35.0,4.4,7,5,7,1,2026-07-15T03:29:58.022651+05:30
Kochi,Kerala,9.9312,76.2673,26.9,89,0.0,1009.5,8.6,41.8,61,25.7,16.8,9.9,96.0,29.0,3.7,7,0,4,1,2026-07-15T03:29:58.022659+05:30
Thiruvananthapuram,Kerala,8.5241,76.9366,25.9,91,0.0,1008.9,8.45,47.9,57,26.2,14.0,3.3,155.0,48.0,1.2,7,0,4,1,2026-07-15T03:29:58.022666+05:30
Kozhikode,Kerala,11.2588,75.7804,24.6,94,0.0,1008.6,7.4,40.7,57,29.6,15.0,2.2,195.0,51.0,1.6,3,0,4,1,2026-07-15T03:29:58.022674+05:30
Thrissur,Kerala,10.5276,76.2144,25.6,90,0.0,1007.9,8.3,38.9,59,21.1,13.5,6.1,134.0,33.0,2.5,7,5,4,1,2026-07-15T03:29:58.022681+05:30
Kannur,Kerala,11.8745,75.3704,25.1,93,0.0,1007.9,8.7,40.3,60,25.3,15.7,9.2,221.0,29.0,2.6,7,5,4,1,2026-07-15T03:29:58.022688+05:30
Patna,Bihar,25.5941,85.1376,28.8,93,0.0,993.9,8.3,25.6,157,107.8,83.6,31.7,481.0,48.0,16.7,7,5,7,1,2026-07-15T03:29:58.022695+05:30
Gaya,Bihar,24.7914,85.0002,27.7,94,0.0,987.1,7.65,27.0,160,114.6,80.1,31.9,379.0,36.0,10.0,7,5,7,1,2026-07-15T03:29:58.022702+05:30
Muzaffarpur,Bihar,26.1209,85.3647,27.9,96,0.0,993.9,7.0,22.3,155,97.1,81.7,30.9,527.0,45.0,14.2,7,5,7,1,2026-07-15T03:29:58.022708+05:30
Bhagalpur,Bihar,25.2425,87.0117,27.1,97,0.1,994.5,6.85,23.4,96,28.2,27.1,12.6,360.0,74.0,9.6,10,5,7,1,2026-07-15T03:29:58.022715+05:30
Ranchi,Jharkhand,23.3441,85.3096,24.2,88,0.0,931.6,7.65,31.7,152,148.5,99.0,45.5,277.0,32.0,16.5,3,5,7,1,2026-07-15T03:29:58.022722+05:30
Jamshedpur,Jharkhand,22.8046,86.2029,26.3,95,0.1,984.4,7.15,24.8,163,163.9,141.6,87.5,966.0,7.0,55.3,10,5,7,1,2026-07-15T03:29:58.022729+05:30
Dhanbad,Jharkhand,23.7957,86.4304,25.5,100,0.1,973.5,8.3,23.4,178,238.0,207.2,75.7,755.0,13.0,276.3,10,5,7,1,2026-07-15T03:29:58.022735+05:30
Bokaro,Jharkhand,23.6693,86.1511,25.9,97,0.0,977.4,7.75,28.8,178,247.7,204.9,71.0,246.0,1.0,235.7,7,5,7,1,2026-07-15T03:29:58.022742+05:30
Bhubaneswar,Odisha,20.2961,85.8245,26.8,90,0.0,994.9,7.2,38.5,128,94.8,63.8,24.4,226.0,41.0,17.0,7,5,7,1,2026-07-15T03:29:58.022749+05:30
Cuttack,Odisha,20.4625,85.8828,26.4,89,0.1,996.6,7.55,37.1,128,94.8,63.8,24.4,217.0,41.0,17.0,10,5,7,1,2026-07-15T03:29:58.022755+05:30
Rourkela,Odisha,22.2604,84.8536,26.8,94,0.0,978.5,7.65,42.8,152,121.5,70.1,19.1,1000.0,66.0,9.5,7,5,7,1,2026-07-15T03:29:58.022762+05:30
Raipur,Chhattisgarh,21.2514,81.6296,27.3,79,0.1,969.3,8.35,34.2,139,82.9,52.9,31.3,583.0,38.0,52.9,10,5,7,1,2026-07-15T03:29:58.022769+05:30
Bhilai,Chhattisgarh,21.1938,81.3509,26.9,80,0.1,969.9,7.8,33.5,121,72.2,46.9,21.1,832.0,50.0,37.0,10,5,7,1,2026-07-15T03:29:58.022776+05:30
Guwahati,Assam,26.1158,91.7086,26.3,98,0.0,995.3,4.65,27.4,52,7.0,6.6,7.3,270.0,44.0,1.0,7,5,3,1,2026-07-15T03:29:58.022783+05:30
Agartala,Tripura,23.8315,91.2868,26.3,90,0.0,999.9,7.25,40.0,77,30.6,29.2,28.8,233.0,12.0,3.0,7,5,7,1,2026-07-15T03:29:58.022790+05:30
Shillong,Meghalaya,25.5788,91.8933,18.7,98,0.0,852.7,5.45,29.5,53,5.6,5.2,4.2,249.0,80.0,2.3,3,10,3,1,2026-07-15T03:29:58.022796+05:30
Imphal,Manipur,24.817,93.9368,23.1,97,0.2,919.5,9.1,29.2,54,21.8,20.1,11.8,219.0,24.0,2.2,6,5,7,1,2026-07-15T03:29:58.022803+05:30
Aizawl,Mizoram,23.7271,92.7176,19.5,100,0.0,887.1,8.35,36.0,45,7.9,7.0,8.4,158.0,18.0,0.6,3,10,7,1,2026-07-15T03:29:58.022810+05:30
Kohima,Nagaland,25.6701,94.1077,19.0,96,0.0,850.8,6.9,24.1,50,12.7,11.5,8.3,214.0,32.0,1.0,3,10,7,1,2026-07-15T03:29:58.022817+05:30
Gangtok,Sikkim,27.3314,88.6138,17.8,90,0.0,833.7,5.95,32.8,40,11.2,10.3,6.8,368.0,74.0,1.9,3,10,3,1,2026-07-15T03:29:58.022824+05:30
Siliguri,West Bengal,26.7271,88.3953,26.4,94,0.2,987.0,4.4,20.5,70,34.6,33.3,19.0,573.0,58.0,5.8,10,5,3,1,2026-07-15T03:30:05.758593+05:30
Durgapur,West Bengal,23.5204,87.3119,25.6,98,0.0,988.3,8.65,33.1,163,82.4,74.5,40.8,477.0,37.0,35.6,7,5,7,1,2026-07-15T03:30:05.758630+05:30
Asansol,West Bengal,23.6739,86.9524,25.8,98,0.1,987.2,8.25,21.6,159,109.2,95.2,57.1,729.0,22.0,47.6,10,5,7,1,2026-07-15T03:30:05.758643+05:30
Pondicherry,Puducherry,11.9139,79.8145,28.1,84,0.0,1005.8,7.4,46.1,78,17.7,12.1,7.1,152.0,64.0,5.8,7,5,4,1,2026-07-15T03:30:05.758652+05:30
Port Blair,Andaman and Nicobar Islands,11.6234,92.7265,24.1,96,0.4,1005.4,8.45,56.2,49,18.3,8.5,0.2,86.0,48.0,0.3,6,5,4,1,2026-07-15T03:30:05.758659+05:30
Haridwar,Uttarakhand,29.9457,78.1642,25.5,96,0.1,967.3,7.5,24.5,178,170.9,93.8,22.8,377.0,54.0,12.8,10,5,7,1,2026-07-15T03:30:05.758667+05:30
Rishikesh,Uttarakhand,30.0869,78.2676,24.6,96,0.0,960.3,7.6,24.5,166,190.0,85.4,10.0,416.0,104.0,11.3,3,5,7,1,2026-07-15T03:30:05.758675+05:30
Nainital,Uttarakhand,29.3919,79.4542,15.4,100,0.0,801.2,7.7,24.8,168,185.8,79.4,23.0,359.0,53.0,7.7,3,10,7,0,2026-07-15T03:30:05.758684+05:30
Mussoorie,Uttarakhand,30.4599,78.0664,16.3,100,0.0,799.0,7.75,32.8,161,123.4,62.2,26.0,332.0,70.0,9.1,3,10,7,1,2026-07-15T03:30:05.758691+05:30
Dharamshala,Himachal Pradesh,32.219,76.3234,21.8,82,0.0,865.0,8.25,33.1,73,7.1,4.4,11.3,325.0,37.0,0.2,3,5,7,1,2026-07-15T03:30:05.758698+05:30
Dalhousie,Himachal Pradesh,32.5387,75.971,15.4,93,0.1,799.8,8.4,30.2,156,88.7,56.9,53.4,307.0,14.0,3.4,6,10,7,0,2026-07-15T03:30:05.758706+05:30
Patiala,Punjab,30.3398,76.3869,28.0,87,0.0,971.2,7.6,24.5,194,255.2,164.4,73.9,1164.0,5.0,13.6,7,5,7,1,2026-07-15T03:30:05.758714+05:30
Bhatinda,Punjab,30.211,74.9455,31.1,62,0.0,977.1,8.25,24.5,177,178.3,104.8,51.5,547.0,22.0,7.7,3,5,7,1,2026-07-15T03:30:05.758721+05:30
Rohtak,Haryana,28.8955,76.6066,28.7,77,0.0,974.9,7.65,25.6,362,119.0,56.5,25.1,417.0,37.0,7.7,7,5,7,1,2026-07-15T03:30:05.758728+05:30
Panipat,Haryana,29.3909,76.9635,28.0,84,0.0,973.5,7.55,24.5,643,125.7,66.8,26.2,554.0,27.0,4.6,7,5,7,1,2026-07-15T03:30:05.758736+05:30
Mathura,Uttar Pradesh,27.4924,77.6737,25.4,88,0.1,980.5,7.85,35.3,286,129.5,48.5,13.9,174.0,60.0,2.9,10,5,7,1,2026-07-15T03:30:05.758743+05:30
Vrindavan,Uttar Pradesh,27.5823,77.7027,25.8,85,0.0,980.9,7.9,30.6,286,129.5,48.5,13.9,180.0,60.0,2.9,7,5,7,1,2026-07-15T03:30:05.758749+05:30
Ayodhya,Uttar Pradesh,26.7922,82.1998,24.0,96,0.4,989.0,8.35,33.5,179,136.0,77.5,16.7,711.0,72.0,6.9,6,5,7,1,2026-07-15T03:30:05.758756+05:30
Ratlam,Madhya Pradesh,23.3315,75.0367,24.2,94,0.1,951.3,8.45,36.4,69,29.3,16.7,9.9,149.0,32.0,10.6,6,5,7,1,2026-07-15T03:30:05.758763+05:30
Sagar,Madhya Pradesh,23.8388,78.7378,25.7,73,0.0,945.9,7.8,38.2,94,40.5,26.5,6.5,231.0,64.0,4.7,7,5,7,1,2026-07-15T03:30:05.758769+05:30
Satna,Madhya Pradesh,24.6005,80.8322,27.5,72,0.0,965.5,8.75,36.7,124,78.2,43.3,6.7,169.0,59.0,4.0,7,5,7,1,2026-07-15T03:30:05.758776+05:30
Akola,Maharashtra,20.7002,77.0082,26.4,74,0.0,972.5,7.2,42.5,68,31.2,18.5,8.4,151.0,37.0,7.9,7,5,7,1,2026-07-15T03:30:05.758783+05:30
Amravati,Maharashtra,20.9374,77.7796,26.0,70,0.0,964.5,8.0,44.3,70,32.0,18.9,9.0,134.0,42.0,9.2,7,5,7,1,2026-07-15T03:30:05.758791+05:30
Latur,Maharashtra,18.4088,76.5604,23.5,80,0.0,937.6,8.75,42.1,62,28.3,17.5,7.3,138.0,42.0,4.4,3,5,7,1,2026-07-15T03:30:05.758797+05:30
Nanded,Maharashtra,19.1383,77.3091,25.8,69,0.0,966.3,8.8,38.2,74,31.4,21.3,6.0,151.0,72.0,7.4,7,5,7,1,2026-07-15T03:30:05.758804+05:30
Gulbarga,Karnataka,17.3297,76.8343,25.4,71,0.0,956.9,8.8,45.0,62,22.1,14.9,6.5,124.0,42.0,3.2,7,5,7,1,2026-07-15T03:30:05.758810+05:30
Bidar,Karnataka,17.9104,77.5199,24.0,66,0.0,933.0,8.95,41.0,72,23.7,17.3,5.8,143.0,59.0,4.0,3,5,7,1,2026-07-15T03:30:05.758816+05:30
Hospet,Karnataka,15.2689,76.3909,22.5,91,0.0,955.0,8.75,42.5,56,13.3,9.0,4.8,117.0,39.0,2.0,3,5,7,1,2026-07-15T03:30:05.758822+05:30
Tirupur,Tamil Nadu,11.1085,77.3411,24.4,89,0.0,974.2,8.35,57.2,66,23.1,16.9,12.5,155.0,30.0,4.5,3,5,7,1,2026-07-15T03:30:05.758829+05:30
Alappuzha,Kerala,9.4981,76.3388,26.9,89,0.0,1009.6,8.35,43.2,60,27.0,15.1,5.3,87.0,43.0,2.9,7,0,4,1,2026-07-15T03:30:05.758835+05:30
Munnar,Kerala,10.0889,77.0595,16.9,97,0.0,856.6,9.05,36.7,53,9.7,7.2,6.0,102.0,27.0,2.4,3,10,7,1,2026-07-15T03:30:05.758841+05:30
Silchar,Assam,24.8333,92.7789,25.9,97,0.1,999.8,8.8,29.5,66,13.3,12.2,5.9,190.0,73.0,3.0,10,5,7,1,2026-07-15T03:30:05.758848+05:30
Dibrugarh,Assam,27.4728,94.912,26.0,99,0.2,990.3,7.5,28.1,69,12.5,12.3,11.8,220.0,32.0,0.9,10,5,7,1,2026-07-15T03:30:05.758854+05:30
