city,state,latitude,longitude,temp,humidity,rain,pressure,uv_index,wind_gusts,aqi,pm10,pm2_5,no2,co,o3,so2,mosquito_risk,arthritis_risk,migraine_risk,frizz_risk,updated_at
Delhi,Delhi,28.6139,77.209,36.5,42,0.0,978.2,6.85,27.7,493,322.2,80.1,9.7,264.0,147.0,17.8,0,5,10,1,2026-07-19T12:01:38.305793+05:30
Mumbai,Maharashtra,19.076,72.8777,25.9,92,0.4,1007.7,6.2,43.2,62,30.7,15.7,6.9,179.0,63.0,9.4,10,5,4,1,2026-07-19T12:01:38.305873+05:30
Bangalore,Karnataka,12.9716,77.5946,26.7,58,0.0,912.6,7.25,42.8,52,23.2,10.8,3.5,179.0,57.0,3.2,4,5,7,1,2026-07-19T12:01:38.305891+05:30
Hyderabad,Telangana,17.385,78.4867,30.5,54,0.0,952.1,7.75,40.3,41,10.0,6.0,1.8,167.0,70.0,2.7,0,5,7,1,2026-07-19T12:01:38.305903+05:30
Chennai,Tamil Nadu,13.0827,80.2707,33.0,54,0.0,1006.3,7.8,42.8,74,31.4,20.8,13.1,201.0,68.0,14.0,0,5,4,1,2026-07-19T12:01:38.305914+05:30
Kolkata,West Bengal,22.5726,88.3639,29.8,78,0.1,1001.9,7.25,33.8,59,16.2,10.9,1.7,234.0,104.0,4.7,10,5,4,1,2026-07-19T12:01:38.305924+05:30
Pune,Maharashtra,18.5204,73.8567,26.2,77,0.1,947.1,3.45,45.7,26,7.7,4.3,2.5,123.0,61.0,5.3,10,5,3,1,2026-07-19T12:01:38.305933+05:30
Ahmedabad,Gujarat,23.0225,72.5714,32.8,55,0.0,998.4,6.65,36.4,63,40.0,17.5,2.1,118.0,79.0,5.0,0,5,7,1,2026-07-19T12:01:38.305941+05:30
Jaipur,Rajasthan,26.9124,75.7873,35.4,43,0.0,956.6,8.05,36.0,152,377.2,62.6,1.8,140.0,95.0,3.5,0,5,10,1,2026-07-19T12:01:38.305949+05:30
Lucknow,Uttar Pradesh,26.8467,80.9462,28.4,92,0.1,989.9,6.45,18.4,154,58.4,29.6,4.3,321.0,138.0,7.8,10,5,7,1,2026-07-19T12:01:38.305964+05:30
Kanpur,Uttar Pradesh,26.4499,80.3319,31.6,71,0.1,987.9,6.5,16.6,158,130.9,52.9,3.7,199.0,147.0,9.3,6,5,7,1,2026-07-19T12:01:38.305973+05:30
Chandigarh,Chandigarh,30.7333,76.7794,32.7,68,0.0,964.1,5.65,20.9,164,264.5,85.0,2.9,323.0,147.0,10.0,3,5,3,1,2026-07-19T12:01:38.305981+05:30
Srinagar,Jammu and Kashmir,34.0837,74.7973,30.7,53,0.0,840.1,9.0,32.8,87,22.1,15.2,1.3,356.0,147.0,3.8,0,5,7,1,2026-07-19T12:01:38.305990+05:30
Jammu,Jammu and Kashmir,32.7266,74.857,31.6,71,0.0,967.3,7.85,28.4,155,152.3,69.6,2.2,248.0,145.0,7.5,3,5,7,1,2026-07-19T12:01:38.305997+05:30
Amritsar,Punjab,31.634,74.8723,32.6,71,0.0,974.8,7.8,34.2,167,305.5,111.3,3.6,459.0,173.0,10.3,3,5,7,1,2026-07-19T12:01:38.306006+05:30
Ludhiana,Punjab,30.901,75.8573,34.8,59,0.0,973.1,7.1,28.1,177,354.8,110.1,5.1,407.0,156.0,9.1,0,5,7,1,2026-07-19T12:01:38.306014+05:30
Jalandhar,Punjab,31.326,75.5762,32.5,72,0.0,974.3,2.8,27.4,173,344.6,111.3,4.5,377.0,154.0,10.2,3,5,3,1,2026-07-19T12:01:38.306021+05:30
Dehradun,Uttarakhand,30.6284,78.0322,20.7,96,0.3,829.3,5.2,25.2,71,72.2,24.9,1.7,213.0,118.0,4.6,6,5,3,1,2026-07-19T12:01:38.306029+05:30
Shimla,Himachal Pradesh,31.1048,77.1734,22.3,57,0.0,785.7,5.75,39.6,93,62.4,24.9,1.6,151.0,111.0,4.3,0,5,3,0,2026-07-19T12:01:38.306037+05:30
Manali,Himachal Pradesh,32.2396,77.1887,23.8,88,0.1,818.7,5.05,33.1,51,8.1,5.2,1.1,214.0,120.0,0.6,6,5,3,1,2026-07-19T12:01:38.306051+05:30
Gurgaon,Haryana,28.4595,77.0266,36.2,42,0.0,976.9,7.0,26.6,424,383.7,80.6,12.4,199.0,112.0,13.5,0,5,10,1,2026-07-19T12:01:38.306059+05:30
Noida,Uttar Pradesh,28.5355,77.391,34.8,52,0.0,979.7,5.3,21.6,424,383.7,80.6,12.4,356.0,112.0,13.5,0,5,3,1,2026-07-19T12:01:38.306066+05:30
Ghaziabad,Uttar Pradesh,28.6692,77.4538,35.2,48,0.0,978.0,6.6,27.4,387,314.8,106.6,10.8,390.0,163.0,22.7,0,5,10,1,2026-07-19T12:01:38.306073+05:30
Faridabad,Haryana,28.4089,77.3178,35.0,49,0.0,979.0,6.05,22.0,424,383.7,80.6,12.4,263.0,112.0,13.5,0,5,7,1,2026-07-19T12:01:38.306080+05:30
Meerut,Uttar Pradesh,28.9845,77.7064,33.5,63,0.0,976.9,6.8,25.2,387,314.8,106.6,10.8,365.0,163.0,22.7,3,5,7,1,2026-07-19T12:01:38.306087+05:30
Agra,Uttar Pradesh,27.1767,78.0081,34.0,57,0.0,983.6,4.2,28.1,201,88.5,44.4,12.5,192.0,87.0,8.0,0,5,3,1,2026-07-19T12:01:38.306094+05:30
Varanasi,Uttar Pradesh,25.3176,82.9739,29.8,83,0.0,993.4,7.2,31.0,127,15.3,13.9,4.7,346.0,128.0,8.2,7,5,7,1,2026-07-19T12:01:38.306102+05:30
Prayagraj,Uttar Pradesh,25.4358,81.8463,30.0,84,0.0,992.0,7.4,26.6,144,31.5,21.9,4.1,232.0,142.0,7.8,7,5,7,1,2026-07-19T12:01:38.306110+05:30
Gorakhpur,Uttar Pradesh,26.7606,83.3732,27.4,95,0.3,993.3,7.35,22.3,74,8.0,7.9,5.4,398.0,107.0,8.0,10,5,7,1,2026-07-19T12:01:38.306117+05:30
Bareilly,Uttar Pradesh,28.367,79.4304,27.4,95,0.7,983.1,5.6,23.4,163,84.5,47.8,13.3,281.0,85.0,9.3,10,5,3,1,2026-07-19T12:01:38.306127+05:30
Aligarh,Uttar Pradesh,27.8974,78.088,33.8,57,0.0,981.3,5.45,28.4,292,167.6,82.0,11.6,470.0,110.0,14.1,0,5,3,1,2026-07-19T12:01:38.306136+05:30
Moradabad,Uttar Pradesh,28.8386,78.7733,28.6,85,0.1,979.8,5.35,30.2,169,110.4,52.6,7.8,340.0,118.0,10.8,10,5,3,1,2026-07-19T12:01:38.306143+05:30
Saharanpur,Uttar Pradesh,29.9637,77.546,31.6,74,0.0,971.1,6.9,29.5,181,163.0,73.3,3.7,308.0,159.0,13.1,3,5,7,1,2026-07-19T12:01:38.306150+05:30
Jhansi,Uttar Pradesh,25.4484,78.5685,34.1,57,0.0,974.2,6.9,32.8,87,44.4,24.6,2.0,165.0,112.0,6.8,0,5,7,1,2026-07-19T12:01:41.599112+05:30
Surat,Gujarat,21.1702,72.8311,30.3,72,0.0,1004.0,7.65,44.3,71,34.7,21.9,19.9,321.0,35.0,47.3,3,5,4,1,2026-07-19T12:01:41.599151+05:30
Vadodara,Gujarat,22.3072,73.1812,31.7,62,0.1,1001.1,6.1,39.2,63,44.0,19.2,2.0,124.0,77.0,4.0,6,5,4,1,2026-07-19T12:01:41.599162+05:30
Rajkot,Gujarat,22.3039,70.8022,32.7,54,0.0,990.2,6.15,44.6,60,38.2,15.1,1.3,100.0,66.0,3.9,0,5,7,1,2026-07-19T12:01:41.599170+05:30
Thane,Maharashtra,19.2183,72.9781,26.3,93,0.2,1006.9,5.85,36.4,62,30.7,15.7,6.9,201.0,63.0,9.4,10,5,0,1,2026-07-19T12:01:41.599179+05:30
Nagpur,Maharashtra,21.1458,79.0882,31.9,63,0.0,970.7,4.15,32.8,60,16.9,11.4,7.1,160.0,92.0,24.5,3,5,3,1,2026-07-19T12:01:41.599186+05:30
Nashik,Maharashtra,19.9975,73.7898,25.9,80,0.0,943.6,5.1,43.2,26,11.4,5.6,4.0,120.0,48.0,5.2,7,5,3,1,2026-07-19T12:01:41.599194+05:30
Aurangabad,Maharashtra,19.8762,75.3433,26.2,78,0.0,942.8,6.7,40.7,38,9.1,5.4,2.0,115.0,67.0,6.9,7,5,7,1,2026-07-19T12:01:41.599201+05:30
Solapur,Maharashtra,17.6599,75.9064,29.7,61,0.0,956.6,6.0,47.5,33,3.0,2.3,1.4,109.0,61.0,1.9,7,5,3,1,2026-07-19T12:01:41.599209+05:30
Kolhapur,Maharashtra,16.705,74.2433,26.5,71,0.0,948.0,5.9,47.9,28,10.9,5.6,1.4,112.0,54.0,1.8,7,5,3,1,2026-07-19T12:01:41.599217+05:30
Goa,Goa,15.2993,74.124,27.7,83,0.0,999.2,2.55,31.3,64,25.7,12.3,1.0,129.0,51.0,1.3,7,5,3,1,2026-07-19T12:01:41.599224+05:30
Jodhpur,Rajasthan,26.2389,73.0243,34.8,45,0.0,978.7,7.8,43.2,113,143.9,35.9,0.8,104.0,73.0,2.1,0,5,7,1,2026-07-19T12:01:41.599231+05:30
Udaipur,Rajasthan,24.5854,73.7125,30.4,56,0.0,943.3,6.25,32.4,64,35.9,15.3,1.1,102.0,67.0,2.7,0,5,7,1,2026-07-19T12:01:41.599239+05:30
Kota,Rajasthan,25.2138,75.8648,32.8,56,0.0,975.4,7.8,28.1,80,41.8,23.0,2.2,141.0,101.0,8.9,0,5,7,1,2026-07-19T12:01:41.599245+05:30
Bikaner,Rajasthan,28.0229,73.3119,36.9,38,0.0,976.7,8.25,41.0,125,183.9,53.9,0.5,101.0,73.0,3.0,0,5,10,1,2026-07-19T12:01:41.599252+05:30
Ajmer,Rajasthan,26.4499,74.6399,32.6,52,0.0,951.6,7.8,40.0,77,70.1,26.5,1.0,114.0,84.0,2.9,0,5,7,1,2026-07-19T12:01:41.599259+05:30
Gwalior,Madhya Pradesh,26.2183,78.1828,35.7,48,0.0,979.2,6.75,33.8,108,40.0,23.7,1.6,152.0,113.0,3.4,0,5,10,1,2026-07-19T12:01:41.599267+05:30
Indore,Madhya Pradesh,22.7196,75.8577,31.9,56,0.0,945.9,8.5,32.4,68,22.2,12.5,2.1,165.0,85.0,5.3,0,5,7,1,2026-07-19T12:01:41.599273+05:30
Bhopal,Madhya Pradesh,23.2599,77.4126,32.2,56,0.0,951.1,7.9,30.2,79,24.4,15.3,2.3,178.0,94.0,5.9,0,5,7,1,2026-07-19T12:01:41.599280+05:30
Jabalpur,Madhya Pradesh,23.1815,79.9864,30.4,72,0.0,958.6,8.1,27.0,84,36.9,21.2,1.8,204.0,99.0,3.7,3,5,7,1,2026-07-19T12:01:41.599287+05:30
Ujjain,Madhya Pradesh,23.1765,75.7885,30.9,64,0.0,951.3,7.6,39.2,69,24.9,14.8,1.4,150.0,90.0,6.4,3,5,7,1,2026-07-19T12:01:41.599294+05:30
Visakhapatnam,Andhra Pradesh,17.6868,83.2185,32.2,67,0.1,999.5,8.4,33.5,93,44.2,32.5,9.9,305.0,155.0,41.6,6,5,7,1,2026-07-19T12:01:41.599302+05:30
Vijayawada,Andhra Pradesh,16.5062,80.648,33.7,55,0.0,1000.1,8.35,38.9,64,10.2,7.6,1.6,141.0,96.0,5.2,0,5,4,1,2026-07-19T12:01:41.599309+05:30
Guntur,Andhra Pradesh,16.3067,80.4365,34.6,47,0.0,1001.4,7.8,42.8,60,9.1,6.3,1.3,132.0,89.0,3.9,0,5,4,1,2026-07-19T12:01:41.599315+05:30
Nellore,Andhra Pradesh,14.4426,79.9865,33.3,52,0.0,1004.5,7.55,33.5,55,15.3,8.9,2.6,111.0,73.0,5.7,0,5,4,1,2026-07-19T12:01:41.599323+05:30
Kurnool,Andhra Pradesh,15.8281,78.0373,32.5,54,0.0,976.2,8.25,59.4,48,10.7,6.0,1.5,114.0,76.0,5.3,0,5,7,1,2026-07-19T12:01:41.599331+05:30
Kakinada,Andhra Pradesh,16.9891,82.2475,34.1,54,0.0,1004.0,8.9,48.2,64,19.4,13.5,1.8,148.0,122.0,5.2,0,5,4,1,2026-07-19T12:01:41.599339+05:30
Tirupati,Andhra Pradesh,13.6288,79.4192,32.9,50,0.0,990.1,8.15,30.2,61,19.0,8.9,1.4,106.0,64.0,1.4,0,5,7,1,2026-07-19T12:01:41.599347+05:30
Warangal,Telangana,17.9689,79.5941,31.4,60,0.0,976.7,8.15,39.2,57,9.1,5.8,1.4,132.0,76.0,2.3,0,5,7,1,2026-07-19T12:01:41.599353+05:30
Nizamabad,Telangana,18.6725,78.0941,30.6,61,0.0,963.5,2.9,38.5,59,15.5,8.2,1.4,126.0,75.0,4.4,3,5,3,1,2026-07-19T12:01:41.599360+05:30
Mysore,Karnataka,12.2958,76.6396,28.0,59,0.1,929.6,6.8,44.6,41,13.6,6.4,1.5,110.0,63.0,1.8,7,5,7,1,2026-07-19T12:01:41.599367+05:30
Mangalore,Karnataka,12.9141,74.856,27.2,79,0.0,1009.2,8.65,34.9,56,15.8,7.8,1.6,104.0,51.0,2.1,7,0,4,1,2026-07-19T12:01:41.599373+05:30
Hubli-Dharwad,Karnataka,15.3647,75.124,28.5,65,0.0,941.6,6.1,52.6,22,12.1,6.2,1.3,104.0,50.0,1.2,7,5,7,1,2026-07-19T12:01:41.599380+05:30
Belgaum,Karnataka,15.8497,74.4977,25.8,71,0.0,926.2,5.9,50.0,19,7.3,3.8,1.2,98.0,50.0,1.5,7,5,3,1,2026-07-19T12:01:44.884810+05:30
Coimbatore,Tamil Nadu,11.0168,76.9558,30.0,57,0.1,962.2,8.1,47.2,49,18.5,8.9,1.4,126.0,68.0,2.4,7,5,7,1,2026-07-19T12:01:44.884866+05:30
Madurai,Tamil Nadu,9.9252,78.1198,36.0,38,0.0,992.9,7.8,41.8,70,24.4,13.0,2.0,149.0,96.0,3.1,0,5,10,1,2026-07-19T12:01:44.884878+05:30
Trichy,Tamil Nadu,10.7905,78.7047,35.1,41,0.0,999.4,8.45,42.8,53,18.3,8.8,1.5,111.0,67.0,2.4,0,5,10,1,2026-07-19T12:01:44.884887+05:30
Salem,Tamil Nadu,11.6643,78.146,31.8,54,0.0,977.7,6.35,42.1,65,27.4,14.5,2.8,163.0,91.0,7.4,0,5,7,1,2026-07-19T12:01:44.884895+05:30
Tirunelveli,Tamil Nadu,8.7139,77.7567,37.7,33,0.0,1002.9,8.6,46.8,46,13.3,7.3,1.0,103.0,70.0,1.4,0,5,7,1,2026-07-19T12:01:44.884903+05:30
Vellore,Tamil Nadu,12.9165,79.1325,34.2,44,0.0,983.7,7.4,37.4,66,21.8,11.1,2.1,126.0,77.0,3.1,0,5,7,1,2026-07-19T12:01:44.884911+05:30
Erode,Tamil Nadu,11.341,77.7172,34.8,40,0.0,989.0,7.45,50.4,55,23.2,11.9,2.0,145.0,80.0,2.7,0,5,7,1,2026-07-19T12:01:44.884919+05:30
Kochi,Kerala,9.9312,76.2673,28.1,80,0.0,1011.0,8.45,38.5,57,11.0,7.0,2.9,105.0,55.0,3.3,7,0,4,1,2026-07-19T12:01:44.884927+05:30
Thiruvananthapuram,Kerala,8.5241,76.9366,28.1,77,0.1,1010.2,7.55,41.8,52,17.4,11.0,2.3,109.0,73.0,2.3,10,0,4,1,2026-07-19T12:01:44.884934+05:30
Kozhikode,Kerala,11.2588,75.7804,28.4,78,0.0,1009.9,8.35,38.9,49,10.9,5.5,0.6,116.0,55.0,1.2,7,0,4,1,2026-07-19T12:01:44.884941+05:30
Thrissur,Kerala,10.5276,76.2144,28.8,76,0.1,1009.1,8.2,37.1,54,8.2,5.4,1.5,104.0,53.0,1.9,10,0,4,1,2026-07-19T12:01:44.884948+05:30
Kannur,Kerala,11.8745,75.3704,27.8,79,0.1,1009.6,8.0,35.3,53,14.6,6.9,1.1,103.0,53.0,1.4,10,0,4,1,2026-07-19T12:01:44.884956+05:30
Patna,Bihar,25.5941,85.1376,29.1,89,0.1,996.2,7.35,24.1,94,34.5,33.5,4.2,373.0,156.0,23.1,10,5,7,1,2026-07-19T12:01:44.884963+05:30
Gaya,Bihar,24.7914,85.0002,31.8,74,0.0,989.3,8.3,18.7,98,26.3,24.9,2.9,303.0,154.0,14.3,3,5,7,1,2026-07-19T12:01:44.884970+05:30
Muzaffarpur,Bihar,26.1209,85.3647,27.3,94,0.2,996.8,7.0,31.0,82,27.2,26.5,4.2,340.0,152.0,20.8,10,5,7,1,2026-07-19T12:01:44.884978+05:30
Bhagalpur,Bihar,25.2425,87.0117,30.9,80,0.0,997.4,7.55,24.1,76,27.9,25.4,5.3,246.0,136.0,17.1,3,5,7,1,2026-07-19T12:01:44.884984+05:30
Ranchi,Jharkhand,23.3441,85.3096,27.3,79,0.1,934.2,8.45,26.3,78,17.3,15.3,1.7,242.0,124.0,8.0,10,5,7,1,2026-07-19T12:01:44.884991+05:30
Jamshedpur,Jharkhand,22.8046,86.2029,31.2,73,0.0,986.3,8.2,29.5,113,26.4,24.3,3.9,311.0,149.0,21.1,3,5,7,1,2026-07-19T12:01:44.884998+05:30
Dhanbad,Jharkhand,23.7957,86.4304,30.6,77,0.0,975.5,8.4,32.0,153,41.7,39.8,21.7,1103.0,127.0,65.6,3,5,7,1,2026-07-19T12:01:44.885006+05:30
Bokaro,Jharkhand,23.6693,86.1511,31.7,71,0.0,979.1,8.3,35.6,155,36.2,35.2,18.2,252.0,144.0,61.8,3,5,7,1,2026-07-19T12:01:44.885013+05:30
Bhubaneswar,Odisha,20.2961,85.8245,31.7,73,0.0,998.4,8.3,35.6,77,18.3,12.4,1.7,219.0,119.0,3.9,3,5,7,1,2026-07-19T12:01:44.885020+05:30
Cuttack,Odisha,20.4625,85.8828,31.5,74,0.0,1000.1,8.65,33.1,77,18.3,12.4,1.7,210.0,119.0,3.9,3,5,4,1,2026-07-19T12:01:44.885027+05:30
Rourkela,Odisha,22.2604,84.8536,29.8,80,0.0,981.0,7.2,30.6,83,33.3,23.5,4.2,230.0,125.0,21.5,7,5,7,1,2026-07-19T12:01:44.885034+05:30
Raipur,Chhattisgarh,21.2514,81.6296,30.7,69,0.0,971.2,7.65,29.5,86,29.7,19.2,13.5,159.0,88.0,30.9,3,5,7,1,2026-07-19T12:01:44.885041+05:30
Bhilai,Chhattisgarh,21.1938,81.3509,29.4,74,0.1,971.7,4.9,29.2,81,29.0,18.7,12.0,532.0,88.0,28.3,10,5,3,1,2026-07-19T12:01:44.885047+05:30
Guwahati,Assam,26.1158,91.7086,27.7,90,0.1,998.7,2.3,22.3,60,12.9,11.9,2.4,202.0,88.0,2.5,10,5,3,1,2026-07-19T12:01:44.885054+05:30
Agartala,Tripura,23.8315,91.2868,29.9,76,0.0,1003.9,7.35,41.8,60,13.0,9.9,3.4,134.0,76.0,1.5,7,5,4,1,2026-07-19T12:01:44.885061+05:30
Shillong,Meghalaya,25.5788,91.8933,21.7,90,0.2,856.4,1.95,31.3,24,3.3,3.2,3.5,137.0,65.0,1.7,6,5,3,1,2026-07-19T12:01:44.885067+05:30
Imphal,Manipur,24.817,93.9368,26.0,76,0.0,921.8,0.9,29.9,57,4.8,3.5,1.9,130.0,58.0,1.0,7,5,3,1,2026-07-19T12:01:44.885074+05:30
Aizawl,Mizoram,23.7271,92.7176,23.3,71,0.0,892.3,4.6,37.8,37,13.2,7.5,0.7,113.0,60.0,0.6,3,5,3,1,2026-07-19T12:01:44.885082+05:30
Kohima,Nagaland,25.6701,94.1077,21.0,95,0.1,854.4,1.9,18.0,38,2.7,2.3,2.0,157.0,58.0,0.7,6,5,3,1,2026-07-19T12:01:44.885089+05:30
Gangtok,Sikkim,27.3314,88.6138,20.1,98,0.5,837.8,3.65,27.7,41,1.1,1.1,2.8,242.0,84.0,0.4,6,5,3,1,2026-07-19T12:01:44.885095+05:30
Siliguri,West Bengal,26.7271,88.3953,26.1,97,0.5,990.8,1.7,23.4,55,8.5,8.2,6.6,333.0,63.0,1.2,10,5,3,1,2026-07-19T12:01:48.467933+05:30
Durgapur,West Bengal,23.5204,87.3119,32.0,71,0.0,990.6,7.3,31.0,106,36.2,33.8,12.4,611.0,136.0,38.5,3,5,7,1,2026-07-19T12:01:48.467972+05:30
Asansol,West Bengal,23.6739,86.9524,30.1,78,0.1,989.2,6.9,28.4,116,38.5,36.1,12.1,349.0,134.0,38.3,6,5,7,1,2026-07-19T12:01:48.467985+05:30
Pondicherry,Puducherry,11.9139,79.8145,33.9,49,0.0,1007.6,7.7,52.6,75,34.1,22.1,9.9,185.0,77.0,17.5,0,5,4,1,2026-07-19T12:01:48.467994+05:30
Port Blair,Andaman and Nicobar Islands,11.6234,92.7265,31.2,62,0.0,1007.6,8.75,41.4,52,24.9,12.8,0.1,95.0,53.0,0.5,3,5,4,1,2026-07-19T12:01:48.468003+05:30
Haridwar,Uttarakhand,29.9457,78.1642,29.8,82,0.1,970.0,7.1,28.8,165,176.5,66.6,3.2,252.0,139.0,16.6,10,5,7,1,2026-07-19T12:01:48.468012+05:30
Rishikesh,Uttarakhand,30.0869,78.2676,28.6,88,0.0,963.0,6.55,24.8,157,252.4,74.3,2.4,249.0,132.0,16.1,7,5,7,1,2026-07-19T12:01:48.468020+05:30
Nainital,Uttarakhand,29.3919,79.4542,18.8,94,0.3,804.6,3.65,25.6,106,68.5,22.9,7.0,218.0,92.0,7.3,6,10,3,1,2026-07-19T12:01:48.468029+05:30
Mussoorie,Uttarakhand,30.4599,78.0664,19.8,93,0.2,802.2,4.65,30.2,144,246.8,74.0,3.0,215.0,126.0,11.8,6,10,3,1,2026-07-19T12:01:48.468037+05:30
Dharamshala,Himachal Pradesh,32.219,76.3234,23.0,92,0.0,866.6,8.25,23.4,53,37.7,15.7,0.9,244.0,121.0,2.4,3,5,7,1,2026-07-19T12:01:48.468045+05:30
Dalhousie,Himachal Pradesh,32.5387,75.971,20.7,90,0.0,803.9,6.7,24.1,93,94.3,36.7,2.0,245.0,128.0,4.0,3,5,7,1,2026-07-19T12:01:48.468053+05:30
Patiala,Punjab,30.3398,76.3869,33.2,70,0.0,973.1,6.45,24.5,287,354.8,113.6,5.0,381.0,159.0,9.3,3,5,7,1,2026-07-19T12:01:48.468061+05:30
Bhatinda,Punjab,30.211,74.9455,38.2,38,0.0,978.0,7.1,27.4,181,377.2,103.6,2.9,142.0,124.0,6.9,0,5,10,1,2026-07-19T12:01:48.468069+05:30
Rohtak,Haryana,28.8955,76.6066,35.8,47,0.0,976.8,6.5,24.5,722,860.5,121.1,2.6,163.0,112.0,4.0,0,5,10,1,2026-07-19T12:01:48.468077+05:30
Panipat,Haryana,29.3909,76.9635,34.8,52,0.0,975.4,6.8,26.6,1075,769.3,123.9,4.9,189.0,113.0,13.5,0,5,7,1,2026-07-19T12:01:48.468083+05:30
Mathura,Uttar Pradesh,27.4924,77.6737,34.9,52,0.0,982.5,6.05,29.5,412,136.4,52.7,19.5,190.0,65.0,6.3,0,5,7,1,2026-07-19T12:01:48.468091+05:30
Vrindavan,Uttar Pradesh,27.5823,77.7027,34.6,53,0.0,983.0,6.45,29.5,412,136.4,52.7,19.5,202.0,65.0,6.3,0,5,7,1,2026-07-19T12:01:48.468098+05:30
Ayodhya,Uttar Pradesh,26.7922,82.1998,28.3,90,0.3,991.6,7.4,16.9,81,14.8,14.8,7.3,362.0,97.0,5.6,10,5,7,1,2026-07-19T12:01:48.468105+05:30
Ratlam,Madhya Pradesh,23.3315,75.0367,30.2,67,0.0,952.0,7.3,33.1,66,25.8,14.9,1.4,121.0,88.0,6.0,3,5,7,1,2026-07-19T12:01:48.468113+05:30
Sagar,Madhya Pradesh,23.8388,78.7378,30.4,69,0.0,947.6,7.95,32.8,82,40.7,23.9,2.1,180.0,102.0,4.8,3,5,7,1,2026-07-19T12:01:48.468119+05:30
Satna,Madhya Pradesh,24.6005,80.8322,31.1,70,0.0,968.0,6.85,28.1,100,71.0,32.7,2.0,146.0,106.0,5.1,3,5,7,1,2026-07-19T12:01:48.468126+05:30
Akola,Maharashtra,20.7002,77.0082,31.6,58,0.1,973.3,6.55,40.0,56,17.6,9.2,2.3,114.0,69.0,7.1,3,5,7,1,2026-07-19T12:01:48.468134+05:30
Amravati,Maharashtra,20.9374,77.7796,30.7,63,0.0,965.3,7.25,37.8,57,14.8,8.3,3.1,121.0,65.0,8.4,3,5,7,1,2026-07-19T12:01:48.468142+05:30
Latur,Maharashtra,18.4088,76.5604,29.8,59,0.0,938.9,7.9,41.0,40,9.3,4.7,1.1,111.0,62.0,2.1,4,5,7,1,2026-07-19T12:01:48.468150+05:30
Nanded,Maharashtra,19.1383,77.3091,31.3,59,0.0,967.2,7.85,38.9,55,17.3,8.6,1.3,124.0,73.0,3.5,0,5,7,1,2026-07-19T12:01:48.468157+05:30
Gulbarga,Karnataka,17.3297,76.8343,29.6,63,0.0,958.2,8.15,57.2,33,5.0,3.1,1.2,112.0,69.0,2.2,7,5,7,1,2026-07-19T12:01:48.468163+05:30
Bidar,Karnataka,17.9104,77.5199,29.6,59,0.0,934.8,3.8,38.5,46,12.5,6.9,1.6,121.0,68.0,2.5,4,5,3,1,2026-07-19T12:01:48.468170+05:30
Hospet,Karnataka,15.2689,76.3909,30.4,54,0.0,956.2,7.25,54.4,31,17.0,7.5,2.1,107.0,52.0,2.2,0,5,7,1,2026-07-19T12:01:48.468177+05:30
Tirupur,Tamil Nadu,11.1085,77.3411,33.2,42,0.0,975.7,8.1,50.0,58,23.4,12.4,2.1,128.0,82.0,3.4,0,5,7,1,2026-07-19T12:01:48.468184+05:30
Alappuzha,Kerala,9.4981,76.3388,28.5,78,0.0,1010.9,8.15,42.8,53,16.5,9.7,2.1,88.0,69.0,3.5,7,0,4,1,2026-07-19T12:01:48.468191+05:30
Munnar,Kerala,10.0889,77.0595,21.5,72,0.1,859.2,7.25,35.6,33,12.0,5.3,0.7,92.0,57.0,1.1,6,5,7,1,2026-07-19T12:01:48.468198+05:30
Silchar,Assam,24.8333,92.7789,27.3,90,0.3,1003.2,2.3,29.9,62,16.5,12.5,3.9,169.0,68.0,3.3,10,5,0,1,2026-07-19T12:01:48.468205+05:30
Dibrugarh,Assam,27.4728,94.912,28.6,84,0.1,991.6,1.6,34.2,57,12.4,11.4,3.6,170.0,76.0,1.5,10,5,3,1,2026-07-19T12:01:48.468212+05:30
