city,state,latitude,longitude,temp,humidity,rain,pressure,uv_index,wind_gusts,aqi,pm10,pm2_5,no2,co,o3,so2,mosquito_risk,arthritis_risk,migraine_risk,frizz_risk,updated_at
Delhi,Delhi,28.6139,77.209,31.2,44,0.0,978.3,7.7,43.9,514,353.0,103.4,29.8,176.0,26.0,11.2,0,5,7,1,2026-06-22T04:46:44.183592+05:30
Mumbai,Maharashtra,19.076,72.8777,26.5,92,0.0,1006.1,7.7,42.8,43,6.8,4.9,8.3,128.0,36.0,6.6,7,5,4,1,2026-06-22T04:46:44.183640+05:30
Bangalore,Karnataka,12.9716,77.5946,20.7,98,0.0,910.8,8.9,47.9,39,10.9,10.0,13.6,165.0,25.0,7.4,3,5,7,1,2026-06-22T04:46:44.183656+05:30
Hyderabad,Telangana,17.385,78.4867,26.5,70,0.0,951.4,8.2,41.8,63,14.0,12.5,14.7,150.0,46.0,14.9,7,5,7,1,2026-06-22T04:46:44.183666+05:30
Chennai,Tamil Nadu,13.0827,80.2707,27.4,87,0.0,1006.0,8.7,36.7,73,22.6,17.9,13.2,232.0,56.0,14.2,7,5,4,1,2026-06-22T04:46:44.183675+05:30
Kolkata,West Bengal,22.5726,88.3639,26.3,94,0.0,1002.5,8.5,30.2,111,72.6,68.5,18.5,389.0,74.0,8.6,7,5,4,1,2026-06-22T04:46:44.183683+05:30
Pune,Maharashtra,18.5204,73.8567,24.3,86,0.0,946.0,8.2,42.5,39,11.2,9.2,14.0,110.0,30.0,11.4,3,5,7,1,2026-06-22T04:46:44.183690+05:30
Ahmedabad,Gujarat,23.0225,72.5714,30.0,68,0.0,998.7,8.0,41.0,72,50.6,23.1,5.6,117.0,41.0,4.0,7,5,7,1,2026-06-22T04:46:44.183696+05:30
Jaipur,Rajasthan,26.9124,75.7873,27.6,66,0.0,955.4,8.2,59.4,117,112.9,37.5,12.6,147.0,32.0,4.6,7,5,7,1,2026-06-22T04:46:44.183702+05:30
Lucknow,Uttar Pradesh,26.8467,80.9462,31.1,49,0.0,988.1,7.85,37.8,213,291.5,96.4,19.1,173.0,56.0,9.3,0,5,7,1,2026-06-22T04:46:44.183712+05:30
Kanpur,Uttar Pradesh,26.4499,80.3319,31.6,46,0.0,986.6,8.3,38.5,316,306.4,84.3,21.9,143.0,37.0,6.8,0,5,7,1,2026-06-22T04:46:44.183719+05:30
Chandigarh,Chandigarh,30.7333,76.7794,25.4,69,0.0,963.6,7.3,37.4,97,54.7,43.4,39.3,353.0,6.0,5.3,7,5,7,1,2026-06-22T04:46:44.183727+05:30
Srinagar,Jammu and Kashmir,34.0837,74.7973,15.1,94,0.1,839.6,9.0,28.1,70,27.1,25.4,17.4,344.0,14.0,0.4,6,10,7,0,2026-06-22T04:46:44.183735+05:30
Jammu,Jammu and Kashmir,32.7266,74.857,27.2,57,0.0,967.7,8.6,51.8,68,29.2,28.1,39.4,314.0,0.0,1.9,4,5,7,1,2026-06-22T04:46:44.183743+05:30
Amritsar,Punjab,31.634,74.8723,25.8,82,0.0,975.3,8.1,38.9,125,80.1,61.5,45.8,673.0,26.0,9.1,7,5,7,1,2026-06-22T04:46:44.183750+05:30
Ludhiana,Punjab,30.901,75.8573,28.2,62,0.0,973.4,7.25,47.9,133,87.3,58.0,32.3,550.0,33.0,7.4,7,5,7,1,2026-06-22T04:46:44.183755+05:30
Jalandhar,Punjab,31.326,75.5762,27.6,64,0.0,974.4,7.05,34.2,137,87.8,69.2,53.3,697.0,10.0,8.6,7,5,7,1,2026-06-22T04:46:44.183776+05:30
Dehradun,Uttarakhand,30.6284,78.0322,15.5,92,0.0,826.5,7.35,37.1,61,21.5,16.5,22.4,252.0,4.0,0.1,3,10,7,0,2026-06-22T04:46:44.183783+05:30
Shimla,Himachal Pradesh,31.1048,77.1734,13.7,66,0.0,780.7,6.2,37.4,77,36.2,29.7,19.9,227.0,33.0,1.0,3,5,7,0,2026-06-22T04:46:44.183789+05:30
Manali,Himachal Pradesh,32.2396,77.1887,13.1,63,0.0,814.9,7.35,36.4,43,4.8,2.9,6.7,138.0,128.0,0.0,3,5,7,0,2026-06-22T04:46:44.183797+05:30
Gurgaon,Haryana,28.4595,77.0266,29.4,48,0.0,976.7,7.85,49.3,1251,411.6,117.6,23.5,165.0,33.0,9.6,4,5,7,1,2026-06-22T04:46:44.183803+05:30
Noida,Uttar Pradesh,28.5355,77.391,30.3,49,0.0,979.4,7.8,35.6,1251,411.6,117.6,23.5,172.0,33.0,9.6,0,5,7,1,2026-06-22T04:46:44.183808+05:30
Ghaziabad,Uttar Pradesh,28.6692,77.4538,30.6,48,0.0,977.7,7.8,43.9,419,434.9,128.1,35.6,238.0,22.0,14.5,0,5,7,1,2026-06-22T04:46:44.183814+05:30
Faridabad,Haryana,28.4089,77.3178,31.0,43,0.0,978.8,7.85,38.5,1251,411.6,117.6,23.5,168.0,33.0,9.6,0,5,7,1,2026-06-22T04:46:44.183820+05:30
Meerut,Uttar Pradesh,28.9845,77.7064,29.1,55,0.0,976.5,7.7,42.5,419,434.9,128.1,35.6,275.0,22.0,14.5,4,5,7,1,2026-06-22T04:46:44.183826+05:30
Agra,Uttar Pradesh,27.1767,78.0081,29.9,55,0.0,982.7,7.2,63.0,569,422.8,61.5,25.9,142.0,25.0,5.3,4,5,7,1,2026-06-22T04:46:44.183832+05:30
Varanasi,Uttar Pradesh,25.3176,82.9739,28.6,75,0.1,992.6,8.8,37.8,118,40.6,24.4,13.6,199.0,58.0,7.6,10,5,7,1,2026-06-22T04:46:44.183838+05:30
Prayagraj,Uttar Pradesh,25.4358,81.8463,32.0,57,0.0,990.9,8.55,34.9,123,37.3,27.5,13.7,167.0,51.0,5.0,0,5,7,1,2026-06-22T04:46:44.183844+05:30
Gorakhpur,Uttar Pradesh,26.7606,83.3732,27.3,88,0.0,992.2,8.3,33.1,163,83.4,62.2,14.8,409.0,79.0,10.1,7,5,7,1,2026-06-22T04:46:44.183851+05:30
Bareilly,Uttar Pradesh,28.367,79.4304,29.0,64,0.0,981.4,8.1,41.4,162,210.5,73.8,24.7,415.0,35.0,8.3,7,5,7,1,2026-06-22T04:46:44.183859+05:30
Aligarh,Uttar Pradesh,27.8974,78.088,28.2,59,0.0,980.3,7.85,39.6,798,635.2,137.4,21.7,158.0,33.0,5.7,4,5,7,1,2026-06-22T04:46:44.183865+05:30
Moradabad,Uttar Pradesh,28.8386,78.7733,29.3,59,0.0,978.3,7.9,50.0,169,287.8,101.0,32.1,415.0,20.0,10.9,4,5,7,1,2026-06-22T04:46:44.183871+05:30
Saharanpur,Uttar Pradesh,29.9637,77.546,26.7,67,0.0,970.5,7.0,41.8,160,112.9,80.6,62.1,448.0,1.0,13.3,7,5,7,1,2026-06-22T04:46:44.183878+05:30
Jhansi,Uttar Pradesh,25.4484,78.5685,29.3,61,0.0,973.7,7.85,44.3,90,56.5,31.8,7.9,158.0,50.0,7.1,7,5,7,1,2026-06-22T04:46:47.479534+05:30
Surat,Gujarat,21.1702,72.8311,29.1,81,0.1,1003.4,7.45,38.9,58,21.2,14.7,21.0,240.0,26.0,31.0,10,5,4,1,2026-06-22T04:46:47.479569+05:30
Vadodara,Gujarat,22.3072,73.1812,29.4,75,0.0,1001.0,8.0,42.5,53,15.3,10.6,10.6,112.0,30.0,8.1,7,5,4,1,2026-06-22T04:46:47.479580+05:30
Rajkot,Gujarat,22.3039,70.8022,28.0,74,0.0,990.9,7.55,41.0,71,32.5,13.6,4.8,95.0,38.0,3.4,7,5,7,1,2026-06-22T04:46:47.479588+05:30
Thane,Maharashtra,19.2183,72.9781,25.8,96,0.1,1005.5,7.7,35.6,43,6.8,4.9,8.3,127.0,36.0,6.6,10,5,4,1,2026-06-22T04:46:47.479596+05:30
Nagpur,Maharashtra,21.1458,79.0882,31.0,52,0.0,970.3,8.2,36.0,65,27.0,22.8,18.5,279.0,35.0,12.3,0,5,7,1,2026-06-22T04:46:47.479603+05:30
Nashik,Maharashtra,19.9975,73.7898,25.0,82,0.0,943.2,7.7,43.9,28,7.9,6.2,9.2,122.0,29.0,8.0,7,5,7,1,2026-06-22T04:46:47.479611+05:30
Aurangabad,Maharashtra,19.8762,75.3433,27.6,64,0.0,942.3,8.85,69.1,36,10.1,7.6,7.4,128.0,38.0,5.4,7,5,7,1,2026-06-22T04:46:47.479618+05:30
Solapur,Maharashtra,17.6599,75.9064,27.9,71,0.0,955.7,8.8,54.0,38,5.1,4.7,5.7,117.0,40.0,2.6,7,5,7,1,2026-06-22T04:46:47.479627+05:30
Kolhapur,Maharashtra,16.705,74.2433,24.3,84,0.0,946.4,7.85,47.9,29,3.7,3.4,3.4,135.0,38.0,1.4,3,5,7,1,2026-06-22T04:46:47.479634+05:30
Goa,Goa,15.2993,74.124,25.2,96,0.0,996.8,8.35,39.6,21,8.6,6.3,2.6,179.0,43.0,0.9,7,5,7,1,2026-06-22T04:46:47.479640+05:30
Jodhpur,Rajasthan,26.2389,73.0243,30.0,48,0.0,978.5,8.4,45.4,142,210.9,53.6,4.4,108.0,49.0,2.2,4,5,7,1,2026-06-22T04:46:47.479647+05:30
Udaipur,Rajasthan,24.5854,73.7125,25.6,74,0.0,943.0,8.8,37.4,72,28.3,17.7,9.8,121.0,39.0,8.6,7,5,7,1,2026-06-22T04:46:47.479653+05:30
Kota,Rajasthan,25.2138,75.8648,28.8,60,0.0,974.7,8.35,32.4,96,48.2,28.1,7.0,142.0,57.0,5.5,4,5,7,1,2026-06-22T04:46:47.479660+05:30
Bikaner,Rajasthan,28.0229,73.3119,30.5,49,0.0,976.5,8.45,68.4,151,150.9,45.8,2.8,113.0,53.0,3.0,0,5,7,1,2026-06-22T04:46:47.479668+05:30
Ajmer,Rajasthan,26.4499,74.6399,27.8,57,0.0,950.4,8.35,54.7,98,43.4,22.2,8.3,128.0,46.0,3.7,4,5,7,1,2026-06-22T04:46:47.479674+05:30
Gwalior,Madhya Pradesh,26.2183,78.1828,30.0,54,0.0,978.4,7.65,58.3,88,49.7,24.9,8.7,132.0,44.0,2.7,4,5,7,1,2026-06-22T04:46:47.479681+05:30
Indore,Madhya Pradesh,22.7196,75.8577,27.0,64,0.0,945.4,8.5,49.7,80,15.5,14.0,8.5,147.0,56.0,9.6,7,5,7,1,2026-06-22T04:46:47.479687+05:30
Bhopal,Madhya Pradesh,23.2599,77.4126,27.2,67,0.0,950.2,8.6,37.4,91,66.1,40.4,10.9,199.0,45.0,4.3,7,5,7,1,2026-06-22T04:46:47.479694+05:30
Jabalpur,Madhya Pradesh,23.1815,79.9864,28.7,69,0.0,958.1,7.25,37.4,81,43.7,27.2,12.0,209.0,50.0,3.8,7,5,7,1,2026-06-22T04:46:47.479700+05:30
Ujjain,Madhya Pradesh,23.1765,75.7885,27.1,65,0.0,951.0,7.8,41.4,76,14.5,12.7,8.7,164.0,49.0,10.7,7,5,7,1,2026-06-22T04:46:47.479707+05:30
Visakhapatnam,Andhra Pradesh,17.6868,83.2185,28.0,86,0.0,1001.1,5.25,50.0,78,35.5,30.6,17.2,340.0,72.0,29.0,7,5,0,1,2026-06-22T04:46:47.479713+05:30
Vijayawada,Andhra Pradesh,16.5062,80.648,28.6,84,0.0,1000.3,8.9,37.1,83,33.6,28.5,8.2,264.0,86.0,7.0,7,5,4,1,2026-06-22T04:46:47.479720+05:30
Guntur,Andhra Pradesh,16.3067,80.4365,28.4,77,0.0,1001.6,8.8,41.8,80,30.6,26.7,9.9,233.0,71.0,6.4,7,5,4,1,2026-06-22T04:46:47.479727+05:30
Nellore,Andhra Pradesh,14.4426,79.9865,27.3,78,0.0,1004.2,3.7,33.1,75,28.5,24.1,9.6,281.0,74.0,8.7,7,5,0,1,2026-06-22T04:46:47.479734+05:30
Kurnool,Andhra Pradesh,15.8281,78.0373,27.5,72,0.0,975.6,8.5,33.8,55,10.5,9.8,16.1,142.0,25.0,9.9,7,5,7,1,2026-06-22T04:46:47.479742+05:30
Kakinada,Andhra Pradesh,16.9891,82.2475,28.6,89,0.0,1005.2,7.65,43.2,77,40.4,29.8,4.6,231.0,101.0,4.9,7,5,4,1,2026-06-22T04:46:47.479748+05:30
Tirupati,Andhra Pradesh,13.6288,79.4192,25.6,82,0.0,990.0,8.2,35.3,83,42.4,38.5,19.9,188.0,31.0,4.6,7,5,7,1,2026-06-22T04:46:47.479755+05:30
Warangal,Telangana,17.9689,79.5941,27.4,77,0.0,976.3,8.45,32.8,71,15.0,13.2,6.2,272.0,78.0,1.9,7,5,7,1,2026-06-22T04:46:47.479781+05:30
Nizamabad,Telangana,18.6725,78.0941,28.9,60,0.0,962.6,6.05,37.4,64,14.8,12.8,8.3,178.0,62.0,4.8,4,5,7,1,2026-06-22T04:46:47.479788+05:30
Mysore,Karnataka,12.2958,76.6396,21.4,96,0.0,927.8,8.85,44.6,25,6.2,5.5,5.7,138.0,31.0,1.9,3,5,7,1,2026-06-22T04:46:47.479795+05:30
Mangalore,Karnataka,12.9141,74.856,24.7,97,0.1,1006.6,8.45,37.8,28,8.4,6.0,3.5,136.0,39.0,1.5,6,5,4,1,2026-06-22T04:46:47.479802+05:30
Hubli-Dharwad,Karnataka,15.3647,75.124,23.0,92,0.0,939.6,8.9,56.9,19,2.6,2.1,3.2,87.0,38.0,1.3,3,5,7,1,2026-06-22T04:46:47.479809+05:30
Belgaum,Karnataka,15.8497,74.4977,22.0,95,0.0,924.1,8.05,52.2,18,2.4,2.1,2.7,106.0,41.0,1.3,3,5,7,1,2026-06-22T04:46:50.768411+05:30
Coimbatore,Tamil Nadu,11.0168,76.9558,23.6,89,0.0,961.4,8.7,58.3,22,3.1,2.7,4.1,124.0,37.0,2.2,3,5,7,1,2026-06-22T04:46:50.768446+05:30
Madurai,Tamil Nadu,9.9252,78.1198,27.7,70,0.0,992.8,7.35,47.2,72,17.8,16.2,26.1,350.0,4.0,4.5,7,5,7,1,2026-06-22T04:46:50.768457+05:30
Trichy,Tamil Nadu,10.7905,78.7047,27.0,78,0.0,999.5,7.3,41.4,58,15.6,12.8,11.8,230.0,39.0,4.1,7,5,7,1,2026-06-22T04:46:50.768465+05:30
Salem,Tamil Nadu,11.6643,78.146,25.6,82,0.0,977.2,8.25,40.7,55,12.0,10.9,14.5,199.0,26.0,6.5,7,5,7,1,2026-06-22T04:46:50.768474+05:30
Tirunelveli,Tamil Nadu,8.7139,77.7567,27.5,73,0.0,1003.0,8.05,36.7,24,4.5,3.9,5.6,151.0,30.0,1.7,7,5,4,1,2026-06-22T04:46:50.768482+05:30
Vellore,Tamil Nadu,12.9165,79.1325,24.6,98,0.0,983.4,8.6,33.1,84,44.0,37.6,24.1,183.0,28.0,8.1,3,5,7,1,2026-06-22T04:46:50.768489+05:30
Erode,Tamil Nadu,11.341,77.7172,25.3,84,0.0,989.2,8.2,47.2,37,8.8,8.1,12.7,135.0,24.0,3.5,7,5,7,1,2026-06-22T04:46:50.768497+05:30
Kochi,Kerala,9.9312,76.2673,24.7,95,0.1,1009.7,8.1,32.4,42,8.1,7.3,8.4,105.0,24.0,3.6,6,0,4,1,2026-06-22T04:46:50.768504+05:30
Thiruvananthapuram,Kerala,8.5241,76.9366,23.6,99,0.0,1009.2,6.95,37.1,25,9.4,5.5,2.5,84.0,48.0,1.3,3,0,4,1,2026-06-22T04:46:50.768511+05:30
Kozhikode,Kerala,11.2588,75.7804,23.8,99,0.1,1008.6,8.45,29.2,25,5.1,3.0,0.9,160.0,52.0,0.7,6,0,4,1,2026-06-22T04:46:50.768518+05:30
Thrissur,Kerala,10.5276,76.2144,23.6,99,0.0,1008.1,7.95,33.5,41,8.3,7.8,8.4,174.0,24.0,3.7,3,0,4,1,2026-06-22T04:46:50.768525+05:30
Kannur,Kerala,11.8745,75.3704,24.4,97,0.0,1007.6,8.55,37.4,22,5.2,3.6,3.1,152.0,39.0,1.6,3,5,4,1,2026-06-22T04:46:50.768531+05:30
Patna,Bihar,25.5941,85.1376,27.8,89,0.0,995.6,8.9,31.0,158,51.3,41.4,17.0,238.0,51.0,10.4,7,5,7,1,2026-06-22T04:46:50.768538+05:30
Gaya,Bihar,24.7914,85.0002,29.1,65,0.0,988.8,8.65,31.3,138,46.6,31.2,9.1,178.0,85.0,12.5,7,5,7,1,2026-06-22T04:46:50.768545+05:30
Muzaffarpur,Bihar,26.1209,85.3647,26.1,87,0.0,995.9,8.9,36.0,160,50.3,44.0,14.1,517.0,74.0,11.6,7,5,7,1,2026-06-22T04:46:50.768552+05:30
Bhagalpur,Bihar,25.2425,87.0117,27.6,92,0.0,996.6,8.7,25.9,127,61.9,57.7,15.6,232.0,66.0,18.9,7,5,7,1,2026-06-22T04:46:50.768559+05:30
Ranchi,Jharkhand,23.3441,85.3096,24.6,77,0.0,934.2,6.6,38.2,96,49.5,46.0,9.9,238.0,86.0,9.7,3,5,7,1,2026-06-22T04:46:50.768566+05:30
Jamshedpur,Jharkhand,22.8046,86.2029,26.7,94,0.0,987.3,6.7,37.1,128,55.1,51.6,21.5,252.0,58.0,23.1,7,5,7,1,2026-06-22T04:46:50.768573+05:30
Dhanbad,Jharkhand,23.7957,86.4304,26.2,87,0.0,975.5,7.25,33.5,152,63.3,57.2,35.9,389.0,67.0,87.2,7,5,7,1,2026-06-22T04:46:50.768580+05:30
Bokaro,Jharkhand,23.6693,86.1511,25.3,93,0.0,979.0,6.85,37.1,123,56.5,48.9,22.5,397.0,81.0,58.4,7,5,7,1,2026-06-22T04:46:50.768586+05:30
Bhubaneswar,Odisha,20.2961,85.8245,26.3,93,0.2,999.9,8.35,40.7,101,30.4,28.6,7.0,358.0,109.0,8.6,10,5,7,1,2026-06-22T04:46:50.768593+05:30
Cuttack,Odisha,20.4625,85.8828,27.1,93,0.2,1001.4,8.35,38.2,101,30.4,28.6,7.0,348.0,109.0,8.6,10,5,4,1,2026-06-22T04:46:50.768600+05:30
Rourkela,Odisha,22.2604,84.8536,26.7,82,0.0,981.3,8.9,52.9,113,59.5,54.1,20.1,306.0,57.0,18.5,7,5,7,1,2026-06-22T04:46:50.768606+05:30
Raipur,Chhattisgarh,21.2514,81.6296,30.1,57,0.0,971.6,8.95,45.4,83,37.0,32.6,19.9,583.0,84.0,38.6,0,5,7,1,2026-06-22T04:46:50.768613+05:30
Bhilai,Chhattisgarh,21.1938,81.3509,29.6,60,0.0,972.1,8.95,55.1,81,35.6,31.4,17.3,599.0,86.0,33.0,4,5,7,1,2026-06-22T04:46:50.768619+05:30
Guwahati,Assam,26.1158,91.7086,24.2,99,0.0,998.6,6.8,25.2,62,22.5,18.2,6.9,355.0,67.0,2.7,3,5,7,1,2026-06-22T04:46:50.768626+05:30
Agartala,Tripura,23.8315,91.2868,25.4,95,0.0,1004.1,8.4,37.8,57,11.5,11.0,11.4,210.0,48.0,3.3,7,5,4,1,2026-06-22T04:46:50.768633+05:30
Shillong,Meghalaya,25.5788,91.8933,19.7,94,0.0,854.7,5.25,32.0,36,1.5,1.3,4.0,195.0,63.0,2.3,3,10,3,1,2026-06-22T04:46:50.768639+05:30
Imphal,Manipur,24.817,93.9368,21.8,99,0.1,921.5,7.55,32.8,68,26.4,23.8,7.1,402.0,41.0,2.4,6,5,7,1,2026-06-22T04:46:50.768645+05:30
Aizawl,Mizoram,23.7271,92.7176,19.5,96,0.0,890.6,6.8,36.0,37,8.1,7.7,4.1,155.0,29.0,0.5,3,10,7,1,2026-06-22T04:46:50.768652+05:30
Kohima,Nagaland,25.6701,94.1077,19.0,92,0.1,853.3,7.65,20.2,44,13.0,10.2,3.0,211.0,50.0,0.9,6,10,7,1,2026-06-22T04:46:50.768658+05:30
Gangtok,Sikkim,27.3314,88.6138,17.9,98,0.6,835.1,8.4,32.0,75,6.5,3.6,2.5,390.0,127.0,3.9,6,10,7,1,2026-06-22T04:46:50.768666+05:30
Siliguri,West Bengal,26.7271,88.3953,24.0,99,0.3,990.0,7.85,22.0,59,13.9,12.0,8.5,397.0,91.0,4.3,6,5,7,1,2026-06-22T04:46:54.061149+05:30
Durgapur,West Bengal,23.5204,87.3119,26.5,95,0.2,991.1,8.9,36.0,156,85.7,83.4,37.2,949.0,37.0,42.7,10,5,7,1,2026-06-22T04:46:54.061186+05:30
Asansol,West Bengal,23.6739,86.9524,26.9,91,0.0,989.4,8.85,31.0,153,69.6,65.4,38.7,1530.0,44.0,54.7,7,5,7,1,2026-06-22T04:46:54.061199+05:30
Pondicherry,Puducherry,11.9139,79.8145,27.8,90,0.0,1007.2,8.1,43.9,60,13.2,10.1,9.5,217.0,47.0,8.0,7,5,4,1,2026-06-22T04:46:54.061208+05:30
Port Blair,Andaman and Nicobar Islands,11.6234,92.7265,26.8,83,0.0,1008.7,8.75,38.5,43,16.6,9.4,0.2,87.0,45.0,0.4,7,0,4,1,2026-06-22T04:46:54.061215+05:30
Haridwar,Uttarakhand,29.9457,78.1642,25.2,84,0.0,968.7,7.15,30.2,122,55.8,49.7,37.4,412.0,16.0,5.0,7,5,7,1,2026-06-22T04:46:54.061223+05:30
Rishikesh,Uttarakhand,30.0869,78.2676,23.7,86,0.0,961.4,7.15,27.4,90,43.0,31.7,10.5,351.0,83.0,2.5,3,5,7,1,2026-06-22T04:46:54.061230+05:30
Nainital,Uttarakhand,29.3919,79.4542,14.4,94,0.0,802.1,6.9,32.4,120,56.1,40.5,23.9,337.0,50.0,3.3,3,10,7,0,2026-06-22T04:46:54.061238+05:30
Mussoorie,Uttarakhand,30.4599,78.0664,15.9,78,0.0,800.0,7.35,41.4,84,35.3,29.3,32.0,293.0,18.0,3.3,3,5,7,0,2026-06-22T04:46:54.061246+05:30
Dharamshala,Himachal Pradesh,32.219,76.3234,21.6,55,0.0,865.9,6.6,45.4,51,12.8,10.5,11.0,255.0,47.0,0.0,0,5,7,0,2026-06-22T04:46:54.061252+05:30
Dalhousie,Himachal Pradesh,32.5387,75.971,12.5,84,0.0,799.5,7.15,34.2,64,25.8,22.8,25.5,238.0,14.0,0.7,3,10,7,0,2026-06-22T04:46:54.061260+05:30
Patiala,Punjab,30.3398,76.3869,28.0,60,0.0,973.2,5.45,57.6,254,143.9,70.3,26.6,509.0,39.0,6.1,4,5,3,1,2026-06-22T04:46:54.061268+05:30
Bhatinda,Punjab,30.211,74.9455,28.9,56,0.0,978.4,8.05,54.7,132,80.6,57.5,49.5,299.0,24.0,6.4,4,5,7,1,2026-06-22T04:46:54.061274+05:30
Rohtak,Haryana,28.8955,76.6066,28.2,63,0.0,976.9,7.5,50.8,623,225.4,68.5,27.3,177.0,24.0,3.9,7,5,7,1,2026-06-22T04:46:54.061281+05:30
Panipat,Haryana,29.3909,76.9635,27.8,60,0.0,975.4,7.2,47.2,1642,295.2,99.4,35.1,296.0,17.0,5.0,4,5,7,1,2026-06-22T04:46:54.061288+05:30
Mathura,Uttar Pradesh,27.4924,77.6737,28.2,62,0.0,981.7,8.05,57.6,627,174.2,49.6,31.6,139.0,17.0,4.4,7,5,7,1,2026-06-22T04:46:54.061295+05:30
Vrindavan,Uttar Pradesh,27.5823,77.7027,27.8,64,0.0,982.1,8.05,52.2,627,174.2,49.6,31.6,141.0,17.0,4.4,7,5,7,1,2026-06-22T04:46:54.061302+05:30
Ayodhya,Uttar Pradesh,26.7922,82.1998,30.0,66,0.0,989.7,8.05,28.8,163,101.5,55.8,30.6,256.0,16.0,5.6,7,5,7,1,2026-06-22T04:46:54.061309+05:30
Ratlam,Madhya Pradesh,23.3315,75.0367,26.1,74,0.0,952.0,8.45,51.5,69,14.5,11.5,10.0,154.0,39.0,12.5,7,5,7,1,2026-06-22T04:46:54.061315+05:30
Sagar,Madhya Pradesh,23.8388,78.7378,28.1,67,0.0,946.9,8.7,34.2,82,59.0,34.1,8.4,226.0,55.0,3.2,7,5,7,1,2026-06-22T04:46:54.061322+05:30
Satna,Madhya Pradesh,24.6005,80.8322,29.1,66,0.0,967.3,8.3,36.7,86,41.9,27.3,8.0,173.0,59.0,3.0,7,5,7,1,2026-06-22T04:46:54.061328+05:30
Akola,Maharashtra,20.7002,77.0082,31.7,46,0.0,972.1,8.85,44.3,59,18.2,17.0,21.5,112.0,36.0,8.3,0,5,7,1,2026-06-22T04:46:54.061336+05:30
Amravati,Maharashtra,20.9374,77.7796,30.7,53,0.0,964.4,8.7,32.8,59,19.7,17.8,20.3,126.0,32.0,5.4,0,5,7,1,2026-06-22T04:46:54.061343+05:30
Latur,Maharashtra,18.4088,76.5604,27.8,64,0.0,938.2,8.05,56.5,53,4.7,4.4,5.8,128.0,48.0,1.7,7,5,7,1,2026-06-22T04:46:54.061350+05:30
Nanded,Maharashtra,19.1383,77.3091,29.3,67,0.0,966.0,8.85,57.2,58,16.4,13.4,8.9,142.0,51.0,4.3,7,5,7,1,2026-06-22T04:46:54.061357+05:30
Gulbarga,Karnataka,17.3297,76.8343,27.1,71,0.0,957.4,8.9,53.3,43,4.9,4.5,9.3,148.0,28.0,2.6,7,5,7,1,2026-06-22T04:46:54.061363+05:30
Bidar,Karnataka,17.9104,77.5199,26.6,70,0.0,933.8,8.95,36.0,61,6.5,6.2,9.8,150.0,44.0,5.0,7,5,7,1,2026-06-22T04:46:54.061369+05:30
Hospet,Karnataka,15.2689,76.3909,24.4,86,0.0,955.0,8.95,58.0,20,3.8,3.5,4.6,113.0,36.0,1.3,3,5,7,1,2026-06-22T04:46:54.061375+05:30
Tirupur,Tamil Nadu,11.1085,77.3411,24.1,89,0.0,975.0,8.9,56.9,41,9.4,8.8,13.9,114.0,22.0,4.0,3,5,7,1,2026-06-22T04:46:54.061381+05:30
Alappuzha,Kerala,9.4981,76.3388,24.7,100,0.1,1010.0,7.75,35.3,32,7.5,5.4,4.5,81.0,38.0,1.6,6,0,4,1,2026-06-22T04:46:54.061388+05:30
Munnar,Kerala,10.0889,77.0595,17.0,99,0.0,856.2,6.3,38.2,20,3.6,3.5,6.1,90.0,23.0,1.2,3,10,7,1,2026-06-22T04:46:54.061395+05:30
Silchar,Assam,24.8333,92.7789,25.4,95,0.1,1003.3,8.6,31.3,71,31.0,26.5,10.0,247.0,56.0,4.2,10,5,4,1,2026-06-22T04:46:54.061402+05:30
Dibrugarh,Assam,27.4728,94.912,24.6,97,0.1,993.0,4.95,27.7,74,29.2,24.3,8.1,217.0,76.0,1.5,6,5,3,1,2026-06-22T04:46:54.061408+05:30
