city,state,latitude,longitude,temp,humidity,rain,pressure,uv_index,wind_gusts,aqi,pm10,pm2_5,no2,co,o3,so2,mosquito_risk,arthritis_risk,migraine_risk,frizz_risk,updated_at
Delhi,Delhi,28.6139,77.209,33.9,56,0.0,976.7,6.85,24.1,101,39.6,25.8,8.5,503.0,199.0,25.3,0,5,7,1,2026-07-03T13:41:28.968449+05:30
Mumbai,Maharashtra,19.076,72.8777,25.8,90,0.4,1006.1,0.95,44.3,48,18.9,9.6,6.2,230.0,61.0,4.5,10,5,0,1,2026-07-03T13:41:28.968516+05:30
Bangalore,Karnataka,12.9716,77.5946,26.8,65,0.0,911.0,6.75,58.7,23,13.9,6.7,3.1,261.0,70.0,1.9,7,5,7,1,2026-07-03T13:41:28.968532+05:30
Hyderabad,Telangana,17.385,78.4867,26.0,82,0.1,949.4,2.8,54.7,25,6.7,4.9,4.1,224.0,57.0,3.8,10,5,3,1,2026-07-03T13:41:28.968542+05:30
Chennai,Tamil Nadu,13.0827,80.2707,30.1,73,0.1,1005.4,7.55,45.7,52,17.8,12.2,5.1,180.0,97.0,7.3,6,5,4,1,2026-07-03T13:41:28.968551+05:30
Kolkata,West Bengal,22.5726,88.3639,32.8,66,0.0,996.7,7.45,37.1,61,8.6,7.3,2.3,237.0,95.0,7.1,3,5,7,1,2026-07-03T13:41:28.968560+05:30
Pune,Maharashtra,18.5204,73.8567,26.0,78,0.1,945.3,1.45,50.8,21,3.9,3.1,5.5,170.0,55.0,4.4,10,5,3,1,2026-07-03T13:41:28.968567+05:30
Ahmedabad,Gujarat,23.0225,72.5714,34.0,56,0.0,996.4,2.45,42.5,57,54.5,21.2,2.9,134.0,68.0,4.0,0,5,3,1,2026-07-03T13:41:28.968574+05:30
Jaipur,Rajasthan,26.9124,75.7873,34.6,51,0.0,954.0,6.6,42.1,118,189.1,51.3,1.2,166.0,120.0,3.6,0,5,7,1,2026-07-03T13:41:28.968581+05:30
Lucknow,Uttar Pradesh,26.8467,80.9462,33.8,65,0.0,986.5,7.85,31.3,82,23.9,23.6,1.8,313.0,151.0,5.6,3,5,7,1,2026-07-03T13:41:28.968592+05:30
Kanpur,Uttar Pradesh,26.4499,80.3319,32.7,68,0.0,984.7,7.65,27.4,82,49.0,23.3,2.1,322.0,150.0,5.7,3,5,7,1,2026-07-03T13:41:28.968600+05:30
Chandigarh,Chandigarh,30.7333,76.7794,34.6,51,0.0,963.9,7.7,22.7,90,32.1,30.7,2.5,356.0,191.0,9.2,0,5,7,1,2026-07-03T13:41:28.968607+05:30
Srinagar,Jammu and Kashmir,34.0837,74.7973,28.7,49,0.0,842.0,9.05,27.4,76,19.1,14.6,1.7,281.0,165.0,3.0,4,5,7,1,2026-07-03T13:41:28.968614+05:30
Jammu,Jammu and Kashmir,32.7266,74.857,34.6,50,0.0,968.5,8.6,24.1,152,58.1,28.2,1.6,332.0,179.0,3.3,0,5,7,1,2026-07-03T13:41:28.968621+05:30
Amritsar,Punjab,31.634,74.8723,35.2,55,0.0,975.9,8.4,27.4,158,28.5,23.1,1.7,342.0,172.0,6.4,0,5,10,1,2026-07-03T13:41:28.968627+05:30
Ludhiana,Punjab,30.901,75.8573,34.4,57,0.0,973.7,7.95,22.3,118,35.3,34.8,2.1,337.0,177.0,8.2,0,5,7,1,2026-07-03T13:41:28.968634+05:30
Jalandhar,Punjab,31.326,75.5762,33.5,59,0.1,975.0,8.15,24.5,152,31.7,31.3,2.0,272.0,187.0,7.8,3,5,7,1,2026-07-03T13:41:28.968640+05:30
Dehradun,Uttarakhand,30.6284,78.0322,23.5,79,0.1,830.1,7.8,25.6,49,8.7,7.9,2.8,219.0,126.0,1.4,6,5,7,1,2026-07-03T13:41:28.968647+05:30
Shimla,Himachal Pradesh,31.1048,77.1734,19.1,86,0.2,784.6,7.6,29.9,64,10.6,9.1,1.9,227.0,147.0,4.3,6,10,7,1,2026-07-03T13:41:28.968653+05:30
Manali,Himachal Pradesh,32.2396,77.1887,26.0,62,0.0,820.1,9.55,30.2,53,14.3,13.7,9.4,189.0,139.0,0.7,7,5,7,1,2026-07-03T13:41:28.968662+05:30
Gurgaon,Haryana,28.4595,77.0266,33.8,55,0.0,975.2,7.6,29.9,151,33.2,21.0,6.8,429.0,188.0,17.0,0,5,7,1,2026-07-03T13:41:28.968671+05:30
Noida,Uttar Pradesh,28.5355,77.391,34.1,57,0.0,978.1,5.8,26.3,151,33.2,21.0,6.8,372.0,188.0,17.0,0,5,3,1,2026-07-03T13:41:28.968677+05:30
Ghaziabad,Uttar Pradesh,28.6692,77.4538,34.0,58,0.0,976.5,6.4,29.2,86,16.1,16.0,5.2,278.0,145.0,11.2,0,5,7,1,2026-07-03T13:41:28.968684+05:30
Faridabad,Haryana,28.4089,77.3178,33.6,56,0.0,977.5,5.8,29.9,151,33.2,21.0,6.8,373.0,188.0,17.0,0,5,3,1,2026-07-03T13:41:28.968690+05:30
Meerut,Uttar Pradesh,28.9845,77.7064,33.5,62,0.0,975.6,5.8,28.4,86,16.1,16.0,5.2,336.0,145.0,11.2,3,5,3,1,2026-07-03T13:41:28.968697+05:30
Agra,Uttar Pradesh,27.1767,78.0081,33.2,60,0.0,981.3,6.45,16.6,126,15.4,12.7,2.7,315.0,162.0,5.6,0,5,7,1,2026-07-03T13:41:28.968703+05:30
Varanasi,Uttar Pradesh,25.3176,82.9739,34.5,59,0.0,989.2,7.05,32.0,93,24.1,23.3,1.4,277.0,142.0,6.5,0,5,7,1,2026-07-03T13:41:28.968710+05:30
Prayagraj,Uttar Pradesh,25.4358,81.8463,33.2,64,0.1,988.0,7.15,29.2,92,22.8,22.1,1.9,294.0,149.0,6.1,6,5,7,1,2026-07-03T13:41:28.968717+05:30
Gorakhpur,Uttar Pradesh,26.7606,83.3732,33.8,65,0.0,989.9,8.15,34.2,86,20.0,19.6,1.5,290.0,152.0,5.0,3,5,7,1,2026-07-03T13:41:28.968723+05:30
Bareilly,Uttar Pradesh,28.367,79.4304,33.8,63,0.0,980.5,7.4,31.0,96,18.5,18.3,3.0,303.0,145.0,9.4,3,5,7,1,2026-07-03T13:41:28.968731+05:30
Aligarh,Uttar Pradesh,27.8974,78.088,34.0,57,0.0,979.1,6.4,23.4,100,12.2,12.2,3.3,268.0,157.0,8.3,0,5,7,1,2026-07-03T13:41:28.968738+05:30
Moradabad,Uttar Pradesh,28.8386,78.7733,33.8,65,0.0,977.7,7.8,30.6,111,17.8,17.7,3.2,355.0,159.0,9.8,3,5,7,1,2026-07-03T13:41:28.968744+05:30
Saharanpur,Uttar Pradesh,29.9637,77.546,33.8,60,0.0,970.3,7.1,30.6,80,28.8,27.8,2.4,376.0,149.0,6.0,0,5,7,1,2026-07-03T13:41:28.968750+05:30
Jhansi,Uttar Pradesh,25.4484,78.5685,31.5,70,0.0,971.4,8.05,32.4,88,40.5,17.2,2.9,230.0,127.0,7.2,3,5,7,1,2026-07-03T13:41:32.244912+05:30
Surat,Gujarat,21.1702,72.8311,28.8,84,0.1,1002.3,0.8,36.4,65,33.6,26.6,32.9,564.0,21.0,65.2,10,5,0,1,2026-07-03T13:41:32.244944+05:30
Vadodara,Gujarat,22.3072,73.1812,33.8,58,0.0,998.3,1.65,41.8,51,41.8,21.1,7.5,204.0,72.0,13.2,0,5,3,1,2026-07-03T13:41:32.244955+05:30
Rajkot,Gujarat,22.3039,70.8022,34.0,55,0.0,988.8,6.65,40.7,51,43.3,17.9,1.6,127.0,80.0,4.5,0,5,7,1,2026-07-03T13:41:32.244964+05:30
Thane,Maharashtra,19.2183,72.9781,26.6,88,0.3,1005.3,0.75,32.4,48,18.9,9.6,6.2,249.0,61.0,4.5,10,5,0,1,2026-07-03T13:41:32.244972+05:30
Nagpur,Maharashtra,21.1458,79.0882,26.9,89,0.1,966.3,1.85,31.0,35,8.4,7.3,10.1,210.0,70.0,8.8,10,5,3,1,2026-07-03T13:41:32.244981+05:30
Nashik,Maharashtra,19.9975,73.7898,23.5,95,0.7,941.8,0.6,45.4,19,4.2,2.5,3.8,152.0,53.0,1.0,6,5,3,1,2026-07-03T13:41:32.244988+05:30
Aurangabad,Maharashtra,19.8762,75.3433,23.8,95,2.3,940.2,1.65,44.6,23,3.7,3.3,4.0,142.0,65.0,3.3,6,5,3,1,2026-07-03T13:41:32.244996+05:30
Solapur,Maharashtra,17.6599,75.9064,26.1,82,0.1,954.3,6.3,52.2,21,7.0,4.1,1.5,113.0,61.0,1.6,10,5,7,1,2026-07-03T13:41:32.245005+05:30
Kolhapur,Maharashtra,16.705,74.2433,24.5,85,0.1,946.5,6.85,52.9,21,5.6,4.2,3.3,118.0,53.0,1.8,6,5,7,1,2026-07-03T13:41:32.245012+05:30
Goa,Goa,15.2993,74.124,27.9,82,0.1,998.3,4.8,33.1,58,21.9,11.7,1.3,119.0,58.0,0.9,10,5,3,1,2026-07-03T13:41:32.245020+05:30
Jodhpur,Rajasthan,26.2389,73.0243,37.5,42,0.0,976.4,8.4,31.3,103,270.1,62.9,0.7,114.0,88.0,2.8,0,5,10,1,2026-07-03T13:41:32.245028+05:30
Udaipur,Rajasthan,24.5854,73.7125,33.2,54,0.0,941.5,7.75,35.3,70,64.5,27.1,1.6,115.0,74.0,3.9,0,5,7,1,2026-07-03T13:41:32.245035+05:30
Kota,Rajasthan,25.2138,75.8648,35.0,51,0.0,972.4,7.65,33.1,69,66.1,29.0,1.3,162.0,108.0,4.8,0,5,7,1,2026-07-03T13:41:32.245043+05:30
Bikaner,Rajasthan,28.0229,73.3119,40.7,29,0.0,975.1,8.4,41.0,126,214.2,52.3,0.4,124.0,87.0,2.3,0,5,10,1,2026-07-03T13:41:32.245050+05:30
Ajmer,Rajasthan,26.4499,74.6399,35.1,47,0.0,949.3,7.95,37.4,83,119.2,40.6,0.8,124.0,102.0,3.7,0,5,10,1,2026-07-03T13:41:32.245057+05:30
Gwalior,Madhya Pradesh,26.2183,78.1828,32.6,63,0.0,976.8,7.8,14.8,106,82.4,28.6,2.1,274.0,128.0,4.8,3,5,7,1,2026-07-03T13:41:32.245064+05:30
Indore,Madhya Pradesh,22.7196,75.8577,30.2,66,0.0,942.7,2.55,34.6,64,29.5,16.4,2.2,263.0,101.0,4.3,3,5,3,1,2026-07-03T13:41:32.245071+05:30
Bhopal,Madhya Pradesh,23.2599,77.4126,29.0,77,0.0,947.6,5.8,38.5,63,19.0,11.9,3.0,208.0,95.0,4.2,7,5,3,1,2026-07-03T13:41:32.245077+05:30
Jabalpur,Madhya Pradesh,23.1815,79.9864,29.8,73,0.0,953.6,8.15,27.4,49,21.0,21.0,1.5,217.0,151.0,12.1,7,5,7,1,2026-07-03T13:41:32.245084+05:30
Ujjain,Madhya Pradesh,23.1765,75.7885,31.0,64,0.0,948.3,7.25,32.4,63,29.7,16.2,1.6,205.0,94.0,4.3,3,5,7,1,2026-07-03T13:41:32.245092+05:30
Visakhapatnam,Andhra Pradesh,17.6868,83.2185,30.9,65,0.0,996.4,2.15,52.6,51,17.8,15.4,16.5,294.0,74.0,37.0,3,5,3,1,2026-07-03T13:41:32.245098+05:30
Vijayawada,Andhra Pradesh,16.5062,80.648,30.4,67,0.1,998.3,4.7,58.7,47,13.0,7.6,1.7,119.0,76.0,4.1,6,5,3,1,2026-07-03T13:41:32.245104+05:30
Guntur,Andhra Pradesh,16.3067,80.4365,31.6,60,0.0,999.6,5.25,51.1,41,11.3,6.6,1.6,116.0,73.0,4.1,0,5,3,1,2026-07-03T13:41:32.245111+05:30
Nellore,Andhra Pradesh,14.4426,79.9865,34.5,43,0.0,1002.4,8.65,54.0,30,20.0,9.9,1.7,109.0,86.0,3.3,0,5,4,1,2026-07-03T13:41:32.245119+05:30
Kurnool,Andhra Pradesh,15.8281,78.0373,30.4,56,0.0,974.3,6.8,59.4,23,16.6,7.6,1.8,112.0,70.0,2.7,0,5,7,1,2026-07-03T13:41:32.245127+05:30
Kakinada,Andhra Pradesh,16.9891,82.2475,29.0,76,0.0,1001.6,6.0,50.8,46,15.5,10.0,1.8,166.0,98.0,4.2,7,5,0,1,2026-07-03T13:41:32.245133+05:30
Tirupati,Andhra Pradesh,13.6288,79.4192,32.0,61,0.0,988.4,8.9,49.3,37,11.2,5.6,0.3,106.0,70.0,1.0,3,5,7,1,2026-07-03T13:41:32.245139+05:30
Warangal,Telangana,17.9689,79.5941,26.7,86,0.1,973.8,2.0,43.9,31,11.0,6.8,2.0,160.0,63.0,2.2,10,5,3,1,2026-07-03T13:41:32.245146+05:30
Nizamabad,Telangana,18.6725,78.0941,25.7,87,0.1,959.8,0.85,48.6,30,10.4,6.9,2.3,158.0,70.0,4.9,10,5,3,1,2026-07-03T13:41:32.245153+05:30
Mysore,Karnataka,12.2958,76.6396,26.5,64,0.0,928.6,6.0,62.3,25,7.0,3.5,1.3,112.0,68.0,1.1,7,5,3,1,2026-07-03T13:41:32.245159+05:30
Mangalore,Karnataka,12.9141,74.856,27.0,84,0.0,1008.3,6.8,49.7,48,24.3,11.1,1.5,103.0,54.0,1.1,7,0,4,1,2026-07-03T13:41:32.245166+05:30
Hubli-Dharwad,Karnataka,15.3647,75.124,27.0,69,0.1,940.2,7.4,63.7,22,5.5,3.2,1.6,101.0,57.0,0.8,10,5,7,1,2026-07-03T13:41:32.245173+05:30
Belgaum,Karnataka,15.8497,74.4977,23.1,91,0.1,924.8,4.6,57.2,22,7.5,4.9,2.4,105.0,51.0,1.1,6,5,3,1,2026-07-03T13:41:35.515252+05:30
Coimbatore,Tamil Nadu,11.0168,76.9558,28.3,67,0.0,961.8,7.4,64.1,23,5.0,3.6,1.8,129.0,67.0,1.6,7,5,7,1,2026-07-03T13:41:35.515285+05:30
Madurai,Tamil Nadu,9.9252,78.1198,36.2,37,0.0,992.0,8.7,56.2,37,7.6,4.5,1.8,107.0,79.0,1.8,0,5,10,1,2026-07-03T13:41:35.515297+05:30
Trichy,Tamil Nadu,10.7905,78.7047,36.8,36,0.0,998.0,7.35,67.3,24,6.7,3.9,1.7,103.0,71.0,1.5,0,5,10,1,2026-07-03T13:41:35.515307+05:30
Salem,Tamil Nadu,11.6643,78.146,32.0,55,0.0,976.2,6.15,42.5,41,8.2,5.4,1.9,149.0,90.0,4.8,0,5,7,1,2026-07-03T13:41:35.515315+05:30
Tirunelveli,Tamil Nadu,8.7139,77.7567,36.2,39,0.0,1002.9,8.4,54.7,22,10.7,6.0,1.1,101.0,69.0,1.0,0,5,7,1,2026-07-03T13:41:35.515323+05:30
Vellore,Tamil Nadu,12.9165,79.1325,35.8,41,0.0,981.7,7.35,64.8,28,12.8,7.0,1.3,128.0,85.0,1.9,0,5,10,1,2026-07-03T13:41:35.515331+05:30
Erode,Tamil Nadu,11.341,77.7172,35.4,43,0.0,987.7,6.45,55.4,30,6.6,4.3,1.5,143.0,83.0,1.7,0,5,10,1,2026-07-03T13:41:35.515339+05:30
Kochi,Kerala,9.9312,76.2673,27.5,83,0.1,1011.1,7.95,40.3,40,14.7,8.2,2.7,106.0,53.0,1.9,10,0,4,1,2026-07-03T13:41:35.515347+05:30
Thiruvananthapuram,Kerala,8.5241,76.9366,28.3,76,0.0,1010.4,8.05,42.8,32,16.3,8.4,0.9,93.0,59.0,0.9,7,0,4,1,2026-07-03T13:41:35.515355+05:30
Kozhikode,Kerala,11.2588,75.7804,26.4,92,0.2,1010.1,1.1,41.4,29,19.7,9.0,0.7,111.0,54.0,0.5,10,0,0,1,2026-07-03T13:41:35.515362+05:30
Thrissur,Kerala,10.5276,76.2144,25.8,93,0.1,1009.5,5.6,36.7,39,11.8,6.9,2.1,114.0,53.0,1.2,10,0,0,1,2026-07-03T13:41:35.515370+05:30
Kannur,Kerala,11.8745,75.3704,26.4,94,0.1,1009.3,2.0,46.8,36,22.5,9.5,1.7,104.0,52.0,0.9,10,0,0,1,2026-07-03T13:41:35.515377+05:30
Patna,Bihar,25.5941,85.1376,34.6,58,0.0,992.4,7.65,34.2,81,21.7,20.9,1.8,254.0,152.0,8.8,0,5,7,1,2026-07-03T13:41:35.515384+05:30
Gaya,Bihar,24.7914,85.0002,34.6,58,0.0,985.6,6.8,30.6,65,13.8,13.2,1.1,205.0,121.0,4.6,0,5,7,1,2026-07-03T13:41:35.515391+05:30
Muzaffarpur,Bihar,26.1209,85.3647,34.3,60,0.0,992.8,7.95,36.4,82,21.5,20.7,1.8,241.0,155.0,7.6,0,5,7,1,2026-07-03T13:41:35.515398+05:30
Bhagalpur,Bihar,25.2425,87.0117,35.2,54,0.0,993.2,7.8,32.4,76,14.2,13.4,2.2,205.0,133.0,8.7,0,5,10,1,2026-07-03T13:41:35.515405+05:30
Ranchi,Jharkhand,23.3441,85.3096,29.3,69,0.0,930.7,8.85,40.7,59,17.3,17.1,2.1,232.0,138.0,13.6,7,5,7,1,2026-07-03T13:41:35.515413+05:30
Jamshedpur,Jharkhand,22.8046,86.2029,30.6,72,0.1,982.0,6.35,37.8,58,11.5,11.1,2.1,190.0,112.0,5.3,6,5,7,1,2026-07-03T13:41:35.515420+05:30
Dhanbad,Jharkhand,23.7957,86.4304,33.1,58,0.1,971.7,5.8,35.6,97,25.7,25.2,7.6,213.0,141.0,35.0,3,5,3,1,2026-07-03T13:41:35.515427+05:30
Bokaro,Jharkhand,23.6693,86.1511,31.6,66,0.1,975.5,5.65,34.9,104,29.8,29.4,9.0,205.0,151.0,44.1,6,5,3,1,2026-07-03T13:41:35.515434+05:30
Bhubaneswar,Odisha,20.2961,85.8245,30.1,78,0.1,993.4,6.8,24.5,56,9.1,8.9,3.9,290.0,115.0,7.7,6,5,7,1,2026-07-03T13:41:35.515441+05:30
Cuttack,Odisha,20.4625,85.8828,29.7,82,0.0,995.2,6.95,22.0,56,9.1,8.9,3.9,287.0,115.0,7.7,7,5,7,1,2026-07-03T13:41:35.515448+05:30
Rourkela,Odisha,22.2604,84.8536,29.0,83,0.3,976.2,7.0,37.8,86,13.0,12.7,1.9,281.0,134.0,10.2,10,5,7,1,2026-07-03T13:41:35.515455+05:30
Raipur,Chhattisgarh,21.2514,81.6296,26.9,93,0.0,966.6,0.8,30.2,68,16.6,16.1,22.2,211.0,73.0,44.8,7,5,3,1,2026-07-03T13:41:35.515483+05:30
Bhilai,Chhattisgarh,21.1938,81.3509,27.0,91,0.0,967.1,1.7,36.4,61,10.8,10.3,13.7,637.0,86.0,34.5,7,5,3,1,2026-07-03T13:41:35.515492+05:30
Guwahati,Assam,26.1158,91.7086,34.4,63,0.0,993.6,8.55,23.8,41,7.0,6.9,1.0,211.0,114.0,1.5,3,5,7,1,2026-07-03T13:41:35.515498+05:30
Agartala,Tripura,23.8315,91.2868,32.6,69,0.0,998.6,7.55,28.8,54,8.0,7.4,2.4,122.0,117.0,1.0,3,5,7,1,2026-07-03T13:41:35.515506+05:30
Shillong,Meghalaya,25.5788,91.8933,25.1,75,0.2,854.5,6.75,28.8,38,6.4,6.2,1.0,157.0,95.0,1.5,10,5,7,1,2026-07-03T13:41:35.515513+05:30
Imphal,Manipur,24.817,93.9368,28.9,70,0.0,918.5,9.1,23.4,55,1.6,1.6,1.1,161.0,73.0,0.7,7,5,7,1,2026-07-03T13:41:35.515520+05:30
Aizawl,Mizoram,23.7271,92.7176,23.8,84,0.2,887.7,8.4,23.8,32,7.9,7.7,1.8,131.0,62.0,0.3,6,5,7,1,2026-07-03T13:41:35.515527+05:30
Kohima,Nagaland,25.6701,94.1077,27.0,66,0.1,852.6,7.8,24.5,32,5.6,5.5,0.8,150.0,81.0,0.5,10,5,7,1,2026-07-03T13:41:35.515535+05:30
Gangtok,Sikkim,27.3314,88.6138,23.3,79,0.1,836.5,8.95,32.4,40,6.6,6.2,0.9,183.0,113.0,0.8,6,5,7,1,2026-07-03T13:41:35.515542+05:30
Siliguri,West Bengal,26.7271,88.3953,29.3,87,0.2,986.8,8.55,27.7,76,11.5,11.2,1.4,244.0,130.0,2.3,10,5,7,1,2026-07-03T13:41:38.802320+05:30
Durgapur,West Bengal,23.5204,87.3119,33.2,64,0.1,986.4,6.5,36.7,88,20.0,18.3,6.2,202.0,118.0,20.5,6,5,7,1,2026-07-03T13:41:38.802352+05:30
Asansol,West Bengal,23.6739,86.9524,32.5,66,0.0,985.1,6.7,33.8,85,19.8,19.2,6.0,203.0,135.0,23.7,3,5,7,1,2026-07-03T13:41:38.802364+05:30
Pondicherry,Puducherry,11.9139,79.8145,31.7,67,0.0,1006.6,7.5,43.2,53,18.0,13.9,7.9,157.0,90.0,14.4,3,5,4,1,2026-07-03T13:41:38.802373+05:30
Port Blair,Andaman and Nicobar Islands,11.6234,92.7265,30.7,70,0.0,1005.0,5.9,53.3,41,26.6,11.8,0.2,94.0,53.0,0.5,3,5,0,1,2026-07-03T13:41:38.802381+05:30
Haridwar,Uttarakhand,29.9457,78.1642,33.9,57,0.0,968.7,7.25,24.1,72,27.1,26.1,2.8,320.0,132.0,5.9,0,5,7,1,2026-07-03T13:41:38.802389+05:30
Rishikesh,Uttarakhand,30.0869,78.2676,33.5,59,0.0,961.6,6.95,21.6,58,22.8,21.8,1.7,297.0,126.0,3.9,0,5,7,1,2026-07-03T13:41:38.802396+05:30
Nainital,Uttarakhand,29.3919,79.4542,21.5,79,0.2,805.4,7.65,29.2,89,13.9,13.5,0.9,269.0,118.0,1.3,6,5,7,1,2026-07-03T13:41:38.802404+05:30
Mussoorie,Uttarakhand,30.4599,78.0664,20.9,89,0.1,802.9,6.75,29.5,64,18.3,17.2,4.8,250.0,131.0,3.4,6,5,7,1,2026-07-03T13:41:38.802411+05:30
Dharamshala,Himachal Pradesh,32.219,76.3234,26.5,65,0.0,868.4,8.45,32.8,57,15.3,10.4,0.8,243.0,142.0,1.1,7,5,7,1,2026-07-03T13:41:38.802419+05:30
Dalhousie,Himachal Pradesh,32.5387,75.971,20.7,93,0.1,804.8,8.7,29.5,100,34.2,21.3,1.7,286.0,180.0,3.2,6,5,7,1,2026-07-03T13:41:38.802427+05:30
Patiala,Punjab,30.3398,76.3869,34.2,58,0.0,972.9,7.6,27.4,93,39.9,33.8,1.9,351.0,166.0,8.9,0,5,7,1,2026-07-03T13:41:38.802434+05:30
Bhatinda,Punjab,30.211,74.9455,36.1,51,0.0,978.2,8.25,32.0,152,99.4,37.6,2.9,302.0,200.0,17.9,0,5,10,1,2026-07-03T13:41:38.802441+05:30
Rohtak,Haryana,28.8955,76.6066,34.1,55,0.0,975.5,6.65,23.8,156,169.5,39.6,5.5,355.0,216.0,21.2,0,5,7,1,2026-07-03T13:41:38.802448+05:30
Panipat,Haryana,29.3909,76.9635,33.0,61,0.0,974.5,6.85,26.6,494,130.9,34.7,4.2,279.0,186.0,16.9,3,5,7,1,2026-07-03T13:41:38.802455+05:30
Mathura,Uttar Pradesh,27.4924,77.6737,35.3,50,0.0,980.2,6.9,19.8,151,15.3,12.4,2.8,312.0,165.0,4.3,0,5,10,1,2026-07-03T13:41:38.802483+05:30
Vrindavan,Uttar Pradesh,27.5823,77.7027,35.3,51,0.0,980.6,6.75,20.5,151,15.3,12.4,2.8,310.0,165.0,4.3,0,5,10,1,2026-07-03T13:41:38.802492+05:30
Ayodhya,Uttar Pradesh,26.7922,82.1998,33.3,66,0.0,988.2,7.65,28.4,94,22.7,22.4,1.4,297.0,157.0,5.9,3,5,7,1,2026-07-03T13:41:38.802500+05:30
Ratlam,Madhya Pradesh,23.3315,75.0367,32.2,60,0.0,949.4,1.45,43.6,59,25.3,14.1,1.4,159.0,89.0,3.8,0,5,3,1,2026-07-03T13:41:38.802507+05:30
Sagar,Madhya Pradesh,23.8388,78.7378,27.7,80,0.1,943.6,7.65,34.2,47,9.4,7.1,1.9,193.0,122.0,4.3,10,5,7,1,2026-07-03T13:41:38.802514+05:30
Satna,Madhya Pradesh,24.6005,80.8322,32.7,63,0.0,963.9,8.2,28.4,71,19.4,19.1,1.3,260.0,147.0,6.8,3,5,7,1,2026-07-03T13:41:38.802520+05:30
Akola,Maharashtra,20.7002,77.0082,27.8,79,0.0,969.8,3.5,41.4,21,6.0,5.0,3.5,132.0,78.0,8.5,7,5,3,1,2026-07-03T13:41:38.802528+05:30
Amravati,Maharashtra,20.9374,77.7796,26.5,87,0.1,961.3,4.55,44.6,21,5.7,4.9,4.3,166.0,75.0,9.2,10,5,3,1,2026-07-03T13:41:38.802536+05:30
Latur,Maharashtra,18.4088,76.5604,25.8,82,0.0,936.0,1.0,52.2,21,5.2,3.6,2.4,119.0,57.0,1.8,7,5,3,1,2026-07-03T13:41:38.802543+05:30
Nanded,Maharashtra,19.1383,77.3091,26.4,90,0.2,963.8,0.7,43.6,26,10.2,7.4,2.9,159.0,67.0,3.6,10,5,3,1,2026-07-03T13:41:38.802551+05:30
Gulbarga,Karnataka,17.3297,76.8343,28.1,67,0.0,955.8,6.5,54.7,21,9.2,5.5,2.5,140.0,63.0,2.4,7,5,7,1,2026-07-03T13:41:38.802557+05:30
Bidar,Karnataka,17.9104,77.5199,25.8,80,0.0,931.7,2.3,60.8,20,4.2,3.5,3.2,138.0,61.0,1.9,7,5,3,1,2026-07-03T13:41:38.802563+05:30
Hospet,Karnataka,15.2689,76.3909,29.6,57,0.1,954.3,8.15,62.3,25,11.6,5.2,1.0,101.0,68.0,1.3,7,5,7,1,2026-07-03T13:41:38.802570+05:30
Tirupur,Tamil Nadu,11.1085,77.3411,32.3,51,0.0,974.6,8.0,62.6,34,6.7,4.7,1.7,124.0,81.0,2.0,0,5,7,1,2026-07-03T13:41:38.802577+05:30
Alappuzha,Kerala,9.4981,76.3388,28.1,78,0.1,1011.0,8.45,40.0,38,18.6,9.6,2.0,87.0,59.0,1.4,10,0,4,1,2026-07-03T13:41:38.802584+05:30
Munnar,Kerala,10.0889,77.0595,17.5,96,0.5,857.7,0.7,45.7,21,5.6,3.5,2.7,106.0,55.0,1.0,6,10,3,1,2026-07-03T13:41:38.802591+05:30
Silchar,Assam,24.8333,92.7789,34.4,63,0.0,996.6,8.45,18.7,73,11.4,11.2,1.2,164.0,114.0,2.3,3,5,7,1,2026-07-03T13:41:38.802598+05:30
Dibrugarh,Assam,27.4728,94.912,34.5,64,0.0,987.3,8.85,32.8,54,7.6,7.5,1.0,179.0,126.0,1.3,3,5,7,1,2026-07-03T13:41:38.802605+05:30
