city,state,latitude,longitude,temp,humidity,rain,pressure,uv_index,wind_gusts,aqi,pm10,pm2_5,mosquito_risk,arthritis_risk,migraine_risk,frizz_risk,updated_at
Delhi,Delhi,28.6139,77.209,28.7,36,0.0,986.1,6.45,28.4,155,461.0,64.3,4,5,7,0,2026-03-22T16:01:31.809271+05:30
Mumbai,Maharashtra,19.076,72.8777,28.6,65,0.0,1008.3,7.9,28.4,102,51.2,40.4,7,0,4,1,2026-03-22T16:01:31.809314+05:30
Bangalore,Karnataka,12.9716,77.5946,29.9,41,0.0,912.0,9.45,25.2,106,45.3,32.0,4,5,7,0,2026-03-22T16:01:31.809329+05:30
Hyderabad,Telangana,17.385,78.4867,32.5,35,0.0,953.6,8.9,26.6,98,48.7,30.6,0,5,7,0,2026-03-22T16:01:31.809339+05:30
Chennai,Tamil Nadu,13.0827,80.2707,31.8,56,0.0,1007.9,9.2,32.4,40,13.6,8.6,0,5,4,1,2026-03-22T16:01:31.809347+05:30
Kolkata,West Bengal,22.5726,88.3639,27.1,54,0.0,1008.6,8.25,16.6,118,38.2,33.2,4,0,4,1,2026-03-22T16:01:31.809356+05:30
Pune,Maharashtra,18.5204,73.8567,35.6,19,0.0,948.5,8.45,29.5,80,20.5,10.9,0,5,10,0,2026-03-22T16:01:31.809366+05:30
Ahmedabad,Gujarat,23.0225,72.5714,35.6,25,0.0,1003.4,7.55,22.7,76,40.2,14.5,0,5,7,0,2026-03-22T16:01:31.809373+05:30
Jaipur,Rajasthan,26.9124,75.7873,30.4,26,0.0,962.4,7.2,29.9,88,141.6,25.0,0,5,7,0,2026-03-22T16:01:31.809380+05:30
Lucknow,Uttar Pradesh,26.8467,80.9462,29.2,35,0.0,996.6,6.95,26.6,111,89.9,27.9,4,5,7,0,2026-03-22T16:01:31.809387+05:30
Kanpur,Uttar Pradesh,26.4499,80.3319,28.5,39,0.0,995.1,7.0,27.7,127,357.6,51.1,4,5,7,0,2026-03-22T16:01:31.809393+05:30
Chandigarh,Chandigarh,30.7333,76.7794,25.6,44,0.0,971.7,6.35,33.1,86,31.5,26.7,4,5,7,0,2026-03-22T16:01:31.809399+05:30
Srinagar,Jammu and Kashmir,34.0837,74.7973,17.3,35,0.0,842.2,7.5,14.0,119,18.0,9.7,0,5,7,0,2026-03-22T16:01:31.809405+05:30
Jammu,Jammu and Kashmir,32.7266,74.857,26.6,40,0.0,975.4,6.85,22.0,99,25.3,19.7,4,5,7,0,2026-03-22T16:01:31.809411+05:30
Amritsar,Punjab,31.634,74.8723,26.1,45,0.0,984.2,7.0,20.5,157,49.7,27.8,4,5,7,0,2026-03-22T16:01:31.809416+05:30
Ludhiana,Punjab,30.901,75.8573,25.5,45,0.0,982.2,6.6,26.6,133,59.1,33.6,4,5,7,0,2026-03-22T16:01:31.809422+05:30
Jalandhar,Punjab,31.326,75.5762,25.6,47,0.0,983.3,6.75,21.6,151,75.7,33.4,4,5,7,0,2026-03-22T16:01:31.809428+05:30
Dehradun,Uttarakhand,30.6284,78.0322,15.5,70,0.0,830.4,6.8,24.1,81,18.5,12.4,3,5,7,0,2026-03-22T16:01:31.809434+05:30
Shimla,Himachal Pradesh,31.1048,77.1734,13.4,66,0.0,784.8,6.85,41.0,72,19.4,13.4,3,5,7,0,2026-03-22T16:01:31.809439+05:30
Manali,Himachal Pradesh,32.2396,77.1887,18.4,35,0.0,819.5,8.85,33.8,122,15.4,7.2,0,5,7,0,2026-03-22T16:01:31.809444+05:30
Gurgaon,Haryana,28.4595,77.0266,28.5,38,0.0,984.6,6.55,23.8,414,1534.8,151.8,4,5,7,0,2026-03-22T16:01:31.809450+05:30
Noida,Uttar Pradesh,28.5355,77.391,28.9,37,0.0,987.6,6.45,27.7,414,1534.8,151.8,4,5,7,0,2026-03-22T16:01:31.809455+05:30
Ghaziabad,Uttar Pradesh,28.6692,77.4538,28.3,39,0.0,985.7,6.45,28.1,149,339.0,54.6,4,5,7,0,2026-03-22T16:01:31.809461+05:30
Faridabad,Haryana,28.4089,77.3178,28.6,37,0.0,987.0,6.5,24.8,414,1534.8,151.8,4,5,7,0,2026-03-22T16:01:31.809466+05:30
Meerut,Uttar Pradesh,28.9845,77.7064,28.1,38,0.0,984.4,6.3,31.7,149,339.0,54.6,4,5,7,0,2026-03-22T16:01:31.809471+05:30
Agra,Uttar Pradesh,27.1767,78.0081,31.1,27,0.0,990.6,6.65,29.9,552,793.5,78.0,0,5,7,0,2026-03-22T16:01:31.809477+05:30
Varanasi,Uttar Pradesh,25.3176,82.9739,28.1,42,0.0,1000.9,7.1,28.4,101,20.4,17.3,4,5,4,0,2026-03-22T16:01:31.809484+05:30
Prayagraj,Uttar Pradesh,25.4358,81.8463,28.4,40,0.0,999.5,7.5,24.8,118,22.1,17.5,4,5,7,0,2026-03-22T16:01:31.809490+05:30
Gorakhpur,Uttar Pradesh,26.7606,83.3732,26.4,50,0.0,1000.6,7.25,11.2,160,30.0,25.4,4,5,4,0,2026-03-22T16:01:31.809495+05:30
Bareilly,Uttar Pradesh,28.367,79.4304,28.0,37,0.0,989.6,6.65,29.5,111,36.6,27.1,4,5,7,0,2026-03-22T16:01:31.809500+05:30
Aligarh,Uttar Pradesh,27.8974,78.088,29.3,35,0.0,988.6,6.6,27.7,242,976.0,109.9,4,5,7,0,2026-03-22T16:01:31.809506+05:30
Moradabad,Uttar Pradesh,28.8386,78.7733,27.8,38,0.0,986.4,6.5,30.6,147,45.1,29.6,4,5,7,0,2026-03-22T16:01:31.809511+05:30
Saharanpur,Uttar Pradesh,29.9637,77.546,27.3,36,0.0,978.2,6.15,34.2,150,131.3,33.6,4,5,7,0,2026-03-22T16:01:31.809518+05:30
Jhansi,Uttar Pradesh,25.4484,78.5685,30.3,32,0.0,981.0,7.45,32.4,78,64.7,17.5,0,5,7,0,2026-03-22T16:01:35.071978+05:30
Surat,Gujarat,21.1702,72.8311,33.5,35,0.0,1007.8,7.65,24.5,100,49.5,26.3,0,5,4,0,2026-03-22T16:01:35.072006+05:30
Vadodara,Gujarat,22.3072,73.1812,36.9,22,0.0,1005.3,7.8,20.2,73,35.6,14.5,0,5,7,0,2026-03-22T16:01:35.072016+05:30
Rajkot,Gujarat,22.3039,70.8022,34.9,31,0.0,996.0,7.6,28.8,64,60.3,19.0,0,5,7,0,2026-03-22T16:01:35.072025+05:30
Thane,Maharashtra,19.2183,72.9781,32.0,46,0.0,1008.1,7.85,41.0,102,51.2,40.4,0,0,4,1,2026-03-22T16:01:35.072032+05:30
Nagpur,Maharashtra,21.1458,79.0882,33.2,20,0.0,974.6,8.35,19.4,88,26.8,15.0,0,5,7,0,2026-03-22T16:01:35.072039+05:30
Nashik,Maharashtra,19.9975,73.7898,32.8,24,0.0,946.3,8.05,28.8,62,27.4,10.5,0,5,7,0,2026-03-22T16:01:35.072046+05:30
Aurangabad,Maharashtra,19.8762,75.3433,33.2,24,0.0,944.7,8.6,28.4,90,18.6,12.4,0,5,7,0,2026-03-22T16:01:35.072054+05:30
Solapur,Maharashtra,17.6599,75.9064,35.8,19,0.0,957.1,8.75,24.5,92,37.0,22.8,0,5,10,0,2026-03-22T16:01:35.072061+05:30
Kolhapur,Maharashtra,16.705,74.2433,33.1,27,0.0,947.9,8.85,33.1,90,28.4,15.9,0,5,7,0,2026-03-22T16:01:35.072068+05:30
Goa,Goa,15.2993,74.124,31.4,61,0.0,997.3,8.85,35.3,106,34.2,22.6,3,5,7,1,2026-03-22T16:01:35.072076+05:30
Jodhpur,Rajasthan,26.2389,73.0243,31.4,34,0.0,985.6,7.55,39.2,69,94.5,20.5,0,5,7,0,2026-03-22T16:01:35.072083+05:30
Udaipur,Rajasthan,24.5854,73.7125,30.8,25,0.0,948.5,8.15,26.6,59,33.9,10.7,0,5,7,0,2026-03-22T16:01:35.072090+05:30
Kota,Rajasthan,25.2138,75.8648,33.8,19,0.0,980.7,7.45,12.6,84,45.5,27.2,0,5,7,0,2026-03-22T16:01:35.072097+05:30
Bikaner,Rajasthan,28.0229,73.3119,28.8,42,0.0,985.0,7.2,22.3,66,88.2,21.4,4,5,7,0,2026-03-22T16:01:35.072104+05:30
Ajmer,Rajasthan,26.4499,74.6399,29.9,29,0.0,956.8,7.5,25.9,70,37.5,12.5,4,5,7,0,2026-03-22T16:01:35.072111+05:30
Gwalior,Madhya Pradesh,26.2183,78.1828,30.2,34,0.0,986.5,7.15,29.9,141,60.1,17.2,0,5,7,0,2026-03-22T16:01:35.072118+05:30
Indore,Madhya Pradesh,22.7196,75.8577,31.2,25,0.0,950.1,8.05,17.6,70,27.5,13.2,0,5,7,0,2026-03-22T16:01:35.072125+05:30
Bhopal,Madhya Pradesh,23.2599,77.4126,31.4,22,0.0,955.7,7.95,25.9,75,27.2,11.3,0,5,7,0,2026-03-22T16:01:35.072132+05:30
Jabalpur,Madhya Pradesh,23.1815,79.9864,30.2,28,0.0,963.9,8.05,29.9,73,52.9,15.0,0,5,7,0,2026-03-22T16:01:35.072138+05:30
Ujjain,Madhya Pradesh,23.1765,75.7885,31.0,29,0.0,955.9,8.0,13.3,66,28.9,13.2,0,5,7,0,2026-03-22T16:01:35.072146+05:30
Visakhapatnam,Andhra Pradesh,17.6868,83.2185,29.6,65,0.0,1005.0,8.85,36.7,80,24.5,18.6,7,5,4,1,2026-03-22T16:01:35.072153+05:30
Vijayawada,Andhra Pradesh,16.5062,80.648,32.4,50,0.0,1003.2,8.9,18.7,65,41.9,25.4,0,5,4,1,2026-03-22T16:01:35.072161+05:30
Guntur,Andhra Pradesh,16.3067,80.4365,32.2,54,0.0,1004.4,8.9,19.4,68,34.8,20.9,0,5,4,1,2026-03-22T16:01:35.072168+05:30
Nellore,Andhra Pradesh,14.4426,79.9865,33.0,50,0.0,1006.1,9.05,27.7,51,21.7,13.9,0,5,4,1,2026-03-22T16:01:35.072175+05:30
Kurnool,Andhra Pradesh,15.8281,78.0373,36.2,29,0.0,976.1,8.95,20.2,76,33.1,22.4,0,5,10,0,2026-03-22T16:01:35.072183+05:30
Kakinada,Andhra Pradesh,16.9891,82.2475,30.5,63,0.0,1008.7,8.3,28.8,39,19.2,11.8,3,0,4,1,2026-03-22T16:01:35.072190+05:30
Tirupati,Andhra Pradesh,13.6288,79.4192,33.7,38,0.0,991.3,9.2,28.4,73,29.9,19.8,0,5,7,1,2026-03-22T16:01:35.072196+05:30
Warangal,Telangana,17.9689,79.5941,32.7,42,0.0,979.4,8.75,21.2,114,48.7,32.4,0,5,7,1,2026-03-22T16:01:35.072203+05:30
Nizamabad,Telangana,18.6725,78.0941,33.7,32,0.0,965.1,8.65,27.4,96,31.9,21.7,0,5,7,0,2026-03-22T16:01:35.072209+05:30
Mysore,Karnataka,12.2958,76.6396,33.1,34,0.0,927.9,9.4,37.4,104,39.3,28.0,0,5,7,0,2026-03-22T16:01:35.072217+05:30
Mangalore,Karnataka,12.9141,74.856,29.4,73,0.0,1005.7,9.05,28.4,81,37.1,20.1,7,5,4,1,2026-03-22T16:01:35.072223+05:30
Hubli-Dharwad,Karnataka,15.3647,75.124,34.2,25,0.0,940.4,9.05,26.3,99,24.1,13.9,0,5,7,0,2026-03-22T16:01:35.072231+05:30
Belgaum,Karnataka,15.8497,74.4977,33.0,25,0.0,925.9,9.1,35.3,100,25.8,15.9,0,5,7,0,2026-03-22T16:01:38.327065+05:30
Coimbatore,Tamil Nadu,11.0168,76.9558,34.2,31,0.0,960.8,9.4,33.5,91,32.7,22.6,0,5,7,0,2026-03-22T16:01:38.327093+05:30
Madurai,Tamil Nadu,9.9252,78.1198,35.8,34,0.0,991.7,9.35,29.5,64,23.2,14.0,0,5,10,1,2026-03-22T16:01:38.327103+05:30
Trichy,Tamil Nadu,10.7905,78.7047,35.2,39,0.0,998.9,9.25,23.8,70,25.1,17.2,0,5,10,1,2026-03-22T16:01:38.327110+05:30
Salem,Tamil Nadu,11.6643,78.146,34.6,37,0.0,976.8,9.3,21.2,82,38.9,26.9,0,5,7,1,2026-03-22T16:01:38.327117+05:30
Tirunelveli,Tamil Nadu,8.7139,77.7567,35.8,37,0.0,1001.9,9.3,33.1,66,17.7,11.6,0,5,7,1,2026-03-22T16:01:38.327124+05:30
Vellore,Tamil Nadu,12.9165,79.1325,34.2,36,0.0,984.2,9.25,34.9,96,29.1,19.6,0,5,7,1,2026-03-22T16:01:38.327131+05:30
Erode,Tamil Nadu,11.341,77.7172,35.5,35,0.0,988.0,9.3,32.8,60,26.2,17.6,0,5,10,1,2026-03-22T16:01:38.327138+05:30
Kochi,Kerala,9.9312,76.2673,29.5,73,0.0,1007.2,9.15,34.9,97,23.1,18.2,7,5,4,1,2026-03-22T16:01:38.327145+05:30
Thiruvananthapuram,Kerala,8.5241,76.9366,29.2,75,0.0,1006.9,9.15,26.3,111,16.8,14.1,7,5,4,1,2026-03-22T16:01:38.327152+05:30
Kozhikode,Kerala,11.2588,75.7804,30.3,73,0.0,1006.8,9.05,31.0,65,29.3,18.5,3,5,4,1,2026-03-22T16:01:38.327158+05:30
Thrissur,Kerala,10.5276,76.2144,32.9,57,0.0,1005.7,9.15,38.2,73,30.0,21.7,0,5,4,1,2026-03-22T16:01:38.327164+05:30
Kannur,Kerala,11.8745,75.3704,31.3,66,0.0,1006.2,9.1,34.9,67,33.9,19.4,3,5,4,1,2026-03-22T16:01:38.327170+05:30
Patna,Bihar,25.5941,85.1376,26.5,45,0.0,1004.0,7.7,19.1,161,38.8,33.6,4,5,4,0,2026-03-22T16:01:38.327175+05:30
Gaya,Bihar,24.7914,85.0002,25.5,57,0.0,997.3,7.8,21.6,144,40.2,23.2,4,5,7,1,2026-03-22T16:01:38.327180+05:30
Muzaffarpur,Bihar,26.1209,85.3647,25.6,52,0.0,1004.1,7.0,11.5,164,41.7,35.3,4,5,4,0,2026-03-22T16:01:38.327185+05:30
Bhagalpur,Bihar,25.2425,87.0117,24.8,57,0.0,1004.8,7.05,17.3,155,45.4,37.7,0,5,4,0,2026-03-22T16:01:38.327191+05:30
Ranchi,Jharkhand,23.3441,85.3096,24.6,37,0.0,939.5,8.45,29.5,101,53.1,15.5,0,5,7,0,2026-03-22T16:01:38.327196+05:30
Jamshedpur,Jharkhand,22.8046,86.2029,28.7,35,0.0,993.2,8.35,19.1,120,44.9,15.8,4,5,7,0,2026-03-22T16:01:38.327201+05:30
Dhanbad,Jharkhand,23.7957,86.4304,26.5,40,0.0,982.5,8.2,23.8,139,43.3,21.3,4,5,7,0,2026-03-22T16:01:38.327206+05:30
Bokaro,Jharkhand,23.6693,86.1511,26.6,39,0.0,986.4,8.25,24.5,140,51.9,20.8,4,5,7,0,2026-03-22T16:01:38.327212+05:30
Bhubaneswar,Odisha,20.2961,85.8245,32.9,35,0.0,1003.4,8.65,28.4,110,43.5,36.6,0,5,4,0,2026-03-22T16:01:38.327218+05:30
Cuttack,Odisha,20.4625,85.8828,32.4,36,0.0,1005.2,8.65,20.9,110,43.5,36.6,0,5,4,0,2026-03-22T16:01:38.327223+05:30
Rourkela,Odisha,22.2604,84.8536,29.3,36,0.0,987.2,8.25,20.5,98,32.2,16.4,4,5,7,0,2026-03-22T16:01:38.327228+05:30
Raipur,Chhattisgarh,21.2514,81.6296,32.6,23,0.0,976.1,8.4,23.0,82,31.1,18.5,0,5,7,0,2026-03-22T16:01:38.327234+05:30
Bhilai,Chhattisgarh,21.1938,81.3509,33.0,23,0.0,976.3,8.4,16.9,69,29.0,16.5,0,5,7,0,2026-03-22T16:01:38.327239+05:30
Guwahati,Assam,26.1158,91.7086,25.5,62,0.0,1003.3,7.6,20.5,88,26.6,22.1,7,5,4,1,2026-03-22T16:01:38.327244+05:30
Agartala,Tripura,23.8315,91.2868,27.1,48,0.0,1008.1,7.85,22.0,138,44.6,36.8,4,0,4,0,2026-03-22T16:01:38.327249+05:30
Shillong,Meghalaya,25.5788,91.8933,14.2,69,0.0,855.5,6.7,24.8,75,17.9,15.8,3,5,7,0,2026-03-22T16:01:38.327269+05:30
Imphal,Manipur,24.817,93.9368,17.9,73,0.0,923.3,8.15,51.5,70,6.2,5.6,3,5,7,0,2026-03-22T16:01:38.327275+05:30
Aizawl,Mizoram,23.7271,92.7176,19.3,67,0.0,893.6,8.2,44.6,64,11.3,10.2,3,5,7,0,2026-03-22T16:01:38.327281+05:30
Kohima,Nagaland,25.6701,94.1077,13.7,92,0.0,853.9,7.8,56.9,63,5.5,5.0,3,10,7,0,2026-03-22T16:01:38.327287+05:30
Gangtok,Sikkim,27.3314,88.6138,14.2,75,0.0,836.7,7.85,19.4,94,15.0,13.7,3,5,7,0,2026-03-22T16:01:38.327293+05:30
Siliguri,West Bengal,26.7271,88.3953,20.6,64,0.0,996.3,7.25,17.3,114,17.5,16.1,3,5,7,0,2026-03-22T16:01:41.590003+05:30
Durgapur,West Bengal,23.5204,87.3119,27.2,43,0.0,997.8,7.95,18.4,118,35.6,27.2,4,5,7,0,2026-03-22T16:01:41.590033+05:30
Asansol,West Bengal,23.6739,86.9524,26.9,43,0.0,996.4,8.2,20.5,116,37.6,24.2,4,5,7,0,2026-03-22T16:01:41.590043+05:30
Pondicherry,Puducherry,11.9139,79.8145,33.0,51,0.0,1008.4,9.15,28.8,39,11.8,6.6,0,0,4,1,2026-03-22T16:01:41.590051+05:30
Port Blair,Andaman and Nicobar Islands,11.6234,92.7265,28.6,78,0.0,1007.5,9.1,20.9,45,14.9,11.4,7,5,4,1,2026-03-22T16:01:41.590060+05:30
Haridwar,Uttarakhand,29.9457,78.1642,27.3,40,0.0,976.6,6.25,25.9,98,44.5,27.8,4,5,7,0,2026-03-22T16:01:41.590068+05:30
Rishikesh,Uttarakhand,30.0869,78.2676,25.5,48,0.0,969.4,6.35,25.6,86,27.4,22.4,4,5,7,0,2026-03-22T16:01:41.590076+05:30
Nainital,Uttarakhand,29.3919,79.4542,17.4,62,0.0,806.8,7.1,37.8,99,33.8,26.2,3,5,7,0,2026-03-22T16:01:41.590084+05:30
Mussoorie,Uttarakhand,30.4599,78.0664,16.0,67,0.0,803.2,6.65,25.9,96,31.4,26.5,3,5,7,0,2026-03-22T16:01:41.590092+05:30
Dharamshala,Himachal Pradesh,32.219,76.3234,18.2,70,0.0,870.1,6.55,20.9,114,22.9,14.7,3,5,7,0,2026-03-22T16:01:41.590099+05:30
Dalhousie,Himachal Pradesh,32.5387,75.971,16.7,61,0.0,804.7,6.85,19.1,87,29.5,24.6,3,5,7,0,2026-03-22T16:01:41.590107+05:30
Patiala,Punjab,30.3398,76.3869,26.8,41,0.0,981.3,6.25,31.3,147,691.0,84.3,4,5,7,0,2026-03-22T16:01:41.590114+05:30
Bhatinda,Punjab,30.211,74.9455,27.4,42,0.0,987.2,6.8,19.4,154,81.0,34.8,4,5,7,0,2026-03-22T16:01:41.590121+05:30
Rohtak,Haryana,28.8955,76.6066,28.2,39,0.0,985.0,6.45,24.8,165,624.0,72.6,4,5,7,0,2026-03-22T16:01:41.590128+05:30
Panipat,Haryana,29.3909,76.9635,27.8,39,0.0,983.5,6.25,29.5,264,1315.0,129.9,4,5,7,0,2026-03-22T16:01:41.590135+05:30
Mathura,Uttar Pradesh,27.4924,77.6737,30.0,34,0.0,989.9,6.15,28.1,464,800.9,79.9,4,5,7,0,2026-03-22T16:01:41.590142+05:30
Vrindavan,Uttar Pradesh,27.5823,77.7027,29.7,34,0.0,990.3,6.65,28.1,464,800.9,79.9,4,5,7,0,2026-03-22T16:01:41.590149+05:30
Ayodhya,Uttar Pradesh,26.7922,82.1998,28.1,42,0.0,998.4,7.05,18.7,104,17.8,15.0,4,5,7,0,2026-03-22T16:01:41.590156+05:30
Ratlam,Madhya Pradesh,23.3315,75.0367,31.6,28,0.0,956.6,7.95,14.4,62,28.2,12.1,0,5,7,0,2026-03-22T16:01:41.590163+05:30
Sagar,Madhya Pradesh,23.8388,78.7378,29.8,28,0.0,952.7,7.95,29.9,82,48.5,14.9,4,5,7,0,2026-03-22T16:01:41.590170+05:30
Satna,Madhya Pradesh,24.6005,80.8322,28.8,30,0.0,974.5,7.9,32.4,86,74.0,19.8,4,5,7,0,2026-03-22T16:01:41.590176+05:30
Akola,Maharashtra,20.7002,77.0082,33.9,23,0.0,976.2,8.3,21.2,78,17.8,11.8,0,5,7,0,2026-03-22T16:01:41.590184+05:30
Amravati,Maharashtra,20.9374,77.7796,34.0,21,0.0,968.4,8.3,22.3,80,16.2,10.1,0,5,7,0,2026-03-22T16:01:41.590192+05:30
Latur,Maharashtra,18.4088,76.5604,33.4,22,0.0,940.3,8.7,28.8,81,30.0,18.0,0,5,7,0,2026-03-22T16:01:41.590199+05:30
Nanded,Maharashtra,19.1383,77.3091,35.7,20,0.0,968.7,8.5,28.4,85,14.7,9.8,0,5,10,0,2026-03-22T16:01:41.590206+05:30
Gulbarga,Karnataka,17.3297,76.8343,36.0,23,0.0,958.2,8.75,18.4,96,35.6,25.1,0,5,10,0,2026-03-22T16:01:41.590213+05:30
Bidar,Karnataka,17.9104,77.5199,34.2,24,0.0,935.8,8.75,20.5,92,49.6,31.4,0,5,7,0,2026-03-22T16:01:41.590219+05:30
Hospet,Karnataka,15.2689,76.3909,35.2,24,0.0,955.4,9.0,15.1,103,28.3,16.1,0,5,10,0,2026-03-22T16:01:41.590226+05:30
Tirupur,Tamil Nadu,11.1085,77.3411,35.6,30,0.0,974.2,9.4,31.0,76,29.2,19.8,0,5,10,0,2026-03-22T16:01:41.590232+05:30
Alappuzha,Kerala,9.4981,76.3388,29.5,75,0.0,1007.3,9.1,33.5,99,23.6,18.1,7,5,4,1,2026-03-22T16:01:41.590239+05:30
Munnar,Kerala,10.0889,77.0595,29.3,43,0.0,858.6,8.65,26.6,69,31.9,18.2,4,5,7,0,2026-03-22T16:01:41.590246+05:30
Silchar,Assam,24.8333,92.7789,24.2,73,0.0,1007.3,7.95,22.7,89,22.0,18.9,3,5,4,1,2026-03-22T16:01:41.590253+05:30
Dibrugarh,Assam,27.4728,94.912,21.5,84,0.0,997.7,3.55,28.4,122,29.4,24.6,3,5,3,1,2026-03-22T16:01:41.590276+05:30
