city,state,latitude,longitude,temp,humidity,rain,pressure,uv_index,wind_gusts,aqi,pm10,pm2_5,no2,co,o3,so2,mosquito_risk,arthritis_risk,migraine_risk,frizz_risk,updated_at
Delhi,Delhi,28.6139,77.209,28.3,77,0.0,977.8,7.8,27.7,254,489.9,138.3,67.2,793.0,16.0,29.1,7,5,7,1,2026-06-14T23:45:49.525691+05:30
Mumbai,Maharashtra,19.076,72.8777,29.8,74,0.0,1008.3,7.7,49.3,66,32.1,15.5,3.3,137.0,49.0,2.8,7,0,4,1,2026-06-14T23:45:49.525733+05:30
Bangalore,Karnataka,12.9716,77.5946,21.8,90,0.0,912.0,7.85,41.8,46,11.2,9.2,16.8,337.0,38.0,5.2,3,5,7,1,2026-06-14T23:45:49.525750+05:30
Hyderabad,Telangana,17.385,78.4867,26.8,67,0.0,950.8,3.85,40.3,84,100.1,57.2,45.3,959.0,24.0,12.6,7,5,3,1,2026-06-14T23:45:49.525759+05:30
Chennai,Tamil Nadu,13.0827,80.2707,29.0,71,0.0,1005.5,8.9,43.6,78,32.5,21.1,10.9,263.0,90.0,7.8,7,5,4,1,2026-06-14T23:45:49.525768+05:30
Kolkata,West Bengal,22.5726,88.3639,27.7,92,0.0,1001.6,9.0,41.4,120,45.3,41.9,15.9,474.0,73.0,9.8,7,5,4,1,2026-06-14T23:45:49.525775+05:30
Pune,Maharashtra,18.5204,73.8567,25.0,83,0.0,948.2,8.3,53.3,55,17.6,10.9,7.8,145.0,43.0,8.4,7,5,7,1,2026-06-14T23:45:49.525782+05:30
Ahmedabad,Gujarat,23.0225,72.5714,31.7,53,0.0,999.6,8.05,46.8,68,35.5,15.7,3.2,121.0,57.0,3.0,0,5,7,1,2026-06-14T23:45:49.525789+05:30
Jaipur,Rajasthan,26.9124,75.7873,27.0,70,0.0,955.9,8.2,36.7,132,107.8,46.3,10.1,256.0,61.0,5.6,7,5,7,1,2026-06-14T23:45:49.525800+05:30
Lucknow,Uttar Pradesh,26.8467,80.9462,29.1,73,0.0,988.7,8.35,30.2,158,351.1,105.0,27.6,391.0,52.0,11.8,7,5,7,1,2026-06-14T23:45:49.525807+05:30
Kanpur,Uttar Pradesh,26.4499,80.3319,33.0,44,0.0,987.0,8.3,34.9,225,476.8,114.6,36.9,528.0,41.0,11.8,0,5,7,1,2026-06-14T23:45:49.525813+05:30
Chandigarh,Chandigarh,30.7333,76.7794,25.5,66,0.0,963.2,7.8,21.6,87,52.3,43.5,41.5,512.0,53.0,14.8,7,5,7,1,2026-06-14T23:45:49.525820+05:30
Srinagar,Jammu and Kashmir,34.0837,74.7973,16.5,83,0.0,838.6,9.0,18.0,70,46.3,42.1,32.2,712.0,31.0,2.5,3,10,7,0,2026-06-14T23:45:49.525829+05:30
Jammu,Jammu and Kashmir,32.7266,74.857,28.0,45,0.0,967.1,8.6,26.3,76,45.1,39.5,49.0,432.0,26.0,5.8,4,5,7,0,2026-06-14T23:45:49.525836+05:30
Amritsar,Punjab,31.634,74.8723,28.1,68,0.0,975.0,8.4,19.1,102,92.2,77.5,74.5,805.0,27.0,13.3,7,5,7,1,2026-06-14T23:45:49.525842+05:30
Ludhiana,Punjab,30.901,75.8573,28.1,69,0.0,973.0,8.05,18.4,109,117.1,68.7,53.3,726.0,24.0,9.5,7,5,7,1,2026-06-14T23:45:49.525848+05:30
Jalandhar,Punjab,31.326,75.5762,27.9,72,0.0,974.0,8.2,22.3,98,59.8,48.1,40.0,793.0,43.0,6.9,7,5,7,1,2026-06-14T23:45:49.525855+05:30
Dehradun,Uttarakhand,30.6284,78.0322,14.8,88,0.0,825.9,8.3,32.8,48,19.4,12.2,19.8,232.0,56.0,0.7,3,10,7,0,2026-06-14T23:45:49.525861+05:30
Shimla,Himachal Pradesh,31.1048,77.1734,12.5,80,0.0,779.9,8.35,33.8,75,31.8,26.7,22.3,287.0,50.0,0.1,3,5,7,0,2026-06-14T23:45:49.525870+05:30
Manali,Himachal Pradesh,32.2396,77.1887,13.2,78,0.0,814.0,10.0,42.5,58,4.2,3.8,32.1,256.0,78.0,0.0,3,5,7,0,2026-06-14T23:45:49.525876+05:30
Gurgaon,Haryana,28.4595,77.0266,28.6,66,0.0,976.3,7.85,29.5,413,245.9,93.6,47.0,973.0,32.0,19.9,7,5,7,1,2026-06-14T23:45:49.525884+05:30
Noida,Uttar Pradesh,28.5355,77.391,28.8,68,0.0,979.4,7.85,26.3,413,245.9,93.6,47.0,1368.0,32.0,19.9,7,5,7,1,2026-06-14T23:45:49.525891+05:30
Ghaziabad,Uttar Pradesh,28.6692,77.4538,28.0,73,0.0,977.5,7.8,25.9,197,444.2,132.2,48.1,678.0,35.0,20.0,7,5,7,1,2026-06-14T23:45:49.525897+05:30
Faridabad,Haryana,28.4089,77.3178,29.0,68,0.0,978.7,7.85,31.0,413,245.9,93.6,47.0,1215.0,32.0,19.9,7,5,7,1,2026-06-14T23:45:49.525904+05:30
Meerut,Uttar Pradesh,28.9845,77.7064,27.9,68,0.0,976.2,7.7,30.6,197,444.2,132.2,48.1,519.0,35.0,20.0,7,5,7,1,2026-06-14T23:45:49.525911+05:30
Agra,Uttar Pradesh,27.1767,78.0081,30.8,46,0.0,983.3,8.15,32.8,317,855.0,132.2,18.0,196.0,53.0,5.8,0,5,7,1,2026-06-14T23:45:49.525918+05:30
Varanasi,Uttar Pradesh,25.3176,82.9739,31.5,56,0.0,992.8,8.8,37.1,166,162.5,82.7,42.8,652.0,56.0,20.7,0,5,7,1,2026-06-14T23:45:49.525927+05:30
Prayagraj,Uttar Pradesh,25.4358,81.8463,32.2,51,0.0,991.3,8.7,35.3,163,197.9,95.7,57.9,802.0,30.0,22.7,0,5,7,1,2026-06-14T23:45:49.525934+05:30
Gorakhpur,Uttar Pradesh,26.7606,83.3732,28.2,74,0.0,992.3,8.7,29.2,152,104.8,83.4,58.4,514.0,29.0,21.2,7,5,7,1,2026-06-14T23:45:49.525943+05:30
Bareilly,Uttar Pradesh,28.367,79.4304,27.3,74,0.0,981.8,8.15,35.3,158,174.2,78.9,29.4,359.0,59.0,13.6,7,5,7,1,2026-06-14T23:45:49.525949+05:30
Aligarh,Uttar Pradesh,27.8974,78.088,28.9,63,0.0,980.6,8.0,36.7,374,287.8,100.8,27.3,410.0,60.0,11.8,7,5,7,1,2026-06-14T23:45:49.525955+05:30
Moradabad,Uttar Pradesh,28.8386,78.7733,27.6,76,0.0,978.6,7.95,38.5,162,262.6,126.7,63.9,542.0,17.0,18.5,7,5,7,1,2026-06-14T23:45:49.525962+05:30
Saharanpur,Uttar Pradesh,29.9637,77.546,26.5,72,0.0,970.3,7.55,27.7,152,112.5,70.1,45.2,687.0,35.0,15.7,7,5,7,1,2026-06-14T23:45:49.525969+05:30
Jhansi,Uttar Pradesh,25.4484,78.5685,29.6,54,0.0,974.4,8.5,54.0,90,79.6,34.9,4.0,139.0,69.0,2.2,4,5,7,1,2026-06-14T23:45:52.813520+05:30
Surat,Gujarat,21.1702,72.8311,30.0,80,0.0,1005.1,7.55,57.2,73,34.9,20.1,13.0,233.0,41.0,21.9,7,5,4,1,2026-06-14T23:45:52.813551+05:30
Vadodara,Gujarat,22.3072,73.1812,31.1,69,0.0,1002.0,8.0,49.3,76,33.2,23.6,19.5,199.0,29.0,17.2,3,5,4,1,2026-06-14T23:45:52.813562+05:30
Rajkot,Gujarat,22.3039,70.8022,29.5,68,0.0,992.5,7.55,57.2,66,36.0,14.6,3.9,101.0,49.0,4.4,7,5,7,1,2026-06-14T23:45:52.813571+05:30
Thane,Maharashtra,19.2183,72.9781,29.4,78,0.0,1007.6,7.65,45.0,66,32.1,15.5,3.3,141.0,49.0,2.8,7,5,4,1,2026-06-14T23:45:52.813579+05:30
Nagpur,Maharashtra,21.1458,79.0882,30.1,59,0.0,970.6,8.9,43.9,109,72.4,39.9,17.8,185.0,56.0,12.2,0,5,7,1,2026-06-14T23:45:52.813587+05:30
Nashik,Maharashtra,19.9975,73.7898,25.2,81,0.0,945.3,8.05,55.4,58,21.7,11.0,2.5,117.0,46.0,1.3,7,5,7,1,2026-06-14T23:45:52.813594+05:30
Aurangabad,Maharashtra,19.8762,75.3433,27.6,58,0.0,944.0,8.95,56.2,59,31.0,16.5,5.0,129.0,50.0,4.6,4,5,7,1,2026-06-14T23:45:52.813602+05:30
Solapur,Maharashtra,17.6599,75.9064,28.4,63,0.0,956.8,8.9,52.2,62,22.1,13.5,4.1,120.0,62.0,3.6,7,5,7,1,2026-06-14T23:45:52.813610+05:30
Kolhapur,Maharashtra,16.705,74.2433,24.1,89,0.0,948.6,8.75,49.3,44,16.2,10.8,6.4,163.0,39.0,2.9,3,5,7,1,2026-06-14T23:45:52.813618+05:30
Goa,Goa,15.2993,74.124,27.2,85,0.0,999.0,6.65,34.6,63,39.9,22.5,6.0,508.0,44.0,2.1,7,5,7,1,2026-06-14T23:45:52.813626+05:30
Jodhpur,Rajasthan,26.2389,73.0243,33.1,46,0.0,978.4,8.45,45.4,160,195.1,47.6,4.8,173.0,55.0,2.6,0,5,7,1,2026-06-14T23:45:52.813634+05:30
Udaipur,Rajasthan,24.5854,73.7125,28.8,57,0.0,944.0,8.85,48.6,76,33.2,18.0,3.9,161.0,60.0,2.5,4,5,7,1,2026-06-14T23:45:52.813642+05:30
Kota,Rajasthan,25.2138,75.8648,27.6,64,0.0,975.3,8.35,41.8,110,79.2,37.4,6.1,295.0,71.0,5.0,7,5,7,1,2026-06-14T23:45:52.813650+05:30
Bikaner,Rajasthan,28.0229,73.3119,33.6,36,0.0,975.8,8.45,35.6,152,244.9,80.6,2.1,149.0,79.0,3.8,0,5,7,1,2026-06-14T23:45:52.813657+05:30
Ajmer,Rajasthan,26.4499,74.6399,28.9,53,0.0,951.0,8.35,39.6,115,100.1,44.8,8.7,175.0,58.0,3.9,4,5,7,1,2026-06-14T23:45:52.813665+05:30
Gwalior,Madhya Pradesh,26.2183,78.1828,29.8,51,0.0,979.2,8.3,50.8,99,85.0,39.0,5.3,137.0,72.0,3.0,4,5,7,1,2026-06-14T23:45:52.813695+05:30
Indore,Madhya Pradesh,22.7196,75.8577,28.4,55,0.0,946.3,8.6,47.9,83,81.3,41.8,9.7,442.0,65.0,7.5,4,5,7,1,2026-06-14T23:45:52.813703+05:30
Bhopal,Madhya Pradesh,23.2599,77.4126,26.9,73,0.0,951.2,8.65,52.6,97,55.1,36.3,14.7,357.0,45.0,4.7,7,5,7,1,2026-06-14T23:45:52.813711+05:30
Jabalpur,Madhya Pradesh,23.1815,79.9864,29.4,58,0.0,958.6,8.75,28.1,92,59.0,34.9,7.4,204.0,75.0,4.0,4,5,7,1,2026-06-14T23:45:52.813718+05:30
Ujjain,Madhya Pradesh,23.1765,75.7885,28.4,54,0.0,951.7,8.55,55.4,81,70.3,34.2,3.7,551.0,85.0,6.1,4,5,7,1,2026-06-14T23:45:52.813727+05:30
Visakhapatnam,Andhra Pradesh,17.6868,83.2185,30.1,78,0.0,999.4,8.95,41.0,108,64.5,47.0,29.8,632.0,54.0,35.4,3,5,7,1,2026-06-14T23:45:52.813735+05:30
Vijayawada,Andhra Pradesh,16.5062,80.648,29.7,68,0.0,999.2,5.7,45.0,92,43.9,34.5,14.7,324.0,53.0,6.7,7,5,3,1,2026-06-14T23:45:52.813742+05:30
Guntur,Andhra Pradesh,16.3067,80.4365,29.4,65,0.0,1000.5,3.25,46.8,87,40.6,31.2,14.9,332.0,52.0,6.5,7,5,0,1,2026-06-14T23:45:52.813749+05:30
Nellore,Andhra Pradesh,14.4426,79.9865,30.2,62,0.0,1003.6,8.45,45.0,69,52.4,34.5,16.3,229.0,65.0,8.2,3,5,4,1,2026-06-14T23:45:52.813758+05:30
Kurnool,Andhra Pradesh,15.8281,78.0373,28.2,59,0.0,975.2,1.45,39.6,73,65.4,36.9,22.4,158.0,47.0,7.5,4,5,3,1,2026-06-14T23:45:52.813767+05:30
Kakinada,Andhra Pradesh,16.9891,82.2475,30.2,69,0.0,1003.4,8.8,46.1,93,56.8,40.5,10.0,459.0,83.0,7.0,3,5,4,1,2026-06-14T23:45:52.813775+05:30
Tirupati,Andhra Pradesh,13.6288,79.4192,27.2,74,0.0,989.8,7.85,37.1,68,40.9,28.0,17.4,464.0,51.0,4.0,7,5,7,1,2026-06-14T23:45:52.813782+05:30
Warangal,Telangana,17.9689,79.5941,28.6,68,0.0,975.4,8.6,41.8,108,97.6,73.3,44.3,278.0,15.0,10.8,7,5,7,1,2026-06-14T23:45:52.813790+05:30
Nizamabad,Telangana,18.6725,78.0941,28.9,56,0.0,962.3,8.9,41.8,84,80.1,39.6,16.9,631.0,44.0,4.4,4,5,7,1,2026-06-14T23:45:52.813797+05:30
Mysore,Karnataka,12.2958,76.6396,21.6,93,0.0,929.3,8.8,40.3,32,10.4,8.6,11.5,176.0,36.0,2.8,3,5,7,1,2026-06-14T23:45:52.813805+05:30
Mangalore,Karnataka,12.9141,74.856,25.9,92,0.0,1008.4,8.2,31.3,53,36.4,27.6,16.2,453.0,20.0,4.9,7,0,4,1,2026-06-14T23:45:52.813812+05:30
Hubli-Dharwad,Karnataka,15.3647,75.124,23.3,91,0.0,941.5,5.45,49.7,42,20.3,10.9,4.8,143.0,42.0,1.8,3,5,3,1,2026-06-14T23:45:52.813820+05:30
Belgaum,Karnataka,15.8497,74.4977,22.2,95,0.0,926.4,6.55,50.0,40,22.6,13.9,7.2,129.0,34.0,1.5,3,5,7,1,2026-06-14T23:45:56.095964+05:30
Coimbatore,Tamil Nadu,11.0168,76.9558,24.1,92,0.0,962.4,8.65,51.5,31,11.2,8.7,8.5,217.0,37.0,3.3,3,5,7,1,2026-06-14T23:45:56.095995+05:30
Madurai,Tamil Nadu,9.9252,78.1198,30.0,65,0.0,993.2,8.8,42.1,60,31.0,24.7,32.0,319.0,16.0,7.2,7,5,7,1,2026-06-14T23:45:56.096006+05:30
Trichy,Tamil Nadu,10.7905,78.7047,30.0,62,0.0,999.6,7.9,58.0,52,30.2,23.8,20.6,143.0,44.0,6.1,7,5,7,1,2026-06-14T23:45:56.096015+05:30
Salem,Tamil Nadu,11.6643,78.146,27.4,81,0.0,977.5,8.75,32.8,58,19.3,13.4,13.5,387.0,44.0,7.2,7,5,7,1,2026-06-14T23:45:56.096024+05:30
Tirunelveli,Tamil Nadu,8.7139,77.7567,28.5,67,0.0,1003.8,8.3,47.9,41,14.1,10.5,7.2,179.0,42.0,2.4,7,5,4,1,2026-06-14T23:45:56.096032+05:30
Vellore,Tamil Nadu,12.9165,79.1325,27.7,66,0.0,983.7,8.55,48.6,62,29.5,20.5,14.7,215.0,49.0,4.4,7,5,7,1,2026-06-14T23:45:56.096040+05:30
Erode,Tamil Nadu,11.341,77.7172,26.9,79,0.0,989.3,8.35,45.7,46,16.4,12.1,11.1,200.0,42.0,3.6,7,5,7,1,2026-06-14T23:45:56.096048+05:30
Kochi,Kerala,9.9312,76.2673,26.6,95,0.0,1010.3,8.35,32.4,57,30.0,24.6,20.9,335.0,19.0,6.4,7,0,4,1,2026-06-14T23:45:56.096055+05:30
Thiruvananthapuram,Kerala,8.5241,76.9366,25.6,92,0.0,1009.9,7.95,42.5,44,20.7,11.2,3.9,182.0,50.0,1.9,7,0,4,1,2026-06-14T23:45:56.096062+05:30
Kozhikode,Kerala,11.2588,75.7804,25.6,93,0.0,1009.3,8.3,32.8,29,23.9,11.4,2.1,268.0,56.0,1.4,7,0,4,1,2026-06-14T23:45:56.096069+05:30
Thrissur,Kerala,10.5276,76.2144,25.4,95,0.0,1008.6,8.5,33.1,56,32.8,26.4,17.1,349.0,24.0,5.5,7,0,4,1,2026-06-14T23:45:56.096078+05:30
Kannur,Kerala,11.8745,75.3704,25.6,94,0.0,1008.6,7.95,31.3,42,24.1,17.3,14.8,495.0,24.0,3.4,7,0,4,1,2026-06-14T23:45:56.096086+05:30
Patna,Bihar,25.5941,85.1376,29.3,82,0.0,995.8,8.9,28.8,168,141.6,108.0,64.9,769.0,28.0,27.7,7,5,7,1,2026-06-14T23:45:56.096093+05:30
Gaya,Bihar,24.7914,85.0002,29.1,70,0.0,989.6,8.9,30.6,164,137.8,96.9,40.3,865.0,63.0,19.4,7,5,7,1,2026-06-14T23:45:56.096100+05:30
Muzaffarpur,Bihar,26.1209,85.3647,29.2,80,0.0,995.6,8.85,22.7,168,124.3,99.2,52.3,870.0,34.0,21.0,7,5,7,1,2026-06-14T23:45:56.096108+05:30
Bhagalpur,Bihar,25.2425,87.0117,29.5,86,0.0,996.3,8.8,22.0,158,124.8,94.1,23.1,604.0,77.0,14.2,7,5,7,1,2026-06-14T23:45:56.096115+05:30
Ranchi,Jharkhand,23.3441,85.3096,24.4,76,0.0,934.2,7.75,40.7,129,61.5,45.8,10.7,227.0,89.0,4.7,3,5,7,1,2026-06-14T23:45:56.096122+05:30
Jamshedpur,Jharkhand,22.8046,86.2029,26.8,91,0.0,987.0,8.9,37.4,155,71.0,56.5,21.0,350.0,80.0,22.3,7,5,7,1,2026-06-14T23:45:56.096129+05:30
Dhanbad,Jharkhand,23.7957,86.4304,27.9,76,0.0,975.7,8.9,22.7,170,143.4,122.5,60.5,366.0,58.0,177.5,7,5,7,1,2026-06-14T23:45:56.096136+05:30
Bokaro,Jharkhand,23.6693,86.1511,27.7,75,0.0,979.5,8.9,31.3,165,124.8,95.9,47.3,283.0,85.0,159.4,7,5,7,1,2026-06-14T23:45:56.096143+05:30
Bhubaneswar,Odisha,20.2961,85.8245,28.1,89,0.0,998.3,8.95,37.1,113,86.1,75.9,38.8,731.0,53.0,13.5,7,5,7,1,2026-06-14T23:45:56.096150+05:30
Cuttack,Odisha,20.4625,85.8828,28.0,95,0.0,1000.1,8.8,41.0,113,86.1,75.9,38.8,639.0,53.0,13.5,7,5,4,1,2026-06-14T23:45:56.096157+05:30
Rourkela,Odisha,22.2604,84.8536,27.3,92,0.0,981.5,8.75,36.4,146,71.2,50.1,15.5,348.0,80.0,6.5,7,5,7,1,2026-06-14T23:45:56.096164+05:30
Raipur,Chhattisgarh,21.2514,81.6296,28.4,70,0.0,971.7,8.95,47.9,143,79.9,56.9,42.6,363.0,44.0,50.1,7,5,7,1,2026-06-14T23:45:56.096170+05:30
Bhilai,Chhattisgarh,21.1938,81.3509,26.7,82,0.0,972.1,8.95,40.3,139,81.3,53.4,36.8,1172.0,49.0,42.5,7,5,7,1,2026-06-14T23:45:56.096177+05:30
Guwahati,Assam,26.1158,91.7086,25.4,97,0.0,998.2,8.7,25.2,66,28.1,26.0,10.4,395.0,57.0,3.5,7,5,7,1,2026-06-14T23:45:56.096183+05:30
Agartala,Tripura,23.8315,91.2868,25.8,94,0.0,1003.1,8.15,34.6,64,22.2,19.5,10.9,211.0,62.0,2.2,7,5,4,1,2026-06-14T23:45:56.096190+05:30
Shillong,Meghalaya,25.5788,91.8933,19.4,94,0.0,855.1,9.0,22.3,45,5.0,4.5,5.5,250.0,85.0,3.0,3,10,7,1,2026-06-14T23:45:56.096197+05:30
Imphal,Manipur,24.817,93.9368,23.0,92,0.0,920.6,8.85,31.0,67,40.5,37.7,19.8,526.0,34.0,4.3,3,5,7,1,2026-06-14T23:45:56.096205+05:30
Aizawl,Mizoram,23.7271,92.7176,19.1,95,0.0,889.9,9.0,36.7,51,14.5,12.0,4.1,177.0,51.0,1.1,3,10,7,1,2026-06-14T23:45:56.096211+05:30
Kohima,Nagaland,25.6701,94.1077,19.9,89,0.0,853.2,8.8,23.8,36,10.5,9.4,7.1,326.0,41.0,0.9,3,10,7,1,2026-06-14T23:45:56.096218+05:30
Gangtok,Sikkim,27.3314,88.6138,17.6,92,0.1,835.4,8.8,38.2,56,8.8,7.9,9.8,402.0,97.0,1.8,6,10,7,1,2026-06-14T23:45:56.096226+05:30
Siliguri,West Bengal,26.7271,88.3953,23.7,99,0.5,990.4,8.7,23.0,87,28.8,23.0,8.8,470.0,110.0,4.2,6,5,7,1,2026-06-14T23:45:59.380889+05:30
Durgapur,West Bengal,23.5204,87.3119,27.9,85,0.0,990.8,9.05,30.2,171,70.1,67.5,33.9,720.0,57.0,46.6,7,5,7,1,2026-06-14T23:45:59.380921+05:30
Asansol,West Bengal,23.6739,86.9524,28.2,81,0.0,989.4,8.9,32.0,166,98.3,90.3,38.0,556.0,62.0,49.1,7,5,7,1,2026-06-14T23:45:59.380932+05:30
Pondicherry,Puducherry,11.9139,79.8145,27.2,81,0.0,1007.5,8.05,45.7,66,34.8,22.8,16.1,279.0,64.0,13.1,7,5,4,1,2026-06-14T23:45:59.380941+05:30
Port Blair,Andaman and Nicobar Islands,11.6234,92.7265,27.7,84,0.0,1007.8,7.45,42.8,36,13.0,7.7,0.2,86.0,42.0,0.4,7,5,4,1,2026-06-14T23:45:59.380950+05:30
Haridwar,Uttarakhand,29.9457,78.1642,25.8,76,0.0,968.9,7.65,30.6,109,51.3,44.0,32.0,405.0,34.0,8.4,7,5,7,1,2026-06-14T23:45:59.380958+05:30
Rishikesh,Uttarakhand,30.0869,78.2676,23.1,82,0.0,961.6,7.75,24.8,88,37.4,25.9,17.8,359.0,86.0,6.4,3,5,7,1,2026-06-14T23:45:59.380966+05:30
Nainital,Uttarakhand,29.3919,79.4542,13.7,89,0.0,801.2,8.6,41.4,97,144.4,52.5,14.0,300.0,86.0,5.3,3,10,7,0,2026-06-14T23:45:59.380974+05:30
Mussoorie,Uttarakhand,30.4599,78.0664,15.0,77,0.0,799.4,8.15,45.4,69,35.4,26.1,30.0,279.0,57.0,6.7,3,5,7,0,2026-06-14T23:45:59.380982+05:30
Dharamshala,Himachal Pradesh,32.219,76.3234,20.4,55,0.0,865.5,8.5,42.8,45,15.7,13.1,16.5,189.0,33.0,0.1,0,5,7,0,2026-06-14T23:45:59.380990+05:30
Dalhousie,Himachal Pradesh,32.5387,75.971,13.2,80,0.0,799.9,8.75,37.8,69,41.4,26.4,34.2,356.0,52.0,2.7,3,5,7,0,2026-06-14T23:45:59.380998+05:30
Patiala,Punjab,30.3398,76.3869,27.9,63,0.0,972.5,7.7,23.8,163,241.2,83.4,36.9,475.0,49.0,11.9,7,5,7,1,2026-06-14T23:45:59.381006+05:30
Bhatinda,Punjab,30.211,74.9455,29.7,62,0.0,977.7,8.3,33.1,94,46.7,39.9,42.9,540.0,51.0,9.7,7,5,7,1,2026-06-14T23:45:59.381012+05:30
Rohtak,Haryana,28.8955,76.6066,28.2,71,0.0,976.3,7.8,31.3,426,501.1,134.1,57.7,760.0,21.0,17.5,7,5,7,1,2026-06-14T23:45:59.381019+05:30
Panipat,Haryana,29.3909,76.9635,27.7,66,0.0,975.0,7.65,34.9,625,672.4,147.1,30.4,377.0,45.0,8.6,7,5,7,1,2026-06-14T23:45:59.381026+05:30
Mathura,Uttar Pradesh,27.4924,77.6737,29.0,55,0.0,982.1,8.1,29.9,294,293.4,73.1,22.1,210.0,47.0,3.8,4,5,7,1,2026-06-14T23:45:59.381034+05:30
Vrindavan,Uttar Pradesh,27.5823,77.7027,29.2,54,0.0,982.4,8.05,31.7,294,293.4,73.1,22.1,212.0,47.0,3.8,4,5,7,1,2026-06-14T23:45:59.381041+05:30
Ayodhya,Uttar Pradesh,26.7922,82.1998,28.0,79,0.0,990.4,8.4,30.6,151,173.7,78.2,31.7,584.0,53.0,12.2,7,5,7,1,2026-06-14T23:45:59.381048+05:30
Ratlam,Madhya Pradesh,23.3315,75.0367,30.0,51,0.0,953.2,8.5,46.8,81,58.9,30.2,3.1,173.0,84.0,5.9,4,5,7,1,2026-06-14T23:45:59.381055+05:30
Sagar,Madhya Pradesh,23.8388,78.7378,27.7,62,0.0,947.8,8.75,53.3,87,49.9,28.0,7.0,171.0,71.0,3.0,7,5,7,1,2026-06-14T23:45:59.381062+05:30
Satna,Madhya Pradesh,24.6005,80.8322,30.7,51,0.0,967.5,8.8,35.3,108,80.3,40.0,20.8,226.0,50.0,3.7,0,5,7,1,2026-06-14T23:45:59.381068+05:30
Akola,Maharashtra,20.7002,77.0082,29.2,61,0.0,973.6,8.8,52.6,74,60.5,32.2,13.2,175.0,58.0,5.0,7,5,7,1,2026-06-14T23:45:59.381076+05:30
Amravati,Maharashtra,20.9374,77.7796,30.4,53,0.0,965.4,8.85,56.5,76,61.7,34.3,16.8,164.0,50.0,5.6,0,5,7,1,2026-06-14T23:45:59.381084+05:30
Latur,Maharashtra,18.4088,76.5604,28.4,57,0.0,939.0,8.9,42.1,71,36.1,21.9,3.9,158.0,84.0,4.1,4,5,7,1,2026-06-14T23:45:59.381091+05:30
Nanded,Maharashtra,19.1383,77.3091,29.8,46,0.1,967.4,8.85,43.6,76,61.7,31.9,12.5,174.0,54.0,3.7,7,5,7,1,2026-06-14T23:45:59.381099+05:30
Gulbarga,Karnataka,17.3297,76.8343,29.2,53,0.0,957.6,8.9,41.0,66,23.2,15.7,4.8,134.0,67.0,3.4,4,5,7,1,2026-06-14T23:45:59.381105+05:30
Bidar,Karnataka,17.9104,77.5199,27.1,54,0.0,933.6,8.85,38.5,83,93.4,40.0,20.2,186.0,50.0,5.6,4,5,7,1,2026-06-14T23:45:59.381113+05:30
Hospet,Karnataka,15.2689,76.3909,25.6,79,0.0,956.1,8.65,47.9,51,15.5,9.6,5.2,143.0,47.0,1.9,7,5,7,1,2026-06-14T23:45:59.381120+05:30
Tirupur,Tamil Nadu,11.1085,77.3411,25.3,85,0.0,975.8,8.45,53.6,47,17.4,13.9,14.1,173.0,35.0,4.7,7,5,7,1,2026-06-14T23:45:59.381127+05:30
Alappuzha,Kerala,9.4981,76.3388,26.5,94,0.1,1010.5,8.15,36.7,47,24.6,16.5,11.6,92.0,42.0,3.9,10,0,4,1,2026-06-14T23:45:59.381134+05:30
Munnar,Kerala,10.0889,77.0595,16.2,89,0.0,857.0,8.55,37.4,32,12.0,9.3,8.1,111.0,30.0,1.8,3,10,7,0,2026-06-14T23:45:59.381142+05:30
Silchar,Assam,24.8333,92.7789,25.4,97,0.1,1002.5,8.8,35.6,68,26.7,23.2,9.9,307.0,69.0,3.9,10,5,4,1,2026-06-14T23:45:59.381149+05:30
Dibrugarh,Assam,27.4728,94.912,25.0,96,0.0,992.1,8.3,22.0,64,17.2,16.0,7.6,241.0,78.0,1.4,7,5,7,1,2026-06-14T23:45:59.381156+05:30
