city,state,latitude,longitude,temp,humidity,rain,pressure,uv_index,wind_gusts,aqi,pm10,pm2_5,mosquito_risk,arthritis_risk,migraine_risk,frizz_risk,updated_at
Delhi,Delhi,28.6139,77.209,22.7,54,0.0,987.0,7.15,38.5,723,1009.6,161.6,0,5,7,0,2026-04-11T00:28:56.623443+05:30
Mumbai,Maharashtra,19.076,72.8777,28.7,78,0.0,1010.0,7.95,25.2,100,65.7,40.3,7,0,4,1,2026-04-11T00:28:56.623498+05:30
Bangalore,Karnataka,12.9716,77.5946,25.2,74,0.0,913.9,9.65,42.8,120,38.8,36.0,7,5,7,1,2026-04-11T00:28:56.623514+05:30
Hyderabad,Telangana,17.385,78.4867,30.4,39,0.0,954.9,9.15,19.4,100,79.4,50.5,0,5,7,0,2026-04-11T00:28:56.623524+05:30
Chennai,Tamil Nadu,13.0827,80.2707,28.8,81,0.0,1009.5,9.4,36.4,63,21.1,14.8,7,0,4,1,2026-04-11T00:28:56.623533+05:30
Kolkata,West Bengal,22.5726,88.3639,24.3,91,0.0,1008.1,8.7,21.2,155,60.3,45.5,3,0,4,1,2026-04-11T00:28:56.623542+05:30
Pune,Maharashtra,18.5204,73.8567,26.2,76,0.0,950.4,8.5,27.4,103,58.3,38.1,7,5,7,1,2026-04-11T00:28:56.623554+05:30
Ahmedabad,Gujarat,23.0225,72.5714,29.0,34,0.0,1004.8,8.0,36.7,79,51.1,28.5,4,5,4,0,2026-04-11T00:28:56.623562+05:30
Jaipur,Rajasthan,26.9124,75.7873,25.2,41,0.0,964.2,7.75,28.4,164,139.2,35.5,4,5,7,0,2026-04-11T00:28:56.623571+05:30
Lucknow,Uttar Pradesh,26.8467,80.9462,22.1,51,0.0,996.2,7.65,40.0,159,713.4,129.0,0,5,7,0,2026-04-11T00:28:56.623580+05:30
Kanpur,Uttar Pradesh,26.4499,80.3319,20.6,63,0.0,994.9,7.65,35.3,378,814.0,118.5,3,5,7,0,2026-04-11T00:28:56.623588+05:30
Chandigarh,Chandigarh,30.7333,76.7794,19.5,61,0.0,972.7,7.15,42.1,101,18.2,17.3,3,5,7,0,2026-04-11T00:28:56.623598+05:30
Srinagar,Jammu and Kashmir,34.0837,74.7973,10.1,82,0.0,842.7,8.1,12.6,67,67.1,50.9,3,10,7,0,2026-04-11T00:28:56.623606+05:30
Jammu,Jammu and Kashmir,32.7266,74.857,19.3,67,0.0,977.6,7.75,34.2,66,40.3,31.1,3,5,7,0,2026-04-11T00:28:56.623614+05:30
Amritsar,Punjab,31.634,74.8723,20.3,69,0.0,986.0,7.7,29.2,89,38.3,20.5,3,5,7,0,2026-04-11T00:28:56.623622+05:30
Ludhiana,Punjab,30.901,75.8573,21.2,58,0.0,983.8,7.3,32.8,94,32.4,26.8,0,5,7,0,2026-04-11T00:28:56.623629+05:30
Jalandhar,Punjab,31.326,75.5762,20.4,63,0.0,985.2,7.5,29.9,99,42.5,24.4,3,5,7,0,2026-04-11T00:28:56.623637+05:30
Dehradun,Uttarakhand,30.6284,78.0322,11.7,64,0.0,829.9,7.55,29.5,92,15.1,12.7,3,5,7,0,2026-04-11T00:28:56.623644+05:30
Shimla,Himachal Pradesh,31.1048,77.1734,9.0,57,0.0,783.8,7.6,50.8,89,18.3,15.1,0,5,7,0,2026-04-11T00:28:56.623651+05:30
Manali,Himachal Pradesh,32.2396,77.1887,12.9,63,0.0,820.0,9.9,32.4,137,21.5,13.2,3,5,7,0,2026-04-11T00:28:56.623658+05:30
Gurgaon,Haryana,28.4595,77.0266,20.4,66,0.0,985.5,7.25,35.6,2044,2607.7,312.0,3,5,7,0,2026-04-11T00:28:56.623665+05:30
Noida,Uttar Pradesh,28.5355,77.391,22.2,57,0.0,988.4,7.15,37.8,2044,2607.7,312.0,0,5,7,0,2026-04-11T00:28:56.623672+05:30
Ghaziabad,Uttar Pradesh,28.6692,77.4538,21.1,60,0.0,986.4,7.15,37.8,538,882.9,148.1,0,5,7,0,2026-04-11T00:28:56.623678+05:30
Faridabad,Haryana,28.4089,77.3178,22.6,54,0.0,987.8,7.2,36.4,2044,2607.7,312.0,0,5,7,0,2026-04-11T00:28:56.623684+05:30
Meerut,Uttar Pradesh,28.9845,77.7064,19.5,64,0.0,984.9,7.05,42.5,538,882.9,148.1,3,5,7,0,2026-04-11T00:28:56.623691+05:30
Agra,Uttar Pradesh,27.1767,78.0081,20.8,61,0.0,991.7,7.5,36.0,1081,1445.4,172.8,3,5,7,0,2026-04-11T00:28:56.623698+05:30
Varanasi,Uttar Pradesh,25.3176,82.9739,21.3,50,0.0,1000.4,8.2,39.2,96,132.2,38.0,0,5,4,0,2026-04-11T00:28:56.623706+05:30
Prayagraj,Uttar Pradesh,25.4358,81.8463,22.3,52,0.0,999.2,8.05,31.7,102,286.8,56.8,0,5,7,0,2026-04-11T00:28:56.623713+05:30
Gorakhpur,Uttar Pradesh,26.7606,83.3732,21.5,39,0.0,999.2,8.05,43.2,108,273.8,51.8,0,5,7,0,2026-04-11T00:28:56.623720+05:30
Bareilly,Uttar Pradesh,28.367,79.4304,19.1,67,0.0,989.7,7.4,38.2,94,400.5,88.2,3,5,7,0,2026-04-11T00:28:56.623727+05:30
Aligarh,Uttar Pradesh,27.8974,78.088,20.4,60,0.0,989.1,7.3,38.9,1110,1732.3,245.9,0,5,7,0,2026-04-11T00:28:56.623733+05:30
Moradabad,Uttar Pradesh,28.8386,78.7733,19.3,66,0.0,986.7,7.25,38.2,116,380.9,86.8,3,5,7,0,2026-04-11T00:28:56.623739+05:30
Saharanpur,Uttar Pradesh,29.9637,77.546,19.9,59,0.0,978.7,6.85,50.4,106,44.1,19.0,0,5,7,0,2026-04-11T00:28:56.623747+05:30
Jhansi,Uttar Pradesh,25.4484,78.5685,23.8,42,0.0,981.8,8.0,33.5,78,18.5,13.3,0,5,7,0,2026-04-11T00:28:59.877138+05:30
Surat,Gujarat,21.1702,72.8311,27.4,59,0.0,1008.2,7.75,19.4,139,50.5,37.7,4,0,4,1,2026-04-11T00:28:59.877172+05:30
Vadodara,Gujarat,22.3072,73.1812,27.2,44,0.0,1006.5,8.0,31.7,75,38.9,28.6,4,5,4,0,2026-04-11T00:28:59.877183+05:30
Rajkot,Gujarat,22.3039,70.8022,27.2,57,0.0,997.4,7.7,25.9,107,55.8,39.3,4,5,7,1,2026-04-11T00:28:59.877192+05:30
Thane,Maharashtra,19.2183,72.9781,27.0,83,0.0,1009.4,7.95,37.8,100,65.7,40.3,7,0,4,1,2026-04-11T00:28:59.877200+05:30
Nagpur,Maharashtra,21.1458,79.0882,27.3,60,0.0,975.3,8.75,24.1,93,34.9,21.1,4,5,7,1,2026-04-11T00:28:59.877234+05:30
Nashik,Maharashtra,19.9975,73.7898,26.0,56,0.0,947.7,8.2,28.1,111,63.3,49.5,4,5,7,1,2026-04-11T00:28:59.877245+05:30
Aurangabad,Maharashtra,19.8762,75.3433,27.8,44,0.0,946.1,8.85,28.4,106,45.4,29.6,4,5,7,0,2026-04-11T00:28:59.877254+05:30
Solapur,Maharashtra,17.6599,75.9064,31.0,40,0.0,958.0,9.0,23.4,86,29.1,22.1,0,5,7,0,2026-04-11T00:28:59.877264+05:30
Kolhapur,Maharashtra,16.705,74.2433,23.8,71,0.0,949.0,9.0,32.8,89,67.8,43.4,3,5,7,1,2026-04-11T00:28:59.877272+05:30
Goa,Goa,15.2993,74.124,27.7,79,0.0,999.1,9.0,37.1,86,96.4,40.2,7,5,7,1,2026-04-11T00:28:59.877281+05:30
Jodhpur,Rajasthan,26.2389,73.0243,27.5,33,0.0,986.7,8.0,22.7,65,61.9,24.1,4,5,7,0,2026-04-11T00:28:59.877289+05:30
Udaipur,Rajasthan,24.5854,73.7125,23.5,36,0.0,950.6,8.55,29.9,66,50.1,17.4,0,5,7,0,2026-04-11T00:28:59.877297+05:30
Kota,Rajasthan,25.2138,75.8648,23.8,49,0.0,982.9,8.0,23.8,79,78.9,42.5,0,5,7,0,2026-04-11T00:28:59.877304+05:30
Bikaner,Rajasthan,28.0229,73.3119,27.3,37,0.0,985.9,7.8,19.8,84,38.4,18.4,4,5,7,0,2026-04-11T00:28:59.877312+05:30
Ajmer,Rajasthan,26.4499,74.6399,25.4,36,0.0,958.5,7.95,20.2,75,66.4,35.5,4,5,7,0,2026-04-11T00:28:59.877320+05:30
Gwalior,Madhya Pradesh,26.2183,78.1828,23.5,53,0.0,987.2,7.75,33.1,99,74.7,22.3,0,5,7,0,2026-04-11T00:28:59.877328+05:30
Indore,Madhya Pradesh,22.7196,75.8577,23.3,45,0.0,950.7,8.45,31.0,97,32.8,19.1,0,5,7,0,2026-04-11T00:28:59.877337+05:30
Bhopal,Madhya Pradesh,23.2599,77.4126,24.7,34,0.0,956.9,8.45,30.2,89,25.9,14.1,0,5,7,0,2026-04-11T00:28:59.877346+05:30
Jabalpur,Madhya Pradesh,23.1815,79.9864,26.4,40,0.0,964.4,8.55,24.5,81,38.3,19.2,4,5,7,0,2026-04-11T00:28:59.877354+05:30
Ujjain,Madhya Pradesh,23.1765,75.7885,23.7,42,0.0,956.9,8.35,29.5,84,34.9,21.0,0,5,7,0,2026-04-11T00:28:59.877363+05:30
Visakhapatnam,Andhra Pradesh,17.6868,83.2185,27.9,86,0.0,1005.8,9.1,37.1,94,26.7,20.7,7,5,4,1,2026-04-11T00:28:59.877372+05:30
Vijayawada,Andhra Pradesh,16.5062,80.648,28.1,84,0.0,1004.3,9.2,30.2,78,20.9,18.2,7,5,4,1,2026-04-11T00:28:59.877381+05:30
Guntur,Andhra Pradesh,16.3067,80.4365,28.0,87,0.0,1005.5,9.2,33.5,78,22.5,20.0,7,5,4,1,2026-04-11T00:28:59.877389+05:30
Nellore,Andhra Pradesh,14.4426,79.9865,28.2,84,0.0,1007.7,9.3,34.9,71,18.2,14.4,7,5,4,1,2026-04-11T00:28:59.877397+05:30
Kurnool,Andhra Pradesh,15.8281,78.0373,31.8,53,0.0,978.0,9.15,26.3,86,50.8,32.5,0,5,7,1,2026-04-11T00:28:59.877404+05:30
Kakinada,Andhra Pradesh,16.9891,82.2475,28.0,87,0.0,1009.6,9.15,37.1,70,23.1,15.8,7,0,4,1,2026-04-11T00:28:59.877411+05:30
Tirupati,Andhra Pradesh,13.6288,79.4192,27.2,84,0.0,994.4,9.05,30.6,90,20.4,18.5,7,5,7,1,2026-04-11T00:28:59.877419+05:30
Warangal,Telangana,17.9689,79.5941,29.4,54,0.0,979.7,9.0,23.4,112,67.1,49.0,4,5,7,1,2026-04-11T00:28:59.877426+05:30
Nizamabad,Telangana,18.6725,78.0941,28.3,57,0.0,966.1,8.95,29.5,83,48.8,33.2,4,5,7,1,2026-04-11T00:28:59.877433+05:30
Mysore,Karnataka,12.2958,76.6396,24.2,85,0.0,930.6,9.55,33.5,143,41.9,35.7,3,5,7,1,2026-04-11T00:28:59.877440+05:30
Mangalore,Karnataka,12.9141,74.856,29.9,80,0.0,1008.6,9.15,32.4,69,94.5,32.0,7,0,4,1,2026-04-11T00:28:59.877447+05:30
Hubli-Dharwad,Karnataka,15.3647,75.124,25.4,73,0.0,941.8,9.2,36.0,73,59.6,34.9,7,5,7,1,2026-04-11T00:28:59.877455+05:30
Belgaum,Karnataka,15.8497,74.4977,23.9,76,0.0,926.8,9.25,34.9,80,78.9,41.9,3,5,7,1,2026-04-11T00:29:03.128693+05:30
Coimbatore,Tamil Nadu,11.0168,76.9558,25.4,82,0.0,964.2,9.5,36.7,88,40.2,33.2,7,5,7,1,2026-04-11T00:29:03.128724+05:30
Madurai,Tamil Nadu,9.9252,78.1198,28.0,84,0.0,995.6,9.4,35.3,85,19.2,17.0,7,5,7,1,2026-04-11T00:29:03.128734+05:30
Trichy,Tamil Nadu,10.7905,78.7047,27.9,88,0.0,1002.2,9.4,29.9,67,17.8,16.2,7,5,4,1,2026-04-11T00:29:03.128743+05:30
Salem,Tamil Nadu,11.6643,78.146,28.5,77,0.0,979.3,9.3,24.1,111,29.3,26.7,7,5,7,1,2026-04-11T00:29:03.128751+05:30
Tirunelveli,Tamil Nadu,8.7139,77.7567,26.6,79,0.0,1005.4,9.35,38.2,85,32.6,27.9,7,5,4,1,2026-04-11T00:29:03.128758+05:30
Vellore,Tamil Nadu,12.9165,79.1325,27.7,73,0.0,986.9,9.45,35.3,96,25.8,23.7,7,5,7,1,2026-04-11T00:29:03.128765+05:30
Erode,Tamil Nadu,11.341,77.7172,29.7,71,0.0,991.1,9.45,30.6,105,27.9,25.0,7,5,7,1,2026-04-11T00:29:03.128772+05:30
Kochi,Kerala,9.9312,76.2673,26.9,83,0.0,1011.5,9.25,31.7,75,28.2,25.4,7,0,4,1,2026-04-11T00:29:03.128780+05:30
Thiruvananthapuram,Kerala,8.5241,76.9366,27.3,81,0.0,1010.3,9.2,28.1,67,35.0,19.0,7,0,4,1,2026-04-11T00:29:03.128787+05:30
Kozhikode,Kerala,11.2588,75.7804,29.1,80,0.0,1010.2,9.15,30.2,68,54.4,19.0,7,0,4,1,2026-04-11T00:29:03.128794+05:30
Thrissur,Kerala,10.5276,76.2144,26.9,88,0.0,1009.8,9.2,36.0,79,26.0,21.0,7,0,4,1,2026-04-11T00:29:03.128801+05:30
Kannur,Kerala,11.8745,75.3704,28.8,82,0.0,1009.1,9.15,36.4,69,70.5,24.4,7,0,4,1,2026-04-11T00:29:03.128809+05:30
Patna,Bihar,25.5941,85.1376,23.7,49,0.0,1002.3,8.35,38.9,84,53.4,31.7,0,5,4,0,2026-04-11T00:29:03.128815+05:30
Gaya,Bihar,24.7914,85.0002,23.8,47,0.0,996.2,8.45,37.8,98,57.6,30.0,0,5,7,0,2026-04-11T00:29:03.128822+05:30
Muzaffarpur,Bihar,26.1209,85.3647,21.5,48,0.0,1002.2,8.35,36.0,85,48.4,29.0,0,5,4,0,2026-04-11T00:29:03.128829+05:30
Bhagalpur,Bihar,25.2425,87.0117,23.1,59,0.0,1002.8,8.35,34.2,90,39.8,21.8,0,5,4,0,2026-04-11T00:29:03.128835+05:30
Ranchi,Jharkhand,23.3441,85.3096,21.4,44,0.0,939.6,9.0,37.4,99,56.8,24.6,0,5,7,0,2026-04-11T00:29:03.128841+05:30
Jamshedpur,Jharkhand,22.8046,86.2029,25.6,67,0.0,992.7,8.85,16.9,128,90.3,57.5,7,5,7,1,2026-04-11T00:29:03.128851+05:30
Dhanbad,Jharkhand,23.7957,86.4304,22.3,58,0.0,982.0,8.75,31.0,140,85.7,59.6,0,5,7,0,2026-04-11T00:29:03.128860+05:30
Bokaro,Jharkhand,23.6693,86.1511,24.0,49,0.0,986.4,8.8,32.8,125,85.2,58.2,0,5,7,0,2026-04-11T00:29:03.128866+05:30
Bhubaneswar,Odisha,20.2961,85.8245,27.0,95,0.0,1004.6,9.0,26.3,124,33.1,29.2,7,5,4,1,2026-04-11T00:29:03.128873+05:30
Cuttack,Odisha,20.4625,85.8828,27.1,96,0.0,1006.5,9.0,27.4,124,33.1,29.2,7,5,4,1,2026-04-11T00:29:03.128879+05:30
Rourkela,Odisha,22.2604,84.8536,25.0,68,0.0,986.9,8.75,20.2,78,68.9,41.4,7,5,7,1,2026-04-11T00:29:03.128885+05:30
Raipur,Chhattisgarh,21.2514,81.6296,27.4,30,0.0,976.4,8.8,24.1,129,93.4,65.4,4,5,7,0,2026-04-11T00:29:03.128892+05:30
Bhilai,Chhattisgarh,21.1938,81.3509,25.8,37,0.0,976.7,8.8,22.3,121,95.9,70.1,4,5,7,0,2026-04-11T00:29:03.128898+05:30
Guwahati,Assam,26.1158,91.7086,22.0,85,0.0,1004.4,8.2,32.4,79,50.1,44.5,3,5,4,1,2026-04-11T00:29:03.128904+05:30
Agartala,Tripura,23.8315,91.2868,21.5,94,0.0,1008.5,8.55,28.8,152,91.3,74.7,3,0,4,1,2026-04-11T00:29:03.128913+05:30
Shillong,Meghalaya,25.5788,91.8933,10.2,66,0.0,855.2,7.05,50.4,71,37.7,31.1,3,5,7,0,2026-04-11T00:29:03.128921+05:30
Imphal,Manipur,24.817,93.9368,14.8,85,0.0,924.3,8.9,57.6,92,63.1,48.1,3,10,7,0,2026-04-11T00:29:03.128929+05:30
Aizawl,Mizoram,23.7271,92.7176,16.8,81,0.0,893.8,8.8,58.0,73,58.0,30.0,3,10,7,0,2026-04-11T00:29:03.128938+05:30
Kohima,Nagaland,25.6701,94.1077,11.1,92,0.0,854.1,8.4,72.0,67,39.7,29.5,3,10,7,0,2026-04-11T00:29:03.128945+05:30
Gangtok,Sikkim,27.3314,88.6138,11.9,92,0.1,836.2,8.5,15.1,67,40.2,32.0,6,10,7,0,2026-04-11T00:29:03.128952+05:30
Siliguri,West Bengal,26.7271,88.3953,19.0,63,0.0,995.6,8.2,26.6,98,63.1,51.5,3,5,7,0,2026-04-11T00:29:06.386765+05:30
Durgapur,West Bengal,23.5204,87.3119,25.1,55,0.0,997.3,8.7,20.9,134,76.6,53.8,4,5,7,0,2026-04-11T00:29:06.386797+05:30
Asansol,West Bengal,23.6739,86.9524,25.4,44,0.0,995.8,8.75,23.0,113,64.3,41.1,4,5,7,0,2026-04-11T00:29:06.386807+05:30
Pondicherry,Puducherry,11.9139,79.8145,27.4,89,0.0,1010.8,8.85,33.8,60,19.9,13.5,7,0,4,1,2026-04-11T00:29:06.386816+05:30
Port Blair,Andaman and Nicobar Islands,11.6234,92.7265,29.2,74,0.0,1008.6,9.15,16.6,36,3.9,2.7,7,0,4,1,2026-04-11T00:29:06.386825+05:30
Haridwar,Uttarakhand,29.9457,78.1642,16.3,80,0.0,976.9,6.95,45.4,98,27.1,25.5,3,5,7,0,2026-04-11T00:29:06.386833+05:30
Rishikesh,Uttarakhand,30.0869,78.2676,16.7,71,0.0,969.6,7.0,37.1,118,38.1,23.9,3,5,7,0,2026-04-11T00:29:06.386841+05:30
Nainital,Uttarakhand,29.3919,79.4542,15.4,48,0.0,805.9,7.9,57.2,108,91.3,27.6,0,5,7,0,2026-04-11T00:29:06.386849+05:30
Mussoorie,Uttarakhand,30.4599,78.0664,13.1,63,0.0,802.4,7.4,37.8,91,33.2,30.4,3,5,7,0,2026-04-11T00:29:06.386857+05:30
Dharamshala,Himachal Pradesh,32.219,76.3234,17.3,49,0.0,871.4,7.6,24.8,122,20.7,13.2,0,5,7,0,2026-04-11T00:29:06.386865+05:30
Dalhousie,Himachal Pradesh,32.5387,75.971,13.1,65,0.0,804.7,7.85,19.4,80,30.7,25.4,3,5,7,0,2026-04-11T00:29:06.386873+05:30
Patiala,Punjab,30.3398,76.3869,20.2,60,0.0,982.5,7.0,38.5,728,732.0,87.5,0,5,7,0,2026-04-11T00:29:06.386881+05:30
Bhatinda,Punjab,30.211,74.9455,21.9,58,0.0,988.8,7.65,31.7,94,36.7,25.8,0,5,7,0,2026-04-11T00:29:06.386888+05:30
Rohtak,Haryana,28.8955,76.6066,20.9,60,0.0,985.9,7.15,38.5,1077,1262.9,174.2,0,5,7,0,2026-04-11T00:29:06.386896+05:30
Panipat,Haryana,29.3909,76.9635,20.4,58,0.0,984.3,7.0,41.0,1962,2108.5,257.0,0,5,7,0,2026-04-11T00:29:06.386903+05:30
Mathura,Uttar Pradesh,27.4924,77.6737,24.8,41,0.0,990.8,7.45,34.2,1200,1508.7,188.1,0,5,7,0,2026-04-11T00:29:06.386910+05:30
Vrindavan,Uttar Pradesh,27.5823,77.7027,20.9,60,0.0,991.1,7.4,37.4,1200,1508.7,188.1,0,5,7,0,2026-04-11T00:29:06.386917+05:30
Ayodhya,Uttar Pradesh,26.7922,82.1998,21.2,45,0.0,997.8,7.8,49.7,98,508.5,92.7,0,5,7,0,2026-04-11T00:29:06.386924+05:30
Ratlam,Madhya Pradesh,23.3315,75.0367,23.1,51,0.0,957.5,8.3,32.4,88,32.8,19.2,0,5,7,0,2026-04-11T00:29:06.386931+05:30
Sagar,Madhya Pradesh,23.8388,78.7378,24.8,31,0.0,953.4,8.4,29.9,89,33.3,15.0,0,5,7,0,2026-04-11T00:29:06.386938+05:30
Satna,Madhya Pradesh,24.6005,80.8322,24.1,37,0.0,974.7,8.45,34.6,110,22.4,15.1,0,5,7,0,2026-04-11T00:29:06.386945+05:30
Akola,Maharashtra,20.7002,77.0082,29.1,36,0.0,976.8,8.7,21.6,93,65.0,42.3,4,5,7,0,2026-04-11T00:29:06.386953+05:30
Amravati,Maharashtra,20.9374,77.7796,27.5,42,0.0,969.1,8.7,28.4,96,58.8,35.3,4,5,7,0,2026-04-11T00:29:06.386961+05:30
Latur,Maharashtra,18.4088,76.5604,27.3,55,0.0,941.2,8.95,30.2,95,41.1,26.4,4,5,7,1,2026-04-11T00:29:06.386968+05:30
Nanded,Maharashtra,19.1383,77.3091,29.4,47,0.0,969.7,8.85,19.4,76,54.6,38.5,4,5,7,1,2026-04-11T00:29:06.386975+05:30
Gulbarga,Karnataka,17.3297,76.8343,31.0,40,0.0,959.9,9.05,26.3,94,29.7,22.1,0,5,7,0,2026-04-11T00:29:06.386981+05:30
Bidar,Karnataka,17.9104,77.5199,28.0,48,0.0,936.9,9.05,28.8,88,42.8,27.2,4,5,7,0,2026-04-11T00:29:06.386988+05:30
Hospet,Karnataka,15.2689,76.3909,31.1,52,0.0,957.0,9.25,23.4,127,51.5,34.0,0,5,7,1,2026-04-11T00:29:06.386995+05:30
Tirupur,Tamil Nadu,11.1085,77.3411,27.8,76,0.0,977.6,9.5,33.1,115,45.4,40.6,7,5,7,1,2026-04-11T00:29:06.387002+05:30
Alappuzha,Kerala,9.4981,76.3388,26.6,88,0.0,1011.7,9.2,26.6,75,36.2,23.9,7,0,4,1,2026-04-11T00:29:06.387009+05:30
Munnar,Kerala,10.0889,77.0595,22.2,87,0.0,859.1,8.1,31.3,78,29.7,28.3,3,5,7,1,2026-04-11T00:29:06.387017+05:30
Silchar,Assam,24.8333,92.7789,20.6,89,0.0,1008.4,8.55,23.8,127,81.3,62.2,3,0,4,1,2026-04-11T00:29:06.387024+05:30
Dibrugarh,Assam,27.4728,94.912,19.9,93,0.0,999.1,8.35,16.2,95,28.7,23.3,3,10,7,1,2026-04-11T00:29:06.387031+05:30
