city,state,latitude,longitude,temp,humidity,rain,pressure,uv_index,wind_gusts,aqi,pm10,pm2_5,no2,co,o3,so2,mosquito_risk,arthritis_risk,migraine_risk,frizz_risk,updated_at
Delhi,Delhi,28.6139,77.209,31.6,50,0.0,977.5,7.65,29.2,183,273.8,101.3,37.3,783.0,95.0,31.7,0,5,7,1,2026-05-13T21:51:11.793961+05:30
Mumbai,Maharashtra,19.076,72.8777,29.5,80,0.0,1005.2,7.85,40.7,74,34.8,18.2,9.1,271.0,71.0,5.6,7,5,4,1,2026-05-13T21:51:11.794009+05:30
Bangalore,Karnataka,12.9716,77.5946,28.8,40,0.0,909.9,9.45,37.1,81,34.6,29.6,58.6,508.0,39.0,12.4,4,5,7,0,2026-05-13T21:51:11.794028+05:30
Hyderabad,Telangana,17.385,78.4867,33.3,38,0.0,950.8,8.7,25.9,99,46.9,32.9,25.0,404.0,80.0,9.2,0,5,7,1,2026-05-13T21:51:11.794040+05:30
Chennai,Tamil Nadu,13.0827,80.2707,30.0,76,0.0,1003.7,9.1,47.2,25,8.7,5.8,5.6,160.0,41.0,4.5,7,5,4,1,2026-05-13T21:51:11.794050+05:30
Kolkata,West Bengal,22.5726,88.3639,26.7,92,0.0,1003.9,8.95,46.1,63,12.4,10.6,7.7,272.0,32.0,5.0,7,5,4,1,2026-05-13T21:51:11.794060+05:30
Pune,Maharashtra,18.5204,73.8567,28.4,67,0.0,945.5,8.5,49.3,107,47.1,26.5,11.5,276.0,97.0,14.1,7,5,7,1,2026-05-13T21:51:11.794068+05:30
Ahmedabad,Gujarat,23.0225,72.5714,33.7,45,0.0,996.8,8.15,36.7,82,54.2,26.8,10.1,306.0,85.0,5.5,0,5,7,1,2026-05-13T21:51:11.794080+05:30
Jaipur,Rajasthan,26.9124,75.7873,34.8,21,0.0,955.1,8.25,49.3,141,109.4,40.7,26.6,286.0,51.0,9.9,0,5,7,0,2026-05-13T21:51:11.794088+05:30
Lucknow,Uttar Pradesh,26.8467,80.9462,32.6,50,0.0,988.4,8.15,29.9,154,129.9,78.0,24.6,471.0,84.0,16.2,0,5,7,1,2026-05-13T21:51:11.794097+05:30
Kanpur,Uttar Pradesh,26.4499,80.3319,33.5,47,0.0,986.6,8.2,35.3,159,159.3,76.1,25.6,467.0,72.0,15.0,0,5,7,1,2026-05-13T21:51:11.794105+05:30
Chandigarh,Chandigarh,30.7333,76.7794,26.6,38,0.0,963.1,7.7,37.1,139,108.7,56.9,30.2,847.0,105.0,19.0,4,5,7,0,2026-05-13T21:51:11.794113+05:30
Srinagar,Jammu and Kashmir,34.0837,74.7973,14.8,77,0.0,841.4,8.75,32.8,62,26.4,24.0,25.4,743.0,46.0,2.4,3,5,7,0,2026-05-13T21:51:11.794122+05:30
Jammu,Jammu and Kashmir,32.7266,74.857,24.6,50,0.0,967.8,8.45,37.4,87,41.9,30.5,35.9,561.0,57.0,5.6,0,5,7,0,2026-05-13T21:51:11.794131+05:30
Amritsar,Punjab,31.634,74.8723,27.8,50,0.0,975.9,8.35,34.9,153,73.6,48.9,15.4,624.0,89.0,7.6,4,5,7,1,2026-05-13T21:51:11.794139+05:30
Ludhiana,Punjab,30.901,75.8573,29.0,44,0.0,973.6,7.95,38.2,160,92.4,62.9,27.5,921.0,79.0,11.7,4,5,7,0,2026-05-13T21:51:11.794147+05:30
Jalandhar,Punjab,31.326,75.5762,27.8,51,0.0,974.6,8.1,45.4,147,83.4,44.0,19.2,1228.0,82.0,6.8,4,5,7,1,2026-05-13T21:51:11.794155+05:30
Dehradun,Uttarakhand,30.6284,78.0322,14.9,64,0.0,826.0,8.1,36.0,105,47.4,32.9,31.6,346.0,86.0,5.3,3,5,7,0,2026-05-13T21:51:11.794165+05:30
Shimla,Himachal Pradesh,31.1048,77.1734,12.6,53,0.0,780.4,8.2,45.7,125,38.8,24.0,15.5,439.0,112.0,7.7,0,5,7,0,2026-05-13T21:51:11.794174+05:30
Manali,Himachal Pradesh,32.2396,77.1887,9.0,74,0.1,813.9,10.0,46.4,101,11.1,8.1,43.2,245.0,88.0,0.4,6,5,7,0,2026-05-13T21:51:11.794181+05:30
Gurgaon,Haryana,28.4595,77.0266,30.4,47,0.0,975.9,7.75,33.8,649,1110.1,213.3,41.2,862.0,107.0,37.7,0,5,7,1,2026-05-13T21:51:11.794188+05:30
Noida,Uttar Pradesh,28.5355,77.391,28.2,67,0.0,978.7,7.7,27.0,649,1110.1,213.3,41.2,1046.0,107.0,37.7,7,5,7,1,2026-05-13T21:51:11.794196+05:30
Ghaziabad,Uttar Pradesh,28.6692,77.4538,28.8,65,0.0,977.0,7.7,28.1,161,208.6,90.8,25.0,592.0,85.0,20.0,7,5,7,1,2026-05-13T21:51:11.794203+05:30
Faridabad,Haryana,28.4089,77.3178,30.6,52,0.0,978.2,7.75,28.4,649,1110.1,213.3,41.2,780.0,107.0,37.7,0,5,7,1,2026-05-13T21:51:11.794210+05:30
Meerut,Uttar Pradesh,28.9845,77.7064,29.8,58,0.0,976.1,7.6,33.5,161,208.6,90.8,25.0,585.0,85.0,20.0,4,5,7,1,2026-05-13T21:51:11.794217+05:30
Agra,Uttar Pradesh,27.1767,78.0081,32.0,45,0.0,982.3,8.05,29.5,555,909.0,153.7,20.1,454.0,88.0,16.0,0,5,7,1,2026-05-13T21:51:11.794225+05:30
Varanasi,Uttar Pradesh,25.3176,82.9739,31.9,51,0.0,992.5,8.7,39.2,155,114.1,87.1,36.5,579.0,85.0,21.9,0,5,7,1,2026-05-13T21:51:11.794232+05:30
Prayagraj,Uttar Pradesh,25.4358,81.8463,32.5,48,0.0,990.7,8.55,47.5,154,118.0,81.7,36.2,433.0,71.0,20.3,0,5,7,1,2026-05-13T21:51:11.794242+05:30
Gorakhpur,Uttar Pradesh,26.7606,83.3732,29.0,67,0.0,992.6,8.5,38.2,136,65.0,55.6,17.5,431.0,96.0,12.2,7,5,7,1,2026-05-13T21:51:11.794249+05:30
Bareilly,Uttar Pradesh,28.367,79.4304,28.0,67,0.0,981.3,7.95,28.1,152,150.9,83.8,24.3,476.0,102.0,21.2,7,5,7,1,2026-05-13T21:51:11.794256+05:30
Aligarh,Uttar Pradesh,27.8974,78.088,29.3,58,0.0,979.8,7.85,26.3,296,358.6,98.0,17.8,514.0,99.0,15.1,4,5,7,1,2026-05-13T21:51:11.794264+05:30
Moradabad,Uttar Pradesh,28.8386,78.7733,28.7,68,0.0,978.4,7.8,27.0,153,185.3,95.5,32.0,604.0,73.0,18.4,7,5,7,1,2026-05-13T21:51:11.794271+05:30
Saharanpur,Uttar Pradesh,29.9637,77.546,27.5,53,0.0,970.2,7.4,31.0,162,135.0,85.0,30.4,594.0,105.0,23.0,4,5,7,1,2026-05-13T21:51:11.794278+05:30
Jhansi,Uttar Pradesh,25.4484,78.5685,31.9,40,0.0,972.4,8.45,50.4,110,107.8,41.9,10.4,307.0,78.0,7.0,0,5,7,1,2026-05-13T21:51:15.043340+05:30
Surat,Gujarat,21.1702,72.8311,30.0,78,0.0,1002.2,7.25,43.9,86,28.2,21.9,28.7,354.0,52.0,46.3,7,5,4,1,2026-05-13T21:51:15.043376+05:30
Vadodara,Gujarat,22.3072,73.1812,32.2,56,0.0,999.2,8.1,39.2,96,46.6,29.3,23.4,406.0,78.0,29.6,0,5,7,1,2026-05-13T21:51:15.043387+05:30
Rajkot,Gujarat,22.3039,70.8022,31.0,47,0.0,989.7,7.75,50.8,60,16.4,11.7,6.5,172.0,75.0,6.0,0,5,7,1,2026-05-13T21:51:15.043395+05:30
Thane,Maharashtra,19.2183,72.9781,29.6,77,0.0,1004.6,7.9,37.1,74,34.8,18.2,9.1,232.0,71.0,5.6,7,5,4,1,2026-05-13T21:51:15.043404+05:30
Nagpur,Maharashtra,21.1458,79.0882,35.8,31,0.0,968.4,8.95,40.3,105,79.4,45.4,38.0,390.0,68.0,23.1,0,5,10,0,2026-05-13T21:51:15.043413+05:30
Nashik,Maharashtra,19.9975,73.7898,29.1,60,0.0,942.7,8.25,42.5,70,35.9,19.1,5.5,203.0,78.0,1.7,4,5,7,1,2026-05-13T21:51:15.043421+05:30
Aurangabad,Maharashtra,19.8762,75.3433,34.5,26,0.0,941.0,8.85,40.3,106,25.9,19.3,5.1,279.0,117.0,6.0,0,5,7,0,2026-05-13T21:51:15.043429+05:30
Solapur,Maharashtra,17.6599,75.9064,33.8,36,0.0,954.0,9.1,39.2,113,71.0,45.3,22.7,413.0,85.0,7.8,0,5,7,1,2026-05-13T21:51:15.043436+05:30
Kolhapur,Maharashtra,16.705,74.2433,26.8,79,0.0,945.4,8.9,50.0,73,32.2,21.2,12.4,215.0,74.0,4.8,7,5,7,1,2026-05-13T21:51:15.043444+05:30
Goa,Goa,15.2993,74.124,29.1,83,0.0,994.9,8.9,28.1,68,52.7,23.6,4.4,203.0,65.0,1.6,7,5,7,1,2026-05-13T21:51:15.043451+05:30
Jodhpur,Rajasthan,26.2389,73.0243,36.4,22,0.0,976.8,8.4,36.0,105,190.0,44.1,13.8,231.0,83.0,3.7,0,5,10,0,2026-05-13T21:51:15.043459+05:30
Udaipur,Rajasthan,24.5854,73.7125,33.7,23,0.0,942.7,8.85,43.6,82,44.7,23.6,5.8,234.0,102.0,4.8,0,5,7,0,2026-05-13T21:51:15.043467+05:30
Kota,Rajasthan,25.2138,75.8648,36.2,19,0.0,973.6,8.4,40.0,72,37.4,23.1,11.4,276.0,78.0,4.4,0,5,10,0,2026-05-13T21:51:15.043474+05:30
Bikaner,Rajasthan,28.0229,73.3119,35.3,25,0.0,976.0,8.35,28.8,107,105.5,30.6,5.8,333.0,76.0,4.2,0,5,10,0,2026-05-13T21:51:15.043481+05:30
Ajmer,Rajasthan,26.4499,74.6399,33.5,22,0.0,950.1,8.35,47.9,72,46.3,21.7,7.5,219.0,91.0,4.8,0,5,7,0,2026-05-13T21:51:15.043488+05:30
Gwalior,Madhya Pradesh,26.2183,78.1828,33.5,42,0.0,977.6,8.25,38.5,138,125.7,49.7,12.8,390.0,76.0,7.9,0,5,7,1,2026-05-13T21:51:15.043495+05:30
Indore,Madhya Pradesh,22.7196,75.8577,35.0,24,0.0,944.4,8.7,40.0,82,50.3,35.2,22.9,378.0,75.0,10.4,0,5,7,0,2026-05-13T21:51:15.043502+05:30
Bhopal,Madhya Pradesh,23.2599,77.4126,35.7,18,0.0,949.2,8.75,43.2,90,35.9,21.9,9.3,234.0,76.0,5.3,0,5,10,0,2026-05-13T21:51:15.043509+05:30
Jabalpur,Madhya Pradesh,23.1815,79.9864,34.3,21,0.0,956.9,8.9,37.1,95,81.5,37.3,25.3,224.0,70.0,8.1,0,5,7,0,2026-05-13T21:51:15.043516+05:30
Ujjain,Madhya Pradesh,23.1765,75.7885,34.3,26,0.0,949.8,8.65,36.7,82,27.7,19.8,4.9,283.0,99.0,4.9,0,5,7,0,2026-05-13T21:51:15.043523+05:30
Visakhapatnam,Andhra Pradesh,17.6868,83.2185,29.1,76,0.0,1002.1,9.15,40.0,75,18.3,16.1,19.7,756.0,24.0,58.4,7,5,4,1,2026-05-13T21:51:15.043530+05:30
Vijayawada,Andhra Pradesh,16.5062,80.648,30.1,72,0.0,999.7,9.2,37.4,53,9.6,7.7,7.0,142.0,32.0,6.1,3,5,7,1,2026-05-13T21:51:15.043537+05:30
Guntur,Andhra Pradesh,16.3067,80.4365,30.3,71,0.0,1000.9,9.25,36.4,54,10.2,8.3,6.9,151.0,34.0,6.0,3,5,4,1,2026-05-13T21:51:15.043544+05:30
Nellore,Andhra Pradesh,14.4426,79.9865,29.2,79,0.0,1002.8,9.15,38.5,26,9.2,6.0,3.4,170.0,41.0,1.9,7,5,4,1,2026-05-13T21:51:15.043551+05:30
Kurnool,Andhra Pradesh,15.8281,78.0373,34.2,37,0.0,973.5,9.2,33.8,71,41.4,26.8,13.3,268.0,77.0,4.3,0,5,7,1,2026-05-13T21:51:15.043559+05:30
Kakinada,Andhra Pradesh,16.9891,82.2475,29.1,77,0.0,1005.0,9.15,37.8,32,7.0,4.3,1.3,155.0,48.0,0.8,7,5,4,1,2026-05-13T21:51:15.043566+05:30
Tirupati,Andhra Pradesh,13.6288,79.4192,29.0,62,0.0,988.5,9.25,37.8,51,11.6,9.4,12.7,165.0,27.0,2.1,7,5,7,1,2026-05-13T21:51:15.043573+05:30
Warangal,Telangana,17.9689,79.5941,32.3,48,0.0,975.5,9.2,41.4,83,43.9,34.6,17.3,438.0,85.0,7.6,0,5,7,1,2026-05-13T21:51:15.043580+05:30
Nizamabad,Telangana,18.6725,78.0941,34.0,35,0.0,961.3,9.15,33.8,89,63.1,39.0,21.5,414.0,77.0,7.4,0,5,7,1,2026-05-13T21:51:15.043586+05:30
Mysore,Karnataka,12.2958,76.6396,24.5,84,0.0,925.9,9.25,31.0,104,44.1,34.6,43.2,307.0,67.0,7.3,3,5,7,1,2026-05-13T21:51:15.043594+05:30
Mangalore,Karnataka,12.9141,74.856,26.9,96,0.0,1004.1,7.65,37.4,78,27.6,18.2,12.7,440.0,52.0,3.6,7,5,4,1,2026-05-13T21:51:15.043601+05:30
Hubli-Dharwad,Karnataka,15.3647,75.124,26.1,84,0.0,938.8,8.75,42.5,68,20.8,15.8,15.6,197.0,54.0,2.7,7,5,7,1,2026-05-13T21:51:15.043608+05:30
Belgaum,Karnataka,15.8497,74.4977,25.4,81,0.0,923.6,9.15,45.0,60,31.0,18.9,11.2,195.0,59.0,2.3,7,5,7,1,2026-05-13T21:51:18.292936+05:30
Coimbatore,Tamil Nadu,11.0168,76.9558,26.0,84,0.0,958.9,9.2,39.6,84,18.6,15.5,10.5,271.0,80.0,4.2,7,5,7,1,2026-05-13T21:51:18.292972+05:30
Madurai,Tamil Nadu,9.9252,78.1198,29.0,75,0.0,989.5,8.65,21.6,76,26.8,24.1,24.2,305.0,77.0,8.7,7,5,7,1,2026-05-13T21:51:18.292984+05:30
Trichy,Tamil Nadu,10.7905,78.7047,28.9,81,0.0,995.9,9.0,33.1,81,27.4,26.0,21.7,312.0,70.0,10.9,7,5,7,1,2026-05-13T21:51:18.292993+05:30
Salem,Tamil Nadu,11.6643,78.146,29.9,56,0.0,973.8,9.2,28.8,132,41.8,35.5,34.3,315.0,73.0,12.7,4,5,7,1,2026-05-13T21:51:18.293001+05:30
Tirunelveli,Tamil Nadu,8.7139,77.7567,29.5,66,0.0,999.7,7.05,19.4,60,20.4,16.2,7.8,349.0,75.0,2.9,7,5,7,1,2026-05-13T21:51:18.293009+05:30
Vellore,Tamil Nadu,12.9165,79.1325,28.1,77,0.0,981.8,9.15,33.1,67,20.1,17.2,17.8,235.0,58.0,10.5,7,5,7,1,2026-05-13T21:51:18.293016+05:30
Erode,Tamil Nadu,11.341,77.7172,29.3,67,0.0,985.5,9.15,33.1,124,45.3,37.5,43.9,391.0,70.0,7.4,7,5,7,1,2026-05-13T21:51:18.293024+05:30
Kochi,Kerala,9.9312,76.2673,26.4,94,0.0,1006.4,8.6,32.8,78,29.0,26.0,25.5,347.0,38.0,6.4,7,5,4,1,2026-05-13T21:51:18.293032+05:30
Thiruvananthapuram,Kerala,8.5241,76.9366,26.8,93,0.0,1005.6,7.1,36.0,55,15.6,9.3,3.1,322.0,91.0,1.5,7,5,4,1,2026-05-13T21:51:18.293039+05:30
Kozhikode,Kerala,11.2588,75.7804,26.0,91,0.0,1005.5,8.55,39.6,64,33.2,19.0,3.7,347.0,94.0,2.3,7,5,4,1,2026-05-13T21:51:18.293046+05:30
Thrissur,Kerala,10.5276,76.2144,25.6,99,0.0,1004.8,8.7,35.3,71,35.2,30.9,22.3,564.0,41.0,5.6,7,5,4,1,2026-05-13T21:51:18.293055+05:30
Kannur,Kerala,11.8745,75.3704,26.0,98,0.0,1004.5,8.9,36.0,79,35.5,27.0,20.1,269.0,53.0,3.9,7,5,4,1,2026-05-13T21:51:18.293063+05:30
Patna,Bihar,25.5941,85.1376,28.0,73,0.0,996.5,8.75,30.2,154,70.3,61.7,18.2,438.0,109.0,20.3,7,5,7,1,2026-05-13T21:51:18.293071+05:30
Gaya,Bihar,24.7914,85.0002,29.8,62,0.0,989.6,8.85,28.1,165,75.4,67.5,14.5,437.0,126.0,18.9,7,5,7,1,2026-05-13T21:51:18.293078+05:30
Muzaffarpur,Bihar,26.1209,85.3647,26.4,76,0.0,997.1,8.75,33.8,151,68.0,60.8,21.5,438.0,95.0,19.0,7,5,7,1,2026-05-13T21:51:18.293085+05:30
Bhagalpur,Bihar,25.2425,87.0117,26.5,79,0.0,998.4,8.75,38.2,162,40.0,35.3,11.1,333.0,114.0,15.5,7,5,7,1,2026-05-13T21:51:18.293091+05:30
Ranchi,Jharkhand,23.3441,85.3096,25.2,71,0.0,934.5,9.25,35.3,93,44.8,34.3,10.5,306.0,111.0,13.5,7,5,7,1,2026-05-13T21:51:18.293098+05:30
Jamshedpur,Jharkhand,22.8046,86.2029,28.1,82,0.0,987.5,9.15,29.5,106,50.3,36.8,19.0,390.0,91.0,22.7,7,5,7,1,2026-05-13T21:51:18.293105+05:30
Dhanbad,Jharkhand,23.7957,86.4304,26.6,83,0.0,976.9,9.1,37.1,150,74.3,61.2,51.7,292.0,63.0,128.5,7,5,7,1,2026-05-13T21:51:18.293112+05:30
Bokaro,Jharkhand,23.6693,86.1511,27.2,78,0.0,980.5,9.1,29.9,151,68.2,54.7,38.4,1571.0,81.0,105.1,7,5,7,1,2026-05-13T21:51:18.293120+05:30
Bhubaneswar,Odisha,20.2961,85.8245,28.0,82,0.0,1001.1,9.0,41.0,38,10.1,9.1,7.8,212.0,31.0,3.1,7,5,4,1,2026-05-13T21:51:18.293127+05:30
Cuttack,Odisha,20.4625,85.8828,28.2,81,0.0,1002.9,9.05,39.6,38,10.1,9.1,7.8,200.0,31.0,3.1,7,5,4,1,2026-05-13T21:51:18.293134+05:30
Rourkela,Odisha,22.2604,84.8536,29.1,73,0.0,981.3,9.05,46.1,103,49.0,36.7,15.6,376.0,105.0,25.5,7,5,7,1,2026-05-13T21:51:18.293140+05:30
Raipur,Chhattisgarh,21.2514,81.6296,33.3,44,0.0,970.4,9.05,38.5,116,57.0,43.8,31.6,543.0,82.0,46.6,0,5,7,1,2026-05-13T21:51:18.293147+05:30
Bhilai,Chhattisgarh,21.1938,81.3509,32.6,44,0.0,970.5,9.05,42.8,103,61.0,44.7,35.2,577.0,77.0,49.0,0,5,7,1,2026-05-13T21:51:18.293153+05:30
Guwahati,Assam,26.1158,91.7086,22.5,94,0.0,1000.2,7.4,22.3,120,37.5,36.0,13.4,525.0,58.0,2.7,3,5,4,1,2026-05-13T21:51:18.293160+05:30
Agartala,Tripura,23.8315,91.2868,26.1,83,0.0,1004.5,8.75,24.8,89,30.0,25.5,20.4,373.0,37.0,2.8,7,5,4,1,2026-05-13T21:51:18.293167+05:30
Shillong,Meghalaya,25.5788,91.8933,15.1,88,0.1,854.1,8.05,23.4,70,14.7,12.6,8.9,351.0,80.0,2.3,6,10,7,0,2026-05-13T21:51:18.293175+05:30
Imphal,Manipur,24.817,93.9368,21.0,91,0.0,921.8,9.3,29.5,86,27.5,25.6,21.3,737.0,49.0,4.5,3,5,7,1,2026-05-13T21:51:18.293182+05:30
Aizawl,Mizoram,23.7271,92.7176,19.6,84,0.0,891.1,9.1,24.1,66,20.0,15.1,11.1,239.0,67.0,2.9,3,10,7,1,2026-05-13T21:51:18.293189+05:30
Kohima,Nagaland,25.6701,94.1077,17.0,95,0.0,853.7,8.85,28.8,64,20.1,18.7,18.5,455.0,41.0,1.6,3,10,7,1,2026-05-13T21:51:18.293196+05:30
Gangtok,Sikkim,27.3314,88.6138,13.5,98,0.1,834.2,8.95,35.3,91,17.2,16.2,12.2,542.0,117.0,2.5,6,10,7,0,2026-05-13T21:51:18.293202+05:30
Siliguri,West Bengal,26.7271,88.3953,22.5,91,0.0,991.7,8.65,33.8,111,35.0,32.8,12.7,551.0,109.0,4.8,3,5,7,1,2026-05-13T21:51:21.538764+05:30
Durgapur,West Bengal,23.5204,87.3119,25.5,87,0.0,992.3,9.0,34.6,104,30.4,27.8,28.1,218.0,49.0,40.1,7,5,7,1,2026-05-13T21:51:21.538807+05:30
Asansol,West Bengal,23.6739,86.9524,25.9,85,0.0,990.8,9.05,33.1,111,38.1,32.5,28.5,646.0,65.0,42.0,7,5,7,1,2026-05-13T21:51:21.538819+05:30
Pondicherry,Puducherry,11.9139,79.8145,29.1,82,0.0,1004.6,9.0,32.4,42,9.4,6.2,2.6,178.0,43.0,1.2,7,5,4,1,2026-05-13T21:51:21.538829+05:30
Port Blair,Andaman and Nicobar Islands,11.6234,92.7265,25.5,97,0.0,1005.9,3.1,35.6,19,6.2,3.9,0.5,116.0,41.0,0.2,7,5,0,1,2026-05-13T21:51:21.538838+05:30
Haridwar,Uttarakhand,29.9457,78.1642,25.5,71,0.0,968.6,7.5,29.5,154,89.4,61.5,19.1,507.0,101.0,14.6,7,5,7,1,2026-05-13T21:51:21.538846+05:30
Rishikesh,Uttarakhand,30.0869,78.2676,23.9,70,0.0,961.3,7.6,23.8,136,84.5,49.6,13.1,492.0,117.0,10.4,3,5,7,1,2026-05-13T21:51:21.538854+05:30
Nainital,Uttarakhand,29.3919,79.4542,13.7,91,0.0,801.6,8.45,45.0,134,151.8,63.8,15.7,357.0,108.0,14.3,3,10,7,0,2026-05-13T21:51:21.538862+05:30
Mussoorie,Uttarakhand,30.4599,78.0664,15.2,56,0.0,799.5,8.0,52.2,133,88.7,54.6,26.2,430.0,115.0,13.7,0,5,7,0,2026-05-13T21:51:21.538870+05:30
Dharamshala,Himachal Pradesh,32.219,76.3234,19.5,50,0.0,865.6,8.35,45.0,67,23.1,16.2,15.5,296.0,59.0,1.2,0,5,7,0,2026-05-13T21:51:21.538877+05:30
Dalhousie,Himachal Pradesh,32.5387,75.971,11.6,66,0.0,798.9,8.6,33.1,84,48.5,29.9,42.1,644.0,65.0,3.2,3,5,7,0,2026-05-13T21:51:21.538885+05:30
Patiala,Punjab,30.3398,76.3869,29.1,38,0.0,973.0,7.6,38.2,186,170.0,85.4,30.4,481.0,70.0,15.4,4,5,7,0,2026-05-13T21:51:21.538893+05:30
Bhatinda,Punjab,30.211,74.9455,31.8,31,0.0,978.8,8.25,38.9,187,194.2,80.1,15.1,492.0,82.0,10.6,0,5,7,0,2026-05-13T21:51:21.538900+05:30
Rohtak,Haryana,28.8955,76.6066,29.6,54,0.0,976.4,7.7,33.5,360,694.8,154.1,27.0,568.0,128.0,30.6,4,5,7,1,2026-05-13T21:51:21.538907+05:30
Panipat,Haryana,29.3909,76.9635,28.4,58,0.0,974.6,7.55,34.2,522,719.0,163.9,20.5,624.0,117.0,25.6,4,5,7,1,2026-05-13T21:51:21.538915+05:30
Mathura,Uttar Pradesh,27.4924,77.6737,29.9,53,0.0,981.2,7.95,28.8,473,884.8,159.3,19.0,477.0,98.0,13.2,4,5,7,1,2026-05-13T21:51:21.538922+05:30
Vrindavan,Uttar Pradesh,27.5823,77.7027,29.5,54,0.0,981.6,7.95,29.2,473,884.8,159.3,19.0,474.0,98.0,13.2,4,5,7,1,2026-05-13T21:51:21.538930+05:30
Ayodhya,Uttar Pradesh,26.7922,82.1998,29.7,69,0.0,990.4,8.3,28.8,151,139.2,71.9,22.7,455.0,89.0,12.7,7,5,7,1,2026-05-13T21:51:21.538938+05:30
Ratlam,Madhya Pradesh,23.3315,75.0367,32.8,31,0.0,950.4,8.55,40.0,83,25.4,17.3,2.9,202.0,109.0,4.6,0,5,7,0,2026-05-13T21:51:21.538945+05:30
Sagar,Madhya Pradesh,23.8388,78.7378,33.5,22,0.0,945.8,8.8,39.6,84,67.1,26.7,16.3,263.0,66.0,3.8,0,5,7,0,2026-05-13T21:51:21.538952+05:30
Satna,Madhya Pradesh,24.6005,80.8322,32.0,30,0.0,966.5,8.75,46.8,109,66.6,39.0,16.9,317.0,90.0,7.0,0,5,7,0,2026-05-13T21:51:21.538960+05:30
Akola,Maharashtra,20.7002,77.0082,36.8,23,0.0,969.9,8.95,33.1,96,77.1,44.2,29.4,366.0,73.0,11.4,0,5,10,0,2026-05-13T21:51:21.538968+05:30
Amravati,Maharashtra,20.9374,77.7796,35.5,32,0.0,962.8,8.95,36.7,98,65.4,37.3,17.2,303.0,82.0,8.6,0,5,10,1,2026-05-13T21:51:21.538977+05:30
Latur,Maharashtra,18.4088,76.5604,32.8,38,0.0,936.8,8.95,34.9,101,93.1,55.1,20.7,294.0,85.0,9.3,0,5,7,1,2026-05-13T21:51:21.538984+05:30
Nanded,Maharashtra,19.1383,77.3091,35.5,29,0.0,964.3,9.05,30.6,100,90.1,54.8,32.1,430.0,73.0,10.1,0,5,10,0,2026-05-13T21:51:21.538991+05:30
Gulbarga,Karnataka,17.3297,76.8343,32.3,40,0.0,955.6,9.1,28.1,113,60.5,37.0,28.0,305.0,78.0,10.0,0,5,7,1,2026-05-13T21:51:21.538998+05:30
Bidar,Karnataka,17.9104,77.5199,30.8,45,0.0,932.8,9.15,36.0,88,46.3,32.6,26.5,426.0,67.0,6.4,0,5,7,1,2026-05-13T21:51:21.539004+05:30
Hospet,Karnataka,15.2689,76.3909,27.5,79,0.0,953.3,9.2,28.8,101,60.1,43.4,39.8,453.0,67.0,13.6,7,5,7,1,2026-05-13T21:51:21.539011+05:30
Tirupur,Tamil Nadu,11.1085,77.3411,27.4,77,0.0,971.8,9.25,36.0,115,34.1,27.4,29.1,232.0,81.0,7.0,7,5,7,1,2026-05-13T21:51:21.539018+05:30
Alappuzha,Kerala,9.4981,76.3388,27.1,92,0.0,1006.3,8.4,34.2,72,31.7,23.2,17.4,131.0,66.0,5.5,7,5,4,1,2026-05-13T21:51:21.539026+05:30
Munnar,Kerala,10.0889,77.0595,18.1,97,0.0,854.6,9.45,33.5,67,26.2,23.5,16.5,322.0,42.0,2.7,3,10,7,1,2026-05-13T21:51:21.539033+05:30
Silchar,Assam,24.8333,92.7789,24.8,91,0.0,1003.4,8.9,24.5,112,33.4,28.2,9.4,331.0,84.0,5.2,3,5,4,1,2026-05-13T21:51:21.539041+05:30
Dibrugarh,Assam,27.4728,94.912,23.6,97,0.1,994.9,8.7,23.8,77,32.5,30.7,19.8,389.0,32.0,2.3,6,5,7,1,2026-05-13T21:51:21.539048+05:30
