city,state,latitude,longitude,temp,humidity,rain,pressure,uv_index,wind_gusts,aqi,pm10,pm2_5,no2,co,o3,so2,mosquito_risk,arthritis_risk,migraine_risk,frizz_risk,updated_at
Delhi,Delhi,28.6139,77.209,32.8,48,0.1,976.6,7.8,29.2,235,388.4,85.7,2.8,334.0,133.0,8.2,3,5,7,1,2026-06-14T17:29:15.005750+05:30
Mumbai,Maharashtra,19.076,72.8777,31.4,67,0.0,1006.4,7.7,53.3,68,29.0,15.3,4.0,134.0,62.0,3.8,3,5,4,1,2026-06-14T17:29:15.005798+05:30
Bangalore,Karnataka,12.9716,77.5946,24.6,74,0.1,910.1,7.85,40.7,50,26.4,12.4,8.9,235.0,76.0,3.2,6,5,7,1,2026-06-14T17:29:15.005813+05:30
Hyderabad,Telangana,17.385,78.4867,33.5,43,0.0,949.1,3.85,40.3,83,50.8,22.5,2.6,190.0,114.0,4.2,0,5,3,1,2026-06-14T17:29:15.005822+05:30
Chennai,Tamil Nadu,13.0827,80.2707,32.1,64,0.0,1003.0,8.9,37.8,77,41.0,24.3,5.1,232.0,145.0,5.7,3,5,4,1,2026-06-14T17:29:15.005830+05:30
Kolkata,West Bengal,22.5726,88.3639,31.2,71,0.0,999.1,9.0,41.4,127,32.7,26.1,6.9,409.0,115.0,8.4,3,5,7,1,2026-06-14T17:29:15.005837+05:30
Pune,Maharashtra,18.5204,73.8567,30.4,54,0.0,946.3,8.3,50.8,55,42.1,18.6,1.9,123.0,91.0,4.7,0,5,7,1,2026-06-14T17:29:15.005844+05:30
Ahmedabad,Gujarat,23.0225,72.5714,39.0,28,0.0,996.2,8.05,47.5,71,54.0,21.0,1.3,123.0,84.0,2.3,0,5,10,1,2026-06-14T17:29:15.005851+05:30
Jaipur,Rajasthan,26.9124,75.7873,31.1,54,0.2,954.1,8.2,45.0,125,250.5,59.4,2.4,162.0,101.0,3.7,3,5,7,1,2026-06-14T17:29:15.005861+05:30
Lucknow,Uttar Pradesh,26.8467,80.9462,35.2,46,0.0,985.7,8.35,29.5,152,303.6,75.7,3.4,253.0,144.0,9.5,0,5,10,1,2026-06-14T17:29:15.005869+05:30
Kanpur,Uttar Pradesh,26.4499,80.3319,38.1,30,0.0,984.0,8.3,36.0,156,521.5,92.4,2.5,228.0,137.0,7.5,0,5,10,1,2026-06-14T17:29:15.005875+05:30
Chandigarh,Chandigarh,30.7333,76.7794,33.1,44,0.0,962.4,7.8,24.1,125,32.6,16.1,1.3,340.0,155.0,6.9,0,5,7,1,2026-06-14T17:29:15.005882+05:30
Srinagar,Jammu and Kashmir,34.0837,74.7973,25.0,39,0.0,839.9,9.0,21.6,102,13.4,7.9,1.2,272.0,138.0,1.5,4,5,7,0,2026-06-14T17:29:15.005891+05:30
Jammu,Jammu and Kashmir,32.7266,74.857,34.8,28,0.0,966.8,8.6,30.6,130,26.7,13.8,0.2,216.0,163.0,1.3,0,5,7,0,2026-06-14T17:29:15.005897+05:30
Amritsar,Punjab,31.634,74.8723,34.2,42,0.0,974.1,8.4,18.4,113,36.2,16.9,0.0,240.0,168.0,3.1,0,5,7,1,2026-06-14T17:29:15.005903+05:30
Ludhiana,Punjab,30.901,75.8573,35.0,33,0.0,971.9,8.05,21.6,106,73.1,20.9,0.0,219.0,141.0,1.6,0,5,7,1,2026-06-14T17:29:15.005909+05:30
Jalandhar,Punjab,31.326,75.5762,34.3,37,0.0,973.1,8.2,22.3,104,67.5,23.0,0.0,187.0,151.0,1.4,0,5,7,1,2026-06-14T17:29:15.005915+05:30
Dehradun,Uttarakhand,30.6284,78.0322,22.1,60,0.0,828.4,8.3,32.8,87,21.1,10.0,3.4,186.0,123.0,1.3,0,5,7,0,2026-06-14T17:29:15.005924+05:30
Shimla,Himachal Pradesh,31.1048,77.1734,19.3,50,0.0,783.2,8.35,37.4,105,27.5,16.1,0.5,208.0,159.0,8.3,0,5,7,0,2026-06-14T17:29:15.005931+05:30
Manali,Himachal Pradesh,32.2396,77.1887,20.4,58,0.1,816.7,10.0,42.5,106,6.3,4.1,4.6,135.0,134.0,0.3,3,5,7,0,2026-06-14T17:29:15.005938+05:30
Gurgaon,Haryana,28.4595,77.0266,35.0,39,0.0,974.9,7.85,34.6,442,586.7,105.2,2.8,219.0,126.0,6.6,0,5,7,1,2026-06-14T17:29:15.005944+05:30
Noida,Uttar Pradesh,28.5355,77.391,34.0,45,0.0,978.0,7.85,32.0,442,586.7,105.2,2.8,244.0,126.0,6.6,0,5,7,1,2026-06-14T17:29:15.005951+05:30
Ghaziabad,Uttar Pradesh,28.6692,77.4538,34.9,46,0.0,976.1,7.8,28.4,173,401.4,90.1,4.9,266.0,151.0,13.2,0,5,7,1,2026-06-14T17:29:15.005957+05:30
Faridabad,Haryana,28.4089,77.3178,33.3,44,0.0,977.5,7.85,37.8,442,586.7,105.2,2.8,248.0,126.0,6.6,0,5,7,1,2026-06-14T17:29:15.005963+05:30
Meerut,Uttar Pradesh,28.9845,77.7064,33.9,51,0.0,974.7,7.7,33.8,173,401.4,90.1,4.9,288.0,151.0,13.2,0,5,7,1,2026-06-14T17:29:15.005969+05:30
Agra,Uttar Pradesh,27.1767,78.0081,38.5,30,0.0,980.3,8.15,65.2,330,527.1,81.3,0.5,179.0,119.0,2.7,0,5,10,1,2026-06-14T17:29:15.005975+05:30
Varanasi,Uttar Pradesh,25.3176,82.9739,37.3,34,0.0,989.5,8.8,35.6,172,124.3,43.0,1.9,229.0,150.0,7.5,0,5,10,1,2026-06-14T17:29:15.005981+05:30
Prayagraj,Uttar Pradesh,25.4358,81.8463,38.0,29,0.0,988.1,8.7,35.6,166,149.5,46.4,1.7,216.0,150.0,7.9,0,5,10,1,2026-06-14T17:29:15.005987+05:30
Gorakhpur,Uttar Pradesh,26.7606,83.3732,34.8,45,0.0,989.3,8.7,28.8,154,81.0,35.9,1.8,252.0,142.0,6.9,0,5,7,1,2026-06-14T17:29:15.005994+05:30
Bareilly,Uttar Pradesh,28.367,79.4304,33.7,50,0.0,979.4,8.15,36.0,158,202.1,60.1,2.5,241.0,142.0,6.2,0,5,7,1,2026-06-14T17:29:15.005999+05:30
Aligarh,Uttar Pradesh,27.8974,78.088,35.7,41,0.0,978.6,8.0,31.0,302,819.6,125.7,2.6,211.0,132.0,7.3,0,5,10,1,2026-06-14T17:29:15.006005+05:30
Moradabad,Uttar Pradesh,28.8386,78.7733,33.5,52,0.0,976.7,7.95,40.3,157,217.0,67.3,2.5,259.0,135.0,7.1,0,5,7,1,2026-06-14T17:29:15.006011+05:30
Saharanpur,Uttar Pradesh,29.9637,77.546,33.1,50,0.0,969.0,7.55,27.7,149,217.9,53.9,4.1,259.0,138.0,10.8,0,5,7,1,2026-06-14T17:29:15.006017+05:30
Jhansi,Uttar Pradesh,25.4484,78.5685,33.8,41,0.0,972.0,8.5,49.3,87,132.7,37.6,0.9,136.0,109.0,4.6,0,5,7,1,2026-06-14T17:29:18.330500+05:30
Surat,Gujarat,21.1702,72.8311,32.7,65,0.0,1002.9,7.55,54.7,76,36.2,19.8,8.2,197.0,54.0,23.5,3,5,4,1,2026-06-14T17:29:18.330532+05:30
Vadodara,Gujarat,22.3072,73.1812,37.6,36,0.0,998.8,8.0,50.8,75,63.8,25.1,1.2,124.0,97.0,3.2,0,5,10,1,2026-06-14T17:29:18.330543+05:30
Rajkot,Gujarat,22.3039,70.8022,37.3,35,0.0,989.6,7.55,52.9,69,51.5,21.1,1.1,101.0,86.0,3.7,0,5,10,1,2026-06-14T17:29:18.330551+05:30
Thane,Maharashtra,19.2183,72.9781,32.4,60,0.0,1005.6,7.65,48.2,68,29.0,15.3,4.0,119.0,62.0,3.8,0,5,4,1,2026-06-14T17:29:18.330559+05:30
Nagpur,Maharashtra,21.1458,79.0882,35.3,36,0.0,968.0,8.9,55.8,107,88.2,34.5,6.7,170.0,118.0,15.3,0,5,10,1,2026-06-14T17:29:18.330567+05:30
Nashik,Maharashtra,19.9975,73.7898,31.2,47,0.0,943.3,8.05,55.4,58,44.6,18.1,0.9,107.0,64.0,0.9,0,5,7,1,2026-06-14T17:29:18.330575+05:30
Aurangabad,Maharashtra,19.8762,75.3433,36.2,23,0.0,940.5,8.95,55.1,60,49.4,17.8,1.0,115.0,89.0,1.7,0,5,10,0,2026-06-14T17:29:18.330583+05:30
Solapur,Maharashtra,17.6599,75.9064,36.1,28,0.0,953.4,8.9,55.8,64,65.9,22.1,1.2,117.0,109.0,2.8,0,5,10,0,2026-06-14T17:29:18.330591+05:30
Kolhapur,Maharashtra,16.705,74.2433,27.6,70,0.0,946.7,8.75,48.2,46,20.4,10.6,1.7,114.0,70.0,1.5,7,5,7,1,2026-06-14T17:29:18.330598+05:30
Goa,Goa,15.2993,74.124,27.2,91,0.1,997.4,6.65,35.6,64,36.2,16.2,0.7,98.0,57.0,1.1,10,5,7,1,2026-06-14T17:29:18.330606+05:30
Jodhpur,Rajasthan,26.2389,73.0243,38.3,31,0.0,976.5,8.45,45.4,159,339.0,67.3,0.5,122.0,103.0,3.5,0,5,10,1,2026-06-14T17:29:18.330613+05:30
Udaipur,Rajasthan,24.5854,73.7125,33.9,37,0.1,942.1,8.85,48.6,77,122.5,32.4,0.5,116.0,87.0,1.9,3,5,7,1,2026-06-14T17:29:18.330620+05:30
Kota,Rajasthan,25.2138,75.8648,30.9,65,0.1,973.6,8.35,56.9,111,123.9,37.5,0.6,120.0,107.0,3.8,6,5,7,1,2026-06-14T17:29:18.330628+05:30
Bikaner,Rajasthan,28.0229,73.3119,39.4,25,0.0,974.6,8.45,40.7,152,225.8,64.0,0.2,142.0,103.0,2.8,0,5,10,0,2026-06-14T17:29:18.330636+05:30
Ajmer,Rajasthan,26.4499,74.6399,34.4,38,0.0,949.1,8.35,42.1,110,138.8,43.8,0.6,135.0,107.0,3.1,0,5,7,1,2026-06-14T17:29:18.330644+05:30
Gwalior,Madhya Pradesh,26.2183,78.1828,34.7,41,0.0,976.5,8.3,55.1,101,158.8,42.8,0.3,151.0,106.0,2.4,0,5,7,1,2026-06-14T17:29:18.330651+05:30
Indore,Madhya Pradesh,22.7196,75.8577,34.8,31,0.0,944.2,8.6,47.9,77,63.8,26.9,0.8,145.0,101.0,2.4,0,5,7,0,2026-06-14T17:29:18.330659+05:30
Bhopal,Madhya Pradesh,23.2599,77.4126,25.6,80,0.2,949.7,8.65,60.8,102,71.9,30.4,0.6,155.0,102.0,2.4,10,5,7,1,2026-06-14T17:29:18.330666+05:30
Jabalpur,Madhya Pradesh,23.1815,79.9864,35.3,32,0.0,955.6,8.75,27.4,95,119.7,33.8,1.1,146.0,110.0,2.2,0,5,10,1,2026-06-14T17:29:18.330673+05:30
Ujjain,Madhya Pradesh,23.1765,75.7885,35.3,34,0.0,949.8,8.55,55.4,76,75.7,27.5,0.6,121.0,96.0,2.8,0,5,10,1,2026-06-14T17:29:18.330681+05:30
Visakhapatnam,Andhra Pradesh,17.6868,83.2185,36.9,39,0.0,996.8,8.95,41.0,130,57.2,40.7,15.5,726.0,156.0,40.7,0,5,10,1,2026-06-14T17:29:18.330688+05:30
Vijayawada,Andhra Pradesh,16.5062,80.648,33.2,57,0.0,996.7,5.7,37.8,89,52.0,33.5,7.9,203.0,91.0,8.2,0,5,3,1,2026-06-14T17:29:18.330696+05:30
Guntur,Andhra Pradesh,16.3067,80.4365,33.0,56,0.0,998.1,3.25,40.7,84,47.8,31.5,9.2,201.0,81.0,7.7,0,5,3,1,2026-06-14T17:29:18.330704+05:30
Nellore,Andhra Pradesh,14.4426,79.9865,34.0,52,0.0,1000.7,8.45,41.4,63,53.8,27.8,3.0,142.0,123.0,5.2,0,5,4,1,2026-06-14T17:29:18.330713+05:30
Kurnool,Andhra Pradesh,15.8281,78.0373,35.1,40,0.0,972.6,1.45,39.6,71,56.9,23.7,0.7,114.0,123.0,7.0,0,5,6,1,2026-06-14T17:29:18.330720+05:30
Kakinada,Andhra Pradesh,16.9891,82.2475,33.9,55,0.0,1001.1,8.8,44.3,93,65.9,34.9,4.0,219.0,132.0,5.3,0,5,4,1,2026-06-14T17:29:18.330727+05:30
Tirupati,Andhra Pradesh,13.6288,79.4192,33.9,44,0.0,986.8,7.85,32.8,58,51.1,23.8,2.6,129.0,107.0,3.7,0,5,7,1,2026-06-14T17:29:18.330734+05:30
Warangal,Telangana,17.9689,79.5941,34.5,48,0.0,973.1,8.6,42.1,111,53.3,25.5,1.8,162.0,108.0,4.3,0,5,7,1,2026-06-14T17:29:18.330741+05:30
Nizamabad,Telangana,18.6725,78.0941,33.2,47,0.0,960.4,8.9,47.5,90,60.1,22.6,0.4,130.0,105.0,2.6,0,5,7,1,2026-06-14T17:29:18.330748+05:30
Mysore,Karnataka,12.2958,76.6396,26.6,68,0.0,927.4,8.8,40.0,37,10.8,6.1,3.6,147.0,71.0,1.7,7,5,7,1,2026-06-14T17:29:18.330755+05:30
Mangalore,Karnataka,12.9141,74.856,28.5,77,0.0,1006.4,8.2,34.6,55,22.6,9.8,1.1,100.0,64.0,1.3,7,5,4,1,2026-06-14T17:29:18.330762+05:30
Hubli-Dharwad,Karnataka,15.3647,75.124,27.7,70,0.1,939.4,5.45,50.4,48,13.0,7.1,1.6,122.0,70.0,1.1,10,5,3,1,2026-06-14T17:29:18.330769+05:30
Belgaum,Karnataka,15.8497,74.4977,26.7,70,0.0,924.9,6.55,53.3,43,18.6,8.9,1.5,107.0,62.0,1.1,7,5,7,1,2026-06-14T17:29:21.655091+05:30
Coimbatore,Tamil Nadu,11.0168,76.9558,28.7,67,0.0,960.1,8.65,46.1,34,10.3,5.6,1.9,148.0,73.0,1.7,7,5,7,1,2026-06-14T17:29:21.655125+05:30
Madurai,Tamil Nadu,9.9252,78.1198,31.0,68,0.2,989.9,8.8,46.1,57,18.0,7.9,1.1,210.0,80.0,1.1,6,5,7,1,2026-06-14T17:29:21.655137+05:30
Trichy,Tamil Nadu,10.7905,78.7047,31.8,59,0.0,996.8,7.9,55.4,52,21.9,10.5,2.1,161.0,89.0,1.6,0,5,7,1,2026-06-14T17:29:21.655148+05:30
Salem,Tamil Nadu,11.6643,78.146,31.5,54,0.0,974.8,8.75,38.5,59,35.6,15.1,5.1,140.0,84.0,6.6,0,5,7,1,2026-06-14T17:29:21.655157+05:30
Tirunelveli,Tamil Nadu,8.7139,77.7567,33.7,46,0.0,1000.6,8.3,47.2,45,17.5,9.2,1.5,115.0,71.0,1.3,0,5,4,1,2026-06-14T17:29:21.655166+05:30
Vellore,Tamil Nadu,12.9165,79.1325,33.8,46,0.0,980.5,8.55,47.9,57,47.1,20.7,4.3,143.0,90.0,2.0,0,5,7,1,2026-06-14T17:29:21.655175+05:30
Erode,Tamil Nadu,11.341,77.7172,32.2,54,0.0,986.5,8.35,47.9,49,16.5,7.9,2.5,167.0,83.0,1.5,0,5,7,1,2026-06-14T17:29:21.655184+05:30
Kochi,Kerala,9.9312,76.2673,28.2,80,0.0,1008.5,8.35,33.5,64,16.1,8.8,1.3,108.0,74.0,2.2,7,0,4,1,2026-06-14T17:29:21.655194+05:30
Thiruvananthapuram,Kerala,8.5241,76.9366,28.1,80,0.0,1007.6,7.95,45.0,43,18.9,9.7,1.5,106.0,71.0,1.0,7,5,4,1,2026-06-14T17:29:21.655202+05:30
Kozhikode,Kerala,11.2588,75.7804,28.6,76,0.0,1007.5,8.3,34.6,32,12.2,5.5,0.5,86.0,67.0,0.8,7,5,4,1,2026-06-14T17:29:21.655211+05:30
Thrissur,Kerala,10.5276,76.2144,28.3,79,0.0,1006.7,8.5,38.5,64,13.3,7.5,2.1,107.0,62.0,1.4,7,5,4,1,2026-06-14T17:29:21.655220+05:30
Kannur,Kerala,11.8745,75.3704,28.5,78,0.1,1006.7,7.95,33.5,50,20.0,8.6,0.8,101.0,63.0,1.0,10,5,4,1,2026-06-14T17:29:21.655229+05:30
Patna,Bihar,25.5941,85.1376,34.0,55,0.0,992.2,8.9,31.7,173,95.9,55.1,3.1,329.0,159.0,7.9,0,5,7,1,2026-06-14T17:29:21.655237+05:30
Gaya,Bihar,24.7914,85.0002,35.1,45,0.0,986.0,8.9,34.2,168,97.1,61.0,2.4,294.0,162.0,8.4,0,5,10,1,2026-06-14T17:29:21.655246+05:30
Muzaffarpur,Bihar,26.1209,85.3647,32.9,65,0.0,992.3,8.85,25.2,173,91.3,54.9,3.7,380.0,150.0,7.0,3,5,7,1,2026-06-14T17:29:21.655255+05:30
Bhagalpur,Bihar,25.2425,87.0117,34.8,51,0.0,992.7,8.8,22.0,184,95.5,62.4,5.0,313.0,179.0,15.1,0,5,7,1,2026-06-14T17:29:21.655263+05:30
Ranchi,Jharkhand,23.3441,85.3096,30.8,54,0.0,932.3,7.75,32.4,141,75.4,46.8,5.1,240.0,146.0,8.7,0,5,7,1,2026-06-14T17:29:21.655272+05:30
Jamshedpur,Jharkhand,22.8046,86.2029,29.7,77,0.3,984.3,8.9,27.4,186,82.0,61.7,7.1,287.0,189.0,25.6,10,5,7,1,2026-06-14T17:29:21.655281+05:30
Dhanbad,Jharkhand,23.7957,86.4304,34.2,50,0.0,972.6,8.9,22.7,168,109.2,78.5,18.9,193.0,176.0,59.2,0,5,7,1,2026-06-14T17:29:21.655289+05:30
Bokaro,Jharkhand,23.6693,86.1511,33.1,57,0.0,976.5,8.9,34.9,163,107.3,75.2,17.1,197.0,187.0,63.7,0,5,7,1,2026-06-14T17:29:21.655298+05:30
Bhubaneswar,Odisha,20.2961,85.8245,30.1,80,0.0,996.6,8.95,32.0,111,47.1,32.9,6.7,266.0,126.0,8.9,3,5,7,1,2026-06-14T17:29:21.655306+05:30
Cuttack,Odisha,20.4625,85.8828,28.7,91,0.3,998.4,8.8,25.9,111,47.1,32.9,6.7,231.0,126.0,8.9,10,5,7,1,2026-06-14T17:29:21.655315+05:30
Rourkela,Odisha,22.2604,84.8536,28.6,80,0.3,978.9,8.75,28.8,149,65.4,37.5,4.3,245.0,138.0,7.2,10,5,7,1,2026-06-14T17:29:21.655322+05:30
Raipur,Chhattisgarh,21.2514,81.6296,37.5,29,0.0,968.1,8.95,43.2,135,90.1,42.4,11.3,145.0,117.0,24.8,0,5,10,1,2026-06-14T17:29:21.655329+05:30
Bhilai,Chhattisgarh,21.1938,81.3509,36.7,31,0.0,968.6,8.95,55.4,127,87.5,39.6,11.7,219.0,111.0,25.9,0,5,10,1,2026-06-14T17:29:21.655336+05:30
Guwahati,Assam,26.1158,91.7086,27.9,88,0.1,993.9,8.7,36.0,69,17.2,14.6,3.3,327.0,102.0,2.3,10,5,7,1,2026-06-14T17:29:21.655343+05:30
Agartala,Tripura,23.8315,91.2868,28.0,89,0.1,999.9,8.15,34.6,68,20.7,17.7,5.3,206.0,105.0,2.5,10,5,7,1,2026-06-14T17:29:21.655350+05:30
Shillong,Meghalaya,25.5788,91.8933,22.4,78,0.0,853.0,9.0,26.3,48,10.0,9.1,4.3,245.0,103.0,2.1,3,5,7,1,2026-06-14T17:29:21.655357+05:30
Imphal,Manipur,24.817,93.9368,26.3,72,0.0,918.0,8.85,33.1,65,15.5,12.3,2.9,204.0,83.0,1.7,7,5,7,1,2026-06-14T17:29:21.655364+05:30
Aizawl,Mizoram,23.7271,92.7176,22.1,82,0.0,888.3,9.0,39.6,53,18.8,13.2,1.5,164.0,87.0,1.3,3,5,7,1,2026-06-14T17:29:21.655371+05:30
Kohima,Nagaland,25.6701,94.1077,20.5,98,0.1,851.1,8.8,23.8,43,5.9,5.2,2.5,191.0,79.0,1.0,6,5,7,1,2026-06-14T17:29:21.655378+05:30
Gangtok,Sikkim,27.3314,88.6138,20.0,93,0.1,833.1,8.8,35.3,83,8.2,6.5,2.4,293.0,125.0,1.4,6,5,7,1,2026-06-14T17:29:21.655385+05:30
Siliguri,West Bengal,26.7271,88.3953,27.9,87,0.0,985.1,8.7,19.8,111,34.7,27.4,3.8,471.0,136.0,4.4,7,5,7,1,2026-06-14T17:29:24.987109+05:30
Durgapur,West Bengal,23.5204,87.3119,32.8,66,0.0,987.4,9.05,30.6,202,116.6,100.8,19.6,434.0,242.0,62.5,3,5,7,1,2026-06-14T17:29:24.987143+05:30
Asansol,West Bengal,23.6739,86.9524,34.0,59,0.0,986.0,8.9,30.2,165,109.4,85.9,18.6,355.0,188.0,43.5,0,5,7,1,2026-06-14T17:29:24.987152+05:30
Pondicherry,Puducherry,11.9139,79.8145,31.6,66,0.1,1004.5,8.05,45.7,62,39.5,24.8,7.9,207.0,128.0,3.8,6,5,4,1,2026-06-14T17:29:24.987161+05:30
Port Blair,Andaman and Nicobar Islands,11.6234,92.7265,28.4,81,0.0,1005.6,7.45,44.6,32,18.3,10.4,0.3,92.0,44.0,0.5,7,5,4,1,2026-06-14T17:29:24.987169+05:30
Haridwar,Uttarakhand,29.9457,78.1642,33.0,50,0.0,967.4,7.65,28.8,125,95.9,34.5,2.0,246.0,147.0,9.0,0,5,7,1,2026-06-14T17:29:24.987177+05:30
Rishikesh,Uttarakhand,30.0869,78.2676,32.1,48,0.0,960.3,7.75,24.1,114,49.0,20.8,0.6,215.0,149.0,5.8,0,5,7,1,2026-06-14T17:29:24.987184+05:30
Nainital,Uttarakhand,29.3919,79.4542,21.2,56,0.0,803.6,8.6,36.4,132,115.0,35.7,1.2,198.0,144.0,4.2,0,5,7,0,2026-06-14T17:29:24.987192+05:30
Mussoorie,Uttarakhand,30.4599,78.0664,20.0,59,0.0,801.2,8.15,40.7,111,42.6,19.7,1.5,183.0,145.0,5.2,0,5,7,0,2026-06-14T17:29:24.987199+05:30
Dharamshala,Himachal Pradesh,32.219,76.3234,24.2,50,0.0,865.8,8.5,42.5,82,16.5,6.7,0.1,193.0,128.0,0.5,0,5,7,0,2026-06-14T17:29:24.987207+05:30
Dalhousie,Himachal Pradesh,32.5387,75.971,20.9,46,0.0,803.2,8.75,34.9,99,38.8,14.6,0.7,209.0,139.0,0.8,0,5,7,0,2026-06-14T17:29:24.987215+05:30
Patiala,Punjab,30.3398,76.3869,35.0,36,0.0,971.2,7.7,24.1,145,562.5,68.2,0.5,212.0,138.0,3.3,0,5,7,1,2026-06-14T17:29:24.987222+05:30
Bhatinda,Punjab,30.211,74.9455,35.3,37,0.0,977.3,8.3,28.1,112,50.4,24.2,1.7,215.0,163.0,11.2,0,5,10,1,2026-06-14T17:29:24.987229+05:30
Rohtak,Haryana,28.8955,76.6066,34.8,40,0.0,974.9,7.8,34.6,464,358.6,77.5,0.0,180.0,125.0,3.1,0,5,7,1,2026-06-14T17:29:24.987236+05:30
Panipat,Haryana,29.3909,76.9635,34.5,43,0.0,973.5,7.65,30.6,582,521.5,94.3,2.2,222.0,133.0,9.5,0,5,7,1,2026-06-14T17:29:24.987244+05:30
Mathura,Uttar Pradesh,27.4924,77.6737,36.5,38,0.0,979.6,8.1,38.2,266,549.5,85.0,1.1,200.0,113.0,2.4,0,5,10,1,2026-06-14T17:29:24.987250+05:30
Vrindavan,Uttar Pradesh,27.5823,77.7027,36.7,36,0.0,980.0,8.05,36.4,266,549.5,85.0,1.1,175.0,113.0,2.4,0,5,10,1,2026-06-14T17:29:24.987258+05:30
Ayodhya,Uttar Pradesh,26.7922,82.1998,34.4,48,0.0,987.5,8.4,31.7,152,89.4,36.2,2.6,239.0,152.0,9.2,0,5,7,1,2026-06-14T17:29:24.987265+05:30
Ratlam,Madhya Pradesh,23.3315,75.0367,35.5,33,0.0,950.3,8.5,46.8,75,100.4,31.5,0.5,114.0,96.0,3.2,0,5,10,1,2026-06-14T17:29:24.987272+05:30
Sagar,Madhya Pradesh,23.8388,78.7378,30.0,48,0.1,945.9,8.75,63.7,81,81.0,30.2,0.4,128.0,115.0,3.2,7,5,7,1,2026-06-14T17:29:24.987279+05:30
Satna,Madhya Pradesh,24.6005,80.8322,36.0,33,0.0,964.7,8.8,37.1,107,125.3,40.6,0.2,178.0,125.0,3.3,0,5,10,1,2026-06-14T17:29:24.987286+05:30
Akola,Maharashtra,20.7002,77.0082,37.0,32,0.0,970.0,8.8,52.6,71,73.3,27.9,1.0,121.0,108.0,4.9,0,5,10,1,2026-06-14T17:29:24.987294+05:30
Amravati,Maharashtra,20.9374,77.7796,35.9,33,0.0,962.5,8.85,53.3,73,75.0,28.6,1.5,114.0,107.0,5.2,0,5,10,1,2026-06-14T17:29:24.987303+05:30
Latur,Maharashtra,18.4088,76.5604,35.1,25,0.0,936.1,8.9,42.5,79,107.1,27.8,0.8,117.0,106.0,2.1,0,5,10,0,2026-06-14T17:29:24.987310+05:30
Nanded,Maharashtra,19.1383,77.3091,37.3,27,0.0,963.6,8.85,49.7,77,88.7,26.6,0.3,113.0,101.0,1.7,0,5,10,0,2026-06-14T17:29:24.987317+05:30
Gulbarga,Karnataka,17.3297,76.8343,35.4,29,0.0,954.5,8.9,43.9,69,102.0,27.1,1.3,123.0,109.0,2.8,0,5,10,0,2026-06-14T17:29:24.987325+05:30
Bidar,Karnataka,17.9104,77.5199,33.6,33,0.0,931.9,8.85,40.3,88,90.3,28.5,1.6,126.0,113.0,4.5,0,5,7,0,2026-06-14T17:29:24.987332+05:30
Hospet,Karnataka,15.2689,76.3909,33.5,39,0.0,952.9,8.65,48.2,52,63.6,19.6,2.4,137.0,104.0,2.2,0,5,7,1,2026-06-14T17:29:24.987339+05:30
Tirupur,Tamil Nadu,11.1085,77.3411,31.0,57,0.0,973.0,8.45,47.5,51,14.8,7.5,2.4,147.0,80.0,1.9,0,5,7,1,2026-06-14T17:29:24.987346+05:30
Alappuzha,Kerala,9.4981,76.3388,28.5,79,0.0,1008.5,8.15,37.8,52,17.6,9.5,2.1,95.0,76.0,2.2,7,0,4,1,2026-06-14T17:29:24.987353+05:30
Munnar,Kerala,10.0889,77.0595,18.3,92,0.1,856.6,8.55,37.8,35,13.8,6.5,2.1,102.0,59.0,0.9,6,10,7,1,2026-06-14T17:29:24.987361+05:30
Silchar,Assam,24.8333,92.7789,27.7,88,0.0,999.0,8.8,29.5,68,19.4,16.3,3.8,233.0,93.0,3.1,7,5,7,1,2026-06-14T17:29:24.987368+05:30
Dibrugarh,Assam,27.4728,94.912,27.3,95,0.1,988.1,8.3,29.5,74,17.7,15.5,3.1,262.0,110.0,1.3,10,5,7,1,2026-06-14T17:29:24.987375+05:30
