city,state,latitude,longitude,temp,humidity,rain,pressure,uv_index,wind_gusts,aqi,pm10,pm2_5,no2,co,o3,so2,mosquito_risk,arthritis_risk,migraine_risk,frizz_risk,updated_at
Delhi,Delhi,28.6139,77.209,30.5,40,0.0,982.3,7.45,45.7,496,416.3,66.4,6.6,345.0,179.0,14.0,0,5,7,0,2026-05-04T14:52:44.122494+05:30
Mumbai,Maharashtra,19.076,72.8777,32.5,60,0.0,1006.1,7.85,42.8,64,40.2,19.9,4.1,193.0,108.0,17.0,0,5,4,1,2026-05-04T14:52:44.122541+05:30
Bangalore,Karnataka,12.9716,77.5946,34.5,25,0.0,910.5,9.5,42.8,79,47.6,19.8,3.6,269.0,159.0,5.3,0,5,7,0,2026-05-04T14:52:44.122558+05:30
Hyderabad,Telangana,17.385,78.4867,39.3,12,0.0,950.1,9.25,34.2,88,39.2,16.8,2.5,235.0,175.0,7.3,0,5,10,0,2026-05-04T14:52:44.122570+05:30
Chennai,Tamil Nadu,13.0827,80.2707,35.0,58,0.0,1002.7,9.25,45.0,75,33.1,22.8,2.5,221.0,137.0,6.9,0,5,4,1,2026-05-04T14:52:44.122579+05:30
Kolkata,West Bengal,22.5726,88.3639,30.6,70,0.0,1005.5,8.95,32.0,100,41.7,24.5,2.0,356.0,122.0,7.4,3,5,4,1,2026-05-04T14:52:44.122588+05:30
Pune,Maharashtra,18.5204,73.8567,36.1,20,0.0,946.2,8.45,53.3,58,62.9,14.5,1.3,162.0,118.0,2.8,0,5,10,0,2026-05-04T14:52:44.122596+05:30
Ahmedabad,Gujarat,23.0225,72.5714,39.6,28,0.0,996.3,8.05,40.0,54,60.5,18.9,1.9,180.0,132.0,6.9,0,5,10,1,2026-05-04T14:52:44.122606+05:30
Jaipur,Rajasthan,26.9124,75.7873,34.3,28,0.0,957.4,8.05,34.6,178,220.3,32.9,1.1,231.0,144.0,4.7,0,5,7,0,2026-05-04T14:52:44.122615+05:30
Lucknow,Uttar Pradesh,26.8467,80.9462,29.6,60,0.0,991.6,7.7,50.0,128,61.2,31.8,1.7,363.0,173.0,5.8,4,5,7,1,2026-05-04T14:52:44.122623+05:30
Kanpur,Uttar Pradesh,26.4499,80.3319,31.2,55,0.0,989.4,8.05,52.9,190,167.2,44.5,1.8,326.0,188.0,7.9,0,5,7,1,2026-05-04T14:52:44.122630+05:30
Chandigarh,Chandigarh,30.7333,76.7794,30.4,32,0.0,969.0,7.5,50.4,91,117.3,29.4,4.0,351.0,150.0,6.8,0,5,7,0,2026-05-04T14:52:44.122637+05:30
Srinagar,Jammu and Kashmir,34.0837,74.7973,16.5,68,0.0,841.7,6.3,26.3,82,15.9,11.4,2.4,263.0,154.0,2.5,3,5,7,0,2026-05-04T14:52:44.122646+05:30
Jammu,Jammu and Kashmir,32.7266,74.857,29.6,33,0.0,973.5,8.2,51.8,72,106.9,26.5,1.7,201.0,156.0,3.0,4,5,7,0,2026-05-04T14:52:44.122653+05:30
Amritsar,Punjab,31.634,74.8723,29.8,37,0.0,981.1,8.05,55.4,124,197.4,42.8,1.6,244.0,163.0,9.9,4,5,7,0,2026-05-04T14:52:44.122660+05:30
Ludhiana,Punjab,30.901,75.8573,28.1,44,0.1,979.0,7.4,48.2,141,81.0,28.1,5.2,295.0,142.0,9.2,7,5,7,0,2026-05-04T14:52:44.122668+05:30
Jalandhar,Punjab,31.326,75.5762,28.0,46,0.0,979.7,7.8,45.0,110,130.4,34.7,4.5,275.0,150.0,16.6,4,5,7,0,2026-05-04T14:52:44.122675+05:30
Dehradun,Uttarakhand,30.6284,78.0322,17.1,54,0.0,831.0,7.25,36.4,56,89.4,17.0,0.7,184.0,145.0,1.4,0,5,7,0,2026-05-04T14:52:44.122684+05:30
Shimla,Himachal Pradesh,31.1048,77.1734,12.6,62,0.0,784.1,8.0,36.4,88,126.7,24.5,2.2,216.0,140.0,1.6,3,5,7,0,2026-05-04T14:52:44.122692+05:30
Manali,Himachal Pradesh,32.2396,77.1887,13.2,69,0.1,817.4,9.95,34.2,118,56.8,11.4,1.9,167.0,163.0,1.1,6,5,7,0,2026-05-04T14:52:44.122698+05:30
Gurgaon,Haryana,28.4595,77.0266,31.2,37,0.0,980.5,7.6,45.7,2027,2317.1,230.0,5.0,287.0,178.0,11.8,0,5,7,0,2026-05-04T14:52:44.122708+05:30
Noida,Uttar Pradesh,28.5355,77.391,31.4,40,0.0,983.6,7.5,43.2,2027,2317.1,230.0,5.0,306.0,178.0,11.8,0,5,7,0,2026-05-04T14:52:44.122715+05:30
Ghaziabad,Uttar Pradesh,28.6692,77.4538,31.1,42,0.0,982.0,7.45,45.7,277,446.1,58.6,2.8,274.0,171.0,5.2,0,5,7,1,2026-05-04T14:52:44.122723+05:30
Faridabad,Haryana,28.4089,77.3178,30.5,42,0.0,982.8,7.5,49.0,2027,2317.1,230.0,5.0,300.0,178.0,11.8,0,5,7,1,2026-05-04T14:52:44.122729+05:30
Meerut,Uttar Pradesh,28.9845,77.7064,29.9,48,0.0,981.0,7.4,58.7,277,446.1,58.6,2.8,298.0,171.0,5.2,4,5,7,1,2026-05-04T14:52:44.122735+05:30
Agra,Uttar Pradesh,27.1767,78.0081,33.2,37,0.0,985.7,7.25,56.2,1003,1080.3,110.6,1.9,260.0,164.0,8.7,0,5,7,1,2026-05-04T14:52:44.122742+05:30
Varanasi,Uttar Pradesh,25.3176,82.9739,26.0,83,0.1,997.5,8.65,46.8,151,71.9,44.9,2.1,344.0,202.0,16.2,10,5,7,1,2026-05-04T14:52:44.122749+05:30
Prayagraj,Uttar Pradesh,25.4358,81.8463,32.6,52,0.0,994.7,8.5,56.9,154,69.6,41.8,2.3,343.0,196.0,13.1,0,5,7,1,2026-05-04T14:52:44.122759+05:30
Gorakhpur,Uttar Pradesh,26.7606,83.3732,25.5,81,0.2,997.9,8.45,42.5,118,63.8,33.9,1.7,313.0,176.0,4.2,10,5,7,1,2026-05-04T14:52:44.122766+05:30
Bareilly,Uttar Pradesh,28.367,79.4304,28.5,56,0.0,987.0,7.1,60.5,103,43.2,21.7,1.5,310.0,153.0,2.5,4,5,7,1,2026-05-04T14:52:44.122772+05:30
Aligarh,Uttar Pradesh,27.8974,78.088,31.9,44,0.0,984.3,7.7,54.0,653,1024.5,108.7,2.7,296.0,176.0,10.2,0,5,7,1,2026-05-04T14:52:44.122780+05:30
Moradabad,Uttar Pradesh,28.8386,78.7733,29.0,53,0.0,983.7,7.55,59.8,101,41.9,23.1,2.4,286.0,162.0,6.5,4,5,7,1,2026-05-04T14:52:44.122788+05:30
Saharanpur,Uttar Pradesh,29.9637,77.546,30.2,37,0.0,975.5,7.05,56.9,123,74.5,23.3,1.8,270.0,153.0,3.3,0,5,7,0,2026-05-04T14:52:44.122794+05:30
Jhansi,Uttar Pradesh,25.4484,78.5685,34.6,37,0.0,975.5,8.35,50.8,138,66.8,27.8,1.6,209.0,169.0,14.9,0,5,7,1,2026-05-04T14:52:47.371836+05:30
Surat,Gujarat,21.1702,72.8311,34.0,52,0.0,1003.0,7.7,50.8,59,45.5,19.6,8.5,227.0,82.0,26.1,0,5,4,1,2026-05-04T14:52:47.371872+05:30
Vadodara,Gujarat,22.3072,73.1812,38.6,30,0.0,999.2,8.05,42.8,52,49.5,19.0,1.6,163.0,127.0,5.0,0,5,10,1,2026-05-04T14:52:47.371883+05:30
Rajkot,Gujarat,22.3039,70.8022,40.8,19,0.0,988.6,7.7,44.3,49,48.3,14.5,0.9,145.0,116.0,3.8,0,5,10,0,2026-05-04T14:52:47.371891+05:30
Thane,Maharashtra,19.2183,72.9781,34.8,47,0.0,1004.9,7.85,40.3,64,40.2,19.9,4.1,197.0,108.0,17.0,0,5,4,1,2026-05-04T14:52:47.371898+05:30
Nagpur,Maharashtra,21.1458,79.0882,42.3,11,0.0,968.5,8.9,47.2,118,28.9,15.0,3.8,157.0,164.0,16.8,0,5,10,0,2026-05-04T14:52:47.371906+05:30
Nashik,Maharashtra,19.9975,73.7898,35.2,26,0.0,943.2,8.15,50.4,59,53.6,17.2,1.1,160.0,125.0,4.6,0,5,10,0,2026-05-04T14:52:47.371913+05:30
Aurangabad,Maharashtra,19.8762,75.3433,38.0,17,0.0,941.1,9.05,37.8,54,57.7,14.4,0.9,146.0,132.0,2.7,0,5,10,0,2026-05-04T14:52:47.371920+05:30
Solapur,Maharashtra,17.6599,75.9064,39.7,11,0.0,953.9,9.05,40.3,52,42.8,11.8,1.0,148.0,124.0,1.5,0,5,10,0,2026-05-04T14:52:47.371927+05:30
Kolhapur,Maharashtra,16.705,74.2433,36.4,19,0.0,946.0,8.95,47.2,59,53.6,14.8,1.3,154.0,113.0,1.4,0,5,10,0,2026-05-04T14:52:47.371933+05:30
Goa,Goa,15.2993,74.124,35.1,47,0.0,995.7,8.9,36.4,67,49.0,16.5,0.6,147.0,82.0,1.0,0,5,10,1,2026-05-04T14:52:47.371940+05:30
Jodhpur,Rajasthan,26.2389,73.0243,39.4,19,0.0,977.4,8.25,60.5,94,140.6,25.6,0.8,167.0,147.0,3.8,0,5,10,0,2026-05-04T14:52:47.371947+05:30
Udaipur,Rajasthan,24.5854,73.7125,34.3,32,0.0,943.3,8.75,43.9,52,90.3,22.2,0.6,161.0,132.0,4.3,0,5,7,0,2026-05-04T14:52:47.371954+05:30
Kota,Rajasthan,25.2138,75.8648,36.2,24,0.0,975.7,8.25,36.7,63,61.0,19.3,1.1,171.0,147.0,6.5,0,5,10,0,2026-05-04T14:52:47.371960+05:30
Bikaner,Rajasthan,28.0229,73.3119,38.8,10,0.0,977.0,8.1,52.6,80,138.8,23.1,0.5,161.0,144.0,7.2,0,5,10,0,2026-05-04T14:52:47.371968+05:30
Ajmer,Rajasthan,26.4499,74.6399,36.9,19,0.0,950.8,8.2,41.0,74,78.0,18.2,0.7,155.0,131.0,3.2,0,5,10,0,2026-05-04T14:52:47.371975+05:30
Gwalior,Madhya Pradesh,26.2183,78.1828,36.0,29,0.0,980.2,7.9,52.9,127,66.4,30.6,1.0,170.0,169.0,9.3,0,5,10,0,2026-05-04T14:52:47.371981+05:30
Indore,Madhya Pradesh,22.7196,75.8577,37.7,21,0.0,944.9,8.6,37.1,47,36.2,13.0,1.1,175.0,125.0,4.1,0,5,10,0,2026-05-04T14:52:47.371987+05:30
Bhopal,Madhya Pradesh,23.2599,77.4126,38.5,17,0.0,950.1,8.65,34.6,60,23.3,9.0,0.7,163.0,124.0,3.4,0,5,10,0,2026-05-04T14:52:47.371994+05:30
Jabalpur,Madhya Pradesh,23.1815,79.9864,39.3,17,0.0,957.9,8.2,33.1,109,56.1,17.1,1.1,163.0,148.0,4.3,0,5,10,0,2026-05-04T14:52:47.372000+05:30
Ujjain,Madhya Pradesh,23.1765,75.7885,37.8,23,0.0,950.3,8.55,43.6,48,45.8,15.5,0.7,162.0,121.0,4.4,0,5,10,0,2026-05-04T14:52:47.372008+05:30
Visakhapatnam,Andhra Pradesh,17.6868,83.2185,31.2,67,0.0,1001.7,7.6,36.7,75,28.1,20.5,8.2,315.0,89.0,9.3,3,5,4,1,2026-05-04T14:52:47.372014+05:30
Vijayawada,Andhra Pradesh,16.5062,80.648,34.8,55,0.0,999.3,9.15,34.2,123,49.4,32.2,1.9,235.0,169.0,9.6,0,5,7,1,2026-05-04T14:52:47.372021+05:30
Guntur,Andhra Pradesh,16.3067,80.4365,36.2,47,0.0,1000.1,9.2,34.6,132,52.9,31.0,1.6,255.0,168.0,6.5,0,5,7,1,2026-05-04T14:52:47.372031+05:30
Nellore,Andhra Pradesh,14.4426,79.9865,36.0,53,0.0,1001.3,9.15,40.0,116,40.2,23.8,1.5,269.0,162.0,4.7,0,5,7,1,2026-05-04T14:52:47.372039+05:30
Kurnool,Andhra Pradesh,15.8281,78.0373,40.9,13,0.0,972.9,9.15,34.2,67,56.3,18.0,1.2,174.0,144.0,6.0,0,5,10,0,2026-05-04T14:52:47.372046+05:30
Kakinada,Andhra Pradesh,16.9891,82.2475,30.8,72,0.0,1005.2,9.1,30.2,67,27.2,18.6,0.9,230.0,98.0,1.2,3,5,4,1,2026-05-04T14:52:47.372053+05:30
Tirupati,Andhra Pradesh,13.6288,79.4192,39.4,26,0.0,986.0,9.1,49.7,86,47.3,20.6,1.6,215.0,158.0,3.7,0,5,10,1,2026-05-04T14:52:47.372059+05:30
Warangal,Telangana,17.9689,79.5941,38.8,27,0.0,975.0,9.15,38.9,133,51.0,30.9,1.6,210.0,174.0,7.8,0,5,10,1,2026-05-04T14:52:47.372065+05:30
Nizamabad,Telangana,18.6725,78.0941,40.2,12,0.0,961.0,9.1,33.5,75,47.3,15.2,1.1,166.0,135.0,3.6,0,5,10,0,2026-05-04T14:52:47.372071+05:30
Mysore,Karnataka,12.2958,76.6396,34.2,33,0.0,926.7,9.4,37.4,66,49.5,19.9,1.9,185.0,146.0,2.1,0,5,7,0,2026-05-04T14:52:47.372077+05:30
Mangalore,Karnataka,12.9141,74.856,33.2,56,0.0,1004.4,9.05,43.6,68,53.8,17.8,0.8,142.0,85.0,1.0,0,5,4,1,2026-05-04T14:52:47.372084+05:30
Hubli-Dharwad,Karnataka,15.3647,75.124,36.2,21,0.0,939.0,9.15,53.6,55,49.9,14.4,1.3,154.0,113.0,1.1,0,5,10,0,2026-05-04T14:52:47.372090+05:30
Belgaum,Karnataka,15.8497,74.4977,34.6,21,0.0,924.7,9.15,46.4,56,43.8,13.6,1.2,147.0,103.0,1.5,0,5,7,0,2026-05-04T14:52:50.630541+05:30
Coimbatore,Tamil Nadu,11.0168,76.9558,32.3,48,0.0,959.3,9.35,50.4,67,46.1,19.7,1.9,196.0,123.0,2.4,0,5,7,1,2026-05-04T14:52:50.630576+05:30
Madurai,Tamil Nadu,9.9252,78.1198,39.5,30,0.0,988.2,5.8,51.1,126,39.5,26.1,2.6,219.0,194.0,3.9,0,5,6,1,2026-05-04T14:52:50.630588+05:30
Trichy,Tamil Nadu,10.7905,78.7047,39.0,30,0.0,994.8,9.25,41.8,75,39.9,20.7,1.6,199.0,149.0,3.9,0,5,10,1,2026-05-04T14:52:50.630597+05:30
Salem,Tamil Nadu,11.6643,78.146,36.6,32,0.0,973.3,8.8,32.0,82,56.0,24.9,2.7,203.0,182.0,10.8,0,5,10,1,2026-05-04T14:52:50.630605+05:30
Tirunelveli,Tamil Nadu,8.7139,77.7567,39.1,28,0.0,998.5,8.0,34.9,73,53.8,22.2,1.3,197.0,113.0,1.2,0,5,10,1,2026-05-04T14:52:50.630613+05:30
Vellore,Tamil Nadu,12.9165,79.1325,34.5,40,0.0,981.0,8.9,49.0,98,53.6,24.3,1.7,205.0,178.0,4.2,0,5,7,1,2026-05-04T14:52:50.630621+05:30
Erode,Tamil Nadu,11.341,77.7172,38.5,28,0.0,984.6,9.25,54.7,68,51.8,21.2,2.0,224.0,151.0,1.8,0,5,10,1,2026-05-04T14:52:50.630628+05:30
Kochi,Kerala,9.9312,76.2673,30.2,75,0.0,1006.6,9.05,30.6,105,66.8,27.3,2.5,153.0,110.0,1.7,3,5,4,1,2026-05-04T14:52:50.630635+05:30
Thiruvananthapuram,Kerala,8.5241,76.9366,32.0,59,0.0,1005.7,8.0,44.6,69,64.5,24.7,1.0,155.0,97.0,1.2,0,5,4,1,2026-05-04T14:52:50.630642+05:30
Kozhikode,Kerala,11.2588,75.7804,31.1,72,0.0,1005.5,9.0,38.9,70,65.7,21.7,0.4,142.0,82.0,0.9,3,5,4,1,2026-05-04T14:52:50.630649+05:30
Thrissur,Kerala,10.5276,76.2144,32.2,65,0.0,1004.6,9.05,30.6,92,57.6,23.6,1.8,156.0,100.0,1.1,3,5,4,1,2026-05-04T14:52:50.630657+05:30
Kannur,Kerala,11.8745,75.3704,32.2,64,0.0,1004.7,9.0,47.2,68,55.5,19.7,0.9,142.0,89.0,1.0,3,5,4,1,2026-05-04T14:52:50.630665+05:30
Patna,Bihar,25.5941,85.1376,32.2,53,0.0,999.1,8.7,45.7,129,71.2,49.1,2.6,267.0,191.0,9.0,0,5,7,1,2026-05-04T14:52:50.630672+05:30
Gaya,Bihar,24.7914,85.0002,32.3,50,0.0,992.3,8.8,50.4,137,69.2,46.0,2.2,264.0,205.0,10.0,0,5,7,1,2026-05-04T14:52:50.630679+05:30
Muzaffarpur,Bihar,26.1209,85.3647,31.5,57,0.0,999.5,8.7,44.3,110,68.9,45.9,2.8,288.0,180.0,6.5,0,5,7,1,2026-05-04T14:52:50.630685+05:30
Bhagalpur,Bihar,25.2425,87.0117,33.0,49,0.0,1000.1,8.7,36.4,109,43.4,32.7,3.8,256.0,184.0,6.4,0,5,4,1,2026-05-04T14:52:50.630692+05:30
Ranchi,Jharkhand,23.3441,85.3096,30.4,46,0.0,937.0,9.15,42.1,142,60.5,34.2,1.6,229.0,197.0,15.4,0,5,7,1,2026-05-04T14:52:50.630699+05:30
Jamshedpur,Jharkhand,22.8046,86.2029,34.0,42,0.0,988.6,9.05,42.5,124,57.2,41.7,2.9,239.0,204.0,17.9,0,5,7,1,2026-05-04T14:52:50.630705+05:30
Dhanbad,Jharkhand,23.7957,86.4304,30.4,63,0.0,978.9,9.0,45.0,150,72.9,58.9,9.4,292.0,222.0,41.6,3,5,7,1,2026-05-04T14:52:50.630712+05:30
Bokaro,Jharkhand,23.6693,86.1511,30.8,61,0.0,982.7,9.0,35.6,152,80.8,66.1,10.2,286.0,259.0,52.9,3,5,7,1,2026-05-04T14:52:50.630719+05:30
Bhubaneswar,Odisha,20.2961,85.8245,32.4,59,0.0,1000.7,9.1,43.2,70,29.3,19.7,2.1,191.0,110.0,2.9,0,5,4,1,2026-05-04T14:52:50.630725+05:30
Cuttack,Odisha,20.4625,85.8828,33.5,52,0.0,1002.2,9.15,40.3,70,29.3,19.7,2.1,210.0,110.0,2.9,0,5,4,1,2026-05-04T14:52:50.630732+05:30
Rourkela,Odisha,22.2604,84.8536,37.3,27,0.0,982.0,9.0,38.9,155,66.6,39.9,2.2,219.0,202.0,28.5,0,5,10,0,2026-05-04T14:52:50.630740+05:30
Raipur,Chhattisgarh,21.2514,81.6296,37.5,28,0.0,971.8,8.95,55.4,151,60.1,25.1,4.3,219.0,170.0,6.8,0,5,10,0,2026-05-04T14:52:50.630746+05:30
Bhilai,Chhattisgarh,21.1938,81.3509,35.6,35,0.0,971.9,9.0,43.9,119,55.8,22.4,4.9,373.0,166.0,6.9,0,5,10,1,2026-05-04T14:52:50.630752+05:30
Guwahati,Assam,26.1158,91.7086,27.5,73,0.0,1001.5,8.65,32.4,83,36.1,23.5,1.4,247.0,128.0,1.3,7,5,4,1,2026-05-04T14:52:50.630759+05:30
Agartala,Tripura,23.8315,91.2868,30.3,67,0.0,1006.2,8.85,33.1,46,15.7,10.5,3.8,190.0,138.0,0.6,3,5,4,1,2026-05-04T14:52:50.630765+05:30
Shillong,Meghalaya,25.5788,91.8933,18.7,86,0.2,857.3,9.05,30.6,68,21.0,12.7,1.3,199.0,121.0,1.2,6,10,7,1,2026-05-04T14:52:50.630772+05:30
Imphal,Manipur,24.817,93.9368,25.9,59,0.0,924.0,6.85,20.9,95,19.4,12.7,1.3,224.0,115.0,1.1,4,5,7,1,2026-05-04T14:52:50.630778+05:30
Aizawl,Mizoram,23.7271,92.7176,25.4,53,0.0,893.8,8.45,29.5,39,26.8,14.1,0.5,169.0,112.0,0.6,4,5,7,0,2026-05-04T14:52:50.630785+05:30
Kohima,Nagaland,25.6701,94.1077,21.4,70,0.0,856.7,8.9,26.6,72,32.1,18.3,1.3,219.0,114.0,1.0,3,5,7,0,2026-05-04T14:52:50.630791+05:30
Gangtok,Sikkim,27.3314,88.6138,18.9,71,0.0,839.3,7.25,37.1,76,22.2,15.7,1.1,239.0,128.0,0.6,3,5,7,0,2026-05-04T14:52:50.630797+05:30
Siliguri,West Bengal,26.7271,88.3953,29.6,56,0.1,993.4,8.5,30.6,91,34.2,21.1,1.5,286.0,137.0,1.5,7,5,7,1,2026-05-04T14:52:53.878314+05:30
Durgapur,West Bengal,23.5204,87.3119,28.1,78,0.0,994.8,8.95,46.4,125,64.0,47.5,8.1,274.0,171.0,25.0,7,5,7,1,2026-05-04T14:52:53.878349+05:30
Asansol,West Bengal,23.6739,86.9524,31.0,65,0.0,992.6,9.0,46.1,134,67.1,50.6,7.2,275.0,187.0,29.1,3,5,7,1,2026-05-04T14:52:53.878361+05:30
Pondicherry,Puducherry,11.9139,79.8145,32.8,66,0.0,1004.0,8.4,46.8,71,35.9,27.0,2.1,225.0,150.0,7.6,3,5,4,1,2026-05-04T14:52:53.878370+05:30
Port Blair,Andaman and Nicobar Islands,11.6234,92.7265,32.5,56,0.0,1005.5,9.1,34.9,26,11.9,9.8,0.3,149.0,52.0,5.1,0,5,4,1,2026-05-04T14:52:53.878378+05:30
Haridwar,Uttarakhand,29.9457,78.1642,29.9,36,0.0,973.8,6.85,43.9,104,65.7,19.6,1.2,272.0,153.0,2.2,4,5,7,0,2026-05-04T14:52:53.878387+05:30
Rishikesh,Uttarakhand,30.0869,78.2676,30.9,32,0.0,966.3,6.65,36.4,93,61.5,15.9,0.7,235.0,149.0,1.4,0,5,7,0,2026-05-04T14:52:53.878395+05:30
Nainital,Uttarakhand,29.3919,79.4542,16.8,55,0.0,806.3,7.85,43.9,94,46.4,16.6,0.8,232.0,145.0,1.4,0,5,7,0,2026-05-04T14:52:53.878403+05:30
Mussoorie,Uttarakhand,30.4599,78.0664,13.8,65,0.1,802.8,7.2,43.2,83,80.1,19.6,1.1,187.0,152.0,2.7,6,5,7,0,2026-05-04T14:52:53.878410+05:30
Dharamshala,Himachal Pradesh,32.219,76.3234,21.6,37,0.0,869.0,8.0,42.1,100,119.2,22.6,0.8,203.0,150.0,1.7,0,5,7,0,2026-05-04T14:52:53.878417+05:30
Dalhousie,Himachal Pradesh,32.5387,75.971,16.4,55,0.0,804.3,6.65,38.2,87,190.5,36.3,1.8,257.0,155.0,3.2,0,5,7,0,2026-05-04T14:52:53.878425+05:30
Patiala,Punjab,30.3398,76.3869,30.6,39,0.0,977.6,7.4,52.6,370,85.9,25.8,3.9,266.0,147.0,5.6,0,5,7,0,2026-05-04T14:52:53.878432+05:30
Bhatinda,Punjab,30.211,74.9455,31.9,31,0.0,982.7,8.0,47.5,576,348.3,64.3,4.2,258.0,168.0,11.5,0,5,7,0,2026-05-04T14:52:53.878439+05:30
Rohtak,Haryana,28.8955,76.6066,31.2,33,0.0,981.6,7.5,51.1,933,804.7,105.2,5.4,292.0,189.0,16.0,0,5,7,0,2026-05-04T14:52:53.878446+05:30
Panipat,Haryana,29.3909,76.9635,31.0,33,0.0,980.1,7.35,46.1,1214,432.1,62.2,4.5,285.0,179.0,13.2,0,5,7,0,2026-05-04T14:52:53.878453+05:30
Mathura,Uttar Pradesh,27.4924,77.6737,33.2,37,0.0,985.0,7.8,52.2,998,1315.0,137.4,2.8,249.0,167.0,8.5,0,5,7,1,2026-05-04T14:52:53.878459+05:30
Vrindavan,Uttar Pradesh,27.5823,77.7027,33.4,35,0.0,985.6,7.8,51.1,998,1315.0,137.4,2.8,244.0,167.0,8.5,0,5,7,0,2026-05-04T14:52:53.878466+05:30
Ayodhya,Uttar Pradesh,26.7922,82.1998,30.0,59,0.0,994.7,7.8,43.2,121,76.1,32.9,1.5,307.0,175.0,4.5,4,5,7,1,2026-05-04T14:52:53.878473+05:30
Ratlam,Madhya Pradesh,23.3315,75.0367,37.1,24,0.0,951.4,8.45,34.6,45,51.0,16.0,0.6,151.0,120.0,4.0,0,5,10,0,2026-05-04T14:52:53.878480+05:30
Sagar,Madhya Pradesh,23.8388,78.7378,36.8,23,0.0,947.7,8.65,43.6,84,51.6,15.4,0.8,158.0,139.0,3.5,0,5,10,0,2026-05-04T14:52:53.878487+05:30
Satna,Madhya Pradesh,24.6005,80.8322,33.8,37,0.0,969.7,8.2,42.8,136,69.6,36.6,2.1,237.0,183.0,10.5,0,5,7,1,2026-05-04T14:52:53.878494+05:30
Akola,Maharashtra,20.7002,77.0082,40.0,15,0.0,970.8,8.85,34.6,49,48.1,15.4,1.3,154.0,134.0,9.9,0,5,10,0,2026-05-04T14:52:53.878501+05:30
Amravati,Maharashtra,20.9374,77.7796,40.2,13,0.0,963.4,8.9,36.7,50,48.2,15.2,1.4,156.0,136.0,7.3,0,5,10,0,2026-05-04T14:52:53.878508+05:30
Latur,Maharashtra,18.4088,76.5604,39.8,11,0.0,936.7,9.1,37.8,57,46.3,12.0,0.8,151.0,120.0,1.7,0,5,10,0,2026-05-04T14:52:53.878515+05:30
Nanded,Maharashtra,19.1383,77.3091,40.5,12,0.0,964.7,9.0,29.9,58,55.1,15.0,1.0,157.0,129.0,2.6,0,5,10,0,2026-05-04T14:52:53.878522+05:30
Gulbarga,Karnataka,17.3297,76.8343,40.0,12,0.0,955.3,9.1,40.0,56,52.6,14.6,1.3,154.0,129.0,2.7,0,5,10,0,2026-05-04T14:52:53.878528+05:30
Bidar,Karnataka,17.9104,77.5199,38.2,12,0.0,933.3,9.15,28.4,78,54.6,16.9,1.3,156.0,137.0,4.9,0,5,10,0,2026-05-04T14:52:53.878535+05:30
Hospet,Karnataka,15.2689,76.3909,37.2,19,0.0,953.1,9.2,41.8,58,54.6,15.7,1.5,165.0,123.0,1.4,0,5,10,0,2026-05-04T14:52:53.878541+05:30
Tirupur,Tamil Nadu,11.1085,77.3411,36.2,32,0.0,971.8,9.35,36.7,70,53.1,21.8,2.0,198.0,146.0,2.4,0,5,10,1,2026-05-04T14:52:53.878547+05:30
Alappuzha,Kerala,9.4981,76.3388,31.4,66,0.0,1006.7,8.95,38.5,87,76.8,28.2,1.8,133.0,106.0,2.6,3,5,4,1,2026-05-04T14:52:53.878554+05:30
Munnar,Kerala,10.0889,77.0595,22.1,76,0.1,856.6,7.7,28.4,76,39.9,19.3,1.1,173.0,119.0,1.2,6,5,7,1,2026-05-04T14:52:53.878561+05:30
Silchar,Assam,24.8333,92.7789,28.6,73,0.0,1005.3,6.1,22.7,96,13.4,10.1,1.1,202.0,111.0,2.5,7,5,4,1,2026-05-04T14:52:53.878567+05:30
Dibrugarh,Assam,27.4728,94.912,28.7,63,0.0,995.9,8.7,22.3,90,24.3,17.8,1.4,221.0,118.0,1.1,7,5,7,1,2026-05-04T14:52:53.878573+05:30
