city,state,latitude,longitude,temp,humidity,rain,pressure,uv_index,wind_gusts,aqi,pm10,pm2_5,mosquito_risk,arthritis_risk,migraine_risk,frizz_risk,updated_at
Delhi,Delhi,28.6139,77.209,33.5,30,0.0,989.0,6.15,23.8,177,228.2,62.2,0,5,7,0,2026-03-11T12:28:48.543538+05:30
Mumbai,Maharashtra,19.076,72.8777,28.1,81,0.0,1012.9,7.6,19.4,153,85.4,78.5,7,0,4,1,2026-03-11T12:28:48.543589+05:30
Bangalore,Karnataka,12.9716,77.5946,29.3,31,0.0,916.3,9.25,27.7,68,14.6,12.5,4,5,7,0,2026-03-11T12:28:48.543605+05:30
Hyderabad,Telangana,17.385,78.4867,33.8,17,0.0,959.1,8.6,22.0,97,21.5,15.3,0,5,7,0,2026-03-11T12:28:48.543615+05:30
Chennai,Tamil Nadu,13.0827,80.2707,32.4,49,0.0,1012.2,9.0,30.6,67,21.4,17.3,0,0,4,1,2026-03-11T12:28:48.543624+05:30
Kolkata,West Bengal,22.5726,88.3639,30.1,60,0.0,1010.1,6.85,21.6,144,69.4,57.2,0,0,4,1,2026-03-11T12:28:48.543633+05:30
Pune,Maharashtra,18.5204,73.8567,36.7,23,0.0,953.6,8.15,30.2,120,44.5,36.0,0,5,10,0,2026-03-11T12:28:48.543646+05:30
Ahmedabad,Gujarat,23.0225,72.5714,38.3,18,0.0,1007.9,7.4,26.3,69,25.8,21.8,0,5,7,0,2026-03-11T12:28:48.543655+05:30
Jaipur,Rajasthan,26.9124,75.7873,36.4,12,0.0,966.3,6.8,38.5,98,225.4,39.1,0,5,10,0,2026-03-11T12:28:48.543663+05:30
Lucknow,Uttar Pradesh,26.8467,80.9462,32.2,46,0.0,999.0,6.6,31.0,193,151.8,79.4,0,5,7,1,2026-03-11T12:28:48.543671+05:30
Kanpur,Uttar Pradesh,26.4499,80.3319,32.3,48,0.0,997.6,6.65,24.1,178,213.3,73.8,0,5,7,1,2026-03-11T12:28:48.543678+05:30
Chandigarh,Chandigarh,30.7333,76.7794,30.9,46,0.0,975.1,5.35,24.5,153,51.6,34.0,0,5,3,1,2026-03-11T12:28:48.543685+05:30
Srinagar,Jammu and Kashmir,34.0837,74.7973,9.5,95,1.1,847.7,4.1,28.1,127,41.8,28.6,6,10,3,0,2026-03-11T12:28:48.543693+05:30
Jammu,Jammu and Kashmir,32.7266,74.857,26.5,55,0.0,979.6,5.6,43.6,115,44.0,27.3,4,5,3,1,2026-03-11T12:28:48.543701+05:30
Amritsar,Punjab,31.634,74.8723,28.4,63,0.0,987.0,6.45,28.1,158,102.7,61.7,7,5,7,1,2026-03-11T12:28:48.543708+05:30
Ludhiana,Punjab,30.901,75.8573,30.8,47,0.0,985.3,6.3,15.5,177,119.7,85.0,0,5,7,1,2026-03-11T12:28:48.543715+05:30
Jalandhar,Punjab,31.326,75.5762,30.5,49,0.0,986.2,6.5,18.4,169,119.2,70.5,0,5,7,1,2026-03-11T12:28:48.543724+05:30
Dehradun,Uttarakhand,30.6284,78.0322,23.0,45,0.0,837.3,5.9,28.8,85,25.6,14.5,0,5,3,0,2026-03-11T12:28:48.543731+05:30
Shimla,Himachal Pradesh,31.1048,77.1734,20.8,43,0.0,792.5,5.85,45.0,113,24.5,15.0,0,5,3,0,2026-03-11T12:28:48.543738+05:30
Manali,Himachal Pradesh,32.2396,77.1887,20.9,26,0.0,827.6,6.7,42.5,55,24.8,9.2,0,5,7,0,2026-03-11T12:28:48.543746+05:30
Gurgaon,Haryana,28.4595,77.0266,33.3,36,0.0,987.5,6.15,23.4,321,705.9,93.1,0,5,7,1,2026-03-11T12:28:48.543752+05:30
Noida,Uttar Pradesh,28.5355,77.391,34.1,30,0.0,990.5,6.15,23.8,321,705.9,93.1,0,5,7,0,2026-03-11T12:28:48.543759+05:30
Ghaziabad,Uttar Pradesh,28.6692,77.4538,32.7,39,0.0,988.7,6.1,23.0,172,183.9,70.1,0,5,7,1,2026-03-11T12:28:48.543766+05:30
Faridabad,Haryana,28.4089,77.3178,33.5,35,0.0,989.8,6.15,22.0,321,705.9,93.1,0,5,7,0,2026-03-11T12:28:48.543773+05:30
Meerut,Uttar Pradesh,28.9845,77.7064,32.3,41,0.0,987.5,5.5,28.4,172,183.9,70.1,0,5,3,1,2026-03-11T12:28:48.543780+05:30
Agra,Uttar Pradesh,27.1767,78.0081,35.8,29,0.0,993.6,6.5,19.4,237,433.1,78.7,0,5,10,0,2026-03-11T12:28:48.543786+05:30
Varanasi,Uttar Pradesh,25.3176,82.9739,31.9,50,0.0,1002.9,7.3,23.0,192,165.8,117.6,0,5,4,1,2026-03-11T12:28:48.543795+05:30
Prayagraj,Uttar Pradesh,25.4358,81.8463,32.2,47,0.0,1001.6,7.15,23.0,191,161.1,107.8,0,5,4,1,2026-03-11T12:28:48.543802+05:30
Gorakhpur,Uttar Pradesh,26.7606,83.3732,29.3,68,0.0,1002.7,7.0,25.9,208,156.9,133.6,7,5,4,1,2026-03-11T12:28:48.543811+05:30
Bareilly,Uttar Pradesh,28.367,79.4304,31.5,51,0.0,992.3,6.35,32.4,209,176.0,124.8,0,5,7,1,2026-03-11T12:28:48.543817+05:30
Aligarh,Uttar Pradesh,27.8974,78.088,34.3,33,0.0,991.5,6.25,23.8,176,326.0,83.8,0,5,7,0,2026-03-11T12:28:48.543824+05:30
Moradabad,Uttar Pradesh,28.8386,78.7733,31.7,45,0.0,989.3,6.15,34.9,198,167.2,126.7,0,5,7,1,2026-03-11T12:28:48.543830+05:30
Saharanpur,Uttar Pradesh,29.9637,77.546,31.0,48,0.0,981.5,5.4,37.1,172,98.5,71.9,0,5,3,1,2026-03-11T12:28:48.543837+05:30
Jhansi,Uttar Pradesh,25.4484,78.5685,36.0,24,0.0,983.9,7.1,27.4,100,110.1,31.3,0,5,10,0,2026-03-11T12:28:51.825858+05:30
Surat,Gujarat,21.1702,72.8311,36.9,22,0.0,1011.3,7.3,25.9,114,44.5,41.1,0,0,7,0,2026-03-11T12:28:51.825888+05:30
Vadodara,Gujarat,22.3072,73.1812,39.5,18,0.0,1009.5,7.45,20.2,71,28.0,18.6,0,0,7,0,2026-03-11T12:28:51.825898+05:30
Rajkot,Gujarat,22.3039,70.8022,35.5,22,0.0,1000.8,7.25,29.9,70,21.7,19.9,0,5,7,0,2026-03-11T12:28:51.825905+05:30
Thane,Maharashtra,19.2183,72.9781,34.1,45,0.0,1012.3,7.6,36.7,153,85.4,78.5,0,0,4,1,2026-03-11T12:28:51.825913+05:30
Nagpur,Maharashtra,21.1458,79.0882,35.6,24,0.0,978.8,8.0,11.9,83,56.0,26.3,0,5,10,0,2026-03-11T12:28:51.825920+05:30
Nashik,Maharashtra,19.9975,73.7898,35.1,20,0.0,951.3,7.75,25.6,73,33.3,26.6,0,5,10,0,2026-03-11T12:28:51.825927+05:30
Aurangabad,Maharashtra,19.8762,75.3433,34.2,27,0.0,950.1,8.3,18.4,89,43.9,34.9,0,5,7,0,2026-03-11T12:28:51.825934+05:30
Solapur,Maharashtra,17.6599,75.9064,33.0,32,0.0,962.9,8.5,20.5,124,31.5,25.4,0,5,7,0,2026-03-11T12:28:51.825942+05:30
Kolhapur,Maharashtra,16.705,74.2433,32.8,31,0.0,953.3,8.65,30.2,153,40.7,33.9,0,5,7,0,2026-03-11T12:28:51.825948+05:30
Goa,Goa,15.2993,74.124,33.6,52,0.0,1002.1,8.7,37.8,153,53.8,46.8,0,5,4,1,2026-03-11T12:28:51.825955+05:30
Jodhpur,Rajasthan,26.2389,73.0243,35.5,18,0.0,990.1,7.2,32.8,85,90.8,30.4,0,5,10,0,2026-03-11T12:28:51.825961+05:30
Udaipur,Rajasthan,24.5854,73.7125,34.9,16,0.0,953.8,7.8,26.3,52,23.3,10.7,0,5,7,0,2026-03-11T12:28:51.825968+05:30
Kota,Rajasthan,25.2138,75.8648,36.2,17,0.0,985.6,7.2,19.1,75,64.0,22.1,0,5,10,0,2026-03-11T12:28:51.825975+05:30
Bikaner,Rajasthan,28.0229,73.3119,33.5,20,0.0,988.5,6.2,29.9,69,26.4,18.2,0,5,7,0,2026-03-11T12:28:51.825982+05:30
Ajmer,Rajasthan,26.4499,74.6399,33.9,20,0.0,962.0,7.15,31.3,84,119.2,28.3,0,5,7,0,2026-03-11T12:28:51.825988+05:30
Gwalior,Madhya Pradesh,26.2183,78.1828,35.2,28,0.0,989.1,6.8,30.2,117,105.9,28.5,0,5,10,0,2026-03-11T12:28:51.825995+05:30
Indore,Madhya Pradesh,22.7196,75.8577,35.7,13,0.0,954.7,7.7,22.0,65,34.2,15.3,0,5,10,0,2026-03-11T12:28:51.826001+05:30
Bhopal,Madhya Pradesh,23.2599,77.4126,35.5,22,0.0,960.2,7.55,24.8,60,54.7,18.3,0,5,10,0,2026-03-11T12:28:51.826007+05:30
Jabalpur,Madhya Pradesh,23.1815,79.9864,34.0,26,0.0,967.7,7.7,24.8,83,95.2,28.8,0,5,7,0,2026-03-11T12:28:51.826014+05:30
Ujjain,Madhya Pradesh,23.1765,75.7885,34.5,20,0.0,960.5,7.65,15.1,75,34.1,15.6,0,5,7,0,2026-03-11T12:28:51.826021+05:30
Visakhapatnam,Andhra Pradesh,17.6868,83.2185,33.8,39,0.0,1008.1,8.6,38.5,104,34.2,29.4,0,0,4,1,2026-03-11T12:28:51.826028+05:30
Vijayawada,Andhra Pradesh,16.5062,80.648,32.7,40,0.0,1008.2,8.7,16.6,95,20.5,17.7,0,0,4,1,2026-03-11T12:28:51.826035+05:30
Guntur,Andhra Pradesh,16.3067,80.4365,32.7,41,0.0,1009.4,8.7,18.7,82,18.0,15.3,0,0,4,1,2026-03-11T12:28:51.826042+05:30
Nellore,Andhra Pradesh,14.4426,79.9865,33.2,46,0.0,1010.9,8.9,27.4,70,18.8,15.8,0,0,4,1,2026-03-11T12:28:51.826048+05:30
Kurnool,Andhra Pradesh,15.8281,78.0373,34.4,21,0.0,982.4,8.7,23.4,72,15.1,13.1,0,5,7,0,2026-03-11T12:28:51.826055+05:30
Kakinada,Andhra Pradesh,16.9891,82.2475,34.2,36,0.0,1012.1,8.65,20.5,93,30.2,26.7,0,0,4,1,2026-03-11T12:28:51.826062+05:30
Tirupati,Andhra Pradesh,13.6288,79.4192,32.6,36,0.0,996.4,9.0,32.8,84,18.8,16.3,0,5,7,0,2026-03-11T12:28:51.826069+05:30
Warangal,Telangana,17.9689,79.5941,33.0,30,0.0,984.4,8.45,23.4,103,15.1,12.7,0,5,7,0,2026-03-11T12:28:51.826075+05:30
Nizamabad,Telangana,18.6725,78.0941,34.5,27,0.0,970.5,8.35,24.5,126,44.6,36.3,0,5,7,0,2026-03-11T12:28:51.826081+05:30
Mysore,Karnataka,12.2958,76.6396,29.8,35,0.0,932.7,9.25,28.8,68,16.6,13.9,4,5,7,0,2026-03-11T12:28:51.826088+05:30
Mangalore,Karnataka,12.9141,74.856,28.2,88,0.0,1010.1,8.9,27.7,117,33.5,29.9,7,0,4,1,2026-03-11T12:28:51.826111+05:30
Hubli-Dharwad,Karnataka,15.3647,75.124,32.8,25,0.0,945.9,8.85,35.6,104,27.4,21.8,0,5,7,0,2026-03-11T12:28:51.826118+05:30
Belgaum,Karnataka,15.8497,74.4977,32.8,22,0.0,931.2,8.9,40.3,124,35.7,28.2,0,5,7,0,2026-03-11T12:28:55.079012+05:30
Coimbatore,Tamil Nadu,11.0168,76.9558,31.1,40,0.0,965.8,9.25,38.9,75,18.0,15.5,0,5,7,0,2026-03-11T12:28:55.079042+05:30
Madurai,Tamil Nadu,9.9252,78.1198,31.9,47,0.0,996.7,8.3,29.5,69,18.7,16.1,0,5,7,1,2026-03-11T12:28:55.079052+05:30
Trichy,Tamil Nadu,10.7905,78.7047,32.0,49,0.0,1003.8,9.15,28.1,68,19.5,17.2,0,5,4,1,2026-03-11T12:28:55.079060+05:30
Salem,Tamil Nadu,11.6643,78.146,31.7,41,0.0,981.7,9.15,25.2,75,22.4,19.3,0,5,7,1,2026-03-11T12:28:55.079067+05:30
Tirunelveli,Tamil Nadu,8.7139,77.7567,31.5,52,0.0,1006.9,6.2,25.9,58,13.1,11.7,0,5,4,1,2026-03-11T12:28:55.079074+05:30
Vellore,Tamil Nadu,12.9165,79.1325,31.5,44,0.0,989.5,9.1,33.1,93,19.4,16.9,0,5,7,1,2026-03-11T12:28:55.079081+05:30
Erode,Tamil Nadu,11.341,77.7172,32.5,40,0.0,993.3,9.15,20.5,79,24.3,21.2,0,5,7,1,2026-03-11T12:28:55.079088+05:30
Kochi,Kerala,9.9312,76.2673,28.1,75,0.0,1011.4,8.25,40.0,124,44.2,37.1,7,0,4,1,2026-03-11T12:28:55.079138+05:30
Thiruvananthapuram,Kerala,8.5241,76.9366,28.7,72,0.0,1010.2,7.3,29.2,72,16.2,14.7,7,0,4,1,2026-03-11T12:28:55.079147+05:30
Kozhikode,Kerala,11.2588,75.7804,29.3,71,0.0,1011.1,8.95,30.6,126,51.6,43.2,7,0,4,1,2026-03-11T12:28:55.079154+05:30
Thrissur,Kerala,10.5276,76.2144,36.3,34,0.0,1009.2,9.05,38.2,94,16.4,14.7,0,0,7,1,2026-03-11T12:28:55.079162+05:30
Kannur,Kerala,11.8745,75.3704,29.9,71,0.0,1010.7,8.95,36.7,138,44.7,38.2,7,0,4,1,2026-03-11T12:28:55.079169+05:30
Patna,Bihar,25.5941,85.1376,30.0,60,0.0,1005.5,6.85,24.1,194,150.9,132.7,4,5,4,1,2026-03-11T12:28:55.079175+05:30
Gaya,Bihar,24.7914,85.0002,30.0,64,0.0,998.6,7.5,21.2,170,105.0,92.9,7,5,7,1,2026-03-11T12:28:55.079182+05:30
Muzaffarpur,Bihar,26.1209,85.3647,30.3,60,0.0,1005.4,7.4,30.6,207,168.1,145.8,0,5,4,1,2026-03-11T12:28:55.079189+05:30
Bhagalpur,Bihar,25.2425,87.0117,28.9,66,0.0,1006.0,7.15,25.9,172,92.7,80.6,7,5,4,1,2026-03-11T12:28:55.079195+05:30
Ranchi,Jharkhand,23.3441,85.3096,30.5,42,0.0,942.0,8.15,29.9,170,109.0,86.8,0,5,7,1,2026-03-11T12:28:55.079202+05:30
Jamshedpur,Jharkhand,22.8046,86.2029,31.5,58,0.0,994.4,8.05,29.5,157,93.6,78.2,0,5,7,1,2026-03-11T12:28:55.079208+05:30
Dhanbad,Jharkhand,23.7957,86.4304,30.6,58,0.0,983.7,7.6,27.7,189,100.1,88.5,0,5,7,1,2026-03-11T12:28:55.079215+05:30
Bokaro,Jharkhand,23.6693,86.1511,30.6,54,0.0,987.9,7.75,40.7,190,123.4,108.7,0,5,7,1,2026-03-11T12:28:55.079222+05:30
Bhubaneswar,Odisha,20.2961,85.8245,32.4,59,0.0,1006.5,8.35,26.6,124,35.0,29.3,0,5,4,1,2026-03-11T12:28:55.079229+05:30
Cuttack,Odisha,20.4625,85.8828,33.6,54,0.0,1008.1,8.4,29.5,124,35.0,29.3,0,0,4,1,2026-03-11T12:28:55.079236+05:30
Rourkela,Odisha,22.2604,84.8536,33.7,42,0.0,988.8,7.95,27.4,163,110.1,85.9,0,5,7,1,2026-03-11T12:28:55.079242+05:30
Raipur,Chhattisgarh,21.2514,81.6296,35.3,29,0.0,979.6,8.05,24.8,153,114.1,85.7,0,5,10,0,2026-03-11T12:28:55.079248+05:30
Bhilai,Chhattisgarh,21.1938,81.3509,35.7,28,0.0,980.0,8.05,19.8,150,113.6,80.6,0,5,10,0,2026-03-11T12:28:55.079255+05:30
Guwahati,Assam,26.1158,91.7086,31.0,54,0.0,1005.1,7.35,23.8,155,71.2,61.7,0,5,4,1,2026-03-11T12:28:55.079261+05:30
Agartala,Tripura,23.8315,91.2868,31.1,54,0.0,1009.9,7.75,19.8,169,86.8,75.2,0,0,4,1,2026-03-11T12:28:55.079268+05:30
Shillong,Meghalaya,25.5788,91.8933,20.8,47,0.0,860.8,6.65,18.4,139,45.5,40.6,0,5,7,0,2026-03-11T12:28:55.079274+05:30
Imphal,Manipur,24.817,93.9368,24.8,49,0.0,926.9,7.95,36.4,154,56.8,48.7,0,5,7,0,2026-03-11T12:28:55.079280+05:30
Aizawl,Mizoram,23.7271,92.7176,25.1,50,0.0,897.0,7.9,28.8,177,83.4,72.2,4,5,7,0,2026-03-11T12:28:55.079287+05:30
Kohima,Nagaland,25.6701,94.1077,18.6,72,0.0,858.8,7.05,34.2,140,56.0,49.6,3,5,7,0,2026-03-11T12:28:55.079293+05:30
Gangtok,Sikkim,27.3314,88.6138,21.5,57,0.0,842.5,6.3,20.9,133,56.0,48.3,0,5,7,0,2026-03-11T12:28:55.079299+05:30
Siliguri,West Bengal,26.7271,88.3953,26.4,65,0.0,998.4,5.75,21.2,164,100.1,85.7,7,5,3,1,2026-03-11T12:28:58.338737+05:30
Durgapur,West Bengal,23.5204,87.3119,29.7,64,0.0,999.4,7.6,30.2,161,80.6,69.4,7,5,7,1,2026-03-11T12:28:58.338766+05:30
Asansol,West Bengal,23.6739,86.9524,29.8,62,0.0,997.7,7.85,22.3,168,77.1,66.4,7,5,7,1,2026-03-11T12:28:58.338776+05:30
Pondicherry,Puducherry,11.9139,79.8145,32.0,53,0.0,1012.8,9.0,31.7,59,21.9,17.0,0,0,4,1,2026-03-11T12:28:58.338783+05:30
Port Blair,Andaman and Nicobar Islands,11.6234,92.7265,28.2,78,0.0,1009.7,8.95,20.2,62,21.9,18.1,7,0,4,1,2026-03-11T12:28:58.338791+05:30
Haridwar,Uttarakhand,29.9457,78.1642,30.4,59,0.0,980.1,5.9,38.5,160,88.0,59.8,0,5,3,1,2026-03-11T12:28:58.338798+05:30
Rishikesh,Uttarakhand,30.0869,78.2676,30.3,54,0.0,972.9,5.9,34.2,156,65.9,41.7,0,5,3,1,2026-03-11T12:28:58.338806+05:30
Nainital,Uttarakhand,29.3919,79.4542,23.0,69,0.0,812.6,6.8,67.3,175,106.9,74.3,3,5,7,1,2026-03-11T12:28:58.338813+05:30
Mussoorie,Uttarakhand,30.4599,78.0664,22.5,54,0.0,809.9,5.6,40.7,153,47.8,31.5,0,5,3,0,2026-03-11T12:28:58.338820+05:30
Dharamshala,Himachal Pradesh,32.219,76.3234,24.8,38,0.0,876.1,5.5,25.9,61,36.2,17.8,0,5,3,0,2026-03-11T12:28:58.338827+05:30
Dalhousie,Himachal Pradesh,32.5387,75.971,23.0,26,0.0,811.2,4.75,19.8,96,32.5,23.3,0,5,3,0,2026-03-11T12:28:58.338835+05:30
Patiala,Punjab,30.3398,76.3869,31.3,48,0.0,984.6,5.3,17.6,171,88.0,64.7,0,5,3,1,2026-03-11T12:28:58.338842+05:30
Bhatinda,Punjab,30.211,74.9455,31.1,47,0.0,990.1,6.6,21.6,153,108.5,46.7,0,5,7,1,2026-03-11T12:28:58.338850+05:30
Rohtak,Haryana,28.8955,76.6066,32.9,38,0.0,987.9,6.1,25.6,176,237.5,51.5,0,5,7,1,2026-03-11T12:28:58.338857+05:30
Panipat,Haryana,29.3909,76.9635,32.2,43,0.0,986.6,5.35,22.7,191,167.6,47.7,0,5,3,1,2026-03-11T12:28:58.338864+05:30
Mathura,Uttar Pradesh,27.4924,77.6737,35.7,30,0.0,992.6,6.4,23.4,203,350.2,69.6,0,5,10,0,2026-03-11T12:28:58.338871+05:30
Vrindavan,Uttar Pradesh,27.5823,77.7027,35.1,33,0.0,993.1,6.4,24.1,203,350.2,69.6,0,5,10,1,2026-03-11T12:28:58.338877+05:30
Ayodhya,Uttar Pradesh,26.7922,82.1998,31.7,52,0.0,1000.4,6.8,28.4,197,166.2,131.3,0,5,4,1,2026-03-11T12:28:58.338883+05:30
Ratlam,Madhya Pradesh,23.3315,75.0367,35.2,19,0.0,961.3,7.6,19.8,68,26.6,11.8,0,5,10,0,2026-03-11T12:28:58.338889+05:30
Sagar,Madhya Pradesh,23.8388,78.7378,35.3,19,0.0,956.6,7.55,25.2,68,82.4,22.0,0,5,10,0,2026-03-11T12:28:58.338895+05:30
Satna,Madhya Pradesh,24.6005,80.8322,34.4,28,0.0,977.2,7.55,34.2,152,89.6,35.2,0,5,7,0,2026-03-11T12:28:58.338902+05:30
Akola,Maharashtra,20.7002,77.0082,37.4,21,0.0,980.5,8.0,16.2,68,32.1,18.8,0,5,10,0,2026-03-11T12:28:58.338908+05:30
Amravati,Maharashtra,20.9374,77.7796,37.4,21,0.0,972.7,8.0,9.7,70,36.8,19.0,0,5,10,0,2026-03-11T12:28:58.338915+05:30
Latur,Maharashtra,18.4088,76.5604,33.1,31,0.0,945.9,8.45,24.1,112,36.0,28.9,0,5,7,0,2026-03-11T12:28:58.338922+05:30
Nanded,Maharashtra,19.1383,77.3091,35.6,30,0.0,974.4,8.25,18.0,125,54.0,45.3,0,5,10,0,2026-03-11T12:28:58.338928+05:30
Gulbarga,Karnataka,17.3297,76.8343,34.0,24,0.0,964.7,8.5,21.6,110,30.0,24.1,0,5,7,0,2026-03-11T12:28:58.338935+05:30
Bidar,Karnataka,17.9104,77.5199,33.2,23,0.0,941.6,8.5,22.7,112,39.8,31.1,0,5,7,0,2026-03-11T12:28:58.338941+05:30
Hospet,Karnataka,15.2689,76.3909,31.7,31,0.0,960.9,8.8,25.6,87,18.0,15.3,0,5,7,0,2026-03-11T12:28:58.338947+05:30
Tirupur,Tamil Nadu,11.1085,77.3411,32.0,40,0.0,979.5,9.3,31.0,88,25.3,22.4,0,5,7,1,2026-03-11T12:28:58.338953+05:30
Alappuzha,Kerala,9.4981,76.3388,28.2,77,0.0,1011.5,8.6,37.4,124,44.9,38.3,7,0,4,1,2026-03-11T12:28:58.338959+05:30
Munnar,Kerala,10.0889,77.0595,29.3,40,0.0,861.5,8.0,27.4,64,14.1,12.0,4,5,7,0,2026-03-11T12:28:58.338966+05:30
Silchar,Assam,24.8333,92.7789,30.2,59,0.0,1008.9,7.65,16.6,168,85.2,73.3,0,0,4,1,2026-03-11T12:28:58.338972+05:30
Dibrugarh,Assam,27.4728,94.912,28.1,64,0.0,999.0,7.45,21.6,162,91.5,81.3,7,5,7,1,2026-03-11T12:28:58.338979+05:30
