city,state,latitude,longitude,temp,humidity,rain,pressure,uv_index,wind_gusts,aqi,pm10,pm2_5,no2,co,o3,so2,mosquito_risk,arthritis_risk,migraine_risk,frizz_risk,updated_at
Delhi,Delhi,28.6139,77.209,24.2,65,0.0,984.4,7.55,34.2,200,249.6,57.4,17.8,485.0,83.0,16.8,3,5,7,1,2026-05-09T05:33:09.374369+05:30
Mumbai,Maharashtra,19.076,72.8777,27.7,90,0.0,1007.1,7.85,47.9,91,59.1,28.4,26.4,329.0,54.0,31.8,7,5,4,1,2026-05-09T05:33:09.374413+05:30
Bangalore,Karnataka,12.9716,77.5946,21.0,93,0.0,910.0,9.5,37.4,47,16.2,15.7,21.7,229.0,25.0,13.3,3,5,7,1,2026-05-09T05:33:09.374429+05:30
Hyderabad,Telangana,17.385,78.4867,24.8,82,0.0,953.3,9.1,32.4,50,11.4,10.0,13.5,272.0,31.0,6.3,3,5,7,1,2026-05-09T05:33:09.374439+05:30
Chennai,Tamil Nadu,13.0827,80.2707,27.0,81,0.1,1006.4,8.7,43.9,19,8.1,6.1,6.4,130.0,42.0,1.7,10,5,4,1,2026-05-09T05:33:09.374449+05:30
Kolkata,West Bengal,22.5726,88.3639,25.4,91,0.0,1008.4,8.9,51.1,121,94.3,91.5,36.6,744.0,59.0,17.6,7,0,4,1,2026-05-09T05:33:09.374458+05:30
Pune,Maharashtra,18.5204,73.8567,26.1,59,0.0,947.0,8.45,36.4,97,59.6,31.4,29.4,318.0,36.0,18.0,4,5,7,1,2026-05-09T05:33:09.374467+05:30
Ahmedabad,Gujarat,23.0225,72.5714,29.1,49,0.0,1001.1,8.1,33.8,69,23.3,11.8,6.0,197.0,54.0,4.1,4,5,4,1,2026-05-09T05:33:09.374479+05:30
Jaipur,Rajasthan,26.9124,75.7873,25.0,51,0.0,959.8,8.15,32.8,162,391.2,70.1,5.0,320.0,103.0,9.7,4,5,7,0,2026-05-09T05:33:09.374488+05:30
Lucknow,Uttar Pradesh,26.8467,80.9462,23.7,72,0.0,994.9,7.7,33.8,85,43.4,36.2,10.8,437.0,99.0,10.4,3,5,7,1,2026-05-09T05:33:09.374497+05:30
Kanpur,Uttar Pradesh,26.4499,80.3319,24.5,69,0.0,992.6,7.95,33.8,148,262.6,52.4,8.0,385.0,109.0,10.1,3,5,7,1,2026-05-09T05:33:09.374505+05:30
Chandigarh,Chandigarh,30.7333,76.7794,20.4,74,0.0,970.0,7.6,29.2,84,20.0,17.4,16.2,547.0,54.0,2.9,3,5,7,0,2026-05-09T05:33:09.374514+05:30
Srinagar,Jammu and Kashmir,34.0837,74.7973,7.8,77,0.0,839.8,8.9,18.0,90,89.6,52.6,16.2,203.0,56.0,0.9,3,5,7,0,2026-05-09T05:33:09.374522+05:30
Jammu,Jammu and Kashmir,32.7266,74.857,21.5,72,0.0,973.3,8.4,29.2,145,120.6,75.0,29.3,327.0,13.0,1.9,3,5,7,1,2026-05-09T05:33:09.374530+05:30
Amritsar,Punjab,31.634,74.8723,23.5,67,0.0,981.8,8.3,24.5,141,72.2,49.7,7.8,523.0,87.0,15.1,3,5,7,1,2026-05-09T05:33:09.374537+05:30
Ludhiana,Punjab,30.901,75.8573,22.8,70,0.0,980.0,7.9,39.2,139,62.4,41.1,17.5,564.0,50.0,6.0,3,5,7,1,2026-05-09T05:33:09.374545+05:30
Jalandhar,Punjab,31.326,75.5762,22.2,74,0.0,980.8,8.05,29.2,141,53.9,45.1,13.6,523.0,60.0,11.8,3,5,7,1,2026-05-09T05:33:09.374552+05:30
Dehradun,Uttarakhand,30.6284,78.0322,9.8,97,0.0,828.6,8.0,31.0,55,27.4,11.7,18.8,235.0,21.0,0.1,3,10,7,0,2026-05-09T05:33:09.374563+05:30
Shimla,Himachal Pradesh,31.1048,77.1734,5.9,99,0.0,780.0,8.05,38.9,64,31.7,19.5,19.6,250.0,41.0,0.2,3,10,7,0,2026-05-09T05:33:09.374571+05:30
Manali,Himachal Pradesh,32.2396,77.1887,5.5,49,0.0,811.5,9.45,40.0,71,28.6,6.7,9.3,181.0,130.0,0.5,0,5,7,1,2026-05-09T05:33:09.374579+05:30
Gurgaon,Haryana,28.4595,77.0266,23.2,70,0.0,982.5,7.65,37.8,1405,855.0,118.0,13.7,446.0,84.0,17.2,3,5,7,1,2026-05-09T05:33:09.374586+05:30
Noida,Uttar Pradesh,28.5355,77.391,21.9,77,0.0,985.8,7.6,22.0,1405,855.0,118.0,13.7,516.0,84.0,17.2,3,5,7,1,2026-05-09T05:33:09.374594+05:30
Ghaziabad,Uttar Pradesh,28.6692,77.4538,22.6,73,0.0,984.0,7.55,25.2,138,141.1,38.4,10.1,487.0,82.0,8.5,3,5,7,1,2026-05-09T05:33:09.374601+05:30
Faridabad,Haryana,28.4089,77.3178,23.2,72,0.0,985.1,7.6,29.2,1405,855.0,118.0,13.7,495.0,84.0,17.2,3,5,7,1,2026-05-09T05:33:09.374608+05:30
Meerut,Uttar Pradesh,28.9845,77.7064,21.9,78,0.0,982.9,7.45,25.6,138,141.1,38.4,10.1,538.0,82.0,8.5,3,5,7,1,2026-05-09T05:33:09.374615+05:30
Agra,Uttar Pradesh,27.1767,78.0081,23.3,72,0.0,988.3,7.9,22.3,897,1020.7,122.0,6.9,370.0,93.0,10.3,3,5,7,1,2026-05-09T05:33:09.374624+05:30
Varanasi,Uttar Pradesh,25.3176,82.9739,23.7,80,0.0,999.1,8.55,40.7,102,61.9,55.1,14.2,482.0,96.0,20.9,3,5,7,1,2026-05-09T05:33:09.374631+05:30
Prayagraj,Uttar Pradesh,25.4358,81.8463,24.6,75,0.0,997.0,8.3,35.3,97,61.9,53.8,13.0,455.0,106.0,17.5,3,5,7,1,2026-05-09T05:33:09.374641+05:30
Gorakhpur,Uttar Pradesh,26.7606,83.3732,22.1,81,0.0,1000.2,8.4,45.7,88,36.4,28.6,11.6,512.0,85.0,6.7,3,5,4,1,2026-05-09T05:33:09.374648+05:30
Bareilly,Uttar Pradesh,28.367,79.4304,22.1,71,0.0,988.7,7.85,28.4,86,49.6,25.4,12.7,351.0,73.0,5.4,3,5,7,1,2026-05-09T05:33:09.374655+05:30
Aligarh,Uttar Pradesh,27.8974,78.088,22.9,69,0.0,986.5,7.7,26.3,554,482.4,74.0,9.6,351.0,81.0,16.2,3,5,7,1,2026-05-09T05:33:09.374662+05:30
Moradabad,Uttar Pradesh,28.8386,78.7733,22.0,77,0.0,985.3,7.65,28.1,90,37.0,30.2,16.0,382.0,67.0,6.4,3,5,7,1,2026-05-09T05:33:09.374669+05:30
Saharanpur,Uttar Pradesh,29.9637,77.546,22.3,73,0.0,977.3,7.3,28.1,106,51.6,44.1,39.8,433.0,13.0,5.9,3,5,7,1,2026-05-09T05:33:09.374676+05:30
Jhansi,Uttar Pradesh,25.4484,78.5685,22.9,67,0.0,977.2,8.3,27.7,64,32.9,20.5,4.2,371.0,102.0,10.5,3,5,7,1,2026-05-09T05:33:17.323743+05:30
Surat,Gujarat,21.1702,72.8311,28.5,63,0.0,1005.3,7.7,34.2,102,38.6,26.4,30.5,191.0,31.0,45.5,7,5,4,1,2026-05-09T05:33:17.323775+05:30
Vadodara,Gujarat,22.3072,73.1812,28.7,39,0.0,1003.0,8.05,32.0,79,24.4,15.8,9.7,214.0,58.0,10.0,4,5,4,0,2026-05-09T05:33:17.323785+05:30
Rajkot,Gujarat,22.3039,70.8022,24.5,96,0.0,993.5,7.7,38.9,55,43.5,13.8,7.2,188.0,49.0,5.3,3,5,7,1,2026-05-09T05:33:17.323794+05:30
Thane,Maharashtra,19.2183,72.9781,26.8,88,0.0,1006.6,7.9,48.2,91,59.1,28.4,26.4,301.0,54.0,31.8,7,5,4,1,2026-05-09T05:33:17.323803+05:30
Nagpur,Maharashtra,21.1458,79.0882,25.0,57,0.0,973.8,8.9,47.2,125,48.9,39.9,24.4,334.0,50.0,12.0,4,5,7,0,2026-05-09T05:33:17.323811+05:30
Nashik,Maharashtra,19.9975,73.7898,25.2,40,0.0,944.5,8.15,49.3,84,87.5,38.2,30.7,220.0,52.0,20.8,4,5,7,0,2026-05-09T05:33:17.323818+05:30
Aurangabad,Maharashtra,19.8762,75.3433,27.8,30,0.0,943.5,9.05,35.3,101,73.6,46.9,31.9,286.0,43.0,10.4,4,5,7,0,2026-05-09T05:33:17.323826+05:30
Solapur,Maharashtra,17.6599,75.9064,28.0,51,0.0,956.7,9.05,32.0,80,16.6,15.0,10.2,279.0,69.0,8.3,4,5,7,1,2026-05-09T05:33:17.323834+05:30
Kolhapur,Maharashtra,16.705,74.2433,25.4,61,0.0,946.5,8.95,45.0,152,61.7,53.0,37.6,496.0,35.0,10.3,7,5,7,1,2026-05-09T05:33:17.323841+05:30
Goa,Goa,15.2993,74.124,25.5,91,0.0,995.2,8.7,49.7,92,52.3,38.5,17.4,365.0,35.0,2.9,7,5,7,1,2026-05-09T05:33:17.323849+05:30
Jodhpur,Rajasthan,26.2389,73.0243,29.5,29,0.0,982.6,8.35,34.6,110,253.3,40.6,2.9,214.0,60.0,2.2,4,5,7,0,2026-05-09T05:33:17.323856+05:30
Udaipur,Rajasthan,24.5854,73.7125,27.5,33,0.0,945.8,8.8,41.8,44,17.1,5.8,2.2,168.0,85.0,3.0,4,5,7,0,2026-05-09T05:33:17.323864+05:30
Kota,Rajasthan,25.2138,75.8648,25.5,45,0.0,977.8,8.35,39.2,63,31.0,20.3,8.2,362.0,52.0,4.7,4,5,7,0,2026-05-09T05:33:17.323871+05:30
Bikaner,Rajasthan,28.0229,73.3119,27.5,42,0.0,981.4,8.3,24.8,85,132.2,41.0,2.9,300.0,91.0,5.3,4,5,7,0,2026-05-09T05:33:17.323878+05:30
Ajmer,Rajasthan,26.4499,74.6399,23.3,61,0.0,953.7,8.3,41.0,66,145.3,36.4,4.1,295.0,95.0,7.8,3,5,7,0,2026-05-09T05:33:17.323885+05:30
Gwalior,Madhya Pradesh,26.2183,78.1828,22.7,72,0.0,983.0,8.1,25.6,79,177.0,48.3,4.4,305.0,100.0,7.6,3,5,7,1,2026-05-09T05:33:17.323893+05:30
Indore,Madhya Pradesh,22.7196,75.8577,27.9,24,0.0,947.1,8.65,42.8,85,14.9,10.9,5.0,261.0,85.0,4.1,4,5,7,0,2026-05-09T05:33:17.323900+05:30
Bhopal,Madhya Pradesh,23.2599,77.4126,27.0,33,0.0,952.7,8.6,55.8,76,33.3,22.8,4.8,297.0,95.0,5.6,4,5,7,0,2026-05-09T05:33:17.323907+05:30
Jabalpur,Madhya Pradesh,23.1815,79.9864,25.6,45,0.0,961.3,8.8,50.8,72,33.9,22.7,8.1,221.0,105.0,5.9,4,5,7,0,2026-05-09T05:33:17.323914+05:30
Ujjain,Madhya Pradesh,23.1765,75.7885,26.9,27,0.0,952.6,8.55,41.8,85,11.8,8.6,3.9,386.0,81.0,3.0,4,5,7,0,2026-05-09T05:33:17.323922+05:30
Visakhapatnam,Andhra Pradesh,17.6868,83.2185,25.2,97,0.0,1004.7,9.15,34.6,65,41.8,39.6,47.8,2990.0,2.0,11.2,7,5,4,1,2026-05-09T05:33:17.323929+05:30
Vijayawada,Andhra Pradesh,16.5062,80.648,26.4,90,0.0,1003.1,9.2,38.9,39,22.2,20.8,16.7,187.0,20.0,5.1,7,5,4,1,2026-05-09T05:33:17.323936+05:30
Guntur,Andhra Pradesh,16.3067,80.4365,26.8,87,0.0,1004.1,9.25,38.2,39,20.8,19.3,19.1,210.0,17.0,7.4,7,5,4,1,2026-05-09T05:33:17.323944+05:30
Nellore,Andhra Pradesh,14.4426,79.9865,25.7,92,0.0,1005.5,9.2,40.3,19,7.2,5.2,4.1,201.0,37.0,2.0,7,5,4,1,2026-05-09T05:33:17.323952+05:30
Kurnool,Andhra Pradesh,15.8281,78.0373,26.1,76,0.0,976.9,9.15,42.5,28,7.1,5.8,8.0,147.0,27.0,1.7,7,5,7,1,2026-05-09T05:33:17.323960+05:30
Kakinada,Andhra Pradesh,16.9891,82.2475,25.5,95,0.0,1008.2,9.15,37.1,25,8.8,6.6,2.8,192.0,50.0,1.5,7,0,4,1,2026-05-09T05:33:17.323967+05:30
Tirupati,Andhra Pradesh,13.6288,79.4192,24.9,89,0.0,990.5,8.7,55.8,27,16.1,14.9,22.7,143.0,5.0,2.4,3,5,7,1,2026-05-09T05:33:17.323974+05:30
Warangal,Telangana,17.9689,79.5941,25.8,79,0.0,979.0,9.15,33.5,52,12.6,11.7,12.2,229.0,31.0,9.2,7,5,7,1,2026-05-09T05:33:17.323981+05:30
Nizamabad,Telangana,18.6725,78.0941,25.8,67,0.0,964.2,9.1,34.2,74,17.6,16.3,10.6,246.0,66.0,6.2,7,5,7,1,2026-05-09T05:33:17.323988+05:30
Mysore,Karnataka,12.2958,76.6396,22.1,93,0.0,926.9,9.4,32.0,61,23.9,22.5,17.4,246.0,51.0,9.4,3,5,7,1,2026-05-09T05:33:17.323995+05:30
Mangalore,Karnataka,12.9141,74.856,26.8,86,0.0,1005.0,8.85,35.3,89,28.3,21.4,3.9,238.0,101.0,3.4,7,5,4,1,2026-05-09T05:33:17.324002+05:30
Hubli-Dharwad,Karnataka,15.3647,75.124,25.4,56,0.0,939.8,9.15,41.0,65,12.0,10.7,10.5,278.0,48.0,6.1,4,5,7,0,2026-05-09T05:33:17.324009+05:30
Belgaum,Karnataka,15.8497,74.4977,25.0,52,0.0,924.5,9.2,39.2,96,23.2,21.0,15.5,304.0,60.0,6.3,4,5,7,0,2026-05-09T05:33:23.415450+05:30
Coimbatore,Tamil Nadu,11.0168,76.9558,24.2,91,0.0,960.0,7.2,25.2,63,24.3,23.5,18.5,263.0,37.0,7.7,3,5,7,1,2026-05-09T05:33:23.415482+05:30
Madurai,Tamil Nadu,9.9252,78.1198,25.8,92,0.0,990.9,1.65,31.7,64,32.1,31.8,36.8,210.0,4.0,9.4,7,5,3,1,2026-05-09T05:33:23.415493+05:30
Trichy,Tamil Nadu,10.7905,78.7047,25.5,91,0.0,998.2,2.6,31.3,42,11.6,10.4,23.7,212.0,9.0,22.8,7,5,3,1,2026-05-09T05:33:23.415502+05:30
Salem,Tamil Nadu,11.6643,78.146,24.3,96,0.0,975.9,7.15,32.4,51,20.1,19.5,21.1,309.0,25.0,13.9,3,5,7,1,2026-05-09T05:33:23.415511+05:30
Tirunelveli,Tamil Nadu,8.7139,77.7567,24.9,97,0.5,1001.2,3.6,42.1,53,23.2,22.5,14.6,210.0,30.0,3.4,6,5,0,1,2026-05-09T05:33:23.415519+05:30
Vellore,Tamil Nadu,12.9165,79.1325,25.0,88,0.0,983.8,7.65,50.4,45,20.6,19.0,25.1,161.0,7.0,13.9,7,5,7,1,2026-05-09T05:33:23.415527+05:30
Erode,Tamil Nadu,11.341,77.7172,24.8,96,0.0,987.6,7.0,34.9,58,21.4,20.1,24.7,325.0,21.0,13.9,3,5,7,1,2026-05-09T05:33:23.415535+05:30
Kochi,Kerala,9.9312,76.2673,26.0,93,0.0,1006.7,5.4,24.1,70,21.4,20.7,14.9,274.0,40.0,5.6,7,5,0,1,2026-05-09T05:33:23.415543+05:30
Thiruvananthapuram,Kerala,8.5241,76.9366,25.5,95,0.1,1005.8,4.3,28.1,45,11.3,10.1,4.8,563.0,95.0,4.2,10,5,0,1,2026-05-09T05:33:23.415550+05:30
Kozhikode,Kerala,11.2588,75.7804,25.4,96,0.0,1006.2,8.6,28.1,67,19.3,16.4,2.6,409.0,109.0,3.2,7,5,4,1,2026-05-09T05:33:23.415557+05:30
Thrissur,Kerala,10.5276,76.2144,24.2,94,0.0,1005.4,6.7,28.4,74,26.0,25.3,16.7,452.0,32.0,4.5,3,5,4,1,2026-05-09T05:33:23.415565+05:30
Kannur,Kerala,11.8745,75.3704,25.9,88,0.0,1005.4,7.9,30.6,76,25.5,20.1,5.9,249.0,77.0,2.4,7,5,4,1,2026-05-09T05:33:23.415573+05:30
Patna,Bihar,25.5941,85.1376,22.4,86,0.0,1003.0,8.1,32.0,138,58.7,55.4,16.5,488.0,76.0,15.8,3,5,4,1,2026-05-09T05:33:23.415580+05:30
Gaya,Bihar,24.7914,85.0002,22.3,84,0.0,995.7,8.2,29.5,125,52.5,49.6,20.9,397.0,64.0,28.4,3,5,7,1,2026-05-09T05:33:23.415587+05:30
Muzaffarpur,Bihar,26.1209,85.3647,21.9,85,0.0,1003.4,8.65,32.8,149,64.3,59.3,15.2,527.0,79.0,12.4,3,5,4,1,2026-05-09T05:33:23.415593+05:30
Bhagalpur,Bihar,25.2425,87.0117,22.7,89,0.0,1004.5,8.7,34.9,152,67.8,58.6,12.9,518.0,94.0,8.8,3,5,4,1,2026-05-09T05:33:23.415600+05:30
Ranchi,Jharkhand,23.3441,85.3096,21.8,69,0.0,938.5,8.95,52.2,91,47.6,37.5,14.1,483.0,101.0,21.0,3,5,7,0,2026-05-09T05:33:23.415608+05:30
Jamshedpur,Jharkhand,22.8046,86.2029,22.6,95,0.0,992.9,9.05,30.2,86,41.1,34.7,25.5,387.0,54.0,19.5,3,5,7,1,2026-05-09T05:33:23.415615+05:30
Dhanbad,Jharkhand,23.7957,86.4304,21.8,93,0.0,982.1,8.8,49.0,150,76.1,69.4,56.9,579.0,27.0,63.8,3,5,7,1,2026-05-09T05:33:23.415622+05:30
Bokaro,Jharkhand,23.6693,86.1511,20.8,99,0.0,985.9,8.8,50.4,145,89.4,81.7,64.8,1256.0,18.0,70.9,3,5,7,1,2026-05-09T05:33:23.415629+05:30
Bhubaneswar,Odisha,20.2961,85.8245,25.4,98,0.0,1004.1,9.1,31.0,40,20.8,18.1,14.1,263.0,28.0,4.3,7,5,4,1,2026-05-09T05:33:23.415636+05:30
Cuttack,Odisha,20.4625,85.8828,25.7,97,0.0,1006.0,9.15,29.2,40,20.8,18.1,14.1,275.0,28.0,4.3,7,5,4,1,2026-05-09T05:33:23.415643+05:30
Rourkela,Odisha,22.2604,84.8536,21.7,97,0.0,986.6,8.95,51.8,94,62.6,54.6,35.4,650.0,36.0,33.7,3,5,7,1,2026-05-09T05:33:23.415651+05:30
Raipur,Chhattisgarh,21.2514,81.6296,25.2,60,0.0,975.0,8.95,50.8,122,38.6,34.3,35.5,388.0,44.0,6.3,4,5,7,1,2026-05-09T05:33:23.415658+05:30
Bhilai,Chhattisgarh,21.1938,81.3509,25.6,60,0.0,975.4,8.95,55.4,118,41.9,36.4,41.2,918.0,40.0,6.5,4,5,7,1,2026-05-09T05:33:23.415664+05:30
Guwahati,Assam,26.1158,91.7086,23.0,83,0.0,1005.2,8.65,25.9,114,53.8,49.1,17.7,415.0,35.0,2.7,3,5,4,1,2026-05-09T05:33:23.415671+05:30
Agartala,Tripura,23.8315,91.2868,24.1,84,0.0,1008.7,8.8,19.8,155,85.7,80.8,42.0,596.0,41.0,5.4,3,0,4,1,2026-05-09T05:33:23.415678+05:30
Shillong,Meghalaya,25.5788,91.8933,15.7,89,0.0,858.8,8.4,19.8,80,25.4,22.1,9.4,325.0,52.0,1.3,3,10,7,0,2026-05-09T05:33:23.415685+05:30
Imphal,Manipur,24.817,93.9368,18.3,81,0.0,925.7,9.2,25.9,93,56.6,51.9,19.5,419.0,54.0,3.7,3,10,7,0,2026-05-09T05:33:23.415692+05:30
Aizawl,Mizoram,23.7271,92.7176,15.4,92,0.0,893.0,9.0,24.5,78,34.8,31.1,11.0,387.0,32.0,1.1,3,10,7,0,2026-05-09T05:33:23.415698+05:30
Kohima,Nagaland,25.6701,94.1077,14.1,98,0.0,856.3,9.15,31.3,79,36.6,31.7,9.9,298.0,46.0,0.4,3,10,7,0,2026-05-09T05:33:23.415706+05:30
Gangtok,Sikkim,27.3314,88.6138,12.2,83,0.1,839.1,8.8,39.6,73,18.0,14.2,11.4,165.0,45.0,0.3,6,10,7,0,2026-05-09T05:33:23.415712+05:30
Siliguri,West Bengal,26.7271,88.3953,21.6,73,0.0,996.4,8.5,22.7,124,47.7,43.4,31.1,603.0,24.0,2.0,3,5,7,1,2026-05-09T05:33:29.443418+05:30
Durgapur,West Bengal,23.5204,87.3119,23.4,96,0.0,997.5,8.9,34.9,146,70.5,66.1,43.8,494.0,37.0,39.8,3,5,7,1,2026-05-09T05:33:29.443450+05:30
Asansol,West Bengal,23.6739,86.9524,22.2,97,0.0,996.1,8.95,42.5,135,57.7,52.6,40.1,829.0,39.0,46.6,3,5,7,1,2026-05-09T05:33:29.443461+05:30
Pondicherry,Puducherry,11.9139,79.8145,25.6,92,0.0,1007.1,5.2,36.4,19,5.3,3.5,2.0,168.0,51.0,0.4,7,5,0,1,2026-05-09T05:33:29.443470+05:30
Port Blair,Andaman and Nicobar Islands,11.6234,92.7265,26.5,91,0.0,1006.3,8.15,38.5,28,3.7,2.6,0.3,137.0,59.0,0.1,7,5,4,1,2026-05-09T05:33:29.443478+05:30
Haridwar,Uttarakhand,29.9457,78.1642,20.0,80,0.0,975.5,7.4,25.9,89,35.2,30.9,40.0,279.0,10.0,2.9,3,5,7,1,2026-05-09T05:33:29.443485+05:30
Rishikesh,Uttarakhand,30.0869,78.2676,18.0,85,0.0,968.1,7.5,30.6,73,26.7,21.7,18.4,343.0,36.0,1.1,3,10,7,0,2026-05-09T05:33:29.443493+05:30
Nainital,Uttarakhand,29.3919,79.4542,10.6,87,0.0,804.5,8.25,31.3,61,33.2,21.3,22.7,266.0,45.0,2.2,3,10,7,0,2026-05-09T05:33:29.443501+05:30
Mussoorie,Uttarakhand,30.4599,78.0664,11.6,80,0.0,802.4,7.85,41.4,83,31.0,22.9,37.4,215.0,11.0,4.0,3,5,7,0,2026-05-09T05:33:29.443508+05:30
Dharamshala,Himachal Pradesh,32.219,76.3234,17.1,71,0.0,869.2,8.25,38.9,67,25.1,9.6,9.9,257.0,62.0,0.6,3,5,7,0,2026-05-09T05:33:29.443515+05:30
Dalhousie,Himachal Pradesh,32.5387,75.971,6.7,98,0.0,799.6,8.55,34.6,114,50.8,29.5,18.0,292.0,44.0,1.7,3,10,7,0,2026-05-09T05:33:29.443523+05:30
Patiala,Punjab,30.3398,76.3869,22.6,72,0.0,979.6,7.5,27.0,367,78.2,39.3,10.7,420.0,84.0,5.4,3,5,7,1,2026-05-09T05:33:29.443530+05:30
Bhatinda,Punjab,30.211,74.9455,24.2,64,0.0,984.6,8.2,26.6,620,517.8,116.9,6.2,341.0,103.0,8.6,3,5,7,1,2026-05-09T05:33:29.443537+05:30
Rohtak,Haryana,28.8955,76.6066,22.8,73,0.0,982.8,7.6,34.2,559,398.6,76.1,16.8,434.0,86.0,20.9,3,5,7,1,2026-05-09T05:33:29.443544+05:30
Panipat,Haryana,29.3909,76.9635,22.4,80,0.0,981.7,7.45,28.1,891,446.1,76.6,16.6,413.0,72.0,16.3,3,5,7,1,2026-05-09T05:33:29.443551+05:30
Mathura,Uttar Pradesh,27.4924,77.6737,23.7,65,0.0,987.4,7.85,24.1,932,862.4,112.0,7.0,370.0,91.0,12.4,3,5,7,1,2026-05-09T05:33:29.443558+05:30
Vrindavan,Uttar Pradesh,27.5823,77.7027,23.8,64,0.0,987.9,7.8,24.5,932,862.4,112.0,7.0,374.0,91.0,12.4,3,5,7,1,2026-05-09T05:33:29.443565+05:30
Ayodhya,Uttar Pradesh,26.7922,82.1998,22.5,82,0.0,997.8,8.15,36.4,85,42.3,35.7,13.4,452.0,82.0,8.1,3,5,7,1,2026-05-09T05:33:29.443572+05:30
Ratlam,Madhya Pradesh,23.3315,75.0367,25.8,30,0.0,953.3,8.5,41.0,67,14.8,9.4,3.9,233.0,83.0,3.2,4,5,7,0,2026-05-09T05:33:29.443579+05:30
Sagar,Madhya Pradesh,23.8388,78.7378,24.6,38,0.0,948.8,8.55,45.4,62,29.8,17.3,4.4,202.0,112.0,4.8,0,5,7,0,2026-05-09T05:33:29.443586+05:30
Satna,Madhya Pradesh,24.6005,80.8322,22.5,65,0.0,970.6,8.65,51.5,98,32.6,27.2,10.6,330.0,106.0,14.4,3,5,7,0,2026-05-09T05:33:29.443593+05:30
Akola,Maharashtra,20.7002,77.0082,28.6,40,0.0,974.9,8.85,46.4,80,34.5,27.1,16.0,284.0,62.0,5.4,4,5,7,0,2026-05-09T05:33:29.443601+05:30
Amravati,Maharashtra,20.9374,77.7796,26.6,50,0.0,967.6,8.85,41.4,83,36.9,28.6,17.8,332.0,62.0,8.7,4,5,7,0,2026-05-09T05:33:29.443609+05:30
Latur,Maharashtra,18.4088,76.5604,26.4,54,0.0,939.5,9.05,34.6,84,18.6,16.8,9.4,270.0,77.0,5.0,4,5,7,1,2026-05-09T05:33:29.443616+05:30
Nanded,Maharashtra,19.1383,77.3091,26.8,60,0.0,968.4,9.0,46.1,79,19.7,17.8,11.4,290.0,65.0,4.9,4,5,7,1,2026-05-09T05:33:29.443623+05:30
Gulbarga,Karnataka,17.3297,76.8343,26.6,60,0.0,958.3,9.0,38.5,59,12.3,11.3,10.6,248.0,51.0,6.6,4,5,7,1,2026-05-09T05:33:29.443630+05:30
Bidar,Karnataka,17.9104,77.5199,24.0,75,0.0,934.8,9.0,43.2,66,16.2,15.1,12.2,218.0,56.0,6.5,3,5,7,1,2026-05-09T05:33:29.443636+05:30
Hospet,Karnataka,15.2689,76.3909,23.9,77,0.0,954.9,9.25,33.1,48,9.3,7.7,13.7,174.0,28.0,9.9,3,5,7,1,2026-05-09T05:33:29.443643+05:30
Tirupur,Tamil Nadu,11.1085,77.3411,24.6,92,0.0,973.7,6.7,32.8,72,36.2,34.9,28.4,322.0,25.0,9.4,3,5,7,1,2026-05-09T05:33:29.443649+05:30
Alappuzha,Kerala,9.4981,76.3388,25.8,97,0.0,1006.6,3.1,31.0,66,17.5,16.5,13.1,215.0,65.0,6.6,7,5,0,1,2026-05-09T05:33:29.443656+05:30
Munnar,Kerala,10.0889,77.0595,16.7,96,0.0,853.9,3.0,21.6,50,13.4,13.1,11.6,176.0,28.0,3.1,3,10,3,0,2026-05-09T05:33:29.443664+05:30
Silchar,Assam,24.8333,92.7789,22.6,92,0.0,1008.0,8.85,15.5,124,47.1,43.7,16.3,543.0,38.0,3.4,3,0,4,1,2026-05-09T05:33:29.443671+05:30
Dibrugarh,Assam,27.4728,94.912,23.5,90,0.0,999.4,8.8,16.2,89,52.5,48.3,26.6,585.0,50.0,2.0,3,5,7,1,2026-05-09T05:33:29.443678+05:30
