city,state,latitude,longitude,temp,humidity,rain,pressure,uv_index,wind_gusts,aqi,pm10,pm2_5,no2,co,o3,so2,mosquito_risk,arthritis_risk,migraine_risk,frizz_risk,updated_at
Delhi,Delhi,28.6139,77.209,34.2,24,0.0,976.2,7.75,41.0,234,221.2,66.1,44.9,457.0,39.0,18.8,0,5,7,0,2026-05-21T00:57:26.787798+05:30
Mumbai,Maharashtra,19.076,72.8777,29.9,72,0.0,1006.0,7.85,39.2,60,19.1,11.2,8.3,165.0,44.0,6.2,7,5,4,1,2026-05-21T00:57:26.787865+05:30
Bangalore,Karnataka,12.9716,77.5946,23.2,89,0.0,910.6,9.2,37.8,38,10.0,9.5,19.7,433.0,46.0,6.1,3,5,7,1,2026-05-21T00:57:26.787881+05:30
Hyderabad,Telangana,17.385,78.4867,31.9,42,0.0,949.5,8.5,34.6,101,45.6,36.2,15.3,401.0,91.0,9.5,0,5,7,1,2026-05-21T00:57:26.787892+05:30
Chennai,Tamil Nadu,13.0827,80.2707,32.8,54,0.0,1002.4,8.4,41.4,63,20.4,18.7,21.0,359.0,55.0,8.7,0,5,4,1,2026-05-21T00:57:26.787900+05:30
Kolkata,West Bengal,22.5726,88.3639,29.1,92,0.0,999.4,8.95,41.0,94,33.4,27.5,9.4,379.0,67.0,6.7,7,5,7,1,2026-05-21T00:57:26.787909+05:30
Pune,Maharashtra,18.5204,73.8567,25.4,80,0.0,946.2,5.85,38.2,66,17.0,11.6,8.9,157.0,48.0,8.3,7,5,3,1,2026-05-21T00:57:26.787916+05:30
Ahmedabad,Gujarat,23.0225,72.5714,31.0,71,0.0,998.5,8.15,33.8,64,46.0,21.9,7.0,185.0,58.0,4.3,3,5,7,1,2026-05-21T00:57:26.787924+05:30
Jaipur,Rajasthan,26.9124,75.7873,32.8,29,0.0,955.1,8.3,50.4,124,341.8,67.3,7.5,205.0,67.0,5.2,0,5,7,0,2026-05-21T00:57:26.787937+05:30
Lucknow,Uttar Pradesh,26.8467,80.9462,33.2,54,0.0,986.0,8.2,30.2,150,328.8,81.3,29.3,389.0,72.0,12.1,0,5,7,1,2026-05-21T00:57:26.787945+05:30
Kanpur,Uttar Pradesh,26.4499,80.3319,34.7,33,0.0,984.9,8.25,36.7,179,461.9,101.7,33.8,488.0,60.0,16.2,0,5,7,0,2026-05-21T00:57:26.787952+05:30
Chandigarh,Chandigarh,30.7333,76.7794,28.0,38,0.0,961.4,7.75,31.7,108,59.4,40.5,36.8,947.0,47.0,14.3,4,5,7,0,2026-05-21T00:57:26.787960+05:30
Srinagar,Jammu and Kashmir,34.0837,74.7973,15.9,87,0.0,841.1,8.55,29.9,81,43.7,22.7,22.4,1007.0,37.0,2.5,3,10,7,0,2026-05-21T00:57:26.787968+05:30
Jammu,Jammu and Kashmir,32.7266,74.857,30.5,27,0.0,965.6,8.55,40.3,87,34.5,21.2,18.2,297.0,60.0,3.7,0,5,7,0,2026-05-21T00:57:26.787975+05:30
Amritsar,Punjab,31.634,74.8723,33.0,29,0.0,973.3,8.45,77.0,121,56.7,41.2,36.3,386.0,45.0,12.9,0,5,7,0,2026-05-21T00:57:26.787982+05:30
Ludhiana,Punjab,30.901,75.8573,31.4,32,0.0,971.0,8.05,54.0,153,91.3,53.6,27.1,435.0,50.0,10.9,0,5,7,0,2026-05-21T00:57:26.787990+05:30
Jalandhar,Punjab,31.326,75.5762,30.5,31,0.0,972.0,8.2,54.0,127,66.8,40.2,20.4,466.0,58.0,9.5,0,5,7,0,2026-05-21T00:57:26.787997+05:30
Dehradun,Uttarakhand,30.6284,78.0322,16.3,55,0.0,826.0,8.1,45.7,72,45.6,24.2,34.1,215.0,50.0,3.8,0,5,7,0,2026-05-21T00:57:26.788005+05:30
Shimla,Himachal Pradesh,31.1048,77.1734,16.3,37,0.0,781.8,8.3,48.2,102,50.1,27.1,22.2,255.0,96.0,11.1,0,5,7,0,2026-05-21T00:57:26.788014+05:30
Manali,Himachal Pradesh,32.2396,77.1887,13.5,60,0.0,816.0,9.65,52.2,46,9.2,5.3,51.1,268.0,67.0,0.0,0,5,7,0,2026-05-21T00:57:26.788021+05:30
Gurgaon,Haryana,28.4595,77.0266,32.7,26,0.0,974.5,7.85,42.5,784,879.2,149.9,59.2,366.0,20.0,18.1,0,5,7,0,2026-05-21T00:57:26.788028+05:30
Noida,Uttar Pradesh,28.5355,77.391,31.6,33,0.0,977.3,7.75,37.1,784,879.2,149.9,59.2,478.0,20.0,18.1,0,5,7,0,2026-05-21T00:57:26.788038+05:30
Ghaziabad,Uttar Pradesh,28.6692,77.4538,33.2,28,0.0,975.7,7.75,38.2,198,210.0,71.7,49.1,778.0,33.0,26.7,0,5,7,0,2026-05-21T00:57:26.788044+05:30
Faridabad,Haryana,28.4089,77.3178,33.7,25,0.0,976.8,7.75,43.9,784,879.2,149.9,59.2,510.0,20.0,18.1,0,5,7,0,2026-05-21T00:57:26.788051+05:30
Meerut,Uttar Pradesh,28.9845,77.7064,32.3,37,0.0,974.4,7.65,31.7,198,210.0,71.7,49.1,607.0,33.0,26.7,0,5,7,0,2026-05-21T00:57:26.788058+05:30
Agra,Uttar Pradesh,27.1767,78.0081,33.6,24,0.0,981.3,8.1,43.2,536,1143.7,145.3,9.2,233.0,71.0,4.5,0,5,7,0,2026-05-21T00:57:26.788067+05:30
Varanasi,Uttar Pradesh,25.3176,82.9739,33.0,55,0.0,990.1,8.75,36.7,153,118.5,66.1,44.6,900.0,43.0,19.2,0,5,7,1,2026-05-21T00:57:26.788074+05:30
Prayagraj,Uttar Pradesh,25.4358,81.8463,34.0,40,0.0,988.5,8.65,38.5,145,122.0,54.2,28.4,621.0,55.0,12.9,0,5,7,1,2026-05-21T00:57:26.788081+05:30
Gorakhpur,Uttar Pradesh,26.7606,83.3732,29.9,72,0.0,990.3,8.65,30.6,155,78.5,60.8,15.4,501.0,85.0,12.4,7,5,7,1,2026-05-21T00:57:26.788090+05:30
Bareilly,Uttar Pradesh,28.367,79.4304,31.1,45,0.0,979.7,8.05,19.1,151,219.3,78.9,40.4,514.0,55.0,15.1,0,5,7,1,2026-05-21T00:57:26.788097+05:30
Aligarh,Uttar Pradesh,27.8974,78.088,32.6,24,0.0,978.7,7.9,40.7,453,949.9,138.3,19.3,220.0,56.0,5.1,0,5,7,0,2026-05-21T00:57:26.788103+05:30
Moradabad,Uttar Pradesh,28.8386,78.7733,32.0,46,0.0,976.7,7.75,25.9,170,257.0,135.5,92.9,902.0,14.0,28.7,0,5,7,1,2026-05-21T00:57:26.788110+05:30
Saharanpur,Uttar Pradesh,29.9637,77.546,30.5,45,0.0,968.8,7.2,34.2,154,170.4,96.2,64.2,783.0,5.0,17.2,0,5,7,1,2026-05-21T00:57:26.788116+05:30
Jhansi,Uttar Pradesh,25.4484,78.5685,34.1,20,0.0,972.2,8.5,52.6,54,25.7,17.6,5.5,155.0,71.0,3.9,0,5,7,0,2026-05-21T00:57:30.063447+05:30
Surat,Gujarat,21.1702,72.8311,29.4,78,0.0,1003.9,7.75,37.4,68,27.4,15.5,17.7,229.0,38.0,30.0,7,5,4,1,2026-05-21T00:57:30.063482+05:30
Vadodara,Gujarat,22.3072,73.1812,29.5,78,0.0,1000.9,8.1,36.0,68,24.4,15.8,20.6,223.0,29.0,23.4,7,5,4,1,2026-05-21T00:57:30.063495+05:30
Rajkot,Gujarat,22.3039,70.8022,28.6,74,0.0,991.4,7.75,46.8,61,35.3,16.8,7.1,151.0,46.0,7.1,7,5,7,1,2026-05-21T00:57:30.063505+05:30
Thane,Maharashtra,19.2183,72.9781,30.2,69,0.0,1005.4,7.85,33.5,60,19.1,11.2,8.3,178.0,44.0,6.2,3,5,4,1,2026-05-21T00:57:30.063514+05:30
Nagpur,Maharashtra,21.1458,79.0882,36.0,23,0.0,967.6,8.95,42.5,78,31.9,23.1,9.6,457.0,89.0,12.6,0,5,10,0,2026-05-21T00:57:30.063523+05:30
Nashik,Maharashtra,19.9975,73.7898,24.9,85,0.0,943.3,5.85,39.2,56,14.5,9.9,8.9,147.0,43.0,5.4,3,5,3,1,2026-05-21T00:57:30.063531+05:30
Aurangabad,Maharashtra,19.8762,75.3433,30.0,55,0.0,941.5,5.1,45.0,65,20.3,14.3,8.6,148.0,61.0,4.6,4,5,3,1,2026-05-21T00:57:30.063539+05:30
Solapur,Maharashtra,17.6599,75.9064,30.4,52,0.0,954.8,9.0,38.5,78,24.5,19.3,5.8,176.0,90.0,5.3,0,5,7,1,2026-05-21T00:57:30.063548+05:30
Kolhapur,Maharashtra,16.705,74.2433,24.1,85,0.0,946.1,8.6,44.3,72,21.9,13.4,5.7,162.0,48.0,2.5,3,5,7,1,2026-05-21T00:57:30.063557+05:30
Goa,Goa,15.2993,74.124,26.5,97,0.0,996.4,2.6,31.3,41,12.7,10.4,6.0,426.0,66.0,1.9,7,5,3,1,2026-05-21T00:57:30.063566+05:30
Jodhpur,Rajasthan,26.2389,73.0243,33.9,25,0.0,977.9,8.45,45.0,150,237.5,52.7,5.9,149.0,60.0,3.1,0,5,7,0,2026-05-21T00:57:30.063574+05:30
Udaipur,Rajasthan,24.5854,73.7125,29.8,27,0.0,943.2,8.85,40.3,68,47.7,19.2,3.5,222.0,68.0,2.7,4,5,7,0,2026-05-21T00:57:30.063582+05:30
Kota,Rajasthan,25.2138,75.8648,34.2,21,0.0,974.3,8.4,46.1,59,36.2,20.7,8.2,175.0,55.0,4.2,0,5,7,0,2026-05-21T00:57:30.063590+05:30
Bikaner,Rajasthan,28.0229,73.3119,34.6,30,0.0,975.4,8.4,34.2,102,283.1,72.9,2.8,149.0,71.0,2.2,0,5,7,0,2026-05-21T00:57:30.063598+05:30
Ajmer,Rajasthan,26.4499,74.6399,31.6,27,0.0,950.6,8.45,58.3,67,118.7,31.9,6.0,178.0,64.0,4.6,0,5,7,0,2026-05-21T00:57:30.063606+05:30
Gwalior,Madhya Pradesh,26.2183,78.1828,33.9,24,0.0,977.2,8.3,51.1,60,24.7,14.8,5.5,165.0,74.0,2.9,0,5,7,0,2026-05-21T00:57:30.063614+05:30
Indore,Madhya Pradesh,22.7196,75.8577,32.1,27,0.0,945.2,8.7,39.2,66,46.4,24.4,6.2,285.0,83.0,5.4,0,5,7,0,2026-05-21T00:57:30.063622+05:30
Bhopal,Madhya Pradesh,23.2599,77.4126,33.5,24,0.0,949.8,8.7,42.5,57,32.1,21.2,5.1,180.0,76.0,4.1,0,5,7,0,2026-05-21T00:57:30.063630+05:30
Jabalpur,Madhya Pradesh,23.1815,79.9864,34.7,21,0.0,956.1,8.9,35.6,85,32.8,21.0,17.3,257.0,61.0,5.7,0,5,7,0,2026-05-21T00:57:30.063638+05:30
Ujjain,Madhya Pradesh,23.1765,75.7885,32.0,28,0.0,950.6,8.6,38.5,68,52.0,26.5,5.1,267.0,78.0,5.4,0,5,7,0,2026-05-21T00:57:30.063646+05:30
Visakhapatnam,Andhra Pradesh,17.6868,83.2185,30.5,88,0.0,997.6,9.1,29.5,103,45.1,37.6,38.7,452.0,78.0,44.2,3,5,7,1,2026-05-21T00:57:30.063654+05:30
Vijayawada,Andhra Pradesh,16.5062,80.648,33.2,62,0.0,996.5,9.15,38.9,120,46.6,41.4,21.5,510.0,76.0,8.1,3,5,7,1,2026-05-21T00:57:30.063663+05:30
Guntur,Andhra Pradesh,16.3067,80.4365,33.6,56,0.0,997.8,9.15,40.3,113,54.6,46.9,28.5,289.0,59.0,8.6,0,5,7,1,2026-05-21T00:57:30.063671+05:30
Nellore,Andhra Pradesh,14.4426,79.9865,31.9,71,0.0,1000.5,8.5,54.0,109,26.4,22.1,6.7,193.0,97.0,7.8,3,5,4,1,2026-05-21T00:57:30.063680+05:30
Kurnool,Andhra Pradesh,15.8281,78.0373,32.2,52,0.0,973.7,8.1,44.6,83,16.1,13.9,8.6,204.0,84.0,5.3,0,5,7,1,2026-05-21T00:57:30.063689+05:30
Kakinada,Andhra Pradesh,16.9891,82.2475,31.7,72,0.0,1001.2,9.1,35.3,91,40.0,30.9,4.2,441.0,129.0,4.8,3,5,4,1,2026-05-21T00:57:30.063698+05:30
Tirupati,Andhra Pradesh,13.6288,79.4192,31.8,48,0.0,987.0,8.55,58.0,59,21.0,18.9,14.2,231.0,61.0,2.9,0,5,7,1,2026-05-21T00:57:30.063705+05:30
Warangal,Telangana,17.9689,79.5941,32.7,39,0.0,973.1,8.4,40.0,131,63.8,53.1,28.4,424.0,51.0,7.2,0,5,7,1,2026-05-21T00:57:30.063713+05:30
Nizamabad,Telangana,18.6725,78.0941,33.3,36,0.0,960.2,9.1,36.4,90,49.6,36.1,20.4,394.0,59.0,7.3,0,5,7,1,2026-05-21T00:57:30.063720+05:30
Mysore,Karnataka,12.2958,76.6396,23.1,90,0.0,927.6,8.75,47.5,30,8.2,7.5,9.4,179.0,45.0,2.5,3,5,7,1,2026-05-21T00:57:30.063728+05:30
Mangalore,Karnataka,12.9141,74.856,28.0,86,0.0,1005.7,8.6,36.4,36,11.9,9.9,8.5,453.0,44.0,3.0,7,5,4,1,2026-05-21T00:57:30.063735+05:30
Hubli-Dharwad,Karnataka,15.3647,75.124,23.8,96,0.0,939.5,8.8,47.5,32,5.6,4.6,6.4,186.0,51.0,1.2,3,5,7,1,2026-05-21T00:57:30.063743+05:30
Belgaum,Karnataka,15.8497,74.4977,22.5,97,0.0,924.2,7.25,42.8,63,14.2,8.7,4.9,135.0,63.0,2.3,3,5,7,1,2026-05-21T00:57:33.340762+05:30
Coimbatore,Tamil Nadu,11.0168,76.9558,26.0,84,0.0,960.3,8.1,58.0,28,7.2,6.2,6.1,168.0,51.0,2.7,7,5,7,1,2026-05-21T00:57:33.340795+05:30
Madurai,Tamil Nadu,9.9252,78.1198,29.5,65,0.0,991.0,9.0,50.0,64,34.0,32.9,50.8,167.0,1.0,12.6,7,5,7,1,2026-05-21T00:57:33.340808+05:30
Trichy,Tamil Nadu,10.7905,78.7047,29.4,65,0.0,997.3,9.0,43.6,39,10.2,9.3,13.7,164.0,47.0,4.6,7,5,7,1,2026-05-21T00:57:33.340845+05:30
Salem,Tamil Nadu,11.6643,78.146,28.5,69,0.0,975.7,9.1,45.4,48,14.9,13.8,20.6,205.0,44.0,8.6,7,5,7,1,2026-05-21T00:57:33.340856+05:30
Tirunelveli,Tamil Nadu,8.7139,77.7567,29.2,70,0.0,1002.0,8.2,37.8,24,7.9,6.6,7.8,167.0,36.0,2.0,7,5,4,1,2026-05-21T00:57:33.340865+05:30
Vellore,Tamil Nadu,12.9165,79.1325,30.8,56,0.0,981.1,9.05,46.4,51,19.3,18.5,19.0,253.0,40.0,6.4,0,5,7,1,2026-05-21T00:57:33.340874+05:30
Erode,Tamil Nadu,11.341,77.7172,28.0,74,0.0,987.2,8.95,54.4,37,14.3,12.9,18.2,179.0,37.0,4.1,7,5,7,1,2026-05-21T00:57:33.340883+05:30
Kochi,Kerala,9.9312,76.2673,28.0,89,0.0,1008.1,8.2,37.4,53,24.6,23.0,29.5,331.0,11.0,6.8,7,0,4,1,2026-05-21T00:57:33.340892+05:30
Thiruvananthapuram,Kerala,8.5241,76.9366,26.5,92,0.1,1008.1,8.5,38.5,25,8.3,4.7,1.5,132.0,49.0,0.5,10,0,4,1,2026-05-21T00:57:33.340900+05:30
Kozhikode,Kerala,11.2588,75.7804,26.8,90,0.0,1007.1,8.75,42.1,30,8.2,5.6,2.0,406.0,60.0,0.7,7,5,4,1,2026-05-21T00:57:33.340908+05:30
Thrissur,Kerala,10.5276,76.2144,26.5,93,0.0,1006.5,8.6,34.6,48,23.6,22.3,23.9,413.0,14.0,5.9,7,5,4,1,2026-05-21T00:57:33.340917+05:30
Kannur,Kerala,11.8745,75.3704,28.2,81,0.1,1006.2,8.75,38.9,31,12.5,10.7,11.4,299.0,36.0,2.7,10,5,4,1,2026-05-21T00:57:33.340925+05:30
Patna,Bihar,25.5941,85.1376,29.8,76,0.0,993.5,8.85,28.1,156,74.5,63.3,15.9,435.0,97.0,18.3,7,5,7,1,2026-05-21T00:57:33.340933+05:30
Gaya,Bihar,24.7914,85.0002,30.4,69,0.0,986.6,8.9,29.2,158,90.6,70.8,15.2,443.0,95.0,16.8,3,5,7,1,2026-05-21T00:57:33.340941+05:30
Muzaffarpur,Bihar,26.1209,85.3647,29.0,77,0.0,993.9,8.85,31.7,154,76.1,64.0,18.8,475.0,85.0,15.7,7,5,7,1,2026-05-21T00:57:33.340948+05:30
Bhagalpur,Bihar,25.2425,87.0117,28.6,85,0.0,994.6,8.85,35.6,152,49.5,43.4,15.6,419.0,84.0,11.3,7,5,7,1,2026-05-21T00:57:33.340956+05:30
Ranchi,Jharkhand,23.3441,85.3096,26.8,58,0.0,931.9,9.3,36.4,146,176.5,66.4,23.9,582.0,85.0,13.4,4,5,7,1,2026-05-21T00:57:33.340964+05:30
Jamshedpur,Jharkhand,22.8046,86.2029,28.7,87,0.0,984.4,9.1,29.9,151,133.6,89.2,49.4,1077.0,43.0,48.2,7,5,7,1,2026-05-21T00:57:33.340972+05:30
Dhanbad,Jharkhand,23.7957,86.4304,29.9,78,0.0,973.6,9.1,33.1,168,193.7,147.1,50.5,429.0,47.0,188.1,7,5,7,1,2026-05-21T00:57:33.340980+05:30
Bokaro,Jharkhand,23.6693,86.1511,28.7,73,0.0,977.1,9.1,30.6,169,220.3,138.3,53.7,433.0,42.0,181.3,7,5,7,1,2026-05-21T00:57:33.340987+05:30
Bhubaneswar,Odisha,20.2961,85.8245,29.8,79,0.0,995.4,9.15,27.4,100,64.0,53.7,20.2,426.0,89.0,12.8,7,5,7,1,2026-05-21T00:57:33.340994+05:30
Cuttack,Odisha,20.4625,85.8828,29.5,82,0.0,997.1,9.2,21.6,100,64.0,53.7,20.2,542.0,89.0,12.8,7,5,7,1,2026-05-21T00:57:33.341002+05:30
Rourkela,Odisha,22.2604,84.8536,29.5,53,0.0,978.2,9.0,32.8,150,146.7,61.9,35.4,663.0,40.0,15.4,4,5,7,1,2026-05-21T00:57:33.341009+05:30
Raipur,Chhattisgarh,21.2514,81.6296,33.1,35,0.0,967.7,9.0,38.2,151,79.6,64.5,47.4,492.0,42.0,43.9,0,5,7,0,2026-05-21T00:57:33.341016+05:30
Bhilai,Chhattisgarh,21.1938,81.3509,33.2,35,0.0,968.2,9.0,42.8,136,69.8,53.9,42.4,653.0,51.0,44.9,0,5,7,0,2026-05-21T00:57:33.341023+05:30
Guwahati,Assam,26.1158,91.7086,25.7,95,0.0,996.2,8.75,25.2,130,42.4,37.6,16.8,463.0,24.0,2.4,7,5,7,1,2026-05-21T00:57:33.341031+05:30
Agartala,Tripura,23.8315,91.2868,26.9,90,0.0,1001.1,8.8,27.4,81,21.3,17.7,11.6,230.0,31.0,2.8,7,5,4,1,2026-05-21T00:57:33.341040+05:30
Shillong,Meghalaya,25.5788,91.8933,16.9,98,0.0,852.7,8.5,22.0,81,34.6,28.9,10.0,250.0,57.0,3.7,3,10,7,1,2026-05-21T00:57:33.341047+05:30
Imphal,Manipur,24.817,93.9368,22.4,97,0.0,919.4,9.25,33.8,110,72.9,56.6,28.9,724.0,26.0,6.2,3,5,7,1,2026-05-21T00:57:33.341056+05:30
Aizawl,Mizoram,23.7271,92.7176,20.4,94,0.0,888.6,9.1,27.7,86,35.9,26.3,6.5,228.0,56.0,2.7,3,5,7,1,2026-05-21T00:57:33.341063+05:30
Kohima,Nagaland,25.6701,94.1077,17.9,98,0.0,851.5,9.2,25.2,99,41.1,29.0,17.6,293.0,34.0,1.5,3,10,7,1,2026-05-21T00:57:33.341072+05:30
Gangtok,Sikkim,27.3314,88.6138,14.9,85,0.0,832.6,9.15,36.4,76,30.9,22.0,19.2,730.0,64.0,2.5,3,10,7,0,2026-05-21T00:57:33.341080+05:30
Siliguri,West Bengal,26.7271,88.3953,26.4,78,0.2,987.3,8.75,27.7,133,89.6,67.3,33.9,762.0,59.0,8.4,10,5,7,1,2026-05-21T00:57:36.632262+05:30
Durgapur,West Bengal,23.5204,87.3119,29.6,85,0.0,988.7,9.0,22.7,161,129.5,109.0,40.8,704.0,59.0,37.1,7,5,7,1,2026-05-21T00:57:36.632295+05:30
Asansol,West Bengal,23.6739,86.9524,30.0,79,0.0,987.1,9.05,42.1,161,133.2,112.9,44.0,594.0,58.0,43.3,7,5,7,1,2026-05-21T00:57:36.632307+05:30
Pondicherry,Puducherry,11.9139,79.8145,30.2,71,0.0,1004.3,7.35,35.3,65,18.3,16.4,17.1,351.0,61.0,8.7,3,5,4,1,2026-05-21T00:57:36.632317+05:30
Port Blair,Andaman and Nicobar Islands,11.6234,92.7265,25.4,95,0.3,1004.1,8.8,38.9,24,4.9,3.0,0.3,104.0,58.0,0.3,10,5,4,1,2026-05-21T00:57:36.632326+05:30
Haridwar,Uttarakhand,29.9457,78.1642,26.5,53,0.0,967.0,7.25,26.3,114,94.1,57.0,36.9,333.0,30.0,10.2,4,5,7,1,2026-05-21T00:57:36.632334+05:30
Rishikesh,Uttarakhand,30.0869,78.2676,23.4,58,0.0,959.6,7.4,29.9,92,71.5,34.5,19.8,355.0,66.0,6.5,0,5,7,0,2026-05-21T00:57:36.632342+05:30
Nainital,Uttarakhand,29.3919,79.4542,17.1,63,0.0,802.4,8.5,35.3,104,122.0,36.6,12.6,231.0,97.0,4.8,3,5,7,0,2026-05-21T00:57:36.632349+05:30
Mussoorie,Uttarakhand,30.4599,78.0664,20.1,37,0.0,801.9,8.0,52.9,96,76.8,45.6,45.6,234.0,41.0,10.1,0,5,7,0,2026-05-21T00:57:36.632357+05:30
Dharamshala,Himachal Pradesh,32.219,76.3234,25.7,30,0.0,866.5,8.45,52.6,57,25.3,13.8,15.3,203.0,30.0,0.3,4,5,7,0,2026-05-21T00:57:36.632365+05:30
Dalhousie,Himachal Pradesh,32.5387,75.971,15.4,61,0.0,800.7,8.7,37.1,76,37.5,26.4,51.8,318.0,1.0,2.2,3,5,7,0,2026-05-21T00:57:36.632373+05:30
Patiala,Punjab,30.3398,76.3869,32.6,24,0.0,970.5,7.65,39.2,387,132.2,75.2,36.1,389.0,41.0,14.2,0,5,7,0,2026-05-21T00:57:36.632380+05:30
Bhatinda,Punjab,30.211,74.9455,33.9,31,0.0,976.3,8.3,35.6,108,51.5,34.1,18.1,357.0,46.0,7.0,0,5,7,0,2026-05-21T00:57:36.632387+05:30
Rohtak,Haryana,28.8955,76.6066,32.5,29,0.0,974.7,7.7,42.1,380,315.7,74.0,44.8,218.0,30.0,7.2,0,5,7,0,2026-05-21T00:57:36.632395+05:30
Panipat,Haryana,29.3909,76.9635,32.0,36,0.0,972.9,7.45,35.3,799,311.1,82.2,35.5,775.0,27.0,5.9,0,5,7,0,2026-05-21T00:57:36.632402+05:30
Mathura,Uttar Pradesh,27.4924,77.6737,33.0,24,0.0,980.2,8.05,43.2,488,1035.6,128.1,9.3,213.0,72.0,4.0,0,5,7,0,2026-05-21T00:57:36.632409+05:30
Vrindavan,Uttar Pradesh,27.5823,77.7027,32.7,25,0.0,980.5,8.0,42.1,488,1035.6,128.1,9.3,212.0,72.0,4.0,0,5,7,0,2026-05-21T00:57:36.632416+05:30
Ayodhya,Uttar Pradesh,26.7922,82.1998,30.4,71,0.0,988.1,8.4,25.6,154,162.5,63.1,30.2,567.0,73.0,14.0,3,5,7,1,2026-05-21T00:57:36.632424+05:30
Ratlam,Madhya Pradesh,23.3315,75.0367,30.8,33,0.0,951.8,8.55,37.1,68,51.1,25.8,5.1,226.0,77.0,7.4,0,5,7,0,2026-05-21T00:57:36.632431+05:30
Sagar,Madhya Pradesh,23.8388,78.7378,33.0,24,0.0,945.8,8.75,41.4,51,25.4,17.4,5.7,168.0,87.0,3.4,0,5,7,0,2026-05-21T00:57:36.632438+05:30
Satna,Madhya Pradesh,24.6005,80.8322,32.8,31,0.0,965.1,8.8,39.6,101,54.4,24.4,21.7,254.0,52.0,4.1,0,5,7,0,2026-05-21T00:57:36.632445+05:30
Akola,Maharashtra,20.7002,77.0082,34.6,39,0.0,970.6,8.9,40.7,67,36.4,25.1,8.7,186.0,91.0,10.2,0,5,7,1,2026-05-21T00:57:36.632453+05:30
Amravati,Maharashtra,20.9374,77.7796,35.6,25,0.0,962.5,8.9,33.8,65,37.0,25.8,9.2,198.0,86.0,7.9,0,5,10,0,2026-05-21T00:57:36.632462+05:30
Latur,Maharashtra,18.4088,76.5604,30.5,47,0.0,937.0,9.05,38.5,86,40.5,33.1,17.3,183.0,82.0,7.9,0,5,7,1,2026-05-21T00:57:36.632469+05:30
Nanded,Maharashtra,19.1383,77.3091,34.1,34,0.0,964.1,9.0,47.5,85,39.5,29.0,15.0,314.0,68.0,6.1,0,5,7,0,2026-05-21T00:57:36.632477+05:30
Gulbarga,Karnataka,17.3297,76.8343,29.8,55,0.0,955.7,8.95,45.7,85,32.8,24.2,8.3,214.0,89.0,4.7,4,5,7,1,2026-05-21T00:57:36.632484+05:30
Bidar,Karnataka,17.9104,77.5199,29.9,47,0.0,932.3,9.1,43.9,89,53.0,43.2,38.0,230.0,45.0,7.3,4,5,7,1,2026-05-21T00:57:36.632492+05:30
Hospet,Karnataka,15.2689,76.3909,25.9,83,0.0,954.4,9.0,51.5,39,6.2,5.4,6.8,163.0,56.0,1.5,7,5,7,1,2026-05-21T00:57:36.632499+05:30
Tirupur,Tamil Nadu,11.1085,77.3411,27.0,79,0.0,973.6,9.1,55.8,40,16.5,15.2,21.8,162.0,32.0,4.8,7,5,7,1,2026-05-21T00:57:36.632506+05:30
Alappuzha,Kerala,9.4981,76.3388,28.8,83,0.0,1008.2,8.65,39.2,36,17.5,15.1,11.5,90.0,35.0,2.6,7,0,4,1,2026-05-21T00:57:36.632513+05:30
Munnar,Kerala,10.0889,77.0595,17.7,99,0.0,856.4,9.25,31.7,25,8.3,7.4,9.1,118.0,34.0,2.0,3,10,7,1,2026-05-21T00:57:36.632521+05:30
Silchar,Assam,24.8333,92.7789,25.6,94,0.1,1000.9,8.45,24.5,143,77.5,56.5,18.6,241.0,72.0,9.9,10,5,4,1,2026-05-21T00:57:36.632528+05:30
Dibrugarh,Assam,27.4728,94.912,27.2,86,0.0,990.5,8.9,22.0,77,12.1,11.2,17.1,618.0,26.0,0.8,7,5,7,1,2026-05-21T00:57:36.632535+05:30
