city,state,latitude,longitude,temp,humidity,rain,pressure,uv_index,wind_gusts,aqi,pm10,pm2_5,no2,co,o3,so2,mosquito_risk,arthritis_risk,migraine_risk,frizz_risk,updated_at
Delhi,Delhi,28.6139,77.209,31.2,73,0.0,972.7,6.3,34.2,88,16.2,16.1,10.9,415.0,137.0,19.0,3,5,7,1,2026-07-24T15:50:56.442663+05:30
Mumbai,Maharashtra,19.076,72.8777,27.9,83,0.1,1002.4,7.55,64.8,61,29.5,15.1,6.1,167.0,55.0,5.6,10,5,4,1,2026-07-24T15:50:56.442712+05:30
Bangalore,Karnataka,12.9716,77.5946,28.0,53,0.1,909.8,8.7,61.2,49,51.7,20.7,5.6,296.0,77.0,1.9,7,5,7,1,2026-07-24T15:50:56.442728+05:30
Hyderabad,Telangana,17.385,78.4867,30.0,58,0.1,948.0,5.55,63.7,66,31.0,13.9,2.3,229.0,80.0,2.4,7,5,3,1,2026-07-24T15:50:56.442738+05:30
Chennai,Tamil Nadu,13.0827,80.2707,31.9,72,0.1,1002.5,8.1,35.3,71,33.9,22.1,3.4,238.0,143.0,5.6,6,5,4,1,2026-07-24T15:50:56.442746+05:30
Kolkata,West Bengal,22.5726,88.3639,27.6,89,0.3,996.9,4.75,28.4,67,30.0,26.9,7.7,415.0,100.0,8.8,10,5,3,1,2026-07-24T15:50:56.442755+05:30
Pune,Maharashtra,18.5204,73.8567,25.0,82,0.2,942.4,6.2,65.2,22,7.3,4.0,2.9,135.0,50.0,2.6,10,5,7,1,2026-07-24T15:50:56.442762+05:30
Ahmedabad,Gujarat,23.0225,72.5714,27.7,81,0.0,991.9,1.8,42.5,50,6.0,4.1,10.1,199.0,39.0,2.2,7,5,3,1,2026-07-24T15:50:56.442769+05:30
Jaipur,Rajasthan,26.9124,75.7873,31.0,66,0.0,949.1,7.25,27.0,72,10.4,10.2,2.9,261.0,109.0,5.2,3,5,7,1,2026-07-24T15:50:56.442776+05:30
Lucknow,Uttar Pradesh,26.8467,80.9462,31.7,72,0.0,984.1,7.55,24.5,72,14.3,13.6,3.6,203.0,105.0,5.1,3,5,7,1,2026-07-24T15:50:56.442787+05:30
Kanpur,Uttar Pradesh,26.4499,80.3319,32.8,62,0.0,982.0,7.2,27.0,62,10.6,9.7,2.4,161.0,107.0,4.5,3,5,7,1,2026-07-24T15:50:56.442794+05:30
Chandigarh,Chandigarh,30.7333,76.7794,32.2,62,0.1,960.4,7.6,26.6,118,21.0,20.9,3.5,331.0,170.0,7.6,6,5,7,1,2026-07-24T15:50:56.442801+05:30
Srinagar,Jammu and Kashmir,34.0837,74.7973,21.3,77,0.0,839.0,5.35,17.6,76,16.3,16.2,10.6,296.0,73.0,2.8,3,5,3,1,2026-07-24T15:50:56.442809+05:30
Jammu,Jammu and Kashmir,32.7266,74.857,32.2,61,0.0,964.6,8.25,31.7,97,13.7,13.2,1.0,218.0,116.0,1.7,3,5,7,1,2026-07-24T15:50:56.442815+05:30
Amritsar,Punjab,31.634,74.8723,32.2,65,0.0,972.1,8.35,29.5,96,24.9,24.6,2.1,321.0,153.0,5.5,3,5,7,1,2026-07-24T15:50:56.442822+05:30
Ludhiana,Punjab,30.901,75.8573,33.1,60,0.1,969.5,7.85,31.3,112,22.7,22.6,3.7,298.0,160.0,7.2,3,5,7,1,2026-07-24T15:50:56.442829+05:30
Jalandhar,Punjab,31.326,75.5762,32.3,69,0.0,970.8,8.05,23.0,119,25.0,24.9,2.3,325.0,172.0,7.3,3,5,7,1,2026-07-24T15:50:56.442836+05:30
Dehradun,Uttarakhand,30.6284,78.0322,21.0,98,0.0,826.5,7.8,26.6,54,8.4,8.3,2.0,159.0,112.0,1.5,3,5,7,1,2026-07-24T15:50:56.442846+05:30
Shimla,Himachal Pradesh,31.1048,77.1734,19.3,90,0.0,781.8,6.85,22.0,52,15.0,14.8,3.8,198.0,117.0,4.4,3,10,7,1,2026-07-24T15:50:56.442853+05:30
Manali,Himachal Pradesh,32.2396,77.1887,24.9,80,0.0,816.5,9.4,29.5,38,3.0,2.8,0.8,153.0,101.0,0.8,3,5,7,1,2026-07-24T15:50:56.442862+05:30
Gurgaon,Haryana,28.4595,77.0266,31.5,71,0.1,971.0,6.75,38.9,90,13.9,13.8,7.1,315.0,133.0,10.6,6,5,7,1,2026-07-24T15:50:56.442869+05:30
Noida,Uttar Pradesh,28.5355,77.391,30.8,77,0.1,974.3,6.75,36.7,90,13.9,13.8,7.1,279.0,133.0,10.6,6,5,7,1,2026-07-24T15:50:56.442875+05:30
Ghaziabad,Uttar Pradesh,28.6692,77.4538,30.5,79,0.1,972.6,6.95,39.2,80,12.8,12.7,4.5,237.0,124.0,9.1,6,5,7,1,2026-07-24T15:50:56.442882+05:30
Faridabad,Haryana,28.4089,77.3178,30.9,76,0.0,973.5,6.85,38.9,90,13.9,13.8,7.1,262.0,133.0,10.6,3,5,7,1,2026-07-24T15:50:56.442888+05:30
Meerut,Uttar Pradesh,28.9845,77.7064,30.4,76,0.1,972.0,6.25,44.3,80,12.8,12.7,4.5,249.0,124.0,9.1,6,5,7,1,2026-07-24T15:50:56.442895+05:30
Agra,Uttar Pradesh,27.1767,78.0081,33.8,58,0.0,976.9,6.7,27.7,85,12.1,11.6,2.1,182.0,122.0,3.9,0,5,7,1,2026-07-24T15:50:56.442902+05:30
Varanasi,Uttar Pradesh,25.3176,82.9739,32.2,70,0.1,988.6,7.5,21.2,81,17.1,15.8,2.6,299.0,129.0,7.9,6,5,7,1,2026-07-24T15:50:56.442909+05:30
Prayagraj,Uttar Pradesh,25.4358,81.8463,32.5,65,0.0,986.7,8.5,19.8,66,18.3,17.2,2.3,168.0,133.0,7.8,3,5,7,1,2026-07-24T15:50:56.442916+05:30
Gorakhpur,Uttar Pradesh,26.7606,83.3732,28.5,87,0.0,988.8,6.9,27.4,97,25.0,24.9,4.4,303.0,130.0,4.4,7,5,7,1,2026-07-24T15:50:56.442922+05:30
Bareilly,Uttar Pradesh,28.367,79.4304,30.9,78,0.0,977.5,6.95,38.9,79,16.9,16.8,4.4,266.0,120.0,9.1,3,5,7,1,2026-07-24T15:50:56.442931+05:30
Aligarh,Uttar Pradesh,27.8974,78.088,31.4,74,0.0,975.4,5.4,31.7,85,12.9,12.5,2.5,176.0,128.0,7.0,3,5,3,1,2026-07-24T15:50:56.442938+05:30
Moradabad,Uttar Pradesh,28.8386,78.7733,30.5,80,0.1,974.5,7.1,44.6,81,18.5,18.5,4.2,282.0,134.0,8.9,6,5,7,1,2026-07-24T15:50:56.442944+05:30
Saharanpur,Uttar Pradesh,29.9637,77.546,31.2,71,0.0,966.9,7.25,43.9,84,18.4,18.3,2.9,261.0,134.0,4.9,3,5,7,1,2026-07-24T15:50:56.442951+05:30
Jhansi,Uttar Pradesh,25.4484,78.5685,32.9,55,0.0,968.0,7.3,32.4,59,6.6,5.9,1.7,138.0,101.0,6.0,0,5,7,1,2026-07-24T15:50:59.902311+05:30
Surat,Gujarat,21.1702,72.8311,29.0,77,0.0,997.5,5.95,55.4,62,41.7,22.2,16.1,253.0,41.0,35.0,7,5,3,1,2026-07-24T15:50:59.902345+05:30
Vadodara,Gujarat,22.3072,73.1812,28.4,81,0.1,994.4,2.7,50.4,40,11.9,7.9,8.0,196.0,45.0,3.7,10,5,3,1,2026-07-24T15:50:59.902356+05:30
Rajkot,Gujarat,22.3039,70.8022,26.2,92,0.3,984.6,1.25,49.0,46,9.7,5.8,6.9,126.0,46.0,5.0,10,5,3,1,2026-07-24T15:50:59.902365+05:30
Thane,Maharashtra,19.2183,72.9781,26.9,89,0.1,1001.6,7.6,52.9,61,29.5,15.1,6.1,162.0,55.0,5.6,10,5,4,1,2026-07-24T15:50:59.902374+05:30
Nagpur,Maharashtra,21.1458,79.0882,28.2,79,0.0,966.1,8.2,47.5,56,17.6,9.0,5.0,135.0,85.0,14.8,7,5,7,1,2026-07-24T15:50:59.902382+05:30
Nashik,Maharashtra,19.9975,73.7898,24.6,89,0.1,938.3,7.05,59.8,21,11.4,6.3,2.6,126.0,54.0,2.3,6,5,7,1,2026-07-24T15:50:59.902390+05:30
Aurangabad,Maharashtra,19.8762,75.3433,28.5,64,0.0,937.0,7.25,62.3,27,11.4,5.7,1.6,111.0,77.0,3.9,7,5,7,1,2026-07-24T15:50:59.902397+05:30
Solapur,Maharashtra,17.6599,75.9064,31.1,52,0.1,951.9,5.95,64.8,49,17.8,7.2,0.9,101.0,61.0,1.2,3,5,3,1,2026-07-24T15:50:59.902405+05:30
Kolhapur,Maharashtra,16.705,74.2433,24.5,86,0.1,944.3,8.7,67.0,36,9.6,5.8,1.9,121.0,48.0,1.2,6,5,7,1,2026-07-24T15:50:59.902412+05:30
Goa,Goa,15.2993,74.124,27.4,84,0.2,996.5,8.85,41.4,86,26.4,11.9,1.1,127.0,47.0,0.9,10,5,7,1,2026-07-24T15:50:59.902450+05:30
Jodhpur,Rajasthan,26.2389,73.0243,28.7,85,0.2,971.4,7.35,26.3,66,22.9,19.8,2.4,312.0,146.0,2.6,10,5,7,1,2026-07-24T15:50:59.902460+05:30
Udaipur,Rajasthan,24.5854,73.7125,26.1,90,0.1,935.5,7.2,32.0,55,4.6,4.4,2.9,242.0,85.0,3.6,10,5,7,1,2026-07-24T15:50:59.902468+05:30
Kota,Rajasthan,25.2138,75.8648,32.0,59,0.1,967.3,7.05,38.5,62,6.0,5.5,2.0,194.0,97.0,5.2,3,5,7,1,2026-07-24T15:50:59.902476+05:30
Bikaner,Rajasthan,28.0229,73.3119,32.8,62,0.1,970.4,7.95,27.0,98,29.6,28.1,1.5,273.0,147.0,5.0,6,5,7,1,2026-07-24T15:50:59.902485+05:30
Ajmer,Rajasthan,26.4499,74.6399,30.1,69,0.0,943.7,7.8,25.2,71,17.1,16.8,1.4,223.0,128.0,3.8,3,5,7,1,2026-07-24T15:50:59.902492+05:30
Gwalior,Madhya Pradesh,26.2183,78.1828,33.1,58,0.0,972.6,7.35,28.1,68,6.1,5.8,1.1,137.0,101.0,2.9,0,5,7,1,2026-07-24T15:50:59.902499+05:30
Indore,Madhya Pradesh,22.7196,75.8577,28.9,64,0.0,938.9,6.35,51.1,35,28.9,12.8,2.6,154.0,79.0,4.1,7,5,7,1,2026-07-24T15:50:59.902507+05:30
Bhopal,Madhya Pradesh,23.2599,77.4126,28.9,72,0.0,944.7,7.55,42.5,38,14.5,6.9,1.2,149.0,75.0,2.6,7,5,7,1,2026-07-24T15:50:59.902514+05:30
Jabalpur,Madhya Pradesh,23.1815,79.9864,30.8,62,0.0,953.0,7.7,30.6,52,11.0,6.1,1.4,132.0,89.0,3.1,3,5,7,1,2026-07-24T15:50:59.902521+05:30
Ujjain,Madhya Pradesh,23.1765,75.7885,26.1,82,0.0,944.3,4.95,58.3,34,14.1,7.1,1.5,137.0,78.0,2.7,7,5,3,1,2026-07-24T15:50:59.902530+05:30
Visakhapatnam,Andhra Pradesh,17.6868,83.2185,32.2,66,0.0,996.1,9.05,43.6,76,38.8,23.3,8.1,272.0,106.0,22.0,3,5,7,1,2026-07-24T15:50:59.902540+05:30
Vijayawada,Andhra Pradesh,16.5062,80.648,34.4,50,0.0,996.4,8.8,42.1,74,33.6,16.8,1.9,113.0,80.0,4.3,0,5,7,1,2026-07-24T15:50:59.902548+05:30
Guntur,Andhra Pradesh,16.3067,80.4365,35.8,43,0.0,997.8,8.35,47.5,74,30.5,15.2,2.0,109.0,72.0,4.4,0,5,10,1,2026-07-24T15:50:59.902555+05:30
Nellore,Andhra Pradesh,14.4426,79.9865,36.5,40,0.1,1000.3,8.4,42.8,71,53.1,24.6,2.6,117.0,115.0,3.4,3,5,7,1,2026-07-24T15:50:59.902564+05:30
Kurnool,Andhra Pradesh,15.8281,78.0373,31.9,51,0.0,972.5,7.6,51.1,65,21.4,9.4,1.4,110.0,67.0,1.4,0,5,7,1,2026-07-24T15:50:59.902572+05:30
Kakinada,Andhra Pradesh,16.9891,82.2475,34.2,49,0.0,1000.8,8.95,57.2,70,42.0,21.2,1.9,140.0,95.0,3.3,0,5,4,1,2026-07-24T15:50:59.902579+05:30
Tirupati,Andhra Pradesh,13.6288,79.4192,35.3,40,0.0,986.1,7.9,33.5,66,62.2,22.1,4.8,130.0,78.0,1.2,0,5,10,1,2026-07-24T15:50:59.902587+05:30
Warangal,Telangana,17.9689,79.5941,32.5,53,0.0,972.7,6.0,46.1,72,22.6,10.7,1.7,125.0,85.0,2.4,0,5,3,1,2026-07-24T15:50:59.902594+05:30
Nizamabad,Telangana,18.6725,78.0941,31.9,55,0.0,958.3,7.85,52.6,58,22.5,9.5,1.5,122.0,73.0,2.4,0,5,7,1,2026-07-24T15:50:59.902601+05:30
Mysore,Karnataka,12.2958,76.6396,27.5,62,0.1,926.3,8.5,45.7,43,75.2,27.2,2.2,148.0,81.0,1.1,10,5,7,1,2026-07-24T15:50:59.902608+05:30
Mangalore,Karnataka,12.9141,74.856,27.2,83,0.0,1006.2,8.7,41.0,55,21.8,10.2,1.8,114.0,54.0,1.5,7,5,4,1,2026-07-24T15:50:59.902615+05:30
Hubli-Dharwad,Karnataka,15.3647,75.124,26.2,71,0.0,938.5,8.85,64.8,58,7.7,4.5,2.5,102.0,46.0,0.9,7,5,7,1,2026-07-24T15:50:59.902622+05:30
Belgaum,Karnataka,15.8497,74.4977,23.0,93,0.1,922.8,9.05,63.4,52,8.8,4.9,1.4,99.0,45.0,1.2,6,5,7,1,2026-07-24T15:51:03.305668+05:30
Coimbatore,Tamil Nadu,11.0168,76.9558,32.5,46,0.1,959.3,8.9,48.6,37,24.2,9.9,1.6,135.0,66.0,1.6,3,5,7,1,2026-07-24T15:51:03.305702+05:30
Madurai,Tamil Nadu,9.9252,78.1198,38.0,30,0.0,988.9,8.85,28.4,64,24.0,11.3,1.6,148.0,107.0,2.1,0,5,10,1,2026-07-24T15:51:03.305713+05:30
Trichy,Tamil Nadu,10.7905,78.7047,38.4,32,0.0,995.0,8.75,44.3,51,12.0,6.7,0.9,116.0,80.0,1.6,0,5,10,1,2026-07-24T15:51:03.305723+05:30
Salem,Tamil Nadu,11.6643,78.146,34.3,48,0.0,973.7,8.3,29.9,60,19.5,10.2,2.9,136.0,90.0,4.7,0,5,7,1,2026-07-24T15:51:03.305731+05:30
Tirunelveli,Tamil Nadu,8.7139,77.7567,37.2,33,0.0,999.3,8.75,46.4,40,7.4,5.4,1.4,121.0,75.0,1.4,0,5,10,1,2026-07-24T15:51:03.305739+05:30
Vellore,Tamil Nadu,12.9165,79.1325,36.0,39,0.1,979.7,7.4,40.3,73,55.2,21.7,3.2,212.0,90.0,2.0,3,5,10,1,2026-07-24T15:51:03.305747+05:30
Erode,Tamil Nadu,11.341,77.7172,36.4,37,0.0,985.3,8.45,38.9,51,14.1,7.9,2.2,151.0,86.0,1.7,0,5,10,1,2026-07-24T15:51:03.305754+05:30
Kochi,Kerala,9.9312,76.2673,28.9,77,0.0,1007.5,8.5,29.5,57,11.4,7.5,1.9,123.0,71.0,2.7,7,5,4,1,2026-07-24T15:51:03.305763+05:30
Thiruvananthapuram,Kerala,8.5241,76.9366,29.2,73,0.0,1006.7,8.55,42.8,52,14.6,9.3,2.1,103.0,67.0,1.3,7,5,4,1,2026-07-24T15:51:03.305770+05:30
Kozhikode,Kerala,11.2588,75.7804,29.1,74,0.0,1006.8,8.5,34.6,38,14.9,7.6,0.5,105.0,56.0,1.1,7,5,4,1,2026-07-24T15:51:03.305777+05:30
Thrissur,Kerala,10.5276,76.2144,29.7,72,0.0,1005.8,8.55,36.4,53,12.2,7.3,1.2,101.0,61.0,1.6,7,5,4,1,2026-07-24T15:51:03.305785+05:30
Kannur,Kerala,11.8745,75.3704,28.6,78,0.0,1006.6,8.65,35.6,49,31.0,12.0,1.0,105.0,60.0,1.2,7,5,4,1,2026-07-24T15:51:03.305792+05:30
Patna,Bihar,25.5941,85.1376,29.2,85,0.2,991.8,5.7,19.1,95,28.3,28.2,4.7,296.0,154.0,14.0,10,5,3,1,2026-07-24T15:51:03.305799+05:30
Gaya,Bihar,24.7914,85.0002,30.1,81,0.1,985.0,8.15,24.5,84,28.3,28.1,2.5,194.0,154.0,10.4,6,5,7,1,2026-07-24T15:51:03.305807+05:30
Muzaffarpur,Bihar,26.1209,85.3647,31.4,76,0.0,991.7,6.65,25.2,92,28.5,28.2,4.9,294.0,141.0,10.0,3,5,7,1,2026-07-24T15:51:03.305814+05:30
Bhagalpur,Bihar,25.2425,87.0117,30.8,76,0.1,992.0,6.35,30.2,83,18.7,18.3,5.7,283.0,124.0,11.0,6,5,7,1,2026-07-24T15:51:03.305822+05:30
Ranchi,Jharkhand,23.3441,85.3096,25.6,87,0.1,930.2,6.65,31.7,57,9.2,8.7,3.1,173.0,93.0,6.4,10,5,7,1,2026-07-24T15:51:03.305830+05:30
Jamshedpur,Jharkhand,22.8046,86.2029,28.4,78,0.0,982.3,6.3,31.7,69,22.5,20.3,4.3,226.0,130.0,13.3,7,5,7,1,2026-07-24T15:51:03.305837+05:30
Dhanbad,Jharkhand,23.7957,86.4304,29.0,82,0.0,971.0,6.75,27.0,87,28.0,27.8,18.9,194.0,124.0,56.0,7,5,7,1,2026-07-24T15:51:03.305845+05:30
Bokaro,Jharkhand,23.6693,86.1511,29.4,78,0.0,975.0,8.5,27.0,77,27.4,27.1,20.8,172.0,104.0,65.4,7,5,7,1,2026-07-24T15:51:03.305852+05:30
Bhubaneswar,Odisha,20.2961,85.8245,27.7,92,0.1,995.0,8.75,37.4,71,28.5,20.7,6.0,239.0,92.0,5.7,10,5,7,1,2026-07-24T15:51:03.305860+05:30
Cuttack,Odisha,20.4625,85.8828,27.0,93,0.2,996.9,8.7,41.4,71,28.5,20.7,6.0,274.0,92.0,5.7,10,5,7,1,2026-07-24T15:51:03.305867+05:30
Rourkela,Odisha,22.2604,84.8536,29.0,82,0.1,976.8,7.8,42.8,66,24.1,21.2,3.8,204.0,111.0,14.2,10,5,7,1,2026-07-24T15:51:03.305875+05:30
Raipur,Chhattisgarh,21.2514,81.6296,31.1,65,0.1,966.7,7.65,44.3,74,22.2,16.3,8.7,304.0,84.0,25.0,6,5,7,1,2026-07-24T15:51:03.305882+05:30
Bhilai,Chhattisgarh,21.1938,81.3509,30.2,67,0.0,967.3,7.55,49.3,71,21.3,14.2,8.5,462.0,77.0,22.2,3,5,7,1,2026-07-24T15:51:03.305889+05:30
Guwahati,Assam,26.1158,91.7086,28.8,89,0.1,993.0,8.35,19.8,52,7.9,7.6,2.7,233.0,91.0,1.5,10,5,7,1,2026-07-24T15:51:03.305896+05:30
Agartala,Tripura,23.8315,91.2868,29.6,76,0.0,997.5,6.5,37.8,51,9.0,7.3,3.6,161.0,88.0,1.4,7,5,7,1,2026-07-24T15:51:03.305903+05:30
Shillong,Meghalaya,25.5788,91.8933,25.2,65,0.0,853.0,6.25,28.8,36,5.2,4.9,3.1,159.0,73.0,1.3,7,5,7,1,2026-07-24T15:51:03.305909+05:30
Imphal,Manipur,24.817,93.9368,27.0,75,0.0,916.7,9.05,20.2,40,4.2,3.8,4.0,184.0,72.0,1.5,7,5,7,1,2026-07-24T15:51:03.305916+05:30
Aizawl,Mizoram,23.7271,92.7176,24.2,74,0.0,886.7,8.7,34.9,30,4.2,2.9,1.6,119.0,59.0,0.6,3,5,7,1,2026-07-24T15:51:03.305923+05:30
Kohima,Nagaland,25.6701,94.1077,23.6,85,0.1,851.0,8.65,22.7,33,3.0,2.7,2.0,144.0,70.0,0.7,6,5,7,1,2026-07-24T15:51:03.305930+05:30
Gangtok,Sikkim,27.3314,88.6138,22.0,78,0.0,834.2,7.5,34.6,43,4.0,3.8,2.9,184.0,99.0,1.0,3,5,7,1,2026-07-24T15:51:03.305937+05:30
Siliguri,West Bengal,26.7271,88.3953,30.7,72,0.0,984.8,7.65,28.8,63,12.2,11.4,3.0,312.0,104.0,2.6,3,5,7,1,2026-07-24T15:51:06.724026+05:30
Durgapur,West Bengal,23.5204,87.3119,26.7,93,0.3,986.1,7.15,24.8,98,47.0,46.6,19.2,623.0,171.0,63.1,10,5,7,1,2026-07-24T15:51:06.724064+05:30
Asansol,West Bengal,23.6739,86.9524,29.2,83,0.0,984.5,8.3,29.5,85,30.7,30.6,16.4,204.0,141.0,43.0,7,5,7,1,2026-07-24T15:51:06.724079+05:30
Pondicherry,Puducherry,11.9139,79.8145,32.7,61,0.1,1003.8,7.9,41.4,66,37.1,26.5,4.7,203.0,145.0,6.9,6,5,4,1,2026-07-24T15:51:06.724089+05:30
Port Blair,Andaman and Nicobar Islands,11.6234,92.7265,29.6,69,0.0,1004.5,8.55,44.3,39,12.5,7.5,0.4,97.0,45.0,0.5,7,5,4,1,2026-07-24T15:51:06.724097+05:30
Haridwar,Uttarakhand,29.9457,78.1642,32.1,65,0.1,965.4,6.3,36.7,82,16.4,16.3,2.2,222.0,130.0,4.8,6,5,7,1,2026-07-24T15:51:06.724105+05:30
Rishikesh,Uttarakhand,30.0869,78.2676,29.4,82,0.1,958.6,6.0,26.3,73,13.2,13.1,1.6,200.0,122.0,3.3,10,5,3,1,2026-07-24T15:51:06.724113+05:30
Nainital,Uttarakhand,29.3919,79.4542,22.0,69,0.0,802.4,8.0,42.1,59,13.8,13.8,1.3,180.0,118.0,2.5,3,5,7,1,2026-07-24T15:51:06.724120+05:30
Mussoorie,Uttarakhand,30.4599,78.0664,20.0,91,0.0,799.6,6.1,31.7,94,12.6,12.5,3.2,186.0,121.0,3.0,3,5,7,1,2026-07-24T15:51:06.724129+05:30
Dharamshala,Himachal Pradesh,32.219,76.3234,23.9,85,0.2,864.1,6.55,32.4,42,5.2,5.1,0.7,246.0,107.0,0.8,6,5,7,1,2026-07-24T15:51:06.724137+05:30
Dalhousie,Himachal Pradesh,32.5387,75.971,21.6,82,0.0,802.0,8.55,28.8,76,11.4,11.1,1.4,197.0,130.0,1.5,3,5,7,1,2026-07-24T15:51:06.724144+05:30
Patiala,Punjab,30.3398,76.3869,31.9,69,0.1,969.1,7.2,36.4,92,21.4,21.3,3.4,271.0,147.0,6.8,6,5,7,1,2026-07-24T15:51:06.724152+05:30
Bhatinda,Punjab,30.211,74.9455,31.6,72,0.0,974.0,7.35,32.0,117,33.1,32.9,4.9,298.0,176.0,14.6,3,5,7,1,2026-07-24T15:51:06.724158+05:30
Rohtak,Haryana,28.8955,76.6066,31.2,74,0.0,971.6,6.2,34.6,102,17.4,17.3,6.9,306.0,153.0,13.8,3,5,7,1,2026-07-24T15:51:06.724166+05:30
Panipat,Haryana,29.3909,76.9635,30.2,79,0.0,970.7,6.15,42.8,102,20.4,20.4,6.3,281.0,153.0,14.3,3,5,7,1,2026-07-24T15:51:06.724173+05:30
Mathura,Uttar Pradesh,27.4924,77.6737,32.7,65,0.0,976.2,6.5,28.4,84,11.4,10.9,1.9,196.0,128.0,3.1,3,5,7,1,2026-07-24T15:51:06.724180+05:30
Vrindavan,Uttar Pradesh,27.5823,77.7027,32.4,67,0.0,976.6,6.5,28.4,84,11.4,10.9,1.9,195.0,128.0,3.1,3,5,7,1,2026-07-24T15:51:06.724187+05:30
Ayodhya,Uttar Pradesh,26.7922,82.1998,29.7,82,0.1,986.8,7.1,22.7,94,21.0,20.9,2.7,235.0,129.0,5.6,10,5,7,1,2026-07-24T15:51:06.724194+05:30
Ratlam,Madhya Pradesh,23.3315,75.0367,27.6,68,0.0,945.0,7.4,54.0,28,12.0,6.4,1.3,127.0,77.0,2.4,7,5,7,1,2026-07-24T15:51:06.724201+05:30
Sagar,Madhya Pradesh,23.8388,78.7378,30.6,60,0.1,941.5,7.5,36.0,35,10.2,5.3,1.0,122.0,79.0,2.0,3,5,7,1,2026-07-24T15:51:06.724208+05:30
Satna,Madhya Pradesh,24.6005,80.8322,32.0,58,0.0,962.3,7.25,29.5,47,5.9,5.2,0.9,124.0,93.0,3.4,0,5,7,1,2026-07-24T15:51:06.724216+05:30
Akola,Maharashtra,20.7002,77.0082,26.9,90,0.0,967.5,8.55,54.4,36,13.9,6.6,2.4,116.0,74.0,4.4,7,5,7,1,2026-07-24T15:51:06.724224+05:30
Amravati,Maharashtra,20.9374,77.7796,29.1,74,0.4,959.8,8.45,49.7,42,13.9,6.6,2.4,123.0,71.0,4.4,10,5,7,1,2026-07-24T15:51:06.724232+05:30
Latur,Maharashtra,18.4088,76.5604,30.1,55,0.1,934.1,5.95,58.7,39,21.9,6.7,0.8,109.0,60.0,1.0,3,5,3,1,2026-07-24T15:51:06.724239+05:30
Nanded,Maharashtra,19.1383,77.3091,27.1,89,0.1,962.3,7.85,52.6,49,15.8,6.7,2.2,134.0,68.0,2.3,10,5,7,1,2026-07-24T15:51:06.724247+05:30
Gulbarga,Karnataka,17.3297,76.8343,30.5,55,0.1,953.4,5.55,62.6,60,27.6,11.3,1.5,115.0,72.0,1.6,3,5,3,1,2026-07-24T15:51:06.724254+05:30
Bidar,Karnataka,17.9104,77.5199,30.4,56,0.1,930.2,6.9,61.2,58,23.1,9.3,2.0,124.0,72.0,1.2,3,5,7,1,2026-07-24T15:51:06.724261+05:30
Hospet,Karnataka,15.2689,76.3909,29.7,54,0.1,952.7,8.95,59.0,55,15.8,7.0,1.5,103.0,57.0,1.3,7,5,7,1,2026-07-24T15:51:06.724268+05:30
Tirupur,Tamil Nadu,11.1085,77.3411,34.0,45,0.0,972.0,8.75,52.6,53,17.9,9.2,2.1,135.0,82.0,2.1,0,5,7,1,2026-07-24T15:51:06.724275+05:30
Alappuzha,Kerala,9.4981,76.3388,28.7,80,0.0,1007.6,8.65,30.6,57,17.2,12.1,3.2,93.0,80.0,3.3,7,5,4,1,2026-07-24T15:51:06.724282+05:30
Munnar,Kerala,10.0889,77.0595,19.9,86,0.1,856.4,9.05,36.4,35,8.1,4.5,0.9,103.0,61.0,1.2,6,10,7,1,2026-07-24T15:51:06.724290+05:30
Silchar,Assam,24.8333,92.7789,31.8,67,0.3,996.2,8.4,23.4,55,10.1,8.5,2.1,160.0,93.0,3.4,6,5,7,1,2026-07-24T15:51:06.724297+05:30
Dibrugarh,Assam,27.4728,94.912,33.2,64,0.0,985.9,8.4,24.1,55,7.6,7.0,2.4,173.0,103.0,1.4,3,5,7,1,2026-07-24T15:51:06.724304+05:30
