city,state,latitude,longitude,temp,humidity,rain,pressure,uv_index,wind_gusts,aqi,pm10,pm2_5,no2,co,o3,so2,mosquito_risk,arthritis_risk,migraine_risk,frizz_risk,updated_at
Delhi,Delhi,28.6139,77.209,25.6,41,0.0,980.5,7.35,36.0,152,295.2,65.0,25.2,449.0,76.0,16.2,4,5,7,0,2026-05-07T03:29:35.844591+05:30
Mumbai,Maharashtra,19.076,72.8777,27.0,91,0.0,1004.7,7.85,43.9,85,74.7,27.8,16.1,427.0,69.0,21.8,7,5,4,1,2026-05-07T03:29:35.844648+05:30
Bangalore,Karnataka,12.9716,77.5946,21.7,92,0.0,909.2,9.5,31.3,91,42.6,38.6,10.6,252.0,108.0,12.2,3,5,7,1,2026-05-07T03:29:35.844665+05:30
Hyderabad,Telangana,17.385,78.4867,26.4,66,0.0,950.7,9.25,27.0,83,24.2,20.3,8.0,239.0,80.0,4.4,7,5,7,1,2026-05-07T03:29:35.844676+05:30
Chennai,Tamil Nadu,13.0827,80.2707,28.1,78,0.0,1004.8,9.05,40.7,48,14.7,10.1,8.7,170.0,50.0,3.3,7,5,4,1,2026-05-07T03:29:35.844686+05:30
Kolkata,West Bengal,22.5726,88.3639,24.4,95,0.0,1005.7,8.9,54.4,98,62.6,58.1,33.2,335.0,31.0,14.4,3,5,4,1,2026-05-07T03:29:35.844696+05:30
Pune,Maharashtra,18.5204,73.8567,24.9,77,0.0,944.5,8.5,48.6,77,43.4,28.5,19.8,388.0,67.0,20.3,3,5,7,1,2026-05-07T03:29:35.844704+05:30
Ahmedabad,Gujarat,23.0225,72.5714,31.2,37,0.0,998.3,8.1,31.0,108,128.1,65.7,37.0,301.0,39.0,21.2,0,5,7,0,2026-05-07T03:29:35.844715+05:30
Jaipur,Rajasthan,26.9124,75.7873,24.0,45,0.0,956.2,8.1,39.6,115,137.4,44.1,18.7,313.0,61.0,7.0,0,5,7,0,2026-05-07T03:29:35.844723+05:30
Lucknow,Uttar Pradesh,26.8467,80.9462,20.9,76,0.0,992.3,8.05,32.4,114,72.2,49.9,21.3,367.0,61.0,12.5,3,5,7,1,2026-05-07T03:29:35.844731+05:30
Kanpur,Uttar Pradesh,26.4499,80.3319,21.6,75,0.0,990.3,7.55,33.1,119,110.4,45.1,13.7,326.0,76.0,9.5,3,5,7,1,2026-05-07T03:29:35.844740+05:30
Chandigarh,Chandigarh,30.7333,76.7794,20.2,55,0.0,965.7,7.15,38.2,77,24.6,20.4,17.9,598.0,62.0,4.4,0,5,7,0,2026-05-07T03:29:35.844749+05:30
Srinagar,Jammu and Kashmir,34.0837,74.7973,7.4,82,0.0,835.3,8.7,24.5,73,38.3,27.6,23.8,378.0,42.0,3.2,3,10,7,0,2026-05-07T03:29:35.844758+05:30
Jammu,Jammu and Kashmir,32.7266,74.857,19.9,61,0.0,969.8,8.05,30.2,69,33.8,31.2,30.6,324.0,22.0,2.9,3,5,7,0,2026-05-07T03:29:35.844766+05:30
Amritsar,Punjab,31.634,74.8723,21.0,63,0.0,977.9,8.2,31.7,100,27.7,21.1,3.7,464.0,97.0,4.2,3,5,7,0,2026-05-07T03:29:35.844773+05:30
Ludhiana,Punjab,30.901,75.8573,20.4,67,0.0,975.5,7.8,31.0,122,157.9,54.7,16.1,628.0,62.0,8.5,3,5,7,0,2026-05-07T03:29:35.844780+05:30
Jalandhar,Punjab,31.326,75.5762,19.0,73,0.0,976.6,7.95,29.5,111,110.1,47.0,18.3,654.0,58.0,8.1,3,5,7,0,2026-05-07T03:29:35.844790+05:30
Dehradun,Uttarakhand,30.6284,78.0322,8.9,91,0.0,825.2,7.25,33.5,56,21.8,14.1,21.8,178.0,33.0,0.1,3,10,7,0,2026-05-07T03:29:35.844800+05:30
Shimla,Himachal Pradesh,31.1048,77.1734,5.8,78,0.0,777.0,4.8,34.9,59,23.7,15.9,15.7,285.0,76.0,0.4,3,5,3,0,2026-05-07T03:29:35.844807+05:30
Manali,Himachal Pradesh,32.2396,77.1887,7.7,69,0.0,811.9,8.2,33.1,102,19.7,8.2,18.6,284.0,128.0,0.6,3,5,7,0,2026-05-07T03:29:35.844814+05:30
Gurgaon,Haryana,28.4595,77.0266,24.3,46,0.0,978.7,7.65,45.0,398,432.1,85.9,20.2,384.0,82.0,15.5,0,5,7,0,2026-05-07T03:29:35.844821+05:30
Noida,Uttar Pradesh,28.5355,77.391,22.5,54,0.0,981.9,7.55,30.2,398,432.1,85.9,20.2,299.0,82.0,15.5,0,5,7,0,2026-05-07T03:29:35.844828+05:30
Ghaziabad,Uttar Pradesh,28.6692,77.4538,22.1,57,0.0,980.2,7.55,32.8,134,208.2,52.5,11.9,394.0,84.0,9.0,0,5,7,0,2026-05-07T03:29:35.844835+05:30
Faridabad,Haryana,28.4089,77.3178,24.0,51,0.0,981.2,7.6,34.9,398,432.1,85.9,20.2,238.0,82.0,15.5,0,5,7,0,2026-05-07T03:29:35.844842+05:30
Meerut,Uttar Pradesh,28.9845,77.7064,21.2,67,0.0,979.1,7.45,32.8,134,208.2,52.5,11.9,451.0,84.0,9.0,3,5,7,0,2026-05-07T03:29:35.844849+05:30
Agra,Uttar Pradesh,27.1767,78.0081,22.9,59,0.0,986.0,7.85,43.9,364,795.3,101.7,7.4,311.0,98.0,9.8,0,5,7,0,2026-05-07T03:29:35.844855+05:30
Varanasi,Uttar Pradesh,25.3176,82.9739,21.8,85,0.0,997.2,8.6,25.9,129,61.0,51.9,21.6,586.0,72.0,16.2,3,5,7,1,2026-05-07T03:29:35.844863+05:30
Prayagraj,Uttar Pradesh,25.4358,81.8463,22.2,78,0.0,995.4,8.45,39.2,126,46.6,38.2,19.4,382.0,67.0,10.6,3,5,7,1,2026-05-07T03:29:35.844872+05:30
Gorakhpur,Uttar Pradesh,26.7606,83.3732,21.2,91,0.0,997.6,8.4,35.6,92,51.1,36.0,21.0,518.0,67.0,7.2,3,5,7,1,2026-05-07T03:29:35.844879+05:30
Bareilly,Uttar Pradesh,28.367,79.4304,20.9,69,0.0,984.9,7.8,30.2,105,48.1,28.9,11.0,378.0,75.0,5.2,3,5,7,0,2026-05-07T03:29:35.844886+05:30
Aligarh,Uttar Pradesh,27.8974,78.088,24.0,49,0.0,983.3,7.7,35.3,151,220.3,52.4,11.0,308.0,85.0,9.1,0,5,7,0,2026-05-07T03:29:35.844892+05:30
Moradabad,Uttar Pradesh,28.8386,78.7733,20.6,73,0.0,981.8,7.65,36.7,143,45.2,36.7,16.9,384.0,70.0,8.0,3,5,7,0,2026-05-07T03:29:35.844899+05:30
Saharanpur,Uttar Pradesh,29.9637,77.546,21.1,63,0.0,973.3,7.15,33.8,119,42.8,37.1,24.8,459.0,42.0,7.8,3,5,7,0,2026-05-07T03:29:35.844905+05:30
Jhansi,Uttar Pradesh,25.4484,78.5685,24.3,49,0.0,975.8,8.35,32.0,80,90.6,30.7,4.5,304.0,91.0,5.1,0,5,7,0,2026-05-07T03:29:39.121851+05:30
Surat,Gujarat,21.1702,72.8311,27.1,90,0.0,1002.6,7.7,32.4,100,58.8,31.9,39.1,502.0,37.0,60.4,7,5,4,1,2026-05-07T03:29:39.121886+05:30
Vadodara,Gujarat,22.3072,73.1812,28.9,63,0.0,1000.3,8.05,32.4,106,111.1,57.4,34.9,265.0,48.0,17.7,7,5,4,1,2026-05-07T03:29:39.121897+05:30
Rajkot,Gujarat,22.3039,70.8022,25.1,90,0.0,990.9,7.7,44.3,71,42.8,15.5,7.0,180.0,53.0,5.9,7,5,7,1,2026-05-07T03:29:39.121907+05:30
Thane,Maharashtra,19.2183,72.9781,26.1,95,0.0,1004.1,7.9,37.1,85,74.7,27.8,16.1,293.0,69.0,21.8,7,5,4,1,2026-05-07T03:29:39.121915+05:30
Nagpur,Maharashtra,21.1458,79.0882,28.8,43,0.0,970.8,8.9,31.7,105,70.8,49.5,37.8,492.0,34.0,20.7,4,5,7,0,2026-05-07T03:29:39.121923+05:30
Nashik,Maharashtra,19.9975,73.7898,24.5,71,0.0,941.5,8.15,31.7,71,71.0,34.6,33.9,325.0,40.0,6.1,3,5,7,1,2026-05-07T03:29:39.121929+05:30
Aurangabad,Maharashtra,19.8762,75.3433,28.6,33,0.0,940.7,9.05,30.6,66,69.6,24.3,10.5,181.0,94.0,3.4,4,5,7,0,2026-05-07T03:29:39.121937+05:30
Solapur,Maharashtra,17.6599,75.9064,29.1,42,0.0,953.9,9.05,29.9,65,39.6,28.9,7.5,333.0,103.0,9.3,4,5,7,0,2026-05-07T03:29:39.121945+05:30
Kolhapur,Maharashtra,16.705,74.2433,24.2,77,0.0,944.7,8.95,48.6,68,35.0,24.9,15.7,237.0,45.0,4.2,3,5,7,1,2026-05-07T03:29:39.121952+05:30
Goa,Goa,15.2993,74.124,25.3,92,0.0,994.1,8.95,32.0,68,40.4,24.6,11.2,264.0,53.0,2.4,7,5,7,1,2026-05-07T03:29:39.121959+05:30
Jodhpur,Rajasthan,26.2389,73.0243,28.4,28,0.0,978.7,8.3,37.8,88,149.9,27.4,3.6,389.0,89.0,2.6,4,5,7,0,2026-05-07T03:29:39.121966+05:30
Udaipur,Rajasthan,24.5854,73.7125,22.6,51,0.0,942.1,8.75,28.4,74,66.6,23.2,4.9,250.0,86.0,4.7,0,5,7,0,2026-05-07T03:29:39.121974+05:30
Kota,Rajasthan,25.2138,75.8648,24.1,42,0.0,975.4,8.3,38.2,79,49.6,25.7,9.0,555.0,71.0,17.7,0,5,7,0,2026-05-07T03:29:39.121981+05:30
Bikaner,Rajasthan,28.0229,73.3119,26.4,31,0.0,976.9,8.25,32.4,81,55.4,24.6,6.2,207.0,56.0,5.0,4,5,7,0,2026-05-07T03:29:39.121987+05:30
Ajmer,Rajasthan,26.4499,74.6399,27.0,27,0.0,950.5,8.25,46.4,81,103.6,30.3,13.0,335.0,68.0,6.4,4,5,7,0,2026-05-07T03:29:39.121994+05:30
Gwalior,Madhya Pradesh,26.2183,78.1828,23.0,57,0.0,980.8,8.1,38.5,103,147.1,41.6,4.4,291.0,102.0,6.4,0,5,7,0,2026-05-07T03:29:39.122001+05:30
Indore,Madhya Pradesh,22.7196,75.8577,27.5,22,0.0,945.3,8.65,36.0,71,32.4,20.4,5.9,340.0,96.0,6.5,4,5,7,0,2026-05-07T03:29:39.122007+05:30
Bhopal,Madhya Pradesh,23.2599,77.4126,25.6,34,0.0,951.5,8.65,34.2,59,31.2,21.0,5.0,251.0,90.0,8.1,4,5,7,0,2026-05-07T03:29:39.122014+05:30
Jabalpur,Madhya Pradesh,23.1815,79.9864,23.5,47,0.0,959.9,8.8,32.8,75,34.0,20.7,9.9,261.0,87.0,6.6,0,5,7,0,2026-05-07T03:29:39.122021+05:30
Ujjain,Madhya Pradesh,23.1765,75.7885,25.9,25,0.0,950.8,8.55,30.2,84,46.4,32.8,10.5,349.0,77.0,6.3,4,5,7,0,2026-05-07T03:29:39.122029+05:30
Visakhapatnam,Andhra Pradesh,17.6868,83.2185,25.9,95,0.0,1002.4,9.15,32.0,78,31.1,26.1,34.1,599.0,26.0,4.9,7,5,4,1,2026-05-07T03:29:39.122036+05:30
Vijayawada,Andhra Pradesh,16.5062,80.648,27.6,85,0.0,1000.9,9.2,33.1,58,19.0,15.1,10.4,237.0,38.0,4.7,7,5,4,1,2026-05-07T03:29:39.122043+05:30
Guntur,Andhra Pradesh,16.3067,80.4365,27.7,86,0.0,1002.1,9.2,34.6,61,16.4,12.6,8.7,195.0,44.0,4.6,7,5,4,1,2026-05-07T03:29:39.122050+05:30
Nellore,Andhra Pradesh,14.4426,79.9865,27.5,84,0.0,1003.9,9.2,40.0,46,13.8,8.8,4.9,176.0,59.0,3.7,7,5,4,1,2026-05-07T03:29:39.122058+05:30
Kurnool,Andhra Pradesh,15.8281,78.0373,27.6,74,0.0,974.3,9.15,39.2,77,16.2,13.6,4.0,177.0,74.0,2.6,7,5,7,1,2026-05-07T03:29:39.122065+05:30
Kakinada,Andhra Pradesh,16.9891,82.2475,26.2,95,0.0,1005.9,9.15,32.4,42,12.5,8.1,2.3,360.0,48.0,0.8,7,5,4,1,2026-05-07T03:29:39.122072+05:30
Tirupati,Andhra Pradesh,13.6288,79.4192,25.9,92,0.0,989.4,9.3,44.6,72,22.6,19.4,25.0,222.0,31.0,13.6,7,5,7,1,2026-05-07T03:29:39.122079+05:30
Warangal,Telangana,17.9689,79.5941,27.0,68,0.0,976.5,9.1,41.4,81,22.9,20.7,9.5,259.0,62.0,10.2,7,5,7,1,2026-05-07T03:29:39.122086+05:30
Nizamabad,Telangana,18.6725,78.0941,28.0,52,0.0,962.0,9.1,39.6,94,47.1,36.6,10.4,253.0,81.0,4.9,4,5,7,1,2026-05-07T03:29:39.122092+05:30
Mysore,Karnataka,12.2958,76.6396,22.5,83,0.0,925.7,9.4,32.0,75,54.1,38.9,11.5,305.0,99.0,6.9,3,5,7,1,2026-05-07T03:29:39.122099+05:30
Mangalore,Karnataka,12.9141,74.856,28.5,78,0.0,1003.0,6.9,40.7,63,36.4,18.7,7.0,195.0,50.0,2.0,7,5,4,1,2026-05-07T03:29:39.122106+05:30
Hubli-Dharwad,Karnataka,15.3647,75.124,23.1,82,0.0,937.0,9.2,41.0,66,38.0,23.1,19.9,285.0,33.0,3.3,3,5,7,1,2026-05-07T03:29:39.122113+05:30
Belgaum,Karnataka,15.8497,74.4977,23.0,69,0.0,921.6,8.35,42.5,68,41.7,27.4,23.4,238.0,32.0,3.8,3,5,7,1,2026-05-07T03:29:42.401325+05:30
Coimbatore,Tamil Nadu,11.0168,76.9558,23.6,89,0.0,959.0,9.05,28.8,72,35.6,26.8,7.8,248.0,106.0,5.1,3,5,7,1,2026-05-07T03:29:42.401360+05:30
Madurai,Tamil Nadu,9.9252,78.1198,27.0,77,0.0,990.2,8.15,46.1,81,21.6,16.2,11.0,223.0,76.0,3.1,7,5,7,1,2026-05-07T03:29:42.401371+05:30
Trichy,Tamil Nadu,10.7905,78.7047,26.8,87,0.0,997.2,6.7,31.0,74,20.1,15.4,11.6,222.0,63.0,4.5,7,5,7,1,2026-05-07T03:29:42.401380+05:30
Salem,Tamil Nadu,11.6643,78.146,24.3,99,0.0,975.0,7.55,42.8,91,38.9,31.4,9.3,247.0,94.0,10.8,3,5,7,1,2026-05-07T03:29:42.401388+05:30
Tirunelveli,Tamil Nadu,8.7139,77.7567,27.2,81,0.0,1000.5,6.05,40.7,72,31.9,26.0,9.6,240.0,70.0,5.3,7,5,4,1,2026-05-07T03:29:42.401397+05:30
Vellore,Tamil Nadu,12.9165,79.1325,25.8,90,0.0,982.6,8.95,34.9,92,23.2,19.7,12.6,210.0,49.0,2.2,7,5,7,1,2026-05-07T03:29:42.401404+05:30
Erode,Tamil Nadu,11.341,77.7172,24.5,94,0.0,986.8,8.0,29.9,84,38.1,29.1,8.9,254.0,95.0,4.4,3,5,7,1,2026-05-07T03:29:42.401411+05:30
Kochi,Kerala,9.9312,76.2673,25.5,96,0.1,1005.7,6.0,29.2,76,25.6,19.9,9.7,240.0,67.0,4.0,10,5,0,1,2026-05-07T03:29:42.401419+05:30
Thiruvananthapuram,Kerala,8.5241,76.9366,25.0,99,0.0,1004.9,5.0,28.8,53,20.9,12.1,5.4,369.0,90.0,3.0,7,5,0,1,2026-05-07T03:29:42.401426+05:30
Kozhikode,Kerala,11.2588,75.7804,24.4,97,0.0,1005.4,7.55,33.5,63,38.5,19.3,4.0,216.0,79.0,2.5,3,5,4,1,2026-05-07T03:29:42.401434+05:30
Thrissur,Kerala,10.5276,76.2144,24.2,99,0.3,1004.2,6.75,34.6,84,24.5,19.2,8.9,303.0,71.0,2.6,6,5,4,1,2026-05-07T03:29:42.401442+05:30
Kannur,Kerala,11.8745,75.3704,25.3,95,0.0,1004.6,7.9,36.7,61,30.3,18.7,15.2,209.0,32.0,2.2,7,5,4,1,2026-05-07T03:29:42.401449+05:30
Patna,Bihar,25.5941,85.1376,21.7,89,0.0,1000.8,8.7,41.0,126,82.7,68.7,35.1,398.0,59.0,18.9,3,5,4,1,2026-05-07T03:29:42.401456+05:30
Gaya,Bihar,24.7914,85.0002,22.6,83,0.0,993.1,8.75,34.2,126,70.8,59.8,34.6,352.0,36.0,9.6,3,5,7,1,2026-05-07T03:29:42.401463+05:30
Muzaffarpur,Bihar,26.1209,85.3647,20.8,92,0.0,1001.0,8.7,55.8,131,87.8,74.5,36.1,443.0,45.0,16.4,3,5,4,1,2026-05-07T03:29:42.401469+05:30
Bhagalpur,Bihar,25.2425,87.0117,21.6,91,0.0,1002.2,8.7,51.5,114,66.8,60.3,16.9,338.0,82.0,13.2,3,5,4,1,2026-05-07T03:29:42.401476+05:30
Ranchi,Jharkhand,23.3441,85.3096,20.5,94,0.0,936.3,9.2,37.4,103,96.2,81.0,18.4,542.0,121.0,28.9,3,5,7,1,2026-05-07T03:29:42.401483+05:30
Jamshedpur,Jharkhand,22.8046,86.2029,23.6,90,0.0,990.3,9.05,37.8,129,71.0,62.6,35.7,310.0,57.0,15.9,3,5,7,1,2026-05-07T03:29:42.401489+05:30
Dhanbad,Jharkhand,23.7957,86.4304,22.8,95,0.0,979.5,8.95,50.0,162,162.5,151.3,79.1,430.0,42.0,92.3,3,5,7,1,2026-05-07T03:29:42.401495+05:30
Bokaro,Jharkhand,23.6693,86.1511,22.5,95,0.0,983.4,9.0,42.5,161,174.2,160.2,88.8,500.0,23.0,95.4,3,5,7,1,2026-05-07T03:29:42.401502+05:30
Bhubaneswar,Odisha,20.2961,85.8245,26.0,96,0.0,1001.5,8.45,29.9,63,13.9,11.0,7.1,152.0,40.0,3.7,7,5,4,1,2026-05-07T03:29:42.401509+05:30
Cuttack,Odisha,20.4625,85.8828,26.0,96,0.0,1003.3,8.5,31.0,63,13.9,11.0,7.1,173.0,40.0,3.7,7,5,4,1,2026-05-07T03:29:42.401532+05:30
Rourkela,Odisha,22.2604,84.8536,22.5,77,0.0,983.9,8.95,38.5,107,66.6,58.8,19.7,500.0,83.0,44.5,3,5,7,1,2026-05-07T03:29:42.401539+05:30
Raipur,Chhattisgarh,21.2514,81.6296,26.5,48,0.0,973.2,8.95,30.6,123,75.4,58.4,39.4,551.0,55.0,12.9,4,5,7,0,2026-05-07T03:29:42.401546+05:30
Bhilai,Chhattisgarh,21.1938,81.3509,26.5,51,0.0,973.2,8.95,28.4,118,87.1,65.7,59.8,728.0,26.0,13.4,4,5,7,0,2026-05-07T03:29:42.401553+05:30
Guwahati,Assam,26.1158,91.7086,21.3,94,0.0,1002.8,8.65,37.4,80,25.8,22.4,7.7,270.0,76.0,1.9,3,5,4,1,2026-05-07T03:29:42.401559+05:30
Agartala,Tripura,23.8315,91.2868,22.6,97,0.0,1006.9,8.85,25.2,113,29.7,24.7,12.1,349.0,86.0,3.0,3,5,4,1,2026-05-07T03:29:42.401566+05:30
Shillong,Meghalaya,25.5788,91.8933,14.6,93,0.0,855.7,9.0,23.8,77,17.2,14.2,7.9,270.0,72.0,1.0,3,10,7,0,2026-05-07T03:29:42.401573+05:30
Imphal,Manipur,24.817,93.9368,19.6,98,0.0,923.1,9.2,31.3,83,48.0,43.7,16.6,557.0,31.0,0.4,3,10,7,1,2026-05-07T03:29:42.401580+05:30
Aizawl,Mizoram,23.7271,92.7176,16.7,100,0.0,891.6,9.05,27.4,63,27.1,19.0,3.9,247.0,68.0,1.0,3,10,7,1,2026-05-07T03:29:42.401587+05:30
Kohima,Nagaland,25.6701,94.1077,16.4,95,0.0,854.1,9.15,25.2,78,27.0,19.8,6.4,231.0,54.0,0.4,3,10,7,0,2026-05-07T03:29:42.401593+05:30
Gangtok,Sikkim,27.3314,88.6138,10.7,80,0.1,835.9,9.0,47.2,64,25.1,19.0,13.0,335.0,82.0,0.8,6,5,7,0,2026-05-07T03:29:42.401600+05:30
Siliguri,West Bengal,26.7271,88.3953,21.4,86,0.1,994.3,8.6,29.2,99,59.4,49.6,30.8,488.0,54.0,5.0,6,5,7,1,2026-05-07T03:29:45.678632+05:30
Durgapur,West Bengal,23.5204,87.3119,23.0,96,0.0,994.7,8.9,54.0,158,102.2,96.4,40.3,626.0,70.0,46.9,3,5,7,1,2026-05-07T03:29:45.678669+05:30
Asansol,West Bengal,23.6739,86.9524,22.5,96,0.0,993.3,8.95,56.9,156,118.0,109.9,39.6,736.0,66.0,67.2,3,5,7,1,2026-05-07T03:29:45.678681+05:30
Pondicherry,Puducherry,11.9139,79.8145,28.2,80,0.0,1005.8,8.2,36.0,52,14.2,8.5,1.6,204.0,72.0,0.4,7,5,4,1,2026-05-07T03:29:45.678691+05:30
Port Blair,Andaman and Nicobar Islands,11.6234,92.7265,24.7,97,0.0,1004.7,9.05,33.5,32,6.2,4.8,0.3,219.0,70.0,0.1,3,5,4,1,2026-05-07T03:29:45.678699+05:30
Haridwar,Uttarakhand,29.9457,78.1642,18.6,69,0.0,971.5,6.0,28.4,86,41.2,33.3,28.2,250.0,28.0,4.5,3,5,3,0,2026-05-07T03:29:45.678708+05:30
Rishikesh,Uttarakhand,30.0869,78.2676,16.8,75,0.0,964.1,6.05,20.5,72,43.3,27.0,15.7,283.0,58.0,3.0,3,5,7,0,2026-05-07T03:29:45.678716+05:30
Nainital,Uttarakhand,29.3919,79.4542,11.2,64,0.0,801.9,6.65,27.7,70,27.9,18.6,9.4,204.0,90.0,1.7,3,5,7,0,2026-05-07T03:29:45.678724+05:30
Mussoorie,Uttarakhand,30.4599,78.0664,7.9,77,0.0,796.7,6.9,38.5,77,34.8,26.0,28.0,218.0,32.0,5.0,3,5,7,0,2026-05-07T03:29:45.678732+05:30
Dharamshala,Himachal Pradesh,32.219,76.3234,17.5,45,0.0,865.6,7.6,38.9,44,11.9,8.7,10.6,197.0,62.0,0.4,0,5,7,0,2026-05-07T03:29:45.678740+05:30
Dalhousie,Himachal Pradesh,32.5387,75.971,8.9,71,0.0,798.1,7.8,31.0,58,21.6,18.5,28.5,336.0,42.0,1.2,3,5,7,0,2026-05-07T03:29:45.678749+05:30
Patiala,Punjab,30.3398,76.3869,21.0,58,0.0,975.3,7.45,37.1,145,349.2,59.1,11.7,384.0,83.0,8.1,0,5,7,0,2026-05-07T03:29:45.678756+05:30
Bhatinda,Punjab,30.211,74.9455,23.8,46,0.0,980.5,8.1,30.2,146,273.8,77.8,15.7,329.0,63.0,8.6,0,5,7,0,2026-05-07T03:29:45.678763+05:30
Rohtak,Haryana,28.8955,76.6066,23.6,50,0.0,979.1,7.6,41.4,215,371.6,75.2,23.8,380.0,76.0,18.4,0,5,7,0,2026-05-07T03:29:45.678770+05:30
Panipat,Haryana,29.3909,76.9635,21.7,63,0.0,977.7,7.4,36.4,500,378.1,78.0,18.1,387.0,76.0,10.3,3,5,7,0,2026-05-07T03:29:45.678778+05:30
Mathura,Uttar Pradesh,27.4924,77.6737,23.3,51,0.0,984.9,7.3,40.7,305,750.6,100.8,7.1,323.0,108.0,9.5,0,5,7,0,2026-05-07T03:29:45.678785+05:30
Vrindavan,Uttar Pradesh,27.5823,77.7027,23.5,50,0.0,985.2,7.25,42.8,305,750.6,100.8,7.1,325.0,108.0,9.5,0,5,7,0,2026-05-07T03:29:45.678792+05:30
Ayodhya,Uttar Pradesh,26.7922,82.1998,19.8,91,0.0,994.9,8.2,29.2,93,41.7,31.5,18.5,429.0,68.0,6.1,3,10,7,1,2026-05-07T03:29:45.678799+05:30
Ratlam,Madhya Pradesh,23.3315,75.0367,24.8,37,0.0,951.3,8.45,32.4,83,66.4,49.1,15.8,269.0,60.0,9.4,0,5,7,0,2026-05-07T03:29:45.678807+05:30
Sagar,Madhya Pradesh,23.8388,78.7378,23.9,42,0.0,947.9,8.65,34.9,63,42.0,22.3,14.3,254.0,75.0,6.0,0,5,7,0,2026-05-07T03:29:45.678813+05:30
Satna,Madhya Pradesh,24.6005,80.8322,20.8,74,0.0,970.0,8.7,36.7,85,58.1,32.8,13.0,337.0,87.0,9.0,3,5,7,0,2026-05-07T03:29:45.678821+05:30
Akola,Maharashtra,20.7002,77.0082,28.0,45,0.0,971.5,8.85,32.0,71,59.0,34.1,25.9,273.0,47.0,6.1,4,5,7,0,2026-05-07T03:29:45.678829+05:30
Amravati,Maharashtra,20.9374,77.7796,29.0,41,0.0,964.3,8.1,33.5,72,55.3,31.3,22.0,281.0,58.0,6.8,4,5,7,0,2026-05-07T03:29:45.678837+05:30
Latur,Maharashtra,18.4088,76.5604,27.6,44,0.0,936.7,8.35,41.0,73,61.9,38.0,26.9,278.0,56.0,10.3,4,5,7,0,2026-05-07T03:29:45.678844+05:30
Nanded,Maharashtra,19.1383,77.3091,28.5,43,0.0,965.5,8.3,29.5,79,55.3,36.9,22.4,288.0,54.0,5.8,4,5,7,0,2026-05-07T03:29:45.678851+05:30
Gulbarga,Karnataka,17.3297,76.8343,28.8,44,0.0,955.8,9.1,31.0,71,32.8,26.0,7.5,218.0,94.0,6.5,4,5,7,0,2026-05-07T03:29:45.678857+05:30
Bidar,Karnataka,17.9104,77.5199,26.7,54,0.0,932.6,8.95,46.4,87,38.5,30.9,10.2,215.0,92.0,8.1,4,5,7,1,2026-05-07T03:29:45.678864+05:30
Hospet,Karnataka,15.2689,76.3909,26.5,57,0.0,953.2,9.25,27.0,71,33.8,29.2,8.1,248.0,96.0,10.3,4,5,7,1,2026-05-07T03:29:45.678871+05:30
Tirupur,Tamil Nadu,11.1085,77.3411,24.1,90,0.0,972.8,9.05,33.8,82,46.0,35.0,9.8,243.0,111.0,6.8,3,5,7,1,2026-05-07T03:29:45.678877+05:30
Alappuzha,Kerala,9.4981,76.3388,25.5,96,0.0,1005.8,4.5,33.1,68,28.6,18.9,10.1,187.0,67.0,4.7,7,5,0,1,2026-05-07T03:29:45.678884+05:30
Munnar,Kerala,10.0889,77.0595,16.2,99,0.0,853.0,6.5,25.9,69,41.6,33.5,15.1,205.0,33.0,2.7,3,10,7,1,2026-05-07T03:29:45.678891+05:30
Silchar,Assam,24.8333,92.7789,22.5,99,0.0,1005.9,8.85,27.0,110,50.8,42.0,18.7,370.0,54.0,5.9,3,5,4,1,2026-05-07T03:29:45.678897+05:30
Dibrugarh,Assam,27.4728,94.912,21.8,96,0.1,996.7,8.75,31.3,71,11.9,9.8,10.6,231.0,44.0,0.3,6,5,7,1,2026-05-07T03:29:45.678903+05:30
