city,state,latitude,longitude,temp,humidity,rain,pressure,uv_index,wind_gusts,aqi,pm10,pm2_5,no2,co,o3,so2,mosquito_risk,arthritis_risk,migraine_risk,frizz_risk,updated_at
Delhi,Delhi,28.6139,77.209,33.2,57,0.0,979.1,7.75,32.8,805,312.0,105.2,31.9,494.0,106.0,27.1,0,5,7,1,2026-05-28T22:24:56.641201+05:30
Mumbai,Maharashtra,19.076,72.8777,30.4,73,0.0,1009.6,7.8,41.0,56,51.3,20.0,8.3,182.0,47.0,5.9,3,0,4,1,2026-05-28T22:24:56.641249+05:30
Bangalore,Karnataka,12.9716,77.5946,21.4,95,0.0,913.9,8.4,28.1,78,16.7,14.3,30.1,826.0,70.0,7.4,3,5,7,1,2026-05-28T22:24:56.641264+05:30
Hyderabad,Telangana,17.385,78.4867,30.1,61,0.0,953.3,8.0,33.1,81,69.8,57.0,62.4,1949.0,35.0,17.2,3,5,7,1,2026-05-28T22:24:56.641274+05:30
Chennai,Tamil Nadu,13.0827,80.2707,31.4,78,0.0,1007.2,8.55,39.2,160,29.6,23.7,13.2,225.0,116.0,9.6,3,5,4,1,2026-05-28T22:24:56.641282+05:30
Kolkata,West Bengal,22.5726,88.3639,28.2,85,0.0,1005.7,8.9,27.0,111,58.3,44.0,9.4,441.0,75.0,7.9,7,5,4,1,2026-05-28T22:24:56.641289+05:30
Pune,Maharashtra,18.5204,73.8567,26.2,80,0.0,949.6,8.4,43.6,62,21.9,14.5,8.8,188.0,73.0,9.5,7,5,7,1,2026-05-28T22:24:56.641296+05:30
Ahmedabad,Gujarat,23.0225,72.5714,33.6,63,0.0,1000.2,8.1,41.8,72,43.5,23.8,6.6,184.0,76.0,5.4,3,5,4,1,2026-05-28T22:24:56.641302+05:30
Jaipur,Rajasthan,26.9124,75.7873,28.4,58,0.0,956.8,8.25,48.2,183,312.9,67.5,8.6,431.0,75.0,5.4,4,5,7,1,2026-05-28T22:24:56.641328+05:30
Lucknow,Uttar Pradesh,26.8467,80.9462,30.8,59,0.2,992.1,8.2,46.4,161,63.6,42.4,9.3,376.0,138.0,13.5,3,5,7,1,2026-05-28T22:24:56.641335+05:30
Kanpur,Uttar Pradesh,26.4499,80.3319,29.5,70,0.3,988.5,8.2,40.3,188,616.5,103.6,7.3,364.0,152.0,14.5,10,5,7,1,2026-05-28T22:24:56.641341+05:30
Chandigarh,Chandigarh,30.7333,76.7794,30.0,50,0.0,965.6,7.75,53.3,173,168.1,84.1,34.8,704.0,109.0,16.3,4,5,7,1,2026-05-28T22:24:56.641348+05:30
Srinagar,Jammu and Kashmir,34.0837,74.7973,15.9,77,0.0,839.9,8.9,26.3,67,45.9,38.0,40.8,962.0,29.0,3.0,3,5,7,0,2026-05-28T22:24:56.641355+05:30
Jammu,Jammu and Kashmir,32.7266,74.857,30.5,31,0.0,968.3,8.5,38.9,119,41.3,34.7,20.7,602.0,90.0,3.5,0,5,7,0,2026-05-28T22:24:56.641362+05:30
Amritsar,Punjab,31.634,74.8723,31.8,35,0.0,976.2,8.4,38.5,117,190.0,72.9,27.0,413.0,89.0,9.5,0,5,7,0,2026-05-28T22:24:56.641368+05:30
Ludhiana,Punjab,30.901,75.8573,30.7,42,0.0,974.5,8.0,41.8,193,840.1,163.0,15.7,531.0,115.0,12.8,0,5,7,1,2026-05-28T22:24:56.641374+05:30
Jalandhar,Punjab,31.326,75.5762,31.2,37,0.0,975.6,8.2,40.3,155,294.3,92.2,20.1,461.0,113.0,14.0,0,5,7,0,2026-05-28T22:24:56.641383+05:30
Dehradun,Uttarakhand,30.6284,78.0322,15.5,99,0.0,829.6,8.2,37.4,155,91.3,53.8,23.9,428.0,118.0,6.0,3,10,7,0,2026-05-28T22:24:56.641390+05:30
Shimla,Himachal Pradesh,31.1048,77.1734,14.6,59,0.0,783.4,8.25,41.4,128,57.2,36.9,28.5,662.0,103.0,6.9,0,5,7,0,2026-05-28T22:24:56.641399+05:30
Manali,Himachal Pradesh,32.2396,77.1887,13.5,72,0.1,818.2,10.0,45.4,114,11.8,8.2,41.1,290.0,102.0,0.4,6,5,7,0,2026-05-28T22:24:56.641406+05:30
Gurgaon,Haryana,28.4595,77.0266,32.0,55,0.0,977.5,7.85,35.6,1421,420.0,130.9,23.8,454.0,126.0,22.0,0,5,7,1,2026-05-28T22:24:56.641415+05:30
Noida,Uttar Pradesh,28.5355,77.391,31.7,61,0.0,980.4,7.75,33.5,1421,420.0,130.9,23.8,419.0,126.0,22.0,3,5,7,1,2026-05-28T22:24:56.641421+05:30
Ghaziabad,Uttar Pradesh,28.6692,77.4538,31.7,63,0.0,978.7,7.75,38.5,639,297.1,94.5,15.9,360.0,119.0,15.5,3,5,7,1,2026-05-28T22:24:56.641427+05:30
Faridabad,Haryana,28.4089,77.3178,32.6,52,0.0,979.9,7.8,37.1,1421,420.0,130.9,23.8,404.0,126.0,22.0,0,5,7,1,2026-05-28T22:24:56.641432+05:30
Meerut,Uttar Pradesh,28.9845,77.7064,30.7,71,0.0,977.9,7.65,57.6,639,297.1,94.5,15.9,374.0,119.0,15.5,3,5,7,1,2026-05-28T22:24:56.641438+05:30
Agra,Uttar Pradesh,27.1767,78.0081,31.1,57,0.0,985.0,8.05,36.4,592,650.1,156.9,18.7,425.0,120.0,14.0,0,5,7,1,2026-05-28T22:24:56.641444+05:30
Varanasi,Uttar Pradesh,25.3176,82.9739,32.2,52,0.0,996.2,8.7,37.8,191,73.6,56.8,10.3,398.0,163.0,18.8,0,5,7,1,2026-05-28T22:24:56.641451+05:30
Prayagraj,Uttar Pradesh,25.4358,81.8463,33.8,46,0.0,993.9,8.6,36.4,187,70.3,51.8,9.7,398.0,156.0,16.7,0,5,7,1,2026-05-28T22:24:56.641458+05:30
Gorakhpur,Uttar Pradesh,26.7606,83.3732,30.0,60,0.0,997.6,8.55,45.4,155,47.8,40.3,10.1,392.0,135.0,12.1,4,5,7,1,2026-05-28T22:24:56.641466+05:30
Bareilly,Uttar Pradesh,28.367,79.4304,31.2,54,0.0,984.0,8.0,44.6,149,160.7,55.8,15.4,434.0,109.0,15.6,0,5,7,1,2026-05-28T22:24:56.641472+05:30
Aligarh,Uttar Pradesh,27.8974,78.088,30.9,55,0.0,982.1,7.9,45.0,1164,447.0,119.2,8.3,397.0,143.0,12.0,0,5,7,1,2026-05-28T22:24:56.641478+05:30
Moradabad,Uttar Pradesh,28.8386,78.7733,27.9,65,0.0,981.4,7.85,69.5,156,87.3,45.1,15.5,488.0,110.0,13.9,7,5,7,1,2026-05-28T22:24:56.641484+05:30
Saharanpur,Uttar Pradesh,29.9637,77.546,27.6,57,0.0,973.4,7.5,51.8,130,139.7,65.9,29.2,570.0,92.0,16.2,4,5,7,1,2026-05-28T22:24:56.641490+05:30
Jhansi,Uttar Pradesh,25.4484,78.5685,34.0,37,0.0,975.6,8.45,43.9,72,85.2,35.5,15.2,320.0,42.0,5.9,0,5,7,1,2026-05-28T22:24:59.893212+05:30
Surat,Gujarat,21.1702,72.8311,29.9,77,0.0,1006.6,7.65,47.9,81,42.0,22.4,18.5,196.0,35.0,30.3,7,5,4,1,2026-05-28T22:24:59.893249+05:30
Vadodara,Gujarat,22.3072,73.1812,30.5,74,0.0,1002.7,8.05,46.4,77,43.5,27.4,19.4,246.0,42.0,24.1,3,5,4,1,2026-05-28T22:24:59.893260+05:30
Rajkot,Gujarat,22.3039,70.8022,29.9,69,0.0,993.2,7.7,50.0,73,43.2,22.9,4.4,124.0,50.0,4.8,7,5,7,1,2026-05-28T22:24:59.893269+05:30
Thane,Maharashtra,19.2183,72.9781,30.5,71,0.0,1008.9,7.8,40.0,56,51.3,20.0,8.3,191.0,47.0,5.9,3,0,4,1,2026-05-28T22:24:59.893277+05:30
Nagpur,Maharashtra,21.1458,79.0882,37.5,24,0.0,971.5,8.9,43.2,76,52.0,30.0,17.7,281.0,71.0,13.3,0,5,10,0,2026-05-28T22:24:59.893287+05:30
Nashik,Maharashtra,19.9975,73.7898,26.0,80,0.0,946.6,8.1,41.8,51,35.0,17.3,6.4,159.0,51.0,3.1,7,5,7,1,2026-05-28T22:24:59.893295+05:30
Aurangabad,Maharashtra,19.8762,75.3433,32.0,48,0.0,944.8,8.95,41.0,56,27.9,17.5,6.7,199.0,75.0,4.3,0,5,7,1,2026-05-28T22:24:59.893303+05:30
Solapur,Maharashtra,17.6599,75.9064,32.0,46,0.0,957.0,8.95,34.9,65,40.2,30.4,22.9,393.0,68.0,6.8,0,5,7,1,2026-05-28T22:24:59.893330+05:30
Kolhapur,Maharashtra,16.705,74.2433,25.5,85,0.0,949.9,8.7,42.8,41,9.1,7.1,5.5,158.0,55.0,2.3,7,5,7,1,2026-05-28T22:24:59.893338+05:30
Goa,Goa,15.2993,74.124,28.1,88,0.0,1000.5,7.75,28.1,39,13.6,11.0,5.7,396.0,44.0,1.3,7,5,4,1,2026-05-28T22:24:59.893347+05:30
Jodhpur,Rajasthan,26.2389,73.0243,36.6,39,0.0,978.1,8.4,54.4,225,355.8,76.6,4.5,150.0,72.0,3.7,0,5,10,1,2026-05-28T22:24:59.893355+05:30
Udaipur,Rajasthan,24.5854,73.7125,33.0,31,0.0,944.2,8.8,52.6,66,35.5,19.9,2.6,139.0,89.0,2.7,0,5,7,0,2026-05-28T22:24:59.893363+05:30
Kota,Rajasthan,25.2138,75.8648,36.8,28,0.0,975.7,8.35,47.2,65,35.7,21.6,5.2,168.0,98.0,6.7,0,5,10,0,2026-05-28T22:24:59.893371+05:30
Bikaner,Rajasthan,28.0229,73.3119,37.8,18,0.0,975.9,8.45,47.5,159,188.1,73.6,3.1,322.0,77.0,3.4,0,5,10,0,2026-05-28T22:24:59.893379+05:30
Ajmer,Rajasthan,26.4499,74.6399,34.2,41,0.0,950.9,8.35,60.1,72,141.6,42.0,3.5,142.0,81.0,3.1,0,5,7,1,2026-05-28T22:24:59.893386+05:30
Gwalior,Madhya Pradesh,26.2183,78.1828,33.0,41,0.0,980.0,8.25,48.2,83,114.1,41.4,15.1,181.0,75.0,7.7,0,5,7,1,2026-05-28T22:24:59.893394+05:30
Indore,Madhya Pradesh,22.7196,75.8577,33.0,37,0.0,947.5,8.65,47.2,72,34.7,22.8,6.0,210.0,102.0,6.6,0,5,7,1,2026-05-28T22:24:59.893401+05:30
Bhopal,Madhya Pradesh,23.2599,77.4126,35.7,22,0.0,951.8,8.65,40.3,68,35.7,23.3,9.7,245.0,73.0,5.7,0,5,10,0,2026-05-28T22:24:59.893407+05:30
Jabalpur,Madhya Pradesh,23.1815,79.9864,36.0,23,0.0,959.3,8.85,38.9,61,62.6,27.9,12.4,234.0,80.0,5.5,0,5,10,0,2026-05-28T22:24:59.893414+05:30
Ujjain,Madhya Pradesh,23.1765,75.7885,33.8,37,0.0,952.7,8.55,48.6,73,37.7,23.6,3.2,206.0,104.0,5.3,0,5,7,1,2026-05-28T22:24:59.893422+05:30
Visakhapatnam,Andhra Pradesh,17.6868,83.2185,31.1,72,0.0,1001.6,9.0,39.6,142,39.5,32.0,23.6,446.0,106.0,36.3,3,5,4,1,2026-05-28T22:24:59.893429+05:30
Vijayawada,Andhra Pradesh,16.5062,80.648,31.8,57,0.0,1001.1,8.65,37.4,97,62.4,58.0,34.5,446.0,62.0,12.1,0,5,4,1,2026-05-28T22:24:59.893436+05:30
Guntur,Andhra Pradesh,16.3067,80.4365,31.5,65,0.0,1002.3,7.6,34.6,85,65.9,59.8,36.9,577.0,57.0,12.0,3,5,4,1,2026-05-28T22:24:59.893443+05:30
Nellore,Andhra Pradesh,14.4426,79.9865,31.0,69,0.0,1005.4,9.0,35.6,132,33.9,26.8,8.3,298.0,117.0,5.9,3,5,4,1,2026-05-28T22:24:59.893451+05:30
Kurnool,Andhra Pradesh,15.8281,78.0373,30.9,62,0.0,976.8,9.0,36.0,92,46.6,36.6,24.7,492.0,83.0,11.1,3,5,7,1,2026-05-28T22:24:59.893459+05:30
Kakinada,Andhra Pradesh,16.9891,82.2475,29.8,70,0.0,1005.9,8.55,53.3,125,33.1,27.1,4.9,395.0,136.0,5.9,7,5,4,1,2026-05-28T22:24:59.893466+05:30
Tirupati,Andhra Pradesh,13.6288,79.4192,29.1,71,0.0,991.6,9.0,29.2,85,36.0,29.8,31.9,393.0,43.0,4.4,7,5,7,1,2026-05-28T22:24:59.893473+05:30
Warangal,Telangana,17.9689,79.5941,30.5,60,0.0,977.8,9.0,36.0,77,49.0,41.6,28.9,606.0,50.0,7.7,0,5,7,1,2026-05-28T22:24:59.893480+05:30
Nizamabad,Telangana,18.6725,78.0941,32.5,38,0.0,963.7,9.0,35.3,70,35.0,24.9,14.6,248.0,77.0,5.5,0,5,7,1,2026-05-28T22:24:59.893486+05:30
Mysore,Karnataka,12.2958,76.6396,23.6,86,0.0,931.6,9.1,47.2,48,10.0,9.1,11.8,216.0,60.0,2.6,3,5,7,1,2026-05-28T22:24:59.893493+05:30
Mangalore,Karnataka,12.9141,74.856,26.6,87,0.0,1010.3,8.4,29.9,40,13.5,11.3,11.5,402.0,46.0,3.4,7,0,4,1,2026-05-28T22:24:59.893500+05:30
Hubli-Dharwad,Karnataka,15.3647,75.124,25.1,88,0.0,943.2,8.95,37.8,36,5.6,4.7,5.7,159.0,49.0,1.2,7,5,7,1,2026-05-28T22:24:59.893507+05:30
Belgaum,Karnataka,15.8497,74.4977,24.0,92,0.0,928.1,8.4,39.2,32,7.6,6.4,7.3,140.0,43.0,1.9,3,5,7,1,2026-05-28T22:25:03.151867+05:30
Coimbatore,Tamil Nadu,11.0168,76.9558,25.6,83,0.0,964.4,8.55,51.5,36,7.6,6.6,7.1,203.0,56.0,2.9,7,5,7,1,2026-05-28T22:25:03.151905+05:30
Madurai,Tamil Nadu,9.9252,78.1198,29.2,65,0.0,994.5,7.05,34.9,79,28.1,25.8,41.1,341.0,29.0,8.1,7,5,7,1,2026-05-28T22:25:03.151917+05:30
Trichy,Tamil Nadu,10.7905,78.7047,30.9,62,0.0,1001.4,7.55,46.4,60,38.0,33.4,27.2,308.0,53.0,6.6,3,5,4,1,2026-05-28T22:25:03.151925+05:30
Salem,Tamil Nadu,11.6643,78.146,29.5,63,0.0,980.3,8.45,42.1,84,18.0,15.2,16.1,303.0,71.0,5.2,7,5,7,1,2026-05-28T22:25:03.151933+05:30
Tirunelveli,Tamil Nadu,8.7139,77.7567,29.9,62,0.0,1005.1,6.55,34.2,28,10.4,8.5,8.9,207.0,37.0,2.0,7,5,4,1,2026-05-28T22:25:03.151941+05:30
Vellore,Tamil Nadu,12.9165,79.1325,27.9,72,0.0,985.6,8.7,37.4,88,43.1,35.5,19.0,594.0,81.0,5.1,7,5,7,1,2026-05-28T22:25:03.151948+05:30
Erode,Tamil Nadu,11.341,77.7172,27.7,74,0.0,991.3,7.95,49.3,49,12.1,10.5,12.7,201.0,60.0,3.9,7,5,7,1,2026-05-28T22:25:03.151956+05:30
Kochi,Kerala,9.9312,76.2673,25.5,96,0.0,1012.4,8.1,34.2,51,20.5,18.5,24.3,327.0,21.0,6.0,7,0,4,1,2026-05-28T22:25:03.151963+05:30
Thiruvananthapuram,Kerala,8.5241,76.9366,24.0,99,0.0,1011.8,7.1,26.6,31,10.6,5.4,2.4,301.0,46.0,0.8,3,0,4,1,2026-05-28T22:25:03.151971+05:30
Kozhikode,Kerala,11.2588,75.7804,25.1,99,0.0,1011.8,7.85,31.0,30,8.9,5.5,1.7,482.0,65.0,0.7,7,0,4,1,2026-05-28T22:25:03.151979+05:30
Thrissur,Kerala,10.5276,76.2144,24.5,97,0.0,1011.0,8.5,32.4,51,20.0,17.9,17.1,344.0,31.0,5.1,3,0,4,1,2026-05-28T22:25:03.151988+05:30
Kannur,Kerala,11.8745,75.3704,25.7,95,0.0,1011.0,8.35,36.0,35,14.0,11.8,15.9,465.0,36.0,2.9,7,0,4,1,2026-05-28T22:25:03.151996+05:30
Patna,Bihar,25.5941,85.1376,29.4,66,0.0,1000.0,8.75,45.0,171,57.0,47.7,13.4,351.0,125.0,17.8,7,5,4,1,2026-05-28T22:25:03.152002+05:30
Gaya,Bihar,24.7914,85.0002,30.5,59,0.0,992.5,8.8,34.6,195,72.2,60.8,11.1,357.0,147.0,21.5,0,5,7,1,2026-05-28T22:25:03.152009+05:30
Muzaffarpur,Bihar,26.1209,85.3647,28.2,73,0.0,1000.6,8.75,47.5,150,49.2,40.7,13.0,365.0,115.0,13.4,7,5,4,1,2026-05-28T22:25:03.152017+05:30
Bhagalpur,Bihar,25.2425,87.0117,27.4,80,0.0,1001.7,8.7,36.0,155,59.5,46.7,12.9,298.0,114.0,15.3,7,5,4,1,2026-05-28T22:25:03.152023+05:30
Ranchi,Jharkhand,23.3441,85.3096,25.5,86,0.0,937.2,9.2,39.2,171,65.0,53.7,8.4,361.0,160.0,21.4,7,5,7,1,2026-05-28T22:25:03.152030+05:30
Jamshedpur,Jharkhand,22.8046,86.2029,27.2,88,0.0,990.1,9.0,32.8,163,53.3,40.9,8.4,322.0,93.0,13.1,7,5,7,1,2026-05-28T22:25:03.152037+05:30
Dhanbad,Jharkhand,23.7957,86.4304,29.4,72,0.0,979.5,9.0,36.4,166,72.6,60.1,33.7,575.0,79.0,74.9,7,5,7,1,2026-05-28T22:25:03.152044+05:30
Bokaro,Jharkhand,23.6693,86.1511,29.1,73,0.0,983.2,9.0,35.3,202,75.0,62.6,33.5,744.0,87.0,87.5,7,5,7,1,2026-05-28T22:25:03.152051+05:30
Bhubaneswar,Odisha,20.2961,85.8245,28.7,88,0.0,1001.5,9.0,49.0,104,41.4,31.7,7.1,280.0,92.0,4.5,7,5,4,1,2026-05-28T22:25:03.152059+05:30
Cuttack,Odisha,20.4625,85.8828,28.6,88,0.0,1003.3,9.1,45.4,104,41.4,31.7,7.1,297.0,92.0,4.5,7,5,4,1,2026-05-28T22:25:03.152066+05:30
Rourkela,Odisha,22.2604,84.8536,30.3,70,0.0,983.2,8.9,32.8,166,77.5,55.3,20.7,1142.0,126.0,24.6,3,5,7,1,2026-05-28T22:25:03.152073+05:30
Raipur,Chhattisgarh,21.2514,81.6296,36.2,29,0.0,972.5,8.9,33.1,96,60.1,43.0,38.6,553.0,62.0,51.6,0,5,10,0,2026-05-28T22:25:03.152080+05:30
Bhilai,Chhattisgarh,21.1938,81.3509,34.2,37,0.0,972.9,8.9,31.3,86,56.0,39.3,34.5,670.0,60.0,43.4,0,5,7,1,2026-05-28T22:25:03.152086+05:30
Guwahati,Assam,26.1158,91.7086,23.8,89,0.0,1003.2,8.75,37.4,89,45.2,41.0,21.1,574.0,43.0,4.6,3,5,4,1,2026-05-28T22:25:03.152093+05:30
Agartala,Tripura,23.8315,91.2868,25.6,85,0.0,1007.1,8.85,24.8,98,82.9,70.8,46.6,446.0,52.0,6.1,7,5,4,1,2026-05-28T22:25:03.152100+05:30
Shillong,Meghalaya,25.5788,91.8933,16.2,91,0.0,857.6,8.0,19.1,66,19.8,14.0,11.3,541.0,62.0,2.0,3,10,7,0,2026-05-28T22:25:03.152107+05:30
Imphal,Manipur,24.817,93.9368,21.7,86,0.0,924.3,9.25,31.7,101,57.6,45.2,35.0,870.0,39.0,7.4,3,5,7,1,2026-05-28T22:25:03.152113+05:30
Aizawl,Mizoram,23.7271,92.7176,18.8,98,0.0,892.9,9.05,31.3,69,42.1,27.0,19.6,365.0,23.0,2.3,3,10,7,1,2026-05-28T22:25:03.152120+05:30
Kohima,Nagaland,25.6701,94.1077,16.9,94,0.0,856.1,9.25,28.4,67,38.4,30.6,22.7,408.0,49.0,1.9,3,10,7,0,2026-05-28T22:25:03.152126+05:30
Gangtok,Sikkim,27.3314,88.6138,13.8,100,0.0,838.2,9.15,37.4,78,31.5,21.4,11.7,604.0,100.0,2.2,3,10,7,0,2026-05-28T22:25:03.152132+05:30
Siliguri,West Bengal,26.7271,88.3953,24.9,76,0.0,995.1,8.7,28.4,118,63.6,46.4,19.0,598.0,105.0,6.7,3,5,7,1,2026-05-28T22:25:06.408074+05:30
Durgapur,West Bengal,23.5204,87.3119,28.1,85,0.0,994.8,8.9,30.2,150,83.1,67.5,26.5,539.0,79.0,30.9,7,5,7,1,2026-05-28T22:25:06.408114+05:30
Asansol,West Bengal,23.6739,86.9524,28.6,80,0.0,993.1,8.95,32.4,148,70.5,57.2,29.2,577.0,80.0,44.1,7,5,7,1,2026-05-28T22:25:06.408127+05:30
Pondicherry,Puducherry,11.9139,79.8145,30.2,75,0.0,1009.1,7.85,34.2,142,20.0,15.5,11.3,287.0,76.0,6.8,3,0,4,1,2026-05-28T22:25:06.408135+05:30
Port Blair,Andaman and Nicobar Islands,11.6234,92.7265,25.5,96,0.0,1008.2,5.05,41.8,37,11.4,5.7,0.3,140.0,83.0,0.4,7,0,0,1,2026-05-28T22:25:06.408144+05:30
Haridwar,Uttarakhand,29.9457,78.1642,25.0,80,0.0,972.2,7.55,43.9,150,80.3,40.4,10.6,408.0,121.0,12.1,7,5,7,1,2026-05-28T22:25:06.408153+05:30
Rishikesh,Uttarakhand,30.0869,78.2676,25.0,68,0.0,965.3,7.65,32.4,150,130.9,49.7,7.6,336.0,148.0,12.1,7,5,7,1,2026-05-28T22:25:06.408161+05:30
Nainital,Uttarakhand,29.3919,79.4542,13.6,99,0.0,806.0,8.5,29.9,130,86.4,33.1,6.3,536.0,123.0,6.0,3,10,7,0,2026-05-28T22:25:06.408169+05:30
Mussoorie,Uttarakhand,30.4599,78.0664,13.5,97,0.1,802.2,8.1,45.0,159,127.6,62.4,27.9,435.0,118.0,14.2,6,10,7,0,2026-05-28T22:25:06.408177+05:30
Dharamshala,Himachal Pradesh,32.219,76.3234,22.6,38,0.0,868.2,7.3,40.0,75,17.5,12.2,16.3,247.0,49.0,0.9,0,5,7,0,2026-05-28T22:25:06.408185+05:30
Dalhousie,Himachal Pradesh,32.5387,75.971,16.8,47,0.0,803.8,6.7,37.4,108,36.8,26.1,45.1,607.0,62.0,2.6,0,5,7,0,2026-05-28T22:25:06.408193+05:30
Patiala,Punjab,30.3398,76.3869,30.2,48,0.0,974.5,7.65,46.4,843,1367.2,192.8,9.2,404.0,132.0,12.9,0,5,7,1,2026-05-28T22:25:06.408201+05:30
Bhatinda,Punjab,30.211,74.9455,31.4,38,0.0,979.2,8.3,43.9,157,920.1,210.5,8.8,350.0,135.0,12.3,0,5,7,0,2026-05-28T22:25:06.408209+05:30
Rohtak,Haryana,28.8955,76.6066,30.6,56,0.0,977.6,7.75,39.6,854,439.6,113.6,19.2,408.0,129.0,20.4,0,5,7,1,2026-05-28T22:25:06.408216+05:30
Panipat,Haryana,29.3909,76.9635,30.5,63,0.0,976.4,7.65,44.3,1373,685.5,129.9,13.0,412.0,130.0,13.8,3,5,7,1,2026-05-28T22:25:06.408224+05:30
Mathura,Uttar Pradesh,27.4924,77.6737,30.2,61,0.0,983.5,8.0,35.3,557,427.5,141.1,15.3,418.0,128.0,11.0,3,5,7,1,2026-05-28T22:25:06.408231+05:30
Vrindavan,Uttar Pradesh,27.5823,77.7027,30.1,62,0.0,983.8,8.0,30.6,557,427.5,141.1,15.3,403.0,128.0,11.0,3,5,7,1,2026-05-28T22:25:06.408240+05:30
Ayodhya,Uttar Pradesh,26.7922,82.1998,30.6,56,0.0,995.1,8.3,45.0,157,51.7,40.9,9.6,361.0,136.0,11.9,0,5,7,1,2026-05-28T22:25:06.408247+05:30
Ratlam,Madhya Pradesh,23.3315,75.0367,33.0,39,0.0,953.4,8.5,52.2,74,38.5,24.0,2.9,168.0,105.0,6.0,0,5,7,1,2026-05-28T22:25:06.408255+05:30
Sagar,Madhya Pradesh,23.8388,78.7378,34.8,24,0.0,948.1,8.7,41.0,62,32.6,19.6,11.2,194.0,69.0,3.7,0,5,7,0,2026-05-28T22:25:06.408262+05:30
Satna,Madhya Pradesh,24.6005,80.8322,33.5,44,0.0,969.0,8.75,45.7,78,76.6,33.9,12.1,312.0,93.0,7.2,0,5,7,1,2026-05-28T22:25:06.408269+05:30
Akola,Maharashtra,20.7002,77.0082,36.0,31,0.0,973.7,8.8,42.1,66,32.6,20.2,9.5,246.0,89.0,7.3,0,5,10,1,2026-05-28T22:25:06.408277+05:30
Amravati,Maharashtra,20.9374,77.7796,36.3,25,0.0,966.2,8.85,43.6,66,37.0,22.3,12.5,202.0,78.0,7.4,0,5,10,0,2026-05-28T22:25:06.408285+05:30
Latur,Maharashtra,18.4088,76.5604,30.6,42,0.0,939.8,8.9,33.5,61,44.0,31.9,20.3,347.0,66.0,5.2,0,5,7,1,2026-05-28T22:25:06.408293+05:30
Nanded,Maharashtra,19.1383,77.3091,34.2,31,0.0,967.3,8.9,38.2,64,29.9,20.8,14.4,247.0,77.0,6.6,0,5,7,0,2026-05-28T22:25:06.408300+05:30
Gulbarga,Karnataka,17.3297,76.8343,31.1,50,0.0,958.4,8.95,38.9,65,23.2,18.2,24.1,302.0,63.0,5.3,0,5,7,1,2026-05-28T22:25:06.408307+05:30
Bidar,Karnataka,17.9104,77.5199,29.8,51,0.0,935.6,9.0,33.8,67,66.6,52.4,52.3,343.0,35.0,7.9,4,5,7,1,2026-05-28T22:25:06.408327+05:30
Hospet,Karnataka,15.2689,76.3909,27.3,78,0.0,957.8,8.95,47.9,48,9.9,8.5,7.9,165.0,67.0,1.6,7,5,7,1,2026-05-28T22:25:06.408334+05:30
Tirupur,Tamil Nadu,11.1085,77.3411,27.1,76,0.0,977.7,8.05,58.7,45,13.6,11.8,13.9,180.0,56.0,4.5,7,5,7,1,2026-05-28T22:25:06.408341+05:30
Alappuzha,Kerala,9.4981,76.3388,25.9,97,0.1,1012.5,7.7,28.4,41,15.7,12.1,12.8,103.0,36.0,2.7,10,0,4,1,2026-05-28T22:25:06.408348+05:30
Munnar,Kerala,10.0889,77.0595,17.4,98,0.0,859.1,8.0,23.4,32,8.8,8.1,9.7,135.0,46.0,2.1,3,10,7,1,2026-05-28T22:25:06.408356+05:30
Silchar,Assam,24.8333,92.7789,25.1,91,0.0,1006.0,8.9,31.3,121,60.8,46.6,16.6,1038.0,92.0,11.2,7,5,4,1,2026-05-28T22:25:06.408363+05:30
Dibrugarh,Assam,27.4728,94.912,25.0,89,0.0,997.3,5.35,26.3,97,82.2,54.6,27.1,734.0,61.0,6.5,7,5,3,1,2026-05-28T22:25:06.408369+05:30
