city,state,latitude,longitude,temp,humidity,rain,pressure,uv_index,wind_gusts,aqi,pm10,pm2_5,mosquito_risk,arthritis_risk,migraine_risk,frizz_risk,updated_at
Delhi,Delhi,28.6139,77.209,22.2,70,0.0,984.6,6.55,45.0,165,319.4,69.2,3,5,7,1,2026-03-27T05:06:13.262590+05:30
Mumbai,Maharashtra,19.076,72.8777,28.4,78,0.0,1008.4,8.0,27.4,98,32.5,22.4,7,0,4,1,2026-03-27T05:06:13.262637+05:30
Bangalore,Karnataka,12.9716,77.5946,20.6,79,0.0,911.7,9.5,27.0,68,30.7,26.0,3,5,7,1,2026-03-27T05:06:13.262653+05:30
Hyderabad,Telangana,17.385,78.4867,24.3,68,0.0,954.3,9.0,29.9,89,25.2,19.1,3,5,7,1,2026-03-27T05:06:13.262663+05:30
Chennai,Tamil Nadu,13.0827,80.2707,23.4,95,0.0,1008.4,9.25,29.9,64,38.4,23.6,3,0,4,1,2026-03-27T05:06:13.262672+05:30
Kolkata,West Bengal,22.5726,88.3639,25.0,97,0.0,1007.2,8.4,25.2,141,38.0,32.2,7,5,4,1,2026-03-27T05:06:13.262681+05:30
Pune,Maharashtra,18.5204,73.8567,25.7,72,0.0,948.8,8.55,34.9,111,56.0,49.7,7,5,7,1,2026-03-27T05:06:13.262692+05:30
Ahmedabad,Gujarat,23.0225,72.5714,23.3,59,0.0,1003.7,7.9,30.2,59,16.8,11.8,0,5,4,0,2026-03-27T05:06:13.262699+05:30
Jaipur,Rajasthan,26.9124,75.7873,23.7,55,0.0,960.9,7.35,37.8,94,135.0,30.3,0,5,7,0,2026-03-27T05:06:13.262707+05:30
Lucknow,Uttar Pradesh,26.8467,80.9462,23.4,58,0.0,993.9,4.15,52.6,102,96.4,30.7,0,5,3,0,2026-03-27T05:06:13.262714+05:30
Kanpur,Uttar Pradesh,26.4499,80.3319,22.6,71,0.0,992.8,6.9,42.8,163,231.9,44.8,3,5,7,1,2026-03-27T05:06:13.262720+05:30
Chandigarh,Chandigarh,30.7333,76.7794,19.7,82,0.0,970.3,6.45,30.2,65,27.6,24.7,3,10,7,1,2026-03-27T05:06:13.262728+05:30
Srinagar,Jammu and Kashmir,34.0837,74.7973,6.3,85,0.0,839.2,7.5,17.3,97,56.9,49.1,3,10,7,0,2026-03-27T05:06:13.262738+05:30
Jammu,Jammu and Kashmir,32.7266,74.857,19.1,88,0.0,974.6,7.15,26.6,77,35.4,32.8,3,10,7,1,2026-03-27T05:06:13.262745+05:30
Amritsar,Punjab,31.634,74.8723,18.1,86,0.0,983.5,7.1,25.2,83,36.6,24.7,3,10,7,0,2026-03-27T05:06:13.262752+05:30
Ludhiana,Punjab,30.901,75.8573,20.0,80,0.0,981.3,6.7,27.7,89,51.3,37.4,3,5,7,1,2026-03-27T05:06:13.262758+05:30
Jalandhar,Punjab,31.326,75.5762,18.9,84,0.0,982.5,6.9,26.6,85,81.3,38.1,3,10,7,1,2026-03-27T05:06:13.262767+05:30
Dehradun,Uttarakhand,30.6284,78.0322,12.1,64,0.0,828.4,6.55,30.2,49,16.5,11.1,3,5,7,0,2026-03-27T05:06:13.262774+05:30
Shimla,Himachal Pradesh,31.1048,77.1734,9.6,81,0.0,782.1,6.75,35.6,57,27.5,21.4,3,10,7,0,2026-03-27T05:06:13.262780+05:30
Manali,Himachal Pradesh,32.2396,77.1887,13.2,57,0.0,817.7,8.1,25.9,48,10.7,7.3,0,5,7,0,2026-03-27T05:06:13.262787+05:30
Gurgaon,Haryana,28.4595,77.0266,20.1,80,0.0,983.3,6.6,42.1,605,555.1,100.8,3,5,7,1,2026-03-27T05:06:13.262793+05:30
Noida,Uttar Pradesh,28.5355,77.391,21.9,72,0.0,986.1,6.55,43.6,605,555.1,100.8,3,5,7,1,2026-03-27T05:06:13.262800+05:30
Ghaziabad,Uttar Pradesh,28.6692,77.4538,21.1,75,0.0,984.2,6.5,42.1,132,220.7,57.0,3,5,7,1,2026-03-27T05:06:13.262806+05:30
Faridabad,Haryana,28.4089,77.3178,21.5,71,0.0,985.3,6.5,43.2,605,555.1,100.8,3,5,7,0,2026-03-27T05:06:13.262812+05:30
Meerut,Uttar Pradesh,28.9845,77.7064,20.3,80,0.0,982.6,5.65,48.2,132,220.7,57.0,3,5,3,1,2026-03-27T05:06:13.262818+05:30
Agra,Uttar Pradesh,27.1767,78.0081,22.3,69,0.0,989.1,6.85,34.6,434,1121.3,149.0,3,5,7,1,2026-03-27T05:06:13.262827+05:30
Varanasi,Uttar Pradesh,25.3176,82.9739,20.8,68,0.0,998.4,7.35,47.2,96,66.1,35.0,3,5,7,0,2026-03-27T05:06:13.262837+05:30
Prayagraj,Uttar Pradesh,25.4358,81.8463,22.8,64,0.0,996.9,7.65,44.3,94,120.6,37.4,3,5,7,0,2026-03-27T05:06:13.262843+05:30
Gorakhpur,Uttar Pradesh,26.7606,83.3732,19.8,75,0.0,997.3,6.6,47.5,94,87.5,30.4,3,5,7,0,2026-03-27T05:06:13.262850+05:30
Bareilly,Uttar Pradesh,28.367,79.4304,20.9,76,0.0,987.4,5.4,46.8,73,24.5,21.8,3,5,3,1,2026-03-27T05:06:13.262856+05:30
Aligarh,Uttar Pradesh,27.8974,78.088,20.7,77,0.0,986.7,5.2,39.6,257,508.5,91.3,3,5,3,1,2026-03-27T05:06:13.262862+05:30
Moradabad,Uttar Pradesh,28.8386,78.7733,20.8,78,0.0,984.4,5.75,49.0,80,48.3,28.3,3,5,3,1,2026-03-27T05:06:13.262869+05:30
Saharanpur,Uttar Pradesh,29.9637,77.546,19.7,83,0.0,976.6,5.65,36.4,76,69.4,41.0,3,10,3,1,2026-03-27T05:06:13.262874+05:30
Jhansi,Uttar Pradesh,25.4484,78.5685,22.2,71,0.0,979.2,7.2,54.0,79,176.0,32.7,3,5,7,1,2026-03-27T05:06:16.483837+05:30
Surat,Gujarat,21.1702,72.8311,25.8,75,0.0,1007.7,7.75,25.9,124,44.9,41.1,7,5,4,1,2026-03-27T05:06:16.483871+05:30
Vadodara,Gujarat,22.3072,73.1812,24.5,53,0.0,1005.8,7.9,26.6,83,25.2,21.7,0,5,4,0,2026-03-27T05:06:16.483881+05:30
Rajkot,Gujarat,22.3039,70.8022,22.5,92,0.0,996.2,7.75,33.1,52,21.7,13.1,3,5,7,1,2026-03-27T05:06:16.483889+05:30
Thane,Maharashtra,19.2183,72.9781,27.2,75,0.0,1007.9,8.0,39.6,98,32.5,22.4,7,5,4,1,2026-03-27T05:06:16.483897+05:30
Nagpur,Maharashtra,21.1458,79.0882,25.4,69,0.0,973.5,8.25,45.7,120,45.5,40.7,7,5,7,1,2026-03-27T05:06:16.483905+05:30
Nashik,Maharashtra,19.9975,73.7898,25.3,49,0.0,946.2,8.2,42.8,84,29.4,23.3,4,5,7,0,2026-03-27T05:06:16.483911+05:30
Aurangabad,Maharashtra,19.8762,75.3433,25.7,47,0.0,944.6,8.7,38.9,70,26.3,20.4,4,5,7,0,2026-03-27T05:06:16.483936+05:30
Solapur,Maharashtra,17.6599,75.9064,26.3,57,0.0,957.3,8.85,27.0,102,46.7,41.6,4,5,7,1,2026-03-27T05:06:16.483944+05:30
Kolhapur,Maharashtra,16.705,74.2433,23.5,84,0.0,947.7,8.95,38.5,155,108.5,102.7,3,5,7,1,2026-03-27T05:06:16.483950+05:30
Goa,Goa,15.2993,74.124,27.2,87,0.0,996.9,8.95,32.4,99,43.5,39.6,7,5,7,1,2026-03-27T05:06:16.483957+05:30
Jodhpur,Rajasthan,26.2389,73.0243,23.2,58,0.0,985.0,7.7,29.2,93,71.5,20.6,0,5,7,0,2026-03-27T05:06:16.483964+05:30
Udaipur,Rajasthan,24.5854,73.7125,24.0,38,0.0,947.9,8.35,34.2,30,12.3,6.7,0,5,7,0,2026-03-27T05:06:16.483971+05:30
Kota,Rajasthan,25.2138,75.8648,24.0,61,0.0,979.7,7.7,38.2,65,26.3,12.9,3,5,7,0,2026-03-27T05:06:16.483977+05:30
Bikaner,Rajasthan,28.0229,73.3119,21.6,73,0.0,985.2,7.45,27.7,67,48.7,24.6,3,5,7,1,2026-03-27T05:06:16.483984+05:30
Ajmer,Rajasthan,26.4499,74.6399,22.1,54,0.0,955.6,7.65,32.8,54,34.5,14.1,0,5,7,0,2026-03-27T05:06:16.483990+05:30
Gwalior,Madhya Pradesh,26.2183,78.1828,24.9,56,0.0,984.4,7.1,58.3,89,312.0,60.3,0,5,7,0,2026-03-27T05:06:16.483996+05:30
Indore,Madhya Pradesh,22.7196,75.8577,21.8,59,0.0,948.6,8.2,35.3,46,9.2,7.7,0,5,7,0,2026-03-27T05:06:16.484002+05:30
Bhopal,Madhya Pradesh,23.2599,77.4126,23.1,57,0.0,954.2,8.1,40.7,40,10.6,10.0,0,5,7,0,2026-03-27T05:06:16.484008+05:30
Jabalpur,Madhya Pradesh,23.1815,79.9864,23.0,61,0.0,962.7,8.2,36.7,57,28.2,19.9,3,5,7,0,2026-03-27T05:06:16.484014+05:30
Ujjain,Madhya Pradesh,23.1765,75.7885,22.9,55,0.0,954.5,8.1,35.6,38,8.9,7.5,0,5,7,0,2026-03-27T05:06:16.484022+05:30
Visakhapatnam,Andhra Pradesh,17.6868,83.2185,25.7,90,0.0,1004.7,8.95,40.3,81,33.2,27.0,7,5,4,1,2026-03-27T05:06:16.484029+05:30
Vijayawada,Andhra Pradesh,16.5062,80.648,24.7,94,0.0,1003.6,9.05,25.9,74,35.6,27.5,3,5,4,1,2026-03-27T05:06:16.484036+05:30
Guntur,Andhra Pradesh,16.3067,80.4365,24.0,96,0.0,1004.7,9.05,32.4,70,28.2,22.1,3,5,4,1,2026-03-27T05:06:16.484043+05:30
Nellore,Andhra Pradesh,14.4426,79.9865,23.8,94,0.0,1006.6,9.15,30.2,60,26.0,18.2,3,5,4,1,2026-03-27T05:06:16.484050+05:30
Kurnool,Andhra Pradesh,15.8281,78.0373,27.2,52,0.0,977.1,9.05,21.2,71,22.6,17.4,4,5,7,1,2026-03-27T05:06:16.484057+05:30
Kakinada,Andhra Pradesh,16.9891,82.2475,24.1,94,0.0,1008.6,8.95,25.2,63,35.2,23.5,3,0,4,1,2026-03-27T05:06:16.484064+05:30
Tirupati,Andhra Pradesh,13.6288,79.4192,20.9,95,0.0,992.9,9.25,30.6,90,52.4,47.0,3,5,7,1,2026-03-27T05:06:16.484070+05:30
Warangal,Telangana,17.9689,79.5941,24.8,72,0.0,980.1,8.85,34.2,84,25.3,21.8,3,5,7,1,2026-03-27T05:06:16.484077+05:30
Nizamabad,Telangana,18.6725,78.0941,26.3,66,0.0,965.6,8.75,23.8,102,42.7,39.0,7,5,7,1,2026-03-27T05:06:16.484082+05:30
Mysore,Karnataka,12.2958,76.6396,22.4,63,0.0,928.6,9.45,37.1,70,27.4,24.2,3,5,7,0,2026-03-27T05:06:16.484089+05:30
Mangalore,Karnataka,12.9141,74.856,28.8,85,0.0,1006.5,9.1,24.1,105,46.6,36.7,7,5,4,1,2026-03-27T05:06:16.484095+05:30
Hubli-Dharwad,Karnataka,15.3647,75.124,23.2,66,0.0,940.6,9.1,41.4,83,28.9,25.8,3,5,7,1,2026-03-27T05:06:16.484102+05:30
Belgaum,Karnataka,15.8497,74.4977,22.0,78,0.0,925.2,9.15,33.1,116,57.0,51.1,3,5,7,1,2026-03-27T05:06:19.705392+05:30
Coimbatore,Tamil Nadu,11.0168,76.9558,22.4,84,0.0,962.5,9.4,37.8,70,34.6,31.7,3,5,7,1,2026-03-27T05:06:19.705427+05:30
Madurai,Tamil Nadu,9.9252,78.1198,24.1,92,0.0,994.2,9.4,23.0,71,38.4,34.9,3,5,7,1,2026-03-27T05:06:19.705438+05:30
Trichy,Tamil Nadu,10.7905,78.7047,22.9,96,0.0,1001.1,9.3,19.4,80,44.5,35.7,3,5,4,1,2026-03-27T05:06:19.705446+05:30
Salem,Tamil Nadu,11.6643,78.146,22.6,92,0.0,978.3,9.35,26.3,91,47.5,43.4,3,5,7,1,2026-03-27T05:06:19.705453+05:30
Tirunelveli,Tamil Nadu,8.7139,77.7567,25.9,78,0.0,1004.2,9.35,42.5,53,24.8,20.4,7,5,4,1,2026-03-27T05:06:19.705461+05:30
Vellore,Tamil Nadu,12.9165,79.1325,20.7,95,0.0,985.9,9.35,32.0,86,59.3,53.3,3,5,7,1,2026-03-27T05:06:19.705468+05:30
Erode,Tamil Nadu,11.341,77.7172,23.8,92,0.0,990.3,9.35,29.2,80,37.7,33.4,3,5,7,1,2026-03-27T05:06:19.705475+05:30
Kochi,Kerala,9.9312,76.2673,28.3,74,0.0,1008.8,9.2,38.2,94,35.9,33.1,7,0,4,1,2026-03-27T05:06:19.705482+05:30
Thiruvananthapuram,Kerala,8.5241,76.9366,28.9,78,0.0,1007.8,9.2,31.0,69,18.3,12.9,7,5,4,1,2026-03-27T05:06:19.705489+05:30
Kozhikode,Kerala,11.2588,75.7804,28.6,83,0.0,1008.0,9.1,32.0,93,41.1,33.1,7,0,4,1,2026-03-27T05:06:19.705496+05:30
Thrissur,Kerala,10.5276,76.2144,26.4,90,0.0,1007.2,9.15,40.7,88,46.3,43.0,7,5,4,1,2026-03-27T05:06:19.705504+05:30
Kannur,Kerala,11.8745,75.3704,28.9,81,0.0,1007.2,9.1,32.0,105,48.2,42.7,7,5,4,1,2026-03-27T05:06:19.705512+05:30
Patna,Bihar,25.5941,85.1376,21.3,69,0.0,1000.8,7.75,35.6,151,106.4,82.0,3,5,4,0,2026-03-27T05:06:19.705519+05:30
Gaya,Bihar,24.7914,85.0002,20.5,60,0.0,994.4,8.05,28.8,75,38.6,18.8,0,5,7,0,2026-03-27T05:06:19.705524+05:30
Muzaffarpur,Bihar,26.1209,85.3647,19.3,81,0.0,1001.0,6.8,40.7,157,112.2,96.2,3,10,4,0,2026-03-27T05:06:19.705531+05:30
Bhagalpur,Bihar,25.2425,87.0117,22.4,79,0.0,1001.8,7.75,38.5,120,83.1,63.6,3,5,4,1,2026-03-27T05:06:19.705537+05:30
Ranchi,Jharkhand,23.3441,85.3096,21.7,41,0.0,938.6,8.25,30.2,58,29.9,14.8,0,5,7,0,2026-03-27T05:06:19.705543+05:30
Jamshedpur,Jharkhand,22.8046,86.2029,23.9,91,0.0,992.1,8.35,21.2,159,99.2,87.5,3,5,7,1,2026-03-27T05:06:19.705549+05:30
Dhanbad,Jharkhand,23.7957,86.4304,20.9,66,0.0,980.8,8.15,26.3,147,88.9,74.0,3,5,7,0,2026-03-27T05:06:19.705555+05:30
Bokaro,Jharkhand,23.6693,86.1511,20.4,63,0.0,985.1,8.15,31.3,129,88.0,75.2,3,5,7,0,2026-03-27T05:06:19.705562+05:30
Bhubaneswar,Odisha,20.2961,85.8245,25.6,97,0.0,1003.7,8.75,24.8,104,46.3,38.3,7,5,4,1,2026-03-27T05:06:19.705568+05:30
Cuttack,Odisha,20.4625,85.8828,25.4,97,0.0,1005.7,8.8,27.7,104,46.3,38.3,7,5,4,1,2026-03-27T05:06:19.705574+05:30
Rourkela,Odisha,22.2604,84.8536,24.1,85,0.0,986.1,8.45,41.4,86,23.3,19.0,3,5,7,1,2026-03-27T05:06:19.705580+05:30
Raipur,Chhattisgarh,21.2514,81.6296,25.7,62,0.0,975.1,8.55,38.5,125,76.1,65.4,7,5,7,1,2026-03-27T05:06:19.705586+05:30
Bhilai,Chhattisgarh,21.1938,81.3509,24.1,70,0.0,975.4,8.55,31.7,127,77.3,67.3,3,5,7,1,2026-03-27T05:06:19.705592+05:30
Guwahati,Assam,26.1158,91.7086,22.1,89,0.0,1003.2,7.9,31.3,150,75.9,61.7,3,5,4,1,2026-03-27T05:06:19.705597+05:30
Agartala,Tripura,23.8315,91.2868,22.4,83,0.0,1007.2,8.2,35.6,159,70.8,62.9,3,5,4,1,2026-03-27T05:06:19.705604+05:30
Shillong,Meghalaya,25.5788,91.8933,10.6,79,0.0,854.5,7.8,40.0,116,58.6,46.4,3,5,7,0,2026-03-27T05:06:19.705610+05:30
Imphal,Manipur,24.817,93.9368,14.9,86,0.0,923.8,8.55,43.9,133,73.1,60.8,3,10,7,0,2026-03-27T05:06:19.705617+05:30
Aizawl,Mizoram,23.7271,92.7176,14.6,79,0.0,892.0,8.45,28.8,113,50.2,40.3,3,5,7,0,2026-03-27T05:06:19.705623+05:30
Kohima,Nagaland,25.6701,94.1077,13.0,84,0.0,854.5,8.45,52.9,101,45.2,37.0,3,10,7,0,2026-03-27T05:06:19.705629+05:30
Gangtok,Sikkim,27.3314,88.6138,12.4,83,0.0,835.6,7.2,21.2,108,48.1,38.0,3,10,7,0,2026-03-27T05:06:19.705635+05:30
Siliguri,West Bengal,26.7271,88.3953,19.2,76,0.0,995.2,7.85,33.1,156,114.6,87.3,3,5,7,0,2026-03-27T05:06:22.934200+05:30
Durgapur,West Bengal,23.5204,87.3119,24.4,90,0.0,996.1,8.25,22.3,160,87.1,73.8,3,5,7,1,2026-03-27T05:06:22.934235+05:30
Asansol,West Bengal,23.6739,86.9524,24.8,84,0.0,994.5,8.4,21.2,144,56.7,42.1,3,5,7,1,2026-03-27T05:06:22.934246+05:30
Pondicherry,Puducherry,11.9139,79.8145,22.5,98,0.0,1009.8,9.2,25.6,64,39.2,24.5,3,0,4,1,2026-03-27T05:06:22.934254+05:30
Port Blair,Andaman and Nicobar Islands,11.6234,92.7265,27.5,82,0.0,1006.7,9.15,24.1,47,26.8,18.3,7,5,4,1,2026-03-27T05:06:22.934263+05:30
Haridwar,Uttarakhand,29.9457,78.1642,20.5,82,0.0,975.1,6.1,37.4,71,36.4,34.6,3,5,7,1,2026-03-27T05:06:22.934270+05:30
Rishikesh,Uttarakhand,30.0869,78.2676,20.0,70,0.0,967.6,6.3,34.6,58,25.6,20.0,3,5,7,0,2026-03-27T05:06:22.934278+05:30
Nainital,Uttarakhand,29.3919,79.4542,17.5,45,0.0,805.4,6.15,53.3,54,18.5,15.9,0,5,7,0,2026-03-27T05:06:22.934285+05:30
Mussoorie,Uttarakhand,30.4599,78.0664,14.3,62,0.0,801.4,6.5,31.0,65,26.6,21.9,3,5,7,0,2026-03-27T05:06:22.934292+05:30
Dharamshala,Himachal Pradesh,32.219,76.3234,17.2,50,0.0,869.0,6.95,22.0,51,8.6,5.3,0,5,7,0,2026-03-27T05:06:22.934298+05:30
Dalhousie,Himachal Pradesh,32.5387,75.971,13.5,48,0.0,802.5,7.2,24.1,66,26.7,22.4,0,5,7,0,2026-03-27T05:06:22.934306+05:30
Patiala,Punjab,30.3398,76.3869,19.9,81,0.0,980.5,4.9,34.6,176,258.9,49.4,3,10,3,1,2026-03-27T05:06:22.934314+05:30
Bhatinda,Punjab,30.211,74.9455,19.8,84,0.0,987.2,7.1,31.0,89,49.2,34.8,3,10,7,1,2026-03-27T05:06:22.934320+05:30
Rohtak,Haryana,28.8955,76.6066,20.0,80,0.0,984.2,6.6,40.7,180,346.5,68.5,3,5,7,1,2026-03-27T05:06:22.934326+05:30
Panipat,Haryana,29.3909,76.9635,20.0,81,0.0,982.5,5.5,41.4,360,392.1,82.7,3,5,3,1,2026-03-27T05:06:22.934333+05:30
Mathura,Uttar Pradesh,27.4924,77.6737,21.8,72,0.0,988.1,6.85,36.0,418,1017.0,169.0,3,5,7,1,2026-03-27T05:06:22.934340+05:30
Vrindavan,Uttar Pradesh,27.5823,77.7027,21.3,75,0.0,988.7,6.8,36.7,418,1017.0,169.0,3,5,7,1,2026-03-27T05:06:22.934347+05:30
Ayodhya,Uttar Pradesh,26.7922,82.1998,21.7,62,0.0,995.6,5.2,54.0,100,81.0,27.8,3,5,3,0,2026-03-27T05:06:22.934353+05:30
Ratlam,Madhya Pradesh,23.3315,75.0367,23.5,57,0.0,955.4,8.05,33.1,33,8.6,6.9,0,5,7,0,2026-03-27T05:06:22.934359+05:30
Sagar,Madhya Pradesh,23.8388,78.7378,23.8,55,0.0,951.0,8.05,32.4,50,22.6,13.3,0,5,7,0,2026-03-27T05:06:22.934366+05:30
Satna,Madhya Pradesh,24.6005,80.8322,24.2,47,0.0,972.9,8.05,48.6,64,104.5,22.8,0,5,7,0,2026-03-27T05:06:22.934373+05:30
Akola,Maharashtra,20.7002,77.0082,24.2,67,0.0,975.4,8.45,37.4,69,26.4,22.1,3,5,7,1,2026-03-27T05:06:22.934380+05:30
Amravati,Maharashtra,20.9374,77.7796,23.9,59,0.0,967.2,8.45,34.9,71,26.1,21.9,0,5,7,0,2026-03-27T05:06:22.934387+05:30
Latur,Maharashtra,18.4088,76.5604,24.5,58,0.0,940.1,8.8,31.0,88,50.9,43.4,0,5,7,0,2026-03-27T05:06:22.934393+05:30
Nanded,Maharashtra,19.1383,77.3091,25.0,61,0.0,969.0,8.65,26.6,83,42.4,35.4,7,5,7,1,2026-03-27T05:06:22.934399+05:30
Gulbarga,Karnataka,17.3297,76.8343,25.6,63,0.0,959.3,8.85,32.0,97,38.0,33.2,7,5,7,1,2026-03-27T05:06:22.934405+05:30
Bidar,Karnataka,17.9104,77.5199,25.1,67,0.0,936.2,8.85,22.0,98,32.4,28.9,7,5,7,1,2026-03-27T05:06:22.934412+05:30
Hospet,Karnataka,15.2689,76.3909,26.9,58,0.0,956.1,9.1,16.2,86,32.2,28.9,4,5,7,1,2026-03-27T05:06:22.934417+05:30
Tirupur,Tamil Nadu,11.1085,77.3411,24.0,83,0.0,976.4,9.4,26.6,82,43.8,40.2,3,5,7,1,2026-03-27T05:06:22.934423+05:30
Alappuzha,Kerala,9.4981,76.3388,28.6,80,0.0,1008.8,9.15,35.3,85,37.5,32.6,7,0,4,1,2026-03-27T05:06:22.934429+05:30
Munnar,Kerala,10.0889,77.0595,18.7,41,0.0,855.8,9.7,33.8,68,29.8,26.8,0,5,7,0,2026-03-27T05:06:22.934435+05:30
Silchar,Assam,24.8333,92.7789,21.5,81,0.0,1006.5,8.25,18.0,154,80.8,71.7,3,5,4,1,2026-03-27T05:06:22.934441+05:30
Dibrugarh,Assam,27.4728,94.912,21.1,87,0.0,998.4,6.3,14.0,106,47.0,39.1,3,5,7,1,2026-03-27T05:06:22.934447+05:30
