city,state,latitude,longitude,temp,humidity,rain,pressure,uv_index,wind_gusts,aqi,pm10,pm2_5,no2,co,o3,so2,mosquito_risk,arthritis_risk,migraine_risk,frizz_risk,updated_at
Delhi,Delhi,28.6139,77.209,24.9,72,0.0,979.4,7.8,22.7,423,847.5,200.7,77.4,298.0,0.0,40.8,3,5,7,1,2026-06-16T05:17:55.470336+05:30
Mumbai,Maharashtra,19.076,72.8777,29.2,74,0.0,1007.0,7.7,45.0,59,39.3,17.5,6.0,154.0,45.0,3.5,7,5,4,1,2026-06-16T05:17:55.470380+05:30
Bangalore,Karnataka,12.9716,77.5946,20.4,96,0.0,910.5,8.7,33.8,69,17.3,12.7,13.7,212.0,30.0,4.9,3,5,7,1,2026-06-16T05:17:55.470396+05:30
Hyderabad,Telangana,17.385,78.4867,26.9,49,0.0,950.8,9.05,36.4,114,64.5,36.2,20.2,319.0,48.0,8.4,4,5,7,0,2026-06-16T05:17:55.470406+05:30
Chennai,Tamil Nadu,13.0827,80.2707,28.7,74,0.0,1004.5,5.6,35.6,89,39.1,26.7,14.9,252.0,56.0,12.2,7,5,0,1,2026-06-16T05:17:55.470415+05:30
Kolkata,West Bengal,22.5726,88.3639,28.7,90,0.0,1002.6,9.0,31.3,138,58.3,50.9,18.7,513.0,58.0,8.0,7,5,4,1,2026-06-16T05:17:55.470422+05:30
Pune,Maharashtra,18.5204,73.8567,23.4,90,0.0,947.2,8.3,47.2,53,23.6,12.0,8.6,117.0,36.0,7.3,3,5,7,1,2026-06-16T05:17:55.470429+05:30
Ahmedabad,Gujarat,23.0225,72.5714,29.7,68,0.0,999.6,8.05,46.4,64,33.1,16.1,5.3,119.0,40.0,4.4,7,5,7,1,2026-06-16T05:17:55.470435+05:30
Jaipur,Rajasthan,26.9124,75.7873,25.8,64,0.0,956.3,8.2,25.9,122,90.6,40.4,22.4,331.0,25.0,8.6,7,5,7,1,2026-06-16T05:17:55.470447+05:30
Lucknow,Uttar Pradesh,26.8467,80.9462,26.7,69,0.0,989.8,8.35,28.1,164,218.9,95.0,40.2,366.0,29.0,15.4,7,5,7,1,2026-06-16T05:17:55.470454+05:30
Kanpur,Uttar Pradesh,26.4499,80.3319,28.9,55,0.0,988.1,8.3,31.3,182,305.5,101.7,35.1,335.0,27.0,11.1,4,5,7,1,2026-06-16T05:17:55.470460+05:30
Chandigarh,Chandigarh,30.7333,76.7794,23.0,81,0.0,965.5,7.8,21.6,123,37.4,36.7,42.6,450.0,8.0,3.1,3,5,7,1,2026-06-16T05:17:55.470468+05:30
Srinagar,Jammu and Kashmir,34.0837,74.7973,14.0,98,0.0,839.2,8.15,25.9,79,35.6,31.2,22.7,277.0,12.0,0.0,3,10,7,0,2026-06-16T05:17:55.470475+05:30
Jammu,Jammu and Kashmir,32.7266,74.857,25.1,65,0.0,969.2,8.6,28.4,94,44.1,39.6,49.2,299.0,0.0,2.8,7,5,7,1,2026-06-16T05:17:55.470481+05:30
Amritsar,Punjab,31.634,74.8723,25.5,80,0.0,977.0,8.45,20.9,113,57.5,49.1,25.0,742.0,52.0,7.0,7,5,7,1,2026-06-16T05:17:55.470503+05:30
Ludhiana,Punjab,30.901,75.8573,25.5,85,0.0,975.1,8.05,21.2,164,97.8,88.9,58.3,517.0,14.0,15.2,7,5,7,1,2026-06-16T05:17:55.470510+05:30
Jalandhar,Punjab,31.326,75.5762,25.5,75,0.0,976.3,7.9,22.3,144,67.1,59.8,41.8,555.0,39.0,9.9,7,5,7,1,2026-06-16T05:17:55.470516+05:30
Dehradun,Uttarakhand,30.6284,78.0322,15.6,96,0.0,828.1,7.7,29.9,38,10.1,10.1,24.4,221.0,9.0,0.1,3,10,7,0,2026-06-16T05:17:55.470523+05:30
Shimla,Himachal Pradesh,31.1048,77.1734,10.8,77,0.0,780.2,7.5,25.2,54,12.7,12.7,13.6,203.0,50.0,0.0,3,5,7,0,2026-06-16T05:17:55.470532+05:30
Manali,Himachal Pradesh,32.2396,77.1887,12.7,66,0.0,815.6,8.65,38.2,23,6.3,4.0,27.2,178.0,90.0,0.0,3,5,7,0,2026-06-16T05:17:55.470539+05:30
Gurgaon,Haryana,28.4595,77.0266,24.6,74,0.0,977.8,7.9,28.1,737,769.3,183.5,71.0,249.0,0.0,31.2,3,5,7,1,2026-06-16T05:17:55.470546+05:30
Noida,Uttar Pradesh,28.5355,77.391,25.1,73,0.0,980.9,7.85,16.6,737,769.3,183.5,71.0,316.0,0.0,31.2,7,5,7,1,2026-06-16T05:17:55.470557+05:30
Ghaziabad,Uttar Pradesh,28.6692,77.4538,24.7,77,0.0,979.1,7.8,23.0,336,754.4,197.0,70.3,595.0,0.0,24.7,3,5,7,1,2026-06-16T05:17:55.470564+05:30
Faridabad,Haryana,28.4089,77.3178,25.7,64,0.0,980.2,7.85,24.5,737,769.3,183.5,71.0,295.0,0.0,31.2,7,5,7,1,2026-06-16T05:17:55.470570+05:30
Meerut,Uttar Pradesh,28.9845,77.7064,25.4,73,0.0,978.1,7.7,27.0,336,754.4,197.0,70.3,895.0,0.0,24.7,7,5,7,1,2026-06-16T05:17:55.470575+05:30
Agra,Uttar Pradesh,27.1767,78.0081,26.2,59,0.0,984.5,8.15,23.0,971,735.7,172.3,31.5,401.0,30.0,13.3,4,5,7,1,2026-06-16T05:17:55.470581+05:30
Varanasi,Uttar Pradesh,25.3176,82.9739,31.1,56,0.0,993.3,8.8,37.4,155,112.2,68.2,45.0,596.0,21.0,13.2,0,5,7,1,2026-06-16T05:17:55.470588+05:30
Prayagraj,Uttar Pradesh,25.4358,81.8463,30.7,54,0.0,992.0,8.75,36.7,152,65.0,45.5,36.5,305.0,20.0,9.2,0,5,7,1,2026-06-16T05:17:55.470595+05:30
Gorakhpur,Uttar Pradesh,26.7606,83.3732,26.6,83,0.0,993.3,8.7,27.4,152,96.9,67.1,30.3,583.0,42.0,11.2,7,5,7,1,2026-06-16T05:17:55.470604+05:30
Bareilly,Uttar Pradesh,28.367,79.4304,24.3,81,0.0,983.5,8.15,26.3,155,243.1,100.8,43.5,386.0,23.0,13.1,3,5,7,1,2026-06-16T05:17:55.470610+05:30
Aligarh,Uttar Pradesh,27.8974,78.088,24.5,74,0.0,982.1,7.95,20.2,609,637.0,165.8,66.4,361.0,1.0,15.1,3,5,7,1,2026-06-16T05:17:55.470616+05:30
Moradabad,Uttar Pradesh,28.8386,78.7733,24.7,73,0.0,980.7,7.95,29.9,169,353.9,133.6,53.4,508.0,8.0,12.4,3,5,7,1,2026-06-16T05:17:55.470622+05:30
Saharanpur,Uttar Pradesh,29.9637,77.546,23.8,90,0.0,972.7,7.55,20.9,153,131.8,83.8,51.8,697.0,0.0,8.7,3,5,7,1,2026-06-16T05:17:55.470628+05:30
Jhansi,Uttar Pradesh,25.4484,78.5685,27.4,56,0.0,974.7,8.5,26.3,97,39.3,21.1,6.1,213.0,64.0,4.2,4,5,7,1,2026-06-16T05:17:58.700081+05:30
Surat,Gujarat,21.1702,72.8311,29.1,76,0.0,1004.7,7.6,46.8,71,36.2,20.5,18.3,312.0,31.0,30.9,7,5,4,1,2026-06-16T05:17:58.700115+05:30
Vadodara,Gujarat,22.3072,73.1812,29.3,69,0.0,1002.0,8.0,52.6,68,27.4,16.1,8.5,129.0,35.0,5.8,7,5,4,1,2026-06-16T05:17:58.700126+05:30
Rajkot,Gujarat,22.3039,70.8022,27.9,79,0.0,991.6,7.55,46.4,59,27.0,13.5,4.7,95.0,39.0,3.7,7,5,7,1,2026-06-16T05:17:58.700134+05:30
Thane,Maharashtra,19.2183,72.9781,28.8,78,0.0,1006.5,7.7,41.8,59,39.3,17.5,6.0,138.0,45.0,3.5,7,5,4,1,2026-06-16T05:17:58.700142+05:30
Nagpur,Maharashtra,21.1458,79.0882,28.6,55,0.0,970.5,8.9,56.2,116,61.7,36.6,13.4,283.0,47.0,5.2,4,5,7,1,2026-06-16T05:17:58.700149+05:30
Nashik,Maharashtra,19.9975,73.7898,24.1,89,0.0,944.4,8.05,43.9,52,24.1,12.0,5.5,118.0,38.0,1.8,3,5,7,1,2026-06-16T05:17:58.700157+05:30
Aurangabad,Maharashtra,19.8762,75.3433,24.9,79,0.0,942.9,8.95,54.0,57,16.2,9.9,7.4,124.0,37.0,5.9,3,5,7,1,2026-06-16T05:17:58.700164+05:30
Solapur,Maharashtra,17.6599,75.9064,25.8,71,0.0,956.2,8.9,44.6,58,18.6,12.0,7.3,141.0,42.0,5.4,7,5,7,1,2026-06-16T05:17:58.700172+05:30
Kolhapur,Maharashtra,16.705,74.2433,24.3,88,0.0,947.2,7.3,46.1,54,19.7,12.7,8.4,137.0,32.0,3.2,3,5,7,1,2026-06-16T05:17:58.700179+05:30
Goa,Goa,15.2993,74.124,25.6,91,0.0,997.6,8.65,28.8,56,29.6,17.1,6.6,428.0,41.0,2.3,7,5,7,1,2026-06-16T05:17:58.700186+05:30
Jodhpur,Rajasthan,26.2389,73.0243,29.8,64,0.0,979.5,8.45,37.8,148,312.0,77.3,2.8,114.0,51.0,2.7,7,5,7,1,2026-06-16T05:17:58.700192+05:30
Udaipur,Rajasthan,24.5854,73.7125,25.1,77,0.0,943.8,8.8,34.9,66,32.6,17.5,3.6,113.0,49.0,2.3,7,5,7,1,2026-06-16T05:17:58.700199+05:30
Kota,Rajasthan,25.2138,75.8648,28.2,64,0.0,975.5,8.4,32.0,89,46.8,27.3,7.8,160.0,51.0,4.7,7,5,7,1,2026-06-16T05:17:58.700205+05:30
Bikaner,Rajasthan,28.0229,73.3119,30.8,55,0.0,977.3,8.45,46.8,143,156.5,45.1,2.8,118.0,49.0,2.5,0,5,7,1,2026-06-16T05:17:58.700212+05:30
Ajmer,Rajasthan,26.4499,74.6399,27.2,63,0.0,951.7,8.3,40.7,85,49.2,21.8,5.9,144.0,51.0,4.1,7,5,7,1,2026-06-16T05:17:58.700219+05:30
Gwalior,Madhya Pradesh,26.2183,78.1828,27.4,53,0.0,979.7,4.75,31.7,160,23.7,15.7,5.8,179.0,56.0,3.7,4,5,3,1,2026-06-16T05:17:58.700225+05:30
Indore,Madhya Pradesh,22.7196,75.8577,26.2,77,0.0,946.1,8.6,45.0,86,30.9,20.4,8.0,163.0,48.0,10.1,7,5,7,1,2026-06-16T05:17:58.700232+05:30
Bhopal,Madhya Pradesh,23.2599,77.4126,26.4,70,0.0,951.1,8.65,36.0,97,58.1,31.8,14.7,261.0,45.0,3.0,7,5,7,1,2026-06-16T05:17:58.700239+05:30
Jabalpur,Madhya Pradesh,23.1815,79.9864,26.2,73,0.0,958.5,8.85,27.0,101,43.7,29.3,15.2,359.0,38.0,3.6,7,5,7,1,2026-06-16T05:17:58.700245+05:30
Ujjain,Madhya Pradesh,23.1765,75.7885,26.5,75,0.0,951.6,8.55,40.3,82,31.1,19.8,7.2,157.0,44.0,11.0,7,5,7,1,2026-06-16T05:17:58.700253+05:30
Visakhapatnam,Andhra Pradesh,17.6868,83.2185,28.9,91,0.0,999.3,8.6,37.4,162,98.0,82.2,48.7,1537.0,36.0,74.8,7,5,7,1,2026-06-16T05:17:58.700260+05:30
Vijayawada,Andhra Pradesh,16.5062,80.648,28.7,74,0.0,998.1,4.65,22.0,154,135.0,105.0,38.0,527.0,29.0,10.8,7,5,3,1,2026-06-16T05:17:58.700266+05:30
Guntur,Andhra Pradesh,16.3067,80.4365,28.0,74,0.0,999.7,8.55,37.8,155,148.5,117.1,58.9,322.0,1.0,13.2,7,5,7,1,2026-06-16T05:17:58.700273+05:30
Nellore,Andhra Pradesh,14.4426,79.9865,29.4,60,0.0,1003.0,8.35,39.6,92,59.6,42.4,20.3,228.0,46.0,9.7,4,5,4,1,2026-06-16T05:17:58.700280+05:30
Kurnool,Andhra Pradesh,15.8281,78.0373,27.1,62,0.0,975.0,8.95,38.5,78,25.1,19.4,15.7,171.0,35.0,4.6,7,5,7,1,2026-06-16T05:17:58.700288+05:30
Kakinada,Andhra Pradesh,16.9891,82.2475,28.9,87,0.0,1003.0,9.0,32.0,128,82.9,58.4,17.7,775.0,56.0,7.7,7,5,4,1,2026-06-16T05:17:58.700294+05:30
Tirupati,Andhra Pradesh,13.6288,79.4192,27.3,64,0.0,988.5,7.6,30.2,96,56.7,42.8,38.9,168.0,9.0,4.9,7,5,7,1,2026-06-16T05:17:58.700301+05:30
Warangal,Telangana,17.9689,79.5941,27.4,65,0.0,975.0,8.65,34.2,152,153.2,100.4,48.8,297.0,0.0,9.0,7,5,7,1,2026-06-16T05:17:58.700308+05:30
Nizamabad,Telangana,18.6725,78.0941,27.7,51,0.0,962.5,8.9,33.1,99,40.6,27.9,14.5,188.0,41.0,5.1,4,5,7,1,2026-06-16T05:17:58.700314+05:30
Mysore,Karnataka,12.2958,76.6396,20.3,98,0.0,927.7,9.0,32.8,57,20.7,14.3,12.0,240.0,31.0,2.5,3,5,7,1,2026-06-16T05:17:58.700321+05:30
Mangalore,Karnataka,12.9141,74.856,26.2,95,0.0,1006.8,8.5,45.0,56,25.8,15.2,7.5,273.0,28.0,2.3,7,5,4,1,2026-06-16T05:17:58.700327+05:30
Hubli-Dharwad,Karnataka,15.3647,75.124,22.0,97,0.0,939.9,8.1,48.2,48,20.3,10.4,5.9,145.0,35.0,1.8,3,5,7,1,2026-06-16T05:17:58.700334+05:30
Belgaum,Karnataka,15.8497,74.4977,21.6,99,0.0,924.8,5.75,43.6,52,21.4,12.4,6.8,125.0,36.0,1.2,3,5,3,1,2026-06-16T05:18:01.932783+05:30
Coimbatore,Tamil Nadu,11.0168,76.9558,23.6,99,0.0,960.8,8.75,41.0,62,28.3,18.1,10.5,208.0,30.0,3.6,3,5,7,1,2026-06-16T05:18:01.932818+05:30
Madurai,Tamil Nadu,9.9252,78.1198,28.0,68,0.0,991.7,8.55,36.7,89,39.3,28.0,26.1,125.0,13.0,5.3,7,5,7,1,2026-06-16T05:18:01.932829+05:30
Trichy,Tamil Nadu,10.7905,78.7047,28.6,69,0.0,998.3,8.1,37.8,80,36.7,25.4,17.2,148.0,36.0,5.5,7,5,7,1,2026-06-16T05:18:01.932838+05:30
Salem,Tamil Nadu,11.6643,78.146,25.3,87,0.0,976.4,8.3,28.8,76,42.6,28.1,21.6,314.0,28.0,6.7,7,5,7,1,2026-06-16T05:18:01.932845+05:30
Tirunelveli,Tamil Nadu,8.7139,77.7567,28.4,71,0.0,1001.7,8.65,26.3,55,18.3,12.5,7.8,126.0,30.0,2.8,7,5,4,1,2026-06-16T05:18:01.932853+05:30
Vellore,Tamil Nadu,12.9165,79.1325,26.5,63,0.0,982.3,2.75,36.4,103,56.0,42.1,37.7,330.0,11.0,6.4,7,5,3,1,2026-06-16T05:18:01.932860+05:30
Erode,Tamil Nadu,11.341,77.7172,25.7,88,0.0,988.1,8.6,30.2,70,30.6,20.9,15.3,210.0,28.0,4.2,7,5,7,1,2026-06-16T05:18:01.932868+05:30
Kochi,Kerala,9.9312,76.2673,24.2,97,0.1,1009.5,5.9,29.9,67,18.5,10.9,8.2,170.0,33.0,3.3,6,0,0,1,2026-06-16T05:18:01.932875+05:30
Thiruvananthapuram,Kerala,8.5241,76.9366,24.6,96,0.0,1008.3,7.7,38.5,56,28.5,14.4,4.1,241.0,50.0,2.2,3,0,4,1,2026-06-16T05:18:01.932882+05:30
Kozhikode,Kerala,11.2588,75.7804,26.1,90,0.0,1007.3,7.75,41.0,54,28.1,14.1,3.2,202.0,51.0,1.6,7,5,4,1,2026-06-16T05:18:01.932889+05:30
Thrissur,Kerala,10.5276,76.2144,24.7,99,0.0,1007.4,7.15,32.0,74,22.3,14.7,7.5,212.0,33.0,2.7,3,5,4,1,2026-06-16T05:18:01.932897+05:30
Kannur,Kerala,11.8745,75.3704,26.8,90,0.0,1006.9,8.3,42.5,54,22.9,13.8,7.9,167.0,28.0,2.3,7,5,4,1,2026-06-16T05:18:01.932905+05:30
Patna,Bihar,25.5941,85.1376,28.0,79,0.0,996.6,8.9,24.5,159,112.7,81.5,39.0,911.0,33.0,17.4,7,5,7,1,2026-06-16T05:18:01.932911+05:30
Gaya,Bihar,24.7914,85.0002,27.6,76,0.0,989.8,8.9,25.2,151,89.2,59.5,38.6,578.0,18.0,7.8,7,5,7,1,2026-06-16T05:18:01.932918+05:30
Muzaffarpur,Bihar,26.1209,85.3647,27.2,86,0.0,996.8,8.85,28.4,157,85.0,69.8,21.2,818.0,65.0,15.1,7,5,7,1,2026-06-16T05:18:01.932925+05:30
Bhagalpur,Bihar,25.2425,87.0117,28.0,90,0.0,997.8,8.85,26.3,155,76.8,71.9,15.3,724.0,78.0,21.3,7,5,7,1,2026-06-16T05:18:01.932932+05:30
Ranchi,Jharkhand,23.3441,85.3096,24.8,67,0.0,934.7,9.25,26.3,125,96.4,63.6,29.2,458.0,58.0,19.0,3,5,7,1,2026-06-16T05:18:01.932939+05:30
Jamshedpur,Jharkhand,22.8046,86.2029,27.3,80,0.0,987.6,9.1,22.3,152,110.1,95.9,36.7,319.0,42.0,26.5,7,5,7,1,2026-06-16T05:18:01.932945+05:30
Dhanbad,Jharkhand,23.7957,86.4304,27.0,86,0.0,976.6,9.1,27.0,160,116.4,106.4,61.7,1061.0,32.0,202.5,7,5,7,1,2026-06-16T05:18:01.932952+05:30
Bokaro,Jharkhand,23.6693,86.1511,25.6,90,0.0,980.0,9.1,26.3,160,161.1,132.7,85.4,1195.0,0.0,157.8,7,5,7,1,2026-06-16T05:18:01.932959+05:30
Bhubaneswar,Odisha,20.2961,85.8245,28.0,99,0.0,998.8,9.05,42.1,124,48.1,39.7,18.1,441.0,67.0,7.3,7,5,7,1,2026-06-16T05:18:01.932966+05:30
Cuttack,Odisha,20.4625,85.8828,28.2,97,0.0,1000.7,9.1,39.2,124,48.1,39.7,18.1,502.0,67.0,7.3,7,5,4,1,2026-06-16T05:18:01.932972+05:30
Rourkela,Odisha,22.2604,84.8536,27.4,85,0.0,981.7,9.05,43.2,137,99.9,75.4,25.2,402.0,67.0,31.6,7,5,7,1,2026-06-16T05:18:01.932979+05:30
Raipur,Chhattisgarh,21.2514,81.6296,28.9,63,0.0,971.3,8.95,51.1,146,80.6,59.0,39.2,914.0,36.0,35.1,7,5,7,1,2026-06-16T05:18:01.932985+05:30
Bhilai,Chhattisgarh,21.1938,81.3509,28.6,69,0.0,971.5,8.95,52.2,147,113.2,78.9,69.6,1254.0,10.0,76.7,7,5,7,1,2026-06-16T05:18:01.932991+05:30
Guwahati,Assam,26.1158,91.7086,25.4,99,0.0,999.6,8.15,23.4,76,39.6,35.7,14.0,400.0,33.0,3.1,7,5,7,1,2026-06-16T05:18:01.932998+05:30
Agartala,Tripura,23.8315,91.2868,25.8,94,0.0,1004.0,7.8,26.3,100,38.5,35.5,18.8,229.0,23.0,2.9,7,5,4,1,2026-06-16T05:18:01.933004+05:30
Shillong,Meghalaya,25.5788,91.8933,18.7,91,0.0,855.5,8.4,19.8,51,26.4,22.8,4.5,246.0,73.0,2.1,3,10,7,1,2026-06-16T05:18:01.933011+05:30
Imphal,Manipur,24.817,93.9368,22.7,94,0.0,921.8,8.6,31.0,70,25.1,21.8,9.5,310.0,38.0,3.2,3,5,7,1,2026-06-16T05:18:01.933017+05:30
Aizawl,Mizoram,23.7271,92.7176,19.1,98,0.0,890.5,7.8,23.8,53,16.9,14.5,5.5,184.0,38.0,1.4,3,10,7,1,2026-06-16T05:18:01.933024+05:30
Kohima,Nagaland,25.6701,94.1077,19.0,98,0.1,854.2,7.15,25.2,47,15.9,12.3,4.9,256.0,51.0,1.1,6,10,7,1,2026-06-16T05:18:01.933031+05:30
Gangtok,Sikkim,27.3314,88.6138,16.6,89,0.0,835.5,8.85,37.4,62,20.0,17.2,10.4,743.0,88.0,2.1,3,10,7,0,2026-06-16T05:18:01.933037+05:30
Siliguri,West Bengal,26.7271,88.3953,24.1,98,0.0,991.1,8.75,19.8,109,52.2,44.9,18.3,491.0,82.0,4.5,3,5,7,1,2026-06-16T05:18:05.175647+05:30
Durgapur,West Bengal,23.5204,87.3119,27.1,97,0.0,991.7,9.0,33.8,169,86.8,81.7,32.1,791.0,57.0,43.7,7,5,7,1,2026-06-16T05:18:05.175683+05:30
Asansol,West Bengal,23.6739,86.9524,27.2,93,0.0,990.2,9.05,37.1,159,78.7,72.4,28.8,535.0,61.0,38.6,7,5,7,1,2026-06-16T05:18:05.175694+05:30
Pondicherry,Puducherry,11.9139,79.8145,28.6,72,0.0,1006.1,7.15,36.4,89,28.1,17.8,9.7,224.0,62.0,7.8,7,5,4,1,2026-06-16T05:18:05.175703+05:30
Port Blair,Andaman and Nicobar Islands,11.6234,92.7265,25.6,90,0.2,1008.4,7.95,43.9,33,13.0,7.3,0.3,89.0,44.0,0.4,10,0,4,1,2026-06-16T05:18:05.175711+05:30
Haridwar,Uttarakhand,29.9457,78.1642,22.8,87,0.0,970.9,7.6,27.0,114,76.6,52.0,40.5,310.0,8.0,5.5,3,5,7,1,2026-06-16T05:18:05.175719+05:30
Rishikesh,Uttarakhand,30.0869,78.2676,20.8,89,0.0,963.6,7.7,22.7,72,48.7,26.1,21.4,303.0,64.0,4.8,3,5,7,1,2026-06-16T05:18:05.175726+05:30
Nainital,Uttarakhand,29.3919,79.4542,15.3,68,0.0,803.7,7.85,31.0,84,35.5,32.1,34.6,267.0,25.0,3.0,3,5,7,0,2026-06-16T05:18:05.175733+05:30
Mussoorie,Uttarakhand,30.4599,78.0664,16.3,64,0.0,801.8,7.45,37.8,67,25.3,25.3,40.8,217.0,5.0,3.7,3,5,7,0,2026-06-16T05:18:05.175742+05:30
Dharamshala,Himachal Pradesh,32.219,76.3234,20.8,56,0.0,867.2,8.55,41.0,30,10.2,6.9,11.2,184.0,62.0,0.0,0,5,7,0,2026-06-16T05:18:05.175749+05:30
Dalhousie,Himachal Pradesh,32.5387,75.971,11.3,85,0.0,800.0,8.55,31.0,65,25.1,22.3,26.1,234.0,27.0,0.4,3,10,7,0,2026-06-16T05:18:05.175757+05:30
Patiala,Punjab,30.3398,76.3869,25.2,83,0.0,974.9,7.7,28.4,366,138.8,84.5,32.0,463.0,33.0,12.3,7,5,7,1,2026-06-16T05:18:05.175765+05:30
Bhatinda,Punjab,30.211,74.9455,28.1,64,0.0,980.0,8.3,23.4,156,134.1,56.9,24.4,263.0,47.0,7.2,7,5,7,1,2026-06-16T05:18:05.175772+05:30
Rohtak,Haryana,28.8955,76.6066,24.9,75,0.0,978.5,7.8,19.1,450,750.6,173.7,68.6,193.0,0.0,25.1,3,5,7,1,2026-06-16T05:18:05.175779+05:30
Panipat,Haryana,29.3909,76.9635,25.2,79,0.0,977.0,7.65,24.8,647,800.9,186.7,56.8,421.0,0.0,9.1,7,5,7,1,2026-06-16T05:18:05.175786+05:30
Mathura,Uttar Pradesh,27.4924,77.6737,24.0,77,0.0,983.6,8.0,23.8,761,570.0,162.1,41.1,409.0,21.0,11.8,3,5,7,1,2026-06-16T05:18:05.175794+05:30
Vrindavan,Uttar Pradesh,27.5823,77.7027,24.1,76,0.0,984.0,7.95,23.4,761,570.0,162.1,41.1,395.0,21.0,11.8,3,5,7,1,2026-06-16T05:18:05.175801+05:30
Ayodhya,Uttar Pradesh,26.7922,82.1998,26.7,79,0.0,991.3,8.45,26.3,159,158.3,96.6,63.1,419.0,0.0,12.1,7,5,7,1,2026-06-16T05:18:05.175808+05:30
Ratlam,Madhya Pradesh,23.3315,75.0367,26.2,80,0.0,952.5,8.5,39.2,79,29.6,18.4,7.9,157.0,39.0,12.3,7,5,7,1,2026-06-16T05:18:05.175815+05:30
Sagar,Madhya Pradesh,23.8388,78.7378,27.9,54,0.0,947.8,8.75,34.9,96,37.6,22.4,11.8,181.0,50.0,2.2,4,5,7,1,2026-06-16T05:18:05.175821+05:30
Satna,Madhya Pradesh,24.6005,80.8322,29.0,53,0.0,968.3,8.8,34.2,92,43.1,24.7,9.4,182.0,58.0,3.6,4,5,7,1,2026-06-16T05:18:05.175828+05:30
Akola,Maharashtra,20.7002,77.0082,29.8,55,0.0,973.4,8.8,43.2,78,28.2,18.2,9.5,132.0,49.0,10.7,4,5,7,1,2026-06-16T05:18:05.175836+05:30
Amravati,Maharashtra,20.9374,77.7796,29.6,55,0.0,965.2,8.8,54.7,93,30.9,20.6,12.0,185.0,52.0,11.0,4,5,7,1,2026-06-16T05:18:05.175844+05:30
Latur,Maharashtra,18.4088,76.5604,25.2,70,0.0,938.3,8.9,33.5,64,22.4,15.0,6.6,153.0,54.0,6.4,7,5,7,1,2026-06-16T05:18:05.175851+05:30
Nanded,Maharashtra,19.1383,77.3091,28.5,55,0.0,966.8,8.7,35.6,71,24.6,16.6,7.6,143.0,45.0,3.7,4,5,7,1,2026-06-16T05:18:05.175858+05:30
Gulbarga,Karnataka,17.3297,76.8343,26.0,68,0.0,956.9,8.9,41.0,68,19.5,13.3,7.0,155.0,53.0,6.0,7,5,7,1,2026-06-16T05:18:05.175864+05:30
Bidar,Karnataka,17.9104,77.5199,25.6,61,0.0,933.5,6.85,34.2,89,23.6,17.2,10.6,217.0,52.0,5.7,7,5,7,1,2026-06-16T05:18:05.175870+05:30
Hospet,Karnataka,15.2689,76.3909,23.8,86,0.0,954.9,6.45,33.8,59,19.4,11.1,8.1,157.0,34.0,2.2,3,5,7,1,2026-06-16T05:18:05.175877+05:30
Tirupur,Tamil Nadu,11.1085,77.3411,24.6,93,0.0,974.3,8.8,47.9,72,34.7,23.6,18.5,166.0,21.0,4.7,3,5,7,1,2026-06-16T05:18:05.175883+05:30
Alappuzha,Kerala,9.4981,76.3388,24.6,95,0.1,1009.6,7.55,33.8,63,26.2,13.4,4.9,175.0,51.0,2.5,6,0,4,1,2026-06-16T05:18:05.175889+05:30
Munnar,Kerala,10.0889,77.0595,16.6,85,0.0,855.6,7.5,29.5,55,10.1,8.2,8.8,127.0,21.0,1.7,3,10,7,0,2026-06-16T05:18:05.175897+05:30
Silchar,Assam,24.8333,92.7789,24.9,98,0.3,1003.6,8.95,26.3,99,60.3,53.9,19.5,273.0,47.0,5.8,6,5,4,1,2026-06-16T05:18:05.175904+05:30
Dibrugarh,Assam,27.4728,94.912,25.2,96,0.0,993.8,8.8,17.3,60,15.4,14.0,11.8,266.0,51.0,1.0,7,5,7,1,2026-06-16T05:18:05.175910+05:30
