city,state,latitude,longitude,temp,humidity,rain,pressure,uv_index,wind_gusts,aqi,pm10,pm2_5,mosquito_risk,arthritis_risk,migraine_risk,frizz_risk,updated_at
Delhi,Delhi,28.6139,77.209,18.1,74,0.0,989.0,7.15,41.8,151,407.0,81.0,3,5,7,0,2026-04-10T05:09:48.282361+05:30
Mumbai,Maharashtra,19.076,72.8777,28.3,72,0.0,1010.4,7.95,25.9,91,129.9,34.5,7,0,4,1,2026-04-10T05:09:48.282394+05:30
Bangalore,Karnataka,12.9716,77.5946,22.9,86,0.0,912.7,9.65,43.2,78,30.7,25.7,3,5,7,1,2026-04-10T05:09:48.282408+05:30
Hyderabad,Telangana,17.385,78.4867,26.0,73,0.0,954.5,9.15,18.7,95,49.0,42.8,7,5,7,1,2026-04-10T05:09:48.282418+05:30
Chennai,Tamil Nadu,13.0827,80.2707,28.8,87,0.0,1007.9,9.4,34.6,65,24.4,18.6,7,5,4,1,2026-04-10T05:09:48.282426+05:30
Kolkata,West Bengal,22.5726,88.3639,21.7,100,0.0,1009.3,8.7,27.0,129,100.8,88.7,3,0,4,1,2026-04-10T05:09:48.282438+05:30
Pune,Maharashtra,18.5204,73.8567,21.5,80,0.0,950.1,8.55,31.7,97,126.7,53.2,3,5,7,1,2026-04-10T05:09:48.282447+05:30
Ahmedabad,Gujarat,23.0225,72.5714,25.1,58,0.0,1005.7,8.0,33.8,90,55.5,29.9,4,5,4,1,2026-04-10T05:09:48.282453+05:30
Jaipur,Rajasthan,26.9124,75.7873,19.7,48,0.0,965.2,7.75,27.7,133,417.2,65.0,0,5,7,0,2026-04-10T05:09:48.282461+05:30
Lucknow,Uttar Pradesh,26.8467,80.9462,19.3,65,0.0,998.5,7.65,43.9,102,86.4,34.8,3,5,7,0,2026-04-10T05:09:48.282467+05:30
Kanpur,Uttar Pradesh,26.4499,80.3319,19.5,66,0.0,997.1,7.65,38.5,128,173.7,44.4,3,5,7,0,2026-04-10T05:09:48.282473+05:30
Chandigarh,Chandigarh,30.7333,76.7794,15.2,78,0.0,974.2,7.1,43.9,65,19.8,19.7,3,5,7,0,2026-04-10T05:09:48.282480+05:30
Srinagar,Jammu and Kashmir,34.0837,74.7973,4.1,89,0.0,842.1,8.1,13.0,56,13.3,11.9,3,10,7,0,2026-04-10T05:09:48.282487+05:30
Jammu,Jammu and Kashmir,32.7266,74.857,13.0,81,0.0,979.2,7.75,33.8,71,23.4,22.3,3,10,7,0,2026-04-10T05:09:48.282493+05:30
Amritsar,Punjab,31.634,74.8723,14.8,85,0.0,987.9,7.7,29.9,84,35.9,31.8,3,10,7,0,2026-04-10T05:09:48.282500+05:30
Ludhiana,Punjab,30.901,75.8573,16.0,80,0.0,985.4,7.3,34.9,81,24.6,22.8,3,5,7,0,2026-04-10T05:09:48.282505+05:30
Jalandhar,Punjab,31.326,75.5762,15.2,85,0.0,986.7,7.45,32.8,77,42.0,33.1,3,10,7,0,2026-04-10T05:09:48.282513+05:30
Dehradun,Uttarakhand,30.6284,78.0322,7.5,67,0.0,828.7,7.5,30.2,35,7.9,6.9,3,5,7,0,2026-04-10T05:09:48.282519+05:30
Shimla,Himachal Pradesh,31.1048,77.1734,5.4,77,0.0,782.0,7.6,51.8,58,14.5,14.1,3,5,7,0,2026-04-10T05:09:48.282524+05:30
Manali,Himachal Pradesh,32.2396,77.1887,10.0,43,0.0,817.7,9.85,28.4,52,12.6,11.9,0,5,7,1,2026-04-10T05:09:48.282531+05:30
Gurgaon,Haryana,28.4595,77.0266,16.1,84,0.0,987.5,7.25,39.6,474,1389.5,182.5,3,10,7,0,2026-04-10T05:09:48.282537+05:30
Noida,Uttar Pradesh,28.5355,77.391,18.1,75,0.0,990.5,7.15,41.0,474,1389.5,182.5,3,5,7,0,2026-04-10T05:09:48.282543+05:30
Ghaziabad,Uttar Pradesh,28.6692,77.4538,16.9,78,0.0,988.6,7.15,41.4,119,257.0,55.6,3,5,7,0,2026-04-10T05:09:48.282549+05:30
Faridabad,Haryana,28.4089,77.3178,17.4,77,0.0,989.8,7.2,40.0,474,1389.5,182.5,3,5,7,0,2026-04-10T05:09:48.282555+05:30
Meerut,Uttar Pradesh,28.9845,77.7064,15.7,80,0.0,986.9,7.05,44.3,119,257.0,55.6,3,5,7,0,2026-04-10T05:09:48.282561+05:30
Agra,Uttar Pradesh,27.1767,78.0081,18.1,74,0.0,993.7,7.5,39.6,320,672.4,96.2,3,5,7,0,2026-04-10T05:09:48.282567+05:30
Varanasi,Uttar Pradesh,25.3176,82.9739,19.5,64,0.0,1002.6,8.2,40.3,96,63.3,31.7,3,5,4,0,2026-04-10T05:09:48.282575+05:30
Prayagraj,Uttar Pradesh,25.4358,81.8463,21.3,62,0.0,1001.4,8.1,35.3,89,101.3,31.3,3,5,4,0,2026-04-10T05:09:48.282581+05:30
Gorakhpur,Uttar Pradesh,26.7606,83.3732,18.6,59,0.0,1000.8,8.05,51.5,91,31.9,19.0,0,5,4,0,2026-04-10T05:09:48.282587+05:30
Bareilly,Uttar Pradesh,28.367,79.4304,16.3,80,0.0,991.7,7.4,40.0,72,29.4,24.6,3,5,7,0,2026-04-10T05:09:48.282593+05:30
Aligarh,Uttar Pradesh,27.8974,78.088,16.3,81,0.0,991.4,7.3,43.6,145,532.7,81.0,3,10,7,0,2026-04-10T05:09:48.282600+05:30
Moradabad,Uttar Pradesh,28.8386,78.7733,15.8,80,0.0,988.6,7.2,41.4,81,31.7,28.8,3,5,7,0,2026-04-10T05:09:48.282606+05:30
Saharanpur,Uttar Pradesh,29.9637,77.546,14.6,80,0.0,980.7,6.85,56.5,83,56.6,35.3,3,5,7,0,2026-04-10T05:09:48.282611+05:30
Jhansi,Uttar Pradesh,25.4484,78.5685,20.2,69,0.0,983.1,8.0,34.2,94,207.7,38.6,3,5,7,0,2026-04-10T05:09:51.565679+05:30
Surat,Gujarat,21.1702,72.8311,25.2,83,0.0,1009.3,7.75,22.0,115,100.6,50.6,7,0,4,1,2026-04-10T05:09:51.565700+05:30
Vadodara,Gujarat,22.3072,73.1812,24.9,74,0.0,1007.7,8.0,28.8,75,50.5,35.7,3,5,4,1,2026-04-10T05:09:51.565709+05:30
Rajkot,Gujarat,22.3039,70.8022,24.1,82,0.0,997.4,7.75,22.3,72,48.3,21.0,3,5,7,1,2026-04-10T05:09:51.565717+05:30
Thane,Maharashtra,19.2183,72.9781,25.1,73,0.0,1010.0,7.95,37.1,91,129.9,34.5,7,0,4,1,2026-04-10T05:09:51.565723+05:30
Nagpur,Maharashtra,21.1458,79.0882,24.6,51,0.0,975.7,8.7,25.6,77,35.3,21.8,0,5,7,0,2026-04-10T05:09:51.565730+05:30
Nashik,Maharashtra,19.9975,73.7898,21.7,61,0.0,947.6,8.2,27.7,79,99.4,36.1,3,5,7,0,2026-04-10T05:09:51.565736+05:30
Aurangabad,Maharashtra,19.8762,75.3433,24.1,65,0.0,946.3,8.85,28.4,65,42.8,24.6,3,5,7,1,2026-04-10T05:09:51.565742+05:30
Solapur,Maharashtra,17.6599,75.9064,25.6,51,0.0,958.9,8.95,23.8,85,39.3,25.4,4,5,7,0,2026-04-10T05:09:51.565749+05:30
Kolhapur,Maharashtra,16.705,74.2433,18.9,98,0.0,949.0,9.0,33.8,82,70.5,34.6,3,10,7,1,2026-04-10T05:09:51.565755+05:30
Goa,Goa,15.2993,74.124,25.7,89,0.0,999.0,9.0,36.7,67,54.2,23.0,7,5,7,1,2026-04-10T05:09:51.565761+05:30
Jodhpur,Rajasthan,26.2389,73.0243,20.2,46,0.0,988.3,8.0,24.5,66,107.6,21.7,0,5,7,0,2026-04-10T05:09:51.565767+05:30
Udaipur,Rajasthan,24.5854,73.7125,20.9,39,0.0,950.9,8.55,29.5,60,27.1,6.9,0,5,7,0,2026-04-10T05:09:51.565772+05:30
Kota,Rajasthan,25.2138,75.8648,18.4,69,0.0,983.9,8.0,19.4,85,35.2,18.2,3,5,7,0,2026-04-10T05:09:51.565778+05:30
Bikaner,Rajasthan,28.0229,73.3119,21.5,50,0.0,988.3,7.85,22.0,73,28.2,20.7,0,5,7,0,2026-04-10T05:09:51.565784+05:30
Ajmer,Rajasthan,26.4499,74.6399,17.7,53,0.0,959.5,7.95,20.9,66,208.2,43.7,0,5,7,0,2026-04-10T05:09:51.565789+05:30
Gwalior,Madhya Pradesh,26.2183,78.1828,21.4,68,0.0,989.0,7.75,36.7,118,275.7,53.0,3,5,7,0,2026-04-10T05:09:51.565795+05:30
Indore,Madhya Pradesh,22.7196,75.8577,20.2,55,0.0,951.3,8.45,28.4,79,44.2,24.4,0,5,7,0,2026-04-10T05:09:51.565800+05:30
Bhopal,Madhya Pradesh,23.2599,77.4126,21.2,53,0.0,957.5,8.4,28.8,73,56.9,24.6,0,5,7,0,2026-04-10T05:09:51.565806+05:30
Jabalpur,Madhya Pradesh,23.1815,79.9864,21.2,57,0.0,965.5,8.55,22.7,87,52.5,22.8,0,5,7,0,2026-04-10T05:09:51.565811+05:30
Ujjain,Madhya Pradesh,23.1765,75.7885,20.3,50,0.0,957.5,8.35,28.8,75,39.9,21.0,0,5,7,0,2026-04-10T05:09:51.565817+05:30
Visakhapatnam,Andhra Pradesh,17.6868,83.2185,27.3,94,0.0,1004.9,9.1,36.7,91,42.3,37.4,7,5,4,1,2026-04-10T05:09:51.565823+05:30
Vijayawada,Andhra Pradesh,16.5062,80.648,27.8,91,0.0,1004.0,9.2,34.6,86,26.7,22.8,7,5,4,1,2026-04-10T05:09:51.565828+05:30
Guntur,Andhra Pradesh,16.3067,80.4365,28.1,90,0.0,1005.1,9.2,37.1,88,25.0,21.4,7,5,4,1,2026-04-10T05:09:51.565835+05:30
Nellore,Andhra Pradesh,14.4426,79.9865,28.4,86,0.0,1006.9,9.3,32.0,76,22.8,20.6,7,5,4,1,2026-04-10T05:09:51.565841+05:30
Kurnool,Andhra Pradesh,15.8281,78.0373,28.2,80,0.0,977.8,9.2,24.5,77,35.7,32.9,7,5,7,1,2026-04-10T05:09:51.565848+05:30
Kakinada,Andhra Pradesh,16.9891,82.2475,26.6,96,0.0,1008.9,9.15,34.9,75,34.5,26.5,7,0,4,1,2026-04-10T05:09:51.565854+05:30
Tirupati,Andhra Pradesh,13.6288,79.4192,26.8,90,0.0,993.1,8.75,27.7,94,33.9,32.5,7,5,7,1,2026-04-10T05:09:51.565860+05:30
Warangal,Telangana,17.9689,79.5941,26.7,82,0.0,980.0,9.05,24.1,114,57.6,47.8,7,5,7,1,2026-04-10T05:09:51.565865+05:30
Nizamabad,Telangana,18.6725,78.0941,25.1,56,0.0,966.2,8.95,29.5,87,79.2,36.3,4,5,7,0,2026-04-10T05:09:51.565871+05:30
Mysore,Karnataka,12.2958,76.6396,22.9,90,0.0,929.3,9.55,28.4,58,34.8,25.7,3,5,7,1,2026-04-10T05:09:51.565876+05:30
Mangalore,Karnataka,12.9141,74.856,29.1,80,0.0,1007.3,9.1,31.7,70,43.2,20.5,7,5,4,1,2026-04-10T05:09:51.565882+05:30
Hubli-Dharwad,Karnataka,15.3647,75.124,21.4,89,0.0,941.6,9.2,40.3,66,45.2,19.4,3,5,7,1,2026-04-10T05:09:51.565888+05:30
Belgaum,Karnataka,15.8497,74.4977,19.2,94,0.0,926.2,9.25,36.0,73,76.1,24.5,3,10,7,1,2026-04-10T05:09:54.850391+05:30
Coimbatore,Tamil Nadu,11.0168,76.9558,24.1,90,0.0,962.6,9.5,41.0,54,33.5,24.2,3,5,7,1,2026-04-10T05:09:54.850419+05:30
Madurai,Tamil Nadu,9.9252,78.1198,26.8,72,0.0,993.4,9.4,37.4,95,37.4,35.5,7,5,7,1,2026-04-10T05:09:54.850431+05:30
Trichy,Tamil Nadu,10.7905,78.7047,26.7,83,0.0,1000.8,9.4,29.5,70,19.3,17.1,7,5,4,1,2026-04-10T05:09:54.850440+05:30
Salem,Tamil Nadu,11.6643,78.146,25.2,86,0.0,978.6,9.45,24.1,78,26.8,24.3,7,5,7,1,2026-04-10T05:09:54.850448+05:30
Tirunelveli,Tamil Nadu,8.7139,77.7567,25.8,80,0.0,1003.4,9.35,39.2,62,21.8,19.0,7,5,4,1,2026-04-10T05:09:54.850456+05:30
Vellore,Tamil Nadu,12.9165,79.1325,26.6,89,0.0,985.9,9.45,34.9,99,42.5,40.9,7,5,7,1,2026-04-10T05:09:54.850465+05:30
Erode,Tamil Nadu,11.341,77.7172,26.7,84,0.0,990.1,9.45,30.6,64,27.2,20.9,7,5,7,1,2026-04-10T05:09:54.850473+05:30
Kochi,Kerala,9.9312,76.2673,28.9,83,0.0,1008.9,9.25,33.5,67,27.4,25.2,7,0,4,1,2026-04-10T05:09:54.850481+05:30
Thiruvananthapuram,Kerala,8.5241,76.9366,28.4,81,0.0,1007.8,9.2,30.2,58,29.6,20.0,7,5,4,1,2026-04-10T05:09:54.850489+05:30
Kozhikode,Kerala,11.2588,75.7804,29.0,83,0.0,1008.3,9.15,30.2,71,54.1,22.8,7,0,4,1,2026-04-10T05:09:54.850496+05:30
Thrissur,Kerala,10.5276,76.2144,26.9,92,0.0,1007.4,9.2,39.6,74,42.3,33.5,7,5,4,1,2026-04-10T05:09:54.850504+05:30
Kannur,Kerala,11.8745,75.3704,27.5,84,0.0,1007.8,9.15,36.4,70,39.3,20.8,7,5,4,1,2026-04-10T05:09:54.850512+05:30
Patna,Bihar,25.5941,85.1376,20.9,51,0.0,1004.1,8.35,41.0,92,24.9,20.3,0,5,4,0,2026-04-10T05:09:54.850520+05:30
Gaya,Bihar,24.7914,85.0002,20.7,60,0.0,998.2,8.45,39.2,99,41.2,31.4,0,5,7,0,2026-04-10T05:09:54.850528+05:30
Muzaffarpur,Bihar,26.1209,85.3647,18.8,57,0.0,1003.7,8.35,40.0,89,24.3,21.1,0,5,4,0,2026-04-10T05:09:54.850536+05:30
Bhagalpur,Bihar,25.2425,87.0117,21.2,91,0.0,1004.3,8.4,34.6,120,49.7,43.8,3,5,4,1,2026-04-10T05:09:54.850543+05:30
Ranchi,Jharkhand,23.3441,85.3096,19.0,60,0.0,940.4,9.0,40.0,86,44.9,25.3,0,5,7,0,2026-04-10T05:09:54.850550+05:30
Jamshedpur,Jharkhand,22.8046,86.2029,23.3,91,0.0,994.6,8.85,19.4,133,112.2,80.1,3,5,7,1,2026-04-10T05:09:54.850558+05:30
Dhanbad,Jharkhand,23.7957,86.4304,20.3,75,0.0,983.1,8.75,36.4,154,115.5,94.5,3,5,7,0,2026-04-10T05:09:54.850566+05:30
Bokaro,Jharkhand,23.6693,86.1511,20.3,77,0.0,987.5,8.8,38.9,148,100.6,80.8,3,5,7,1,2026-04-10T05:09:54.850573+05:30
Bhubaneswar,Odisha,20.2961,85.8245,25.0,95,0.0,1005.1,9.0,29.9,111,71.2,65.2,7,5,4,1,2026-04-10T05:09:54.850580+05:30
Cuttack,Odisha,20.4625,85.8828,24.8,96,0.0,1007.2,9.0,25.9,111,71.2,65.2,3,5,4,1,2026-04-10T05:09:54.850588+05:30
Rourkela,Odisha,22.2604,84.8536,23.6,80,0.0,988.5,8.75,23.0,102,34.3,20.8,3,5,7,1,2026-04-10T05:09:54.850595+05:30
Raipur,Chhattisgarh,21.2514,81.6296,24.2,48,0.0,977.5,8.8,27.4,148,60.5,42.8,0,5,7,0,2026-04-10T05:09:54.850603+05:30
Bhilai,Chhattisgarh,21.1938,81.3509,23.3,53,0.0,977.8,8.8,25.6,136,49.1,35.7,0,5,7,0,2026-04-10T05:09:54.850609+05:30
Guwahati,Assam,26.1158,91.7086,20.5,90,0.0,1005.3,7.55,34.9,79,17.5,13.1,3,5,4,1,2026-04-10T05:09:54.850617+05:30
Agartala,Tripura,23.8315,91.2868,21.0,100,0.0,1010.1,8.55,25.2,151,92.4,90.6,3,0,4,1,2026-04-10T05:09:54.850625+05:30
Shillong,Meghalaya,25.5788,91.8933,10.8,93,0.0,855.1,6.45,48.6,76,15.7,11.7,3,10,7,0,2026-04-10T05:09:54.850632+05:30
Imphal,Manipur,24.817,93.9368,14.9,93,0.1,924.7,8.9,58.0,107,66.6,61.0,6,10,7,0,2026-04-10T05:09:54.850640+05:30
Aizawl,Mizoram,23.7271,92.7176,15.6,99,0.0,893.7,8.8,55.8,77,29.1,27.6,3,10,7,0,2026-04-10T05:09:54.850647+05:30
Kohima,Nagaland,25.6701,94.1077,12.2,86,0.0,854.3,8.75,58.3,74,30.7,26.1,3,10,7,0,2026-04-10T05:09:54.850654+05:30
Gangtok,Sikkim,27.3314,88.6138,10.3,82,0.0,835.0,8.05,16.9,69,14.7,11.7,3,10,7,0,2026-04-10T05:09:54.850662+05:30
Siliguri,West Bengal,26.7271,88.3953,16.6,69,0.0,996.2,6.05,29.5,78,40.6,35.4,3,5,7,0,2026-04-10T05:09:58.131832+05:30
Durgapur,West Bengal,23.5204,87.3119,22.6,95,0.0,998.5,8.7,24.5,153,114.8,90.3,3,5,7,1,2026-04-10T05:09:58.131859+05:30
Asansol,West Bengal,23.6739,86.9524,22.9,93,0.0,997.0,8.75,29.9,150,91.3,69.2,3,5,7,1,2026-04-10T05:09:58.131871+05:30
Pondicherry,Puducherry,11.9139,79.8145,27.5,94,0.0,1009.4,9.1,33.8,66,23.7,17.8,7,0,4,1,2026-04-10T05:09:58.131881+05:30
Port Blair,Andaman and Nicobar Islands,11.6234,92.7265,28.4,80,0.0,1008.6,8.6,19.1,32,8.7,6.2,7,0,4,1,2026-04-10T05:09:58.131890+05:30
Haridwar,Uttarakhand,29.9457,78.1642,13.4,86,0.0,978.9,6.95,49.7,66,28.3,26.8,3,10,7,0,2026-04-10T05:09:58.131899+05:30
Rishikesh,Uttarakhand,30.0869,78.2676,14.1,77,0.0,971.3,7.0,39.2,53,24.1,17.2,3,5,7,0,2026-04-10T05:09:58.131907+05:30
Nainital,Uttarakhand,29.3919,79.4542,12.6,47,0.0,805.5,7.9,64.4,57,20.9,13.9,0,5,7,0,2026-04-10T05:09:58.131915+05:30
Mussoorie,Uttarakhand,30.4599,78.0664,9.6,65,0.0,801.5,7.4,41.0,60,21.7,19.2,3,5,7,0,2026-04-10T05:09:58.131923+05:30
Dharamshala,Himachal Pradesh,32.219,76.3234,13.2,42,0.0,870.7,7.6,28.1,85,3.7,3.1,0,5,7,0,2026-04-10T05:09:58.131930+05:30
Dalhousie,Himachal Pradesh,32.5387,75.971,8.6,49,0.0,803.1,7.85,22.0,60,21.3,19.7,0,5,7,1,2026-04-10T05:09:58.131939+05:30
Patiala,Punjab,30.3398,76.3869,15.4,83,0.0,984.4,7.0,40.0,174,668.7,77.5,3,10,7,0,2026-04-10T05:09:58.131947+05:30
Bhatinda,Punjab,30.211,74.9455,16.4,81,0.0,990.8,7.65,32.4,90,43.0,38.4,3,10,7,0,2026-04-10T05:09:58.131955+05:30
Rohtak,Haryana,28.8955,76.6066,16.0,83,0.0,988.0,7.15,41.4,235,676.1,108.3,3,10,7,0,2026-04-10T05:09:58.131962+05:30
Panipat,Haryana,29.3909,76.9635,15.4,81,0.0,986.2,6.95,43.6,549,1356.0,158.3,3,10,7,0,2026-04-10T05:09:58.131970+05:30
Mathura,Uttar Pradesh,27.4924,77.6737,17.5,78,0.0,992.9,7.45,36.7,207,912.7,132.7,3,5,7,0,2026-04-10T05:09:58.131977+05:30
Vrindavan,Uttar Pradesh,27.5823,77.7027,17.0,80,0.0,993.3,7.4,40.3,207,912.7,132.7,3,5,7,0,2026-04-10T05:09:58.131986+05:30
Ayodhya,Uttar Pradesh,26.7922,82.1998,18.4,67,0.0,999.5,7.8,49.7,86,51.2,26.7,3,5,7,0,2026-04-10T05:09:58.131993+05:30
Ratlam,Madhya Pradesh,23.3315,75.0367,20.4,49,0.0,958.1,8.3,30.6,68,29.3,15.1,0,5,7,0,2026-04-10T05:09:58.132001+05:30
Sagar,Madhya Pradesh,23.8388,78.7378,21.0,56,0.0,954.4,8.4,28.1,81,100.8,27.5,0,5,7,0,2026-04-10T05:09:58.132008+05:30
Satna,Madhya Pradesh,24.6005,80.8322,21.9,56,0.0,976.2,8.45,36.4,81,145.3,30.4,0,5,7,0,2026-04-10T05:09:58.132013+05:30
Akola,Maharashtra,20.7002,77.0082,25.0,70,0.0,977.7,8.7,21.6,71,40.6,26.8,7,5,7,1,2026-04-10T05:09:58.132020+05:30
Amravati,Maharashtra,20.9374,77.7796,25.2,56,0.0,969.6,8.7,29.9,71,46.4,30.5,4,5,7,0,2026-04-10T05:09:58.132026+05:30
Latur,Maharashtra,18.4088,76.5604,22.1,64,0.0,941.4,8.95,30.6,88,52.9,26.0,3,5,7,0,2026-04-10T05:09:58.132032+05:30
Nanded,Maharashtra,19.1383,77.3091,23.9,68,0.0,970.6,8.85,21.2,88,27.8,19.8,3,5,7,1,2026-04-10T05:09:58.132037+05:30
Gulbarga,Karnataka,17.3297,76.8343,25.5,52,0.0,960.3,9.05,28.8,74,55.5,28.9,4,5,7,0,2026-04-10T05:09:58.132042+05:30
Bidar,Karnataka,17.9104,77.5199,24.4,56,0.0,936.6,9.05,27.7,79,93.8,38.5,0,5,7,0,2026-04-10T05:09:58.132048+05:30
Hospet,Karnataka,15.2689,76.3909,25.6,74,0.0,956.8,9.25,31.7,71,33.5,16.7,7,5,7,1,2026-04-10T05:09:58.132053+05:30
Tirupur,Tamil Nadu,11.1085,77.3411,26.0,80,0.0,976.1,9.5,28.8,60,31.1,24.7,7,5,7,1,2026-04-10T05:09:58.132059+05:30
Alappuzha,Kerala,9.4981,76.3388,28.7,84,0.0,1008.8,9.2,28.4,68,30.3,22.6,7,0,4,1,2026-04-10T05:09:58.132064+05:30
Munnar,Kerala,10.0889,77.0595,19.6,89,0.0,856.6,8.55,28.4,66,26.5,24.3,3,10,7,1,2026-04-10T05:09:58.132070+05:30
Silchar,Assam,24.8333,92.7789,19.8,94,0.0,1009.3,8.55,26.3,126,79.4,68.0,3,5,4,1,2026-04-10T05:09:58.132076+05:30
Dibrugarh,Assam,27.4728,94.912,19.8,91,0.0,999.0,8.35,16.2,94,77.8,53.7,3,10,7,1,2026-04-10T05:09:58.132082+05:30
