city,state,latitude,longitude,temp,humidity,rain,pressure,uv_index,wind_gusts,aqi,pm10,pm2_5,no2,co,o3,so2,mosquito_risk,arthritis_risk,migraine_risk,frizz_risk,updated_at
Delhi,Delhi,28.6139,77.209,28.3,49,0.0,982.4,7.55,26.6,152,394.9,72.9,38.9,458.0,90.0,22.0,4,5,7,1,2026-05-06T22:14:01.224018+05:30
Mumbai,Maharashtra,19.076,72.8777,28.5,82,0.0,1006.0,7.9,48.2,85,72.4,25.4,9.7,272.0,80.0,12.6,7,5,4,1,2026-05-06T22:14:01.224065+05:30
Bangalore,Karnataka,12.9716,77.5946,24.4,73,0.0,911.5,9.55,33.8,112,47.7,39.3,25.5,453.0,104.0,12.2,3,5,7,1,2026-05-06T22:14:01.224082+05:30
Hyderabad,Telangana,17.385,78.4867,31.6,39,0.0,952.9,8.95,34.6,100,49.8,34.9,13.5,334.0,98.0,8.4,0,5,7,1,2026-05-06T22:14:01.224093+05:30
Chennai,Tamil Nadu,13.0827,80.2707,29.3,73,0.0,1007.1,9.25,39.6,48,15.1,9.4,7.2,186.0,69.0,4.2,7,5,4,1,2026-05-06T22:14:01.224102+05:30
Kolkata,West Bengal,22.5726,88.3639,24.7,89,0.0,1007.5,8.95,34.2,82,57.7,54.1,32.4,625.0,45.0,20.4,3,5,4,1,2026-05-06T22:14:01.224112+05:30
Pune,Maharashtra,18.5204,73.8567,27.4,67,0.0,946.4,8.5,41.8,122,41.3,29.2,13.2,302.0,135.0,20.1,7,5,7,1,2026-05-06T22:14:01.224120+05:30
Ahmedabad,Gujarat,23.0225,72.5714,35.8,25,0.0,999.3,8.1,23.4,133,91.0,40.3,25.0,354.0,91.0,14.7,0,5,10,0,2026-05-06T22:14:01.224132+05:30
Jaipur,Rajasthan,26.9124,75.7873,28.1,36,0.0,958.5,8.1,31.0,112,165.8,52.6,30.0,436.0,76.0,9.5,4,5,7,0,2026-05-06T22:14:01.224141+05:30
Lucknow,Uttar Pradesh,26.8467,80.9462,23.2,76,0.0,994.2,8.05,45.7,127,94.1,49.4,22.8,515.0,88.0,16.2,3,5,7,1,2026-05-06T22:14:01.224150+05:30
Kanpur,Uttar Pradesh,26.4499,80.3319,24.8,67,0.0,992.4,7.9,23.0,126,244.0,52.3,14.5,331.0,95.0,8.8,3,5,7,1,2026-05-06T22:14:01.224159+05:30
Chandigarh,Chandigarh,30.7333,76.7794,22.0,56,0.0,967.4,7.55,42.1,148,44.1,35.6,30.7,1142.0,91.0,13.7,0,5,7,0,2026-05-06T22:14:01.224167+05:30
Srinagar,Jammu and Kashmir,34.0837,74.7973,12.4,83,0.0,837.0,8.65,25.6,93,46.6,31.7,35.6,1051.0,55.0,6.2,3,10,7,0,2026-05-06T22:14:01.224176+05:30
Jammu,Jammu and Kashmir,32.7266,74.857,24.5,43,0.0,970.9,8.25,35.3,132,32.2,26.9,23.8,431.0,88.0,5.3,0,5,7,0,2026-05-06T22:14:01.224186+05:30
Amritsar,Punjab,31.634,74.8723,25.0,52,0.0,979.0,8.15,29.2,163,50.5,38.8,19.4,429.0,110.0,8.6,4,5,7,0,2026-05-06T22:14:01.224194+05:30
Ludhiana,Punjab,30.901,75.8573,23.5,63,0.0,977.0,7.8,39.6,123,138.8,52.0,23.3,717.0,88.0,9.3,3,5,7,0,2026-05-06T22:14:01.224201+05:30
Jalandhar,Punjab,31.326,75.5762,22.4,67,0.0,977.9,7.95,29.5,134,44.0,28.6,18.3,794.0,98.0,7.4,3,5,7,0,2026-05-06T22:14:01.224208+05:30
Dehradun,Uttarakhand,30.6284,78.0322,11.0,78,0.0,827.2,6.75,37.1,105,33.9,18.3,16.9,187.0,95.0,0.9,3,5,7,0,2026-05-06T22:14:01.224218+05:30
Shimla,Himachal Pradesh,31.1048,77.1734,8.6,71,0.0,780.2,7.45,50.8,121,30.3,19.9,20.7,418.0,91.0,1.9,3,5,7,0,2026-05-06T22:14:01.224225+05:30
Manali,Himachal Pradesh,32.2396,77.1887,9.1,86,0.0,814.0,10.2,36.7,157,12.0,8.1,27.6,344.0,136.0,0.8,3,10,7,0,2026-05-06T22:14:01.224232+05:30
Gurgaon,Haryana,28.4595,77.0266,28.0,36,0.0,980.9,7.65,29.2,186,1218.2,156.0,53.6,457.0,88.0,30.4,4,5,7,0,2026-05-06T22:14:01.224239+05:30
Noida,Uttar Pradesh,28.5355,77.391,25.0,55,0.0,983.7,7.55,19.4,186,1218.2,156.0,53.6,1440.0,88.0,30.4,4,5,7,0,2026-05-06T22:14:01.224246+05:30
Ghaziabad,Uttar Pradesh,28.6692,77.4538,24.5,61,0.0,981.8,7.55,23.0,162,193.2,51.0,17.7,551.0,102.0,12.6,3,5,7,1,2026-05-06T22:14:01.224253+05:30
Faridabad,Haryana,28.4089,77.3178,27.0,51,0.0,983.0,7.6,28.1,186,1218.2,156.0,53.6,901.0,88.0,30.4,4,5,7,0,2026-05-06T22:14:01.224260+05:30
Meerut,Uttar Pradesh,28.9845,77.7064,24.6,63,0.0,980.8,7.45,22.0,162,193.2,51.0,17.7,639.0,102.0,12.6,3,5,7,1,2026-05-06T22:14:01.224267+05:30
Agra,Uttar Pradesh,27.1767,78.0081,26.0,56,0.0,987.1,7.9,20.5,184,711.5,106.9,30.1,570.0,93.0,22.1,4,5,7,1,2026-05-06T22:14:01.224274+05:30
Varanasi,Uttar Pradesh,25.3176,82.9739,25.6,69,0.0,998.9,8.6,23.0,142,87.3,68.0,37.3,470.0,84.0,25.7,7,5,7,1,2026-05-06T22:14:01.224282+05:30
Prayagraj,Uttar Pradesh,25.4358,81.8463,25.5,63,0.0,997.1,8.45,38.2,136,83.8,57.7,29.1,363.0,78.0,19.5,7,5,7,1,2026-05-06T22:14:01.224291+05:30
Gorakhpur,Uttar Pradesh,26.7606,83.3732,23.8,80,0.0,998.9,8.4,31.0,139,40.5,25.6,11.7,546.0,109.0,6.1,3,5,7,1,2026-05-06T22:14:01.224299+05:30
Bareilly,Uttar Pradesh,28.367,79.4304,24.5,61,0.0,986.8,7.85,24.5,128,66.4,46.0,24.7,564.0,88.0,12.7,3,5,7,1,2026-05-06T22:14:01.224305+05:30
Aligarh,Uttar Pradesh,27.8974,78.088,27.0,45,0.0,985.1,7.7,24.1,182,370.7,66.8,16.1,421.0,119.0,16.6,4,5,7,0,2026-05-06T22:14:01.224312+05:30
Moradabad,Uttar Pradesh,28.8386,78.7733,24.5,59,0.0,983.2,7.65,31.7,149,92.0,69.4,48.1,645.0,69.0,19.2,0,5,7,0,2026-05-06T22:14:01.224319+05:30
Saharanpur,Uttar Pradesh,29.9637,77.546,23.6,52,0.0,974.9,7.25,25.6,125,88.5,70.3,40.4,395.0,69.0,20.6,0,5,7,0,2026-05-06T22:14:01.224325+05:30
Jhansi,Uttar Pradesh,25.4484,78.5685,26.9,46,0.0,977.7,8.35,31.3,110,68.0,25.9,7.0,290.0,97.0,6.5,4,5,7,0,2026-05-06T22:14:04.468039+05:30
Surat,Gujarat,21.1702,72.8311,29.1,83,0.0,1004.1,7.7,35.3,96,65.7,38.2,53.5,632.0,29.0,70.5,7,5,4,1,2026-05-06T22:14:04.468070+05:30
Vadodara,Gujarat,22.3072,73.1812,35.0,29,0.0,1001.4,8.05,32.4,110,122.9,58.3,44.4,585.0,74.0,16.2,0,5,4,0,2026-05-06T22:14:04.468081+05:30
Rajkot,Gujarat,22.3039,70.8022,29.1,54,0.0,991.9,7.7,42.8,93,52.9,20.9,6.5,206.0,93.0,8.2,4,5,7,1,2026-05-06T22:14:04.468089+05:30
Thane,Maharashtra,19.2183,72.9781,28.4,82,0.0,1005.5,7.9,43.6,85,72.4,25.4,9.7,226.0,80.0,12.6,7,5,4,1,2026-05-06T22:14:04.468097+05:30
Nagpur,Maharashtra,21.1458,79.0882,33.0,29,0.0,972.0,8.9,31.3,126,80.3,52.3,42.8,423.0,68.0,30.6,0,5,7,0,2026-05-06T22:14:04.468104+05:30
Nashik,Maharashtra,19.9975,73.7898,27.9,59,0.0,944.0,8.2,34.9,68,43.3,20.5,9.7,223.0,86.0,3.2,4,5,7,1,2026-05-06T22:14:04.468112+05:30
Aurangabad,Maharashtra,19.8762,75.3433,31.2,24,0.0,942.4,9.0,37.8,102,46.8,19.5,6.6,289.0,115.0,4.0,0,5,7,0,2026-05-06T22:14:04.468120+05:30
Solapur,Maharashtra,17.6599,75.9064,32.2,23,0.0,954.4,9.05,47.9,88,38.5,21.0,10.1,261.0,92.0,7.5,0,5,7,0,2026-05-06T22:14:04.468127+05:30
Kolhapur,Maharashtra,16.705,74.2433,26.6,65,0.0,945.9,8.95,39.2,66,28.2,19.8,12.7,233.0,72.0,3.9,7,5,7,1,2026-05-06T22:14:04.468135+05:30
Goa,Goa,15.2993,74.124,28.9,76,0.0,995.6,8.7,44.6,67,40.4,20.4,6.5,205.0,65.0,1.9,7,5,7,1,2026-05-06T22:14:04.468143+05:30
Jodhpur,Rajasthan,26.2389,73.0243,32.0,19,0.0,980.6,8.3,29.2,105,171.4,31.2,9.8,382.0,99.0,4.4,0,5,7,0,2026-05-06T22:14:04.468150+05:30
Udaipur,Rajasthan,24.5854,73.7125,25.5,45,0.0,944.7,8.75,23.0,110,52.9,20.1,5.5,308.0,100.0,4.4,4,5,7,0,2026-05-06T22:14:04.468157+05:30
Kota,Rajasthan,25.2138,75.8648,28.6,32,0.0,977.0,8.3,24.8,114,75.7,37.5,16.5,628.0,88.0,9.1,4,5,7,0,2026-05-06T22:14:04.468165+05:30
Bikaner,Rajasthan,28.0229,73.3119,32.8,18,0.0,978.8,8.25,34.2,105,60.1,21.9,4.6,292.0,98.0,5.8,0,5,7,0,2026-05-06T22:14:04.468172+05:30
Ajmer,Rajasthan,26.4499,74.6399,26.8,29,0.0,953.0,8.25,31.3,107,82.4,32.1,15.6,252.0,87.0,6.3,4,5,7,0,2026-05-06T22:14:04.468179+05:30
Gwalior,Madhya Pradesh,26.2183,78.1828,25.8,55,0.0,982.7,8.1,21.6,121,163.4,43.1,10.4,483.0,100.0,7.5,4,5,7,0,2026-05-06T22:14:04.468186+05:30
Indore,Madhya Pradesh,22.7196,75.8577,30.9,17,0.0,947.1,8.6,28.4,110,30.2,21.1,12.9,674.0,94.0,5.9,0,5,7,0,2026-05-06T22:14:04.468193+05:30
Bhopal,Madhya Pradesh,23.2599,77.4126,29.8,23,0.0,952.7,8.65,40.0,114,24.0,17.6,6.0,292.0,106.0,6.9,4,5,7,0,2026-05-06T22:14:04.468200+05:30
Jabalpur,Madhya Pradesh,23.1815,79.9864,28.6,30,0.0,961.1,8.8,34.9,110,34.0,20.1,13.6,226.0,91.0,4.7,4,5,7,0,2026-05-06T22:14:04.468207+05:30
Ujjain,Madhya Pradesh,23.1765,75.7885,30.0,19,0.0,952.5,8.55,30.2,109,45.8,31.8,13.5,410.0,98.0,6.8,4,5,7,0,2026-05-06T22:14:04.468215+05:30
Visakhapatnam,Andhra Pradesh,17.6868,83.2185,28.1,83,0.0,1004.5,9.15,36.7,78,26.4,21.9,32.7,335.0,29.0,7.8,7,5,4,1,2026-05-06T22:14:04.468222+05:30
Vijayawada,Andhra Pradesh,16.5062,80.648,28.8,72,0.0,1002.8,9.2,32.8,58,15.6,12.1,8.0,280.0,55.0,7.3,7,5,4,1,2026-05-06T22:14:04.468230+05:30
Guntur,Andhra Pradesh,16.3067,80.4365,28.5,74,0.0,1004.0,9.2,38.2,62,15.8,13.1,8.1,204.0,59.0,6.4,7,5,4,1,2026-05-06T22:14:04.468236+05:30
Nellore,Andhra Pradesh,14.4426,79.9865,28.6,78,0.0,1006.0,9.25,38.9,48,13.2,8.1,2.8,181.0,69.0,1.7,7,5,4,1,2026-05-06T22:14:04.468244+05:30
Kurnool,Andhra Pradesh,15.8281,78.0373,30.4,49,0.0,976.1,9.15,34.6,88,34.0,25.7,4.5,221.0,102.0,2.6,0,5,7,1,2026-05-06T22:14:04.468252+05:30
Kakinada,Andhra Pradesh,16.9891,82.2475,27.1,88,0.0,1007.9,9.15,29.2,45,14.0,7.7,2.0,256.0,58.0,1.0,7,5,4,1,2026-05-06T22:14:04.468259+05:30
Tirupati,Andhra Pradesh,13.6288,79.4192,28.2,67,0.0,991.4,9.3,34.2,95,18.4,16.5,15.4,243.0,80.0,15.8,7,5,7,1,2026-05-06T22:14:04.468266+05:30
Warangal,Telangana,17.9689,79.5941,31.0,45,0.0,978.1,9.2,35.6,104,42.4,34.6,10.7,311.0,103.0,9.9,0,5,7,1,2026-05-06T22:14:04.468273+05:30
Nizamabad,Telangana,18.6725,78.0941,30.1,41,0.0,963.2,9.1,32.8,98,60.8,39.3,22.3,271.0,81.0,8.1,0,5,7,0,2026-05-06T22:14:04.468280+05:30
Mysore,Karnataka,12.2958,76.6396,24.9,70,0.0,927.5,9.4,29.9,87,48.8,34.2,26.8,340.0,94.0,7.9,3,5,7,1,2026-05-06T22:14:04.468287+05:30
Mangalore,Karnataka,12.9141,74.856,30.0,74,0.0,1003.9,9.05,56.5,64,35.0,16.1,3.7,180.0,67.0,1.4,7,5,4,1,2026-05-06T22:14:04.468294+05:30
Hubli-Dharwad,Karnataka,15.3647,75.124,26.1,70,0.0,939.0,9.15,42.8,80,36.4,22.5,23.6,324.0,63.0,3.8,7,5,7,1,2026-05-06T22:14:04.468302+05:30
Belgaum,Karnataka,15.8497,74.4977,24.5,74,0.0,923.7,9.2,40.7,65,32.6,20.0,14.8,211.0,60.0,3.5,3,5,7,1,2026-05-06T22:14:07.718305+05:30
Coimbatore,Tamil Nadu,11.0168,76.9558,26.1,81,0.0,961.5,9.35,39.2,89,28.2,22.1,17.3,309.0,80.0,5.8,7,5,7,1,2026-05-06T22:14:07.718357+05:30
Madurai,Tamil Nadu,9.9252,78.1198,25.9,92,0.0,993.0,9.2,41.4,100,32.4,23.5,12.2,261.0,84.0,4.3,7,5,7,1,2026-05-06T22:14:07.718369+05:30
Trichy,Tamil Nadu,10.7905,78.7047,29.0,74,0.0,999.4,8.95,41.4,98,23.5,19.1,14.5,259.0,76.0,7.1,7,5,7,1,2026-05-06T22:14:07.718378+05:30
Salem,Tamil Nadu,11.6643,78.146,24.7,91,0.4,977.7,9.3,50.8,166,48.8,39.9,10.9,249.0,129.0,18.7,6,5,7,1,2026-05-06T22:14:07.718387+05:30
Tirunelveli,Tamil Nadu,8.7139,77.7567,27.0,84,0.0,1003.0,9.1,42.5,92,28.6,23.1,10.0,322.0,94.0,4.5,7,5,4,1,2026-05-06T22:14:07.718395+05:30
Vellore,Tamil Nadu,12.9165,79.1325,27.7,72,0.0,984.7,9.3,40.0,126,26.1,23.3,12.1,239.0,86.0,3.9,7,5,7,1,2026-05-06T22:14:07.718403+05:30
Erode,Tamil Nadu,11.341,77.7172,26.4,85,0.1,989.3,9.25,44.3,150,48.8,38.4,14.4,259.0,116.0,7.8,10,5,7,1,2026-05-06T22:14:07.718410+05:30
Kochi,Kerala,9.9312,76.2673,27.0,91,0.0,1007.4,8.95,36.7,74,56.0,46.0,42.7,396.0,23.0,7.9,7,5,4,1,2026-05-06T22:14:07.718417+05:30
Thiruvananthapuram,Kerala,8.5241,76.9366,25.1,97,0.1,1007.6,8.95,35.3,57,18.3,11.4,5.3,313.0,102.0,2.4,10,5,4,1,2026-05-06T22:14:07.718425+05:30
Kozhikode,Kerala,11.2588,75.7804,28.0,91,0.0,1005.5,9.05,39.6,65,39.0,17.6,2.5,205.0,69.0,1.1,7,5,4,1,2026-05-06T22:14:07.718432+05:30
Thrissur,Kerala,10.5276,76.2144,25.0,97,0.1,1005.9,9.05,33.5,82,58.2,47.4,32.9,432.0,28.0,5.3,10,5,4,1,2026-05-06T22:14:07.718440+05:30
Kannur,Kerala,11.8745,75.3704,30.0,75,0.0,1004.5,9.05,58.3,63,31.0,15.5,5.2,227.0,59.0,1.4,7,5,4,1,2026-05-06T22:14:07.718448+05:30
Patna,Bihar,25.5941,85.1376,24.7,86,0.0,1002.3,8.7,29.5,133,69.2,55.6,36.2,384.0,80.0,20.6,3,5,4,1,2026-05-06T22:14:07.718455+05:30
Gaya,Bihar,24.7914,85.0002,25.0,74,0.0,995.1,8.75,34.2,126,86.1,68.2,36.1,388.0,69.0,14.8,7,5,7,1,2026-05-06T22:14:07.718462+05:30
Muzaffarpur,Bihar,26.1209,85.3647,22.9,87,0.0,1002.3,8.65,40.0,137,88.5,70.5,41.8,437.0,78.0,24.6,3,5,4,1,2026-05-06T22:14:07.718469+05:30
Bhagalpur,Bihar,25.2425,87.0117,24.5,84,0.0,1002.9,8.65,33.5,177,56.1,48.5,15.6,433.0,122.0,13.3,3,5,4,1,2026-05-06T22:14:07.718475+05:30
Ranchi,Jharkhand,23.3441,85.3096,22.5,69,0.0,938.8,9.2,30.2,152,68.9,56.0,19.3,504.0,116.0,18.3,3,5,7,1,2026-05-06T22:14:07.718482+05:30
Jamshedpur,Jharkhand,22.8046,86.2029,25.6,77,0.0,992.2,9.0,27.0,204,70.5,60.5,17.3,419.0,127.0,27.3,7,5,7,1,2026-05-06T22:14:07.718489+05:30
Dhanbad,Jharkhand,23.7957,86.4304,25.0,78,0.0,981.5,8.95,27.4,155,129.9,117.3,73.8,526.0,73.0,84.4,7,5,7,1,2026-05-06T22:14:07.718497+05:30
Bokaro,Jharkhand,23.6693,86.1511,24.5,79,0.0,985.3,8.95,26.3,163,130.4,115.5,69.5,597.0,76.0,85.7,3,5,7,1,2026-05-06T22:14:07.718505+05:30
Bhubaneswar,Odisha,20.2961,85.8245,26.8,88,0.0,1003.7,9.1,32.8,63,19.0,15.4,9.0,208.0,46.0,3.7,7,5,4,1,2026-05-06T22:14:07.718511+05:30
Cuttack,Odisha,20.4625,85.8828,26.9,87,0.0,1005.4,9.15,38.9,63,19.0,15.4,9.0,233.0,46.0,3.7,7,5,4,1,2026-05-06T22:14:07.718518+05:30
Rourkela,Odisha,22.2604,84.8536,26.2,65,0.0,985.2,8.95,29.2,138,70.8,55.5,24.8,514.0,96.0,32.6,7,5,7,1,2026-05-06T22:14:07.718526+05:30
Raipur,Chhattisgarh,21.2514,81.6296,30.8,38,0.0,974.0,8.95,30.2,127,90.1,67.8,48.2,431.0,60.0,14.2,0,5,7,0,2026-05-06T22:14:07.718532+05:30
Bhilai,Chhattisgarh,21.1938,81.3509,31.1,36,0.0,974.3,8.95,30.2,109,78.7,55.8,42.6,1270.0,67.0,11.5,0,5,7,0,2026-05-06T22:14:07.718539+05:30
Guwahati,Assam,26.1158,91.7086,22.3,95,0.0,1003.8,8.2,42.8,83,31.5,27.4,9.0,408.0,70.0,2.0,3,5,4,1,2026-05-06T22:14:07.718546+05:30
Agartala,Tripura,23.8315,91.2868,23.5,92,0.0,1008.1,8.85,40.0,100,95.0,89.6,56.3,350.0,42.0,6.8,3,0,4,1,2026-05-06T22:14:07.718552+05:30
Shillong,Meghalaya,25.5788,91.8933,16.5,85,0.0,857.1,8.1,27.0,79,30.2,26.2,11.0,355.0,81.0,1.7,3,10,7,0,2026-05-06T22:14:07.718559+05:30
Imphal,Manipur,24.817,93.9368,20.0,93,0.0,923.9,9.1,27.4,78,49.9,43.8,31.5,794.0,36.0,6.1,3,5,7,1,2026-05-06T22:14:07.718566+05:30
Aizawl,Mizoram,23.7271,92.7176,18.0,90,0.0,893.5,8.85,20.5,63,32.8,24.0,17.3,306.0,41.0,1.8,3,10,7,1,2026-05-06T22:14:07.718573+05:30
Kohima,Nagaland,25.6701,94.1077,16.0,95,0.0,855.5,9.15,29.2,81,35.4,27.9,15.8,409.0,37.0,1.3,3,10,7,0,2026-05-06T22:14:07.718581+05:30
Gangtok,Sikkim,27.3314,88.6138,11.4,91,0.0,836.9,7.85,31.3,76,38.4,29.3,23.1,454.0,87.0,2.3,3,10,7,0,2026-05-06T22:14:07.718588+05:30
Siliguri,West Bengal,26.7271,88.3953,21.1,91,0.0,995.0,8.6,20.9,100,56.2,46.6,27.2,959.0,85.0,5.3,3,5,7,1,2026-05-06T22:14:11.051366+05:30
Durgapur,West Bengal,23.5204,87.3119,24.2,92,0.0,996.6,8.9,29.2,213,122.0,111.8,33.6,619.0,123.0,57.4,3,5,7,1,2026-05-06T22:14:11.051399+05:30
Asansol,West Bengal,23.6739,86.9524,24.8,85,0.0,995.1,8.95,32.0,182,119.7,107.1,42.5,656.0,102.0,65.5,3,5,7,1,2026-05-06T22:14:11.051410+05:30
Pondicherry,Puducherry,11.9139,79.8145,29.0,77,0.0,1008.3,9.1,37.4,53,13.8,8.7,1.7,195.0,81.0,0.4,7,0,4,1,2026-05-06T22:14:11.051419+05:30
Port Blair,Andaman and Nicobar Islands,11.6234,92.7265,25.5,98,0.1,1008.2,9.05,38.2,30,7.6,6.0,0.6,206.0,71.0,0.1,10,0,4,1,2026-05-06T22:14:11.051427+05:30
Haridwar,Uttarakhand,29.9457,78.1642,21.8,66,0.0,973.1,7.35,25.6,123,49.9,39.8,23.9,420.0,68.0,9.8,3,5,7,0,2026-05-06T22:14:11.051436+05:30
Rishikesh,Uttarakhand,30.0869,78.2676,18.7,74,0.0,965.5,7.45,26.6,133,49.0,26.3,11.4,368.0,117.0,6.1,3,5,7,0,2026-05-06T22:14:11.051444+05:30
Nainital,Uttarakhand,29.3919,79.4542,11.5,69,0.0,803.7,6.65,37.4,128,34.0,21.5,12.2,305.0,106.0,3.8,3,5,7,0,2026-05-06T22:14:11.051451+05:30
Mussoorie,Uttarakhand,30.4599,78.0664,11.1,70,0.0,800.1,6.35,50.0,122,57.0,37.8,31.0,355.0,78.0,12.5,3,5,7,0,2026-05-06T22:14:11.051459+05:30
Dharamshala,Himachal Pradesh,32.219,76.3234,15.7,59,0.0,866.5,8.15,37.4,109,19.4,14.4,13.7,267.0,93.0,1.2,0,5,7,0,2026-05-06T22:14:11.051467+05:30
Dalhousie,Himachal Pradesh,32.5387,75.971,9.1,79,0.0,799.7,8.35,37.8,115,37.5,29.0,40.0,688.0,69.0,2.9,3,5,7,0,2026-05-06T22:14:11.051475+05:30
Patiala,Punjab,30.3398,76.3869,24.1,54,0.0,976.9,7.45,32.0,149,407.9,63.6,12.6,632.0,105.0,9.6,0,5,7,0,2026-05-06T22:14:11.051482+05:30
Bhatinda,Punjab,30.211,74.9455,26.8,41,0.0,981.7,8.1,33.5,146,78.0,42.0,15.4,365.0,105.0,11.1,4,5,7,0,2026-05-06T22:14:11.051489+05:30
Rohtak,Haryana,28.8955,76.6066,25.3,48,0.0,980.6,7.55,24.1,155,1024.5,134.1,29.1,432.0,95.0,19.6,4,5,7,0,2026-05-06T22:14:11.051496+05:30
Panipat,Haryana,29.3909,76.9635,25.1,47,0.0,979.2,7.4,35.3,407,1154.8,147.1,13.6,429.0,113.0,11.8,4,5,7,0,2026-05-06T22:14:11.051503+05:30
Mathura,Uttar Pradesh,27.4924,77.6737,26.8,47,0.0,986.0,7.8,23.8,166,763.7,107.6,28.3,646.0,106.0,15.0,4,5,7,0,2026-05-06T22:14:11.051510+05:30
Vrindavan,Uttar Pradesh,27.5823,77.7027,26.7,46,0.0,986.6,7.8,25.6,166,763.7,107.6,28.3,468.0,106.0,15.0,4,5,7,0,2026-05-06T22:14:11.051516+05:30
Ayodhya,Uttar Pradesh,26.7922,82.1998,24.0,82,0.0,996.7,8.2,23.4,106,42.8,27.6,11.8,458.0,103.0,6.9,3,5,7,1,2026-05-06T22:14:11.051524+05:30
Ratlam,Madhya Pradesh,23.3315,75.0367,28.4,27,0.0,952.9,8.5,28.4,107,44.7,31.1,10.1,197.0,92.0,7.5,4,5,7,0,2026-05-06T22:14:11.051531+05:30
Sagar,Madhya Pradesh,23.8388,78.7378,27.2,35,0.0,949.8,8.65,37.8,113,31.4,18.3,8.0,262.0,99.0,5.5,4,5,7,0,2026-05-06T22:14:11.051538+05:30
Satna,Madhya Pradesh,24.6005,80.8322,25.9,54,0.0,971.6,8.7,35.6,119,51.8,27.1,8.6,299.0,108.0,5.1,4,5,7,0,2026-05-06T22:14:11.051546+05:30
Akola,Maharashtra,20.7002,77.0082,32.5,25,0.0,973.3,8.85,27.7,117,56.2,29.2,18.9,303.0,89.0,8.0,0,5,7,0,2026-05-06T22:14:11.051554+05:30
Amravati,Maharashtra,20.9374,77.7796,32.0,28,0.0,965.9,8.85,31.7,130,47.7,27.6,16.8,247.0,98.0,6.9,0,5,7,0,2026-05-06T22:14:11.051562+05:30
Latur,Maharashtra,18.4088,76.5604,31.1,22,0.0,938.0,9.05,34.9,88,62.2,35.7,21.7,368.0,82.0,13.9,0,5,7,0,2026-05-06T22:14:11.051569+05:30
Nanded,Maharashtra,19.1383,77.3091,32.1,25,0.0,966.8,8.95,29.5,87,58.4,36.6,24.9,432.0,75.0,7.6,0,5,7,0,2026-05-06T22:14:11.051576+05:30
Gulbarga,Karnataka,17.3297,76.8343,32.0,32,0.0,957.0,9.1,35.6,120,42.4,27.9,10.6,310.0,112.0,6.2,0,5,7,0,2026-05-06T22:14:11.051583+05:30
Bidar,Karnataka,17.9104,77.5199,29.2,39,0.0,934.3,9.1,29.2,98,51.2,32.2,14.0,357.0,95.0,5.9,4,5,7,0,2026-05-06T22:14:11.051590+05:30
Hospet,Karnataka,15.2689,76.3909,29.6,45,0.0,954.1,8.75,34.9,133,43.2,33.4,17.9,307.0,113.0,12.5,4,5,7,1,2026-05-06T22:14:11.051597+05:30
Tirupur,Tamil Nadu,11.1085,77.3411,25.7,84,0.2,975.3,9.35,40.3,127,45.2,35.5,24.6,306.0,93.0,8.3,10,5,7,1,2026-05-06T22:14:11.051604+05:30
Alappuzha,Kerala,9.4981,76.3388,25.4,96,0.0,1007.6,8.25,35.3,70,41.1,27.1,17.7,211.0,67.0,5.6,7,5,4,1,2026-05-06T22:14:11.051612+05:30
Munnar,Kerala,10.0889,77.0595,17.8,92,0.0,855.4,9.3,25.9,63,36.2,29.6,17.1,319.0,49.0,3.8,3,10,7,1,2026-05-06T22:14:11.051619+05:30
Silchar,Assam,24.8333,92.7789,25.1,88,0.0,1006.3,8.65,21.6,110,68.7,61.9,26.4,656.0,48.0,11.7,7,5,4,1,2026-05-06T22:14:11.051626+05:30
Dibrugarh,Assam,27.4728,94.912,21.9,93,0.0,997.9,8.8,28.1,78,31.5,27.1,17.6,343.0,47.0,2.1,3,5,7,1,2026-05-06T22:14:11.051633+05:30
