city,state,latitude,longitude,temp,humidity,rain,pressure,uv_index,wind_gusts,aqi,pm10,pm2_5,no2,co,o3,so2,mosquito_risk,arthritis_risk,migraine_risk,frizz_risk,updated_at
Delhi,Delhi,28.6139,77.209,31.9,32,0.0,984.4,7.55,26.6,145,168.1,41.0,7.9,393.0,208.0,30.4,0,5,7,0,2026-05-06T12:01:31.988824+05:30
Mumbai,Maharashtra,19.076,72.8777,33.4,50,0.0,1008.0,7.9,46.4,82,75.0,38.5,7.0,326.0,161.0,48.1,0,0,4,1,2026-05-06T12:01:31.988868+05:30
Bangalore,Karnataka,12.9716,77.5946,32.7,31,0.0,912.4,9.55,30.2,116,52.0,28.8,4.8,274.0,185.0,11.5,0,5,7,0,2026-05-06T12:01:31.988884+05:30
Hyderabad,Telangana,17.385,78.4867,35.3,32,0.0,953.4,9.3,35.3,79,48.9,27.0,1.8,321.0,149.0,5.6,0,5,10,0,2026-05-06T12:01:31.988894+05:30
Chennai,Tamil Nadu,13.0827,80.2707,33.0,59,0.0,1006.5,9.25,41.4,53,19.4,11.8,2.0,199.0,100.0,6.2,0,5,4,1,2026-05-06T12:01:31.988904+05:30
Kolkata,West Bengal,22.5726,88.3639,31.9,64,0.0,1006.3,8.95,40.3,88,35.7,25.5,2.4,334.0,129.0,12.9,3,5,4,1,2026-05-06T12:01:31.988918+05:30
Pune,Maharashtra,18.5204,73.8567,35.3,19,0.0,948.7,8.5,46.8,67,59.3,19.8,1.8,228.0,139.0,5.0,0,5,10,0,2026-05-06T12:01:31.988927+05:30
Ahmedabad,Gujarat,23.0225,72.5714,37.5,28,0.0,1002.3,8.1,22.7,94,88.9,29.3,3.4,237.0,154.0,13.0,0,5,7,0,2026-05-06T12:01:31.988937+05:30
Jaipur,Rajasthan,26.9124,75.7873,32.6,27,0.0,961.6,8.1,34.2,110,135.0,34.0,1.5,298.0,174.0,6.9,0,5,7,0,2026-05-06T12:01:31.988946+05:30
Lucknow,Uttar Pradesh,26.8467,80.9462,31.0,49,0.0,994.4,8.05,34.2,138,57.6,28.9,1.7,374.0,183.0,10.2,0,5,7,1,2026-05-06T12:01:31.988954+05:30
Kanpur,Uttar Pradesh,26.4499,80.3319,31.3,45,0.0,992.7,8.05,31.7,122,125.7,33.6,1.8,358.0,182.0,8.5,0,5,7,1,2026-05-06T12:01:31.988962+05:30
Chandigarh,Chandigarh,30.7333,76.7794,31.5,29,0.0,969.9,7.5,43.9,73,59.5,22.8,2.6,262.0,184.0,21.2,0,5,7,0,2026-05-06T12:01:31.988970+05:30
Srinagar,Jammu and Kashmir,34.0837,74.7973,19.0,49,0.0,843.5,8.65,23.0,75,18.0,11.6,1.8,309.0,165.0,2.8,0,5,7,0,2026-05-06T12:01:31.988978+05:30
Jammu,Jammu and Kashmir,32.7266,74.857,30.5,32,0.0,974.2,8.25,32.4,63,35.3,15.8,1.9,278.0,170.0,4.8,0,5,7,0,2026-05-06T12:01:31.988986+05:30
Amritsar,Punjab,31.634,74.8723,33.3,25,0.0,981.8,8.15,34.9,115,58.1,24.3,2.2,393.0,182.0,8.0,0,5,7,0,2026-05-06T12:01:31.988993+05:30
Ludhiana,Punjab,30.901,75.8573,31.0,40,0.0,979.9,7.8,46.4,130,164.4,41.2,1.7,297.0,175.0,8.1,0,5,7,0,2026-05-06T12:01:31.989000+05:30
Jalandhar,Punjab,31.326,75.5762,31.4,35,0.0,981.2,7.95,53.3,129,206.8,50.5,1.7,345.0,174.0,10.6,0,5,7,0,2026-05-06T12:01:31.989007+05:30
Dehradun,Uttarakhand,30.6284,78.0322,19.7,44,0.0,832.0,7.45,51.1,58,36.8,10.3,0.6,166.0,143.0,1.0,0,5,7,0,2026-05-06T12:01:31.989017+05:30
Shimla,Himachal Pradesh,31.1048,77.1734,18.2,40,0.0,786.5,7.45,42.5,64,34.3,9.3,0.8,190.0,153.0,1.9,0,5,7,0,2026-05-06T12:01:31.989024+05:30
Manali,Himachal Pradesh,32.2396,77.1887,16.3,47,0.0,818.0,9.55,35.6,101,9.1,4.4,0.9,162.0,172.0,0.5,0,5,7,0,2026-05-06T12:01:31.989031+05:30
Gurgaon,Haryana,28.4595,77.0266,32.2,29,0.0,982.9,7.65,29.5,155,536.4,83.1,8.9,289.0,225.0,41.8,0,5,7,0,2026-05-06T12:01:31.989039+05:30
Noida,Uttar Pradesh,28.5355,77.391,31.9,33,0.0,985.9,7.55,21.2,155,536.4,83.1,8.9,429.0,225.0,41.8,0,5,7,0,2026-05-06T12:01:31.989046+05:30
Ghaziabad,Uttar Pradesh,28.6692,77.4538,32.5,30,0.0,984.1,7.55,24.5,124,136.4,32.9,4.7,259.0,188.0,13.0,0,5,7,0,2026-05-06T12:01:31.989054+05:30
Faridabad,Haryana,28.4089,77.3178,31.2,36,0.0,985.1,7.6,20.5,155,536.4,83.1,8.9,391.0,225.0,41.8,0,5,7,0,2026-05-06T12:01:31.989060+05:30
Meerut,Uttar Pradesh,28.9845,77.7064,31.1,36,0.0,982.9,7.45,28.1,124,136.4,32.9,4.7,276.0,188.0,13.0,0,5,7,0,2026-05-06T12:01:31.989067+05:30
Agra,Uttar Pradesh,27.1767,78.0081,31.5,40,0.0,989.1,7.9,21.6,156,493.6,70.5,1.8,329.0,188.0,12.7,0,5,7,1,2026-05-06T12:01:31.989074+05:30
Varanasi,Uttar Pradesh,25.3176,82.9739,30.4,56,0.0,998.7,8.6,47.2,152,80.1,49.8,2.1,391.0,199.0,16.9,0,5,7,1,2026-05-06T12:01:31.989080+05:30
Prayagraj,Uttar Pradesh,25.4358,81.8463,31.9,46,0.0,996.9,8.45,20.5,137,76.8,44.7,2.1,341.0,195.0,14.4,0,5,7,1,2026-05-06T12:01:31.989089+05:30
Gorakhpur,Uttar Pradesh,26.7606,83.3732,30.1,52,0.0,998.5,8.45,36.0,119,47.0,26.3,1.6,343.0,180.0,7.7,0,5,7,1,2026-05-06T12:01:31.989097+05:30
Bareilly,Uttar Pradesh,28.367,79.4304,30.9,41,0.0,988.0,7.85,24.5,135,85.7,31.7,1.8,270.0,188.0,12.7,0,5,7,1,2026-05-06T12:01:31.989103+05:30
Aligarh,Uttar Pradesh,27.8974,78.088,33.0,29,0.0,986.9,7.7,24.1,151,280.3,53.4,2.7,319.0,194.0,17.6,0,5,7,0,2026-05-06T12:01:31.989110+05:30
Moradabad,Uttar Pradesh,28.8386,78.7733,31.5,33,0.0,984.9,7.65,27.4,151,78.0,35.3,2.9,293.0,200.0,34.4,0,5,7,0,2026-05-06T12:01:31.989116+05:30
Saharanpur,Uttar Pradesh,29.9637,77.546,29.8,41,0.0,977.0,7.25,29.5,101,70.8,24.8,2.6,347.0,181.0,9.1,4,5,7,0,2026-05-06T12:01:31.989123+05:30
Jhansi,Uttar Pradesh,25.4484,78.5685,33.5,32,0.0,979.3,8.35,29.2,102,82.7,28.3,1.4,267.0,167.0,18.3,0,5,7,0,2026-05-06T12:01:35.382149+05:30
Surat,Gujarat,21.1702,72.8311,36.2,45,0.0,1006.5,7.7,36.4,88,85.4,40.2,29.0,806.0,62.0,73.5,0,5,7,1,2026-05-06T12:01:35.382183+05:30
Vadodara,Gujarat,22.3072,73.1812,38.0,26,0.0,1004.2,8.05,29.2,78,68.2,29.3,3.5,227.0,145.0,11.9,0,5,7,0,2026-05-06T12:01:35.382195+05:30
Rajkot,Gujarat,22.3039,70.8022,36.8,31,0.0,994.8,7.7,44.6,69,98.5,26.3,1.7,175.0,120.0,7.2,0,5,10,1,2026-05-06T12:01:35.382203+05:30
Thane,Maharashtra,19.2183,72.9781,36.5,38,0.0,1007.0,7.9,42.5,82,75.0,38.5,7.0,229.0,161.0,48.1,0,5,7,1,2026-05-06T12:01:35.382211+05:30
Nagpur,Maharashtra,21.1458,79.0882,37.8,23,0.0,973.3,8.9,35.3,75,58.2,35.4,7.4,231.0,224.0,31.9,0,5,10,0,2026-05-06T12:01:35.382218+05:30
Nashik,Maharashtra,19.9975,73.7898,35.1,21,0.0,946.2,8.2,39.6,69,79.9,23.2,1.4,158.0,134.0,3.3,0,5,10,0,2026-05-06T12:01:35.382225+05:30
Aurangabad,Maharashtra,19.8762,75.3433,35.7,20,0.0,944.9,9.05,37.8,63,65.7,21.8,1.1,164.0,141.0,7.1,0,5,10,0,2026-05-06T12:01:35.382232+05:30
Solapur,Maharashtra,17.6599,75.9064,38.2,18,0.0,956.5,9.05,42.5,60,42.0,17.3,1.4,164.0,143.0,9.1,0,5,10,0,2026-05-06T12:01:35.382240+05:30
Kolhapur,Maharashtra,16.705,74.2433,35.5,24,0.0,948.2,8.95,49.7,64,56.7,19.7,1.9,176.0,120.0,2.4,0,5,10,0,2026-05-06T12:01:35.382248+05:30
Goa,Goa,15.2993,74.124,38.1,28,0.0,996.3,8.3,40.3,66,58.2,21.2,1.1,157.0,96.0,1.8,0,5,10,1,2026-05-06T12:01:35.382255+05:30
Jodhpur,Rajasthan,26.2389,73.0243,36.2,22,0.0,984.2,8.3,28.8,85,80.1,22.4,1.0,240.0,161.0,4.9,0,5,10,0,2026-05-06T12:01:35.382262+05:30
Udaipur,Rajasthan,24.5854,73.7125,33.3,25,0.0,948.2,8.75,22.0,79,86.1,22.5,0.9,197.0,152.0,5.6,0,5,7,0,2026-05-06T12:01:35.382269+05:30
Kota,Rajasthan,25.2138,75.8648,35.8,24,0.0,979.9,8.3,28.8,79,47.1,18.5,1.3,271.0,165.0,9.8,0,5,10,0,2026-05-06T12:01:35.382299+05:30
Bikaner,Rajasthan,28.0229,73.3119,35.3,21,0.0,983.1,8.25,29.9,87,150.4,36.2,1.0,257.0,173.0,13.6,0,5,10,0,2026-05-06T12:01:35.382308+05:30
Ajmer,Rajasthan,26.4499,74.6399,33.8,21,0.0,956.5,8.25,34.6,72,82.9,23.6,0.9,240.0,158.0,5.6,0,5,7,0,2026-05-06T12:01:35.382315+05:30
Gwalior,Madhya Pradesh,26.2183,78.1828,31.1,42,0.0,984.5,8.1,21.2,99,143.9,34.1,0.8,301.0,163.0,6.1,0,5,7,1,2026-05-06T12:01:35.382322+05:30
Indore,Madhya Pradesh,22.7196,75.8577,36.2,16,0.0,949.1,8.6,37.8,75,81.7,24.0,1.1,232.0,155.0,6.7,0,5,10,0,2026-05-06T12:01:35.382329+05:30
Bhopal,Madhya Pradesh,23.2599,77.4126,36.5,15,0.0,954.3,8.65,36.0,65,45.1,14.8,0.7,197.0,155.0,4.0,0,5,10,0,2026-05-06T12:01:35.382335+05:30
Jabalpur,Madhya Pradesh,23.1815,79.9864,35.5,20,0.0,962.0,8.8,37.1,84,48.4,22.2,1.2,199.0,165.0,5.7,0,5,10,0,2026-05-06T12:01:35.382342+05:30
Ujjain,Madhya Pradesh,23.1765,75.7885,36.2,17,0.0,954.7,8.55,28.4,85,96.6,27.8,1.0,192.0,147.0,6.3,0,5,10,0,2026-05-06T12:01:35.382350+05:30
Visakhapatnam,Andhra Pradesh,17.6868,83.2185,32.8,60,0.0,1003.8,9.15,36.0,78,28.5,18.8,13.6,363.0,66.0,18.4,0,5,4,1,2026-05-06T12:01:35.382357+05:30
Vijayawada,Andhra Pradesh,16.5062,80.648,35.8,48,0.0,1002.1,9.2,40.0,66,26.4,15.8,1.6,198.0,104.0,5.8,0,5,7,1,2026-05-06T12:01:35.382364+05:30
Guntur,Andhra Pradesh,16.3067,80.4365,36.0,48,0.0,1003.2,9.2,37.1,70,26.6,15.8,1.2,185.0,106.0,2.1,0,5,7,1,2026-05-06T12:01:35.382370+05:30
Nellore,Andhra Pradesh,14.4426,79.9865,35.0,51,0.0,1004.7,9.25,41.4,61,22.9,15.3,1.7,188.0,121.0,6.7,0,5,4,1,2026-05-06T12:01:35.382378+05:30
Kurnool,Andhra Pradesh,15.8281,78.0373,38.1,31,0.0,975.7,9.2,51.5,76,48.5,30.5,1.4,224.0,163.0,11.2,0,5,10,1,2026-05-06T12:01:35.382385+05:30
Kakinada,Andhra Pradesh,16.9891,82.2475,32.8,66,0.0,1007.2,9.15,31.7,52,17.9,9.6,0.8,180.0,69.0,1.0,3,5,4,1,2026-05-06T12:01:35.382392+05:30
Tirupati,Andhra Pradesh,13.6288,79.4192,36.5,35,0.0,990.1,9.3,34.2,84,19.8,13.2,1.7,208.0,124.0,4.2,0,5,10,1,2026-05-06T12:01:35.382399+05:30
Warangal,Telangana,17.9689,79.5941,36.2,39,0.0,978.6,9.2,51.1,77,32.0,22.0,1.5,215.0,128.0,4.5,0,5,10,1,2026-05-06T12:01:35.382406+05:30
Nizamabad,Telangana,18.6725,78.0941,37.3,21,0.0,964.7,9.15,39.6,91,50.4,29.2,1.7,204.0,160.0,5.7,0,5,10,0,2026-05-06T12:01:35.382413+05:30
Mysore,Karnataka,12.2958,76.6396,31.5,44,0.0,928.6,9.4,26.3,70,43.5,19.4,2.2,190.0,135.0,2.5,0,5,7,1,2026-05-06T12:01:35.382420+05:30
Mangalore,Karnataka,12.9141,74.856,33.8,54,0.0,1004.9,9.05,52.2,65,48.7,18.6,1.1,158.0,91.0,1.1,0,5,4,1,2026-05-06T12:01:35.382427+05:30
Hubli-Dharwad,Karnataka,15.3647,75.124,35.3,25,0.0,940.7,9.05,38.9,61,56.5,19.4,1.8,170.0,123.0,2.4,0,5,10,0,2026-05-06T12:01:35.382433+05:30
Belgaum,Karnataka,15.8497,74.4977,33.1,29,0.0,926.4,8.8,45.0,61,53.9,17.8,1.6,159.0,117.0,2.7,0,5,7,0,2026-05-06T12:01:38.768780+05:30
Coimbatore,Tamil Nadu,11.0168,76.9558,33.1,45,0.0,960.7,9.35,33.1,66,42.6,22.0,1.9,284.0,167.0,6.4,0,5,7,1,2026-05-06T12:01:38.768813+05:30
Madurai,Tamil Nadu,9.9252,78.1198,36.0,42,0.0,991.6,8.9,41.8,86,47.0,28.3,2.2,268.0,161.0,6.0,0,5,10,1,2026-05-06T12:01:38.768825+05:30
Trichy,Tamil Nadu,10.7905,78.7047,33.7,51,0.0,998.6,8.9,29.2,82,36.9,23.9,1.9,262.0,145.0,6.0,0,5,7,1,2026-05-06T12:01:38.768833+05:30
Salem,Tamil Nadu,11.6643,78.146,34.5,41,0.0,976.4,9.25,43.2,91,49.4,30.4,3.6,224.0,190.0,16.5,0,5,7,1,2026-05-06T12:01:38.768841+05:30
Tirunelveli,Tamil Nadu,8.7139,77.7567,37.6,37,0.0,1001.1,8.8,38.5,58,39.5,24.4,2.0,232.0,161.0,4.1,0,5,7,1,2026-05-06T12:01:38.768849+05:30
Vellore,Tamil Nadu,12.9165,79.1325,35.1,43,0.0,983.7,9.3,35.3,96,26.2,19.3,1.7,243.0,127.0,6.3,0,5,10,1,2026-05-06T12:01:38.768856+05:30
Erode,Tamil Nadu,11.341,77.7172,36.5,34,0.0,987.8,9.25,45.0,77,45.3,23.6,2.5,288.0,172.0,4.8,0,5,10,1,2026-05-06T12:01:38.768864+05:30
Kochi,Kerala,9.9312,76.2673,31.3,72,0.0,1006.8,7.95,32.0,63,32.4,17.5,2.5,168.0,106.0,2.1,3,5,4,1,2026-05-06T12:01:38.768871+05:30
Thiruvananthapuram,Kerala,8.5241,76.9366,33.2,60,0.0,1006.1,8.35,30.6,47,12.5,8.7,1.8,208.0,121.0,2.7,0,5,4,1,2026-05-06T12:01:38.768877+05:30
Kozhikode,Kerala,11.2588,75.7804,33.4,61,0.0,1005.4,9.05,42.5,65,42.0,19.2,0.9,170.0,88.0,2.0,3,5,4,1,2026-05-06T12:01:38.768884+05:30
Thrissur,Kerala,10.5276,76.2144,33.5,62,0.0,1004.8,9.05,31.3,71,42.5,21.8,1.8,174.0,109.0,2.2,3,5,4,1,2026-05-06T12:01:38.768891+05:30
Kannur,Kerala,11.8745,75.3704,35.3,49,0.0,1004.6,9.05,58.3,65,43.2,18.2,1.2,171.0,96.0,1.1,0,5,7,1,2026-05-06T12:01:38.768898+05:30
Patna,Bihar,25.5941,85.1376,30.0,56,0.0,1001.8,8.7,55.1,142,61.0,36.2,2.2,357.0,190.0,10.2,4,5,4,1,2026-05-06T12:01:38.768905+05:30
Gaya,Bihar,24.7914,85.0002,30.9,52,0.0,995.2,8.75,48.2,139,64.0,40.6,1.7,338.0,196.0,9.3,0,5,7,1,2026-05-06T12:01:38.768912+05:30
Muzaffarpur,Bihar,26.1209,85.3647,28.1,65,0.0,1002.0,8.7,33.1,140,54.4,34.5,2.4,339.0,192.0,11.5,7,5,4,1,2026-05-06T12:01:38.768919+05:30
Bhagalpur,Bihar,25.2425,87.0117,29.9,61,0.0,1002.5,8.7,32.8,113,59.6,46.3,4.3,390.0,203.0,18.5,7,5,4,1,2026-05-06T12:01:38.768925+05:30
Ranchi,Jharkhand,23.3441,85.3096,30.4,41,0.0,938.9,9.2,29.9,107,54.9,37.8,1.8,242.0,185.0,16.1,0,5,7,0,2026-05-06T12:01:38.768932+05:30
Jamshedpur,Jharkhand,22.8046,86.2029,33.2,43,0.0,991.4,9.05,26.6,102,58.9,44.2,4.4,254.0,212.0,34.6,0,5,7,1,2026-05-06T12:01:38.768938+05:30
Dhanbad,Jharkhand,23.7957,86.4304,31.2,52,0.0,980.8,8.95,27.0,157,83.1,60.5,13.4,293.0,218.0,44.5,0,5,7,1,2026-05-06T12:01:38.768944+05:30
Bokaro,Jharkhand,23.6693,86.1511,32.0,48,0.0,984.6,9.0,27.7,156,78.7,59.4,14.5,284.0,222.0,53.5,0,5,7,1,2026-05-06T12:01:38.768951+05:30
Bhubaneswar,Odisha,20.2961,85.8245,33.6,54,0.0,1002.6,9.1,32.4,53,25.5,19.2,2.2,239.0,116.0,4.1,0,5,4,1,2026-05-06T12:01:38.768957+05:30
Cuttack,Odisha,20.4625,85.8828,33.5,55,0.0,1004.3,9.15,33.1,53,25.5,19.2,2.2,270.0,116.0,4.1,0,5,4,1,2026-05-06T12:01:38.768963+05:30
Rourkela,Odisha,22.2604,84.8536,35.7,30,0.0,985.0,8.95,37.1,113,65.0,48.0,2.9,274.0,214.0,44.3,0,5,10,0,2026-05-06T12:01:38.768969+05:30
Raipur,Chhattisgarh,21.2514,81.6296,37.2,25,0.0,974.6,9.0,33.8,110,63.1,43.0,13.5,589.0,198.0,9.9,0,5,10,0,2026-05-06T12:01:38.768976+05:30
Bhilai,Chhattisgarh,21.1938,81.3509,36.8,26,0.0,975.0,9.0,33.1,118,64.3,43.0,17.1,1129.0,187.0,9.7,0,5,10,0,2026-05-06T12:01:38.768982+05:30
Guwahati,Assam,26.1158,91.7086,29.5,60,0.0,1002.0,8.65,28.1,80,26.9,19.8,1.0,281.0,136.0,1.3,4,5,4,1,2026-05-06T12:01:38.768989+05:30
Agartala,Tripura,23.8315,91.2868,30.0,64,0.0,1007.2,8.85,17.6,79,23.6,17.4,4.7,208.0,142.0,2.8,7,5,4,1,2026-05-06T12:01:38.768995+05:30
Shillong,Meghalaya,25.5788,91.8933,21.7,61,0.0,859.0,8.25,27.4,76,25.6,16.5,1.0,238.0,136.0,1.3,3,5,7,0,2026-05-06T12:01:38.769002+05:30
Imphal,Manipur,24.817,93.9368,28.1,53,0.0,924.1,8.85,28.8,78,23.6,14.2,0.8,190.0,104.0,1.0,4,5,7,1,2026-05-06T12:01:38.769008+05:30
Aizawl,Mizoram,23.7271,92.7176,24.4,53,0.0,894.5,8.75,18.7,64,25.4,14.1,0.6,169.0,100.0,1.7,0,5,7,0,2026-05-06T12:01:38.769015+05:30
Kohima,Nagaland,25.6701,94.1077,22.0,71,0.1,857.2,9.15,28.8,75,26.0,16.2,0.6,236.0,119.0,1.3,6,5,7,1,2026-05-06T12:01:38.769022+05:30
Gangtok,Sikkim,27.3314,88.6138,17.8,72,0.2,839.2,8.7,30.6,56,27.2,15.1,0.6,216.0,133.0,1.0,6,5,7,0,2026-05-06T12:01:38.769028+05:30
Siliguri,West Bengal,26.7271,88.3953,27.6,61,0.0,994.1,8.4,23.8,102,33.8,26.5,1.4,379.0,152.0,2.2,7,5,7,1,2026-05-06T12:01:42.158833+05:30
Durgapur,West Bengal,23.5204,87.3119,30.8,60,0.0,995.8,8.9,25.9,139,85.4,66.4,13.7,666.0,236.0,63.2,0,5,7,1,2026-05-06T12:01:42.158866+05:30
Asansol,West Bengal,23.6739,86.9524,31.9,53,0.0,994.3,8.95,25.9,137,86.1,63.1,11.4,432.0,231.0,49.3,0,5,7,1,2026-05-06T12:01:42.158877+05:30
Pondicherry,Puducherry,11.9139,79.8145,31.6,67,0.0,1007.8,8.75,38.9,52,18.2,12.7,2.3,227.0,129.0,5.4,3,5,4,1,2026-05-06T12:01:42.158885+05:30
Port Blair,Andaman and Nicobar Islands,11.6234,92.7265,31.0,68,0.0,1006.3,9.05,34.9,31,7.9,5.9,0.2,146.0,66.0,0.1,3,5,4,1,2026-05-06T12:01:42.158893+05:30
Haridwar,Uttarakhand,29.9457,78.1642,29.9,38,0.0,975.1,7.35,25.2,80,69.4,21.7,1.6,240.0,170.0,5.0,4,5,7,0,2026-05-06T12:01:42.158901+05:30
Rishikesh,Uttarakhand,30.0869,78.2676,29.6,35,0.0,967.6,7.45,27.7,73,65.2,18.6,0.9,184.0,152.0,2.5,4,5,7,0,2026-05-06T12:01:42.158908+05:30
Nainital,Uttarakhand,29.3919,79.4542,15.7,60,0.0,806.5,6.55,31.7,75,65.4,19.3,1.0,184.0,155.0,3.8,0,5,7,0,2026-05-06T12:01:42.158915+05:30
Mussoorie,Uttarakhand,30.4599,78.0664,18.3,46,0.0,804.5,7.3,39.6,69,58.2,16.4,1.1,181.0,152.0,3.2,0,5,7,0,2026-05-06T12:01:42.158922+05:30
Dharamshala,Himachal Pradesh,32.219,76.3234,18.4,63,0.1,870.1,8.15,36.0,50,25.4,9.7,0.6,203.0,155.0,1.7,6,5,7,0,2026-05-06T12:01:42.158929+05:30
Dalhousie,Himachal Pradesh,32.5387,75.971,14.9,62,0.0,805.4,8.35,33.5,56,45.6,15.4,1.2,211.0,166.0,5.7,3,5,7,0,2026-05-06T12:01:42.158936+05:30
Patiala,Punjab,30.3398,76.3869,31.6,33,0.0,979.4,7.45,43.6,194,217.0,40.9,1.8,239.0,176.0,13.7,0,5,7,0,2026-05-06T12:01:42.158944+05:30
Bhatinda,Punjab,30.211,74.9455,34.5,23,0.0,984.8,8.1,28.1,161,131.3,34.3,2.4,236.0,181.0,14.9,0,5,7,0,2026-05-06T12:01:42.158950+05:30
Rohtak,Haryana,28.8955,76.6066,33.2,27,0.0,983.2,7.55,46.8,154,270.1,51.6,2.7,236.0,199.0,18.4,0,5,7,0,2026-05-06T12:01:42.158957+05:30
Panipat,Haryana,29.3909,76.9635,32.2,31,0.0,981.7,7.4,52.9,302,394.9,59.3,4.6,240.0,188.0,24.9,0,5,7,0,2026-05-06T12:01:42.158964+05:30
Mathura,Uttar Pradesh,27.4924,77.6737,32.7,33,0.0,988.2,7.8,27.7,146,527.1,72.4,1.8,301.0,182.0,13.2,0,5,7,0,2026-05-06T12:01:42.158970+05:30
Vrindavan,Uttar Pradesh,27.5823,77.7027,33.0,31,0.0,988.5,7.8,27.4,146,527.1,72.4,1.8,292.0,182.0,13.2,0,5,7,0,2026-05-06T12:01:42.158977+05:30
Ayodhya,Uttar Pradesh,26.7922,82.1998,29.4,57,0.0,996.7,8.2,34.9,122,41.6,23.7,1.4,317.0,171.0,7.1,4,5,7,1,2026-05-06T12:01:42.158984+05:30
Ratlam,Madhya Pradesh,23.3315,75.0367,35.3,22,0.0,956.1,8.45,33.1,78,102.4,28.9,1.0,178.0,146.0,8.1,0,5,10,0,2026-05-06T12:01:42.158991+05:30
Sagar,Madhya Pradesh,23.8388,78.7378,34.5,19,0.0,951.4,8.65,36.0,74,43.5,15.0,0.6,191.0,154.0,3.5,0,5,7,0,2026-05-06T12:01:42.158998+05:30
Satna,Madhya Pradesh,24.6005,80.8322,33.0,32,0.0,972.1,8.7,35.6,120,70.8,27.6,0.9,225.0,161.0,5.3,0,5,7,0,2026-05-06T12:01:42.159004+05:30
Akola,Maharashtra,20.7002,77.0082,38.2,18,0.0,974.9,8.85,32.0,61,51.0,17.3,1.6,184.0,150.0,9.5,0,5,10,0,2026-05-06T12:01:42.159011+05:30
Amravati,Maharashtra,20.9374,77.7796,37.6,16,0.0,967.4,8.85,33.1,65,46.6,17.5,2.2,194.0,159.0,6.4,0,5,10,0,2026-05-06T12:01:42.159018+05:30
Latur,Maharashtra,18.4088,76.5604,36.8,20,0.0,940.2,9.05,36.4,64,43.1,17.6,1.5,164.0,145.0,12.2,0,5,10,0,2026-05-06T12:01:42.159025+05:30
Nanded,Maharashtra,19.1383,77.3091,38.4,19,0.0,968.3,9.0,27.4,70,49.0,20.0,1.8,171.0,154.0,7.5,0,5,10,0,2026-05-06T12:01:42.159031+05:30
Gulbarga,Karnataka,17.3297,76.8343,37.2,23,0.0,958.3,9.1,35.6,63,37.7,21.4,3.1,211.0,175.0,10.4,0,5,10,0,2026-05-06T12:01:42.159037+05:30
Bidar,Karnataka,17.9104,77.5199,36.1,22,0.0,936.2,9.15,38.2,83,43.5,25.7,2.1,195.0,162.0,7.7,0,5,10,0,2026-05-06T12:01:42.159044+05:30
Hospet,Karnataka,15.2689,76.3909,34.5,35,0.0,955.2,8.85,48.2,68,45.9,19.7,2.5,196.0,135.0,4.7,0,5,7,1,2026-05-06T12:01:42.159050+05:30
Tirupur,Tamil Nadu,11.1085,77.3411,35.4,37,0.0,974.2,9.35,29.9,77,40.7,23.2,2.8,255.0,187.0,6.4,0,5,10,1,2026-05-06T12:01:42.159056+05:30
Alappuzha,Kerala,9.4981,76.3388,31.6,71,0.0,1007.0,8.65,31.3,59,28.5,15.8,2.5,132.0,114.0,2.9,3,5,4,1,2026-05-06T12:01:42.159062+05:30
Munnar,Kerala,10.0889,77.0595,23.0,63,0.1,857.5,6.35,22.3,62,43.9,22.6,1.1,202.0,145.0,3.8,6,5,7,0,2026-05-06T12:01:42.159069+05:30
Silchar,Assam,24.8333,92.7789,30.5,59,0.0,1005.8,8.75,19.8,111,28.4,19.4,1.2,198.0,112.0,3.8,0,5,4,1,2026-05-06T12:01:42.159076+05:30
Dibrugarh,Assam,27.4728,94.912,27.4,68,0.0,996.6,8.8,29.9,75,34.3,20.3,1.0,253.0,133.0,1.1,7,5,7,1,2026-05-06T12:01:42.159082+05:30
