city,state,latitude,longitude,temp,humidity,rain,pressure,uv_index,wind_gusts,aqi,pm10,pm2_5,mosquito_risk,arthritis_risk,migraine_risk,frizz_risk,updated_at
Delhi,Delhi,28.6139,77.209,31.6,41,0.0,983.0,6.8,29.2,202,170.0,47.0,0,5,7,1,2026-04-17T19:23:36.162301+05:30
Mumbai,Maharashtra,19.076,72.8777,30.0,74,0.0,1008.0,7.05,22.3,151,75.0,25.6,7,0,4,1,2026-04-17T19:23:36.162341+05:30
Bangalore,Karnataka,12.9716,77.5946,31.0,28,0.0,911.7,9.2,34.9,159,22.2,19.6,0,5,7,0,2026-04-17T19:23:36.162356+05:30
Hyderabad,Telangana,17.385,78.4867,33.0,48,0.0,953.0,9.2,40.0,164,36.1,32.1,0,5,7,1,2026-04-17T19:23:36.162366+05:30
Chennai,Tamil Nadu,13.0827,80.2707,30.0,74,0.0,1006.9,8.95,33.1,35,11.3,7.7,7,5,4,1,2026-04-17T19:23:36.162376+05:30
Kolkata,West Bengal,22.5726,88.3639,29.5,78,0.0,1005.8,8.85,24.1,67,22.4,19.5,7,5,4,1,2026-04-17T19:23:36.162388+05:30
Pune,Maharashtra,18.5204,73.8567,31.1,54,0.0,948.4,7.85,42.1,154,26.5,20.3,0,5,7,1,2026-04-17T19:23:36.162396+05:30
Ahmedabad,Gujarat,23.0225,72.5714,36.2,22,0.0,1000.5,7.55,21.6,87,34.8,15.4,0,5,7,0,2026-04-17T19:23:36.162404+05:30
Jaipur,Rajasthan,26.9124,75.7873,35.1,22,0.0,959.2,7.55,28.4,100,118.5,23.2,0,5,10,0,2026-04-17T19:23:36.162414+05:30
Lucknow,Uttar Pradesh,26.8467,80.9462,32.9,32,0.0,992.6,7.35,19.4,175,57.6,27.1,0,5,7,0,2026-04-17T19:23:36.162423+05:30
Kanpur,Uttar Pradesh,26.4499,80.3319,31.6,46,0.0,990.5,7.85,15.8,153,173.7,32.9,0,5,7,1,2026-04-17T19:23:36.162431+05:30
Chandigarh,Chandigarh,30.7333,76.7794,25.9,49,0.0,969.8,7.2,34.2,118,51.8,17.3,4,5,7,0,2026-04-17T19:23:36.162439+05:30
Srinagar,Jammu and Kashmir,34.0837,74.7973,11.9,85,0.0,845.3,5.75,25.6,73,15.5,10.8,3,10,3,0,2026-04-17T19:23:36.162446+05:30
Jammu,Jammu and Kashmir,32.7266,74.857,28.5,37,0.0,974.5,4.95,47.9,78,56.6,20.6,4,5,3,0,2026-04-17T19:23:36.162453+05:30
Amritsar,Punjab,31.634,74.8723,28.5,36,0.0,981.9,7.25,32.0,98,32.1,14.1,4,5,7,0,2026-04-17T19:23:36.162460+05:30
Ludhiana,Punjab,30.901,75.8573,28.5,34,0.0,980.2,7.4,38.5,121,28.3,14.5,4,5,7,0,2026-04-17T19:23:36.162469+05:30
Jalandhar,Punjab,31.326,75.5762,27.5,36,0.0,981.4,6.85,38.2,100,50.8,14.5,4,5,7,0,2026-04-17T19:23:36.162476+05:30
Dehradun,Uttarakhand,30.6284,78.0322,19.8,41,0.0,833.1,6.8,33.5,97,35.4,13.3,0,5,7,0,2026-04-17T19:23:36.162482+05:30
Shimla,Himachal Pradesh,31.1048,77.1734,17.0,48,0.0,788.3,6.95,35.6,90,26.3,13.4,0,5,7,0,2026-04-17T19:23:36.162490+05:30
Manali,Himachal Pradesh,32.2396,77.1887,14.4,86,0.2,823.9,9.45,32.8,101,10.9,4.8,6,10,7,0,2026-04-17T19:23:36.162497+05:30
Gurgaon,Haryana,28.4595,77.0266,28.7,54,0.0,981.1,6.75,25.6,320,331.6,59.8,4,5,7,1,2026-04-17T19:23:36.162503+05:30
Noida,Uttar Pradesh,28.5355,77.391,31.5,42,0.0,984.4,6.8,23.0,320,331.6,59.8,0,5,7,1,2026-04-17T19:23:36.162510+05:30
Ghaziabad,Uttar Pradesh,28.6692,77.4538,31.0,46,0.0,982.6,6.65,27.4,205,183.5,46.7,0,5,7,1,2026-04-17T19:23:36.162517+05:30
Faridabad,Haryana,28.4089,77.3178,31.5,40,0.0,983.7,6.7,34.2,320,331.6,59.8,0,5,7,1,2026-04-17T19:23:36.162523+05:30
Meerut,Uttar Pradesh,28.9845,77.7064,30.2,45,0.0,981.4,6.4,16.2,205,183.5,46.7,0,5,7,1,2026-04-17T19:23:36.162530+05:30
Agra,Uttar Pradesh,27.1767,78.0081,32.7,32,0.0,986.7,6.4,17.6,196,185.3,55.3,0,5,7,0,2026-04-17T19:23:36.162538+05:30
Varanasi,Uttar Pradesh,25.3176,82.9739,32.9,36,0.0,996.1,8.45,23.8,163,64.0,30.9,0,5,7,0,2026-04-17T19:23:36.162545+05:30
Prayagraj,Uttar Pradesh,25.4358,81.8463,33.7,29,0.0,994.4,8.3,24.1,173,58.1,26.1,0,5,7,0,2026-04-17T19:23:36.162552+05:30
Gorakhpur,Uttar Pradesh,26.7606,83.3732,31.5,49,0.0,996.4,7.7,27.0,184,65.2,44.1,0,5,7,1,2026-04-17T19:23:36.162558+05:30
Bareilly,Uttar Pradesh,28.367,79.4304,29.0,56,0.0,986.2,6.85,22.7,172,57.4,27.5,4,5,7,1,2026-04-17T19:23:36.162565+05:30
Aligarh,Uttar Pradesh,27.8974,78.088,31.8,34,0.0,985.0,6.5,34.9,167,230.5,51.5,0,5,7,0,2026-04-17T19:23:36.162572+05:30
Moradabad,Uttar Pradesh,28.8386,78.7733,29.8,44,0.0,983.2,5.9,17.6,181,82.2,32.5,4,5,3,1,2026-04-17T19:23:36.162579+05:30
Saharanpur,Uttar Pradesh,29.9637,77.546,27.8,50,0.0,975.9,6.1,26.6,117,50.3,20.8,4,5,7,1,2026-04-17T19:23:36.162587+05:30
Jhansi,Uttar Pradesh,25.4484,78.5685,35.0,23,0.0,976.0,7.85,20.9,153,68.0,21.0,0,5,7,0,2026-04-17T19:23:39.389311+05:30
Surat,Gujarat,21.1702,72.8311,29.8,59,0.0,1005.9,7.6,23.4,104,70.3,52.2,4,5,4,1,2026-04-17T19:23:39.389343+05:30
Vadodara,Gujarat,22.3072,73.1812,34.5,26,0.0,1002.9,7.8,22.7,120,37.7,22.4,0,5,4,0,2026-04-17T19:23:39.389354+05:30
Rajkot,Gujarat,22.3039,70.8022,33.6,22,0.0,993.8,7.85,30.2,79,57.5,18.5,0,5,7,0,2026-04-17T19:23:39.389362+05:30
Thane,Maharashtra,19.2183,72.9781,29.3,75,0.0,1007.4,7.1,32.8,151,75.0,25.6,7,5,4,1,2026-04-17T19:23:39.389370+05:30
Nagpur,Maharashtra,21.1458,79.0882,33.3,41,0.0,971.0,8.25,22.3,214,45.6,31.3,0,5,7,1,2026-04-17T19:23:39.389379+05:30
Nashik,Maharashtra,19.9975,73.7898,30.7,40,0.0,946.0,7.35,33.5,96,26.0,14.2,0,5,7,0,2026-04-17T19:23:39.389387+05:30
Aurangabad,Maharashtra,19.8762,75.3433,34.2,20,0.0,944.0,8.1,34.6,118,12.6,9.7,0,5,7,0,2026-04-17T19:23:39.389396+05:30
Solapur,Maharashtra,17.6599,75.9064,36.0,28,0.0,956.2,8.5,22.0,167,39.1,32.1,0,5,10,0,2026-04-17T19:23:39.389404+05:30
Kolhapur,Maharashtra,16.705,74.2433,28.5,55,0.0,947.4,8.2,40.7,140,25.6,21.5,4,5,7,1,2026-04-17T19:23:39.389412+05:30
Goa,Goa,15.2993,74.124,29.0,73,0.0,997.3,8.6,33.1,69,34.8,16.6,7,5,7,1,2026-04-17T19:23:39.389420+05:30
Jodhpur,Rajasthan,26.2389,73.0243,34.1,22,0.0,981.4,8.15,32.8,93,123.4,17.5,0,5,7,0,2026-04-17T19:23:39.389428+05:30
Udaipur,Rajasthan,24.5854,73.7125,32.4,15,0.0,946.5,7.85,28.8,74,14.3,5.9,0,5,7,0,2026-04-17T19:23:39.389435+05:30
Kota,Rajasthan,25.2138,75.8648,37.1,24,0.0,976.5,7.15,27.0,104,42.3,21.1,0,5,10,0,2026-04-17T19:23:39.389444+05:30
Bikaner,Rajasthan,28.0229,73.3119,37.8,15,0.0,979.1,8.0,27.4,82,29.6,10.2,0,5,10,0,2026-04-17T19:23:39.389452+05:30
Ajmer,Rajasthan,26.4499,74.6399,33.3,27,0.0,953.7,7.8,31.7,88,23.9,10.9,0,5,7,0,2026-04-17T19:23:39.389459+05:30
Gwalior,Madhya Pradesh,26.2183,78.1828,34.6,35,0.0,981.9,7.15,25.2,145,87.8,24.6,0,5,7,1,2026-04-17T19:23:39.389467+05:30
Indore,Madhya Pradesh,22.7196,75.8577,32.1,31,0.0,948.1,7.75,27.0,137,25.8,18.3,0,5,7,0,2026-04-17T19:23:39.389475+05:30
Bhopal,Madhya Pradesh,23.2599,77.4126,35.8,25,0.0,952.7,7.8,29.2,134,26.4,16.9,0,5,10,0,2026-04-17T19:23:39.389483+05:30
Jabalpur,Madhya Pradesh,23.1815,79.9864,33.5,34,0.0,960.0,8.65,24.5,150,44.9,19.8,0,5,7,0,2026-04-17T19:23:39.389490+05:30
Ujjain,Madhya Pradesh,23.1765,75.7885,32.5,30,0.0,953.8,7.85,27.7,122,28.4,20.9,0,5,7,0,2026-04-17T19:23:39.389498+05:30
Visakhapatnam,Andhra Pradesh,17.6868,83.2185,28.6,83,0.0,1003.4,9.2,37.1,47,16.7,12.7,7,5,4,1,2026-04-17T19:23:39.389506+05:30
Vijayawada,Andhra Pradesh,16.5062,80.648,31.5,62,0.0,1001.7,9.15,23.4,50,20.9,17.6,3,5,4,1,2026-04-17T19:23:39.389513+05:30
Guntur,Andhra Pradesh,16.3067,80.4365,30.0,72,0.0,1003.3,9.2,26.6,82,24.9,21.4,7,5,4,1,2026-04-17T19:23:39.389521+05:30
Nellore,Andhra Pradesh,14.4426,79.9865,29.8,74,0.0,1004.9,9.3,33.8,90,16.3,13.0,7,5,4,1,2026-04-17T19:23:39.389529+05:30
Kurnool,Andhra Pradesh,15.8281,78.0373,37.6,27,0.0,975.0,9.2,27.0,161,29.1,25.2,0,5,10,0,2026-04-17T19:23:39.389537+05:30
Kakinada,Andhra Pradesh,16.9891,82.2475,30.2,71,0.0,1006.5,9.2,30.6,32,11.1,7.6,3,5,4,1,2026-04-17T19:23:39.389544+05:30
Tirupati,Andhra Pradesh,13.6288,79.4192,32.3,56,0.0,991.2,9.25,31.7,126,28.1,25.3,0,5,7,1,2026-04-17T19:23:39.389551+05:30
Warangal,Telangana,17.9689,79.5941,33.4,56,0.0,977.3,9.1,26.6,138,44.7,39.6,0,5,7,1,2026-04-17T19:23:39.389559+05:30
Nizamabad,Telangana,18.6725,78.0941,35.0,35,0.0,963.7,9.05,22.7,156,37.6,31.7,0,5,7,1,2026-04-17T19:23:39.389565+05:30
Mysore,Karnataka,12.2958,76.6396,32.0,26,0.0,927.6,9.3,38.9,152,26.8,23.5,0,5,7,0,2026-04-17T19:23:39.389573+05:30
Mangalore,Karnataka,12.9141,74.856,30.2,79,0.0,1005.7,9.15,25.2,84,30.7,20.0,3,5,4,1,2026-04-17T19:23:39.389580+05:30
Hubli-Dharwad,Karnataka,15.3647,75.124,31.1,52,0.0,940.3,9.15,33.1,152,34.7,29.7,0,5,7,1,2026-04-17T19:23:39.389588+05:30
Belgaum,Karnataka,15.8497,74.4977,27.0,75,0.0,925.5,8.95,39.2,146,27.4,21.3,7,5,7,1,2026-04-17T19:23:42.612397+05:30
Coimbatore,Tamil Nadu,11.0168,76.9558,29.4,62,0.0,961.3,9.05,38.2,153,26.5,23.1,7,5,7,1,2026-04-17T19:23:42.612429+05:30
Madurai,Tamil Nadu,9.9252,78.1198,33.9,47,0.0,991.8,9.35,28.8,115,23.1,19.7,0,5,7,1,2026-04-17T19:23:42.612441+05:30
Trichy,Tamil Nadu,10.7905,78.7047,32.0,63,0.0,998.6,9.25,20.2,97,23.8,21.2,3,5,7,1,2026-04-17T19:23:42.612450+05:30
Salem,Tamil Nadu,11.6643,78.146,32.7,52,0.0,976.1,9.05,24.1,126,24.2,20.0,0,5,7,1,2026-04-17T19:23:42.612458+05:30
Tirunelveli,Tamil Nadu,8.7139,77.7567,31.2,63,0.0,1002.2,8.8,43.2,117,26.0,22.6,3,5,4,1,2026-04-17T19:23:42.612467+05:30
Vellore,Tamil Nadu,12.9165,79.1325,31.2,61,0.0,984.1,8.8,27.7,132,29.9,27.7,3,5,7,1,2026-04-17T19:23:42.612475+05:30
Erode,Tamil Nadu,11.341,77.7172,34.7,42,0.0,987.4,9.3,28.8,137,21.7,18.3,0,5,7,1,2026-04-17T19:23:42.612483+05:30
Kochi,Kerala,9.9312,76.2673,30.2,80,0.0,1007.3,8.9,29.9,99,40.4,29.7,3,5,4,1,2026-04-17T19:23:42.612490+05:30
Thiruvananthapuram,Kerala,8.5241,76.9366,29.3,83,0.0,1007.3,8.85,28.4,93,29.4,20.1,7,5,4,1,2026-04-17T19:23:42.612498+05:30
Kozhikode,Kerala,11.2588,75.7804,30.9,77,0.0,1006.5,8.85,32.8,102,47.7,24.7,3,5,4,1,2026-04-17T19:23:42.612506+05:30
Thrissur,Kerala,10.5276,76.2144,30.5,75,0.0,1005.8,8.6,41.8,100,38.1,27.8,3,5,4,1,2026-04-17T19:23:42.612514+05:30
Kannur,Kerala,11.8745,75.3704,30.4,78,0.0,1006.0,8.2,30.6,105,43.9,25.9,3,5,4,1,2026-04-17T19:23:42.612522+05:30
Patna,Bihar,25.5941,85.1376,32.2,56,0.0,999.5,8.25,25.2,185,75.7,54.6,0,5,7,1,2026-04-17T19:23:42.612530+05:30
Gaya,Bihar,24.7914,85.0002,31.9,52,0.0,992.7,8.45,15.5,179,65.7,41.9,0,5,7,1,2026-04-17T19:23:42.612538+05:30
Muzaffarpur,Bihar,26.1209,85.3647,30.1,65,0.0,999.8,8.45,24.8,178,81.5,60.5,3,5,7,1,2026-04-17T19:23:42.612546+05:30
Bhagalpur,Bihar,25.2425,87.0117,29.4,74,0.0,1001.0,8.55,21.6,173,77.5,61.0,7,5,4,1,2026-04-17T19:23:42.612554+05:30
Ranchi,Jharkhand,23.3441,85.3096,30.7,28,0.0,938.2,9.15,38.5,162,48.8,17.6,0,5,7,0,2026-04-17T19:23:42.612562+05:30
Jamshedpur,Jharkhand,22.8046,86.2029,31.3,65,0.0,990.3,9.0,26.6,136,57.0,40.7,3,5,7,1,2026-04-17T19:23:42.612570+05:30
Dhanbad,Jharkhand,23.7957,86.4304,32.5,49,0.0,979.4,8.9,27.7,150,85.4,63.3,0,5,7,1,2026-04-17T19:23:42.612577+05:30
Bokaro,Jharkhand,23.6693,86.1511,31.6,58,0.0,983.4,8.9,24.1,155,94.1,55.9,0,5,7,1,2026-04-17T19:23:42.612585+05:30
Bhubaneswar,Odisha,20.2961,85.8245,28.3,84,0.0,1002.9,9.1,26.6,88,15.9,12.9,7,5,4,1,2026-04-17T19:23:42.612593+05:30
Cuttack,Odisha,20.4625,85.8828,29.8,78,0.0,1004.4,9.15,25.2,88,15.9,12.9,7,5,4,1,2026-04-17T19:23:42.612601+05:30
Rourkela,Odisha,22.2604,84.8536,31.5,62,0.0,984.0,8.9,43.2,194,73.1,40.5,3,5,7,1,2026-04-17T19:23:42.612608+05:30
Raipur,Chhattisgarh,21.2514,81.6296,35.1,36,0.0,972.7,8.95,39.6,219,60.5,39.8,0,5,10,1,2026-04-17T19:23:42.612616+05:30
Bhilai,Chhattisgarh,21.1938,81.3509,34.4,44,0.0,972.9,8.95,42.5,199,54.1,35.0,0,5,7,1,2026-04-17T19:23:42.612624+05:30
Guwahati,Assam,26.1158,91.7086,28.3,72,0.0,1002.3,8.55,22.3,151,66.4,53.7,7,5,4,1,2026-04-17T19:23:42.612631+05:30
Agartala,Tripura,23.8315,91.2868,29.4,76,0.0,1006.1,8.75,19.4,129,51.8,46.4,7,5,4,1,2026-04-17T19:23:42.612639+05:30
Shillong,Meghalaya,25.5788,91.8933,16.7,86,0.0,857.9,6.65,28.1,125,63.6,51.1,3,10,7,0,2026-04-17T19:23:42.612647+05:30
Imphal,Manipur,24.817,93.9368,21.0,82,0.0,924.5,9.1,40.3,150,85.2,67.1,3,5,7,1,2026-04-17T19:23:42.612655+05:30
Aizawl,Mizoram,23.7271,92.7176,22.8,75,0.0,893.9,9.0,36.0,156,74.7,61.7,3,5,7,1,2026-04-17T19:23:42.612663+05:30
Kohima,Nagaland,25.6701,94.1077,17.0,98,0.0,856.7,8.4,52.2,120,72.9,46.6,3,10,7,1,2026-04-17T19:23:42.612670+05:30
Gangtok,Sikkim,27.3314,88.6138,17.2,92,0.0,839.2,8.85,19.8,128,76.4,51.1,3,10,7,0,2026-04-17T19:23:42.612678+05:30
Siliguri,West Bengal,26.7271,88.3953,23.8,76,0.0,994.9,8.5,18.4,160,106.2,70.1,3,5,7,1,2026-04-17T19:23:45.854893+05:30
Durgapur,West Bengal,23.5204,87.3119,31.2,64,0.0,994.5,8.85,19.8,121,72.6,59.1,3,5,7,1,2026-04-17T19:23:45.854920+05:30
Asansol,West Bengal,23.6739,86.9524,31.7,59,0.0,993.2,8.9,21.2,127,75.4,58.4,0,5,7,1,2026-04-17T19:23:45.854929+05:30
Pondicherry,Puducherry,11.9139,79.8145,29.3,79,0.0,1007.8,8.6,27.4,33,11.1,7.5,7,5,4,1,2026-04-17T19:23:45.854936+05:30
Port Blair,Andaman and Nicobar Islands,11.6234,92.7265,29.6,69,0.0,1007.9,9.2,20.9,47,12.1,8.4,7,5,4,1,2026-04-17T19:23:45.854943+05:30
Haridwar,Uttarakhand,29.9457,78.1642,30.4,51,0.0,974.5,5.95,24.8,109,57.3,20.3,0,5,3,1,2026-04-17T19:23:45.854949+05:30
Rishikesh,Uttarakhand,30.0869,78.2676,29.2,52,0.0,967.6,6.05,24.8,105,41.1,13.0,4,5,7,1,2026-04-17T19:23:45.854956+05:30
Nainital,Uttarakhand,29.3919,79.4542,23.1,43,0.0,809.2,7.65,56.2,142,34.3,15.1,0,5,7,0,2026-04-17T19:23:45.854962+05:30
Mussoorie,Uttarakhand,30.4599,78.0664,20.1,43,0.0,805.3,6.65,43.6,112,58.9,17.1,0,5,7,0,2026-04-17T19:23:45.854968+05:30
Dharamshala,Himachal Pradesh,32.219,76.3234,21.7,44,0.0,871.7,6.9,36.7,76,24.1,9.4,0,5,7,0,2026-04-17T19:23:45.854974+05:30
Dalhousie,Himachal Pradesh,32.5387,75.971,19.3,41,0.0,806.6,5.15,34.2,87,30.4,12.9,0,5,3,0,2026-04-17T19:23:45.854981+05:30
Patiala,Punjab,30.3398,76.3869,27.9,45,0.0,979.1,7.2,34.9,137,568.1,62.2,4,5,7,0,2026-04-17T19:23:45.854987+05:30
Bhatinda,Punjab,30.211,74.9455,31.9,26,0.0,984.2,7.8,43.6,139,292.4,44.8,0,5,7,0,2026-04-17T19:23:45.854992+05:30
Rohtak,Haryana,28.8955,76.6066,28.9,59,0.0,981.6,6.55,25.6,191,414.4,69.4,4,5,7,1,2026-04-17T19:23:45.854998+05:30
Panipat,Haryana,29.3909,76.9635,29.3,46,0.0,980.6,6.8,19.8,458,440.5,79.4,4,5,7,1,2026-04-17T19:23:45.855004+05:30
Mathura,Uttar Pradesh,27.4924,77.6737,31.1,37,0.0,986.0,6.75,23.8,179,156.5,43.5,0,5,7,0,2026-04-17T19:23:45.855010+05:30
Vrindavan,Uttar Pradesh,27.5823,77.7027,30.8,38,0.0,986.6,6.6,29.5,179,156.5,43.5,0,5,7,0,2026-04-17T19:23:45.855016+05:30
Ayodhya,Uttar Pradesh,26.7922,82.1998,32.7,47,0.0,994.2,7.05,27.4,174,46.7,30.9,0,5,7,1,2026-04-17T19:23:45.855021+05:30
Ratlam,Madhya Pradesh,23.3315,75.0367,29.3,50,0.0,954.4,7.5,28.1,116,17.6,11.5,4,5,7,1,2026-04-17T19:23:45.855027+05:30
Sagar,Madhya Pradesh,23.8388,78.7378,35.0,34,0.0,949.3,7.75,22.7,137,31.4,15.2,0,5,7,1,2026-04-17T19:23:45.855033+05:30
Satna,Madhya Pradesh,24.6005,80.8322,35.8,18,0.0,970.2,8.6,16.9,156,64.7,17.3,0,5,10,0,2026-04-17T19:23:45.855039+05:30
Akola,Maharashtra,20.7002,77.0082,36.2,20,0.0,973.6,8.05,26.3,145,14.8,13.1,0,5,10,0,2026-04-17T19:23:45.855045+05:30
Amravati,Maharashtra,20.9374,77.7796,35.0,31,0.0,965.6,8.15,17.3,147,17.1,13.9,0,5,7,0,2026-04-17T19:23:45.855052+05:30
Latur,Maharashtra,18.4088,76.5604,33.1,35,0.0,939.4,8.6,31.7,164,32.6,28.2,0,5,7,0,2026-04-17T19:23:45.855089+05:30
Nanded,Maharashtra,19.1383,77.3091,34.4,38,0.0,966.9,8.65,18.4,150,27.1,22.2,0,5,7,1,2026-04-17T19:23:45.855101+05:30
Gulbarga,Karnataka,17.3297,76.8343,34.8,34,0.0,958.5,8.65,37.4,177,32.5,28.6,0,5,7,1,2026-04-17T19:23:45.855107+05:30
Bidar,Karnataka,17.9104,77.5199,30.8,52,0.0,935.5,8.85,49.0,172,38.2,33.1,0,5,7,1,2026-04-17T19:23:45.855114+05:30
Hospet,Karnataka,15.2689,76.3909,34.0,40,0.0,954.7,9.25,22.7,177,34.2,30.4,0,5,7,1,2026-04-17T19:23:45.855119+05:30
Tirupur,Tamil Nadu,11.1085,77.3411,34.8,33,0.0,973.9,8.95,32.8,152,23.5,19.6,0,5,7,1,2026-04-17T19:23:45.855125+05:30
Alappuzha,Kerala,9.4981,76.3388,30.1,81,0.0,1007.6,8.25,28.4,103,39.2,27.1,3,5,4,1,2026-04-17T19:23:45.855131+05:30
Munnar,Kerala,10.0889,77.0595,23.8,83,0.0,857.3,9.05,28.4,98,31.3,27.1,3,5,7,1,2026-04-17T19:23:45.855137+05:30
Silchar,Assam,24.8333,92.7789,29.1,71,0.0,1005.0,8.75,19.4,156,109.4,80.8,7,5,4,1,2026-04-17T19:23:45.855143+05:30
Dibrugarh,Assam,27.4728,94.912,27.7,71,0.0,996.3,8.65,11.5,145,83.8,57.7,7,5,7,1,2026-04-17T19:23:45.855148+05:30
