city,state,latitude,longitude,temp,humidity,rain,pressure,uv_index,wind_gusts,aqi,pm10,pm2_5,no2,co,o3,so2,mosquito_risk,arthritis_risk,migraine_risk,frizz_risk,updated_at
Delhi,Delhi,28.6139,77.209,27.2,62,0.0,977.8,7.75,39.2,253,276.6,129.0,76.1,238.0,6.0,34.7,7,5,7,1,2026-06-15T05:43:45.383825+05:30
Mumbai,Maharashtra,19.076,72.8777,29.3,73,0.0,1007.4,7.7,48.2,61,31.2,13.1,2.5,146.0,51.0,2.4,7,5,4,1,2026-06-15T05:43:45.383865+05:30
Bangalore,Karnataka,12.9716,77.5946,20.4,95,0.0,910.4,9.05,41.0,54,13.7,8.9,7.8,195.0,37.0,3.3,3,5,7,1,2026-06-15T05:43:45.383880+05:30
Hyderabad,Telangana,17.385,78.4867,26.3,60,0.0,950.6,8.8,38.5,87,38.9,26.9,9.9,196.0,57.0,6.4,4,5,7,1,2026-06-15T05:43:45.383889+05:30
Chennai,Tamil Nadu,13.0827,80.2707,28.1,71,0.0,1003.9,8.4,36.4,64,31.5,21.0,13.9,250.0,53.0,8.5,7,5,4,1,2026-06-15T05:43:45.383897+05:30
Kolkata,West Bengal,22.5726,88.3639,28.0,93,0.0,1001.3,9.0,40.0,128,61.0,55.1,19.4,526.0,56.0,8.9,7,5,4,1,2026-06-15T05:43:45.383905+05:30
Pune,Maharashtra,18.5204,73.8567,24.3,85,0.0,947.6,8.3,50.0,52,20.1,10.8,6.3,121.0,41.0,6.4,3,5,7,1,2026-06-15T05:43:45.383912+05:30
Ahmedabad,Gujarat,23.0225,72.5714,29.4,72,0.0,999.8,8.05,45.7,68,37.4,17.4,4.5,121.0,41.0,4.0,7,5,7,1,2026-06-15T05:43:45.383918+05:30
Jaipur,Rajasthan,26.9124,75.7873,26.1,70,0.0,955.1,8.25,32.0,132,141.1,46.7,7.0,179.0,48.0,4.0,7,5,7,1,2026-06-15T05:43:45.383929+05:30
Lucknow,Uttar Pradesh,26.8467,80.9462,27.6,75,0.0,988.3,8.35,22.7,164,397.7,129.5,68.4,387.0,4.0,19.6,7,5,7,1,2026-06-15T05:43:45.383935+05:30
Kanpur,Uttar Pradesh,26.4499,80.3319,30.1,50,0.0,986.9,8.3,35.6,275,317.6,105.2,63.5,199.0,5.0,13.7,0,5,7,1,2026-06-15T05:43:45.383942+05:30
Chandigarh,Chandigarh,30.7333,76.7794,23.4,69,0.0,963.4,7.8,24.8,80,29.9,26.5,34.5,437.0,18.0,5.0,3,5,7,1,2026-06-15T05:43:45.383949+05:30
Srinagar,Jammu and Kashmir,34.0837,74.7973,12.4,94,0.0,837.8,9.05,21.6,76,37.1,32.6,18.1,276.0,23.0,0.9,3,10,7,0,2026-06-15T05:43:45.383957+05:30
Jammu,Jammu and Kashmir,32.7266,74.857,24.2,58,0.0,967.2,8.6,26.6,77,31.5,29.0,37.5,315.0,4.0,1.7,0,5,7,0,2026-06-15T05:43:45.383964+05:30
Amritsar,Punjab,31.634,74.8723,24.7,70,0.0,974.9,8.45,18.0,114,56.3,45.8,33.0,599.0,36.0,4.1,3,5,7,1,2026-06-15T05:43:45.383972+05:30
Ludhiana,Punjab,30.901,75.8573,25.5,72,0.0,973.0,8.05,33.8,110,75.4,66.4,53.1,661.0,15.0,11.9,7,5,7,1,2026-06-15T05:43:45.383979+05:30
Jalandhar,Punjab,31.326,75.5762,24.7,68,0.0,974.0,8.2,22.0,93,53.8,43.3,35.9,479.0,28.0,5.7,3,5,7,1,2026-06-15T05:43:45.383985+05:30
Dehradun,Uttarakhand,30.6284,78.0322,13.0,94,0.0,825.5,8.25,32.4,33,10.9,8.7,18.1,205.0,9.0,0.1,3,10,7,0,2026-06-15T05:43:45.383992+05:30
Shimla,Himachal Pradesh,31.1048,77.1734,10.4,76,0.0,778.4,8.1,38.9,52,14.0,11.8,11.0,182.0,48.0,0.1,3,5,7,0,2026-06-15T05:43:45.384000+05:30
Manali,Himachal Pradesh,32.2396,77.1887,12.5,64,0.0,814.9,9.5,37.8,61,1.3,1.2,5.4,148.0,120.0,0.0,3,5,7,0,2026-06-15T05:43:45.384006+05:30
Gurgaon,Haryana,28.4595,77.0266,27.8,56,0.0,976.3,7.85,49.0,408,381.8,123.9,50.8,220.0,12.0,22.6,4,5,7,1,2026-06-15T05:43:45.384012+05:30
Noida,Uttar Pradesh,28.5355,77.391,27.3,66,0.0,979.4,7.8,31.3,408,381.8,123.9,50.8,235.0,12.0,22.6,7,5,7,1,2026-06-15T05:43:45.384018+05:30
Ghaziabad,Uttar Pradesh,28.6692,77.4538,26.8,73,0.0,977.6,7.8,32.4,206,246.8,118.7,60.0,430.0,11.0,12.0,7,5,7,1,2026-06-15T05:43:45.384024+05:30
Faridabad,Haryana,28.4089,77.3178,27.8,58,0.0,978.6,7.85,39.2,408,381.8,123.9,50.8,223.0,12.0,22.6,4,5,7,1,2026-06-15T05:43:45.384030+05:30
Meerut,Uttar Pradesh,28.9845,77.7064,26.1,83,0.0,976.6,7.7,30.2,206,246.8,118.7,60.0,683.0,11.0,12.0,7,5,7,1,2026-06-15T05:43:45.384036+05:30
Agra,Uttar Pradesh,27.1767,78.0081,28.6,57,0.0,983.2,8.15,60.5,448,646.3,102.2,15.1,178.0,41.0,5.2,4,5,7,1,2026-06-15T05:43:45.384044+05:30
Varanasi,Uttar Pradesh,25.3176,82.9739,29.8,61,0.0,992.6,8.8,36.4,155,83.4,47.7,28.4,669.0,48.0,12.6,7,5,7,1,2026-06-15T05:43:45.384051+05:30
Prayagraj,Uttar Pradesh,25.4358,81.8463,30.5,56,0.0,991.0,8.7,34.9,157,119.7,67.5,41.9,214.0,31.0,13.8,0,5,7,1,2026-06-15T05:43:45.384057+05:30
Gorakhpur,Uttar Pradesh,26.7606,83.3732,27.3,84,0.0,992.4,8.7,27.7,149,79.4,58.7,26.3,758.0,43.0,7.2,7,5,7,1,2026-06-15T05:43:45.384065+05:30
Bareilly,Uttar Pradesh,28.367,79.4304,25.8,84,0.0,981.9,8.1,39.2,158,131.8,73.3,38.4,556.0,27.0,9.4,7,5,7,1,2026-06-15T05:43:45.384071+05:30
Aligarh,Uttar Pradesh,27.8974,78.088,27.2,61,0.0,980.7,7.95,41.4,364,291.5,95.0,35.8,201.0,17.0,6.8,7,5,7,1,2026-06-15T05:43:45.384078+05:30
Moradabad,Uttar Pradesh,28.8386,78.7733,26.0,82,0.0,978.9,7.95,37.1,167,217.9,112.5,61.1,602.0,10.0,14.4,7,5,7,1,2026-06-15T05:43:45.384084+05:30
Saharanpur,Uttar Pradesh,29.9637,77.546,25.9,74,0.0,970.8,7.55,23.0,121,37.3,35.6,36.4,638.0,14.0,5.5,7,5,7,1,2026-06-15T05:43:45.384090+05:30
Jhansi,Uttar Pradesh,25.4484,78.5685,29.0,53,0.0,973.9,8.35,29.2,94,76.6,39.0,8.5,163.0,60.0,13.4,4,5,7,1,2026-06-15T05:43:48.894545+05:30
Surat,Gujarat,21.1702,72.8311,29.2,76,0.0,1004.8,7.55,50.4,70,45.1,22.6,14.9,290.0,35.0,25.8,7,5,4,1,2026-06-15T05:43:48.894581+05:30
Vadodara,Gujarat,22.3072,73.1812,29.5,66,0.0,1001.8,8.0,46.4,76,34.9,20.0,8.3,116.0,34.0,4.6,7,5,4,1,2026-06-15T05:43:48.894594+05:30
Rajkot,Gujarat,22.3039,70.8022,27.8,79,0.0,992.2,7.55,50.8,66,37.0,16.3,3.5,94.0,45.0,3.6,7,5,7,1,2026-06-15T05:43:48.894605+05:30
Thane,Maharashtra,19.2183,72.9781,28.8,76,0.0,1006.8,7.7,44.6,61,31.2,13.1,2.5,155.0,51.0,2.4,7,5,4,1,2026-06-15T05:43:48.894613+05:30
Nagpur,Maharashtra,21.1458,79.0882,27.7,63,0.0,969.8,8.9,56.9,97,56.7,33.2,9.4,222.0,69.0,10.3,7,5,7,1,2026-06-15T05:43:48.894621+05:30
Nashik,Maharashtra,19.9975,73.7898,24.0,90,0.0,944.5,8.05,52.2,54,21.1,10.3,3.6,105.0,42.0,1.2,3,5,7,1,2026-06-15T05:43:48.894628+05:30
Aurangabad,Maharashtra,19.8762,75.3433,25.3,80,0.0,942.9,8.95,49.0,61,16.9,9.3,5.8,116.0,39.0,4.5,7,5,7,1,2026-06-15T05:43:48.894635+05:30
Solapur,Maharashtra,17.6599,75.9064,25.9,76,0.0,956.5,8.9,47.9,62,13.8,9.3,6.6,124.0,39.0,4.8,7,5,7,1,2026-06-15T05:43:48.894642+05:30
Kolhapur,Maharashtra,16.705,74.2433,23.7,91,0.0,947.5,8.75,52.6,47,20.1,13.2,7.3,126.0,32.0,2.4,3,5,7,1,2026-06-15T05:43:48.894649+05:30
Goa,Goa,15.2993,74.124,25.1,96,0.0,997.7,8.7,35.6,61,38.5,25.0,9.0,519.0,38.0,2.1,7,5,7,1,2026-06-15T05:43:48.894656+05:30
Jodhpur,Rajasthan,26.2389,73.0243,29.0,68,0.0,978.8,8.45,40.7,169,346.5,78.5,1.9,102.0,48.0,3.0,7,5,7,1,2026-06-15T05:43:48.894663+05:30
Udaipur,Rajasthan,24.5854,73.7125,25.4,81,0.0,943.2,8.85,43.6,74,23.8,13.9,3.0,107.0,46.0,2.4,7,5,7,1,2026-06-15T05:43:48.894671+05:30
Kota,Rajasthan,25.2138,75.8648,28.1,66,0.0,974.4,8.4,33.1,109,51.0,28.8,6.4,189.0,51.0,4.3,7,5,7,1,2026-06-15T05:43:48.894678+05:30
Bikaner,Rajasthan,28.0229,73.3119,30.7,52,0.0,976.3,8.5,35.6,155,378.1,115.9,1.4,112.0,72.0,3.8,0,5,7,1,2026-06-15T05:43:48.894685+05:30
Ajmer,Rajasthan,26.4499,74.6399,27.6,65,0.0,950.6,8.35,49.0,112,88.2,32.5,4.2,128.0,49.0,3.0,7,5,7,1,2026-06-15T05:43:48.894692+05:30
Gwalior,Madhya Pradesh,26.2183,78.1828,28.1,57,0.0,978.7,8.3,36.0,104,68.5,36.6,6.1,141.0,62.0,6.9,4,5,7,1,2026-06-15T05:43:48.894698+05:30
Indore,Madhya Pradesh,22.7196,75.8577,26.1,79,0.0,945.5,8.65,47.9,97,28.5,18.1,7.9,157.0,39.0,10.9,7,5,7,1,2026-06-15T05:43:48.894726+05:30
Bhopal,Madhya Pradesh,23.2599,77.4126,26.6,65,0.0,950.4,8.65,56.2,98,83.4,38.0,6.3,269.0,65.0,2.8,7,5,7,1,2026-06-15T05:43:48.894735+05:30
Jabalpur,Madhya Pradesh,23.1815,79.9864,27.3,63,0.0,957.9,7.55,34.2,90,56.7,31.5,7.8,232.0,68.0,3.3,7,5,7,1,2026-06-15T05:43:48.894742+05:30
Ujjain,Madhya Pradesh,23.1765,75.7885,26.4,77,0.0,951.0,8.55,46.8,92,31.3,20.7,8.7,168.0,36.0,12.1,7,5,7,1,2026-06-15T05:43:48.894749+05:30
Visakhapatnam,Andhra Pradesh,17.6868,83.2185,28.5,79,0.0,998.1,8.95,41.0,131,79.4,66.1,43.8,475.0,40.0,58.1,7,5,7,1,2026-06-15T05:43:48.894756+05:30
Vijayawada,Andhra Pradesh,16.5062,80.648,28.1,70,0.0,997.7,9.0,32.4,90,44.1,29.9,13.3,258.0,43.0,6.0,7,5,7,1,2026-06-15T05:43:48.894763+05:30
Guntur,Andhra Pradesh,16.3067,80.4365,27.8,68,0.0,999.1,8.95,38.5,86,46.0,29.3,13.6,219.0,43.0,6.2,7,5,7,1,2026-06-15T05:43:48.894769+05:30
Nellore,Andhra Pradesh,14.4426,79.9865,29.6,63,0.0,1002.1,8.95,42.8,65,24.4,16.1,8.1,133.0,47.0,4.2,7,5,4,1,2026-06-15T05:43:48.894777+05:30
Kurnool,Andhra Pradesh,15.8281,78.0373,26.8,71,0.0,975.0,8.95,42.5,70,16.1,11.2,8.6,136.0,38.0,5.1,7,5,7,1,2026-06-15T05:43:48.894784+05:30
Kakinada,Andhra Pradesh,16.9891,82.2475,28.6,75,0.0,1002.2,8.95,32.0,98,40.0,28.3,10.9,402.0,52.0,6.7,7,5,4,1,2026-06-15T05:43:48.894791+05:30
Tirupati,Andhra Pradesh,13.6288,79.4192,28.1,67,0.0,988.0,9.0,31.3,66,24.7,16.7,11.7,127.0,35.0,2.4,7,5,7,1,2026-06-15T05:43:48.894798+05:30
Warangal,Telangana,17.9689,79.5941,28.0,60,0.0,975.0,9.0,35.6,104,69.8,45.6,17.1,208.0,39.0,6.4,4,5,7,1,2026-06-15T05:43:48.894804+05:30
Nizamabad,Telangana,18.6725,78.0941,26.9,61,0.0,962.3,8.95,40.0,91,55.8,33.5,8.5,164.0,59.0,5.3,7,5,7,1,2026-06-15T05:43:48.894811+05:30
Mysore,Karnataka,12.2958,76.6396,19.9,99,0.0,927.4,8.85,30.6,39,18.4,11.4,6.7,153.0,36.0,1.5,3,10,7,1,2026-06-15T05:43:48.894818+05:30
Mangalore,Karnataka,12.9141,74.856,24.9,95,0.0,1006.8,8.65,42.5,58,28.9,21.5,15.3,304.0,16.0,3.7,3,5,4,1,2026-06-15T05:43:48.894824+05:30
Hubli-Dharwad,Karnataka,15.3647,75.124,22.0,97,0.0,940.0,8.9,54.4,42,22.5,11.9,4.7,106.0,36.0,1.6,3,5,7,1,2026-06-15T05:43:48.894831+05:30
Belgaum,Karnataka,15.8497,74.4977,21.4,98,0.0,925.0,8.95,47.5,47,26.3,18.0,9.8,106.0,22.0,0.1,3,5,7,1,2026-06-15T05:43:52.257326+05:30
Coimbatore,Tamil Nadu,11.0168,76.9558,23.0,97,0.0,960.5,8.75,45.7,41,18.2,11.5,10.4,190.0,21.0,2.5,3,5,7,1,2026-06-15T05:43:52.257359+05:30
Madurai,Tamil Nadu,9.9252,78.1198,27.9,64,0.0,991.3,8.35,54.0,63,46.8,35.0,37.8,147.0,3.0,7.8,7,5,7,1,2026-06-15T05:43:52.257370+05:30
Trichy,Tamil Nadu,10.7905,78.7047,28.1,69,0.0,997.6,8.5,42.1,56,30.9,23.3,19.0,117.0,27.0,4.7,7,5,7,1,2026-06-15T05:43:52.257379+05:30
Salem,Tamil Nadu,11.6643,78.146,25.3,85,0.0,976.1,8.35,34.6,62,30.0,21.1,18.1,157.0,22.0,6.6,7,5,7,1,2026-06-15T05:43:52.257387+05:30
Tirunelveli,Tamil Nadu,8.7139,77.7567,27.7,72,0.0,1001.6,7.6,41.8,48,20.7,12.7,6.7,147.0,33.0,2.5,7,5,4,1,2026-06-15T05:43:52.257395+05:30
Vellore,Tamil Nadu,12.9165,79.1325,26.8,70,0.0,981.9,8.95,42.5,62,23.5,16.8,15.1,179.0,32.0,4.8,7,5,7,1,2026-06-15T05:43:52.257403+05:30
Erode,Tamil Nadu,11.341,77.7172,25.3,85,0.0,987.9,8.85,42.1,53,22.6,15.4,12.3,161.0,27.0,3.3,7,5,7,1,2026-06-15T05:43:52.257410+05:30
Kochi,Kerala,9.9312,76.2673,25.9,98,0.0,1008.4,8.45,37.8,59,25.0,18.2,13.7,128.0,15.0,3.4,7,0,4,1,2026-06-15T05:43:52.257418+05:30
Thiruvananthapuram,Kerala,8.5241,76.9366,25.1,94,0.0,1007.9,6.75,40.7,55,24.7,12.5,3.6,193.0,49.0,2.0,7,5,4,1,2026-06-15T05:43:52.257425+05:30
Kozhikode,Kerala,11.2588,75.7804,24.4,96,0.0,1007.5,8.15,47.2,41,31.1,14.9,3.6,189.0,48.0,1.9,3,5,4,1,2026-06-15T05:43:52.257432+05:30
Thrissur,Kerala,10.5276,76.2144,24.7,98,0.0,1006.8,8.2,39.2,62,40.3,32.6,18.7,167.0,4.0,3.7,3,5,4,1,2026-06-15T05:43:52.257440+05:30
Kannur,Kerala,11.8745,75.3704,24.9,92,0.0,1006.8,8.4,46.4,50,23.0,15.6,10.3,463.0,22.0,2.3,3,5,4,1,2026-06-15T05:43:52.257447+05:30
Patna,Bihar,25.5941,85.1376,26.8,88,0.0,995.8,8.9,24.5,161,129.9,104.3,60.4,795.0,21.0,19.9,7,5,7,1,2026-06-15T05:43:52.257454+05:30
Gaya,Bihar,24.7914,85.0002,27.3,82,0.0,989.3,8.95,29.2,160,96.4,76.6,40.6,739.0,31.0,10.2,7,5,7,1,2026-06-15T05:43:52.257461+05:30
Muzaffarpur,Bihar,26.1209,85.3647,26.1,87,0.0,995.9,8.85,40.3,162,120.1,99.2,49.1,773.0,30.0,17.7,7,5,7,1,2026-06-15T05:43:52.257467+05:30
Bhagalpur,Bihar,25.2425,87.0117,26.3,90,0.0,996.6,8.85,26.6,163,82.0,74.5,14.1,531.0,77.0,12.1,7,5,7,1,2026-06-15T05:43:52.257474+05:30
Ranchi,Jharkhand,23.3441,85.3096,25.4,59,0.0,934.0,9.25,28.1,116,50.6,41.2,14.9,365.0,70.0,4.6,4,5,7,1,2026-06-15T05:43:52.257481+05:30
Jamshedpur,Jharkhand,22.8046,86.2029,26.6,81,0.0,986.5,9.1,30.6,152,67.3,54.7,22.8,501.0,59.0,25.7,7,5,7,1,2026-06-15T05:43:52.257488+05:30
Dhanbad,Jharkhand,23.7957,86.4304,27.4,79,0.0,975.3,9.1,30.2,168,149.9,136.0,60.7,348.0,22.0,232.1,7,5,7,1,2026-06-15T05:43:52.257494+05:30
Bokaro,Jharkhand,23.6693,86.1511,27.0,80,0.0,979.2,9.1,32.0,167,149.9,135.5,54.3,376.0,19.0,165.1,7,5,7,1,2026-06-15T05:43:52.257501+05:30
Bhubaneswar,Odisha,20.2961,85.8245,27.1,90,0.0,997.8,8.65,40.3,112,74.5,65.0,23.7,855.0,47.0,9.0,7,5,7,1,2026-06-15T05:43:52.257508+05:30
Cuttack,Odisha,20.4625,85.8828,26.8,93,0.0,999.7,6.85,35.3,112,74.5,65.0,23.7,685.0,47.0,9.0,7,5,7,1,2026-06-15T05:43:52.257515+05:30
Rourkela,Odisha,22.2604,84.8536,26.3,91,0.0,981.0,9.05,45.0,120,55.5,43.7,15.1,499.0,63.0,4.0,7,5,7,1,2026-06-15T05:43:52.257521+05:30
Raipur,Chhattisgarh,21.2514,81.6296,29.7,56,0.0,970.5,8.6,34.2,128,64.7,45.5,36.1,962.0,33.0,48.3,4,5,7,1,2026-06-15T05:43:52.257527+05:30
Bhilai,Chhattisgarh,21.1938,81.3509,28.5,60,0.0,971.0,8.6,50.0,127,61.5,42.3,30.8,971.0,36.0,42.7,4,5,7,1,2026-06-15T05:43:52.257534+05:30
Guwahati,Assam,26.1158,91.7086,24.8,99,0.0,998.5,8.7,20.5,68,27.0,24.0,7.9,306.0,55.0,2.9,3,5,7,1,2026-06-15T05:43:52.257540+05:30
Agartala,Tripura,23.8315,91.2868,26.1,93,0.0,1002.9,8.15,32.0,68,27.4,24.1,13.3,220.0,43.0,2.5,7,5,4,1,2026-06-15T05:43:52.257547+05:30
Shillong,Meghalaya,25.5788,91.8933,18.9,93,0.0,854.6,7.7,19.4,34,5.8,4.8,3.9,263.0,71.0,2.5,3,10,7,1,2026-06-15T05:43:52.257554+05:30
Imphal,Manipur,24.817,93.9368,22.8,91,0.0,920.8,8.75,25.2,83,46.6,42.7,11.4,414.0,27.0,2.3,3,5,7,1,2026-06-15T05:43:52.257561+05:30
Aizawl,Mizoram,23.7271,92.7176,19.9,92,0.0,889.8,8.75,23.4,59,18.7,15.0,3.2,176.0,47.0,0.8,3,10,7,1,2026-06-15T05:43:52.257568+05:30
Kohima,Nagaland,25.6701,94.1077,19.5,96,0.0,853.1,8.85,21.2,46,13.5,11.1,4.6,233.0,37.0,0.7,3,10,7,1,2026-06-15T05:43:52.257575+05:30
Gangtok,Sikkim,27.3314,88.6138,16.9,83,0.0,834.2,8.7,36.7,49,10.5,8.8,5.0,587.0,105.0,1.4,3,10,7,0,2026-06-15T05:43:52.257581+05:30
Siliguri,West Bengal,26.7271,88.3953,23.7,97,0.0,989.7,8.65,25.9,76,23.2,17.2,6.9,463.0,107.0,2.6,3,5,7,1,2026-06-15T05:43:55.801963+05:30
Durgapur,West Bengal,23.5204,87.3119,27.4,92,0.0,990.2,9.05,37.1,170,108.3,100.4,45.3,920.0,29.0,61.6,7,5,7,1,2026-06-15T05:43:55.801993+05:30
Asansol,West Bengal,23.6739,86.9524,27.5,87,0.0,988.7,9.05,36.0,164,105.0,94.3,49.0,1352.0,32.0,84.6,7,5,7,1,2026-06-15T05:43:55.802004+05:30
Pondicherry,Puducherry,11.9139,79.8145,27.3,83,0.0,1005.8,8.1,37.1,66,34.0,21.1,16.9,319.0,50.0,18.5,7,5,4,1,2026-06-15T05:43:55.802012+05:30
Port Blair,Andaman and Nicobar Islands,11.6234,92.7265,27.6,83,0.0,1006.6,5.35,46.4,36,11.4,7.0,0.2,90.0,43.0,0.4,7,5,0,1,2026-06-15T05:43:55.802019+05:30
Haridwar,Uttarakhand,29.9457,78.1642,23.3,82,0.0,969.4,7.6,23.4,93,34.3,32.2,34.8,271.0,18.0,3.8,3,5,7,1,2026-06-15T05:43:55.802026+05:30
Rishikesh,Uttarakhand,30.0869,78.2676,21.1,88,0.0,961.9,7.7,22.3,69,27.3,21.7,20.9,312.0,67.0,3.9,3,5,7,1,2026-06-15T05:43:55.802034+05:30
Nainital,Uttarakhand,29.3919,79.4542,13.9,77,0.0,801.9,8.5,33.8,96,61.2,35.5,28.3,259.0,29.0,2.2,3,5,7,0,2026-06-15T05:43:55.802040+05:30
Mussoorie,Uttarakhand,30.4599,78.0664,14.5,77,0.0,799.3,8.1,43.2,58,20.2,17.6,29.5,236.0,15.0,2.4,3,5,7,0,2026-06-15T05:43:55.802047+05:30
Dharamshala,Himachal Pradesh,32.219,76.3234,20.6,51,0.0,865.2,8.5,36.7,23,4.1,3.8,7.6,174.0,68.0,0.0,0,5,7,0,2026-06-15T05:43:55.802054+05:30
Dalhousie,Himachal Pradesh,32.5387,75.971,11.3,83,0.0,798.5,8.65,31.3,60,12.9,10.8,17.4,205.0,42.0,0.4,3,10,7,0,2026-06-15T05:43:55.802062+05:30
Patiala,Punjab,30.3398,76.3869,26.2,70,0.0,972.7,7.7,39.6,159,147.6,60.8,26.7,471.0,36.0,8.5,7,5,7,1,2026-06-15T05:43:55.802069+05:30
Bhatinda,Punjab,30.211,74.9455,28.4,57,0.0,977.6,8.35,30.6,109,94.8,58.6,60.4,350.0,12.0,7.8,4,5,7,1,2026-06-15T05:43:55.802076+05:30
Rohtak,Haryana,28.8955,76.6066,27.3,59,0.0,976.3,7.8,40.3,408,430.3,126.7,57.9,304.0,3.0,12.3,4,5,7,1,2026-06-15T05:43:55.802082+05:30
Panipat,Haryana,29.3909,76.9635,26.4,86,0.0,975.1,7.65,21.2,627,288.7,109.4,55.8,553.0,6.0,11.0,7,5,7,1,2026-06-15T05:43:55.802089+05:30
Mathura,Uttar Pradesh,27.4924,77.6737,27.3,64,0.0,982.0,8.1,40.7,304,345.5,73.6,18.9,191.0,37.0,4.1,7,5,7,1,2026-06-15T05:43:55.802096+05:30
Vrindavan,Uttar Pradesh,27.5823,77.7027,27.5,62,0.0,982.5,8.05,40.0,304,345.5,73.6,18.9,197.0,37.0,4.1,7,5,7,1,2026-06-15T05:43:55.802102+05:30
Ayodhya,Uttar Pradesh,26.7922,82.1998,27.1,80,0.0,990.4,8.45,29.9,151,168.1,91.7,59.4,598.0,11.0,12.4,7,5,7,1,2026-06-15T05:43:55.802109+05:30
Ratlam,Madhya Pradesh,23.3315,75.0367,26.6,78,0.0,952.0,8.5,45.7,88,31.8,20.3,9.1,151.0,35.0,12.1,7,5,7,1,2026-06-15T05:43:55.802116+05:30
Sagar,Madhya Pradesh,23.8388,78.7378,26.8,66,0.0,946.8,8.5,36.4,93,74.0,37.4,7.0,186.0,68.0,3.1,7,5,7,1,2026-06-15T05:43:55.802122+05:30
Satna,Madhya Pradesh,24.6005,80.8322,29.1,54,0.0,967.4,8.8,32.4,104,52.5,30.9,15.7,170.0,47.0,5.0,4,5,7,1,2026-06-15T05:43:55.802129+05:30
Akola,Maharashtra,20.7002,77.0082,29.2,64,0.0,972.9,8.8,49.7,82,31.9,19.8,8.5,116.0,46.0,8.0,7,5,7,1,2026-06-15T05:43:55.802136+05:30
Amravati,Maharashtra,20.9374,77.7796,28.6,55,0.0,964.5,8.8,43.6,81,41.1,24.8,8.7,150.0,56.0,7.8,4,5,7,1,2026-06-15T05:43:55.802144+05:30
Latur,Maharashtra,18.4088,76.5604,25.1,73,0.0,938.4,8.9,40.7,71,20.8,13.2,7.0,144.0,45.0,5.6,7,5,7,1,2026-06-15T05:43:55.802150+05:30
Nanded,Maharashtra,19.1383,77.3091,28.7,54,0.0,966.7,8.9,40.0,87,29.8,19.4,7.0,131.0,43.0,3.3,4,5,7,1,2026-06-15T05:43:55.802157+05:30
Gulbarga,Karnataka,17.3297,76.8343,25.5,75,0.0,957.5,8.8,45.0,66,14.3,9.8,6.8,131.0,41.0,4.5,7,5,7,1,2026-06-15T05:43:55.802163+05:30
Bidar,Karnataka,17.9104,77.5199,25.8,59,0.0,933.7,8.95,39.6,92,31.4,21.2,7.8,155.0,55.0,6.3,4,5,7,1,2026-06-15T05:43:55.802169+05:30
Hospet,Karnataka,15.2689,76.3909,23.8,89,0.0,955.2,9.0,44.6,55,18.6,10.5,5.7,131.0,37.0,2.2,3,5,7,1,2026-06-15T05:43:55.802176+05:30
Tirupur,Tamil Nadu,11.1085,77.3411,23.7,92,0.0,974.1,8.95,55.4,54,20.8,15.9,16.5,149.0,15.0,3.5,3,5,7,1,2026-06-15T05:43:55.802182+05:30
Alappuzha,Kerala,9.4981,76.3388,26.1,95,0.1,1008.6,8.05,36.0,54,30.5,16.4,8.0,92.0,38.0,3.1,10,0,4,1,2026-06-15T05:43:55.802189+05:30
Munnar,Kerala,10.0889,77.0595,16.0,90,0.0,855.2,9.0,29.5,38,20.7,12.7,7.1,98.0,21.0,1.3,3,10,7,0,2026-06-15T05:43:55.802196+05:30
Silchar,Assam,24.8333,92.7789,24.9,96,0.1,1002.4,8.95,22.7,72,50.9,44.2,15.9,278.0,51.0,5.1,6,5,4,1,2026-06-15T05:43:55.802203+05:30
Dibrugarh,Assam,27.4728,94.912,24.4,97,0.1,992.5,7.5,20.2,74,24.7,23.0,11.8,243.0,55.0,1.6,6,5,7,1,2026-06-15T05:43:55.802209+05:30
