city,state,latitude,longitude,temp,humidity,rain,pressure,uv_index,wind_gusts,aqi,pm10,pm2_5,no2,co,o3,so2,mosquito_risk,arthritis_risk,migraine_risk,frizz_risk,updated_at
Delhi,Delhi,28.6139,77.209,34.7,57,0.0,972.6,7.7,26.6,172,553.2,129.9,4.3,231.0,193.0,16.1,0,5,7,1,2026-07-11T14:19:16.710097+05:30
Mumbai,Maharashtra,19.076,72.8777,29.3,75,0.0,1006.8,6.15,54.0,56,31.5,14.4,3.7,138.0,67.0,4.7,7,5,4,1,2026-07-11T14:19:16.710137+05:30
Bangalore,Karnataka,12.9716,77.5946,30.9,39,0.0,911.5,7.2,45.0,41,35.0,12.6,3.3,197.0,68.0,2.5,0,5,7,0,2026-07-11T14:19:16.710152+05:30
Hyderabad,Telangana,17.385,78.4867,32.5,45,0.0,950.9,8.2,48.2,65,40.5,14.8,1.9,168.0,80.0,2.7,0,5,7,1,2026-07-11T14:19:16.710163+05:30
Chennai,Tamil Nadu,13.0827,80.2707,37.0,39,0.0,1003.3,8.0,33.1,68,51.7,27.7,3.6,189.0,136.0,7.2,0,5,7,1,2026-07-11T14:19:16.710171+05:30
Kolkata,West Bengal,22.5726,88.3639,33.2,69,0.0,996.0,3.05,34.9,101,74.3,44.2,4.2,368.0,147.0,18.3,3,5,3,1,2026-07-11T14:19:16.710179+05:30
Pune,Maharashtra,18.5204,73.8567,28.8,64,0.0,946.5,7.8,57.6,36,27.8,10.9,1.4,114.0,68.0,3.3,7,5,7,1,2026-07-11T14:19:16.710186+05:30
Ahmedabad,Gujarat,23.0225,72.5714,35.1,46,0.0,995.2,5.65,49.7,69,50.5,19.4,1.6,120.0,81.0,3.1,0,5,6,1,2026-07-11T14:19:16.710193+05:30
Jaipur,Rajasthan,26.9124,75.7873,32.9,55,0.0,951.1,7.8,41.0,447,486.2,82.9,1.2,137.0,96.0,3.3,0,5,7,1,2026-07-11T14:19:16.710200+05:30
Lucknow,Uttar Pradesh,26.8467,80.9462,34.1,59,0.0,982.6,2.9,51.8,147,231.0,71.5,0.9,167.0,147.0,5.5,0,5,3,1,2026-07-11T14:19:16.710210+05:30
Kanpur,Uttar Pradesh,26.4499,80.3319,34.9,55,0.0,981.5,8.15,51.5,126,244.9,63.1,0.9,132.0,123.0,4.5,0,5,7,1,2026-07-11T14:19:16.710217+05:30
Chandigarh,Chandigarh,30.7333,76.7794,33.0,62,0.0,958.7,7.7,23.4,128,86.1,38.9,2.3,369.0,177.0,9.8,3,5,7,1,2026-07-11T14:19:16.710224+05:30
Srinagar,Jammu and Kashmir,34.0837,74.7973,29.6,44,0.1,836.1,9.05,28.8,89,26.5,20.7,1.3,338.0,168.0,3.1,7,5,7,1,2026-07-11T14:19:16.710231+05:30
Jammu,Jammu and Kashmir,32.7266,74.857,32.0,62,0.0,962.6,8.55,28.8,154,49.4,39.5,1.9,378.0,190.0,4.5,3,5,7,1,2026-07-11T14:19:16.710237+05:30
Amritsar,Punjab,31.634,74.8723,32.3,66,0.0,970.0,8.4,33.5,155,209.1,65.4,1.9,262.0,144.0,4.8,3,5,7,1,2026-07-11T14:19:16.710243+05:30
Ludhiana,Punjab,30.901,75.8573,33.4,63,0.0,968.1,7.95,47.9,150,229.6,70.8,2.1,335.0,142.0,5.6,3,5,7,1,2026-07-11T14:19:16.710249+05:30
Jalandhar,Punjab,31.326,75.5762,30.7,72,0.0,969.3,8.1,40.7,156,181.1,60.5,2.2,322.0,149.0,4.7,3,5,7,1,2026-07-11T14:19:16.710255+05:30
Dehradun,Uttarakhand,30.6284,78.0322,22.6,84,0.1,825.2,7.8,27.0,39,9.5,8.8,0.9,240.0,124.0,1.1,6,5,7,1,2026-07-11T14:19:16.710261+05:30
Shimla,Himachal Pradesh,31.1048,77.1734,21.6,72,0.1,781.0,3.85,31.7,85,32.7,25.8,1.1,321.0,168.0,8.6,6,5,3,1,2026-07-11T14:19:16.710270+05:30
Manali,Himachal Pradesh,32.2396,77.1887,22.4,93,0.1,814.7,7.8,25.6,62,16.8,15.7,6.1,194.0,143.0,1.1,6,5,7,1,2026-07-11T14:19:16.710280+05:30
Gurgaon,Haryana,28.4595,77.0266,35.2,52,0.0,971.1,7.5,30.2,275,871.7,162.1,3.1,159.0,151.0,10.8,0,5,10,1,2026-07-11T14:19:16.710287+05:30
Noida,Uttar Pradesh,28.5355,77.391,35.1,55,0.0,974.0,7.7,27.0,275,871.7,162.1,3.1,251.0,151.0,10.8,0,5,10,1,2026-07-11T14:19:16.710294+05:30
Ghaziabad,Uttar Pradesh,28.6692,77.4538,34.7,57,0.0,972.3,7.7,27.4,151,365.1,116.2,5.0,375.0,246.0,26.8,0,5,7,1,2026-07-11T14:19:16.710300+05:30
Faridabad,Haryana,28.4089,77.3178,34.9,54,0.0,973.3,7.7,25.9,275,871.7,162.1,3.1,179.0,151.0,10.8,0,5,7,1,2026-07-11T14:19:16.710306+05:30
Meerut,Uttar Pradesh,28.9845,77.7064,33.5,64,0.0,971.1,7.65,28.4,151,365.1,116.2,5.0,254.0,246.0,26.8,3,5,7,1,2026-07-11T14:19:16.710313+05:30
Agra,Uttar Pradesh,27.1767,78.0081,34.8,53,0.0,978.0,8.05,39.6,161,206.8,61.0,1.5,133.0,116.0,3.8,0,5,7,1,2026-07-11T14:19:16.710319+05:30
Varanasi,Uttar Pradesh,25.3176,82.9739,33.6,59,0.0,987.6,7.6,46.4,110,71.5,39.7,1.6,191.0,132.0,7.4,0,5,7,1,2026-07-11T14:19:16.710326+05:30
Prayagraj,Uttar Pradesh,25.4358,81.8463,33.5,58,0.0,986.4,8.45,44.3,115,85.4,41.4,1.7,154.0,126.0,7.4,0,5,7,1,2026-07-11T14:19:16.710332+05:30
Gorakhpur,Uttar Pradesh,26.7606,83.3732,29.9,81,0.1,986.8,6.05,39.2,103,223.5,82.2,1.9,280.0,145.0,6.1,10,5,7,1,2026-07-11T14:19:16.710339+05:30
Bareilly,Uttar Pradesh,28.367,79.4304,31.9,74,0.0,976.4,7.85,36.0,103,80.1,33.9,1.4,290.0,182.0,11.4,3,5,7,1,2026-07-11T14:19:16.710347+05:30
Aligarh,Uttar Pradesh,27.8974,78.088,34.4,57,0.0,975.5,7.75,33.1,164,832.6,157.4,1.8,151.0,145.0,8.1,0,5,7,1,2026-07-11T14:19:16.710353+05:30
Moradabad,Uttar Pradesh,28.8386,78.7733,33.1,65,0.0,973.2,7.8,33.5,107,111.5,45.6,2.4,280.0,182.0,14.4,3,5,7,1,2026-07-11T14:19:16.710359+05:30
Saharanpur,Uttar Pradesh,29.9637,77.546,32.1,68,0.0,965.4,7.35,24.1,84,64.5,34.8,2.0,310.0,179.0,12.6,3,5,7,1,2026-07-11T14:19:16.710365+05:30
Jhansi,Uttar Pradesh,25.4484,78.5685,34.1,51,0.0,969.7,8.4,46.8,97,97.3,38.6,1.3,119.0,110.0,7.3,0,5,7,1,2026-07-11T14:19:20.066421+05:30
Surat,Gujarat,21.1702,72.8311,30.8,74,0.0,1002.8,5.4,64.1,62,32.8,17.4,6.3,196.0,52.0,21.1,3,5,0,1,2026-07-11T14:19:20.066454+05:30
Vadodara,Gujarat,22.3072,73.1812,33.7,55,0.0,998.6,7.85,54.0,64,46.8,17.6,1.6,125.0,75.0,2.8,0,5,7,1,2026-07-11T14:19:20.066465+05:30
Rajkot,Gujarat,22.3039,70.8022,35.0,47,0.0,988.1,7.2,60.5,61,54.6,21.9,1.0,96.0,76.0,3.1,0,5,7,1,2026-07-11T14:19:20.066473+05:30
Thane,Maharashtra,19.2183,72.9781,30.0,74,0.0,1005.9,6.55,46.1,56,31.5,14.4,3.7,133.0,67.0,4.7,7,5,4,1,2026-07-11T14:19:20.066482+05:30
Nagpur,Maharashtra,21.1458,79.0882,32.2,50,0.0,968.2,6.8,49.3,87,55.9,22.8,3.9,129.0,88.0,13.2,0,5,7,1,2026-07-11T14:19:20.066489+05:30
Nashik,Maharashtra,19.9975,73.7898,29.0,66,0.0,942.9,7.75,62.6,40,29.0,11.6,0.9,102.0,60.0,1.3,7,5,7,1,2026-07-11T14:19:20.066497+05:30
Aurangabad,Maharashtra,19.8762,75.3433,30.5,53,0.0,941.3,8.85,54.0,53,43.0,15.6,1.4,108.0,80.0,4.3,0,5,7,1,2026-07-11T14:19:20.066504+05:30
Solapur,Maharashtra,17.6599,75.9064,32.2,48,0.0,955.3,7.65,47.5,49,46.4,14.8,1.1,103.0,73.0,1.6,0,5,7,1,2026-07-11T14:19:20.066512+05:30
Kolhapur,Maharashtra,16.705,74.2433,27.6,69,0.0,947.6,7.55,51.5,37,32.7,12.2,1.0,110.0,62.0,1.5,7,5,7,1,2026-07-11T14:19:20.066520+05:30
Goa,Goa,15.2993,74.124,29.8,73,0.0,998.2,8.15,36.7,57,24.3,11.4,0.7,99.0,56.0,1.3,7,5,7,1,2026-07-11T14:19:20.066528+05:30
Jodhpur,Rajasthan,26.2389,73.0243,35.3,45,0.0,973.4,8.45,53.6,195,366.0,68.0,0.7,107.0,79.0,1.9,0,5,10,1,2026-07-11T14:19:20.066535+05:30
Udaipur,Rajasthan,24.5854,73.7125,30.8,54,0.0,939.8,8.4,54.4,75,51.0,20.0,1.0,106.0,73.0,2.6,0,5,7,1,2026-07-11T14:19:20.066543+05:30
Kota,Rajasthan,25.2138,75.8648,34.6,47,0.0,970.6,8.3,42.5,91,65.2,27.9,1.2,122.0,98.0,5.1,0,5,7,1,2026-07-11T14:19:20.066550+05:30
Bikaner,Rajasthan,28.0229,73.3119,37.4,41,0.0,970.7,8.45,42.5,158,149.5,52.2,0.5,106.0,85.0,3.4,0,5,10,1,2026-07-11T14:19:20.066557+05:30
Ajmer,Rajasthan,26.4499,74.6399,32.0,54,0.0,946.4,8.15,52.2,88,67.3,27.7,0.8,111.0,85.0,2.6,0,5,7,1,2026-07-11T14:19:20.066565+05:30
Gwalior,Madhya Pradesh,26.2183,78.1828,33.6,57,0.0,974.3,8.15,45.7,93,107.1,37.8,0.9,119.0,99.0,2.7,0,5,7,1,2026-07-11T14:19:20.066572+05:30
Indore,Madhya Pradesh,22.7196,75.8577,29.9,62,0.0,943.1,8.55,56.2,74,57.5,23.3,1.8,148.0,82.0,3.5,7,5,7,1,2026-07-11T14:19:20.066579+05:30
Bhopal,Madhya Pradesh,23.2599,77.4126,30.2,58,0.0,947.8,8.6,50.0,83,74.3,27.4,1.0,151.0,87.0,3.0,0,5,7,1,2026-07-11T14:19:20.066587+05:30
Jabalpur,Madhya Pradesh,23.1815,79.9864,30.4,60,0.0,955.3,7.15,42.8,88,49.5,22.4,1.5,142.0,89.0,5.1,0,5,7,1,2026-07-11T14:19:20.066593+05:30
Ujjain,Madhya Pradesh,23.1765,75.7885,31.0,56,0.0,948.3,8.25,54.0,75,53.4,21.8,1.3,129.0,78.0,3.5,0,5,7,1,2026-07-11T14:19:20.066601+05:30
Visakhapatnam,Andhra Pradesh,17.6868,83.2185,35.1,55,0.0,997.0,7.7,37.8,93,71.5,37.4,4.5,266.0,156.0,19.4,0,5,10,1,2026-07-11T14:19:20.066609+05:30
Vijayawada,Andhra Pradesh,16.5062,80.648,35.4,46,0.0,998.1,5.25,42.1,91,41.8,18.0,1.5,127.0,90.0,3.9,0,5,6,1,2026-07-11T14:19:20.066616+05:30
Guntur,Andhra Pradesh,16.3067,80.4365,36.4,40,0.0,999.3,4.85,45.7,87,44.1,17.8,1.5,136.0,84.0,3.2,0,5,6,1,2026-07-11T14:19:20.066623+05:30
Nellore,Andhra Pradesh,14.4426,79.9865,37.0,38,0.0,1001.6,7.7,40.0,64,47.3,19.8,1.9,106.0,102.0,5.3,0,5,7,1,2026-07-11T14:19:20.066631+05:30
Kurnool,Andhra Pradesh,15.8281,78.0373,35.7,35,0.0,974.1,7.4,48.6,60,42.4,15.2,1.9,111.0,74.0,4.6,0,5,10,1,2026-07-11T14:19:20.066639+05:30
Kakinada,Andhra Pradesh,16.9891,82.2475,35.2,50,0.0,1001.7,5.7,46.8,79,53.3,29.2,2.6,173.0,137.0,5.1,0,5,3,1,2026-07-11T14:19:20.066646+05:30
Tirupati,Andhra Pradesh,13.6288,79.4192,36.9,35,0.0,987.5,8.2,38.2,61,49.2,15.6,0.4,104.0,77.0,1.2,0,5,10,1,2026-07-11T14:19:20.066654+05:30
Warangal,Telangana,17.9689,79.5941,32.5,52,0.0,975.1,5.2,42.8,79,55.8,19.8,0.9,118.0,88.0,2.7,0,5,3,1,2026-07-11T14:19:20.066661+05:30
Nizamabad,Telangana,18.6725,78.0941,31.3,52,0.0,961.8,8.55,46.8,72,45.9,18.2,1.3,113.0,81.0,4.7,0,5,7,1,2026-07-11T14:19:20.066667+05:30
Mysore,Karnataka,12.2958,76.6396,29.9,54,0.0,928.1,6.0,44.3,30,20.9,7.8,1.5,119.0,74.0,1.6,4,5,3,1,2026-07-11T14:19:20.066674+05:30
Mangalore,Karnataka,12.9141,74.856,28.8,78,0.1,1007.3,8.3,44.3,53,24.3,10.2,0.7,88.0,55.0,1.4,10,5,4,1,2026-07-11T14:19:20.066681+05:30
Hubli-Dharwad,Karnataka,15.3647,75.124,28.6,62,0.0,940.7,7.4,49.3,34,23.2,8.9,1.3,100.0,59.0,1.2,7,5,7,1,2026-07-11T14:19:20.066689+05:30
Belgaum,Karnataka,15.8497,74.4977,27.3,64,0.0,925.8,7.8,50.4,31,22.1,8.7,0.8,97.0,56.0,1.3,7,5,7,1,2026-07-11T14:19:23.423596+05:30
Coimbatore,Tamil Nadu,11.0168,76.9558,30.3,60,0.0,960.7,7.95,48.2,30,13.4,6.2,1.2,129.0,70.0,1.8,0,5,7,1,2026-07-11T14:19:23.423627+05:30
Madurai,Tamil Nadu,9.9252,78.1198,36.2,40,0.0,990.6,8.2,25.6,55,29.9,12.9,1.6,145.0,109.0,2.4,0,5,10,1,2026-07-11T14:19:23.423638+05:30
Trichy,Tamil Nadu,10.7905,78.7047,38.6,35,0.0,996.3,7.85,46.4,43,20.7,8.8,1.2,111.0,83.0,1.8,0,5,10,1,2026-07-11T14:19:23.423647+05:30
Salem,Tamil Nadu,11.6643,78.146,33.8,48,0.0,975.3,7.95,29.9,57,29.7,13.5,1.8,160.0,106.0,5.8,0,5,7,1,2026-07-11T14:19:23.423656+05:30
Tirunelveli,Tamil Nadu,8.7139,77.7567,36.9,39,0.0,1001.0,8.4,48.2,28,8.5,4.7,1.0,111.0,75.0,1.2,0,5,7,1,2026-07-11T14:19:23.423663+05:30
Vellore,Tamil Nadu,12.9165,79.1325,37.8,32,0.0,981.0,8.65,40.7,52,48.1,18.2,1.1,133.0,98.0,2.2,0,5,10,1,2026-07-11T14:19:23.423671+05:30
Erode,Tamil Nadu,11.341,77.7172,37.5,35,0.0,986.5,7.85,36.0,45,19.4,9.1,1.5,139.0,93.0,1.9,0,5,10,1,2026-07-11T14:19:23.423678+05:30
Kochi,Kerala,9.9312,76.2673,28.0,83,0.0,1009.4,7.45,34.6,50,15.3,8.4,1.9,106.0,63.0,2.1,7,0,4,1,2026-07-11T14:19:23.423686+05:30
Thiruvananthapuram,Kerala,8.5241,76.9366,28.9,79,0.0,1007.9,8.0,47.9,39,17.3,9.7,1.3,95.0,77.0,1.2,7,5,4,1,2026-07-11T14:19:23.423693+05:30
Kozhikode,Kerala,11.2588,75.7804,29.6,75,0.0,1008.2,7.5,39.6,40,22.3,9.5,0.5,103.0,59.0,1.1,7,0,4,1,2026-07-11T14:19:23.423700+05:30
Thrissur,Kerala,10.5276,76.2144,28.9,77,0.0,1007.5,7.75,38.5,53,13.6,6.8,1.0,97.0,59.0,1.3,7,5,4,1,2026-07-11T14:19:23.423708+05:30
Kannur,Kerala,11.8745,75.3704,29.5,76,0.0,1007.7,8.2,45.4,49,26.8,10.5,0.8,93.0,56.0,1.2,7,5,4,1,2026-07-11T14:19:23.423715+05:30
Patna,Bihar,25.5941,85.1376,30.0,81,0.1,990.1,6.25,34.2,97,83.4,43.0,2.1,248.0,132.0,6.3,10,5,7,1,2026-07-11T14:19:23.423744+05:30
Gaya,Bihar,24.7914,85.0002,32.2,68,0.1,984.0,7.2,41.4,103,83.4,44.2,1.7,189.0,124.0,7.9,6,5,7,1,2026-07-11T14:19:23.423752+05:30
Muzaffarpur,Bihar,26.1209,85.3647,31.8,75,0.0,989.5,4.85,36.4,101,65.4,32.6,2.6,257.0,134.0,6.0,3,5,3,1,2026-07-11T14:19:23.423759+05:30
Bhagalpur,Bihar,25.2425,87.0117,28.7,89,0.0,990.8,7.25,24.8,81,42.8,28.4,5.2,222.0,122.0,10.3,7,5,7,1,2026-07-11T14:19:23.423767+05:30
Ranchi,Jharkhand,23.3441,85.3096,27.7,78,0.1,930.2,7.55,40.7,94,81.3,37.5,1.6,185.0,115.0,7.2,10,5,7,1,2026-07-11T14:19:23.423774+05:30
Jamshedpur,Jharkhand,22.8046,86.2029,31.6,69,0.1,981.9,8.55,35.6,105,76.6,41.7,3.4,202.0,140.0,16.5,6,5,7,1,2026-07-11T14:19:23.423781+05:30
Dhanbad,Jharkhand,23.7957,86.4304,29.1,85,0.0,970.9,8.3,40.7,131,75.9,41.3,5.8,185.0,144.0,29.7,7,5,7,1,2026-07-11T14:19:23.423788+05:30
Bokaro,Jharkhand,23.6693,86.1511,30.9,76,0.0,974.6,8.1,33.5,123,80.1,42.5,6.9,200.0,143.0,34.2,3,5,7,1,2026-07-11T14:19:23.423795+05:30
Bhubaneswar,Odisha,20.2961,85.8245,33.7,63,0.0,994.4,8.25,37.1,80,84.1,39.2,2.4,138.0,131.0,10.2,3,5,7,1,2026-07-11T14:19:23.423802+05:30
Cuttack,Odisha,20.4625,85.8828,34.0,62,0.0,996.0,8.4,35.6,80,84.1,39.2,2.4,158.0,131.0,10.2,3,5,7,1,2026-07-11T14:19:23.423809+05:30
Rourkela,Odisha,22.2604,84.8536,31.0,66,0.0,977.3,8.1,37.4,127,86.4,43.5,1.8,182.0,139.0,12.0,3,5,7,1,2026-07-11T14:19:23.423816+05:30
Raipur,Chhattisgarh,21.2514,81.6296,31.7,56,0.0,968.5,7.6,41.4,120,71.9,36.9,7.5,122.0,111.0,25.0,0,5,7,1,2026-07-11T14:19:23.423823+05:30
Bhilai,Chhattisgarh,21.1938,81.3509,31.6,55,0.1,968.9,7.4,43.6,112,59.3,30.2,7.1,280.0,103.0,21.0,3,5,7,1,2026-07-11T14:19:23.423830+05:30
Guwahati,Assam,26.1158,91.7086,31.4,73,0.0,989.3,8.55,31.0,44,8.5,8.4,1.8,238.0,116.0,2.7,3,5,7,1,2026-07-11T14:19:23.423838+05:30
Agartala,Tripura,23.8315,91.2868,28.2,93,0.1,995.7,7.8,33.8,62,28.2,24.2,6.2,236.0,109.0,6.4,10,5,7,1,2026-07-11T14:19:23.423845+05:30
Shillong,Meghalaya,25.5788,91.8933,24.2,79,0.0,850.1,3.95,27.4,40,5.9,5.6,1.3,219.0,115.0,4.4,3,5,3,1,2026-07-11T14:19:23.423851+05:30
Imphal,Manipur,24.817,93.9368,29.2,67,0.0,914.1,8.5,29.9,38,5.0,4.5,0.7,192.0,97.0,2.5,7,5,7,1,2026-07-11T14:19:23.423859+05:30
Aizawl,Mizoram,23.7271,92.7176,24.4,77,0.0,885.1,8.5,43.2,38,3.9,3.1,0.8,147.0,88.0,1.6,3,5,7,1,2026-07-11T14:19:23.423865+05:30
Kohima,Nagaland,25.6701,94.1077,23.2,96,0.1,848.3,6.4,20.9,38,4.6,4.3,1.0,166.0,91.0,2.4,6,5,7,1,2026-07-11T14:19:23.423872+05:30
Gangtok,Sikkim,27.3314,88.6138,22.8,86,0.0,831.8,8.5,31.7,45,5.5,5.3,2.6,245.0,101.0,1.6,3,5,7,1,2026-07-11T14:19:23.423879+05:30
Siliguri,West Bengal,26.7271,88.3953,29.3,88,0.1,981.9,5.0,25.6,99,17.8,17.4,2.3,335.0,132.0,4.4,10,5,3,1,2026-07-11T14:19:26.788191+05:30
Durgapur,West Bengal,23.5204,87.3119,30.0,77,0.1,985.8,6.75,40.7,137,68.0,44.5,11.6,356.0,146.0,44.2,10,5,7,1,2026-07-11T14:19:26.788223+05:30
Asansol,West Bengal,23.6739,86.9524,28.4,92,0.4,984.2,7.3,42.5,122,70.1,40.9,8.5,198.0,140.0,35.0,10,5,7,1,2026-07-11T14:19:26.788235+05:30
Pondicherry,Puducherry,11.9139,79.8145,35.5,44,0.0,1004.9,8.15,41.4,66,47.0,26.3,2.4,163.0,145.0,9.7,0,5,7,1,2026-07-11T14:19:26.788244+05:30
Port Blair,Andaman and Nicobar Islands,11.6234,92.7265,30.4,70,0.1,1004.5,8.8,57.2,37,19.6,10.0,0.2,87.0,42.0,0.4,6,5,4,1,2026-07-11T14:19:26.788253+05:30
Haridwar,Uttarakhand,29.9457,78.1642,32.4,68,0.0,963.6,7.5,22.3,63,21.5,17.3,1.3,328.0,157.0,5.5,3,5,7,1,2026-07-11T14:19:26.788261+05:30
Rishikesh,Uttarakhand,30.0869,78.2676,32.0,65,0.0,956.6,7.15,22.7,54,8.4,8.0,1.0,275.0,136.0,3.3,3,5,7,1,2026-07-11T14:19:26.788268+05:30
Nainital,Uttarakhand,29.3919,79.4542,20.5,91,0.1,800.1,3.75,23.8,57,12.1,10.7,1.5,241.0,149.0,5.8,6,5,3,1,2026-07-11T14:19:26.788276+05:30
Mussoorie,Uttarakhand,30.4599,78.0664,20.4,85,0.2,798.1,7.85,32.4,56,9.9,9.5,1.2,255.0,146.0,3.0,6,5,7,1,2026-07-11T14:19:26.788284+05:30
Dharamshala,Himachal Pradesh,32.219,76.3234,23.8,82,0.0,862.6,8.4,27.4,57,15.4,12.8,1.0,317.0,150.0,1.7,3,5,7,1,2026-07-11T14:19:26.788291+05:30
Dalhousie,Himachal Pradesh,32.5387,75.971,19.6,95,0.0,799.5,8.6,18.0,114,34.0,26.6,1.5,373.0,189.0,4.3,3,10,7,1,2026-07-11T14:19:26.788299+05:30
Patiala,Punjab,30.3398,76.3869,33.7,61,0.0,967.7,7.5,24.5,129,236.1,73.3,2.2,257.0,144.0,8.0,3,5,7,1,2026-07-11T14:19:26.788307+05:30
Bhatinda,Punjab,30.211,74.9455,36.8,48,0.0,972.3,8.25,27.0,167,431.2,129.5,2.7,161.0,158.0,12.5,0,5,10,1,2026-07-11T14:19:26.788314+05:30
Rohtak,Haryana,28.8955,76.6066,35.3,55,0.0,971.3,7.65,32.0,474,1076.6,166.2,1.0,134.0,121.0,3.2,0,5,10,1,2026-07-11T14:19:26.788321+05:30
Panipat,Haryana,29.3909,76.9635,33.8,64,0.0,969.8,7.55,19.8,502,884.8,156.9,3.5,256.0,160.0,19.2,3,5,7,1,2026-07-11T14:19:26.788329+05:30
Mathura,Uttar Pradesh,27.4924,77.6737,34.9,54,0.0,977.0,7.85,32.4,276,642.6,111.3,1.4,146.0,117.0,3.3,0,5,7,1,2026-07-11T14:19:26.788337+05:30
Vrindavan,Uttar Pradesh,27.5823,77.7027,35.0,53,0.0,977.3,7.9,30.6,276,642.6,111.3,1.4,143.0,117.0,3.3,0,5,7,1,2026-07-11T14:19:26.788345+05:30
Ayodhya,Uttar Pradesh,26.7922,82.1998,30.4,82,0.0,984.8,6.95,40.7,129,161.6,64.3,1.3,233.0,144.0,6.4,3,5,7,1,2026-07-11T14:19:26.788351+05:30
Ratlam,Madhya Pradesh,23.3315,75.0367,31.3,55,0.0,949.2,5.6,55.8,72,52.5,21.0,1.2,113.0,79.0,3.6,0,5,3,1,2026-07-11T14:19:26.788359+05:30
Sagar,Madhya Pradesh,23.8388,78.7378,31.4,53,0.0,944.0,7.9,52.6,89,78.0,29.2,0.8,132.0,95.0,4.2,0,5,7,1,2026-07-11T14:19:26.788365+05:30
Satna,Madhya Pradesh,24.6005,80.8322,33.3,56,0.0,963.3,8.15,45.0,102,71.7,34.2,0.8,136.0,112.0,4.6,0,5,7,1,2026-07-11T14:19:26.788372+05:30
Akola,Maharashtra,20.7002,77.0082,32.8,50,0.0,971.1,8.75,50.8,67,54.8,18.6,1.4,104.0,84.0,5.8,0,5,7,1,2026-07-11T14:19:26.788379+05:30
Amravati,Maharashtra,20.9374,77.7796,31.8,53,0.0,963.3,8.2,50.4,69,49.1,18.0,1.7,110.0,85.0,6.9,0,5,7,1,2026-07-11T14:19:26.788387+05:30
Latur,Maharashtra,18.4088,76.5604,31.4,49,0.0,937.9,8.6,46.4,52,57.4,17.1,0.9,109.0,75.0,1.9,0,5,7,1,2026-07-11T14:19:26.788394+05:30
Nanded,Maharashtra,19.1383,77.3091,32.2,49,0.0,965.7,8.2,49.0,63,54.2,18.2,1.0,114.0,79.0,2.9,0,5,7,1,2026-07-11T14:19:26.788402+05:30
Gulbarga,Karnataka,17.3297,76.8343,32.5,46,0.0,956.7,7.75,50.0,54,47.7,15.8,1.4,103.0,77.0,2.0,0,5,7,1,2026-07-11T14:19:26.788409+05:30
Bidar,Karnataka,17.9104,77.5199,31.3,50,0.0,933.4,6.2,47.9,60,45.4,15.2,1.1,108.0,79.0,1.8,0,5,7,1,2026-07-11T14:19:26.788416+05:30
Hospet,Karnataka,15.2689,76.3909,32.8,42,0.0,954.7,8.3,49.0,41,32.1,12.1,1.8,107.0,64.0,1.9,0,5,7,1,2026-07-11T14:19:26.788422+05:30
Tirupur,Tamil Nadu,11.1085,77.3411,33.7,48,0.0,973.8,8.05,52.9,50,19.1,9.3,1.6,134.0,90.0,2.3,0,5,7,1,2026-07-11T14:19:26.788430+05:30
Alappuzha,Kerala,9.4981,76.3388,28.5,81,0.0,1009.3,8.0,40.0,45,16.4,8.9,1.9,87.0,70.0,2.1,7,0,4,1,2026-07-11T14:19:26.788437+05:30
Munnar,Kerala,10.0889,77.0595,20.4,85,0.1,857.7,8.15,37.8,20,5.8,3.1,0.9,93.0,60.0,1.2,6,5,7,1,2026-07-11T14:19:26.788445+05:30
Silchar,Assam,24.8333,92.7789,32.2,71,0.1,993.6,7.95,29.9,39,9.3,7.8,0.9,209.0,107.0,4.1,6,5,7,1,2026-07-11T14:19:26.788453+05:30
Dibrugarh,Assam,27.4728,94.912,32.4,70,0.0,983.2,6.55,28.4,51,6.5,6.1,0.8,161.0,111.0,1.9,3,5,7,1,2026-07-11T14:19:26.788459+05:30
