city,state,latitude,longitude,temp,humidity,rain,pressure,uv_index,wind_gusts,aqi,pm10,pm2_5,no2,co,o3,so2,mosquito_risk,arthritis_risk,migraine_risk,frizz_risk,updated_at
Delhi,Delhi,28.6139,77.209,30.6,71,0.0,976.6,5.25,28.4,546,252.4,99.0,57.6,248.0,15.0,26.1,3,5,3,1,2026-07-19T04:22:36.450850+05:30
Mumbai,Maharashtra,19.076,72.8777,26.2,91,0.3,1005.5,7.65,39.6,61,30.7,14.4,6.1,140.0,44.0,5.1,10,5,4,1,2026-07-19T04:22:36.450898+05:30
Bangalore,Karnataka,12.9716,77.5946,20.5,92,0.0,910.6,6.35,47.5,52,8.9,6.2,11.0,160.0,29.0,4.0,3,5,7,1,2026-07-19T04:22:36.450913+05:30
Hyderabad,Telangana,17.385,78.4867,23.9,90,0.0,950.6,8.0,41.8,48,4.4,3.9,8.3,165.0,40.0,4.2,3,5,7,1,2026-07-19T04:22:36.450923+05:30
Chennai,Tamil Nadu,13.0827,80.2707,25.7,84,0.0,1005.6,7.7,33.5,73,28.4,19.1,20.3,215.0,34.0,8.5,7,5,4,1,2026-07-19T04:22:36.450931+05:30
Kolkata,West Bengal,22.5726,88.3639,26.1,95,0.1,1001.4,7.4,33.8,61,19.4,15.4,6.4,207.0,90.0,4.6,10,5,4,1,2026-07-19T04:22:36.450939+05:30
Pune,Maharashtra,18.5204,73.8567,23.1,89,0.0,945.2,6.45,46.8,30,2.1,2.0,7.9,118.0,32.0,5.8,3,5,7,1,2026-07-19T04:22:36.450947+05:30
Ahmedabad,Gujarat,23.0225,72.5714,27.5,84,0.0,997.8,6.95,40.7,63,26.8,15.4,8.7,152.0,34.0,4.2,7,5,7,1,2026-07-19T04:22:36.450958+05:30
Jaipur,Rajasthan,26.9124,75.7873,30.6,58,0.0,954.7,7.8,32.8,183,326.0,64.3,14.2,178.0,38.0,4.7,0,5,7,1,2026-07-19T04:22:36.450966+05:30
Lucknow,Uttar Pradesh,26.8467,80.9462,27.2,94,0.0,988.6,7.2,22.7,164,44.0,38.4,17.0,327.0,60.0,7.6,7,5,7,1,2026-07-19T04:22:36.450974+05:30
Kanpur,Uttar Pradesh,26.4499,80.3319,27.8,89,0.0,986.5,2.55,19.8,161,93.1,58.9,17.9,281.0,58.0,9.3,7,5,3,1,2026-07-19T04:22:36.450982+05:30
Chandigarh,Chandigarh,30.7333,76.7794,28.5,81,0.0,963.0,6.3,28.1,158,108.0,75.9,43.3,286.0,32.0,13.1,7,5,7,1,2026-07-19T04:22:36.450989+05:30
Srinagar,Jammu and Kashmir,34.0837,74.7973,23.4,83,0.0,837.9,9.0,25.2,96,38.2,33.1,29.0,627.0,28.0,3.5,3,5,7,1,2026-07-19T04:22:36.450996+05:30
Jammu,Jammu and Kashmir,32.7266,74.857,27.0,92,0.1,966.2,8.6,29.9,151,98.7,58.1,32.4,255.0,47.0,5.3,10,5,7,1,2026-07-19T04:22:36.451003+05:30
Amritsar,Punjab,31.634,74.8723,29.6,84,0.0,973.4,7.25,29.9,170,109.7,80.3,31.4,899.0,43.0,6.8,7,5,7,1,2026-07-19T04:22:36.451009+05:30
Ludhiana,Punjab,30.901,75.8573,30.1,80,0.0,971.5,6.05,31.3,178,244.9,111.3,33.1,1089.0,43.0,14.5,3,5,7,1,2026-07-19T04:22:36.451016+05:30
Jalandhar,Punjab,31.326,75.5762,29.8,80,0.0,972.5,7.3,31.7,176,149.0,89.4,28.3,941.0,55.0,14.8,7,5,7,1,2026-07-19T04:22:36.451022+05:30
Dehradun,Uttarakhand,30.6284,78.0322,19.3,100,0.5,827.6,6.8,26.6,74,34.3,15.4,5.7,195.0,110.0,6.3,6,10,7,1,2026-07-19T04:22:36.451029+05:30
Shimla,Himachal Pradesh,31.1048,77.1734,17.4,96,0.1,782.7,4.95,40.7,87,65.7,28.2,5.9,204.0,117.0,7.5,6,10,3,1,2026-07-19T04:22:36.451035+05:30
Manali,Himachal Pradesh,32.2396,77.1887,21.0,96,0.0,817.2,5.45,32.8,52,15.2,12.6,13.9,281.0,41.0,0.1,3,5,3,1,2026-07-19T04:22:36.451048+05:30
Gurgaon,Haryana,28.4595,77.0266,30.1,69,0.0,975.0,6.6,28.4,496,333.4,94.5,32.2,246.0,34.0,11.1,3,5,7,1,2026-07-19T04:22:36.451057+05:30
Noida,Uttar Pradesh,28.5355,77.391,29.5,75,0.0,978.0,5.3,27.7,496,333.4,94.5,32.2,313.0,34.0,11.1,7,5,3,1,2026-07-19T04:22:36.451063+05:30
Ghaziabad,Uttar Pradesh,28.6692,77.4538,29.0,80,0.0,976.4,5.1,27.7,463,291.5,116.6,43.9,526.0,18.0,14.7,7,5,3,1,2026-07-19T04:22:36.451069+05:30
Faridabad,Haryana,28.4089,77.3178,30.3,71,0.0,977.3,5.3,22.0,496,333.4,94.5,32.2,269.0,34.0,11.1,3,5,3,1,2026-07-19T04:22:36.451075+05:30
Meerut,Uttar Pradesh,28.9845,77.7064,28.5,88,0.0,975.5,5.65,29.9,463,291.5,116.6,43.9,629.0,18.0,14.7,7,5,3,1,2026-07-19T04:22:36.451082+05:30
Agra,Uttar Pradesh,27.1767,78.0081,30.1,67,0.0,981.8,5.25,27.7,174,394.9,116.4,37.3,321.0,35.0,13.1,3,5,3,1,2026-07-19T04:22:36.451088+05:30
Varanasi,Uttar Pradesh,25.3176,82.9739,26.0,97,0.1,992.3,6.55,22.3,149,45.8,41.9,14.1,417.0,78.0,8.5,10,5,7,1,2026-07-19T04:22:36.451095+05:30
Prayagraj,Uttar Pradesh,25.4358,81.8463,27.7,97,0.2,990.9,3.8,28.8,154,47.6,42.4,15.7,219.0,73.0,6.9,10,5,3,1,2026-07-19T04:22:36.451102+05:30
Gorakhpur,Uttar Pradesh,26.7606,83.3732,26.2,97,0.6,992.6,5.4,21.2,80,31.5,31.4,15.2,343.0,64.0,5.4,10,5,3,1,2026-07-19T04:22:36.451108+05:30
Bareilly,Uttar Pradesh,28.367,79.4304,26.3,96,0.0,981.8,6.6,29.2,163,102.9,66.1,14.7,311.0,83.0,11.1,7,5,7,1,2026-07-19T04:22:36.451116+05:30
Aligarh,Uttar Pradesh,27.8974,78.088,29.3,76,0.0,979.3,6.4,25.6,312,298.0,111.8,26.3,495.0,53.0,14.2,7,5,7,1,2026-07-19T04:22:36.451143+05:30
Moradabad,Uttar Pradesh,28.8386,78.7733,26.7,93,0.0,978.3,7.7,33.8,171,89.6,58.1,12.8,317.0,97.0,16.0,7,5,7,1,2026-07-19T04:22:36.451152+05:30
Saharanpur,Uttar Pradesh,29.9637,77.546,27.6,93,0.0,970.3,7.25,28.8,186,183.5,83.6,15.1,296.0,64.0,10.4,7,5,7,1,2026-07-19T04:22:36.451158+05:30
Jhansi,Uttar Pradesh,25.4484,78.5685,26.6,88,0.0,973.0,4.4,35.3,88,46.1,30.2,10.1,186.0,63.0,5.4,7,5,3,1,2026-07-19T04:22:39.713799+05:30
Surat,Gujarat,21.1702,72.8311,26.1,92,0.1,1002.8,7.55,41.4,70,30.2,19.8,23.7,306.0,23.0,36.6,10,5,4,1,2026-07-19T04:22:39.713830+05:30
Vadodara,Gujarat,22.3072,73.1812,27.1,91,0.0,1000.1,6.2,38.2,63,20.0,14.2,16.5,139.0,26.0,10.9,7,5,4,1,2026-07-19T04:22:39.713840+05:30
Rajkot,Gujarat,22.3039,70.8022,26.1,88,0.0,989.8,6.4,41.4,59,21.2,11.7,5.7,97.0,39.0,4.6,7,5,7,1,2026-07-19T04:22:39.713849+05:30
Thane,Maharashtra,19.2183,72.9781,24.2,100,0.2,1005.1,7.4,37.1,61,30.7,14.4,6.1,141.0,44.0,5.1,6,5,4,1,2026-07-19T04:22:39.713857+05:30
Nagpur,Maharashtra,21.1458,79.0882,25.1,90,0.0,969.6,5.25,32.8,64,20.5,14.6,14.6,181.0,41.0,16.5,7,5,3,1,2026-07-19T04:22:39.713865+05:30
Nashik,Maharashtra,19.9975,73.7898,22.2,96,0.0,942.0,6.2,45.0,28,6.9,4.4,10.3,123.0,31.0,9.8,3,5,7,1,2026-07-19T04:22:39.713873+05:30
Aurangabad,Maharashtra,19.8762,75.3433,22.7,97,0.1,940.9,8.2,38.9,40,4.7,3.6,9.7,152.0,30.0,8.7,6,5,7,1,2026-07-19T04:22:39.713880+05:30
Solapur,Maharashtra,17.6599,75.9064,23.8,94,0.0,954.9,7.55,38.5,38,4.4,4.0,9.1,154.0,26.0,2.1,3,5,7,1,2026-07-19T04:22:39.713888+05:30
Kolhapur,Maharashtra,16.705,74.2433,22.3,95,0.0,945.8,6.25,46.1,29,3.9,2.9,3.5,112.0,40.0,1.9,3,5,7,1,2026-07-19T04:22:39.713894+05:30
Goa,Goa,15.2993,74.124,24.7,93,0.0,997.0,6.7,30.6,63,36.0,21.4,4.8,262.0,38.0,1.8,3,5,7,1,2026-07-19T04:22:39.713902+05:30
Jodhpur,Rajasthan,26.2389,73.0243,30.0,58,0.0,977.5,7.7,41.8,117,96.2,26.1,7.0,122.0,46.0,2.5,4,5,7,1,2026-07-19T04:22:39.713910+05:30
Udaipur,Rajasthan,24.5854,73.7125,24.8,84,0.0,941.9,7.0,29.2,70,25.8,16.8,11.6,135.0,45.0,10.2,3,5,7,1,2026-07-19T04:22:39.713917+05:30
Kota,Rajasthan,25.2138,75.8648,30.1,60,0.0,973.8,8.1,28.8,86,26.4,18.2,7.5,164.0,71.0,7.0,0,5,7,1,2026-07-19T04:22:39.713925+05:30
Bikaner,Rajasthan,28.0229,73.3119,31.5,53,0.0,975.6,8.4,39.6,123,112.5,36.2,2.7,113.0,55.0,2.1,0,5,7,1,2026-07-19T04:22:39.713932+05:30
Ajmer,Rajasthan,26.4499,74.6399,28.1,62,0.0,949.7,7.7,40.7,79,28.8,17.8,10.1,144.0,44.0,4.1,7,5,7,1,2026-07-19T04:22:39.713939+05:30
Gwalior,Madhya Pradesh,26.2183,78.1828,28.8,73,0.0,977.7,6.1,39.2,107,66.8,36.3,25.5,160.0,23.0,5.1,7,5,7,1,2026-07-19T04:22:39.713947+05:30
Indore,Madhya Pradesh,22.7196,75.8577,24.7,86,0.0,944.2,8.5,44.3,71,17.1,13.9,9.5,171.0,55.0,9.1,3,5,7,1,2026-07-19T04:22:39.713954+05:30
Bhopal,Madhya Pradesh,23.2599,77.4126,25.1,89,0.0,949.6,7.85,30.2,83,31.8,22.5,8.9,260.0,53.0,5.0,7,5,7,1,2026-07-19T04:22:39.713961+05:30
Jabalpur,Madhya Pradesh,23.1815,79.9864,24.4,97,0.3,957.6,1.25,28.4,88,35.2,23.0,7.0,186.0,67.0,3.0,6,5,3,1,2026-07-19T04:22:39.713968+05:30
Ujjain,Madhya Pradesh,23.1765,75.7885,24.9,87,0.0,949.8,8.2,33.5,72,15.8,12.5,7.9,218.0,58.0,9.4,3,5,7,1,2026-07-19T04:22:39.713976+05:30
Visakhapatnam,Andhra Pradesh,17.6868,83.2185,27.0,80,0.0,998.2,8.1,38.9,91,39.7,31.4,34.6,288.0,35.0,36.4,7,5,7,1,2026-07-19T04:22:39.713983+05:30
Vijayawada,Andhra Pradesh,16.5062,80.648,27.0,83,0.0,999.5,8.5,38.5,64,23.7,17.8,13.8,190.0,29.0,5.3,7,5,7,1,2026-07-19T04:22:39.713990+05:30
Guntur,Andhra Pradesh,16.3067,80.4365,27.6,77,0.0,1000.8,8.65,45.0,61,20.2,14.2,12.4,174.0,32.0,6.3,7,5,4,1,2026-07-19T04:22:39.713998+05:30
Nellore,Andhra Pradesh,14.4426,79.9865,25.8,88,0.0,1003.9,7.85,36.0,55,15.8,9.1,8.8,143.0,45.0,6.7,7,5,4,1,2026-07-19T04:22:39.714006+05:30
Kurnool,Andhra Pradesh,15.8281,78.0373,24.5,94,0.2,975.2,5.65,43.9,52,4.9,4.0,11.2,173.0,30.0,2.0,6,5,3,1,2026-07-19T04:22:39.714014+05:30
Kakinada,Andhra Pradesh,16.9891,82.2475,27.0,89,0.0,1003.4,8.6,46.1,64,19.6,13.7,7.3,206.0,66.0,4.7,7,5,4,1,2026-07-19T04:22:39.714021+05:30
Tirupati,Andhra Pradesh,13.6288,79.4192,25.7,83,0.0,989.4,6.55,32.0,62,23.7,15.7,18.0,169.0,20.0,1.9,7,5,7,1,2026-07-19T04:22:39.714028+05:30
Warangal,Telangana,17.9689,79.5941,25.5,87,0.0,975.6,3.95,40.3,60,10.9,8.1,8.9,188.0,42.0,2.5,7,5,3,1,2026-07-19T04:22:39.714035+05:30
Nizamabad,Telangana,18.6725,78.0941,24.3,98,0.0,961.9,3.7,43.2,61,13.1,10.0,9.7,198.0,42.0,5.6,3,5,3,1,2026-07-19T04:22:39.714042+05:30
Mysore,Karnataka,12.2958,76.6396,20.8,93,0.0,927.8,4.95,48.2,38,9.1,5.7,6.8,116.0,34.0,2.1,3,5,3,1,2026-07-19T04:22:39.714048+05:30
Mangalore,Karnataka,12.9141,74.856,23.8,97,0.0,1006.8,8.25,34.2,58,19.4,13.2,11.9,162.0,22.0,3.7,3,5,4,1,2026-07-19T04:22:39.714056+05:30
Hubli-Dharwad,Karnataka,15.3647,75.124,22.0,94,0.0,939.3,7.9,58.3,23,3.3,2.2,3.5,99.0,36.0,1.3,3,5,7,1,2026-07-19T04:22:39.714063+05:30
Belgaum,Karnataka,15.8497,74.4977,21.1,98,0.1,923.6,7.75,55.1,18,2.9,1.9,2.9,105.0,40.0,1.3,6,5,7,1,2026-07-19T04:22:42.967547+05:30
Coimbatore,Tamil Nadu,11.0168,76.9558,22.8,92,0.0,961.1,8.5,46.1,46,12.2,8.6,9.3,167.0,24.0,2.9,3,5,7,1,2026-07-19T04:22:42.967576+05:30
Madurai,Tamil Nadu,9.9252,78.1198,27.5,65,0.0,992.2,8.45,24.8,65,34.2,28.8,41.0,146.0,0.0,6.2,7,5,7,1,2026-07-19T04:22:42.967587+05:30
Trichy,Tamil Nadu,10.7905,78.7047,28.2,65,0.0,998.8,8.25,34.9,54,10.5,7.4,7.8,102.0,33.0,3.3,7,5,7,1,2026-07-19T04:22:42.967595+05:30
Salem,Tamil Nadu,11.6643,78.146,25.2,91,0.0,976.7,8.0,37.8,65,23.2,16.1,19.6,193.0,21.0,6.9,7,5,7,1,2026-07-19T04:22:42.967602+05:30
Tirunelveli,Tamil Nadu,8.7139,77.7567,28.0,67,0.0,1003.1,8.05,47.5,51,6.9,4.8,4.7,142.0,37.0,2.3,7,5,4,1,2026-07-19T04:22:42.967609+05:30
Vellore,Tamil Nadu,12.9165,79.1325,26.6,69,0.0,983.1,7.85,47.5,63,27.6,20.4,25.7,153.0,14.0,4.8,7,5,7,1,2026-07-19T04:22:42.967617+05:30
Erode,Tamil Nadu,11.341,77.7172,25.5,77,0.0,988.8,8.1,42.1,55,16.4,12.3,14.2,150.0,26.0,3.9,7,5,7,1,2026-07-19T04:22:42.967625+05:30
Kochi,Kerala,9.9312,76.2673,25.1,95,0.1,1009.8,7.8,37.4,57,17.1,12.8,13.7,107.0,18.0,4.1,10,0,4,1,2026-07-19T04:22:42.967632+05:30
Thiruvananthapuram,Kerala,8.5241,76.9366,23.8,97,0.0,1009.5,7.9,41.8,55,14.5,8.1,3.7,95.0,42.0,2.1,3,0,4,1,2026-07-19T04:22:42.967639+05:30
Kozhikode,Kerala,11.2588,75.7804,24.3,94,0.0,1008.6,8.0,36.7,51,17.9,10.1,3.5,137.0,46.0,2.2,3,0,4,1,2026-07-19T04:22:42.967645+05:30
Thrissur,Kerala,10.5276,76.2144,23.7,99,0.0,1008.0,8.0,35.6,55,12.6,10.2,12.3,214.0,17.0,3.3,3,0,4,1,2026-07-19T04:22:42.967653+05:30
Kannur,Kerala,11.8745,75.3704,24.0,95,0.0,1007.7,8.5,33.8,52,18.2,12.5,12.7,210.0,20.0,2.8,3,5,4,1,2026-07-19T04:22:42.967659+05:30
Patna,Bihar,25.5941,85.1376,26.5,96,0.1,995.2,6.15,25.2,85,37.1,36.9,13.8,400.0,83.0,14.7,10,5,7,1,2026-07-19T04:22:42.967667+05:30
Gaya,Bihar,24.7914,85.0002,26.1,97,0.0,988.5,6.15,25.6,104,38.9,38.5,17.7,389.0,58.0,9.6,7,5,7,1,2026-07-19T04:22:42.967673+05:30
Muzaffarpur,Bihar,26.1209,85.3647,26.5,97,0.2,995.4,3.8,32.8,78,26.8,26.7,11.2,315.0,87.0,10.5,10,5,3,1,2026-07-19T04:22:42.967680+05:30
Bhagalpur,Bihar,25.2425,87.0117,26.7,95,0.0,996.7,4.2,22.3,77,26.2,25.3,14.6,299.0,60.0,12.7,7,5,3,1,2026-07-19T04:22:42.967687+05:30
Ranchi,Jharkhand,23.3441,85.3096,22.8,98,0.0,932.3,8.1,27.0,76,35.7,35.6,14.7,299.0,41.0,4.9,3,5,7,1,2026-07-19T04:22:42.967694+05:30
Jamshedpur,Jharkhand,22.8046,86.2029,25.8,97,0.0,985.6,7.75,37.4,100,62.9,59.5,32.6,342.0,22.0,20.7,7,5,7,1,2026-07-19T04:22:42.967701+05:30
Dhanbad,Jharkhand,23.7957,86.4304,26.0,96,0.0,974.8,7.15,27.7,152,80.8,78.2,51.6,343.0,20.0,127.6,7,5,7,1,2026-07-19T04:22:42.967708+05:30
Bokaro,Jharkhand,23.6693,86.1511,25.9,98,0.0,978.6,8.0,30.2,147,95.7,92.9,56.1,3152.0,17.0,146.7,7,5,7,1,2026-07-19T04:22:42.967715+05:30
Bhubaneswar,Odisha,20.2961,85.8245,26.0,99,0.1,997.5,8.8,34.2,68,36.4,29.9,12.8,391.0,62.0,5.1,10,5,7,1,2026-07-19T04:22:42.967721+05:30
Cuttack,Odisha,20.4625,85.8828,26.1,98,0.1,999.3,9.1,36.7,68,36.4,29.9,12.8,392.0,62.0,5.1,10,5,7,1,2026-07-19T04:22:42.967728+05:30
Rourkela,Odisha,22.2604,84.8536,25.4,99,0.0,980.2,6.7,31.7,80,44.7,38.1,12.3,302.0,57.0,7.8,7,5,7,1,2026-07-19T04:22:42.967735+05:30
Raipur,Chhattisgarh,21.2514,81.6296,24.4,98,0.2,970.4,6.8,31.3,92,30.7,22.9,21.8,351.0,56.0,28.7,6,5,7,1,2026-07-19T04:22:42.967742+05:30
Bhilai,Chhattisgarh,21.1938,81.3509,24.4,98,0.1,970.8,7.5,33.1,85,24.1,19.3,20.5,579.0,45.0,25.3,6,5,7,1,2026-07-19T04:22:42.967748+05:30
Guwahati,Assam,26.1158,91.7086,25.1,99,0.0,998.4,2.15,29.9,56,15.9,14.4,9.5,233.0,42.0,2.3,7,5,3,1,2026-07-19T04:22:42.967756+05:30
Agartala,Tripura,23.8315,91.2868,26.0,88,0.0,1003.6,7.7,43.9,59,16.1,12.4,7.4,143.0,48.0,2.3,7,5,4,1,2026-07-19T04:22:42.967762+05:30
Shillong,Meghalaya,25.5788,91.8933,19.8,95,0.0,855.2,2.7,33.5,26,1.8,1.6,4.7,161.0,47.0,1.8,3,10,3,1,2026-07-19T04:22:42.967769+05:30
Imphal,Manipur,24.817,93.9368,23.0,95,0.0,921.0,1.85,21.6,60,8.2,6.7,5.0,250.0,44.0,1.6,3,5,3,1,2026-07-19T04:22:42.967776+05:30
Aizawl,Mizoram,23.7271,92.7176,19.6,90,0.0,890.8,2.6,38.9,44,7.8,4.9,2.1,116.0,42.0,0.5,3,10,3,1,2026-07-19T04:22:42.967783+05:30
Kohima,Nagaland,25.6701,94.1077,20.0,97,0.0,853.6,1.1,18.7,39,6.9,5.7,4.5,197.0,40.0,0.9,3,5,3,1,2026-07-19T04:22:42.967789+05:30
Gangtok,Sikkim,27.3314,88.6138,18.4,98,0.1,835.7,3.15,27.0,42,3.5,3.4,5.1,280.0,89.0,1.0,6,10,3,1,2026-07-19T04:22:42.967796+05:30
Siliguri,West Bengal,26.7271,88.3953,25.0,97,1.4,989.7,0.6,23.0,57,11.6,11.1,5.8,223.0,103.0,1.6,10,5,3,1,2026-07-19T04:22:46.219574+05:30
Durgapur,West Bengal,23.5204,87.3119,26.5,96,0.0,990.1,8.2,31.7,106,40.5,38.1,26.7,261.0,44.0,30.7,7,5,7,1,2026-07-19T04:22:46.219604+05:30
Asansol,West Bengal,23.6739,86.9524,26.4,98,0.0,988.6,7.85,33.8,117,48.9,46.4,32.8,665.0,33.0,36.6,7,5,7,1,2026-07-19T04:22:46.219614+05:30
Pondicherry,Puducherry,11.9139,79.8145,28.0,80,0.0,1007.1,6.7,47.9,73,32.9,18.8,16.0,273.0,55.0,19.6,7,5,4,1,2026-07-19T04:22:46.219622+05:30
Port Blair,Andaman and Nicobar Islands,11.6234,92.7265,26.0,88,0.0,1007.0,8.8,43.2,51,19.3,9.4,0.1,97.0,52.0,0.5,7,5,4,1,2026-07-19T04:22:46.219630+05:30
Haridwar,Uttarakhand,29.9457,78.1642,26.4,97,1.1,969.1,7.4,22.0,165,162.1,71.2,12.2,247.0,65.0,7.1,10,5,7,1,2026-07-19T04:22:46.219638+05:30
Rishikesh,Uttarakhand,30.0869,78.2676,25.8,96,0.8,961.8,6.8,22.0,154,203.5,61.5,5.8,227.0,95.0,7.5,10,5,7,1,2026-07-19T04:22:46.219645+05:30
Nainital,Uttarakhand,29.3919,79.4542,17.6,100,0.1,803.2,4.95,22.0,105,76.6,29.3,4.6,240.0,117.0,5.2,6,10,3,1,2026-07-19T04:22:46.219653+05:30
Mussoorie,Uttarakhand,30.4599,78.0664,17.9,100,0.4,800.3,6.65,35.6,139,203.0,59.6,8.9,230.0,94.0,6.4,6,10,7,1,2026-07-19T04:22:46.219660+05:30
Dharamshala,Himachal Pradesh,32.219,76.3234,22.2,98,2.6,865.8,6.65,20.2,50,13.6,7.1,9.7,343.0,57.0,0.9,6,5,7,1,2026-07-19T04:22:46.219667+05:30
Dalhousie,Himachal Pradesh,32.5387,75.971,18.8,99,2.7,801.9,6.1,22.3,94,38.8,20.6,4.6,304.0,119.0,2.1,6,10,7,1,2026-07-19T04:22:46.219676+05:30
Patiala,Punjab,30.3398,76.3869,28.9,86,0.0,971.6,6.35,32.0,222,371.6,149.9,51.5,506.0,11.0,8.6,7,5,7,1,2026-07-19T04:22:46.219683+05:30
Bhatinda,Punjab,30.211,74.9455,32.0,63,0.0,976.3,5.85,28.8,178,450.8,135.5,34.4,453.0,16.0,5.5,3,5,3,1,2026-07-19T04:22:46.219689+05:30
Rohtak,Haryana,28.8955,76.6066,30.0,69,0.0,975.1,6.45,23.8,797,423.8,103.8,38.1,259.0,23.0,7.3,7,5,7,1,2026-07-19T04:22:46.219696+05:30
Panipat,Haryana,29.3909,76.9635,29.4,84,0.0,974.1,6.8,20.5,1105,1065.4,184.9,43.3,453.0,14.0,9.0,7,5,7,1,2026-07-19T04:22:46.219703+05:30
Mathura,Uttar Pradesh,27.4924,77.6737,30.3,67,0.0,980.4,5.75,25.2,441,442.4,122.5,35.0,257.0,38.0,11.0,3,5,3,1,2026-07-19T04:22:46.219710+05:30
Vrindavan,Uttar Pradesh,27.5823,77.7027,30.2,68,0.0,980.8,6.8,25.2,441,442.4,122.5,35.0,309.0,38.0,11.0,3,5,7,1,2026-07-19T04:22:46.219716+05:30
Ayodhya,Uttar Pradesh,26.7922,82.1998,26.5,97,0.2,990.9,3.3,20.9,89,25.6,25.5,15.0,344.0,71.0,4.3,10,5,3,1,2026-07-19T04:22:46.219723+05:30
Ratlam,Madhya Pradesh,23.3315,75.0367,24.7,90,0.0,950.8,6.9,33.1,69,15.1,11.0,8.3,202.0,52.0,11.1,3,5,7,1,2026-07-19T04:22:46.219731+05:30
Sagar,Madhya Pradesh,23.8388,78.7378,24.3,96,0.1,946.1,4.25,33.1,85,28.1,18.1,7.0,239.0,66.0,2.7,6,5,3,1,2026-07-19T04:22:46.219737+05:30
Satna,Madhya Pradesh,24.6005,80.8322,25.7,93,0.0,966.8,6.1,32.0,108,40.0,24.1,9.9,169.0,59.0,3.0,7,5,7,1,2026-07-19T04:22:46.219744+05:30
Akola,Maharashtra,20.7002,77.0082,25.7,88,0.1,972.0,7.25,39.6,59,9.2,6.9,9.6,130.0,34.0,4.8,10,5,7,1,2026-07-19T04:22:46.219753+05:30
Amravati,Maharashtra,20.9374,77.7796,25.0,93,0.0,964.0,6.6,37.1,59,10.1,7.6,10.0,160.0,36.0,5.7,7,5,7,1,2026-07-19T04:22:46.219761+05:30
Latur,Maharashtra,18.4088,76.5604,23.2,92,0.0,937.1,5.0,37.4,46,5.7,4.5,7.2,145.0,33.0,2.7,3,5,3,1,2026-07-19T04:22:46.219769+05:30
Nanded,Maharashtra,19.1383,77.3091,24.7,93,0.0,965.8,5.1,40.7,58,9.8,7.2,7.6,156.0,47.0,2.9,3,5,3,1,2026-07-19T04:22:46.219776+05:30
Gulbarga,Karnataka,17.3297,76.8343,23.7,92,0.0,956.5,8.35,42.8,40,3.5,3.1,9.0,136.0,28.0,2.3,3,5,7,1,2026-07-19T04:22:46.219783+05:30
Bidar,Karnataka,17.9104,77.5199,22.6,97,0.1,932.5,5.95,39.6,51,7.1,5.3,6.9,145.0,42.0,1.8,6,5,3,1,2026-07-19T04:22:46.219789+05:30
Hospet,Karnataka,15.2689,76.3909,22.5,96,0.1,954.6,7.7,52.6,32,4.4,2.9,5.0,121.0,35.0,1.6,6,5,7,1,2026-07-19T04:22:46.219796+05:30
Tirupur,Tamil Nadu,11.1085,77.3411,23.1,90,0.0,974.8,8.05,47.9,57,19.8,15.6,19.5,142.0,16.0,4.7,3,5,7,1,2026-07-19T04:22:46.219803+05:30
Alappuzha,Kerala,9.4981,76.3388,25.1,93,0.1,1010.0,7.5,38.5,54,17.1,9.4,7.2,84.0,35.0,3.2,10,0,4,1,2026-07-19T04:22:46.219810+05:30
Munnar,Kerala,10.0889,77.0595,16.3,96,0.0,856.2,6.25,34.9,32,6.6,5.3,6.6,87.0,21.0,1.5,3,10,7,0,2026-07-19T04:22:46.219818+05:30
Silchar,Assam,24.8333,92.7789,25.5,95,0.1,1003.2,1.75,22.7,64,18.9,12.8,5.6,189.0,56.0,2.8,10,5,0,1,2026-07-19T04:22:46.219825+05:30
Dibrugarh,Assam,27.4728,94.912,25.1,98,0.1,991.9,3.8,33.5,58,13.5,12.6,8.6,194.0,53.0,1.1,10,5,3,1,2026-07-19T04:22:46.219831+05:30
