city,state,latitude,longitude,temp,humidity,rain,pressure,uv_index,wind_gusts,aqi,pm10,pm2_5,mosquito_risk,arthritis_risk,migraine_risk,frizz_risk,updated_at
Delhi,Delhi,28.6139,77.209,18.7,72,0.0,989.3,7.15,41.8,149,390.2,79.9,3,5,7,0,2026-04-10T04:14:34.842006+05:30
Mumbai,Maharashtra,19.076,72.8777,28.5,69,0.0,1010.2,7.95,25.9,90,129.5,35.2,7,0,4,1,2026-04-10T04:14:34.842047+05:30
Bangalore,Karnataka,12.9716,77.5946,23.3,84,0.0,912.6,9.65,43.2,78,31.9,27.4,3,5,7,1,2026-04-10T04:14:34.842063+05:30
Hyderabad,Telangana,17.385,78.4867,26.7,67,0.0,954.3,9.2,18.7,95,49.4,41.3,7,5,7,1,2026-04-10T04:14:34.842072+05:30
Chennai,Tamil Nadu,13.0827,80.2707,28.9,86,0.0,1007.5,9.35,34.6,65,24.5,18.6,7,5,4,1,2026-04-10T04:14:34.842081+05:30
Kolkata,West Bengal,22.5726,88.3639,21.7,100,0.0,1009.1,8.7,27.0,122,103.8,90.1,3,0,4,1,2026-04-10T04:14:34.842090+05:30
Pune,Maharashtra,18.5204,73.8567,21.5,80,0.0,950.0,8.55,31.7,94,117.6,49.8,3,5,7,1,2026-04-10T04:14:34.842101+05:30
Ahmedabad,Gujarat,23.0225,72.5714,25.2,57,0.0,1005.7,8.0,33.8,89,61.0,37.1,4,5,4,1,2026-04-10T04:14:34.842109+05:30
Jaipur,Rajasthan,26.9124,75.7873,20.4,45,0.0,965.2,7.8,27.7,131,417.2,63.3,0,5,7,0,2026-04-10T04:14:34.842117+05:30
Lucknow,Uttar Pradesh,26.8467,80.9462,19.8,63,0.0,998.5,7.65,43.9,105,103.8,35.0,3,5,7,0,2026-04-10T04:14:34.842125+05:30
Kanpur,Uttar Pradesh,26.4499,80.3319,20.2,64,0.0,997.2,7.65,38.5,128,185.8,43.7,3,5,7,0,2026-04-10T04:14:34.842132+05:30
Chandigarh,Chandigarh,30.7333,76.7794,15.5,80,0.0,974.6,7.15,43.9,66,21.0,20.9,3,5,7,0,2026-04-10T04:14:34.842139+05:30
Srinagar,Jammu and Kashmir,34.0837,74.7973,4.5,86,0.0,842.3,8.1,13.0,56,14.6,13.1,3,10,7,0,2026-04-10T04:14:34.842147+05:30
Jammu,Jammu and Kashmir,32.7266,74.857,13.5,82,0.0,979.6,7.75,33.8,71,27.1,25.8,3,10,7,0,2026-04-10T04:14:34.842154+05:30
Amritsar,Punjab,31.634,74.8723,15.3,84,0.0,988.1,7.7,29.9,83,38.5,34.0,3,10,7,0,2026-04-10T04:14:34.842160+05:30
Ludhiana,Punjab,30.901,75.8573,16.5,78,0.0,985.6,7.3,34.9,83,24.2,22.8,3,5,7,0,2026-04-10T04:14:34.842167+05:30
Jalandhar,Punjab,31.326,75.5762,15.7,83,0.0,986.9,7.5,32.8,77,41.6,31.9,3,10,7,0,2026-04-10T04:14:34.842175+05:30
Dehradun,Uttarakhand,30.6284,78.0322,7.5,71,0.0,829.1,7.55,30.2,35,9.7,8.5,3,5,7,0,2026-04-10T04:14:34.842181+05:30
Shimla,Himachal Pradesh,31.1048,77.1734,5.4,80,0.0,782.4,7.6,51.8,57,15.9,15.5,3,5,7,0,2026-04-10T04:14:34.842188+05:30
Manali,Himachal Pradesh,32.2396,77.1887,10.0,49,0.0,818.1,9.85,28.4,59,13.5,12.8,0,5,7,1,2026-04-10T04:14:34.842195+05:30
Gurgaon,Haryana,28.4595,77.0266,16.7,82,0.0,987.7,7.25,39.6,427,1203.3,163.9,3,10,7,0,2026-04-10T04:14:34.842201+05:30
Noida,Uttar Pradesh,28.5355,77.391,18.6,73,0.0,990.8,7.2,41.0,427,1203.3,163.9,3,5,7,0,2026-04-10T04:14:34.842208+05:30
Ghaziabad,Uttar Pradesh,28.6692,77.4538,17.3,78,0.0,988.8,7.15,41.4,118,228.2,52.2,3,5,7,0,2026-04-10T04:14:34.842214+05:30
Faridabad,Haryana,28.4089,77.3178,17.8,76,0.0,989.9,7.2,40.0,427,1203.3,163.9,3,5,7,0,2026-04-10T04:14:34.842220+05:30
Meerut,Uttar Pradesh,28.9845,77.7064,16.2,78,0.0,987.2,7.05,44.3,118,228.2,52.2,3,5,7,0,2026-04-10T04:14:34.842226+05:30
Agra,Uttar Pradesh,27.1767,78.0081,18.8,73,0.0,993.7,7.5,39.6,315,553.2,85.9,3,5,7,0,2026-04-10T04:14:34.842233+05:30
Varanasi,Uttar Pradesh,25.3176,82.9739,20.3,61,0.0,1002.5,8.2,40.3,98,56.9,31.4,3,5,4,0,2026-04-10T04:14:34.842240+05:30
Prayagraj,Uttar Pradesh,25.4358,81.8463,21.9,60,0.0,1001.3,8.1,35.3,91,91.5,28.1,0,5,4,0,2026-04-10T04:14:34.842247+05:30
Gorakhpur,Uttar Pradesh,26.7606,83.3732,18.9,58,0.0,1000.8,8.05,51.5,97,33.9,17.9,0,5,4,0,2026-04-10T04:14:34.842253+05:30
Bareilly,Uttar Pradesh,28.367,79.4304,16.7,79,0.0,991.8,7.4,40.0,73,33.8,24.4,3,5,7,0,2026-04-10T04:14:34.842259+05:30
Aligarh,Uttar Pradesh,27.8974,78.088,16.8,79,0.0,991.4,7.3,43.6,142,425.6,68.5,3,5,7,0,2026-04-10T04:14:34.842266+05:30
Moradabad,Uttar Pradesh,28.8386,78.7733,16.2,79,0.0,988.9,7.25,41.4,83,31.9,28.4,3,5,7,0,2026-04-10T04:14:34.842272+05:30
Saharanpur,Uttar Pradesh,29.9637,77.546,15.2,77,0.0,980.9,6.85,56.5,83,50.1,37.0,3,5,7,0,2026-04-10T04:14:34.842277+05:30
Jhansi,Uttar Pradesh,25.4484,78.5685,20.9,66,0.0,983.1,8.05,34.2,95,200.7,37.4,3,5,7,0,2026-04-10T04:14:38.145075+05:30
Surat,Gujarat,21.1702,72.8311,25.3,81,0.0,1009.2,7.75,22.0,113,99.9,50.8,7,0,4,1,2026-04-10T04:14:38.145109+05:30
Vadodara,Gujarat,22.3072,73.1812,25.1,73,0.0,1007.4,8.0,28.8,73,54.6,37.0,7,5,4,1,2026-04-10T04:14:38.145121+05:30
Rajkot,Gujarat,22.3039,70.8022,24.6,77,0.0,997.5,7.75,22.3,72,49.4,22.3,3,5,7,1,2026-04-10T04:14:38.145131+05:30
Thane,Maharashtra,19.2183,72.9781,25.4,72,0.0,1009.8,7.95,37.1,90,129.5,35.2,7,0,4,1,2026-04-10T04:14:38.145139+05:30
Nagpur,Maharashtra,21.1458,79.0882,25.3,49,0.0,975.3,8.7,25.6,78,34.8,21.9,4,5,7,0,2026-04-10T04:14:38.145148+05:30
Nashik,Maharashtra,19.9975,73.7898,22.0,61,0.0,947.6,8.2,27.7,77,97.8,35.5,3,5,7,0,2026-04-10T04:14:38.145156+05:30
Aurangabad,Maharashtra,19.8762,75.3433,24.5,63,0.0,946.1,8.9,28.4,65,39.9,23.2,3,5,7,1,2026-04-10T04:14:38.145164+05:30
Solapur,Maharashtra,17.6599,75.9064,26.3,49,0.0,958.6,8.95,23.8,85,41.4,26.1,4,5,7,0,2026-04-10T04:14:38.145173+05:30
Kolhapur,Maharashtra,16.705,74.2433,18.9,100,0.0,948.8,9.0,33.8,81,63.3,31.7,3,10,7,1,2026-04-10T04:14:38.145182+05:30
Goa,Goa,15.2993,74.124,26.0,89,0.0,998.8,9.0,36.7,67,53.2,21.8,7,5,7,1,2026-04-10T04:14:38.145190+05:30
Jodhpur,Rajasthan,26.2389,73.0243,20.6,44,0.0,988.1,8.05,24.5,67,104.1,18.6,0,5,7,0,2026-04-10T04:14:38.145198+05:30
Udaipur,Rajasthan,24.5854,73.7125,20.8,39,0.0,950.7,8.55,29.5,61,31.9,7.4,0,5,7,0,2026-04-10T04:14:38.145206+05:30
Kota,Rajasthan,25.2138,75.8648,19.5,64,0.0,983.8,8.0,19.4,88,44.8,21.4,3,5,7,0,2026-04-10T04:14:38.145213+05:30
Bikaner,Rajasthan,28.0229,73.3119,22.3,45,0.0,988.1,7.8,22.0,74,22.1,18.9,0,5,7,0,2026-04-10T04:14:38.145221+05:30
Ajmer,Rajasthan,26.4499,74.6399,18.7,48,0.0,959.6,8.0,20.9,66,161.6,34.1,0,5,7,0,2026-04-10T04:14:38.145229+05:30
Gwalior,Madhya Pradesh,26.2183,78.1828,21.9,67,0.0,988.8,7.75,36.7,116,310.1,54.8,3,5,7,0,2026-04-10T04:14:38.145236+05:30
Indore,Madhya Pradesh,22.7196,75.8577,20.6,55,0.0,951.2,8.4,28.4,79,43.7,24.7,0,5,7,0,2026-04-10T04:14:38.145243+05:30
Bhopal,Madhya Pradesh,23.2599,77.4126,22.0,48,0.0,957.3,8.4,28.8,73,51.5,24.1,0,5,7,0,2026-04-10T04:14:38.145250+05:30
Jabalpur,Madhya Pradesh,23.1815,79.9864,21.7,59,0.0,965.1,8.55,22.7,91,51.6,22.6,0,5,7,0,2026-04-10T04:14:38.145258+05:30
Ujjain,Madhya Pradesh,23.1765,75.7885,20.9,49,0.0,957.3,8.35,28.8,76,39.1,20.3,0,5,7,0,2026-04-10T04:14:38.145265+05:30
Visakhapatnam,Andhra Pradesh,17.6868,83.2185,27.4,94,0.0,1004.3,9.1,36.7,91,41.2,36.0,7,5,4,1,2026-04-10T04:14:38.145273+05:30
Vijayawada,Andhra Pradesh,16.5062,80.648,27.9,90,0.0,1003.6,9.2,34.6,86,27.0,23.1,7,5,4,1,2026-04-10T04:14:38.145281+05:30
Guntur,Andhra Pradesh,16.3067,80.4365,28.2,90,0.0,1004.7,9.25,37.1,87,25.6,22.0,7,5,4,1,2026-04-10T04:14:38.145288+05:30
Nellore,Andhra Pradesh,14.4426,79.9865,28.6,87,0.0,1006.3,9.3,32.0,76,22.9,20.7,7,5,4,1,2026-04-10T04:14:38.145297+05:30
Kurnool,Andhra Pradesh,15.8281,78.0373,28.4,74,0.0,977.3,9.2,24.5,77,33.9,31.2,7,5,7,1,2026-04-10T04:14:38.145305+05:30
Kakinada,Andhra Pradesh,16.9891,82.2475,26.6,96,0.0,1008.3,9.15,34.9,75,33.8,25.7,7,0,4,1,2026-04-10T04:14:38.145313+05:30
Tirupati,Andhra Pradesh,13.6288,79.4192,26.8,90,0.0,992.6,9.45,27.7,94,33.2,31.8,7,5,7,1,2026-04-10T04:14:38.145320+05:30
Warangal,Telangana,17.9689,79.5941,27.1,80,0.0,979.7,9.05,24.1,114,60.8,48.3,7,5,7,1,2026-04-10T04:14:38.145327+05:30
Nizamabad,Telangana,18.6725,78.0941,26.0,49,0.0,965.7,8.95,29.5,87,91.3,39.8,4,5,7,0,2026-04-10T04:14:38.145334+05:30
Mysore,Karnataka,12.2958,76.6396,23.2,88,0.0,929.0,9.55,28.4,57,31.3,22.6,3,5,7,1,2026-04-10T04:14:38.145342+05:30
Mangalore,Karnataka,12.9141,74.856,29.2,79,0.0,1007.1,9.2,31.7,71,43.1,19.6,7,5,4,1,2026-04-10T04:14:38.145349+05:30
Hubli-Dharwad,Karnataka,15.3647,75.124,21.5,92,0.0,941.5,9.2,40.3,66,42.7,18.0,3,5,7,1,2026-04-10T04:14:38.145356+05:30
Belgaum,Karnataka,15.8497,74.4977,19.4,95,0.0,926.1,9.25,36.0,73,68.7,24.0,3,10,7,1,2026-04-10T04:14:41.450112+05:30
Coimbatore,Tamil Nadu,11.0168,76.9558,24.4,87,0.0,962.5,9.5,41.0,53,33.2,23.3,3,5,7,1,2026-04-10T04:14:41.450138+05:30
Madurai,Tamil Nadu,9.9252,78.1198,27.0,71,0.0,993.0,9.4,37.4,95,38.0,36.1,7,5,7,1,2026-04-10T04:14:41.450147+05:30
Trichy,Tamil Nadu,10.7905,78.7047,27.0,85,0.0,1000.3,9.2,29.5,70,18.2,16.6,7,5,4,1,2026-04-10T04:14:41.450155+05:30
Salem,Tamil Nadu,11.6643,78.146,25.2,87,0.0,978.3,9.45,24.1,79,25.6,23.6,7,5,7,1,2026-04-10T04:14:41.450162+05:30
Tirunelveli,Tamil Nadu,8.7139,77.7567,26.2,79,0.0,1002.9,9.25,39.2,61,20.5,17.9,7,5,4,1,2026-04-10T04:14:41.450169+05:30
Vellore,Tamil Nadu,12.9165,79.1325,27.0,87,0.0,985.2,9.5,34.9,100,40.4,38.6,7,5,7,1,2026-04-10T04:14:41.450175+05:30
Erode,Tamil Nadu,11.341,77.7172,27.1,82,0.0,989.8,9.45,30.6,64,25.9,20.3,7,5,7,1,2026-04-10T04:14:41.450181+05:30
Kochi,Kerala,9.9312,76.2673,28.9,82,0.0,1008.6,9.25,33.5,67,27.5,25.4,7,0,4,1,2026-04-10T04:14:41.450187+05:30
Thiruvananthapuram,Kerala,8.5241,76.9366,28.4,83,0.0,1007.4,9.2,30.2,57,30.3,20.0,7,5,4,1,2026-04-10T04:14:41.450193+05:30
Kozhikode,Kerala,11.2588,75.7804,29.3,82,0.0,1008.0,9.15,30.2,71,54.2,22.7,7,0,4,1,2026-04-10T04:14:41.450199+05:30
Thrissur,Kerala,10.5276,76.2144,27.1,91,0.0,1007.2,9.2,39.6,73,42.4,33.5,7,5,4,1,2026-04-10T04:14:41.450206+05:30
Kannur,Kerala,11.8745,75.3704,27.6,84,0.0,1007.4,9.15,36.4,71,39.3,20.2,7,5,4,1,2026-04-10T04:14:41.450212+05:30
Patna,Bihar,25.5941,85.1376,21.4,49,0.0,1004.1,8.35,41.0,95,27.4,22.4,0,5,4,0,2026-04-10T04:14:41.450218+05:30
Gaya,Bihar,24.7914,85.0002,21.0,59,0.0,998.0,8.45,39.2,101,42.6,32.4,0,5,7,0,2026-04-10T04:14:41.450224+05:30
Muzaffarpur,Bihar,26.1209,85.3647,19.4,57,0.0,1003.7,8.35,40.0,91,26.7,23.2,0,5,4,0,2026-04-10T04:14:41.450230+05:30
Bhagalpur,Bihar,25.2425,87.0117,21.5,89,0.0,1004.3,8.4,34.6,119,47.7,42.1,3,5,4,1,2026-04-10T04:14:41.450235+05:30
Ranchi,Jharkhand,23.3441,85.3096,19.3,60,0.0,940.4,9.0,40.0,89,44.1,25.2,0,5,7,0,2026-04-10T04:14:41.450241+05:30
Jamshedpur,Jharkhand,22.8046,86.2029,23.4,91,0.0,994.3,8.85,19.4,128,107.3,75.7,3,5,7,1,2026-04-10T04:14:41.450247+05:30
Dhanbad,Jharkhand,23.7957,86.4304,20.8,77,0.0,983.0,8.75,36.4,153,125.3,102.7,3,5,7,1,2026-04-10T04:14:41.450252+05:30
Bokaro,Jharkhand,23.6693,86.1511,21.0,75,0.0,987.4,8.8,38.9,147,104.8,84.3,3,5,7,1,2026-04-10T04:14:41.450258+05:30
Bhubaneswar,Odisha,20.2961,85.8245,25.3,96,0.0,1004.6,9.0,29.9,107,72.4,66.1,7,5,4,1,2026-04-10T04:14:41.450263+05:30
Cuttack,Odisha,20.4625,85.8828,24.8,96,0.0,1006.8,9.05,25.9,107,72.4,66.1,3,5,4,1,2026-04-10T04:14:41.450269+05:30
Rourkela,Odisha,22.2604,84.8536,23.8,82,0.0,988.3,8.75,23.0,104,32.8,20.2,3,5,7,1,2026-04-10T04:14:41.450274+05:30
Raipur,Chhattisgarh,21.2514,81.6296,24.7,47,0.0,977.0,8.8,27.4,147,74.7,53.4,0,5,7,0,2026-04-10T04:14:41.450280+05:30
Bhilai,Chhattisgarh,21.1938,81.3509,24.0,50,0.0,977.3,8.8,25.6,136,56.2,41.8,0,5,7,0,2026-04-10T04:14:41.450286+05:30
Guwahati,Assam,26.1158,91.7086,20.7,91,0.0,1005.1,8.25,34.9,80,19.0,14.0,3,5,4,1,2026-04-10T04:14:41.450291+05:30
Agartala,Tripura,23.8315,91.2868,20.9,100,0.0,1009.8,8.55,25.2,150,92.4,90.6,3,0,4,1,2026-04-10T04:14:41.450296+05:30
Shillong,Meghalaya,25.5788,91.8933,11.1,91,0.0,855.1,6.45,48.6,76,20.8,15.4,3,10,7,0,2026-04-10T04:14:41.450302+05:30
Imphal,Manipur,24.817,93.9368,15.1,92,0.0,924.4,8.9,58.0,104,66.8,61.2,3,10,7,0,2026-04-10T04:14:41.450308+05:30
Aizawl,Mizoram,23.7271,92.7176,15.7,98,0.0,893.6,8.8,55.8,77,31.2,29.4,3,10,7,0,2026-04-10T04:14:41.450313+05:30
Kohima,Nagaland,25.6701,94.1077,12.2,85,0.0,854.0,8.8,58.3,74,30.2,25.3,3,10,7,0,2026-04-10T04:14:41.450319+05:30
Gangtok,Sikkim,27.3314,88.6138,10.5,84,0.0,835.2,8.5,16.9,69,14.5,11.6,3,10,7,0,2026-04-10T04:14:41.450324+05:30
Siliguri,West Bengal,26.7271,88.3953,17.0,70,0.0,996.0,8.2,29.5,77,37.6,32.2,3,5,7,0,2026-04-10T04:14:44.748920+05:30
Durgapur,West Bengal,23.5204,87.3119,22.9,93,0.0,998.4,8.7,24.5,152,114.1,88.7,3,5,7,1,2026-04-10T04:14:44.748951+05:30
Asansol,West Bengal,23.6739,86.9524,23.2,91,0.0,996.9,8.75,29.9,148,95.7,72.2,3,5,7,1,2026-04-10T04:14:44.748963+05:30
Pondicherry,Puducherry,11.9139,79.8145,27.6,95,0.0,1008.9,9.35,33.8,66,23.2,17.5,7,0,4,1,2026-04-10T04:14:44.749028+05:30
Port Blair,Andaman and Nicobar Islands,11.6234,92.7265,28.4,79,0.0,1008.2,8.75,19.1,32,8.4,6.1,7,0,4,1,2026-04-10T04:14:44.749042+05:30
Haridwar,Uttarakhand,29.9457,78.1642,13.9,85,0.0,979.3,6.95,49.7,66,30.4,28.0,3,10,7,0,2026-04-10T04:14:44.749052+05:30
Rishikesh,Uttarakhand,30.0869,78.2676,14.3,77,0.0,971.6,7.05,39.2,66,25.7,17.8,3,5,7,0,2026-04-10T04:14:44.749061+05:30
Nainital,Uttarakhand,29.3919,79.4542,12.8,48,0.0,805.9,7.9,64.4,65,21.7,14.1,0,5,7,0,2026-04-10T04:14:44.749069+05:30
Mussoorie,Uttarakhand,30.4599,78.0664,9.6,67,0.0,801.9,7.4,41.0,60,23.8,21.0,3,5,7,0,2026-04-10T04:14:44.749076+05:30
Dharamshala,Himachal Pradesh,32.219,76.3234,13.3,43,0.0,871.2,7.6,28.1,86,3.9,3.5,0,5,7,0,2026-04-10T04:14:44.749084+05:30
Dalhousie,Himachal Pradesh,32.5387,75.971,8.7,51,0.0,803.6,7.85,22.0,60,22.9,21.2,0,5,7,1,2026-04-10T04:14:44.749093+05:30
Patiala,Punjab,30.3398,76.3869,15.9,82,0.0,984.5,7.0,40.0,162,610.9,73.1,3,10,7,0,2026-04-10T04:14:44.749101+05:30
Bhatinda,Punjab,30.211,74.9455,16.9,79,0.0,990.9,7.65,32.4,90,40.3,36.7,3,5,7,0,2026-04-10T04:14:44.749109+05:30
Rohtak,Haryana,28.8955,76.6066,16.5,81,0.0,988.2,7.15,41.4,202,642.6,108.0,3,10,7,0,2026-04-10T04:14:44.749116+05:30
Panipat,Haryana,29.3909,76.9635,15.9,79,0.0,986.5,7.0,43.6,503,1162.3,143.0,3,5,7,0,2026-04-10T04:14:44.749124+05:30
Mathura,Uttar Pradesh,27.4924,77.6737,18.1,76,0.0,992.9,7.45,36.7,191,814.0,119.0,3,5,7,0,2026-04-10T04:14:44.749131+05:30
Vrindavan,Uttar Pradesh,27.5823,77.7027,17.7,77,0.0,993.3,7.4,40.3,191,814.0,119.0,3,5,7,0,2026-04-10T04:14:44.749138+05:30
Ayodhya,Uttar Pradesh,26.7922,82.1998,18.8,65,0.0,999.6,7.8,49.7,89,57.0,25.3,3,5,7,0,2026-04-10T04:14:44.749147+05:30
Ratlam,Madhya Pradesh,23.3315,75.0367,21.3,47,0.0,958.0,8.3,30.6,69,32.0,15.8,0,5,7,0,2026-04-10T04:14:44.749154+05:30
Sagar,Madhya Pradesh,23.8388,78.7378,21.5,55,0.0,954.2,8.4,28.1,81,84.3,26.7,0,5,7,0,2026-04-10T04:14:44.749162+05:30
Satna,Madhya Pradesh,24.6005,80.8322,22.3,55,0.0,976.2,8.45,36.4,81,132.7,29.1,0,5,7,0,2026-04-10T04:14:44.749169+05:30
Akola,Maharashtra,20.7002,77.0082,25.5,66,0.0,977.4,8.7,21.6,71,39.7,26.3,7,5,7,1,2026-04-10T04:14:44.749177+05:30
Amravati,Maharashtra,20.9374,77.7796,25.5,54,0.0,969.3,8.7,29.9,71,44.4,29.2,4,5,7,0,2026-04-10T04:14:44.749186+05:30
Latur,Maharashtra,18.4088,76.5604,22.4,61,0.0,941.0,8.95,30.6,88,55.2,25.7,3,5,7,0,2026-04-10T04:14:44.749193+05:30
Nanded,Maharashtra,19.1383,77.3091,24.7,65,0.0,970.1,8.85,21.2,88,30.7,21.1,3,5,7,1,2026-04-10T04:14:44.749200+05:30
Gulbarga,Karnataka,17.3297,76.8343,26.1,49,0.0,959.7,9.05,28.8,74,55.8,29.0,4,5,7,0,2026-04-10T04:14:44.749206+05:30
Bidar,Karnataka,17.9104,77.5199,25.1,54,0.0,936.1,9.05,27.7,80,94.5,37.6,4,5,7,0,2026-04-10T04:14:44.749212+05:30
Hospet,Karnataka,15.2689,76.3909,26.0,74,0.0,956.5,9.25,31.7,71,30.5,15.7,7,5,7,1,2026-04-10T04:14:44.749217+05:30
Tirupur,Tamil Nadu,11.1085,77.3411,26.1,79,0.0,976.0,9.5,28.8,60,31.7,24.7,7,5,7,1,2026-04-10T04:14:44.749222+05:30
Alappuzha,Kerala,9.4981,76.3388,28.7,84,0.0,1008.5,9.2,28.4,68,31.2,23.0,7,0,4,1,2026-04-10T04:14:44.749228+05:30
Munnar,Kerala,10.0889,77.0595,19.8,89,0.0,856.4,7.25,28.4,66,25.2,23.1,3,10,7,1,2026-04-10T04:14:44.749234+05:30
Silchar,Assam,24.8333,92.7789,19.8,95,0.1,1009.1,8.55,26.3,122,79.4,67.8,6,5,4,1,2026-04-10T04:14:44.749240+05:30
Dibrugarh,Assam,27.4728,94.912,20.2,87,0.0,998.6,8.1,16.2,92,75.2,52.0,3,5,7,1,2026-04-10T04:14:44.749245+05:30
