city,state,latitude,longitude,temp,humidity,rain,pressure,uv_index,wind_gusts,aqi,pm10,pm2_5,mosquito_risk,arthritis_risk,migraine_risk,frizz_risk,updated_at
Delhi,Delhi,28.6139,77.209,27.9,41,0.0,989.0,7.05,23.8,129,156.5,49.0,4,5,7,0,2026-04-09T12:58:10.423749+05:30
Mumbai,Maharashtra,19.076,72.8777,28.0,76,0.0,1011.5,7.95,19.1,78,130.9,42.4,7,0,4,1,2026-04-09T12:58:10.423802+05:30
Bangalore,Karnataka,12.9716,77.5946,32.9,35,0.0,914.1,9.6,27.4,72,20.1,13.0,0,5,7,0,2026-04-09T12:58:10.423818+05:30
Hyderabad,Telangana,17.385,78.4867,37.1,22,0.0,954.9,9.2,27.7,99,47.8,26.9,0,5,10,0,2026-04-09T12:58:10.423828+05:30
Chennai,Tamil Nadu,13.0827,80.2707,37.4,43,0.0,1008.1,9.35,38.9,66,26.0,20.2,0,0,7,1,2026-04-09T12:58:10.423838+05:30
Kolkata,West Bengal,22.5726,88.3639,26.1,77,0.0,1009.1,8.45,14.4,75,48.1,36.6,7,0,4,1,2026-04-09T12:58:10.423847+05:30
Pune,Maharashtra,18.5204,73.8567,33.7,38,0.0,951.2,8.5,34.2,77,144.4,35.4,0,5,7,1,2026-04-09T12:58:10.423860+05:30
Ahmedabad,Gujarat,23.0225,72.5714,34.9,34,0.0,1005.3,8.0,17.3,77,55.8,22.4,0,5,4,1,2026-04-09T12:58:10.423869+05:30
Jaipur,Rajasthan,26.9124,75.7873,28.4,40,0.0,964.9,7.75,27.0,160,184.4,36.7,4,5,7,0,2026-04-09T12:58:10.423877+05:30
Lucknow,Uttar Pradesh,26.8467,80.9462,29.8,38,0.0,998.8,7.55,32.8,134,89.2,28.5,4,5,7,0,2026-04-09T12:58:10.423885+05:30
Kanpur,Uttar Pradesh,26.4499,80.3319,29.2,42,0.0,997.3,7.6,32.4,134,201.2,36.4,4,5,7,0,2026-04-09T12:58:10.423892+05:30
Chandigarh,Chandigarh,30.7333,76.7794,25.1,49,0.0,975.8,7.05,24.1,66,30.3,14.7,4,5,7,0,2026-04-09T12:58:10.423901+05:30
Srinagar,Jammu and Kashmir,34.0837,74.7973,11.3,73,0.0,843.9,7.9,22.0,47,9.9,6.5,3,5,7,0,2026-04-09T12:58:10.423914+05:30
Jammu,Jammu and Kashmir,32.7266,74.857,23.9,55,0.0,980.6,7.65,27.4,67,18.6,8.8,0,5,7,0,2026-04-09T12:58:10.423929+05:30
Amritsar,Punjab,31.634,74.8723,23.9,56,0.0,988.6,7.6,18.4,78,48.9,19.7,0,5,7,0,2026-04-09T12:58:10.423942+05:30
Ludhiana,Punjab,30.901,75.8573,25.2,49,0.0,986.3,7.25,19.8,95,49.6,20.1,4,5,7,0,2026-04-09T12:58:10.423955+05:30
Jalandhar,Punjab,31.326,75.5762,25.2,48,0.0,987.5,7.4,21.2,90,44.1,17.5,4,5,7,0,2026-04-09T12:58:10.423972+05:30
Dehradun,Uttarakhand,30.6284,78.0322,15.0,63,0.0,833.3,7.05,23.4,44,10.6,4.4,3,5,7,0,2026-04-09T12:58:10.423988+05:30
Shimla,Himachal Pradesh,31.1048,77.1734,12.3,75,0.0,787.1,7.4,27.0,50,15.9,9.1,3,5,7,0,2026-04-09T12:58:10.423998+05:30
Manali,Himachal Pradesh,32.2396,77.1887,14.9,44,0.0,820.5,9.7,24.8,103,6.9,4.4,0,5,7,0,2026-04-09T12:58:10.424006+05:30
Gurgaon,Haryana,28.4595,77.0266,27.8,48,0.0,987.5,7.15,17.3,146,353.0,57.2,4,5,7,0,2026-04-09T12:58:10.424016+05:30
Noida,Uttar Pradesh,28.5355,77.391,28.2,40,0.0,990.7,7.1,22.7,146,353.0,57.2,4,5,7,0,2026-04-09T12:58:10.424029+05:30
Ghaziabad,Uttar Pradesh,28.6692,77.4538,27.6,40,0.0,989.0,7.05,23.8,111,136.4,41.9,4,5,7,0,2026-04-09T12:58:10.424060+05:30
Faridabad,Haryana,28.4089,77.3178,27.6,51,0.0,989.9,7.15,19.4,146,353.0,57.2,4,5,7,1,2026-04-09T12:58:10.424070+05:30
Meerut,Uttar Pradesh,28.9845,77.7064,27.7,40,0.0,987.6,6.95,29.2,111,136.4,41.9,4,5,7,0,2026-04-09T12:58:10.424078+05:30
Agra,Uttar Pradesh,27.1767,78.0081,27.8,52,0.0,994.1,7.45,17.3,520,281.3,54.6,4,5,7,1,2026-04-09T12:58:10.424087+05:30
Varanasi,Uttar Pradesh,25.3176,82.9739,31.4,37,0.0,1001.8,8.15,29.2,116,62.2,23.3,0,5,4,0,2026-04-09T12:58:10.424097+05:30
Prayagraj,Uttar Pradesh,25.4358,81.8463,30.8,38,0.0,1000.5,8.05,31.0,117,70.3,24.6,0,5,4,0,2026-04-09T12:58:10.424107+05:30
Gorakhpur,Uttar Pradesh,26.7606,83.3732,30.4,35,0.0,1001.7,7.95,31.0,152,91.5,36.1,0,5,4,0,2026-04-09T12:58:10.424114+05:30
Bareilly,Uttar Pradesh,28.367,79.4304,28.5,41,0.0,992.8,7.35,33.1,100,59.6,26.3,4,5,7,0,2026-04-09T12:58:10.424121+05:30
Aligarh,Uttar Pradesh,27.8974,78.088,28.9,45,0.0,991.6,7.2,26.6,114,199.8,42.0,4,5,7,0,2026-04-09T12:58:10.424127+05:30
Moradabad,Uttar Pradesh,28.8386,78.7733,27.3,45,0.0,989.9,7.15,30.6,111,66.6,30.9,4,5,7,0,2026-04-09T12:58:10.424136+05:30
Saharanpur,Uttar Pradesh,29.9637,77.546,25.9,45,0.0,982.5,6.75,27.4,94,41.6,16.9,4,5,7,0,2026-04-09T12:58:10.424143+05:30
Jhansi,Uttar Pradesh,25.4484,78.5685,29.5,40,0.0,983.3,8.0,25.2,93,104.3,26.3,4,5,7,0,2026-04-09T12:58:13.776652+05:30
Surat,Gujarat,21.1702,72.8311,30.1,52,0.0,1010.5,7.7,28.1,80,107.1,40.0,0,0,4,1,2026-04-09T12:58:13.776682+05:30
Vadodara,Gujarat,22.3072,73.1812,33.5,39,0.0,1007.9,8.0,20.5,68,45.6,23.8,0,5,4,1,2026-04-09T12:58:13.776692+05:30
Rajkot,Gujarat,22.3039,70.8022,33.1,35,0.0,997.5,7.7,21.2,62,65.0,25.6,0,5,7,0,2026-04-09T12:58:13.776701+05:30
Thane,Maharashtra,19.2183,72.9781,32.0,52,0.0,1011.0,7.95,33.8,78,130.9,42.4,0,0,4,1,2026-04-09T12:58:13.776708+05:30
Nagpur,Maharashtra,21.1458,79.0882,33.2,35,0.0,975.8,8.75,20.5,90,67.8,29.6,0,5,7,0,2026-04-09T12:58:13.776716+05:30
Nashik,Maharashtra,19.9975,73.7898,30.6,39,0.0,948.6,8.2,27.0,66,92.4,23.2,0,5,7,0,2026-04-09T12:58:13.776724+05:30
Aurangabad,Maharashtra,19.8762,75.3433,33.0,30,0.0,947.1,8.9,28.8,66,62.2,19.2,0,5,7,0,2026-04-09T12:58:13.776732+05:30
Solapur,Maharashtra,17.6599,75.9064,36.0,22,0.0,959.5,8.95,23.0,72,125.7,34.9,0,5,10,0,2026-04-09T12:58:13.776740+05:30
Kolhapur,Maharashtra,16.705,74.2433,32.0,44,0.0,950.7,9.0,38.9,79,138.8,30.0,0,5,7,1,2026-04-09T12:58:13.776747+05:30
Goa,Goa,15.2993,74.124,32.7,56,0.0,1000.6,9.0,35.3,73,66.1,19.8,0,5,4,1,2026-04-09T12:58:13.776755+05:30
Jodhpur,Rajasthan,26.2389,73.0243,32.1,20,0.0,988.2,8.0,26.3,95,90.1,15.7,0,5,7,0,2026-04-09T12:58:13.776762+05:30
Udaipur,Rajasthan,24.5854,73.7125,32.0,14,0.0,951.1,8.5,39.6,69,81.0,19.3,0,5,7,0,2026-04-09T12:58:13.776770+05:30
Kota,Rajasthan,25.2138,75.8648,32.2,32,0.0,983.2,8.0,21.6,117,110.1,33.3,0,5,7,0,2026-04-09T12:58:13.776777+05:30
Bikaner,Rajasthan,28.0229,73.3119,30.6,20,0.0,987.7,7.8,21.2,87,92.2,21.4,0,5,7,0,2026-04-09T12:58:13.776784+05:30
Ajmer,Rajasthan,26.4499,74.6399,30.1,25,0.0,959.3,7.95,27.4,79,115.5,26.6,0,5,7,0,2026-04-09T12:58:13.776792+05:30
Gwalior,Madhya Pradesh,26.2183,78.1828,29.5,40,0.0,988.6,7.75,34.6,112,131.3,32.7,4,5,7,0,2026-04-09T12:58:13.776799+05:30
Indore,Madhya Pradesh,22.7196,75.8577,31.3,36,0.0,951.8,8.4,23.4,79,41.4,18.4,0,5,7,0,2026-04-09T12:58:13.776806+05:30
Bhopal,Madhya Pradesh,23.2599,77.4126,33.0,26,0.0,957.3,8.4,26.6,70,71.2,22.5,0,5,7,0,2026-04-09T12:58:13.776813+05:30
Jabalpur,Madhya Pradesh,23.1815,79.9864,32.0,30,0.0,965.1,8.55,26.6,131,79.6,26.8,0,5,7,0,2026-04-09T12:58:13.776820+05:30
Ujjain,Madhya Pradesh,23.1765,75.7885,32.0,31,0.0,957.6,8.35,20.5,75,46.2,18.6,0,5,7,0,2026-04-09T12:58:13.776827+05:30
Visakhapatnam,Andhra Pradesh,17.6868,83.2185,35.0,53,0.0,1004.5,9.15,44.6,98,39.6,33.5,0,5,4,1,2026-04-09T12:58:13.776834+05:30
Vijayawada,Andhra Pradesh,16.5062,80.648,36.3,46,0.0,1003.4,9.15,33.1,91,30.6,27.4,0,5,7,1,2026-04-09T12:58:13.776841+05:30
Guntur,Andhra Pradesh,16.3067,80.4365,36.6,46,0.0,1004.4,8.95,33.8,92,30.6,27.5,0,5,7,1,2026-04-09T12:58:13.776848+05:30
Nellore,Andhra Pradesh,14.4426,79.9865,39.0,35,0.0,1005.5,9.3,35.3,79,32.4,29.5,0,5,7,1,2026-04-09T12:58:13.776856+05:30
Kurnool,Andhra Pradesh,15.8281,78.0373,39.2,22,0.0,977.5,9.2,27.7,79,46.4,25.9,0,5,10,0,2026-04-09T12:58:13.776863+05:30
Kakinada,Andhra Pradesh,16.9891,82.2475,36.5,46,0.0,1008.0,9.15,30.6,81,28.6,22.5,0,0,7,1,2026-04-09T12:58:13.776871+05:30
Tirupati,Andhra Pradesh,13.6288,79.4192,35.5,45,0.0,992.4,9.35,29.9,98,34.6,31.7,0,5,10,1,2026-04-09T12:58:13.776878+05:30
Warangal,Telangana,17.9689,79.5941,35.1,48,0.0,979.8,9.05,24.5,105,36.9,30.0,0,5,10,1,2026-04-09T12:58:13.776885+05:30
Nizamabad,Telangana,18.6725,78.0941,34.4,33,0.0,967.2,8.95,25.9,90,78.9,28.3,0,5,7,0,2026-04-09T12:58:13.776892+05:30
Mysore,Karnataka,12.2958,76.6396,33.6,35,0.0,930.9,9.55,37.1,49,17.3,10.4,0,5,7,0,2026-04-09T12:58:13.776899+05:30
Mangalore,Karnataka,12.9141,74.856,29.1,76,0.0,1009.1,9.15,34.2,75,59.8,21.2,7,0,4,1,2026-04-09T12:58:13.776906+05:30
Hubli-Dharwad,Karnataka,15.3647,75.124,33.0,38,0.0,943.6,9.2,40.3,66,84.3,23.6,0,5,7,1,2026-04-09T12:58:13.776913+05:30
Belgaum,Karnataka,15.8497,74.4977,30.6,48,0.0,928.8,9.2,36.4,76,104.8,24.3,0,5,7,1,2026-04-09T12:58:17.125921+05:30
Coimbatore,Tamil Nadu,11.0168,76.9558,33.5,46,0.0,964.0,9.5,38.9,44,14.3,8.6,0,5,7,1,2026-04-09T12:58:17.125952+05:30
Madurai,Tamil Nadu,9.9252,78.1198,35.4,45,0.0,994.3,9.4,21.6,91,34.8,29.7,0,5,10,1,2026-04-09T12:58:17.125962+05:30
Trichy,Tamil Nadu,10.7905,78.7047,35.0,48,0.0,1001.1,9.4,20.9,79,31.5,26.5,0,5,4,1,2026-04-09T12:58:17.125971+05:30
Salem,Tamil Nadu,11.6643,78.146,34.6,47,0.0,979.1,9.3,36.4,74,19.4,17.0,0,5,7,1,2026-04-09T12:58:17.125978+05:30
Tirunelveli,Tamil Nadu,8.7139,77.7567,36.6,40,0.0,1004.0,9.25,32.0,68,21.1,16.9,0,5,7,1,2026-04-09T12:58:17.125987+05:30
Vellore,Tamil Nadu,12.9165,79.1325,34.3,50,0.0,986.0,9.45,19.4,117,32.9,29.3,0,5,7,1,2026-04-09T12:58:17.125994+05:30
Erode,Tamil Nadu,11.341,77.7172,36.4,42,0.0,990.3,8.8,22.0,59,11.8,9.3,0,5,10,1,2026-04-09T12:58:17.126002+05:30
Kochi,Kerala,9.9312,76.2673,28.8,79,0.0,1010.7,8.3,25.2,66,27.7,17.5,7,0,4,1,2026-04-09T12:58:17.126010+05:30
Thiruvananthapuram,Kerala,8.5241,76.9366,28.8,80,0.0,1009.7,9.05,30.6,51,23.6,15.2,7,0,4,1,2026-04-09T12:58:17.126017+05:30
Kozhikode,Kerala,11.2588,75.7804,31.0,71,0.0,1010.0,9.15,25.9,64,67.1,25.1,3,0,4,1,2026-04-09T12:58:17.126024+05:30
Thrissur,Kerala,10.5276,76.2144,33.7,54,0.0,1009.0,7.7,28.8,63,29.0,16.2,0,0,4,1,2026-04-09T12:58:17.126037+05:30
Kannur,Kerala,11.8745,75.3704,32.4,59,0.0,1009.3,9.15,32.8,69,60.5,22.7,0,0,4,1,2026-04-09T12:58:17.126069+05:30
Patna,Bihar,25.5941,85.1376,30.3,42,0.0,1004.1,8.3,27.4,111,71.5,34.2,0,5,4,0,2026-04-09T12:58:17.126078+05:30
Gaya,Bihar,24.7914,85.0002,30.1,47,0.0,997.5,8.4,22.7,115,79.4,37.4,0,5,7,1,2026-04-09T12:58:17.126085+05:30
Muzaffarpur,Bihar,26.1209,85.3647,29.8,44,0.0,1004.2,7.75,20.5,121,69.2,35.2,4,5,4,1,2026-04-09T12:58:17.126093+05:30
Bhagalpur,Bihar,25.2425,87.0117,29.1,51,0.0,1004.4,8.25,23.4,102,34.9,27.2,4,5,4,1,2026-04-09T12:58:17.126100+05:30
Ranchi,Jharkhand,23.3441,85.3096,27.4,49,0.0,940.9,8.85,32.4,122,55.6,19.2,4,5,7,0,2026-04-09T12:58:17.126107+05:30
Jamshedpur,Jharkhand,22.8046,86.2029,29.9,54,0.0,994.0,8.6,15.8,109,129.0,64.5,4,5,7,1,2026-04-09T12:58:17.126114+05:30
Dhanbad,Jharkhand,23.7957,86.4304,29.8,45,0.0,983.0,8.7,24.5,151,101.5,43.9,4,5,7,1,2026-04-09T12:58:17.126121+05:30
Bokaro,Jharkhand,23.6693,86.1511,29.2,50,0.0,987.2,8.7,22.7,154,94.8,41.4,4,5,7,1,2026-04-09T12:58:17.126129+05:30
Bhubaneswar,Odisha,20.2961,85.8245,32.9,57,0.0,1003.8,9.0,32.8,85,51.8,41.1,0,5,4,1,2026-04-09T12:58:17.126136+05:30
Cuttack,Odisha,20.4625,85.8828,32.0,64,0.0,1006.4,9.05,31.7,85,51.8,41.1,3,5,4,1,2026-04-09T12:58:17.126145+05:30
Rourkela,Odisha,22.2604,84.8536,31.7,50,0.0,987.6,8.75,20.2,129,90.6,34.9,0,5,7,1,2026-04-09T12:58:17.126151+05:30
Raipur,Chhattisgarh,21.2514,81.6296,34.6,32,0.0,977.0,8.85,27.0,113,98.0,40.2,0,5,7,0,2026-04-09T12:58:17.126158+05:30
Bhilai,Chhattisgarh,21.1938,81.3509,34.6,33,0.0,977.2,8.6,25.9,115,97.6,42.0,0,5,7,0,2026-04-09T12:58:17.126165+05:30
Guwahati,Assam,26.1158,91.7086,27.4,65,0.0,1004.2,8.05,22.3,79,31.0,25.0,7,5,4,1,2026-04-09T12:58:17.126172+05:30
Agartala,Tripura,23.8315,91.2868,25.5,84,0.0,1009.5,8.25,18.7,112,18.3,16.8,7,0,4,1,2026-04-09T12:58:17.126180+05:30
Shillong,Meghalaya,25.5788,91.8933,15.0,77,0.1,857.2,8.3,45.4,66,31.2,25.2,6,5,7,0,2026-04-09T12:58:17.126187+05:30
Imphal,Manipur,24.817,93.9368,18.4,84,0.1,925.6,7.55,53.3,77,24.9,18.6,6,10,7,0,2026-04-09T12:58:17.126195+05:30
Aizawl,Mizoram,23.7271,92.7176,21.8,73,0.0,895.1,6.4,49.3,69,30.3,24.2,3,5,7,1,2026-04-09T12:58:17.126202+05:30
Kohima,Nagaland,25.6701,94.1077,16.0,84,0.0,856.5,6.7,70.6,57,24.2,16.5,3,10,7,0,2026-04-09T12:58:17.126210+05:30
Gangtok,Sikkim,27.3314,88.6138,17.0,67,0.0,838.8,5.8,20.5,91,15.2,11.4,3,5,3,0,2026-04-09T12:58:17.126217+05:30
Siliguri,West Bengal,26.7271,88.3953,23.5,68,0.0,996.9,4.4,21.6,104,25.0,17.9,3,5,3,1,2026-04-09T12:58:20.480381+05:30
Durgapur,West Bengal,23.5204,87.3119,29.3,53,0.0,998.3,8.7,18.0,127,88.7,44.2,4,5,7,1,2026-04-09T12:58:20.480413+05:30
Asansol,West Bengal,23.6739,86.9524,29.8,51,0.0,996.7,8.7,19.8,128,105.9,45.6,4,5,7,1,2026-04-09T12:58:20.480423+05:30
Pondicherry,Puducherry,11.9139,79.8145,36.7,45,0.0,1009.0,9.3,29.9,67,29.5,24.4,0,0,7,1,2026-04-09T12:58:20.480432+05:30
Port Blair,Andaman and Nicobar Islands,11.6234,92.7265,29.1,75,0.0,1009.0,9.25,12.2,31,7.3,5.9,7,0,4,1,2026-04-09T12:58:20.480440+05:30
Haridwar,Uttarakhand,29.9457,78.1642,26.5,43,0.0,980.8,6.9,30.2,64,24.3,10.9,4,5,7,0,2026-04-09T12:58:20.480447+05:30
Rishikesh,Uttarakhand,30.0869,78.2676,25.6,43,0.0,973.2,6.95,29.9,46,18.4,7.9,4,5,7,0,2026-04-09T12:58:20.480455+05:30
Nainital,Uttarakhand,29.3919,79.4542,17.8,56,0.0,809.6,7.8,40.7,54,37.1,14.6,0,5,7,0,2026-04-09T12:58:20.480462+05:30
Mussoorie,Uttarakhand,30.4599,78.0664,15.7,62,0.0,806.1,6.6,27.7,60,15.7,7.3,3,5,7,0,2026-04-09T12:58:20.480469+05:30
Dharamshala,Himachal Pradesh,32.219,76.3234,17.0,70,0.0,873.6,7.5,19.8,98,13.4,5.4,3,5,7,0,2026-04-09T12:58:20.480476+05:30
Dalhousie,Himachal Pradesh,32.5387,75.971,15.8,55,0.0,807.8,7.65,18.4,56,21.0,7.9,0,5,7,0,2026-04-09T12:58:20.480484+05:30
Patiala,Punjab,30.3398,76.3869,26.9,40,0.0,985.0,6.9,25.2,81,143.9,30.7,4,5,7,0,2026-04-09T12:58:20.480491+05:30
Bhatinda,Punjab,30.211,74.9455,26.2,54,0.0,990.8,7.6,25.6,97,71.9,32.4,4,5,7,1,2026-04-09T12:58:20.480498+05:30
Rohtak,Haryana,28.8955,76.6066,28.3,42,0.0,987.9,7.05,19.4,143,224.0,47.3,4,5,7,0,2026-04-09T12:58:20.480505+05:30
Panipat,Haryana,29.3909,76.9635,28.1,36,0.0,986.7,6.9,22.3,127,278.5,55.2,4,5,7,0,2026-04-09T12:58:20.480511+05:30
Mathura,Uttar Pradesh,27.4924,77.6737,28.6,47,0.0,992.9,7.35,25.2,303,233.8,50.4,4,5,7,1,2026-04-09T12:58:20.480518+05:30
Vrindavan,Uttar Pradesh,27.5823,77.7027,28.5,48,0.0,993.5,7.35,24.8,303,233.8,50.4,4,5,7,1,2026-04-09T12:58:20.480525+05:30
Ayodhya,Uttar Pradesh,26.7922,82.1998,30.7,33,0.0,1000.0,7.75,32.8,123,83.6,29.7,0,5,4,0,2026-04-09T12:58:20.480531+05:30
Ratlam,Madhya Pradesh,23.3315,75.0367,32.0,35,0.0,958.5,8.3,26.6,67,45.4,17.1,0,5,7,0,2026-04-09T12:58:20.480538+05:30
Sagar,Madhya Pradesh,23.8388,78.7378,31.5,27,0.0,953.9,8.4,27.0,69,85.4,23.3,0,5,7,0,2026-04-09T12:58:20.480544+05:30
Satna,Madhya Pradesh,24.6005,80.8322,30.9,33,0.0,975.6,8.4,25.2,83,64.3,15.8,0,5,7,0,2026-04-09T12:58:20.480550+05:30
Akola,Maharashtra,20.7002,77.0082,34.5,33,0.0,977.7,8.7,25.6,71,59.3,23.9,0,5,7,0,2026-04-09T12:58:20.480558+05:30
Amravati,Maharashtra,20.9374,77.7796,35.0,27,0.0,970.0,8.7,17.6,70,53.1,21.9,0,5,7,0,2026-04-09T12:58:20.480565+05:30
Latur,Maharashtra,18.4088,76.5604,32.5,29,0.0,942.7,8.95,28.4,76,135.0,39.2,0,5,7,0,2026-04-09T12:58:20.480572+05:30
Nanded,Maharashtra,19.1383,77.3091,34.5,33,0.0,971.4,8.85,20.2,76,100.8,31.4,0,5,7,0,2026-04-09T12:58:20.480579+05:30
Gulbarga,Karnataka,17.3297,76.8343,36.8,20,0.0,960.8,9.0,31.3,75,70.1,25.7,0,5,10,0,2026-04-09T12:58:20.480585+05:30
Bidar,Karnataka,17.9104,77.5199,34.1,29,0.0,938.0,9.05,32.4,91,64.3,24.7,0,5,7,0,2026-04-09T12:58:20.480592+05:30
Hospet,Karnataka,15.2689,76.3909,34.2,32,0.0,957.9,9.2,22.7,67,88.0,26.1,0,5,7,0,2026-04-09T12:58:20.480598+05:30
Tirupur,Tamil Nadu,11.1085,77.3411,36.6,35,0.0,976.7,9.25,34.2,55,14.3,10.4,0,5,10,1,2026-04-09T12:58:20.480604+05:30
Alappuzha,Kerala,9.4981,76.3388,28.9,80,0.0,1010.8,8.2,24.5,60,31.4,20.5,7,0,4,1,2026-04-09T12:58:20.480611+05:30
Munnar,Kerala,10.0889,77.0595,25.7,73,0.0,860.4,9.05,33.8,63,21.4,16.8,7,5,7,1,2026-04-09T12:58:20.480618+05:30
Silchar,Assam,24.8333,92.7789,24.0,82,0.1,1008.7,4.85,24.1,88,32.1,26.5,6,0,0,1,2026-04-09T12:58:20.480624+05:30
Dibrugarh,Assam,27.4728,94.912,24.7,71,0.0,998.8,3.6,25.9,93,34.9,22.2,3,5,3,1,2026-04-09T12:58:20.480631+05:30
