city,state,latitude,longitude,temp,humidity,rain,pressure,uv_index,wind_gusts,aqi,pm10,pm2_5,no2,co,o3,so2,mosquito_risk,arthritis_risk,migraine_risk,frizz_risk,updated_at
Delhi,Delhi,28.6139,77.209,21.9,88,0.0,983.8,7.55,34.2,470,292.4,58.1,14.4,375.0,94.0,14.2,3,5,7,1,2026-05-08T05:25:24.594020+05:30
Mumbai,Maharashtra,19.076,72.8777,27.5,92,0.0,1006.8,7.85,45.7,96,80.3,24.2,9.5,407.0,62.0,12.9,7,5,4,1,2026-05-08T05:25:24.594066+05:30
Bangalore,Karnataka,12.9716,77.5946,22.0,91,0.0,910.1,9.45,43.6,63,11.4,10.9,11.9,211.0,34.0,5.1,3,5,7,1,2026-05-08T05:25:24.594082+05:30
Hyderabad,Telangana,17.385,78.4867,25.2,69,0.0,953.6,9.25,36.4,56,11.9,10.3,9.8,218.0,44.0,5.4,7,5,7,1,2026-05-08T05:25:24.594098+05:30
Chennai,Tamil Nadu,13.0827,80.2707,26.5,83,0.1,1006.7,7.4,40.0,25,7.3,5.1,4.7,125.0,42.0,1.8,10,5,4,1,2026-05-08T05:25:24.594108+05:30
Kolkata,West Bengal,22.5726,88.3639,23.5,92,0.0,1008.3,8.9,59.8,112,92.7,90.3,32.8,610.0,51.0,22.0,3,0,4,1,2026-05-08T05:25:24.594117+05:30
Pune,Maharashtra,18.5204,73.8567,26.1,71,0.0,946.8,8.45,37.4,104,82.2,50.6,22.1,330.0,62.0,17.7,7,5,7,1,2026-05-08T05:25:24.594125+05:30
Ahmedabad,Gujarat,23.0225,72.5714,29.4,34,0.0,1000.1,8.1,24.8,94,34.0,21.8,14.2,211.0,41.0,6.6,4,5,4,0,2026-05-08T05:25:24.594136+05:30
Jaipur,Rajasthan,26.9124,75.7873,22.0,62,0.0,958.4,8.1,28.4,143,289.6,50.9,5.5,314.0,91.0,6.4,3,5,7,0,2026-05-08T05:25:24.594145+05:30
Lucknow,Uttar Pradesh,26.8467,80.9462,21.9,88,0.0,995.2,8.05,27.4,94,56.8,38.1,14.3,391.0,80.0,8.8,3,5,7,1,2026-05-08T05:25:24.594153+05:30
Kanpur,Uttar Pradesh,26.4499,80.3319,21.1,90,0.0,993.5,8.05,26.6,128,218.9,43.4,7.7,357.0,104.0,7.0,3,5,7,1,2026-05-08T05:25:24.594161+05:30
Chandigarh,Chandigarh,30.7333,76.7794,19.3,78,0.0,969.0,7.55,33.5,82,52.2,31.4,20.2,302.0,42.0,3.1,3,5,7,0,2026-05-08T05:25:24.594169+05:30
Srinagar,Jammu and Kashmir,34.0837,74.7973,7.6,82,0.0,837.9,8.8,16.6,73,49.6,38.2,21.3,217.0,37.0,0.7,3,10,7,0,2026-05-08T05:25:24.594177+05:30
Jammu,Jammu and Kashmir,32.7266,74.857,22.8,61,0.0,973.4,8.35,31.3,83,53.1,46.3,34.5,308.0,0.0,1.5,3,5,7,0,2026-05-08T05:25:24.594185+05:30
Amritsar,Punjab,31.634,74.8723,22.6,71,0.0,981.1,8.25,27.0,123,167.2,53.3,6.2,362.0,102.0,11.6,3,5,7,1,2026-05-08T05:25:24.594193+05:30
Ludhiana,Punjab,30.901,75.8573,21.4,79,0.0,979.0,7.8,28.8,192,257.0,56.9,7.7,344.0,100.0,8.0,3,5,7,1,2026-05-08T05:25:24.594200+05:30
Jalandhar,Punjab,31.326,75.5762,21.0,79,0.0,980.1,8.0,29.2,137,114.1,42.6,8.8,357.0,91.0,10.5,3,5,7,1,2026-05-08T05:25:24.594207+05:30
Dehradun,Uttarakhand,30.6284,78.0322,9.6,99,0.0,827.4,7.45,26.6,61,29.6,16.1,25.3,223.0,23.0,0.1,3,10,7,0,2026-05-08T05:25:24.594218+05:30
Shimla,Himachal Pradesh,31.1048,77.1734,7.6,87,0.0,780.2,7.3,28.8,66,32.5,22.2,21.2,269.0,60.0,0.6,3,10,7,0,2026-05-08T05:25:24.594225+05:30
Manali,Himachal Pradesh,32.2396,77.1887,7.0,65,0.0,812.0,9.55,36.7,49,42.8,9.2,8.5,246.0,113.0,0.4,3,5,7,0,2026-05-08T05:25:24.594233+05:30
Gurgaon,Haryana,28.4595,77.0266,21.6,83,0.0,981.9,7.65,37.4,2035,1598.1,185.8,11.0,344.0,99.0,14.7,3,5,7,1,2026-05-08T05:25:24.594240+05:30
Noida,Uttar Pradesh,28.5355,77.391,20.9,94,0.0,985.4,7.6,32.8,2035,1598.1,185.8,11.0,359.0,99.0,14.7,3,5,7,1,2026-05-08T05:25:24.594249+05:30
Ghaziabad,Uttar Pradesh,28.6692,77.4538,20.7,95,0.0,983.6,7.55,34.6,182,198.8,42.7,8.3,346.0,94.0,7.2,3,5,7,1,2026-05-08T05:25:24.594256+05:30
Faridabad,Haryana,28.4089,77.3178,21.4,90,0.0,984.5,7.6,33.8,2035,1598.1,185.8,11.0,344.0,99.0,14.7,3,5,7,1,2026-05-08T05:25:24.594263+05:30
Meerut,Uttar Pradesh,28.9845,77.7064,20.5,95,0.0,982.6,7.45,34.2,182,198.8,42.7,8.3,364.0,94.0,7.2,3,5,7,1,2026-05-08T05:25:24.594270+05:30
Agra,Uttar Pradesh,27.1767,78.0081,21.4,76,0.0,988.7,7.9,31.7,1246,1255.4,156.5,6.4,317.0,103.0,19.2,3,5,7,1,2026-05-08T05:25:24.594276+05:30
Varanasi,Uttar Pradesh,25.3176,82.9739,23.5,82,0.0,999.1,8.55,23.8,94,38.9,33.4,17.6,573.0,77.0,12.2,3,5,7,1,2026-05-08T05:25:24.594283+05:30
Prayagraj,Uttar Pradesh,25.4358,81.8463,22.7,84,0.0,997.4,8.45,24.8,94,37.0,33.1,17.4,551.0,75.0,10.0,3,5,7,1,2026-05-08T05:25:24.594292+05:30
Gorakhpur,Uttar Pradesh,26.7606,83.3732,21.6,89,0.0,999.4,8.4,26.3,101,56.7,54.2,21.0,554.0,58.0,5.1,3,5,7,1,2026-05-08T05:25:24.594299+05:30
Bareilly,Uttar Pradesh,28.367,79.4304,20.4,93,0.0,988.5,7.85,31.3,89,38.5,24.8,11.4,367.0,80.0,4.4,3,5,7,1,2026-05-08T05:25:24.594306+05:30
Aligarh,Uttar Pradesh,27.8974,78.088,21.4,89,0.0,986.7,7.7,33.8,772,739.5,97.1,9.2,312.0,92.0,23.5,3,5,7,1,2026-05-08T05:25:24.594313+05:30
Moradabad,Uttar Pradesh,28.8386,78.7733,20.8,89,0.0,985.2,7.65,33.8,94,46.0,31.3,14.8,392.0,74.0,5.6,3,5,7,1,2026-05-08T05:25:24.594320+05:30
Saharanpur,Uttar Pradesh,29.9637,77.546,20.1,87,0.0,976.5,7.25,32.0,107,77.3,49.1,25.5,350.0,48.0,10.0,3,5,7,1,2026-05-08T05:25:24.594327+05:30
Jhansi,Uttar Pradesh,25.4484,78.5685,21.9,67,0.0,978.4,8.35,41.0,66,30.0,19.0,4.5,265.0,91.0,6.1,3,5,7,0,2026-05-08T05:25:27.925998+05:30
Surat,Gujarat,21.1702,72.8311,26.5,98,0.0,1004.6,7.7,34.6,130,54.4,31.5,34.6,397.0,27.0,43.2,7,5,4,1,2026-05-08T05:25:27.926030+05:30
Vadodara,Gujarat,22.3072,73.1812,28.9,31,0.0,1002.1,8.05,28.4,104,42.7,25.4,13.6,235.0,48.0,15.0,4,5,4,0,2026-05-08T05:25:27.926041+05:30
Rajkot,Gujarat,22.3039,70.8022,24.8,81,0.0,992.1,7.7,48.2,63,27.2,12.3,7.1,203.0,43.0,6.4,3,5,7,1,2026-05-08T05:25:27.926051+05:30
Thane,Maharashtra,19.2183,72.9781,27.2,92,0.0,1006.3,7.85,41.0,96,80.3,24.2,9.5,289.0,62.0,12.9,7,5,4,1,2026-05-08T05:25:27.926059+05:30
Nagpur,Maharashtra,21.1458,79.0882,26.2,61,0.0,974.0,8.9,31.0,124,85.7,69.2,42.1,355.0,35.0,20.0,7,5,7,1,2026-05-08T05:25:27.926067+05:30
Nashik,Maharashtra,19.9975,73.7898,24.3,72,0.0,944.2,8.15,38.5,96,92.0,43.0,33.7,252.0,40.0,8.6,3,5,7,1,2026-05-08T05:25:27.926076+05:30
Aurangabad,Maharashtra,19.8762,75.3433,26.1,51,0.0,943.3,9.0,27.0,79,68.0,37.0,22.1,276.0,51.0,5.9,4,5,7,0,2026-05-08T05:25:27.926083+05:30
Solapur,Maharashtra,17.6599,75.9064,26.7,59,0.0,956.7,9.05,31.0,83,64.5,47.0,27.2,344.0,40.0,5.4,4,5,7,1,2026-05-08T05:25:27.926092+05:30
Kolhapur,Maharashtra,16.705,74.2433,25.1,68,0.0,946.1,8.9,36.4,113,101.5,78.2,49.5,279.0,6.0,9.3,7,5,7,1,2026-05-08T05:25:27.926099+05:30
Goa,Goa,15.2993,74.124,27.5,85,0.0,995.6,8.9,47.5,95,84.3,56.9,17.9,364.0,50.0,3.7,7,5,7,1,2026-05-08T05:25:27.926108+05:30
Jodhpur,Rajasthan,26.2389,73.0243,27.9,31,0.0,980.9,8.3,33.1,117,186.7,33.2,3.2,167.0,68.0,3.2,4,5,7,0,2026-05-08T05:25:27.926115+05:30
Udaipur,Rajasthan,24.5854,73.7125,26.2,32,0.0,944.1,8.75,31.3,66,88.2,20.2,2.7,174.0,98.0,2.3,4,5,7,0,2026-05-08T05:25:27.926123+05:30
Kota,Rajasthan,25.2138,75.8648,25.8,42,0.0,977.3,8.35,37.8,69,43.8,20.3,7.3,258.0,67.0,7.1,4,5,7,0,2026-05-08T05:25:27.926131+05:30
Bikaner,Rajasthan,28.0229,73.3119,25.0,48,0.0,978.5,8.25,28.1,63,42.1,20.7,4.7,282.0,68.0,5.0,4,5,7,0,2026-05-08T05:25:27.926138+05:30
Ajmer,Rajasthan,26.4499,74.6399,26.0,32,0.0,952.9,8.25,55.8,63,38.5,15.7,4.1,210.0,85.0,3.9,4,5,7,0,2026-05-08T05:25:27.926146+05:30
Gwalior,Madhya Pradesh,26.2183,78.1828,21.5,71,0.0,983.3,8.15,33.8,82,109.9,39.5,4.1,268.0,105.0,7.6,3,5,7,0,2026-05-08T05:25:27.926154+05:30
Indore,Madhya Pradesh,22.7196,75.8577,26.7,31,0.0,946.9,8.65,41.8,71,40.4,25.9,7.3,346.0,73.0,6.5,4,5,7,0,2026-05-08T05:25:27.926161+05:30
Bhopal,Madhya Pradesh,23.2599,77.4126,25.0,45,0.0,953.4,8.65,41.8,59,41.9,30.2,10.5,278.0,76.0,11.8,4,5,7,0,2026-05-08T05:25:27.926169+05:30
Jabalpur,Madhya Pradesh,23.1815,79.9864,25.1,47,0.0,960.9,8.8,38.5,53,25.6,20.3,17.9,343.0,59.0,4.5,4,5,7,0,2026-05-08T05:25:27.926176+05:30
Ujjain,Madhya Pradesh,23.1765,75.7885,26.2,34,0.0,952.5,8.55,25.9,79,46.9,22.5,5.4,371.0,82.0,5.4,4,5,7,0,2026-05-08T05:25:27.926185+05:30
Visakhapatnam,Andhra Pradesh,17.6868,83.2185,25.1,91,0.0,1005.2,9.15,37.8,67,28.1,25.5,22.9,1552.0,17.0,2.6,7,5,4,1,2026-05-08T05:25:27.926193+05:30
Vijayawada,Andhra Pradesh,16.5062,80.648,27.5,86,0.0,1002.6,9.2,43.2,46,19.7,18.0,18.7,187.0,17.0,4.8,7,5,4,1,2026-05-08T05:25:27.926201+05:30
Guntur,Andhra Pradesh,16.3067,80.4365,27.6,83,0.0,1003.7,9.2,45.0,46,14.7,13.5,18.1,170.0,18.0,6.7,7,5,4,1,2026-05-08T05:25:27.926208+05:30
Nellore,Andhra Pradesh,14.4426,79.9865,26.5,86,0.0,1005.6,9.2,40.0,28,7.3,5.2,4.9,173.0,36.0,2.2,7,5,4,1,2026-05-08T05:25:27.926217+05:30
Kurnool,Andhra Pradesh,15.8281,78.0373,27.2,70,0.0,976.3,9.15,58.7,48,4.5,3.7,5.7,125.0,26.0,1.1,7,5,7,1,2026-05-08T05:25:27.926225+05:30
Kakinada,Andhra Pradesh,16.9891,82.2475,27.1,85,0.0,1008.1,9.15,37.8,28,10.2,7.2,1.8,237.0,41.0,0.5,7,0,4,1,2026-05-08T05:25:27.926232+05:30
Tirupati,Andhra Pradesh,13.6288,79.4192,26.5,86,0.0,990.2,8.25,46.1,41,9.7,8.2,15.6,208.0,15.0,2.7,7,5,7,1,2026-05-08T05:25:27.926240+05:30
Warangal,Telangana,17.9689,79.5941,25.5,78,0.0,978.9,9.15,37.4,64,13.9,13.3,12.5,248.0,34.0,10.2,7,5,7,1,2026-05-08T05:25:27.926248+05:30
Nizamabad,Telangana,18.6725,78.0941,25.3,65,0.0,964.4,9.05,30.2,88,32.9,29.2,19.2,272.0,44.0,5.6,7,5,7,1,2026-05-08T05:25:27.926255+05:30
Mysore,Karnataka,12.2958,76.6396,22.5,91,0.0,926.3,9.35,36.7,82,32.7,29.8,22.5,342.0,56.0,9.2,3,5,7,1,2026-05-08T05:25:27.926263+05:30
Mangalore,Karnataka,12.9141,74.856,25.4,84,0.0,1004.6,9.0,39.2,68,42.6,29.0,12.2,343.0,48.0,3.3,7,5,4,1,2026-05-08T05:25:27.926271+05:30
Hubli-Dharwad,Karnataka,15.3647,75.124,25.8,66,0.0,939.2,9.05,40.7,91,47.6,36.7,12.8,281.0,67.0,5.3,7,5,7,1,2026-05-08T05:25:27.926278+05:30
Belgaum,Karnataka,15.8497,74.4977,24.5,65,0.0,924.1,8.9,60.8,94,54.9,35.5,11.9,239.0,74.0,6.1,3,5,7,1,2026-05-08T05:25:31.268393+05:30
Coimbatore,Tamil Nadu,11.0168,76.9558,24.2,89,0.0,960.2,9.25,34.9,65,18.9,17.3,14.0,276.0,53.0,6.2,3,5,7,1,2026-05-08T05:25:31.268424+05:30
Madurai,Tamil Nadu,9.9252,78.1198,25.2,95,0.1,990.8,8.4,32.8,59,10.1,9.4,10.2,233.0,63.0,3.2,10,5,7,1,2026-05-08T05:25:31.268438+05:30
Trichy,Tamil Nadu,10.7905,78.7047,24.3,95,0.0,998.4,8.45,37.4,51,10.5,10.0,14.8,223.0,40.0,8.4,3,5,7,1,2026-05-08T05:25:31.268448+05:30
Salem,Tamil Nadu,11.6643,78.146,24.2,96,0.0,976.0,7.15,35.3,68,22.9,22.3,12.4,255.0,72.0,13.0,3,5,7,1,2026-05-08T05:25:31.268458+05:30
Tirunelveli,Tamil Nadu,8.7139,77.7567,26.5,83,0.0,1000.9,7.95,40.3,62,12.0,11.2,7.0,319.0,60.0,3.0,7,5,4,1,2026-05-08T05:25:31.268467+05:30
Vellore,Tamil Nadu,12.9165,79.1325,25.4,91,0.0,983.4,7.95,42.8,50,14.6,13.1,17.0,245.0,16.0,6.2,7,5,7,1,2026-05-08T05:25:31.268476+05:30
Erode,Tamil Nadu,11.341,77.7172,24.0,92,0.0,988.0,8.9,33.5,55,14.2,13.6,12.7,224.0,68.0,3.8,3,5,7,1,2026-05-08T05:25:31.268484+05:30
Kochi,Kerala,9.9312,76.2673,25.6,95,0.0,1005.8,8.9,29.2,61,16.4,15.1,13.0,303.0,34.0,2.8,7,5,4,1,2026-05-08T05:25:31.268493+05:30
Thiruvananthapuram,Kerala,8.5241,76.9366,24.7,89,0.0,1004.8,8.75,25.2,54,7.9,6.5,4.4,240.0,88.0,2.2,3,5,4,1,2026-05-08T05:25:31.268501+05:30
Kozhikode,Kerala,11.2588,75.7804,25.0,95,0.0,1005.3,8.7,34.9,62,31.8,25.3,5.1,502.0,103.0,4.5,7,5,4,1,2026-05-08T05:25:31.268509+05:30
Thrissur,Kerala,10.5276,76.2144,24.9,97,0.0,1004.3,8.95,26.6,68,22.3,20.5,12.9,408.0,43.0,2.9,3,5,4,1,2026-05-08T05:25:31.268518+05:30
Kannur,Kerala,11.8745,75.3704,26.1,93,0.0,1004.4,9.0,40.3,69,37.6,28.3,11.6,446.0,48.0,2.7,7,5,4,1,2026-05-08T05:25:31.268526+05:30
Patna,Bihar,25.5941,85.1376,23.4,85,0.0,1002.2,8.7,21.2,118,63.6,58.0,43.7,591.0,35.0,20.6,3,5,4,1,2026-05-08T05:25:31.268534+05:30
Gaya,Bihar,24.7914,85.0002,23.4,79,0.0,995.8,8.75,27.0,115,50.8,47.0,25.4,441.0,62.0,11.6,3,5,7,1,2026-05-08T05:25:31.268542+05:30
Muzaffarpur,Bihar,26.1209,85.3647,21.8,88,0.0,1002.9,8.45,23.4,122,68.2,63.6,39.9,698.0,28.0,16.2,3,5,4,1,2026-05-08T05:25:31.268549+05:30
Bhagalpur,Bihar,25.2425,87.0117,22.7,88,0.0,1003.9,8.7,25.9,156,82.9,77.1,35.9,409.0,43.0,11.1,3,5,4,1,2026-05-08T05:25:31.268557+05:30
Ranchi,Jharkhand,23.3441,85.3096,21.0,82,0.0,938.9,9.2,40.0,111,65.9,61.0,12.2,338.0,109.0,33.1,3,5,7,1,2026-05-08T05:25:31.268565+05:30
Jamshedpur,Jharkhand,22.8046,86.2029,23.0,89,0.0,993.4,8.9,50.4,123,68.7,64.7,35.6,379.0,70.0,14.9,3,5,7,1,2026-05-08T05:25:31.268573+05:30
Dhanbad,Jharkhand,23.7957,86.4304,22.5,92,0.0,982.3,9.0,42.1,164,166.2,162.5,81.6,1055.0,31.0,97.5,3,5,7,1,2026-05-08T05:25:31.268581+05:30
Bokaro,Jharkhand,23.6693,86.1511,22.4,94,0.0,986.1,9.0,53.6,159,149.0,145.3,76.3,3356.0,36.0,75.5,3,5,7,1,2026-05-08T05:25:31.268589+05:30
Bhubaneswar,Odisha,20.2961,85.8245,25.5,97,0.0,1004.6,8.75,31.3,49,14.8,13.2,12.4,212.0,18.0,4.0,7,5,4,1,2026-05-08T05:25:31.268597+05:30
Cuttack,Odisha,20.4625,85.8828,25.4,97,0.0,1006.6,9.0,27.4,49,14.8,13.2,12.4,229.0,18.0,4.0,7,5,4,1,2026-05-08T05:25:31.268605+05:30
Rourkela,Odisha,22.2604,84.8536,23.8,77,0.0,986.6,8.7,47.5,112,46.8,44.8,19.4,358.0,70.0,44.5,3,5,7,1,2026-05-08T05:25:31.268612+05:30
Raipur,Chhattisgarh,21.2514,81.6296,26.9,56,0.0,974.8,8.95,27.4,105,68.2,61.9,64.6,467.0,8.0,9.9,4,5,7,1,2026-05-08T05:25:31.268620+05:30
Bhilai,Chhattisgarh,21.1938,81.3509,26.7,57,0.0,975.6,8.95,25.9,100,51.3,45.8,46.2,462.0,32.0,7.3,4,5,7,1,2026-05-08T05:25:31.268628+05:30
Guwahati,Assam,26.1158,91.7086,21.1,97,0.0,1005.5,8.65,23.4,100,43.1,38.6,19.0,376.0,26.0,1.8,3,5,4,1,2026-05-08T05:25:31.268636+05:30
Agartala,Tripura,23.8315,91.2868,23.2,95,0.0,1008.9,8.85,16.6,149,105.2,101.3,76.4,584.0,10.0,4.8,3,0,4,1,2026-05-08T05:25:31.268644+05:30
Shillong,Meghalaya,25.5788,91.8933,13.8,85,0.0,857.5,8.9,16.6,80,31.2,26.7,11.4,307.0,48.0,1.4,3,10,7,0,2026-05-08T05:25:31.268652+05:30
Imphal,Manipur,24.817,93.9368,18.7,85,0.0,925.6,9.2,27.4,114,72.2,65.4,21.7,437.0,20.0,1.3,3,10,7,1,2026-05-08T05:25:31.268661+05:30
Aizawl,Mizoram,23.7271,92.7176,15.9,90,0.0,893.3,9.05,23.8,77,40.2,33.9,18.1,374.0,23.0,0.8,3,10,7,0,2026-05-08T05:25:31.268669+05:30
Kohima,Nagaland,25.6701,94.1077,15.4,81,0.0,856.9,9.15,30.6,83,47.0,37.3,9.8,234.0,30.0,0.3,3,10,7,0,2026-05-08T05:25:31.268677+05:30
Gangtok,Sikkim,27.3314,88.6138,11.2,64,0.0,837.3,9.0,43.9,67,29.5,20.3,14.9,246.0,55.0,0.5,3,5,7,0,2026-05-08T05:25:31.268685+05:30
Siliguri,West Bengal,26.7271,88.3953,21.3,79,0.0,996.3,8.6,24.1,111,60.1,49.6,35.7,498.0,28.0,3.6,3,5,7,1,2026-05-08T05:25:34.613372+05:30
Durgapur,West Bengal,23.5204,87.3119,22.0,94,0.0,997.7,8.65,22.7,159,124.3,120.6,60.2,720.0,29.0,69.9,3,5,7,1,2026-05-08T05:25:34.613401+05:30
Asansol,West Bengal,23.6739,86.9524,22.2,93,0.0,996.1,8.95,45.0,159,125.3,121.5,57.5,710.0,40.0,78.7,3,5,7,1,2026-05-08T05:25:34.613412+05:30
Pondicherry,Puducherry,11.9139,79.8145,24.5,97,0.1,1007.9,9.0,45.0,21,5.7,3.7,1.8,164.0,45.0,0.3,6,5,4,1,2026-05-08T05:25:34.613420+05:30
Port Blair,Andaman and Nicobar Islands,11.6234,92.7265,26.5,87,0.0,1006.7,9.1,37.1,31,7.3,5.6,0.3,145.0,70.0,1.9,7,5,4,1,2026-05-08T05:25:34.613428+05:30
Haridwar,Uttarakhand,29.9457,78.1642,18.4,85,0.0,974.7,7.25,25.2,96,56.5,42.7,30.0,284.0,16.0,4.1,3,10,7,0,2026-05-08T05:25:34.613437+05:30
Rishikesh,Uttarakhand,30.0869,78.2676,16.0,91,0.0,966.9,7.2,20.2,83,44.6,30.6,15.0,299.0,55.0,2.4,3,10,7,0,2026-05-08T05:25:34.613445+05:30
Nainital,Uttarakhand,29.3919,79.4542,8.7,89,0.0,802.4,8.0,28.1,68,15.5,15.5,13.0,245.0,72.0,1.7,3,10,7,0,2026-05-08T05:25:34.613453+05:30
Mussoorie,Uttarakhand,30.4599,78.0664,8.5,90,0.0,799.2,7.6,25.2,88,46.6,34.0,35.8,226.0,19.0,5.9,3,10,7,0,2026-05-08T05:25:34.613461+05:30
Dharamshala,Himachal Pradesh,32.219,76.3234,14.7,72,0.0,867.1,8.2,34.9,52,40.7,13.0,10.4,228.0,63.0,0.1,3,5,7,0,2026-05-08T05:25:34.613469+05:30
Dalhousie,Himachal Pradesh,32.5387,75.971,6.6,91,0.0,799.0,8.45,35.6,70,42.5,27.8,25.2,298.0,26.0,0.9,3,10,7,0,2026-05-08T05:25:34.613477+05:30
Patiala,Punjab,30.3398,76.3869,21.0,82,0.0,978.7,7.5,32.4,822,566.2,80.1,6.0,357.0,110.0,10.4,3,5,7,1,2026-05-08T05:25:34.613485+05:30
Bhatinda,Punjab,30.211,74.9455,23.0,70,0.0,983.4,8.1,31.3,820,964.9,183.9,5.0,331.0,116.0,14.0,3,5,7,1,2026-05-08T05:25:34.613492+05:30
Rohtak,Haryana,28.8955,76.6066,21.4,89,0.0,982.2,7.6,35.6,944,644.5,92.4,13.8,392.0,98.0,18.8,3,5,7,1,2026-05-08T05:25:34.613500+05:30
Panipat,Haryana,29.3909,76.9635,20.5,93,0.0,981.2,7.45,35.3,1573,1065.4,122.0,11.1,359.0,97.0,17.3,3,5,7,1,2026-05-08T05:25:34.613508+05:30
Mathura,Uttar Pradesh,27.4924,77.6737,21.9,75,0.0,987.3,7.85,34.9,1328,1218.2,151.8,6.8,301.0,101.0,26.5,3,5,7,1,2026-05-08T05:25:34.613515+05:30
Vrindavan,Uttar Pradesh,27.5823,77.7027,22.0,76,0.0,987.8,7.85,34.9,1328,1218.2,151.8,6.8,303.0,101.0,26.5,3,5,7,1,2026-05-08T05:25:34.613522+05:30
Ayodhya,Uttar Pradesh,26.7922,82.1998,21.4,88,0.0,997.6,8.2,23.8,97,49.5,41.9,23.1,472.0,50.0,7.6,3,5,7,1,2026-05-08T05:25:34.613529+05:30
Ratlam,Madhya Pradesh,23.3315,75.0367,24.8,37,0.0,953.1,8.5,26.3,67,59.0,21.9,4.1,228.0,95.0,5.4,0,5,7,0,2026-05-08T05:25:34.613537+05:30
Sagar,Madhya Pradesh,23.8388,78.7378,24.3,48,0.0,949.3,8.65,39.6,48,24.3,14.8,8.2,258.0,82.0,5.7,0,5,7,0,2026-05-08T05:25:34.613544+05:30
Satna,Madhya Pradesh,24.6005,80.8322,21.4,71,0.0,971.5,8.7,33.1,72,36.7,24.0,12.1,301.0,86.0,9.7,3,5,7,0,2026-05-08T05:25:34.613552+05:30
Akola,Maharashtra,20.7002,77.0082,27.0,51,0.0,974.9,8.85,35.3,83,51.8,36.0,19.8,297.0,52.0,4.9,4,5,7,1,2026-05-08T05:25:34.613560+05:30
Amravati,Maharashtra,20.9374,77.7796,25.7,62,0.0,967.7,8.85,29.9,85,54.9,38.2,22.3,281.0,54.0,7.8,7,5,7,1,2026-05-08T05:25:34.613567+05:30
Latur,Maharashtra,18.4088,76.5604,25.0,63,0.0,939.2,8.3,29.9,88,47.6,35.6,15.3,289.0,58.0,3.9,7,5,7,1,2026-05-08T05:25:34.613574+05:30
Nanded,Maharashtra,19.1383,77.3091,26.0,62,0.0,968.7,8.95,30.6,82,50.1,37.7,25.0,384.0,34.0,3.7,7,5,7,1,2026-05-08T05:25:34.613581+05:30
Gulbarga,Karnataka,17.3297,76.8343,26.0,68,0.0,958.4,9.05,33.1,72,25.6,19.3,13.6,220.0,68.0,5.4,7,5,7,1,2026-05-08T05:25:34.613589+05:30
Bidar,Karnataka,17.9104,77.5199,24.9,66,0.0,935.7,9.1,32.4,81,24.6,21.2,14.9,255.0,60.0,6.3,3,5,7,1,2026-05-08T05:25:34.613596+05:30
Hospet,Karnataka,15.2689,76.3909,24.3,76,0.0,954.7,9.15,36.0,83,20.4,18.2,21.0,226.0,45.0,9.8,3,5,7,1,2026-05-08T05:25:34.613603+05:30
Tirupur,Tamil Nadu,11.1085,77.3411,22.5,97,0.2,973.7,9.15,31.7,65,21.8,20.5,18.5,223.0,54.0,6.2,6,5,7,1,2026-05-08T05:25:34.613610+05:30
Alappuzha,Kerala,9.4981,76.3388,25.9,91,0.0,1005.8,8.85,31.0,57,12.7,10.9,8.9,279.0,69.0,3.4,7,5,4,1,2026-05-08T05:25:34.613617+05:30
Munnar,Kerala,10.0889,77.0595,17.2,92,0.0,853.9,9.25,23.8,57,7.6,6.6,6.3,244.0,59.0,1.4,3,10,7,0,2026-05-08T05:25:34.613624+05:30
Silchar,Assam,24.8333,92.7789,23.6,89,0.0,1007.8,8.85,19.1,132,53.9,49.8,20.6,451.0,26.0,3.4,3,5,4,1,2026-05-08T05:25:34.613632+05:30
Dibrugarh,Assam,27.4728,94.912,20.6,93,0.0,999.5,8.8,42.8,79,26.8,24.3,17.1,247.0,22.0,1.1,3,5,7,1,2026-05-08T05:25:34.613639+05:30
