city,state,latitude,longitude,temp,humidity,rain,pressure,uv_index,wind_gusts,aqi,pm10,pm2_5,no2,co,o3,so2,mosquito_risk,arthritis_risk,migraine_risk,frizz_risk,updated_at
Delhi,Delhi,28.6139,77.209,36.3,27,0.0,976.5,7.65,29.2,211,277.5,96.9,20.7,581.0,169.0,27.8,0,5,10,0,2026-05-13T18:42:56.549567+05:30
Mumbai,Maharashtra,19.076,72.8777,30.2,75,0.0,1002.9,7.85,40.7,73,42.4,21.4,9.7,243.0,80.0,5.8,3,5,4,1,2026-05-13T18:42:56.549606+05:30
Bangalore,Karnataka,12.9716,77.5946,32.0,29,0.0,908.0,9.45,37.1,145,32.7,24.6,29.8,407.0,100.0,7.4,0,5,7,0,2026-05-13T18:42:56.549622+05:30
Hyderabad,Telangana,17.385,78.4867,35.0,32,0.0,948.4,8.7,25.9,112,45.4,26.6,11.9,343.0,136.0,7.2,0,5,7,0,2026-05-13T18:42:56.549633+05:30
Chennai,Tamil Nadu,13.0827,80.2707,30.5,70,0.0,1001.6,9.1,47.2,25,7.8,4.9,4.0,150.0,43.0,4.4,3,5,4,1,2026-05-13T18:42:56.549647+05:30
Kolkata,West Bengal,22.5726,88.3639,24.8,96,0.3,1002.5,8.95,46.1,67,13.2,10.1,6.0,286.0,46.0,4.6,6,5,4,1,2026-05-13T18:42:56.549657+05:30
Pune,Maharashtra,18.5204,73.8567,31.7,52,0.0,943.6,8.5,49.3,134,38.8,22.1,6.7,269.0,127.0,9.7,0,5,7,1,2026-05-13T18:42:56.549665+05:30
Ahmedabad,Gujarat,23.0225,72.5714,42.2,15,0.0,993.9,8.15,36.7,92,65.2,25.2,5.3,251.0,117.0,4.4,0,5,10,0,2026-05-13T18:42:56.549676+05:30
Jaipur,Rajasthan,26.9124,75.7873,39.5,14,0.0,953.8,8.25,49.3,143,258.9,48.7,8.1,192.0,102.0,4.1,0,5,10,0,2026-05-13T18:42:56.549684+05:30
Lucknow,Uttar Pradesh,26.8467,80.9462,35.5,36,0.0,986.2,8.15,29.9,170,135.5,74.0,14.1,403.0,131.0,13.0,0,5,10,1,2026-05-13T18:42:56.549692+05:30
Kanpur,Uttar Pradesh,26.4499,80.3319,36.9,34,0.0,984.1,8.2,35.3,168,186.7,68.2,12.7,367.0,124.0,11.9,0,5,10,1,2026-05-13T18:42:56.549699+05:30
Chandigarh,Chandigarh,30.7333,76.7794,30.7,35,0.0,963.2,7.7,37.1,167,97.3,45.3,11.9,553.0,151.0,14.4,0,5,7,0,2026-05-13T18:42:56.549708+05:30
Srinagar,Jammu and Kashmir,34.0837,74.7973,18.5,57,0.0,841.9,8.75,32.8,75,14.5,11.2,12.8,534.0,86.0,2.3,0,5,7,0,2026-05-13T18:42:56.549716+05:30
Jammu,Jammu and Kashmir,32.7266,74.857,31.0,39,0.0,968.2,8.45,37.4,109,54.2,28.1,14.6,349.0,117.0,3.8,0,5,7,0,2026-05-13T18:42:56.549725+05:30
Amritsar,Punjab,31.634,74.8723,32.0,36,0.0,975.4,8.35,34.9,152,141.6,61.7,7.5,405.0,135.0,8.1,0,5,7,0,2026-05-13T18:42:56.549732+05:30
Ludhiana,Punjab,30.901,75.8573,33.2,31,0.0,972.8,7.95,38.2,161,100.6,49.6,11.2,527.0,135.0,10.2,0,5,7,0,2026-05-13T18:42:56.549740+05:30
Jalandhar,Punjab,31.326,75.5762,32.0,38,0.0,974.1,8.1,45.4,148,88.2,47.7,11.2,699.0,117.0,6.0,0,5,7,0,2026-05-13T18:42:56.549747+05:30
Dehradun,Uttarakhand,30.6284,78.0322,19.8,58,0.0,827.5,8.1,36.0,116,44.6,28.2,9.1,319.0,142.0,5.8,0,5,7,0,2026-05-13T18:42:56.549756+05:30
Shimla,Himachal Pradesh,31.1048,77.1734,16.6,47,0.0,782.3,8.2,45.7,129,32.2,20.3,4.6,298.0,150.0,7.9,0,5,7,0,2026-05-13T18:42:56.549763+05:30
Manali,Himachal Pradesh,32.2396,77.1887,13.7,65,0.0,815.0,10.0,46.4,116,14.8,7.8,13.1,192.0,134.0,0.5,3,5,7,0,2026-05-13T18:42:56.549770+05:30
Gurgaon,Haryana,28.4595,77.0266,34.1,35,0.0,974.7,7.75,33.8,630,482.4,123.4,26.4,483.0,156.0,26.3,0,5,7,1,2026-05-13T18:42:56.549777+05:30
Noida,Uttar Pradesh,28.5355,77.391,32.5,56,0.0,977.8,7.7,27.0,630,482.4,123.4,26.4,568.0,156.0,26.3,0,5,7,1,2026-05-13T18:42:56.549784+05:30
Ghaziabad,Uttar Pradesh,28.6692,77.4538,32.3,53,0.0,976.2,7.7,28.1,184,230.0,84.8,12.4,429.0,156.0,21.5,0,5,7,1,2026-05-13T18:42:56.549791+05:30
Faridabad,Haryana,28.4089,77.3178,34.9,36,0.0,977.2,7.75,28.4,630,482.4,123.4,26.4,517.0,156.0,26.3,0,5,7,1,2026-05-13T18:42:56.549797+05:30
Meerut,Uttar Pradesh,28.9845,77.7064,33.3,46,0.0,975.5,7.6,33.5,184,230.0,84.8,12.4,420.0,156.0,21.5,0,5,7,1,2026-05-13T18:42:56.549804+05:30
Agra,Uttar Pradesh,27.1767,78.0081,36.7,31,0.0,980.5,8.05,29.5,643,271.9,75.7,15.6,330.0,111.0,10.1,0,5,10,1,2026-05-13T18:42:56.549814+05:30
Varanasi,Uttar Pradesh,25.3176,82.9739,34.3,43,0.0,990.5,8.7,39.2,194,107.6,70.1,16.7,447.0,151.0,16.9,0,5,7,1,2026-05-13T18:42:56.549822+05:30
Prayagraj,Uttar Pradesh,25.4358,81.8463,36.3,34,0.0,988.4,8.55,47.5,184,108.7,65.4,16.7,351.0,133.0,16.0,0,5,10,1,2026-05-13T18:42:56.549832+05:30
Gorakhpur,Uttar Pradesh,26.7606,83.3732,31.1,63,0.0,990.2,8.5,38.2,159,87.8,61.7,8.6,362.0,151.0,11.1,3,5,7,1,2026-05-13T18:42:56.549839+05:30
Bareilly,Uttar Pradesh,28.367,79.4304,31.6,55,0.0,980.1,7.95,28.1,179,137.8,71.2,10.8,396.0,148.0,14.6,0,5,7,1,2026-05-13T18:42:56.549846+05:30
Aligarh,Uttar Pradesh,27.8974,78.088,33.5,47,0.0,978.9,7.85,26.3,310,259.8,83.1,9.4,356.0,147.0,14.9,0,5,7,1,2026-05-13T18:42:56.549852+05:30
Moradabad,Uttar Pradesh,28.8386,78.7733,32.0,55,0.0,977.4,7.8,27.0,181,169.0,77.5,15.7,432.0,139.0,17.5,0,5,7,1,2026-05-13T18:42:56.549859+05:30
Saharanpur,Uttar Pradesh,29.9637,77.546,30.8,50,0.0,969.7,7.4,31.0,163,111.1,65.9,15.3,416.0,138.0,17.3,0,5,7,1,2026-05-13T18:42:56.549866+05:30
Jhansi,Uttar Pradesh,25.4484,78.5685,36.0,28,0.0,970.9,8.45,50.4,106,99.9,35.3,4.5,250.0,105.0,5.3,0,5,10,0,2026-05-13T18:42:59.920406+05:30
Surat,Gujarat,21.1702,72.8311,31.2,70,0.0,1000.3,7.25,43.9,87,41.2,27.7,28.1,268.0,59.0,52.9,3,5,4,1,2026-05-13T18:42:59.920480+05:30
Vadodara,Gujarat,22.3072,73.1812,40.9,16,0.0,996.4,8.1,39.2,119,56.5,26.8,8.7,269.0,123.0,10.5,0,5,10,0,2026-05-13T18:42:59.920490+05:30
Rajkot,Gujarat,22.3039,70.8022,35.8,23,0.0,988.0,7.75,50.8,75,38.6,15.3,3.3,157.0,104.0,4.7,0,5,10,0,2026-05-13T18:42:59.920497+05:30
Thane,Maharashtra,19.2183,72.9781,31.3,70,0.0,1002.1,7.9,37.1,73,42.4,21.4,9.7,211.0,80.0,5.8,3,5,4,1,2026-05-13T18:42:59.920504+05:30
Nagpur,Maharashtra,21.1458,79.0882,38.5,24,0.0,967.0,8.95,40.3,146,69.8,31.3,18.9,286.0,128.0,23.5,0,5,10,0,2026-05-13T18:42:59.920511+05:30
Nashik,Maharashtra,19.9975,73.7898,33.5,41,0.0,940.7,8.25,42.5,102,46.7,21.4,3.0,185.0,106.0,1.5,0,5,7,1,2026-05-13T18:42:59.920517+05:30
Aurangabad,Maharashtra,19.8762,75.3433,39.0,16,0.0,938.1,8.85,40.3,125,25.7,15.7,2.6,231.0,136.0,5.2,0,5,10,0,2026-05-13T18:42:59.920524+05:30
Solapur,Maharashtra,17.6599,75.9064,35.5,32,0.0,951.9,9.1,39.2,139,63.8,32.6,7.5,263.0,140.0,6.2,0,5,10,1,2026-05-13T18:42:59.920530+05:30
Kolhapur,Maharashtra,16.705,74.2433,29.4,66,0.0,943.7,8.9,50.0,103,26.0,16.5,7.3,199.0,105.0,3.9,7,5,7,1,2026-05-13T18:42:59.920537+05:30
Goa,Goa,15.2993,74.124,30.2,82,0.0,992.8,8.9,28.1,68,43.5,20.0,1.7,162.0,79.0,1.2,3,5,7,1,2026-05-13T18:42:59.920543+05:30
Jodhpur,Rajasthan,26.2389,73.0243,40.8,14,0.0,975.3,8.4,36.0,108,154.1,34.0,5.2,195.0,119.0,2.7,0,5,10,0,2026-05-13T18:42:59.920549+05:30
Udaipur,Rajasthan,24.5854,73.7125,36.8,18,0.0,941.6,8.85,43.6,92,37.3,20.7,2.2,195.0,128.0,3.8,0,5,10,0,2026-05-13T18:42:59.920556+05:30
Kota,Rajasthan,25.2138,75.8648,40.8,13,0.0,971.8,8.4,40.0,97,31.3,17.1,5.0,197.0,112.0,3.4,0,5,10,0,2026-05-13T18:42:59.920562+05:30
Bikaner,Rajasthan,28.0229,73.3119,39.5,18,0.0,974.3,8.35,28.8,108,141.1,29.0,1.9,206.0,99.0,1.7,0,5,10,0,2026-05-13T18:42:59.920568+05:30
Ajmer,Rajasthan,26.4499,74.6399,37.5,16,0.0,948.9,8.35,47.9,89,43.9,18.6,3.1,179.0,118.0,2.9,0,5,10,0,2026-05-13T18:42:59.920574+05:30
Gwalior,Madhya Pradesh,26.2183,78.1828,37.0,24,0.0,976.0,8.25,38.5,135,116.9,41.6,5.5,288.0,110.0,5.2,0,5,10,0,2026-05-13T18:42:59.920580+05:30
Indore,Madhya Pradesh,22.7196,75.8577,39.2,14,0.0,942.3,8.7,40.0,103,40.6,17.1,8.6,280.0,121.0,6.3,0,5,10,0,2026-05-13T18:42:59.920586+05:30
Bhopal,Madhya Pradesh,23.2599,77.4126,39.0,14,0.0,947.8,8.75,43.2,100,37.1,17.5,3.9,197.0,111.0,3.6,0,5,10,0,2026-05-13T18:42:59.920592+05:30
Jabalpur,Madhya Pradesh,23.1815,79.9864,38.5,17,0.0,954.7,8.9,37.1,117,68.2,27.5,8.1,201.0,113.0,5.0,0,5,10,0,2026-05-13T18:42:59.920598+05:30
Ujjain,Madhya Pradesh,23.1765,75.7885,39.5,15,0.0,947.7,8.65,36.7,97,33.1,16.2,2.2,214.0,122.0,3.6,0,5,10,0,2026-05-13T18:42:59.920605+05:30
Visakhapatnam,Andhra Pradesh,17.6868,83.2185,29.6,74,0.0,998.9,9.15,40.0,74,12.3,10.2,14.5,371.0,25.0,37.3,7,5,7,1,2026-05-13T18:42:59.920611+05:30
Vijayawada,Andhra Pradesh,16.5062,80.648,35.3,44,0.0,996.6,9.2,37.4,64,11.4,9.0,4.7,173.0,74.0,7.1,0,5,10,1,2026-05-13T18:42:59.920617+05:30
Guntur,Andhra Pradesh,16.3067,80.4365,31.9,60,0.0,997.9,9.25,36.4,79,27.2,16.7,4.3,151.0,99.0,6.2,0,5,7,1,2026-05-13T18:42:59.920623+05:30
Nellore,Andhra Pradesh,14.4426,79.9865,30.5,64,0.0,1000.1,9.15,38.5,30,7.5,4.7,2.1,130.0,48.0,1.5,3,5,4,1,2026-05-13T18:42:59.920629+05:30
Kurnool,Andhra Pradesh,15.8281,78.0373,36.5,31,0.0,971.3,9.2,33.8,80,31.9,18.0,4.1,237.0,116.0,3.6,0,5,10,1,2026-05-13T18:42:59.920636+05:30
Kakinada,Andhra Pradesh,16.9891,82.2475,29.6,74,0.0,1002.4,9.15,37.8,32,6.6,4.2,1.2,126.0,48.0,0.5,7,5,4,1,2026-05-13T18:42:59.920642+05:30
Tirupati,Andhra Pradesh,13.6288,79.4192,31.3,59,0.0,985.7,9.25,37.8,51,8.8,6.4,3.7,149.0,73.0,1.9,0,5,7,1,2026-05-13T18:42:59.920648+05:30
Warangal,Telangana,17.9689,79.5941,35.0,41,0.0,972.8,9.2,41.4,88,52.4,33.8,7.8,306.0,125.0,5.6,0,5,7,1,2026-05-13T18:42:59.920654+05:30
Nizamabad,Telangana,18.6725,78.0941,37.9,23,0.0,959.0,9.15,33.8,113,61.9,26.6,8.3,306.0,125.0,6.0,0,5,10,0,2026-05-13T18:42:59.920660+05:30
Mysore,Karnataka,12.2958,76.6396,29.9,52,0.0,924.1,9.25,31.0,140,35.5,25.2,20.2,264.0,127.0,5.2,4,5,7,1,2026-05-13T18:42:59.920666+05:30
Mangalore,Karnataka,12.9141,74.856,28.1,87,0.0,1002.5,7.65,37.4,79,34.6,18.6,4.7,221.0,76.0,2.1,7,5,4,1,2026-05-13T18:42:59.920672+05:30
Hubli-Dharwad,Karnataka,15.3647,75.124,28.7,66,0.0,936.2,8.75,42.5,106,22.8,16.3,8.7,211.0,103.0,2.8,7,5,7,1,2026-05-13T18:42:59.920678+05:30
Belgaum,Karnataka,15.8497,74.4977,27.7,70,0.0,921.8,9.15,45.0,74,23.4,14.1,5.8,188.0,88.0,1.9,7,5,7,1,2026-05-13T18:43:03.286830+05:30
Coimbatore,Tamil Nadu,11.0168,76.9558,28.5,69,0.0,957.0,9.2,39.6,108,25.4,18.8,6.8,251.0,117.0,3.8,7,5,7,1,2026-05-13T18:43:03.286853+05:30
Madurai,Tamil Nadu,9.9252,78.1198,31.4,61,0.0,987.6,8.65,21.6,112,31.5,24.9,22.5,307.0,102.0,6.1,3,5,7,1,2026-05-13T18:43:03.286863+05:30
Trichy,Tamil Nadu,10.7905,78.7047,31.5,60,0.0,993.7,9.0,33.1,113,36.2,31.4,21.2,291.0,107.0,10.8,0,5,7,1,2026-05-13T18:43:03.286870+05:30
Salem,Tamil Nadu,11.6643,78.146,32.9,43,0.0,971.3,9.2,28.8,167,39.7,29.3,15.3,296.0,139.0,11.1,0,5,7,1,2026-05-13T18:43:03.286877+05:30
Tirunelveli,Tamil Nadu,8.7139,77.7567,32.0,54,0.0,997.9,7.05,19.4,68,21.9,15.7,6.1,267.0,100.0,2.4,0,5,7,1,2026-05-13T18:43:03.286883+05:30
Vellore,Tamil Nadu,12.9165,79.1325,32.8,47,0.0,978.8,9.15,33.1,76,19.9,14.6,6.7,188.0,108.0,5.4,0,5,7,1,2026-05-13T18:43:03.286889+05:30
Erode,Tamil Nadu,11.341,77.7172,33.7,43,0.0,983.2,9.15,33.1,162,43.9,32.1,20.3,395.0,140.0,5.8,0,5,7,1,2026-05-13T18:43:03.286895+05:30
Kochi,Kerala,9.9312,76.2673,28.4,85,0.0,1004.3,8.6,32.8,79,28.5,20.4,10.5,221.0,77.0,3.9,7,5,4,1,2026-05-13T18:43:03.286903+05:30
Thiruvananthapuram,Kerala,8.5241,76.9366,27.2,90,0.0,1003.6,7.1,36.0,58,15.0,8.7,2.7,208.0,90.0,1.0,7,5,4,1,2026-05-13T18:43:03.286910+05:30
Kozhikode,Kerala,11.2588,75.7804,26.8,92,0.1,1003.5,8.55,39.6,65,32.1,16.8,1.6,262.0,93.0,1.4,10,5,4,1,2026-05-13T18:43:03.286917+05:30
Thrissur,Kerala,10.5276,76.2144,28.4,80,0.0,1002.6,8.7,35.3,73,24.0,17.1,8.7,287.0,78.0,2.8,7,5,4,1,2026-05-13T18:43:03.286924+05:30
Kannur,Kerala,11.8745,75.3704,26.1,97,0.1,1003.1,8.9,36.0,80,36.4,20.8,8.2,225.0,81.0,2.2,10,5,4,1,2026-05-13T18:43:03.286931+05:30
Patna,Bihar,25.5941,85.1376,30.1,69,0.0,994.4,8.75,30.2,172,82.4,68.5,12.0,413.0,159.0,17.6,3,5,7,1,2026-05-13T18:43:03.286937+05:30
Gaya,Bihar,24.7914,85.0002,32.3,56,0.0,987.3,8.85,28.1,185,90.1,74.7,10.8,401.0,161.0,17.6,0,5,7,1,2026-05-13T18:43:03.286943+05:30
Muzaffarpur,Bihar,26.1209,85.3647,29.4,68,0.0,994.8,8.75,33.8,157,84.1,70.8,16.9,410.0,134.0,18.7,7,5,7,1,2026-05-13T18:43:03.286949+05:30
Bhagalpur,Bihar,25.2425,87.0117,28.5,70,0.0,996.1,8.75,38.2,157,55.5,46.0,9.9,331.0,166.0,23.8,7,5,7,1,2026-05-13T18:43:03.286955+05:30
Ranchi,Jharkhand,23.3441,85.3096,26.8,65,0.0,933.1,9.25,35.3,114,49.0,33.5,8.1,272.0,118.0,7.6,7,5,7,1,2026-05-13T18:43:03.286961+05:30
Jamshedpur,Jharkhand,22.8046,86.2029,31.1,62,0.0,984.9,9.15,29.5,128,59.3,37.7,10.4,327.0,126.0,15.0,3,5,7,1,2026-05-13T18:43:03.286967+05:30
Dhanbad,Jharkhand,23.7957,86.4304,30.4,64,0.0,974.1,9.1,37.1,151,63.8,51.2,35.8,729.0,110.0,83.9,3,5,7,1,2026-05-13T18:43:03.286973+05:30
Bokaro,Jharkhand,23.6693,86.1511,30.4,63,0.0,977.7,9.1,29.9,151,96.2,58.2,30.3,999.0,107.0,72.3,3,5,7,1,2026-05-13T18:43:03.286979+05:30
Bhubaneswar,Odisha,20.2961,85.8245,29.0,76,0.0,998.1,9.0,41.0,40,6.8,5.6,5.2,178.0,41.0,2.5,7,5,7,1,2026-05-13T18:43:03.286985+05:30
Cuttack,Odisha,20.4625,85.8828,29.7,73,0.0,999.8,9.05,39.6,40,6.8,5.6,5.2,170.0,41.0,2.5,7,5,7,1,2026-05-13T18:43:03.286991+05:30
Rourkela,Odisha,22.2604,84.8536,28.8,72,0.0,979.3,9.05,46.1,120,46.3,36.9,13.3,360.0,121.0,12.6,7,5,7,1,2026-05-13T18:43:03.286997+05:30
Raipur,Chhattisgarh,21.2514,81.6296,37.4,27,0.0,968.2,9.05,38.5,151,61.5,43.1,19.5,330.0,131.0,36.3,0,5,10,0,2026-05-13T18:43:03.287003+05:30
Bhilai,Chhattisgarh,21.1938,81.3509,36.7,30,0.0,968.6,9.05,42.8,133,64.7,41.2,18.7,378.0,128.0,34.2,0,5,10,1,2026-05-13T18:43:03.287009+05:30
Guwahati,Assam,26.1158,91.7086,22.6,96,0.0,998.7,7.4,22.3,116,41.7,39.6,12.5,422.0,73.0,2.7,3,5,7,1,2026-05-13T18:43:03.287016+05:30
Agartala,Tripura,23.8315,91.2868,26.8,89,0.0,1002.2,8.75,24.8,100,27.0,22.0,16.2,300.0,64.0,3.1,7,5,4,1,2026-05-13T18:43:03.287022+05:30
Shillong,Meghalaya,25.5788,91.8933,15.8,90,0.0,852.8,8.05,23.4,73,13.4,11.7,8.9,325.0,87.0,2.1,3,10,7,0,2026-05-13T18:43:03.287028+05:30
Imphal,Manipur,24.817,93.9368,22.6,80,0.0,919.7,9.3,29.5,91,19.4,16.9,10.7,471.0,87.0,3.5,3,5,7,1,2026-05-13T18:43:03.287034+05:30
Aizawl,Mizoram,23.7271,92.7176,21.3,79,0.0,889.1,9.1,24.1,69,19.2,14.8,7.6,256.0,84.0,2.3,3,5,7,1,2026-05-13T18:43:03.287040+05:30
Kohima,Nagaland,25.6701,94.1077,17.3,97,0.1,852.5,8.85,28.8,71,17.6,15.9,10.7,375.0,73.0,1.7,6,10,7,1,2026-05-13T18:43:03.287046+05:30
Gangtok,Sikkim,27.3314,88.6138,14.9,96,0.3,833.7,8.95,35.3,104,11.1,10.1,7.2,388.0,127.0,1.9,6,10,7,0,2026-05-13T18:43:03.287052+05:30
Siliguri,West Bengal,26.7271,88.3953,22.8,93,0.0,989.6,8.65,33.8,117,29.4,27.0,8.7,613.0,122.0,3.6,3,5,7,1,2026-05-13T18:43:06.658090+05:30
Durgapur,West Bengal,23.5204,87.3119,27.4,81,0.0,990.3,9.0,34.6,113,49.2,42.7,30.7,568.0,86.0,46.4,7,5,7,1,2026-05-13T18:43:06.658113+05:30
Asansol,West Bengal,23.6739,86.9524,27.7,80,0.0,988.5,9.05,33.1,119,46.0,38.6,29.4,471.0,100.0,47.7,7,5,7,1,2026-05-13T18:43:06.658123+05:30
Pondicherry,Puducherry,11.9139,79.8145,29.5,82,0.0,1002.9,9.0,32.4,43,12.9,9.0,3.3,185.0,62.0,3.5,7,5,4,1,2026-05-13T18:43:06.658130+05:30
Port Blair,Andaman and Nicobar Islands,11.6234,92.7265,25.5,97,0.2,1004.6,3.1,35.6,19,4.5,3.0,0.7,137.0,41.0,0.2,10,5,0,1,2026-05-13T18:43:06.658137+05:30
Haridwar,Uttarakhand,29.9457,78.1642,30.7,53,0.0,968.1,7.5,29.5,162,95.5,55.3,7.1,407.0,148.0,12.4,0,5,7,1,2026-05-13T18:43:06.658144+05:30
Rishikesh,Uttarakhand,30.0869,78.2676,29.4,58,0.0,960.9,7.6,23.8,152,94.5,45.6,4.0,370.0,152.0,10.2,4,5,7,1,2026-05-13T18:43:06.658151+05:30
Nainital,Uttarakhand,29.3919,79.4542,17.6,74,0.0,802.4,8.45,45.0,150,151.8,58.9,6.7,297.0,154.0,16.5,3,5,7,0,2026-05-13T18:43:06.658157+05:30
Mussoorie,Uttarakhand,30.4599,78.0664,17.5,64,0.0,800.3,8.0,52.2,145,78.2,45.1,7.8,340.0,156.0,10.7,3,5,7,0,2026-05-13T18:43:06.658164+05:30
Dharamshala,Himachal Pradesh,32.219,76.3234,21.6,58,0.0,866.2,8.35,45.0,91,25.1,12.6,4.8,263.0,114.0,1.2,0,5,7,0,2026-05-13T18:43:06.658170+05:30
Dalhousie,Himachal Pradesh,32.5387,75.971,17.0,53,0.0,802.4,8.6,33.1,104,40.5,19.3,11.7,372.0,125.0,2.1,0,5,7,0,2026-05-13T18:43:06.658177+05:30
Patiala,Punjab,30.3398,76.3869,33.7,32,0.0,972.0,7.6,38.2,189,269.2,76.6,8.7,395.0,145.0,14.2,0,5,7,0,2026-05-13T18:43:06.658184+05:30
Bhatinda,Punjab,30.211,74.9455,37.8,17,0.0,976.7,8.25,38.9,259,197.4,65.7,5.6,336.0,131.0,11.3,0,5,10,0,2026-05-13T18:43:06.658190+05:30
Rohtak,Haryana,28.8955,76.6066,35.0,34,0.0,974.8,7.7,33.5,355,457.3,110.4,12.0,394.0,159.0,16.7,0,5,7,1,2026-05-13T18:43:06.658197+05:30
Panipat,Haryana,29.3909,76.9635,33.0,43,0.0,974.4,7.55,34.2,492,868.0,161.6,10.3,411.0,187.0,30.5,0,5,7,1,2026-05-13T18:43:06.658203+05:30
Mathura,Uttar Pradesh,27.4924,77.6737,35.8,40,0.0,979.4,7.95,28.8,496,343.7,80.1,12.0,343.0,116.0,7.5,0,5,10,1,2026-05-13T18:43:06.658209+05:30
Vrindavan,Uttar Pradesh,27.5823,77.7027,35.8,37,0.0,979.8,7.95,29.2,496,343.7,80.1,12.0,337.0,116.0,7.5,0,5,10,1,2026-05-13T18:43:06.658215+05:30
Ayodhya,Uttar Pradesh,26.7922,82.1998,32.7,60,0.0,987.9,8.3,28.8,159,147.6,68.7,9.1,381.0,132.0,10.2,0,5,7,1,2026-05-13T18:43:06.658221+05:30
Ratlam,Madhya Pradesh,23.3315,75.0367,36.7,22,0.0,949.3,8.55,40.0,95,28.8,15.4,1.3,181.0,124.0,3.4,0,5,10,0,2026-05-13T18:43:06.658227+05:30
Sagar,Madhya Pradesh,23.8388,78.7378,37.2,16,0.0,944.2,8.8,39.6,87,57.5,19.7,4.3,203.0,110.0,2.5,0,5,10,0,2026-05-13T18:43:06.658233+05:30
Satna,Madhya Pradesh,24.6005,80.8322,37.2,21,0.0,964.6,8.75,46.8,114,51.9,30.6,5.2,249.0,118.0,5.4,0,5,10,0,2026-05-13T18:43:06.658240+05:30
Akola,Maharashtra,20.7002,77.0082,41.0,18,0.0,967.5,8.95,33.1,126,66.4,29.0,9.7,263.0,130.0,9.1,0,5,10,0,2026-05-13T18:43:06.658246+05:30
Amravati,Maharashtra,20.9374,77.7796,39.5,19,0.0,960.8,8.95,36.7,129,75.7,33.3,7.9,240.0,130.0,9.1,0,5,10,0,2026-05-13T18:43:06.658254+05:30
Latur,Maharashtra,18.4088,76.5604,36.2,25,0.0,935.2,8.95,34.9,123,80.8,38.2,7.4,231.0,134.0,7.4,0,5,10,0,2026-05-13T18:43:06.658261+05:30
Nanded,Maharashtra,19.1383,77.3091,38.0,24,0.0,962.4,9.05,30.6,133,74.5,35.3,11.7,309.0,130.0,7.6,0,5,10,0,2026-05-13T18:43:06.658267+05:30
Gulbarga,Karnataka,17.3297,76.8343,35.5,32,0.0,953.3,9.1,28.1,137,51.8,27.3,10.4,241.0,139.0,8.1,0,5,10,1,2026-05-13T18:43:06.658274+05:30
Bidar,Karnataka,17.9104,77.5199,33.7,38,0.0,930.8,9.15,36.0,112,47.6,24.6,9.7,291.0,124.0,5.9,0,5,7,1,2026-05-13T18:43:06.658280+05:30
Hospet,Karnataka,15.2689,76.3909,32.5,47,0.0,950.6,9.2,28.8,122,56.8,35.2,18.9,322.0,138.0,14.5,0,5,7,1,2026-05-13T18:43:06.658286+05:30
Tirupur,Tamil Nadu,11.1085,77.3411,30.9,54,0.0,970.0,9.25,36.0,150,38.4,26.3,14.9,259.0,135.0,5.2,0,5,7,1,2026-05-13T18:43:06.658292+05:30
Alappuzha,Kerala,9.4981,76.3388,29.0,83,0.0,1004.2,8.4,34.2,73,26.9,17.2,8.9,131.0,82.0,3.2,7,5,4,1,2026-05-13T18:43:06.658298+05:30
Munnar,Kerala,10.0889,77.0595,18.4,100,0.0,853.5,9.45,33.5,69,23.7,19.0,9.9,234.0,84.0,2.7,3,10,7,1,2026-05-13T18:43:06.658304+05:30
Silchar,Assam,24.8333,92.7789,26.6,82,0.0,1001.2,8.9,24.5,117,29.5,26.4,6.8,374.0,114.0,5.6,7,5,4,1,2026-05-13T18:43:06.658310+05:30
Dibrugarh,Assam,27.4728,94.912,23.9,96,0.1,993.2,8.7,23.8,104,32.6,29.9,10.9,403.0,85.0,2.6,6,5,7,1,2026-05-13T18:43:06.658316+05:30
