city,state,latitude,longitude,temp,humidity,rain,pressure,uv_index,wind_gusts,aqi,pm10,pm2_5,mosquito_risk,arthritis_risk,migraine_risk,frizz_risk,updated_at
Delhi,Delhi,28.6139,77.209,25.0,50,0.0,989.5,5.7,25.2,161,109.2,43.3,4,5,3,0,2026-03-21T13:05:20.702071+05:30
Mumbai,Maharashtra,19.076,72.8777,27.9,68,0.0,1010.7,7.85,29.5,77,46.0,25.1,7,0,4,1,2026-03-21T13:05:20.702109+05:30
Bangalore,Karnataka,12.9716,77.5946,30.4,37,0.0,913.5,8.55,37.1,90,31.8,24.0,0,5,7,0,2026-03-21T13:05:20.702124+05:30
Hyderabad,Telangana,17.385,78.4867,33.3,29,0.0,955.0,8.85,24.1,82,25.8,16.0,0,5,7,0,2026-03-21T13:05:20.702135+05:30
Chennai,Tamil Nadu,13.0827,80.2707,32.8,56,0.0,1008.8,9.15,34.6,39,13.0,8.8,0,0,4,1,2026-03-21T13:05:20.702143+05:30
Kolkata,West Bengal,22.5726,88.3639,26.4,71,0.0,1009.5,7.5,25.9,62,11.6,10.9,7,0,4,1,2026-03-21T13:05:20.702151+05:30
Pune,Maharashtra,18.5204,73.8567,32.7,25,0.0,950.7,8.4,28.8,89,38.9,15.0,0,5,7,0,2026-03-21T13:05:20.702163+05:30
Ahmedabad,Gujarat,23.0225,72.5714,32.2,28,0.0,1006.4,7.7,14.0,67,28.1,12.4,0,5,4,0,2026-03-21T13:05:20.702171+05:30
Jaipur,Rajasthan,26.9124,75.7873,26.5,48,0.0,965.6,6.5,24.1,71,74.5,19.4,4,5,7,0,2026-03-21T13:05:20.702179+05:30
Lucknow,Uttar Pradesh,26.8467,80.9462,22.8,67,0.0,999.8,6.25,24.5,118,46.8,24.0,3,5,7,1,2026-03-21T13:05:20.702186+05:30
Kanpur,Uttar Pradesh,26.4499,80.3319,24.4,61,0.0,997.9,6.7,23.8,114,124.8,27.5,3,5,7,1,2026-03-21T13:05:20.702193+05:30
Chandigarh,Chandigarh,30.7333,76.7794,24.0,53,0.0,974.9,6.35,28.8,76,25.1,15.6,0,5,7,0,2026-03-21T13:05:20.702200+05:30
Srinagar,Jammu and Kashmir,34.0837,74.7973,12.5,60,0.0,843.9,6.55,13.7,64,18.8,16.2,0,5,7,0,2026-03-21T13:05:20.702206+05:30
Jammu,Jammu and Kashmir,32.7266,74.857,22.3,60,0.0,979.3,6.8,18.7,86,24.2,13.7,0,5,7,0,2026-03-21T13:05:20.702213+05:30
Amritsar,Punjab,31.634,74.8723,24.1,53,0.0,987.6,6.2,13.7,101,56.7,35.6,0,5,7,0,2026-03-21T13:05:20.702219+05:30
Ludhiana,Punjab,30.901,75.8573,23.9,54,0.0,985.5,5.75,22.3,131,40.7,24.6,0,5,3,0,2026-03-21T13:05:20.702226+05:30
Jalandhar,Punjab,31.326,75.5762,23.3,56,0.0,986.7,6.1,18.4,115,51.6,25.4,0,5,7,0,2026-03-21T13:05:20.702234+05:30
Dehradun,Uttarakhand,30.6284,78.0322,15.0,62,0.0,832.3,6.7,22.3,49,6.4,2.7,3,5,7,0,2026-03-21T13:05:20.702241+05:30
Shimla,Himachal Pradesh,31.1048,77.1734,14.0,57,0.0,786.6,6.35,32.0,47,10.3,4.9,0,5,7,0,2026-03-21T13:05:20.702248+05:30
Manali,Himachal Pradesh,32.2396,77.1887,15.3,38,0.0,820.1,8.55,22.0,51,9.5,4.6,0,5,7,0,2026-03-21T13:05:20.702255+05:30
Gurgaon,Haryana,28.4595,77.0266,24.7,57,0.0,988.1,5.85,21.6,166,471.2,77.8,0,5,3,0,2026-03-21T13:05:20.702261+05:30
Noida,Uttar Pradesh,28.5355,77.391,25.3,52,0.0,990.9,6.0,23.8,166,471.2,77.8,4,5,3,0,2026-03-21T13:05:20.702267+05:30
Ghaziabad,Uttar Pradesh,28.6692,77.4538,24.3,57,0.0,989.1,5.7,22.7,161,111.5,39.8,0,5,3,0,2026-03-21T13:05:20.702273+05:30
Faridabad,Haryana,28.4089,77.3178,25.0,54,0.0,990.2,6.3,23.8,166,471.2,77.8,4,5,7,0,2026-03-21T13:05:20.702282+05:30
Meerut,Uttar Pradesh,28.9845,77.7064,24.2,61,0.0,987.9,6.05,23.0,161,111.5,39.8,3,5,7,1,2026-03-21T13:05:20.702288+05:30
Agra,Uttar Pradesh,27.1767,78.0081,27.4,43,0.0,994.0,6.8,29.5,152,386.5,64.0,4,5,7,0,2026-03-21T13:05:20.702295+05:30
Varanasi,Uttar Pradesh,25.3176,82.9739,23.2,69,0.0,1003.3,5.1,25.9,97,55.4,26.4,3,5,0,1,2026-03-21T13:05:20.702304+05:30
Prayagraj,Uttar Pradesh,25.4358,81.8463,23.4,72,0.0,1002.0,7.35,26.3,98,65.4,27.0,3,5,4,1,2026-03-21T13:05:20.702311+05:30
Gorakhpur,Uttar Pradesh,26.7606,83.3732,21.7,78,0.0,1003.4,5.65,21.2,118,56.8,32.0,3,5,0,1,2026-03-21T13:05:20.702317+05:30
Bareilly,Uttar Pradesh,28.367,79.4304,24.2,58,0.0,992.9,6.55,19.8,151,39.1,26.8,0,5,7,0,2026-03-21T13:05:20.702324+05:30
Aligarh,Uttar Pradesh,27.8974,78.088,24.7,60,0.0,992.1,6.4,24.8,161,242.1,53.3,0,5,7,1,2026-03-21T13:05:20.702330+05:30
Moradabad,Uttar Pradesh,28.8386,78.7733,24.1,55,0.0,989.9,6.45,19.4,153,37.0,24.8,0,5,7,0,2026-03-21T13:05:20.702336+05:30
Saharanpur,Uttar Pradesh,29.9637,77.546,24.1,54,0.0,981.7,6.1,27.4,157,35.5,25.0,0,5,7,0,2026-03-21T13:05:20.702341+05:30
Jhansi,Uttar Pradesh,25.4484,78.5685,27.1,42,0.0,984.1,7.4,26.3,117,42.1,19.8,4,5,7,0,2026-03-21T13:05:24.031609+05:30
Surat,Gujarat,21.1702,72.8311,32.4,32,0.0,1010.2,7.55,27.4,112,27.7,21.8,0,0,4,0,2026-03-21T13:05:24.031642+05:30
Vadodara,Gujarat,22.3072,73.1812,34.3,26,0.0,1008.1,7.35,14.0,70,20.1,9.1,0,0,4,0,2026-03-21T13:05:24.031654+05:30
Rajkot,Gujarat,22.3039,70.8022,31.4,38,0.0,998.3,7.0,22.7,60,21.6,7.8,0,5,7,0,2026-03-21T13:05:24.031662+05:30
Thane,Maharashtra,19.2183,72.9781,33.9,33,0.0,1010.0,7.85,42.8,77,46.0,25.1,0,0,4,0,2026-03-21T13:05:24.031671+05:30
Nagpur,Maharashtra,21.1458,79.0882,31.0,32,0.0,976.9,8.3,24.8,68,40.0,19.0,0,5,7,0,2026-03-21T13:05:24.031680+05:30
Nashik,Maharashtra,19.9975,73.7898,30.0,31,0.0,948.4,8.05,24.1,64,13.9,7.0,4,5,7,0,2026-03-21T13:05:24.031689+05:30
Aurangabad,Maharashtra,19.8762,75.3433,31.5,27,0.0,946.9,8.6,24.5,61,15.2,9.4,0,5,7,0,2026-03-21T13:05:24.031697+05:30
Solapur,Maharashtra,17.6599,75.9064,34.0,27,0.0,959.5,8.75,27.7,66,33.9,16.7,0,5,7,0,2026-03-21T13:05:24.031705+05:30
Kolhapur,Maharashtra,16.705,74.2433,31.5,30,0.0,950.4,8.85,28.1,79,46.0,16.5,0,5,7,0,2026-03-21T13:05:24.031713+05:30
Goa,Goa,15.2993,74.124,32.2,44,0.0,999.9,8.85,35.6,72,24.3,15.9,0,5,7,1,2026-03-21T13:05:24.031720+05:30
Jodhpur,Rajasthan,26.2389,73.0243,29.4,41,0.0,988.3,6.65,20.5,68,80.1,16.3,4,5,7,0,2026-03-21T13:05:24.031728+05:30
Udaipur,Rajasthan,24.5854,73.7125,28.0,31,0.0,951.0,6.9,11.9,52,35.4,10.4,4,5,7,0,2026-03-21T13:05:24.031736+05:30
Kota,Rajasthan,25.2138,75.8648,30.3,33,0.0,984.3,7.5,19.1,82,30.5,14.7,0,5,7,0,2026-03-21T13:05:24.031743+05:30
Bikaner,Rajasthan,28.0229,73.3119,28.9,40,0.0,987.0,6.25,23.4,56,101.3,18.9,4,5,7,0,2026-03-21T13:05:24.031751+05:30
Ajmer,Rajasthan,26.4499,74.6399,27.6,36,0.0,959.7,7.25,21.6,66,37.0,12.5,4,5,7,0,2026-03-21T13:05:24.031759+05:30
Gwalior,Madhya Pradesh,26.2183,78.1828,27.0,42,0.0,989.7,7.1,27.0,85,40.6,19.4,4,5,7,0,2026-03-21T13:05:24.031767+05:30
Indore,Madhya Pradesh,22.7196,75.8577,29.2,32,0.0,952.5,7.95,22.7,65,19.4,10.8,4,5,7,0,2026-03-21T13:05:24.031775+05:30
Bhopal,Madhya Pradesh,23.2599,77.4126,29.4,28,0.0,958.5,7.9,25.6,71,23.9,10.2,4,5,7,0,2026-03-21T13:05:24.031782+05:30
Jabalpur,Madhya Pradesh,23.1815,79.9864,28.1,32,0.0,965.9,8.0,36.0,65,25.7,13.1,4,5,7,0,2026-03-21T13:05:24.031790+05:30
Ujjain,Madhya Pradesh,23.1765,75.7885,28.7,38,0.0,958.4,7.65,19.4,65,22.6,11.9,4,5,7,0,2026-03-21T13:05:24.031799+05:30
Visakhapatnam,Andhra Pradesh,17.6868,83.2185,32.5,49,0.0,1005.9,8.8,33.1,75,31.2,25.3,0,5,4,1,2026-03-21T13:05:24.031807+05:30
Vijayawada,Andhra Pradesh,16.5062,80.648,33.1,50,0.0,1004.7,8.85,32.4,58,23.1,15.0,0,5,4,1,2026-03-21T13:05:24.031815+05:30
Guntur,Andhra Pradesh,16.3067,80.4365,33.9,47,0.0,1005.2,8.85,23.8,53,21.7,12.8,0,5,4,1,2026-03-21T13:05:24.031822+05:30
Nellore,Andhra Pradesh,14.4426,79.9865,35.7,43,0.0,1006.6,9.05,37.8,36,21.3,15.5,0,5,7,1,2026-03-21T13:05:24.031831+05:30
Kurnool,Andhra Pradesh,15.8281,78.0373,36.3,27,0.0,978.0,8.9,18.7,71,22.7,16.3,0,5,10,0,2026-03-21T13:05:24.031839+05:30
Kakinada,Andhra Pradesh,16.9891,82.2475,33.2,52,0.0,1009.5,8.85,23.8,46,13.9,10.0,0,0,4,1,2026-03-21T13:05:24.031846+05:30
Tirupati,Andhra Pradesh,13.6288,79.4192,33.3,46,0.0,992.9,9.15,26.3,70,20.5,16.4,0,5,7,1,2026-03-21T13:05:24.031854+05:30
Warangal,Telangana,17.9689,79.5941,31.9,49,0.0,981.4,8.65,22.0,116,28.9,19.7,0,5,7,1,2026-03-21T13:05:24.031861+05:30
Nizamabad,Telangana,18.6725,78.0941,32.7,33,0.0,967.5,8.6,34.9,101,35.4,23.0,0,5,7,0,2026-03-21T13:05:24.031868+05:30
Mysore,Karnataka,12.2958,76.6396,32.1,35,0.0,930.0,9.4,40.3,81,25.9,19.4,0,5,7,0,2026-03-21T13:05:24.031875+05:30
Mangalore,Karnataka,12.9141,74.856,28.5,79,0.0,1007.9,9.05,30.2,66,27.9,18.0,7,5,4,1,2026-03-21T13:05:24.031883+05:30
Hubli-Dharwad,Karnataka,15.3647,75.124,32.8,28,0.0,942.9,9.05,28.8,64,23.9,12.8,0,5,7,0,2026-03-21T13:05:24.031891+05:30
Belgaum,Karnataka,15.8497,74.4977,31.3,27,0.0,928.2,9.1,36.7,69,28.1,13.6,0,5,7,0,2026-03-21T13:05:27.361390+05:30
Coimbatore,Tamil Nadu,11.0168,76.9558,33.5,40,0.0,962.9,9.35,43.6,75,23.7,16.9,0,5,7,1,2026-03-21T13:05:27.361419+05:30
Madurai,Tamil Nadu,9.9252,78.1198,34.9,40,0.0,994.0,9.35,38.5,71,18.7,13.4,0,5,7,1,2026-03-21T13:05:27.361428+05:30
Trichy,Tamil Nadu,10.7905,78.7047,34.7,43,0.0,1000.6,9.15,27.4,62,15.8,12.8,0,5,4,1,2026-03-21T13:05:27.361436+05:30
Salem,Tamil Nadu,11.6643,78.146,34.3,40,0.0,978.2,9.3,26.6,81,24.6,19.3,0,5,7,1,2026-03-21T13:05:27.361442+05:30
Tirunelveli,Tamil Nadu,8.7139,77.7567,36.1,36,0.0,1003.7,9.3,46.8,95,25.6,21.2,0,5,7,1,2026-03-21T13:05:27.361449+05:30
Vellore,Tamil Nadu,12.9165,79.1325,33.3,45,0.0,985.9,9.2,30.2,100,28.1,24.4,0,5,7,1,2026-03-21T13:05:27.361456+05:30
Erode,Tamil Nadu,11.341,77.7172,35.2,42,0.0,989.7,9.3,27.0,60,18.3,13.7,0,5,10,1,2026-03-21T13:05:27.361463+05:30
Kochi,Kerala,9.9312,76.2673,29.1,71,0.0,1009.2,9.15,31.7,76,19.0,14.9,7,0,4,1,2026-03-21T13:05:27.361469+05:30
Thiruvananthapuram,Kerala,8.5241,76.9366,28.9,75,0.0,1008.6,8.3,24.8,68,26.4,20.7,7,0,4,1,2026-03-21T13:05:27.361476+05:30
Kozhikode,Kerala,11.2588,75.7804,30.2,69,0.0,1008.5,9.05,29.9,59,24.4,18.0,3,0,4,1,2026-03-21T13:05:27.361482+05:30
Thrissur,Kerala,10.5276,76.2144,33.5,52,0.0,1007.6,9.15,37.4,74,19.0,14.4,0,5,4,1,2026-03-21T13:05:27.361489+05:30
Kannur,Kerala,11.8745,75.3704,31.7,61,0.0,1008.2,9.1,33.8,66,23.5,17.2,3,0,4,1,2026-03-21T13:05:27.361496+05:30
Patna,Bihar,25.5941,85.1376,23.2,73,0.0,1006.0,6.7,24.5,149,54.0,38.8,3,5,4,1,2026-03-21T13:05:27.361502+05:30
Gaya,Bihar,24.7914,85.0002,23.4,70,0.0,998.6,7.7,26.6,119,49.4,33.3,3,5,7,1,2026-03-21T13:05:27.361509+05:30
Muzaffarpur,Bihar,26.1209,85.3647,21.1,82,0.0,1006.4,3.65,23.8,150,47.8,36.8,3,5,0,1,2026-03-21T13:05:27.361515+05:30
Bhagalpur,Bihar,25.2425,87.0117,24.9,66,0.0,1005.9,5.85,24.5,132,45.3,40.0,3,5,0,1,2026-03-21T13:05:27.361521+05:30
Ranchi,Jharkhand,23.3441,85.3096,26.4,41,0.0,939.7,8.35,39.6,95,36.2,20.5,4,5,7,0,2026-03-21T13:05:27.361528+05:30
Jamshedpur,Jharkhand,22.8046,86.2029,30.2,45,0.0,993.2,8.15,35.3,148,49.9,44.5,0,5,7,1,2026-03-21T13:05:27.361535+05:30
Dhanbad,Jharkhand,23.7957,86.4304,26.9,55,0.0,982.9,7.6,33.8,151,40.4,35.9,4,5,7,1,2026-03-21T13:05:27.361541+05:30
Bokaro,Jharkhand,23.6693,86.1511,27.2,56,0.0,986.7,5.8,37.8,136,45.1,38.9,4,5,3,1,2026-03-21T13:05:27.361548+05:30
Bhubaneswar,Odisha,20.2961,85.8245,32.2,45,0.0,1004.6,8.55,26.6,73,55.2,45.4,0,5,4,1,2026-03-21T13:05:27.361554+05:30
Cuttack,Odisha,20.4625,85.8828,32.2,44,0.0,1006.6,8.6,22.7,73,55.2,45.4,0,5,4,1,2026-03-21T13:05:27.361561+05:30
Rourkela,Odisha,22.2604,84.8536,31.1,40,0.0,987.3,8.15,31.7,107,49.7,32.6,0,5,7,0,2026-03-21T13:05:27.361567+05:30
Raipur,Chhattisgarh,21.2514,81.6296,31.4,34,0.0,977.7,8.35,28.1,126,51.9,23.9,0,5,7,0,2026-03-21T13:05:27.361596+05:30
Bhilai,Chhattisgarh,21.1938,81.3509,31.7,33,0.0,978.1,8.35,28.8,115,48.9,20.4,0,5,7,0,2026-03-21T13:05:27.361605+05:30
Guwahati,Assam,26.1158,91.7086,24.0,79,0.1,1006.5,2.65,17.3,94,46.0,32.2,6,5,0,1,2026-03-21T13:05:27.361612+05:30
Agartala,Tripura,23.8315,91.2868,26.6,63,0.0,1009.4,5.1,21.6,115,52.4,39.1,7,0,0,1,2026-03-21T13:05:27.361619+05:30
Shillong,Meghalaya,25.5788,91.8933,15.3,64,0.0,858.1,3.35,21.2,77,41.6,26.5,3,5,3,0,2026-03-21T13:05:27.361625+05:30
Imphal,Manipur,24.817,93.9368,23.5,44,0.0,925.3,7.45,25.2,86,36.8,22.3,0,5,7,0,2026-03-21T13:05:27.361632+05:30
Aizawl,Mizoram,23.7271,92.7176,23.8,46,0.0,895.3,5.8,28.1,113,68.2,50.4,0,5,3,0,2026-03-21T13:05:27.361637+05:30
Kohima,Nagaland,25.6701,94.1077,17.6,80,0.0,857.4,7.0,60.8,75,44.0,25.9,3,5,7,0,2026-03-21T13:05:27.361643+05:30
Gangtok,Sikkim,27.3314,88.6138,12.1,86,0.3,838.5,1.95,16.6,105,26.5,20.3,6,10,3,0,2026-03-21T13:05:27.361650+05:30
Siliguri,West Bengal,26.7271,88.3953,18.5,85,0.2,999.6,0.45,29.2,82,47.6,34.6,6,10,3,0,2026-03-21T13:05:30.694797+05:30
Durgapur,West Bengal,23.5204,87.3119,27.2,57,0.0,998.4,7.65,24.5,150,43.7,40.2,4,5,7,1,2026-03-21T13:05:30.694825+05:30
Asansol,West Bengal,23.6739,86.9524,27.2,57,0.0,997.0,6.2,27.4,151,38.8,35.0,4,5,7,1,2026-03-21T13:05:30.694834+05:30
Pondicherry,Puducherry,11.9139,79.8145,32.9,57,0.0,1009.8,9.15,28.8,43,11.6,7.3,0,0,4,1,2026-03-21T13:05:30.694842+05:30
Port Blair,Andaman and Nicobar Islands,11.6234,92.7265,28.5,77,0.0,1008.6,9.1,15.5,54,17.7,13.9,7,0,4,1,2026-03-21T13:05:30.694849+05:30
Haridwar,Uttarakhand,29.9457,78.1642,24.9,48,0.0,980.1,6.15,22.7,98,23.6,16.1,0,5,7,0,2026-03-21T13:05:30.694856+05:30
Rishikesh,Uttarakhand,30.0869,78.2676,24.0,53,0.0,972.4,6.15,22.0,61,12.6,7.7,0,5,7,0,2026-03-21T13:05:30.694862+05:30
Nainital,Uttarakhand,29.3919,79.4542,13.6,89,0.0,807.4,6.9,34.2,69,19.3,12.3,3,10,7,0,2026-03-21T13:05:30.694870+05:30
Mussoorie,Uttarakhand,30.4599,78.0664,15.4,60,0.0,805.1,6.55,27.4,55,13.1,8.1,0,5,7,0,2026-03-21T13:05:30.694876+05:30
Dharamshala,Himachal Pradesh,32.219,76.3234,16.5,72,0.0,871.8,6.2,18.0,48,12.3,5.5,3,5,7,0,2026-03-21T13:05:30.694883+05:30
Dalhousie,Himachal Pradesh,32.5387,75.971,14.7,57,0.0,805.8,6.35,19.8,72,18.6,9.8,0,5,7,0,2026-03-21T13:05:30.694890+05:30
Patiala,Punjab,30.3398,76.3869,23.6,63,0.0,984.8,5.65,22.3,147,45.2,31.5,3,5,3,1,2026-03-21T13:05:30.694896+05:30
Bhatinda,Punjab,30.211,74.9455,24.9,55,0.0,990.4,5.5,18.0,141,64.0,41.8,0,5,3,0,2026-03-21T13:05:30.694902+05:30
Rohtak,Haryana,28.8955,76.6066,24.7,58,0.0,988.4,5.75,23.0,161,122.9,39.6,0,5,3,0,2026-03-21T13:05:30.694908+05:30
Panipat,Haryana,29.3909,76.9635,24.1,61,0.0,986.9,6.15,25.6,159,84.8,38.2,3,5,7,1,2026-03-21T13:05:30.694914+05:30
Mathura,Uttar Pradesh,27.4924,77.6737,26.4,48,0.0,993.4,6.7,25.6,150,288.7,54.4,4,5,7,0,2026-03-21T13:05:30.694921+05:30
Vrindavan,Uttar Pradesh,27.5823,77.7027,26.0,51,0.0,993.8,6.65,26.6,150,288.7,54.4,4,5,7,0,2026-03-21T13:05:30.694928+05:30
Ayodhya,Uttar Pradesh,26.7922,82.1998,22.8,70,0.0,1001.6,6.9,22.0,109,64.5,31.8,3,5,4,1,2026-03-21T13:05:30.694934+05:30
Ratlam,Madhya Pradesh,23.3315,75.0367,29.5,35,0.0,959.0,7.35,21.2,60,21.8,10.8,4,5,7,0,2026-03-21T13:05:30.694940+05:30
Sagar,Madhya Pradesh,23.8388,78.7378,27.9,33,0.0,955.1,7.9,27.7,93,29.8,12.8,4,5,7,0,2026-03-21T13:05:30.694946+05:30
Satna,Madhya Pradesh,24.6005,80.8322,24.4,54,0.0,976.5,7.8,32.8,78,30.4,13.7,0,5,7,0,2026-03-21T13:05:30.694952+05:30
Akola,Maharashtra,20.7002,77.0082,32.5,30,0.0,978.7,8.25,22.3,63,25.1,13.8,0,5,7,0,2026-03-21T13:05:30.694959+05:30
Amravati,Maharashtra,20.9374,77.7796,32.4,28,0.0,971.0,8.3,25.2,65,25.8,12.7,0,5,7,0,2026-03-21T13:05:30.694966+05:30
Latur,Maharashtra,18.4088,76.5604,31.5,31,0.0,942.6,8.65,34.2,73,38.4,16.8,0,5,7,0,2026-03-21T13:05:30.694973+05:30
Nanded,Maharashtra,19.1383,77.3091,34.2,26,0.0,971.4,8.5,28.1,66,42.8,14.6,0,5,7,0,2026-03-21T13:05:30.694979+05:30
Gulbarga,Karnataka,17.3297,76.8343,34.0,27,0.0,960.7,8.75,42.1,69,29.0,19.7,0,5,7,0,2026-03-21T13:05:30.694985+05:30
Bidar,Karnataka,17.9104,77.5199,32.0,29,0.0,937.9,8.75,40.3,85,31.0,20.1,0,5,7,0,2026-03-21T13:05:30.694991+05:30
Hospet,Karnataka,15.2689,76.3909,33.0,34,0.0,957.7,9.0,19.4,78,31.1,18.8,0,5,7,0,2026-03-21T13:05:30.694997+05:30
Tirupur,Tamil Nadu,11.1085,77.3411,35.2,37,0.0,976.3,9.4,33.1,78,21.8,16.4,0,5,10,1,2026-03-21T13:05:30.695002+05:30
Alappuzha,Kerala,9.4981,76.3388,29.2,71,0.0,1009.3,9.1,28.1,79,24.5,19.1,7,0,4,1,2026-03-21T13:05:30.695008+05:30
Munnar,Kerala,10.0889,77.0595,29.9,43,0.0,860.1,9.65,29.2,65,17.7,12.5,4,5,7,0,2026-03-21T13:05:30.695015+05:30
Silchar,Assam,24.8333,92.7789,28.0,50,0.0,1007.7,6.8,19.8,88,45.3,28.8,4,5,4,1,2026-03-21T13:05:30.695021+05:30
Dibrugarh,Assam,27.4728,94.912,26.3,66,0.0,999.1,6.3,16.2,94,47.7,28.8,7,5,7,1,2026-03-21T13:05:30.695028+05:30
