city,state,latitude,longitude,temp,humidity,rain,pressure,uv_index,wind_gusts,aqi,pm10,pm2_5,no2,co,o3,so2,mosquito_risk,arthritis_risk,migraine_risk,frizz_risk,updated_at
Delhi,Delhi,28.6139,77.209,32.7,30,0.0,976.2,7.75,41.0,213,644.5,115.5,15.3,188.0,54.0,8.4,0,5,7,0,2026-05-21T04:51:18.992655+05:30
Mumbai,Maharashtra,19.076,72.8777,29.3,73,0.0,1006.0,7.85,38.2,57,22.2,12.4,7.7,150.0,43.0,5.8,7,5,4,1,2026-05-21T04:51:18.992693+05:30
Bangalore,Karnataka,12.9716,77.5946,21.9,96,0.0,909.8,9.2,34.9,39,10.6,9.7,18.8,228.0,32.0,4.9,3,5,7,1,2026-05-21T04:51:18.992705+05:30
Hyderabad,Telangana,17.385,78.4867,29.8,51,0.0,950.3,8.5,33.8,96,35.4,27.2,9.2,231.0,76.0,6.5,4,5,7,1,2026-05-21T04:51:18.992713+05:30
Chennai,Tamil Nadu,13.0827,80.2707,31.2,57,0.0,1001.8,8.4,40.3,64,11.2,10.6,13.4,319.0,54.0,7.2,0,5,4,1,2026-05-21T04:51:18.992719+05:30
Kolkata,West Bengal,22.5726,88.3639,28.5,95,0.0,999.9,8.95,26.3,102,48.9,34.3,10.3,333.0,67.0,6.3,7,5,7,1,2026-05-21T04:51:18.992725+05:30
Pune,Maharashtra,18.5204,73.8567,24.1,86,0.0,945.8,5.85,40.0,63,15.0,10.2,10.9,146.0,36.0,9.4,3,5,3,1,2026-05-21T04:51:18.992730+05:30
Ahmedabad,Gujarat,23.0225,72.5714,29.5,53,0.0,999.1,8.15,33.8,65,48.2,21.7,5.2,151.0,51.0,3.3,4,5,7,1,2026-05-21T04:51:18.992736+05:30
Jaipur,Rajasthan,26.9124,75.7873,32.0,27,0.0,954.8,8.3,47.9,139,441.4,79.2,3.9,166.0,63.0,4.0,0,5,7,0,2026-05-21T04:51:18.992745+05:30
Lucknow,Uttar Pradesh,26.8467,80.9462,30.5,64,0.0,986.7,8.2,32.0,153,209.1,77.3,42.1,360.0,29.0,15.2,3,5,7,1,2026-05-21T04:51:18.992750+05:30
Kanpur,Uttar Pradesh,26.4499,80.3319,32.5,30,0.0,985.1,8.25,36.7,176,293.4,71.9,23.8,245.0,40.0,9.5,0,5,7,0,2026-05-21T04:51:18.992755+05:30
Chandigarh,Chandigarh,30.7333,76.7794,25.0,53,0.0,961.4,7.75,34.2,101,46.6,35.2,37.9,369.0,9.0,7.2,4,5,7,0,2026-05-21T04:51:18.992760+05:30
Srinagar,Jammu and Kashmir,34.0837,74.7973,14.9,82,0.0,841.7,8.55,48.6,79,45.5,20.7,12.6,376.0,63.0,2.7,3,10,7,0,2026-05-21T04:51:18.992779+05:30
Jammu,Jammu and Kashmir,32.7266,74.857,27.7,36,0.0,965.7,8.55,70.2,87,31.5,21.4,13.9,244.0,38.0,2.4,4,5,7,0,2026-05-21T04:51:18.992784+05:30
Amritsar,Punjab,31.634,74.8723,28.5,41,0.0,972.8,8.45,61.6,101,58.2,45.6,32.7,348.0,31.0,10.7,4,5,7,0,2026-05-21T04:51:18.992789+05:30
Ludhiana,Punjab,30.901,75.8573,28.1,43,0.0,970.9,8.05,33.5,150,92.2,68.2,41.7,488.0,18.0,14.9,4,5,7,0,2026-05-21T04:51:18.992794+05:30
Jalandhar,Punjab,31.326,75.5762,28.9,36,0.0,971.8,8.2,42.8,108,68.5,47.5,29.6,480.0,32.0,8.4,4,5,7,0,2026-05-21T04:51:18.992799+05:30
Dehradun,Uttarakhand,30.6284,78.0322,13.5,63,0.0,824.0,8.1,44.6,71,35.2,17.5,23.4,216.0,6.0,0.5,3,5,7,0,2026-05-21T04:51:18.992804+05:30
Shimla,Himachal Pradesh,31.1048,77.1734,15.2,37,0.0,780.4,8.3,48.2,71,49.7,24.7,25.1,177.0,49.0,5.8,0,5,7,0,2026-05-21T04:51:18.992810+05:30
Manali,Himachal Pradesh,32.2396,77.1887,12.2,58,0.0,813.8,9.65,50.8,52,19.2,7.9,23.3,176.0,102.0,0.0,0,5,7,0,2026-05-21T04:51:18.992815+05:30
Gurgaon,Haryana,28.4595,77.0266,31.1,34,0.0,974.7,7.85,45.7,1039,2294.8,339.0,10.6,184.0,62.0,7.5,0,5,7,0,2026-05-21T04:51:18.992820+05:30
Noida,Uttar Pradesh,28.5355,77.391,32.3,31,0.0,977.3,7.75,36.0,1039,2294.8,339.0,10.6,168.0,62.0,7.5,0,5,7,0,2026-05-21T04:51:18.992825+05:30
Ghaziabad,Uttar Pradesh,28.6692,77.4538,33.0,28,0.0,975.6,7.75,38.9,226,468.5,100.8,29.4,305.0,40.0,15.5,0,5,7,0,2026-05-21T04:51:18.992830+05:30
Faridabad,Haryana,28.4089,77.3178,33.0,29,0.0,976.8,7.75,43.6,1039,2294.8,339.0,10.6,160.0,62.0,7.5,0,5,7,0,2026-05-21T04:51:18.992835+05:30
Meerut,Uttar Pradesh,28.9845,77.7064,31.0,32,0.0,974.2,7.65,29.5,226,468.5,100.8,29.4,318.0,40.0,15.5,0,5,7,0,2026-05-21T04:51:18.992840+05:30
Agra,Uttar Pradesh,27.1767,78.0081,32.0,31,0.0,981.5,8.1,45.0,641,1128.8,144.4,9.0,176.0,56.0,5.3,0,5,7,0,2026-05-21T04:51:18.992845+05:30
Varanasi,Uttar Pradesh,25.3176,82.9739,31.2,67,0.0,990.9,8.75,41.0,152,105.2,65.2,43.0,864.0,19.0,11.5,3,5,7,1,2026-05-21T04:51:18.992850+05:30
Prayagraj,Uttar Pradesh,25.4358,81.8463,32.0,46,0.0,989.2,8.65,36.0,152,124.8,82.7,54.8,399.0,8.0,16.1,0,5,7,1,2026-05-21T04:51:18.992855+05:30
Gorakhpur,Uttar Pradesh,26.7606,83.3732,28.4,77,0.0,991.1,8.65,31.0,156,82.9,64.5,15.5,495.0,73.0,10.9,7,5,7,1,2026-05-21T04:51:18.992862+05:30
Bareilly,Uttar Pradesh,28.367,79.4304,28.0,55,0.0,979.9,8.05,21.2,153,338.1,89.9,27.7,289.0,43.0,8.9,4,5,7,1,2026-05-21T04:51:18.992866+05:30
Aligarh,Uttar Pradesh,27.8974,78.088,30.1,32,0.0,978.9,7.9,38.5,639,935.0,151.8,11.2,201.0,54.0,4.9,0,5,7,0,2026-05-21T04:51:18.992871+05:30
Moradabad,Uttar Pradesh,28.8386,78.7733,29.1,41,0.0,976.5,7.75,20.2,168,418.2,122.0,48.4,418.0,16.0,13.7,4,5,7,0,2026-05-21T04:51:18.992876+05:30
Saharanpur,Uttar Pradesh,29.9637,77.546,28.4,50,0.0,968.3,7.2,27.0,159,137.4,80.8,53.3,548.0,0.0,8.4,4,5,7,1,2026-05-21T04:51:18.992881+05:30
Jhansi,Uttar Pradesh,25.4484,78.5685,31.5,24,0.0,972.8,8.5,51.8,46,19.8,12.4,6.0,166.0,60.0,4.3,0,5,7,0,2026-05-21T04:51:22.232420+05:30
Surat,Gujarat,21.1702,72.8311,28.9,81,0.0,1003.9,7.75,37.4,67,29.0,16.1,20.5,333.0,35.0,34.0,7,5,4,1,2026-05-21T04:51:22.232451+05:30
Vadodara,Gujarat,22.3072,73.1812,28.8,81,0.0,1001.2,8.1,36.7,65,21.1,13.6,13.1,144.0,31.0,13.8,7,5,4,1,2026-05-21T04:51:22.232459+05:30
Rajkot,Gujarat,22.3039,70.8022,26.6,87,0.0,991.4,7.75,45.7,63,28.0,11.6,4.5,125.0,45.0,5.3,7,5,7,1,2026-05-21T04:51:22.232466+05:30
Thane,Maharashtra,19.2183,72.9781,29.1,75,0.0,1005.4,7.85,33.5,57,22.2,12.4,7.7,161.0,43.0,5.8,7,5,4,1,2026-05-21T04:51:22.232472+05:30
Nagpur,Maharashtra,21.1458,79.0882,34.3,26,0.0,968.2,8.95,45.4,73,24.8,18.0,8.0,219.0,85.0,11.0,0,5,7,0,2026-05-21T04:51:22.232478+05:30
Nashik,Maharashtra,19.9975,73.7898,24.6,86,0.0,943.4,5.85,36.0,55,18.2,11.0,9.2,116.0,37.0,8.8,3,5,3,1,2026-05-21T04:51:22.232484+05:30
Aurangabad,Maharashtra,19.8762,75.3433,27.1,67,0.0,941.4,5.1,37.8,65,19.9,13.7,13.4,157.0,40.0,9.8,7,5,3,1,2026-05-21T04:51:22.232490+05:30
Solapur,Maharashtra,17.6599,75.9064,28.1,64,0.0,954.8,9.0,48.2,80,20.8,15.1,7.7,161.0,54.0,4.3,7,5,7,1,2026-05-21T04:51:22.232497+05:30
Kolhapur,Maharashtra,16.705,74.2433,23.1,93,0.0,945.7,8.6,43.9,68,20.4,12.8,7.3,144.0,42.0,3.3,3,5,7,1,2026-05-21T04:51:22.232502+05:30
Goa,Goa,15.2993,74.124,25.9,98,0.0,995.8,2.6,28.8,44,20.4,16.4,7.0,496.0,54.0,1.7,7,5,3,1,2026-05-21T04:51:22.232509+05:30
Jodhpur,Rajasthan,26.2389,73.0243,30.2,29,0.0,979.0,8.45,46.4,162,345.5,79.9,2.8,135.0,68.0,4.1,0,5,7,0,2026-05-21T04:51:22.232515+05:30
Udaipur,Rajasthan,24.5854,73.7125,26.7,41,0.0,943.0,8.85,40.7,66,60.5,24.3,4.1,154.0,59.0,3.5,4,5,7,0,2026-05-21T04:51:22.232521+05:30
Kota,Rajasthan,25.2138,75.8648,32.8,22,0.0,974.1,8.4,46.4,58,27.9,15.6,5.3,154.0,54.0,5.1,0,5,7,0,2026-05-21T04:51:22.232526+05:30
Bikaner,Rajasthan,28.0229,73.3119,32.1,28,0.0,976.0,8.4,34.9,131,304.5,122.0,1.3,145.0,89.0,3.3,0,5,7,0,2026-05-21T04:51:22.232532+05:30
Ajmer,Rajasthan,26.4499,74.6399,29.2,32,0.0,950.9,8.45,59.0,70,69.4,26.2,2.9,144.0,63.0,3.2,4,5,7,0,2026-05-21T04:51:22.232538+05:30
Gwalior,Madhya Pradesh,26.2183,78.1828,31.8,28,0.0,977.6,8.3,53.3,52,58.7,19.9,4.9,152.0,66.0,2.8,0,5,7,0,2026-05-21T04:51:22.232544+05:30
Indore,Madhya Pradesh,22.7196,75.8577,28.5,51,0.0,945.6,8.7,38.5,66,31.0,19.0,5.9,215.0,75.0,12.2,4,5,7,1,2026-05-21T04:51:22.232549+05:30
Bhopal,Madhya Pradesh,23.2599,77.4126,31.8,28,0.0,950.1,8.7,43.2,57,28.7,14.5,2.6,173.0,85.0,3.5,0,5,7,0,2026-05-21T04:51:22.232554+05:30
Jabalpur,Madhya Pradesh,23.1815,79.9864,32.3,25,0.0,956.8,8.9,39.2,81,19.2,15.3,10.5,213.0,59.0,3.8,0,5,7,0,2026-05-21T04:51:22.232560+05:30
Ujjain,Madhya Pradesh,23.1765,75.7885,28.4,54,0.0,951.1,8.6,37.1,67,31.3,18.3,6.3,210.0,63.0,12.9,4,5,7,1,2026-05-21T04:51:22.232566+05:30
Visakhapatnam,Andhra Pradesh,17.6868,83.2185,30.0,81,0.0,997.5,9.1,33.1,104,46.7,41.4,22.2,392.0,81.0,38.5,7,5,7,1,2026-05-21T04:51:22.232572+05:30
Vijayawada,Andhra Pradesh,16.5062,80.648,32.1,63,0.0,996.5,9.15,39.6,131,48.3,43.1,13.1,307.0,73.0,6.1,3,5,7,1,2026-05-21T04:51:22.232577+05:30
Guntur,Andhra Pradesh,16.3067,80.4365,32.7,50,0.0,997.8,9.15,40.3,115,46.2,39.7,11.6,281.0,79.0,9.9,0,5,7,1,2026-05-21T04:51:22.232597+05:30
Nellore,Andhra Pradesh,14.4426,79.9865,33.2,46,0.0,1000.0,8.5,42.8,78,22.0,19.8,8.3,192.0,74.0,7.3,0,5,4,1,2026-05-21T04:51:22.232603+05:30
Kurnool,Andhra Pradesh,15.8281,78.0373,29.2,68,0.0,974.1,8.1,42.5,74,6.8,5.9,8.6,172.0,53.0,3.6,7,5,7,1,2026-05-21T04:51:22.232610+05:30
Kakinada,Andhra Pradesh,16.9891,82.2475,30.9,76,0.0,1001.5,9.1,36.0,86,48.4,38.2,4.0,315.0,120.0,4.6,3,5,4,1,2026-05-21T04:51:22.232616+05:30
Tirupati,Andhra Pradesh,13.6288,79.4192,30.4,59,0.0,986.1,8.55,41.8,59,9.7,8.9,6.9,182.0,62.0,1.6,0,5,7,1,2026-05-21T04:51:22.232621+05:30
Warangal,Telangana,17.9689,79.5941,31.9,43,0.0,973.7,8.4,41.0,129,39.1,30.3,7.9,294.0,96.0,6.9,0,5,7,1,2026-05-21T04:51:22.232627+05:30
Nizamabad,Telangana,18.6725,78.0941,32.1,39,0.0,961.1,9.1,34.2,95,50.1,40.6,10.2,329.0,74.0,8.0,0,5,7,1,2026-05-21T04:51:22.232633+05:30
Mysore,Karnataka,12.2958,76.6396,22.0,96,0.0,926.3,8.75,43.9,30,10.0,8.9,11.3,164.0,34.0,2.5,3,5,7,1,2026-05-21T04:51:22.232638+05:30
Mangalore,Karnataka,12.9141,74.856,26.7,95,0.1,1004.7,8.6,33.1,52,20.4,18.9,17.6,306.0,27.0,4.4,10,5,4,1,2026-05-21T04:51:22.232644+05:30
Hubli-Dharwad,Karnataka,15.3647,75.124,22.9,96,0.0,938.7,8.8,47.5,24,4.4,3.7,4.8,154.0,51.0,1.0,3,5,7,1,2026-05-21T04:51:22.232650+05:30
Belgaum,Karnataka,15.8497,74.4977,22.0,98,0.0,923.5,7.25,41.8,63,26.5,15.4,4.7,132.0,56.0,2.6,3,5,7,1,2026-05-21T04:51:25.498626+05:30
Coimbatore,Tamil Nadu,11.0168,76.9558,24.9,90,0.0,959.4,8.1,52.6,26,6.4,5.2,5.4,172.0,45.0,3.0,3,5,7,1,2026-05-21T04:51:25.498657+05:30
Madurai,Tamil Nadu,9.9252,78.1198,27.5,76,0.0,990.0,9.0,45.0,68,29.0,28.2,39.6,173.0,0.0,6.4,7,5,7,1,2026-05-21T04:51:25.498666+05:30
Trichy,Tamil Nadu,10.7905,78.7047,28.2,71,0.0,996.5,9.0,49.0,36,9.1,7.7,10.6,144.0,34.0,3.7,7,5,7,1,2026-05-21T04:51:25.498674+05:30
Salem,Tamil Nadu,11.6643,78.146,27.5,74,0.0,975.0,9.1,45.7,50,20.8,19.0,28.5,194.0,14.0,6.0,7,5,7,1,2026-05-21T04:51:25.498681+05:30
Tirunelveli,Tamil Nadu,8.7139,77.7567,28.0,77,0.0,1000.8,8.2,40.3,23,9.0,7.3,8.3,138.0,28.0,2.7,7,5,4,1,2026-05-21T04:51:25.498688+05:30
Vellore,Tamil Nadu,12.9165,79.1325,29.2,63,0.0,980.4,9.05,45.0,44,9.7,8.8,12.8,206.0,47.0,5.2,7,5,7,1,2026-05-21T04:51:25.498694+05:30
Erode,Tamil Nadu,11.341,77.7172,27.2,77,0.0,986.6,8.95,51.5,40,14.3,12.8,17.1,173.0,28.0,3.9,7,5,7,1,2026-05-21T04:51:25.498699+05:30
Kochi,Kerala,9.9312,76.2673,26.2,99,0.1,1007.1,8.2,36.4,58,18.2,16.9,20.1,167.0,14.0,4.4,10,5,4,1,2026-05-21T04:51:25.498706+05:30
Thiruvananthapuram,Kerala,8.5241,76.9366,25.6,99,0.1,1006.9,8.5,45.0,24,8.5,4.9,1.6,105.0,48.0,0.5,10,5,4,1,2026-05-21T04:51:25.498712+05:30
Kozhikode,Kerala,11.2588,75.7804,25.8,99,0.0,1006.2,8.75,25.9,28,6.0,4.1,1.9,363.0,56.0,0.7,7,5,4,1,2026-05-21T04:51:25.498718+05:30
Thrissur,Kerala,10.5276,76.2144,25.9,95,0.0,1005.5,8.6,31.3,53,15.9,14.6,17.9,174.0,18.0,5.4,7,5,4,1,2026-05-21T04:51:25.498725+05:30
Kannur,Kerala,11.8745,75.3704,26.3,96,0.0,1005.1,8.75,32.4,34,10.0,8.8,8.9,227.0,32.0,2.6,7,5,4,1,2026-05-21T04:51:25.498731+05:30
Patna,Bihar,25.5941,85.1376,28.5,83,0.0,994.3,8.85,29.5,158,66.4,59.0,15.8,425.0,75.0,18.8,7,5,7,1,2026-05-21T04:51:25.498736+05:30
Gaya,Bihar,24.7914,85.0002,28.6,74,0.0,987.5,8.9,32.4,160,79.9,69.2,14.4,421.0,75.0,13.7,7,5,7,1,2026-05-21T04:51:25.498742+05:30
Muzaffarpur,Bihar,26.1209,85.3647,28.0,80,0.0,994.3,8.85,31.7,157,67.3,59.8,16.7,517.0,65.0,14.8,7,5,7,1,2026-05-21T04:51:25.498747+05:30
Bhagalpur,Bihar,25.2425,87.0117,28.1,87,0.0,995.7,8.85,33.1,151,69.6,60.5,16.4,460.0,65.0,14.2,7,5,7,1,2026-05-21T04:51:25.498752+05:30
Ranchi,Jharkhand,23.3441,85.3096,24.4,68,0.0,932.2,9.3,34.9,144,166.2,74.0,30.1,452.0,68.0,20.0,3,5,7,1,2026-05-21T04:51:25.498758+05:30
Jamshedpur,Jharkhand,22.8046,86.2029,27.5,98,0.0,984.9,9.1,29.9,151,52.2,46.4,17.8,1111.0,46.0,17.9,7,5,7,1,2026-05-21T04:51:25.498764+05:30
Dhanbad,Jharkhand,23.7957,86.4304,28.3,93,0.0,974.5,9.1,30.2,167,112.7,102.4,47.7,478.0,28.0,126.7,7,5,7,1,2026-05-21T04:51:25.498770+05:30
Bokaro,Jharkhand,23.6693,86.1511,27.1,93,0.0,978.1,9.1,31.3,168,128.5,111.1,51.8,716.0,31.0,126.7,7,5,7,1,2026-05-21T04:51:25.498776+05:30
Bhubaneswar,Odisha,20.2961,85.8245,28.5,88,0.0,995.6,9.15,36.7,106,55.4,44.1,16.2,512.0,58.0,6.7,7,5,7,1,2026-05-21T04:51:25.498782+05:30
Cuttack,Odisha,20.4625,85.8828,28.3,89,0.0,997.5,9.2,28.4,106,55.4,44.1,16.2,605.0,58.0,6.7,7,5,7,1,2026-05-21T04:51:25.498787+05:30
Rourkela,Odisha,22.2604,84.8536,27.8,64,0.0,979.1,9.0,37.1,137,140.6,72.4,44.6,499.0,12.0,10.9,7,5,7,1,2026-05-21T04:51:25.498792+05:30
Raipur,Chhattisgarh,21.2514,81.6296,31.9,38,0.0,968.2,9.0,40.7,152,75.0,60.1,41.0,862.0,43.0,51.5,0,5,7,0,2026-05-21T04:51:25.498798+05:30
Bhilai,Chhattisgarh,21.1938,81.3509,31.0,41,0.0,968.7,9.0,42.5,151,69.6,53.0,33.3,979.0,45.0,43.2,0,5,7,1,2026-05-21T04:51:25.498803+05:30
Guwahati,Assam,26.1158,91.7086,25.0,99,0.0,997.6,8.75,22.0,127,35.7,28.9,13.9,455.0,29.0,2.8,7,5,7,1,2026-05-21T04:51:25.498809+05:30
Agartala,Tripura,23.8315,91.2868,26.1,95,0.0,1001.8,8.8,30.6,90,31.9,25.0,14.6,232.0,21.0,2.7,7,5,4,1,2026-05-21T04:51:25.498814+05:30
Shillong,Meghalaya,25.5788,91.8933,18.2,97,0.0,853.9,8.5,20.2,85,38.0,29.4,6.6,247.0,64.0,4.3,3,10,7,1,2026-05-21T04:51:25.498820+05:30
Imphal,Manipur,24.817,93.9368,21.5,95,0.0,920.1,9.25,28.4,124,99.0,69.4,19.4,535.0,33.0,4.5,3,5,7,1,2026-05-21T04:51:25.498826+05:30
Aizawl,Mizoram,23.7271,92.7176,18.8,99,0.0,888.7,9.1,24.1,95,48.1,34.3,9.2,279.0,43.0,3.0,3,10,7,1,2026-05-21T04:51:25.498832+05:30
Kohima,Nagaland,25.6701,94.1077,17.0,97,0.1,851.6,9.2,27.4,96,49.7,30.0,9.9,245.0,32.0,1.0,6,10,7,1,2026-05-21T04:51:25.498838+05:30
Gangtok,Sikkim,27.3314,88.6138,15.2,71,0.0,833.7,9.15,39.2,85,30.0,19.1,13.4,699.0,24.0,0.5,3,5,7,0,2026-05-21T04:51:25.498843+05:30
Siliguri,West Bengal,26.7271,88.3953,23.8,94,0.1,989.0,8.75,28.8,144,77.5,59.6,32.2,517.0,14.0,3.8,6,5,7,1,2026-05-21T04:51:28.765464+05:30
Durgapur,West Bengal,23.5204,87.3119,27.9,96,0.0,989.1,9.0,36.7,162,85.9,77.3,35.6,701.0,29.0,36.0,7,5,7,1,2026-05-21T04:51:28.765496+05:30
Asansol,West Bengal,23.6739,86.9524,27.8,96,0.0,987.9,9.05,29.2,161,89.6,79.2,38.4,912.0,32.0,45.0,7,5,7,1,2026-05-21T04:51:28.765505+05:30
Pondicherry,Puducherry,11.9139,79.8145,28.7,73,0.0,1003.9,7.35,32.0,66,20.9,19.4,21.6,332.0,34.0,6.8,7,5,4,1,2026-05-21T04:51:28.765512+05:30
Port Blair,Andaman and Nicobar Islands,11.6234,92.7265,25.9,95,0.0,1004.0,8.8,37.4,24,7.9,4.9,0.3,111.0,62.0,0.4,7,5,4,1,2026-05-21T04:51:28.765519+05:30
Haridwar,Uttarakhand,29.9457,78.1642,25.5,50,0.0,966.7,7.25,26.3,121,77.3,42.8,39.7,223.0,1.0,4.5,4,5,7,0,2026-05-21T04:51:28.765525+05:30
Rishikesh,Uttarakhand,30.0869,78.2676,21.8,61,0.0,959.5,7.4,29.5,92,81.0,36.1,24.1,284.0,30.0,4.4,3,5,7,0,2026-05-21T04:51:28.765532+05:30
Nainital,Uttarakhand,29.3919,79.4542,17.3,50,0.0,802.3,8.5,33.8,101,132.2,37.7,24.5,176.0,42.0,3.0,0,5,7,0,2026-05-21T04:51:28.765538+05:30
Mussoorie,Uttarakhand,30.4599,78.0664,18.4,42,0.0,800.3,8.0,51.1,97,55.2,34.3,41.4,206.0,1.0,4.4,0,5,7,0,2026-05-21T04:51:28.765544+05:30
Dharamshala,Himachal Pradesh,32.219,76.3234,24.6,27,0.0,865.7,8.45,47.5,58,21.7,12.3,10.5,184.0,54.0,0.1,0,5,7,0,2026-05-21T04:51:28.765550+05:30
Dalhousie,Himachal Pradesh,32.5387,75.971,15.5,52,0.0,800.2,8.7,41.0,74,26.8,19.7,32.2,242.0,0.0,0.5,0,5,7,0,2026-05-21T04:51:28.765556+05:30
Patiala,Punjab,30.3398,76.3869,29.5,33,0.0,970.5,7.65,34.6,215,116.9,67.8,35.6,486.0,18.0,10.2,4,5,7,0,2026-05-21T04:51:28.765563+05:30
Bhatinda,Punjab,30.211,74.9455,31.5,38,0.0,976.1,8.3,33.5,97,58.2,32.8,25.1,367.0,25.0,7.7,0,5,7,0,2026-05-21T04:51:28.765568+05:30
Rohtak,Haryana,28.8955,76.6066,31.5,31,0.0,974.7,7.7,43.6,410,1031.9,158.8,8.8,182.0,61.0,3.6,0,5,7,0,2026-05-21T04:51:28.765574+05:30
Panipat,Haryana,29.3909,76.9635,29.7,35,0.0,973.0,7.45,32.8,730,1784.4,239.3,13.0,509.0,49.0,3.4,4,5,7,0,2026-05-21T04:51:28.765594+05:30
Mathura,Uttar Pradesh,27.4924,77.6737,31.0,33,0.0,980.3,8.05,42.8,642,834.5,109.7,8.6,181.0,59.0,4.6,0,5,7,0,2026-05-21T04:51:28.765601+05:30
Vrindavan,Uttar Pradesh,27.5823,77.7027,30.5,34,0.0,980.7,8.0,41.8,642,834.5,109.7,8.6,182.0,59.0,4.6,0,5,7,0,2026-05-21T04:51:28.765606+05:30
Ayodhya,Uttar Pradesh,26.7922,82.1998,28.9,79,0.0,989.2,8.4,25.6,157,84.8,72.4,15.2,556.0,76.0,12.7,7,5,7,1,2026-05-21T04:51:28.765612+05:30
Ratlam,Madhya Pradesh,23.3315,75.0367,26.8,63,0.0,952.2,8.55,35.6,67,31.3,16.9,7.4,210.0,54.0,14.0,7,5,7,1,2026-05-21T04:51:28.765618+05:30
Sagar,Madhya Pradesh,23.8388,78.7378,31.3,22,0.0,946.5,8.75,46.4,46,20.3,11.1,3.9,158.0,77.0,3.0,0,5,7,0,2026-05-21T04:51:28.765623+05:30
Satna,Madhya Pradesh,24.6005,80.8322,31.3,32,0.0,965.6,8.8,43.9,89,29.1,14.8,13.9,190.0,49.0,4.6,0,5,7,0,2026-05-21T04:51:28.765629+05:30
Akola,Maharashtra,20.7002,77.0082,31.9,45,0.0,971.3,8.9,41.8,73,27.9,20.1,6.7,177.0,95.0,13.0,0,5,7,1,2026-05-21T04:51:28.765635+05:30
Amravati,Maharashtra,20.9374,77.7796,33.0,29,0.0,963.2,8.9,37.4,71,26.4,19.0,6.3,202.0,94.0,10.6,0,5,7,0,2026-05-21T04:51:28.765642+05:30
Latur,Maharashtra,18.4088,76.5604,29.0,57,0.0,937.2,9.05,32.0,94,27.1,22.1,7.0,186.0,96.0,11.8,4,5,7,1,2026-05-21T04:51:28.765648+05:30
Nanded,Maharashtra,19.1383,77.3091,32.6,42,0.0,965.1,9.0,40.7,91,25.8,20.4,8.2,230.0,71.0,6.4,0,5,7,1,2026-05-21T04:51:28.765654+05:30
Gulbarga,Karnataka,17.3297,76.8343,28.4,67,0.0,956.1,8.95,38.2,84,24.7,18.2,8.4,155.0,54.0,4.1,7,5,7,1,2026-05-21T04:51:28.765659+05:30
Bidar,Karnataka,17.9104,77.5199,28.2,57,0.0,932.9,9.1,39.2,90,44.1,35.6,8.1,209.0,91.0,7.3,4,5,7,1,2026-05-21T04:51:28.765664+05:30
Hospet,Karnataka,15.2689,76.3909,25.0,87,0.0,953.7,9.0,47.2,35,6.2,5.3,6.7,162.0,48.0,1.5,7,5,7,1,2026-05-21T04:51:28.765669+05:30
Tirupur,Tamil Nadu,11.1085,77.3411,26.3,82,0.0,972.8,9.1,55.8,45,16.3,14.8,19.3,151.0,25.0,4.7,7,5,7,1,2026-05-21T04:51:28.765675+05:30
Alappuzha,Kerala,9.4981,76.3388,27.0,95,0.1,1007.2,8.65,39.2,41,10.5,8.2,9.9,88.0,35.0,1.9,10,5,4,1,2026-05-21T04:51:28.765680+05:30
Munnar,Kerala,10.0889,77.0595,17.0,97,0.0,855.0,9.25,32.4,24,7.5,6.5,6.4,98.0,29.0,1.4,3,10,7,1,2026-05-21T04:51:28.765686+05:30
Silchar,Assam,24.8333,92.7789,25.2,94,0.0,1001.4,8.45,23.4,148,74.0,50.2,12.5,266.0,77.0,7.2,7,5,4,1,2026-05-21T04:51:28.765691+05:30
Dibrugarh,Assam,27.4728,94.912,24.5,97,0.2,992.4,8.9,24.1,91,26.1,22.1,19.5,309.0,33.0,1.0,6,5,7,1,2026-05-21T04:51:28.765696+05:30
