city,state,latitude,longitude,temp,humidity,rain,pressure,uv_index,wind_gusts,aqi,pm10,pm2_5,mosquito_risk,arthritis_risk,migraine_risk,frizz_risk,updated_at
Delhi,Delhi,28.6139,77.209,23.0,59,0.0,990.1,6.45,29.2,154,73.3,58.3,0,5,7,0,2026-03-22T10:25:02.882817+05:30
Mumbai,Maharashtra,19.076,72.8777,28.9,52,0.0,1012.1,7.9,30.2,84,33.9,27.1,4,0,4,1,2026-03-22T10:25:02.882856+05:30
Bangalore,Karnataka,12.9716,77.5946,27.2,57,0.0,915.6,9.45,25.2,101,41.1,33.3,4,5,7,1,2026-03-22T10:25:02.882871+05:30
Hyderabad,Telangana,17.385,78.4867,28.4,61,0.0,958.2,8.9,29.5,95,41.3,27.4,7,5,7,1,2026-03-22T10:25:02.882881+05:30
Chennai,Tamil Nadu,13.0827,80.2707,31.2,58,0.0,1011.5,9.2,32.4,41,14.4,8.5,0,0,4,1,2026-03-22T10:25:02.882889+05:30
Kolkata,West Bengal,22.5726,88.3639,24.3,66,0.0,1012.7,8.2,20.5,101,52.5,50.3,3,0,4,1,2026-03-22T10:25:02.882898+05:30
Pune,Maharashtra,18.5204,73.8567,30.0,32,0.0,953.0,8.45,27.4,78,12.3,11.6,4,5,7,0,2026-03-22T10:25:02.882909+05:30
Ahmedabad,Gujarat,23.0225,72.5714,29.4,40,0.0,1008.5,7.8,22.0,73,32.7,23.7,4,0,4,0,2026-03-22T10:25:02.882917+05:30
Jaipur,Rajasthan,26.9124,75.7873,25.3,49,0.0,966.6,7.2,27.4,84,147.6,34.5,4,5,7,0,2026-03-22T10:25:02.882925+05:30
Lucknow,Uttar Pradesh,26.8467,80.9462,24.4,61,0.0,1000.6,6.95,26.6,112,33.4,32.2,3,5,4,1,2026-03-22T10:25:02.882934+05:30
Kanpur,Uttar Pradesh,26.4499,80.3319,24.0,68,0.0,999.0,7.0,27.0,124,81.3,40.2,3,5,7,1,2026-03-22T10:25:02.882941+05:30
Chandigarh,Chandigarh,30.7333,76.7794,21.3,71,0.0,974.8,6.35,34.2,84,40.2,30.4,3,5,7,0,2026-03-22T10:25:02.882948+05:30
Srinagar,Jammu and Kashmir,34.0837,74.7973,12.1,61,0.0,845.4,7.45,14.0,108,38.8,33.4,3,5,7,0,2026-03-22T10:25:02.882955+05:30
Jammu,Jammu and Kashmir,32.7266,74.857,21.8,53,0.0,978.9,6.85,22.7,98,38.5,33.3,0,5,7,0,2026-03-22T10:25:02.882962+05:30
Amritsar,Punjab,31.634,74.8723,21.3,68,0.0,988.1,7.0,19.8,155,87.1,73.3,3,5,7,0,2026-03-22T10:25:02.882968+05:30
Ludhiana,Punjab,30.901,75.8573,21.2,70,0.0,985.8,6.45,27.0,129,73.3,64.3,3,5,7,0,2026-03-22T10:25:02.882975+05:30
Jalandhar,Punjab,31.326,75.5762,20.4,72,0.0,987.0,6.5,22.3,143,86.6,75.4,3,5,7,0,2026-03-22T10:25:02.882983+05:30
Dehradun,Uttarakhand,30.6284,78.0322,14.6,61,0.0,832.1,6.65,22.3,41,9.5,4.4,3,5,7,0,2026-03-22T10:25:02.882990+05:30
Shimla,Himachal Pradesh,31.1048,77.1734,13.8,59,0.0,786.7,6.85,37.1,65,17.6,9.5,0,5,7,0,2026-03-22T10:25:02.882996+05:30
Manali,Himachal Pradesh,32.2396,77.1887,16.2,21,0.0,820.6,8.9,33.8,50,8.2,5.7,0,5,7,1,2026-03-22T10:25:02.883003+05:30
Gurgaon,Haryana,28.4595,77.0266,23.0,67,0.0,988.7,6.55,24.1,214,85.9,63.1,3,5,7,1,2026-03-22T10:25:02.883009+05:30
Noida,Uttar Pradesh,28.5355,77.391,23.3,60,0.0,991.6,6.45,28.4,214,85.9,63.1,0,5,7,0,2026-03-22T10:25:02.883015+05:30
Ghaziabad,Uttar Pradesh,28.6692,77.4538,22.5,66,0.0,989.7,6.45,29.5,143,76.4,57.3,3,5,7,0,2026-03-22T10:25:02.883021+05:30
Faridabad,Haryana,28.4089,77.3178,23.3,62,0.0,990.9,6.5,25.6,214,85.9,63.1,3,5,7,0,2026-03-22T10:25:02.883027+05:30
Meerut,Uttar Pradesh,28.9845,77.7064,22.5,65,0.0,988.2,6.3,33.1,143,76.4,57.3,3,5,7,0,2026-03-22T10:25:02.883033+05:30
Agra,Uttar Pradesh,27.1767,78.0081,26.1,52,0.0,995.2,6.8,28.1,508,389.3,88.7,4,5,7,0,2026-03-22T10:25:02.883039+05:30
Varanasi,Uttar Pradesh,25.3176,82.9739,24.1,62,0.0,1005.0,7.3,28.4,101,92.7,36.9,3,5,4,1,2026-03-22T10:25:02.883065+05:30
Prayagraj,Uttar Pradesh,25.4358,81.8463,24.6,62,0.0,1003.5,7.5,26.6,122,70.5,41.7,3,5,4,1,2026-03-22T10:25:02.883073+05:30
Gorakhpur,Uttar Pradesh,26.7606,83.3732,22.2,72,0.0,1005.0,7.25,11.2,159,70.8,63.8,3,5,4,1,2026-03-22T10:25:02.883082+05:30
Bareilly,Uttar Pradesh,28.367,79.4304,23.1,72,0.0,993.8,6.65,31.0,106,54.5,43.2,3,5,7,1,2026-03-22T10:25:02.883088+05:30
Aligarh,Uttar Pradesh,27.8974,78.088,24.1,63,0.0,992.8,6.6,27.7,185,116.9,67.8,3,5,7,1,2026-03-22T10:25:02.883094+05:30
Moradabad,Uttar Pradesh,28.8386,78.7733,22.5,73,0.0,990.5,6.5,31.3,135,96.9,67.8,3,5,7,1,2026-03-22T10:25:02.883100+05:30
Saharanpur,Uttar Pradesh,29.9637,77.546,21.5,72,0.0,981.8,6.15,36.0,138,83.8,66.1,3,5,7,1,2026-03-22T10:25:02.883106+05:30
Jhansi,Uttar Pradesh,25.4484,78.5685,25.9,49,0.0,985.3,7.45,28.4,69,338.1,56.8,4,5,7,0,2026-03-22T10:25:06.096639+05:30
Surat,Gujarat,21.1702,72.8311,29.1,51,0.0,1012.1,7.65,25.2,96,60.1,50.1,4,0,4,1,2026-03-22T10:25:06.096674+05:30
Vadodara,Gujarat,22.3072,73.1812,30.8,36,0.0,1010.4,7.8,18.7,69,35.6,25.5,0,0,4,0,2026-03-22T10:25:06.096687+05:30
Rajkot,Gujarat,22.3039,70.8022,28.2,64,0.0,1000.3,7.6,26.3,58,45.4,20.3,7,5,4,1,2026-03-22T10:25:06.096699+05:30
Thane,Maharashtra,19.2183,72.9781,32.1,32,0.0,1011.7,7.9,42.5,84,33.9,27.1,0,0,4,0,2026-03-22T10:25:06.096708+05:30
Nagpur,Maharashtra,21.1458,79.0882,27.5,34,0.0,980.1,8.35,19.4,47,15.8,11.2,4,5,7,0,2026-03-22T10:25:06.096718+05:30
Nashik,Maharashtra,19.9975,73.7898,27.7,37,0.0,950.5,7.8,29.2,52,17.6,9.9,4,5,7,0,2026-03-22T10:25:06.096726+05:30
Aurangabad,Maharashtra,19.8762,75.3433,28.3,29,0.0,949.5,8.6,27.0,54,11.4,9.3,4,5,7,0,2026-03-22T10:25:06.096734+05:30
Solapur,Maharashtra,17.6599,75.9064,29.8,33,0.0,962.0,8.75,24.5,66,39.9,28.5,4,5,7,0,2026-03-22T10:25:06.096743+05:30
Kolhapur,Maharashtra,16.705,74.2433,28.4,46,0.0,951.9,8.85,32.0,89,27.9,24.3,4,5,7,0,2026-03-22T10:25:06.096752+05:30
Goa,Goa,15.2993,74.124,30.8,54,0.0,1001.1,8.85,36.7,88,43.4,25.1,0,5,4,1,2026-03-22T10:25:06.096761+05:30
Jodhpur,Rajasthan,26.2389,73.0243,27.0,47,0.0,990.0,7.55,25.6,65,50.1,20.3,4,5,7,0,2026-03-22T10:25:06.096770+05:30
Udaipur,Rajasthan,24.5854,73.7125,27.0,37,0.0,952.5,8.1,29.2,57,38.3,14.1,4,5,7,0,2026-03-22T10:25:06.096779+05:30
Kota,Rajasthan,25.2138,75.8648,28.3,39,0.0,985.7,7.5,11.9,80,43.3,27.1,4,5,7,0,2026-03-22T10:25:06.096789+05:30
Bikaner,Rajasthan,28.0229,73.3119,25.0,54,0.0,989.0,7.2,16.9,60,98.5,27.8,4,5,7,0,2026-03-22T10:25:06.096798+05:30
Ajmer,Rajasthan,26.4499,74.6399,26.3,48,0.0,961.0,7.5,27.0,70,56.8,21.2,4,5,7,0,2026-03-22T10:25:06.096806+05:30
Gwalior,Madhya Pradesh,26.2183,78.1828,26.1,49,0.0,990.6,7.1,26.6,126,356.7,71.0,4,5,7,0,2026-03-22T10:25:06.096815+05:30
Indore,Madhya Pradesh,22.7196,75.8577,27.2,34,0.0,954.0,8.05,17.6,59,18.7,13.0,4,5,7,0,2026-03-22T10:25:06.096823+05:30
Bhopal,Madhya Pradesh,23.2599,77.4126,27.9,33,0.0,960.0,7.85,25.2,50,19.7,11.1,4,5,7,0,2026-03-22T10:25:06.096830+05:30
Jabalpur,Madhya Pradesh,23.1815,79.9864,26.0,40,0.0,968.3,8.05,29.9,52,63.6,18.7,4,5,7,0,2026-03-22T10:25:06.096836+05:30
Ujjain,Madhya Pradesh,23.1765,75.7885,26.3,43,0.0,959.9,7.95,13.3,65,22.1,16.5,4,5,7,0,2026-03-22T10:25:06.096843+05:30
Visakhapatnam,Andhra Pradesh,17.6868,83.2185,31.1,58,0.0,1008.7,8.85,34.2,80,23.5,20.5,0,0,4,1,2026-03-22T10:25:06.096850+05:30
Vijayawada,Andhra Pradesh,16.5062,80.648,29.0,71,0.0,1008.1,8.9,22.3,63,18.9,12.2,7,0,4,1,2026-03-22T10:25:06.096856+05:30
Guntur,Andhra Pradesh,16.3067,80.4365,29.2,71,0.0,1009.0,8.9,19.4,67,19.7,12.6,7,0,4,1,2026-03-22T10:25:06.096862+05:30
Nellore,Andhra Pradesh,14.4426,79.9865,31.3,60,0.0,1010.3,9.05,30.2,51,19.4,12.9,0,0,4,1,2026-03-22T10:25:06.096869+05:30
Kurnool,Andhra Pradesh,15.8281,78.0373,31.6,53,0.0,981.2,8.9,20.2,71,26.8,21.1,0,5,7,1,2026-03-22T10:25:06.096876+05:30
Kakinada,Andhra Pradesh,16.9891,82.2475,31.2,58,0.0,1012.6,8.85,27.0,35,17.1,10.9,0,0,4,1,2026-03-22T10:25:06.096882+05:30
Tirupati,Andhra Pradesh,13.6288,79.4192,29.4,62,0.0,996.3,9.2,29.2,74,19.9,14.0,7,5,7,1,2026-03-22T10:25:06.096889+05:30
Warangal,Telangana,17.9689,79.5941,26.2,74,0.0,984.8,8.75,19.8,105,43.7,34.6,7,5,7,1,2026-03-22T10:25:06.096895+05:30
Nizamabad,Telangana,18.6725,78.0941,29.6,49,0.0,970.2,8.65,27.4,87,20.7,17.3,4,5,7,1,2026-03-22T10:25:06.096901+05:30
Mysore,Karnataka,12.2958,76.6396,28.3,54,0.0,932.2,9.4,33.1,95,32.8,27.6,4,5,7,1,2026-03-22T10:25:06.096907+05:30
Mangalore,Karnataka,12.9141,74.856,29.0,77,0.0,1010.0,9.05,28.1,71,36.4,21.2,7,0,4,1,2026-03-22T10:25:06.096913+05:30
Hubli-Dharwad,Karnataka,15.3647,75.124,31.0,31,0.0,944.6,9.05,27.4,65,31.5,18.9,0,5,7,0,2026-03-22T10:25:06.096919+05:30
Belgaum,Karnataka,15.8497,74.4977,30.2,26,0.0,929.6,9.1,36.7,67,26.5,15.1,0,5,7,0,2026-03-22T10:25:09.313754+05:30
Coimbatore,Tamil Nadu,11.0168,76.9558,29.8,53,0.0,965.7,9.4,30.6,75,25.2,17.5,4,5,7,1,2026-03-22T10:25:09.313787+05:30
Madurai,Tamil Nadu,9.9252,78.1198,30.6,61,0.0,997.2,9.35,29.5,65,19.8,14.2,3,5,7,1,2026-03-22T10:25:09.313799+05:30
Trichy,Tamil Nadu,10.7905,78.7047,30.1,64,0.0,1004.0,9.25,24.1,67,19.3,13.3,3,5,4,1,2026-03-22T10:25:09.313808+05:30
Salem,Tamil Nadu,11.6643,78.146,28.5,67,0.0,981.7,9.3,20.9,78,28.0,21.8,7,5,7,1,2026-03-22T10:25:09.313817+05:30
Tirunelveli,Tamil Nadu,8.7139,77.7567,31.1,59,0.0,1007.1,9.3,29.5,71,16.2,11.8,0,5,4,1,2026-03-22T10:25:09.313826+05:30
Vellore,Tamil Nadu,12.9165,79.1325,30.4,53,0.0,989.0,9.25,35.3,100,28.8,22.7,0,5,7,1,2026-03-22T10:25:09.313834+05:30
Erode,Tamil Nadu,11.341,77.7172,29.6,67,0.0,993.3,9.3,32.8,58,19.0,13.6,7,5,7,1,2026-03-22T10:25:09.313842+05:30
Kochi,Kerala,9.9312,76.2673,28.2,78,0.0,1011.7,9.15,31.7,71,22.3,18.9,7,0,4,1,2026-03-22T10:25:09.313850+05:30
Thiruvananthapuram,Kerala,8.5241,76.9366,28.2,77,0.0,1010.9,9.15,25.9,57,19.9,17.6,7,0,4,1,2026-03-22T10:25:09.313859+05:30
Kozhikode,Kerala,11.2588,75.7804,29.9,72,0.0,1011.2,9.1,28.4,60,26.7,19.6,7,0,4,1,2026-03-22T10:25:09.313867+05:30
Thrissur,Kerala,10.5276,76.2144,32.7,56,0.0,1009.9,9.15,33.5,63,17.3,13.9,0,0,4,1,2026-03-22T10:25:09.313875+05:30
Kannur,Kerala,11.8745,75.3704,31.0,62,0.0,1010.5,9.1,31.7,64,36.2,21.6,3,0,4,1,2026-03-22T10:25:09.313883+05:30
Patna,Bihar,25.5941,85.1376,22.8,64,0.0,1008.1,7.6,20.9,160,93.1,84.5,3,0,4,0,2026-03-22T10:25:09.313891+05:30
Gaya,Bihar,24.7914,85.0002,23.2,67,0.0,1001.1,7.4,22.7,145,59.8,50.8,3,5,4,1,2026-03-22T10:25:09.313899+05:30
Muzaffarpur,Bihar,26.1209,85.3647,21.2,76,0.0,1008.2,7.15,13.3,163,82.7,77.8,3,0,4,1,2026-03-22T10:25:09.313905+05:30
Bhagalpur,Bihar,25.2425,87.0117,21.8,73,0.0,1008.5,6.75,17.3,153,66.1,60.3,3,0,4,1,2026-03-22T10:25:09.313911+05:30
Ranchi,Jharkhand,23.3441,85.3096,21.5,52,0.0,942.8,8.45,29.9,90,64.3,18.7,0,5,7,0,2026-03-22T10:25:09.313917+05:30
Jamshedpur,Jharkhand,22.8046,86.2029,25.2,55,0.0,997.5,8.35,19.8,115,45.5,39.2,4,5,7,0,2026-03-22T10:25:09.313923+05:30
Dhanbad,Jharkhand,23.7957,86.4304,23.2,56,0.0,986.3,8.2,23.8,146,54.7,46.3,0,5,7,0,2026-03-22T10:25:09.313930+05:30
Bokaro,Jharkhand,23.6693,86.1511,23.1,56,0.0,990.4,8.25,24.5,150,51.5,39.0,0,5,7,0,2026-03-22T10:25:09.313936+05:30
Bhubaneswar,Odisha,20.2961,85.8245,26.7,67,0.0,1008.8,8.65,28.8,96,37.1,31.3,7,0,4,1,2026-03-22T10:25:09.313943+05:30
Cuttack,Odisha,20.4625,85.8828,26.7,65,0.0,1010.9,8.65,20.9,96,37.1,31.3,7,0,4,1,2026-03-22T10:25:09.313949+05:30
Rourkela,Odisha,22.2604,84.8536,26.3,46,0.0,991.7,8.25,19.4,93,41.1,32.5,4,5,7,0,2026-03-22T10:25:09.313955+05:30
Raipur,Chhattisgarh,21.2514,81.6296,27.5,33,0.0,981.4,8.4,18.4,88,26.1,23.2,4,5,7,0,2026-03-22T10:25:09.313961+05:30
Bhilai,Chhattisgarh,21.1938,81.3509,27.7,33,0.0,981.7,8.4,15.1,72,31.7,29.3,4,5,7,0,2026-03-22T10:25:09.313967+05:30
Guwahati,Assam,26.1158,91.7086,23.3,72,0.0,1006.8,7.5,18.0,90,35.0,29.8,3,5,4,1,2026-03-22T10:25:09.313973+05:30
Agartala,Tripura,23.8315,91.2868,25.0,64,0.0,1011.8,8.0,21.6,138,51.8,43.3,7,0,4,1,2026-03-22T10:25:09.313979+05:30
Shillong,Meghalaya,25.5788,91.8933,14.4,64,0.0,857.5,6.1,21.2,65,16.4,12.2,3,5,7,0,2026-03-22T10:25:09.313985+05:30
Imphal,Manipur,24.817,93.9368,17.4,83,0.0,925.6,7.25,51.8,79,6.0,5.4,3,10,7,0,2026-03-22T10:25:09.313992+05:30
Aizawl,Mizoram,23.7271,92.7176,18.4,74,0.0,895.8,8.1,44.6,79,4.7,3.9,3,5,7,0,2026-03-22T10:25:09.313997+05:30
Kohima,Nagaland,25.6701,94.1077,14.1,85,0.0,856.0,7.3,56.9,68,13.6,12.2,3,10,7,0,2026-03-22T10:25:09.314003+05:30
Gangtok,Sikkim,27.3314,88.6138,14.6,75,0.0,839.3,7.7,23.0,64,10.8,8.2,3,5,7,0,2026-03-22T10:25:09.314009+05:30
Siliguri,West Bengal,26.7271,88.3953,19.8,69,0.0,999.3,7.45,17.3,131,27.3,24.2,3,5,7,0,2026-03-22T10:25:12.539970+05:30
Durgapur,West Bengal,23.5204,87.3119,23.9,61,0.0,1001.8,7.95,19.8,108,59.3,54.9,3,5,4,0,2026-03-22T10:25:12.539998+05:30
Asansol,West Bengal,23.6739,86.9524,24.1,58,0.0,1000.3,8.2,21.6,110,61.0,54.8,0,5,4,0,2026-03-22T10:25:12.540008+05:30
Pondicherry,Puducherry,11.9139,79.8145,30.5,68,0.0,1012.7,9.15,29.5,39,13.5,8.4,3,0,4,1,2026-03-22T10:25:12.540015+05:30
Port Blair,Andaman and Nicobar Islands,11.6234,92.7265,28.5,76,0.0,1010.5,9.1,20.9,45,12.2,10.2,7,0,4,1,2026-03-22T10:25:12.540023+05:30
Haridwar,Uttarakhand,29.9457,78.1642,22.9,67,0.0,980.2,6.25,24.5,87,36.8,30.7,3,5,7,1,2026-03-22T10:25:12.540031+05:30
Rishikesh,Uttarakhand,30.0869,78.2676,22.8,66,0.0,972.4,6.3,23.0,55,17.0,12.2,3,5,7,1,2026-03-22T10:25:12.540038+05:30
Nainital,Uttarakhand,29.3919,79.4542,15.9,77,0.0,808.6,7.1,40.3,62,17.5,13.6,3,5,7,0,2026-03-22T10:25:12.540063+05:30
Mussoorie,Uttarakhand,30.4599,78.0664,14.7,73,0.0,804.6,6.65,24.5,65,33.1,27.2,3,5,7,0,2026-03-22T10:25:12.540071+05:30
Dharamshala,Himachal Pradesh,32.219,76.3234,17.3,52,0.0,871.9,6.95,20.9,77,16.6,6.5,0,5,7,0,2026-03-22T10:25:12.540078+05:30
Dalhousie,Himachal Pradesh,32.5387,75.971,15.5,44,0.0,806.0,7.15,19.1,82,30.0,20.4,0,5,7,0,2026-03-22T10:25:12.540086+05:30
Patiala,Punjab,30.3398,76.3869,22.3,67,0.0,985.0,6.2,31.7,141,62.6,54.2,3,5,7,0,2026-03-22T10:25:12.540093+05:30
Bhatinda,Punjab,30.211,74.9455,23.0,64,0.0,991.2,6.65,21.6,152,90.3,76.8,3,5,7,0,2026-03-22T10:25:12.540099+05:30
Rohtak,Haryana,28.8955,76.6066,22.9,66,0.0,989.0,6.45,25.6,157,67.3,53.3,3,5,7,1,2026-03-22T10:25:12.540106+05:30
Panipat,Haryana,29.3909,76.9635,22.9,65,0.0,987.2,6.25,32.0,175,60.1,51.1,3,5,7,0,2026-03-22T10:25:12.540113+05:30
Mathura,Uttar Pradesh,27.4924,77.6737,25.4,56,0.0,994.3,6.65,25.6,429,174.2,68.5,4,5,7,0,2026-03-22T10:25:12.540119+05:30
Vrindavan,Uttar Pradesh,27.5823,77.7027,24.8,61,0.0,994.7,6.7,25.2,429,174.2,68.5,3,5,7,1,2026-03-22T10:25:12.540126+05:30
Ayodhya,Uttar Pradesh,26.7922,82.1998,23.6,65,0.0,1002.8,7.1,20.2,103,50.4,44.0,3,5,4,1,2026-03-22T10:25:12.540132+05:30
Ratlam,Madhya Pradesh,23.3315,75.0367,26.9,42,0.0,960.6,7.95,19.1,60,22.2,16.2,4,5,7,0,2026-03-22T10:25:12.540138+05:30
Sagar,Madhya Pradesh,23.8388,78.7378,26.8,37,0.0,956.7,7.95,30.2,52,88.9,22.8,4,5,7,0,2026-03-22T10:25:12.540145+05:30
Satna,Madhya Pradesh,24.6005,80.8322,24.0,57,0.0,978.3,7.9,33.5,61,248.7,40.3,0,5,7,0,2026-03-22T10:25:12.540151+05:30
Akola,Maharashtra,20.7002,77.0082,28.6,34,0.0,981.6,8.3,21.2,51,11.5,9.5,4,5,7,0,2026-03-22T10:25:12.540158+05:30
Amravati,Maharashtra,20.9374,77.7796,29.3,29,0.0,973.7,8.25,22.3,45,11.2,9.4,4,5,7,0,2026-03-22T10:25:12.540165+05:30
Latur,Maharashtra,18.4088,76.5604,28.9,31,0.0,944.9,8.7,28.8,66,21.2,16.6,4,5,7,0,2026-03-22T10:25:12.540171+05:30
Nanded,Maharashtra,19.1383,77.3091,30.7,28,0.0,974.4,8.5,28.4,67,8.9,8.9,0,5,7,0,2026-03-22T10:25:12.540178+05:30
Gulbarga,Karnataka,17.3297,76.8343,30.9,46,0.0,963.3,8.75,18.4,75,36.6,27.6,0,5,7,1,2026-03-22T10:25:12.540183+05:30
Bidar,Karnataka,17.9104,77.5199,29.4,49,0.0,940.3,8.75,22.7,82,51.2,38.1,4,5,7,1,2026-03-22T10:25:12.540189+05:30
Hospet,Karnataka,15.2689,76.3909,29.0,50,0.0,959.6,9.0,15.1,72,33.8,22.9,4,5,7,1,2026-03-22T10:25:12.540195+05:30
Tirupur,Tamil Nadu,11.1085,77.3411,30.5,54,0.0,979.3,9.4,29.9,67,18.9,13.4,0,5,7,1,2026-03-22T10:25:12.540201+05:30
Alappuzha,Kerala,9.4981,76.3388,28.1,79,0.0,1011.9,9.15,31.7,62,22.8,19.3,7,0,4,1,2026-03-22T10:25:12.540207+05:30
Munnar,Kerala,10.0889,77.0595,28.3,44,0.0,861.7,9.65,28.4,68,23.6,14.1,4,5,7,0,2026-03-22T10:25:12.540214+05:30
Silchar,Assam,24.8333,92.7789,23.4,81,0.0,1010.3,7.95,23.4,98,15.5,13.7,3,0,4,1,2026-03-22T10:25:12.540220+05:30
Dibrugarh,Assam,27.4728,94.912,21.3,89,0.0,1000.2,1.65,28.4,119,44.0,34.5,3,5,0,1,2026-03-22T10:25:12.540226+05:30
