city,state,latitude,longitude,temp,humidity,rain,pressure,uv_index,wind_gusts,aqi,pm10,pm2_5,mosquito_risk,arthritis_risk,migraine_risk,frizz_risk,updated_at
Delhi,Delhi,28.6139,77.209,27.4,54,0.0,984.3,5.8,32.8,305,291.5,51.5,4,5,3,1,2026-04-03T18:40:41.972236+05:30
Mumbai,Maharashtra,19.076,72.8777,28.2,74,0.0,1009.0,7.45,25.2,85,57.5,23.5,7,0,4,1,2026-04-03T18:40:41.972274+05:30
Bangalore,Karnataka,12.9716,77.5946,30.8,39,0.0,911.5,9.6,26.6,183,38.4,34.7,0,5,7,0,2026-04-03T18:40:41.972289+05:30
Hyderabad,Telangana,17.385,78.4867,33.6,29,0.0,952.4,8.85,19.8,105,27.8,21.8,0,5,7,0,2026-04-03T18:40:41.972299+05:30
Chennai,Tamil Nadu,13.0827,80.2707,29.4,65,0.0,1007.3,9.3,36.7,46,11.3,8.8,7,5,4,1,2026-04-03T18:40:41.972308+05:30
Kolkata,West Bengal,22.5726,88.3639,31.0,69,0.0,1004.0,8.65,20.2,128,42.3,38.4,3,5,4,1,2026-04-03T18:40:41.972316+05:30
Pune,Maharashtra,18.5204,73.8567,29.6,45,0.0,948.8,8.5,36.4,151,42.4,35.5,4,5,7,1,2026-04-03T18:40:41.972327+05:30
Ahmedabad,Gujarat,23.0225,72.5714,30.6,40,0.0,1002.2,7.2,42.1,65,38.8,13.0,0,5,4,0,2026-04-03T18:40:41.972335+05:30
Jaipur,Rajasthan,26.9124,75.7873,26.0,57,0.0,960.3,7.45,55.8,129,135.5,27.6,4,5,7,1,2026-04-03T18:40:41.972342+05:30
Lucknow,Uttar Pradesh,26.8467,80.9462,31.6,46,0.0,993.2,6.75,28.8,103,154.1,41.1,0,5,7,1,2026-04-03T18:40:41.972350+05:30
Kanpur,Uttar Pradesh,26.4499,80.3319,30.7,53,0.0,991.7,5.2,26.3,154,190.9,38.1,0,5,3,1,2026-04-03T18:40:41.972357+05:30
Chandigarh,Chandigarh,30.7333,76.7794,21.4,83,0.0,971.0,5.85,49.3,107,70.3,31.8,3,5,3,1,2026-04-03T18:40:41.972364+05:30
Srinagar,Jammu and Kashmir,34.0837,74.7973,12.3,68,0.0,839.2,6.65,35.3,101,27.2,21.4,3,5,7,0,2026-04-03T18:40:41.972371+05:30
Jammu,Jammu and Kashmir,32.7266,74.857,20.6,88,0.1,974.4,5.1,35.3,74,23.2,13.8,6,5,3,1,2026-04-03T18:40:41.972379+05:30
Amritsar,Punjab,31.634,74.8723,20.3,89,0.0,982.0,4.55,57.6,90,35.9,16.1,3,5,3,1,2026-04-03T18:40:41.972385+05:30
Ludhiana,Punjab,30.901,75.8573,20.9,82,0.0,981.1,4.9,45.4,105,76.6,33.5,3,5,3,1,2026-04-03T18:40:41.972391+05:30
Jalandhar,Punjab,31.326,75.5762,20.7,86,0.0,982.1,5.85,41.8,87,59.8,25.6,3,5,3,1,2026-04-03T18:40:41.972399+05:30
Dehradun,Uttarakhand,30.6284,78.0322,18.0,69,0.0,831.9,5.7,34.2,83,28.8,15.2,3,5,3,0,2026-04-03T18:40:41.972406+05:30
Shimla,Himachal Pradesh,31.1048,77.1734,13.5,84,0.0,784.9,5.95,51.5,93,22.6,15.3,3,10,3,0,2026-04-03T18:40:41.972412+05:30
Manali,Himachal Pradesh,32.2396,77.1887,17.0,66,0.0,819.5,7.1,46.1,63,8.5,4.7,3,5,7,0,2026-04-03T18:40:41.972419+05:30
Gurgaon,Haryana,28.4595,77.0266,26.6,54,0.0,982.7,6.45,32.0,746,338.1,54.6,4,5,7,1,2026-04-03T18:40:41.972426+05:30
Noida,Uttar Pradesh,28.5355,77.391,27.3,57,0.0,985.8,6.1,29.5,746,338.1,54.6,4,5,7,1,2026-04-03T18:40:41.972432+05:30
Ghaziabad,Uttar Pradesh,28.6692,77.4538,26.2,66,0.0,984.1,6.25,30.6,193,295.2,69.2,7,5,7,1,2026-04-03T18:40:41.972441+05:30
Faridabad,Haryana,28.4089,77.3178,27.6,48,0.0,985.0,6.5,30.2,746,338.1,54.6,4,5,7,0,2026-04-03T18:40:41.972447+05:30
Meerut,Uttar Pradesh,28.9845,77.7064,25.8,70,0.0,982.9,6.1,26.3,193,295.2,69.2,7,5,7,1,2026-04-03T18:40:41.972454+05:30
Agra,Uttar Pradesh,27.1767,78.0081,30.9,36,0.0,988.1,7.35,35.6,583,797.2,90.3,0,5,7,0,2026-04-03T18:40:41.972460+05:30
Varanasi,Uttar Pradesh,25.3176,82.9739,32.0,47,0.0,996.7,7.8,32.0,118,29.8,23.4,0,5,7,1,2026-04-03T18:40:41.972469+05:30
Prayagraj,Uttar Pradesh,25.4358,81.8463,31.8,46,0.0,995.6,7.25,36.7,86,35.9,24.3,0,5,7,1,2026-04-03T18:40:41.972476+05:30
Gorakhpur,Uttar Pradesh,26.7606,83.3732,32.0,33,0.0,995.8,7.1,39.6,118,28.3,18.1,0,5,7,0,2026-04-03T18:40:41.972484+05:30
Bareilly,Uttar Pradesh,28.367,79.4304,28.1,56,0.0,987.3,6.25,19.1,120,100.4,44.5,4,5,7,1,2026-04-03T18:40:41.972490+05:30
Aligarh,Uttar Pradesh,27.8974,78.088,28.4,45,0.0,986.3,7.1,28.1,534,599.8,85.4,4,5,7,0,2026-04-03T18:40:41.972496+05:30
Moradabad,Uttar Pradesh,28.8386,78.7733,27.2,65,0.0,984.4,6.05,20.5,138,128.5,53.9,7,5,7,1,2026-04-03T18:40:41.972502+05:30
Saharanpur,Uttar Pradesh,29.9637,77.546,24.8,69,0.0,977.5,6.55,29.9,123,192.8,55.1,3,5,7,1,2026-04-03T18:40:41.972508+05:30
Jhansi,Uttar Pradesh,25.4484,78.5685,29.1,48,0.0,978.3,7.7,40.3,102,30.0,19.3,4,5,7,1,2026-04-03T18:40:45.219592+05:30
Surat,Gujarat,21.1702,72.8311,28.0,73,0.0,1007.3,7.65,30.6,94,48.7,30.3,7,5,4,1,2026-04-03T18:40:45.219622+05:30
Vadodara,Gujarat,22.3072,73.1812,31.6,42,0.0,1004.4,7.85,33.1,83,41.6,18.2,0,5,4,1,2026-04-03T18:40:45.219633+05:30
Rajkot,Gujarat,22.3039,70.8022,27.4,60,0.0,994.9,7.15,45.4,64,21.4,8.0,4,5,7,1,2026-04-03T18:40:45.219642+05:30
Thane,Maharashtra,19.2183,72.9781,28.2,68,0.0,1008.5,7.6,37.1,85,57.5,23.5,7,0,4,1,2026-04-03T18:40:45.219651+05:30
Nagpur,Maharashtra,21.1458,79.0882,31.6,49,0.0,973.3,8.7,23.4,140,34.8,28.5,0,5,7,1,2026-04-03T18:40:45.219658+05:30
Nashik,Maharashtra,19.9975,73.7898,27.7,52,0.0,945.9,7.95,40.0,68,30.9,13.7,4,5,7,1,2026-04-03T18:40:45.219666+05:30
Aurangabad,Maharashtra,19.8762,75.3433,30.3,41,0.0,944.5,8.85,29.5,113,39.8,30.2,0,5,7,0,2026-04-03T18:40:45.219673+05:30
Solapur,Maharashtra,17.6599,75.9064,32.1,39,0.0,957.1,8.95,50.8,140,28.5,22.8,0,5,7,1,2026-04-03T18:40:45.219681+05:30
Kolhapur,Maharashtra,16.705,74.2433,27.3,68,0.0,948.3,8.95,34.6,158,40.4,36.6,7,5,7,1,2026-04-03T18:40:45.219689+05:30
Goa,Goa,15.2993,74.124,29.4,72,0.0,998.4,9.0,31.7,79,25.8,19.6,7,5,7,1,2026-04-03T18:40:45.219697+05:30
Jodhpur,Rajasthan,26.2389,73.0243,28.0,36,0.0,982.6,6.9,44.6,139,247.7,33.9,4,5,7,0,2026-04-03T18:40:45.219704+05:30
Udaipur,Rajasthan,24.5854,73.7125,25.7,41,0.0,946.6,8.1,54.7,51,50.3,16.2,4,5,7,0,2026-04-03T18:40:45.219711+05:30
Kota,Rajasthan,25.2138,75.8648,32.9,26,0.0,977.8,7.85,48.2,66,30.5,13.3,0,5,7,0,2026-04-03T18:40:45.219718+05:30
Bikaner,Rajasthan,28.0229,73.3119,23.9,58,0.0,982.6,7.15,54.7,63,55.8,16.6,0,5,7,0,2026-04-03T18:40:45.219726+05:30
Ajmer,Rajasthan,26.4499,74.6399,24.6,61,0.0,954.7,7.55,59.8,80,55.3,17.1,3,5,7,1,2026-04-03T18:40:45.219733+05:30
Gwalior,Madhya Pradesh,26.2183,78.1828,28.7,53,0.0,983.3,7.65,42.1,86,49.9,22.3,4,5,7,1,2026-04-03T18:40:45.219741+05:30
Indore,Madhya Pradesh,22.7196,75.8577,30.6,32,0.0,948.0,8.3,37.1,87,24.8,15.4,0,5,7,0,2026-04-03T18:40:45.219748+05:30
Bhopal,Madhya Pradesh,23.2599,77.4126,28.5,54,0.0,953.3,7.9,31.7,96,24.6,20.7,4,5,7,1,2026-04-03T18:40:45.219754+05:30
Jabalpur,Madhya Pradesh,23.1815,79.9864,31.0,44,0.0,962.0,8.3,22.3,107,30.3,26.0,0,5,7,1,2026-04-03T18:40:45.219760+05:30
Ujjain,Madhya Pradesh,23.1765,75.7885,30.3,36,0.0,953.6,8.2,36.0,72,24.2,13.1,0,5,7,0,2026-04-03T18:40:45.219766+05:30
Visakhapatnam,Andhra Pradesh,17.6868,83.2185,28.4,75,0.0,1003.7,9.0,41.8,59,14.1,11.8,7,5,4,1,2026-04-03T18:40:45.219772+05:30
Vijayawada,Andhra Pradesh,16.5062,80.648,32.9,47,0.0,1001.5,8.5,31.0,47,14.0,13.1,0,5,4,1,2026-04-03T18:40:45.219778+05:30
Guntur,Andhra Pradesh,16.3067,80.4365,31.2,50,0.0,1003.0,8.45,32.8,47,14.0,12.6,0,5,4,1,2026-04-03T18:40:45.219784+05:30
Nellore,Andhra Pradesh,14.4426,79.9865,29.6,65,0.0,1005.6,9.25,34.2,87,11.2,9.2,7,5,4,1,2026-04-03T18:40:45.219790+05:30
Kurnool,Andhra Pradesh,15.8281,78.0373,36.2,22,0.0,975.2,8.8,20.5,86,24.0,17.0,0,5,10,0,2026-04-03T18:40:45.219797+05:30
Kakinada,Andhra Pradesh,16.9891,82.2475,29.9,64,0.0,1006.9,8.85,39.6,34,5.7,4.1,7,5,4,1,2026-04-03T18:40:45.219802+05:30
Tirupati,Andhra Pradesh,13.6288,79.4192,32.9,40,0.0,990.7,9.35,31.7,90,16.5,14.5,0,5,7,1,2026-04-03T18:40:45.219808+05:30
Warangal,Telangana,17.9689,79.5941,34.0,44,0.0,977.4,8.75,17.6,84,28.5,23.2,0,5,7,1,2026-04-03T18:40:45.219813+05:30
Nizamabad,Telangana,18.6725,78.0941,32.7,42,0.0,964.2,8.4,25.9,121,42.6,35.5,0,5,7,1,2026-04-03T18:40:45.219819+05:30
Mysore,Karnataka,12.2958,76.6396,26.9,65,0.0,928.9,9.5,45.7,150,25.3,21.8,7,5,7,1,2026-04-03T18:40:45.219825+05:30
Mangalore,Karnataka,12.9141,74.856,29.6,80,0.0,1006.8,9.15,24.5,97,19.6,14.6,7,5,4,1,2026-04-03T18:40:45.219830+05:30
Hubli-Dharwad,Karnataka,15.3647,75.124,28.6,62,0.0,940.9,9.2,38.9,160,28.6,25.1,7,5,7,1,2026-04-03T18:40:45.219836+05:30
Belgaum,Karnataka,15.8497,74.4977,26.0,73,0.0,926.0,9.25,33.1,161,26.9,24.4,7,5,7,1,2026-04-03T18:40:48.465149+05:30
Coimbatore,Tamil Nadu,11.0168,76.9558,27.9,66,0.0,962.0,9.45,45.0,138,23.7,21.4,7,5,7,1,2026-04-03T18:40:48.465175+05:30
Madurai,Tamil Nadu,9.9252,78.1198,28.7,71,0.0,993.9,9.2,34.6,103,18.9,17.6,7,5,7,1,2026-04-03T18:40:48.465184+05:30
Trichy,Tamil Nadu,10.7905,78.7047,32.1,58,0.0,999.3,9.4,34.6,90,16.8,15.9,0,5,7,1,2026-04-03T18:40:48.465191+05:30
Salem,Tamil Nadu,11.6643,78.146,35.3,33,0.0,976.2,9.45,33.1,116,16.4,14.8,0,5,10,1,2026-04-03T18:40:48.465199+05:30
Tirunelveli,Tamil Nadu,8.7139,77.7567,28.8,76,0.0,1004.2,9.35,37.1,85,19.1,17.3,7,5,4,1,2026-04-03T18:40:48.465205+05:30
Vellore,Tamil Nadu,12.9165,79.1325,32.3,37,0.0,983.9,9.4,37.1,117,29.6,27.7,0,5,7,0,2026-04-03T18:40:48.465213+05:30
Erode,Tamil Nadu,11.341,77.7172,35.8,32,0.0,987.5,9.4,29.2,115,16.4,14.6,0,5,10,1,2026-04-03T18:40:48.465219+05:30
Kochi,Kerala,9.9312,76.2673,29.6,77,0.0,1009.0,9.05,24.1,116,21.7,19.1,7,0,4,1,2026-04-03T18:40:48.465225+05:30
Thiruvananthapuram,Kerala,8.5241,76.9366,28.8,79,0.0,1008.8,9.0,23.8,91,22.9,17.2,7,0,4,1,2026-04-03T18:40:48.465230+05:30
Kozhikode,Kerala,11.2588,75.7804,29.9,77,0.0,1008.0,9.15,25.2,73,16.5,13.4,7,0,4,1,2026-04-03T18:40:48.465236+05:30
Thrissur,Kerala,10.5276,76.2144,30.0,73,0.0,1007.3,9.2,30.2,84,20.9,18.6,7,5,4,1,2026-04-03T18:40:48.465242+05:30
Kannur,Kerala,11.8745,75.3704,30.2,72,0.0,1007.5,9.15,27.4,76,19.3,15.5,3,5,4,1,2026-04-03T18:40:48.465248+05:30
Patna,Bihar,25.5941,85.1376,34.4,33,0.0,998.1,8.3,36.4,148,28.5,25.4,0,5,7,0,2026-04-03T18:40:48.465254+05:30
Gaya,Bihar,24.7914,85.0002,32.7,41,0.0,992.0,8.4,27.0,151,30.3,25.6,0,5,7,1,2026-04-03T18:40:48.465260+05:30
Muzaffarpur,Bihar,26.1209,85.3647,32.7,32,0.0,998.0,8.25,39.2,135,27.6,23.2,0,5,7,0,2026-04-03T18:40:48.465266+05:30
Bhagalpur,Bihar,25.2425,87.0117,32.2,49,0.0,998.5,8.3,23.8,142,41.4,28.0,0,5,7,1,2026-04-03T18:40:48.465271+05:30
Ranchi,Jharkhand,23.3441,85.3096,32.0,28,0.0,937.8,8.95,26.6,122,25.0,21.7,0,5,7,0,2026-04-03T18:40:48.465277+05:30
Jamshedpur,Jharkhand,22.8046,86.2029,34.7,43,0.0,988.9,8.8,23.4,183,37.4,30.4,0,5,7,1,2026-04-03T18:40:48.465283+05:30
Dhanbad,Jharkhand,23.7957,86.4304,36.0,25,0.0,977.8,8.7,21.6,151,46.9,41.8,0,5,10,0,2026-04-03T18:40:48.465288+05:30
Bokaro,Jharkhand,23.6693,86.1511,34.9,34,0.0,982.0,8.7,19.8,150,44.2,39.9,0,5,7,1,2026-04-03T18:40:48.465294+05:30
Bhubaneswar,Odisha,20.2961,85.8245,30.0,71,0.0,1002.1,8.95,30.2,111,21.4,18.9,7,5,4,1,2026-04-03T18:40:48.465300+05:30
Cuttack,Odisha,20.4625,85.8828,32.3,61,0.0,1003.5,9.0,37.8,111,21.4,18.9,3,5,4,1,2026-04-03T18:40:48.465306+05:30
Rourkela,Odisha,22.2604,84.8536,34.7,35,0.0,983.8,8.7,26.6,178,46.9,41.1,0,5,7,1,2026-04-03T18:40:48.465312+05:30
Raipur,Chhattisgarh,21.2514,81.6296,34.8,35,0.0,974.0,8.8,26.3,167,53.7,48.4,0,5,7,1,2026-04-03T18:40:48.465317+05:30
Bhilai,Chhattisgarh,21.1938,81.3509,33.6,38,0.0,974.4,8.8,27.7,138,45.9,40.3,0,5,7,1,2026-04-03T18:40:48.465323+05:30
Guwahati,Assam,26.1158,91.7086,27.4,82,0.0,1000.6,8.25,43.6,141,62.9,54.8,7,5,4,1,2026-04-03T18:40:48.465329+05:30
Agartala,Tripura,23.8315,91.2868,30.4,71,0.0,1003.9,8.45,23.8,97,48.9,42.6,3,5,4,1,2026-04-03T18:40:48.465334+05:30
Shillong,Meghalaya,25.5788,91.8933,16.6,80,0.0,856.2,8.55,55.1,116,47.5,39.3,3,5,7,0,2026-04-03T18:40:48.465340+05:30
Imphal,Manipur,24.817,93.9368,20.5,79,0.0,922.8,8.85,60.8,118,58.7,48.8,3,5,7,1,2026-04-03T18:40:48.465346+05:30
Aizawl,Mizoram,23.7271,92.7176,23.0,71,0.0,892.6,8.7,52.9,124,53.6,39.2,3,5,7,1,2026-04-03T18:40:48.465352+05:30
Kohima,Nagaland,25.6701,94.1077,16.9,97,0.0,855.0,8.75,80.3,104,53.8,42.5,3,10,7,1,2026-04-03T18:40:48.465357+05:30
Gangtok,Sikkim,27.3314,88.6138,18.2,87,0.0,837.8,7.55,19.1,123,59.0,47.5,3,10,7,0,2026-04-03T18:40:48.465363+05:30
Siliguri,West Bengal,26.7271,88.3953,25.4,73,0.0,992.6,8.2,18.7,153,70.8,55.3,7,5,7,1,2026-04-03T18:40:51.717575+05:30
Durgapur,West Bengal,23.5204,87.3119,35.5,37,0.0,992.4,8.65,17.3,174,69.4,62.6,0,5,10,1,2026-04-03T18:40:51.717604+05:30
Asansol,West Bengal,23.6739,86.9524,35.0,38,0.0,990.9,8.65,16.9,163,50.5,44.1,0,5,7,1,2026-04-03T18:40:51.717616+05:30
Pondicherry,Puducherry,11.9139,79.8145,29.2,71,0.0,1008.3,9.3,34.6,46,13.1,9.6,7,0,4,1,2026-04-03T18:40:51.717625+05:30
Port Blair,Andaman and Nicobar Islands,11.6234,92.7265,28.7,75,0.0,1007.8,9.2,22.7,44,19.6,10.5,7,5,4,1,2026-04-03T18:40:51.717633+05:30
Haridwar,Uttarakhand,29.9457,78.1642,26.3,70,0.0,975.8,6.15,22.0,123,134.6,53.1,7,5,7,1,2026-04-03T18:40:51.717642+05:30
Rishikesh,Uttarakhand,30.0869,78.2676,26.1,60,0.0,968.7,5.6,23.8,116,73.8,33.4,4,5,3,1,2026-04-03T18:40:51.717650+05:30
Nainital,Uttarakhand,29.3919,79.4542,20.5,58,0.0,808.1,5.0,36.4,112,56.7,28.3,0,5,3,0,2026-04-03T18:40:51.717658+05:30
Mussoorie,Uttarakhand,30.4599,78.0664,18.3,62,0.0,804.6,5.6,45.4,113,66.4,31.8,3,5,3,0,2026-04-03T18:40:51.717666+05:30
Dharamshala,Himachal Pradesh,32.219,76.3234,15.8,97,0.1,869.4,4.55,51.5,55,11.2,6.5,6,10,3,0,2026-04-03T18:40:51.717674+05:30
Dalhousie,Himachal Pradesh,32.5387,75.971,13.1,88,0.1,803.0,4.95,50.4,58,24.0,15.8,6,10,3,0,2026-04-03T18:40:51.717682+05:30
Patiala,Punjab,30.3398,76.3869,22.2,74,0.0,980.3,5.55,42.8,121,217.5,42.4,3,5,3,1,2026-04-03T18:40:51.717690+05:30
Bhatinda,Punjab,30.211,74.9455,22.3,77,0.0,985.2,6.45,44.6,87,93.6,21.7,3,5,7,1,2026-04-03T18:40:51.717698+05:30
Rohtak,Haryana,28.8955,76.6066,26.6,55,0.0,983.0,5.9,31.7,446,258.9,44.4,4,5,3,1,2026-04-03T18:40:51.717706+05:30
Panipat,Haryana,29.3909,76.9635,25.6,65,0.0,981.9,6.2,43.9,762,273.8,49.7,7,5,7,1,2026-04-03T18:40:51.717714+05:30
Mathura,Uttar Pradesh,27.4924,77.6737,29.4,39,0.0,987.4,7.25,31.7,646,432.1,57.7,4,5,7,0,2026-04-03T18:40:51.717721+05:30
Vrindavan,Uttar Pradesh,27.5823,77.7027,29.0,43,0.0,988.0,7.2,34.9,646,432.1,57.7,4,5,7,0,2026-04-03T18:40:51.717729+05:30
Ayodhya,Uttar Pradesh,26.7922,82.1998,30.7,44,0.0,994.5,6.6,36.0,103,54.1,26.3,0,5,7,1,2026-04-03T18:40:51.717737+05:30
Ratlam,Madhya Pradesh,23.3315,75.0367,29.4,40,0.0,954.6,8.15,42.8,68,24.1,11.6,4,5,7,0,2026-04-03T18:40:51.717744+05:30
Sagar,Madhya Pradesh,23.8388,78.7378,31.1,35,0.0,950.7,7.5,26.6,94,23.7,18.0,0,5,7,0,2026-04-03T18:40:51.717752+05:30
Satna,Madhya Pradesh,24.6005,80.8322,33.1,35,0.0,971.7,7.65,36.0,96,24.0,20.7,0,5,7,0,2026-04-03T18:40:51.717760+05:30
Akola,Maharashtra,20.7002,77.0082,32.3,47,0.0,974.6,8.6,31.3,131,40.4,36.4,0,5,7,1,2026-04-03T18:40:51.717768+05:30
Amravati,Maharashtra,20.9374,77.7796,31.0,50,0.0,967.5,8.65,43.6,133,44.8,40.2,0,5,7,1,2026-04-03T18:40:51.717776+05:30
Latur,Maharashtra,18.4088,76.5604,29.9,48,0.0,939.2,8.8,33.5,125,35.0,28.7,4,5,7,1,2026-04-03T18:40:51.717784+05:30
Nanded,Maharashtra,19.1383,77.3091,31.5,46,0.0,968.4,8.3,29.5,130,37.4,29.6,0,5,7,1,2026-04-03T18:40:51.717791+05:30
Gulbarga,Karnataka,17.3297,76.8343,36.1,21,0.0,957.2,8.5,36.7,164,23.8,19.7,0,5,10,0,2026-04-03T18:40:51.717799+05:30
Bidar,Karnataka,17.9104,77.5199,33.7,28,0.0,934.8,8.3,33.5,116,24.7,19.6,0,5,7,0,2026-04-03T18:40:51.717806+05:30
Hospet,Karnataka,15.2689,76.3909,35.0,21,0.0,954.9,9.2,36.4,179,26.9,23.0,0,5,7,0,2026-04-03T18:40:51.717814+05:30
Tirupur,Tamil Nadu,11.1085,77.3411,31.7,52,0.0,974.8,9.5,43.6,151,21.5,19.2,0,5,7,1,2026-04-03T18:40:51.717821+05:30
Alappuzha,Kerala,9.4981,76.3388,29.5,78,0.0,1009.1,9.2,23.0,104,21.2,16.7,7,0,4,1,2026-04-03T18:40:51.717828+05:30
Munnar,Kerala,10.0889,77.0595,22.6,87,0.0,857.9,8.0,29.2,66,15.2,14.3,3,5,7,1,2026-04-03T18:40:51.717836+05:30
Silchar,Assam,24.8333,92.7789,28.6,73,0.0,1003.6,8.5,29.2,150,79.6,66.8,7,5,4,1,2026-04-03T18:40:51.717844+05:30
Dibrugarh,Assam,27.4728,94.912,26.1,76,0.0,995.2,8.3,12.6,99,47.1,41.1,7,5,7,1,2026-04-03T18:40:51.717851+05:30
