city,state,latitude,longitude,temp,humidity,rain,pressure,uv_index,wind_gusts,aqi,pm10,pm2_5,mosquito_risk,arthritis_risk,migraine_risk,frizz_risk,updated_at
Delhi,Delhi,28.6139,77.209,31.2,27,0.0,983.9,6.0,29.2,371,330.6,60.3,0,5,3,0,2026-03-13T15:13:08.235852+05:30
Mumbai,Maharashtra,19.076,72.8777,29.0,74,0.0,1006.5,7.65,23.8,151,60.8,57.5,7,5,4,1,2026-03-13T15:13:08.235893+05:30
Bangalore,Karnataka,12.9716,77.5946,32.6,24,0.0,911.3,9.3,28.8,84,42.1,32.8,0,5,7,0,2026-03-13T15:13:08.235909+05:30
Hyderabad,Telangana,17.385,78.4867,37.3,15,0.0,952.5,8.65,19.1,102,48.1,32.8,0,5,10,0,2026-03-13T15:13:08.235918+05:30
Chennai,Tamil Nadu,13.0827,80.2707,32.9,49,0.0,1006.9,9.05,32.4,67,18.6,13.9,0,5,4,1,2026-03-13T15:13:08.235926+05:30
Kolkata,West Bengal,22.5726,88.3639,33.8,48,0.0,1004.2,8.0,29.2,138,60.8,40.6,0,5,4,1,2026-03-13T15:13:08.235933+05:30
Pune,Maharashtra,18.5204,73.8567,38.2,15,0.0,947.3,8.2,37.8,147,24.6,20.5,0,5,10,0,2026-03-13T15:13:08.235945+05:30
Ahmedabad,Gujarat,23.0225,72.5714,38.8,17,0.0,1000.9,7.5,22.3,96,54.2,24.8,0,5,7,0,2026-03-13T15:13:08.235951+05:30
Jaipur,Rajasthan,26.9124,75.7873,35.7,20,0.0,959.9,6.95,27.0,113,120.1,31.3,0,5,10,0,2026-03-13T15:13:08.235958+05:30
Lucknow,Uttar Pradesh,26.8467,80.9462,34.8,27,0.0,992.7,5.95,28.4,173,132.2,48.0,0,5,3,0,2026-03-13T15:13:08.235964+05:30
Kanpur,Uttar Pradesh,26.4499,80.3319,34.1,33,0.0,991.4,6.35,18.7,288,255.2,56.5,0,5,7,0,2026-03-13T15:13:08.235971+05:30
Chandigarh,Chandigarh,30.7333,76.7794,29.3,39,0.0,969.5,5.15,29.5,84,41.6,23.2,4,5,3,0,2026-03-13T15:13:08.235977+05:30
Srinagar,Jammu and Kashmir,34.0837,74.7973,16.3,47,0.0,843.9,6.85,14.4,70,22.5,11.1,0,5,7,0,2026-03-13T15:13:08.235984+05:30
Jammu,Jammu and Kashmir,32.7266,74.857,30.4,29,0.0,974.0,6.45,24.8,79,20.0,8.9,0,5,7,0,2026-03-13T15:13:08.235990+05:30
Amritsar,Punjab,31.634,74.8723,28.5,39,0.0,982.7,6.05,25.6,100,23.7,11.7,4,5,7,0,2026-03-13T15:13:08.235996+05:30
Ludhiana,Punjab,30.901,75.8573,29.0,38,0.0,980.1,5.75,27.7,112,41.6,24.7,4,5,3,0,2026-03-13T15:13:08.236002+05:30
Jalandhar,Punjab,31.326,75.5762,28.6,38,0.0,981.3,5.65,25.6,113,60.1,19.9,4,5,3,0,2026-03-13T15:13:08.236010+05:30
Dehradun,Uttarakhand,30.6284,78.0322,21.3,39,0.0,831.7,6.0,28.8,42,34.5,11.3,0,5,3,0,2026-03-13T15:13:08.236016+05:30
Shimla,Himachal Pradesh,31.1048,77.1734,18.5,45,0.0,786.7,5.2,39.2,55,29.0,9.5,0,5,3,0,2026-03-13T15:13:08.236022+05:30
Manali,Himachal Pradesh,32.2396,77.1887,19.5,19,0.0,821.2,8.15,38.5,50,23.2,6.6,0,5,7,1,2026-03-13T15:13:08.236029+05:30
Gurgaon,Haryana,28.4595,77.0266,31.5,26,0.0,982.4,6.1,28.1,1144,1095.2,123.4,0,5,7,0,2026-03-13T15:13:08.236035+05:30
Noida,Uttar Pradesh,28.5355,77.391,31.9,25,0.0,985.3,5.95,28.8,1144,1095.2,123.4,0,5,3,0,2026-03-13T15:13:08.236042+05:30
Ghaziabad,Uttar Pradesh,28.6692,77.4538,30.6,29,0.0,983.5,5.85,27.7,208,186.3,45.4,0,5,3,0,2026-03-13T15:13:08.236048+05:30
Faridabad,Haryana,28.4089,77.3178,31.8,25,0.0,984.7,6.0,27.7,1144,1095.2,123.4,0,5,3,0,2026-03-13T15:13:08.236055+05:30
Meerut,Uttar Pradesh,28.9845,77.7064,30.2,33,0.0,982.1,5.3,27.7,208,186.3,45.4,0,5,3,0,2026-03-13T15:13:08.236061+05:30
Agra,Uttar Pradesh,27.1767,78.0081,35.8,27,0.0,987.7,6.2,24.8,561,627.7,88.2,0,5,10,0,2026-03-13T15:13:08.236068+05:30
Varanasi,Uttar Pradesh,25.3176,82.9739,35.2,26,0.0,996.5,7.35,25.2,138,214.2,44.7,0,5,10,0,2026-03-13T15:13:08.236077+05:30
Prayagraj,Uttar Pradesh,25.4358,81.8463,35.2,27,0.0,995.1,7.05,21.6,153,226.3,51.3,0,5,10,0,2026-03-13T15:13:08.236084+05:30
Gorakhpur,Uttar Pradesh,26.7606,83.3732,32.9,42,0.0,995.3,7.0,28.4,180,189.1,92.0,0,5,7,1,2026-03-13T15:13:08.236090+05:30
Bareilly,Uttar Pradesh,28.367,79.4304,32.3,32,0.0,986.4,6.4,26.6,154,65.9,39.5,0,5,7,0,2026-03-13T15:13:08.236096+05:30
Aligarh,Uttar Pradesh,27.8974,78.088,33.9,23,0.0,985.8,6.0,28.8,647,640.7,92.2,0,5,3,0,2026-03-13T15:13:08.236102+05:30
Moradabad,Uttar Pradesh,28.8386,78.7733,31.4,30,0.0,983.7,5.65,27.4,152,61.2,34.5,0,5,3,0,2026-03-13T15:13:08.236110+05:30
Saharanpur,Uttar Pradesh,29.9637,77.546,29.8,42,0.0,976.1,4.85,27.4,139,63.1,27.8,4,5,3,0,2026-03-13T15:13:08.236116+05:30
Jhansi,Uttar Pradesh,25.4484,78.5685,36.5,19,0.0,977.7,6.85,20.9,68,127.6,35.2,0,5,10,0,2026-03-13T15:13:11.490012+05:30
Surat,Gujarat,21.1702,72.8311,34.8,34,0.0,1005.8,7.35,23.8,147,53.6,46.2,0,5,4,1,2026-03-13T15:13:11.490039+05:30
Vadodara,Gujarat,22.3072,73.1812,39.4,15,0.0,1003.2,7.5,23.8,107,26.6,17.4,0,5,7,0,2026-03-13T15:13:11.490048+05:30
Rajkot,Gujarat,22.3039,70.8022,37.7,16,0.0,993.4,7.3,33.1,86,39.8,16.3,0,5,10,0,2026-03-13T15:13:11.490057+05:30
Thane,Maharashtra,19.2183,72.9781,33.1,48,0.0,1006.3,7.65,38.2,151,60.8,57.5,0,5,4,1,2026-03-13T15:13:11.490064+05:30
Nagpur,Maharashtra,21.1458,79.0882,38.2,15,0.0,972.0,8.05,19.4,89,26.9,19.6,0,5,10,0,2026-03-13T15:13:11.490072+05:30
Nashik,Maharashtra,19.9975,73.7898,36.6,15,0.0,944.9,7.85,34.9,85,18.7,16.3,0,5,10,0,2026-03-13T15:13:11.490079+05:30
Aurangabad,Maharashtra,19.8762,75.3433,36.6,16,0.0,943.6,8.35,29.5,125,19.6,17.6,0,5,10,0,2026-03-13T15:13:11.490087+05:30
Solapur,Maharashtra,17.6599,75.9064,36.7,20,0.0,955.9,8.6,24.1,91,32.0,26.3,0,5,10,0,2026-03-13T15:13:11.490094+05:30
Kolhapur,Maharashtra,16.705,74.2433,35.5,23,0.0,946.9,8.7,47.9,153,29.9,25.1,0,5,10,0,2026-03-13T15:13:11.490101+05:30
Goa,Goa,15.2993,74.124,31.4,63,0.0,996.6,8.7,31.3,140,41.4,35.5,3,5,7,1,2026-03-13T15:13:11.490109+05:30
Jodhpur,Rajasthan,26.2389,73.0243,36.8,20,0.0,982.6,6.9,18.7,77,175.6,33.8,0,5,10,0,2026-03-13T15:13:11.490116+05:30
Udaipur,Rajasthan,24.5854,73.7125,35.6,11,0.0,947.0,7.85,30.2,51,25.2,12.3,0,5,10,0,2026-03-13T15:13:11.490122+05:30
Kota,Rajasthan,25.2138,75.8648,37.7,17,0.0,978.3,7.1,17.6,72,63.1,18.9,0,5,10,0,2026-03-13T15:13:11.490129+05:30
Bikaner,Rajasthan,28.0229,73.3119,34.1,17,0.0,983.0,6.6,24.8,81,31.0,17.1,0,5,7,0,2026-03-13T15:13:11.490136+05:30
Ajmer,Rajasthan,26.4499,74.6399,34.7,21,0.0,954.9,7.05,22.0,71,146.2,35.5,0,5,7,0,2026-03-13T15:13:11.490142+05:30
Gwalior,Madhya Pradesh,26.2183,78.1828,33.4,34,0.0,983.4,6.8,21.2,99,133.6,42.8,0,5,7,0,2026-03-13T15:13:11.490149+05:30
Indore,Madhya Pradesh,22.7196,75.8577,36.8,9,0.0,948.2,7.75,32.4,65,10.2,8.8,0,5,10,1,2026-03-13T15:13:11.490155+05:30
Bhopal,Madhya Pradesh,23.2599,77.4126,36.7,12,0.0,953.9,7.55,31.0,77,16.7,15.4,0,5,10,0,2026-03-13T15:13:11.490163+05:30
Jabalpur,Madhya Pradesh,23.1815,79.9864,36.1,19,0.0,961.2,7.75,20.2,79,17.1,13.4,0,5,10,0,2026-03-13T15:13:11.490170+05:30
Ujjain,Madhya Pradesh,23.1765,75.7885,36.3,9,0.0,954.0,7.7,26.3,55,11.7,7.8,0,5,10,1,2026-03-13T15:13:11.490178+05:30
Visakhapatnam,Andhra Pradesh,17.6868,83.2185,31.3,60,0.0,1003.2,8.65,40.3,90,27.8,23.3,0,5,4,1,2026-03-13T15:13:11.490185+05:30
Vijayawada,Andhra Pradesh,16.5062,80.648,35.5,41,0.0,1001.4,8.75,31.3,91,28.1,22.6,0,5,7,1,2026-03-13T15:13:11.490191+05:30
Guntur,Andhra Pradesh,16.3067,80.4365,34.8,41,0.0,1003.0,8.75,33.8,85,34.0,26.3,0,5,4,1,2026-03-13T15:13:11.490198+05:30
Nellore,Andhra Pradesh,14.4426,79.9865,35.3,41,0.0,1004.8,8.9,30.2,75,28.9,24.0,0,5,7,1,2026-03-13T15:13:11.490205+05:30
Kurnool,Andhra Pradesh,15.8281,78.0373,38.7,15,0.0,975.4,8.75,23.8,94,47.6,34.2,0,5,10,0,2026-03-13T15:13:11.490213+05:30
Kakinada,Andhra Pradesh,16.9891,82.2475,34.3,48,0.0,1006.5,8.7,34.6,79,20.4,15.5,0,5,4,1,2026-03-13T15:13:11.490220+05:30
Tirupati,Andhra Pradesh,13.6288,79.4192,34.8,29,0.0,990.3,9.05,33.5,100,30.3,24.0,0,5,7,0,2026-03-13T15:13:11.490227+05:30
Warangal,Telangana,17.9689,79.5941,36.8,29,0.0,977.5,8.5,28.8,116,48.7,36.9,0,5,10,0,2026-03-13T15:13:11.490235+05:30
Nizamabad,Telangana,18.6725,78.0941,37.2,18,0.0,963.8,8.4,19.1,121,29.2,22.6,0,5,10,0,2026-03-13T15:13:11.490241+05:30
Mysore,Karnataka,12.2958,76.6396,33.0,21,0.0,927.8,9.3,29.9,78,39.9,31.1,0,5,7,0,2026-03-13T15:13:11.490248+05:30
Mangalore,Karnataka,12.9141,74.856,28.8,83,0.0,1004.8,8.95,23.0,117,42.0,35.9,7,5,4,1,2026-03-13T15:13:11.490255+05:30
Hubli-Dharwad,Karnataka,15.3647,75.124,35.3,23,0.0,939.9,8.9,33.5,76,29.9,24.6,0,5,10,0,2026-03-13T15:13:11.490262+05:30
Belgaum,Karnataka,15.8497,74.4977,33.1,35,0.0,925.3,8.95,41.0,113,28.9,24.4,0,5,7,0,2026-03-13T15:13:14.743035+05:30
Coimbatore,Tamil Nadu,11.0168,76.9558,34.6,23,0.0,960.3,9.25,42.8,80,34.0,26.1,0,5,7,0,2026-03-13T15:13:14.743057+05:30
Madurai,Tamil Nadu,9.9252,78.1198,35.9,32,0.0,990.9,9.25,26.6,82,14.5,10.8,0,5,10,1,2026-03-13T15:13:14.743066+05:30
Trichy,Tamil Nadu,10.7905,78.7047,34.7,40,0.0,998.2,9.15,23.0,87,19.0,14.9,0,5,7,1,2026-03-13T15:13:14.743074+05:30
Salem,Tamil Nadu,11.6643,78.146,34.7,33,0.0,975.9,9.2,24.8,100,43.1,34.3,0,5,7,1,2026-03-13T15:13:14.743080+05:30
Tirunelveli,Tamil Nadu,8.7139,77.7567,34.9,43,0.0,1001.0,9.2,31.3,64,13.0,9.8,0,5,4,1,2026-03-13T15:13:14.743086+05:30
Vellore,Tamil Nadu,12.9165,79.1325,34.7,29,0.0,983.5,9.1,33.1,106,33.4,27.8,0,5,7,0,2026-03-13T15:13:14.743093+05:30
Erode,Tamil Nadu,11.341,77.7172,35.9,31,0.0,987.4,9.15,23.8,85,34.8,27.4,0,5,10,1,2026-03-13T15:13:14.743099+05:30
Kochi,Kerala,9.9312,76.2673,28.6,81,0.0,1006.5,9.1,33.8,98,31.5,27.9,7,5,4,1,2026-03-13T15:13:14.743106+05:30
Thiruvananthapuram,Kerala,8.5241,76.9366,28.8,77,0.0,1005.7,9.1,24.1,61,21.5,18.5,7,5,4,1,2026-03-13T15:13:14.743112+05:30
Kozhikode,Kerala,11.2588,75.7804,29.8,76,0.0,1006.1,8.95,29.9,95,28.5,25.8,7,5,4,1,2026-03-13T15:13:14.743118+05:30
Thrissur,Kerala,10.5276,76.2144,32.1,64,0.0,1004.8,9.05,37.1,99,32.6,26.7,3,5,4,1,2026-03-13T15:13:14.743125+05:30
Kannur,Kerala,11.8745,75.3704,30.7,70,0.0,1005.6,9.0,28.1,107,39.5,33.2,3,5,4,1,2026-03-13T15:13:14.743131+05:30
Patna,Bihar,25.5941,85.1376,32.6,42,0.0,998.9,7.5,23.0,178,169.0,91.0,0,5,7,1,2026-03-13T15:13:14.743137+05:30
Gaya,Bihar,24.7914,85.0002,33.2,33,0.0,992.8,7.6,19.4,152,179.3,42.0,0,5,7,0,2026-03-13T15:13:14.743143+05:30
Muzaffarpur,Bihar,26.1209,85.3647,32.3,47,0.0,998.5,7.45,24.8,182,148.5,93.8,0,5,7,1,2026-03-13T15:13:14.743149+05:30
Bhagalpur,Bihar,25.2425,87.0117,32.8,45,0.0,998.9,7.5,26.6,175,137.8,89.9,0,5,7,1,2026-03-13T15:13:14.743155+05:30
Ranchi,Jharkhand,23.3441,85.3096,33.7,16,0.0,937.8,8.2,26.3,92,27.1,11.3,0,5,7,0,2026-03-13T15:13:14.743160+05:30
Jamshedpur,Jharkhand,22.8046,86.2029,36.2,24,0.0,989.2,8.1,16.6,161,48.4,24.9,0,5,10,0,2026-03-13T15:13:14.743166+05:30
Dhanbad,Jharkhand,23.7957,86.4304,36.3,18,0.0,978.5,8.0,26.3,175,66.8,30.0,0,5,10,0,2026-03-13T15:13:14.743172+05:30
Bokaro,Jharkhand,23.6693,86.1511,36.1,18,0.0,982.4,8.0,26.6,156,55.4,20.6,0,5,10,0,2026-03-13T15:13:14.743178+05:30
Bhubaneswar,Odisha,20.2961,85.8245,33.2,53,0.0,1001.7,8.4,33.5,107,43.0,34.3,0,5,4,1,2026-03-13T15:13:14.743184+05:30
Cuttack,Odisha,20.4625,85.8828,35.9,41,0.0,1002.9,8.45,28.1,107,43.0,34.3,0,5,7,1,2026-03-13T15:13:14.743189+05:30
Rourkela,Odisha,22.2604,84.8536,37.6,16,0.0,983.5,8.0,19.4,102,45.3,18.7,0,5,10,0,2026-03-13T15:13:14.743195+05:30
Raipur,Chhattisgarh,21.2514,81.6296,38.4,13,0.0,973.3,8.15,18.0,147,40.4,25.5,0,5,10,0,2026-03-13T15:13:14.743201+05:30
Bhilai,Chhattisgarh,21.1938,81.3509,39.0,13,0.0,973.6,8.15,14.8,145,39.7,26.3,0,5,10,0,2026-03-13T15:13:14.743207+05:30
Guwahati,Assam,26.1158,91.7086,23.6,85,0.0,1001.1,6.9,29.9,160,54.5,49.6,3,5,4,1,2026-03-13T15:13:14.743212+05:30
Agartala,Tripura,23.8315,91.2868,28.0,72,0.0,1005.3,7.6,32.8,144,52.5,45.6,7,5,4,1,2026-03-13T15:13:14.743219+05:30
Shillong,Meghalaya,25.5788,91.8933,16.4,78,0.0,854.6,7.0,56.9,151,36.0,32.1,3,5,7,0,2026-03-13T15:13:14.743225+05:30
Imphal,Manipur,24.817,93.9368,20.4,72,0.0,922.0,7.4,61.2,156,78.2,65.2,3,5,7,0,2026-03-13T15:13:14.743230+05:30
Aizawl,Mizoram,23.7271,92.7176,21.1,73,0.0,892.7,7.15,76.0,153,65.0,56.8,3,5,7,1,2026-03-13T15:13:14.743236+05:30
Kohima,Nagaland,25.6701,94.1077,17.1,83,0.0,853.2,6.25,82.8,137,65.9,58.6,3,10,7,0,2026-03-13T15:13:14.743242+05:30
Gangtok,Sikkim,27.3314,88.6138,17.7,79,0.0,835.8,4.55,15.8,114,26.7,24.1,3,5,3,0,2026-03-13T15:13:14.743248+05:30
Siliguri,West Bengal,26.7271,88.3953,22.5,82,0.0,992.7,7.3,29.5,160,50.3,46.0,3,5,7,1,2026-03-13T15:13:17.998044+05:30
Durgapur,West Bengal,23.5204,87.3119,36.6,16,0.0,993.1,7.95,26.3,175,91.3,47.3,0,5,10,0,2026-03-13T15:13:17.998068+05:30
Asansol,West Bengal,23.6739,86.9524,36.2,19,0.0,991.8,7.95,23.4,174,80.6,39.7,0,5,10,0,2026-03-13T15:13:17.998078+05:30
Pondicherry,Puducherry,11.9139,79.8145,33.6,49,0.0,1007.4,9.0,27.7,63,17.5,12.3,0,5,4,1,2026-03-13T15:13:17.998085+05:30
Port Blair,Andaman and Nicobar Islands,11.6234,92.7265,28.9,70,0.0,1006.0,8.95,22.3,65,10.6,8.2,7,5,4,1,2026-03-13T15:13:17.998092+05:30
Haridwar,Uttarakhand,29.9457,78.1642,30.6,37,0.0,974.4,5.45,29.5,92,40.5,18.5,0,5,3,0,2026-03-13T15:13:17.998098+05:30
Rishikesh,Uttarakhand,30.0869,78.2676,30.4,34,0.0,967.1,5.7,30.2,69,36.1,15.1,0,5,3,0,2026-03-13T15:13:17.998105+05:30
Nainital,Uttarakhand,29.3919,79.4542,23.0,41,0.0,808.0,6.7,44.3,90,46.2,25.2,0,5,7,0,2026-03-13T15:13:17.998111+05:30
Mussoorie,Uttarakhand,30.4599,78.0664,22.1,38,0.0,805.0,5.45,30.6,71,36.4,14.7,0,5,3,0,2026-03-13T15:13:17.998117+05:30
Dharamshala,Himachal Pradesh,32.219,76.3234,24.0,37,0.0,870.8,6.0,24.8,46,20.5,6.4,0,5,3,0,2026-03-13T15:13:17.998123+05:30
Dalhousie,Himachal Pradesh,32.5387,75.971,22.5,30,0.0,806.3,6.45,31.0,73,22.8,10.5,0,5,7,0,2026-03-13T15:13:17.998129+05:30
Patiala,Punjab,30.3398,76.3869,29.5,34,0.0,979.3,5.2,27.0,276,521.5,66.4,4,5,3,0,2026-03-13T15:13:17.998136+05:30
Bhatinda,Punjab,30.211,74.9455,29.5,37,0.0,985.8,6.05,27.7,131,44.7,22.3,4,5,7,0,2026-03-13T15:13:17.998142+05:30
Rohtak,Haryana,28.8955,76.6066,30.4,30,0.0,983.1,5.35,26.6,519,516.0,70.8,0,5,3,0,2026-03-13T15:13:17.998149+05:30
Panipat,Haryana,29.3909,76.9635,29.3,37,0.0,981.4,5.15,24.8,896,851.2,94.3,4,5,3,0,2026-03-13T15:13:17.998155+05:30
Mathura,Uttar Pradesh,27.4924,77.6737,34.6,25,0.0,987.1,5.8,25.6,667,773.0,101.7,0,5,3,0,2026-03-13T15:13:17.998161+05:30
Vrindavan,Uttar Pradesh,27.5823,77.7027,34.2,22,0.0,987.6,5.85,28.8,667,773.0,101.7,0,5,3,0,2026-03-13T15:13:17.998166+05:30
Ayodhya,Uttar Pradesh,26.7922,82.1998,33.9,33,0.0,994.1,6.4,30.2,162,211.9,66.6,0,5,7,0,2026-03-13T15:13:17.998172+05:30
Ratlam,Madhya Pradesh,23.3315,75.0367,36.3,13,0.0,954.9,7.6,30.6,51,15.5,9.5,0,5,10,0,2026-03-13T15:13:17.998178+05:30
Sagar,Madhya Pradesh,23.8388,78.7378,36.5,10,0.0,950.2,7.5,29.2,81,11.2,9.1,0,5,10,0,2026-03-13T15:13:17.998184+05:30
Satna,Madhya Pradesh,24.6005,80.8322,37.7,13,0.0,970.5,7.15,29.9,66,69.4,16.8,0,5,10,0,2026-03-13T15:13:17.998190+05:30
Akola,Maharashtra,20.7002,77.0082,39.4,16,0.0,973.7,8.05,24.8,79,20.0,15.0,0,5,10,0,2026-03-13T15:13:17.998197+05:30
Amravati,Maharashtra,20.9374,77.7796,39.1,13,0.0,966.3,8.0,15.1,85,22.5,16.0,0,5,10,0,2026-03-13T15:13:17.998203+05:30
Latur,Maharashtra,18.4088,76.5604,35.6,21,0.0,939.2,8.5,21.2,98,33.2,26.2,0,5,10,0,2026-03-13T15:13:17.998209+05:30
Nanded,Maharashtra,19.1383,77.3091,38.8,14,0.0,967.5,8.3,21.6,108,21.0,17.4,0,5,10,0,2026-03-13T15:13:17.998215+05:30
Gulbarga,Karnataka,17.3297,76.8343,37.7,19,0.0,957.4,8.6,32.0,96,28.8,23.0,0,5,10,0,2026-03-13T15:13:17.998221+05:30
Bidar,Karnataka,17.9104,77.5199,36.0,19,0.0,934.8,8.55,26.6,102,27.4,21.4,0,5,10,0,2026-03-13T15:13:17.998227+05:30
Hospet,Karnataka,15.2689,76.3909,36.1,23,0.0,954.6,8.9,24.1,89,34.3,27.1,0,5,10,0,2026-03-13T15:13:17.998233+05:30
Tirupur,Tamil Nadu,11.1085,77.3411,35.8,24,0.0,973.7,9.25,30.6,89,38.4,29.9,0,5,10,0,2026-03-13T15:13:17.998238+05:30
Alappuzha,Kerala,9.4981,76.3388,28.6,80,0.0,1006.7,9.1,28.1,108,26.3,24.4,7,5,4,1,2026-03-13T15:13:17.998244+05:30
Munnar,Kerala,10.0889,77.0595,30.8,30,0.0,857.8,9.55,24.5,72,17.3,13.3,0,5,7,0,2026-03-13T15:13:17.998250+05:30
Silchar,Assam,24.8333,92.7789,25.3,78,0.0,1004.6,7.75,42.8,166,87.5,75.0,7,5,4,1,2026-03-13T15:13:17.998256+05:30
Dibrugarh,Assam,27.4728,94.912,23.3,79,0.0,995.5,5.5,25.2,146,69.8,63.8,3,5,3,1,2026-03-13T15:13:17.998261+05:30
