city,state,latitude,longitude,temp,humidity,rain,pressure,uv_index,wind_gusts,aqi,pm10,pm2_5,mosquito_risk,arthritis_risk,migraine_risk,frizz_risk,updated_at
Delhi,Delhi,28.6139,77.209,21.6,63,0.0,984.5,5.75,29.2,384,733.9,120.6,3,5,3,0,2026-03-13T23:07:51.024954+05:30
Mumbai,Maharashtra,19.076,72.8777,29.2,68,0.0,1008.4,7.65,23.8,195,31.5,24.3,7,0,4,1,2026-03-13T23:07:51.024999+05:30
Bangalore,Karnataka,12.9716,77.5946,23.5,58,0.0,912.7,9.3,28.8,95,40.9,37.1,0,5,7,0,2026-03-13T23:07:51.025014+05:30
Hyderabad,Telangana,17.385,78.4867,25.6,47,0.0,954.1,8.65,19.1,136,36.8,29.5,4,5,7,0,2026-03-13T23:07:51.025024+05:30
Chennai,Tamil Nadu,13.0827,80.2707,26.4,84,0.0,1009.1,9.05,32.4,60,20.1,15.8,7,0,4,1,2026-03-13T23:07:51.025034+05:30
Kolkata,West Bengal,22.5726,88.3639,25.8,89,0.0,1006.7,8.0,29.2,114,26.7,23.0,7,5,4,1,2026-03-13T23:07:51.025044+05:30
Pune,Maharashtra,18.5204,73.8567,25.5,57,0.0,949.1,8.2,36.0,150,51.8,50.4,4,5,7,1,2026-03-13T23:07:51.025057+05:30
Ahmedabad,Gujarat,23.0225,72.5714,27.7,43,0.0,1002.5,7.45,22.3,110,61.0,45.2,4,5,4,0,2026-03-13T23:07:51.025065+05:30
Jaipur,Rajasthan,26.9124,75.7873,24.8,34,0.0,961.1,6.95,23.8,118,258.9,53.0,0,5,7,0,2026-03-13T23:07:51.025072+05:30
Lucknow,Uttar Pradesh,26.8467,80.9462,24.5,61,0.0,994.0,6.05,28.4,160,251.5,67.3,3,5,7,1,2026-03-13T23:07:51.025080+05:30
Kanpur,Uttar Pradesh,26.4499,80.3319,23.5,72,0.0,992.2,6.35,18.7,221,405.1,81.0,3,5,7,1,2026-03-13T23:07:51.025088+05:30
Chandigarh,Chandigarh,30.7333,76.7794,19.0,73,0.0,969.9,5.35,29.5,77,28.5,26.3,3,5,3,0,2026-03-13T23:07:51.025096+05:30
Srinagar,Jammu and Kashmir,34.0837,74.7973,7.1,80,0.0,839.8,6.75,15.1,79,72.2,56.9,3,5,7,0,2026-03-13T23:07:51.025104+05:30
Jammu,Jammu and Kashmir,32.7266,74.857,19.8,60,0.0,974.1,6.45,24.8,70,43.9,38.4,0,5,7,0,2026-03-13T23:07:51.025112+05:30
Amritsar,Punjab,31.634,74.8723,20.0,62,0.0,982.8,5.85,25.6,86,36.7,29.6,3,5,3,0,2026-03-13T23:07:51.025119+05:30
Ludhiana,Punjab,30.901,75.8573,20.1,67,0.0,980.6,5.7,27.7,98,34.3,29.0,3,5,3,0,2026-03-13T23:07:51.025126+05:30
Jalandhar,Punjab,31.326,75.5762,19.7,64,0.0,981.8,5.7,25.6,96,48.4,32.7,3,5,3,0,2026-03-13T23:07:51.025136+05:30
Dehradun,Uttarakhand,30.6284,78.0322,13.6,70,0.0,829.3,5.7,28.8,57,43.5,26.0,3,5,3,0,2026-03-13T23:07:51.025143+05:30
Shimla,Himachal Pradesh,31.1048,77.1734,10.8,67,0.0,782.9,5.15,39.2,52,32.6,23.3,3,5,3,0,2026-03-13T23:07:51.025151+05:30
Manali,Himachal Pradesh,32.2396,77.1887,12.2,30,0.0,819.5,8.05,38.5,61,29.2,13.4,0,5,7,1,2026-03-13T23:07:51.025158+05:30
Gurgaon,Haryana,28.4595,77.0266,19.1,72,0.0,983.0,6.15,28.1,1222,1743.4,217.5,3,5,7,0,2026-03-13T23:07:51.025165+05:30
Noida,Uttar Pradesh,28.5355,77.391,21.5,63,0.0,986.0,5.95,28.8,1222,1743.4,217.5,3,5,3,0,2026-03-13T23:07:51.025173+05:30
Ghaziabad,Uttar Pradesh,28.6692,77.4538,20.7,68,0.0,984.2,5.75,27.7,194,614.7,106.4,3,5,3,0,2026-03-13T23:07:51.025180+05:30
Faridabad,Haryana,28.4089,77.3178,19.9,64,0.0,985.2,6.2,27.7,1222,1743.4,217.5,3,5,7,0,2026-03-13T23:07:51.025187+05:30
Meerut,Uttar Pradesh,28.9845,77.7064,18.9,74,0.0,982.5,4.85,27.7,194,614.7,106.4,3,5,3,0,2026-03-13T23:07:51.025193+05:30
Agra,Uttar Pradesh,27.1767,78.0081,21.9,51,0.0,989.1,6.25,24.8,574,1158.6,145.8,0,5,7,0,2026-03-13T23:07:51.025200+05:30
Varanasi,Uttar Pradesh,25.3176,82.9739,22.8,63,0.0,997.9,7.35,25.2,129,149.5,63.8,3,5,7,0,2026-03-13T23:07:51.025209+05:30
Prayagraj,Uttar Pradesh,25.4358,81.8463,24.6,58,0.0,996.5,7.1,21.6,150,127.6,54.9,0,5,7,0,2026-03-13T23:07:51.025216+05:30
Gorakhpur,Uttar Pradesh,26.7606,83.3732,22.7,67,0.0,996.9,7.05,28.4,180,59.8,43.1,3,5,7,1,2026-03-13T23:07:51.025222+05:30
Bareilly,Uttar Pradesh,28.367,79.4304,20.1,69,0.0,987.3,6.35,26.6,143,76.4,40.0,3,5,7,0,2026-03-13T23:07:51.025229+05:30
Aligarh,Uttar Pradesh,27.8974,78.088,18.6,64,0.0,986.8,5.9,28.8,600,1132.5,166.2,3,5,3,0,2026-03-13T23:07:51.025236+05:30
Moradabad,Uttar Pradesh,28.8386,78.7733,20.4,67,0.0,984.3,5.75,27.4,141,210.5,58.2,3,5,3,0,2026-03-13T23:07:51.025244+05:30
Saharanpur,Uttar Pradesh,29.9637,77.546,19.3,74,0.0,976.5,4.95,27.4,131,114.3,46.1,3,5,3,0,2026-03-13T23:07:51.025251+05:30
Jhansi,Uttar Pradesh,25.4484,78.5685,25.2,57,0.0,978.8,6.75,20.9,72,89.4,39.7,4,5,7,0,2026-03-13T23:07:54.245109+05:30
Surat,Gujarat,21.1702,72.8311,27.0,64,0.0,1006.6,7.35,23.8,146,58.0,51.6,7,5,4,1,2026-03-13T23:07:54.245141+05:30
Vadodara,Gujarat,22.3072,73.1812,28.5,38,0.0,1004.3,7.5,23.8,115,70.3,60.3,4,5,4,0,2026-03-13T23:07:54.245152+05:30
Rajkot,Gujarat,22.3039,70.8022,26.1,37,0.0,995.7,7.3,29.5,84,68.2,26.3,4,5,7,0,2026-03-13T23:07:54.245162+05:30
Thane,Maharashtra,19.2183,72.9781,27.9,59,0.0,1007.8,7.65,38.2,195,31.5,24.3,4,5,4,1,2026-03-13T23:07:54.245170+05:30
Nagpur,Maharashtra,21.1458,79.0882,25.5,51,0.0,973.3,8.05,19.4,89,60.1,55.8,4,5,7,0,2026-03-13T23:07:54.245178+05:30
Nashik,Maharashtra,19.9975,73.7898,25.4,46,0.0,946.2,7.85,34.9,135,32.0,29.3,4,5,7,0,2026-03-13T23:07:54.245186+05:30
Aurangabad,Maharashtra,19.8762,75.3433,25.8,45,0.0,944.2,8.35,29.5,126,39.2,37.5,4,5,7,0,2026-03-13T23:07:54.245194+05:30
Solapur,Maharashtra,17.6599,75.9064,27.1,49,0.0,957.0,8.6,24.1,129,49.1,44.2,4,5,7,0,2026-03-13T23:07:54.245202+05:30
Kolhapur,Maharashtra,16.705,74.2433,23.2,90,0.0,948.5,8.7,47.9,151,52.9,51.8,3,5,7,1,2026-03-13T23:07:54.245210+05:30
Goa,Goa,15.2993,74.124,27.9,83,0.0,998.9,8.7,31.3,132,57.4,52.6,7,5,7,1,2026-03-13T23:07:54.245218+05:30
Jodhpur,Rajasthan,26.2389,73.0243,28.0,38,0.0,983.2,6.8,18.7,88,145.8,36.2,4,5,7,0,2026-03-13T23:07:54.245225+05:30
Udaipur,Rajasthan,24.5854,73.7125,24.0,29,0.0,947.5,7.8,30.2,86,36.7,19.3,0,5,7,0,2026-03-13T23:07:54.245233+05:30
Kota,Rajasthan,25.2138,75.8648,25.1,47,0.0,978.5,7.1,17.6,74,43.1,21.5,4,5,7,0,2026-03-13T23:07:54.245240+05:30
Bikaner,Rajasthan,28.0229,73.3119,26.3,32,0.0,983.1,6.75,24.8,76,19.8,15.5,4,5,7,0,2026-03-13T23:07:54.245248+05:30
Ajmer,Rajasthan,26.4499,74.6399,23.8,33,0.0,955.3,7.05,22.0,77,65.2,29.7,0,5,7,0,2026-03-13T23:07:54.245255+05:30
Gwalior,Madhya Pradesh,26.2183,78.1828,25.2,68,0.0,984.1,6.8,21.2,102,208.2,56.3,7,5,7,1,2026-03-13T23:07:54.245262+05:30
Indore,Madhya Pradesh,22.7196,75.8577,22.6,41,0.0,948.6,7.75,32.4,66,50.3,46.0,0,5,7,0,2026-03-13T23:07:54.245269+05:30
Bhopal,Madhya Pradesh,23.2599,77.4126,24.9,30,0.0,953.9,7.55,31.0,77,24.8,24.1,0,5,7,0,2026-03-13T23:07:54.245277+05:30
Jabalpur,Madhya Pradesh,23.1815,79.9864,25.2,47,0.0,961.7,7.75,20.2,95,26.5,25.8,4,5,7,0,2026-03-13T23:07:54.245285+05:30
Ujjain,Madhya Pradesh,23.1765,75.7885,22.4,44,0.0,954.2,7.65,26.3,60,48.3,43.9,0,5,7,0,2026-03-13T23:07:54.245292+05:30
Visakhapatnam,Andhra Pradesh,17.6868,83.2185,25.9,86,0.0,1005.7,8.65,40.3,81,20.5,17.1,7,5,4,1,2026-03-13T23:07:54.245300+05:30
Vijayawada,Andhra Pradesh,16.5062,80.648,25.3,89,0.0,1004.6,8.75,31.3,85,15.7,13.7,7,5,4,1,2026-03-13T23:07:54.245307+05:30
Guntur,Andhra Pradesh,16.3067,80.4365,25.2,90,0.0,1005.6,8.75,33.8,80,14.7,12.8,7,5,4,1,2026-03-13T23:07:54.245315+05:30
Nellore,Andhra Pradesh,14.4426,79.9865,25.5,92,0.0,1007.8,8.9,30.2,70,15.0,11.9,7,5,4,1,2026-03-13T23:07:54.245323+05:30
Kurnool,Andhra Pradesh,15.8281,78.0373,29.3,36,0.0,977.5,8.7,23.8,134,43.0,37.6,4,5,7,0,2026-03-13T23:07:54.245331+05:30
Kakinada,Andhra Pradesh,16.9891,82.2475,24.7,91,0.0,1009.6,8.65,34.6,71,16.2,12.2,3,0,4,1,2026-03-13T23:07:54.245338+05:30
Tirupati,Andhra Pradesh,13.6288,79.4192,25.6,77,0.0,993.8,9.05,33.5,90,26.5,23.8,7,5,7,1,2026-03-13T23:07:54.245346+05:30
Warangal,Telangana,17.9689,79.5941,25.7,76,0.0,979.2,8.5,28.8,121,39.1,35.0,7,5,7,1,2026-03-13T23:07:54.245354+05:30
Nizamabad,Telangana,18.6725,78.0941,26.8,42,0.0,964.8,8.4,19.1,123,70.1,60.1,4,5,7,0,2026-03-13T23:07:54.245362+05:30
Mysore,Karnataka,12.2958,76.6396,23.6,62,0.0,929.2,9.3,29.9,100,40.7,36.7,3,5,7,0,2026-03-13T23:07:54.245369+05:30
Mangalore,Karnataka,12.9141,74.856,29.1,80,0.0,1007.8,8.95,23.0,115,49.0,42.3,7,5,4,1,2026-03-13T23:07:54.245375+05:30
Hubli-Dharwad,Karnataka,15.3647,75.124,24.9,75,0.0,941.5,8.9,29.2,128,38.1,34.9,3,5,7,1,2026-03-13T23:07:54.245381+05:30
Belgaum,Karnataka,15.8497,74.4977,23.5,88,0.0,926.5,8.95,41.0,118,52.9,50.5,3,5,7,1,2026-03-13T23:07:57.457517+05:30
Coimbatore,Tamil Nadu,11.0168,76.9558,23.4,90,0.0,963.3,9.3,42.8,85,38.4,33.6,3,5,7,1,2026-03-13T23:07:57.457546+05:30
Madurai,Tamil Nadu,9.9252,78.1198,26.4,69,0.0,994.9,9.25,26.6,78,23.2,21.5,7,5,7,1,2026-03-13T23:07:57.457556+05:30
Trichy,Tamil Nadu,10.7905,78.7047,25.5,84,0.0,1001.6,9.15,23.0,81,21.9,20.5,7,5,4,1,2026-03-13T23:07:57.457564+05:30
Salem,Tamil Nadu,11.6643,78.146,25.8,74,0.0,978.6,9.2,24.8,109,44.8,40.0,7,5,7,1,2026-03-13T23:07:57.457572+05:30
Tirunelveli,Tamil Nadu,8.7139,77.7567,25.7,78,0.0,1005.2,9.2,29.9,61,17.8,16.1,7,5,4,1,2026-03-13T23:07:57.457579+05:30
Vellore,Tamil Nadu,12.9165,79.1325,24.5,81,0.0,986.8,9.1,33.1,104,38.0,35.7,3,5,7,1,2026-03-13T23:07:57.457586+05:30
Erode,Tamil Nadu,11.341,77.7172,27.3,64,0.0,990.3,9.15,23.8,86,26.7,23.9,7,5,7,1,2026-03-13T23:07:57.457594+05:30
Kochi,Kerala,9.9312,76.2673,27.9,81,0.0,1010.3,9.1,33.8,102,30.9,29.6,7,0,4,1,2026-03-13T23:07:57.457601+05:30
Thiruvananthapuram,Kerala,8.5241,76.9366,27.8,81,0.0,1009.7,9.1,24.1,85,20.5,15.7,7,0,4,1,2026-03-13T23:07:57.457608+05:30
Kozhikode,Kerala,11.2588,75.7804,28.0,83,0.0,1009.3,9.0,29.9,91,30.7,26.7,7,0,4,1,2026-03-13T23:07:57.457614+05:30
Thrissur,Kerala,10.5276,76.2144,27.0,86,0.0,1008.6,9.05,37.1,100,25.8,24.0,7,0,4,1,2026-03-13T23:07:57.457621+05:30
Kannur,Kerala,11.8745,75.3704,28.5,83,0.0,1008.2,9.0,28.1,105,39.7,34.9,7,0,4,1,2026-03-13T23:07:57.457628+05:30
Patna,Bihar,25.5941,85.1376,25.3,62,0.0,1000.3,7.5,23.0,174,145.3,61.0,7,5,4,1,2026-03-13T23:07:57.457635+05:30
Gaya,Bihar,24.7914,85.0002,26.3,48,0.0,994.4,7.6,19.4,148,178.3,62.6,4,5,7,0,2026-03-13T23:07:57.457642+05:30
Muzaffarpur,Bihar,26.1209,85.3647,24.0,81,0.0,1000.3,7.45,24.8,175,174.6,104.8,3,5,4,1,2026-03-13T23:07:57.457649+05:30
Bhagalpur,Bihar,25.2425,87.0117,25.9,75,0.0,1001.1,7.5,26.6,165,157.4,95.0,7,5,4,1,2026-03-13T23:07:57.457655+05:30
Ranchi,Jharkhand,23.3441,85.3096,23.0,38,0.0,938.3,8.2,26.3,80,40.6,24.7,0,5,7,0,2026-03-13T23:07:57.457662+05:30
Jamshedpur,Jharkhand,22.8046,86.2029,27.1,56,0.0,991.1,8.05,16.6,150,69.8,53.0,4,5,7,1,2026-03-13T23:07:57.457669+05:30
Dhanbad,Jharkhand,23.7957,86.4304,25.0,47,0.0,980.2,7.95,26.3,163,105.9,57.7,4,5,7,0,2026-03-13T23:07:57.457675+05:30
Bokaro,Jharkhand,23.6693,86.1511,26.2,43,0.0,984.7,7.95,26.6,149,98.0,57.5,4,5,7,0,2026-03-13T23:07:57.457682+05:30
Bhubaneswar,Odisha,20.2961,85.8245,25.9,85,0.0,1004.1,8.4,33.5,93,22.2,19.2,7,5,4,1,2026-03-13T23:07:57.457689+05:30
Cuttack,Odisha,20.4625,85.8828,25.9,87,0.0,1005.9,8.4,28.1,93,22.2,19.2,7,5,4,1,2026-03-13T23:07:57.457696+05:30
Rourkela,Odisha,22.2604,84.8536,23.9,61,0.0,984.9,8.0,19.4,105,63.6,42.0,3,5,7,0,2026-03-13T23:07:57.457702+05:30
Raipur,Chhattisgarh,21.2514,81.6296,26.7,41,0.0,974.4,8.15,18.0,129,47.8,42.4,4,5,7,0,2026-03-13T23:07:57.457708+05:30
Bhilai,Chhattisgarh,21.1938,81.3509,26.2,39,0.0,974.7,8.15,14.8,123,50.4,44.7,4,5,7,0,2026-03-13T23:07:57.457714+05:30
Guwahati,Assam,26.1158,91.7086,22.2,93,0.0,1003.0,6.6,29.9,139,30.9,24.6,3,5,4,1,2026-03-13T23:07:57.457721+05:30
Agartala,Tripura,23.8315,91.2868,21.7,93,0.0,1008.5,7.6,32.8,113,23.4,21.1,3,0,4,1,2026-03-13T23:07:57.457727+05:30
Shillong,Meghalaya,25.5788,91.8933,13.5,90,0.0,855.5,7.0,54.7,104,22.2,15.9,3,10,7,0,2026-03-13T23:07:57.457734+05:30
Imphal,Manipur,24.817,93.9368,16.2,93,0.0,924.3,7.3,61.2,157,65.4,59.1,3,10,7,0,2026-03-13T23:07:57.457741+05:30
Aizawl,Mizoram,23.7271,92.7176,17.6,86,0.0,893.8,7.15,76.0,141,36.1,32.0,3,10,7,0,2026-03-13T23:07:57.457748+05:30
Kohima,Nagaland,25.6701,94.1077,14.3,83,0.0,854.5,6.25,82.8,126,22.6,20.5,3,10,7,0,2026-03-13T23:07:57.457754+05:30
Gangtok,Sikkim,27.3314,88.6138,13.7,95,0.0,835.8,5.15,15.8,90,24.4,23.6,3,10,3,0,2026-03-13T23:07:57.457760+05:30
Siliguri,West Bengal,26.7271,88.3953,19.0,92,0.0,994.7,7.3,29.5,143,50.2,43.9,3,10,7,1,2026-03-13T23:08:00.770429+05:30
Durgapur,West Bengal,23.5204,87.3119,26.4,55,0.0,995.4,7.95,26.3,159,112.9,78.5,4,5,7,1,2026-03-13T23:08:00.770465+05:30
Asansol,West Bengal,23.6739,86.9524,27.4,47,0.0,993.9,7.95,23.4,158,93.4,48.8,4,5,7,0,2026-03-13T23:08:00.770478+05:30
Pondicherry,Puducherry,11.9139,79.8145,24.8,90,0.0,1010.4,9.0,27.7,58,19.2,14.8,3,0,4,1,2026-03-13T23:08:00.770489+05:30
Port Blair,Andaman and Nicobar Islands,11.6234,92.7265,27.9,81,0.0,1008.8,8.95,21.6,65,12.1,9.3,7,0,4,1,2026-03-13T23:08:00.770500+05:30
Haridwar,Uttarakhand,29.9457,78.1642,18.8,81,0.0,975.0,5.6,29.5,85,83.4,46.9,3,10,3,0,2026-03-13T23:08:00.770511+05:30
Rishikesh,Uttarakhand,30.0869,78.2676,18.9,74,0.0,967.5,5.8,30.2,65,46.8,29.9,3,5,3,0,2026-03-13T23:08:00.770521+05:30
Nainital,Uttarakhand,29.3919,79.4542,17.7,34,0.0,805.6,6.55,44.3,84,40.7,28.1,0,5,7,0,2026-03-13T23:08:00.770530+05:30
Mussoorie,Uttarakhand,30.4599,78.0664,15.6,55,0.0,802.2,5.75,30.6,69,59.6,46.9,0,5,3,0,2026-03-13T23:08:00.770539+05:30
Dharamshala,Himachal Pradesh,32.219,76.3234,19.0,36,0.0,869.7,6.0,24.8,61,26.3,17.9,0,5,3,0,2026-03-13T23:08:00.770548+05:30
Dalhousie,Himachal Pradesh,32.5387,75.971,15.0,36,0.0,803.5,6.4,31.0,66,44.0,36.3,0,5,7,0,2026-03-13T23:08:00.770558+05:30
Patiala,Punjab,30.3398,76.3869,18.6,79,0.0,979.8,5.2,27.0,381,445.2,65.2,3,5,3,0,2026-03-13T23:08:00.770567+05:30
Bhatinda,Punjab,30.211,74.9455,20.9,69,0.0,985.9,6.25,27.7,109,50.9,44.4,3,5,7,0,2026-03-13T23:08:00.770575+05:30
Rohtak,Haryana,28.8955,76.6066,19.3,75,0.0,983.6,5.3,26.6,554,804.7,124.8,3,5,3,0,2026-03-13T23:08:00.770584+05:30
Panipat,Haryana,29.3909,76.9635,18.5,78,0.0,981.9,4.9,24.8,1031,1210.7,157.4,3,5,3,0,2026-03-13T23:08:00.770593+05:30
Mathura,Uttar Pradesh,27.4924,77.6737,20.6,56,0.0,988.4,5.65,25.6,700,1397.0,179.7,0,5,3,0,2026-03-13T23:08:00.770602+05:30
Vrindavan,Uttar Pradesh,27.5823,77.7027,19.4,61,0.0,988.8,5.75,28.8,700,1397.0,179.7,3,5,3,0,2026-03-13T23:08:00.770611+05:30
Ayodhya,Uttar Pradesh,26.7922,82.1998,22.6,64,0.0,995.4,6.35,30.2,156,90.6,48.0,3,5,7,0,2026-03-13T23:08:00.770621+05:30
Ratlam,Madhya Pradesh,23.3315,75.0367,26.4,38,0.0,955.2,7.6,30.6,96,24.9,22.8,4,5,7,0,2026-03-13T23:08:00.770630+05:30
Sagar,Madhya Pradesh,23.8388,78.7378,25.8,33,0.0,950.9,7.6,29.2,89,15.1,14.5,4,5,7,0,2026-03-13T23:08:00.770640+05:30
Satna,Madhya Pradesh,24.6005,80.8322,24.8,33,0.0,972.1,7.2,29.9,76,37.6,17.8,0,5,7,0,2026-03-13T23:08:00.770649+05:30
Akola,Maharashtra,20.7002,77.0082,28.5,38,0.0,974.9,8.05,24.8,123,46.0,42.3,4,5,7,0,2026-03-13T23:08:00.770659+05:30
Amravati,Maharashtra,20.9374,77.7796,26.4,45,0.0,967.0,8.0,15.1,126,46.7,41.6,4,5,7,0,2026-03-13T23:08:00.770669+05:30
Latur,Maharashtra,18.4088,76.5604,26.1,50,0.0,940.1,8.5,21.2,132,43.9,39.5,4,5,7,0,2026-03-13T23:08:00.770677+05:30
Nanded,Maharashtra,19.1383,77.3091,29.0,37,0.0,968.5,8.25,21.6,132,66.1,58.7,4,5,7,0,2026-03-13T23:08:00.770684+05:30
Gulbarga,Karnataka,17.3297,76.8343,29.0,43,0.0,958.9,8.6,32.0,140,42.5,36.3,4,5,7,0,2026-03-13T23:08:00.770691+05:30
Bidar,Karnataka,17.9104,77.5199,26.6,42,0.0,935.9,8.55,26.6,129,50.4,41.9,4,5,7,0,2026-03-13T23:08:00.770697+05:30
Hospet,Karnataka,15.2689,76.3909,29.4,48,0.0,956.3,8.9,24.1,141,47.0,39.8,4,5,7,1,2026-03-13T23:08:00.770704+05:30
Tirupur,Tamil Nadu,11.1085,77.3411,27.4,54,0.0,976.9,9.3,30.6,94,33.2,29.2,4,5,7,1,2026-03-13T23:08:00.770711+05:30
Alappuzha,Kerala,9.4981,76.3388,27.6,82,0.0,1010.6,9.1,28.1,101,27.4,24.6,7,0,4,1,2026-03-13T23:08:00.770719+05:30
Munnar,Kerala,10.0889,77.0595,21.3,79,0.0,857.8,9.55,24.5,72,31.4,29.1,3,5,7,1,2026-03-13T23:08:00.770726+05:30
Silchar,Assam,24.8333,92.7789,21.0,94,0.0,1008.3,7.75,42.8,159,47.6,41.0,3,0,4,1,2026-03-13T23:08:00.770733+05:30
Dibrugarh,Assam,27.4728,94.912,20.5,88,0.0,996.7,5.5,25.2,139,44.9,40.6,3,5,3,1,2026-03-13T23:08:00.770740+05:30
