city,state,latitude,longitude,temp,humidity,rain,pressure,uv_index,wind_gusts,aqi,pm10,pm2_5,mosquito_risk,arthritis_risk,migraine_risk,frizz_risk,updated_at
Delhi,Delhi,28.6139,77.209,28.3,53,0.0,985.9,5.5,34.9,158,172.8,37.7,4,5,3,1,2026-04-04T12:43:07.868436+05:30
Mumbai,Maharashtra,19.076,72.8777,28.2,69,0.0,1010.8,7.9,19.8,71,39.2,21.0,7,0,4,1,2026-04-04T12:43:07.868481+05:30
Bangalore,Karnataka,12.9716,77.5946,28.2,57,0.0,913.2,9.1,25.9,80,25.3,22.2,4,5,7,1,2026-04-04T12:43:07.868497+05:30
Hyderabad,Telangana,17.385,78.4867,34.2,35,0.0,954.5,7.85,30.6,72,25.5,19.3,0,5,7,1,2026-04-04T12:43:07.868508+05:30
Chennai,Tamil Nadu,13.0827,80.2707,35.4,46,0.0,1007.3,8.8,33.8,48,21.5,17.6,0,5,7,1,2026-04-04T12:43:07.868516+05:30
Kolkata,West Bengal,22.5726,88.3639,34.8,59,0.0,1004.8,8.55,20.2,82,36.8,32.4,0,5,4,1,2026-04-04T12:43:07.868525+05:30
Pune,Maharashtra,18.5204,73.8567,34.1,29,0.0,950.3,8.5,40.0,93,30.0,14.4,0,5,7,0,2026-04-04T12:43:07.868538+05:30
Ahmedabad,Gujarat,23.0225,72.5714,32.0,29,0.0,1004.9,7.6,24.5,54,27.8,11.5,0,5,4,0,2026-04-04T12:43:07.868546+05:30
Jaipur,Rajasthan,26.9124,75.7873,28.8,42,0.0,962.2,7.4,30.6,85,143.4,30.4,4,5,7,0,2026-04-04T12:43:07.868553+05:30
Lucknow,Uttar Pradesh,26.8467,80.9462,34.9,31,0.0,994.6,6.35,37.1,154,191.9,50.4,0,5,7,0,2026-04-04T12:43:07.868561+05:30
Kanpur,Uttar Pradesh,26.4499,80.3319,33.1,42,0.0,993.5,6.5,31.0,247,431.2,77.8,0,5,7,1,2026-04-04T12:43:07.868568+05:30
Chandigarh,Chandigarh,30.7333,76.7794,27.2,51,0.0,972.3,5.9,36.7,102,116.2,28.1,4,5,3,1,2026-04-04T12:43:07.868575+05:30
Srinagar,Jammu and Kashmir,34.0837,74.7973,11.0,86,0.2,841.6,5.35,26.3,67,7.6,7.2,6,10,3,0,2026-04-04T12:43:07.868583+05:30
Jammu,Jammu and Kashmir,32.7266,74.857,20.4,82,0.0,977.6,6.8,30.6,56,37.0,10.4,3,5,7,1,2026-04-04T12:43:07.868590+05:30
Amritsar,Punjab,31.634,74.8723,21.5,77,0.0,985.2,6.15,21.2,82,106.2,26.9,3,5,7,1,2026-04-04T12:43:07.868596+05:30
Ludhiana,Punjab,30.901,75.8573,26.8,49,0.0,982.7,5.9,28.1,138,111.5,32.2,4,5,3,0,2026-04-04T12:43:07.868603+05:30
Jalandhar,Punjab,31.326,75.5762,24.8,63,0.0,984.1,6.45,25.2,107,127.6,31.7,3,5,7,1,2026-04-04T12:43:07.868612+05:30
Dehradun,Uttarakhand,30.6284,78.0322,17.4,64,0.0,833.5,4.35,35.3,45,18.9,5.6,3,5,3,0,2026-04-04T12:43:07.868619+05:30
Shimla,Himachal Pradesh,31.1048,77.1734,13.9,76,0.0,786.4,4.5,50.4,56,21.8,6.2,3,5,3,0,2026-04-04T12:43:07.868626+05:30
Manali,Himachal Pradesh,32.2396,77.1887,15.3,70,0.0,821.1,7.3,30.2,50,12.5,5.4,3,5,7,0,2026-04-04T12:43:07.868633+05:30
Gurgaon,Haryana,28.4595,77.0266,27.9,54,0.0,984.8,5.45,34.2,399,392.1,55.8,4,5,3,1,2026-04-04T12:43:07.868640+05:30
Noida,Uttar Pradesh,28.5355,77.391,28.2,54,0.0,987.4,5.5,31.7,399,392.1,55.8,4,5,3,1,2026-04-04T12:43:07.868646+05:30
Ghaziabad,Uttar Pradesh,28.6692,77.4538,27.7,58,0.0,985.8,5.55,27.0,173,140.6,35.5,4,5,3,1,2026-04-04T12:43:07.868652+05:30
Faridabad,Haryana,28.4089,77.3178,28.7,52,0.0,986.5,5.7,35.3,399,392.1,55.8,4,5,3,1,2026-04-04T12:43:07.868658+05:30
Meerut,Uttar Pradesh,28.9845,77.7064,27.7,62,0.0,984.7,5.85,32.4,173,140.6,35.5,7,5,3,1,2026-04-04T12:43:07.868664+05:30
Agra,Uttar Pradesh,27.1767,78.0081,31.8,41,0.0,990.4,6.55,34.6,586,523.4,68.5,0,5,7,1,2026-04-04T12:43:07.868671+05:30
Varanasi,Uttar Pradesh,25.3176,82.9739,35.2,42,0.0,997.8,6.05,33.1,78,72.6,28.0,0,5,10,1,2026-04-04T12:43:07.868680+05:30
Prayagraj,Uttar Pradesh,25.4358,81.8463,35.7,37,0.0,996.4,5.45,32.8,81,171.4,48.4,0,5,6,1,2026-04-04T12:43:07.868689+05:30
Gorakhpur,Uttar Pradesh,26.7606,83.3732,38.2,24,0.0,996.3,6.8,45.7,82,59.8,23.6,0,5,10,0,2026-04-04T12:43:07.868697+05:30
Bareilly,Uttar Pradesh,28.367,79.4304,28.3,55,0.0,990.0,5.3,30.6,125,44.8,23.5,4,5,3,1,2026-04-04T12:43:07.868704+05:30
Aligarh,Uttar Pradesh,27.8974,78.088,29.2,51,0.0,988.5,5.3,29.2,515,376.3,54.1,4,5,3,1,2026-04-04T12:43:07.868711+05:30
Moradabad,Uttar Pradesh,28.8386,78.7733,28.1,63,0.0,986.9,5.75,30.6,150,76.8,32.6,7,5,3,1,2026-04-04T12:43:07.868717+05:30
Saharanpur,Uttar Pradesh,29.9637,77.546,27.5,57,0.0,979.4,6.15,38.5,157,157.4,39.0,4,5,7,1,2026-04-04T12:43:07.868723+05:30
Jhansi,Uttar Pradesh,25.4484,78.5685,33.1,39,0.0,979.4,6.6,38.2,69,149.5,38.8,0,5,7,1,2026-04-04T12:43:11.080896+05:30
Surat,Gujarat,21.1702,72.8311,29.9,57,0.0,1009.6,7.6,25.6,80,58.1,29.7,4,0,4,1,2026-04-04T12:43:11.080924+05:30
Vadodara,Gujarat,22.3072,73.1812,32.1,44,0.0,1006.9,7.6,25.9,73,48.9,19.2,0,5,4,1,2026-04-04T12:43:11.080934+05:30
Rajkot,Gujarat,22.3039,70.8022,30.9,38,0.0,997.2,7.55,32.0,48,28.6,12.0,0,5,7,0,2026-04-04T12:43:11.080943+05:30
Thane,Maharashtra,19.2183,72.9781,31.0,55,0.0,1010.3,7.9,35.6,71,39.2,21.0,0,0,4,1,2026-04-04T12:43:11.080949+05:30
Nagpur,Maharashtra,21.1458,79.0882,30.3,48,0.0,975.3,8.15,29.5,88,43.1,35.6,0,5,7,1,2026-04-04T12:43:11.080956+05:30
Nashik,Maharashtra,19.9975,73.7898,29.2,51,0.0,948.0,8.15,37.8,57,19.9,9.3,4,5,7,1,2026-04-04T12:43:11.080963+05:30
Aurangabad,Maharashtra,19.8762,75.3433,33.4,29,0.0,946.2,8.85,35.6,68,38.6,16.5,0,5,7,0,2026-04-04T12:43:11.080970+05:30
Solapur,Maharashtra,17.6599,75.9064,33.3,42,0.0,958.6,8.9,22.7,82,42.8,34.5,0,5,7,1,2026-04-04T12:43:11.080977+05:30
Kolhapur,Maharashtra,16.705,74.2433,32.3,32,0.0,949.6,8.95,41.0,99,28.8,23.9,0,5,7,0,2026-04-04T12:43:11.080983+05:30
Goa,Goa,15.2993,74.124,31.5,55,0.0,999.5,8.25,33.8,71,22.7,16.9,0,5,7,1,2026-04-04T12:43:11.080989+05:30
Jodhpur,Rajasthan,26.2389,73.0243,29.3,33,0.0,985.6,7.35,28.8,103,67.5,13.9,4,5,7,0,2026-04-04T12:43:11.080995+05:30
Udaipur,Rajasthan,24.5854,73.7125,28.1,31,0.0,948.8,7.6,37.4,56,26.0,9.1,4,5,7,0,2026-04-04T12:43:11.081001+05:30
Kota,Rajasthan,25.2138,75.8648,33.1,30,0.0,980.8,7.8,40.7,65,48.4,17.1,0,5,7,0,2026-04-04T12:43:11.081007+05:30
Bikaner,Rajasthan,28.0229,73.3119,29.2,29,0.0,984.7,7.0,29.9,73,66.6,14.6,4,5,7,0,2026-04-04T12:43:11.081013+05:30
Ajmer,Rajasthan,26.4499,74.6399,27.9,46,0.0,956.9,7.45,36.7,74,43.9,14.6,4,5,7,0,2026-04-04T12:43:11.081019+05:30
Gwalior,Madhya Pradesh,26.2183,78.1828,30.1,46,0.0,985.8,7.15,33.1,105,192.8,40.3,0,5,7,1,2026-04-04T12:43:11.081025+05:30
Indore,Madhya Pradesh,22.7196,75.8577,29.9,42,0.0,950.5,8.3,43.9,63,39.3,17.7,4,5,7,0,2026-04-04T12:43:11.081030+05:30
Bhopal,Madhya Pradesh,23.2599,77.4126,32.8,32,0.0,955.4,8.25,40.0,65,30.6,16.5,0,5,7,0,2026-04-04T12:43:11.081036+05:30
Jabalpur,Madhya Pradesh,23.1815,79.9864,31.5,40,0.0,963.7,6.45,30.6,79,21.1,17.4,0,5,7,1,2026-04-04T12:43:11.081042+05:30
Ujjain,Madhya Pradesh,23.1765,75.7885,28.9,47,0.0,956.3,8.2,37.4,63,35.3,14.7,4,5,7,1,2026-04-04T12:43:11.081048+05:30
Visakhapatnam,Andhra Pradesh,17.6868,83.2185,34.0,53,0.0,1003.7,8.25,38.2,62,28.3,24.7,0,5,4,1,2026-04-04T12:43:11.081054+05:30
Vijayawada,Andhra Pradesh,16.5062,80.648,33.5,52,0.0,1003.2,9.0,19.8,45,16.2,13.4,0,5,4,1,2026-04-04T12:43:11.081060+05:30
Guntur,Andhra Pradesh,16.3067,80.4365,34.0,47,0.0,1004.3,8.85,26.3,42,16.8,13.5,0,5,4,1,2026-04-04T12:43:11.081066+05:30
Nellore,Andhra Pradesh,14.4426,79.9865,35.8,40,0.0,1005.7,8.55,31.3,46,19.9,18.3,0,5,7,1,2026-04-04T12:43:11.081072+05:30
Kurnool,Andhra Pradesh,15.8281,78.0373,35.6,39,0.0,977.3,8.0,22.0,61,15.0,11.9,0,5,10,1,2026-04-04T12:43:11.081079+05:30
Kakinada,Andhra Pradesh,16.9891,82.2475,35.5,47,0.0,1007.5,8.8,33.5,28,12.7,9.7,0,5,7,1,2026-04-04T12:43:11.081085+05:30
Tirupati,Andhra Pradesh,13.6288,79.4192,36.0,37,0.0,991.2,8.5,23.4,57,21.5,19.8,0,5,10,1,2026-04-04T12:43:11.081091+05:30
Warangal,Telangana,17.9689,79.5941,33.1,50,0.0,980.0,8.05,28.8,78,33.8,28.1,0,5,7,1,2026-04-04T12:43:11.081096+05:30
Nizamabad,Telangana,18.6725,78.0941,31.2,50,0.0,966.6,8.55,27.0,120,42.5,32.8,0,5,7,1,2026-04-04T12:43:11.081102+05:30
Mysore,Karnataka,12.2958,76.6396,30.6,51,0.0,929.9,9.05,31.7,67,23.1,20.1,0,5,7,1,2026-04-04T12:43:11.081108+05:30
Mangalore,Karnataka,12.9141,74.856,28.4,80,0.0,1008.2,8.2,19.8,62,16.1,12.5,7,0,4,1,2026-04-04T12:43:11.081114+05:30
Hubli-Dharwad,Karnataka,15.3647,75.124,32.6,39,0.0,942.4,8.6,37.1,70,24.4,20.1,0,5,7,1,2026-04-04T12:43:11.081120+05:30
Belgaum,Karnataka,15.8497,74.4977,30.6,40,0.0,927.5,9.15,35.6,79,23.4,18.8,0,5,7,0,2026-04-04T12:43:14.294619+05:30
Coimbatore,Tamil Nadu,11.0168,76.9558,31.5,51,0.0,962.9,9.15,48.6,71,17.4,15.9,0,5,7,1,2026-04-04T12:43:14.294647+05:30
Madurai,Tamil Nadu,9.9252,78.1198,35.3,43,0.0,993.3,8.7,26.3,63,20.5,19.0,0,5,10,1,2026-04-04T12:43:14.294656+05:30
Trichy,Tamil Nadu,10.7905,78.7047,35.0,47,0.0,1000.0,9.3,18.7,51,20.0,18.7,0,5,4,1,2026-04-04T12:43:14.294664+05:30
Salem,Tamil Nadu,11.6643,78.146,34.3,47,0.0,977.8,8.65,29.9,58,25.1,23.2,0,5,7,1,2026-04-04T12:43:14.294672+05:30
Tirunelveli,Tamil Nadu,8.7139,77.7567,35.5,41,0.0,1003.1,8.45,21.2,64,10.7,9.6,0,5,7,1,2026-04-04T12:43:14.294679+05:30
Vellore,Tamil Nadu,12.9165,79.1325,34.1,47,0.0,984.9,8.7,26.6,70,24.1,22.0,0,5,7,1,2026-04-04T12:43:14.294686+05:30
Erode,Tamil Nadu,11.341,77.7172,35.6,43,0.0,989.0,8.95,24.1,69,24.3,22.3,0,5,10,1,2026-04-04T12:43:14.294693+05:30
Kochi,Kerala,9.9312,76.2673,28.2,82,0.0,1009.9,8.9,20.5,68,16.0,14.6,7,0,4,1,2026-04-04T12:43:14.294700+05:30
Thiruvananthapuram,Kerala,8.5241,76.9366,28.5,82,0.0,1009.0,8.05,26.3,59,16.4,13.3,7,0,4,1,2026-04-04T12:43:14.294708+05:30
Kozhikode,Kerala,11.2588,75.7804,29.3,75,0.0,1009.2,8.25,24.5,49,10.6,9.2,7,0,4,1,2026-04-04T12:43:14.294714+05:30
Thrissur,Kerala,10.5276,76.2144,31.9,62,0.0,1008.1,8.3,28.1,60,13.9,12.6,3,0,4,1,2026-04-04T12:43:14.294721+05:30
Kannur,Kerala,11.8745,75.3704,29.8,73,0.0,1008.7,7.6,23.0,58,15.0,12.2,7,0,4,1,2026-04-04T12:43:14.294727+05:30
Patna,Bihar,25.5941,85.1376,37.2,30,0.0,999.3,7.95,39.6,78,82.2,27.8,0,5,10,1,2026-04-04T12:43:14.294734+05:30
Gaya,Bihar,24.7914,85.0002,37.0,28,0.0,993.5,8.45,27.4,78,68.7,20.9,0,5,10,0,2026-04-04T12:43:14.294741+05:30
Muzaffarpur,Bihar,26.1209,85.3647,37.6,27,0.0,998.7,7.9,40.3,77,52.0,22.8,0,5,10,0,2026-04-04T12:43:14.294747+05:30
Bhagalpur,Bihar,25.2425,87.0117,35.6,36,0.0,1000.1,8.25,31.7,82,77.5,31.8,0,5,7,1,2026-04-04T12:43:14.294753+05:30
Ranchi,Jharkhand,23.3441,85.3096,33.4,31,0.0,939.1,8.2,41.0,80,26.0,21.4,0,5,7,0,2026-04-04T12:43:14.294759+05:30
Jamshedpur,Jharkhand,22.8046,86.2029,36.6,32,0.0,990.4,8.5,20.5,105,29.8,25.5,0,5,10,1,2026-04-04T12:43:14.294765+05:30
Dhanbad,Jharkhand,23.7957,86.4304,37.9,23,0.0,979.6,8.65,25.9,99,22.6,14.3,0,5,10,0,2026-04-04T12:43:14.294772+05:30
Bokaro,Jharkhand,23.6693,86.1511,37.2,25,0.0,983.7,8.55,28.8,100,25.6,17.2,0,5,10,0,2026-04-04T12:43:14.294778+05:30
Bhubaneswar,Odisha,20.2961,85.8245,37.5,40,0.0,1001.7,8.95,25.2,74,59.0,51.5,0,5,7,1,2026-04-04T12:43:14.294784+05:30
Cuttack,Odisha,20.4625,85.8828,37.7,40,0.0,1003.6,9.0,32.8,74,59.0,51.5,0,5,7,1,2026-04-04T12:43:14.294790+05:30
Rourkela,Odisha,22.2604,84.8536,37.0,33,0.0,985.1,8.35,39.6,114,43.9,36.3,0,5,10,1,2026-04-04T12:43:14.294796+05:30
Raipur,Chhattisgarh,21.2514,81.6296,34.3,39,0.0,976.3,8.15,41.4,115,38.9,31.9,0,5,7,1,2026-04-04T12:43:14.294802+05:30
Bhilai,Chhattisgarh,21.1938,81.3509,33.7,42,0.0,976.7,8.2,37.8,96,42.6,34.1,0,5,7,1,2026-04-04T12:43:14.294809+05:30
Guwahati,Assam,26.1158,91.7086,29.4,71,0.0,999.7,8.25,38.2,129,48.0,37.8,7,5,7,1,2026-04-04T12:43:14.294815+05:30
Agartala,Tripura,23.8315,91.2868,33.2,64,0.0,1004.8,8.45,28.1,68,42.6,36.7,3,5,4,1,2026-04-04T12:43:14.294821+05:30
Shillong,Meghalaya,25.5788,91.8933,22.4,53,0.0,857.6,8.4,56.5,92,39.1,30.6,0,5,7,0,2026-04-04T12:43:14.294827+05:30
Imphal,Manipur,24.817,93.9368,23.3,74,0.0,923.4,8.75,78.1,131,38.8,30.6,3,5,7,1,2026-04-04T12:43:14.294833+05:30
Aizawl,Mizoram,23.7271,92.7176,27.8,55,0.0,894.4,8.6,55.1,107,36.9,27.2,4,5,7,1,2026-04-04T12:43:14.294839+05:30
Kohima,Nagaland,25.6701,94.1077,22.9,57,0.0,856.1,8.3,79.9,115,37.5,26.4,0,5,7,0,2026-04-04T12:43:14.294845+05:30
Gangtok,Sikkim,27.3314,88.6138,21.6,71,0.0,838.4,8.4,17.6,130,51.0,39.6,3,5,7,1,2026-04-04T12:43:14.294851+05:30
Siliguri,West Bengal,26.7271,88.3953,27.1,70,0.0,992.7,8.2,27.0,161,76.1,56.6,7,5,7,1,2026-04-04T12:43:17.508257+05:30
Durgapur,West Bengal,23.5204,87.3119,37.3,27,0.0,994.4,8.55,16.2,128,23.3,13.7,0,5,10,0,2026-04-04T12:43:17.508289+05:30
Asansol,West Bengal,23.6739,86.9524,37.2,27,0.0,993.0,8.7,17.6,100,21.4,12.8,0,5,10,0,2026-04-04T12:43:17.508302+05:30
Pondicherry,Puducherry,11.9139,79.8145,34.6,53,0.0,1008.4,8.8,21.6,48,17.1,15.9,0,0,4,1,2026-04-04T12:43:17.508313+05:30
Port Blair,Andaman and Nicobar Islands,11.6234,92.7265,28.7,73,0.0,1006.6,8.75,16.9,42,19.4,10.7,7,5,4,1,2026-04-04T12:43:17.508322+05:30
Haridwar,Uttarakhand,29.9457,78.1642,27.5,54,0.0,978.0,5.0,34.6,105,95.7,28.0,4,5,3,1,2026-04-04T12:43:17.508331+05:30
Rishikesh,Uttarakhand,30.0869,78.2676,26.2,50,0.0,971.0,4.5,31.0,70,26.8,6.7,4,5,3,0,2026-04-04T12:43:17.508339+05:30
Nainital,Uttarakhand,29.3919,79.4542,19.8,56,0.0,809.8,4.25,39.2,64,27.8,11.4,0,5,3,0,2026-04-04T12:43:17.508348+05:30
Mussoorie,Uttarakhand,30.4599,78.0664,18.5,60,0.0,806.2,4.95,46.4,70,31.0,9.3,0,5,3,0,2026-04-04T12:43:17.508356+05:30
Dharamshala,Himachal Pradesh,32.219,76.3234,18.7,70,0.0,871.5,5.8,49.3,46,17.4,5.7,3,5,3,0,2026-04-04T12:43:17.508364+05:30
Dalhousie,Himachal Pradesh,32.5387,75.971,13.5,80,0.0,804.8,5.65,52.6,61,48.0,13.5,3,5,3,0,2026-04-04T12:43:17.508373+05:30
Patiala,Punjab,30.3398,76.3869,28.0,45,0.0,981.5,4.7,25.2,194,238.4,43.3,4,5,3,0,2026-04-04T12:43:17.508381+05:30
Bhatinda,Punjab,30.211,74.9455,26.4,57,0.0,987.0,6.9,45.0,77,97.1,26.1,4,5,7,1,2026-04-04T12:43:17.508389+05:30
Rohtak,Haryana,28.8955,76.6066,28.4,51,0.0,984.9,6.3,31.0,126,249.6,36.6,4,5,7,1,2026-04-04T12:43:17.508397+05:30
Panipat,Haryana,29.3909,76.9635,29.7,44,0.0,983.3,5.2,28.8,251,225.8,35.4,4,5,3,1,2026-04-04T12:43:17.508405+05:30
Mathura,Uttar Pradesh,27.4924,77.6737,30.2,45,0.0,989.5,5.15,38.5,314,354.8,48.5,0,5,3,1,2026-04-04T12:43:17.508412+05:30
Vrindavan,Uttar Pradesh,27.5823,77.7027,30.8,43,0.0,989.9,5.25,29.5,314,354.8,48.5,0,5,3,1,2026-04-04T12:43:17.508420+05:30
Ayodhya,Uttar Pradesh,26.7922,82.1998,36.8,30,0.0,995.5,7.2,40.3,106,109.7,36.1,0,5,10,1,2026-04-04T12:43:17.508428+05:30
Ratlam,Madhya Pradesh,23.3315,75.0367,28.0,54,0.0,957.4,8.1,36.7,58,31.8,12.9,4,5,7,1,2026-04-04T12:43:17.508437+05:30
Sagar,Madhya Pradesh,23.8388,78.7378,31.9,33,0.0,952.3,7.2,39.6,59,24.9,17.5,0,5,7,0,2026-04-04T12:43:17.508445+05:30
Satna,Madhya Pradesh,24.6005,80.8322,32.9,44,0.0,973.3,5.05,37.1,73,29.4,19.2,0,5,3,1,2026-04-04T12:43:17.508452+05:30
Akola,Maharashtra,20.7002,77.0082,34.3,37,0.0,976.7,7.95,25.6,87,39.9,30.5,0,5,7,1,2026-04-04T12:43:17.508458+05:30
Amravati,Maharashtra,20.9374,77.7796,34.6,33,0.0,969.0,7.7,24.5,91,32.9,26.7,0,5,7,0,2026-04-04T12:43:17.508465+05:30
Latur,Maharashtra,18.4088,76.5604,30.6,44,0.0,941.6,8.85,29.5,94,47.3,38.9,0,5,7,1,2026-04-04T12:43:17.508472+05:30
Nanded,Maharashtra,19.1383,77.3091,32.7,46,0.0,970.5,8.15,19.8,89,41.1,32.5,0,5,7,1,2026-04-04T12:43:17.508478+05:30
Gulbarga,Karnataka,17.3297,76.8343,34.3,39,0.0,959.8,8.9,32.0,75,25.9,21.0,0,5,7,1,2026-04-04T12:43:17.508484+05:30
Bidar,Karnataka,17.9104,77.5199,31.8,43,0.0,937.3,8.55,31.3,92,34.3,27.2,0,5,7,1,2026-04-04T12:43:17.508490+05:30
Hospet,Karnataka,15.2689,76.3909,32.0,47,0.0,957.0,7.95,33.5,71,30.0,25.6,0,5,7,1,2026-04-04T12:43:17.508496+05:30
Tirupur,Tamil Nadu,11.1085,77.3411,34.7,43,0.0,975.6,8.8,39.6,75,23.2,21.3,0,5,7,1,2026-04-04T12:43:17.508503+05:30
Alappuzha,Kerala,9.4981,76.3388,28.2,81,0.0,1010.1,9.05,22.0,65,14.8,13.4,7,0,4,1,2026-04-04T12:43:17.508509+05:30
Munnar,Kerala,10.0889,77.0595,26.5,66,0.0,859.7,6.2,32.8,58,13.9,12.8,7,5,7,1,2026-04-04T12:43:17.508516+05:30
Silchar,Assam,24.8333,92.7789,28.1,78,0.0,1004.9,8.45,37.4,133,38.3,29.5,7,5,4,1,2026-04-04T12:43:17.508522+05:30
Dibrugarh,Assam,27.4728,94.912,27.3,72,0.0,994.4,8.3,14.4,110,46.4,35.5,7,5,7,1,2026-04-04T12:43:17.508528+05:30
