city,state,latitude,longitude,temp,humidity,rain,pressure,uv_index,wind_gusts,aqi,pm10,pm2_5,no2,co,o3,so2,mosquito_risk,arthritis_risk,migraine_risk,frizz_risk,updated_at
Delhi,Delhi,28.6139,77.209,30.9,80,0.0,975.5,7.45,37.8,626,355.8,88.5,28.6,539.0,125.0,35.6,3,5,7,1,2026-06-30T21:00:54.969118+05:30
Mumbai,Maharashtra,19.076,72.8777,26.3,92,0.2,1004.7,5.3,43.9,38,12.9,8.2,10.5,317.0,47.0,6.0,10,5,0,1,2026-06-30T21:00:54.969161+05:30
Bangalore,Karnataka,12.9716,77.5946,22.2,84,0.0,911.7,8.3,58.3,27,5.8,5.4,16.9,311.0,34.0,4.2,3,5,7,1,2026-06-30T21:00:54.969176+05:30
Hyderabad,Telangana,17.385,78.4867,25.0,86,0.2,950.7,6.9,47.9,34,5.6,5.3,8.3,230.0,58.0,3.7,10,5,7,1,2026-06-30T21:00:54.969186+05:30
Chennai,Tamil Nadu,13.0827,80.2707,28.1,84,0.0,1005.7,8.0,40.0,48,13.3,10.6,14.2,380.0,64.0,6.8,7,5,4,1,2026-06-30T21:00:54.969194+05:30
Kolkata,West Bengal,22.5726,88.3639,27.1,97,0.0,1001.0,8.9,34.9,113,38.8,38.6,19.3,1053.0,68.0,12.4,7,5,4,1,2026-06-30T21:00:54.969201+05:30
Pune,Maharashtra,18.5204,73.8567,24.0,90,0.0,944.7,2.6,44.3,23,3.8,3.7,11.8,199.0,35.0,5.0,3,5,3,1,2026-06-30T21:00:54.969208+05:30
Ahmedabad,Gujarat,23.0225,72.5714,31.8,66,0.0,995.5,7.95,43.2,56,18.3,12.6,9.9,164.0,63.0,6.2,3,5,7,1,2026-06-30T21:00:54.969214+05:30
Jaipur,Rajasthan,26.9124,75.7873,29.0,66,0.0,953.3,8.2,48.6,175,67.1,30.4,23.1,323.0,46.0,7.5,7,5,7,1,2026-06-30T21:00:54.969225+05:30
Lucknow,Uttar Pradesh,26.8467,80.9462,29.4,74,0.0,987.4,7.85,29.2,103,60.1,36.7,18.3,299.0,70.0,10.8,7,5,7,1,2026-06-30T21:00:54.969234+05:30
Kanpur,Uttar Pradesh,26.4499,80.3319,30.8,68,0.0,985.4,7.7,37.4,119,88.0,38.8,14.2,266.0,83.0,8.3,3,5,7,1,2026-06-30T21:00:54.969241+05:30
Chandigarh,Chandigarh,30.7333,76.7794,27.5,90,0.0,961.1,7.65,34.6,126,68.0,54.9,46.0,613.0,70.0,11.9,7,5,7,1,2026-06-30T21:00:54.969248+05:30
Srinagar,Jammu and Kashmir,34.0837,74.7973,29.4,50,0.0,837.0,9.1,24.1,139,21.4,18.6,12.6,716.0,102.0,4.1,4,5,7,1,2026-06-30T21:00:54.969254+05:30
Jammu,Jammu and Kashmir,32.7266,74.857,30.6,75,0.0,964.1,8.6,34.2,150,45.6,34.2,19.4,425.0,95.0,4.4,3,5,7,1,2026-06-30T21:00:54.969260+05:30
Amritsar,Punjab,31.634,74.8723,31.8,74,0.0,971.3,8.45,31.7,155,87.8,55.8,12.7,422.0,113.0,8.0,3,5,7,1,2026-06-30T21:00:54.969266+05:30
Ludhiana,Punjab,30.901,75.8573,31.2,76,0.0,969.9,5.85,32.4,169,71.5,45.5,17.8,577.0,125.0,13.0,3,5,3,1,2026-06-30T21:00:54.969272+05:30
Jalandhar,Punjab,31.326,75.5762,31.8,74,0.0,970.9,8.0,31.7,158,121.5,58.6,17.9,501.0,134.0,17.9,3,5,7,1,2026-06-30T21:00:54.969278+05:30
Dehradun,Uttarakhand,30.6284,78.0322,19.5,99,0.0,826.6,6.6,25.2,64,27.3,13.5,22.9,231.0,81.0,2.1,3,10,7,1,2026-06-30T21:00:54.969284+05:30
Shimla,Himachal Pradesh,31.1048,77.1734,16.9,97,0.0,780.7,5.2,39.2,79,28.2,18.2,19.2,495.0,88.0,2.2,3,10,3,1,2026-06-30T21:00:54.969290+05:30
Manali,Himachal Pradesh,32.2396,77.1887,19.9,98,0.0,815.3,7.2,35.3,58,29.3,28.2,108.6,313.0,23.0,0.3,3,10,7,1,2026-06-30T21:00:54.969298+05:30
Gurgaon,Haryana,28.4595,77.0266,32.4,69,0.0,973.7,7.8,38.5,1033,1106.4,198.8,25.9,870.0,145.0,29.6,3,5,7,1,2026-06-30T21:00:54.969305+05:30
Noida,Uttar Pradesh,28.5355,77.391,30.2,84,0.0,977.1,7.45,35.6,1033,1106.4,198.8,25.9,615.0,145.0,29.6,3,5,7,1,2026-06-30T21:00:54.969312+05:30
Ghaziabad,Uttar Pradesh,28.6692,77.4538,29.7,84,0.0,975.5,7.25,40.3,210,183.0,42.4,13.7,427.0,114.0,15.5,7,5,7,1,2026-06-30T21:00:54.969320+05:30
Faridabad,Haryana,28.4089,77.3178,30.9,80,0.0,976.3,7.75,37.1,1033,1106.4,198.8,25.9,597.0,145.0,29.6,3,5,7,1,2026-06-30T21:00:54.969326+05:30
Meerut,Uttar Pradesh,28.9845,77.7064,28.2,88,0.0,974.6,7.55,36.4,210,183.0,42.4,13.7,413.0,114.0,15.5,7,5,7,1,2026-06-30T21:00:54.969332+05:30
Agra,Uttar Pradesh,27.1767,78.0081,33.2,57,0.0,980.8,6.7,38.9,408,329.7,115.7,23.1,392.0,83.0,13.4,0,5,7,1,2026-06-30T21:00:54.969338+05:30
Varanasi,Uttar Pradesh,25.3176,82.9739,30.5,75,0.0,991.8,8.65,39.2,88,36.4,31.5,16.8,645.0,73.0,7.7,3,5,7,1,2026-06-30T21:00:54.969345+05:30
Prayagraj,Uttar Pradesh,25.4358,81.8463,31.1,73,0.0,990.0,6.7,34.9,92,63.3,42.1,17.9,298.0,95.0,12.4,3,5,7,1,2026-06-30T21:00:54.969351+05:30
Gorakhpur,Uttar Pradesh,26.7606,83.3732,28.7,83,0.0,991.6,1.6,30.2,111,47.7,45.3,22.7,417.0,83.0,11.6,7,5,3,1,2026-06-30T21:00:54.969357+05:30
Bareilly,Uttar Pradesh,28.367,79.4304,28.1,86,0.0,980.6,7.6,43.6,95,31.8,25.3,15.8,454.0,74.0,5.5,7,5,7,1,2026-06-30T21:00:54.969365+05:30
Aligarh,Uttar Pradesh,27.8974,78.088,31.1,76,0.0,978.2,7.4,39.2,436,223.5,70.5,14.8,390.0,113.0,14.4,3,5,7,1,2026-06-30T21:00:54.969371+05:30
Moradabad,Uttar Pradesh,28.8386,78.7733,27.4,87,0.0,977.2,7.65,37.8,103,20.7,20.0,16.1,502.0,78.0,10.1,7,5,7,1,2026-06-30T21:00:54.969377+05:30
Saharanpur,Uttar Pradesh,29.9637,77.546,27.4,94,0.0,968.5,7.45,47.5,128,37.6,24.3,15.8,437.0,90.0,8.7,7,5,7,1,2026-06-30T21:00:54.969383+05:30
Jhansi,Uttar Pradesh,25.4484,78.5685,28.1,93,0.0,972.2,7.3,40.7,69,33.2,21.6,11.0,194.0,60.0,3.5,7,5,7,1,2026-06-30T21:00:58.344451+05:30
Surat,Gujarat,21.1702,72.8311,29.0,78,0.0,1001.2,7.1,41.4,58,19.0,14.8,22.5,302.0,31.0,35.5,7,5,4,1,2026-06-30T21:00:58.344486+05:30
Vadodara,Gujarat,22.3072,73.1812,30.2,71,0.0,998.3,6.15,47.2,57,17.5,13.8,16.7,140.0,48.0,18.2,3,5,7,1,2026-06-30T21:00:58.344497+05:30
Rajkot,Gujarat,22.3039,70.8022,31.2,66,0.0,987.6,6.05,41.4,51,16.3,9.9,4.1,123.0,56.0,4.3,3,5,7,1,2026-06-30T21:00:58.344506+05:30
Thane,Maharashtra,19.2183,72.9781,25.9,97,0.2,1004.0,5.5,32.8,38,12.9,8.2,10.5,421.0,47.0,6.0,10,5,0,1,2026-06-30T21:00:58.344515+05:30
Nagpur,Maharashtra,21.1458,79.0882,26.8,91,0.1,968.9,8.2,28.8,64,25.0,21.0,19.2,344.0,55.0,13.9,10,5,7,1,2026-06-30T21:00:58.344523+05:30
Nashik,Maharashtra,19.9975,73.7898,23.6,93,0.0,941.6,6.85,48.2,31,6.2,4.8,9.6,212.0,48.0,4.8,3,5,7,1,2026-06-30T21:00:58.344531+05:30
Aurangabad,Maharashtra,19.8762,75.3433,24.2,92,0.0,940.5,4.05,43.6,37,8.6,8.1,9.9,262.0,61.0,6.8,3,5,3,1,2026-06-30T21:00:58.344539+05:30
Solapur,Maharashtra,17.6599,75.9064,26.8,75,0.0,954.9,5.5,47.9,29,3.6,3.2,5.3,188.0,45.0,2.0,7,5,3,1,2026-06-30T21:00:58.344549+05:30
Kolhapur,Maharashtra,16.705,74.2433,23.1,94,0.0,946.0,7.45,48.2,23,3.8,3.7,6.7,142.0,42.0,1.9,3,5,7,1,2026-06-30T21:00:58.344556+05:30
Goa,Goa,15.2993,74.124,24.9,98,0.4,997.8,5.25,36.4,29,11.3,7.1,2.4,246.0,48.0,0.6,6,5,3,1,2026-06-30T21:00:58.344564+05:30
Jodhpur,Rajasthan,26.2389,73.0243,34.8,42,0.0,974.9,8.05,47.2,168,257.0,53.1,6.2,160.0,62.0,1.8,0,5,7,1,2026-06-30T21:00:58.344572+05:30
Udaipur,Rajasthan,24.5854,73.7125,28.8,64,0.0,940.4,8.7,38.5,54,22.1,13.7,5.2,152.0,70.0,2.8,7,5,7,1,2026-06-30T21:00:58.344580+05:30
Kota,Rajasthan,25.2138,75.8648,28.2,86,0.0,972.5,7.55,35.3,61,28.0,20.6,10.9,220.0,68.0,5.5,7,5,7,1,2026-06-30T21:00:58.344588+05:30
Bikaner,Rajasthan,28.0229,73.3119,36.5,34,0.0,972.5,8.5,46.4,164,198.8,67.1,2.8,150.0,67.0,2.7,0,5,10,1,2026-06-30T21:00:58.344595+05:30
Ajmer,Rajasthan,26.4499,74.6399,32.0,51,0.0,948.0,8.35,48.6,68,23.5,16.2,10.5,193.0,57.0,3.1,0,5,7,1,2026-06-30T21:00:58.344603+05:30
Gwalior,Madhya Pradesh,26.2183,78.1828,29.5,80,0.0,976.7,7.65,38.5,86,212.3,69.6,10.6,213.0,78.0,4.9,7,5,7,1,2026-06-30T21:00:58.344611+05:30
Indore,Madhya Pradesh,22.7196,75.8577,25.6,91,0.0,943.4,6.7,44.6,65,39.2,33.9,30.9,434.0,39.0,9.3,7,5,7,1,2026-06-30T21:00:58.344618+05:30
Bhopal,Madhya Pradesh,23.2599,77.4126,25.3,96,0.1,948.9,7.9,32.0,63,21.6,18.6,9.1,347.0,67.0,4.1,10,5,7,1,2026-06-30T21:00:58.344626+05:30
Jabalpur,Madhya Pradesh,23.1815,79.9864,25.2,95,0.0,956.5,2.35,36.4,55,21.7,17.8,11.4,239.0,62.0,6.4,7,5,3,1,2026-06-30T21:00:58.344633+05:30
Ujjain,Madhya Pradesh,23.1765,75.7885,26.7,85,0.0,948.8,6.4,44.6,62,38.1,29.3,11.6,279.0,61.0,5.0,7,5,7,1,2026-06-30T21:00:58.344642+05:30
Visakhapatnam,Andhra Pradesh,17.6868,83.2185,29.0,88,0.0,998.4,8.45,37.4,72,36.7,34.8,43.0,884.0,48.0,42.4,7,5,7,1,2026-06-30T21:00:58.344649+05:30
Vijayawada,Andhra Pradesh,16.5062,80.648,29.2,72,0.1,999.0,7.45,45.7,46,22.6,22.4,19.8,179.0,39.0,6.5,10,5,7,1,2026-06-30T21:00:58.344657+05:30
Guntur,Andhra Pradesh,16.3067,80.4365,28.9,75,0.0,1000.3,7.3,50.0,40,20.3,20.0,19.2,213.0,40.0,6.6,7,5,4,1,2026-06-30T21:00:58.344665+05:30
Nellore,Andhra Pradesh,14.4426,79.9865,29.4,71,0.0,1003.3,7.95,52.2,40,9.3,6.9,5.7,125.0,61.0,2.5,7,5,4,1,2026-06-30T21:00:58.344672+05:30
Kurnool,Andhra Pradesh,15.8281,78.0373,29.3,61,0.0,974.8,7.15,55.8,36,5.8,4.8,7.8,163.0,58.0,3.7,7,5,7,1,2026-06-30T21:00:58.344681+05:30
Kakinada,Andhra Pradesh,16.9891,82.2475,29.4,77,0.0,1002.9,8.5,52.2,55,18.0,15.4,8.6,288.0,77.0,4.4,7,5,4,1,2026-06-30T21:00:58.344689+05:30
Tirupati,Andhra Pradesh,13.6288,79.4192,27.6,77,0.1,989.9,7.55,48.6,29,8.3,7.4,12.5,215.0,41.0,1.8,10,5,7,1,2026-06-30T21:00:58.344696+05:30
Warangal,Telangana,17.9689,79.5941,29.0,67,0.0,974.9,6.95,38.2,40,28.2,24.1,17.1,513.0,42.0,5.4,7,5,7,1,2026-06-30T21:00:58.344704+05:30
Nizamabad,Telangana,18.6725,78.0941,24.6,95,0.0,961.9,7.45,41.0,50,10.1,8.1,5.8,157.0,64.0,4.6,3,5,7,1,2026-06-30T21:00:58.344711+05:30
Mysore,Karnataka,12.2958,76.6396,22.0,91,0.0,928.9,7.45,56.2,28,3.3,2.9,7.8,139.0,39.0,1.7,3,5,7,1,2026-06-30T21:00:58.344718+05:30
Mangalore,Karnataka,12.9141,74.856,25.1,93,0.7,1008.6,5.0,43.9,32,10.8,7.3,6.2,132.0,38.0,1.6,10,0,0,1,2026-06-30T21:00:58.344726+05:30
Hubli-Dharwad,Karnataka,15.3647,75.124,22.6,96,0.0,940.0,5.5,53.3,24,1.9,1.7,5.6,137.0,42.0,1.0,3,5,3,1,2026-06-30T21:00:58.344733+05:30
Belgaum,Karnataka,15.8497,74.4977,21.6,98,0.0,924.2,5.95,53.6,22,2.4,2.2,5.3,122.0,42.0,1.2,3,5,3,1,2026-06-30T21:01:01.712512+05:30
Coimbatore,Tamil Nadu,11.0168,76.9558,23.5,91,0.0,962.3,8.5,63.7,28,7.0,5.4,8.3,188.0,37.0,2.7,3,5,7,1,2026-06-30T21:01:01.712547+05:30
Madurai,Tamil Nadu,9.9252,78.1198,27.4,75,0.1,993.5,8.15,49.3,59,15.8,10.3,12.2,151.0,42.0,3.7,10,5,7,1,2026-06-30T21:01:01.712559+05:30
Trichy,Tamil Nadu,10.7905,78.7047,25.3,88,0.2,1000.2,8.3,68.0,34,13.6,8.1,5.4,117.0,49.0,2.3,10,5,4,1,2026-06-30T21:01:01.712568+05:30
Salem,Tamil Nadu,11.6643,78.146,25.8,90,0.0,977.7,7.55,49.3,44,20.6,17.0,23.6,548.0,43.0,7.2,7,5,7,1,2026-06-30T21:01:01.712577+05:30
Tirunelveli,Tamil Nadu,8.7139,77.7567,28.9,63,0.0,1004.6,8.4,52.2,30,11.0,7.3,5.5,128.0,43.0,1.7,7,5,4,1,2026-06-30T21:01:01.712586+05:30
Vellore,Tamil Nadu,12.9165,79.1325,27.6,75,0.0,983.2,8.8,49.7,36,13.8,12.8,17.4,170.0,43.0,4.4,7,5,7,1,2026-06-30T21:01:01.712594+05:30
Erode,Tamil Nadu,11.341,77.7172,26.7,73,0.0,989.5,8.65,44.6,43,14.3,10.8,15.3,195.0,39.0,3.1,7,5,7,1,2026-06-30T21:01:01.712602+05:30
Kochi,Kerala,9.9312,76.2673,25.0,95,0.0,1011.5,8.25,40.3,45,17.7,13.1,16.6,258.0,22.0,3.8,7,0,4,1,2026-06-30T21:01:01.712610+05:30
Thiruvananthapuram,Kerala,8.5241,76.9366,25.4,90,0.0,1010.6,8.4,49.3,37,16.9,9.7,3.5,116.0,45.0,1.4,7,0,4,1,2026-06-30T21:01:01.712618+05:30
Kozhikode,Kerala,11.2588,75.7804,24.2,99,0.1,1010.5,8.05,40.3,26,13.0,6.7,1.5,258.0,49.0,0.7,6,0,4,1,2026-06-30T21:01:01.712625+05:30
Thrissur,Kerala,10.5276,76.2144,24.1,99,0.2,1009.9,7.7,37.1,41,15.0,11.7,10.9,366.0,29.0,2.7,6,0,4,1,2026-06-30T21:01:01.712634+05:30
Kannur,Kerala,11.8745,75.3704,24.8,96,0.1,1009.7,8.55,46.8,31,13.1,8.6,9.3,181.0,33.0,1.7,6,0,4,1,2026-06-30T21:01:01.712641+05:30
Patna,Bihar,25.5941,85.1376,29.8,85,0.0,994.8,8.5,27.7,147,81.7,79.2,45.5,396.0,76.0,25.6,7,5,7,1,2026-06-30T21:01:01.712649+05:30
Gaya,Bihar,24.7914,85.0002,28.8,88,0.0,988.4,8.45,24.5,158,47.0,45.1,14.6,440.0,114.0,11.7,7,5,7,1,2026-06-30T21:01:01.712658+05:30
Muzaffarpur,Bihar,26.1209,85.3647,28.7,87,0.0,995.1,8.35,29.5,138,69.8,67.1,38.0,469.0,73.0,20.6,7,5,7,1,2026-06-30T21:01:01.712665+05:30
Bhagalpur,Bihar,25.2425,87.0117,28.5,85,0.0,996.0,8.05,22.3,182,51.2,50.6,15.6,353.0,127.0,19.1,7,5,7,1,2026-06-30T21:01:01.712673+05:30
Ranchi,Jharkhand,23.3441,85.3096,24.5,96,0.0,933.2,6.0,29.9,114,36.7,35.9,11.0,340.0,97.0,6.5,3,5,3,1,2026-06-30T21:01:01.712681+05:30
Jamshedpur,Jharkhand,22.8046,86.2029,27.6,92,0.0,985.8,8.15,25.9,163,48.5,47.7,21.3,379.0,103.0,29.6,7,5,7,1,2026-06-30T21:01:01.712689+05:30
Dhanbad,Jharkhand,23.7957,86.4304,27.3,95,0.0,974.9,8.8,28.8,168,116.6,115.5,62.6,583.0,80.0,200.7,7,5,7,1,2026-06-30T21:01:01.712696+05:30
Bokaro,Jharkhand,23.6693,86.1511,28.3,92,0.0,978.6,9.0,22.7,155,103.1,102.0,53.3,451.0,84.0,191.9,7,5,7,1,2026-06-30T21:01:01.712705+05:30
Bhubaneswar,Odisha,20.2961,85.8245,28.1,90,0.0,997.7,3.2,23.8,73,23.5,23.2,14.7,451.0,84.0,8.6,7,5,3,1,2026-06-30T21:01:01.712712+05:30
Cuttack,Odisha,20.4625,85.8828,28.5,91,0.0,999.4,3.55,21.2,73,23.5,23.2,14.7,803.0,84.0,8.6,7,5,3,1,2026-06-30T21:01:01.712720+05:30
Rourkela,Odisha,22.2604,84.8536,25.9,98,0.0,980.3,6.8,32.8,123,26.8,26.3,10.0,477.0,118.0,11.8,7,5,7,1,2026-06-30T21:01:01.712728+05:30
Raipur,Chhattisgarh,21.2514,81.6296,26.1,92,0.4,969.8,3.3,38.5,80,33.6,32.7,49.9,455.0,38.0,57.8,10,5,3,1,2026-06-30T21:01:01.712735+05:30
Bhilai,Chhattisgarh,21.1938,81.3509,28.9,72,0.0,970.4,7.2,42.5,77,33.8,32.2,48.1,719.0,43.0,58.5,7,5,7,1,2026-06-30T21:01:01.712743+05:30
Guwahati,Assam,26.1158,91.7086,26.6,99,0.0,997.6,7.7,21.6,64,20.1,19.7,7.9,375.0,68.0,2.3,7,5,7,1,2026-06-30T21:01:01.712750+05:30
Agartala,Tripura,23.8315,91.2868,26.3,98,0.0,1001.9,6.95,28.4,58,16.3,16.2,11.9,278.0,58.0,2.0,7,5,4,1,2026-06-30T21:01:01.712758+05:30
Shillong,Meghalaya,25.5788,91.8933,19.7,97,0.0,854.8,7.8,23.8,35,11.4,11.3,11.5,410.0,51.0,2.4,3,10,7,1,2026-06-30T21:01:01.712766+05:30
Imphal,Manipur,24.817,93.9368,23.7,96,0.0,920.7,6.65,32.8,38,18.7,18.5,19.4,331.0,28.0,3.4,3,5,7,1,2026-06-30T21:01:01.712773+05:30
Aizawl,Mizoram,23.7271,92.7176,20.2,99,0.1,889.5,8.4,22.3,26,6.2,6.1,8.6,173.0,33.0,0.8,6,5,7,1,2026-06-30T21:01:01.712781+05:30
Kohima,Nagaland,25.6701,94.1077,21.1,88,0.1,853.3,8.7,19.8,29,7.6,7.5,11.2,371.0,34.0,0.9,6,5,7,1,2026-06-30T21:01:01.712808+05:30
Gangtok,Sikkim,27.3314,88.6138,19.2,97,0.1,836.4,6.5,29.2,77,11.3,10.6,8.9,343.0,106.0,2.5,6,10,7,1,2026-06-30T21:01:01.712818+05:30
Siliguri,West Bengal,26.7271,88.3953,26.5,93,0.3,989.0,7.55,26.6,99,44.6,42.5,17.5,753.0,107.0,6.9,10,5,7,1,2026-06-30T21:01:05.115874+05:30
Durgapur,West Bengal,23.5204,87.3119,26.8,96,0.0,989.9,8.7,27.7,182,73.3,72.9,27.3,739.0,109.0,35.0,7,5,7,1,2026-06-30T21:01:05.115908+05:30
Asansol,West Bengal,23.6739,86.9524,27.2,95,0.0,988.4,8.85,28.4,195,88.5,87.5,38.3,622.0,105.0,44.6,7,5,7,1,2026-06-30T21:01:05.115920+05:30
Pondicherry,Puducherry,11.9139,79.8145,27.9,80,0.1,1007.7,8.2,43.9,64,15.4,12.7,14.0,252.0,71.0,4.8,10,5,4,1,2026-06-30T21:01:05.115930+05:30
Port Blair,Andaman and Nicobar Islands,11.6234,92.7265,24.8,98,0.2,1007.3,7.85,45.0,29,11.5,6.7,0.3,94.0,58.0,0.4,6,5,4,1,2026-06-30T21:01:05.115939+05:30
Haridwar,Uttarakhand,29.9457,78.1642,27.1,82,0.0,967.4,7.0,42.5,100,29.8,21.1,13.0,428.0,82.0,7.1,7,5,7,1,2026-06-30T21:01:05.115947+05:30
Rishikesh,Uttarakhand,30.0869,78.2676,26.1,98,0.0,960.2,7.15,32.4,82,36.1,18.0,8.1,393.0,97.0,3.8,7,5,7,1,2026-06-30T21:01:05.115956+05:30
Nainital,Uttarakhand,29.3919,79.4542,17.6,100,0.1,802.1,5.75,21.6,61,9.4,8.9,11.8,392.0,90.0,2.1,6,10,3,1,2026-06-30T21:01:05.115964+05:30
Mussoorie,Uttarakhand,30.4599,78.0664,18.0,99,0.0,799.6,6.65,32.4,83,44.7,29.3,27.1,415.0,85.0,9.1,3,10,7,1,2026-06-30T21:01:05.115973+05:30
Dharamshala,Himachal Pradesh,32.219,76.3234,23.4,93,0.0,864.4,6.55,27.4,75,9.9,8.0,10.1,543.0,92.0,0.7,3,5,7,1,2026-06-30T21:01:05.115981+05:30
Dalhousie,Himachal Pradesh,32.5387,75.971,18.3,99,0.0,800.6,6.65,21.6,107,27.0,19.1,20.7,721.0,105.0,2.6,3,10,7,1,2026-06-30T21:01:05.115989+05:30
Patiala,Punjab,30.3398,76.3869,28.6,85,0.0,970.0,7.6,46.1,177,51.8,32.4,13.7,354.0,124.0,14.2,7,5,7,1,2026-06-30T21:01:05.115996+05:30
Bhatinda,Punjab,30.211,74.9455,36.6,39,0.0,973.9,8.25,34.9,164,208.2,80.3,19.7,241.0,85.0,10.6,0,5,10,1,2026-06-30T21:01:05.116003+05:30
Rohtak,Haryana,28.8955,76.6066,32.2,72,0.0,973.4,7.55,35.3,1253,1467.8,249.6,30.7,853.0,136.0,34.6,3,5,7,1,2026-06-30T21:01:05.116011+05:30
Panipat,Haryana,29.3909,76.9635,29.4,85,0.0,972.8,7.6,35.3,1520,2995.1,373.5,16.0,477.0,138.0,20.8,7,5,7,1,2026-06-30T21:01:05.116019+05:30
Mathura,Uttar Pradesh,27.4924,77.6737,32.5,65,0.0,979.5,7.45,33.5,532,421.0,145.8,25.9,386.0,89.0,13.6,3,5,7,1,2026-06-30T21:01:05.116027+05:30
Vrindavan,Uttar Pradesh,27.5823,77.7027,32.3,67,0.0,980.0,7.45,30.6,532,421.0,145.8,25.9,410.0,89.0,13.6,3,5,7,1,2026-06-30T21:01:05.116035+05:30
Ayodhya,Uttar Pradesh,26.7922,82.1998,28.7,81,0.0,989.5,6.4,24.5,96,49.7,40.4,16.4,579.0,87.0,6.6,7,5,7,1,2026-06-30T21:01:05.116042+05:30
Ratlam,Madhya Pradesh,23.3315,75.0367,27.8,77,0.0,949.6,7.6,42.1,61,33.2,23.5,6.2,174.0,77.0,5.0,7,5,7,1,2026-06-30T21:01:05.116050+05:30
Sagar,Madhya Pradesh,23.8388,78.7378,26.2,92,0.0,945.2,8.7,37.8,61,19.1,16.2,8.7,235.0,62.0,5.0,7,5,7,1,2026-06-30T21:01:05.116057+05:30
Satna,Madhya Pradesh,24.6005,80.8322,28.2,87,0.0,965.9,7.9,37.1,71,30.0,19.6,11.0,225.0,73.0,4.0,7,5,7,1,2026-06-30T21:01:05.116064+05:30
Akola,Maharashtra,20.7002,77.0082,26.4,91,0.2,971.4,5.6,35.6,57,21.8,17.4,13.2,179.0,65.0,7.3,10,5,3,1,2026-06-30T21:01:05.116073+05:30
Amravati,Maharashtra,20.9374,77.7796,26.8,86,0.0,963.5,7.95,38.9,58,21.5,17.1,13.4,223.0,64.0,8.3,7,5,7,1,2026-06-30T21:01:05.116082+05:30
Latur,Maharashtra,18.4088,76.5604,25.3,86,0.1,937.2,6.3,40.3,30,4.7,4.4,5.3,158.0,53.0,1.7,10,5,7,1,2026-06-30T21:01:05.116090+05:30
Nanded,Maharashtra,19.1383,77.3091,25.9,86,0.0,965.7,8.5,34.9,50,7.1,6.4,7.7,158.0,56.0,3.8,7,5,7,1,2026-06-30T21:01:05.116097+05:30
Gulbarga,Karnataka,17.3297,76.8343,26.1,81,0.0,956.5,6.4,51.8,31,4.7,4.1,8.7,163.0,46.0,2.7,7,5,7,1,2026-06-30T21:01:05.116104+05:30
Bidar,Karnataka,17.9104,77.5199,23.6,95,0.0,932.9,6.75,45.0,33,5.3,5.1,9.6,165.0,51.0,1.5,3,5,7,1,2026-06-30T21:01:05.116112+05:30
Hospet,Karnataka,15.2689,76.3909,25.2,78,0.0,955.1,7.4,56.5,28,3.2,2.5,5.0,127.0,44.0,1.4,7,5,7,1,2026-06-30T21:01:05.116119+05:30
Tirupur,Tamil Nadu,11.1085,77.3411,24.4,86,0.0,975.6,8.45,69.8,49,14.6,11.3,15.7,164.0,40.0,4.1,3,5,7,1,2026-06-30T21:01:05.116127+05:30
Alappuzha,Kerala,9.4981,76.3388,25.8,90,0.2,1011.5,8.3,41.0,41,18.3,11.3,9.1,86.0,37.0,2.3,10,0,4,1,2026-06-30T21:01:05.116135+05:30
Munnar,Kerala,10.0889,77.0595,15.8,100,0.1,857.5,7.1,49.0,25,5.1,4.1,7.7,95.0,34.0,1.6,6,10,7,0,2026-06-30T21:01:05.116143+05:30
Silchar,Assam,24.8333,92.7789,26.5,96,0.1,1001.6,8.2,24.5,62,20.3,19.8,8.9,245.0,62.0,4.6,10,5,4,1,2026-06-30T21:01:05.116150+05:30
Dibrugarh,Assam,27.4728,94.912,28.4,87,0.0,991.0,7.6,19.1,74,30.5,29.8,17.3,462.0,51.0,3.6,7,5,7,1,2026-06-30T21:01:05.116158+05:30
