city,state,latitude,longitude,temp,humidity,rain,pressure,uv_index,wind_gusts,aqi,pm10,pm2_5,no2,co,o3,so2,mosquito_risk,arthritis_risk,migraine_risk,frizz_risk,updated_at
Delhi,Delhi,28.6139,77.209,31.8,62,0.0,977.2,5.25,28.4,650,516.0,156.5,59.2,481.0,14.0,22.1,3,5,3,1,2026-07-19T00:38:34.468367+05:30
Mumbai,Maharashtra,19.076,72.8777,26.0,90,0.2,1007.1,7.65,39.6,61,29.0,14.2,8.5,260.0,44.0,6.5,10,5,4,1,2026-07-19T00:38:34.468405+05:30
Bangalore,Karnataka,12.9716,77.5946,21.1,91,0.0,911.6,6.35,47.5,50,10.3,7.4,14.5,305.0,34.0,4.3,3,5,7,1,2026-07-19T00:38:34.468418+05:30
Hyderabad,Telangana,17.385,78.4867,24.5,87,0.0,951.7,8.0,41.8,51,12.7,9.2,11.4,236.0,38.0,5.3,3,5,7,1,2026-07-19T00:38:34.468426+05:30
Chennai,Tamil Nadu,13.0827,80.2707,26.7,78,0.0,1006.2,7.7,33.5,70,37.8,23.9,15.7,228.0,70.0,10.5,7,5,4,1,2026-07-19T00:38:34.468432+05:30
Kolkata,West Bengal,22.5726,88.3639,27.6,89,0.0,1001.5,7.4,33.8,61,22.1,17.3,6.0,266.0,103.0,5.4,7,5,4,1,2026-07-19T00:38:34.468438+05:30
Pune,Maharashtra,18.5204,73.8567,22.9,93,0.0,946.4,6.45,46.8,33,3.6,3.2,10.2,164.0,31.0,6.9,3,5,7,1,2026-07-19T00:38:34.468444+05:30
Ahmedabad,Gujarat,23.0225,72.5714,28.0,81,0.0,998.5,6.95,40.7,64,27.2,15.5,8.9,164.0,43.0,4.1,7,5,7,1,2026-07-19T00:38:34.468449+05:30
Jaipur,Rajasthan,26.9124,75.7873,32.2,54,0.0,955.1,7.8,32.8,205,316.6,63.3,18.4,261.0,38.0,5.5,0,5,7,1,2026-07-19T00:38:34.468454+05:30
Lucknow,Uttar Pradesh,26.8467,80.9462,27.8,92,0.0,989.3,7.2,22.7,165,120.1,71.7,26.6,543.0,50.0,11.7,7,5,7,1,2026-07-19T00:38:34.468463+05:30
Kanpur,Uttar Pradesh,26.4499,80.3319,28.6,87,0.0,987.4,2.55,19.8,158,100.4,57.0,20.5,272.0,56.0,6.6,7,5,3,1,2026-07-19T00:38:34.468468+05:30
Chandigarh,Chandigarh,30.7333,76.7794,29.5,78,0.0,963.6,6.3,28.1,156,114.8,79.6,48.2,762.0,51.0,17.2,7,5,7,1,2026-07-19T00:38:34.468473+05:30
Srinagar,Jammu and Kashmir,34.0837,74.7973,27.2,67,0.0,839.1,9.0,25.2,94,39.3,37.4,40.2,834.0,10.0,3.2,7,5,7,1,2026-07-19T00:38:34.468479+05:30
Jammu,Jammu and Kashmir,32.7266,74.857,29.6,83,0.0,966.7,8.6,29.9,140,66.4,51.6,37.1,454.0,37.0,5.6,7,5,7,1,2026-07-19T00:38:34.468486+05:30
Amritsar,Punjab,31.634,74.8723,30.2,83,0.0,974.1,7.25,29.9,170,156.0,94.1,47.4,746.0,27.0,8.4,3,5,7,1,2026-07-19T00:38:34.468491+05:30
Ludhiana,Punjab,30.901,75.8573,31.3,78,0.0,972.4,6.05,31.3,179,340.9,158.3,77.1,1937.0,5.0,12.3,3,5,7,1,2026-07-19T00:38:34.468507+05:30
Jalandhar,Punjab,31.326,75.5762,30.7,77,0.0,973.3,7.3,31.7,175,169.5,98.7,49.8,1401.0,17.0,6.3,3,5,7,1,2026-07-19T00:38:34.468512+05:30
Dehradun,Uttarakhand,30.6284,78.0322,19.7,100,0.0,828.7,6.8,26.6,77,51.3,25.0,6.2,218.0,115.0,5.9,3,10,7,1,2026-07-19T00:38:34.468518+05:30
Shimla,Himachal Pradesh,31.1048,77.1734,17.7,95,0.0,783.7,4.95,40.7,84,38.9,17.3,9.2,235.0,104.0,7.9,3,10,3,1,2026-07-19T00:38:34.468524+05:30
Manali,Himachal Pradesh,32.2396,77.1887,21.3,97,0.0,818.5,5.45,32.8,54,15.9,14.2,24.2,272.0,51.0,0.0,3,5,3,1,2026-07-19T00:38:34.468531+05:30
Gurgaon,Haryana,28.4595,77.0266,31.4,66,0.0,975.6,6.6,28.4,581,722.7,156.0,33.0,385.0,39.0,10.1,3,5,7,1,2026-07-19T00:38:34.468538+05:30
Noida,Uttar Pradesh,28.5355,77.391,30.5,71,0.0,978.8,5.3,27.7,581,722.7,156.0,33.0,485.0,39.0,10.1,3,5,3,1,2026-07-19T00:38:34.468544+05:30
Ghaziabad,Uttar Pradesh,28.6692,77.4538,29.9,76,0.0,977.1,5.1,27.7,607,390.2,151.8,58.0,633.0,13.0,18.1,7,5,3,1,2026-07-19T00:38:34.468550+05:30
Faridabad,Haryana,28.4089,77.3178,31.8,63,0.0,978.0,5.3,22.0,581,722.7,156.0,33.0,443.0,39.0,10.1,3,5,3,1,2026-07-19T00:38:34.468555+05:30
Meerut,Uttar Pradesh,28.9845,77.7064,29.5,82,0.0,976.2,5.65,29.9,607,390.2,151.8,58.0,775.0,13.0,18.1,7,5,3,1,2026-07-19T00:38:34.468560+05:30
Agra,Uttar Pradesh,27.1767,78.0081,31.8,63,0.0,982.5,5.25,27.7,142,55.8,35.4,26.4,494.0,37.0,6.6,3,5,3,1,2026-07-19T00:38:34.468566+05:30
Varanasi,Uttar Pradesh,25.3176,82.9739,26.6,97,0.3,993.4,6.55,22.3,145,65.0,41.2,14.4,451.0,84.0,6.8,10,5,7,1,2026-07-19T00:38:34.468571+05:30
Prayagraj,Uttar Pradesh,25.4358,81.8463,28.4,94,0.1,991.7,3.8,28.8,153,71.9,46.2,14.4,263.0,91.0,7.4,10,5,3,1,2026-07-19T00:38:34.468576+05:30
Gorakhpur,Uttar Pradesh,26.7606,83.3732,26.8,97,0.2,993.4,5.4,21.2,82,21.8,21.7,12.9,400.0,79.0,4.9,10,5,3,1,2026-07-19T00:38:34.468581+05:30
Bareilly,Uttar Pradesh,28.367,79.4304,27.2,97,0.0,982.4,6.6,29.2,154,75.4,46.2,14.0,335.0,85.0,10.9,7,5,7,1,2026-07-19T00:38:34.468588+05:30
Aligarh,Uttar Pradesh,27.8974,78.088,30.4,73,0.0,980.1,6.4,25.6,295,163.0,61.5,25.6,399.0,44.0,6.5,3,5,7,1,2026-07-19T00:38:34.468593+05:30
Moradabad,Uttar Pradesh,28.8386,78.7733,27.9,91,0.0,979.1,7.7,33.8,167,71.0,52.6,14.6,401.0,81.0,15.3,7,5,7,1,2026-07-19T00:38:34.468598+05:30
Saharanpur,Uttar Pradesh,29.9637,77.546,28.8,87,0.0,970.9,7.25,28.8,195,247.7,107.6,28.0,391.0,55.0,14.2,7,5,7,1,2026-07-19T00:38:34.468603+05:30
Jhansi,Uttar Pradesh,25.4484,78.5685,26.9,93,0.1,974.0,4.4,35.3,85,39.7,27.6,14.0,181.0,54.0,5.8,10,5,3,1,2026-07-19T00:38:37.997549+05:30
Surat,Gujarat,21.1702,72.8311,28.3,81,0.0,1003.7,7.55,41.4,69,24.1,17.1,19.4,286.0,29.0,29.9,7,5,4,1,2026-07-19T00:38:37.997582+05:30
Vadodara,Gujarat,22.3072,73.1812,27.6,85,0.0,1001.0,6.2,38.2,64,17.9,13.3,17.9,180.0,28.0,14.5,7,5,4,1,2026-07-19T00:38:37.997592+05:30
Rajkot,Gujarat,22.3039,70.8022,27.1,80,0.0,990.5,6.4,41.4,58,22.9,12.6,5.3,111.0,44.0,5.2,7,5,7,1,2026-07-19T00:38:37.997599+05:30
Thane,Maharashtra,19.2183,72.9781,24.9,97,0.2,1006.6,7.4,37.1,61,29.0,14.2,8.5,226.0,44.0,6.5,6,5,4,1,2026-07-19T00:38:37.997605+05:30
Nagpur,Maharashtra,21.1458,79.0882,25.8,89,0.0,970.4,5.25,32.8,64,18.3,14.3,16.0,199.0,39.0,7.8,7,5,3,1,2026-07-19T00:38:37.997611+05:30
Nashik,Maharashtra,19.9975,73.7898,22.6,97,0.0,943.3,6.2,45.0,30,4.3,3.1,13.4,145.0,29.0,11.9,3,5,7,1,2026-07-19T00:38:37.997616+05:30
Aurangabad,Maharashtra,19.8762,75.3433,23.1,95,0.1,942.4,8.2,38.9,41,8.6,7.0,10.7,149.0,41.0,9.2,6,5,7,1,2026-07-19T00:38:37.997621+05:30
Solapur,Maharashtra,17.6599,75.9064,24.6,94,0.1,956.0,7.55,38.5,39,7.2,5.6,7.3,176.0,32.0,2.6,6,5,7,1,2026-07-19T00:38:37.997628+05:30
Kolhapur,Maharashtra,16.705,74.2433,22.2,95,0.0,947.2,6.25,46.1,29,4.2,3.4,5.2,137.0,37.0,2.2,3,5,7,1,2026-07-19T00:38:37.997633+05:30
Goa,Goa,15.2993,74.124,24.5,94,0.0,998.7,6.7,30.6,62,29.9,18.6,5.7,483.0,36.0,1.6,3,5,7,1,2026-07-19T00:38:37.997638+05:30
Jodhpur,Rajasthan,26.2389,73.0243,31.4,53,0.0,977.8,7.7,41.8,128,134.1,36.0,9.7,133.0,43.0,2.5,0,5,7,1,2026-07-19T00:38:37.997644+05:30
Udaipur,Rajasthan,24.5854,73.7125,26.8,70,0.0,942.8,7.0,29.2,71,29.5,18.0,8.7,146.0,64.0,8.7,7,5,7,1,2026-07-19T00:38:37.997649+05:30
Kota,Rajasthan,25.2138,75.8648,31.7,55,0.0,974.3,8.1,28.8,82,30.0,19.5,9.1,179.0,66.0,6.3,0,5,7,1,2026-07-19T00:38:37.997654+05:30
Bikaner,Rajasthan,28.0229,73.3119,33.4,46,0.0,975.8,8.4,39.6,126,196.5,54.2,2.3,114.0,65.0,2.5,0,5,7,1,2026-07-19T00:38:37.997660+05:30
Ajmer,Rajasthan,26.4499,74.6399,29.8,57,0.0,950.5,7.7,40.7,76,31.8,19.2,11.7,154.0,44.0,4.3,4,5,7,1,2026-07-19T00:38:37.997665+05:30
Gwalior,Madhya Pradesh,26.2183,78.1828,29.1,70,0.0,978.6,6.1,39.2,89,33.2,21.7,11.5,175.0,54.0,3.4,7,5,7,1,2026-07-19T00:38:37.997671+05:30
Indore,Madhya Pradesh,22.7196,75.8577,25.6,84,0.0,945.2,8.5,44.3,70,20.0,16.7,10.6,248.0,61.0,8.4,7,5,7,1,2026-07-19T00:38:37.997677+05:30
Bhopal,Madhya Pradesh,23.2599,77.4126,24.7,93,0.2,950.6,7.85,30.2,78,32.0,21.3,9.1,318.0,56.0,4.6,6,5,7,1,2026-07-19T00:38:37.997682+05:30
Jabalpur,Madhya Pradesh,23.1815,79.9864,24.9,100,0.3,958.2,1.25,28.4,83,34.3,25.0,8.1,303.0,65.0,4.4,6,5,3,1,2026-07-19T00:38:37.997687+05:30
Ujjain,Madhya Pradesh,23.1765,75.7885,26.3,81,0.0,950.7,8.2,33.5,72,17.0,14.2,6.9,229.0,70.0,7.5,7,5,7,1,2026-07-19T00:38:37.997693+05:30
Visakhapatnam,Andhra Pradesh,17.6868,83.2185,28.0,78,0.0,999.4,8.1,38.9,77,26.9,22.1,24.6,308.0,45.0,34.6,7,5,7,1,2026-07-19T00:38:37.997698+05:30
Vijayawada,Andhra Pradesh,16.5062,80.648,27.7,79,0.0,1000.6,8.5,38.5,61,18.9,13.8,10.9,201.0,39.0,5.0,7,5,4,1,2026-07-19T00:38:37.997703+05:30
Guntur,Andhra Pradesh,16.3067,80.4365,28.0,74,0.0,1002.0,8.65,45.0,59,17.3,12.1,10.2,189.0,39.0,4.9,7,5,4,1,2026-07-19T00:38:37.997709+05:30
Nellore,Andhra Pradesh,14.4426,79.9865,25.6,94,0.4,1005.3,7.85,36.0,54,25.1,14.1,8.9,183.0,48.0,4.7,10,5,4,1,2026-07-19T00:38:37.997714+05:30
Kurnool,Andhra Pradesh,15.8281,78.0373,24.9,92,0.1,976.4,5.65,43.9,53,14.6,9.7,10.4,201.0,44.0,3.8,6,5,3,1,2026-07-19T00:38:37.997720+05:30
Kakinada,Andhra Pradesh,16.9891,82.2475,27.4,85,0.0,1004.3,8.6,46.1,65,28.3,19.7,8.1,232.0,70.0,5.8,7,5,4,1,2026-07-19T00:38:37.997726+05:30
Tirupati,Andhra Pradesh,13.6288,79.4192,26.0,95,0.0,990.6,6.55,32.0,57,21.7,14.9,16.2,265.0,31.0,2.3,7,5,7,1,2026-07-19T00:38:37.997732+05:30
Warangal,Telangana,17.9689,79.5941,25.6,91,0.0,976.7,3.95,40.3,61,18.8,14.1,11.4,203.0,40.0,4.2,7,5,3,1,2026-07-19T00:38:37.997737+05:30
Nizamabad,Telangana,18.6725,78.0941,24.1,96,0.2,963.0,3.7,43.2,61,19.6,13.0,8.9,203.0,52.0,10.6,6,5,3,1,2026-07-19T00:38:37.997742+05:30
Mysore,Karnataka,12.2958,76.6396,21.4,91,0.0,929.1,4.95,48.2,34,5.6,4.3,8.2,140.0,37.0,2.3,3,5,3,1,2026-07-19T00:38:37.997748+05:30
Mangalore,Karnataka,12.9141,74.856,24.3,96,0.1,1008.2,8.25,34.2,57,16.4,11.6,14.8,333.0,19.0,3.7,6,0,4,1,2026-07-19T00:38:37.997753+05:30
Hubli-Dharwad,Karnataka,15.3647,75.124,21.8,96,0.0,940.7,7.9,58.3,25,3.8,2.5,5.2,120.0,37.0,1.5,3,5,7,1,2026-07-19T00:38:37.997758+05:30
Belgaum,Karnataka,15.8497,74.4977,20.9,98,0.0,925.1,7.75,55.1,20,5.9,3.6,3.7,114.0,41.0,1.6,3,5,7,1,2026-07-19T00:38:41.321353+05:30
Coimbatore,Tamil Nadu,11.0168,76.9558,23.3,91,0.0,962.1,8.5,46.1,44,10.0,8.1,11.2,203.0,26.0,3.6,3,5,7,1,2026-07-19T00:38:41.321385+05:30
Madurai,Tamil Nadu,9.9252,78.1198,29.2,62,0.0,992.9,8.45,24.8,62,35.4,22.1,22.9,241.0,44.0,6.5,7,5,7,1,2026-07-19T00:38:41.321394+05:30
Trichy,Tamil Nadu,10.7905,78.7047,29.2,61,0.0,999.5,8.25,34.9,53,14.2,11.0,12.9,113.0,38.0,4.3,7,5,7,1,2026-07-19T00:38:41.321400+05:30
Salem,Tamil Nadu,11.6643,78.146,26.4,83,0.0,977.6,8.0,37.8,65,37.8,22.0,21.5,378.0,29.0,7.4,7,5,7,1,2026-07-19T00:38:41.321407+05:30
Tirunelveli,Tamil Nadu,8.7139,77.7567,28.8,61,0.0,1003.6,8.05,47.5,50,5.0,3.9,5.6,143.0,39.0,2.0,7,5,4,1,2026-07-19T00:38:41.321413+05:30
Vellore,Tamil Nadu,12.9165,79.1325,26.9,78,0.0,984.1,7.85,47.5,62,46.1,27.5,25.1,163.0,27.0,5.3,7,5,7,1,2026-07-19T00:38:41.321419+05:30
Erode,Tamil Nadu,11.341,77.7172,26.7,73,0.0,989.5,8.1,42.1,56,17.6,12.1,14.8,175.0,31.0,4.3,7,5,7,1,2026-07-19T00:38:41.321425+05:30
Kochi,Kerala,9.9312,76.2673,24.9,94,0.1,1011.1,7.8,37.4,56,13.2,9.2,12.2,132.0,28.0,3.5,6,0,4,1,2026-07-19T00:38:41.321431+05:30
Thiruvananthapuram,Kerala,8.5241,76.9366,24.7,95,0.0,1010.1,7.9,41.8,57,14.8,7.6,4.2,119.0,44.0,1.6,3,0,4,1,2026-07-19T00:38:41.321436+05:30
Kozhikode,Kerala,11.2588,75.7804,24.1,97,0.0,1009.8,8.0,36.7,51,14.7,8.0,2.5,149.0,48.0,1.6,3,0,4,1,2026-07-19T00:38:41.321441+05:30
Thrissur,Kerala,10.5276,76.2144,23.9,98,0.0,1009.1,8.0,35.6,55,14.8,11.1,9.4,184.0,30.0,3.1,3,0,4,1,2026-07-19T00:38:41.321447+05:30
Kannur,Kerala,11.8745,75.3704,24.1,96,0.2,1009.0,8.5,33.8,53,16.5,12.0,15.4,225.0,20.0,3.0,6,0,4,1,2026-07-19T00:38:41.321453+05:30
Patna,Bihar,25.5941,85.1376,27.0,97,0.0,995.8,6.15,25.2,79,27.0,26.8,10.8,447.0,97.0,11.5,7,5,7,1,2026-07-19T00:38:41.321459+05:30
Gaya,Bihar,24.7914,85.0002,26.9,98,0.0,989.1,6.15,25.6,108,29.6,29.3,13.1,393.0,75.0,7.6,7,5,7,1,2026-07-19T00:38:41.321464+05:30
Muzaffarpur,Bihar,26.1209,85.3647,26.9,96,0.1,996.1,3.8,32.8,75,24.6,24.4,11.1,376.0,91.0,8.7,10,5,3,1,2026-07-19T00:38:41.321469+05:30
Bhagalpur,Bihar,25.2425,87.0117,26.8,97,0.1,997.1,4.2,22.3,77,23.0,22.5,14.0,307.0,77.0,11.4,10,5,3,1,2026-07-19T00:38:41.321474+05:30
Ranchi,Jharkhand,23.3441,85.3096,23.3,97,0.0,933.2,8.1,27.0,70,17.5,17.3,9.1,264.0,79.0,7.6,3,5,7,1,2026-07-19T00:38:41.321480+05:30
Jamshedpur,Jharkhand,22.8046,86.2029,26.3,99,0.0,986.2,7.75,37.4,86,28.6,27.9,21.9,372.0,57.0,19.4,7,5,7,1,2026-07-19T00:38:41.321485+05:30
Dhanbad,Jharkhand,23.7957,86.4304,25.7,98,0.0,975.4,7.15,27.7,149,54.5,53.9,59.6,450.0,32.0,113.5,7,5,7,1,2026-07-19T00:38:41.321490+05:30
Bokaro,Jharkhand,23.6693,86.1511,25.9,99,0.0,979.2,8.0,30.2,126,46.6,46.1,46.9,2034.0,53.0,102.1,7,5,7,1,2026-07-19T00:38:41.321521+05:30
Bhubaneswar,Odisha,20.2961,85.8245,26.5,98,0.0,998.4,8.8,34.2,65,28.6,24.4,8.7,428.0,93.0,6.5,7,5,7,1,2026-07-19T00:38:41.321531+05:30
Cuttack,Odisha,20.4625,85.8828,26.7,97,0.0,1000.2,9.1,36.7,65,28.6,24.4,8.7,458.0,93.0,6.5,7,5,4,1,2026-07-19T00:38:41.321537+05:30
Rourkela,Odisha,22.2604,84.8536,25.5,99,0.0,980.9,6.7,31.7,75,24.7,22.8,9.8,351.0,80.0,7.8,7,5,7,1,2026-07-19T00:38:41.321543+05:30
Raipur,Chhattisgarh,21.2514,81.6296,24.5,98,0.1,971.2,6.8,31.3,85,29.5,20.8,21.1,389.0,58.0,25.1,6,5,7,1,2026-07-19T00:38:41.321548+05:30
Bhilai,Chhattisgarh,21.1938,81.3509,24.8,98,0.1,971.9,7.5,33.1,81,27.5,21.0,18.9,493.0,55.0,22.2,6,5,7,1,2026-07-19T00:38:41.321554+05:30
Guwahati,Assam,26.1158,91.7086,25.6,98,0.1,999.2,2.15,29.9,53,13.5,12.4,11.8,198.0,37.0,2.3,10,5,3,1,2026-07-19T00:38:41.321559+05:30
Agartala,Tripura,23.8315,91.2868,26.8,83,0.0,1004.4,7.7,43.9,56,20.1,15.2,7.7,147.0,49.0,2.3,7,5,4,1,2026-07-19T00:38:41.321565+05:30
Shillong,Meghalaya,25.5788,91.8933,20.5,92,0.0,856.2,2.7,33.5,30,1.6,1.5,6.0,167.0,52.0,1.6,3,5,3,1,2026-07-19T00:38:41.321570+05:30
Imphal,Manipur,24.817,93.9368,23.8,90,0.0,921.8,1.85,21.6,57,15.8,14.1,11.4,350.0,34.0,2.3,3,5,3,1,2026-07-19T00:38:41.321576+05:30
Aizawl,Mizoram,23.7271,92.7176,20.1,90,0.0,891.6,2.6,38.9,49,9.1,5.6,2.5,119.0,43.0,0.5,3,5,3,1,2026-07-19T00:38:41.321581+05:30
Kohima,Nagaland,25.6701,94.1077,20.2,94,0.0,854.3,1.1,18.7,36,9.8,7.7,7.5,297.0,42.0,1.5,3,5,3,1,2026-07-19T00:38:41.321586+05:30
Gangtok,Sikkim,27.3314,88.6138,18.6,100,0.3,837.0,3.15,27.0,38,3.3,3.2,4.6,267.0,96.0,1.2,6,10,3,1,2026-07-19T00:38:41.321592+05:30
Siliguri,West Bengal,26.7271,88.3953,25.2,98,0.6,990.7,0.6,23.0,57,16.4,15.8,8.0,264.0,95.0,2.7,10,5,3,1,2026-07-19T00:38:44.620691+05:30
Durgapur,West Bengal,23.5204,87.3119,26.5,96,0.0,990.3,8.2,31.7,99,38.2,37.3,26.6,287.0,57.0,32.1,7,5,7,1,2026-07-19T00:38:44.620724+05:30
Asansol,West Bengal,23.6739,86.9524,26.6,97,0.0,988.8,7.85,33.8,106,31.9,31.1,29.1,685.0,52.0,34.1,7,5,7,1,2026-07-19T00:38:44.620734+05:30
Pondicherry,Puducherry,11.9139,79.8145,28.2,79,0.0,1008.0,6.7,47.9,73,32.1,21.4,16.5,279.0,61.0,12.2,7,0,4,1,2026-07-19T00:38:44.620741+05:30
Port Blair,Andaman and Nicobar Islands,11.6234,92.7265,26.4,86,0.0,1008.2,8.8,43.2,51,21.9,10.5,0.2,95.0,51.0,0.5,7,0,4,1,2026-07-19T00:38:44.620748+05:30
Haridwar,Uttarakhand,29.9457,78.1642,28.2,88,0.0,969.4,7.4,22.0,167,99.7,59.8,11.2,372.0,88.0,10.6,7,5,7,1,2026-07-19T00:38:44.620754+05:30
Rishikesh,Uttarakhand,30.0869,78.2676,28.3,86,0.1,962.3,6.8,22.0,156,131.8,58.4,8.7,273.0,98.0,8.7,10,5,7,1,2026-07-19T00:38:44.620761+05:30
Nainital,Uttarakhand,29.3919,79.4542,18.1,100,0.1,804.2,4.95,22.0,98,31.1,14.2,6.0,281.0,116.0,6.1,6,10,3,1,2026-07-19T00:38:44.620767+05:30
Mussoorie,Uttarakhand,30.4599,78.0664,18.4,100,0.7,801.6,6.65,35.6,146,129.5,55.4,12.3,271.0,110.0,11.2,6,10,7,1,2026-07-19T00:38:44.620774+05:30
Dharamshala,Himachal Pradesh,32.219,76.3234,23.1,100,0.0,866.6,6.65,20.2,50,10.8,6.9,10.7,382.0,61.0,0.9,3,5,7,1,2026-07-19T00:38:44.620780+05:30
Dalhousie,Himachal Pradesh,32.5387,75.971,19.7,98,0.2,803.6,6.1,22.3,90,41.6,23.7,15.2,505.0,91.0,2.5,6,10,7,1,2026-07-19T00:38:44.620786+05:30
Patiala,Punjab,30.3398,76.3869,30.8,77,0.0,972.5,6.35,32.0,277,459.1,181.1,85.1,939.0,7.0,14.7,3,5,7,1,2026-07-19T00:38:44.620793+05:30
Bhatinda,Punjab,30.211,74.9455,33.6,55,0.0,977.0,5.85,28.8,178,240.3,144.4,73.8,508.0,6.0,10.6,0,5,3,1,2026-07-19T00:38:44.620800+05:30
Rohtak,Haryana,28.8955,76.6066,31.1,59,0.0,975.8,6.45,23.8,844,620.3,141.6,27.5,340.0,41.0,4.9,0,5,7,1,2026-07-19T00:38:44.620806+05:30
Panipat,Haryana,29.3909,76.9635,29.9,83,0.0,974.9,6.8,20.5,1236,758.1,201.2,39.3,392.0,28.0,8.6,7,5,7,1,2026-07-19T00:38:44.620812+05:30
Mathura,Uttar Pradesh,27.4924,77.6737,31.4,66,0.0,981.4,5.75,25.2,425,497.3,82.2,25.6,470.0,41.0,4.8,3,5,3,1,2026-07-19T00:38:44.620818+05:30
Vrindavan,Uttar Pradesh,27.5823,77.7027,31.3,68,0.0,981.8,6.8,25.2,425,497.3,82.2,25.6,487.0,41.0,4.8,3,5,7,1,2026-07-19T00:38:44.620824+05:30
Ayodhya,Uttar Pradesh,26.7922,82.1998,27.8,95,0.0,991.3,3.3,20.9,94,30.4,29.4,18.6,451.0,63.0,5.4,7,5,3,1,2026-07-19T00:38:44.620829+05:30
Ratlam,Madhya Pradesh,23.3315,75.0367,25.9,83,0.0,951.7,6.9,33.1,68,15.7,12.7,6.4,180.0,71.0,9.3,7,5,7,1,2026-07-19T00:38:44.620835+05:30
Sagar,Madhya Pradesh,23.8388,78.7378,25.1,93,0.0,947.0,4.25,33.1,86,40.3,27.9,7.8,221.0,64.0,4.2,7,5,3,1,2026-07-19T00:38:44.620840+05:30
Satna,Madhya Pradesh,24.6005,80.8322,26.5,95,0.0,967.4,6.1,32.0,104,39.8,26.3,12.3,165.0,56.0,3.3,7,5,7,1,2026-07-19T00:38:44.620845+05:30
Akola,Maharashtra,20.7002,77.0082,26.0,95,0.1,973.1,7.25,39.6,55,9.3,6.9,10.1,185.0,38.0,7.1,10,5,7,1,2026-07-19T00:38:44.620852+05:30
Amravati,Maharashtra,20.9374,77.7796,24.8,96,0.0,965.0,6.6,37.1,56,9.4,7.2,10.4,173.0,42.0,9.2,3,5,7,1,2026-07-19T00:38:44.620858+05:30
Latur,Maharashtra,18.4088,76.5604,23.3,96,0.1,938.3,5.0,37.4,49,10.3,7.6,6.7,161.0,40.0,3.5,6,5,3,1,2026-07-19T00:38:44.620864+05:30
Nanded,Maharashtra,19.1383,77.3091,24.9,93,0.1,967.0,5.1,40.7,55,14.7,10.7,6.4,189.0,55.0,4.6,6,5,3,1,2026-07-19T00:38:44.620870+05:30
Gulbarga,Karnataka,17.3297,76.8343,23.9,94,0.1,957.5,8.35,42.8,43,8.1,6.1,8.9,155.0,34.0,2.9,6,5,7,1,2026-07-19T00:38:44.620876+05:30
Bidar,Karnataka,17.9104,77.5199,22.9,95,0.1,933.8,5.95,39.6,54,15.4,11.0,11.8,165.0,35.0,3.4,6,5,3,1,2026-07-19T00:38:44.620881+05:30
Hospet,Karnataka,15.2689,76.3909,23.0,96,0.1,955.9,7.7,52.6,33,4.0,3.1,5.8,142.0,35.0,1.8,6,5,7,1,2026-07-19T00:38:44.620886+05:30
Tirupur,Tamil Nadu,11.1085,77.3411,24.3,85,0.0,975.7,8.05,47.9,58,21.5,15.0,19.6,156.0,24.0,5.6,3,5,7,1,2026-07-19T00:38:44.620892+05:30
Alappuzha,Kerala,9.4981,76.3388,24.9,95,0.0,1011.2,7.5,38.5,54,15.4,8.8,8.7,85.0,38.0,2.9,3,0,4,1,2026-07-19T00:38:44.620898+05:30
Munnar,Kerala,10.0889,77.0595,16.3,98,0.0,857.1,6.25,34.9,28,5.6,4.4,7.6,104.0,29.0,2.0,3,10,7,0,2026-07-19T00:38:44.620904+05:30
Silchar,Assam,24.8333,92.7789,26.2,93,0.1,1003.8,1.75,22.7,63,18.8,13.6,4.8,269.0,61.0,2.6,10,5,0,1,2026-07-19T00:38:44.620910+05:30
Dibrugarh,Assam,27.4728,94.912,25.1,99,0.1,992.7,3.8,33.5,57,10.3,9.7,7.6,189.0,52.0,1.2,10,5,3,1,2026-07-19T00:38:44.620915+05:30
