city,state,latitude,longitude,temp,humidity,rain,pressure,uv_index,wind_gusts,aqi,pm10,pm2_5,no2,co,o3,so2,mosquito_risk,arthritis_risk,migraine_risk,frizz_risk,updated_at
Delhi,Delhi,28.6139,77.209,37.9,26,0.0,976.6,7.75,40.7,168,258.9,62.6,11.0,299.0,147.0,12.4,0,5,10,0,2026-06-06T17:36:51.095663+05:30
Mumbai,Maharashtra,19.076,72.8777,32.5,65,0.0,1004.1,7.2,39.2,76,45.9,21.2,7.1,172.0,67.0,5.5,3,5,4,1,2026-06-06T17:36:51.095708+05:30
Bangalore,Karnataka,12.9716,77.5946,22.0,91,0.0,909.4,8.4,43.9,33,5.6,5.4,18.1,561.0,54.0,3.2,3,5,7,1,2026-06-06T17:36:51.095726+05:30
Hyderabad,Telangana,17.385,78.4867,35.3,32,0.0,948.2,9.05,37.8,94,48.3,26.0,6.2,336.0,121.0,6.3,0,5,10,1,2026-06-06T17:36:51.095736+05:30
Chennai,Tamil Nadu,13.0827,80.2707,33.9,57,0.1,1001.5,8.5,45.7,63,26.3,18.7,5.2,287.0,119.0,6.1,3,5,4,1,2026-06-06T17:36:51.095745+05:30
Kolkata,West Bengal,22.5726,88.3639,27.6,97,0.2,998.6,9.0,45.7,128,45.8,38.6,10.9,640.0,87.0,8.0,10,5,7,1,2026-06-06T17:36:51.095752+05:30
Pune,Maharashtra,18.5204,73.8567,29.6,63,0.1,944.8,8.35,50.4,51,26.4,13.9,4.5,164.0,86.0,3.9,10,5,7,1,2026-06-06T17:36:51.095759+05:30
Ahmedabad,Gujarat,23.0225,72.5714,40.7,29,0.0,995.0,8.1,36.4,93,78.7,30.2,3.0,156.0,99.0,4.8,0,5,10,1,2026-06-06T17:36:51.095765+05:30
Jaipur,Rajasthan,26.9124,75.7873,37.1,29,0.0,954.2,8.25,34.2,107,158.3,42.7,5.4,182.0,97.0,3.6,0,5,10,0,2026-06-06T17:36:51.095777+05:30
Lucknow,Uttar Pradesh,26.8467,80.9462,36.3,39,0.0,986.2,8.3,25.9,164,77.8,45.3,4.8,305.0,167.0,8.8,0,5,10,1,2026-06-06T17:36:51.095783+05:30
Kanpur,Uttar Pradesh,26.4499,80.3319,37.6,30,0.0,984.3,8.3,37.1,196,387.4,74.3,3.8,267.0,161.0,9.5,0,5,10,1,2026-06-06T17:36:51.095790+05:30
Chandigarh,Chandigarh,30.7333,76.7794,34.4,37,0.0,962.6,7.8,32.4,180,30.2,21.8,4.6,384.0,174.0,10.2,0,5,7,1,2026-06-06T17:36:51.095797+05:30
Srinagar,Jammu and Kashmir,34.0837,74.7973,23.8,43,0.0,841.8,9.0,22.0,101,13.6,9.8,3.4,364.0,131.0,1.4,0,5,7,0,2026-06-06T17:36:51.095804+05:30
Jammu,Jammu and Kashmir,32.7266,74.857,36.8,22,0.0,967.0,8.6,30.2,127,29.8,16.3,3.2,194.0,156.0,2.8,0,5,10,0,2026-06-06T17:36:51.095810+05:30
Amritsar,Punjab,31.634,74.8723,37.9,23,0.0,974.5,8.45,25.2,177,43.9,27.8,3.0,287.0,190.0,9.3,0,5,10,0,2026-06-06T17:36:51.095817+05:30
Ludhiana,Punjab,30.901,75.8573,37.8,23,0.0,972.4,8.05,28.4,157,62.9,26.7,2.9,264.0,156.0,4.7,0,5,10,0,2026-06-06T17:36:51.095824+05:30
Jalandhar,Punjab,31.326,75.5762,38.1,23,0.0,973.3,8.25,21.2,165,54.1,24.8,2.8,284.0,169.0,6.0,0,5,10,0,2026-06-06T17:36:51.095832+05:30
Dehradun,Uttarakhand,30.6284,78.0322,23.1,53,0.0,829.1,8.25,33.8,129,20.3,13.6,1.8,246.0,160.0,5.6,0,5,7,0,2026-06-06T17:36:51.095839+05:30
Shimla,Himachal Pradesh,31.1048,77.1734,21.6,31,0.0,784.7,8.35,42.8,116,17.9,9.5,1.5,201.0,146.0,3.2,0,5,7,0,2026-06-06T17:36:51.095847+05:30
Manali,Himachal Pradesh,32.2396,77.1887,22.0,44,0.0,818.1,9.9,36.7,140,14.5,11.4,12.8,152.0,159.0,0.4,0,5,7,0,2026-06-06T17:36:51.095864+05:30
Gurgaon,Haryana,28.4595,77.0266,36.9,30,0.0,975.3,7.85,34.2,269,305.5,67.5,10.7,267.0,151.0,10.9,0,5,10,1,2026-06-06T17:36:51.095871+05:30
Noida,Uttar Pradesh,28.5355,77.391,34.9,41,0.0,978.0,7.8,33.5,269,305.5,67.5,10.7,587.0,151.0,10.9,0,5,7,1,2026-06-06T17:36:51.095877+05:30
Ghaziabad,Uttar Pradesh,28.6692,77.4538,35.7,36,0.0,976.3,7.8,29.2,190,196.0,57.3,8.0,257.0,171.0,16.2,0,5,10,1,2026-06-06T17:36:51.095883+05:30
Faridabad,Haryana,28.4089,77.3178,37.0,28,0.0,977.4,7.85,27.4,269,305.5,67.5,10.7,412.0,151.0,10.9,0,5,10,0,2026-06-06T17:36:51.095890+05:30
Meerut,Uttar Pradesh,28.9845,77.7064,34.8,43,0.0,975.2,7.7,27.7,190,196.0,57.3,8.0,287.0,171.0,16.2,0,5,7,1,2026-06-06T17:36:51.095896+05:30
Agra,Uttar Pradesh,27.1767,78.0081,37.7,30,0.0,980.8,8.1,28.1,508,203.5,49.8,7.2,197.0,116.0,4.9,0,5,10,1,2026-06-06T17:36:51.095903+05:30
Varanasi,Uttar Pradesh,25.3176,82.9739,36.9,36,0.1,989.9,8.8,32.0,159,98.0,50.8,4.5,331.0,146.0,7.9,3,5,10,1,2026-06-06T17:36:51.095909+05:30
Prayagraj,Uttar Pradesh,25.4358,81.8463,37.1,36,0.0,988.4,8.7,36.7,152,194.2,63.1,3.7,270.0,158.0,11.4,0,5,10,1,2026-06-06T17:36:51.095916+05:30
Gorakhpur,Uttar Pradesh,26.7606,83.3732,34.0,50,0.0,990.1,8.7,36.7,166,93.6,43.4,5.1,373.0,137.0,5.3,0,5,7,1,2026-06-06T17:36:51.095924+05:30
Bareilly,Uttar Pradesh,28.367,79.4304,34.9,45,0.0,979.8,8.1,22.0,159,106.2,43.1,5.1,344.0,163.0,9.4,0,5,7,1,2026-06-06T17:36:51.095930+05:30
Aligarh,Uttar Pradesh,27.8974,78.088,36.4,39,0.0,978.9,7.95,23.8,202,362.3,77.5,6.6,217.0,172.0,13.3,0,5,10,1,2026-06-06T17:36:51.095935+05:30
Moradabad,Uttar Pradesh,28.8386,78.7733,35.6,38,0.0,977.1,7.9,25.9,177,161.6,54.0,9.0,329.0,144.0,10.7,0,5,10,1,2026-06-06T17:36:51.095942+05:30
Saharanpur,Uttar Pradesh,29.9637,77.546,33.9,45,0.0,969.1,7.5,26.6,178,94.3,32.7,7.3,328.0,156.0,12.2,0,5,7,1,2026-06-06T17:36:51.095948+05:30
Jhansi,Uttar Pradesh,25.4484,78.5685,36.9,35,0.0,971.5,8.45,32.4,70,62.6,24.4,1.7,142.0,113.0,5.4,0,5,10,1,2026-06-06T17:36:54.421953+05:30
Surat,Gujarat,21.1702,72.8311,33.3,62,0.0,1001.6,7.6,45.0,90,64.7,30.5,13.4,242.0,47.0,32.9,3,5,4,1,2026-06-06T17:36:54.421994+05:30
Vadodara,Gujarat,22.3072,73.1812,38.3,37,0.0,997.9,8.0,40.0,85,84.5,36.2,3.3,146.0,112.0,6.1,0,5,10,1,2026-06-06T17:36:54.422005+05:30
Rajkot,Gujarat,22.3039,70.8022,36.9,49,0.0,988.0,7.55,43.2,85,62.2,24.8,1.6,115.0,96.0,4.3,0,5,10,1,2026-06-06T17:36:54.422014+05:30
Thane,Maharashtra,19.2183,72.9781,33.6,59,0.0,1003.1,7.6,40.7,76,45.9,21.2,7.1,158.0,67.0,5.5,0,5,4,1,2026-06-06T17:36:54.422021+05:30
Nagpur,Maharashtra,21.1458,79.0882,38.0,27,0.0,966.8,8.35,43.9,85,26.1,12.4,5.3,172.0,125.0,11.3,0,5,10,0,2026-06-06T17:36:54.422029+05:30
Nashik,Maharashtra,19.9975,73.7898,33.2,44,0.0,941.8,8.05,42.1,61,53.0,22.2,1.7,132.0,81.0,1.1,0,5,7,1,2026-06-06T17:36:54.422036+05:30
Aurangabad,Maharashtra,19.8762,75.3433,37.1,22,0.0,939.4,8.95,41.0,63,53.1,20.6,1.5,140.0,106.0,1.7,0,5,10,0,2026-06-06T17:36:54.422043+05:30
Solapur,Maharashtra,17.6599,75.9064,35.8,33,0.0,952.3,8.95,57.2,70,42.0,19.4,2.1,131.0,110.0,2.7,0,5,10,1,2026-06-06T17:36:54.422052+05:30
Kolhapur,Maharashtra,16.705,74.2433,27.3,74,0.1,945.1,7.95,41.8,41,15.6,9.8,4.7,131.0,79.0,1.7,10,5,7,1,2026-06-06T17:36:54.422059+05:30
Goa,Goa,15.2993,74.124,28.6,78,0.0,995.5,7.0,29.5,33,9.4,5.8,2.3,128.0,59.0,0.8,7,5,7,1,2026-06-06T17:36:54.422066+05:30
Jodhpur,Rajasthan,26.2389,73.0243,39.8,30,0.0,976.0,8.45,34.9,123,187.7,40.7,1.2,125.0,97.0,1.9,0,5,10,1,2026-06-06T17:36:54.422074+05:30
Udaipur,Rajasthan,24.5854,73.7125,35.3,35,0.0,942.2,8.85,32.4,96,83.4,30.9,1.0,128.0,103.0,3.6,0,5,10,1,2026-06-06T17:36:54.422081+05:30
Kota,Rajasthan,25.2138,75.8648,38.4,28,0.0,972.5,8.4,28.1,79,76.8,29.6,1.4,147.0,114.0,3.7,0,5,10,1,2026-06-06T17:36:54.422088+05:30
Bikaner,Rajasthan,28.0229,73.3119,40.5,25,0.0,974.2,8.5,41.0,103,138.8,43.5,0.6,172.0,98.0,2.5,0,5,10,1,2026-06-06T17:36:54.422095+05:30
Ajmer,Rajasthan,26.4499,74.6399,34.6,41,0.1,949.4,8.35,36.0,97,145.8,38.1,1.1,134.0,103.0,2.5,3,5,7,1,2026-06-06T17:36:54.422102+05:30
Gwalior,Madhya Pradesh,26.2183,78.1828,38.1,31,0.0,976.3,8.25,32.4,167,82.2,28.5,1.3,148.0,116.0,3.5,0,5,10,1,2026-06-06T17:36:54.422109+05:30
Indore,Madhya Pradesh,22.7196,75.8577,35.3,39,0.0,943.2,8.6,34.9,90,62.6,27.3,2.0,199.0,113.0,3.9,0,5,10,1,2026-06-06T17:36:54.422115+05:30
Bhopal,Madhya Pradesh,23.2599,77.4126,36.9,32,0.0,948.1,8.7,38.2,88,64.7,29.2,1.4,173.0,105.0,3.2,0,5,10,1,2026-06-06T17:36:54.422122+05:30
Jabalpur,Madhya Pradesh,23.1815,79.9864,35.8,30,0.0,955.4,8.35,36.4,89,129.0,36.3,1.6,158.0,127.0,3.9,0,5,10,0,2026-06-06T17:36:54.422129+05:30
Ujjain,Madhya Pradesh,23.1765,75.7885,33.9,43,0.0,948.7,8.6,32.8,89,68.2,29.5,1.1,161.0,112.0,4.5,0,5,7,1,2026-06-06T17:36:54.422136+05:30
Visakhapatnam,Andhra Pradesh,17.6868,83.2185,34.6,59,0.0,997.1,8.6,41.8,168,51.5,39.8,20.4,352.0,138.0,43.5,0,5,7,1,2026-06-06T17:36:54.422142+05:30
Vijayawada,Andhra Pradesh,16.5062,80.648,37.4,38,0.0,995.5,8.8,47.2,105,61.0,38.0,5.9,218.0,131.0,6.6,0,5,10,1,2026-06-06T17:36:54.422149+05:30
Guntur,Andhra Pradesh,16.3067,80.4365,36.3,45,0.1,996.9,9.0,44.3,98,60.3,34.2,3.3,221.0,131.0,5.6,3,5,10,1,2026-06-06T17:36:54.422156+05:30
Nellore,Andhra Pradesh,14.4426,79.9865,30.6,71,0.1,1000.3,8.45,41.4,68,25.3,18.5,3.4,186.0,122.0,3.8,6,5,4,1,2026-06-06T17:36:54.422164+05:30
Kurnool,Andhra Pradesh,15.8281,78.0373,32.3,58,0.1,971.9,5.95,35.3,100,33.8,23.2,3.2,167.0,138.0,10.3,3,5,3,1,2026-06-06T17:36:54.422171+05:30
Kakinada,Andhra Pradesh,16.9891,82.2475,35.2,53,0.0,1000.3,8.7,52.9,122,34.3,23.3,3.0,291.0,130.0,3.9,0,5,7,1,2026-06-06T17:36:54.422178+05:30
Tirupati,Andhra Pradesh,13.6288,79.4192,28.8,76,0.2,986.4,8.6,37.8,47,12.9,9.0,4.0,222.0,86.0,1.5,10,5,7,1,2026-06-06T17:36:54.422184+05:30
Warangal,Telangana,17.9689,79.5941,35.9,36,0.0,972.4,9.05,44.6,98,46.7,25.0,3.2,205.0,121.0,5.1,0,5,10,1,2026-06-06T17:36:54.422191+05:30
Nizamabad,Telangana,18.6725,78.0941,36.2,31,0.0,959.1,9.05,42.5,93,43.5,22.7,1.7,168.0,114.0,2.9,0,5,10,1,2026-06-06T17:36:54.422197+05:30
Mysore,Karnataka,12.2958,76.6396,22.6,95,0.1,926.4,6.45,49.7,33,3.2,3.1,8.5,222.0,57.0,1.4,6,5,7,1,2026-06-06T17:36:54.422204+05:30
Mangalore,Karnataka,12.9141,74.856,25.4,94,0.1,1005.6,1.45,27.7,24,6.2,5.3,8.7,228.0,45.0,2.0,10,5,0,1,2026-06-06T17:36:54.422210+05:30
Hubli-Dharwad,Karnataka,15.3647,75.124,26.4,75,0.0,938.3,8.4,39.6,36,3.9,3.2,7.1,142.0,65.0,0.9,7,5,7,1,2026-06-06T17:36:54.422217+05:30
Belgaum,Karnataka,15.8497,74.4977,25.4,81,0.0,923.4,8.95,38.9,36,5.8,4.3,4.2,143.0,70.0,1.6,7,5,7,1,2026-06-06T17:36:57.666343+05:30
Coimbatore,Tamil Nadu,11.0168,76.9558,24.0,91,0.0,959.2,8.9,41.8,25,2.3,2.0,5.4,258.0,43.0,1.6,3,5,7,1,2026-06-06T17:36:57.666378+05:30
Madurai,Tamil Nadu,9.9252,78.1198,33.1,45,0.0,989.7,8.75,67.0,36,10.9,4.9,3.3,123.0,70.0,1.3,0,5,7,1,2026-06-06T17:36:57.666388+05:30
Trichy,Tamil Nadu,10.7905,78.7047,32.3,52,0.0,996.2,8.85,52.6,38,10.3,6.4,6.6,184.0,59.0,1.9,0,5,7,1,2026-06-06T17:36:57.666397+05:30
Salem,Tamil Nadu,11.6643,78.146,30.3,57,0.0,974.5,8.65,57.2,41,6.6,4.9,5.9,201.0,78.0,5.8,0,5,7,1,2026-06-06T17:36:57.666405+05:30
Tirunelveli,Tamil Nadu,8.7139,77.7567,32.4,51,0.0,1001.1,8.7,47.5,25,4.7,3.1,2.4,108.0,54.0,0.7,0,5,4,1,2026-06-06T17:36:57.666412+05:30
Vellore,Tamil Nadu,12.9165,79.1325,31.1,67,0.1,979.7,8.95,47.2,41,5.8,5.5,5.6,209.0,79.0,1.9,6,5,7,1,2026-06-06T17:36:57.666420+05:30
Erode,Tamil Nadu,11.341,77.7172,28.0,72,0.0,986.4,8.8,60.5,34,3.7,2.8,4.5,150.0,60.0,1.5,7,5,7,1,2026-06-06T17:36:57.666428+05:30
Kochi,Kerala,9.9312,76.2673,26.8,83,0.0,1008.6,7.85,40.3,48,14.9,7.7,6.3,185.0,44.0,2.1,7,0,4,1,2026-06-06T17:36:57.666435+05:30
Thiruvananthapuram,Kerala,8.5241,76.9366,25.4,93,0.1,1008.2,8.3,45.4,26,11.7,5.8,1.7,121.0,51.0,0.5,10,0,4,1,2026-06-06T17:36:57.666441+05:30
Kozhikode,Kerala,11.2588,75.7804,25.4,98,0.2,1007.4,2.0,27.0,24,10.7,4.9,1.0,188.0,56.0,0.3,10,5,0,1,2026-06-06T17:36:57.666448+05:30
Thrissur,Kerala,10.5276,76.2144,24.8,97,0.1,1007.0,6.8,25.2,47,11.5,7.4,7.5,248.0,36.0,1.4,6,5,4,1,2026-06-06T17:36:57.666472+05:30
Kannur,Kerala,11.8745,75.3704,24.6,98,0.2,1006.4,0.8,27.4,22,5.3,4.0,6.9,202.0,50.0,0.9,6,5,0,1,2026-06-06T17:36:57.666480+05:30
Patna,Bihar,25.5941,85.1376,34.7,54,0.0,992.7,8.9,27.4,203,101.0,74.5,7.2,336.0,194.0,14.0,0,5,7,1,2026-06-06T17:36:57.666487+05:30
Gaya,Bihar,24.7914,85.0002,35.5,46,0.0,986.5,8.7,34.2,177,97.8,73.6,7.0,343.0,164.0,11.4,0,5,10,1,2026-06-06T17:36:57.666494+05:30
Muzaffarpur,Bihar,26.1209,85.3647,33.7,61,0.0,992.9,8.9,39.6,201,90.1,74.7,9.3,362.0,193.0,16.2,3,5,7,1,2026-06-06T17:36:57.666501+05:30
Bhagalpur,Bihar,25.2425,87.0117,34.8,52,0.0,993.5,8.75,31.7,208,71.5,64.3,11.7,351.0,192.0,21.2,0,5,7,1,2026-06-06T17:36:57.666507+05:30
Ranchi,Jharkhand,23.3441,85.3096,26.5,86,0.2,932.8,9.3,33.1,152,60.5,47.5,5.9,301.0,132.0,6.1,10,5,7,1,2026-06-06T17:36:57.666514+05:30
Jamshedpur,Jharkhand,22.8046,86.2029,33.2,58,0.0,983.9,9.1,34.9,199,84.1,63.6,7.1,471.0,192.0,21.2,0,5,7,1,2026-06-06T17:36:57.666521+05:30
Dhanbad,Jharkhand,23.7957,86.4304,32.6,65,0.0,973.2,8.65,27.0,205,109.9,91.5,25.9,461.0,210.0,79.7,3,5,7,1,2026-06-06T17:36:57.666527+05:30
Bokaro,Jharkhand,23.6693,86.1511,32.9,57,0.0,977.0,8.5,30.6,181,91.7,75.0,23.3,444.0,187.0,69.8,0,5,7,1,2026-06-06T17:36:57.666535+05:30
Bhubaneswar,Odisha,20.2961,85.8245,31.5,78,0.0,995.3,8.9,19.4,151,36.9,31.9,10.1,487.0,118.0,7.8,3,5,7,1,2026-06-06T17:36:57.666541+05:30
Cuttack,Odisha,20.4625,85.8828,31.8,78,0.0,997.0,8.95,30.2,151,36.9,31.9,10.1,404.0,118.0,7.8,3,5,7,1,2026-06-06T17:36:57.666547+05:30
Rourkela,Odisha,22.2604,84.8536,34.5,46,0.0,978.3,8.4,24.5,161,89.2,58.1,5.7,350.0,153.0,12.1,0,5,7,1,2026-06-06T17:36:57.666554+05:30
Raipur,Chhattisgarh,21.2514,81.6296,36.6,33,0.0,967.4,8.8,34.9,125,41.3,21.9,8.8,156.0,129.0,23.5,0,5,10,1,2026-06-06T17:36:57.666561+05:30
Bhilai,Chhattisgarh,21.1938,81.3509,36.5,34,0.0,967.9,8.95,39.6,114,32.0,17.1,8.5,204.0,115.0,19.2,0,5,10,1,2026-06-06T17:36:57.666567+05:30
Guwahati,Assam,26.1158,91.7086,29.8,80,0.0,994.4,8.7,25.9,93,26.0,23.9,5.1,351.0,98.0,2.0,7,5,7,1,2026-06-06T17:36:57.666573+05:30
Agartala,Tripura,23.8315,91.2868,32.1,70,0.0,998.9,8.8,24.8,157,47.8,43.0,15.2,290.0,121.0,7.4,3,5,7,1,2026-06-06T17:36:57.666579+05:30
Shillong,Meghalaya,25.5788,91.8933,23.0,74,0.0,853.7,8.65,22.0,96,28.5,25.7,5.8,298.0,112.0,3.0,3,5,7,1,2026-06-06T17:36:57.666586+05:30
Imphal,Manipur,24.817,93.9368,27.8,66,0.0,917.7,9.05,32.4,112,33.5,29.2,5.6,294.0,96.0,2.7,7,5,7,1,2026-06-06T17:36:57.666592+05:30
Aizawl,Mizoram,23.7271,92.7176,25.0,78,0.0,888.1,8.45,26.6,113,45.1,38.1,4.9,215.0,89.0,3.2,7,5,7,1,2026-06-06T17:36:57.666599+05:30
Kohima,Nagaland,25.6701,94.1077,21.7,96,0.2,851.7,9.2,26.3,69,23.2,19.8,5.3,284.0,92.0,1.5,6,5,7,1,2026-06-06T17:36:57.666605+05:30
Gangtok,Sikkim,27.3314,88.6138,19.8,95,0.1,833.8,9.1,36.0,112,15.9,12.9,4.3,379.0,138.0,3.0,6,10,7,1,2026-06-06T17:36:57.666612+05:30
Siliguri,West Bengal,26.7271,88.3953,28.7,81,0.0,986.1,8.75,22.0,137,46.3,38.5,8.6,627.0,151.0,6.8,7,5,7,1,2026-06-06T17:37:00.929278+05:30
Durgapur,West Bengal,23.5204,87.3119,31.3,80,0.0,987.7,9.05,36.7,189,85.4,73.3,19.5,400.0,182.0,46.8,3,5,7,1,2026-06-06T17:37:00.929314+05:30
Asansol,West Bengal,23.6739,86.9524,32.1,71,0.0,986.4,9.05,29.9,204,98.5,82.2,18.4,554.0,197.0,47.8,3,5,7,1,2026-06-06T17:37:00.929325+05:30
Pondicherry,Puducherry,11.9139,79.8145,34.6,49,0.0,1003.3,8.7,46.4,62,19.8,13.7,7.5,241.0,92.0,4.6,0,5,4,1,2026-06-06T17:37:00.929334+05:30
Port Blair,Andaman and Nicobar Islands,11.6234,92.7265,26.0,96,0.1,1006.6,7.85,45.4,27,7.3,4.6,0.6,110.0,59.0,0.4,10,5,4,1,2026-06-06T17:37:00.929342+05:30
Haridwar,Uttarakhand,29.9457,78.1642,34.3,45,0.0,967.6,7.6,22.7,171,42.4,24.9,3.1,309.0,176.0,11.4,0,5,7,1,2026-06-06T17:37:00.929350+05:30
Rishikesh,Uttarakhand,30.0869,78.2676,33.1,47,0.0,960.7,7.7,28.4,154,35.2,22.1,1.6,287.0,176.0,8.8,0,5,7,1,2026-06-06T17:37:00.929357+05:30
Nainital,Uttarakhand,29.3919,79.4542,20.5,60,0.0,804.4,8.3,24.1,150,62.6,29.7,2.5,254.0,173.0,7.6,0,5,7,0,2026-06-06T17:37:00.929364+05:30
Mussoorie,Uttarakhand,30.4599,78.0664,20.8,53,0.0,802.0,8.1,45.0,168,35.7,23.9,2.5,255.0,181.0,10.6,0,5,7,0,2026-06-06T17:37:00.929372+05:30
Dharamshala,Himachal Pradesh,32.219,76.3234,26.5,32,0.0,867.0,8.5,43.6,112,11.7,7.6,1.0,217.0,141.0,1.0,4,5,7,0,2026-06-06T17:37:00.929379+05:30
Dalhousie,Himachal Pradesh,32.5387,75.971,22.0,37,0.0,804.5,8.75,35.3,135,25.0,16.2,2.6,187.0,162.0,2.5,0,5,7,0,2026-06-06T17:37:00.929387+05:30
Patiala,Punjab,30.3398,76.3869,37.2,27,0.0,971.9,7.7,30.2,194,447.0,66.1,2.4,241.0,155.0,6.2,0,5,10,0,2026-06-06T17:37:00.929394+05:30
Bhatinda,Punjab,30.211,74.9455,38.6,26,0.0,977.1,8.35,25.9,173,91.0,43.1,3.9,208.0,183.0,18.6,0,5,10,0,2026-06-06T17:37:00.929401+05:30
Rohtak,Haryana,28.8955,76.6066,36.9,32,0.0,975.5,7.8,22.0,198,417.2,69.6,4.2,208.0,137.0,4.4,0,5,10,1,2026-06-06T17:37:00.929408+05:30
Panipat,Haryana,29.3909,76.9635,36.6,34,0.0,973.9,7.65,27.0,303,558.8,84.1,4.8,222.0,140.0,10.3,0,5,10,1,2026-06-06T17:37:00.929415+05:30
Mathura,Uttar Pradesh,27.4924,77.6737,36.0,38,0.0,980.1,8.05,23.8,355,261.7,60.3,7.2,241.0,122.0,4.8,0,5,10,1,2026-06-06T17:37:00.929422+05:30
Vrindavan,Uttar Pradesh,27.5823,77.7027,36.4,34,0.0,980.5,8.05,26.3,355,261.7,60.3,7.2,207.0,122.0,4.8,0,5,10,1,2026-06-06T17:37:00.929429+05:30
Ayodhya,Uttar Pradesh,26.7922,82.1998,31.1,69,0.0,988.4,8.45,25.9,153,142.0,54.6,4.0,318.0,151.0,7.9,3,5,7,1,2026-06-06T17:37:00.929435+05:30
Ratlam,Madhya Pradesh,23.3315,75.0367,35.2,40,0.0,949.9,8.5,36.7,88,71.2,30.5,0.8,135.0,110.0,4.2,0,5,10,1,2026-06-06T17:37:00.929441+05:30
Sagar,Madhya Pradesh,23.8388,78.7378,35.4,30,0.0,945.0,8.7,38.9,72,45.4,18.4,0.9,138.0,120.0,3.3,0,5,10,0,2026-06-06T17:37:00.929448+05:30
Satna,Madhya Pradesh,24.6005,80.8322,35.3,34,0.0,965.2,8.8,37.1,116,244.0,64.7,1.3,173.0,138.0,5.3,0,5,10,1,2026-06-06T17:37:00.929472+05:30
Akola,Maharashtra,20.7002,77.0082,38.0,29,0.0,969.0,8.8,41.4,76,49.7,23.5,2.1,139.0,111.0,4.2,0,5,10,1,2026-06-06T17:37:00.929480+05:30
Amravati,Maharashtra,20.9374,77.7796,36.2,32,0.0,961.9,8.85,44.6,78,46.8,22.6,2.6,144.0,113.0,5.2,0,5,10,1,2026-06-06T17:37:00.929488+05:30
Latur,Maharashtra,18.4088,76.5604,34.5,32,0.0,935.2,8.75,36.0,76,55.4,23.5,1.6,148.0,107.0,2.6,0,5,7,0,2026-06-06T17:37:00.929495+05:30
Nanded,Maharashtra,19.1383,77.3091,37.6,25,0.0,962.6,8.9,32.8,83,45.2,21.4,1.7,154.0,110.0,2.0,0,5,10,0,2026-06-06T17:37:00.929501+05:30
Gulbarga,Karnataka,17.3297,76.8343,34.3,41,0.0,953.5,8.95,40.7,74,38.4,20.1,3.5,221.0,117.0,3.6,0,5,7,1,2026-06-06T17:37:00.929507+05:30
Bidar,Karnataka,17.9104,77.5199,33.3,39,0.0,931.1,8.35,35.3,95,47.0,24.3,2.9,175.0,117.0,4.4,0,5,7,1,2026-06-06T17:37:00.929514+05:30
Hospet,Karnataka,15.2689,76.3909,26.9,78,0.0,952.8,8.9,41.4,33,16.9,10.1,4.6,164.0,84.0,2.0,7,5,7,1,2026-06-06T17:37:00.929521+05:30
Tirupur,Tamil Nadu,11.1085,77.3411,25.5,85,0.0,972.8,8.95,52.9,32,3.3,2.9,5.8,145.0,55.0,2.2,7,5,7,1,2026-06-06T17:37:00.929527+05:30
Alappuzha,Kerala,9.4981,76.3388,26.4,88,0.1,1008.8,8.15,36.4,38,16.3,7.6,4.2,91.0,56.0,1.4,10,0,4,1,2026-06-06T17:37:00.929534+05:30
Munnar,Kerala,10.0889,77.0595,17.5,96,0.2,855.7,8.75,47.5,25,3.6,2.4,4.4,125.0,50.0,0.9,6,10,7,1,2026-06-06T17:37:00.929541+05:30
Silchar,Assam,24.8333,92.7789,31.9,74,0.1,997.3,8.9,23.4,139,51.0,43.3,6.8,309.0,127.0,5.4,6,5,7,1,2026-06-06T17:37:00.929547+05:30
Dibrugarh,Assam,27.4728,94.912,30.6,74,0.0,987.8,8.95,32.4,122,35.6,31.8,9.0,352.0,97.0,2.9,3,5,7,1,2026-06-06T17:37:00.929554+05:30
