city,state,latitude,longitude,temp,humidity,rain,pressure,uv_index,wind_gusts,aqi,pm10,pm2_5,mosquito_risk,arthritis_risk,migraine_risk,frizz_risk,updated_at
Delhi,Delhi,28.6139,77.209,24.2,56,0.0,988.7,5.75,36.0,183,221.2,83.6,0,5,3,0,2026-03-02T10:20:33.772561+05:30
Mumbai,Maharashtra,19.076,72.8777,25.6,78,0.0,1013.0,7.35,26.6,85,54.7,34.1,7,0,4,1,2026-03-02T10:20:33.772602+05:30
Bangalore,Karnataka,12.9716,77.5946,26.1,57,0.0,915.5,9.05,25.2,138,50.3,48.5,4,5,7,1,2026-03-02T10:20:33.772617+05:30
Hyderabad,Telangana,17.385,78.4867,30.6,46,0.0,957.7,8.3,22.0,149,53.4,52.2,0,5,7,1,2026-03-02T10:20:33.772628+05:30
Chennai,Tamil Nadu,13.0827,80.2707,29.9,60,0.0,1011.7,8.8,30.6,134,55.8,51.2,4,0,4,1,2026-03-02T10:20:33.772637+05:30
Kolkata,West Bengal,22.5726,88.3639,28.8,73,0.0,1009.7,7.65,19.8,135,53.8,50.9,7,0,4,1,2026-03-02T10:20:33.772646+05:30
Pune,Maharashtra,18.5204,73.8567,29.1,44,0.0,952.9,7.85,26.6,92,29.6,25.5,4,5,7,0,2026-03-02T10:20:33.772658+05:30
Ahmedabad,Gujarat,23.0225,72.5714,27.5,47,0.0,1008.2,7.1,16.2,103,52.4,39.5,4,0,4,0,2026-03-02T10:20:33.772666+05:30
Jaipur,Rajasthan,26.9124,75.7873,29.1,24,0.0,965.7,6.55,30.6,93,112.9,41.9,4,5,7,0,2026-03-02T10:20:33.772673+05:30
Lucknow,Uttar Pradesh,26.8467,80.9462,24.7,48,0.0,998.4,6.25,37.1,119,220.7,73.8,0,5,7,0,2026-03-02T10:20:33.772681+05:30
Kanpur,Uttar Pradesh,26.4499,80.3319,24.9,59,0.0,997.2,6.25,32.4,139,324.1,75.2,0,5,7,1,2026-03-02T10:20:33.772687+05:30
Chandigarh,Chandigarh,30.7333,76.7794,22.7,56,0.0,973.5,5.6,39.6,87,42.5,31.9,0,5,3,0,2026-03-02T10:20:33.772694+05:30
Srinagar,Jammu and Kashmir,34.0837,74.7973,12.8,52,0.0,845.9,6.55,18.4,143,74.0,58.8,0,5,7,0,2026-03-02T10:20:33.772701+05:30
Jammu,Jammu and Kashmir,32.7266,74.857,23.0,58,0.0,977.9,6.25,28.4,104,47.3,43.8,0,5,7,0,2026-03-02T10:20:33.772708+05:30
Amritsar,Punjab,31.634,74.8723,22.9,69,0.0,986.4,6.0,26.6,138,77.8,65.0,3,5,3,1,2026-03-02T10:20:33.772714+05:30
Ludhiana,Punjab,30.901,75.8573,23.0,62,0.0,984.2,5.85,33.8,159,85.9,74.0,3,5,3,0,2026-03-02T10:20:33.772721+05:30
Jalandhar,Punjab,31.326,75.5762,22.6,66,0.0,985.3,6.05,31.3,160,89.9,80.3,3,5,7,0,2026-03-02T10:20:33.772730+05:30
Dehradun,Uttarakhand,30.6284,78.0322,16.7,43,0.0,831.9,6.0,26.6,59,18.2,10.9,0,5,3,0,2026-03-02T10:20:33.772737+05:30
Shimla,Himachal Pradesh,31.1048,77.1734,14.8,45,0.0,787.0,6.05,58.0,72,32.7,18.8,0,5,7,0,2026-03-02T10:20:33.772744+05:30
Manali,Himachal Pradesh,32.2396,77.1887,17.4,12,0.0,821.2,7.45,36.7,55,17.2,12.7,0,5,7,1,2026-03-02T10:20:33.772751+05:30
Gurgaon,Haryana,28.4595,77.0266,24.4,62,0.0,987.3,5.85,33.1,711,907.1,156.0,3,5,3,1,2026-03-02T10:20:33.772758+05:30
Noida,Uttar Pradesh,28.5355,77.391,24.8,54,0.0,990.2,5.75,35.6,711,907.1,156.0,0,5,3,0,2026-03-02T10:20:33.772764+05:30
Ghaziabad,Uttar Pradesh,28.6692,77.4538,23.2,62,0.0,988.1,5.75,35.3,160,230.5,83.4,3,5,3,0,2026-03-02T10:20:33.772771+05:30
Faridabad,Haryana,28.4089,77.3178,24.3,62,0.0,989.5,5.8,32.0,711,907.1,156.0,3,5,3,1,2026-03-02T10:20:33.772777+05:30
Meerut,Uttar Pradesh,28.9845,77.7064,23.0,59,0.0,986.7,5.6,38.9,160,230.5,83.4,0,5,3,0,2026-03-02T10:20:33.772786+05:30
Agra,Uttar Pradesh,27.1767,78.0081,25.8,55,0.0,993.8,6.1,28.8,319,389.3,84.1,4,5,7,1,2026-03-02T10:20:33.772792+05:30
Varanasi,Uttar Pradesh,25.3176,82.9739,25.6,57,0.0,1002.7,6.9,33.1,97,51.8,26.2,4,5,4,1,2026-03-02T10:20:33.772801+05:30
Prayagraj,Uttar Pradesh,25.4358,81.8463,25.8,54,0.0,1001.4,6.8,31.0,100,108.7,37.4,4,5,4,0,2026-03-02T10:20:33.772808+05:30
Gorakhpur,Uttar Pradesh,26.7606,83.3732,23.4,61,0.0,1001.7,6.6,25.9,104,157.9,56.2,3,5,4,0,2026-03-02T10:20:33.772814+05:30
Bareilly,Uttar Pradesh,28.367,79.4304,22.0,59,0.0,991.4,5.9,31.7,128,73.3,56.5,0,5,3,0,2026-03-02T10:20:33.772820+05:30
Aligarh,Uttar Pradesh,27.8974,78.088,24.6,60,0.0,991.3,5.85,32.8,413,510.4,116.2,0,5,3,1,2026-03-02T10:20:33.772826+05:30
Moradabad,Uttar Pradesh,28.8386,78.7733,22.0,59,0.0,988.3,5.75,35.3,138,74.5,56.7,0,5,3,0,2026-03-02T10:20:33.772834+05:30
Saharanpur,Uttar Pradesh,29.9637,77.546,21.7,57,0.0,980.0,5.4,52.9,118,60.1,46.3,0,5,3,0,2026-03-02T10:20:33.772840+05:30
Jhansi,Uttar Pradesh,25.4484,78.5685,27.7,43,0.0,984.1,6.7,28.1,80,39.8,21.7,4,5,7,0,2026-03-02T10:20:36.985146+05:30
Surat,Gujarat,21.1702,72.8311,27.2,72,0.0,1012.0,7.0,23.4,135,86.4,67.8,7,0,4,1,2026-03-02T10:20:36.985176+05:30
Vadodara,Gujarat,22.3072,73.1812,28.7,51,0.0,1010.1,7.1,11.9,142,64.5,52.5,4,0,4,1,2026-03-02T10:20:36.985185+05:30
Rajkot,Gujarat,22.3039,70.8022,25.9,64,0.0,1000.1,6.95,21.2,69,51.8,20.6,7,5,4,1,2026-03-02T10:20:36.985193+05:30
Thane,Maharashtra,19.2183,72.9781,27.4,63,0.0,1012.6,7.3,37.4,85,54.7,34.1,7,0,4,1,2026-03-02T10:20:36.985200+05:30
Nagpur,Maharashtra,21.1458,79.0882,29.3,40,0.0,978.6,7.7,22.7,63,30.9,22.0,4,5,7,0,2026-03-02T10:20:36.985207+05:30
Nashik,Maharashtra,19.9975,73.7898,27.7,44,0.0,950.2,7.5,28.1,87,38.0,34.0,4,5,7,0,2026-03-02T10:20:36.985214+05:30
Aurangabad,Maharashtra,19.8762,75.3433,28.7,36,0.0,949.1,8.0,21.2,74,22.8,20.5,4,5,7,0,2026-03-02T10:20:36.985221+05:30
Solapur,Maharashtra,17.6599,75.9064,27.8,51,0.0,961.4,8.25,14.0,108,44.7,44.4,4,5,7,1,2026-03-02T10:20:36.985228+05:30
Kolhapur,Maharashtra,16.705,74.2433,27.9,42,0.0,952.0,8.35,37.1,85,38.6,33.2,4,5,7,0,2026-03-02T10:20:36.985235+05:30
Goa,Goa,15.2993,74.124,28.3,59,0.0,1002.1,8.45,30.6,67,30.5,21.5,4,5,4,1,2026-03-02T10:20:36.985242+05:30
Jodhpur,Rajasthan,26.2389,73.0243,27.3,45,0.0,989.0,6.8,12.6,82,94.1,32.0,4,5,7,0,2026-03-02T10:20:36.985249+05:30
Udaipur,Rajasthan,24.5854,73.7125,27.7,38,0.0,952.3,7.4,15.5,65,27.9,17.5,4,5,7,0,2026-03-02T10:20:36.985255+05:30
Kota,Rajasthan,25.2138,75.8648,27.3,48,0.0,985.0,6.8,18.7,85,40.2,32.2,4,5,7,0,2026-03-02T10:20:36.985262+05:30
Bikaner,Rajasthan,28.0229,73.3119,27.0,35,0.0,987.5,6.5,19.4,67,39.5,21.9,4,5,7,0,2026-03-02T10:20:36.985269+05:30
Ajmer,Rajasthan,26.4499,74.6399,27.3,39,0.0,960.5,6.75,22.7,81,41.1,25.4,4,5,7,0,2026-03-02T10:20:36.985276+05:30
Gwalior,Madhya Pradesh,26.2183,78.1828,27.8,45,0.0,989.0,6.45,31.0,92,134.6,36.8,4,5,7,0,2026-03-02T10:20:36.985282+05:30
Indore,Madhya Pradesh,22.7196,75.8577,27.2,49,0.0,953.6,7.4,12.6,92,43.8,34.6,4,5,7,0,2026-03-02T10:20:36.985288+05:30
Bhopal,Madhya Pradesh,23.2599,77.4126,27.9,43,0.0,959.4,7.25,18.4,81,27.6,23.0,4,5,7,0,2026-03-02T10:20:36.985295+05:30
Jabalpur,Madhya Pradesh,23.1815,79.9864,27.6,43,0.0,967.3,7.35,19.4,69,38.3,22.1,4,5,7,0,2026-03-02T10:20:36.985301+05:30
Ujjain,Madhya Pradesh,23.1765,75.7885,26.5,55,0.0,959.5,7.3,11.5,114,54.8,48.3,4,5,7,1,2026-03-02T10:20:36.985309+05:30
Visakhapatnam,Andhra Pradesh,17.6868,83.2185,30.8,50,0.0,1007.9,8.35,41.0,151,66.8,63.8,0,5,4,1,2026-03-02T10:20:36.985316+05:30
Vijayawada,Andhra Pradesh,16.5062,80.648,28.9,67,0.0,1007.4,8.4,25.9,145,60.3,56.0,7,5,4,1,2026-03-02T10:20:36.985322+05:30
Guntur,Andhra Pradesh,16.3067,80.4365,29.2,65,0.0,1008.5,8.45,31.0,136,56.8,53.6,7,0,4,1,2026-03-02T10:20:36.985329+05:30
Nellore,Andhra Pradesh,14.4426,79.9865,30.3,51,0.0,1010.3,8.65,29.5,129,51.7,48.7,0,0,4,1,2026-03-02T10:20:36.985336+05:30
Kurnool,Andhra Pradesh,15.8281,78.0373,31.4,43,0.0,981.2,8.45,22.3,122,48.8,47.6,0,5,7,1,2026-03-02T10:20:36.985343+05:30
Kakinada,Andhra Pradesh,16.9891,82.2475,30.2,59,0.0,1012.1,8.35,30.6,149,61.2,56.8,0,0,4,1,2026-03-02T10:20:36.985350+05:30
Tirupati,Andhra Pradesh,13.6288,79.4192,30.8,37,0.0,995.9,8.75,27.7,135,49.0,46.0,0,5,7,0,2026-03-02T10:20:36.985356+05:30
Warangal,Telangana,17.9689,79.5941,28.6,62,0.0,983.6,8.15,17.3,145,49.0,47.5,7,5,7,1,2026-03-02T10:20:36.985362+05:30
Nizamabad,Telangana,18.6725,78.0941,29.8,47,0.0,969.6,8.05,27.0,125,57.4,56.8,4,5,7,1,2026-03-02T10:20:36.985369+05:30
Mysore,Karnataka,12.2958,76.6396,26.9,55,0.0,932.2,9.1,27.0,152,52.4,50.8,4,5,7,1,2026-03-02T10:20:36.985375+05:30
Mangalore,Karnataka,12.9141,74.856,27.7,75,0.0,1010.6,8.65,30.2,52,18.7,14.4,7,0,4,1,2026-03-02T10:20:36.985381+05:30
Hubli-Dharwad,Karnataka,15.3647,75.124,26.8,57,0.0,944.7,8.65,27.0,64,20.3,18.9,4,5,7,1,2026-03-02T10:20:36.985388+05:30
Belgaum,Karnataka,15.8497,74.4977,28.6,33,0.0,929.6,8.65,39.2,67,19.4,16.7,4,5,7,0,2026-03-02T10:20:40.198249+05:30
Coimbatore,Tamil Nadu,11.0168,76.9558,28.6,56,0.0,965.6,9.1,27.4,150,50.5,48.9,4,5,7,1,2026-03-02T10:20:40.198279+05:30
Madurai,Tamil Nadu,9.9252,78.1198,29.9,47,0.0,997.0,9.05,32.4,128,48.3,45.4,4,5,7,1,2026-03-02T10:20:40.198289+05:30
Trichy,Tamil Nadu,10.7905,78.7047,30.6,52,0.0,1003.6,8.95,29.9,135,47.0,43.9,0,5,4,1,2026-03-02T10:20:40.198296+05:30
Salem,Tamil Nadu,11.6643,78.146,30.9,47,0.0,981.2,9.0,31.7,136,51.6,48.4,0,5,7,1,2026-03-02T10:20:40.198303+05:30
Tirunelveli,Tamil Nadu,8.7139,77.7567,30.9,40,0.0,1007.1,9.1,39.6,142,46.6,43.1,0,5,4,0,2026-03-02T10:20:40.198310+05:30
Vellore,Tamil Nadu,12.9165,79.1325,30.6,43,0.0,988.7,8.85,34.6,147,55.6,52.7,0,5,7,1,2026-03-02T10:20:40.198316+05:30
Erode,Tamil Nadu,11.341,77.7172,31.0,52,0.0,992.8,9.0,30.2,125,48.2,45.2,0,5,7,1,2026-03-02T10:20:40.198323+05:30
Kochi,Kerala,9.9312,76.2673,27.2,81,0.0,1012.1,8.9,32.4,89,32.6,31.1,7,0,4,1,2026-03-02T10:20:40.198330+05:30
Thiruvananthapuram,Kerala,8.5241,76.9366,27.0,79,0.0,1011.2,8.95,27.0,65,24.0,22.9,7,0,4,1,2026-03-02T10:20:40.198336+05:30
Kozhikode,Kerala,11.2588,75.7804,28.8,70,0.0,1011.6,8.8,28.8,56,23.2,18.7,7,0,4,1,2026-03-02T10:20:40.198343+05:30
Thrissur,Kerala,10.5276,76.2144,29.7,66,0.0,1010.5,8.85,36.7,98,26.5,24.2,7,0,4,1,2026-03-02T10:20:40.198350+05:30
Kannur,Kerala,11.8745,75.3704,29.9,60,0.0,1010.8,8.75,33.8,52,17.2,13.1,4,0,4,1,2026-03-02T10:20:40.198356+05:30
Patna,Bihar,25.5941,85.1376,26.4,49,0.0,1005.2,7.05,29.2,132,80.8,42.4,4,5,4,0,2026-03-02T10:20:40.198363+05:30
Gaya,Bihar,24.7914,85.0002,28.2,50,0.0,998.6,7.15,27.4,131,68.7,34.7,4,5,7,1,2026-03-02T10:20:40.198369+05:30
Muzaffarpur,Bihar,26.1209,85.3647,26.2,50,0.0,1005.0,7.0,27.0,124,87.8,47.8,4,5,4,0,2026-03-02T10:20:40.198375+05:30
Bhagalpur,Bihar,25.2425,87.0117,26.5,65,0.0,1006.0,7.1,22.7,150,94.8,61.9,7,5,4,1,2026-03-02T10:20:40.198381+05:30
Ranchi,Jharkhand,23.3441,85.3096,27.5,27,0.0,942.3,7.8,42.8,98,90.1,23.8,4,5,7,0,2026-03-02T10:20:40.198387+05:30
Jamshedpur,Jharkhand,22.8046,86.2029,30.6,36,0.0,995.2,7.75,26.3,154,90.3,52.9,0,5,7,0,2026-03-02T10:20:40.198393+05:30
Dhanbad,Jharkhand,23.7957,86.4304,31.1,27,0.0,984.2,7.6,36.4,144,73.6,38.9,0,5,7,0,2026-03-02T10:20:40.198399+05:30
Bokaro,Jharkhand,23.6693,86.1511,30.4,31,0.0,988.3,7.6,40.7,148,80.1,37.8,0,5,7,0,2026-03-02T10:20:40.198405+05:30
Bhubaneswar,Odisha,20.2961,85.8245,30.3,63,0.0,1006.3,8.05,29.9,135,67.3,65.2,3,5,4,1,2026-03-02T10:20:40.198412+05:30
Cuttack,Odisha,20.4625,85.8828,30.5,64,0.0,1008.1,8.1,20.9,135,67.3,65.2,3,0,4,1,2026-03-02T10:20:40.198417+05:30
Rourkela,Odisha,22.2604,84.8536,30.5,34,0.0,989.8,7.65,27.4,151,69.4,31.7,0,5,7,0,2026-03-02T10:20:40.198423+05:30
Raipur,Chhattisgarh,21.2514,81.6296,30.0,36,0.0,980.1,7.75,24.1,113,47.7,31.9,4,5,7,0,2026-03-02T10:20:40.198429+05:30
Bhilai,Chhattisgarh,21.1938,81.3509,30.2,37,0.0,980.4,7.8,22.7,92,49.6,37.5,0,5,7,0,2026-03-02T10:20:40.198435+05:30
Guwahati,Assam,26.1158,91.7086,24.1,69,0.0,1007.1,7.0,28.4,155,78.7,59.5,3,5,4,1,2026-03-02T10:20:40.198441+05:30
Agartala,Tripura,23.8315,91.2868,27.4,70,0.0,1010.3,7.3,18.0,109,54.8,49.8,7,0,4,1,2026-03-02T10:20:40.198447+05:30
Shillong,Meghalaya,25.5788,91.8933,17.1,41,0.0,859.0,7.25,66.2,120,60.5,39.6,0,5,7,0,2026-03-02T10:20:40.198453+05:30
Imphal,Manipur,24.817,93.9368,20.1,62,0.0,927.1,7.45,72.4,150,63.8,46.2,3,5,7,0,2026-03-02T10:20:40.198459+05:30
Aizawl,Mizoram,23.7271,92.7176,20.7,63,0.0,896.7,6.75,41.8,123,66.1,51.0,3,5,7,0,2026-03-02T10:20:40.198465+05:30
Kohima,Nagaland,25.6701,94.1077,16.8,58,0.0,858.3,7.45,86.0,151,59.6,40.2,0,5,7,0,2026-03-02T10:20:40.198471+05:30
Gangtok,Sikkim,27.3314,88.6138,15.8,63,0.0,839.4,5.1,19.4,137,55.4,37.7,3,5,3,0,2026-03-02T10:20:40.198494+05:30
Siliguri,West Bengal,26.7271,88.3953,21.7,64,0.0,998.4,7.0,20.5,172,127.1,85.9,3,5,7,0,2026-03-02T10:20:43.418070+05:30
Durgapur,West Bengal,23.5204,87.3119,31.8,31,0.0,999.1,7.6,26.6,142,89.6,52.9,0,5,7,0,2026-03-02T10:20:43.418110+05:30
Asansol,West Bengal,23.6739,86.9524,31.6,34,0.0,997.9,7.6,29.2,120,78.7,44.0,0,5,7,0,2026-03-02T10:20:43.418123+05:30
Pondicherry,Puducherry,11.9139,79.8145,29.0,68,0.0,1012.8,8.8,27.7,130,57.0,53.0,7,0,4,1,2026-03-02T10:20:43.418133+05:30
Port Blair,Andaman and Nicobar Islands,11.6234,92.7265,27.6,72,0.0,1009.9,8.8,18.0,72,29.1,23.7,7,0,4,1,2026-03-02T10:20:43.418142+05:30
Haridwar,Uttarakhand,29.9457,78.1642,23.7,58,0.0,978.2,5.55,43.9,96,33.4,29.0,0,5,3,0,2026-03-02T10:20:43.418151+05:30
Rishikesh,Uttarakhand,30.0869,78.2676,24.4,52,0.0,970.7,5.6,34.2,78,28.8,21.7,0,5,3,0,2026-03-02T10:20:43.418160+05:30
Nainital,Uttarakhand,29.3919,79.4542,19.0,54,0.0,808.3,6.4,48.6,80,29.9,23.0,0,5,7,0,2026-03-02T10:20:43.418169+05:30
Mussoorie,Uttarakhand,30.4599,78.0664,17.3,48,0.0,804.7,5.9,32.8,81,27.0,20.0,0,5,3,0,2026-03-02T10:20:43.418178+05:30
Dharamshala,Himachal Pradesh,32.219,76.3234,20.0,52,0.0,872.3,6.15,27.4,58,10.7,6.0,0,5,7,0,2026-03-02T10:20:43.418186+05:30
Dalhousie,Himachal Pradesh,32.5387,75.971,18.7,25,0.0,807.3,6.35,23.8,101,28.6,21.1,0,5,7,1,2026-03-02T10:20:43.418195+05:30
Patiala,Punjab,30.3398,76.3869,23.0,61,0.0,983.5,5.55,37.1,157,74.7,65.4,3,5,3,0,2026-03-02T10:20:43.418204+05:30
Bhatinda,Punjab,30.211,74.9455,24.8,62,0.0,989.5,6.2,24.8,158,104.5,80.6,3,5,7,1,2026-03-02T10:20:43.418211+05:30
Rohtak,Haryana,28.8955,76.6066,24.3,60,0.0,987.6,5.75,33.8,199,239.3,80.3,0,5,3,0,2026-03-02T10:20:43.418220+05:30
Panipat,Haryana,29.3909,76.9635,23.1,62,0.0,985.8,5.55,34.6,514,642.6,123.9,3,5,3,0,2026-03-02T10:20:43.418228+05:30
Mathura,Uttar Pradesh,27.4924,77.6737,25.8,56,0.0,992.8,6.0,26.3,344,382.8,80.8,4,5,3,1,2026-03-02T10:20:43.418236+05:30
Vrindavan,Uttar Pradesh,27.5823,77.7027,25.3,58,0.0,993.2,6.0,29.9,344,382.8,80.8,4,5,3,1,2026-03-02T10:20:43.418244+05:30
Ayodhya,Uttar Pradesh,26.7922,82.1998,24.2,51,0.0,1000.0,6.4,35.6,104,184.9,63.1,0,5,4,0,2026-03-02T10:20:43.418251+05:30
Ratlam,Madhya Pradesh,23.3315,75.0367,26.7,49,0.0,960.2,7.25,7.6,105,41.1,34.9,4,5,7,0,2026-03-02T10:20:43.418260+05:30
Sagar,Madhya Pradesh,23.8388,78.7378,28.1,34,0.0,956.0,7.2,24.5,66,28.8,20.4,4,5,7,0,2026-03-02T10:20:43.418268+05:30
Satna,Madhya Pradesh,24.6005,80.8322,28.6,30,0.0,977.1,7.15,36.7,64,35.6,17.5,4,5,7,0,2026-03-02T10:20:43.418276+05:30
Akola,Maharashtra,20.7002,77.0082,30.2,37,0.0,980.6,7.75,23.8,69,24.1,22.7,0,5,7,0,2026-03-02T10:20:43.418285+05:30
Amravati,Maharashtra,20.9374,77.7796,31.1,32,0.0,972.8,7.7,22.7,67,25.0,22.8,0,5,7,0,2026-03-02T10:20:43.418294+05:30
Latur,Maharashtra,18.4088,76.5604,28.9,38,0.0,944.4,8.15,26.3,79,22.4,22.1,4,5,7,0,2026-03-02T10:20:43.418302+05:30
Nanded,Maharashtra,19.1383,77.3091,29.9,38,0.0,973.9,7.95,18.7,76,27.4,26.9,4,5,7,0,2026-03-02T10:20:43.418309+05:30
Gulbarga,Karnataka,17.3297,76.8343,30.6,42,0.0,963.1,8.25,19.4,121,48.1,47.5,0,5,7,1,2026-03-02T10:20:43.418316+05:30
Bidar,Karnataka,17.9104,77.5199,29.4,47,0.0,939.9,8.2,17.3,150,59.6,58.9,4,5,7,1,2026-03-02T10:20:43.418324+05:30
Hospet,Karnataka,15.2689,76.3909,27.2,57,0.0,960.0,8.6,21.2,112,26.7,26.3,4,5,7,1,2026-03-02T10:20:43.418331+05:30
Tirupur,Tamil Nadu,11.1085,77.3411,29.7,53,0.0,979.2,9.1,32.0,151,52.6,50.4,4,5,7,1,2026-03-02T10:20:43.418338+05:30
Alappuzha,Kerala,9.4981,76.3388,27.1,79,0.0,1012.1,8.9,29.5,87,35.0,33.8,7,0,4,1,2026-03-02T10:20:43.418346+05:30
Munnar,Kerala,10.0889,77.0595,26.1,48,0.0,861.0,9.4,23.8,133,41.7,39.3,4,5,7,0,2026-03-02T10:20:43.418355+05:30
Silchar,Assam,24.8333,92.7789,25.0,66,0.0,1010.4,7.35,18.7,153,72.4,54.6,7,0,4,1,2026-03-02T10:20:43.418363+05:30
Dibrugarh,Assam,27.4728,94.912,22.8,69,0.0,1001.4,7.05,11.9,152,83.6,63.1,3,5,4,1,2026-03-02T10:20:43.418370+05:30
