city,state,latitude,longitude,temp,humidity,rain,pressure,uv_index,wind_gusts,aqi,pm10,pm2_5,no2,co,o3,so2,mosquito_risk,arthritis_risk,migraine_risk,frizz_risk,updated_at
Delhi,Delhi,28.6139,77.209,32.4,62,0.0,974.5,7.7,18.7,152,74.5,35.6,9.5,645.0,200.0,20.1,3,5,7,1,2026-07-02T17:06:00.666993+05:30
Mumbai,Maharashtra,19.076,72.8777,26.9,90,0.3,1003.2,1.05,45.0,38,15.7,9.0,7.7,224.0,56.0,5.2,10,5,0,1,2026-07-02T17:06:00.667034+05:30
Bangalore,Karnataka,12.9716,77.5946,26.3,63,0.0,909.5,4.75,59.4,26,2.6,2.3,7.6,432.0,56.0,2.3,7,5,3,1,2026-07-02T17:06:00.667047+05:30
Hyderabad,Telangana,17.385,78.4867,27.8,69,0.0,947.8,6.6,55.4,26,14.1,9.5,9.1,251.0,64.0,4.5,7,5,7,1,2026-07-02T17:06:00.667056+05:30
Chennai,Tamil Nadu,13.0827,80.2707,34.9,47,0.1,1001.8,6.5,45.0,42,17.4,13.2,6.1,256.0,106.0,5.0,3,5,4,1,2026-07-02T17:06:00.667063+05:30
Kolkata,West Bengal,22.5726,88.3639,30.7,77,0.1,995.9,7.9,32.0,65,12.4,11.7,6.7,538.0,86.0,7.0,6,5,7,1,2026-07-02T17:06:00.667069+05:30
Pune,Maharashtra,18.5204,73.8567,24.1,91,0.1,943.1,0.95,44.6,20,6.2,4.4,8.1,192.0,45.0,4.2,6,5,3,1,2026-07-02T17:06:00.667075+05:30
Ahmedabad,Gujarat,23.0225,72.5714,29.9,73,0.3,994.6,6.75,50.8,56,33.3,16.1,5.8,170.0,87.0,5.1,10,5,7,1,2026-07-02T17:06:00.667080+05:30
Jaipur,Rajasthan,26.9124,75.7873,32.0,66,0.0,951.6,8.2,30.2,115,202.6,54.9,3.9,192.0,105.0,4.0,3,5,7,1,2026-07-02T17:06:00.667086+05:30
Lucknow,Uttar Pradesh,26.8467,80.9462,31.6,75,0.1,984.4,7.0,25.9,117,22.1,21.5,2.5,376.0,168.0,6.4,6,5,7,1,2026-07-02T17:06:00.667095+05:30
Kanpur,Uttar Pradesh,26.4499,80.3319,31.2,77,0.0,982.6,7.3,19.4,106,32.5,23.7,2.7,256.0,167.0,7.2,3,5,7,1,2026-07-02T17:06:00.667103+05:30
Chandigarh,Chandigarh,30.7333,76.7794,30.7,73,0.0,961.0,6.8,36.7,133,54.2,25.2,0.3,372.0,180.0,7.6,3,5,7,1,2026-07-02T17:06:00.667108+05:30
Srinagar,Jammu and Kashmir,34.0837,74.7973,26.4,56,0.0,838.9,9.1,19.1,99,29.6,20.2,1.8,240.0,151.0,2.6,4,5,7,1,2026-07-02T17:06:00.667113+05:30
Jammu,Jammu and Kashmir,32.7266,74.857,34.1,51,0.0,964.8,8.55,32.4,132,129.5,47.6,0.3,267.0,173.0,4.0,0,5,7,1,2026-07-02T17:06:00.667118+05:30
Amritsar,Punjab,31.634,74.8723,33.6,59,0.0,972.3,8.45,28.8,193,270.1,89.4,1.2,259.0,156.0,5.3,0,5,7,1,2026-07-02T17:06:00.667123+05:30
Ludhiana,Punjab,30.901,75.8573,32.8,63,0.0,970.3,2.25,28.8,153,158.3,58.6,1.0,289.0,163.0,8.4,3,5,3,1,2026-07-02T17:06:00.667128+05:30
Jalandhar,Punjab,31.326,75.5762,33.8,58,0.0,971.2,2.2,31.3,159,207.7,75.9,0.4,305.0,168.0,6.4,0,5,3,1,2026-07-02T17:06:00.667133+05:30
Dehradun,Uttarakhand,30.6284,78.0322,21.2,92,0.0,826.9,4.95,25.2,92,3.4,2.9,1.1,212.0,138.0,1.5,3,5,3,1,2026-07-02T17:06:00.667138+05:30
Shimla,Himachal Pradesh,31.1048,77.1734,18.8,94,0.1,781.7,4.9,24.8,84,35.0,17.8,2.0,212.0,147.0,3.4,6,10,3,1,2026-07-02T17:06:00.667143+05:30
Manali,Himachal Pradesh,32.2396,77.1887,24.1,68,0.0,817.2,3.4,42.5,108,27.2,26.3,29.7,169.0,143.0,0.9,3,5,3,1,2026-07-02T17:06:00.667150+05:30
Gurgaon,Haryana,28.4595,77.0266,32.2,61,0.0,972.9,7.8,23.4,157,152.3,63.1,10.2,493.0,251.0,31.1,3,5,7,1,2026-07-02T17:06:00.667157+05:30
Noida,Uttar Pradesh,28.5355,77.391,33.6,57,0.0,975.7,7.45,21.2,157,152.3,63.1,10.2,458.0,251.0,31.1,0,5,7,1,2026-07-02T17:06:00.667162+05:30
Ghaziabad,Uttar Pradesh,28.6692,77.4538,33.2,58,0.0,974.0,7.15,20.5,115,27.7,19.6,5.0,322.0,173.0,12.3,0,5,7,1,2026-07-02T17:06:00.667167+05:30
Faridabad,Haryana,28.4089,77.3178,32.6,63,0.0,975.0,7.4,25.6,157,152.3,63.1,10.2,450.0,251.0,31.1,3,5,7,1,2026-07-02T17:06:00.667171+05:30
Meerut,Uttar Pradesh,28.9845,77.7064,31.9,66,0.0,973.0,7.4,24.1,115,27.7,19.6,5.0,334.0,173.0,12.3,3,5,7,1,2026-07-02T17:06:00.667176+05:30
Agra,Uttar Pradesh,27.1767,78.0081,32.3,64,0.0,978.8,7.4,30.6,116,184.9,51.6,4.8,269.0,153.0,6.8,3,5,7,1,2026-07-02T17:06:00.667181+05:30
Varanasi,Uttar Pradesh,25.3176,82.9739,30.5,79,0.0,988.6,5.5,31.0,106,32.1,32.0,5.7,419.0,147.0,8.3,3,5,3,1,2026-07-02T17:06:00.667186+05:30
Prayagraj,Uttar Pradesh,25.4358,81.8463,31.1,75,0.2,986.8,6.95,23.4,100,29.3,29.0,4.2,378.0,151.0,6.0,6,5,7,1,2026-07-02T17:06:00.667191+05:30
Gorakhpur,Uttar Pradesh,26.7606,83.3732,30.3,80,0.1,988.4,7.6,30.6,135,19.1,19.0,6.5,321.0,114.0,3.7,6,5,7,1,2026-07-02T17:06:00.667197+05:30
Bareilly,Uttar Pradesh,28.367,79.4304,31.1,73,0.0,978.3,7.3,32.8,116,32.7,30.6,3.1,300.0,160.0,9.3,3,5,7,1,2026-07-02T17:06:00.667203+05:30
Aligarh,Uttar Pradesh,27.8974,78.088,32.3,64,0.0,976.7,6.3,29.5,128,104.3,41.8,3.8,293.0,184.0,16.3,3,5,7,1,2026-07-02T17:06:00.667208+05:30
Moradabad,Uttar Pradesh,28.8386,78.7733,31.0,72,0.0,975.3,6.75,33.1,95,38.9,31.3,3.7,299.0,166.0,11.5,3,5,7,1,2026-07-02T17:06:00.667213+05:30
Saharanpur,Uttar Pradesh,29.9637,77.546,30.6,73,0.1,967.8,2.6,37.1,121,26.2,22.5,1.9,368.0,142.0,2.7,6,5,3,1,2026-07-02T17:06:00.667218+05:30
Jhansi,Uttar Pradesh,25.4484,78.5685,31.5,66,0.0,969.7,8.15,32.4,97,77.3,32.9,1.5,159.0,123.0,5.4,3,5,7,1,2026-07-02T17:06:03.991063+05:30
Surat,Gujarat,21.1702,72.8311,27.9,90,0.1,999.7,0.5,31.3,58,18.0,16.5,32.9,427.0,23.0,46.9,10,5,3,1,2026-07-02T17:06:03.991094+05:30
Vadodara,Gujarat,22.3072,73.1812,31.2,68,0.0,996.7,7.1,42.1,49,14.5,11.2,8.9,185.0,84.0,5.5,3,5,7,1,2026-07-02T17:06:03.991102+05:30
Rajkot,Gujarat,22.3039,70.8022,29.5,75,0.0,987.2,4.45,41.0,61,20.8,10.1,2.9,136.0,72.0,3.2,7,5,3,1,2026-07-02T17:06:03.991109+05:30
Thane,Maharashtra,19.2183,72.9781,26.1,95,0.2,1002.6,0.95,36.7,38,15.7,9.0,7.7,259.0,56.0,5.2,10,5,0,1,2026-07-02T17:06:03.991116+05:30
Nagpur,Maharashtra,21.1458,79.0882,27.1,94,0.2,965.9,0.95,34.2,68,10.0,9.6,16.1,241.0,70.0,20.3,10,5,3,1,2026-07-02T17:06:03.991122+05:30
Nashik,Maharashtra,19.9975,73.7898,24.1,91,0.1,939.3,2.8,55.8,21,1.9,1.8,7.0,160.0,44.0,2.1,6,5,3,1,2026-07-02T17:06:03.991128+05:30
Aurangabad,Maharashtra,19.8762,75.3433,27.1,71,0.1,938.2,4.2,54.7,27,4.6,3.7,4.6,174.0,59.0,4.4,10,5,3,1,2026-07-02T17:06:03.991134+05:30
Solapur,Maharashtra,17.6599,75.9064,28.1,67,0.0,952.5,6.05,54.4,28,7.4,4.8,2.7,118.0,61.0,1.7,7,5,7,1,2026-07-02T17:06:03.991139+05:30
Kolhapur,Maharashtra,16.705,74.2433,23.4,92,0.1,944.6,1.85,50.8,22,5.1,4.2,6.3,163.0,46.0,1.8,6,5,3,1,2026-07-02T17:06:03.991146+05:30
Goa,Goa,15.2993,74.124,25.0,97,0.3,996.5,4.85,28.8,39,16.0,8.5,2.3,172.0,54.0,0.7,10,5,3,1,2026-07-02T17:06:03.991151+05:30
Jodhpur,Rajasthan,26.2389,73.0243,38.9,34,0.0,973.5,8.45,29.9,118,146.2,38.4,0.2,115.0,96.0,2.0,0,5,10,1,2026-07-02T17:06:03.991157+05:30
Udaipur,Rajasthan,24.5854,73.7125,31.7,53,0.1,939.4,7.95,28.1,63,44.9,22.5,1.6,161.0,92.0,2.6,3,5,7,1,2026-07-02T17:06:03.991164+05:30
Kota,Rajasthan,25.2138,75.8648,33.3,58,0.0,970.6,7.6,32.8,74,56.2,27.0,2.1,175.0,112.0,4.9,0,5,7,1,2026-07-02T17:06:03.991170+05:30
Bikaner,Rajasthan,28.0229,73.3119,41.0,30,0.0,971.6,8.45,39.6,146,273.8,67.5,0.4,119.0,82.0,1.8,0,5,10,1,2026-07-02T17:06:03.991176+05:30
Ajmer,Rajasthan,26.4499,74.6399,35.3,43,0.0,946.6,8.2,50.0,91,103.1,37.5,1.3,157.0,98.0,1.5,0,5,10,1,2026-07-02T17:06:03.991182+05:30
Gwalior,Madhya Pradesh,26.2183,78.1828,31.7,66,0.0,974.6,8.15,39.6,100,97.1,35.4,1.3,198.0,138.0,2.5,3,5,7,1,2026-07-02T17:06:03.991188+05:30
Indore,Madhya Pradesh,22.7196,75.8577,25.6,91,0.3,941.6,5.35,40.3,63,25.5,16.9,4.6,379.0,100.0,2.5,10,5,3,1,2026-07-02T17:06:03.991193+05:30
Bhopal,Madhya Pradesh,23.2599,77.4126,25.7,91,0.1,946.7,6.2,37.4,72,34.7,20.2,2.0,259.0,115.0,2.9,10,5,7,1,2026-07-02T17:06:03.991199+05:30
Jabalpur,Madhya Pradesh,23.1815,79.9864,28.7,76,0.1,953.4,4.3,28.4,69,33.4,19.5,4.2,189.0,91.0,2.8,10,5,3,1,2026-07-02T17:06:03.991204+05:30
Ujjain,Madhya Pradesh,23.1765,75.7885,25.7,91,0.3,947.1,8.15,39.6,58,26.4,17.2,2.0,209.0,99.0,2.8,10,5,7,1,2026-07-02T17:06:03.991210+05:30
Visakhapatnam,Andhra Pradesh,17.6868,83.2185,31.9,62,0.0,994.0,2.65,41.8,56,10.0,9.7,15.3,298.0,80.0,34.0,3,5,3,1,2026-07-02T17:06:03.991215+05:30
Vijayawada,Andhra Pradesh,16.5062,80.648,33.5,47,0.0,995.7,6.5,59.8,40,15.9,10.4,3.4,137.0,84.0,4.4,0,5,7,1,2026-07-02T17:06:03.991221+05:30
Guntur,Andhra Pradesh,16.3067,80.4365,34.7,45,0.0,996.8,6.2,55.1,34,15.3,9.7,4.2,166.0,77.0,4.0,0,5,7,1,2026-07-02T17:06:03.991227+05:30
Nellore,Andhra Pradesh,14.4426,79.9865,35.9,41,0.0,999.6,8.4,54.0,34,11.8,7.5,5.3,114.0,79.0,3.3,0,5,10,1,2026-07-02T17:06:03.991234+05:30
Kurnool,Andhra Pradesh,15.8281,78.0373,29.5,65,0.0,972.2,7.1,57.2,32,9.4,5.2,2.1,120.0,71.0,1.2,7,5,7,1,2026-07-02T17:06:03.991241+05:30
Kakinada,Andhra Pradesh,16.9891,82.2475,31.8,62,0.0,999.3,7.85,64.4,43,10.4,7.9,5.6,195.0,76.0,4.8,3,5,7,1,2026-07-02T17:06:03.991246+05:30
Tirupati,Andhra Pradesh,13.6288,79.4192,33.7,46,0.0,986.1,7.55,48.6,31,5.5,4.1,4.4,127.0,66.0,1.1,0,5,7,1,2026-07-02T17:06:03.991252+05:30
Warangal,Telangana,17.9689,79.5941,29.2,70,0.0,972.5,3.55,52.2,30,10.4,7.9,6.0,184.0,51.0,2.4,7,5,3,1,2026-07-02T17:06:03.991257+05:30
Nizamabad,Telangana,18.6725,78.0941,25.6,94,0.0,958.9,1.25,44.3,28,12.4,10.3,7.4,139.0,55.0,5.3,7,5,3,1,2026-07-02T17:06:03.991263+05:30
Mysore,Karnataka,12.2958,76.6396,26.2,67,0.0,926.7,8.35,58.7,26,2.7,2.1,4.0,138.0,55.0,1.3,7,5,7,1,2026-07-02T17:06:03.991268+05:30
Mangalore,Karnataka,12.9141,74.856,25.6,93,0.2,1006.2,5.1,43.2,24,13.1,7.1,3.3,136.0,53.0,1.3,10,5,0,1,2026-07-02T17:06:03.991274+05:30
Hubli-Dharwad,Karnataka,15.3647,75.124,23.0,94,0.1,938.1,7.1,58.0,24,1.9,1.6,5.7,118.0,47.0,0.8,6,5,7,1,2026-07-02T17:06:03.991279+05:30
Belgaum,Karnataka,15.8497,74.4977,22.3,93,0.1,922.9,6.95,54.4,23,2.3,2.0,5.5,139.0,46.0,1.2,6,5,7,1,2026-07-02T17:06:07.318268+05:30
Coimbatore,Tamil Nadu,11.0168,76.9558,27.7,68,0.0,959.6,8.45,59.4,25,4.1,2.8,3.1,182.0,58.0,1.6,7,5,7,1,2026-07-02T17:06:07.318299+05:30
Madurai,Tamil Nadu,9.9252,78.1198,35.2,41,0.0,989.1,8.65,56.9,46,11.0,6.3,2.8,157.0,85.0,1.7,0,5,10,1,2026-07-02T17:06:07.318308+05:30
Trichy,Tamil Nadu,10.7905,78.7047,34.4,43,0.0,995.9,8.8,65.5,32,6.6,4.3,2.2,114.0,73.0,1.5,0,5,7,1,2026-07-02T17:06:07.318315+05:30
Salem,Tamil Nadu,11.6643,78.146,33.5,44,0.0,973.8,8.65,39.6,39,6.3,5.2,4.0,248.0,84.0,5.2,0,5,7,1,2026-07-02T17:06:07.318322+05:30
Tirunelveli,Tamil Nadu,8.7139,77.7567,33.9,45,0.0,1000.3,8.65,50.4,30,8.1,5.5,2.2,111.0,66.0,1.3,0,5,4,1,2026-07-02T17:06:07.318328+05:30
Vellore,Tamil Nadu,12.9165,79.1325,34.0,44,0.0,979.5,7.65,46.1,31,4.1,3.7,4.9,165.0,71.0,2.1,0,5,7,1,2026-07-02T17:06:07.318334+05:30
Erode,Tamil Nadu,11.341,77.7172,32.6,49,0.0,985.5,8.65,52.9,31,6.9,5.1,3.1,178.0,80.0,1.8,0,5,7,1,2026-07-02T17:06:07.318340+05:30
Kochi,Kerala,9.9312,76.2673,27.7,78,0.0,1008.4,8.5,42.1,52,9.8,6.6,2.7,124.0,60.0,2.3,7,0,4,1,2026-07-02T17:06:07.318347+05:30
Thiruvananthapuram,Kerala,8.5241,76.9366,27.6,80,0.0,1007.5,8.4,46.4,47,15.4,8.2,1.6,105.0,53.0,0.9,7,5,4,1,2026-07-02T17:06:07.318352+05:30
Kozhikode,Kerala,11.2588,75.7804,26.3,85,0.1,1007.6,8.35,36.0,25,7.7,4.3,0.8,126.0,57.0,0.6,10,5,4,1,2026-07-02T17:06:07.318358+05:30
Thrissur,Kerala,10.5276,76.2144,27.0,82,0.0,1006.8,8.55,39.2,48,6.9,4.9,3.0,150.0,53.0,1.5,7,5,4,1,2026-07-02T17:06:07.318364+05:30
Kannur,Kerala,11.8745,75.3704,25.9,94,0.1,1006.9,8.55,42.1,22,9.1,5.0,4.5,119.0,46.0,0.9,10,5,4,1,2026-07-02T17:06:07.318370+05:30
Patna,Bihar,25.5941,85.1376,30.6,81,0.0,991.3,6.25,32.0,128,29.0,28.6,7.6,314.0,143.0,10.3,3,5,7,1,2026-07-02T17:06:07.318376+05:30
Gaya,Bihar,24.7914,85.0002,28.9,88,0.0,984.5,6.45,32.8,102,22.8,22.4,4.7,315.0,124.0,5.6,7,5,7,1,2026-07-02T17:06:07.318382+05:30
Muzaffarpur,Bihar,26.1209,85.3647,30.6,79,0.0,991.7,6.55,35.3,122,28.0,27.7,8.3,309.0,132.0,9.0,3,5,7,1,2026-07-02T17:06:07.318387+05:30
Bhagalpur,Bihar,25.2425,87.0117,30.0,84,0.1,992.2,6.0,35.3,93,19.6,19.1,6.8,248.0,127.0,11.9,10,5,3,1,2026-07-02T17:06:07.318392+05:30
Ranchi,Jharkhand,23.3441,85.3096,25.7,91,0.1,929.1,6.8,32.0,90,20.7,20.5,7.3,903.0,109.0,13.8,10,5,7,1,2026-07-02T17:06:07.318398+05:30
Jamshedpur,Jharkhand,22.8046,86.2029,28.0,89,0.0,981.0,7.1,31.3,103,13.7,13.4,6.0,309.0,96.0,6.0,7,5,7,1,2026-07-02T17:06:07.318403+05:30
Dhanbad,Jharkhand,23.7957,86.4304,26.3,97,0.4,971.2,7.8,42.1,131,27.6,27.4,18.2,318.0,130.0,59.3,10,5,7,1,2026-07-02T17:06:07.318408+05:30
Bokaro,Jharkhand,23.6693,86.1511,28.0,86,0.2,974.6,7.0,35.3,134,28.9,28.7,21.3,432.0,126.0,71.4,10,5,7,1,2026-07-02T17:06:07.318414+05:30
Bhubaneswar,Odisha,20.2961,85.8245,27.9,91,0.2,992.0,8.55,24.1,89,15.9,15.7,8.2,298.0,129.0,12.2,10,5,7,1,2026-07-02T17:06:07.318419+05:30
Cuttack,Odisha,20.4625,85.8828,28.8,88,0.0,993.7,7.7,27.4,89,15.9,15.7,8.2,270.0,129.0,12.2,7,5,7,1,2026-07-02T17:06:07.318423+05:30
Rourkela,Odisha,22.2604,84.8536,28.6,85,0.1,974.9,6.95,36.0,118,34.2,33.6,8.4,657.0,131.0,16.7,10,5,7,1,2026-07-02T17:06:07.318428+05:30
Raipur,Chhattisgarh,21.2514,81.6296,27.1,89,0.2,966.0,4.55,39.2,86,23.5,21.1,23.4,190.0,84.0,41.5,10,5,3,1,2026-07-02T17:06:07.318434+05:30
Bhilai,Chhattisgarh,21.1938,81.3509,27.8,89,0.2,966.5,4.7,34.2,76,22.2,20.0,18.9,916.0,81.0,34.8,10,5,3,1,2026-07-02T17:06:07.318439+05:30
Guwahati,Assam,26.1158,91.7086,29.9,85,0.0,993.3,7.8,22.7,46,7.3,7.1,2.5,212.0,97.0,1.1,7,5,7,1,2026-07-02T17:06:07.318443+05:30
Agartala,Tripura,23.8315,91.2868,29.9,81,0.1,997.8,7.9,28.4,57,9.5,9.1,7.3,200.0,96.0,1.9,10,5,7,1,2026-07-02T17:06:07.318448+05:30
Shillong,Meghalaya,25.5788,91.8933,23.3,85,0.0,853.3,8.55,25.2,41,6.7,6.5,3.7,196.0,82.0,1.3,3,5,7,1,2026-07-02T17:06:07.318452+05:30
Imphal,Manipur,24.817,93.9368,27.2,77,0.0,917.4,8.85,25.9,50,4.7,4.6,2.9,250.0,72.0,1.0,7,5,7,1,2026-07-02T17:06:07.318457+05:30
Aizawl,Mizoram,23.7271,92.7176,22.9,95,0.1,886.5,8.9,22.3,42,5.8,5.6,4.6,157.0,58.0,0.6,6,5,7,1,2026-07-02T17:06:07.318462+05:30
Kohima,Nagaland,25.6701,94.1077,23.1,95,0.0,851.2,8.1,25.9,36,5.0,5.0,4.0,165.0,67.0,0.6,3,5,7,1,2026-07-02T17:06:07.318467+05:30
Gangtok,Sikkim,27.3314,88.6138,21.7,90,0.1,834.3,8.9,30.6,51,3.8,3.7,4.2,234.0,103.0,0.7,6,5,7,1,2026-07-02T17:06:07.318472+05:30
Siliguri,West Bengal,26.7271,88.3953,31.3,74,0.0,984.7,8.3,27.7,83,12.1,12.0,4.3,371.0,116.0,1.9,3,5,7,1,2026-07-02T17:06:10.684382+05:30
Durgapur,West Bengal,23.5204,87.3119,29.7,82,0.1,985.4,7.3,38.2,125,22.7,22.2,13.9,282.0,132.0,31.7,10,5,7,1,2026-07-02T17:06:10.684415+05:30
Asansol,West Bengal,23.6739,86.9524,29.1,85,0.2,984.3,7.05,38.5,114,24.9,24.5,13.6,327.0,139.0,35.1,10,5,7,1,2026-07-02T17:06:10.684424+05:30
Pondicherry,Puducherry,11.9139,79.8145,34.0,48,0.0,1003.6,8.45,29.9,55,14.3,13.3,8.3,165.0,122.0,8.0,0,5,4,1,2026-07-02T17:06:10.684431+05:30
Port Blair,Andaman and Nicobar Islands,11.6234,92.7265,26.4,92,0.0,1003.9,3.4,47.9,39,18.0,9.6,0.6,105.0,59.0,0.5,7,5,0,1,2026-07-02T17:06:10.684439+05:30
Haridwar,Uttarakhand,29.9457,78.1642,31.1,69,0.0,966.4,5.3,29.5,90,27.6,22.8,1.6,308.0,139.0,4.0,3,5,3,1,2026-07-02T17:06:10.684446+05:30
Rishikesh,Uttarakhand,30.0869,78.2676,29.7,75,0.0,959.4,4.95,27.7,56,18.8,15.8,1.0,249.0,131.0,2.3,7,5,3,1,2026-07-02T17:06:10.684451+05:30
Nainital,Uttarakhand,29.3919,79.4542,20.6,82,0.0,802.6,7.05,20.5,93,30.7,27.7,0.9,280.0,136.0,2.1,3,5,7,1,2026-07-02T17:06:10.684457+05:30
Mussoorie,Uttarakhand,30.4599,78.0664,20.0,88,0.0,800.1,4.45,27.0,91,13.0,10.3,1.3,240.0,141.0,2.8,3,5,3,1,2026-07-02T17:06:10.684463+05:30
Dharamshala,Himachal Pradesh,32.219,76.3234,25.3,71,0.0,865.2,7.25,31.3,64,20.9,12.0,1.8,192.0,124.0,1.0,7,5,7,1,2026-07-02T17:06:10.684470+05:30
Dalhousie,Himachal Pradesh,32.5387,75.971,21.5,79,0.0,802.5,3.4,30.2,109,75.9,32.7,1.4,198.0,169.0,3.6,3,5,3,1,2026-07-02T17:06:10.684476+05:30
Patiala,Punjab,30.3398,76.3869,31.4,71,0.0,969.8,7.2,26.3,151,59.5,32.0,1.9,274.0,168.0,8.8,3,5,7,1,2026-07-02T17:06:10.684482+05:30
Bhatinda,Punjab,30.211,74.9455,36.0,47,0.0,974.4,7.65,46.4,512,409.8,90.1,2.9,199.0,164.0,12.7,0,5,10,1,2026-07-02T17:06:10.684487+05:30
Rohtak,Haryana,28.8955,76.6066,33.6,59,0.0,972.9,7.55,31.3,178,296.2,67.3,4.3,257.0,194.0,13.2,0,5,7,1,2026-07-02T17:06:10.684493+05:30
Panipat,Haryana,29.3909,76.9635,32.6,61,0.0,971.8,6.75,22.3,155,210.9,42.0,5.3,307.0,172.0,15.4,3,5,7,1,2026-07-02T17:06:10.684498+05:30
Mathura,Uttar Pradesh,27.4924,77.6737,34.0,53,0.0,977.7,7.85,28.1,115,144.8,51.7,2.0,304.0,173.0,7.1,0,5,7,1,2026-07-02T17:06:10.684504+05:30
Vrindavan,Uttar Pradesh,27.5823,77.7027,34.2,53,0.0,978.1,7.8,26.3,115,144.8,51.7,2.0,296.0,173.0,7.1,0,5,7,1,2026-07-02T17:06:10.684509+05:30
Ayodhya,Uttar Pradesh,26.7922,82.1998,30.6,81,0.1,986.6,6.85,25.9,125,29.7,29.5,4.2,354.0,138.0,3.3,6,5,7,1,2026-07-02T17:06:10.684515+05:30
Ratlam,Madhya Pradesh,23.3315,75.0367,25.8,92,0.7,948.2,6.7,32.0,55,24.9,16.8,1.5,156.0,99.0,2.7,10,5,7,1,2026-07-02T17:06:10.684520+05:30
Sagar,Madhya Pradesh,23.8388,78.7378,26.4,91,0.1,942.6,1.45,34.6,72,41.4,22.1,1.9,175.0,110.0,4.8,10,5,3,1,2026-07-02T17:06:10.684526+05:30
Satna,Madhya Pradesh,24.6005,80.8322,28.5,84,0.1,962.8,8.2,33.5,83,41.7,20.2,1.5,176.0,129.0,2.5,10,5,7,1,2026-07-02T17:06:10.684531+05:30
Akola,Maharashtra,20.7002,77.0082,28.2,81,0.2,968.5,5.35,37.8,31,7.5,6.4,4.1,160.0,76.0,5.1,10,5,3,1,2026-07-02T17:06:10.684537+05:30
Amravati,Maharashtra,20.9374,77.7796,27.5,81,0.0,960.7,3.7,40.0,36,6.6,5.8,4.9,153.0,76.0,6.2,7,5,3,1,2026-07-02T17:06:10.684543+05:30
Latur,Maharashtra,18.4088,76.5604,27.5,66,0.0,934.8,1.15,51.1,26,6.9,4.8,3.3,134.0,58.0,1.8,7,5,3,1,2026-07-02T17:06:10.684549+05:30
Nanded,Maharashtra,19.1383,77.3091,27.8,84,0.1,962.6,2.0,45.0,26,10.5,7.4,5.7,155.0,59.0,2.8,10,5,3,1,2026-07-02T17:06:10.684554+05:30
Gulbarga,Karnataka,17.3297,76.8343,29.8,56,0.0,953.7,4.7,55.8,28,7.3,4.9,5.2,141.0,63.0,2.3,4,5,3,1,2026-07-02T17:06:10.684559+05:30
Bidar,Karnataka,17.9104,77.5199,27.8,65,0.0,930.5,1.85,50.0,24,10.1,7.1,6.7,152.0,59.0,1.9,7,5,3,1,2026-07-02T17:06:10.684565+05:30
Hospet,Karnataka,15.2689,76.3909,27.6,66,0.0,952.6,5.45,59.8,24,3.6,2.3,3.6,110.0,54.0,1.4,7,5,3,1,2026-07-02T17:06:10.684570+05:30
Tirupur,Tamil Nadu,11.1085,77.3411,30.0,60,0.0,972.5,8.65,62.3,34,6.3,4.6,3.2,157.0,73.0,2.1,4,5,7,1,2026-07-02T17:06:10.684575+05:30
Alappuzha,Kerala,9.4981,76.3388,28.3,77,0.0,1008.4,8.4,43.9,49,12.3,7.6,3.3,90.0,59.0,1.7,7,0,4,1,2026-07-02T17:06:10.684581+05:30
Munnar,Kerala,10.0889,77.0595,17.8,98,0.2,855.9,7.85,41.8,27,5.3,3.7,2.6,103.0,59.0,1.2,6,10,7,1,2026-07-02T17:06:10.684587+05:30
Silchar,Assam,24.8333,92.7789,32.0,74,0.0,996.4,8.7,26.3,73,11.4,11.1,4.1,221.0,111.0,4.2,3,5,7,1,2026-07-02T17:06:10.684592+05:30
Dibrugarh,Assam,27.4728,94.912,33.3,69,0.0,986.6,8.85,15.1,53,6.2,6.1,3.8,229.0,98.0,1.3,3,5,7,1,2026-07-02T17:06:10.684598+05:30
