city,state,latitude,longitude,temp,humidity,rain,pressure,uv_index,wind_gusts,aqi,pm10,pm2_5,mosquito_risk,arthritis_risk,migraine_risk,frizz_risk,updated_at
Delhi,Delhi,28.6139,77.209,21.6,61,0.0,987.3,5.75,37.4,232,610.9,111.5,3,5,3,0,2026-03-02T21:15:31.693866+05:30
Mumbai,Maharashtra,19.076,72.8777,26.7,78,0.0,1011.3,7.3,25.6,104,36.7,26.3,7,0,4,1,2026-03-02T21:15:31.693905+05:30
Bangalore,Karnataka,12.9716,77.5946,25.3,46,0.0,913.4,9.05,28.8,132,46.9,46.4,4,5,7,0,2026-03-02T21:15:31.693920+05:30
Hyderabad,Telangana,17.385,78.4867,26.2,58,0.0,955.8,8.3,14.8,149,51.0,50.5,4,5,7,1,2026-03-02T21:15:31.693930+05:30
Chennai,Tamil Nadu,13.0827,80.2707,25.8,77,0.0,1010.4,8.8,30.2,127,41.8,38.0,7,0,4,1,2026-03-02T21:15:31.693939+05:30
Kolkata,West Bengal,22.5726,88.3639,27.4,56,0.0,1008.6,7.65,16.6,152,133.2,118.5,4,0,4,1,2026-03-02T21:15:31.693947+05:30
Pune,Maharashtra,18.5204,73.8567,26.3,63,0.0,951.1,7.85,26.3,145,33.1,32.0,7,5,7,1,2026-03-02T21:15:31.693959+05:30
Ahmedabad,Gujarat,23.0225,72.5714,27.8,44,0.0,1005.5,7.1,15.5,120,49.1,39.1,4,5,4,0,2026-03-02T21:15:31.693967+05:30
Jaipur,Rajasthan,26.9124,75.7873,25.5,32,0.0,964.0,6.5,30.2,99,82.7,36.8,4,5,7,0,2026-03-02T21:15:31.693975+05:30
Lucknow,Uttar Pradesh,26.8467,80.9462,22.8,54,0.0,997.3,6.25,37.4,149,226.3,66.4,0,5,7,0,2026-03-02T21:15:31.693983+05:30
Kanpur,Uttar Pradesh,26.4499,80.3319,21.1,72,0.0,995.7,6.25,32.0,152,285.0,63.6,3,5,7,0,2026-03-02T21:15:31.693990+05:30
Chandigarh,Chandigarh,30.7333,76.7794,19.1,61,0.0,972.5,5.65,38.9,106,30.9,28.2,3,5,3,0,2026-03-02T21:15:31.693997+05:30
Srinagar,Jammu and Kashmir,34.0837,74.7973,7.4,59,0.0,840.9,6.55,18.4,145,86.4,75.4,0,5,7,1,2026-03-02T21:15:31.694005+05:30
Jammu,Jammu and Kashmir,32.7266,74.857,21.9,56,0.0,976.2,6.25,26.3,102,43.3,37.3,0,5,7,0,2026-03-02T21:15:31.694012+05:30
Amritsar,Punjab,31.634,74.8723,19.2,64,0.0,985.0,6.1,25.2,141,34.9,28.9,3,5,7,0,2026-03-02T21:15:31.694019+05:30
Ludhiana,Punjab,30.901,75.8573,21.2,56,0.0,983.1,5.85,32.4,158,61.9,49.2,0,5,3,0,2026-03-02T21:15:31.694025+05:30
Jalandhar,Punjab,31.326,75.5762,21.8,55,0.0,984.2,6.0,30.2,159,59.5,44.2,0,5,3,0,2026-03-02T21:15:31.694034+05:30
Dehradun,Uttarakhand,30.6284,78.0322,12.0,71,0.0,830.0,6.0,27.0,93,26.6,21.7,3,5,3,0,2026-03-02T21:15:31.694041+05:30
Shimla,Himachal Pradesh,31.1048,77.1734,9.4,56,0.0,784.0,6.0,56.5,94,29.3,22.5,0,5,3,0,2026-03-02T21:15:31.694049+05:30
Manali,Himachal Pradesh,32.2396,77.1887,13.7,67,0.0,820.2,7.7,36.7,108,19.3,15.1,3,5,7,0,2026-03-02T21:15:31.694056+05:30
Gurgaon,Haryana,28.4595,77.0266,19.0,72,0.0,985.6,5.85,35.3,879,1169.7,163.0,3,5,3,0,2026-03-02T21:15:31.694063+05:30
Noida,Uttar Pradesh,28.5355,77.391,21.8,61,0.0,988.8,5.75,37.1,879,1169.7,163.0,3,5,3,0,2026-03-02T21:15:31.694070+05:30
Ghaziabad,Uttar Pradesh,28.6692,77.4538,21.5,61,0.0,986.8,5.75,36.0,187,555.1,101.0,3,5,3,0,2026-03-02T21:15:31.694077+05:30
Faridabad,Haryana,28.4089,77.3178,21.4,58,0.0,988.0,5.8,33.1,879,1169.7,163.0,0,5,3,0,2026-03-02T21:15:31.694084+05:30
Meerut,Uttar Pradesh,28.9845,77.7064,19.2,65,0.0,985.2,5.6,38.9,187,555.1,101.0,3,5,3,0,2026-03-02T21:15:31.694090+05:30
Agra,Uttar Pradesh,27.1767,78.0081,22.0,63,0.0,991.9,6.1,35.3,356,609.1,99.7,3,5,7,0,2026-03-02T21:15:31.694097+05:30
Varanasi,Uttar Pradesh,25.3176,82.9739,21.1,60,0.0,1001.4,6.9,31.7,96,52.7,35.4,0,5,4,0,2026-03-02T21:15:31.694106+05:30
Prayagraj,Uttar Pradesh,25.4358,81.8463,23.7,51,0.0,1000.1,6.75,29.9,100,62.4,38.0,0,5,4,0,2026-03-02T21:15:31.694115+05:30
Gorakhpur,Uttar Pradesh,26.7606,83.3732,19.7,55,0.0,1000.4,6.6,25.2,126,55.3,46.9,0,5,4,0,2026-03-02T21:15:31.694121+05:30
Bareilly,Uttar Pradesh,28.367,79.4304,19.2,65,0.0,990.2,5.9,31.3,132,114.1,42.7,3,5,3,0,2026-03-02T21:15:31.694128+05:30
Aligarh,Uttar Pradesh,27.8974,78.088,20.1,68,0.0,989.6,5.85,34.2,527,886.6,145.3,3,5,3,0,2026-03-02T21:15:31.694134+05:30
Moradabad,Uttar Pradesh,28.8386,78.7733,18.9,61,0.0,987.1,5.75,35.6,141,147.6,46.9,3,5,3,0,2026-03-02T21:15:31.694140+05:30
Saharanpur,Uttar Pradesh,29.9637,77.546,18.8,62,0.0,978.8,5.4,52.9,114,79.4,36.6,3,5,3,0,2026-03-02T21:15:31.694146+05:30
Jhansi,Uttar Pradesh,25.4484,78.5685,23.2,55,0.0,982.0,6.7,29.2,76,46.2,28.2,0,5,7,0,2026-03-02T21:15:35.044425+05:30
Surat,Gujarat,21.1702,72.8311,25.2,72,0.0,1009.8,7.0,23.0,151,94.3,86.6,7,0,4,1,2026-03-02T21:15:35.044458+05:30
Vadodara,Gujarat,22.3072,73.1812,27.6,43,0.0,1007.6,7.1,13.0,150,63.3,56.3,4,5,4,0,2026-03-02T21:15:35.044467+05:30
Rajkot,Gujarat,22.3039,70.8022,27.4,45,0.0,997.9,6.9,21.2,82,32.9,22.8,4,5,7,0,2026-03-02T21:15:35.044475+05:30
Thane,Maharashtra,19.2183,72.9781,25.4,79,0.0,1010.7,7.3,35.6,104,36.7,26.3,7,0,4,1,2026-03-02T21:15:35.044483+05:30
Nagpur,Maharashtra,21.1458,79.0882,26.4,51,0.0,976.4,7.7,20.9,93,41.0,38.0,4,5,7,0,2026-03-02T21:15:35.044491+05:30
Nashik,Maharashtra,19.9975,73.7898,25.4,56,0.0,948.7,7.5,28.1,120,27.1,24.3,4,5,7,0,2026-03-02T21:15:35.044498+05:30
Aurangabad,Maharashtra,19.8762,75.3433,27.6,45,0.0,947.0,8.0,21.2,133,30.6,29.9,4,5,7,0,2026-03-02T21:15:35.044505+05:30
Solapur,Maharashtra,17.6599,75.9064,27.9,56,0.0,959.1,8.25,14.0,169,61.0,60.5,4,5,7,1,2026-03-02T21:15:35.044513+05:30
Kolhapur,Maharashtra,16.705,74.2433,23.8,66,0.0,950.2,8.35,37.4,133,55.6,55.1,3,5,7,1,2026-03-02T21:15:35.044520+05:30
Goa,Goa,15.2993,74.124,27.1,76,0.0,1000.5,8.4,29.9,72,34.5,23.7,7,5,4,1,2026-03-02T21:15:35.044527+05:30
Jodhpur,Rajasthan,26.2389,73.0243,26.9,45,0.0,987.3,6.75,12.6,88,79.6,32.8,4,5,7,0,2026-03-02T21:15:35.044534+05:30
Udaipur,Rajasthan,24.5854,73.7125,25.8,47,0.0,950.9,7.4,15.5,100,36.3,26.8,4,5,7,0,2026-03-02T21:15:35.044541+05:30
Kota,Rajasthan,25.2138,75.8648,26.8,44,0.0,982.7,6.8,17.6,89,50.6,33.9,4,5,7,0,2026-03-02T21:15:35.044548+05:30
Bikaner,Rajasthan,28.0229,73.3119,26.1,44,0.0,986.6,6.5,20.2,71,47.0,25.3,4,5,7,0,2026-03-02T21:15:35.044555+05:30
Ajmer,Rajasthan,26.4499,74.6399,23.1,45,0.0,958.4,6.75,22.0,83,62.4,28.2,0,5,7,0,2026-03-02T21:15:35.044562+05:30
Gwalior,Madhya Pradesh,26.2183,78.1828,23.9,61,0.0,987.3,6.4,31.0,93,99.0,39.2,3,5,7,0,2026-03-02T21:15:35.044569+05:30
Indore,Madhya Pradesh,22.7196,75.8577,23.0,53,0.0,951.1,7.4,14.4,92,37.5,31.5,0,5,7,0,2026-03-02T21:15:35.044575+05:30
Bhopal,Madhya Pradesh,23.2599,77.4126,25.0,48,0.0,957.4,7.25,20.5,91,31.1,23.2,4,5,7,0,2026-03-02T21:15:35.044582+05:30
Jabalpur,Madhya Pradesh,23.1815,79.9864,25.0,39,0.0,965.3,7.35,20.9,72,36.1,25.1,4,5,7,0,2026-03-02T21:15:35.044589+05:30
Ujjain,Madhya Pradesh,23.1765,75.7885,25.0,50,0.0,957.2,7.25,11.5,116,40.0,33.9,4,5,7,0,2026-03-02T21:15:35.044595+05:30
Visakhapatnam,Andhra Pradesh,17.6868,83.2185,26.3,73,0.0,1006.8,8.35,37.8,146,42.0,38.5,7,5,4,1,2026-03-02T21:15:35.044602+05:30
Vijayawada,Andhra Pradesh,16.5062,80.648,26.2,66,0.0,1005.8,8.4,24.1,145,44.0,42.6,7,5,4,1,2026-03-02T21:15:35.044609+05:30
Guntur,Andhra Pradesh,16.3067,80.4365,26.0,72,0.0,1007.0,8.4,30.2,137,45.9,44.7,7,5,4,1,2026-03-02T21:15:35.044616+05:30
Nellore,Andhra Pradesh,14.4426,79.9865,25.3,79,0.0,1009.2,8.65,29.5,126,39.5,36.7,7,0,4,1,2026-03-02T21:15:35.044623+05:30
Kurnool,Andhra Pradesh,15.8281,78.0373,30.3,45,0.0,978.8,8.45,26.3,126,48.4,48.0,0,5,7,1,2026-03-02T21:15:35.044631+05:30
Kakinada,Andhra Pradesh,16.9891,82.2475,25.5,76,0.0,1010.7,8.35,29.2,137,40.9,37.5,7,0,4,1,2026-03-02T21:15:35.044638+05:30
Tirupati,Andhra Pradesh,13.6288,79.4192,25.8,57,0.0,994.8,8.75,32.4,144,55.2,53.7,4,5,7,1,2026-03-02T21:15:35.044644+05:30
Warangal,Telangana,17.9689,79.5941,29.4,48,0.0,981.5,8.15,17.3,136,53.4,52.9,4,5,7,1,2026-03-02T21:15:35.044651+05:30
Nizamabad,Telangana,18.6725,78.0941,26.6,50,0.0,967.5,8.05,25.6,119,45.6,44.7,4,5,7,0,2026-03-02T21:15:35.044657+05:30
Mysore,Karnataka,12.2958,76.6396,26.2,51,0.0,929.4,9.1,25.6,150,63.1,61.9,4,5,7,0,2026-03-02T21:15:35.044664+05:30
Mangalore,Karnataka,12.9141,74.856,28.8,76,0.0,1008.9,8.65,27.4,58,20.0,14.6,7,0,4,1,2026-03-02T21:15:35.044671+05:30
Hubli-Dharwad,Karnataka,15.3647,75.124,24.5,72,0.0,942.6,8.6,27.0,148,48.3,47.6,3,5,7,1,2026-03-02T21:15:35.044677+05:30
Belgaum,Karnataka,15.8497,74.4977,22.5,78,0.0,927.6,8.65,38.2,153,30.9,28.5,3,5,7,1,2026-03-02T21:15:38.391786+05:30
Coimbatore,Tamil Nadu,11.0168,76.9558,25.7,77,0.0,963.4,9.1,29.5,145,56.3,55.3,7,5,7,1,2026-03-02T21:15:38.391816+05:30
Madurai,Tamil Nadu,9.9252,78.1198,26.9,65,0.0,995.3,9.05,32.8,122,42.6,41.7,7,5,7,1,2026-03-02T21:15:38.391826+05:30
Trichy,Tamil Nadu,10.7905,78.7047,26.3,70,0.0,1002.0,8.95,32.0,142,47.0,45.8,7,5,4,1,2026-03-02T21:15:38.391833+05:30
Salem,Tamil Nadu,11.6643,78.146,28.6,53,0.0,978.7,9.0,31.0,142,53.0,52.2,4,5,7,1,2026-03-02T21:15:38.391841+05:30
Tirunelveli,Tamil Nadu,8.7139,77.7567,26.5,75,0.0,1005.6,9.05,38.2,134,38.9,37.8,7,5,4,1,2026-03-02T21:15:38.391848+05:30
Vellore,Tamil Nadu,12.9165,79.1325,26.2,60,0.0,987.5,8.85,36.7,147,49.9,48.4,4,5,7,1,2026-03-02T21:15:38.391855+05:30
Erode,Tamil Nadu,11.341,77.7172,29.3,50,0.0,990.4,9.0,23.0,135,50.2,49.4,4,5,7,1,2026-03-02T21:15:38.391863+05:30
Kochi,Kerala,9.9312,76.2673,28.5,79,0.0,1010.2,8.9,35.6,120,46.1,44.4,7,0,4,1,2026-03-02T21:15:38.391870+05:30
Thiruvananthapuram,Kerala,8.5241,76.9366,27.7,80,0.0,1009.9,8.85,27.7,126,32.9,29.9,7,0,4,1,2026-03-02T21:15:38.391877+05:30
Kozhikode,Kerala,11.2588,75.7804,28.7,78,0.0,1009.3,8.75,31.7,58,21.1,16.2,7,0,4,1,2026-03-02T21:15:38.391883+05:30
Thrissur,Kerala,10.5276,76.2144,27.0,85,0.0,1008.5,8.85,38.5,100,27.1,25.5,7,0,4,1,2026-03-02T21:15:38.391890+05:30
Kannur,Kerala,11.8745,75.3704,28.3,75,0.0,1009.0,8.75,34.9,63,20.7,16.6,7,0,4,1,2026-03-02T21:15:38.391898+05:30
Patna,Bihar,25.5941,85.1376,22.3,49,0.0,1003.9,7.05,28.8,125,66.1,46.3,0,5,4,0,2026-03-02T21:15:38.391905+05:30
Gaya,Bihar,24.7914,85.0002,19.5,56,0.0,997.8,7.15,23.8,119,56.3,35.3,0,5,7,0,2026-03-02T21:15:38.391911+05:30
Muzaffarpur,Bihar,26.1209,85.3647,21.1,49,0.0,1003.7,7.0,27.0,119,64.5,48.1,0,5,4,0,2026-03-02T21:15:38.391918+05:30
Bhagalpur,Bihar,25.2425,87.0117,21.7,55,0.0,1004.7,7.1,19.4,136,111.1,57.5,0,5,4,0,2026-03-02T21:15:38.391925+05:30
Ranchi,Jharkhand,23.3441,85.3096,20.2,35,0.0,941.2,7.8,40.3,94,38.6,21.7,0,5,7,0,2026-03-02T21:15:38.391931+05:30
Jamshedpur,Jharkhand,22.8046,86.2029,25.2,36,0.0,994.1,7.75,18.7,130,51.8,30.7,4,5,7,0,2026-03-02T21:15:38.391937+05:30
Dhanbad,Jharkhand,23.7957,86.4304,24.7,28,0.0,983.5,7.6,33.8,122,63.8,38.9,0,5,7,0,2026-03-02T21:15:38.391944+05:30
Bokaro,Jharkhand,23.6693,86.1511,22.6,35,0.0,987.8,7.6,37.1,126,63.6,39.3,0,5,7,0,2026-03-02T21:15:38.391950+05:30
Bhubaneswar,Odisha,20.2961,85.8245,26.3,77,0.0,1005.2,8.05,25.2,161,70.3,64.5,7,5,4,1,2026-03-02T21:15:38.391956+05:30
Cuttack,Odisha,20.4625,85.8828,27.5,65,0.0,1007.2,8.1,21.2,161,70.3,64.5,7,5,4,1,2026-03-02T21:15:38.391963+05:30
Rourkela,Odisha,22.2604,84.8536,24.3,44,0.0,988.4,7.65,24.8,109,54.2,40.5,0,5,7,0,2026-03-02T21:15:38.391969+05:30
Raipur,Chhattisgarh,21.2514,81.6296,26.9,44,0.0,977.5,7.75,24.1,94,65.2,54.8,4,5,7,0,2026-03-02T21:15:38.391975+05:30
Bhilai,Chhattisgarh,21.1938,81.3509,27.5,49,0.0,978.0,7.8,22.7,87,59.6,50.9,4,5,7,0,2026-03-02T21:15:38.391982+05:30
Guwahati,Assam,26.1158,91.7086,22.8,78,0.0,1005.6,7.0,28.4,152,75.7,61.7,3,5,4,1,2026-03-02T21:15:38.391988+05:30
Agartala,Tripura,23.8315,91.2868,23.0,86,0.0,1009.5,7.3,18.0,144,126.7,108.3,3,0,4,1,2026-03-02T21:15:38.391995+05:30
Shillong,Meghalaya,25.5788,91.8933,10.1,90,0.0,856.2,7.35,66.2,113,58.0,47.4,3,10,7,0,2026-03-02T21:15:38.392002+05:30
Imphal,Manipur,24.817,93.9368,14.1,74,0.0,925.0,7.6,72.4,151,95.2,78.2,3,5,7,0,2026-03-02T21:15:38.392009+05:30
Aizawl,Mizoram,23.7271,92.7176,17.5,79,0.0,894.3,7.6,42.8,145,83.8,78.5,3,5,7,0,2026-03-02T21:15:38.392017+05:30
Kohima,Nagaland,25.6701,94.1077,12.8,77,0.0,856.0,7.45,82.8,146,83.8,71.2,3,5,7,0,2026-03-02T21:15:38.392023+05:30
Gangtok,Sikkim,27.3314,88.6138,11.7,84,0.0,837.7,5.8,19.4,126,81.0,60.8,3,10,3,0,2026-03-02T21:15:38.392030+05:30
Siliguri,West Bengal,26.7271,88.3953,19.5,67,0.0,997.6,7.0,20.5,169,115.3,86.4,3,5,7,0,2026-03-02T21:15:41.742842+05:30
Durgapur,West Bengal,23.5204,87.3119,25.0,30,0.0,998.4,7.6,26.3,119,54.5,31.1,4,5,7,0,2026-03-02T21:15:41.742875+05:30
Asansol,West Bengal,23.6739,86.9524,25.6,29,0.0,997.0,7.6,28.4,101,51.3,28.5,4,5,7,0,2026-03-02T21:15:41.742884+05:30
Pondicherry,Puducherry,11.9139,79.8145,23.9,87,0.0,1011.3,8.8,29.5,122,39.1,34.9,3,0,4,1,2026-03-02T21:15:41.742892+05:30
Port Blair,Andaman and Nicobar Islands,11.6234,92.7265,27.9,72,0.0,1009.2,8.75,16.2,80,33.4,26.0,7,0,4,1,2026-03-02T21:15:41.742901+05:30
Haridwar,Uttarakhand,29.9457,78.1642,20.1,59,0.0,977.5,5.55,41.8,117,43.3,32.7,0,5,3,0,2026-03-02T21:15:41.742908+05:30
Rishikesh,Uttarakhand,30.0869,78.2676,17.0,70,0.0,969.8,5.6,31.3,120,29.1,26.1,3,5,3,0,2026-03-02T21:15:41.742916+05:30
Nainital,Uttarakhand,29.3919,79.4542,15.0,60,0.0,806.4,6.4,45.7,119,32.9,23.5,0,5,7,0,2026-03-02T21:15:41.742923+05:30
Mussoorie,Uttarakhand,30.4599,78.0664,13.6,58,0.0,802.8,5.9,33.8,113,35.0,32.6,0,5,3,0,2026-03-02T21:15:41.742929+05:30
Dharamshala,Himachal Pradesh,32.219,76.3234,17.6,53,0.0,871.3,6.1,26.3,111,31.2,25.0,0,5,7,0,2026-03-02T21:15:41.742936+05:30
Dalhousie,Himachal Pradesh,32.5387,75.971,14.5,46,0.0,805.1,6.35,22.3,111,55.6,48.4,0,5,7,0,2026-03-02T21:15:41.742943+05:30
Patiala,Punjab,30.3398,76.3869,19.0,63,0.0,982.2,5.55,37.4,158,317.6,70.5,3,5,3,0,2026-03-02T21:15:41.742950+05:30
Bhatinda,Punjab,30.211,74.9455,20.2,65,0.0,988.2,6.2,24.8,157,59.6,50.3,3,5,7,0,2026-03-02T21:15:41.742956+05:30
Rohtak,Haryana,28.8955,76.6066,19.7,68,0.0,986.0,5.75,34.9,306,616.5,110.6,3,5,3,0,2026-03-02T21:15:41.742962+05:30
Panipat,Haryana,29.3909,76.9635,18.7,67,0.0,984.4,5.55,35.3,723,998.4,149.0,3,5,3,0,2026-03-02T21:15:41.742969+05:30
Mathura,Uttar Pradesh,27.4924,77.6737,22.3,63,0.0,991.1,6.0,29.2,418,737.6,117.6,3,5,3,0,2026-03-02T21:15:41.742975+05:30
Vrindavan,Uttar Pradesh,27.5823,77.7027,20.8,69,0.0,991.5,5.95,31.3,418,737.6,117.6,3,5,3,0,2026-03-02T21:15:41.742981+05:30
Ayodhya,Uttar Pradesh,26.7922,82.1998,20.2,51,0.0,999.1,6.4,34.6,123,87.3,47.1,0,5,7,0,2026-03-02T21:15:41.742987+05:30
Ratlam,Madhya Pradesh,23.3315,75.0367,25.8,49,0.0,958.0,7.25,7.2,105,36.1,31.2,4,5,7,0,2026-03-02T21:15:41.742993+05:30
Sagar,Madhya Pradesh,23.8388,78.7378,24.7,39,0.0,953.8,7.2,25.2,83,28.8,18.5,0,5,7,0,2026-03-02T21:15:41.742999+05:30
Satna,Madhya Pradesh,24.6005,80.8322,23.4,40,0.0,975.5,7.15,38.2,85,34.3,20.2,0,5,7,0,2026-03-02T21:15:41.743005+05:30
Akola,Maharashtra,20.7002,77.0082,27.0,47,0.0,978.1,7.75,25.9,114,26.7,25.6,4,5,7,0,2026-03-02T21:15:41.743011+05:30
Amravati,Maharashtra,20.9374,77.7796,25.3,44,0.0,970.0,7.7,24.5,112,30.7,29.3,4,5,7,0,2026-03-02T21:15:41.743018+05:30
Latur,Maharashtra,18.4088,76.5604,26.2,55,0.0,942.2,8.15,26.3,156,33.4,33.1,4,5,7,1,2026-03-02T21:15:41.743024+05:30
Nanded,Maharashtra,19.1383,77.3091,28.1,53,0.0,971.2,7.95,17.3,121,45.4,44.5,4,5,7,1,2026-03-02T21:15:41.743030+05:30
Gulbarga,Karnataka,17.3297,76.8343,28.6,56,0.0,960.8,8.25,19.4,170,58.1,57.5,4,5,7,1,2026-03-02T21:15:41.743036+05:30
Bidar,Karnataka,17.9104,77.5199,26.7,51,0.0,938.0,8.2,16.2,151,28.9,28.5,4,5,7,0,2026-03-02T21:15:41.743042+05:30
Hospet,Karnataka,15.2689,76.3909,30.4,44,0.0,957.4,8.6,21.2,177,50.2,49.7,0,5,7,1,2026-03-02T21:15:41.743048+05:30
Tirupur,Tamil Nadu,11.1085,77.3411,29.3,45,0.0,976.7,9.1,33.5,148,62.6,61.2,4,5,7,1,2026-03-02T21:15:41.743054+05:30
Alappuzha,Kerala,9.4981,76.3388,28.4,80,0.0,1010.4,8.9,32.8,135,33.8,30.9,7,0,4,1,2026-03-02T21:15:41.743060+05:30
Munnar,Kerala,10.0889,77.0595,22.0,74,0.0,858.3,9.4,22.0,126,47.3,46.3,3,5,7,1,2026-03-02T21:15:41.743067+05:30
Silchar,Assam,24.8333,92.7789,21.7,79,0.0,1008.1,7.35,18.7,154,111.3,89.9,3,0,4,1,2026-03-02T21:15:41.743073+05:30
Dibrugarh,Assam,27.4728,94.912,20.6,91,0.0,1000.6,7.05,12.6,151,112.7,91.3,3,5,4,1,2026-03-02T21:15:41.743079+05:30
