city,state,latitude,longitude,temp,humidity,rain,pressure,uv_index,wind_gusts,aqi,pm10,pm2_5,no2,co,o3,so2,mosquito_risk,arthritis_risk,migraine_risk,frizz_risk,updated_at
Delhi,Delhi,28.6139,77.209,29.2,78,0.0,974.3,6.7,38.5,340,220.3,91.5,36.0,451.0,31.0,12.9,7,5,7,1,2026-07-14T03:28:59.695224+05:30
Mumbai,Maharashtra,19.076,72.8777,27.5,83,0.0,1006.4,7.75,45.0,59,28.2,14.6,3.6,115.0,47.0,3.5,7,5,4,1,2026-07-14T03:28:59.695269+05:30
Bangalore,Karnataka,12.9716,77.5946,20.5,92,0.0,909.5,8.45,42.1,56,9.5,7.1,10.9,196.0,36.0,4.2,3,5,7,1,2026-07-14T03:28:59.695294+05:30
Hyderabad,Telangana,17.385,78.4867,26.9,58,0.0,949.5,8.7,45.4,57,13.5,10.3,7.4,141.0,50.0,4.3,4,5,7,1,2026-07-14T03:28:59.695306+05:30
Chennai,Tamil Nadu,13.0827,80.2707,29.8,72,0.0,1001.9,8.45,35.6,76,35.2,24.4,17.1,237.0,54.0,9.5,7,5,4,1,2026-07-14T03:28:59.695314+05:30
Kolkata,West Bengal,22.5726,88.3639,25.5,97,0.1,998.7,8.35,25.9,152,56.0,41.8,11.7,477.0,85.0,10.1,10,5,7,1,2026-07-14T03:28:59.695322+05:30
Pune,Maharashtra,18.5204,73.8567,23.1,89,0.0,945.6,8.15,50.4,46,6.6,4.6,5.2,106.0,39.0,5.0,3,5,7,1,2026-07-14T03:28:59.695328+05:30
Ahmedabad,Gujarat,23.0225,72.5714,27.6,77,0.0,997.8,6.85,42.5,62,27.0,15.0,6.0,118.0,37.0,3.6,7,5,7,1,2026-07-14T03:28:59.695335+05:30
Jaipur,Rajasthan,26.9124,75.7873,28.4,65,0.0,952.6,7.85,39.2,362,455.4,84.1,11.1,179.0,47.0,4.7,7,5,7,1,2026-07-14T03:28:59.695342+05:30
Lucknow,Uttar Pradesh,26.8467,80.9462,28.7,76,0.0,985.2,8.2,40.3,125,86.6,42.4,12.7,203.0,58.0,8.0,7,5,7,1,2026-07-14T03:28:59.695351+05:30
Kanpur,Uttar Pradesh,26.4499,80.3319,29.0,74,0.0,983.5,8.0,31.7,113,110.4,46.0,12.9,198.0,59.0,8.9,7,5,7,1,2026-07-14T03:28:59.695357+05:30
Chandigarh,Chandigarh,30.7333,76.7794,27.4,84,0.0,960.3,7.4,22.0,168,185.8,114.8,45.8,776.0,53.0,18.5,7,5,7,1,2026-07-14T03:28:59.695364+05:30
Srinagar,Jammu and Kashmir,34.0837,74.7973,17.1,95,0.0,835.9,8.95,23.8,79,42.5,38.6,33.5,863.0,18.0,2.3,3,10,7,1,2026-07-14T03:28:59.695371+05:30
Jammu,Jammu and Kashmir,32.7266,74.857,24.8,92,0.0,964.2,8.45,30.2,154,100.8,80.6,53.4,677.0,16.0,6.0,3,5,7,1,2026-07-14T03:28:59.695390+05:30
Amritsar,Punjab,31.634,74.8723,26.5,93,0.0,972.1,8.35,19.4,186,228.6,153.2,73.1,1140.0,31.0,15.9,7,5,7,1,2026-07-14T03:28:59.695397+05:30
Ludhiana,Punjab,30.901,75.8573,27.7,91,0.0,969.9,7.9,24.8,172,152.3,118.0,54.7,1728.0,24.0,10.8,7,5,7,1,2026-07-14T03:28:59.695403+05:30
Jalandhar,Punjab,31.326,75.5762,26.5,95,0.0,970.9,8.15,18.0,175,163.9,130.9,55.8,1224.0,17.0,9.9,7,5,7,1,2026-07-14T03:28:59.695411+05:30
Dehradun,Uttarakhand,30.6284,78.0322,17.1,94,0.0,825.3,8.1,26.3,103,112.0,50.5,14.1,226.0,111.0,5.5,3,10,7,1,2026-07-14T03:28:59.695417+05:30
Shimla,Himachal Pradesh,31.1048,77.1734,14.7,94,0.0,779.1,8.1,36.7,127,161.6,88.2,10.1,363.0,124.0,2.3,3,10,7,0,2026-07-14T03:28:59.695423+05:30
Manali,Himachal Pradesh,32.2396,77.1887,17.6,88,0.0,814.1,9.45,32.4,53,9.6,7.5,55.4,214.0,36.0,0.1,3,10,7,0,2026-07-14T03:28:59.695430+05:30
Gurgaon,Haryana,28.4595,77.0266,28.8,83,0.0,973.0,6.7,31.3,580,571.8,161.6,29.9,307.0,32.0,11.4,7,5,7,1,2026-07-14T03:28:59.695436+05:30
Noida,Uttar Pradesh,28.5355,77.391,29.2,80,0.0,975.6,7.2,32.0,580,571.8,161.6,29.9,599.0,32.0,11.4,7,5,7,1,2026-07-14T03:28:59.695442+05:30
Ghaziabad,Uttar Pradesh,28.6692,77.4538,28.6,86,0.0,973.8,7.45,26.3,253,210.0,92.4,43.8,503.0,31.0,17.2,7,5,7,1,2026-07-14T03:28:59.695449+05:30
Faridabad,Haryana,28.4089,77.3178,29.1,80,0.0,974.9,7.25,36.7,580,571.8,161.6,29.9,414.0,32.0,11.4,7,5,7,1,2026-07-14T03:28:59.695455+05:30
Meerut,Uttar Pradesh,28.9845,77.7064,28.9,88,0.0,972.8,7.3,25.2,253,210.0,92.4,43.8,655.0,31.0,17.2,7,5,7,1,2026-07-14T03:28:59.695461+05:30
Agra,Uttar Pradesh,27.1767,78.0081,29.3,66,0.0,979.3,8.0,36.0,143,182.5,61.5,17.1,182.0,44.0,5.5,7,5,7,1,2026-07-14T03:28:59.695466+05:30
Varanasi,Uttar Pradesh,25.3176,82.9739,29.5,74,0.0,989.7,8.5,20.9,117,60.1,37.8,15.8,443.0,49.0,9.2,7,5,7,1,2026-07-14T03:28:59.695473+05:30
Prayagraj,Uttar Pradesh,25.4358,81.8463,29.1,74,0.0,988.3,8.6,29.2,107,61.2,35.6,13.4,218.0,55.0,8.2,7,5,7,1,2026-07-14T03:28:59.695479+05:30
Gorakhpur,Uttar Pradesh,26.7606,83.3732,26.2,97,0.3,990.3,6.9,29.5,153,94.3,60.3,21.0,308.0,55.0,7.2,10,5,7,1,2026-07-14T03:28:59.695487+05:30
Bareilly,Uttar Pradesh,28.367,79.4304,28.3,87,0.0,977.9,7.95,26.6,175,186.3,74.7,20.0,312.0,46.0,7.1,7,5,7,1,2026-07-14T03:28:59.695494+05:30
Aligarh,Uttar Pradesh,27.8974,78.088,29.1,72,0.0,976.8,7.8,32.8,529,830.7,194.2,14.2,219.0,52.0,5.2,7,5,7,1,2026-07-14T03:28:59.695500+05:30
Moradabad,Uttar Pradesh,28.8386,78.7733,28.6,87,0.0,974.8,7.75,24.1,191,246.8,109.4,36.5,530.0,28.0,9.9,7,5,7,1,2026-07-14T03:28:59.695506+05:30
Saharanpur,Uttar Pradesh,29.9637,77.546,27.8,89,0.0,967.2,7.35,22.0,192,285.0,149.0,68.6,636.0,9.0,18.1,7,5,7,1,2026-07-14T03:28:59.695511+05:30
Jhansi,Uttar Pradesh,25.4484,78.5685,29.6,65,0.0,970.7,8.4,41.8,101,43.2,25.1,9.0,156.0,65.0,10.2,7,5,7,1,2026-07-14T03:29:02.988704+05:30
Surat,Gujarat,21.1702,72.8311,27.9,82,0.0,1003.2,7.05,53.6,65,25.4,15.8,15.1,239.0,34.0,26.5,7,5,4,1,2026-07-14T03:29:02.988738+05:30
Vadodara,Gujarat,22.3072,73.1812,27.3,82,0.0,1000.3,8.0,46.4,59,26.8,15.4,5.9,110.0,39.0,4.0,7,5,4,1,2026-07-14T03:29:02.988750+05:30
Rajkot,Gujarat,22.3039,70.8022,26.5,86,0.0,989.8,6.7,48.6,59,25.8,12.3,3.5,92.0,41.0,2.8,7,5,7,1,2026-07-14T03:29:02.988760+05:30
Thane,Maharashtra,19.2183,72.9781,26.7,87,0.0,1005.7,7.45,37.8,59,28.2,14.6,3.6,134.0,47.0,3.5,7,5,4,1,2026-07-14T03:29:02.988769+05:30
Nagpur,Maharashtra,21.1458,79.0882,27.3,71,0.0,968.5,8.55,55.1,86,33.2,22.8,12.9,189.0,41.0,7.7,7,5,7,1,2026-07-14T03:29:02.988778+05:30
Nashik,Maharashtra,19.9975,73.7898,22.8,92,0.0,942.3,6.9,55.1,50,8.6,6.1,6.9,119.0,35.0,5.0,3,5,7,1,2026-07-14T03:29:02.988787+05:30
Aurangabad,Maharashtra,19.8762,75.3433,22.5,89,0.0,940.7,9.0,50.8,54,10.6,7.8,10.7,145.0,34.0,11.8,3,5,7,1,2026-07-14T03:29:02.988796+05:30
Solapur,Maharashtra,17.6599,75.9064,23.7,81,0.0,954.8,8.95,41.4,49,13.2,9.6,6.6,137.0,36.0,2.6,3,5,7,1,2026-07-14T03:29:02.988806+05:30
Kolhapur,Maharashtra,16.705,74.2433,22.8,92,0.0,946.4,8.75,49.0,45,7.8,5.5,3.6,124.0,40.0,2.2,3,5,7,1,2026-07-14T03:29:02.988815+05:30
Goa,Goa,15.2993,74.124,24.5,98,0.0,997.2,8.4,35.3,60,34.8,25.1,8.9,312.0,34.0,2.0,3,5,7,1,2026-07-14T03:29:02.988823+05:30
Jodhpur,Rajasthan,26.2389,73.0243,28.9,65,0.0,976.3,8.4,51.1,194,464.7,104.8,2.8,99.0,51.0,2.6,7,5,7,1,2026-07-14T03:29:02.988832+05:30
Udaipur,Rajasthan,24.5854,73.7125,23.4,83,0.0,940.3,7.3,47.5,68,30.4,15.8,3.6,96.0,49.0,3.3,3,5,7,1,2026-07-14T03:29:02.988840+05:30
Kota,Rajasthan,25.2138,75.8648,28.2,73,0.0,972.2,8.3,38.9,90,29.4,19.2,7.3,155.0,66.0,6.8,7,5,7,1,2026-07-14T03:29:02.988848+05:30
Bikaner,Rajasthan,28.0229,73.3119,31.3,54,0.0,973.0,8.4,40.0,163,328.8,88.5,3.2,107.0,57.0,3.8,0,5,7,1,2026-07-14T03:29:02.988856+05:30
Ajmer,Rajasthan,26.4499,74.6399,27.2,71,0.0,948.0,7.85,56.5,98,49.5,22.1,4.7,108.0,55.0,3.3,7,5,7,1,2026-07-14T03:29:02.988865+05:30
Gwalior,Madhya Pradesh,26.2183,78.1828,28.9,70,0.0,975.4,8.2,42.8,108,67.3,37.4,11.3,148.0,50.0,5.8,7,5,7,1,2026-07-14T03:29:02.988873+05:30
Indore,Madhya Pradesh,22.7196,75.8577,24.5,87,0.0,943.7,8.25,51.1,67,17.9,12.1,7.3,138.0,39.0,8.3,3,5,7,1,2026-07-14T03:29:02.988881+05:30
Bhopal,Madhya Pradesh,23.2599,77.4126,25.4,82,0.0,948.5,8.6,42.8,75,25.0,18.3,6.5,181.0,63.0,7.0,7,5,7,1,2026-07-14T03:29:02.988889+05:30
Jabalpur,Madhya Pradesh,23.1815,79.9864,26.6,76,0.0,956.1,7.1,39.6,89,44.2,27.0,7.5,203.0,55.0,4.5,7,5,7,1,2026-07-14T03:29:02.988896+05:30
Ujjain,Madhya Pradesh,23.1765,75.7885,24.9,86,0.0,949.0,8.4,49.0,65,18.6,12.5,7.7,165.0,39.0,9.2,3,5,7,1,2026-07-14T03:29:02.988905+05:30
Visakhapatnam,Andhra Pradesh,17.6868,83.2185,29.9,65,0.0,996.2,7.65,23.0,110,59.6,34.7,28.5,295.0,38.0,41.9,7,5,7,1,2026-07-14T03:29:02.988912+05:30
Vijayawada,Andhra Pradesh,16.5062,80.648,30.8,66,0.0,996.4,6.45,46.1,80,34.8,28.7,20.3,302.0,33.0,7.5,3,5,7,1,2026-07-14T03:29:02.988920+05:30
Guntur,Andhra Pradesh,16.3067,80.4365,31.6,54,0.0,997.8,6.55,47.2,76,23.9,20.3,16.1,179.0,42.0,6.7,0,5,7,1,2026-07-14T03:29:02.988928+05:30
Nellore,Andhra Pradesh,14.4426,79.9865,31.4,48,0.0,1000.6,8.8,46.8,71,23.1,16.0,10.8,116.0,51.0,6.9,0,5,4,1,2026-07-14T03:29:02.988936+05:30
Kurnool,Andhra Pradesh,15.8281,78.0373,27.7,58,0.0,973.8,7.45,42.5,55,13.6,9.8,7.4,140.0,48.0,3.7,4,5,7,1,2026-07-14T03:29:02.988944+05:30
Kakinada,Andhra Pradesh,16.9891,82.2475,29.6,68,0.0,1000.5,8.45,48.2,82,46.3,27.4,11.4,209.0,55.0,7.1,7,5,4,1,2026-07-14T03:29:02.988952+05:30
Tirupati,Andhra Pradesh,13.6288,79.4192,29.1,52,0.0,986.5,8.55,38.9,83,20.7,13.8,9.7,114.0,47.0,1.4,4,5,7,1,2026-07-14T03:29:02.988960+05:30
Warangal,Telangana,17.9689,79.5941,28.5,67,0.0,973.8,7.7,40.0,68,19.4,15.8,9.4,206.0,53.0,4.5,7,5,7,1,2026-07-14T03:29:02.988967+05:30
Nizamabad,Telangana,18.6725,78.0941,26.7,66,0.0,961.1,8.6,42.1,59,18.3,13.9,7.2,150.0,60.0,7.0,7,5,7,1,2026-07-14T03:29:02.988975+05:30
Mysore,Karnataka,12.2958,76.6396,20.1,97,0.0,926.7,8.3,42.1,51,11.9,8.8,10.0,141.0,31.0,2.5,3,5,7,1,2026-07-14T03:29:02.988982+05:30
Mangalore,Karnataka,12.9141,74.856,25.9,90,0.0,1006.1,8.0,37.8,56,19.8,13.2,7.8,173.0,29.0,2.7,7,5,4,1,2026-07-14T03:29:02.988990+05:30
Hubli-Dharwad,Karnataka,15.3647,75.124,21.6,96,0.0,939.2,8.5,52.2,42,9.6,6.5,4.2,122.0,38.0,1.9,3,5,7,1,2026-07-14T03:29:02.988998+05:30
Belgaum,Karnataka,15.8497,74.4977,20.6,99,0.0,923.9,8.7,45.7,41,8.4,5.7,3.4,97.0,40.0,1.8,3,5,7,1,2026-07-14T03:29:06.287218+05:30
Coimbatore,Tamil Nadu,11.0168,76.9558,23.4,96,0.0,959.8,8.9,54.4,53,12.7,9.8,9.5,161.0,26.0,3.3,3,5,7,1,2026-07-14T03:29:06.287250+05:30
Madurai,Tamil Nadu,9.9252,78.1198,27.5,66,0.0,990.3,8.2,41.0,66,21.1,17.6,26.6,123.0,11.0,5.7,7,5,7,1,2026-07-14T03:29:06.287260+05:30
Trichy,Tamil Nadu,10.7905,78.7047,28.0,68,0.0,996.9,8.75,46.4,64,11.6,7.8,6.3,110.0,39.0,3.2,7,5,7,1,2026-07-14T03:29:06.287269+05:30
Salem,Tamil Nadu,11.6643,78.146,25.0,87,0.0,975.0,7.7,26.3,68,22.1,16.6,18.9,234.0,25.0,6.4,7,5,7,1,2026-07-14T03:29:06.287277+05:30
Tirunelveli,Tamil Nadu,8.7139,77.7567,28.1,67,0.0,1000.5,8.45,47.2,46,11.4,7.6,5.8,134.0,36.0,2.3,7,5,4,1,2026-07-14T03:29:06.287301+05:30
Vellore,Tamil Nadu,12.9165,79.1325,28.9,52,0.0,980.6,8.65,41.0,72,16.5,10.9,8.1,123.0,48.0,4.0,4,5,7,1,2026-07-14T03:29:06.287309+05:30
Erode,Tamil Nadu,11.341,77.7172,26.0,82,0.0,986.9,8.25,55.1,60,19.3,14.2,14.9,161.0,26.0,4.0,7,5,7,1,2026-07-14T03:29:06.287317+05:30
Kochi,Kerala,9.9312,76.2673,27.1,88,0.0,1008.2,8.4,45.4,56,19.6,14.0,10.7,92.0,23.0,3.5,7,0,4,1,2026-07-14T03:29:06.287325+05:30
Thiruvananthapuram,Kerala,8.5241,76.9366,25.4,96,0.1,1007.5,8.1,52.6,52,18.0,10.1,4.3,116.0,41.0,1.9,10,5,4,1,2026-07-14T03:29:06.287332+05:30
Kozhikode,Kerala,11.2588,75.7804,24.9,97,0.0,1007.3,8.65,46.1,52,20.0,10.6,2.9,177.0,46.0,1.7,3,5,4,1,2026-07-14T03:29:06.287339+05:30
Thrissur,Kerala,10.5276,76.2144,25.9,93,0.0,1006.5,8.5,43.9,54,20.4,13.8,8.2,125.0,27.0,3.2,7,5,4,1,2026-07-14T03:29:06.287347+05:30
Kannur,Kerala,11.8745,75.3704,25.2,94,0.0,1006.5,8.7,45.0,52,16.5,10.7,7.9,182.0,27.0,2.5,7,5,4,1,2026-07-14T03:29:06.287354+05:30
Patna,Bihar,25.5941,85.1376,26.7,97,0.0,993.4,8.55,25.6,146,75.2,51.9,22.2,326.0,51.0,9.7,7,5,7,1,2026-07-14T03:29:06.287362+05:30
Gaya,Bihar,24.7914,85.0002,27.9,88,0.0,986.8,8.7,26.6,127,82.0,56.8,21.6,257.0,42.0,8.0,7,5,7,1,2026-07-14T03:29:06.287369+05:30
Muzaffarpur,Bihar,26.1209,85.3647,26.8,97,0.0,993.4,8.4,29.5,150,80.3,55.6,21.8,439.0,54.0,10.7,7,5,7,1,2026-07-14T03:29:06.287376+05:30
Bhagalpur,Bihar,25.2425,87.0117,27.0,97,0.0,993.7,8.45,24.1,150,70.5,53.2,20.7,288.0,43.0,13.6,7,5,7,1,2026-07-14T03:29:06.287383+05:30
Ranchi,Jharkhand,23.3441,85.3096,24.8,85,0.0,931.0,7.85,33.8,128,119.7,70.1,26.6,507.0,34.0,9.3,3,5,7,1,2026-07-14T03:29:06.287390+05:30
Jamshedpur,Jharkhand,22.8046,86.2029,27.0,92,0.0,983.6,8.45,29.2,144,114.8,69.8,34.5,460.0,33.0,41.4,7,5,7,1,2026-07-14T03:29:06.287397+05:30
Dhanbad,Jharkhand,23.7957,86.4304,26.4,95,0.0,972.5,6.15,26.6,160,154.6,123.4,68.6,1795.0,6.0,205.1,7,5,7,1,2026-07-14T03:29:06.287404+05:30
Bokaro,Jharkhand,23.6693,86.1511,26.8,94,0.0,976.3,8.5,29.9,159,151.3,112.7,49.3,1204.0,13.0,157.3,7,5,7,1,2026-07-14T03:29:06.287412+05:30
Bhubaneswar,Odisha,20.2961,85.8245,27.7,94,0.0,995.0,1.2,30.2,131,97.8,69.6,36.0,330.0,17.0,13.3,7,5,3,1,2026-07-14T03:29:06.287419+05:30
Cuttack,Odisha,20.4625,85.8828,27.7,90,0.0,996.8,1.35,24.8,131,97.8,69.6,36.0,444.0,17.0,13.3,7,5,3,1,2026-07-14T03:29:06.287426+05:30
Rourkela,Odisha,22.2604,84.8536,28.4,83,0.0,977.3,6.6,35.6,116,92.9,52.3,15.1,405.0,58.0,16.9,7,5,7,1,2026-07-14T03:29:06.287433+05:30
Raipur,Chhattisgarh,21.2514,81.6296,27.6,74,0.0,968.7,8.65,30.2,119,66.6,42.0,33.6,301.0,35.0,57.2,7,5,7,1,2026-07-14T03:29:06.287440+05:30
Bhilai,Chhattisgarh,21.1938,81.3509,27.1,76,0.0,969.1,8.5,34.2,111,63.3,38.8,25.4,622.0,39.0,41.4,7,5,7,1,2026-07-14T03:29:06.287447+05:30
Guwahati,Assam,26.1158,91.7086,25.4,98,0.0,995.0,7.8,25.2,56,5.3,4.9,7.3,340.0,38.0,1.1,7,5,7,1,2026-07-14T03:29:06.287454+05:30
Agartala,Tripura,23.8315,91.2868,25.6,97,0.0,998.8,8.0,22.0,54,7.0,6.8,8.1,230.0,63.0,3.4,7,5,7,1,2026-07-14T03:29:06.287461+05:30
Shillong,Meghalaya,25.5788,91.8933,19.0,97,0.0,851.8,7.9,27.4,42,10.2,8.3,5.1,241.0,66.0,3.8,3,10,7,1,2026-07-14T03:29:06.287468+05:30
Imphal,Manipur,24.817,93.9368,22.4,98,0.0,917.5,9.1,25.9,53,15.6,14.6,11.1,378.0,47.0,3.2,3,5,7,1,2026-07-14T03:29:06.287474+05:30
Aizawl,Mizoram,23.7271,92.7176,19.5,100,0.0,885.9,8.95,18.0,52,6.7,6.4,6.7,201.0,22.0,0.6,3,10,7,1,2026-07-14T03:29:06.287481+05:30
Kohima,Nagaland,25.6701,94.1077,18.7,95,0.0,850.0,8.15,25.9,33,7.1,6.8,8.1,213.0,29.0,1.0,3,10,7,1,2026-07-14T03:29:06.287488+05:30
Gangtok,Sikkim,27.3314,88.6138,18.9,97,0.0,833.5,5.45,25.2,45,6.6,6.4,7.5,300.0,89.0,1.6,3,10,3,1,2026-07-14T03:29:06.287495+05:30
Siliguri,West Bengal,26.7271,88.3953,25.1,98,0.5,986.3,3.9,25.2,54,15.7,15.1,15.7,372.0,76.0,3.6,10,5,3,1,2026-07-14T03:29:09.578433+05:30
Durgapur,West Bengal,23.5204,87.3119,26.5,98,0.0,987.7,5.15,28.1,154,120.1,95.2,57.1,992.0,10.0,59.5,7,5,3,1,2026-07-14T03:29:09.578465+05:30
Asansol,West Bengal,23.6739,86.9524,26.7,97,0.0,986.2,8.0,25.2,147,109.2,82.9,58.8,466.0,10.0,66.3,7,5,7,1,2026-07-14T03:29:09.578476+05:30
Pondicherry,Puducherry,11.9139,79.8145,28.9,68,0.0,1004.0,8.3,42.5,70,20.2,13.7,12.0,188.0,51.0,6.5,7,5,4,1,2026-07-14T03:29:09.578485+05:30
Port Blair,Andaman and Nicobar Islands,11.6234,92.7265,25.5,89,0.3,1003.7,8.35,60.1,48,23.9,9.8,0.1,85.0,49.0,0.4,10,5,4,1,2026-07-14T03:29:09.578493+05:30
Haridwar,Uttarakhand,29.9457,78.1642,26.3,86,0.0,965.5,7.5,20.9,189,247.7,122.0,38.4,329.0,43.0,15.0,7,5,7,1,2026-07-14T03:29:09.578501+05:30
Rishikesh,Uttarakhand,30.0869,78.2676,24.3,92,0.0,958.3,7.6,22.0,168,220.7,83.6,9.3,291.0,118.0,11.6,3,5,7,1,2026-07-14T03:29:09.578510+05:30
Nainital,Uttarakhand,29.3919,79.4542,15.7,92,0.0,799.5,8.5,27.7,162,185.8,77.8,14.1,218.0,82.0,7.0,3,10,7,0,2026-07-14T03:29:09.578518+05:30
Mussoorie,Uttarakhand,30.4599,78.0664,15.2,100,0.0,797.7,8.0,39.6,166,169.0,76.1,16.1,274.0,95.0,10.2,3,10,7,0,2026-07-14T03:29:09.578525+05:30
Dharamshala,Himachal Pradesh,32.219,76.3234,21.7,77,0.0,863.5,8.4,34.9,75,44.2,23.6,15.6,271.0,53.0,1.0,3,5,7,1,2026-07-14T03:29:09.578532+05:30
Dalhousie,Himachal Pradesh,32.5387,75.971,15.8,92,0.0,798.9,8.55,27.7,127,116.4,71.5,56.0,368.0,44.0,6.1,3,10,7,0,2026-07-14T03:29:09.578540+05:30
Patiala,Punjab,30.3398,76.3869,28.6,91,0.0,969.6,7.5,22.3,180,180.7,115.3,49.8,676.0,21.0,6.7,7,5,7,1,2026-07-14T03:29:09.578547+05:30
Bhatinda,Punjab,30.211,74.9455,30.1,68,0.0,974.7,8.25,23.4,181,320.4,148.1,63.9,294.0,18.0,14.9,3,5,7,1,2026-07-14T03:29:09.578554+05:30
Rohtak,Haryana,28.8955,76.6066,29.1,68,0.0,973.1,7.65,31.3,494,195.6,72.4,14.5,141.0,52.0,3.2,7,5,7,1,2026-07-14T03:29:09.578561+05:30
Panipat,Haryana,29.3909,76.9635,28.4,85,0.0,971.7,7.55,22.7,496,422.8,114.6,21.2,510.0,45.0,4.6,7,5,7,1,2026-07-14T03:29:09.578569+05:30
Mathura,Uttar Pradesh,27.4924,77.6737,29.9,65,0.0,978.3,7.9,32.0,765,748.8,141.6,16.9,205.0,46.0,4.8,7,5,7,1,2026-07-14T03:29:09.578576+05:30
Vrindavan,Uttar Pradesh,27.5823,77.7027,29.9,65,0.0,978.7,7.9,32.8,765,748.8,141.6,16.9,200.0,46.0,4.8,7,5,7,1,2026-07-14T03:29:09.578582+05:30
Ayodhya,Uttar Pradesh,26.7922,82.1998,26.3,97,0.0,987.7,8.05,31.0,144,80.8,60.1,27.8,476.0,29.0,6.2,7,5,7,1,2026-07-14T03:29:09.578589+05:30
Ratlam,Madhya Pradesh,23.3315,75.0367,24.2,92,0.0,950.0,8.2,48.6,63,18.3,12.3,8.1,139.0,38.0,9.5,3,5,7,1,2026-07-14T03:29:09.578596+05:30
Sagar,Madhya Pradesh,23.8388,78.7378,26.3,71,0.0,944.6,8.25,49.7,87,43.9,25.7,6.4,175.0,64.0,4.8,7,5,7,1,2026-07-14T03:29:09.578603+05:30
Satna,Madhya Pradesh,24.6005,80.8322,27.8,68,0.0,964.6,8.7,41.4,95,79.4,37.0,6.1,182.0,65.0,4.1,7,5,7,1,2026-07-14T03:29:09.578610+05:30
Akola,Maharashtra,20.7002,77.0082,26.7,72,0.0,971.5,8.5,50.0,58,16.4,11.4,7.3,119.0,43.0,7.3,7,5,7,1,2026-07-14T03:29:09.578617+05:30
Amravati,Maharashtra,20.9374,77.7796,26.6,73,0.0,963.1,8.6,51.8,60,16.9,11.6,7.8,118.0,42.0,8.2,7,5,7,1,2026-07-14T03:29:09.578626+05:30
Latur,Maharashtra,18.4088,76.5604,23.3,76,0.0,936.6,8.25,45.4,52,12.7,9.0,5.9,130.0,42.0,3.2,3,5,7,1,2026-07-14T03:29:09.578633+05:30
Nanded,Maharashtra,19.1383,77.3091,26.0,69,0.0,965.3,8.1,43.6,57,17.8,13.2,5.6,142.0,59.0,4.8,7,5,7,1,2026-07-14T03:29:09.578640+05:30
Gulbarga,Karnataka,17.3297,76.8343,24.2,76,0.0,955.9,8.05,47.2,51,12.8,9.2,6.2,114.0,41.0,3.0,3,5,7,1,2026-07-14T03:29:09.578646+05:30
Bidar,Karnataka,17.9104,77.5199,24.1,69,0.0,932.0,7.9,41.0,54,14.4,10.4,5.3,119.0,51.0,2.5,3,5,7,1,2026-07-14T03:29:09.578653+05:30
Hospet,Karnataka,15.2689,76.3909,22.5,90,0.0,954.2,7.4,47.9,48,10.0,6.9,5.4,129.0,38.0,1.9,3,5,7,1,2026-07-14T03:29:09.578660+05:30
Tirupur,Tamil Nadu,11.1085,77.3411,24.4,90,0.0,973.3,8.9,59.0,62,21.8,16.6,18.6,141.0,18.0,4.6,3,5,7,1,2026-07-14T03:29:09.578666+05:30
Alappuzha,Kerala,9.4981,76.3388,27.4,85,0.0,1008.3,7.75,45.7,55,20.9,12.1,6.5,83.0,37.0,2.9,7,0,4,1,2026-07-14T03:29:09.578673+05:30
Munnar,Kerala,10.0889,77.0595,15.8,91,0.0,854.5,8.6,35.6,41,9.8,7.2,7.8,94.0,22.0,1.6,3,10,7,0,2026-07-14T03:29:09.578680+05:30
Silchar,Assam,24.8333,92.7789,26.3,96,0.0,998.1,8.8,23.4,71,13.1,11.3,5.4,196.0,68.0,3.0,7,5,7,1,2026-07-14T03:29:09.578687+05:30
Dibrugarh,Assam,27.4728,94.912,26.6,91,0.0,988.2,8.45,25.6,57,21.2,20.6,19.7,289.0,29.0,2.0,7,5,7,1,2026-07-14T03:29:09.578694+05:30
