city,state,latitude,longitude,temp,humidity,rain,pressure,uv_index,wind_gusts,aqi,pm10,pm2_5,no2,co,o3,so2,mosquito_risk,arthritis_risk,migraine_risk,frizz_risk,updated_at
Delhi,Delhi,28.6139,77.209,32.7,60,0.0,972.8,6.6,37.8,153,318.5,81.5,10.7,718.0,183.0,18.4,0,5,7,1,2026-07-10T17:24:10.160360+05:30
Mumbai,Maharashtra,19.076,72.8777,28.1,84,0.0,1007.2,5.4,46.1,59,32.4,15.3,6.9,159.0,53.0,5.4,7,5,0,1,2026-07-10T17:24:10.160398+05:30
Bangalore,Karnataka,12.9716,77.5946,22.5,87,0.4,911.8,6.7,50.8,37,19.8,10.1,13.7,521.0,60.0,3.4,6,5,7,1,2026-07-10T17:24:10.160413+05:30
Hyderabad,Telangana,17.385,78.4867,31.7,45,0.0,951.0,8.6,44.3,62,48.8,18.6,6.1,218.0,75.0,3.3,0,5,7,1,2026-07-10T17:24:10.160423+05:30
Chennai,Tamil Nadu,13.0827,80.2707,31.7,70,0.0,1004.7,7.75,35.3,67,37.5,23.5,6.1,239.0,109.0,6.2,3,5,4,1,2026-07-10T17:24:10.160431+05:30
Kolkata,West Bengal,22.5726,88.3639,28.0,91,0.1,998.2,8.0,32.4,70,36.4,32.8,13.2,622.0,84.0,11.8,10,5,7,1,2026-07-10T17:24:10.160439+05:30
Pune,Maharashtra,18.5204,73.8567,26.6,76,0.0,947.1,7.7,50.8,32,30.4,12.7,3.1,132.0,59.0,3.8,7,5,7,1,2026-07-10T17:24:10.160446+05:30
Ahmedabad,Gujarat,23.0225,72.5714,35.3,49,0.0,995.7,8.0,43.2,74,58.0,24.7,3.2,172.0,91.0,3.8,0,5,10,1,2026-07-10T17:24:10.160452+05:30
Jaipur,Rajasthan,26.9124,75.7873,33.9,52,0.0,951.4,8.2,37.8,197,504.8,83.8,2.7,161.0,101.0,3.5,0,5,7,1,2026-07-10T17:24:10.160458+05:30
Lucknow,Uttar Pradesh,26.8467,80.9462,30.8,81,0.0,983.9,7.75,38.9,88,59.6,35.2,9.1,216.0,94.0,6.4,3,5,7,1,2026-07-10T17:24:10.160469+05:30
Kanpur,Uttar Pradesh,26.4499,80.3319,29.6,82,0.2,982.4,6.95,42.1,87,64.5,39.3,8.6,177.0,99.0,6.7,10,5,7,1,2026-07-10T17:24:10.160478+05:30
Chandigarh,Chandigarh,30.7333,76.7794,30.0,70,0.0,959.5,0.5,16.2,141,41.6,35.3,1.7,449.0,205.0,12.1,7,5,3,1,2026-07-10T17:24:10.160485+05:30
Srinagar,Jammu and Kashmir,34.0837,74.7973,31.3,35,0.0,836.3,9.05,27.4,147,21.2,15.8,0.8,278.0,161.0,2.6,0,5,7,0,2026-07-10T17:24:10.160492+05:30
Jammu,Jammu and Kashmir,32.7266,74.857,27.5,84,0.4,963.0,8.55,44.6,171,92.0,70.8,3.5,450.0,194.0,8.5,10,5,7,1,2026-07-10T17:24:10.160499+05:30
Amritsar,Punjab,31.634,74.8723,33.7,63,0.0,970.4,8.4,34.2,158,104.1,65.0,3.3,428.0,200.0,9.9,3,5,7,1,2026-07-10T17:24:10.160505+05:30
Ludhiana,Punjab,30.901,75.8573,32.7,65,0.0,969.0,7.95,24.8,159,121.1,53.3,1.8,491.0,188.0,7.7,3,5,7,1,2026-07-10T17:24:10.160511+05:30
Jalandhar,Punjab,31.326,75.5762,32.7,65,0.0,969.9,8.15,24.1,157,82.7,56.5,0.9,474.0,192.0,6.7,3,5,7,1,2026-07-10T17:24:10.160518+05:30
Dehradun,Uttarakhand,30.6284,78.0322,22.6,81,0.0,825.2,1.5,26.6,56,6.5,6.3,9.1,228.0,88.0,0.5,3,5,3,1,2026-07-10T17:24:10.160524+05:30
Shimla,Himachal Pradesh,31.1048,77.1734,17.2,97,0.0,779.5,1.2,16.2,53,16.4,15.3,3.6,268.0,128.0,4.9,3,10,3,1,2026-07-10T17:24:10.160533+05:30
Manali,Himachal Pradesh,32.2396,77.1887,22.5,91,0.0,814.8,8.25,31.0,34,11.0,11.0,17.6,209.0,98.0,1.2,3,5,7,1,2026-07-10T17:24:10.160541+05:30
Gurgaon,Haryana,28.4595,77.0266,33.4,60,0.0,971.4,7.4,41.4,161,294.3,85.9,9.9,499.0,171.0,16.3,0,5,7,1,2026-07-10T17:24:10.160548+05:30
Noida,Uttar Pradesh,28.5355,77.391,33.0,60,0.0,974.2,7.0,40.0,161,294.3,85.9,9.9,679.0,171.0,16.3,0,5,7,1,2026-07-10T17:24:10.160554+05:30
Ghaziabad,Uttar Pradesh,28.6692,77.4538,32.0,67,0.0,972.5,6.6,35.3,120,109.4,40.7,8.1,336.0,177.0,17.4,3,5,7,1,2026-07-10T17:24:10.160560+05:30
Faridabad,Haryana,28.4089,77.3178,32.9,61,0.0,973.5,7.25,43.6,161,294.3,85.9,9.9,611.0,171.0,16.3,3,5,7,1,2026-07-10T17:24:10.160566+05:30
Meerut,Uttar Pradesh,28.9845,77.7064,31.3,71,0.0,971.3,4.4,36.7,120,109.4,40.7,8.1,330.0,177.0,17.4,3,5,3,1,2026-07-10T17:24:10.160572+05:30
Agra,Uttar Pradesh,27.1767,78.0081,31.3,71,0.0,978.1,8.05,54.0,154,291.5,83.6,5.0,197.0,109.0,4.5,3,5,7,1,2026-07-10T17:24:10.160579+05:30
Varanasi,Uttar Pradesh,25.3176,82.9739,31.0,75,0.0,988.6,7.5,42.8,78,67.8,33.8,5.3,307.0,102.0,7.1,3,5,7,1,2026-07-10T17:24:10.160586+05:30
Prayagraj,Uttar Pradesh,25.4358,81.8463,30.3,80,0.1,987.1,8.35,36.0,82,87.1,40.6,4.2,189.0,109.0,7.7,6,5,7,1,2026-07-10T17:24:10.160593+05:30
Gorakhpur,Uttar Pradesh,26.7606,83.3732,30.7,75,0.0,987.8,7.0,25.2,86,44.1,26.0,4.9,314.0,115.0,5.1,3,5,7,1,2026-07-10T17:24:10.160599+05:30
Bareilly,Uttar Pradesh,28.367,79.4304,30.8,78,0.0,975.9,7.0,35.6,76,15.0,13.8,5.2,365.0,119.0,4.3,3,5,7,1,2026-07-10T17:24:10.160608+05:30
Aligarh,Uttar Pradesh,27.8974,78.088,33.4,63,0.0,975.2,7.4,49.3,148,221.2,75.0,6.9,348.0,183.0,15.0,3,5,7,1,2026-07-10T17:24:10.160614+05:30
Moradabad,Uttar Pradesh,28.8386,78.7733,29.6,85,0.0,973.1,5.5,36.7,71,11.8,11.0,8.9,398.0,118.0,15.3,7,5,3,1,2026-07-10T17:24:10.160620+05:30
Saharanpur,Uttar Pradesh,29.9637,77.546,26.3,94,0.7,966.0,2.8,32.4,78,7.5,7.2,1.8,308.0,110.0,1.9,10,5,3,1,2026-07-10T17:24:10.160626+05:30
Jhansi,Uttar Pradesh,25.4484,78.5685,34.0,58,0.0,969.2,8.25,44.3,104,79.6,35.7,2.3,131.0,108.0,6.4,0,5,7,1,2026-07-10T17:24:13.548438+05:30
Surat,Gujarat,21.1702,72.8311,30.0,78,0.0,1003.3,6.7,58.0,66,35.3,19.8,10.4,214.0,41.0,28.1,7,5,4,1,2026-07-10T17:24:13.548467+05:30
Vadodara,Gujarat,22.3072,73.1812,31.8,68,0.0,999.3,6.0,49.7,67,63.1,25.6,3.5,147.0,88.0,4.4,3,5,3,1,2026-07-10T17:24:13.548477+05:30
Rajkot,Gujarat,22.3039,70.8022,33.2,54,0.0,989.4,7.7,55.8,63,53.3,21.5,1.7,104.0,76.0,3.7,0,5,7,1,2026-07-10T17:24:13.548485+05:30
Thane,Maharashtra,19.2183,72.9781,28.8,80,0.1,1006.4,5.8,38.5,59,32.4,15.3,6.9,163.0,53.0,5.4,10,5,0,1,2026-07-10T17:24:13.548492+05:30
Nagpur,Maharashtra,21.1458,79.0882,32.0,59,0.0,968.4,7.3,46.1,82,89.2,31.9,6.4,164.0,89.0,12.7,0,5,7,1,2026-07-10T17:24:13.548500+05:30
Nashik,Maharashtra,19.9975,73.7898,27.4,67,0.0,943.5,7.3,55.4,36,36.0,13.5,1.4,113.0,53.0,1.3,7,5,7,1,2026-07-10T17:24:13.548507+05:30
Aurangabad,Maharashtra,19.8762,75.3433,30.2,53,0.0,941.6,8.6,54.0,47,49.6,18.0,1.2,119.0,88.0,4.0,0,5,7,1,2026-07-10T17:24:13.548514+05:30
Solapur,Maharashtra,17.6599,75.9064,31.8,51,0.0,955.1,5.45,40.0,48,45.1,15.1,1.4,116.0,78.0,1.8,0,5,3,1,2026-07-10T17:24:13.548522+05:30
Kolhapur,Maharashtra,16.705,74.2433,26.3,76,0.0,947.6,8.3,49.7,37,24.3,10.8,2.2,118.0,57.0,1.7,7,5,7,1,2026-07-10T17:24:13.548529+05:30
Goa,Goa,15.2993,74.124,28.1,82,0.1,998.7,7.9,37.1,60,22.1,11.0,1.5,103.0,48.0,1.3,10,5,7,1,2026-07-10T17:24:13.548536+05:30
Jodhpur,Rajasthan,26.2389,73.0243,35.1,45,0.0,974.6,8.0,47.9,180,501.1,90.3,1.1,111.0,85.0,2.4,0,5,10,1,2026-07-10T17:24:13.548543+05:30
Udaipur,Rajasthan,24.5854,73.7125,30.3,58,0.0,940.8,8.7,48.2,80,68.2,27.4,1.0,115.0,90.0,2.9,0,5,7,1,2026-07-10T17:24:13.548550+05:30
Kota,Rajasthan,25.2138,75.8648,34.4,50,0.0,971.1,8.3,37.8,100,82.9,32.0,1.9,143.0,107.0,5.5,0,5,7,1,2026-07-10T17:24:13.548557+05:30
Bikaner,Rajasthan,28.0229,73.3119,37.3,40,0.0,971.7,8.45,38.2,152,138.8,47.8,0.6,121.0,93.0,3.8,0,5,10,1,2026-07-10T17:24:13.548563+05:30
Ajmer,Rajasthan,26.4499,74.6399,32.2,54,0.0,947.2,8.35,50.4,96,79.9,30.5,1.4,122.0,98.0,3.1,0,5,7,1,2026-07-10T17:24:13.548570+05:30
Gwalior,Madhya Pradesh,26.2183,78.1828,27.9,93,0.5,974.7,8.0,46.4,95,97.6,37.1,1.8,136.0,97.0,2.7,10,5,7,1,2026-07-10T17:24:13.548577+05:30
Indore,Madhya Pradesh,22.7196,75.8577,29.9,59,0.0,943.5,8.45,55.1,78,60.3,25.9,3.5,203.0,87.0,3.9,4,5,7,1,2026-07-10T17:24:13.548583+05:30
Bhopal,Madhya Pradesh,23.2599,77.4126,30.3,62,0.0,948.3,8.25,52.6,85,69.6,26.9,2.2,185.0,87.0,3.5,3,5,7,1,2026-07-10T17:24:13.548590+05:30
Jabalpur,Madhya Pradesh,23.1815,79.9864,27.8,87,0.2,956.1,7.45,42.5,85,54.8,23.8,2.9,167.0,90.0,4.5,10,5,7,1,2026-07-10T17:24:13.548596+05:30
Ujjain,Madhya Pradesh,23.1765,75.7885,30.6,56,0.0,948.8,8.0,56.2,77,68.2,27.9,2.0,163.0,89.0,4.1,0,5,7,1,2026-07-10T17:24:13.548603+05:30
Visakhapatnam,Andhra Pradesh,17.6868,83.2185,30.7,79,0.0,999.4,8.9,52.6,79,42.1,31.0,16.9,326.0,122.0,37.9,3,5,7,1,2026-07-10T17:24:13.548609+05:30
Vijayawada,Andhra Pradesh,16.5062,80.648,34.9,45,0.0,998.9,7.45,43.2,72,49.0,22.4,2.8,142.0,88.0,3.8,0,5,7,1,2026-07-10T17:24:13.548617+05:30
Guntur,Andhra Pradesh,16.3067,80.4365,36.0,40,0.0,1000.1,7.8,43.9,75,51.6,21.8,3.0,143.0,84.0,3.4,0,5,7,1,2026-07-10T17:24:13.548624+05:30
Nellore,Andhra Pradesh,14.4426,79.9865,35.6,43,0.0,1002.7,6.25,45.4,58,47.4,21.8,5.8,116.0,93.0,5.0,0,5,7,1,2026-07-10T17:24:13.548632+05:30
Kurnool,Andhra Pradesh,15.8281,78.0373,34.6,40,0.0,974.2,8.25,43.9,55,56.8,19.1,1.8,122.0,80.0,4.3,0,5,7,1,2026-07-10T17:24:13.548640+05:30
Kakinada,Andhra Pradesh,16.9891,82.2475,30.4,76,0.0,1003.6,7.9,46.1,68,39.9,24.4,3.5,184.0,112.0,3.8,3,5,4,1,2026-07-10T17:24:13.548647+05:30
Tirupati,Andhra Pradesh,13.6288,79.4192,32.2,52,0.0,989.0,6.1,41.0,55,41.0,15.9,8.9,111.0,67.0,1.8,0,5,7,1,2026-07-10T17:24:13.548653+05:30
Warangal,Telangana,17.9689,79.5941,31.5,59,0.0,975.4,8.55,41.0,76,51.7,20.5,3.6,150.0,77.0,2.8,0,5,7,1,2026-07-10T17:24:13.548660+05:30
Nizamabad,Telangana,18.6725,78.0941,31.0,58,0.0,961.8,8.6,42.5,70,49.6,19.9,2.3,143.0,81.0,5.2,0,5,7,1,2026-07-10T17:24:13.548666+05:30
Mysore,Karnataka,12.2958,76.6396,24.8,80,0.0,929.2,7.85,45.4,29,12.3,6.5,5.0,139.0,66.0,1.5,3,5,7,1,2026-07-10T17:24:13.548672+05:30
Mangalore,Karnataka,12.9141,74.856,27.7,83,0.1,1008.3,8.25,35.6,57,21.1,9.5,0.9,97.0,55.0,1.4,10,0,4,1,2026-07-10T17:24:13.548679+05:30
Hubli-Dharwad,Karnataka,15.3647,75.124,27.4,69,0.0,940.7,6.9,53.3,30,23.5,9.7,2.4,109.0,56.0,1.2,7,5,7,1,2026-07-10T17:24:13.548686+05:30
Belgaum,Karnataka,15.8497,74.4977,25.1,79,0.0,925.7,8.55,47.2,29,23.6,9.7,2.2,103.0,49.0,1.4,7,5,7,1,2026-07-10T17:24:16.936020+05:30
Coimbatore,Tamil Nadu,11.0168,76.9558,28.0,71,0.0,962.3,8.5,47.5,33,8.4,5.6,3.8,154.0,65.0,1.8,7,5,7,1,2026-07-10T17:24:16.936050+05:30
Madurai,Tamil Nadu,9.9252,78.1198,31.8,57,0.0,992.6,8.65,39.6,56,18.4,9.1,7.4,141.0,67.0,1.9,0,5,7,1,2026-07-10T17:24:16.936060+05:30
Trichy,Tamil Nadu,10.7905,78.7047,33.4,50,0.0,999.1,6.95,53.6,42,16.7,8.4,2.9,117.0,83.0,1.7,0,5,7,1,2026-07-10T17:24:16.936069+05:30
Salem,Tamil Nadu,11.6643,78.146,26.7,88,0.1,977.6,8.35,31.0,60,21.1,11.5,4.0,106.0,94.0,6.5,10,5,7,1,2026-07-10T17:24:16.936078+05:30
Tirunelveli,Tamil Nadu,8.7139,77.7567,34.1,45,0.0,1002.8,8.6,42.5,33,10.6,6.4,2.0,120.0,75.0,1.2,0,5,4,1,2026-07-10T17:24:16.936085+05:30
Vellore,Tamil Nadu,12.9165,79.1325,26.8,92,0.4,983.6,7.8,38.9,67,29.0,13.2,6.0,200.0,85.0,2.5,10,5,7,1,2026-07-10T17:24:16.936093+05:30
Erode,Tamil Nadu,11.341,77.7172,30.9,60,0.1,989.4,8.2,39.6,50,13.3,7.9,4.6,168.0,85.0,1.8,3,5,7,1,2026-07-10T17:24:16.936100+05:30
Kochi,Kerala,9.9312,76.2673,27.2,84,0.0,1010.9,8.45,31.7,50,14.3,7.5,6.7,137.0,46.0,1.9,7,0,4,1,2026-07-10T17:24:16.936107+05:30
Thiruvananthapuram,Kerala,8.5241,76.9366,27.4,83,0.0,1009.8,7.25,41.4,46,18.3,10.0,2.7,103.0,71.0,1.1,7,0,4,1,2026-07-10T17:24:16.936114+05:30
Kozhikode,Kerala,11.2588,75.7804,26.0,92,0.0,1010.1,8.05,34.6,42,15.7,7.2,1.0,103.0,57.0,1.0,7,0,4,1,2026-07-10T17:24:16.936144+05:30
Thrissur,Kerala,10.5276,76.2144,27.4,83,0.0,1009.1,7.5,34.6,50,12.4,6.6,3.1,108.0,55.0,1.4,7,0,4,1,2026-07-10T17:24:16.936153+05:30
Kannur,Kerala,11.8745,75.3704,27.1,85,0.1,1009.1,8.5,33.8,51,15.7,7.5,1.7,99.0,56.0,1.2,10,0,4,1,2026-07-10T17:24:16.936160+05:30
Patna,Bihar,25.5941,85.1376,28.1,95,0.3,991.3,8.4,31.3,84,20.8,19.2,8.4,340.0,115.0,4.7,10,5,7,1,2026-07-10T17:24:16.936168+05:30
Gaya,Bihar,24.7914,85.0002,30.3,79,0.1,985.1,5.35,36.7,69,26.0,21.5,5.3,277.0,104.0,4.1,6,5,3,1,2026-07-10T17:24:16.936175+05:30
Muzaffarpur,Bihar,26.1209,85.3647,27.7,95,0.2,991.1,8.05,30.2,102,20.5,19.8,10.9,313.0,111.0,5.3,10,5,7,1,2026-07-10T17:24:16.936182+05:30
Bhagalpur,Bihar,25.2425,87.0117,29.2,88,0.2,991.9,8.15,24.8,136,25.8,25.5,8.4,289.0,138.0,14.1,10,5,7,1,2026-07-10T17:24:16.936188+05:30
Ranchi,Jharkhand,23.3441,85.3096,28.7,66,0.0,931.0,7.4,41.8,70,39.5,29.1,4.9,213.0,110.0,8.1,7,5,7,1,2026-07-10T17:24:16.936196+05:30
Jamshedpur,Jharkhand,22.8046,86.2029,28.5,87,0.0,983.5,8.25,40.7,74,34.9,28.0,7.6,257.0,127.0,19.1,7,5,7,1,2026-07-10T17:24:16.936203+05:30
Dhanbad,Jharkhand,23.7957,86.4304,28.1,91,0.3,971.7,8.0,32.8,103,42.0,39.5,39.3,211.0,70.0,71.0,10,5,7,1,2026-07-10T17:24:16.936210+05:30
Bokaro,Jharkhand,23.6693,86.1511,29.6,83,0.0,975.5,7.55,36.0,90,37.4,32.1,21.4,237.0,103.0,53.2,7,5,7,1,2026-07-10T17:24:16.936217+05:30
Bhubaneswar,Odisha,20.2961,85.8245,28.1,93,0.1,997.4,7.95,35.3,76,34.9,23.7,6.3,333.0,101.0,4.8,10,5,7,1,2026-07-10T17:24:16.936224+05:30
Cuttack,Odisha,20.4625,85.8828,28.1,93,0.0,998.9,8.35,37.1,76,34.9,23.7,6.3,274.0,101.0,4.8,7,5,7,1,2026-07-10T17:24:16.936231+05:30
Rourkela,Odisha,22.2604,84.8536,27.4,93,0.2,979.0,7.2,37.1,94,54.9,39.2,10.5,328.0,113.0,26.5,10,5,7,1,2026-07-10T17:24:16.936238+05:30
Raipur,Chhattisgarh,21.2514,81.6296,32.1,58,0.0,969.0,8.55,42.5,103,79.9,38.2,13.1,222.0,105.0,29.7,0,5,7,1,2026-07-10T17:24:16.936245+05:30
Bhilai,Chhattisgarh,21.1938,81.3509,31.4,60,0.0,969.6,8.55,42.1,100,82.2,36.8,10.5,403.0,110.0,23.8,0,5,7,1,2026-07-10T17:24:16.936251+05:30
Guwahati,Assam,26.1158,91.7086,28.6,95,0.0,991.9,7.05,17.3,52,10.1,9.7,3.3,263.0,90.0,2.0,7,5,7,1,2026-07-10T17:24:16.936258+05:30
Agartala,Tripura,23.8315,91.2868,27.5,93,0.0,998.2,7.5,55.4,43,9.8,9.1,7.4,201.0,76.0,2.6,7,5,7,1,2026-07-10T17:24:16.936265+05:30
Shillong,Meghalaya,25.5788,91.8933,21.7,93,0.2,851.3,3.15,42.8,38,3.8,3.8,5.3,193.0,73.0,1.7,6,5,3,1,2026-07-10T17:24:16.936272+05:30
Imphal,Manipur,24.817,93.9368,26.7,76,0.0,917.2,2.0,30.2,39,3.5,3.3,4.2,174.0,72.0,1.4,7,5,3,1,2026-07-10T17:24:16.936279+05:30
Aizawl,Mizoram,23.7271,92.7176,21.7,90,0.0,887.2,1.7,51.8,32,1.8,1.7,2.2,121.0,63.0,1.0,3,5,3,1,2026-07-10T17:24:16.936286+05:30
Kohima,Nagaland,25.6701,94.1077,22.5,94,0.1,850.5,5.0,23.8,35,3.0,2.9,4.0,155.0,64.0,0.9,6,5,3,1,2026-07-10T17:24:16.936293+05:30
Gangtok,Sikkim,27.3314,88.6138,21.3,90,0.0,832.9,5.5,30.6,44,3.9,3.9,4.9,236.0,97.0,1.9,3,5,3,1,2026-07-10T17:24:16.936300+05:30
Siliguri,West Bengal,26.7271,88.3953,28.6,85,0.0,983.7,8.4,37.1,75,18.5,18.0,6.2,483.0,117.0,4.4,7,5,7,1,2026-07-10T17:24:20.313176+05:30
Durgapur,West Bengal,23.5204,87.3119,27.1,97,0.3,986.8,6.75,34.6,91,47.1,44.9,36.5,682.0,67.0,54.9,10,5,7,1,2026-07-10T17:24:20.313207+05:30
Asansol,West Bengal,23.6739,86.9524,27.9,95,0.2,985.3,7.15,41.8,85,40.7,38.6,36.2,339.0,70.0,52.6,10,5,7,1,2026-07-10T17:24:20.313217+05:30
Pondicherry,Puducherry,11.9139,79.8145,31.5,71,0.0,1007.0,5.85,39.2,66,37.8,25.7,11.8,233.0,127.0,6.8,3,5,0,1,2026-07-10T17:24:20.313226+05:30
Port Blair,Andaman and Nicobar Islands,11.6234,92.7265,28.4,79,0.0,1007.2,8.75,45.7,49,17.4,8.4,0.4,95.0,42.0,0.4,7,5,4,1,2026-07-10T17:24:20.313233+05:30
Haridwar,Uttarakhand,29.9457,78.1642,29.8,74,0.0,964.3,2.25,22.7,63,8.3,8.0,2.9,279.0,109.0,2.4,7,5,3,1,2026-07-10T17:24:20.313241+05:30
Rishikesh,Uttarakhand,30.0869,78.2676,29.3,73,0.0,957.2,2.5,20.9,54,6.8,6.5,2.6,257.0,110.0,1.8,7,5,3,1,2026-07-10T17:24:20.313249+05:30
Nainital,Uttarakhand,29.3919,79.4542,19.5,100,0.0,800.4,3.7,35.6,48,5.8,5.2,4.0,252.0,99.0,1.3,3,10,3,1,2026-07-10T17:24:20.313256+05:30
Mussoorie,Uttarakhand,30.4599,78.0664,21.5,75,0.1,798.8,4.5,32.4,64,7.9,7.7,3.8,257.0,108.0,2.2,6,5,3,1,2026-07-10T17:24:20.313264+05:30
Dharamshala,Himachal Pradesh,32.219,76.3234,24.2,83,0.0,863.3,8.2,32.8,83,23.5,21.5,1.5,322.0,154.0,1.7,3,5,7,1,2026-07-10T17:24:20.313271+05:30
Dalhousie,Himachal Pradesh,32.5387,75.971,20.5,88,0.0,800.7,7.95,29.2,155,54.5,45.9,1.5,364.0,184.0,5.0,3,5,7,1,2026-07-10T17:24:20.313278+05:30
Patiala,Punjab,30.3398,76.3869,31.5,66,0.0,968.5,7.15,22.0,152,106.6,37.7,3.0,325.0,184.0,7.7,3,5,7,1,2026-07-10T17:24:20.313285+05:30
Bhatinda,Punjab,30.211,74.9455,36.1,50,0.0,973.4,7.85,23.4,163,216.1,76.6,3.3,258.0,166.0,13.5,0,5,10,1,2026-07-10T17:24:20.313292+05:30
Rohtak,Haryana,28.8955,76.6066,33.3,59,0.0,971.7,7.0,33.1,160,454.5,97.6,3.0,351.0,161.0,7.3,0,5,7,1,2026-07-10T17:24:20.313299+05:30
Panipat,Haryana,29.3909,76.9635,31.6,67,0.0,970.4,4.8,25.9,212,577.4,103.1,5.6,268.0,181.0,18.3,3,5,3,1,2026-07-10T17:24:20.313306+05:30
Mathura,Uttar Pradesh,27.4924,77.6737,32.8,71,0.1,976.7,7.95,48.6,388,709.7,138.3,6.5,295.0,105.0,3.6,6,5,7,1,2026-07-10T17:24:20.313313+05:30
Vrindavan,Uttar Pradesh,27.5823,77.7027,33.1,70,0.1,977.0,7.9,45.4,388,709.7,138.3,6.5,293.0,105.0,3.6,6,5,7,1,2026-07-10T17:24:20.313320+05:30
Ayodhya,Uttar Pradesh,26.7922,82.1998,30.4,77,0.0,986.0,7.0,24.1,90,53.2,27.6,4.6,226.0,102.0,5.1,3,5,7,1,2026-07-10T17:24:20.313327+05:30
Ratlam,Madhya Pradesh,23.3315,75.0367,31.0,53,0.0,949.8,8.45,50.8,75,66.1,28.2,1.5,124.0,92.0,4.4,0,5,7,1,2026-07-10T17:24:20.313334+05:30
Sagar,Madhya Pradesh,23.8388,78.7378,29.7,67,0.0,944.3,8.6,48.2,91,46.3,22.4,2.5,145.0,86.0,3.4,7,5,7,1,2026-07-10T17:24:20.313341+05:30
Satna,Madhya Pradesh,24.6005,80.8322,31.3,64,0.0,963.8,8.6,35.6,86,109.7,41.8,2.4,150.0,101.0,4.8,3,5,7,1,2026-07-10T17:24:20.313348+05:30
Akola,Maharashtra,20.7002,77.0082,32.2,54,0.0,971.1,8.65,49.7,63,51.6,20.9,2.6,121.0,88.0,6.0,0,5,7,1,2026-07-10T17:24:20.313356+05:30
Amravati,Maharashtra,20.9374,77.7796,31.4,55,0.0,963.5,5.85,51.5,65,52.2,21.2,3.3,128.0,87.0,7.0,0,5,3,1,2026-07-10T17:24:20.313364+05:30
Latur,Maharashtra,18.4088,76.5604,30.5,55,0.0,937.9,8.7,42.8,51,44.2,16.1,1.4,130.0,77.0,2.1,0,5,7,1,2026-07-10T17:24:20.313371+05:30
Nanded,Maharashtra,19.1383,77.3091,31.7,56,0.0,965.7,8.4,40.7,63,44.6,17.2,2.0,147.0,78.0,2.9,0,5,7,1,2026-07-10T17:24:20.313378+05:30
Gulbarga,Karnataka,17.3297,76.8343,31.5,51,0.0,956.6,6.9,41.8,52,47.4,16.4,2.3,147.0,79.0,2.2,0,5,7,1,2026-07-10T17:24:20.313384+05:30
Bidar,Karnataka,17.9104,77.5199,29.9,56,0.0,933.7,8.8,43.2,58,45.4,16.6,2.7,137.0,75.0,1.6,4,5,7,1,2026-07-10T17:24:20.313391+05:30
Hospet,Karnataka,15.2689,76.3909,30.3,57,0.1,954.7,6.05,44.6,37,31.3,11.3,3.1,116.0,68.0,2.0,3,5,7,1,2026-07-10T17:24:20.313397+05:30
Tirupur,Tamil Nadu,11.1085,77.3411,29.0,69,0.1,975.5,8.5,45.7,52,13.0,7.9,3.8,154.0,82.0,2.3,10,5,7,1,2026-07-10T17:24:20.313404+05:30
Alappuzha,Kerala,9.4981,76.3388,27.6,82,0.0,1010.9,7.9,34.9,49,16.9,9.1,3.8,90.0,63.0,2.1,7,0,4,1,2026-07-10T17:24:20.313411+05:30
Munnar,Kerala,10.0889,77.0595,18.3,92,0.1,858.1,8.2,37.4,25,4.4,3.2,5.3,94.0,48.0,1.2,6,10,7,1,2026-07-10T17:24:20.313419+05:30
Silchar,Assam,24.8333,92.7789,30.3,78,0.0,997.0,3.2,31.0,37,4.6,4.5,3.4,194.0,67.0,2.1,3,5,3,1,2026-07-10T17:24:20.313426+05:30
Dibrugarh,Assam,27.4728,94.912,28.2,95,0.2,986.7,5.05,29.9,65,9.1,8.3,4.6,208.0,92.0,2.0,10,5,3,1,2026-07-10T17:24:20.313433+05:30
