city,state,latitude,longitude,temp,humidity,rain,pressure,uv_index,wind_gusts,aqi,pm10,pm2_5,no2,co,o3,so2,mosquito_risk,arthritis_risk,migraine_risk,frizz_risk,updated_at
Delhi,Delhi,28.6139,77.209,25.3,97,2.1,972.6,1.6,35.3,91,15.3,15.3,14.5,322.0,75.0,5.3,10,5,3,1,2026-07-09T05:42:53.735763+05:30
Mumbai,Maharashtra,19.076,72.8777,27.8,86,0.0,1003.9,7.45,52.2,61,36.2,15.3,3.7,109.0,38.0,3.0,7,5,4,1,2026-07-09T05:42:53.735821+05:30
Bangalore,Karnataka,12.9716,77.5946,20.9,89,0.0,910.9,5.8,50.4,22,4.8,3.0,4.7,142.0,37.0,3.1,3,5,3,1,2026-07-09T05:42:53.735839+05:30
Hyderabad,Telangana,17.385,78.4867,24.5,87,0.0,950.0,6.85,44.6,28,3.5,3.0,6.7,160.0,40.0,3.2,3,5,7,1,2026-07-09T05:42:53.735850+05:30
Chennai,Tamil Nadu,13.0827,80.2707,30.6,54,0.0,1005.5,8.75,44.6,69,16.9,12.1,15.8,166.0,27.0,9.4,0,5,4,1,2026-07-09T05:42:53.735868+05:30
Kolkata,West Bengal,22.5726,88.3639,27.3,93,0.0,1000.8,1.15,33.1,70,23.1,18.1,7.8,184.0,58.0,6.2,7,5,0,1,2026-07-09T05:42:53.735878+05:30
Pune,Maharashtra,18.5204,73.8567,23.8,90,0.0,943.6,6.35,51.8,19,4.0,2.1,4.0,102.0,33.0,3.5,3,5,7,1,2026-07-09T05:42:53.735887+05:30
Ahmedabad,Gujarat,23.0225,72.5714,26.9,85,0.0,995.2,7.15,38.9,81,48.1,24.3,7.6,130.0,37.0,5.6,7,5,7,1,2026-07-09T05:42:53.735896+05:30
Jaipur,Rajasthan,26.9124,75.7873,26.5,82,0.0,950.1,7.2,43.9,115,112.2,46.0,8.2,191.0,59.0,4.0,7,5,7,1,2026-07-09T05:42:53.735905+05:30
Lucknow,Uttar Pradesh,26.8467,80.9462,26.1,97,0.1,984.7,5.95,31.7,72,29.5,28.8,12.8,269.0,62.0,8.9,10,5,3,1,2026-07-09T05:42:53.735919+05:30
Kanpur,Uttar Pradesh,26.4499,80.3319,26.5,95,0.1,982.6,7.1,28.8,60,13.0,11.9,10.6,281.0,69.0,4.2,10,5,7,1,2026-07-09T05:42:53.735928+05:30
Chandigarh,Chandigarh,30.7333,76.7794,26.5,93,0.0,960.5,1.05,22.3,132,61.0,60.1,51.2,326.0,19.0,12.5,7,5,3,1,2026-07-09T05:42:53.735936+05:30
Srinagar,Jammu and Kashmir,34.0837,74.7973,18.6,98,0.0,836.5,9.05,22.0,82,39.8,36.8,16.5,441.0,59.0,2.5,3,10,7,1,2026-07-09T05:42:53.735944+05:30
Jammu,Jammu and Kashmir,32.7266,74.857,25.2,94,0.0,964.6,8.65,26.3,153,60.8,56.2,52.4,432.0,8.0,5.0,7,5,7,1,2026-07-09T05:42:53.735953+05:30
Amritsar,Punjab,31.634,74.8723,26.6,94,0.0,972.4,8.5,25.9,160,93.1,89.6,45.2,754.0,16.0,11.4,7,5,7,1,2026-07-09T05:42:53.735961+05:30
Ludhiana,Punjab,30.901,75.8573,27.7,97,0.0,970.2,2.9,28.8,151,104.5,101.7,48.9,778.0,12.0,19.5,7,5,3,1,2026-07-09T05:42:53.735968+05:30
Jalandhar,Punjab,31.326,75.5762,27.2,96,0.0,971.3,6.9,29.2,153,102.7,99.0,47.7,816.0,16.0,17.2,7,5,7,1,2026-07-09T05:42:53.735977+05:30
Dehradun,Uttarakhand,30.6284,78.0322,18.4,98,0.6,824.3,2.4,19.8,75,29.3,29.1,33.1,273.0,24.0,0.7,6,10,3,1,2026-07-09T05:42:53.735985+05:30
Shimla,Himachal Pradesh,31.1048,77.1734,15.8,96,0.1,779.0,0.95,15.5,66,13.2,12.8,7.2,274.0,87.0,1.2,6,10,3,0,2026-07-09T05:42:53.735994+05:30
Manali,Himachal Pradesh,32.2396,77.1887,20.2,76,0.0,814.5,6.75,29.5,45,2.3,2.3,25.3,283.0,60.0,0.3,3,5,7,0,2026-07-09T05:42:53.736003+05:30
Gurgaon,Haryana,28.4595,77.0266,25.3,97,2.5,970.9,3.5,38.5,92,15.1,15.1,20.6,301.0,66.0,12.6,10,5,3,1,2026-07-09T05:42:53.736011+05:30
Noida,Uttar Pradesh,28.5355,77.391,25.5,97,0.2,973.6,1.35,44.3,92,15.1,15.1,20.6,302.0,66.0,12.6,10,5,3,1,2026-07-09T05:42:53.736019+05:30
Ghaziabad,Uttar Pradesh,28.6692,77.4538,25.4,96,0.6,972.0,0.65,46.8,79,14.2,14.2,11.5,283.0,76.0,1.4,10,5,3,1,2026-07-09T05:42:53.736029+05:30
Faridabad,Haryana,28.4089,77.3178,25.4,98,0.6,972.9,2.75,43.6,92,15.1,15.1,20.6,303.0,66.0,12.6,10,5,3,1,2026-07-09T05:42:53.736037+05:30
Meerut,Uttar Pradesh,28.9845,77.7064,25.5,94,4.4,971.4,1.8,40.7,79,14.2,14.2,11.5,260.0,76.0,1.4,10,5,3,1,2026-07-09T05:42:53.736045+05:30
Agra,Uttar Pradesh,27.1767,78.0081,26.1,96,0.1,975.8,7.3,66.2,75,16.6,16.6,16.7,281.0,58.0,9.5,10,5,7,1,2026-07-09T05:42:53.736053+05:30
Varanasi,Uttar Pradesh,25.3176,82.9739,27.8,86,0.0,990.3,7.55,36.4,80,32.8,30.9,28.5,358.0,27.0,30.8,7,5,7,1,2026-07-09T05:42:53.736061+05:30
Prayagraj,Uttar Pradesh,25.4358,81.8463,27.7,90,0.0,988.0,6.65,30.6,81,36.7,35.3,20.4,293.0,38.0,11.5,7,5,7,1,2026-07-09T05:42:53.736070+05:30
Gorakhpur,Uttar Pradesh,26.7606,83.3732,25.9,97,0.0,990.8,7.45,29.9,74,22.9,22.5,14.8,274.0,59.0,8.2,7,5,7,1,2026-07-09T05:42:53.736078+05:30
Bareilly,Uttar Pradesh,28.367,79.4304,25.9,96,0.1,977.3,6.3,56.9,66,10.2,10.1,6.6,244.0,93.0,6.3,10,5,7,1,2026-07-09T05:42:53.736087+05:30
Aligarh,Uttar Pradesh,27.8974,78.088,25.8,97,0.3,973.6,6.4,33.8,74,19.9,19.8,13.3,279.0,59.0,3.5,10,5,7,1,2026-07-09T05:42:53.736094+05:30
Moradabad,Uttar Pradesh,28.8386,78.7733,25.4,95,0.1,974.1,7.6,56.5,68,8.3,8.3,6.7,240.0,93.0,6.0,10,5,7,1,2026-07-09T05:42:53.736102+05:30
Saharanpur,Uttar Pradesh,29.9637,77.546,26.0,95,0.6,966.7,0.6,27.4,94,35.4,35.3,26.8,253.0,41.0,4.1,10,5,3,1,2026-07-09T05:42:53.736109+05:30
Jhansi,Uttar Pradesh,25.4484,78.5685,26.2,94,0.0,968.6,4.95,53.3,52,47.1,25.8,6.9,191.0,68.0,6.1,7,5,3,1,2026-07-09T05:42:57.058687+05:30
Surat,Gujarat,21.1702,72.8311,28.2,87,0.0,1000.7,7.1,56.9,74,37.4,21.0,18.6,282.0,24.0,32.3,7,5,4,1,2026-07-09T05:42:57.058725+05:30
Vadodara,Gujarat,22.3072,73.1812,27.7,85,0.0,997.8,6.4,46.1,72,35.2,17.5,7.2,136.0,35.0,4.5,7,5,7,1,2026-07-09T05:42:57.058738+05:30
Rajkot,Gujarat,22.3039,70.8022,27.0,86,0.0,987.6,7.65,48.6,73,29.7,13.4,3.9,94.0,37.0,3.3,7,5,7,1,2026-07-09T05:42:57.058750+05:30
Thane,Maharashtra,19.2183,72.9781,26.7,92,0.1,1003.2,6.9,43.6,61,36.2,15.3,3.7,120.0,38.0,3.0,10,5,4,1,2026-07-09T05:42:57.058761+05:30
Nagpur,Maharashtra,21.1458,79.0882,25.8,84,0.0,967.7,7.3,49.3,50,20.6,14.1,15.5,179.0,40.0,17.3,7,5,7,1,2026-07-09T05:42:57.058771+05:30
Nashik,Maharashtra,19.9975,73.7898,23.7,97,0.0,940.5,6.1,56.9,32,9.2,4.8,5.6,97.0,30.0,2.7,3,5,7,1,2026-07-09T05:42:57.058782+05:30
Aurangabad,Maharashtra,19.8762,75.3433,24.0,89,0.0,939.6,7.4,52.9,30,21.5,9.8,8.7,138.0,27.0,9.9,3,5,7,1,2026-07-09T05:42:57.058791+05:30
Solapur,Maharashtra,17.6599,75.9064,25.0,82,0.0,954.0,5.5,45.4,22,5.3,3.8,6.9,124.0,27.0,2.6,7,5,3,1,2026-07-09T05:42:57.058802+05:30
Kolhapur,Maharashtra,16.705,74.2433,22.9,95,0.0,944.8,7.4,55.8,20,3.6,2.3,2.8,104.0,35.0,1.8,3,5,7,1,2026-07-09T05:42:57.058812+05:30
Goa,Goa,15.2993,74.124,23.8,99,0.1,996.8,6.15,36.4,53,26.4,14.2,2.2,263.0,43.0,1.0,6,5,7,1,2026-07-09T05:42:57.058822+05:30
Jodhpur,Rajasthan,26.2389,73.0243,28.4,76,0.0,974.3,8.5,49.3,151,295.2,78.7,3.9,129.0,58.0,3.3,7,5,7,1,2026-07-09T05:42:57.058832+05:30
Udaipur,Rajasthan,24.5854,73.7125,24.8,87,0.0,939.3,8.15,43.9,82,44.4,24.2,6.0,117.0,49.0,4.1,3,5,7,1,2026-07-09T05:42:57.058842+05:30
Kota,Rajasthan,25.2138,75.8648,27.6,90,0.1,969.8,7.65,41.0,77,41.0,25.8,9.3,191.0,54.0,10.9,10,5,7,1,2026-07-09T05:42:57.058852+05:30
Bikaner,Rajasthan,28.0229,73.3119,29.4,66,0.0,972.5,8.3,37.8,156,298.0,92.0,4.6,138.0,50.0,2.4,7,5,7,1,2026-07-09T05:42:57.058862+05:30
Ajmer,Rajasthan,26.4499,74.6399,25.5,87,0.0,946.0,8.3,51.5,123,62.6,29.3,5.4,146.0,66.0,3.8,7,5,7,1,2026-07-09T05:42:57.058872+05:30
Gwalior,Madhya Pradesh,26.2183,78.1828,26.3,92,0.0,972.7,8.2,51.1,57,23.4,15.8,10.1,202.0,66.0,5.9,7,5,7,1,2026-07-09T05:42:57.058881+05:30
Indore,Madhya Pradesh,22.7196,75.8577,24.8,93,0.0,941.5,6.1,48.6,57,12.8,9.3,10.8,163.0,31.0,13.9,3,5,7,1,2026-07-09T05:42:57.058891+05:30
Bhopal,Madhya Pradesh,23.2599,77.4126,24.8,87,0.0,946.4,6.35,42.1,60,27.4,17.4,9.1,242.0,43.0,6.7,3,5,7,1,2026-07-09T05:42:57.058900+05:30
Jabalpur,Madhya Pradesh,23.1815,79.9864,24.2,95,0.0,954.6,7.5,41.0,52,11.5,7.9,4.1,212.0,78.0,1.9,3,5,7,1,2026-07-09T05:42:57.058910+05:30
Ujjain,Madhya Pradesh,23.1765,75.7885,25.3,91,0.0,946.8,7.65,47.2,60,16.6,11.8,11.7,188.0,29.0,14.5,7,5,7,1,2026-07-09T05:42:57.058920+05:30
Visakhapatnam,Andhra Pradesh,17.6868,83.2185,27.3,86,0.0,1000.1,8.25,46.1,78,43.4,30.4,17.4,315.0,74.0,32.1,7,5,4,1,2026-07-09T05:42:57.058930+05:30
Vijayawada,Andhra Pradesh,16.5062,80.648,29.5,64,0.0,999.4,6.35,40.7,60,23.7,18.1,12.0,163.0,33.0,6.0,7,5,7,1,2026-07-09T05:42:57.058940+05:30
Guntur,Andhra Pradesh,16.3067,80.4365,30.4,58,0.0,1000.7,6.5,43.6,62,18.9,13.4,10.3,140.0,30.0,6.4,0,5,4,1,2026-07-09T05:42:57.058950+05:30
Nellore,Andhra Pradesh,14.4426,79.9865,29.5,59,0.0,1003.9,8.1,48.2,39,18.2,9.2,4.9,112.0,36.0,3.2,4,5,4,1,2026-07-09T05:42:57.058960+05:30
Kurnool,Andhra Pradesh,15.8281,78.0373,26.5,74,0.0,975.0,6.55,49.7,29,3.9,2.9,6.0,110.0,31.0,2.7,7,5,7,1,2026-07-09T05:42:57.058971+05:30
Kakinada,Andhra Pradesh,16.9891,82.2475,28.5,83,0.0,1003.7,8.25,47.5,69,26.6,18.1,5.1,189.0,65.0,3.1,7,5,4,1,2026-07-09T05:42:57.058980+05:30
Tirupati,Andhra Pradesh,13.6288,79.4192,27.9,62,0.0,989.7,8.05,43.2,41,15.0,9.0,9.1,115.0,27.0,2.5,7,5,7,1,2026-07-09T05:42:57.058990+05:30
Warangal,Telangana,17.9689,79.5941,25.7,92,0.1,975.0,8.3,33.5,43,10.4,9.0,9.1,186.0,50.0,3.6,10,5,7,1,2026-07-09T05:42:57.059000+05:30
Nizamabad,Telangana,18.6725,78.0941,25.3,84,0.0,961.1,6.25,44.3,32,11.1,8.1,10.9,162.0,35.0,7.1,7,5,7,1,2026-07-09T05:42:57.059009+05:30
Mysore,Karnataka,12.2958,76.6396,21.2,91,0.0,928.2,7.1,45.0,18,4.5,2.8,2.6,93.0,40.0,1.4,3,5,7,1,2026-07-09T05:42:57.059019+05:30
Mangalore,Karnataka,12.9141,74.856,23.3,99,0.3,1007.1,8.6,34.9,58,23.5,13.6,6.7,185.0,30.0,2.5,6,5,4,1,2026-07-09T05:42:57.059028+05:30
Hubli-Dharwad,Karnataka,15.3647,75.124,22.1,96,0.0,938.9,6.6,55.8,17,2.3,1.5,2.9,99.0,36.0,1.2,3,5,7,1,2026-07-09T05:42:57.059038+05:30
Belgaum,Karnataka,15.8497,74.4977,21.2,98,0.0,923.2,6.5,57.6,18,2.9,1.9,2.6,109.0,36.0,1.2,3,5,7,1,2026-07-09T05:43:00.397512+05:30
Coimbatore,Tamil Nadu,11.0168,76.9558,22.0,98,0.0,961.4,8.7,51.8,22,9.2,5.9,5.9,178.0,27.0,2.3,3,5,7,1,2026-07-09T05:43:00.397553+05:30
Madurai,Tamil Nadu,9.9252,78.1198,27.7,66,0.0,992.6,8.65,45.4,55,15.0,14.2,25.7,132.0,1.0,5.2,7,5,7,1,2026-07-09T05:43:00.397570+05:30
Trichy,Tamil Nadu,10.7905,78.7047,28.2,64,0.0,999.3,5.75,54.0,37,10.5,6.7,4.6,91.0,35.0,2.8,7,5,3,1,2026-07-09T05:43:00.397583+05:30
Salem,Tamil Nadu,11.6643,78.146,24.0,87,0.0,977.5,8.2,32.8,53,17.8,14.4,19.6,185.0,17.0,6.7,3,5,7,1,2026-07-09T05:43:00.397596+05:30
Tirunelveli,Tamil Nadu,8.7139,77.7567,28.1,66,0.0,1003.0,8.6,51.1,34,10.3,6.5,5.0,182.0,30.0,1.9,7,5,4,1,2026-07-09T05:43:00.397608+05:30
Vellore,Tamil Nadu,12.9165,79.1325,27.5,63,0.0,983.3,8.5,44.3,38,10.6,6.7,7.9,126.0,31.0,3.6,7,5,7,1,2026-07-09T05:43:00.397620+05:30
Erode,Tamil Nadu,11.341,77.7172,24.6,82,0.0,989.3,8.6,49.0,42,17.1,13.3,13.5,155.0,24.0,4.0,3,5,7,1,2026-07-09T05:43:00.397632+05:30
Kochi,Kerala,9.9312,76.2673,24.3,97,0.0,1010.0,8.4,34.2,51,11.5,9.4,13.6,141.0,8.0,4.3,3,0,4,1,2026-07-09T05:43:00.397662+05:30
Thiruvananthapuram,Kerala,8.5241,76.9366,24.1,93,0.0,1009.1,8.3,45.4,45,14.1,8.8,5.4,167.0,33.0,2.6,3,0,4,1,2026-07-09T05:43:00.397676+05:30
Kozhikode,Kerala,11.2588,75.7804,23.5,97,0.1,1009.2,8.15,37.4,43,16.6,8.7,2.0,289.0,43.0,1.4,6,0,4,1,2026-07-09T05:43:00.397687+05:30
Thrissur,Kerala,10.5276,76.2144,23.3,99,0.0,1008.5,8.55,38.5,51,15.1,12.6,12.1,378.0,10.0,3.2,3,0,4,1,2026-07-09T05:43:00.397700+05:30
Kannur,Kerala,11.8745,75.3704,23.1,98,0.1,1008.5,8.25,34.6,50,14.0,7.6,5.2,150.0,30.0,1.9,6,0,4,1,2026-07-09T05:43:00.397711+05:30
Patna,Bihar,25.5941,85.1376,27.3,94,0.0,994.1,7.65,24.5,78,39.3,37.6,21.4,290.0,41.0,12.5,7,5,7,1,2026-07-09T05:43:00.397722+05:30
Gaya,Bihar,24.7914,85.0002,28.0,86,0.0,987.3,7.95,30.2,74,39.1,34.6,17.5,298.0,36.0,12.8,7,5,7,1,2026-07-09T05:43:00.397733+05:30
Muzaffarpur,Bihar,26.1209,85.3647,27.2,97,0.1,994.1,8.25,28.4,83,29.0,28.2,17.1,285.0,54.0,10.4,10,5,7,1,2026-07-09T05:43:00.397745+05:30
Bhagalpur,Bihar,25.2425,87.0117,27.1,99,0.1,995.2,6.7,24.5,88,39.7,36.7,20.9,408.0,35.0,16.1,10,5,7,1,2026-07-09T05:43:00.397755+05:30
Ranchi,Jharkhand,23.3441,85.3096,23.7,93,0.0,932.3,7.95,39.6,66,26.6,22.6,8.7,164.0,56.0,10.6,3,5,7,1,2026-07-09T05:43:00.397766+05:30
Jamshedpur,Jharkhand,22.8046,86.2029,27.2,89,0.0,985.4,6.1,36.4,87,41.1,34.0,21.2,481.0,49.0,28.5,7,5,7,1,2026-07-09T05:43:00.397777+05:30
Dhanbad,Jharkhand,23.7957,86.4304,26.8,92,0.1,974.3,7.6,37.8,135,78.9,69.6,51.2,1744.0,13.0,119.2,10,5,7,1,2026-07-09T05:43:00.397788+05:30
Bokaro,Jharkhand,23.6693,86.1511,27.3,88,0.1,978.1,7.9,34.2,104,67.3,55.4,32.7,913.0,28.0,82.5,10,5,7,1,2026-07-09T05:43:00.397798+05:30
Bhubaneswar,Odisha,20.2961,85.8245,27.2,81,0.0,998.0,3.6,51.5,70,20.0,14.7,6.4,185.0,65.0,6.6,7,5,3,1,2026-07-09T05:43:00.397808+05:30
Cuttack,Odisha,20.4625,85.8828,26.6,90,0.1,999.7,7.05,43.6,70,20.0,14.7,6.4,176.0,65.0,6.6,10,5,7,1,2026-07-09T05:43:00.397818+05:30
Rourkela,Odisha,22.2604,84.8536,26.2,96,0.1,979.6,6.75,40.0,73,33.1,26.4,10.2,239.0,46.0,6.4,10,5,7,1,2026-07-09T05:43:00.397828+05:30
Raipur,Chhattisgarh,21.2514,81.6296,25.4,93,0.0,969.1,7.45,45.7,63,26.4,25.7,28.8,475.0,44.0,47.5,7,5,7,1,2026-07-09T05:43:00.397838+05:30
Bhilai,Chhattisgarh,21.1938,81.3509,25.5,91,0.0,969.6,7.65,47.5,65,26.1,25.1,26.0,635.0,46.0,42.6,7,5,7,1,2026-07-09T05:43:00.397847+05:30
Guwahati,Assam,26.1158,91.7086,26.2,98,0.1,996.7,4.5,17.3,55,17.5,17.1,8.4,224.0,47.0,2.5,10,5,3,1,2026-07-09T05:43:00.397857+05:30
Agartala,Tripura,23.8315,91.2868,24.0,99,0.8,1002.4,0.8,42.8,50,10.9,8.7,8.8,137.0,47.0,2.5,6,5,0,1,2026-07-09T05:43:00.397867+05:30
Shillong,Meghalaya,25.5788,91.8933,20.3,98,0.0,854.2,1.7,33.1,26,1.6,1.6,4.6,137.0,50.0,3.3,3,5,3,1,2026-07-09T05:43:00.397876+05:30
Imphal,Manipur,24.817,93.9368,22.4,100,0.0,920.0,3.3,32.4,31,8.4,7.9,7.8,230.0,35.0,2.6,3,5,3,1,2026-07-09T05:43:00.397886+05:30
Aizawl,Mizoram,23.7271,92.7176,19.5,99,0.1,889.4,0.4,46.1,23,0.6,0.6,1.7,110.0,52.0,0.5,6,10,3,1,2026-07-09T05:43:00.397895+05:30
Kohima,Nagaland,25.6701,94.1077,21.7,93,0.0,853.0,2.35,22.7,21,3.6,3.3,4.2,267.0,46.0,1.2,3,5,3,1,2026-07-09T05:43:00.397905+05:30
Gangtok,Sikkim,27.3314,88.6138,18.6,98,0.3,834.9,4.4,25.9,43,3.8,3.8,3.4,207.0,97.0,1.2,6,10,3,1,2026-07-09T05:43:00.397915+05:30
Siliguri,West Bengal,26.7271,88.3953,25.1,97,0.8,988.1,7.45,25.6,62,15.8,15.7,7.6,326.0,91.0,4.6,10,5,7,1,2026-07-09T05:43:03.752968+05:30
Durgapur,West Bengal,23.5204,87.3119,26.2,96,0.2,989.4,2.3,36.4,101,44.9,40.2,31.5,492.0,36.0,45.2,10,5,3,1,2026-07-09T05:43:03.753011+05:30
Asansol,West Bengal,23.6739,86.9524,26.3,95,0.1,988.0,6.15,36.7,99,48.3,42.4,34.8,282.0,27.0,47.3,10,5,7,1,2026-07-09T05:43:03.753028+05:30
Pondicherry,Puducherry,11.9139,79.8145,28.5,71,0.0,1007.3,7.4,45.7,71,18.9,15.1,20.1,137.0,17.0,8.0,7,5,4,1,2026-07-09T05:43:03.753041+05:30
Port Blair,Andaman and Nicobar Islands,11.6234,92.7265,27.4,83,0.0,1008.2,8.65,41.8,59,22.3,13.4,0.2,94.0,58.0,0.4,7,0,4,1,2026-07-09T05:43:03.753054+05:30
Haridwar,Uttarakhand,29.9457,78.1642,26.1,97,0.6,965.2,2.25,22.0,71,28.8,28.7,23.2,284.0,35.0,1.4,10,5,3,1,2026-07-09T05:43:03.753066+05:30
Rishikesh,Uttarakhand,30.0869,78.2676,25.8,91,0.6,957.9,3.0,14.0,44,14.4,14.4,11.5,207.0,65.0,0.8,10,5,3,1,2026-07-09T05:43:03.753079+05:30
Nainital,Uttarakhand,29.3919,79.4542,16.9,100,0.4,799.8,7.7,52.2,50,5.9,5.7,4.2,196.0,96.0,1.6,6,10,7,1,2026-07-09T05:43:03.753090+05:30
Mussoorie,Uttarakhand,30.4599,78.0664,16.6,99,0.2,797.0,2.1,33.1,70,37.0,36.9,28.9,270.0,36.0,4.1,6,10,3,1,2026-07-09T05:43:03.753100+05:30
Dharamshala,Himachal Pradesh,32.219,76.3234,21.7,91,0.0,863.3,7.15,36.4,45,9.4,8.5,13.8,444.0,15.0,0.2,3,5,7,1,2026-07-09T05:43:03.753111+05:30
Dalhousie,Himachal Pradesh,32.5387,75.971,16.7,90,0.0,798.7,7.95,29.9,103,39.2,37.0,36.0,489.0,21.0,2.5,3,10,7,0,2026-07-09T05:43:03.753122+05:30
Patiala,Punjab,30.3398,76.3869,27.1,93,0.0,969.6,2.3,23.4,149,93.8,92.0,51.3,564.0,7.0,13.7,7,5,3,1,2026-07-09T05:43:03.753132+05:30
Bhatinda,Punjab,30.211,74.9455,28.8,86,0.0,975.1,5.4,43.6,351,153.2,54.7,27.3,451.0,45.0,11.0,7,5,3,1,2026-07-09T05:43:03.753142+05:30
Rohtak,Haryana,28.8955,76.6066,26.2,95,0.1,972.2,4.95,33.8,93,19.1,19.0,16.7,277.0,68.0,6.0,10,5,3,1,2026-07-09T05:43:03.753152+05:30
Panipat,Haryana,29.3909,76.9635,26.2,94,0.3,970.9,1.35,28.1,90,27.1,26.9,21.9,260.0,55.0,7.2,10,5,3,1,2026-07-09T05:43:03.753162+05:30
Mathura,Uttar Pradesh,27.4924,77.6737,26.0,98,0.1,974.4,6.5,42.8,73,15.8,15.8,18.7,271.0,58.0,8.9,10,5,7,1,2026-07-09T05:43:03.753172+05:30
Vrindavan,Uttar Pradesh,27.5823,77.7027,25.9,97,0.2,975.0,6.25,40.3,73,15.8,15.8,18.7,268.0,58.0,8.9,10,5,7,1,2026-07-09T05:43:03.753181+05:30
Ayodhya,Uttar Pradesh,26.7922,82.1998,26.2,97,0.0,988.1,8.15,32.0,79,35.9,34.8,16.4,268.0,52.0,11.5,7,5,7,1,2026-07-09T05:43:03.753191+05:30
Ratlam,Madhya Pradesh,23.3315,75.0367,24.8,97,0.3,947.9,8.5,49.7,62,20.6,14.2,12.0,162.0,28.0,13.7,6,5,7,1,2026-07-09T05:43:03.753200+05:30
Sagar,Madhya Pradesh,23.8388,78.7378,24.3,93,0.0,942.4,5.05,51.1,52,22.6,15.4,6.0,175.0,63.0,4.9,3,5,3,1,2026-07-09T05:43:03.753209+05:30
Satna,Madhya Pradesh,24.6005,80.8322,26.0,89,0.0,963.5,7.65,47.9,54,13.2,10.6,5.7,219.0,71.0,3.7,7,5,7,1,2026-07-09T05:43:03.753219+05:30
Akola,Maharashtra,20.7002,77.0082,26.1,82,0.0,970.0,6.6,52.6,40,13.9,7.3,9.4,124.0,30.0,6.9,7,5,7,1,2026-07-09T05:43:03.753229+05:30
Amravati,Maharashtra,20.9374,77.7796,25.5,85,0.0,962.1,7.05,49.7,40,12.4,7.7,10.3,154.0,32.0,7.3,7,5,7,1,2026-07-09T05:43:03.753240+05:30
Latur,Maharashtra,18.4088,76.5604,23.9,88,0.0,935.9,5.7,45.7,26,12.8,6.4,5.8,144.0,29.0,4.0,3,5,3,1,2026-07-09T05:43:03.753251+05:30
Nanded,Maharashtra,19.1383,77.3091,25.2,85,0.0,964.5,5.85,42.8,34,13.2,7.5,10.2,136.0,28.0,6.3,7,5,3,1,2026-07-09T05:43:03.753261+05:30
Gulbarga,Karnataka,17.3297,76.8343,24.5,84,0.0,955.8,5.25,51.1,22,3.0,2.4,5.6,113.0,31.0,3.0,3,5,3,1,2026-07-09T05:43:03.753271+05:30
Bidar,Karnataka,17.9104,77.5199,23.2,94,0.0,931.9,4.45,45.4,29,8.9,5.5,7.1,125.0,33.0,3.6,3,5,3,1,2026-07-09T05:43:03.753281+05:30
Hospet,Karnataka,15.2689,76.3909,23.8,86,0.0,954.3,7.5,52.9,18,2.5,2.0,3.3,91.0,36.0,1.5,3,5,7,1,2026-07-09T05:43:03.753291+05:30
Tirupur,Tamil Nadu,11.1085,77.3411,23.2,90,0.0,975.3,8.4,61.2,45,19.0,15.7,17.3,147.0,17.0,5.0,3,5,7,1,2026-07-09T05:43:03.753300+05:30
Alappuzha,Kerala,9.4981,76.3388,24.9,98,0.0,1009.9,8.5,36.7,52,15.4,9.8,7.3,104.0,29.0,4.3,3,0,4,1,2026-07-09T05:43:03.753310+05:30
Munnar,Kerala,10.0889,77.0595,16.0,99,0.1,856.9,8.3,38.9,19,5.8,3.8,4.2,82.0,21.0,0.8,6,10,7,0,2026-07-09T05:43:03.753321+05:30
Silchar,Assam,24.8333,92.7789,26.2,94,0.0,1001.4,0.45,27.7,32,6.2,5.7,6.1,215.0,51.0,2.6,7,5,0,1,2026-07-09T05:43:03.753331+05:30
Dibrugarh,Assam,27.4728,94.912,26.0,97,0.0,991.1,5.95,32.8,53,14.7,14.1,8.2,195.0,59.0,1.6,7,5,3,1,2026-07-09T05:43:03.753341+05:30
