city,state,latitude,longitude,temp,humidity,rain,pressure,uv_index,wind_gusts,aqi,pm10,pm2_5,no2,co,o3,so2,mosquito_risk,arthritis_risk,migraine_risk,frizz_risk,updated_at
Delhi,Delhi,28.6139,77.209,26.4,82,0.0,977.2,7.8,46.4,676,207.7,79.6,14.7,461.0,122.0,19.2,7,5,7,1,2026-06-11T23:47:03.410491+05:30
Mumbai,Maharashtra,19.076,72.8777,30.7,69,0.0,1006.6,7.7,41.8,76,62.2,25.7,5.3,152.0,54.0,4.5,3,5,4,1,2026-06-11T23:47:03.410535+05:30
Bangalore,Karnataka,12.9716,77.5946,21.4,98,0.0,912.0,7.0,40.0,45,10.9,8.7,20.4,455.0,33.0,5.9,3,5,7,1,2026-06-11T23:47:03.410551+05:30
Hyderabad,Telangana,17.385,78.4867,29.1,60,0.0,951.3,8.8,36.4,75,43.0,28.4,21.7,542.0,57.0,6.7,4,5,7,1,2026-06-11T23:47:03.410561+05:30
Chennai,Tamil Nadu,13.0827,80.2707,27.2,93,0.0,1006.4,7.55,41.4,64,23.8,16.6,13.4,319.0,75.0,8.4,7,5,4,1,2026-06-11T23:47:03.410569+05:30
Kolkata,West Bengal,22.5726,88.3639,26.8,93,0.0,1003.0,8.95,32.0,118,54.0,43.9,17.1,492.0,52.0,7.4,7,5,4,1,2026-06-11T23:47:03.410577+05:30
Pune,Maharashtra,18.5204,73.8567,24.9,84,0.0,946.8,8.3,45.0,59,34.8,18.6,8.8,156.0,42.0,6.7,3,5,7,1,2026-06-11T23:47:03.410584+05:30
Ahmedabad,Gujarat,23.0225,72.5714,31.6,70,0.0,996.0,8.05,49.7,75,57.2,26.0,8.9,195.0,62.0,7.2,3,5,7,1,2026-06-11T23:47:03.410591+05:30
Jaipur,Rajasthan,26.9124,75.7873,34.1,42,0.0,953.0,8.25,40.7,132,267.3,64.0,8.7,327.0,68.0,5.4,0,5,7,1,2026-06-11T23:47:03.410602+05:30
Lucknow,Uttar Pradesh,26.8467,80.9462,30.0,67,0.2,989.4,8.3,53.3,151,78.7,45.2,7.7,391.0,136.0,11.2,10,5,7,1,2026-06-11T23:47:03.410610+05:30
Kanpur,Uttar Pradesh,26.4499,80.3319,30.4,67,0.3,986.9,8.3,47.2,158,99.9,53.0,9.1,385.0,136.0,13.3,6,5,7,1,2026-06-11T23:47:03.410617+05:30
Chandigarh,Chandigarh,30.7333,76.7794,28.7,62,0.0,961.3,7.85,55.1,132,68.0,45.4,26.1,318.0,69.0,7.5,7,5,7,1,2026-06-11T23:47:03.410624+05:30
Srinagar,Jammu and Kashmir,34.0837,74.7973,16.6,89,0.0,836.3,9.05,24.1,77,44.1,41.8,46.3,808.0,26.0,3.2,3,10,7,0,2026-06-11T23:47:03.410632+05:30
Jammu,Jammu and Kashmir,32.7266,74.857,30.2,51,0.0,965.3,8.15,41.0,90,74.7,56.7,55.3,429.0,44.0,9.8,0,5,7,1,2026-06-11T23:47:03.410639+05:30
Amritsar,Punjab,31.634,74.8723,27.8,71,0.0,972.3,8.5,56.2,169,220.7,92.2,14.6,373.0,103.0,7.9,7,5,7,1,2026-06-11T23:47:03.410645+05:30
Ludhiana,Punjab,30.901,75.8573,28.2,77,0.0,970.5,8.05,52.6,683,176.0,68.5,10.2,287.0,112.0,8.9,7,5,7,1,2026-06-11T23:47:03.410652+05:30
Jalandhar,Punjab,31.326,75.5762,28.7,70,0.0,971.5,8.25,47.2,450,163.0,71.9,14.8,390.0,103.0,11.0,7,5,7,1,2026-06-11T23:47:03.410658+05:30
Dehradun,Uttarakhand,30.6284,78.0322,15.1,97,0.0,827.0,7.9,36.0,83,61.9,28.5,25.0,223.0,74.0,2.8,3,10,7,0,2026-06-11T23:47:03.410667+05:30
Shimla,Himachal Pradesh,31.1048,77.1734,14.8,80,0.0,780.7,8.25,38.2,90,54.1,32.5,18.7,358.0,99.0,4.6,3,5,7,0,2026-06-11T23:47:03.410675+05:30
Manali,Himachal Pradesh,32.2396,77.1887,14.8,75,0.0,814.6,9.3,35.6,45,8.2,6.8,91.9,327.0,15.0,0.0,3,5,7,0,2026-06-11T23:47:03.410688+05:30
Gurgaon,Haryana,28.4595,77.0266,26.5,84,0.0,975.1,7.9,54.4,1306,280.3,97.6,13.7,376.0,125.0,17.4,7,5,7,1,2026-06-11T23:47:03.410695+05:30
Noida,Uttar Pradesh,28.5355,77.391,25.2,91,0.0,978.8,7.85,51.5,1306,280.3,97.6,13.7,341.0,125.0,17.4,7,5,7,1,2026-06-11T23:47:03.410701+05:30
Ghaziabad,Uttar Pradesh,28.6692,77.4538,25.5,90,0.0,977.6,7.85,47.5,537,85.7,51.6,9.3,309.0,116.0,9.2,7,5,7,1,2026-06-11T23:47:03.410707+05:30
Faridabad,Haryana,28.4089,77.3178,25.3,92,0.0,977.8,7.9,58.0,1306,280.3,97.6,13.7,329.0,125.0,17.4,7,5,7,1,2026-06-11T23:47:03.410714+05:30
Meerut,Uttar Pradesh,28.9845,77.7064,27.0,85,0.0,977.0,7.75,51.8,537,85.7,51.6,9.3,307.0,116.0,9.2,7,5,7,1,2026-06-11T23:47:03.410721+05:30
Agra,Uttar Pradesh,27.1767,78.0081,25.8,84,0.2,983.1,8.2,76.0,594,375.3,112.0,14.9,206.0,94.0,8.8,10,5,7,1,2026-06-11T23:47:03.410727+05:30
Varanasi,Uttar Pradesh,25.3176,82.9739,31.7,60,0.0,992.6,8.8,42.1,154,74.3,60.3,13.1,492.0,126.0,18.4,0,5,7,1,2026-06-11T23:47:03.410734+05:30
Prayagraj,Uttar Pradesh,25.4358,81.8463,32.7,59,0.0,990.5,8.6,35.3,155,69.4,53.2,12.6,409.0,125.0,15.4,0,5,7,1,2026-06-11T23:47:03.410741+05:30
Gorakhpur,Uttar Pradesh,26.7606,83.3732,28.7,76,0.0,993.4,8.7,46.1,119,50.9,35.9,15.0,478.0,99.0,11.4,7,5,7,1,2026-06-11T23:47:03.410750+05:30
Bareilly,Uttar Pradesh,28.367,79.4304,25.5,90,0.0,983.8,7.05,45.7,156,88.7,47.8,11.1,282.0,98.0,5.8,7,5,7,1,2026-06-11T23:47:03.410757+05:30
Aligarh,Uttar Pradesh,27.8974,78.088,25.8,91,0.1,980.0,8.0,65.2,879,170.0,70.1,10.0,327.0,118.0,12.8,10,5,7,1,2026-06-11T23:47:03.410763+05:30
Moradabad,Uttar Pradesh,28.8386,78.7733,24.7,88,0.0,979.9,7.95,51.5,153,116.9,52.7,8.1,311.0,109.0,7.0,3,5,7,1,2026-06-11T23:47:03.410770+05:30
Saharanpur,Uttar Pradesh,29.9637,77.546,25.0,83,0.0,970.0,7.5,55.4,147,148.5,67.5,11.0,338.0,108.0,9.7,7,5,7,1,2026-06-11T23:47:03.410776+05:30
Jhansi,Uttar Pradesh,25.4484,78.5685,33.0,50,0.0,971.6,8.55,38.9,71,33.9,22.4,8.3,150.0,58.0,4.3,0,5,7,1,2026-06-11T23:47:06.676986+05:30
Surat,Gujarat,21.1702,72.8311,30.8,70,0.0,1003.7,6.7,56.9,85,51.0,26.9,12.4,205.0,46.0,21.3,3,5,4,1,2026-06-11T23:47:06.677017+05:30
Vadodara,Gujarat,22.3072,73.1812,30.6,72,0.0,999.8,8.05,52.6,81,39.9,24.7,14.8,169.0,39.0,17.4,3,5,7,1,2026-06-11T23:47:06.677070+05:30
Rajkot,Gujarat,22.3039,70.8022,29.4,73,0.0,989.3,7.55,51.1,69,33.1,16.8,4.1,110.0,52.0,3.8,7,5,7,1,2026-06-11T23:47:06.677082+05:30
Thane,Maharashtra,19.2183,72.9781,30.6,67,0.0,1006.0,7.7,40.3,76,62.2,25.7,5.3,156.0,54.0,4.5,3,5,4,1,2026-06-11T23:47:06.677091+05:30
Nagpur,Maharashtra,21.1458,79.0882,35.0,37,0.0,968.6,8.9,35.6,91,43.4,30.5,19.3,400.0,74.0,12.9,0,5,7,1,2026-06-11T23:47:06.677100+05:30
Nashik,Maharashtra,19.9975,73.7898,25.2,84,0.0,943.6,8.05,46.4,63,32.9,16.1,6.4,134.0,47.0,4.8,7,5,7,1,2026-06-11T23:47:06.677108+05:30
Aurangabad,Maharashtra,19.8762,75.3433,27.8,65,0.0,941.8,8.95,48.2,65,38.5,20.7,6.9,130.0,61.0,8.3,7,5,7,1,2026-06-11T23:47:06.677115+05:30
Solapur,Maharashtra,17.6599,75.9064,29.7,63,0.0,955.6,8.9,49.3,59,25.0,17.3,7.8,136.0,51.0,2.8,7,5,7,1,2026-06-11T23:47:06.677123+05:30
Kolhapur,Maharashtra,16.705,74.2433,24.1,91,0.0,947.4,8.75,45.4,51,34.9,17.9,6.1,151.0,44.0,2.8,3,5,7,1,2026-06-11T23:47:06.677130+05:30
Goa,Goa,15.2993,74.124,25.2,98,0.0,998.2,8.0,32.8,65,40.7,20.1,4.6,322.0,45.0,1.5,7,5,7,1,2026-06-11T23:47:06.677138+05:30
Jodhpur,Rajasthan,26.2389,73.0243,34.5,47,0.0,974.6,8.45,50.4,167,105.0,32.9,5.7,144.0,71.0,3.1,0,5,7,1,2026-06-11T23:47:06.677146+05:30
Udaipur,Rajasthan,24.5854,73.7125,29.7,65,0.0,941.2,8.85,44.6,81,41.7,23.7,5.6,136.0,78.0,6.7,7,5,7,1,2026-06-11T23:47:06.677154+05:30
Kota,Rajasthan,25.2138,75.8648,33.9,49,0.0,972.1,8.4,40.3,86,52.9,31.5,5.4,169.0,86.0,7.7,0,5,7,1,2026-06-11T23:47:06.677162+05:30
Bikaner,Rajasthan,28.0229,73.3119,35.8,41,0.0,971.9,8.5,46.8,160,228.6,70.3,2.3,124.0,74.0,3.6,0,5,10,1,2026-06-11T23:47:06.677169+05:30
Ajmer,Rajasthan,26.4499,74.6399,31.8,53,0.0,947.9,8.4,52.2,77,44.5,26.7,6.7,163.0,70.0,5.2,0,5,7,1,2026-06-11T23:47:06.677177+05:30
Gwalior,Madhya Pradesh,26.2183,78.1828,31.1,52,0.0,976.8,8.3,45.4,78,50.6,28.8,5.4,171.0,82.0,7.9,0,5,7,1,2026-06-11T23:47:06.677184+05:30
Indore,Madhya Pradesh,22.7196,75.8577,30.4,54,0.0,944.6,8.65,46.1,80,54.0,32.6,5.4,237.0,97.0,9.3,0,5,7,1,2026-06-11T23:47:06.677191+05:30
Bhopal,Madhya Pradesh,23.2599,77.4126,32.5,45,0.0,949.0,8.7,41.8,73,29.6,20.2,7.9,230.0,67.0,3.9,0,5,7,1,2026-06-11T23:47:06.677197+05:30
Jabalpur,Madhya Pradesh,23.1815,79.9864,32.7,46,0.0,957.2,8.9,36.7,67,27.1,19.6,9.6,295.0,68.0,4.3,0,5,7,1,2026-06-11T23:47:06.677204+05:30
Ujjain,Madhya Pradesh,23.1765,75.7885,30.5,54,0.0,949.8,8.6,45.4,83,50.4,31.1,3.9,190.0,95.0,7.8,0,5,7,1,2026-06-11T23:47:06.677211+05:30
Visakhapatnam,Andhra Pradesh,17.6868,83.2185,30.3,88,0.0,1000.2,6.9,32.8,151,60.5,48.0,43.0,567.0,60.0,43.2,3,5,4,1,2026-06-11T23:47:06.677218+05:30
Vijayawada,Andhra Pradesh,16.5062,80.648,31.8,69,0.0,999.6,8.3,43.6,98,23.8,17.3,4.9,219.0,94.0,4.6,3,5,7,1,2026-06-11T23:47:06.677226+05:30
Guntur,Andhra Pradesh,16.3067,80.4365,30.9,74,0.0,1000.9,8.5,40.7,91,23.1,17.2,5.7,197.0,92.0,4.6,3,5,4,1,2026-06-11T23:47:06.677233+05:30
Nellore,Andhra Pradesh,14.4426,79.9865,26.3,97,0.2,1005.1,5.55,39.2,59,23.4,15.5,4.9,195.0,82.0,2.2,10,5,0,1,2026-06-11T23:47:06.677241+05:30
Kurnool,Andhra Pradesh,15.8281,78.0373,26.0,82,0.0,976.0,8.25,55.8,62,31.0,20.6,10.5,163.0,68.0,4.6,7,5,7,1,2026-06-11T23:47:06.677250+05:30
Kakinada,Andhra Pradesh,16.9891,82.2475,30.7,76,0.0,1003.9,8.55,40.3,90,30.2,21.5,5.3,383.0,84.0,3.5,3,5,4,1,2026-06-11T23:47:06.677257+05:30
Tirupati,Andhra Pradesh,13.6288,79.4192,25.2,92,0.0,990.5,7.05,43.6,55,17.0,13.2,9.9,217.0,61.0,1.4,7,5,7,1,2026-06-11T23:47:06.677265+05:30
Warangal,Telangana,17.9689,79.5941,29.9,62,0.0,975.8,8.6,48.2,100,48.0,38.0,14.8,367.0,76.0,8.0,7,5,7,1,2026-06-11T23:47:06.677271+05:30
Nizamabad,Telangana,18.6725,78.0941,32.0,38,0.0,961.3,7.9,38.2,83,63.6,48.8,32.2,241.0,43.0,7.3,0,5,7,1,2026-06-11T23:47:06.677278+05:30
Mysore,Karnataka,12.2958,76.6396,22.0,95,0.0,929.5,9.05,46.8,32,9.8,6.6,10.1,193.0,38.0,2.2,3,5,7,1,2026-06-11T23:47:06.677284+05:30
Mangalore,Karnataka,12.9141,74.856,23.6,99,0.1,1008.5,8.65,31.3,39,21.8,13.4,8.3,268.0,39.0,3.0,6,0,4,1,2026-06-11T23:47:06.677291+05:30
Hubli-Dharwad,Karnataka,15.3647,75.124,23.1,94,0.0,940.6,8.7,43.9,40,11.7,6.4,3.7,133.0,49.0,1.3,3,5,7,1,2026-06-11T23:47:06.677298+05:30
Belgaum,Karnataka,15.8497,74.4977,22.6,95,0.0,925.5,6.65,46.1,52,30.3,15.9,6.7,118.0,40.0,1.9,3,5,7,1,2026-06-11T23:47:09.939652+05:30
Coimbatore,Tamil Nadu,11.0168,76.9558,23.3,94,0.0,962.7,7.95,55.8,28,5.7,3.8,6.1,163.0,46.0,2.6,3,5,7,1,2026-06-11T23:47:09.939686+05:30
Madurai,Tamil Nadu,9.9252,78.1198,29.7,59,0.0,994.0,7.3,39.6,34,7.8,6.3,7.8,144.0,52.0,3.5,4,5,7,1,2026-06-11T23:47:09.939697+05:30
Trichy,Tamil Nadu,10.7905,78.7047,28.5,70,0.0,1000.1,7.25,39.2,33,15.4,12.7,16.2,180.0,41.0,4.8,7,5,4,1,2026-06-11T23:47:09.939705+05:30
Salem,Tamil Nadu,11.6643,78.146,25.0,92,0.0,978.3,7.3,40.3,54,23.3,16.8,20.2,222.0,43.0,7.8,7,5,7,1,2026-06-11T23:47:09.939713+05:30
Tirunelveli,Tamil Nadu,8.7139,77.7567,28.7,70,0.0,1004.7,6.75,42.8,24,3.6,3.2,6.1,148.0,41.0,1.6,7,5,4,1,2026-06-11T23:47:09.939721+05:30
Vellore,Tamil Nadu,12.9165,79.1325,25.4,88,0.0,984.2,8.4,45.0,57,25.8,18.2,14.7,221.0,48.0,3.1,7,5,7,1,2026-06-11T23:47:09.939728+05:30
Erode,Tamil Nadu,11.341,77.7172,26.1,82,0.0,990.2,8.3,42.1,38,10.4,9.0,15.0,206.0,38.0,3.9,7,5,7,1,2026-06-11T23:47:09.939736+05:30
Kochi,Kerala,9.9312,76.2673,25.2,94,0.1,1011.5,7.1,32.8,39,14.7,11.6,19.3,157.0,22.0,4.9,10,0,4,1,2026-06-11T23:47:09.939744+05:30
Thiruvananthapuram,Kerala,8.5241,76.9366,24.2,98,0.2,1011.1,7.7,40.7,27,11.7,5.7,1.5,103.0,53.0,0.5,6,0,4,1,2026-06-11T23:47:09.939751+05:30
Kozhikode,Kerala,11.2588,75.7804,23.8,100,0.1,1010.5,7.0,34.6,28,10.2,4.7,1.4,297.0,58.0,0.7,6,0,4,1,2026-06-11T23:47:09.939758+05:30
Thrissur,Kerala,10.5276,76.2144,24.6,99,0.1,1009.6,7.25,33.1,36,11.3,9.5,12.4,281.0,31.0,3.0,6,0,4,1,2026-06-11T23:47:09.939766+05:30
Kannur,Kerala,11.8745,75.3704,24.6,99,0.3,1009.4,8.7,28.1,34,16.7,11.3,11.6,235.0,34.0,2.7,6,0,4,1,2026-06-11T23:47:09.939772+05:30
Patna,Bihar,25.5941,85.1376,28.9,81,0.0,996.8,8.85,44.6,128,71.5,51.7,18.1,531.0,99.0,18.2,7,5,7,1,2026-06-11T23:47:09.939779+05:30
Gaya,Bihar,24.7914,85.0002,29.3,80,0.0,989.8,8.9,49.0,154,76.6,61.5,12.2,435.0,121.0,18.6,7,5,7,1,2026-06-11T23:47:09.939786+05:30
Muzaffarpur,Bihar,26.1209,85.3647,27.4,82,0.0,997.2,8.85,45.7,118,68.7,47.5,22.1,657.0,82.0,15.9,7,5,7,1,2026-06-11T23:47:09.939794+05:30
Bhagalpur,Bihar,25.2425,87.0117,27.8,83,0.0,998.4,8.75,37.4,146,63.1,48.1,10.6,351.0,116.0,13.1,7,5,7,1,2026-06-11T23:47:09.939801+05:30
Ranchi,Jharkhand,23.3441,85.3096,23.8,83,0.0,934.9,9.0,40.7,131,90.1,60.1,19.3,416.0,80.0,13.0,3,5,7,1,2026-06-11T23:47:09.939807+05:30
Jamshedpur,Jharkhand,22.8046,86.2029,26.3,95,0.0,988.1,8.5,37.8,153,65.7,51.3,12.0,354.0,92.0,15.6,7,5,7,1,2026-06-11T23:47:09.939814+05:30
Dhanbad,Jharkhand,23.7957,86.4304,26.2,92,0.0,977.0,8.45,36.0,160,102.0,83.1,51.1,644.0,55.0,102.0,7,5,7,1,2026-06-11T23:47:09.939821+05:30
Bokaro,Jharkhand,23.6693,86.1511,26.8,88,0.0,980.8,8.85,48.2,164,116.4,94.5,47.8,1541.0,64.0,116.0,7,5,7,1,2026-06-11T23:47:09.939829+05:30
Bhubaneswar,Odisha,20.2961,85.8245,27.1,97,0.4,1000.3,9.05,45.4,152,54.2,47.0,21.8,361.0,51.0,6.4,10,5,4,1,2026-06-11T23:47:09.939835+05:30
Cuttack,Odisha,20.4625,85.8828,26.8,96,0.2,1002.1,9.15,43.2,152,54.2,47.0,21.8,355.0,51.0,6.4,10,5,4,1,2026-06-11T23:47:09.939842+05:30
Rourkela,Odisha,22.2604,84.8536,27.7,77,0.0,982.2,8.5,33.1,153,95.2,74.7,29.2,809.0,71.0,22.8,7,5,7,1,2026-06-11T23:47:09.939849+05:30
Raipur,Chhattisgarh,21.2514,81.6296,31.5,48,0.0,970.8,8.9,43.2,115,70.5,59.8,55.7,272.0,33.0,60.0,0,5,7,1,2026-06-11T23:47:09.939856+05:30
Bhilai,Chhattisgarh,21.1938,81.3509,31.3,50,0.0,971.2,8.9,40.3,111,72.2,60.1,52.8,349.0,35.0,49.8,0,5,7,1,2026-06-11T23:47:09.939862+05:30
Guwahati,Assam,26.1158,91.7086,24.4,99,0.1,1000.6,8.75,22.7,74,9.2,7.6,9.2,507.0,61.0,1.6,6,5,4,1,2026-06-11T23:47:09.939869+05:30
Agartala,Tripura,23.8315,91.2868,26.3,98,0.0,1004.3,8.85,27.4,99,51.1,41.1,19.1,244.0,62.0,2.9,7,5,4,1,2026-06-11T23:47:09.939876+05:30
Shillong,Meghalaya,25.5788,91.8933,19.0,98,0.0,856.5,8.4,22.7,55,24.9,19.8,10.7,336.0,50.0,1.7,3,10,7,1,2026-06-11T23:47:09.939883+05:30
Imphal,Manipur,24.817,93.9368,22.2,98,0.1,922.3,9.1,25.6,79,18.8,16.0,10.3,346.0,52.0,2.4,6,5,7,1,2026-06-11T23:47:09.939890+05:30
Aizawl,Mizoram,23.7271,92.7176,19.5,99,0.0,891.0,9.0,22.3,70,28.9,23.3,16.4,264.0,25.0,2.0,3,10,7,1,2026-06-11T23:47:09.939897+05:30
Kohima,Nagaland,25.6701,94.1077,19.7,91,0.0,854.8,9.25,24.8,63,24.1,17.5,9.8,310.0,51.0,1.3,3,10,7,1,2026-06-11T23:47:09.939904+05:30
Gangtok,Sikkim,27.3314,88.6138,16.5,90,0.0,836.2,9.25,40.0,80,30.2,22.1,9.3,544.0,120.0,4.2,3,10,7,0,2026-06-11T23:47:09.939911+05:30
Siliguri,West Bengal,26.7271,88.3953,24.9,91,0.0,991.0,8.75,28.1,100,60.8,43.1,15.0,394.0,112.0,7.0,3,5,7,1,2026-06-11T23:47:13.208230+05:30
Durgapur,West Bengal,23.5204,87.3119,26.0,96,0.0,992.2,8.95,46.1,156,89.6,76.6,29.1,544.0,82.0,31.2,7,5,7,1,2026-06-11T23:47:13.208263+05:30
Asansol,West Bengal,23.6739,86.9524,25.8,95,0.0,990.7,8.85,45.0,154,93.6,76.8,36.4,516.0,67.0,44.3,7,5,7,1,2026-06-11T23:47:13.208273+05:30
Pondicherry,Puducherry,11.9139,79.8145,27.7,81,0.0,1008.2,6.95,44.6,61,21.5,15.1,15.3,280.0,60.0,11.6,7,0,4,1,2026-06-11T23:47:13.208283+05:30
Port Blair,Andaman and Nicobar Islands,11.6234,92.7265,26.9,87,0.0,1008.6,2.05,56.5,22,10.8,6.2,0.3,85.0,48.0,0.2,7,0,0,1,2026-06-11T23:47:13.208293+05:30
Haridwar,Uttarakhand,29.9457,78.1642,24.5,85,0.0,969.1,7.65,55.4,129,143.0,61.0,9.1,291.0,107.0,8.0,3,5,7,1,2026-06-11T23:47:13.208302+05:30
Rishikesh,Uttarakhand,30.0869,78.2676,22.5,94,0.0,962.0,7.7,44.6,113,148.5,51.9,6.5,274.0,118.0,6.2,3,5,7,1,2026-06-11T23:47:13.208310+05:30
Nainital,Uttarakhand,29.3919,79.4542,14.3,100,0.0,802.9,8.1,35.3,124,61.0,27.5,6.0,260.0,115.0,2.0,3,10,7,0,2026-06-11T23:47:13.208318+05:30
Mussoorie,Uttarakhand,30.4599,78.0664,14.3,99,0.0,799.0,8.15,44.3,119,130.4,49.5,19.1,307.0,94.0,8.1,3,10,7,0,2026-06-11T23:47:13.208327+05:30
Dharamshala,Himachal Pradesh,32.219,76.3234,23.3,52,0.0,865.1,8.2,35.6,57,17.2,15.8,18.7,385.0,33.0,0.8,0,5,7,0,2026-06-11T23:47:13.208335+05:30
Dalhousie,Himachal Pradesh,32.5387,75.971,15.7,75,0.0,800.1,8.4,35.6,130,50.4,43.4,44.1,606.0,69.0,4.3,3,5,7,0,2026-06-11T23:47:13.208344+05:30
Patiala,Punjab,30.3398,76.3869,26.3,78,0.0,970.7,7.65,54.4,1718,143.0,58.0,6.4,277.0,116.0,6.6,7,5,7,1,2026-06-11T23:47:13.208351+05:30
Bhatinda,Punjab,30.211,74.9455,30.3,62,0.0,974.8,8.35,87.1,190,273.8,105.2,8.7,322.0,125.0,10.6,3,5,7,1,2026-06-11T23:47:13.208359+05:30
Rohtak,Haryana,28.8955,76.6066,29.4,66,0.0,975.9,7.85,44.6,823,332.5,112.0,17.8,251.0,114.0,21.9,7,5,7,1,2026-06-11T23:47:13.208366+05:30
Panipat,Haryana,29.3909,76.9635,27.0,83,0.0,974.7,7.7,44.3,1678,165.8,76.1,12.4,271.0,118.0,14.2,7,5,7,1,2026-06-11T23:47:13.208373+05:30
Mathura,Uttar Pradesh,27.4924,77.6737,26.3,86,0.0,980.9,8.15,69.1,488,298.0,100.1,9.7,208.0,120.0,9.7,7,5,7,1,2026-06-11T23:47:13.208381+05:30
Vrindavan,Uttar Pradesh,27.5823,77.7027,26.4,86,0.1,981.3,8.1,69.8,488,298.0,100.1,9.7,209.0,120.0,9.7,10,5,7,1,2026-06-11T23:47:13.208388+05:30
Ayodhya,Uttar Pradesh,26.7922,82.1998,28.9,74,0.0,990.7,8.05,43.2,144,58.1,36.3,11.5,489.0,112.0,9.9,7,5,7,1,2026-06-11T23:47:13.208396+05:30
Ratlam,Madhya Pradesh,23.3315,75.0367,29.4,65,0.0,950.7,8.55,48.2,82,45.9,28.3,3.6,163.0,92.0,8.7,7,5,7,1,2026-06-11T23:47:13.208403+05:30
Sagar,Madhya Pradesh,23.8388,78.7378,32.1,48,0.0,945.8,8.75,42.8,66,23.1,17.5,8.5,143.0,65.0,2.9,0,5,7,1,2026-06-11T23:47:13.208410+05:30
Satna,Madhya Pradesh,24.6005,80.8322,29.7,61,0.1,966.5,8.85,52.2,74,40.4,33.4,10.1,291.0,102.0,8.2,10,5,7,1,2026-06-11T23:47:13.208426+05:30
Akola,Maharashtra,20.7002,77.0082,34.7,36,0.0,971.0,8.8,43.2,73,42.8,30.2,23.5,185.0,58.0,7.9,0,5,7,1,2026-06-11T23:47:13.208442+05:30
Amravati,Maharashtra,20.9374,77.7796,34.1,40,0.0,963.0,8.85,43.6,74,47.8,34.8,33.1,337.0,43.0,7.9,0,5,7,1,2026-06-11T23:47:13.208458+05:30
Latur,Maharashtra,18.4088,76.5604,29.1,43,0.0,937.0,8.85,37.8,63,31.2,21.0,9.1,245.0,71.0,3.7,4,5,7,0,2026-06-11T23:47:13.208473+05:30
Nanded,Maharashtra,19.1383,77.3091,32.8,34,0.0,964.7,8.85,43.9,76,64.3,47.8,40.0,379.0,43.0,9.5,0,5,7,0,2026-06-11T23:47:13.208481+05:30
Gulbarga,Karnataka,17.3297,76.8343,28.9,64,0.0,956.8,8.25,39.6,60,30.9,21.2,19.3,176.0,50.0,3.7,7,5,7,1,2026-06-11T23:47:13.208488+05:30
Bidar,Karnataka,17.9104,77.5199,28.9,48,0.0,933.0,8.95,37.8,70,32.6,21.8,17.0,246.0,67.0,4.8,4,5,7,1,2026-06-11T23:47:13.208498+05:30
Hospet,Karnataka,15.2689,76.3909,25.0,84,0.0,955.9,8.8,54.7,49,10.6,7.0,5.6,134.0,45.0,1.6,7,5,7,1,2026-06-11T23:47:13.208507+05:30
Tirupur,Tamil Nadu,11.1085,77.3411,24.4,88,0.0,976.1,8.35,60.1,43,12.6,10.9,17.8,152.0,34.0,4.8,3,5,7,1,2026-06-11T23:47:13.208515+05:30
Alappuzha,Kerala,9.4981,76.3388,25.4,96,0.3,1011.9,7.1,36.4,32,12.7,7.2,6.3,91.0,49.0,2.0,10,0,4,1,2026-06-11T23:47:13.208522+05:30
Munnar,Kerala,10.0889,77.0595,17.5,100,0.1,858.3,6.65,37.8,25,3.0,2.9,8.0,112.0,33.0,1.7,6,10,7,1,2026-06-11T23:47:13.208530+05:30
Silchar,Assam,24.8333,92.7789,25.1,98,0.2,1004.0,8.8,31.0,95,94.3,79.2,31.3,526.0,32.0,10.8,10,5,4,1,2026-06-11T23:47:13.208538+05:30
Dibrugarh,Assam,27.4728,94.912,26.2,87,0.0,994.1,8.7,23.4,64,29.4,27.9,24.4,621.0,13.0,1.8,7,5,7,1,2026-06-11T23:47:13.208545+05:30
