city,state,latitude,longitude,temp,humidity,rain,pressure,uv_index,wind_gusts,aqi,pm10,pm2_5,mosquito_risk,arthritis_risk,migraine_risk,frizz_risk,updated_at
Delhi,Delhi,28.6139,77.209,28.9,37,0.0,981.6,6.85,40.7,152,192.8,34.9,4,5,7,0,2026-04-05T15:11:58.697228+05:30
Mumbai,Maharashtra,19.076,72.8777,27.8,67,0.0,1008.4,7.9,23.8,69,36.2,19.8,7,0,4,1,2026-04-05T15:11:58.697273+05:30
Bangalore,Karnataka,12.9716,77.5946,30.7,46,0.0,910.9,9.65,32.4,111,35.5,29.7,0,5,7,1,2026-04-05T15:11:58.697289+05:30
Hyderabad,Telangana,17.385,78.4867,35.6,30,0.0,951.2,9.1,27.4,131,43.4,36.0,0,5,10,0,2026-04-05T15:11:58.697299+05:30
Chennai,Tamil Nadu,13.0827,80.2707,34.6,56,0.0,1004.4,9.3,31.7,59,27.0,21.7,0,5,4,1,2026-04-05T15:11:58.697308+05:30
Kolkata,West Bengal,22.5726,88.3639,33.9,45,0.0,1003.1,8.6,29.2,149,53.9,34.7,0,5,4,1,2026-04-05T15:11:58.697317+05:30
Pune,Maharashtra,18.5204,73.8567,32.5,39,0.0,948.0,8.5,40.7,79,43.7,20.8,0,5,7,1,2026-04-05T15:11:58.697330+05:30
Ahmedabad,Gujarat,23.0225,72.5714,34.9,20,0.0,1001.2,7.9,25.6,55,36.1,11.1,0,5,4,0,2026-04-05T15:11:58.697338+05:30
Jaipur,Rajasthan,26.9124,75.7873,30.9,21,0.0,958.3,7.55,37.8,80,184.9,23.6,0,5,7,0,2026-04-05T15:11:58.697346+05:30
Lucknow,Uttar Pradesh,26.8467,80.9462,30.3,45,0.0,991.2,7.4,46.8,112,82.0,20.4,0,5,7,1,2026-04-05T15:11:58.697353+05:30
Kanpur,Uttar Pradesh,26.4499,80.3319,30.2,45,0.0,989.6,7.45,40.7,131,248.7,34.2,0,5,7,1,2026-04-05T15:11:58.697361+05:30
Chandigarh,Chandigarh,30.7333,76.7794,29.3,28,0.0,967.2,6.85,31.7,75,58.4,15.7,4,5,7,0,2026-04-05T15:11:58.697368+05:30
Srinagar,Jammu and Kashmir,34.0837,74.7973,16.3,56,0.0,839.5,7.1,19.1,60,28.5,9.1,0,5,7,0,2026-04-05T15:11:58.697376+05:30
Jammu,Jammu and Kashmir,32.7266,74.857,28.2,37,0.0,972.1,7.5,28.4,65,53.1,14.8,4,5,7,0,2026-04-05T15:11:58.697383+05:30
Amritsar,Punjab,31.634,74.8723,28.5,32,0.0,980.1,7.45,26.3,98,62.6,20.2,4,5,7,0,2026-04-05T15:11:58.697390+05:30
Ludhiana,Punjab,30.901,75.8573,29.0,33,0.0,977.9,7.05,31.0,91,85.0,20.3,4,5,7,0,2026-04-05T15:11:58.697397+05:30
Jalandhar,Punjab,31.326,75.5762,28.8,33,0.0,979.2,7.25,24.8,85,74.3,18.3,4,5,7,0,2026-04-05T15:11:58.697406+05:30
Dehradun,Uttarakhand,30.6284,78.0322,17.4,63,0.0,828.4,6.65,39.2,57,20.5,6.8,3,5,7,0,2026-04-05T15:11:58.697413+05:30
Shimla,Himachal Pradesh,31.1048,77.1734,14.4,69,0.0,782.7,5.35,32.0,59,37.4,14.3,3,5,3,0,2026-04-05T15:11:58.697420+05:30
Manali,Himachal Pradesh,32.2396,77.1887,17.7,54,0.0,817.2,9.4,27.4,65,11.2,4.5,0,5,7,0,2026-04-05T15:11:58.697427+05:30
Gurgaon,Haryana,28.4595,77.0266,28.8,41,0.0,980.3,6.65,35.6,186,653.8,76.8,4,5,7,0,2026-04-05T15:11:58.697435+05:30
Noida,Uttar Pradesh,28.5355,77.391,29.3,37,0.0,983.2,6.9,39.2,186,653.8,76.8,4,5,7,0,2026-04-05T15:11:58.697441+05:30
Ghaziabad,Uttar Pradesh,28.6692,77.4538,29.5,36,0.0,981.2,6.05,42.1,148,135.0,28.6,4,5,7,0,2026-04-05T15:11:58.697448+05:30
Faridabad,Haryana,28.4089,77.3178,28.4,41,0.0,982.6,6.2,36.4,186,653.8,76.8,4,5,7,0,2026-04-05T15:11:58.697455+05:30
Meerut,Uttar Pradesh,28.9845,77.7064,31.1,27,0.0,979.5,6.5,34.6,148,135.0,28.6,0,5,7,0,2026-04-05T15:11:58.697464+05:30
Agra,Uttar Pradesh,27.1767,78.0081,29.3,45,0.0,986.6,7.3,32.4,308,357.6,44.9,4,5,7,1,2026-04-05T15:11:58.697474+05:30
Varanasi,Uttar Pradesh,25.3176,82.9739,31.9,46,0.0,995.0,8.1,35.6,84,35.7,18.3,0,5,7,1,2026-04-05T15:11:58.697483+05:30
Prayagraj,Uttar Pradesh,25.4358,81.8463,32.1,42,0.0,993.4,7.95,32.4,87,37.6,17.2,0,5,7,1,2026-04-05T15:11:58.697490+05:30
Gorakhpur,Uttar Pradesh,26.7606,83.3732,33.8,24,0.0,994.1,7.85,45.4,98,49.1,16.1,0,5,7,0,2026-04-05T15:11:58.697496+05:30
Bareilly,Uttar Pradesh,28.367,79.4304,28.4,48,0.0,985.1,7.2,35.3,81,32.9,13.0,4,5,7,1,2026-04-05T15:11:58.697503+05:30
Aligarh,Uttar Pradesh,27.8974,78.088,24.6,66,0.0,984.7,7.1,45.0,180,232.8,41.6,3,5,7,1,2026-04-05T15:11:58.697511+05:30
Moradabad,Uttar Pradesh,28.8386,78.7733,29.3,38,0.0,981.7,7.0,26.3,90,43.3,12.6,4,5,7,0,2026-04-05T15:11:58.697520+05:30
Saharanpur,Uttar Pradesh,29.9637,77.546,31.1,24,0.0,973.3,6.6,30.6,88,66.8,16.3,0,5,7,0,2026-04-05T15:11:58.697526+05:30
Jhansi,Uttar Pradesh,25.4484,78.5685,33.4,23,0.0,975.2,7.85,28.4,57,23.0,11.0,0,5,7,0,2026-04-05T15:12:01.953626+05:30
Surat,Gujarat,21.1702,72.8311,29.8,48,0.0,1006.8,7.65,27.7,79,43.5,34.5,4,5,4,1,2026-04-05T15:12:01.953659+05:30
Vadodara,Gujarat,22.3072,73.1812,33.8,28,0.0,1003.4,7.9,20.5,76,26.3,11.7,0,5,4,0,2026-04-05T15:12:01.953671+05:30
Rajkot,Gujarat,22.3039,70.8022,33.5,27,0.0,993.9,7.65,33.5,54,29.2,9.4,0,5,7,0,2026-04-05T15:12:01.953681+05:30
Thane,Maharashtra,19.2183,72.9781,30.3,52,0.0,1007.9,7.9,34.6,69,36.2,19.8,0,5,4,1,2026-04-05T15:12:01.953690+05:30
Nagpur,Maharashtra,21.1458,79.0882,35.0,27,0.0,970.8,8.7,31.3,97,38.4,27.0,0,5,7,0,2026-04-05T15:12:01.953699+05:30
Nashik,Maharashtra,19.9975,73.7898,29.8,42,0.0,944.9,8.15,36.4,54,37.8,13.3,4,5,7,0,2026-04-05T15:12:01.953707+05:30
Aurangabad,Maharashtra,19.8762,75.3433,34.0,25,0.0,942.6,8.85,40.0,58,44.2,14.8,0,5,7,0,2026-04-05T15:12:01.953715+05:30
Solapur,Maharashtra,17.6599,75.9064,36.3,22,0.0,955.5,8.6,29.9,78,24.3,13.0,0,5,10,0,2026-04-05T15:12:01.953724+05:30
Kolhapur,Maharashtra,16.705,74.2433,31.8,37,0.0,947.6,9.05,44.6,71,30.7,15.8,0,5,7,0,2026-04-05T15:12:01.953733+05:30
Goa,Goa,15.2993,74.124,31.9,57,0.0,997.4,9.05,37.4,63,41.6,16.3,0,5,7,1,2026-04-05T15:12:01.953741+05:30
Jodhpur,Rajasthan,26.2389,73.0243,32.0,22,0.0,982.6,7.6,26.3,77,72.9,11.8,0,5,7,0,2026-04-05T15:12:01.953749+05:30
Udaipur,Rajasthan,24.5854,73.7125,29.0,25,0.0,946.2,8.3,35.3,61,40.2,8.4,4,5,7,0,2026-04-05T15:12:01.953757+05:30
Kota,Rajasthan,25.2138,75.8648,33.5,17,0.0,976.9,7.6,29.9,62,57.0,13.0,0,5,7,0,2026-04-05T15:12:01.953766+05:30
Bikaner,Rajasthan,28.0229,73.3119,31.2,25,0.0,981.7,7.6,27.4,50,19.0,9.2,0,5,7,0,2026-04-05T15:12:01.953774+05:30
Ajmer,Rajasthan,26.4499,74.6399,30.0,24,0.0,953.6,7.75,30.6,54,59.3,12.0,4,5,7,0,2026-04-05T15:12:01.953782+05:30
Gwalior,Madhya Pradesh,26.2183,78.1828,32.6,26,0.0,980.6,7.6,50.8,63,35.0,12.5,0,5,7,0,2026-04-05T15:12:01.953791+05:30
Indore,Madhya Pradesh,22.7196,75.8577,30.8,25,0.0,947.0,8.3,29.5,65,17.0,10.2,0,5,7,0,2026-04-05T15:12:01.953799+05:30
Bhopal,Madhya Pradesh,23.2599,77.4126,32.4,23,0.0,952.1,8.3,34.6,59,16.9,7.6,0,5,7,0,2026-04-05T15:12:01.953806+05:30
Jabalpur,Madhya Pradesh,23.1815,79.9864,32.4,34,0.0,959.6,8.5,33.5,76,44.0,17.9,0,5,7,0,2026-04-05T15:12:01.953814+05:30
Ujjain,Madhya Pradesh,23.1765,75.7885,31.3,22,0.0,952.7,8.2,32.4,61,17.9,7.6,0,5,7,0,2026-04-05T15:12:01.953823+05:30
Visakhapatnam,Andhra Pradesh,17.6868,83.2185,32.0,63,0.0,1001.5,9.1,36.7,75,44.1,38.9,3,5,4,1,2026-04-05T15:12:01.953831+05:30
Vijayawada,Andhra Pradesh,16.5062,80.648,35.0,51,0.0,999.6,8.45,23.8,72,37.8,32.0,0,5,7,1,2026-04-05T15:12:01.953838+05:30
Guntur,Andhra Pradesh,16.3067,80.4365,37.5,32,0.0,1000.0,8.7,33.5,72,38.0,31.5,0,5,7,1,2026-04-05T15:12:01.953845+05:30
Nellore,Andhra Pradesh,14.4426,79.9865,35.5,48,0.0,1002.8,9.3,27.7,70,30.5,26.0,0,5,7,1,2026-04-05T15:12:01.953853+05:30
Kurnool,Andhra Pradesh,15.8281,78.0373,38.4,25,0.0,973.7,9.2,33.8,105,46.6,39.1,0,5,10,0,2026-04-05T15:12:01.953861+05:30
Kakinada,Andhra Pradesh,16.9891,82.2475,32.2,64,0.0,1005.2,9.15,29.9,55,22.6,16.7,3,5,4,1,2026-04-05T15:12:01.953868+05:30
Tirupati,Andhra Pradesh,13.6288,79.4192,36.2,39,0.0,988.6,8.6,36.0,77,29.2,24.2,0,5,10,1,2026-04-05T15:12:01.953874+05:30
Warangal,Telangana,17.9689,79.5941,34.3,45,0.0,976.3,8.8,37.4,152,70.8,57.7,0,5,7,1,2026-04-05T15:12:01.953880+05:30
Nizamabad,Telangana,18.6725,78.0941,35.5,25,0.0,963.0,8.85,55.1,115,33.5,23.6,0,5,10,0,2026-04-05T15:12:01.953887+05:30
Mysore,Karnataka,12.2958,76.6396,32.0,42,0.0,927.3,9.15,33.1,85,32.2,27.0,0,5,7,1,2026-04-05T15:12:01.953893+05:30
Mangalore,Karnataka,12.9141,74.856,29.2,77,0.0,1005.5,9.15,34.2,66,24.0,13.7,7,5,4,1,2026-04-05T15:12:01.953900+05:30
Hubli-Dharwad,Karnataka,15.3647,75.124,33.7,30,0.0,939.9,9.25,37.1,64,21.2,16.8,0,5,7,0,2026-04-05T15:12:01.953907+05:30
Belgaum,Karnataka,15.8497,74.4977,31.0,39,0.0,925.2,9.3,38.5,61,22.1,12.6,0,5,7,0,2026-04-05T15:12:05.202834+05:30
Coimbatore,Tamil Nadu,11.0168,76.9558,32.9,48,0.0,959.9,9.5,49.7,92,28.9,25.1,0,5,7,1,2026-04-05T15:12:05.202868+05:30
Madurai,Tamil Nadu,9.9252,78.1198,37.6,34,0.0,989.1,2.05,28.4,103,26.2,23.0,0,5,6,1,2026-04-05T15:12:05.202881+05:30
Trichy,Tamil Nadu,10.7905,78.7047,38.4,34,0.0,995.6,9.2,38.5,101,39.1,34.0,0,5,10,1,2026-04-05T15:12:05.202892+05:30
Salem,Tamil Nadu,11.6643,78.146,37.3,34,0.0,974.1,9.2,27.0,118,40.3,34.7,0,5,10,1,2026-04-05T15:12:05.202901+05:30
Tirunelveli,Tamil Nadu,8.7139,77.7567,38.5,28,0.0,999.2,9.4,24.5,62,15.4,13.5,0,5,10,1,2026-04-05T15:12:05.202911+05:30
Vellore,Tamil Nadu,12.9165,79.1325,35.7,38,0.0,981.2,9.45,36.4,117,39.2,34.1,0,5,10,1,2026-04-05T15:12:05.202920+05:30
Erode,Tamil Nadu,11.341,77.7172,38.8,32,0.0,985.2,9.45,29.5,112,34.8,29.8,0,5,10,1,2026-04-05T15:12:05.202930+05:30
Kochi,Kerala,9.9312,76.2673,29.4,78,0.0,1006.7,8.25,29.9,65,18.7,15.3,7,5,4,1,2026-04-05T15:12:05.202939+05:30
Thiruvananthapuram,Kerala,8.5241,76.9366,29.3,78,0.0,1005.7,9.2,36.0,57,20.4,14.8,7,5,4,1,2026-04-05T15:12:05.202948+05:30
Kozhikode,Kerala,11.2588,75.7804,30.3,76,0.0,1006.1,9.2,32.4,56,28.5,16.5,3,5,4,1,2026-04-05T15:12:05.202956+05:30
Thrissur,Kerala,10.5276,76.2144,33.0,62,0.0,1005.1,9.15,35.6,64,22.7,18.6,3,5,4,1,2026-04-05T15:12:05.202965+05:30
Kannur,Kerala,11.8745,75.3704,31.5,65,0.0,1005.5,9.2,36.7,68,28.6,16.1,3,5,4,1,2026-04-05T15:12:05.202973+05:30
Patna,Bihar,25.5941,85.1376,34.6,33,0.0,997.1,8.25,45.0,84,30.7,16.4,0,5,7,0,2026-04-05T15:12:05.202980+05:30
Gaya,Bihar,24.7914,85.0002,34.3,33,0.0,990.8,8.35,46.8,76,28.0,19.1,0,5,7,0,2026-04-05T15:12:05.202987+05:30
Muzaffarpur,Bihar,26.1209,85.3647,35.1,26,0.0,996.8,8.2,34.6,88,38.0,15.9,0,5,10,0,2026-04-05T15:12:05.202994+05:30
Bhagalpur,Bihar,25.2425,87.0117,34.2,36,0.0,998.0,8.35,34.6,82,32.5,19.4,0,5,7,1,2026-04-05T15:12:05.203002+05:30
Ranchi,Jharkhand,23.3441,85.3096,31.2,39,0.0,936.5,8.9,46.4,85,39.6,23.3,0,5,7,0,2026-04-05T15:12:05.203009+05:30
Jamshedpur,Jharkhand,22.8046,86.2029,34.8,38,0.0,988.9,8.6,23.4,108,52.3,33.2,0,5,7,1,2026-04-05T15:12:05.203016+05:30
Dhanbad,Jharkhand,23.7957,86.4304,35.0,30,0.0,977.6,8.7,39.6,103,43.5,28.4,0,5,7,0,2026-04-05T15:12:05.203024+05:30
Bokaro,Jharkhand,23.6693,86.1511,34.7,32,0.0,981.7,8.65,53.6,102,38.3,25.5,0,5,7,0,2026-04-05T15:12:05.203031+05:30
Bhubaneswar,Odisha,20.2961,85.8245,28.0,79,0.0,1001.5,8.65,26.3,138,58.9,52.7,7,5,4,1,2026-04-05T15:12:05.203038+05:30
Cuttack,Odisha,20.4625,85.8828,28.6,74,0.0,1003.3,8.6,28.8,138,58.9,52.7,7,5,4,1,2026-04-05T15:12:05.203045+05:30
Rourkela,Odisha,22.2604,84.8536,34.9,38,0.0,982.8,8.65,33.8,88,37.4,28.0,0,5,7,1,2026-04-05T15:12:05.203052+05:30
Raipur,Chhattisgarh,21.2514,81.6296,35.8,31,0.0,972.1,8.7,31.3,144,40.2,33.6,0,5,10,0,2026-04-05T15:12:05.203059+05:30
Bhilai,Chhattisgarh,21.1938,81.3509,35.7,34,0.0,972.5,8.7,32.0,137,37.4,29.8,0,5,10,1,2026-04-05T15:12:05.203066+05:30
Guwahati,Assam,26.1158,91.7086,33.0,42,0.0,996.8,7.45,51.8,142,34.5,22.8,0,5,7,1,2026-04-05T15:12:05.203072+05:30
Agartala,Tripura,23.8315,91.2868,29.3,79,0.0,1003.9,8.4,27.0,115,64.0,51.9,7,5,4,1,2026-04-05T15:12:05.203099+05:30
Shillong,Meghalaya,25.5788,91.8933,19.4,65,0.0,854.9,8.1,67.3,102,32.0,23.2,3,5,7,0,2026-04-05T15:12:05.203109+05:30
Imphal,Manipur,24.817,93.9368,21.6,78,0.0,920.9,8.85,83.9,140,45.1,36.6,3,5,7,1,2026-04-05T15:12:05.203117+05:30
Aizawl,Mizoram,23.7271,92.7176,21.9,81,0.0,891.7,8.5,55.8,145,49.7,40.4,3,5,7,1,2026-04-05T15:12:05.203125+05:30
Kohima,Nagaland,25.6701,94.1077,21.9,55,0.0,853.5,8.2,95.0,107,38.2,29.7,0,5,7,0,2026-04-05T15:12:05.203132+05:30
Gangtok,Sikkim,27.3314,88.6138,18.8,78,0.0,836.7,8.35,19.8,106,36.6,25.2,3,5,7,0,2026-04-05T15:12:05.203139+05:30
Siliguri,West Bengal,26.7271,88.3953,28.3,54,0.0,990.5,8.2,34.9,157,57.5,40.5,4,5,7,1,2026-04-05T15:12:08.453941+05:30
Durgapur,West Bengal,23.5204,87.3119,35.7,32,0.0,993.0,8.0,38.2,114,48.3,27.5,0,5,10,1,2026-04-05T15:12:08.453972+05:30
Asansol,West Bengal,23.6739,86.9524,35.5,33,0.0,991.5,8.05,36.0,91,46.2,27.8,0,5,10,1,2026-04-05T15:12:08.453983+05:30
Pondicherry,Puducherry,11.9139,79.8145,37.6,38,0.0,1004.0,9.35,27.7,57,28.1,24.0,0,5,7,1,2026-04-05T15:12:08.453991+05:30
Port Blair,Andaman and Nicobar Islands,11.6234,92.7265,29.5,71,0.0,1004.9,9.25,19.8,45,16.4,11.1,7,5,4,1,2026-04-05T15:12:08.453999+05:30
Haridwar,Uttarakhand,29.9457,78.1642,29.5,35,0.0,972.2,6.7,18.7,65,38.2,11.5,4,5,7,0,2026-04-05T15:12:08.454007+05:30
Rishikesh,Uttarakhand,30.0869,78.2676,27.8,41,0.0,964.9,6.65,22.3,54,32.4,9.4,4,5,7,0,2026-04-05T15:12:08.454015+05:30
Nainital,Uttarakhand,29.3919,79.4542,18.7,67,0.0,804.1,6.8,28.1,57,29.7,11.4,3,5,7,0,2026-04-05T15:12:08.454023+05:30
Mussoorie,Uttarakhand,30.4599,78.0664,18.6,55,0.0,801.3,5.8,45.7,53,30.4,9.4,0,5,3,0,2026-04-05T15:12:08.454031+05:30
Dharamshala,Himachal Pradesh,32.219,76.3234,18.4,71,0.0,867.9,7.3,32.8,57,20.7,6.7,3,5,7,0,2026-04-05T15:12:08.454038+05:30
Dalhousie,Himachal Pradesh,32.5387,75.971,17.9,53,0.0,803.4,7.25,25.2,56,50.6,13.4,0,5,7,0,2026-04-05T15:12:08.454046+05:30
Patiala,Punjab,30.3398,76.3869,29.2,33,0.0,977.7,6.75,34.2,110,451.7,47.3,4,5,7,0,2026-04-05T15:12:08.454054+05:30
Bhatinda,Punjab,30.211,74.9455,29.1,32,0.0,983.9,7.3,30.2,88,70.1,19.4,4,5,7,0,2026-04-05T15:12:08.454061+05:30
Rohtak,Haryana,28.8955,76.6066,30.2,33,0.0,980.8,5.7,36.7,152,283.1,40.0,0,5,3,0,2026-04-05T15:12:08.454068+05:30
Panipat,Haryana,29.3909,76.9635,30.4,30,0.0,979.4,6.75,32.0,215,495.5,53.8,0,5,7,0,2026-04-05T15:12:08.454102+05:30
Mathura,Uttar Pradesh,27.4924,77.6737,28.2,51,0.0,986.5,6.3,31.7,217,308.3,45.4,4,5,7,1,2026-04-05T15:12:08.454120+05:30
Vrindavan,Uttar Pradesh,27.5823,77.7027,26.9,55,0.0,987.0,6.05,42.5,217,308.3,45.4,4,5,7,1,2026-04-05T15:12:08.454128+05:30
Ayodhya,Uttar Pradesh,26.7922,82.1998,32.0,38,0.0,992.7,7.6,46.1,105,37.1,14.6,0,5,7,0,2026-04-05T15:12:08.454136+05:30
Ratlam,Madhya Pradesh,23.3315,75.0367,30.9,25,0.0,954.5,8.1,33.5,55,17.7,6.8,0,5,7,0,2026-04-05T15:12:08.454143+05:30
Sagar,Madhya Pradesh,23.8388,78.7378,32.3,23,0.0,948.5,7.8,34.2,58,12.0,5.9,0,5,7,0,2026-04-05T15:12:08.454150+05:30
Satna,Madhya Pradesh,24.6005,80.8322,32.1,36,0.0,969.4,8.3,30.2,71,30.4,11.6,0,5,7,0,2026-04-05T15:12:08.454157+05:30
Akola,Maharashtra,20.7002,77.0082,35.9,26,0.0,973.1,8.65,33.8,72,39.8,15.3,0,5,10,0,2026-04-05T15:12:08.454164+05:30
Amravati,Maharashtra,20.9374,77.7796,36.0,23,0.0,965.1,8.65,34.2,79,38.3,15.6,0,5,10,0,2026-04-05T15:12:08.454172+05:30
Latur,Maharashtra,18.4088,76.5604,34.0,23,0.0,938.4,9.0,30.2,91,33.3,14.3,0,5,7,0,2026-04-05T15:12:08.454179+05:30
Nanded,Maharashtra,19.1383,77.3091,35.8,25,0.0,966.8,8.85,28.4,101,31.5,17.2,0,5,10,0,2026-04-05T15:12:08.454186+05:30
Gulbarga,Karnataka,17.3297,76.8343,36.3,22,0.0,956.8,8.95,34.6,110,37.1,28.2,0,5,10,0,2026-04-05T15:12:08.454195+05:30
Bidar,Karnataka,17.9104,77.5199,34.8,23,0.0,934.1,8.9,33.5,130,45.4,34.5,0,5,7,0,2026-04-05T15:12:08.454204+05:30
Hospet,Karnataka,15.2689,76.3909,35.0,29,0.0,954.1,9.2,27.0,82,24.7,20.4,0,5,7,0,2026-04-05T15:12:08.454210+05:30
Tirupur,Tamil Nadu,11.1085,77.3411,35.7,39,0.0,972.3,9.55,36.0,109,33.1,28.3,0,5,10,1,2026-04-05T15:12:08.454217+05:30
Alappuzha,Kerala,9.4981,76.3388,29.4,77,0.0,1006.8,8.9,28.8,65,20.5,15.8,7,5,4,1,2026-04-05T15:12:08.454224+05:30
Munnar,Kerala,10.0889,77.0595,26.3,67,0.0,857.3,9.75,38.5,60,21.6,19.2,7,5,7,1,2026-04-05T15:12:08.454232+05:30
Silchar,Assam,24.8333,92.7789,27.7,80,0.0,1002.4,8.4,33.1,157,62.6,55.4,7,5,4,1,2026-04-05T15:12:08.454239+05:30
Dibrugarh,Assam,27.4728,94.912,23.8,86,0.0,991.4,7.5,50.4,152,55.6,42.0,3,5,7,1,2026-04-05T15:12:08.454246+05:30
