city,state,latitude,longitude,temp,humidity,rain,pressure,uv_index,wind_gusts,aqi,pm10,pm2_5,mosquito_risk,arthritis_risk,migraine_risk,frizz_risk,updated_at
Delhi,Delhi,28.6139,77.209,31.0,31,0.0,981.6,6.1,48.2,382,983.5,121.5,0,5,7,0,2026-03-16T14:31:15.991207+05:30
Mumbai,Maharashtra,19.076,72.8777,27.1,77,0.0,1008.6,7.7,18.4,105,117.6,55.2,7,0,4,1,2026-03-16T14:31:15.991251+05:30
Bangalore,Karnataka,12.9716,77.5946,30.4,38,0.0,911.9,9.35,28.4,82,26.9,22.6,0,5,7,0,2026-03-16T14:31:15.991267+05:30
Hyderabad,Telangana,17.385,78.4867,32.5,33,0.0,954.2,8.65,20.9,94,37.3,27.5,0,5,7,0,2026-03-16T14:31:15.991276+05:30
Chennai,Tamil Nadu,13.0827,80.2707,32.7,49,0.0,1007.8,9.05,31.0,36,10.0,7.7,0,5,4,1,2026-03-16T14:31:15.991285+05:30
Kolkata,West Bengal,22.5726,88.3639,29.5,64,0.0,1004.6,8.15,30.6,74,35.3,28.8,7,5,4,1,2026-03-16T14:31:15.991293+05:30
Pune,Maharashtra,18.5204,73.8567,35.5,19,0.0,948.4,8.25,39.6,94,35.6,23.2,0,5,10,0,2026-03-16T14:31:15.991306+05:30
Ahmedabad,Gujarat,23.0225,72.5714,37.2,13,0.0,1001.1,7.45,25.2,63,33.9,11.6,0,5,7,0,2026-03-16T14:31:15.991314+05:30
Jaipur,Rajasthan,26.9124,75.7873,32.9,19,0.0,958.8,6.9,33.5,160,259.8,30.5,0,5,7,0,2026-03-16T14:31:15.991321+05:30
Lucknow,Uttar Pradesh,26.8467,80.9462,31.5,32,0.0,993.5,6.65,48.6,86,59.8,34.9,0,5,7,0,2026-03-16T14:31:15.991329+05:30
Kanpur,Uttar Pradesh,26.4499,80.3319,32.2,32,0.0,991.5,6.7,35.3,111,176.5,53.1,0,5,7,0,2026-03-16T14:31:15.991336+05:30
Chandigarh,Chandigarh,30.7333,76.7794,17.8,72,0.0,970.1,5.45,55.8,66,61.5,18.8,3,5,3,0,2026-03-16T14:31:15.991343+05:30
Srinagar,Jammu and Kashmir,34.0837,74.7973,8.8,71,0.1,838.0,5.05,22.3,53,22.4,16.3,6,5,3,0,2026-03-16T14:31:15.991351+05:30
Jammu,Jammu and Kashmir,32.7266,74.857,20.0,56,0.0,975.7,6.4,38.9,65,19.7,7.6,0,5,7,0,2026-03-16T14:31:15.991358+05:30
Amritsar,Punjab,31.634,74.8723,15.4,80,0.0,983.7,5.9,34.6,79,77.8,25.5,3,5,3,0,2026-03-16T14:31:15.991364+05:30
Ludhiana,Punjab,30.901,75.8573,18.0,71,0.0,980.3,6.15,48.6,82,68.0,23.5,3,5,7,0,2026-03-16T14:31:15.991370+05:30
Jalandhar,Punjab,31.326,75.5762,17.3,76,0.0,982.2,6.3,55.4,74,83.8,24.4,3,5,7,0,2026-03-16T14:31:15.991379+05:30
Dehradun,Uttarakhand,30.6284,78.0322,15.1,52,0.0,829.1,5.25,33.1,49,49.1,12.1,0,5,3,0,2026-03-16T14:31:15.991386+05:30
Shimla,Himachal Pradesh,31.1048,77.1734,11.9,59,0.0,782.4,3.85,50.0,51,46.4,11.8,0,5,3,0,2026-03-16T14:31:15.991394+05:30
Manali,Himachal Pradesh,32.2396,77.1887,8.2,94,0.6,814.2,5.2,37.8,73,18.4,5.2,6,10,3,0,2026-03-16T14:31:15.991401+05:30
Gurgaon,Haryana,28.4595,77.0266,31.4,30,0.0,980.0,6.2,46.1,2196,2317.1,234.2,0,5,7,0,2026-03-16T14:31:15.991408+05:30
Noida,Uttar Pradesh,28.5355,77.391,31.3,32,0.0,983.1,6.1,44.6,2196,2317.1,234.2,0,5,7,0,2026-03-16T14:31:15.991416+05:30
Ghaziabad,Uttar Pradesh,28.6692,77.4538,30.8,32,0.0,981.3,6.1,45.7,105,570.0,69.8,0,5,7,0,2026-03-16T14:31:15.991423+05:30
Faridabad,Haryana,28.4089,77.3178,31.2,30,0.0,982.5,6.15,43.9,2196,2317.1,234.2,0,5,7,0,2026-03-16T14:31:15.991429+05:30
Meerut,Uttar Pradesh,28.9845,77.7064,29.7,34,0.0,980.3,5.95,53.6,105,570.0,69.8,4,5,3,0,2026-03-16T14:31:15.991436+05:30
Agra,Uttar Pradesh,27.1767,78.0081,31.8,35,0.0,987.4,6.5,34.9,992,488.0,55.4,0,5,7,0,2026-03-16T14:31:15.991443+05:30
Varanasi,Uttar Pradesh,25.3176,82.9739,32.2,39,0.0,997.5,7.35,29.9,153,64.5,39.0,0,5,7,1,2026-03-16T14:31:15.991452+05:30
Prayagraj,Uttar Pradesh,25.4358,81.8463,32.3,43,0.0,995.1,7.2,33.8,124,70.1,42.6,0,5,7,1,2026-03-16T14:31:15.991459+05:30
Gorakhpur,Uttar Pradesh,26.7606,83.3732,29.7,37,0.0,998.4,6.85,33.5,143,49.8,20.8,4,5,7,0,2026-03-16T14:31:15.991466+05:30
Bareilly,Uttar Pradesh,28.367,79.4304,29.5,37,0.0,986.7,6.3,60.8,86,61.7,21.9,4,5,7,0,2026-03-16T14:31:15.991472+05:30
Aligarh,Uttar Pradesh,27.8974,78.088,31.1,33,0.0,984.9,6.25,37.4,664,763.7,89.2,0,5,7,0,2026-03-16T14:31:15.991479+05:30
Moradabad,Uttar Pradesh,28.8386,78.7733,29.7,31,0.0,983.3,6.15,69.1,97,61.0,19.9,4,5,7,0,2026-03-16T14:31:15.991485+05:30
Saharanpur,Uttar Pradesh,29.9637,77.546,25.6,42,0.0,976.3,5.75,41.8,79,77.3,22.6,4,5,3,0,2026-03-16T14:31:15.991491+05:30
Jhansi,Uttar Pradesh,25.4484,78.5685,34.8,22,0.0,977.2,7.15,27.4,74,111.5,19.8,0,5,7,0,2026-03-16T14:31:19.341292+05:30
Surat,Gujarat,21.1702,72.8311,29.8,65,0.0,1007.2,7.35,23.4,110,84.1,44.8,7,5,4,1,2026-03-16T14:31:19.341322+05:30
Vadodara,Gujarat,22.3072,73.1812,37.0,24,0.0,1003.7,7.05,24.8,80,46.0,18.1,0,5,7,0,2026-03-16T14:31:19.341333+05:30
Rajkot,Gujarat,22.3039,70.8022,36.9,12,0.0,993.7,7.3,28.4,66,38.0,12.6,0,5,10,0,2026-03-16T14:31:19.341341+05:30
Thane,Maharashtra,19.2183,72.9781,31.1,49,0.0,1008.2,7.7,31.3,105,117.6,55.2,0,0,4,1,2026-03-16T14:31:19.341348+05:30
Nagpur,Maharashtra,21.1458,79.0882,36.1,19,0.0,972.4,7.95,18.4,122,38.3,25.1,0,5,10,0,2026-03-16T14:31:19.341355+05:30
Nashik,Maharashtra,19.9975,73.7898,32.6,26,0.0,945.9,7.9,25.2,78,45.9,16.0,0,5,7,0,2026-03-16T14:31:19.341362+05:30
Aurangabad,Maharashtra,19.8762,75.3433,34.8,17,0.0,944.1,8.45,25.9,76,33.5,15.3,0,5,7,0,2026-03-16T14:31:19.341368+05:30
Solapur,Maharashtra,17.6599,75.9064,35.2,17,0.0,957.1,8.65,22.7,102,43.2,31.0,0,5,10,0,2026-03-16T14:31:19.341375+05:30
Kolhapur,Maharashtra,16.705,74.2433,32.5,27,0.0,948.3,8.75,39.6,101,33.9,26.3,0,5,7,0,2026-03-16T14:31:19.341382+05:30
Goa,Goa,15.2993,74.124,31.1,62,0.0,998.1,8.75,33.5,103,42.5,21.7,3,5,7,1,2026-03-16T14:31:19.341389+05:30
Jodhpur,Rajasthan,26.2389,73.0243,36.7,12,0.0,981.0,7.2,38.2,90,107.3,19.5,0,5,10,0,2026-03-16T14:31:19.341396+05:30
Udaipur,Rajasthan,24.5854,73.7125,33.8,13,0.0,946.0,7.85,32.4,42,32.4,9.1,0,5,7,0,2026-03-16T14:31:19.341403+05:30
Kota,Rajasthan,25.2138,75.8648,35.9,14,0.0,977.5,7.25,22.0,58,93.8,16.7,0,5,10,0,2026-03-16T14:31:19.341410+05:30
Bikaner,Rajasthan,28.0229,73.3119,33.1,12,0.0,980.6,6.9,31.3,46,46.6,15.9,0,5,7,1,2026-03-16T14:31:19.341417+05:30
Ajmer,Rajasthan,26.4499,74.6399,33.7,13,0.0,953.6,7.15,35.3,61,50.2,11.4,0,5,7,0,2026-03-16T14:31:19.341423+05:30
Gwalior,Madhya Pradesh,26.2183,78.1828,31.2,41,0.0,982.8,6.8,26.6,86,82.9,17.2,0,5,7,1,2026-03-16T14:31:19.341430+05:30
Indore,Madhya Pradesh,22.7196,75.8577,33.8,22,0.0,948.0,7.75,33.1,59,29.3,10.9,0,5,7,0,2026-03-16T14:31:19.341437+05:30
Bhopal,Madhya Pradesh,23.2599,77.4126,34.8,15,0.0,953.5,7.65,32.4,51,21.2,8.8,0,5,7,0,2026-03-16T14:31:19.341443+05:30
Jabalpur,Madhya Pradesh,23.1815,79.9864,35.3,16,0.0,960.8,7.8,37.4,66,22.7,11.6,0,5,10,0,2026-03-16T14:31:19.341450+05:30
Ujjain,Madhya Pradesh,23.1765,75.7885,33.4,23,0.0,953.7,7.65,32.0,60,22.3,8.9,0,5,7,0,2026-03-16T14:31:19.341458+05:30
Visakhapatnam,Andhra Pradesh,17.6868,83.2185,31.6,49,0.0,1004.6,8.7,39.2,63,16.3,11.5,0,5,4,1,2026-03-16T14:31:19.341464+05:30
Vijayawada,Andhra Pradesh,16.5062,80.648,32.5,49,0.0,1003.3,8.75,25.9,51,10.2,7.1,0,5,4,1,2026-03-16T14:31:19.341471+05:30
Guntur,Andhra Pradesh,16.3067,80.4365,33.0,46,0.0,1004.4,8.75,28.1,50,11.4,7.3,0,5,4,1,2026-03-16T14:31:19.341477+05:30
Nellore,Andhra Pradesh,14.4426,79.9865,34.6,39,0.0,1006.0,8.95,31.3,44,15.0,13.3,0,5,4,1,2026-03-16T14:31:19.341485+05:30
Kurnool,Andhra Pradesh,15.8281,78.0373,36.2,24,0.0,976.6,8.8,24.1,81,31.3,23.8,0,5,10,0,2026-03-16T14:31:19.341492+05:30
Kakinada,Andhra Pradesh,16.9891,82.2475,33.6,44,0.0,1008.1,8.7,27.4,50,9.5,6.4,0,0,4,1,2026-03-16T14:31:19.341499+05:30
Tirupati,Andhra Pradesh,13.6288,79.4192,34.2,34,0.0,991.6,9.05,27.0,59,10.2,9.0,0,5,7,1,2026-03-16T14:31:19.341505+05:30
Warangal,Telangana,17.9689,79.5941,32.3,47,0.0,979.1,8.1,32.0,74,29.1,21.5,0,5,7,1,2026-03-16T14:31:19.341512+05:30
Nizamabad,Telangana,18.6725,78.0941,34.8,27,0.0,964.6,8.45,40.7,138,46.9,39.3,0,5,7,0,2026-03-16T14:31:19.341518+05:30
Mysore,Karnataka,12.2958,76.6396,31.6,37,0.0,928.4,9.35,27.0,109,32.8,27.6,0,5,7,0,2026-03-16T14:31:19.341525+05:30
Mangalore,Karnataka,12.9141,74.856,29.0,77,0.0,1006.3,9.0,19.4,95,39.1,34.1,7,5,4,1,2026-03-16T14:31:19.341532+05:30
Hubli-Dharwad,Karnataka,15.3647,75.124,33.9,22,0.0,940.8,8.95,36.4,108,45.9,37.7,0,5,7,0,2026-03-16T14:31:19.341538+05:30
Belgaum,Karnataka,15.8497,74.4977,30.2,41,0.0,926.2,9.0,36.7,94,45.8,35.7,0,5,7,0,2026-03-16T14:31:22.692083+05:30
Coimbatore,Tamil Nadu,11.0168,76.9558,34.3,35,0.0,961.1,9.3,32.4,93,25.0,22.1,0,5,7,1,2026-03-16T14:31:22.692113+05:30
Madurai,Tamil Nadu,9.9252,78.1198,35.8,36,0.0,991.8,9.25,25.2,52,11.7,9.7,0,5,10,1,2026-03-16T14:31:22.692124+05:30
Trichy,Tamil Nadu,10.7905,78.7047,34.8,40,0.0,999.0,9.2,22.7,52,16.7,14.2,0,5,7,1,2026-03-16T14:31:22.692132+05:30
Salem,Tamil Nadu,11.6643,78.146,34.6,37,0.0,976.6,9.25,15.1,63,18.8,16.4,0,5,7,1,2026-03-16T14:31:22.692139+05:30
Tirunelveli,Tamil Nadu,8.7139,77.7567,37.3,32,0.0,1001.7,9.25,46.1,55,11.9,9.7,0,5,7,1,2026-03-16T14:31:22.692147+05:30
Vellore,Tamil Nadu,12.9165,79.1325,34.2,36,0.0,984.4,9.15,29.2,78,18.7,16.9,0,5,7,1,2026-03-16T14:31:22.692153+05:30
Erode,Tamil Nadu,11.341,77.7172,36.4,33,0.0,987.8,9.2,22.0,42,14.1,12.1,0,5,10,1,2026-03-16T14:31:22.692198+05:30
Kochi,Kerala,9.9312,76.2673,28.7,77,0.0,1007.8,9.1,33.8,77,22.8,20.5,7,5,4,1,2026-03-16T14:31:22.692209+05:30
Thiruvananthapuram,Kerala,8.5241,76.9366,28.5,77,0.0,1006.9,9.15,29.5,66,16.3,14.9,7,5,4,1,2026-03-16T14:31:22.692217+05:30
Kozhikode,Kerala,11.2588,75.7804,29.8,75,0.0,1007.4,9.0,29.9,68,17.3,14.8,7,5,4,1,2026-03-16T14:31:22.692223+05:30
Thrissur,Kerala,10.5276,76.2144,32.7,60,0.0,1006.3,9.05,36.0,73,22.6,20.0,0,5,4,1,2026-03-16T14:31:22.692231+05:30
Kannur,Kerala,11.8745,75.3704,31.2,64,0.0,1006.9,9.0,29.2,84,27.4,23.5,3,5,4,1,2026-03-16T14:31:22.692238+05:30
Patna,Bihar,25.5941,85.1376,31.7,43,0.0,1000.0,7.5,36.0,155,78.2,53.3,0,5,4,1,2026-03-16T14:31:22.692244+05:30
Gaya,Bihar,24.7914,85.0002,33.0,30,0.0,993.4,7.15,33.5,151,57.2,29.6,0,5,7,0,2026-03-16T14:31:22.692251+05:30
Muzaffarpur,Bihar,26.1209,85.3647,31.9,39,0.0,1000.1,7.5,36.4,161,74.7,50.9,0,5,4,1,2026-03-16T14:31:22.692257+05:30
Bhagalpur,Bihar,25.2425,87.0117,31.5,52,0.0,1000.0,7.55,31.7,157,90.8,71.0,0,5,4,1,2026-03-16T14:31:22.692263+05:30
Ranchi,Jharkhand,23.3441,85.3096,29.6,35,0.0,937.5,7.75,51.5,147,36.2,28.2,4,5,7,0,2026-03-16T14:31:22.692271+05:30
Jamshedpur,Jharkhand,22.8046,86.2029,27.5,62,0.0,991.4,7.95,40.7,154,42.8,35.9,7,5,7,1,2026-03-16T14:31:22.692277+05:30
Dhanbad,Jharkhand,23.7957,86.4304,31.9,34,0.0,979.0,7.6,39.2,172,62.4,49.6,0,5,7,0,2026-03-16T14:31:22.692284+05:30
Bokaro,Jharkhand,23.6693,86.1511,31.4,45,0.0,983.1,7.65,36.0,162,49.7,37.3,0,5,7,1,2026-03-16T14:31:22.692291+05:30
Bhubaneswar,Odisha,20.2961,85.8245,30.1,63,0.0,1002.5,8.5,38.5,67,30.5,24.4,3,5,4,1,2026-03-16T14:31:22.692297+05:30
Cuttack,Odisha,20.4625,85.8828,27.8,71,0.0,1004.9,8.55,37.1,67,30.5,24.4,7,5,4,1,2026-03-16T14:31:22.692303+05:30
Rourkela,Odisha,22.2604,84.8536,33.8,35,0.0,984.7,8.0,46.1,157,51.6,44.1,0,5,7,1,2026-03-16T14:31:22.692310+05:30
Raipur,Chhattisgarh,21.2514,81.6296,32.1,43,0.0,974.9,8.2,41.4,142,40.7,33.5,0,5,7,1,2026-03-16T14:31:22.692316+05:30
Bhilai,Chhattisgarh,21.1938,81.3509,35.4,26,0.0,974.7,8.2,40.7,133,40.6,32.8,0,5,10,0,2026-03-16T14:31:22.692322+05:30
Guwahati,Assam,26.1158,91.7086,25.5,73,0.0,1001.5,6.8,37.4,82,32.7,26.5,7,5,4,1,2026-03-16T14:31:22.692328+05:30
Agartala,Tripura,23.8315,91.2868,26.5,71,0.0,1006.8,5.4,33.8,64,20.0,16.9,7,5,0,1,2026-03-16T14:31:22.692335+05:30
Shillong,Meghalaya,25.5788,91.8933,17.2,65,0.0,856.0,7.85,74.2,54,28.5,22.7,3,5,7,0,2026-03-16T14:31:22.692341+05:30
Imphal,Manipur,24.817,93.9368,19.8,73,0.0,924.3,8.2,74.5,101,46.9,32.8,3,5,7,0,2026-03-16T14:31:22.692348+05:30
Aizawl,Mizoram,23.7271,92.7176,22.0,61,0.0,894.2,8.05,61.9,86,36.0,27.4,3,5,7,0,2026-03-16T14:31:22.692354+05:30
Kohima,Nagaland,25.6701,94.1077,18.2,60,0.0,855.2,7.8,105.5,79,35.9,24.6,0,5,7,0,2026-03-16T14:31:22.692360+05:30
Gangtok,Sikkim,27.3314,88.6138,18.2,55,0.0,837.1,7.75,23.4,103,45.5,27.0,0,5,7,0,2026-03-16T14:31:22.692366+05:30
Siliguri,West Bengal,26.7271,88.3953,22.8,70,0.0,993.6,7.5,27.0,153,57.2,43.2,3,5,7,1,2026-03-16T14:31:26.043311+05:30
Durgapur,West Bengal,23.5204,87.3119,28.1,66,0.0,995.1,7.75,45.4,159,104.8,93.8,7,5,7,1,2026-03-16T14:31:26.043338+05:30
Asansol,West Bengal,23.6739,86.9524,28.2,66,0.0,993.4,7.65,43.2,164,82.4,70.5,7,5,7,1,2026-03-16T14:31:26.043348+05:30
Pondicherry,Puducherry,11.9139,79.8145,33.6,45,0.0,1008.3,9.05,31.3,32,8.9,6.3,0,0,4,1,2026-03-16T14:31:26.043356+05:30
Port Blair,Andaman and Nicobar Islands,11.6234,92.7265,28.9,70,0.0,1007.2,9.0,21.2,79,23.7,19.6,7,5,4,1,2026-03-16T14:31:26.043363+05:30
Haridwar,Uttarakhand,29.9457,78.1642,27.6,34,0.0,974.5,5.85,51.8,65,73.8,19.7,4,5,3,0,2026-03-16T14:31:26.043370+05:30
Rishikesh,Uttarakhand,30.0869,78.2676,27.0,35,0.0,967.3,5.9,32.4,57,74.7,17.6,4,5,3,0,2026-03-16T14:31:26.043377+05:30
Nainital,Uttarakhand,29.3919,79.4542,20.9,34,0.0,806.9,6.7,68.8,61,78.0,18.7,0,5,7,0,2026-03-16T14:31:26.043383+05:30
Mussoorie,Uttarakhand,30.4599,78.0664,16.6,47,0.0,802.1,5.3,43.9,60,76.1,17.8,0,5,3,0,2026-03-16T14:31:26.043389+05:30
Dharamshala,Himachal Pradesh,32.219,76.3234,13.0,68,0.1,866.8,4.3,36.0,56,22.2,6.8,6,5,3,0,2026-03-16T14:31:26.043396+05:30
Dalhousie,Himachal Pradesh,32.5387,75.971,9.2,64,0.2,800.4,4.25,39.6,64,21.8,12.1,6,5,3,0,2026-03-16T14:31:26.043403+05:30
Patiala,Punjab,30.3398,76.3869,18.5,73,0.0,979.8,5.8,49.3,75,40.5,20.8,3,5,3,0,2026-03-16T14:31:26.043409+05:30
Bhatinda,Punjab,30.211,74.9455,23.8,55,0.0,984.3,6.55,31.7,79,141.6,37.6,0,5,7,0,2026-03-16T14:31:26.043414+05:30
Rohtak,Haryana,28.8955,76.6066,30.9,31,0.0,980.5,6.15,49.3,562,1147.4,138.8,0,5,7,0,2026-03-16T14:31:26.043421+05:30
Panipat,Haryana,29.3909,76.9635,29.9,33,0.0,979.5,5.9,46.4,313,1750.9,180.2,4,5,3,0,2026-03-16T14:31:26.043428+05:30
Mathura,Uttar Pradesh,27.4924,77.6737,32.2,31,0.0,986.0,6.4,34.2,1172,629.6,75.9,0,5,7,0,2026-03-16T14:31:26.043435+05:30
Vrindavan,Uttar Pradesh,27.5823,77.7027,31.6,32,0.0,986.4,6.35,37.1,1172,629.6,75.9,0,5,7,0,2026-03-16T14:31:26.043441+05:30
Ayodhya,Uttar Pradesh,26.7922,82.1998,31.7,30,0.0,995.6,6.75,33.1,120,46.8,26.4,0,5,7,0,2026-03-16T14:31:26.043447+05:30
Ratlam,Madhya Pradesh,23.3315,75.0367,33.9,21,0.0,954.6,7.6,32.4,59,22.8,8.8,0,5,7,0,2026-03-16T14:31:26.043453+05:30
Sagar,Madhya Pradesh,23.8388,78.7378,33.7,19,0.0,950.0,7.6,29.5,47,36.9,11.0,0,5,7,0,2026-03-16T14:31:26.043458+05:30
Satna,Madhya Pradesh,24.6005,80.8322,36.4,16,0.0,969.8,7.6,38.5,84,27.8,13.7,0,5,10,0,2026-03-16T14:31:26.043464+05:30
Akola,Maharashtra,20.7002,77.0082,37.3,20,0.0,974.5,8.1,22.0,73,35.7,19.3,0,5,10,0,2026-03-16T14:31:26.043471+05:30
Amravati,Maharashtra,20.9374,77.7796,37.4,16,0.0,966.7,8.05,28.8,76,32.4,17.8,0,5,10,0,2026-03-16T14:31:26.043477+05:30
Latur,Maharashtra,18.4088,76.5604,33.7,21,0.0,940.0,8.55,19.4,97,47.4,33.3,0,5,7,0,2026-03-16T14:31:26.043483+05:30
Nanded,Maharashtra,19.1383,77.3091,36.3,23,0.0,968.3,8.35,18.4,120,37.7,24.4,0,5,10,0,2026-03-16T14:31:26.043489+05:30
Gulbarga,Karnataka,17.3297,76.8343,34.8,26,0.0,958.5,8.65,26.6,113,46.2,37.5,0,5,7,0,2026-03-16T14:31:26.043495+05:30
Bidar,Karnataka,17.9104,77.5199,30.8,42,0.0,936.5,8.6,37.4,108,47.3,40.0,0,5,7,1,2026-03-16T14:31:26.043500+05:30
Hospet,Karnataka,15.2689,76.3909,31.8,38,0.0,955.8,8.9,19.1,122,43.5,36.1,0,5,7,0,2026-03-16T14:31:26.043506+05:30
Tirupur,Tamil Nadu,11.1085,77.3411,35.7,34,0.0,974.3,9.3,47.5,67,18.0,15.7,0,5,10,1,2026-03-16T14:31:26.043512+05:30
Alappuzha,Kerala,9.4981,76.3388,28.6,78,0.0,1007.9,9.1,32.8,83,25.0,22.6,7,5,4,1,2026-03-16T14:31:26.043517+05:30
Munnar,Kerala,10.0889,77.0595,29.3,45,0.0,858.7,9.6,35.3,70,18.5,16.0,4,5,7,1,2026-03-16T14:31:26.043524+05:30
Silchar,Assam,24.8333,92.7789,24.8,74,0.0,1007.2,7.85,44.3,80,27.0,21.2,3,5,4,1,2026-03-16T14:31:26.043530+05:30
Dibrugarh,Assam,27.4728,94.912,19.6,87,0.0,997.2,3.9,37.1,86,29.2,23.1,3,10,3,1,2026-03-16T14:31:26.043536+05:30
