city,state,latitude,longitude,temp,humidity,rain,pressure,uv_index,wind_gusts,aqi,pm10,pm2_5,mosquito_risk,arthritis_risk,migraine_risk,frizz_risk,updated_at
Delhi,Delhi,28.6139,77.209,28.3,45,0.0,980.3,6.8,24.8,212,364.1,72.6,4,5,7,0,2026-04-19T02:10:53.634119+05:30
Mumbai,Maharashtra,19.076,72.8777,30.0,75,0.0,1006.4,6.6,23.4,90,56.6,24.3,7,5,4,1,2026-04-19T02:10:53.634168+05:30
Bangalore,Karnataka,12.9716,77.5946,24.6,58,0.0,910.8,9.6,25.6,93,26.2,22.8,0,5,7,0,2026-04-19T02:10:53.634188+05:30
Hyderabad,Telangana,17.385,78.4867,27.6,59,0.0,951.7,9.3,53.3,97,34.8,30.4,4,5,7,1,2026-04-19T02:10:53.634200+05:30
Chennai,Tamil Nadu,13.0827,80.2707,27.6,88,0.0,1006.2,9.3,34.2,36,11.8,7.5,7,5,4,1,2026-04-19T02:10:53.634210+05:30
Kolkata,West Bengal,22.5726,88.3639,27.3,92,0.0,1003.3,8.9,29.5,79,21.3,16.5,7,5,4,1,2026-04-19T02:10:53.634223+05:30
Pune,Maharashtra,18.5204,73.8567,27.3,84,0.0,947.3,8.55,32.0,117,43.5,34.9,7,5,7,1,2026-04-19T02:10:53.634231+05:30
Ahmedabad,Gujarat,23.0225,72.5714,27.6,38,0.0,1000.8,8.05,24.8,61,18.7,12.3,4,5,4,0,2026-04-19T02:10:53.634239+05:30
Jaipur,Rajasthan,26.9124,75.7873,29.6,27,0.0,958.0,7.7,39.2,185,149.9,32.2,4,5,7,0,2026-04-19T02:10:53.634247+05:30
Lucknow,Uttar Pradesh,26.8467,80.9462,27.5,59,0.0,990.1,7.85,28.4,114,271.9,60.8,4,5,7,1,2026-04-19T02:10:53.634255+05:30
Kanpur,Uttar Pradesh,26.4499,80.3319,25.5,65,0.0,988.3,7.9,22.3,148,340.9,69.8,7,5,7,1,2026-04-19T02:10:53.634263+05:30
Chandigarh,Chandigarh,30.7333,76.7794,24.1,51,0.0,966.7,6.25,27.0,62,32.0,24.2,0,5,7,0,2026-04-19T02:10:53.634270+05:30
Srinagar,Jammu and Kashmir,34.0837,74.7973,10.9,92,0.0,843.6,7.0,17.3,75,54.7,28.4,3,10,7,0,2026-04-19T02:10:53.634278+05:30
Jammu,Jammu and Kashmir,32.7266,74.857,23.9,50,0.0,971.7,5.5,42.8,65,28.1,20.3,0,5,3,0,2026-04-19T02:10:53.634285+05:30
Amritsar,Punjab,31.634,74.8723,22.7,55,0.0,979.3,6.75,32.4,67,44.1,31.0,0,5,7,0,2026-04-19T02:10:53.634293+05:30
Ludhiana,Punjab,30.901,75.8573,25.9,52,0.0,976.7,6.75,30.6,79,103.1,61.5,4,5,7,0,2026-04-19T02:10:53.634302+05:30
Jalandhar,Punjab,31.326,75.5762,23.9,58,0.0,978.0,7.2,32.0,74,60.8,32.2,0,5,7,0,2026-04-19T02:10:53.634309+05:30
Dehradun,Uttarakhand,30.6284,78.0322,17.4,38,0.0,830.5,6.15,38.5,36,16.6,10.9,0,5,7,0,2026-04-19T02:10:53.634316+05:30
Shimla,Himachal Pradesh,31.1048,77.1734,14.9,49,0.0,784.4,5.8,41.4,51,25.3,15.1,0,5,3,0,2026-04-19T02:10:53.634324+05:30
Manali,Himachal Pradesh,32.2396,77.1887,16.5,34,0.0,822.0,7.95,43.6,45,14.6,6.5,0,5,7,0,2026-04-19T02:10:53.634333+05:30
Gurgaon,Haryana,28.4595,77.0266,24.0,61,0.0,978.4,6.85,23.4,487,434.9,85.7,3,5,7,1,2026-04-19T02:10:53.634340+05:30
Noida,Uttar Pradesh,28.5355,77.391,28.2,44,0.0,981.7,6.35,24.8,487,434.9,85.7,4,5,7,0,2026-04-19T02:10:53.634347+05:30
Ghaziabad,Uttar Pradesh,28.6692,77.4538,26.0,54,0.0,979.9,6.65,26.3,155,323.2,66.8,4,5,7,0,2026-04-19T02:10:53.634354+05:30
Faridabad,Haryana,28.4089,77.3178,26.2,50,0.0,980.9,5.95,24.1,487,434.9,85.7,4,5,3,0,2026-04-19T02:10:53.634361+05:30
Meerut,Uttar Pradesh,28.9845,77.7064,24.6,59,0.0,978.8,6.0,27.7,155,323.2,66.8,0,5,3,1,2026-04-19T02:10:53.634367+05:30
Agra,Uttar Pradesh,27.1767,78.0081,25.7,60,0.0,984.6,7.75,30.2,404,810.3,98.3,4,5,7,1,2026-04-19T02:10:53.634375+05:30
Varanasi,Uttar Pradesh,25.3176,82.9739,26.9,54,0.0,994.1,8.5,27.7,113,106.4,45.9,4,5,7,1,2026-04-19T02:10:53.634382+05:30
Prayagraj,Uttar Pradesh,25.4358,81.8463,28.5,51,0.0,992.8,8.35,24.5,99,141.1,39.7,4,5,7,1,2026-04-19T02:10:53.634388+05:30
Gorakhpur,Uttar Pradesh,26.7606,83.3732,26.6,81,0.0,994.1,8.3,28.8,133,83.4,47.0,7,5,7,1,2026-04-19T02:10:53.634394+05:30
Bareilly,Uttar Pradesh,28.367,79.4304,24.3,63,0.0,983.4,7.3,27.7,82,94.5,39.8,3,5,7,1,2026-04-19T02:10:53.634403+05:30
Aligarh,Uttar Pradesh,27.8974,78.088,27.3,46,0.0,982.6,7.45,28.4,246,277.5,91.7,4,5,7,0,2026-04-19T02:10:53.634410+05:30
Moradabad,Uttar Pradesh,28.8386,78.7733,24.2,64,0.0,980.7,6.75,22.7,100,122.9,49.7,3,5,7,1,2026-04-19T02:10:53.634416+05:30
Saharanpur,Uttar Pradesh,29.9637,77.546,22.3,69,0.0,973.2,6.9,40.7,103,95.0,55.2,3,5,7,1,2026-04-19T02:10:53.634421+05:30
Jhansi,Uttar Pradesh,25.4484,78.5685,27.2,54,0.0,975.4,8.25,32.0,90,56.9,25.8,4,5,7,1,2026-04-19T02:10:56.937240+05:30
Surat,Gujarat,21.1702,72.8311,28.7,74,0.0,1004.9,7.85,27.4,111,36.8,24.0,7,5,4,1,2026-04-19T02:10:56.937278+05:30
Vadodara,Gujarat,22.3072,73.1812,28.2,68,0.0,1002.5,8.05,28.1,95,52.2,42.5,7,5,4,1,2026-04-19T02:10:56.937289+05:30
Rajkot,Gujarat,22.3039,70.8022,24.8,67,0.0,993.7,7.65,24.5,55,21.0,11.6,3,5,7,1,2026-04-19T02:10:56.937297+05:30
Thane,Maharashtra,19.2183,72.9781,27.5,83,0.0,1005.9,6.2,35.6,90,56.6,24.3,7,5,4,1,2026-04-19T02:10:56.937303+05:30
Nagpur,Maharashtra,21.1458,79.0882,29.2,60,0.0,971.1,8.9,23.4,88,31.7,29.0,4,5,7,1,2026-04-19T02:10:56.937310+05:30
Nashik,Maharashtra,19.9975,73.7898,26.2,73,0.0,944.5,8.25,28.8,85,40.6,29.4,7,5,7,1,2026-04-19T02:10:56.937317+05:30
Aurangabad,Maharashtra,19.8762,75.3433,29.2,30,0.0,942.6,9.05,23.8,68,26.8,20.4,4,5,7,0,2026-04-19T02:10:56.937324+05:30
Solapur,Maharashtra,17.6599,75.9064,28.1,64,0.0,955.9,9.0,57.2,116,56.0,49.8,7,5,7,1,2026-04-19T02:10:56.937331+05:30
Kolhapur,Maharashtra,16.705,74.2433,24.7,88,0.0,946.1,9.05,38.2,98,52.0,38.0,3,5,7,1,2026-04-19T02:10:56.937337+05:30
Goa,Goa,15.2993,74.124,27.9,85,0.0,995.9,9.05,29.5,80,69.6,33.6,7,5,7,1,2026-04-19T02:10:56.937344+05:30
Jodhpur,Rajasthan,26.2389,73.0243,28.4,33,0.0,981.6,7.6,29.2,98,153.7,23.6,4,5,7,0,2026-04-19T02:10:56.937351+05:30
Udaipur,Rajasthan,24.5854,73.7125,26.9,29,0.0,945.9,8.5,33.8,48,18.6,8.9,4,5,7,0,2026-04-19T02:10:56.937358+05:30
Kota,Rajasthan,25.2138,75.8648,28.6,40,0.0,976.5,8.2,31.3,87,77.3,37.3,4,5,7,0,2026-04-19T02:10:56.937365+05:30
Bikaner,Rajasthan,28.0229,73.3119,30.2,22,0.0,980.0,8.0,32.4,78,315.7,57.9,0,5,7,0,2026-04-19T02:10:56.937371+05:30
Ajmer,Rajasthan,26.4499,74.6399,28.5,30,0.0,953.8,6.95,33.5,63,75.9,15.7,4,5,7,0,2026-04-19T02:10:56.937377+05:30
Gwalior,Madhya Pradesh,26.2183,78.1828,27.7,54,0.0,980.2,7.3,37.4,114,54.8,18.2,4,5,7,1,2026-04-19T02:10:56.937384+05:30
Indore,Madhya Pradesh,22.7196,75.8577,25.6,53,0.0,946.7,8.6,31.0,56,24.9,20.8,4,5,7,0,2026-04-19T02:10:56.937390+05:30
Bhopal,Madhya Pradesh,23.2599,77.4126,26.8,39,0.0,952.0,8.6,30.6,64,23.9,22.6,4,5,7,0,2026-04-19T02:10:56.937396+05:30
Jabalpur,Madhya Pradesh,23.1815,79.9864,28.4,51,0.0,959.0,8.75,28.8,73,19.3,16.5,4,5,7,1,2026-04-19T02:10:56.937403+05:30
Ujjain,Madhya Pradesh,23.1765,75.7885,25.9,54,0.0,952.3,8.5,31.7,59,21.0,15.3,4,5,7,0,2026-04-19T02:10:56.937409+05:30
Visakhapatnam,Andhra Pradesh,17.6868,83.2185,27.3,90,0.0,1002.3,9.2,38.9,61,18.6,13.4,7,5,4,1,2026-04-19T02:10:56.937416+05:30
Vijayawada,Andhra Pradesh,16.5062,80.648,27.3,88,0.0,1001.6,9.25,27.4,57,12.7,9.7,7,5,4,1,2026-04-19T02:10:56.937422+05:30
Guntur,Andhra Pradesh,16.3067,80.4365,27.3,89,0.0,1002.5,9.25,31.0,60,12.9,9.7,7,5,4,1,2026-04-19T02:10:56.937428+05:30
Nellore,Andhra Pradesh,14.4426,79.9865,27.3,84,0.0,1004.4,9.3,36.4,52,9.9,7.3,7,5,4,1,2026-04-19T02:10:56.937434+05:30
Kurnool,Andhra Pradesh,15.8281,78.0373,31.9,59,0.0,975.0,9.25,25.6,88,24.6,22.2,0,5,7,1,2026-04-19T02:10:56.937441+05:30
Kakinada,Andhra Pradesh,16.9891,82.2475,27.3,89,0.0,1006.4,9.2,30.2,51,15.9,10.1,7,5,4,1,2026-04-19T02:10:56.937448+05:30
Tirupati,Andhra Pradesh,13.6288,79.4192,26.1,87,0.0,991.0,9.35,31.3,61,21.0,18.7,7,5,7,1,2026-04-19T02:10:56.937453+05:30
Warangal,Telangana,17.9689,79.5941,28.5,69,0.0,977.3,9.15,29.5,84,26.7,23.4,7,5,7,1,2026-04-19T02:10:56.937459+05:30
Nizamabad,Telangana,18.6725,78.0941,29.1,56,0.0,963.3,9.1,33.1,107,40.3,36.9,4,5,7,1,2026-04-19T02:10:56.937465+05:30
Mysore,Karnataka,12.2958,76.6396,24.3,88,0.0,927.7,9.5,41.4,88,35.4,32.4,3,5,7,1,2026-04-19T02:10:56.937470+05:30
Mangalore,Karnataka,12.9141,74.856,30.6,78,0.0,1005.0,9.15,24.5,63,38.1,23.3,3,5,4,1,2026-04-19T02:10:56.937476+05:30
Hubli-Dharwad,Karnataka,15.3647,75.124,24.2,91,0.0,939.1,9.25,36.0,67,33.3,23.1,3,5,7,1,2026-04-19T02:10:56.937482+05:30
Belgaum,Karnataka,15.8497,74.4977,23.0,95,0.0,923.9,9.25,29.5,82,49.4,30.2,3,5,7,1,2026-04-19T02:11:00.243234+05:30
Coimbatore,Tamil Nadu,11.0168,76.9558,24.7,92,0.0,960.9,9.45,57.2,98,41.4,37.5,3,5,7,1,2026-04-19T02:11:00.243271+05:30
Madurai,Tamil Nadu,9.9252,78.1198,27.2,87,0.0,992.4,9.3,40.7,68,26.8,25.1,7,5,7,1,2026-04-19T02:11:00.243283+05:30
Trichy,Tamil Nadu,10.7905,78.7047,26.4,88,0.0,999.0,9.3,22.0,52,15.6,14.4,7,5,7,1,2026-04-19T02:11:00.243292+05:30
Salem,Tamil Nadu,11.6643,78.146,25.8,83,0.0,976.1,9.4,17.6,75,23.8,21.5,7,5,7,1,2026-04-19T02:11:00.243300+05:30
Tirunelveli,Tamil Nadu,8.7139,77.7567,27.0,79,0.0,1002.3,9.25,48.2,82,27.5,23.9,7,5,4,1,2026-04-19T02:11:00.243309+05:30
Vellore,Tamil Nadu,12.9165,79.1325,25.2,93,0.0,983.9,9.4,28.1,84,38.2,36.4,7,5,7,1,2026-04-19T02:11:00.243316+05:30
Erode,Tamil Nadu,11.341,77.7172,27.8,79,0.0,988.2,9.35,28.1,65,14.6,13.3,7,5,7,1,2026-04-19T02:11:00.243323+05:30
Kochi,Kerala,9.9312,76.2673,28.8,82,0.0,1007.6,9.15,27.0,79,27.2,21.9,7,5,4,1,2026-04-19T02:11:00.243331+05:30
Thiruvananthapuram,Kerala,8.5241,76.9366,28.5,84,0.0,1006.9,9.1,27.0,74,29.7,19.6,7,5,4,1,2026-04-19T02:11:00.243338+05:30
Kozhikode,Kerala,11.2588,75.7804,29.5,83,0.0,1006.5,9.15,29.5,68,26.6,17.3,7,5,4,1,2026-04-19T02:11:00.243346+05:30
Thrissur,Kerala,10.5276,76.2144,28.6,88,0.0,1005.7,9.15,35.3,77,32.4,27.5,7,5,4,1,2026-04-19T02:11:00.243354+05:30
Kannur,Kerala,11.8745,75.3704,29.6,81,0.0,1005.7,9.1,31.0,69,28.7,20.2,7,5,4,1,2026-04-19T02:11:00.243361+05:30
Patna,Bihar,25.5941,85.1376,28.1,82,0.0,997.2,8.6,25.9,142,53.3,49.7,7,5,7,1,2026-04-19T02:11:00.243368+05:30
Gaya,Bihar,24.7914,85.0002,28.2,55,0.0,990.2,8.7,27.0,101,56.9,44.6,4,5,7,1,2026-04-19T02:11:00.243374+05:30
Muzaffarpur,Bihar,26.1209,85.3647,26.6,86,0.0,997.4,8.6,29.9,152,55.6,51.0,7,5,7,1,2026-04-19T02:11:00.243381+05:30
Bhagalpur,Bihar,25.2425,87.0117,26.6,90,0.0,998.4,8.65,30.2,149,53.7,49.7,7,5,7,1,2026-04-19T02:11:00.243387+05:30
Ranchi,Jharkhand,23.3441,85.3096,26.8,46,0.0,935.9,9.2,42.8,80,72.2,30.4,4,5,7,0,2026-04-19T02:11:00.243393+05:30
Jamshedpur,Jharkhand,22.8046,86.2029,28.2,92,0.0,988.0,9.0,32.8,109,48.5,40.5,7,5,7,1,2026-04-19T02:11:00.243400+05:30
Dhanbad,Jharkhand,23.7957,86.4304,28.8,84,0.0,976.9,8.95,39.6,153,93.6,84.3,7,5,7,1,2026-04-19T02:11:00.243406+05:30
Bokaro,Jharkhand,23.6693,86.1511,28.3,85,0.0,980.9,8.95,42.8,152,99.4,69.6,7,5,7,1,2026-04-19T02:11:00.243412+05:30
Bhubaneswar,Odisha,20.2961,85.8245,27.1,92,0.0,1000.3,9.1,30.6,61,19.2,14.2,7,5,4,1,2026-04-19T02:11:00.243420+05:30
Cuttack,Odisha,20.4625,85.8828,27.2,92,0.0,1002.2,9.15,27.4,61,19.2,14.2,7,5,4,1,2026-04-19T02:11:00.243427+05:30
Rourkela,Odisha,22.2604,84.8536,29.3,71,0.0,982.4,8.9,47.5,126,75.7,54.8,7,5,7,1,2026-04-19T02:11:00.243433+05:30
Raipur,Chhattisgarh,21.2514,81.6296,28.5,60,0.0,972.4,8.7,38.2,142,68.7,55.2,4,5,7,1,2026-04-19T02:11:00.243439+05:30
Bhilai,Chhattisgarh,21.1938,81.3509,27.9,63,0.0,972.5,8.45,33.5,151,76.8,61.7,7,5,7,1,2026-04-19T02:11:00.243445+05:30
Guwahati,Assam,26.1158,91.7086,24.5,92,0.0,1000.2,8.55,25.2,134,31.4,27.0,3,5,4,1,2026-04-19T02:11:00.243451+05:30
Agartala,Tripura,23.8315,91.2868,25.2,94,0.0,1004.9,8.75,26.3,119,57.4,51.2,7,5,4,1,2026-04-19T02:11:00.243457+05:30
Shillong,Meghalaya,25.5788,91.8933,15.0,94,0.0,854.9,8.15,43.9,121,30.0,23.6,3,10,7,0,2026-04-19T02:11:00.243464+05:30
Imphal,Manipur,24.817,93.9368,18.7,82,0.0,922.1,8.5,56.5,151,78.0,65.7,3,10,7,0,2026-04-19T02:11:00.243471+05:30
Aizawl,Mizoram,23.7271,92.7176,20.1,85,0.0,891.5,8.3,41.0,122,69.4,54.1,3,5,7,1,2026-04-19T02:11:00.243477+05:30
Kohima,Nagaland,25.6701,94.1077,16.2,88,0.0,853.9,8.2,46.1,127,57.3,44.7,3,10,7,0,2026-04-19T02:11:00.243483+05:30
Gangtok,Sikkim,27.3314,88.6138,16.0,92,0.0,835.7,8.9,22.0,102,35.0,29.0,3,10,7,0,2026-04-19T02:11:00.243489+05:30
Siliguri,West Bengal,26.7271,88.3953,21.9,84,0.0,992.5,8.45,22.0,155,87.1,68.5,3,5,7,1,2026-04-19T02:11:03.548277+05:30
Durgapur,West Bengal,23.5204,87.3119,27.5,89,0.0,992.1,8.9,38.5,121,30.2,27.9,7,5,7,1,2026-04-19T02:11:03.548315+05:30
Asansol,West Bengal,23.6739,86.9524,28.1,86,0.0,990.6,8.95,39.6,132,42.0,40.6,7,5,7,1,2026-04-19T02:11:03.548326+05:30
Pondicherry,Puducherry,11.9139,79.8145,26.2,96,0.0,1007.7,9.25,31.3,30,9.5,5.8,7,5,4,1,2026-04-19T02:11:03.548335+05:30
Port Blair,Andaman and Nicobar Islands,11.6234,92.7265,29.4,75,0.0,1005.5,9.15,15.5,56,19.3,14.8,7,5,4,1,2026-04-19T02:11:03.548342+05:30
Haridwar,Uttarakhand,29.9457,78.1642,22.9,63,0.0,972.0,6.65,31.3,63,34.5,23.9,3,5,7,0,2026-04-19T02:11:03.548351+05:30
Rishikesh,Uttarakhand,30.0869,78.2676,22.5,63,0.0,965.3,6.7,34.2,56,38.9,20.5,3,5,7,0,2026-04-19T02:11:03.548358+05:30
Nainital,Uttarakhand,29.3919,79.4542,23.6,29,0.0,807.3,7.55,59.0,75,47.4,18.4,0,5,7,0,2026-04-19T02:11:03.548366+05:30
Mussoorie,Uttarakhand,30.4599,78.0664,19.8,39,0.0,803.5,6.65,42.1,59,26.8,21.2,0,5,7,0,2026-04-19T02:11:03.548374+05:30
Dharamshala,Himachal Pradesh,32.219,76.3234,23.4,24,0.0,869.8,6.5,31.3,45,24.6,9.8,0,5,7,0,2026-04-19T02:11:03.548381+05:30
Dalhousie,Himachal Pradesh,32.5387,75.971,19.4,26,0.0,804.5,5.6,25.6,55,38.1,21.4,0,5,3,1,2026-04-19T02:11:03.548389+05:30
Patiala,Punjab,30.3398,76.3869,23.5,64,0.0,975.9,6.75,33.1,124,75.7,69.2,3,5,7,1,2026-04-19T02:11:03.548397+05:30
Bhatinda,Punjab,30.211,74.9455,25.0,56,0.0,981.6,7.7,29.2,82,52.2,29.2,4,5,7,0,2026-04-19T02:11:03.548403+05:30
Rohtak,Haryana,28.8955,76.6066,22.9,73,0.0,979.1,6.6,33.5,290,457.3,77.5,3,5,7,1,2026-04-19T02:11:03.548410+05:30
Panipat,Haryana,29.3909,76.9635,24.3,60,0.0,977.9,6.2,46.1,436,726.4,103.8,0,5,7,0,2026-04-19T02:11:03.548418+05:30
Mathura,Uttar Pradesh,27.4924,77.6737,24.7,60,0.0,983.7,7.4,27.0,293,334.3,80.6,0,5,7,1,2026-04-19T02:11:03.548425+05:30
Vrindavan,Uttar Pradesh,27.5823,77.7027,25.8,56,0.0,984.2,7.3,29.2,293,334.3,80.6,4,5,7,1,2026-04-19T02:11:03.548431+05:30
Ayodhya,Uttar Pradesh,26.7922,82.1998,25.7,77,0.0,992.0,8.05,32.4,95,167.2,44.1,7,5,7,1,2026-04-19T02:11:03.548438+05:30
Ratlam,Madhya Pradesh,23.3315,75.0367,27.6,47,0.0,953.1,8.45,23.0,49,17.0,11.4,4,5,7,0,2026-04-19T02:11:03.548446+05:30
Sagar,Madhya Pradesh,23.8388,78.7378,28.3,47,0.0,948.0,8.6,31.0,61,22.0,21.0,4,5,7,0,2026-04-19T02:11:03.548453+05:30
Satna,Madhya Pradesh,24.6005,80.8322,29.4,46,0.0,968.9,8.65,30.2,75,105.0,29.0,4,5,7,1,2026-04-19T02:11:03.548459+05:30
Akola,Maharashtra,20.7002,77.0082,28.5,55,0.0,972.7,8.85,23.0,65,33.5,28.5,4,5,7,1,2026-04-19T02:11:03.548467+05:30
Amravati,Maharashtra,20.9374,77.7796,27.8,40,0.0,964.8,8.85,28.8,67,36.7,32.0,4,5,7,0,2026-04-19T02:11:03.548474+05:30
Latur,Maharashtra,18.4088,76.5604,25.4,67,0.0,938.7,8.85,25.2,97,50.1,45.3,7,5,7,1,2026-04-19T02:11:03.548482+05:30
Nanded,Maharashtra,19.1383,77.3091,27.5,63,0.0,967.0,9.0,25.9,86,57.6,51.1,7,5,7,1,2026-04-19T02:11:03.548489+05:30
Gulbarga,Karnataka,17.3297,76.8343,28.5,58,0.0,957.0,9.1,34.6,94,44.8,39.9,4,5,7,1,2026-04-19T02:11:03.548495+05:30
Bidar,Karnataka,17.9104,77.5199,27.4,64,0.0,933.9,9.15,45.4,101,44.9,40.3,7,5,7,1,2026-04-19T02:11:03.548502+05:30
Hospet,Karnataka,15.2689,76.3909,28.5,78,0.0,954.8,9.3,43.9,89,38.5,35.3,7,5,7,1,2026-04-19T02:11:03.548507+05:30
Tirupur,Tamil Nadu,11.1085,77.3411,27.0,86,0.0,974.4,9.45,31.0,83,28.5,24.8,7,5,7,1,2026-04-19T02:11:03.548514+05:30
Alappuzha,Kerala,9.4981,76.3388,28.4,83,0.0,1007.7,9.05,24.8,83,38.3,29.2,7,5,4,1,2026-04-19T02:11:03.548519+05:30
Munnar,Kerala,10.0889,77.0595,21.4,85,0.0,856.1,9.7,34.9,85,36.1,32.0,3,5,7,1,2026-04-19T02:11:03.548526+05:30
Silchar,Assam,24.8333,92.7789,25.3,88,0.0,1003.5,8.8,25.9,158,94.1,77.1,7,5,4,1,2026-04-19T02:11:03.548533+05:30
Dibrugarh,Assam,27.4728,94.912,24.0,93,0.0,995.1,8.65,24.8,121,69.8,56.7,3,5,7,1,2026-04-19T02:11:03.548538+05:30
