city,state,latitude,longitude,temp,humidity,rain,pressure,uv_index,wind_gusts,aqi,pm10,pm2_5,no2,co,o3,so2,mosquito_risk,arthritis_risk,migraine_risk,frizz_risk,updated_at
Delhi,Delhi,28.6139,77.209,32.8,66,0.0,971.7,7.55,27.7,149,56.8,47.8,9.8,601.0,255.0,36.7,3,5,7,1,2026-07-07T17:22:40.819213+05:30
Mumbai,Maharashtra,19.076,72.8777,27.0,87,0.1,1000.1,0.75,61.9,53,26.5,13.6,8.7,265.0,62.0,4.9,10,5,0,1,2026-07-07T17:22:40.819291+05:30
Bangalore,Karnataka,12.9716,77.5946,27.2,54,0.0,909.4,8.15,74.5,31,12.5,6.5,4.8,255.0,70.0,2.0,4,5,7,1,2026-07-07T17:22:40.819312+05:30
Hyderabad,Telangana,17.385,78.4867,30.6,56,0.0,945.7,7.05,62.6,30,7.8,4.5,2.2,228.0,77.0,2.3,0,5,7,1,2026-07-07T17:22:40.819324+05:30
Chennai,Tamil Nadu,13.0827,80.2707,36.4,42,0.0,1001.1,8.6,59.0,62,28.6,18.5,3.7,181.0,117.0,5.2,0,5,7,1,2026-07-07T17:22:40.819333+05:30
Kolkata,West Bengal,22.5726,88.3639,29.9,83,0.0,998.0,7.9,45.4,64,22.0,17.1,6.0,319.0,74.0,5.4,7,5,7,1,2026-07-07T17:22:40.819344+05:30
Pune,Maharashtra,18.5204,73.8567,24.5,88,0.2,939.9,1.3,59.8,23,2.9,2.4,6.6,168.0,51.0,3.5,6,5,3,1,2026-07-07T17:22:40.819353+05:30
Ahmedabad,Gujarat,23.0225,72.5714,29.3,87,0.0,990.8,2.6,39.2,101,62.4,33.6,5.8,204.0,78.0,4.2,7,5,3,1,2026-07-07T17:22:40.819361+05:30
Jaipur,Rajasthan,26.9124,75.7873,32.8,61,0.0,949.0,8.2,26.6,78,28.5,18.4,4.0,247.0,130.0,3.5,3,5,7,1,2026-07-07T17:22:40.819370+05:30
Lucknow,Uttar Pradesh,26.8467,80.9462,29.5,84,0.1,981.8,5.25,48.6,64,13.7,13.7,5.9,297.0,111.0,4.8,10,5,3,1,2026-07-07T17:22:40.819384+05:30
Kanpur,Uttar Pradesh,26.4499,80.3319,28.3,87,0.1,979.7,4.6,53.3,62,14.3,14.3,5.9,282.0,120.0,5.4,10,5,3,1,2026-07-07T17:22:40.819392+05:30
Chandigarh,Chandigarh,30.7333,76.7794,32.2,69,0.0,958.1,7.1,21.6,167,40.6,34.7,3.1,410.0,196.0,11.7,3,5,7,1,2026-07-07T17:22:40.819401+05:30
Srinagar,Jammu and Kashmir,34.0837,74.7973,28.4,46,0.0,836.8,9.1,19.1,118,23.4,17.4,3.1,253.0,146.0,2.3,4,5,7,0,2026-07-07T17:22:40.819410+05:30
Jammu,Jammu and Kashmir,32.7266,74.857,34.0,52,0.0,962.3,8.65,54.0,156,33.6,28.6,0.7,340.0,180.0,3.5,0,5,7,1,2026-07-07T17:22:40.819418+05:30
Amritsar,Punjab,31.634,74.8723,33.5,63,0.0,969.6,8.4,37.8,155,90.8,55.4,2.1,406.0,174.0,5.5,3,5,7,1,2026-07-07T17:22:40.819426+05:30
Ludhiana,Punjab,30.901,75.8573,33.5,62,0.0,967.5,7.2,34.2,157,86.8,46.3,2.9,419.0,181.0,9.1,3,5,7,1,2026-07-07T17:22:40.819433+05:30
Jalandhar,Punjab,31.326,75.5762,33.3,64,0.0,968.6,7.7,35.3,158,107.1,56.0,0.8,410.0,185.0,5.9,3,5,7,1,2026-07-07T17:22:40.819441+05:30
Dehradun,Uttarakhand,30.6284,78.0322,24.9,68,0.0,825.2,7.55,29.9,103,11.8,11.6,1.1,244.0,142.0,2.5,3,5,7,1,2026-07-07T17:22:40.819451+05:30
Shimla,Himachal Pradesh,31.1048,77.1734,21.1,81,0.1,780.6,5.7,25.2,119,21.7,19.2,0.9,267.0,165.0,7.8,6,5,3,1,2026-07-07T17:22:40.819459+05:30
Manali,Himachal Pradesh,32.2396,77.1887,24.5,76,0.0,815.4,9.55,31.3,94,13.4,12.8,14.7,203.0,137.0,1.1,3,5,7,1,2026-07-07T17:22:40.819471+05:30
Gurgaon,Haryana,28.4595,77.0266,33.6,61,0.0,970.0,7.75,24.1,129,49.7,35.3,7.2,348.0,211.0,23.4,3,5,7,1,2026-07-07T17:22:40.819479+05:30
Noida,Uttar Pradesh,28.5355,77.391,32.3,72,0.0,973.1,7.05,26.6,129,49.7,35.3,7.2,448.0,211.0,23.4,3,5,7,1,2026-07-07T17:22:40.819487+05:30
Ghaziabad,Uttar Pradesh,28.6692,77.4538,31.7,74,0.0,971.5,7.05,28.1,137,44.8,39.6,4.4,269.0,207.0,23.4,3,5,7,1,2026-07-07T17:22:40.819495+05:30
Faridabad,Haryana,28.4089,77.3178,32.8,67,0.0,972.4,6.55,25.2,129,49.7,35.3,7.2,431.0,211.0,23.4,3,5,7,1,2026-07-07T17:22:40.819502+05:30
Meerut,Uttar Pradesh,28.9845,77.7064,30.9,78,0.0,970.5,6.8,28.8,137,44.8,39.6,4.4,264.0,207.0,23.4,3,5,7,1,2026-07-07T17:22:40.819510+05:30
Agra,Uttar Pradesh,27.1767,78.0081,32.4,66,0.1,976.2,3.7,33.8,120,57.3,24.1,3.8,256.0,149.0,8.0,6,5,3,1,2026-07-07T17:22:40.819517+05:30
Varanasi,Uttar Pradesh,25.3176,82.9739,31.1,73,0.0,985.9,6.7,33.8,58,13.0,12.7,4.4,815.0,112.0,8.0,3,5,7,1,2026-07-07T17:22:40.819525+05:30
Prayagraj,Uttar Pradesh,25.4358,81.8463,30.7,75,0.0,983.3,3.55,35.3,54,13.4,13.4,5.9,367.0,117.0,8.3,3,5,3,1,2026-07-07T17:22:40.819533+05:30
Gorakhpur,Uttar Pradesh,26.7606,83.3732,27.9,94,0.5,986.7,7.25,49.0,62,20.6,20.6,5.4,286.0,132.0,8.8,10,5,7,1,2026-07-07T17:22:40.819541+05:30
Bareilly,Uttar Pradesh,28.367,79.4304,31.6,74,0.1,975.9,7.0,28.8,127,19.2,18.8,3.0,243.0,143.0,5.0,6,5,7,1,2026-07-07T17:22:40.819550+05:30
Aligarh,Uttar Pradesh,27.8974,78.088,33.0,65,0.0,974.1,5.65,34.9,108,34.3,24.3,2.9,245.0,160.0,10.8,3,5,3,1,2026-07-07T17:22:40.819558+05:30
Moradabad,Uttar Pradesh,28.8386,78.7733,32.0,74,0.0,972.4,6.55,26.6,154,33.9,33.1,3.0,255.0,178.0,15.6,3,5,7,1,2026-07-07T17:22:40.819565+05:30
Saharanpur,Uttar Pradesh,29.9637,77.546,31.3,75,0.0,964.8,6.75,40.0,165,40.2,35.5,4.2,349.0,192.0,8.8,3,5,7,1,2026-07-07T17:22:40.819573+05:30
Jhansi,Uttar Pradesh,25.4484,78.5685,27.7,89,0.2,965.9,5.6,47.9,59,21.6,12.8,6.2,231.0,103.0,3.3,10,5,3,1,2026-07-07T17:22:44.240737+05:30
Surat,Gujarat,21.1702,72.8311,27.1,96,0.3,996.2,2.25,33.1,102,49.0,37.8,37.9,577.0,41.0,66.5,10,5,3,1,2026-07-07T17:22:44.240773+05:30
Vadodara,Gujarat,22.3072,73.1812,28.3,92,0.1,993.1,2.7,33.5,88,49.2,32.4,8.5,367.0,108.0,10.3,10,5,3,1,2026-07-07T17:22:44.240784+05:30
Rajkot,Gujarat,22.3039,70.8022,30.5,79,0.0,983.9,0.9,34.9,77,52.0,29.3,5.6,124.0,89.0,9.7,3,5,3,1,2026-07-07T17:22:44.240793+05:30
Thane,Maharashtra,19.2183,72.9781,26.4,91,0.0,999.3,0.7,47.5,53,26.5,13.6,8.7,241.0,62.0,4.9,7,5,3,1,2026-07-07T17:22:44.240802+05:30
Nagpur,Maharashtra,21.1458,79.0882,28.6,83,0.1,961.7,7.75,51.8,39,5.5,4.9,7.1,224.0,63.0,9.6,10,5,7,1,2026-07-07T17:22:44.240810+05:30
Nashik,Maharashtra,19.9975,73.7898,24.0,94,0.0,936.1,2.3,42.1,27,10.8,6.9,5.1,141.0,68.0,2.0,3,5,3,1,2026-07-07T17:22:44.240818+05:30
Aurangabad,Maharashtra,19.8762,75.3433,26.2,79,0.0,934.8,2.2,63.0,29,5.0,4.5,4.4,156.0,93.0,5.8,7,5,3,1,2026-07-07T17:22:44.240825+05:30
Solapur,Maharashtra,17.6599,75.9064,28.8,66,0.0,949.9,6.6,67.7,27,3.7,2.6,2.8,112.0,60.0,1.8,7,5,7,1,2026-07-07T17:22:44.240833+05:30
Kolhapur,Maharashtra,16.705,74.2433,23.3,95,0.2,942.2,6.1,55.8,24,10.6,6.7,4.8,128.0,47.0,1.5,6,5,7,1,2026-07-07T17:22:44.240841+05:30
Goa,Goa,15.2993,74.124,27.4,89,0.0,994.9,5.85,42.5,60,31.5,15.4,1.4,133.0,52.0,0.8,7,5,3,1,2026-07-07T17:22:44.240848+05:30
Jodhpur,Rajasthan,26.2389,73.0243,32.2,68,0.0,971.9,6.8,44.3,75,88.7,28.2,2.3,163.0,116.0,2.9,3,5,7,1,2026-07-07T17:22:44.240855+05:30
Udaipur,Rajasthan,24.5854,73.7125,30.1,67,0.0,936.1,8.75,31.7,65,14.1,13.5,1.1,195.0,121.0,4.8,3,5,7,1,2026-07-07T17:22:44.240863+05:30
Kota,Rajasthan,25.2138,75.8648,32.9,63,0.0,967.0,5.75,32.4,64,11.1,10.0,3.4,209.0,107.0,2.3,3,5,3,1,2026-07-07T17:22:44.240869+05:30
Bikaner,Rajasthan,28.0229,73.3119,40.5,32,0.0,969.5,8.45,28.1,85,133.2,42.8,0.1,159.0,102.0,2.9,0,5,10,1,2026-07-07T17:22:44.240877+05:30
Ajmer,Rajasthan,26.4499,74.6399,31.7,62,0.0,944.4,8.4,28.4,64,21.3,17.1,1.2,228.0,122.0,1.6,3,5,7,1,2026-07-07T17:22:44.240885+05:30
Gwalior,Madhya Pradesh,26.2183,78.1828,30.2,82,0.0,971.4,4.35,41.8,73,66.8,23.9,4.7,248.0,116.0,3.5,3,5,3,1,2026-07-07T17:22:44.240893+05:30
Indore,Madhya Pradesh,22.7196,75.8577,25.4,93,0.1,937.0,7.8,32.4,80,15.9,15.9,8.3,428.0,96.0,3.2,10,5,7,1,2026-07-07T17:22:44.240901+05:30
Bhopal,Madhya Pradesh,23.2599,77.4126,26.0,90,0.4,941.8,8.5,27.4,55,9.6,9.6,5.3,289.0,99.0,2.2,10,5,7,1,2026-07-07T17:22:44.240909+05:30
Jabalpur,Madhya Pradesh,23.1815,79.9864,26.8,91,0.2,949.4,8.3,34.2,48,9.3,8.9,3.1,183.0,91.0,4.0,10,5,7,1,2026-07-07T17:22:44.240916+05:30
Ujjain,Madhya Pradesh,23.1765,75.7885,26.5,91,0.3,942.7,7.95,29.5,77,17.2,17.1,3.5,295.0,111.0,4.5,10,5,7,1,2026-07-07T17:22:44.240924+05:30
Visakhapatnam,Andhra Pradesh,17.6868,83.2185,29.6,72,0.0,996.2,8.6,60.1,71,32.5,21.3,10.7,242.0,94.0,23.3,7,5,7,1,2026-07-07T17:22:44.240932+05:30
Vijayawada,Andhra Pradesh,16.5062,80.648,32.0,67,0.2,994.9,4.9,54.0,49,30.7,14.8,3.8,115.0,79.0,3.6,6,5,3,1,2026-07-07T17:22:44.240939+05:30
Guntur,Andhra Pradesh,16.3067,80.4365,31.4,75,0.3,996.1,5.2,57.6,39,28.0,13.4,4.1,114.0,71.0,2.8,6,5,3,1,2026-07-07T17:22:44.240946+05:30
Nellore,Andhra Pradesh,14.4426,79.9865,34.7,49,0.1,998.9,8.35,55.1,35,26.7,12.2,3.7,115.0,81.0,2.0,3,5,7,1,2026-07-07T17:22:44.240954+05:30
Kurnool,Andhra Pradesh,15.8281,78.0373,32.4,50,0.0,970.6,4.45,67.0,32,10.4,4.9,1.5,110.0,71.0,1.7,0,5,3,1,2026-07-07T17:22:44.240962+05:30
Kakinada,Andhra Pradesh,16.9891,82.2475,31.9,61,0.0,1000.0,7.95,57.2,64,30.9,19.3,2.0,142.0,106.0,2.5,3,5,4,1,2026-07-07T17:22:44.240969+05:30
Tirupati,Andhra Pradesh,13.6288,79.4192,34.8,42,0.0,985.4,7.95,58.0,34,15.2,7.3,5.1,120.0,76.0,1.5,0,5,7,1,2026-07-07T17:22:44.240976+05:30
Warangal,Telangana,17.9689,79.5941,31.4,65,0.0,970.0,6.8,63.0,32,18.7,9.4,1.9,151.0,80.0,2.1,3,5,7,1,2026-07-07T17:22:44.240984+05:30
Nizamabad,Telangana,18.6725,78.0941,30.5,65,0.0,955.4,8.55,60.1,27,5.1,4.1,3.2,137.0,61.0,1.9,3,5,7,1,2026-07-07T17:22:44.240991+05:30
Mysore,Karnataka,12.2958,76.6396,25.5,69,0.0,927.1,8.0,70.9,29,10.6,5.9,2.8,123.0,65.0,1.2,7,5,7,1,2026-07-07T17:22:44.240998+05:30
Mangalore,Karnataka,12.9141,74.856,28.8,73,0.1,1005.9,8.7,63.0,64,38.0,19.4,1.9,109.0,53.0,1.1,10,5,4,1,2026-07-07T17:22:44.241005+05:30
Hubli-Dharwad,Karnataka,15.3647,75.124,23.1,91,0.2,936.8,4.95,68.4,23,10.5,5.3,3.8,120.0,50.0,0.9,6,5,3,1,2026-07-07T17:22:44.241013+05:30
Belgaum,Karnataka,15.8497,74.4977,22.4,94,0.1,921.1,1.35,66.2,22,3.3,2.3,3.6,118.0,49.0,1.2,6,5,3,1,2026-07-07T17:22:47.773579+05:30
Coimbatore,Tamil Nadu,11.0168,76.9558,27.0,73,0.0,960.2,8.45,69.5,29,20.0,10.2,2.1,140.0,68.0,1.7,7,5,7,1,2026-07-07T17:22:47.773614+05:30
Madurai,Tamil Nadu,9.9252,78.1198,35.2,36,0.0,989.2,8.6,59.8,56,35.9,12.9,2.4,124.0,85.0,1.5,0,5,10,1,2026-07-07T17:22:47.773625+05:30
Trichy,Tamil Nadu,10.7905,78.7047,35.2,37,0.0,995.9,8.5,73.1,45,30.9,12.3,1.9,111.0,76.0,1.4,0,5,10,1,2026-07-07T17:22:47.773634+05:30
Salem,Tamil Nadu,11.6643,78.146,32.2,51,0.0,974.0,8.3,40.0,49,26.9,11.6,2.4,125.0,87.0,3.4,0,5,7,1,2026-07-07T17:22:47.773642+05:30
Tirunelveli,Tamil Nadu,8.7139,77.7567,33.7,37,0.0,1001.3,8.6,51.5,51,34.5,17.1,1.6,113.0,70.0,1.1,0,5,4,1,2026-07-07T17:22:47.773650+05:30
Vellore,Tamil Nadu,12.9165,79.1325,35.2,38,0.0,979.4,7.7,55.4,35,17.8,7.9,2.8,116.0,82.0,1.5,0,5,10,1,2026-07-07T17:22:47.773658+05:30
Erode,Tamil Nadu,11.341,77.7172,31.8,51,0.0,985.9,8.35,58.7,46,27.5,12.8,2.4,133.0,82.0,1.6,0,5,7,1,2026-07-07T17:22:47.773665+05:30
Kochi,Kerala,9.9312,76.2673,28.9,79,0.0,1008.9,7.95,43.2,63,37.3,18.9,2.2,115.0,65.0,2.0,7,0,4,1,2026-07-07T17:22:47.773673+05:30
Thiruvananthapuram,Kerala,8.5241,76.9366,27.9,82,0.0,1007.9,8.35,49.3,55,22.1,12.7,2.8,108.0,61.0,1.0,7,5,4,1,2026-07-07T17:22:47.773681+05:30
Kozhikode,Kerala,11.2588,75.7804,28.2,81,0.1,1008.1,8.1,33.8,60,36.8,18.6,0.6,125.0,60.0,0.7,10,0,4,1,2026-07-07T17:22:47.773688+05:30
Thrissur,Kerala,10.5276,76.2144,29.0,73,0.0,1007.3,8.45,47.9,58,36.1,18.1,1.8,110.0,61.0,1.3,7,5,4,1,2026-07-07T17:22:47.773696+05:30
Kannur,Kerala,11.8745,75.3704,28.9,76,0.0,1007.0,7.85,52.2,60,37.7,19.3,1.3,94.0,56.0,0.8,7,5,4,1,2026-07-07T17:22:47.773703+05:30
Patna,Bihar,25.5941,85.1376,29.7,85,0.1,989.8,8.55,38.5,53,15.9,15.9,11.9,279.0,107.0,10.5,10,5,7,1,2026-07-07T17:22:47.773710+05:30
Gaya,Bihar,24.7914,85.0002,30.7,79,0.0,983.4,8.75,37.8,54,21.1,21.1,11.4,214.0,93.0,11.9,3,5,7,1,2026-07-07T17:22:47.773717+05:30
Muzaffarpur,Bihar,26.1209,85.3647,31.5,72,0.0,989.8,7.95,44.3,57,16.8,16.8,8.7,321.0,119.0,9.8,3,5,7,1,2026-07-07T17:22:47.773723+05:30
Bhagalpur,Bihar,25.2425,87.0117,28.5,91,0.1,991.9,8.45,43.9,57,19.7,19.2,11.8,336.0,100.0,24.3,10,5,7,1,2026-07-07T17:22:47.773730+05:30
Ranchi,Jharkhand,23.3441,85.3096,27.0,76,0.0,929.4,7.9,54.0,37,30.3,17.6,2.2,169.0,99.0,6.1,7,5,7,1,2026-07-07T17:22:47.773738+05:30
Jamshedpur,Jharkhand,22.8046,86.2029,30.9,68,0.0,982.0,5.4,53.3,51,21.9,16.4,6.6,491.0,103.0,14.6,3,5,3,1,2026-07-07T17:22:47.773745+05:30
Dhanbad,Jharkhand,23.7957,86.4304,30.5,72,0.0,970.8,7.7,45.4,73,30.3,26.4,24.3,376.0,85.0,62.0,3,5,7,1,2026-07-07T17:22:47.773752+05:30
Bokaro,Jharkhand,23.6693,86.1511,30.8,69,0.0,974.5,7.1,48.6,67,24.2,18.2,12.6,172.0,88.0,38.0,3,5,7,1,2026-07-07T17:22:47.773759+05:30
Bhubaneswar,Odisha,20.2961,85.8245,29.7,73,0.0,994.4,8.9,59.0,63,23.0,17.3,4.2,177.0,91.0,6.0,7,5,7,1,2026-07-07T17:22:47.773766+05:30
Cuttack,Odisha,20.4625,85.8828,30.0,73,0.0,996.0,8.85,54.0,63,23.0,17.3,4.2,195.0,91.0,6.0,7,5,7,1,2026-07-07T17:22:47.773773+05:30
Rourkela,Odisha,22.2604,84.8536,31.0,71,0.0,975.8,7.05,55.1,41,29.0,16.2,2.7,283.0,95.0,3.6,3,5,7,1,2026-07-07T17:22:47.773780+05:30
Raipur,Chhattisgarh,21.2514,81.6296,31.3,62,0.0,964.1,6.45,58.3,52,9.6,9.1,8.1,159.0,79.0,19.1,3,5,7,1,2026-07-07T17:22:47.773787+05:30
Bhilai,Chhattisgarh,21.1938,81.3509,30.7,65,0.0,964.5,7.65,61.9,51,8.3,8.0,7.5,325.0,75.0,17.9,3,5,7,1,2026-07-07T17:22:47.773793+05:30
Guwahati,Assam,26.1158,91.7086,28.7,91,0.0,993.4,6.95,22.7,39,7.1,7.0,3.2,226.0,79.0,1.2,7,5,7,1,2026-07-07T17:22:47.773800+05:30
Agartala,Tripura,23.8315,91.2868,26.3,96,0.0,999.5,6.3,41.4,35,11.4,10.8,10.4,171.0,63.0,3.7,7,5,7,1,2026-07-07T17:22:47.773807+05:30
Shillong,Meghalaya,25.5788,91.8933,22.7,82,0.0,852.9,3.4,34.2,31,2.9,2.8,5.4,154.0,69.0,1.6,3,5,3,1,2026-07-07T17:22:47.773813+05:30
Imphal,Manipur,24.817,93.9368,24.5,90,0.1,918.3,8.05,29.2,29,3.6,3.3,6.4,169.0,51.0,1.3,6,5,7,1,2026-07-07T17:22:47.773821+05:30
Aizawl,Mizoram,23.7271,92.7176,20.2,98,0.1,887.6,1.25,50.4,25,1.6,1.3,3.1,124.0,60.0,1.0,6,5,3,1,2026-07-07T17:22:47.773827+05:30
Kohima,Nagaland,25.6701,94.1077,21.8,98,0.2,851.1,4.5,20.5,29,2.2,2.1,3.2,159.0,56.0,0.6,6,5,3,1,2026-07-07T17:22:47.773834+05:30
Gangtok,Sikkim,27.3314,88.6138,19.8,97,0.1,833.4,4.05,25.2,35,2.4,2.4,3.5,192.0,94.0,1.2,6,10,3,1,2026-07-07T17:22:47.773841+05:30
Siliguri,West Bengal,26.7271,88.3953,28.6,87,0.1,985.0,8.35,29.5,39,9.6,9.5,7.3,369.0,95.0,2.8,10,5,7,1,2026-07-07T17:22:51.165908+05:30
Durgapur,West Bengal,23.5204,87.3119,28.6,87,0.0,986.1,7.7,40.3,72,31.1,29.2,19.2,290.0,111.0,44.9,7,5,7,1,2026-07-07T17:22:51.165948+05:30
Asansol,West Bengal,23.6739,86.9524,30.4,78,0.0,984.4,8.2,45.7,65,28.3,26.1,21.0,338.0,99.0,44.3,3,5,7,1,2026-07-07T17:22:51.165961+05:30
Pondicherry,Puducherry,11.9139,79.8145,36.3,39,0.0,1003.1,8.6,41.0,59,32.6,19.7,6.1,170.0,110.0,5.9,0,5,7,1,2026-07-07T17:22:51.165971+05:30
Port Blair,Andaman and Nicobar Islands,11.6234,92.7265,28.3,80,0.0,1006.6,8.05,38.5,57,35.2,19.6,0.5,106.0,66.0,0.6,7,5,4,1,2026-07-07T17:22:51.165981+05:30
Haridwar,Uttarakhand,29.9457,78.1642,29.0,88,0.0,963.3,7.25,33.8,127,30.0,27.3,2.6,285.0,166.0,5.0,7,5,7,1,2026-07-07T17:22:51.165991+05:30
Rishikesh,Uttarakhand,30.0869,78.2676,29.6,80,0.0,956.2,6.9,25.9,103,24.3,23.1,1.4,275.0,154.0,5.4,7,5,7,1,2026-07-07T17:22:51.166000+05:30
Nainital,Uttarakhand,29.3919,79.4542,23.4,69,0.0,801.2,6.45,22.0,72,16.9,16.5,1.8,189.0,148.0,6.3,3,5,7,1,2026-07-07T17:22:51.166010+05:30
Mussoorie,Uttarakhand,30.4599,78.0664,22.6,69,0.0,798.7,7.45,30.2,132,22.7,21.8,2.0,238.0,166.0,5.4,3,5,7,1,2026-07-07T17:22:51.166018+05:30
Dharamshala,Himachal Pradesh,32.219,76.3234,25.5,75,0.0,862.8,8.2,30.2,90,15.8,14.3,1.5,283.0,131.0,1.8,7,5,7,1,2026-07-07T17:22:51.166027+05:30
Dalhousie,Himachal Pradesh,32.5387,75.971,22.9,79,0.0,800.8,8.7,29.9,136,33.5,30.0,1.2,291.0,166.0,4.4,3,5,7,1,2026-07-07T17:22:51.166037+05:30
Patiala,Punjab,30.3398,76.3869,32.4,70,0.0,967.0,7.35,38.5,152,39.8,29.9,3.7,290.0,166.0,7.7,3,5,7,1,2026-07-07T17:22:51.166046+05:30
Bhatinda,Punjab,30.211,74.9455,35.6,53,0.0,972.1,8.0,55.1,172,200.7,84.8,2.5,365.0,224.0,21.0,0,5,10,1,2026-07-07T17:22:51.166054+05:30
Rohtak,Haryana,28.8955,76.6066,34.0,62,0.0,970.1,7.0,25.9,130,41.3,28.3,1.7,324.0,194.0,8.2,3,5,7,1,2026-07-07T17:22:51.166062+05:30
Panipat,Haryana,29.3909,76.9635,32.5,66,0.0,969.0,5.0,18.7,132,49.9,35.4,5.0,257.0,199.0,22.6,3,5,3,1,2026-07-07T17:22:51.166071+05:30
Mathura,Uttar Pradesh,27.4924,77.6737,33.5,60,0.0,975.1,3.95,31.7,112,48.1,21.0,2.1,244.0,141.0,3.3,0,5,3,1,2026-07-07T17:22:51.166079+05:30
Vrindavan,Uttar Pradesh,27.5823,77.7027,33.7,59,0.0,975.5,4.25,28.8,112,48.1,21.0,2.1,240.0,141.0,3.3,0,5,3,1,2026-07-07T17:22:51.166087+05:30
Ayodhya,Uttar Pradesh,26.7922,82.1998,28.1,92,0.0,984.2,6.2,47.2,57,17.0,17.0,7.2,294.0,108.0,6.2,7,5,7,1,2026-07-07T17:22:51.166095+05:30
Ratlam,Madhya Pradesh,23.3315,75.0367,26.3,91,0.6,943.9,7.4,40.3,71,15.8,15.6,3.3,236.0,108.0,4.8,10,5,7,1,2026-07-07T17:22:51.166103+05:30
Sagar,Madhya Pradesh,23.8388,78.7378,25.9,93,0.0,937.9,4.05,25.2,44,4.1,4.1,4.3,244.0,90.0,1.6,7,5,3,1,2026-07-07T17:22:51.166111+05:30
Satna,Madhya Pradesh,24.6005,80.8322,28.4,83,0.0,958.8,5.4,29.2,46,11.6,11.2,2.2,224.0,105.0,4.6,7,5,3,1,2026-07-07T17:22:51.166119+05:30
Akola,Maharashtra,20.7002,77.0082,28.2,84,0.1,964.2,7.1,50.4,34,6.3,6.2,4.5,225.0,84.0,6.8,10,5,7,1,2026-07-07T17:22:51.166128+05:30
Amravati,Maharashtra,20.9374,77.7796,26.7,89,0.2,956.3,5.55,45.0,32,5.9,5.4,4.0,212.0,77.0,6.7,10,5,3,1,2026-07-07T17:22:51.166138+05:30
Latur,Maharashtra,18.4088,76.5604,27.4,74,0.0,931.7,8.0,64.4,26,2.3,2.0,2.5,127.0,62.0,1.4,7,5,7,1,2026-07-07T17:22:51.166146+05:30
Nanded,Maharashtra,19.1383,77.3091,31.0,59,0.1,958.7,6.2,61.9,32,5.0,4.3,4.4,131.0,67.0,4.1,3,5,7,1,2026-07-07T17:22:51.166155+05:30
Gulbarga,Karnataka,17.3297,76.8343,29.3,63,0.0,951.7,6.9,70.9,27,4.9,2.9,2.4,117.0,66.0,1.9,7,5,7,1,2026-07-07T17:22:51.166162+05:30
Bidar,Karnataka,17.9104,77.5199,28.7,65,0.0,927.9,7.45,68.0,25,3.2,2.6,3.4,129.0,65.0,1.7,7,5,7,1,2026-07-07T17:22:51.166170+05:30
Hospet,Karnataka,15.2689,76.3909,27.7,65,0.0,951.6,6.8,76.7,27,8.9,4.3,2.3,109.0,58.0,1.4,7,5,7,1,2026-07-07T17:22:51.166178+05:30
Tirupur,Tamil Nadu,11.1085,77.3411,29.0,64,0.0,972.7,8.35,69.8,48,26.0,12.3,2.2,138.0,79.0,2.0,7,5,7,1,2026-07-07T17:22:51.166185+05:30
Alappuzha,Kerala,9.4981,76.3388,28.9,80,0.0,1008.9,8.2,45.4,65,31.2,17.9,4.6,91.0,67.0,2.5,7,0,4,1,2026-07-07T17:22:51.166193+05:30
Munnar,Kerala,10.0889,77.0595,17.1,91,0.1,856.3,7.2,60.1,30,28.2,13.9,2.6,102.0,68.0,1.4,6,10,7,0,2026-07-07T17:22:51.166202+05:30
Silchar,Assam,24.8333,92.7789,27.6,92,0.2,998.9,1.0,27.0,35,6.4,6.0,3.8,165.0,56.0,1.8,10,5,3,1,2026-07-07T17:22:51.166210+05:30
Dibrugarh,Assam,27.4728,94.912,27.8,93,0.1,987.8,3.7,31.0,40,8.2,7.7,4.7,204.0,76.0,1.4,10,5,3,1,2026-07-07T17:22:51.166218+05:30
