city,state,latitude,longitude,temp,humidity,rain,pressure,uv_index,wind_gusts,aqi,pm10,pm2_5,mosquito_risk,arthritis_risk,migraine_risk,frizz_risk,updated_at
Delhi,Delhi,28.6139,77.209,19.8,68,0.0,984.2,6.15,34.9,185,347.4,96.2,3,5,7,0,2026-03-15T04:00:40.206706+05:30
Mumbai,Maharashtra,19.076,72.8777,27.6,77,0.0,1009.2,7.7,23.8,113,78.5,34.9,7,0,4,1,2026-03-15T04:00:40.206746+05:30
Bangalore,Karnataka,12.9716,77.5946,19.7,73,0.0,911.9,9.3,18.4,89,30.6,29.2,3,5,7,0,2026-03-15T04:00:40.206762+05:30
Hyderabad,Telangana,17.385,78.4867,22.3,88,0.0,953.8,8.75,23.0,99,32.4,26.1,3,5,7,1,2026-03-15T04:00:40.206772+05:30
Chennai,Tamil Nadu,13.0827,80.2707,25.3,89,0.0,1009.7,9.05,30.6,50,17.7,13.9,7,0,4,1,2026-03-15T04:00:40.206781+05:30
Kolkata,West Bengal,22.5726,88.3639,25.1,86,0.0,1008.3,7.9,36.7,73,15.9,11.6,7,0,4,1,2026-03-15T04:00:40.206790+05:30
Pune,Maharashtra,18.5204,73.8567,23.0,30,0.0,948.8,8.3,40.3,104,35.2,30.4,0,5,7,0,2026-03-15T04:00:40.206802+05:30
Ahmedabad,Gujarat,23.0225,72.5714,22.5,60,0.0,1002.9,7.5,24.8,79,53.9,20.7,0,5,4,0,2026-03-15T04:00:40.206809+05:30
Jaipur,Rajasthan,26.9124,75.7873,22.2,51,0.0,959.3,7.0,44.6,123,277.5,50.8,0,5,7,0,2026-03-15T04:00:40.206817+05:30
Lucknow,Uttar Pradesh,26.8467,80.9462,21.2,67,0.0,994.3,6.4,49.3,157,189.1,60.1,3,5,7,0,2026-03-15T04:00:40.206825+05:30
Kanpur,Uttar Pradesh,26.4499,80.3319,20.7,67,0.0,992.2,6.75,45.0,232,286.8,67.1,3,5,7,0,2026-03-15T04:00:40.206832+05:30
Chandigarh,Chandigarh,30.7333,76.7794,17.3,73,0.0,968.2,5.85,47.5,77,30.6,30.4,3,5,3,0,2026-03-15T04:00:40.206840+05:30
Srinagar,Jammu and Kashmir,34.0837,74.7973,7.5,79,0.0,837.2,4.5,31.0,96,61.5,40.7,3,5,3,0,2026-03-15T04:00:40.206847+05:30
Jammu,Jammu and Kashmir,32.7266,74.857,17.5,70,0.0,972.0,4.25,59.4,82,29.2,26.1,3,5,3,0,2026-03-15T04:00:40.206854+05:30
Amritsar,Punjab,31.634,74.8723,16.9,74,0.0,980.3,3.75,42.8,96,59.0,49.7,3,5,3,0,2026-03-15T04:00:40.206861+05:30
Ludhiana,Punjab,30.901,75.8573,17.7,61,0.0,978.5,5.3,36.4,115,86.8,55.5,3,5,3,0,2026-03-15T04:00:40.206867+05:30
Jalandhar,Punjab,31.326,75.5762,16.2,82,0.0,979.5,6.1,35.6,109,68.9,52.4,3,10,7,0,2026-03-15T04:00:40.206876+05:30
Dehradun,Uttarakhand,30.6284,78.0322,11.7,32,0.0,827.7,6.15,31.3,52,26.3,16.0,0,5,7,1,2026-03-15T04:00:40.206883+05:30
Shimla,Himachal Pradesh,31.1048,77.1734,10.5,42,0.0,781.4,5.7,46.8,61,35.0,24.4,0,5,3,1,2026-03-15T04:00:40.206892+05:30
Manali,Himachal Pradesh,32.2396,77.1887,11.1,51,0.0,818.2,6.35,32.0,49,32.8,13.1,0,5,7,0,2026-03-15T04:00:40.206900+05:30
Gurgaon,Haryana,28.4595,77.0266,17.7,79,0.0,982.5,6.25,37.4,484,478.7,114.1,3,5,7,0,2026-03-15T04:00:40.206907+05:30
Noida,Uttar Pradesh,28.5355,77.391,19.0,73,0.0,985.9,6.15,36.0,484,478.7,114.1,3,5,7,0,2026-03-15T04:00:40.206913+05:30
Ghaziabad,Uttar Pradesh,28.6692,77.4538,18.2,77,0.0,984.1,6.15,30.6,168,353.9,102.2,3,5,7,0,2026-03-15T04:00:40.206919+05:30
Faridabad,Haryana,28.4089,77.3178,19.0,66,0.0,985.2,6.2,35.3,484,478.7,114.1,3,5,7,0,2026-03-15T04:00:40.206925+05:30
Meerut,Uttar Pradesh,28.9845,77.7064,17.2,78,0.0,981.9,6.05,28.8,168,353.9,102.2,3,5,7,0,2026-03-15T04:00:40.206932+05:30
Agra,Uttar Pradesh,27.1767,78.0081,18.3,68,0.0,989.2,6.6,35.6,342,1072.9,125.3,3,5,7,0,2026-03-15T04:00:40.206938+05:30
Varanasi,Uttar Pradesh,25.3176,82.9739,20.1,85,0.0,998.1,7.25,38.9,145,115.0,70.1,3,5,7,1,2026-03-15T04:00:40.206948+05:30
Prayagraj,Uttar Pradesh,25.4358,81.8463,20.8,82,0.0,996.4,7.25,37.8,149,104.1,52.7,3,5,7,1,2026-03-15T04:00:40.206955+05:30
Gorakhpur,Uttar Pradesh,26.7606,83.3732,18.8,81,0.0,998.3,7.05,37.1,152,86.1,71.7,3,10,7,0,2026-03-15T04:00:40.206961+05:30
Bareilly,Uttar Pradesh,28.367,79.4304,17.2,88,0.0,987.9,5.55,23.4,142,197.4,80.8,3,10,3,0,2026-03-15T04:00:40.206971+05:30
Aligarh,Uttar Pradesh,27.8974,78.088,17.1,79,0.0,986.5,6.3,37.1,316,228.2,91.0,3,5,7,0,2026-03-15T04:00:40.206978+05:30
Moradabad,Uttar Pradesh,28.8386,78.7733,17.4,76,0.0,984.2,6.2,23.4,152,204.9,94.5,3,5,7,0,2026-03-15T04:00:40.206984+05:30
Saharanpur,Uttar Pradesh,29.9637,77.546,16.1,81,0.0,975.4,5.8,33.5,141,113.9,74.5,3,10,3,0,2026-03-15T04:00:40.206990+05:30
Jhansi,Uttar Pradesh,25.4484,78.5685,20.5,68,0.0,978.3,7.15,38.2,143,83.8,34.9,3,5,7,0,2026-03-15T04:00:43.504130+05:30
Surat,Gujarat,21.1702,72.8311,25.5,88,0.0,1007.5,7.4,23.4,137,60.8,40.9,7,5,4,1,2026-03-15T04:00:43.504156+05:30
Vadodara,Gujarat,22.3072,73.1812,23.8,81,0.0,1005.2,7.5,22.7,91,51.6,30.7,3,5,4,1,2026-03-15T04:00:43.504165+05:30
Rajkot,Gujarat,22.3039,70.8022,23.0,85,0.0,995.5,7.35,34.9,89,50.6,20.6,3,5,7,1,2026-03-15T04:00:43.504173+05:30
Thane,Maharashtra,19.2183,72.9781,24.8,87,0.0,1008.7,7.7,35.6,113,78.5,34.9,3,0,4,1,2026-03-15T04:00:43.504180+05:30
Nagpur,Maharashtra,21.1458,79.0882,24.3,67,0.0,973.4,8.15,29.5,131,54.2,48.1,3,5,7,1,2026-03-15T04:00:43.504187+05:30
Nashik,Maharashtra,19.9975,73.7898,20.6,32,0.0,945.8,7.9,40.3,84,46.6,25.7,0,5,7,0,2026-03-15T04:00:43.504194+05:30
Aurangabad,Maharashtra,19.8762,75.3433,23.1,37,0.0,944.2,8.4,26.6,76,30.3,23.6,0,5,7,0,2026-03-15T04:00:43.504200+05:30
Solapur,Maharashtra,17.6599,75.9064,23.0,58,0.0,957.6,8.65,27.7,119,44.0,41.1,0,5,7,0,2026-03-15T04:00:43.504206+05:30
Kolhapur,Maharashtra,16.705,74.2433,21.8,88,0.0,948.3,8.75,41.8,153,81.7,77.1,3,5,7,1,2026-03-15T04:00:43.504212+05:30
Goa,Goa,15.2993,74.124,27.8,83,0.0,998.6,8.8,32.8,128,53.9,48.9,7,5,7,1,2026-03-15T04:00:43.504219+05:30
Jodhpur,Rajasthan,26.2389,73.0243,25.3,34,0.0,982.1,7.25,30.2,98,247.7,60.3,4,5,7,0,2026-03-15T04:00:43.504225+05:30
Udaipur,Rajasthan,24.5854,73.7125,22.9,44,0.0,946.3,7.85,34.6,63,60.1,20.9,0,5,7,0,2026-03-15T04:00:43.504232+05:30
Kota,Rajasthan,25.2138,75.8648,22.4,61,0.0,979.0,7.3,32.4,75,16.7,11.5,3,5,7,0,2026-03-15T04:00:43.504238+05:30
Bikaner,Rajasthan,28.0229,73.3119,22.8,55,0.0,981.5,6.9,46.1,75,41.4,16.4,0,5,7,0,2026-03-15T04:00:43.504243+05:30
Ajmer,Rajasthan,26.4499,74.6399,21.5,54,0.0,953.6,7.25,38.2,77,39.0,18.9,0,5,7,0,2026-03-15T04:00:43.504249+05:30
Gwalior,Madhya Pradesh,26.2183,78.1828,21.2,76,0.0,984.1,6.9,34.9,192,187.2,47.8,3,5,7,1,2026-03-15T04:00:43.504255+05:30
Indore,Madhya Pradesh,22.7196,75.8577,20.2,53,0.0,948.0,7.8,33.5,73,21.8,14.6,0,5,7,0,2026-03-15T04:00:43.504260+05:30
Bhopal,Madhya Pradesh,23.2599,77.4126,20.3,48,0.0,953.3,7.7,39.2,75,18.2,14.1,0,5,7,0,2026-03-15T04:00:43.504266+05:30
Jabalpur,Madhya Pradesh,23.1815,79.9864,23.0,50,0.0,961.2,7.85,32.0,72,20.4,19.2,0,5,7,0,2026-03-15T04:00:43.504272+05:30
Ujjain,Madhya Pradesh,23.1765,75.7885,19.9,59,0.0,953.7,7.7,30.6,74,23.2,16.1,0,5,7,0,2026-03-15T04:00:43.504278+05:30
Visakhapatnam,Andhra Pradesh,17.6868,83.2185,24.4,88,0.0,1006.5,8.7,39.2,60,24.4,20.1,3,5,4,1,2026-03-15T04:00:43.504283+05:30
Vijayawada,Andhra Pradesh,16.5062,80.648,24.2,88,0.0,1005.1,8.75,27.0,60,22.1,18.7,3,5,4,1,2026-03-15T04:00:43.504289+05:30
Guntur,Andhra Pradesh,16.3067,80.4365,24.5,91,0.0,1006.1,8.75,27.7,57,17.9,15.1,3,5,4,1,2026-03-15T04:00:43.504295+05:30
Nellore,Andhra Pradesh,14.4426,79.9865,24.2,95,0.0,1008.1,8.95,28.4,56,13.1,11.1,3,0,4,1,2026-03-15T04:00:43.504301+05:30
Kurnool,Andhra Pradesh,15.8281,78.0373,25.4,68,0.0,977.4,8.75,20.2,89,24.2,21.5,7,5,7,1,2026-03-15T04:00:43.504307+05:30
Kakinada,Andhra Pradesh,16.9891,82.2475,23.4,92,0.0,1010.4,8.7,27.7,53,24.4,18.6,3,0,4,1,2026-03-15T04:00:43.504313+05:30
Tirupati,Andhra Pradesh,13.6288,79.4192,22.5,94,0.0,993.8,9.05,27.7,70,27.0,25.0,3,5,7,1,2026-03-15T04:00:43.504319+05:30
Warangal,Telangana,17.9689,79.5941,22.5,94,0.0,979.9,8.55,33.8,82,17.5,14.8,3,5,7,1,2026-03-15T04:00:43.504325+05:30
Nizamabad,Telangana,18.6725,78.0941,27.0,54,0.0,965.1,8.45,29.9,126,36.8,32.7,4,5,7,1,2026-03-15T04:00:43.504330+05:30
Mysore,Karnataka,12.2958,76.6396,21.4,93,0.0,929.2,9.3,30.6,96,40.2,38.4,3,5,7,1,2026-03-15T04:00:43.504336+05:30
Mangalore,Karnataka,12.9141,74.856,28.0,82,0.0,1007.6,8.95,27.7,96,36.3,30.9,7,5,4,1,2026-03-15T04:00:43.504342+05:30
Hubli-Dharwad,Karnataka,15.3647,75.124,22.8,93,0.0,941.4,8.95,41.0,114,41.0,38.4,3,5,7,1,2026-03-15T04:00:43.504347+05:30
Belgaum,Karnataka,15.8497,74.4977,22.3,91,0.0,926.1,9.0,45.4,131,62.6,59.4,3,5,7,1,2026-03-15T04:00:46.808369+05:30
Coimbatore,Tamil Nadu,11.0168,76.9558,21.6,83,0.0,962.8,9.3,33.5,66,27.9,26.7,3,5,7,1,2026-03-15T04:00:46.808396+05:30
Madurai,Tamil Nadu,9.9252,78.1198,24.3,84,0.0,994.9,9.25,24.1,55,22.4,20.8,3,5,7,1,2026-03-15T04:00:46.808406+05:30
Trichy,Tamil Nadu,10.7905,78.7047,24.4,96,0.0,1002.0,9.2,19.8,61,24.0,21.2,3,5,4,1,2026-03-15T04:00:46.808413+05:30
Salem,Tamil Nadu,11.6643,78.146,22.4,96,0.0,979.0,9.2,12.6,77,34.1,33.5,3,5,7,1,2026-03-15T04:00:46.808419+05:30
Tirunelveli,Tamil Nadu,8.7139,77.7567,23.7,88,0.0,1004.7,9.25,35.3,49,22.2,22.1,3,5,4,1,2026-03-15T04:00:46.808425+05:30
Vellore,Tamil Nadu,12.9165,79.1325,21.2,95,0.0,986.8,9.1,29.9,91,50.5,49.2,3,5,7,1,2026-03-15T04:00:46.808432+05:30
Erode,Tamil Nadu,11.341,77.7172,24.6,91,0.0,990.9,9.2,19.4,52,15.8,14.6,3,5,7,1,2026-03-15T04:00:46.808438+05:30
Kochi,Kerala,9.9312,76.2673,26.6,82,0.0,1009.6,9.1,34.2,81,28.9,28.3,7,0,4,1,2026-03-15T04:00:46.808444+05:30
Thiruvananthapuram,Kerala,8.5241,76.9366,27.4,84,0.0,1008.5,9.15,28.1,45,11.3,8.6,7,0,4,1,2026-03-15T04:00:46.808451+05:30
Kozhikode,Kerala,11.2588,75.7804,26.3,86,0.0,1009.1,9.0,29.2,75,32.5,28.9,7,0,4,1,2026-03-15T04:00:46.808457+05:30
Thrissur,Kerala,10.5276,76.2144,25.2,92,0.0,1008.1,9.05,38.5,79,28.3,27.3,7,0,4,1,2026-03-15T04:00:46.808464+05:30
Kannur,Kerala,11.8745,75.3704,26.5,87,0.0,1008.2,9.0,31.0,88,30.9,28.3,7,0,4,1,2026-03-15T04:00:46.808470+05:30
Patna,Bihar,25.5941,85.1376,24.2,74,0.0,1001.3,7.4,32.8,154,148.5,94.5,3,5,4,1,2026-03-15T04:00:46.808476+05:30
Gaya,Bihar,24.7914,85.0002,19.8,80,0.0,994.2,7.65,33.1,129,94.5,60.8,3,5,7,1,2026-03-15T04:00:46.808482+05:30
Muzaffarpur,Bihar,26.1209,85.3647,19.6,78,0.0,1001.4,7.5,34.2,160,127.6,95.2,3,5,4,0,2026-03-15T04:00:46.808489+05:30
Bhagalpur,Bihar,25.2425,87.0117,21.6,93,0.0,1002.3,7.55,33.5,151,74.7,62.2,3,5,4,1,2026-03-15T04:00:46.808495+05:30
Ranchi,Jharkhand,23.3441,85.3096,22.6,39,0.0,938.6,8.3,49.0,74,60.1,31.0,0,5,7,0,2026-03-15T04:00:46.808501+05:30
Jamshedpur,Jharkhand,22.8046,86.2029,25.3,79,0.0,992.3,8.2,49.7,148,55.3,49.8,7,5,7,1,2026-03-15T04:00:46.808508+05:30
Dhanbad,Jharkhand,23.7957,86.4304,24.0,90,0.0,980.8,8.05,43.6,158,105.9,97.6,3,5,7,1,2026-03-15T04:00:46.808514+05:30
Bokaro,Jharkhand,23.6693,86.1511,20.8,72,0.0,984.9,8.05,43.6,152,108.3,81.5,3,5,7,0,2026-03-15T04:00:46.808520+05:30
Bhubaneswar,Odisha,20.2961,85.8245,25.1,86,0.0,1004.8,8.5,41.8,58,16.1,11.6,7,5,4,1,2026-03-15T04:00:46.808527+05:30
Cuttack,Odisha,20.4625,85.8828,25.0,86,0.0,1006.6,8.5,33.8,58,16.1,11.6,7,5,4,1,2026-03-15T04:00:46.808533+05:30
Rourkela,Odisha,22.2604,84.8536,25.2,83,0.0,986.6,8.1,47.9,119,65.0,55.8,7,5,7,1,2026-03-15T04:00:46.808538+05:30
Raipur,Chhattisgarh,21.2514,81.6296,25.0,59,0.0,975.2,8.2,44.3,152,57.7,54.2,4,5,7,1,2026-03-15T04:00:46.808545+05:30
Bhilai,Chhattisgarh,21.1938,81.3509,24.4,61,0.0,975.4,8.25,41.4,144,54.4,50.5,3,5,7,1,2026-03-15T04:00:46.808551+05:30
Guwahati,Assam,26.1158,91.7086,20.2,94,0.0,1005.3,7.45,34.9,77,18.6,15.1,3,5,4,1,2026-03-15T04:00:46.808557+05:30
Agartala,Tripura,23.8315,91.2868,20.0,92,0.0,1011.1,7.9,41.4,71,8.5,6.7,3,0,4,1,2026-03-15T04:00:46.808562+05:30
Shillong,Meghalaya,25.5788,91.8933,12.8,94,0.0,856.7,7.85,78.5,63,11.3,9.4,3,10,7,0,2026-03-15T04:00:46.808569+05:30
Imphal,Manipur,24.817,93.9368,15.7,93,0.2,925.8,8.05,79.6,107,25.4,20.1,6,10,7,0,2026-03-15T04:00:46.808575+05:30
Aizawl,Mizoram,23.7271,92.7176,16.2,89,0.0,895.3,8.1,64.1,99,44.4,31.5,3,10,7,0,2026-03-15T04:00:46.808582+05:30
Kohima,Nagaland,25.6701,94.1077,14.4,74,0.0,855.8,7.35,106.6,84,23.2,17.3,3,5,7,0,2026-03-15T04:00:46.808587+05:30
Gangtok,Sikkim,27.3314,88.6138,12.1,85,0.0,836.5,7.55,19.4,86,68.7,37.0,3,10,7,0,2026-03-15T04:00:46.808593+05:30
Siliguri,West Bengal,26.7271,88.3953,18.6,84,0.0,996.3,7.4,28.8,129,68.2,45.4,3,10,7,0,2026-03-15T04:00:50.146927+05:30
Durgapur,West Bengal,23.5204,87.3119,24.5,92,0.0,996.6,8.05,45.7,150,28.8,27.1,3,5,7,1,2026-03-15T04:00:50.146957+05:30
Asansol,West Bengal,23.6739,86.9524,24.8,91,0.0,995.0,8.05,48.2,145,42.8,39.9,3,5,7,1,2026-03-15T04:00:50.146969+05:30
Pondicherry,Puducherry,11.9139,79.8145,24.4,94,0.0,1010.9,9.05,27.4,45,14.7,11.0,3,0,4,1,2026-03-15T04:00:50.146977+05:30
Port Blair,Andaman and Nicobar Islands,11.6234,92.7265,27.5,80,0.0,1009.3,8.95,23.4,50,11.1,8.1,7,0,4,1,2026-03-15T04:00:50.146985+05:30
Haridwar,Uttarakhand,29.9457,78.1642,17.8,81,0.0,974.2,5.85,33.1,96,36.8,34.5,3,10,3,0,2026-03-15T04:00:50.146994+05:30
Rishikesh,Uttarakhand,30.0869,78.2676,18.5,72,0.0,967.0,5.95,26.3,64,25.1,24.4,3,5,3,0,2026-03-15T04:00:50.147002+05:30
Nainital,Uttarakhand,29.3919,79.4542,16.2,31,0.0,804.6,5.65,36.4,85,29.9,27.3,0,5,3,1,2026-03-15T04:00:50.147010+05:30
Mussoorie,Uttarakhand,30.4599,78.0664,14.1,49,0.0,800.9,6.15,46.4,72,30.4,28.9,0,5,7,0,2026-03-15T04:00:50.147018+05:30
Dharamshala,Himachal Pradesh,32.219,76.3234,18.6,24,0.0,867.5,4.65,44.3,46,35.3,11.5,0,5,3,1,2026-03-15T04:00:50.147025+05:30
Dalhousie,Himachal Pradesh,32.5387,75.971,14.9,26,0.0,801.4,4.1,42.5,68,32.6,24.0,0,5,3,1,2026-03-15T04:00:50.147033+05:30
Patiala,Punjab,30.3398,76.3869,15.8,78,0.0,977.8,5.9,30.6,144,152.7,46.7,3,5,3,0,2026-03-15T04:00:50.147041+05:30
Bhatinda,Punjab,30.211,74.9455,18.7,76,0.0,983.6,6.45,36.7,94,78.9,29.0,3,5,7,0,2026-03-15T04:00:50.147048+05:30
Rohtak,Haryana,28.8955,76.6066,17.5,84,0.0,982.4,6.15,39.2,193,404.2,100.6,3,10,7,0,2026-03-15T04:00:50.147056+05:30
Panipat,Haryana,29.3909,76.9635,15.5,81,0.0,980.7,5.7,29.5,486,422.8,88.0,3,10,3,0,2026-03-15T04:00:50.147063+05:30
Mathura,Uttar Pradesh,27.4924,77.6737,18.3,69,0.0,987.9,6.45,38.5,256,282.2,72.6,3,5,7,0,2026-03-15T04:00:50.147071+05:30
Vrindavan,Uttar Pradesh,27.5823,77.7027,16.7,71,0.0,988.4,6.45,33.5,256,282.2,72.6,3,5,7,0,2026-03-15T04:00:50.147078+05:30
Ayodhya,Uttar Pradesh,26.7922,82.1998,20.1,75,0.0,996.4,6.9,38.9,153,118.5,50.6,3,5,7,0,2026-03-15T04:00:50.147085+05:30
Ratlam,Madhya Pradesh,23.3315,75.0367,22.3,54,0.0,954.7,7.65,33.8,69,24.2,15.7,0,5,7,0,2026-03-15T04:00:50.147092+05:30
Sagar,Madhya Pradesh,23.8388,78.7378,23.1,44,0.0,949.7,7.65,33.8,62,16.9,15.8,0,5,7,0,2026-03-15T04:00:50.147100+05:30
Satna,Madhya Pradesh,24.6005,80.8322,21.7,70,0.0,971.3,7.6,26.6,98,79.2,31.2,3,5,7,0,2026-03-15T04:00:50.147107+05:30
Akola,Maharashtra,20.7002,77.0082,24.8,50,0.0,975.2,8.15,23.4,86,27.4,25.0,0,5,7,0,2026-03-15T04:00:50.147115+05:30
Amravati,Maharashtra,20.9374,77.7796,22.2,61,0.0,967.3,8.1,23.8,101,33.9,32.1,3,5,7,0,2026-03-15T04:00:50.147123+05:30
Latur,Maharashtra,18.4088,76.5604,23.5,46,0.0,940.5,8.6,27.0,132,46.9,42.3,0,5,7,0,2026-03-15T04:00:50.147130+05:30
Nanded,Maharashtra,19.1383,77.3091,26.2,58,0.0,969.3,8.35,22.3,138,62.2,55.1,4,5,7,1,2026-03-15T04:00:50.147138+05:30
Gulbarga,Karnataka,17.3297,76.8343,26.3,51,0.0,959.4,8.65,23.0,103,42.8,36.8,4,5,7,0,2026-03-15T04:00:50.147146+05:30
Bidar,Karnataka,17.9104,77.5199,24.3,62,0.0,935.8,8.6,28.1,106,40.0,34.8,3,5,7,1,2026-03-15T04:00:50.147153+05:30
Hospet,Karnataka,15.2689,76.3909,24.8,82,0.0,957.3,8.9,27.4,112,42.3,39.3,3,5,7,1,2026-03-15T04:00:50.147161+05:30
Tirupur,Tamil Nadu,11.1085,77.3411,24.4,70,0.0,976.8,9.3,27.0,56,20.7,19.7,3,5,7,1,2026-03-15T04:00:50.147167+05:30
Alappuzha,Kerala,9.4981,76.3388,26.5,84,0.0,1009.6,9.1,29.2,71,24.7,23.1,7,0,4,1,2026-03-15T04:00:50.147175+05:30
Munnar,Kerala,10.0889,77.0595,17.9,90,0.0,855.9,9.6,33.5,57,19.3,18.6,3,10,7,1,2026-03-15T04:00:50.147182+05:30
Silchar,Assam,24.8333,92.7789,20.2,95,0.0,1010.4,7.55,40.3,113,34.9,28.1,3,0,4,1,2026-03-15T04:00:50.147190+05:30
Dibrugarh,Assam,27.4728,94.912,19.0,93,0.0,999.5,5.0,27.4,75,15.7,12.5,3,10,3,1,2026-03-15T04:00:50.147197+05:30
