city,state,latitude,longitude,temp,humidity,rain,pressure,uv_index,wind_gusts,aqi,pm10,pm2_5,mosquito_risk,arthritis_risk,migraine_risk,frizz_risk,updated_at
Delhi,Delhi,28.6139,77.209,21.6,57,0.0,985.3,5.7,31.7,157,403.3,86.4,0,5,3,0,2026-03-01T20:57:51.655483+05:30
Mumbai,Maharashtra,19.076,72.8777,26.3,71,0.0,1010.4,7.25,24.1,89,50.3,27.1,7,0,4,1,2026-03-01T20:57:51.655524+05:30
Bangalore,Karnataka,12.9716,77.5946,25.4,49,0.0,912.4,9.05,22.7,152,53.8,53.1,4,5,7,0,2026-03-01T20:57:51.655540+05:30
Hyderabad,Telangana,17.385,78.4867,27.0,57,0.0,954.5,8.3,27.4,126,74.0,73.6,4,5,7,1,2026-03-01T20:57:51.655550+05:30
Chennai,Tamil Nadu,13.0827,80.2707,26.3,74,0.0,1009.7,8.75,33.1,137,45.1,41.3,7,0,4,1,2026-03-01T20:57:51.655558+05:30
Kolkata,West Bengal,22.5726,88.3639,24.5,79,0.0,1007.1,7.6,25.2,97,48.4,46.8,3,5,4,1,2026-03-01T20:57:51.655567+05:30
Pune,Maharashtra,18.5204,73.8567,24.3,68,0.0,949.4,7.8,34.2,161,34.7,31.2,3,5,7,1,2026-03-01T20:57:51.655578+05:30
Ahmedabad,Gujarat,23.0225,72.5714,27.4,48,0.0,1003.7,7.05,21.2,95,48.9,36.1,4,5,4,0,2026-03-01T20:57:51.655586+05:30
Jaipur,Rajasthan,26.9124,75.7873,24.8,29,0.0,962.0,6.45,25.2,87,75.2,36.2,0,5,7,0,2026-03-01T20:57:51.655594+05:30
Lucknow,Uttar Pradesh,26.8467,80.9462,21.9,41,0.0,995.1,6.2,38.5,126,148.1,44.0,0,5,7,0,2026-03-01T20:57:51.655602+05:30
Kanpur,Uttar Pradesh,26.4499,80.3319,19.6,50,0.0,993.8,6.2,31.3,152,248.7,52.2,0,5,7,0,2026-03-01T20:57:51.655611+05:30
Chandigarh,Chandigarh,30.7333,76.7794,17.5,58,0.0,970.7,5.6,31.0,100,39.9,35.4,0,5,3,0,2026-03-01T20:57:51.655618+05:30
Srinagar,Jammu and Kashmir,34.0837,74.7973,8.2,61,0.0,838.6,6.45,15.1,149,77.8,67.5,3,5,7,0,2026-03-01T20:57:51.655625+05:30
Jammu,Jammu and Kashmir,32.7266,74.857,20.6,58,0.0,974.8,6.15,25.2,99,57.0,48.0,0,5,7,0,2026-03-01T20:57:51.655633+05:30
Amritsar,Punjab,31.634,74.8723,19.6,63,0.0,983.3,6.1,20.5,128,62.4,44.8,3,5,7,0,2026-03-01T20:57:51.655639+05:30
Ludhiana,Punjab,30.901,75.8573,20.4,53,0.0,981.5,5.8,25.9,154,88.7,62.9,0,5,3,0,2026-03-01T20:57:51.655646+05:30
Jalandhar,Punjab,31.326,75.5762,20.2,56,0.0,982.5,5.95,23.0,156,81.0,64.3,0,5,3,0,2026-03-01T20:57:51.655656+05:30
Dehradun,Uttarakhand,30.6284,78.0322,10.6,65,0.0,827.6,5.95,32.4,93,26.8,21.7,3,5,3,0,2026-03-01T20:57:51.655663+05:30
Shimla,Himachal Pradesh,31.1048,77.1734,9.2,55,0.0,782.2,6.0,50.4,92,27.3,20.5,0,5,3,0,2026-03-01T20:57:51.655670+05:30
Manali,Himachal Pradesh,32.2396,77.1887,11.6,86,0.0,818.1,7.6,34.9,96,22.4,15.1,3,10,7,0,2026-03-01T20:57:51.655677+05:30
Gurgaon,Haryana,28.4595,77.0266,19.1,64,0.0,983.6,5.8,31.0,534,633.3,111.8,3,5,3,0,2026-03-01T20:57:51.655684+05:30
Noida,Uttar Pradesh,28.5355,77.391,21.8,55,0.0,986.8,5.75,31.3,534,633.3,111.8,0,5,3,0,2026-03-01T20:57:51.655691+05:30
Ghaziabad,Uttar Pradesh,28.6692,77.4538,21.1,59,0.0,984.8,5.7,28.1,153,353.0,76.8,0,5,3,0,2026-03-01T20:57:51.655697+05:30
Faridabad,Haryana,28.4089,77.3178,20.8,54,0.0,986.0,5.75,28.8,534,633.3,111.8,0,5,3,0,2026-03-01T20:57:51.655704+05:30
Meerut,Uttar Pradesh,28.9845,77.7064,18.5,62,0.0,983.4,5.6,31.7,153,353.0,76.8,3,5,3,0,2026-03-01T20:57:51.655711+05:30
Agra,Uttar Pradesh,27.1767,78.0081,20.5,52,0.0,990.0,6.05,27.4,198,463.8,73.1,0,5,7,0,2026-03-01T20:57:51.655717+05:30
Varanasi,Uttar Pradesh,25.3176,82.9739,20.7,64,0.0,999.2,6.85,26.6,139,58.6,39.9,3,5,7,0,2026-03-01T20:57:51.655727+05:30
Prayagraj,Uttar Pradesh,25.4358,81.8463,21.2,55,0.0,997.8,6.7,28.1,138,59.5,30.9,0,5,7,0,2026-03-01T20:57:51.655734+05:30
Gorakhpur,Uttar Pradesh,26.7606,83.3732,19.9,54,0.0,998.1,6.55,32.4,109,36.6,31.1,0,5,7,0,2026-03-01T20:57:51.655743+05:30
Bareilly,Uttar Pradesh,28.367,79.4304,18.8,62,0.0,988.3,5.9,35.6,128,102.7,42.1,3,5,3,0,2026-03-01T20:57:51.655749+05:30
Aligarh,Uttar Pradesh,27.8974,78.088,19.3,54,0.0,987.7,5.8,31.3,264,622.1,105.5,0,5,3,0,2026-03-01T20:57:51.655756+05:30
Moradabad,Uttar Pradesh,28.8386,78.7733,18.6,59,0.0,985.2,5.7,33.8,128,79.4,36.8,0,5,3,0,2026-03-01T20:57:51.655762+05:30
Saharanpur,Uttar Pradesh,29.9637,77.546,18.1,58,0.0,977.0,5.35,38.2,136,84.5,39.8,0,5,3,0,2026-03-01T20:57:51.655767+05:30
Jhansi,Uttar Pradesh,25.4484,78.5685,21.7,57,0.0,980.1,6.65,24.5,75,50.2,26.5,0,5,7,0,2026-03-01T20:57:54.961925+05:30
Surat,Gujarat,21.1702,72.8311,24.9,69,0.0,1008.4,6.95,28.4,108,77.5,66.1,3,0,4,1,2026-03-01T20:57:54.961955+05:30
Vadodara,Gujarat,22.3072,73.1812,27.0,56,0.0,1006.0,7.05,11.9,126,59.8,51.1,4,5,4,1,2026-03-01T20:57:54.961964+05:30
Rajkot,Gujarat,22.3039,70.8022,26.2,38,0.0,996.2,6.9,23.4,101,39.7,26.7,4,5,7,0,2026-03-01T20:57:54.961972+05:30
Thane,Maharashtra,19.2183,72.9781,24.7,75,0.0,1009.8,7.25,36.4,89,50.3,27.1,3,0,4,1,2026-03-01T20:57:54.961979+05:30
Nagpur,Maharashtra,21.1458,79.0882,26.2,51,0.0,974.4,7.65,30.6,97,36.0,35.3,4,5,7,0,2026-03-01T20:57:54.961986+05:30
Nashik,Maharashtra,19.9975,73.7898,23.7,60,0.0,946.5,7.45,28.8,91,25.7,21.8,0,5,7,0,2026-03-01T20:57:54.961993+05:30
Aurangabad,Maharashtra,19.8762,75.3433,26.8,40,0.0,944.9,7.95,28.8,116,32.6,31.5,4,5,7,0,2026-03-01T20:57:54.962000+05:30
Solapur,Maharashtra,17.6599,75.9064,27.1,52,0.0,957.7,8.25,19.8,146,34.8,34.2,4,5,7,1,2026-03-01T20:57:54.962007+05:30
Kolhapur,Maharashtra,16.705,74.2433,22.5,66,0.0,948.7,8.35,38.2,120,32.1,31.4,3,5,7,0,2026-03-01T20:57:54.962013+05:30
Goa,Goa,15.2993,74.124,26.2,70,0.0,1000.0,8.4,35.3,62,26.3,21.8,7,5,4,1,2026-03-01T20:57:54.962037+05:30
Jodhpur,Rajasthan,26.2389,73.0243,26.1,38,0.0,984.8,6.75,18.0,87,46.1,26.1,4,5,7,0,2026-03-01T20:57:54.962045+05:30
Udaipur,Rajasthan,24.5854,73.7125,24.1,51,0.0,948.5,7.35,25.2,81,28.3,18.3,0,5,7,0,2026-03-01T20:57:54.962052+05:30
Kota,Rajasthan,25.2138,75.8648,25.1,48,0.0,980.8,6.8,20.2,82,47.6,33.1,4,5,7,0,2026-03-01T20:57:54.962059+05:30
Bikaner,Rajasthan,28.0229,73.3119,26.0,36,0.0,984.1,6.45,16.2,72,31.5,19.6,4,5,7,0,2026-03-01T20:57:54.962066+05:30
Ajmer,Rajasthan,26.4499,74.6399,23.3,41,0.0,956.4,6.7,17.6,85,49.1,30.5,0,5,7,0,2026-03-01T20:57:54.962072+05:30
Gwalior,Madhya Pradesh,26.2183,78.1828,23.2,52,0.0,985.4,6.35,28.8,97,106.9,31.3,0,5,7,0,2026-03-01T20:57:54.962079+05:30
Indore,Madhya Pradesh,22.7196,75.8577,22.0,60,0.0,949.3,7.35,22.3,79,38.3,33.8,0,5,7,0,2026-03-01T20:57:54.962086+05:30
Bhopal,Madhya Pradesh,23.2599,77.4126,22.8,54,0.0,955.5,7.2,25.9,83,25.3,22.5,0,5,7,0,2026-03-01T20:57:54.962093+05:30
Jabalpur,Madhya Pradesh,23.1815,79.9864,21.9,60,0.0,962.9,7.3,39.2,75,24.7,23.7,0,5,7,0,2026-03-01T20:57:54.962099+05:30
Ujjain,Madhya Pradesh,23.1765,75.7885,22.5,64,0.0,955.4,7.2,20.5,86,47.8,41.8,3,5,7,0,2026-03-01T20:57:54.962106+05:30
Visakhapatnam,Andhra Pradesh,17.6868,83.2185,26.0,75,0.0,1006.2,8.3,39.2,151,50.9,47.3,7,5,4,1,2026-03-01T20:57:54.962113+05:30
Vijayawada,Andhra Pradesh,16.5062,80.648,26.1,67,0.0,1004.6,8.4,28.1,147,40.0,38.5,7,5,4,1,2026-03-01T20:57:54.962120+05:30
Guntur,Andhra Pradesh,16.3067,80.4365,25.5,76,0.0,1006.0,8.4,28.4,142,38.6,37.4,7,5,4,1,2026-03-01T20:57:54.962127+05:30
Nellore,Andhra Pradesh,14.4426,79.9865,26.2,75,0.0,1008.3,8.6,31.0,136,39.0,36.6,7,0,4,1,2026-03-01T20:57:54.962135+05:30
Kurnool,Andhra Pradesh,15.8281,78.0373,30.2,37,0.0,977.5,8.4,20.5,131,36.2,35.9,0,5,7,0,2026-03-01T20:57:54.962142+05:30
Kakinada,Andhra Pradesh,16.9891,82.2475,24.9,80,0.0,1009.9,8.3,33.5,151,45.3,41.8,3,0,4,1,2026-03-01T20:57:54.962149+05:30
Tirupati,Andhra Pradesh,13.6288,79.4192,26.0,57,0.0,994.0,8.7,28.4,151,42.5,41.4,4,5,7,1,2026-03-01T20:57:54.962155+05:30
Warangal,Telangana,17.9689,79.5941,27.5,61,0.0,979.9,8.1,27.7,139,73.1,72.6,7,5,7,1,2026-03-01T20:57:54.962161+05:30
Nizamabad,Telangana,18.6725,78.0941,29.2,41,0.0,965.8,8.0,20.9,114,43.0,42.6,4,5,7,0,2026-03-01T20:57:54.962168+05:30
Mysore,Karnataka,12.2958,76.6396,25.6,57,0.0,929.2,9.05,36.0,143,71.7,70.5,4,5,7,1,2026-03-01T20:57:54.962175+05:30
Mangalore,Karnataka,12.9141,74.856,28.3,73,0.0,1008.4,8.65,32.0,49,18.0,13.1,7,0,4,1,2026-03-01T20:57:54.962182+05:30
Hubli-Dharwad,Karnataka,15.3647,75.124,23.7,64,0.0,941.5,8.55,33.5,131,38.3,37.5,3,5,7,1,2026-03-01T20:57:54.962189+05:30
Belgaum,Karnataka,15.8497,74.4977,21.8,71,0.0,926.5,8.6,38.5,126,20.0,18.9,3,5,7,1,2026-03-01T20:57:58.265723+05:30
Coimbatore,Tamil Nadu,11.0168,76.9558,25.5,74,0.0,962.8,9.05,34.9,146,59.0,58.2,7,5,7,1,2026-03-01T20:57:58.265755+05:30
Madurai,Tamil Nadu,9.9252,78.1198,26.9,60,0.0,995.0,9.0,26.3,148,33.9,32.8,4,5,7,1,2026-03-01T20:57:58.265767+05:30
Trichy,Tamil Nadu,10.7905,78.7047,27.1,68,0.0,1001.5,8.9,27.7,146,42.4,41.0,7,5,4,1,2026-03-01T20:57:58.265776+05:30
Salem,Tamil Nadu,11.6643,78.146,28.9,50,0.0,978.5,8.95,26.3,149,43.4,42.4,4,5,7,1,2026-03-01T20:57:58.265784+05:30
Tirunelveli,Tamil Nadu,8.7139,77.7567,26.5,76,0.0,1005.0,9.05,43.6,134,38.6,37.4,7,5,4,1,2026-03-01T20:57:58.265793+05:30
Vellore,Tamil Nadu,12.9165,79.1325,26.2,62,0.0,986.6,8.8,36.7,154,44.2,43.0,7,5,7,1,2026-03-01T20:57:58.265801+05:30
Erode,Tamil Nadu,11.341,77.7172,29.7,43,0.0,989.7,8.95,27.7,139,42.3,41.3,4,5,7,0,2026-03-01T20:57:58.265808+05:30
Kochi,Kerala,9.9312,76.2673,28.5,75,0.0,1010.0,8.9,36.4,105,37.4,35.5,7,0,4,1,2026-03-01T20:57:58.265817+05:30
Thiruvananthapuram,Kerala,8.5241,76.9366,27.4,80,0.0,1009.6,8.95,24.1,148,22.7,19.3,7,0,4,1,2026-03-01T20:57:58.265826+05:30
Kozhikode,Kerala,11.2588,75.7804,28.4,73,0.0,1009.1,8.75,31.3,57,17.2,12.0,7,0,4,1,2026-03-01T20:57:58.265834+05:30
Thrissur,Kerala,10.5276,76.2144,27.2,82,0.0,1008.3,8.85,40.3,106,27.2,24.9,7,0,4,1,2026-03-01T20:57:58.265842+05:30
Kannur,Kerala,11.8745,75.3704,27.7,72,0.0,1008.8,8.75,38.2,50,17.1,12.7,7,0,4,1,2026-03-01T20:57:58.265850+05:30
Patna,Bihar,25.5941,85.1376,23.4,57,0.0,1001.3,7.0,28.8,132,89.9,61.7,0,5,4,0,2026-03-01T20:57:58.265858+05:30
Gaya,Bihar,24.7914,85.0002,23.9,56,0.0,995.2,7.1,19.1,116,90.8,57.0,0,5,7,0,2026-03-01T20:57:58.265866+05:30
Muzaffarpur,Bihar,26.1209,85.3647,21.9,60,0.0,1001.1,6.95,31.0,127,77.3,51.6,0,5,4,0,2026-03-01T20:57:58.265873+05:30
Bhagalpur,Bihar,25.2425,87.0117,22.1,65,0.0,1002.0,7.05,22.3,133,93.8,56.5,3,5,4,0,2026-03-01T20:57:58.265880+05:30
Ranchi,Jharkhand,23.3441,85.3096,23.1,48,0.0,938.7,7.75,24.5,99,35.6,33.9,0,5,7,0,2026-03-01T20:57:58.265888+05:30
Jamshedpur,Jharkhand,22.8046,86.2029,26.0,51,0.0,991.6,7.7,10.8,152,72.4,68.7,4,5,7,0,2026-03-01T20:57:58.265894+05:30
Dhanbad,Jharkhand,23.7957,86.4304,26.4,33,0.0,981.0,7.55,24.1,155,72.4,65.0,4,5,7,0,2026-03-01T20:57:58.265902+05:30
Bokaro,Jharkhand,23.6693,86.1511,24.0,45,0.0,985.1,7.55,22.0,155,72.9,67.1,0,5,7,0,2026-03-01T20:57:58.265910+05:30
Bhubaneswar,Odisha,20.2961,85.8245,25.1,84,0.0,1004.1,8.05,27.0,112,52.9,51.3,7,5,4,1,2026-03-01T20:57:58.265917+05:30
Cuttack,Odisha,20.4625,85.8828,25.7,76,0.0,1005.8,8.05,27.0,112,52.9,51.3,7,5,4,1,2026-03-01T20:57:58.265925+05:30
Rourkela,Odisha,22.2604,84.8536,25.5,56,0.0,985.3,7.6,18.0,150,84.1,82.9,4,5,7,1,2026-03-01T20:57:58.265932+05:30
Raipur,Chhattisgarh,21.2514,81.6296,26.8,42,0.0,975.3,7.75,27.4,154,56.7,56.3,4,5,7,0,2026-03-01T20:57:58.265938+05:30
Bhilai,Chhattisgarh,21.1938,81.3509,25.6,46,0.0,975.5,7.75,28.1,154,35.3,35.0,4,5,7,0,2026-03-01T20:57:58.265944+05:30
Guwahati,Assam,26.1158,91.7086,21.5,83,0.0,1003.3,7.0,32.0,160,79.2,68.9,3,5,4,1,2026-03-01T20:57:58.265949+05:30
Agartala,Tripura,23.8315,91.2868,23.3,73,0.0,1007.3,7.35,27.4,119,49.9,46.8,3,5,4,1,2026-03-01T20:57:58.265955+05:30
Shillong,Meghalaya,25.5788,91.8933,9.6,87,0.0,854.0,6.8,56.9,141,74.0,57.9,3,10,7,0,2026-03-01T20:57:58.265961+05:30
Imphal,Manipur,24.817,93.9368,14.5,73,0.0,923.2,7.55,49.3,153,85.7,69.8,3,5,7,0,2026-03-01T20:57:58.265967+05:30
Aizawl,Mizoram,23.7271,92.7176,16.8,66,0.0,892.7,7.55,40.3,129,66.4,52.3,3,5,7,0,2026-03-01T20:57:58.265973+05:30
Kohima,Nagaland,25.6701,94.1077,12.7,80,0.0,853.8,7.4,70.9,154,100.1,79.9,3,5,7,0,2026-03-01T20:57:58.265979+05:30
Gangtok,Sikkim,27.3314,88.6138,11.1,86,0.0,835.2,5.3,12.6,132,78.9,59.3,3,10,3,0,2026-03-01T20:57:58.265985+05:30
Siliguri,West Bengal,26.7271,88.3953,19.3,67,0.0,994.8,7.0,31.0,173,131.3,97.6,3,5,7,0,2026-03-01T20:58:01.574637+05:30
Durgapur,West Bengal,23.5204,87.3119,27.3,36,0.0,995.9,7.55,26.3,146,68.2,59.8,4,5,7,0,2026-03-01T20:58:01.574667+05:30
Asansol,West Bengal,23.6739,86.9524,28.1,32,0.0,994.5,7.5,22.7,129,56.6,48.2,4,5,7,0,2026-03-01T20:58:01.574677+05:30
Pondicherry,Puducherry,11.9139,79.8145,24.3,87,0.0,1010.7,8.8,28.1,133,44.7,40.5,3,0,4,1,2026-03-01T20:58:01.574685+05:30
Port Blair,Andaman and Nicobar Islands,11.6234,92.7265,27.7,68,0.0,1007.9,8.75,25.6,74,25.6,22.4,7,5,4,1,2026-03-01T20:58:01.574694+05:30
Haridwar,Uttarakhand,29.9457,78.1642,19.3,58,0.0,975.6,5.4,37.1,106,45.5,31.7,0,5,3,0,2026-03-01T20:58:01.574701+05:30
Rishikesh,Uttarakhand,30.0869,78.2676,17.1,63,0.0,968.0,5.5,34.9,115,28.3,23.3,3,5,3,0,2026-03-01T20:58:01.574708+05:30
Nainital,Uttarakhand,29.3919,79.4542,14.3,52,0.0,804.4,6.3,40.0,121,33.8,24.3,0,5,7,0,2026-03-01T20:58:01.574715+05:30
Mussoorie,Uttarakhand,30.4599,78.0664,12.3,54,0.0,800.5,5.85,39.6,110,33.4,29.2,0,5,3,0,2026-03-01T20:58:01.574723+05:30
Dharamshala,Himachal Pradesh,32.219,76.3234,16.3,52,0.0,869.4,6.05,27.4,107,39.9,29.3,0,5,7,0,2026-03-01T20:58:01.574729+05:30
Dalhousie,Himachal Pradesh,32.5387,75.971,13.7,40,0.0,803.1,6.25,30.2,104,59.8,50.4,0,5,7,0,2026-03-01T20:58:01.574736+05:30
Patiala,Punjab,30.3398,76.3869,18.2,63,0.0,980.5,5.5,28.4,154,311.1,78.0,3,5,3,0,2026-03-01T20:58:01.574742+05:30
Bhatinda,Punjab,30.211,74.9455,20.9,62,0.0,986.3,6.2,21.2,153,97.3,73.8,3,5,7,0,2026-03-01T20:58:01.574749+05:30
Rohtak,Haryana,28.8955,76.6066,20.1,64,0.0,984.0,5.7,30.6,160,421.0,88.0,3,5,3,0,2026-03-01T20:58:01.574755+05:30
Panipat,Haryana,29.3909,76.9635,18.5,64,0.0,982.5,5.5,29.9,335,817.7,125.7,3,5,3,0,2026-03-01T20:58:01.574761+05:30
Mathura,Uttar Pradesh,27.4924,77.6737,21.3,47,0.0,989.2,5.95,25.6,228,448.0,76.4,0,5,3,0,2026-03-01T20:58:01.574767+05:30
Vrindavan,Uttar Pradesh,27.5823,77.7027,19.8,53,0.0,989.6,5.95,28.4,228,448.0,76.4,0,5,3,0,2026-03-01T20:58:01.574774+05:30
Ayodhya,Uttar Pradesh,26.7922,82.1998,20.4,45,0.0,996.7,6.35,36.4,111,52.5,29.6,0,5,7,0,2026-03-01T20:58:01.574781+05:30
Ratlam,Madhya Pradesh,23.3315,75.0367,24.6,53,0.0,956.2,7.2,27.7,79,39.1,33.1,0,5,7,0,2026-03-01T20:58:01.574787+05:30
Sagar,Madhya Pradesh,23.8388,78.7378,23.6,49,0.0,951.7,7.15,20.2,93,26.8,20.0,0,5,7,0,2026-03-01T20:58:01.574793+05:30
Satna,Madhya Pradesh,24.6005,80.8322,22.4,47,0.0,973.2,7.1,31.7,92,38.8,22.9,0,5,7,0,2026-03-01T20:58:01.574800+05:30
Akola,Maharashtra,20.7002,77.0082,26.3,43,0.0,976.4,7.7,28.4,109,27.0,26.1,4,5,7,0,2026-03-01T20:58:01.574807+05:30
Amravati,Maharashtra,20.9374,77.7796,25.4,49,0.0,968.6,7.65,27.4,109,22.5,21.8,4,5,7,0,2026-03-01T20:58:01.574814+05:30
Latur,Maharashtra,18.4088,76.5604,26.3,55,0.0,940.7,8.15,25.6,125,28.9,28.6,4,5,7,1,2026-03-01T20:58:01.574820+05:30
Nanded,Maharashtra,19.1383,77.3091,27.5,51,0.0,969.4,7.9,15.5,113,24.8,24.4,4,5,7,1,2026-03-01T20:58:01.574826+05:30
Gulbarga,Karnataka,17.3297,76.8343,29.6,45,0.0,959.6,8.25,17.6,152,43.5,43.1,4,5,7,1,2026-03-01T20:58:01.574831+05:30
Bidar,Karnataka,17.9104,77.5199,28.5,46,0.0,936.7,8.2,20.5,142,39.7,39.3,4,5,7,0,2026-03-01T20:58:01.574837+05:30
Hospet,Karnataka,15.2689,76.3909,31.1,37,0.0,956.5,8.55,24.5,167,47.7,47.3,0,5,7,0,2026-03-01T20:58:01.574844+05:30
Tirupur,Tamil Nadu,11.1085,77.3411,29.5,43,0.0,975.9,9.05,21.2,152,64.3,63.1,4,5,7,0,2026-03-01T20:58:01.574850+05:30
Alappuzha,Kerala,9.4981,76.3388,28.3,77,0.0,1010.2,8.9,34.9,106,28.0,24.4,7,0,4,1,2026-03-01T20:58:01.574856+05:30
Munnar,Kerala,10.0889,77.0595,20.7,94,0.0,857.6,9.35,25.2,131,53.9,53.0,3,5,7,1,2026-03-01T20:58:01.574863+05:30
Silchar,Assam,24.8333,92.7789,23.0,68,0.0,1006.2,7.3,20.5,157,101.3,79.9,3,5,4,1,2026-03-01T20:58:01.574869+05:30
Dibrugarh,Assam,27.4728,94.912,20.0,83,0.0,998.5,7.0,13.7,158,97.1,86.4,3,5,7,1,2026-03-01T20:58:01.574876+05:30
