city,state,latitude,longitude,temp,humidity,rain,pressure,uv_index,wind_gusts,aqi,pm10,pm2_5,no2,co,o3,so2,mosquito_risk,arthritis_risk,migraine_risk,frizz_risk,updated_at
Delhi,Delhi,28.6139,77.209,28.9,44,0.0,977.5,7.6,41.0,199,397.7,90.3,28.6,573.0,88.0,24.4,4,5,7,0,2026-05-03T00:34:22.847185+05:30
Mumbai,Maharashtra,19.076,72.8777,29.0,77,0.0,1007.1,7.9,40.7,73,44.6,17.5,8.5,198.0,68.0,16.6,7,5,4,1,2026-05-03T00:34:22.847230+05:30
Bangalore,Karnataka,12.9716,77.5946,23.7,80,0.0,910.7,9.1,31.3,76,22.5,18.1,12.2,243.0,70.0,6.5,3,5,7,1,2026-05-03T00:34:22.847247+05:30
Hyderabad,Telangana,17.385,78.4867,32.0,29,0.0,949.9,9.3,28.8,78,45.3,28.1,32.4,769.0,65.0,13.3,0,5,7,0,2026-05-03T00:34:22.847257+05:30
Chennai,Tamil Nadu,13.0827,80.2707,30.6,68,0.0,1004.3,9.25,53.6,53,17.2,13.0,8.1,244.0,70.0,5.3,3,5,4,1,2026-05-03T00:34:22.847267+05:30
Kolkata,West Bengal,22.5726,88.3639,24.2,93,0.0,1002.6,8.95,47.9,65,17.6,15.4,9.8,316.0,64.0,5.5,3,5,4,1,2026-05-03T00:34:22.847276+05:30
Pune,Maharashtra,18.5204,73.8567,24.0,79,0.0,946.7,8.5,45.7,61,33.1,15.1,11.0,227.0,51.0,10.4,3,5,7,1,2026-05-03T00:34:22.847284+05:30
Ahmedabad,Gujarat,23.0225,72.5714,30.5,53,0.0,997.6,8.15,43.6,64,36.9,16.6,4.7,288.0,78.0,5.4,0,5,7,1,2026-05-03T00:34:22.847296+05:30
Jaipur,Rajasthan,26.9124,75.7873,31.7,27,0.0,954.7,8.15,51.5,115,123.4,39.2,27.0,196.0,44.0,7.2,0,5,7,0,2026-05-03T00:34:22.847307+05:30
Lucknow,Uttar Pradesh,26.8467,80.9462,26.6,61,0.0,989.4,8.1,40.0,94,71.7,36.2,10.6,361.0,104.0,10.2,7,5,7,1,2026-05-03T00:34:22.847315+05:30
Kanpur,Uttar Pradesh,26.4499,80.3319,27.0,63,0.0,987.1,7.9,71.6,151,337.1,58.8,9.5,347.0,101.0,9.3,7,5,7,1,2026-05-03T00:34:22.847323+05:30
Chandigarh,Chandigarh,30.7333,76.7794,23.8,51,0.0,962.9,6.7,55.1,88,38.9,32.8,32.6,497.0,43.0,11.2,0,5,7,0,2026-05-03T00:34:22.847331+05:30
Srinagar,Jammu and Kashmir,34.0837,74.7973,11.2,92,0.0,837.8,8.75,37.1,71,48.5,44.4,34.7,741.0,23.0,3.2,3,10,7,0,2026-05-03T00:34:22.847340+05:30
Jammu,Jammu and Kashmir,32.7266,74.857,23.2,48,0.0,965.4,8.35,36.7,61,24.9,21.4,19.8,262.0,56.0,3.6,0,5,7,0,2026-05-03T00:34:22.847349+05:30
Amritsar,Punjab,31.634,74.8723,27.0,38,0.0,973.7,8.25,43.2,137,32.4,24.3,8.2,500.0,114.0,7.0,4,5,7,0,2026-05-03T00:34:22.847357+05:30
Ludhiana,Punjab,30.901,75.8573,26.1,44,0.0,972.1,7.75,45.4,136,32.2,29.6,16.0,665.0,75.0,7.9,4,5,7,0,2026-05-03T00:34:22.847364+05:30
Jalandhar,Punjab,31.326,75.5762,25.3,47,0.0,973.1,7.95,43.2,108,29.0,25.0,9.5,644.0,96.0,6.8,4,5,7,0,2026-05-03T00:34:22.847372+05:30
Dehradun,Uttarakhand,30.6284,78.0322,11.2,95,0.0,824.0,7.2,41.4,65,23.7,20.0,28.5,280.0,39.0,1.6,3,10,7,0,2026-05-03T00:34:22.847382+05:30
Shimla,Himachal Pradesh,31.1048,77.1734,10.0,70,0.0,777.5,6.15,44.6,89,31.3,23.0,23.4,305.0,72.0,4.8,3,5,7,0,2026-05-03T00:34:22.847389+05:30
Manali,Himachal Pradesh,32.2396,77.1887,7.4,75,0.0,810.5,9.4,43.9,90,8.1,6.9,37.6,276.0,100.0,0.1,3,5,7,0,2026-05-03T00:34:22.847396+05:30
Gurgaon,Haryana,28.4595,77.0266,28.1,45,0.0,975.7,7.7,43.9,760,821.4,132.7,22.4,553.0,90.0,18.7,4,5,7,0,2026-05-03T00:34:22.847405+05:30
Noida,Uttar Pradesh,28.5355,77.391,26.0,57,0.0,978.9,7.6,39.2,760,821.4,132.7,22.4,530.0,90.0,18.7,4,5,7,1,2026-05-03T00:34:22.847413+05:30
Ghaziabad,Uttar Pradesh,28.6692,77.4538,26.9,51,0.0,977.2,7.6,43.6,159,279.4,66.4,9.6,429.0,105.0,11.7,4,5,7,0,2026-05-03T00:34:22.847425+05:30
Faridabad,Haryana,28.4089,77.3178,27.6,48,0.0,978.4,7.65,42.8,760,821.4,132.7,22.4,503.0,90.0,18.7,4,5,7,0,2026-05-03T00:34:22.847432+05:30
Meerut,Uttar Pradesh,28.9845,77.7064,25.9,57,0.0,975.9,7.5,49.0,159,279.4,66.4,9.6,486.0,105.0,11.7,4,5,7,1,2026-05-03T00:34:22.847439+05:30
Agra,Uttar Pradesh,27.1767,78.0081,28.8,42,0.0,982.1,7.8,56.9,657,819.6,106.6,12.1,387.0,92.0,12.8,4,5,7,0,2026-05-03T00:34:22.847446+05:30
Varanasi,Uttar Pradesh,25.3176,82.9739,27.6,61,0.0,993.3,8.55,31.3,129,61.0,43.2,11.0,478.0,125.0,16.3,7,5,7,1,2026-05-03T00:34:22.847454+05:30
Prayagraj,Uttar Pradesh,25.4358,81.8463,26.7,65,0.0,991.5,8.5,42.1,109,59.8,41.3,12.1,381.0,114.0,12.7,7,5,7,1,2026-05-03T00:34:22.847463+05:30
Gorakhpur,Uttar Pradesh,26.7606,83.3732,24.2,75,0.0,994.7,8.45,35.3,111,44.0,28.8,5.8,388.0,123.0,4.2,3,5,7,1,2026-05-03T00:34:22.847470+05:30
Bareilly,Uttar Pradesh,28.367,79.4304,25.5,63,0.0,982.6,7.9,45.7,124,95.9,40.2,6.3,339.0,122.0,5.8,7,5,7,1,2026-05-03T00:34:22.847477+05:30
Aligarh,Uttar Pradesh,27.8974,78.088,27.4,50,0.0,980.1,7.75,41.4,397,637.0,94.1,8.2,405.0,104.0,11.8,4,5,7,0,2026-05-03T00:34:22.847484+05:30
Moradabad,Uttar Pradesh,28.8386,78.7733,25.2,62,0.0,979.1,7.6,49.7,129,85.7,46.0,10.0,344.0,121.0,11.7,7,5,7,1,2026-05-03T00:34:22.847490+05:30
Saharanpur,Uttar Pradesh,29.9637,77.546,23.6,68,0.0,970.4,6.6,52.6,132,86.4,54.2,27.0,379.0,63.0,13.0,3,5,7,1,2026-05-03T00:34:22.847497+05:30
Jhansi,Uttar Pradesh,25.4484,78.5685,27.7,51,0.0,972.4,8.4,55.4,78,117.8,37.5,4.8,309.0,90.0,6.7,4,5,7,1,2026-05-03T00:34:26.251208+05:30
Surat,Gujarat,21.1702,72.8311,28.5,85,0.0,1003.8,7.7,53.6,65,30.2,17.3,17.4,226.0,57.0,28.9,7,5,4,1,2026-05-03T00:34:26.251240+05:30
Vadodara,Gujarat,22.3072,73.1812,29.1,77,0.0,1000.2,8.05,51.1,58,21.1,13.4,12.1,252.0,55.0,15.1,7,5,4,1,2026-05-03T00:34:26.251251+05:30
Rajkot,Gujarat,22.3039,70.8022,28.2,60,0.0,990.4,7.7,48.2,57,36.2,14.9,4.4,166.0,69.0,5.4,4,5,7,1,2026-05-03T00:34:26.251260+05:30
Thane,Maharashtra,19.2183,72.9781,28.9,75,0.0,1006.4,7.9,40.0,73,44.6,17.5,8.5,219.0,68.0,16.6,7,5,4,1,2026-05-03T00:34:26.251268+05:30
Nagpur,Maharashtra,21.1458,79.0882,30.2,43,0.0,969.1,8.9,32.8,73,62.2,36.4,22.3,331.0,43.0,12.2,0,5,7,1,2026-05-03T00:34:26.251276+05:30
Nashik,Maharashtra,19.9975,73.7898,23.5,90,0.0,943.5,8.2,48.2,65,33.2,16.8,12.3,219.0,54.0,14.3,3,5,7,1,2026-05-03T00:34:26.251284+05:30
Aurangabad,Maharashtra,19.8762,75.3433,27.4,56,0.0,942.0,9.05,49.0,59,26.1,15.7,8.9,180.0,75.0,12.1,4,5,7,1,2026-05-03T00:34:26.251291+05:30
Solapur,Maharashtra,17.6599,75.9064,30.4,43,0.0,954.8,9.1,36.4,56,24.6,13.9,5.0,185.0,87.0,4.4,0,5,7,1,2026-05-03T00:34:26.251299+05:30
Kolhapur,Maharashtra,16.705,74.2433,23.1,92,0.0,946.6,8.95,46.8,66,40.7,16.8,7.6,184.0,52.0,2.5,3,5,7,1,2026-05-03T00:34:26.251307+05:30
Goa,Goa,15.2993,74.124,28.2,82,0.0,997.4,8.9,37.4,72,79.4,24.6,7.8,271.0,56.0,2.1,7,5,7,1,2026-05-03T00:34:26.251314+05:30
Jodhpur,Rajasthan,26.2389,73.0243,32.0,26,0.0,975.8,8.3,59.8,124,127.6,28.1,6.2,191.0,79.0,3.4,0,5,7,0,2026-05-03T00:34:26.251322+05:30
Udaipur,Rajasthan,24.5854,73.7125,28.3,38,0.0,941.7,8.8,40.0,66,49.6,20.1,3.7,167.0,86.0,3.5,4,5,7,0,2026-05-03T00:34:26.251330+05:30
Kota,Rajasthan,25.2138,75.8648,30.2,35,0.0,972.6,8.35,37.4,66,77.8,24.0,4.2,254.0,90.0,5.9,0,5,7,0,2026-05-03T00:34:26.251337+05:30
Bikaner,Rajasthan,28.0229,73.3119,30.8,31,0.0,974.2,8.25,52.6,72,104.8,31.0,5.1,213.0,71.0,5.0,0,5,7,0,2026-05-03T00:34:26.251345+05:30
Ajmer,Rajasthan,26.4499,74.6399,29.4,33,0.0,948.9,8.3,45.0,69,62.6,20.5,4.5,301.0,86.0,3.8,4,5,7,0,2026-05-03T00:34:26.251353+05:30
Gwalior,Madhya Pradesh,26.2183,78.1828,28.2,43,0.0,977.7,8.2,46.8,94,177.0,45.1,4.9,295.0,100.0,6.8,4,5,7,0,2026-05-03T00:34:26.251360+05:30
Indore,Madhya Pradesh,22.7196,75.8577,29.7,36,0.0,944.7,8.7,43.9,60,39.2,19.2,4.1,226.0,96.0,8.3,4,5,7,0,2026-05-03T00:34:26.251368+05:30
Bhopal,Madhya Pradesh,23.2599,77.4126,27.3,49,0.0,949.2,8.7,37.4,66,58.1,27.5,9.3,256.0,59.0,4.9,4,5,7,0,2026-05-03T00:34:26.251375+05:30
Jabalpur,Madhya Pradesh,23.1815,79.9864,25.0,67,0.0,957.1,8.85,31.7,71,64.3,26.9,16.5,242.0,53.0,4.5,7,5,7,1,2026-05-03T00:34:26.251383+05:30
Ujjain,Madhya Pradesh,23.1765,75.7885,29.4,35,0.0,949.9,8.6,41.0,59,31.1,17.2,3.1,199.0,94.0,7.9,4,5,7,0,2026-05-03T00:34:26.251391+05:30
Visakhapatnam,Andhra Pradesh,17.6868,83.2185,28.1,95,0.0,1001.1,9.1,51.5,59,20.7,15.7,16.5,276.0,63.0,3.4,7,5,4,1,2026-05-03T00:34:26.251398+05:30
Vijayawada,Andhra Pradesh,16.5062,80.648,29.1,88,0.0,999.4,8.85,37.8,99,18.4,15.4,4.4,211.0,104.0,5.1,7,5,7,1,2026-05-03T00:34:26.251406+05:30
Guntur,Andhra Pradesh,16.3067,80.4365,29.3,84,0.0,1000.5,9.2,34.9,80,19.4,16.8,4.5,205.0,115.0,5.9,7,5,4,1,2026-05-03T00:34:26.251413+05:30
Nellore,Andhra Pradesh,14.4426,79.9865,30.4,68,0.0,1002.4,9.25,44.6,74,21.4,20.0,10.3,252.0,101.0,10.6,3,5,4,1,2026-05-03T00:34:26.251421+05:30
Kurnool,Andhra Pradesh,15.8281,78.0373,31.0,27,0.0,973.7,9.2,36.4,60,41.7,24.2,12.3,313.0,71.0,5.6,0,5,7,0,2026-05-03T00:34:26.251429+05:30
Kakinada,Andhra Pradesh,16.9891,82.2475,28.5,94,0.0,1004.8,9.0,36.7,51,17.7,12.0,2.4,201.0,73.0,1.5,7,5,4,1,2026-05-03T00:34:26.251437+05:30
Tirupati,Andhra Pradesh,13.6288,79.4192,29.7,62,0.0,988.7,9.3,36.7,85,31.7,29.8,11.7,299.0,110.0,11.5,7,5,7,1,2026-05-03T00:34:26.251444+05:30
Warangal,Telangana,17.9689,79.5941,29.8,56,0.0,975.0,9.2,48.2,86,37.4,26.4,11.2,348.0,84.0,8.4,4,5,7,1,2026-05-03T00:34:26.251451+05:30
Nizamabad,Telangana,18.6725,78.0941,30.5,28,0.0,960.4,9.15,28.8,70,75.9,39.6,23.8,383.0,53.0,5.7,0,5,7,0,2026-05-03T00:34:26.251459+05:30
Mysore,Karnataka,12.2958,76.6396,23.3,93,0.0,927.8,8.9,36.4,69,22.8,17.8,11.0,183.0,58.0,2.6,3,5,7,1,2026-05-03T00:34:26.251466+05:30
Mangalore,Karnataka,12.9141,74.856,28.5,81,0.0,1006.4,9.0,42.5,63,38.8,17.5,8.2,278.0,51.0,2.6,7,5,4,1,2026-05-03T00:34:26.251474+05:30
Hubli-Dharwad,Karnataka,15.3647,75.124,22.9,94,0.0,939.7,9.15,48.6,61,40.0,15.1,6.0,183.0,53.0,1.7,3,5,7,1,2026-05-03T00:34:26.251481+05:30
Belgaum,Karnataka,15.8497,74.4977,21.9,95,0.0,924.5,9.15,44.6,64,43.1,18.0,9.2,163.0,43.0,1.1,3,5,7,1,2026-05-03T00:34:29.646649+05:30
Coimbatore,Tamil Nadu,11.0168,76.9558,25.5,88,0.0,960.5,9.25,54.0,66,27.5,23.1,8.7,220.0,63.0,3.0,7,5,7,1,2026-05-03T00:34:29.646681+05:30
Madurai,Tamil Nadu,9.9252,78.1198,29.1,65,0.0,991.7,9.2,35.3,71,32.8,29.8,25.1,436.0,49.0,7.9,7,5,7,1,2026-05-03T00:34:29.646692+05:30
Trichy,Tamil Nadu,10.7905,78.7047,29.5,58,0.0,998.1,9.2,38.2,65,30.5,27.3,14.5,409.0,82.0,6.1,4,5,7,1,2026-05-03T00:34:29.646700+05:30
Salem,Tamil Nadu,11.6643,78.146,29.3,62,0.0,976.1,9.1,57.6,100,31.4,27.7,14.7,286.0,87.0,6.3,7,5,7,1,2026-05-03T00:34:29.646709+05:30
Tirunelveli,Tamil Nadu,8.7139,77.7567,29.4,66,0.0,1001.7,9.15,40.0,61,21.9,20.2,9.9,282.0,48.0,2.3,7,5,4,1,2026-05-03T00:34:29.646717+05:30
Vellore,Tamil Nadu,12.9165,79.1325,30.3,54,0.0,982.1,8.55,47.9,99,28.8,26.3,8.9,333.0,110.0,8.6,0,5,7,1,2026-05-03T00:34:29.646725+05:30
Erode,Tamil Nadu,11.341,77.7172,28.5,72,0.0,987.8,8.95,52.2,71,26.6,23.8,22.8,242.0,52.0,4.1,7,5,7,1,2026-05-03T00:34:29.646733+05:30
Kochi,Kerala,9.9312,76.2673,26.7,93,0.0,1008.3,9.0,35.3,73,42.0,39.5,37.3,449.0,10.0,7.2,7,0,4,1,2026-05-03T00:34:29.646741+05:30
Thiruvananthapuram,Kerala,8.5241,76.9366,25.1,92,0.0,1007.7,8.95,33.1,53,20.3,14.5,5.4,411.0,72.0,2.9,7,5,4,1,2026-05-03T00:34:29.646748+05:30
Kozhikode,Kerala,11.2588,75.7804,26.3,95,0.0,1007.4,8.7,41.0,57,32.0,18.7,2.8,927.0,71.0,1.0,7,5,4,1,2026-05-03T00:34:29.646755+05:30
Thrissur,Kerala,10.5276,76.2144,26.0,91,0.0,1006.7,8.8,34.6,67,42.0,36.2,27.8,411.0,23.0,4.9,7,5,4,1,2026-05-03T00:34:29.646764+05:30
Kannur,Kerala,11.8745,75.3704,28.0,86,0.0,1006.7,9.0,46.4,70,28.3,16.1,10.2,360.0,44.0,1.9,7,5,4,1,2026-05-03T00:34:29.646771+05:30
Patna,Bihar,25.5941,85.1376,24.0,78,0.0,997.5,8.7,33.1,118,51.2,42.8,10.1,341.0,116.0,11.4,3,5,7,1,2026-05-03T00:34:29.646778+05:30
Gaya,Bihar,24.7914,85.0002,25.1,69,0.0,989.7,8.8,29.9,132,57.4,46.8,8.6,407.0,139.0,18.1,7,5,7,1,2026-05-03T00:34:29.646785+05:30
Muzaffarpur,Bihar,26.1209,85.3647,23.0,76,0.0,998.2,8.7,34.9,106,38.1,32.0,9.5,361.0,110.0,9.0,3,5,7,1,2026-05-03T00:34:29.646792+05:30
Bhagalpur,Bihar,25.2425,87.0117,23.1,88,0.0,998.7,7.85,31.0,117,59.6,50.2,12.1,425.0,92.0,8.7,3,5,7,1,2026-05-03T00:34:29.646799+05:30
Ranchi,Jharkhand,23.3441,85.3096,23.5,61,0.0,933.3,9.25,37.1,106,67.3,48.2,16.9,304.0,87.0,27.2,3,5,7,0,2026-05-03T00:34:29.646806+05:30
Jamshedpur,Jharkhand,22.8046,86.2029,24.5,87,0.0,986.9,9.05,38.9,131,52.5,42.4,12.0,390.0,103.0,14.6,3,5,7,1,2026-05-03T00:34:29.646813+05:30
Dhanbad,Jharkhand,23.7957,86.4304,23.5,92,0.0,976.3,9.0,36.0,157,75.2,71.5,40.8,486.0,78.0,70.9,3,5,7,1,2026-05-03T00:34:29.646821+05:30
Bokaro,Jharkhand,23.6693,86.1511,23.5,89,0.0,980.0,9.0,36.0,155,100.8,92.9,44.2,500.0,81.0,90.4,3,5,7,1,2026-05-03T00:34:29.646828+05:30
Bhubaneswar,Odisha,20.2961,85.8245,27.7,91,0.0,998.8,9.1,54.7,54,16.5,13.9,6.4,212.0,68.0,4.6,7,5,7,1,2026-05-03T00:34:29.646835+05:30
Cuttack,Odisha,20.4625,85.8828,28.0,89,0.0,1000.7,9.15,46.4,54,16.5,13.9,6.4,245.0,68.0,4.6,7,5,4,1,2026-05-03T00:34:29.646842+05:30
Rourkela,Odisha,22.2604,84.8536,27.7,55,0.0,980.7,9.0,35.6,111,70.3,47.4,22.6,411.0,67.0,33.9,4,5,7,1,2026-05-03T00:34:29.646849+05:30
Raipur,Chhattisgarh,21.2514,81.6296,31.4,38,0.0,970.5,8.6,37.8,103,83.8,44.8,36.4,368.0,63.0,8.4,0,5,7,0,2026-05-03T00:34:29.646857+05:30
Bhilai,Chhattisgarh,21.1938,81.3509,29.9,43,0.0,971.0,9.0,39.2,103,93.6,50.3,37.8,495.0,58.0,8.4,4,5,7,0,2026-05-03T00:34:29.646865+05:30
Guwahati,Assam,26.1158,91.7086,20.5,98,0.0,1000.7,7.1,28.1,66,33.2,30.6,15.1,338.0,51.0,4.1,3,5,4,1,2026-05-03T00:34:29.646873+05:30
Agartala,Tripura,23.8315,91.2868,21.6,96,0.0,1004.1,8.8,40.7,39,15.5,11.8,13.9,198.0,44.0,1.8,3,5,4,1,2026-05-03T00:34:29.646880+05:30
Shillong,Meghalaya,25.5788,91.8933,14.8,98,0.6,853.2,8.9,28.1,43,4.4,2.3,5.3,245.0,81.0,0.7,6,10,7,0,2026-05-03T00:34:29.646888+05:30
Imphal,Manipur,24.817,93.9368,17.9,94,0.0,921.0,8.8,33.1,52,29.0,26.2,20.5,684.0,33.0,3.2,3,10,7,1,2026-05-03T00:34:29.646895+05:30
Aizawl,Mizoram,23.7271,92.7176,14.6,97,0.0,888.7,8.55,43.9,29,17.1,8.7,3.0,176.0,65.0,0.6,3,10,7,0,2026-05-03T00:34:29.646903+05:30
Kohima,Nagaland,25.6701,94.1077,14.7,92,0.1,851.5,8.55,25.9,36,11.9,7.4,7.5,352.0,61.0,0.9,6,10,7,0,2026-05-03T00:34:29.646911+05:30
Gangtok,Sikkim,27.3314,88.6138,11.6,94,0.1,833.6,8.75,39.6,53,19.3,18.5,23.0,587.0,58.0,1.8,6,10,7,0,2026-05-03T00:34:29.646918+05:30
Siliguri,West Bengal,26.7271,88.3953,20.7,81,0.0,992.2,6.1,27.0,62,23.7,22.7,15.0,442.0,94.0,4.4,3,5,7,1,2026-05-03T00:34:33.073351+05:30
Durgapur,West Bengal,23.5204,87.3119,23.2,96,0.0,992.1,8.95,32.8,151,44.4,40.9,25.9,447.0,69.0,28.1,3,5,7,1,2026-05-03T00:34:33.073388+05:30
Asansol,West Bengal,23.6739,86.9524,23.5,98,0.0,990.6,9.0,32.4,152,54.4,50.8,29.0,447.0,77.0,46.7,3,5,7,1,2026-05-03T00:34:33.073401+05:30
Pondicherry,Puducherry,11.9139,79.8145,29.4,83,0.0,1006.0,8.45,51.8,50,12.8,10.8,9.7,257.0,67.0,8.0,7,5,4,1,2026-05-03T00:34:33.073413+05:30
Port Blair,Andaman and Nicobar Islands,11.6234,92.7265,28.0,78,0.0,1006.6,9.05,27.4,36,10.6,7.6,0.3,148.0,58.0,0.3,7,5,4,1,2026-05-03T00:34:33.073422+05:30
Haridwar,Uttarakhand,29.9457,78.1642,20.6,81,0.0,968.9,6.85,46.1,112,61.0,41.0,12.7,335.0,82.0,5.8,3,5,7,1,2026-05-03T00:34:33.073430+05:30
Rishikesh,Uttarakhand,30.0869,78.2676,19.1,83,0.0,961.7,7.3,41.0,103,60.1,38.8,10.7,328.0,86.0,3.6,3,10,7,0,2026-05-03T00:34:33.073439+05:30
Nainital,Uttarakhand,29.3919,79.4542,12.8,75,0.0,801.1,8.35,45.0,99,62.9,34.0,10.2,287.0,95.0,4.7,3,5,7,0,2026-05-03T00:34:33.073446+05:30
Mussoorie,Uttarakhand,30.4599,78.0664,14.1,64,0.0,798.8,6.95,45.0,105,64.7,42.6,36.6,296.0,38.0,10.7,3,5,7,0,2026-05-03T00:34:33.073454+05:30
Dharamshala,Himachal Pradesh,32.219,76.3234,20.7,37,0.0,864.3,8.15,53.3,60,13.7,11.2,11.1,197.0,59.0,0.2,0,5,7,0,2026-05-03T00:34:33.073461+05:30
Dalhousie,Himachal Pradesh,32.5387,75.971,9.3,76,0.0,796.0,8.5,40.0,56,26.3,24.0,44.1,459.0,19.0,1.9,3,5,7,0,2026-05-03T00:34:33.073469+05:30
Patiala,Punjab,30.3398,76.3869,26.5,51,0.0,972.2,7.35,50.8,242,76.8,47.8,20.1,440.0,75.0,18.7,4,5,7,0,2026-05-03T00:34:33.073476+05:30
Bhatinda,Punjab,30.211,74.9455,28.7,38,0.0,976.7,8.15,53.6,130,142.5,34.3,7.1,377.0,109.0,6.0,4,5,7,0,2026-05-03T00:34:33.073483+05:30
Rohtak,Haryana,28.8955,76.6066,27.4,49,0.0,976.0,7.65,47.9,367,435.9,104.3,33.3,651.0,73.0,27.4,4,5,7,0,2026-05-03T00:34:33.073491+05:30
Panipat,Haryana,29.3909,76.9635,25.9,54,0.0,974.6,7.45,54.7,467,435.9,107.3,32.6,561.0,55.0,19.6,4,5,7,0,2026-05-03T00:34:33.073498+05:30
Mathura,Uttar Pradesh,27.4924,77.6737,27.0,49,0.0,981.0,7.85,36.4,639,754.4,104.5,10.6,394.0,96.0,11.2,4,5,7,0,2026-05-03T00:34:33.073505+05:30
Vrindavan,Uttar Pradesh,27.5823,77.7027,27.5,48,0.0,981.4,7.85,36.7,639,754.4,104.5,10.6,381.0,96.0,11.2,4,5,7,0,2026-05-03T00:34:33.073512+05:30
Ayodhya,Uttar Pradesh,26.7922,82.1998,25.0,68,0.0,992.2,8.25,36.7,86,52.9,34.6,10.4,364.0,110.0,7.1,7,5,7,1,2026-05-03T00:34:33.073519+05:30
Ratlam,Madhya Pradesh,23.3315,75.0367,28.2,55,0.0,951.0,8.5,44.3,57,22.6,14.0,3.5,203.0,91.0,9.7,4,5,7,1,2026-05-03T00:34:33.073527+05:30
Sagar,Madhya Pradesh,23.8388,78.7378,23.6,72,0.0,945.3,8.7,42.5,62,53.2,21.1,6.4,183.0,73.0,3.3,3,5,7,1,2026-05-03T00:34:33.073533+05:30
Satna,Madhya Pradesh,24.6005,80.8322,25.8,54,0.0,967.0,8.75,37.4,66,47.0,24.9,30.2,335.0,43.0,6.2,4,5,7,0,2026-05-03T00:34:33.073541+05:30
Akola,Maharashtra,20.7002,77.0082,32.3,32,0.0,971.2,8.9,45.0,59,35.6,15.8,6.5,202.0,82.0,16.7,0,5,7,0,2026-05-03T00:34:33.073549+05:30
Amravati,Maharashtra,20.9374,77.7796,28.9,48,0.0,963.3,8.9,41.0,59,29.7,14.8,6.9,290.0,81.0,15.3,4,5,7,1,2026-05-03T00:34:33.073558+05:30
Latur,Maharashtra,18.4088,76.5604,30.3,27,0.0,937.3,9.1,39.2,58,32.8,18.6,10.0,237.0,75.0,6.3,0,5,7,0,2026-05-03T00:34:33.073565+05:30
Nanded,Maharashtra,19.1383,77.3091,31.1,24,0.0,964.6,9.0,28.1,61,40.5,22.4,14.5,431.0,51.0,4.0,0,5,7,0,2026-05-03T00:34:33.073572+05:30
Gulbarga,Karnataka,17.3297,76.8343,31.6,26,0.0,955.5,9.1,41.4,59,25.2,15.5,14.5,229.0,58.0,4.4,0,5,7,0,2026-05-03T00:34:33.073578+05:30
Bidar,Karnataka,17.9104,77.5199,29.4,31,0.0,931.9,9.15,32.0,69,62.6,40.4,34.1,291.0,41.0,6.0,4,5,7,0,2026-05-03T00:34:33.073585+05:30
Hospet,Karnataka,15.2689,76.3909,26.5,77,0.0,954.6,9.2,46.8,59,30.0,14.2,4.7,180.0,59.0,1.9,7,5,7,1,2026-05-03T00:34:33.073592+05:30
Tirupur,Tamil Nadu,11.1085,77.3411,26.4,86,0.0,974.0,9.35,49.3,73,32.7,27.8,23.0,225.0,53.0,6.0,7,5,7,1,2026-05-03T00:34:33.073599+05:30
Alappuzha,Kerala,9.4981,76.3388,26.1,95,0.0,1008.4,9.0,33.5,72,36.1,28.1,20.0,244.0,48.0,5.2,7,0,4,1,2026-05-03T00:34:33.073606+05:30
Munnar,Kerala,10.0889,77.0595,17.5,90,0.0,856.0,9.35,23.4,56,16.5,15.7,11.7,232.0,34.0,1.3,3,10,7,0,2026-05-03T00:34:33.073614+05:30
Silchar,Assam,24.8333,92.7789,20.6,96,0.0,1004.0,8.7,33.1,52,20.2,14.5,9.1,240.0,62.0,3.5,3,5,4,1,2026-05-03T00:34:33.073621+05:30
Dibrugarh,Assam,27.4728,94.912,21.5,96,0.0,994.6,7.8,25.2,58,19.3,16.6,11.5,374.0,53.0,1.4,3,5,7,1,2026-05-03T00:34:33.073628+05:30
