city,state,latitude,longitude,temp,humidity,rain,pressure,uv_index,wind_gusts,aqi,pm10,pm2_5,no2,co,o3,so2,mosquito_risk,arthritis_risk,migraine_risk,frizz_risk,updated_at
Delhi,Delhi,28.6139,77.209,24.8,69,0.0,985.0,7.45,45.7,187,134.1,40.5,19.0,571.0,110.0,15.4,3,5,7,1,2026-05-04T22:18:59.161040+05:30
Mumbai,Maharashtra,19.076,72.8777,29.4,71,0.0,1008.3,7.85,44.6,61,38.9,16.2,8.9,214.0,64.0,19.7,7,0,4,1,2026-05-04T22:18:59.161075+05:30
Bangalore,Karnataka,12.9716,77.5946,25.4,58,0.0,912.2,9.5,32.8,82,74.7,48.5,78.4,591.0,27.0,22.9,4,5,7,1,2026-05-04T22:18:59.161091+05:30
Hyderabad,Telangana,17.385,78.4867,32.1,30,0.0,953.4,9.25,35.3,122,52.9,32.9,32.1,393.0,82.0,12.8,0,5,7,0,2026-05-04T22:18:59.161101+05:30
Chennai,Tamil Nadu,13.0827,80.2707,29.9,80,0.0,1007.2,9.15,42.1,75,27.4,20.3,5.5,232.0,107.0,3.9,7,5,4,1,2026-05-04T22:18:59.161109+05:30
Kolkata,West Bengal,22.5726,88.3639,25.7,90,0.0,1009.7,8.9,28.1,80,40.6,34.7,21.6,353.0,38.0,11.5,7,0,4,1,2026-05-04T22:18:59.161118+05:30
Pune,Maharashtra,18.5204,73.8567,25.1,80,0.0,948.4,8.45,51.8,56,21.0,10.0,8.3,224.0,63.0,6.9,7,5,7,1,2026-05-04T22:18:59.161125+05:30
Ahmedabad,Gujarat,23.0225,72.5714,30.4,67,0.0,999.6,8.05,42.5,62,61.0,30.0,24.9,213.0,57.0,11.4,3,5,7,1,2026-05-04T22:18:59.161135+05:30
Jaipur,Rajasthan,26.9124,75.7873,26.4,49,0.0,960.4,8.05,35.3,192,154.6,49.2,6.7,314.0,128.0,5.4,4,5,7,0,2026-05-04T22:18:59.161142+05:30
Lucknow,Uttar Pradesh,26.8467,80.9462,24.4,80,0.0,996.4,8.05,45.0,144,48.1,37.3,12.2,529.0,113.0,10.5,3,5,7,1,2026-05-04T22:18:59.161149+05:30
Kanpur,Uttar Pradesh,26.4499,80.3319,25.2,79,0.0,994.1,8.05,52.9,257,206.8,51.6,9.0,414.0,127.0,10.7,7,5,7,1,2026-05-04T22:18:59.161156+05:30
Chandigarh,Chandigarh,30.7333,76.7794,22.1,60,0.0,970.9,7.5,45.7,108,58.4,28.6,16.9,825.0,95.0,5.0,0,5,7,0,2026-05-04T22:18:59.161164+05:30
Srinagar,Jammu and Kashmir,34.0837,74.7973,11.6,89,0.0,842.9,6.3,27.4,74,35.2,25.2,21.4,834.0,78.0,4.7,3,10,7,0,2026-05-04T22:18:59.161175+05:30
Jammu,Jammu and Kashmir,32.7266,74.857,22.5,59,0.0,975.0,8.2,51.8,93,131.3,57.6,40.5,437.0,63.0,8.3,0,5,7,0,2026-05-04T22:18:59.161182+05:30
Amritsar,Punjab,31.634,74.8723,23.9,55,0.0,982.9,8.1,55.4,122,116.4,32.2,4.8,442.0,129.0,5.8,0,5,7,0,2026-05-04T22:18:59.161189+05:30
Ludhiana,Punjab,30.901,75.8573,23.8,59,0.0,980.9,7.7,51.1,139,50.1,34.3,11.0,412.0,108.0,5.1,0,5,7,0,2026-05-04T22:18:59.161196+05:30
Jalandhar,Punjab,31.326,75.5762,22.0,64,0.0,982.0,7.9,51.8,128,77.5,36.1,8.9,368.0,115.0,6.1,3,5,7,0,2026-05-04T22:18:59.161202+05:30
Dehradun,Uttarakhand,30.6284,78.0322,10.7,92,0.0,830.8,7.05,35.6,85,51.8,20.0,25.3,186.0,90.0,1.6,3,10,7,0,2026-05-04T22:18:59.161211+05:30
Shimla,Himachal Pradesh,31.1048,77.1734,7.9,93,0.0,782.2,7.2,33.5,78,58.9,24.0,26.4,388.0,76.0,1.9,3,10,7,0,2026-05-04T22:18:59.161218+05:30
Manali,Himachal Pradesh,32.2396,77.1887,8.4,88,0.0,816.7,9.0,34.2,126,27.5,11.5,15.9,270.0,129.0,1.4,3,10,7,0,2026-05-04T22:18:59.161225+05:30
Gurgaon,Haryana,28.4595,77.0266,25.4,63,0.0,983.1,7.6,45.7,1413,334.3,68.9,20.3,593.0,114.0,16.0,7,5,7,1,2026-05-04T22:18:59.161232+05:30
Noida,Uttar Pradesh,28.5355,77.391,24.0,71,0.0,986.5,7.5,43.2,1413,334.3,68.9,20.3,557.0,114.0,16.0,3,5,7,1,2026-05-04T22:18:59.161239+05:30
Ghaziabad,Uttar Pradesh,28.6692,77.4538,24.1,71,0.0,984.9,7.45,45.7,132,129.0,33.2,7.2,408.0,117.0,7.2,3,5,7,1,2026-05-04T22:18:59.161246+05:30
Faridabad,Haryana,28.4089,77.3178,24.5,70,0.0,985.7,7.55,49.0,1413,334.3,68.9,20.3,734.0,114.0,16.0,3,5,7,1,2026-05-04T22:18:59.161253+05:30
Meerut,Uttar Pradesh,28.9845,77.7064,23.6,73,0.0,984.0,7.35,58.7,132,129.0,33.2,7.2,462.0,117.0,7.2,3,5,7,1,2026-05-04T22:18:59.161259+05:30
Agra,Uttar Pradesh,27.1767,78.0081,26.3,60,0.0,989.5,7.7,56.2,1105,532.7,96.9,14.2,508.0,106.0,12.5,4,5,7,1,2026-05-04T22:18:59.161265+05:30
Varanasi,Uttar Pradesh,25.3176,82.9739,24.7,85,0.0,999.5,8.65,44.3,192,63.1,54.1,12.7,565.0,137.0,20.2,3,5,7,1,2026-05-04T22:18:59.161273+05:30
Prayagraj,Uttar Pradesh,25.4358,81.8463,26.5,74,0.0,998.3,8.5,56.9,183,61.2,53.9,12.5,463.0,138.0,19.5,7,5,7,1,2026-05-04T22:18:59.161282+05:30
Gorakhpur,Uttar Pradesh,26.7606,83.3732,23.2,81,0.0,1000.5,8.45,43.9,136,46.6,38.0,13.2,431.0,105.0,8.5,3,5,4,1,2026-05-04T22:18:59.161288+05:30
Bareilly,Uttar Pradesh,28.367,79.4304,23.2,77,0.0,989.9,6.85,58.3,99,42.7,31.5,16.6,648.0,81.0,5.4,3,5,7,1,2026-05-04T22:18:59.161295+05:30
Aligarh,Uttar Pradesh,27.8974,78.088,25.2,68,0.0,987.7,7.7,54.0,532,421.9,76.1,8.5,493.0,127.0,13.1,7,5,7,1,2026-05-04T22:18:59.161301+05:30
Moradabad,Uttar Pradesh,28.8386,78.7733,23.1,76,0.0,986.6,7.25,51.1,98,55.4,37.0,15.5,630.0,98.0,8.1,3,5,7,1,2026-05-04T22:18:59.161307+05:30
Saharanpur,Uttar Pradesh,29.9637,77.546,21.8,63,0.0,978.6,7.1,56.9,114,57.6,39.5,24.0,350.0,73.0,10.4,3,5,7,0,2026-05-04T22:18:59.161313+05:30
Jhansi,Uttar Pradesh,25.4484,78.5685,27.5,57,0.0,979.0,8.3,50.8,155,110.1,37.3,3.1,320.0,137.0,8.5,4,5,7,1,2026-05-04T22:19:02.520097+05:30
Surat,Gujarat,21.1702,72.8311,29.2,76,0.0,1005.5,7.7,50.0,61,41.4,19.0,17.0,209.0,55.0,27.9,7,5,4,1,2026-05-04T22:19:02.520120+05:30
Vadodara,Gujarat,22.3072,73.1812,29.6,70,0.0,1002.4,8.05,43.2,57,32.8,17.7,14.7,259.0,64.0,21.8,7,5,4,1,2026-05-04T22:19:02.520129+05:30
Rajkot,Gujarat,22.3039,70.8022,29.4,65,0.0,991.6,7.7,40.3,53,31.1,14.9,3.8,161.0,73.0,3.5,7,5,7,1,2026-05-04T22:19:02.520137+05:30
Thane,Maharashtra,19.2183,72.9781,29.5,68,0.0,1007.6,7.85,41.4,61,38.9,16.2,8.9,215.0,64.0,19.7,7,5,4,1,2026-05-04T22:19:02.520144+05:30
Nagpur,Maharashtra,21.1458,79.0882,35.1,18,0.0,971.4,8.9,49.7,80,61.2,36.1,30.3,316.0,65.0,19.1,0,5,10,0,2026-05-04T22:19:02.520151+05:30
Nashik,Maharashtra,19.9975,73.7898,25.0,79,0.0,945.3,8.15,48.2,58,31.1,13.7,7.3,188.0,72.0,8.3,7,5,7,1,2026-05-04T22:19:02.520158+05:30
Aurangabad,Maharashtra,19.8762,75.3433,30.0,40,0.0,943.8,9.05,38.9,72,32.6,14.8,6.1,190.0,88.0,5.5,4,5,7,0,2026-05-04T22:19:02.520165+05:30
Solapur,Maharashtra,17.6599,75.9064,32.0,20,0.0,956.0,9.05,38.2,62,44.5,20.1,13.5,359.0,76.0,4.4,0,5,7,0,2026-05-04T22:19:02.520171+05:30
Kolhapur,Maharashtra,16.705,74.2433,24.2,87,0.0,948.2,8.9,46.1,57,23.9,13.4,8.5,190.0,58.0,2.8,3,5,7,1,2026-05-04T22:19:02.520178+05:30
Goa,Goa,15.2993,74.124,28.5,79,0.0,998.8,8.9,35.3,65,42.6,18.6,4.5,193.0,58.0,1.5,7,5,7,1,2026-05-04T22:19:02.520184+05:30
Jodhpur,Rajasthan,26.2389,73.0243,29.9,37,0.0,981.1,8.25,54.4,91,171.8,33.9,14.9,250.0,87.0,4.8,4,5,7,0,2026-05-04T22:19:02.520190+05:30
Udaipur,Rajasthan,24.5854,73.7125,25.0,66,0.0,944.7,8.75,44.6,83,64.7,24.4,6.0,325.0,112.0,7.2,7,5,7,1,2026-05-04T22:19:02.520196+05:30
Kota,Rajasthan,25.2138,75.8648,27.5,56,0.0,978.4,8.25,36.7,108,54.8,23.5,5.7,281.0,107.0,5.6,4,5,7,1,2026-05-04T22:19:02.520202+05:30
Bikaner,Rajasthan,28.0229,73.3119,29.4,33,0.0,981.0,8.1,55.1,128,132.2,52.6,3.4,239.0,143.0,10.9,4,5,7,0,2026-05-04T22:19:02.520208+05:30
Ajmer,Rajasthan,26.4499,74.6399,25.5,58,0.0,954.4,8.2,45.7,86,53.8,23.3,5.5,247.0,106.0,4.2,4,5,7,1,2026-05-04T22:19:02.520215+05:30
Gwalior,Madhya Pradesh,26.2183,78.1828,28.8,48,0.0,984.4,8.1,52.9,140,247.7,57.4,3.9,349.0,133.0,6.5,4,5,7,1,2026-05-04T22:19:02.520221+05:30
Indore,Madhya Pradesh,22.7196,75.8577,28.2,43,0.0,947.3,8.6,37.1,57,55.6,31.8,18.1,319.0,76.0,8.2,4,5,7,0,2026-05-04T22:19:02.520227+05:30
Bhopal,Madhya Pradesh,23.2599,77.4126,27.9,47,0.0,953.1,8.65,62.6,54,27.3,17.2,8.5,225.0,69.0,4.4,4,5,7,0,2026-05-04T22:19:02.520233+05:30
Jabalpur,Madhya Pradesh,23.1815,79.9864,30.0,36,0.0,961.4,8.85,32.4,70,29.8,22.0,18.4,240.0,85.0,7.9,4,5,7,0,2026-05-04T22:19:02.520239+05:30
Ujjain,Madhya Pradesh,23.1765,75.7885,27.9,48,0.0,953.0,8.55,54.0,54,59.3,31.3,9.6,270.0,85.0,5.6,4,5,7,0,2026-05-04T22:19:02.520245+05:30
Visakhapatnam,Andhra Pradesh,17.6868,83.2185,26.7,96,0.0,1005.2,8.05,32.4,85,33.3,25.4,21.9,2068.0,78.0,4.8,7,5,4,1,2026-05-04T22:19:02.520251+05:30
Vijayawada,Andhra Pradesh,16.5062,80.648,29.5,76,0.0,1003.3,9.1,34.9,105,29.5,23.3,6.4,223.0,98.0,7.0,7,5,4,1,2026-05-04T22:19:02.520257+05:30
Guntur,Andhra Pradesh,16.3067,80.4365,29.4,82,0.0,1004.4,9.15,41.4,111,31.4,24.2,6.3,217.0,102.0,6.7,7,5,4,1,2026-05-04T22:19:02.520263+05:30
Nellore,Andhra Pradesh,14.4426,79.9865,29.7,73,0.0,1005.8,9.15,36.0,113,24.4,18.5,3.1,211.0,101.0,4.2,7,5,4,1,2026-05-04T22:19:02.520270+05:30
Kurnool,Andhra Pradesh,15.8281,78.0373,32.0,24,0.0,975.8,9.15,31.3,94,68.2,35.4,18.4,298.0,80.0,7.3,0,5,7,0,2026-05-04T22:19:02.520277+05:30
Kakinada,Andhra Pradesh,16.9891,82.2475,27.8,94,0.0,1008.6,9.1,32.8,85,29.3,21.2,1.7,327.0,104.0,1.6,7,0,4,1,2026-05-04T22:19:02.520284+05:30
Tirupati,Andhra Pradesh,13.6288,79.4192,29.6,60,0.0,991.4,9.3,49.0,126,38.6,32.9,21.0,358.0,93.0,10.1,4,5,7,1,2026-05-04T22:19:02.520290+05:30
Warangal,Telangana,17.9689,79.5941,29.6,61,0.0,978.6,9.15,34.6,113,45.9,34.6,11.7,296.0,110.0,10.7,7,5,7,1,2026-05-04T22:19:02.520296+05:30
Nizamabad,Telangana,18.6725,78.0941,29.9,21,0.0,963.1,9.1,32.4,78,87.5,55.2,32.0,346.0,60.0,8.9,4,5,7,0,2026-05-04T22:19:02.520302+05:30
Mysore,Karnataka,12.2958,76.6396,24.7,80,0.0,929.3,9.4,37.1,66,27.3,17.3,14.4,212.0,72.0,2.8,3,5,7,1,2026-05-04T22:19:02.520308+05:30
Mangalore,Karnataka,12.9141,74.856,29.5,72,0.0,1007.5,9.05,45.4,68,44.5,16.4,3.0,175.0,62.0,1.5,7,5,4,1,2026-05-04T22:19:02.520314+05:30
Hubli-Dharwad,Karnataka,15.3647,75.124,24.9,82,0.0,941.0,9.15,53.6,54,26.4,14.1,7.7,189.0,62.0,2.2,3,5,7,1,2026-05-04T22:19:02.520320+05:30
Belgaum,Karnataka,15.8497,74.4977,22.5,94,0.0,925.6,9.15,49.0,56,25.7,14.3,8.8,174.0,49.0,2.4,3,5,7,1,2026-05-04T22:19:05.868443+05:30
Coimbatore,Tamil Nadu,11.0168,76.9558,25.0,87,0.0,962.8,9.35,47.2,67,25.1,13.6,8.4,255.0,74.0,3.5,7,5,7,1,2026-05-04T22:19:05.868467+05:30
Madurai,Tamil Nadu,9.9252,78.1198,26.5,91,0.4,993.8,7.9,44.3,136,36.4,27.8,13.6,361.0,99.0,5.3,10,5,7,1,2026-05-04T22:19:05.868477+05:30
Trichy,Tamil Nadu,10.7905,78.7047,25.8,88,0.4,1000.8,9.25,43.6,117,29.6,23.1,8.4,246.0,93.0,3.8,10,5,4,1,2026-05-04T22:19:05.868484+05:30
Salem,Tamil Nadu,11.6643,78.146,25.0,86,0.2,978.4,9.25,55.4,128,43.5,30.0,10.0,326.0,120.0,7.5,10,5,7,1,2026-05-04T22:19:05.868491+05:30
Tirunelveli,Tamil Nadu,8.7139,77.7567,29.2,64,0.0,1003.8,8.15,36.4,75,44.0,22.3,8.5,220.0,61.0,2.4,7,5,4,1,2026-05-04T22:19:05.868497+05:30
Vellore,Tamil Nadu,12.9165,79.1325,30.0,56,0.0,984.7,9.0,50.8,137,54.5,40.9,15.9,297.0,108.0,9.3,4,5,7,1,2026-05-04T22:19:05.868504+05:30
Erode,Tamil Nadu,11.341,77.7172,28.9,64,0.0,990.3,9.25,51.1,80,34.6,24.2,13.3,253.0,85.0,2.4,7,5,7,1,2026-05-04T22:19:05.868510+05:30
Kochi,Kerala,9.9312,76.2673,25.7,92,0.0,1010.7,9.05,29.9,103,40.4,23.6,16.2,258.0,52.0,4.0,7,0,4,1,2026-05-04T22:19:05.868518+05:30
Thiruvananthapuram,Kerala,8.5241,76.9366,24.4,94,0.0,1009.7,7.95,43.6,72,55.2,19.2,2.2,271.0,67.0,1.0,3,0,4,1,2026-05-04T22:19:05.868525+05:30
Kozhikode,Kerala,11.2588,75.7804,26.3,93,0.0,1009.1,9.0,38.5,68,47.3,16.8,2.1,356.0,71.0,0.8,7,0,4,1,2026-05-04T22:19:05.868531+05:30
Thrissur,Kerala,10.5276,76.2144,24.5,96,0.0,1009.1,8.75,37.1,93,39.2,24.2,14.8,393.0,48.0,2.8,3,0,4,1,2026-05-04T22:19:05.868538+05:30
Kannur,Kerala,11.8745,75.3704,29.5,75,0.0,1008.0,9.0,46.8,67,48.8,18.2,5.1,233.0,53.0,1.2,7,0,4,1,2026-05-04T22:19:05.868544+05:30
Patna,Bihar,25.5941,85.1376,23.5,92,0.0,1002.9,8.7,45.4,166,61.7,52.7,12.2,402.0,133.0,14.7,3,5,4,1,2026-05-04T22:19:05.868550+05:30
Gaya,Bihar,24.7914,85.0002,24.1,83,0.0,996.6,8.8,46.4,178,59.5,54.4,7.8,359.0,175.0,22.2,3,5,7,1,2026-05-04T22:19:05.868556+05:30
Muzaffarpur,Bihar,26.1209,85.3647,23.2,91,0.0,1003.0,8.7,47.5,135,57.7,46.6,15.7,410.0,103.0,12.5,3,5,4,1,2026-05-04T22:19:05.868562+05:30
Bhagalpur,Bihar,25.2425,87.0117,23.4,96,0.4,1005.6,8.7,36.7,130,51.9,45.2,16.0,279.0,104.0,12.4,6,5,4,1,2026-05-04T22:19:05.868568+05:30
Ranchi,Jharkhand,23.3441,85.3096,21.0,87,0.0,940.0,9.25,34.6,167,54.7,44.1,7.3,335.0,162.0,17.7,3,5,7,1,2026-05-04T22:19:05.868574+05:30
Jamshedpur,Jharkhand,22.8046,86.2029,23.9,96,0.1,994.4,9.05,44.6,126,37.7,29.8,16.7,381.0,79.0,20.1,6,5,7,1,2026-05-04T22:19:05.868581+05:30
Dhanbad,Jharkhand,23.7957,86.4304,24.1,94,0.0,983.9,9.0,38.5,153,77.1,65.4,49.2,1200.0,64.0,74.2,3,5,7,1,2026-05-04T22:19:05.868587+05:30
Bokaro,Jharkhand,23.6693,86.1511,23.6,94,0.0,987.2,9.0,37.4,193,81.5,71.5,43.8,1429.0,97.0,77.7,3,5,7,1,2026-05-04T22:19:05.868593+05:30
Bhubaneswar,Odisha,20.2961,85.8245,26.4,93,0.0,1005.5,9.1,39.6,69,19.3,15.6,6.9,225.0,70.0,3.1,7,5,4,1,2026-05-04T22:19:05.868599+05:30
Cuttack,Odisha,20.4625,85.8828,26.6,90,0.0,1007.4,9.15,38.5,69,19.3,15.6,6.9,235.0,70.0,3.1,7,5,4,1,2026-05-04T22:19:05.868605+05:30
Rourkela,Odisha,22.2604,84.8536,24.9,89,0.0,987.7,8.95,34.6,144,51.1,37.7,9.7,392.0,127.0,33.3,3,5,7,1,2026-05-04T22:19:05.868611+05:30
Raipur,Chhattisgarh,21.2514,81.6296,30.8,40,0.0,974.6,9.0,53.6,128,59.0,39.3,18.9,281.0,94.0,7.8,0,5,7,0,2026-05-04T22:19:05.868618+05:30
Bhilai,Chhattisgarh,21.1938,81.3509,30.5,46,0.0,974.8,9.0,49.3,109,68.5,47.5,35.5,252.0,68.0,10.2,0,5,7,1,2026-05-04T22:19:05.868623+05:30
Guwahati,Assam,26.1158,91.7086,22.3,91,0.0,1006.4,8.65,34.9,85,25.1,21.2,9.0,360.0,69.0,1.8,3,5,4,1,2026-05-04T22:19:05.868629+05:30
Agartala,Tripura,23.8315,91.2868,24.0,91,0.0,1010.5,8.85,33.1,61,53.1,43.0,26.0,321.0,62.0,4.4,3,0,4,1,2026-05-04T22:19:05.868635+05:30
Shillong,Meghalaya,25.5788,91.8933,14.4,91,0.0,859.0,9.05,31.7,61,17.3,14.9,10.5,503.0,76.0,1.0,3,10,7,0,2026-05-04T22:19:05.868641+05:30
Imphal,Manipur,24.817,93.9368,17.5,93,0.0,926.4,6.85,27.0,91,55.1,46.8,38.0,859.0,44.0,5.9,3,10,7,1,2026-05-04T22:19:05.868648+05:30
Aizawl,Mizoram,23.7271,92.7176,17.7,89,0.0,895.1,8.45,27.0,44,27.2,18.6,11.2,283.0,35.0,0.8,3,10,7,0,2026-05-04T22:19:05.868654+05:30
Kohima,Nagaland,25.6701,94.1077,13.6,93,0.0,856.6,8.9,26.6,72,28.8,23.0,21.1,394.0,37.0,2.2,3,10,7,0,2026-05-04T22:19:05.868660+05:30
Gangtok,Sikkim,27.3314,88.6138,12.4,96,0.1,840.2,7.8,44.6,60,26.5,21.4,17.9,355.0,90.0,1.5,6,10,7,0,2026-05-04T22:19:05.868666+05:30
Siliguri,West Bengal,26.7271,88.3953,21.7,91,0.0,998.7,8.55,31.7,86,41.8,32.5,14.9,584.0,105.0,4.0,3,5,7,1,2026-05-04T22:19:09.215374+05:30
Durgapur,West Bengal,23.5204,87.3119,24.6,88,0.0,998.9,8.95,40.7,127,78.0,69.2,37.4,442.0,65.0,41.9,3,5,7,1,2026-05-04T22:19:09.215396+05:30
Asansol,West Bengal,23.6739,86.9524,23.9,89,0.0,997.7,8.95,33.5,139,71.2,59.5,37.1,689.0,69.0,54.4,3,5,7,1,2026-05-04T22:19:09.215405+05:30
Pondicherry,Puducherry,11.9139,79.8145,29.9,84,0.0,1008.3,8.4,43.6,98,30.6,20.8,3.6,239.0,105.0,2.2,7,0,4,1,2026-05-04T22:19:09.215413+05:30
Port Blair,Andaman and Nicobar Islands,11.6234,92.7265,27.9,77,0.0,1009.4,9.1,34.2,24,7.8,5.7,0.4,190.0,52.0,0.2,7,0,4,1,2026-05-04T22:19:09.215420+05:30
Haridwar,Uttarakhand,29.9457,78.1642,21.1,68,0.0,977.2,6.25,43.9,102,78.9,46.1,24.2,267.0,77.0,8.3,3,5,7,0,2026-05-04T22:19:09.215427+05:30
Rishikesh,Uttarakhand,30.0869,78.2676,19.0,77,0.0,969.6,6.2,41.8,94,60.8,27.3,15.5,322.0,92.0,2.7,3,5,7,0,2026-05-04T22:19:09.215435+05:30
Nainital,Uttarakhand,29.3919,79.4542,9.9,86,0.0,805.2,7.8,43.9,83,28.0,18.7,13.7,323.0,74.0,2.8,3,10,7,0,2026-05-04T22:19:09.215441+05:30
Mussoorie,Uttarakhand,30.4599,78.0664,8.6,95,0.0,801.8,6.75,42.8,95,85.9,37.8,28.0,250.0,88.0,11.8,3,10,7,0,2026-05-04T22:19:09.215448+05:30
Dharamshala,Himachal Pradesh,32.219,76.3234,15.9,54,0.0,869.6,8.1,39.2,92,49.6,15.4,10.9,316.0,98.0,1.1,0,5,7,0,2026-05-04T22:19:09.215454+05:30
Dalhousie,Himachal Pradesh,32.5387,75.971,8.2,94,0.0,801.6,8.25,38.2,103,118.5,39.3,32.2,458.0,90.0,4.4,3,10,7,0,2026-05-04T22:19:09.215461+05:30
Patiala,Punjab,30.3398,76.3869,23.9,55,0.0,980.5,7.4,52.6,224,37.3,25.8,7.7,358.0,114.0,4.6,0,5,7,0,2026-05-04T22:19:09.215467+05:30
Bhatinda,Punjab,30.211,74.9455,24.7,54,0.0,985.1,8.0,47.5,554,270.1,58.0,6.7,308.0,122.0,8.5,0,5,7,0,2026-05-04T22:19:09.215473+05:30
Rohtak,Haryana,28.8955,76.6066,25.6,56,0.0,983.4,7.5,51.1,693,256.1,59.0,18.6,368.0,112.0,18.4,4,5,7,1,2026-05-04T22:19:09.215479+05:30
Panipat,Haryana,29.3909,76.9635,24.1,61,0.0,982.8,7.35,46.1,1212,95.9,32.9,7.2,408.0,124.0,7.6,3,5,7,0,2026-05-04T22:19:09.215486+05:30
Mathura,Uttar Pradesh,27.4924,77.6737,25.6,64,0.0,988.6,7.8,52.2,942,352.0,72.4,9.8,431.0,126.0,9.5,7,5,7,1,2026-05-04T22:19:09.215493+05:30
Vrindavan,Uttar Pradesh,27.5823,77.7027,25.9,63,0.0,989.1,7.8,51.1,942,352.0,72.4,9.8,460.0,126.0,9.5,7,5,7,1,2026-05-04T22:19:09.215499+05:30
Ayodhya,Uttar Pradesh,26.7922,82.1998,23.7,79,0.0,998.5,7.55,48.2,135,48.5,38.5,13.6,422.0,104.0,7.7,3,5,7,1,2026-05-04T22:19:09.215505+05:30
Ratlam,Madhya Pradesh,23.3315,75.0367,28.5,46,0.0,953.8,8.45,34.6,59,41.9,20.1,2.9,283.0,104.0,4.6,4,5,7,0,2026-05-04T22:19:09.215511+05:30
Sagar,Madhya Pradesh,23.8388,78.7378,27.9,46,0.0,950.6,8.65,36.4,103,30.6,21.8,7.9,321.0,108.0,5.8,4,5,7,0,2026-05-04T22:19:09.215517+05:30
Satna,Madhya Pradesh,24.6005,80.8322,27.2,60,0.0,972.3,8.2,40.7,151,52.9,35.9,8.3,388.0,140.0,13.6,4,5,7,1,2026-05-04T22:19:09.215524+05:30
Akola,Maharashtra,20.7002,77.0082,32.0,18,0.0,973.2,8.85,34.6,85,28.8,16.1,7.4,229.0,102.0,11.6,0,5,7,0,2026-05-04T22:19:09.215531+05:30
Amravati,Maharashtra,20.9374,77.7796,32.0,16,0.0,965.7,8.9,36.4,81,36.6,19.8,16.0,281.0,82.0,9.0,0,5,7,0,2026-05-04T22:19:09.215537+05:30
Latur,Maharashtra,18.4088,76.5604,30.0,16,0.0,938.5,9.1,39.2,56,61.0,30.2,17.7,202.0,74.0,5.0,4,5,7,0,2026-05-04T22:19:09.215543+05:30
Nanded,Maharashtra,19.1383,77.3091,31.5,21,0.0,966.6,9.0,29.9,64,61.2,29.6,25.8,431.0,60.0,7.3,0,5,7,0,2026-05-04T22:19:09.215549+05:30
Gulbarga,Karnataka,17.3297,76.8343,31.5,17,0.0,956.8,9.1,40.0,56,53.2,26.8,32.9,302.0,51.0,5.0,0,5,7,0,2026-05-04T22:19:09.215555+05:30
Bidar,Karnataka,17.9104,77.5199,29.0,21,0.0,934.4,9.1,33.1,78,41.6,22.9,18.5,373.0,78.0,5.1,4,5,7,0,2026-05-04T22:19:09.215561+05:30
Hospet,Karnataka,15.2689,76.3909,28.6,52,0.0,955.6,9.15,36.7,56,37.1,22.2,23.3,292.0,61.0,3.6,4,5,7,1,2026-05-04T22:19:09.215567+05:30
Tirupur,Tamil Nadu,11.1085,77.3411,26.8,78,0.0,976.1,9.35,40.7,71,32.5,19.8,12.6,239.0,74.0,4.9,7,5,7,1,2026-05-04T22:19:09.215573+05:30
Alappuzha,Kerala,9.4981,76.3388,25.3,93,0.0,1010.6,8.95,30.6,85,48.7,23.2,12.1,140.0,67.0,4.1,7,0,4,1,2026-05-04T22:19:09.215579+05:30
Munnar,Kerala,10.0889,77.0595,17.7,94,0.0,857.7,7.7,25.2,76,25.3,16.5,8.7,325.0,68.0,1.8,3,10,7,1,2026-05-04T22:19:09.215585+05:30
Silchar,Assam,24.8333,92.7789,21.9,96,0.0,1009.4,6.1,22.0,95,53.8,46.0,23.5,674.0,51.0,10.7,3,0,4,1,2026-05-04T22:19:09.215591+05:30
Dibrugarh,Assam,27.4728,94.912,23.0,90,0.0,999.9,8.7,23.4,86,28.9,27.4,20.0,386.0,28.0,1.9,3,5,7,1,2026-05-04T22:19:09.215597+05:30
