city,state,latitude,longitude,temp,humidity,rain,pressure,uv_index,wind_gusts,aqi,pm10,pm2_5,mosquito_risk,arthritis_risk,migraine_risk,frizz_risk,updated_at
Delhi,Delhi,28.6139,77.209,28.6,40,0.0,988.5,7.15,33.8,767,421.9,70.1,4,5,7,0,2026-04-11T11:35:48.071889+05:30
Mumbai,Maharashtra,19.076,72.8777,28.2,85,0.0,1011.3,7.95,24.1,108,84.5,54.0,7,0,4,1,2026-04-11T11:35:48.071933+05:30
Bangalore,Karnataka,12.9716,77.5946,30.9,49,0.0,915.8,9.65,27.4,86,38.1,25.8,0,5,7,1,2026-04-11T11:35:48.071948+05:30
Hyderabad,Telangana,17.385,78.4867,36.8,29,0.0,957.3,9.2,19.1,103,36.4,25.4,0,5,10,0,2026-04-11T11:35:48.071979+05:30
Chennai,Tamil Nadu,13.0827,80.2707,35.2,50,0.0,1010.1,9.15,36.4,58,24.0,16.6,0,0,7,1,2026-04-11T11:35:48.071990+05:30
Kolkata,West Bengal,22.5726,88.3639,31.9,57,0.0,1009.5,8.75,20.2,140,63.1,45.3,0,0,4,1,2026-04-11T11:35:48.072000+05:30
Pune,Maharashtra,18.5204,73.8567,36.2,28,0.0,952.6,8.55,39.6,97,35.6,20.9,0,5,10,0,2026-04-11T11:35:48.072012+05:30
Ahmedabad,Gujarat,23.0225,72.5714,36.2,21,0.0,1006.9,8.05,18.4,73,32.2,17.7,0,5,7,0,2026-04-11T11:35:48.072020+05:30
Jaipur,Rajasthan,26.9124,75.7873,32.2,26,0.0,965.0,7.85,37.4,98,148.1,25.8,0,5,7,0,2026-04-11T11:35:48.072028+05:30
Lucknow,Uttar Pradesh,26.8467,80.9462,32.3,28,0.0,997.2,7.65,46.1,251,202.1,51.5,0,5,7,0,2026-04-11T11:35:48.072043+05:30
Kanpur,Uttar Pradesh,26.4499,80.3319,30.8,38,0.0,996.4,7.65,40.7,608,553.2,82.7,0,5,7,0,2026-04-11T11:35:48.072050+05:30
Chandigarh,Chandigarh,30.7333,76.7794,29.1,33,0.0,973.4,7.15,33.8,49,43.8,14.9,4,5,7,0,2026-04-11T11:35:48.072057+05:30
Srinagar,Jammu and Kashmir,34.0837,74.7973,12.8,73,0.1,843.2,7.45,18.0,85,46.7,14.1,6,5,7,0,2026-04-11T11:35:48.072065+05:30
Jammu,Jammu and Kashmir,32.7266,74.857,24.4,59,0.0,977.7,6.65,17.6,62,76.4,17.9,0,5,7,0,2026-04-11T11:35:48.072072+05:30
Amritsar,Punjab,31.634,74.8723,26.9,49,0.0,985.8,7.7,20.9,56,85.9,23.7,4,5,7,0,2026-04-11T11:35:48.072078+05:30
Ludhiana,Punjab,30.901,75.8573,28.8,33,0.0,983.6,7.35,33.8,57,56.5,18.3,4,5,7,0,2026-04-11T11:35:48.072085+05:30
Jalandhar,Punjab,31.326,75.5762,27.6,38,0.0,984.8,7.5,27.0,59,79.9,22.3,4,5,7,0,2026-04-11T11:35:48.072093+05:30
Dehradun,Uttarakhand,30.6284,78.0322,19.9,41,0.0,833.7,7.5,48.6,45,41.1,8.9,0,5,7,0,2026-04-11T11:35:48.072100+05:30
Shimla,Himachal Pradesh,31.1048,77.1734,17.4,46,0.0,788.4,7.5,46.1,57,44.0,11.2,0,5,7,0,2026-04-11T11:35:48.072107+05:30
Manali,Himachal Pradesh,32.2396,77.1887,15.8,54,0.0,822.1,9.1,33.1,97,29.2,8.3,0,5,7,0,2026-04-11T11:35:48.072113+05:30
Gurgaon,Haryana,28.4595,77.0266,27.9,44,0.0,987.1,7.3,26.3,1980,1344.8,146.2,4,5,7,0,2026-04-11T11:35:48.072120+05:30
Noida,Uttar Pradesh,28.5355,77.391,29.2,38,0.0,989.9,7.2,33.5,1980,1344.8,146.2,4,5,7,0,2026-04-11T11:35:48.072126+05:30
Ghaziabad,Uttar Pradesh,28.6692,77.4538,28.5,42,0.0,988.0,7.15,32.4,581,341.8,61.7,4,5,7,0,2026-04-11T11:35:48.072133+05:30
Faridabad,Haryana,28.4089,77.3178,29.1,38,0.0,989.2,7.25,33.1,1980,1344.8,146.2,4,5,7,0,2026-04-11T11:35:48.072139+05:30
Meerut,Uttar Pradesh,28.9845,77.7064,28.9,38,0.0,986.3,7.05,33.5,581,341.8,61.7,4,5,7,0,2026-04-11T11:35:48.072146+05:30
Agra,Uttar Pradesh,27.1767,78.0081,31.8,33,0.0,993.4,7.55,29.9,1270,817.7,104.8,0,5,7,0,2026-04-11T11:35:48.072152+05:30
Varanasi,Uttar Pradesh,25.3176,82.9739,33.7,25,0.0,1001.5,8.3,41.4,98,191.9,43.3,0,5,4,0,2026-04-11T11:35:48.072161+05:30
Prayagraj,Uttar Pradesh,25.4358,81.8463,33.2,27,0.0,1000.7,8.15,43.9,124,191.4,48.1,0,5,4,0,2026-04-11T11:35:48.072168+05:30
Gorakhpur,Uttar Pradesh,26.7606,83.3732,31.8,30,0.0,1000.3,8.1,34.9,101,168.1,51.1,0,5,4,0,2026-04-11T11:35:48.072174+05:30
Bareilly,Uttar Pradesh,28.367,79.4304,30.2,36,0.0,990.9,7.45,50.0,90,33.5,14.5,0,5,7,0,2026-04-11T11:35:48.072180+05:30
Aligarh,Uttar Pradesh,27.8974,78.088,31.8,31,0.0,990.7,7.35,38.9,1259,897.8,109.9,0,5,7,0,2026-04-11T11:35:48.072186+05:30
Moradabad,Uttar Pradesh,28.8386,78.7733,29.7,38,0.0,987.9,7.25,42.5,103,48.7,17.7,4,5,7,0,2026-04-11T11:35:48.072193+05:30
Saharanpur,Uttar Pradesh,29.9637,77.546,30.0,34,0.0,979.9,6.85,40.7,70,68.9,20.0,4,5,7,0,2026-04-11T11:35:48.072199+05:30
Jhansi,Uttar Pradesh,25.4484,78.5685,33.3,28,0.0,983.4,8.1,28.8,59,163.0,30.4,0,5,7,0,2026-04-11T11:35:51.328363+05:30
Surat,Gujarat,21.1702,72.8311,33.8,38,0.0,1010.4,7.8,28.4,113,75.2,68.5,0,0,4,1,2026-04-11T11:35:51.328397+05:30
Vadodara,Gujarat,22.3072,73.1812,35.8,27,0.0,1008.6,8.05,16.6,55,24.0,13.2,0,0,7,0,2026-04-11T11:35:51.328410+05:30
Rajkot,Gujarat,22.3039,70.8022,34.0,36,0.0,999.5,7.75,31.7,71,47.4,22.1,0,5,7,1,2026-04-11T11:35:51.328422+05:30
Thane,Maharashtra,19.2183,72.9781,34.6,49,0.0,1010.7,7.95,37.8,108,84.5,54.0,0,0,4,1,2026-04-11T11:35:51.328431+05:30
Nagpur,Maharashtra,21.1458,79.0882,33.4,29,0.0,978.4,8.75,22.7,63,42.6,14.0,0,5,7,0,2026-04-11T11:35:51.328442+05:30
Nashik,Maharashtra,19.9975,73.7898,33.8,26,0.0,949.8,8.25,37.8,109,38.2,26.1,0,5,7,0,2026-04-11T11:35:51.328452+05:30
Aurangabad,Maharashtra,19.8762,75.3433,35.6,20,0.0,948.8,8.9,29.5,72,24.2,14.0,0,5,10,0,2026-04-11T11:35:51.328462+05:30
Solapur,Maharashtra,17.6599,75.9064,37.7,25,0.0,960.9,9.0,18.7,66,29.0,18.1,0,5,10,0,2026-04-11T11:35:51.328473+05:30
Kolhapur,Maharashtra,16.705,74.2433,34.8,33,0.0,951.7,8.5,43.9,104,40.2,27.2,0,5,7,1,2026-04-11T11:35:51.328483+05:30
Goa,Goa,15.2993,74.124,32.0,61,0.0,1001.7,9.05,33.8,109,93.6,37.1,3,5,4,1,2026-04-11T11:35:51.328493+05:30
Jodhpur,Rajasthan,26.2389,73.0243,33.3,27,0.0,987.9,8.05,28.4,61,75.2,18.3,0,5,7,0,2026-04-11T11:35:51.328504+05:30
Udaipur,Rajasthan,24.5854,73.7125,33.4,21,0.0,952.0,8.6,33.8,74,19.5,6.6,0,5,7,0,2026-04-11T11:35:51.328514+05:30
Kota,Rajasthan,25.2138,75.8648,32.9,30,0.0,984.2,8.1,17.6,73,31.8,11.3,0,5,7,0,2026-04-11T11:35:51.328524+05:30
Bikaner,Rajasthan,28.0229,73.3119,31.1,33,0.0,986.8,7.4,32.8,51,33.3,13.4,0,5,7,0,2026-04-11T11:35:51.328535+05:30
Ajmer,Rajasthan,26.4499,74.6399,32.7,23,0.0,959.7,8.0,37.8,65,12.0,4.5,0,5,7,0,2026-04-11T11:35:51.328545+05:30
Gwalior,Madhya Pradesh,26.2183,78.1828,32.3,34,0.0,988.7,7.8,28.1,102,141.1,32.2,0,5,7,0,2026-04-11T11:35:51.328555+05:30
Indore,Madhya Pradesh,22.7196,75.8577,33.3,19,0.0,953.5,8.5,21.6,59,40.9,11.8,0,5,7,0,2026-04-11T11:35:51.328565+05:30
Bhopal,Madhya Pradesh,23.2599,77.4126,34.0,18,0.0,959.3,8.45,22.3,50,50.5,11.6,0,5,7,0,2026-04-11T11:35:51.328576+05:30
Jabalpur,Madhya Pradesh,23.1815,79.9864,32.3,24,0.0,967.2,8.6,20.5,68,33.8,13.2,0,5,7,0,2026-04-11T11:35:51.328586+05:30
Ujjain,Madhya Pradesh,23.1765,75.7885,33.4,22,0.0,959.2,8.4,20.5,63,34.8,11.7,0,5,7,0,2026-04-11T11:35:51.328596+05:30
Visakhapatnam,Andhra Pradesh,17.6868,83.2185,35.0,50,0.0,1006.9,9.15,40.3,83,36.0,29.2,0,5,4,1,2026-04-11T11:35:51.328612+05:30
Vijayawada,Andhra Pradesh,16.5062,80.648,34.9,52,0.0,1006.1,9.2,26.3,75,31.4,24.5,0,5,4,1,2026-04-11T11:35:51.328623+05:30
Guntur,Andhra Pradesh,16.3067,80.4365,35.7,49,0.0,1007.0,9.25,33.8,74,32.5,25.3,0,5,7,1,2026-04-11T11:35:51.328633+05:30
Nellore,Andhra Pradesh,14.4426,79.9865,36.7,40,0.0,1008.5,9.25,41.8,65,32.1,24.0,0,0,7,1,2026-04-11T11:35:51.328644+05:30
Kurnool,Andhra Pradesh,15.8281,78.0373,37.7,36,0.0,979.9,9.2,26.6,83,36.9,26.1,0,5,10,1,2026-04-11T11:35:51.328654+05:30
Kakinada,Andhra Pradesh,16.9891,82.2475,35.3,50,0.0,1010.7,9.2,35.6,63,26.9,18.7,0,0,7,1,2026-04-11T11:35:51.328665+05:30
Tirupati,Andhra Pradesh,13.6288,79.4192,35.0,42,0.0,994.9,9.4,29.9,76,36.0,27.1,0,5,7,1,2026-04-11T11:35:51.328676+05:30
Warangal,Telangana,17.9689,79.5941,35.7,43,0.0,982.5,9.1,25.2,104,37.5,28.1,0,5,10,1,2026-04-11T11:35:51.328686+05:30
Nizamabad,Telangana,18.6725,78.0941,35.8,32,0.0,969.1,9.0,24.8,82,29.3,17.2,0,5,10,1,2026-04-11T11:35:51.328695+05:30
Mysore,Karnataka,12.2958,76.6396,30.2,54,0.0,932.2,9.4,34.2,82,31.1,22.5,0,5,7,1,2026-04-11T11:35:51.328705+05:30
Mangalore,Karnataka,12.9141,74.856,29.4,78,0.0,1010.3,8.75,24.5,82,74.7,28.6,7,0,4,1,2026-04-11T11:35:51.328717+05:30
Hubli-Dharwad,Karnataka,15.3647,75.124,33.5,45,0.0,944.8,9.25,41.4,95,56.6,29.6,0,5,7,1,2026-04-11T11:35:51.328728+05:30
Belgaum,Karnataka,15.8497,74.4977,33.8,32,0.0,930.0,9.3,41.0,96,49.9,26.3,0,5,7,0,2026-04-11T11:35:54.587195+05:30
Coimbatore,Tamil Nadu,11.0168,76.9558,33.3,45,0.0,965.2,7.35,32.0,73,32.9,22.1,0,5,7,1,2026-04-11T11:35:54.587224+05:30
Madurai,Tamil Nadu,9.9252,78.1198,34.7,47,0.0,995.6,8.45,40.3,74,29.7,20.8,0,5,7,1,2026-04-11T11:35:54.587233+05:30
Trichy,Tamil Nadu,10.7905,78.7047,34.2,49,0.0,1002.5,9.4,26.6,70,25.6,18.8,0,5,4,1,2026-04-11T11:35:54.587240+05:30
Salem,Tamil Nadu,11.6643,78.146,34.1,44,0.0,980.4,9.05,20.2,71,34.1,22.7,0,5,7,1,2026-04-11T11:35:54.587247+05:30
Tirunelveli,Tamil Nadu,8.7139,77.7567,35.0,44,0.0,1005.5,9.35,41.4,73,25.3,17.7,0,5,4,1,2026-04-11T11:35:54.587253+05:30
Vellore,Tamil Nadu,12.9165,79.1325,34.5,40,0.0,987.7,9.45,34.9,84,36.6,26.6,0,5,7,1,2026-04-11T11:35:54.587260+05:30
Erode,Tamil Nadu,11.341,77.7172,35.1,46,0.0,991.9,8.75,32.0,62,32.6,20.8,0,5,10,1,2026-04-11T11:35:54.587266+05:30
Kochi,Kerala,9.9312,76.2673,28.4,82,0.0,1011.5,8.85,28.4,67,21.5,13.7,7,0,4,1,2026-04-11T11:35:54.587273+05:30
Thiruvananthapuram,Kerala,8.5241,76.9366,28.6,82,0.0,1010.4,7.75,33.8,63,19.8,13.0,7,0,4,1,2026-04-11T11:35:54.587280+05:30
Kozhikode,Kerala,11.2588,75.7804,30.1,75,0.0,1011.1,8.7,27.4,63,26.7,13.2,3,0,4,1,2026-04-11T11:35:54.587286+05:30
Thrissur,Kerala,10.5276,76.2144,32.8,61,0.0,1009.8,9.0,31.7,67,23.6,14.0,3,0,4,1,2026-04-11T11:35:54.587293+05:30
Kannur,Kerala,11.8745,75.3704,29.5,68,0.0,1010.8,8.65,29.2,63,25.3,11.6,7,0,4,1,2026-04-11T11:35:54.587299+05:30
Patna,Bihar,25.5941,85.1376,32.1,31,0.0,1003.9,8.45,31.3,87,436.8,72.6,0,5,4,0,2026-04-11T11:35:54.587305+05:30
Gaya,Bihar,24.7914,85.0002,32.5,27,0.0,997.6,8.55,35.3,79,359.5,55.5,0,5,7,0,2026-04-11T11:35:54.587310+05:30
Muzaffarpur,Bihar,26.1209,85.3647,31.1,34,0.0,1003.9,8.4,20.2,84,410.7,70.3,0,5,4,0,2026-04-11T11:35:54.587316+05:30
Bhagalpur,Bihar,25.2425,87.0117,30.3,40,0.0,1005.0,8.45,23.0,65,269.2,45.9,0,5,4,0,2026-04-11T11:35:54.587322+05:30
Ranchi,Jharkhand,23.3441,85.3096,29.6,23,0.0,942.4,9.05,35.6,76,215.6,34.2,4,5,7,0,2026-04-11T11:35:54.587328+05:30
Jamshedpur,Jharkhand,22.8046,86.2029,31.7,33,0.0,995.3,8.85,17.6,114,183.9,37.1,0,5,7,0,2026-04-11T11:35:54.587333+05:30
Dhanbad,Jharkhand,23.7957,86.4304,31.8,26,0.0,984.0,8.8,26.3,121,342.7,54.1,0,5,7,0,2026-04-11T11:35:54.587339+05:30
Bokaro,Jharkhand,23.6693,86.1511,31.4,26,0.0,988.1,8.8,29.5,119,329.7,54.4,0,5,7,0,2026-04-11T11:35:54.587346+05:30
Bhubaneswar,Odisha,20.2961,85.8245,33.8,57,0.0,1006.0,9.0,23.0,121,68.2,44.8,0,5,4,1,2026-04-11T11:35:54.587352+05:30
Cuttack,Odisha,20.4625,85.8828,34.5,49,0.0,1007.8,9.05,18.4,121,68.2,44.8,0,5,4,1,2026-04-11T11:35:54.587359+05:30
Rourkela,Odisha,22.2604,84.8536,32.8,28,0.0,989.8,8.75,18.7,88,177.0,30.6,0,5,7,0,2026-04-11T11:35:54.587364+05:30
Raipur,Chhattisgarh,21.2514,81.6296,35.1,21,0.0,979.6,8.85,21.6,109,54.6,18.9,0,5,10,0,2026-04-11T11:35:54.587370+05:30
Bhilai,Chhattisgarh,21.1938,81.3509,35.1,22,0.0,980.1,8.85,19.8,106,51.3,20.1,0,5,10,0,2026-04-11T11:35:54.587376+05:30
Guwahati,Assam,26.1158,91.7086,27.3,64,0.0,1005.3,8.35,20.2,109,32.7,23.7,7,5,4,1,2026-04-11T11:35:54.587382+05:30
Agartala,Tripura,23.8315,91.2868,31.0,51,0.0,1009.3,8.6,23.0,145,70.1,48.2,0,0,4,1,2026-04-11T11:35:54.587388+05:30
Shillong,Meghalaya,25.5788,91.8933,18.2,43,0.0,859.0,8.75,52.2,86,32.9,21.4,0,5,7,0,2026-04-11T11:35:54.587395+05:30
Imphal,Manipur,24.817,93.9368,21.2,49,0.0,925.7,8.95,51.1,96,28.6,18.2,0,5,7,0,2026-04-11T11:35:54.587401+05:30
Aizawl,Mizoram,23.7271,92.7176,25.2,35,0.0,897.1,8.8,42.1,89,38.8,18.9,4,5,7,0,2026-04-11T11:35:54.587407+05:30
Kohima,Nagaland,25.6701,94.1077,17.6,52,0.0,857.5,7.6,66.2,71,17.1,12.3,0,5,7,0,2026-04-11T11:35:54.587413+05:30
Gangtok,Sikkim,27.3314,88.6138,17.1,68,0.0,839.8,8.55,18.4,88,30.3,23.1,3,5,7,0,2026-04-11T11:35:54.587419+05:30
Siliguri,West Bengal,26.7271,88.3953,23.0,65,0.0,997.7,8.2,18.0,121,34.7,26.9,3,5,7,1,2026-04-11T11:35:57.849266+05:30
Durgapur,West Bengal,23.5204,87.3119,31.6,34,0.0,999.1,8.75,21.2,109,231.0,42.8,0,5,7,0,2026-04-11T11:35:57.849293+05:30
Asansol,West Bengal,23.6739,86.9524,31.6,33,0.0,997.6,8.75,22.7,91,305.5,48.8,0,5,7,0,2026-04-11T11:35:57.849302+05:30
Pondicherry,Puducherry,11.9139,79.8145,34.8,54,0.0,1011.0,9.35,36.7,56,20.4,14.8,0,0,4,1,2026-04-11T11:35:57.849310+05:30
Port Blair,Andaman and Nicobar Islands,11.6234,92.7265,29.1,70,0.0,1009.5,9.25,25.2,25,9.0,5.8,7,0,4,1,2026-04-11T11:35:57.849317+05:30
Haridwar,Uttarakhand,29.9457,78.1642,28.3,43,0.0,978.3,6.95,49.0,61,55.1,17.7,4,5,7,0,2026-04-11T11:35:57.849324+05:30
Rishikesh,Uttarakhand,30.0869,78.2676,28.7,41,0.0,970.7,7.0,48.6,50,60.1,16.0,4,5,7,0,2026-04-11T11:35:57.849331+05:30
Nainital,Uttarakhand,29.3919,79.4542,22.2,46,0.0,810.2,7.7,69.8,62,43.9,13.4,0,5,7,0,2026-04-11T11:35:57.849338+05:30
Mussoorie,Uttarakhand,30.4599,78.0664,20.4,42,0.0,806.8,7.45,65.2,53,52.3,14.6,0,5,7,0,2026-04-11T11:35:57.849344+05:30
Dharamshala,Himachal Pradesh,32.219,76.3234,19.6,68,0.0,872.0,7.5,30.2,111,46.2,10.2,3,5,7,0,2026-04-11T11:35:57.849350+05:30
Dalhousie,Himachal Pradesh,32.5387,75.971,17.1,66,0.0,806.2,7.0,20.9,50,72.6,17.6,3,5,7,0,2026-04-11T11:35:57.849357+05:30
Patiala,Punjab,30.3398,76.3869,30.0,31,0.0,982.9,6.95,34.6,731,375.3,44.8,4,5,7,0,2026-04-11T11:35:57.849364+05:30
Bhatinda,Punjab,30.211,74.9455,29.7,34,0.0,988.7,7.7,28.4,59,71.9,20.8,4,5,7,0,2026-04-11T11:35:57.849370+05:30
Rohtak,Haryana,28.8955,76.6066,27.6,42,0.0,987.4,7.1,26.6,1105,562.5,74.7,4,5,7,0,2026-04-11T11:35:57.849376+05:30
Panipat,Haryana,29.3909,76.9635,29.3,37,0.0,985.5,6.95,29.9,2031,998.4,109.0,4,5,7,0,2026-04-11T11:35:57.849382+05:30
Mathura,Uttar Pradesh,27.4924,77.6737,31.2,36,0.0,992.5,7.5,27.7,1345,804.7,99.9,0,5,7,0,2026-04-11T11:35:57.849388+05:30
Vrindavan,Uttar Pradesh,27.5823,77.7027,31.2,34,0.0,992.7,7.45,32.0,1345,804.7,99.9,0,5,7,0,2026-04-11T11:35:57.849395+05:30
Ayodhya,Uttar Pradesh,26.7922,82.1998,32.9,25,0.0,998.5,7.85,46.4,132,105.7,40.9,0,5,7,0,2026-04-11T11:35:57.849401+05:30
Ratlam,Madhya Pradesh,23.3315,75.0367,32.8,30,0.0,960.0,8.35,17.3,55,28.9,9.8,0,5,7,0,2026-04-11T11:35:57.849408+05:30
Sagar,Madhya Pradesh,23.8388,78.7378,34.1,20,0.0,955.9,8.5,28.1,55,53.8,13.2,0,5,7,0,2026-04-11T11:35:57.849414+05:30
Satna,Madhya Pradesh,24.6005,80.8322,32.9,25,0.0,976.8,8.5,33.5,64,170.4,28.7,0,5,7,0,2026-04-11T11:35:57.849420+05:30
Akola,Maharashtra,20.7002,77.0082,36.3,23,0.0,979.8,8.75,25.6,76,17.6,10.7,0,5,10,0,2026-04-11T11:35:57.849426+05:30
Amravati,Maharashtra,20.9374,77.7796,36.0,19,0.0,972.2,8.75,23.4,67,16.1,8.8,0,5,10,0,2026-04-11T11:35:57.849433+05:30
Latur,Maharashtra,18.4088,76.5604,34.3,29,0.0,944.4,9.0,21.2,75,25.7,16.1,0,5,7,0,2026-04-11T11:35:57.849440+05:30
Nanded,Maharashtra,19.1383,77.3091,36.1,34,0.0,972.8,8.9,17.3,86,25.4,13.9,0,5,10,1,2026-04-11T11:35:57.849446+05:30
Gulbarga,Karnataka,17.3297,76.8343,37.5,28,0.0,962.5,9.05,19.4,65,39.1,27.2,0,5,10,0,2026-04-11T11:35:57.849452+05:30
Bidar,Karnataka,17.9104,77.5199,35.4,30,0.0,939.6,9.05,23.0,71,24.3,15.7,0,5,10,0,2026-04-11T11:35:57.849457+05:30
Hospet,Karnataka,15.2689,76.3909,33.2,49,0.0,959.4,9.3,26.3,85,44.8,31.1,0,5,7,1,2026-04-11T11:35:57.849463+05:30
Tirupur,Tamil Nadu,11.1085,77.3411,34.2,46,0.0,978.4,9.1,26.6,74,38.0,24.2,0,5,7,1,2026-04-11T11:35:57.849469+05:30
Alappuzha,Kerala,9.4981,76.3388,28.5,81,0.0,1011.6,8.65,29.2,67,23.6,15.1,7,0,4,1,2026-04-11T11:35:57.849475+05:30
Munnar,Kerala,10.0889,77.0595,28.2,55,0.0,861.4,9.6,36.7,82,33.3,19.2,4,5,7,1,2026-04-11T11:35:57.849481+05:30
Silchar,Assam,24.8333,92.7789,28.9,57,0.0,1008.8,8.6,22.3,139,61.0,37.0,4,0,4,1,2026-04-11T11:35:57.849487+05:30
Dibrugarh,Assam,27.4728,94.912,23.9,72,0.0,999.6,8.4,24.5,89,26.7,19.6,3,5,7,1,2026-04-11T11:35:57.849493+05:30
