city,state,latitude,longitude,temp,humidity,rain,pressure,uv_index,wind_gusts,aqi,pm10,pm2_5,mosquito_risk,arthritis_risk,migraine_risk,frizz_risk,updated_at
Delhi,Delhi,28.6139,77.209,28.9,29,0.0,980.1,7.3,24.1,187,601.6,115.5,4,5,7,0,2026-04-16T00:52:40.689504+05:30
Mumbai,Maharashtra,19.076,72.8777,29.2,79,0.0,1006.7,8.0,18.4,82,34.2,23.6,7,5,4,1,2026-04-16T00:52:40.689546+05:30
Bangalore,Karnataka,12.9716,77.5946,26.4,50,0.0,910.9,9.6,27.7,75,32.8,27.5,4,5,7,0,2026-04-16T00:52:40.689562+05:30
Hyderabad,Telangana,17.385,78.4867,29.8,47,0.0,951.1,9.25,27.7,88,41.6,38.0,4,5,7,1,2026-04-16T00:52:40.689572+05:30
Chennai,Tamil Nadu,13.0827,80.2707,28.8,82,0.0,1005.5,9.35,33.5,33,12.4,9.0,7,5,4,1,2026-04-16T00:52:40.689581+05:30
Kolkata,West Bengal,22.5726,88.3639,27.7,89,0.0,1003.3,8.9,32.8,85,22.6,17.5,7,5,4,1,2026-04-16T00:52:40.689593+05:30
Pune,Maharashtra,18.5204,73.8567,25.2,42,0.0,946.5,8.6,38.9,118,32.4,25.6,4,5,7,0,2026-04-16T00:52:40.689601+05:30
Ahmedabad,Gujarat,23.0225,72.5714,29.2,49,0.0,999.3,7.7,16.6,90,74.3,34.1,4,5,7,1,2026-04-16T00:52:40.689609+05:30
Jaipur,Rajasthan,26.9124,75.7873,29.3,25,0.0,957.4,7.95,28.1,190,199.3,37.0,4,5,7,0,2026-04-16T00:52:40.689616+05:30
Lucknow,Uttar Pradesh,26.8467,80.9462,26.4,38,0.0,990.3,7.85,21.6,105,183.0,35.4,4,5,7,0,2026-04-16T00:52:40.689624+05:30
Kanpur,Uttar Pradesh,26.4499,80.3319,26.3,45,0.0,988.8,7.85,19.1,156,311.1,48.2,4,5,7,0,2026-04-16T00:52:40.689631+05:30
Chandigarh,Chandigarh,30.7333,76.7794,22.0,50,0.0,966.1,7.2,18.0,82,22.5,20.1,0,5,7,0,2026-04-16T00:52:40.689639+05:30
Srinagar,Jammu and Kashmir,34.0837,74.7973,9.9,63,0.0,837.5,7.3,17.6,76,42.6,36.3,3,5,7,0,2026-04-16T00:52:40.689645+05:30
Jammu,Jammu and Kashmir,32.7266,74.857,20.2,61,0.0,970.2,7.3,22.0,65,30.0,28.5,3,5,7,0,2026-04-16T00:52:40.689652+05:30
Amritsar,Punjab,31.634,74.8723,24.0,56,0.0,978.3,7.45,25.9,87,59.0,52.3,0,5,7,0,2026-04-16T00:52:40.689661+05:30
Ludhiana,Punjab,30.901,75.8573,25.3,46,0.0,976.4,7.4,15.1,72,46.7,43.4,4,5,7,0,2026-04-16T00:52:40.689669+05:30
Jalandhar,Punjab,31.326,75.5762,23.7,49,0.0,977.5,7.3,20.9,78,33.3,29.7,0,5,7,0,2026-04-16T00:52:40.689676+05:30
Dehradun,Uttarakhand,30.6284,78.0322,14.9,63,0.0,828.6,7.35,34.9,109,17.3,14.3,3,5,7,0,2026-04-16T00:52:40.689683+05:30
Shimla,Himachal Pradesh,31.1048,77.1734,13.1,54,0.0,782.7,7.4,42.8,106,22.4,16.7,0,5,7,0,2026-04-16T00:52:40.689690+05:30
Manali,Himachal Pradesh,32.2396,77.1887,15.9,57,0.0,819.4,8.65,34.6,105,23.5,13.4,0,5,7,0,2026-04-16T00:52:40.689696+05:30
Gurgaon,Haryana,28.4595,77.0266,26.2,42,0.0,978.5,7.4,16.6,624,527.1,95.2,4,5,7,0,2026-04-16T00:52:40.689703+05:30
Noida,Uttar Pradesh,28.5355,77.391,28.1,32,0.0,981.6,7.35,25.9,624,527.1,95.2,4,5,7,0,2026-04-16T00:52:40.689709+05:30
Ghaziabad,Uttar Pradesh,28.6692,77.4538,26.5,37,0.0,979.7,7.35,19.4,143,543.9,107.3,4,5,7,0,2026-04-16T00:52:40.689716+05:30
Faridabad,Haryana,28.4089,77.3178,27.4,32,0.0,980.9,7.4,24.8,624,527.1,95.2,4,5,7,0,2026-04-16T00:52:40.689722+05:30
Meerut,Uttar Pradesh,28.9845,77.7064,25.5,38,0.0,978.5,7.25,21.6,143,543.9,107.3,4,5,7,0,2026-04-16T00:52:40.689729+05:30
Agra,Uttar Pradesh,27.1767,78.0081,27.8,30,0.0,984.7,7.75,16.2,344,687.3,106.6,4,5,7,0,2026-04-16T00:52:40.689738+05:30
Varanasi,Uttar Pradesh,25.3176,82.9739,27.0,44,0.0,993.7,8.45,22.0,83,93.1,41.4,4,5,7,0,2026-04-16T00:52:40.689745+05:30
Prayagraj,Uttar Pradesh,25.4358,81.8463,27.8,46,0.0,992.4,8.3,22.0,87,69.8,25.7,4,5,7,0,2026-04-16T00:52:40.689754+05:30
Gorakhpur,Uttar Pradesh,26.7606,83.3732,24.3,69,0.0,994.4,8.25,28.4,89,53.4,28.9,3,5,7,1,2026-04-16T00:52:40.689761+05:30
Bareilly,Uttar Pradesh,28.367,79.4304,23.7,51,0.0,983.7,7.6,19.1,61,56.1,31.7,0,5,7,0,2026-04-16T00:52:40.689767+05:30
Aligarh,Uttar Pradesh,27.8974,78.088,25.9,32,0.0,982.5,7.5,24.8,357,566.2,100.1,4,5,7,0,2026-04-16T00:52:40.689774+05:30
Moradabad,Uttar Pradesh,28.8386,78.7733,24.5,46,0.0,980.5,7.45,19.8,78,116.9,60.1,0,5,7,0,2026-04-16T00:52:40.689780+05:30
Saharanpur,Uttar Pradesh,29.9637,77.546,20.5,59,0.0,972.8,6.9,21.6,76,37.6,36.8,0,5,7,0,2026-04-16T00:52:40.689786+05:30
Jhansi,Uttar Pradesh,25.4484,78.5685,28.8,45,0.0,975.3,8.2,29.2,82,163.9,31.2,4,5,7,0,2026-04-16T00:52:43.915398+05:30
Surat,Gujarat,21.1702,72.8311,27.5,78,0.0,1004.5,7.85,24.8,102,27.4,22.6,7,5,4,1,2026-04-16T00:52:43.915429+05:30
Vadodara,Gujarat,22.3072,73.1812,27.5,66,0.0,1001.7,8.0,23.0,91,36.2,23.7,7,5,4,1,2026-04-16T00:52:43.915459+05:30
Rajkot,Gujarat,22.3039,70.8022,25.1,78,0.0,992.5,7.2,26.3,75,32.4,15.3,7,5,7,1,2026-04-16T00:52:43.915468+05:30
Thane,Maharashtra,19.2183,72.9781,27.5,83,0.0,1006.2,8.05,30.2,82,34.2,23.6,7,5,4,1,2026-04-16T00:52:43.915475+05:30
Nagpur,Maharashtra,21.1458,79.0882,26.5,42,0.0,969.5,8.85,21.2,70,30.5,27.1,4,5,7,0,2026-04-16T00:52:43.915483+05:30
Nashik,Maharashtra,19.9975,73.7898,24.2,56,0.0,943.9,8.3,30.2,59,35.7,22.4,0,5,7,0,2026-04-16T00:52:43.915491+05:30
Aurangabad,Maharashtra,19.8762,75.3433,28.3,45,0.0,942.3,8.95,25.9,54,21.4,11.0,4,5,7,0,2026-04-16T00:52:43.915498+05:30
Solapur,Maharashtra,17.6599,75.9064,29.6,37,0.0,954.6,9.05,23.8,75,33.4,30.7,4,5,7,0,2026-04-16T00:52:43.915505+05:30
Kolhapur,Maharashtra,16.705,74.2433,23.0,89,0.0,946.2,9.0,38.9,87,32.1,21.9,3,5,7,1,2026-04-16T00:52:43.915513+05:30
Goa,Goa,15.2993,74.124,28.5,81,0.0,996.5,9.0,29.5,82,58.6,29.7,7,5,7,1,2026-04-16T00:52:43.915521+05:30
Jodhpur,Rajasthan,26.2389,73.0243,30.8,34,0.0,979.9,7.95,27.4,72,79.2,33.3,0,5,7,0,2026-04-16T00:52:43.915528+05:30
Udaipur,Rajasthan,24.5854,73.7125,26.7,36,0.0,944.7,8.7,32.0,72,105.5,26.5,4,5,7,0,2026-04-16T00:52:43.915535+05:30
Kota,Rajasthan,25.2138,75.8648,29.6,43,0.0,975.5,8.2,12.2,60,76.8,32.8,4,5,7,0,2026-04-16T00:52:43.915542+05:30
Bikaner,Rajasthan,28.0229,73.3119,28.9,38,0.0,978.9,7.75,20.9,63,52.9,19.8,4,5,7,0,2026-04-16T00:52:43.915548+05:30
Ajmer,Rajasthan,26.4499,74.6399,27.5,31,0.0,952.4,8.15,21.2,76,83.6,21.2,4,5,7,0,2026-04-16T00:52:43.915555+05:30
Gwalior,Madhya Pradesh,26.2183,78.1828,28.1,50,0.0,980.6,7.95,29.9,106,363.2,56.6,4,5,7,1,2026-04-16T00:52:43.915561+05:30
Indore,Madhya Pradesh,22.7196,75.8577,26.1,56,0.0,945.9,8.6,23.8,68,42.8,26.4,4,5,7,1,2026-04-16T00:52:43.915568+05:30
Bhopal,Madhya Pradesh,23.2599,77.4126,29.0,43,0.0,951.4,8.55,20.9,58,53.8,26.5,4,5,7,0,2026-04-16T00:52:43.915574+05:30
Jabalpur,Madhya Pradesh,23.1815,79.9864,26.7,46,0.0,957.8,8.7,21.2,55,20.7,13.0,4,5,7,0,2026-04-16T00:52:43.915582+05:30
Ujjain,Madhya Pradesh,23.1765,75.7885,26.7,53,0.0,951.5,8.5,22.3,79,52.5,31.2,4,5,7,1,2026-04-16T00:52:43.915589+05:30
Visakhapatnam,Andhra Pradesh,17.6868,83.2185,27.4,88,0.0,1001.5,9.15,44.6,56,15.5,11.8,7,5,4,1,2026-04-16T00:52:43.915596+05:30
Vijayawada,Andhra Pradesh,16.5062,80.648,27.3,89,0.0,1000.5,9.2,32.4,46,9.1,7.0,7,5,4,1,2026-04-16T00:52:43.915602+05:30
Guntur,Andhra Pradesh,16.3067,80.4365,27.7,87,0.0,1001.7,9.2,31.7,52,9.4,7.3,7,5,4,1,2026-04-16T00:52:43.915608+05:30
Nellore,Andhra Pradesh,14.4426,79.9865,27.9,87,0.0,1003.2,9.3,36.0,48,10.1,8.4,7,5,4,1,2026-04-16T00:52:43.915615+05:30
Kurnool,Andhra Pradesh,15.8281,78.0373,33.4,30,0.0,973.9,9.2,33.8,79,40.4,35.4,0,5,7,0,2026-04-16T00:52:43.915622+05:30
Kakinada,Andhra Pradesh,16.9891,82.2475,27.3,89,0.0,1005.5,9.2,33.1,42,12.2,8.0,7,5,4,1,2026-04-16T00:52:43.915629+05:30
Tirupati,Andhra Pradesh,13.6288,79.4192,27.2,78,0.0,990.4,9.4,34.2,66,20.3,19.6,7,5,7,1,2026-04-16T00:52:43.915637+05:30
Warangal,Telangana,17.9689,79.5941,29.7,60,0.0,976.0,9.1,27.7,74,26.0,24.6,4,5,7,1,2026-04-16T00:52:43.915643+05:30
Nizamabad,Telangana,18.6725,78.0941,29.3,37,0.0,961.7,9.05,28.4,80,40.7,35.9,4,5,7,0,2026-04-16T00:52:43.915649+05:30
Mysore,Karnataka,12.2958,76.6396,24.7,84,0.0,927.5,9.55,44.3,75,29.3,26.8,3,5,7,1,2026-04-16T00:52:43.915655+05:30
Mangalore,Karnataka,12.9141,74.856,29.7,84,0.0,1005.2,8.95,22.3,69,41.7,26.8,7,5,4,1,2026-04-16T00:52:43.915661+05:30
Hubli-Dharwad,Karnataka,15.3647,75.124,24.3,91,0.0,939.2,6.75,33.8,70,30.9,17.1,3,5,7,1,2026-04-16T00:52:43.915668+05:30
Belgaum,Karnataka,15.8497,74.4977,22.3,97,0.0,924.0,9.25,37.4,72,40.7,22.2,3,5,7,1,2026-04-16T00:52:47.133966+05:30
Coimbatore,Tamil Nadu,11.0168,76.9558,26.1,85,0.0,960.8,9.0,49.0,79,33.4,29.2,7,5,7,1,2026-04-16T00:52:47.133996+05:30
Madurai,Tamil Nadu,9.9252,78.1198,28.0,83,0.0,991.7,9.3,39.2,60,18.9,17.1,7,5,7,1,2026-04-16T00:52:47.134006+05:30
Trichy,Tamil Nadu,10.7905,78.7047,27.7,85,0.0,998.4,9.35,26.6,53,17.1,16.1,7,5,7,1,2026-04-16T00:52:47.134014+05:30
Salem,Tamil Nadu,11.6643,78.146,26.6,71,0.0,975.7,9.45,21.2,67,30.6,27.0,7,5,7,1,2026-04-16T00:52:47.134022+05:30
Tirunelveli,Tamil Nadu,8.7139,77.7567,28.8,73,0.0,1001.7,9.15,48.6,64,23.5,19.1,7,5,4,1,2026-04-16T00:52:47.134029+05:30
Vellore,Tamil Nadu,12.9165,79.1325,26.3,87,0.0,983.2,9.4,31.3,88,37.1,36.1,7,5,7,1,2026-04-16T00:52:47.134036+05:30
Erode,Tamil Nadu,11.341,77.7172,29.4,62,0.0,987.5,9.4,30.6,63,20.0,18.1,7,5,7,1,2026-04-16T00:52:47.134043+05:30
Kochi,Kerala,9.9312,76.2673,29.3,80,0.0,1007.4,8.7,33.5,92,53.1,48.2,7,5,4,1,2026-04-16T00:52:47.134050+05:30
Thiruvananthapuram,Kerala,8.5241,76.9366,28.9,82,0.0,1006.8,9.15,31.3,68,25.5,17.3,7,5,4,1,2026-04-16T00:52:47.134057+05:30
Kozhikode,Kerala,11.2588,75.7804,29.5,81,0.0,1006.5,9.15,30.6,69,34.9,22.1,7,5,4,1,2026-04-16T00:52:47.134063+05:30
Thrissur,Kerala,10.5276,76.2144,29.0,83,0.0,1005.7,8.95,37.4,92,54.2,45.8,7,5,4,1,2026-04-16T00:52:47.134071+05:30
Kannur,Kerala,11.8745,75.3704,29.5,82,0.0,1005.9,9.15,32.8,68,32.0,23.6,7,5,4,1,2026-04-16T00:52:47.134078+05:30
Patna,Bihar,25.5941,85.1376,26.8,71,0.0,998.0,8.55,35.3,113,65.4,38.1,7,5,7,1,2026-04-16T00:52:47.134085+05:30
Gaya,Bihar,24.7914,85.0002,26.0,59,0.0,990.3,8.65,27.0,72,57.7,26.5,4,5,7,1,2026-04-16T00:52:47.134091+05:30
Muzaffarpur,Bihar,26.1209,85.3647,25.1,79,0.0,998.3,8.55,34.9,140,60.3,43.7,7,5,7,1,2026-04-16T00:52:47.134098+05:30
Bhagalpur,Bihar,25.2425,87.0117,25.1,89,0.0,999.4,8.55,32.4,135,45.9,40.3,7,5,7,1,2026-04-16T00:52:47.134103+05:30
Ranchi,Jharkhand,23.3441,85.3096,26.2,44,0.0,935.5,9.15,43.6,118,64.7,42.3,4,5,7,0,2026-04-16T00:52:47.134110+05:30
Jamshedpur,Jharkhand,22.8046,86.2029,27.5,81,0.0,987.7,9.0,37.1,121,73.3,49.0,7,5,7,1,2026-04-16T00:52:47.134117+05:30
Dhanbad,Jharkhand,23.7957,86.4304,28.3,80,0.0,976.8,8.95,29.9,151,114.8,91.0,7,5,7,1,2026-04-16T00:52:47.134123+05:30
Bokaro,Jharkhand,23.6693,86.1511,27.0,65,0.0,980.8,8.95,32.8,128,101.7,74.0,7,5,7,1,2026-04-16T00:52:47.134129+05:30
Bhubaneswar,Odisha,20.2961,85.8245,27.1,89,0.0,1000.0,9.1,41.0,66,16.0,11.8,7,5,4,1,2026-04-16T00:52:47.134136+05:30
Cuttack,Odisha,20.4625,85.8828,27.2,88,0.0,1001.8,9.15,37.1,66,16.0,11.8,7,5,4,1,2026-04-16T00:52:47.134142+05:30
Rourkela,Odisha,22.2604,84.8536,29.2,79,0.0,981.3,8.9,46.1,128,57.7,47.8,7,5,7,1,2026-04-16T00:52:47.134148+05:30
Raipur,Chhattisgarh,21.2514,81.6296,30.0,42,0.0,970.5,8.95,31.3,111,34.1,31.3,4,5,7,0,2026-04-16T00:52:47.134155+05:30
Bhilai,Chhattisgarh,21.1938,81.3509,28.4,48,0.0,970.7,8.95,30.6,109,26.3,23.5,4,5,7,1,2026-04-16T00:52:47.134161+05:30
Guwahati,Assam,26.1158,91.7086,23.6,88,0.0,1001.5,8.45,24.1,121,57.3,47.7,3,5,4,1,2026-04-16T00:52:47.134167+05:30
Agartala,Tripura,23.8315,91.2868,23.5,92,0.0,1005.4,8.7,29.2,100,48.2,42.7,3,5,4,1,2026-04-16T00:52:47.134173+05:30
Shillong,Meghalaya,25.5788,91.8933,13.4,94,0.0,854.3,8.1,51.8,87,42.4,30.0,3,10,7,0,2026-04-16T00:52:47.134180+05:30
Imphal,Manipur,24.817,93.9368,17.5,87,0.0,922.9,9.05,71.3,117,50.8,37.5,3,10,7,0,2026-04-16T00:52:47.134188+05:30
Aizawl,Mizoram,23.7271,92.7176,18.5,90,0.0,891.7,8.95,40.7,116,56.8,41.7,3,10,7,1,2026-04-16T00:52:47.134194+05:30
Kohima,Nagaland,25.6701,94.1077,14.9,83,0.0,853.9,8.6,56.5,101,47.3,28.7,3,10,7,0,2026-04-16T00:52:47.134201+05:30
Gangtok,Sikkim,27.3314,88.6138,14.3,96,0.1,836.4,8.8,16.9,124,36.4,29.4,6,10,7,0,2026-04-16T00:52:47.134208+05:30
Siliguri,West Bengal,26.7271,88.3953,21.3,71,0.0,993.5,8.45,22.3,158,106.6,72.9,3,5,7,0,2026-04-16T00:52:50.369785+05:30
Durgapur,West Bengal,23.5204,87.3119,27.6,88,0.0,992.1,8.85,30.2,134,62.6,53.8,7,5,7,1,2026-04-16T00:52:50.369815+05:30
Asansol,West Bengal,23.6739,86.9524,28.3,85,0.0,990.6,8.9,32.0,122,71.7,57.3,7,5,7,1,2026-04-16T00:52:50.369825+05:30
Pondicherry,Puducherry,11.9139,79.8145,27.3,96,0.0,1006.9,9.25,31.3,39,12.4,9.1,7,5,4,1,2026-04-16T00:52:50.369833+05:30
Port Blair,Andaman and Nicobar Islands,11.6234,92.7265,29.3,69,0.0,1005.6,9.2,15.8,66,20.0,14.1,7,5,4,1,2026-04-16T00:52:50.369841+05:30
Haridwar,Uttarakhand,29.9457,78.1642,21.0,63,0.0,971.7,7.15,29.9,85,27.2,26.3,3,5,7,0,2026-04-16T00:52:50.369848+05:30
Rishikesh,Uttarakhand,30.0869,78.2676,20.7,67,0.0,964.9,7.1,33.5,126,20.5,18.5,3,5,7,0,2026-04-16T00:52:50.369856+05:30
Nainital,Uttarakhand,29.3919,79.4542,20.5,35,0.0,805.3,8.1,58.3,105,14.0,13.2,0,5,7,0,2026-04-16T00:52:50.369863+05:30
Mussoorie,Uttarakhand,30.4599,78.0664,17.4,59,0.0,801.7,7.4,40.3,108,27.2,26.6,0,5,7,0,2026-04-16T00:52:50.369871+05:30
Dharamshala,Himachal Pradesh,32.219,76.3234,21.4,44,0.0,868.3,7.35,22.0,99,18.9,12.2,0,5,7,0,2026-04-16T00:52:50.369877+05:30
Dalhousie,Himachal Pradesh,32.5387,75.971,17.9,43,0.0,802.9,7.55,21.2,81,30.9,27.6,0,5,7,0,2026-04-16T00:52:50.369885+05:30
Patiala,Punjab,30.3398,76.3869,22.3,54,0.0,975.7,7.05,17.6,160,66.6,51.9,0,5,7,0,2026-04-16T00:52:50.369892+05:30
Bhatinda,Punjab,30.211,74.9455,25.2,49,0.0,981.1,7.8,20.9,63,32.1,23.2,4,5,7,0,2026-04-16T00:52:50.369899+05:30
Rohtak,Haryana,28.8955,76.6066,26.0,40,0.0,979.0,7.35,21.6,351,579.3,104.1,4,5,7,0,2026-04-16T00:52:50.369906+05:30
Panipat,Haryana,29.3909,76.9635,25.6,39,0.0,977.6,7.2,19.4,734,691.0,124.3,4,5,7,0,2026-04-16T00:52:50.369912+05:30
Mathura,Uttar Pradesh,27.4924,77.6737,26.0,32,0.0,983.7,7.65,20.5,423,458.2,76.6,4,5,7,0,2026-04-16T00:52:50.369919+05:30
Vrindavan,Uttar Pradesh,27.5823,77.7027,26.4,31,0.0,984.1,7.6,22.7,423,458.2,76.6,4,5,7,0,2026-04-16T00:52:50.369925+05:30
Ayodhya,Uttar Pradesh,26.7922,82.1998,25.3,32,0.0,992.2,8.0,27.7,87,120.6,26.3,4,5,7,0,2026-04-16T00:52:50.369931+05:30
Ratlam,Madhya Pradesh,23.3315,75.0367,27.4,51,0.0,952.0,8.4,25.9,68,51.0,25.4,4,5,7,1,2026-04-16T00:52:50.369938+05:30
Sagar,Madhya Pradesh,23.8388,78.7378,27.9,38,0.0,947.4,8.6,18.4,54,26.1,15.9,4,5,7,0,2026-04-16T00:52:50.369945+05:30
Satna,Madhya Pradesh,24.6005,80.8322,28.6,37,0.0,968.5,8.6,29.2,55,75.9,20.8,4,5,7,0,2026-04-16T00:52:50.369951+05:30
Akola,Maharashtra,20.7002,77.0082,27.6,42,0.0,972.5,8.8,24.1,73,31.7,17.4,4,5,7,0,2026-04-16T00:52:50.369958+05:30
Amravati,Maharashtra,20.9374,77.7796,28.6,33,0.0,964.3,8.8,21.6,65,28.5,16.9,4,5,7,0,2026-04-16T00:52:50.369965+05:30
Latur,Maharashtra,18.4088,76.5604,25.9,56,0.0,937.1,9.05,23.8,79,28.7,24.7,4,5,7,1,2026-04-16T00:52:50.369972+05:30
Nanded,Maharashtra,19.1383,77.3091,27.3,53,0.0,965.3,8.95,16.6,63,36.9,32.4,4,5,7,1,2026-04-16T00:52:50.369978+05:30
Gulbarga,Karnataka,17.3297,76.8343,32.0,42,0.0,955.8,9.1,27.7,113,33.6,30.4,0,5,7,1,2026-04-16T00:52:50.369985+05:30
Bidar,Karnataka,17.9104,77.5199,30.7,40,0.0,933.1,9.1,31.7,102,36.3,30.7,0,5,7,0,2026-04-16T00:52:50.369992+05:30
Hospet,Karnataka,15.2689,76.3909,28.0,79,0.0,954.2,9.25,28.1,85,25.8,22.1,7,5,7,1,2026-04-16T00:52:50.369998+05:30
Tirupur,Tamil Nadu,11.1085,77.3411,27.8,78,0.0,973.9,9.35,35.6,77,31.8,28.4,7,5,7,1,2026-04-16T00:52:50.370004+05:30
Alappuzha,Kerala,9.4981,76.3388,29.2,80,0.0,1007.6,8.4,29.2,90,42.4,31.8,7,5,4,1,2026-04-16T00:52:50.370011+05:30
Munnar,Kerala,10.0889,77.0595,21.7,95,0.0,856.2,9.0,35.3,73,39.0,35.5,3,5,7,1,2026-04-16T00:52:50.370018+05:30
Silchar,Assam,24.8333,92.7789,23.1,91,0.0,1005.6,8.7,28.1,118,41.9,28.4,3,5,4,1,2026-04-16T00:52:50.370025+05:30
Dibrugarh,Assam,27.4728,94.912,20.3,92,0.0,996.7,8.55,9.7,131,60.5,44.2,3,5,7,1,2026-04-16T00:52:50.370032+05:30
