city,state,latitude,longitude,temp,humidity,rain,pressure,uv_index,wind_gusts,aqi,pm10,pm2_5,mosquito_risk,arthritis_risk,migraine_risk,frizz_risk,updated_at
Delhi,Delhi,28.6139,77.209,23.7,58,0.0,985.7,7.2,34.2,358,373.5,89.4,0,5,7,0,2026-04-12T08:22:29.386896+05:30
Mumbai,Maharashtra,19.076,72.8777,27.6,85,0.0,1009.1,8.0,22.7,114,74.7,56.5,7,0,4,1,2026-04-12T08:22:29.386930+05:30
Bangalore,Karnataka,12.9716,77.5946,26.0,68,0.0,913.7,9.65,31.0,83,48.3,41.9,7,5,7,1,2026-04-12T08:22:29.386946+05:30
Hyderabad,Telangana,17.385,78.4867,30.3,52,0.0,955.2,9.25,28.8,96,34.8,28.7,0,5,7,1,2026-04-12T08:22:29.386955+05:30
Chennai,Tamil Nadu,13.0827,80.2707,30.1,70,0.0,1009.0,9.4,34.9,53,19.2,12.7,3,0,4,1,2026-04-12T08:22:29.386962+05:30
Kolkata,West Bengal,22.5726,88.3639,28.6,84,0.0,1007.6,8.75,21.6,131,47.8,40.6,7,5,4,1,2026-04-12T08:22:29.386974+05:30
Pune,Maharashtra,18.5204,73.8567,27.9,49,0.0,949.8,8.55,37.1,108,73.3,63.8,4,5,7,1,2026-04-12T08:22:29.386983+05:30
Ahmedabad,Gujarat,23.0225,72.5714,27.7,49,0.0,1003.6,8.1,23.8,100,56.7,29.5,4,5,4,0,2026-04-12T08:22:29.386990+05:30
Jaipur,Rajasthan,26.9124,75.7873,26.1,43,0.0,962.4,7.85,26.3,128,514.1,90.6,4,5,7,0,2026-04-12T08:22:29.386996+05:30
Lucknow,Uttar Pradesh,26.8467,80.9462,25.6,53,0.0,994.8,7.7,29.5,178,156.9,50.4,4,5,7,0,2026-04-12T08:22:29.387003+05:30
Kanpur,Uttar Pradesh,26.4499,80.3319,25.6,61,0.0,993.3,7.75,24.8,534,296.2,71.0,7,5,7,1,2026-04-12T08:22:29.387009+05:30
Chandigarh,Chandigarh,30.7333,76.7794,21.4,64,0.0,970.9,7.1,30.2,70,32.8,26.5,3,5,7,0,2026-04-12T08:22:29.387016+05:30
Srinagar,Jammu and Kashmir,34.0837,74.7973,9.3,92,0.0,842.1,8.05,23.4,77,46.2,38.3,3,10,7,0,2026-04-12T08:22:29.387023+05:30
Jammu,Jammu and Kashmir,32.7266,74.857,21.0,63,0.0,975.7,7.8,25.6,75,23.9,20.1,3,5,7,0,2026-04-12T08:22:29.387029+05:30
Amritsar,Punjab,31.634,74.8723,20.0,77,0.0,984.4,7.75,24.8,85,52.2,33.1,3,5,7,0,2026-04-12T08:22:29.387035+05:30
Ludhiana,Punjab,30.901,75.8573,21.0,69,0.0,981.9,7.35,30.2,73,40.6,30.6,3,5,7,0,2026-04-12T08:22:29.387041+05:30
Jalandhar,Punjab,31.326,75.5762,20.5,73,0.0,983.1,7.55,27.0,74,59.8,33.9,3,5,7,0,2026-04-12T08:22:29.387048+05:30
Dehradun,Uttarakhand,30.6284,78.0322,13.7,51,0.0,830.0,7.45,36.4,40,5.1,2.9,0,5,7,0,2026-04-12T08:22:29.387054+05:30
Shimla,Himachal Pradesh,31.1048,77.1734,12.5,66,0.0,784.4,7.65,41.0,58,16.4,10.8,3,5,7,0,2026-04-12T08:22:29.387060+05:30
Manali,Himachal Pradesh,32.2396,77.1887,13.8,51,0.0,818.4,9.9,26.3,82,7.9,3.9,0,5,7,0,2026-04-12T08:22:29.387066+05:30
Gurgaon,Haryana,28.4595,77.0266,22.3,68,0.0,984.2,7.3,32.4,808,1043.1,158.8,3,5,7,1,2026-04-12T08:22:29.387072+05:30
Noida,Uttar Pradesh,28.5355,77.391,24.1,59,0.0,987.1,7.25,33.5,808,1043.1,158.8,0,5,7,0,2026-04-12T08:22:29.387077+05:30
Ghaziabad,Uttar Pradesh,28.6692,77.4538,23.3,62,0.0,985.2,7.2,33.1,196,258.0,67.3,3,5,7,0,2026-04-12T08:22:29.387083+05:30
Faridabad,Haryana,28.4089,77.3178,24.1,59,0.0,986.4,7.3,32.0,808,1043.1,158.8,0,5,7,0,2026-04-12T08:22:29.387088+05:30
Meerut,Uttar Pradesh,28.9845,77.7064,23.1,62,0.0,983.9,7.1,34.9,196,258.0,67.3,3,5,7,0,2026-04-12T08:22:29.387094+05:30
Agra,Uttar Pradesh,27.1767,78.0081,25.1,61,0.0,990.1,7.6,32.4,526,355.8,84.5,7,5,7,1,2026-04-12T08:22:29.387100+05:30
Varanasi,Uttar Pradesh,25.3176,82.9739,27.9,48,0.0,999.3,8.35,28.8,128,273.8,65.9,4,5,7,0,2026-04-12T08:22:29.387108+05:30
Prayagraj,Uttar Pradesh,25.4358,81.8463,27.5,47,0.0,997.7,8.2,23.8,154,307.3,74.7,4,5,7,0,2026-04-12T08:22:29.387116+05:30
Gorakhpur,Uttar Pradesh,26.7606,83.3732,24.4,55,0.0,998.0,8.15,37.1,119,104.3,42.1,0,5,7,0,2026-04-12T08:22:29.387121+05:30
Bareilly,Uttar Pradesh,28.367,79.4304,25.0,54,0.0,988.3,7.45,38.9,80,59.5,28.8,4,5,7,0,2026-04-12T08:22:29.387127+05:30
Aligarh,Uttar Pradesh,27.8974,78.088,24.4,60,0.0,987.9,7.4,33.5,512,293.4,70.8,0,5,7,1,2026-04-12T08:22:29.387133+05:30
Moradabad,Uttar Pradesh,28.8386,78.7733,23.4,59,0.0,985.6,7.3,41.0,91,71.9,34.0,0,5,7,0,2026-04-12T08:22:29.387138+05:30
Saharanpur,Uttar Pradesh,29.9637,77.546,21.0,59,0.0,977.8,6.9,33.1,93,63.6,49.0,0,5,7,0,2026-04-12T08:22:29.387144+05:30
Jhansi,Uttar Pradesh,25.4484,78.5685,26.9,46,0.0,979.5,8.15,36.0,53,60.5,20.9,4,5,7,0,2026-04-12T08:22:32.639174+05:30
Surat,Gujarat,21.1702,72.8311,27.5,76,0.0,1007.9,7.8,23.8,151,61.5,43.7,7,5,4,1,2026-04-12T08:22:32.639194+05:30
Vadodara,Gujarat,22.3072,73.1812,27.3,56,0.0,1005.7,8.05,15.5,103,61.0,51.6,4,5,4,1,2026-04-12T08:22:32.639203+05:30
Rajkot,Gujarat,22.3039,70.8022,25.8,73,0.0,996.2,7.8,28.1,70,73.3,28.1,7,5,7,1,2026-04-12T08:22:32.639211+05:30
Thane,Maharashtra,19.2183,72.9781,27.2,77,0.0,1008.6,8.0,37.1,114,74.7,56.5,7,0,4,1,2026-04-12T08:22:32.639217+05:30
Nagpur,Maharashtra,21.1458,79.0882,27.0,60,0.0,975.3,8.8,14.8,61,37.5,29.5,4,5,7,1,2026-04-12T08:22:32.639223+05:30
Nashik,Maharashtra,19.9975,73.7898,26.7,51,0.0,947.2,8.25,27.0,111,84.3,64.7,4,5,7,0,2026-04-12T08:22:32.639229+05:30
Aurangabad,Maharashtra,19.8762,75.3433,29.0,40,0.0,945.9,8.95,30.6,63,49.7,36.8,4,5,7,0,2026-04-12T08:22:32.639235+05:30
Solapur,Maharashtra,17.6599,75.9064,30.4,36,0.0,958.7,9.05,28.8,81,35.2,30.9,0,5,7,0,2026-04-12T08:22:32.639241+05:30
Kolhapur,Maharashtra,16.705,74.2433,27.0,60,0.0,948.9,9.05,46.1,94,61.7,55.6,4,5,7,1,2026-04-12T08:22:32.639247+05:30
Goa,Goa,15.2993,74.124,28.3,76,0.0,998.6,9.05,31.3,106,67.3,46.4,7,5,7,1,2026-04-12T08:22:32.639252+05:30
Jodhpur,Rajasthan,26.2389,73.0243,25.1,54,0.0,986.0,8.1,16.6,89,104.5,28.3,4,5,7,0,2026-04-12T08:22:32.639258+05:30
Udaipur,Rajasthan,24.5854,73.7125,26.0,43,0.0,948.8,8.65,25.9,40,41.8,15.7,4,5,7,0,2026-04-12T08:22:32.639264+05:30
Kota,Rajasthan,25.2138,75.8648,25.7,56,0.0,980.5,8.15,24.1,61,16.8,13.4,4,5,7,1,2026-04-12T08:22:32.639270+05:30
Bikaner,Rajasthan,28.0229,73.3119,24.6,44,0.0,984.7,7.95,22.3,65,77.1,26.9,0,5,7,0,2026-04-12T08:22:32.639276+05:30
Ajmer,Rajasthan,26.4499,74.6399,25.5,48,0.0,957.0,8.1,28.1,57,173.7,43.3,4,5,7,0,2026-04-12T08:22:32.639281+05:30
Gwalior,Madhya Pradesh,26.2183,78.1828,26.3,54,0.0,984.8,7.85,31.7,75,323.2,55.8,4,5,7,1,2026-04-12T08:22:32.639287+05:30
Indore,Madhya Pradesh,22.7196,75.8577,26.8,41,0.0,949.7,8.55,28.1,81,25.8,21.2,4,5,7,0,2026-04-12T08:22:32.639292+05:30
Bhopal,Madhya Pradesh,23.2599,77.4126,27.6,39,0.0,955.6,8.5,32.8,66,39.6,32.0,4,5,7,0,2026-04-12T08:22:32.639298+05:30
Jabalpur,Madhya Pradesh,23.1815,79.9864,27.5,46,0.0,963.1,8.65,33.5,81,45.8,35.3,4,5,7,0,2026-04-12T08:22:32.639303+05:30
Ujjain,Madhya Pradesh,23.1765,75.7885,27.2,42,0.0,955.3,8.45,26.3,72,25.8,21.5,4,5,7,0,2026-04-12T08:22:32.639309+05:30
Visakhapatnam,Andhra Pradesh,17.6868,83.2185,29.8,76,0.0,1005.9,9.2,37.4,82,43.9,35.7,7,5,4,1,2026-04-12T08:22:32.639314+05:30
Vijayawada,Andhra Pradesh,16.5062,80.648,29.5,77,0.0,1004.7,9.25,37.4,67,21.0,15.1,7,5,4,1,2026-04-12T08:22:32.639320+05:30
Guntur,Andhra Pradesh,16.3067,80.4365,29.9,75,0.0,1005.8,9.25,33.8,66,18.0,12.5,7,5,4,1,2026-04-12T08:22:32.639325+05:30
Nellore,Andhra Pradesh,14.4426,79.9865,30.4,71,0.0,1007.3,9.35,35.3,57,20.7,15.8,3,5,4,1,2026-04-12T08:22:32.639331+05:30
Kurnool,Andhra Pradesh,15.8281,78.0373,31.7,44,0.0,978.6,9.25,32.8,78,23.2,19.1,0,5,7,1,2026-04-12T08:22:32.639338+05:30
Kakinada,Andhra Pradesh,16.9891,82.2475,30.2,74,0.0,1009.6,9.2,38.5,60,25.5,15.4,3,0,4,1,2026-04-12T08:22:32.639344+05:30
Tirupati,Andhra Pradesh,13.6288,79.4192,28.2,75,0.0,993.8,9.45,32.0,69,24.4,18.9,7,5,7,1,2026-04-12T08:22:32.639349+05:30
Warangal,Telangana,17.9689,79.5941,28.7,73,0.0,980.5,9.1,29.9,105,32.4,28.7,7,5,7,1,2026-04-12T08:22:32.639355+05:30
Nizamabad,Telangana,18.6725,78.0941,30.3,53,0.0,966.4,9.05,22.0,124,71.7,64.3,0,5,7,1,2026-04-12T08:22:32.639361+05:30
Mysore,Karnataka,12.2958,76.6396,25.9,82,0.0,930.1,9.5,36.7,96,55.2,42.6,7,5,7,1,2026-04-12T08:22:32.639366+05:30
Mangalore,Karnataka,12.9141,74.856,29.2,76,0.0,1007.6,9.2,22.7,91,71.7,36.2,7,5,4,1,2026-04-12T08:22:32.639372+05:30
Hubli-Dharwad,Karnataka,15.3647,75.124,26.0,71,0.0,942.0,9.25,38.5,91,55.3,39.0,7,5,7,1,2026-04-12T08:22:32.639378+05:30
Belgaum,Karnataka,15.8497,74.4977,26.5,55,0.0,926.7,9.3,44.6,96,49.2,39.7,4,5,7,1,2026-04-12T08:22:35.889761+05:30
Coimbatore,Tamil Nadu,11.0168,76.9558,27.2,74,0.0,963.7,9.5,37.8,93,53.4,41.3,7,5,7,1,2026-04-12T08:22:35.889786+05:30
Madurai,Tamil Nadu,9.9252,78.1198,29.5,72,0.0,994.9,9.4,29.9,88,58.0,53.4,7,5,7,1,2026-04-12T08:22:35.889797+05:30
Trichy,Tamil Nadu,10.7905,78.7047,28.8,80,0.0,1001.8,9.4,27.0,75,33.9,27.4,7,5,4,1,2026-04-12T08:22:35.889804+05:30
Salem,Tamil Nadu,11.6643,78.146,28.4,78,0.0,979.4,9.45,27.7,82,36.0,30.0,7,5,7,1,2026-04-12T08:22:35.889812+05:30
Tirunelveli,Tamil Nadu,8.7139,77.7567,29.3,72,0.0,1004.8,9.35,40.0,83,56.3,45.3,7,5,4,1,2026-04-12T08:22:35.889819+05:30
Vellore,Tamil Nadu,12.9165,79.1325,27.9,73,0.0,986.7,9.5,33.5,86,40.9,36.6,7,5,7,1,2026-04-12T08:22:35.889825+05:30
Erode,Tamil Nadu,11.341,77.7172,29.3,76,0.0,991.0,9.45,29.2,75,28.9,24.2,7,5,7,1,2026-04-12T08:22:35.889832+05:30
Kochi,Kerala,9.9312,76.2673,29.3,79,0.0,1009.4,9.2,31.0,89,52.7,43.0,7,0,4,1,2026-04-12T08:22:35.889839+05:30
Thiruvananthapuram,Kerala,8.5241,76.9366,28.4,85,0.0,1008.7,9.2,23.0,70,54.0,29.4,7,0,4,1,2026-04-12T08:22:35.889846+05:30
Kozhikode,Kerala,11.2588,75.7804,29.5,78,0.0,1008.8,8.85,30.6,74,59.4,29.6,7,0,4,1,2026-04-12T08:22:35.889853+05:30
Thrissur,Kerala,10.5276,76.2144,28.5,83,0.0,1008.1,9.0,37.8,84,56.0,38.2,7,0,4,1,2026-04-12T08:22:35.889860+05:30
Kannur,Kerala,11.8745,75.3704,28.9,80,0.0,1007.9,9.2,32.0,90,69.4,42.7,7,5,4,1,2026-04-12T08:22:35.889867+05:30
Patna,Bihar,25.5941,85.1376,25.8,52,0.0,1001.5,8.45,38.2,129,139.7,44.9,4,5,4,0,2026-04-12T08:22:35.889874+05:30
Gaya,Bihar,24.7914,85.0002,27.5,48,0.0,995.2,8.55,28.1,106,161.6,44.1,4,5,7,0,2026-04-12T08:22:35.889881+05:30
Muzaffarpur,Bihar,26.1209,85.3647,24.7,67,0.0,1001.7,8.45,40.3,154,130.4,62.9,3,5,4,1,2026-04-12T08:22:35.889888+05:30
Bhagalpur,Bihar,25.2425,87.0117,25.0,69,0.0,1002.0,8.5,29.9,147,111.3,48.0,7,5,4,1,2026-04-12T08:22:35.889894+05:30
Ranchi,Jharkhand,23.3441,85.3096,26.2,40,0.0,940.1,9.1,34.2,87,114.8,31.8,4,5,7,0,2026-04-12T08:22:35.889901+05:30
Jamshedpur,Jharkhand,22.8046,86.2029,26.4,63,0.0,993.2,8.9,17.6,115,82.2,41.0,7,5,7,1,2026-04-12T08:22:35.889908+05:30
Dhanbad,Jharkhand,23.7957,86.4304,27.7,40,0.0,981.5,8.85,31.3,139,88.9,43.7,4,5,7,0,2026-04-12T08:22:35.889914+05:30
Bokaro,Jharkhand,23.6693,86.1511,27.8,41,0.0,985.8,8.85,33.1,131,106.6,45.2,4,5,7,0,2026-04-12T08:22:35.889920+05:30
Bhubaneswar,Odisha,20.2961,85.8245,28.9,84,0.0,1004.7,9.05,31.3,113,46.0,38.8,7,5,4,1,2026-04-12T08:22:35.889927+05:30
Cuttack,Odisha,20.4625,85.8828,28.9,83,0.0,1006.6,9.1,33.5,113,46.0,38.8,7,5,4,1,2026-04-12T08:22:35.889933+05:30
Rourkela,Odisha,22.2604,84.8536,25.4,65,0.0,987.8,8.85,19.4,113,113.4,58.4,7,5,7,1,2026-04-12T08:22:35.889939+05:30
Raipur,Chhattisgarh,21.2514,81.6296,28.6,35,0.0,977.2,8.85,20.5,106,77.5,70.3,4,5,7,0,2026-04-12T08:22:35.889945+05:30
Bhilai,Chhattisgarh,21.1938,81.3509,27.7,42,0.0,977.4,8.9,18.0,109,89.2,78.9,4,5,7,0,2026-04-12T08:22:35.889952+05:30
Guwahati,Assam,26.1158,91.7086,23.8,80,0.0,1003.3,8.35,33.8,105,68.5,46.9,3,5,4,1,2026-04-12T08:22:35.889958+05:30
Agartala,Tripura,23.8315,91.2868,28.0,82,0.0,1007.4,8.6,31.7,108,44.9,35.2,7,5,4,1,2026-04-12T08:22:35.889981+05:30
Shillong,Meghalaya,25.5788,91.8933,16.9,58,0.0,857.0,6.6,64.1,99,70.3,35.7,0,5,7,0,2026-04-12T08:22:35.889989+05:30
Imphal,Manipur,24.817,93.9368,20.8,70,0.0,924.6,8.95,60.8,94,51.8,35.9,3,5,7,0,2026-04-12T08:22:35.889996+05:30
Aizawl,Mizoram,23.7271,92.7176,23.3,61,0.0,895.0,8.85,52.2,91,47.1,30.5,3,5,7,0,2026-04-12T08:22:35.890002+05:30
Kohima,Nagaland,25.6701,94.1077,17.8,59,0.0,855.9,8.9,90.0,87,48.9,28.9,0,5,7,0,2026-04-12T08:22:35.890007+05:30
Gangtok,Sikkim,27.3314,88.6138,13.0,89,0.1,836.7,7.8,16.2,90,33.8,24.8,6,10,7,0,2026-04-12T08:22:35.890015+05:30
Siliguri,West Bengal,26.7271,88.3953,22.4,64,0.0,995.1,7.4,20.2,125,61.9,48.7,3,5,7,0,2026-04-12T08:22:39.141240+05:30
Durgapur,West Bengal,23.5204,87.3119,27.9,51,0.0,996.5,8.8,20.2,150,59.1,35.3,4,5,7,1,2026-04-12T08:22:39.141262+05:30
Asansol,West Bengal,23.6739,86.9524,28.0,49,0.0,995.1,8.85,21.2,130,66.6,35.6,4,5,7,1,2026-04-12T08:22:39.141271+05:30
Pondicherry,Puducherry,11.9139,79.8145,29.6,75,0.0,1010.3,9.35,29.2,56,17.3,10.8,7,0,4,1,2026-04-12T08:22:39.141278+05:30
Port Blair,Andaman and Nicobar Islands,11.6234,92.7265,29.3,77,0.0,1008.4,9.25,16.2,38,30.2,15.5,7,0,4,1,2026-04-12T08:22:39.141285+05:30
Haridwar,Uttarakhand,29.9457,78.1642,23.1,57,0.0,976.2,7.0,33.8,74,30.7,20.0,0,5,7,0,2026-04-12T08:22:39.141291+05:30
Rishikesh,Uttarakhand,30.0869,78.2676,23.2,51,0.0,968.9,7.1,34.9,60,21.2,15.9,0,5,7,0,2026-04-12T08:22:39.141297+05:30
Nainital,Uttarakhand,29.3919,79.4542,19.4,36,0.0,807.2,7.95,51.5,57,27.7,15.0,0,5,7,0,2026-04-12T08:22:39.141303+05:30
Mussoorie,Uttarakhand,30.4599,78.0664,15.5,50,0.0,802.8,7.35,37.8,60,17.8,12.9,0,5,7,0,2026-04-12T08:22:39.141308+05:30
Dharamshala,Himachal Pradesh,32.219,76.3234,18.6,51,0.0,869.8,7.7,23.0,46,4.0,2.6,0,5,7,0,2026-04-12T08:22:39.141314+05:30
Dalhousie,Himachal Pradesh,32.5387,75.971,14.5,51,0.0,803.5,7.95,23.0,65,16.1,12.7,0,5,7,0,2026-04-12T08:22:39.141321+05:30
Patiala,Punjab,30.3398,76.3869,21.6,66,0.0,981.1,6.85,32.0,168,396.7,66.1,3,5,7,0,2026-04-12T08:22:39.141327+05:30
Bhatinda,Punjab,30.211,74.9455,22.0,66,0.0,987.0,7.75,31.3,84,56.8,31.8,3,5,7,0,2026-04-12T08:22:39.141333+05:30
Rohtak,Haryana,28.8955,76.6066,23.2,63,0.0,984.6,7.25,34.9,583,499.2,95.7,3,5,7,0,2026-04-12T08:22:39.141339+05:30
Panipat,Haryana,29.3909,76.9635,22.7,65,0.0,983.2,7.05,33.5,1062,724.6,101.0,3,5,7,0,2026-04-12T08:22:39.141345+05:30
Mathura,Uttar Pradesh,27.4924,77.6737,24.8,60,0.0,989.5,7.55,27.7,507,392.1,94.8,0,5,7,1,2026-04-12T08:22:39.141351+05:30
Vrindavan,Uttar Pradesh,27.5823,77.7027,24.4,62,0.0,989.9,7.5,31.7,507,392.1,94.8,3,5,7,1,2026-04-12T08:22:39.141357+05:30
Ayodhya,Uttar Pradesh,26.7922,82.1998,27.4,44,0.0,996.5,7.9,37.1,131,113.6,42.0,4,5,7,0,2026-04-12T08:22:39.141363+05:30
Ratlam,Madhya Pradesh,23.3315,75.0367,26.8,52,0.0,956.0,8.35,24.8,53,21.1,15.4,4,5,7,1,2026-04-12T08:22:39.141369+05:30
Sagar,Madhya Pradesh,23.8388,78.7378,28.0,40,0.0,951.8,8.5,33.1,53,25.8,12.6,4,5,7,0,2026-04-12T08:22:39.141375+05:30
Satna,Madhya Pradesh,24.6005,80.8322,28.5,44,0.0,972.4,8.5,38.2,99,130.4,33.1,4,5,7,0,2026-04-12T08:22:39.141381+05:30
Akola,Maharashtra,20.7002,77.0082,27.8,51,0.0,977.1,8.75,20.5,71,38.5,31.1,4,5,7,1,2026-04-12T08:22:39.141388+05:30
Amravati,Maharashtra,20.9374,77.7796,27.5,43,0.0,969.1,8.75,19.8,72,39.6,32.5,4,5,7,0,2026-04-12T08:22:39.141394+05:30
Latur,Maharashtra,18.4088,76.5604,27.5,44,0.0,941.7,9.05,26.6,81,43.4,34.1,4,5,7,0,2026-04-12T08:22:39.141400+05:30
Nanded,Maharashtra,19.1383,77.3091,28.4,50,0.0,970.4,8.95,15.5,92,53.4,45.6,4,5,7,1,2026-04-12T08:22:39.141406+05:30
Gulbarga,Karnataka,17.3297,76.8343,31.3,46,0.0,960.4,9.1,25.2,91,29.7,26.1,0,5,7,1,2026-04-12T08:22:39.141411+05:30
Bidar,Karnataka,17.9104,77.5199,29.7,53,0.0,937.7,9.1,27.0,86,42.8,38.0,4,5,7,1,2026-04-12T08:22:39.141417+05:30
Hospet,Karnataka,15.2689,76.3909,27.6,75,0.0,957.1,9.3,24.8,97,44.9,36.9,7,5,7,1,2026-04-12T08:22:39.141423+05:30
Tirupur,Tamil Nadu,11.1085,77.3411,28.1,75,0.0,977.2,9.5,31.0,88,43.3,34.9,7,5,7,1,2026-04-12T08:22:39.141428+05:30
Alappuzha,Kerala,9.4981,76.3388,29.0,82,0.0,1009.5,9.2,27.7,89,62.9,43.1,7,0,4,1,2026-04-12T08:22:39.141434+05:30
Munnar,Kerala,10.0889,77.0595,24.5,73,0.0,858.9,9.7,29.2,92,47.1,42.6,3,5,7,1,2026-04-12T08:22:39.141440+05:30
Silchar,Assam,24.8333,92.7789,24.2,76,0.0,1007.3,8.65,42.8,126,77.5,52.5,3,5,4,1,2026-04-12T08:22:39.141446+05:30
Dibrugarh,Assam,27.4728,94.912,20.7,85,0.0,998.5,8.1,25.9,93,34.2,25.6,3,5,7,1,2026-04-12T08:22:39.141490+05:30
