city,state,latitude,longitude,temp,humidity,rain,pressure,uv_index,wind_gusts,aqi,pm10,pm2_5,mosquito_risk,arthritis_risk,migraine_risk,frizz_risk,updated_at
Delhi,Delhi,28.6139,77.209,19.7,78,0.0,986.3,5.85,32.4,330,482.4,101.5,3,5,3,0,2026-03-05T07:55:31.559813+05:30
Mumbai,Maharashtra,19.076,72.8777,27.7,62,0.0,1011.2,7.4,27.0,119,37.3,34.8,7,0,4,1,2026-03-05T07:55:31.559846+05:30
Bangalore,Karnataka,12.9716,77.5946,19.4,74,0.0,913.7,9.1,32.8,87,47.0,45.3,3,5,7,0,2026-03-05T07:55:31.559862+05:30
Hyderabad,Telangana,17.385,78.4867,19.3,78,0.0,955.9,8.45,29.5,89,45.2,41.7,3,5,7,0,2026-03-05T07:55:31.559871+05:30
Chennai,Tamil Nadu,13.0827,80.2707,23.9,87,0.0,1011.0,8.85,31.0,97,41.8,38.0,3,0,4,1,2026-03-05T07:55:31.559879+05:30
Kolkata,West Bengal,22.5726,88.3639,22.3,75,0.0,1010.0,7.8,10.8,165,144.4,129.9,3,0,4,1,2026-03-05T07:55:31.559886+05:30
Pune,Maharashtra,18.5204,73.8567,24.0,48,0.0,951.7,7.95,31.0,82,49.4,48.1,0,5,7,0,2026-03-05T07:55:31.559898+05:30
Ahmedabad,Gujarat,23.0225,72.5714,20.8,66,0.0,1007.9,7.15,23.4,70,16.8,13.0,3,5,4,0,2026-03-05T07:55:31.559904+05:30
Jaipur,Rajasthan,26.9124,75.7873,21.9,35,0.0,964.0,6.65,37.1,86,156.9,32.5,0,5,7,0,2026-03-05T07:55:31.559911+05:30
Lucknow,Uttar Pradesh,26.8467,80.9462,19.5,85,0.0,997.3,6.4,13.3,163,316.6,104.3,3,10,7,1,2026-03-05T07:55:31.559918+05:30
Kanpur,Uttar Pradesh,26.4499,80.3319,18.5,92,0.0,995.4,6.4,24.8,171,365.1,85.2,3,10,7,1,2026-03-05T07:55:31.559923+05:30
Chandigarh,Chandigarh,30.7333,76.7794,18.6,79,0.0,971.1,5.75,32.4,88,34.6,30.0,3,5,3,0,2026-03-05T07:55:31.559930+05:30
Srinagar,Jammu and Kashmir,34.0837,74.7973,6.8,84,0.0,844.1,6.65,15.8,152,104.3,70.3,3,10,7,0,2026-03-05T07:55:31.559935+05:30
Jammu,Jammu and Kashmir,32.7266,74.857,15.4,76,0.0,975.1,6.45,28.1,103,42.6,35.6,3,5,7,0,2026-03-05T07:55:31.559941+05:30
Amritsar,Punjab,31.634,74.8723,17.4,82,0.0,984.0,6.35,25.6,154,87.5,71.7,3,10,7,0,2026-03-05T07:55:31.559946+05:30
Ludhiana,Punjab,30.901,75.8573,18.7,78,0.0,981.9,6.0,26.6,155,89.6,74.5,3,5,3,0,2026-03-05T07:55:31.559952+05:30
Jalandhar,Punjab,31.326,75.5762,17.9,80,0.0,983.0,6.2,26.3,157,120.6,98.3,3,5,7,0,2026-03-05T07:55:31.559960+05:30
Dehradun,Uttarakhand,30.6284,78.0322,14.7,39,0.0,830.2,6.15,34.2,62,20.5,15.9,0,5,7,0,2026-03-05T07:55:31.559966+05:30
Shimla,Himachal Pradesh,31.1048,77.1734,13.5,48,0.0,785.5,6.2,52.6,64,32.2,23.0,0,5,7,0,2026-03-05T07:55:31.559972+05:30
Manali,Himachal Pradesh,32.2396,77.1887,19.9,20,0.0,823.9,7.4,34.2,54,30.2,13.5,0,5,7,1,2026-03-05T07:55:31.559977+05:30
Gurgaon,Haryana,28.4595,77.0266,17.6,85,0.0,984.9,5.95,31.3,1299,1587.0,204.0,3,10,3,0,2026-03-05T07:55:31.559983+05:30
Noida,Uttar Pradesh,28.5355,77.391,20.2,76,0.0,987.9,5.9,31.7,1299,1587.0,204.0,3,5,3,0,2026-03-05T07:55:31.559990+05:30
Ghaziabad,Uttar Pradesh,28.6692,77.4538,19.5,84,0.0,985.9,5.85,28.4,207,350.2,88.9,3,10,3,1,2026-03-05T07:55:31.559998+05:30
Faridabad,Haryana,28.4089,77.3178,20.3,71,0.0,987.2,5.9,31.0,1299,1587.0,204.0,3,5,3,0,2026-03-05T07:55:31.560004+05:30
Meerut,Uttar Pradesh,28.9845,77.7064,18.4,90,0.0,984.4,5.75,27.0,207,350.2,88.9,3,10,3,1,2026-03-05T07:55:31.560010+05:30
Agra,Uttar Pradesh,27.1767,78.0081,17.5,75,0.0,991.5,6.25,34.6,440,430.3,77.1,3,5,7,0,2026-03-05T07:55:31.560015+05:30
Varanasi,Uttar Pradesh,25.3176,82.9739,19.6,85,0.0,1001.9,7.05,16.2,154,101.5,62.6,3,10,4,1,2026-03-05T07:55:31.560024+05:30
Prayagraj,Uttar Pradesh,25.4358,81.8463,19.9,81,0.0,1000.3,6.9,19.4,154,157.9,82.7,3,10,4,1,2026-03-05T07:55:31.560031+05:30
Gorakhpur,Uttar Pradesh,26.7606,83.3732,18.5,91,0.0,1001.4,6.75,13.0,171,118.0,102.4,3,10,4,1,2026-03-05T07:55:31.560036+05:30
Bareilly,Uttar Pradesh,28.367,79.4304,17.8,94,0.0,990.0,6.05,13.0,166,164.4,126.7,3,10,7,1,2026-03-05T07:55:31.560041+05:30
Aligarh,Uttar Pradesh,27.8974,78.088,18.4,80,0.0,989.0,5.95,30.6,640,702.2,133.6,3,5,3,0,2026-03-05T07:55:31.560047+05:30
Moradabad,Uttar Pradesh,28.8386,78.7733,16.9,96,0.0,986.6,5.9,14.4,164,271.9,144.4,3,10,3,1,2026-03-05T07:55:31.560053+05:30
Saharanpur,Uttar Pradesh,29.9637,77.546,16.1,99,0.0,978.0,5.5,15.5,153,105.7,82.4,3,10,3,0,2026-03-05T07:55:31.560058+05:30
Jhansi,Uttar Pradesh,25.4484,78.5685,19.3,54,0.0,982.0,6.85,35.3,55,20.2,12.6,0,5,7,0,2026-03-05T07:55:34.789718+05:30
Surat,Gujarat,21.1702,72.8311,22.6,62,0.0,1011.7,7.1,27.4,130,36.0,34.9,3,0,4,0,2026-03-05T07:55:34.789745+05:30
Vadodara,Gujarat,22.3072,73.1812,21.3,62,0.0,1009.8,7.2,23.4,96,24.1,23.0,3,0,4,0,2026-03-05T07:55:34.789757+05:30
Rajkot,Gujarat,22.3039,70.8022,20.4,71,0.0,1000.0,7.05,33.8,62,10.6,9.3,3,5,4,0,2026-03-05T07:55:34.789766+05:30
Thane,Maharashtra,19.2183,72.9781,24.7,61,0.0,1010.8,7.4,38.9,119,37.3,34.8,3,0,4,1,2026-03-05T07:55:34.789820+05:30
Nagpur,Maharashtra,21.1458,79.0882,20.2,55,0.0,977.2,7.8,25.9,66,16.6,14.9,0,5,7,0,2026-03-05T07:55:34.789832+05:30
Nashik,Maharashtra,19.9975,73.7898,22.4,53,0.0,949.2,7.55,33.5,73,30.0,25.7,0,5,7,0,2026-03-05T07:55:34.789841+05:30
Aurangabad,Maharashtra,19.8762,75.3433,19.0,64,0.0,947.3,8.1,29.2,73,28.3,25.7,3,5,7,0,2026-03-05T07:55:34.789849+05:30
Solapur,Maharashtra,17.6599,75.9064,20.6,72,0.0,960.1,8.35,18.4,74,42.1,39.3,3,5,7,0,2026-03-05T07:55:34.789858+05:30
Kolhapur,Maharashtra,16.705,74.2433,20.4,75,0.0,949.8,8.5,33.5,154,104.1,102.9,3,5,7,0,2026-03-05T07:55:34.789866+05:30
Goa,Goa,15.2993,74.124,25.3,89,0.0,1000.5,8.55,30.2,151,74.3,72.6,7,5,4,1,2026-03-05T07:55:34.789874+05:30
Jodhpur,Rajasthan,26.2389,73.0243,21.0,55,0.0,988.5,6.95,21.2,81,144.4,41.0,0,5,7,0,2026-03-05T07:55:34.789883+05:30
Udaipur,Rajasthan,24.5854,73.7125,18.7,53,0.0,951.5,7.55,22.0,60,21.9,18.0,0,5,7,0,2026-03-05T07:55:34.789891+05:30
Kota,Rajasthan,25.2138,75.8648,17.8,65,0.0,983.6,6.95,25.2,75,34.5,19.7,3,5,7,0,2026-03-05T07:55:34.789899+05:30
Bikaner,Rajasthan,28.0229,73.3119,21.1,58,0.0,986.8,6.6,22.3,62,43.5,18.0,0,5,7,0,2026-03-05T07:55:34.789906+05:30
Ajmer,Rajasthan,26.4499,74.6399,19.5,52,0.0,959.1,6.9,23.4,64,53.3,21.2,0,5,7,0,2026-03-05T07:55:34.789914+05:30
Gwalior,Madhya Pradesh,26.2183,78.1828,22.2,52,0.0,987.3,6.55,32.4,69,22.9,16.3,0,5,7,0,2026-03-05T07:55:34.789922+05:30
Indore,Madhya Pradesh,22.7196,75.8577,15.6,72,0.0,952.0,7.5,23.8,78,48.7,43.7,3,5,7,0,2026-03-05T07:55:34.789929+05:30
Bhopal,Madhya Pradesh,23.2599,77.4126,18.6,46,0.0,957.7,7.35,28.8,59,29.2,24.6,0,5,7,0,2026-03-05T07:55:34.789937+05:30
Jabalpur,Madhya Pradesh,23.1815,79.9864,18.4,71,0.0,965.6,7.5,29.5,58,25.1,23.2,3,5,7,0,2026-03-05T07:55:34.789945+05:30
Ujjain,Madhya Pradesh,23.1765,75.7885,16.5,72,0.0,958.0,7.4,22.7,109,74.3,68.0,3,5,7,0,2026-03-05T07:55:34.789953+05:30
Visakhapatnam,Andhra Pradesh,17.6868,83.2185,25.0,73,0.0,1006.5,8.45,34.9,112,44.8,43.8,7,5,4,1,2026-03-05T07:55:34.789961+05:30
Vijayawada,Andhra Pradesh,16.5062,80.648,24.2,82,0.0,1005.9,8.5,17.6,120,49.9,48.0,3,5,4,1,2026-03-05T07:55:34.789969+05:30
Guntur,Andhra Pradesh,16.3067,80.4365,24.3,79,0.0,1007.1,8.55,20.9,114,48.4,46.9,3,5,4,1,2026-03-05T07:55:34.789977+05:30
Nellore,Andhra Pradesh,14.4426,79.9865,24.3,72,0.0,1009.0,8.7,32.0,102,41.2,39.2,3,0,4,1,2026-03-05T07:55:34.789986+05:30
Kurnool,Andhra Pradesh,15.8281,78.0373,25.3,57,0.0,980.1,8.5,26.3,78,43.2,42.0,4,5,7,1,2026-03-05T07:55:34.789994+05:30
Kakinada,Andhra Pradesh,16.9891,82.2475,24.4,87,0.0,1010.8,8.45,29.2,94,44.7,43.0,3,0,4,1,2026-03-05T07:55:34.790002+05:30
Tirupati,Andhra Pradesh,13.6288,79.4192,21.7,70,0.0,995.1,8.85,31.0,133,64.5,62.9,3,5,7,0,2026-03-05T07:55:34.790010+05:30
Warangal,Telangana,17.9689,79.5941,23.2,59,0.0,981.7,8.25,28.8,94,32.5,31.1,0,5,7,0,2026-03-05T07:55:34.790018+05:30
Nizamabad,Telangana,18.6725,78.0941,21.8,62,0.0,968.3,8.15,24.8,85,49.4,47.3,3,5,7,0,2026-03-05T07:55:34.790025+05:30
Mysore,Karnataka,12.2958,76.6396,20.5,93,0.0,930.9,9.15,25.2,91,52.0,51.1,3,5,7,1,2026-03-05T07:55:34.790033+05:30
Mangalore,Karnataka,12.9141,74.856,28.0,81,0.0,1009.4,8.75,28.1,118,58.4,56.2,7,0,4,1,2026-03-05T07:55:34.790041+05:30
Hubli-Dharwad,Karnataka,15.3647,75.124,20.2,97,0.0,942.8,8.75,23.4,81,41.4,40.4,3,5,7,1,2026-03-05T07:55:34.790048+05:30
Belgaum,Karnataka,15.8497,74.4977,21.3,80,0.0,927.5,8.75,37.8,124,77.1,75.2,3,5,7,1,2026-03-05T07:55:38.018632+05:30
Coimbatore,Tamil Nadu,11.0168,76.9558,21.6,68,0.0,964.7,9.15,34.2,103,51.5,50.9,3,5,7,0,2026-03-05T07:55:38.018656+05:30
Madurai,Tamil Nadu,9.9252,78.1198,24.9,88,0.0,996.6,9.1,33.1,77,42.6,42.3,3,5,7,1,2026-03-05T07:55:38.018668+05:30
Trichy,Tamil Nadu,10.7905,78.7047,22.7,98,0.0,1003.8,9.0,34.2,84,54.0,51.6,3,5,4,1,2026-03-05T07:55:38.018677+05:30
Salem,Tamil Nadu,11.6643,78.146,22.0,81,0.0,981.0,9.05,18.0,91,56.9,56.0,3,5,7,1,2026-03-05T07:55:38.018686+05:30
Tirunelveli,Tamil Nadu,8.7139,77.7567,24.6,82,0.0,1006.8,9.15,48.2,72,38.1,36.8,3,5,4,1,2026-03-05T07:55:38.018694+05:30
Vellore,Tamil Nadu,12.9165,79.1325,20.8,76,0.0,988.2,8.9,32.0,120,70.5,69.2,3,5,7,1,2026-03-05T07:55:38.018702+05:30
Erode,Tamil Nadu,11.341,77.7172,22.9,93,0.0,992.9,9.05,22.7,86,36.6,35.5,3,5,7,1,2026-03-05T07:55:38.018710+05:30
Kochi,Kerala,9.9312,76.2673,27.0,81,0.0,1011.4,8.95,36.4,129,61.7,60.5,7,0,4,1,2026-03-05T07:55:38.018719+05:30
Thiruvananthapuram,Kerala,8.5241,76.9366,26.8,81,0.0,1010.6,9.0,27.0,90,34.0,31.8,7,0,4,1,2026-03-05T07:55:38.018727+05:30
Kozhikode,Kerala,11.2588,75.7804,26.6,86,0.0,1010.9,8.85,29.9,116,56.5,52.5,7,0,4,1,2026-03-05T07:55:38.018735+05:30
Thrissur,Kerala,10.5276,76.2144,25.2,96,0.0,1010.0,8.95,36.7,134,76.8,74.3,7,0,4,1,2026-03-05T07:55:38.018743+05:30
Kannur,Kerala,11.8745,75.3704,26.6,90,0.0,1010.0,8.85,34.9,119,57.3,54.7,7,0,4,1,2026-03-05T07:55:38.018751+05:30
Patna,Bihar,25.5941,85.1376,21.1,81,0.0,1005.0,7.2,12.6,170,142.0,117.6,3,5,4,1,2026-03-05T07:55:38.018758+05:30
Gaya,Bihar,24.7914,85.0002,19.5,79,0.0,998.2,7.3,13.7,152,85.9,61.2,3,5,7,0,2026-03-05T07:55:38.018766+05:30
Muzaffarpur,Bihar,26.1209,85.3647,20.0,84,0.0,1004.9,7.15,14.0,174,166.2,143.9,3,5,4,1,2026-03-05T07:55:38.018817+05:30
Bhagalpur,Bihar,25.2425,87.0117,19.9,86,0.0,1005.8,7.25,11.9,164,147.1,121.5,3,10,4,1,2026-03-05T07:55:38.018825+05:30
Ranchi,Jharkhand,23.3441,85.3096,19.6,57,0.0,940.7,7.95,18.4,102,148.5,49.1,0,5,7,0,2026-03-05T07:55:38.018831+05:30
Jamshedpur,Jharkhand,22.8046,86.2029,20.7,76,0.0,994.8,7.85,9.0,152,115.0,93.6,3,5,7,1,2026-03-05T07:55:38.018837+05:30
Dhanbad,Jharkhand,23.7957,86.4304,21.5,59,0.0,983.8,7.75,14.8,154,124.3,99.4,0,5,7,0,2026-03-05T07:55:38.018843+05:30
Bokaro,Jharkhand,23.6693,86.1511,21.1,64,0.0,988.1,7.75,11.5,156,143.0,105.5,3,5,7,0,2026-03-05T07:55:38.018849+05:30
Bhubaneswar,Odisha,20.2961,85.8245,24.7,88,0.0,1005.8,8.15,32.8,153,82.0,76.8,3,5,4,1,2026-03-05T07:55:38.018855+05:30
Cuttack,Odisha,20.4625,85.8828,24.7,88,0.0,1007.9,8.2,28.1,153,82.0,76.8,3,5,4,1,2026-03-05T07:55:38.018861+05:30
Rourkela,Odisha,22.2604,84.8536,20.3,71,0.0,989.0,7.8,20.5,99,78.7,40.9,3,5,7,0,2026-03-05T07:55:38.018867+05:30
Raipur,Chhattisgarh,21.2514,81.6296,22.3,46,0.0,978.4,7.9,25.9,118,77.8,72.4,0,5,7,0,2026-03-05T07:55:38.018873+05:30
Bhilai,Chhattisgarh,21.1938,81.3509,21.6,50,0.0,978.7,7.9,26.6,99,48.5,44.7,0,5,7,0,2026-03-05T07:55:38.018878+05:30
Guwahati,Assam,26.1158,91.7086,23.5,74,0.0,1006.3,7.15,17.6,150,74.3,68.9,3,5,4,1,2026-03-05T07:55:38.018884+05:30
Agartala,Tripura,23.8315,91.2868,22.3,84,0.0,1010.3,7.55,15.1,156,84.1,70.5,3,0,4,1,2026-03-05T07:55:38.018890+05:30
Shillong,Meghalaya,25.5788,91.8933,15.3,60,0.0,858.9,7.55,16.2,119,44.2,39.5,0,5,7,0,2026-03-05T07:55:38.018895+05:30
Imphal,Manipur,24.817,93.9368,19.4,65,0.0,926.5,7.75,23.0,149,69.2,64.7,3,5,7,0,2026-03-05T07:55:38.018901+05:30
Aizawl,Mizoram,23.7271,92.7176,18.3,69,0.0,895.1,7.7,24.5,160,86.6,82.0,3,5,7,0,2026-03-05T07:55:38.018906+05:30
Kohima,Nagaland,25.6701,94.1077,17.2,64,0.0,858.0,7.6,38.9,151,60.1,54.7,3,5,7,0,2026-03-05T07:55:38.018912+05:30
Gangtok,Sikkim,27.3314,88.6138,14.2,86,0.0,839.7,7.5,23.4,116,39.3,34.7,3,10,7,0,2026-03-05T07:55:38.018918+05:30
Siliguri,West Bengal,26.7271,88.3953,22.8,65,0.0,998.2,7.15,23.4,151,65.2,61.2,3,5,7,0,2026-03-05T07:55:41.246835+05:30
Durgapur,West Bengal,23.5204,87.3119,22.9,60,0.0,999.3,7.75,18.4,154,136.4,111.3,0,5,7,0,2026-03-05T07:55:41.246861+05:30
Asansol,West Bengal,23.6739,86.9524,22.8,60,0.0,997.9,7.7,18.7,140,102.7,80.3,0,5,7,0,2026-03-05T07:55:41.246873+05:30
Pondicherry,Puducherry,11.9139,79.8145,23.0,97,0.0,1012.2,8.85,27.4,80,36.0,31.8,3,0,4,1,2026-03-05T07:55:41.246881+05:30
Port Blair,Andaman and Nicobar Islands,11.6234,92.7265,26.6,74,0.0,1010.6,8.8,24.1,89,23.5,20.0,7,0,4,1,2026-03-05T07:55:41.246888+05:30
Haridwar,Uttarakhand,29.9457,78.1642,17.8,84,0.0,976.9,5.65,23.8,132,56.1,48.2,3,10,3,0,2026-03-05T07:55:41.246897+05:30
Rishikesh,Uttarakhand,30.0869,78.2676,18.0,71,0.0,969.3,5.7,23.4,104,39.0,36.6,3,5,3,0,2026-03-05T07:55:41.246905+05:30
Nainital,Uttarakhand,29.3919,79.4542,15.8,65,0.0,806.5,6.5,55.4,151,79.9,60.1,3,5,7,0,2026-03-05T07:55:41.246911+05:30
Mussoorie,Uttarakhand,30.4599,78.0664,16.0,35,0.0,803.3,6.05,43.6,99,37.3,31.8,0,5,7,0,2026-03-05T07:55:41.246917+05:30
Dharamshala,Himachal Pradesh,32.219,76.3234,22.2,27,0.0,871.6,6.3,26.6,51,22.8,11.0,0,5,7,0,2026-03-05T07:55:41.246922+05:30
Dalhousie,Himachal Pradesh,32.5387,75.971,18.0,26,0.0,805.9,6.5,23.8,82,29.0,23.6,0,5,7,1,2026-03-05T07:55:41.246929+05:30
Patiala,Punjab,30.3398,76.3869,19.1,82,0.0,981.1,5.7,28.1,255,444.2,91.3,3,10,3,0,2026-03-05T07:55:41.246936+05:30
Bhatinda,Punjab,30.211,74.9455,18.3,86,0.0,987.5,6.35,28.1,141,87.1,64.7,3,10,7,0,2026-03-05T07:55:41.246942+05:30
Rohtak,Haryana,28.8955,76.6066,18.1,84,0.0,985.3,5.85,32.0,473,627.7,107.6,3,10,3,0,2026-03-05T07:55:41.246949+05:30
Panipat,Haryana,29.3909,76.9635,19.3,85,0.0,983.4,5.65,30.6,1098,1322.5,181.6,3,10,3,1,2026-03-05T07:55:41.246955+05:30
Mathura,Uttar Pradesh,27.4924,77.6737,20.5,58,0.0,990.4,6.15,32.0,536,592.3,92.9,0,5,7,0,2026-03-05T07:55:41.246960+05:30
Vrindavan,Uttar Pradesh,27.5823,77.7027,18.4,75,0.0,990.8,6.1,33.8,536,592.3,92.9,3,5,7,0,2026-03-05T07:55:41.246966+05:30
Ayodhya,Uttar Pradesh,26.7922,82.1998,19.2,87,0.0,999.4,6.55,11.5,175,170.4,119.7,3,10,7,1,2026-03-05T07:55:41.246972+05:30
Ratlam,Madhya Pradesh,23.3315,75.0367,19.3,66,0.0,958.9,7.35,20.5,97,64.0,56.1,3,5,7,0,2026-03-05T07:55:41.246978+05:30
Sagar,Madhya Pradesh,23.8388,78.7378,18.2,56,0.0,953.9,7.3,31.3,48,18.3,12.9,0,5,7,0,2026-03-05T07:55:41.246984+05:30
Satna,Madhya Pradesh,24.6005,80.8322,20.3,56,0.0,975.4,7.3,40.0,64,22.4,16.2,0,5,7,0,2026-03-05T07:55:41.246989+05:30
Akola,Maharashtra,20.7002,77.0082,19.7,66,0.0,979.4,7.8,24.5,79,31.1,28.1,3,5,7,0,2026-03-05T07:55:41.246995+05:30
Amravati,Maharashtra,20.9374,77.7796,18.9,64,0.0,971.3,7.8,16.9,76,32.4,29.2,3,5,7,0,2026-03-05T07:55:41.247001+05:30
Latur,Maharashtra,18.4088,76.5604,21.2,58,0.0,942.9,8.25,33.5,93,54.1,51.2,0,5,7,0,2026-03-05T07:55:41.247007+05:30
Nanded,Maharashtra,19.1383,77.3091,20.2,65,0.0,972.4,8.05,25.2,91,54.9,52.7,3,5,7,0,2026-03-05T07:55:41.247012+05:30
Gulbarga,Karnataka,17.3297,76.8343,22.9,56,0.0,961.9,8.35,20.9,77,43.3,39.9,0,5,7,0,2026-03-05T07:55:41.247017+05:30
Bidar,Karnataka,17.9104,77.5199,22.4,58,0.0,938.2,8.3,25.2,93,55.8,51.8,0,5,7,0,2026-03-05T07:55:41.247023+05:30
Hospet,Karnataka,15.2689,76.3909,22.5,77,0.0,959.0,8.7,20.9,85,37.0,36.2,3,5,7,1,2026-03-05T07:55:41.247028+05:30
Tirupur,Tamil Nadu,11.1085,77.3411,22.6,74,0.0,978.7,9.15,29.2,104,55.4,55.1,3,5,7,1,2026-03-05T07:55:41.247034+05:30
Alappuzha,Kerala,9.4981,76.3388,27.1,80,0.0,1011.5,8.95,34.2,112,46.2,44.5,7,0,4,1,2026-03-05T07:55:41.247039+05:30
Munnar,Kerala,10.0889,77.0595,17.6,68,0.0,857.2,9.45,26.3,76,28.3,27.7,3,5,7,0,2026-03-05T07:55:41.247045+05:30
Silchar,Assam,24.8333,92.7789,22.4,71,0.0,1009.2,7.5,13.3,151,59.0,54.1,3,0,4,1,2026-03-05T07:55:41.247064+05:30
Dibrugarh,Assam,27.4728,94.912,21.6,83,0.0,999.8,7.2,9.0,130,40.2,36.1,3,5,7,1,2026-03-05T07:55:41.247083+05:30
