city,state,latitude,longitude,temp,humidity,rain,pressure,uv_index,wind_gusts,aqi,pm10,pm2_5,mosquito_risk,arthritis_risk,migraine_risk,frizz_risk,updated_at
Delhi,Delhi,28.6139,77.209,30.1,37,0.0,976.8,7.25,42.5,421,823.3,144.4,0,5,7,0,2026-04-28T03:25:16.007754+05:30
Mumbai,Maharashtra,19.076,72.8777,27.0,91,0.0,1005.3,8.05,38.9,84,51.8,25.6,7,5,4,1,2026-04-28T03:25:16.007799+05:30
Bangalore,Karnataka,12.9716,77.5946,24.2,70,0.0,909.6,9.05,40.3,88,33.4,30.4,3,5,7,1,2026-04-28T03:25:16.007814+05:30
Hyderabad,Telangana,17.385,78.4867,29.1,56,0.0,949.7,7.2,49.3,99,45.8,39.3,4,5,7,1,2026-04-28T03:25:16.007824+05:30
Chennai,Tamil Nadu,13.0827,80.2707,28.5,84,0.0,1004.8,7.55,56.5,55,13.4,9.1,7,5,4,1,2026-04-28T03:25:16.007833+05:30
Kolkata,West Bengal,22.5726,88.3639,27.8,87,0.0,999.9,8.85,63.4,55,18.6,15.0,7,5,7,1,2026-04-28T03:25:16.007842+05:30
Pune,Maharashtra,18.5204,73.8567,25.5,66,0.0,944.8,8.6,41.0,68,32.8,18.2,7,5,7,1,2026-04-28T03:25:16.007854+05:30
Ahmedabad,Gujarat,23.0225,72.5714,30.2,29,0.0,998.0,8.2,47.9,44,28.9,11.5,0,5,7,0,2026-04-28T03:25:16.007862+05:30
Jaipur,Rajasthan,26.9124,75.7873,28.5,34,0.0,954.2,8.05,39.6,126,172.8,34.0,4,5,7,0,2026-04-28T03:25:16.007870+05:30
Lucknow,Uttar Pradesh,26.8467,80.9462,28.1,55,0.0,987.7,7.9,40.0,145,334.3,67.8,4,5,7,1,2026-04-28T03:25:16.007879+05:30
Kanpur,Uttar Pradesh,26.4499,80.3319,29.8,25,0.0,986.1,7.95,43.9,277,466.6,74.5,4,5,7,0,2026-04-28T03:25:16.007887+05:30
Chandigarh,Chandigarh,30.7333,76.7794,26.6,31,0.0,962.7,6.6,53.3,49,15.7,15.1,4,5,7,0,2026-04-28T03:25:16.007895+05:30
Srinagar,Jammu and Kashmir,34.0837,74.7973,9.7,93,0.0,835.9,6.25,31.7,71,44.0,37.1,3,10,7,0,2026-04-28T03:25:16.007903+05:30
Jammu,Jammu and Kashmir,32.7266,74.857,24.6,35,0.0,965.4,7.2,44.3,56,16.8,15.4,0,5,7,0,2026-04-28T03:25:16.007910+05:30
Amritsar,Punjab,31.634,74.8723,27.3,43,0.0,974.2,5.65,48.6,66,47.8,25.4,4,5,3,0,2026-04-28T03:25:16.007916+05:30
Ludhiana,Punjab,30.901,75.8573,27.2,39,0.0,972.2,6.45,32.4,66,60.1,29.4,4,5,7,0,2026-04-28T03:25:16.007923+05:30
Jalandhar,Punjab,31.326,75.5762,26.2,41,0.0,972.9,5.6,36.0,77,68.0,33.4,4,5,3,0,2026-04-28T03:25:16.007932+05:30
Dehradun,Uttarakhand,30.6284,78.0322,12.5,55,0.0,822.9,5.75,53.3,46,14.9,11.6,0,5,3,0,2026-04-28T03:25:16.007940+05:30
Shimla,Himachal Pradesh,31.1048,77.1734,13.4,39,0.0,779.4,7.45,47.9,59,15.5,10.6,0,5,7,1,2026-04-28T03:25:16.007946+05:30
Manali,Himachal Pradesh,32.2396,77.1887,9.3,69,0.0,812.1,8.7,40.0,48,26.1,19.8,3,5,7,0,2026-04-28T03:25:16.007953+05:30
Gurgaon,Haryana,28.4595,77.0266,27.5,48,0.0,975.1,7.25,48.6,882,1922.2,237.0,4,5,7,0,2026-04-28T03:25:16.007960+05:30
Noida,Uttar Pradesh,28.5355,77.391,29.9,34,0.0,978.0,7.4,42.1,882,1922.2,237.0,4,5,7,0,2026-04-28T03:25:16.007968+05:30
Ghaziabad,Uttar Pradesh,28.6692,77.4538,29.4,35,0.0,976.4,7.35,59.8,315,683.6,127.1,4,5,7,0,2026-04-28T03:25:16.007974+05:30
Faridabad,Haryana,28.4089,77.3178,31.8,30,0.0,977.4,7.4,47.5,882,1922.2,237.0,0,5,7,0,2026-04-28T03:25:16.007981+05:30
Meerut,Uttar Pradesh,28.9845,77.7064,28.8,36,0.0,975.3,7.15,52.6,315,683.6,127.1,4,5,7,0,2026-04-28T03:25:16.007988+05:30
Agra,Uttar Pradesh,27.1767,78.0081,33.0,26,0.0,980.6,7.8,41.0,511,620.3,77.5,0,5,7,0,2026-04-28T03:25:16.007994+05:30
Varanasi,Uttar Pradesh,25.3176,82.9739,27.4,70,0.0,991.6,8.5,40.7,136,79.9,58.1,7,5,7,1,2026-04-28T03:25:16.008003+05:30
Prayagraj,Uttar Pradesh,25.4358,81.8463,28.5,61,0.0,989.3,8.4,37.4,126,94.5,58.8,7,5,7,1,2026-04-28T03:25:16.008012+05:30
Gorakhpur,Uttar Pradesh,26.7606,83.3732,24.2,78,0.0,993.0,8.3,35.3,138,71.0,54.8,3,5,7,1,2026-04-28T03:25:16.008020+05:30
Bareilly,Uttar Pradesh,28.367,79.4304,26.8,41,0.0,981.2,7.65,50.4,100,154.6,46.3,4,5,7,0,2026-04-28T03:25:16.008033+05:30
Aligarh,Uttar Pradesh,27.8974,78.088,32.6,25,0.0,978.5,7.5,59.0,613,827.0,122.9,0,5,7,0,2026-04-28T03:25:16.008039+05:30
Moradabad,Uttar Pradesh,28.8386,78.7733,28.7,34,0.0,977.8,7.3,48.2,122,275.7,67.3,4,5,7,0,2026-04-28T03:25:16.008045+05:30
Saharanpur,Uttar Pradesh,29.9637,77.546,28.5,32,0.0,969.5,6.55,42.1,81,113.4,34.7,4,5,7,0,2026-04-28T03:25:16.008051+05:30
Jhansi,Uttar Pradesh,25.4484,78.5685,30.6,26,0.0,971.9,8.3,42.8,60,36.9,18.8,0,5,7,0,2026-04-28T03:25:19.250828+05:30
Surat,Gujarat,21.1702,72.8311,27.6,79,0.0,1002.8,7.9,44.3,84,37.6,22.8,7,5,4,1,2026-04-28T03:25:19.250861+05:30
Vadodara,Gujarat,22.3072,73.1812,28.4,63,0.0,1000.3,8.15,48.6,66,29.3,19.7,7,5,4,1,2026-04-28T03:25:19.250873+05:30
Rajkot,Gujarat,22.3039,70.8022,26.4,51,0.0,990.6,7.9,53.3,51,20.8,10.4,4,5,7,0,2026-04-28T03:25:19.250883+05:30
Thane,Maharashtra,19.2183,72.9781,26.5,96,0.0,1004.7,8.05,36.4,84,51.8,25.6,7,5,4,1,2026-04-28T03:25:19.250891+05:30
Nagpur,Maharashtra,21.1458,79.0882,34.4,19,0.0,968.4,8.85,50.8,89,24.5,21.0,0,5,7,0,2026-04-28T03:25:19.250900+05:30
Nashik,Maharashtra,19.9975,73.7898,25.9,47,0.0,942.4,8.3,43.6,75,38.4,23.5,4,5,7,0,2026-04-28T03:25:19.250908+05:30
Aurangabad,Maharashtra,19.8762,75.3433,29.8,32,0.0,940.4,9.0,43.6,69,29.0,23.3,4,5,7,0,2026-04-28T03:25:19.250916+05:30
Solapur,Maharashtra,17.6599,75.9064,29.4,56,0.0,953.6,9.1,40.7,74,25.4,20.3,4,5,7,1,2026-04-28T03:25:19.250924+05:30
Kolhapur,Maharashtra,16.705,74.2433,23.3,92,0.0,945.2,9.0,50.8,72,41.6,19.4,3,5,7,1,2026-04-28T03:25:19.250932+05:30
Goa,Goa,15.2993,74.124,27.4,88,0.0,995.0,9.0,35.3,69,58.3,22.2,7,5,7,1,2026-04-28T03:25:19.250940+05:30
Jodhpur,Rajasthan,26.2389,73.0243,29.9,26,0.0,977.5,8.3,46.8,130,211.9,34.2,4,5,7,0,2026-04-28T03:25:19.250948+05:30
Udaipur,Rajasthan,24.5854,73.7125,27.3,30,0.0,942.3,8.75,49.3,47,21.9,10.1,4,5,7,0,2026-04-28T03:25:19.250956+05:30
Kota,Rajasthan,25.2138,75.8648,28.4,29,0.0,973.3,8.3,38.5,54,12.5,8.8,4,5,7,0,2026-04-28T03:25:19.250964+05:30
Bikaner,Rajasthan,28.0229,73.3119,29.0,37,0.0,975.4,8.15,59.0,63,50.5,18.1,4,5,7,0,2026-04-28T03:25:19.250972+05:30
Ajmer,Rajasthan,26.4499,74.6399,27.0,40,0.0,949.3,8.25,43.6,59,11.9,8.0,4,5,7,0,2026-04-28T03:25:19.250979+05:30
Gwalior,Madhya Pradesh,26.2183,78.1828,30.6,29,0.0,977.2,8.05,43.9,79,66.8,20.4,0,5,7,0,2026-04-28T03:25:19.250987+05:30
Indore,Madhya Pradesh,22.7196,75.8577,29.6,23,0.0,944.7,8.6,54.7,61,23.2,17.6,4,5,7,0,2026-04-28T03:25:19.250995+05:30
Bhopal,Madhya Pradesh,23.2599,77.4126,31.1,18,0.0,949.5,8.6,46.4,51,14.5,11.1,0,5,7,0,2026-04-28T03:25:19.251002+05:30
Jabalpur,Madhya Pradesh,23.1815,79.9864,27.4,45,0.0,956.1,8.75,42.5,66,29.7,18.4,4,5,7,0,2026-04-28T03:25:19.251010+05:30
Ujjain,Madhya Pradesh,23.1765,75.7885,29.5,25,0.0,950.3,8.55,56.9,60,22.8,17.6,4,5,7,0,2026-04-28T03:25:19.251017+05:30
Visakhapatnam,Andhra Pradesh,17.6868,83.2185,27.5,91,0.0,1000.6,9.2,58.3,60,22.3,16.9,7,5,4,1,2026-04-28T03:25:19.251024+05:30
Vijayawada,Andhra Pradesh,16.5062,80.648,28.1,88,0.0,999.5,8.75,41.4,61,19.0,14.4,7,5,7,1,2026-04-28T03:25:19.251030+05:30
Guntur,Andhra Pradesh,16.3067,80.4365,28.1,89,0.0,1000.7,9.25,45.4,62,18.4,14.2,7,5,4,1,2026-04-28T03:25:19.251037+05:30
Nellore,Andhra Pradesh,14.4426,79.9865,27.2,84,0.0,1002.4,9.25,48.2,62,14.3,11.8,7,5,4,1,2026-04-28T03:25:19.251044+05:30
Kurnool,Andhra Pradesh,15.8281,78.0373,32.2,45,0.0,972.5,9.2,40.7,93,31.8,28.4,0,5,7,1,2026-04-28T03:25:19.251051+05:30
Kakinada,Andhra Pradesh,16.9891,82.2475,27.6,90,0.0,1004.8,9.2,45.7,56,22.7,14.6,7,5,4,1,2026-04-28T03:25:19.251057+05:30
Tirupati,Andhra Pradesh,13.6288,79.4192,26.8,81,0.0,988.9,9.2,38.2,71,14.8,12.4,7,5,7,1,2026-04-28T03:25:19.251063+05:30
Warangal,Telangana,17.9689,79.5941,27.6,74,0.0,975.0,8.75,38.2,78,23.9,21.9,7,5,7,1,2026-04-28T03:25:19.251069+05:30
Nizamabad,Telangana,18.6725,78.0941,29.8,40,0.0,960.5,9.1,36.0,92,34.6,28.5,4,5,7,0,2026-04-28T03:25:19.251076+05:30
Mysore,Karnataka,12.2958,76.6396,23.1,95,0.0,926.0,8.8,40.7,92,28.6,27.0,3,5,7,1,2026-04-28T03:25:19.251083+05:30
Mangalore,Karnataka,12.9141,74.856,29.0,80,0.0,1003.9,8.0,37.4,78,38.2,31.7,7,5,4,1,2026-04-28T03:25:19.251089+05:30
Hubli-Dharwad,Karnataka,15.3647,75.124,24.0,91,0.0,938.0,9.2,40.3,81,17.8,13.4,3,5,7,1,2026-04-28T03:25:19.251095+05:30
Belgaum,Karnataka,15.8497,74.4977,22.3,98,0.0,922.9,9.2,47.9,77,36.7,18.7,3,5,7,1,2026-04-28T03:25:22.480405+05:30
Coimbatore,Tamil Nadu,11.0168,76.9558,25.9,87,0.0,959.2,8.2,49.0,66,24.4,21.4,7,5,7,1,2026-04-28T03:25:22.480434+05:30
Madurai,Tamil Nadu,9.9252,78.1198,28.0,71,0.0,990.9,8.7,50.8,49,15.3,15.0,7,5,7,1,2026-04-28T03:25:22.480445+05:30
Trichy,Tamil Nadu,10.7905,78.7047,27.7,81,0.0,997.8,8.75,45.7,52,8.4,7.7,7,5,7,1,2026-04-28T03:25:22.480453+05:30
Salem,Tamil Nadu,11.6643,78.146,27.5,67,0.0,975.2,7.35,31.7,64,9.8,9.5,7,5,7,1,2026-04-28T03:25:22.480461+05:30
Tirunelveli,Tamil Nadu,8.7139,77.7567,26.9,80,0.0,1001.0,9.15,45.0,60,21.6,20.3,7,5,4,1,2026-04-28T03:25:22.480469+05:30
Vellore,Tamil Nadu,12.9165,79.1325,26.1,82,0.0,982.4,8.8,38.9,85,22.4,20.7,7,5,7,1,2026-04-28T03:25:22.480476+05:30
Erode,Tamil Nadu,11.341,77.7172,28.9,66,0.0,986.6,8.4,50.0,66,21.8,20.6,7,5,7,1,2026-04-28T03:25:22.480484+05:30
Kochi,Kerala,9.9312,76.2673,26.4,88,0.0,1006.8,7.1,36.4,75,24.9,21.8,7,5,4,1,2026-04-28T03:25:22.480491+05:30
Thiruvananthapuram,Kerala,8.5241,76.9366,24.8,96,0.0,1006.3,8.15,36.4,57,17.8,14.6,3,5,4,1,2026-04-28T03:25:22.480498+05:30
Kozhikode,Kerala,11.2588,75.7804,25.7,95,0.0,1005.6,7.5,36.0,62,28.4,21.5,7,5,4,1,2026-04-28T03:25:22.480504+05:30
Thrissur,Kerala,10.5276,76.2144,25.1,96,0.1,1005.2,7.9,36.7,69,22.7,20.5,10,5,4,1,2026-04-28T03:25:22.480512+05:30
Kannur,Kerala,11.8745,75.3704,27.6,88,0.0,1004.4,7.7,37.8,76,35.9,32.0,7,5,4,1,2026-04-28T03:25:22.480519+05:30
Patna,Bihar,25.5941,85.1376,22.4,89,0.0,996.1,8.6,33.8,127,41.0,33.1,3,5,7,1,2026-04-28T03:25:22.480526+05:30
Gaya,Bihar,24.7914,85.0002,24.4,83,0.0,989.0,8.7,35.3,127,48.4,42.1,3,5,7,1,2026-04-28T03:25:22.480533+05:30
Muzaffarpur,Bihar,26.1209,85.3647,22.2,86,0.0,996.3,8.1,36.7,131,34.1,29.0,3,5,7,1,2026-04-28T03:25:22.480540+05:30
Bhagalpur,Bihar,25.2425,87.0117,22.1,91,0.0,997.1,8.6,31.7,100,28.9,25.9,3,5,7,1,2026-04-28T03:25:22.480546+05:30
Ranchi,Jharkhand,23.3441,85.3096,24.0,66,0.0,931.8,8.95,47.2,85,42.7,25.0,3,5,7,1,2026-04-28T03:25:22.480554+05:30
Jamshedpur,Jharkhand,22.8046,86.2029,27.4,71,0.0,984.5,8.85,55.4,98,56.2,43.8,7,5,7,1,2026-04-28T03:25:22.480560+05:30
Dhanbad,Jharkhand,23.7957,86.4304,24.4,85,0.0,974.7,8.95,37.8,144,86.4,77.8,3,5,7,1,2026-04-28T03:25:22.480567+05:30
Bokaro,Jharkhand,23.6693,86.1511,25.0,86,0.0,978.6,8.95,36.4,141,87.3,77.3,7,5,7,1,2026-04-28T03:25:22.480573+05:30
Bhubaneswar,Odisha,20.2961,85.8245,27.4,85,0.0,996.8,9.1,48.6,53,16.8,13.6,7,5,7,1,2026-04-28T03:25:22.480579+05:30
Cuttack,Odisha,20.4625,85.8828,27.2,86,0.0,998.7,9.15,42.8,53,16.8,13.6,7,5,7,1,2026-04-28T03:25:22.480585+05:30
Rourkela,Odisha,22.2604,84.8536,27.3,78,0.0,979.0,8.9,64.1,97,57.6,35.2,7,5,7,1,2026-04-28T03:25:22.480592+05:30
Raipur,Chhattisgarh,21.2514,81.6296,30.0,36,0.0,969.4,8.9,46.8,103,57.3,42.5,4,5,7,0,2026-04-28T03:25:22.480599+05:30
Bhilai,Chhattisgarh,21.1938,81.3509,30.0,40,0.0,970.0,8.95,46.1,92,50.6,33.9,4,5,7,0,2026-04-28T03:25:22.480606+05:30
Guwahati,Assam,26.1158,91.7086,20.5,91,0.0,998.7,7.9,32.8,98,39.8,31.8,3,5,7,1,2026-04-28T03:25:22.480612+05:30
Agartala,Tripura,23.8315,91.2868,26.2,88,0.0,1001.3,7.1,44.6,68,17.6,14.9,7,5,4,1,2026-04-28T03:25:22.480618+05:30
Shillong,Meghalaya,25.5788,91.8933,15.6,98,0.0,852.3,8.7,28.4,66,12.3,4.9,3,10,7,0,2026-04-28T03:25:22.480626+05:30
Imphal,Manipur,24.817,93.9368,18.0,98,0.0,919.3,8.9,20.9,116,24.6,17.6,3,10,7,1,2026-04-28T03:25:22.480633+05:30
Aizawl,Mizoram,23.7271,92.7176,18.9,79,0.0,888.1,7.75,74.5,71,27.8,16.2,3,5,7,0,2026-04-28T03:25:22.480639+05:30
Kohima,Nagaland,25.6701,94.1077,15.6,98,0.1,851.1,6.65,29.9,100,5.8,3.5,6,10,7,0,2026-04-28T03:25:22.480646+05:30
Gangtok,Sikkim,27.3314,88.6138,12.0,91,0.0,831.2,8.2,42.5,73,39.9,31.2,3,10,7,0,2026-04-28T03:25:22.480653+05:30
Siliguri,West Bengal,26.7271,88.3953,20.9,86,0.0,989.6,7.6,28.4,92,25.7,22.4,3,5,7,1,2026-04-28T03:25:25.716214+05:30
Durgapur,West Bengal,23.5204,87.3119,25.5,89,0.0,989.3,8.85,37.1,121,51.0,48.1,7,5,7,1,2026-04-28T03:25:25.716255+05:30
Asansol,West Bengal,23.6739,86.9524,24.6,88,0.0,988.2,8.9,32.8,117,55.4,52.3,3,5,7,1,2026-04-28T03:25:25.716267+05:30
Pondicherry,Puducherry,11.9139,79.8145,28.6,83,0.0,1006.2,8.8,46.8,50,12.0,8.2,7,5,4,1,2026-04-28T03:25:25.716276+05:30
Port Blair,Andaman and Nicobar Islands,11.6234,92.7265,26.5,85,0.0,1005.4,9.05,27.0,38,9.5,7.0,7,5,4,1,2026-04-28T03:25:25.716286+05:30
Haridwar,Uttarakhand,29.9457,78.1642,22.2,52,0.0,967.5,6.6,28.1,58,21.4,17.8,0,5,7,0,2026-04-28T03:25:25.716295+05:30
Rishikesh,Uttarakhand,30.0869,78.2676,18.5,63,0.0,960.0,6.3,29.5,67,34.1,19.5,3,5,7,0,2026-04-28T03:25:25.716304+05:30
Nainital,Uttarakhand,29.3919,79.4542,14.3,47,0.0,800.9,7.45,54.4,80,43.8,15.9,0,5,7,0,2026-04-28T03:25:25.716312+05:30
Mussoorie,Uttarakhand,30.4599,78.0664,16.9,34,0.0,799.1,5.25,51.8,49,22.3,19.7,0,5,3,0,2026-04-28T03:25:25.716320+05:30
Dharamshala,Himachal Pradesh,32.219,76.3234,22.7,28,0.0,865.2,7.5,53.3,48,12.6,10.0,0,5,7,0,2026-04-28T03:25:25.716328+05:30
Dalhousie,Himachal Pradesh,32.5387,75.971,10.8,63,0.0,797.0,6.15,36.7,40,14.4,13.5,3,5,7,0,2026-04-28T03:25:25.716337+05:30
Patiala,Punjab,30.3398,76.3869,28.9,34,0.0,971.8,6.15,49.3,362,489.9,75.7,4,5,7,0,2026-04-28T03:25:25.716345+05:30
Bhatinda,Punjab,30.211,74.9455,29.2,37,0.0,976.8,7.45,44.6,69,74.7,30.9,4,5,7,0,2026-04-28T03:25:25.716354+05:30
Rohtak,Haryana,28.8955,76.6066,27.1,45,0.0,975.4,7.25,53.3,584,1076.6,157.9,4,5,7,0,2026-04-28T03:25:25.716362+05:30
Panipat,Haryana,29.3909,76.9635,28.6,36,0.0,974.1,6.95,56.2,1154,1952.1,240.3,4,5,7,0,2026-04-28T03:25:25.716369+05:30
Mathura,Uttar Pradesh,27.4924,77.6737,32.3,25,0.0,979.4,7.75,63.7,638,931.3,119.2,0,5,7,0,2026-04-28T03:25:25.716377+05:30
Vrindavan,Uttar Pradesh,27.5823,77.7027,31.8,26,0.0,979.8,7.75,67.3,638,931.3,119.2,0,5,7,0,2026-04-28T03:25:25.716385+05:30
Ayodhya,Uttar Pradesh,26.7922,82.1998,26.0,69,0.0,990.3,8.1,52.2,139,79.9,60.8,7,5,7,1,2026-04-28T03:25:25.716393+05:30
Ratlam,Madhya Pradesh,23.3315,75.0367,27.5,32,0.0,951.2,8.45,51.1,63,24.4,18.3,4,5,7,0,2026-04-28T03:25:25.716400+05:30
Sagar,Madhya Pradesh,23.8388,78.7378,28.6,28,0.0,945.3,8.6,45.4,52,13.3,10.3,4,5,7,0,2026-04-28T03:25:25.716408+05:30
Satna,Madhya Pradesh,24.6005,80.8322,30.5,30,0.0,964.7,8.2,46.8,58,19.7,12.0,0,5,7,0,2026-04-28T03:25:25.716416+05:30
Akola,Maharashtra,20.7002,77.0082,31.0,22,0.0,970.4,8.4,42.8,74,23.2,19.7,0,5,7,0,2026-04-28T03:25:25.716424+05:30
Amravati,Maharashtra,20.9374,77.7796,32.5,18,0.0,962.4,8.2,46.8,70,22.9,19.5,0,5,7,0,2026-04-28T03:25:25.716432+05:30
Latur,Maharashtra,18.4088,76.5604,29.0,35,0.0,936.2,9.1,36.4,81,30.0,23.7,4,5,7,0,2026-04-28T03:25:25.716440+05:30
Nanded,Maharashtra,19.1383,77.3091,29.5,29,0.0,964.4,8.95,31.0,75,28.6,24.8,4,5,7,0,2026-04-28T03:25:25.716448+05:30
Gulbarga,Karnataka,17.3297,76.8343,29.6,46,0.0,955.0,9.0,35.6,87,28.8,24.8,4,5,7,1,2026-04-28T03:25:25.716456+05:30
Bidar,Karnataka,17.9104,77.5199,28.5,41,0.0,931.6,8.1,34.6,88,43.8,38.3,4,5,7,0,2026-04-28T03:25:25.716463+05:30
Hospet,Karnataka,15.2689,76.3909,27.0,79,0.0,952.5,9.25,34.2,91,25.8,23.8,7,5,7,1,2026-04-28T03:25:25.716470+05:30
Tirupur,Tamil Nadu,11.1085,77.3411,26.5,88,0.0,972.7,8.3,33.8,73,25.4,23.6,7,5,7,1,2026-04-28T03:25:25.716478+05:30
Alappuzha,Kerala,9.4981,76.3388,26.0,93,0.0,1006.9,7.5,36.0,72,27.0,22.9,7,5,4,1,2026-04-28T03:25:25.716486+05:30
Munnar,Kerala,10.0889,77.0595,18.5,78,0.0,854.9,8.65,26.6,72,19.7,18.9,3,5,7,0,2026-04-28T03:25:25.716494+05:30
Silchar,Assam,24.8333,92.7789,21.9,95,0.1,1001.6,7.95,34.2,134,13.6,9.2,6,5,4,1,2026-04-28T03:25:25.716502+05:30
Dibrugarh,Assam,27.4728,94.912,20.8,98,0.1,993.7,8.25,18.0,99,35.9,29.0,6,5,7,1,2026-04-28T03:25:25.716510+05:30
