city,state,latitude,longitude,temp,humidity,rain,pressure,uv_index,wind_gusts,aqi,pm10,pm2_5,mosquito_risk,arthritis_risk,migraine_risk,frizz_risk,updated_at
Delhi,Delhi,28.6139,77.209,32.2,29,0.0,985.7,7.25,22.0,267,96.4,31.7,0,5,7,0,2026-04-14T10:57:01.481399+05:30
Mumbai,Maharashtra,19.076,72.8777,29.2,77,0.0,1010.3,8.0,23.8,128,108.3,67.3,7,0,4,1,2026-04-14T10:57:01.481446+05:30
Bangalore,Karnataka,12.9716,77.5946,31.7,43,0.0,915.1,9.65,31.3,84,33.5,24.3,0,5,7,1,2026-04-14T10:57:01.481462+05:30
Hyderabad,Telangana,17.385,78.4867,36.7,33,0.0,955.6,9.25,24.8,97,34.2,25.1,0,5,10,1,2026-04-14T10:57:01.481473+05:30
Chennai,Tamil Nadu,13.0827,80.2707,33.3,57,0.0,1009.4,9.35,32.4,43,17.8,12.0,0,0,4,1,2026-04-14T10:57:01.481482+05:30
Kolkata,West Bengal,22.5726,88.3639,31.9,71,0.0,1007.8,8.85,31.0,82,50.3,38.0,3,5,4,1,2026-04-14T10:57:01.481491+05:30
Pune,Maharashtra,18.5204,73.8567,36.0,24,0.0,951.5,8.6,41.0,75,35.9,18.9,0,5,10,0,2026-04-14T10:57:01.481502+05:30
Ahmedabad,Gujarat,23.0225,72.5714,35.5,28,0.0,1004.5,8.1,31.7,74,55.4,19.0,0,5,7,0,2026-04-14T10:57:01.481509+05:30
Jaipur,Rajasthan,26.9124,75.7873,34.1,25,0.0,962.8,7.95,31.7,105,168.6,31.3,0,5,7,0,2026-04-14T10:57:01.481517+05:30
Lucknow,Uttar Pradesh,26.8467,80.9462,34.0,28,0.0,995.5,7.75,36.4,149,286.8,46.6,0,5,7,0,2026-04-14T10:57:01.481525+05:30
Kanpur,Uttar Pradesh,26.4499,80.3319,33.3,33,0.0,994.1,7.8,28.1,228,448.9,55.6,0,5,7,0,2026-04-14T10:57:01.481532+05:30
Chandigarh,Chandigarh,30.7333,76.7794,30.8,37,0.0,971.2,7.2,30.2,54,23.7,15.0,0,5,7,0,2026-04-14T10:57:01.481540+05:30
Srinagar,Jammu and Kashmir,34.0837,74.7973,18.0,52,0.0,845.4,8.2,18.4,87,28.5,15.2,0,5,7,0,2026-04-14T10:57:01.481547+05:30
Jammu,Jammu and Kashmir,32.7266,74.857,30.2,42,0.0,975.1,7.85,28.1,69,28.8,16.9,0,5,7,0,2026-04-14T10:57:01.481554+05:30
Amritsar,Punjab,31.634,74.8723,29.7,47,0.0,983.7,7.8,24.5,74,20.2,17.8,4,5,7,1,2026-04-14T10:57:01.481561+05:30
Ludhiana,Punjab,30.901,75.8573,30.8,36,0.0,981.4,7.4,29.2,67,26.3,17.8,0,5,7,0,2026-04-14T10:57:01.481568+05:30
Jalandhar,Punjab,31.326,75.5762,29.8,43,0.0,982.6,7.6,24.5,72,34.1,17.5,4,5,7,0,2026-04-14T10:57:01.481577+05:30
Dehradun,Uttarakhand,30.6284,78.0322,21.8,44,0.0,833.4,7.6,41.8,40,15.8,5.7,0,5,7,0,2026-04-14T10:57:01.481584+05:30
Shimla,Himachal Pradesh,31.1048,77.1734,20.6,34,0.0,788.7,7.7,43.2,45,14.8,4.6,0,5,7,0,2026-04-14T10:57:01.481590+05:30
Manali,Himachal Pradesh,32.2396,77.1887,22.3,24,0.0,823.7,9.15,29.5,96,10.2,4.5,0,5,7,0,2026-04-14T10:57:01.481597+05:30
Gurgaon,Haryana,28.4595,77.0266,32.0,32,0.0,984.1,7.4,14.4,851,276.6,52.5,0,5,7,0,2026-04-14T10:57:01.481603+05:30
Noida,Uttar Pradesh,28.5355,77.391,32.7,29,0.0,987.2,7.3,22.0,851,276.6,52.5,0,5,7,0,2026-04-14T10:57:01.481610+05:30
Ghaziabad,Uttar Pradesh,28.6692,77.4538,31.6,35,0.0,985.4,7.25,24.5,186,84.3,28.5,0,5,7,0,2026-04-14T10:57:01.481616+05:30
Faridabad,Haryana,28.4089,77.3178,33.1,28,0.0,986.5,7.35,17.3,851,276.6,52.5,0,5,7,0,2026-04-14T10:57:01.481623+05:30
Meerut,Uttar Pradesh,28.9845,77.7064,31.2,39,0.0,984.1,7.15,32.8,186,84.3,28.5,0,5,7,0,2026-04-14T10:57:01.481629+05:30
Agra,Uttar Pradesh,27.1767,78.0081,33.1,31,0.0,990.6,7.65,23.4,513,357.6,66.6,0,5,7,0,2026-04-14T10:57:01.481635+05:30
Varanasi,Uttar Pradesh,25.3176,82.9739,35.3,27,0.0,999.8,8.4,37.4,91,419.1,53.9,0,5,10,0,2026-04-14T10:57:01.481644+05:30
Prayagraj,Uttar Pradesh,25.4358,81.8463,35.1,27,0.0,998.5,8.3,33.5,100,441.4,60.1,0,5,10,0,2026-04-14T10:57:01.481654+05:30
Gorakhpur,Uttar Pradesh,26.7606,83.3732,34.2,23,0.0,999.2,8.2,24.5,81,85.0,24.7,0,5,7,0,2026-04-14T10:57:01.481661+05:30
Bareilly,Uttar Pradesh,28.367,79.4304,31.6,39,0.0,989.0,7.55,37.1,74,28.1,20.7,0,5,7,0,2026-04-14T10:57:01.481667+05:30
Aligarh,Uttar Pradesh,27.8974,78.088,34.0,25,0.0,988.2,7.45,26.6,585,230.5,45.3,0,5,7,0,2026-04-14T10:57:01.481674+05:30
Moradabad,Uttar Pradesh,28.8386,78.7733,31.1,41,0.0,985.9,7.35,37.4,89,26.7,21.2,0,5,7,1,2026-04-14T10:57:01.481682+05:30
Saharanpur,Uttar Pradesh,29.9637,77.546,30.5,39,0.0,977.9,6.9,34.2,79,33.9,23.9,0,5,7,0,2026-04-14T10:57:01.481689+05:30
Jhansi,Uttar Pradesh,25.4484,78.5685,36.1,22,0.0,980.8,8.2,26.3,104,147.6,29.2,0,5,10,0,2026-04-14T10:57:04.695537+05:30
Surat,Gujarat,21.1702,72.8311,32.4,65,0.0,1009.3,7.8,22.3,128,110.6,43.3,3,0,4,1,2026-04-14T10:57:04.695570+05:30
Vadodara,Gujarat,22.3072,73.1812,34.9,35,0.0,1007.0,8.1,27.7,91,75.7,23.5,0,5,4,1,2026-04-14T10:57:04.695581+05:30
Rajkot,Gujarat,22.3039,70.8022,32.8,40,0.0,997.1,7.8,34.6,58,69.8,17.6,0,5,7,1,2026-04-14T10:57:04.695588+05:30
Thane,Maharashtra,19.2183,72.9781,33.1,55,0.0,1009.9,8.0,36.7,128,108.3,67.3,0,0,4,1,2026-04-14T10:57:04.695594+05:30
Nagpur,Maharashtra,21.1458,79.0882,35.2,36,0.0,975.3,8.85,15.1,107,70.3,40.5,0,5,10,1,2026-04-14T10:57:04.695601+05:30
Nashik,Maharashtra,19.9975,73.7898,34.3,28,0.0,949.0,8.25,32.4,83,41.6,18.1,0,5,7,0,2026-04-14T10:57:04.695608+05:30
Aurangabad,Maharashtra,19.8762,75.3433,36.6,20,0.0,947.2,8.95,32.4,68,32.4,19.4,0,5,10,0,2026-04-14T10:57:04.695615+05:30
Solapur,Maharashtra,17.6599,75.9064,36.2,27,0.0,959.8,9.05,28.4,76,34.0,24.4,0,5,10,0,2026-04-14T10:57:04.695622+05:30
Kolhapur,Maharashtra,16.705,74.2433,33.2,32,0.0,950.7,9.05,46.8,80,39.2,25.1,0,5,7,0,2026-04-14T10:57:04.695629+05:30
Goa,Goa,15.2993,74.124,31.5,61,0.0,1000.0,9.05,31.7,79,43.8,24.3,3,5,4,1,2026-04-14T10:57:04.695636+05:30
Jodhpur,Rajasthan,26.2389,73.0243,33.8,33,0.0,985.1,8.15,28.4,72,148.5,31.0,0,5,7,0,2026-04-14T10:57:04.695643+05:30
Udaipur,Rajasthan,24.5854,73.7125,34.2,25,0.0,949.5,8.7,39.2,46,63.8,14.0,0,5,7,0,2026-04-14T10:57:04.695649+05:30
Kota,Rajasthan,25.2138,75.8648,35.2,25,0.0,981.2,8.2,24.5,77,47.4,19.3,0,5,10,0,2026-04-14T10:57:04.695656+05:30
Bikaner,Rajasthan,28.0229,73.3119,35.2,22,0.0,983.4,8.0,21.6,43,209.5,41.4,0,5,10,0,2026-04-14T10:57:04.695663+05:30
Ajmer,Rajasthan,26.4499,74.6399,33.6,29,0.0,957.4,8.1,34.9,59,34.7,12.8,0,5,7,0,2026-04-14T10:57:04.695669+05:30
Gwalior,Madhya Pradesh,26.2183,78.1828,34.9,28,0.0,985.9,7.95,39.6,102,338.1,45.1,0,5,7,0,2026-04-14T10:57:04.695676+05:30
Indore,Madhya Pradesh,22.7196,75.8577,34.4,27,0.0,951.3,8.55,30.2,87,88.9,23.4,0,5,7,0,2026-04-14T10:57:04.695682+05:30
Bhopal,Madhya Pradesh,23.2599,77.4126,36.4,21,0.0,956.8,8.55,29.9,77,106.4,21.8,0,5,10,0,2026-04-14T10:57:04.695689+05:30
Jabalpur,Madhya Pradesh,23.1815,79.9864,34.4,30,0.0,964.5,8.65,16.6,85,130.9,25.0,0,5,7,0,2026-04-14T10:57:04.695695+05:30
Ujjain,Madhya Pradesh,23.1765,75.7885,34.7,27,0.0,956.9,8.45,31.3,103,23.6,15.0,0,5,7,0,2026-04-14T10:57:04.695702+05:30
Visakhapatnam,Andhra Pradesh,17.6868,83.2185,33.1,59,0.0,1005.7,9.15,41.8,67,32.4,21.3,0,5,4,1,2026-04-14T10:57:04.695709+05:30
Vijayawada,Andhra Pradesh,16.5062,80.648,33.1,61,0.0,1004.7,9.2,29.9,59,23.1,14.1,3,5,4,1,2026-04-14T10:57:04.695715+05:30
Guntur,Andhra Pradesh,16.3067,80.4365,33.6,58,0.0,1006.0,9.25,32.8,62,21.8,13.9,0,5,4,1,2026-04-14T10:57:04.695721+05:30
Nellore,Andhra Pradesh,14.4426,79.9865,34.4,51,0.0,1007.9,9.3,32.8,53,19.8,14.2,0,5,4,1,2026-04-14T10:57:04.695729+05:30
Kurnool,Andhra Pradesh,15.8281,78.0373,37.8,31,0.0,978.7,9.2,19.8,91,33.5,24.5,0,5,10,1,2026-04-14T10:57:04.695735+05:30
Kakinada,Andhra Pradesh,16.9891,82.2475,33.8,58,0.0,1009.4,9.2,31.7,55,27.9,15.4,0,0,4,1,2026-04-14T10:57:04.695741+05:30
Tirupati,Andhra Pradesh,13.6288,79.4192,35.0,35,0.0,994.1,9.4,33.5,66,21.1,15.0,0,5,7,1,2026-04-14T10:57:04.695747+05:30
Warangal,Telangana,17.9689,79.5941,34.3,53,0.0,980.7,9.1,24.5,82,29.7,21.0,0,5,7,1,2026-04-14T10:57:04.695753+05:30
Nizamabad,Telangana,18.6725,78.0941,36.8,28,0.0,966.9,9.05,27.0,116,42.4,34.5,0,5,10,0,2026-04-14T10:57:04.695760+05:30
Mysore,Karnataka,12.2958,76.6396,31.9,47,0.0,931.5,9.5,40.0,95,36.3,27.2,0,5,7,1,2026-04-14T10:57:04.695767+05:30
Mangalore,Karnataka,12.9141,74.856,29.4,83,0.0,1008.4,9.15,24.1,93,40.7,27.3,7,0,4,1,2026-04-14T10:57:04.695773+05:30
Hubli-Dharwad,Karnataka,15.3647,75.124,33.5,41,0.0,943.6,9.25,46.1,80,25.7,16.6,0,5,7,1,2026-04-14T10:57:04.695780+05:30
Belgaum,Karnataka,15.8497,74.4977,32.6,38,0.0,928.8,9.3,41.8,70,20.4,11.2,0,5,7,1,2026-04-14T10:57:07.908311+05:30
Coimbatore,Tamil Nadu,11.0168,76.9558,33.1,49,0.0,964.5,9.2,40.0,94,32.1,24.3,0,5,7,1,2026-04-14T10:57:07.908346+05:30
Madurai,Tamil Nadu,9.9252,78.1198,34.0,48,0.0,995.4,9.35,40.7,70,22.4,16.9,0,5,7,1,2026-04-14T10:57:07.908356+05:30
Trichy,Tamil Nadu,10.7905,78.7047,33.8,48,0.0,1002.0,9.4,23.4,61,16.5,13.2,0,5,4,1,2026-04-14T10:57:07.908364+05:30
Salem,Tamil Nadu,11.6643,78.146,33.1,53,0.0,979.9,9.45,18.4,73,25.3,18.9,0,5,7,1,2026-04-14T10:57:07.908371+05:30
Tirunelveli,Tamil Nadu,8.7139,77.7567,35.1,46,0.0,1005.3,9.3,41.8,78,26.2,18.8,0,5,7,1,2026-04-14T10:57:07.908379+05:30
Vellore,Tamil Nadu,12.9165,79.1325,33.8,38,0.0,987.2,9.45,31.0,83,24.7,17.8,0,5,7,1,2026-04-14T10:57:07.908386+05:30
Erode,Tamil Nadu,11.341,77.7172,34.5,51,0.0,991.4,9.05,26.6,60,21.9,16.9,0,5,7,1,2026-04-14T10:57:07.908393+05:30
Kochi,Kerala,9.9312,76.2673,29.2,82,0.0,1010.5,9.2,28.8,94,41.4,26.8,7,0,4,1,2026-04-14T10:57:07.908401+05:30
Thiruvananthapuram,Kerala,8.5241,76.9366,29.0,83,0.0,1009.8,9.15,25.2,79,35.3,21.8,7,0,4,1,2026-04-14T10:57:07.908408+05:30
Kozhikode,Kerala,11.2588,75.7804,31.4,73,0.0,1009.5,9.15,27.7,90,53.3,34.0,3,0,4,1,2026-04-14T10:57:07.908414+05:30
Thrissur,Kerala,10.5276,76.2144,34.1,58,0.0,1008.6,9.2,38.5,92,39.8,25.5,0,0,4,1,2026-04-14T10:57:07.908421+05:30
Kannur,Kerala,11.8745,75.3704,32.9,61,0.0,1008.7,9.15,30.6,95,51.5,35.5,3,0,4,1,2026-04-14T10:57:07.908428+05:30
Patna,Bihar,25.5941,85.1376,32.3,33,0.0,1002.6,8.55,29.2,90,114.3,39.1,0,5,4,0,2026-04-14T10:57:07.908435+05:30
Gaya,Bihar,24.7914,85.0002,33.8,30,0.0,996.3,8.6,23.4,90,226.8,34.1,0,5,7,0,2026-04-14T10:57:07.908442+05:30
Muzaffarpur,Bihar,26.1209,85.3647,31.4,57,0.0,1002.6,8.5,18.7,126,77.1,50.5,0,5,4,1,2026-04-14T10:57:07.908448+05:30
Bhagalpur,Bihar,25.2425,87.0117,31.7,63,0.0,1003.3,8.55,20.5,142,87.1,56.9,3,5,4,1,2026-04-14T10:57:07.908454+05:30
Ranchi,Jharkhand,23.3441,85.3096,32.0,24,0.0,941.3,9.15,36.0,75,110.6,20.8,0,5,7,0,2026-04-14T10:57:07.908460+05:30
Jamshedpur,Jharkhand,22.8046,86.2029,33.9,41,0.0,993.3,8.95,15.8,152,72.9,27.6,0,5,7,1,2026-04-14T10:57:07.908466+05:30
Dhanbad,Jharkhand,23.7957,86.4304,35.0,19,0.0,982.3,8.9,25.6,134,52.0,21.4,0,5,7,0,2026-04-14T10:57:07.908473+05:30
Bokaro,Jharkhand,23.6693,86.1511,34.4,23,0.0,986.5,8.9,32.8,130,103.8,28.1,0,5,7,0,2026-04-14T10:57:07.908479+05:30
Bhubaneswar,Odisha,20.2961,85.8245,32.8,69,0.0,1004.1,9.05,25.9,70,38.8,27.4,3,5,4,1,2026-04-14T10:57:07.908485+05:30
Cuttack,Odisha,20.4625,85.8828,33.9,65,0.0,1005.9,9.1,28.1,70,38.8,27.4,3,5,4,1,2026-04-14T10:57:07.908491+05:30
Rourkela,Odisha,22.2604,84.8536,35.7,27,0.0,987.6,8.85,21.2,112,68.9,19.6,0,5,10,0,2026-04-14T10:57:07.908497+05:30
Raipur,Chhattisgarh,21.2514,81.6296,37.4,22,0.0,977.0,8.9,17.6,144,148.5,47.5,0,5,10,0,2026-04-14T10:57:07.908504+05:30
Bhilai,Chhattisgarh,21.1938,81.3509,37.2,25,0.0,977.4,8.9,14.0,117,121.5,49.9,0,5,10,0,2026-04-14T10:57:07.908510+05:30
Guwahati,Assam,26.1158,91.7086,28.2,66,0.0,1004.5,8.5,30.6,133,56.6,36.0,7,5,4,1,2026-04-14T10:57:07.908515+05:30
Agartala,Tripura,23.8315,91.2868,31.2,69,0.0,1008.6,8.7,27.7,96,31.7,24.8,3,0,4,1,2026-04-14T10:57:07.908521+05:30
Shillong,Meghalaya,25.5788,91.8933,21.6,44,0.0,860.2,8.9,53.3,95,58.9,29.5,0,5,7,0,2026-04-14T10:57:07.908527+05:30
Imphal,Manipur,24.817,93.9368,22.8,65,0.0,926.5,8.8,68.4,126,72.4,35.4,3,5,7,0,2026-04-14T10:57:07.908533+05:30
Aizawl,Mizoram,23.7271,92.7176,26.7,48,0.0,897.0,8.95,47.9,99,61.7,33.1,4,5,7,0,2026-04-14T10:57:07.908540+05:30
Kohima,Nagaland,25.6701,94.1077,21.5,62,0.0,858.6,8.95,70.6,115,61.9,32.8,3,5,7,0,2026-04-14T10:57:07.908545+05:30
Gangtok,Sikkim,27.3314,88.6138,16.1,89,0.0,839.6,8.75,16.2,105,67.8,36.2,3,10,7,0,2026-04-14T10:57:07.908551+05:30
Siliguri,West Bengal,26.7271,88.3953,23.3,78,0.0,997.7,8.45,36.7,153,94.3,48.8,3,5,7,1,2026-04-14T10:57:11.122897+05:30
Durgapur,West Bengal,23.5204,87.3119,34.5,45,0.0,997.1,8.8,20.2,162,93.8,38.8,0,5,7,1,2026-04-14T10:57:11.122932+05:30
Asansol,West Bengal,23.6739,86.9524,34.6,38,0.0,995.7,8.85,21.6,131,65.7,25.1,0,5,7,1,2026-04-14T10:57:11.122943+05:30
Pondicherry,Puducherry,11.9139,79.8145,32.9,60,0.0,1010.9,9.3,27.0,38,16.8,11.6,0,0,4,1,2026-04-14T10:57:11.122950+05:30
Port Blair,Andaman and Nicobar Islands,11.6234,92.7265,29.3,74,0.0,1009.3,7.7,25.2,61,27.5,17.8,7,0,4,1,2026-04-14T10:57:11.122959+05:30
Haridwar,Uttarakhand,29.9457,78.1642,31.1,43,0.0,976.3,7.0,35.6,61,19.6,14.3,0,5,7,1,2026-04-14T10:57:11.122966+05:30
Rishikesh,Uttarakhand,30.0869,78.2676,30.9,41,0.0,968.9,7.1,37.4,50,15.2,9.0,0,5,7,1,2026-04-14T10:57:11.122973+05:30
Nainital,Uttarakhand,29.3919,79.4542,25.0,35,0.0,810.6,7.95,59.4,49,14.7,9.3,4,5,7,0,2026-04-14T10:57:11.122980+05:30
Mussoorie,Uttarakhand,30.4599,78.0664,22.6,51,0.0,806.6,7.5,43.6,57,16.9,9.4,0,5,7,0,2026-04-14T10:57:11.122988+05:30
Dharamshala,Himachal Pradesh,32.219,76.3234,24.2,38,0.0,872.1,7.75,25.6,48,16.1,5.8,0,5,7,0,2026-04-14T10:57:11.122994+05:30
Dalhousie,Himachal Pradesh,32.5387,75.971,22.5,34,0.0,807.3,8.0,22.3,61,20.7,10.0,0,5,7,0,2026-04-14T10:57:11.123002+05:30
Patiala,Punjab,30.3398,76.3869,31.9,34,0.0,980.7,7.1,33.5,273,369.7,47.1,0,5,7,0,2026-04-14T10:57:11.123009+05:30
Bhatinda,Punjab,30.211,74.9455,33.4,24,0.0,986.6,7.75,28.8,59,19.4,12.5,0,5,7,0,2026-04-14T10:57:11.123016+05:30
Rohtak,Haryana,28.8955,76.6066,33.2,26,0.0,984.5,7.3,25.9,364,150.9,37.3,0,5,7,0,2026-04-14T10:57:11.123022+05:30
Panipat,Haryana,29.3909,76.9635,32.1,35,0.0,983.0,7.1,32.0,727,369.7,51.2,0,5,7,0,2026-04-14T10:57:11.123029+05:30
Mathura,Uttar Pradesh,27.4924,77.6737,32.9,32,0.0,989.6,7.6,22.7,593,272.9,57.7,0,5,7,0,2026-04-14T10:57:11.123035+05:30
Vrindavan,Uttar Pradesh,27.5823,77.7027,33.2,29,0.0,989.8,7.55,20.5,593,272.9,57.7,0,5,7,0,2026-04-14T10:57:11.123057+05:30
Ayodhya,Uttar Pradesh,26.7922,82.1998,35.9,20,0.0,997.1,7.95,38.9,86,299.0,51.1,0,5,10,0,2026-04-14T10:57:11.123065+05:30
Ratlam,Madhya Pradesh,23.3315,75.0367,32.1,41,0.0,957.6,8.4,30.6,73,36.8,16.5,0,5,7,1,2026-04-14T10:57:11.123072+05:30
Sagar,Madhya Pradesh,23.8388,78.7378,36.0,19,0.0,953.4,8.55,27.7,106,105.9,20.9,0,5,10,0,2026-04-14T10:57:11.123078+05:30
Satna,Madhya Pradesh,24.6005,80.8322,35.3,20,0.0,974.6,8.6,27.7,92,186.7,25.9,0,5,10,0,2026-04-14T10:57:11.123084+05:30
Akola,Maharashtra,20.7002,77.0082,36.4,28,0.0,977.4,8.8,27.0,64,67.8,23.3,0,5,10,0,2026-04-14T10:57:11.123091+05:30
Amravati,Maharashtra,20.9374,77.7796,36.7,23,0.0,969.6,8.8,22.0,68,93.8,29.1,0,5,10,0,2026-04-14T10:57:11.123098+05:30
Latur,Maharashtra,18.4088,76.5604,34.8,28,0.0,942.9,9.05,30.2,76,22.8,16.5,0,5,7,0,2026-04-14T10:57:11.123104+05:30
Nanded,Maharashtra,19.1383,77.3091,35.5,34,0.0,971.1,8.95,19.8,72,22.6,15.5,0,5,10,1,2026-04-14T10:57:11.123111+05:30
Gulbarga,Karnataka,17.3297,76.8343,37.2,31,0.0,960.9,9.1,21.6,96,36.9,28.8,0,5,10,1,2026-04-14T10:57:11.123117+05:30
Bidar,Karnataka,17.9104,77.5199,35.7,27,0.0,938.3,9.1,24.1,124,46.3,36.4,0,5,10,0,2026-04-14T10:57:11.123123+05:30
Hospet,Karnataka,15.2689,76.3909,32.2,54,0.0,958.1,9.25,29.9,97,28.5,19.7,0,5,7,1,2026-04-14T10:57:11.123129+05:30
Tirupur,Tamil Nadu,11.1085,77.3411,33.9,48,0.0,977.8,8.95,29.2,77,21.7,17.8,0,5,7,1,2026-04-14T10:57:11.123135+05:30
Alappuzha,Kerala,9.4981,76.3388,29.3,82,0.0,1010.7,8.75,25.9,94,44.8,28.8,7,0,4,1,2026-04-14T10:57:11.123142+05:30
Munnar,Kerala,10.0889,77.0595,28.4,58,0.0,861.2,9.75,29.5,81,26.3,17.9,4,5,7,1,2026-04-14T10:57:11.123149+05:30
Silchar,Assam,24.8333,92.7789,25.6,84,0.0,1008.9,8.7,32.4,146,93.1,49.7,7,0,4,1,2026-04-14T10:57:11.123156+05:30
Dibrugarh,Assam,27.4728,94.912,25.2,70,0.0,999.3,8.55,20.5,99,66.8,30.5,7,5,7,1,2026-04-14T10:57:11.123161+05:30
