city,state,latitude,longitude,temp,humidity,rain,pressure,uv_index,wind_gusts,aqi,pm10,pm2_5,mosquito_risk,arthritis_risk,migraine_risk,frizz_risk,updated_at
Delhi,Delhi,28.6139,77.209,17.8,63,0.0,982.8,5.7,29.5,160,214.7,73.1,3,5,3,0,2026-03-01T04:56:11.648574+05:30
Mumbai,Maharashtra,19.076,72.8777,25.7,72,0.0,1007.8,7.25,23.0,70,30.7,22.5,7,5,4,1,2026-03-01T04:56:11.648608+05:30
Bangalore,Karnataka,12.9716,77.5946,20.2,84,0.0,909.4,9.05,25.2,130,72.4,71.2,3,5,7,1,2026-03-01T04:56:11.648623+05:30
Hyderabad,Telangana,17.385,78.4867,21.8,79,0.0,950.9,8.3,24.5,113,50.1,49.1,3,5,7,1,2026-03-01T04:56:11.648632+05:30
Chennai,Tamil Nadu,13.0827,80.2707,23.7,92,0.0,1006.4,8.8,33.1,149,57.9,53.6,3,5,4,1,2026-03-01T04:56:11.648640+05:30
Kolkata,West Bengal,22.5726,88.3639,22.6,96,0.0,1005.7,7.6,25.9,95,24.6,22.6,3,5,4,1,2026-03-01T04:56:11.648648+05:30
Pune,Maharashtra,18.5204,73.8567,14.8,96,0.0,946.1,7.85,34.9,66,44.0,40.5,3,10,7,0,2026-03-01T04:56:11.648659+05:30
Ahmedabad,Gujarat,23.0225,72.5714,19.7,69,0.0,1002.5,7.05,20.9,91,49.8,41.3,3,5,4,0,2026-03-01T04:56:11.648667+05:30
Jaipur,Rajasthan,26.9124,75.7873,20.3,60,0.0,958.9,6.45,25.9,76,101.7,37.4,0,5,7,0,2026-03-01T04:56:11.648674+05:30
Lucknow,Uttar Pradesh,26.8467,80.9462,17.1,76,0.0,992.8,6.2,37.1,142,95.7,56.2,3,5,7,0,2026-03-01T04:56:11.648682+05:30
Kanpur,Uttar Pradesh,26.4499,80.3319,16.2,83,0.0,991.3,6.2,31.0,151,153.2,70.5,3,10,7,0,2026-03-01T04:56:11.648705+05:30
Chandigarh,Chandigarh,30.7333,76.7794,14.9,66,0.0,967.9,5.6,32.0,92,40.7,29.5,3,5,3,0,2026-03-01T04:56:11.648712+05:30
Srinagar,Jammu and Kashmir,34.0837,74.7973,3.0,76,0.0,835.9,6.45,15.5,132,89.6,64.3,3,5,7,1,2026-03-01T04:56:11.648719+05:30
Jammu,Jammu and Kashmir,32.7266,74.857,13.8,76,0.0,972.5,6.15,24.1,95,46.6,38.5,3,5,7,0,2026-03-01T04:56:11.648725+05:30
Amritsar,Punjab,31.634,74.8723,14.5,87,0.0,980.9,6.1,20.5,149,83.1,59.4,3,10,7,0,2026-03-01T04:56:11.648732+05:30
Ludhiana,Punjab,30.901,75.8573,17.3,73,0.0,978.6,5.85,27.0,156,86.6,73.1,3,5,3,0,2026-03-01T04:56:11.648741+05:30
Jalandhar,Punjab,31.326,75.5762,15.8,81,0.0,979.9,5.95,23.4,152,105.9,86.6,3,10,3,0,2026-03-01T04:56:11.648749+05:30
Dehradun,Uttarakhand,30.6284,78.0322,8.1,46,0.0,824.8,5.95,34.2,65,27.4,19.7,0,5,3,1,2026-03-01T04:56:11.648756+05:30
Shimla,Himachal Pradesh,31.1048,77.1734,5.8,58,0.0,778.0,6.0,50.8,68,49.0,26.1,0,5,3,1,2026-03-01T04:56:11.648763+05:30
Manali,Himachal Pradesh,32.2396,77.1887,9.5,15,0.0,814.1,7.3,38.5,44,19.6,13.1,0,5,7,1,2026-03-01T04:56:11.648769+05:30
Gurgaon,Haryana,28.4595,77.0266,14.0,79,0.0,981.0,5.8,25.9,174,493.6,100.8,3,5,3,0,2026-03-01T04:56:11.648776+05:30
Noida,Uttar Pradesh,28.5355,77.391,17.7,64,0.0,984.4,5.75,28.8,174,493.6,100.8,3,5,3,0,2026-03-01T04:56:11.648783+05:30
Ghaziabad,Uttar Pradesh,28.6692,77.4538,16.1,71,0.0,982.3,5.7,27.4,156,165.8,61.9,3,5,3,0,2026-03-01T04:56:11.648788+05:30
Faridabad,Haryana,28.4089,77.3178,14.7,77,0.0,983.4,5.75,25.6,174,493.6,100.8,3,5,3,0,2026-03-01T04:56:11.648794+05:30
Meerut,Uttar Pradesh,28.9845,77.7064,14.3,82,0.0,980.8,5.6,32.0,156,165.8,61.9,3,10,3,0,2026-03-01T04:56:11.648800+05:30
Agra,Uttar Pradesh,27.1767,78.0081,15.3,80,0.0,987.9,6.05,21.6,150,378.1,82.0,3,5,7,0,2026-03-01T04:56:11.648806+05:30
Varanasi,Uttar Pradesh,25.3176,82.9739,18.1,80,0.0,996.8,6.85,27.7,115,85.9,63.8,3,5,7,0,2026-03-01T04:56:11.648815+05:30
Prayagraj,Uttar Pradesh,25.4358,81.8463,19.1,73,0.0,995.2,6.75,24.5,126,101.0,66.1,3,5,7,0,2026-03-01T04:56:11.648822+05:30
Gorakhpur,Uttar Pradesh,26.7606,83.3732,16.7,84,0.0,995.6,6.55,34.2,125,75.2,49.9,3,10,7,0,2026-03-01T04:56:11.648827+05:30
Bareilly,Uttar Pradesh,28.367,79.4304,15.0,82,0.0,985.9,5.85,33.1,142,75.4,45.6,3,10,3,0,2026-03-01T04:56:11.648833+05:30
Aligarh,Uttar Pradesh,27.8974,78.088,14.5,79,0.0,985.3,5.8,27.4,154,278.5,75.7,3,5,3,0,2026-03-01T04:56:11.648839+05:30
Moradabad,Uttar Pradesh,28.8386,78.7733,14.6,85,0.0,982.7,5.7,33.5,141,89.9,56.7,3,10,3,0,2026-03-01T04:56:11.648845+05:30
Saharanpur,Uttar Pradesh,29.9637,77.546,13.7,79,0.0,974.8,5.35,40.3,140,83.4,67.5,3,5,3,0,2026-03-01T04:56:11.648851+05:30
Jhansi,Uttar Pradesh,25.4484,78.5685,18.5,63,0.0,977.2,6.65,23.0,77,27.4,19.7,3,5,7,0,2026-03-01T04:56:14.898091+05:30
Surat,Gujarat,21.1702,72.8311,22.9,77,0.0,1006.4,6.95,26.6,92,39.2,28.2,3,5,4,1,2026-03-01T04:56:14.898118+05:30
Vadodara,Gujarat,22.3072,73.1812,21.0,81,0.0,1004.2,7.1,11.9,107,46.1,42.4,3,5,4,1,2026-03-01T04:56:14.898131+05:30
Rajkot,Gujarat,22.3039,70.8022,19.5,91,0.0,994.5,6.9,23.4,61,48.5,15.7,3,10,7,1,2026-03-01T04:56:14.898141+05:30
Thane,Maharashtra,19.2183,72.9781,20.9,93,0.0,1007.5,7.25,35.3,70,30.7,22.5,3,5,4,1,2026-03-01T04:56:14.898150+05:30
Nagpur,Maharashtra,21.1458,79.0882,20.9,79,0.0,971.5,7.65,26.6,151,41.4,41.0,3,5,7,1,2026-03-01T04:56:14.898159+05:30
Nashik,Maharashtra,19.9975,73.7898,18.4,72,0.0,944.0,7.45,27.0,66,46.0,43.0,3,5,7,0,2026-03-01T04:56:14.898168+05:30
Aurangabad,Maharashtra,19.8762,75.3433,19.3,68,0.0,942.4,8.0,27.0,54,26.1,24.2,3,5,7,0,2026-03-01T04:56:14.898176+05:30
Solapur,Maharashtra,17.6599,75.9064,20.4,75,0.0,955.3,8.25,18.4,70,23.5,23.0,3,5,7,0,2026-03-01T04:56:14.898184+05:30
Kolhapur,Maharashtra,16.705,74.2433,14.9,88,0.0,944.9,8.35,38.2,54,27.1,24.0,3,10,7,0,2026-03-01T04:56:14.898191+05:30
Goa,Goa,15.2993,74.124,21.8,88,0.0,996.4,8.4,34.6,44,23.8,19.6,3,5,7,1,2026-03-01T04:56:14.898199+05:30
Jodhpur,Rajasthan,26.2389,73.0243,20.0,59,0.0,982.0,6.75,18.7,71,63.8,18.3,0,5,7,0,2026-03-01T04:56:14.898207+05:30
Udaipur,Rajasthan,24.5854,73.7125,16.3,68,0.0,945.1,7.35,27.7,64,20.7,15.6,3,5,7,0,2026-03-01T04:56:14.898214+05:30
Kota,Rajasthan,25.2138,75.8648,17.9,68,0.0,977.7,6.8,18.4,68,29.2,27.2,3,5,7,0,2026-03-01T04:56:14.898222+05:30
Bikaner,Rajasthan,28.0229,73.3119,20.9,50,0.0,981.4,6.45,15.8,59,52.3,24.2,0,5,7,0,2026-03-01T04:56:14.898230+05:30
Ajmer,Rajasthan,26.4499,74.6399,18.8,63,0.0,953.3,6.7,20.2,68,42.5,30.6,3,5,7,0,2026-03-01T04:56:14.898238+05:30
Gwalior,Madhya Pradesh,26.2183,78.1828,19.6,73,0.0,982.8,6.35,24.8,87,87.3,40.9,3,5,7,0,2026-03-01T04:56:14.898245+05:30
Indore,Madhya Pradesh,22.7196,75.8577,16.2,78,0.0,946.5,7.35,19.4,67,32.5,30.9,3,5,7,0,2026-03-01T04:56:14.898253+05:30
Bhopal,Madhya Pradesh,23.2599,77.4126,16.6,75,0.0,952.3,7.2,23.0,72,17.7,17.1,3,5,7,0,2026-03-01T04:56:14.898261+05:30
Jabalpur,Madhya Pradesh,23.1815,79.9864,22.2,60,0.0,960.2,7.3,30.6,117,30.7,30.5,0,5,7,0,2026-03-01T04:56:14.898268+05:30
Ujjain,Madhya Pradesh,23.1765,75.7885,16.4,79,0.0,952.3,7.25,19.4,80,31.9,29.5,3,5,7,0,2026-03-01T04:56:14.898277+05:30
Visakhapatnam,Andhra Pradesh,17.6868,83.2185,23.4,91,0.0,1003.4,8.3,39.6,116,65.0,62.6,3,5,4,1,2026-03-01T04:56:14.898284+05:30
Vijayawada,Andhra Pradesh,16.5062,80.648,23.8,91,0.0,1001.9,8.4,25.9,141,63.6,61.5,3,5,4,1,2026-03-01T04:56:14.898292+05:30
Guntur,Andhra Pradesh,16.3067,80.4365,24.2,91,0.0,1002.9,8.4,29.2,131,58.0,56.1,3,5,4,1,2026-03-01T04:56:14.898300+05:30
Nellore,Andhra Pradesh,14.4426,79.9865,23.4,93,0.0,1004.9,8.6,29.2,128,59.0,57.3,3,5,4,1,2026-03-01T04:56:14.898308+05:30
Kurnool,Andhra Pradesh,15.8281,78.0373,24.9,59,0.0,974.7,8.4,21.6,101,48.8,48.0,0,5,7,1,2026-03-01T04:56:14.898317+05:30
Kakinada,Andhra Pradesh,16.9891,82.2475,22.2,95,0.0,1007.1,8.35,34.9,127,69.4,64.7,3,5,4,1,2026-03-01T04:56:14.898324+05:30
Tirupati,Andhra Pradesh,13.6288,79.4192,21.3,76,0.0,990.7,8.75,27.0,144,75.2,73.3,3,5,7,1,2026-03-01T04:56:14.898332+05:30
Warangal,Telangana,17.9689,79.5941,22.7,82,0.0,976.9,8.1,30.2,124,51.3,50.8,3,5,7,1,2026-03-01T04:56:14.898340+05:30
Nizamabad,Telangana,18.6725,78.0941,22.8,74,0.0,962.8,8.0,19.1,117,53.7,53.2,3,5,7,1,2026-03-01T04:56:14.898347+05:30
Mysore,Karnataka,12.2958,76.6396,20.8,91,0.0,926.2,9.1,37.4,127,39.5,38.6,3,5,7,1,2026-03-01T04:56:14.898355+05:30
Mangalore,Karnataka,12.9141,74.856,27.8,74,0.0,1005.0,8.65,32.4,45,15.6,12.7,7,5,4,1,2026-03-01T04:56:14.898363+05:30
Hubli-Dharwad,Karnataka,15.3647,75.124,18.6,74,0.0,938.2,8.6,32.4,52,17.7,15.5,3,5,7,0,2026-03-01T04:56:14.898371+05:30
Belgaum,Karnataka,15.8497,74.4977,17.7,55,0.0,922.4,8.65,38.5,50,25.1,21.5,0,5,7,0,2026-03-01T04:56:18.150057+05:30
Coimbatore,Tamil Nadu,11.0168,76.9558,21.5,93,0.0,960.1,9.1,34.2,140,64.7,64.0,3,5,7,1,2026-03-01T04:56:18.150084+05:30
Madurai,Tamil Nadu,9.9252,78.1198,22.4,95,0.0,991.7,9.0,24.1,150,71.0,69.4,3,5,7,1,2026-03-01T04:56:18.150096+05:30
Trichy,Tamil Nadu,10.7905,78.7047,22.1,95,0.0,998.8,8.95,25.6,150,70.8,68.0,3,5,7,1,2026-03-01T04:56:18.150105+05:30
Salem,Tamil Nadu,11.6643,78.146,23.7,84,0.0,976.2,8.95,27.0,139,66.6,65.2,3,5,7,1,2026-03-01T04:56:18.150112+05:30
Tirunelveli,Tamil Nadu,8.7139,77.7567,23.1,90,0.0,1001.8,9.05,40.7,140,60.1,59.5,3,5,4,1,2026-03-01T04:56:18.150120+05:30
Vellore,Tamil Nadu,12.9165,79.1325,19.8,86,0.0,983.6,8.85,36.0,152,82.4,80.6,3,10,7,1,2026-03-01T04:56:18.150127+05:30
Erode,Tamil Nadu,11.341,77.7172,24.0,78,0.0,987.9,8.95,25.2,126,59.6,58.1,3,5,7,1,2026-03-01T04:56:18.150135+05:30
Kochi,Kerala,9.9312,76.2673,27.0,80,0.0,1006.9,8.9,38.5,114,36.1,35.9,7,5,4,1,2026-03-01T04:56:18.150142+05:30
Thiruvananthapuram,Kerala,8.5241,76.9366,26.9,86,0.0,1005.8,8.95,25.6,93,31.9,31.2,7,5,4,1,2026-03-01T04:56:18.150150+05:30
Kozhikode,Kerala,11.2588,75.7804,27.7,76,0.0,1005.9,8.75,32.8,69,18.1,14.5,7,5,4,1,2026-03-01T04:56:18.150157+05:30
Thrissur,Kerala,10.5276,76.2144,24.9,91,0.0,1005.3,8.85,39.6,114,38.8,38.5,3,5,4,1,2026-03-01T04:56:18.150165+05:30
Kannur,Kerala,11.8745,75.3704,26.1,79,0.0,1005.3,8.75,38.5,51,14.3,12.5,7,5,4,1,2026-03-01T04:56:18.150173+05:30
Patna,Bihar,25.5941,85.1376,20.0,73,0.0,999.6,7.0,29.2,117,62.6,47.0,3,5,7,0,2026-03-01T04:56:18.150180+05:30
Gaya,Bihar,24.7914,85.0002,20.2,66,0.0,993.3,7.1,20.5,86,54.1,42.0,3,5,7,0,2026-03-01T04:56:18.150187+05:30
Muzaffarpur,Bihar,26.1209,85.3647,17.2,80,0.0,999.3,6.95,32.8,129,61.2,45.8,3,5,7,0,2026-03-01T04:56:18.150195+05:30
Bhagalpur,Bihar,25.2425,87.0117,20.3,63,0.0,1000.2,7.05,24.5,96,56.9,36.4,3,5,4,0,2026-03-01T04:56:18.150202+05:30
Ranchi,Jharkhand,23.3441,85.3096,20.2,47,0.0,936.4,7.75,22.0,72,40.9,36.3,0,5,7,0,2026-03-01T04:56:18.150209+05:30
Jamshedpur,Jharkhand,22.8046,86.2029,20.4,81,0.0,990.4,7.7,12.6,114,81.3,76.1,3,5,7,1,2026-03-01T04:56:18.150217+05:30
Dhanbad,Jharkhand,23.7957,86.4304,19.3,63,0.0,979.0,7.55,31.0,139,94.5,85.4,3,5,7,0,2026-03-01T04:56:18.150224+05:30
Bokaro,Jharkhand,23.6693,86.1511,19.6,55,0.0,983.3,7.55,26.3,131,93.1,86.1,0,5,7,0,2026-03-01T04:56:18.150231+05:30
Bhubaneswar,Odisha,20.2961,85.8245,23.1,95,0.0,1001.9,8.05,32.0,94,41.1,39.7,3,5,4,1,2026-03-01T04:56:18.150238+05:30
Cuttack,Odisha,20.4625,85.8828,22.9,97,0.0,1003.9,8.05,33.1,94,41.1,39.7,3,5,4,1,2026-03-01T04:56:18.150245+05:30
Rourkela,Odisha,22.2604,84.8536,20.4,70,0.0,984.2,7.6,25.6,92,56.6,55.1,3,5,7,0,2026-03-01T04:56:18.150252+05:30
Raipur,Chhattisgarh,21.2514,81.6296,23.2,64,0.0,973.2,7.7,25.9,156,83.1,82.2,3,5,7,0,2026-03-01T04:56:18.150259+05:30
Bhilai,Chhattisgarh,21.1938,81.3509,21.2,78,0.0,973.4,7.75,26.6,158,85.9,85.0,3,5,7,1,2026-03-01T04:56:18.150266+05:30
Guwahati,Assam,26.1158,91.7086,20.1,83,0.0,1001.6,7.0,28.8,162,87.1,77.1,3,5,4,1,2026-03-01T04:56:18.150273+05:30
Agartala,Tripura,23.8315,91.2868,17.6,97,0.0,1006.4,7.35,24.1,155,44.5,38.9,3,10,4,1,2026-03-01T04:56:18.150280+05:30
Shillong,Meghalaya,25.5788,91.8933,8.1,68,0.0,851.5,7.35,50.4,156,66.6,42.7,3,5,7,0,2026-03-01T04:56:18.150287+05:30
Imphal,Manipur,24.817,93.9368,12.0,78,0.0,921.3,7.55,53.3,150,92.4,77.1,3,5,7,0,2026-03-01T04:56:18.150295+05:30
Aizawl,Mizoram,23.7271,92.7176,12.7,75,0.0,890.1,7.55,38.2,123,62.9,54.4,3,5,7,0,2026-03-01T04:56:18.150302+05:30
Kohima,Nagaland,25.6701,94.1077,10.6,73,0.0,851.5,7.4,79.9,152,73.1,66.8,3,5,7,0,2026-03-01T04:56:18.150309+05:30
Gangtok,Sikkim,27.3314,88.6138,9.6,83,0.1,832.2,5.0,12.2,139,50.3,39.8,6,10,3,0,2026-03-01T04:56:18.150316+05:30
Siliguri,West Bengal,26.7271,88.3953,16.0,68,0.0,992.9,7.0,22.7,170,134.6,109.0,3,5,7,0,2026-03-01T04:56:21.405641+05:30
Durgapur,West Bengal,23.5204,87.3119,20.4,81,0.0,994.4,7.55,27.7,116,68.9,63.3,3,5,7,1,2026-03-01T04:56:21.405665+05:30
Asansol,West Bengal,23.6739,86.9524,20.5,69,0.0,992.9,7.55,26.3,101,62.6,53.7,3,5,7,0,2026-03-01T04:56:21.405675+05:30
Pondicherry,Puducherry,11.9139,79.8145,22.3,100,0.0,1007.7,8.8,29.2,138,56.2,52.2,3,5,4,1,2026-03-01T04:56:21.405682+05:30
Port Blair,Andaman and Nicobar Islands,11.6234,92.7265,26.7,71,0.0,1005.6,8.75,25.9,97,25.3,22.1,7,5,4,1,2026-03-01T04:56:21.405708+05:30
Haridwar,Uttarakhand,29.9457,78.1642,14.6,74,0.0,973.2,5.45,40.0,109,51.8,45.9,3,5,3,0,2026-03-01T04:56:21.405715+05:30
Rishikesh,Uttarakhand,30.0869,78.2676,14.4,68,0.0,965.8,5.5,36.7,95,43.8,36.2,3,5,3,0,2026-03-01T04:56:21.405722+05:30
Nainital,Uttarakhand,29.3919,79.4542,13.0,47,0.0,801.5,6.35,47.2,85,39.5,30.3,0,5,7,0,2026-03-01T04:56:21.405728+05:30
Mussoorie,Uttarakhand,30.4599,78.0664,10.9,45,0.0,798.0,5.85,42.5,91,36.3,30.4,0,5,3,1,2026-03-01T04:56:21.405734+05:30
Dharamshala,Himachal Pradesh,32.219,76.3234,15.1,41,0.0,866.3,6.05,27.0,57,20.7,10.7,0,5,7,0,2026-03-01T04:56:21.405740+05:30
Dalhousie,Himachal Pradesh,32.5387,75.971,11.7,35,0.0,799.9,6.25,27.4,85,34.8,28.8,0,5,7,1,2026-03-01T04:56:21.405747+05:30
Patiala,Punjab,30.3398,76.3869,15.2,86,0.0,977.8,5.55,29.2,158,225.4,71.2,3,10,3,0,2026-03-01T04:56:21.405754+05:30
Bhatinda,Punjab,30.211,74.9455,15.0,87,0.0,983.9,6.2,20.5,149,85.0,65.0,3,10,7,0,2026-03-01T04:56:21.405760+05:30
Rohtak,Haryana,28.8955,76.6066,14.6,77,0.0,981.4,5.7,27.4,163,248.7,81.5,3,5,3,0,2026-03-01T04:56:21.405766+05:30
Panipat,Haryana,29.3909,76.9635,14.1,86,0.0,980.0,5.5,28.8,199,446.1,94.1,3,10,3,0,2026-03-01T04:56:21.405772+05:30
Mathura,Uttar Pradesh,27.4924,77.6737,15.3,76,0.0,986.9,5.95,23.0,151,376.3,92.7,3,5,3,0,2026-03-01T04:56:21.405778+05:30
Vrindavan,Uttar Pradesh,27.5823,77.7027,14.7,79,0.0,987.2,5.95,25.2,151,376.3,92.7,3,5,3,0,2026-03-01T04:56:21.405785+05:30
Ayodhya,Uttar Pradesh,26.7922,82.1998,16.4,83,0.0,994.3,6.35,36.0,130,85.4,55.6,3,10,7,0,2026-03-01T04:56:21.405791+05:30
Ratlam,Madhya Pradesh,23.3315,75.0367,19.7,64,0.0,953.6,7.2,27.7,74,28.1,25.1,3,5,7,0,2026-03-01T04:56:21.405797+05:30
Sagar,Madhya Pradesh,23.8388,78.7378,19.6,64,0.0,948.7,7.15,19.8,65,12.5,12.3,3,5,7,0,2026-03-01T04:56:21.405802+05:30
Satna,Madhya Pradesh,24.6005,80.8322,20.1,61,0.0,970.2,7.1,28.1,91,61.2,48.2,3,5,7,0,2026-03-01T04:56:21.405808+05:30
Akola,Maharashtra,20.7002,77.0082,21.0,68,0.0,974.1,7.7,28.8,80,17.0,16.2,3,5,7,0,2026-03-01T04:56:21.405815+05:30
Amravati,Maharashtra,20.9374,77.7796,21.8,64,0.0,965.8,7.65,27.0,97,18.9,18.2,3,5,7,0,2026-03-01T04:56:21.405822+05:30
Latur,Maharashtra,18.4088,76.5604,20.5,63,0.0,937.6,8.15,27.0,70,32.4,32.0,3,5,7,0,2026-03-01T04:56:21.405827+05:30
Nanded,Maharashtra,19.1383,77.3091,20.9,68,0.0,966.8,7.9,17.6,80,32.9,32.6,3,5,7,0,2026-03-01T04:56:21.405833+05:30
Gulbarga,Karnataka,17.3297,76.8343,23.5,64,0.0,956.7,8.25,15.5,82,34.7,34.5,3,5,7,1,2026-03-01T04:56:21.405839+05:30
Bidar,Karnataka,17.9104,77.5199,22.5,65,0.0,932.8,8.2,18.0,107,47.0,46.6,3,5,7,0,2026-03-01T04:56:21.405844+05:30
Hospet,Karnataka,15.2689,76.3909,23.7,62,0.0,954.2,8.55,24.5,100,17.3,17.0,3,5,7,0,2026-03-01T04:56:21.405850+05:30
Tirupur,Tamil Nadu,11.1085,77.3411,23.4,90,0.0,973.9,9.1,20.2,145,69.4,68.5,3,5,7,1,2026-03-01T04:56:21.405856+05:30
Alappuzha,Kerala,9.4981,76.3388,27.0,83,0.0,1006.8,8.9,34.6,98,33.4,32.5,7,5,4,1,2026-03-01T04:56:21.405862+05:30
Munnar,Kerala,10.0889,77.0595,17.4,89,0.0,853.4,9.4,28.1,126,56.8,55.5,3,10,7,0,2026-03-01T04:56:21.405868+05:30
Silchar,Assam,24.8333,92.7789,16.5,86,0.0,1005.5,7.3,22.3,157,87.5,74.3,3,10,4,0,2026-03-01T04:56:21.405874+05:30
Dibrugarh,Assam,27.4728,94.912,18.0,90,0.1,997.4,7.05,16.2,152,65.9,63.1,6,10,7,1,2026-03-01T04:56:21.405879+05:30
