city,state,latitude,longitude,temp,humidity,rain,pressure,uv_index,wind_gusts,aqi,pm10,pm2_5,mosquito_risk,arthritis_risk,migraine_risk,frizz_risk,updated_at
Delhi,Delhi,28.6139,77.209,21.3,56,0.0,983.7,7.25,30.2,462,244.9,47.1,0,5,7,0,2026-04-13T05:09:02.471937+05:30
Mumbai,Maharashtra,19.076,72.8777,28.4,81,0.0,1007.6,8.0,20.2,122,76.4,36.2,7,5,4,1,2026-04-13T05:09:02.471985+05:30
Bangalore,Karnataka,12.9716,77.5946,23.2,69,0.0,911.7,9.6,33.1,94,41.2,33.9,3,5,7,1,2026-04-13T05:09:02.472001+05:30
Hyderabad,Telangana,17.385,78.4867,28.4,54,0.0,952.9,9.25,29.9,85,43.1,32.4,4,5,7,1,2026-04-13T05:09:02.472011+05:30
Chennai,Tamil Nadu,13.0827,80.2707,27.0,88,0.0,1007.5,9.35,34.9,45,18.2,10.6,7,5,4,1,2026-04-13T05:09:02.472021+05:30
Kolkata,West Bengal,22.5726,88.3639,26.3,93,0.0,1005.7,8.85,28.8,85,23.5,19.4,7,5,4,1,2026-04-13T05:09:02.472030+05:30
Pune,Maharashtra,18.5204,73.8567,24.9,62,0.0,947.7,8.6,38.5,101,52.0,39.9,3,5,7,1,2026-04-13T05:09:02.472042+05:30
Ahmedabad,Gujarat,23.0225,72.5714,25.9,36,0.0,1001.2,8.1,26.3,78,43.3,20.1,4,5,4,0,2026-04-13T05:09:02.472051+05:30
Jaipur,Rajasthan,26.9124,75.7873,23.2,42,0.0,960.1,7.9,24.5,132,251.5,40.0,0,5,7,0,2026-04-13T05:09:02.472058+05:30
Lucknow,Uttar Pradesh,26.8467,80.9462,21.9,58,0.0,994.0,7.75,37.4,124,183.9,43.5,0,5,7,0,2026-04-13T05:09:02.472066+05:30
Kanpur,Uttar Pradesh,26.4499,80.3319,21.4,60,0.0,992.5,7.75,28.1,284,614.7,89.6,0,5,7,0,2026-04-13T05:09:02.472075+05:30
Chandigarh,Chandigarh,30.7333,76.7794,17.9,71,0.0,968.9,7.2,28.8,57,20.5,13.0,3,5,7,0,2026-04-13T05:09:02.472083+05:30
Srinagar,Jammu and Kashmir,34.0837,74.7973,5.3,89,0.0,838.9,8.15,14.4,94,59.5,50.5,3,10,7,0,2026-04-13T05:09:02.472091+05:30
Jammu,Jammu and Kashmir,32.7266,74.857,17.0,75,0.0,973.5,7.4,31.7,63,24.4,21.5,3,5,7,0,2026-04-13T05:09:02.472098+05:30
Amritsar,Punjab,31.634,74.8723,17.9,73,0.0,981.9,7.8,20.9,71,33.6,29.4,3,5,7,0,2026-04-13T05:09:02.472105+05:30
Ludhiana,Punjab,30.901,75.8573,19.2,65,0.0,979.5,7.45,26.3,67,29.9,27.8,3,5,7,0,2026-04-13T05:09:02.472118+05:30
Jalandhar,Punjab,31.326,75.5762,17.9,71,0.0,980.8,7.6,22.0,74,37.7,31.9,3,5,7,0,2026-04-13T05:09:02.472126+05:30
Dehradun,Uttarakhand,30.6284,78.0322,11.3,68,0.0,827.8,7.5,31.7,45,9.1,6.4,3,5,7,0,2026-04-13T05:09:02.472134+05:30
Shimla,Himachal Pradesh,31.1048,77.1734,9.0,78,0.0,781.1,7.7,39.2,47,26.3,13.1,3,5,7,0,2026-04-13T05:09:02.472140+05:30
Manali,Himachal Pradesh,32.2396,77.1887,12.5,43,0.0,816.9,9.65,28.1,65,11.9,8.7,0,5,7,0,2026-04-13T05:09:02.472147+05:30
Gurgaon,Haryana,28.4595,77.0266,18.9,68,0.0,982.1,7.35,24.5,1236,542.0,81.5,3,5,7,0,2026-04-13T05:09:02.472153+05:30
Noida,Uttar Pradesh,28.5355,77.391,20.9,59,0.0,985.3,7.3,31.0,1236,542.0,81.5,0,5,7,0,2026-04-13T05:09:02.472159+05:30
Ghaziabad,Uttar Pradesh,28.6692,77.4538,19.4,63,0.0,983.2,7.25,29.9,237,126.2,28.5,3,5,7,0,2026-04-13T05:09:02.472166+05:30
Faridabad,Haryana,28.4089,77.3178,19.8,63,0.0,984.5,7.3,28.4,1236,542.0,81.5,3,5,7,0,2026-04-13T05:09:02.472172+05:30
Meerut,Uttar Pradesh,28.9845,77.7064,18.3,65,0.0,981.6,7.15,33.1,237,126.2,28.5,3,5,7,0,2026-04-13T05:09:02.472178+05:30
Agra,Uttar Pradesh,27.1767,78.0081,20.6,58,0.0,988.8,7.65,22.0,924,1195.8,154.6,0,5,7,0,2026-04-13T05:09:02.472185+05:30
Varanasi,Uttar Pradesh,25.3176,82.9739,22.7,57,0.0,997.8,8.35,37.1,107,88.5,41.6,0,5,7,0,2026-04-13T05:09:02.472195+05:30
Prayagraj,Uttar Pradesh,25.4358,81.8463,22.7,65,0.0,996.7,8.25,37.1,112,133.6,38.6,3,5,7,0,2026-04-13T05:09:02.472202+05:30
Gorakhpur,Uttar Pradesh,26.7606,83.3732,21.7,52,0.0,996.8,8.15,24.5,93,50.2,28.8,0,5,7,0,2026-04-13T05:09:02.472209+05:30
Bareilly,Uttar Pradesh,28.367,79.4304,18.8,69,0.0,986.9,7.5,37.1,73,32.4,20.1,3,5,7,0,2026-04-13T05:09:02.472215+05:30
Aligarh,Uttar Pradesh,27.8974,78.088,18.5,66,0.0,986.3,7.45,31.7,660,434.0,65.2,3,5,7,0,2026-04-13T05:09:02.472222+05:30
Moradabad,Uttar Pradesh,28.8386,78.7733,18.5,68,0.0,983.8,7.35,34.2,87,38.4,22.0,3,5,7,0,2026-04-13T05:09:02.472231+05:30
Saharanpur,Uttar Pradesh,29.9637,77.546,17.4,76,0.0,976.1,6.95,29.9,76,29.6,23.3,3,5,7,0,2026-04-13T05:09:02.472236+05:30
Jhansi,Uttar Pradesh,25.4484,78.5685,23.9,48,0.0,978.9,8.15,26.6,80,347.4,50.1,0,5,7,0,2026-04-13T05:09:05.772076+05:30
Surat,Gujarat,21.1702,72.8311,26.7,90,0.0,1005.5,7.8,23.8,133,50.4,34.7,7,5,4,1,2026-04-13T05:09:05.772111+05:30
Vadodara,Gujarat,22.3072,73.1812,25.7,80,0.0,1003.2,8.05,20.2,123,91.5,70.8,7,5,4,1,2026-04-13T05:09:05.772122+05:30
Rajkot,Gujarat,22.3039,70.8022,25.3,75,0.0,993.8,7.8,34.9,75,52.7,23.6,7,5,7,1,2026-04-13T05:09:05.772130+05:30
Thane,Maharashtra,19.2183,72.9781,26.7,91,0.0,1007.1,8.0,33.1,122,76.4,36.2,7,5,4,1,2026-04-13T05:09:05.772137+05:30
Nagpur,Maharashtra,21.1458,79.0882,23.2,62,0.0,971.7,8.8,25.2,93,53.9,44.5,3,5,7,0,2026-04-13T05:09:05.772145+05:30
Nashik,Maharashtra,19.9975,73.7898,24.4,56,0.0,945.0,8.25,32.8,101,76.1,45.9,0,5,7,0,2026-04-13T05:09:05.772152+05:30
Aurangabad,Maharashtra,19.8762,75.3433,26.6,49,0.0,943.5,8.95,29.9,84,47.0,32.2,4,5,7,0,2026-04-13T05:09:05.772158+05:30
Solapur,Maharashtra,17.6599,75.9064,29.2,47,0.0,956.5,9.05,25.2,96,40.4,36.0,4,5,7,1,2026-04-13T05:09:05.772165+05:30
Kolhapur,Maharashtra,16.705,74.2433,22.1,90,0.0,947.5,9.05,42.8,89,44.8,37.1,3,5,7,1,2026-04-13T05:09:05.772172+05:30
Goa,Goa,15.2993,74.124,27.7,86,0.0,997.6,9.0,29.9,96,54.4,40.2,7,5,7,1,2026-04-13T05:09:05.772178+05:30
Jodhpur,Rajasthan,26.2389,73.0243,25.6,38,0.0,983.0,8.15,24.5,64,20.7,13.5,4,5,7,0,2026-04-13T05:09:05.772185+05:30
Udaipur,Rajasthan,24.5854,73.7125,20.8,41,0.0,946.5,8.65,24.1,52,20.4,8.4,0,5,7,0,2026-04-13T05:09:05.772192+05:30
Kota,Rajasthan,25.2138,75.8648,20.0,62,0.0,978.9,8.15,16.2,75,47.8,17.0,3,5,7,0,2026-04-13T05:09:05.772198+05:30
Bikaner,Rajasthan,28.0229,73.3119,24.3,46,0.0,982.3,7.95,19.1,52,23.6,9.4,0,5,7,0,2026-04-13T05:09:05.772205+05:30
Ajmer,Rajasthan,26.4499,74.6399,22.3,41,0.0,954.7,8.1,29.2,73,21.7,15.3,0,5,7,0,2026-04-13T05:09:05.772212+05:30
Gwalior,Madhya Pradesh,26.2183,78.1828,23.6,49,0.0,984.2,7.9,30.6,164,793.5,109.2,0,5,7,0,2026-04-13T05:09:05.772218+05:30
Indore,Madhya Pradesh,22.7196,75.8577,24.2,52,0.0,947.5,8.55,25.6,69,78.7,35.0,0,5,7,0,2026-04-13T05:09:05.772225+05:30
Bhopal,Madhya Pradesh,23.2599,77.4126,23.9,47,0.0,953.6,8.55,24.8,63,63.8,28.4,0,5,7,0,2026-04-13T05:09:05.772231+05:30
Jabalpur,Madhya Pradesh,23.1815,79.9864,23.2,59,0.0,961.8,8.65,27.4,66,67.5,27.8,0,5,7,0,2026-04-13T05:09:05.772237+05:30
Ujjain,Madhya Pradesh,23.1765,75.7885,22.9,58,0.0,953.3,8.45,26.3,75,85.0,49.9,0,5,7,0,2026-04-13T05:09:05.772244+05:30
Visakhapatnam,Andhra Pradesh,17.6868,83.2185,26.8,89,0.0,1004.2,9.15,41.8,74,33.4,22.0,7,5,4,1,2026-04-13T05:09:05.772250+05:30
Vijayawada,Andhra Pradesh,16.5062,80.648,26.5,90,0.0,1003.0,9.2,28.8,60,24.4,14.3,7,5,4,1,2026-04-13T05:09:05.772257+05:30
Guntur,Andhra Pradesh,16.3067,80.4365,26.8,90,0.0,1004.0,9.2,31.7,60,23.4,13.3,7,5,4,1,2026-04-13T05:09:05.772263+05:30
Nellore,Andhra Pradesh,14.4426,79.9865,25.8,92,0.0,1005.6,9.3,35.6,58,18.5,11.3,7,5,4,1,2026-04-13T05:09:05.772270+05:30
Kurnool,Andhra Pradesh,15.8281,78.0373,30.1,54,0.0,976.6,9.2,26.3,81,29.5,24.5,0,5,7,1,2026-04-13T05:09:05.772277+05:30
Kakinada,Andhra Pradesh,16.9891,82.2475,27.0,87,0.0,1008.1,9.2,32.0,56,34.2,17.3,7,0,4,1,2026-04-13T05:09:05.772284+05:30
Tirupati,Andhra Pradesh,13.6288,79.4192,24.2,74,0.0,992.0,9.4,31.7,70,25.0,19.6,3,5,7,1,2026-04-13T05:09:05.772291+05:30
Warangal,Telangana,17.9689,79.5941,26.3,78,0.0,978.2,9.1,32.8,84,33.3,26.0,7,5,7,1,2026-04-13T05:09:05.772297+05:30
Nizamabad,Telangana,18.6725,78.0941,29.0,56,0.0,963.5,9.05,32.4,124,37.0,33.1,4,5,7,1,2026-04-13T05:09:05.772303+05:30
Mysore,Karnataka,12.2958,76.6396,22.8,93,0.0,928.5,9.5,40.3,99,46.8,34.7,3,5,7,1,2026-04-13T05:09:05.772309+05:30
Mangalore,Karnataka,12.9141,74.856,29.8,80,0.0,1006.3,9.15,25.2,99,59.6,35.0,7,5,4,1,2026-04-13T05:09:05.772314+05:30
Hubli-Dharwad,Karnataka,15.3647,75.124,24.2,84,0.0,940.7,9.25,36.0,90,36.8,29.0,3,5,7,1,2026-04-13T05:09:05.772321+05:30
Belgaum,Karnataka,15.8497,74.4977,22.6,88,0.0,925.7,9.3,36.4,93,46.8,37.8,3,5,7,1,2026-04-13T05:09:09.074485+05:30
Coimbatore,Tamil Nadu,11.0168,76.9558,24.0,89,0.0,961.8,9.45,37.1,97,52.9,36.8,3,5,7,1,2026-04-13T05:09:09.074521+05:30
Madurai,Tamil Nadu,9.9252,78.1198,26.7,88,0.0,993.3,9.25,36.4,83,39.0,34.6,7,5,7,1,2026-04-13T05:09:09.074531+05:30
Trichy,Tamil Nadu,10.7905,78.7047,26.3,93,0.0,1000.2,9.35,28.4,60,19.7,16.9,7,5,4,1,2026-04-13T05:09:09.074539+05:30
Salem,Tamil Nadu,11.6643,78.146,25.2,90,0.0,977.6,9.45,19.1,77,33.2,27.5,7,5,7,1,2026-04-13T05:09:09.074546+05:30
Tirunelveli,Tamil Nadu,8.7139,77.7567,26.5,85,0.0,1003.2,8.7,45.7,84,47.8,37.3,7,5,4,1,2026-04-13T05:09:09.074553+05:30
Vellore,Tamil Nadu,12.9165,79.1325,23.6,77,0.0,985.0,9.45,32.4,88,43.7,37.6,3,5,7,1,2026-04-13T05:09:09.074560+05:30
Erode,Tamil Nadu,11.341,77.7172,26.7,80,0.0,989.4,9.4,24.8,66,20.9,17.4,7,5,7,1,2026-04-13T05:09:09.074568+05:30
Kochi,Kerala,9.9312,76.2673,28.4,85,0.0,1008.3,9.15,33.1,102,51.0,39.5,7,0,4,1,2026-04-13T05:09:09.074575+05:30
Thiruvananthapuram,Kerala,8.5241,76.9366,28.6,82,0.0,1007.4,9.1,25.2,87,49.8,29.2,7,5,4,1,2026-04-13T05:09:09.074583+05:30
Kozhikode,Kerala,11.2588,75.7804,29.6,82,0.0,1007.3,9.15,29.2,95,60.8,34.2,7,5,4,1,2026-04-13T05:09:09.074590+05:30
Thrissur,Kerala,10.5276,76.2144,27.1,91,0.0,1006.7,9.15,40.3,98,43.0,30.4,7,5,4,1,2026-04-13T05:09:09.074597+05:30
Kannur,Kerala,11.8745,75.3704,28.8,82,0.0,1006.7,9.15,33.5,112,57.3,39.5,7,5,4,1,2026-04-13T05:09:09.074605+05:30
Patna,Bihar,25.5941,85.1376,24.5,69,0.0,1000.2,8.5,30.6,109,65.7,39.3,3,5,4,1,2026-04-13T05:09:09.074612+05:30
Gaya,Bihar,24.7914,85.0002,25.4,50,0.0,993.4,8.6,25.2,104,82.0,36.1,4,5,7,0,2026-04-13T05:09:09.074619+05:30
Muzaffarpur,Bihar,26.1209,85.3647,22.2,78,0.0,1000.1,8.45,19.1,118,74.7,50.5,3,5,4,1,2026-04-13T05:09:09.074625+05:30
Bhagalpur,Bihar,25.2425,87.0117,22.9,86,0.0,1000.6,8.5,15.8,132,91.3,57.5,3,5,4,1,2026-04-13T05:09:09.074632+05:30
Ranchi,Jharkhand,23.3441,85.3096,22.4,52,0.0,937.0,9.1,28.8,63,32.8,22.1,0,5,7,0,2026-04-13T05:09:09.074639+05:30
Jamshedpur,Jharkhand,22.8046,86.2029,24.6,79,0.0,990.4,8.95,18.0,83,44.1,30.9,3,5,7,1,2026-04-13T05:09:09.074645+05:30
Dhanbad,Jharkhand,23.7957,86.4304,24.3,63,0.0,978.8,8.9,22.3,140,119.7,84.5,3,5,7,1,2026-04-13T05:09:09.074651+05:30
Bokaro,Jharkhand,23.6693,86.1511,23.8,57,0.0,983.1,8.9,22.7,127,109.9,79.9,0,5,7,0,2026-04-13T05:09:09.074658+05:30
Bhubaneswar,Odisha,20.2961,85.8245,26.6,89,0.0,1002.7,9.05,37.8,70,19.5,13.8,7,5,4,1,2026-04-13T05:09:09.074664+05:30
Cuttack,Odisha,20.4625,85.8828,26.4,90,0.0,1004.5,9.1,33.1,70,19.5,13.8,7,5,4,1,2026-04-13T05:09:09.074670+05:30
Rourkela,Odisha,22.2604,84.8536,23.2,86,0.0,984.5,8.85,24.5,101,55.6,34.1,3,5,7,1,2026-04-13T05:09:09.074676+05:30
Raipur,Chhattisgarh,21.2514,81.6296,26.3,45,0.0,973.1,8.9,32.4,129,68.7,59.0,4,5,7,0,2026-04-13T05:09:09.074681+05:30
Bhilai,Chhattisgarh,21.1938,81.3509,25.0,51,0.0,973.4,8.9,31.3,129,67.5,58.3,4,5,7,0,2026-04-13T05:09:09.074688+05:30
Guwahati,Assam,26.1158,91.7086,21.5,95,0.0,1003.1,8.4,45.7,142,61.0,48.0,3,5,4,1,2026-04-13T05:09:09.074693+05:30
Agartala,Tripura,23.8315,91.2868,24.9,97,0.0,1006.5,8.65,23.4,91,22.3,20.0,3,5,4,1,2026-04-13T05:09:09.074700+05:30
Shillong,Meghalaya,25.5788,91.8933,14.5,74,0.0,855.8,8.8,76.7,123,61.7,39.1,3,5,7,0,2026-04-13T05:09:09.074705+05:30
Imphal,Manipur,24.817,93.9368,16.8,93,0.0,924.0,8.4,74.5,120,71.2,47.4,3,10,7,0,2026-04-13T05:09:09.074712+05:30
Aizawl,Mizoram,23.7271,92.7176,16.9,81,0.0,892.4,8.9,46.8,99,81.3,37.6,3,10,7,0,2026-04-13T05:09:09.074719+05:30
Kohima,Nagaland,25.6701,94.1077,14.5,81,0.0,854.8,8.95,106.6,108,43.1,23.3,3,10,7,0,2026-04-13T05:09:09.074725+05:30
Gangtok,Sikkim,27.3314,88.6138,12.0,86,0.0,835.6,8.65,13.7,98,130.9,48.8,3,10,7,0,2026-04-13T05:09:09.074748+05:30
Siliguri,West Bengal,26.7271,88.3953,18.6,72,0.0,994.9,8.3,29.9,141,182.1,70.8,3,5,7,0,2026-04-13T05:09:12.381816+05:30
Durgapur,West Bengal,23.5204,87.3119,24.5,91,0.0,994.1,8.85,20.9,110,44.7,38.3,3,5,7,1,2026-04-13T05:09:12.381851+05:30
Asansol,West Bengal,23.6739,86.9524,25.7,72,0.0,992.6,8.85,18.0,102,71.0,44.4,7,5,7,1,2026-04-13T05:09:12.381862+05:30
Pondicherry,Puducherry,11.9139,79.8145,25.2,97,0.0,1008.9,9.3,29.9,34,14.0,8.4,7,0,4,1,2026-04-13T05:09:12.381870+05:30
Port Blair,Andaman and Nicobar Islands,11.6234,92.7265,28.8,79,0.0,1007.5,9.2,15.5,57,28.6,15.2,7,5,4,1,2026-04-13T05:09:12.381878+05:30
Haridwar,Uttarakhand,29.9457,78.1642,16.3,82,0.0,974.4,7.05,31.0,64,29.1,27.6,3,10,7,0,2026-04-13T05:09:12.381886+05:30
Rishikesh,Uttarakhand,30.0869,78.2676,17.6,71,0.0,967.2,6.75,32.4,58,22.5,17.6,3,5,7,0,2026-04-13T05:09:12.381893+05:30
Nainital,Uttarakhand,29.3919,79.4542,16.5,45,0.0,804.6,8.0,34.9,79,21.5,13.9,0,5,7,0,2026-04-13T05:09:12.381900+05:30
Mussoorie,Uttarakhand,30.4599,78.0664,13.2,66,0.0,800.5,7.35,33.5,61,21.1,18.3,3,5,7,0,2026-04-13T05:09:12.381907+05:30
Dharamshala,Himachal Pradesh,32.219,76.3234,16.8,34,0.0,868.0,7.75,23.8,46,6.0,3.2,0,5,7,0,2026-04-13T05:09:12.381914+05:30
Dalhousie,Himachal Pradesh,32.5387,75.971,12.8,46,0.0,801.5,7.35,21.6,58,23.0,17.2,0,5,7,0,2026-04-13T05:09:12.381922+05:30
Patiala,Punjab,30.3398,76.3869,17.6,71,0.0,978.6,7.1,27.4,398,319.4,44.2,3,5,7,0,2026-04-13T05:09:12.381929+05:30
Bhatinda,Punjab,30.211,74.9455,18.9,64,0.0,984.7,7.75,22.7,62,29.7,19.6,3,5,7,0,2026-04-13T05:09:12.381936+05:30
Rohtak,Haryana,28.8955,76.6066,18.7,67,0.0,982.5,7.25,30.6,713,489.9,78.7,3,5,7,0,2026-04-13T05:09:12.381943+05:30
Panipat,Haryana,29.3909,76.9635,18.8,63,0.0,980.7,7.1,32.4,1168,884.8,110.6,3,5,7,0,2026-04-13T05:09:12.381949+05:30
Mathura,Uttar Pradesh,27.4924,77.6737,19.2,66,0.0,987.8,7.6,22.7,933,776.7,126.7,3,5,7,0,2026-04-13T05:09:12.381955+05:30
Vrindavan,Uttar Pradesh,27.5823,77.7027,19.1,66,0.0,988.1,7.55,25.9,933,776.7,126.7,3,5,7,0,2026-04-13T05:09:12.381961+05:30
Ayodhya,Uttar Pradesh,26.7922,82.1998,21.4,58,0.0,995.4,7.95,33.1,99,84.1,31.8,0,5,7,0,2026-04-13T05:09:12.381967+05:30
Ratlam,Madhya Pradesh,23.3315,75.0367,21.0,73,0.0,953.5,8.4,23.8,64,67.1,39.9,3,5,7,0,2026-04-13T05:09:12.381973+05:30
Sagar,Madhya Pradesh,23.8388,78.7378,23.4,54,0.0,950.3,8.55,24.1,57,59.5,23.5,0,5,7,0,2026-04-13T05:09:12.381979+05:30
Satna,Madhya Pradesh,24.6005,80.8322,24.6,52,0.0,971.9,8.55,26.6,64,280.3,45.9,0,5,7,0,2026-04-13T05:09:12.381986+05:30
Akola,Maharashtra,20.7002,77.0082,25.2,59,0.0,974.1,8.75,24.5,77,35.6,25.2,4,5,7,1,2026-04-13T05:09:12.381992+05:30
Amravati,Maharashtra,20.9374,77.7796,25.2,49,0.0,966.1,8.8,24.5,79,37.4,26.4,4,5,7,0,2026-04-13T05:09:12.381998+05:30
Latur,Maharashtra,18.4088,76.5604,25.9,55,0.0,938.9,9.05,27.0,83,43.8,32.8,4,5,7,1,2026-04-13T05:09:12.382004+05:30
Nanded,Maharashtra,19.1383,77.3091,25.7,68,0.0,967.6,8.95,21.6,99,60.8,45.5,7,5,7,1,2026-04-13T05:09:12.382011+05:30
Gulbarga,Karnataka,17.3297,76.8343,28.7,61,0.0,958.1,9.1,24.1,85,37.3,30.2,7,5,7,1,2026-04-13T05:09:12.382017+05:30
Bidar,Karnataka,17.9104,77.5199,27.8,56,0.0,934.7,9.15,29.2,93,37.7,32.6,4,5,7,1,2026-04-13T05:09:12.382023+05:30
Hospet,Karnataka,15.2689,76.3909,26.5,82,0.0,956.2,9.25,24.5,105,36.7,32.1,7,5,7,1,2026-04-13T05:09:12.382028+05:30
Tirupur,Tamil Nadu,11.1085,77.3411,26.4,86,0.0,975.5,9.45,29.5,84,42.5,31.7,7,5,7,1,2026-04-13T05:09:12.382034+05:30
Alappuzha,Kerala,9.4981,76.3388,28.0,82,0.0,1008.5,9.15,25.6,98,56.0,35.3,7,0,4,1,2026-04-13T05:09:12.382040+05:30
Munnar,Kerala,10.0889,77.0595,20.7,78,0.0,856.3,9.7,28.4,86,39.0,34.3,3,5,7,1,2026-04-13T05:09:12.382047+05:30
Silchar,Assam,24.8333,92.7789,22.3,87,0.0,1006.7,8.65,37.4,152,79.2,56.2,3,5,4,1,2026-04-13T05:09:12.382052+05:30
Dibrugarh,Assam,27.4728,94.912,19.7,88,0.0,998.3,6.8,21.2,106,66.8,44.6,3,10,7,1,2026-04-13T05:09:12.382059+05:30
