city,state,latitude,longitude,temp,humidity,rain,pressure,uv_index,wind_gusts,aqi,pm10,pm2_5,mosquito_risk,arthritis_risk,migraine_risk,frizz_risk,updated_at
Delhi,Delhi,28.6139,77.209,18.3,93,0.0,987.1,7.05,24.1,132,104.8,46.1,3,10,7,1,2026-04-09T02:19:26.366460+05:30
Mumbai,Maharashtra,19.076,72.8777,27.7,80,0.0,1009.2,7.95,20.5,76,80.1,19.6,7,0,4,1,2026-04-09T02:19:26.366503+05:30
Bangalore,Karnataka,12.9716,77.5946,24.2,71,0.0,911.7,9.6,27.0,71,34.0,32.0,3,5,7,1,2026-04-09T02:19:26.366519+05:30
Hyderabad,Telangana,17.385,78.4867,26.9,68,0.0,952.0,9.2,36.4,92,55.2,35.4,7,5,7,1,2026-04-09T02:19:26.366529+05:30
Chennai,Tamil Nadu,13.0827,80.2707,28.9,80,0.0,1007.0,9.35,40.0,76,20.7,15.5,7,5,4,1,2026-04-09T02:19:26.366537+05:30
Kolkata,West Bengal,22.5726,88.3639,23.7,94,0.0,1006.8,8.65,18.0,78,23.4,20.9,3,5,4,1,2026-04-09T02:19:26.366546+05:30
Pune,Maharashtra,18.5204,73.8567,21.8,87,0.0,948.9,8.55,32.4,73,43.4,19.8,3,5,7,1,2026-04-09T02:19:26.366558+05:30
Ahmedabad,Gujarat,23.0225,72.5714,25.0,57,0.0,1002.7,8.0,20.2,60,39.2,30.5,4,5,4,0,2026-04-09T02:19:26.366565+05:30
Jaipur,Rajasthan,26.9124,75.7873,20.7,64,0.0,961.4,7.7,29.5,129,455.4,71.2,3,5,7,0,2026-04-09T02:19:26.366573+05:30
Lucknow,Uttar Pradesh,26.8467,80.9462,18.8,86,0.0,997.2,7.55,31.0,102,63.3,45.4,3,10,7,1,2026-04-09T02:19:26.366581+05:30
Kanpur,Uttar Pradesh,26.4499,80.3319,19.0,87,0.0,995.2,7.6,29.5,120,96.4,37.3,3,10,7,1,2026-04-09T02:19:26.366588+05:30
Chandigarh,Chandigarh,30.7333,76.7794,16.0,89,0.0,972.4,7.05,25.6,72,30.4,27.8,3,10,7,0,2026-04-09T02:19:26.366596+05:30
Srinagar,Jammu and Kashmir,34.0837,74.7973,6.0,91,0.0,839.6,8.0,16.9,42,13.7,13.4,3,10,7,0,2026-04-09T02:19:26.366603+05:30
Jammu,Jammu and Kashmir,32.7266,74.857,14.3,94,0.0,977.1,7.65,22.3,64,35.6,33.4,3,10,7,0,2026-04-09T02:19:26.366610+05:30
Amritsar,Punjab,31.634,74.8723,15.0,94,0.0,985.4,7.6,24.8,86,44.4,33.8,3,10,7,0,2026-04-09T02:19:26.366617+05:30
Ludhiana,Punjab,30.901,75.8573,16.0,94,0.0,982.9,7.25,22.7,87,61.7,48.2,3,10,7,0,2026-04-09T02:19:26.366623+05:30
Jalandhar,Punjab,31.326,75.5762,15.3,95,0.0,984.3,7.4,27.0,85,54.8,40.9,3,10,7,0,2026-04-09T02:19:26.366631+05:30
Dehradun,Uttarakhand,30.6284,78.0322,7.4,84,0.0,828.1,7.4,23.0,48,7.2,4.7,3,10,7,0,2026-04-09T02:19:26.366638+05:30
Shimla,Himachal Pradesh,31.1048,77.1734,6.0,85,0.0,781.1,7.5,28.4,49,4.7,4.5,3,10,7,0,2026-04-09T02:19:26.366644+05:30
Manali,Himachal Pradesh,32.2396,77.1887,7.3,69,0.0,815.0,9.75,22.3,88,2.6,2.6,3,5,7,0,2026-04-09T02:19:26.366672+05:30
Gurgaon,Haryana,28.4595,77.0266,18.2,93,0.0,985.2,7.2,19.4,362,510.4,87.5,3,10,7,1,2026-04-09T02:19:26.366680+05:30
Noida,Uttar Pradesh,28.5355,77.391,18.2,95,0.0,988.7,7.1,22.7,362,510.4,87.5,3,10,7,1,2026-04-09T02:19:26.366687+05:30
Ghaziabad,Uttar Pradesh,28.6692,77.4538,17.4,96,0.0,986.9,7.05,22.7,107,52.9,41.7,3,10,7,1,2026-04-09T02:19:26.366694+05:30
Faridabad,Haryana,28.4089,77.3178,18.1,93,0.0,987.8,7.15,22.3,362,510.4,87.5,3,10,7,1,2026-04-09T02:19:26.366700+05:30
Meerut,Uttar Pradesh,28.9845,77.7064,16.6,98,0.0,985.7,6.95,27.0,107,52.9,41.7,3,10,7,1,2026-04-09T02:19:26.366706+05:30
Agra,Uttar Pradesh,27.1767,78.0081,18.0,92,0.0,991.4,7.45,20.2,462,895.9,116.9,3,10,7,1,2026-04-09T02:19:26.366713+05:30
Varanasi,Uttar Pradesh,25.3176,82.9739,20.3,78,0.0,1000.1,8.2,25.6,96,49.2,40.0,3,5,4,1,2026-04-09T02:19:26.366722+05:30
Prayagraj,Uttar Pradesh,25.4358,81.8463,20.9,76,0.0,998.9,8.05,25.2,93,44.0,34.7,3,5,7,1,2026-04-09T02:19:26.366729+05:30
Gorakhpur,Uttar Pradesh,26.7606,83.3732,17.9,82,0.0,1000.4,7.95,34.2,102,81.7,65.9,3,10,4,0,2026-04-09T02:19:26.366736+05:30
Bareilly,Uttar Pradesh,28.367,79.4304,16.0,96,0.0,991.0,7.3,33.1,94,60.5,33.6,3,10,7,0,2026-04-09T02:19:26.366744+05:30
Aligarh,Uttar Pradesh,27.8974,78.088,17.1,97,0.0,989.4,7.2,27.7,141,294.3,61.0,3,10,7,1,2026-04-09T02:19:26.366751+05:30
Moradabad,Uttar Pradesh,28.8386,78.7733,16.0,97,0.0,988.1,7.15,31.7,102,60.5,37.1,3,10,7,0,2026-04-09T02:19:26.366756+05:30
Saharanpur,Uttar Pradesh,29.9637,77.546,15.6,94,0.0,979.9,6.75,26.3,99,64.5,57.4,3,10,7,0,2026-04-09T02:19:26.366762+05:30
Jhansi,Uttar Pradesh,25.4484,78.5685,20.2,83,0.0,980.6,8.0,25.2,76,118.3,42.6,3,5,7,1,2026-04-09T02:19:29.671730+05:30
Surat,Gujarat,21.1702,72.8311,26.5,77,0.0,1007.5,7.7,26.3,69,46.3,23.4,7,5,4,1,2026-04-09T02:19:29.671773+05:30
Vadodara,Gujarat,22.3072,73.1812,26.1,73,0.0,1004.4,8.0,20.2,63,26.3,16.2,7,5,4,1,2026-04-09T02:19:29.671786+05:30
Rajkot,Gujarat,22.3039,70.8022,22.7,82,0.0,994.8,7.7,22.0,51,24.9,14.6,3,5,7,1,2026-04-09T02:19:29.671796+05:30
Thane,Maharashtra,19.2183,72.9781,27.0,82,0.0,1008.7,7.95,33.5,76,80.1,19.6,7,0,4,1,2026-04-09T02:19:29.671805+05:30
Nagpur,Maharashtra,21.1458,79.0882,24.8,57,0.0,972.4,8.75,20.5,84,59.6,30.9,0,5,7,0,2026-04-09T02:19:29.671814+05:30
Nashik,Maharashtra,19.9975,73.7898,21.9,89,0.0,946.1,8.2,25.2,65,42.4,15.3,3,5,7,1,2026-04-09T02:19:29.671823+05:30
Aurangabad,Maharashtra,19.8762,75.3433,22.7,77,0.0,944.3,8.9,32.4,64,33.3,16.4,3,5,7,1,2026-04-09T02:19:29.671829+05:30
Solapur,Maharashtra,17.6599,75.9064,26.2,44,0.0,957.0,9.0,24.5,73,35.0,18.9,4,5,7,0,2026-04-09T02:19:29.671836+05:30
Kolhapur,Maharashtra,16.705,74.2433,19.9,91,0.0,947.6,9.0,36.7,79,49.5,23.2,3,10,7,1,2026-04-09T02:19:29.671843+05:30
Goa,Goa,15.2993,74.124,27.3,78,0.0,998.4,9.0,35.6,70,65.7,23.7,7,5,7,1,2026-04-09T02:19:29.671850+05:30
Jodhpur,Rajasthan,26.2389,73.0243,23.5,42,0.0,984.0,8.0,26.3,98,130.9,27.5,0,5,7,0,2026-04-09T02:19:29.671862+05:30
Udaipur,Rajasthan,24.5854,73.7125,20.3,54,0.0,946.7,8.5,38.2,60,59.5,18.0,0,5,7,0,2026-04-09T02:19:29.671877+05:30
Kota,Rajasthan,25.2138,75.8648,22.6,62,0.0,980.0,8.0,20.9,103,94.3,39.5,3,5,7,0,2026-04-09T02:19:29.671890+05:30
Bikaner,Rajasthan,28.0229,73.3119,23.1,39,0.0,984.0,7.8,22.3,60,41.8,17.3,0,5,7,0,2026-04-09T02:19:29.671904+05:30
Ajmer,Rajasthan,26.4499,74.6399,22.5,46,0.0,955.2,7.95,25.2,81,96.4,33.6,0,5,7,0,2026-04-09T02:19:29.671914+05:30
Gwalior,Madhya Pradesh,26.2183,78.1828,19.1,89,0.0,986.2,7.75,25.9,83,217.9,59.4,3,10,7,1,2026-04-09T02:19:29.671921+05:30
Indore,Madhya Pradesh,22.7196,75.8577,21.6,63,0.0,948.1,8.4,23.4,71,42.1,27.3,3,5,7,0,2026-04-09T02:19:29.671928+05:30
Bhopal,Madhya Pradesh,23.2599,77.4126,22.8,51,0.0,953.9,8.4,24.1,71,35.9,22.1,0,5,7,0,2026-04-09T02:19:29.671936+05:30
Jabalpur,Madhya Pradesh,23.1815,79.9864,23.8,61,0.0,961.4,8.55,25.9,103,99.4,60.5,3,5,7,0,2026-04-09T02:19:29.671945+05:30
Ujjain,Madhya Pradesh,23.1765,75.7885,22.5,58,0.0,953.8,8.35,20.9,67,43.1,27.7,0,5,7,0,2026-04-09T02:19:29.671952+05:30
Visakhapatnam,Andhra Pradesh,17.6868,83.2185,27.3,92,0.0,1003.1,9.15,43.6,86,33.2,30.5,7,5,4,1,2026-04-09T02:19:29.671959+05:30
Vijayawada,Andhra Pradesh,16.5062,80.648,27.8,88,0.0,1002.1,9.2,34.2,95,24.0,21.2,7,5,4,1,2026-04-09T02:19:29.671965+05:30
Guntur,Andhra Pradesh,16.3067,80.4365,28.0,87,0.0,1003.2,9.2,31.0,92,24.0,21.1,7,5,4,1,2026-04-09T02:19:29.671972+05:30
Nellore,Andhra Pradesh,14.4426,79.9865,28.2,87,0.0,1005.0,9.3,36.4,89,27.1,24.1,7,5,4,1,2026-04-09T02:19:29.671979+05:30
Kurnool,Andhra Pradesh,15.8281,78.0373,28.7,52,0.0,975.4,9.2,32.4,77,43.1,29.2,4,5,7,1,2026-04-09T02:19:29.671987+05:30
Kakinada,Andhra Pradesh,16.9891,82.2475,27.0,94,0.0,1007.1,9.15,28.1,78,31.8,25.7,7,5,4,1,2026-04-09T02:19:29.671993+05:30
Tirupati,Andhra Pradesh,13.6288,79.4192,27.3,87,0.0,992.0,9.35,33.1,107,33.2,30.5,7,5,7,1,2026-04-09T02:19:29.671999+05:30
Warangal,Telangana,17.9689,79.5941,27.6,77,0.0,977.6,9.05,23.8,105,40.7,36.8,7,5,7,1,2026-04-09T02:19:29.672005+05:30
Nizamabad,Telangana,18.6725,78.0941,26.2,55,0.0,964.2,9.0,28.1,101,89.4,47.7,4,5,7,1,2026-04-09T02:19:29.672011+05:30
Mysore,Karnataka,12.2958,76.6396,22.8,89,0.0,928.5,9.55,35.3,50,20.3,16.2,3,5,7,1,2026-04-09T02:19:29.672018+05:30
Mangalore,Karnataka,12.9141,74.856,28.8,78,0.0,1007.2,9.15,35.3,65,64.5,25.5,7,5,4,1,2026-04-09T02:19:29.672024+05:30
Hubli-Dharwad,Karnataka,15.3647,75.124,21.6,91,0.0,940.4,9.2,40.0,64,39.0,18.5,3,5,7,1,2026-04-09T02:19:29.672030+05:30
Belgaum,Karnataka,15.8497,74.4977,19.2,97,0.0,924.9,9.25,36.0,74,56.8,25.3,3,10,7,1,2026-04-09T02:19:32.994841+05:30
Coimbatore,Tamil Nadu,11.0168,76.9558,24.7,76,0.0,962.5,9.45,49.0,54,20.7,17.3,3,5,7,1,2026-04-09T02:19:32.994874+05:30
Madurai,Tamil Nadu,9.9252,78.1198,27.0,79,0.0,993.5,9.4,41.0,104,43.4,39.5,7,5,7,1,2026-04-09T02:19:32.994886+05:30
Trichy,Tamil Nadu,10.7905,78.7047,27.7,87,0.0,1000.2,9.4,28.1,94,31.3,28.6,7,5,4,1,2026-04-09T02:19:32.994896+05:30
Salem,Tamil Nadu,11.6643,78.146,25.0,86,0.0,978.4,9.0,22.3,90,32.4,29.5,7,5,7,1,2026-04-09T02:19:32.994905+05:30
Tirunelveli,Tamil Nadu,8.7139,77.7567,27.3,80,0.0,1003.3,9.0,41.0,71,24.2,19.8,7,5,4,1,2026-04-09T02:19:32.994913+05:30
Vellore,Tamil Nadu,12.9165,79.1325,27.4,86,0.0,984.7,9.45,23.8,110,37.1,33.6,7,5,7,1,2026-04-09T02:19:32.994921+05:30
Erode,Tamil Nadu,11.341,77.7172,26.8,78,0.0,990.0,9.45,27.7,60,20.3,17.2,7,5,7,1,2026-04-09T02:19:32.994929+05:30
Kochi,Kerala,9.9312,76.2673,29.7,73,0.0,1009.0,9.0,33.8,64,44.1,39.3,7,0,4,1,2026-04-09T02:19:32.994937+05:30
Thiruvananthapuram,Kerala,8.5241,76.9366,29.2,75,0.0,1008.3,9.15,39.6,54,26.9,15.0,7,0,4,1,2026-04-09T02:19:32.994946+05:30
Kozhikode,Kerala,11.2588,75.7804,29.3,76,0.0,1008.3,9.15,30.6,52,47.4,19.8,7,0,4,1,2026-04-09T02:19:32.994954+05:30
Thrissur,Kerala,10.5276,76.2144,27.7,83,0.0,1007.6,9.15,34.6,62,35.2,29.8,7,5,4,1,2026-04-09T02:19:32.994963+05:30
Kannur,Kerala,11.8745,75.3704,28.1,81,0.0,1007.6,9.15,39.2,56,56.6,24.1,7,5,4,1,2026-04-09T02:19:32.994972+05:30
Patna,Bihar,25.5941,85.1376,21.3,79,0.0,1002.8,8.3,27.0,97,46.3,36.0,3,5,4,1,2026-04-09T02:19:32.994979+05:30
Gaya,Bihar,24.7914,85.0002,22.1,92,0.0,995.8,8.4,22.3,98,51.7,44.4,3,5,7,1,2026-04-09T02:19:32.994987+05:30
Muzaffarpur,Bihar,26.1209,85.3647,19.7,82,0.0,1003.0,8.3,25.9,110,49.1,34.0,3,10,4,1,2026-04-09T02:19:32.994995+05:30
Bhagalpur,Bihar,25.2425,87.0117,21.6,92,0.0,1003.3,8.3,21.2,133,43.8,36.0,3,5,4,1,2026-04-09T02:19:32.995002+05:30
Ranchi,Jharkhand,23.3441,85.3096,20.3,95,0.2,938.1,8.8,27.4,108,91.3,61.7,6,5,7,1,2026-04-09T02:19:32.995011+05:30
Jamshedpur,Jharkhand,22.8046,86.2029,22.3,89,0.0,991.9,8.6,15.1,125,54.9,50.3,3,5,7,1,2026-04-09T02:19:32.995019+05:30
Dhanbad,Jharkhand,23.7957,86.4304,22.4,89,0.0,980.6,8.7,20.9,156,91.5,83.8,3,5,7,1,2026-04-09T02:19:32.995027+05:30
Bokaro,Jharkhand,23.6693,86.1511,22.1,91,0.0,985.2,8.7,23.8,159,96.9,85.7,3,5,7,1,2026-04-09T02:19:32.995035+05:30
Bhubaneswar,Odisha,20.2961,85.8245,26.3,93,0.0,1001.8,9.0,29.9,69,28.9,27.0,7,5,4,1,2026-04-09T02:19:32.995043+05:30
Cuttack,Odisha,20.4625,85.8828,25.7,95,0.0,1003.9,9.05,27.7,69,28.9,27.0,7,5,4,1,2026-04-09T02:19:32.995051+05:30
Rourkela,Odisha,22.2604,84.8536,22.8,89,0.0,985.8,8.4,17.3,124,58.4,42.6,3,5,7,1,2026-04-09T02:19:32.995060+05:30
Raipur,Chhattisgarh,21.2514,81.6296,26.7,55,0.0,973.8,8.85,29.9,109,87.5,50.2,4,5,7,1,2026-04-09T02:19:32.995069+05:30
Bhilai,Chhattisgarh,21.1938,81.3509,26.4,58,0.0,974.2,8.85,25.2,98,69.2,38.8,4,5,7,1,2026-04-09T02:19:32.995077+05:30
Guwahati,Assam,26.1158,91.7086,22.5,87,0.0,1003.3,8.0,25.2,79,38.5,34.9,3,5,4,1,2026-04-09T02:19:32.995085+05:30
Agartala,Tripura,23.8315,91.2868,21.9,95,0.5,1008.7,7.8,25.9,90,38.9,36.2,6,0,4,1,2026-04-09T02:19:32.995091+05:30
Shillong,Meghalaya,25.5788,91.8933,11.9,88,0.1,855.3,7.85,42.1,61,20.2,16.7,6,10,7,0,2026-04-09T02:19:32.995098+05:30
Imphal,Manipur,24.817,93.9368,16.2,78,0.0,923.8,8.8,54.0,71,43.1,39.8,3,5,7,0,2026-04-09T02:19:32.995104+05:30
Aizawl,Mizoram,23.7271,92.7176,17.6,79,0.0,892.8,3.3,50.8,64,28.4,25.1,3,5,3,0,2026-04-09T02:19:32.995110+05:30
Kohima,Nagaland,25.6701,94.1077,13.5,77,0.0,854.6,8.65,68.4,53,24.2,21.0,3,5,7,0,2026-04-09T02:19:32.995116+05:30
Gangtok,Sikkim,27.3314,88.6138,11.2,85,0.0,835.8,5.6,16.9,62,24.0,18.9,3,10,3,0,2026-04-09T02:19:32.995123+05:30
Siliguri,West Bengal,26.7271,88.3953,18.4,77,0.0,996.0,7.7,31.3,89,44.6,36.9,3,5,7,0,2026-04-09T02:19:36.305802+05:30
Durgapur,West Bengal,23.5204,87.3119,22.9,94,0.0,995.7,8.7,14.8,135,68.5,64.7,3,5,7,1,2026-04-09T02:19:36.305834+05:30
Asansol,West Bengal,23.6739,86.9524,23.0,92,0.0,994.3,8.7,18.7,138,78.0,72.2,3,5,7,1,2026-04-09T02:19:36.305845+05:30
Pondicherry,Puducherry,11.9139,79.8145,27.7,93,0.0,1008.7,9.3,34.6,75,19.1,13.4,7,0,4,1,2026-04-09T02:19:36.305855+05:30
Port Blair,Andaman and Nicobar Islands,11.6234,92.7265,28.7,78,0.0,1007.1,9.25,12.2,30,9.5,6.6,7,5,4,1,2026-04-09T02:19:36.305865+05:30
Haridwar,Uttarakhand,29.9457,78.1642,14.7,95,0.0,978.5,6.9,30.2,77,38.6,33.8,3,10,7,0,2026-04-09T02:19:36.305875+05:30
Rishikesh,Uttarakhand,30.0869,78.2676,13.4,90,0.0,970.8,6.95,31.3,58,20.8,14.2,3,10,7,0,2026-04-09T02:19:36.305884+05:30
Nainital,Uttarakhand,29.3919,79.4542,10.6,72,0.0,804.1,7.8,41.0,65,15.4,13.5,3,5,7,0,2026-04-09T02:19:36.305893+05:30
Mussoorie,Uttarakhand,30.4599,78.0664,8.5,81,0.0,800.4,7.3,28.1,64,20.9,17.1,3,10,7,0,2026-04-09T02:19:36.305901+05:30
Dharamshala,Himachal Pradesh,32.219,76.3234,12.5,67,0.0,868.7,7.5,24.1,60,2.5,2.2,3,5,7,0,2026-04-09T02:19:36.305909+05:30
Dalhousie,Himachal Pradesh,32.5387,75.971,8.6,63,0.0,801.4,7.75,18.4,59,25.9,21.1,3,5,7,0,2026-04-09T02:19:36.305918+05:30
Patiala,Punjab,30.3398,76.3869,16.2,94,0.0,982.3,6.9,25.2,86,46.3,35.6,3,10,7,0,2026-04-09T02:19:36.305926+05:30
Bhatinda,Punjab,30.211,74.9455,17.3,87,0.0,987.7,7.6,22.0,98,57.6,30.2,3,10,7,0,2026-04-09T02:19:36.305935+05:30
Rohtak,Haryana,28.8955,76.6066,17.3,95,0.0,985.6,7.1,21.2,143,110.8,45.5,3,10,7,1,2026-04-09T02:19:36.305943+05:30
Panipat,Haryana,29.3909,76.9635,16.3,97,0.0,984.6,6.9,24.8,120,70.1,39.2,3,10,7,0,2026-04-09T02:19:36.305951+05:30
Mathura,Uttar Pradesh,27.4924,77.6737,17.7,92,0.0,990.4,7.4,19.4,296,584.9,88.0,3,10,7,1,2026-04-09T02:19:36.305960+05:30
Vrindavan,Uttar Pradesh,27.5823,77.7027,17.4,93,0.0,990.9,7.35,20.9,296,584.9,88.0,3,10,7,1,2026-04-09T02:19:36.305968+05:30
Ayodhya,Uttar Pradesh,26.7922,82.1998,18.1,85,0.0,998.9,7.7,31.3,97,65.4,50.8,3,10,7,0,2026-04-09T02:19:36.305976+05:30
Ratlam,Madhya Pradesh,23.3315,75.0367,23.5,55,0.0,954.7,8.3,24.8,62,39.2,22.6,0,5,7,0,2026-04-09T02:19:36.305984+05:30
Sagar,Madhya Pradesh,23.8388,78.7378,21.9,66,0.0,950.7,8.4,25.2,72,74.0,28.9,3,5,7,0,2026-04-09T02:19:36.305992+05:30
Satna,Madhya Pradesh,24.6005,80.8322,21.8,72,0.0,973.1,8.4,26.6,77,46.3,34.9,3,5,7,1,2026-04-09T02:19:36.306000+05:30
Akola,Maharashtra,20.7002,77.0082,24.0,58,0.0,975.2,8.7,32.8,68,38.9,21.8,0,5,7,0,2026-04-09T02:19:36.306009+05:30
Amravati,Maharashtra,20.9374,77.7796,24.1,57,0.0,966.8,8.75,20.5,68,36.0,20.4,0,5,7,0,2026-04-09T02:19:36.306017+05:30
Latur,Maharashtra,18.4088,76.5604,23.0,59,0.0,939.3,8.95,29.2,73,36.8,21.2,0,5,7,0,2026-04-09T02:19:36.306026+05:30
Nanded,Maharashtra,19.1383,77.3091,24.7,65,0.0,968.5,8.9,22.0,76,29.2,18.9,3,5,7,1,2026-04-09T02:19:36.306033+05:30
Gulbarga,Karnataka,17.3297,76.8343,27.8,40,0.0,958.3,9.05,31.3,77,32.2,20.3,4,5,7,0,2026-04-09T02:19:36.306041+05:30
Bidar,Karnataka,17.9104,77.5199,25.8,50,0.0,934.7,9.05,34.2,87,98.5,45.8,4,5,7,0,2026-04-09T02:19:36.306049+05:30
Hospet,Karnataka,15.2689,76.3909,27.3,70,0.0,955.7,9.2,20.9,64,31.7,20.8,7,5,7,1,2026-04-09T02:19:36.306056+05:30
Tirupur,Tamil Nadu,11.1085,77.3411,26.0,77,0.0,976.0,9.45,36.7,59,23.7,20.4,7,5,7,1,2026-04-09T02:19:36.306064+05:30
Alappuzha,Kerala,9.4981,76.3388,29.8,72,0.0,1009.0,8.7,29.5,60,27.1,19.3,7,0,4,1,2026-04-09T02:19:36.306072+05:30
Munnar,Kerala,10.0889,77.0595,20.7,96,0.0,857.2,9.45,35.3,60,17.1,15.2,3,5,7,1,2026-04-09T02:19:36.306081+05:30
Silchar,Assam,24.8333,92.7789,22.6,79,0.0,1006.7,6.3,28.1,90,47.1,43.8,3,5,4,1,2026-04-09T02:19:36.306089+05:30
Dibrugarh,Assam,27.4728,94.912,21.2,86,0.0,998.3,5.05,26.3,69,30.0,26.0,3,5,3,1,2026-04-09T02:19:36.306096+05:30
