city,state,latitude,longitude,temp,humidity,rain,pressure,uv_index,wind_gusts,aqi,pm10,pm2_5,mosquito_risk,arthritis_risk,migraine_risk,frizz_risk,updated_at
Delhi,Delhi,28.6139,77.209,17.6,96,0.0,986.6,7.05,22.0,124,65.0,48.1,3,10,7,1,2026-04-09T04:12:29.003168+05:30
Mumbai,Maharashtra,19.076,72.8777,27.6,79,0.0,1009.0,7.95,20.9,77,88.9,23.2,7,0,4,1,2026-04-09T04:12:29.003234+05:30
Bangalore,Karnataka,12.9716,77.5946,22.9,84,0.0,911.5,9.6,25.9,68,32.1,30.0,3,5,7,1,2026-04-09T04:12:29.003252+05:30
Hyderabad,Telangana,17.385,78.4867,25.6,81,0.0,952.1,9.2,33.5,92,61.2,41.0,7,5,7,1,2026-04-09T04:12:29.003263+05:30
Chennai,Tamil Nadu,13.0827,80.2707,28.7,85,0.0,1007.0,9.35,36.4,73,21.9,15.9,7,5,4,1,2026-04-09T04:12:29.003271+05:30
Kolkata,West Bengal,22.5726,88.3639,23.2,96,0.0,1007.4,8.65,14.8,77,24.3,22.2,3,5,4,1,2026-04-09T04:12:29.003280+05:30
Pune,Maharashtra,18.5204,73.8567,21.3,86,0.0,948.6,8.55,34.2,75,45.8,23.7,3,5,7,1,2026-04-09T04:12:29.003292+05:30
Ahmedabad,Gujarat,23.0225,72.5714,23.9,60,0.0,1002.6,8.0,16.9,69,42.0,32.6,0,5,4,0,2026-04-09T04:12:29.003300+05:30
Jaipur,Rajasthan,26.9124,75.7873,20.2,71,0.0,961.4,7.7,27.0,139,350.2,61.5,3,5,7,0,2026-04-09T04:12:29.003308+05:30
Lucknow,Uttar Pradesh,26.8467,80.9462,18.5,88,0.0,997.2,7.55,35.3,116,81.3,54.9,3,10,7,1,2026-04-09T04:12:29.003316+05:30
Kanpur,Uttar Pradesh,26.4499,80.3319,18.8,87,0.0,995.0,7.6,32.4,120,105.9,57.4,3,10,7,1,2026-04-09T04:12:29.003323+05:30
Chandigarh,Chandigarh,30.7333,76.7794,15.9,84,0.0,972.4,7.05,24.5,67,26.5,21.9,3,10,7,0,2026-04-09T04:12:29.003331+05:30
Srinagar,Jammu and Kashmir,34.0837,74.7973,5.4,92,0.0,838.8,8.0,20.5,40,11.0,11.0,3,10,7,0,2026-04-09T04:12:29.003338+05:30
Jammu,Jammu and Kashmir,32.7266,74.857,14.9,87,0.0,977.3,7.65,27.4,64,31.8,29.7,3,10,7,0,2026-04-09T04:12:29.003345+05:30
Amritsar,Punjab,31.634,74.8723,15.3,91,0.0,984.9,7.6,17.3,80,38.2,28.2,3,10,7,0,2026-04-09T04:12:29.003352+05:30
Ludhiana,Punjab,30.901,75.8573,16.1,93,0.0,982.7,7.25,19.8,82,53.2,40.3,3,10,7,0,2026-04-09T04:12:29.003358+05:30
Jalandhar,Punjab,31.326,75.5762,15.8,94,0.0,984.1,7.4,21.6,85,48.9,35.5,3,10,7,0,2026-04-09T04:12:29.003367+05:30
Dehradun,Uttarakhand,30.6284,78.0322,7.0,86,0.0,827.7,7.4,24.5,48,8.6,6.4,3,10,7,0,2026-04-09T04:12:29.003374+05:30
Shimla,Himachal Pradesh,31.1048,77.1734,5.7,83,0.0,780.6,7.5,28.8,43,16.2,10.0,3,10,7,0,2026-04-09T04:12:29.003382+05:30
Manali,Himachal Pradesh,32.2396,77.1887,6.8,59,0.0,814.1,9.75,24.8,83,4.1,3.6,0,5,7,1,2026-04-09T04:12:29.003389+05:30
Gurgaon,Haryana,28.4595,77.0266,17.4,96,0.0,984.6,7.2,18.4,139,61.9,48.3,3,10,7,1,2026-04-09T04:12:29.003396+05:30
Noida,Uttar Pradesh,28.5355,77.391,17.4,97,0.0,988.2,7.1,20.5,139,61.9,48.3,3,10,7,1,2026-04-09T04:12:29.003403+05:30
Ghaziabad,Uttar Pradesh,28.6692,77.4538,16.8,97,0.0,986.4,7.05,21.6,105,71.0,44.1,3,10,7,1,2026-04-09T04:12:29.003410+05:30
Faridabad,Haryana,28.4089,77.3178,17.5,95,0.0,987.4,7.15,18.7,139,61.9,48.3,3,10,7,1,2026-04-09T04:12:29.003416+05:30
Meerut,Uttar Pradesh,28.9845,77.7064,16.4,98,0.0,985.4,6.95,26.3,105,71.0,44.1,3,10,7,1,2026-04-09T04:12:29.003423+05:30
Agra,Uttar Pradesh,27.1767,78.0081,17.7,95,0.0,991.2,7.45,23.0,486,450.8,80.3,3,10,7,1,2026-04-09T04:12:29.003430+05:30
Varanasi,Uttar Pradesh,25.3176,82.9739,20.0,80,0.0,1000.7,8.2,31.3,102,61.7,46.3,3,5,4,1,2026-04-09T04:12:29.003439+05:30
Prayagraj,Uttar Pradesh,25.4358,81.8463,20.6,80,0.0,999.2,8.05,27.4,103,66.4,47.5,3,5,7,1,2026-04-09T04:12:29.003446+05:30
Gorakhpur,Uttar Pradesh,26.7606,83.3732,17.6,83,0.0,1000.7,7.95,32.4,124,112.5,87.8,3,10,4,0,2026-04-09T04:12:29.003453+05:30
Bareilly,Uttar Pradesh,28.367,79.4304,15.6,96,0.0,990.9,7.3,30.6,95,58.4,35.7,3,10,7,0,2026-04-09T04:12:29.003460+05:30
Aligarh,Uttar Pradesh,27.8974,78.088,17.1,98,0.0,989.2,7.2,27.0,108,66.6,45.2,3,10,7,1,2026-04-09T04:12:29.003469+05:30
Moradabad,Uttar Pradesh,28.8386,78.7733,15.5,96,0.0,987.8,7.15,30.2,104,63.3,44.8,3,10,7,0,2026-04-09T04:12:29.003475+05:30
Saharanpur,Uttar Pradesh,29.9637,77.546,15.7,94,0.0,979.6,6.75,27.0,87,47.3,39.2,3,10,7,0,2026-04-09T04:12:29.003483+05:30
Jhansi,Uttar Pradesh,25.4484,78.5685,19.4,87,0.0,980.4,8.0,25.9,80,171.4,49.9,3,10,7,1,2026-04-09T04:12:32.360332+05:30
Surat,Gujarat,21.1702,72.8311,26.2,77,0.0,1007.3,7.7,28.1,71,47.8,25.8,7,5,4,1,2026-04-09T04:12:32.360364+05:30
Vadodara,Gujarat,22.3072,73.1812,25.6,68,0.0,1004.6,8.0,20.5,64,22.5,15.8,7,5,4,1,2026-04-09T04:12:32.360374+05:30
Rajkot,Gujarat,22.3039,70.8022,22.4,86,0.0,994.9,7.7,21.6,53,30.7,17.4,3,5,7,1,2026-04-09T04:12:32.360382+05:30
Thane,Maharashtra,19.2183,72.9781,27.0,79,0.0,1008.6,7.95,34.9,77,88.9,23.2,7,0,4,1,2026-04-09T04:12:32.360389+05:30
Nagpur,Maharashtra,21.1458,79.0882,23.8,61,0.0,972.9,8.75,21.2,83,67.1,34.2,3,5,7,0,2026-04-09T04:12:32.360397+05:30
Nashik,Maharashtra,19.9975,73.7898,21.8,91,0.0,945.9,8.2,25.9,65,43.9,18.3,3,5,7,1,2026-04-09T04:12:32.360404+05:30
Aurangabad,Maharashtra,19.8762,75.3433,22.2,81,0.0,944.3,8.9,29.9,65,40.3,16.8,3,5,7,1,2026-04-09T04:12:32.360410+05:30
Solapur,Maharashtra,17.6599,75.9064,25.0,53,0.0,956.9,9.0,22.7,72,37.3,21.6,4,5,7,0,2026-04-09T04:12:32.360418+05:30
Kolhapur,Maharashtra,16.705,74.2433,20.0,92,0.0,947.5,9.0,38.2,78,45.3,21.8,3,5,7,1,2026-04-09T04:12:32.360424+05:30
Goa,Goa,15.2993,74.124,27.1,80,0.0,998.1,9.0,36.4,70,58.7,25.1,7,5,7,1,2026-04-09T04:12:32.360432+05:30
Jodhpur,Rajasthan,26.2389,73.0243,22.4,50,0.0,984.4,8.0,27.7,102,111.3,22.5,0,5,7,0,2026-04-09T04:12:32.360439+05:30
Udaipur,Rajasthan,24.5854,73.7125,19.8,56,0.0,946.5,8.5,40.3,61,65.0,23.3,0,5,7,0,2026-04-09T04:12:32.360446+05:30
Kota,Rajasthan,25.2138,75.8648,22.6,60,0.0,980.1,8.0,20.5,117,133.2,51.7,0,5,7,0,2026-04-09T04:12:32.360452+05:30
Bikaner,Rajasthan,28.0229,73.3119,22.0,48,0.0,984.2,7.8,21.6,61,175.1,37.4,0,5,7,0,2026-04-09T04:12:32.360459+05:30
Ajmer,Rajasthan,26.4499,74.6399,20.9,57,0.0,955.3,7.95,25.2,79,99.0,27.0,0,5,7,0,2026-04-09T04:12:32.360465+05:30
Gwalior,Madhya Pradesh,26.2183,78.1828,19.3,86,0.0,986.0,7.75,26.6,85,226.3,58.7,3,10,7,1,2026-04-09T04:12:32.360472+05:30
Indore,Madhya Pradesh,22.7196,75.8577,21.0,68,0.0,947.9,8.4,23.8,73,44.1,28.8,3,5,7,0,2026-04-09T04:12:32.360478+05:30
Bhopal,Madhya Pradesh,23.2599,77.4126,21.5,60,0.0,954.0,8.4,26.6,71,51.7,23.1,0,5,7,0,2026-04-09T04:12:32.360484+05:30
Jabalpur,Madhya Pradesh,23.1815,79.9864,22.3,74,0.0,961.9,8.55,26.6,118,102.9,65.7,3,5,7,1,2026-04-09T04:12:32.360491+05:30
Ujjain,Madhya Pradesh,23.1765,75.7885,21.7,60,0.0,953.8,8.35,23.0,68,44.5,29.8,0,5,7,0,2026-04-09T04:12:32.360498+05:30
Visakhapatnam,Andhra Pradesh,17.6868,83.2185,26.9,93,0.0,1003.5,9.15,43.9,91,39.3,36.0,7,5,4,1,2026-04-09T04:12:32.360504+05:30
Vijayawada,Andhra Pradesh,16.5062,80.648,27.7,89,0.0,1002.2,9.2,30.6,98,23.2,20.1,7,5,4,1,2026-04-09T04:12:32.360511+05:30
Guntur,Andhra Pradesh,16.3067,80.4365,27.9,88,0.0,1003.1,9.2,33.1,97,20.8,17.8,7,5,4,1,2026-04-09T04:12:32.360517+05:30
Nellore,Andhra Pradesh,14.4426,79.9865,28.2,86,0.0,1005.0,9.3,33.8,85,22.8,20.2,7,5,4,1,2026-04-09T04:12:32.360525+05:30
Kurnool,Andhra Pradesh,15.8281,78.0373,28.0,71,0.0,975.6,9.2,28.1,75,34.0,29.6,7,5,7,1,2026-04-09T04:12:32.360533+05:30
Kakinada,Andhra Pradesh,16.9891,82.2475,27.1,92,0.0,1007.5,9.15,29.2,81,33.1,26.8,7,5,4,1,2026-04-09T04:12:32.360540+05:30
Tirupati,Andhra Pradesh,13.6288,79.4192,27.0,88,0.0,991.8,9.35,33.8,103,36.7,34.2,7,5,7,1,2026-04-09T04:12:32.360547+05:30
Warangal,Telangana,17.9689,79.5941,26.8,85,0.0,977.7,9.05,24.5,102,44.6,43.5,7,5,7,1,2026-04-09T04:12:32.360553+05:30
Nizamabad,Telangana,18.6725,78.0941,25.4,60,0.0,964.5,9.0,26.6,90,61.0,34.3,4,5,7,1,2026-04-09T04:12:32.360560+05:30
Mysore,Karnataka,12.2958,76.6396,22.8,90,0.0,928.6,9.55,34.6,46,18.7,13.6,3,5,7,1,2026-04-09T04:12:32.360566+05:30
Mangalore,Karnataka,12.9141,74.856,28.9,79,0.0,1006.8,9.15,35.3,67,58.7,26.2,7,5,4,1,2026-04-09T04:12:32.360572+05:30
Hubli-Dharwad,Karnataka,15.3647,75.124,21.5,95,0.0,940.2,9.2,40.0,63,38.9,18.6,3,5,7,1,2026-04-09T04:12:32.360578+05:30
Belgaum,Karnataka,15.8497,74.4977,18.9,97,0.0,924.5,9.25,36.4,74,61.0,24.3,3,10,7,1,2026-04-09T04:12:35.715688+05:30
Coimbatore,Tamil Nadu,11.0168,76.9558,24.7,74,0.0,962.1,9.45,43.6,50,12.6,11.6,3,5,7,1,2026-04-09T04:12:35.715719+05:30
Madurai,Tamil Nadu,9.9252,78.1198,26.6,83,0.0,993.2,9.4,32.4,96,36.3,32.6,7,5,7,1,2026-04-09T04:12:35.715729+05:30
Trichy,Tamil Nadu,10.7905,78.7047,27.3,90,0.0,1000.2,9.4,25.9,89,21.7,19.5,7,5,4,1,2026-04-09T04:12:35.715737+05:30
Salem,Tamil Nadu,11.6643,78.146,24.6,85,0.0,977.9,9.0,36.4,66,33.5,30.4,3,5,7,1,2026-04-09T04:12:35.715745+05:30
Tirunelveli,Tamil Nadu,8.7139,77.7567,26.9,81,0.0,1003.0,9.0,35.6,69,18.4,15.7,7,5,4,1,2026-04-09T04:12:35.715753+05:30
Vellore,Tamil Nadu,12.9165,79.1325,26.9,89,0.0,984.8,9.45,23.0,118,54.7,51.7,7,5,7,1,2026-04-09T04:12:35.715760+05:30
Erode,Tamil Nadu,11.341,77.7172,26.6,81,0.0,989.5,9.45,24.5,58,25.3,23.7,7,5,7,1,2026-04-09T04:12:35.715767+05:30
Kochi,Kerala,9.9312,76.2673,28.7,79,0.0,1008.8,9.0,30.2,62,31.5,28.6,7,0,4,1,2026-04-09T04:12:35.715775+05:30
Thiruvananthapuram,Kerala,8.5241,76.9366,28.7,80,0.0,1008.0,9.15,36.0,52,19.0,10.9,7,0,4,1,2026-04-09T04:12:35.715782+05:30
Kozhikode,Kerala,11.2588,75.7804,28.7,82,0.0,1008.1,9.15,29.9,54,65.2,24.6,7,0,4,1,2026-04-09T04:12:35.715788+05:30
Thrissur,Kerala,10.5276,76.2144,27.5,85,0.0,1007.1,9.15,32.8,61,27.4,24.8,7,5,4,1,2026-04-09T04:12:35.715796+05:30
Kannur,Kerala,11.8745,75.3704,28.0,81,0.0,1007.3,9.15,36.7,59,53.8,25.1,7,5,4,1,2026-04-09T04:12:35.715804+05:30
Patna,Bihar,25.5941,85.1376,21.0,85,0.0,1003.5,8.3,27.4,98,60.3,52.0,3,5,4,1,2026-04-09T04:12:35.715810+05:30
Gaya,Bihar,24.7914,85.0002,21.9,91,0.0,996.2,8.4,22.3,99,56.0,49.2,3,5,7,1,2026-04-09T04:12:35.715817+05:30
Muzaffarpur,Bihar,26.1209,85.3647,19.3,87,0.0,1003.6,8.3,20.5,118,60.8,52.4,3,10,4,1,2026-04-09T04:12:35.715824+05:30
Bhagalpur,Bihar,25.2425,87.0117,20.4,90,0.0,1004.7,8.3,23.4,110,34.6,30.9,3,5,4,1,2026-04-09T04:12:35.715830+05:30
Ranchi,Jharkhand,23.3441,85.3096,19.8,94,0.0,938.5,8.8,30.6,109,98.5,60.1,3,10,7,1,2026-04-09T04:12:35.715837+05:30
Jamshedpur,Jharkhand,22.8046,86.2029,22.2,89,0.0,992.9,8.6,17.6,105,34.7,32.1,3,5,7,1,2026-04-09T04:12:35.715843+05:30
Dhanbad,Jharkhand,23.7957,86.4304,21.9,90,0.0,981.7,8.7,23.4,152,77.5,74.3,3,5,7,1,2026-04-09T04:12:35.715850+05:30
Bokaro,Jharkhand,23.6693,86.1511,21.8,93,0.1,985.7,8.7,23.8,156,83.8,78.2,6,5,7,1,2026-04-09T04:12:35.715856+05:30
Bhubaneswar,Odisha,20.2961,85.8245,26.3,94,0.0,1002.4,9.0,29.2,73,31.2,28.4,7,5,4,1,2026-04-09T04:12:35.715863+05:30
Cuttack,Odisha,20.4625,85.8828,25.7,96,0.0,1004.5,9.05,28.4,73,31.2,28.4,7,5,4,1,2026-04-09T04:12:35.715869+05:30
Rourkela,Odisha,22.2604,84.8536,22.4,90,0.0,986.6,8.4,23.0,120,71.5,44.4,3,5,7,1,2026-04-09T04:12:35.715875+05:30
Raipur,Chhattisgarh,21.2514,81.6296,26.0,57,0.0,974.5,8.85,27.0,107,75.0,42.6,4,5,7,1,2026-04-09T04:12:35.715881+05:30
Bhilai,Chhattisgarh,21.1938,81.3509,25.9,60,0.0,974.8,8.85,24.8,100,79.4,47.7,4,5,7,1,2026-04-09T04:12:35.715887+05:30
Guwahati,Assam,26.1158,91.7086,22.4,87,0.0,1004.2,8.0,22.7,71,29.7,26.0,3,5,4,1,2026-04-09T04:12:35.715893+05:30
Agartala,Tripura,23.8315,91.2868,21.4,96,0.0,1008.1,7.8,19.1,107,36.4,34.3,3,0,4,1,2026-04-09T04:12:35.715900+05:30
Shillong,Meghalaya,25.5788,91.8933,11.8,89,0.3,855.5,7.85,42.5,58,20.0,15.7,6,10,7,0,2026-04-09T04:12:35.715907+05:30
Imphal,Manipur,24.817,93.9368,15.9,76,0.0,924.3,8.8,58.0,71,42.3,39.0,3,5,7,0,2026-04-09T04:12:35.715913+05:30
Aizawl,Mizoram,23.7271,92.7176,16.7,87,0.0,893.7,3.3,49.3,64,25.8,23.7,3,10,3,0,2026-04-09T04:12:35.715920+05:30
Kohima,Nagaland,25.6701,94.1077,13.6,71,0.0,855.0,8.65,70.9,53,21.4,18.9,3,5,7,0,2026-04-09T04:12:35.715926+05:30
Gangtok,Sikkim,27.3314,88.6138,10.8,84,0.0,836.3,5.6,22.7,61,19.3,16.0,3,10,3,0,2026-04-09T04:12:35.715932+05:30
Siliguri,West Bengal,26.7271,88.3953,18.4,74,0.0,996.6,7.7,26.3,84,27.1,22.2,3,5,7,0,2026-04-09T04:12:39.074075+05:30
Durgapur,West Bengal,23.5204,87.3119,22.4,94,0.1,997.4,8.7,18.0,122,53.3,50.9,6,5,7,1,2026-04-09T04:12:39.074106+05:30
Asansol,West Bengal,23.6739,86.9524,22.7,93,0.1,995.7,8.7,18.4,123,58.1,55.9,6,5,7,1,2026-04-09T04:12:39.074116+05:30
Pondicherry,Puducherry,11.9139,79.8145,27.8,94,0.0,1008.7,9.3,34.2,73,21.7,15.2,7,0,4,1,2026-04-09T04:12:39.074124+05:30
Port Blair,Andaman and Nicobar Islands,11.6234,92.7265,28.6,79,0.0,1007.6,9.25,11.5,31,8.1,6.1,7,5,4,1,2026-04-09T04:12:39.074132+05:30
Haridwar,Uttarakhand,29.9457,78.1642,14.6,92,0.0,978.2,6.9,29.9,68,27.2,24.2,3,10,7,0,2026-04-09T04:12:39.074140+05:30
Rishikesh,Uttarakhand,30.0869,78.2676,13.4,90,0.0,970.5,6.95,33.1,55,18.9,14.0,3,10,7,0,2026-04-09T04:12:39.074148+05:30
Nainital,Uttarakhand,29.3919,79.4542,10.5,71,0.0,803.8,7.8,41.4,60,17.1,10.6,3,5,7,0,2026-04-09T04:12:39.074154+05:30
Mussoorie,Uttarakhand,30.4599,78.0664,8.2,82,0.0,800.0,7.3,26.6,66,24.2,19.8,3,10,7,0,2026-04-09T04:12:39.074161+05:30
Dharamshala,Himachal Pradesh,32.219,76.3234,12.2,65,0.0,868.2,7.5,21.6,64,3.8,3.1,3,5,7,0,2026-04-09T04:12:39.074168+05:30
Dalhousie,Himachal Pradesh,32.5387,75.971,8.3,65,0.0,800.9,7.75,18.4,55,25.2,20.9,3,5,7,0,2026-04-09T04:12:39.074176+05:30
Patiala,Punjab,30.3398,76.3869,16.5,93,0.0,982.3,6.9,23.0,77,37.3,26.7,3,10,7,0,2026-04-09T04:12:39.074183+05:30
Bhatinda,Punjab,30.211,74.9455,17.3,88,0.0,987.1,7.6,25.2,97,38.3,34.6,3,10,7,0,2026-04-09T04:12:39.074190+05:30
Rohtak,Haryana,28.8955,76.6066,16.9,97,0.0,985.0,7.1,21.6,143,83.6,52.9,3,10,7,1,2026-04-09T04:12:39.074197+05:30
Panipat,Haryana,29.3909,76.9635,16.3,97,0.0,984.2,6.9,20.2,121,63.6,45.5,3,10,7,0,2026-04-09T04:12:39.074224+05:30
Mathura,Uttar Pradesh,27.4924,77.6737,17.8,92,0.0,990.5,7.4,22.7,270,293.4,67.1,3,10,7,1,2026-04-09T04:12:39.074232+05:30
Vrindavan,Uttar Pradesh,27.5823,77.7027,17.4,95,0.0,990.9,7.35,23.8,270,293.4,67.1,3,10,7,1,2026-04-09T04:12:39.074239+05:30
Ayodhya,Uttar Pradesh,26.7922,82.1998,17.5,87,0.0,998.9,7.7,33.8,105,78.2,54.8,3,10,7,0,2026-04-09T04:12:39.074247+05:30
Ratlam,Madhya Pradesh,23.3315,75.0367,22.4,74,0.0,954.7,8.3,27.4,63,38.5,22.0,3,5,7,1,2026-04-09T04:12:39.074254+05:30
Sagar,Madhya Pradesh,23.8388,78.7378,21.0,68,0.0,950.9,8.4,25.9,69,49.2,20.3,3,5,7,0,2026-04-09T04:12:39.074261+05:30
Satna,Madhya Pradesh,24.6005,80.8322,21.4,76,0.0,973.2,8.4,24.8,78,62.4,34.1,3,5,7,1,2026-04-09T04:12:39.074268+05:30
Akola,Maharashtra,20.7002,77.0082,23.8,64,0.0,975.3,8.7,29.5,67,37.1,21.5,3,5,7,1,2026-04-09T04:12:39.074275+05:30
Amravati,Maharashtra,20.9374,77.7796,24.0,61,0.0,967.2,8.75,20.2,67,34.5,20.5,3,5,7,1,2026-04-09T04:12:39.074282+05:30
Latur,Maharashtra,18.4088,76.5604,21.8,65,0.0,939.5,8.95,28.8,72,41.6,23.9,3,5,7,0,2026-04-09T04:12:39.074288+05:30
Nanded,Maharashtra,19.1383,77.3091,23.9,68,0.0,968.6,8.9,21.2,74,34.0,21.5,3,5,7,1,2026-04-09T04:12:39.074295+05:30
Gulbarga,Karnataka,17.3297,76.8343,26.8,44,0.0,958.3,9.05,32.0,76,31.1,21.1,4,5,7,0,2026-04-09T04:12:39.074301+05:30
Bidar,Karnataka,17.9104,77.5199,24.7,53,0.0,935.0,9.05,34.2,90,85.7,42.4,0,5,7,0,2026-04-09T04:12:39.074307+05:30
Hospet,Karnataka,15.2689,76.3909,26.5,74,0.0,955.6,9.2,21.6,60,31.3,20.5,7,5,7,1,2026-04-09T04:12:39.074314+05:30
Tirupur,Tamil Nadu,11.1085,77.3411,26.2,76,0.0,975.6,9.45,34.9,56,18.7,17.3,7,5,7,1,2026-04-09T04:12:39.074320+05:30
Alappuzha,Kerala,9.4981,76.3388,28.5,80,0.0,1008.9,8.7,28.8,58,25.2,19.2,7,0,4,1,2026-04-09T04:12:39.074326+05:30
Munnar,Kerala,10.0889,77.0595,20.7,91,0.0,856.7,9.45,32.8,62,21.9,19.5,3,5,7,1,2026-04-09T04:12:39.074334+05:30
Silchar,Assam,24.8333,92.7789,20.9,86,0.1,1008.5,6.3,26.6,85,29.1,27.0,6,0,4,1,2026-04-09T04:12:39.074341+05:30
Dibrugarh,Assam,27.4728,94.912,20.6,84,0.0,999.0,5.05,18.0,80,38.6,32.6,3,5,3,1,2026-04-09T04:12:39.074347+05:30
