city,state,latitude,longitude,temp,humidity,rain,pressure,uv_index,wind_gusts,aqi,pm10,pm2_5,no2,co,o3,so2,mosquito_risk,arthritis_risk,migraine_risk,frizz_risk,updated_at
Delhi,Delhi,28.6139,77.209,29.8,64,0.0,975.2,7.7,36.0,183,203.0,109.2,62.2,933.0,34.0,32.1,7,5,7,1,2026-05-14T02:19:35.717269+05:30
Mumbai,Maharashtra,19.076,72.8777,29.5,77,0.0,1003.8,7.9,45.0,74,29.6,16.4,6.5,318.0,75.0,5.7,7,5,4,1,2026-05-14T02:19:35.717315+05:30
Bangalore,Karnataka,12.9716,77.5946,24.8,63,0.0,907.3,9.45,37.1,78,22.0,19.2,29.1,353.0,52.0,8.2,3,5,7,1,2026-05-14T02:19:35.717331+05:30
Hyderabad,Telangana,17.385,78.4867,29.5,49,0.0,948.7,8.55,24.5,67,30.9,23.2,12.6,345.0,75.0,7.3,4,5,7,1,2026-05-14T02:19:35.717342+05:30
Chennai,Tamil Nadu,13.0827,80.2707,28.6,82,0.0,1000.8,8.45,42.8,25,10.4,7.5,7.8,348.0,38.0,4.5,7,5,4,1,2026-05-14T02:19:35.717351+05:30
Kolkata,West Bengal,22.5726,88.3639,27.7,86,0.0,1000.6,9.0,36.0,57,9.2,7.5,5.6,180.0,34.0,2.9,7,5,4,1,2026-05-14T02:19:35.717360+05:30
Pune,Maharashtra,18.5204,73.8567,25.5,80,0.0,943.9,8.55,42.5,73,44.2,25.4,14.8,281.0,66.0,17.4,7,5,7,1,2026-05-14T02:19:35.717373+05:30
Ahmedabad,Gujarat,23.0225,72.5714,32.5,42,0.0,995.5,8.15,42.8,76,26.3,16.1,6.4,197.0,68.0,3.8,0,5,7,1,2026-05-14T02:19:35.717386+05:30
Jaipur,Rajasthan,26.9124,75.7873,30.8,30,0.0,952.9,8.25,41.4,126,109.7,46.4,23.7,346.0,37.0,9.2,0,5,7,0,2026-05-14T02:19:35.717394+05:30
Lucknow,Uttar Pradesh,26.8467,80.9462,28.4,54,0.0,986.9,8.2,29.9,156,153.7,91.0,31.1,468.0,50.0,16.0,4,5,7,1,2026-05-14T02:19:35.717403+05:30
Kanpur,Uttar Pradesh,26.4499,80.3319,29.8,49,0.0,985.0,8.2,26.3,160,124.3,75.2,20.2,480.0,63.0,13.2,4,5,7,1,2026-05-14T02:19:35.717411+05:30
Chandigarh,Chandigarh,30.7333,76.7794,22.0,67,0.0,961.1,7.65,29.9,133,51.7,38.9,22.0,748.0,66.0,13.1,3,5,7,0,2026-05-14T02:19:35.717418+05:30
Srinagar,Jammu and Kashmir,34.0837,74.7973,9.9,100,0.0,839.5,8.65,31.7,64,29.2,28.3,24.2,547.0,16.0,0.0,3,10,7,0,2026-05-14T02:19:35.717426+05:30
Jammu,Jammu and Kashmir,32.7266,74.857,22.0,60,0.0,966.7,8.45,43.6,74,23.2,20.7,20.1,326.0,34.0,2.3,0,5,7,0,2026-05-14T02:19:35.717433+05:30
Amritsar,Punjab,31.634,74.8723,24.2,67,0.0,973.9,8.3,40.0,152,57.9,43.0,16.3,929.0,65.0,5.4,3,5,7,1,2026-05-14T02:19:35.717440+05:30
Ludhiana,Punjab,30.901,75.8573,24.9,71,0.0,971.5,7.9,42.5,157,50.4,43.3,17.3,881.0,63.0,8.2,3,5,7,1,2026-05-14T02:19:35.717447+05:30
Jalandhar,Punjab,31.326,75.5762,24.0,60,0.0,972.8,8.1,25.2,137,47.5,33.9,12.8,1151.0,71.0,4.7,0,5,7,0,2026-05-14T02:19:35.717454+05:30
Dehradun,Uttarakhand,30.6284,78.0322,12.6,93,0.0,822.7,8.1,41.8,71,30.0,23.1,32.9,330.0,36.0,2.2,3,10,7,0,2026-05-14T02:19:35.717464+05:30
Shimla,Himachal Pradesh,31.1048,77.1734,10.9,68,0.0,777.6,8.15,48.2,70,26.8,19.8,22.8,322.0,52.0,3.0,3,5,7,0,2026-05-14T02:19:35.717470+05:30
Manali,Himachal Pradesh,32.2396,77.1887,8.8,69,0.0,811.2,9.7,44.6,47,7.5,5.2,32.6,194.0,87.0,0.0,3,5,7,0,2026-05-14T02:19:35.717477+05:30
Gurgaon,Haryana,28.4595,77.0266,28.0,56,0.0,973.6,7.8,29.9,663,356.7,129.5,46.8,873.0,64.0,40.9,4,5,7,1,2026-05-14T02:19:35.717500+05:30
Noida,Uttar Pradesh,28.5355,77.391,26.9,79,0.0,976.6,7.7,29.5,663,356.7,129.5,46.8,1139.0,64.0,40.9,7,5,7,1,2026-05-14T02:19:35.717508+05:30
Ghaziabad,Uttar Pradesh,28.6692,77.4538,26.5,81,0.0,974.8,7.7,27.7,164,215.1,103.8,30.8,775.0,61.0,20.3,7,5,7,1,2026-05-14T02:19:35.717515+05:30
Faridabad,Haryana,28.4089,77.3178,28.4,71,0.0,975.9,7.75,35.6,663,356.7,129.5,46.8,759.0,64.0,40.9,7,5,7,1,2026-05-14T02:19:35.717522+05:30
Meerut,Uttar Pradesh,28.9845,77.7064,27.9,73,0.0,973.9,7.6,27.0,164,215.1,103.8,30.8,787.0,61.0,20.3,7,5,7,1,2026-05-14T02:19:35.717529+05:30
Agra,Uttar Pradesh,27.1767,78.0081,28.9,61,0.0,980.4,7.95,38.9,545,521.5,126.7,12.5,547.0,84.0,14.8,7,5,7,1,2026-05-14T02:19:35.717536+05:30
Varanasi,Uttar Pradesh,25.3176,82.9739,27.9,62,0.0,991.8,8.7,28.4,157,82.7,73.6,17.1,513.0,90.0,16.7,7,5,7,1,2026-05-14T02:19:35.717542+05:30
Prayagraj,Uttar Pradesh,25.4358,81.8463,28.9,54,0.0,989.7,8.6,25.6,156,92.0,72.6,21.7,445.0,72.0,14.0,4,5,7,1,2026-05-14T02:19:35.717555+05:30
Gorakhpur,Uttar Pradesh,26.7606,83.3732,24.9,83,0.0,992.4,8.6,33.1,142,65.4,56.5,14.6,485.0,87.0,11.7,3,5,7,1,2026-05-14T02:19:35.717562+05:30
Bareilly,Uttar Pradesh,28.367,79.4304,26.0,83,0.0,979.3,8.0,29.9,156,217.0,102.2,35.7,511.0,69.0,24.0,7,5,7,1,2026-05-14T02:19:35.717569+05:30
Aligarh,Uttar Pradesh,27.8974,78.088,27.8,71,0.0,977.7,7.85,22.7,274,217.0,94.5,20.4,613.0,69.0,13.7,7,5,7,1,2026-05-14T02:19:35.717575+05:30
Moradabad,Uttar Pradesh,28.8386,78.7733,25.8,83,0.0,975.9,7.8,33.1,157,190.9,102.7,41.0,673.0,39.0,15.5,7,5,7,1,2026-05-14T02:19:35.717582+05:30
Saharanpur,Uttar Pradesh,29.9637,77.546,25.0,70,0.0,968.2,7.3,30.6,160,147.1,82.0,28.0,814.0,85.0,19.5,7,5,7,1,2026-05-14T02:19:35.717588+05:30
Jhansi,Uttar Pradesh,25.4484,78.5685,30.0,40,0.0,970.8,8.15,31.0,115,92.0,42.7,14.2,347.0,45.0,6.1,4,5,7,0,2026-05-14T02:19:39.020376+05:30
Surat,Gujarat,21.1702,72.8311,29.2,84,0.0,1000.6,7.7,42.5,86,24.2,19.3,27.9,510.0,47.0,44.6,7,5,4,1,2026-05-14T02:19:39.020411+05:30
Vadodara,Gujarat,22.3072,73.1812,30.0,76,0.0,997.9,8.15,39.2,79,29.7,21.6,21.2,234.0,46.0,29.2,7,5,7,1,2026-05-14T02:19:39.020422+05:30
Rajkot,Gujarat,22.3039,70.8022,28.7,56,0.0,989.1,7.75,58.7,60,20.1,14.3,5.5,166.0,69.0,5.7,4,5,7,1,2026-05-14T02:19:39.020431+05:30
Thane,Maharashtra,19.2183,72.9781,29.5,76,0.0,1003.1,7.95,40.7,74,29.6,16.4,6.5,294.0,75.0,5.7,7,5,4,1,2026-05-14T02:19:39.020441+05:30
Nagpur,Maharashtra,21.1458,79.0882,32.5,40,0.0,967.3,8.95,38.9,98,56.9,35.4,16.3,271.0,81.0,14.6,0,5,7,1,2026-05-14T02:19:39.020449+05:30
Nashik,Maharashtra,19.9975,73.7898,24.8,84,0.0,941.0,8.2,41.8,69,29.7,15.7,7.4,216.0,62.0,2.9,3,5,7,1,2026-05-14T02:19:39.020456+05:30
Aurangabad,Maharashtra,19.8762,75.3433,29.8,52,0.0,939.6,9.1,33.1,76,28.8,19.2,8.9,251.0,79.0,5.5,4,5,7,1,2026-05-14T02:19:39.020464+05:30
Solapur,Maharashtra,17.6599,75.9064,28.3,70,0.0,952.2,8.8,30.6,94,47.6,34.7,14.4,393.0,85.0,7.9,7,5,7,1,2026-05-14T02:19:39.020471+05:30
Kolhapur,Maharashtra,16.705,74.2433,24.8,91,0.0,943.6,8.95,42.1,67,34.6,20.7,8.9,189.0,61.0,3.9,3,5,7,1,2026-05-14T02:19:39.020478+05:30
Goa,Goa,15.2993,74.124,26.9,95,0.0,993.4,8.9,35.3,69,64.3,32.0,9.3,200.0,58.0,2.4,7,5,7,1,2026-05-14T02:19:39.020504+05:30
Jodhpur,Rajasthan,26.2389,73.0243,33.0,26,0.0,975.3,8.4,39.2,104,187.7,46.1,6.7,187.0,71.0,2.1,0,5,7,0,2026-05-14T02:19:39.020512+05:30
Udaipur,Rajasthan,24.5854,73.7125,30.5,33,0.0,940.7,8.85,39.2,62,68.2,28.6,5.0,186.0,78.0,4.4,0,5,7,0,2026-05-14T02:19:39.020520+05:30
Kota,Rajasthan,25.2138,75.8648,33.5,24,0.0,971.8,8.4,42.8,69,36.3,21.4,7.6,264.0,68.0,3.5,0,5,7,0,2026-05-14T02:19:39.020527+05:30
Bikaner,Rajasthan,28.0229,73.3119,29.0,45,0.0,973.6,8.35,27.0,109,126.7,53.0,5.0,300.0,92.0,15.7,4,5,7,0,2026-05-14T02:19:39.020534+05:30
Ajmer,Rajasthan,26.4499,74.6399,29.8,34,0.0,948.2,8.4,38.2,73,53.3,23.0,6.3,230.0,85.0,5.7,4,5,7,0,2026-05-14T02:19:39.020542+05:30
Gwalior,Madhya Pradesh,26.2183,78.1828,31.0,30,0.0,975.7,8.25,39.6,140,229.6,70.5,13.0,377.0,67.0,9.2,0,5,7,0,2026-05-14T02:19:39.020548+05:30
Indore,Madhya Pradesh,22.7196,75.8577,32.3,28,0.0,942.6,8.75,45.0,82,31.3,22.9,8.7,279.0,81.0,6.3,0,5,7,0,2026-05-14T02:19:39.020555+05:30
Bhopal,Madhya Pradesh,23.2599,77.4126,31.9,25,0.0,947.2,8.75,40.0,83,29.3,20.5,7.2,233.0,69.0,5.3,0,5,7,0,2026-05-14T02:19:39.020562+05:30
Jabalpur,Madhya Pradesh,23.1815,79.9864,30.0,38,0.0,955.4,8.9,34.2,94,85.2,41.0,35.4,269.0,40.0,7.9,4,5,7,0,2026-05-14T02:19:39.020569+05:30
Ujjain,Madhya Pradesh,23.1765,75.7885,32.0,27,0.0,947.9,8.65,44.3,70,28.2,19.4,3.4,326.0,105.0,5.1,0,5,7,0,2026-05-14T02:19:39.020576+05:30
Visakhapatnam,Andhra Pradesh,17.6868,83.2185,28.1,83,0.0,998.6,8.95,41.4,74,28.6,26.3,24.2,2108.0,19.0,83.3,7,5,7,1,2026-05-14T02:19:39.020582+05:30
Vijayawada,Andhra Pradesh,16.5062,80.648,29.0,79,0.0,997.6,8.5,32.8,53,11.4,9.7,9.7,154.0,29.0,6.0,7,5,7,1,2026-05-14T02:19:39.020589+05:30
Guntur,Andhra Pradesh,16.3067,80.4365,28.8,79,0.0,998.8,8.7,45.7,53,10.7,8.8,8.1,160.0,31.0,5.7,7,5,7,1,2026-05-14T02:19:39.020596+05:30
Nellore,Andhra Pradesh,14.4426,79.9865,27.5,90,0.0,1000.1,8.8,39.6,26,9.5,6.9,6.6,253.0,34.0,2.3,7,5,4,1,2026-05-14T02:19:39.020605+05:30
Kurnool,Andhra Pradesh,15.8281,78.0373,31.6,39,0.0,971.7,6.1,34.2,57,20.1,15.0,9.8,172.0,64.0,3.3,0,5,7,0,2026-05-14T02:19:39.020612+05:30
Kakinada,Andhra Pradesh,16.9891,82.2475,28.8,81,0.0,1002.2,6.4,43.9,32,7.2,4.5,1.4,177.0,47.0,0.8,7,5,4,1,2026-05-14T02:19:39.020619+05:30
Tirupati,Andhra Pradesh,13.6288,79.4192,26.5,78,0.0,985.3,9.25,37.1,51,25.0,22.6,30.3,281.0,3.0,4.4,7,5,7,1,2026-05-14T02:19:39.020625+05:30
Warangal,Telangana,17.9689,79.5941,30.0,54,0.0,973.9,8.2,33.1,70,28.8,23.6,12.4,238.0,63.0,10.9,4,5,7,1,2026-05-14T02:19:39.020632+05:30
Nizamabad,Telangana,18.6725,78.0941,29.5,60,0.0,959.6,8.75,29.2,81,40.9,30.0,12.0,265.0,85.0,5.8,4,5,7,1,2026-05-14T02:19:39.020638+05:30
Mysore,Karnataka,12.2958,76.6396,23.6,86,0.0,924.0,8.9,42.8,81,24.8,21.0,15.3,268.0,67.0,3.2,3,5,7,1,2026-05-14T02:19:39.020645+05:30
Mangalore,Karnataka,12.9141,74.856,28.1,88,0.0,1001.9,8.3,47.2,76,32.8,23.4,17.7,340.0,37.0,4.3,7,5,4,1,2026-05-14T02:19:39.020652+05:30
Hubli-Dharwad,Karnataka,15.3647,75.124,24.2,95,0.0,936.4,9.15,42.8,64,21.7,14.1,8.7,185.0,53.0,2.2,3,5,7,1,2026-05-14T02:19:39.020658+05:30
Belgaum,Karnataka,15.8497,74.4977,23.3,94,0.0,921.4,9.2,47.9,61,34.0,20.8,15.2,175.0,39.0,2.5,3,5,7,1,2026-05-14T02:19:42.325030+05:30
Coimbatore,Tamil Nadu,11.0168,76.9558,24.6,90,0.0,956.3,8.3,40.3,64,22.6,18.7,8.5,269.0,74.0,4.0,3,5,7,1,2026-05-14T02:19:42.325065+05:30
Madurai,Tamil Nadu,9.9252,78.1198,27.8,84,0.0,986.8,8.55,28.1,76,25.4,23.6,29.3,406.0,36.0,8.7,7,5,7,1,2026-05-14T02:19:42.325077+05:30
Trichy,Tamil Nadu,10.7905,78.7047,27.6,85,0.0,993.4,8.1,29.5,75,28.5,26.8,18.2,330.0,60.0,7.8,7,5,7,1,2026-05-14T02:19:42.325086+05:30
Salem,Tamil Nadu,11.6643,78.146,27.8,74,0.0,971.7,8.85,32.0,88,43.1,38.0,31.4,355.0,58.0,14.3,7,5,7,1,2026-05-14T02:19:42.325094+05:30
Tirunelveli,Tamil Nadu,8.7139,77.7567,28.4,71,0.0,996.8,7.3,22.0,57,18.5,14.1,7.1,381.0,64.0,3.0,7,5,7,1,2026-05-14T02:19:42.325102+05:30
Vellore,Tamil Nadu,12.9165,79.1325,27.0,81,0.0,978.9,7.25,31.3,68,35.9,32.8,32.8,255.0,18.0,12.1,7,5,7,1,2026-05-14T02:19:42.325109+05:30
Erode,Tamil Nadu,11.341,77.7172,27.1,80,0.0,983.2,8.5,31.0,91,34.0,28.3,31.1,309.0,42.0,4.3,7,5,7,1,2026-05-14T02:19:42.325117+05:30
Kochi,Kerala,9.9312,76.2673,26.9,92,0.0,1003.8,7.4,37.1,77,34.3,29.6,27.4,356.0,15.0,6.3,7,5,4,1,2026-05-14T02:19:42.325124+05:30
Thiruvananthapuram,Kerala,8.5241,76.9366,26.6,91,0.0,1003.0,6.45,30.2,52,18.3,10.8,2.8,338.0,92.0,1.6,7,5,4,1,2026-05-14T02:19:42.325131+05:30
Kozhikode,Kerala,11.2588,75.7804,26.2,97,0.1,1003.1,6.85,43.2,63,38.5,22.2,4.6,260.0,95.0,2.7,10,5,4,1,2026-05-14T02:19:42.325138+05:30
Thrissur,Kerala,10.5276,76.2144,25.7,97,0.0,1002.3,6.5,38.9,72,35.3,30.9,23.0,378.0,26.0,5.5,7,5,4,1,2026-05-14T02:19:42.325146+05:30
Kannur,Kerala,11.8745,75.3704,26.7,94,0.1,1002.5,8.9,49.0,77,37.4,30.2,20.2,387.0,37.0,3.6,10,5,4,1,2026-05-14T02:19:42.325153+05:30
Patna,Bihar,25.5941,85.1376,25.1,88,0.0,994.9,8.8,36.4,152,36.1,34.3,13.0,391.0,89.0,15.4,7,5,7,1,2026-05-14T02:19:42.325159+05:30
Gaya,Bihar,24.7914,85.0002,26.4,81,0.0,987.5,8.9,24.8,154,62.4,57.2,17.1,396.0,86.0,15.9,7,5,7,1,2026-05-14T02:19:42.325166+05:30
Muzaffarpur,Bihar,26.1209,85.3647,23.8,89,0.0,995.6,8.8,33.1,148,24.9,24.2,11.8,414.0,84.0,9.6,3,5,7,1,2026-05-14T02:19:42.325173+05:30
Bhagalpur,Bihar,25.2425,87.0117,23.7,96,0.0,996.6,8.8,33.8,114,48.0,40.5,12.2,346.0,87.0,14.7,3,5,7,1,2026-05-14T02:19:42.325180+05:30
Ranchi,Jharkhand,23.3441,85.3096,23.8,76,0.0,932.4,9.3,40.7,90,38.9,31.7,10.0,326.0,109.0,26.3,3,5,7,1,2026-05-14T02:19:42.325186+05:30
Jamshedpur,Jharkhand,22.8046,86.2029,27.0,80,0.0,985.6,9.15,37.1,91,27.3,22.9,19.6,309.0,57.0,20.1,7,5,7,1,2026-05-14T02:19:42.325193+05:30
Dhanbad,Jharkhand,23.7957,86.4304,26.2,91,0.0,973.9,9.05,25.2,143,58.8,51.1,42.1,272.0,61.0,97.8,7,5,7,1,2026-05-14T02:19:42.325200+05:30
Bokaro,Jharkhand,23.6693,86.1511,26.5,81,0.0,977.7,9.1,33.8,140,48.7,40.6,25.2,2259.0,92.0,64.2,7,5,7,1,2026-05-14T02:19:42.325207+05:30
Bhubaneswar,Odisha,20.2961,85.8245,28.0,84,0.0,998.2,9.2,49.7,36,8.0,6.9,6.1,155.0,32.0,2.3,7,5,7,1,2026-05-14T02:19:42.325214+05:30
Cuttack,Odisha,20.4625,85.8828,28.1,84,0.0,1000.0,9.25,48.6,36,8.0,6.9,6.1,183.0,32.0,2.3,7,5,4,1,2026-05-14T02:19:42.325220+05:30
Rourkela,Odisha,22.2604,84.8536,27.0,76,0.0,979.6,9.05,48.6,81,30.0,24.5,17.6,163.0,72.0,23.7,7,5,7,1,2026-05-14T02:19:42.325227+05:30
Raipur,Chhattisgarh,21.2514,81.6296,30.5,52,0.0,968.9,9.05,41.0,106,49.6,37.1,24.3,486.0,77.0,35.5,0,5,7,1,2026-05-14T02:19:42.325234+05:30
Bhilai,Chhattisgarh,21.1938,81.3509,28.2,60,0.0,969.6,9.05,40.3,99,50.6,38.6,28.6,735.0,73.0,44.3,4,5,7,1,2026-05-14T02:19:42.325241+05:30
Guwahati,Assam,26.1158,91.7086,21.9,99,0.0,998.5,8.55,25.2,113,18.7,16.6,7.1,375.0,76.0,1.8,3,5,7,1,2026-05-14T02:19:42.325248+05:30
Agartala,Tripura,23.8315,91.2868,24.6,95,0.0,1001.9,8.85,30.2,70,14.7,11.8,14.1,219.0,31.0,1.9,3,5,4,1,2026-05-14T02:19:42.325255+05:30
Shillong,Meghalaya,25.5788,91.8933,15.5,98,0.0,852.3,8.95,34.6,62,6.7,4.4,3.6,263.0,95.0,1.7,3,10,7,0,2026-05-14T02:19:42.325262+05:30
Imphal,Manipur,24.817,93.9368,20.4,99,0.0,919.7,9.0,32.8,77,19.8,19.0,16.1,411.0,24.0,2.0,3,5,7,1,2026-05-14T02:19:42.325269+05:30
Aizawl,Mizoram,23.7271,92.7176,16.3,100,0.0,888.2,9.1,29.5,59,14.0,11.9,7.3,227.0,44.0,2.5,3,10,7,1,2026-05-14T02:19:42.325276+05:30
Kohima,Nagaland,25.6701,94.1077,15.2,95,0.0,850.4,8.7,28.8,61,10.5,9.9,12.2,250.0,39.0,1.0,3,10,7,0,2026-05-14T02:19:42.325283+05:30
Gangtok,Sikkim,27.3314,88.6138,13.2,92,0.1,832.1,8.45,38.2,68,14.8,14.1,13.4,495.0,88.0,2.1,6,10,7,0,2026-05-14T02:19:42.325289+05:30
Siliguri,West Bengal,26.7271,88.3953,22.0,92,0.0,989.5,8.65,27.7,101,34.9,32.7,11.5,309.0,101.0,4.5,3,5,7,1,2026-05-14T02:19:45.625158+05:30
Durgapur,West Bengal,23.5204,87.3119,27.0,89,0.0,989.3,9.0,32.0,96,18.8,17.4,22.4,210.0,22.0,29.4,7,5,7,1,2026-05-14T02:19:45.625194+05:30
Asansol,West Bengal,23.6739,86.9524,26.9,88,0.0,987.7,9.05,30.6,104,36.4,31.8,28.6,245.0,43.0,42.0,7,5,7,1,2026-05-14T02:19:45.625205+05:30
Pondicherry,Puducherry,11.9139,79.8145,27.8,91,0.0,1002.2,8.4,35.3,43,9.1,6.1,3.4,345.0,41.0,0.9,7,5,4,1,2026-05-14T02:19:45.625215+05:30
Port Blair,Andaman and Nicobar Islands,11.6234,92.7265,25.4,97,0.0,1002.2,5.7,34.9,19,5.5,3.5,0.2,101.0,44.0,0.2,7,5,0,1,2026-05-14T02:19:45.625223+05:30
Haridwar,Uttarakhand,29.9457,78.1642,23.2,77,0.0,966.7,7.5,36.7,152,78.9,60.5,29.9,386.0,45.0,10.0,3,5,7,1,2026-05-14T02:19:45.625232+05:30
Rishikesh,Uttarakhand,30.0869,78.2676,20.4,84,0.0,959.6,7.6,29.5,132,73.6,49.0,19.0,435.0,80.0,7.9,3,5,7,1,2026-05-14T02:19:45.625239+05:30
Nainital,Uttarakhand,29.3919,79.4542,12.3,99,0.0,798.8,8.45,42.8,140,95.2,55.8,21.4,263.0,66.0,7.6,3,10,7,0,2026-05-14T02:19:45.625248+05:30
Mussoorie,Uttarakhand,30.4599,78.0664,15.8,49,0.0,797.6,7.95,52.9,121,71.7,52.2,41.5,300.0,44.0,8.9,0,5,7,0,2026-05-14T02:19:45.625256+05:30
Dharamshala,Himachal Pradesh,32.219,76.3234,19.7,40,0.0,863.9,8.3,45.7,44,14.2,11.0,14.2,216.0,36.0,0.2,0,5,7,0,2026-05-14T02:19:45.625263+05:30
Dalhousie,Himachal Pradesh,32.5387,75.971,11.9,58,0.0,798.1,8.55,38.2,67,28.8,24.0,45.9,381.0,8.0,1.5,0,5,7,0,2026-05-14T02:19:45.625271+05:30
Patiala,Punjab,30.3398,76.3869,27.0,51,0.0,970.6,7.6,52.2,183,146.2,101.7,37.7,500.0,36.0,15.2,4,5,7,0,2026-05-14T02:19:45.625279+05:30
Bhatinda,Punjab,30.211,74.9455,28.2,40,0.0,976.2,8.2,47.5,166,139.7,74.0,18.9,511.0,52.0,8.1,4,5,7,0,2026-05-14T02:19:45.625286+05:30
Rohtak,Haryana,28.8955,76.6066,26.6,79,0.0,974.0,7.7,23.8,383,332.5,123.4,41.3,652.0,70.0,30.6,7,5,7,1,2026-05-14T02:19:45.625293+05:30
Panipat,Haryana,29.3909,76.9635,26.8,74,0.0,972.7,7.6,24.1,574,484.3,155.5,31.0,760.0,68.0,22.2,7,5,7,1,2026-05-14T02:19:45.625300+05:30
Mathura,Uttar Pradesh,27.4924,77.6737,27.8,69,0.0,979.3,7.95,41.4,474,327.8,105.9,17.0,526.0,78.0,13.1,7,5,7,1,2026-05-14T02:19:45.625307+05:30
Vrindavan,Uttar Pradesh,27.5823,77.7027,27.8,69,0.0,979.8,7.95,37.8,474,327.8,105.9,17.0,536.0,78.0,13.1,7,5,7,1,2026-05-14T02:19:45.625313+05:30
Ayodhya,Uttar Pradesh,26.7922,82.1998,26.4,74,0.0,989.4,8.35,30.2,153,135.0,84.3,33.8,449.0,47.0,12.1,7,5,7,1,2026-05-14T02:19:45.625320+05:30
Ratlam,Madhya Pradesh,23.3315,75.0367,30.2,34,0.0,949.3,8.6,41.0,63,31.0,20.0,3.2,216.0,112.0,7.4,0,5,7,0,2026-05-14T02:19:45.625327+05:30
Sagar,Madhya Pradesh,23.8388,78.7378,31.5,27,0.0,943.7,8.8,35.6,83,47.1,24.9,19.8,233.0,38.0,3.7,0,5,7,0,2026-05-14T02:19:45.625334+05:30
Satna,Madhya Pradesh,24.6005,80.8322,28.9,40,0.0,964.6,8.8,50.0,109,82.4,45.8,32.7,360.0,67.0,8.7,4,5,7,0,2026-05-14T02:19:45.625341+05:30
Akola,Maharashtra,20.7002,77.0082,32.6,41,0.0,969.5,8.95,44.6,95,58.4,39.2,27.3,278.0,54.0,8.1,0,5,7,1,2026-05-14T02:19:45.625348+05:30
Amravati,Maharashtra,20.9374,77.7796,31.8,41,0.0,961.9,8.95,48.6,93,47.4,29.3,11.8,289.0,80.0,5.2,0,5,7,1,2026-05-14T02:19:45.625356+05:30
Latur,Maharashtra,18.4088,76.5604,28.8,56,0.0,935.3,9.0,33.5,100,52.2,37.8,12.6,358.0,91.0,7.3,4,5,7,1,2026-05-14T02:19:45.625363+05:30
Nanded,Maharashtra,19.1383,77.3091,31.0,48,0.0,964.4,9.1,29.9,96,49.1,34.1,17.5,293.0,67.0,6.0,0,5,7,1,2026-05-14T02:19:45.625369+05:30
Gulbarga,Karnataka,17.3297,76.8343,30.0,53,0.0,954.0,8.85,30.2,80,48.9,33.5,23.7,325.0,62.0,9.6,4,5,7,1,2026-05-14T02:19:45.625375+05:30
Bidar,Karnataka,17.9104,77.5199,29.1,49,0.0,931.1,8.25,27.0,75,39.9,30.4,19.2,277.0,69.0,6.9,4,5,7,1,2026-05-14T02:19:45.625381+05:30
Hospet,Karnataka,15.2689,76.3909,27.4,77,0.0,951.2,8.8,56.5,82,17.3,13.4,9.1,219.0,62.0,2.8,7,5,7,1,2026-05-14T02:19:45.625389+05:30
Tirupur,Tamil Nadu,11.1085,77.3411,25.9,83,0.0,969.5,8.15,43.6,87,33.6,28.1,27.8,231.0,50.0,6.0,7,5,7,1,2026-05-14T02:19:45.625396+05:30
Alappuzha,Kerala,9.4981,76.3388,27.4,91,0.1,1003.8,7.85,34.9,72,34.0,24.0,14.1,136.0,63.0,4.6,10,5,4,1,2026-05-14T02:19:45.625403+05:30
Munnar,Kerala,10.0889,77.0595,17.2,97,0.0,852.3,7.6,26.3,66,20.4,18.1,11.1,254.0,41.0,1.5,3,10,7,1,2026-05-14T02:19:45.625410+05:30
Silchar,Assam,24.8333,92.7789,23.4,95,0.2,1001.7,8.9,28.8,95,23.8,20.7,10.1,289.0,58.0,3.2,6,5,4,1,2026-05-14T02:19:45.625417+05:30
Dibrugarh,Assam,27.4728,94.912,21.8,98,0.0,992.8,7.35,20.9,72,21.5,20.4,23.0,262.0,6.0,1.0,3,5,7,1,2026-05-14T02:19:45.625423+05:30
