city,state,latitude,longitude,temp,humidity,rain,pressure,uv_index,wind_gusts,aqi,pm10,pm2_5,no2,co,o3,so2,mosquito_risk,arthritis_risk,migraine_risk,frizz_risk,updated_at
Delhi,Delhi,28.6139,77.209,38.2,26,0.1,976.5,7.65,60.5,193,281.3,68.5,6.5,450.0,225.0,23.5,3,5,10,0,2026-05-13T16:01:21.976838+05:30
Mumbai,Maharashtra,19.076,72.8777,32.5,64,0.0,1003.3,7.65,43.2,73,41.8,20.8,5.6,218.0,109.0,15.3,3,5,4,1,2026-05-13T16:01:21.976873+05:30
Bangalore,Karnataka,12.9716,77.5946,34.2,26,0.0,907.4,9.45,38.5,114,36.3,21.4,5.2,313.0,167.0,4.1,0,5,7,0,2026-05-13T16:01:21.976888+05:30
Hyderabad,Telangana,17.385,78.4867,37.8,24,0.0,947.6,8.8,26.6,85,67.5,25.3,2.1,326.0,163.0,5.0,0,5,10,0,2026-05-13T16:01:21.976898+05:30
Chennai,Tamil Nadu,13.0827,80.2707,32.8,58,0.0,1000.5,9.0,46.4,25,6.5,4.4,2.6,143.0,51.0,5.1,0,5,4,1,2026-05-13T16:01:21.976905+05:30
Kolkata,West Bengal,22.5726,88.3639,30.8,69,0.1,1000.2,8.95,34.6,71,22.6,13.9,3.8,260.0,85.0,5.7,6,5,4,1,2026-05-13T16:01:21.976913+05:30
Pune,Maharashtra,18.5204,73.8567,34.5,36,0.0,943.7,8.5,43.9,100,62.4,26.0,2.4,245.0,167.0,7.6,0,5,7,1,2026-05-13T16:01:21.976920+05:30
Ahmedabad,Gujarat,23.0225,72.5714,43.6,14,0.0,993.9,8.2,35.6,72,55.8,17.6,1.7,191.0,140.0,4.5,0,5,10,0,2026-05-13T16:01:21.976931+05:30
Jaipur,Rajasthan,26.9124,75.7873,41.2,12,0.0,953.6,8.2,49.3,160,218.4,36.4,1.0,182.0,131.0,2.9,0,5,10,0,2026-05-13T16:01:21.976959+05:30
Lucknow,Uttar Pradesh,26.8467,80.9462,38.3,31,0.0,985.5,8.15,32.4,170,107.6,51.1,2.3,372.0,191.0,10.6,0,5,10,1,2026-05-13T16:01:21.976967+05:30
Kanpur,Uttar Pradesh,26.4499,80.3319,39.8,24,0.0,983.8,8.2,37.8,179,191.4,52.7,2.4,338.0,192.0,10.4,0,5,10,0,2026-05-13T16:01:21.976979+05:30
Chandigarh,Chandigarh,30.7333,76.7794,33.2,35,0.0,964.3,7.7,36.7,171,143.4,43.8,2.0,403.0,190.0,13.3,0,5,7,0,2026-05-13T16:01:21.976987+05:30
Srinagar,Jammu and Kashmir,34.0837,74.7973,19.3,57,0.0,842.1,8.8,26.3,76,21.3,11.4,2.1,283.0,136.0,1.7,0,5,7,0,2026-05-13T16:01:21.976994+05:30
Jammu,Jammu and Kashmir,32.7266,74.857,34.5,23,0.0,968.6,8.45,25.6,111,82.0,31.1,1.0,234.0,157.0,2.6,0,5,7,0,2026-05-13T16:01:21.977001+05:30
Amritsar,Punjab,31.634,74.8723,33.8,29,0.0,976.2,8.35,35.3,150,168.1,48.0,1.4,320.0,176.0,6.7,0,5,7,0,2026-05-13T16:01:21.977007+05:30
Ludhiana,Punjab,30.901,75.8573,34.2,32,0.0,974.3,7.95,32.0,164,240.3,59.4,1.0,387.0,177.0,11.2,0,5,7,0,2026-05-13T16:01:21.977014+05:30
Jalandhar,Punjab,31.326,75.5762,34.3,31,0.0,975.3,8.15,37.8,151,165.3,47.8,0.8,388.0,170.0,8.1,0,5,7,0,2026-05-13T16:01:21.977020+05:30
Dehradun,Uttarakhand,30.6284,78.0322,22.0,50,0.0,829.6,8.1,34.6,106,59.3,26.5,0.9,299.0,162.0,6.4,0,5,7,0,2026-05-13T16:01:21.977028+05:30
Shimla,Himachal Pradesh,31.1048,77.1734,20.2,33,0.0,784.6,8.2,44.3,124,51.1,26.1,1.0,228.0,180.0,14.6,0,5,7,0,2026-05-13T16:01:21.977034+05:30
Manali,Himachal Pradesh,32.2396,77.1887,18.9,41,0.0,816.5,9.95,41.0,119,21.9,10.6,0.7,155.0,169.0,0.5,0,5,7,0,2026-05-13T16:01:21.977041+05:30
Gurgaon,Haryana,28.4595,77.0266,37.5,24,0.0,974.8,7.75,59.4,705,538.3,84.3,5.3,320.0,191.0,16.7,0,5,10,0,2026-05-13T16:01:21.977047+05:30
Noida,Uttar Pradesh,28.5355,77.391,36.1,34,0.1,977.8,7.7,43.9,705,538.3,84.3,5.3,407.0,191.0,16.7,3,5,10,1,2026-05-13T16:01:21.977054+05:30
Ghaziabad,Uttar Pradesh,28.6692,77.4538,36.5,34,0.1,976.0,7.65,33.1,160,268.2,64.3,4.2,374.0,208.0,13.4,3,5,10,1,2026-05-13T16:01:21.977060+05:30
Faridabad,Haryana,28.4089,77.3178,37.3,24,0.1,977.1,7.75,55.4,705,538.3,84.3,5.3,365.0,191.0,16.7,3,5,10,0,2026-05-13T16:01:21.977066+05:30
Meerut,Uttar Pradesh,28.9845,77.7064,36.0,33,0.0,975.2,7.6,33.5,160,268.2,64.3,4.2,356.0,208.0,13.4,0,5,10,1,2026-05-13T16:01:21.977072+05:30
Agra,Uttar Pradesh,27.1767,78.0081,38.3,26,0.0,980.5,8.0,32.0,725,372.5,65.2,1.8,326.0,168.0,8.9,0,5,10,0,2026-05-13T16:01:21.977079+05:30
Varanasi,Uttar Pradesh,25.3176,82.9739,38.7,28,0.0,989.6,8.7,43.6,197,101.5,53.4,2.5,376.0,212.0,13.9,0,5,10,1,2026-05-13T16:01:21.977085+05:30
Prayagraj,Uttar Pradesh,25.4358,81.8463,40.2,21,0.0,987.8,8.55,39.2,198,102.0,56.1,2.5,320.0,208.0,12.5,0,5,10,0,2026-05-13T16:01:21.977093+05:30
Gorakhpur,Uttar Pradesh,26.7606,83.3732,34.0,48,0.0,990.1,8.5,38.2,163,127.6,49.8,1.7,332.0,186.0,7.7,0,5,7,1,2026-05-13T16:01:21.977099+05:30
Bareilly,Uttar Pradesh,28.367,79.4304,35.7,43,0.0,979.5,7.95,42.5,166,199.3,56.9,1.8,356.0,197.0,12.6,0,5,10,1,2026-05-13T16:01:21.977106+05:30
Aligarh,Uttar Pradesh,27.8974,78.088,36.7,32,0.0,978.2,7.8,37.8,332,314.8,63.1,2.5,315.0,182.0,13.9,0,5,10,1,2026-05-13T16:01:21.977112+05:30
Moradabad,Uttar Pradesh,28.8386,78.7733,35.0,43,0.0,977.4,7.8,27.0,174,168.1,58.8,3.0,361.0,206.0,21.8,0,5,7,1,2026-05-13T16:01:21.977118+05:30
Saharanpur,Uttar Pradesh,29.9637,77.546,33.8,40,0.0,970.5,7.4,31.0,159,134.6,49.7,2.0,371.0,191.0,10.6,0,5,7,1,2026-05-13T16:01:21.977123+05:30
Jhansi,Uttar Pradesh,25.4484,78.5685,41.8,14,0.0,970.5,8.45,32.4,126,122.0,35.2,1.2,207.0,153.0,10.3,0,5,10,0,2026-05-13T16:01:25.342682+05:30
Surat,Gujarat,21.1702,72.8311,35.3,47,0.0,1000.2,6.4,41.8,92,60.5,34.1,30.1,495.0,76.0,65.1,0,5,7,1,2026-05-13T16:01:25.342708+05:30
Vadodara,Gujarat,22.3072,73.1812,43.1,14,0.0,996.3,7.95,40.3,87,48.4,19.8,1.7,193.0,157.0,5.8,0,5,10,0,2026-05-13T16:01:25.342721+05:30
Rajkot,Gujarat,22.3039,70.8022,39.7,24,0.0,987.3,7.75,52.9,59,49.2,15.3,1.2,145.0,132.0,6.1,0,5,10,0,2026-05-13T16:01:25.342731+05:30
Thane,Maharashtra,19.2183,72.9781,35.2,49,0.0,1002.1,7.9,38.2,73,41.8,20.8,5.6,188.0,109.0,15.3,0,5,7,1,2026-05-13T16:01:25.342740+05:30
Nagpur,Maharashtra,21.1458,79.0882,41.3,20,0.0,966.6,8.95,40.3,146,79.2,31.7,4.3,225.0,188.0,18.9,0,5,10,0,2026-05-13T16:01:25.342748+05:30
Nashik,Maharashtra,19.9975,73.7898,35.0,34,0.0,941.3,8.25,46.8,78,49.0,21.5,1.3,186.0,143.0,3.9,0,5,7,1,2026-05-13T16:01:25.342757+05:30
Aurangabad,Maharashtra,19.8762,75.3433,40.8,14,0.0,938.1,9.1,32.8,122,41.0,19.7,1.0,209.0,159.0,7.4,0,5,10,0,2026-05-13T16:01:25.342766+05:30
Solapur,Maharashtra,17.6599,75.9064,39.1,25,0.0,951.2,9.1,37.4,116,68.9,26.8,1.0,225.0,170.0,5.7,0,5,10,0,2026-05-13T16:01:25.342774+05:30
Kolhapur,Maharashtra,16.705,74.2433,33.0,46,0.0,943.2,8.95,45.7,81,43.7,22.6,3.4,200.0,152.0,5.5,0,5,7,1,2026-05-13T16:01:25.342782+05:30
Goa,Goa,15.2993,74.124,31.2,71,0.1,992.5,8.9,28.4,72,32.4,14.7,0.8,148.0,91.0,1.3,6,5,7,1,2026-05-13T16:01:25.342791+05:30
Jodhpur,Rajasthan,26.2389,73.0243,43.3,10,0.0,975.5,8.4,42.5,120,170.9,26.9,0.5,172.0,140.0,2.2,0,5,10,0,2026-05-13T16:01:25.342800+05:30
Udaipur,Rajasthan,24.5854,73.7125,39.3,16,0.0,941.8,8.85,39.2,88,29.0,12.6,0.5,166.0,139.0,2.5,0,5,10,0,2026-05-13T16:01:25.342808+05:30
Kota,Rajasthan,25.2138,75.8648,42.8,11,0.0,971.7,8.4,45.0,84,47.1,13.2,0.7,174.0,144.0,2.7,0,5,10,0,2026-05-13T16:01:25.342817+05:30
Bikaner,Rajasthan,28.0229,73.3119,42.5,11,0.0,974.2,8.35,50.8,100,183.5,32.5,0.2,149.0,135.0,5.9,0,5,10,0,2026-05-13T16:01:25.342825+05:30
Ajmer,Rajasthan,26.4499,74.6399,40.0,13,0.0,948.8,8.35,48.2,79,135.0,26.3,0.5,169.0,121.0,2.2,0,5,10,0,2026-05-13T16:01:25.342833+05:30
Gwalior,Madhya Pradesh,26.2183,78.1828,41.8,14,0.0,975.4,8.25,41.8,121,151.3,33.6,0.6,246.0,143.0,4.2,0,5,10,0,2026-05-13T16:01:25.342839+05:30
Indore,Madhya Pradesh,22.7196,75.8577,41.7,12,0.0,942.6,8.75,44.3,102,81.7,23.5,0.7,205.0,144.0,4.1,0,5,10,0,2026-05-13T16:01:25.342844+05:30
Bhopal,Madhya Pradesh,23.2599,77.4126,41.2,13,0.0,947.9,8.75,41.4,98,62.2,18.6,0.6,189.0,136.0,3.3,0,5,10,0,2026-05-13T16:01:25.342850+05:30
Jabalpur,Madhya Pradesh,23.1815,79.9864,41.2,15,0.0,954.8,8.9,38.5,121,67.3,19.7,0.9,193.0,145.0,4.5,0,5,10,0,2026-05-13T16:01:25.342856+05:30
Ujjain,Madhya Pradesh,23.1765,75.7885,40.8,13,0.0,948.3,8.65,36.7,85,72.6,21.4,0.6,177.0,137.0,3.7,0,5,10,0,2026-05-13T16:01:25.342862+05:30
Visakhapatnam,Andhra Pradesh,17.6868,83.2185,32.2,61,0.0,997.3,9.0,37.1,70,18.2,14.3,20.6,444.0,48.0,23.8,3,5,7,1,2026-05-13T16:01:25.342868+05:30
Vijayawada,Andhra Pradesh,16.5062,80.648,39.1,28,0.0,995.1,9.2,39.6,59,41.3,27.1,2.7,192.0,148.0,6.3,0,5,10,1,2026-05-13T16:01:25.342874+05:30
Guntur,Andhra Pradesh,16.3067,80.4365,39.0,27,0.0,996.1,9.25,34.6,59,48.4,30.0,2.3,219.0,161.0,5.7,0,5,10,1,2026-05-13T16:01:25.342880+05:30
Nellore,Andhra Pradesh,14.4426,79.9865,35.0,45,0.0,998.9,9.15,37.4,33,13.7,7.8,1.2,121.0,75.0,2.1,0,5,7,1,2026-05-13T16:01:25.342886+05:30
Kurnool,Andhra Pradesh,15.8281,78.0373,39.2,25,0.0,970.1,9.2,34.2,55,45.6,19.8,0.4,202.0,142.0,2.7,0,5,10,0,2026-05-13T16:01:25.342893+05:30
Kakinada,Andhra Pradesh,16.9891,82.2475,33.2,53,0.0,1000.7,9.15,37.4,35,12.7,8.1,1.0,167.0,78.0,0.9,0,5,4,1,2026-05-13T16:01:25.342899+05:30
Tirupati,Andhra Pradesh,13.6288,79.4192,36.2,35,0.0,984.1,9.25,33.1,50,13.2,7.1,1.7,163.0,108.0,1.4,0,5,10,1,2026-05-13T16:01:25.342905+05:30
Warangal,Telangana,17.9689,79.5941,37.5,34,0.0,972.4,9.2,41.4,66,55.4,25.4,1.4,219.0,160.0,6.6,0,5,10,1,2026-05-13T16:01:25.342911+05:30
Nizamabad,Telangana,18.6725,78.0941,40.0,23,0.0,958.7,9.15,33.8,94,72.6,26.9,0.4,226.0,160.0,4.3,0,5,10,0,2026-05-13T16:01:25.342917+05:30
Mysore,Karnataka,12.2958,76.6396,32.9,37,0.0,923.5,9.3,42.8,117,38.0,22.8,3.0,245.0,173.0,3.6,0,5,7,1,2026-05-13T16:01:25.342923+05:30
Mangalore,Karnataka,12.9141,74.856,30.9,72,0.1,1001.3,7.95,34.9,77,34.5,16.4,1.5,139.0,99.0,1.3,6,5,4,1,2026-05-13T16:01:25.342929+05:30
Hubli-Dharwad,Karnataka,15.3647,75.124,32.2,49,0.1,935.7,8.4,47.9,80,50.1,23.9,2.0,214.0,163.0,4.6,3,5,7,1,2026-05-13T16:01:25.342935+05:30
Belgaum,Karnataka,15.8497,74.4977,28.2,64,0.1,921.8,9.15,38.9,78,51.8,23.1,2.2,207.0,144.0,4.9,10,5,7,1,2026-05-13T16:01:28.714316+05:30
Coimbatore,Tamil Nadu,11.0168,76.9558,31.7,53,0.0,955.9,9.2,43.6,113,35.6,21.3,2.5,242.0,156.0,3.4,0,5,7,1,2026-05-13T16:01:28.714336+05:30
Madurai,Tamil Nadu,9.9252,78.1198,34.6,44,0.0,986.3,9.05,24.8,114,35.2,22.4,7.0,278.0,168.0,4.8,0,5,7,1,2026-05-13T16:01:28.714346+05:30
Trichy,Tamil Nadu,10.7905,78.7047,34.8,44,0.0,993.0,9.0,31.7,72,32.1,22.8,3.8,235.0,159.0,9.7,0,5,7,1,2026-05-13T16:01:28.714353+05:30
Salem,Tamil Nadu,11.6643,78.146,37.2,28,0.0,970.3,9.2,27.4,119,36.0,22.5,2.9,236.0,190.0,10.9,0,5,10,0,2026-05-13T16:01:28.714360+05:30
Tirunelveli,Tamil Nadu,8.7139,77.7567,33.8,49,0.0,996.7,7.7,21.2,66,26.0,18.1,1.7,213.0,138.0,1.1,0,5,7,1,2026-05-13T16:01:28.714366+05:30
Vellore,Tamil Nadu,12.9165,79.1325,36.7,31,0.0,977.5,9.2,31.3,65,13.2,8.1,1.5,172.0,120.0,2.1,0,5,10,1,2026-05-13T16:01:28.714373+05:30
Erode,Tamil Nadu,11.341,77.7172,36.8,30,0.0,982.1,9.15,33.5,139,36.8,22.8,3.2,318.0,186.0,3.9,0,5,10,1,2026-05-13T16:01:28.714379+05:30
Kochi,Kerala,9.9312,76.2673,29.4,77,0.1,1003.3,8.75,34.6,80,25.8,15.9,3.3,161.0,108.0,1.0,10,5,4,1,2026-05-13T16:01:28.714385+05:30
Thiruvananthapuram,Kerala,8.5241,76.9366,29.0,78,0.0,1002.8,7.45,33.8,59,22.1,12.0,1.3,141.0,111.0,0.9,7,5,4,1,2026-05-13T16:01:28.714392+05:30
Kozhikode,Kerala,11.2588,75.7804,29.3,81,0.1,1002.3,8.35,36.7,67,35.0,14.8,0.8,155.0,92.0,0.9,10,5,4,1,2026-05-13T16:01:28.714398+05:30
Thrissur,Kerala,10.5276,76.2144,29.1,81,0.1,1001.5,8.7,38.2,77,25.4,15.8,1.3,143.0,112.0,1.1,10,5,4,1,2026-05-13T16:01:28.714405+05:30
Kannur,Kerala,11.8745,75.3704,30.2,77,0.0,1001.7,8.75,33.8,84,36.9,16.8,1.9,164.0,102.0,1.2,3,5,4,1,2026-05-13T16:01:28.714411+05:30
Patna,Bihar,25.5941,85.1376,33.3,52,0.0,993.2,8.75,30.2,154,76.8,61.5,3.4,372.0,205.0,12.1,0,5,7,1,2026-05-13T16:01:28.714418+05:30
Gaya,Bihar,24.7914,85.0002,36.2,41,0.0,986.2,8.85,29.5,170,105.7,53.4,2.3,364.0,193.0,11.6,0,5,10,1,2026-05-13T16:01:28.714424+05:30
Muzaffarpur,Bihar,26.1209,85.3647,32.8,53,0.0,993.5,8.75,33.8,149,57.5,48.8,3.9,338.0,188.0,9.0,0,5,7,1,2026-05-13T16:01:28.714430+05:30
Bhagalpur,Bihar,25.2425,87.0117,31.2,63,0.0,994.6,8.75,38.2,103,57.9,47.6,6.5,308.0,182.0,5.9,3,5,7,1,2026-05-13T16:01:28.714436+05:30
Ranchi,Jharkhand,23.3441,85.3096,32.5,40,0.1,932.3,9.15,35.3,110,81.0,35.9,2.2,251.0,167.0,11.0,3,5,7,1,2026-05-13T16:01:28.714442+05:30
Jamshedpur,Jharkhand,22.8046,86.2029,35.1,44,0.0,983.7,9.15,32.0,93,76.6,38.8,3.2,265.0,180.0,16.1,0,5,10,1,2026-05-13T16:01:28.714448+05:30
Dhanbad,Jharkhand,23.7957,86.4304,36.2,35,0.0,972.6,9.1,36.7,150,105.9,59.8,14.1,454.0,207.0,46.0,0,5,10,1,2026-05-13T16:01:28.714454+05:30
Bokaro,Jharkhand,23.6693,86.1511,36.2,35,0.0,976.4,9.1,33.5,152,116.4,52.2,12.9,408.0,191.0,36.2,0,5,10,1,2026-05-13T16:01:28.714460+05:30
Bhubaneswar,Odisha,20.2961,85.8245,32.3,58,0.0,996.3,9.0,39.2,48,16.3,9.8,2.2,150.0,86.0,2.9,0,5,7,1,2026-05-13T16:01:28.714467+05:30
Cuttack,Odisha,20.4625,85.8828,33.3,56,0.0,997.8,9.05,41.4,48,16.3,9.8,2.2,158.0,86.0,2.9,0,5,7,1,2026-05-13T16:01:28.714473+05:30
Rourkela,Odisha,22.2604,84.8536,36.8,35,0.0,978.4,9.1,46.1,105,71.0,38.4,2.0,266.0,190.0,25.5,0,5,10,1,2026-05-13T16:01:28.714479+05:30
Raipur,Chhattisgarh,21.2514,81.6296,38.5,30,0.0,968.3,9.1,38.5,170,80.6,32.5,5.0,173.0,196.0,7.0,0,5,10,1,2026-05-13T16:01:28.714485+05:30
Bhilai,Chhattisgarh,21.1938,81.3509,37.1,33,0.0,968.8,9.1,41.8,136,78.5,31.9,5.3,244.0,180.0,7.4,0,5,10,1,2026-05-13T16:01:28.714490+05:30
Guwahati,Assam,26.1158,91.7086,27.0,80,0.1,996.6,7.45,22.3,115,29.5,26.1,2.8,342.0,137.0,1.0,10,5,7,1,2026-05-13T16:01:28.714496+05:30
Agartala,Tripura,23.8315,91.2868,29.5,71,0.1,1000.3,8.75,29.2,96,21.1,15.8,4.8,210.0,132.0,0.9,10,5,4,1,2026-05-13T16:01:28.714503+05:30
Shillong,Meghalaya,25.5788,91.8933,21.8,63,0.0,853.6,7.9,30.6,102,12.2,10.4,2.1,256.0,135.0,1.0,3,5,7,0,2026-05-13T16:01:28.714509+05:30
Imphal,Manipur,24.817,93.9368,27.0,57,0.0,918.3,9.3,27.7,98,18.7,15.6,2.0,268.0,116.0,1.1,4,5,7,1,2026-05-13T16:01:28.714515+05:30
Aizawl,Mizoram,23.7271,92.7176,25.2,56,0.1,888.8,9.1,26.3,80,24.6,19.5,2.4,234.0,122.0,1.2,7,5,7,0,2026-05-13T16:01:28.714521+05:30
Kohima,Nagaland,25.6701,94.1077,18.2,97,0.1,851.3,8.85,32.8,87,22.9,18.0,2.1,279.0,118.0,0.8,6,10,7,1,2026-05-13T16:01:28.714527+05:30
Gangtok,Sikkim,27.3314,88.6138,16.3,94,0.0,832.8,9.05,34.6,97,14.6,11.8,1.8,287.0,140.0,0.5,3,10,7,0,2026-05-13T16:01:28.714533+05:30
Siliguri,West Bengal,26.7271,88.3953,24.7,89,0.1,987.9,8.7,27.0,125,28.5,23.3,3.3,406.0,146.0,1.5,6,5,7,1,2026-05-13T16:01:32.084979+05:30
Durgapur,West Bengal,23.5204,87.3119,29.0,74,0.2,988.7,9.05,41.4,113,71.5,52.3,14.8,560.0,165.0,48.4,10,5,7,1,2026-05-13T16:01:32.085000+05:30
Asansol,West Bengal,23.6739,86.9524,31.9,59,0.0,986.8,9.05,33.5,114,85.2,56.0,13.4,305.0,195.0,49.1,0,5,7,1,2026-05-13T16:01:32.085011+05:30
Pondicherry,Puducherry,11.9139,79.8145,30.9,74,0.0,1001.9,9.1,34.2,32,13.6,11.1,3.2,207.0,97.0,6.9,3,5,4,1,2026-05-13T16:01:32.085019+05:30
Port Blair,Andaman and Nicobar Islands,11.6234,92.7265,26.0,98,0.3,1003.0,3.75,35.6,24,2.6,1.8,0.4,116.0,45.0,0.1,10,5,0,1,2026-05-13T16:01:32.085027+05:30
Haridwar,Uttarakhand,29.9457,78.1642,34.2,38,0.0,968.5,7.5,29.5,156,126.7,47.6,1.2,329.0,184.0,11.7,0,5,7,1,2026-05-13T16:01:32.085033+05:30
Rishikesh,Uttarakhand,30.0869,78.2676,33.3,39,0.0,961.6,7.6,24.8,146,100.1,39.1,0.8,292.0,175.0,9.0,0,5,7,1,2026-05-13T16:01:32.085040+05:30
Nainital,Uttarakhand,29.3919,79.4542,21.7,47,0.0,804.5,8.45,43.9,149,102.2,40.0,1.4,274.0,189.0,8.1,0,5,7,0,2026-05-13T16:01:32.085047+05:30
Mussoorie,Uttarakhand,30.4599,78.0664,20.5,43,0.1,802.2,8.0,49.3,149,94.5,40.7,1.4,287.0,182.0,11.0,3,5,7,0,2026-05-13T16:01:32.085053+05:30
Dharamshala,Himachal Pradesh,32.219,76.3234,24.5,35,0.0,867.4,8.35,47.2,108,42.8,17.3,0.4,205.0,148.0,1.2,0,5,7,0,2026-05-13T16:01:32.085060+05:30
Dalhousie,Himachal Pradesh,32.5387,75.971,20.8,37,0.0,804.2,8.6,33.5,103,82.9,30.6,1.3,232.0,152.0,2.3,0,5,7,0,2026-05-13T16:01:32.085067+05:30
Patiala,Punjab,30.3398,76.3869,34.7,32,0.0,973.2,7.6,42.5,193,424.7,73.6,1.7,324.0,189.0,13.1,0,5,7,0,2026-05-13T16:01:32.085074+05:30
Bhatinda,Punjab,30.211,74.9455,40.7,16,0.0,976.6,8.25,48.2,316,303.6,69.8,2.1,280.0,191.0,19.2,0,5,10,0,2026-05-13T16:01:32.085081+05:30
Rohtak,Haryana,28.8955,76.6066,36.8,29,0.0,975.3,7.7,59.8,360,381.8,68.9,2.5,317.0,187.0,11.9,0,5,10,0,2026-05-13T16:01:32.085087+05:30
Panipat,Haryana,29.3909,76.9635,35.3,35,0.0,974.5,7.55,43.2,481,540.2,87.1,4.0,344.0,214.0,24.3,0,5,10,1,2026-05-13T16:01:32.085093+05:30
Mathura,Uttar Pradesh,27.4924,77.6737,38.5,26,0.0,979.5,7.95,28.4,584,361.4,63.3,1.8,322.0,161.0,6.8,0,5,10,0,2026-05-13T16:01:32.085100+05:30
Vrindavan,Uttar Pradesh,27.5823,77.7027,38.2,26,0.0,979.8,7.95,28.8,584,361.4,63.3,1.8,319.0,161.0,6.8,0,5,10,0,2026-05-13T16:01:32.085106+05:30
Ayodhya,Uttar Pradesh,26.7922,82.1998,35.4,41,0.0,987.8,8.3,28.8,163,119.2,52.4,2.1,353.0,183.0,8.6,0,5,10,1,2026-05-13T16:01:32.085112+05:30
Ratlam,Madhya Pradesh,23.3315,75.0367,39.7,17,0.0,949.4,8.55,41.4,87,63.3,19.6,0.6,169.0,137.0,3.5,0,5,10,0,2026-05-13T16:01:32.085118+05:30
Sagar,Madhya Pradesh,23.8388,78.7378,40.3,13,0.0,944.7,8.8,43.2,103,65.0,17.7,0.4,172.0,148.0,6.1,0,5,10,0,2026-05-13T16:01:32.085123+05:30
Satna,Madhya Pradesh,24.6005,80.8322,41.1,15,0.0,964.1,8.5,41.4,142,112.2,32.1,0.6,202.0,142.0,5.4,0,5,10,0,2026-05-13T16:01:32.085129+05:30
Akola,Maharashtra,20.7002,77.0082,42.8,16,0.0,967.6,8.95,33.8,121,83.4,29.4,1.3,212.0,167.0,13.3,0,5,10,0,2026-05-13T16:01:32.085136+05:30
Amravati,Maharashtra,20.9374,77.7796,41.7,18,0.0,960.6,8.95,36.7,123,83.8,28.8,1.7,215.0,167.0,8.3,0,5,10,0,2026-05-13T16:01:32.085143+05:30
Latur,Maharashtra,18.4088,76.5604,38.8,24,0.0,934.6,8.95,41.8,106,71.0,26.8,0.6,218.0,162.0,7.1,0,5,10,0,2026-05-13T16:01:32.085149+05:30
Nanded,Maharashtra,19.1383,77.3091,40.2,21,0.0,962.2,9.05,30.6,125,70.3,27.7,0.5,220.0,171.0,7.2,0,5,10,0,2026-05-13T16:01:32.085156+05:30
Gulbarga,Karnataka,17.3297,76.8343,39.5,24,0.0,952.5,9.15,28.1,86,61.0,23.2,1.5,215.0,162.0,5.7,0,5,10,0,2026-05-13T16:01:32.085161+05:30
Bidar,Karnataka,17.9104,77.5199,36.7,30,0.0,930.7,9.15,36.0,90,64.7,23.9,0.9,211.0,157.0,4.1,0,5,10,1,2026-05-13T16:01:32.085167+05:30
Hospet,Karnataka,15.2689,76.3909,35.1,40,0.0,950.0,9.2,46.4,86,49.4,23.3,1.8,212.0,176.0,5.1,0,5,10,1,2026-05-13T16:01:32.085173+05:30
Tirupur,Tamil Nadu,11.1085,77.3411,37.3,27,0.0,968.6,9.25,40.3,139,40.9,24.2,3.9,259.0,177.0,3.8,0,5,10,0,2026-05-13T16:01:32.085179+05:30
Alappuzha,Kerala,9.4981,76.3388,29.6,77,0.0,1003.4,8.05,36.7,73,25.7,15.5,3.3,138.0,113.0,2.1,7,5,4,1,2026-05-13T16:01:32.085185+05:30
Munnar,Kerala,10.0889,77.0595,20.2,87,0.0,853.5,9.45,31.3,79,30.6,18.7,2.3,181.0,132.0,1.9,3,5,7,1,2026-05-13T16:01:32.085192+05:30
Silchar,Assam,24.8333,92.7789,30.1,63,0.0,999.0,8.9,25.6,111,17.6,14.9,2.1,317.0,131.0,3.4,3,5,7,1,2026-05-13T16:01:32.085198+05:30
Dibrugarh,Assam,27.4728,94.912,26.4,82,0.1,990.6,8.7,24.1,105,27.0,20.1,2.8,305.0,133.0,1.5,10,5,7,1,2026-05-13T16:01:32.085204+05:30
