city,state,latitude,longitude,temp,humidity,rain,pressure,uv_index,wind_gusts,aqi,pm10,pm2_5,mosquito_risk,arthritis_risk,migraine_risk,frizz_risk,updated_at
Delhi,Delhi,28.6139,77.209,29.6,46,0.0,983.2,5.85,34.6,418,815.8,129.0,4,5,3,1,2026-03-05T18:37:46.047611+05:30
Mumbai,Maharashtra,19.076,72.8777,29.7,54,0.0,1008.0,7.4,26.6,185,36.8,34.9,4,0,4,1,2026-03-05T18:37:46.047657+05:30
Bangalore,Karnataka,12.9716,77.5946,28.6,27,0.0,911.8,9.15,31.3,152,30.5,29.1,4,5,7,0,2026-03-05T18:37:46.047672+05:30
Hyderabad,Telangana,17.385,78.4867,32.2,28,0.0,953.1,8.45,27.4,159,24.6,23.0,0,5,7,0,2026-03-05T18:37:46.047682+05:30
Chennai,Tamil Nadu,13.0827,80.2707,28.5,64,0.0,1007.0,8.85,31.3,100,29.0,25.0,7,5,4,1,2026-03-05T18:37:46.047690+05:30
Kolkata,West Bengal,22.5726,88.3639,27.2,52,0.0,1005.5,7.8,10.8,215,109.7,93.6,4,5,4,1,2026-03-05T18:37:46.047698+05:30
Pune,Maharashtra,18.5204,73.8567,34.3,19,0.0,948.4,7.95,31.3,123,16.1,14.9,0,5,7,0,2026-03-05T18:37:46.047708+05:30
Ahmedabad,Gujarat,23.0225,72.5714,33.0,17,0.0,1003.7,7.15,28.4,93,23.5,22.6,0,5,4,0,2026-03-05T18:37:46.047715+05:30
Jaipur,Rajasthan,26.9124,75.7873,32.4,20,0.0,961.2,6.65,34.9,94,148.1,32.1,0,5,7,0,2026-03-05T18:37:46.047721+05:30
Lucknow,Uttar Pradesh,26.8467,80.9462,28.9,53,0.0,993.4,6.4,15.1,165,199.8,74.7,4,5,7,1,2026-03-05T18:37:46.047727+05:30
Kanpur,Uttar Pradesh,26.4499,80.3319,27.7,49,0.0,991.5,6.4,28.4,176,279.4,74.5,4,5,7,0,2026-03-05T18:37:46.047734+05:30
Chandigarh,Chandigarh,30.7333,76.7794,25.4,58,0.0,969.0,5.75,31.0,122,48.8,40.9,4,5,3,1,2026-03-05T18:37:46.047740+05:30
Srinagar,Jammu and Kashmir,34.0837,74.7973,19.5,57,0.0,843.9,6.75,14.4,151,50.6,37.4,0,5,7,0,2026-03-05T18:37:46.047746+05:30
Jammu,Jammu and Kashmir,32.7266,74.857,27.2,62,0.0,973.1,6.4,23.8,104,62.6,41.2,7,5,7,1,2026-03-05T18:37:46.047753+05:30
Amritsar,Punjab,31.634,74.8723,25.9,60,0.0,981.4,6.35,22.7,147,50.2,33.8,4,5,7,1,2026-03-05T18:37:46.047758+05:30
Ludhiana,Punjab,30.901,75.8573,27.8,57,0.0,979.5,6.0,25.6,156,115.3,54.7,4,5,3,1,2026-03-05T18:37:46.047764+05:30
Jalandhar,Punjab,31.326,75.5762,27.1,58,0.0,980.5,6.2,24.1,156,75.9,42.7,4,5,7,1,2026-03-05T18:37:46.047771+05:30
Dehradun,Uttarakhand,30.6284,78.0322,17.6,84,0.0,830.6,6.15,31.7,84,32.2,22.8,3,10,7,0,2026-03-05T18:37:46.047777+05:30
Shimla,Himachal Pradesh,31.1048,77.1734,18.2,51,0.0,787.0,6.2,55.1,65,30.7,18.6,0,5,7,0,2026-03-05T18:37:46.047784+05:30
Manali,Himachal Pradesh,32.2396,77.1887,22.0,48,0.0,824.0,7.8,36.7,100,25.1,14.7,0,5,7,0,2026-03-05T18:37:46.047790+05:30
Gurgaon,Haryana,28.4595,77.0266,27.1,55,0.0,981.9,5.95,33.5,1504,1866.4,229.1,4,5,3,1,2026-03-05T18:37:46.047796+05:30
Noida,Uttar Pradesh,28.5355,77.391,29.8,44,0.0,984.8,5.85,34.6,1504,1866.4,229.1,4,5,3,1,2026-03-05T18:37:46.047801+05:30
Ghaziabad,Uttar Pradesh,28.6692,77.4538,29.0,49,0.0,982.8,5.8,31.7,282,627.7,111.3,4,5,3,1,2026-03-05T18:37:46.047806+05:30
Faridabad,Haryana,28.4089,77.3178,28.4,47,0.0,984.1,5.9,33.1,1504,1866.4,229.1,4,5,3,0,2026-03-05T18:37:46.047812+05:30
Meerut,Uttar Pradesh,28.9845,77.7064,27.5,54,0.0,981.2,5.7,30.6,282,627.7,111.3,4,5,3,1,2026-03-05T18:37:46.047817+05:30
Agra,Uttar Pradesh,27.1767,78.0081,28.4,43,0.0,988.0,6.2,37.8,482,832.6,116.9,4,5,7,0,2026-03-05T18:37:46.047823+05:30
Varanasi,Uttar Pradesh,25.3176,82.9739,26.7,60,0.0,997.8,7.05,16.6,160,183.0,80.1,4,5,7,1,2026-03-05T18:37:46.047830+05:30
Prayagraj,Uttar Pradesh,25.4358,81.8463,27.1,60,0.0,995.9,6.9,19.4,156,200.7,75.9,4,5,7,1,2026-03-05T18:37:46.047836+05:30
Gorakhpur,Uttar Pradesh,26.7606,83.3732,26.6,59,0.0,997.6,6.75,11.2,186,128.1,83.8,4,5,7,1,2026-03-05T18:37:46.047841+05:30
Bareilly,Uttar Pradesh,28.367,79.4304,26.6,66,0.0,986.9,6.05,14.0,173,145.8,84.3,7,5,7,1,2026-03-05T18:37:46.047846+05:30
Aligarh,Uttar Pradesh,27.8974,78.088,27.7,48,0.0,985.5,5.95,35.3,723,1117.6,175.1,4,5,3,0,2026-03-05T18:37:46.047852+05:30
Moradabad,Uttar Pradesh,28.8386,78.7733,26.7,64,0.0,983.6,5.85,18.0,174,132.2,89.4,7,5,3,1,2026-03-05T18:37:46.047859+05:30
Saharanpur,Uttar Pradesh,29.9637,77.546,26.2,54,0.0,975.1,5.5,23.4,158,297.1,79.6,4,5,3,1,2026-03-05T18:37:46.047864+05:30
Jhansi,Uttar Pradesh,25.4484,78.5685,30.4,34,0.0,978.3,6.85,35.3,73,31.8,19.4,0,5,7,0,2026-03-05T18:37:49.382517+05:30
Surat,Gujarat,21.1702,72.8311,32.4,31,0.0,1007.4,7.1,29.5,110,46.1,44.4,0,5,4,0,2026-03-05T18:37:49.382549+05:30
Vadodara,Gujarat,22.3072,73.1812,34.9,21,0.0,1005.0,7.2,24.5,117,29.8,28.1,0,5,4,0,2026-03-05T18:37:49.382559+05:30
Rajkot,Gujarat,22.3039,70.8022,31.6,28,0.0,996.8,7.05,36.4,103,20.0,19.5,0,5,7,0,2026-03-05T18:37:49.382569+05:30
Thane,Maharashtra,19.2183,72.9781,32.1,32,0.0,1007.6,7.4,41.4,185,36.8,34.9,0,5,4,0,2026-03-05T18:37:49.382597+05:30
Nagpur,Maharashtra,21.1458,79.0882,32.9,23,0.0,973.0,7.8,27.0,98,23.6,15.8,0,5,7,0,2026-03-05T18:37:49.382606+05:30
Nashik,Maharashtra,19.9975,73.7898,30.9,23,0.0,946.4,7.55,37.4,107,20.0,17.6,0,5,7,0,2026-03-05T18:37:49.382616+05:30
Aurangabad,Maharashtra,19.8762,75.3433,31.6,20,0.0,945.0,8.1,30.2,113,19.8,17.8,0,5,7,0,2026-03-05T18:37:49.382624+05:30
Solapur,Maharashtra,17.6599,75.9064,31.6,31,0.0,957.1,8.35,19.1,149,20.7,19.3,0,5,7,0,2026-03-05T18:37:49.382633+05:30
Kolhapur,Maharashtra,16.705,74.2433,31.8,24,0.0,947.8,8.5,34.6,151,33.8,32.8,0,5,7,0,2026-03-05T18:37:49.382643+05:30
Goa,Goa,15.2993,74.124,28.1,77,0.0,997.6,8.55,36.0,152,56.0,52.3,7,5,7,1,2026-03-05T18:37:49.382652+05:30
Jodhpur,Rajasthan,26.2389,73.0243,32.4,19,0.0,985.0,6.9,24.1,104,71.0,15.2,0,5,7,0,2026-03-05T18:37:49.382660+05:30
Udaipur,Rajasthan,24.5854,73.7125,30.4,19,0.0,948.6,7.55,25.9,89,12.5,11.2,0,5,7,0,2026-03-05T18:37:49.382668+05:30
Kota,Rajasthan,25.2138,75.8648,31.5,32,0.0,979.6,6.95,28.8,83,62.9,24.9,0,5,7,0,2026-03-05T18:37:49.382676+05:30
Bikaner,Rajasthan,28.0229,73.3119,32.6,24,0.0,983.7,6.6,20.9,88,31.2,12.7,0,5,7,0,2026-03-05T18:37:49.382685+05:30
Ajmer,Rajasthan,26.4499,74.6399,31.1,25,0.0,956.5,6.9,25.6,92,30.2,16.1,0,5,7,0,2026-03-05T18:37:49.382693+05:30
Gwalior,Madhya Pradesh,26.2183,78.1828,28.8,50,0.0,983.5,6.55,32.8,81,74.0,25.4,4,5,7,1,2026-03-05T18:37:49.382701+05:30
Indore,Madhya Pradesh,22.7196,75.8577,27.4,38,0.0,949.2,7.5,25.2,102,27.3,18.7,4,5,7,0,2026-03-05T18:37:49.382709+05:30
Bhopal,Madhya Pradesh,23.2599,77.4126,27.4,39,0.0,954.8,7.35,29.5,100,29.6,17.0,4,5,7,0,2026-03-05T18:37:49.382717+05:30
Jabalpur,Madhya Pradesh,23.1815,79.9864,30.2,37,0.0,961.6,7.5,30.2,77,31.2,17.3,0,5,7,0,2026-03-05T18:37:49.382725+05:30
Ujjain,Madhya Pradesh,23.1765,75.7885,27.8,44,0.0,955.0,7.4,23.0,107,31.5,22.9,4,5,7,0,2026-03-05T18:37:49.382734+05:30
Visakhapatnam,Andhra Pradesh,17.6868,83.2185,28.2,73,0.0,1001.8,8.45,33.1,154,45.6,42.4,7,5,4,1,2026-03-05T18:37:49.382742+05:30
Vijayawada,Andhra Pradesh,16.5062,80.648,31.9,45,0.0,1001.2,8.5,17.3,128,36.6,34.9,0,5,4,1,2026-03-05T18:37:49.382750+05:30
Guntur,Andhra Pradesh,16.3067,80.4365,32.0,39,0.0,1002.5,8.5,20.9,141,29.8,28.0,0,5,4,1,2026-03-05T18:37:49.382758+05:30
Nellore,Andhra Pradesh,14.4426,79.9865,30.7,43,0.0,1004.9,8.7,28.4,154,30.0,27.2,0,5,4,1,2026-03-05T18:37:49.382767+05:30
Kurnool,Andhra Pradesh,15.8281,78.0373,34.4,20,0.0,976.2,8.5,27.0,145,18.3,16.9,0,5,7,0,2026-03-05T18:37:49.382775+05:30
Kakinada,Andhra Pradesh,16.9891,82.2475,30.5,58,0.0,1005.3,8.45,27.4,112,32.4,29.2,0,5,4,1,2026-03-05T18:37:49.382781+05:30
Tirupati,Andhra Pradesh,13.6288,79.4192,30.8,34,0.0,991.0,8.8,29.5,127,35.0,31.8,0,5,7,0,2026-03-05T18:37:49.382788+05:30
Warangal,Telangana,17.9689,79.5941,31.4,32,0.0,978.3,8.3,27.4,148,26.3,23.7,0,5,7,0,2026-03-05T18:37:49.382794+05:30
Nizamabad,Telangana,18.6725,78.0941,31.5,34,0.0,964.9,8.15,22.3,114,20.7,18.9,0,5,7,0,2026-03-05T18:37:49.382800+05:30
Mysore,Karnataka,12.2958,76.6396,29.9,34,0.0,928.1,9.15,24.5,169,37.3,36.2,4,5,7,0,2026-03-05T18:37:49.382807+05:30
Mangalore,Karnataka,12.9141,74.856,28.7,81,0.0,1006.0,8.75,30.2,132,43.9,40.0,7,5,4,1,2026-03-05T18:37:49.382813+05:30
Hubli-Dharwad,Karnataka,15.3647,75.124,32.4,24,0.0,940.6,8.7,29.2,168,25.1,23.9,0,5,7,0,2026-03-05T18:37:49.382821+05:30
Belgaum,Karnataka,15.8497,74.4977,31.5,26,0.0,926.0,8.75,36.7,173,26.7,25.4,0,5,7,0,2026-03-05T18:37:52.722067+05:30
Coimbatore,Tamil Nadu,11.0168,76.9558,31.3,24,0.0,961.1,9.15,34.2,145,30.7,30.0,0,5,7,0,2026-03-05T18:37:52.722100+05:30
Madurai,Tamil Nadu,9.9252,78.1198,32.8,26,0.0,992.0,9.1,29.9,126,34.7,32.8,0,5,7,0,2026-03-05T18:37:52.722111+05:30
Trichy,Tamil Nadu,10.7905,78.7047,31.3,43,0.0,999.1,9.0,33.8,94,33.3,31.1,0,5,7,1,2026-03-05T18:37:52.722121+05:30
Salem,Tamil Nadu,11.6643,78.146,33.2,29,0.0,976.1,9.05,19.8,156,27.8,25.8,0,5,7,0,2026-03-05T18:37:52.722130+05:30
Tirunelveli,Tamil Nadu,8.7139,77.7567,29.5,58,0.0,1002.8,9.15,48.6,101,18.0,17.1,4,5,4,1,2026-03-05T18:37:52.722140+05:30
Vellore,Tamil Nadu,12.9165,79.1325,30.3,32,0.0,984.1,8.9,29.2,126,40.0,37.0,0,5,7,0,2026-03-05T18:37:52.722149+05:30
Erode,Tamil Nadu,11.341,77.7172,33.4,34,0.0,987.5,9.05,19.8,155,32.2,30.9,0,5,7,0,2026-03-05T18:37:52.722157+05:30
Kochi,Kerala,9.9312,76.2673,28.4,78,0.0,1007.8,8.95,38.2,145,43.4,40.7,7,5,4,1,2026-03-05T18:37:52.722166+05:30
Thiruvananthapuram,Kerala,8.5241,76.9366,28.3,74,0.0,1007.7,9.0,32.8,127,30.6,27.5,7,5,4,1,2026-03-05T18:37:52.722174+05:30
Kozhikode,Kerala,11.2588,75.7804,28.6,80,0.0,1007.4,8.85,30.6,127,44.1,39.2,7,5,4,1,2026-03-05T18:37:52.722183+05:30
Thrissur,Kerala,10.5276,76.2144,28.5,77,0.0,1006.4,8.9,36.7,141,41.0,38.9,7,5,4,1,2026-03-05T18:37:52.722191+05:30
Kannur,Kerala,11.8745,75.3704,28.8,76,0.0,1006.8,8.85,37.4,134,43.0,39.0,7,5,4,1,2026-03-05T18:37:52.722200+05:30
Patna,Bihar,25.5941,85.1376,28.4,49,0.0,1000.8,7.2,14.4,187,126.2,81.5,4,5,4,1,2026-03-05T18:37:52.722208+05:30
Gaya,Bihar,24.7914,85.0002,25.3,65,0.0,994.2,7.3,12.6,163,128.5,59.4,7,5,7,1,2026-03-05T18:37:52.722216+05:30
Muzaffarpur,Bihar,26.1209,85.3647,26.6,55,0.0,1000.8,7.15,15.5,196,98.7,75.4,4,5,4,1,2026-03-05T18:37:52.722224+05:30
Bhagalpur,Bihar,25.2425,87.0117,25.9,57,0.0,1001.7,7.25,14.0,177,82.0,65.4,4,5,4,1,2026-03-05T18:37:52.722232+05:30
Ranchi,Jharkhand,23.3441,85.3096,24.7,44,0.0,937.3,7.95,19.1,150,88.7,42.5,0,5,7,0,2026-03-05T18:37:52.722241+05:30
Jamshedpur,Jharkhand,22.8046,86.2029,29.6,38,0.0,989.9,7.85,11.2,202,116.2,68.9,4,5,7,0,2026-03-05T18:37:52.722250+05:30
Dhanbad,Jharkhand,23.7957,86.4304,30.0,30,0.0,979.4,7.75,16.2,194,160.7,115.3,4,5,7,0,2026-03-05T18:37:52.722258+05:30
Bokaro,Jharkhand,23.6693,86.1511,28.4,37,0.0,983.4,7.75,13.3,194,156.9,114.6,4,5,7,0,2026-03-05T18:37:52.722266+05:30
Bhubaneswar,Odisha,20.2961,85.8245,31.5,25,0.0,1000.7,8.15,25.2,173,75.4,53.1,0,5,4,0,2026-03-05T18:37:52.722275+05:30
Cuttack,Odisha,20.4625,85.8828,31.2,29,0.0,1002.5,8.2,26.6,173,75.4,53.1,0,5,4,0,2026-03-05T18:37:52.722282+05:30
Rourkela,Odisha,22.2604,84.8536,30.2,35,0.0,983.5,7.75,23.0,140,128.1,51.5,0,5,7,0,2026-03-05T18:37:52.722289+05:30
Raipur,Chhattisgarh,21.2514,81.6296,32.5,23,0.0,973.8,7.85,27.7,116,43.8,32.1,0,5,7,0,2026-03-05T18:37:52.722296+05:30
Bhilai,Chhattisgarh,21.1938,81.3509,31.5,24,0.0,974.2,7.85,27.7,96,42.8,30.4,0,5,7,0,2026-03-05T18:37:52.722303+05:30
Guwahati,Assam,26.1158,91.7086,28.1,57,0.0,1001.6,7.15,18.0,138,53.9,48.7,4,5,4,1,2026-03-05T18:37:52.722310+05:30
Agartala,Tripura,23.8315,91.2868,25.7,64,0.0,1006.0,7.55,16.2,197,89.4,76.1,7,5,4,1,2026-03-05T18:37:52.722317+05:30
Shillong,Meghalaya,25.5788,91.8933,14.7,83,0.0,856.2,7.55,15.8,122,49.0,43.5,3,10,7,0,2026-03-05T18:37:52.722324+05:30
Imphal,Manipur,24.817,93.9368,19.1,64,0.0,923.1,7.75,23.0,148,45.1,40.6,3,5,7,0,2026-03-05T18:37:52.722331+05:30
Aizawl,Mizoram,23.7271,92.7176,20.3,55,0.0,892.0,7.7,23.8,159,68.0,58.8,0,5,7,0,2026-03-05T18:37:52.722338+05:30
Kohima,Nagaland,25.6701,94.1077,15.4,85,0.0,854.8,7.6,36.7,136,40.7,36.1,3,10,7,0,2026-03-05T18:37:52.722345+05:30
Gangtok,Sikkim,27.3314,88.6138,16.4,79,0.0,838.2,7.5,21.2,123,32.8,28.5,3,5,7,0,2026-03-05T18:37:52.722352+05:30
Siliguri,West Bengal,26.7271,88.3953,23.2,62,0.0,994.8,7.15,22.3,140,48.5,41.2,3,5,7,0,2026-03-05T18:37:56.068961+05:30
Durgapur,West Bengal,23.5204,87.3119,28.9,35,0.0,994.8,7.7,20.2,195,96.6,68.0,4,5,7,0,2026-03-05T18:37:56.068994+05:30
Asansol,West Bengal,23.6739,86.9524,29.4,37,0.0,993.2,7.7,15.1,197,125.3,77.5,4,5,7,0,2026-03-05T18:37:56.069004+05:30
Pondicherry,Puducherry,11.9139,79.8145,28.1,60,0.0,1008.2,8.85,24.5,81,18.6,15.9,4,0,4,1,2026-03-05T18:37:56.069014+05:30
Port Blair,Andaman and Nicobar Islands,11.6234,92.7265,27.3,69,0.0,1006.8,8.8,23.4,62,19.2,13.0,7,5,4,1,2026-03-05T18:37:56.069025+05:30
Haridwar,Uttarakhand,29.9457,78.1642,27.1,64,0.0,974.2,5.65,21.6,162,102.2,54.8,7,5,3,1,2026-03-05T18:37:56.069034+05:30
Rishikesh,Uttarakhand,30.0869,78.2676,25.5,67,0.0,967.2,5.7,20.9,164,75.7,48.2,7,5,3,1,2026-03-05T18:37:56.069043+05:30
Nainital,Uttarakhand,29.3919,79.4542,17.7,78,0.0,805.9,6.5,53.6,153,105.7,68.2,3,5,7,0,2026-03-05T18:37:56.069052+05:30
Mussoorie,Uttarakhand,30.4599,78.0664,17.5,79,0.0,802.8,6.0,37.1,173,65.9,46.0,3,5,3,0,2026-03-05T18:37:56.069061+05:30
Dharamshala,Himachal Pradesh,32.219,76.3234,23.0,58,0.0,870.9,6.3,24.5,76,31.5,18.5,0,5,7,0,2026-03-05T18:37:56.069070+05:30
Dalhousie,Himachal Pradesh,32.5387,75.971,21.6,51,0.0,806.3,6.45,21.2,102,48.7,32.2,0,5,7,0,2026-03-05T18:37:56.069079+05:30
Patiala,Punjab,30.3398,76.3869,27.0,58,0.0,978.6,5.65,28.4,352,497.3,91.7,4,5,3,1,2026-03-05T18:37:56.069087+05:30
Bhatinda,Punjab,30.211,74.9455,28.0,58,0.0,984.5,6.35,27.0,138,61.5,43.3,4,5,7,1,2026-03-05T18:37:56.069095+05:30
Rohtak,Haryana,28.8955,76.6066,27.5,55,0.0,982.3,5.85,33.1,573,987.2,143.4,4,5,3,1,2026-03-05T18:37:56.069104+05:30
Panipat,Haryana,29.3909,76.9635,27.2,56,0.0,980.6,5.65,32.4,1259,1605.6,204.4,4,5,3,1,2026-03-05T18:37:56.069112+05:30
Mathura,Uttar Pradesh,27.4924,77.6737,28.3,46,0.0,987.1,6.1,34.9,652,1054.3,142.5,4,5,7,0,2026-03-05T18:37:56.069121+05:30
Vrindavan,Uttar Pradesh,27.5823,77.7027,27.9,47,0.0,987.5,6.1,37.1,652,1054.3,142.5,4,5,7,0,2026-03-05T18:37:56.069129+05:30
Ayodhya,Uttar Pradesh,26.7922,82.1998,27.2,59,0.0,995.6,6.55,10.1,177,124.3,84.5,4,5,7,1,2026-03-05T18:37:56.069137+05:30
Ratlam,Madhya Pradesh,23.3315,75.0367,29.3,34,0.0,956.1,7.35,23.0,104,24.3,17.8,4,5,7,0,2026-03-05T18:37:56.069145+05:30
Sagar,Madhya Pradesh,23.8388,78.7378,28.0,38,0.0,950.7,7.3,31.7,84,32.5,14.1,4,5,7,0,2026-03-05T18:37:56.069154+05:30
Satna,Madhya Pradesh,24.6005,80.8322,29.1,31,0.0,971.3,7.3,40.0,103,41.4,24.7,4,5,7,0,2026-03-05T18:37:56.069162+05:30
Akola,Maharashtra,20.7002,77.0082,32.2,23,0.0,975.5,7.8,26.6,113,25.8,19.2,0,5,7,0,2026-03-05T18:37:56.069171+05:30
Amravati,Maharashtra,20.9374,77.7796,32.4,24,0.0,967.1,7.75,16.9,112,25.2,18.6,0,5,7,0,2026-03-05T18:37:56.069181+05:30
Latur,Maharashtra,18.4088,76.5604,30.3,26,0.0,940.2,8.25,32.0,143,21.0,19.2,0,5,7,0,2026-03-05T18:37:56.069189+05:30
Nanded,Maharashtra,19.1383,77.3091,31.8,28,0.0,968.6,8.05,25.2,125,18.1,16.4,0,5,7,0,2026-03-05T18:37:56.069197+05:30
Gulbarga,Karnataka,17.3297,76.8343,33.8,20,0.0,958.6,8.35,22.3,147,15.2,14.1,0,5,7,0,2026-03-05T18:37:56.069205+05:30
Bidar,Karnataka,17.9104,77.5199,31.4,26,0.0,935.8,8.3,24.8,125,17.8,16.4,0,5,7,0,2026-03-05T18:37:56.069213+05:30
Hospet,Karnataka,15.2689,76.3909,33.8,19,0.0,955.6,8.7,25.9,166,26.9,25.8,0,5,7,0,2026-03-05T18:37:56.069221+05:30
Tirupur,Tamil Nadu,11.1085,77.3411,32.9,26,0.0,974.3,9.15,29.2,155,34.7,33.8,0,5,7,0,2026-03-05T18:37:56.069230+05:30
Alappuzha,Kerala,9.4981,76.3388,28.4,75,0.0,1007.9,8.95,35.3,121,41.9,38.3,7,5,4,1,2026-03-05T18:37:56.069238+05:30
Munnar,Kerala,10.0889,77.0595,24.8,63,0.0,857.5,9.45,23.4,119,30.4,29.6,3,5,7,1,2026-03-05T18:37:56.069247+05:30
Silchar,Assam,24.8333,92.7789,27.6,52,0.0,1004.3,7.5,13.7,150,60.5,53.0,4,5,4,1,2026-03-05T18:37:56.069255+05:30
Dibrugarh,Assam,27.4728,94.912,26.7,58,0.0,995.4,7.2,14.4,115,42.5,38.5,4,5,7,1,2026-03-05T18:37:56.069263+05:30
