city,state,latitude,longitude,temp,humidity,rain,pressure,uv_index,wind_gusts,aqi,pm10,pm2_5,mosquito_risk,arthritis_risk,migraine_risk,frizz_risk,updated_at
Delhi,Delhi,28.6139,77.209,26.3,49,0.0,985.3,7.15,31.0,479,570.0,95.2,4,5,7,0,2026-04-11T23:04:55.765336+05:30
Mumbai,Maharashtra,19.076,72.8777,28.8,76,0.0,1009.3,7.95,23.4,142,41.6,32.7,7,0,4,1,2026-04-11T23:04:55.765371+05:30
Bangalore,Karnataka,12.9716,77.5946,27.5,50,0.0,913.1,9.65,27.4,79,30.9,27.0,4,5,7,1,2026-04-11T23:04:55.765386+05:30
Hyderabad,Telangana,17.385,78.4867,31.6,45,0.0,954.6,9.2,18.7,139,50.3,42.4,0,5,7,1,2026-04-11T23:04:55.765395+05:30
Chennai,Tamil Nadu,13.0827,80.2707,29.3,81,0.0,1008.8,9.05,35.6,55,17.5,12.3,7,0,4,1,2026-04-11T23:04:55.765403+05:30
Kolkata,West Bengal,22.5726,88.3639,24.7,88,0.0,1006.7,8.75,18.0,128,63.1,55.5,3,5,4,1,2026-04-11T23:04:55.765411+05:30
Pune,Maharashtra,18.5204,73.8567,27.9,56,0.0,950.0,8.55,38.9,190,50.5,45.1,4,5,7,1,2026-04-11T23:04:55.765423+05:30
Ahmedabad,Gujarat,23.0225,72.5714,31.3,33,0.0,1002.7,8.05,22.3,89,73.1,60.5,0,5,4,0,2026-04-11T23:04:55.765430+05:30
Jaipur,Rajasthan,26.9124,75.7873,27.4,33,0.0,961.0,7.85,40.7,96,108.0,34.9,4,5,7,0,2026-04-11T23:04:55.765437+05:30
Lucknow,Uttar Pradesh,26.8467,80.9462,25.7,47,0.0,995.4,7.65,42.1,263,378.1,69.6,4,5,7,0,2026-04-11T23:04:55.765445+05:30
Kanpur,Uttar Pradesh,26.4499,80.3319,24.9,60,0.0,993.6,7.65,36.4,620,579.3,87.8,0,5,7,1,2026-04-11T23:04:55.765451+05:30
Chandigarh,Chandigarh,30.7333,76.7794,21.5,61,0.0,971.8,7.15,29.9,86,85.2,42.8,3,5,7,0,2026-04-11T23:04:55.765458+05:30
Srinagar,Jammu and Kashmir,34.0837,74.7973,8.9,84,0.0,842.3,7.4,14.0,84,45.5,34.9,3,10,7,0,2026-04-11T23:04:55.765465+05:30
Jammu,Jammu and Kashmir,32.7266,74.857,19.2,74,0.0,976.6,6.8,16.6,73,31.7,20.7,3,5,7,0,2026-04-11T23:04:55.765472+05:30
Amritsar,Punjab,31.634,74.8723,20.6,69,0.0,984.5,7.7,19.1,78,69.6,36.8,3,5,7,0,2026-04-11T23:04:55.765478+05:30
Ludhiana,Punjab,30.901,75.8573,22.5,58,0.0,982.3,7.35,28.8,70,104.8,46.1,0,5,7,0,2026-04-11T23:04:55.765485+05:30
Jalandhar,Punjab,31.326,75.5762,21.0,67,0.0,983.5,7.5,23.4,72,79.4,34.5,3,5,7,0,2026-04-11T23:04:55.765493+05:30
Dehradun,Uttarakhand,30.6284,78.0322,12.1,80,0.0,831.0,7.55,42.5,69,67.5,18.9,3,5,7,0,2026-04-11T23:04:55.765499+05:30
Shimla,Himachal Pradesh,31.1048,77.1734,10.1,70,0.0,784.4,7.5,46.4,69,68.0,24.3,3,5,7,0,2026-04-11T23:04:55.765506+05:30
Manali,Himachal Pradesh,32.2396,77.1887,11.2,92,0.0,819.8,8.5,30.2,113,16.9,8.8,3,10,7,0,2026-04-11T23:04:55.765512+05:30
Gurgaon,Haryana,28.4595,77.0266,24.5,58,0.0,983.7,7.3,26.3,1289,1158.6,154.1,0,5,7,0,2026-04-11T23:04:55.765519+05:30
Noida,Uttar Pradesh,28.5355,77.391,25.7,52,0.0,986.9,7.2,31.3,1289,1158.6,154.1,4,5,7,0,2026-04-11T23:04:55.765525+05:30
Ghaziabad,Uttar Pradesh,28.6692,77.4538,24.6,57,0.0,985.1,7.15,29.9,350,438.7,77.3,0,5,7,0,2026-04-11T23:04:55.765531+05:30
Faridabad,Haryana,28.4089,77.3178,25.0,52,0.0,985.8,7.25,31.0,1289,1158.6,154.1,4,5,7,0,2026-04-11T23:04:55.765537+05:30
Meerut,Uttar Pradesh,28.9845,77.7064,23.2,61,0.0,984.0,7.05,34.2,350,438.7,77.3,3,5,7,0,2026-04-11T23:04:55.765547+05:30
Agra,Uttar Pradesh,27.1767,78.0081,26.4,46,0.0,989.3,7.55,28.8,858,793.5,114.1,4,5,7,0,2026-04-11T23:04:55.765553+05:30
Varanasi,Uttar Pradesh,25.3176,82.9739,25.5,48,0.0,999.2,8.25,37.8,110,125.7,45.2,4,5,7,0,2026-04-11T23:04:55.765564+05:30
Prayagraj,Uttar Pradesh,25.4358,81.8463,26.8,44,0.0,997.9,8.15,39.2,134,214.7,56.9,4,5,7,0,2026-04-11T23:04:55.765570+05:30
Gorakhpur,Uttar Pradesh,26.7606,83.3732,25.5,44,0.0,998.3,8.1,29.2,128,106.2,34.8,4,5,7,0,2026-04-11T23:04:55.765576+05:30
Bareilly,Uttar Pradesh,28.367,79.4304,23.0,62,0.0,988.6,7.45,46.4,91,94.1,34.0,3,5,7,0,2026-04-11T23:04:55.765583+05:30
Aligarh,Uttar Pradesh,27.8974,78.088,24.1,53,0.0,987.3,7.35,37.1,868,566.2,97.8,0,5,7,0,2026-04-11T23:04:55.765589+05:30
Moradabad,Uttar Pradesh,28.8386,78.7733,23.0,63,0.0,986.0,7.3,41.4,96,161.1,47.5,3,5,7,0,2026-04-11T23:04:55.765595+05:30
Saharanpur,Uttar Pradesh,29.9637,77.546,22.2,59,0.0,978.4,6.85,35.3,74,93.4,38.3,0,5,7,0,2026-04-11T23:04:55.765601+05:30
Jhansi,Uttar Pradesh,25.4484,78.5685,27.8,41,0.0,979.5,8.1,25.6,80,33.2,21.1,4,5,7,0,2026-04-11T23:04:59.024921+05:30
Surat,Gujarat,21.1702,72.8311,28.2,65,0.0,1007.3,7.8,27.7,127,79.6,74.7,7,5,4,1,2026-04-11T23:04:59.024951+05:30
Vadodara,Gujarat,22.3072,73.1812,29.0,41,0.0,1004.9,8.05,18.4,145,64.0,54.6,4,5,4,0,2026-04-11T23:04:59.024963+05:30
Rajkot,Gujarat,22.3039,70.8022,27.4,52,0.0,996.4,7.75,31.3,83,86.1,27.3,4,5,7,1,2026-04-11T23:04:59.024972+05:30
Thane,Maharashtra,19.2183,72.9781,27.2,78,0.0,1008.7,7.95,37.1,142,41.6,32.7,7,0,4,1,2026-04-11T23:04:59.024981+05:30
Nagpur,Maharashtra,21.1458,79.0882,28.0,47,0.0,974.3,8.75,22.7,109,31.1,26.4,4,5,7,0,2026-04-11T23:04:59.024990+05:30
Nashik,Maharashtra,19.9975,73.7898,27.3,54,0.0,947.3,8.25,36.7,168,43.3,35.3,4,5,7,1,2026-04-11T23:04:59.024998+05:30
Aurangabad,Maharashtra,19.8762,75.3433,29.8,33,0.0,945.3,8.9,33.1,114,29.7,22.1,4,5,7,0,2026-04-11T23:04:59.025006+05:30
Solapur,Maharashtra,17.6599,75.9064,32.9,36,0.0,957.5,9.0,18.7,128,44.6,36.7,0,5,7,0,2026-04-11T23:04:59.025014+05:30
Kolhapur,Maharashtra,16.705,74.2433,24.3,75,0.0,949.1,8.5,42.5,111,37.6,30.9,3,5,7,1,2026-04-11T23:04:59.025022+05:30
Goa,Goa,15.2993,74.124,28.5,78,0.0,999.5,9.05,34.9,105,70.5,33.9,7,5,7,1,2026-04-11T23:04:59.025029+05:30
Jodhpur,Rajasthan,26.2389,73.0243,28.8,38,0.0,984.4,8.05,33.1,85,230.0,48.7,4,5,7,0,2026-04-11T23:04:59.025037+05:30
Udaipur,Rajasthan,24.5854,73.7125,26.7,40,0.0,948.6,8.6,36.4,96,30.0,17.2,4,5,7,0,2026-04-11T23:04:59.025045+05:30
Kota,Rajasthan,25.2138,75.8648,25.8,53,0.0,980.0,8.1,21.6,94,44.9,35.4,4,5,7,0,2026-04-11T23:04:59.025053+05:30
Bikaner,Rajasthan,28.0229,73.3119,28.5,35,0.0,984.3,7.9,32.8,79,61.5,22.1,4,5,7,0,2026-04-11T23:04:59.025061+05:30
Ajmer,Rajasthan,26.4499,74.6399,26.2,44,0.0,955.7,8.0,40.3,92,105.9,29.2,4,5,7,0,2026-04-11T23:04:59.025068+05:30
Gwalior,Madhya Pradesh,26.2183,78.1828,26.7,52,0.0,984.4,7.8,30.6,81,33.6,21.0,4,5,7,0,2026-04-11T23:04:59.025076+05:30
Indore,Madhya Pradesh,22.7196,75.8577,25.6,45,0.0,949.5,8.5,21.6,109,68.5,56.7,4,5,7,0,2026-04-11T23:04:59.025083+05:30
Bhopal,Madhya Pradesh,23.2599,77.4126,27.9,36,0.0,954.9,8.5,24.5,84,41.9,25.2,4,5,7,0,2026-04-11T23:04:59.025091+05:30
Jabalpur,Madhya Pradesh,23.1815,79.9864,27.3,42,0.0,962.8,8.6,18.4,84,74.0,37.7,4,5,7,0,2026-04-11T23:04:59.025098+05:30
Ujjain,Madhya Pradesh,23.1765,75.7885,25.9,45,0.0,955.2,8.4,20.5,98,69.2,58.6,4,5,7,0,2026-04-11T23:04:59.025106+05:30
Visakhapatnam,Andhra Pradesh,17.6868,83.2185,28.2,87,0.0,1005.4,9.15,39.6,77,28.3,21.9,7,5,4,1,2026-04-11T23:04:59.025114+05:30
Vijayawada,Andhra Pradesh,16.5062,80.648,28.7,75,0.0,1003.7,9.2,25.6,71,18.8,14.8,7,5,4,1,2026-04-11T23:04:59.025121+05:30
Guntur,Andhra Pradesh,16.3067,80.4365,28.3,84,0.0,1005.1,9.25,33.5,81,20.0,16.1,7,5,4,1,2026-04-11T23:04:59.025129+05:30
Nellore,Andhra Pradesh,14.4426,79.9865,28.8,85,0.0,1007.3,9.3,40.7,60,14.9,10.5,7,5,4,1,2026-04-11T23:04:59.025138+05:30
Kurnool,Andhra Pradesh,15.8281,78.0373,33.5,40,0.0,977.0,9.2,31.7,95,39.3,31.3,0,5,7,1,2026-04-11T23:04:59.025146+05:30
Kakinada,Andhra Pradesh,16.9891,82.2475,28.2,87,0.0,1009.1,9.2,33.8,60,21.9,14.2,7,0,4,1,2026-04-11T23:04:59.025154+05:30
Tirupati,Andhra Pradesh,13.6288,79.4192,27.7,77,0.0,993.8,9.4,32.0,74,22.3,20.0,7,5,7,1,2026-04-11T23:04:59.025162+05:30
Warangal,Telangana,17.9689,79.5941,31.3,43,0.0,979.3,9.05,25.2,138,57.5,46.0,0,5,7,1,2026-04-11T23:04:59.025169+05:30
Nizamabad,Telangana,18.6725,78.0941,29.1,53,0.0,965.4,9.0,24.8,124,69.8,57.0,4,5,7,1,2026-04-11T23:04:59.025176+05:30
Mysore,Karnataka,12.2958,76.6396,25.3,81,0.0,929.7,9.35,37.4,81,40.7,35.2,7,5,7,1,2026-04-11T23:04:59.025223+05:30
Mangalore,Karnataka,12.9141,74.856,29.5,80,0.0,1007.9,8.6,25.9,89,68.0,30.6,7,5,4,1,2026-04-11T23:04:59.025232+05:30
Hubli-Dharwad,Karnataka,15.3647,75.124,24.5,88,0.0,942.1,9.25,41.8,122,42.6,27.1,3,5,7,1,2026-04-11T23:04:59.025241+05:30
Belgaum,Karnataka,15.8497,74.4977,23.2,89,0.0,926.9,9.3,43.9,102,43.0,29.0,3,5,7,1,2026-04-11T23:05:02.288897+05:30
Coimbatore,Tamil Nadu,11.0168,76.9558,26.8,81,0.0,963.4,8.2,39.2,76,43.1,36.9,7,5,7,1,2026-04-11T23:05:02.288919+05:30
Madurai,Tamil Nadu,9.9252,78.1198,29.0,75,0.0,995.1,8.45,35.3,71,34.5,30.3,7,5,7,1,2026-04-11T23:05:02.288929+05:30
Trichy,Tamil Nadu,10.7905,78.7047,28.7,82,0.0,1001.4,9.4,27.7,68,24.1,21.7,7,5,4,1,2026-04-11T23:05:02.288937+05:30
Salem,Tamil Nadu,11.6643,78.146,29.6,68,0.0,978.4,9.1,20.9,90,31.5,27.8,7,5,7,1,2026-04-11T23:05:02.288944+05:30
Tirunelveli,Tamil Nadu,8.7139,77.7567,29.2,69,0.0,1004.9,9.25,46.1,73,26.9,23.1,7,5,4,1,2026-04-11T23:05:02.288950+05:30
Vellore,Tamil Nadu,12.9165,79.1325,28.2,69,0.0,986.5,9.45,36.7,83,32.4,29.7,7,5,7,1,2026-04-11T23:05:02.288957+05:30
Erode,Tamil Nadu,11.341,77.7172,30.6,66,0.0,990.0,8.95,32.0,88,22.4,19.2,3,5,7,1,2026-04-11T23:05:02.288963+05:30
Kochi,Kerala,9.9312,76.2673,29.8,81,0.0,1009.8,8.8,29.5,66,38.6,31.9,7,0,4,1,2026-04-11T23:05:02.288970+05:30
Thiruvananthapuram,Kerala,8.5241,76.9366,28.9,85,0.0,1009.6,7.6,36.4,61,34.2,18.6,7,0,4,1,2026-04-11T23:05:02.288976+05:30
Kozhikode,Kerala,11.2588,75.7804,30.1,81,0.0,1008.6,8.75,28.1,59,46.8,20.5,3,0,4,1,2026-04-11T23:05:02.288982+05:30
Thrissur,Kerala,10.5276,76.2144,28.9,85,0.0,1007.9,8.8,31.7,65,44.6,33.1,7,5,4,1,2026-04-11T23:05:02.288988+05:30
Kannur,Kerala,11.8745,75.3704,29.2,79,0.0,1008.1,8.65,31.3,68,59.5,32.9,7,0,4,1,2026-04-11T23:05:02.288995+05:30
Patna,Bihar,25.5941,85.1376,25.8,51,0.0,1001.3,8.45,28.4,125,79.9,50.3,4,5,4,0,2026-04-11T23:05:02.289001+05:30
Gaya,Bihar,24.7914,85.0002,25.6,43,0.0,995.0,8.5,33.5,102,63.3,33.2,4,5,7,0,2026-04-11T23:05:02.289007+05:30
Muzaffarpur,Bihar,26.1209,85.3647,23.8,58,0.0,1001.3,8.4,18.4,129,124.8,75.9,0,5,4,0,2026-04-11T23:05:02.289013+05:30
Bhagalpur,Bihar,25.2425,87.0117,24.5,61,0.0,1001.7,8.45,20.5,109,309.2,82.0,3,5,4,1,2026-04-11T23:05:02.289019+05:30
Ranchi,Jharkhand,23.3441,85.3096,22.3,39,0.0,939.5,9.05,31.7,97,76.1,25.6,0,5,7,0,2026-04-11T23:05:02.289025+05:30
Jamshedpur,Jharkhand,22.8046,86.2029,24.0,70,0.0,992.1,8.85,14.8,127,157.4,50.5,3,5,7,1,2026-04-11T23:05:02.289031+05:30
Dhanbad,Jharkhand,23.7957,86.4304,25.7,40,0.0,981.0,8.8,24.5,151,122.0,58.6,4,5,7,0,2026-04-11T23:05:02.289037+05:30
Bokaro,Jharkhand,23.6693,86.1511,23.8,45,0.0,985.4,8.8,25.6,146,109.2,51.8,0,5,7,0,2026-04-11T23:05:02.289043+05:30
Bhubaneswar,Odisha,20.2961,85.8245,27.1,95,0.0,1004.2,9.0,24.5,117,36.3,33.1,7,5,4,1,2026-04-11T23:05:02.289049+05:30
Cuttack,Odisha,20.4625,85.8828,27.2,94,0.0,1006.1,9.05,20.5,117,36.3,33.1,7,5,4,1,2026-04-11T23:05:02.289055+05:30
Rourkela,Odisha,22.2604,84.8536,22.8,75,0.0,986.7,8.75,16.2,99,151.3,60.1,3,5,7,1,2026-04-11T23:05:02.289061+05:30
Raipur,Chhattisgarh,21.2514,81.6296,27.8,37,0.0,976.1,8.85,21.6,122,50.6,35.7,4,5,7,0,2026-04-11T23:05:02.289066+05:30
Bhilai,Chhattisgarh,21.1938,81.3509,26.7,45,0.0,976.2,8.85,19.8,93,73.3,56.5,4,5,7,0,2026-04-11T23:05:02.289072+05:30
Guwahati,Assam,26.1158,91.7086,24.1,81,0.0,1003.4,8.35,20.2,102,49.7,41.7,3,5,4,1,2026-04-11T23:05:02.289078+05:30
Agartala,Tripura,23.8315,91.2868,24.0,86,0.0,1007.1,8.6,21.6,129,46.4,39.5,3,5,4,1,2026-04-11T23:05:02.289084+05:30
Shillong,Meghalaya,25.5788,91.8933,12.7,85,0.0,856.1,8.75,52.2,107,54.2,42.3,3,10,7,0,2026-04-11T23:05:02.289090+05:30
Imphal,Manipur,24.817,93.9368,15.5,79,0.0,923.8,8.95,52.2,95,54.1,41.1,3,5,7,0,2026-04-11T23:05:02.289095+05:30
Aizawl,Mizoram,23.7271,92.7176,17.7,69,0.0,893.1,8.8,41.8,92,57.4,40.3,3,5,7,0,2026-04-11T23:05:02.289101+05:30
Kohima,Nagaland,25.6701,94.1077,13.6,78,0.0,854.9,7.6,65.9,88,48.4,35.7,3,5,7,0,2026-04-11T23:05:02.289107+05:30
Gangtok,Sikkim,27.3314,88.6138,12.0,92,0.1,836.8,8.55,18.4,86,41.1,36.9,6,10,7,0,2026-04-11T23:05:02.289112+05:30
Siliguri,West Bengal,26.7271,88.3953,20.2,63,0.0,995.4,8.2,18.0,114,60.3,49.4,3,5,7,0,2026-04-11T23:05:05.544496+05:30
Durgapur,West Bengal,23.5204,87.3119,25.9,49,0.0,995.9,8.75,20.9,148,204.0,83.8,4,5,7,0,2026-04-11T23:05:05.544518+05:30
Asansol,West Bengal,23.6739,86.9524,27.3,42,0.0,994.6,8.75,22.7,126,134.6,56.5,4,5,7,0,2026-04-11T23:05:05.544528+05:30
Pondicherry,Puducherry,11.9139,79.8145,27.9,89,0.0,1010.0,9.35,34.9,55,17.8,12.3,7,0,4,1,2026-04-11T23:05:05.544535+05:30
Port Blair,Andaman and Nicobar Islands,11.6234,92.7265,29.0,78,0.0,1008.1,9.25,26.3,29,11.0,7.0,7,0,4,1,2026-04-11T23:05:05.544542+05:30
Haridwar,Uttarakhand,29.9457,78.1642,20.7,68,0.0,977.0,7.0,42.1,74,77.3,32.2,3,5,7,0,2026-04-11T23:05:05.544549+05:30
Rishikesh,Uttarakhand,30.0869,78.2676,19.7,65,0.0,969.9,6.9,42.1,79,74.7,25.4,3,5,7,0,2026-04-11T23:05:05.544555+05:30
Nainital,Uttarakhand,29.3919,79.4542,17.8,38,0.0,807.2,7.85,69.8,69,88.5,25.1,0,5,7,0,2026-04-11T23:05:05.544561+05:30
Mussoorie,Uttarakhand,30.4599,78.0664,14.0,65,0.0,803.6,7.45,59.8,69,100.4,31.4,3,5,7,0,2026-04-11T23:05:05.544567+05:30
Dharamshala,Himachal Pradesh,32.219,76.3234,16.3,57,0.0,870.7,7.5,30.6,82,17.2,9.1,0,5,7,0,2026-04-11T23:05:05.544573+05:30
Dalhousie,Himachal Pradesh,32.5387,75.971,12.3,61,0.0,803.9,6.7,23.4,75,61.0,31.0,3,5,7,0,2026-04-11T23:05:05.544579+05:30
Patiala,Punjab,30.3398,76.3869,22.1,61,0.0,981.2,6.95,30.6,367,108.7,46.0,3,5,7,0,2026-04-11T23:05:05.544586+05:30
Bhatinda,Punjab,30.211,74.9455,22.9,56,0.0,987.0,7.7,29.9,101,97.3,37.7,0,5,7,0,2026-04-11T23:05:05.544592+05:30
Rohtak,Haryana,28.8955,76.6066,23.5,57,0.0,984.3,7.1,25.9,662,903.4,127.1,0,5,7,0,2026-04-11T23:05:05.544598+05:30
Panipat,Haryana,29.3909,76.9635,23.0,55,0.0,983.0,6.95,29.5,1384,1125.0,144.4,0,5,7,0,2026-04-11T23:05:05.544604+05:30
Mathura,Uttar Pradesh,27.4924,77.6737,25.0,50,0.0,988.5,7.5,27.7,859,635.2,105.5,4,5,7,0,2026-04-11T23:05:05.544610+05:30
Vrindavan,Uttar Pradesh,27.5823,77.7027,24.5,52,0.0,988.9,7.45,32.0,859,635.2,105.5,0,5,7,0,2026-04-11T23:05:05.544616+05:30
Ayodhya,Uttar Pradesh,26.7922,82.1998,25.5,42,0.0,996.8,7.85,43.6,151,192.8,44.9,4,5,7,0,2026-04-11T23:05:05.544622+05:30
Ratlam,Madhya Pradesh,23.3315,75.0367,27.8,42,0.0,956.1,8.35,19.8,100,22.8,16.5,4,5,7,0,2026-04-11T23:05:05.544628+05:30
Sagar,Madhya Pradesh,23.8388,78.7378,26.8,38,0.0,951.5,8.5,27.4,86,53.3,21.7,4,5,7,0,2026-04-11T23:05:05.544634+05:30
Satna,Madhya Pradesh,24.6005,80.8322,27.0,35,0.0,973.6,8.5,28.1,93,75.4,26.5,4,5,7,0,2026-04-11T23:05:05.544640+05:30
Akola,Maharashtra,20.7002,77.0082,28.5,44,0.0,975.8,8.75,29.5,124,38.2,29.3,4,5,7,0,2026-04-11T23:05:05.544646+05:30
Amravati,Maharashtra,20.9374,77.7796,27.6,51,0.0,967.9,8.75,23.4,132,42.1,33.3,4,5,7,1,2026-04-11T23:05:05.544653+05:30
Latur,Maharashtra,18.4088,76.5604,28.9,50,0.0,940.9,9.0,20.9,144,34.2,25.7,4,5,7,1,2026-04-11T23:05:05.544659+05:30
Nanded,Maharashtra,19.1383,77.3091,30.5,47,0.0,969.2,8.9,17.3,105,58.7,46.9,0,5,7,1,2026-04-11T23:05:05.544664+05:30
Gulbarga,Karnataka,17.3297,76.8343,32.8,35,0.0,959.4,9.05,19.8,125,35.3,29.6,0,5,7,0,2026-04-11T23:05:05.544670+05:30
Bidar,Karnataka,17.9104,77.5199,29.5,48,0.0,936.7,9.05,25.2,130,37.4,28.9,4,5,7,1,2026-04-11T23:05:05.544675+05:30
Hospet,Karnataka,15.2689,76.3909,30.8,60,0.0,956.5,9.25,27.7,163,49.1,41.4,0,5,7,1,2026-04-11T23:05:05.544681+05:30
Tirupur,Tamil Nadu,11.1085,77.3411,29.3,70,0.0,976.7,8.95,29.5,91,36.0,31.1,7,5,7,1,2026-04-11T23:05:05.544686+05:30
Alappuzha,Kerala,9.4981,76.3388,29.3,81,0.0,1010.4,8.9,30.6,68,44.7,28.6,7,0,4,1,2026-04-11T23:05:05.544692+05:30
Munnar,Kerala,10.0889,77.0595,22.0,88,0.0,858.6,9.65,38.5,77,39.7,34.9,3,5,7,1,2026-04-11T23:05:05.544698+05:30
Silchar,Assam,24.8333,92.7789,23.6,76,0.0,1006.3,8.6,24.5,134,65.7,51.2,3,5,4,1,2026-04-11T23:05:05.544704+05:30
Dibrugarh,Assam,27.4728,94.912,21.5,90,0.0,998.5,8.4,19.4,91,44.9,40.5,3,5,7,1,2026-04-11T23:05:05.544709+05:30
