city,state,latitude,longitude,temp,humidity,rain,pressure,uv_index,wind_gusts,aqi,pm10,pm2_5,mosquito_risk,arthritis_risk,migraine_risk,frizz_risk,updated_at
Delhi,Delhi,28.6139,77.209,22.6,79,0.0,984.1,5.25,27.0,215,383.7,99.0,3,5,3,1,2026-03-13T01:17:31.970549+05:30
Mumbai,Maharashtra,19.076,72.8777,28.6,74,0.0,1007.9,7.65,24.8,171,43.1,41.2,7,5,4,1,2026-03-13T01:17:31.970607+05:30
Bangalore,Karnataka,12.9716,77.5946,22.0,59,0.0,911.8,9.3,31.0,74,23.4,21.4,0,5,7,0,2026-03-13T01:17:31.970623+05:30
Hyderabad,Telangana,17.385,78.4867,23.9,54,0.0,952.9,8.65,24.1,98,42.1,32.1,0,5,7,0,2026-03-13T01:17:31.970633+05:30
Chennai,Tamil Nadu,13.0827,80.2707,24.9,94,0.0,1007.9,9.05,30.2,77,25.4,21.4,3,5,4,1,2026-03-13T01:17:31.970642+05:30
Kolkata,West Bengal,22.5726,88.3639,24.1,95,0.0,1006.9,8.0,29.2,138,32.8,29.6,3,5,4,1,2026-03-13T01:17:31.970652+05:30
Pune,Maharashtra,18.5204,73.8567,23.9,65,0.0,948.2,8.2,28.4,140,72.9,70.5,3,5,7,1,2026-03-13T01:17:31.970665+05:30
Ahmedabad,Gujarat,23.0225,72.5714,25.1,39,0.0,1002.8,7.5,23.4,75,78.9,63.8,4,5,4,0,2026-03-13T01:17:31.970673+05:30
Jaipur,Rajasthan,26.9124,75.7873,23.5,23,0.0,960.7,6.95,35.6,103,102.2,30.4,0,5,7,0,2026-03-13T01:17:31.970682+05:30
Lucknow,Uttar Pradesh,26.8467,80.9462,25.0,52,0.0,993.7,6.05,27.0,155,387.4,91.3,4,5,7,0,2026-03-13T01:17:31.970690+05:30
Kanpur,Uttar Pradesh,26.4499,80.3319,24.5,63,0.0,992.2,6.15,20.2,225,455.4,100.8,3,5,7,1,2026-03-13T01:17:31.970698+05:30
Chandigarh,Chandigarh,30.7333,76.7794,19.0,80,0.0,970.1,5.1,23.8,97,54.7,46.8,3,5,3,0,2026-03-13T01:17:31.970706+05:30
Srinagar,Jammu and Kashmir,34.0837,74.7973,6.4,95,0.0,842.1,6.9,14.0,77,31.0,29.5,3,10,7,0,2026-03-13T01:17:31.970714+05:30
Jammu,Jammu and Kashmir,32.7266,74.857,17.6,87,0.0,975.3,6.65,26.6,83,45.8,36.3,3,10,7,0,2026-03-13T01:17:31.970721+05:30
Amritsar,Punjab,31.634,74.8723,18.2,88,0.0,983.4,6.15,24.1,147,57.0,34.9,3,10,7,1,2026-03-13T01:17:31.970728+05:30
Ludhiana,Punjab,30.901,75.8573,20.0,82,0.0,981.0,5.15,26.6,148,51.2,34.1,3,5,3,1,2026-03-13T01:17:31.970735+05:30
Jalandhar,Punjab,31.326,75.5762,19.3,83,0.0,982.4,6.15,27.0,131,65.2,33.9,3,10,7,1,2026-03-13T01:17:31.970744+05:30
Dehradun,Uttarakhand,30.6284,78.0322,12.3,63,0.0,829.8,5.95,27.0,54,23.9,11.0,3,5,3,0,2026-03-13T01:17:31.970751+05:30
Shimla,Himachal Pradesh,31.1048,77.1734,10.1,71,0.0,783.2,5.6,34.9,69,39.2,22.8,3,5,3,0,2026-03-13T01:17:31.970758+05:30
Manali,Himachal Pradesh,32.2396,77.1887,11.9,36,0.0,820.0,7.95,44.3,45,9.2,4.9,0,5,7,1,2026-03-13T01:17:31.970765+05:30
Gurgaon,Haryana,28.4595,77.0266,20.3,89,0.0,982.7,5.55,24.5,796,840.1,149.5,3,5,3,1,2026-03-13T01:17:31.970772+05:30
Noida,Uttar Pradesh,28.5355,77.391,22.6,77,0.0,985.5,5.75,26.6,796,840.1,149.5,3,5,3,1,2026-03-13T01:17:31.970780+05:30
Ghaziabad,Uttar Pradesh,28.6692,77.4538,21.4,81,0.0,983.5,5.85,25.9,174,351.1,98.0,3,5,3,1,2026-03-13T01:17:31.970787+05:30
Faridabad,Haryana,28.4089,77.3178,20.9,82,0.0,984.8,5.6,27.0,796,840.1,149.5,3,5,3,1,2026-03-13T01:17:31.970793+05:30
Meerut,Uttar Pradesh,28.9845,77.7064,20.6,84,0.0,982.3,5.25,25.9,174,351.1,98.0,3,5,3,1,2026-03-13T01:17:31.970800+05:30
Agra,Uttar Pradesh,27.1767,78.0081,20.4,52,0.0,988.7,5.95,20.5,348,268.2,105.9,0,5,3,0,2026-03-13T01:17:31.970806+05:30
Varanasi,Uttar Pradesh,25.3176,82.9739,21.9,67,0.0,997.9,7.05,21.2,109,106.4,51.1,3,5,7,0,2026-03-13T01:17:31.970816+05:30
Prayagraj,Uttar Pradesh,25.4358,81.8463,24.1,55,0.0,996.4,6.85,16.9,121,180.2,65.7,0,5,7,0,2026-03-13T01:17:31.970824+05:30
Gorakhpur,Uttar Pradesh,26.7606,83.3732,22.2,77,0.0,997.6,6.95,30.2,194,143.9,129.9,3,5,7,1,2026-03-13T01:17:31.970831+05:30
Bareilly,Uttar Pradesh,28.367,79.4304,20.5,75,0.0,987.3,6.05,27.4,143,457.3,103.4,3,5,7,0,2026-03-13T01:17:31.970840+05:30
Aligarh,Uttar Pradesh,27.8974,78.088,19.9,73,0.0,986.1,5.6,26.6,467,659.4,139.2,3,5,3,0,2026-03-13T01:17:31.970847+05:30
Moradabad,Uttar Pradesh,28.8386,78.7733,21.0,77,0.0,984.2,5.25,27.7,151,189.1,74.5,3,5,3,1,2026-03-13T01:17:31.970853+05:30
Saharanpur,Uttar Pradesh,29.9637,77.546,19.3,82,0.0,976.8,4.9,23.8,154,256.1,100.1,3,10,3,1,2026-03-13T01:17:31.970860+05:30
Jhansi,Uttar Pradesh,25.4484,78.5685,22.7,43,0.0,978.3,7.0,20.5,52,13.3,13.1,0,5,7,0,2026-03-13T01:17:35.247896+05:30
Surat,Gujarat,21.1702,72.8311,26.2,70,0.0,1006.5,7.35,27.0,141,48.3,46.9,7,5,4,1,2026-03-13T01:17:35.247925+05:30
Vadodara,Gujarat,22.3072,73.1812,27.5,30,0.0,1004.4,7.5,23.4,90,68.0,64.7,4,5,4,0,2026-03-13T01:17:35.247936+05:30
Rajkot,Gujarat,22.3039,70.8022,23.9,65,0.0,995.4,7.3,36.4,64,64.5,28.8,3,5,7,1,2026-03-13T01:17:35.247944+05:30
Thane,Maharashtra,19.2183,72.9781,26.6,76,0.0,1007.4,7.65,37.8,171,43.1,41.2,7,5,4,1,2026-03-13T01:17:35.247952+05:30
Nagpur,Maharashtra,21.1458,79.0882,24.8,52,0.0,972.9,8.05,21.2,88,29.4,24.4,0,5,7,0,2026-03-13T01:17:35.247959+05:30
Nashik,Maharashtra,19.9975,73.7898,24.8,42,0.0,945.6,7.85,35.6,92,29.5,27.8,0,5,7,0,2026-03-13T01:17:35.247967+05:30
Aurangabad,Maharashtra,19.8762,75.3433,24.5,35,0.0,943.9,8.35,21.2,76,33.2,32.1,0,5,7,0,2026-03-13T01:17:35.247973+05:30
Solapur,Maharashtra,17.6599,75.9064,25.2,61,0.0,956.3,8.6,13.0,97,34.5,31.7,7,5,7,1,2026-03-13T01:17:35.247980+05:30
Kolhapur,Maharashtra,16.705,74.2433,21.9,71,0.0,947.3,8.7,44.6,152,80.8,78.2,3,5,7,1,2026-03-13T01:17:35.247987+05:30
Goa,Goa,15.2993,74.124,26.2,91,0.0,997.3,8.7,32.8,140,64.0,57.2,7,5,7,1,2026-03-13T01:17:35.247994+05:30
Jodhpur,Rajasthan,26.2389,73.0243,25.0,35,0.0,984.2,7.2,22.3,73,128.1,31.4,4,5,7,0,2026-03-13T01:17:35.248001+05:30
Udaipur,Rajasthan,24.5854,73.7125,22.2,25,0.0,947.7,7.65,34.9,52,22.4,12.1,0,5,7,0,2026-03-13T01:17:35.248008+05:30
Kota,Rajasthan,25.2138,75.8648,21.1,46,0.0,979.1,6.8,14.8,73,32.2,30.7,0,5,7,0,2026-03-13T01:17:35.248014+05:30
Bikaner,Rajasthan,28.0229,73.3119,24.7,57,0.0,983.8,6.1,24.1,104,61.7,30.5,0,5,7,0,2026-03-13T01:17:35.248021+05:30
Ajmer,Rajasthan,26.4499,74.6399,23.3,38,0.0,955.8,6.7,20.9,58,36.0,16.8,0,5,7,0,2026-03-13T01:17:35.248028+05:30
Gwalior,Madhya Pradesh,26.2183,78.1828,24.2,34,0.0,983.7,6.35,19.1,53,12.0,10.8,0,5,7,0,2026-03-13T01:17:35.248035+05:30
Indore,Madhya Pradesh,22.7196,75.8577,20.1,45,0.0,948.2,7.8,31.7,76,30.0,29.5,0,5,7,0,2026-03-13T01:17:35.248041+05:30
Bhopal,Madhya Pradesh,23.2599,77.4126,22.6,45,0.0,953.9,7.65,27.0,62,34.0,30.9,0,5,7,0,2026-03-13T01:17:35.248048+05:30
Jabalpur,Madhya Pradesh,23.1815,79.9864,24.2,44,0.0,961.2,7.75,22.0,80,49.2,32.8,0,5,7,0,2026-03-13T01:17:35.248054+05:30
Ujjain,Madhya Pradesh,23.1765,75.7885,21.1,43,0.0,954.0,7.7,22.7,90,18.2,17.4,0,5,7,0,2026-03-13T01:17:35.248061+05:30
Visakhapatnam,Andhra Pradesh,17.6868,83.2185,25.1,91,0.0,1004.2,8.65,39.2,91,34.2,30.3,7,5,4,1,2026-03-13T01:17:35.248068+05:30
Vijayawada,Andhra Pradesh,16.5062,80.648,24.9,91,0.0,1002.9,8.75,28.8,75,25.5,23.4,3,5,4,1,2026-03-13T01:17:35.248074+05:30
Guntur,Andhra Pradesh,16.3067,80.4365,24.3,94,0.0,1004.0,8.75,32.0,73,22.9,21.0,3,5,4,1,2026-03-13T01:17:35.248081+05:30
Nellore,Andhra Pradesh,14.4426,79.9865,24.2,94,0.0,1006.3,8.9,31.7,72,20.1,18.5,3,5,4,1,2026-03-13T01:17:35.248088+05:30
Kurnool,Andhra Pradesh,15.8281,78.0373,27.2,46,0.0,976.5,8.75,20.2,76,31.5,27.5,4,5,7,0,2026-03-13T01:17:35.248095+05:30
Kakinada,Andhra Pradesh,16.9891,82.2475,23.6,95,0.0,1008.0,8.7,31.3,71,28.7,24.0,3,0,4,1,2026-03-13T01:17:35.248102+05:30
Tirupati,Andhra Pradesh,13.6288,79.4192,23.8,81,0.0,992.5,9.05,33.1,104,45.5,44.1,3,5,7,1,2026-03-13T01:17:35.248108+05:30
Warangal,Telangana,17.9689,79.5941,25.3,49,0.0,977.9,8.5,24.8,105,47.3,41.2,4,5,7,0,2026-03-13T01:17:35.248115+05:30
Nizamabad,Telangana,18.6725,78.0941,25.5,53,0.0,964.0,8.4,29.2,104,62.2,55.8,4,5,7,0,2026-03-13T01:17:35.248122+05:30
Mysore,Karnataka,12.2958,76.6396,22.1,54,0.0,927.8,9.3,33.1,66,20.8,19.2,0,5,7,0,2026-03-13T01:17:35.248128+05:30
Mangalore,Karnataka,12.9141,74.856,29.3,79,0.0,1006.4,8.95,25.9,106,50.1,43.0,7,5,4,1,2026-03-13T01:17:35.248134+05:30
Hubli-Dharwad,Karnataka,15.3647,75.124,20.9,56,0.0,940.0,8.9,31.3,94,25.0,21.8,0,5,7,0,2026-03-13T01:17:35.248140+05:30
Belgaum,Karnataka,15.8497,74.4977,23.6,55,0.0,925.2,8.95,44.6,105,59.1,53.6,0,5,7,0,2026-03-13T01:17:38.520730+05:30
Coimbatore,Tamil Nadu,11.0168,76.9558,23.6,68,0.0,962.1,9.25,43.9,72,29.3,28.5,3,5,7,1,2026-03-13T01:17:38.520766+05:30
Madurai,Tamil Nadu,9.9252,78.1198,25.2,88,0.0,993.9,9.25,24.8,72,25.8,24.6,7,5,7,1,2026-03-13T01:17:38.520779+05:30
Trichy,Tamil Nadu,10.7905,78.7047,24.4,96,0.0,1000.7,9.15,21.6,80,27.7,25.1,3,5,4,1,2026-03-13T01:17:38.520790+05:30
Salem,Tamil Nadu,11.6643,78.146,24.1,86,0.0,977.6,9.2,23.4,79,36.8,35.5,3,5,7,1,2026-03-13T01:17:38.520799+05:30
Tirunelveli,Tamil Nadu,8.7139,77.7567,25.4,83,0.0,1004.0,9.2,37.1,60,20.5,18.9,7,5,4,1,2026-03-13T01:17:38.520808+05:30
Vellore,Tamil Nadu,12.9165,79.1325,23.2,92,0.0,985.5,9.1,34.2,93,49.0,47.6,3,5,7,1,2026-03-13T01:17:38.520816+05:30
Erode,Tamil Nadu,11.341,77.7172,25.0,85,0.0,989.6,9.15,20.9,75,24.2,23.5,7,5,7,1,2026-03-13T01:17:38.520825+05:30
Kochi,Kerala,9.9312,76.2673,27.1,86,0.0,1008.9,9.1,33.8,91,39.0,37.8,7,0,4,1,2026-03-13T01:17:38.520833+05:30
Thiruvananthapuram,Kerala,8.5241,76.9366,27.5,82,0.0,1008.0,9.1,30.2,67,17.3,13.1,7,0,4,1,2026-03-13T01:17:38.520842+05:30
Kozhikode,Kerala,11.2588,75.7804,28.7,81,0.0,1007.6,9.0,25.9,100,34.5,29.2,7,5,4,1,2026-03-13T01:17:38.520849+05:30
Thrissur,Kerala,10.5276,76.2144,26.4,88,0.0,1007.2,9.05,36.7,94,37.7,36.1,7,5,4,1,2026-03-13T01:17:38.520858+05:30
Kannur,Kerala,11.8745,75.3704,28.3,84,0.0,1007.0,9.0,29.2,97,45.1,39.9,7,5,4,1,2026-03-13T01:17:38.520866+05:30
Patna,Bihar,25.5941,85.1376,24.3,86,0.0,1001.0,7.1,25.2,195,149.0,136.4,3,5,4,1,2026-03-13T01:17:38.520875+05:30
Gaya,Bihar,24.7914,85.0002,25.5,50,0.0,994.2,7.3,21.2,167,188.1,72.9,4,5,7,0,2026-03-13T01:17:38.520883+05:30
Muzaffarpur,Bihar,26.1209,85.3647,22.8,91,0.0,1001.0,7.4,24.1,219,136.4,130.4,3,5,4,1,2026-03-13T01:17:38.520890+05:30
Bhagalpur,Bihar,25.2425,87.0117,23.2,90,0.0,1002.3,7.5,27.0,183,108.0,102.7,3,5,4,1,2026-03-13T01:17:38.520898+05:30
Ranchi,Jharkhand,23.3441,85.3096,21.9,48,0.0,938.2,8.2,31.7,151,111.1,37.7,0,5,7,0,2026-03-13T01:17:38.520906+05:30
Jamshedpur,Jharkhand,22.8046,86.2029,25.1,89,0.0,991.5,8.1,17.6,164,51.3,49.2,7,5,7,1,2026-03-13T01:17:38.520915+05:30
Dhanbad,Jharkhand,23.7957,86.4304,24.3,90,0.0,980.5,8.0,27.7,185,121.5,116.2,3,5,7,1,2026-03-13T01:17:38.520922+05:30
Bokaro,Jharkhand,23.6693,86.1511,24.0,63,0.0,984.8,8.0,29.9,174,126.7,72.6,3,5,7,1,2026-03-13T01:17:38.520928+05:30
Bhubaneswar,Odisha,20.2961,85.8245,25.5,92,0.0,1003.2,8.4,36.4,123,37.0,32.6,7,5,4,1,2026-03-13T01:17:38.520935+05:30
Cuttack,Odisha,20.4625,85.8828,25.4,94,0.0,1005.2,8.4,30.2,123,37.0,32.6,7,5,4,1,2026-03-13T01:17:38.520941+05:30
Rourkela,Odisha,22.2604,84.8536,26.2,56,0.0,985.2,8.0,25.6,151,98.0,43.8,4,5,7,1,2026-03-13T01:17:38.520948+05:30
Raipur,Chhattisgarh,21.2514,81.6296,24.6,47,0.0,974.3,8.15,15.5,156,65.7,48.0,0,5,7,0,2026-03-13T01:17:38.520954+05:30
Bhilai,Chhattisgarh,21.1938,81.3509,24.0,47,0.0,974.5,8.15,12.2,149,72.6,54.2,0,5,7,0,2026-03-13T01:17:38.520961+05:30
Guwahati,Assam,26.1158,91.7086,23.7,91,0.0,1003.1,7.25,28.4,154,73.8,69.8,3,5,4,1,2026-03-13T01:17:38.520967+05:30
Agartala,Tripura,23.8315,91.2868,21.4,93,0.0,1007.9,7.7,25.9,153,45.3,43.0,3,5,4,1,2026-03-13T01:17:38.520973+05:30
Shillong,Meghalaya,25.5788,91.8933,12.2,91,0.0,855.3,6.9,57.2,151,72.2,65.2,3,10,7,0,2026-03-13T01:17:38.520980+05:30
Imphal,Manipur,24.817,93.9368,16.6,92,0.0,924.5,7.8,69.5,167,85.7,82.4,3,10,7,0,2026-03-13T01:17:38.520987+05:30
Aizawl,Mizoram,23.7271,92.7176,16.3,86,0.0,892.9,6.8,66.2,183,121.1,110.6,3,10,7,0,2026-03-13T01:17:38.520993+05:30
Kohima,Nagaland,25.6701,94.1077,14.3,88,0.0,854.8,5.95,78.1,151,59.6,57.5,3,10,3,0,2026-03-13T01:17:38.521000+05:30
Gangtok,Sikkim,27.3314,88.6138,14.2,95,0.0,837.1,6.45,17.6,90,35.9,33.3,3,10,7,0,2026-03-13T01:17:38.521006+05:30
Siliguri,West Bengal,26.7271,88.3953,19.7,83,0.0,995.5,7.4,29.2,160,69.8,63.3,3,10,7,1,2026-03-13T01:17:41.791568+05:30
Durgapur,West Bengal,23.5204,87.3119,24.7,90,0.0,996.1,7.9,23.8,183,104.3,98.3,3,5,7,1,2026-03-13T01:17:41.791599+05:30
Asansol,West Bengal,23.6739,86.9524,25.2,89,0.0,994.6,7.95,23.0,181,103.6,98.5,7,5,7,1,2026-03-13T01:17:41.791610+05:30
Pondicherry,Puducherry,11.9139,79.8145,23.8,98,0.0,1009.4,9.05,28.4,71,23.0,18.4,3,0,4,1,2026-03-13T01:17:41.791618+05:30
Port Blair,Andaman and Nicobar Islands,11.6234,92.7265,27.4,83,0.0,1007.0,8.95,23.8,46,16.1,13.2,7,5,4,1,2026-03-13T01:17:41.791626+05:30
Haridwar,Uttarakhand,29.9457,78.1642,19.4,74,0.0,975.3,5.3,26.3,105,91.0,49.7,3,5,3,0,2026-03-13T01:17:41.791633+05:30
Rishikesh,Uttarakhand,30.0869,78.2676,19.1,59,0.0,968.1,5.65,24.8,78,53.1,28.9,0,5,3,0,2026-03-13T01:17:41.791641+05:30
Nainital,Uttarakhand,29.3919,79.4542,18.5,49,0.0,806.6,6.35,46.8,91,95.9,38.4,0,5,7,0,2026-03-13T01:17:41.791649+05:30
Mussoorie,Uttarakhand,30.4599,78.0664,15.6,45,0.0,803.1,5.45,29.5,84,46.3,35.3,0,5,3,0,2026-03-13T01:17:41.791656+05:30
Dharamshala,Himachal Pradesh,32.219,76.3234,18.0,50,0.0,870.1,5.9,25.2,50,11.4,6.7,0,5,3,0,2026-03-13T01:17:41.791663+05:30
Dalhousie,Himachal Pradesh,32.5387,75.971,14.3,51,0.0,804.3,6.1,30.6,69,25.6,19.7,0,5,7,0,2026-03-13T01:17:41.791672+05:30
Patiala,Punjab,30.3398,76.3869,19.4,85,0.0,980.0,4.95,23.0,156,393.0,72.2,3,10,3,1,2026-03-13T01:17:41.791679+05:30
Bhatinda,Punjab,30.211,74.9455,20.0,86,0.0,986.1,5.9,25.2,153,73.3,46.8,3,5,3,1,2026-03-13T01:17:41.791686+05:30
Rohtak,Haryana,28.8955,76.6066,20.6,87,0.0,983.3,4.85,23.8,284,408.9,99.0,3,5,3,1,2026-03-13T01:17:41.791693+05:30
Panipat,Haryana,29.3909,76.9635,19.8,87,0.0,981.7,4.6,23.4,353,637.0,115.0,3,10,3,1,2026-03-13T01:17:41.791699+05:30
Mathura,Uttar Pradesh,27.4924,77.6737,20.4,62,0.0,987.8,6.4,24.8,242,272.9,82.7,3,5,7,0,2026-03-13T01:17:41.791706+05:30
Vrindavan,Uttar Pradesh,27.5823,77.7027,18.8,75,0.0,988.2,6.1,25.9,242,272.9,82.7,3,5,7,0,2026-03-13T01:17:41.791713+05:30
Ayodhya,Uttar Pradesh,26.7922,82.1998,21.5,70,0.0,995.5,6.35,28.8,153,153.7,74.3,3,5,7,0,2026-03-13T01:17:41.791719+05:30
Ratlam,Madhya Pradesh,23.3315,75.0367,24.6,31,0.0,955.1,7.6,25.6,75,15.9,14.7,0,5,7,0,2026-03-13T01:17:41.791726+05:30
Sagar,Madhya Pradesh,23.8388,78.7378,23.2,40,0.0,950.6,7.6,25.9,57,24.3,19.4,0,5,7,0,2026-03-13T01:17:41.791733+05:30
Satna,Madhya Pradesh,24.6005,80.8322,23.9,43,0.0,971.9,7.4,29.5,62,25.7,20.0,0,5,7,0,2026-03-13T01:17:41.791740+05:30
Akola,Maharashtra,20.7002,77.0082,24.6,54,0.0,974.7,8.05,18.7,94,43.8,36.3,0,5,7,0,2026-03-13T01:17:41.791747+05:30
Amravati,Maharashtra,20.9374,77.7796,23.6,49,0.0,966.6,8.0,20.5,97,50.5,42.0,0,5,7,0,2026-03-13T01:17:41.791754+05:30
Latur,Maharashtra,18.4088,76.5604,24.1,47,0.0,939.2,8.5,23.4,102,45.5,39.3,0,5,7,0,2026-03-13T01:17:41.791760+05:30
Nanded,Maharashtra,19.1383,77.3091,26.3,48,0.0,968.1,8.3,14.0,99,65.4,59.6,4,5,7,0,2026-03-13T01:17:41.791767+05:30
Gulbarga,Karnataka,17.3297,76.8343,28.3,47,0.0,958.4,8.6,34.2,96,35.9,30.9,4,5,7,0,2026-03-13T01:17:41.791773+05:30
Bidar,Karnataka,17.9104,77.5199,25.0,49,0.0,935.2,8.55,31.3,100,51.9,44.1,4,5,7,0,2026-03-13T01:17:41.791780+05:30
Hospet,Karnataka,15.2689,76.3909,26.9,50,0.0,955.7,8.9,23.0,78,41.9,36.1,4,5,7,0,2026-03-13T01:17:41.791786+05:30
Tirupur,Tamil Nadu,11.1085,77.3411,25.8,71,0.0,975.9,9.25,29.5,79,27.2,26.5,7,5,7,1,2026-03-13T01:17:41.791793+05:30
Alappuzha,Kerala,9.4981,76.3388,27.4,84,0.0,1008.9,9.1,27.7,87,39.5,36.9,7,0,4,1,2026-03-13T01:17:41.791799+05:30
Munnar,Kerala,10.0889,77.0595,19.8,77,0.0,856.0,9.55,27.0,70,28.3,27.4,3,5,7,0,2026-03-13T01:17:41.791805+05:30
Silchar,Assam,24.8333,92.7789,21.7,93,0.0,1007.8,7.75,34.2,179,147.1,136.9,3,5,4,1,2026-03-13T01:17:41.791812+05:30
Dibrugarh,Assam,27.4728,94.912,22.6,86,0.0,997.8,3.6,24.8,117,35.7,34.7,3,5,3,1,2026-03-13T01:17:41.791818+05:30
