city,state,latitude,longitude,temp,humidity,rain,pressure,uv_index,wind_gusts,aqi,pm10,pm2_5,mosquito_risk,arthritis_risk,migraine_risk,frizz_risk,updated_at
Delhi,Delhi,28.6139,77.209,27.9,52,0.0,983.9,5.85,34.6,426,840.1,137.8,4,5,3,1,2026-03-05T19:31:40.348023+05:30
Mumbai,Maharashtra,19.076,72.8777,29.6,54,0.0,1008.5,7.4,26.6,185,35.0,32.9,4,0,4,1,2026-03-05T19:31:40.348057+05:30
Bangalore,Karnataka,12.9716,77.5946,26.5,35,0.0,911.9,9.15,31.3,150,38.4,36.9,4,5,7,0,2026-03-05T19:31:40.348071+05:30
Hyderabad,Telangana,17.385,78.4867,30.7,34,0.0,953.7,8.45,27.4,155,33.3,31.4,0,5,7,0,2026-03-05T19:31:40.348080+05:30
Chennai,Tamil Nadu,13.0827,80.2707,27.2,76,0.0,1007.5,8.85,31.3,99,28.3,24.3,7,5,4,1,2026-03-05T19:31:40.348088+05:30
Kolkata,West Bengal,22.5726,88.3639,25.9,56,0.0,1006.5,7.8,10.8,213,132.7,115.5,4,5,4,1,2026-03-05T19:31:40.348095+05:30
Pune,Maharashtra,18.5204,73.8567,31.6,28,0.0,948.8,7.95,31.3,124,19.6,18.4,0,5,7,0,2026-03-05T19:31:40.348106+05:30
Ahmedabad,Gujarat,23.0225,72.5714,29.5,25,0.0,1004.5,7.15,28.4,95,31.0,29.9,4,5,4,0,2026-03-05T19:31:40.348112+05:30
Jaipur,Rajasthan,26.9124,75.7873,29.9,24,0.0,961.8,6.65,34.9,95,131.3,33.9,4,5,7,0,2026-03-05T19:31:40.348121+05:30
Lucknow,Uttar Pradesh,26.8467,80.9462,27.5,60,0.0,994.3,6.4,15.1,165,213.3,86.6,4,5,7,1,2026-03-05T19:31:40.348128+05:30
Kanpur,Uttar Pradesh,26.4499,80.3319,25.7,58,0.0,992.4,6.4,28.4,176,293.4,81.3,4,5,7,1,2026-03-05T19:31:40.348134+05:30
Chandigarh,Chandigarh,30.7333,76.7794,23.5,65,0.0,969.3,5.75,31.0,127,51.9,43.7,3,5,3,1,2026-03-05T19:31:40.348140+05:30
Srinagar,Jammu and Kashmir,34.0837,74.7973,16.6,66,0.0,842.9,6.75,14.4,151,61.5,47.4,3,5,7,0,2026-03-05T19:31:40.348146+05:30
Jammu,Jammu and Kashmir,32.7266,74.857,24.9,66,0.0,973.4,6.4,23.8,104,74.7,51.8,3,5,7,1,2026-03-05T19:31:40.348152+05:30
Amritsar,Punjab,31.634,74.8723,23.3,63,0.0,981.7,6.35,22.7,146,54.2,39.7,3,5,7,0,2026-03-05T19:31:40.348158+05:30
Ludhiana,Punjab,30.901,75.8573,26.0,62,0.0,980.0,6.0,25.6,156,122.5,63.3,7,5,3,1,2026-03-05T19:31:40.348164+05:30
Jalandhar,Punjab,31.326,75.5762,25.4,63,0.0,981.0,6.2,24.1,156,77.1,49.4,7,5,7,1,2026-03-05T19:31:40.348176+05:30
Dehradun,Uttarakhand,30.6284,78.0322,16.4,89,0.0,830.4,6.15,31.7,90,37.1,26.7,3,10,7,0,2026-03-05T19:31:40.348182+05:30
Shimla,Himachal Pradesh,31.1048,77.1734,16.1,57,0.0,786.1,6.2,55.1,69,35.9,22.1,0,5,7,0,2026-03-05T19:31:40.348188+05:30
Manali,Himachal Pradesh,32.2396,77.1887,20.8,58,0.0,823.8,7.8,36.7,105,26.8,16.4,0,5,7,0,2026-03-05T19:31:40.348194+05:30
Gurgaon,Haryana,28.4595,77.0266,24.7,63,0.0,982.3,5.95,33.5,1516,1642.9,215.1,3,5,3,1,2026-03-05T19:31:40.348200+05:30
Noida,Uttar Pradesh,28.5355,77.391,27.9,52,0.0,985.3,5.85,34.6,1516,1642.9,215.1,4,5,3,1,2026-03-05T19:31:40.348206+05:30
Ghaziabad,Uttar Pradesh,28.6692,77.4538,27.1,56,0.0,983.4,5.8,31.7,286,666.8,121.1,4,5,3,1,2026-03-05T19:31:40.348212+05:30
Faridabad,Haryana,28.4089,77.3178,26.9,51,0.0,984.8,5.9,33.1,1516,1642.9,215.1,4,5,3,0,2026-03-05T19:31:40.348218+05:30
Meerut,Uttar Pradesh,28.9845,77.7064,25.3,62,0.0,981.7,5.7,30.6,286,666.8,121.1,7,5,3,1,2026-03-05T19:31:40.348223+05:30
Agra,Uttar Pradesh,27.1767,78.0081,25.7,52,0.0,988.7,6.2,37.8,493,838.2,120.6,4,5,7,0,2026-03-05T19:31:40.348230+05:30
Varanasi,Uttar Pradesh,25.3176,82.9739,25.1,65,0.0,998.7,7.05,16.6,159,180.7,91.0,7,5,7,1,2026-03-05T19:31:40.348238+05:30
Prayagraj,Uttar Pradesh,25.4358,81.8463,25.8,65,0.0,996.7,6.9,19.4,156,203.0,89.2,7,5,7,1,2026-03-05T19:31:40.348244+05:30
Gorakhpur,Uttar Pradesh,26.7606,83.3732,25.2,62,0.0,998.5,6.75,11.2,185,148.5,102.4,7,5,7,1,2026-03-05T19:31:40.348250+05:30
Bareilly,Uttar Pradesh,28.367,79.4304,24.6,73,0.0,987.7,6.05,14.0,173,152.7,96.6,3,5,7,1,2026-03-05T19:31:40.348256+05:30
Aligarh,Uttar Pradesh,27.8974,78.088,25.3,56,0.0,986.3,5.95,35.3,726,1151.1,184.4,4,5,3,0,2026-03-05T19:31:40.348262+05:30
Moradabad,Uttar Pradesh,28.8386,78.7733,24.8,70,0.0,984.2,5.85,18.0,174,121.5,88.5,3,5,3,1,2026-03-05T19:31:40.348267+05:30
Saharanpur,Uttar Pradesh,29.9637,77.546,24.0,63,0.0,975.5,5.5,23.4,157,340.9,89.4,3,5,3,1,2026-03-05T19:31:40.348276+05:30
Jhansi,Uttar Pradesh,25.4484,78.5685,28.6,37,0.0,979.0,6.85,35.3,70,34.0,22.2,4,5,7,0,2026-03-05T19:31:43.630080+05:30
Surat,Gujarat,21.1702,72.8311,29.9,37,0.0,1008.0,7.1,29.5,109,54.8,52.9,4,0,4,0,2026-03-05T19:31:43.630101+05:30
Vadodara,Gujarat,22.3072,73.1812,31.2,30,0.0,1005.8,7.2,24.5,122,37.3,35.6,0,5,4,0,2026-03-05T19:31:43.630109+05:30
Rajkot,Gujarat,22.3039,70.8022,29.2,31,0.0,997.5,7.05,36.4,109,18.5,18.0,4,5,7,0,2026-03-05T19:31:43.630116+05:30
Thane,Maharashtra,19.2183,72.9781,30.6,37,0.0,1008.1,7.4,41.4,185,35.0,32.9,0,0,4,0,2026-03-05T19:31:43.630124+05:30
Nagpur,Maharashtra,21.1458,79.0882,30.7,25,0.0,973.8,7.8,27.0,94,26.8,19.4,0,5,7,0,2026-03-05T19:31:43.630130+05:30
Nashik,Maharashtra,19.9975,73.7898,28.6,27,0.0,946.8,7.55,37.4,107,23.1,21.1,4,5,7,0,2026-03-05T19:31:43.630136+05:30
Aurangabad,Maharashtra,19.8762,75.3433,29.4,21,0.0,945.5,8.1,30.2,115,21.9,19.7,4,5,7,0,2026-03-05T19:31:43.630142+05:30
Solapur,Maharashtra,17.6599,75.9064,28.8,39,0.0,957.4,8.35,19.1,151,22.6,21.4,4,5,7,0,2026-03-05T19:31:43.630148+05:30
Kolhapur,Maharashtra,16.705,74.2433,29.0,34,0.0,948.3,8.5,34.6,151,43.0,41.9,4,5,7,0,2026-03-05T19:31:43.630154+05:30
Goa,Goa,15.2993,74.124,27.5,81,0.0,998.2,8.55,36.0,152,57.6,54.0,7,5,7,1,2026-03-05T19:31:43.630160+05:30
Jodhpur,Rajasthan,26.2389,73.0243,29.3,23,0.0,985.6,6.9,24.1,106,85.9,18.6,4,5,7,0,2026-03-05T19:31:43.630166+05:30
Udaipur,Rajasthan,24.5854,73.7125,27.8,21,0.0,949.2,7.55,25.9,91,13.6,12.6,4,5,7,0,2026-03-05T19:31:43.630172+05:30
Kota,Rajasthan,25.2138,75.8648,29.0,38,0.0,980.4,6.95,28.8,81,71.9,31.7,4,5,7,0,2026-03-05T19:31:43.630178+05:30
Bikaner,Rajasthan,28.0229,73.3119,30.0,30,0.0,984.2,6.6,20.9,90,26.8,13.4,4,5,7,0,2026-03-05T19:31:43.630184+05:30
Ajmer,Rajasthan,26.4499,74.6399,29.1,32,0.0,957.0,6.9,25.6,94,29.0,18.2,4,5,7,0,2026-03-05T19:31:43.630190+05:30
Gwalior,Madhya Pradesh,26.2183,78.1828,27.0,51,0.0,984.2,6.55,32.8,81,117.6,33.9,4,5,7,0,2026-03-05T19:31:43.630195+05:30
Indore,Madhya Pradesh,22.7196,75.8577,25.2,43,0.0,949.6,7.5,25.2,102,33.4,24.3,4,5,7,0,2026-03-05T19:31:43.630201+05:30
Bhopal,Madhya Pradesh,23.2599,77.4126,25.1,45,0.0,955.3,7.35,29.5,99,33.3,20.8,4,5,7,0,2026-03-05T19:31:43.630207+05:30
Jabalpur,Madhya Pradesh,23.1815,79.9864,27.8,43,0.0,962.1,7.5,30.2,75,34.7,19.7,4,5,7,0,2026-03-05T19:31:43.630212+05:30
Ujjain,Madhya Pradesh,23.1765,75.7885,25.4,48,0.0,955.4,7.4,23.0,107,39.6,30.3,4,5,7,0,2026-03-05T19:31:43.630218+05:30
Visakhapatnam,Andhra Pradesh,17.6868,83.2185,27.4,72,0.0,1002.6,8.45,33.1,151,44.0,40.5,7,5,4,1,2026-03-05T19:31:43.630224+05:30
Vijayawada,Andhra Pradesh,16.5062,80.648,30.7,49,0.0,1001.8,8.5,17.3,128,46.4,44.8,0,5,4,1,2026-03-05T19:31:43.630229+05:30
Guntur,Andhra Pradesh,16.3067,80.4365,30.3,47,0.0,1003.2,8.5,20.9,142,37.4,35.5,0,5,4,1,2026-03-05T19:31:43.630235+05:30
Nellore,Andhra Pradesh,14.4426,79.9865,28.4,54,0.0,1005.5,8.7,28.4,157,31.1,28.5,4,5,4,1,2026-03-05T19:31:43.630241+05:30
Kurnool,Andhra Pradesh,15.8281,78.0373,32.9,27,0.0,976.6,8.5,27.0,145,22.6,21.1,0,5,7,0,2026-03-05T19:31:43.630248+05:30
Kakinada,Andhra Pradesh,16.9891,82.2475,28.2,70,0.0,1006.2,8.45,27.4,105,34.0,30.9,7,5,4,1,2026-03-05T19:31:43.630254+05:30
Tirupati,Andhra Pradesh,13.6288,79.4192,28.5,42,0.0,991.6,8.8,29.5,128,41.1,37.8,4,5,7,0,2026-03-05T19:31:43.630259+05:30
Warangal,Telangana,17.9689,79.5941,30.1,36,0.0,978.8,8.3,27.4,144,30.2,27.7,0,5,7,0,2026-03-05T19:31:43.630265+05:30
Nizamabad,Telangana,18.6725,78.0941,29.0,41,0.0,965.4,8.15,22.3,109,27.4,25.7,4,5,7,0,2026-03-05T19:31:43.630270+05:30
Mysore,Karnataka,12.2958,76.6396,28.1,42,0.0,928.4,9.15,24.5,169,46.9,45.9,4,5,7,0,2026-03-05T19:31:43.630276+05:30
Mangalore,Karnataka,12.9141,74.856,28.7,80,0.0,1006.9,8.75,30.2,132,44.9,40.7,7,5,4,1,2026-03-05T19:31:43.630281+05:30
Hubli-Dharwad,Karnataka,15.3647,75.124,29.8,29,0.0,940.8,8.7,29.2,167,29.2,27.8,4,5,7,0,2026-03-05T19:31:43.630287+05:30
Belgaum,Karnataka,15.8497,74.4977,27.5,52,0.0,926.1,8.75,36.7,173,33.9,32.5,4,5,7,1,2026-03-05T19:31:46.909553+05:30
Coimbatore,Tamil Nadu,11.0168,76.9558,27.6,38,0.0,961.8,9.15,34.2,145,36.7,36.0,4,5,7,0,2026-03-05T19:31:46.909579+05:30
Madurai,Tamil Nadu,9.9252,78.1198,30.4,32,0.0,992.7,9.1,29.9,131,37.3,35.5,0,5,7,0,2026-03-05T19:31:46.909591+05:30
Trichy,Tamil Nadu,10.7905,78.7047,29.2,49,0.0,999.6,9.0,33.8,105,31.8,30.2,4,5,7,1,2026-03-05T19:31:46.909601+05:30
Salem,Tamil Nadu,11.6643,78.146,31.2,30,0.0,976.9,9.05,19.8,155,30.7,28.8,0,5,7,0,2026-03-05T19:31:46.909609+05:30
Tirunelveli,Tamil Nadu,8.7139,77.7567,28.5,66,0.0,1003.4,9.15,48.6,98,16.8,15.9,7,5,4,1,2026-03-05T19:31:46.909617+05:30
Vellore,Tamil Nadu,12.9165,79.1325,28.1,41,0.0,984.6,8.9,29.2,127,42.8,39.9,4,5,7,0,2026-03-05T19:31:46.909625+05:30
Erode,Tamil Nadu,11.341,77.7172,31.4,40,0.0,988.0,9.05,19.8,161,35.3,34.0,0,5,7,1,2026-03-05T19:31:46.909632+05:30
Kochi,Kerala,9.9312,76.2673,28.4,78,0.0,1008.6,8.95,38.2,144,51.5,48.8,7,0,4,1,2026-03-05T19:31:46.909640+05:30
Thiruvananthapuram,Kerala,8.5241,76.9366,28.4,74,0.0,1008.2,9.0,32.8,120,31.1,27.9,7,0,4,1,2026-03-05T19:31:46.909647+05:30
Kozhikode,Kerala,11.2588,75.7804,28.5,80,0.0,1008.1,8.85,30.6,127,44.5,39.6,7,0,4,1,2026-03-05T19:31:46.909654+05:30
Thrissur,Kerala,10.5276,76.2144,27.9,79,0.0,1007.2,8.9,36.7,141,44.2,42.0,7,5,4,1,2026-03-05T19:31:46.909663+05:30
Kannur,Kerala,11.8745,75.3704,28.5,78,0.0,1007.6,8.85,37.4,133,43.3,39.1,7,5,4,1,2026-03-05T19:31:46.909670+05:30
Patna,Bihar,25.5941,85.1376,27.4,53,0.0,1001.7,7.2,14.4,182,125.3,87.3,4,5,4,1,2026-03-05T19:31:46.909678+05:30
Gaya,Bihar,24.7914,85.0002,24.4,66,0.0,995.1,7.3,12.6,159,125.3,63.8,3,5,7,1,2026-03-05T19:31:46.909685+05:30
Muzaffarpur,Bihar,26.1209,85.3647,25.0,61,0.0,1001.7,7.15,15.5,190,101.3,80.1,7,5,4,1,2026-03-05T19:31:46.909692+05:30
Bhagalpur,Bihar,25.2425,87.0117,25.2,57,0.0,1002.5,7.25,14.0,171,88.5,71.9,4,5,4,1,2026-03-05T19:31:46.909700+05:30
Ranchi,Jharkhand,23.3441,85.3096,22.9,48,0.0,938.2,7.95,19.1,145,92.9,46.4,0,5,7,0,2026-03-05T19:31:46.909707+05:30
Jamshedpur,Jharkhand,22.8046,86.2029,28.1,44,0.0,990.9,7.85,11.2,203,120.6,73.3,4,5,7,0,2026-03-05T19:31:46.909714+05:30
Dhanbad,Jharkhand,23.7957,86.4304,28.2,35,0.0,980.3,7.75,16.2,191,175.1,129.5,4,5,7,0,2026-03-05T19:31:46.909722+05:30
Bokaro,Jharkhand,23.6693,86.1511,27.2,41,0.0,984.4,7.75,13.3,195,169.0,128.5,4,5,7,0,2026-03-05T19:31:46.909729+05:30
Bhubaneswar,Odisha,20.2961,85.8245,27.4,73,0.0,1002.3,8.15,25.2,167,51.7,41.8,7,5,4,1,2026-03-05T19:31:46.909737+05:30
Cuttack,Odisha,20.4625,85.8828,31.0,31,0.0,1003.6,8.2,26.6,167,51.7,41.8,0,5,4,0,2026-03-05T19:31:46.909745+05:30
Rourkela,Odisha,22.2604,84.8536,28.5,40,0.0,984.5,7.75,23.0,134,129.0,55.3,4,5,7,0,2026-03-05T19:31:46.909752+05:30
Raipur,Chhattisgarh,21.2514,81.6296,30.3,28,0.0,974.5,7.85,27.7,116,59.6,47.1,0,5,7,0,2026-03-05T19:31:46.909760+05:30
Bhilai,Chhattisgarh,21.1938,81.3509,28.8,29,0.0,974.9,7.85,27.7,96,55.6,42.5,4,5,7,0,2026-03-05T19:31:46.909767+05:30
Guwahati,Assam,26.1158,91.7086,27.1,59,0.0,1002.2,7.15,18.0,137,56.2,51.5,4,5,4,1,2026-03-05T19:31:46.909775+05:30
Agartala,Tripura,23.8315,91.2868,24.8,65,0.0,1006.7,7.55,16.2,190,104.3,90.3,3,5,4,1,2026-03-05T19:31:46.909783+05:30
Shillong,Meghalaya,25.5788,91.8933,13.9,90,0.0,856.5,7.55,15.8,116,49.4,44.5,3,10,7,0,2026-03-05T19:31:46.909791+05:30
Imphal,Manipur,24.817,93.9368,18.1,65,0.0,923.5,7.75,23.0,147,50.9,46.3,3,5,7,0,2026-03-05T19:31:46.909799+05:30
Aizawl,Mizoram,23.7271,92.7176,19.3,55,0.0,892.5,7.7,23.8,156,71.5,62.2,0,5,7,0,2026-03-05T19:31:46.909806+05:30
Kohima,Nagaland,25.6701,94.1077,15.5,82,0.0,855.3,7.6,36.7,133,42.8,38.0,3,10,7,0,2026-03-05T19:31:46.909814+05:30
Gangtok,Sikkim,27.3314,88.6138,15.9,84,0.0,838.6,7.5,21.2,119,36.3,31.9,3,10,7,0,2026-03-05T19:31:46.909821+05:30
Siliguri,West Bengal,26.7271,88.3953,22.4,64,0.0,995.5,7.15,22.3,139,53.3,45.8,3,5,7,0,2026-03-05T19:31:50.208812+05:30
Durgapur,West Bengal,23.5204,87.3119,27.5,38,0.0,995.8,7.7,20.2,192,88.5,68.2,4,5,7,0,2026-03-05T19:31:50.208840+05:30
Asansol,West Bengal,23.6739,86.9524,27.8,41,0.0,994.4,7.7,15.1,195,119.0,78.9,4,5,7,0,2026-03-05T19:31:50.208852+05:30
Pondicherry,Puducherry,11.9139,79.8145,26.0,74,0.0,1008.8,8.85,24.5,80,19.6,16.6,7,0,4,1,2026-03-05T19:31:50.208862+05:30
Port Blair,Andaman and Nicobar Islands,11.6234,92.7265,27.1,71,0.0,1007.4,8.8,23.4,61,19.4,12.9,7,5,4,1,2026-03-05T19:31:50.208871+05:30
Haridwar,Uttarakhand,29.9457,78.1642,25.6,69,0.0,974.7,5.65,21.6,165,104.5,62.9,7,5,3,1,2026-03-05T19:31:50.208879+05:30
Rishikesh,Uttarakhand,30.0869,78.2676,22.8,78,0.0,967.5,5.7,20.9,170,79.6,51.5,3,5,3,1,2026-03-05T19:31:50.208887+05:30
Nainital,Uttarakhand,29.3919,79.4542,16.7,83,0.0,806.1,6.5,53.6,153,105.2,71.7,3,10,7,0,2026-03-05T19:31:50.208896+05:30
Mussoorie,Uttarakhand,30.4599,78.0664,16.3,83,0.0,802.5,6.0,37.1,181,72.9,50.9,3,10,3,0,2026-03-05T19:31:50.208904+05:30
Dharamshala,Himachal Pradesh,32.219,76.3234,22.1,58,0.0,871.0,6.3,24.5,83,34.8,21.7,0,5,7,0,2026-03-05T19:31:50.208911+05:30
Dalhousie,Himachal Pradesh,32.5387,75.971,20.1,58,0.0,806.1,6.45,21.2,110,57.4,41.1,0,5,7,0,2026-03-05T19:31:50.208920+05:30
Patiala,Punjab,30.3398,76.3869,24.8,66,0.0,979.0,5.65,28.4,347,448.9,92.2,3,5,3,1,2026-03-05T19:31:50.208928+05:30
Bhatinda,Punjab,30.211,74.9455,25.7,64,0.0,985.0,6.35,27.0,138,63.6,45.8,7,5,7,1,2026-03-05T19:31:50.208936+05:30
Rohtak,Haryana,28.8955,76.6066,25.2,63,0.0,982.8,5.85,33.1,583,942.5,145.8,7,5,3,1,2026-03-05T19:31:50.208943+05:30
Panipat,Haryana,29.3909,76.9635,24.9,64,0.0,981.0,5.65,32.4,1260,1482.7,201.6,3,5,3,1,2026-03-05T19:31:50.208993+05:30
Mathura,Uttar Pradesh,27.4924,77.6737,26.2,50,0.0,987.9,6.1,34.9,665,968.6,138.3,4,5,7,0,2026-03-05T19:31:50.209009+05:30
Vrindavan,Uttar Pradesh,27.5823,77.7027,25.2,55,0.0,988.2,6.1,37.1,665,968.6,138.3,4,5,7,0,2026-03-05T19:31:50.209017+05:30
Ayodhya,Uttar Pradesh,26.7922,82.1998,25.1,65,0.0,996.4,6.55,10.1,177,114.1,86.1,7,5,7,1,2026-03-05T19:31:50.209025+05:30
Ratlam,Madhya Pradesh,23.3315,75.0367,26.7,41,0.0,956.6,7.35,23.0,104,32.7,25.8,4,5,7,0,2026-03-05T19:31:50.209033+05:30
Sagar,Madhya Pradesh,23.8388,78.7378,26.8,39,0.0,951.2,7.3,31.7,82,35.2,16.4,4,5,7,0,2026-03-05T19:31:50.209041+05:30
Satna,Madhya Pradesh,24.6005,80.8322,26.7,38,0.0,972.0,7.3,40.0,105,40.5,25.2,4,5,7,0,2026-03-05T19:31:50.209048+05:30
Akola,Maharashtra,20.7002,77.0082,29.3,28,0.0,976.0,7.8,26.6,111,33.2,26.5,4,5,7,0,2026-03-05T19:31:50.209056+05:30
Amravati,Maharashtra,20.9374,77.7796,29.1,30,0.0,967.8,7.75,16.9,112,32.0,25.0,4,5,7,0,2026-03-05T19:31:50.209065+05:30
Latur,Maharashtra,18.4088,76.5604,28.0,34,0.0,940.6,8.25,32.0,143,25.8,23.8,4,5,7,0,2026-03-05T19:31:50.209073+05:30
Nanded,Maharashtra,19.1383,77.3091,28.7,37,0.0,969.1,8.05,25.2,125,26.2,24.5,4,5,7,0,2026-03-05T19:31:50.209080+05:30
Gulbarga,Karnataka,17.3297,76.8343,31.2,25,0.0,959.0,8.35,22.3,145,17.0,16.1,0,5,7,0,2026-03-05T19:31:50.209087+05:30
Bidar,Karnataka,17.9104,77.5199,28.7,34,0.0,936.1,8.3,24.8,123,22.0,20.4,4,5,7,0,2026-03-05T19:31:50.209095+05:30
Hospet,Karnataka,15.2689,76.3909,31.8,25,0.0,956.0,8.7,25.9,169,30.9,29.6,0,5,7,0,2026-03-05T19:31:50.209102+05:30
Tirupur,Tamil Nadu,11.1085,77.3411,31.0,32,0.0,974.7,9.15,29.2,158,41.9,40.9,0,5,7,0,2026-03-05T19:31:50.209109+05:30
Alappuzha,Kerala,9.4981,76.3388,28.4,78,0.0,1008.7,8.95,35.3,120,46.9,43.1,7,0,4,1,2026-03-05T19:31:50.209117+05:30
Munnar,Kerala,10.0889,77.0595,22.1,85,0.0,857.3,9.45,23.4,118,35.9,35.0,3,5,7,1,2026-03-05T19:31:50.209125+05:30
Silchar,Assam,24.8333,92.7789,26.7,54,0.0,1005.1,7.5,13.7,150,68.2,60.1,4,5,4,1,2026-03-05T19:31:50.209132+05:30
Dibrugarh,Assam,27.4728,94.912,25.2,67,0.0,995.9,7.2,14.4,112,46.1,42.0,7,5,7,1,2026-03-05T19:31:50.209139+05:30
