city,state,latitude,longitude,temp,humidity,rain,pressure,uv_index,wind_gusts,aqi,pm10,pm2_5,mosquito_risk,arthritis_risk,migraine_risk,frizz_risk,updated_at
Delhi,Delhi,28.6139,77.209,22.6,75,0.0,980.9,6.3,40.7,207,311.1,86.6,3,5,7,1,2026-03-30T05:07:09.531816+05:30
Mumbai,Maharashtra,19.076,72.8777,27.3,84,0.0,1007.0,8.0,24.5,55,27.8,13.6,7,5,4,1,2026-03-30T05:07:09.531863+05:30
Bangalore,Karnataka,12.9716,77.5946,21.8,82,0.0,910.1,9.45,36.4,132,65.9,59.0,3,5,7,1,2026-03-30T05:07:09.531880+05:30
Hyderabad,Telangana,17.385,78.4867,26.0,62,0.0,951.0,8.3,25.2,87,58.2,49.5,7,5,7,1,2026-03-30T05:07:09.531890+05:30
Chennai,Tamil Nadu,13.0827,80.2707,26.7,90,0.0,1006.2,9.3,32.8,57,18.5,13.2,7,5,4,1,2026-03-30T05:07:09.531900+05:30
Kolkata,West Bengal,22.5726,88.3639,25.1,95,0.0,1006.3,8.5,26.6,118,39.5,33.8,7,5,4,1,2026-03-30T05:07:09.531908+05:30
Pune,Maharashtra,18.5204,73.8567,21.8,100,0.0,946.5,8.55,41.0,70,39.7,33.2,3,5,7,1,2026-03-30T05:07:09.531920+05:30
Ahmedabad,Gujarat,23.0225,72.5714,26.0,76,0.0,1001.4,8.0,25.9,51,38.1,16.7,7,5,4,1,2026-03-30T05:07:09.531928+05:30
Jaipur,Rajasthan,26.9124,75.7873,23.2,60,0.0,957.9,5.2,43.6,103,105.0,19.8,0,5,3,0,2026-03-30T05:07:09.531937+05:30
Lucknow,Uttar Pradesh,26.8467,80.9462,23.6,64,0.0,992.1,7.3,20.2,112,80.3,44.8,3,5,7,1,2026-03-30T05:07:09.531945+05:30
Kanpur,Uttar Pradesh,26.4499,80.3319,22.6,70,0.0,989.9,7.3,27.7,101,66.1,32.9,3,5,7,1,2026-03-30T05:07:09.531953+05:30
Chandigarh,Chandigarh,30.7333,76.7794,20.3,77,0.0,966.9,5.85,28.4,85,26.5,19.5,3,5,3,1,2026-03-30T05:07:09.531961+05:30
Srinagar,Jammu and Kashmir,34.0837,74.7973,10.3,82,0.0,838.8,6.25,29.9,78,40.4,35.3,3,10,7,0,2026-03-30T05:07:09.531968+05:30
Jammu,Jammu and Kashmir,32.7266,74.857,19.8,77,0.0,970.9,5.45,40.0,81,16.6,14.6,3,5,3,0,2026-03-30T05:07:09.531976+05:30
Amritsar,Punjab,31.634,74.8723,19.3,83,0.0,979.2,5.05,36.4,91,44.1,31.7,3,10,3,1,2026-03-30T05:07:09.531983+05:30
Ludhiana,Punjab,30.901,75.8573,21.6,82,0.0,976.6,5.5,37.4,126,66.6,49.7,3,5,3,1,2026-03-30T05:07:09.531992+05:30
Jalandhar,Punjab,31.326,75.5762,20.2,81,0.0,978.4,4.9,37.8,108,69.6,41.9,3,5,3,1,2026-03-30T05:07:09.532001+05:30
Dehradun,Uttarakhand,30.6284,78.0322,13.9,62,0.0,828.4,6.95,35.3,52,5.9,5.3,3,5,7,0,2026-03-30T05:07:09.532008+05:30
Shimla,Himachal Pradesh,31.1048,77.1734,12.5,56,0.0,782.2,6.45,27.0,64,9.3,8.8,0,5,7,0,2026-03-30T05:07:09.532015+05:30
Manali,Himachal Pradesh,32.2396,77.1887,14.9,35,0.0,818.0,8.15,33.5,37,3.2,2.2,0,5,7,1,2026-03-30T05:07:09.532022+05:30
Gurgaon,Haryana,28.4595,77.0266,21.3,80,0.0,979.0,6.05,41.8,855,810.3,153.7,3,5,7,1,2026-03-30T05:07:09.532030+05:30
Noida,Uttar Pradesh,28.5355,77.391,22.3,77,0.0,982.5,6.2,39.2,855,810.3,153.7,3,5,7,1,2026-03-30T05:07:09.532037+05:30
Ghaziabad,Uttar Pradesh,28.6692,77.4538,21.9,76,0.0,980.6,5.15,34.2,150,145.8,61.0,3,5,3,1,2026-03-30T05:07:09.532045+05:30
Faridabad,Haryana,28.4089,77.3178,21.8,78,0.0,981.5,6.0,41.0,855,810.3,153.7,3,5,3,1,2026-03-30T05:07:09.532052+05:30
Meerut,Uttar Pradesh,28.9845,77.7064,22.2,72,0.0,979.4,6.2,30.6,150,145.8,61.0,3,5,7,1,2026-03-30T05:07:09.532059+05:30
Agra,Uttar Pradesh,27.1767,78.0081,22.2,77,0.0,985.6,6.45,43.9,208,285.0,59.5,3,5,7,1,2026-03-30T05:07:09.532066+05:30
Varanasi,Uttar Pradesh,25.3176,82.9739,21.6,88,0.0,996.3,7.95,24.8,95,77.3,48.1,3,5,7,1,2026-03-30T05:07:09.532075+05:30
Prayagraj,Uttar Pradesh,25.4358,81.8463,22.0,73,0.0,994.6,7.85,20.2,97,70.8,49.1,3,5,7,1,2026-03-30T05:07:09.532083+05:30
Gorakhpur,Uttar Pradesh,26.7606,83.3732,21.2,89,0.0,997.2,7.7,27.7,137,77.5,63.8,3,5,7,1,2026-03-30T05:07:09.532089+05:30
Bareilly,Uttar Pradesh,28.367,79.4304,22.0,83,0.0,985.4,6.55,23.4,100,59.5,37.3,3,5,7,1,2026-03-30T05:07:09.532095+05:30
Aligarh,Uttar Pradesh,27.8974,78.088,21.3,78,0.0,983.3,6.3,36.0,248,367.9,81.0,3,5,7,1,2026-03-30T05:07:09.532105+05:30
Moradabad,Uttar Pradesh,28.8386,78.7733,22.3,77,0.0,982.0,6.8,24.8,136,89.6,55.5,3,5,7,1,2026-03-30T05:07:09.532111+05:30
Saharanpur,Uttar Pradesh,29.9637,77.546,20.8,77,0.0,973.7,6.4,25.6,91,29.2,23.8,3,5,7,1,2026-03-30T05:07:09.532117+05:30
Jhansi,Uttar Pradesh,25.4484,78.5685,24.3,58,0.0,975.8,7.15,37.1,59,10.0,4.5,0,5,7,0,2026-03-30T05:07:12.757972+05:30
Surat,Gujarat,21.1702,72.8311,26.4,94,0.0,1005.5,7.8,26.3,80,43.4,36.7,7,5,4,1,2026-03-30T05:07:12.758002+05:30
Vadodara,Gujarat,22.3072,73.1812,27.0,85,0.0,1003.4,8.0,25.6,62,40.5,27.8,7,5,4,1,2026-03-30T05:07:12.758012+05:30
Rajkot,Gujarat,22.3039,70.8022,24.5,90,0.0,993.5,7.75,36.4,55,51.5,16.1,3,5,7,1,2026-03-30T05:07:12.758019+05:30
Thane,Maharashtra,19.2183,72.9781,26.0,87,0.0,1006.5,8.0,36.4,55,27.8,13.6,7,5,4,1,2026-03-30T05:07:12.758026+05:30
Nagpur,Maharashtra,21.1458,79.0882,25.7,61,0.0,971.1,8.55,33.1,63,22.6,19.2,7,5,7,1,2026-03-30T05:07:12.758033+05:30
Nashik,Maharashtra,19.9975,73.7898,20.9,78,0.0,943.9,8.25,33.1,37,21.9,13.4,3,5,7,1,2026-03-30T05:07:12.758039+05:30
Aurangabad,Maharashtra,19.8762,75.3433,24.6,60,0.0,942.4,8.75,42.1,41,18.9,17.6,0,5,7,1,2026-03-30T05:07:12.758046+05:30
Solapur,Maharashtra,17.6599,75.9064,25.8,63,0.0,955.0,8.9,26.3,57,21.7,20.5,7,5,7,1,2026-03-30T05:07:12.758053+05:30
Kolhapur,Maharashtra,16.705,74.2433,20.6,97,0.0,945.3,7.75,47.9,67,21.2,20.3,3,5,7,1,2026-03-30T05:07:12.758060+05:30
Goa,Goa,15.2993,74.124,26.3,86,0.0,995.4,8.9,29.9,63,16.6,13.2,7,5,7,1,2026-03-30T05:07:12.758067+05:30
Jodhpur,Rajasthan,26.2389,73.0243,25.5,64,0.0,981.3,7.8,37.1,134,196.0,31.7,7,5,7,1,2026-03-30T05:07:12.758074+05:30
Udaipur,Rajasthan,24.5854,73.7125,23.4,68,0.0,945.2,8.1,40.0,36,32.5,12.2,3,5,7,1,2026-03-30T05:07:12.758081+05:30
Kota,Rajasthan,25.2138,75.8648,24.5,57,0.0,977.0,6.9,34.2,36,16.1,7.9,0,5,7,0,2026-03-30T05:07:12.758088+05:30
Bikaner,Rajasthan,28.0229,73.3119,25.8,43,0.0,979.1,5.15,51.5,124,202.1,58.9,4,5,3,0,2026-03-30T05:07:12.758095+05:30
Ajmer,Rajasthan,26.4499,74.6399,24.2,66,0.0,952.9,7.25,41.4,44,29.1,11.3,3,5,7,1,2026-03-30T05:07:12.758101+05:30
Gwalior,Madhya Pradesh,26.2183,78.1828,24.2,56,0.0,981.2,6.4,39.2,61,51.3,11.1,0,5,7,0,2026-03-30T05:07:12.758107+05:30
Indore,Madhya Pradesh,22.7196,75.8577,22.5,73,0.0,946.5,7.75,25.6,44,24.9,13.9,3,5,7,1,2026-03-30T05:07:12.758114+05:30
Bhopal,Madhya Pradesh,23.2599,77.4126,23.3,64,0.0,952.2,8.2,31.3,29,13.2,8.6,3,5,7,1,2026-03-30T05:07:12.758120+05:30
Jabalpur,Madhya Pradesh,23.1815,79.9864,22.9,74,0.0,959.2,8.35,35.3,51,19.8,15.9,3,5,7,1,2026-03-30T05:07:12.758127+05:30
Ujjain,Madhya Pradesh,23.1765,75.7885,22.8,73,0.0,952.2,7.75,23.4,44,24.0,13.8,3,5,7,1,2026-03-30T05:07:12.758134+05:30
Visakhapatnam,Andhra Pradesh,17.6868,83.2185,26.5,89,0.0,1002.5,9.0,38.9,65,22.6,17.5,7,5,4,1,2026-03-30T05:07:12.758140+05:30
Vijayawada,Andhra Pradesh,16.5062,80.648,26.4,93,0.0,1001.2,9.1,30.6,79,20.5,16.5,7,5,4,1,2026-03-30T05:07:12.758147+05:30
Guntur,Andhra Pradesh,16.3067,80.4365,26.4,93,0.0,1002.3,9.1,33.1,89,20.0,16.6,7,5,4,1,2026-03-30T05:07:12.758154+05:30
Nellore,Andhra Pradesh,14.4426,79.9865,25.7,92,0.0,1004.2,9.25,29.2,70,21.1,17.8,7,5,4,1,2026-03-30T05:07:12.758161+05:30
Kurnool,Andhra Pradesh,15.8281,78.0373,27.8,67,0.0,975.0,8.35,26.3,100,58.9,51.3,7,5,7,1,2026-03-30T05:07:12.758168+05:30
Kakinada,Andhra Pradesh,16.9891,82.2475,26.1,93,0.0,1006.3,9.05,30.6,53,22.2,15.3,7,5,4,1,2026-03-30T05:07:12.758174+05:30
Tirupati,Andhra Pradesh,13.6288,79.4192,24.8,92,0.0,990.7,9.35,32.0,99,31.0,28.6,3,5,7,1,2026-03-30T05:07:12.758180+05:30
Warangal,Telangana,17.9689,79.5941,25.6,87,0.0,976.4,8.9,30.6,105,51.1,46.9,7,5,7,1,2026-03-30T05:07:12.758186+05:30
Nizamabad,Telangana,18.6725,78.0941,25.8,64,0.0,962.7,8.85,41.0,78,51.1,49.8,7,5,7,1,2026-03-30T05:07:12.758193+05:30
Mysore,Karnataka,12.2958,76.6396,22.7,89,0.0,926.8,8.9,21.6,130,65.2,58.2,3,5,7,1,2026-03-30T05:07:12.758199+05:30
Mangalore,Karnataka,12.9141,74.856,29.2,77,0.0,1004.8,9.05,23.0,74,26.3,20.3,7,5,4,1,2026-03-30T05:07:12.758205+05:30
Hubli-Dharwad,Karnataka,15.3647,75.124,23.1,84,0.0,938.4,9.15,32.0,68,23.8,16.5,3,5,7,1,2026-03-30T05:07:12.758212+05:30
Belgaum,Karnataka,15.8497,74.4977,21.1,86,0.0,922.9,9.2,31.0,57,12.1,11.6,3,5,7,1,2026-03-30T05:07:15.982617+05:30
Coimbatore,Tamil Nadu,11.0168,76.9558,23.7,87,0.0,960.4,9.45,30.6,100,35.3,31.3,3,5,7,1,2026-03-30T05:07:15.982648+05:30
Madurai,Tamil Nadu,9.9252,78.1198,25.0,90,0.0,991.9,9.4,34.2,79,35.6,34.3,7,5,7,1,2026-03-30T05:07:15.982659+05:30
Trichy,Tamil Nadu,10.7905,78.7047,25.8,94,0.0,998.9,9.35,24.1,76,31.9,28.3,7,5,7,1,2026-03-30T05:07:15.982667+05:30
Salem,Tamil Nadu,11.6643,78.146,25.9,80,0.0,976.3,9.4,22.0,88,29.3,26.9,7,5,7,1,2026-03-30T05:07:15.982675+05:30
Tirunelveli,Tamil Nadu,8.7139,77.7567,25.1,82,0.0,1001.7,9.4,47.9,74,39.2,37.1,7,5,4,1,2026-03-30T05:07:15.982683+05:30
Vellore,Tamil Nadu,12.9165,79.1325,24.7,92,0.0,983.7,8.6,32.0,106,39.0,36.4,3,5,7,1,2026-03-30T05:07:15.982693+05:30
Erode,Tamil Nadu,11.341,77.7172,26.3,83,0.0,988.0,9.4,23.8,88,20.7,19.2,7,5,7,1,2026-03-30T05:07:15.982700+05:30
Kochi,Kerala,9.9312,76.2673,28.4,82,0.0,1006.7,9.2,26.3,93,40.9,38.8,7,5,4,1,2026-03-30T05:07:15.982708+05:30
Thiruvananthapuram,Kerala,8.5241,76.9366,28.2,83,0.0,1006.0,9.25,26.3,73,30.0,24.6,7,5,4,1,2026-03-30T05:07:15.982715+05:30
Kozhikode,Kerala,11.2588,75.7804,26.8,90,0.1,1006.2,6.6,22.3,99,51.0,44.6,10,5,4,1,2026-03-30T05:07:15.982722+05:30
Thrissur,Kerala,10.5276,76.2144,26.2,90,0.0,1005.1,9.15,27.7,97,39.1,35.4,7,5,4,1,2026-03-30T05:07:15.982731+05:30
Kannur,Kerala,11.8745,75.3704,27.4,86,0.0,1005.2,7.9,20.5,102,50.1,46.0,7,5,4,1,2026-03-30T05:07:15.982738+05:30
Patna,Bihar,25.5941,85.1376,22.0,92,0.0,1000.7,8.1,33.5,143,82.4,75.2,3,5,4,1,2026-03-30T05:07:15.982745+05:30
Gaya,Bihar,24.7914,85.0002,22.3,90,0.0,993.1,8.2,24.5,111,59.1,52.0,3,5,7,1,2026-03-30T05:07:15.982751+05:30
Muzaffarpur,Bihar,26.1209,85.3647,20.6,93,0.0,1001.2,8.1,35.6,150,83.1,75.4,3,5,4,1,2026-03-30T05:07:15.982758+05:30
Bhagalpur,Bihar,25.2425,87.0117,21.3,97,0.0,1002.4,8.1,22.3,153,84.3,74.5,3,5,4,1,2026-03-30T05:07:15.982764+05:30
Ranchi,Jharkhand,23.3441,85.3096,22.3,93,0.0,937.0,8.7,28.8,96,70.3,51.7,3,5,7,1,2026-03-30T05:07:15.982771+05:30
Jamshedpur,Jharkhand,22.8046,86.2029,24.9,89,0.0,990.8,8.6,28.1,133,52.6,46.8,3,5,7,1,2026-03-30T05:07:15.982777+05:30
Dhanbad,Jharkhand,23.7957,86.4304,24.3,83,0.0,979.9,8.55,23.4,161,113.9,107.8,3,5,7,1,2026-03-30T05:07:15.982784+05:30
Bokaro,Jharkhand,23.6693,86.1511,23.8,86,0.0,984.0,8.55,28.4,157,111.1,102.0,3,5,7,1,2026-03-30T05:07:15.982791+05:30
Bhubaneswar,Odisha,20.2961,85.8245,26.1,87,0.0,1001.7,8.8,38.2,77,24.4,19.2,7,5,4,1,2026-03-30T05:07:15.982797+05:30
Cuttack,Odisha,20.4625,85.8828,26.1,88,0.0,1003.8,8.85,34.2,77,24.4,19.2,7,5,4,1,2026-03-30T05:07:15.982804+05:30
Rourkela,Odisha,22.2604,84.8536,26.2,83,0.0,984.0,8.5,37.1,122,41.6,32.5,7,5,7,1,2026-03-30T05:07:15.982811+05:30
Raipur,Chhattisgarh,21.2514,81.6296,27.2,47,0.0,972.2,8.6,25.2,106,38.1,32.9,4,5,7,0,2026-03-30T05:07:15.982817+05:30
Bhilai,Chhattisgarh,21.1938,81.3509,26.0,54,0.0,972.4,8.65,22.0,78,28.1,22.5,4,5,7,0,2026-03-30T05:07:15.982824+05:30
Guwahati,Assam,26.1158,91.7086,20.9,94,0.0,1003.5,7.55,19.4,92,40.6,34.1,3,5,4,1,2026-03-30T05:07:15.982831+05:30
Agartala,Tripura,23.8315,91.2868,22.4,92,0.0,1007.0,8.25,30.2,145,54.2,48.8,3,5,4,1,2026-03-30T05:07:15.982838+05:30
Shillong,Meghalaya,25.5788,91.8933,10.8,94,0.0,853.9,6.6,40.7,80,55.2,39.3,3,10,7,0,2026-03-30T05:07:15.982844+05:30
Imphal,Manipur,24.817,93.9368,15.6,89,0.0,922.9,7.95,62.6,152,106.4,85.4,3,10,7,0,2026-03-30T05:07:15.982851+05:30
Aizawl,Mizoram,23.7271,92.7176,16.1,95,0.0,892.0,8.45,58.3,151,64.0,54.1,3,10,7,0,2026-03-30T05:07:15.982858+05:30
Kohima,Nagaland,25.6701,94.1077,12.2,80,0.0,853.2,8.5,76.3,122,82.4,62.6,3,5,7,0,2026-03-30T05:07:15.982864+05:30
Gangtok,Sikkim,27.3314,88.6138,11.4,90,0.0,834.8,8.25,18.0,82,52.2,41.8,3,10,7,0,2026-03-30T05:07:15.982871+05:30
Siliguri,West Bengal,26.7271,88.3953,17.8,80,0.0,995.5,7.7,17.3,150,109.7,80.1,3,5,7,0,2026-03-30T05:07:19.209303+05:30
Durgapur,West Bengal,23.5204,87.3119,24.0,90,0.0,995.4,8.5,23.8,161,85.9,81.5,3,5,7,1,2026-03-30T05:07:19.209338+05:30
Asansol,West Bengal,23.6739,86.9524,24.4,88,0.0,993.9,8.5,24.1,158,90.3,85.4,3,5,7,1,2026-03-30T05:07:19.209350+05:30
Pondicherry,Puducherry,11.9139,79.8145,25.5,96,0.0,1007.7,9.25,28.4,54,16.5,11.9,7,5,4,1,2026-03-30T05:07:19.209359+05:30
Port Blair,Andaman and Nicobar Islands,11.6234,92.7265,28.2,76,0.0,1006.2,9.2,15.1,70,27.1,21.6,7,5,4,1,2026-03-30T05:07:19.209369+05:30
Haridwar,Uttarakhand,29.9457,78.1642,21.3,69,0.0,972.8,6.0,32.0,79,24.6,18.0,3,5,3,0,2026-03-30T05:07:19.209378+05:30
Rishikesh,Uttarakhand,30.0869,78.2676,21.1,63,0.0,965.6,5.9,29.5,68,26.1,19.5,3,5,3,0,2026-03-30T05:07:19.209387+05:30
Nainital,Uttarakhand,29.3919,79.4542,18.3,49,0.0,805.1,7.4,47.9,73,32.2,18.6,0,5,7,0,2026-03-30T05:07:19.209396+05:30
Mussoorie,Uttarakhand,30.4599,78.0664,16.8,52,0.0,801.6,6.95,41.0,73,15.5,13.0,0,5,7,0,2026-03-30T05:07:19.209405+05:30
Dharamshala,Himachal Pradesh,32.219,76.3234,19.7,41,0.0,867.4,5.2,35.3,37,3.4,3.1,0,5,3,0,2026-03-30T05:07:19.209413+05:30
Dalhousie,Himachal Pradesh,32.5387,75.971,15.7,45,0.0,801.3,6.05,38.9,74,20.0,19.2,0,5,7,0,2026-03-30T05:07:19.209422+05:30
Patiala,Punjab,30.3398,76.3869,20.8,86,0.0,976.2,5.65,22.7,176,97.6,30.3,3,5,3,1,2026-03-30T05:07:19.209431+05:30
Bhatinda,Punjab,30.211,74.9455,20.7,85,0.0,981.2,3.5,43.6,201,428.4,89.6,3,5,3,1,2026-03-30T05:07:19.209439+05:30
Rohtak,Haryana,28.8955,76.6066,20.7,83,0.0,979.3,6.8,43.2,389,432.1,110.1,3,5,7,1,2026-03-30T05:07:19.209448+05:30
Panipat,Haryana,29.3909,76.9635,21.4,77,0.0,978.2,6.4,38.2,615,208.6,68.9,3,5,7,1,2026-03-30T05:07:19.209455+05:30
Mathura,Uttar Pradesh,27.4924,77.6737,20.8,82,0.0,984.4,6.3,43.9,206,194.6,47.6,3,5,7,1,2026-03-30T05:07:19.209463+05:30
Vrindavan,Uttar Pradesh,27.5823,77.7027,21.2,84,0.0,984.9,6.3,42.1,206,194.6,47.6,3,5,7,1,2026-03-30T05:07:19.209471+05:30
Ayodhya,Uttar Pradesh,26.7922,82.1998,20.7,85,0.0,994.5,7.5,27.7,144,84.8,62.6,3,5,7,1,2026-03-30T05:07:19.209478+05:30
Ratlam,Madhya Pradesh,23.3315,75.0367,23.6,72,0.0,952.9,7.6,26.3,43,24.4,13.6,3,5,7,1,2026-03-30T05:07:19.209486+05:30
Sagar,Madhya Pradesh,23.8388,78.7378,24.3,59,0.0,948.3,8.2,31.0,29,10.4,7.0,0,5,7,0,2026-03-30T05:07:19.209494+05:30
Satna,Madhya Pradesh,24.6005,80.8322,24.6,54,0.0,969.4,8.2,37.1,63,44.9,21.9,0,5,7,0,2026-03-30T05:07:19.209503+05:30
Akola,Maharashtra,20.7002,77.0082,24.8,70,0.0,973.6,8.55,28.4,49,10.9,9.4,3,5,7,1,2026-03-30T05:07:19.209511+05:30
Amravati,Maharashtra,20.9374,77.7796,24.7,63,0.0,965.4,8.55,22.7,48,12.9,11.3,3,5,7,1,2026-03-30T05:07:19.209520+05:30
Latur,Maharashtra,18.4088,76.5604,23.5,62,0.0,937.9,8.4,40.3,48,23.9,20.2,3,5,7,0,2026-03-30T05:07:19.209528+05:30
Nanded,Maharashtra,19.1383,77.3091,24.3,66,0.0,967.1,7.2,48.6,54,17.7,15.6,3,5,7,1,2026-03-30T05:07:19.209536+05:30
Gulbarga,Karnataka,17.3297,76.8343,27.3,55,0.0,956.3,8.9,32.4,61,26.3,24.3,4,5,7,1,2026-03-30T05:07:19.209569+05:30
Bidar,Karnataka,17.9104,77.5199,26.2,58,0.0,933.3,8.1,39.2,68,32.0,30.0,4,5,7,1,2026-03-30T05:07:19.209576+05:30
Hospet,Karnataka,15.2689,76.3909,26.0,78,0.0,954.5,8.25,37.4,76,39.0,35.4,7,5,7,1,2026-03-30T05:07:19.209582+05:30
Tirupur,Tamil Nadu,11.1085,77.3411,25.9,81,0.0,974.2,9.5,20.9,110,33.8,30.6,7,5,7,1,2026-03-30T05:07:19.209589+05:30
Alappuzha,Kerala,9.4981,76.3388,28.5,82,0.0,1006.9,9.2,26.6,88,42.0,37.3,7,5,4,1,2026-03-30T05:07:19.209595+05:30
Munnar,Kerala,10.0889,77.0595,18.9,88,0.0,854.4,7.65,22.3,96,35.0,34.0,3,10,7,1,2026-03-30T05:07:19.209602+05:30
Silchar,Assam,24.8333,92.7789,21.1,90,0.0,1006.5,8.35,27.4,153,90.1,71.7,3,5,4,1,2026-03-30T05:07:19.209609+05:30
Dibrugarh,Assam,27.4728,94.912,19.8,92,0.0,998.2,6.75,11.5,85,40.9,36.8,3,10,7,1,2026-03-30T05:07:19.209616+05:30
