city,state,latitude,longitude,temp,humidity,rain,pressure,uv_index,wind_gusts,aqi,pm10,pm2_5,no2,co,o3,so2,mosquito_risk,arthritis_risk,migraine_risk,frizz_risk,updated_at
Delhi,Delhi,28.6139,77.209,29.4,79,0.0,974.0,5.8,37.4,127,35.0,29.8,28.3,701.0,98.0,23.2,7,5,3,1,2026-07-23T19:36:15.360887+05:30
Mumbai,Maharashtra,19.076,72.8777,27.0,84,0.1,1002.4,1.4,69.8,54,28.1,13.4,5.4,198.0,42.0,3.5,10,5,0,1,2026-07-23T19:36:15.360928+05:30
Bangalore,Karnataka,12.9716,77.5946,23.4,78,0.0,910.9,9.1,49.0,37,12.7,9.1,12.0,362.0,49.0,3.5,3,5,7,1,2026-07-23T19:36:15.360944+05:30
Hyderabad,Telangana,17.385,78.4867,26.4,66,0.0,949.4,8.7,60.1,52,52.3,26.7,6.2,300.0,60.0,2.9,7,5,7,1,2026-07-23T19:36:15.360953+05:30
Chennai,Tamil Nadu,13.0827,80.2707,29.0,86,0.0,1004.7,8.9,41.0,76,27.0,20.0,8.1,222.0,94.0,7.1,7,5,4,1,2026-07-23T19:36:15.360961+05:30
Kolkata,West Bengal,22.5726,88.3639,26.3,94,0.0,1001.2,4.5,39.2,66,23.6,20.1,10.6,545.0,70.0,9.4,7,5,0,1,2026-07-23T19:36:15.360969+05:30
Pune,Maharashtra,18.5204,73.8567,22.7,93,0.0,941.9,1.9,60.8,38,8.6,4.1,5.4,147.0,39.0,2.7,3,5,3,1,2026-07-23T19:36:15.360976+05:30
Ahmedabad,Gujarat,23.0225,72.5714,26.1,96,0.5,990.0,2.3,34.6,60,30.4,17.4,16.1,215.0,40.0,4.0,10,5,3,1,2026-07-23T19:36:15.360983+05:30
Jaipur,Rajasthan,26.9124,75.7873,27.5,83,0.1,949.8,7.6,30.6,92,22.7,20.3,13.4,422.0,111.0,7.3,10,5,7,1,2026-07-23T19:36:15.360990+05:30
Lucknow,Uttar Pradesh,26.8467,80.9462,28.0,87,0.0,986.0,6.35,43.9,74,22.0,22.0,10.1,270.0,98.0,8.7,7,5,7,1,2026-07-23T19:36:15.361001+05:30
Kanpur,Uttar Pradesh,26.4499,80.3319,28.7,82,0.0,983.6,5.5,45.7,72,18.2,18.2,9.7,235.0,98.0,8.5,7,5,3,1,2026-07-23T19:36:15.361007+05:30
Chandigarh,Chandigarh,30.7333,76.7794,28.4,88,0.0,960.4,6.75,42.8,101,42.5,42.0,48.0,952.0,84.0,13.8,7,5,7,1,2026-07-23T19:36:15.361014+05:30
Srinagar,Jammu and Kashmir,34.0837,74.7973,19.9,84,0.0,837.6,8.85,26.6,65,12.4,12.3,29.9,701.0,40.0,4.2,3,10,7,1,2026-07-23T19:36:15.361021+05:30
Jammu,Jammu and Kashmir,32.7266,74.857,26.4,86,0.0,964.3,7.15,38.5,74,20.5,20.3,30.1,593.0,74.0,4.8,7,5,7,1,2026-07-23T19:36:15.361027+05:30
Amritsar,Punjab,31.634,74.8723,27.9,87,0.0,972.3,1.95,30.6,85,30.7,30.5,24.3,560.0,63.0,7.9,7,5,3,1,2026-07-23T19:36:15.361033+05:30
Ludhiana,Punjab,30.901,75.8573,27.6,92,0.0,969.9,6.85,36.0,131,37.8,37.3,29.1,934.0,84.0,14.9,7,5,7,1,2026-07-23T19:36:15.361039+05:30
Jalandhar,Punjab,31.326,75.5762,28.3,92,0.0,971.0,7.3,32.0,111,33.9,33.6,28.3,981.0,70.0,9.0,7,5,7,1,2026-07-23T19:36:15.361047+05:30
Dehradun,Uttarakhand,30.6284,78.0322,19.2,97,0.0,825.8,7.35,25.6,44,9.0,8.8,21.5,198.0,58.0,1.5,3,10,7,1,2026-07-23T19:36:15.361054+05:30
Shimla,Himachal Pradesh,31.1048,77.1734,16.5,99,0.0,779.9,6.15,24.1,50,7.5,7.5,17.5,421.0,71.0,1.9,3,10,7,1,2026-07-23T19:36:15.361060+05:30
Manali,Himachal Pradesh,32.2396,77.1887,21.1,91,0.0,815.2,6.4,22.3,35,4.0,3.9,30.9,180.0,33.0,0.6,3,5,7,1,2026-07-23T19:36:15.361068+05:30
Gurgaon,Haryana,28.4595,77.0266,28.2,87,0.1,972.4,6.15,42.5,122,50.4,30.5,27.0,780.0,104.0,21.2,10,5,7,1,2026-07-23T19:36:15.361075+05:30
Noida,Uttar Pradesh,28.5355,77.391,28.5,81,0.1,975.7,6.85,39.6,122,50.4,30.5,27.0,627.0,104.0,21.2,10,5,7,1,2026-07-23T19:36:15.361081+05:30
Ghaziabad,Uttar Pradesh,28.6692,77.4538,29.8,75,0.0,973.9,6.95,42.8,101,23.6,23.5,11.1,308.0,103.0,8.2,7,5,7,1,2026-07-23T19:36:15.361087+05:30
Faridabad,Haryana,28.4089,77.3178,27.8,86,0.1,975.1,6.8,42.8,122,50.4,30.5,27.0,538.0,104.0,21.2,10,5,7,1,2026-07-23T19:36:15.361093+05:30
Meerut,Uttar Pradesh,28.9845,77.7064,29.6,75,0.0,973.2,7.35,47.9,101,23.6,23.5,11.1,321.0,103.0,8.2,7,5,7,1,2026-07-23T19:36:15.361099+05:30
Agra,Uttar Pradesh,27.1767,78.0081,28.1,92,0.1,978.1,5.75,37.1,88,19.6,19.6,13.9,319.0,101.0,6.9,10,5,3,1,2026-07-23T19:36:15.361105+05:30
Varanasi,Uttar Pradesh,25.3176,82.9739,29.1,82,0.0,990.9,7.35,36.7,70,26.0,26.0,31.7,895.0,35.0,22.3,7,5,7,1,2026-07-23T19:36:15.361111+05:30
Prayagraj,Uttar Pradesh,25.4358,81.8463,28.4,90,0.0,988.7,7.35,33.1,67,18.5,18.5,15.3,309.0,67.0,10.2,7,5,7,1,2026-07-23T19:36:15.361117+05:30
Gorakhpur,Uttar Pradesh,26.7606,83.3732,28.1,90,0.0,991.5,6.6,47.2,76,24.8,24.7,9.7,346.0,104.0,8.4,7,5,7,1,2026-07-23T19:36:15.361124+05:30
Bareilly,Uttar Pradesh,28.367,79.4304,29.4,75,0.0,979.2,5.45,46.4,69,17.0,16.9,9.8,289.0,80.0,3.8,7,5,3,1,2026-07-23T19:36:15.361132+05:30
Aligarh,Uttar Pradesh,27.8974,78.088,28.2,84,0.1,976.7,6.55,43.6,97,22.5,22.1,10.1,320.0,115.0,10.4,10,5,7,1,2026-07-23T19:36:15.361138+05:30
Moradabad,Uttar Pradesh,28.8386,78.7733,29.5,78,0.0,976.0,6.75,47.9,81,18.1,18.0,10.3,265.0,88.0,6.4,7,5,7,1,2026-07-23T19:36:15.361144+05:30
Saharanpur,Uttar Pradesh,29.9637,77.546,29.2,81,0.0,967.7,7.15,47.5,75,18.2,18.1,12.0,508.0,85.0,4.5,7,5,7,1,2026-07-23T19:36:15.361150+05:30
Jhansi,Uttar Pradesh,25.4484,78.5685,27.0,95,0.0,968.6,6.55,36.4,73,10.8,10.8,6.7,242.0,98.0,5.3,7,5,7,1,2026-07-23T19:36:18.752388+05:30
Surat,Gujarat,21.1702,72.8311,26.7,94,0.5,996.4,0.35,53.6,62,13.5,10.1,15.1,290.0,31.0,22.2,10,5,3,1,2026-07-23T19:36:18.752424+05:30
Vadodara,Gujarat,22.3072,73.1812,25.8,95,2.0,991.9,0.8,63.4,56,16.1,11.4,21.3,210.0,32.0,6.4,10,5,3,1,2026-07-23T19:36:18.752438+05:30
Rajkot,Gujarat,22.3039,70.8022,26.0,95,0.2,983.8,0.8,37.8,58,39.1,18.6,5.8,117.0,45.0,5.5,10,5,3,1,2026-07-23T19:36:18.752449+05:30
Thane,Maharashtra,19.2183,72.9781,25.6,93,0.2,1001.6,1.15,52.2,54,28.1,13.4,5.4,227.0,42.0,3.5,10,5,0,1,2026-07-23T19:36:18.752457+05:30
Nagpur,Maharashtra,21.1458,79.0882,27.0,77,0.0,966.9,4.3,54.0,51,29.0,20.5,10.9,190.0,59.0,10.8,7,5,3,1,2026-07-23T19:36:18.752465+05:30
Nashik,Maharashtra,19.9975,73.7898,23.0,95,0.1,937.1,2.35,73.4,16,3.3,2.0,4.7,130.0,41.0,1.8,6,5,3,1,2026-07-23T19:36:18.752472+05:30
Aurangabad,Maharashtra,19.8762,75.3433,23.2,93,0.1,936.8,6.2,67.7,24,3.4,2.5,7.4,161.0,38.0,5.3,6,5,7,1,2026-07-23T19:36:18.752480+05:30
Solapur,Maharashtra,17.6599,75.9064,26.0,74,0.0,953.2,4.9,66.6,61,34.0,16.6,4.2,126.0,49.0,1.8,7,5,3,1,2026-07-23T19:36:18.752487+05:30
Kolhapur,Maharashtra,16.705,74.2433,22.2,95,0.1,944.6,3.55,58.7,61,37.3,17.4,4.8,148.0,46.0,1.6,6,5,3,1,2026-07-23T19:36:18.752494+05:30
Goa,Goa,15.2993,74.124,25.1,90,0.0,997.1,5.3,38.2,76,124.3,40.7,1.8,316.0,52.0,0.9,7,5,3,1,2026-07-23T19:36:18.752503+05:30
Jodhpur,Rajasthan,26.2389,73.0243,28.6,88,0.1,971.9,8.15,27.0,80,10.0,9.6,12.4,304.0,94.0,2.3,10,5,7,1,2026-07-23T19:36:18.752510+05:30
Udaipur,Rajasthan,24.5854,73.7125,25.0,95,0.1,935.7,8.75,27.0,46,8.2,7.5,7.7,364.0,74.0,2.3,10,5,7,1,2026-07-23T19:36:18.752518+05:30
Kota,Rajasthan,25.2138,75.8648,27.8,91,0.2,967.7,7.45,22.3,87,16.5,16.2,11.2,397.0,96.0,11.5,10,5,7,1,2026-07-23T19:36:18.752549+05:30
Bikaner,Rajasthan,28.0229,73.3119,30.3,76,0.0,971.5,7.25,38.2,97,12.7,12.3,3.9,308.0,124.0,6.1,3,5,7,1,2026-07-23T19:36:18.752557+05:30
Ajmer,Rajasthan,26.4499,74.6399,26.4,88,0.0,944.7,7.15,29.9,85,17.1,16.5,8.5,315.0,107.0,3.8,7,5,7,1,2026-07-23T19:36:18.752566+05:30
Gwalior,Madhya Pradesh,26.2183,78.1828,27.0,92,0.0,973.6,6.45,25.9,78,15.5,15.5,6.9,278.0,102.0,6.6,7,5,7,1,2026-07-23T19:36:18.752573+05:30
Indore,Madhya Pradesh,22.7196,75.8577,24.9,87,0.0,938.1,7.0,34.9,40,10.1,9.9,11.3,210.0,60.0,6.1,3,5,7,1,2026-07-23T19:36:18.752580+05:30
Bhopal,Madhya Pradesh,23.2599,77.4126,26.1,82,0.0,944.4,4.8,49.0,36,6.4,6.3,6.6,233.0,51.0,4.1,7,5,3,1,2026-07-23T19:36:18.752588+05:30
Jabalpur,Madhya Pradesh,23.1815,79.9864,24.6,92,0.0,954.2,2.5,32.8,35,7.6,7.0,7.3,196.0,50.0,4.5,3,5,3,1,2026-07-23T19:36:18.752595+05:30
Ujjain,Madhya Pradesh,23.1765,75.7885,25.7,85,0.0,943.6,5.75,33.8,39,12.7,12.4,12.8,169.0,47.0,4.9,7,5,3,1,2026-07-23T19:36:18.752603+05:30
Visakhapatnam,Andhra Pradesh,17.6868,83.2185,28.6,79,0.0,999.7,6.65,48.2,72,28.2,20.3,15.7,261.0,70.0,28.1,7,5,7,1,2026-07-23T19:36:18.752610+05:30
Vijayawada,Andhra Pradesh,16.5062,80.648,26.7,90,0.0,999.1,7.0,41.4,59,29.7,20.8,7.8,275.0,79.0,5.0,7,5,7,1,2026-07-23T19:36:18.752617+05:30
Guntur,Andhra Pradesh,16.3067,80.4365,30.1,65,0.0,1000.3,8.2,49.7,57,30.6,20.9,7.8,306.0,76.0,3.7,3,5,4,1,2026-07-23T19:36:18.752625+05:30
Nellore,Andhra Pradesh,14.4426,79.9865,28.3,88,0.0,1003.0,8.95,40.7,58,23.7,17.2,5.7,270.0,98.0,4.8,7,5,4,1,2026-07-23T19:36:18.752633+05:30
Kurnool,Andhra Pradesh,15.8281,78.0373,28.2,67,0.0,974.4,7.3,51.5,48,41.0,21.4,4.9,148.0,63.0,2.1,7,5,7,1,2026-07-23T19:36:18.752641+05:30
Kakinada,Andhra Pradesh,16.9891,82.2475,30.2,68,0.0,1003.6,8.1,49.7,67,25.7,17.3,3.6,214.0,93.0,3.1,3,5,4,1,2026-07-23T19:36:18.752648+05:30
Tirupati,Andhra Pradesh,13.6288,79.4192,28.7,69,0.0,988.7,8.8,37.1,60,20.4,14.0,15.3,267.0,61.0,3.0,7,5,7,1,2026-07-23T19:36:18.752655+05:30
Warangal,Telangana,17.9689,79.5941,28.2,62,0.0,974.6,8.6,53.6,57,35.2,19.8,5.6,186.0,64.0,3.2,7,5,7,1,2026-07-23T19:36:18.752661+05:30
Nizamabad,Telangana,18.6725,78.0941,27.2,66,0.0,960.0,6.9,58.3,57,35.4,22.2,4.5,161.0,61.0,1.4,7,5,7,1,2026-07-23T19:36:18.752668+05:30
Mysore,Karnataka,12.2958,76.6396,23.8,78,0.0,928.5,9.0,50.8,28,6.9,5.0,6.5,150.0,45.0,1.7,3,5,7,1,2026-07-23T19:36:18.752675+05:30
Mangalore,Karnataka,12.9141,74.856,25.2,96,0.0,1007.4,8.75,39.6,51,16.8,9.5,8.4,242.0,30.0,2.6,7,5,4,1,2026-07-23T19:36:18.752681+05:30
Hubli-Dharwad,Karnataka,15.3647,75.124,22.8,90,0.0,939.1,5.8,59.4,46,58.9,28.6,5.2,135.0,45.0,1.2,3,5,3,1,2026-07-23T19:36:18.752689+05:30
Belgaum,Karnataka,15.8497,74.4977,21.5,97,0.0,923.3,3.75,53.6,57,80.6,33.3,3.8,126.0,54.0,1.5,3,5,3,1,2026-07-23T19:36:22.155938+05:30
Coimbatore,Tamil Nadu,11.0168,76.9558,26.8,73,0.0,960.7,8.95,54.7,37,9.4,6.9,6.1,192.0,49.0,2.7,7,5,7,1,2026-07-23T19:36:22.155971+05:30
Madurai,Tamil Nadu,9.9252,78.1198,32.8,42,0.0,991.6,8.7,28.1,62,32.4,16.4,12.1,410.0,70.0,4.2,0,5,7,1,2026-07-23T19:36:22.155982+05:30
Trichy,Tamil Nadu,10.7905,78.7047,32.1,54,0.0,998.0,7.75,42.1,57,26.1,17.2,7.9,211.0,81.0,4.1,0,5,7,1,2026-07-23T19:36:22.155990+05:30
Salem,Tamil Nadu,11.6643,78.146,29.6,71,0.0,975.6,8.75,22.3,68,18.6,11.6,10.0,336.0,72.0,5.5,7,5,7,1,2026-07-23T19:36:22.155999+05:30
Tirunelveli,Tamil Nadu,8.7139,77.7567,31.8,48,0.0,1002.2,8.3,43.2,39,10.5,6.9,4.6,138.0,54.0,1.9,0,5,4,1,2026-07-23T19:36:22.156008+05:30
Vellore,Tamil Nadu,12.9165,79.1325,27.1,83,0.2,982.2,9.0,36.7,64,24.3,17.1,13.2,239.0,65.0,4.6,10,5,7,1,2026-07-23T19:36:22.156016+05:30
Erode,Tamil Nadu,11.341,77.7172,30.6,56,0.0,987.5,8.25,35.6,56,12.2,8.8,9.5,210.0,57.0,2.9,0,5,7,1,2026-07-23T19:36:22.156023+05:30
Kochi,Kerala,9.9312,76.2673,27.5,86,0.0,1009.3,8.65,31.3,54,20.9,16.5,18.3,185.0,33.0,5.1,7,0,4,1,2026-07-23T19:36:22.156030+05:30
Thiruvananthapuram,Kerala,8.5241,76.9366,26.6,89,0.0,1008.6,8.0,41.8,51,14.4,8.7,4.3,125.0,50.0,1.6,7,0,4,1,2026-07-23T19:36:22.156037+05:30
Kozhikode,Kerala,11.2588,75.7804,24.2,98,0.1,1009.2,8.65,37.8,37,10.1,5.7,1.6,257.0,47.0,1.1,6,0,4,1,2026-07-23T19:36:22.156044+05:30
Thrissur,Kerala,10.5276,76.2144,26.1,90,0.1,1007.9,8.35,33.1,54,13.1,10.0,8.5,303.0,39.0,3.0,10,5,4,1,2026-07-23T19:36:22.156052+05:30
Kannur,Kerala,11.8745,75.3704,25.0,97,0.0,1008.2,8.8,40.0,46,10.2,6.6,8.8,182.0,30.0,1.7,7,0,4,1,2026-07-23T19:36:22.156059+05:30
Patna,Bihar,25.5941,85.1376,28.5,88,0.0,994.8,6.1,37.1,69,24.4,24.4,15.1,425.0,87.0,16.7,7,5,7,1,2026-07-23T19:36:22.156066+05:30
Gaya,Bihar,24.7914,85.0002,27.1,94,0.0,988.2,8.3,24.5,59,19.0,19.0,13.6,392.0,66.0,12.1,7,5,7,1,2026-07-23T19:36:22.156072+05:30
Muzaffarpur,Bihar,26.1209,85.3647,27.1,93,0.0,995.3,7.35,44.6,68,25.3,25.3,15.0,358.0,88.0,14.9,7,5,7,1,2026-07-23T19:36:22.156079+05:30
Bhagalpur,Bihar,25.2425,87.0117,26.5,95,0.2,996.2,7.55,33.1,62,21.6,21.5,16.1,304.0,72.0,14.2,10,5,7,1,2026-07-23T19:36:22.156086+05:30
Ranchi,Jharkhand,23.3441,85.3096,23.7,90,0.0,932.7,7.5,37.1,33,11.1,10.2,6.4,177.0,73.0,11.6,3,5,7,1,2026-07-23T19:36:22.156093+05:30
Jamshedpur,Jharkhand,22.8046,86.2029,27.4,79,0.0,985.8,2.1,39.2,57,15.2,12.6,13.0,261.0,51.0,20.2,7,5,3,1,2026-07-23T19:36:22.156100+05:30
Dhanbad,Jharkhand,23.7957,86.4304,26.7,96,0.0,974.6,6.1,24.8,81,27.8,26.5,39.5,941.0,31.0,80.6,7,5,7,1,2026-07-23T19:36:22.156107+05:30
Bokaro,Jharkhand,23.6693,86.1511,26.8,96,0.0,978.4,6.9,28.4,66,21.1,19.9,23.7,210.0,50.0,51.1,7,5,7,1,2026-07-23T19:36:22.156114+05:30
Bhubaneswar,Odisha,20.2961,85.8245,27.1,95,0.1,998.2,8.65,45.7,71,23.9,19.5,10.0,264.0,77.0,7.0,10,5,7,1,2026-07-23T19:36:22.156120+05:30
Cuttack,Odisha,20.4625,85.8828,26.7,94,0.0,1000.1,8.35,37.8,71,23.9,19.5,10.0,307.0,77.0,7.0,7,5,4,1,2026-07-23T19:36:22.156127+05:30
Rourkela,Odisha,22.2604,84.8536,26.8,85,0.0,980.1,6.7,37.8,39,14.6,12.3,7.2,404.0,66.0,6.2,7,5,7,1,2026-07-23T19:36:22.156135+05:30
Raipur,Chhattisgarh,21.2514,81.6296,26.2,81,0.0,969.5,4.15,54.0,56,22.0,18.2,18.8,280.0,54.0,31.8,7,5,3,1,2026-07-23T19:36:22.156142+05:30
Bhilai,Chhattisgarh,21.1938,81.3509,26.2,78,0.0,969.8,3.15,57.2,55,22.6,18.1,16.7,392.0,60.0,28.5,7,5,3,1,2026-07-23T19:36:22.156149+05:30
Guwahati,Assam,26.1158,91.7086,26.4,94,0.0,997.7,5.55,22.3,38,12.5,12.4,9.7,253.0,41.0,2.1,7,5,3,1,2026-07-23T19:36:22.156156+05:30
Agartala,Tripura,23.8315,91.2868,25.4,96,0.1,1003.3,8.0,36.7,41,11.4,11.1,10.3,197.0,53.0,2.7,10,5,4,1,2026-07-23T19:36:22.156163+05:30
Shillong,Meghalaya,25.5788,91.8933,20.2,89,0.0,855.3,5.3,29.5,32,4.7,4.6,5.8,208.0,60.0,2.0,3,5,3,1,2026-07-23T19:36:22.156170+05:30
Imphal,Manipur,24.817,93.9368,24.3,84,0.0,920.6,8.6,25.9,34,11.8,11.6,13.5,393.0,37.0,2.6,3,5,7,1,2026-07-23T19:36:22.156177+05:30
Aizawl,Mizoram,23.7271,92.7176,19.7,90,0.0,890.6,8.75,43.2,28,2.2,2.0,3.5,133.0,56.0,0.9,3,10,7,1,2026-07-23T19:36:22.156183+05:30
Kohima,Nagaland,25.6701,94.1077,20.2,98,0.1,853.8,5.45,22.3,31,6.8,6.7,9.9,226.0,38.0,1.1,6,5,3,1,2026-07-23T19:36:22.156190+05:30
Gangtok,Sikkim,27.3314,88.6138,18.5,97,0.0,836.1,6.3,34.2,40,4.2,4.2,5.0,188.0,87.0,0.9,3,10,7,1,2026-07-23T19:36:22.156197+05:30
Siliguri,West Bengal,26.7271,88.3953,26.5,96,0.0,989.3,8.45,31.7,58,12.3,12.2,9.2,459.0,83.0,3.0,7,5,7,1,2026-07-23T19:36:25.536423+05:30
Durgapur,West Bengal,23.5204,87.3119,25.8,95,0.1,990.0,8.0,35.6,73,27.5,27.0,35.7,635.0,29.0,48.7,10,5,7,1,2026-07-23T19:36:25.536456+05:30
Asansol,West Bengal,23.6739,86.9524,25.8,95,0.0,988.5,7.4,33.5,68,22.2,21.5,34.7,285.0,31.0,52.2,7,5,7,1,2026-07-23T19:36:25.536468+05:30
Pondicherry,Puducherry,11.9139,79.8145,29.2,83,0.0,1006.3,8.55,41.4,70,28.5,20.3,12.3,187.0,84.0,4.0,7,5,4,1,2026-07-23T19:36:25.536476+05:30
Port Blair,Andaman and Nicobar Islands,11.6234,92.7265,27.0,86,0.0,1007.7,8.0,36.7,37,10.6,6.2,0.4,104.0,44.0,0.5,7,5,4,1,2026-07-23T19:36:25.536484+05:30
Haridwar,Uttarakhand,29.9457,78.1642,28.6,89,0.0,966.3,7.3,27.7,65,15.2,15.1,11.7,237.0,68.0,4.0,7,5,7,1,2026-07-23T19:36:25.536493+05:30
Rishikesh,Uttarakhand,30.0869,78.2676,27.4,93,0.0,959.1,7.4,27.7,47,9.1,9.0,8.3,320.0,71.0,2.1,7,5,7,1,2026-07-23T19:36:25.536501+05:30
Nainital,Uttarakhand,29.3919,79.4542,18.1,85,0.0,802.1,6.95,52.6,44,10.6,10.5,9.9,244.0,68.0,1.9,3,10,7,0,2026-07-23T19:36:25.536509+05:30
Mussoorie,Uttarakhand,30.4599,78.0664,17.7,100,0.0,799.0,6.8,32.8,54,11.1,11.1,15.8,297.0,67.0,3.6,3,10,7,1,2026-07-23T19:36:25.536517+05:30
Dharamshala,Himachal Pradesh,32.219,76.3234,21.9,98,0.0,863.4,7.4,23.0,45,7.5,7.4,14.0,395.0,50.0,0.9,3,5,7,1,2026-07-23T19:36:25.536548+05:30
Dalhousie,Himachal Pradesh,32.5387,75.971,18.3,91,0.0,799.9,1.1,27.7,62,17.0,16.4,27.0,613.0,81.0,2.6,3,10,3,1,2026-07-23T19:36:25.536557+05:30
Patiala,Punjab,30.3398,76.3869,28.6,85,0.0,969.6,6.85,40.7,90,28.1,27.0,22.5,411.0,82.0,7.8,7,5,7,1,2026-07-23T19:36:25.536564+05:30
Bhatinda,Punjab,30.211,74.9455,29.2,83,0.0,974.7,6.95,32.4,93,33.9,33.6,15.7,376.0,102.0,9.9,7,5,7,1,2026-07-23T19:36:25.536571+05:30
Rohtak,Haryana,28.8955,76.6066,30.0,73,0.0,972.8,6.25,38.5,154,37.8,28.9,25.0,456.0,111.0,21.3,7,5,7,1,2026-07-23T19:36:25.536578+05:30
Panipat,Haryana,29.3909,76.9635,29.9,75,0.0,971.8,7.05,39.2,138,23.7,23.7,13.2,360.0,108.0,8.3,7,5,7,1,2026-07-23T19:36:25.536585+05:30
Mathura,Uttar Pradesh,27.4924,77.6737,27.5,90,0.2,977.2,6.2,39.6,93,19.5,19.1,14.1,312.0,107.0,6.3,10,5,7,1,2026-07-23T19:36:25.536593+05:30
Vrindavan,Uttar Pradesh,27.5823,77.7027,28.2,85,0.1,977.7,6.15,38.9,93,19.5,19.1,14.1,318.0,107.0,6.3,10,5,7,1,2026-07-23T19:36:25.536600+05:30
Ayodhya,Uttar Pradesh,26.7922,82.1998,28.8,83,0.0,988.7,6.2,44.3,78,24.6,24.6,10.2,393.0,100.0,10.2,7,5,7,1,2026-07-23T19:36:25.536606+05:30
Ratlam,Madhya Pradesh,23.3315,75.0367,24.4,96,0.2,944.2,6.1,32.0,34,10.5,10.3,10.5,143.0,48.0,4.4,6,5,7,1,2026-07-23T19:36:25.536614+05:30
Sagar,Madhya Pradesh,23.8388,78.7378,26.3,78,0.0,941.6,4.2,40.0,41,4.2,3.8,5.4,144.0,54.0,2.7,7,5,3,1,2026-07-23T19:36:25.536621+05:30
Satna,Madhya Pradesh,24.6005,80.8322,25.9,94,0.0,963.8,7.8,33.8,57,5.6,5.5,8.0,197.0,60.0,4.2,7,5,7,1,2026-07-23T19:36:25.536628+05:30
Akola,Maharashtra,20.7002,77.0082,28.1,68,0.1,967.7,2.8,57.2,36,6.1,5.3,4.3,164.0,49.0,2.0,10,5,3,1,2026-07-23T19:36:25.536636+05:30
Amravati,Maharashtra,20.9374,77.7796,27.8,67,0.0,960.3,3.15,52.9,43,9.8,7.8,4.3,159.0,54.0,2.6,7,5,3,1,2026-07-23T19:36:25.536644+05:30
Latur,Maharashtra,18.4088,76.5604,24.2,84,0.1,934.7,6.05,64.1,59,13.6,9.1,3.5,129.0,47.0,1.4,6,5,7,1,2026-07-23T19:36:25.536652+05:30
Nanded,Maharashtra,19.1383,77.3091,26.3,73,0.0,963.3,4.8,54.7,60,14.6,11.1,5.9,153.0,47.0,3.4,7,5,3,1,2026-07-23T19:36:25.536659+05:30
Gulbarga,Karnataka,17.3297,76.8343,27.1,62,0.0,955.0,6.7,63.7,56,47.7,25.2,7.0,146.0,55.0,2.5,7,5,7,1,2026-07-23T19:36:25.536666+05:30
Bidar,Karnataka,17.9104,77.5199,25.6,67,0.0,931.4,7.25,66.6,57,39.9,22.4,6.0,135.0,59.0,2.1,7,5,7,1,2026-07-23T19:36:25.536673+05:30
Hospet,Karnataka,15.2689,76.3909,26.4,65,0.0,954.2,6.2,58.3,34,56.1,27.2,4.2,125.0,58.0,1.7,7,5,7,1,2026-07-23T19:36:25.536679+05:30
Tirupur,Tamil Nadu,11.1085,77.3411,28.1,67,0.0,973.8,8.85,58.0,58,13.2,9.8,10.6,178.0,56.0,3.8,7,5,7,1,2026-07-23T19:36:25.536686+05:30
Alappuzha,Kerala,9.4981,76.3388,27.5,87,0.0,1009.3,7.9,34.9,55,20.2,14.5,13.4,90.0,42.0,4.0,7,0,4,1,2026-07-23T19:36:25.536693+05:30
Munnar,Kerala,10.0889,77.0595,16.3,98,0.0,856.4,7.85,34.9,31,11.8,8.3,7.8,130.0,49.0,2.3,3,10,7,0,2026-07-23T19:36:25.536700+05:30
Silchar,Assam,24.8333,92.7789,26.1,95,0.2,1002.6,6.1,28.8,52,16.1,15.1,7.2,228.0,60.0,3.7,10,5,4,1,2026-07-23T19:36:25.536707+05:30
Dibrugarh,Assam,27.4728,94.912,28.5,82,0.0,990.9,7.75,26.6,52,23.9,23.3,13.6,209.0,52.0,2.4,7,5,7,1,2026-07-23T19:36:25.536714+05:30
