city,state,latitude,longitude,temp,humidity,rain,pressure,uv_index,wind_gusts,aqi,pm10,pm2_5,no2,co,o3,so2,mosquito_risk,arthritis_risk,migraine_risk,frizz_risk,updated_at
Delhi,Delhi,28.6139,77.209,37.2,39,0.0,978.6,7.65,34.6,314,836.3,150.4,3.9,228.0,158.0,12.9,0,5,10,1,2026-07-16T12:53:07.656325+05:30
Mumbai,Maharashtra,19.076,72.8777,28.7,74,0.0,1008.1,6.9,32.0,68,34.7,18.7,6.4,176.0,82.0,11.7,7,0,4,1,2026-07-16T12:53:07.656366+05:30
Bangalore,Karnataka,12.9716,77.5946,30.5,35,0.0,912.8,9.05,39.6,57,38.8,17.8,2.7,207.0,89.0,3.0,0,5,7,0,2026-07-16T12:53:07.656381+05:30
Hyderabad,Telangana,17.385,78.4867,32.9,45,0.0,952.4,8.6,47.9,64,35.5,15.3,1.3,188.0,95.0,3.1,0,5,7,1,2026-07-16T12:53:07.656391+05:30
Chennai,Tamil Nadu,13.0827,80.2707,37.6,31,0.0,1005.3,8.4,42.8,79,45.3,28.1,6.0,185.0,140.0,10.6,0,5,7,1,2026-07-16T12:53:07.656399+05:30
Kolkata,West Bengal,22.5726,88.3639,32.0,73,0.1,997.6,7.6,35.3,65,13.9,11.4,3.0,243.0,111.0,7.0,6,5,7,1,2026-07-16T12:53:07.656407+05:30
Pune,Maharashtra,18.5204,73.8567,28.8,62,0.1,947.5,7.95,46.1,50,13.6,6.5,2.1,141.0,69.0,4.2,10,5,7,1,2026-07-16T12:53:07.656414+05:30
Ahmedabad,Gujarat,23.0225,72.5714,34.9,43,0.2,999.7,7.0,36.0,81,50.8,21.1,2.0,136.0,83.0,4.6,3,5,7,1,2026-07-16T12:53:07.656422+05:30
Jaipur,Rajasthan,26.9124,75.7873,35.6,41,0.0,957.4,8.2,40.0,195,527.1,88.7,1.3,145.0,103.0,3.3,0,5,10,1,2026-07-16T12:53:07.656428+05:30
Lucknow,Uttar Pradesh,26.8467,80.9462,32.9,71,0.0,988.4,6.5,29.9,166,245.9,93.8,3.0,304.0,178.0,12.5,3,5,7,1,2026-07-16T12:53:07.656439+05:30
Kanpur,Uttar Pradesh,26.4499,80.3319,35.3,55,0.0,986.7,7.5,33.1,163,291.5,93.1,2.2,167.0,169.0,10.4,0,5,10,1,2026-07-16T12:53:07.656447+05:30
Chandigarh,Chandigarh,30.7333,76.7794,34.5,52,0.0,964.3,7.7,32.4,158,108.3,58.0,2.0,369.0,200.0,13.9,0,5,7,1,2026-07-16T12:53:07.656454+05:30
Srinagar,Jammu and Kashmir,34.0837,74.7973,30.3,42,0.0,841.4,9.0,18.0,92,27.2,17.3,1.2,356.0,177.0,4.1,0,5,7,0,2026-07-16T12:53:07.656460+05:30
Jammu,Jammu and Kashmir,32.7266,74.857,34.3,52,0.0,968.2,8.55,21.2,152,55.9,39.3,1.4,404.0,188.0,5.6,0,5,7,1,2026-07-16T12:53:07.656467+05:30
Amritsar,Punjab,31.634,74.8723,34.5,54,0.0,976.2,7.65,20.9,174,78.7,52.3,1.9,384.0,205.0,12.0,0,5,7,1,2026-07-16T12:53:07.656473+05:30
Ludhiana,Punjab,30.901,75.8573,35.6,49,0.0,974.1,7.95,29.9,177,125.3,64.0,0.8,320.0,171.0,6.0,0,5,10,1,2026-07-16T12:53:07.656479+05:30
Jalandhar,Punjab,31.326,75.5762,34.5,55,0.0,975.1,8.2,23.0,188,99.2,58.2,0.1,394.0,197.0,8.2,0,5,7,1,2026-07-16T12:53:07.656485+05:30
Dehradun,Uttarakhand,30.6284,78.0322,24.8,72,0.0,830.7,7.6,29.2,76,36.1,22.1,0.8,295.0,149.0,4.1,3,5,7,1,2026-07-16T12:53:07.656494+05:30
Shimla,Himachal Pradesh,31.1048,77.1734,23.8,54,0.0,786.7,8.25,41.4,102,55.8,31.5,0.9,225.0,158.0,6.6,0,5,7,0,2026-07-16T12:53:07.656500+05:30
Manali,Himachal Pradesh,32.2396,77.1887,27.5,56,0.0,820.4,9.6,33.5,44,12.0,5.0,0.8,160.0,148.0,1.0,4,5,7,1,2026-07-16T12:53:07.656514+05:30
Gurgaon,Haryana,28.4595,77.0266,37.4,38,0.0,977.2,7.75,34.9,353,951.8,168.1,3.8,173.0,144.0,10.2,0,5,10,1,2026-07-16T12:53:07.656521+05:30
Noida,Uttar Pradesh,28.5355,77.391,36.8,43,0.0,979.8,7.65,28.1,353,951.8,168.1,3.8,255.0,144.0,10.2,0,5,10,1,2026-07-16T12:53:07.656527+05:30
Ghaziabad,Uttar Pradesh,28.6692,77.4538,36.3,44,0.0,978.1,7.65,33.5,193,458.2,118.5,3.9,232.0,189.0,19.2,0,5,10,1,2026-07-16T12:53:07.656533+05:30
Faridabad,Haryana,28.4089,77.3178,37.2,39,0.0,979.2,7.7,35.3,353,951.8,168.1,3.8,205.0,144.0,10.2,0,5,10,1,2026-07-16T12:53:07.656540+05:30
Meerut,Uttar Pradesh,28.9845,77.7064,35.1,51,0.0,976.9,7.6,38.9,193,458.2,118.5,3.9,227.0,189.0,19.2,0,5,10,1,2026-07-16T12:53:07.656546+05:30
Agra,Uttar Pradesh,27.1767,78.0081,36.4,44,0.0,983.4,6.9,36.4,151,190.9,51.0,2.0,168.0,141.0,4.2,0,5,10,1,2026-07-16T12:53:07.656552+05:30
Varanasi,Uttar Pradesh,25.3176,82.9739,34.4,63,0.1,991.8,7.55,28.8,181,139.2,67.1,2.5,416.0,173.0,10.5,6,5,7,1,2026-07-16T12:53:07.656558+05:30
Prayagraj,Uttar Pradesh,25.4358,81.8463,33.8,64,0.0,990.7,6.75,33.8,169,132.2,59.8,4.1,244.0,148.0,10.4,3,5,7,1,2026-07-16T12:53:07.656565+05:30
Gorakhpur,Uttar Pradesh,26.7606,83.3732,32.3,71,0.0,991.8,7.95,25.2,154,33.3,26.8,2.9,387.0,151.0,7.0,3,5,7,1,2026-07-16T12:53:07.656572+05:30
Bareilly,Uttar Pradesh,28.367,79.4304,34.9,59,0.0,981.4,7.8,29.2,178,227.2,87.8,1.8,370.0,193.0,16.5,0,5,7,1,2026-07-16T12:53:07.656580+05:30
Aligarh,Uttar Pradesh,27.8974,78.088,35.6,51,0.0,980.9,7.8,31.7,172,704.1,139.7,2.6,192.0,156.0,10.3,0,5,10,1,2026-07-16T12:53:07.656586+05:30
Moradabad,Uttar Pradesh,28.8386,78.7733,34.7,58,0.0,978.4,7.8,36.0,194,284.1,105.9,2.6,442.0,207.0,17.4,0,5,7,1,2026-07-16T12:53:07.656593+05:30
Saharanpur,Uttar Pradesh,29.9637,77.546,34.0,58,0.0,971.0,7.4,34.6,169,121.1,67.8,3.1,371.0,215.0,19.7,0,5,7,1,2026-07-16T12:53:07.656598+05:30
Jhansi,Uttar Pradesh,25.4484,78.5685,34.8,51,0.0,974.5,6.15,38.5,112,73.1,28.0,1.3,135.0,114.0,4.3,0,5,7,1,2026-07-16T12:53:10.898588+05:30
Surat,Gujarat,21.1702,72.8311,30.2,74,0.0,1005.4,7.7,40.3,76,33.3,20.5,13.4,188.0,48.0,42.9,3,5,4,1,2026-07-16T12:53:10.898623+05:30
Vadodara,Gujarat,22.3072,73.1812,32.6,62,0.0,1002.4,6.5,39.2,71,45.2,22.2,2.5,152.0,87.0,6.7,3,5,4,1,2026-07-16T12:53:10.898636+05:30
Rajkot,Gujarat,22.3039,70.8022,33.3,56,0.0,991.8,6.3,34.2,69,52.3,19.0,1.6,104.0,63.0,3.3,0,5,7,1,2026-07-16T12:53:10.898646+05:30
Thane,Maharashtra,19.2183,72.9781,29.9,72,0.0,1007.3,6.55,30.6,68,34.7,18.7,6.4,169.0,82.0,11.7,7,5,4,1,2026-07-16T12:53:10.898654+05:30
Nagpur,Maharashtra,21.1458,79.0882,34.2,49,0.0,970.7,8.55,41.4,91,39.2,19.3,4.7,148.0,108.0,18.6,0,5,7,1,2026-07-16T12:53:10.898662+05:30
Nashik,Maharashtra,19.9975,73.7898,27.8,68,0.1,944.8,7.85,40.7,54,31.2,14.1,1.8,138.0,82.0,5.5,10,5,7,1,2026-07-16T12:53:10.898669+05:30
Aurangabad,Maharashtra,19.8762,75.3433,30.3,56,0.0,943.4,8.95,44.3,55,22.1,10.6,1.2,121.0,81.0,5.5,0,5,7,1,2026-07-16T12:53:10.898677+05:30
Solapur,Maharashtra,17.6599,75.9064,32.1,50,0.0,956.9,8.5,45.4,56,16.1,7.6,1.0,116.0,76.0,1.8,0,5,7,1,2026-07-16T12:53:10.898685+05:30
Kolhapur,Maharashtra,16.705,74.2433,26.6,76,0.0,948.4,7.75,44.6,51,15.1,6.9,1.5,126.0,65.0,1.8,7,5,7,1,2026-07-16T12:53:10.898692+05:30
Goa,Goa,15.2993,74.124,29.7,72,0.0,998.9,6.15,30.2,74,36.3,15.3,0.9,124.0,60.0,1.3,7,5,7,1,2026-07-16T12:53:10.898699+05:30
Jodhpur,Rajasthan,26.2389,73.0243,35.3,42,0.0,980.5,8.4,36.7,114,223.5,52.9,0.8,109.0,79.0,2.6,0,5,10,1,2026-07-16T12:53:10.898707+05:30
Udaipur,Rajasthan,24.5854,73.7125,30.8,53,0.1,945.0,8.8,31.0,75,56.0,23.6,0.7,110.0,80.0,3.1,3,5,7,1,2026-07-16T12:53:10.898714+05:30
Kota,Rajasthan,25.2138,75.8648,35.0,48,0.0,976.4,8.3,31.7,90,73.6,31.1,1.2,133.0,108.0,6.3,0,5,7,1,2026-07-16T12:53:10.898722+05:30
Bikaner,Rajasthan,28.0229,73.3119,38.1,34,0.0,978.2,8.4,37.4,135,253.3,69.8,0.4,109.0,79.0,2.5,0,5,10,1,2026-07-16T12:53:10.898730+05:30
Ajmer,Rajasthan,26.4499,74.6399,32.8,49,0.0,952.8,8.35,43.6,86,126.2,40.4,0.8,113.0,90.0,2.8,0,5,7,1,2026-07-16T12:53:10.898737+05:30
Gwalior,Madhya Pradesh,26.2183,78.1828,34.9,51,0.0,979.4,8.1,37.1,126,130.4,39.2,1.4,143.0,114.0,2.8,0,5,7,1,2026-07-16T12:53:10.898745+05:30
Indore,Madhya Pradesh,22.7196,75.8577,32.1,50,0.0,946.9,7.75,39.2,70,36.3,19.5,1.6,171.0,97.0,5.1,0,5,7,1,2026-07-16T12:53:10.898752+05:30
Bhopal,Madhya Pradesh,23.2599,77.4126,31.8,58,0.0,951.8,8.3,38.5,90,48.0,21.8,1.1,168.0,106.0,5.9,0,5,7,1,2026-07-16T12:53:10.898759+05:30
Jabalpur,Madhya Pradesh,23.1815,79.9864,32.4,58,0.0,958.3,8.7,35.3,116,59.3,28.8,1.3,159.0,121.0,5.9,0,5,7,1,2026-07-16T12:53:10.898766+05:30
Ujjain,Madhya Pradesh,23.1765,75.7885,31.0,58,0.1,952.3,8.45,36.0,70,38.3,20.5,1.2,143.0,95.0,5.3,3,5,7,1,2026-07-16T12:53:10.898774+05:30
Visakhapatnam,Andhra Pradesh,17.6868,83.2185,34.3,51,0.0,998.6,5.75,36.4,100,44.8,28.4,14.6,371.0,106.0,35.4,0,5,3,1,2026-07-16T12:53:10.898781+05:30
Vijayawada,Andhra Pradesh,16.5062,80.648,35.2,48,0.0,999.8,7.0,46.8,74,33.2,18.5,2.6,139.0,103.0,4.9,0,5,10,1,2026-07-16T12:53:10.898788+05:30
Guntur,Andhra Pradesh,16.3067,80.4365,35.1,45,0.0,1001.2,7.6,45.7,71,31.9,17.2,1.8,132.0,102.0,4.1,0,5,7,1,2026-07-16T12:53:10.898795+05:30
Nellore,Andhra Pradesh,14.4426,79.9865,35.7,39,0.0,1004.0,8.0,43.2,65,33.4,18.2,1.9,119.0,104.0,6.0,0,5,7,1,2026-07-16T12:53:10.898804+05:30
Kurnool,Andhra Pradesh,15.8281,78.0373,34.3,41,0.0,976.3,8.15,43.9,68,33.6,14.8,1.3,121.0,90.0,6.2,0,5,7,1,2026-07-16T12:53:10.898812+05:30
Kakinada,Andhra Pradesh,16.9891,82.2475,33.4,56,0.0,1003.2,3.2,45.0,79,32.8,19.6,3.1,146.0,118.0,6.0,0,5,0,1,2026-07-16T12:53:10.898819+05:30
Tirupati,Andhra Pradesh,13.6288,79.4192,36.0,30,0.0,989.6,8.25,29.2,75,39.7,16.6,0.8,115.0,83.0,1.5,0,5,10,0,2026-07-16T12:53:10.898826+05:30
Warangal,Telangana,17.9689,79.5941,31.4,57,0.0,976.9,1.95,43.2,68,33.8,17.2,2.0,138.0,90.0,4.7,0,5,3,1,2026-07-16T12:53:10.898834+05:30
Nizamabad,Telangana,18.6725,78.0941,31.1,57,0.0,963.8,6.35,41.8,64,36.1,16.1,0.8,127.0,90.0,3.5,0,5,7,1,2026-07-16T12:53:10.898841+05:30
Mysore,Karnataka,12.2958,76.6396,29.4,47,0.1,929.3,8.75,44.3,58,32.6,14.3,1.3,119.0,82.0,1.6,7,5,7,1,2026-07-16T12:53:10.898848+05:30
Mangalore,Karnataka,12.9141,74.856,28.4,75,0.0,1008.4,7.75,29.5,73,31.7,13.4,1.3,118.0,65.0,2.3,7,0,4,1,2026-07-16T12:53:10.898854+05:30
Hubli-Dharwad,Karnataka,15.3647,75.124,29.1,59,0.0,941.3,6.95,47.5,54,23.5,9.3,1.2,116.0,64.0,1.1,4,5,7,1,2026-07-16T12:53:10.898862+05:30
Belgaum,Karnataka,15.8497,74.4977,25.5,71,0.1,926.1,7.95,46.4,52,19.0,8.3,1.4,109.0,60.0,1.7,10,5,7,1,2026-07-16T12:53:14.135960+05:30
Coimbatore,Tamil Nadu,11.0168,76.9558,31.9,50,0.0,962.1,8.55,53.6,59,30.3,13.9,1.2,145.0,82.0,2.0,0,5,7,1,2026-07-16T12:53:14.135993+05:30
Madurai,Tamil Nadu,9.9252,78.1198,37.6,28,0.0,992.3,8.25,46.4,87,43.4,25.4,2.3,144.0,147.0,4.6,0,5,10,0,2026-07-16T12:53:14.136005+05:30
Trichy,Tamil Nadu,10.7905,78.7047,37.2,30,0.0,998.6,8.05,45.7,69,30.4,17.1,1.5,139.0,103.0,2.7,0,5,10,1,2026-07-16T12:53:14.136014+05:30
Salem,Tamil Nadu,11.6643,78.146,32.3,50,0.0,977.4,8.0,20.5,78,43.2,23.1,2.8,185.0,131.0,8.7,0,5,7,1,2026-07-16T12:53:14.136023+05:30
Tirunelveli,Tamil Nadu,8.7139,77.7567,38.6,25,0.0,1002.4,8.0,40.7,61,25.1,13.1,1.1,126.0,86.0,1.5,0,5,7,0,2026-07-16T12:53:14.136031+05:30
Vellore,Tamil Nadu,12.9165,79.1325,36.6,29,0.0,982.9,8.05,42.1,71,59.4,24.2,1.3,127.0,104.0,2.7,0,5,10,0,2026-07-16T12:53:14.136039+05:30
Erode,Tamil Nadu,11.341,77.7172,35.9,32,0.0,988.6,8.3,47.2,68,35.2,18.0,1.5,145.0,108.0,2.4,0,5,10,1,2026-07-16T12:53:14.136047+05:30
Kochi,Kerala,9.9312,76.2673,29.1,73,0.0,1010.5,8.55,28.8,79,34.7,17.4,2.2,122.0,83.0,3.6,7,0,4,1,2026-07-16T12:53:14.136055+05:30
Thiruvananthapuram,Kerala,8.5241,76.9366,28.8,74,0.0,1009.7,7.75,40.7,65,33.2,17.3,2.1,116.0,82.0,1.9,7,0,4,1,2026-07-16T12:53:14.136062+05:30
Kozhikode,Kerala,11.2588,75.7804,29.4,74,0.0,1009.5,8.0,34.9,66,31.7,13.8,0.6,117.0,68.0,1.5,7,0,4,1,2026-07-16T12:53:14.136069+05:30
Thrissur,Kerala,10.5276,76.2144,29.5,69,0.1,1008.6,8.5,36.4,74,28.2,13.6,1.4,108.0,69.0,1.9,10,0,4,1,2026-07-16T12:53:14.136077+05:30
Kannur,Kerala,11.8745,75.3704,30.1,67,0.0,1009.1,7.5,32.0,70,35.2,15.4,0.8,106.0,66.0,1.5,3,0,4,1,2026-07-16T12:53:14.136084+05:30
Patna,Bihar,25.5941,85.1376,34.3,64,0.0,994.6,6.45,29.9,151,24.2,23.3,2.7,305.0,155.0,12.2,3,5,7,1,2026-07-16T12:53:14.136092+05:30
Gaya,Bihar,24.7914,85.0002,34.3,62,0.0,987.9,8.45,22.7,151,19.8,18.3,1.9,283.0,139.0,6.1,3,5,7,1,2026-07-16T12:53:14.136099+05:30
Muzaffarpur,Bihar,26.1209,85.3647,31.5,74,0.2,995.1,6.55,28.4,140,25.2,24.6,3.0,288.0,150.0,11.5,6,5,7,1,2026-07-16T12:53:14.136106+05:30
Bhagalpur,Bihar,25.2425,87.0117,33.4,67,0.0,995.2,8.65,31.0,99,22.9,17.3,3.0,199.0,142.0,13.1,3,5,7,1,2026-07-16T12:53:14.136113+05:30
Ranchi,Jharkhand,23.3441,85.3096,30.5,65,0.0,932.7,8.75,36.7,101,18.2,16.5,2.1,231.0,142.0,12.3,3,5,7,1,2026-07-16T12:53:14.136121+05:30
Jamshedpur,Jharkhand,22.8046,86.2029,31.1,74,0.0,984.0,6.15,36.0,86,22.9,18.6,2.9,466.0,144.0,17.1,3,5,7,1,2026-07-16T12:53:14.136128+05:30
Dhanbad,Jharkhand,23.7957,86.4304,30.8,73,0.0,973.7,8.5,33.8,117,28.6,23.6,8.8,187.0,135.0,32.8,3,5,7,1,2026-07-16T12:53:14.136135+05:30
Bokaro,Jharkhand,23.6693,86.1511,30.6,75,0.2,977.4,8.35,33.5,125,26.3,22.9,9.4,195.0,134.0,37.5,6,5,7,1,2026-07-16T12:53:14.136142+05:30
Bhubaneswar,Odisha,20.2961,85.8245,26.9,95,0.5,994.7,6.8,50.4,95,15.3,14.0,10.0,258.0,78.0,11.2,10,5,7,1,2026-07-16T12:53:14.136149+05:30
Cuttack,Odisha,20.4625,85.8828,27.0,94,0.5,996.4,6.95,40.0,95,15.3,14.0,10.0,195.0,78.0,11.2,10,5,7,1,2026-07-16T12:53:14.136155+05:30
Rourkela,Odisha,22.2604,84.8536,27.3,93,0.2,978.3,7.7,36.7,113,18.5,14.6,2.4,248.0,126.0,8.7,10,5,7,1,2026-07-16T12:53:14.136163+05:30
Raipur,Chhattisgarh,21.2514,81.6296,28.8,80,0.1,970.7,5.25,38.2,153,71.0,45.6,23.5,432.0,79.0,51.0,10,5,3,1,2026-07-16T12:53:14.136170+05:30
Bhilai,Chhattisgarh,21.1938,81.3509,28.1,83,0.1,971.6,4.4,36.4,138,69.8,39.9,16.6,668.0,103.0,40.0,10,5,3,1,2026-07-16T12:53:14.136178+05:30
Guwahati,Assam,26.1158,91.7086,31.0,72,0.0,996.0,6.7,22.7,56,14.4,11.1,1.4,232.0,107.0,2.1,3,5,7,1,2026-07-16T12:53:14.136185+05:30
Agartala,Tripura,23.8315,91.2868,30.3,82,0.0,1000.6,8.35,43.6,63,17.3,9.2,1.7,150.0,110.0,1.5,3,5,4,1,2026-07-16T12:53:14.136192+05:30
Shillong,Meghalaya,25.5788,91.8933,26.4,62,0.0,856.2,8.5,33.5,38,14.9,8.0,0.9,137.0,97.0,1.5,7,5,7,1,2026-07-16T12:53:14.136200+05:30
Imphal,Manipur,24.817,93.9368,29.8,63,0.1,919.7,6.9,24.1,58,9.1,6.9,1.2,187.0,95.0,1.5,10,5,7,1,2026-07-16T12:53:14.136207+05:30
Aizawl,Mizoram,23.7271,92.7176,27.6,64,0.1,889.9,8.1,34.9,57,14.2,7.5,0.7,132.0,84.0,0.8,10,5,7,1,2026-07-16T12:53:14.136215+05:30
Kohima,Nagaland,25.6701,94.1077,24.8,85,0.0,853.6,8.05,24.1,45,6.4,4.9,1.0,140.0,78.0,0.7,3,5,7,1,2026-07-16T12:53:14.136222+05:30
Gangtok,Sikkim,27.3314,88.6138,24.1,70,0.1,837.2,7.2,37.4,46,2.8,2.3,1.7,211.0,101.0,1.8,6,5,7,1,2026-07-16T12:53:14.136228+05:30
Siliguri,West Bengal,26.7271,88.3953,27.7,94,0.4,988.6,7.4,24.1,70,13.2,9.9,2.4,259.0,104.0,3.3,10,5,7,1,2026-07-16T12:53:17.412680+05:30
Durgapur,West Bengal,23.5204,87.3119,33.0,66,0.0,987.7,7.05,35.3,88,27.3,19.7,6.1,228.0,139.0,23.7,3,5,7,1,2026-07-16T12:53:17.412714+05:30
Asansol,West Bengal,23.6739,86.9524,32.7,68,0.0,986.7,8.05,32.8,90,26.3,19.7,5.7,198.0,143.0,21.9,3,5,7,1,2026-07-16T12:53:17.412725+05:30
Pondicherry,Puducherry,11.9139,79.8145,36.7,34,0.0,1006.9,8.2,43.9,76,46.6,30.4,4.4,178.0,145.0,9.6,0,5,7,1,2026-07-16T12:53:17.412735+05:30
Port Blair,Andaman and Nicobar Islands,11.6234,92.7265,31.1,67,0.1,1007.2,8.45,50.0,53,19.8,10.4,0.2,89.0,47.0,0.5,6,5,4,1,2026-07-16T12:53:17.412744+05:30
Haridwar,Uttarakhand,29.9457,78.1642,34.4,57,0.0,969.2,7.5,28.8,138,83.1,52.3,1.7,422.0,193.0,14.7,0,5,7,1,2026-07-16T12:53:17.412752+05:30
Rishikesh,Uttarakhand,30.0869,78.2676,33.4,60,0.0,962.1,7.6,25.2,95,60.3,37.7,0.9,364.0,165.0,9.4,0,5,7,1,2026-07-16T12:53:17.412760+05:30
Nainital,Uttarakhand,29.3919,79.4542,22.9,77,0.0,806.1,6.45,28.1,151,61.9,39.7,1.5,274.0,181.0,10.7,3,5,7,1,2026-07-16T12:53:17.412769+05:30
Mussoorie,Uttarakhand,30.4599,78.0664,23.4,69,0.0,803.9,7.3,41.4,95,61.9,40.9,1.4,287.0,176.0,10.5,3,5,7,1,2026-07-16T12:53:17.412776+05:30
Dharamshala,Himachal Pradesh,32.219,76.3234,27.0,56,0.0,868.6,8.45,31.3,73,33.6,21.5,0.7,241.0,147.0,2.6,4,5,7,1,2026-07-16T12:53:17.412783+05:30
Dalhousie,Himachal Pradesh,32.5387,75.971,23.2,71,0.1,805.9,7.75,30.2,121,51.9,34.5,1.2,262.0,177.0,4.1,6,5,7,1,2026-07-16T12:53:17.412791+05:30
Patiala,Punjab,30.3398,76.3869,34.6,55,0.0,973.7,7.6,31.0,187,175.6,73.1,1.2,266.0,169.0,8.8,0,5,7,1,2026-07-16T12:53:17.412799+05:30
Bhatinda,Punjab,30.211,74.9455,38.2,36,0.0,979.1,7.65,28.1,179,202.6,72.4,2.0,181.0,151.0,11.3,0,5,10,1,2026-07-16T12:53:17.412806+05:30
Rohtak,Haryana,28.8955,76.6066,36.4,43,0.0,977.4,7.05,29.9,651,1438.0,203.5,1.2,158.0,124.0,4.9,0,5,10,1,2026-07-16T12:53:17.412813+05:30
Panipat,Haryana,29.3909,76.9635,35.2,50,0.0,975.9,6.85,34.2,1135,1091.5,168.1,2.2,231.0,142.0,12.3,0,5,10,1,2026-07-16T12:53:17.412821+05:30
Mathura,Uttar Pradesh,27.4924,77.6737,36.0,46,0.0,982.4,7.9,33.5,462,1199.5,164.8,1.3,152.0,126.0,3.1,0,5,10,1,2026-07-16T12:53:17.412828+05:30
Vrindavan,Uttar Pradesh,27.5823,77.7027,36.0,47,0.1,982.8,7.9,32.0,462,1199.5,164.8,1.3,148.0,126.0,3.1,3,5,10,1,2026-07-16T12:53:17.412835+05:30
Ayodhya,Uttar Pradesh,26.7922,82.1998,32.4,72,0.0,989.8,7.95,28.4,179,132.2,67.1,1.6,315.0,172.0,6.7,3,5,7,1,2026-07-16T12:53:17.412842+05:30
Ratlam,Madhya Pradesh,23.3315,75.0367,31.3,56,0.0,953.4,7.8,32.8,68,42.5,21.9,1.1,122.0,92.0,5.1,0,5,7,1,2026-07-16T12:53:17.412849+05:30
Sagar,Madhya Pradesh,23.8388,78.7378,32.1,59,0.0,947.6,8.3,44.6,96,60.1,26.4,0.9,149.0,116.0,5.3,0,5,7,1,2026-07-16T12:53:17.412856+05:30
Satna,Madhya Pradesh,24.6005,80.8322,32.4,61,0.0,967.0,7.75,35.3,133,156.0,54.0,1.6,140.0,111.0,4.4,3,5,7,1,2026-07-16T12:53:17.412864+05:30
Akola,Maharashtra,20.7002,77.0082,34.5,47,0.0,973.5,8.75,43.6,67,35.0,16.3,1.5,121.0,88.0,6.5,0,5,7,1,2026-07-16T12:53:17.412872+05:30
Amravati,Maharashtra,20.9374,77.7796,33.7,49,0.0,965.6,8.75,42.5,69,36.8,16.9,1.7,123.0,87.0,6.9,0,5,7,1,2026-07-16T12:53:17.412903+05:30
Latur,Maharashtra,18.4088,76.5604,31.0,55,0.0,939.4,2.5,37.4,54,19.3,8.5,0.7,115.0,69.0,1.5,0,5,3,1,2026-07-16T12:53:17.412912+05:30
Nanded,Maharashtra,19.1383,77.3091,32.6,53,0.0,967.5,8.75,36.4,63,30.3,13.9,0.9,126.0,85.0,2.9,0,5,7,1,2026-07-16T12:53:17.412919+05:30
Gulbarga,Karnataka,17.3297,76.8343,31.7,50,0.0,958.4,8.45,40.3,57,20.1,9.4,1.1,118.0,81.0,2.2,0,5,7,1,2026-07-16T12:53:17.412927+05:30
Bidar,Karnataka,17.9104,77.5199,30.9,54,0.0,935.1,8.2,38.5,59,37.1,14.9,1.1,124.0,87.0,2.7,0,5,7,1,2026-07-16T12:53:17.412934+05:30
Hospet,Karnataka,15.2689,76.3909,31.3,49,0.0,955.9,8.25,46.4,55,33.9,12.8,1.2,113.0,68.0,1.8,0,5,7,1,2026-07-16T12:53:17.412941+05:30
Tirupur,Tamil Nadu,11.1085,77.3411,34.6,39,0.0,975.2,8.2,59.0,70,34.0,17.1,1.5,154.0,104.0,2.7,0,5,7,1,2026-07-16T12:53:17.412947+05:30
Alappuzha,Kerala,9.4981,76.3388,29.2,74,0.0,1010.5,8.05,33.8,73,38.4,21.9,3.4,95.0,90.0,4.6,7,0,4,1,2026-07-16T12:53:17.412954+05:30
Munnar,Kerala,10.0889,77.0595,20.9,81,0.1,858.9,8.75,32.8,58,26.5,12.5,1.0,102.0,74.0,1.3,6,5,7,1,2026-07-16T12:53:17.412962+05:30
Silchar,Assam,24.8333,92.7789,33.9,63,0.0,999.2,8.15,45.0,60,27.2,13.8,1.0,160.0,95.0,2.7,3,5,7,1,2026-07-16T12:53:17.412970+05:30
Dibrugarh,Assam,27.4728,94.912,32.0,71,0.0,989.5,8.3,25.9,45,4.9,4.8,1.4,191.0,103.0,1.1,3,5,7,1,2026-07-16T12:53:17.412977+05:30
