city,state,latitude,longitude,temp,humidity,rain,pressure,uv_index,wind_gusts,aqi,pm10,pm2_5,mosquito_risk,arthritis_risk,migraine_risk,frizz_risk,updated_at
Delhi,Delhi,28.6139,77.209,34.4,26,0.0,988.2,6.15,23.8,176,243.1,54.6,0,5,7,0,2026-03-11T13:19:55.262686+05:30
Mumbai,Maharashtra,19.076,72.8777,27.7,87,0.0,1011.6,7.6,19.4,153,91.5,84.3,7,0,4,1,2026-03-11T13:19:55.262740+05:30
Bangalore,Karnataka,12.9716,77.5946,30.4,27,0.0,915.4,9.25,27.7,67,12.8,11.1,0,5,7,0,2026-03-11T13:19:55.262755+05:30
Hyderabad,Telangana,17.385,78.4867,34.8,17,0.0,957.9,8.6,22.0,94,28.1,20.0,0,5,7,0,2026-03-11T13:19:55.262765+05:30
Chennai,Tamil Nadu,13.0827,80.2707,32.5,48,0.0,1011.1,9.0,30.6,67,21.1,17.1,0,0,4,1,2026-03-11T13:19:55.262773+05:30
Kolkata,West Bengal,22.5726,88.3639,29.4,65,0.0,1009.2,6.85,21.6,146,67.8,56.6,7,0,4,1,2026-03-11T13:19:55.262781+05:30
Pune,Maharashtra,18.5204,73.8567,37.4,20,0.0,952.4,8.15,30.2,121,33.6,27.0,0,5,10,0,2026-03-11T13:19:55.262793+05:30
Ahmedabad,Gujarat,23.0225,72.5714,39.5,15,0.0,1006.3,7.4,26.3,69,20.5,17.9,0,5,7,0,2026-03-11T13:19:55.262799+05:30
Jaipur,Rajasthan,26.9124,75.7873,36.9,11,0.0,965.5,6.8,38.5,98,209.1,35.2,0,5,10,0,2026-03-11T13:19:55.262806+05:30
Lucknow,Uttar Pradesh,26.8467,80.9462,33.0,42,0.0,997.9,6.6,31.0,192,141.6,67.1,0,5,7,1,2026-03-11T13:19:55.262813+05:30
Kanpur,Uttar Pradesh,26.4499,80.3319,33.2,43,0.0,996.5,6.65,24.1,178,231.9,67.8,0,5,7,1,2026-03-11T13:19:55.262820+05:30
Chandigarh,Chandigarh,30.7333,76.7794,31.8,41,0.0,974.2,5.35,24.5,153,47.7,29.6,0,5,3,1,2026-03-11T13:19:55.262826+05:30
Srinagar,Jammu and Kashmir,34.0837,74.7973,9.7,93,1.0,847.3,4.1,28.1,127,34.6,22.7,6,10,3,0,2026-03-11T13:19:55.262833+05:30
Jammu,Jammu and Kashmir,32.7266,74.857,25.3,59,0.0,979.3,5.6,43.6,114,45.6,23.6,4,5,3,1,2026-03-11T13:19:55.262840+05:30
Amritsar,Punjab,31.634,74.8723,29.8,56,0.0,986.4,6.45,28.1,158,89.9,53.1,4,5,7,1,2026-03-11T13:19:55.262846+05:30
Ludhiana,Punjab,30.901,75.8573,32.1,39,0.0,984.1,6.3,15.5,177,99.4,68.7,0,5,7,1,2026-03-11T13:19:55.262852+05:30
Jalandhar,Punjab,31.326,75.5762,31.7,42,0.0,985.2,6.5,18.4,169,93.1,54.4,0,5,7,1,2026-03-11T13:19:55.262859+05:30
Dehradun,Uttarakhand,30.6284,78.0322,23.4,45,0.0,836.8,5.9,28.8,85,23.9,14.4,0,5,3,0,2026-03-11T13:19:55.262865+05:30
Shimla,Himachal Pradesh,31.1048,77.1734,20.7,42,0.0,791.8,5.85,45.0,113,20.3,13.3,0,5,3,0,2026-03-11T13:19:55.262871+05:30
Manali,Himachal Pradesh,32.2396,77.1887,20.3,28,0.0,826.8,6.7,42.5,55,24.6,9.5,0,5,7,0,2026-03-11T13:19:55.262876+05:30
Gurgaon,Haryana,28.4595,77.0266,34.4,31,0.0,986.7,6.15,23.4,331,828.9,96.4,0,5,7,0,2026-03-11T13:19:55.262881+05:30
Noida,Uttar Pradesh,28.5355,77.391,34.9,25,0.0,989.6,6.15,23.8,331,828.9,96.4,0,5,7,0,2026-03-11T13:19:55.262887+05:30
Ghaziabad,Uttar Pradesh,28.6692,77.4538,33.9,31,0.0,987.8,6.1,23.0,171,196.5,61.7,0,5,7,0,2026-03-11T13:19:55.262892+05:30
Faridabad,Haryana,28.4089,77.3178,34.4,31,0.0,988.9,6.15,22.0,331,828.9,96.4,0,5,7,0,2026-03-11T13:19:55.262898+05:30
Meerut,Uttar Pradesh,28.9845,77.7064,33.5,34,0.0,986.6,5.5,28.4,171,196.5,61.7,0,5,3,0,2026-03-11T13:19:55.262903+05:30
Agra,Uttar Pradesh,27.1767,78.0081,37.1,24,0.0,992.5,6.5,19.4,239,475.0,68.7,0,5,10,0,2026-03-11T13:19:55.262909+05:30
Varanasi,Uttar Pradesh,25.3176,82.9739,32.3,46,0.0,1001.9,7.3,23.0,192,159.3,108.0,0,5,4,1,2026-03-11T13:19:55.262918+05:30
Prayagraj,Uttar Pradesh,25.4358,81.8463,32.9,41,0.0,1000.6,7.15,23.0,191,151.8,96.6,0,5,4,1,2026-03-11T13:19:55.262925+05:30
Gorakhpur,Uttar Pradesh,26.7606,83.3732,30.1,66,0.0,1001.6,7.0,25.9,210,150.9,129.0,3,5,4,1,2026-03-11T13:19:55.262933+05:30
Bareilly,Uttar Pradesh,28.367,79.4304,32.6,42,0.0,991.4,6.35,32.4,209,140.6,98.7,0,5,7,1,2026-03-11T13:19:55.262938+05:30
Aligarh,Uttar Pradesh,27.8974,78.088,35.4,28,0.0,990.5,6.25,23.8,176,385.6,74.5,0,5,10,0,2026-03-11T13:19:55.262944+05:30
Moradabad,Uttar Pradesh,28.8386,78.7733,32.9,36,0.0,988.4,6.15,34.9,198,139.2,101.7,0,5,7,0,2026-03-11T13:19:55.262950+05:30
Saharanpur,Uttar Pradesh,29.9637,77.546,32.4,37,0.0,980.6,5.4,37.1,171,80.8,59.1,0,5,3,0,2026-03-11T13:19:55.262956+05:30
Jhansi,Uttar Pradesh,25.4484,78.5685,37.4,18,0.0,982.9,7.1,27.4,98,75.2,19.7,0,5,10,0,2026-03-11T13:19:58.523110+05:30
Surat,Gujarat,21.1702,72.8311,38.6,18,0.0,1009.8,7.3,25.9,113,45.8,41.7,0,0,7,0,2026-03-11T13:19:58.523142+05:30
Vadodara,Gujarat,22.3072,73.1812,41.1,15,0.0,1008.0,7.45,20.2,71,26.7,15.7,0,0,7,0,2026-03-11T13:19:58.523151+05:30
Rajkot,Gujarat,22.3039,70.8022,37.0,19,0.0,999.2,7.25,29.9,69,19.7,18.2,0,5,10,0,2026-03-11T13:19:58.523159+05:30
Thane,Maharashtra,19.2183,72.9781,34.0,47,0.0,1011.2,7.6,36.7,153,91.5,84.3,0,0,4,1,2026-03-11T13:19:58.523167+05:30
Nagpur,Maharashtra,21.1458,79.0882,36.6,22,0.0,977.4,8.0,11.9,83,53.0,24.6,0,5,10,0,2026-03-11T13:19:58.523174+05:30
Nashik,Maharashtra,19.9975,73.7898,36.2,19,0.0,950.1,7.75,25.6,75,32.7,26.3,0,5,10,0,2026-03-11T13:19:58.523182+05:30
Aurangabad,Maharashtra,19.8762,75.3433,35.2,23,0.0,948.7,8.3,18.4,91,39.2,31.0,0,5,10,0,2026-03-11T13:19:58.523189+05:30
Solapur,Maharashtra,17.6599,75.9064,34.1,28,0.0,961.6,8.5,20.5,121,36.3,28.9,0,5,7,0,2026-03-11T13:19:58.523197+05:30
Kolhapur,Maharashtra,16.705,74.2433,33.8,29,0.0,952.0,8.65,30.2,153,41.1,33.5,0,5,7,0,2026-03-11T13:19:58.523204+05:30
Goa,Goa,15.2993,74.124,32.4,59,0.0,1001.1,8.7,37.8,153,54.0,46.7,0,5,4,1,2026-03-11T13:19:58.523211+05:30
Jodhpur,Rajasthan,26.2389,73.0243,36.3,17,0.0,988.8,7.2,32.8,85,62.9,23.6,0,5,10,0,2026-03-11T13:19:58.523217+05:30
Udaipur,Rajasthan,24.5854,73.7125,35.9,15,0.0,952.8,7.8,26.3,53,21.0,10.3,0,5,10,0,2026-03-11T13:19:58.523224+05:30
Kota,Rajasthan,25.2138,75.8648,37.6,16,0.0,984.4,7.2,19.1,74,71.9,21.1,0,5,10,0,2026-03-11T13:19:58.523231+05:30
Bikaner,Rajasthan,28.0229,73.3119,34.9,16,0.0,987.5,6.2,29.9,69,16.4,11.8,0,5,7,0,2026-03-11T13:19:58.523278+05:30
Ajmer,Rajasthan,26.4499,74.6399,34.8,17,0.0,960.9,7.15,31.3,84,81.3,21.7,0,5,7,0,2026-03-11T13:19:58.523286+05:30
Gwalior,Madhya Pradesh,26.2183,78.1828,36.2,22,0.0,988.1,6.8,30.2,113,74.7,20.3,0,5,10,0,2026-03-11T13:19:58.523293+05:30
Indore,Madhya Pradesh,22.7196,75.8577,36.3,13,0.0,953.7,7.7,22.0,65,28.9,13.3,0,5,10,0,2026-03-11T13:19:58.523300+05:30
Bhopal,Madhya Pradesh,23.2599,77.4126,36.4,19,0.0,959.1,7.55,24.8,61,47.5,16.4,0,5,10,0,2026-03-11T13:19:58.523307+05:30
Jabalpur,Madhya Pradesh,23.1815,79.9864,34.9,23,0.0,966.6,7.7,24.8,84,88.0,25.8,0,5,7,0,2026-03-11T13:19:58.523314+05:30
Ujjain,Madhya Pradesh,23.1765,75.7885,35.3,17,0.0,959.4,7.65,15.1,76,26.3,11.7,0,5,10,0,2026-03-11T13:19:58.523322+05:30
Visakhapatnam,Andhra Pradesh,17.6868,83.2185,33.9,37,0.0,1006.8,8.6,38.5,102,33.4,28.3,0,5,4,1,2026-03-11T13:19:58.523329+05:30
Vijayawada,Andhra Pradesh,16.5062,80.648,33.8,35,0.0,1006.7,8.7,16.6,94,19.9,16.8,0,5,4,1,2026-03-11T13:19:58.523336+05:30
Guntur,Andhra Pradesh,16.3067,80.4365,33.9,36,0.0,1007.8,8.7,18.7,80,17.2,14.1,0,5,4,1,2026-03-11T13:19:58.523343+05:30
Nellore,Andhra Pradesh,14.4426,79.9865,34.3,42,0.0,1009.5,8.9,27.4,69,17.6,14.9,0,0,4,1,2026-03-11T13:19:58.523352+05:30
Kurnool,Andhra Pradesh,15.8281,78.0373,35.5,19,0.0,981.1,8.7,23.4,69,14.0,11.6,0,5,10,0,2026-03-11T13:19:58.523360+05:30
Kakinada,Andhra Pradesh,16.9891,82.2475,35.4,32,0.0,1010.7,8.65,20.5,92,27.8,24.4,0,0,7,1,2026-03-11T13:19:58.523366+05:30
Tirupati,Andhra Pradesh,13.6288,79.4192,33.6,33,0.0,995.2,9.0,32.8,83,17.5,15.3,0,5,7,0,2026-03-11T13:19:58.523373+05:30
Warangal,Telangana,17.9689,79.5941,34.0,26,0.0,983.2,8.45,23.4,100,17.9,13.8,0,5,7,0,2026-03-11T13:19:58.523380+05:30
Nizamabad,Telangana,18.6725,78.0941,35.4,26,0.0,969.3,8.35,24.5,124,49.4,39.1,0,5,10,0,2026-03-11T13:19:58.523386+05:30
Mysore,Karnataka,12.2958,76.6396,31.0,30,0.0,931.7,9.25,28.8,66,15.0,12.4,0,5,7,0,2026-03-11T13:19:58.523393+05:30
Mangalore,Karnataka,12.9141,74.856,28.4,81,0.0,1008.8,8.9,27.7,115,31.9,28.3,7,0,4,1,2026-03-11T13:19:58.523400+05:30
Hubli-Dharwad,Karnataka,15.3647,75.124,34.2,20,0.0,944.7,8.85,35.6,101,24.9,19.2,0,5,7,0,2026-03-11T13:19:58.523407+05:30
Belgaum,Karnataka,15.8497,74.4977,33.8,20,0.0,929.9,8.9,40.3,122,39.9,31.5,0,5,7,0,2026-03-11T13:20:14.772534+05:30
Coimbatore,Tamil Nadu,11.0168,76.9558,32.3,36,0.0,964.8,9.25,38.9,73,17.8,15.3,0,5,7,0,2026-03-11T13:20:14.772573+05:30
Madurai,Tamil Nadu,9.9252,78.1198,33.0,44,0.0,995.5,8.3,29.5,68,18.4,15.9,0,5,7,1,2026-03-11T13:20:14.772585+05:30
Trichy,Tamil Nadu,10.7905,78.7047,33.1,45,0.0,1002.6,9.15,28.1,67,19.6,17.6,0,5,4,1,2026-03-11T13:20:14.772597+05:30
Salem,Tamil Nadu,11.6643,78.146,32.8,37,0.0,980.5,9.15,25.2,74,20.1,17.4,0,5,7,1,2026-03-11T13:20:14.772608+05:30
Tirunelveli,Tamil Nadu,8.7139,77.7567,32.1,50,0.0,1006.1,6.2,25.9,58,11.8,10.5,0,5,4,1,2026-03-11T13:20:14.772618+05:30
Vellore,Tamil Nadu,12.9165,79.1325,32.3,41,0.0,988.3,9.1,33.1,92,19.2,17.0,0,5,7,1,2026-03-11T13:20:14.772629+05:30
Erode,Tamil Nadu,11.341,77.7172,33.8,33,0.0,992.1,9.15,20.5,78,22.6,19.8,0,5,7,0,2026-03-11T13:20:14.772640+05:30
Kochi,Kerala,9.9312,76.2673,28.5,73,0.0,1010.4,8.25,40.0,123,41.0,34.8,7,0,4,1,2026-03-11T13:20:14.772651+05:30
Thiruvananthapuram,Kerala,8.5241,76.9366,28.8,72,0.0,1009.3,7.3,29.2,70,16.6,15.1,7,0,4,1,2026-03-11T13:20:14.772662+05:30
Kozhikode,Kerala,11.2588,75.7804,29.4,70,0.0,1009.9,8.95,30.6,125,50.3,42.1,7,0,4,1,2026-03-11T13:20:14.772672+05:30
Thrissur,Kerala,10.5276,76.2144,37.6,30,0.0,1007.9,9.05,38.2,93,16.2,14.4,0,5,7,1,2026-03-11T13:20:14.772684+05:30
Kannur,Kerala,11.8745,75.3704,30.0,71,0.0,1009.7,8.95,36.7,138,45.5,38.8,7,0,4,1,2026-03-11T13:20:14.772695+05:30
Patna,Bihar,25.5941,85.1376,30.8,58,0.0,1004.4,6.85,24.1,195,147.6,129.5,0,5,4,1,2026-03-11T13:20:14.772705+05:30
Gaya,Bihar,24.7914,85.0002,30.2,63,0.0,997.7,7.5,21.2,171,104.3,91.5,3,5,7,1,2026-03-11T13:20:14.772715+05:30
Muzaffarpur,Bihar,26.1209,85.3647,30.9,57,0.0,1004.3,7.4,30.6,209,158.3,137.4,0,5,4,1,2026-03-11T13:20:14.772724+05:30
Bhagalpur,Bihar,25.2425,87.0117,30.0,61,0.0,1004.8,7.15,25.9,172,88.9,77.1,7,5,4,1,2026-03-11T13:20:14.772733+05:30
Ranchi,Jharkhand,23.3441,85.3096,31.0,39,0.0,941.1,8.15,29.9,170,106.4,83.8,0,5,7,0,2026-03-11T13:20:14.772742+05:30
Jamshedpur,Jharkhand,22.8046,86.2029,32.4,53,0.0,993.2,8.05,29.5,158,98.0,81.5,0,5,7,1,2026-03-11T13:20:14.772752+05:30
Dhanbad,Jharkhand,23.7957,86.4304,31.4,54,0.0,982.7,7.6,27.7,189,105.2,91.7,0,5,7,1,2026-03-11T13:20:14.772762+05:30
Bokaro,Jharkhand,23.6693,86.1511,31.2,52,0.0,986.7,7.75,40.7,191,125.7,110.4,0,5,7,1,2026-03-11T13:20:14.772771+05:30
Bhubaneswar,Odisha,20.2961,85.8245,33.2,56,0.0,1005.1,8.35,26.6,122,37.1,31.0,0,5,4,1,2026-03-11T13:20:14.772777+05:30
Cuttack,Odisha,20.4625,85.8828,34.6,49,0.0,1006.6,8.4,29.5,122,37.1,31.0,0,5,4,1,2026-03-11T13:20:14.772784+05:30
Rourkela,Odisha,22.2604,84.8536,34.6,33,0.0,987.6,7.95,27.4,163,104.5,77.3,0,5,7,0,2026-03-11T13:20:14.772790+05:30
Raipur,Chhattisgarh,21.2514,81.6296,36.5,24,0.0,978.3,8.05,24.8,153,102.2,68.5,0,5,10,0,2026-03-11T13:20:14.772796+05:30
Bhilai,Chhattisgarh,21.1938,81.3509,37.1,23,0.0,978.7,8.05,19.8,150,96.6,62.4,0,5,10,0,2026-03-11T13:20:14.772802+05:30
Guwahati,Assam,26.1158,91.7086,31.4,50,0.0,1003.5,7.35,23.8,155,69.8,60.8,0,5,4,1,2026-03-11T13:20:14.772807+05:30
Agartala,Tripura,23.8315,91.2868,31.2,54,0.0,1008.9,7.75,19.8,169,87.8,75.7,0,0,4,1,2026-03-11T13:20:14.772812+05:30
Shillong,Meghalaya,25.5788,91.8933,20.7,48,0.0,859.8,6.65,18.4,138,43.3,38.5,0,5,7,0,2026-03-11T13:20:14.772818+05:30
Imphal,Manipur,24.817,93.9368,24.4,50,0.0,925.5,7.95,36.4,154,53.7,46.2,0,5,7,0,2026-03-11T13:20:14.772824+05:30
Aizawl,Mizoram,23.7271,92.7176,25.1,50,0.0,896.0,7.9,28.8,178,89.6,78.7,4,5,7,0,2026-03-11T13:20:14.772831+05:30
Kohima,Nagaland,25.6701,94.1077,18.7,73,0.0,857.7,7.05,34.2,140,55.4,49.0,3,5,7,0,2026-03-11T13:20:14.772837+05:30
Gangtok,Sikkim,27.3314,88.6138,21.9,56,0.0,841.5,6.3,20.9,133,57.3,49.6,0,5,7,0,2026-03-11T13:20:14.772842+05:30
Siliguri,West Bengal,26.7271,88.3953,24.8,72,0.0,997.4,5.75,21.2,164,97.8,83.8,3,5,3,1,2026-03-11T13:20:18.032018+05:30
Durgapur,West Bengal,23.5204,87.3119,30.9,58,0.0,998.1,7.6,30.2,162,82.4,71.2,0,5,7,1,2026-03-11T13:20:18.032049+05:30
Asansol,West Bengal,23.6739,86.9524,30.1,60,0.0,996.8,7.85,22.3,168,83.4,70.8,0,5,7,1,2026-03-11T13:20:18.032059+05:30
Pondicherry,Puducherry,11.9139,79.8145,32.5,51,0.0,1011.7,9.0,31.7,59,21.2,16.4,0,0,4,1,2026-03-11T13:20:18.032068+05:30
Port Blair,Andaman and Nicobar Islands,11.6234,92.7265,28.3,78,0.0,1008.8,8.95,20.2,62,21.2,18.1,7,0,4,1,2026-03-11T13:20:18.032075+05:30
Haridwar,Uttarakhand,29.9457,78.1642,31.7,46,0.0,979.1,5.9,38.5,159,74.3,50.6,0,5,3,1,2026-03-11T13:20:18.032083+05:30
Rishikesh,Uttarakhand,30.0869,78.2676,31.3,46,0.0,971.9,5.9,34.2,155,60.1,37.5,0,5,3,1,2026-03-11T13:20:18.032091+05:30
Nainital,Uttarakhand,29.3919,79.4542,23.3,68,0.0,812.1,6.8,67.3,175,99.4,70.8,3,5,7,1,2026-03-11T13:20:18.032098+05:30
Mussoorie,Uttarakhand,30.4599,78.0664,23.1,51,0.0,809.6,5.6,40.7,152,45.5,29.9,0,5,3,0,2026-03-11T13:20:18.032106+05:30
Dharamshala,Himachal Pradesh,32.219,76.3234,24.7,36,0.0,875.5,5.5,25.9,62,42.6,19.7,0,5,3,0,2026-03-11T13:20:18.032113+05:30
Dalhousie,Himachal Pradesh,32.5387,75.971,23.1,26,0.0,810.8,4.75,19.8,96,19.4,14.7,0,5,3,0,2026-03-11T13:20:18.032119+05:30
Patiala,Punjab,30.3398,76.3869,32.5,39,0.0,983.5,5.3,17.6,171,76.6,54.6,0,5,3,1,2026-03-11T13:20:18.032125+05:30
Bhatinda,Punjab,30.211,74.9455,32.4,40,0.0,988.9,6.6,21.6,152,101.5,42.5,0,5,7,1,2026-03-11T13:20:18.032130+05:30
Rohtak,Haryana,28.8955,76.6066,34.0,33,0.0,987.0,6.1,25.6,175,285.9,49.2,0,5,7,0,2026-03-11T13:20:18.032136+05:30
Panipat,Haryana,29.3909,76.9635,33.4,34,0.0,985.6,5.35,22.7,189,299.9,53.6,0,5,3,0,2026-03-11T13:20:18.032141+05:30
Mathura,Uttar Pradesh,27.4924,77.6737,36.9,26,0.0,991.5,6.4,23.4,199,411.6,64.5,0,5,10,0,2026-03-11T13:20:18.032147+05:30
Vrindavan,Uttar Pradesh,27.5823,77.7027,36.3,27,0.0,992.1,6.4,24.1,199,411.6,64.5,0,5,10,0,2026-03-11T13:20:18.032152+05:30
Ayodhya,Uttar Pradesh,26.7922,82.1998,32.3,48,0.0,999.4,6.8,28.4,197,168.1,121.5,0,5,7,1,2026-03-11T13:20:18.032157+05:30
Ratlam,Madhya Pradesh,23.3315,75.0367,36.0,17,0.0,960.2,7.6,19.8,69,23.2,10.6,0,5,10,0,2026-03-11T13:20:18.032163+05:30
Sagar,Madhya Pradesh,23.8388,78.7378,36.1,15,0.0,955.7,7.55,25.2,69,72.4,19.4,0,5,10,0,2026-03-11T13:20:18.032168+05:30
Satna,Madhya Pradesh,24.6005,80.8322,35.8,21,0.0,976.1,7.55,34.2,151,78.5,27.4,0,5,10,0,2026-03-11T13:20:18.032174+05:30
Akola,Maharashtra,20.7002,77.0082,38.6,18,0.0,979.1,8.0,16.2,69,32.1,18.7,0,5,10,0,2026-03-11T13:20:18.032180+05:30
Amravati,Maharashtra,20.9374,77.7796,38.1,18,0.0,971.3,8.0,9.7,71,37.7,19.7,0,5,10,0,2026-03-11T13:20:18.032186+05:30
Latur,Maharashtra,18.4088,76.5604,34.0,28,0.0,944.5,8.45,24.1,111,29.3,23.1,0,5,7,0,2026-03-11T13:20:18.032192+05:30
Nanded,Maharashtra,19.1383,77.3091,36.8,25,0.0,973.0,8.25,18.0,125,46.8,38.5,0,5,10,0,2026-03-11T13:20:18.032197+05:30
Gulbarga,Karnataka,17.3297,76.8343,35.4,21,0.0,963.3,8.5,21.6,108,37.7,29.5,0,5,10,0,2026-03-11T13:20:18.032202+05:30
Bidar,Karnataka,17.9104,77.5199,34.1,23,0.0,940.3,8.5,22.7,110,41.4,32.1,0,5,7,0,2026-03-11T13:20:18.032207+05:30
Hospet,Karnataka,15.2689,76.3909,33.3,23,0.0,959.8,8.8,25.6,84,14.7,12.6,0,5,7,0,2026-03-11T13:20:18.032212+05:30
Tirupur,Tamil Nadu,11.1085,77.3411,33.3,35,0.0,978.4,9.3,31.0,87,24.0,21.3,0,5,7,0,2026-03-11T13:20:18.032217+05:30
Alappuzha,Kerala,9.4981,76.3388,28.3,76,0.0,1010.5,8.6,37.4,123,42.0,35.6,7,0,4,1,2026-03-11T13:20:18.032222+05:30
Munnar,Kerala,10.0889,77.0595,29.9,37,0.0,860.9,8.0,27.4,64,13.9,11.8,4,5,7,0,2026-03-11T13:20:18.032228+05:30
Silchar,Assam,24.8333,92.7789,31.0,56,0.0,1007.3,7.65,16.6,168,86.6,74.5,0,5,4,1,2026-03-11T13:20:18.032234+05:30
Dibrugarh,Assam,27.4728,94.912,28.7,60,0.0,997.9,7.45,21.6,163,86.1,76.8,4,5,7,1,2026-03-11T13:20:18.032263+05:30
