city,state,latitude,longitude,temp,humidity,rain,pressure,uv_index,wind_gusts,aqi,pm10,pm2_5,mosquito_risk,arthritis_risk,migraine_risk,frizz_risk,updated_at
Delhi,Delhi,28.6139,77.209,31.8,25,0.0,984.1,6.9,28.1,189,166.7,27.1,0,5,7,0,2026-04-06T13:18:41.981883+05:30
Mumbai,Maharashtra,19.076,72.8777,28.4,61,0.0,1010.8,7.95,21.6,67,41.2,25.3,7,0,4,1,2026-04-06T13:18:41.981949+05:30
Bangalore,Karnataka,12.9716,77.5946,34.0,28,0.0,913.4,9.65,33.1,82,20.1,16.9,0,5,7,0,2026-04-06T13:18:41.981966+05:30
Hyderabad,Telangana,17.385,78.4867,36.1,24,0.0,954.0,9.15,31.3,129,39.8,31.3,0,5,10,0,2026-04-06T13:18:41.981977+05:30
Chennai,Tamil Nadu,13.0827,80.2707,33.9,57,0.0,1007.2,8.7,30.6,64,34.3,28.5,0,5,4,1,2026-04-06T13:18:41.981986+05:30
Kolkata,West Bengal,22.5726,88.3639,31.2,64,0.0,1005.9,8.65,20.5,143,59.6,48.9,3,5,4,1,2026-04-06T13:18:41.981998+05:30
Pune,Maharashtra,18.5204,73.8567,31.4,35,0.0,950.4,8.55,33.8,63,20.1,14.0,0,5,7,0,2026-04-06T13:18:41.982009+05:30
Ahmedabad,Gujarat,23.0225,72.5714,35.1,26,0.0,1003.5,7.95,30.6,64,30.6,12.0,0,5,7,0,2026-04-06T13:18:41.982017+05:30
Jaipur,Rajasthan,26.9124,75.7873,31.2,25,0.0,961.2,7.55,30.2,109,167.2,24.4,0,5,7,0,2026-04-06T13:18:41.982025+05:30
Lucknow,Uttar Pradesh,26.8467,80.9462,33.2,23,0.0,993.9,7.45,34.6,94,120.6,25.9,0,5,7,0,2026-04-06T13:18:41.982033+05:30
Kanpur,Uttar Pradesh,26.4499,80.3319,32.0,31,0.0,992.8,7.45,33.1,118,330.6,43.0,0,5,7,0,2026-04-06T13:18:41.982040+05:30
Chandigarh,Chandigarh,30.7333,76.7794,30.9,28,0.0,969.6,6.9,17.3,70,33.5,15.7,0,5,7,0,2026-04-06T13:18:41.982048+05:30
Srinagar,Jammu and Kashmir,34.0837,74.7973,16.6,54,0.0,841.2,7.9,20.9,93,25.3,14.8,0,5,7,0,2026-04-06T13:18:41.982056+05:30
Jammu,Jammu and Kashmir,32.7266,74.857,29.4,33,0.0,973.4,7.55,27.0,82,29.9,12.4,4,5,7,0,2026-04-06T13:18:41.982063+05:30
Amritsar,Punjab,31.634,74.8723,29.9,30,0.0,981.3,7.5,13.3,114,24.1,15.7,4,5,7,0,2026-04-06T13:18:41.982070+05:30
Ludhiana,Punjab,30.901,75.8573,30.9,27,0.0,979.4,7.1,26.3,105,31.7,15.1,0,5,7,0,2026-04-06T13:18:41.982078+05:30
Jalandhar,Punjab,31.326,75.5762,30.0,29,0.0,980.7,7.25,18.0,89,34.9,14.5,4,5,7,0,2026-04-06T13:18:41.982087+05:30
Dehradun,Uttarakhand,30.6284,78.0322,18.2,50,0.0,830.8,6.65,27.0,43,15.1,6.6,0,5,7,0,2026-04-06T13:18:41.982094+05:30
Shimla,Himachal Pradesh,31.1048,77.1734,15.9,57,0.0,785.3,6.25,31.0,49,21.7,9.1,0,5,7,0,2026-04-06T13:18:41.982101+05:30
Manali,Himachal Pradesh,32.2396,77.1887,17.5,60,0.0,818.9,9.6,28.8,52,12.8,6.9,0,5,7,0,2026-04-06T13:18:41.982108+05:30
Gurgaon,Haryana,28.4595,77.0266,32.3,24,0.0,982.5,7.0,28.8,614,760.0,79.9,0,5,7,0,2026-04-06T13:18:41.982115+05:30
Noida,Uttar Pradesh,28.5355,77.391,32.2,24,0.0,985.6,6.95,28.4,614,760.0,79.9,0,5,7,0,2026-04-06T13:18:41.982121+05:30
Ghaziabad,Uttar Pradesh,28.6692,77.4538,31.3,29,0.0,983.8,6.9,22.7,132,131.3,25.3,0,5,7,0,2026-04-06T13:18:41.982128+05:30
Faridabad,Haryana,28.4089,77.3178,32.5,23,0.0,984.8,6.95,25.2,614,760.0,79.9,0,5,7,0,2026-04-06T13:18:41.982134+05:30
Meerut,Uttar Pradesh,28.9845,77.7064,30.9,28,0.0,982.8,6.8,26.3,132,131.3,25.3,0,5,7,0,2026-04-06T13:18:41.982140+05:30
Agra,Uttar Pradesh,27.1767,78.0081,32.6,26,0.0,989.4,7.3,24.8,301,556.9,56.8,0,5,7,0,2026-04-06T13:18:41.982147+05:30
Varanasi,Uttar Pradesh,25.3176,82.9739,33.2,32,0.0,997.8,7.7,30.2,85,73.3,22.9,0,5,7,0,2026-04-06T13:18:41.982157+05:30
Prayagraj,Uttar Pradesh,25.4358,81.8463,32.8,31,0.0,996.7,7.6,30.2,72,67.1,20.8,0,5,7,0,2026-04-06T13:18:41.982164+05:30
Gorakhpur,Uttar Pradesh,26.7606,83.3732,33.9,26,0.0,996.6,7.8,30.2,68,20.7,10.7,0,5,7,0,2026-04-06T13:18:41.982176+05:30
Bareilly,Uttar Pradesh,28.367,79.4304,32.0,26,0.0,987.7,7.15,31.3,84,112.2,25.8,0,5,7,0,2026-04-06T13:18:41.982183+05:30
Aligarh,Uttar Pradesh,27.8974,78.088,32.3,23,0.0,986.8,7.1,27.0,249,385.6,45.6,0,5,7,0,2026-04-06T13:18:41.982189+05:30
Moradabad,Uttar Pradesh,28.8386,78.7733,31.1,28,0.0,984.7,7.0,28.4,108,82.7,21.5,0,5,7,0,2026-04-06T13:18:41.982195+05:30
Saharanpur,Uttar Pradesh,29.9637,77.546,31.2,26,0.0,976.5,6.6,25.2,101,61.7,18.9,0,5,7,0,2026-04-06T13:18:41.982201+05:30
Jhansi,Uttar Pradesh,25.4484,78.5685,31.8,32,0.0,979.5,7.85,31.0,70,102.4,21.7,0,5,7,0,2026-04-06T13:18:45.276764+05:30
Surat,Gujarat,21.1702,72.8311,30.2,52,0.0,1009.3,7.7,32.0,79,43.5,29.2,0,0,4,1,2026-04-06T13:18:45.276797+05:30
Vadodara,Gujarat,22.3072,73.1812,34.1,33,0.0,1005.9,7.95,36.4,74,23.4,13.9,0,5,4,0,2026-04-06T13:18:45.276807+05:30
Rajkot,Gujarat,22.3039,70.8022,33.7,34,0.0,996.1,7.7,40.0,45,33.4,12.7,0,5,7,0,2026-04-06T13:18:45.276815+05:30
Thane,Maharashtra,19.2183,72.9781,30.9,49,0.0,1010.3,7.95,35.3,67,41.2,25.3,0,0,4,1,2026-04-06T13:18:45.276823+05:30
Nagpur,Maharashtra,21.1458,79.0882,33.0,30,0.0,973.6,8.7,21.2,64,23.7,15.3,0,5,7,0,2026-04-06T13:18:45.276830+05:30
Nashik,Maharashtra,19.9975,73.7898,29.7,43,0.0,947.5,8.2,33.5,54,26.0,11.8,4,5,7,0,2026-04-06T13:18:45.276837+05:30
Aurangabad,Maharashtra,19.8762,75.3433,32.3,29,0.0,945.7,8.9,29.9,50,22.8,14.5,0,5,7,0,2026-04-06T13:18:45.276843+05:30
Solapur,Maharashtra,17.6599,75.9064,34.8,19,0.0,958.7,9.0,33.1,52,29.8,11.9,0,5,7,0,2026-04-06T13:18:45.276851+05:30
Kolhapur,Maharashtra,16.705,74.2433,30.2,45,0.0,950.2,9.0,40.7,68,32.1,13.6,0,5,7,1,2026-04-06T13:18:45.276858+05:30
Goa,Goa,15.2993,74.124,31.8,55,0.0,1000.4,9.0,38.2,69,37.8,15.7,0,5,4,1,2026-04-06T13:18:45.276866+05:30
Jodhpur,Rajasthan,26.2389,73.0243,32.9,25,0.0,984.0,7.85,38.5,75,97.8,17.5,0,5,7,0,2026-04-06T13:18:45.276873+05:30
Udaipur,Rajasthan,24.5854,73.7125,30.7,23,0.0,948.0,8.4,36.4,44,26.8,8.1,0,5,7,0,2026-04-06T13:18:45.276880+05:30
Kota,Rajasthan,25.2138,75.8648,34.2,17,0.0,979.5,7.85,28.4,69,64.0,16.5,0,5,7,0,2026-04-06T13:18:45.276886+05:30
Bikaner,Rajasthan,28.0229,73.3119,31.6,26,0.0,982.9,7.65,26.6,38,62.9,14.3,0,5,7,0,2026-04-06T13:18:45.276892+05:30
Ajmer,Rajasthan,26.4499,74.6399,30.7,25,0.0,956.0,7.8,30.6,53,98.5,17.8,0,5,7,0,2026-04-06T13:18:45.276898+05:30
Gwalior,Madhya Pradesh,26.2183,78.1828,31.5,36,0.0,984.7,7.6,18.4,84,108.3,20.1,0,5,7,0,2026-04-06T13:18:45.276905+05:30
Indore,Madhya Pradesh,22.7196,75.8577,32.4,22,0.0,949.5,8.35,28.1,56,43.0,13.7,0,5,7,0,2026-04-06T13:18:45.276911+05:30
Bhopal,Madhya Pradesh,23.2599,77.4126,33.3,19,0.0,954.6,8.3,31.0,48,31.1,9.8,0,5,7,0,2026-04-06T13:18:45.276941+05:30
Jabalpur,Madhya Pradesh,23.1815,79.9864,32.2,30,0.0,962.1,8.2,24.8,57,20.1,9.2,0,5,7,0,2026-04-06T13:18:45.276948+05:30
Ujjain,Madhya Pradesh,23.1765,75.7885,32.6,23,0.0,955.2,8.2,28.1,46,30.7,10.0,0,5,7,0,2026-04-06T13:18:45.276955+05:30
Visakhapatnam,Andhra Pradesh,17.6868,83.2185,33.5,55,0.0,1003.9,9.1,38.5,115,32.2,25.7,0,5,4,1,2026-04-06T13:18:45.276962+05:30
Vijayawada,Andhra Pradesh,16.5062,80.648,34.8,51,0.0,1002.5,9.0,32.4,81,28.0,21.4,0,5,4,1,2026-04-06T13:18:45.276968+05:30
Guntur,Andhra Pradesh,16.3067,80.4365,35.2,47,0.0,1003.7,9.2,31.7,88,28.3,21.9,0,5,7,1,2026-04-06T13:18:45.276975+05:30
Nellore,Andhra Pradesh,14.4426,79.9865,36.6,42,0.0,1005.3,8.65,31.3,63,35.5,31.1,0,5,7,1,2026-04-06T13:18:45.276982+05:30
Kurnool,Andhra Pradesh,15.8281,78.0373,38.1,24,0.0,977.0,9.2,36.7,107,18.0,14.4,0,5,10,0,2026-04-06T13:18:45.276990+05:30
Kakinada,Andhra Pradesh,16.9891,82.2475,34.8,50,0.0,1007.5,8.45,31.0,61,20.3,13.9,0,5,4,1,2026-04-06T13:18:45.276997+05:30
Tirupati,Andhra Pradesh,13.6288,79.4192,34.7,52,0.0,991.3,8.15,22.7,84,45.1,38.4,0,5,7,1,2026-04-06T13:18:45.277003+05:30
Warangal,Telangana,17.9689,79.5941,34.9,41,0.0,978.9,9.05,29.5,152,54.8,40.7,0,5,7,1,2026-04-06T13:18:45.277010+05:30
Nizamabad,Telangana,18.6725,78.0941,34.4,30,0.0,965.8,8.95,27.7,86,27.7,16.7,0,5,7,0,2026-04-06T13:18:45.277016+05:30
Mysore,Karnataka,12.2958,76.6396,33.7,31,0.0,930.1,9.55,40.3,73,17.0,14.4,0,5,7,0,2026-04-06T13:18:45.277022+05:30
Mangalore,Karnataka,12.9141,74.856,28.9,73,0.0,1008.5,9.2,38.5,60,34.3,16.4,7,0,4,1,2026-04-06T13:18:45.277029+05:30
Hubli-Dharwad,Karnataka,15.3647,75.124,33.5,28,0.0,942.9,9.2,35.6,53,11.8,6.3,0,5,7,0,2026-04-06T13:18:45.277036+05:30
Belgaum,Karnataka,15.8497,74.4977,30.2,42,0.0,928.1,9.25,37.4,59,30.3,11.5,0,5,7,0,2026-04-06T13:18:48.575299+05:30
Coimbatore,Tamil Nadu,11.0168,76.9558,34.3,42,0.0,963.0,9.5,53.3,76,21.7,17.5,0,5,7,1,2026-04-06T13:18:48.575330+05:30
Madurai,Tamil Nadu,9.9252,78.1198,36.1,42,0.0,992.8,3.3,26.6,100,37.4,32.4,0,5,6,1,2026-04-06T13:18:48.575341+05:30
Trichy,Tamil Nadu,10.7905,78.7047,35.9,47,0.0,999.4,8.8,25.9,91,27.9,23.1,0,5,10,1,2026-04-06T13:18:48.575349+05:30
Salem,Tamil Nadu,11.6643,78.146,36.9,38,0.0,977.3,9.25,34.2,79,29.2,25.1,0,5,10,1,2026-04-06T13:18:48.575356+05:30
Tirunelveli,Tamil Nadu,8.7139,77.7567,37.7,36,0.0,1002.9,8.8,24.5,58,23.2,19.0,0,5,7,1,2026-04-06T13:18:48.575364+05:30
Vellore,Tamil Nadu,12.9165,79.1325,36.0,43,0.0,984.4,9.4,29.9,99,48.0,40.9,0,5,10,1,2026-04-06T13:18:48.575371+05:30
Erode,Tamil Nadu,11.341,77.7172,37.2,41,0.0,988.6,9.4,36.7,77,25.1,21.1,0,5,10,1,2026-04-06T13:18:48.575378+05:30
Kochi,Kerala,9.9312,76.2673,29.9,71,0.0,1009.8,9.2,37.1,69,28.8,17.3,7,0,4,1,2026-04-06T13:18:48.575384+05:30
Thiruvananthapuram,Kerala,8.5241,76.9366,29.0,81,0.0,1008.9,5.8,37.4,56,25.8,17.4,7,0,0,1,2026-04-06T13:18:48.575391+05:30
Kozhikode,Kerala,11.2588,75.7804,30.8,69,0.0,1009.1,9.15,38.2,59,39.8,18.4,3,0,4,1,2026-04-06T13:18:48.575397+05:30
Thrissur,Kerala,10.5276,76.2144,33.7,57,0.0,1008.1,9.2,40.7,72,26.7,16.3,0,0,4,1,2026-04-06T13:18:48.575405+05:30
Kannur,Kerala,11.8745,75.3704,32.0,60,0.0,1008.5,9.2,45.7,56,32.6,16.9,0,0,4,1,2026-04-06T13:18:48.575411+05:30
Patna,Bihar,25.5941,85.1376,33.0,32,0.0,999.9,6.6,30.2,66,29.7,15.3,0,5,7,0,2026-04-06T13:18:48.575418+05:30
Gaya,Bihar,24.7914,85.0002,30.9,46,0.0,993.8,6.15,30.2,66,18.2,12.1,0,5,7,1,2026-04-06T13:18:48.575424+05:30
Muzaffarpur,Bihar,26.1209,85.3647,34.1,30,0.0,999.5,7.45,26.3,69,34.7,16.2,0,5,7,0,2026-04-06T13:18:48.575430+05:30
Bhagalpur,Bihar,25.2425,87.0117,31.1,40,0.0,1001.1,7.65,38.9,57,31.4,20.1,0,5,4,0,2026-04-06T13:18:48.575437+05:30
Ranchi,Jharkhand,23.3441,85.3096,26.0,65,0.0,938.7,7.8,32.4,95,33.4,20.3,7,5,7,1,2026-04-06T13:18:48.575443+05:30
Jamshedpur,Jharkhand,22.8046,86.2029,31.2,58,0.0,990.7,8.65,24.1,128,44.0,34.1,0,5,7,1,2026-04-06T13:18:48.575449+05:30
Dhanbad,Jharkhand,23.7957,86.4304,31.2,41,0.0,979.6,7.85,24.8,124,49.7,33.1,0,5,7,1,2026-04-06T13:18:48.575456+05:30
Bokaro,Jharkhand,23.6693,86.1511,30.1,50,0.0,983.8,7.65,38.5,108,42.0,26.7,0,5,7,1,2026-04-06T13:18:48.575462+05:30
Bhubaneswar,Odisha,20.2961,85.8245,33.4,56,0.0,1002.4,8.95,26.6,76,28.2,25.1,0,5,4,1,2026-04-06T13:18:48.575469+05:30
Cuttack,Odisha,20.4625,85.8828,33.8,54,0.0,1004.1,8.95,31.7,76,28.2,25.1,0,5,4,1,2026-04-06T13:18:48.575475+05:30
Rourkela,Odisha,22.2604,84.8536,31.3,59,0.0,985.4,8.4,35.6,139,47.6,35.7,0,5,7,1,2026-04-06T13:18:48.575481+05:30
Raipur,Chhattisgarh,21.2514,81.6296,33.4,41,0.0,974.9,8.8,26.6,126,54.6,38.2,0,5,7,1,2026-04-06T13:18:48.575487+05:30
Bhilai,Chhattisgarh,21.1938,81.3509,33.4,42,0.0,975.2,8.75,25.6,138,46.0,30.7,0,5,7,1,2026-04-06T13:18:48.575493+05:30
Guwahati,Assam,26.1158,91.7086,31.3,61,0.0,999.6,8.25,41.4,84,25.4,19.8,3,5,7,1,2026-04-06T13:18:48.575499+05:30
Agartala,Tripura,23.8315,91.2868,33.0,51,0.0,1005.6,8.5,20.2,151,75.0,66.8,0,5,4,1,2026-04-06T13:18:48.575506+05:30
Shillong,Meghalaya,25.5788,91.8933,18.4,70,0.0,856.9,7.85,70.2,81,23.1,17.2,3,5,7,0,2026-04-06T13:18:48.575512+05:30
Imphal,Manipur,24.817,93.9368,24.9,51,0.0,923.8,8.85,50.4,138,24.7,17.2,0,5,7,0,2026-04-06T13:18:48.575519+05:30
Aizawl,Mizoram,23.7271,92.7176,27.9,40,0.0,894.6,8.75,31.0,138,38.0,30.2,4,5,7,0,2026-04-06T13:18:48.575525+05:30
Kohima,Nagaland,25.6701,94.1077,23.0,41,0.0,856.2,8.75,79.9,94,19.3,12.7,0,5,7,0,2026-04-06T13:18:48.575531+05:30
Gangtok,Sikkim,27.3314,88.6138,20.7,55,0.0,838.4,8.5,19.8,71,14.9,11.1,0,5,7,0,2026-04-06T13:18:48.575537+05:30
Siliguri,West Bengal,26.7271,88.3953,26.6,60,0.0,993.3,8.05,21.2,89,22.4,16.9,4,5,7,1,2026-04-06T13:18:51.876239+05:30
Durgapur,West Bengal,23.5204,87.3119,30.0,54,0.0,994.9,8.45,24.8,132,60.5,44.7,4,5,7,1,2026-04-06T13:18:51.876272+05:30
Asansol,West Bengal,23.6739,86.9524,30.0,50,0.0,993.4,7.6,23.4,120,55.5,39.0,4,5,7,1,2026-04-06T13:18:51.876285+05:30
Pondicherry,Puducherry,11.9139,79.8145,34.2,59,0.0,1008.0,8.75,25.9,71,36.4,32.0,0,0,4,1,2026-04-06T13:18:51.876293+05:30
Port Blair,Andaman and Nicobar Islands,11.6234,92.7265,29.6,64,0.0,1007.3,9.2,19.4,27,11.4,7.3,7,5,4,1,2026-04-06T13:18:51.876300+05:30
Haridwar,Uttarakhand,29.9457,78.1642,30.7,29,0.0,975.1,6.7,25.9,68,55.2,14.4,0,5,7,0,2026-04-06T13:18:51.876308+05:30
Rishikesh,Uttarakhand,30.0869,78.2676,29.6,32,0.0,967.8,6.8,28.4,53,34.8,10.5,4,5,7,0,2026-04-06T13:18:51.876315+05:30
Nainital,Uttarakhand,29.3919,79.4542,21.7,40,0.0,807.8,5.85,38.2,57,51.7,13.9,0,5,3,0,2026-04-06T13:18:51.876322+05:30
Mussoorie,Uttarakhand,30.4599,78.0664,19.6,43,0.0,804.0,6.45,29.5,61,30.2,10.4,0,5,7,0,2026-04-06T13:18:51.876329+05:30
Dharamshala,Himachal Pradesh,32.219,76.3234,18.9,71,0.0,869.6,7.45,24.8,77,14.8,7.3,3,5,7,0,2026-04-06T13:18:51.876336+05:30
Dalhousie,Himachal Pradesh,32.5387,75.971,18.6,51,0.0,804.7,6.95,20.5,62,18.5,8.7,0,5,7,0,2026-04-06T13:18:51.876344+05:30
Patiala,Punjab,30.3398,76.3869,31.3,25,0.0,978.9,6.75,23.4,114,202.1,31.3,0,5,7,0,2026-04-06T13:18:51.876351+05:30
Bhatinda,Punjab,30.211,74.9455,31.0,28,0.0,984.4,7.45,23.0,105,26.3,14.0,0,5,7,0,2026-04-06T13:18:51.876358+05:30
Rohtak,Haryana,28.8955,76.6066,32.0,24,0.0,982.8,6.95,23.4,351,227.7,31.0,0,5,7,0,2026-04-06T13:18:51.876365+05:30
Panipat,Haryana,29.3909,76.9635,31.6,24,0.0,981.3,6.75,26.6,447,465.7,48.4,0,5,7,0,2026-04-06T13:18:51.876371+05:30
Mathura,Uttar Pradesh,27.4924,77.6737,32.4,24,0.0,988.3,7.2,29.2,425,438.7,51.3,0,5,7,0,2026-04-06T13:18:51.876377+05:30
Vrindavan,Uttar Pradesh,27.5823,77.7027,32.2,25,0.0,988.4,7.2,28.4,425,438.7,51.3,0,5,7,0,2026-04-06T13:18:51.876383+05:30
Ayodhya,Uttar Pradesh,26.7922,82.1998,33.6,25,0.0,995.3,7.6,29.5,78,63.8,19.7,0,5,7,0,2026-04-06T13:18:51.876388+05:30
Ratlam,Madhya Pradesh,23.3315,75.0367,32.3,25,0.0,956.3,8.2,33.1,50,14.0,5.7,0,5,7,0,2026-04-06T13:18:51.876395+05:30
Sagar,Madhya Pradesh,23.8388,78.7378,30.4,34,0.0,951.3,8.3,19.1,49,31.0,8.6,0,5,7,0,2026-04-06T13:18:51.876401+05:30
Satna,Madhya Pradesh,24.6005,80.8322,31.7,28,0.0,972.4,8.2,28.4,58,60.3,14.3,0,5,7,0,2026-04-06T13:18:51.876407+05:30
Akola,Maharashtra,20.7002,77.0082,35.6,22,0.0,975.9,8.65,28.1,57,15.4,11.5,0,5,10,0,2026-04-06T13:18:51.876414+05:30
Amravati,Maharashtra,20.9374,77.7796,35.4,20,0.0,967.9,8.7,28.4,56,16.1,12.1,0,5,10,0,2026-04-06T13:18:51.876421+05:30
Latur,Maharashtra,18.4088,76.5604,32.5,28,0.0,941.4,9.0,28.8,63,25.4,10.2,0,5,7,0,2026-04-06T13:18:51.876428+05:30
Nanded,Maharashtra,19.1383,77.3091,34.9,26,0.0,969.8,8.85,23.4,63,23.9,13.4,0,5,7,0,2026-04-06T13:18:51.876435+05:30
Gulbarga,Karnataka,17.3297,76.8343,36.0,22,0.0,959.8,9.0,32.0,55,22.5,9.2,0,5,10,0,2026-04-06T13:18:51.876441+05:30
Bidar,Karnataka,17.9104,77.5199,34.1,26,0.0,936.9,9.05,28.1,77,27.9,16.2,0,5,7,0,2026-04-06T13:18:51.876447+05:30
Hospet,Karnataka,15.2689,76.3909,35.2,22,0.0,957.1,9.25,31.3,55,13.0,9.0,0,5,10,0,2026-04-06T13:18:51.876452+05:30
Tirupur,Tamil Nadu,11.1085,77.3411,36.3,38,0.0,975.6,9.2,45.4,80,24.7,20.3,0,5,10,1,2026-04-06T13:18:51.876458+05:30
Alappuzha,Kerala,9.4981,76.3388,29.6,75,0.0,1010.0,6.35,33.1,65,32.6,20.0,7,0,4,1,2026-04-06T13:18:51.876465+05:30
Munnar,Kerala,10.0889,77.0595,25.4,76,0.0,859.4,6.45,36.0,65,20.7,16.5,7,5,7,1,2026-04-06T13:18:51.876471+05:30
Silchar,Assam,24.8333,92.7789,30.7,61,0.0,1005.0,8.5,22.3,153,49.4,38.9,3,5,4,1,2026-04-06T13:18:51.876478+05:30
Dibrugarh,Assam,27.4728,94.912,26.7,71,0.0,994.3,8.3,38.2,103,33.5,26.1,7,5,7,1,2026-04-06T13:18:51.876484+05:30
