city,state,latitude,longitude,temp,humidity,rain,pressure,uv_index,wind_gusts,aqi,pm10,pm2_5,no2,co,o3,so2,mosquito_risk,arthritis_risk,migraine_risk,frizz_risk,updated_at
Delhi,Delhi,28.6139,77.209,27.0,71,0.0,980.0,7.8,23.0,392,325.0,124.3,70.4,1491.0,23.0,34.4,7,5,7,1,2026-06-17T01:13:07.261565+05:30
Mumbai,Maharashtra,19.076,72.8777,29.6,73,0.0,1008.2,7.65,45.4,59,37.8,15.6,5.8,148.0,45.0,4.4,7,0,4,1,2026-06-17T01:13:07.261620+05:30
Bangalore,Karnataka,12.9716,77.5946,22.7,80,0.0,911.6,9.15,45.4,78,48.3,36.9,53.1,463.0,14.0,18.1,3,5,7,1,2026-06-17T01:13:07.261635+05:30
Hyderabad,Telangana,17.385,78.4867,27.9,63,0.0,951.6,8.85,32.4,100,99.2,71.5,77.1,1373.0,4.0,21.9,7,5,7,1,2026-06-17T01:13:07.261646+05:30
Chennai,Tamil Nadu,13.0827,80.2707,30.0,83,0.0,1005.2,8.9,35.3,105,39.1,26.8,10.5,239.0,102.0,7.8,7,5,4,1,2026-06-17T01:13:07.261655+05:30
Kolkata,West Bengal,22.5726,88.3639,28.8,85,0.0,1003.1,9.0,35.3,114,48.5,41.3,13.1,346.0,66.0,7.5,7,5,4,1,2026-06-17T01:13:07.261664+05:30
Pune,Maharashtra,18.5204,73.8567,24.5,86,0.0,948.3,8.3,46.8,51,15.6,10.0,9.3,148.0,40.0,8.9,3,5,7,1,2026-06-17T01:13:07.261671+05:30
Ahmedabad,Gujarat,23.0225,72.5714,31.5,65,0.0,1000.7,8.05,43.9,63,29.5,15.5,6.2,165.0,55.0,5.2,3,5,4,1,2026-06-17T01:13:07.261680+05:30
Jaipur,Rajasthan,26.9124,75.7873,28.4,57,0.0,957.1,8.2,41.8,112,98.7,41.9,20.1,413.0,43.0,8.1,4,5,7,1,2026-06-17T01:13:07.261692+05:30
Lucknow,Uttar Pradesh,26.8467,80.9462,31.1,58,0.0,990.5,8.35,29.5,162,269.2,96.6,41.9,810.0,35.0,15.2,0,5,7,1,2026-06-17T01:13:07.261701+05:30
Kanpur,Uttar Pradesh,26.4499,80.3319,32.6,46,0.0,988.9,6.1,30.6,196,349.2,109.4,60.8,555.0,15.0,16.2,0,5,7,1,2026-06-17T01:13:07.261708+05:30
Chandigarh,Chandigarh,30.7333,76.7794,24.2,79,0.0,965.3,7.1,21.2,119,76.8,68.5,54.3,964.0,20.0,8.8,3,5,7,1,2026-06-17T01:13:07.261717+05:30
Srinagar,Jammu and Kashmir,34.0837,74.7973,16.4,96,0.0,840.1,8.65,25.6,90,49.1,44.9,34.9,963.0,6.0,0.0,3,10,7,0,2026-06-17T01:13:07.261726+05:30
Jammu,Jammu and Kashmir,32.7266,74.857,25.5,76,0.0,969.8,8.65,22.7,102,45.2,40.4,45.4,500.0,17.0,4.4,7,5,7,1,2026-06-17T01:13:07.261735+05:30
Amritsar,Punjab,31.634,74.8723,25.2,85,0.0,977.5,8.5,18.4,136,115.5,96.9,69.6,752.0,15.0,10.6,7,5,7,1,2026-06-17T01:13:07.261742+05:30
Ludhiana,Punjab,30.901,75.8573,26.5,90,0.0,975.3,8.05,15.5,158,80.8,69.2,39.3,876.0,53.0,10.9,7,5,7,1,2026-06-17T01:13:07.261748+05:30
Jalandhar,Punjab,31.326,75.5762,25.4,93,0.0,976.5,8.25,18.0,143,99.4,85.9,63.9,937.0,35.0,10.4,7,5,7,1,2026-06-17T01:13:07.261755+05:30
Dehradun,Uttarakhand,30.6284,78.0322,15.4,90,0.0,828.0,6.55,34.2,47,25.0,17.5,32.4,244.0,40.0,1.3,3,10,7,0,2026-06-17T01:13:07.261765+05:30
Shimla,Himachal Pradesh,31.1048,77.1734,11.6,85,0.0,780.7,7.4,31.3,63,33.2,30.9,28.7,347.0,38.0,0.0,3,10,7,0,2026-06-17T01:13:07.261774+05:30
Manali,Himachal Pradesh,32.2396,77.1887,14.0,74,0.0,816.0,9.3,40.3,47,7.5,5.5,60.4,362.0,62.0,0.0,3,5,7,0,2026-06-17T01:13:07.261781+05:30
Gurgaon,Haryana,28.4595,77.0266,26.8,72,0.0,978.4,7.9,18.7,540,907.1,162.1,61.0,1589.0,16.0,21.1,7,5,7,1,2026-06-17T01:13:07.261787+05:30
Noida,Uttar Pradesh,28.5355,77.391,26.9,67,0.0,981.4,7.85,18.0,540,907.1,162.1,61.0,1950.0,16.0,21.1,7,5,7,1,2026-06-17T01:13:07.261794+05:30
Ghaziabad,Uttar Pradesh,28.6692,77.4538,26.2,72,0.0,979.6,5.65,18.4,350,363.2,151.8,86.4,531.0,7.0,25.9,7,5,3,1,2026-06-17T01:13:07.261801+05:30
Faridabad,Haryana,28.4089,77.3178,27.5,68,0.0,980.8,7.85,21.2,540,907.1,162.1,61.0,1526.0,16.0,21.1,7,5,7,1,2026-06-17T01:13:07.261808+05:30
Meerut,Uttar Pradesh,28.9845,77.7064,26.1,74,0.0,978.6,6.45,22.0,350,363.2,151.8,86.4,714.0,7.0,25.9,7,5,7,1,2026-06-17T01:13:07.261817+05:30
Agra,Uttar Pradesh,27.1767,78.0081,31.1,44,0.0,985.1,8.15,28.1,581,1791.9,218.9,33.6,452.0,41.0,9.7,0,5,7,1,2026-06-17T01:13:07.261823+05:30
Varanasi,Uttar Pradesh,25.3176,82.9739,32.5,50,0.0,994.5,8.8,33.1,152,114.1,70.5,39.7,537.0,37.0,18.2,0,5,7,1,2026-06-17T01:13:07.261831+05:30
Prayagraj,Uttar Pradesh,25.4358,81.8463,33.1,46,0.0,992.9,8.7,27.0,155,173.7,94.5,59.8,722.0,13.0,21.4,0,5,7,1,2026-06-17T01:13:07.261839+05:30
Gorakhpur,Uttar Pradesh,26.7606,83.3732,29.1,77,0.0,994.2,8.7,35.3,155,80.3,54.6,28.6,842.0,50.0,11.3,7,5,7,1,2026-06-17T01:13:07.261853+05:30
Bareilly,Uttar Pradesh,28.367,79.4304,26.1,78,0.0,984.1,7.65,24.1,161,183.9,90.8,33.5,564.0,56.0,14.7,7,5,7,1,2026-06-17T01:13:07.261859+05:30
Aligarh,Uttar Pradesh,27.8974,78.088,27.0,70,0.0,982.8,7.45,23.4,434,375.3,100.4,64.6,599.0,15.0,14.9,7,5,7,1,2026-06-17T01:13:07.261866+05:30
Moradabad,Uttar Pradesh,28.8386,78.7733,25.8,80,0.0,980.9,7.45,26.3,175,215.6,128.1,69.9,834.0,14.0,18.8,7,5,7,1,2026-06-17T01:13:07.261873+05:30
Saharanpur,Uttar Pradesh,29.9637,77.546,26.2,77,0.0,972.6,7.0,20.5,162,156.5,95.7,46.8,565.0,58.0,22.7,7,5,7,1,2026-06-17T01:13:07.261880+05:30
Jhansi,Uttar Pradesh,25.4484,78.5685,30.1,56,0.0,975.5,7.75,35.3,83,35.2,21.3,10.4,224.0,52.0,2.6,0,5,7,1,2026-06-17T01:13:10.540038+05:30
Surat,Gujarat,21.1702,72.8311,29.4,80,0.0,1005.8,7.55,51.1,66,29.7,16.1,15.7,268.0,34.0,26.9,7,5,4,1,2026-06-17T01:13:10.540075+05:30
Vadodara,Gujarat,22.3072,73.1812,30.3,72,0.0,1002.8,8.0,52.2,64,26.3,16.5,18.5,154.0,25.0,18.3,3,5,4,1,2026-06-17T01:13:10.540085+05:30
Rajkot,Gujarat,22.3039,70.8022,29.2,73,0.0,993.0,7.55,46.1,58,29.3,12.8,4.4,106.0,44.0,4.4,7,5,7,1,2026-06-17T01:13:10.540094+05:30
Thane,Maharashtra,19.2183,72.9781,29.7,72,0.0,1007.5,7.65,41.0,59,37.8,15.6,5.8,162.0,45.0,4.4,7,5,4,1,2026-06-17T01:13:10.540101+05:30
Nagpur,Maharashtra,21.1458,79.0882,29.4,71,0.0,971.2,8.75,58.7,99,41.1,28.7,14.9,300.0,54.0,8.7,7,5,7,1,2026-06-17T01:13:10.540109+05:30
Nashik,Maharashtra,19.9975,73.7898,24.6,85,0.0,945.4,8.0,49.0,52,23.7,10.6,4.2,126.0,43.0,1.8,3,5,7,1,2026-06-17T01:13:10.540116+05:30
Aurangabad,Maharashtra,19.8762,75.3433,27.2,64,0.0,943.9,8.95,50.8,55,23.7,12.9,5.4,132.0,50.0,4.7,7,5,7,1,2026-06-17T01:13:10.540123+05:30
Solapur,Maharashtra,17.6599,75.9064,28.6,59,0.0,956.7,8.1,50.0,61,22.2,14.8,5.2,165.0,72.0,5.1,4,5,7,1,2026-06-17T01:13:10.540131+05:30
Kolhapur,Maharashtra,16.705,74.2433,23.7,91,0.0,948.1,8.15,51.1,51,19.1,11.0,6.4,141.0,40.0,3.0,3,5,7,1,2026-06-17T01:13:10.540139+05:30
Goa,Goa,15.2993,74.124,27.1,87,0.0,998.5,7.3,29.2,55,35.0,16.6,3.7,297.0,43.0,1.8,7,5,7,1,2026-06-17T01:13:10.540147+05:30
Jodhpur,Rajasthan,26.2389,73.0243,32.1,48,0.0,978.8,8.4,36.0,127,183.5,43.7,6.6,147.0,49.0,2.1,0,5,7,1,2026-06-17T01:13:10.540155+05:30
Udaipur,Rajasthan,24.5854,73.7125,28.3,65,0.0,945.1,8.8,33.5,64,45.4,21.0,7.8,152.0,53.0,3.0,7,5,7,1,2026-06-17T01:13:10.540162+05:30
Kota,Rajasthan,25.2138,75.8648,30.8,53,0.0,976.2,8.35,33.1,83,39.5,23.3,8.1,185.0,59.0,5.1,0,5,7,1,2026-06-17T01:13:10.540169+05:30
Bikaner,Rajasthan,28.0229,73.3119,28.7,78,0.0,978.5,8.45,58.3,143,114.6,34.7,4.2,242.0,56.0,2.2,7,5,7,1,2026-06-17T01:13:10.540176+05:30
Ajmer,Rajasthan,26.4499,74.6399,29.0,55,0.0,952.3,8.35,40.7,78,55.8,23.2,7.2,209.0,60.0,4.3,4,5,7,1,2026-06-17T01:13:10.540183+05:30
Gwalior,Madhya Pradesh,26.2183,78.1828,30.9,49,0.0,980.6,8.3,29.2,117,60.8,28.1,11.3,305.0,48.0,3.5,0,5,7,1,2026-06-17T01:13:10.540190+05:30
Indore,Madhya Pradesh,22.7196,75.8577,28.7,54,0.0,947.0,8.6,52.6,81,51.2,30.7,10.3,406.0,65.0,7.2,4,5,7,1,2026-06-17T01:13:10.540198+05:30
Bhopal,Madhya Pradesh,23.2599,77.4126,26.0,87,0.0,951.6,8.25,33.1,93,59.4,38.2,14.1,279.0,49.0,5.1,7,5,7,1,2026-06-17T01:13:10.540205+05:30
Jabalpur,Madhya Pradesh,23.1815,79.9864,28.1,69,0.0,959.6,8.85,51.8,86,45.2,27.8,9.5,220.0,72.0,3.8,7,5,7,1,2026-06-17T01:13:10.540212+05:30
Ujjain,Madhya Pradesh,23.1765,75.7885,29.5,49,0.0,952.5,8.55,45.7,76,51.3,30.7,5.6,316.0,71.0,6.8,4,5,7,1,2026-06-17T01:13:10.540220+05:30
Visakhapatnam,Andhra Pradesh,17.6868,83.2185,30.1,88,0.0,1000.4,8.75,41.4,153,65.2,46.0,38.5,666.0,66.0,46.8,3,5,4,1,2026-06-17T01:13:10.540227+05:30
Vijayawada,Andhra Pradesh,16.5062,80.648,31.0,69,0.0,999.5,8.85,27.0,159,101.7,75.0,26.4,1200.0,52.0,10.0,3,5,7,1,2026-06-17T01:13:10.540234+05:30
Guntur,Andhra Pradesh,16.3067,80.4365,30.4,64,0.0,1000.8,8.7,28.4,160,101.7,73.8,28.6,624.0,52.0,10.1,3,5,4,1,2026-06-17T01:13:10.540241+05:30
Nellore,Andhra Pradesh,14.4426,79.9865,29.9,66,0.0,1003.3,8.55,34.9,89,45.8,35.0,13.1,332.0,91.0,7.7,7,5,4,1,2026-06-17T01:13:10.540250+05:30
Kurnool,Andhra Pradesh,15.8281,78.0373,28.1,53,0.0,975.3,6.55,36.0,80,69.4,40.5,26.4,410.0,53.0,9.4,4,5,7,1,2026-06-17T01:13:10.540257+05:30
Kakinada,Andhra Pradesh,16.9891,82.2475,30.4,76,0.0,1004.0,8.8,31.3,123,63.1,38.0,5.3,992.0,104.0,4.7,3,5,4,1,2026-06-17T01:13:10.540264+05:30
Tirupati,Andhra Pradesh,13.6288,79.4192,27.5,76,0.0,989.5,7.75,37.4,93,57.2,41.1,35.1,400.0,37.0,7.2,7,5,7,1,2026-06-17T01:13:10.540271+05:30
Warangal,Telangana,17.9689,79.5941,28.7,66,0.0,976.2,8.95,33.8,155,110.4,81.3,49.0,639.0,14.0,11.3,7,5,7,1,2026-06-17T01:13:10.540278+05:30
Nizamabad,Telangana,18.6725,78.0941,28.4,64,0.0,963.0,8.95,34.6,92,106.4,68.2,46.4,454.0,18.0,8.8,7,5,7,1,2026-06-17T01:13:10.540285+05:30
Mysore,Karnataka,12.2958,76.6396,22.8,93,0.0,928.8,8.85,37.1,60,20.4,16.1,16.3,321.0,43.0,3.2,3,5,7,1,2026-06-17T01:13:10.540292+05:30
Mangalore,Karnataka,12.9141,74.856,26.4,95,0.1,1007.7,8.45,41.0,57,26.4,14.8,7.2,175.0,36.0,2.7,10,5,4,1,2026-06-17T01:13:10.540299+05:30
Hubli-Dharwad,Karnataka,15.3647,75.124,23.1,95,0.0,941.2,7.65,45.4,42,14.3,8.2,5.7,162.0,40.0,2.1,3,5,7,1,2026-06-17T01:13:10.540307+05:30
Belgaum,Karnataka,15.8497,74.4977,21.5,97,0.0,925.8,8.7,42.5,46,21.9,12.1,7.8,149.0,33.0,1.7,3,5,7,1,2026-06-17T01:13:13.786828+05:30
Coimbatore,Tamil Nadu,11.0168,76.9558,24.4,94,0.0,961.8,8.5,41.4,59,24.3,17.1,11.4,236.0,41.0,4.2,3,5,7,1,2026-06-17T01:13:13.786864+05:30
Madurai,Tamil Nadu,9.9252,78.1198,30.6,61,0.0,992.5,8.5,29.2,77,39.0,28.6,28.0,218.0,45.0,9.0,3,5,7,1,2026-06-17T01:13:13.786876+05:30
Trichy,Tamil Nadu,10.7905,78.7047,30.3,64,0.0,999.1,6.9,42.8,72,21.0,16.0,13.9,211.0,52.0,4.9,3,5,7,1,2026-06-17T01:13:13.786885+05:30
Salem,Tamil Nadu,11.6643,78.146,25.0,75,0.0,977.4,8.15,34.2,79,29.0,21.0,16.5,336.0,59.0,7.1,7,5,7,1,2026-06-17T01:13:13.786894+05:30
Tirunelveli,Tamil Nadu,8.7139,77.7567,29.5,65,0.0,1002.8,8.5,34.2,47,17.2,12.5,8.6,164.0,42.0,2.9,7,5,4,1,2026-06-17T01:13:13.786901+05:30
Vellore,Tamil Nadu,12.9165,79.1325,26.5,79,0.0,983.0,8.95,33.1,107,86.6,66.1,58.4,579.0,17.0,14.0,7,5,7,1,2026-06-17T01:13:13.786909+05:30
Erode,Tamil Nadu,11.341,77.7172,27.8,79,0.0,989.1,8.3,43.6,68,25.7,19.3,16.8,238.0,44.0,5.1,7,5,7,1,2026-06-17T01:13:13.786917+05:30
Kochi,Kerala,9.9312,76.2673,25.1,95,0.0,1010.2,8.1,35.6,57,37.6,25.0,20.0,315.0,20.0,5.7,7,0,4,1,2026-06-17T01:13:13.786925+05:30
Thiruvananthapuram,Kerala,8.5241,76.9366,24.4,99,0.0,1009.7,7.9,40.0,49,23.6,11.1,4.3,181.0,54.0,1.9,3,0,4,1,2026-06-17T01:13:13.786932+05:30
Kozhikode,Kerala,11.2588,75.7804,26.6,94,0.0,1008.5,8.45,37.1,53,27.9,12.8,2.4,165.0,53.0,1.4,7,0,4,1,2026-06-17T01:13:13.786939+05:30
Thrissur,Kerala,10.5276,76.2144,24.1,99,0.0,1008.6,7.9,35.3,59,31.4,20.1,12.1,283.0,29.0,3.9,3,0,4,1,2026-06-17T01:13:13.786947+05:30
Kannur,Kerala,11.8745,75.3704,27.4,87,0.0,1007.8,8.6,39.6,54,22.4,13.0,9.9,180.0,32.0,2.7,7,5,4,1,2026-06-17T01:13:13.786954+05:30
Patna,Bihar,25.5941,85.1376,30.5,75,0.0,997.0,8.85,27.4,161,146.7,98.0,46.2,522.0,40.0,21.1,3,5,7,1,2026-06-17T01:13:13.786961+05:30
Gaya,Bihar,24.7914,85.0002,30.5,66,0.0,990.5,8.95,33.1,155,123.4,79.2,37.5,442.0,28.0,10.3,3,5,7,1,2026-06-17T01:13:13.786968+05:30
Muzaffarpur,Bihar,26.1209,85.3647,29.6,76,0.0,997.0,8.85,37.1,159,120.6,88.5,31.9,807.0,59.0,18.9,7,5,7,1,2026-06-17T01:13:13.786974+05:30
Bhagalpur,Bihar,25.2425,87.0117,30.1,71,0.0,997.9,8.85,24.1,156,76.1,69.8,12.2,509.0,126.0,26.7,3,5,7,1,2026-06-17T01:13:13.786981+05:30
Ranchi,Jharkhand,23.3441,85.3096,25.5,66,0.0,935.2,9.0,28.1,148,127.1,74.5,33.2,316.0,48.0,9.2,7,5,7,1,2026-06-17T01:13:13.786987+05:30
Jamshedpur,Jharkhand,22.8046,86.2029,29.1,73,0.0,987.9,9.1,26.3,157,70.1,57.9,20.2,561.0,77.0,27.1,7,5,7,1,2026-06-17T01:13:13.786994+05:30
Dhanbad,Jharkhand,23.7957,86.4304,29.3,78,0.0,977.2,9.1,40.3,165,82.4,75.4,49.4,457.0,60.0,118.7,7,5,7,1,2026-06-17T01:13:13.787001+05:30
Bokaro,Jharkhand,23.6693,86.1511,27.9,83,0.0,980.7,9.1,37.4,166,129.9,90.6,57.7,1158.0,33.0,104.8,7,5,7,1,2026-06-17T01:13:13.787007+05:30
Bhubaneswar,Odisha,20.2961,85.8245,28.8,94,0.0,999.5,9.05,43.6,108,60.3,49.6,20.9,337.0,66.0,9.1,7,5,7,1,2026-06-17T01:13:13.787013+05:30
Cuttack,Odisha,20.4625,85.8828,28.9,94,0.0,1001.3,9.15,30.2,108,60.3,49.6,20.9,399.0,66.0,9.1,7,5,4,1,2026-06-17T01:13:13.787037+05:30
Rourkela,Odisha,22.2604,84.8536,29.0,81,0.0,982.4,8.7,34.2,149,55.2,45.5,7.5,289.0,118.0,16.8,7,5,7,1,2026-06-17T01:13:13.787044+05:30
Raipur,Chhattisgarh,21.2514,81.6296,30.5,54,0.0,972.6,8.9,28.4,145,78.5,58.6,51.9,371.0,31.0,66.8,0,5,7,1,2026-06-17T01:13:13.787051+05:30
Bhilai,Chhattisgarh,21.1938,81.3509,28.5,70,0.0,972.9,8.9,32.4,143,75.7,57.5,58.8,551.0,24.0,73.9,7,5,7,1,2026-06-17T01:13:13.787057+05:30
Guwahati,Assam,26.1158,91.7086,26.3,98,0.0,999.1,8.55,30.6,81,20.7,19.5,13.5,379.0,37.0,2.6,7,5,7,1,2026-06-17T01:13:13.787064+05:30
Agartala,Tripura,23.8315,91.2868,25.7,95,0.0,1004.6,8.05,28.1,87,19.8,18.0,12.2,232.0,49.0,2.8,7,5,4,1,2026-06-17T01:13:13.787071+05:30
Shillong,Meghalaya,25.5788,91.8933,19.4,97,0.0,856.1,6.9,20.2,72,14.8,12.7,4.8,266.0,95.0,3.0,3,10,7,1,2026-06-17T01:13:13.787078+05:30
Imphal,Manipur,24.817,93.9368,22.8,96,0.0,921.9,8.6,28.1,72,34.3,31.4,19.9,337.0,44.0,4.8,3,5,7,1,2026-06-17T01:13:13.787085+05:30
Aizawl,Mizoram,23.7271,92.7176,19.4,98,0.0,891.1,8.75,22.7,44,2.5,2.4,5.0,181.0,40.0,0.5,3,10,7,1,2026-06-17T01:13:13.787091+05:30
Kohima,Nagaland,25.6701,94.1077,19.9,91,0.0,854.3,7.4,22.3,61,14.8,12.4,7.2,262.0,56.0,1.1,3,10,7,1,2026-06-17T01:13:13.787098+05:30
Gangtok,Sikkim,27.3314,88.6138,16.3,95,0.3,836.4,8.45,38.5,68,11.2,10.2,10.4,561.0,115.0,2.3,6,10,7,0,2026-06-17T01:13:13.787105+05:30
Siliguri,West Bengal,26.7271,88.3953,25.3,98,0.0,990.8,8.8,23.0,100,33.9,27.6,10.7,638.0,105.0,2.9,7,5,7,1,2026-06-17T01:13:17.059693+05:30
Durgapur,West Bengal,23.5204,87.3119,28.3,91,0.0,992.2,8.85,34.6,163,68.9,63.8,32.5,468.0,60.0,40.5,7,5,7,1,2026-06-17T01:13:17.059731+05:30
Asansol,West Bengal,23.6739,86.9524,28.4,89,0.0,990.7,9.05,39.6,160,63.1,58.0,28.3,614.0,74.0,39.2,7,5,7,1,2026-06-17T01:13:17.059742+05:30
Pondicherry,Puducherry,11.9139,79.8145,29.2,81,0.0,1007.2,8.15,53.3,81,33.2,21.7,10.6,296.0,77.0,7.9,7,5,4,1,2026-06-17T01:13:17.059750+05:30
Port Blair,Andaman and Nicobar Islands,11.6234,92.7265,25.6,93,0.1,1008.2,8.75,40.7,25,7.7,4.5,0.3,90.0,41.0,0.3,10,0,4,1,2026-06-17T01:13:17.059758+05:30
Haridwar,Uttarakhand,29.9457,78.1642,25.4,89,0.0,971.1,7.0,23.8,151,169.5,96.9,43.7,545.0,64.0,21.0,7,5,7,1,2026-06-17T01:13:17.059766+05:30
Rishikesh,Uttarakhand,30.0869,78.2676,23.6,89,0.0,963.9,6.55,25.6,102,137.4,59.6,16.5,403.0,112.0,11.3,3,5,7,1,2026-06-17T01:13:17.059773+05:30
Nainital,Uttarakhand,29.3919,79.4542,15.0,90,0.0,803.7,5.75,29.5,93,104.8,52.3,19.9,385.0,81.0,6.4,3,10,3,0,2026-06-17T01:13:17.059781+05:30
Mussoorie,Uttarakhand,30.4599,78.0664,16.8,71,0.0,802.2,6.4,39.6,89,82.7,46.4,34.0,275.0,80.0,12.7,3,5,7,0,2026-06-17T01:13:17.059789+05:30
Dharamshala,Himachal Pradesh,32.219,76.3234,20.6,72,0.0,867.5,8.55,37.4,39,14.5,12.9,20.9,254.0,22.0,0.1,3,5,7,0,2026-06-17T01:13:17.059796+05:30
Dalhousie,Himachal Pradesh,32.5387,75.971,13.6,93,0.0,801.6,8.65,27.7,97,37.1,29.2,28.0,395.0,77.0,2.3,3,10,7,0,2026-06-17T01:13:17.059804+05:30
Patiala,Punjab,30.3398,76.3869,26.9,74,0.0,974.7,6.4,23.4,167,130.4,76.1,25.9,421.0,72.0,13.5,7,5,7,1,2026-06-17T01:13:17.059811+05:30
Bhatinda,Punjab,30.211,74.9455,27.4,78,0.0,980.6,8.35,23.0,150,124.8,66.6,37.6,316.0,47.0,9.1,7,5,7,1,2026-06-17T01:13:17.059817+05:30
Rohtak,Haryana,28.8955,76.6066,27.6,72,0.0,978.7,7.8,28.1,472,394.9,123.4,65.5,920.0,26.0,26.3,7,5,7,1,2026-06-17T01:13:17.059824+05:30
Panipat,Haryana,29.3909,76.9635,27.5,70,0.0,977.2,7.65,20.2,602,424.7,125.7,39.0,681.0,42.0,12.4,7,5,7,1,2026-06-17T01:13:17.059831+05:30
Mathura,Uttar Pradesh,27.4924,77.6737,27.7,62,0.0,983.8,8.1,23.0,378,1058.0,137.4,40.1,564.0,34.0,5.9,7,5,7,1,2026-06-17T01:13:17.059838+05:30
Vrindavan,Uttar Pradesh,27.5823,77.7027,28.4,55,0.0,984.2,8.1,25.2,378,1058.0,137.4,40.1,542.0,34.0,5.9,4,5,7,1,2026-06-17T01:13:17.059845+05:30
Ayodhya,Uttar Pradesh,26.7922,82.1998,28.1,73,0.0,992.3,8.45,30.6,157,143.9,70.3,23.1,455.0,64.0,12.4,7,5,7,1,2026-06-17T01:13:17.059851+05:30
Ratlam,Madhya Pradesh,23.3315,75.0367,28.3,65,0.0,953.9,8.5,43.9,73,49.0,29.4,6.4,223.0,62.0,7.7,7,5,7,1,2026-06-17T01:13:17.059858+05:30
Sagar,Madhya Pradesh,23.8388,78.7378,27.6,66,0.0,948.4,8.15,35.3,78,40.5,28.0,15.3,181.0,52.0,3.4,7,5,7,1,2026-06-17T01:13:17.059864+05:30
Satna,Madhya Pradesh,24.6005,80.8322,30.4,51,0.0,969.1,8.8,27.7,141,99.0,43.4,9.2,265.0,72.0,4.2,0,5,7,1,2026-06-17T01:13:17.059871+05:30
Akola,Maharashtra,20.7002,77.0082,30.8,55,0.0,973.9,8.8,51.8,73,44.5,28.1,19.1,236.0,40.0,5.6,0,5,7,1,2026-06-17T01:13:17.059878+05:30
Amravati,Maharashtra,20.9374,77.7796,27.8,76,0.0,965.7,8.8,49.3,80,46.1,28.5,21.6,313.0,34.0,5.5,7,5,7,1,2026-06-17T01:13:17.059886+05:30
Latur,Maharashtra,18.4088,76.5604,28.5,42,0.0,939.0,8.5,34.6,68,37.1,25.8,16.2,175.0,66.0,6.2,4,5,7,0,2026-06-17T01:13:17.059893+05:30
Nanded,Maharashtra,19.1383,77.3091,29.6,60,0.0,967.4,8.85,38.9,79,90.6,56.0,44.4,398.0,23.0,8.5,4,5,7,1,2026-06-17T01:13:17.059899+05:30
Gulbarga,Karnataka,17.3297,76.8343,28.6,39,0.0,957.6,8.1,37.4,71,50.6,33.2,43.3,243.0,28.0,6.3,4,5,7,0,2026-06-17T01:13:17.059905+05:30
Bidar,Karnataka,17.9104,77.5199,26.8,51,0.0,934.0,8.95,33.5,83,84.3,52.0,39.6,378.0,34.0,7.1,4,5,7,0,2026-06-17T01:13:17.059912+05:30
Hospet,Karnataka,15.2689,76.3909,25.5,83,0.0,956.1,8.6,44.3,56,12.6,9.1,6.0,164.0,47.0,2.1,7,5,7,1,2026-06-17T01:13:17.059918+05:30
Tirupur,Tamil Nadu,11.1085,77.3411,25.6,88,0.0,975.2,7.15,43.6,70,28.7,21.6,19.6,199.0,37.0,6.0,7,5,7,1,2026-06-17T01:13:17.059925+05:30
Alappuzha,Kerala,9.4981,76.3388,25.2,96,0.0,1010.3,5.8,33.5,56,40.2,20.1,10.7,97.0,43.0,3.8,7,0,0,1,2026-06-17T01:13:17.059931+05:30
Munnar,Kerala,10.0889,77.0595,18.0,100,0.0,857.5,8.15,28.8,43,15.3,12.2,11.5,256.0,25.0,2.3,3,10,7,1,2026-06-17T01:13:17.059938+05:30
Silchar,Assam,24.8333,92.7789,25.2,96,0.0,1003.9,8.9,24.8,98,29.4,24.1,6.0,226.0,104.0,4.4,7,5,4,1,2026-06-17T01:13:17.059944+05:30
Dibrugarh,Assam,27.4728,94.912,24.9,97,0.0,993.4,7.25,25.6,73,30.4,29.2,18.4,302.0,46.0,2.5,3,5,7,1,2026-06-17T01:13:17.059951+05:30
