city,state,latitude,longitude,temp,humidity,rain,pressure,uv_index,wind_gusts,aqi,pm10,pm2_5,no2,co,o3,so2,mosquito_risk,arthritis_risk,migraine_risk,frizz_risk,updated_at
Delhi,Delhi,28.6139,77.209,32.7,45,0.0,976.7,7.6,46.4,477,717.1,99.2,8.6,556.0,190.0,19.0,0,5,7,1,2026-05-03T17:15:55.477610+05:30
Mumbai,Maharashtra,19.076,72.8777,31.1,67,0.0,1004.9,7.85,39.6,71,41.2,19.7,6.7,230.0,91.0,16.6,3,5,4,1,2026-05-03T17:15:55.477650+05:30
Bangalore,Karnataka,12.9716,77.5946,32.3,31,0.0,909.4,7.85,29.2,82,47.0,18.1,5.2,320.0,140.0,4.1,0,5,7,0,2026-05-03T17:15:55.477667+05:30
Hyderabad,Telangana,17.385,78.4867,38.0,16,0.0,949.0,9.25,33.8,74,42.3,15.1,0.0,245.0,133.0,2.7,0,5,10,0,2026-05-03T17:15:55.477678+05:30
Chennai,Tamil Nadu,13.0827,80.2707,34.4,50,0.0,1001.4,8.65,52.2,145,38.1,27.9,5.2,271.0,178.0,7.8,0,5,4,1,2026-05-03T17:15:55.477687+05:30
Kolkata,West Bengal,22.5726,88.3639,25.5,86,0.0,1003.3,8.95,41.8,154,72.4,49.4,10.7,475.0,182.0,18.6,7,5,4,1,2026-05-03T17:15:55.477697+05:30
Pune,Maharashtra,18.5204,73.8567,34.4,24,0.0,945.2,8.5,48.6,62,57.5,15.3,1.8,182.0,114.0,2.3,0,5,7,0,2026-05-03T17:15:55.477705+05:30
Ahmedabad,Gujarat,23.0225,72.5714,38.8,30,0.0,993.6,8.1,46.8,63,54.6,13.1,2.1,175.0,127.0,2.7,0,5,10,1,2026-05-03T17:15:55.477719+05:30
Jaipur,Rajasthan,26.9124,75.7873,38.5,15,0.0,952.5,8.15,42.5,118,121.1,22.3,0.0,168.0,140.0,2.9,0,5,10,0,2026-05-03T17:15:55.477727+05:30
Lucknow,Uttar Pradesh,26.8467,80.9462,34.6,39,0.0,987.8,8.1,54.4,154,53.3,31.4,2.6,324.0,179.0,8.7,0,5,7,1,2026-05-03T17:15:55.477736+05:30
Kanpur,Uttar Pradesh,26.4499,80.3319,37.2,26,0.0,985.4,8.1,84.2,164,193.7,41.6,2.3,296.0,186.0,9.2,0,5,10,0,2026-05-03T17:15:55.477745+05:30
Chandigarh,Chandigarh,30.7333,76.7794,29.6,52,0.0,963.8,7.6,62.3,170,143.4,33.9,2.2,347.0,173.0,7.7,4,5,7,1,2026-05-03T17:15:55.477754+05:30
Srinagar,Jammu and Kashmir,34.0837,74.7973,16.0,74,0.0,840.1,8.75,46.1,84,29.4,14.6,4.8,281.0,122.0,2.6,3,5,7,0,2026-05-03T17:15:55.477763+05:30
Jammu,Jammu and Kashmir,32.7266,74.857,32.5,23,0.0,967.6,8.25,29.2,126,46.6,16.3,1.3,305.0,166.0,3.8,0,5,7,0,2026-05-03T17:15:55.477771+05:30
Amritsar,Punjab,31.634,74.8723,33.8,27,0.0,974.8,8.1,50.4,153,222.1,48.9,1.7,290.0,172.0,7.7,0,5,7,0,2026-05-03T17:15:55.477779+05:30
Ludhiana,Punjab,30.901,75.8573,25.5,62,0.0,973.9,7.85,50.0,163,339.9,55.2,3.6,419.0,165.0,8.2,7,5,7,1,2026-05-03T17:15:55.477787+05:30
Jalandhar,Punjab,31.326,75.5762,27.5,53,0.0,974.7,8.05,53.3,162,239.3,48.1,2.9,431.0,170.0,8.7,4,5,7,1,2026-05-03T17:15:55.477794+05:30
Dehradun,Uttarakhand,30.6284,78.0322,19.4,59,0.0,828.0,7.45,43.2,115,78.7,26.7,1.2,227.0,149.0,3.4,0,5,7,0,2026-05-03T17:15:55.477804+05:30
Shimla,Himachal Pradesh,31.1048,77.1734,18.2,38,0.0,782.5,7.65,43.6,128,70.1,21.8,0.6,186.0,167.0,9.4,0,5,7,0,2026-05-03T17:15:55.477812+05:30
Manali,Himachal Pradesh,32.2396,77.1887,13.4,75,0.0,815.6,9.7,40.7,136,21.0,9.5,2.8,174.0,154.0,0.8,3,5,7,0,2026-05-03T17:15:55.477821+05:30
Gurgaon,Haryana,28.4595,77.0266,33.4,39,0.0,975.0,7.7,33.5,1317,1188.4,132.2,6.3,493.0,166.0,11.4,0,5,7,1,2026-05-03T17:15:55.477829+05:30
Noida,Uttar Pradesh,28.5355,77.391,31.5,51,0.0,978.5,7.6,35.6,1317,1188.4,132.2,6.3,483.0,166.0,11.4,0,5,7,1,2026-05-03T17:15:55.477836+05:30
Ghaziabad,Uttar Pradesh,28.6692,77.4538,31.7,49,0.0,976.9,7.6,41.4,321,536.4,75.4,4.1,313.0,173.0,8.1,0,5,7,1,2026-05-03T17:15:55.477843+05:30
Faridabad,Haryana,28.4089,77.3178,31.8,49,0.0,977.6,7.65,44.6,1317,1188.4,132.2,6.3,477.0,166.0,11.4,0,5,7,1,2026-05-03T17:15:55.477850+05:30
Meerut,Uttar Pradesh,28.9845,77.7064,30.2,57,0.0,976.1,7.45,49.3,321,536.4,75.4,4.1,343.0,173.0,8.1,0,5,7,1,2026-05-03T17:15:55.477857+05:30
Agra,Uttar Pradesh,27.1767,78.0081,30.8,45,0.0,981.6,7.95,61.9,854,368.8,53.3,2.2,241.0,155.0,6.6,0,5,7,1,2026-05-03T17:15:55.477864+05:30
Varanasi,Uttar Pradesh,25.3176,82.9739,34.5,40,0.0,992.4,8.65,49.0,186,71.7,44.4,3.1,360.0,217.0,15.9,0,5,7,1,2026-05-03T17:15:55.477871+05:30
Prayagraj,Uttar Pradesh,25.4358,81.8463,36.2,31,0.0,989.9,8.5,65.2,185,59.8,38.3,2.8,296.0,210.0,12.1,0,5,10,1,2026-05-03T17:15:55.477881+05:30
Gorakhpur,Uttar Pradesh,26.7606,83.3732,31.1,49,0.0,993.3,7.95,37.8,152,64.3,32.6,2.4,318.0,175.0,2.9,0,5,7,1,2026-05-03T17:15:55.477888+05:30
Bareilly,Uttar Pradesh,28.367,79.4304,24.9,73,0.1,982.4,7.9,51.1,164,322.2,55.8,2.9,324.0,184.0,12.7,6,5,7,1,2026-05-03T17:15:55.477894+05:30
Aligarh,Uttar Pradesh,27.8974,78.088,30.6,49,0.0,979.9,7.75,50.8,731,694.8,85.0,3.4,254.0,161.0,10.4,0,5,7,1,2026-05-03T17:15:55.477902+05:30
Moradabad,Uttar Pradesh,28.8386,78.7733,28.0,60,0.0,979.1,7.7,46.8,168,200.2,46.1,4.6,310.0,176.0,14.3,4,5,7,1,2026-05-03T17:15:55.477909+05:30
Saharanpur,Uttar Pradesh,29.9637,77.546,29.7,57,0.0,970.5,7.3,46.8,160,151.8,39.9,5.7,354.0,154.0,8.9,4,5,7,1,2026-05-03T17:15:55.477916+05:30
Jhansi,Uttar Pradesh,25.4484,78.5685,38.0,20,0.0,971.2,8.4,37.1,114,95.7,27.0,1.9,153.0,161.0,21.0,0,5,10,0,2026-05-03T17:15:58.742138+05:30
Surat,Gujarat,21.1702,72.8311,31.8,62,0.0,1001.1,7.7,56.5,63,27.5,15.3,11.3,230.0,69.0,26.9,3,5,4,1,2026-05-03T17:15:58.742178+05:30
Vadodara,Gujarat,22.3072,73.1812,36.4,38,0.0,997.0,8.05,52.9,55,23.7,10.8,2.0,176.0,122.0,3.9,0,5,10,1,2026-05-03T17:15:58.742190+05:30
Rajkot,Gujarat,22.3039,70.8022,38.2,28,0.0,986.9,7.7,50.8,50,49.2,13.7,1.2,144.0,116.0,4.3,0,5,10,1,2026-05-03T17:15:58.742199+05:30
Thane,Maharashtra,19.2183,72.9781,32.8,53,0.0,1004.0,7.9,39.2,71,41.2,19.7,6.7,219.0,91.0,16.6,0,5,4,1,2026-05-03T17:15:58.742209+05:30
Nagpur,Maharashtra,21.1458,79.0882,39.7,14,0.0,967.1,8.9,39.2,95,76.6,20.5,4.0,154.0,131.0,11.9,0,5,10,0,2026-05-03T17:15:58.742219+05:30
Nashik,Maharashtra,19.9975,73.7898,33.8,22,0.0,942.2,8.15,49.3,64,43.4,13.8,1.0,145.0,110.0,3.6,0,5,7,0,2026-05-03T17:15:58.742228+05:30
Aurangabad,Maharashtra,19.8762,75.3433,37.4,13,0.0,939.8,9.05,50.0,57,55.8,14.7,1.0,156.0,120.0,2.3,0,5,10,0,2026-05-03T17:15:58.742236+05:30
Solapur,Maharashtra,17.6599,75.9064,39.5,10,0.0,952.3,9.1,41.4,57,56.5,13.6,0.7,143.0,120.0,1.3,0,5,10,0,2026-05-03T17:15:58.742245+05:30
Kolhapur,Maharashtra,16.705,74.2433,32.9,41,0.0,945.2,8.95,47.9,63,45.8,15.1,2.0,162.0,107.0,1.5,0,5,7,1,2026-05-03T17:15:58.742253+05:30
Goa,Goa,15.2993,74.124,33.4,53,0.0,995.1,8.9,37.8,68,49.8,15.4,0.7,145.0,78.0,0.9,0,5,7,1,2026-05-03T17:15:58.742262+05:30
Jodhpur,Rajasthan,26.2389,73.0243,34.2,30,0.0,975.7,8.3,57.2,125,214.2,30.2,1.1,165.0,135.0,3.2,0,5,7,0,2026-05-03T17:15:58.742270+05:30
Udaipur,Rajasthan,24.5854,73.7125,35.7,19,0.0,940.4,8.8,39.2,68,38.2,12.6,0.8,148.0,135.0,3.9,0,5,10,0,2026-05-03T17:15:58.742279+05:30
Kota,Rajasthan,25.2138,75.8648,40.2,14,0.0,970.8,8.35,52.2,76,108.0,23.6,1.4,149.0,134.0,3.8,0,5,10,0,2026-05-03T17:15:58.742287+05:30
Bikaner,Rajasthan,28.0229,73.3119,40.8,10,0.0,972.3,8.25,46.4,82,166.2,28.4,0.3,151.0,139.0,4.4,0,5,10,0,2026-05-03T17:15:58.742296+05:30
Ajmer,Rajasthan,26.4499,74.6399,38.3,12,0.0,947.5,8.3,55.4,81,63.6,16.2,0.6,153.0,136.0,2.8,0,5,10,0,2026-05-03T17:15:58.742304+05:30
Gwalior,Madhya Pradesh,26.2183,78.1828,39.4,16,0.0,975.9,8.15,37.1,104,100.1,24.7,0.7,148.0,142.0,4.7,0,5,10,0,2026-05-03T17:15:58.742312+05:30
Indore,Madhya Pradesh,22.7196,75.8577,37.3,14,0.0,942.7,8.7,44.3,59,28.1,9.6,1.2,165.0,132.0,2.9,0,5,10,0,2026-05-03T17:15:58.742320+05:30
Bhopal,Madhya Pradesh,23.2599,77.4126,38.8,14,0.0,947.4,8.65,34.6,68,91.5,19.4,0.4,164.0,125.0,2.5,0,5,10,0,2026-05-03T17:15:58.742328+05:30
Jabalpur,Madhya Pradesh,23.1815,79.9864,38.3,17,0.0,955.6,8.85,28.4,85,80.6,19.4,2.6,155.0,126.0,3.2,0,5,10,0,2026-05-03T17:15:58.742336+05:30
Ujjain,Madhya Pradesh,23.1765,75.7885,37.6,16,0.0,947.9,8.6,41.4,56,26.8,9.8,0.8,142.0,133.0,3.5,0,5,10,0,2026-05-03T17:15:58.742345+05:30
Visakhapatnam,Andhra Pradesh,17.6868,83.2185,31.1,78,0.0,999.0,9.15,47.5,65,29.3,23.0,13.2,332.0,93.0,10.7,3,5,7,1,2026-05-03T17:15:58.742354+05:30
Vijayawada,Andhra Pradesh,16.5062,80.648,36.5,40,0.0,996.1,9.15,33.5,155,41.8,27.4,6.2,281.0,173.0,9.0,0,5,10,1,2026-05-03T17:15:58.742362+05:30
Guntur,Andhra Pradesh,16.3067,80.4365,39.7,24,0.0,997.1,9.2,38.2,149,41.9,22.5,4.4,277.0,154.0,5.7,0,5,10,0,2026-05-03T17:15:58.742371+05:30
Nellore,Andhra Pradesh,14.4426,79.9865,36.1,44,0.0,999.3,9.2,43.6,138,40.7,24.1,2.2,267.0,172.0,4.3,0,5,10,1,2026-05-03T17:15:58.742380+05:30
Kurnool,Andhra Pradesh,15.8281,78.0373,40.5,15,0.0,971.2,9.15,41.4,82,42.8,15.1,0.5,159.0,136.0,4.0,0,5,10,0,2026-05-03T17:15:58.742389+05:30
Kakinada,Andhra Pradesh,16.9891,82.2475,34.5,60,0.0,1002.0,9.15,39.6,58,29.2,21.0,1.6,237.0,113.0,2.7,0,5,4,1,2026-05-03T17:15:58.742398+05:30
Tirupati,Andhra Pradesh,13.6288,79.4192,37.7,27,0.0,985.4,7.25,52.2,109,40.9,16.1,5.8,188.0,138.0,2.8,0,5,10,0,2026-05-03T17:15:58.742405+05:30
Warangal,Telangana,17.9689,79.5941,39.3,19,0.0,973.0,9.15,38.9,115,50.4,18.8,0.9,213.0,140.0,8.4,0,5,10,0,2026-05-03T17:15:58.742412+05:30
Nizamabad,Telangana,18.6725,78.0941,38.5,15,0.0,959.8,9.1,43.6,70,70.3,18.6,0.4,175.0,125.0,1.6,0,5,10,0,2026-05-03T17:15:58.742419+05:30
Mysore,Karnataka,12.2958,76.6396,33.7,26,0.0,926.0,8.95,33.8,67,50.9,18.3,5.1,195.0,128.0,1.9,0,5,7,0,2026-05-03T17:15:58.742426+05:30
Mangalore,Karnataka,12.9141,74.856,31.5,59,0.0,1004.2,9.0,44.6,68,62.2,17.4,1.2,142.0,77.0,1.0,0,5,4,1,2026-05-03T17:15:58.742433+05:30
Hubli-Dharwad,Karnataka,15.3647,75.124,33.1,34,0.0,938.4,9.15,44.3,58,54.2,17.1,2.0,175.0,120.0,1.4,0,5,7,0,2026-05-03T17:15:58.742440+05:30
Belgaum,Karnataka,15.8497,74.4977,30.5,48,0.0,924.0,9.15,46.8,60,40.4,14.0,1.6,155.0,97.0,1.4,0,5,7,1,2026-05-03T17:16:02.084469+05:30
Coimbatore,Tamil Nadu,11.0168,76.9558,31.8,53,0.0,958.7,9.25,49.0,66,22.5,13.4,2.7,208.0,109.0,2.0,0,5,7,1,2026-05-03T17:16:02.084503+05:30
Madurai,Tamil Nadu,9.9252,78.1198,33.1,47,0.1,989.3,8.9,58.7,126,30.4,21.8,3.6,301.0,162.0,2.3,3,5,7,1,2026-05-03T17:16:02.084516+05:30
Trichy,Tamil Nadu,10.7905,78.7047,38.5,29,0.0,994.4,9.2,45.0,101,31.5,23.4,3.8,227.0,162.0,3.0,0,5,10,1,2026-05-03T17:16:02.084531+05:30
Salem,Tamil Nadu,11.6643,78.146,37.5,26,0.0,972.8,9.25,36.4,140,30.4,20.1,3.1,172.0,180.0,9.7,0,5,10,0,2026-05-03T17:16:02.084541+05:30
Tirunelveli,Tamil Nadu,8.7139,77.7567,32.5,52,0.0,999.5,8.15,37.4,73,21.5,17.5,3.0,226.0,107.0,1.2,0,5,7,1,2026-05-03T17:16:02.084549+05:30
Vellore,Tamil Nadu,12.9165,79.1325,40.1,19,0.0,978.7,9.3,39.2,103,30.5,13.6,4.7,174.0,137.0,2.4,0,5,10,0,2026-05-03T17:16:02.084559+05:30
Erode,Tamil Nadu,11.341,77.7172,39.6,20,0.0,983.7,9.25,50.4,91,26.0,16.2,3.3,215.0,149.0,1.2,0,5,10,0,2026-05-03T17:16:02.084568+05:30
Kochi,Kerala,9.9312,76.2673,30.2,75,0.0,1005.9,9.05,35.6,95,36.4,20.7,2.0,155.0,101.0,1.4,3,5,4,1,2026-05-03T17:16:02.084576+05:30
Thiruvananthapuram,Kerala,8.5241,76.9366,30.0,72,0.0,1005.5,8.65,38.2,56,19.1,12.4,1.5,157.0,81.0,0.6,7,5,4,1,2026-05-03T17:16:02.084585+05:30
Kozhikode,Kerala,11.2588,75.7804,30.4,67,0.0,1005.0,9.0,42.8,65,57.2,18.7,0.5,141.0,76.0,0.5,3,5,4,1,2026-05-03T17:16:02.084593+05:30
Thrissur,Kerala,10.5276,76.2144,30.9,65,0.0,1004.3,8.75,34.6,93,34.2,17.8,1.3,144.0,91.0,1.1,3,5,4,1,2026-05-03T17:16:02.084603+05:30
Kannur,Kerala,11.8745,75.3704,31.9,59,0.0,1004.3,9.0,46.8,66,62.9,19.4,1.4,140.0,83.0,0.9,0,5,4,1,2026-05-03T17:16:02.084611+05:30
Patna,Bihar,25.5941,85.1376,30.0,63,0.0,996.7,8.55,41.8,166,82.7,64.0,6.0,380.0,200.0,7.2,7,5,7,1,2026-05-03T17:16:02.084619+05:30
Gaya,Bihar,24.7914,85.0002,32.2,51,0.0,989.5,8.7,38.2,200,81.3,54.8,3.6,378.0,211.0,14.6,0,5,7,1,2026-05-03T17:16:02.084627+05:30
Muzaffarpur,Bihar,26.1209,85.3647,27.9,71,0.0,997.5,8.7,41.4,137,67.1,49.6,6.5,391.0,171.0,5.3,7,5,7,1,2026-05-03T17:16:02.084635+05:30
Bhagalpur,Bihar,25.2425,87.0117,27.0,71,0.0,998.3,8.65,41.8,138,71.9,50.9,6.8,356.0,181.0,6.6,7,5,7,1,2026-05-03T17:16:02.084644+05:30
Ranchi,Jharkhand,23.3441,85.3096,30.6,35,0.0,934.1,9.25,29.2,122,53.4,18.9,2.4,195.0,146.0,6.5,0,5,7,0,2026-05-03T17:16:02.084652+05:30
Jamshedpur,Jharkhand,22.8046,86.2029,35.2,35,0.0,986.2,9.05,32.8,192,79.4,49.0,6.0,430.0,210.0,20.5,0,5,10,1,2026-05-03T17:16:02.084661+05:30
Dhanbad,Jharkhand,23.7957,86.4304,29.7,65,0.0,976.2,9.0,30.6,160,93.8,70.5,19.2,340.0,220.0,54.6,7,5,7,1,2026-05-03T17:16:02.084669+05:30
Bokaro,Jharkhand,23.6693,86.1511,28.9,68,0.0,980.0,9.0,28.4,193,99.9,74.7,19.1,442.0,266.0,69.9,7,5,7,1,2026-05-03T17:16:02.084678+05:30
Bhubaneswar,Odisha,20.2961,85.8245,30.5,70,0.0,998.7,9.1,33.5,101,37.3,23.5,4.7,242.0,132.0,5.7,3,5,7,1,2026-05-03T17:16:02.084686+05:30
Cuttack,Odisha,20.4625,85.8828,31.4,64,0.0,1000.5,9.15,31.7,101,37.3,23.5,4.7,300.0,132.0,5.7,3,5,4,1,2026-05-03T17:16:02.084695+05:30
Rourkela,Odisha,22.2604,84.8536,35.7,29,0.0,980.1,8.95,38.5,163,63.6,29.7,5.3,253.0,174.0,22.4,0,5,10,0,2026-05-03T17:16:02.084702+05:30
Raipur,Chhattisgarh,21.2514,81.6296,39.0,18,0.0,968.9,9.0,32.4,169,45.2,19.1,7.7,187.0,165.0,4.8,0,5,10,0,2026-05-03T17:16:02.084709+05:30
Bhilai,Chhattisgarh,21.1938,81.3509,38.5,18,0.0,969.2,9.0,34.6,132,46.0,17.4,7.2,289.0,146.0,4.0,0,5,10,0,2026-05-03T17:16:02.084716+05:30
Guwahati,Assam,26.1158,91.7086,25.4,75,0.0,1000.2,7.2,25.2,69,12.2,8.8,3.4,297.0,110.0,1.0,7,5,4,1,2026-05-03T17:16:02.084724+05:30
Agartala,Tripura,23.8315,91.2868,27.2,79,0.0,1004.3,8.7,35.3,62,16.1,13.2,8.2,195.0,95.0,2.2,7,5,4,1,2026-05-03T17:16:02.084731+05:30
Shillong,Meghalaya,25.5788,91.8933,17.7,82,0.0,855.4,6.5,24.1,68,11.9,8.6,3.2,273.0,115.0,1.1,3,10,7,0,2026-05-03T17:16:02.084738+05:30
Imphal,Manipur,24.817,93.9368,21.8,76,0.0,922.2,9.15,36.0,62,24.2,12.7,2.2,254.0,101.0,1.0,3,5,7,1,2026-05-03T17:16:02.084745+05:30
Aizawl,Mizoram,23.7271,92.7176,19.1,85,0.0,891.4,8.5,47.5,42,18.7,11.9,1.9,176.0,85.0,1.0,3,10,7,1,2026-05-03T17:16:02.084752+05:30
Kohima,Nagaland,25.6701,94.1077,17.1,93,0.0,853.7,4.25,24.8,48,12.0,8.6,3.2,243.0,100.0,0.5,3,10,3,0,2026-05-03T17:16:02.084759+05:30
Gangtok,Sikkim,27.3314,88.6138,15.9,89,0.0,835.3,7.95,43.2,88,7.8,6.8,3.7,261.0,128.0,1.1,3,10,7,0,2026-05-03T17:16:02.084767+05:30
Siliguri,West Bengal,26.7271,88.3953,23.8,85,0.0,991.5,8.15,28.1,104,13.2,10.6,5.4,471.0,134.0,1.6,3,5,7,1,2026-05-03T17:16:05.335071+05:30
Durgapur,West Bengal,23.5204,87.3119,30.7,63,0.0,991.5,8.9,29.9,149,73.6,57.0,17.2,328.0,167.0,41.3,3,5,7,1,2026-05-03T17:16:05.335142+05:30
Asansol,West Bengal,23.6739,86.9524,30.9,61,0.0,990.0,8.95,29.5,153,83.8,64.0,17.9,329.0,187.0,45.7,3,5,7,1,2026-05-03T17:16:05.335157+05:30
Pondicherry,Puducherry,11.9139,79.8145,32.2,75,0.0,1003.2,8.55,47.9,170,36.4,29.8,4.7,240.0,187.0,5.0,3,5,4,1,2026-05-03T17:16:05.335166+05:30
Port Blair,Andaman and Nicobar Islands,11.6234,92.7265,30.7,61,0.1,1005.4,8.9,25.6,28,5.7,4.0,0.6,156.0,58.0,0.4,6,5,4,1,2026-05-03T17:16:05.335174+05:30
Haridwar,Uttarakhand,29.9457,78.1642,29.5,53,0.0,969.2,7.35,41.4,161,160.2,39.5,3.4,304.0,160.0,7.9,4,5,7,1,2026-05-03T17:16:05.335182+05:30
Rishikesh,Uttarakhand,30.0869,78.2676,28.2,57,0.0,962.1,7.45,37.4,156,148.5,36.4,1.2,265.0,162.0,6.6,4,5,7,1,2026-05-03T17:16:05.335190+05:30
Nainital,Uttarakhand,29.3919,79.4542,17.3,60,0.0,803.3,8.4,40.0,152,165.8,39.6,1.3,244.0,162.0,4.3,0,5,7,0,2026-05-03T17:16:05.335198+05:30
Mussoorie,Uttarakhand,30.4599,78.0664,17.4,62,0.0,800.6,7.3,46.4,151,164.8,39.3,1.0,220.0,162.0,6.4,3,5,7,0,2026-05-03T17:16:05.335206+05:30
Dharamshala,Himachal Pradesh,32.219,76.3234,23.7,31,0.0,865.9,6.85,45.0,121,44.4,16.9,0.2,202.0,155.0,3.8,0,5,7,0,2026-05-03T17:16:05.335213+05:30
Dalhousie,Himachal Pradesh,32.5387,75.971,19.4,35,0.0,802.4,7.95,48.2,130,53.6,17.7,0.9,221.0,163.0,4.1,0,5,7,0,2026-05-03T17:16:05.335221+05:30
Patiala,Punjab,30.3398,76.3869,29.9,51,0.0,972.8,7.5,62.3,721,705.9,83.4,2.4,316.0,173.0,9.0,4,5,7,1,2026-05-03T17:16:05.335229+05:30
Bhatinda,Punjab,30.211,74.9455,27.5,56,0.0,978.6,8.15,56.5,226,821.4,107.8,3.7,252.0,162.0,12.7,4,5,7,1,2026-05-03T17:16:05.335236+05:30
Rohtak,Haryana,28.8955,76.6066,35.0,31,0.0,975.2,7.65,42.1,726,800.9,107.6,5.0,341.0,190.0,14.3,0,5,7,0,2026-05-03T17:16:05.335243+05:30
Panipat,Haryana,29.3909,76.9635,31.9,50,0.0,974.7,7.45,54.0,1156,1419.3,152.3,6.2,321.0,203.0,20.7,0,5,7,1,2026-05-03T17:16:05.335250+05:30
Mathura,Uttar Pradesh,27.4924,77.6737,33.2,39,0.0,980.6,7.9,57.6,861,530.9,68.2,5.0,269.0,152.0,5.7,0,5,7,1,2026-05-03T17:16:05.335257+05:30
Vrindavan,Uttar Pradesh,27.5823,77.7027,33.0,39,0.0,980.9,7.9,58.3,861,530.9,68.2,5.0,258.0,152.0,5.7,0,5,7,1,2026-05-03T17:16:05.335264+05:30
Ayodhya,Uttar Pradesh,26.7922,82.1998,32.8,44,0.0,990.5,8.25,45.7,151,50.4,35.3,2.1,311.0,181.0,5.1,0,5,7,1,2026-05-03T17:16:05.335271+05:30
Ratlam,Madhya Pradesh,23.3315,75.0367,36.7,20,0.0,949.0,8.5,47.9,65,19.8,8.7,0.6,155.0,137.0,3.9,0,5,10,0,2026-05-03T17:16:05.335278+05:30
Sagar,Madhya Pradesh,23.8388,78.7378,37.3,18,0.0,944.5,8.7,33.5,72,88.7,19.8,1.4,147.0,121.0,2.3,0,5,10,0,2026-05-03T17:16:05.335285+05:30
Satna,Madhya Pradesh,24.6005,80.8322,36.8,21,0.0,965.5,8.7,61.6,105,67.8,20.5,0.7,152.0,150.0,4.9,0,5,10,0,2026-05-03T17:16:05.335292+05:30
Akola,Maharashtra,20.7002,77.0082,39.5,13,0.0,968.9,8.85,42.1,58,57.4,13.9,1.3,132.0,127.0,7.4,0,5,10,0,2026-05-03T17:16:05.335300+05:30
Amravati,Maharashtra,20.9374,77.7796,39.2,14,0.0,961.5,8.85,41.4,60,69.2,15.8,1.7,136.0,124.0,6.1,0,5,10,0,2026-05-03T17:16:05.335308+05:30
Latur,Maharashtra,18.4088,76.5604,38.5,10,0.0,935.5,9.05,39.6,62,62.6,14.0,0.3,136.0,118.0,2.7,0,5,10,0,2026-05-03T17:16:05.335315+05:30
Nanded,Maharashtra,19.1383,77.3091,40.4,10,0.0,962.7,9.0,37.8,62,74.7,16.5,0.6,135.0,121.0,1.1,0,5,10,0,2026-05-03T17:16:05.335322+05:30
Gulbarga,Karnataka,17.3297,76.8343,39.8,11,0.0,953.5,9.1,42.1,64,71.2,16.8,0.4,150.0,128.0,2.0,0,5,10,0,2026-05-03T17:16:05.335329+05:30
Bidar,Karnataka,17.9104,77.5199,38.6,12,0.0,931.1,9.15,37.4,68,72.2,19.1,0.9,125.0,129.0,3.9,0,5,10,0,2026-05-03T17:16:05.335335+05:30
Hospet,Karnataka,15.2689,76.3909,37.2,23,0.0,951.5,9.2,37.8,58,59.8,17.9,0.4,170.0,130.0,1.6,0,5,10,0,2026-05-03T17:16:05.335342+05:30
Tirupur,Tamil Nadu,11.1085,77.3411,35.0,40,0.0,970.9,9.35,47.9,81,25.3,15.0,3.6,209.0,132.0,1.8,0,5,7,1,2026-05-03T17:16:05.335349+05:30
Alappuzha,Kerala,9.4981,76.3388,30.2,75,0.0,1006.2,9.0,34.2,83,34.8,20.3,2.3,128.0,89.0,1.9,3,5,4,1,2026-05-03T17:16:05.335355+05:30
Munnar,Kerala,10.0889,77.0595,20.0,91,0.0,855.8,9.3,28.4,69,25.6,17.7,2.7,189.0,105.0,1.2,3,5,7,1,2026-05-03T17:16:05.335363+05:30
Silchar,Assam,24.8333,92.7789,24.2,86,0.0,1004.4,8.35,28.1,54,27.5,15.8,4.2,236.0,99.0,3.4,3,5,4,1,2026-05-03T17:16:05.335370+05:30
Dibrugarh,Assam,27.4728,94.912,25.5,75,0.0,994.7,8.2,22.3,61,11.8,10.8,3.8,232.0,99.0,1.0,7,5,7,1,2026-05-03T17:16:05.335376+05:30
