city,state,latitude,longitude,temp,humidity,rain,pressure,uv_index,wind_gusts,aqi,pm10,pm2_5,no2,co,o3,so2,mosquito_risk,arthritis_risk,migraine_risk,frizz_risk,updated_at
Delhi,Delhi,28.6139,77.209,32.8,50,0.0,978.9,7.75,31.0,161,291.5,117.3,78.4,959.0,19.0,28.3,0,5,7,1,2026-06-27T01:22:18.123656+05:30
Mumbai,Maharashtra,19.076,72.8777,27.2,87,0.1,1006.7,6.8,36.0,61,22.2,12.7,11.5,375.0,40.0,7.7,10,5,4,1,2026-06-27T01:22:18.123700+05:30
Bangalore,Karnataka,12.9716,77.5946,21.0,90,0.0,910.5,9.1,39.6,31,10.7,8.4,16.8,356.0,41.0,5.3,3,5,7,1,2026-06-27T01:22:18.123732+05:30
Hyderabad,Telangana,17.385,78.4867,25.4,86,0.0,950.9,6.35,33.8,64,35.3,23.5,14.1,433.0,63.0,6.7,7,5,7,1,2026-06-27T01:22:18.123742+05:30
Chennai,Tamil Nadu,13.0827,80.2707,27.6,78,0.0,1004.7,8.0,42.8,64,24.6,17.9,13.4,253.0,72.0,7.9,7,5,4,1,2026-06-27T01:22:18.123751+05:30
Kolkata,West Bengal,22.5726,88.3639,27.6,92,0.0,1003.2,8.85,29.5,90,28.8,26.5,14.1,310.0,53.0,6.5,7,5,4,1,2026-06-27T01:22:18.123759+05:30
Pune,Maharashtra,18.5204,73.8567,23.6,89,0.0,946.3,7.95,39.2,44,12.8,9.3,13.2,167.0,33.0,9.2,3,5,7,1,2026-06-27T01:22:18.123766+05:30
Ahmedabad,Gujarat,23.0225,72.5714,31.6,55,0.0,998.6,8.05,34.2,69,51.2,25.0,8.7,168.0,56.0,4.3,0,5,7,1,2026-06-27T01:22:18.123773+05:30
Jaipur,Rajasthan,26.9124,75.7873,29.0,67,0.0,956.7,8.2,41.4,99,122.5,41.7,20.5,409.0,39.0,6.9,7,5,7,1,2026-06-27T01:22:18.123780+05:30
Lucknow,Uttar Pradesh,26.8467,80.9462,31.7,52,0.0,989.7,8.2,31.0,127,91.7,51.5,21.2,377.0,78.0,10.7,0,5,7,1,2026-06-27T01:22:18.123790+05:30
Kanpur,Uttar Pradesh,26.4499,80.3319,33.3,52,0.0,987.8,7.95,28.4,130,101.3,47.0,21.1,246.0,66.0,7.5,0,5,7,1,2026-06-27T01:22:18.123796+05:30
Chandigarh,Chandigarh,30.7333,76.7794,27.9,76,0.0,964.8,7.8,27.0,151,105.5,77.8,69.1,1237.0,9.0,9.9,7,5,7,1,2026-06-27T01:22:18.123805+05:30
Srinagar,Jammu and Kashmir,34.0837,74.7973,18.2,83,0.0,839.6,9.1,25.2,81,38.3,37.6,38.1,873.0,0.0,1.5,3,10,7,0,2026-06-27T01:22:18.123812+05:30
Jammu,Jammu and Kashmir,32.7266,74.857,29.0,68,0.0,969.1,8.65,31.0,138,126.2,74.7,55.3,541.0,57.0,11.0,7,5,7,1,2026-06-27T01:22:18.123818+05:30
Amritsar,Punjab,31.634,74.8723,28.9,83,0.0,976.5,8.5,15.8,152,99.0,76.1,38.7,829.0,52.0,7.7,7,5,7,1,2026-06-27T01:22:18.123825+05:30
Ludhiana,Punjab,30.901,75.8573,31.2,63,0.0,974.7,8.05,25.9,157,115.3,85.0,56.5,897.0,28.0,11.4,3,5,7,1,2026-06-27T01:22:18.123831+05:30
Jalandhar,Punjab,31.326,75.5762,30.2,65,0.0,975.7,8.25,24.8,151,128.5,96.6,62.8,975.0,24.0,10.4,3,5,7,1,2026-06-27T01:22:18.123836+05:30
Dehradun,Uttarakhand,30.6284,78.0322,17.1,97,0.0,828.8,7.9,27.0,76,42.4,26.3,35.7,221.0,33.0,0.9,3,10,7,1,2026-06-27T01:22:18.123842+05:30
Shimla,Himachal Pradesh,31.1048,77.1734,13.3,96,0.0,782.0,4.85,31.3,86,50.1,32.0,17.7,387.0,77.0,0.7,3,10,3,0,2026-06-27T01:22:18.123848+05:30
Manali,Himachal Pradesh,32.2396,77.1887,16.5,80,0.1,817.8,8.25,34.9,49,6.7,6.0,87.2,309.0,21.0,0.0,6,5,7,0,2026-06-27T01:22:18.123859+05:30
Gurgaon,Haryana,28.4595,77.0266,31.2,61,0.0,977.2,7.55,33.1,154,210.0,88.0,69.8,1181.0,11.0,20.4,3,5,7,1,2026-06-27T01:22:18.123865+05:30
Noida,Uttar Pradesh,28.5355,77.391,30.9,65,0.0,980.1,7.8,24.1,154,210.0,88.0,69.8,1606.0,11.0,20.4,3,5,7,1,2026-06-27T01:22:18.123871+05:30
Ghaziabad,Uttar Pradesh,28.6692,77.4538,30.9,69,0.0,978.4,7.75,27.0,159,211.4,108.0,61.4,1182.0,52.0,29.2,3,5,7,1,2026-06-27T01:22:18.123877+05:30
Faridabad,Haryana,28.4089,77.3178,31.6,54,0.0,979.5,7.8,31.3,154,210.0,88.0,69.8,1063.0,11.0,20.4,0,5,7,1,2026-06-27T01:22:18.123883+05:30
Meerut,Uttar Pradesh,28.9845,77.7064,32.3,49,0.0,977.3,7.55,34.9,159,211.4,108.0,61.4,630.0,52.0,29.2,0,5,7,1,2026-06-27T01:22:18.123890+05:30
Agra,Uttar Pradesh,27.1767,78.0081,32.1,55,0.0,983.7,8.1,36.0,149,107.6,62.2,62.3,469.0,9.0,15.0,0,5,7,1,2026-06-27T01:22:18.123896+05:30
Varanasi,Uttar Pradesh,25.3176,82.9739,32.2,67,0.0,993.9,7.9,33.8,96,32.4,29.0,13.0,431.0,89.0,6.8,3,5,7,1,2026-06-27T01:22:18.123902+05:30
Prayagraj,Uttar Pradesh,25.4358,81.8463,32.1,68,0.0,992.2,8.7,23.0,109,35.9,29.9,12.9,225.0,83.0,7.0,3,5,7,1,2026-06-27T01:22:18.123908+05:30
Gorakhpur,Uttar Pradesh,26.7606,83.3732,30.8,70,0.0,993.2,8.3,37.1,151,104.5,76.6,29.5,622.0,56.0,11.9,3,5,7,1,2026-06-27T01:22:18.123914+05:30
Bareilly,Uttar Pradesh,28.367,79.4304,32.4,49,0.0,982.5,8.1,26.6,153,121.1,81.0,50.9,505.0,51.0,18.8,0,5,7,1,2026-06-27T01:22:18.123923+05:30
Aligarh,Uttar Pradesh,27.8974,78.088,31.3,63,0.0,981.4,7.35,33.8,147,172.3,66.8,48.0,468.0,24.0,8.2,3,5,7,1,2026-06-27T01:22:18.123929+05:30
Moradabad,Uttar Pradesh,28.8386,78.7733,32.6,46,0.0,979.4,7.95,32.0,155,171.8,118.3,76.6,585.0,13.0,21.3,0,5,7,1,2026-06-27T01:22:18.123935+05:30
Saharanpur,Uttar Pradesh,29.9637,77.546,30.6,61,0.0,971.9,7.45,26.6,156,307.3,151.3,94.3,882.0,0.0,27.7,3,5,7,1,2026-06-27T01:22:18.123941+05:30
Jhansi,Uttar Pradesh,25.4484,78.5685,30.4,56,0.0,974.5,8.45,23.4,86,59.3,31.9,13.6,192.0,57.0,4.9,0,5,7,1,2026-06-27T01:22:21.418509+05:30
Surat,Gujarat,21.1702,72.8311,28.8,81,0.0,1004.4,7.6,40.0,85,39.9,22.9,17.1,274.0,33.0,28.8,7,5,4,1,2026-06-27T01:22:21.418544+05:30
Vadodara,Gujarat,22.3072,73.1812,30.1,72,0.0,1001.1,8.0,47.5,78,31.5,20.8,18.0,143.0,27.0,16.7,3,5,4,1,2026-06-27T01:22:21.418554+05:30
Rajkot,Gujarat,22.3039,70.8022,28.9,69,0.0,991.8,7.55,38.9,64,36.7,17.4,6.9,115.0,40.0,5.8,7,5,7,1,2026-06-27T01:22:21.418563+05:30
Thane,Maharashtra,19.2183,72.9781,26.5,93,0.1,1006.1,6.5,31.0,61,22.2,12.7,11.5,423.0,40.0,7.7,10,5,4,1,2026-06-27T01:22:21.418570+05:30
Nagpur,Maharashtra,21.1458,79.0882,26.2,96,0.0,970.5,8.85,37.1,80,28.5,25.5,22.6,354.0,44.0,15.9,7,5,7,1,2026-06-27T01:22:21.418578+05:30
Nashik,Maharashtra,19.9975,73.7898,23.3,96,0.0,943.6,7.9,38.9,52,19.1,12.7,11.6,151.0,40.0,8.9,3,5,7,1,2026-06-27T01:22:21.418585+05:30
Aurangabad,Maharashtra,19.8762,75.3433,24.8,83,0.0,941.9,7.3,28.8,61,25.8,16.0,8.2,145.0,51.0,5.6,3,5,7,1,2026-06-27T01:22:21.418592+05:30
Solapur,Maharashtra,17.6599,75.9064,27.5,70,0.0,955.1,1.6,33.8,57,28.9,17.9,11.2,201.0,46.0,4.2,7,5,3,1,2026-06-27T01:22:21.418600+05:30
Kolhapur,Maharashtra,16.705,74.2433,22.8,91,0.0,946.6,6.35,43.6,39,16.4,12.7,11.9,167.0,29.0,3.0,3,5,7,1,2026-06-27T01:22:21.418606+05:30
Goa,Goa,15.2993,74.124,24.9,99,0.0,997.2,7.4,29.2,49,21.8,15.1,8.7,333.0,39.0,2.3,3,5,7,1,2026-06-27T01:22:21.418613+05:30
Jodhpur,Rajasthan,26.2389,73.0243,30.3,69,0.0,979.3,8.45,29.2,98,115.9,34.7,12.0,193.0,43.0,2.6,3,5,7,1,2026-06-27T01:22:21.418620+05:30
Udaipur,Rajasthan,24.5854,73.7125,25.5,82,0.0,943.8,8.65,48.2,75,53.6,27.1,20.9,243.0,32.0,4.5,7,5,7,1,2026-06-27T01:22:21.418627+05:30
Kota,Rajasthan,25.2138,75.8648,29.1,69,0.0,975.6,8.3,25.9,91,41.7,26.1,9.7,241.0,60.0,4.5,7,5,7,1,2026-06-27T01:22:21.418635+05:30
Bikaner,Rajasthan,28.0229,73.3119,32.6,52,0.0,977.6,8.45,31.7,112,129.9,46.4,5.3,217.0,55.0,2.7,0,5,7,1,2026-06-27T01:22:21.418641+05:30
Ajmer,Rajasthan,26.4499,74.6399,28.4,66,0.0,951.7,8.35,36.7,87,43.1,24.6,8.7,169.0,54.0,3.8,7,5,7,1,2026-06-27T01:22:21.418647+05:30
Gwalior,Madhya Pradesh,26.2183,78.1828,31.2,53,0.0,979.7,7.65,30.2,73,38.0,22.7,8.4,173.0,59.0,2.6,0,5,7,1,2026-06-27T01:22:21.418654+05:30
Indore,Madhya Pradesh,22.7196,75.8577,25.1,86,0.0,945.3,8.6,28.4,97,42.3,31.2,20.8,515.0,39.0,6.4,7,5,7,1,2026-06-27T01:22:21.418661+05:30
Bhopal,Madhya Pradesh,23.2599,77.4126,25.8,89,0.0,950.8,8.65,20.2,88,39.3,31.3,10.9,366.0,61.0,4.4,7,5,7,1,2026-06-27T01:22:21.418668+05:30
Jabalpur,Madhya Pradesh,23.1815,79.9864,27.6,81,0.0,958.7,8.85,31.0,68,25.5,23.1,14.1,328.0,56.0,3.9,7,5,7,1,2026-06-27T01:22:21.418675+05:30
Ujjain,Madhya Pradesh,23.1765,75.7885,25.5,88,0.0,951.0,8.5,35.6,92,47.3,34.1,13.5,519.0,43.0,4.1,7,5,7,1,2026-06-27T01:22:21.418681+05:30
Visakhapatnam,Andhra Pradesh,17.6868,83.2185,27.8,98,0.0,999.4,6.45,33.8,90,38.6,33.6,41.3,577.0,51.0,52.9,7,5,7,1,2026-06-27T01:22:21.418688+05:30
Vijayawada,Andhra Pradesh,16.5062,80.648,26.9,89,0.2,999.2,8.35,36.4,77,37.5,34.5,18.6,435.0,51.0,6.7,10,5,7,1,2026-06-27T01:22:21.418695+05:30
Guntur,Andhra Pradesh,16.3067,80.4365,28.0,76,0.0,1000.4,7.7,37.1,75,31.8,27.8,16.5,429.0,57.0,6.8,7,5,4,1,2026-06-27T01:22:21.418702+05:30
Nellore,Andhra Pradesh,14.4426,79.9865,25.9,91,0.4,1004.1,8.1,34.6,54,20.3,14.7,8.8,137.0,61.0,3.8,10,5,4,1,2026-06-27T01:22:21.418728+05:30
Kurnool,Andhra Pradesh,15.8281,78.0373,27.6,79,0.0,974.5,8.05,39.6,54,33.9,21.8,17.0,177.0,46.0,6.8,7,5,7,1,2026-06-27T01:22:21.418736+05:30
Kakinada,Andhra Pradesh,16.9891,82.2475,28.0,89,0.0,1003.3,6.95,36.7,66,29.0,26.0,10.5,600.0,81.0,6.6,7,5,4,1,2026-06-27T01:22:21.418743+05:30
Tirupati,Andhra Pradesh,13.6288,79.4192,25.4,87,0.1,989.3,8.35,35.6,51,14.8,12.6,25.6,221.0,15.0,2.6,10,5,7,1,2026-06-27T01:22:21.418750+05:30
Warangal,Telangana,17.9689,79.5941,26.9,80,0.0,975.5,6.7,35.6,73,32.0,26.1,14.1,371.0,52.0,4.6,7,5,7,1,2026-06-27T01:22:21.418756+05:30
Nizamabad,Telangana,18.6725,78.0941,26.0,91,0.0,962.1,7.25,38.9,72,27.5,21.0,9.3,272.0,63.0,2.6,7,5,7,1,2026-06-27T01:22:21.418762+05:30
Mysore,Karnataka,12.2958,76.6396,21.3,95,0.0,927.7,9.0,42.8,26,10.5,7.7,9.5,157.0,41.0,2.6,3,5,7,1,2026-06-27T01:22:21.418769+05:30
Mangalore,Karnataka,12.9141,74.856,24.3,100,0.0,1007.0,8.65,37.4,42,18.1,12.0,8.7,284.0,36.0,3.3,3,5,4,1,2026-06-27T01:22:21.418775+05:30
Hubli-Dharwad,Karnataka,15.3647,75.124,22.5,94,0.0,939.6,8.4,43.2,23,6.5,4.5,5.9,126.0,38.0,1.6,3,5,7,1,2026-06-27T01:22:21.418782+05:30
Belgaum,Karnataka,15.8497,74.4977,21.8,95,0.0,924.4,8.5,40.3,29,15.2,10.9,9.2,111.0,31.0,1.8,3,5,7,1,2026-06-27T01:22:24.703505+05:30
Coimbatore,Tamil Nadu,11.0168,76.9558,23.5,93,0.0,960.8,8.85,43.6,32,11.8,8.9,9.4,221.0,32.0,3.6,3,5,7,1,2026-06-27T01:22:24.703541+05:30
Madurai,Tamil Nadu,9.9252,78.1198,29.4,58,0.0,991.8,8.6,37.4,70,39.1,35.7,43.1,234.0,2.0,10.9,4,5,7,1,2026-06-27T01:22:24.703552+05:30
Trichy,Tamil Nadu,10.7905,78.7047,28.4,64,0.0,998.3,8.6,40.7,45,15.3,12.1,15.6,138.0,29.0,4.6,7,5,7,1,2026-06-27T01:22:24.703561+05:30
Salem,Tamil Nadu,11.6643,78.146,25.9,80,0.0,976.3,8.85,25.6,60,18.3,15.3,20.6,492.0,34.0,7.1,7,5,7,1,2026-06-27T01:22:24.703569+05:30
Tirunelveli,Tamil Nadu,8.7139,77.7567,28.4,65,0.0,1002.0,7.95,50.4,27,11.1,9.2,8.5,160.0,38.0,2.6,7,5,4,1,2026-06-27T01:22:24.703576+05:30
Vellore,Tamil Nadu,12.9165,79.1325,26.6,72,0.0,982.4,8.9,37.1,49,16.2,14.2,20.5,311.0,28.0,4.5,7,5,7,1,2026-06-27T01:22:24.703585+05:30
Erode,Tamil Nadu,11.341,77.7172,26.7,75,0.0,988.1,8.8,46.8,51,16.7,13.7,17.1,182.0,28.0,4.0,7,5,7,1,2026-06-27T01:22:24.703592+05:30
Kochi,Kerala,9.9312,76.2673,26.0,93,0.0,1008.8,8.55,38.2,48,21.0,16.9,19.7,318.0,19.0,5.1,7,0,4,1,2026-06-27T01:22:24.703600+05:30
Thiruvananthapuram,Kerala,8.5241,76.9366,24.8,95,0.0,1008.1,7.5,42.5,31,12.6,7.6,3.2,242.0,51.0,1.7,3,0,4,1,2026-06-27T01:22:24.703607+05:30
Kozhikode,Kerala,11.2588,75.7804,24.9,97,0.0,1008.3,8.5,38.9,27,14.0,6.9,1.7,339.0,56.0,1.0,3,0,4,1,2026-06-27T01:22:24.703613+05:30
Thrissur,Kerala,10.5276,76.2144,24.5,100,0.0,1007.3,8.55,37.1,50,17.6,15.1,15.3,609.0,20.0,4.3,3,5,4,1,2026-06-27T01:22:24.703621+05:30
Kannur,Kerala,11.8745,75.3704,24.5,100,0.0,1007.8,8.65,36.4,34,17.2,11.8,11.9,401.0,28.0,2.7,3,5,4,1,2026-06-27T01:22:24.703628+05:30
Patna,Bihar,25.5941,85.1376,30.8,76,0.0,996.8,8.75,25.6,139,63.1,56.1,15.8,626.0,104.0,16.9,3,5,7,1,2026-06-27T01:22:24.703634+05:30
Gaya,Bihar,24.7914,85.0002,29.9,73,0.0,990.2,8.9,28.1,92,40.6,38.5,17.9,250.0,80.0,13.7,7,5,7,1,2026-06-27T01:22:24.703641+05:30
Muzaffarpur,Bihar,26.1209,85.3647,29.3,81,0.0,996.9,8.9,26.3,153,66.4,59.5,15.9,1072.0,105.0,15.8,7,5,7,1,2026-06-27T01:22:24.703648+05:30
Bhagalpur,Bihar,25.2425,87.0117,28.8,87,0.0,997.8,8.65,22.7,106,43.7,42.8,14.5,427.0,109.0,29.7,7,5,7,1,2026-06-27T01:22:24.703655+05:30
Ranchi,Jharkhand,23.3441,85.3096,24.1,95,0.0,934.9,8.8,31.7,84,26.5,25.7,11.4,365.0,89.0,20.9,3,5,7,1,2026-06-27T01:22:24.703662+05:30
Jamshedpur,Jharkhand,22.8046,86.2029,26.5,98,0.0,988.1,9.1,32.4,87,36.3,34.9,28.1,1283.0,43.0,28.8,7,5,7,1,2026-06-27T01:22:24.703669+05:30
Dhanbad,Jharkhand,23.7957,86.4304,27.8,83,0.0,977.0,8.85,27.0,143,46.9,45.4,49.3,1639.0,36.0,119.9,7,5,7,1,2026-06-27T01:22:24.703675+05:30
Bokaro,Jharkhand,23.6693,86.1511,27.9,88,0.0,980.8,8.85,31.0,145,47.5,46.0,40.7,1095.0,54.0,109.0,7,5,7,1,2026-06-27T01:22:24.703683+05:30
Bhubaneswar,Odisha,20.2961,85.8245,27.6,97,0.0,999.2,8.75,27.7,76,33.6,30.2,16.6,263.0,65.0,6.5,7,5,7,1,2026-06-27T01:22:24.703689+05:30
Cuttack,Odisha,20.4625,85.8828,28.0,95,0.0,1001.0,9.1,29.2,76,33.6,30.2,16.6,308.0,65.0,6.5,7,5,4,1,2026-06-27T01:22:24.703695+05:30
Rourkela,Odisha,22.2604,84.8536,28.4,86,0.0,982.2,8.95,44.6,118,20.1,19.2,10.7,487.0,97.0,20.5,7,5,7,1,2026-06-27T01:22:24.703702+05:30
Raipur,Chhattisgarh,21.2514,81.6296,27.3,82,0.0,971.5,8.25,33.5,94,34.8,34.5,45.0,850.0,33.0,64.3,7,5,7,1,2026-06-27T01:22:24.703732+05:30
Bhilai,Chhattisgarh,21.1938,81.3509,27.5,78,0.0,971.8,8.95,33.5,98,33.3,32.9,37.1,1325.0,42.0,52.2,7,5,7,1,2026-06-27T01:22:24.703745+05:30
Guwahati,Assam,26.1158,91.7086,27.4,87,0.0,998.5,8.5,35.3,84,30.6,29.4,16.9,401.0,35.0,3.8,7,5,7,1,2026-06-27T01:22:24.703755+05:30
Agartala,Tripura,23.8315,91.2868,26.3,93,0.0,1004.2,8.5,31.0,75,16.4,15.2,10.9,176.0,37.0,2.2,7,5,4,1,2026-06-27T01:22:24.703765+05:30
Shillong,Meghalaya,25.5788,91.8933,19.8,92,0.0,855.8,6.3,29.5,57,7.6,6.9,5.3,245.0,89.0,2.5,3,10,7,1,2026-06-27T01:22:24.703775+05:30
Imphal,Manipur,24.817,93.9368,23.1,96,0.0,920.9,8.35,28.4,53,28.3,26.3,19.8,515.0,31.0,4.0,3,5,7,1,2026-06-27T01:22:24.703784+05:30
Aizawl,Mizoram,23.7271,92.7176,19.9,97,0.1,891.0,8.1,27.7,58,7.5,6.3,3.1,147.0,59.0,1.5,6,10,7,1,2026-06-27T01:22:24.703794+05:30
Kohima,Nagaland,25.6701,94.1077,20.0,97,0.0,853.7,8.15,24.1,50,13.1,11.5,9.2,287.0,48.0,1.3,3,5,7,1,2026-06-27T01:22:24.703804+05:30
Gangtok,Sikkim,27.3314,88.6138,18.0,87,0.1,836.5,8.55,37.4,82,7.4,7.0,9.6,655.0,113.0,2.2,6,10,7,0,2026-06-27T01:22:24.703814+05:30
Siliguri,West Bengal,26.7271,88.3953,24.9,100,0.3,991.0,8.8,18.7,112,28.0,25.2,9.7,490.0,120.0,4.2,6,5,7,1,2026-06-27T01:22:28.000838+05:30
Durgapur,West Bengal,23.5204,87.3119,27.5,93,0.0,992.2,9.05,28.4,114,39.6,38.6,28.8,470.0,53.0,40.4,7,5,7,1,2026-06-27T01:22:28.000875+05:30
Asansol,West Bengal,23.6739,86.9524,27.3,89,0.0,990.8,9.05,24.5,105,29.9,28.8,25.6,372.0,55.0,36.1,7,5,7,1,2026-06-27T01:22:28.000887+05:30
Pondicherry,Puducherry,11.9139,79.8145,26.9,89,0.0,1006.4,8.5,46.4,74,32.2,22.2,18.3,279.0,64.0,15.9,7,5,4,1,2026-06-27T01:22:28.000896+05:30
Port Blair,Andaman and Nicobar Islands,11.6234,92.7265,25.5,97,0.0,1006.4,8.75,38.9,22,4.0,2.4,0.2,90.0,49.0,0.2,7,5,4,1,2026-06-27T01:22:28.000904+05:30
Haridwar,Uttarakhand,29.9457,78.1642,27.6,77,0.0,970.2,7.6,25.6,140,232.8,86.6,25.2,316.0,88.0,16.8,7,5,7,1,2026-06-27T01:22:28.000912+05:30
Rishikesh,Uttarakhand,30.0869,78.2676,25.8,84,0.0,962.9,7.65,26.3,104,134.1,51.1,13.4,374.0,102.0,6.8,7,5,7,1,2026-06-27T01:22:28.000919+05:30
Nainital,Uttarakhand,29.3919,79.4542,16.8,79,0.0,805.1,6.8,28.8,94,90.1,42.1,23.1,350.0,59.0,4.6,3,5,7,0,2026-06-27T01:22:28.000926+05:30
Mussoorie,Uttarakhand,30.4599,78.0664,17.8,79,0.0,802.9,7.55,41.4,105,114.6,53.0,43.1,342.0,58.0,10.3,3,5,7,0,2026-06-27T01:22:28.000934+05:30
Dharamshala,Himachal Pradesh,32.219,76.3234,22.9,72,0.0,868.5,7.85,28.1,63,19.9,18.6,21.4,412.0,27.0,0.0,3,5,7,1,2026-06-27T01:22:28.000941+05:30
Dalhousie,Himachal Pradesh,32.5387,75.971,15.2,95,0.0,803.1,8.3,28.4,123,91.3,51.9,34.9,534.0,51.0,2.5,3,10,7,0,2026-06-27T01:22:28.000949+05:30
Patiala,Punjab,30.3398,76.3869,31.2,63,0.0,974.2,7.65,26.6,158,208.6,112.2,58.3,827.0,20.0,12.6,3,5,7,1,2026-06-27T01:22:28.000956+05:30
Bhatinda,Punjab,30.211,74.9455,32.0,66,0.0,979.3,7.9,22.7,154,131.3,99.0,65.2,497.0,23.0,13.7,3,5,7,1,2026-06-27T01:22:28.000963+05:30
Rohtak,Haryana,28.8955,76.6066,30.4,70,0.0,977.5,7.75,27.7,157,303.6,112.9,82.9,839.0,0.0,16.2,3,5,7,1,2026-06-27T01:22:28.000970+05:30
Panipat,Haryana,29.3909,76.9635,30.0,72,0.0,976.0,7.6,22.0,166,320.4,131.3,82.5,735.0,0.0,15.3,7,5,7,1,2026-06-27T01:22:28.000977+05:30
Mathura,Uttar Pradesh,27.4924,77.6737,31.2,61,0.0,982.7,6.0,30.6,129,94.8,48.2,61.1,352.0,9.0,7.3,3,5,3,1,2026-06-27T01:22:28.000984+05:30
Vrindavan,Uttar Pradesh,27.5823,77.7027,30.9,66,0.0,983.1,4.6,31.7,129,94.8,48.2,61.1,338.0,9.0,7.3,3,5,3,1,2026-06-27T01:22:28.000991+05:30
Ayodhya,Uttar Pradesh,26.7922,82.1998,28.4,76,0.2,991.7,8.4,23.4,145,59.1,40.7,13.6,487.0,94.0,7.8,10,5,7,1,2026-06-27T01:22:28.000997+05:30
Ratlam,Madhya Pradesh,23.3315,75.0367,25.5,87,0.0,951.7,8.45,29.5,86,52.4,36.4,14.1,333.0,39.0,5.4,7,5,7,1,2026-06-27T01:22:28.001004+05:30
Sagar,Madhya Pradesh,23.8388,78.7378,26.6,82,0.0,947.3,8.7,34.2,66,22.9,19.0,12.1,222.0,62.0,2.7,7,5,7,1,2026-06-27T01:22:28.001010+05:30
Satna,Madhya Pradesh,24.6005,80.8322,29.2,73,0.0,968.2,8.8,24.1,68,32.8,26.4,16.5,199.0,51.0,4.4,7,5,7,1,2026-06-27T01:22:28.001017+05:30
Akola,Maharashtra,20.7002,77.0082,26.2,100,0.0,972.4,8.5,42.5,77,28.6,19.3,10.9,217.0,63.0,4.2,7,5,7,1,2026-06-27T01:22:28.001024+05:30
Amravati,Maharashtra,20.9374,77.7796,25.4,99,0.0,964.7,8.0,33.1,79,25.9,18.1,11.2,257.0,62.0,4.3,7,5,7,1,2026-06-27T01:22:28.001031+05:30
Latur,Maharashtra,18.4088,76.5604,25.3,89,0.0,937.3,6.45,30.6,66,41.3,24.2,12.3,351.0,53.0,4.1,7,5,7,1,2026-06-27T01:22:28.001039+05:30
Nanded,Maharashtra,19.1383,77.3091,26.8,88,0.0,966.1,7.0,33.5,73,26.0,18.4,9.6,262.0,63.0,1.8,7,5,7,1,2026-06-27T01:22:28.001045+05:30
Gulbarga,Karnataka,17.3297,76.8343,26.1,77,0.0,956.4,4.3,45.4,60,53.4,30.7,29.9,269.0,27.0,5.9,7,5,3,1,2026-06-27T01:22:28.001052+05:30
Bidar,Karnataka,17.9104,77.5199,25.1,88,0.0,932.9,2.5,41.8,68,36.0,23.7,18.9,215.0,51.0,6.1,7,5,3,1,2026-06-27T01:22:28.001059+05:30
Hospet,Karnataka,15.2689,76.3909,24.2,83,0.0,954.6,7.05,44.6,25,8.4,6.0,6.8,147.0,40.0,1.7,3,5,7,1,2026-06-27T01:22:28.001065+05:30
Tirupur,Tamil Nadu,11.1085,77.3411,24.7,88,0.0,974.4,8.75,45.0,55,19.2,16.6,21.8,165.0,22.0,5.4,3,5,7,1,2026-06-27T01:22:28.001071+05:30
Alappuzha,Kerala,9.4981,76.3388,25.7,97,0.0,1008.9,8.4,40.3,41,18.5,12.8,11.4,126.0,39.0,3.4,7,0,4,1,2026-06-27T01:22:28.001078+05:30
Munnar,Kerala,10.0889,77.0595,16.0,94,0.0,855.7,9.05,32.8,23,9.6,7.9,9.5,102.0,26.0,2.0,3,10,7,0,2026-06-27T01:22:28.001085+05:30
Silchar,Assam,24.8333,92.7789,25.7,99,0.1,1003.3,8.85,27.7,80,23.3,18.7,5.7,216.0,97.0,3.7,10,5,4,1,2026-06-27T01:22:28.001092+05:30
Dibrugarh,Assam,27.4728,94.912,25.7,95,0.2,991.9,6.65,28.1,74,21.9,18.7,7.8,284.0,83.0,1.6,10,5,7,1,2026-06-27T01:22:28.001099+05:30
