city,state,latitude,longitude,temp,humidity,rain,pressure,uv_index,wind_gusts,aqi,pm10,pm2_5,mosquito_risk,arthritis_risk,migraine_risk,frizz_risk,updated_at
Delhi,Delhi,28.6139,77.209,21.8,74,0.0,988.8,6.45,24.8,218,76.6,43.0,3,5,7,1,2026-03-23T10:36:08.941236+05:30
Mumbai,Maharashtra,19.076,72.8777,29.0,58,0.0,1010.9,7.9,24.1,94,42.8,34.6,4,0,4,1,2026-03-23T10:36:08.941283+05:30
Bangalore,Karnataka,12.9716,77.5946,27.3,58,0.0,915.5,9.4,23.0,114,36.0,26.0,4,5,7,1,2026-03-23T10:36:08.941298+05:30
Hyderabad,Telangana,17.385,78.4867,31.1,41,0.0,957.7,8.95,24.5,94,37.4,24.3,0,5,7,1,2026-03-23T10:36:08.941308+05:30
Chennai,Tamil Nadu,13.0827,80.2707,31.7,56,0.0,1011.7,9.2,32.8,40,14.2,9.1,0,0,4,1,2026-03-23T10:36:08.941316+05:30
Kolkata,West Bengal,22.5726,88.3639,26.7,69,0.0,1012.3,8.3,20.5,157,47.5,41.1,7,0,4,1,2026-03-23T10:36:08.941324+05:30
Pune,Maharashtra,18.5204,73.8567,30.7,34,0.0,952.1,8.45,38.9,76,21.7,14.6,0,5,7,0,2026-03-23T10:36:08.941334+05:30
Ahmedabad,Gujarat,23.0225,72.5714,31.3,44,0.0,1007.0,7.85,29.9,79,51.9,22.3,0,5,4,1,2026-03-23T10:36:08.941341+05:30
Jaipur,Rajasthan,26.9124,75.7873,24.2,56,0.0,965.0,7.2,40.3,89,474.0,72.4,0,5,7,0,2026-03-23T10:36:08.941347+05:30
Lucknow,Uttar Pradesh,26.8467,80.9462,27.9,48,0.0,999.2,5.95,36.0,136,353.0,66.1,4,5,3,0,2026-03-23T10:36:08.941354+05:30
Kanpur,Uttar Pradesh,26.4499,80.3319,27.0,58,0.0,997.6,6.8,32.4,261,488.0,78.7,4,5,7,1,2026-03-23T10:36:08.941360+05:30
Chandigarh,Chandigarh,30.7333,76.7794,24.5,63,0.0,973.5,6.45,28.1,93,43.2,32.9,3,5,7,1,2026-03-23T10:36:08.941367+05:30
Srinagar,Jammu and Kashmir,34.0837,74.7973,12.9,70,0.0,843.5,6.4,19.8,102,28.5,20.6,3,5,7,0,2026-03-23T10:36:08.941373+05:30
Jammu,Jammu and Kashmir,32.7266,74.857,24.1,63,0.0,977.1,6.9,21.2,91,21.7,20.3,3,5,7,1,2026-03-23T10:36:08.941378+05:30
Amritsar,Punjab,31.634,74.8723,24.4,65,0.0,985.8,7.05,23.4,150,89.4,56.6,3,5,7,1,2026-03-23T10:36:08.941384+05:30
Ludhiana,Punjab,30.901,75.8573,24.5,63,0.0,983.8,6.65,26.6,151,88.2,61.2,3,5,7,1,2026-03-23T10:36:08.941389+05:30
Jalandhar,Punjab,31.326,75.5762,24.2,66,0.0,985.0,6.85,25.9,152,87.5,55.9,3,5,7,1,2026-03-23T10:36:08.941397+05:30
Dehradun,Uttarakhand,30.6284,78.0322,15.7,72,0.0,832.0,6.85,21.6,52,16.2,12.9,3,5,7,0,2026-03-23T10:36:08.941404+05:30
Shimla,Himachal Pradesh,31.1048,77.1734,15.3,57,0.0,786.8,6.9,34.2,68,15.0,9.4,0,5,7,0,2026-03-23T10:36:08.941409+05:30
Manali,Himachal Pradesh,32.2396,77.1887,16.4,34,0.0,820.9,8.8,25.2,54,18.5,12.5,0,5,7,0,2026-03-23T10:36:08.941415+05:30
Gurgaon,Haryana,28.4595,77.0266,22.1,78,0.0,987.4,6.4,23.0,594,98.5,51.5,3,5,7,1,2026-03-23T10:36:08.941421+05:30
Noida,Uttar Pradesh,28.5355,77.391,21.6,77,0.0,990.4,6.45,22.7,594,98.5,51.5,3,5,7,1,2026-03-23T10:36:08.941426+05:30
Ghaziabad,Uttar Pradesh,28.6692,77.4538,22.4,74,0.0,988.7,6.4,25.2,184,74.5,45.8,3,5,7,1,2026-03-23T10:36:08.941431+05:30
Faridabad,Haryana,28.4089,77.3178,20.9,81,0.0,989.7,6.4,19.8,594,98.5,51.5,3,5,7,1,2026-03-23T10:36:08.941436+05:30
Meerut,Uttar Pradesh,28.9845,77.7064,23.8,68,0.0,987.1,6.3,28.4,184,74.5,45.8,3,5,7,1,2026-03-23T10:36:08.941442+05:30
Agra,Uttar Pradesh,27.1767,78.0081,20.7,78,0.1,994.6,4.55,24.1,415,601.6,78.0,6,5,3,1,2026-03-23T10:36:08.941447+05:30
Varanasi,Uttar Pradesh,25.3176,82.9739,28.9,43,0.0,1003.3,7.65,27.7,120,264.5,45.6,4,5,4,0,2026-03-23T10:36:08.941455+05:30
Prayagraj,Uttar Pradesh,25.4358,81.8463,27.7,51,0.0,1002.0,7.55,16.9,118,416.3,66.8,4,5,4,1,2026-03-23T10:36:08.941461+05:30
Gorakhpur,Uttar Pradesh,26.7606,83.3732,26.1,64,0.0,1003.1,7.3,23.8,140,101.7,50.8,7,5,4,1,2026-03-23T10:36:08.941466+05:30
Bareilly,Uttar Pradesh,28.367,79.4304,23.9,66,0.0,992.7,6.0,25.9,111,127.6,49.9,3,5,3,1,2026-03-23T10:36:08.941471+05:30
Aligarh,Uttar Pradesh,27.8974,78.088,20.5,82,0.1,992.4,5.95,18.0,406,86.1,36.9,6,5,3,1,2026-03-23T10:36:08.941478+05:30
Moradabad,Uttar Pradesh,28.8386,78.7733,22.6,71,0.0,989.4,6.5,28.1,134,80.3,50.9,3,5,7,1,2026-03-23T10:36:08.941484+05:30
Saharanpur,Uttar Pradesh,29.9637,77.546,24.5,65,0.0,980.6,6.15,27.7,152,95.5,61.0,3,5,7,1,2026-03-23T10:36:08.941489+05:30
Jhansi,Uttar Pradesh,25.4484,78.5685,29.1,41,0.0,982.8,7.3,34.6,76,71.2,24.1,4,5,7,0,2026-03-23T10:36:12.207514+05:30
Surat,Gujarat,21.1702,72.8311,29.9,56,0.0,1011.1,7.65,25.2,115,50.1,39.3,4,0,4,1,2026-03-23T10:36:12.207545+05:30
Vadodara,Gujarat,22.3072,73.1812,31.7,46,0.0,1009.2,7.85,20.5,82,41.3,24.3,0,0,4,1,2026-03-23T10:36:12.207555+05:30
Rajkot,Gujarat,22.3039,70.8022,28.7,59,0.0,999.6,7.7,31.0,62,33.8,22.8,4,5,7,1,2026-03-23T10:36:12.207563+05:30
Thane,Maharashtra,19.2183,72.9781,33.1,33,0.0,1010.5,7.9,38.9,94,42.8,34.6,0,0,4,0,2026-03-23T10:36:12.207571+05:30
Nagpur,Maharashtra,21.1458,79.0882,30.0,33,0.0,978.9,8.15,20.5,64,31.4,15.8,4,5,7,0,2026-03-23T10:36:12.207578+05:30
Nashik,Maharashtra,19.9975,73.7898,28.8,38,0.0,949.6,8.15,32.4,58,16.9,11.3,4,5,7,0,2026-03-23T10:36:12.207585+05:30
Aurangabad,Maharashtra,19.8762,75.3433,30.0,35,0.0,948.4,8.65,20.5,64,16.2,13.2,4,5,7,0,2026-03-23T10:36:12.207592+05:30
Solapur,Maharashtra,17.6599,75.9064,31.2,48,0.0,961.0,8.65,27.4,72,39.9,28.9,0,5,7,1,2026-03-23T10:36:12.207599+05:30
Kolhapur,Maharashtra,16.705,74.2433,28.8,45,0.0,951.3,8.9,37.8,93,38.6,31.7,4,5,7,0,2026-03-23T10:36:12.207606+05:30
Goa,Goa,15.2993,74.124,31.2,61,0.0,1000.6,8.9,32.8,87,31.2,23.5,3,5,4,1,2026-03-23T10:36:12.207613+05:30
Jodhpur,Rajasthan,26.2389,73.0243,27.9,50,0.0,988.2,7.4,22.0,74,172.3,31.7,4,5,7,1,2026-03-23T10:36:12.207620+05:30
Udaipur,Rajasthan,24.5854,73.7125,26.8,49,0.0,951.2,7.2,33.5,47,81.5,19.2,4,5,7,0,2026-03-23T10:36:12.207627+05:30
Kota,Rajasthan,25.2138,75.8648,30.5,37,0.0,983.7,7.05,34.2,72,51.7,21.7,0,5,7,0,2026-03-23T10:36:12.207634+05:30
Bikaner,Rajasthan,28.0229,73.3119,26.7,49,0.0,987.2,7.25,14.0,75,124.3,30.3,4,5,7,0,2026-03-23T10:36:12.207641+05:30
Ajmer,Rajasthan,26.4499,74.6399,26.1,52,0.0,959.5,7.25,27.4,59,109.9,21.8,4,5,7,0,2026-03-23T10:36:12.207647+05:30
Gwalior,Madhya Pradesh,26.2183,78.1828,24.8,60,0.0,989.1,5.15,31.7,88,341.8,59.6,0,5,3,1,2026-03-23T10:36:12.207654+05:30
Indore,Madhya Pradesh,22.7196,75.8577,28.9,42,0.0,952.8,8.1,25.6,61,20.5,13.7,4,5,7,0,2026-03-23T10:36:12.207661+05:30
Bhopal,Madhya Pradesh,23.2599,77.4126,31.1,29,0.0,958.3,8.0,35.3,51,16.5,9.1,0,5,7,0,2026-03-23T10:36:12.207667+05:30
Jabalpur,Madhya Pradesh,23.1815,79.9864,29.4,39,0.0,967.0,7.9,20.2,63,30.7,13.3,4,5,7,0,2026-03-23T10:36:12.207675+05:30
Ujjain,Madhya Pradesh,23.1765,75.7885,28.4,46,0.0,958.5,8.05,24.8,83,25.0,12.9,4,5,7,0,2026-03-23T10:36:12.207683+05:30
Visakhapatnam,Andhra Pradesh,17.6868,83.2185,30.7,58,0.0,1008.8,8.85,34.9,96,56.8,44.4,0,0,4,1,2026-03-23T10:36:12.207690+05:30
Vijayawada,Andhra Pradesh,16.5062,80.648,29.9,67,0.0,1007.5,8.95,23.0,76,25.4,18.9,7,5,4,1,2026-03-23T10:36:12.207697+05:30
Guntur,Andhra Pradesh,16.3067,80.4365,30.3,66,0.0,1008.7,8.95,27.0,74,22.5,15.9,3,0,4,1,2026-03-23T10:36:12.207704+05:30
Nellore,Andhra Pradesh,14.4426,79.9865,31.0,60,0.0,1010.3,9.1,28.8,47,22.6,15.2,0,0,4,1,2026-03-23T10:36:12.207712+05:30
Kurnool,Andhra Pradesh,15.8281,78.0373,32.2,45,0.0,981.1,8.95,27.0,73,25.9,17.8,0,5,7,1,2026-03-23T10:36:12.207720+05:30
Kakinada,Andhra Pradesh,16.9891,82.2475,31.6,60,0.0,1012.3,8.9,29.5,62,24.5,15.7,0,0,4,1,2026-03-23T10:36:12.207726+05:30
Tirupati,Andhra Pradesh,13.6288,79.4192,29.0,58,0.0,996.4,9.2,28.1,74,23.0,16.8,4,5,7,1,2026-03-23T10:36:12.207733+05:30
Warangal,Telangana,17.9689,79.5941,31.0,56,0.0,983.6,8.8,24.1,117,33.3,25.8,0,5,7,1,2026-03-23T10:36:12.207739+05:30
Nizamabad,Telangana,18.6725,78.0941,32.3,40,0.0,969.2,8.7,24.1,117,56.3,41.0,0,5,7,1,2026-03-23T10:36:12.207745+05:30
Mysore,Karnataka,12.2958,76.6396,27.2,59,0.0,932.1,9.4,26.3,121,37.8,28.3,4,5,7,1,2026-03-23T10:36:12.207751+05:30
Mangalore,Karnataka,12.9141,74.856,28.7,81,0.0,1009.7,9.05,25.6,75,30.4,17.9,7,0,4,1,2026-03-23T10:36:12.207758+05:30
Hubli-Dharwad,Karnataka,15.3647,75.124,30.5,40,0.0,944.2,9.1,40.7,70,27.1,20.1,0,5,7,0,2026-03-23T10:36:12.207765+05:30
Belgaum,Karnataka,15.8497,74.4977,29.9,35,0.0,929.2,9.15,38.2,74,31.3,22.8,4,5,7,0,2026-03-23T10:36:15.474020+05:30
Coimbatore,Tamil Nadu,11.0168,76.9558,29.3,57,0.0,965.6,9.4,35.6,96,25.3,17.9,4,5,7,1,2026-03-23T10:36:15.474049+05:30
Madurai,Tamil Nadu,9.9252,78.1198,30.6,57,0.0,996.9,9.35,28.4,69,17.9,12.5,0,5,7,1,2026-03-23T10:36:15.474057+05:30
Trichy,Tamil Nadu,10.7905,78.7047,29.7,63,0.0,1003.9,9.3,22.3,62,16.9,12.5,7,5,4,1,2026-03-23T10:36:15.474065+05:30
Salem,Tamil Nadu,11.6643,78.146,30.2,56,0.0,981.5,9.35,25.2,92,29.6,23.3,0,5,7,1,2026-03-23T10:36:15.474072+05:30
Tirunelveli,Tamil Nadu,8.7139,77.7567,31.8,56,0.0,1006.8,9.3,32.8,67,12.2,8.5,0,5,4,1,2026-03-23T10:36:15.474079+05:30
Vellore,Tamil Nadu,12.9165,79.1325,29.6,54,0.0,989.1,9.25,34.9,83,21.6,15.4,4,5,7,1,2026-03-23T10:36:15.474086+05:30
Erode,Tamil Nadu,11.341,77.7172,29.8,63,0.0,993.2,9.35,18.4,66,14.8,11.2,7,5,7,1,2026-03-23T10:36:15.474094+05:30
Kochi,Kerala,9.9312,76.2673,28.1,79,0.0,1011.4,9.15,31.7,82,29.7,20.6,7,0,4,1,2026-03-23T10:36:15.474101+05:30
Thiruvananthapuram,Kerala,8.5241,76.9366,28.6,75,0.0,1010.6,9.15,23.8,58,27.1,21.0,7,0,4,1,2026-03-23T10:36:15.474108+05:30
Kozhikode,Kerala,11.2588,75.7804,29.8,72,0.0,1010.8,9.1,25.9,64,33.2,20.4,7,0,4,1,2026-03-23T10:36:15.474115+05:30
Thrissur,Kerala,10.5276,76.2144,32.7,56,0.0,1009.6,9.1,36.7,77,27.2,18.8,0,0,4,1,2026-03-23T10:36:15.474122+05:30
Kannur,Kerala,11.8745,75.3704,31.7,52,0.0,1010.1,9.1,27.0,67,31.4,19.7,0,0,4,1,2026-03-23T10:36:15.474129+05:30
Patna,Bihar,25.5941,85.1376,27.5,56,0.0,1006.6,7.85,23.0,154,43.0,34.2,4,5,4,1,2026-03-23T10:36:15.474136+05:30
Gaya,Bihar,24.7914,85.0002,27.9,51,0.0,1000.0,7.95,17.6,116,43.3,26.8,4,5,4,1,2026-03-23T10:36:15.474144+05:30
Muzaffarpur,Bihar,26.1209,85.3647,26.6,60,0.0,1006.7,7.8,18.4,153,48.7,40.9,4,5,4,1,2026-03-23T10:36:15.474150+05:30
Bhagalpur,Bihar,25.2425,87.0117,25.9,60,0.0,1007.8,7.85,16.6,151,37.6,32.9,4,5,4,1,2026-03-23T10:36:15.474157+05:30
Ranchi,Jharkhand,23.3441,85.3096,24.4,49,0.0,943.2,8.55,29.9,80,43.9,17.4,0,5,7,0,2026-03-23T10:36:15.474164+05:30
Jamshedpur,Jharkhand,22.8046,86.2029,28.1,49,0.0,997.1,8.4,20.2,136,55.4,38.8,4,5,7,1,2026-03-23T10:36:15.474170+05:30
Dhanbad,Jharkhand,23.7957,86.4304,26.2,51,0.0,986.1,8.3,23.0,152,53.7,41.0,4,5,7,0,2026-03-23T10:36:15.474177+05:30
Bokaro,Jharkhand,23.6693,86.1511,26.3,50,0.0,990.2,8.3,21.6,152,58.6,41.4,4,5,7,0,2026-03-23T10:36:15.474184+05:30
Bhubaneswar,Odisha,20.2961,85.8245,30.3,56,0.0,1008.2,8.7,30.6,144,65.4,50.4,0,0,4,1,2026-03-23T10:36:15.474191+05:30
Cuttack,Odisha,20.4625,85.8828,30.1,58,0.0,1010.1,8.75,26.3,144,65.4,50.4,0,0,4,1,2026-03-23T10:36:15.474198+05:30
Rourkela,Odisha,22.2604,84.8536,28.9,40,0.0,991.3,8.35,20.9,83,52.5,25.8,4,5,7,0,2026-03-23T10:36:15.474204+05:30
Raipur,Chhattisgarh,21.2514,81.6296,30.3,31,0.0,980.8,8.45,18.4,126,52.2,32.8,0,5,7,0,2026-03-23T10:36:15.474211+05:30
Bhilai,Chhattisgarh,21.1938,81.3509,30.3,32,0.0,981.1,8.45,16.6,131,57.7,39.7,0,5,7,0,2026-03-23T10:36:15.474217+05:30
Guwahati,Assam,26.1158,91.7086,25.4,64,0.0,1007.5,7.65,22.3,77,29.0,25.4,7,5,4,1,2026-03-23T10:36:15.474224+05:30
Agartala,Tripura,23.8315,91.2868,26.1,58,0.0,1012.5,8.05,14.4,158,50.5,44.4,4,0,4,1,2026-03-23T10:36:15.474231+05:30
Shillong,Meghalaya,25.5788,91.8933,15.6,56,0.0,858.9,7.25,25.2,64,18.9,15.5,0,5,7,0,2026-03-23T10:36:15.474238+05:30
Imphal,Manipur,24.817,93.9368,19.0,62,0.0,927.1,8.3,38.5,75,26.1,21.2,3,5,7,0,2026-03-23T10:36:15.474244+05:30
Aizawl,Mizoram,23.7271,92.7176,20.5,52,0.0,897.2,8.3,34.2,68,26.5,21.7,0,5,7,0,2026-03-23T10:36:15.474251+05:30
Kohima,Nagaland,25.6701,94.1077,15.5,71,0.0,857.4,8.0,38.5,62,24.3,19.5,3,5,7,0,2026-03-23T10:36:15.474258+05:30
Gangtok,Sikkim,27.3314,88.6138,15.7,75,0.0,839.9,7.35,19.8,73,18.0,16.7,3,5,7,0,2026-03-23T10:36:15.474264+05:30
Siliguri,West Bengal,26.7271,88.3953,21.1,68,0.0,999.6,6.55,21.2,103,26.0,24.5,3,5,7,0,2026-03-23T10:36:18.741137+05:30
Durgapur,West Bengal,23.5204,87.3119,27.1,56,0.0,1001.3,8.25,16.6,157,59.3,48.5,4,5,4,1,2026-03-23T10:36:18.741165+05:30
Asansol,West Bengal,23.6739,86.9524,27.1,54,0.0,1000.0,8.25,17.6,119,47.6,36.4,4,5,4,1,2026-03-23T10:36:18.741174+05:30
Pondicherry,Puducherry,11.9139,79.8145,30.7,61,0.0,1012.7,9.15,28.1,32,10.6,7.0,3,0,4,1,2026-03-23T10:36:18.741182+05:30
Port Blair,Andaman and Nicobar Islands,11.6234,92.7265,29.3,70,0.0,1009.8,9.1,23.4,31,3.1,2.1,7,0,4,1,2026-03-23T10:36:18.741190+05:30
Haridwar,Uttarakhand,29.9457,78.1642,24.8,63,0.0,979.1,6.3,28.8,108,63.3,40.0,3,5,7,1,2026-03-23T10:36:18.741198+05:30
Rishikesh,Uttarakhand,30.0869,78.2676,24.6,59,0.0,971.4,6.4,22.7,74,36.0,21.2,0,5,7,0,2026-03-23T10:36:18.741206+05:30
Nainital,Uttarakhand,29.3919,79.4542,16.5,75,0.0,808.6,7.2,43.2,69,59.8,21.0,3,5,7,0,2026-03-23T10:36:18.741213+05:30
Mussoorie,Uttarakhand,30.4599,78.0664,16.4,69,0.0,805.0,6.75,25.2,85,28.3,20.8,3,5,7,0,2026-03-23T10:36:18.741220+05:30
Dharamshala,Himachal Pradesh,32.219,76.3234,18.9,75,0.0,871.4,6.95,21.2,70,16.1,10.1,3,5,7,0,2026-03-23T10:36:18.741226+05:30
Dalhousie,Himachal Pradesh,32.5387,75.971,16.8,64,0.0,805.8,7.15,18.4,85,23.0,19.6,3,5,7,0,2026-03-23T10:36:18.741234+05:30
Patiala,Punjab,30.3398,76.3869,24.6,64,0.0,983.3,6.3,24.8,178,81.3,56.5,3,5,7,1,2026-03-23T10:36:18.741241+05:30
Bhatinda,Punjab,30.211,74.9455,24.9,61,0.0,989.2,7.0,18.4,135,84.3,43.5,3,5,7,1,2026-03-23T10:36:18.741248+05:30
Rohtak,Haryana,28.8955,76.6066,24.5,66,0.0,987.4,6.45,21.6,271,75.2,33.6,3,5,7,1,2026-03-23T10:36:18.741255+05:30
Panipat,Haryana,29.3909,76.9635,25.1,62,0.0,985.8,6.3,25.6,558,65.2,32.4,7,5,7,1,2026-03-23T10:36:18.741262+05:30
Mathura,Uttar Pradesh,27.4924,77.6737,19.7,85,0.3,993.9,4.5,20.9,313,118.3,45.9,6,10,3,1,2026-03-23T10:36:18.741270+05:30
Vrindavan,Uttar Pradesh,27.5823,77.7027,20.0,84,0.2,994.2,4.5,20.9,313,118.3,45.9,6,5,3,1,2026-03-23T10:36:18.741277+05:30
Ayodhya,Uttar Pradesh,26.7922,82.1998,27.7,49,0.0,1001.1,6.7,32.0,120,303.6,67.1,4,5,4,0,2026-03-23T10:36:18.741283+05:30
Ratlam,Madhya Pradesh,23.3315,75.0367,29.2,45,0.0,959.2,8.0,25.6,77,31.3,11.7,4,5,7,1,2026-03-23T10:36:18.741290+05:30
Sagar,Madhya Pradesh,23.8388,78.7378,30.6,32,0.0,955.0,8.0,34.6,55,21.5,11.0,0,5,7,0,2026-03-23T10:36:18.741297+05:30
Satna,Madhya Pradesh,24.6005,80.8322,28.5,40,0.0,977.0,7.95,23.4,73,110.6,25.0,4,5,7,0,2026-03-23T10:36:18.741303+05:30
Akola,Maharashtra,20.7002,77.0082,30.4,34,0.0,980.0,8.2,15.8,62,20.8,14.5,0,5,7,0,2026-03-23T10:36:18.741310+05:30
Amravati,Maharashtra,20.9374,77.7796,31.4,30,0.0,972.5,8.35,22.0,57,22.7,15.5,0,5,7,0,2026-03-23T10:36:18.741316+05:30
Latur,Maharashtra,18.4088,76.5604,29.9,47,0.0,944.1,8.4,22.3,74,48.1,32.8,4,5,7,1,2026-03-23T10:36:18.741321+05:30
Nanded,Maharashtra,19.1383,77.3091,32.4,40,0.0,973.2,8.55,18.7,79,60.3,43.9,0,5,7,1,2026-03-23T10:36:18.741326+05:30
Gulbarga,Karnataka,17.3297,76.8343,31.7,46,0.0,962.9,8.8,26.3,90,34.6,24.7,0,5,7,1,2026-03-23T10:36:18.741331+05:30
Bidar,Karnataka,17.9104,77.5199,30.7,43,0.0,939.9,8.8,22.7,108,43.2,30.5,0,5,7,1,2026-03-23T10:36:18.741336+05:30
Hospet,Karnataka,15.2689,76.3909,28.8,65,0.0,959.3,9.05,23.4,99,47.8,36.9,7,5,7,1,2026-03-23T10:36:18.741341+05:30
Tirupur,Tamil Nadu,11.1085,77.3411,30.0,57,0.0,979.3,9.45,29.9,82,18.7,14.0,4,5,7,1,2026-03-23T10:36:18.741346+05:30
Alappuzha,Kerala,9.4981,76.3388,28.3,77,0.0,1011.5,9.15,31.3,74,32.5,23.5,7,0,4,1,2026-03-23T10:36:18.741351+05:30
Munnar,Kerala,10.0889,77.0595,28.5,47,0.0,861.5,9.65,29.5,77,18.0,10.8,4,5,7,1,2026-03-23T10:36:18.741357+05:30
Silchar,Assam,24.8333,92.7789,23.9,71,0.0,1011.7,8.0,18.7,118,36.8,30.7,3,0,4,1,2026-03-23T10:36:18.741362+05:30
Dibrugarh,Assam,27.4728,94.912,21.1,86,0.0,1001.7,7.55,18.0,91,16.6,14.6,3,5,4,1,2026-03-23T10:36:18.741367+05:30
