city,state,latitude,longitude,temp,humidity,rain,pressure,uv_index,wind_gusts,aqi,pm10,pm2_5,no2,co,o3,so2,mosquito_risk,arthritis_risk,migraine_risk,frizz_risk,updated_at
Delhi,Delhi,28.6139,77.209,30.0,49,0.0,986.8,7.15,56.9,117,226.3,51.9,7.6,468.0,208.0,30.4,4,5,7,1,2026-05-05T11:49:14.603134+05:30
Mumbai,Maharashtra,19.076,72.8777,32.8,55,0.0,1009.2,7.85,40.7,65,84.3,32.0,4.6,209.0,118.0,25.1,0,0,4,1,2026-05-05T11:49:14.603175+05:30
Bangalore,Karnataka,12.9716,77.5946,32.3,33,0.0,913.2,9.05,37.1,80,41.1,20.3,3.7,259.0,160.0,6.0,0,5,7,0,2026-05-05T11:49:14.603191+05:30
Hyderabad,Telangana,17.385,78.4867,36.0,24,0.0,953.5,9.25,39.2,84,47.8,23.3,3.5,342.0,191.0,10.0,0,5,10,0,2026-05-05T11:49:14.603201+05:30
Chennai,Tamil Nadu,13.0827,80.2707,34.4,57,0.0,1006.6,8.7,44.6,73,39.7,27.2,3.4,316.0,140.0,11.9,0,5,4,1,2026-05-05T11:49:14.603214+05:30
Kolkata,West Bengal,22.5726,88.3639,29.5,71,0.0,1008.7,8.65,45.7,70,16.9,12.9,2.6,251.0,104.0,7.8,7,0,4,1,2026-05-05T11:49:14.603223+05:30
Pune,Maharashtra,18.5204,73.8567,35.1,24,0.0,949.2,8.45,46.8,53,64.5,19.4,2.1,170.0,112.0,5.3,0,5,10,0,2026-05-05T11:49:14.603231+05:30
Ahmedabad,Gujarat,23.0225,72.5714,36.0,32,0.0,1002.3,8.1,29.5,69,105.7,28.3,2.5,198.0,120.0,9.0,0,5,7,1,2026-05-05T11:49:14.603242+05:30
Jaipur,Rajasthan,26.9124,75.7873,31.4,36,0.0,962.4,8.05,36.4,159,236.6,46.0,1.3,222.0,156.0,8.6,0,5,7,0,2026-05-05T11:49:14.603251+05:30
Lucknow,Uttar Pradesh,26.8467,80.9462,27.5,63,0.0,997.1,5.25,28.4,91,41.1,33.2,5.8,373.0,126.0,9.1,7,5,3,1,2026-05-05T11:49:14.603259+05:30
Kanpur,Uttar Pradesh,26.4499,80.3319,28.5,63,0.0,994.9,8.05,33.8,175,32.2,22.6,3.6,363.0,150.0,6.6,7,5,7,1,2026-05-05T11:49:14.603267+05:30
Chandigarh,Chandigarh,30.7333,76.7794,25.5,50,0.1,973.5,7.4,42.1,75,54.2,15.5,1.8,269.0,163.0,6.9,7,5,7,0,2026-05-05T11:49:14.603275+05:30
Srinagar,Jammu and Kashmir,34.0837,74.7973,17.9,55,0.0,846.7,8.7,26.6,72,8.8,4.9,1.2,264.0,155.0,1.4,0,5,7,0,2026-05-05T11:49:14.603283+05:30
Jammu,Jammu and Kashmir,32.7266,74.857,30.5,32,0.0,977.1,8.3,31.3,95,87.1,20.0,1.2,232.0,162.0,2.1,0,5,7,0,2026-05-05T11:49:14.603290+05:30
Amritsar,Punjab,31.634,74.8723,31.1,35,0.0,985.2,8.2,33.1,95,55.5,20.1,1.4,264.0,164.0,8.4,0,5,7,0,2026-05-05T11:49:14.603299+05:30
Ludhiana,Punjab,30.901,75.8573,25.7,55,0.0,983.6,7.8,37.4,101,62.2,22.6,2.4,254.0,173.0,15.5,4,5,7,0,2026-05-05T11:49:14.603307+05:30
Jalandhar,Punjab,31.326,75.5762,29.9,37,0.0,984.3,7.95,41.8,96,68.2,22.2,1.8,277.0,169.0,12.6,4,5,7,0,2026-05-05T11:49:14.603314+05:30
Dehradun,Uttarakhand,30.6284,78.0322,16.8,59,0.0,834.6,7.05,30.6,54,35.0,8.6,0.6,179.0,144.0,1.0,0,5,7,0,2026-05-05T11:49:14.603322+05:30
Shimla,Himachal Pradesh,31.1048,77.1734,14.2,53,0.1,787.6,5.0,33.5,62,29.3,7.5,0.7,187.0,150.0,1.5,3,5,3,0,2026-05-05T11:49:14.603330+05:30
Manali,Himachal Pradesh,32.2396,77.1887,17.7,36,0.0,820.3,9.7,41.8,120,16.6,4.4,0.6,168.0,169.0,0.3,0,5,7,0,2026-05-05T11:49:14.603336+05:30
Gurgaon,Haryana,28.4595,77.0266,31.2,40,0.0,985.0,7.6,49.7,536,313.9,59.0,4.6,378.0,184.0,16.8,0,5,7,1,2026-05-05T11:49:14.603343+05:30
Noida,Uttar Pradesh,28.5355,77.391,30.9,47,0.0,988.3,7.3,54.0,536,313.9,59.0,4.6,390.0,184.0,16.8,0,5,7,1,2026-05-05T11:49:14.603350+05:30
Ghaziabad,Uttar Pradesh,28.6692,77.4538,30.9,47,0.0,986.5,7.0,61.6,98,171.4,40.5,3.3,319.0,187.0,15.0,0,5,7,1,2026-05-05T11:49:14.603358+05:30
Faridabad,Haryana,28.4089,77.3178,30.3,48,0.0,987.4,7.25,54.4,536,313.9,59.0,4.6,358.0,184.0,16.8,0,5,7,1,2026-05-05T11:49:14.603364+05:30
Meerut,Uttar Pradesh,28.9845,77.7064,28.8,56,0.0,985.5,3.4,43.2,98,171.4,40.5,3.3,336.0,187.0,15.0,4,5,3,1,2026-05-05T11:49:14.603370+05:30
Agra,Uttar Pradesh,27.1767,78.0081,30.2,53,0.0,991.3,7.9,73.4,470,466.6,64.3,2.3,338.0,173.0,9.9,0,5,7,1,2026-05-05T11:49:14.603377+05:30
Varanasi,Uttar Pradesh,25.3176,82.9739,28.6,63,0.0,1001.4,8.25,25.6,143,64.5,46.8,3.6,376.0,175.0,12.4,7,5,4,1,2026-05-05T11:49:14.603402+05:30
Prayagraj,Uttar Pradesh,25.4358,81.8463,29.3,57,0.0,999.5,8.45,35.6,129,68.5,48.8,2.9,360.0,155.0,6.8,4,5,7,1,2026-05-05T11:49:14.603415+05:30
Gorakhpur,Uttar Pradesh,26.7606,83.3732,27.4,64,0.0,1001.5,7.8,23.4,74,44.7,38.3,2.7,332.0,159.0,6.3,7,5,4,1,2026-05-05T11:49:14.603423+05:30
Bareilly,Uttar Pradesh,28.367,79.4304,27.9,54,0.0,991.7,7.5,37.4,93,131.3,31.0,3.6,327.0,167.0,13.3,4,5,7,1,2026-05-05T11:49:14.603429+05:30
Aligarh,Uttar Pradesh,27.8974,78.088,30.6,50,0.0,989.4,7.65,60.5,344,268.2,50.3,2.2,311.0,174.0,11.4,0,5,7,1,2026-05-05T11:49:14.603436+05:30
Moradabad,Uttar Pradesh,28.8386,78.7733,27.0,58,0.0,988.4,6.8,37.1,101,61.9,25.6,3.0,328.0,182.0,14.3,4,5,7,1,2026-05-05T11:49:14.603443+05:30
Saharanpur,Uttar Pradesh,29.9637,77.546,26.4,59,0.0,980.3,6.3,33.5,84,42.0,15.6,2.2,237.0,177.0,9.7,4,5,7,1,2026-05-05T11:49:14.603449+05:30
Jhansi,Uttar Pradesh,25.4484,78.5685,32.2,47,0.0,980.4,8.35,42.5,107,62.6,40.2,2.2,309.0,166.0,17.7,0,5,7,1,2026-05-05T11:49:17.851095+05:30
Surat,Gujarat,21.1702,72.8311,34.0,50,0.0,1007.3,7.7,42.1,71,77.1,29.4,11.1,279.0,79.0,32.7,0,5,4,1,2026-05-05T11:49:17.851123+05:30
Vadodara,Gujarat,22.3072,73.1812,36.2,39,0.0,1004.4,8.05,38.2,64,65.7,24.7,2.0,163.0,111.0,5.6,0,5,7,1,2026-05-05T11:49:17.851133+05:30
Rajkot,Gujarat,22.3039,70.8022,36.9,31,0.0,994.3,7.7,51.8,60,102.7,24.4,1.2,148.0,118.0,5.2,0,5,10,1,2026-05-05T11:49:17.851141+05:30
Thane,Maharashtra,19.2183,72.9781,35.0,46,0.0,1008.1,7.85,38.5,65,84.3,32.0,4.6,246.0,118.0,25.1,0,0,4,1,2026-05-05T11:49:17.851149+05:30
Nagpur,Maharashtra,21.1458,79.0882,39.8,14,0.0,972.8,8.9,41.8,86,37.3,24.0,8.8,266.0,178.0,35.6,0,5,10,0,2026-05-05T11:49:17.851156+05:30
Nashik,Maharashtra,19.9975,73.7898,33.8,36,0.0,946.8,8.2,44.6,59,57.5,22.3,1.7,172.0,114.0,4.3,0,5,7,1,2026-05-05T11:49:17.851163+05:30
Aurangabad,Maharashtra,19.8762,75.3433,36.0,21,0.0,945.3,9.0,31.7,60,65.4,20.2,1.3,165.0,119.0,4.4,0,5,10,0,2026-05-05T11:49:17.851170+05:30
Solapur,Maharashtra,17.6599,75.9064,37.4,18,0.0,957.7,9.1,42.8,52,71.2,18.2,1.4,163.0,121.0,3.3,0,5,10,0,2026-05-05T11:49:17.851177+05:30
Kolhapur,Maharashtra,16.705,74.2433,34.7,30,0.0,949.0,8.95,45.7,58,57.7,18.6,1.7,156.0,103.0,1.6,0,5,7,0,2026-05-05T11:49:17.851183+05:30
Goa,Goa,15.2993,74.124,35.8,44,0.0,998.1,8.95,34.6,68,46.2,19.0,0.9,161.0,81.0,1.6,0,5,10,1,2026-05-05T11:49:17.851190+05:30
Jodhpur,Rajasthan,26.2389,73.0243,35.1,35,0.0,983.9,8.3,47.5,93,138.8,31.0,1.3,178.0,141.0,7.5,0,5,10,1,2026-05-05T11:49:17.851197+05:30
Udaipur,Rajasthan,24.5854,73.7125,31.9,46,0.0,947.4,8.75,52.6,69,66.6,23.5,1.3,195.0,121.0,7.3,0,5,7,1,2026-05-05T11:49:17.851204+05:30
Kota,Rajasthan,25.2138,75.8648,34.5,31,0.0,980.3,8.3,48.6,82,86.4,39.9,3.9,290.0,174.0,40.8,0,5,7,0,2026-05-05T11:49:17.851211+05:30
Bikaner,Rajasthan,28.0229,73.3119,33.8,27,0.0,984.3,8.2,26.3,82,62.2,18.1,0.9,212.0,142.0,9.3,0,5,7,0,2026-05-05T11:49:17.851218+05:30
Ajmer,Rajasthan,26.4499,74.6399,32.8,33,0.0,956.9,8.2,34.6,64,67.5,24.1,1.1,219.0,149.0,9.2,0,5,7,0,2026-05-05T11:49:17.851225+05:30
Gwalior,Madhya Pradesh,26.2183,78.1828,32.7,40,0.0,985.7,8.1,47.5,110,62.9,38.5,1.6,298.0,153.0,8.9,0,5,7,1,2026-05-05T11:49:17.851231+05:30
Indore,Madhya Pradesh,22.7196,75.8577,34.6,32,0.0,949.4,8.6,43.9,73,54.4,19.8,1.3,200.0,135.0,3.8,0,5,7,0,2026-05-05T11:49:17.851237+05:30
Bhopal,Madhya Pradesh,23.2599,77.4126,35.8,25,0.0,954.8,8.6,41.4,80,61.7,27.4,1.0,253.0,149.0,7.0,0,5,10,0,2026-05-05T11:49:17.851244+05:30
Jabalpur,Madhya Pradesh,23.1815,79.9864,36.5,26,0.0,962.0,8.3,43.2,85,56.0,38.0,2.4,243.0,191.0,11.6,0,5,10,0,2026-05-05T11:49:17.851251+05:30
Ujjain,Madhya Pradesh,23.1765,75.7885,34.8,32,0.0,955.0,8.55,61.6,77,41.9,18.1,1.1,191.0,124.0,4.4,0,5,7,0,2026-05-05T11:49:17.851257+05:30
Visakhapatnam,Andhra Pradesh,17.6868,83.2185,33.5,55,0.0,1004.5,9.2,34.2,83,30.6,22.4,15.5,373.0,75.0,18.2,0,5,4,1,2026-05-05T11:49:17.851264+05:30
Vijayawada,Andhra Pradesh,16.5062,80.648,36.2,45,0.0,1002.5,9.2,36.4,77,36.2,23.2,1.6,198.0,121.0,5.7,0,5,7,1,2026-05-05T11:49:17.851271+05:30
Guntur,Andhra Pradesh,16.3067,80.4365,35.8,44,0.0,1003.7,9.2,38.5,77,39.7,25.5,1.2,203.0,124.0,3.3,0,5,7,1,2026-05-05T11:49:17.851278+05:30
Nellore,Andhra Pradesh,14.4426,79.9865,37.2,38,0.0,1004.9,8.9,38.2,75,51.2,37.3,2.5,235.0,176.0,15.0,0,5,7,1,2026-05-05T11:49:17.851285+05:30
Kurnool,Andhra Pradesh,15.8281,78.0373,39.2,16,0.0,976.2,9.2,41.4,77,49.5,19.0,2.0,224.0,143.0,7.5,0,5,10,0,2026-05-05T11:49:17.851293+05:30
Kakinada,Andhra Pradesh,16.9891,82.2475,34.0,58,0.0,1007.6,9.15,34.6,72,28.5,18.9,0.7,183.0,94.0,1.1,0,5,4,1,2026-05-05T11:49:17.851301+05:30
Tirupati,Andhra Pradesh,13.6288,79.4192,37.6,29,0.0,990.3,9.25,33.8,102,60.5,37.4,1.9,241.0,178.0,8.0,0,5,10,1,2026-05-05T11:49:17.851308+05:30
Warangal,Telangana,17.9689,79.5941,37.0,37,0.0,978.7,9.15,47.5,85,42.4,30.2,1.6,222.0,148.0,6.5,0,5,10,1,2026-05-05T11:49:17.851315+05:30
Nizamabad,Telangana,18.6725,78.0941,37.3,21,0.0,965.0,9.1,36.4,92,42.4,21.2,2.2,235.0,168.0,11.7,0,5,10,0,2026-05-05T11:49:17.851321+05:30
Mysore,Karnataka,12.2958,76.6396,31.4,46,0.0,929.7,9.35,34.9,68,35.2,15.9,2.0,197.0,128.0,1.7,0,5,7,1,2026-05-05T11:49:17.851328+05:30
Mangalore,Karnataka,12.9141,74.856,33.3,56,0.0,1006.9,8.6,47.5,62,43.4,17.2,1.2,161.0,83.0,1.4,0,5,4,1,2026-05-05T11:49:17.851335+05:30
Hubli-Dharwad,Karnataka,15.3647,75.124,34.4,28,0.0,942.0,9.2,50.0,56,60.8,17.5,1.5,173.0,103.0,1.3,0,5,7,0,2026-05-05T11:49:17.851342+05:30
Belgaum,Karnataka,15.8497,74.4977,33.2,26,0.0,927.6,9.2,46.8,58,61.0,16.6,1.4,151.0,93.0,2.1,0,5,7,0,2026-05-05T11:49:21.095945+05:30
Coimbatore,Tamil Nadu,11.0168,76.9558,30.8,53,0.0,962.2,9.25,46.1,58,29.5,12.3,1.4,218.0,115.0,2.3,0,5,7,1,2026-05-05T11:49:21.095975+05:30
Madurai,Tamil Nadu,9.9252,78.1198,38.0,30,0.0,992.0,4.45,29.2,86,54.4,32.1,2.5,241.0,187.0,4.5,0,5,6,1,2026-05-05T11:49:21.095985+05:30
Trichy,Tamil Nadu,10.7905,78.7047,36.5,36,0.0,998.7,8.65,42.5,85,37.6,18.6,2.1,194.0,145.0,4.8,0,5,10,1,2026-05-05T11:49:21.095993+05:30
Salem,Tamil Nadu,11.6643,78.146,34.0,42,0.0,977.2,9.0,35.3,88,57.4,25.3,3.4,193.0,173.0,13.4,0,5,7,1,2026-05-05T11:49:21.096000+05:30
Tirunelveli,Tamil Nadu,8.7139,77.7567,38.5,32,0.0,1001.8,8.75,41.4,79,48.1,16.9,1.3,190.0,88.0,0.7,0,5,7,1,2026-05-05T11:49:21.096007+05:30
Vellore,Tamil Nadu,12.9165,79.1325,37.0,30,0.0,983.9,8.35,32.4,111,66.4,31.7,1.9,222.0,176.0,7.0,0,5,10,1,2026-05-05T11:49:21.096014+05:30
Erode,Tamil Nadu,11.341,77.7172,36.8,32,0.0,988.6,8.95,47.9,71,44.4,19.0,2.2,245.0,148.0,1.9,0,5,10,1,2026-05-05T11:49:21.096021+05:30
Kochi,Kerala,9.9312,76.2673,30.9,70,0.0,1008.6,3.95,34.2,73,24.5,12.5,2.8,189.0,101.0,1.8,3,0,0,1,2026-05-05T11:49:21.096027+05:30
Thiruvananthapuram,Kerala,8.5241,76.9366,32.9,56,0.0,1007.8,8.8,39.2,73,48.3,21.0,3.5,179.0,96.0,3.6,0,5,4,1,2026-05-05T11:49:21.096034+05:30
Kozhikode,Kerala,11.2588,75.7804,31.4,68,0.0,1007.6,8.75,41.0,61,41.1,14.8,0.6,170.0,84.0,1.2,3,5,4,1,2026-05-05T11:49:21.096041+05:30
Thrissur,Kerala,10.5276,76.2144,33.0,59,0.0,1006.8,5.7,31.7,67,23.1,11.4,1.9,173.0,90.0,1.5,0,5,0,1,2026-05-05T11:49:21.096048+05:30
Kannur,Kerala,11.8745,75.3704,31.9,65,0.0,1007.3,8.7,43.6,64,42.7,17.0,1.1,167.0,88.0,1.4,3,5,4,1,2026-05-05T11:49:21.096054+05:30
Patna,Bihar,25.5941,85.1376,30.5,61,0.0,1003.5,8.7,29.9,126,46.1,40.3,4.1,339.0,155.0,11.8,3,5,4,1,2026-05-05T11:49:21.096061+05:30
Gaya,Bihar,24.7914,85.0002,32.2,51,0.0,996.5,8.75,34.2,108,59.8,43.3,2.9,353.0,177.0,13.6,0,5,7,1,2026-05-05T11:49:21.096067+05:30
Muzaffarpur,Bihar,26.1209,85.3647,31.0,57,0.0,1003.6,8.6,26.6,113,39.7,34.7,2.9,295.0,163.0,9.9,0,5,4,1,2026-05-05T11:49:21.096074+05:30
Bhagalpur,Bihar,25.2425,87.0117,31.6,50,0.0,1004.4,8.7,22.0,123,35.7,29.9,4.5,259.0,144.0,8.5,0,5,4,1,2026-05-05T11:49:21.096080+05:30
Ranchi,Jharkhand,23.3441,85.3096,27.9,58,0.0,940.8,9.2,26.6,93,58.6,34.0,1.7,256.0,181.0,16.2,4,5,7,1,2026-05-05T11:49:21.096087+05:30
Jamshedpur,Jharkhand,22.8046,86.2029,31.0,57,0.0,993.2,9.0,37.4,87,31.3,26.1,4.9,373.0,133.0,15.5,0,5,7,1,2026-05-05T11:49:21.096094+05:30
Dhanbad,Jharkhand,23.7957,86.4304,30.6,59,0.0,982.6,9.0,28.8,139,60.5,52.0,30.2,364.0,126.0,69.9,0,5,7,1,2026-05-05T11:49:21.096101+05:30
Bokaro,Jharkhand,23.6693,86.1511,31.4,58,0.0,986.4,8.85,28.4,150,74.0,58.3,30.3,582.0,142.0,76.8,0,5,7,1,2026-05-05T11:49:21.096108+05:30
Bhubaneswar,Odisha,20.2961,85.8245,32.4,62,0.0,1004.1,9.1,37.4,60,16.9,10.6,1.5,193.0,97.0,2.6,3,5,4,1,2026-05-05T11:49:21.096114+05:30
Cuttack,Odisha,20.4625,85.8828,32.2,61,0.0,1006.0,9.15,38.5,60,16.9,10.6,1.5,209.0,97.0,2.6,3,5,4,1,2026-05-05T11:49:21.096120+05:30
Rourkela,Odisha,22.2604,84.8536,32.8,52,0.0,986.6,9.0,34.2,99,47.1,37.5,2.3,422.0,182.0,38.6,0,5,7,1,2026-05-05T11:49:21.096126+05:30
Raipur,Chhattisgarh,21.2514,81.6296,37.2,30,0.0,975.3,8.95,50.0,107,66.4,40.9,6.4,569.0,196.0,7.7,0,5,10,1,2026-05-05T11:49:21.096133+05:30
Bhilai,Chhattisgarh,21.1938,81.3509,36.3,34,0.0,975.7,8.95,50.4,112,65.2,42.5,8.4,942.0,213.0,8.3,0,5,10,1,2026-05-05T11:49:21.096139+05:30
Guwahati,Assam,26.1158,91.7086,25.9,78,0.0,1004.6,8.65,25.2,78,37.0,20.5,1.0,274.0,136.0,1.4,7,5,4,1,2026-05-05T11:49:21.096145+05:30
Agartala,Tripura,23.8315,91.2868,30.8,62,0.0,1008.5,8.75,25.9,131,32.7,22.4,3.4,205.0,163.0,1.7,3,0,4,1,2026-05-05T11:49:21.096153+05:30
Shillong,Meghalaya,25.5788,91.8933,22.6,57,0.0,860.4,8.4,25.6,54,54.6,23.8,0.9,231.0,138.0,1.8,0,5,7,0,2026-05-05T11:49:21.096159+05:30
Imphal,Manipur,24.817,93.9368,27.2,56,0.0,925.6,9.2,32.0,93,44.2,21.4,0.8,238.0,123.0,1.5,4,5,7,1,2026-05-05T11:49:21.096165+05:30
Aizawl,Mizoram,23.7271,92.7176,26.6,48,0.0,895.5,9.05,27.7,76,37.5,18.6,0.6,177.0,111.0,1.0,4,5,7,0,2026-05-05T11:49:21.096172+05:30
Kohima,Nagaland,25.6701,94.1077,22.9,70,0.0,858.3,9.15,32.0,67,35.7,18.9,0.6,255.0,122.0,1.0,3,5,7,1,2026-05-05T11:49:21.096178+05:30
Gangtok,Sikkim,27.3314,88.6138,22.0,45,0.0,841.2,9.0,42.1,62,20.0,10.9,0.7,236.0,130.0,0.4,0,5,7,0,2026-05-05T11:49:21.096185+05:30
Siliguri,West Bengal,26.7271,88.3953,29.9,60,0.0,996.0,8.6,21.2,82,40.5,24.7,1.3,320.0,141.0,1.3,4,5,7,1,2026-05-05T11:49:24.353831+05:30
Durgapur,West Bengal,23.5204,87.3119,29.2,66,0.0,998.2,8.7,28.4,106,36.1,33.2,14.9,283.0,123.0,41.4,7,5,7,1,2026-05-05T11:49:24.353859+05:30
Asansol,West Bengal,23.6739,86.9524,30.5,58,0.0,996.7,8.3,32.0,112,41.4,36.4,16.8,387.0,126.0,48.9,0,5,7,1,2026-05-05T11:49:24.353869+05:30
Pondicherry,Puducherry,11.9139,79.8145,31.6,68,0.0,1007.7,8.9,36.0,77,47.7,30.4,4.4,307.0,147.0,14.9,3,5,4,1,2026-05-05T11:49:24.353877+05:30
Port Blair,Andaman and Nicobar Islands,11.6234,92.7265,29.1,79,0.1,1008.4,8.4,37.4,28,6.0,4.5,0.3,144.0,64.0,0.1,10,0,4,1,2026-05-05T11:49:24.353885+05:30
Haridwar,Uttarakhand,29.9457,78.1642,29.0,44,0.0,978.8,6.2,24.1,67,32.0,11.8,1.5,212.0,167.0,6.3,4,5,7,0,2026-05-05T11:49:24.353892+05:30
Rishikesh,Uttarakhand,30.0869,78.2676,28.0,43,0.0,971.5,6.6,32.8,53,31.2,9.5,0.9,178.0,157.0,3.4,4,5,7,0,2026-05-05T11:49:24.353899+05:30
Nainital,Uttarakhand,29.3919,79.4542,16.0,56,0.0,809.4,6.55,29.5,53,20.1,10.2,1.1,199.0,151.0,2.9,0,5,7,0,2026-05-05T11:49:24.353905+05:30
Mussoorie,Uttarakhand,30.4599,78.0664,16.3,51,0.0,806.8,6.2,35.3,64,33.8,9.3,1.0,188.0,151.0,2.9,0,5,7,0,2026-05-05T11:49:24.353912+05:30
Dharamshala,Himachal Pradesh,32.219,76.3234,19.6,53,0.0,873.0,6.7,38.2,59,43.7,10.3,0.5,188.0,152.0,0.7,0,5,7,0,2026-05-05T11:49:24.353919+05:30
Dalhousie,Himachal Pradesh,32.5387,75.971,17.1,46,0.0,808.3,6.15,41.8,74,76.6,17.2,1.0,202.0,158.0,1.3,0,5,7,0,2026-05-05T11:49:24.353926+05:30
Patiala,Punjab,30.3398,76.3869,28.1,46,0.0,982.9,7.3,66.6,223,186.3,31.7,2.1,225.0,177.0,10.3,4,5,7,0,2026-05-05T11:49:24.353932+05:30
Bhatinda,Punjab,30.211,74.9455,32.1,36,0.0,987.4,8.1,30.2,493,333.4,60.1,3.0,274.0,184.0,18.9,0,5,7,0,2026-05-05T11:49:24.353938+05:30
Rohtak,Haryana,28.8955,76.6066,30.6,45,0.0,985.6,7.55,59.0,230,363.2,67.3,4.2,312.0,204.0,21.7,0,5,7,1,2026-05-05T11:49:24.353944+05:30
Panipat,Haryana,29.3909,76.9635,28.9,56,0.0,984.3,6.65,48.2,589,325.0,60.5,4.8,297.0,201.0,27.4,4,5,7,1,2026-05-05T11:49:24.353951+05:30
Mathura,Uttar Pradesh,27.4924,77.6737,31.0,51,0.0,990.3,7.65,63.4,481,230.0,46.7,1.8,325.0,174.0,7.0,0,5,7,1,2026-05-05T11:49:24.353957+05:30
Vrindavan,Uttar Pradesh,27.5823,77.7027,31.1,49,0.0,990.8,7.6,65.9,481,230.0,46.7,1.8,324.0,174.0,7.0,0,5,7,1,2026-05-05T11:49:24.353963+05:30
Ayodhya,Uttar Pradesh,26.7922,82.1998,24.4,80,0.1,999.7,4.65,25.2,81,51.9,42.4,4.7,353.0,129.0,6.8,6,5,3,1,2026-05-05T11:49:24.353970+05:30
Ratlam,Madhya Pradesh,23.3315,75.0367,34.0,41,0.0,956.0,8.5,45.0,66,32.1,14.8,1.0,163.0,111.0,4.8,0,5,7,1,2026-05-05T11:49:24.353976+05:30
Sagar,Madhya Pradesh,23.8388,78.7378,32.7,39,0.0,952.1,8.65,35.3,79,76.6,39.1,1.6,237.0,168.0,16.5,0,5,7,1,2026-05-05T11:49:24.353982+05:30
Satna,Madhya Pradesh,24.6005,80.8322,31.0,43,0.0,973.8,8.7,51.1,124,66.8,39.0,2.1,214.0,161.0,9.4,0,5,7,1,2026-05-05T11:49:24.353988+05:30
Akola,Maharashtra,20.7002,77.0082,38.2,22,0.0,975.1,8.9,35.6,56,50.5,20.5,1.6,179.0,137.0,12.2,0,5,10,0,2026-05-05T11:49:24.353995+05:30
Amravati,Maharashtra,20.9374,77.7796,38.4,17,0.0,967.6,8.85,37.8,57,53.6,21.8,2.4,185.0,149.0,8.5,0,5,10,0,2026-05-05T11:49:24.354002+05:30
Latur,Maharashtra,18.4088,76.5604,36.7,19,0.0,940.9,9.05,38.5,60,66.4,20.5,1.4,158.0,126.0,10.5,0,5,10,0,2026-05-05T11:49:24.354010+05:30
Nanded,Maharashtra,19.1383,77.3091,38.3,22,0.0,968.7,8.95,33.1,65,47.8,19.0,1.5,184.0,134.0,7.1,0,5,10,0,2026-05-05T11:49:24.354017+05:30
Gulbarga,Karnataka,17.3297,76.8343,38.5,15,0.0,958.8,9.1,40.3,53,59.0,18.7,1.8,174.0,133.0,6.0,0,5,10,0,2026-05-05T11:49:24.354023+05:30
Bidar,Karnataka,17.9104,77.5199,36.3,21,0.0,936.6,9.15,36.0,61,43.3,18.5,1.8,166.0,140.0,9.3,0,5,10,0,2026-05-05T11:49:24.354029+05:30
Hospet,Karnataka,15.2689,76.3909,33.8,35,0.0,956.5,9.25,34.9,61,64.0,18.9,2.2,181.0,114.0,1.9,0,5,7,1,2026-05-05T11:49:24.354035+05:30
Tirupur,Tamil Nadu,11.1085,77.3411,35.0,39,0.0,975.2,9.2,52.9,71,38.6,16.9,2.2,230.0,141.0,2.6,0,5,7,1,2026-05-05T11:49:24.354041+05:30
Alappuzha,Kerala,9.4981,76.3388,32.3,61,0.0,1008.5,7.75,37.8,73,30.0,15.3,2.8,184.0,116.0,3.5,3,0,4,1,2026-05-05T11:49:24.354047+05:30
Munnar,Kerala,10.0889,77.0595,22.1,68,0.0,858.4,7.25,19.1,60,24.7,10.6,1.0,180.0,110.0,1.0,3,5,7,0,2026-05-05T11:49:24.354054+05:30
Silchar,Assam,24.8333,92.7789,31.5,55,0.0,1006.7,8.85,29.2,96,40.9,23.2,1.1,215.0,126.0,2.9,0,5,4,1,2026-05-05T11:49:24.354060+05:30
Dibrugarh,Assam,27.4728,94.912,27.4,75,0.0,997.7,8.45,34.6,55,18.2,12.2,1.2,220.0,126.0,1.1,7,5,7,1,2026-05-05T11:49:24.354066+05:30
