city,state,latitude,longitude,temp,humidity,rain,pressure,uv_index,wind_gusts,aqi,pm10,pm2_5,no2,co,o3,so2,mosquito_risk,arthritis_risk,migraine_risk,frizz_risk,updated_at
Delhi,Delhi,28.6139,77.209,36.3,26,0.0,981.8,7.7,45.7,474,499.2,129.5,23.6,552.0,93.0,22.3,0,5,10,0,2026-05-23T09:02:47.901846+05:30
Mumbai,Maharashtra,19.076,72.8777,31.0,72,0.1,1011.1,7.5,36.0,57,13.1,9.8,11.4,279.0,56.0,12.3,6,0,4,1,2026-05-23T09:02:47.901896+05:30
Bangalore,Karnataka,12.9716,77.5946,25.6,67,0.0,914.3,8.7,42.8,43,10.7,8.7,12.6,525.0,45.0,5.0,7,5,7,1,2026-05-23T09:02:47.901913+05:30
Hyderabad,Telangana,17.385,78.4867,32.6,51,0.0,954.6,9.2,55.4,84,30.5,25.8,6.5,352.0,101.0,6.4,0,5,7,1,2026-05-23T09:02:47.901923+05:30
Chennai,Tamil Nadu,13.0827,80.2707,35.2,44,0.0,1006.8,6.45,57.6,70,29.6,24.9,18.1,289.0,67.0,9.0,0,5,7,1,2026-05-23T09:02:47.901932+05:30
Kolkata,West Bengal,22.5726,88.3639,32.8,73,0.0,1003.8,8.95,44.6,102,64.0,38.5,3.2,335.0,113.0,6.3,3,5,4,1,2026-05-23T09:02:47.901941+05:30
Pune,Maharashtra,18.5204,73.8567,27.5,75,0.0,951.0,8.4,35.3,50,9.4,7.4,9.0,181.0,48.0,9.1,7,5,7,1,2026-05-23T09:02:47.901947+05:30
Ahmedabad,Gujarat,23.0225,72.5714,31.9,63,0.0,1004.7,8.15,37.8,75,36.9,22.2,4.3,183.0,55.0,5.2,3,5,4,1,2026-05-23T09:02:47.901954+05:30
Jaipur,Rajasthan,26.9124,75.7873,35.7,27,0.0,960.3,8.25,47.5,158,267.3,58.4,4.7,199.0,75.0,5.9,0,5,10,0,2026-05-23T09:02:47.901967+05:30
Lucknow,Uttar Pradesh,26.8467,80.9462,36.5,28,0.0,990.6,8.2,52.6,162,239.3,93.1,18.5,320.0,108.0,15.6,0,5,10,0,2026-05-23T09:02:47.901974+05:30
Kanpur,Uttar Pradesh,26.4499,80.3319,36.8,27,0.0,989.4,8.25,46.1,322,442.4,114.6,11.6,321.0,102.0,14.3,0,5,10,0,2026-05-23T09:02:47.901980+05:30
Chandigarh,Chandigarh,30.7333,76.7794,34.6,26,0.0,967.6,7.75,42.5,88,94.1,32.4,8.5,531.0,124.0,12.1,0,5,7,0,2026-05-23T09:02:47.901987+05:30
Srinagar,Jammu and Kashmir,34.0837,74.7973,15.4,77,0.0,846.1,8.85,28.8,68,38.6,17.9,10.5,387.0,62.0,3.0,3,5,7,0,2026-05-23T09:02:47.901994+05:30
Jammu,Jammu and Kashmir,32.7266,74.857,32.7,28,0.0,971.6,8.5,40.3,84,35.6,22.5,18.7,295.0,47.0,3.1,0,5,7,0,2026-05-23T09:02:47.902000+05:30
Amritsar,Punjab,31.634,74.8723,32.7,39,0.0,979.1,8.4,31.3,140,78.9,44.9,22.0,344.0,81.0,11.2,0,5,7,1,2026-05-23T09:02:47.902006+05:30
Ludhiana,Punjab,30.901,75.8573,33.6,32,0.0,977.3,8.0,40.7,105,94.3,45.2,12.3,421.0,108.0,10.2,0,5,7,0,2026-05-23T09:02:47.902015+05:30
Jalandhar,Punjab,31.326,75.5762,32.2,35,0.0,978.0,8.2,39.2,116,120.6,51.3,14.1,531.0,101.0,6.5,0,5,7,0,2026-05-23T09:02:47.902021+05:30
Dehradun,Uttarakhand,30.6284,78.0322,24.8,34,0.0,833.0,8.2,43.6,69,59.8,13.7,2.4,170.0,108.0,0.3,0,5,7,0,2026-05-23T09:02:47.902028+05:30
Shimla,Himachal Pradesh,31.1048,77.1734,21.5,28,0.0,788.2,8.25,49.7,72,92.4,22.2,1.9,151.0,115.0,1.2,0,5,7,0,2026-05-23T09:02:47.902053+05:30
Manali,Himachal Pradesh,32.2396,77.1887,21.6,36,0.0,822.1,9.5,40.3,42,4.6,2.2,9.2,163.0,100.0,0.1,0,5,7,0,2026-05-23T09:02:47.902059+05:30
Gurgaon,Haryana,28.4595,77.0266,35.9,27,0.0,980.2,7.85,42.1,929,1221.9,224.4,24.2,490.0,91.0,22.1,0,5,10,0,2026-05-23T09:02:47.902066+05:30
Noida,Uttar Pradesh,28.5355,77.391,36.5,26,0.0,982.9,7.75,39.6,929,1221.9,224.4,24.2,573.0,91.0,22.1,0,5,10,0,2026-05-23T09:02:47.902072+05:30
Ghaziabad,Uttar Pradesh,28.6692,77.4538,36.3,26,0.0,981.2,7.7,42.5,195,245.9,75.7,15.7,478.0,118.0,22.2,0,5,10,0,2026-05-23T09:02:47.902078+05:30
Faridabad,Haryana,28.4089,77.3178,36.4,26,0.0,982.4,7.8,44.3,929,1221.9,224.4,24.2,469.0,91.0,22.1,0,5,10,0,2026-05-23T09:02:47.902085+05:30
Meerut,Uttar Pradesh,28.9845,77.7064,34.2,34,0.0,980.0,7.65,48.2,195,245.9,75.7,15.7,314.0,118.0,22.2,0,5,7,0,2026-05-23T09:02:47.902091+05:30
Agra,Uttar Pradesh,27.1767,78.0081,36.2,26,0.0,986.4,8.1,40.7,615,603.5,135.5,19.4,344.0,97.0,19.0,0,5,10,0,2026-05-23T09:02:47.902097+05:30
Varanasi,Uttar Pradesh,25.3176,82.9739,38.0,36,0.0,994.4,8.75,50.0,156,75.2,33.9,13.4,311.0,93.0,9.4,0,5,10,1,2026-05-23T09:02:47.902104+05:30
Prayagraj,Uttar Pradesh,25.4358,81.8463,37.5,23,0.0,993.3,8.65,41.8,150,76.4,37.5,13.1,232.0,88.0,8.6,0,5,10,0,2026-05-23T09:02:47.902110+05:30
Gorakhpur,Uttar Pradesh,26.7606,83.3732,32.8,65,0.0,994.6,8.65,41.4,161,83.6,65.0,5.5,423.0,147.0,14.1,3,5,7,1,2026-05-23T09:02:47.902119+05:30
Bareilly,Uttar Pradesh,28.367,79.4304,33.0,37,0.0,984.4,8.05,45.0,155,70.3,41.0,13.4,290.0,106.0,13.0,0,5,7,1,2026-05-23T09:02:47.902125+05:30
Aligarh,Uttar Pradesh,27.8974,78.088,35.5,31,0.0,983.9,7.9,42.1,543,401.4,94.5,16.5,437.0,97.0,20.0,0,5,10,0,2026-05-23T09:02:47.902131+05:30
Moradabad,Uttar Pradesh,28.8386,78.7733,33.5,36,0.0,981.6,7.85,51.5,157,63.3,37.0,12.4,334.0,107.0,13.1,0,5,7,1,2026-05-23T09:02:47.902137+05:30
Saharanpur,Uttar Pradesh,29.9637,77.546,32.8,37,0.0,974.0,7.4,51.8,149,85.2,42.4,13.2,310.0,111.0,9.3,0,5,7,1,2026-05-23T09:02:47.902143+05:30
Jhansi,Uttar Pradesh,25.4484,78.5685,36.4,23,0.0,977.6,8.5,43.9,72,92.7,31.2,2.8,163.0,81.0,3.9,0,5,10,0,2026-05-23T09:02:51.146640+05:30
Surat,Gujarat,21.1702,72.8311,32.9,64,0.0,1009.2,7.6,40.0,68,18.1,14.2,15.3,295.0,43.0,38.5,3,0,4,1,2026-05-23T09:02:51.146678+05:30
Vadodara,Gujarat,22.3072,73.1812,33.6,54,0.0,1006.7,8.1,46.4,71,20.3,14.2,4.4,186.0,50.0,5.2,0,5,4,1,2026-05-23T09:02:51.146688+05:30
Rajkot,Gujarat,22.3039,70.8022,31.7,62,0.0,996.8,7.75,46.1,71,32.1,18.1,3.0,124.0,54.0,5.3,3,5,7,1,2026-05-23T09:02:51.146697+05:30
Thane,Maharashtra,19.2183,72.9781,30.7,76,0.0,1010.5,6.3,34.9,57,13.1,9.8,11.4,251.0,56.0,12.3,3,0,4,1,2026-05-23T09:02:51.146705+05:30
Nagpur,Maharashtra,21.1458,79.0882,38.5,19,0.0,973.2,8.95,55.8,60,27.2,20.1,6.2,209.0,113.0,14.3,0,5,10,0,2026-05-23T09:02:51.146713+05:30
Nashik,Maharashtra,19.9975,73.7898,29.3,62,0.0,948.8,5.95,43.9,52,14.6,10.7,8.7,175.0,49.0,13.3,7,5,3,1,2026-05-23T09:02:51.146720+05:30
Aurangabad,Maharashtra,19.8762,75.3433,31.2,50,0.0,947.1,9.05,41.8,61,16.7,11.6,6.7,193.0,66.0,12.5,0,5,7,1,2026-05-23T09:02:51.146728+05:30
Solapur,Maharashtra,17.6599,75.9064,30.9,56,0.0,960.1,9.0,46.4,70,11.1,8.8,5.7,199.0,58.0,3.5,0,5,7,1,2026-05-23T09:02:51.146735+05:30
Kolhapur,Maharashtra,16.705,74.2433,28.9,65,0.0,951.1,8.85,41.8,40,7.0,5.8,4.0,162.0,55.0,1.8,7,5,7,1,2026-05-23T09:02:51.146743+05:30
Goa,Goa,15.2993,74.124,30.4,74,0.1,1001.0,7.15,31.7,36,7.5,5.8,2.1,163.0,61.0,1.0,6,5,4,1,2026-05-23T09:02:51.146750+05:30
Jodhpur,Rajasthan,26.2389,73.0243,33.8,41,0.0,983.9,8.4,43.6,153,421.9,104.8,2.5,132.0,64.0,4.9,0,5,7,1,2026-05-23T09:02:51.146757+05:30
Udaipur,Rajasthan,24.5854,73.7125,32.8,35,0.0,948.7,8.85,37.4,83,78.2,34.1,2.1,157.0,71.0,3.8,0,5,7,0,2026-05-23T09:02:51.146765+05:30
Kota,Rajasthan,25.2138,75.8648,36.7,25,0.0,979.3,8.45,46.4,71,81.0,34.1,4.0,187.0,76.0,5.9,0,5,10,0,2026-05-23T09:02:51.146772+05:30
Bikaner,Rajasthan,28.0229,73.3119,36.6,30,0.0,981.4,8.4,43.6,144,208.6,72.6,1.4,148.0,79.0,4.1,0,5,10,1,2026-05-23T09:02:51.146779+05:30
Ajmer,Rajasthan,26.4499,74.6399,32.4,40,0.0,956.0,8.4,51.5,94,130.9,50.1,2.7,153.0,70.0,4.9,0,5,7,1,2026-05-23T09:02:51.146786+05:30
Gwalior,Madhya Pradesh,26.2183,78.1828,36.6,21,0.0,982.5,8.3,44.3,96,150.9,46.0,5.5,167.0,75.0,6.5,0,5,10,0,2026-05-23T09:02:51.146793+05:30
Indore,Madhya Pradesh,22.7196,75.8577,31.9,49,0.0,950.6,8.7,53.3,64,23.2,15.5,5.6,230.0,56.0,11.6,0,5,7,1,2026-05-23T09:02:51.146799+05:30
Bhopal,Madhya Pradesh,23.2599,77.4126,35.1,25,0.0,955.3,8.75,43.2,54,41.3,22.8,3.2,206.0,88.0,8.7,0,5,10,0,2026-05-23T09:02:51.146807+05:30
Jabalpur,Madhya Pradesh,23.1815,79.9864,37.3,17,0.0,961.9,8.9,39.6,58,18.8,12.7,4.7,189.0,96.0,5.5,0,5,10,0,2026-05-23T09:02:51.146813+05:30
Ujjain,Madhya Pradesh,23.1765,75.7885,32.5,48,0.0,956.0,8.65,49.7,64,26.0,16.5,4.9,183.0,56.0,11.3,0,5,7,1,2026-05-23T09:02:51.146821+05:30
Visakhapatnam,Andhra Pradesh,17.6868,83.2185,37.0,47,0.0,999.7,9.05,30.2,140,46.3,41.2,28.7,533.0,101.0,48.5,0,5,10,1,2026-05-23T09:02:51.146828+05:30
Vijayawada,Andhra Pradesh,16.5062,80.648,36.5,43,0.0,1000.7,9.1,48.2,77,38.2,32.5,6.1,216.0,108.0,9.2,0,5,7,1,2026-05-23T09:02:51.146836+05:30
Guntur,Andhra Pradesh,16.3067,80.4365,36.5,43,0.0,1002.1,9.15,48.6,74,36.6,30.5,5.2,220.0,108.0,7.2,0,5,7,1,2026-05-23T09:02:51.146843+05:30
Nellore,Andhra Pradesh,14.4426,79.9865,35.3,44,0.0,1005.5,8.85,76.3,77,10.9,8.1,5.0,161.0,72.0,6.3,0,5,7,1,2026-05-23T09:02:51.146851+05:30
Kurnool,Andhra Pradesh,15.8281,78.0373,31.8,56,0.0,979.1,9.1,63.4,57,11.1,9.0,5.9,193.0,60.0,5.3,0,5,7,1,2026-05-23T09:02:51.146859+05:30
Kakinada,Andhra Pradesh,16.9891,82.2475,36.4,42,0.0,1004.0,9.0,49.7,89,35.0,27.8,4.9,321.0,118.0,7.6,0,5,7,1,2026-05-23T09:02:51.146866+05:30
Tirupati,Andhra Pradesh,13.6288,79.4192,34.0,45,0.0,991.5,8.4,38.5,70,15.4,11.5,5.0,170.0,84.0,2.3,0,5,7,1,2026-05-23T09:02:51.146872+05:30
Warangal,Telangana,17.9689,79.5941,36.5,36,0.0,977.9,9.15,57.6,102,29.3,24.8,4.2,216.0,107.0,6.7,0,5,10,1,2026-05-23T09:02:51.146879+05:30
Nizamabad,Telangana,18.6725,78.0941,35.2,41,0.0,966.2,9.1,49.3,91,22.8,18.9,4.8,178.0,94.0,8.2,0,5,10,1,2026-05-23T09:02:51.146885+05:30
Mysore,Karnataka,12.2958,76.6396,25.5,72,0.0,931.4,8.7,39.6,28,7.8,6.8,7.5,153.0,50.0,2.2,7,5,7,1,2026-05-23T09:02:51.146891+05:30
Mangalore,Karnataka,12.9141,74.856,28.5,82,0.1,1010.1,4.85,27.4,33,8.9,7.1,4.6,200.0,60.0,2.8,10,0,0,1,2026-05-23T09:02:51.146898+05:30
Hubli-Dharwad,Karnataka,15.3647,75.124,27.2,73,0.0,944.0,9.05,45.4,26,3.6,2.6,2.8,141.0,63.0,0.8,7,5,7,1,2026-05-23T09:02:51.146905+05:30
Belgaum,Karnataka,15.8497,74.4977,26.9,71,0.0,929.1,9.05,39.6,29,4.9,3.8,2.9,138.0,60.0,1.6,7,5,7,1,2026-05-23T09:02:54.383819+05:30
Coimbatore,Tamil Nadu,11.0168,76.9558,29.2,62,0.0,964.1,9.05,47.5,22,6.7,5.4,3.9,175.0,67.0,2.3,7,5,7,1,2026-05-23T09:02:54.383855+05:30
Madurai,Tamil Nadu,9.9252,78.1198,32.8,48,0.0,994.5,8.2,42.8,54,15.5,13.4,12.5,194.0,67.0,6.4,0,5,7,1,2026-05-23T09:02:54.383867+05:30
Trichy,Tamil Nadu,10.7905,78.7047,31.5,58,0.0,1000.6,8.3,46.1,28,8.2,7.1,6.0,163.0,58.0,3.9,0,5,4,1,2026-05-23T09:02:54.383876+05:30
Salem,Tamil Nadu,11.6643,78.146,30.3,55,0.0,979.4,8.6,28.1,59,16.2,12.7,10.8,189.0,65.0,13.6,0,5,7,1,2026-05-23T09:02:54.383885+05:30
Tirunelveli,Tamil Nadu,8.7139,77.7567,33.0,50,0.0,1004.9,8.3,42.8,24,9.5,7.7,4.4,144.0,63.0,2.0,0,5,4,1,2026-05-23T09:02:54.383893+05:30
Vellore,Tamil Nadu,12.9165,79.1325,32.2,49,0.0,985.1,3.95,45.4,74,14.0,10.6,6.5,205.0,76.0,4.3,0,5,3,1,2026-05-23T09:02:54.383900+05:30
Erode,Tamil Nadu,11.341,77.7172,31.9,48,0.0,991.1,8.95,40.0,35,9.6,7.8,6.3,193.0,61.0,2.7,0,5,7,1,2026-05-23T09:02:54.383908+05:30
Kochi,Kerala,9.9312,76.2673,28.6,81,0.0,1012.0,7.8,37.1,54,15.8,13.6,9.6,247.0,61.0,5.6,7,0,4,1,2026-05-23T09:02:54.383915+05:30
Thiruvananthapuram,Kerala,8.5241,76.9366,27.9,82,0.1,1011.7,8.0,45.0,30,13.0,10.0,5.1,180.0,61.0,3.1,10,0,4,1,2026-05-23T09:02:54.383923+05:30
Kozhikode,Kerala,11.2588,75.7804,29.1,81,0.1,1011.1,8.15,37.1,28,8.4,6.5,2.5,190.0,68.0,2.2,10,0,4,1,2026-05-23T09:02:54.383929+05:30
Thrissur,Kerala,10.5276,76.2144,29.2,81,0.0,1010.3,8.05,34.2,55,12.8,10.6,4.8,228.0,69.0,3.3,7,0,4,1,2026-05-23T09:02:54.383937+05:30
Kannur,Kerala,11.8745,75.3704,29.3,77,0.0,1010.5,8.8,33.8,34,10.3,8.5,4.9,211.0,64.0,3.0,7,0,4,1,2026-05-23T09:02:54.383944+05:30
Patna,Bihar,25.5941,85.1376,33.5,66,0.0,997.6,8.85,34.9,156,76.6,63.6,8.3,513.0,139.0,21.9,3,5,7,1,2026-05-23T09:02:54.383952+05:30
Gaya,Bihar,24.7914,85.0002,35.5,45,0.0,991.0,8.9,36.4,159,107.3,76.1,7.5,307.0,158.0,20.5,0,5,10,1,2026-05-23T09:02:54.383960+05:30
Muzaffarpur,Bihar,26.1209,85.3647,31.8,72,0.0,997.8,8.85,26.3,154,68.9,55.6,7.2,469.0,138.0,17.5,3,5,7,1,2026-05-23T09:02:54.383968+05:30
Bhagalpur,Bihar,25.2425,87.0117,33.0,69,0.0,998.7,8.85,32.8,147,33.1,27.4,11.0,489.0,92.0,15.3,3,5,7,1,2026-05-23T09:02:54.383975+05:30
Ranchi,Jharkhand,23.3441,85.3096,33.6,36,0.0,937.5,9.3,33.5,139,212.3,61.2,5.0,285.0,154.0,11.7,0,5,7,1,2026-05-23T09:02:54.383982+05:30
Jamshedpur,Jharkhand,22.8046,86.2029,34.9,58,0.0,988.8,9.1,26.6,154,98.0,76.4,13.9,481.0,139.0,42.0,0,5,7,1,2026-05-23T09:02:54.383988+05:30
Dhanbad,Jharkhand,23.7957,86.4304,34.3,60,0.0,977.9,9.1,38.9,162,114.1,87.8,44.6,455.0,103.0,114.5,0,5,7,1,2026-05-23T09:02:54.383996+05:30
Bokaro,Jharkhand,23.6693,86.1511,35.0,54,0.0,981.6,9.1,29.9,166,137.8,76.8,25.5,467.0,146.0,69.8,0,5,7,1,2026-05-23T09:02:54.384003+05:30
Bhubaneswar,Odisha,20.2961,85.8245,33.8,70,0.0,1000.3,8.15,37.8,103,51.1,34.3,3.1,279.0,118.0,7.7,3,5,4,1,2026-05-23T09:02:54.384010+05:30
Cuttack,Odisha,20.4625,85.8828,33.5,73,0.0,1002.2,7.9,33.5,103,51.1,34.3,3.1,299.0,118.0,7.7,3,5,4,1,2026-05-23T09:02:54.384017+05:30
Rourkela,Odisha,22.2604,84.8536,34.5,61,0.0,983.2,9.0,37.4,164,112.5,84.8,7.6,455.0,168.0,33.3,3,5,7,1,2026-05-23T09:02:54.384023+05:30
Raipur,Chhattisgarh,21.2514,81.6296,38.3,16,0.0,973.6,8.95,39.6,137,82.9,72.9,44.6,438.0,98.0,94.6,0,5,10,0,2026-05-23T09:02:54.384030+05:30
Bhilai,Chhattisgarh,21.1938,81.3509,37.2,20,0.0,974.2,8.95,45.4,101,76.6,63.3,48.2,1084.0,70.0,126.0,0,5,10,0,2026-05-23T09:02:54.384037+05:30
Guwahati,Assam,26.1158,91.7086,24.0,94,0.3,1001.3,8.75,29.5,67,18.2,11.9,3.7,285.0,106.0,3.0,6,5,4,1,2026-05-23T09:02:54.384044+05:30
Agartala,Tripura,23.8315,91.2868,29.0,86,0.1,1005.5,8.8,36.0,86,23.2,17.7,6.0,219.0,72.0,3.0,10,5,4,1,2026-05-23T09:02:54.384052+05:30
Shillong,Meghalaya,25.5788,91.8933,24.2,69,0.0,858.2,8.5,41.0,46,4.0,2.7,4.1,218.0,91.0,3.0,3,5,7,1,2026-05-23T09:02:54.384059+05:30
Imphal,Manipur,24.817,93.9368,27.2,69,0.0,924.0,9.05,38.5,66,29.7,15.4,2.0,271.0,98.0,2.5,7,5,7,1,2026-05-23T09:02:54.384066+05:30
Aizawl,Mizoram,23.7271,92.7176,25.6,68,0.0,893.9,9.05,36.7,54,29.9,14.3,1.1,196.0,83.0,1.5,7,5,7,1,2026-05-23T09:02:54.384073+05:30
Kohima,Nagaland,25.6701,94.1077,22.0,94,0.2,856.0,9.3,26.3,51,6.3,3.9,2.9,258.0,90.0,1.3,6,5,7,1,2026-05-23T09:02:54.384080+05:30
Gangtok,Sikkim,27.3314,88.6138,21.8,69,0.0,838.2,9.15,38.5,56,20.8,12.6,2.2,368.0,121.0,1.8,3,5,7,0,2026-05-23T09:02:54.384087+05:30
Siliguri,West Bengal,26.7271,88.3953,25.8,85,0.0,992.2,8.75,25.2,104,33.5,21.0,3.9,434.0,132.0,4.4,7,5,7,1,2026-05-23T09:02:57.618440+05:30
Durgapur,West Bengal,23.5204,87.3119,33.5,72,0.0,992.9,9.0,46.1,152,78.0,64.3,22.7,749.0,87.0,64.0,3,5,7,1,2026-05-23T09:02:57.618477+05:30
Asansol,West Bengal,23.6739,86.9524,34.2,68,0.0,991.3,9.05,31.3,151,77.8,65.0,25.6,552.0,86.0,64.4,3,5,7,1,2026-05-23T09:02:57.618489+05:30
Pondicherry,Puducherry,11.9139,79.8145,32.1,56,0.0,1008.5,7.25,37.4,62,16.2,13.9,13.7,293.0,56.0,3.9,0,0,4,1,2026-05-23T09:02:57.618498+05:30
Port Blair,Andaman and Nicobar Islands,11.6234,92.7265,27.0,90,0.0,1009.0,8.15,41.8,34,5.1,3.3,0.5,138.0,74.0,0.3,7,0,4,1,2026-05-23T09:02:57.618506+05:30
Haridwar,Uttarakhand,29.9457,78.1642,32.5,37,0.0,972.0,7.55,50.8,126,77.8,39.5,6.7,313.0,135.0,5.3,0,5,7,0,2026-05-23T09:02:57.618513+05:30
Rishikesh,Uttarakhand,30.0869,78.2676,32.3,34,0.0,965.0,7.65,41.4,119,78.9,41.8,3.7,358.0,134.0,2.4,0,5,7,0,2026-05-23T09:02:57.618521+05:30
Nainital,Uttarakhand,29.3919,79.4542,24.0,28,0.0,808.8,8.5,50.8,152,121.5,43.9,2.8,163.0,140.0,3.8,0,5,7,0,2026-05-23T09:02:57.618528+05:30
Mussoorie,Uttarakhand,30.4599,78.0664,23.2,28,0.0,806.0,8.05,60.8,95,54.7,25.5,5.7,149.0,131.0,2.6,0,5,7,0,2026-05-23T09:02:57.618535+05:30
Dharamshala,Himachal Pradesh,32.219,76.3234,25.9,35,0.0,870.8,7.9,41.4,51,69.4,15.0,1.3,194.0,107.0,0.9,4,5,7,0,2026-05-23T09:02:57.618543+05:30
Dalhousie,Himachal Pradesh,32.5387,75.971,22.2,30,0.0,807.9,8.5,42.5,70,48.1,15.2,6.6,212.0,99.0,1.3,0,5,7,0,2026-05-23T09:02:57.618550+05:30
Patiala,Punjab,30.3398,76.3869,35.0,29,0.0,977.0,7.65,42.5,479,310.1,65.4,10.5,332.0,104.0,14.3,0,5,7,0,2026-05-23T09:02:57.618558+05:30
Bhatinda,Punjab,30.211,74.9455,35.0,29,0.0,982.4,8.3,36.4,89,73.3,38.3,14.2,324.0,93.0,11.6,0,5,7,0,2026-05-23T09:02:57.618565+05:30
Rohtak,Haryana,28.8955,76.6066,35.7,30,0.0,980.6,7.75,41.8,917,767.4,165.3,15.3,341.0,89.0,8.4,0,5,10,0,2026-05-23T09:02:57.618572+05:30
Panipat,Haryana,29.3909,76.9635,35.8,29,0.0,979.1,7.6,47.9,1623,979.8,167.6,11.8,301.0,89.0,11.6,0,5,10,0,2026-05-23T09:02:57.618578+05:30
Mathura,Uttar Pradesh,27.4924,77.6737,36.7,26,0.0,985.4,8.0,41.8,634,665.0,157.9,18.6,378.0,85.0,20.4,0,5,10,0,2026-05-23T09:02:57.618585+05:30
Vrindavan,Uttar Pradesh,27.5823,77.7027,36.5,27,0.0,985.8,8.0,40.0,634,665.0,157.9,18.6,363.0,85.0,20.4,0,5,10,0,2026-05-23T09:02:57.618608+05:30
Ayodhya,Uttar Pradesh,26.7922,82.1998,33.5,65,0.0,992.4,8.4,45.0,154,90.3,78.5,8.8,579.0,138.0,20.2,3,5,7,1,2026-05-23T09:02:57.618616+05:30
Ratlam,Madhya Pradesh,23.3315,75.0367,31.8,50,0.0,957.2,8.55,46.8,65,25.3,16.4,4.7,159.0,56.0,11.0,0,5,7,1,2026-05-23T09:02:57.618622+05:30
Sagar,Madhya Pradesh,23.8388,78.7378,36.5,17,0.0,951.3,8.75,46.8,52,60.5,23.3,3.7,173.0,88.0,6.3,0,5,10,0,2026-05-23T09:02:57.618629+05:30
Satna,Madhya Pradesh,24.6005,80.8322,37.2,18,0.0,970.6,8.8,47.9,62,39.0,16.9,3.9,165.0,95.0,4.8,0,5,10,0,2026-05-23T09:02:57.618636+05:30
Akola,Maharashtra,20.7002,77.0082,34.6,41,0.0,977.1,8.1,49.3,68,24.8,16.1,4.0,154.0,76.0,9.8,0,5,7,1,2026-05-23T09:02:57.618644+05:30
Amravati,Maharashtra,20.9374,77.7796,36.3,30,0.0,968.7,8.3,51.1,66,28.4,19.6,4.3,183.0,91.0,12.8,0,5,10,0,2026-05-23T09:02:57.618652+05:30
Latur,Maharashtra,18.4088,76.5604,32.0,50,0.0,942.7,9.05,42.8,84,16.1,12.7,4.9,210.0,85.0,6.5,0,5,7,1,2026-05-23T09:02:57.618660+05:30
Nanded,Maharashtra,19.1383,77.3091,35.4,38,0.0,970.5,9.0,46.4,88,21.6,16.5,4.4,186.0,94.0,8.0,0,5,10,1,2026-05-23T09:02:57.618667+05:30
Gulbarga,Karnataka,17.3297,76.8343,31.4,54,0.0,961.4,9.05,59.0,69,11.1,9.0,6.1,207.0,57.0,3.5,0,5,7,1,2026-05-23T09:02:57.618674+05:30
Bidar,Karnataka,17.9104,77.5199,31.8,54,0.0,938.1,9.1,51.5,93,23.2,19.5,7.5,232.0,93.0,9.2,0,5,7,1,2026-05-23T09:02:57.618681+05:30
Hospet,Karnataka,15.2689,76.3909,28.1,68,0.0,959.2,8.9,42.8,41,4.2,3.4,3.2,144.0,59.0,1.5,7,5,7,1,2026-05-23T09:02:57.618687+05:30
Tirupur,Tamil Nadu,11.1085,77.3411,29.8,62,0.0,977.5,9.0,46.4,37,10.1,8.2,6.3,166.0,65.0,3.1,7,5,7,1,2026-05-23T09:02:57.618693+05:30
Alappuzha,Kerala,9.4981,76.3388,28.5,82,0.0,1012.2,7.85,37.1,39,15.2,12.7,10.0,117.0,61.0,6.2,7,0,4,1,2026-05-23T09:02:57.618700+05:30
Munnar,Kerala,10.0889,77.0595,20.2,82,0.0,860.5,8.6,33.5,23,6.8,5.8,2.6,127.0,67.0,0.8,3,5,7,1,2026-05-23T09:02:57.618707+05:30
Silchar,Assam,24.8333,92.7789,25.8,92,0.4,1005.6,8.95,36.0,70,21.6,12.7,3.1,237.0,90.0,3.0,10,5,4,1,2026-05-23T09:02:57.618714+05:30
Dibrugarh,Assam,27.4728,94.912,24.1,100,0.1,995.5,8.9,29.9,90,21.9,17.8,4.2,274.0,103.0,1.4,6,5,7,1,2026-05-23T09:02:57.618720+05:30
