city,state,latitude,longitude,temp,humidity,rain,pressure,uv_index,wind_gusts,aqi,pm10,pm2_5,mosquito_risk,arthritis_risk,migraine_risk,frizz_risk,updated_at
Delhi,Delhi,28.6139,77.209,32.0,40,0.0,989.9,6.15,23.8,178,217.0,78.0,0,5,7,1,2026-03-11T11:22:09.902017+05:30
Mumbai,Maharashtra,19.076,72.8777,28.2,80,0.0,1013.5,7.6,19.4,153,79.2,72.2,7,0,4,1,2026-03-11T11:22:09.902065+05:30
Bangalore,Karnataka,12.9716,77.5946,27.7,35,0.0,917.0,9.25,27.7,69,16.9,14.2,4,5,7,0,2026-03-11T11:22:09.902081+05:30
Hyderabad,Telangana,17.385,78.4867,32.3,19,0.0,960.0,8.6,22.0,100,17.8,13.4,0,5,7,0,2026-03-11T11:22:09.902091+05:30
Chennai,Tamil Nadu,13.0827,80.2707,31.9,51,0.0,1013.1,9.0,30.6,68,21.6,17.4,0,0,4,1,2026-03-11T11:22:09.902100+05:30
Kolkata,West Bengal,22.5726,88.3639,29.8,61,0.0,1011.6,6.85,21.6,143,69.8,56.5,7,0,4,1,2026-03-11T11:22:09.902109+05:30
Pune,Maharashtra,18.5204,73.8567,35.1,27,0.0,954.3,8.15,30.2,118,64.3,53.0,0,5,10,0,2026-03-11T11:22:09.902122+05:30
Ahmedabad,Gujarat,23.0225,72.5714,36.1,22,0.0,1009.0,7.4,26.3,68,26.8,23.5,0,0,7,0,2026-03-11T11:22:09.902130+05:30
Jaipur,Rajasthan,26.9124,75.7873,34.8,14,0.0,967.3,6.8,38.5,99,192.8,38.0,0,5,7,0,2026-03-11T11:22:09.902138+05:30
Lucknow,Uttar Pradesh,26.8467,80.9462,31.1,53,0.0,1000.3,6.6,31.0,193,158.8,94.5,0,5,4,1,2026-03-11T11:22:09.902147+05:30
Kanpur,Uttar Pradesh,26.4499,80.3319,31.0,57,0.0,998.8,6.65,24.1,179,186.7,78.0,0,5,7,1,2026-03-11T11:22:09.902155+05:30
Chandigarh,Chandigarh,30.7333,76.7794,29.3,57,0.0,975.7,5.35,24.5,153,62.6,44.4,4,5,3,1,2026-03-11T11:22:09.902163+05:30
Srinagar,Jammu and Kashmir,34.0837,74.7973,9.5,94,0.9,847.6,4.1,28.1,127,51.6,36.6,6,10,3,0,2026-03-11T11:22:09.902170+05:30
Jammu,Jammu and Kashmir,32.7266,74.857,29.0,44,0.0,979.0,5.6,43.6,115,48.4,32.1,4,5,3,0,2026-03-11T11:22:09.902178+05:30
Amritsar,Punjab,31.634,74.8723,27.0,68,0.0,987.3,6.45,28.1,158,116.6,70.3,7,5,7,1,2026-03-11T11:22:09.902185+05:30
Ludhiana,Punjab,30.901,75.8573,29.2,57,0.0,985.8,6.3,15.5,176,137.4,101.3,4,5,7,1,2026-03-11T11:22:09.902192+05:30
Jalandhar,Punjab,31.326,75.5762,28.7,60,0.0,986.9,6.5,18.4,169,145.3,87.8,4,5,7,1,2026-03-11T11:22:09.902202+05:30
Dehradun,Uttarakhand,30.6284,78.0322,22.4,46,0.0,837.3,5.9,28.8,85,26.9,14.4,0,5,3,0,2026-03-11T11:22:09.902212+05:30
Shimla,Himachal Pradesh,31.1048,77.1734,20.2,48,0.0,792.5,5.85,45.0,112,32.5,18.9,0,5,3,0,2026-03-11T11:22:09.902219+05:30
Manali,Himachal Pradesh,32.2396,77.1887,20.7,27,0.0,828.3,6.7,42.5,55,28.8,10.8,0,5,7,0,2026-03-11T11:22:09.902226+05:30
Gurgaon,Haryana,28.4595,77.0266,31.4,46,0.0,988.5,6.15,23.4,322,521.5,93.6,0,5,7,1,2026-03-11T11:22:09.902234+05:30
Noida,Uttar Pradesh,28.5355,77.391,32.5,40,0.0,991.3,6.15,23.8,322,521.5,93.6,0,5,7,1,2026-03-11T11:22:09.902241+05:30
Ghaziabad,Uttar Pradesh,28.6692,77.4538,30.9,50,0.0,989.5,6.1,23.0,172,161.6,80.3,0,5,7,1,2026-03-11T11:22:09.902247+05:30
Faridabad,Haryana,28.4089,77.3178,31.8,45,0.0,990.7,6.15,22.0,322,521.5,93.6,0,5,7,1,2026-03-11T11:22:09.902254+05:30
Meerut,Uttar Pradesh,28.9845,77.7064,30.4,53,0.0,988.4,5.5,28.4,172,161.6,80.3,0,5,3,1,2026-03-11T11:22:09.902261+05:30
Agra,Uttar Pradesh,27.1767,78.0081,34.0,37,0.0,994.7,6.5,19.4,233,357.6,85.0,0,5,7,1,2026-03-11T11:22:09.902268+05:30
Varanasi,Uttar Pradesh,25.3176,82.9739,30.9,58,0.0,1003.9,7.3,23.0,192,159.7,122.9,0,5,4,1,2026-03-11T11:22:09.902277+05:30
Prayagraj,Uttar Pradesh,25.4358,81.8463,31.0,58,0.0,1002.8,7.15,23.0,191,157.4,120.1,0,5,4,1,2026-03-11T11:22:09.902285+05:30
Gorakhpur,Uttar Pradesh,26.7606,83.3732,28.7,70,0.0,1003.8,7.0,25.9,207,154.1,133.6,7,5,4,1,2026-03-11T11:22:09.902292+05:30
Bareilly,Uttar Pradesh,28.367,79.4304,30.0,62,0.0,993.4,6.35,32.4,209,205.8,155.5,7,5,7,1,2026-03-11T11:22:09.902301+05:30
Aligarh,Uttar Pradesh,27.8974,78.088,32.3,42,0.0,992.4,6.25,23.8,176,257.0,87.8,0,5,7,1,2026-03-11T11:22:09.902307+05:30
Moradabad,Uttar Pradesh,28.8386,78.7733,29.9,57,0.0,990.3,6.15,34.9,197,189.1,156.5,4,5,7,1,2026-03-11T11:22:09.902314+05:30
Saharanpur,Uttar Pradesh,29.9637,77.546,28.7,63,0.0,982.3,5.4,37.1,172,115.0,84.8,7,5,3,1,2026-03-11T11:22:09.902320+05:30
Jhansi,Uttar Pradesh,25.4484,78.5685,34.0,30,0.0,985.2,7.1,27.4,102,135.5,40.3,0,5,7,0,2026-03-11T11:22:13.245844+05:30
Surat,Gujarat,21.1702,72.8311,34.5,27,0.0,1012.2,7.3,25.9,114,43.0,40.5,0,0,4,0,2026-03-11T11:22:13.245877+05:30
Vadodara,Gujarat,22.3072,73.1812,36.8,22,0.0,1010.5,7.45,20.2,71,27.8,21.2,0,0,7,0,2026-03-11T11:22:13.245888+05:30
Rajkot,Gujarat,22.3039,70.8022,33.2,28,0.0,1001.6,7.25,29.9,70,24.7,22.4,0,5,4,0,2026-03-11T11:22:13.245897+05:30
Thane,Maharashtra,19.2183,72.9781,33.3,43,0.0,1012.9,7.6,36.7,153,79.2,72.2,0,0,4,1,2026-03-11T11:22:13.245905+05:30
Nagpur,Maharashtra,21.1458,79.0882,34.2,27,0.0,979.9,8.0,11.9,83,54.9,26.7,0,5,7,0,2026-03-11T11:22:13.245914+05:30
Nashik,Maharashtra,19.9975,73.7898,33.8,21,0.0,952.0,7.75,25.6,73,29.9,23.6,0,5,7,0,2026-03-11T11:22:13.245923+05:30
Aurangabad,Maharashtra,19.8762,75.3433,32.7,31,0.0,950.8,8.3,18.4,88,45.4,36.2,0,5,7,0,2026-03-11T11:22:13.245931+05:30
Solapur,Maharashtra,17.6599,75.9064,31.3,37,0.0,963.7,8.5,20.5,127,24.6,20.8,0,5,7,0,2026-03-11T11:22:13.245939+05:30
Kolhapur,Maharashtra,16.705,74.2433,31.3,35,0.0,953.9,8.65,30.2,153,43.8,37.7,0,5,7,0,2026-03-11T11:22:13.245947+05:30
Goa,Goa,15.2993,74.124,33.1,51,0.0,1002.8,8.7,37.8,153,57.5,50.2,0,5,4,1,2026-03-11T11:22:13.245956+05:30
Jodhpur,Rajasthan,26.2389,73.0243,33.5,23,0.0,990.9,7.2,32.8,85,140.2,42.3,0,5,7,0,2026-03-11T11:22:13.245965+05:30
Udaipur,Rajasthan,24.5854,73.7125,33.5,19,0.0,954.6,7.8,26.3,52,21.0,11.0,0,5,7,0,2026-03-11T11:22:13.245973+05:30
Kota,Rajasthan,25.2138,75.8648,33.9,21,0.0,986.6,7.2,19.1,75,58.9,23.6,0,5,7,0,2026-03-11T11:22:13.245981+05:30
Bikaner,Rajasthan,28.0229,73.3119,31.4,24,0.0,989.1,6.2,29.9,69,38.5,23.8,0,5,7,0,2026-03-11T11:22:13.245989+05:30
Ajmer,Rajasthan,26.4499,74.6399,32.4,22,0.0,962.6,7.15,31.3,84,126.2,31.4,0,5,7,0,2026-03-11T11:22:13.245997+05:30
Gwalior,Madhya Pradesh,26.2183,78.1828,33.7,32,0.0,990.2,6.8,30.2,120,116.2,33.1,0,5,7,0,2026-03-11T11:22:13.246005+05:30
Indore,Madhya Pradesh,22.7196,75.8577,34.3,17,0.0,955.5,7.7,22.0,64,35.6,17.5,0,5,7,0,2026-03-11T11:22:13.246013+05:30
Bhopal,Madhya Pradesh,23.2599,77.4126,34.2,27,0.0,961.1,7.55,24.8,59,62.6,20.9,0,5,7,0,2026-03-11T11:22:13.246021+05:30
Jabalpur,Madhya Pradesh,23.1815,79.9864,32.0,39,0.0,968.6,7.7,24.8,83,99.2,36.0,0,5,7,1,2026-03-11T11:22:13.246029+05:30
Ujjain,Madhya Pradesh,23.1765,75.7885,32.8,27,0.0,961.3,7.65,15.1,75,32.9,18.9,0,5,7,0,2026-03-11T11:22:13.246038+05:30
Visakhapatnam,Andhra Pradesh,17.6868,83.2185,32.3,47,0.0,1009.2,8.6,38.5,106,37.0,32.6,0,0,4,1,2026-03-11T11:22:13.246046+05:30
Vijayawada,Andhra Pradesh,16.5062,80.648,31.0,50,0.0,1009.3,8.7,16.6,97,22.8,20.2,0,0,4,1,2026-03-11T11:22:13.246054+05:30
Guntur,Andhra Pradesh,16.3067,80.4365,31.0,51,0.0,1010.6,8.7,18.7,84,20.5,17.9,0,0,4,1,2026-03-11T11:22:13.246063+05:30
Nellore,Andhra Pradesh,14.4426,79.9865,31.6,51,0.0,1012.1,8.9,27.4,71,20.0,16.8,0,0,4,1,2026-03-11T11:22:13.246072+05:30
Kurnool,Andhra Pradesh,15.8281,78.0373,32.7,25,0.0,983.5,8.7,23.4,74,18.3,16.1,0,5,7,0,2026-03-11T11:22:13.246080+05:30
Kakinada,Andhra Pradesh,16.9891,82.2475,32.5,45,0.0,1013.4,8.65,20.5,94,32.7,29.2,0,0,4,1,2026-03-11T11:22:13.246088+05:30
Tirupati,Andhra Pradesh,13.6288,79.4192,31.2,40,0.0,997.6,9.0,32.8,85,20.1,17.2,0,5,7,0,2026-03-11T11:22:13.246096+05:30
Warangal,Telangana,17.9689,79.5941,31.5,36,0.0,985.5,8.45,23.4,107,15.9,14.3,0,5,7,0,2026-03-11T11:22:13.246105+05:30
Nizamabad,Telangana,18.6725,78.0941,33.1,30,0.0,971.5,8.35,24.5,129,40.5,35.0,0,5,7,0,2026-03-11T11:22:13.246112+05:30
Mysore,Karnataka,12.2958,76.6396,28.1,43,0.0,933.4,9.25,28.8,69,18.3,15.6,4,5,7,0,2026-03-11T11:22:13.246121+05:30
Mangalore,Karnataka,12.9141,74.856,28.8,82,0.0,1010.8,8.9,27.7,118,37.6,33.4,7,0,4,1,2026-03-11T11:22:13.246129+05:30
Hubli-Dharwad,Karnataka,15.3647,75.124,31.0,32,0.0,946.6,8.85,35.6,107,22.8,20.1,0,5,7,0,2026-03-11T11:22:13.246137+05:30
Belgaum,Karnataka,15.8497,74.4977,31.3,25,0.0,931.7,8.9,40.3,126,28.9,23.3,0,5,7,0,2026-03-11T11:22:16.585590+05:30
Coimbatore,Tamil Nadu,11.0168,76.9558,29.6,46,0.0,966.8,9.25,38.9,76,18.0,15.6,4,5,7,1,2026-03-11T11:22:16.585623+05:30
Madurai,Tamil Nadu,9.9252,78.1198,30.9,51,0.0,997.7,8.3,29.5,70,20.0,17.2,0,5,7,1,2026-03-11T11:22:16.585634+05:30
Trichy,Tamil Nadu,10.7905,78.7047,30.8,53,0.0,1005.0,9.15,28.1,69,19.6,16.9,0,5,4,1,2026-03-11T11:22:16.585642+05:30
Salem,Tamil Nadu,11.6643,78.146,30.2,47,0.0,982.8,9.15,25.2,76,23.6,20.1,0,5,7,1,2026-03-11T11:22:16.585650+05:30
Tirunelveli,Tamil Nadu,8.7139,77.7567,30.5,56,0.0,1007.9,6.2,25.9,60,14.8,13.1,0,5,4,1,2026-03-11T11:22:16.585658+05:30
Vellore,Tamil Nadu,12.9165,79.1325,30.1,48,0.0,990.6,9.1,33.1,95,20.5,17.6,0,5,7,1,2026-03-11T11:22:16.585667+05:30
Erode,Tamil Nadu,11.341,77.7172,30.8,50,0.0,994.5,9.15,20.5,80,24.9,21.7,0,5,7,1,2026-03-11T11:22:16.585674+05:30
Kochi,Kerala,9.9312,76.2673,27.7,77,0.0,1012.3,8.25,40.0,126,46.0,38.4,7,0,4,1,2026-03-11T11:22:16.585682+05:30
Thiruvananthapuram,Kerala,8.5241,76.9366,28.5,70,0.0,1011.1,7.3,29.2,73,16.3,14.6,7,0,4,1,2026-03-11T11:22:16.585690+05:30
Kozhikode,Kerala,11.2588,75.7804,29.1,73,0.0,1012.0,8.95,30.6,126,52.4,43.8,7,0,4,1,2026-03-11T11:22:16.585698+05:30
Thrissur,Kerala,10.5276,76.2144,34.6,39,0.0,1010.5,9.05,38.2,95,17.2,15.7,0,0,4,1,2026-03-11T11:22:16.585707+05:30
Kannur,Kerala,11.8745,75.3704,30.1,70,0.0,1011.4,8.95,36.7,138,46.1,39.6,3,0,4,1,2026-03-11T11:22:16.585714+05:30
Patna,Bihar,25.5941,85.1376,29.3,63,0.0,1006.7,6.85,24.1,193,150.9,134.1,7,5,4,1,2026-03-11T11:22:16.585722+05:30
Gaya,Bihar,24.7914,85.0002,29.5,67,0.0,999.7,7.5,21.2,169,112.2,100.1,7,5,7,1,2026-03-11T11:22:16.585730+05:30
Muzaffarpur,Bihar,26.1209,85.3647,29.5,62,0.0,1006.7,7.4,30.6,205,174.6,152.3,7,5,4,1,2026-03-11T11:22:16.585737+05:30
Bhagalpur,Bihar,25.2425,87.0117,28.7,68,0.0,1007.4,7.15,25.9,172,97.6,85.4,7,5,4,1,2026-03-11T11:22:16.585744+05:30
Ranchi,Jharkhand,23.3441,85.3096,29.6,46,0.0,943.1,8.15,29.9,170,110.8,89.6,4,5,7,1,2026-03-11T11:22:16.585752+05:30
Jamshedpur,Jharkhand,22.8046,86.2029,30.2,63,0.0,996.0,8.05,29.5,157,88.5,74.7,3,5,7,1,2026-03-11T11:22:16.585759+05:30
Dhanbad,Jharkhand,23.7957,86.4304,29.6,61,0.0,985.2,7.6,27.7,188,108.3,96.6,7,5,7,1,2026-03-11T11:22:16.585768+05:30
Bokaro,Jharkhand,23.6693,86.1511,30.1,57,0.0,989.3,7.75,40.7,189,128.1,113.4,0,5,7,1,2026-03-11T11:22:16.585778+05:30
Bhubaneswar,Odisha,20.2961,85.8245,31.3,62,0.0,1007.8,8.35,26.6,126,33.2,27.7,3,5,4,1,2026-03-11T11:22:16.585786+05:30
Cuttack,Odisha,20.4625,85.8828,32.1,60,0.0,1009.6,8.4,29.5,126,33.2,27.7,0,0,4,1,2026-03-11T11:22:16.585793+05:30
Rourkela,Odisha,22.2604,84.8536,32.2,55,0.0,990.3,7.95,27.4,162,111.3,91.7,0,5,7,1,2026-03-11T11:22:16.585800+05:30
Raipur,Chhattisgarh,21.2514,81.6296,33.9,33,0.0,980.9,8.05,24.8,152,104.1,82.2,0,5,7,0,2026-03-11T11:22:16.585807+05:30
Bhilai,Chhattisgarh,21.1938,81.3509,34.3,33,0.0,981.3,8.05,19.8,148,108.3,82.7,0,5,7,0,2026-03-11T11:22:16.585819+05:30
Guwahati,Assam,26.1158,91.7086,30.3,59,0.0,1006.8,7.35,23.8,155,71.7,61.7,0,5,4,1,2026-03-11T11:22:16.585826+05:30
Agartala,Tripura,23.8315,91.2868,30.5,57,0.0,1011.2,7.75,19.8,169,85.7,74.5,0,0,4,1,2026-03-11T11:22:16.585834+05:30
Shillong,Meghalaya,25.5788,91.8933,20.1,50,0.0,861.8,6.65,18.4,139,49.8,44.5,0,5,7,0,2026-03-11T11:22:16.585841+05:30
Imphal,Manipur,24.817,93.9368,24.8,51,0.0,928.2,7.95,36.4,154,58.2,49.8,0,5,7,0,2026-03-11T11:22:16.585849+05:30
Aizawl,Mizoram,23.7271,92.7176,24.9,50,0.0,898.2,7.9,28.8,177,78.0,67.3,0,5,7,0,2026-03-11T11:22:16.585856+05:30
Kohima,Nagaland,25.6701,94.1077,18.4,72,0.0,860.0,7.05,34.2,139,56.7,50.2,3,5,7,0,2026-03-11T11:22:16.585863+05:30
Gangtok,Sikkim,27.3314,88.6138,20.7,59,0.0,843.8,6.3,20.9,133,55.1,46.9,0,5,7,0,2026-03-11T11:22:16.585870+05:30
Siliguri,West Bengal,26.7271,88.3953,26.5,62,0.0,999.7,5.75,21.2,163,102.7,87.1,7,5,3,1,2026-03-11T11:22:19.924070+05:30
Durgapur,West Bengal,23.5204,87.3119,28.1,71,0.0,1001.0,7.6,30.2,161,79.9,68.7,7,5,4,1,2026-03-11T11:22:19.924100+05:30
Asansol,West Bengal,23.6739,86.9524,28.7,68,0.0,999.4,7.85,22.3,167,77.3,67.1,7,5,7,1,2026-03-11T11:22:19.924110+05:30
Pondicherry,Puducherry,11.9139,79.8145,31.2,56,0.0,1013.8,9.0,31.7,60,22.6,17.6,0,0,4,1,2026-03-11T11:22:19.924118+05:30
Port Blair,Andaman and Nicobar Islands,11.6234,92.7265,28.1,80,0.0,1010.5,8.95,20.2,62,22.0,17.9,7,0,4,1,2026-03-11T11:22:19.924127+05:30
Haridwar,Uttarakhand,29.9457,78.1642,29.2,65,0.0,980.8,5.9,38.5,160,95.5,64.0,7,5,3,1,2026-03-11T11:22:19.924134+05:30
Rishikesh,Uttarakhand,30.0869,78.2676,29.3,55,0.0,973.3,5.9,34.2,156,74.3,47.7,4,5,3,1,2026-03-11T11:22:19.924142+05:30
Nainital,Uttarakhand,29.3919,79.4542,22.3,72,0.0,812.9,6.8,67.3,176,113.2,76.6,3,5,7,1,2026-03-11T11:22:19.924150+05:30
Mussoorie,Uttarakhand,30.4599,78.0664,21.8,55,0.0,809.9,5.6,40.7,153,51.1,33.4,0,5,3,0,2026-03-11T11:22:19.924157+05:30
Dharamshala,Himachal Pradesh,32.219,76.3234,24.7,37,0.0,876.2,5.5,25.9,60,39.1,18.1,0,5,3,0,2026-03-11T11:22:19.924164+05:30
Dalhousie,Himachal Pradesh,32.5387,75.971,23.0,24,0.0,811.2,4.75,19.8,95,42.4,27.1,0,5,3,0,2026-03-11T11:22:19.924172+05:30
Patiala,Punjab,30.3398,76.3869,29.5,59,0.0,985.2,5.3,17.6,172,102.9,78.2,4,5,3,1,2026-03-11T11:22:19.924179+05:30
Bhatinda,Punjab,30.211,74.9455,29.2,52,0.0,990.6,6.6,21.6,153,116.4,54.7,4,5,7,1,2026-03-11T11:22:19.924187+05:30
Rohtak,Haryana,28.8955,76.6066,31.0,49,0.0,988.8,6.1,25.6,177,196.5,60.5,0,5,7,1,2026-03-11T11:22:19.924194+05:30
Panipat,Haryana,29.3909,76.9635,30.2,55,0.0,987.4,5.35,22.7,194,159.3,60.3,0,5,3,1,2026-03-11T11:22:19.924201+05:30
Mathura,Uttar Pradesh,27.4924,77.6737,33.6,38,0.0,993.6,6.4,23.4,209,272.9,74.5,0,5,7,1,2026-03-11T11:22:19.924208+05:30
Vrindavan,Uttar Pradesh,27.5823,77.7027,33.1,42,0.0,994.1,6.4,24.1,209,272.9,74.5,0,5,7,1,2026-03-11T11:22:19.924214+05:30
Ayodhya,Uttar Pradesh,26.7922,82.1998,30.7,59,0.0,1001.8,6.8,28.4,196,163.4,142.5,0,5,4,1,2026-03-11T11:22:19.924221+05:30
Ratlam,Madhya Pradesh,23.3315,75.0367,33.4,24,0.0,962.0,7.6,19.8,68,28.7,15.7,0,5,7,0,2026-03-11T11:22:19.924228+05:30
Sagar,Madhya Pradesh,23.8388,78.7378,33.9,24,0.0,957.5,7.55,25.2,68,95.0,26.9,0,5,7,0,2026-03-11T11:22:19.924234+05:30
Satna,Madhya Pradesh,24.6005,80.8322,32.9,32,0.0,978.3,7.55,34.2,152,115.0,46.0,0,5,7,0,2026-03-11T11:22:19.924241+05:30
Akola,Maharashtra,20.7002,77.0082,35.5,24,0.0,981.5,8.0,16.2,68,26.7,18.7,0,5,10,0,2026-03-11T11:22:19.924248+05:30
Amravati,Maharashtra,20.9374,77.7796,35.9,25,0.0,973.7,8.0,9.7,70,30.4,18.5,0,5,10,0,2026-03-11T11:22:19.924256+05:30
Latur,Maharashtra,18.4088,76.5604,31.6,33,0.0,946.6,8.45,24.1,114,31.5,26.1,0,5,7,0,2026-03-11T11:22:19.924263+05:30
Nanded,Maharashtra,19.1383,77.3091,33.9,34,0.0,975.3,8.25,18.0,125,52.4,45.2,0,5,7,0,2026-03-11T11:22:19.924270+05:30
Gulbarga,Karnataka,17.3297,76.8343,32.1,30,0.0,965.5,8.5,21.6,113,22.4,18.9,0,5,7,0,2026-03-11T11:22:19.924276+05:30
Bidar,Karnataka,17.9104,77.5199,31.6,26,0.0,942.4,8.5,22.7,115,32.8,26.0,0,5,7,0,2026-03-11T11:22:19.924283+05:30
Hospet,Karnataka,15.2689,76.3909,29.6,43,0.0,961.8,8.8,25.6,89,22.1,19.2,4,5,7,0,2026-03-11T11:22:19.924289+05:30
Tirupur,Tamil Nadu,11.1085,77.3411,30.3,47,0.0,980.6,9.3,31.0,89,26.1,23.2,0,5,7,1,2026-03-11T11:22:19.924296+05:30
Alappuzha,Kerala,9.4981,76.3388,28.2,77,0.0,1012.3,8.6,37.4,125,47.6,40.9,7,0,4,1,2026-03-11T11:22:19.924302+05:30
Munnar,Kerala,10.0889,77.0595,28.4,44,0.0,862.0,8.0,27.4,65,14.5,12.5,4,5,7,0,2026-03-11T11:22:19.924309+05:30
Silchar,Assam,24.8333,92.7789,29.2,65,0.0,1010.6,7.65,16.6,168,85.9,75.2,7,0,4,1,2026-03-11T11:22:19.924316+05:30
Dibrugarh,Assam,27.4728,94.912,27.6,66,0.0,1000.6,7.45,21.6,162,92.7,82.4,7,5,4,1,2026-03-11T11:22:19.924322+05:30
