city,state,latitude,longitude,temp,humidity,rain,pressure,uv_index,wind_gusts,aqi,pm10,pm2_5,no2,co,o3,so2,mosquito_risk,arthritis_risk,migraine_risk,frizz_risk,updated_at
Delhi,Delhi,28.6139,77.209,33.0,31,0.0,974.0,7.8,40.7,339,460.1,100.8,36.8,249.0,28.0,13.5,0,5,7,0,2026-06-10T04:13:43.061433+05:30
Mumbai,Maharashtra,19.076,72.8777,28.1,82,0.1,1005.9,7.75,45.4,81,62.4,24.9,4.0,160.0,52.0,3.2,10,5,4,1,2026-06-10T04:13:43.061481+05:30
Bangalore,Karnataka,12.9716,77.5946,20.7,90,0.0,910.6,8.4,49.3,19,2.9,2.6,7.9,143.0,40.0,3.4,3,5,7,1,2026-06-10T04:13:43.061498+05:30
Hyderabad,Telangana,17.385,78.4867,25.5,80,0.0,950.1,9.1,44.3,72,31.0,21.0,7.9,188.0,63.0,4.8,7,5,7,1,2026-06-10T04:13:43.061508+05:30
Chennai,Tamil Nadu,13.0827,80.2707,29.4,64,0.0,1004.0,6.6,44.6,51,11.4,9.3,14.5,199.0,37.0,9.1,7,5,4,1,2026-06-10T04:13:43.061517+05:30
Kolkata,West Bengal,22.5726,88.3639,29.8,91,0.0,998.7,8.95,40.3,139,36.8,31.0,10.1,361.0,80.0,7.5,7,5,7,1,2026-06-10T04:13:43.061526+05:30
Pune,Maharashtra,18.5204,73.8567,24.8,85,0.0,945.8,8.2,49.3,52,18.3,8.8,6.4,113.0,42.0,5.4,3,5,7,1,2026-06-10T04:13:43.061532+05:30
Ahmedabad,Gujarat,23.0225,72.5714,31.2,65,0.0,997.2,8.05,45.4,87,50.4,26.3,4.0,122.0,52.0,4.0,3,5,7,1,2026-06-10T04:13:43.061539+05:30
Jaipur,Rajasthan,26.9124,75.7873,31.1,52,0.0,953.2,8.25,46.4,141,269.2,56.9,4.4,167.0,70.0,3.9,0,5,7,1,2026-06-10T04:13:43.061551+05:30
Lucknow,Uttar Pradesh,26.8467,80.9462,30.5,53,0.0,984.3,8.35,62.3,160,214.7,75.7,32.9,394.0,29.0,9.8,0,5,7,1,2026-06-10T04:13:43.061558+05:30
Kanpur,Uttar Pradesh,26.4499,80.3319,31.7,41,0.0,982.7,7.45,49.7,248,296.2,68.5,27.8,238.0,29.0,6.3,0,5,7,1,2026-06-10T04:13:43.061565+05:30
Chandigarh,Chandigarh,30.7333,76.7794,24.3,60,0.0,958.3,7.85,36.4,88,43.0,39.8,44.3,573.0,14.0,5.1,0,5,7,1,2026-06-10T04:13:43.061572+05:30
Srinagar,Jammu and Kashmir,34.0837,74.7973,14.1,86,0.0,835.5,9.0,23.0,78,42.6,39.0,29.7,332.0,2.0,1.0,3,10,7,0,2026-06-10T04:13:43.061580+05:30
Jammu,Jammu and Kashmir,32.7266,74.857,25.5,51,0.0,962.3,8.65,32.0,76,33.5,31.0,27.3,344.0,33.0,2.7,4,5,7,0,2026-06-10T04:13:43.061587+05:30
Amritsar,Punjab,31.634,74.8723,31.5,37,0.0,970.3,8.5,24.5,129,71.2,57.6,46.1,573.0,27.0,8.9,0,5,7,0,2026-06-10T04:13:43.061593+05:30
Ludhiana,Punjab,30.901,75.8573,30.2,38,0.0,968.3,8.05,22.0,114,62.2,51.3,36.2,770.0,34.0,8.6,0,5,7,0,2026-06-10T04:13:43.061607+05:30
Jalandhar,Punjab,31.326,75.5762,30.2,37,0.0,969.3,8.25,24.5,115,60.1,43.1,25.4,747.0,64.0,6.4,0,5,7,0,2026-06-10T04:13:43.061614+05:30
Dehradun,Uttarakhand,30.6284,78.0322,14.5,88,0.0,823.2,8.3,43.9,67,23.4,21.8,20.8,243.0,28.0,0.1,3,10,7,0,2026-06-10T04:13:43.061621+05:30
Shimla,Himachal Pradesh,31.1048,77.1734,13.7,51,0.0,777.7,8.35,47.5,72,35.6,31.4,18.4,239.0,53.0,0.8,0,5,7,0,2026-06-10T04:13:43.061631+05:30
Manali,Himachal Pradesh,32.2396,77.1887,12.1,62,0.0,812.1,9.65,38.9,51,15.8,9.5,26.1,209.0,87.0,0.0,3,5,7,0,2026-06-10T04:13:43.061639+05:30
Gurgaon,Haryana,28.4595,77.0266,31.7,41,0.0,972.5,7.9,42.5,1430,2078.7,299.0,20.8,241.0,43.0,8.3,0,5,7,1,2026-06-10T04:13:43.061646+05:30
Noida,Uttar Pradesh,28.5355,77.391,32.5,32,0.0,975.3,7.85,38.2,1430,2078.7,299.0,20.8,511.0,43.0,8.3,0,5,7,0,2026-06-10T04:13:43.061652+05:30
Ghaziabad,Uttar Pradesh,28.6692,77.4538,32.8,30,0.0,973.6,7.8,37.8,252,394.9,109.7,49.8,761.0,19.0,19.6,0,5,7,0,2026-06-10T04:13:43.061661+05:30
Faridabad,Haryana,28.4089,77.3178,32.7,34,0.0,974.6,7.85,45.4,1430,2078.7,299.0,20.8,228.0,43.0,8.3,0,5,7,0,2026-06-10T04:13:43.061667+05:30
Meerut,Uttar Pradesh,28.9845,77.7064,31.5,32,0.0,972.3,7.75,31.3,252,394.9,109.7,49.8,642.0,19.0,19.6,0,5,7,0,2026-06-10T04:13:43.061674+05:30
Agra,Uttar Pradesh,27.1767,78.0081,31.8,32,0.0,979.0,8.15,45.0,1140,1315.0,156.5,16.4,217.0,52.0,5.4,0,5,7,0,2026-06-10T04:13:43.061680+05:30
Varanasi,Uttar Pradesh,25.3176,82.9739,31.7,44,0.0,989.4,8.8,39.2,104,82.7,38.9,18.8,434.0,61.0,10.4,0,5,7,1,2026-06-10T04:13:43.061686+05:30
Prayagraj,Uttar Pradesh,25.4358,81.8463,31.7,50,0.0,987.5,8.3,50.8,111,109.9,46.1,18.8,190.0,55.0,8.0,0,5,7,1,2026-06-10T04:13:43.061692+05:30
Gorakhpur,Uttar Pradesh,26.7606,83.3732,28.1,73,0.0,989.5,8.7,40.0,160,85.2,70.1,10.8,627.0,128.0,15.0,7,5,7,1,2026-06-10T04:13:43.061701+05:30
Bareilly,Uttar Pradesh,28.367,79.4304,28.2,51,0.0,977.4,8.1,35.6,151,48.8,40.3,24.5,636.0,61.0,8.4,4,5,7,1,2026-06-10T04:13:43.061707+05:30
Aligarh,Uttar Pradesh,27.8974,78.088,30.7,39,0.0,976.5,7.85,37.1,802,627.7,115.0,24.2,386.0,37.0,6.0,0,5,7,0,2026-06-10T04:13:43.061713+05:30
Moradabad,Uttar Pradesh,28.8386,78.7733,30.0,50,0.0,974.6,7.95,31.3,165,113.9,80.3,48.9,749.0,36.0,14.6,4,5,7,1,2026-06-10T04:13:43.061719+05:30
Saharanpur,Uttar Pradesh,29.9637,77.546,27.8,45,0.0,966.2,7.5,26.3,137,136.4,64.0,43.0,552.0,32.0,10.9,4,5,7,0,2026-06-10T04:13:43.061726+05:30
Jhansi,Uttar Pradesh,25.4484,78.5685,31.7,47,0.0,970.7,8.5,47.5,70,26.1,17.9,6.1,159.0,81.0,9.0,0,5,7,1,2026-06-10T04:13:46.314581+05:30
Surat,Gujarat,21.1702,72.8311,28.1,90,0.0,1002.7,7.55,51.8,85,51.3,28.9,18.4,247.0,36.0,31.9,7,5,4,1,2026-06-10T04:13:46.314617+05:30
Vadodara,Gujarat,22.3072,73.1812,30.4,71,0.0,999.7,8.0,49.3,87,36.0,21.6,6.7,119.0,44.0,5.6,3,5,7,1,2026-06-10T04:13:46.314628+05:30
Rajkot,Gujarat,22.3039,70.8022,29.2,73,0.0,989.5,7.55,49.3,80,58.1,28.6,3.1,96.0,54.0,3.3,7,5,7,1,2026-06-10T04:13:46.314636+05:30
Thane,Maharashtra,19.2183,72.9781,27.2,92,0.1,1005.3,7.7,42.1,81,62.4,24.9,4.0,129.0,52.0,3.2,10,5,4,1,2026-06-10T04:13:46.314644+05:30
Nagpur,Maharashtra,21.1458,79.0882,32.1,47,0.0,967.7,7.1,44.3,91,59.1,37.1,20.8,256.0,48.0,16.8,0,5,7,1,2026-06-10T04:13:46.314652+05:30
Nashik,Maharashtra,19.9975,73.7898,24.5,90,0.0,942.7,8.05,51.1,72,45.6,20.8,5.9,130.0,43.0,3.7,3,5,7,1,2026-06-10T04:13:46.314660+05:30
Aurangabad,Maharashtra,19.8762,75.3433,25.4,80,0.0,941.3,9.0,50.8,72,43.2,21.2,7.1,122.0,43.0,6.9,7,5,7,1,2026-06-10T04:13:46.314667+05:30
Solapur,Maharashtra,17.6599,75.9064,26.1,78,0.0,955.0,8.9,45.4,54,7.7,5.3,6.0,143.0,39.0,2.1,7,5,7,1,2026-06-10T04:13:46.314675+05:30
Kolhapur,Maharashtra,16.705,74.2433,23.2,93,0.0,946.3,7.15,52.9,24,7.5,4.1,3.2,115.0,46.0,1.5,3,5,7,1,2026-06-10T04:13:46.314682+05:30
Goa,Goa,15.2993,74.124,24.5,99,0.0,997.4,8.0,34.9,35,24.4,14.2,5.5,220.0,45.0,1.2,3,5,7,1,2026-06-10T04:13:46.314689+05:30
Jodhpur,Rajasthan,26.2389,73.0243,31.5,59,0.0,976.0,8.45,49.7,154,295.2,67.8,2.8,117.0,63.0,2.1,0,5,7,1,2026-06-10T04:13:46.314697+05:30
Udaipur,Rajasthan,24.5854,73.7125,26.8,72,0.0,941.1,8.8,43.2,85,37.6,23.5,4.6,144.0,58.0,3.9,7,5,7,1,2026-06-10T04:13:46.314704+05:30
Kota,Rajasthan,25.2138,75.8648,30.5,60,0.0,972.4,8.4,36.4,73,46.9,29.0,4.8,164.0,86.0,9.1,0,5,7,1,2026-06-10T04:13:46.314712+05:30
Bikaner,Rajasthan,28.0229,73.3119,33.1,50,0.0,973.5,8.5,46.4,124,87.1,36.4,2.6,113.0,65.0,5.2,0,5,7,1,2026-06-10T04:13:46.314719+05:30
Ajmer,Rajasthan,26.4499,74.6399,29.1,63,0.0,948.5,8.35,54.4,76,35.9,21.7,4.4,141.0,67.0,3.5,7,5,7,1,2026-06-10T04:13:46.314726+05:30
Gwalior,Madhya Pradesh,26.2183,78.1828,32.2,42,0.0,975.3,8.3,54.0,78,19.1,14.2,7.2,151.0,64.0,4.2,0,5,7,1,2026-06-10T04:13:46.314733+05:30
Indore,Madhya Pradesh,22.7196,75.8577,26.7,74,0.0,944.3,8.6,45.7,82,52.6,31.0,5.8,159.0,62.0,9.9,7,5,7,1,2026-06-10T04:13:46.314741+05:30
Bhopal,Madhya Pradesh,23.2599,77.4126,29.1,60,0.0,948.7,8.65,38.9,82,41.0,27.0,4.1,182.0,88.0,6.3,4,5,7,1,2026-06-10T04:13:46.314748+05:30
Jabalpur,Madhya Pradesh,23.1815,79.9864,30.0,53,0.0,955.5,8.85,40.3,83,48.2,30.5,11.5,231.0,64.0,4.7,4,5,7,1,2026-06-10T04:13:46.314756+05:30
Ujjain,Madhya Pradesh,23.1765,75.7885,26.8,75,0.0,949.7,8.55,51.1,81,48.0,28.4,5.8,174.0,55.0,10.0,7,5,7,1,2026-06-10T04:13:46.314763+05:30
Visakhapatnam,Andhra Pradesh,17.6868,83.2185,29.3,78,0.0,996.6,8.6,34.6,119,50.9,43.5,36.0,408.0,39.0,41.2,7,5,7,1,2026-06-10T04:13:46.314770+05:30
Vijayawada,Andhra Pradesh,16.5062,80.648,30.7,62,0.0,997.5,8.65,37.8,73,27.3,21.8,9.5,184.0,60.0,6.3,3,5,7,1,2026-06-10T04:13:46.314779+05:30
Guntur,Andhra Pradesh,16.3067,80.4365,30.1,65,0.0,998.9,8.5,40.0,69,26.3,20.3,9.1,168.0,60.0,7.7,3,5,7,1,2026-06-10T04:13:46.314786+05:30
Nellore,Andhra Pradesh,14.4426,79.9865,29.8,62,0.0,1002.2,8.15,45.4,38,7.0,5.3,8.2,126.0,44.0,5.7,7,5,4,1,2026-06-10T04:13:46.314794+05:30
Kurnool,Andhra Pradesh,15.8281,78.0373,26.7,78,0.0,974.7,7.65,49.7,45,23.1,15.8,12.5,140.0,41.0,4.6,7,5,7,1,2026-06-10T04:13:46.314802+05:30
Kakinada,Andhra Pradesh,16.9891,82.2475,30.4,64,0.0,1001.2,9.05,40.0,81,35.7,28.5,10.2,310.0,70.0,6.5,3,5,4,1,2026-06-10T04:13:46.314809+05:30
Tirupati,Andhra Pradesh,13.6288,79.4192,28.0,62,0.0,988.3,7.65,40.0,32,4.1,3.5,6.3,122.0,40.0,1.7,7,5,7,1,2026-06-10T04:13:46.314816+05:30
Warangal,Telangana,17.9689,79.5941,27.7,73,0.0,974.4,9.0,43.2,90,43.4,29.3,10.5,176.0,63.0,4.6,7,5,7,1,2026-06-10T04:13:46.314823+05:30
Nizamabad,Telangana,18.6725,78.0941,28.9,61,0.0,961.3,8.7,42.1,88,30.2,20.4,7.2,177.0,63.0,4.8,7,5,7,1,2026-06-10T04:13:46.314830+05:30
Mysore,Karnataka,12.2958,76.6396,21.6,92,0.0,928.0,2.9,46.4,21,2.9,2.5,5.7,113.0,41.0,1.6,3,5,3,1,2026-06-10T04:13:46.314837+05:30
Mangalore,Karnataka,12.9141,74.856,23.9,99,0.0,1007.2,6.55,36.4,29,10.6,6.3,4.0,214.0,46.0,1.0,3,5,4,1,2026-06-10T04:13:46.314844+05:30
Hubli-Dharwad,Karnataka,15.3647,75.124,21.9,98,0.0,939.5,6.3,44.6,21,6.8,3.2,2.3,117.0,48.0,0.9,3,5,7,1,2026-06-10T04:13:46.314851+05:30
Belgaum,Karnataka,15.8497,74.4977,21.5,98,0.0,924.2,8.3,50.4,22,5.7,3.7,3.4,115.0,46.0,1.5,3,5,7,1,2026-06-10T04:13:49.575476+05:30
Coimbatore,Tamil Nadu,11.0168,76.9558,23.1,92,0.0,961.1,7.55,54.0,20,2.9,1.9,5.0,181.0,40.0,2.1,3,5,7,1,2026-06-10T04:13:49.575513+05:30
Madurai,Tamil Nadu,9.9252,78.1198,28.9,64,0.0,992.5,8.05,44.3,20,6.2,5.3,9.0,128.0,30.0,3.6,7,5,7,1,2026-06-10T04:13:49.575525+05:30
Trichy,Tamil Nadu,10.7905,78.7047,29.0,66,0.0,999.1,6.2,60.1,19,3.6,3.3,7.6,102.0,38.0,3.2,7,5,7,1,2026-06-10T04:13:49.575535+05:30
Salem,Tamil Nadu,11.6643,78.146,25.7,77,0.0,977.1,7.75,45.0,27,8.3,7.8,16.3,229.0,27.0,7.7,7,5,7,1,2026-06-10T04:13:49.575543+05:30
Tirunelveli,Tamil Nadu,8.7139,77.7567,26.4,84,0.0,1003.6,8.65,43.6,17,3.1,2.7,4.8,166.0,34.0,1.5,7,5,4,1,2026-06-10T04:13:49.575551+05:30
Vellore,Tamil Nadu,12.9165,79.1325,28.3,58,0.0,982.6,8.55,49.7,26,4.1,3.5,7.8,155.0,42.0,3.3,4,5,7,1,2026-06-10T04:13:49.575560+05:30
Erode,Tamil Nadu,11.341,77.7172,25.3,82,0.0,988.7,7.5,42.1,18,6.2,5.5,10.5,152.0,37.0,3.2,7,5,7,1,2026-06-10T04:13:49.575568+05:30
Kochi,Kerala,9.9312,76.2673,26.1,95,0.0,1009.9,7.7,41.8,30,9.7,7.1,7.5,85.0,35.0,2.2,7,0,4,1,2026-06-10T04:13:49.575576+05:30
Thiruvananthapuram,Kerala,8.5241,76.9366,25.8,91,0.0,1009.3,8.2,45.4,32,12.7,6.5,1.8,81.0,47.0,0.6,7,0,4,1,2026-06-10T04:13:49.575584+05:30
Kozhikode,Kerala,11.2588,75.7804,23.8,99,0.2,1008.7,8.15,38.5,29,13.7,5.6,0.8,250.0,60.0,0.6,6,0,4,1,2026-06-10T04:13:49.575591+05:30
Thrissur,Kerala,10.5276,76.2144,24.5,98,0.0,1008.0,6.45,42.1,31,8.2,6.5,6.6,241.0,37.0,1.9,3,0,4,1,2026-06-10T04:13:49.575599+05:30
Kannur,Kerala,11.8745,75.3704,24.6,98,0.0,1007.8,8.0,37.4,27,10.6,5.4,2.6,227.0,46.0,0.8,3,5,4,1,2026-06-10T04:13:49.575606+05:30
Patna,Bihar,25.5941,85.1376,27.3,88,0.0,992.5,8.85,45.7,165,80.3,73.1,12.5,711.0,99.0,14.6,7,5,7,1,2026-06-10T04:13:49.575613+05:30
Gaya,Bihar,24.7914,85.0002,29.6,47,0.0,986.1,8.8,24.1,143,91.7,45.3,21.3,226.0,71.0,10.5,4,5,7,1,2026-06-10T04:13:49.575620+05:30
Muzaffarpur,Bihar,26.1209,85.3647,27.0,86,0.0,993.0,8.85,36.7,165,73.3,62.2,7.7,630.0,123.0,10.9,7,5,7,1,2026-06-10T04:13:49.575628+05:30
Bhagalpur,Bihar,25.2425,87.0117,27.8,92,0.0,993.7,8.85,40.3,160,77.1,71.0,10.3,542.0,107.0,14.8,7,5,7,1,2026-06-10T04:13:49.575634+05:30
Ranchi,Jharkhand,23.3441,85.3096,25.9,61,0.0,932.0,8.3,33.5,134,73.6,43.4,19.1,291.0,63.0,22.0,7,5,7,1,2026-06-10T04:13:49.575641+05:30
Jamshedpur,Jharkhand,22.8046,86.2029,27.4,76,0.0,984.1,9.05,30.2,152,102.9,78.5,39.3,426.0,41.0,35.2,7,5,7,1,2026-06-10T04:13:49.575649+05:30
Dhanbad,Jharkhand,23.7957,86.4304,28.1,72,0.0,972.8,9.05,32.8,162,108.5,78.9,64.4,280.0,26.0,152.2,7,5,7,1,2026-06-10T04:13:49.575656+05:30
Bokaro,Jharkhand,23.6693,86.1511,28.3,66,0.0,976.6,8.9,30.6,163,109.7,68.2,41.3,299.0,45.0,101.7,7,5,7,1,2026-06-10T04:13:49.575663+05:30
Bhubaneswar,Odisha,20.2961,85.8245,28.0,88,0.0,995.6,9.05,21.2,111,42.8,38.6,11.2,368.0,94.0,10.0,7,5,7,1,2026-06-10T04:13:49.575671+05:30
Cuttack,Odisha,20.4625,85.8828,28.4,86,0.0,997.3,9.1,22.3,111,42.8,38.6,11.2,374.0,94.0,10.0,7,5,7,1,2026-06-10T04:13:49.575678+05:30
Rourkela,Odisha,22.2604,84.8536,27.7,79,0.0,979.1,9.0,34.2,117,85.2,60.3,31.1,442.0,47.0,26.1,7,5,7,1,2026-06-10T04:13:49.575685+05:30
Raipur,Chhattisgarh,21.2514,81.6296,32.6,46,0.0,969.1,7.5,36.7,117,49.7,39.6,25.8,545.0,68.0,45.9,0,5,7,1,2026-06-10T04:13:49.575691+05:30
Bhilai,Chhattisgarh,21.1938,81.3509,31.4,52,0.0,969.8,8.95,36.0,110,49.8,38.2,21.8,659.0,68.0,37.4,0,5,7,1,2026-06-10T04:13:49.575697+05:30
Guwahati,Assam,26.1158,91.7086,24.3,98,0.0,996.4,8.65,35.3,85,38.6,30.3,7.0,278.0,75.0,4.9,3,5,7,1,2026-06-10T04:13:49.575705+05:30
Agartala,Tripura,23.8315,91.2868,24.6,98,0.3,1001.7,8.25,41.0,74,26.6,19.5,10.2,210.0,65.0,2.7,6,5,4,1,2026-06-10T04:13:49.575712+05:30
Shillong,Meghalaya,25.5788,91.8933,18.4,96,0.0,853.1,7.7,34.6,43,8.1,5.5,4.2,216.0,81.0,3.0,3,10,7,1,2026-06-10T04:13:49.575718+05:30
Imphal,Manipur,24.817,93.9368,22.3,98,0.0,919.3,8.2,38.2,71,56.9,38.2,11.0,799.0,49.0,4.0,3,5,7,1,2026-06-10T04:13:49.575725+05:30
Aizawl,Mizoram,23.7271,92.7176,18.2,95,0.0,888.0,8.95,45.7,76,46.3,31.5,6.5,203.0,53.0,1.9,3,10,7,1,2026-06-10T04:13:49.575731+05:30
Kohima,Nagaland,25.6701,94.1077,18.7,94,0.0,851.2,9.0,28.8,50,23.0,16.2,6.3,240.0,46.0,1.6,3,10,7,1,2026-06-10T04:13:49.575738+05:30
Gangtok,Sikkim,27.3314,88.6138,15.8,91,0.0,832.2,7.5,37.8,102,14.1,11.3,7.2,393.0,123.0,4.6,3,10,7,0,2026-06-10T04:13:49.575745+05:30
Siliguri,West Bengal,26.7271,88.3953,22.7,98,0.0,988.1,8.75,28.8,108,50.2,38.9,9.7,341.0,118.0,6.5,3,5,7,1,2026-06-10T04:13:52.834371+05:30
Durgapur,West Bengal,23.5204,87.3119,27.7,90,0.0,987.5,9.0,33.8,169,97.3,87.1,32.6,1005.0,60.0,42.8,7,5,7,1,2026-06-10T04:13:52.834409+05:30
Asansol,West Bengal,23.6739,86.9524,28.0,80,0.0,986.2,8.85,33.8,160,87.5,70.8,43.1,707.0,47.0,64.5,7,5,7,1,2026-06-10T04:13:52.834421+05:30
Pondicherry,Puducherry,11.9139,79.8145,29.9,62,0.0,1006.3,7.55,47.2,45,9.9,8.7,13.0,221.0,40.0,9.2,7,5,4,1,2026-06-10T04:13:52.834430+05:30
Port Blair,Andaman and Nicobar Islands,11.6234,92.7265,25.2,97,0.2,1006.4,4.85,49.0,27,8.1,4.8,0.2,93.0,58.0,0.3,10,5,0,1,2026-06-10T04:13:52.834439+05:30
Haridwar,Uttarakhand,29.9457,78.1642,24.5,74,0.0,964.8,7.65,41.0,99,48.5,42.0,31.9,292.0,38.0,7.5,3,5,7,1,2026-06-10T04:13:52.834447+05:30
Rishikesh,Uttarakhand,30.0869,78.2676,22.3,82,0.0,957.7,7.75,33.1,89,37.4,28.9,15.1,335.0,89.0,4.7,3,5,7,1,2026-06-10T04:13:52.834454+05:30
Nainital,Uttarakhand,29.3919,79.4542,16.7,64,0.0,800.6,8.1,33.8,76,30.7,26.9,20.6,268.0,59.0,2.5,3,5,7,0,2026-06-10T04:13:52.834462+05:30
Mussoorie,Uttarakhand,30.4599,78.0664,15.5,62,0.0,796.8,8.15,46.8,81,41.3,33.4,33.6,229.0,33.0,4.7,3,5,7,0,2026-06-10T04:13:52.834470+05:30
Dharamshala,Himachal Pradesh,32.219,76.3234,23.8,31,0.0,863.0,8.55,44.3,58,20.1,14.6,15.3,185.0,26.0,0.0,0,5,7,0,2026-06-10T04:13:52.834478+05:30
Dalhousie,Himachal Pradesh,32.5387,75.971,13.9,60,0.0,796.9,8.75,39.2,82,41.3,36.1,34.5,250.0,15.0,0.7,0,5,7,0,2026-06-10T04:13:52.834485+05:30
Patiala,Punjab,30.3398,76.3869,30.6,36,0.0,968.2,7.65,26.3,257,221.7,75.7,25.5,528.0,53.0,9.7,0,5,7,0,2026-06-10T04:13:52.834494+05:30
Bhatinda,Punjab,30.211,74.9455,31.4,34,0.0,973.2,8.35,25.2,145,149.5,85.7,67.7,316.0,0.0,9.6,0,5,7,0,2026-06-10T04:13:52.834502+05:30
Rohtak,Haryana,28.8955,76.6066,31.8,44,0.0,972.5,7.8,41.0,477,1039.4,156.5,21.5,182.0,39.0,3.4,0,5,7,1,2026-06-10T04:13:52.834510+05:30
Panipat,Haryana,29.3909,76.9635,30.4,39,0.0,970.9,7.7,27.7,911,1929.7,260.8,34.9,493.0,26.0,5.1,0,5,7,0,2026-06-10T04:13:52.834517+05:30
Mathura,Uttar Pradesh,27.4924,77.6737,29.5,41,0.0,978.0,8.1,36.7,751,1169.7,143.9,16.8,319.0,52.0,4.1,4,5,7,0,2026-06-10T04:13:52.834525+05:30
Vrindavan,Uttar Pradesh,27.5823,77.7027,29.3,41,0.0,978.4,8.05,34.9,751,1169.7,143.9,16.8,319.0,52.0,4.1,4,5,7,0,2026-06-10T04:13:52.834532+05:30
Ayodhya,Uttar Pradesh,26.7922,82.1998,28.4,75,0.0,986.9,8.45,37.8,157,114.8,66.1,28.4,626.0,48.0,11.4,7,5,7,1,2026-06-10T04:13:52.834540+05:30
Ratlam,Madhya Pradesh,23.3315,75.0367,26.9,79,0.0,950.6,8.5,45.7,82,42.5,25.3,6.3,130.0,45.0,9.8,7,5,7,1,2026-06-10T04:13:52.834547+05:30
Sagar,Madhya Pradesh,23.8388,78.7378,29.7,47,0.0,944.7,8.7,45.0,78,28.2,21.0,9.1,203.0,65.0,4.6,4,5,7,1,2026-06-10T04:13:52.834555+05:30
Satna,Madhya Pradesh,24.6005,80.8322,29.7,54,0.0,964.2,8.75,45.4,77,46.8,27.6,7.6,162.0,74.0,5.0,4,5,7,1,2026-06-10T04:13:52.834562+05:30
Akola,Maharashtra,20.7002,77.0082,30.4,56,0.0,971.4,8.8,49.3,78,56.0,28.9,6.5,126.0,52.0,6.9,0,5,7,1,2026-06-10T04:13:52.834571+05:30
Amravati,Maharashtra,20.9374,77.7796,30.3,50,0.0,963.2,8.8,47.5,78,55.2,29.0,6.7,177.0,61.0,7.8,0,5,7,1,2026-06-10T04:13:52.834579+05:30
Latur,Maharashtra,18.4088,76.5604,25.6,79,0.0,937.1,8.8,38.9,68,26.0,14.2,5.5,134.0,45.0,3.3,7,5,7,1,2026-06-10T04:13:52.834587+05:30
Nanded,Maharashtra,19.1383,77.3091,29.5,59,0.0,965.2,8.9,39.2,87,43.8,26.6,5.9,153.0,73.0,7.3,4,5,7,1,2026-06-10T04:13:52.834594+05:30
Gulbarga,Karnataka,17.3297,76.8343,25.8,80,0.0,956.2,8.8,42.5,60,9.5,6.2,7.2,143.0,40.0,2.8,7,5,7,1,2026-06-10T04:13:52.834601+05:30
Bidar,Karnataka,17.9104,77.5199,25.6,77,0.0,932.9,9.0,41.4,76,20.1,13.9,7.5,162.0,53.0,2.6,7,5,7,1,2026-06-10T04:13:52.834608+05:30
Hospet,Karnataka,15.2689,76.3909,23.5,89,0.0,954.8,6.9,47.9,23,7.9,4.9,4.9,126.0,43.0,1.4,3,5,7,1,2026-06-10T04:13:52.834615+05:30
Tirupur,Tamil Nadu,11.1085,77.3411,23.8,90,0.0,974.7,8.0,54.0,22,7.0,6.5,12.5,143.0,32.0,4.0,3,5,7,1,2026-06-10T04:13:52.834622+05:30
Alappuzha,Kerala,9.4981,76.3388,26.0,95,0.2,1010.0,7.85,43.9,31,10.4,6.0,3.6,85.0,48.0,1.6,10,0,4,1,2026-06-10T04:13:52.834629+05:30
Munnar,Kerala,10.0889,77.0595,17.2,100,0.4,856.6,7.95,44.3,13,1.6,1.5,5.6,94.0,31.0,1.4,6,10,7,1,2026-06-10T04:13:52.834637+05:30
Silchar,Assam,24.8333,92.7789,24.9,98,0.2,1000.9,6.6,40.7,78,60.5,40.0,10.8,241.0,66.0,5.9,6,5,4,1,2026-06-10T04:13:52.834644+05:30
Dibrugarh,Assam,27.4728,94.912,24.3,98,0.1,990.9,8.85,29.5,87,29.3,25.3,9.7,269.0,76.0,1.8,6,5,7,1,2026-06-10T04:13:52.834651+05:30
