city,state,latitude,longitude,temp,humidity,rain,pressure,uv_index,wind_gusts,aqi,pm10,pm2_5,no2,co,o3,so2,mosquito_risk,arthritis_risk,migraine_risk,frizz_risk,updated_at
Delhi,Delhi,28.6139,77.209,29.4,35,0.0,978.5,7.7,47.9,566,586.7,159.3,27.0,435.0,53.0,13.8,4,5,7,0,2026-05-17T05:26:02.492220+05:30
Mumbai,Maharashtra,19.076,72.8777,28.6,85,0.0,1005.1,7.35,45.0,58,38.5,15.4,8.7,186.0,47.0,3.1,7,5,4,1,2026-05-17T05:26:02.492258+05:30
Bangalore,Karnataka,12.9716,77.5946,22.2,93,0.0,907.9,9.45,35.3,133,59.0,46.8,53.4,496.0,13.0,13.0,3,5,7,1,2026-05-17T05:26:02.492270+05:30
Hyderabad,Telangana,17.385,78.4867,28.0,61,0.0,949.9,9.3,28.4,107,16.6,11.6,13.9,201.0,36.0,3.7,7,5,7,1,2026-05-17T05:26:02.492278+05:30
Chennai,Tamil Nadu,13.0827,80.2707,28.0,85,0.0,1003.0,9.15,41.8,42,26.0,19.2,8.9,222.0,86.0,9.2,7,5,4,1,2026-05-17T05:26:02.492284+05:30
Kolkata,West Bengal,22.5726,88.3639,28.0,90,0.0,1002.0,8.95,35.3,59,20.0,13.6,8.3,219.0,37.0,5.0,7,5,4,1,2026-05-17T05:26:02.492290+05:30
Pune,Maharashtra,18.5204,73.8567,25.1,85,0.0,944.8,8.5,42.1,65,28.8,20.6,22.6,237.0,40.0,24.0,7,5,7,1,2026-05-17T05:26:02.492295+05:30
Ahmedabad,Gujarat,23.0225,72.5714,30.5,59,0.0,998.5,8.15,31.0,58,26.9,14.6,4.8,147.0,46.0,3.3,0,5,7,1,2026-05-17T05:26:02.492300+05:30
Jaipur,Rajasthan,26.9124,75.7873,29.0,33,0.0,956.2,8.25,34.9,159,244.9,52.6,11.1,288.0,54.0,7.1,4,5,7,0,2026-05-17T05:26:02.492309+05:30
Lucknow,Uttar Pradesh,26.8467,80.9462,28.4,48,0.0,988.7,8.2,45.0,152,158.8,63.8,45.0,377.0,18.0,12.4,4,5,7,1,2026-05-17T05:26:02.492314+05:30
Kanpur,Uttar Pradesh,26.4499,80.3319,29.3,41,0.0,987.4,8.2,44.3,152,221.2,75.7,46.6,448.0,11.0,12.9,4,5,7,0,2026-05-17T05:26:02.492319+05:30
Chandigarh,Chandigarh,30.7333,76.7794,24.5,45,0.0,963.7,7.75,46.1,78,36.3,24.4,18.7,280.0,46.0,5.6,0,5,7,0,2026-05-17T05:26:02.492324+05:30
Srinagar,Jammu and Kashmir,34.0837,74.7973,11.2,93,0.0,840.3,8.9,16.2,84,41.4,37.5,23.0,369.0,24.0,0.4,3,10,7,0,2026-05-17T05:26:02.492329+05:30
Jammu,Jammu and Kashmir,32.7266,74.857,22.2,57,0.0,967.6,8.5,39.6,68,24.8,21.2,18.5,241.0,24.0,1.5,0,5,7,0,2026-05-17T05:26:02.492334+05:30
Amritsar,Punjab,31.634,74.8723,25.1,52,0.0,976.2,8.4,32.4,99,63.6,47.3,36.0,508.0,25.0,7.5,4,5,7,0,2026-05-17T05:26:02.492339+05:30
Ludhiana,Punjab,30.901,75.8573,25.2,52,0.0,974.1,8.0,37.1,101,43.9,34.3,17.7,518.0,46.0,7.2,4,5,7,0,2026-05-17T05:26:02.492343+05:30
Jalandhar,Punjab,31.326,75.5762,23.5,63,0.0,975.0,8.15,34.9,117,68.7,52.4,32.3,517.0,22.0,8.5,3,5,7,1,2026-05-17T05:26:02.492348+05:30
Dehradun,Uttarakhand,30.6284,78.0322,11.0,91,0.0,823.5,8.2,45.0,57,21.7,11.6,23.5,190.0,0.0,0.0,3,10,7,0,2026-05-17T05:26:02.492353+05:30
Shimla,Himachal Pradesh,31.1048,77.1734,11.8,55,0.0,779.6,8.25,51.8,65,46.4,20.6,22.7,169.0,46.0,1.1,0,5,7,0,2026-05-17T05:26:02.492359+05:30
Manali,Himachal Pradesh,32.2396,77.1887,7.6,57,0.0,811.1,9.65,37.8,38,9.6,5.6,15.0,196.0,117.0,0.0,0,5,7,1,2026-05-17T05:26:02.492364+05:30
Gurgaon,Haryana,28.4595,77.0266,26.5,46,0.0,977.0,7.8,45.7,826,648.2,158.3,33.2,459.0,41.0,18.6,4,5,7,0,2026-05-17T05:26:02.492369+05:30
Noida,Uttar Pradesh,28.5355,77.391,27.8,43,0.0,979.8,7.75,38.2,826,648.2,158.3,33.2,542.0,41.0,18.6,4,5,7,0,2026-05-17T05:26:02.492373+05:30
Ghaziabad,Uttar Pradesh,28.6692,77.4538,26.1,49,0.0,977.8,7.7,43.2,401,463.8,136.9,20.1,446.0,63.0,13.5,4,5,7,0,2026-05-17T05:26:02.492378+05:30
Faridabad,Haryana,28.4089,77.3178,29.5,34,0.0,979.2,7.8,47.9,826,648.2,158.3,33.2,458.0,41.0,18.6,4,5,7,0,2026-05-17T05:26:02.492382+05:30
Meerut,Uttar Pradesh,28.9845,77.7064,27.1,41,0.0,976.5,7.65,45.4,401,463.8,136.9,20.1,346.0,63.0,13.5,4,5,7,0,2026-05-17T05:26:02.492389+05:30
Agra,Uttar Pradesh,27.1767,78.0081,27.6,42,0.0,983.6,8.05,40.3,644,868.0,158.3,22.9,360.0,38.0,17.7,4,5,7,0,2026-05-17T05:26:02.492393+05:30
Varanasi,Uttar Pradesh,25.3176,82.9739,29.8,46,0.0,992.6,8.7,49.0,155,140.6,67.3,49.4,790.0,20.0,14.0,4,5,7,1,2026-05-17T05:26:02.492398+05:30
Prayagraj,Uttar Pradesh,25.4358,81.8463,29.0,50,0.0,991.5,8.6,40.7,153,153.7,81.0,65.6,513.0,0.0,15.8,4,5,7,1,2026-05-17T05:26:02.492403+05:30
Gorakhpur,Uttar Pradesh,26.7606,83.3732,24.6,86,0.0,992.5,8.6,36.4,142,79.6,65.0,30.5,622.0,34.0,8.8,3,5,7,1,2026-05-17T05:26:02.492409+05:30
Bareilly,Uttar Pradesh,28.367,79.4304,25.7,49,0.0,981.4,8.0,38.9,118,156.0,61.0,23.6,417.0,44.0,9.5,4,5,7,0,2026-05-17T05:26:02.492413+05:30
Aligarh,Uttar Pradesh,27.8974,78.088,26.9,44,0.0,980.8,7.85,46.1,528,644.5,153.7,26.5,536.0,43.0,19.3,4,5,7,0,2026-05-17T05:26:02.492418+05:30
Moradabad,Uttar Pradesh,28.8386,78.7733,26.0,44,0.0,978.4,7.85,47.9,146,156.0,70.8,23.3,379.0,46.0,8.8,4,5,7,0,2026-05-17T05:26:02.492422+05:30
Saharanpur,Uttar Pradesh,29.9637,77.546,25.3,48,0.0,970.6,7.35,51.8,112,77.1,39.6,23.9,311.0,50.0,8.9,4,5,7,0,2026-05-17T05:26:02.492427+05:30
Jhansi,Uttar Pradesh,25.4484,78.5685,29.5,41,0.0,974.3,8.45,32.4,91,231.4,54.5,8.9,289.0,59.0,6.3,4,5,7,0,2026-05-17T05:26:05.828336+05:30
Surat,Gujarat,21.1702,72.8311,28.6,92,0.0,1002.7,7.75,38.5,84,27.6,20.7,30.5,287.0,16.0,41.0,7,5,4,1,2026-05-17T05:26:05.828368+05:30
Vadodara,Gujarat,22.3072,73.1812,29.9,63,0.0,1000.4,8.1,29.5,70,26.9,19.3,18.4,205.0,26.0,12.7,7,5,4,1,2026-05-17T05:26:05.828377+05:30
Rajkot,Gujarat,22.3039,70.8022,25.9,94,0.0,991.8,7.6,40.7,52,26.1,9.4,6.5,117.0,39.0,4.2,7,5,7,1,2026-05-17T05:26:05.828384+05:30
Thane,Maharashtra,19.2183,72.9781,28.0,89,0.0,1004.5,7.5,38.5,58,38.5,15.4,8.7,145.0,47.0,3.1,7,5,4,1,2026-05-17T05:26:05.828390+05:30
Nagpur,Maharashtra,21.1458,79.0882,31.4,49,0.0,969.7,9.0,41.8,112,44.4,37.4,14.1,254.0,73.0,22.5,0,5,7,1,2026-05-17T05:26:05.828395+05:30
Nashik,Maharashtra,19.9975,73.7898,24.4,76,0.0,942.4,8.2,41.8,58,35.6,18.9,13.4,173.0,46.0,4.0,3,5,7,1,2026-05-17T05:26:05.828401+05:30
Aurangabad,Maharashtra,19.8762,75.3433,30.3,29,0.0,940.5,9.05,38.2,52,26.7,15.5,9.5,164.0,86.0,8.4,0,5,7,0,2026-05-17T05:26:05.828407+05:30
Solapur,Maharashtra,17.6599,75.9064,28.8,51,0.0,952.8,9.1,35.3,73,32.8,28.8,16.6,394.0,58.0,9.6,4,5,7,1,2026-05-17T05:26:05.828413+05:30
Kolhapur,Maharashtra,16.705,74.2433,25.0,91,0.0,944.5,8.95,45.7,64,18.3,12.5,7.0,154.0,46.0,3.0,7,5,7,1,2026-05-17T05:26:05.828419+05:30
Goa,Goa,15.2993,74.124,27.5,89,0.0,993.9,8.9,37.1,60,28.9,16.9,5.1,296.0,42.0,1.7,7,5,7,1,2026-05-17T05:26:05.828425+05:30
Jodhpur,Rajasthan,26.2389,73.0243,31.9,29,0.0,979.1,8.4,31.3,107,90.1,19.0,6.1,170.0,58.0,3.0,0,5,7,0,2026-05-17T05:26:05.828431+05:30
Udaipur,Rajasthan,24.5854,73.7125,29.7,35,0.0,943.5,8.85,29.5,54,19.6,10.5,5.2,153.0,40.0,3.1,4,5,7,0,2026-05-17T05:26:05.828437+05:30
Kota,Rajasthan,25.2138,75.8648,30.1,35,0.0,974.9,8.4,35.3,74,70.3,29.8,13.1,279.0,33.0,3.7,0,5,7,0,2026-05-17T05:26:05.828443+05:30
Bikaner,Rajasthan,28.0229,73.3119,29.2,29,0.0,977.6,8.4,34.6,94,93.8,25.6,5.5,200.0,43.0,1.4,4,5,7,0,2026-05-17T05:26:05.828449+05:30
Ajmer,Rajasthan,26.4499,74.6399,29.9,32,0.0,951.4,8.4,34.6,83,77.3,31.5,16.4,176.0,37.0,4.8,4,5,7,0,2026-05-17T05:26:05.828454+05:30
Gwalior,Madhya Pradesh,26.2183,78.1828,29.9,40,0.0,979.3,8.25,44.6,143,760.0,129.5,15.2,376.0,65.0,12.8,4,5,7,0,2026-05-17T05:26:05.828460+05:30
Indore,Madhya Pradesh,22.7196,75.8577,29.1,32,0.0,945.0,8.7,38.5,48,19.0,12.5,4.5,249.0,77.0,4.1,4,5,7,0,2026-05-17T05:26:05.828466+05:30
Bhopal,Madhya Pradesh,23.2599,77.4126,30.4,32,0.0,950.1,8.7,33.5,50,14.8,11.1,4.4,239.0,68.0,3.5,0,5,7,0,2026-05-17T05:26:05.828471+05:30
Jabalpur,Madhya Pradesh,23.1815,79.9864,30.4,48,0.0,957.5,8.9,35.6,112,54.0,43.1,20.3,310.0,57.0,7.0,0,5,7,1,2026-05-17T05:26:05.828476+05:30
Ujjain,Madhya Pradesh,23.1765,75.7885,28.6,33,0.0,950.3,8.65,34.6,50,21.3,13.7,4.0,266.0,75.0,4.2,4,5,7,0,2026-05-17T05:26:05.828482+05:30
Visakhapatnam,Andhra Pradesh,17.6868,83.2185,27.5,92,0.0,1000.3,8.7,45.4,61,19.5,16.2,25.0,389.0,36.0,40.5,7,5,4,1,2026-05-17T05:26:05.828488+05:30
Vijayawada,Andhra Pradesh,16.5062,80.648,28.5,86,0.0,998.5,9.15,33.5,46,16.3,14.6,11.4,266.0,43.0,5.0,7,5,7,1,2026-05-17T05:26:05.828493+05:30
Guntur,Andhra Pradesh,16.3067,80.4365,28.5,87,0.0,999.7,9.2,33.8,48,13.4,11.7,9.9,244.0,46.0,3.4,7,5,7,1,2026-05-17T05:26:05.828498+05:30
Nellore,Andhra Pradesh,14.4426,79.9865,28.2,88,0.0,1001.5,9.15,38.2,37,15.1,11.5,8.4,251.0,65.0,10.6,7,5,4,1,2026-05-17T05:26:05.828504+05:30
Kurnool,Andhra Pradesh,15.8281,78.0373,30.0,68,0.0,973.1,9.2,33.5,94,10.1,6.7,6.3,158.0,43.0,1.9,7,5,7,1,2026-05-17T05:26:05.828509+05:30
Kakinada,Andhra Pradesh,16.9891,82.2475,28.4,88,0.0,1003.9,8.75,39.2,32,12.0,8.0,3.1,378.0,69.0,2.1,7,5,4,1,2026-05-17T05:26:05.828515+05:30
Tirupati,Andhra Pradesh,13.6288,79.4192,27.0,87,0.0,987.1,9.2,36.7,53,29.8,27.5,27.9,379.0,18.0,10.1,7,5,7,1,2026-05-17T05:26:05.828520+05:30
Warangal,Telangana,17.9689,79.5941,27.9,80,0.0,975.2,8.8,30.6,81,15.5,13.3,12.4,198.0,42.0,8.8,7,5,7,1,2026-05-17T05:26:05.828525+05:30
Nizamabad,Telangana,18.6725,78.0941,28.5,57,0.0,960.9,9.15,33.1,78,41.6,33.9,13.8,362.0,61.0,6.2,4,5,7,1,2026-05-17T05:26:05.828530+05:30
Mysore,Karnataka,12.2958,76.6396,21.4,98,0.0,924.3,8.0,28.4,97,27.4,23.7,22.1,439.0,39.0,3.4,3,5,7,1,2026-05-17T05:26:05.828535+05:30
Mangalore,Karnataka,12.9141,74.856,25.8,95,0.0,1002.7,8.7,40.3,64,27.8,23.6,17.0,335.0,22.0,3.2,7,5,4,1,2026-05-17T05:26:05.828540+05:30
Hubli-Dharwad,Karnataka,15.3647,75.124,24.2,92,0.0,937.3,9.15,46.4,61,12.7,9.1,8.5,158.0,29.0,1.9,3,5,7,1,2026-05-17T05:26:05.828545+05:30
Belgaum,Karnataka,15.8497,74.4977,22.5,99,0.0,922.1,9.15,42.5,62,15.9,11.3,8.7,162.0,34.0,1.6,3,5,7,1,2026-05-17T05:26:09.168482+05:30
Coimbatore,Tamil Nadu,11.0168,76.9558,23.6,96,0.0,957.7,8.4,54.4,76,29.0,19.7,18.0,300.0,28.0,3.5,3,5,7,1,2026-05-17T05:26:09.168513+05:30
Madurai,Tamil Nadu,9.9252,78.1198,28.0,81,0.0,988.9,8.8,33.8,94,66.4,45.4,48.4,568.0,4.0,8.7,7,5,7,1,2026-05-17T05:26:09.168522+05:30
Trichy,Tamil Nadu,10.7905,78.7047,26.6,88,0.0,995.7,7.65,33.8,82,43.7,35.7,25.5,433.0,33.0,5.6,7,5,7,1,2026-05-17T05:26:09.168529+05:30
Salem,Tamil Nadu,11.6643,78.146,26.0,83,0.0,973.5,8.5,25.2,118,54.1,39.8,22.7,418.0,39.0,7.4,7,5,7,1,2026-05-17T05:26:09.168536+05:30
Tirunelveli,Tamil Nadu,8.7139,77.7567,28.1,75,0.0,998.9,8.8,25.6,56,12.2,11.1,7.7,431.0,46.0,1.9,7,5,7,1,2026-05-17T05:26:09.168542+05:30
Vellore,Tamil Nadu,12.9165,79.1325,26.1,92,0.0,980.4,9.2,26.6,87,61.9,58.6,33.2,352.0,23.0,16.7,7,5,7,1,2026-05-17T05:26:09.168549+05:30
Erode,Tamil Nadu,11.341,77.7172,25.5,88,0.0,985.3,8.55,43.6,93,28.4,22.6,29.0,304.0,40.0,4.5,7,5,7,1,2026-05-17T05:26:09.168555+05:30
Kochi,Kerala,9.9312,76.2673,26.7,93,0.0,1004.5,8.75,31.7,59,17.6,15.7,17.0,203.0,26.0,5.0,7,5,4,1,2026-05-17T05:26:09.168561+05:30
Thiruvananthapuram,Kerala,8.5241,76.9366,25.5,92,0.0,1004.4,8.15,31.3,51,15.3,10.5,4.7,249.0,75.0,2.5,7,5,4,1,2026-05-17T05:26:09.168566+05:30
Kozhikode,Kerala,11.2588,75.7804,25.9,93,0.0,1003.6,8.9,34.6,57,17.4,11.8,3.0,520.0,72.0,1.4,7,5,4,1,2026-05-17T05:26:09.168572+05:30
Thrissur,Kerala,10.5276,76.2144,25.2,97,0.0,1003.1,8.75,30.6,64,14.5,13.4,18.6,319.0,18.0,4.2,7,5,4,1,2026-05-17T05:26:09.168578+05:30
Kannur,Kerala,11.8745,75.3704,25.2,94,0.0,1002.8,8.95,37.1,60,18.6,15.9,15.5,358.0,24.0,2.3,7,5,4,1,2026-05-17T05:26:09.168584+05:30
Patna,Bihar,25.5941,85.1376,26.4,91,0.0,995.6,8.8,33.1,152,56.6,53.2,16.4,480.0,62.0,13.1,7,5,7,1,2026-05-17T05:26:09.168589+05:30
Gaya,Bihar,24.7914,85.0002,27.5,46,0.0,988.9,8.85,43.6,153,130.9,68.7,41.6,450.0,28.0,11.3,4,5,7,0,2026-05-17T05:26:09.168595+05:30
Muzaffarpur,Bihar,26.1209,85.3647,25.1,87,0.0,995.9,8.8,27.4,150,53.8,49.6,14.8,478.0,68.0,11.7,7,5,7,1,2026-05-17T05:26:09.168600+05:30
Bhagalpur,Bihar,25.2425,87.0117,24.8,91,0.0,996.6,8.8,26.6,152,78.0,71.7,17.5,478.0,56.0,8.3,3,5,7,1,2026-05-17T05:26:09.168606+05:30
Ranchi,Jharkhand,23.3441,85.3096,25.1,70,0.0,934.6,9.3,35.3,123,44.9,37.7,9.1,327.0,93.0,15.8,7,5,7,1,2026-05-17T05:26:09.168611+05:30
Jamshedpur,Jharkhand,22.8046,86.2029,26.8,79,0.0,987.5,9.1,35.6,111,27.1,19.2,18.1,306.0,33.0,22.4,7,5,7,1,2026-05-17T05:26:09.168617+05:30
Dhanbad,Jharkhand,23.7957,86.4304,26.8,65,0.0,975.7,9.05,43.9,156,59.5,51.0,39.5,610.0,44.0,90.6,7,5,7,1,2026-05-17T05:26:09.168623+05:30
Bokaro,Jharkhand,23.6693,86.1511,27.4,67,0.0,979.4,9.05,38.9,155,75.4,57.6,37.2,331.0,44.0,54.1,7,5,7,1,2026-05-17T05:26:09.168629+05:30
Bhubaneswar,Odisha,20.2961,85.8245,28.2,89,0.0,999.2,9.15,44.6,44,12.7,9.1,6.3,169.0,44.0,2.0,7,5,7,1,2026-05-17T05:26:09.168635+05:30
Cuttack,Odisha,20.4625,85.8828,28.2,89,0.0,1001.0,9.2,44.6,44,12.7,9.1,6.3,184.0,44.0,2.0,7,5,4,1,2026-05-17T05:26:09.168640+05:30
Rourkela,Odisha,22.2604,84.8536,26.8,88,0.0,981.8,9.05,37.1,133,38.3,29.5,21.1,340.0,32.0,14.2,7,5,7,1,2026-05-17T05:26:09.168646+05:30
Raipur,Chhattisgarh,21.2514,81.6296,29.0,63,0.0,971.3,8.95,34.2,153,50.1,41.7,32.7,617.0,43.0,41.0,7,5,7,1,2026-05-17T05:26:09.168651+05:30
Bhilai,Chhattisgarh,21.1938,81.3509,28.7,67,0.0,971.8,9.0,34.9,154,51.7,42.4,32.6,996.0,43.0,46.3,7,5,7,1,2026-05-17T05:26:09.168670+05:30
Guwahati,Assam,26.1158,91.7086,22.3,98,0.3,999.5,8.7,23.8,83,13.8,12.2,9.9,314.0,49.0,3.0,6,5,7,1,2026-05-17T05:26:09.168675+05:30
Agartala,Tripura,23.8315,91.2868,26.0,95,0.0,1003.3,8.9,33.8,68,23.2,16.6,13.9,173.0,17.0,2.3,7,5,4,1,2026-05-17T05:26:09.168680+05:30
Shillong,Meghalaya,25.5788,91.8933,18.7,95,0.0,854.5,9.1,45.7,62,6.8,5.0,5.3,243.0,80.0,3.9,3,10,7,1,2026-05-17T05:26:09.168686+05:30
Imphal,Manipur,24.817,93.9368,20.3,100,0.0,921.1,8.1,35.6,78,11.6,8.8,8.3,307.0,43.0,1.6,3,5,7,1,2026-05-17T05:26:09.168691+05:30
Aizawl,Mizoram,23.7271,92.7176,18.8,93,0.0,890.3,9.05,34.6,50,8.9,5.3,4.4,138.0,38.0,1.7,3,10,7,1,2026-05-17T05:26:09.168696+05:30
Kohima,Nagaland,25.6701,94.1077,16.5,96,0.0,851.9,8.65,26.3,63,34.0,23.1,8.5,237.0,33.0,1.0,3,10,7,0,2026-05-17T05:26:09.168701+05:30
Gangtok,Sikkim,27.3314,88.6138,14.5,82,0.0,832.9,9.1,39.6,51,15.5,12.0,13.8,602.0,39.0,0.9,3,10,7,0,2026-05-17T05:26:09.168706+05:30
Siliguri,West Bengal,26.7271,88.3953,21.8,98,0.0,990.2,8.7,30.6,86,33.1,25.3,11.4,354.0,80.0,2.0,3,5,7,1,2026-05-17T05:26:12.500184+05:30
Durgapur,West Bengal,23.5204,87.3119,27.2,85,0.0,990.7,8.95,40.7,150,36.1,31.9,30.2,619.0,31.0,43.7,7,5,7,1,2026-05-17T05:26:12.500214+05:30
Asansol,West Bengal,23.6739,86.9524,27.4,77,0.0,989.2,9.0,36.0,151,47.1,41.2,34.2,446.0,40.0,58.6,7,5,7,1,2026-05-17T05:26:12.500224+05:30
Pondicherry,Puducherry,11.9139,79.8145,26.7,88,0.0,1004.2,8.85,42.1,69,28.7,21.5,10.9,359.0,68.0,9.2,7,5,4,1,2026-05-17T05:26:12.500231+05:30
Port Blair,Andaman and Nicobar Islands,11.6234,92.7265,25.0,97,0.2,1005.4,1.3,42.1,32,10.0,6.1,0.3,112.0,51.0,0.2,10,5,0,1,2026-05-17T05:26:12.500237+05:30
Haridwar,Uttarakhand,29.9457,78.1642,20.4,79,0.0,968.3,7.55,39.6,81,48.0,42.0,40.3,271.0,4.0,5.0,3,5,7,1,2026-05-17T05:26:12.500244+05:30
Rishikesh,Uttarakhand,30.0869,78.2676,19.0,81,0.0,961.0,7.65,34.2,74,37.5,29.7,23.6,317.0,34.0,4.1,3,10,7,0,2026-05-17T05:26:12.500250+05:30
Nainital,Uttarakhand,29.3919,79.4542,13.0,65,0.0,800.1,8.5,38.2,74,32.6,23.1,21.7,229.0,59.0,4.2,3,5,7,0,2026-05-17T05:26:12.500256+05:30
Mussoorie,Uttarakhand,30.4599,78.0664,12.8,65,0.0,797.3,8.05,51.8,75,41.1,30.5,40.3,187.0,2.0,3.6,3,5,7,0,2026-05-17T05:26:12.500262+05:30
Dharamshala,Himachal Pradesh,32.219,76.3234,19.6,42,0.0,865.1,8.4,43.9,48,14.1,9.8,10.9,175.0,48.0,0.1,0,5,7,0,2026-05-17T05:26:12.500267+05:30
Dalhousie,Himachal Pradesh,32.5387,75.971,9.2,78,0.0,797.1,8.65,38.9,68,30.5,24.6,32.0,252.0,6.0,0.4,3,5,7,0,2026-05-17T05:26:12.500273+05:30
Patiala,Punjab,30.3398,76.3869,25.8,48,0.0,973.6,7.65,43.9,462,491.7,88.0,13.0,483.0,60.0,7.3,4,5,7,0,2026-05-17T05:26:12.500279+05:30
Bhatinda,Punjab,30.211,74.9455,28.1,46,0.0,979.2,8.3,38.9,93,61.9,31.5,12.2,377.0,62.0,8.3,4,5,7,0,2026-05-17T05:26:12.500285+05:30
Rohtak,Haryana,28.8955,76.6066,26.2,48,0.0,977.3,7.75,44.6,699,683.6,159.7,27.4,423.0,45.0,7.6,4,5,7,0,2026-05-17T05:26:12.500290+05:30
Panipat,Haryana,29.3909,76.9635,26.5,45,0.0,975.6,7.6,50.8,1372,1061.7,210.0,13.0,371.0,66.0,6.7,4,5,7,0,2026-05-17T05:26:12.500295+05:30
Mathura,Uttar Pradesh,27.4924,77.6737,27.2,43,0.0,982.2,8.0,40.0,736,705.9,156.5,24.3,372.0,36.0,14.2,4,5,7,0,2026-05-17T05:26:12.500300+05:30
Vrindavan,Uttar Pradesh,27.5823,77.7027,26.1,48,0.0,982.6,7.95,38.2,736,705.9,156.5,24.3,366.0,36.0,14.2,4,5,7,0,2026-05-17T05:26:12.500306+05:30
Ayodhya,Uttar Pradesh,26.7922,82.1998,25.5,68,0.0,990.5,8.35,38.9,153,139.7,65.4,47.7,460.0,12.0,12.1,7,5,7,1,2026-05-17T05:26:12.500311+05:30
Ratlam,Madhya Pradesh,23.3315,75.0367,28.0,37,0.0,951.1,8.55,31.7,53,23.5,14.6,4.3,191.0,71.0,4.6,4,5,7,0,2026-05-17T05:26:12.500316+05:30
Sagar,Madhya Pradesh,23.8388,78.7378,29.4,35,0.0,946.1,8.75,37.8,75,62.2,29.6,31.9,262.0,36.0,5.0,4,5,7,0,2026-05-17T05:26:12.500321+05:30
Satna,Madhya Pradesh,24.6005,80.8322,29.8,38,0.0,967.5,8.75,45.0,113,96.9,43.8,37.0,376.0,22.0,6.2,4,5,7,0,2026-05-17T05:26:12.500326+05:30
Akola,Maharashtra,20.7002,77.0082,31.5,31,0.0,971.3,8.9,34.6,50,16.9,12.2,12.4,224.0,61.0,4.4,0,5,7,0,2026-05-17T05:26:12.500332+05:30
Amravati,Maharashtra,20.9374,77.7796,30.5,44,0.0,963.1,8.95,31.0,50,20.8,16.7,23.2,324.0,39.0,4.0,0,5,7,1,2026-05-17T05:26:12.500339+05:30
Latur,Maharashtra,18.4088,76.5604,28.3,57,0.0,936.3,9.1,34.2,64,46.9,35.7,21.5,437.0,53.0,12.8,4,5,7,1,2026-05-17T05:26:12.500344+05:30
Nanded,Maharashtra,19.1383,77.3091,30.3,55,0.0,965.0,9.05,34.2,66,36.4,30.9,26.9,463.0,31.0,5.7,0,5,7,1,2026-05-17T05:26:12.500350+05:30
Gulbarga,Karnataka,17.3297,76.8343,29.0,57,0.0,954.8,9.15,35.3,80,50.8,38.3,20.2,353.0,44.0,11.9,4,5,7,1,2026-05-17T05:26:12.500355+05:30
Bidar,Karnataka,17.9104,77.5199,27.8,59,0.0,932.1,9.15,33.8,81,43.7,33.4,14.4,313.0,54.0,3.6,4,5,7,1,2026-05-17T05:26:12.500360+05:30
Hospet,Karnataka,15.2689,76.3909,25.6,90,0.0,952.1,9.2,51.5,93,15.9,13.4,10.7,237.0,43.0,2.7,7,5,7,1,2026-05-17T05:26:12.500366+05:30
Tirupur,Tamil Nadu,11.1085,77.3411,24.9,88,0.0,971.3,8.25,53.6,97,41.9,32.5,39.4,257.0,20.0,7.1,3,5,7,1,2026-05-17T05:26:12.500371+05:30
Alappuzha,Kerala,9.4981,76.3388,26.0,93,0.1,1005.0,8.8,32.8,56,21.8,15.8,10.2,197.0,51.0,3.7,10,5,4,1,2026-05-17T05:26:12.500377+05:30
Munnar,Kerala,10.0889,77.0595,17.5,96,0.0,852.8,7.05,23.0,62,10.4,9.8,10.7,226.0,34.0,1.4,3,10,7,1,2026-05-17T05:26:12.500382+05:30
Silchar,Assam,24.8333,92.7789,23.6,98,0.3,1003.3,8.7,34.9,69,17.1,12.8,6.6,261.0,68.0,3.2,6,5,4,1,2026-05-17T05:26:12.500388+05:30
Dibrugarh,Assam,27.4728,94.912,21.5,98,0.4,994.3,5.6,24.1,72,34.7,23.9,12.2,235.0,50.0,1.4,6,5,3,1,2026-05-17T05:26:12.500393+05:30
