city,state,latitude,longitude,temp,humidity,rain,pressure,uv_index,wind_gusts,aqi,pm10,pm2_5,no2,co,o3,so2,mosquito_risk,arthritis_risk,migraine_risk,frizz_risk,updated_at
Delhi,Delhi,28.6139,77.209,24.3,82,0.0,982.2,7.65,24.5,152,101.7,48.0,26.9,484.0,62.0,16.8,3,5,7,1,2026-06-01T03:32:33.637122+05:30
Mumbai,Maharashtra,19.076,72.8777,29.8,75,0.0,1007.8,7.7,40.0,59,21.4,11.8,4.8,170.0,41.0,4.1,7,5,4,1,2026-06-01T03:32:33.637167+05:30
Bangalore,Karnataka,12.9716,77.5946,21.2,95,0.0,911.4,9.25,32.8,67,14.2,13.1,11.8,254.0,59.0,5.6,3,5,7,1,2026-06-01T03:32:33.637183+05:30
Hyderabad,Telangana,17.385,78.4867,28.5,43,0.0,951.8,9.15,33.1,88,67.3,32.7,9.2,264.0,65.0,5.4,4,5,7,0,2026-06-01T03:32:33.637194+05:30
Chennai,Tamil Nadu,13.0827,80.2707,30.2,68,0.0,1005.8,8.6,34.2,81,23.2,19.4,14.9,326.0,63.0,15.8,3,5,4,1,2026-06-01T03:32:33.637203+05:30
Kolkata,West Bengal,22.5726,88.3639,28.0,90,0.0,1005.0,8.95,22.0,139,84.5,71.7,32.7,522.0,20.0,9.5,7,5,4,1,2026-06-01T03:32:33.637211+05:30
Pune,Maharashtra,18.5204,73.8567,24.8,87,0.0,948.0,8.3,40.0,54,22.8,13.9,9.0,153.0,40.0,8.5,3,5,7,1,2026-06-01T03:32:33.637218+05:30
Ahmedabad,Gujarat,23.0225,72.5714,29.9,69,0.0,1000.7,8.05,31.3,71,29.0,16.5,3.9,183.0,48.0,3.8,7,5,4,1,2026-06-01T03:32:33.637224+05:30
Jaipur,Rajasthan,26.9124,75.7873,25.8,64,0.0,958.6,8.15,29.9,98,116.2,46.4,17.8,241.0,45.0,8.3,7,5,7,1,2026-06-01T03:32:33.637236+05:30
Lucknow,Uttar Pradesh,26.8467,80.9462,24.2,92,0.0,992.5,8.3,24.8,90,64.0,51.5,44.9,425.0,24.0,13.6,3,5,7,1,2026-06-01T03:32:33.637243+05:30
Kanpur,Uttar Pradesh,26.4499,80.3319,25.1,79,0.0,990.9,8.3,22.3,92,95.9,36.0,20.3,330.0,55.0,7.1,7,5,7,1,2026-06-01T03:32:33.637250+05:30
Chandigarh,Chandigarh,30.7333,76.7794,23.6,72,0.0,968.6,7.45,32.4,88,52.3,49.5,42.7,928.0,3.0,3.2,3,5,7,1,2026-06-01T03:32:33.637257+05:30
Srinagar,Jammu and Kashmir,34.0837,74.7973,13.1,92,0.0,839.0,9.05,21.2,110,57.9,42.7,24.8,374.0,9.0,1.2,3,10,7,0,2026-06-01T03:32:33.637265+05:30
Jammu,Jammu and Kashmir,32.7266,74.857,23.7,68,0.0,972.2,8.6,25.2,107,53.4,39.7,26.9,385.0,27.0,2.2,3,5,7,1,2026-06-01T03:32:33.637271+05:30
Amritsar,Punjab,31.634,74.8723,24.3,70,0.0,980.3,8.45,18.0,102,44.9,35.4,15.0,406.0,70.0,7.6,3,5,7,1,2026-06-01T03:32:33.637277+05:30
Ludhiana,Punjab,30.901,75.8573,23.8,80,0.0,978.4,8.0,27.7,110,45.5,42.3,20.0,503.0,63.0,10.3,3,5,7,1,2026-06-01T03:32:33.637283+05:30
Jalandhar,Punjab,31.326,75.5762,23.6,76,0.0,979.3,8.2,20.9,102,52.0,50.9,24.4,484.0,51.0,11.5,3,5,7,1,2026-06-01T03:32:33.637292+05:30
Dehradun,Uttarakhand,30.6284,78.0322,14.4,78,0.0,828.9,7.65,29.9,39,10.3,9.1,22.9,248.0,28.0,0.2,3,5,7,0,2026-06-01T03:32:33.637304+05:30
Shimla,Himachal Pradesh,31.1048,77.1734,11.2,79,0.0,782.4,8.05,33.5,53,24.2,21.8,22.0,306.0,41.0,0.1,3,5,7,0,2026-06-01T03:32:33.637312+05:30
Manali,Himachal Pradesh,32.2396,77.1887,14.1,78,0.0,818.0,7.8,30.2,48,1.7,1.2,9.0,219.0,102.0,0.0,3,5,7,0,2026-06-01T03:32:33.637319+05:30
Gurgaon,Haryana,28.4595,77.0266,23.6,86,0.0,980.5,7.6,25.9,477,79.6,34.9,16.3,499.0,91.0,13.0,3,5,7,1,2026-06-01T03:32:33.637325+05:30
Noida,Uttar Pradesh,28.5355,77.391,23.3,89,0.0,983.8,7.65,23.0,477,79.6,34.9,16.3,441.0,91.0,13.0,3,5,7,1,2026-06-01T03:32:33.637332+05:30
Ghaziabad,Uttar Pradesh,28.6692,77.4538,22.6,96,0.0,982.1,7.7,23.8,104,60.8,47.7,24.9,527.0,58.0,7.9,3,5,7,1,2026-06-01T03:32:33.637338+05:30
Faridabad,Haryana,28.4089,77.3178,23.9,85,0.0,983.0,7.75,24.5,477,79.6,34.9,16.3,455.0,91.0,13.0,3,5,7,1,2026-06-01T03:32:33.637343+05:30
Meerut,Uttar Pradesh,28.9845,77.7064,22.8,96,0.0,981.0,7.25,32.8,104,60.8,47.7,24.9,563.0,58.0,7.9,3,5,7,1,2026-06-01T03:32:33.637349+05:30
Agra,Uttar Pradesh,27.1767,78.0081,25.2,76,0.0,986.8,8.05,19.4,323,670.6,96.6,6.5,301.0,109.0,5.3,7,5,7,1,2026-06-01T03:32:33.637355+05:30
Varanasi,Uttar Pradesh,25.3176,82.9739,27.2,75,0.0,996.5,8.75,20.2,130,60.1,50.1,27.3,544.0,51.0,11.6,7,5,7,1,2026-06-01T03:32:33.637362+05:30
Prayagraj,Uttar Pradesh,25.4358,81.8463,26.4,84,0.0,995.3,8.65,27.7,104,47.8,37.4,25.0,389.0,49.0,7.7,7,5,7,1,2026-06-01T03:32:33.637369+05:30
Gorakhpur,Uttar Pradesh,26.7606,83.3732,26.5,82,0.0,996.4,8.6,15.5,130,95.0,85.9,46.9,487.0,30.0,12.1,7,5,7,1,2026-06-01T03:32:33.637377+05:30
Bareilly,Uttar Pradesh,28.367,79.4304,24.4,89,0.0,986.8,7.65,33.1,91,61.2,53.0,36.0,436.0,44.0,7.4,3,5,7,1,2026-06-01T03:32:33.637383+05:30
Aligarh,Uttar Pradesh,27.8974,78.088,23.9,79,0.0,985.0,7.45,30.2,114,49.4,33.4,12.6,300.0,95.0,6.6,3,5,7,1,2026-06-01T03:32:33.637389+05:30
Moradabad,Uttar Pradesh,28.8386,78.7733,23.9,89,0.0,983.1,7.8,38.5,106,73.3,65.2,43.2,327.0,24.0,9.6,3,5,7,1,2026-06-01T03:32:33.637394+05:30
Saharanpur,Uttar Pradesh,29.9637,77.546,22.8,89,0.0,975.2,7.5,34.6,114,73.3,67.3,61.0,818.0,0.0,11.2,3,5,7,1,2026-06-01T03:32:33.637401+05:30
Jhansi,Uttar Pradesh,25.4484,78.5685,26.5,68,0.0,977.2,8.45,51.1,69,32.7,22.9,15.5,280.0,53.0,4.9,7,5,7,1,2026-06-01T03:32:37.027982+05:30
Surat,Gujarat,21.1702,72.8311,29.3,83,0.0,1005.8,7.55,41.0,72,25.0,17.8,18.0,257.0,28.0,29.5,7,5,4,1,2026-06-01T03:32:37.028017+05:30
Vadodara,Gujarat,22.3072,73.1812,29.9,74,0.0,1003.1,7.95,37.8,66,22.8,16.2,10.4,117.0,33.0,11.4,7,5,4,1,2026-06-01T03:32:37.028027+05:30
Rajkot,Gujarat,22.3039,70.8022,28.5,77,0.0,993.1,7.55,43.2,63,22.6,12.8,3.8,101.0,40.0,4.0,7,5,7,1,2026-06-01T03:32:37.028035+05:30
Thane,Maharashtra,19.2183,72.9781,29.8,75,0.0,1007.2,7.7,34.9,59,21.4,11.8,4.8,144.0,41.0,4.1,7,5,4,1,2026-06-01T03:32:37.028042+05:30
Nagpur,Maharashtra,21.1458,79.0882,31.1,37,0.0,972.1,8.85,43.6,80,26.5,20.7,17.7,245.0,45.0,6.2,0,5,7,0,2026-06-01T03:32:37.028050+05:30
Nashik,Maharashtra,19.9975,73.7898,24.5,90,0.0,945.2,8.0,40.3,50,13.9,9.0,5.8,123.0,39.0,3.8,3,5,7,1,2026-06-01T03:32:37.028057+05:30
Aurangabad,Maharashtra,19.8762,75.3433,26.3,74,0.0,944.0,8.95,54.4,59,16.3,10.6,7.7,135.0,40.0,6.4,7,5,7,1,2026-06-01T03:32:37.028063+05:30
Solapur,Maharashtra,17.6599,75.9064,29.0,56,0.0,956.7,8.95,35.6,62,31.5,19.8,12.4,165.0,56.0,4.1,4,5,7,1,2026-06-01T03:32:37.028070+05:30
Kolhapur,Maharashtra,16.705,74.2433,24.5,90,0.0,947.8,8.75,50.8,37,15.8,11.9,8.3,162.0,37.0,2.9,3,5,7,1,2026-06-01T03:32:37.028078+05:30
Goa,Goa,15.2993,74.124,26.9,95,0.0,997.7,8.5,28.8,51,28.2,22.3,7.9,394.0,43.0,2.2,7,5,7,1,2026-06-01T03:32:37.028086+05:30
Jodhpur,Rajasthan,26.2389,73.0243,29.6,59,0.0,980.3,8.15,35.3,110,186.7,44.6,15.5,139.0,33.0,3.7,4,5,7,1,2026-06-01T03:32:37.028093+05:30
Udaipur,Rajasthan,24.5854,73.7125,26.8,65,0.0,944.9,8.8,38.9,73,52.6,23.1,5.1,136.0,54.0,3.3,7,5,7,1,2026-06-01T03:32:37.028102+05:30
Kota,Rajasthan,25.2138,75.8648,27.3,71,0.0,977.0,8.35,49.0,74,60.5,33.8,13.2,426.0,41.0,6.8,7,5,7,1,2026-06-01T03:32:37.028109+05:30
Bikaner,Rajasthan,28.0229,73.3119,28.1,52,0.0,980.0,8.15,28.8,94,117.6,40.9,8.3,165.0,32.0,3.8,4,5,7,1,2026-06-01T03:32:37.028116+05:30
Ajmer,Rajasthan,26.4499,74.6399,26.6,71,0.0,953.0,8.3,72.4,76,113.9,41.4,14.5,254.0,46.0,4.8,7,5,7,1,2026-06-01T03:32:37.028123+05:30
Gwalior,Madhya Pradesh,26.2183,78.1828,25.2,79,0.0,982.2,8.2,46.4,84,56.6,26.6,10.8,273.0,62.0,5.3,7,5,7,1,2026-06-01T03:32:37.028129+05:30
Indore,Madhya Pradesh,22.7196,75.8577,27.9,57,0.0,947.4,8.6,43.6,75,55.5,34.8,14.9,206.0,45.0,9.5,4,5,7,1,2026-06-01T03:32:37.028135+05:30
Bhopal,Madhya Pradesh,23.2599,77.4126,27.5,50,0.0,952.3,8.65,61.2,54,37.5,22.5,6.9,370.0,63.0,4.3,4,5,7,0,2026-06-01T03:32:37.028143+05:30
Jabalpur,Madhya Pradesh,23.1815,79.9864,27.1,57,0.0,960.2,8.85,39.6,81,52.4,37.4,27.3,282.0,30.0,4.3,4,5,7,1,2026-06-01T03:32:37.028149+05:30
Ujjain,Madhya Pradesh,23.1765,75.7885,27.5,59,0.0,953.0,8.55,38.9,72,48.2,26.8,5.9,232.0,54.0,6.3,4,5,7,1,2026-06-01T03:32:37.028156+05:30
Visakhapatnam,Andhra Pradesh,17.6868,83.2185,29.0,94,0.0,1001.8,9.0,37.4,120,43.4,36.1,24.6,350.0,74.0,33.7,7,5,4,1,2026-06-01T03:32:37.028162+05:30
Vijayawada,Andhra Pradesh,16.5062,80.648,30.0,74,0.0,1000.3,9.0,28.1,96,32.1,28.4,8.3,249.0,89.0,5.4,7,5,4,1,2026-06-01T03:32:37.028168+05:30
Guntur,Andhra Pradesh,16.3067,80.4365,29.6,73,0.0,1001.3,9.05,30.6,89,27.8,23.6,8.5,240.0,77.0,4.6,7,5,4,1,2026-06-01T03:32:37.028175+05:30
Nellore,Andhra Pradesh,14.4426,79.9865,29.8,72,0.0,1003.8,8.7,38.2,78,25.3,18.9,6.6,241.0,80.0,4.2,7,5,4,1,2026-06-01T03:32:37.028182+05:30
Kurnool,Andhra Pradesh,15.8281,78.0373,29.3,54,0.0,975.9,8.9,40.3,73,26.1,17.2,9.0,162.0,56.0,3.1,4,5,7,1,2026-06-01T03:32:37.028189+05:30
Kakinada,Andhra Pradesh,16.9891,82.2475,29.2,83,0.0,1005.5,9.0,28.1,92,35.2,27.7,3.6,288.0,115.0,3.4,7,5,4,1,2026-06-01T03:32:37.028196+05:30
Tirupati,Andhra Pradesh,13.6288,79.4192,27.2,75,0.0,989.9,9.0,25.9,69,18.5,15.7,11.5,176.0,54.0,1.9,7,5,7,1,2026-06-01T03:32:37.028202+05:30
Warangal,Telangana,17.9689,79.5941,28.4,53,0.0,976.6,9.05,28.4,116,89.6,68.2,38.4,461.0,16.0,6.2,4,5,7,1,2026-06-01T03:32:37.028208+05:30
Nizamabad,Telangana,18.6725,78.0941,28.3,49,0.0,963.1,9.0,31.0,85,36.7,20.8,6.6,230.0,75.0,3.1,4,5,7,1,2026-06-01T03:32:37.028215+05:30
Mysore,Karnataka,12.2958,76.6396,23.1,90,0.0,928.8,8.2,44.3,45,7.3,6.6,6.5,159.0,55.0,1.8,3,5,7,1,2026-06-01T03:32:37.028221+05:30
Mangalore,Karnataka,12.9141,74.856,26.9,88,0.0,1007.2,6.9,33.5,50,13.0,10.3,6.0,211.0,48.0,2.2,7,5,4,1,2026-06-01T03:32:37.028227+05:30
Hubli-Dharwad,Karnataka,15.3647,75.124,24.1,90,0.0,940.9,8.95,41.8,28,9.2,6.8,4.9,150.0,36.0,1.5,3,5,7,1,2026-06-01T03:32:37.028234+05:30
Belgaum,Karnataka,15.8497,74.4977,22.3,98,0.0,925.3,8.95,44.3,36,17.0,13.5,8.4,141.0,31.0,1.0,3,5,7,1,2026-06-01T03:32:40.354835+05:30
Coimbatore,Tamil Nadu,11.0168,76.9558,25.2,84,0.0,961.9,7.15,48.2,31,3.9,3.3,5.7,164.0,51.0,2.4,7,5,7,1,2026-06-01T03:32:40.354871+05:30
Madurai,Tamil Nadu,9.9252,78.1198,30.0,62,0.0,992.7,8.5,30.6,73,32.2,27.2,27.7,185.0,9.0,4.4,7,5,7,1,2026-06-01T03:32:40.354883+05:30
Trichy,Tamil Nadu,10.7905,78.7047,28.9,72,0.0,999.5,7.8,37.1,51,7.5,6.4,7.7,150.0,51.0,3.2,7,5,7,1,2026-06-01T03:32:40.354892+05:30
Salem,Tamil Nadu,11.6643,78.146,27.3,75,0.0,977.4,8.7,36.4,70,21.8,18.5,17.3,180.0,42.0,7.1,7,5,7,1,2026-06-01T03:32:40.354900+05:30
Tirunelveli,Tamil Nadu,8.7139,77.7567,28.1,71,0.0,1003.0,8.65,38.5,28,8.8,6.8,5.5,164.0,40.0,1.7,7,5,4,1,2026-06-01T03:32:40.354908+05:30
Vellore,Tamil Nadu,12.9165,79.1325,28.1,60,0.0,983.6,5.85,29.5,87,30.0,26.1,15.1,231.0,43.0,4.3,4,5,3,1,2026-06-01T03:32:40.354916+05:30
Erode,Tamil Nadu,11.341,77.7172,28.1,73,0.0,989.1,3.8,46.1,49,10.6,9.5,11.6,186.0,37.0,3.2,7,5,3,1,2026-06-01T03:32:40.354923+05:30
Kochi,Kerala,9.9312,76.2673,26.3,96,0.0,1009.2,8.1,31.0,54,14.8,13.1,15.4,199.0,17.0,4.4,7,0,4,1,2026-06-01T03:32:40.354930+05:30
Thiruvananthapuram,Kerala,8.5241,76.9366,24.3,98,0.0,1008.7,6.9,35.3,29,12.7,9.0,5.5,179.0,48.0,2.9,3,0,4,1,2026-06-01T03:32:40.354939+05:30
Kozhikode,Kerala,11.2588,75.7804,25.5,99,0.0,1008.3,6.8,28.8,32,7.5,5.0,2.5,319.0,66.0,1.6,7,0,4,1,2026-06-01T03:32:40.354947+05:30
Thrissur,Kerala,10.5276,76.2144,24.9,96,0.0,1007.6,8.05,27.7,48,10.5,9.1,12.9,237.0,25.0,4.1,3,5,4,1,2026-06-01T03:32:40.354955+05:30
Kannur,Kerala,11.8745,75.3704,26.4,87,0.0,1007.2,5.95,25.2,37,8.7,7.0,6.3,163.0,40.0,1.9,7,5,0,1,2026-06-01T03:32:40.354962+05:30
Patna,Bihar,25.5941,85.1376,27.6,85,0.0,999.4,8.9,15.1,159,134.1,116.9,43.8,695.0,54.0,25.0,7,5,7,1,2026-06-01T03:32:40.354968+05:30
Gaya,Bihar,24.7914,85.0002,25.3,83,0.0,992.9,8.7,21.2,138,75.0,68.7,35.8,489.0,22.0,10.7,7,5,7,1,2026-06-01T03:32:40.354975+05:30
Muzaffarpur,Bihar,26.1209,85.3647,25.9,80,0.0,999.5,8.65,18.7,162,148.1,132.7,57.4,909.0,33.0,24.3,7,5,7,1,2026-06-01T03:32:40.354982+05:30
Bhagalpur,Bihar,25.2425,87.0117,27.0,85,0.0,1000.3,8.8,13.7,156,73.6,64.0,22.2,391.0,71.0,12.6,7,5,4,1,2026-06-01T03:32:40.354989+05:30
Ranchi,Jharkhand,23.3441,85.3096,23.3,80,0.0,936.8,9.25,40.0,117,79.4,65.2,36.7,389.0,41.0,5.5,3,5,7,1,2026-06-01T03:32:40.354996+05:30
Jamshedpur,Jharkhand,22.8046,86.2029,25.4,98,0.0,990.0,9.05,19.1,152,124.8,112.9,56.9,753.0,21.0,24.4,7,5,7,1,2026-06-01T03:32:40.355002+05:30
Dhanbad,Jharkhand,23.7957,86.4304,25.6,92,0.0,979.3,9.05,18.4,169,206.3,191.9,59.6,1171.0,41.0,268.5,7,5,7,1,2026-06-01T03:32:40.355009+05:30
Bokaro,Jharkhand,23.6693,86.1511,24.9,97,0.0,983.1,9.05,20.9,174,235.6,219.3,65.8,755.0,48.0,284.8,3,5,7,1,2026-06-01T03:32:40.355016+05:30
Bhubaneswar,Odisha,20.2961,85.8245,27.1,95,0.0,1001.1,9.05,33.5,115,51.1,47.0,14.0,355.0,66.0,8.2,7,5,4,1,2026-06-01T03:32:40.355024+05:30
Cuttack,Odisha,20.4625,85.8828,27.4,95,0.0,1003.0,9.1,27.0,115,51.1,47.0,14.0,351.0,66.0,8.2,7,5,4,1,2026-06-01T03:32:40.355031+05:30
Rourkela,Odisha,22.2604,84.8536,26.7,79,0.0,984.1,9.0,38.5,120,73.1,63.8,31.5,555.0,27.0,13.3,7,5,7,1,2026-06-01T03:32:40.355039+05:30
Raipur,Chhattisgarh,21.2514,81.6296,29.9,52,0.0,973.7,7.7,29.2,124,51.7,40.3,32.8,374.0,55.0,30.0,4,5,7,1,2026-06-01T03:32:40.355046+05:30
Bhilai,Chhattisgarh,21.1938,81.3509,28.2,61,0.0,974.1,8.6,31.3,137,53.7,43.0,42.3,350.0,44.0,54.2,7,5,7,1,2026-06-01T03:32:40.355052+05:30
Guwahati,Assam,26.1158,91.7086,25.2,96,0.1,1001.3,8.35,23.0,71,31.3,26.3,15.1,390.0,16.0,1.4,10,5,4,1,2026-06-01T03:32:40.355059+05:30
Agartala,Tripura,23.8315,91.2868,25.9,89,0.0,1005.4,8.9,19.4,150,55.5,49.8,18.6,516.0,53.0,6.0,7,5,4,1,2026-06-01T03:32:40.355066+05:30
Shillong,Meghalaya,25.5788,91.8933,17.3,99,0.0,856.6,6.8,23.4,59,9.7,6.6,6.4,230.0,49.0,0.7,3,10,7,1,2026-06-01T03:32:40.355072+05:30
Imphal,Manipur,24.817,93.9368,22.0,97,0.0,923.0,9.3,21.6,46,15.5,15.2,13.8,418.0,24.0,3.1,3,5,7,1,2026-06-01T03:32:40.355078+05:30
Aizawl,Mizoram,23.7271,92.7176,18.6,99,0.2,891.9,8.4,22.0,32,7.6,5.5,3.0,201.0,45.0,0.7,6,10,7,1,2026-06-01T03:32:40.355085+05:30
Kohima,Nagaland,25.6701,94.1077,18.5,97,0.1,854.9,8.6,20.5,37,3.1,3.0,5.6,205.0,29.0,0.6,6,10,7,1,2026-06-01T03:32:40.355093+05:30
Gangtok,Sikkim,27.3314,88.6138,14.2,91,0.0,836.8,9.25,37.8,62,14.9,11.0,5.2,358.0,97.0,1.0,3,10,7,0,2026-06-01T03:32:40.355099+05:30
Siliguri,West Bengal,26.7271,88.3953,26.0,80,0.0,992.4,8.7,27.0,127,82.4,62.2,23.9,669.0,75.0,7.0,7,5,7,1,2026-06-01T03:32:44.041057+05:30
Durgapur,West Bengal,23.5204,87.3119,26.7,94,0.0,994.2,8.95,19.1,167,115.9,108.0,44.7,904.0,46.0,33.0,7,5,7,1,2026-06-01T03:32:44.041093+05:30
Asansol,West Bengal,23.6739,86.9524,25.9,94,0.0,992.8,9.0,20.5,160,129.0,118.0,48.1,887.0,45.0,31.6,7,5,7,1,2026-06-01T03:32:44.041104+05:30
Pondicherry,Puducherry,11.9139,79.8145,28.6,79,0.0,1007.4,6.0,38.5,65,11.6,9.2,12.8,188.0,42.0,10.2,7,5,0,1,2026-06-01T03:32:44.041113+05:30
Port Blair,Andaman and Nicobar Islands,11.6234,92.7265,26.0,93,0.0,1006.0,7.25,36.7,38,13.8,6.7,0.2,116.0,85.0,0.4,7,5,4,1,2026-06-01T03:32:44.041121+05:30
Haridwar,Uttarakhand,29.9457,78.1642,22.5,91,0.0,973.4,7.55,28.1,85,44.1,39.9,40.6,326.0,24.0,5.9,3,5,7,1,2026-06-01T03:32:44.041130+05:30
Rishikesh,Uttarakhand,30.0869,78.2676,20.5,93,0.0,965.9,7.65,24.1,58,15.8,12.2,10.3,435.0,88.0,2.1,3,5,7,1,2026-06-01T03:32:44.041137+05:30
Nainital,Uttarakhand,29.3919,79.4542,10.8,94,0.0,802.6,6.6,45.7,62,33.2,26.5,21.1,263.0,48.0,1.1,3,10,7,0,2026-06-01T03:32:44.041145+05:30
Mussoorie,Uttarakhand,30.4599,78.0664,13.9,73,0.0,801.7,8.05,43.9,62,23.3,21.2,37.1,301.0,26.0,4.7,3,5,7,0,2026-06-01T03:32:44.041152+05:30
Dharamshala,Himachal Pradesh,32.219,76.3234,19.3,64,0.0,868.8,8.15,37.8,49,11.6,9.0,13.3,202.0,31.0,0.0,3,5,7,0,2026-06-01T03:32:44.041160+05:30
Dalhousie,Himachal Pradesh,32.5387,75.971,12.0,94,0.0,802.6,8.7,33.5,75,41.9,30.9,26.9,251.0,30.0,0.9,3,10,7,0,2026-06-01T03:32:44.041167+05:30
Patiala,Punjab,30.3398,76.3869,23.5,77,0.0,977.9,7.6,33.8,280,67.1,42.8,15.1,510.0,67.0,6.8,3,5,7,1,2026-06-01T03:32:44.041175+05:30
Bhatinda,Punjab,30.211,74.9455,25.0,72,0.0,983.3,8.3,31.3,553,322.2,89.4,10.8,320.0,83.0,7.2,7,5,7,1,2026-06-01T03:32:44.041182+05:30
Rohtak,Haryana,28.8955,76.6066,24.0,77,0.0,981.2,7.35,25.6,388,196.0,57.7,23.0,435.0,66.0,18.2,3,5,7,1,2026-06-01T03:32:44.041188+05:30
Panipat,Haryana,29.3909,76.9635,23.8,84,0.0,979.9,7.2,29.9,419,158.8,58.6,21.5,469.0,55.0,6.6,3,5,7,1,2026-06-01T03:32:44.041195+05:30
Mathura,Uttar Pradesh,27.4924,77.6737,24.5,84,0.0,985.9,8.0,23.8,194,462.9,70.3,7.5,301.0,107.0,5.0,3,5,7,1,2026-06-01T03:32:44.041202+05:30
Vrindavan,Uttar Pradesh,27.5823,77.7027,24.8,81,0.0,986.4,7.95,24.8,194,462.9,70.3,7.5,312.0,107.0,5.0,3,5,7,1,2026-06-01T03:32:44.041209+05:30
Ayodhya,Uttar Pradesh,26.7922,82.1998,24.9,95,0.0,994.6,8.4,20.5,109,101.0,82.4,73.2,445.0,12.0,13.2,3,5,7,1,2026-06-01T03:32:44.041215+05:30
Ratlam,Madhya Pradesh,23.3315,75.0367,26.6,70,0.0,953.9,8.45,43.2,73,30.4,19.6,5.6,172.0,52.0,8.0,7,5,7,1,2026-06-01T03:32:44.041222+05:30
Sagar,Madhya Pradesh,23.8388,78.7378,26.0,58,0.0,948.4,8.15,39.6,42,18.3,15.0,10.8,217.0,76.0,3.9,4,5,7,1,2026-06-01T03:32:44.041229+05:30
Satna,Madhya Pradesh,24.6005,80.8322,25.7,71,0.0,970.3,8.75,37.1,74,36.2,27.4,13.8,364.0,72.0,6.6,7,5,7,1,2026-06-01T03:32:44.041235+05:30
Akola,Maharashtra,20.7002,77.0082,30.5,51,0.0,974.0,8.8,54.0,75,37.5,21.7,8.6,149.0,65.0,8.2,0,5,7,1,2026-06-01T03:32:44.041242+05:30
Amravati,Maharashtra,20.9374,77.7796,30.4,40,0.0,966.3,8.8,63.0,75,39.6,22.6,9.0,211.0,65.0,6.6,0,5,7,0,2026-06-01T03:32:44.041250+05:30
Latur,Maharashtra,18.4088,76.5604,28.8,47,0.0,939.2,9.0,36.7,69,28.3,17.5,9.7,179.0,66.0,3.5,4,5,7,1,2026-06-01T03:32:44.041257+05:30
Nanded,Maharashtra,19.1383,77.3091,29.2,45,0.0,967.4,8.9,51.5,76,36.9,19.7,8.4,200.0,63.0,2.9,4,5,7,1,2026-06-01T03:32:44.041264+05:30
Gulbarga,Karnataka,17.3297,76.8343,29.6,43,0.0,957.8,8.95,34.6,62,32.6,17.1,9.4,168.0,66.0,2.7,4,5,7,0,2026-06-01T03:32:44.041271+05:30
Bidar,Karnataka,17.9104,77.5199,27.6,46,0.0,934.3,9.0,33.1,84,45.3,22.4,8.7,179.0,69.0,4.5,4,5,7,0,2026-06-01T03:32:44.041277+05:30
Hospet,Karnataka,15.2689,76.3909,25.4,87,0.0,956.0,9.0,49.3,38,9.0,6.8,5.1,145.0,42.0,1.5,7,5,7,1,2026-06-01T03:32:44.041284+05:30
Tirupur,Tamil Nadu,11.1085,77.3411,26.4,80,0.0,975.2,5.8,37.8,50,11.0,9.7,11.6,141.0,38.0,3.2,7,5,3,1,2026-06-01T03:32:44.041290+05:30
Alappuzha,Kerala,9.4981,76.3388,25.6,99,0.0,1009.3,7.9,31.7,43,14.3,10.4,8.7,180.0,43.0,3.5,7,0,4,1,2026-06-01T03:32:44.041296+05:30
Munnar,Kerala,10.0889,77.0595,18.0,96,0.0,856.5,8.9,26.3,30,4.5,4.4,6.3,147.0,31.0,0.9,3,10,7,1,2026-06-01T03:32:44.041303+05:30
Silchar,Assam,24.8333,92.7789,25.6,97,0.0,1004.6,8.95,16.9,94,39.8,34.1,13.5,207.0,39.0,5.8,7,5,4,1,2026-06-01T03:32:44.041309+05:30
Dibrugarh,Assam,27.4728,94.912,26.1,94,0.0,994.6,8.85,21.6,84,37.4,35.2,29.3,271.0,5.0,1.9,7,5,7,1,2026-06-01T03:32:44.041315+05:30
