city,state,latitude,longitude,temp,humidity,rain,pressure,uv_index,wind_gusts,aqi,pm10,pm2_5,no2,co,o3,so2,mosquito_risk,arthritis_risk,migraine_risk,frizz_risk,updated_at
Delhi,Delhi,28.6139,77.209,32.0,70,0.0,974.3,6.3,36.0,107,98.7,40.3,13.0,427.0,171.0,19.8,3,5,7,1,2026-07-22T15:57:21.321440+05:30
Mumbai,Maharashtra,19.076,72.8777,27.6,77,0.1,1003.3,0.6,65.2,57,26.7,11.9,6.4,200.0,45.0,3.7,10,5,0,1,2026-07-22T15:57:21.321487+05:30
Bangalore,Karnataka,12.9716,77.5946,25.0,74,0.1,910.8,7.75,47.9,39,8.1,5.2,8.7,348.0,55.0,2.6,10,5,7,1,2026-07-22T15:57:21.321503+05:30
Hyderabad,Telangana,17.385,78.4867,27.1,68,0.2,949.2,4.55,47.9,42,11.4,7.9,6.4,238.0,60.0,4.4,10,5,3,1,2026-07-22T15:57:21.321513+05:30
Chennai,Tamil Nadu,13.0827,80.2707,32.9,63,0.0,1003.6,8.6,35.6,78,32.5,21.8,7.1,231.0,117.0,6.7,3,5,4,1,2026-07-22T15:57:21.321522+05:30
Kolkata,West Bengal,22.5726,88.3639,27.3,91,0.2,999.3,5.15,34.6,56,10.3,9.8,7.6,398.0,73.0,6.5,10,5,3,1,2026-07-22T15:57:21.321530+05:30
Pune,Maharashtra,18.5204,73.8567,25.1,78,0.0,943.0,1.5,63.0,20,3.4,2.8,6.8,151.0,40.0,3.5,7,5,3,1,2026-07-22T15:57:21.321537+05:30
Ahmedabad,Gujarat,23.0225,72.5714,32.0,62,0.0,992.2,5.45,34.9,62,32.2,15.2,5.8,231.0,68.0,4.4,3,5,3,1,2026-07-22T15:57:21.321543+05:30
Jaipur,Rajasthan,26.9124,75.7873,30.6,70,0.0,950.4,6.9,37.4,58,5.8,5.2,3.2,239.0,134.0,4.4,3,5,7,1,2026-07-22T15:57:21.321550+05:30
Lucknow,Uttar Pradesh,26.8467,80.9462,32.6,62,0.0,984.4,5.95,45.0,86,13.4,13.3,3.0,219.0,129.0,5.0,3,5,3,1,2026-07-22T15:57:21.321561+05:30
Kanpur,Uttar Pradesh,26.4499,80.3319,32.8,61,0.0,982.2,6.2,42.5,81,13.2,13.2,2.6,232.0,138.0,6.1,3,5,7,1,2026-07-22T15:57:21.321567+05:30
Chandigarh,Chandigarh,30.7333,76.7794,30.8,66,0.0,962.3,6.95,44.6,87,18.2,17.6,3.4,225.0,116.0,5.6,3,5,7,1,2026-07-22T15:57:21.321574+05:30
Srinagar,Jammu and Kashmir,34.0837,74.7973,20.0,91,0.1,839.4,3.9,13.3,62,11.5,11.4,10.6,447.0,77.0,2.7,6,5,3,1,2026-07-22T15:57:21.321580+05:30
Jammu,Jammu and Kashmir,32.7266,74.857,29.1,76,0.0,967.3,6.75,40.7,60,14.0,13.6,3.2,287.0,120.0,2.3,7,5,7,1,2026-07-22T15:57:21.321586+05:30
Amritsar,Punjab,31.634,74.8723,28.7,87,0.0,974.0,3.0,42.5,78,24.7,24.3,7.9,427.0,96.0,4.8,7,5,3,1,2026-07-22T15:57:21.321592+05:30
Ludhiana,Punjab,30.901,75.8573,30.8,74,0.0,971.5,5.95,40.0,102,30.9,30.2,8.1,453.0,116.0,12.1,3,5,3,1,2026-07-22T15:57:21.321598+05:30
Jalandhar,Punjab,31.326,75.5762,30.9,69,0.0,972.8,4.7,42.5,101,31.3,30.7,10.4,384.0,99.0,10.7,3,5,3,1,2026-07-22T15:57:21.321603+05:30
Dehradun,Uttarakhand,30.6284,78.0322,22.1,86,0.0,828.4,5.45,26.6,43,6.0,5.7,0.9,190.0,89.0,1.0,3,5,3,1,2026-07-22T15:57:21.321609+05:30
Shimla,Himachal Pradesh,31.1048,77.1734,17.6,88,0.0,782.5,5.2,27.0,49,7.2,7.1,5.1,183.0,94.0,1.6,3,10,3,0,2026-07-22T15:57:21.321616+05:30
Manali,Himachal Pradesh,32.2396,77.1887,23.4,84,0.1,817.9,3.9,20.5,46,3.2,3.0,1.7,223.0,109.0,1.1,6,5,3,1,2026-07-22T15:57:21.321624+05:30
Gurgaon,Haryana,28.4595,77.0266,32.2,65,0.0,972.6,5.95,43.2,94,186.3,48.1,11.5,398.0,155.0,13.6,3,5,3,1,2026-07-22T15:57:21.321631+05:30
Noida,Uttar Pradesh,28.5355,77.391,32.3,70,0.0,975.8,6.7,38.5,94,186.3,48.1,11.5,325.0,155.0,13.6,3,5,7,1,2026-07-22T15:57:21.321637+05:30
Ghaziabad,Uttar Pradesh,28.6692,77.4538,32.3,69,0.0,974.1,6.9,40.7,88,28.4,22.9,3.8,260.0,146.0,8.8,3,5,7,1,2026-07-22T15:57:21.321643+05:30
Faridabad,Haryana,28.4089,77.3178,32.0,69,0.0,975.0,6.9,39.6,94,186.3,48.1,11.5,323.0,155.0,13.6,3,5,7,1,2026-07-22T15:57:21.321649+05:30
Meerut,Uttar Pradesh,28.9845,77.7064,31.9,71,0.0,973.3,6.9,41.8,88,28.4,22.9,3.8,264.0,146.0,8.8,3,5,7,1,2026-07-22T15:57:21.321657+05:30
Agra,Uttar Pradesh,27.1767,78.0081,33.3,59,0.1,978.1,6.85,36.7,82,19.3,19.0,2.3,257.0,140.0,4.6,3,5,7,1,2026-07-22T15:57:21.321664+05:30
Varanasi,Uttar Pradesh,25.3176,82.9739,30.5,75,0.0,987.9,8.05,46.8,71,14.1,14.0,4.2,372.0,130.0,9.1,3,5,7,1,2026-07-22T15:57:21.321670+05:30
Prayagraj,Uttar Pradesh,25.4358,81.8463,32.6,64,0.0,985.7,8.15,37.1,77,15.6,15.5,3.0,327.0,142.0,9.0,3,5,7,1,2026-07-22T15:57:21.321677+05:30
Gorakhpur,Uttar Pradesh,26.7606,83.3732,31.2,73,0.3,989.0,6.35,52.6,78,13.7,13.6,3.9,248.0,108.0,3.7,6,5,7,1,2026-07-22T15:57:21.321683+05:30
Bareilly,Uttar Pradesh,28.367,79.4304,32.2,69,0.0,979.0,6.6,42.8,76,20.3,19.8,2.9,242.0,129.0,5.1,3,5,7,1,2026-07-22T15:57:21.321691+05:30
Aligarh,Uttar Pradesh,27.8974,78.088,32.3,68,0.0,976.8,6.9,39.6,84,17.4,17.3,2.9,244.0,146.0,7.8,3,5,7,1,2026-07-22T15:57:21.321697+05:30
Moradabad,Uttar Pradesh,28.8386,78.7733,32.6,64,0.0,975.9,7.35,45.0,73,17.9,17.6,3.3,235.0,136.0,7.5,3,5,7,1,2026-07-22T15:57:21.321703+05:30
Saharanpur,Uttar Pradesh,29.9637,77.546,31.4,66,0.0,968.7,7.35,52.6,76,15.7,15.1,2.0,247.0,116.0,3.1,3,5,7,1,2026-07-22T15:57:21.321709+05:30
Jhansi,Uttar Pradesh,25.4484,78.5685,31.5,67,0.1,967.7,7.35,35.3,60,16.5,16.2,2.6,196.0,124.0,8.4,6,5,7,1,2026-07-22T15:57:24.601348+05:30
Surat,Gujarat,21.1702,72.8311,26.6,95,0.1,998.0,0.65,32.8,71,23.2,20.4,32.7,392.0,14.0,57.7,10,5,3,1,2026-07-22T15:57:24.601384+05:30
Vadodara,Gujarat,22.3072,73.1812,30.3,73,0.1,994.8,0.9,26.3,61,41.0,20.3,7.0,242.0,70.0,10.2,6,5,3,1,2026-07-22T15:57:24.601395+05:30
Rajkot,Gujarat,22.3039,70.8022,30.2,73,0.1,985.4,3.0,44.3,57,37.3,18.5,4.3,103.0,68.0,6.1,6,5,3,1,2026-07-22T15:57:24.601403+05:30
Thane,Maharashtra,19.2183,72.9781,26.4,88,0.3,1002.5,0.55,45.0,57,26.7,11.9,6.4,201.0,45.0,3.7,10,5,0,1,2026-07-22T15:57:24.601411+05:30
Nagpur,Maharashtra,21.1458,79.0882,26.4,86,0.2,965.6,0.65,51.8,35,5.1,4.9,7.6,164.0,51.0,12.3,10,5,3,1,2026-07-22T15:57:24.601418+05:30
Nashik,Maharashtra,19.9975,73.7898,23.1,92,0.3,938.5,0.6,64.8,19,8.1,4.9,3.4,128.0,45.0,1.2,6,5,3,1,2026-07-22T15:57:24.601425+05:30
Aurangabad,Maharashtra,19.8762,75.3433,24.5,86,0.2,937.7,1.25,49.7,20,3.4,3.2,4.8,159.0,59.0,5.4,6,5,3,1,2026-07-22T15:57:24.601432+05:30
Solapur,Maharashtra,17.6599,75.9064,28.3,61,0.0,953.0,6.75,58.0,28,10.4,5.8,2.1,114.0,55.0,1.6,7,5,7,1,2026-07-22T15:57:24.601440+05:30
Kolhapur,Maharashtra,16.705,74.2433,23.2,90,0.2,945.0,7.1,60.5,24,5.5,3.9,4.3,132.0,44.0,1.7,6,5,7,1,2026-07-22T15:57:24.601447+05:30
Goa,Goa,15.2993,74.124,26.2,96,0.3,997.0,6.7,29.9,56,27.3,12.4,1.2,120.0,48.0,0.9,10,5,7,1,2026-07-22T15:57:24.601454+05:30
Jodhpur,Rajasthan,26.2389,73.0243,30.3,77,0.0,973.3,4.5,22.0,76,153.7,37.5,1.7,153.0,98.0,1.8,3,5,3,1,2026-07-22T15:57:24.601461+05:30
Udaipur,Rajasthan,24.5854,73.7125,26.5,87,0.1,936.9,1.95,29.2,55,21.4,9.4,3.2,171.0,71.0,3.1,10,5,3,1,2026-07-22T15:57:24.601468+05:30
Kota,Rajasthan,25.2138,75.8648,30.6,75,0.1,968.3,7.65,23.8,50,10.1,8.1,2.3,180.0,119.0,4.9,6,5,7,1,2026-07-22T15:57:24.601475+05:30
Bikaner,Rajasthan,28.0229,73.3119,27.2,95,0.2,972.4,7.95,36.7,68,23.2,14.0,1.0,202.0,143.0,4.4,10,5,7,1,2026-07-22T15:57:24.601482+05:30
Ajmer,Rajasthan,26.4499,74.6399,30.7,65,0.1,945.2,7.45,28.1,59,9.1,7.9,2.3,205.0,121.0,1.7,6,5,7,1,2026-07-22T15:57:24.601489+05:30
Gwalior,Madhya Pradesh,26.2183,78.1828,31.8,68,0.0,973.2,7.1,36.7,59,15.3,15.1,1.6,301.0,122.0,3.7,3,5,7,1,2026-07-22T15:57:24.601496+05:30
Indore,Madhya Pradesh,22.7196,75.8577,25.9,89,0.3,939.1,2.4,33.8,50,8.6,7.8,5.7,243.0,75.0,3.8,10,5,3,1,2026-07-22T15:57:24.601502+05:30
Bhopal,Madhya Pradesh,23.2599,77.4126,25.1,92,0.4,944.1,7.25,38.2,41,7.0,6.8,2.9,456.0,96.0,2.7,10,5,7,1,2026-07-22T15:57:24.601509+05:30
Jabalpur,Madhya Pradesh,23.1815,79.9864,26.8,84,0.1,952.1,6.65,41.4,39,4.4,4.4,2.9,183.0,90.0,2.0,10,5,7,1,2026-07-22T15:57:24.601516+05:30
Ujjain,Madhya Pradesh,23.1765,75.7885,25.9,92,0.2,944.5,3.05,32.8,50,8.3,5.9,2.8,216.0,80.0,2.6,10,5,3,1,2026-07-22T15:57:24.601524+05:30
Visakhapatnam,Andhra Pradesh,17.6868,83.2185,31.7,61,0.0,998.1,8.3,54.7,63,27.1,16.6,12.6,331.0,78.0,26.7,3,5,7,1,2026-07-22T15:57:24.601531+05:30
Vijayawada,Andhra Pradesh,16.5062,80.648,32.2,58,0.0,998.5,5.45,46.4,63,17.8,9.7,3.0,131.0,77.0,4.3,0,5,3,1,2026-07-22T15:57:24.601538+05:30
Guntur,Andhra Pradesh,16.3067,80.4365,33.9,46,0.0,999.6,5.7,51.5,59,15.7,8.4,3.0,124.0,67.0,3.9,0,5,3,1,2026-07-22T15:57:24.601545+05:30
Nellore,Andhra Pradesh,14.4426,79.9865,36.9,38,0.0,1001.5,8.4,43.9,64,24.7,15.5,4.5,116.0,90.0,4.6,0,5,7,1,2026-07-22T15:57:24.601553+05:30
Kurnool,Andhra Pradesh,15.8281,78.0373,26.9,85,0.2,973.8,6.55,50.4,41,18.2,8.5,3.1,118.0,62.0,2.1,10,5,7,1,2026-07-22T15:57:24.601560+05:30
Kakinada,Andhra Pradesh,16.9891,82.2475,33.2,53,0.0,1002.7,8.65,58.3,61,26.3,15.1,3.1,169.0,90.0,4.8,0,5,4,1,2026-07-22T15:57:24.601568+05:30
Tirupati,Andhra Pradesh,13.6288,79.4192,34.4,44,0.1,987.7,8.85,38.5,72,18.5,9.4,6.2,135.0,76.0,2.1,3,5,7,1,2026-07-22T15:57:24.601574+05:30
Warangal,Telangana,17.9689,79.5941,29.1,69,0.0,974.3,2.3,46.1,51,15.0,10.0,5.4,144.0,55.0,3.7,7,5,3,1,2026-07-22T15:57:24.601580+05:30
Nizamabad,Telangana,18.6725,78.0941,28.9,62,0.1,959.7,2.0,50.0,40,16.5,8.6,2.5,132.0,62.0,2.6,10,5,3,1,2026-07-22T15:57:24.601587+05:30
Mysore,Karnataka,12.2958,76.6396,25.4,73,0.0,928.1,7.95,52.6,29,4.7,3.1,4.0,127.0,53.0,1.3,7,5,7,1,2026-07-22T15:57:24.601593+05:30
Mangalore,Karnataka,12.9141,74.856,25.4,94,0.1,1007.5,8.15,31.0,51,16.1,7.1,1.9,107.0,46.0,1.4,10,5,4,1,2026-07-22T15:57:24.601600+05:30
Hubli-Dharwad,Karnataka,15.3647,75.124,25.1,78,0.1,939.1,4.4,62.3,21,6.7,3.8,2.5,109.0,52.0,0.9,10,5,3,1,2026-07-22T15:57:24.601606+05:30
Belgaum,Karnataka,15.8497,74.4977,22.5,92,0.1,923.4,8.2,62.3,20,4.6,2.7,3.0,110.0,42.0,1.3,6,5,7,1,2026-07-22T15:57:27.916452+05:30
Coimbatore,Tamil Nadu,11.0168,76.9558,31.1,52,0.0,960.7,8.4,53.6,40,6.6,4.5,2.6,142.0,60.0,1.7,0,5,7,1,2026-07-22T15:57:27.916489+05:30
Madurai,Tamil Nadu,9.9252,78.1198,38.3,29,0.0,990.1,8.25,50.0,72,33.8,15.7,2.6,126.0,115.0,2.5,0,5,10,1,2026-07-22T15:57:27.916501+05:30
Trichy,Tamil Nadu,10.7905,78.7047,37.9,32,0.0,996.4,7.9,40.3,57,17.7,9.3,2.0,113.0,85.0,2.1,0,5,10,1,2026-07-22T15:57:27.916510+05:30
Salem,Tamil Nadu,11.6643,78.146,34.0,45,0.0,975.1,8.7,40.7,67,18.2,10.7,3.7,162.0,95.0,5.9,0,5,7,1,2026-07-22T15:57:27.916518+05:30
Tirunelveli,Tamil Nadu,8.7139,77.7567,38.1,30,0.0,1000.4,8.6,44.3,50,14.6,8.4,1.7,117.0,82.0,1.4,0,5,7,1,2026-07-22T15:57:27.916526+05:30
Vellore,Tamil Nadu,12.9165,79.1325,35.0,43,0.0,981.2,9.0,40.0,75,11.7,6.9,3.4,148.0,78.0,2.3,0,5,7,1,2026-07-22T15:57:27.916533+05:30
Erode,Tamil Nadu,11.341,77.7172,34.8,41,0.0,986.7,8.45,41.4,56,9.9,6.2,2.8,169.0,79.0,1.9,0,5,7,1,2026-07-22T15:57:27.916540+05:30
Kochi,Kerala,9.9312,76.2673,28.6,80,0.0,1009.0,7.9,34.9,63,12.5,8.5,3.1,124.0,70.0,2.9,7,0,4,1,2026-07-22T15:57:27.916548+05:30
Thiruvananthapuram,Kerala,8.5241,76.9366,29.0,76,0.0,1008.1,8.15,37.4,52,16.2,10.3,2.3,111.0,70.0,1.7,7,0,4,1,2026-07-22T15:57:27.916554+05:30
Kozhikode,Kerala,11.2588,75.7804,28.6,78,0.0,1008.6,7.9,31.3,38,8.8,4.9,0.9,117.0,54.0,1.1,7,0,4,1,2026-07-22T15:57:27.916561+05:30
Thrissur,Kerala,10.5276,76.2144,28.5,78,0.0,1007.4,7.65,34.9,60,9.4,6.6,2.1,105.0,59.0,1.9,7,5,4,1,2026-07-22T15:57:27.916568+05:30
Kannur,Kerala,11.8745,75.3704,27.5,80,0.0,1008.0,7.4,29.2,45,7.8,4.4,2.1,107.0,51.0,1.3,7,0,4,1,2026-07-22T15:57:27.916576+05:30
Patna,Bihar,25.5941,85.1376,31.8,68,0.0,991.9,8.2,47.9,63,10.9,10.9,4.5,259.0,111.0,6.3,3,5,7,1,2026-07-22T15:57:27.916582+05:30
Gaya,Bihar,24.7914,85.0002,30.7,71,0.1,984.9,8.85,44.6,52,7.7,7.7,4.1,348.0,117.0,9.2,6,5,7,1,2026-07-22T15:57:27.916589+05:30
Muzaffarpur,Bihar,26.1209,85.3647,30.4,76,0.0,992.5,7.75,53.3,68,12.0,12.0,4.8,228.0,106.0,5.3,3,5,7,1,2026-07-22T15:57:27.916595+05:30
Bhagalpur,Bihar,25.2425,87.0117,30.4,75,0.1,993.7,8.1,43.6,58,8.7,8.6,5.5,225.0,103.0,9.5,6,5,7,1,2026-07-22T15:57:27.916601+05:30
Ranchi,Jharkhand,23.3441,85.3096,26.9,75,0.0,930.7,6.0,41.8,48,3.5,3.5,5.6,165.0,68.0,10.2,7,5,3,1,2026-07-22T15:57:27.916608+05:30
Jamshedpur,Jharkhand,22.8046,86.2029,26.8,92,0.0,983.7,6.5,23.4,59,10.9,10.7,12.5,456.0,66.0,17.5,7,5,7,1,2026-07-22T15:57:27.916615+05:30
Dhanbad,Jharkhand,23.7957,86.4304,28.6,77,0.0,972.3,7.05,41.0,75,19.6,19.5,26.9,226.0,67.0,68.4,7,5,7,1,2026-07-22T15:57:27.916621+05:30
Bokaro,Jharkhand,23.6693,86.1511,27.8,83,0.0,976.2,8.65,38.2,79,17.2,17.1,23.9,877.0,67.0,65.8,7,5,7,1,2026-07-22T15:57:27.916628+05:30
Bhubaneswar,Odisha,20.2961,85.8245,29.1,77,0.0,996.5,7.55,38.9,59,21.0,17.1,5.8,260.0,108.0,7.5,7,5,7,1,2026-07-22T15:57:27.916635+05:30
Cuttack,Odisha,20.4625,85.8828,28.0,90,0.0,998.3,7.0,38.9,59,21.0,17.1,5.8,253.0,108.0,7.5,7,5,7,1,2026-07-22T15:57:27.916642+05:30
Rourkela,Odisha,22.2604,84.8536,26.2,92,0.1,978.1,1.8,37.4,57,5.6,5.4,5.6,278.0,63.0,4.7,10,5,3,1,2026-07-22T15:57:27.916649+05:30
Raipur,Chhattisgarh,21.2514,81.6296,27.6,76,0.1,967.4,0.5,54.4,58,12.9,11.8,17.7,206.0,34.0,30.4,10,5,3,1,2026-07-22T15:57:27.916655+05:30
Bhilai,Chhattisgarh,21.1938,81.3509,27.3,76,0.0,967.9,0.75,57.6,55,11.8,10.8,14.4,367.0,42.0,29.0,7,5,3,1,2026-07-22T15:57:27.916663+05:30
Guwahati,Assam,26.1158,91.7086,28.9,84,0.1,995.5,8.65,21.6,50,6.0,6.0,3.0,223.0,79.0,1.2,10,5,7,1,2026-07-22T15:57:27.916670+05:30
Agartala,Tripura,23.8315,91.2868,28.1,86,0.0,1000.6,8.1,38.9,39,6.8,6.5,5.1,172.0,70.0,1.4,7,5,4,1,2026-07-22T15:57:27.916677+05:30
Shillong,Meghalaya,25.5788,91.8933,24.7,68,0.0,855.1,7.75,32.4,34,5.3,4.3,2.1,162.0,69.0,1.2,3,5,7,1,2026-07-22T15:57:27.916684+05:30
Imphal,Manipur,24.817,93.9368,26.3,83,0.0,919.3,8.75,24.1,52,5.1,4.9,3.3,187.0,70.0,1.1,7,5,7,1,2026-07-22T15:57:27.916690+05:30
Aizawl,Mizoram,23.7271,92.7176,21.2,94,0.2,889.0,8.15,39.6,31,3.3,2.8,2.1,126.0,57.0,0.4,6,5,7,1,2026-07-22T15:57:27.916697+05:30
Kohima,Nagaland,25.6701,94.1077,24.1,83,0.0,852.6,7.95,24.1,32,3.8,3.6,2.6,154.0,65.0,0.5,3,5,7,1,2026-07-22T15:57:27.916703+05:30
Gangtok,Sikkim,27.3314,88.6138,20.0,91,0.2,835.5,6.8,30.6,37,2.0,2.0,3.7,174.0,79.0,0.6,6,5,7,1,2026-07-22T15:57:27.916710+05:30
Siliguri,West Bengal,26.7271,88.3953,28.5,82,0.0,987.5,8.5,37.4,59,6.6,6.4,4.3,329.0,89.0,1.5,7,5,7,1,2026-07-22T15:57:31.208996+05:30
Durgapur,West Bengal,23.5204,87.3119,28.7,80,0.0,988.0,8.55,35.6,68,14.3,14.2,13.8,311.0,97.0,26.1,7,5,7,1,2026-07-22T15:57:31.209034+05:30
Asansol,West Bengal,23.6739,86.9524,27.6,84,0.1,986.3,8.45,36.7,64,12.5,12.5,15.0,501.0,91.0,29.2,10,5,7,1,2026-07-22T15:57:31.209046+05:30
Pondicherry,Puducherry,11.9139,79.8145,31.6,66,0.0,1005.2,7.65,37.8,72,41.7,30.5,10.2,200.0,128.0,9.3,3,5,4,1,2026-07-22T15:57:31.209055+05:30
Port Blair,Andaman and Nicobar Islands,11.6234,92.7265,28.7,79,0.0,1006.7,8.55,40.3,48,14.7,8.6,0.4,100.0,47.0,0.6,7,5,4,1,2026-07-22T15:57:31.209064+05:30
Haridwar,Uttarakhand,29.9457,78.1642,31.6,64,0.0,967.3,7.4,37.1,70,13.8,13.3,1.4,185.0,110.0,3.3,3,5,7,1,2026-07-22T15:57:31.209071+05:30
Rishikesh,Uttarakhand,30.0869,78.2676,29.3,76,0.0,960.5,6.8,23.8,55,11.4,11.0,1.6,194.0,95.0,2.1,7,5,7,1,2026-07-22T15:57:31.209078+05:30
Nainital,Uttarakhand,29.3919,79.4542,23.0,64,0.0,804.6,6.7,47.9,53,8.9,8.6,1.0,170.0,95.0,0.9,3,5,7,0,2026-07-22T15:57:31.209086+05:30
Mussoorie,Uttarakhand,30.4599,78.0664,21.9,74,0.0,802.1,7.8,30.6,54,11.2,10.8,2.6,212.0,104.0,2.7,3,5,7,1,2026-07-22T15:57:31.209092+05:30
Dharamshala,Himachal Pradesh,32.219,76.3234,22.3,98,0.2,865.9,5.45,24.1,45,3.7,3.6,3.4,241.0,94.0,0.5,6,5,3,1,2026-07-22T15:57:31.209099+05:30
Dalhousie,Himachal Pradesh,32.5387,75.971,18.8,100,0.1,802.7,1.7,20.9,61,10.9,10.4,6.7,251.0,104.0,1.6,6,10,3,1,2026-07-22T15:57:31.209107+05:30
Patiala,Punjab,30.3398,76.3869,30.2,75,0.2,970.9,6.45,39.6,90,24.0,23.4,3.8,282.0,134.0,7.8,6,5,7,1,2026-07-22T15:57:31.209114+05:30
Bhatinda,Punjab,30.211,74.9455,32.6,63,0.0,975.4,6.75,43.6,84,25.7,25.4,5.9,333.0,148.0,14.7,3,5,7,1,2026-07-22T15:57:31.209121+05:30
Rohtak,Haryana,28.8955,76.6066,32.4,63,0.0,973.2,6.2,42.5,99,325.0,62.9,6.0,351.0,191.0,16.4,3,5,7,1,2026-07-22T15:57:31.209128+05:30
Panipat,Haryana,29.3909,76.9635,31.7,69,0.0,972.5,7.45,41.8,102,205.4,48.9,4.6,281.0,189.0,17.5,3,5,7,1,2026-07-22T15:57:31.209134+05:30
Mathura,Uttar Pradesh,27.4924,77.6737,33.2,60,0.0,977.4,7.2,38.9,76,298.0,47.5,2.5,256.0,143.0,4.4,0,5,7,1,2026-07-22T15:57:31.209141+05:30
Vrindavan,Uttar Pradesh,27.5823,77.7027,33.0,61,0.0,977.9,7.05,38.5,76,298.0,47.5,2.5,253.0,143.0,4.4,3,5,7,1,2026-07-22T15:57:31.209147+05:30
Ayodhya,Uttar Pradesh,26.7922,82.1998,29.8,78,0.0,986.9,8.0,48.6,82,15.4,15.3,2.9,245.0,120.0,4.0,7,5,7,1,2026-07-22T15:57:31.209154+05:30
Ratlam,Madhya Pradesh,23.3315,75.0367,26.7,89,0.3,945.2,1.1,34.2,49,8.8,6.0,2.7,150.0,76.0,2.7,10,5,3,1,2026-07-22T15:57:31.209160+05:30
Sagar,Madhya Pradesh,23.8388,78.7378,25.2,98,0.1,940.6,8.0,25.9,42,2.5,2.4,1.5,168.0,91.0,0.8,10,5,7,1,2026-07-22T15:57:31.209167+05:30
Satna,Madhya Pradesh,24.6005,80.8322,29.1,77,0.2,961.5,7.55,31.3,58,9.1,9.1,2.3,228.0,109.0,6.5,10,5,7,1,2026-07-22T15:57:31.209173+05:30
Akola,Maharashtra,20.7002,77.0082,29.0,66,0.0,967.7,0.75,58.3,24,5.1,4.1,4.5,147.0,55.0,3.2,7,5,3,1,2026-07-22T15:57:31.209181+05:30
Amravati,Maharashtra,20.9374,77.7796,26.5,86,0.1,959.9,1.05,51.5,24,4.2,3.6,4.7,149.0,53.0,3.4,10,5,3,1,2026-07-22T15:57:31.209188+05:30
Latur,Maharashtra,18.4088,76.5604,25.7,75,0.0,934.8,5.1,60.1,28,8.8,5.4,2.2,131.0,51.0,1.4,7,5,3,1,2026-07-22T15:57:31.209195+05:30
Nanded,Maharashtra,19.1383,77.3091,25.4,90,0.2,963.2,1.05,51.8,38,12.0,6.7,2.9,157.0,61.0,3.3,10,5,3,1,2026-07-22T15:57:31.209201+05:30
Gulbarga,Karnataka,17.3297,76.8343,29.7,58,0.1,954.3,2.85,63.0,30,15.4,8.2,3.7,125.0,58.0,2.3,7,5,3,1,2026-07-22T15:57:31.209207+05:30
Bidar,Karnataka,17.9104,77.5199,27.9,61,0.0,930.9,1.85,57.2,32,10.9,7.1,4.0,125.0,60.0,1.8,7,5,3,1,2026-07-22T15:57:31.209213+05:30
Hospet,Karnataka,15.2689,76.3909,30.1,52,0.1,953.3,5.35,61.2,22,9.1,4.4,2.6,110.0,60.0,1.3,3,5,3,1,2026-07-22T15:57:31.209219+05:30
Tirupur,Tamil Nadu,11.1085,77.3411,33.6,46,0.0,973.4,8.5,54.7,58,10.3,6.7,2.9,144.0,78.0,2.3,0,5,7,1,2026-07-22T15:57:31.209225+05:30
Alappuzha,Kerala,9.4981,76.3388,29.1,76,0.0,1009.0,7.35,33.1,60,19.7,13.3,3.9,91.0,81.0,3.6,7,0,4,1,2026-07-22T15:57:31.209231+05:30
Munnar,Kerala,10.0889,77.0595,19.4,91,0.1,857.5,8.3,34.2,45,8.4,5.6,1.6,100.0,69.0,1.4,6,10,7,1,2026-07-22T15:57:31.209237+05:30
Silchar,Assam,24.8333,92.7789,32.8,62,0.0,998.8,8.75,28.4,53,9.9,8.0,2.0,171.0,80.0,2.7,3,5,7,1,2026-07-22T15:57:31.209244+05:30
Dibrugarh,Assam,27.4728,94.912,31.6,73,0.0,988.4,3.5,19.8,64,4.6,4.5,1.9,181.0,116.0,1.1,3,5,3,1,2026-07-22T15:57:31.209250+05:30
