city,state,latitude,longitude,temp,humidity,rain,pressure,uv_index,wind_gusts,aqi,pm10,pm2_5,mosquito_risk,arthritis_risk,migraine_risk,frizz_risk,updated_at
Delhi,Delhi,28.6139,77.209,26.4,51,0.0,981.9,6.7,13.3,154,290.6,71.9,4,5,7,0,2026-04-18T04:12:48.909717+05:30
Mumbai,Maharashtra,19.076,72.8777,29.7,77,0.0,1006.3,5.9,23.8,98,88.7,28.9,7,5,0,1,2026-04-18T04:12:48.909755+05:30
Bangalore,Karnataka,12.9716,77.5946,23.9,78,0.0,910.2,7.9,34.6,94,49.1,43.1,3,5,7,1,2026-04-18T04:12:48.909770+05:30
Hyderabad,Telangana,17.385,78.4867,28.2,67,0.0,951.3,9.0,32.8,88,34.7,30.6,7,5,7,1,2026-04-18T04:12:48.909781+05:30
Chennai,Tamil Nadu,13.0827,80.2707,27.9,87,0.0,1006.0,8.0,32.0,42,15.8,10.4,7,5,4,1,2026-04-18T04:12:48.909790+05:30
Kolkata,West Bengal,22.5726,88.3639,26.9,96,0.0,1005.5,8.85,22.3,63,16.6,13.8,7,5,4,1,2026-04-18T04:12:48.909802+05:30
Pune,Maharashtra,18.5204,73.8567,24.2,81,0.0,946.7,8.4,36.7,90,65.4,45.3,3,5,7,1,2026-04-18T04:12:48.909809+05:30
Ahmedabad,Gujarat,23.0225,72.5714,25.8,59,0.0,1001.0,8.15,25.9,64,19.9,11.5,4,5,4,1,2026-04-18T04:12:48.909816+05:30
Jaipur,Rajasthan,26.9124,75.7873,29.4,39,0.0,959.1,7.95,26.6,130,512.2,93.4,4,5,7,0,2026-04-18T04:12:48.909824+05:30
Lucknow,Uttar Pradesh,26.8467,80.9462,25.7,61,0.0,992.0,7.85,30.6,118,158.3,65.9,7,5,7,1,2026-04-18T04:12:48.909832+05:30
Kanpur,Uttar Pradesh,26.4499,80.3319,24.7,65,0.0,990.5,7.85,23.8,108,104.1,46.3,3,5,7,1,2026-04-18T04:12:48.909840+05:30
Chandigarh,Chandigarh,30.7333,76.7794,20.7,60,0.0,968.2,7.2,31.7,58,16.7,12.4,0,5,7,0,2026-04-18T04:12:48.909847+05:30
Srinagar,Jammu and Kashmir,34.0837,74.7973,10.1,95,0.0,844.1,7.1,24.5,73,46.6,28.9,3,10,7,0,2026-04-18T04:12:48.909854+05:30
Jammu,Jammu and Kashmir,32.7266,74.857,23.5,50,0.0,975.5,7.2,43.9,60,21.6,13.5,0,5,7,0,2026-04-18T04:12:48.909860+05:30
Amritsar,Punjab,31.634,74.8723,21.7,58,0.0,981.6,6.6,45.7,60,27.9,19.9,0,5,7,0,2026-04-18T04:12:48.909867+05:30
Ludhiana,Punjab,30.901,75.8573,23.1,55,0.0,978.6,7.5,34.9,73,22.8,19.2,0,5,7,0,2026-04-18T04:12:48.909876+05:30
Jalandhar,Punjab,31.326,75.5762,21.2,57,0.0,980.2,6.55,39.6,61,28.3,15.3,0,5,7,0,2026-04-18T04:12:48.909883+05:30
Dehradun,Uttarakhand,30.6284,78.0322,15.6,46,0.0,830.7,7.5,41.4,36,10.4,7.6,0,5,7,0,2026-04-18T04:12:48.909891+05:30
Shimla,Himachal Pradesh,31.1048,77.1734,13.2,55,0.0,784.8,5.95,45.0,43,15.9,10.9,0,5,3,0,2026-04-18T04:12:48.909898+05:30
Manali,Himachal Pradesh,32.2396,77.1887,14.5,61,0.0,821.6,9.2,31.3,53,3.6,3.1,3,5,7,0,2026-04-18T04:12:48.909904+05:30
Gurgaon,Haryana,28.4595,77.0266,23.8,63,0.0,980.2,6.9,12.2,547,244.0,66.6,3,5,7,1,2026-04-18T04:12:48.909910+05:30
Noida,Uttar Pradesh,28.5355,77.391,25.9,55,0.0,983.4,6.8,13.7,547,244.0,66.6,4,5,7,1,2026-04-18T04:12:48.909916+05:30
Ghaziabad,Uttar Pradesh,28.6692,77.4538,24.2,59,0.0,981.5,6.8,14.8,140,149.5,46.9,0,5,7,0,2026-04-18T04:12:48.909923+05:30
Faridabad,Haryana,28.4089,77.3178,24.5,60,0.0,982.7,6.85,14.8,547,244.0,66.6,0,5,7,1,2026-04-18T04:12:48.909929+05:30
Meerut,Uttar Pradesh,28.9845,77.7064,22.5,60,0.0,980.3,7.15,18.4,140,149.5,46.9,0,5,7,0,2026-04-18T04:12:48.909936+05:30
Agra,Uttar Pradesh,27.1767,78.0081,25.1,54,0.0,986.4,7.75,12.6,605,382.8,85.4,4,5,7,0,2026-04-18T04:12:48.909944+05:30
Varanasi,Uttar Pradesh,25.3176,82.9739,27.0,55,0.0,995.4,8.2,25.6,121,74.3,53.0,4,5,7,1,2026-04-18T04:12:48.909951+05:30
Prayagraj,Uttar Pradesh,25.4358,81.8463,26.8,51,0.0,993.8,7.8,28.1,111,65.0,47.1,4,5,7,0,2026-04-18T04:12:48.909960+05:30
Gorakhpur,Uttar Pradesh,26.7606,83.3732,25.2,80,0.0,995.5,8.25,26.6,155,91.5,78.7,7,5,7,1,2026-04-18T04:12:48.909967+05:30
Bareilly,Uttar Pradesh,28.367,79.4304,22.5,69,0.0,985.2,7.45,25.9,81,41.3,27.0,3,5,7,1,2026-04-18T04:12:48.909974+05:30
Aligarh,Uttar Pradesh,27.8974,78.088,24.5,59,0.0,984.2,7.35,20.9,171,180.7,51.6,0,5,7,0,2026-04-18T04:12:48.909980+05:30
Moradabad,Uttar Pradesh,28.8386,78.7733,22.7,67,0.0,982.1,7.4,24.5,96,35.9,27.8,3,5,7,1,2026-04-18T04:12:48.909986+05:30
Saharanpur,Uttar Pradesh,29.9637,77.546,21.2,62,0.0,974.7,7.0,22.3,95,60.8,46.6,3,5,7,0,2026-04-18T04:12:48.909992+05:30
Jhansi,Uttar Pradesh,25.4484,78.5685,28.5,49,0.0,976.4,7.95,21.2,75,98.7,29.9,4,5,7,1,2026-04-18T04:12:52.265861+05:30
Surat,Gujarat,21.1702,72.8311,27.6,84,0.0,1005.1,7.85,27.0,114,68.9,35.0,7,5,4,1,2026-04-18T04:12:52.265894+05:30
Vadodara,Gujarat,22.3072,73.1812,25.9,75,0.0,1003.0,8.15,18.4,85,55.8,38.1,7,5,4,1,2026-04-18T04:12:52.265906+05:30
Rajkot,Gujarat,22.3039,70.8022,23.9,75,0.0,993.7,7.85,26.3,63,34.6,13.0,3,5,7,1,2026-04-18T04:12:52.265915+05:30
Thane,Maharashtra,19.2183,72.9781,26.4,93,0.0,1005.9,6.3,33.8,98,88.7,28.9,7,5,4,1,2026-04-18T04:12:52.265924+05:30
Nagpur,Maharashtra,21.1458,79.0882,28.3,42,0.0,970.4,7.45,18.0,97,37.1,32.6,4,5,7,0,2026-04-18T04:12:52.265932+05:30
Nashik,Maharashtra,19.9975,73.7898,25.2,60,0.0,944.3,6.9,26.3,66,63.1,34.3,4,5,7,1,2026-04-18T04:12:52.265940+05:30
Aurangabad,Maharashtra,19.8762,75.3433,28.1,39,0.0,942.5,8.4,32.0,52,33.6,20.3,4,5,7,0,2026-04-18T04:12:52.265948+05:30
Solapur,Maharashtra,17.6599,75.9064,28.0,55,0.0,955.0,8.95,22.0,94,67.3,59.3,4,5,7,1,2026-04-18T04:12:52.265956+05:30
Kolhapur,Maharashtra,16.705,74.2433,23.0,87,0.0,945.7,8.9,46.4,75,44.9,34.0,3,5,7,1,2026-04-18T04:12:52.265969+05:30
Goa,Goa,15.2993,74.124,27.1,86,0.0,995.5,9.05,28.4,69,49.0,28.7,7,5,7,1,2026-04-18T04:12:52.265980+05:30
Jodhpur,Rajasthan,26.2389,73.0243,26.4,57,0.0,981.7,8.15,28.4,91,90.6,17.0,4,5,7,1,2026-04-18T04:12:52.265988+05:30
Udaipur,Rajasthan,24.5854,73.7125,24.6,41,0.0,945.9,8.7,31.0,43,21.5,9.0,0,5,7,0,2026-04-18T04:12:52.265996+05:30
Kota,Rajasthan,25.2138,75.8648,27.5,43,0.0,977.1,8.25,25.9,69,7.1,6.3,4,5,7,0,2026-04-18T04:12:52.266004+05:30
Bikaner,Rajasthan,28.0229,73.3119,28.8,27,0.0,979.8,7.55,28.1,76,114.1,31.7,4,5,7,0,2026-04-18T04:12:52.266012+05:30
Ajmer,Rajasthan,26.4499,74.6399,25.0,42,0.0,953.8,8.15,31.7,57,96.4,17.9,4,5,7,0,2026-04-18T04:12:52.266019+05:30
Gwalior,Madhya Pradesh,26.2183,78.1828,27.9,52,0.0,981.9,8.0,25.2,101,348.3,64.5,4,5,7,1,2026-04-18T04:12:52.266027+05:30
Indore,Madhya Pradesh,22.7196,75.8577,23.7,53,0.0,946.8,8.15,24.1,68,14.5,11.7,0,5,7,0,2026-04-18T04:12:52.266035+05:30
Bhopal,Madhya Pradesh,23.2599,77.4126,26.5,46,0.0,952.6,8.05,21.6,71,21.0,17.5,4,5,7,0,2026-04-18T04:12:52.266043+05:30
Jabalpur,Madhya Pradesh,23.1815,79.9864,27.5,55,0.0,959.4,8.05,22.7,74,59.3,24.1,4,5,7,1,2026-04-18T04:12:52.266050+05:30
Ujjain,Madhya Pradesh,23.1765,75.7885,24.0,54,0.0,952.7,8.5,21.2,66,14.7,12.2,0,5,7,0,2026-04-18T04:12:52.266057+05:30
Visakhapatnam,Andhra Pradesh,17.6868,83.2185,27.7,89,0.0,1002.6,9.2,36.0,54,20.8,15.3,7,5,4,1,2026-04-18T04:12:52.266064+05:30
Vijayawada,Andhra Pradesh,16.5062,80.648,27.6,88,0.0,1001.4,9.2,25.9,53,14.4,10.7,7,5,4,1,2026-04-18T04:12:52.266100+05:30
Guntur,Andhra Pradesh,16.3067,80.4365,27.6,88,0.0,1002.4,9.25,28.1,57,14.4,10.6,7,5,4,1,2026-04-18T04:12:52.266109+05:30
Nellore,Andhra Pradesh,14.4426,79.9865,27.0,89,0.0,1004.0,8.85,32.0,55,14.2,10.7,7,5,4,1,2026-04-18T04:12:52.266116+05:30
Kurnool,Andhra Pradesh,15.8281,78.0373,30.1,70,0.0,974.6,9.25,31.3,89,28.5,26.2,3,5,7,1,2026-04-18T04:12:52.266123+05:30
Kakinada,Andhra Pradesh,16.9891,82.2475,27.7,90,0.0,1006.5,8.8,28.8,40,21.6,13.5,7,5,4,1,2026-04-18T04:12:52.266129+05:30
Tirupati,Andhra Pradesh,13.6288,79.4192,25.7,92,0.0,990.7,8.1,33.1,76,18.5,15.4,7,5,7,1,2026-04-18T04:12:52.266136+05:30
Warangal,Telangana,17.9689,79.5941,27.5,76,0.0,976.4,9.15,26.6,80,27.4,24.4,7,5,7,1,2026-04-18T04:12:52.266145+05:30
Nizamabad,Telangana,18.6725,78.0941,29.8,51,0.0,962.7,8.85,25.6,111,53.8,50.1,4,5,7,1,2026-04-18T04:12:52.266151+05:30
Mysore,Karnataka,12.2958,76.6396,23.9,93,0.0,927.0,8.8,38.5,100,41.6,36.7,3,5,7,1,2026-04-18T04:12:52.266158+05:30
Mangalore,Karnataka,12.9141,74.856,29.6,81,0.0,1004.5,9.15,22.0,75,26.3,15.8,7,5,4,1,2026-04-18T04:12:52.266165+05:30
Hubli-Dharwad,Karnataka,15.3647,75.124,24.2,87,0.0,938.7,9.25,34.9,70,23.7,17.9,3,5,7,1,2026-04-18T04:12:52.266172+05:30
Belgaum,Karnataka,15.8497,74.4977,22.7,89,0.0,923.3,9.3,27.7,64,36.6,24.4,3,5,7,1,2026-04-18T04:12:55.632329+05:30
Coimbatore,Tamil Nadu,11.0168,76.9558,24.9,93,0.0,960.3,9.1,33.8,103,54.6,49.6,3,5,7,1,2026-04-18T04:12:55.632361+05:30
Madurai,Tamil Nadu,9.9252,78.1198,27.1,90,0.0,991.5,9.35,29.5,84,31.9,30.2,7,5,7,1,2026-04-18T04:12:55.632374+05:30
Trichy,Tamil Nadu,10.7905,78.7047,27.3,93,0.0,998.5,9.3,20.5,78,23.0,20.0,7,5,7,1,2026-04-18T04:12:55.632384+05:30
Salem,Tamil Nadu,11.6643,78.146,26.6,91,0.0,976.0,9.4,20.2,85,43.0,39.3,7,5,7,1,2026-04-18T04:12:55.632393+05:30
Tirunelveli,Tamil Nadu,8.7139,77.7567,26.4,77,0.0,1001.4,9.25,49.0,94,50.1,44.1,7,5,4,1,2026-04-18T04:12:55.632400+05:30
Vellore,Tamil Nadu,12.9165,79.1325,25.3,97,0.0,983.5,8.6,29.2,99,40.6,38.5,7,5,7,1,2026-04-18T04:12:55.632407+05:30
Erode,Tamil Nadu,11.341,77.7172,28.2,85,0.0,987.6,9.35,27.0,80,28.2,26.2,7,5,7,1,2026-04-18T04:12:55.632414+05:30
Kochi,Kerala,9.9312,76.2673,29.1,82,0.0,1006.5,9.15,31.7,97,42.8,33.6,7,5,4,1,2026-04-18T04:12:55.632421+05:30
Thiruvananthapuram,Kerala,8.5241,76.9366,28.9,82,0.0,1005.7,9.1,27.7,85,38.8,28.2,7,5,4,1,2026-04-18T04:12:55.632427+05:30
Kozhikode,Kerala,11.2588,75.7804,29.1,86,0.0,1005.7,8.85,30.2,90,36.0,22.1,7,5,4,1,2026-04-18T04:12:55.632433+05:30
Thrissur,Kerala,10.5276,76.2144,28.5,88,0.0,1004.9,9.1,39.6,96,39.9,28.5,7,5,4,1,2026-04-18T04:12:55.632441+05:30
Kannur,Kerala,11.8745,75.3704,29.3,84,0.0,1005.0,8.5,31.0,85,26.3,18.9,7,5,4,1,2026-04-18T04:12:55.632448+05:30
Patna,Bihar,25.5941,85.1376,27.7,79,0.0,998.6,8.6,27.7,150,71.2,62.4,7,5,7,1,2026-04-18T04:12:55.632454+05:30
Gaya,Bihar,24.7914,85.0002,26.9,82,0.0,991.9,8.65,30.6,128,55.3,45.6,7,5,7,1,2026-04-18T04:12:55.632460+05:30
Muzaffarpur,Bihar,26.1209,85.3647,26.2,83,0.0,998.9,8.6,24.8,153,71.7,62.6,7,5,7,1,2026-04-18T04:12:55.632466+05:30
Bhagalpur,Bihar,25.2425,87.0117,26.1,84,0.0,1000.0,8.6,27.0,155,81.3,72.4,7,5,4,1,2026-04-18T04:12:55.632472+05:30
Ranchi,Jharkhand,23.3441,85.3096,24.2,80,0.0,937.1,9.1,49.7,94,49.8,30.3,3,5,7,1,2026-04-18T04:12:55.632478+05:30
Jamshedpur,Jharkhand,22.8046,86.2029,27.5,86,0.0,990.3,9.0,33.1,90,23.1,21.1,7,5,7,1,2026-04-18T04:12:55.632484+05:30
Dhanbad,Jharkhand,23.7957,86.4304,27.5,84,0.0,979.0,8.95,32.0,151,49.1,46.7,7,5,7,1,2026-04-18T04:12:55.632490+05:30
Bokaro,Jharkhand,23.6693,86.1511,26.4,92,0.0,983.1,8.95,32.0,154,82.7,78.9,7,5,7,1,2026-04-18T04:12:55.632496+05:30
Bhubaneswar,Odisha,20.2961,85.8245,26.9,93,0.0,1001.6,8.65,29.5,57,21.0,14.3,7,5,4,1,2026-04-18T04:12:55.632503+05:30
Cuttack,Odisha,20.4625,85.8828,27.3,93,0.0,1003.5,8.75,26.3,57,21.0,14.3,7,5,4,1,2026-04-18T04:12:55.632508+05:30
Rourkela,Odisha,22.2604,84.8536,27.8,85,0.0,984.2,8.6,43.2,116,61.0,52.7,7,5,7,1,2026-04-18T04:12:55.632514+05:30
Raipur,Chhattisgarh,21.2514,81.6296,29.8,55,0.0,972.2,8.95,44.3,110,64.3,53.9,4,5,7,1,2026-04-18T04:12:55.632521+05:30
Bhilai,Chhattisgarh,21.1938,81.3509,28.6,66,0.0,972.5,9.0,36.4,112,69.4,59.1,7,5,7,1,2026-04-18T04:12:55.632526+05:30
Guwahati,Assam,26.1158,91.7086,25.6,80,0.0,1001.9,8.5,26.3,151,66.1,54.4,7,5,4,1,2026-04-18T04:12:55.632532+05:30
Agartala,Tripura,23.8315,91.2868,25.3,93,0.0,1006.3,8.7,14.8,150,48.2,43.7,7,5,4,1,2026-04-18T04:12:55.632538+05:30
Shillong,Meghalaya,25.5788,91.8933,12.1,85,0.0,854.8,6.7,32.8,129,59.3,47.5,3,10,7,0,2026-04-18T04:12:55.632544+05:30
Imphal,Manipur,24.817,93.9368,18.5,91,0.0,923.9,8.5,45.4,154,107.6,87.1,3,10,7,1,2026-04-18T04:12:55.632551+05:30
Aizawl,Mizoram,23.7271,92.7176,18.6,94,0.0,892.9,8.95,35.3,151,42.8,32.0,3,10,7,1,2026-04-18T04:12:55.632556+05:30
Kohima,Nagaland,25.6701,94.1077,16.0,86,0.0,855.3,8.2,45.0,128,80.3,55.3,3,10,7,0,2026-04-18T04:12:55.632562+05:30
Gangtok,Sikkim,27.3314,88.6138,15.9,92,0.0,837.5,8.85,20.2,131,64.7,44.2,3,10,7,0,2026-04-18T04:12:55.632569+05:30
Siliguri,West Bengal,26.7271,88.3953,21.6,77,0.0,994.3,7.15,19.1,163,146.2,99.0,3,5,7,1,2026-04-18T04:12:58.995929+05:30
Durgapur,West Bengal,23.5204,87.3119,26.9,92,0.0,994.4,8.75,25.6,127,25.2,22.7,7,5,7,1,2026-04-18T04:12:58.995955+05:30
Asansol,West Bengal,23.6739,86.9524,27.5,86,0.0,993.0,8.65,33.5,127,23.5,21.4,7,5,7,1,2026-04-18T04:12:58.995965+05:30
Pondicherry,Puducherry,11.9139,79.8145,26.6,96,0.0,1007.2,8.4,28.1,37,13.4,8.6,7,5,4,1,2026-04-18T04:12:58.995971+05:30
Port Blair,Andaman and Nicobar Islands,11.6234,92.7265,28.4,78,0.0,1005.9,9.2,11.2,45,15.7,11.2,7,5,4,1,2026-04-18T04:12:58.995978+05:30
Haridwar,Uttarakhand,29.9457,78.1642,21.4,61,0.0,973.4,7.05,32.0,62,20.0,17.5,3,5,7,0,2026-04-18T04:12:58.995984+05:30
Rishikesh,Uttarakhand,30.0869,78.2676,20.9,56,0.0,966.3,6.9,37.1,53,20.8,17.0,0,5,7,0,2026-04-18T04:12:58.995991+05:30
Nainital,Uttarakhand,29.3919,79.4542,22.3,29,0.0,807.5,8.1,59.0,54,21.7,14.9,0,5,7,0,2026-04-18T04:12:58.995997+05:30
Mussoorie,Uttarakhand,30.4599,78.0664,18.7,38,0.0,803.9,7.4,42.5,57,19.4,16.7,0,5,7,0,2026-04-18T04:12:58.996003+05:30
Dharamshala,Himachal Pradesh,32.219,76.3234,21.8,36,0.0,871.1,7.05,45.0,33,5.9,4.6,0,5,7,0,2026-04-18T04:12:58.996009+05:30
Dalhousie,Himachal Pradesh,32.5387,75.971,17.6,44,0.0,806.1,6.7,32.0,54,15.9,10.7,0,5,7,0,2026-04-18T04:12:58.996016+05:30
Patiala,Punjab,30.3398,76.3869,21.5,62,0.0,977.6,7.2,26.3,133,122.0,42.7,3,5,7,0,2026-04-18T04:12:58.996022+05:30
Bhatinda,Punjab,30.211,74.9455,23.9,49,0.0,983.2,7.85,39.6,83,23.3,21.3,0,5,7,0,2026-04-18T04:12:58.996028+05:30
Rohtak,Haryana,28.8955,76.6066,21.9,66,0.0,980.7,6.95,14.4,335,401.4,91.7,3,5,7,0,2026-04-18T04:12:58.996034+05:30
Panipat,Haryana,29.3909,76.9635,21.6,65,0.0,979.4,7.2,16.2,601,421.9,97.6,3,5,7,0,2026-04-18T04:12:58.996040+05:30
Mathura,Uttar Pradesh,27.4924,77.6737,23.1,63,0.0,985.7,7.65,15.8,541,312.0,72.2,3,5,7,0,2026-04-18T04:12:58.996046+05:30
Vrindavan,Uttar Pradesh,27.5823,77.7027,24.0,61,0.0,986.2,7.6,17.3,541,312.0,72.2,3,5,7,0,2026-04-18T04:12:58.996051+05:30
Ayodhya,Uttar Pradesh,26.7922,82.1998,24.5,79,0.0,993.4,8.0,32.8,144,79.6,57.7,3,5,7,1,2026-04-18T04:12:58.996057+05:30
Ratlam,Madhya Pradesh,23.3315,75.0367,26.0,43,0.0,953.5,8.45,21.2,56,15.1,11.8,4,5,7,0,2026-04-18T04:12:58.996063+05:30
Sagar,Madhya Pradesh,23.8388,78.7378,27.3,52,0.0,948.6,8.2,28.1,64,53.8,20.8,4,5,7,1,2026-04-18T04:12:58.996097+05:30
Satna,Madhya Pradesh,24.6005,80.8322,28.2,41,0.0,969.4,8.0,18.4,72,52.2,21.3,4,5,7,0,2026-04-18T04:12:58.996106+05:30
Akola,Maharashtra,20.7002,77.0082,27.4,58,0.0,972.9,8.5,26.6,65,23.1,17.9,4,5,7,1,2026-04-18T04:12:58.996113+05:30
Amravati,Maharashtra,20.9374,77.7796,26.4,53,0.0,964.7,8.0,19.1,65,23.7,19.8,4,5,7,0,2026-04-18T04:12:58.996120+05:30
Latur,Maharashtra,18.4088,76.5604,26.3,61,0.0,938.2,8.85,15.8,93,64.5,55.5,7,5,7,1,2026-04-18T04:12:58.996126+05:30
Nanded,Maharashtra,19.1383,77.3091,27.6,58,0.0,966.5,8.8,19.8,83,32.5,29.5,4,5,7,1,2026-04-18T04:12:58.996132+05:30
Gulbarga,Karnataka,17.3297,76.8343,30.9,45,0.0,956.6,9.15,24.8,89,32.8,29.6,0,5,7,1,2026-04-18T04:12:58.996138+05:30
Bidar,Karnataka,17.9104,77.5199,28.6,51,0.0,933.5,9.15,25.2,97,34.6,32.1,4,5,7,1,2026-04-18T04:12:58.996144+05:30
Hospet,Karnataka,15.2689,76.3909,27.4,75,0.0,954.0,9.25,18.7,93,39.3,35.9,7,5,7,1,2026-04-18T04:12:58.996150+05:30
Tirupur,Tamil Nadu,11.1085,77.3411,27.0,86,0.0,973.8,9.4,32.4,90,41.7,37.7,7,5,7,1,2026-04-18T04:12:58.996156+05:30
Alappuzha,Kerala,9.4981,76.3388,28.5,86,0.0,1006.7,9.15,28.4,101,54.0,40.3,7,5,4,1,2026-04-18T04:12:58.996165+05:30
Munnar,Kerala,10.0889,77.0595,21.6,85,0.0,855.4,9.7,22.3,87,46.0,41.6,3,5,7,1,2026-04-18T04:12:58.996172+05:30
Silchar,Assam,24.8333,92.7789,23.2,92,0.0,1006.1,8.75,23.8,158,103.1,80.6,3,5,4,1,2026-04-18T04:12:58.996178+05:30
Dibrugarh,Assam,27.4728,94.912,25.0,87,0.0,996.2,8.65,11.5,135,53.9,43.5,7,5,7,1,2026-04-18T04:12:58.996184+05:30
