city,state,latitude,longitude,temp,humidity,rain,pressure,uv_index,wind_gusts,aqi,pm10,pm2_5,mosquito_risk,arthritis_risk,migraine_risk,frizz_risk,updated_at
Delhi,Delhi,28.6139,77.209,25.5,53,0.0,979.4,7.35,30.2,454,512.2,107.8,4,5,7,0,2026-04-22T04:10:23.105787+05:30
Mumbai,Maharashtra,19.076,72.8777,29.2,79,0.0,1005.9,8.0,32.4,94,59.5,30.9,7,5,4,1,2026-04-22T04:10:23.105833+05:30
Bangalore,Karnataka,12.9716,77.5946,23.5,56,0.0,909.7,9.5,28.8,67,25.4,23.4,0,5,7,0,2026-04-22T04:10:23.105849+05:30
Hyderabad,Telangana,17.385,78.4867,27.0,66,0.0,951.4,9.3,20.2,104,53.9,48.5,7,5,7,1,2026-04-22T04:10:23.105860+05:30
Chennai,Tamil Nadu,13.0827,80.2707,28.4,84,0.0,1005.1,8.85,32.4,44,9.0,6.3,7,5,4,1,2026-04-22T04:10:23.105869+05:30
Kolkata,West Bengal,22.5726,88.3639,27.8,91,0.0,1001.7,8.95,27.4,85,23.7,20.7,7,5,4,1,2026-04-22T04:10:23.105883+05:30
Pune,Maharashtra,18.5204,73.8567,25.1,80,0.0,946.6,8.6,41.4,112,43.9,38.4,7,5,7,1,2026-04-22T04:10:23.105891+05:30
Ahmedabad,Gujarat,23.0225,72.5714,25.2,36,0.0,1001.0,8.2,24.8,42,6.8,5.6,4,5,4,0,2026-04-22T04:10:23.105899+05:30
Jaipur,Rajasthan,26.9124,75.7873,28.3,24,0.0,958.2,8.0,34.9,131,228.6,32.9,4,5,7,0,2026-04-22T04:10:23.105907+05:30
Lucknow,Uttar Pradesh,26.8467,80.9462,26.8,49,0.0,989.0,7.85,44.6,169,497.3,90.3,4,5,7,0,2026-04-22T04:10:23.105915+05:30
Kanpur,Uttar Pradesh,26.4499,80.3319,25.7,56,0.0,987.6,7.9,36.4,410,467.5,82.0,4,5,7,1,2026-04-22T04:10:23.105923+05:30
Chandigarh,Chandigarh,30.7333,76.7794,21.7,50,0.0,964.7,7.35,31.3,57,19.0,14.6,0,5,7,0,2026-04-22T04:10:23.105930+05:30
Srinagar,Jammu and Kashmir,34.0837,74.7973,9.0,81,0.0,838.3,8.5,16.2,73,40.2,26.0,3,10,7,0,2026-04-22T04:10:23.105938+05:30
Jammu,Jammu and Kashmir,32.7266,74.857,22.1,64,0.0,969.2,8.1,28.8,68,29.3,25.4,3,5,7,0,2026-04-22T04:10:23.105944+05:30
Amritsar,Punjab,31.634,74.8723,22.8,61,0.0,977.3,8.05,28.8,75,59.0,51.2,3,5,7,0,2026-04-22T04:10:23.105951+05:30
Ludhiana,Punjab,30.901,75.8573,24.3,44,0.0,975.1,7.6,29.9,79,41.2,37.1,0,5,7,0,2026-04-22T04:10:23.105959+05:30
Jalandhar,Punjab,31.326,75.5762,22.9,52,0.0,976.2,7.8,31.0,81,44.8,36.0,0,5,7,0,2026-04-22T04:10:23.105966+05:30
Dehradun,Uttarakhand,30.6284,78.0322,15.8,51,0.0,827.4,7.75,31.0,46,13.6,11.6,0,5,7,0,2026-04-22T04:10:23.105972+05:30
Shimla,Himachal Pradesh,31.1048,77.1734,13.1,49,0.0,781.3,7.85,51.1,47,20.3,12.8,0,5,7,0,2026-04-22T04:10:23.105979+05:30
Manali,Himachal Pradesh,32.2396,77.1887,18.5,26,0.0,819.3,9.3,30.6,47,27.1,9.5,0,5,7,1,2026-04-22T04:10:23.105986+05:30
Gurgaon,Haryana,28.4595,77.0266,23.3,61,0.0,977.8,7.45,27.7,1116,672.4,117.8,3,5,7,0,2026-04-22T04:10:23.105992+05:30
Noida,Uttar Pradesh,28.5355,77.391,25.6,53,0.0,980.8,7.35,31.7,1116,672.4,117.8,4,5,7,0,2026-04-22T04:10:23.105999+05:30
Ghaziabad,Uttar Pradesh,28.6692,77.4538,24.8,58,0.0,978.8,7.35,31.3,327,527.1,104.8,0,5,7,0,2026-04-22T04:10:23.106005+05:30
Faridabad,Haryana,28.4089,77.3178,25.9,46,0.0,980.1,7.4,32.8,1116,672.4,117.8,4,5,7,0,2026-04-22T04:10:23.106011+05:30
Meerut,Uttar Pradesh,28.9845,77.7064,23.5,54,0.0,977.4,7.25,36.0,327,527.1,104.8,0,5,7,0,2026-04-22T04:10:23.106017+05:30
Agra,Uttar Pradesh,27.1767,78.0081,25.5,52,0.0,984.3,7.75,36.4,678,663.1,112.5,4,5,7,0,2026-04-22T04:10:23.106026+05:30
Varanasi,Uttar Pradesh,25.3176,82.9739,27.5,39,0.0,993.2,8.5,42.5,102,184.4,46.0,4,5,7,0,2026-04-22T04:10:23.106033+05:30
Prayagraj,Uttar Pradesh,25.4358,81.8463,28.1,44,0.0,992.0,8.35,38.5,111,348.3,66.6,4,5,7,0,2026-04-22T04:10:23.106040+05:30
Gorakhpur,Uttar Pradesh,26.7606,83.3732,25.8,38,0.0,991.9,8.25,41.0,79,205.8,49.9,4,5,7,0,2026-04-22T04:10:23.106047+05:30
Bareilly,Uttar Pradesh,28.367,79.4304,22.7,52,0.0,982.3,7.55,38.5,91,181.1,49.7,0,5,7,0,2026-04-22T04:10:23.106054+05:30
Aligarh,Uttar Pradesh,27.8974,78.088,23.7,56,0.0,981.7,7.5,36.0,740,646.3,109.0,0,5,7,0,2026-04-22T04:10:23.106062+05:30
Moradabad,Uttar Pradesh,28.8386,78.7733,22.2,54,0.0,979.3,7.4,36.4,110,183.0,57.3,0,5,7,0,2026-04-22T04:10:23.106069+05:30
Saharanpur,Uttar Pradesh,29.9637,77.546,21.1,61,0.0,971.5,7.05,32.8,81,47.4,38.8,3,5,7,0,2026-04-22T04:10:23.106074+05:30
Jhansi,Uttar Pradesh,25.4484,78.5685,29.2,31,0.0,974.6,8.25,30.2,121,23.3,10.2,4,5,7,0,2026-04-22T04:10:26.327942+05:30
Surat,Gujarat,21.1702,72.8311,28.0,72,0.0,1004.7,7.9,21.2,112,35.9,27.4,7,5,4,1,2026-04-22T04:10:26.327977+05:30
Vadodara,Gujarat,22.3072,73.1812,27.2,45,0.0,1002.8,8.15,24.8,90,55.2,48.4,4,5,4,0,2026-04-22T04:10:26.327987+05:30
Rajkot,Gujarat,22.3039,70.8022,23.4,71,0.0,993.4,7.9,29.9,54,27.6,12.8,3,5,7,1,2026-04-22T04:10:26.327995+05:30
Thane,Maharashtra,19.2183,72.9781,26.7,83,0.0,1005.4,8.05,43.6,94,59.5,30.9,7,5,4,1,2026-04-22T04:10:26.328002+05:30
Nagpur,Maharashtra,21.1458,79.0882,29.0,45,0.0,970.7,8.95,30.6,86,36.8,32.6,4,5,7,0,2026-04-22T04:10:26.328009+05:30
Nashik,Maharashtra,19.9975,73.7898,25.7,53,0.0,943.9,8.3,37.1,81,57.7,40.5,4,5,7,0,2026-04-22T04:10:26.328016+05:30
Aurangabad,Maharashtra,19.8762,75.3433,28.6,37,0.0,942.6,9.05,34.6,80,40.7,33.3,4,5,7,0,2026-04-22T04:10:26.328022+05:30
Solapur,Maharashtra,17.6599,75.9064,26.9,68,0.0,955.0,9.05,28.1,105,53.7,48.2,7,5,7,1,2026-04-22T04:10:26.328029+05:30
Kolhapur,Maharashtra,16.705,74.2433,22.7,94,0.0,945.8,9.05,43.9,99,37.8,31.1,3,5,7,1,2026-04-22T04:10:26.328036+05:30
Goa,Goa,15.2993,74.124,27.3,91,0.0,995.7,9.0,29.5,73,39.7,26.5,7,5,7,1,2026-04-22T04:10:26.328043+05:30
Jodhpur,Rajasthan,26.2389,73.0243,26.4,30,0.0,981.1,8.2,29.2,112,141.1,21.2,4,5,7,0,2026-04-22T04:10:26.328050+05:30
Udaipur,Rajasthan,24.5854,73.7125,24.5,33,0.0,945.5,8.75,42.5,44,8.2,6.4,0,5,7,0,2026-04-22T04:10:26.328057+05:30
Kota,Rajasthan,25.2138,75.8648,27.4,25,0.0,976.8,8.25,29.5,57,7.0,6.9,4,5,7,0,2026-04-22T04:10:26.328064+05:30
Bikaner,Rajasthan,28.0229,73.3119,29.9,30,0.0,979.0,8.05,30.2,52,97.3,23.2,4,5,7,0,2026-04-22T04:10:26.328070+05:30
Ajmer,Rajasthan,26.4499,74.6399,24.7,31,0.0,953.1,8.2,34.9,57,3.4,2.5,0,5,7,0,2026-04-22T04:10:26.328076+05:30
Gwalior,Madhya Pradesh,26.2183,78.1828,28.4,45,0.0,980.2,8.0,39.6,169,28.2,11.5,4,5,7,0,2026-04-22T04:10:26.328083+05:30
Indore,Madhya Pradesh,22.7196,75.8577,25.0,48,0.0,946.9,8.65,35.6,57,13.5,11.7,4,5,7,0,2026-04-22T04:10:26.328090+05:30
Bhopal,Madhya Pradesh,23.2599,77.4126,26.2,40,0.0,952.4,8.65,36.7,54,14.2,13.6,4,5,7,0,2026-04-22T04:10:26.328096+05:30
Jabalpur,Madhya Pradesh,23.1815,79.9864,25.9,55,0.0,959.1,8.85,32.0,66,27.4,20.1,4,5,7,1,2026-04-22T04:10:26.328103+05:30
Ujjain,Madhya Pradesh,23.1765,75.7885,26.4,39,0.0,952.8,8.6,36.4,57,15.9,14.1,4,5,7,0,2026-04-22T04:10:26.328109+05:30
Visakhapatnam,Andhra Pradesh,17.6868,83.2185,27.3,89,0.0,1000.9,9.0,40.0,60,18.4,14.8,7,5,4,1,2026-04-22T04:10:26.328116+05:30
Vijayawada,Andhra Pradesh,16.5062,80.648,27.3,87,0.0,1000.4,9.25,27.4,60,13.2,10.1,7,5,4,1,2026-04-22T04:10:26.328123+05:30
Guntur,Andhra Pradesh,16.3067,80.4365,27.2,89,0.0,1001.5,9.25,31.0,64,12.7,9.7,7,5,4,1,2026-04-22T04:10:26.328129+05:30
Nellore,Andhra Pradesh,14.4426,79.9865,27.2,91,0.0,1003.6,9.2,34.2,52,10.0,8.4,7,5,4,1,2026-04-22T04:10:26.328136+05:30
Kurnool,Andhra Pradesh,15.8281,78.0373,28.9,60,0.0,974.4,9.25,21.2,97,55.2,49.9,4,5,7,1,2026-04-22T04:10:26.328143+05:30
Kakinada,Andhra Pradesh,16.9891,82.2475,27.1,90,0.0,1005.2,9.2,29.2,45,14.0,9.3,7,5,4,1,2026-04-22T04:10:26.328149+05:30
Tirupati,Andhra Pradesh,13.6288,79.4192,25.1,85,0.0,990.0,9.35,32.4,60,14.4,13.2,7,5,7,1,2026-04-22T04:10:26.328156+05:30
Warangal,Telangana,17.9689,79.5941,28.3,57,0.0,975.8,9.15,33.1,94,30.9,29.3,4,5,7,1,2026-04-22T04:10:26.328161+05:30
Nizamabad,Telangana,18.6725,78.0941,27.7,60,0.0,963.6,9.15,33.5,107,44.0,41.3,4,5,7,1,2026-04-22T04:10:26.328167+05:30
Mysore,Karnataka,12.2958,76.6396,23.3,89,0.0,926.7,9.45,37.8,83,31.1,29.2,3,5,7,1,2026-04-22T04:10:26.328173+05:30
Mangalore,Karnataka,12.9141,74.856,27.8,85,0.0,1004.4,9.1,25.9,80,32.6,28.9,7,5,4,1,2026-04-22T04:10:26.328179+05:30
Hubli-Dharwad,Karnataka,15.3647,75.124,23.1,87,0.0,939.2,9.2,38.2,93,40.4,36.6,3,5,7,1,2026-04-22T04:10:26.328185+05:30
Belgaum,Karnataka,15.8497,74.4977,21.8,100,0.0,923.2,9.25,33.1,91,27.9,22.0,3,5,7,1,2026-04-22T04:10:29.547151+05:30
Coimbatore,Tamil Nadu,11.0168,76.9558,24.6,90,0.0,959.7,9.4,36.4,80,30.2,26.8,3,5,7,1,2026-04-22T04:10:29.547185+05:30
Madurai,Tamil Nadu,9.9252,78.1198,26.3,87,0.0,990.7,9.3,37.4,60,20.4,19.2,7,5,7,1,2026-04-22T04:10:29.547195+05:30
Trichy,Tamil Nadu,10.7905,78.7047,27.4,86,0.0,997.5,9.3,19.1,53,23.9,22.8,7,5,7,1,2026-04-22T04:10:29.547203+05:30
Salem,Tamil Nadu,11.6643,78.146,27.4,78,0.0,975.3,9.3,25.6,59,18.2,17.5,7,5,7,1,2026-04-22T04:10:29.547211+05:30
Tirunelveli,Tamil Nadu,8.7139,77.7567,27.2,80,0.0,1000.7,9.25,45.7,65,25.0,22.7,7,5,4,1,2026-04-22T04:10:29.547218+05:30
Vellore,Tamil Nadu,12.9165,79.1325,25.3,80,0.0,982.8,9.35,28.8,66,30.2,28.8,7,5,7,1,2026-04-22T04:10:29.547226+05:30
Erode,Tamil Nadu,11.341,77.7172,28.9,76,0.0,986.8,9.35,24.5,52,11.1,10.7,7,5,7,1,2026-04-22T04:10:29.547233+05:30
Kochi,Kerala,9.9312,76.2673,28.1,85,0.0,1006.1,9.05,28.4,74,27.1,25.1,7,5,4,1,2026-04-22T04:10:29.547240+05:30
Thiruvananthapuram,Kerala,8.5241,76.9366,28.2,84,0.0,1005.3,8.95,29.5,54,14.3,11.8,7,5,4,1,2026-04-22T04:10:29.547247+05:30
Kozhikode,Kerala,11.2588,75.7804,28.6,84,0.0,1005.6,9.1,29.5,68,25.1,19.4,7,5,4,1,2026-04-22T04:10:29.547254+05:30
Thrissur,Kerala,10.5276,76.2144,27.1,87,0.0,1004.6,9.0,35.6,73,29.1,25.9,7,5,4,1,2026-04-22T04:10:29.547261+05:30
Kannur,Kerala,11.8745,75.3704,28.3,87,0.0,1004.8,8.9,32.8,76,31.0,27.0,7,5,4,1,2026-04-22T04:10:29.547269+05:30
Patna,Bihar,25.5941,85.1376,27.6,44,0.0,995.1,8.65,41.4,89,161.1,34.7,4,5,7,0,2026-04-22T04:10:29.547275+05:30
Gaya,Bihar,24.7914,85.0002,27.9,45,0.0,989.3,8.75,40.3,92,59.4,26.7,4,5,7,0,2026-04-22T04:10:29.547299+05:30
Muzaffarpur,Bihar,26.1209,85.3647,25.8,48,0.0,994.9,8.6,15.8,86,159.3,35.6,4,5,7,0,2026-04-22T04:10:29.547306+05:30
Bhagalpur,Bihar,25.2425,87.0117,27.5,53,0.0,995.9,8.7,22.0,97,43.8,19.2,4,5,7,1,2026-04-22T04:10:29.547313+05:30
Ranchi,Jharkhand,23.3441,85.3096,27.3,34,0.0,935.1,9.25,41.4,74,99.9,32.4,4,5,7,0,2026-04-22T04:10:29.547320+05:30
Jamshedpur,Jharkhand,22.8046,86.2029,28.9,60,0.0,986.9,9.05,25.6,109,62.4,42.5,4,5,7,1,2026-04-22T04:10:29.547326+05:30
Dhanbad,Jharkhand,23.7957,86.4304,28.9,55,0.0,975.8,9.05,38.5,141,136.9,61.2,4,5,7,1,2026-04-22T04:10:29.547333+05:30
Bokaro,Jharkhand,23.6693,86.1511,26.9,46,0.0,980.1,9.05,40.7,122,123.4,54.1,4,5,7,0,2026-04-22T04:10:29.547339+05:30
Bhubaneswar,Odisha,20.2961,85.8245,26.8,95,0.0,998.2,9.15,31.7,84,26.0,22.8,7,5,7,1,2026-04-22T04:10:29.547347+05:30
Cuttack,Odisha,20.4625,85.8828,27.3,94,0.0,1000.2,9.2,43.2,84,26.0,22.8,7,5,4,1,2026-04-22T04:10:29.547353+05:30
Rourkela,Odisha,22.2604,84.8536,29.1,69,0.0,981.2,9.0,40.7,104,45.1,38.2,7,5,7,1,2026-04-22T04:10:29.547360+05:30
Raipur,Chhattisgarh,21.2514,81.6296,29.6,53,0.0,971.7,9.0,33.5,121,59.0,55.6,4,5,7,1,2026-04-22T04:10:29.547366+05:30
Bhilai,Chhattisgarh,21.1938,81.3509,29.3,53,0.0,971.9,9.0,30.2,109,56.8,52.7,4,5,7,1,2026-04-22T04:10:29.547372+05:30
Guwahati,Assam,26.1158,91.7086,22.9,86,0.0,998.2,8.6,36.7,107,52.4,40.7,3,5,7,1,2026-04-22T04:10:29.547378+05:30
Agartala,Tripura,23.8315,91.2868,27.1,91,0.0,1003.1,8.85,36.0,81,24.7,20.8,7,5,4,1,2026-04-22T04:10:29.547384+05:30
Shillong,Meghalaya,25.5788,91.8933,16.6,90,0.0,853.8,9.05,70.6,68,13.9,11.4,3,10,7,0,2026-04-22T04:10:29.547391+05:30
Imphal,Manipur,24.817,93.9368,19.5,88,0.0,921.4,9.2,77.0,151,75.7,67.1,3,10,7,1,2026-04-22T04:10:29.547398+05:30
Aizawl,Mizoram,23.7271,92.7176,20.3,91,0.0,891.3,9.05,56.2,104,39.6,33.2,3,5,7,1,2026-04-22T04:10:29.547405+05:30
Kohima,Nagaland,25.6701,94.1077,18.2,77,0.0,852.7,9.15,105.5,105,58.1,45.9,3,5,7,0,2026-04-22T04:10:29.547412+05:30
Gangtok,Sikkim,27.3314,88.6138,15.9,66,0.0,834.7,8.95,20.2,69,12.8,10.5,3,5,7,0,2026-04-22T04:10:29.547419+05:30
Siliguri,West Bengal,26.7271,88.3953,22.4,64,0.0,989.8,7.8,23.0,145,52.5,45.3,3,5,7,0,2026-04-22T04:10:32.772059+05:30
Durgapur,West Bengal,23.5204,87.3119,27.7,92,0.0,990.6,8.95,28.4,147,97.8,88.5,7,5,7,1,2026-04-22T04:10:32.772092+05:30
Asansol,West Bengal,23.6739,86.9524,28.4,88,0.0,989.2,9.0,28.1,131,104.5,61.7,7,5,7,1,2026-04-22T04:10:32.772103+05:30
Pondicherry,Puducherry,11.9139,79.8145,27.6,92,0.0,1006.3,8.95,30.6,44,7.9,5.3,7,5,4,1,2026-04-22T04:10:32.772111+05:30
Port Blair,Andaman and Nicobar Islands,11.6234,92.7265,29.4,76,0.0,1005.1,8.7,18.4,51,11.6,9.2,7,5,4,1,2026-04-22T04:10:32.772118+05:30
Haridwar,Uttarakhand,29.9457,78.1642,20.3,67,0.0,970.1,7.15,34.6,67,25.4,25.4,3,5,7,0,2026-04-22T04:10:32.772126+05:30
Rishikesh,Uttarakhand,30.0869,78.2676,21.5,60,0.0,963.2,7.2,33.8,56,19.2,19.1,0,5,7,0,2026-04-22T04:10:32.772133+05:30
Nainital,Uttarakhand,29.3919,79.4542,21.4,36,0.0,804.5,8.05,38.5,68,21.2,15.3,0,5,7,0,2026-04-22T04:10:32.772140+05:30
Mussoorie,Uttarakhand,30.4599,78.0664,18.5,46,0.0,800.7,7.65,38.5,60,20.5,20.1,0,5,7,0,2026-04-22T04:10:32.772148+05:30
Dharamshala,Himachal Pradesh,32.219,76.3234,22.8,33,0.0,867.0,7.95,29.2,45,17.3,7.2,0,5,7,0,2026-04-22T04:10:32.772155+05:30
Dalhousie,Himachal Pradesh,32.5387,75.971,19.1,34,0.0,802.1,8.25,25.2,56,19.7,15.6,0,5,7,0,2026-04-22T04:10:32.772162+05:30
Patiala,Punjab,30.3398,76.3869,22.2,52,0.0,974.4,7.25,23.0,303,195.6,49.6,0,5,7,0,2026-04-22T04:10:32.772168+05:30
Bhatinda,Punjab,30.211,74.9455,25.2,43,0.0,980.4,7.95,32.4,72,36.2,29.0,4,5,7,0,2026-04-22T04:10:32.772175+05:30
Rohtak,Haryana,28.8955,76.6066,22.3,63,0.0,978.2,7.1,31.7,628,579.3,104.5,3,5,7,0,2026-04-22T04:10:32.772182+05:30
Panipat,Haryana,29.3909,76.9635,22.2,56,0.0,976.6,7.2,31.0,1066,763.7,118.3,0,5,7,0,2026-04-22T04:10:32.772188+05:30
Mathura,Uttar Pradesh,27.4924,77.6737,25.2,52,0.0,983.2,7.65,34.9,741,625.8,109.7,4,5,7,0,2026-04-22T04:10:32.772194+05:30
Vrindavan,Uttar Pradesh,27.5823,77.7027,24.4,51,0.0,983.6,7.65,35.3,741,625.8,109.7,0,5,7,0,2026-04-22T04:10:32.772201+05:30
Ayodhya,Uttar Pradesh,26.7922,82.1998,25.2,47,0.0,990.3,8.05,46.1,99,352.0,72.2,4,5,7,0,2026-04-22T04:10:32.772207+05:30
Ratlam,Madhya Pradesh,23.3315,75.0367,27.5,34,0.0,953.5,8.5,31.0,55,17.3,14.7,4,5,7,0,2026-04-22T04:10:32.772214+05:30
Sagar,Madhya Pradesh,23.8388,78.7378,27.3,37,0.0,948.5,8.7,37.8,58,48.2,19.1,4,5,7,0,2026-04-22T04:10:32.772220+05:30
Satna,Madhya Pradesh,24.6005,80.8322,29.2,36,0.0,968.1,8.7,43.6,86,80.3,25.9,4,5,7,0,2026-04-22T04:10:32.772226+05:30
Akola,Maharashtra,20.7002,77.0082,29.1,49,0.0,973.1,8.85,32.0,86,30.4,26.5,4,5,7,1,2026-04-22T04:10:32.772233+05:30
Amravati,Maharashtra,20.9374,77.7796,28.4,49,0.0,965.0,8.9,22.0,89,34.2,30.6,4,5,7,1,2026-04-22T04:10:32.772239+05:30
Latur,Maharashtra,18.4088,76.5604,25.5,63,0.0,938.6,8.8,33.1,111,44.8,40.9,7,5,7,1,2026-04-22T04:10:32.772246+05:30
Nanded,Maharashtra,19.1383,77.3091,27.8,60,0.0,966.9,8.95,24.8,100,40.7,38.5,4,5,7,1,2026-04-22T04:10:32.772252+05:30
Gulbarga,Karnataka,17.3297,76.8343,26.7,67,0.0,956.9,8.85,33.5,100,43.2,39.9,7,5,7,1,2026-04-22T04:10:32.772257+05:30
Bidar,Karnataka,17.9104,77.5199,27.2,55,0.0,933.9,8.9,46.8,106,42.8,39.6,4,5,7,1,2026-04-22T04:10:32.772263+05:30
Hospet,Karnataka,15.2689,76.3909,25.9,74,0.0,954.5,9.25,25.9,100,50.6,46.0,7,5,7,1,2026-04-22T04:10:32.772269+05:30
Tirupur,Tamil Nadu,11.1085,77.3411,26.8,82,0.0,973.1,9.35,29.5,66,20.5,18.5,7,5,7,1,2026-04-22T04:10:32.772275+05:30
Alappuzha,Kerala,9.4981,76.3388,27.9,81,0.0,1006.2,8.9,25.2,68,22.7,19.2,7,5,4,1,2026-04-22T04:10:32.772298+05:30
Munnar,Kerala,10.0889,77.0595,20.5,88,0.0,854.4,9.6,34.9,75,29.9,28.2,3,5,7,1,2026-04-22T04:10:32.772305+05:30
Silchar,Assam,24.8333,92.7789,23.3,92,0.0,1003.4,8.2,44.6,151,80.6,68.2,3,5,4,1,2026-04-22T04:10:32.772312+05:30
Dibrugarh,Assam,27.4728,94.912,23.1,92,0.0,992.5,8.75,21.6,61,14.0,10.2,3,5,7,1,2026-04-22T04:10:32.772318+05:30
