city,state,latitude,longitude,temp,humidity,rain,pressure,uv_index,wind_gusts,aqi,pm10,pm2_5,mosquito_risk,arthritis_risk,migraine_risk,frizz_risk,updated_at
Delhi,Delhi,28.6139,77.209,23.4,51,0.0,988.7,7.05,25.6,135,362.3,72.2,0,5,7,0,2026-04-09T20:54:31.317852+05:30
Mumbai,Maharashtra,19.076,72.8777,27.9,80,0.0,1010.7,7.95,19.4,84,127.1,31.4,7,0,4,1,2026-04-09T20:54:31.317901+05:30
Bangalore,Karnataka,12.9716,77.5946,29.2,48,0.0,913.4,9.6,27.4,165,38.5,32.0,4,5,7,1,2026-04-09T20:54:31.317918+05:30
Hyderabad,Telangana,17.385,78.4867,31.3,34,0.0,954.6,9.15,28.8,105,52.3,33.4,0,5,7,0,2026-04-09T20:54:31.317928+05:30
Chennai,Tamil Nadu,13.0827,80.2707,29.4,81,0.0,1008.3,9.35,37.1,63,24.8,19.6,7,0,4,1,2026-04-09T20:54:31.317937+05:30
Kolkata,West Bengal,22.5726,88.3639,24.1,86,0.0,1009.7,8.45,14.4,143,63.3,51.0,3,0,4,1,2026-04-09T20:54:31.317946+05:30
Pune,Maharashtra,18.5204,73.8567,26.4,60,0.0,950.7,8.5,36.4,87,96.4,39.3,4,5,7,1,2026-04-09T20:54:31.317957+05:30
Ahmedabad,Gujarat,23.0225,72.5714,31.2,36,0.0,1004.7,8.0,16.9,130,80.8,43.4,0,5,4,0,2026-04-09T20:54:31.317966+05:30
Jaipur,Rajasthan,26.9124,75.7873,25.0,32,0.0,964.7,7.75,27.0,143,151.3,32.7,4,5,7,0,2026-04-09T20:54:31.317973+05:30
Lucknow,Uttar Pradesh,26.8467,80.9462,24.6,42,0.0,998.2,7.55,37.1,121,148.1,37.7,0,5,7,0,2026-04-09T20:54:31.317982+05:30
Kanpur,Uttar Pradesh,26.4499,80.3319,24.0,50,0.0,996.6,7.6,31.7,140,331.6,55.5,0,5,7,0,2026-04-09T20:54:31.317989+05:30
Chandigarh,Chandigarh,30.7333,76.7794,19.8,64,0.0,974.9,7.05,25.6,129,39.5,32.1,3,5,7,0,2026-04-09T20:54:31.317997+05:30
Srinagar,Jammu and Kashmir,34.0837,74.7973,8.7,82,0.0,843.2,7.9,22.0,108,26.7,23.4,3,10,7,0,2026-04-09T20:54:31.318004+05:30
Jammu,Jammu and Kashmir,32.7266,74.857,19.6,67,0.0,979.7,7.65,27.4,102,49.0,36.8,3,5,7,0,2026-04-09T20:54:31.318012+05:30
Amritsar,Punjab,31.634,74.8723,19.7,67,0.0,988.2,7.6,18.0,109,49.7,40.9,3,5,7,0,2026-04-09T20:54:31.318019+05:30
Ludhiana,Punjab,30.901,75.8573,21.6,50,0.0,985.7,7.25,22.0,106,38.5,32.2,0,5,7,0,2026-04-09T20:54:31.318025+05:30
Jalandhar,Punjab,31.326,75.5762,20.9,57,0.0,987.0,7.4,21.2,103,41.4,32.8,0,5,7,0,2026-04-09T20:54:31.318050+05:30
Dehradun,Uttarakhand,30.6284,78.0322,10.6,78,0.0,830.9,7.3,22.3,117,31.0,19.8,3,5,7,0,2026-04-09T20:54:31.318057+05:30
Shimla,Himachal Pradesh,31.1048,77.1734,7.8,79,0.0,784.2,7.4,27.4,131,47.6,34.3,3,5,7,0,2026-04-09T20:54:31.318065+05:30
Manali,Himachal Pradesh,32.2396,77.1887,10.4,75,0.0,819.3,9.7,27.7,149,14.2,10.7,3,5,7,0,2026-04-09T20:54:31.318071+05:30
Gurgaon,Haryana,28.4595,77.0266,21.7,58,0.0,987.0,7.15,20.5,196,1046.8,140.6,0,5,7,0,2026-04-09T20:54:31.318078+05:30
Noida,Uttar Pradesh,28.5355,77.391,23.0,55,0.0,990.1,7.1,25.6,196,1046.8,140.6,0,5,7,0,2026-04-09T20:54:31.318085+05:30
Ghaziabad,Uttar Pradesh,28.6692,77.4538,21.8,59,0.0,988.2,7.05,26.3,147,214.7,56.3,0,5,7,0,2026-04-09T20:54:31.318091+05:30
Faridabad,Haryana,28.4089,77.3178,22.6,54,0.0,989.3,7.15,22.0,196,1046.8,140.6,0,5,7,0,2026-04-09T20:54:31.318098+05:30
Meerut,Uttar Pradesh,28.9845,77.7064,20.7,60,0.0,987.1,6.95,29.9,147,214.7,56.3,0,5,7,0,2026-04-09T20:54:31.318104+05:30
Agra,Uttar Pradesh,27.1767,78.0081,23.5,54,0.0,992.9,7.45,19.8,545,486.2,83.4,0,5,7,0,2026-04-09T20:54:31.318111+05:30
Varanasi,Uttar Pradesh,25.3176,82.9739,24.4,44,0.0,1001.9,8.15,36.0,133,63.6,32.7,0,5,4,0,2026-04-09T20:54:31.318121+05:30
Prayagraj,Uttar Pradesh,25.4358,81.8463,25.3,47,0.0,1000.8,8.05,36.4,123,69.2,27.5,4,5,4,0,2026-04-09T20:54:31.318129+05:30
Gorakhpur,Uttar Pradesh,26.7606,83.3732,24.0,37,0.0,1001.1,7.95,29.5,141,27.9,20.2,0,5,4,0,2026-04-09T20:54:31.318135+05:30
Bareilly,Uttar Pradesh,28.367,79.4304,21.2,57,0.0,992.0,7.35,33.5,115,29.3,21.7,0,5,7,0,2026-04-09T20:54:31.318142+05:30
Aligarh,Uttar Pradesh,27.8974,78.088,22.0,56,0.0,990.8,7.25,28.4,138,377.2,76.1,0,5,7,0,2026-04-09T20:54:31.318148+05:30
Moradabad,Uttar Pradesh,28.8386,78.7733,20.5,60,0.0,989.1,7.15,29.9,107,53.9,33.4,0,5,7,0,2026-04-09T20:54:31.318154+05:30
Saharanpur,Uttar Pradesh,29.9637,77.546,19.8,62,0.0,981.3,6.75,29.9,119,63.8,31.2,3,5,7,0,2026-04-09T20:54:31.318160+05:30
Jhansi,Uttar Pradesh,25.4484,78.5685,25.4,46,0.0,982.5,8.0,27.4,106,88.9,28.9,4,5,7,0,2026-04-09T20:54:34.544530+05:30
Surat,Gujarat,21.1702,72.8311,26.1,70,0.0,1009.4,7.7,28.1,95,100.8,49.6,7,0,4,1,2026-04-09T20:54:34.544566+05:30
Vadodara,Gujarat,22.3072,73.1812,29.1,56,0.0,1007.1,8.0,20.5,118,48.1,32.0,4,5,4,1,2026-04-09T20:54:34.544576+05:30
Rajkot,Gujarat,22.3039,70.8022,31.4,41,0.0,996.3,7.7,21.2,106,62.6,27.2,0,5,7,1,2026-04-09T20:54:34.544584+05:30
Thane,Maharashtra,19.2183,72.9781,27.1,79,0.0,1010.2,7.95,33.8,84,127.1,31.4,7,0,4,1,2026-04-09T20:54:34.544591+05:30
Nagpur,Maharashtra,21.1458,79.0882,28.4,56,0.0,975.2,8.75,20.5,112,52.5,32.2,4,5,7,1,2026-04-09T20:54:34.544599+05:30
Nashik,Maharashtra,19.9975,73.7898,25.5,46,0.0,948.0,8.2,27.0,69,79.9,26.3,4,5,7,0,2026-04-09T20:54:34.544606+05:30
Aurangabad,Maharashtra,19.8762,75.3433,29.0,36,0.0,946.3,8.9,29.2,75,37.6,19.0,4,5,7,0,2026-04-09T20:54:34.544612+05:30
Solapur,Maharashtra,17.6599,75.9064,32.4,28,0.0,957.7,8.95,23.8,80,104.8,39.9,0,5,7,0,2026-04-09T20:54:34.544619+05:30
Kolhapur,Maharashtra,16.705,74.2433,24.3,76,0.0,949.7,9.0,38.5,81,55.9,24.9,3,5,7,1,2026-04-09T20:54:34.544626+05:30
Goa,Goa,15.2993,74.124,28.5,76,0.0,999.9,8.95,36.0,71,59.5,17.5,7,5,7,1,2026-04-09T20:54:34.544633+05:30
Jodhpur,Rajasthan,26.2389,73.0243,25.7,29,0.0,988.2,8.0,28.4,95,98.3,18.2,4,5,7,0,2026-04-09T20:54:34.544639+05:30
Udaipur,Rajasthan,24.5854,73.7125,24.2,22,0.0,951.0,8.5,36.4,109,44.8,13.5,0,5,7,0,2026-04-09T20:54:34.544645+05:30
Kota,Rajasthan,25.2138,75.8648,26.5,44,0.0,983.1,8.0,24.8,122,85.4,33.3,4,5,7,0,2026-04-09T20:54:34.544651+05:30
Bikaner,Rajasthan,28.0229,73.3119,27.6,26,0.0,988.0,7.8,21.6,106,69.4,20.4,4,5,7,0,2026-04-09T20:54:34.544657+05:30
Ajmer,Rajasthan,26.4499,74.6399,25.6,29,0.0,959.5,7.95,28.8,110,40.4,17.5,4,5,7,0,2026-04-09T20:54:34.544663+05:30
Gwalior,Madhya Pradesh,26.2183,78.1828,25.5,54,0.0,988.3,7.7,28.8,113,153.7,34.7,4,5,7,0,2026-04-09T20:54:34.544669+05:30
Indore,Madhya Pradesh,22.7196,75.8577,26.0,43,0.0,951.2,8.4,22.7,106,48.7,31.3,4,5,7,0,2026-04-09T20:54:34.544675+05:30
Bhopal,Madhya Pradesh,23.2599,77.4126,28.0,40,0.0,956.7,8.4,26.6,105,55.5,26.0,4,5,7,0,2026-04-09T20:54:34.544681+05:30
Jabalpur,Madhya Pradesh,23.1815,79.9864,27.5,42,0.0,964.5,8.55,27.0,115,55.5,27.8,4,5,7,0,2026-04-09T20:54:34.544687+05:30
Ujjain,Madhya Pradesh,23.1765,75.7885,26.2,37,0.0,957.2,8.35,22.0,95,62.2,37.0,4,5,7,0,2026-04-09T20:54:34.544693+05:30
Visakhapatnam,Andhra Pradesh,17.6868,83.2185,28.3,86,0.0,1005.3,9.1,43.2,93,31.3,27.1,7,5,4,1,2026-04-09T20:54:34.544699+05:30
Vijayawada,Andhra Pradesh,16.5062,80.648,30.9,64,0.0,1003.8,9.15,33.1,85,29.3,27.5,3,5,4,1,2026-04-09T20:54:34.544706+05:30
Guntur,Andhra Pradesh,16.3067,80.4365,29.3,79,0.0,1005.0,9.15,31.7,112,35.9,33.3,7,5,4,1,2026-04-09T20:54:34.544712+05:30
Nellore,Andhra Pradesh,14.4426,79.9865,29.1,82,0.0,1006.7,9.3,34.9,111,22.2,18.9,7,5,4,1,2026-04-09T20:54:34.544719+05:30
Kurnool,Andhra Pradesh,15.8281,78.0373,33.7,28,0.0,976.8,9.2,27.7,123,50.2,27.5,0,5,7,0,2026-04-09T20:54:34.544726+05:30
Kakinada,Andhra Pradesh,16.9891,82.2475,28.7,83,0.0,1009.2,9.1,28.4,75,26.1,20.5,7,0,4,1,2026-04-09T20:54:34.544732+05:30
Tirupati,Andhra Pradesh,13.6288,79.4192,30.9,55,0.0,992.5,9.4,29.2,122,39.2,37.7,0,5,7,1,2026-04-09T20:54:34.544738+05:30
Warangal,Telangana,17.9689,79.5941,30.9,61,0.0,979.7,9.0,24.5,123,75.2,50.9,3,5,7,1,2026-04-09T20:54:34.544744+05:30
Nizamabad,Telangana,18.6725,78.0941,29.2,43,0.0,966.4,8.95,26.3,91,109.0,45.3,4,5,7,0,2026-04-09T20:54:34.544750+05:30
Mysore,Karnataka,12.2958,76.6396,27.1,63,0.0,930.0,9.5,41.8,122,28.3,21.5,7,5,7,1,2026-04-09T20:54:34.544755+05:30
Mangalore,Karnataka,12.9141,74.856,29.6,77,0.0,1008.1,9.15,33.5,75,51.2,18.6,7,0,4,1,2026-04-09T20:54:34.544761+05:30
Hubli-Dharwad,Karnataka,15.3647,75.124,25.6,76,0.0,942.2,9.2,38.9,69,35.9,16.6,7,5,7,1,2026-04-09T20:54:34.544767+05:30
Belgaum,Karnataka,15.8497,74.4977,24.2,75,0.0,927.5,9.2,38.2,75,45.1,18.2,3,5,7,1,2026-04-09T20:54:37.788312+05:30
Coimbatore,Tamil Nadu,11.0168,76.9558,27.0,71,0.0,963.2,9.45,42.1,58,25.4,20.0,7,5,7,1,2026-04-09T20:54:37.788346+05:30
Madurai,Tamil Nadu,9.9252,78.1198,31.0,65,0.0,994.4,9.4,23.8,113,39.0,36.9,3,5,7,1,2026-04-09T20:54:37.788356+05:30
Trichy,Tamil Nadu,10.7905,78.7047,30.6,69,0.0,1000.7,9.35,22.7,85,25.4,23.7,3,5,4,1,2026-04-09T20:54:37.788365+05:30
Salem,Tamil Nadu,11.6643,78.146,31.5,56,0.0,977.8,9.15,36.4,155,32.8,30.7,0,5,7,1,2026-04-09T20:54:37.788372+05:30
Tirunelveli,Tamil Nadu,8.7139,77.7567,28.8,72,0.0,1004.5,9.3,19.8,100,28.8,26.0,7,5,4,1,2026-04-09T20:54:37.788379+05:30
Vellore,Tamil Nadu,12.9165,79.1325,30.5,59,0.0,985.7,9.4,20.2,116,36.0,34.3,0,5,7,1,2026-04-09T20:54:37.788386+05:30
Erode,Tamil Nadu,11.341,77.7172,32.4,51,0.0,989.6,8.85,20.2,117,31.9,28.9,0,5,7,1,2026-04-09T20:54:37.788393+05:30
Kochi,Kerala,9.9312,76.2673,29.7,77,0.0,1010.2,8.4,25.6,66,34.6,22.5,7,0,4,1,2026-04-09T20:54:37.788401+05:30
Thiruvananthapuram,Kerala,8.5241,76.9366,29.5,78,0.0,1009.5,9.15,34.9,53,30.5,17.6,7,0,4,1,2026-04-09T20:54:37.788408+05:30
Kozhikode,Kerala,11.2588,75.7804,29.7,77,0.0,1009.3,9.15,27.4,70,47.4,18.5,7,0,4,1,2026-04-09T20:54:37.788415+05:30
Thrissur,Kerala,10.5276,76.2144,28.8,80,0.0,1008.5,8.6,30.6,65,35.5,21.4,7,0,4,1,2026-04-09T20:54:37.788422+05:30
Kannur,Kerala,11.8745,75.3704,29.2,77,0.0,1008.5,9.15,32.8,73,47.1,20.3,7,0,4,1,2026-04-09T20:54:37.788430+05:30
Patna,Bihar,25.5941,85.1376,26.7,41,0.0,1003.7,8.3,27.0,131,47.1,32.4,4,5,4,0,2026-04-09T20:54:37.788438+05:30
Gaya,Bihar,24.7914,85.0002,25.1,48,0.0,997.5,8.4,24.1,138,48.2,29.2,4,5,7,0,2026-04-09T20:54:37.788445+05:30
Muzaffarpur,Bihar,26.1209,85.3647,25.4,47,0.0,1003.7,8.15,19.4,120,48.2,34.3,4,5,4,0,2026-04-09T20:54:37.788451+05:30
Bhagalpur,Bihar,25.2425,87.0117,24.9,70,0.0,1004.7,7.9,23.4,142,69.2,50.6,3,5,4,1,2026-04-09T20:54:37.788458+05:30
Ranchi,Jharkhand,23.3441,85.3096,24.2,46,0.0,941.0,9.0,31.0,107,45.1,24.2,0,5,7,0,2026-04-09T20:54:37.788464+05:30
Jamshedpur,Jharkhand,22.8046,86.2029,26.8,65,0.0,994.2,8.8,15.8,111,78.2,47.3,7,5,7,1,2026-04-09T20:54:37.788470+05:30
Dhanbad,Jharkhand,23.7957,86.4304,25.3,61,0.0,983.2,8.7,23.0,141,49.2,33.9,7,5,7,1,2026-04-09T20:54:37.788477+05:30
Bokaro,Jharkhand,23.6693,86.1511,26.0,63,0.0,987.5,8.7,23.8,142,58.4,36.1,7,5,7,1,2026-04-09T20:54:37.788483+05:30
Bhubaneswar,Odisha,20.2961,85.8245,25.9,94,0.0,1005.3,8.9,32.8,90,42.4,37.8,7,5,4,1,2026-04-09T20:54:37.788490+05:30
Cuttack,Odisha,20.4625,85.8828,26.8,87,0.0,1007.3,9.0,31.7,90,42.4,37.8,7,5,4,1,2026-04-09T20:54:37.788497+05:30
Rourkela,Odisha,22.2604,84.8536,27.1,66,0.0,987.6,8.75,19.1,112,75.9,43.9,7,5,7,1,2026-04-09T20:54:37.788503+05:30
Raipur,Chhattisgarh,21.2514,81.6296,30.9,30,0.0,976.2,8.8,27.4,124,98.0,63.6,0,5,7,0,2026-04-09T20:54:37.788509+05:30
Bhilai,Chhattisgarh,21.1938,81.3509,30.1,32,0.0,976.5,8.8,28.4,120,105.5,66.6,0,5,7,0,2026-04-09T20:54:37.788515+05:30
Guwahati,Assam,26.1158,91.7086,21.7,87,0.0,1005.5,8.05,24.8,90,34.5,29.2,3,5,4,1,2026-04-09T20:54:37.788521+05:30
Agartala,Tripura,23.8315,91.2868,22.5,93,0.0,1009.9,8.45,19.1,122,61.0,59.3,3,0,4,1,2026-04-09T20:54:37.788527+05:30
Shillong,Meghalaya,25.5788,91.8933,11.6,94,0.0,856.4,8.3,35.6,87,36.0,31.0,3,10,7,0,2026-04-09T20:54:37.788534+05:30
Imphal,Manipur,24.817,93.9368,16.3,96,0.0,925.2,7.55,47.9,89,53.4,50.5,3,10,7,0,2026-04-09T20:54:37.788540+05:30
Aizawl,Mizoram,23.7271,92.7176,17.5,93,0.0,894.7,6.4,47.5,71,30.7,26.2,3,10,7,1,2026-04-09T20:54:37.788546+05:30
Kohima,Nagaland,25.6701,94.1077,13.6,82,0.0,855.5,6.7,67.0,65,29.9,26.0,3,10,7,0,2026-04-09T20:54:37.788553+05:30
Gangtok,Sikkim,27.3314,88.6138,11.7,82,0.0,837.1,6.15,20.2,98,15.8,13.8,3,10,7,0,2026-04-09T20:54:37.788558+05:30
Siliguri,West Bengal,26.7271,88.3953,18.4,85,0.0,997.5,5.95,21.6,98,41.8,34.6,3,10,3,0,2026-04-09T20:54:41.012660+05:30
Durgapur,West Bengal,23.5204,87.3119,25.7,72,0.0,998.4,8.7,18.0,136,100.4,74.5,7,5,7,1,2026-04-09T20:54:41.012694+05:30
Asansol,West Bengal,23.6739,86.9524,26.5,67,0.0,997.0,8.7,18.4,129,68.0,48.5,7,5,7,1,2026-04-09T20:54:41.012704+05:30
Pondicherry,Puducherry,11.9139,79.8145,28.5,86,0.0,1009.5,9.3,27.7,131,26.9,21.0,7,0,4,1,2026-04-09T20:54:41.012712+05:30
Port Blair,Andaman and Nicobar Islands,11.6234,92.7265,28.6,80,0.0,1010.2,9.25,13.0,35,6.8,5.2,7,0,4,1,2026-04-09T20:54:41.012720+05:30
Haridwar,Uttarakhand,29.9457,78.1642,19.7,62,0.0,979.7,6.9,30.6,125,38.1,25.0,3,5,7,0,2026-04-09T20:54:41.012727+05:30
Rishikesh,Uttarakhand,30.0869,78.2676,17.5,74,0.0,972.1,6.95,28.8,132,33.4,19.4,3,5,7,0,2026-04-09T20:54:41.012734+05:30
Nainital,Uttarakhand,29.3919,79.4542,13.9,61,0.0,807.0,7.8,39.2,114,27.6,16.5,3,5,7,0,2026-04-09T20:54:41.012741+05:30
Mussoorie,Uttarakhand,30.4599,78.0664,11.1,73,0.0,803.1,6.85,26.6,122,36.0,26.0,3,5,7,0,2026-04-09T20:54:41.012748+05:30
Dharamshala,Himachal Pradesh,32.219,76.3234,14.0,65,0.0,871.8,7.5,23.4,118,21.3,14.7,3,5,7,0,2026-04-09T20:54:41.012755+05:30
Dalhousie,Himachal Pradesh,32.5387,75.971,11.0,70,0.0,804.9,7.65,18.7,102,39.2,26.8,3,5,7,0,2026-04-09T20:54:41.012762+05:30
Patiala,Punjab,30.3398,76.3869,20.8,55,0.0,984.6,6.9,27.0,112,352.0,57.3,0,5,7,0,2026-04-09T20:54:41.012769+05:30
Bhatinda,Punjab,30.211,74.9455,21.3,57,0.0,990.9,7.6,27.4,131,46.2,30.9,0,5,7,0,2026-04-09T20:54:41.012775+05:30
Rohtak,Haryana,28.8955,76.6066,21.2,56,0.0,987.5,7.05,32.0,149,579.3,86.8,0,5,7,0,2026-04-09T20:54:41.012782+05:30
Panipat,Haryana,29.3909,76.9635,20.8,56,0.0,986.1,6.9,29.9,183,1169.7,139.2,0,5,7,0,2026-04-09T20:54:41.012788+05:30
Mathura,Uttar Pradesh,27.4924,77.6737,22.9,58,0.0,991.8,7.4,25.6,346,521.5,79.6,0,5,7,0,2026-04-09T20:54:41.012794+05:30
Vrindavan,Uttar Pradesh,27.5823,77.7027,22.9,56,0.0,992.4,7.35,27.0,346,521.5,79.6,0,5,7,0,2026-04-09T20:54:41.012801+05:30
Ayodhya,Uttar Pradesh,26.7922,82.1998,23.6,38,0.0,999.6,7.75,36.0,109,47.5,23.2,0,5,7,0,2026-04-09T20:54:41.012807+05:30
Ratlam,Madhya Pradesh,23.3315,75.0367,27.2,43,0.0,958.0,8.3,27.0,95,50.3,27.1,4,5,7,0,2026-04-09T20:54:41.012813+05:30
Sagar,Madhya Pradesh,23.8388,78.7378,27.3,33,0.0,953.7,8.4,25.9,102,80.6,29.8,4,5,7,0,2026-04-09T20:54:41.012819+05:30
Satna,Madhya Pradesh,24.6005,80.8322,26.3,34,0.0,975.6,8.4,26.6,110,74.7,23.9,4,5,7,0,2026-04-09T20:54:41.012825+05:30
Akola,Maharashtra,20.7002,77.0082,31.0,43,0.0,977.2,8.7,25.6,89,36.2,20.6,0,5,7,1,2026-04-09T20:54:41.012832+05:30
Amravati,Maharashtra,20.9374,77.7796,29.5,38,0.0,968.9,8.7,20.2,96,38.8,22.3,4,5,7,0,2026-04-09T20:54:41.012838+05:30
Latur,Maharashtra,18.4088,76.5604,27.0,49,0.0,941.1,8.95,28.4,87,75.0,33.9,4,5,7,0,2026-04-09T20:54:41.012844+05:30
Nanded,Maharashtra,19.1383,77.3091,30.2,45,0.0,970.2,8.85,22.3,83,85.9,35.4,0,5,7,1,2026-04-09T20:54:41.012851+05:30
Gulbarga,Karnataka,17.3297,76.8343,32.5,27,0.0,959.6,9.0,31.3,82,76.8,32.4,0,5,7,0,2026-04-09T20:54:41.012856+05:30
Bidar,Karnataka,17.9104,77.5199,29.5,37,0.0,937.1,9.0,32.4,89,62.2,31.2,4,5,7,0,2026-04-09T20:54:41.012862+05:30
Hospet,Karnataka,15.2689,76.3909,32.2,41,0.0,956.6,9.2,23.4,82,62.9,32.9,0,5,7,1,2026-04-09T20:54:41.012867+05:30
Tirupur,Tamil Nadu,11.1085,77.3411,29.5,63,0.0,976.3,9.3,34.2,103,28.8,26.0,7,5,7,1,2026-04-09T20:54:41.012874+05:30
Alappuzha,Kerala,9.4981,76.3388,29.6,76,0.0,1010.5,8.45,25.6,62,41.8,23.3,7,0,4,1,2026-04-09T20:54:41.012880+05:30
Munnar,Kerala,10.0889,77.0595,21.6,95,0.0,858.7,9.15,33.8,76,25.2,22.8,3,5,7,1,2026-04-09T20:54:41.012886+05:30
Silchar,Assam,24.8333,92.7789,21.7,93,0.0,1009.3,6.0,23.4,101,71.9,67.8,3,0,0,1,2026-04-09T20:54:41.012892+05:30
Dibrugarh,Assam,27.4728,94.912,22.2,82,0.0,999.3,4.9,16.9,91,28.4,23.7,3,5,3,1,2026-04-09T20:54:41.012898+05:30
