city,state,latitude,longitude,temp,humidity,rain,pressure,uv_index,wind_gusts,aqi,pm10,pm2_5,no2,co,o3,so2,mosquito_risk,arthritis_risk,migraine_risk,frizz_risk,updated_at
Delhi,Delhi,28.6139,77.209,34.8,22,0.0,976.9,7.75,56.9,582,933.2,181.6,61.1,1142.0,37.0,23.8,0,5,7,0,2026-05-28T00:57:17.048940+05:30
Mumbai,Maharashtra,19.076,72.8777,30.5,70,0.0,1009.2,7.8,38.5,41,27.1,11.9,5.7,167.0,47.0,3.9,3,0,4,1,2026-05-28T00:57:17.048980+05:30
Bangalore,Karnataka,12.9716,77.5946,22.2,88,0.0,912.6,9.25,34.9,73,22.3,20.6,29.9,435.0,51.0,7.8,3,5,7,1,2026-05-28T00:57:17.049017+05:30
Hyderabad,Telangana,17.385,78.4867,27.0,70,0.0,952.7,9.1,31.0,69,29.3,24.6,17.6,378.0,76.0,10.6,7,5,7,1,2026-05-28T00:57:17.049027+05:30
Chennai,Tamil Nadu,13.0827,80.2707,30.0,79,0.0,1006.9,8.8,37.8,112,20.1,15.5,11.2,218.0,64.0,8.1,7,5,4,1,2026-05-28T00:57:17.049035+05:30
Kolkata,West Bengal,22.5726,88.3639,26.8,92,0.0,1003.9,8.9,57.6,116,41.8,34.5,11.2,375.0,71.0,7.2,7,5,4,1,2026-05-28T00:57:17.049043+05:30
Pune,Maharashtra,18.5204,73.8567,25.2,86,0.0,948.9,8.4,39.2,46,12.5,10.2,12.6,178.0,45.0,12.8,7,5,7,1,2026-05-28T00:57:17.049050+05:30
Ahmedabad,Gujarat,23.0225,72.5714,31.4,68,0.0,1001.0,8.1,41.4,69,33.8,19.4,6.9,171.0,58.0,5.0,3,5,4,1,2026-05-28T00:57:17.049056+05:30
Jaipur,Rajasthan,26.9124,75.7873,35.0,25,0.0,956.0,8.25,45.7,183,409.8,77.8,4.7,190.0,81.0,3.9,0,5,7,0,2026-05-28T00:57:17.049068+05:30
Lucknow,Uttar Pradesh,26.8467,80.9462,31.5,50,0.0,989.3,8.2,43.2,136,70.8,44.5,12.6,434.0,116.0,14.3,0,5,7,1,2026-05-28T00:57:17.049075+05:30
Kanpur,Uttar Pradesh,26.4499,80.3319,32.9,46,0.0,987.0,8.2,39.6,254,198.4,65.7,22.3,466.0,87.0,14.0,0,5,7,1,2026-05-28T00:57:17.049082+05:30
Chandigarh,Chandigarh,30.7333,76.7794,30.1,29,0.0,962.6,7.75,52.9,66,38.0,30.6,32.2,443.0,49.0,8.5,0,5,7,0,2026-05-28T00:57:17.049088+05:30
Srinagar,Jammu and Kashmir,34.0837,74.7973,13.7,84,0.0,838.8,6.5,27.0,79,38.8,24.9,22.6,655.0,45.0,3.0,3,10,7,0,2026-05-28T00:57:17.049095+05:30
Jammu,Jammu and Kashmir,32.7266,74.857,28.0,33,0.0,966.5,8.45,37.1,73,38.8,30.0,39.5,546.0,26.0,4.6,4,5,7,0,2026-05-28T00:57:17.049102+05:30
Amritsar,Punjab,31.634,74.8723,31.3,32,0.0,974.5,8.4,42.8,94,69.8,58.1,54.4,715.0,38.0,14.5,0,5,7,0,2026-05-28T00:57:17.049108+05:30
Ludhiana,Punjab,30.901,75.8573,31.8,28,0.0,972.4,8.0,40.3,78,49.9,39.6,27.4,770.0,59.0,9.1,0,5,7,0,2026-05-28T00:57:17.049114+05:30
Jalandhar,Punjab,31.326,75.5762,30.6,32,0.0,973.6,8.2,48.6,87,89.2,56.9,37.8,729.0,61.0,11.2,0,5,7,0,2026-05-28T00:57:17.049120+05:30
Dehradun,Uttarakhand,30.6284,78.0322,18.6,37,0.0,827.2,8.2,39.2,82,36.1,22.5,33.8,164.0,50.0,1.6,0,5,7,0,2026-05-28T00:57:17.049126+05:30
Shimla,Himachal Pradesh,31.1048,77.1734,16.2,36,0.0,782.2,8.25,48.6,81,39.1,18.9,20.4,233.0,88.0,1.9,0,5,7,0,2026-05-28T00:57:17.049134+05:30
Manali,Himachal Pradesh,32.2396,77.1887,11.7,52,0.0,814.4,9.55,47.9,58,20.1,13.8,77.5,263.0,51.0,0.2,0,5,7,0,2026-05-28T00:57:17.049140+05:30
Gurgaon,Haryana,28.4595,77.0266,32.2,31,0.0,975.0,7.85,39.6,920,635.2,147.6,78.8,1171.0,18.0,25.5,0,5,7,0,2026-05-28T00:57:17.049147+05:30
Noida,Uttar Pradesh,28.5355,77.391,32.2,38,0.0,978.3,7.75,59.0,920,635.2,147.6,78.8,1211.0,18.0,25.5,0,5,7,0,2026-05-28T00:57:17.049154+05:30
Ghaziabad,Uttar Pradesh,28.6692,77.4538,31.4,42,0.0,976.6,7.75,69.1,392,903.4,177.0,37.9,643.0,58.0,22.2,0,5,7,1,2026-05-28T00:57:17.049160+05:30
Faridabad,Haryana,28.4089,77.3178,34.2,25,0.0,977.7,7.8,63.7,920,635.2,147.6,78.8,1057.0,18.0,25.5,0,5,7,0,2026-05-28T00:57:17.049167+05:30
Meerut,Uttar Pradesh,28.9845,77.7064,28.8,48,0.0,975.5,7.65,46.1,392,903.4,177.0,37.9,847.0,58.0,22.2,4,5,7,1,2026-05-28T00:57:17.049173+05:30
Agra,Uttar Pradesh,27.1767,78.0081,33.5,26,0.0,982.2,8.1,56.5,703,724.6,143.9,56.6,576.0,35.0,21.5,0,5,7,0,2026-05-28T00:57:17.049183+05:30
Varanasi,Uttar Pradesh,25.3176,82.9739,31.0,55,0.0,993.5,8.7,36.7,163,57.9,51.1,8.1,391.0,147.0,19.4,0,5,7,1,2026-05-28T00:57:17.049190+05:30
Prayagraj,Uttar Pradesh,25.4358,81.8463,32.8,50,0.0,991.5,8.6,33.8,131,62.9,49.6,8.8,425.0,148.0,15.7,0,5,7,1,2026-05-28T00:57:17.049197+05:30
Gorakhpur,Uttar Pradesh,26.7606,83.3732,27.9,65,0.0,995.3,8.6,40.7,137,34.8,30.0,9.4,376.0,112.0,10.9,7,5,7,1,2026-05-28T00:57:17.049206+05:30
Bareilly,Uttar Pradesh,28.367,79.4304,29.5,58,0.0,982.2,8.05,75.6,119,45.9,33.5,17.3,527.0,89.0,9.0,4,5,7,1,2026-05-28T00:57:17.049213+05:30
Aligarh,Uttar Pradesh,27.8974,78.088,31.5,37,0.0,979.5,7.9,57.2,621,670.6,154.1,44.2,600.0,46.0,13.5,0,5,7,0,2026-05-28T00:57:17.049219+05:30
Moradabad,Uttar Pradesh,28.8386,78.7733,29.9,52,0.0,978.6,7.85,82.4,127,52.5,51.5,30.7,574.0,80.0,16.0,4,5,7,1,2026-05-28T00:57:17.049226+05:30
Saharanpur,Uttar Pradesh,29.9637,77.546,30.2,43,0.0,969.8,7.5,46.4,103,168.6,55.9,28.5,467.0,69.0,11.5,0,5,7,1,2026-05-28T00:57:17.049232+05:30
Jhansi,Uttar Pradesh,25.4484,78.5685,33.7,28,0.0,972.7,8.45,46.4,74,34.2,20.0,6.6,171.0,60.0,3.0,0,5,7,0,2026-05-28T00:57:20.324031+05:30
Surat,Gujarat,21.1702,72.8311,29.8,77,0.0,1007.0,7.7,50.0,79,45.1,22.8,14.7,248.0,40.0,25.2,7,5,4,1,2026-05-28T00:57:20.324062+05:30
Vadodara,Gujarat,22.3072,73.1812,29.8,78,0.0,1003.7,8.05,45.4,76,37.0,23.7,21.9,206.0,28.0,24.7,7,5,4,1,2026-05-28T00:57:20.324073+05:30
Rajkot,Gujarat,22.3039,70.8022,28.6,76,0.0,994.0,7.7,48.2,69,39.0,20.7,5.0,122.0,45.0,5.2,7,5,7,1,2026-05-28T00:57:20.324083+05:30
Thane,Maharashtra,19.2183,72.9781,30.1,73,0.0,1008.6,7.8,37.8,41,27.1,11.9,5.7,184.0,47.0,3.9,3,0,4,1,2026-05-28T00:57:20.324092+05:30
Nagpur,Maharashtra,21.1458,79.0882,34.8,19,0.0,970.0,8.8,43.2,69,27.3,18.7,14.5,255.0,64.0,8.8,0,5,7,0,2026-05-28T00:57:20.324100+05:30
Nashik,Maharashtra,19.9975,73.7898,24.1,89,0.0,946.3,8.15,39.6,37,19.8,10.6,7.7,144.0,42.0,4.3,3,5,7,1,2026-05-28T00:57:20.324109+05:30
Aurangabad,Maharashtra,19.8762,75.3433,28.6,62,0.0,944.5,9.0,44.3,45,22.6,15.1,7.3,142.0,56.0,4.4,7,5,7,1,2026-05-28T00:57:20.324118+05:30
Solapur,Maharashtra,17.6599,75.9064,29.6,54,0.0,957.5,8.95,38.2,50,15.3,13.5,16.4,193.0,60.0,5.9,4,5,7,1,2026-05-28T00:57:20.324127+05:30
Kolhapur,Maharashtra,16.705,74.2433,25.0,88,0.0,949.3,8.8,43.6,33,8.1,6.3,5.7,169.0,44.0,2.3,7,5,7,1,2026-05-28T00:57:20.324135+05:30
Goa,Goa,15.2993,74.124,27.0,95,0.0,999.3,7.05,25.9,37,15.5,12.0,5.9,421.0,40.0,1.7,7,5,7,1,2026-05-28T00:57:20.324144+05:30
Jodhpur,Rajasthan,26.2389,73.0243,34.3,33,0.0,979.6,8.4,51.1,164,214.2,48.3,5.2,167.0,63.0,2.3,0,5,7,0,2026-05-28T00:57:20.324152+05:30
Udaipur,Rajasthan,24.5854,73.7125,31.9,36,0.0,945.3,8.8,50.8,65,52.7,20.7,3.9,146.0,73.0,2.6,0,5,7,0,2026-05-28T00:57:20.324161+05:30
Kota,Rajasthan,25.2138,75.8648,35.4,26,0.0,975.7,8.35,44.6,74,43.2,24.6,8.3,190.0,62.0,5.2,0,5,10,0,2026-05-28T00:57:20.324170+05:30
Bikaner,Rajasthan,28.0229,73.3119,36.6,20,0.0,977.1,8.45,43.9,136,182.1,56.9,2.2,134.0,85.0,4.1,0,5,10,0,2026-05-28T00:57:20.324179+05:30
Ajmer,Rajasthan,26.4499,74.6399,33.0,32,0.0,951.9,8.35,54.4,73,68.0,23.7,4.8,165.0,78.0,4.3,0,5,7,0,2026-05-28T00:57:20.324187+05:30
Gwalior,Madhya Pradesh,26.2183,78.1828,35.7,22,0.0,977.7,8.25,49.3,91,48.2,28.6,16.8,239.0,47.0,6.5,0,5,10,0,2026-05-28T00:57:20.324195+05:30
Indore,Madhya Pradesh,22.7196,75.8577,32.0,38,0.0,947.0,8.65,46.1,67,51.8,27.6,5.8,248.0,94.0,7.7,0,5,7,0,2026-05-28T00:57:20.324203+05:30
Bhopal,Madhya Pradesh,23.2599,77.4126,33.5,27,0.0,951.4,8.7,38.5,67,34.6,21.9,6.5,180.0,72.0,4.8,0,5,7,0,2026-05-28T00:57:20.324211+05:30
Jabalpur,Madhya Pradesh,23.1815,79.9864,33.2,23,0.0,957.8,8.85,36.4,75,47.1,26.5,16.7,241.0,59.0,5.1,0,5,7,0,2026-05-28T00:57:20.324219+05:30
Ujjain,Madhya Pradesh,23.1765,75.7885,32.5,31,0.0,952.3,8.6,47.9,69,57.3,28.9,4.2,225.0,96.0,7.7,0,5,7,0,2026-05-28T00:57:20.324228+05:30
Visakhapatnam,Andhra Pradesh,17.6868,83.2185,31.7,74,0.0,1000.4,9.0,45.0,138,52.0,41.6,30.5,599.0,74.0,31.7,3,5,4,1,2026-05-28T00:57:20.324236+05:30
Vijayawada,Andhra Pradesh,16.5062,80.648,31.5,57,0.0,1000.4,8.65,32.8,85,45.3,39.8,19.2,421.0,70.0,8.4,0,5,4,1,2026-05-28T00:57:20.324244+05:30
Guntur,Andhra Pradesh,16.3067,80.4365,30.7,60,0.0,1001.8,8.3,30.2,76,42.3,35.7,19.2,320.0,70.0,8.6,0,5,4,1,2026-05-28T00:57:20.324253+05:30
Nellore,Andhra Pradesh,14.4426,79.9865,28.5,63,0.0,1005.3,9.0,36.7,91,33.3,31.0,10.8,288.0,116.0,10.7,7,5,4,1,2026-05-28T00:57:20.324262+05:30
Kurnool,Andhra Pradesh,15.8281,78.0373,27.5,65,0.0,976.9,9.0,60.1,60,17.0,15.3,14.4,231.0,62.0,7.9,7,5,7,1,2026-05-28T00:57:20.324270+05:30
Kakinada,Andhra Pradesh,16.9891,82.2475,31.3,69,0.0,1004.6,9.0,40.0,107,33.6,26.6,6.8,383.0,117.0,4.8,3,5,4,1,2026-05-28T00:57:20.324279+05:30
Tirupati,Andhra Pradesh,13.6288,79.4192,26.6,77,0.0,991.3,9.05,41.8,75,48.5,41.7,37.3,460.0,43.0,9.5,7,5,7,1,2026-05-28T00:57:20.324287+05:30
Warangal,Telangana,17.9689,79.5941,30.5,57,0.0,976.4,9.05,32.4,86,41.0,35.4,21.0,438.0,56.0,6.9,0,5,7,1,2026-05-28T00:57:20.324295+05:30
Nizamabad,Telangana,18.6725,78.0941,30.5,54,0.0,963.3,9.0,34.6,64,41.4,31.9,24.6,359.0,45.0,5.8,0,5,7,1,2026-05-28T00:57:20.324303+05:30
Mysore,Karnataka,12.2958,76.6396,22.6,91,0.0,929.7,9.1,41.8,52,7.5,7.1,8.4,198.0,58.0,2.5,3,5,7,1,2026-05-28T00:57:20.324312+05:30
Mangalore,Karnataka,12.9141,74.856,25.8,96,0.0,1008.6,8.65,32.8,52,15.0,12.8,13.4,309.0,37.0,3.8,7,0,4,1,2026-05-28T00:57:20.324320+05:30
Hubli-Dharwad,Karnataka,15.3647,75.124,24.4,93,0.0,942.2,9.0,45.4,31,6.0,5.0,6.9,154.0,39.0,1.5,3,5,7,1,2026-05-28T00:57:20.324328+05:30
Belgaum,Karnataka,15.8497,74.4977,23.1,98,0.0,926.8,9.0,36.4,30,8.3,6.7,7.1,148.0,37.0,1.6,3,5,7,1,2026-05-28T00:57:23.629351+05:30
Coimbatore,Tamil Nadu,11.0168,76.9558,25.5,82,0.0,963.1,8.4,46.1,36,6.1,5.4,5.3,171.0,62.0,2.5,7,5,7,1,2026-05-28T00:57:23.629382+05:30
Madurai,Tamil Nadu,9.9252,78.1198,28.4,71,0.0,993.7,7.9,51.5,89,37.0,33.8,37.3,167.0,22.0,6.6,7,5,7,1,2026-05-28T00:57:23.629393+05:30
Trichy,Tamil Nadu,10.7905,78.7047,29.2,67,0.0,999.9,7.95,44.3,55,20.8,18.7,16.4,226.0,55.0,4.8,7,5,7,1,2026-05-28T00:57:23.629402+05:30
Salem,Tamil Nadu,11.6643,78.146,28.6,65,0.0,978.0,8.0,36.0,69,12.4,11.1,14.8,300.0,47.0,6.4,7,5,7,1,2026-05-28T00:57:23.629410+05:30
Tirunelveli,Tamil Nadu,8.7139,77.7567,28.6,69,0.0,1004.2,7.8,41.8,26,9.9,8.3,8.5,190.0,38.0,2.0,7,5,4,1,2026-05-28T00:57:23.629418+05:30
Vellore,Tamil Nadu,12.9165,79.1325,26.0,87,0.0,984.5,8.85,34.2,87,43.5,36.9,25.4,309.0,61.0,14.3,7,5,7,1,2026-05-28T00:57:23.629427+05:30
Erode,Tamil Nadu,11.341,77.7172,27.2,76,0.0,989.5,8.05,39.2,51,7.6,7.1,11.3,200.0,48.0,3.8,7,5,7,1,2026-05-28T00:57:23.629435+05:30
Kochi,Kerala,9.9312,76.2673,25.9,99,0.0,1010.7,6.4,25.9,52,17.5,15.8,19.6,336.0,22.0,5.4,7,0,4,1,2026-05-28T00:57:23.629443+05:30
Thiruvananthapuram,Kerala,8.5241,76.9366,25.0,96,0.0,1010.2,6.55,33.1,26,13.0,7.6,4.3,324.0,50.0,1.8,7,0,4,1,2026-05-28T00:57:23.629450+05:30
Kozhikode,Kerala,11.2588,75.7804,25.2,100,0.0,1010.1,8.3,31.7,30,8.8,6.3,3.3,636.0,57.0,1.9,7,0,4,1,2026-05-28T00:57:23.629458+05:30
Thrissur,Kerala,10.5276,76.2144,24.6,100,0.0,1009.1,7.45,28.8,48,16.2,14.8,16.4,262.0,28.0,5.4,3,0,4,1,2026-05-28T00:57:23.629467+05:30
Kannur,Kerala,11.8745,75.3704,26.1,94,0.1,1009.2,8.65,32.0,45,10.4,8.7,8.9,253.0,42.0,2.8,10,0,4,1,2026-05-28T00:57:23.629475+05:30
Patna,Bihar,25.5941,85.1376,27.5,68,0.0,998.3,8.75,45.0,105,37.1,33.3,11.4,340.0,105.0,18.3,7,5,7,1,2026-05-28T00:57:23.629482+05:30
Gaya,Bihar,24.7914,85.0002,29.2,62,0.0,991.0,8.8,37.4,137,40.3,37.3,9.1,390.0,111.0,15.8,7,5,7,1,2026-05-28T00:57:23.629490+05:30
Muzaffarpur,Bihar,26.1209,85.3647,26.2,76,0.0,999.0,8.7,38.5,90,31.5,27.9,11.5,371.0,97.0,12.3,7,5,7,1,2026-05-28T00:57:23.629497+05:30
Bhagalpur,Bihar,25.2425,87.0117,26.1,81,0.0,1000.2,8.65,46.4,99,31.4,28.7,13.8,344.0,85.0,11.8,7,5,4,1,2026-05-28T00:57:23.629504+05:30
Ranchi,Jharkhand,23.3441,85.3096,24.4,66,0.0,934.7,9.05,45.0,126,67.5,57.7,11.4,333.0,128.0,33.9,3,5,7,1,2026-05-28T00:57:23.629512+05:30
Jamshedpur,Jharkhand,22.8046,86.2029,27.2,78,0.0,988.4,9.05,58.3,153,45.9,40.9,9.6,259.0,99.0,11.6,7,5,7,1,2026-05-28T00:57:23.629520+05:30
Dhanbad,Jharkhand,23.7957,86.4304,25.1,82,0.0,977.9,9.0,42.1,160,88.9,77.3,38.1,814.0,74.0,80.5,7,5,7,1,2026-05-28T00:57:23.629528+05:30
Bokaro,Jharkhand,23.6693,86.1511,26.0,80,0.0,981.6,9.0,45.4,161,96.9,85.9,40.8,793.0,80.0,94.8,7,5,7,1,2026-05-28T00:57:23.629535+05:30
Bhubaneswar,Odisha,20.2961,85.8245,27.8,90,0.0,1000.1,9.05,39.2,102,41.6,33.4,9.3,329.0,90.0,5.7,7,5,4,1,2026-05-28T00:57:23.629543+05:30
Cuttack,Odisha,20.4625,85.8828,27.4,90,0.0,1001.9,9.1,35.6,102,41.6,33.4,9.3,355.0,90.0,5.7,7,5,4,1,2026-05-28T00:57:23.629551+05:30
Rourkela,Odisha,22.2604,84.8536,27.6,76,0.0,982.3,8.9,24.5,150,81.5,58.7,30.5,593.0,59.0,26.4,7,5,7,1,2026-05-28T00:57:23.629558+05:30
Raipur,Chhattisgarh,21.2514,81.6296,34.2,28,0.0,970.4,8.95,34.6,100,47.7,36.0,34.0,547.0,56.0,50.6,0,5,7,0,2026-05-28T00:57:23.629566+05:30
Bhilai,Chhattisgarh,21.1938,81.3509,32.5,33,0.0,971.0,8.95,34.9,92,40.2,30.3,25.2,629.0,66.0,37.2,0,5,7,0,2026-05-28T00:57:23.629574+05:30
Guwahati,Assam,26.1158,91.7086,22.5,96,0.0,1001.8,8.75,19.4,74,65.0,62.6,28.1,548.0,20.0,0.7,3,5,4,1,2026-05-28T00:57:23.629582+05:30
Agartala,Tripura,23.8315,91.2868,23.1,96,0.0,1005.8,8.85,28.8,79,28.6,25.2,14.5,324.0,43.0,2.5,3,5,4,1,2026-05-28T00:57:23.629589+05:30
Shillong,Meghalaya,25.5788,91.8933,15.8,92,0.0,855.5,8.15,19.4,51,11.9,8.7,6.9,335.0,70.0,2.9,3,10,7,0,2026-05-28T00:57:23.629596+05:30
Imphal,Manipur,24.817,93.9368,21.4,98,0.0,922.9,9.25,28.1,88,69.4,56.6,42.3,816.0,23.0,8.1,3,5,7,1,2026-05-28T00:57:23.629604+05:30
Aizawl,Mizoram,23.7271,92.7176,17.1,94,0.0,891.3,9.05,24.1,63,16.9,12.0,8.7,320.0,29.0,0.9,3,10,7,1,2026-05-28T00:57:23.629611+05:30
Kohima,Nagaland,25.6701,94.1077,17.4,93,0.0,854.5,9.2,24.1,69,33.6,23.2,16.9,352.0,26.0,1.3,3,10,7,1,2026-05-28T00:57:23.629619+05:30
Gangtok,Sikkim,27.3314,88.6138,14.5,89,0.0,837.1,8.3,39.2,62,20.8,15.7,9.5,757.0,109.0,3.1,3,10,7,0,2026-05-28T00:57:23.629626+05:30
Siliguri,West Bengal,26.7271,88.3953,23.0,84,0.0,993.1,6.85,25.9,72,45.9,34.8,19.1,367.0,89.0,7.6,3,5,7,1,2026-05-28T00:57:26.923026+05:30
Durgapur,West Bengal,23.5204,87.3119,25.5,93,0.0,993.2,8.95,39.2,154,77.5,65.4,23.1,534.0,89.0,30.3,7,5,7,1,2026-05-28T00:57:26.923062+05:30
Asansol,West Bengal,23.6739,86.9524,25.0,93,0.0,991.8,8.95,34.6,155,79.4,68.0,26.9,594.0,81.0,41.8,7,5,7,1,2026-05-28T00:57:26.923077+05:30
Pondicherry,Puducherry,11.9139,79.8145,29.0,79,0.0,1008.1,7.45,51.8,75,12.0,9.1,11.0,227.0,47.0,7.3,7,0,4,1,2026-05-28T00:57:26.923089+05:30
Port Blair,Andaman and Nicobar Islands,11.6234,92.7265,24.9,96,0.1,1007.5,8.6,29.5,32,7.6,3.9,0.3,117.0,74.0,0.3,6,5,4,1,2026-05-28T00:57:26.923101+05:30
Haridwar,Uttarakhand,29.9457,78.1642,27.6,47,0.0,968.7,7.6,41.0,162,87.8,45.2,21.1,384.0,122.0,15.6,4,5,7,0,2026-05-28T00:57:26.923112+05:30
Rishikesh,Uttarakhand,30.0869,78.2676,23.1,62,0.0,961.1,7.7,34.2,173,57.9,38.3,16.4,497.0,134.0,9.9,3,5,7,0,2026-05-28T00:57:26.923123+05:30
Nainital,Uttarakhand,29.3919,79.4542,15.6,71,0.0,803.4,8.5,33.1,140,39.8,32.8,22.6,360.0,96.0,7.7,3,5,7,0,2026-05-28T00:57:26.923133+05:30
Mussoorie,Uttarakhand,30.4599,78.0664,18.4,38,0.0,800.9,8.1,48.2,133,50.6,36.6,38.8,220.0,75.0,12.3,0,5,7,0,2026-05-28T00:57:26.923143+05:30
Dharamshala,Himachal Pradesh,32.219,76.3234,24.3,29,0.0,866.7,8.3,39.2,51,24.3,15.0,15.6,185.0,49.0,0.8,0,5,7,0,2026-05-28T00:57:26.923154+05:30
Dalhousie,Himachal Pradesh,32.5387,75.971,13.7,52,0.0,800.2,8.6,42.8,66,31.9,23.3,45.9,348.0,13.0,1.9,0,5,7,0,2026-05-28T00:57:26.923165+05:30
Patiala,Punjab,30.3398,76.3869,32.5,25,0.0,972.1,7.65,55.1,472,339.0,73.8,20.5,362.0,68.0,9.7,0,5,7,0,2026-05-28T00:57:26.923176+05:30
Bhatinda,Punjab,30.211,74.9455,33.4,25,0.0,977.7,8.35,57.2,82,49.8,33.1,23.2,594.0,71.0,6.8,0,5,7,0,2026-05-28T00:57:26.923187+05:30
Rohtak,Haryana,28.8955,76.6066,31.0,33,0.0,975.2,7.8,57.2,774,774.9,158.8,74.4,1074.0,17.0,15.3,0,5,7,0,2026-05-28T00:57:26.923197+05:30
Panipat,Haryana,29.3909,76.9635,32.4,24,0.0,974.0,7.65,51.8,1363,1184.6,216.5,43.6,450.0,51.0,11.0,0,5,7,0,2026-05-28T00:57:26.923207+05:30
Mathura,Uttar Pradesh,27.4924,77.6737,32.5,35,0.0,981.0,8.05,67.7,639,523.4,119.7,58.7,687.0,27.0,11.1,0,5,7,0,2026-05-28T00:57:26.923218+05:30
Vrindavan,Uttar Pradesh,27.5823,77.7027,31.8,39,0.0,981.3,8.0,65.5,639,523.4,119.7,58.7,671.0,27.0,11.1,0,5,7,0,2026-05-28T00:57:26.923228+05:30
Ayodhya,Uttar Pradesh,26.7922,82.1998,29.1,62,0.0,992.5,8.35,40.7,140,47.0,38.2,7.7,386.0,136.0,13.0,7,5,7,1,2026-05-28T00:57:26.923238+05:30
Ratlam,Madhya Pradesh,23.3315,75.0367,31.2,44,0.0,953.9,8.5,49.3,70,57.9,29.0,4.6,211.0,90.0,9.0,0,5,7,1,2026-05-28T00:57:26.923248+05:30
Sagar,Madhya Pradesh,23.8388,78.7378,33.2,23,0.0,947.1,8.7,40.0,70,46.1,23.6,7.6,182.0,75.0,4.2,0,5,7,0,2026-05-28T00:57:26.923259+05:30
Satna,Madhya Pradesh,24.6005,80.8322,31.5,50,0.0,967.2,8.75,51.1,79,109.7,37.3,16.8,232.0,71.0,5.3,0,5,7,1,2026-05-28T00:57:26.923270+05:30
Akola,Maharashtra,20.7002,77.0082,33.2,38,0.0,973.5,8.8,42.5,57,36.0,22.5,9.3,181.0,82.0,9.6,0,5,7,1,2026-05-28T00:57:26.923281+05:30
Amravati,Maharashtra,20.9374,77.7796,32.8,28,0.0,965.4,8.85,39.2,58,31.5,20.0,10.8,196.0,71.0,7.1,0,5,7,0,2026-05-28T00:57:26.923292+05:30
Latur,Maharashtra,18.4088,76.5604,28.9,49,0.0,939.5,8.95,31.3,60,26.0,22.4,23.6,291.0,52.0,5.5,4,5,7,1,2026-05-28T00:57:26.923301+05:30
Nanded,Maharashtra,19.1383,77.3091,31.5,43,0.0,967.3,8.9,34.2,55,27.8,23.2,20.6,257.0,52.0,7.4,0,5,7,1,2026-05-28T00:57:26.923309+05:30
Gulbarga,Karnataka,17.3297,76.8343,27.6,65,0.0,958.3,8.95,38.2,52,20.9,18.0,24.4,224.0,45.0,4.2,7,5,7,1,2026-05-28T00:57:26.923318+05:30
Bidar,Karnataka,17.9104,77.5199,27.6,60,0.0,935.0,8.15,33.1,66,33.1,26.7,26.1,384.0,58.0,6.5,4,5,7,1,2026-05-28T00:57:26.923325+05:30
Hospet,Karnataka,15.2689,76.3909,25.3,91,0.0,956.8,8.9,40.7,39,6.9,6.3,7.0,158.0,51.0,1.6,7,5,7,1,2026-05-28T00:57:26.923334+05:30
Tirupur,Tamil Nadu,11.1085,77.3411,26.0,81,0.0,976.0,8.1,48.6,52,8.9,8.4,11.9,149.0,49.0,4.3,7,5,7,1,2026-05-28T00:57:26.923342+05:30
Alappuzha,Kerala,9.4981,76.3388,25.9,98,0.0,1010.8,7.7,32.8,38,15.5,12.6,13.1,140.0,39.0,3.5,7,0,4,1,2026-05-28T00:57:26.923350+05:30
Munnar,Kerala,10.0889,77.0595,17.4,98,0.0,858.1,7.5,25.2,35,6.7,6.2,8.7,139.0,37.0,1.7,3,10,7,1,2026-05-28T00:57:26.923359+05:30
Silchar,Assam,24.8333,92.7789,23.5,97,0.0,1004.9,8.9,23.8,90,47.3,35.5,10.8,567.0,68.0,5.5,3,5,4,1,2026-05-28T00:57:26.923368+05:30
Dibrugarh,Assam,27.4728,94.912,26.1,87,0.0,994.4,8.6,38.2,90,61.0,51.2,33.4,577.0,0.0,2.2,7,5,7,1,2026-05-28T00:57:26.923376+05:30
