city,state,latitude,longitude,temp,humidity,rain,pressure,uv_index,wind_gusts,aqi,pm10,pm2_5,mosquito_risk,arthritis_risk,migraine_risk,frizz_risk,updated_at
Delhi,Delhi,28.6139,77.209,21.1,61,0.0,987.4,5.8,36.7,341,568.1,107.3,3,5,3,0,2026-03-03T22:24:07.704777+05:30
Mumbai,Maharashtra,19.076,72.8777,28.2,65,0.0,1011.1,7.35,25.9,158,45.6,43.7,7,0,4,1,2026-03-03T22:24:07.704827+05:30
Bangalore,Karnataka,12.9716,77.5946,23.7,47,0.0,914.6,9.1,36.0,103,32.5,31.9,0,5,7,0,2026-03-03T22:24:07.704841+05:30
Hyderabad,Telangana,17.385,78.4867,25.3,56,0.0,956.8,8.35,23.4,128,43.1,42.3,4,5,7,0,2026-03-03T22:24:07.704851+05:30
Chennai,Tamil Nadu,13.0827,80.2707,25.5,82,0.0,1011.9,8.8,30.2,109,33.1,29.4,7,0,4,1,2026-03-03T22:24:07.704859+05:30
Kolkata,West Bengal,22.5726,88.3639,24.0,58,0.0,1009.8,7.7,16.2,168,118.0,88.2,0,0,4,0,2026-03-03T22:24:07.704866+05:30
Pune,Maharashtra,18.5204,73.8567,27.3,56,0.0,951.7,7.9,32.8,122,30.5,30.0,4,5,7,1,2026-03-03T22:24:07.704876+05:30
Ahmedabad,Gujarat,23.0225,72.5714,26.7,46,0.0,1006.3,7.15,15.5,95,47.3,38.4,4,5,4,0,2026-03-03T22:24:07.704883+05:30
Jaipur,Rajasthan,26.9124,75.7873,25.9,23,0.0,964.8,6.55,29.9,103,80.8,42.4,4,5,7,0,2026-03-03T22:24:07.704890+05:30
Lucknow,Uttar Pradesh,26.8467,80.9462,22.9,56,0.0,998.3,6.3,35.6,153,276.6,67.1,0,5,7,0,2026-03-03T22:24:07.704897+05:30
Kanpur,Uttar Pradesh,26.4499,80.3319,20.1,71,0.0,996.6,6.3,28.4,185,324.1,67.3,3,5,7,0,2026-03-03T22:24:07.704903+05:30
Chandigarh,Chandigarh,30.7333,76.7794,19.7,64,0.0,972.6,5.7,33.5,129,37.1,35.5,3,5,3,0,2026-03-03T22:24:07.704910+05:30
Srinagar,Jammu and Kashmir,34.0837,74.7973,7.8,71,0.0,841.5,6.6,16.2,138,95.5,84.8,3,5,7,0,2026-03-03T22:24:07.704916+05:30
Jammu,Jammu and Kashmir,32.7266,74.857,20.1,69,0.0,976.3,6.3,20.9,107,71.7,59.8,3,5,7,0,2026-03-03T22:24:07.704934+05:30
Amritsar,Punjab,31.634,74.8723,20.5,57,0.0,984.7,6.25,25.9,90,64.0,54.2,0,5,7,0,2026-03-03T22:24:07.704942+05:30
Ludhiana,Punjab,30.901,75.8573,21.4,61,0.0,983.0,5.9,29.9,139,86.8,66.1,3,5,3,0,2026-03-03T22:24:07.704947+05:30
Jalandhar,Punjab,31.326,75.5762,20.8,61,0.0,984.1,6.05,25.9,138,69.6,60.3,3,5,7,0,2026-03-03T22:24:07.704955+05:30
Dehradun,Uttarakhand,30.6284,78.0322,12.3,88,0.0,831.2,6.05,31.0,102,32.8,29.9,3,10,7,0,2026-03-03T22:24:07.704962+05:30
Shimla,Himachal Pradesh,31.1048,77.1734,11.5,63,0.0,785.5,6.1,44.6,104,35.5,29.2,3,5,7,0,2026-03-03T22:24:07.704967+05:30
Manali,Himachal Pradesh,32.2396,77.1887,16.8,21,0.0,822.5,7.7,34.6,89,19.4,15.9,0,5,7,1,2026-03-03T22:24:07.704973+05:30
Gurgaon,Haryana,28.4595,77.0266,18.2,70,0.0,985.8,5.9,33.8,1190,1136.2,154.1,3,5,3,0,2026-03-03T22:24:07.704979+05:30
Noida,Uttar Pradesh,28.5355,77.391,21.4,59,0.0,989.0,5.8,36.4,1190,1136.2,154.1,0,5,3,0,2026-03-03T22:24:07.704985+05:30
Ghaziabad,Uttar Pradesh,28.6692,77.4538,21.4,62,0.0,987.1,5.75,36.0,254,551.3,108.0,3,5,3,0,2026-03-03T22:24:07.704990+05:30
Faridabad,Haryana,28.4089,77.3178,21.8,50,0.0,988.3,5.85,32.8,1190,1136.2,154.1,0,5,3,0,2026-03-03T22:24:07.704995+05:30
Meerut,Uttar Pradesh,28.9845,77.7064,19.3,71,0.0,985.6,5.65,41.4,254,551.3,108.0,3,5,3,0,2026-03-03T22:24:07.705001+05:30
Agra,Uttar Pradesh,27.1767,78.0081,20.3,55,0.0,992.5,6.15,30.6,465,488.0,78.0,0,5,7,0,2026-03-03T22:24:07.705007+05:30
Varanasi,Uttar Pradesh,25.3176,82.9739,22.0,57,0.0,1002.5,6.95,23.0,116,101.5,76.6,0,5,4,0,2026-03-03T22:24:07.705015+05:30
Prayagraj,Uttar Pradesh,25.4358,81.8463,22.6,58,0.0,1001.1,6.8,23.0,127,99.9,64.7,0,5,4,0,2026-03-03T22:24:07.705020+05:30
Gorakhpur,Uttar Pradesh,26.7606,83.3732,22.2,59,0.0,1001.9,6.65,16.9,150,134.1,102.0,0,5,4,0,2026-03-03T22:24:07.705026+05:30
Bareilly,Uttar Pradesh,28.367,79.4304,19.3,80,0.0,991.3,6.0,28.8,147,429.3,105.0,3,5,3,0,2026-03-03T22:24:07.705031+05:30
Aligarh,Uttar Pradesh,27.8974,78.088,19.3,62,0.0,990.0,5.9,34.9,682,795.3,131.8,3,5,3,0,2026-03-03T22:24:07.705037+05:30
Moradabad,Uttar Pradesh,28.8386,78.7733,20.1,67,0.0,988.0,5.8,28.8,146,284.1,81.0,3,5,3,0,2026-03-03T22:24:07.705042+05:30
Saharanpur,Uttar Pradesh,29.9637,77.546,18.6,72,0.0,979.6,5.45,43.2,137,149.0,58.0,3,5,3,0,2026-03-03T22:24:07.705048+05:30
Jhansi,Uttar Pradesh,25.4484,78.5685,23.8,50,0.0,982.9,6.7,26.6,79,43.8,29.9,0,5,7,0,2026-03-03T22:24:10.957631+05:30
Surat,Gujarat,21.1702,72.8311,26.5,53,0.0,1010.1,7.05,27.0,159,72.4,70.1,4,0,4,1,2026-03-03T22:24:10.957660+05:30
Vadodara,Gujarat,22.3072,73.1812,27.0,49,0.0,1008.3,7.15,13.3,152,62.9,59.5,4,0,4,0,2026-03-03T22:24:10.957670+05:30
Rajkot,Gujarat,22.3039,70.8022,27.2,28,0.0,998.7,7.0,17.6,83,25.5,21.8,4,5,7,0,2026-03-03T22:24:10.957678+05:30
Thane,Maharashtra,19.2183,72.9781,28.0,48,0.0,1010.6,7.35,36.7,158,45.6,43.7,4,0,4,0,2026-03-03T22:24:10.957686+05:30
Nagpur,Maharashtra,21.1458,79.0882,25.6,52,0.0,977.5,7.7,17.6,84,33.3,27.9,4,5,7,0,2026-03-03T22:24:10.957694+05:30
Nashik,Maharashtra,19.9975,73.7898,26.1,40,0.0,949.4,7.55,28.8,126,36.1,35.4,4,5,7,0,2026-03-03T22:24:10.957701+05:30
Aurangabad,Maharashtra,19.8762,75.3433,26.3,42,0.0,947.7,8.05,25.2,117,31.0,30.0,4,5,7,0,2026-03-03T22:24:10.957708+05:30
Solapur,Maharashtra,17.6599,75.9064,26.7,57,0.0,960.1,8.25,18.0,138,29.3,28.8,4,5,7,1,2026-03-03T22:24:10.957716+05:30
Kolhapur,Maharashtra,16.705,74.2433,24.4,75,0.0,951.0,8.4,39.2,144,90.1,89.6,3,5,7,1,2026-03-03T22:24:10.957723+05:30
Goa,Goa,15.2993,74.124,27.4,82,0.0,1001.2,8.45,34.2,77,36.2,30.2,7,5,4,1,2026-03-03T22:24:10.957730+05:30
Jodhpur,Rajasthan,26.2389,73.0243,27.5,40,0.0,987.8,6.85,15.8,71,65.9,30.9,4,5,7,0,2026-03-03T22:24:10.957737+05:30
Udaipur,Rajasthan,24.5854,73.7125,21.7,49,0.0,951.4,7.45,18.4,86,39.0,23.2,0,5,7,0,2026-03-03T22:24:10.957744+05:30
Kota,Rajasthan,25.2138,75.8648,26.2,44,0.0,983.7,6.85,19.4,87,57.3,40.4,4,5,7,0,2026-03-03T22:24:10.957751+05:30
Bikaner,Rajasthan,28.0229,73.3119,25.6,38,0.0,986.7,6.55,21.6,71,41.0,20.1,4,5,7,0,2026-03-03T22:24:10.957758+05:30
Ajmer,Rajasthan,26.4499,74.6399,25.3,25,0.0,959.5,6.8,25.9,74,51.9,32.7,4,5,7,0,2026-03-03T22:24:10.957765+05:30
Gwalior,Madhya Pradesh,26.2183,78.1828,22.2,65,0.0,988.1,6.45,29.5,124,78.5,40.5,3,5,7,0,2026-03-03T22:24:10.957772+05:30
Indore,Madhya Pradesh,22.7196,75.8577,23.5,54,0.0,952.2,7.4,16.9,90,36.4,33.3,0,5,7,0,2026-03-03T22:24:10.957778+05:30
Bhopal,Madhya Pradesh,23.2599,77.4126,23.7,51,0.0,958.2,7.3,22.3,83,41.2,30.9,0,5,7,0,2026-03-03T22:24:10.957785+05:30
Jabalpur,Madhya Pradesh,23.1815,79.9864,24.4,45,0.0,965.9,7.4,17.6,74,43.5,29.8,0,5,7,0,2026-03-03T22:24:10.957792+05:30
Ujjain,Madhya Pradesh,23.1765,75.7885,24.3,51,0.0,958.0,7.3,15.5,107,50.2,46.7,0,5,7,0,2026-03-03T22:24:10.957799+05:30
Visakhapatnam,Andhra Pradesh,17.6868,83.2185,25.4,88,0.0,1008.4,8.35,34.2,131,50.3,44.6,7,0,4,1,2026-03-03T22:24:10.957806+05:30
Vijayawada,Andhra Pradesh,16.5062,80.648,25.6,72,0.0,1006.8,8.4,26.6,141,36.1,33.4,7,5,4,1,2026-03-03T22:24:10.957813+05:30
Guntur,Andhra Pradesh,16.3067,80.4365,25.4,75,0.0,1008.1,8.4,25.9,131,38.9,36.7,7,0,4,1,2026-03-03T22:24:10.957821+05:30
Nellore,Andhra Pradesh,14.4426,79.9865,24.9,84,0.0,1010.2,8.6,29.2,108,29.8,27.0,3,0,4,1,2026-03-03T22:24:10.957829+05:30
Kurnool,Andhra Pradesh,15.8281,78.0373,29.5,41,0.0,980.2,8.45,29.2,113,31.7,31.1,4,5,7,0,2026-03-03T22:24:10.957836+05:30
Kakinada,Andhra Pradesh,16.9891,82.2475,24.5,87,0.0,1012.1,8.35,34.9,123,38.2,31.8,3,0,4,1,2026-03-03T22:24:10.957843+05:30
Tirupati,Andhra Pradesh,13.6288,79.4192,25.1,53,0.0,996.2,8.75,37.1,150,49.8,48.1,4,5,7,0,2026-03-03T22:24:10.957850+05:30
Warangal,Telangana,17.9689,79.5941,29.1,42,0.0,982.3,8.2,14.0,135,43.8,43.0,4,5,7,0,2026-03-03T22:24:10.957857+05:30
Nizamabad,Telangana,18.6725,78.0941,25.7,56,0.0,968.3,8.1,24.5,95,34.5,32.2,4,5,7,1,2026-03-03T22:24:10.957863+05:30
Mysore,Karnataka,12.2958,76.6396,25.5,43,0.0,930.9,9.15,32.8,124,32.9,32.5,4,5,7,0,2026-03-03T22:24:10.957870+05:30
Mangalore,Karnataka,12.9141,74.856,28.6,79,0.0,1009.9,8.7,29.2,65,28.2,21.4,7,0,4,1,2026-03-03T22:24:10.957877+05:30
Hubli-Dharwad,Karnataka,15.3647,75.124,25.1,76,0.0,943.6,8.6,25.6,153,34.5,34.1,7,5,7,1,2026-03-03T22:24:10.957884+05:30
Belgaum,Karnataka,15.8497,74.4977,23.5,82,0.0,928.6,8.65,32.0,160,54.6,53.7,3,5,7,1,2026-03-03T22:24:14.215540+05:30
Coimbatore,Tamil Nadu,11.0168,76.9558,24.4,62,0.0,965.0,9.15,43.6,123,41.0,40.3,3,5,7,1,2026-03-03T22:24:14.215568+05:30
Madurai,Tamil Nadu,9.9252,78.1198,25.2,66,0.0,996.8,9.1,33.8,106,31.3,30.7,7,5,7,1,2026-03-03T22:24:14.215578+05:30
Trichy,Tamil Nadu,10.7905,78.7047,25.3,80,0.0,1003.8,9.0,31.0,104,31.8,30.9,7,5,4,1,2026-03-03T22:24:14.215586+05:30
Salem,Tamil Nadu,11.6643,78.146,27.0,55,0.0,980.5,9.0,40.7,130,40.6,39.7,4,5,7,1,2026-03-03T22:24:14.215593+05:30
Tirunelveli,Tamil Nadu,8.7139,77.7567,25.2,73,0.0,1007.0,9.1,42.1,96,21.5,20.8,7,5,4,1,2026-03-03T22:24:14.215600+05:30
Vellore,Tamil Nadu,12.9165,79.1325,24.8,69,0.0,989.1,8.85,38.5,138,46.2,44.7,3,5,7,1,2026-03-03T22:24:14.215608+05:30
Erode,Tamil Nadu,11.341,77.7172,27.4,49,0.0,992.3,9.05,33.5,128,36.8,36.2,4,5,7,0,2026-03-03T22:24:14.215615+05:30
Kochi,Kerala,9.9312,76.2673,27.3,83,0.0,1012.0,8.95,33.1,103,28.3,27.1,7,0,4,1,2026-03-03T22:24:14.215622+05:30
Thiruvananthapuram,Kerala,8.5241,76.9366,28.4,69,0.0,1011.2,8.95,27.0,136,33.6,31.0,7,0,4,1,2026-03-03T22:24:14.215629+05:30
Kozhikode,Kerala,11.2588,75.7804,28.8,80,0.0,1010.6,8.85,36.4,65,27.9,19.9,7,0,4,1,2026-03-03T22:24:14.215637+05:30
Thrissur,Kerala,10.5276,76.2144,27.0,84,0.0,1010.2,8.9,38.9,103,33.5,30.4,7,0,4,1,2026-03-03T22:24:14.215644+05:30
Kannur,Kerala,11.8745,75.3704,28.0,78,0.0,1010.0,8.8,38.2,64,25.8,19.4,7,0,4,1,2026-03-03T22:24:14.215651+05:30
Patna,Bihar,25.5941,85.1376,23.9,52,0.0,1005.5,7.1,16.9,147,89.6,64.7,0,5,4,0,2026-03-03T22:24:14.215658+05:30
Gaya,Bihar,24.7914,85.0002,20.4,53,0.0,999.0,7.2,23.0,104,97.3,58.7,0,5,7,0,2026-03-03T22:24:14.215665+05:30
Muzaffarpur,Bihar,26.1209,85.3647,22.6,52,0.0,1005.5,7.05,10.4,155,109.2,76.1,0,5,4,0,2026-03-03T22:24:14.215671+05:30
Bhagalpur,Bihar,25.2425,87.0117,21.5,55,0.0,1006.4,7.15,13.0,134,119.0,82.4,0,5,4,0,2026-03-03T22:24:14.215678+05:30
Ranchi,Jharkhand,23.3441,85.3096,19.4,49,0.0,941.9,7.9,40.7,101,59.4,33.1,0,5,7,0,2026-03-03T22:24:14.215685+05:30
Jamshedpur,Jharkhand,22.8046,86.2029,23.3,48,0.0,995.0,7.75,14.4,100,67.3,41.8,0,5,7,0,2026-03-03T22:24:14.215692+05:30
Dhanbad,Jharkhand,23.7957,86.4304,23.9,29,0.0,984.6,7.65,27.7,107,59.6,40.4,0,5,7,0,2026-03-03T22:24:14.215699+05:30
Bokaro,Jharkhand,23.6693,86.1511,22.4,36,0.0,989.0,7.65,32.8,111,66.6,43.9,0,5,7,0,2026-03-03T22:24:14.215706+05:30
Bhubaneswar,Odisha,20.2961,85.8245,24.9,91,0.0,1007.1,8.1,25.2,150,48.8,42.5,3,5,4,1,2026-03-03T22:24:14.215713+05:30
Cuttack,Odisha,20.4625,85.8828,25.0,80,0.0,1009.2,8.1,26.3,150,48.8,42.5,7,0,4,1,2026-03-03T22:24:14.215721+05:30
Rourkela,Odisha,22.2604,84.8536,25.6,45,0.0,989.4,7.7,27.4,87,70.1,43.7,4,5,7,0,2026-03-03T22:24:14.215727+05:30
Raipur,Chhattisgarh,21.2514,81.6296,26.2,39,0.0,978.8,7.8,14.4,127,68.5,58.8,4,5,7,0,2026-03-03T22:24:14.215734+05:30
Bhilai,Chhattisgarh,21.1938,81.3509,26.1,41,0.0,979.2,7.8,13.7,124,61.5,54.1,4,5,7,0,2026-03-03T22:24:14.215741+05:30
Guwahati,Assam,26.1158,91.7086,24.0,64,0.0,1006.0,7.1,22.0,155,97.1,84.3,3,5,4,1,2026-03-03T22:24:14.215747+05:30
Agartala,Tripura,23.8315,91.2868,21.9,79,0.0,1010.3,7.45,15.8,174,103.8,93.4,3,0,4,1,2026-03-03T22:24:14.215753+05:30
Shillong,Meghalaya,25.5788,91.8933,10.6,85,0.0,857.5,7.45,28.4,154,99.7,85.2,3,10,7,0,2026-03-03T22:24:14.215760+05:30
Imphal,Manipur,24.817,93.9368,14.4,76,0.0,925.7,7.65,32.8,157,81.3,72.9,3,5,7,0,2026-03-03T22:24:14.215767+05:30
Aizawl,Mizoram,23.7271,92.7176,16.6,63,0.0,894.6,7.65,32.8,159,75.0,63.6,3,5,7,0,2026-03-03T22:24:14.215773+05:30
Kohima,Nagaland,25.6701,94.1077,12.7,78,0.0,856.4,6.65,45.0,152,85.7,71.0,3,5,7,0,2026-03-03T22:24:14.215780+05:30
Gangtok,Sikkim,27.3314,88.6138,11.5,91,0.0,839.2,7.4,19.4,154,107.8,81.3,3,10,7,0,2026-03-03T22:24:14.215786+05:30
Siliguri,West Bengal,26.7271,88.3953,19.6,67,0.0,999.1,7.1,20.2,164,117.6,82.0,3,5,7,0,2026-03-03T22:24:17.472515+05:30
Durgapur,West Bengal,23.5204,87.3119,24.8,49,0.0,999.9,7.65,26.6,89,54.1,30.9,0,5,7,0,2026-03-03T22:24:17.472544+05:30
Asansol,West Bengal,23.6739,86.9524,24.7,48,0.0,998.5,7.65,22.7,87,48.7,28.9,0,5,7,0,2026-03-03T22:24:17.472554+05:30
Pondicherry,Puducherry,11.9139,79.8145,23.5,89,0.0,1012.8,8.85,28.1,102,28.6,25.1,3,0,4,1,2026-03-03T22:24:17.472563+05:30
Port Blair,Andaman and Nicobar Islands,11.6234,92.7265,27.6,72,0.0,1010.2,8.8,15.5,83,33.1,24.5,7,0,4,1,2026-03-03T22:24:17.472571+05:30
Haridwar,Uttarakhand,29.9457,78.1642,22.0,49,0.0,978.3,5.55,22.3,135,119.2,62.2,0,5,3,0,2026-03-03T22:24:17.472578+05:30
Rishikesh,Uttarakhand,30.0869,78.2676,18.6,71,0.0,970.8,5.6,23.8,154,66.6,47.0,3,5,3,0,2026-03-03T22:24:17.472585+05:30
Nainital,Uttarakhand,29.3919,79.4542,15.7,59,0.0,808.0,6.4,54.7,153,71.5,59.5,0,5,7,0,2026-03-03T22:24:17.472593+05:30
Mussoorie,Uttarakhand,30.4599,78.0664,14.3,74,0.0,804.1,5.95,41.8,152,67.5,50.5,3,5,3,0,2026-03-03T22:24:17.472600+05:30
Dharamshala,Himachal Pradesh,32.219,76.3234,19.5,40,0.0,872.3,6.2,23.4,109,26.7,21.8,0,5,7,0,2026-03-03T22:24:17.472607+05:30
Dalhousie,Himachal Pradesh,32.5387,75.971,15.1,55,0.0,805.7,6.4,19.8,105,57.9,53.4,0,5,7,0,2026-03-03T22:24:17.472615+05:30
Patiala,Punjab,30.3398,76.3869,19.1,70,0.0,982.3,5.6,34.2,256,285.9,75.0,3,5,3,0,2026-03-03T22:24:17.472622+05:30
Bhatinda,Punjab,30.211,74.9455,21.1,68,0.0,987.9,6.25,28.1,136,81.7,61.0,3,5,7,0,2026-03-03T22:24:17.472629+05:30
Rohtak,Haryana,28.8955,76.6066,19.4,70,0.0,986.1,5.8,33.8,471,583.0,102.7,3,5,3,0,2026-03-03T22:24:17.472636+05:30
Panipat,Haryana,29.3909,76.9635,19.0,75,0.0,984.5,5.6,37.4,1068,1035.6,151.8,3,5,3,0,2026-03-03T22:24:17.472643+05:30
Mathura,Uttar Pradesh,27.4924,77.6737,24.6,39,0.0,991.6,6.1,29.9,506,502.9,81.3,0,5,7,0,2026-03-03T22:24:17.472650+05:30
Vrindavan,Uttar Pradesh,27.5823,77.7027,20.1,58,0.0,991.8,6.05,32.4,506,502.9,81.3,0,5,7,0,2026-03-03T22:24:17.472657+05:30
Ayodhya,Uttar Pradesh,26.7922,82.1998,21.4,69,0.0,1000.2,6.45,25.6,149,105.9,71.0,3,5,4,0,2026-03-03T22:24:17.472663+05:30
Ratlam,Madhya Pradesh,23.3315,75.0367,22.5,68,0.0,958.5,7.25,13.0,93,40.7,37.1,3,5,7,1,2026-03-03T22:24:17.472669+05:30
Sagar,Madhya Pradesh,23.8388,78.7378,24.9,46,0.0,954.6,7.2,25.6,87,40.3,26.0,0,5,7,0,2026-03-03T22:24:17.472674+05:30
Satna,Madhya Pradesh,24.6005,80.8322,23.4,47,0.0,976.1,7.2,30.2,77,40.4,23.5,0,5,7,0,2026-03-03T22:24:17.472680+05:30
Akola,Maharashtra,20.7002,77.0082,26.3,42,0.0,978.7,7.75,19.1,98,36.7,34.0,4,5,7,0,2026-03-03T22:24:17.472686+05:30
Amravati,Maharashtra,20.9374,77.7796,25.9,57,0.0,971.1,7.75,16.6,99,38.8,35.2,4,5,7,1,2026-03-03T22:24:17.472692+05:30
Latur,Maharashtra,18.4088,76.5604,25.4,55,0.0,943.1,8.2,31.0,130,28.6,27.2,4,5,7,0,2026-03-03T22:24:17.472698+05:30
Nanded,Maharashtra,19.1383,77.3091,27.8,49,0.0,972.0,8.0,19.4,90,31.7,29.7,4,5,7,1,2026-03-03T22:24:17.472703+05:30
Gulbarga,Karnataka,17.3297,76.8343,27.7,46,0.0,961.8,8.3,17.3,138,27.9,27.5,4,5,7,0,2026-03-03T22:24:17.472709+05:30
Bidar,Karnataka,17.9104,77.5199,25.3,45,0.0,938.7,8.25,19.8,105,34.8,33.4,4,5,7,0,2026-03-03T22:24:17.472714+05:30
Hospet,Karnataka,15.2689,76.3909,29.7,42,0.0,958.6,8.6,25.6,144,42.7,42.0,4,5,7,0,2026-03-03T22:24:17.472720+05:30
Tirupur,Tamil Nadu,11.1085,77.3411,27.5,41,0.0,978.5,9.15,33.8,130,42.7,41.9,4,5,7,0,2026-03-03T22:24:17.472725+05:30
Alappuzha,Kerala,9.4981,76.3388,27.2,81,0.0,1012.2,8.95,30.6,96,37.4,33.8,7,0,4,1,2026-03-03T22:24:17.472730+05:30
Munnar,Kerala,10.0889,77.0595,19.7,64,0.0,858.5,9.45,20.9,102,42.0,40.9,3,5,7,0,2026-03-03T22:24:17.472736+05:30
Silchar,Assam,24.8333,92.7789,22.4,73,0.0,1008.9,7.4,20.2,162,103.1,88.0,3,0,4,1,2026-03-03T22:24:17.472741+05:30
Dibrugarh,Assam,27.4728,94.912,22.7,81,0.0,999.7,7.1,11.2,144,77.1,62.4,3,5,7,1,2026-03-03T22:24:17.472747+05:30
