city,state,latitude,longitude,temp,humidity,rain,pressure,uv_index,wind_gusts,aqi,pm10,pm2_5,no2,co,o3,so2,mosquito_risk,arthritis_risk,migraine_risk,frizz_risk,updated_at
Delhi,Delhi,28.6139,77.209,35.8,28,0.0,982.4,7.55,34.2,175,279.4,58.8,5.0,418.0,234.0,23.8,0,5,10,0,2026-05-09T14:52:09.066492+05:30
Mumbai,Maharashtra,19.076,72.8777,35.5,44,0.0,1004.9,7.85,47.9,99,49.4,28.2,7.7,282.0,166.0,11.8,0,5,7,1,2026-05-09T14:52:09.066542+05:30
Bangalore,Karnataka,12.9716,77.5946,33.0,34,0.1,909.9,9.5,44.3,46,6.0,5.4,3.3,240.0,87.0,3.3,3,5,7,0,2026-05-09T14:52:09.066562+05:30
Hyderabad,Telangana,17.385,78.4867,36.0,23,0.0,952.0,9.1,33.8,50,17.9,11.8,2.0,258.0,153.0,4.0,0,5,10,0,2026-05-09T14:52:09.066572+05:30
Chennai,Tamil Nadu,13.0827,80.2707,30.2,69,0.0,1004.8,8.2,39.6,24,4.0,2.9,1.8,138.0,54.0,3.2,3,5,4,1,2026-05-09T14:52:09.066580+05:30
Kolkata,West Bengal,22.5726,88.3639,31.5,63,0.0,1004.8,8.9,22.0,162,49.7,39.9,4.1,498.0,236.0,16.0,3,5,4,1,2026-05-09T14:52:09.066588+05:30
Pune,Maharashtra,18.5204,73.8567,38.0,21,0.0,946.6,8.5,35.6,93,53.7,31.1,1.9,232.0,176.0,7.3,0,5,10,0,2026-05-09T14:52:09.066596+05:30
Ahmedabad,Gujarat,23.0225,72.5714,42.8,12,0.0,999.2,8.1,33.8,68,31.4,11.4,1.5,180.0,136.0,3.0,0,5,10,0,2026-05-09T14:52:09.066604+05:30
Jaipur,Rajasthan,26.9124,75.7873,37.8,21,0.0,958.6,8.15,28.8,176,169.5,36.3,1.3,246.0,175.0,6.8,0,5,10,0,2026-05-09T14:52:09.066611+05:30
Lucknow,Uttar Pradesh,26.8467,80.9462,32.8,40,0.0,992.5,7.95,36.4,140,68.7,34.7,1.8,297.0,184.0,9.3,0,5,7,1,2026-05-09T14:52:09.066619+05:30
Kanpur,Uttar Pradesh,26.4499,80.3319,34.8,32,0.0,990.7,8.05,38.5,172,203.5,44.7,1.7,299.0,189.0,9.8,0,5,7,0,2026-05-09T14:52:09.066625+05:30
Chandigarh,Chandigarh,30.7333,76.7794,35.0,28,0.0,969.0,7.6,31.7,153,172.8,43.1,1.9,289.0,200.0,11.4,0,5,7,0,2026-05-09T14:52:09.066633+05:30
Srinagar,Jammu and Kashmir,34.0837,74.7973,27.1,32,0.0,844.5,8.9,18.0,95,39.2,9.8,1.3,243.0,157.0,1.3,4,5,7,0,2026-05-09T14:52:09.066641+05:30
Jammu,Jammu and Kashmir,32.7266,74.857,35.0,30,0.0,972.9,8.4,29.9,153,168.1,48.1,1.5,307.0,192.0,9.0,0,5,7,0,2026-05-09T14:52:09.066647+05:30
Amritsar,Punjab,31.634,74.8723,37.1,26,0.0,980.5,8.3,24.8,146,370.7,78.5,1.8,303.0,212.0,14.6,0,5,10,0,2026-05-09T14:52:09.066653+05:30
Ludhiana,Punjab,30.901,75.8573,36.3,27,0.0,978.7,7.9,32.4,136,410.7,68.9,1.4,297.0,192.0,8.2,0,5,10,0,2026-05-09T14:52:09.066660+05:30
Jalandhar,Punjab,31.326,75.5762,35.5,30,0.0,979.7,8.05,25.9,142,380.0,69.4,1.2,320.0,193.0,10.1,0,5,10,0,2026-05-09T14:52:09.066665+05:30
Dehradun,Uttarakhand,30.6284,78.0322,20.4,58,0.0,833.0,8.0,28.1,99,34.2,14.9,1.1,219.0,164.0,2.6,0,5,7,0,2026-05-09T14:52:09.066674+05:30
Shimla,Himachal Pradesh,31.1048,77.1734,19.1,48,0.0,787.8,8.05,34.2,136,85.0,31.3,1.2,232.0,195.0,15.4,0,5,7,0,2026-05-09T14:52:09.066680+05:30
Manali,Himachal Pradesh,32.2396,77.1887,20.4,58,0.0,819.9,10.15,39.2,108,34.5,6.7,0.8,162.0,164.0,0.1,0,5,7,0,2026-05-09T14:52:09.066686+05:30
Gurgaon,Haryana,28.4595,77.0266,35.6,27,0.0,980.7,7.65,27.4,994,607.2,83.8,4.2,383.0,214.0,18.1,0,5,10,0,2026-05-09T14:52:09.066692+05:30
Noida,Uttar Pradesh,28.5355,77.391,35.1,32,0.0,983.9,7.6,29.5,994,607.2,83.8,4.2,345.0,214.0,18.1,0,5,10,0,2026-05-09T14:52:09.066698+05:30
Ghaziabad,Uttar Pradesh,28.6692,77.4538,33.9,34,0.0,982.6,7.55,27.4,122,176.5,38.8,2.4,291.0,192.0,8.0,0,5,7,0,2026-05-09T14:52:09.066705+05:30
Faridabad,Haryana,28.4089,77.3178,34.5,31,0.0,983.2,7.6,37.1,994,607.2,83.8,4.2,319.0,214.0,18.1,0,5,7,0,2026-05-09T14:52:09.066711+05:30
Meerut,Uttar Pradesh,28.9845,77.7064,32.5,42,0.0,981.8,7.45,27.7,122,176.5,38.8,2.4,291.0,192.0,8.0,0,5,7,1,2026-05-09T14:52:09.066717+05:30
Agra,Uttar Pradesh,27.1767,78.0081,34.0,32,0.0,986.5,7.9,28.8,785,489.9,63.1,1.5,288.0,180.0,8.1,0,5,7,0,2026-05-09T14:52:09.066723+05:30
Varanasi,Uttar Pradesh,25.3176,82.9739,30.2,52,0.0,997.9,8.35,36.4,158,74.5,38.6,2.3,353.0,197.0,14.1,0,5,7,1,2026-05-09T14:52:09.066729+05:30
Prayagraj,Uttar Pradesh,25.4358,81.8463,29.2,51,0.0,996.0,8.3,46.4,159,67.5,40.9,3.0,410.0,198.0,12.5,4,5,7,1,2026-05-09T14:52:09.066737+05:30
Gorakhpur,Uttar Pradesh,26.7606,83.3732,30.7,47,0.0,997.2,8.4,37.4,147,62.4,37.6,1.7,356.0,189.0,7.9,0,5,7,1,2026-05-09T14:52:09.066743+05:30
Bareilly,Uttar Pradesh,28.367,79.4304,32.3,41,0.0,986.7,7.55,33.5,124,90.8,25.3,1.6,270.0,184.0,6.9,0,5,7,1,2026-05-09T14:52:09.066749+05:30
Aligarh,Uttar Pradesh,27.8974,78.088,33.5,36,0.0,985.0,7.7,29.2,428,288.7,45.9,1.8,294.0,186.0,11.1,0,5,7,1,2026-05-09T14:52:09.066755+05:30
Moradabad,Uttar Pradesh,28.8386,78.7733,32.0,42,0.0,983.9,7.65,32.8,129,58.8,24.2,2.1,276.0,192.0,13.2,0,5,7,1,2026-05-09T14:52:09.066761+05:30
Saharanpur,Uttar Pradesh,29.9637,77.546,32.4,39,0.0,976.5,7.3,31.0,132,98.3,31.3,2.0,287.0,188.0,7.4,0,5,7,1,2026-05-09T14:52:09.066766+05:30
Jhansi,Uttar Pradesh,25.4484,78.5685,36.8,28,0.0,975.6,8.3,52.2,134,92.4,28.4,1.3,257.0,182.0,15.3,0,5,10,0,2026-05-09T14:52:12.331172+05:30
Surat,Gujarat,21.1702,72.8311,41.5,16,0.0,1003.6,7.7,34.9,99,60.5,39.3,37.9,172.0,114.0,93.4,0,5,7,0,2026-05-09T14:52:12.331207+05:30
Vadodara,Gujarat,22.3072,73.1812,43.0,12,0.0,1001.0,8.05,31.0,74,33.8,16.1,2.4,209.0,178.0,10.7,0,5,7,0,2026-05-09T14:52:12.331219+05:30
Rajkot,Gujarat,22.3039,70.8022,41.4,15,0.0,992.1,7.7,45.4,54,46.4,15.5,1.0,146.0,136.0,5.3,0,5,10,0,2026-05-09T14:52:12.331228+05:30
Thane,Maharashtra,19.2183,72.9781,40.0,27,0.0,1003.7,7.85,43.2,99,49.4,28.2,7.7,233.0,166.0,11.8,0,5,7,1,2026-05-09T14:52:12.331236+05:30
Nagpur,Maharashtra,21.1458,79.0882,38.9,22,0.0,971.4,8.9,47.9,130,60.3,23.6,4.2,223.0,191.0,19.3,0,5,10,0,2026-05-09T14:52:12.331245+05:30
Nashik,Maharashtra,19.9975,73.7898,40.0,11,0.0,943.8,8.15,51.5,82,50.2,21.4,1.5,197.0,166.0,8.8,0,5,10,0,2026-05-09T14:52:12.331253+05:30
Aurangabad,Maharashtra,19.8762,75.3433,38.7,13,0.0,942.5,9.05,31.0,108,56.6,29.4,1.2,214.0,171.0,7.9,0,5,10,0,2026-05-09T14:52:12.331260+05:30
Solapur,Maharashtra,17.6599,75.9064,38.9,21,0.0,955.2,9.05,31.3,72,29.7,18.5,1.3,208.0,169.0,4.5,0,5,10,0,2026-05-09T14:52:12.331268+05:30
Kolhapur,Maharashtra,16.705,74.2433,38.0,23,0.0,945.9,8.85,37.8,135,31.7,21.1,1.7,218.0,156.0,3.0,0,5,10,0,2026-05-09T14:52:12.331276+05:30
Goa,Goa,15.2993,74.124,35.5,48,0.1,993.4,8.65,51.1,85,35.3,20.3,1.3,229.0,138.0,3.1,3,5,10,1,2026-05-09T14:52:12.331284+05:30
Jodhpur,Rajasthan,26.2389,73.0243,42.0,14,0.0,980.9,8.35,41.4,113,119.0,22.1,0.6,154.0,133.0,2.7,0,5,10,0,2026-05-09T14:52:12.331291+05:30
Udaipur,Rajasthan,24.5854,73.7125,38.0,14,0.0,946.1,8.8,44.3,62,41.8,11.4,0.7,146.0,136.0,3.0,0,5,10,0,2026-05-09T14:52:12.331299+05:30
Kota,Rajasthan,25.2138,75.8648,39.5,18,0.0,976.4,8.35,45.4,88,60.8,17.9,1.1,238.0,147.0,5.5,0,5,10,0,2026-05-09T14:52:12.331306+05:30
Bikaner,Rajasthan,28.0229,73.3119,40.8,14,0.0,980.2,8.3,25.9,107,156.5,36.9,0.5,257.0,171.0,8.5,0,5,10,0,2026-05-09T14:52:12.331314+05:30
Ajmer,Rajasthan,26.4499,74.6399,38.2,17,0.0,953.6,8.3,47.2,94,104.8,26.6,0.8,241.0,154.0,5.0,0,5,10,0,2026-05-09T14:52:12.331321+05:30
Gwalior,Madhya Pradesh,26.2183,78.1828,36.2,29,0.0,981.3,8.1,28.8,125,164.4,38.8,0.7,268.0,176.0,7.4,0,5,10,0,2026-05-09T14:52:12.331328+05:30
Indore,Madhya Pradesh,22.7196,75.8577,40.0,10,0.0,946.7,8.65,50.4,72,64.7,12.8,1.0,182.0,140.0,2.9,0,5,10,0,2026-05-09T14:52:12.331335+05:30
Bhopal,Madhya Pradesh,23.2599,77.4126,39.8,10,0.0,951.8,8.65,45.4,98,53.6,13.9,0.6,176.0,144.0,3.7,0,5,10,0,2026-05-09T14:52:12.331343+05:30
Jabalpur,Madhya Pradesh,23.1815,79.9864,38.8,16,0.0,959.3,8.8,38.2,124,36.4,15.1,1.1,178.0,159.0,4.7,0,5,10,0,2026-05-09T14:52:12.331350+05:30
Ujjain,Madhya Pradesh,23.1765,75.7885,40.0,10,0.0,952.2,8.55,48.6,70,68.0,13.1,0.7,158.0,137.0,3.1,0,5,10,0,2026-05-09T14:52:12.331358+05:30
Visakhapatnam,Andhra Pradesh,17.6868,83.2185,32.5,56,0.0,1002.2,9.15,35.3,75,18.8,14.9,16.4,575.0,61.0,20.9,0,5,4,1,2026-05-09T14:52:12.331365+05:30
Vijayawada,Andhra Pradesh,16.5062,80.648,37.5,34,0.1,999.8,9.2,38.9,46,10.3,8.4,1.5,143.0,100.0,4.2,3,5,10,1,2026-05-09T14:52:12.331373+05:30
Guntur,Andhra Pradesh,16.3067,80.4365,38.2,31,0.0,1000.8,9.2,33.1,44,12.5,9.9,1.4,152.0,119.0,4.0,0,5,7,1,2026-05-09T14:52:12.331380+05:30
Nellore,Andhra Pradesh,14.4426,79.9865,33.6,54,0.0,1003.2,9.2,40.0,26,5.2,3.7,0.9,120.0,59.0,1.5,0,5,4,1,2026-05-09T14:52:12.331388+05:30
Kurnool,Andhra Pradesh,15.8281,78.0373,39.0,23,0.0,973.8,9.15,38.5,35,12.7,8.4,0.9,169.0,128.0,1.4,0,5,10,0,2026-05-09T14:52:12.331396+05:30
Kakinada,Andhra Pradesh,16.9891,82.2475,32.0,61,0.0,1005.7,9.15,36.4,31,8.2,5.8,0.8,138.0,66.0,0.9,3,5,4,1,2026-05-09T14:52:12.331403+05:30
Tirupati,Andhra Pradesh,13.6288,79.4192,34.3,45,0.1,987.8,7.35,39.2,31,3.7,2.8,1.0,135.0,63.0,0.7,3,5,7,1,2026-05-09T14:52:12.331410+05:30
Warangal,Telangana,17.9689,79.5941,36.9,30,0.0,977.0,9.15,32.4,52,22.0,15.1,1.5,229.0,152.0,5.5,0,5,10,1,2026-05-09T14:52:12.331417+05:30
Nizamabad,Telangana,18.6725,78.0941,37.7,27,0.0,963.4,9.15,35.6,73,29.7,15.9,1.3,212.0,164.0,2.8,0,5,10,0,2026-05-09T14:52:12.331424+05:30
Mysore,Karnataka,12.2958,76.6396,32.6,41,0.0,925.9,9.4,38.9,58,10.0,9.1,1.9,188.0,110.0,4.4,0,5,7,1,2026-05-09T14:52:12.331431+05:30
Mangalore,Karnataka,12.9141,74.856,30.7,74,0.0,1002.8,7.9,38.2,86,32.9,24.3,1.4,187.0,144.0,2.6,3,5,4,1,2026-05-09T14:52:12.331438+05:30
Hubli-Dharwad,Karnataka,15.3647,75.124,37.2,19,0.0,938.5,9.2,43.6,53,16.1,11.1,1.6,182.0,152.0,3.0,0,5,10,0,2026-05-09T14:52:12.331446+05:30
Belgaum,Karnataka,15.8497,74.4977,36.2,21,0.0,924.2,9.15,41.4,78,28.3,18.6,1.7,198.0,162.0,3.2,0,5,10,0,2026-05-09T14:52:15.604135+05:30
Coimbatore,Tamil Nadu,11.0168,76.9558,32.1,53,0.0,958.3,7.75,24.8,65,15.9,13.2,1.8,181.0,115.0,3.9,0,5,7,1,2026-05-09T14:52:15.604170+05:30
Madurai,Tamil Nadu,9.9252,78.1198,31.8,60,0.0,989.8,5.5,40.3,69,12.2,11.6,3.3,242.0,89.0,4.9,0,5,3,1,2026-05-09T14:52:15.604180+05:30
Trichy,Tamil Nadu,10.7905,78.7047,28.9,74,0.2,996.6,3.2,33.8,42,10.0,9.7,7.3,168.0,77.0,13.9,10,5,3,1,2026-05-09T14:52:15.604188+05:30
Salem,Tamil Nadu,11.6643,78.146,27.9,75,0.1,974.7,8.25,31.7,51,14.9,13.9,3.9,166.0,93.0,9.7,10,5,7,1,2026-05-09T14:52:15.604196+05:30
Tirunelveli,Tamil Nadu,8.7139,77.7567,31.7,57,0.0,999.6,4.35,25.2,57,12.8,12.1,2.3,183.0,98.0,4.2,0,5,3,1,2026-05-09T14:52:15.604204+05:30
Vellore,Tamil Nadu,12.9165,79.1325,25.4,91,0.1,982.5,6.85,48.2,48,7.8,7.5,3.2,145.0,76.0,4.7,10,5,7,1,2026-05-09T14:52:15.604212+05:30
Erode,Tamil Nadu,11.341,77.7172,28.5,75,0.0,986.0,8.1,36.4,60,15.0,13.9,2.2,192.0,125.0,6.8,7,5,7,1,2026-05-09T14:52:15.604220+05:30
Kochi,Kerala,9.9312,76.2673,28.6,77,0.1,1005.6,8.1,32.0,80,17.6,16.4,3.6,249.0,142.0,2.0,10,5,4,1,2026-05-09T14:52:15.604227+05:30
Thiruvananthapuram,Kerala,8.5241,76.9366,27.6,84,0.0,1004.9,4.85,28.4,60,10.5,7.7,1.5,220.0,121.0,1.1,7,5,0,1,2026-05-09T14:52:15.604236+05:30
Kozhikode,Kerala,11.2588,75.7804,29.9,75,0.0,1004.5,8.3,37.4,75,12.0,9.9,0.6,277.0,119.0,1.2,7,5,4,1,2026-05-09T14:52:15.604243+05:30
Thrissur,Kerala,10.5276,76.2144,29.5,76,0.0,1003.5,8.15,34.6,78,24.4,22.6,2.3,289.0,137.0,3.1,7,5,4,1,2026-05-09T14:52:15.604252+05:30
Kannur,Kerala,11.8745,75.3704,31.5,67,0.0,1003.6,8.65,39.2,71,13.9,10.1,1.5,225.0,112.0,0.9,3,5,4,1,2026-05-09T14:52:15.604259+05:30
Patna,Bihar,25.5941,85.1376,29.7,58,0.0,1000.8,8.4,32.0,158,63.3,50.4,2.9,354.0,220.0,21.1,4,5,4,1,2026-05-09T14:52:15.604266+05:30
Gaya,Bihar,24.7914,85.0002,30.0,51,0.0,993.9,8.5,33.5,157,70.8,39.7,2.1,325.0,217.0,19.1,4,5,7,1,2026-05-09T14:52:15.604273+05:30
Muzaffarpur,Bihar,26.1209,85.3647,30.4,54,0.0,1000.9,8.65,34.9,153,61.2,50.3,2.9,316.0,207.0,17.6,0,5,4,1,2026-05-09T14:52:15.604280+05:30
Bhagalpur,Bihar,25.2425,87.0117,32.8,47,0.0,1000.7,8.7,30.6,162,55.2,44.9,3.8,345.0,216.0,10.6,0,5,4,1,2026-05-09T14:52:15.604287+05:30
Ranchi,Jharkhand,23.3441,85.3096,28.5,44,0.0,937.9,9.2,29.2,154,58.2,27.8,1.7,229.0,185.0,13.3,4,5,7,0,2026-05-09T14:52:15.604295+05:30
Jamshedpur,Jharkhand,22.8046,86.2029,33.5,44,0.0,989.6,8.85,31.7,130,48.7,36.3,2.8,420.0,217.0,20.3,0,5,7,1,2026-05-09T14:52:15.604302+05:30
Dhanbad,Jharkhand,23.7957,86.4304,31.2,50,0.0,979.3,8.95,35.6,146,69.4,60.8,24.3,372.0,211.0,70.0,0,5,7,1,2026-05-09T14:52:15.604309+05:30
Bokaro,Jharkhand,23.6693,86.1511,31.2,48,0.0,983.2,8.95,38.2,144,66.6,56.2,22.2,1067.0,227.0,67.9,0,5,7,1,2026-05-09T14:52:15.604316+05:30
Bhubaneswar,Odisha,20.2961,85.8245,29.9,67,0.0,1002.2,9.1,31.7,47,19.2,11.2,1.6,192.0,120.0,4.1,7,5,4,1,2026-05-09T14:52:15.604323+05:30
Cuttack,Odisha,20.4625,85.8828,29.2,68,0.0,1003.9,9.15,43.2,47,19.2,11.2,1.6,199.0,120.0,4.1,7,5,4,1,2026-05-09T14:52:15.604331+05:30
Rourkela,Odisha,22.2604,84.8536,34.7,40,0.0,983.7,8.9,49.3,131,44.9,26.0,1.8,257.0,198.0,22.2,0,5,7,1,2026-05-09T14:52:15.604338+05:30
Raipur,Chhattisgarh,21.2514,81.6296,37.0,22,0.0,973.1,8.95,60.5,147,35.9,18.0,4.7,366.0,197.0,4.5,0,5,10,0,2026-05-09T14:52:15.604346+05:30
Bhilai,Chhattisgarh,21.1938,81.3509,37.5,21,0.0,973.4,8.95,42.8,110,37.8,17.6,5.2,439.0,179.0,4.5,0,5,10,0,2026-05-09T14:52:15.604353+05:30
Guwahati,Assam,26.1158,91.7086,30.1,60,0.0,1000.8,8.65,25.2,109,37.3,22.8,1.1,328.0,142.0,1.7,0,5,4,1,2026-05-09T14:52:15.604360+05:30
Agartala,Tripura,23.8315,91.2868,32.2,51,0.0,1004.7,8.8,20.2,166,58.9,41.9,5.2,338.0,223.0,4.8,0,5,4,1,2026-05-09T14:52:15.604367+05:30
Shillong,Meghalaya,25.5788,91.8933,22.2,56,0.0,858.2,8.4,24.5,91,32.8,21.7,1.5,252.0,140.0,1.9,0,5,7,0,2026-05-09T14:52:15.604374+05:30
Imphal,Manipur,24.817,93.9368,28.4,49,0.0,922.9,9.2,28.1,103,32.7,16.8,1.1,224.0,139.0,2.1,4,5,7,1,2026-05-09T14:52:15.604381+05:30
Aizawl,Mizoram,23.7271,92.7176,27.8,36,0.0,892.6,9.0,24.8,91,44.7,19.4,0.7,224.0,141.0,2.4,4,5,7,0,2026-05-09T14:52:15.604388+05:30
Kohima,Nagaland,25.6701,94.1077,21.5,74,0.0,856.4,9.15,28.8,83,30.6,19.1,0.9,261.0,139.0,1.1,3,5,7,1,2026-05-09T14:52:15.604395+05:30
Gangtok,Sikkim,27.3314,88.6138,18.1,59,0.0,838.8,8.95,35.3,75,25.2,13.8,0.8,212.0,134.0,1.2,0,5,7,0,2026-05-09T14:52:15.604402+05:30
Siliguri,West Bengal,26.7271,88.3953,28.1,60,0.0,994.0,8.55,26.3,118,37.0,21.8,1.5,332.0,152.0,1.9,4,5,7,1,2026-05-09T14:52:18.869608+05:30
Durgapur,West Bengal,23.5204,87.3119,30.9,62,0.0,994.5,8.9,42.8,139,47.6,40.2,13.7,310.0,177.0,43.3,3,5,7,1,2026-05-09T14:52:18.869643+05:30
Asansol,West Bengal,23.6739,86.9524,31.1,60,0.0,993.0,8.95,47.2,126,51.8,44.7,13.6,554.0,184.0,46.5,0,5,7,1,2026-05-09T14:52:18.869655+05:30
Pondicherry,Puducherry,11.9139,79.8145,27.9,82,0.0,1006.0,3.25,38.2,27,4.2,3.0,1.7,129.0,55.0,0.7,7,5,0,1,2026-05-09T14:52:18.869666+05:30
Port Blair,Andaman and Nicobar Islands,11.6234,92.7265,26.2,88,0.1,1004.7,8.1,43.6,27,3.0,2.1,0.4,136.0,55.0,0.1,10,5,4,1,2026-05-09T14:52:18.869676+05:30
Haridwar,Uttarakhand,29.9457,78.1642,31.6,41,0.0,974.7,7.4,28.1,129,52.7,22.1,1.4,260.0,182.0,6.0,0,5,7,1,2026-05-09T14:52:18.869686+05:30
Rishikesh,Uttarakhand,30.0869,78.2676,30.8,41,0.0,967.3,7.5,26.6,131,37.8,18.2,1.0,235.0,180.0,4.4,0,5,7,0,2026-05-09T14:52:18.869694+05:30
Nainital,Uttarakhand,29.3919,79.4542,19.2,58,0.0,807.8,7.95,30.2,102,32.1,13.5,1.0,245.0,155.0,2.0,0,5,7,0,2026-05-09T14:52:18.869701+05:30
Mussoorie,Uttarakhand,30.4599,78.0664,19.4,57,0.0,805.7,7.85,40.0,116,47.7,20.3,1.6,243.0,172.0,3.9,0,5,7,0,2026-05-09T14:52:18.869709+05:30
Dharamshala,Himachal Pradesh,32.219,76.3234,23.8,60,0.0,871.3,8.25,37.4,112,68.5,29.0,0.7,263.0,170.0,4.5,0,5,7,0,2026-05-09T14:52:18.869716+05:30
Dalhousie,Himachal Pradesh,32.5387,75.971,21.4,52,0.0,808.2,8.55,34.6,137,110.6,42.0,1.4,252.0,193.0,8.2,0,5,7,0,2026-05-09T14:52:18.869724+05:30
Patiala,Punjab,30.3398,76.3869,34.2,29,0.0,978.3,7.5,29.2,229,484.3,75.7,2.3,260.0,206.0,14.4,0,5,7,0,2026-05-09T14:52:18.869731+05:30
Bhatinda,Punjab,30.211,74.9455,38.0,25,0.0,983.1,8.2,25.6,546,416.3,84.3,2.0,277.0,204.0,18.4,0,5,10,0,2026-05-09T14:52:18.869739+05:30
Rohtak,Haryana,28.8955,76.6066,35.7,27,0.0,981.0,7.6,27.0,432,454.5,77.8,2.6,334.0,225.0,17.8,0,5,10,0,2026-05-09T14:52:18.869746+05:30
Panipat,Haryana,29.3909,76.9635,34.7,31,0.0,980.5,7.45,31.0,592,592.3,89.2,3.1,285.0,228.0,24.2,0,5,7,0,2026-05-09T14:52:18.869753+05:30
Mathura,Uttar Pradesh,27.4924,77.6737,35.0,33,0.0,985.8,7.85,27.0,716,453.6,58.7,1.4,293.0,178.0,6.4,0,5,7,1,2026-05-09T14:52:18.869760+05:30
Vrindavan,Uttar Pradesh,27.5823,77.7027,35.2,31,0.0,986.2,7.8,27.4,716,453.6,58.7,1.4,292.0,178.0,6.4,0,5,10,0,2026-05-09T14:52:18.869768+05:30
Ayodhya,Uttar Pradesh,26.7922,82.1998,31.5,47,0.0,995.0,8.15,38.9,132,67.1,34.3,1.5,320.0,181.0,7.6,0,5,7,1,2026-05-09T14:52:18.869775+05:30
Ratlam,Madhya Pradesh,23.3315,75.0367,39.6,12,0.0,953.8,8.5,40.7,67,65.4,12.4,0.6,152.0,136.0,2.7,0,5,10,0,2026-05-09T14:52:18.869783+05:30
Sagar,Madhya Pradesh,23.8388,78.7378,38.7,14,0.0,948.1,8.6,44.6,110,33.2,12.1,0.6,172.0,151.0,5.1,0,5,10,0,2026-05-09T14:52:18.869790+05:30
Satna,Madhya Pradesh,24.6005,80.8322,36.7,21,0.0,969.4,8.65,38.5,140,60.3,23.5,1.1,200.0,181.0,8.3,0,5,10,0,2026-05-09T14:52:18.869797+05:30
Akola,Maharashtra,20.7002,77.0082,40.5,14,0.0,972.8,8.85,38.2,97,68.2,26.1,1.6,204.0,171.0,11.5,0,5,10,0,2026-05-09T14:52:18.869805+05:30
Amravati,Maharashtra,20.9374,77.7796,39.1,16,0.0,965.6,8.85,34.6,97,65.2,23.3,1.7,212.0,171.0,6.3,0,5,10,0,2026-05-09T14:52:18.869813+05:30
Latur,Maharashtra,18.4088,76.5604,37.8,20,0.0,938.9,9.05,46.8,84,37.6,22.9,1.2,208.0,173.0,9.5,0,5,10,0,2026-05-09T14:52:18.869821+05:30
Nanded,Maharashtra,19.1383,77.3091,39.3,19,0.0,966.9,9.0,31.3,87,37.5,20.0,1.2,221.0,166.0,4.2,0,5,10,0,2026-05-09T14:52:18.869828+05:30
Gulbarga,Karnataka,17.3297,76.8343,38.8,22,0.0,956.9,8.8,34.6,57,20.3,12.6,1.7,208.0,161.0,2.9,0,5,10,0,2026-05-09T14:52:18.869835+05:30
Bidar,Karnataka,17.9104,77.5199,36.4,24,0.0,934.8,8.85,34.6,62,23.2,13.9,1.4,203.0,160.0,2.6,0,5,10,0,2026-05-09T14:52:18.869842+05:30
Hospet,Karnataka,15.2689,76.3909,36.7,24,0.0,953.0,9.2,36.0,45,14.0,10.4,2.4,188.0,151.0,5.5,0,5,10,0,2026-05-09T14:52:18.869849+05:30
Tirupur,Tamil Nadu,11.1085,77.3411,33.5,51,0.0,971.6,8.05,29.9,79,15.1,13.3,2.1,181.0,126.0,5.3,0,5,7,1,2026-05-09T14:52:18.869856+05:30
Alappuzha,Kerala,9.4981,76.3388,28.8,79,0.0,1005.4,8.15,31.0,78,11.1,10.1,3.0,187.0,133.0,3.5,7,5,4,1,2026-05-09T14:52:18.869863+05:30
Munnar,Kerala,10.0889,77.0595,19.7,88,0.0,854.8,4.95,24.1,53,13.6,12.1,1.8,173.0,98.0,1.8,3,10,3,1,2026-05-09T14:52:18.869871+05:30
Silchar,Assam,24.8333,92.7789,33.3,44,0.0,1002.5,8.7,16.9,121,49.5,24.9,1.3,274.0,154.0,4.5,0,5,4,1,2026-05-09T14:52:18.869878+05:30
Dibrugarh,Assam,27.4728,94.912,31.4,53,0.0,994.3,8.7,19.4,103,30.6,21.1,1.5,250.0,156.0,1.7,0,5,7,1,2026-05-09T14:52:18.869885+05:30
