city,state,latitude,longitude,temp,humidity,rain,pressure,uv_index,wind_gusts,aqi,pm10,pm2_5,mosquito_risk,arthritis_risk,migraine_risk,frizz_risk,updated_at
Delhi,Delhi,28.6139,77.209,18.5,91,0.0,987.5,7.05,24.1,132,155.1,49.8,3,10,7,1,2026-04-09T00:51:32.045397+05:30
Mumbai,Maharashtra,19.076,72.8777,28.2,76,0.0,1009.5,7.95,20.5,77,76.6,19.2,7,0,4,1,2026-04-09T00:51:32.045460+05:30
Bangalore,Karnataka,12.9716,77.5946,25.9,56,0.0,912.5,9.6,27.0,69,35.5,34.0,4,5,7,1,2026-04-09T00:51:32.045475+05:30
Hyderabad,Telangana,17.385,78.4867,28.6,40,0.0,952.8,9.2,36.4,92,62.2,36.1,4,5,7,0,2026-04-09T00:51:32.045485+05:30
Chennai,Tamil Nadu,13.0827,80.2707,29.1,82,0.0,1007.8,9.35,40.0,77,21.4,16.2,7,5,4,1,2026-04-09T00:51:32.045494+05:30
Kolkata,West Bengal,22.5726,88.3639,23.7,93,0.0,1007.8,8.65,18.0,78,22.9,20.4,3,5,4,1,2026-04-09T00:51:32.045502+05:30
Pune,Maharashtra,18.5204,73.8567,22.9,84,0.0,949.2,8.55,32.4,73,44.9,20.3,3,5,7,1,2026-04-09T00:51:32.045514+05:30
Ahmedabad,Gujarat,23.0225,72.5714,25.7,88,0.0,1002.5,8.0,20.2,57,48.7,37.3,7,5,4,1,2026-04-09T00:51:32.045522+05:30
Jaipur,Rajasthan,26.9124,75.7873,21.7,57,0.0,961.8,7.7,29.5,122,437.7,66.1,0,5,7,0,2026-04-09T00:51:32.045530+05:30
Lucknow,Uttar Pradesh,26.8467,80.9462,19.5,83,0.0,997.8,7.55,31.0,101,60.1,43.2,3,10,7,1,2026-04-09T00:51:32.045538+05:30
Kanpur,Uttar Pradesh,26.4499,80.3319,19.8,84,0.0,995.9,7.6,29.5,120,156.0,42.3,3,10,7,1,2026-04-09T00:51:32.045545+05:30
Chandigarh,Chandigarh,30.7333,76.7794,16.4,94,0.0,973.2,7.05,25.6,71,36.3,32.8,3,10,7,0,2026-04-09T00:51:32.045552+05:30
Srinagar,Jammu and Kashmir,34.0837,74.7973,6.4,93,0.0,839.8,8.0,16.9,42,14.9,14.6,3,10,7,0,2026-04-09T00:51:32.045559+05:30
Jammu,Jammu and Kashmir,32.7266,74.857,14.9,93,0.0,977.3,7.65,22.3,62,38.2,35.5,3,10,7,0,2026-04-09T00:51:32.045566+05:30
Amritsar,Punjab,31.634,74.8723,15.4,91,0.0,985.4,7.6,24.8,86,45.2,33.2,3,10,7,0,2026-04-09T00:51:32.045572+05:30
Ludhiana,Punjab,30.901,75.8573,16.5,91,0.0,983.1,7.25,22.7,86,65.0,50.2,3,10,7,0,2026-04-09T00:51:32.045579+05:30
Jalandhar,Punjab,31.326,75.5762,15.8,94,0.0,984.7,7.4,27.0,84,55.5,41.0,3,10,7,0,2026-04-09T00:51:32.045587+05:30
Dehradun,Uttarakhand,30.6284,78.0322,8.0,84,0.0,828.9,7.4,23.0,52,7.4,4.8,3,10,7,0,2026-04-09T00:51:32.045594+05:30
Shimla,Himachal Pradesh,31.1048,77.1734,6.6,86,0.0,781.9,7.5,28.4,54,5.3,5.2,3,10,7,0,2026-04-09T00:51:32.045600+05:30
Manali,Himachal Pradesh,32.2396,77.1887,7.8,75,0.0,815.8,9.75,22.3,96,3.0,3.0,3,5,7,0,2026-04-09T00:51:32.045607+05:30
Gurgaon,Haryana,28.4595,77.0266,18.6,89,0.0,985.7,7.2,19.4,361,681.7,105.0,3,10,7,1,2026-04-09T00:51:32.045614+05:30
Noida,Uttar Pradesh,28.5355,77.391,18.4,92,0.0,989.1,7.1,22.7,361,681.7,105.0,3,10,7,1,2026-04-09T00:51:32.045620+05:30
Ghaziabad,Uttar Pradesh,28.6692,77.4538,17.7,95,0.0,987.3,7.05,22.7,106,52.7,41.0,3,10,7,1,2026-04-09T00:51:32.045627+05:30
Faridabad,Haryana,28.4089,77.3178,18.3,90,0.0,988.3,7.15,22.3,361,681.7,105.0,3,10,7,1,2026-04-09T00:51:32.045633+05:30
Meerut,Uttar Pradesh,28.9845,77.7064,16.8,96,0.0,986.0,6.95,27.0,106,52.7,41.0,3,10,7,1,2026-04-09T00:51:32.045639+05:30
Agra,Uttar Pradesh,27.1767,78.0081,18.8,89,0.0,991.5,7.45,20.2,448,1072.9,134.6,3,10,7,1,2026-04-09T00:51:32.045645+05:30
Varanasi,Uttar Pradesh,25.3176,82.9739,21.1,74,0.0,1000.9,8.2,25.6,96,46.3,37.7,3,5,4,1,2026-04-09T00:51:32.045654+05:30
Prayagraj,Uttar Pradesh,25.4358,81.8463,21.8,74,0.0,999.6,8.05,25.2,92,42.1,32.9,3,5,7,1,2026-04-09T00:51:32.045661+05:30
Gorakhpur,Uttar Pradesh,26.7606,83.3732,18.4,80,0.0,1001.4,7.95,34.2,100,67.8,52.2,3,5,4,0,2026-04-09T00:51:32.045667+05:30
Bareilly,Uttar Pradesh,28.367,79.4304,16.6,96,0.0,991.7,7.3,33.1,95,59.6,33.1,3,10,7,0,2026-04-09T00:51:32.045675+05:30
Aligarh,Uttar Pradesh,27.8974,78.088,17.6,94,0.0,989.7,7.2,27.7,145,355.8,65.2,3,10,7,1,2026-04-09T00:51:32.045682+05:30
Moradabad,Uttar Pradesh,28.8386,78.7733,16.6,97,0.0,988.6,7.15,31.7,102,58.3,35.9,3,10,7,1,2026-04-09T00:51:32.045687+05:30
Saharanpur,Uttar Pradesh,29.9637,77.546,16.0,93,0.0,980.5,6.75,26.3,96,81.7,71.5,3,10,7,0,2026-04-09T00:51:32.045693+05:30
Jhansi,Uttar Pradesh,25.4484,78.5685,20.7,80,0.0,980.9,8.0,25.2,75,128.1,41.6,3,5,7,1,2026-04-09T00:51:35.304560+05:30
Surat,Gujarat,21.1702,72.8311,26.9,79,0.0,1007.6,7.7,26.3,69,46.0,22.6,7,5,4,1,2026-04-09T00:51:35.304592+05:30
Vadodara,Gujarat,22.3072,73.1812,26.8,78,0.0,1004.5,8.0,20.2,63,31.8,17.6,7,5,4,1,2026-04-09T00:51:35.304604+05:30
Rajkot,Gujarat,22.3039,70.8022,23.8,74,0.0,995.3,7.7,22.0,62,22.9,14.3,3,5,7,1,2026-04-09T00:51:35.304614+05:30
Thane,Maharashtra,19.2183,72.9781,27.1,82,0.0,1009.1,7.95,33.5,77,76.6,19.2,7,0,4,1,2026-04-09T00:51:35.304623+05:30
Nagpur,Maharashtra,21.1458,79.0882,25.4,57,0.0,972.8,8.75,20.5,84,58.1,31.4,4,5,7,1,2026-04-09T00:51:35.304631+05:30
Nashik,Maharashtra,19.9975,73.7898,22.2,88,0.0,946.4,8.2,25.2,65,38.6,14.4,3,5,7,1,2026-04-09T00:51:35.304639+05:30
Aurangabad,Maharashtra,19.8762,75.3433,24.0,63,0.0,944.5,8.9,32.4,63,35.2,17.8,3,5,7,1,2026-04-09T00:51:35.304647+05:30
Solapur,Maharashtra,17.6599,75.9064,27.7,38,0.0,957.1,9.0,24.5,74,34.0,18.3,4,5,7,0,2026-04-09T00:51:35.304656+05:30
Kolhapur,Maharashtra,16.705,74.2433,20.3,94,0.0,948.3,9.0,36.7,78,48.9,24.1,3,5,7,1,2026-04-09T00:51:35.304664+05:30
Goa,Goa,15.2993,74.124,27.4,81,0.0,999.1,9.0,35.6,69,65.4,23.3,7,5,7,1,2026-04-09T00:51:35.304673+05:30
Jodhpur,Rajasthan,26.2389,73.0243,24.1,49,0.0,984.2,8.0,26.3,99,140.2,31.1,0,5,7,0,2026-04-09T00:51:35.304681+05:30
Udaipur,Rajasthan,24.5854,73.7125,21.3,51,0.0,947.1,8.5,38.2,69,56.7,17.7,0,5,7,0,2026-04-09T00:51:35.304689+05:30
Kota,Rajasthan,25.2138,75.8648,23.0,63,0.0,980.5,8.0,20.9,101,111.1,45.9,3,5,7,0,2026-04-09T00:51:35.304697+05:30
Bikaner,Rajasthan,28.0229,73.3119,23.9,38,0.0,984.4,7.8,22.3,60,43.1,16.6,0,5,7,0,2026-04-09T00:51:35.304704+05:30
Ajmer,Rajasthan,26.4499,74.6399,22.9,47,0.0,955.4,7.95,25.2,80,115.7,38.9,0,5,7,0,2026-04-09T00:51:35.304712+05:30
Gwalior,Madhya Pradesh,26.2183,78.1828,19.8,86,0.0,986.5,7.75,25.9,80,217.5,58.1,3,10,7,1,2026-04-09T00:51:35.304721+05:30
Indore,Madhya Pradesh,22.7196,75.8577,22.1,63,0.0,948.4,8.4,23.4,70,41.2,26.6,3,5,7,0,2026-04-09T00:51:35.304729+05:30
Bhopal,Madhya Pradesh,23.2599,77.4126,23.9,44,0.0,954.4,8.4,24.1,71,33.6,21.7,0,5,7,0,2026-04-09T00:51:35.304737+05:30
Jabalpur,Madhya Pradesh,23.1815,79.9864,25.4,60,0.0,962.1,8.55,25.9,101,96.2,58.1,4,5,7,1,2026-04-09T00:51:35.304745+05:30
Ujjain,Madhya Pradesh,23.1765,75.7885,23.0,57,0.0,954.3,8.35,20.9,66,40.6,26.1,0,5,7,0,2026-04-09T00:51:35.304753+05:30
Visakhapatnam,Andhra Pradesh,17.6868,83.2185,27.5,92,0.0,1004.0,9.15,43.6,85,33.4,30.9,7,5,4,1,2026-04-09T00:51:35.304762+05:30
Vijayawada,Andhra Pradesh,16.5062,80.648,27.9,88,0.0,1002.8,9.2,34.2,96,26.5,23.7,7,5,4,1,2026-04-09T00:51:35.304770+05:30
Guntur,Andhra Pradesh,16.3067,80.4365,28.2,87,0.0,1004.1,9.2,31.0,93,25.9,23.1,7,5,4,1,2026-04-09T00:51:35.304778+05:30
Nellore,Andhra Pradesh,14.4426,79.9865,28.5,86,0.0,1005.9,9.3,36.4,88,27.1,24.0,7,5,4,1,2026-04-09T00:51:35.304787+05:30
Kurnool,Andhra Pradesh,15.8281,78.0373,30.1,36,0.0,975.7,9.2,32.4,77,47.8,27.1,0,5,7,0,2026-04-09T00:51:35.304795+05:30
Kakinada,Andhra Pradesh,16.9891,82.2475,27.2,93,0.0,1007.9,9.15,28.1,77,32.1,26.3,7,5,4,1,2026-04-09T00:51:35.304803+05:30
Tirupati,Andhra Pradesh,13.6288,79.4192,27.7,85,0.0,992.7,9.35,33.1,107,34.0,31.2,7,5,7,1,2026-04-09T00:51:35.304811+05:30
Warangal,Telangana,17.9689,79.5941,28.2,73,0.0,978.2,9.05,23.8,106,53.3,39.2,7,5,7,1,2026-04-09T00:51:35.304818+05:30
Nizamabad,Telangana,18.6725,78.0941,29.0,44,0.0,964.3,9.0,28.1,99,94.1,51.3,4,5,7,0,2026-04-09T00:51:35.304826+05:30
Mysore,Karnataka,12.2958,76.6396,23.3,87,0.0,929.3,9.55,35.3,51,18.3,15.2,3,5,7,1,2026-04-09T00:51:35.304834+05:30
Mangalore,Karnataka,12.9141,74.856,29.0,78,0.0,1008.1,9.15,35.3,64,66.1,25.2,7,0,4,1,2026-04-09T00:51:35.304842+05:30
Hubli-Dharwad,Karnataka,15.3647,75.124,23.0,82,0.0,941.1,9.2,40.0,63,39.6,18.6,3,5,7,1,2026-04-09T00:51:35.304849+05:30
Belgaum,Karnataka,15.8497,74.4977,20.0,95,0.0,925.7,9.25,36.0,73,53.6,24.8,3,5,7,1,2026-04-09T00:51:38.559250+05:30
Coimbatore,Tamil Nadu,11.0168,76.9558,24.9,78,0.0,963.2,9.45,49.0,54,20.7,17.5,3,5,7,1,2026-04-09T00:51:38.559278+05:30
Madurai,Tamil Nadu,9.9252,78.1198,27.4,75,0.0,994.4,9.4,41.0,103,43.3,39.5,7,5,7,1,2026-04-09T00:51:38.559287+05:30
Trichy,Tamil Nadu,10.7905,78.7047,28.2,87,0.0,1001.0,9.4,28.1,94,33.9,31.1,7,5,4,1,2026-04-09T00:51:38.559295+05:30
Salem,Tamil Nadu,11.6643,78.146,25.6,81,0.0,979.0,9.0,22.3,109,33.6,30.7,7,5,7,1,2026-04-09T00:51:38.559302+05:30
Tirunelveli,Tamil Nadu,8.7139,77.7567,27.6,78,0.0,1004.3,9.0,41.0,78,30.2,25.6,7,5,4,1,2026-04-09T00:51:38.559309+05:30
Vellore,Tamil Nadu,12.9165,79.1325,28.0,84,0.0,985.5,9.45,23.8,110,36.0,32.6,7,5,7,1,2026-04-09T00:51:38.559316+05:30
Erode,Tamil Nadu,11.341,77.7172,26.9,78,0.0,990.9,9.45,27.7,60,21.2,19.0,7,5,7,1,2026-04-09T00:51:38.559322+05:30
Kochi,Kerala,9.9312,76.2673,29.9,71,0.0,1010.0,9.0,33.8,62,42.8,38.0,7,0,4,1,2026-04-09T00:51:38.559329+05:30
Thiruvananthapuram,Kerala,8.5241,76.9366,29.5,76,0.0,1009.4,9.15,39.6,54,24.7,13.3,7,0,4,1,2026-04-09T00:51:38.559335+05:30
Kozhikode,Kerala,11.2588,75.7804,29.6,74,0.0,1009.1,9.15,30.6,51,41.1,18.3,7,0,4,1,2026-04-09T00:51:38.559342+05:30
Thrissur,Kerala,10.5276,76.2144,28.3,79,0.0,1008.3,9.15,34.6,61,34.2,28.3,7,0,4,1,2026-04-09T00:51:38.559349+05:30
Kannur,Kerala,11.8745,75.3704,28.4,78,0.0,1008.4,9.15,39.2,55,54.7,23.7,7,0,4,1,2026-04-09T00:51:38.559356+05:30
Patna,Bihar,25.5941,85.1376,21.7,79,0.0,1003.5,8.3,27.0,100,49.6,38.8,3,5,4,1,2026-04-09T00:51:38.559362+05:30
Gaya,Bihar,24.7914,85.0002,22.3,92,0.0,996.0,8.4,22.3,109,50.9,42.8,3,5,7,1,2026-04-09T00:51:38.559368+05:30
Muzaffarpur,Bihar,26.1209,85.3647,20.2,83,0.0,1003.5,8.3,25.9,114,48.4,35.5,3,5,4,1,2026-04-09T00:51:38.559374+05:30
Bhagalpur,Bihar,25.2425,87.0117,22.6,95,0.0,1003.8,8.3,21.2,145,42.0,37.0,3,5,4,1,2026-04-09T00:51:38.559381+05:30
Ranchi,Jharkhand,23.3441,85.3096,20.6,94,0.0,938.0,8.8,27.4,105,86.4,61.7,3,5,7,1,2026-04-09T00:51:38.559387+05:30
Jamshedpur,Jharkhand,22.8046,86.2029,22.4,90,0.0,992.3,8.6,15.1,125,48.8,43.5,3,5,7,1,2026-04-09T00:51:38.559393+05:30
Dhanbad,Jharkhand,23.7957,86.4304,22.4,89,0.0,981.2,8.7,20.9,155,95.0,89.6,3,5,7,1,2026-04-09T00:51:38.559399+05:30
Bokaro,Jharkhand,23.6693,86.1511,22.0,92,0.0,985.5,8.7,23.8,158,98.0,88.5,3,5,7,1,2026-04-09T00:51:38.559432+05:30
Bhubaneswar,Odisha,20.2961,85.8245,26.4,93,0.0,1003.0,9.0,29.9,68,28.0,26.1,7,5,4,1,2026-04-09T00:51:38.559443+05:30
Cuttack,Odisha,20.4625,85.8828,25.6,93,0.0,1004.9,9.05,27.7,68,28.0,26.1,7,5,4,1,2026-04-09T00:51:38.559450+05:30
Rourkela,Odisha,22.2604,84.8536,23.3,86,0.0,986.3,8.4,17.3,125,58.1,41.6,3,5,7,1,2026-04-09T00:51:38.559456+05:30
Raipur,Chhattisgarh,21.2514,81.6296,27.4,56,0.0,974.6,8.85,29.9,107,94.1,53.2,4,5,7,1,2026-04-09T00:51:38.559463+05:30
Bhilai,Chhattisgarh,21.1938,81.3509,27.1,58,0.0,974.5,8.85,25.2,96,71.7,39.3,4,5,7,1,2026-04-09T00:51:38.559469+05:30
Guwahati,Assam,26.1158,91.7086,22.5,86,0.0,1004.4,8.0,25.2,78,40.7,36.9,3,5,4,1,2026-04-09T00:51:38.559475+05:30
Agartala,Tripura,23.8315,91.2868,23.1,88,0.0,1009.0,7.8,25.9,90,44.7,42.0,3,0,4,1,2026-04-09T00:51:38.559481+05:30
Shillong,Meghalaya,25.5788,91.8933,11.7,87,0.0,855.7,7.85,42.1,61,22.1,18.3,3,10,7,0,2026-04-09T00:51:38.559491+05:30
Imphal,Manipur,24.817,93.9368,16.3,77,0.0,924.3,8.8,54.0,72,42.7,39.3,3,5,7,0,2026-04-09T00:51:38.559498+05:30
Aizawl,Mizoram,23.7271,92.7176,17.9,75,0.0,893.3,3.3,50.8,65,31.1,27.0,3,5,3,0,2026-04-09T00:51:38.559505+05:30
Kohima,Nagaland,25.6701,94.1077,13.2,83,0.0,855.1,8.65,68.4,53,24.7,21.6,3,10,7,0,2026-04-09T00:51:38.559511+05:30
Gangtok,Sikkim,27.3314,88.6138,11.3,83,0.0,836.3,5.6,16.9,67,26.2,20.8,3,10,3,0,2026-04-09T00:51:38.559517+05:30
Siliguri,West Bengal,26.7271,88.3953,19.2,73,0.0,996.0,7.7,31.3,90,43.3,36.0,3,5,7,0,2026-04-09T00:51:41.826669+05:30
Durgapur,West Bengal,23.5204,87.3119,23.1,92,0.0,996.6,8.7,14.8,134,69.8,65.9,3,5,7,1,2026-04-09T00:51:41.826696+05:30
Asansol,West Bengal,23.6739,86.9524,23.3,89,0.0,995.3,8.7,18.7,135,78.0,73.1,3,5,7,1,2026-04-09T00:51:41.826705+05:30
Pondicherry,Puducherry,11.9139,79.8145,27.8,92,0.0,1009.3,9.3,34.6,76,20.2,14.5,7,0,4,1,2026-04-09T00:51:41.826712+05:30
Port Blair,Andaman and Nicobar Islands,11.6234,92.7265,28.8,78,0.0,1007.8,9.25,12.2,31,9.1,6.3,7,5,4,1,2026-04-09T00:51:41.826719+05:30
Haridwar,Uttarakhand,29.9457,78.1642,15.3,97,0.0,979.1,6.9,30.2,76,44.8,38.4,3,10,7,0,2026-04-09T00:51:41.826726+05:30
Rishikesh,Uttarakhand,30.0869,78.2676,14.0,91,0.0,971.3,6.95,31.3,58,22.6,15.2,3,10,7,0,2026-04-09T00:51:41.826734+05:30
Nainital,Uttarakhand,29.3919,79.4542,11.0,73,0.0,804.8,7.8,41.0,66,20.7,16.9,3,5,7,0,2026-04-09T00:51:41.826741+05:30
Mussoorie,Uttarakhand,30.4599,78.0664,8.8,83,0.0,801.1,7.3,28.1,64,22.7,18.5,3,10,7,0,2026-04-09T00:51:41.826748+05:30
Dharamshala,Himachal Pradesh,32.219,76.3234,12.4,71,0.0,869.1,7.5,24.1,65,3.0,2.7,3,5,7,0,2026-04-09T00:51:41.826754+05:30
Dalhousie,Himachal Pradesh,32.5387,75.971,8.6,65,0.0,801.8,7.75,18.4,59,29.4,24.6,3,5,7,0,2026-04-09T00:51:41.826762+05:30
Patiala,Punjab,30.3398,76.3869,16.9,90,0.0,982.5,6.9,25.2,85,49.1,37.7,3,10,7,0,2026-04-09T00:51:41.826769+05:30
Bhatinda,Punjab,30.211,74.9455,18.2,83,0.0,988.1,7.6,22.0,99,57.9,29.4,3,10,7,0,2026-04-09T00:51:41.826776+05:30
Rohtak,Haryana,28.8955,76.6066,17.7,92,0.0,986.0,7.1,21.2,145,133.6,47.0,3,10,7,1,2026-04-09T00:51:41.826782+05:30
Panipat,Haryana,29.3909,76.9635,16.8,95,0.0,984.6,6.9,24.8,120,83.8,41.0,3,10,7,0,2026-04-09T00:51:41.826788+05:30
Mathura,Uttar Pradesh,27.4924,77.6737,18.6,89,0.0,990.7,7.4,19.4,277,748.8,102.0,3,10,7,1,2026-04-09T00:51:41.826794+05:30
Vrindavan,Uttar Pradesh,27.5823,77.7027,18.2,90,0.0,991.2,7.35,20.9,277,748.8,102.0,3,10,7,1,2026-04-09T00:51:41.826800+05:30
Ayodhya,Uttar Pradesh,26.7922,82.1998,19.1,81,0.0,999.6,7.7,31.3,95,65.2,50.2,3,10,7,0,2026-04-09T00:51:41.826806+05:30
Ratlam,Madhya Pradesh,23.3315,75.0367,25.0,48,0.0,955.0,8.3,24.8,62,39.7,22.4,4,5,7,0,2026-04-09T00:51:41.826812+05:30
Sagar,Madhya Pradesh,23.8388,78.7378,22.7,63,0.0,951.2,8.4,25.2,72,71.5,28.5,3,5,7,0,2026-04-09T00:51:41.826818+05:30
Satna,Madhya Pradesh,24.6005,80.8322,22.9,66,0.0,973.4,8.4,26.6,76,46.3,34.1,3,5,7,1,2026-04-09T00:51:41.826824+05:30
Akola,Maharashtra,20.7002,77.0082,25.1,51,0.0,975.4,8.7,32.8,68,38.5,21.1,4,5,7,0,2026-04-09T00:51:41.826831+05:30
Amravati,Maharashtra,20.9374,77.7796,24.8,48,0.0,967.2,8.75,20.5,68,36.0,19.7,0,5,7,0,2026-04-09T00:51:41.826837+05:30
Latur,Maharashtra,18.4088,76.5604,24.2,59,0.0,939.6,8.95,29.2,74,33.4,20.0,0,5,7,0,2026-04-09T00:51:41.826843+05:30
Nanded,Maharashtra,19.1383,77.3091,25.6,61,0.0,968.6,8.9,22.0,78,28.0,18.5,7,5,7,1,2026-04-09T00:51:41.826849+05:30
Gulbarga,Karnataka,17.3297,76.8343,29.6,34,0.0,958.5,9.05,31.3,77,37.0,22.4,4,5,7,0,2026-04-09T00:51:41.826855+05:30
Bidar,Karnataka,17.9104,77.5199,28.4,36,0.0,935.2,9.05,34.2,85,96.2,44.7,4,5,7,0,2026-04-09T00:51:41.826861+05:30
Hospet,Karnataka,15.2689,76.3909,28.5,64,0.0,956.1,9.2,20.9,64,34.0,25.5,7,5,7,1,2026-04-09T00:51:41.826866+05:30
Tirupur,Tamil Nadu,11.1085,77.3411,26.6,74,0.0,976.9,9.45,36.7,59,24.0,20.8,7,5,7,1,2026-04-09T00:51:41.826872+05:30
Alappuzha,Kerala,9.4981,76.3388,30.0,71,0.0,1010.2,8.7,29.5,60,27.5,19.6,7,0,4,1,2026-04-09T00:51:41.826878+05:30
Munnar,Kerala,10.0889,77.0595,21.2,94,0.0,858.2,9.45,35.3,60,17.9,16.1,3,5,7,1,2026-04-09T00:51:41.826885+05:30
Silchar,Assam,24.8333,92.7789,22.9,77,0.0,1006.8,6.3,28.1,91,50.4,47.0,3,5,4,1,2026-04-09T00:51:41.826891+05:30
Dibrugarh,Assam,27.4728,94.912,21.6,86,0.0,998.8,5.05,26.3,68,33.9,29.2,3,5,3,1,2026-04-09T00:51:41.826897+05:30
