city,state,latitude,longitude,temp,humidity,rain,pressure,uv_index,wind_gusts,aqi,pm10,pm2_5,no2,co,o3,so2,mosquito_risk,arthritis_risk,migraine_risk,frizz_risk,updated_at
Delhi,Delhi,28.6139,77.209,27.7,87,0.0,977.1,6.95,37.1,101,33.8,33.6,30.4,543.0,65.0,22.7,7,5,7,1,2026-07-23T00:54:17.020516+05:30
Mumbai,Maharashtra,19.076,72.8777,26.8,86,0.5,1003.8,0.85,68.4,56,45.4,19.2,4.0,126.0,45.0,3.1,10,5,0,1,2026-07-23T00:54:17.020562+05:30
Bangalore,Karnataka,12.9716,77.5946,20.6,89,0.0,911.7,9.0,49.7,32,8.8,6.6,15.5,277.0,25.0,5.3,3,5,7,1,2026-07-23T00:54:17.020579+05:30
Hyderabad,Telangana,17.385,78.4867,23.2,89,0.0,950.9,7.8,59.4,37,8.4,5.9,9.0,197.0,33.0,4.7,3,5,7,1,2026-07-23T00:54:17.020589+05:30
Chennai,Tamil Nadu,13.0827,80.2707,26.9,92,0.0,1006.7,8.95,36.4,74,26.2,20.1,23.6,248.0,50.0,11.2,7,5,4,1,2026-07-23T00:54:17.020597+05:30
Kolkata,West Bengal,22.5726,88.3639,24.6,97,0.2,1002.4,1.2,33.8,56,21.1,17.7,11.5,276.0,56.0,7.4,6,5,0,1,2026-07-23T00:54:17.020604+05:30
Pune,Maharashtra,18.5204,73.8567,22.2,87,0.0,943.2,1.45,58.0,31,29.0,11.9,3.8,118.0,59.0,3.0,3,5,3,1,2026-07-23T00:54:17.020611+05:30
Ahmedabad,Gujarat,23.0225,72.5714,25.8,97,0.4,994.3,3.95,43.9,61,25.8,14.3,13.1,153.0,37.0,4.0,10,5,3,1,2026-07-23T00:54:17.020618+05:30
Jaipur,Rajasthan,26.9124,75.7873,25.4,97,0.0,952.5,7.3,30.6,56,31.3,21.4,20.4,359.0,62.0,7.0,7,5,7,1,2026-07-23T00:54:17.020624+05:30
Lucknow,Uttar Pradesh,26.8467,80.9462,26.4,93,0.0,987.6,4.2,50.0,74,13.9,13.9,8.6,313.0,82.0,5.9,7,5,3,1,2026-07-23T00:54:17.020634+05:30
Kanpur,Uttar Pradesh,26.4499,80.3319,26.9,87,0.0,985.4,7.6,47.9,74,15.5,15.5,9.2,315.0,84.0,6.1,7,5,7,1,2026-07-23T00:54:17.020640+05:30
Chandigarh,Chandigarh,30.7333,76.7794,26.9,83,0.0,963.8,7.6,36.7,88,44.6,43.9,50.3,756.0,21.0,9.1,7,5,7,1,2026-07-23T00:54:17.020647+05:30
Srinagar,Jammu and Kashmir,34.0837,74.7973,16.2,99,0.0,839.6,8.75,24.5,63,34.5,34.5,35.5,982.0,16.0,2.6,3,10,7,1,2026-07-23T00:54:17.020653+05:30
Jammu,Jammu and Kashmir,32.7266,74.857,25.1,90,0.0,968.0,7.75,32.4,68,56.8,55.6,73.9,485.0,4.0,9.4,7,5,7,1,2026-07-23T00:54:17.020659+05:30
Amritsar,Punjab,31.634,74.8723,26.6,85,0.0,975.4,5.7,29.5,82,44.0,43.2,29.7,678.0,27.0,6.6,7,5,3,1,2026-07-23T00:54:17.020665+05:30
Ludhiana,Punjab,30.901,75.8573,27.3,93,0.0,973.3,6.15,37.4,101,62.9,61.7,47.9,761.0,16.0,15.3,7,5,7,1,2026-07-23T00:54:17.020671+05:30
Jalandhar,Punjab,31.326,75.5762,26.8,97,0.0,974.4,6.9,32.8,102,45.4,44.6,36.3,907.0,22.0,7.4,7,5,7,1,2026-07-23T00:54:17.020680+05:30
Dehradun,Uttarakhand,30.6284,78.0322,16.5,98,0.0,827.0,7.75,24.1,33,14.1,13.9,27.3,193.0,33.0,0.7,3,10,7,1,2026-07-23T00:54:17.020686+05:30
Shimla,Himachal Pradesh,31.1048,77.1734,14.9,95,0.0,781.4,7.2,23.4,46,15.7,15.5,28.2,393.0,34.0,0.5,3,10,7,0,2026-07-23T00:54:17.020693+05:30
Manali,Himachal Pradesh,32.2396,77.1887,19.8,90,0.0,817.8,6.7,23.8,26,3.6,3.6,33.7,210.0,26.0,0.5,3,10,7,1,2026-07-23T00:54:17.020701+05:30
Gurgaon,Haryana,28.4595,77.0266,27.7,86,0.0,975.3,7.0,39.2,106,27.8,27.8,26.9,439.0,67.0,18.8,7,5,7,1,2026-07-23T00:54:17.020706+05:30
Noida,Uttar Pradesh,28.5355,77.391,27.6,87,0.0,978.6,6.95,37.8,106,27.8,27.8,26.9,494.0,67.0,18.8,7,5,7,1,2026-07-23T00:54:17.020712+05:30
Ghaziabad,Uttar Pradesh,28.6692,77.4538,27.5,85,0.0,977.0,7.55,40.7,88,27.6,27.5,15.5,349.0,75.0,9.0,7,5,7,1,2026-07-23T00:54:17.020718+05:30
Faridabad,Haryana,28.4089,77.3178,27.6,88,0.0,977.8,7.05,41.0,106,27.8,27.8,26.9,416.0,67.0,18.8,7,5,7,1,2026-07-23T00:54:17.020724+05:30
Meerut,Uttar Pradesh,28.9845,77.7064,27.9,83,0.0,976.1,7.5,43.2,88,27.6,27.5,15.5,330.0,75.0,9.0,7,5,7,1,2026-07-23T00:54:17.020730+05:30
Agra,Uttar Pradesh,27.1767,78.0081,28.3,79,0.0,981.0,7.15,39.6,72,20.1,20.1,17.5,316.0,70.0,8.1,7,5,7,1,2026-07-23T00:54:17.020736+05:30
Varanasi,Uttar Pradesh,25.3176,82.9739,26.2,95,0.0,991.5,6.25,35.3,64,18.9,18.9,20.8,340.0,45.0,16.6,7,5,7,1,2026-07-23T00:54:17.020742+05:30
Prayagraj,Uttar Pradesh,25.4358,81.8463,26.1,95,0.0,989.1,7.3,34.2,68,17.1,17.1,12.9,415.0,77.0,10.5,7,5,7,1,2026-07-23T00:54:17.020748+05:30
Gorakhpur,Uttar Pradesh,26.7606,83.3732,27.3,86,0.0,992.5,4.6,47.9,70,16.0,15.9,10.2,329.0,71.0,6.1,7,5,3,1,2026-07-23T00:54:17.020754+05:30
Bareilly,Uttar Pradesh,28.367,79.4304,28.1,78,0.0,981.6,5.4,49.3,76,18.5,18.4,12.1,278.0,67.0,6.0,7,5,3,1,2026-07-23T00:54:17.020762+05:30
Aligarh,Uttar Pradesh,27.8974,78.088,27.5,87,0.0,979.4,7.1,43.6,82,18.1,18.0,15.1,323.0,75.0,15.5,7,5,7,1,2026-07-23T00:54:17.020768+05:30
Moradabad,Uttar Pradesh,28.8386,78.7733,28.4,79,0.0,978.4,7.35,49.0,75,21.9,21.8,13.1,286.0,69.0,6.8,7,5,7,1,2026-07-23T00:54:17.020774+05:30
Saharanpur,Uttar Pradesh,29.9637,77.546,27.7,83,0.0,970.8,7.3,41.0,81,35.9,35.6,28.4,474.0,34.0,8.9,7,5,7,1,2026-07-23T00:54:17.020780+05:30
Jhansi,Uttar Pradesh,25.4484,78.5685,25.7,96,0.0,970.5,7.45,28.4,57,14.7,14.6,13.5,318.0,70.0,5.4,7,5,7,1,2026-07-23T00:54:20.286974+05:30
Surat,Gujarat,21.1702,72.8311,25.7,96,0.0,999.3,1.55,50.8,74,18.8,13.5,20.8,326.0,23.0,30.1,7,5,3,1,2026-07-23T00:54:20.287011+05:30
Vadodara,Gujarat,22.3072,73.1812,25.7,98,0.1,996.8,1.05,42.8,63,18.4,11.9,13.2,232.0,46.0,5.1,10,5,3,1,2026-07-23T00:54:20.287023+05:30
Rajkot,Gujarat,22.3039,70.8022,26.9,86,0.0,986.9,1.7,56.5,60,21.9,11.4,5.8,101.0,38.0,5.4,7,5,3,1,2026-07-23T00:54:20.287032+05:30
Thane,Maharashtra,19.2183,72.9781,25.0,94,0.4,1003.3,0.55,45.0,56,45.4,19.2,4.0,141.0,45.0,3.1,10,5,0,1,2026-07-23T00:54:20.287040+05:30
Nagpur,Maharashtra,21.1458,79.0882,24.3,92,0.0,967.9,5.4,55.1,30,5.0,4.4,10.7,183.0,37.0,10.5,3,5,3,1,2026-07-23T00:54:20.287048+05:30
Nashik,Maharashtra,19.9975,73.7898,22.3,96,0.4,939.4,1.35,63.7,17,0.7,0.7,7.2,120.0,35.0,5.3,6,5,3,1,2026-07-23T00:54:20.287055+05:30
Aurangabad,Maharashtra,19.8762,75.3433,22.2,93,0.2,938.6,3.65,66.6,20,2.5,1.9,5.1,139.0,39.0,3.3,6,5,3,1,2026-07-23T00:54:20.287062+05:30
Solapur,Maharashtra,17.6599,75.9064,24.1,81,0.0,954.4,5.3,64.1,25,20.0,8.8,4.8,123.0,44.0,2.3,3,5,3,1,2026-07-23T00:54:20.287069+05:30
Kolhapur,Maharashtra,16.705,74.2433,22.2,94,0.0,945.7,5.55,54.4,24,11.2,5.6,3.8,118.0,42.0,1.8,3,5,3,1,2026-07-23T00:54:20.287077+05:30
Goa,Goa,15.2993,74.124,23.7,98,0.2,998.0,3.95,43.2,56,24.2,13.4,2.8,291.0,37.0,0.8,6,5,3,1,2026-07-23T00:54:20.287085+05:30
Jodhpur,Rajasthan,26.2389,73.0243,25.7,99,0.1,974.7,8.15,31.3,86,64.3,23.9,11.3,207.0,63.0,2.0,10,5,7,1,2026-07-23T00:54:20.287092+05:30
Udaipur,Rajasthan,24.5854,73.7125,23.8,97,1.0,938.1,8.65,27.7,53,13.9,6.9,5.3,169.0,65.0,2.3,6,5,7,1,2026-07-23T00:54:20.287098+05:30
Kota,Rajasthan,25.2138,75.8648,25.5,96,0.1,970.6,7.8,28.4,49,13.2,12.6,13.8,298.0,72.0,7.1,10,5,7,1,2026-07-23T00:54:20.287105+05:30
Bikaner,Rajasthan,28.0229,73.3119,27.3,93,0.1,974.4,7.15,27.0,74,12.0,11.9,5.1,297.0,101.0,4.2,10,5,7,1,2026-07-23T00:54:20.287111+05:30
Ajmer,Rajasthan,26.4499,74.6399,25.1,95,0.1,947.0,7.35,32.8,55,12.6,12.1,15.0,274.0,71.0,3.1,10,5,7,1,2026-07-23T00:54:20.287118+05:30
Gwalior,Madhya Pradesh,26.2183,78.1828,26.5,90,0.0,975.9,6.15,28.4,56,21.7,16.4,10.3,293.0,88.0,6.1,7,5,7,1,2026-07-23T00:54:20.287124+05:30
Indore,Madhya Pradesh,22.7196,75.8577,23.4,97,0.2,940.5,2.1,52.9,45,15.6,13.7,13.3,236.0,46.0,7.3,6,5,3,1,2026-07-23T00:54:20.287130+05:30
Bhopal,Madhya Pradesh,23.2599,77.4126,24.0,96,0.1,945.9,5.1,33.8,37,6.4,6.2,7.4,225.0,61.0,2.6,6,5,3,1,2026-07-23T00:54:20.287137+05:30
Jabalpur,Madhya Pradesh,23.1815,79.9864,24.3,97,0.1,954.6,1.15,36.7,29,6.5,6.3,8.1,175.0,50.0,5.1,6,5,3,1,2026-07-23T00:54:20.287143+05:30
Ujjain,Madhya Pradesh,23.1765,75.7885,23.3,97,0.1,946.1,2.65,43.9,43,14.6,12.9,9.4,247.0,51.0,6.2,6,5,3,1,2026-07-23T00:54:20.287149+05:30
Visakhapatnam,Andhra Pradesh,17.6868,83.2185,27.5,82,0.0,1000.8,8.1,41.8,64,20.0,15.9,18.1,274.0,46.0,28.8,7,5,4,1,2026-07-23T00:54:20.287156+05:30
Vijayawada,Andhra Pradesh,16.5062,80.648,28.3,70,0.0,1001.2,7.45,38.2,56,18.7,11.1,8.4,184.0,40.0,6.2,7,5,4,1,2026-07-23T00:54:20.287162+05:30
Guntur,Andhra Pradesh,16.3067,80.4365,28.4,68,0.0,1002.6,8.2,43.6,52,24.8,12.5,8.1,184.0,39.0,6.3,7,5,4,1,2026-07-23T00:54:20.287169+05:30
Nellore,Andhra Pradesh,14.4426,79.9865,27.6,74,0.0,1005.1,8.95,38.2,63,19.0,12.3,12.0,186.0,36.0,4.1,7,5,4,1,2026-07-23T00:54:20.287176+05:30
Kurnool,Andhra Pradesh,15.8281,78.0373,26.4,68,0.0,976.3,8.75,48.2,34,6.1,4.4,8.7,124.0,31.0,4.2,7,5,7,1,2026-07-23T00:54:20.287183+05:30
Kakinada,Andhra Pradesh,16.9891,82.2475,27.5,79,0.0,1005.4,8.3,48.2,62,21.8,16.1,8.1,265.0,64.0,5.6,7,5,4,1,2026-07-23T00:54:20.287189+05:30
Tirupati,Andhra Pradesh,13.6288,79.4192,25.3,96,0.0,990.9,8.65,35.3,61,19.3,15.5,22.6,310.0,18.0,3.0,7,5,7,1,2026-07-23T00:54:20.287195+05:30
Warangal,Telangana,17.9689,79.5941,24.1,92,0.1,976.4,7.35,47.5,48,12.3,9.8,11.2,218.0,38.0,4.3,6,5,7,1,2026-07-23T00:54:20.287201+05:30
Nizamabad,Telangana,18.6725,78.0941,23.3,91,0.1,961.3,3.5,62.6,35,18.5,8.8,5.7,147.0,40.0,2.8,6,5,3,1,2026-07-23T00:54:20.287207+05:30
Mysore,Karnataka,12.2958,76.6396,21.0,95,0.0,928.9,8.7,50.4,24,7.8,5.5,9.7,141.0,28.0,2.4,3,5,7,1,2026-07-23T00:54:20.287213+05:30
Mangalore,Karnataka,12.9141,74.856,24.2,98,0.1,1008.0,8.8,44.3,47,18.2,10.9,9.3,330.0,28.0,2.8,6,0,4,1,2026-07-23T00:54:20.287218+05:30
Hubli-Dharwad,Karnataka,15.3647,75.124,21.6,97,0.1,939.7,5.2,55.8,18,2.3,1.5,3.6,111.0,36.0,1.0,6,5,3,1,2026-07-23T00:54:20.287225+05:30
Belgaum,Karnataka,15.8497,74.4977,20.8,98,0.0,923.8,5.9,50.4,18,4.2,2.6,3.0,100.0,38.0,1.2,3,5,3,1,2026-07-23T00:54:23.555423+05:30
Coimbatore,Tamil Nadu,11.0168,76.9558,23.1,93,0.0,962.2,8.95,51.5,34,8.5,6.8,10.6,211.0,24.0,3.6,3,5,7,1,2026-07-23T00:54:23.555459+05:30
Madurai,Tamil Nadu,9.9252,78.1198,28.8,74,0.0,993.2,8.7,29.9,72,20.6,14.8,13.8,437.0,51.0,5.8,7,5,7,1,2026-07-23T00:54:23.555470+05:30
Trichy,Tamil Nadu,10.7905,78.7047,28.0,79,0.0,1000.0,8.1,45.4,56,29.8,24.3,22.7,146.0,32.0,6.0,7,5,4,1,2026-07-23T00:54:23.555478+05:30
Salem,Tamil Nadu,11.6643,78.146,26.7,79,0.0,977.8,8.9,27.7,63,22.1,18.3,28.0,369.0,22.0,12.4,7,5,7,1,2026-07-23T00:54:23.555486+05:30
Tirunelveli,Tamil Nadu,8.7139,77.7567,28.5,70,0.0,1003.9,7.9,49.0,42,8.5,7.2,8.5,150.0,34.0,2.8,7,5,4,1,2026-07-23T00:54:23.555493+05:30
Vellore,Tamil Nadu,12.9165,79.1325,26.2,96,0.0,984.4,8.75,39.2,62,13.0,11.2,18.5,210.0,24.0,4.6,7,5,7,1,2026-07-23T00:54:23.555501+05:30
Erode,Tamil Nadu,11.341,77.7172,26.8,74,0.0,989.5,8.8,39.6,53,14.1,12.0,18.7,192.0,24.0,4.7,7,5,7,1,2026-07-23T00:54:23.555508+05:30
Kochi,Kerala,9.9312,76.2673,25.5,94,0.0,1010.3,7.75,27.7,60,22.2,20.3,26.1,205.0,7.0,7.2,7,0,4,1,2026-07-23T00:54:23.555516+05:30
Thiruvananthapuram,Kerala,8.5241,76.9366,25.3,92,0.0,1009.9,7.0,40.3,48,9.4,6.2,4.4,175.0,40.0,2.2,7,0,4,1,2026-07-23T00:54:23.555523+05:30
Kozhikode,Kerala,11.2588,75.7804,25.0,91,0.0,1009.4,8.5,36.0,33,11.1,6.6,3.4,396.0,41.0,1.8,7,0,4,1,2026-07-23T00:54:23.555529+05:30
Thrissur,Kerala,10.5276,76.2144,23.6,100,0.0,1008.7,8.65,32.8,59,24.2,22.0,22.0,424.0,10.0,6.1,3,0,4,1,2026-07-23T00:54:23.555536+05:30
Kannur,Kerala,11.8745,75.3704,24.4,94,0.1,1008.6,8.5,34.2,41,16.6,12.9,16.8,271.0,15.0,3.4,6,0,4,1,2026-07-23T00:54:23.555543+05:30
Patna,Bihar,25.5941,85.1376,25.9,94,0.0,995.8,7.1,36.7,58,17.6,17.6,13.6,257.0,68.0,11.0,7,5,7,1,2026-07-23T00:54:23.555550+05:30
Gaya,Bihar,24.7914,85.0002,26.3,91,0.0,988.5,7.6,23.4,52,12.6,12.6,20.9,362.0,30.0,16.8,7,5,7,1,2026-07-23T00:54:23.555556+05:30
Muzaffarpur,Bihar,26.1209,85.3647,25.8,93,0.0,996.4,6.7,45.0,62,15.4,15.4,11.3,285.0,68.0,7.6,7,5,7,1,2026-07-23T00:54:23.555563+05:30
Bhagalpur,Bihar,25.2425,87.0117,25.8,95,0.0,997.5,7.4,35.6,57,15.7,15.7,14.7,241.0,57.0,11.5,7,5,7,1,2026-07-23T00:54:23.555570+05:30
Ranchi,Jharkhand,23.3441,85.3096,22.3,97,0.0,932.6,5.8,38.9,33,3.6,3.4,8.1,187.0,42.0,7.5,3,5,3,1,2026-07-23T00:54:23.555577+05:30
Jamshedpur,Jharkhand,22.8046,86.2029,25.0,94,0.0,986.8,8.35,35.6,61,19.2,18.7,25.5,327.0,30.0,23.9,7,5,7,1,2026-07-23T00:54:23.555584+05:30
Dhanbad,Jharkhand,23.7957,86.4304,25.1,97,0.0,975.4,6.4,32.0,80,32.8,32.1,48.6,1294.0,9.0,106.5,7,5,7,1,2026-07-23T00:54:23.555591+05:30
Bokaro,Jharkhand,23.6693,86.1511,25.5,91,0.0,979.2,6.85,36.4,76,21.7,21.2,28.9,422.0,25.0,72.0,7,5,7,1,2026-07-23T00:54:23.555599+05:30
Bhubaneswar,Odisha,20.2961,85.8245,26.8,94,0.0,999.0,8.65,41.8,62,22.1,18.9,9.4,221.0,76.0,9.3,7,5,7,1,2026-07-23T00:54:23.555606+05:30
Cuttack,Odisha,20.4625,85.8828,27.0,94,0.1,1000.7,8.45,42.1,62,22.1,18.9,9.4,260.0,76.0,9.3,10,5,4,1,2026-07-23T00:54:23.555613+05:30
Rourkela,Odisha,22.2604,84.8536,24.2,94,0.1,980.6,4.25,47.9,44,7.2,6.3,6.8,204.0,45.0,3.5,6,5,3,1,2026-07-23T00:54:23.555621+05:30
Raipur,Chhattisgarh,21.2514,81.6296,25.0,86,0.0,970.0,2.55,56.9,54,9.7,8.4,14.0,212.0,40.0,21.0,7,5,3,1,2026-07-23T00:54:23.555628+05:30
Bhilai,Chhattisgarh,21.1938,81.3509,24.8,87,0.0,970.5,4.25,58.7,52,8.5,7.6,13.5,312.0,39.0,20.3,3,5,3,1,2026-07-23T00:54:23.555635+05:30
Guwahati,Assam,26.1158,91.7086,25.7,97,0.0,998.9,7.1,22.3,42,8.9,8.7,9.4,222.0,37.0,1.9,7,5,7,1,2026-07-23T00:54:23.555642+05:30
Agartala,Tripura,23.8315,91.2868,24.9,96,0.0,1003.9,7.8,35.3,37,7.8,7.5,9.2,176.0,55.0,1.8,3,5,4,1,2026-07-23T00:54:23.555648+05:30
Shillong,Meghalaya,25.5788,91.8933,19.7,94,0.1,856.0,4.75,25.2,25,2.6,2.4,5.3,207.0,47.0,1.7,6,10,3,1,2026-07-23T00:54:23.555656+05:30
Imphal,Manipur,24.817,93.9368,21.4,98,0.0,921.8,7.25,23.8,44,16.5,16.1,17.4,348.0,16.0,2.7,3,5,7,1,2026-07-23T00:54:23.555663+05:30
Aizawl,Mizoram,23.7271,92.7176,19.5,96,0.0,890.8,8.45,36.0,22,1.6,1.4,2.8,133.0,48.0,0.5,3,10,7,1,2026-07-23T00:54:23.555670+05:30
Kohima,Nagaland,25.6701,94.1077,19.3,100,0.2,854.4,5.9,20.9,26,5.8,5.7,10.3,225.0,21.0,0.7,6,10,3,1,2026-07-23T00:54:23.555676+05:30
Gangtok,Sikkim,27.3314,88.6138,18.0,94,0.1,836.9,7.3,31.3,36,3.9,3.7,5.6,235.0,79.0,1.2,6,10,7,1,2026-07-23T00:54:23.555684+05:30
Siliguri,West Bengal,26.7271,88.3953,24.4,96,0.2,990.8,8.45,30.6,54,13.1,12.7,14.1,216.0,64.0,3.6,6,5,7,1,2026-07-23T00:54:26.813051+05:30
Durgapur,West Bengal,23.5204,87.3119,25.7,97,0.1,991.1,7.55,31.3,71,28.4,27.6,34.7,389.0,24.0,38.2,10,5,7,1,2026-07-23T00:54:26.813086+05:30
Asansol,West Bengal,23.6739,86.9524,25.6,95,0.2,989.4,6.55,29.9,66,21.9,21.4,38.2,509.0,19.0,46.7,10,5,7,1,2026-07-23T00:54:26.813098+05:30
Pondicherry,Puducherry,11.9139,79.8145,28.7,74,0.0,1008.2,8.1,40.3,69,35.5,26.5,22.5,230.0,50.0,9.7,7,0,4,1,2026-07-23T00:54:26.813106+05:30
Port Blair,Andaman and Nicobar Islands,11.6234,92.7265,27.5,83,0.0,1007.6,8.7,38.5,48,15.4,9.0,0.2,92.0,45.0,0.5,7,5,4,1,2026-07-23T00:54:26.813114+05:30
Haridwar,Uttarakhand,29.9457,78.1642,26.3,94,0.0,969.1,7.3,30.6,74,25.8,25.6,20.2,313.0,40.0,5.8,7,5,7,1,2026-07-23T00:54:26.813122+05:30
Rishikesh,Uttarakhand,30.0869,78.2676,24.7,95,0.0,961.9,7.3,24.5,56,15.5,15.3,11.1,446.0,63.0,3.4,3,5,7,1,2026-07-23T00:54:26.813129+05:30
Nainital,Uttarakhand,29.3919,79.4542,15.8,92,0.0,802.7,6.75,42.8,56,14.1,13.9,10.2,237.0,61.0,2.1,3,10,7,0,2026-07-23T00:54:26.813137+05:30
Mussoorie,Uttarakhand,30.4599,78.0664,15.8,99,0.0,800.2,7.0,27.4,56,27.0,26.9,43.4,336.0,16.0,5.9,3,10,7,0,2026-07-23T00:54:26.813144+05:30
Dharamshala,Himachal Pradesh,32.219,76.3234,21.8,81,0.0,866.7,7.6,25.9,34,8.5,8.2,19.4,369.0,40.0,1.0,3,5,7,1,2026-07-23T00:54:26.813151+05:30
Dalhousie,Himachal Pradesh,32.5387,75.971,16.4,98,0.0,802.5,1.4,20.5,63,22.9,22.5,25.6,424.0,69.0,3.1,3,10,3,1,2026-07-23T00:54:26.813159+05:30
Patiala,Punjab,30.3398,76.3869,28.0,84,0.0,972.8,7.5,41.0,92,65.2,52.4,38.7,459.0,33.0,10.3,7,5,7,1,2026-07-23T00:54:26.813166+05:30
Bhatinda,Punjab,30.211,74.9455,27.8,94,0.1,977.9,6.9,28.1,91,55.6,55.3,25.2,440.0,54.0,10.3,10,5,7,1,2026-07-23T00:54:26.813172+05:30
Rohtak,Haryana,28.8955,76.6066,28.0,87,0.0,975.7,6.55,37.8,111,34.6,34.5,35.1,522.0,58.0,26.6,7,5,7,1,2026-07-23T00:54:26.813178+05:30
Panipat,Haryana,29.3909,76.9635,28.4,82,0.0,974.8,7.3,39.2,101,37.5,37.5,24.1,395.0,64.0,13.9,7,5,7,1,2026-07-23T00:54:26.813185+05:30
Mathura,Uttar Pradesh,27.4924,77.6737,28.0,84,0.0,980.1,7.05,37.1,85,21.2,21.2,17.9,331.0,71.0,8.0,7,5,7,1,2026-07-23T00:54:26.813191+05:30
Vrindavan,Uttar Pradesh,27.5823,77.7027,28.0,83,0.0,980.7,7.1,36.4,85,21.2,21.2,17.9,341.0,71.0,8.0,7,5,7,1,2026-07-23T00:54:26.813198+05:30
Ayodhya,Uttar Pradesh,26.7922,82.1998,26.7,91,0.0,990.0,6.85,45.4,71,16.2,16.2,9.2,331.0,78.0,5.6,7,5,7,1,2026-07-23T00:54:26.813204+05:30
Ratlam,Madhya Pradesh,23.3315,75.0367,23.3,98,0.2,946.9,2.65,46.4,43,15.0,12.8,9.3,178.0,51.0,7.2,6,5,3,1,2026-07-23T00:54:26.813212+05:30
Sagar,Madhya Pradesh,23.8388,78.7378,23.8,97,0.0,942.4,2.15,35.6,34,5.4,5.4,6.9,200.0,64.0,1.4,3,5,3,1,2026-07-23T00:54:26.813218+05:30
Satna,Madhya Pradesh,24.6005,80.8322,25.2,98,0.0,963.9,3.95,36.7,57,14.0,13.9,10.3,281.0,72.0,7.5,7,5,3,1,2026-07-23T00:54:26.813225+05:30
Akola,Maharashtra,20.7002,77.0082,24.7,88,0.0,969.2,1.9,61.6,21,4.1,3.9,8.3,144.0,34.0,4.8,3,5,3,1,2026-07-23T00:54:26.813233+05:30
Amravati,Maharashtra,20.9374,77.7796,24.4,88,0.1,961.6,3.55,60.1,21,5.5,4.6,8.4,142.0,36.0,5.3,6,5,3,1,2026-07-23T00:54:26.813240+05:30
Latur,Maharashtra,18.4088,76.5604,23.3,73,0.0,936.2,6.25,60.5,28,35.9,15.3,4.4,133.0,49.0,1.9,3,5,7,1,2026-07-23T00:54:26.813248+05:30
Nanded,Maharashtra,19.1383,77.3091,23.5,87,0.0,964.7,1.85,52.2,34,36.1,16.6,5.4,150.0,48.0,3.6,3,5,3,1,2026-07-23T00:54:26.813254+05:30
Gulbarga,Karnataka,17.3297,76.8343,24.0,80,0.0,956.3,4.25,71.3,28,9.4,5.0,6.7,136.0,36.0,2.8,3,5,3,1,2026-07-23T00:54:26.813260+05:30
Bidar,Karnataka,17.9104,77.5199,22.3,92,0.0,932.5,6.4,67.0,29,6.0,4.0,7.4,132.0,33.0,2.7,3,5,7,1,2026-07-23T00:54:26.813267+05:30
Hospet,Karnataka,15.2689,76.3909,23.5,85,0.0,955.3,6.2,56.2,19,3.7,2.4,4.9,120.0,34.0,1.6,3,5,7,1,2026-07-23T00:54:26.813273+05:30
Tirupur,Tamil Nadu,11.1085,77.3411,24.6,86,0.0,975.9,8.9,52.9,55,16.5,14.3,21.8,183.0,21.0,6.0,3,5,7,1,2026-07-23T00:54:26.813279+05:30
Alappuzha,Kerala,9.4981,76.3388,25.8,96,0.0,1010.4,8.3,29.5,57,15.5,12.1,14.2,141.0,30.0,5.0,7,0,4,1,2026-07-23T00:54:26.813286+05:30
Munnar,Kerala,10.0889,77.0595,16.5,97,0.0,857.3,7.55,36.7,40,8.4,7.3,10.0,102.0,21.0,1.8,3,10,7,0,2026-07-23T00:54:26.813293+05:30
Silchar,Assam,24.8333,92.7789,25.3,97,0.1,1003.6,7.0,32.0,53,15.6,14.4,8.1,192.0,57.0,5.5,10,5,4,1,2026-07-23T00:54:26.813299+05:30
Dibrugarh,Assam,27.4728,94.912,25.9,96,0.1,993.0,8.25,24.5,46,4.3,4.2,5.4,231.0,73.0,1.1,10,5,7,1,2026-07-23T00:54:26.813305+05:30
