city,state,latitude,longitude,temp,humidity,rain,pressure,uv_index,wind_gusts,aqi,pm10,pm2_5,no2,co,o3,so2,mosquito_risk,arthritis_risk,migraine_risk,frizz_risk,updated_at
Delhi,Delhi,28.6139,77.209,37.8,18,0.0,976.6,7.7,42.5,175,450.8,97.3,13.5,365.0,129.0,12.1,0,5,10,0,2026-05-15T18:25:37.858816+05:30
Mumbai,Maharashtra,19.076,72.8777,30.8,70,0.0,1003.8,6.75,42.1,66,22.2,15.7,8.1,217.0,63.0,4.4,3,5,4,1,2026-05-15T18:25:37.858855+05:30
Bangalore,Karnataka,12.9716,77.5946,29.7,44,0.0,907.8,9.0,41.0,113,55.3,33.5,35.1,479.0,84.0,9.3,4,5,7,0,2026-05-15T18:25:37.858871+05:30
Hyderabad,Telangana,17.385,78.4867,35.9,31,0.0,948.2,8.85,28.1,131,75.2,42.5,6.0,335.0,145.0,5.8,0,5,10,0,2026-05-15T18:25:37.858882+05:30
Chennai,Tamil Nadu,13.0827,80.2707,27.8,84,0.0,1001.1,6.25,37.8,38,9.0,6.1,6.0,212.0,48.0,7.2,7,5,4,1,2026-05-15T18:25:37.858890+05:30
Kolkata,West Bengal,22.5726,88.3639,28.1,86,0.2,1001.3,8.8,36.4,52,21.8,13.7,5.2,315.0,62.0,5.2,10,5,4,1,2026-05-15T18:25:37.858899+05:30
Pune,Maharashtra,18.5204,73.8567,32.0,45,0.0,944.4,8.45,44.3,108,28.0,18.6,3.8,255.0,158.0,10.2,0,5,7,1,2026-05-15T18:25:37.858906+05:30
Ahmedabad,Gujarat,23.0225,72.5714,39.0,18,0.0,995.1,8.15,34.2,45,39.7,12.2,2.2,155.0,97.0,1.9,0,5,10,0,2026-05-15T18:25:37.858913+05:30
Jaipur,Rajasthan,26.9124,75.7873,37.8,19,0.0,953.9,8.25,38.2,128,165.8,37.6,2.3,194.0,121.0,3.9,0,5,10,0,2026-05-15T18:25:37.858924+05:30
Lucknow,Uttar Pradesh,26.8467,80.9462,33.8,51,0.0,987.0,8.2,46.4,159,114.6,45.3,6.8,315.0,136.0,9.7,0,5,7,1,2026-05-15T18:25:37.858931+05:30
Kanpur,Uttar Pradesh,26.4499,80.3319,35.5,36,0.0,985.3,8.2,54.7,162,244.0,58.3,4.1,267.0,138.0,9.0,0,5,10,1,2026-05-15T18:25:37.858937+05:30
Chandigarh,Chandigarh,30.7333,76.7794,31.0,36,0.0,963.5,7.7,38.5,131,30.5,19.1,4.1,344.0,145.0,7.2,0,5,7,0,2026-05-15T18:25:37.858944+05:30
Srinagar,Jammu and Kashmir,34.0837,74.7973,19.6,58,0.0,840.6,8.45,24.5,76,18.5,11.5,6.0,385.0,104.0,2.0,0,5,7,0,2026-05-15T18:25:37.858963+05:30
Jammu,Jammu and Kashmir,32.7266,74.857,29.2,43,0.0,968.3,8.45,28.4,96,35.3,22.4,5.8,292.0,131.0,3.5,4,5,7,0,2026-05-15T18:25:37.858970+05:30
Amritsar,Punjab,31.634,74.8723,31.5,37,0.0,976.2,8.35,33.5,143,58.6,34.5,5.0,292.0,147.0,8.3,0,5,7,0,2026-05-15T18:25:37.858977+05:30
Ludhiana,Punjab,30.901,75.8573,31.5,38,0.0,973.4,7.95,49.3,117,53.3,26.0,2.8,340.0,136.0,2.6,0,5,7,0,2026-05-15T18:25:37.858986+05:30
Jalandhar,Punjab,31.326,75.5762,32.1,39,0.0,974.6,8.15,45.4,139,74.3,30.7,4.2,347.0,141.0,5.4,0,5,7,1,2026-05-15T18:25:37.858992+05:30
Dehradun,Uttarakhand,30.6284,78.0322,19.6,61,0.0,827.5,7.6,45.4,99,29.9,15.6,6.6,233.0,117.0,1.4,3,5,7,0,2026-05-15T18:25:37.858999+05:30
Shimla,Himachal Pradesh,31.1048,77.1734,17.2,45,0.0,782.6,7.75,38.9,105,37.5,17.9,1.8,194.0,143.0,4.6,0,5,7,0,2026-05-15T18:25:37.859007+05:30
Manali,Himachal Pradesh,32.2396,77.1887,13.8,77,0.0,815.2,9.8,42.8,103,14.0,7.1,4.0,160.0,133.0,0.5,3,5,7,0,2026-05-15T18:25:37.859013+05:30
Gurgaon,Haryana,28.4595,77.0266,35.5,23,0.0,975.2,7.8,44.3,584,925.7,137.4,11.5,456.0,146.0,11.8,0,5,10,0,2026-05-15T18:25:37.859019+05:30
Noida,Uttar Pradesh,28.5355,77.391,34.6,29,0.0,977.7,7.7,36.4,584,925.7,137.4,11.5,429.0,146.0,11.8,0,5,7,0,2026-05-15T18:25:37.859026+05:30
Ghaziabad,Uttar Pradesh,28.6692,77.4538,33.2,33,0.0,976.2,7.7,40.7,184,373.5,94.8,8.8,281.0,153.0,16.3,0,5,7,0,2026-05-15T18:25:37.859032+05:30
Faridabad,Haryana,28.4089,77.3178,37.2,18,0.0,977.1,7.75,44.6,584,925.7,137.4,11.5,312.0,146.0,11.8,0,5,10,0,2026-05-15T18:25:37.859038+05:30
Meerut,Uttar Pradesh,28.9845,77.7064,33.7,35,0.0,975.3,7.6,58.7,184,373.5,94.8,8.8,253.0,153.0,16.3,0,5,7,0,2026-05-15T18:25:37.859044+05:30
Agra,Uttar Pradesh,27.1767,78.0081,37.2,23,0.0,980.9,8.05,37.1,465,834.5,125.3,7.9,274.0,124.0,6.9,0,5,10,0,2026-05-15T18:25:37.859051+05:30
Varanasi,Uttar Pradesh,25.3176,82.9739,36.0,37,0.0,990.6,8.7,46.8,175,113.9,43.0,5.0,365.0,165.0,11.6,0,5,10,1,2026-05-15T18:25:37.859057+05:30
Prayagraj,Uttar Pradesh,25.4358,81.8463,32.3,50,0.1,989.4,8.6,45.4,176,109.2,45.4,5.4,326.0,161.0,13.5,3,5,7,1,2026-05-15T18:25:37.859064+05:30
Gorakhpur,Uttar Pradesh,26.7606,83.3732,32.1,59,0.0,990.1,8.6,27.7,171,84.1,47.6,4.5,472.0,174.0,10.6,0,5,7,1,2026-05-15T18:25:37.859072+05:30
Bareilly,Uttar Pradesh,28.367,79.4304,30.9,60,0.0,980.3,8.0,27.4,162,66.6,40.7,5.5,317.0,149.0,10.4,0,5,7,1,2026-05-15T18:25:37.859079+05:30
Aligarh,Uttar Pradesh,27.8974,78.088,34.5,36,0.0,978.5,7.85,37.1,321,583.0,105.7,6.7,271.0,174.0,15.8,0,5,7,1,2026-05-15T18:25:37.859085+05:30
Moradabad,Uttar Pradesh,28.8386,78.7733,32.5,39,0.0,977.3,7.8,35.3,169,96.6,49.2,8.9,335.0,136.0,10.9,0,5,7,1,2026-05-15T18:25:37.859091+05:30
Saharanpur,Uttar Pradesh,29.9637,77.546,30.9,38,0.0,969.7,7.35,32.8,154,90.1,39.5,11.1,374.0,119.0,10.2,0,5,7,0,2026-05-15T18:25:37.859097+05:30
Jhansi,Uttar Pradesh,25.4484,78.5685,37.0,28,0.0,971.4,8.5,32.0,116,95.7,34.3,2.1,192.0,117.0,6.2,0,5,10,0,2026-05-15T18:25:41.158856+05:30
Surat,Gujarat,21.1702,72.8311,31.9,66,0.0,1001.0,7.55,41.4,86,25.3,21.1,22.3,292.0,50.0,48.7,3,5,4,1,2026-05-15T18:25:41.158886+05:30
Vadodara,Gujarat,22.3072,73.1812,39.5,21,0.0,996.9,8.1,39.2,59,15.4,8.9,3.0,162.0,119.0,5.2,0,5,10,0,2026-05-15T18:25:41.158895+05:30
Rajkot,Gujarat,22.3039,70.8022,34.5,47,0.0,988.5,7.75,46.8,47,38.3,14.9,1.5,123.0,99.0,4.3,0,5,7,1,2026-05-15T18:25:41.158903+05:30
Thane,Maharashtra,19.2183,72.9781,31.8,62,0.0,1003.1,6.65,39.6,66,22.2,15.7,8.1,189.0,63.0,4.4,3,5,4,1,2026-05-15T18:25:41.158911+05:30
Nagpur,Maharashtra,21.1458,79.0882,41.4,15,0.0,965.7,8.95,48.6,117,49.2,24.3,6.4,192.0,130.0,14.1,0,5,10,0,2026-05-15T18:25:41.158919+05:30
Nashik,Maharashtra,19.9975,73.7898,32.7,26,0.0,941.8,7.85,48.2,59,13.3,8.3,1.7,167.0,99.0,0.9,0,5,7,0,2026-05-15T18:25:41.158926+05:30
Aurangabad,Maharashtra,19.8762,75.3433,37.5,17,0.0,939.3,9.0,37.8,81,23.1,14.1,1.7,176.0,133.0,3.5,0,5,10,0,2026-05-15T18:25:41.158933+05:30
Solapur,Maharashtra,17.6599,75.9064,36.1,27,0.0,951.4,9.0,36.4,110,47.7,24.7,2.2,171.0,141.0,5.8,0,5,10,0,2026-05-15T18:25:41.158941+05:30
Kolhapur,Maharashtra,16.705,74.2433,31.4,49,0.0,943.2,5.4,41.4,92,36.0,20.4,3.5,187.0,139.0,5.2,0,5,3,1,2026-05-15T18:25:41.158948+05:30
Goa,Goa,15.2993,74.124,31.1,75,0.0,992.3,5.5,35.3,72,24.9,17.6,1.7,171.0,81.0,1.0,3,5,3,1,2026-05-15T18:25:41.158956+05:30
Jodhpur,Rajasthan,26.2389,73.0243,37.7,17,0.0,976.2,8.4,36.7,136,252.4,37.1,1.3,130.0,106.0,1.4,0,5,10,0,2026-05-15T18:25:41.158963+05:30
Udaipur,Rajasthan,24.5854,73.7125,34.6,16,0.0,941.0,8.85,39.2,53,31.0,10.5,0.8,126.0,111.0,1.5,0,5,7,0,2026-05-15T18:25:41.158971+05:30
Kota,Rajasthan,25.2138,75.8648,39.5,15,0.0,971.4,8.4,37.4,82,102.0,26.3,1.8,146.0,121.0,5.1,0,5,10,0,2026-05-15T18:25:41.158979+05:30
Bikaner,Rajasthan,28.0229,73.3119,37.7,22,0.0,975.6,8.35,24.8,89,102.4,31.4,0.6,153.0,109.0,2.3,0,5,10,0,2026-05-15T18:25:41.158986+05:30
Ajmer,Rajasthan,26.4499,74.6399,36.3,19,0.0,948.7,8.4,35.3,81,75.2,20.5,1.3,148.0,113.0,2.6,0,5,10,0,2026-05-15T18:25:41.158994+05:30
Gwalior,Madhya Pradesh,26.2183,78.1828,38.3,21,0.0,976.1,8.25,34.2,151,101.7,34.8,1.7,246.0,115.0,3.4,0,5,10,0,2026-05-15T18:25:41.159001+05:30
Indore,Madhya Pradesh,22.7196,75.8577,37.5,17,0.0,942.8,8.7,43.2,61,28.9,13.6,1.7,196.0,116.0,1.9,0,5,10,0,2026-05-15T18:25:41.159008+05:30
Bhopal,Madhya Pradesh,23.2599,77.4126,39.0,15,0.0,947.3,8.75,40.7,89,46.3,19.7,1.6,164.0,121.0,3.9,0,5,10,0,2026-05-15T18:25:41.159015+05:30
Jabalpur,Madhya Pradesh,23.1815,79.9864,38.1,21,0.0,955.0,8.9,36.7,119,53.4,28.2,2.7,189.0,135.0,5.2,0,5,10,0,2026-05-15T18:25:41.159022+05:30
Ujjain,Madhya Pradesh,23.1765,75.7885,37.5,17,0.0,948.1,8.65,40.7,59,25.0,12.3,0.9,162.0,115.0,1.9,0,5,10,0,2026-05-15T18:25:41.159030+05:30
Visakhapatnam,Andhra Pradesh,17.6868,83.2185,30.0,78,0.0,998.4,7.2,34.9,80,18.2,14.1,16.7,317.0,35.0,37.3,7,5,7,1,2026-05-15T18:25:41.159037+05:30
Vijayawada,Andhra Pradesh,16.5062,80.648,36.6,43,0.0,995.4,8.85,39.6,66,53.0,32.2,5.6,240.0,117.0,7.1,0,5,10,1,2026-05-15T18:25:41.159044+05:30
Guntur,Andhra Pradesh,16.3067,80.4365,37.7,38,0.0,996.7,9.05,37.4,68,66.6,38.0,3.4,237.0,137.0,7.2,0,5,10,1,2026-05-15T18:25:41.159051+05:30
Nellore,Andhra Pradesh,14.4426,79.9865,31.7,69,0.0,999.5,8.65,37.8,42,14.9,8.8,2.3,157.0,48.0,1.8,3,5,7,1,2026-05-15T18:25:41.159059+05:30
Kurnool,Andhra Pradesh,15.8281,78.0373,37.0,33,0.0,970.8,8.9,32.0,142,69.8,42.0,1.8,230.0,145.0,4.5,0,5,10,1,2026-05-15T18:25:41.159066+05:30
Kakinada,Andhra Pradesh,16.9891,82.2475,31.0,72,0.0,1001.4,9.1,42.1,37,12.0,7.7,1.3,151.0,51.0,1.2,3,5,4,1,2026-05-15T18:25:41.159073+05:30
Tirupati,Andhra Pradesh,13.6288,79.4192,29.4,71,0.0,985.5,8.05,37.1,65,13.5,8.9,4.4,242.0,54.0,1.4,7,5,7,1,2026-05-15T18:25:41.159080+05:30
Warangal,Telangana,17.9689,79.5941,36.4,37,0.0,972.3,8.7,35.3,107,82.7,47.6,4.1,269.0,151.0,7.2,0,5,10,1,2026-05-15T18:25:41.159087+05:30
Nizamabad,Telangana,18.6725,78.0941,37.2,25,0.0,959.0,8.2,33.1,125,58.4,31.4,2.0,187.0,140.0,5.6,0,5,10,0,2026-05-15T18:25:41.159095+05:30
Mysore,Karnataka,12.2958,76.6396,29.5,56,0.0,923.8,8.9,28.8,102,57.4,29.6,10.1,310.0,114.0,4.4,4,5,7,1,2026-05-15T18:25:41.159102+05:30
Mangalore,Karnataka,12.9141,74.856,30.2,76,0.0,1001.6,8.9,49.0,80,36.3,21.5,2.5,164.0,83.0,1.6,3,5,4,1,2026-05-15T18:25:41.159110+05:30
Hubli-Dharwad,Karnataka,15.3647,75.124,31.8,42,0.0,936.0,6.05,43.2,111,67.1,35.9,3.5,217.0,144.0,4.0,0,5,7,1,2026-05-15T18:25:41.159117+05:30
Belgaum,Karnataka,15.8497,74.4977,28.8,56,0.0,921.8,9.1,46.1,87,35.4,20.3,3.4,187.0,127.0,3.7,4,5,7,1,2026-05-15T18:25:44.457835+05:30
Coimbatore,Tamil Nadu,11.0168,76.9558,27.6,75,0.0,956.7,8.45,34.2,95,63.6,30.5,4.9,258.0,123.0,4.0,7,5,7,1,2026-05-15T18:25:44.457864+05:30
Madurai,Tamil Nadu,9.9252,78.1198,29.2,73,0.0,987.3,4.2,25.6,90,25.3,16.8,16.7,470.0,96.0,4.5,7,5,3,1,2026-05-15T18:25:44.457874+05:30
Trichy,Tamil Nadu,10.7905,78.7047,29.5,76,0.0,993.5,1.9,32.8,86,28.3,22.0,10.3,490.0,125.0,6.5,7,5,3,1,2026-05-15T18:25:44.457881+05:30
Salem,Tamil Nadu,11.6643,78.146,28.0,87,0.0,971.6,8.65,25.9,139,71.2,41.8,17.3,340.0,141.0,19.8,7,5,7,1,2026-05-15T18:25:44.457889+05:30
Tirunelveli,Tamil Nadu,8.7139,77.7567,30.7,62,0.0,997.7,6.65,20.5,47,16.3,9.9,3.7,235.0,103.0,2.0,3,5,7,1,2026-05-15T18:25:44.457896+05:30
Vellore,Tamil Nadu,12.9165,79.1325,28.6,72,0.0,978.6,8.25,33.1,92,24.5,19.2,15.9,383.0,72.0,14.0,7,5,7,1,2026-05-15T18:25:44.457903+05:30
Erode,Tamil Nadu,11.341,77.7172,29.9,69,0.0,983.1,8.45,19.8,123,68.5,38.1,20.6,376.0,120.0,5.0,7,5,7,1,2026-05-15T18:25:44.457909+05:30
Kochi,Kerala,9.9312,76.2673,27.0,85,0.0,1004.4,7.15,35.3,57,20.3,12.9,8.4,214.0,92.0,4.6,7,5,4,1,2026-05-15T18:25:44.457916+05:30
Thiruvananthapuram,Kerala,8.5241,76.9366,24.9,96,0.1,1004.5,4.3,34.2,55,14.1,8.6,3.4,208.0,107.0,2.1,6,5,0,1,2026-05-15T18:25:44.457923+05:30
Kozhikode,Kerala,11.2588,75.7804,26.1,95,0.0,1003.1,8.55,40.0,65,39.1,21.9,1.8,201.0,106.0,1.5,7,5,4,1,2026-05-15T18:25:44.457929+05:30
Thrissur,Kerala,10.5276,76.2144,23.9,100,0.1,1002.6,8.0,34.9,60,17.8,12.1,5.9,196.0,93.0,3.0,6,5,4,1,2026-05-15T18:25:44.457937+05:30
Kannur,Kerala,11.8745,75.3704,30.2,76,0.0,1001.7,8.75,40.3,74,36.6,23.1,7.8,185.0,72.0,1.8,3,5,4,1,2026-05-15T18:25:44.457943+05:30
Patna,Bihar,25.5941,85.1376,32.1,60,0.0,993.3,8.8,22.7,177,63.6,46.2,12.4,511.0,154.0,14.2,0,5,7,1,2026-05-15T18:25:44.457950+05:30
Gaya,Bihar,24.7914,85.0002,34.2,45,0.0,986.9,8.9,32.8,184,81.5,46.2,6.9,486.0,164.0,14.0,0,5,7,1,2026-05-15T18:25:44.457956+05:30
Muzaffarpur,Bihar,26.1209,85.3647,31.1,68,0.0,993.4,8.8,26.6,169,63.6,48.3,15.6,479.0,136.0,13.8,3,5,7,1,2026-05-15T18:25:44.457963+05:30
Bhagalpur,Bihar,25.2425,87.0117,31.7,68,0.0,993.9,8.8,29.9,157,42.7,37.6,9.0,415.0,170.0,20.6,3,5,7,1,2026-05-15T18:25:44.457969+05:30
Ranchi,Jharkhand,23.3441,85.3096,28.2,59,0.0,932.1,8.85,47.5,127,75.7,54.8,8.8,349.0,126.0,8.1,4,5,7,1,2026-05-15T18:25:44.457975+05:30
Jamshedpur,Jharkhand,22.8046,86.2029,32.6,61,0.0,984.1,9.15,47.9,143,68.5,47.1,10.1,445.0,143.0,15.8,3,5,7,1,2026-05-15T18:25:44.457981+05:30
Dhanbad,Jharkhand,23.7957,86.4304,29.9,77,0.0,973.2,9.05,34.6,132,90.1,64.5,36.9,424.0,123.0,66.9,7,5,7,1,2026-05-15T18:25:44.457987+05:30
Bokaro,Jharkhand,23.6693,86.1511,31.4,67,0.0,977.0,9.05,46.1,146,89.9,61.7,26.0,410.0,139.0,65.3,3,5,7,1,2026-05-15T18:25:44.457994+05:30
Bhubaneswar,Odisha,20.2961,85.8245,30.9,70,0.0,996.6,9.15,42.8,39,16.4,10.5,4.8,187.0,52.0,2.0,3,5,7,1,2026-05-15T18:25:44.458000+05:30
Cuttack,Odisha,20.4625,85.8828,32.8,64,0.0,997.9,9.2,38.9,39,16.4,10.5,4.8,194.0,52.0,2.0,3,5,7,1,2026-05-15T18:25:44.458006+05:30
Rourkela,Odisha,22.2604,84.8536,33.5,52,0.0,978.3,9.05,44.3,153,91.3,66.8,12.6,363.0,159.0,13.7,0,5,7,1,2026-05-15T18:25:44.458013+05:30
Raipur,Chhattisgarh,21.2514,81.6296,33.7,46,0.1,968.8,8.75,41.0,153,73.3,53.3,17.7,212.0,132.0,36.8,3,5,7,1,2026-05-15T18:25:44.458019+05:30
Bhilai,Chhattisgarh,21.1938,81.3509,33.5,44,0.0,969.1,8.8,42.1,146,66.4,45.3,17.4,385.0,124.0,34.6,0,5,7,1,2026-05-15T18:25:44.458025+05:30
Guwahati,Assam,26.1158,91.7086,24.6,96,0.0,997.2,8.75,23.0,98,24.4,19.0,5.5,397.0,102.0,3.8,3,5,7,1,2026-05-15T18:25:44.458031+05:30
Agartala,Tripura,23.8315,91.2868,29.2,74,0.0,1000.6,8.9,28.1,53,25.8,18.2,11.6,199.0,75.0,2.0,7,5,4,1,2026-05-15T18:25:44.458038+05:30
Shillong,Meghalaya,25.5788,91.8933,18.4,90,0.0,853.1,9.0,31.3,90,13.3,10.8,7.0,297.0,97.0,3.0,3,10,7,1,2026-05-15T18:25:44.458045+05:30
Imphal,Manipur,24.817,93.9368,22.8,83,0.0,919.5,8.8,34.9,63,10.6,6.7,5.0,269.0,68.0,1.7,3,5,7,1,2026-05-15T18:25:44.458051+05:30
Aizawl,Mizoram,23.7271,92.7176,22.3,76,0.0,888.8,9.1,36.4,38,22.9,11.8,4.3,173.0,72.0,2.3,3,5,7,1,2026-05-15T18:25:44.458058+05:30
Kohima,Nagaland,25.6701,94.1077,17.5,99,0.0,851.7,8.3,26.3,52,13.4,9.3,5.6,251.0,85.0,2.8,3,10,7,1,2026-05-15T18:25:44.458064+05:30
Gangtok,Sikkim,27.3314,88.6138,16.3,93,0.5,833.1,9.05,40.0,97,21.5,16.7,5.2,328.0,129.0,2.3,6,10,7,0,2026-05-15T18:25:44.458071+05:30
Siliguri,West Bengal,26.7271,88.3953,25.1,92,0.1,987.9,8.65,23.4,122,44.4,32.0,6.4,618.0,133.0,6.3,10,5,7,1,2026-05-15T18:25:47.757770+05:30
Durgapur,West Bengal,23.5204,87.3119,28.5,80,0.0,988.1,9.0,51.8,138,77.1,67.8,33.5,493.0,157.0,66.4,7,5,7,1,2026-05-15T18:25:47.757800+05:30
Asansol,West Bengal,23.6739,86.9524,30.0,62,0.0,986.4,9.05,48.6,124,76.4,61.2,35.6,488.0,124.0,51.6,7,5,7,1,2026-05-15T18:25:47.757810+05:30
Pondicherry,Puducherry,11.9139,79.8145,27.0,90,0.1,1002.8,5.0,39.6,69,18.1,14.5,14.3,390.0,83.0,9.3,10,5,0,1,2026-05-15T18:25:47.757818+05:30
Port Blair,Andaman and Nicobar Islands,11.6234,92.7265,27.2,84,0.1,1005.3,6.65,38.9,33,4.9,3.3,0.6,155.0,76.0,0.2,10,5,4,1,2026-05-15T18:25:47.757826+05:30
Haridwar,Uttarakhand,29.9457,78.1642,31.0,53,0.0,967.9,7.45,30.2,159,51.7,30.9,4.3,294.0,142.0,8.5,0,5,7,1,2026-05-15T18:25:47.757832+05:30
Rishikesh,Uttarakhand,30.0869,78.2676,29.0,52,0.0,960.7,7.6,35.3,142,53.7,25.3,1.5,246.0,147.0,5.8,4,5,7,1,2026-05-15T18:25:47.757839+05:30
Nainital,Uttarakhand,29.3919,79.4542,17.8,62,0.0,802.6,8.45,41.0,155,62.4,32.6,2.6,306.0,162.0,9.9,3,5,7,0,2026-05-15T18:25:47.757847+05:30
Mussoorie,Uttarakhand,30.4599,78.0664,17.5,62,0.0,800.1,7.3,56.9,141,56.1,27.1,3.4,233.0,141.0,5.1,3,5,7,0,2026-05-15T18:25:47.757854+05:30
Dharamshala,Himachal Pradesh,32.219,76.3234,21.5,55,0.0,866.5,8.35,41.8,86,25.8,12.4,1.4,221.0,125.0,0.6,0,5,7,0,2026-05-15T18:25:47.757860+05:30
Dalhousie,Himachal Pradesh,32.5387,75.971,18.1,52,0.0,803.0,8.55,43.6,99,34.8,15.6,3.5,212.0,131.0,1.4,0,5,7,0,2026-05-15T18:25:47.757868+05:30
Patiala,Punjab,30.3398,76.3869,32.5,32,0.0,972.7,7.6,40.3,195,571.8,77.5,2.6,249.0,133.0,4.0,0,5,7,0,2026-05-15T18:25:47.757874+05:30
Bhatinda,Punjab,30.211,74.9455,34.1,32,0.0,978.1,8.1,34.6,122,83.6,32.9,3.5,217.0,146.0,10.4,0,5,7,0,2026-05-15T18:25:47.757880+05:30
Rohtak,Haryana,28.8955,76.6066,34.1,28,0.0,975.6,7.7,38.5,282,575.6,93.8,6.2,326.0,126.0,4.3,0,5,7,0,2026-05-15T18:25:47.757887+05:30
Panipat,Haryana,29.3909,76.9635,33.6,30,0.0,974.1,7.55,45.4,678,1460.3,191.9,6.5,249.0,119.0,8.0,0,5,7,0,2026-05-15T18:25:47.757893+05:30
Mathura,Uttar Pradesh,27.4924,77.6737,35.8,28,0.0,979.9,7.95,38.5,512,696.6,105.2,5.8,328.0,132.0,5.6,0,5,10,0,2026-05-15T18:25:47.757900+05:30
Vrindavan,Uttar Pradesh,27.5823,77.7027,35.2,30,0.0,980.2,7.95,38.2,512,696.6,105.2,5.8,331.0,132.0,5.6,0,5,10,0,2026-05-15T18:25:47.757906+05:30
Ayodhya,Uttar Pradesh,26.7922,82.1998,33.0,53,0.0,988.6,8.35,24.1,162,83.4,43.3,4.7,354.0,151.0,10.2,0,5,7,1,2026-05-15T18:25:47.757913+05:30
Ratlam,Madhya Pradesh,23.3315,75.0367,35.4,19,0.0,949.6,8.55,41.4,56,24.9,11.7,0.7,142.0,114.0,1.9,0,5,10,0,2026-05-15T18:25:47.757919+05:30
Sagar,Madhya Pradesh,23.8388,78.7378,37.7,19,0.0,944.3,8.75,37.8,101,62.4,24.4,1.0,164.0,127.0,4.2,0,5,10,0,2026-05-15T18:25:47.757925+05:30
Satna,Madhya Pradesh,24.6005,80.8322,37.3,21,0.0,964.7,8.8,37.4,120,82.4,30.9,1.4,226.0,131.0,5.5,0,5,10,0,2026-05-15T18:25:47.757932+05:30
Akola,Maharashtra,20.7002,77.0082,40.5,13,0.0,968.0,8.95,47.5,84,33.4,13.7,2.2,155.0,125.0,4.0,0,5,10,0,2026-05-15T18:25:47.757939+05:30
Amravati,Maharashtra,20.9374,77.7796,39.8,14,0.0,960.6,8.95,43.2,91,34.7,14.0,2.7,155.0,126.0,4.7,0,5,10,0,2026-05-15T18:25:47.757947+05:30
Latur,Maharashtra,18.4088,76.5604,35.5,26,0.0,935.4,9.1,41.8,119,38.1,19.0,1.8,176.0,138.0,5.4,0,5,10,0,2026-05-15T18:25:47.757953+05:30
Nanded,Maharashtra,19.1383,77.3091,37.6,25,0.0,962.4,9.05,34.9,127,39.2,18.6,2.0,187.0,130.0,4.0,0,5,10,0,2026-05-15T18:25:47.757960+05:30
Gulbarga,Karnataka,17.3297,76.8343,35.6,33,0.0,953.2,6.05,35.6,116,67.5,39.0,3.3,240.0,149.0,5.3,0,5,10,1,2026-05-15T18:25:47.757966+05:30
Bidar,Karnataka,17.9104,77.5199,35.1,29,0.0,930.9,7.2,34.9,127,64.3,36.7,2.8,208.0,151.0,6.3,0,5,10,0,2026-05-15T18:25:47.757972+05:30
Hospet,Karnataka,15.2689,76.3909,31.9,54,0.0,950.7,9.2,34.6,124,61.5,40.3,7.5,322.0,138.0,7.4,0,5,7,1,2026-05-15T18:25:47.757978+05:30
Tirupur,Tamil Nadu,11.1085,77.3411,30.6,58,0.0,969.6,8.4,32.0,119,72.2,36.6,12.6,251.0,128.0,4.7,0,5,7,1,2026-05-15T18:25:47.757984+05:30
Alappuzha,Kerala,9.4981,76.3388,25.7,94,0.0,1004.8,5.3,36.0,55,25.0,15.1,7.9,160.0,90.0,3.3,7,5,0,1,2026-05-15T18:25:47.757991+05:30
Munnar,Kerala,10.0889,77.0595,19.0,98,0.0,853.2,7.4,28.8,50,21.1,13.9,8.5,205.0,74.0,1.9,3,10,7,1,2026-05-15T18:25:47.757997+05:30
Silchar,Assam,24.8333,92.7789,26.7,82,0.0,1000.3,8.95,29.9,72,13.8,10.3,4.4,278.0,89.0,4.0,7,5,4,1,2026-05-15T18:25:47.758004+05:30
Dibrugarh,Assam,27.4728,94.912,23.8,87,0.0,992.6,7.2,32.4,112,22.6,18.6,8.6,265.0,80.0,1.7,3,5,7,1,2026-05-15T18:25:47.758010+05:30
