city,state,latitude,longitude,temp,humidity,rain,pressure,uv_index,wind_gusts,aqi,pm10,pm2_5,no2,co,o3,so2,mosquito_risk,arthritis_risk,migraine_risk,frizz_risk,updated_at
Delhi,Delhi,28.6139,77.209,39.1,36,0.0,976.3,7.8,40.7,343,743.2,130.4,10.6,262.0,118.0,14.8,0,5,10,1,2026-06-10T10:51:33.703647+05:30
Mumbai,Maharashtra,19.076,72.8777,32.1,63,0.1,1007.6,7.1,45.4,81,63.1,26.5,5.1,191.0,80.0,5.8,6,5,4,1,2026-06-10T10:51:33.703694+05:30
Bangalore,Karnataka,12.9716,77.5946,28.3,51,0.0,913.0,5.15,54.4,19,13.4,6.5,4.9,294.0,72.0,3.2,4,5,3,1,2026-06-10T10:51:33.703710+05:30
Hyderabad,Telangana,17.385,78.4867,31.3,58,0.0,951.9,9.0,52.2,71,34.9,16.8,2.9,258.0,86.0,4.0,0,5,7,1,2026-06-10T10:51:33.703720+05:30
Chennai,Tamil Nadu,13.0827,80.2707,34.8,45,0.0,1005.3,8.05,45.4,51,18.7,10.7,7.1,193.0,87.0,12.5,0,5,4,1,2026-06-10T10:51:33.703729+05:30
Kolkata,West Bengal,22.5726,88.3639,34.9,68,0.0,1000.4,8.95,45.7,132,52.4,39.9,2.6,468.0,156.0,10.8,3,5,4,1,2026-06-10T10:51:33.703737+05:30
Pune,Maharashtra,18.5204,73.8567,31.9,48,0.0,948.2,8.2,49.0,54,32.7,14.0,2.6,139.0,78.0,4.6,0,5,7,1,2026-06-10T10:51:33.703743+05:30
Ahmedabad,Gujarat,23.0225,72.5714,35.7,46,0.0,998.6,8.05,44.3,85,67.5,28.3,2.2,132.0,79.0,4.4,0,5,10,1,2026-06-10T10:51:33.703749+05:30
Jaipur,Rajasthan,26.9124,75.7873,36.0,43,0.0,955.0,8.25,50.4,139,307.3,61.2,1.7,150.0,92.0,3.6,0,5,10,1,2026-06-10T10:51:33.703761+05:30
Lucknow,Uttar Pradesh,26.8467,80.9462,38.4,30,0.0,987.4,8.35,34.9,163,363.2,99.2,7.3,314.0,177.0,11.3,0,5,10,1,2026-06-10T10:51:33.703767+05:30
Kanpur,Uttar Pradesh,26.4499,80.3319,39.4,28,0.0,985.9,8.35,44.6,336,1031.9,154.6,3.8,165.0,132.0,7.1,0,5,10,1,2026-06-10T10:51:33.703774+05:30
Chandigarh,Chandigarh,30.7333,76.7794,36.7,27,0.0,962.2,7.85,26.6,95,135.0,51.9,5.2,389.0,197.0,11.2,0,5,10,0,2026-06-10T10:51:33.703781+05:30
Srinagar,Jammu and Kashmir,34.0837,74.7973,25.0,42,0.0,841.0,9.05,17.6,78,26.5,16.2,3.8,384.0,153.0,4.4,4,5,7,0,2026-06-10T10:51:33.703788+05:30
Jammu,Jammu and Kashmir,32.7266,74.857,39.8,16,0.0,965.1,8.65,33.5,77,40.2,21.8,6.2,273.0,168.0,5.1,0,5,10,0,2026-06-10T10:51:33.703794+05:30
Amritsar,Punjab,31.634,74.8723,38.2,30,0.0,972.9,8.5,23.4,121,59.6,33.2,4.6,411.0,166.0,8.8,0,5,10,1,2026-06-10T10:51:33.703801+05:30
Ludhiana,Punjab,30.901,75.8573,38.8,24,0.0,971.0,8.05,24.8,117,172.3,65.7,7.7,501.0,176.0,12.8,0,5,10,0,2026-06-10T10:51:33.703807+05:30
Jalandhar,Punjab,31.326,75.5762,38.8,26,0.0,972.0,8.25,25.6,112,59.0,38.9,5.9,432.0,191.0,10.3,0,5,10,0,2026-06-10T10:51:33.703814+05:30
Dehradun,Uttarakhand,30.6284,78.0322,24.7,51,0.0,829.3,8.3,42.1,67,30.0,19.7,1.2,202.0,162.0,2.0,0,5,7,0,2026-06-10T10:51:33.703823+05:30
Shimla,Himachal Pradesh,31.1048,77.1734,25.3,27,0.0,786.0,8.35,49.0,75,23.8,15.3,1.0,195.0,170.0,1.4,4,5,7,0,2026-06-10T10:51:33.703831+05:30
Manali,Himachal Pradesh,32.2396,77.1887,26.5,30,0.0,818.8,9.65,40.0,52,15.0,9.5,7.3,142.0,131.0,0.4,4,5,7,0,2026-06-10T10:51:33.703837+05:30
Gurgaon,Haryana,28.4595,77.0266,38.8,38,0.0,974.9,7.9,42.5,1561,1493.8,214.2,9.3,196.0,109.0,11.1,0,5,10,1,2026-06-10T10:51:33.703846+05:30
Noida,Uttar Pradesh,28.5355,77.391,38.0,40,0.0,977.9,7.85,38.9,1561,1493.8,214.2,9.3,272.0,109.0,11.1,0,5,10,1,2026-06-10T10:51:33.703852+05:30
Ghaziabad,Uttar Pradesh,28.6692,77.4538,37.4,40,0.0,976.2,7.85,32.8,194,616.5,122.9,8.7,253.0,149.0,19.9,0,5,10,1,2026-06-10T10:51:33.703858+05:30
Faridabad,Haryana,28.4089,77.3178,37.8,40,0.0,977.2,7.9,40.7,1561,1493.8,214.2,9.3,235.0,109.0,11.1,0,5,10,1,2026-06-10T10:51:33.703864+05:30
Meerut,Uttar Pradesh,28.9845,77.7064,36.9,43,0.0,975.0,7.75,34.9,194,616.5,122.9,8.7,222.0,149.0,19.9,0,5,10,1,2026-06-10T10:51:33.703870+05:30
Agra,Uttar Pradesh,27.1767,78.0081,38.2,38,0.0,982.2,8.15,45.0,1306,1005.8,137.4,4.2,163.0,114.0,5.2,0,5,10,1,2026-06-10T10:51:33.703876+05:30
Varanasi,Uttar Pradesh,25.3176,82.9739,39.7,30,0.0,990.9,8.8,40.3,108,55.2,31.5,4.1,237.0,136.0,10.0,0,5,10,1,2026-06-10T10:51:33.703883+05:30
Prayagraj,Uttar Pradesh,25.4358,81.8463,40.7,22,0.0,989.7,8.7,51.8,116,39.8,25.7,3.7,183.0,139.0,9.1,0,5,10,0,2026-06-10T10:51:33.703889+05:30
Gorakhpur,Uttar Pradesh,26.7606,83.3732,33.6,59,0.0,991.5,8.7,48.6,158,89.9,58.4,3.4,399.0,187.0,12.0,0,5,7,1,2026-06-10T10:51:33.703897+05:30
Bareilly,Uttar Pradesh,28.367,79.4304,35.8,41,0.0,980.9,8.1,32.0,130,160.7,61.5,4.8,437.0,203.0,12.9,0,5,10,1,2026-06-10T10:51:33.703903+05:30
Aligarh,Uttar Pradesh,27.8974,78.088,37.3,39,0.0,979.7,8.0,34.6,845,851.2,143.9,5.6,202.0,109.0,8.5,0,5,10,1,2026-06-10T10:51:33.703909+05:30
Moradabad,Uttar Pradesh,28.8386,78.7733,36.8,35,0.0,977.7,7.95,34.9,158,132.7,57.5,7.7,369.0,219.0,18.0,0,5,10,1,2026-06-10T10:51:33.703915+05:30
Saharanpur,Uttar Pradesh,29.9637,77.546,35.3,36,0.0,969.4,7.5,27.7,141,330.6,83.1,6.3,396.0,182.0,8.8,0,5,10,1,2026-06-10T10:51:33.703921+05:30
Jhansi,Uttar Pradesh,25.4484,78.5685,38.0,39,0.0,973.2,8.5,44.6,72,51.9,30.0,1.8,150.0,112.0,8.8,0,5,10,1,2026-06-10T10:51:36.993820+05:30
Surat,Gujarat,21.1702,72.8311,33.8,58,0.0,1004.6,7.6,52.9,90,73.3,34.0,11.1,244.0,62.0,34.2,0,5,4,1,2026-06-10T10:51:36.993856+05:30
Vadodara,Gujarat,22.3072,73.1812,35.5,49,0.0,1001.1,8.0,50.0,86,75.0,30.5,2.2,137.0,78.0,3.2,0,5,7,1,2026-06-10T10:51:36.993867+05:30
Rajkot,Gujarat,22.3039,70.8022,35.1,47,0.0,991.3,7.55,48.2,81,54.8,24.3,1.5,107.0,78.0,3.7,0,5,10,1,2026-06-10T10:51:36.993876+05:30
Thane,Maharashtra,19.2183,72.9781,32.4,65,0.0,1006.9,7.45,42.5,81,63.1,26.5,5.1,164.0,80.0,5.8,3,5,4,1,2026-06-10T10:51:36.993885+05:30
Nagpur,Maharashtra,21.1458,79.0882,38.1,35,0.0,970.3,6.7,50.0,92,61.2,35.7,5.4,167.0,134.0,20.7,0,5,10,1,2026-06-10T10:51:36.993894+05:30
Nashik,Maharashtra,19.9975,73.7898,31.0,56,0.0,945.0,8.05,50.4,72,40.2,17.5,2.2,122.0,72.0,2.3,0,5,7,1,2026-06-10T10:51:36.993901+05:30
Aurangabad,Maharashtra,19.8762,75.3433,33.1,44,0.0,943.8,8.95,49.0,73,50.4,20.7,1.9,134.0,84.0,4.7,0,5,7,1,2026-06-10T10:51:36.993910+05:30
Solapur,Maharashtra,17.6599,75.9064,32.8,47,0.0,956.9,8.35,48.6,53,32.8,12.2,1.3,123.0,77.0,2.1,0,5,7,1,2026-06-10T10:51:36.993919+05:30
Kolhapur,Maharashtra,16.705,74.2433,28.6,65,0.1,948.7,5.75,51.5,25,11.8,5.9,2.2,132.0,68.0,1.8,10,5,3,1,2026-06-10T10:51:36.993927+05:30
Goa,Goa,15.2993,74.124,25.7,99,0.1,999.8,6.3,32.4,39,22.6,8.8,1.1,161.0,61.0,1.0,10,5,7,1,2026-06-10T10:51:36.993935+05:30
Jodhpur,Rajasthan,26.2389,73.0243,34.3,52,0.0,977.7,8.45,51.8,157,249.6,52.5,1.2,114.0,75.0,2.1,0,5,7,1,2026-06-10T10:51:36.993942+05:30
Udaipur,Rajasthan,24.5854,73.7125,31.9,54,0.0,943.8,8.8,46.8,83,65.7,26.3,0.9,114.0,75.0,2.9,0,5,7,1,2026-06-10T10:51:36.993950+05:30
Kota,Rajasthan,25.2138,75.8648,36.6,41,0.0,974.8,8.4,39.2,76,56.3,30.2,2.6,148.0,97.0,9.0,0,5,10,1,2026-06-10T10:51:36.993957+05:30
Bikaner,Rajasthan,28.0229,73.3119,37.2,42,0.0,974.7,8.5,47.2,120,110.8,47.6,0.8,117.0,84.0,4.6,0,5,10,1,2026-06-10T10:51:36.993965+05:30
Ajmer,Rajasthan,26.4499,74.6399,32.7,55,0.0,950.4,8.35,52.6,73,55.9,26.8,1.2,127.0,86.0,3.2,0,5,7,1,2026-06-10T10:51:36.993971+05:30
Gwalior,Madhya Pradesh,26.2183,78.1828,38.0,39,0.0,978.3,8.3,47.5,77,49.7,26.0,1.4,148.0,104.0,4.1,0,5,10,1,2026-06-10T10:51:36.993978+05:30
Indore,Madhya Pradesh,22.7196,75.8577,34.1,46,0.0,946.4,8.6,46.8,81,48.3,26.5,2.2,174.0,84.0,5.8,0,5,7,1,2026-06-10T10:51:36.993985+05:30
Bhopal,Madhya Pradesh,23.2599,77.4126,34.9,46,0.0,951.5,8.65,39.6,85,52.4,29.9,1.7,173.0,98.0,7.6,0,5,7,1,2026-06-10T10:51:36.993992+05:30
Jabalpur,Madhya Pradesh,23.1815,79.9864,36.9,37,0.0,958.4,8.85,38.5,84,46.2,27.6,1.7,201.0,126.0,5.8,0,5,10,1,2026-06-10T10:51:36.993999+05:30
Ujjain,Madhya Pradesh,23.1765,75.7885,34.0,48,0.0,951.6,8.55,49.3,80,49.1,27.0,1.7,148.0,81.0,5.4,0,5,7,1,2026-06-10T10:51:36.994006+05:30
Visakhapatnam,Andhra Pradesh,17.6868,83.2185,38.1,45,0.0,998.2,8.3,29.5,130,75.0,52.5,16.8,470.0,174.0,57.0,0,5,10,1,2026-06-10T10:51:36.994013+05:30
Vijayawada,Andhra Pradesh,16.5062,80.648,35.8,50,0.0,999.2,8.25,42.5,78,41.7,26.7,3.8,198.0,108.0,7.8,0,5,10,1,2026-06-10T10:51:36.994020+05:30
Guntur,Andhra Pradesh,16.3067,80.4365,35.6,50,0.0,1000.5,7.65,48.6,75,35.4,22.4,3.6,191.0,101.0,6.6,0,5,7,1,2026-06-10T10:51:36.994027+05:30
Nellore,Andhra Pradesh,14.4426,79.9865,35.0,47,0.0,1003.6,8.5,50.0,39,19.7,10.1,3.7,130.0,77.0,6.8,0,5,4,1,2026-06-10T10:51:36.994034+05:30
Kurnool,Andhra Pradesh,15.8281,78.0373,32.5,50,0.0,976.4,4.75,44.3,52,22.5,10.8,3.4,135.0,67.0,7.2,0,5,3,1,2026-06-10T10:51:36.994042+05:30
Kakinada,Andhra Pradesh,16.9891,82.2475,35.9,52,0.0,1002.8,8.75,40.3,83,47.8,32.2,3.9,244.0,140.0,7.7,0,5,7,1,2026-06-10T10:51:36.994048+05:30
Tirupati,Andhra Pradesh,13.6288,79.4192,35.4,39,0.0,989.6,7.05,42.8,32,30.2,12.4,1.8,123.0,80.0,1.6,0,5,10,1,2026-06-10T10:51:36.994055+05:30
Warangal,Telangana,17.9689,79.5941,34.8,48,0.0,976.0,8.65,45.0,92,48.3,27.3,2.4,174.0,99.0,5.1,0,5,7,1,2026-06-10T10:51:36.994062+05:30
Nizamabad,Telangana,18.6725,78.0941,34.8,44,0.0,963.4,8.95,42.8,86,64.0,27.6,2.1,142.0,91.0,5.8,0,5,7,1,2026-06-10T10:51:36.994068+05:30
Mysore,Karnataka,12.2958,76.6396,26.9,66,0.1,930.0,4.45,53.6,20,3.3,2.4,2.7,129.0,65.0,1.7,10,5,3,1,2026-06-10T10:51:36.994075+05:30
Mangalore,Karnataka,12.9141,74.856,26.8,88,0.5,1009.3,4.55,33.5,29,8.9,5.3,5.6,184.0,50.0,1.7,10,0,0,1,2026-06-10T10:51:36.994082+05:30
Hubli-Dharwad,Karnataka,15.3647,75.124,27.4,70,0.0,941.8,6.5,46.1,22,8.4,3.9,3.0,123.0,59.0,1.1,7,5,7,1,2026-06-10T10:51:36.994089+05:30
Belgaum,Karnataka,15.8497,74.4977,27.3,67,0.0,927.0,5.95,46.4,22,14.3,5.9,2.2,116.0,64.0,1.7,7,5,3,1,2026-06-10T10:51:40.293618+05:30
Coimbatore,Tamil Nadu,11.0168,76.9558,27.6,70,0.0,963.1,7.0,56.2,21,6.1,3.7,3.4,174.0,58.0,2.3,7,5,7,1,2026-06-10T10:51:40.293656+05:30
Madurai,Tamil Nadu,9.9252,78.1198,35.1,43,0.0,993.1,8.35,53.3,21,7.9,6.3,7.5,138.0,52.0,4.0,0,5,10,1,2026-06-10T10:51:40.293667+05:30
Trichy,Tamil Nadu,10.7905,78.7047,33.9,50,0.0,999.6,8.6,60.1,19,6.8,4.1,3.9,131.0,59.0,2.9,0,5,7,1,2026-06-10T10:51:40.293677+05:30
Salem,Tamil Nadu,11.6643,78.146,33.6,45,0.0,978.0,6.7,40.3,28,10.3,7.3,4.9,207.0,85.0,8.6,0,5,7,1,2026-06-10T10:51:40.293686+05:30
Tirunelveli,Tamil Nadu,8.7139,77.7567,34.4,50,0.0,1004.1,8.7,45.7,17,3.1,2.3,3.0,139.0,54.0,1.4,0,5,4,1,2026-06-10T10:51:40.293694+05:30
Vellore,Tamil Nadu,12.9165,79.1325,34.8,39,0.0,983.4,8.1,52.2,28,25.0,12.0,2.3,154.0,89.0,2.6,0,5,7,1,2026-06-10T10:51:40.293702+05:30
Erode,Tamil Nadu,11.341,77.7172,32.8,49,0.0,989.7,6.65,49.7,20,7.4,5.0,3.9,187.0,70.0,2.8,0,5,7,1,2026-06-10T10:51:40.293710+05:30
Kochi,Kerala,9.9312,76.2673,27.1,86,0.1,1011.7,8.55,42.8,30,12.3,8.1,6.9,171.0,51.0,3.6,10,0,4,1,2026-06-10T10:51:40.293719+05:30
Thiruvananthapuram,Kerala,8.5241,76.9366,26.8,87,0.0,1011.0,8.4,49.3,30,14.3,7.8,1.7,112.0,64.0,1.1,7,0,4,1,2026-06-10T10:51:40.293726+05:30
Kozhikode,Kerala,11.2588,75.7804,25.1,93,0.2,1011.0,6.7,36.7,27,12.2,5.3,0.9,205.0,61.0,0.9,10,0,4,1,2026-06-10T10:51:40.293735+05:30
Thrissur,Kerala,10.5276,76.2144,26.9,88,0.1,1010.0,8.5,37.8,32,10.4,7.1,4.4,187.0,50.0,2.2,10,0,4,1,2026-06-10T10:51:40.293744+05:30
Kannur,Kerala,11.8745,75.3704,25.7,92,0.1,1010.0,8.45,31.3,27,8.6,5.1,5.7,155.0,52.0,1.6,10,0,4,1,2026-06-10T10:51:40.293752+05:30
Patna,Bihar,25.5941,85.1376,33.6,63,0.0,994.7,8.85,28.1,157,79.4,58.1,4.2,460.0,193.0,16.0,3,5,7,1,2026-06-10T10:51:40.293759+05:30
Gaya,Bihar,24.7914,85.0002,37.0,41,0.0,988.0,8.65,32.0,138,116.4,55.1,3.7,207.0,186.0,12.9,0,5,10,1,2026-06-10T10:51:40.293767+05:30
Muzaffarpur,Bihar,26.1209,85.3647,32.5,66,0.0,995.1,8.85,38.2,158,77.1,58.1,3.9,484.0,197.0,16.2,3,5,7,1,2026-06-10T10:51:40.293774+05:30
Bhagalpur,Bihar,25.2425,87.0117,31.4,71,0.0,996.0,8.85,39.6,157,64.3,51.6,5.7,481.0,182.0,22.1,3,5,7,1,2026-06-10T10:51:40.293781+05:30
Ranchi,Jharkhand,23.3441,85.3096,34.4,35,0.0,934.1,8.95,42.8,126,98.7,40.2,2.0,175.0,156.0,13.2,0,5,7,1,2026-06-10T10:51:40.293788+05:30
Jamshedpur,Jharkhand,22.8046,86.2029,36.1,48,0.0,985.1,9.1,28.8,153,76.4,55.8,5.5,317.0,212.0,36.0,0,5,10,1,2026-06-10T10:51:40.293797+05:30
Dhanbad,Jharkhand,23.7957,86.4304,38.1,31,0.0,974.4,9.05,29.2,159,97.6,57.6,15.8,184.0,193.0,64.2,0,5,10,1,2026-06-10T10:51:40.293804+05:30
Bokaro,Jharkhand,23.6693,86.1511,38.1,31,0.0,978.1,8.9,31.3,157,98.3,48.0,11.0,193.0,175.0,46.7,0,5,10,1,2026-06-10T10:51:40.293811+05:30
Bhubaneswar,Odisha,20.2961,85.8245,36.4,57,0.0,996.8,9.05,26.3,111,58.6,43.0,3.6,293.0,185.0,14.4,0,5,10,1,2026-06-10T10:51:40.293818+05:30
Cuttack,Odisha,20.4625,85.8828,36.1,60,0.0,998.4,9.1,20.9,111,58.6,43.0,3.6,341.0,185.0,14.4,0,5,10,1,2026-06-10T10:51:40.293825+05:30
Rourkela,Odisha,22.2604,84.8536,35.8,47,0.0,979.8,9.0,34.6,121,64.0,44.9,3.0,312.0,186.0,14.9,0,5,10,1,2026-06-10T10:51:40.293832+05:30
Raipur,Chhattisgarh,21.2514,81.6296,38.0,36,0.0,970.8,7.9,40.7,121,74.3,46.3,10.9,266.0,121.0,40.2,0,5,10,1,2026-06-10T10:51:40.293839+05:30
Bhilai,Chhattisgarh,21.1938,81.3509,37.3,37,0.0,971.4,6.9,42.8,114,70.8,43.9,9.4,411.0,122.0,33.7,0,5,10,1,2026-06-10T10:51:40.293845+05:30
Guwahati,Assam,26.1158,91.7086,30.7,68,0.0,997.6,8.8,26.3,84,19.2,14.5,1.7,337.0,130.0,4.1,3,5,7,1,2026-06-10T10:51:40.293851+05:30
Agartala,Tripura,23.8315,91.2868,29.6,78,0.0,1002.8,8.45,39.6,70,15.6,12.1,3.5,181.0,117.0,2.4,7,5,4,1,2026-06-10T10:51:40.293857+05:30
Shillong,Meghalaya,25.5788,91.8933,23.1,76,0.3,856.0,6.65,32.0,42,8.5,6.0,1.3,238.0,125.0,3.6,6,5,7,1,2026-06-10T10:51:40.293863+05:30
Imphal,Manipur,24.817,93.9368,27.8,62,0.0,921.2,3.45,33.8,88,49.0,27.3,1.5,209.0,122.0,3.9,7,5,3,1,2026-06-10T10:51:40.293869+05:30
Aizawl,Mizoram,23.7271,92.7176,25.9,63,0.1,891.2,5.85,39.6,83,17.8,12.3,0.8,178.0,106.0,2.1,10,5,3,1,2026-06-10T10:51:40.293876+05:30
Kohima,Nagaland,25.6701,94.1077,23.6,76,0.1,854.1,7.35,23.8,58,38.0,20.9,1.5,215.0,115.0,2.7,6,5,7,1,2026-06-10T10:51:40.293882+05:30
Gangtok,Sikkim,27.3314,88.6138,24.0,55,0.1,836.8,9.2,36.0,89,23.7,18.1,1.0,274.0,158.0,3.8,3,5,7,0,2026-06-10T10:51:40.293889+05:30
Siliguri,West Bengal,26.7271,88.3953,30.0,65,0.0,988.9,8.75,30.6,115,38.6,29.5,2.5,449.0,173.0,5.7,7,5,7,1,2026-06-10T10:51:43.602174+05:30
Durgapur,West Bengal,23.5204,87.3119,35.8,56,0.0,988.9,9.0,31.7,170,108.5,89.2,20.0,531.0,237.0,81.7,0,5,10,1,2026-06-10T10:51:43.602210+05:30
Asansol,West Bengal,23.6739,86.9524,37.4,40,0.0,987.5,9.0,32.0,160,97.6,71.2,18.9,398.0,213.0,73.8,0,5,10,1,2026-06-10T10:51:43.602222+05:30
Pondicherry,Puducherry,11.9139,79.8145,35.1,42,0.0,1007.2,8.05,51.1,48,11.3,8.7,5.3,180.0,86.0,9.5,0,5,7,1,2026-06-10T10:51:43.602231+05:30
Port Blair,Andaman and Nicobar Islands,11.6234,92.7265,28.3,85,0.1,1007.2,6.0,44.6,27,7.1,4.1,0.3,93.0,59.0,0.4,10,5,0,1,2026-06-10T10:51:43.602240+05:30
Haridwar,Uttarakhand,29.9457,78.1642,35.2,39,0.0,968.0,7.65,36.0,101,175.6,54.2,3.1,280.0,185.0,10.5,0,5,10,1,2026-06-10T10:51:43.602248+05:30
Rishikesh,Uttarakhand,30.0869,78.2676,34.9,38,0.0,961.1,7.75,32.0,80,77.3,31.0,1.8,251.0,192.0,11.0,0,5,7,1,2026-06-10T10:51:43.602255+05:30
Nainital,Uttarakhand,29.3919,79.4542,21.5,56,0.1,805.8,7.45,36.7,79,79.9,31.4,0.9,259.0,184.0,6.9,3,5,7,0,2026-06-10T10:51:43.602263+05:30
Mussoorie,Uttarakhand,30.4599,78.0664,23.3,43,0.0,802.9,8.15,44.6,81,86.8,33.4,2.7,215.0,185.0,9.3,0,5,7,0,2026-06-10T10:51:43.602271+05:30
Dharamshala,Himachal Pradesh,32.219,76.3234,29.1,30,0.0,867.1,8.55,42.1,61,30.0,18.7,0.4,201.0,166.0,1.5,4,5,7,0,2026-06-10T10:51:43.602278+05:30
Dalhousie,Himachal Pradesh,32.5387,75.971,26.0,31,0.0,805.1,8.75,36.0,88,33.8,23.0,1.8,211.0,188.0,2.7,4,5,7,0,2026-06-10T10:51:43.602286+05:30
Patiala,Punjab,30.3398,76.3869,38.0,28,0.0,971.0,7.65,31.7,360,912.7,159.3,5.4,317.0,141.0,9.2,0,5,10,1,2026-06-10T10:51:43.602294+05:30
Bhatinda,Punjab,30.211,74.9455,40.0,31,0.0,975.7,8.35,33.5,154,222.1,75.9,10.2,298.0,127.0,15.5,0,5,10,1,2026-06-10T10:51:43.602302+05:30
Rohtak,Haryana,28.8955,76.6066,38.1,41,0.0,974.7,7.8,39.2,623,1359.7,182.1,3.9,165.0,99.0,4.4,0,5,10,1,2026-06-10T10:51:43.602326+05:30
Panipat,Haryana,29.3909,76.9635,37.3,42,0.0,973.3,7.7,25.6,1315,2466.1,313.9,4.5,172.0,103.0,10.9,0,5,10,1,2026-06-10T10:51:43.602333+05:30
Mathura,Uttar Pradesh,27.4924,77.6737,36.9,44,0.0,980.9,8.1,30.6,904,663.1,108.5,4.3,177.0,102.0,3.9,0,5,10,1,2026-06-10T10:51:43.602339+05:30
Vrindavan,Uttar Pradesh,27.5823,77.7027,36.9,44,0.0,981.3,8.1,31.3,904,663.1,108.5,4.3,164.0,102.0,3.9,0,5,10,1,2026-06-10T10:51:43.602346+05:30
Ayodhya,Uttar Pradesh,26.7922,82.1998,34.3,56,0.0,989.4,8.45,35.3,156,102.2,61.5,3.8,515.0,192.0,13.8,0,5,7,1,2026-06-10T10:51:43.602353+05:30
Ratlam,Madhya Pradesh,23.3315,75.0367,33.5,50,0.0,952.7,8.5,47.9,81,50.5,26.9,1.6,128.0,78.0,4.8,0,5,7,1,2026-06-10T10:51:43.602360+05:30
Sagar,Madhya Pradesh,23.8388,78.7378,35.5,42,0.0,947.7,8.7,42.8,80,54.8,30.6,1.2,158.0,115.0,6.9,0,5,10,1,2026-06-10T10:51:43.602366+05:30
Satna,Madhya Pradesh,24.6005,80.8322,38.4,31,0.0,966.9,8.8,68.8,78,43.5,24.2,1.7,164.0,120.0,6.2,0,5,10,1,2026-06-10T10:51:43.602373+05:30
Akola,Maharashtra,20.7002,77.0082,36.3,40,0.0,973.3,8.8,49.7,80,56.6,28.1,2.4,129.0,84.0,6.9,0,5,10,1,2026-06-10T10:51:43.602381+05:30
Amravati,Maharashtra,20.9374,77.7796,35.5,42,0.0,965.3,8.75,47.9,80,58.4,29.3,2.7,133.0,86.0,8.1,0,5,10,1,2026-06-10T10:51:43.602388+05:30
Latur,Maharashtra,18.4088,76.5604,32.1,50,0.0,939.6,8.9,42.1,68,61.0,23.0,1.4,128.0,79.0,2.6,0,5,7,1,2026-06-10T10:51:43.602396+05:30
Nanded,Maharashtra,19.1383,77.3091,35.0,44,0.0,967.3,8.85,42.5,82,72.2,29.1,2.0,139.0,88.0,4.5,0,5,7,1,2026-06-10T10:51:43.602403+05:30
Gulbarga,Karnataka,17.3297,76.8343,31.9,53,0.0,958.3,8.95,44.6,59,24.1,10.0,2.1,131.0,74.0,2.5,0,5,7,1,2026-06-10T10:51:43.602410+05:30
Bidar,Karnataka,17.9104,77.5199,31.8,54,0.0,935.1,9.0,49.7,75,53.7,22.4,2.0,136.0,84.0,3.4,0,5,7,1,2026-06-10T10:51:43.602417+05:30
Hospet,Karnataka,15.2689,76.3909,28.4,65,0.0,956.7,6.25,51.8,24,15.1,6.5,2.8,126.0,59.0,1.9,7,5,7,1,2026-06-10T10:51:43.602423+05:30
Tirupur,Tamil Nadu,11.1085,77.3411,30.9,57,0.0,976.3,8.4,59.0,24,8.2,5.8,5.1,146.0,66.0,3.6,0,5,7,1,2026-06-10T10:51:43.602430+05:30
Alappuzha,Kerala,9.4981,76.3388,26.2,91,0.2,1011.9,8.4,43.2,29,13.6,8.4,4.7,94.0,63.0,3.1,10,0,4,1,2026-06-10T10:51:43.602437+05:30
Munnar,Kerala,10.0889,77.0595,17.7,95,0.1,858.6,9.0,42.5,16,4.3,2.7,2.5,104.0,51.0,1.0,6,10,7,1,2026-06-10T10:51:43.602444+05:30
Silchar,Assam,24.8333,92.7789,31.6,65,0.0,1001.6,2.55,41.4,93,39.7,25.8,1.9,261.0,112.0,4.2,3,5,0,1,2026-06-10T10:51:43.602450+05:30
Dibrugarh,Assam,27.4728,94.912,27.5,88,0.0,992.1,8.7,26.3,87,31.4,22.8,1.2,234.0,142.0,3.1,7,5,7,1,2026-06-10T10:51:43.602457+05:30
