city,state,latitude,longitude,temp,humidity,rain,pressure,uv_index,wind_gusts,aqi,pm10,pm2_5,mosquito_risk,arthritis_risk,migraine_risk,frizz_risk,updated_at
Delhi,Delhi,28.6139,77.209,25.9,53,0.0,987.0,5.85,32.8,282,715.3,115.0,4,5,3,0,2026-03-04T20:09:49.845358+05:30
Mumbai,Maharashtra,19.076,72.8777,28.7,65,0.0,1010.4,7.35,24.5,212,43.2,41.1,7,0,4,1,2026-03-04T20:09:49.845403+05:30
Bangalore,Karnataka,12.9716,77.5946,25.9,38,0.0,914.1,9.1,35.3,128,32.2,31.5,4,5,7,0,2026-03-04T20:09:49.845419+05:30
Hyderabad,Telangana,17.385,78.4867,27.7,46,0.0,956.5,8.4,25.6,158,29.0,27.2,4,5,7,0,2026-03-04T20:09:49.845428+05:30
Chennai,Tamil Nadu,13.0827,80.2707,26.4,77,0.0,1010.8,8.8,29.5,100,19.0,16.6,7,0,4,1,2026-03-04T20:09:49.845438+05:30
Kolkata,West Bengal,22.5726,88.3639,24.9,57,0.0,1008.7,7.75,18.7,166,124.3,89.4,0,0,4,0,2026-03-04T20:09:49.845450+05:30
Pune,Maharashtra,18.5204,73.8567,30.3,33,0.0,951.0,7.95,30.2,140,20.1,19.7,0,5,7,0,2026-03-04T20:09:49.845461+05:30
Ahmedabad,Gujarat,23.0225,72.5714,30.3,30,0.0,1006.0,7.2,19.8,102,26.1,23.1,0,5,4,0,2026-03-04T20:09:49.845470+05:30
Jaipur,Rajasthan,26.9124,75.7873,28.1,19,0.0,964.8,6.6,32.0,92,96.4,32.5,4,5,7,0,2026-03-04T20:09:49.845477+05:30
Lucknow,Uttar Pradesh,26.8467,80.9462,25.1,58,0.0,997.6,6.35,24.8,163,152.3,65.7,4,5,7,1,2026-03-04T20:09:49.845484+05:30
Kanpur,Uttar Pradesh,26.4499,80.3319,23.9,55,0.0,995.9,6.35,27.0,178,271.9,75.7,0,5,7,0,2026-03-04T20:09:49.845491+05:30
Chandigarh,Chandigarh,30.7333,76.7794,22.2,63,0.0,972.2,5.75,34.9,134,42.5,38.2,3,5,3,0,2026-03-04T20:09:49.845499+05:30
Srinagar,Jammu and Kashmir,34.0837,74.7973,13.0,68,0.0,844.5,6.15,15.5,146,88.9,63.8,3,5,7,0,2026-03-04T20:09:49.845506+05:30
Jammu,Jammu and Kashmir,32.7266,74.857,24.7,54,0.0,977.0,6.35,22.3,125,63.3,52.7,0,5,7,0,2026-03-04T20:09:49.845514+05:30
Amritsar,Punjab,31.634,74.8723,22.2,65,0.0,984.9,6.3,22.0,157,61.2,47.3,3,5,7,0,2026-03-04T20:09:49.845520+05:30
Ludhiana,Punjab,30.901,75.8573,24.4,67,0.0,983.0,5.95,28.8,153,102.0,62.9,3,5,3,1,2026-03-04T20:09:49.845527+05:30
Jalandhar,Punjab,31.326,75.5762,23.5,64,0.0,984.0,6.15,27.0,154,86.4,60.1,3,5,7,1,2026-03-04T20:09:49.845535+05:30
Dehradun,Uttarakhand,30.6284,78.0322,15.0,64,0.0,831.8,6.1,29.2,97,26.8,19.2,3,5,7,0,2026-03-04T20:09:49.845542+05:30
Shimla,Himachal Pradesh,31.1048,77.1734,14.6,51,0.0,787.3,6.15,50.4,104,27.1,18.8,0,5,7,0,2026-03-04T20:09:49.845549+05:30
Manali,Himachal Pradesh,32.2396,77.1887,18.8,44,0.0,824.7,7.75,32.8,108,26.3,13.9,0,5,7,0,2026-03-04T20:09:49.845556+05:30
Gurgaon,Haryana,28.4595,77.0266,22.6,66,0.0,985.5,5.95,31.0,1170,1505.0,192.3,3,5,3,0,2026-03-04T20:09:49.845562+05:30
Noida,Uttar Pradesh,28.5355,77.391,25.9,52,0.0,988.5,5.85,32.0,1170,1505.0,192.3,4,5,3,0,2026-03-04T20:09:49.845569+05:30
Ghaziabad,Uttar Pradesh,28.6692,77.4538,25.2,57,0.0,986.6,5.8,29.5,194,596.0,102.7,4,5,3,1,2026-03-04T20:09:49.845575+05:30
Faridabad,Haryana,28.4089,77.3178,25.3,49,0.0,987.9,5.9,29.9,1170,1505.0,192.3,4,5,3,0,2026-03-04T20:09:49.845581+05:30
Meerut,Uttar Pradesh,28.9845,77.7064,23.4,63,0.0,984.9,5.7,32.0,194,596.0,102.7,3,5,3,0,2026-03-04T20:09:49.845587+05:30
Agra,Uttar Pradesh,27.1767,78.0081,24.1,51,0.0,992.0,6.2,32.8,411,698.5,99.4,0,5,7,0,2026-03-04T20:09:49.845595+05:30
Varanasi,Uttar Pradesh,25.3176,82.9739,23.5,66,0.0,1001.5,7.0,18.4,152,161.6,72.6,3,5,4,1,2026-03-04T20:09:49.845604+05:30
Prayagraj,Uttar Pradesh,25.4358,81.8463,24.4,60,0.0,1000.0,6.85,23.4,154,112.0,60.1,0,5,4,1,2026-03-04T20:09:49.845614+05:30
Gorakhpur,Uttar Pradesh,26.7606,83.3732,23.3,67,0.0,1001.1,6.7,12.2,170,142.5,97.3,3,5,4,1,2026-03-04T20:09:49.845621+05:30
Bareilly,Uttar Pradesh,28.367,79.4304,22.5,67,0.0,990.7,6.05,20.5,162,100.4,73.3,3,5,7,1,2026-03-04T20:09:49.845628+05:30
Aligarh,Uttar Pradesh,27.8974,78.088,23.2,56,0.0,989.4,5.95,28.8,605,1102.7,168.1,0,5,3,0,2026-03-04T20:09:49.845635+05:30
Moradabad,Uttar Pradesh,28.8386,78.7733,24.3,61,0.0,987.3,5.85,23.4,157,139.7,82.4,3,5,3,1,2026-03-04T20:09:49.845641+05:30
Saharanpur,Uttar Pradesh,29.9637,77.546,23.4,60,0.0,978.4,5.5,39.2,150,192.8,61.5,0,5,3,0,2026-03-04T20:09:49.845647+05:30
Jhansi,Uttar Pradesh,25.4484,78.5685,27.2,36,0.0,982.6,6.8,31.7,85,32.4,23.2,4,5,7,0,2026-03-04T20:09:53.196735+05:30
Surat,Gujarat,21.1702,72.8311,28.6,45,0.0,1009.6,7.05,27.7,145,51.9,49.0,4,0,4,0,2026-03-04T20:09:53.196765+05:30
Vadodara,Gujarat,22.3072,73.1812,31.8,37,0.0,1007.7,7.2,18.7,147,38.6,34.6,0,5,4,0,2026-03-04T20:09:53.196774+05:30
Rajkot,Gujarat,22.3039,70.8022,30.2,32,0.0,998.5,7.0,25.9,112,28.3,26.8,0,5,7,0,2026-03-04T20:09:53.196782+05:30
Thane,Maharashtra,19.2183,72.9781,29.9,44,0.0,1009.9,7.35,35.3,212,43.2,41.1,4,0,4,1,2026-03-04T20:09:53.196790+05:30
Nagpur,Maharashtra,21.1458,79.0882,29.6,35,0.0,976.5,7.75,23.0,105,36.9,31.4,4,5,7,0,2026-03-04T20:09:53.196797+05:30
Nashik,Maharashtra,19.9975,73.7898,28.3,34,0.0,948.7,7.55,23.4,142,22.0,21.5,4,5,7,0,2026-03-04T20:09:53.196804+05:30
Aurangabad,Maharashtra,19.8762,75.3433,28.3,35,0.0,947.5,8.05,22.7,145,23.3,22.7,4,5,7,0,2026-03-04T20:09:53.196812+05:30
Solapur,Maharashtra,17.6599,75.9064,28.1,48,0.0,959.7,8.3,18.0,150,20.4,19.4,4,5,7,1,2026-03-04T20:09:53.196838+05:30
Kolhapur,Maharashtra,16.705,74.2433,27.1,48,0.0,950.3,8.45,37.8,156,45.5,44.9,4,5,7,0,2026-03-04T20:09:53.196844+05:30
Goa,Goa,15.2993,74.124,27.6,84,0.0,1000.5,8.5,35.6,122,42.5,37.7,7,5,4,1,2026-03-04T20:09:53.196851+05:30
Jodhpur,Rajasthan,26.2389,73.0243,28.5,33,0.0,987.6,6.9,18.0,101,73.6,27.3,4,5,7,0,2026-03-04T20:09:53.196858+05:30
Udaipur,Rajasthan,24.5854,73.7125,26.6,30,0.0,951.6,7.5,23.8,104,29.6,17.2,4,5,7,0,2026-03-04T20:09:53.196866+05:30
Kota,Rajasthan,25.2138,75.8648,28.9,33,0.0,983.5,6.9,17.6,88,44.2,28.5,4,5,7,0,2026-03-04T20:09:53.196872+05:30
Bikaner,Rajasthan,28.0229,73.3119,28.4,35,0.0,986.9,6.55,23.8,67,58.2,19.6,4,5,7,0,2026-03-04T20:09:53.196879+05:30
Ajmer,Rajasthan,26.4499,74.6399,27.8,30,0.0,959.5,6.85,23.4,81,52.6,22.9,4,5,7,0,2026-03-04T20:09:53.196886+05:30
Gwalior,Madhya Pradesh,26.2183,78.1828,25.9,49,0.0,987.7,6.5,29.2,91,60.1,28.1,4,5,7,0,2026-03-04T20:09:53.196892+05:30
Indore,Madhya Pradesh,22.7196,75.8577,24.2,50,0.0,952.2,7.45,20.5,101,30.9,24.6,0,5,7,0,2026-03-04T20:09:53.196899+05:30
Bhopal,Madhya Pradesh,23.2599,77.4126,23.3,44,0.0,958.1,7.3,23.0,82,18.4,14.1,0,5,7,0,2026-03-04T20:09:53.196905+05:30
Jabalpur,Madhya Pradesh,23.1815,79.9864,27.3,36,0.0,965.4,7.45,23.4,83,26.0,17.7,4,5,7,0,2026-03-04T20:09:53.196911+05:30
Ujjain,Madhya Pradesh,23.1765,75.7885,25.0,45,0.0,958.1,7.35,19.4,106,41.8,33.1,4,5,7,0,2026-03-04T20:09:53.196919+05:30
Visakhapatnam,Andhra Pradesh,17.6868,83.2185,25.9,73,0.0,1006.6,8.4,36.7,133,34.0,29.8,7,5,4,1,2026-03-04T20:09:53.196925+05:30
Vijayawada,Andhra Pradesh,16.5062,80.648,28.2,53,0.0,1005.7,8.45,22.0,123,43.5,42.0,4,5,4,1,2026-03-04T20:09:53.196932+05:30
Guntur,Andhra Pradesh,16.3067,80.4365,27.1,64,0.0,1007.1,8.45,25.6,112,46.4,44.9,7,5,4,1,2026-03-04T20:09:53.196939+05:30
Nellore,Andhra Pradesh,14.4426,79.9865,26.3,74,0.0,1009.3,8.65,29.9,116,19.1,16.8,7,0,4,1,2026-03-04T20:09:53.196947+05:30
Kurnool,Andhra Pradesh,15.8281,78.0373,31.8,39,0.0,979.4,8.45,27.0,136,20.2,19.5,0,5,7,1,2026-03-04T20:09:53.196954+05:30
Kakinada,Andhra Pradesh,16.9891,82.2475,25.5,67,0.0,1010.4,8.4,33.8,100,30.0,26.4,7,0,4,1,2026-03-04T20:09:53.196961+05:30
Tirupati,Andhra Pradesh,13.6288,79.4192,27.1,44,0.0,995.0,8.8,34.6,141,35.2,34.1,4,5,7,0,2026-03-04T20:09:53.196968+05:30
Warangal,Telangana,17.9689,79.5941,29.4,40,0.0,981.8,8.2,20.5,139,33.8,31.5,4,5,7,0,2026-03-04T20:09:53.196974+05:30
Nizamabad,Telangana,18.6725,78.0941,27.4,46,0.0,968.0,8.1,26.3,138,36.3,33.2,4,5,7,0,2026-03-04T20:09:53.196980+05:30
Mysore,Karnataka,12.2958,76.6396,27.3,29,0.0,930.4,9.15,40.3,127,34.2,33.2,4,5,7,0,2026-03-04T20:09:53.196987+05:30
Mangalore,Karnataka,12.9141,74.856,28.6,82,0.0,1009.5,8.75,29.2,111,38.2,33.4,7,0,4,1,2026-03-04T20:09:53.196994+05:30
Hubli-Dharwad,Karnataka,15.3647,75.124,28.6,37,0.0,943.1,8.65,25.6,162,22.5,22.1,4,5,7,0,2026-03-04T20:09:53.197000+05:30
Belgaum,Karnataka,15.8497,74.4977,26.0,73,0.0,928.4,8.7,32.4,169,32.2,31.5,7,5,7,1,2026-03-04T20:09:56.546751+05:30
Coimbatore,Tamil Nadu,11.0168,76.9558,26.4,41,0.0,963.9,9.15,43.2,140,34.7,33.6,4,5,7,0,2026-03-04T20:09:56.546782+05:30
Madurai,Tamil Nadu,9.9252,78.1198,28.7,51,0.0,995.5,9.1,25.9,99,25.4,24.7,4,5,7,1,2026-03-04T20:09:56.546791+05:30
Trichy,Tamil Nadu,10.7905,78.7047,27.9,59,0.0,1002.6,9.0,31.0,96,22.5,21.8,4,5,4,1,2026-03-04T20:09:56.546800+05:30
Salem,Tamil Nadu,11.6643,78.146,29.4,40,0.0,979.9,9.0,37.8,125,20.1,19.3,4,5,7,0,2026-03-04T20:09:56.546807+05:30
Tirunelveli,Tamil Nadu,8.7139,77.7567,27.0,74,0.0,1006.0,9.15,41.4,81,17.5,16.6,7,5,4,1,2026-03-04T20:09:56.546831+05:30
Vellore,Tamil Nadu,12.9165,79.1325,27.7,46,0.0,987.9,8.85,38.9,129,24.1,23.3,4,5,7,0,2026-03-04T20:09:56.546839+05:30
Erode,Tamil Nadu,11.341,77.7172,30.4,34,0.0,991.0,9.05,31.0,144,26.5,25.9,0,5,7,0,2026-03-04T20:09:56.546846+05:30
Kochi,Kerala,9.9312,76.2673,28.4,79,0.0,1011.2,8.95,34.6,126,34.5,32.7,7,0,4,1,2026-03-04T20:09:56.546853+05:30
Thiruvananthapuram,Kerala,8.5241,76.9366,28.2,72,0.0,1010.6,9.0,27.4,135,26.0,23.5,7,0,4,1,2026-03-04T20:09:56.546860+05:30
Kozhikode,Kerala,11.2588,75.7804,28.8,78,0.0,1010.5,8.85,31.0,93,32.2,27.8,7,0,4,1,2026-03-04T20:09:56.546867+05:30
Thrissur,Kerala,10.5276,76.2144,27.4,84,0.0,1009.5,8.9,37.8,140,32.4,30.6,7,0,4,1,2026-03-04T20:09:56.546874+05:30
Kannur,Kerala,11.8745,75.3704,28.3,77,0.0,1009.8,8.8,33.5,101,39.3,33.9,7,0,4,1,2026-03-04T20:09:56.546880+05:30
Patna,Bihar,25.5941,85.1376,25.6,57,0.0,1004.4,7.2,15.5,176,131.8,96.9,4,5,4,1,2026-03-04T20:09:56.546887+05:30
Gaya,Bihar,24.7914,85.0002,22.9,64,0.0,997.6,7.25,17.6,151,139.7,71.0,3,5,7,0,2026-03-04T20:09:56.546894+05:30
Muzaffarpur,Bihar,26.1209,85.3647,23.6,60,0.0,1004.2,7.15,14.0,173,115.9,91.0,0,5,4,0,2026-03-04T20:09:56.546899+05:30
Bhagalpur,Bihar,25.2425,87.0117,23.8,62,0.0,1004.9,7.2,8.3,176,106.9,75.9,3,5,4,1,2026-03-04T20:09:56.546906+05:30
Ranchi,Jharkhand,23.3441,85.3096,21.7,43,0.0,940.5,7.9,30.6,118,85.2,30.6,0,5,7,0,2026-03-04T20:09:56.546912+05:30
Jamshedpur,Jharkhand,22.8046,86.2029,27.3,41,0.0,993.5,7.85,19.1,160,121.5,57.4,4,5,7,0,2026-03-04T20:09:56.546918+05:30
Dhanbad,Jharkhand,23.7957,86.4304,26.3,36,0.0,982.9,7.7,23.4,146,119.2,62.6,4,5,7,0,2026-03-04T20:09:56.546925+05:30
Bokaro,Jharkhand,23.6693,86.1511,25.0,39,0.0,987.1,7.7,23.8,151,136.4,61.7,4,5,7,0,2026-03-04T20:09:56.546931+05:30
Bhubaneswar,Odisha,20.2961,85.8245,26.4,72,0.0,1004.6,8.15,26.6,174,77.3,65.0,7,5,4,1,2026-03-04T20:09:56.546937+05:30
Cuttack,Odisha,20.4625,85.8828,29.0,38,0.0,1006.1,8.15,27.0,174,77.3,65.0,4,5,4,0,2026-03-04T20:09:56.546943+05:30
Rourkela,Odisha,22.2604,84.8536,27.3,45,0.0,987.4,7.75,21.2,136,61.7,37.8,4,5,7,0,2026-03-04T20:09:56.546949+05:30
Raipur,Chhattisgarh,21.2514,81.6296,28.0,38,0.0,977.5,7.8,19.8,127,58.1,48.4,4,5,7,0,2026-03-04T20:09:56.546955+05:30
Bhilai,Chhattisgarh,21.1938,81.3509,26.1,47,0.0,977.7,7.8,16.9,112,55.5,46.3,4,5,7,0,2026-03-04T20:09:56.546961+05:30
Guwahati,Assam,26.1158,91.7086,25.2,63,0.0,1004.8,7.1,18.4,150,59.8,53.4,7,5,4,1,2026-03-04T20:09:56.546967+05:30
Agartala,Tripura,23.8315,91.2868,21.9,72,0.0,1008.8,7.5,20.9,167,95.9,74.3,3,0,4,1,2026-03-04T20:09:56.546974+05:30
Shillong,Meghalaya,25.5788,91.8933,11.8,93,0.0,857.0,7.5,29.9,132,53.6,46.3,3,10,7,0,2026-03-04T20:09:56.546980+05:30
Imphal,Manipur,24.817,93.9368,16.0,69,0.0,924.7,7.7,21.2,132,63.3,56.8,3,5,7,0,2026-03-04T20:09:56.546987+05:30
Aizawl,Mizoram,23.7271,92.7176,16.4,70,0.0,893.3,7.7,22.0,159,100.6,86.8,3,5,7,0,2026-03-04T20:09:56.546993+05:30
Kohima,Nagaland,25.6701,94.1077,14.1,80,0.0,856.0,7.55,38.5,150,75.0,64.7,3,5,7,0,2026-03-04T20:09:56.546999+05:30
Gangtok,Sikkim,27.3314,88.6138,14.2,80,0.0,839.3,7.45,22.7,135,61.7,50.3,3,5,7,0,2026-03-04T20:09:56.547005+05:30
Siliguri,West Bengal,26.7271,88.3953,20.3,74,0.0,997.7,7.1,19.8,157,74.7,58.3,3,5,7,0,2026-03-04T20:09:59.897390+05:30
Durgapur,West Bengal,23.5204,87.3119,25.8,37,0.0,998.0,7.7,20.5,145,101.0,60.5,4,5,7,0,2026-03-04T20:09:59.897423+05:30
Asansol,West Bengal,23.6739,86.9524,26.2,38,0.0,996.7,7.7,20.9,144,98.3,51.8,4,5,7,0,2026-03-04T20:09:59.897436+05:30
Pondicherry,Puducherry,11.9139,79.8145,24.4,86,0.0,1012.0,8.85,29.2,90,20.4,17.3,3,0,4,1,2026-03-04T20:09:59.897446+05:30
Port Blair,Andaman and Nicobar Islands,11.6234,92.7265,27.3,72,0.0,1009.3,8.8,25.6,97,37.4,32.2,7,0,4,1,2026-03-04T20:09:59.897456+05:30
Haridwar,Uttarakhand,29.9457,78.1642,23.3,71,0.0,977.4,5.6,19.8,161,114.3,47.7,3,5,3,1,2026-03-04T20:09:59.897464+05:30
Rishikesh,Uttarakhand,30.0869,78.2676,21.5,66,0.0,970.4,5.65,22.7,167,49.4,35.3,3,5,3,0,2026-03-04T20:09:59.897474+05:30
Nainital,Uttarakhand,29.3919,79.4542,16.0,78,0.0,807.9,6.45,57.2,167,88.0,63.6,3,5,7,0,2026-03-04T20:09:59.897482+05:30
Mussoorie,Uttarakhand,30.4599,78.0664,16.0,67,0.0,804.5,6.0,35.6,172,54.8,40.5,3,5,3,0,2026-03-04T20:09:59.897490+05:30
Dharamshala,Himachal Pradesh,32.219,76.3234,21.4,49,0.0,873.1,6.25,27.7,103,28.1,18.9,0,5,7,0,2026-03-04T20:09:59.897499+05:30
Dalhousie,Himachal Pradesh,32.5387,75.971,18.3,54,0.0,807.4,6.45,22.0,126,46.2,39.0,0,5,7,0,2026-03-04T20:09:59.897508+05:30
Patiala,Punjab,30.3398,76.3869,23.0,71,0.0,982.1,5.65,30.6,180,478.7,93.4,3,5,3,1,2026-03-04T20:09:59.897516+05:30
Bhatinda,Punjab,30.211,74.9455,23.5,71,0.0,988.1,6.3,22.7,152,62.4,41.7,3,5,7,1,2026-03-04T20:09:59.897524+05:30
Rohtak,Haryana,28.8955,76.6066,23.1,68,0.0,985.9,5.85,31.0,395,868.0,127.1,3,5,3,1,2026-03-04T20:09:59.897532+05:30
Panipat,Haryana,29.3909,76.9635,22.8,68,0.0,984.1,5.65,31.0,920,1549.7,192.8,3,5,3,1,2026-03-04T20:09:59.897540+05:30
Mathura,Uttar Pradesh,27.4924,77.6737,25.8,46,0.0,991.1,6.1,29.9,478,780.4,111.1,4,5,7,0,2026-03-04T20:09:59.897548+05:30
Vrindavan,Uttar Pradesh,27.5823,77.7027,23.5,55,0.0,991.4,6.1,31.7,478,780.4,111.1,0,5,7,0,2026-03-04T20:09:59.897556+05:30
Ayodhya,Uttar Pradesh,26.7922,82.1998,24.5,61,0.0,999.3,6.5,9.7,163,231.0,96.4,3,5,7,1,2026-03-04T20:09:59.897563+05:30
Ratlam,Madhya Pradesh,23.3315,75.0367,26.1,47,0.0,958.9,7.3,21.2,108,31.5,24.9,4,5,7,0,2026-03-04T20:09:59.897571+05:30
Sagar,Madhya Pradesh,23.8388,78.7378,25.9,37,0.0,954.4,7.25,25.6,94,19.8,13.8,4,5,7,0,2026-03-04T20:09:59.897578+05:30
Satna,Madhya Pradesh,24.6005,80.8322,25.1,40,0.0,975.4,7.25,34.9,117,45.1,29.1,4,5,7,0,2026-03-04T20:09:59.897587+05:30
Akola,Maharashtra,20.7002,77.0082,28.4,33,0.0,978.3,7.8,18.7,128,31.9,28.6,4,5,7,0,2026-03-04T20:09:59.897595+05:30
Amravati,Maharashtra,20.9374,77.7796,28.6,50,0.0,970.4,7.75,16.2,126,30.3,26.2,4,5,7,1,2026-03-04T20:09:59.897604+05:30
Latur,Maharashtra,18.4088,76.5604,26.8,44,0.0,942.8,8.25,19.8,147,28.1,26.1,4,5,7,0,2026-03-04T20:09:59.897612+05:30
Nanded,Maharashtra,19.1383,77.3091,28.1,47,0.0,971.7,8.0,13.0,131,26.1,24.0,4,5,7,0,2026-03-04T20:09:59.897620+05:30
Gulbarga,Karnataka,17.3297,76.8343,30.2,32,0.0,961.4,8.35,23.0,160,17.9,16.9,0,5,7,0,2026-03-04T20:09:59.897627+05:30
Bidar,Karnataka,17.9104,77.5199,27.2,41,0.0,938.6,8.3,25.9,141,30.4,27.7,4,5,7,0,2026-03-04T20:09:59.897634+05:30
Hospet,Karnataka,15.2689,76.3909,31.2,30,0.0,958.4,8.6,25.9,172,30.7,30.2,0,5,7,0,2026-03-04T20:09:59.897642+05:30
Tirupur,Tamil Nadu,11.1085,77.3411,30.4,34,0.0,977.4,9.15,32.4,160,41.6,40.5,0,5,7,0,2026-03-04T20:09:59.897650+05:30
Alappuzha,Kerala,9.4981,76.3388,28.5,76,0.0,1011.3,8.95,30.2,124,30.5,28.1,7,0,4,1,2026-03-04T20:09:59.897657+05:30
Munnar,Kerala,10.0889,77.0595,21.6,82,0.0,859.2,9.45,24.5,100,27.3,26.8,3,5,7,1,2026-03-04T20:09:59.897665+05:30
Silchar,Assam,24.8333,92.7789,25.6,58,0.0,1007.2,7.45,14.4,151,72.4,63.1,4,5,4,1,2026-03-04T20:09:59.897673+05:30
Dibrugarh,Assam,27.4728,94.912,24.8,65,0.0,998.0,7.15,9.0,129,71.2,59.3,3,5,7,1,2026-03-04T20:09:59.897681+05:30
