city,state,latitude,longitude,temp,humidity,rain,pressure,uv_index,wind_gusts,aqi,pm10,pm2_5,mosquito_risk,arthritis_risk,migraine_risk,frizz_risk,updated_at
Delhi,Delhi,28.6139,77.209,34.1,26,0.0,985.3,6.0,25.9,167,299.0,47.0,0,5,3,0,2026-03-08T16:54:41.883790+05:30
Mumbai,Maharashtra,19.076,72.8777,28.1,67,0.0,1006.5,7.5,25.6,206,53.8,51.5,7,5,4,1,2026-03-08T16:54:41.883825+05:30
Bangalore,Karnataka,12.9716,77.5946,32.5,19,0.0,911.2,9.25,28.4,152,35.6,28.3,0,5,7,0,2026-03-08T16:54:41.883840+05:30
Hyderabad,Telangana,17.385,78.4867,35.6,22,0.0,952.8,8.55,24.5,140,31.1,21.5,0,5,10,0,2026-03-08T16:54:41.883850+05:30
Chennai,Tamil Nadu,13.0827,80.2707,30.5,60,0.0,1007.4,8.95,32.4,77,34.6,23.1,0,5,4,1,2026-03-08T16:54:41.883858+05:30
Kolkata,West Bengal,22.5726,88.3639,28.6,66,0.0,1008.6,7.25,15.8,151,66.1,56.5,7,0,4,1,2026-03-08T16:54:41.883866+05:30
Pune,Maharashtra,18.5204,73.8567,38.4,16,0.0,947.7,8.05,30.6,122,14.3,12.3,0,5,10,0,2026-03-08T16:54:41.883877+05:30
Ahmedabad,Gujarat,23.0225,72.5714,38.2,15,0.0,1003.2,7.35,21.2,104,16.5,13.8,0,5,7,0,2026-03-08T16:54:41.883885+05:30
Jaipur,Rajasthan,26.9124,75.7873,36.8,8,0.0,962.5,6.8,25.9,80,105.2,15.8,0,5,10,1,2026-03-08T16:54:41.883893+05:30
Lucknow,Uttar Pradesh,26.8467,80.9462,31.9,43,0.0,996.0,6.5,19.4,180,121.1,63.8,0,5,7,1,2026-03-08T16:54:41.883900+05:30
Kanpur,Uttar Pradesh,26.4499,80.3319,32.2,40,0.0,994.3,6.5,16.9,174,169.5,58.2,0,5,7,1,2026-03-08T16:54:41.883908+05:30
Chandigarh,Chandigarh,30.7333,76.7794,30.5,42,0.0,971.3,5.9,28.1,154,59.0,44.2,0,5,3,1,2026-03-08T16:54:41.883915+05:30
Srinagar,Jammu and Kashmir,34.0837,74.7973,21.5,30,0.0,847.2,6.8,17.6,126,22.4,11.3,0,5,7,0,2026-03-08T16:54:41.883921+05:30
Jammu,Jammu and Kashmir,32.7266,74.857,31.3,39,0.0,975.8,6.4,25.2,110,38.5,20.3,0,5,7,0,2026-03-08T16:54:41.883928+05:30
Amritsar,Punjab,31.634,74.8723,31.8,45,0.0,983.9,6.4,19.1,164,71.9,38.8,0,5,7,1,2026-03-08T16:54:41.883934+05:30
Ludhiana,Punjab,30.901,75.8573,31.6,43,0.0,981.6,6.15,25.2,173,74.3,45.2,0,5,7,1,2026-03-08T16:54:41.883940+05:30
Jalandhar,Punjab,31.326,75.5762,31.8,41,0.0,982.8,6.3,23.4,171,92.2,42.0,0,5,7,1,2026-03-08T16:54:41.883951+05:30
Dehradun,Uttarakhand,30.6284,78.0322,20.9,67,0.0,834.0,6.3,37.1,99,33.4,18.9,3,5,7,0,2026-03-08T16:54:41.883958+05:30
Shimla,Himachal Pradesh,31.1048,77.1734,20.0,60,0.0,789.8,6.35,46.4,113,31.2,15.0,0,5,7,0,2026-03-08T16:54:41.883964+05:30
Manali,Himachal Pradesh,32.2396,77.1887,22.6,33,0.0,825.3,8.05,30.6,86,26.1,10.0,0,5,7,0,2026-03-08T16:54:41.883971+05:30
Gurgaon,Haryana,28.4595,77.0266,33.9,28,0.0,983.8,6.1,20.5,196,1099.0,108.3,0,5,7,0,2026-03-08T16:54:41.883977+05:30
Noida,Uttar Pradesh,28.5355,77.391,34.4,26,0.0,986.8,6.0,25.9,196,1099.0,108.3,0,5,3,0,2026-03-08T16:54:41.883983+05:30
Ghaziabad,Uttar Pradesh,28.6692,77.4538,33.5,31,0.0,984.9,6.0,25.6,172,180.7,40.7,0,5,3,0,2026-03-08T16:54:41.883989+05:30
Faridabad,Haryana,28.4089,77.3178,33.8,26,0.0,986.1,6.05,22.0,196,1099.0,108.3,0,5,7,0,2026-03-08T16:54:41.883995+05:30
Meerut,Uttar Pradesh,28.9845,77.7064,33.1,36,0.0,983.5,5.85,28.4,172,180.7,40.7,0,5,3,0,2026-03-08T16:54:41.884001+05:30
Agra,Uttar Pradesh,27.1767,78.0081,35.8,22,0.0,989.8,6.4,20.9,157,429.3,48.8,0,5,10,0,2026-03-08T16:54:41.884007+05:30
Varanasi,Uttar Pradesh,25.3176,82.9739,31.0,51,0.0,1000.0,7.2,11.2,174,84.8,71.9,0,5,4,1,2026-03-08T16:54:41.884015+05:30
Prayagraj,Uttar Pradesh,25.4358,81.8463,30.8,48,0.0,998.6,7.05,13.3,178,89.2,71.9,0,5,7,1,2026-03-08T16:54:41.884021+05:30
Gorakhpur,Uttar Pradesh,26.7606,83.3732,30.4,50,0.0,999.7,6.9,13.7,173,74.3,64.0,0,5,7,1,2026-03-08T16:54:41.884027+05:30
Bareilly,Uttar Pradesh,28.367,79.4304,31.9,42,0.0,988.8,6.2,21.6,172,105.0,54.2,0,5,7,1,2026-03-08T16:54:41.884034+05:30
Aligarh,Uttar Pradesh,27.8974,78.088,34.5,26,0.0,987.7,6.1,24.5,173,415.4,73.6,0,5,7,0,2026-03-08T16:54:41.884041+05:30
Moradabad,Uttar Pradesh,28.8386,78.7733,32.3,39,0.0,985.5,6.05,25.2,182,104.1,61.5,0,5,7,1,2026-03-08T16:54:41.884047+05:30
Saharanpur,Uttar Pradesh,29.9637,77.546,31.6,39,0.0,977.6,5.65,34.2,172,117.1,54.8,0,5,3,0,2026-03-08T16:54:41.884053+05:30
Jhansi,Uttar Pradesh,25.4484,78.5685,35.0,16,0.0,980.5,7.0,26.3,99,34.6,15.0,0,5,7,0,2026-03-08T16:54:45.097848+05:30
Surat,Gujarat,21.1702,72.8311,35.8,30,0.0,1006.4,7.25,27.0,146,37.4,36.4,0,5,7,0,2026-03-08T16:54:45.097868+05:30
Vadodara,Gujarat,22.3072,73.1812,39.7,17,0.0,1004.6,7.35,19.4,100,10.6,9.9,0,5,7,0,2026-03-08T16:54:45.097876+05:30
Rajkot,Gujarat,22.3039,70.8022,36.0,27,0.0,995.6,7.15,22.3,72,25.6,15.4,0,5,10,0,2026-03-08T16:54:45.097884+05:30
Thane,Maharashtra,19.2183,72.9781,32.1,47,0.0,1006.2,7.5,33.1,206,53.8,51.5,0,5,4,1,2026-03-08T16:54:45.097890+05:30
Nagpur,Maharashtra,21.1458,79.0882,36.0,18,0.0,973.5,7.9,25.6,119,34.9,23.2,0,5,10,0,2026-03-08T16:54:45.097896+05:30
Nashik,Maharashtra,19.9975,73.7898,37.2,14,0.0,945.7,7.7,27.7,123,12.3,11.3,0,5,10,0,2026-03-08T16:54:45.097902+05:30
Aurangabad,Maharashtra,19.8762,75.3433,36.9,14,0.0,944.3,8.2,31.7,116,18.1,12.3,0,5,10,0,2026-03-08T16:54:45.097908+05:30
Solapur,Maharashtra,17.6599,75.9064,36.1,22,0.0,956.4,8.45,19.8,138,22.5,17.0,0,5,10,0,2026-03-08T16:54:45.097915+05:30
Kolhapur,Maharashtra,16.705,74.2433,35.7,17,0.0,947.0,8.6,37.1,157,25.8,21.0,0,5,10,0,2026-03-08T16:54:45.097920+05:30
Goa,Goa,15.2993,74.124,29.6,71,0.0,996.2,8.65,35.6,129,35.6,31.7,7,5,7,1,2026-03-08T16:54:45.097926+05:30
Jodhpur,Rajasthan,26.2389,73.0243,36.9,16,0.0,985.4,7.05,18.7,64,24.0,6.7,0,5,10,0,2026-03-08T16:54:45.097932+05:30
Udaipur,Rajasthan,24.5854,73.7125,36.0,17,0.0,949.3,7.7,19.8,85,4.2,4.0,0,5,10,0,2026-03-08T16:54:45.097938+05:30
Kota,Rajasthan,25.2138,75.8648,37.0,18,0.0,981.0,7.1,11.2,88,9.1,9.0,0,5,10,0,2026-03-08T16:54:45.097943+05:30
Bikaner,Rajasthan,28.0229,73.3119,36.4,16,0.0,984.4,6.75,19.4,56,68.9,13.0,0,5,10,0,2026-03-08T16:54:45.097949+05:30
Ajmer,Rajasthan,26.4499,74.6399,35.5,13,0.0,957.6,7.05,23.0,68,14.8,5.3,0,5,10,0,2026-03-08T16:54:45.097955+05:30
Gwalior,Madhya Pradesh,26.2183,78.1828,33.8,27,0.0,985.8,6.7,23.4,93,27.6,11.1,0,5,7,0,2026-03-08T16:54:45.097960+05:30
Indore,Madhya Pradesh,22.7196,75.8577,34.7,16,0.0,950.2,7.65,23.0,102,10.9,9.7,0,5,7,0,2026-03-08T16:54:45.097966+05:30
Bhopal,Madhya Pradesh,23.2599,77.4126,34.3,23,0.0,956.0,7.5,22.7,95,25.4,12.0,0,5,7,0,2026-03-08T16:54:45.097972+05:30
Jabalpur,Madhya Pradesh,23.1815,79.9864,33.0,28,0.0,963.5,7.6,24.8,125,66.4,36.2,0,5,7,0,2026-03-08T16:54:45.097977+05:30
Ujjain,Madhya Pradesh,23.1765,75.7885,34.3,21,0.0,956.1,7.55,19.1,94,13.0,12.3,0,5,7,0,2026-03-08T16:54:45.097983+05:30
Visakhapatnam,Andhra Pradesh,17.6868,83.2185,28.5,66,0.0,1005.0,8.2,38.9,96,33.8,26.3,7,5,4,1,2026-03-08T16:54:45.097989+05:30
Vijayawada,Andhra Pradesh,16.5062,80.648,33.3,46,0.0,1002.2,8.6,28.4,98,42.3,32.7,0,5,4,1,2026-03-08T16:54:45.097994+05:30
Guntur,Andhra Pradesh,16.3067,80.4365,32.0,50,0.0,1003.9,8.6,27.4,97,43.5,33.2,0,5,4,1,2026-03-08T16:54:45.098000+05:30
Nellore,Andhra Pradesh,14.4426,79.9865,30.9,56,0.0,1005.8,8.8,33.1,88,40.7,29.2,0,5,4,1,2026-03-08T16:54:45.098006+05:30
Kurnool,Andhra Pradesh,15.8281,78.0373,37.1,21,0.0,975.6,8.6,25.6,130,38.8,26.4,0,5,10,0,2026-03-08T16:54:45.098013+05:30
Kakinada,Andhra Pradesh,16.9891,82.2475,29.7,60,0.0,1008.3,8.55,33.8,80,33.2,22.8,4,0,4,1,2026-03-08T16:54:45.098018+05:30
Tirupati,Andhra Pradesh,13.6288,79.4192,35.0,25,0.0,990.2,8.95,31.3,118,44.7,32.6,0,5,7,0,2026-03-08T16:54:45.098024+05:30
Warangal,Telangana,17.9689,79.5941,34.2,36,0.0,978.6,8.35,27.7,120,45.9,32.7,0,5,7,1,2026-03-08T16:54:45.098029+05:30
Nizamabad,Telangana,18.6725,78.0941,34.9,27,0.0,964.8,8.25,31.0,133,36.0,22.4,0,5,7,0,2026-03-08T16:54:45.098035+05:30
Mysore,Karnataka,12.2958,76.6396,33.3,25,0.0,927.4,9.25,29.9,143,37.4,30.5,0,5,7,0,2026-03-08T16:54:45.098041+05:30
Mangalore,Karnataka,12.9141,74.856,28.7,78,0.0,1004.8,8.85,25.2,113,37.6,34.7,7,5,4,1,2026-03-08T16:54:45.098046+05:30
Hubli-Dharwad,Karnataka,15.3647,75.124,36.0,16,0.0,939.6,8.8,27.7,153,28.0,22.9,0,5,10,0,2026-03-08T16:54:45.098052+05:30
Belgaum,Karnataka,15.8497,74.4977,35.6,18,0.0,925.2,8.85,33.8,165,24.7,20.5,0,5,10,0,2026-03-08T16:54:48.324241+05:30
Coimbatore,Tamil Nadu,11.0168,76.9558,34.2,24,0.0,960.0,9.2,40.0,142,34.7,27.6,0,5,7,0,2026-03-08T16:54:48.324268+05:30
Madurai,Tamil Nadu,9.9252,78.1198,35.7,28,0.0,990.7,9.15,28.8,101,35.2,27.4,0,5,10,0,2026-03-08T16:54:48.324281+05:30
Trichy,Tamil Nadu,10.7905,78.7047,35.6,26,0.0,997.9,9.05,31.0,98,40.6,30.0,0,5,10,0,2026-03-08T16:54:48.324290+05:30
Salem,Tamil Nadu,11.6643,78.146,35.1,28,0.0,975.4,9.1,22.0,136,40.5,31.9,0,5,10,0,2026-03-08T16:54:48.324299+05:30
Tirunelveli,Tamil Nadu,8.7139,77.7567,33.7,42,0.0,1001.3,9.15,41.0,122,40.3,30.4,0,5,4,1,2026-03-08T16:54:48.324309+05:30
Vellore,Tamil Nadu,12.9165,79.1325,34.0,26,0.0,983.5,9.0,35.6,134,45.1,34.0,0,5,7,0,2026-03-08T16:54:48.324317+05:30
Erode,Tamil Nadu,11.341,77.7172,36.4,26,0.0,986.8,9.1,22.3,101,39.3,31.5,0,5,10,0,2026-03-08T16:54:48.324325+05:30
Kochi,Kerala,9.9312,76.2673,28.7,80,0.0,1006.3,8.9,35.6,133,40.6,37.4,7,5,4,1,2026-03-08T16:54:48.324333+05:30
Thiruvananthapuram,Kerala,8.5241,76.9366,28.7,79,0.0,1006.4,9.05,31.7,108,30.5,27.6,7,5,4,1,2026-03-08T16:54:48.324341+05:30
Kozhikode,Kerala,11.2588,75.7804,29.5,75,0.0,1006.2,8.95,29.5,94,26.5,24.2,7,5,4,1,2026-03-08T16:54:48.324348+05:30
Thrissur,Kerala,10.5276,76.2144,30.9,68,0.0,1004.9,9.0,36.7,125,39.1,33.2,3,5,4,1,2026-03-08T16:54:48.324356+05:30
Kannur,Kerala,11.8745,75.3704,29.9,70,0.0,1005.6,8.9,28.4,103,30.9,28.1,7,5,4,1,2026-03-08T16:54:48.324364+05:30
Patna,Bihar,25.5941,85.1376,31.0,46,0.0,1003.0,7.35,18.0,173,93.8,81.7,0,5,4,1,2026-03-08T16:54:48.324371+05:30
Gaya,Bihar,24.7914,85.0002,29.7,58,0.0,996.1,7.45,17.6,159,82.2,71.2,4,5,7,1,2026-03-08T16:54:48.324379+05:30
Muzaffarpur,Bihar,26.1209,85.3647,30.1,47,0.0,1003.3,7.3,19.1,176,93.4,82.0,0,5,4,1,2026-03-08T16:54:48.324386+05:30
Bhagalpur,Bihar,25.2425,87.0117,28.8,58,0.0,1004.0,7.35,15.8,163,95.9,76.4,4,5,4,1,2026-03-08T16:54:48.324393+05:30
Ranchi,Jharkhand,23.3441,85.3096,30.5,33,0.0,939.5,8.1,23.0,161,92.2,69.4,0,5,7,0,2026-03-08T16:54:48.324400+05:30
Jamshedpur,Jharkhand,22.8046,86.2029,31.7,46,0.0,992.4,8.0,20.9,156,102.0,81.0,0,5,7,1,2026-03-08T16:54:48.324408+05:30
Dhanbad,Jharkhand,23.7957,86.4304,31.1,39,0.0,981.9,7.85,22.7,167,107.1,90.1,0,5,7,0,2026-03-08T16:54:48.324416+05:30
Bokaro,Jharkhand,23.6693,86.1511,30.9,42,0.0,985.9,7.85,17.6,169,103.8,85.7,0,5,7,1,2026-03-08T16:54:48.324424+05:30
Bhubaneswar,Odisha,20.2961,85.8245,30.3,56,0.0,1004.2,8.2,32.4,126,48.7,37.4,0,5,4,1,2026-03-08T16:54:48.324431+05:30
Cuttack,Odisha,20.4625,85.8828,31.9,49,0.0,1005.9,8.3,27.7,126,48.7,37.4,0,5,4,1,2026-03-08T16:54:48.324438+05:30
Rourkela,Odisha,22.2604,84.8536,34.1,28,0.0,985.8,7.9,22.7,165,108.7,78.7,0,5,7,0,2026-03-08T16:54:48.324446+05:30
Raipur,Chhattisgarh,21.2514,81.6296,35.3,22,0.0,975.1,8.0,23.4,159,66.8,52.3,0,5,10,0,2026-03-08T16:54:48.324453+05:30
Bhilai,Chhattisgarh,21.1938,81.3509,35.5,24,0.0,975.5,8.0,23.4,152,58.6,44.7,0,5,10,0,2026-03-08T16:54:48.324461+05:30
Guwahati,Assam,26.1158,91.7086,28.8,55,0.0,1003.6,7.3,22.7,153,69.4,55.4,4,5,4,1,2026-03-08T16:54:48.324468+05:30
Agartala,Tripura,23.8315,91.2868,28.5,57,0.0,1008.8,7.6,18.7,153,57.7,47.5,4,0,4,1,2026-03-08T16:54:48.324476+05:30
Shillong,Meghalaya,25.5788,91.8933,15.1,82,0.1,858.2,7.35,26.6,127,44.6,35.3,6,10,7,0,2026-03-08T16:54:48.324484+05:30
Imphal,Manipur,24.817,93.9368,22.3,63,0.0,925.2,7.9,32.0,159,59.1,52.2,3,5,7,0,2026-03-08T16:54:48.324491+05:30
Aizawl,Mizoram,23.7271,92.7176,22.2,62,0.0,895.1,7.85,31.0,153,59.4,51.7,3,5,7,0,2026-03-08T16:54:48.324499+05:30
Kohima,Nagaland,25.6701,94.1077,16.9,81,0.0,857.0,7.0,51.8,160,89.4,79.9,3,10,7,0,2026-03-08T16:54:48.324507+05:30
Gangtok,Sikkim,27.3314,88.6138,16.0,78,0.0,840.2,5.1,16.2,156,57.4,42.0,3,5,3,0,2026-03-08T16:54:48.324515+05:30
Siliguri,West Bengal,26.7271,88.3953,23.9,62,0.0,997.5,7.3,15.8,156,68.0,48.9,3,5,7,1,2026-03-08T16:54:51.538244+05:30
Durgapur,West Bengal,23.5204,87.3119,31.5,40,0.0,997.2,7.85,20.9,160,103.4,87.1,0,5,7,1,2026-03-08T16:54:51.538265+05:30
Asansol,West Bengal,23.6739,86.9524,31.5,40,0.0,995.7,7.85,19.8,159,101.0,85.0,0,5,7,1,2026-03-08T16:54:51.538274+05:30
Pondicherry,Puducherry,11.9139,79.8145,31.7,53,0.0,1007.8,8.95,32.4,74,28.5,17.8,0,5,4,1,2026-03-08T16:54:51.538281+05:30
Port Blair,Andaman and Nicobar Islands,11.6234,92.7265,27.3,78,0.0,1007.7,8.9,25.2,87,36.8,28.1,7,5,4,1,2026-03-08T16:54:51.538288+05:30
Haridwar,Uttarakhand,29.9457,78.1642,31.9,43,0.0,976.2,5.8,26.6,160,77.8,56.2,0,5,3,1,2026-03-08T16:54:51.538294+05:30
Rishikesh,Uttarakhand,30.0869,78.2676,30.4,50,0.0,969.2,5.85,22.3,157,71.2,50.5,0,5,3,1,2026-03-08T16:54:51.538300+05:30
Nainital,Uttarakhand,29.3919,79.4542,22.1,64,0.0,809.7,6.65,63.0,160,95.2,65.7,3,5,7,0,2026-03-08T16:54:51.538306+05:30
Mussoorie,Uttarakhand,30.4599,78.0664,21.3,65,0.0,806.7,6.2,48.6,157,75.9,59.6,3,5,7,0,2026-03-08T16:54:51.538313+05:30
Dharamshala,Himachal Pradesh,32.219,76.3234,26.0,45,0.0,873.6,6.4,24.8,61,33.5,12.5,4,5,7,0,2026-03-08T16:54:51.538319+05:30
Dalhousie,Himachal Pradesh,32.5387,75.971,24.6,39,0.0,809.4,6.65,23.4,101,33.4,15.6,0,5,7,0,2026-03-08T16:54:51.538325+05:30
Patiala,Punjab,30.3398,76.3869,31.8,43,0.0,980.8,5.65,26.3,168,410.7,73.3,0,5,3,1,2026-03-08T16:54:51.538331+05:30
Bhatinda,Punjab,30.211,74.9455,33.7,34,0.0,986.5,6.5,16.9,151,86.1,34.0,0,5,7,0,2026-03-08T16:54:51.538337+05:30
Rohtak,Haryana,28.8955,76.6066,33.5,29,0.0,984.2,6.05,20.9,169,365.1,47.4,0,5,7,0,2026-03-08T16:54:51.538342+05:30
Panipat,Haryana,29.3909,76.9635,32.9,36,0.0,982.8,5.8,26.3,169,806.5,86.1,0,5,3,0,2026-03-08T16:54:51.538349+05:30
Mathura,Uttar Pradesh,27.4924,77.6737,35.3,24,0.0,988.9,6.3,22.7,157,376.3,49.1,0,5,10,0,2026-03-08T16:54:51.538354+05:30
Vrindavan,Uttar Pradesh,27.5823,77.7027,34.9,25,0.0,989.3,6.25,23.8,157,376.3,49.1,0,5,7,0,2026-03-08T16:54:51.538360+05:30
Ayodhya,Uttar Pradesh,26.7922,82.1998,31.0,46,0.0,997.9,6.65,11.2,185,98.5,76.1,0,5,7,1,2026-03-08T16:54:51.538366+05:30
Ratlam,Madhya Pradesh,23.3315,75.0367,34.9,26,0.0,956.7,7.5,21.6,93,10.6,10.3,0,5,7,0,2026-03-08T16:54:51.538372+05:30
Sagar,Madhya Pradesh,23.8388,78.7378,33.9,24,0.0,952.5,7.45,21.6,100,30.0,13.7,0,5,7,0,2026-03-08T16:54:51.538377+05:30
Satna,Madhya Pradesh,24.6005,80.8322,33.5,26,0.0,973.7,7.4,25.2,159,66.6,39.9,0,5,7,0,2026-03-08T16:54:51.538383+05:30
Akola,Maharashtra,20.7002,77.0082,38.2,19,0.0,974.7,7.95,16.2,104,23.1,14.4,0,5,10,0,2026-03-08T16:54:51.538389+05:30
Amravati,Maharashtra,20.9374,77.7796,37.6,17,0.0,967.3,7.9,20.5,95,20.5,12.3,0,5,10,0,2026-03-08T16:54:51.538395+05:30
Latur,Maharashtra,18.4088,76.5604,35.1,20,0.0,939.9,8.4,24.1,139,25.6,19.5,0,5,10,0,2026-03-08T16:54:51.538401+05:30
Nanded,Maharashtra,19.1383,77.3091,37.3,18,0.0,968.2,8.15,25.2,123,28.6,18.0,0,5,10,0,2026-03-08T16:54:51.538406+05:30
Gulbarga,Karnataka,17.3297,76.8343,37.4,17,0.0,957.8,8.5,28.4,146,27.6,19.6,0,5,10,0,2026-03-08T16:54:51.538412+05:30
Bidar,Karnataka,17.9104,77.5199,35.1,19,0.0,935.6,8.4,29.5,138,30.4,20.6,0,5,10,0,2026-03-08T16:54:51.538417+05:30
Hospet,Karnataka,15.2689,76.3909,35.8,21,0.0,954.7,8.75,25.6,156,36.1,27.4,0,5,10,0,2026-03-08T16:54:51.538422+05:30
Tirupur,Tamil Nadu,11.1085,77.3411,35.9,22,0.0,973.2,9.2,29.2,125,39.9,32.2,0,5,10,0,2026-03-08T16:54:51.538428+05:30
Alappuzha,Kerala,9.4981,76.3388,28.6,81,0.0,1006.5,8.95,32.0,148,36.2,34.2,7,5,4,1,2026-03-08T16:54:51.538433+05:30
Munnar,Kerala,10.0889,77.0595,28.2,48,0.0,857.4,9.5,21.2,105,38.9,30.5,4,5,7,1,2026-03-08T16:54:51.538440+05:30
Silchar,Assam,24.8333,92.7789,29.7,53,0.0,1006.6,7.6,19.4,163,63.1,56.0,4,5,4,1,2026-03-08T16:54:51.538445+05:30
Dibrugarh,Assam,27.4728,94.912,28.2,58,0.0,997.4,6.3,24.8,161,67.5,56.3,4,5,7,1,2026-03-08T16:54:51.538451+05:30
