city,state,latitude,longitude,temp,humidity,rain,pressure,uv_index,wind_gusts,aqi,pm10,pm2_5,mosquito_risk,arthritis_risk,migraine_risk,frizz_risk,updated_at
Delhi,Delhi,28.6139,77.209,31.0,36,0.0,985.4,6.0,25.9,167,318.5,51.3,0,5,3,0,2026-03-08T18:25:47.734999+05:30
Mumbai,Maharashtra,19.076,72.8777,28.3,69,0.0,1007.2,7.5,25.6,217,56.1,53.9,7,5,4,1,2026-03-08T18:25:47.735069+05:30
Bangalore,Karnataka,12.9716,77.5946,30.3,23,0.0,911.6,9.25,28.4,164,35.6,28.6,0,5,7,0,2026-03-08T18:25:47.735086+05:30
Hyderabad,Telangana,17.385,78.4867,32.6,32,0.0,953.6,8.55,24.5,151,30.3,21.5,0,5,7,0,2026-03-08T18:25:47.735095+05:30
Chennai,Tamil Nadu,13.0827,80.2707,28.5,68,0.0,1008.1,8.95,32.4,77,32.7,21.7,7,0,4,1,2026-03-08T18:25:47.735105+05:30
Kolkata,West Bengal,22.5726,88.3639,26.5,76,0.0,1009.3,7.3,15.8,151,66.8,60.1,7,0,4,1,2026-03-08T18:25:47.735114+05:30
Pune,Maharashtra,18.5204,73.8567,36.2,15,0.0,948.1,8.05,30.6,135,13.6,11.6,0,5,10,0,2026-03-08T18:25:47.735127+05:30
Ahmedabad,Gujarat,23.0225,72.5714,35.3,19,0.0,1003.4,7.35,21.2,130,16.1,13.5,0,5,7,0,2026-03-08T18:25:47.735136+05:30
Jaipur,Rajasthan,26.9124,75.7873,33.4,9,0.0,962.5,6.75,25.9,97,106.2,16.3,0,5,7,1,2026-03-08T18:25:47.735146+05:30
Lucknow,Uttar Pradesh,26.8467,80.9462,30.2,50,0.0,996.2,6.5,19.4,180,119.7,64.0,0,5,7,1,2026-03-08T18:25:47.735155+05:30
Kanpur,Uttar Pradesh,26.4499,80.3319,29.2,53,0.0,994.4,6.5,16.9,173,149.9,59.1,4,5,7,1,2026-03-08T18:25:47.735163+05:30
Chandigarh,Chandigarh,30.7333,76.7794,26.3,58,0.0,971.3,5.9,28.1,154,58.8,46.2,4,5,3,1,2026-03-08T18:25:47.735171+05:30
Srinagar,Jammu and Kashmir,34.0837,74.7973,19.4,38,0.0,846.2,6.8,17.6,125,27.4,15.0,0,5,7,0,2026-03-08T18:25:47.735179+05:30
Jammu,Jammu and Kashmir,32.7266,74.857,28.2,54,0.0,975.6,6.45,25.2,108,43.4,25.8,4,5,7,1,2026-03-08T18:25:47.735187+05:30
Amritsar,Punjab,31.634,74.8723,28.4,58,0.0,983.7,6.45,19.1,164,71.5,41.8,4,5,7,1,2026-03-08T18:25:47.735195+05:30
Ludhiana,Punjab,30.901,75.8573,28.6,58,0.0,981.7,6.15,25.2,172,77.3,47.0,4,5,7,1,2026-03-08T18:25:47.735202+05:30
Jalandhar,Punjab,31.326,75.5762,28.7,56,0.0,982.8,6.3,23.4,171,88.7,43.4,4,5,7,1,2026-03-08T18:25:47.735212+05:30
Dehradun,Uttarakhand,30.6284,78.0322,19.0,82,0.0,833.3,6.3,37.1,96,34.8,21.4,3,10,7,0,2026-03-08T18:25:47.735220+05:30
Shimla,Himachal Pradesh,31.1048,77.1734,17.6,71,0.0,788.7,6.3,46.4,111,30.4,16.4,3,5,7,0,2026-03-08T18:25:47.735227+05:30
Manali,Himachal Pradesh,32.2396,77.1887,19.4,52,0.0,824.8,8.05,30.6,94,27.6,10.7,0,5,7,0,2026-03-08T18:25:47.735235+05:30
Gurgaon,Haryana,28.4595,77.0266,29.2,43,0.0,983.8,6.1,20.5,229,1255.4,129.9,4,5,7,0,2026-03-08T18:25:47.735242+05:30
Noida,Uttar Pradesh,28.5355,77.391,31.0,35,0.0,986.8,6.0,25.9,229,1255.4,129.9,0,5,3,0,2026-03-08T18:25:47.735249+05:30
Ghaziabad,Uttar Pradesh,28.6692,77.4538,30.1,42,0.0,984.9,5.95,25.6,172,197.9,45.1,0,5,3,0,2026-03-08T18:25:47.735258+05:30
Faridabad,Haryana,28.4089,77.3178,29.5,39,0.0,986.0,6.05,22.0,229,1255.4,129.9,4,5,7,0,2026-03-08T18:25:47.735265+05:30
Meerut,Uttar Pradesh,28.9845,77.7064,29.1,49,0.0,983.5,5.85,28.4,172,197.9,45.1,4,5,3,1,2026-03-08T18:25:47.735272+05:30
Agra,Uttar Pradesh,27.1767,78.0081,30.3,34,0.0,989.9,6.4,20.9,157,384.6,52.9,0,5,7,0,2026-03-08T18:25:47.735280+05:30
Varanasi,Uttar Pradesh,25.3176,82.9739,28.5,63,0.0,1000.4,7.2,11.2,180,88.5,78.5,7,5,4,1,2026-03-08T18:25:47.735290+05:30
Prayagraj,Uttar Pradesh,25.4358,81.8463,28.2,57,0.0,999.0,7.05,13.3,188,92.9,78.2,4,5,7,1,2026-03-08T18:25:47.735297+05:30
Gorakhpur,Uttar Pradesh,26.7606,83.3732,27.5,66,0.0,1000.0,6.9,13.7,173,76.1,66.4,7,5,4,1,2026-03-08T18:25:47.735304+05:30
Bareilly,Uttar Pradesh,28.367,79.4304,29.3,56,0.0,988.9,6.2,21.6,172,93.4,57.0,4,5,7,1,2026-03-08T18:25:47.735311+05:30
Aligarh,Uttar Pradesh,27.8974,78.088,29.6,38,0.0,987.7,6.1,24.5,184,362.3,74.3,4,5,7,0,2026-03-08T18:25:47.735320+05:30
Moradabad,Uttar Pradesh,28.8386,78.7733,28.9,51,0.0,985.6,6.0,25.2,181,100.6,64.7,4,5,3,1,2026-03-08T18:25:47.735327+05:30
Saharanpur,Uttar Pradesh,29.9637,77.546,27.9,56,0.0,977.7,5.65,34.2,172,143.9,53.0,4,5,3,1,2026-03-08T18:25:47.735333+05:30
Jhansi,Uttar Pradesh,25.4484,78.5685,31.1,29,0.0,980.6,6.95,26.3,111,30.6,15.3,0,5,7,0,2026-03-08T18:25:50.956481+05:30
Surat,Gujarat,21.1702,72.8311,33.2,34,0.0,1006.7,7.25,27.0,143,39.7,39.1,0,5,4,0,2026-03-08T18:25:50.956511+05:30
Vadodara,Gujarat,22.3072,73.1812,36.9,20,0.0,1004.9,7.35,19.4,114,13.4,12.8,0,5,7,0,2026-03-08T18:25:50.956521+05:30
Rajkot,Gujarat,22.3039,70.8022,34.3,30,0.0,996.0,7.15,22.3,91,26.0,16.1,0,5,7,0,2026-03-08T18:25:50.956529+05:30
Thane,Maharashtra,19.2183,72.9781,30.7,51,0.0,1006.8,7.5,33.1,217,56.1,53.9,0,5,4,1,2026-03-08T18:25:50.956536+05:30
Nagpur,Maharashtra,21.1458,79.0882,31.9,28,0.0,973.9,7.9,25.6,128,33.4,22.6,0,5,7,0,2026-03-08T18:25:50.956543+05:30
Nashik,Maharashtra,19.9975,73.7898,34.2,18,0.0,946.1,7.7,27.7,138,11.8,10.9,0,5,7,0,2026-03-08T18:25:50.956550+05:30
Aurangabad,Maharashtra,19.8762,75.3433,34.3,17,0.0,944.7,8.2,31.7,127,18.5,12.7,0,5,7,0,2026-03-08T18:25:50.956557+05:30
Solapur,Maharashtra,17.6599,75.9064,33.4,32,0.0,956.7,8.45,19.8,153,21.4,16.4,0,5,7,0,2026-03-08T18:25:50.956564+05:30
Kolhapur,Maharashtra,16.705,74.2433,32.8,22,0.0,947.3,8.6,37.1,172,28.8,25.1,0,5,7,0,2026-03-08T18:25:50.956571+05:30
Goa,Goa,15.2993,74.124,28.4,77,0.0,997.2,8.65,35.6,133,36.9,32.0,7,5,7,1,2026-03-08T18:25:50.956578+05:30
Jodhpur,Rajasthan,26.2389,73.0243,34.0,22,0.0,985.4,7.05,18.7,76,24.0,6.6,0,5,7,0,2026-03-08T18:25:50.956585+05:30
Udaipur,Rajasthan,24.5854,73.7125,32.7,20,0.0,949.4,7.7,19.8,103,4.4,4.1,0,5,7,0,2026-03-08T18:25:50.956591+05:30
Kota,Rajasthan,25.2138,75.8648,33.5,27,0.0,981.0,7.05,11.2,105,11.0,10.8,0,5,7,0,2026-03-08T18:25:50.956598+05:30
Bikaner,Rajasthan,28.0229,73.3119,34.2,23,0.0,984.5,6.75,19.4,56,54.9,11.4,0,5,7,0,2026-03-08T18:25:50.956604+05:30
Ajmer,Rajasthan,26.4499,74.6399,32.2,23,0.0,957.3,7.05,23.0,83,14.0,5.5,0,5,7,0,2026-03-08T18:25:50.956611+05:30
Gwalior,Madhya Pradesh,26.2183,78.1828,30.8,43,0.0,985.8,6.65,23.4,99,28.3,12.3,0,5,7,1,2026-03-08T18:25:50.956617+05:30
Indore,Madhya Pradesh,22.7196,75.8577,30.2,27,0.0,950.1,7.6,23.0,111,12.1,11.0,0,5,7,0,2026-03-08T18:25:50.956623+05:30
Bhopal,Madhya Pradesh,23.2599,77.4126,30.0,34,0.0,956.0,7.5,22.7,104,23.6,11.9,4,5,7,0,2026-03-08T18:25:50.956629+05:30
Jabalpur,Madhya Pradesh,23.1815,79.9864,30.2,38,0.0,963.8,7.6,24.8,133,66.1,37.5,0,5,7,0,2026-03-08T18:25:50.956636+05:30
Ujjain,Madhya Pradesh,23.1765,75.7885,30.2,34,0.0,956.1,7.5,19.1,106,16.4,15.8,0,5,7,0,2026-03-08T18:25:50.956643+05:30
Visakhapatnam,Andhra Pradesh,17.6868,83.2185,26.9,72,0.0,1006.0,8.25,38.9,95,34.3,26.6,7,5,4,1,2026-03-08T18:25:50.956649+05:30
Vijayawada,Andhra Pradesh,16.5062,80.648,30.8,54,0.0,1003.3,8.6,28.4,98,39.5,31.9,0,5,4,1,2026-03-08T18:25:50.956655+05:30
Guntur,Andhra Pradesh,16.3067,80.4365,28.7,63,0.0,1004.8,8.6,27.4,98,41.7,32.8,7,5,4,1,2026-03-08T18:25:50.956662+05:30
Nellore,Andhra Pradesh,14.4426,79.9865,28.1,68,0.0,1006.7,8.8,33.1,93,37.6,27.4,7,5,4,1,2026-03-08T18:25:50.956669+05:30
Kurnool,Andhra Pradesh,15.8281,78.0373,35.3,18,0.0,976.2,8.6,25.6,143,36.6,25.6,0,5,10,0,2026-03-08T18:25:50.956676+05:30
Kakinada,Andhra Pradesh,16.9891,82.2475,27.6,68,0.0,1009.3,8.55,33.8,79,33.6,23.2,7,0,4,1,2026-03-08T18:25:50.956683+05:30
Tirupati,Andhra Pradesh,13.6288,79.4192,31.5,42,0.0,991.4,8.95,31.3,117,43.9,33.3,0,5,7,1,2026-03-08T18:25:50.956689+05:30
Warangal,Telangana,17.9689,79.5941,31.9,47,0.0,979.2,8.35,27.7,121,47.3,35.7,0,5,7,1,2026-03-08T18:25:50.956695+05:30
Nizamabad,Telangana,18.6725,78.0941,32.3,36,0.0,965.2,8.25,31.0,144,36.4,24.5,0,5,7,0,2026-03-08T18:25:50.956701+05:30
Mysore,Karnataka,12.2958,76.6396,31.2,26,0.0,927.9,9.25,29.9,160,37.3,30.6,0,5,7,0,2026-03-08T18:25:50.956707+05:30
Mangalore,Karnataka,12.9141,74.856,28.7,79,0.0,1006.0,8.85,25.2,120,37.1,34.2,7,5,4,1,2026-03-08T18:25:50.956714+05:30
Hubli-Dharwad,Karnataka,15.3647,75.124,33.5,20,0.0,940.1,8.8,27.7,170,27.6,22.5,0,5,7,0,2026-03-08T18:25:50.956720+05:30
Belgaum,Karnataka,15.8497,74.4977,29.3,52,0.0,925.6,8.85,33.8,178,24.7,20.7,4,5,7,1,2026-03-08T18:25:54.174350+05:30
Coimbatore,Tamil Nadu,11.0168,76.9558,32.0,29,0.0,960.9,9.2,40.0,151,35.3,28.4,0,5,7,0,2026-03-08T18:25:54.174384+05:30
Madurai,Tamil Nadu,9.9252,78.1198,33.2,36,0.0,991.8,9.15,28.8,111,35.3,27.3,0,5,7,1,2026-03-08T18:25:54.174396+05:30
Trichy,Tamil Nadu,10.7905,78.7047,32.7,34,0.0,999.0,9.05,31.0,98,39.5,29.2,0,5,7,0,2026-03-08T18:25:54.174405+05:30
Salem,Tamil Nadu,11.6643,78.146,32.7,35,0.0,976.4,9.1,22.0,151,39.9,31.5,0,5,7,0,2026-03-08T18:25:54.174414+05:30
Tirunelveli,Tamil Nadu,8.7139,77.7567,31.2,53,0.0,1002.6,9.15,41.0,129,40.2,29.6,0,5,4,1,2026-03-08T18:25:54.174423+05:30
Vellore,Tamil Nadu,12.9165,79.1325,31.1,36,0.0,984.4,9.0,35.6,134,44.1,34.3,0,5,7,0,2026-03-08T18:25:54.174431+05:30
Erode,Tamil Nadu,11.341,77.7172,34.4,33,0.0,987.5,9.1,22.3,120,39.7,32.1,0,5,7,0,2026-03-08T18:25:54.174440+05:30
Kochi,Kerala,9.9312,76.2673,28.7,78,0.0,1007.6,9.0,35.6,135,38.1,35.4,7,5,4,1,2026-03-08T18:25:54.174449+05:30
Thiruvananthapuram,Kerala,8.5241,76.9366,28.4,80,0.0,1007.5,9.05,31.7,117,30.4,26.8,7,5,4,1,2026-03-08T18:25:54.174457+05:30
Kozhikode,Kerala,11.2588,75.7804,29.0,76,0.0,1007.0,8.8,29.5,96,27.3,24.7,7,5,4,1,2026-03-08T18:25:54.174465+05:30
Thrissur,Kerala,10.5276,76.2144,29.3,74,0.0,1006.3,9.0,36.7,125,36.9,32.7,7,5,4,1,2026-03-08T18:25:54.174473+05:30
Kannur,Kerala,11.8745,75.3704,29.1,74,0.0,1006.8,8.9,28.4,101,31.0,28.1,7,5,4,1,2026-03-08T18:25:54.174481+05:30
Patna,Bihar,25.5941,85.1376,28.6,58,0.0,1003.4,7.35,18.0,173,95.5,86.1,4,5,4,1,2026-03-08T18:25:54.174489+05:30
Gaya,Bihar,24.7914,85.0002,26.8,72,0.0,996.6,7.45,17.6,160,82.2,73.6,7,5,7,1,2026-03-08T18:25:54.174497+05:30
Muzaffarpur,Bihar,26.1209,85.3647,27.0,62,0.0,1003.7,7.3,19.1,176,94.8,85.9,7,5,4,1,2026-03-08T18:25:54.174503+05:30
Bhagalpur,Bihar,25.2425,87.0117,26.9,70,0.0,1004.5,7.35,15.8,163,95.7,79.6,7,5,4,1,2026-03-08T18:25:54.174510+05:30
Ranchi,Jharkhand,23.3441,85.3096,27.6,45,0.0,940.0,8.1,23.0,161,95.9,74.5,4,5,7,0,2026-03-08T18:25:54.174517+05:30
Jamshedpur,Jharkhand,22.8046,86.2029,30.0,54,0.0,992.9,8.0,20.9,156,104.1,85.0,4,5,7,1,2026-03-08T18:25:54.174524+05:30
Dhanbad,Jharkhand,23.7957,86.4304,29.8,43,0.0,982.5,7.85,22.7,167,112.5,98.0,4,5,7,0,2026-03-08T18:25:54.174530+05:30
Bokaro,Jharkhand,23.6693,86.1511,28.8,48,0.0,986.4,7.85,17.6,169,111.3,95.2,4,5,7,1,2026-03-08T18:25:54.174537+05:30
Bhubaneswar,Odisha,20.2961,85.8245,27.5,67,0.0,1005.4,8.25,32.4,125,43.3,34.9,7,5,4,1,2026-03-08T18:25:54.174543+05:30
Cuttack,Odisha,20.4625,85.8828,29.6,58,0.0,1006.8,8.3,27.7,125,43.3,34.9,4,5,4,1,2026-03-08T18:25:54.174549+05:30
Rourkela,Odisha,22.2604,84.8536,31.9,37,0.0,986.3,7.9,22.7,165,108.5,81.5,0,5,7,0,2026-03-08T18:25:54.174557+05:30
Raipur,Chhattisgarh,21.2514,81.6296,32.5,29,0.0,975.7,8.0,23.4,173,66.8,54.1,0,5,7,0,2026-03-08T18:25:54.174564+05:30
Bhilai,Chhattisgarh,21.1938,81.3509,32.3,33,0.0,975.9,8.0,23.4,158,58.4,46.7,0,5,7,0,2026-03-08T18:25:54.174570+05:30
Guwahati,Assam,26.1158,91.7086,26.4,67,0.0,1004.3,7.3,22.7,153,68.5,57.7,7,5,4,1,2026-03-08T18:25:54.174577+05:30
Agartala,Tripura,23.8315,91.2868,25.9,69,0.0,1009.4,7.6,18.7,153,65.0,55.9,7,0,4,1,2026-03-08T18:25:54.174583+05:30
Shillong,Meghalaya,25.5788,91.8933,14.1,89,0.1,858.4,7.35,26.6,127,46.2,38.2,6,10,7,0,2026-03-08T18:25:54.174590+05:30
Imphal,Manipur,24.817,93.9368,19.8,76,0.0,925.8,7.9,32.0,159,64.3,57.6,3,5,7,0,2026-03-08T18:25:54.174597+05:30
Aizawl,Mizoram,23.7271,92.7176,19.8,74,0.0,895.2,7.85,31.0,152,64.0,57.4,3,5,7,0,2026-03-08T18:25:54.174603+05:30
Kohima,Nagaland,25.6701,94.1077,15.4,89,0.0,857.1,7.0,51.8,161,95.2,86.1,3,10,7,0,2026-03-08T18:25:54.174610+05:30
Gangtok,Sikkim,27.3314,88.6138,15.1,85,0.0,840.3,5.1,16.2,156,59.3,43.9,3,10,3,0,2026-03-08T18:25:54.174616+05:30
Siliguri,West Bengal,26.7271,88.3953,22.3,67,0.0,997.9,7.3,15.8,156,74.7,55.9,3,5,7,0,2026-03-08T18:25:57.393998+05:30
Durgapur,West Bengal,23.5204,87.3119,29.2,49,0.0,997.9,7.85,20.9,160,104.8,89.6,4,5,7,1,2026-03-08T18:25:57.394052+05:30
Asansol,West Bengal,23.6739,86.9524,29.5,48,0.0,996.3,7.85,19.8,160,104.3,89.6,4,5,7,1,2026-03-08T18:25:57.394066+05:30
Pondicherry,Puducherry,11.9139,79.8145,28.2,69,0.0,1008.9,8.95,32.4,74,27.4,17.1,7,0,4,1,2026-03-08T18:25:57.394076+05:30
Port Blair,Andaman and Nicobar Islands,11.6234,92.7265,27.6,76,0.0,1008.7,8.9,25.2,87,37.4,28.5,7,0,4,1,2026-03-08T18:25:57.394085+05:30
Haridwar,Uttarakhand,29.9457,78.1642,29.0,47,0.0,976.5,5.75,26.6,172,80.3,55.5,4,5,3,1,2026-03-08T18:25:57.394094+05:30
Rishikesh,Uttarakhand,30.0869,78.2676,27.7,59,0.0,969.4,5.8,22.3,157,68.9,51.9,4,5,3,1,2026-03-08T18:25:57.394103+05:30
Nainital,Uttarakhand,29.3919,79.4542,20.1,66,0.0,809.0,6.65,63.0,172,94.8,67.5,3,5,7,0,2026-03-08T18:25:57.394112+05:30
Mussoorie,Uttarakhand,30.4599,78.0664,19.2,77,0.0,805.8,6.15,48.6,163,71.2,55.3,3,5,7,0,2026-03-08T18:25:57.394121+05:30
Dharamshala,Himachal Pradesh,32.219,76.3234,23.3,55,0.0,873.1,6.4,24.8,61,32.5,12.8,0,5,7,0,2026-03-08T18:25:57.394129+05:30
Dalhousie,Himachal Pradesh,32.5387,75.971,21.6,44,0.0,808.2,6.65,23.4,100,33.3,16.7,0,5,7,0,2026-03-08T18:25:57.394139+05:30
Patiala,Punjab,30.3398,76.3869,27.6,61,0.0,980.7,5.65,26.3,168,359.5,72.4,7,5,3,1,2026-03-08T18:25:57.394147+05:30
Bhatinda,Punjab,30.211,74.9455,29.9,49,0.0,986.4,6.5,16.9,150,80.6,38.6,4,5,7,1,2026-03-08T18:25:57.394156+05:30
Rohtak,Haryana,28.8955,76.6066,28.4,49,0.0,984.2,6.0,20.9,169,383.7,54.2,4,5,3,1,2026-03-08T18:25:57.394164+05:30
Panipat,Haryana,29.3909,76.9635,28.4,53,0.0,982.7,5.8,26.3,170,827.0,94.3,4,5,3,1,2026-03-08T18:25:57.394173+05:30
Mathura,Uttar Pradesh,27.4924,77.6737,30.5,41,0.0,988.9,6.3,22.7,158,294.3,48.9,0,5,7,0,2026-03-08T18:25:57.394181+05:30
Vrindavan,Uttar Pradesh,27.5823,77.7027,30.5,41,0.0,989.4,6.25,23.8,158,294.3,48.9,0,5,7,0,2026-03-08T18:25:57.394189+05:30
Ayodhya,Uttar Pradesh,26.7922,82.1998,29.0,56,0.0,998.2,6.65,11.2,185,102.7,82.7,4,5,7,1,2026-03-08T18:25:57.394198+05:30
Ratlam,Madhya Pradesh,23.3315,75.0367,31.4,33,0.0,956.7,7.5,21.6,108,12.1,11.8,0,5,7,0,2026-03-08T18:25:57.394206+05:30
Sagar,Madhya Pradesh,23.8388,78.7378,30.5,37,0.0,952.6,7.45,21.6,104,28.3,13.2,0,5,7,0,2026-03-08T18:25:57.394214+05:30
Satna,Madhya Pradesh,24.6005,80.8322,30.1,34,0.0,974.0,7.4,25.2,159,61.9,38.9,0,5,7,0,2026-03-08T18:25:57.394223+05:30
Akola,Maharashtra,20.7002,77.0082,35.3,26,0.0,975.2,7.95,16.2,123,22.9,15.1,0,5,10,0,2026-03-08T18:25:57.394231+05:30
Amravati,Maharashtra,20.9374,77.7796,33.6,27,0.0,967.5,7.9,20.5,111,20.8,13.2,0,5,7,0,2026-03-08T18:25:57.394239+05:30
Latur,Maharashtra,18.4088,76.5604,32.0,26,0.0,940.1,8.4,24.1,154,25.7,19.6,0,5,7,0,2026-03-08T18:25:57.394246+05:30
Nanded,Maharashtra,19.1383,77.3091,33.3,28,0.0,968.6,8.15,25.2,138,27.0,17.8,0,5,7,0,2026-03-08T18:25:57.394252+05:30
Gulbarga,Karnataka,17.3297,76.8343,35.3,18,0.0,958.3,8.45,28.4,161,25.9,18.6,0,5,10,0,2026-03-08T18:25:57.394259+05:30
Bidar,Karnataka,17.9104,77.5199,32.3,20,0.0,936.1,8.4,29.5,149,30.3,21.2,0,5,7,0,2026-03-08T18:25:57.394266+05:30
Hospet,Karnataka,15.2689,76.3909,34.4,25,0.0,955.2,8.75,25.6,174,36.1,27.8,0,5,7,0,2026-03-08T18:25:57.394272+05:30
Tirupur,Tamil Nadu,11.1085,77.3411,34.0,26,0.0,974.1,9.2,29.2,143,41.0,33.3,0,5,7,0,2026-03-08T18:25:57.394279+05:30
Alappuzha,Kerala,9.4981,76.3388,28.8,80,0.0,1007.7,9.0,32.0,158,32.8,30.9,7,5,4,1,2026-03-08T18:25:57.394286+05:30
Munnar,Kerala,10.0889,77.0595,24.4,70,0.0,857.4,9.5,21.2,113,39.3,32.1,3,5,7,1,2026-03-08T18:25:57.394293+05:30
Silchar,Assam,24.8333,92.7789,26.7,67,0.0,1007.6,7.6,19.4,163,67.3,60.5,7,5,4,1,2026-03-08T18:25:57.394300+05:30
Dibrugarh,Assam,27.4728,94.912,26.1,67,0.0,998.5,6.15,24.8,160,73.6,61.9,7,5,7,1,2026-03-08T18:25:57.394307+05:30
