city,state,latitude,longitude,temp,humidity,rain,pressure,uv_index,wind_gusts,aqi,pm10,pm2_5,mosquito_risk,arthritis_risk,migraine_risk,frizz_risk,updated_at
Delhi,Delhi,28.6139,77.209,27.6,33,0.0,980.2,7.3,24.1,203,624.0,117.8,4,5,7,0,2026-04-16T03:25:27.004195+05:30
Mumbai,Maharashtra,19.076,72.8777,28.2,81,0.0,1006.2,8.0,18.4,82,34.9,22.5,7,5,4,1,2026-04-16T03:25:27.004233+05:30
Bangalore,Karnataka,12.9716,77.5946,25.3,54,0.0,909.7,9.6,27.7,77,34.8,28.3,4,5,7,0,2026-04-16T03:25:27.004247+05:30
Hyderabad,Telangana,17.385,78.4867,28.0,61,0.0,950.5,9.25,27.7,90,28.1,25.7,7,5,7,1,2026-04-16T03:25:27.004258+05:30
Chennai,Tamil Nadu,13.0827,80.2707,28.6,87,0.0,1004.6,9.35,33.5,33,12.8,9.1,7,5,4,1,2026-04-16T03:25:27.004267+05:30
Kolkata,West Bengal,22.5726,88.3639,27.7,89,0.0,1003.2,8.9,32.8,83,21.8,16.6,7,5,4,1,2026-04-16T03:25:27.004275+05:30
Pune,Maharashtra,18.5204,73.8567,21.7,54,0.0,945.7,8.6,38.9,76,32.2,24.3,0,5,7,0,2026-04-16T03:25:27.004287+05:30
Ahmedabad,Gujarat,23.0225,72.5714,27.3,46,0.0,998.7,7.7,16.6,91,44.5,21.0,4,5,7,0,2026-04-16T03:25:27.004295+05:30
Jaipur,Rajasthan,26.9124,75.7873,27.7,26,0.0,956.7,7.95,28.1,178,124.3,29.2,4,5,7,0,2026-04-16T03:25:27.004302+05:30
Lucknow,Uttar Pradesh,26.8467,80.9462,25.6,39,0.0,990.6,7.85,21.6,105,184.4,37.6,4,5,7,0,2026-04-16T03:25:27.004309+05:30
Kanpur,Uttar Pradesh,26.4499,80.3319,24.2,56,0.0,988.9,7.85,19.1,159,278.5,46.9,0,5,7,0,2026-04-16T03:25:27.004315+05:30
Chandigarh,Chandigarh,30.7333,76.7794,20.4,55,0.0,966.2,7.2,18.0,52,19.8,17.2,0,5,7,0,2026-04-16T03:25:27.004322+05:30
Srinagar,Jammu and Kashmir,34.0837,74.7973,9.8,60,0.0,837.5,7.3,17.6,75,32.8,28.0,0,5,7,0,2026-04-16T03:25:27.004329+05:30
Jammu,Jammu and Kashmir,32.7266,74.857,19.2,66,0.0,970.1,7.3,22.0,66,23.2,22.1,3,5,7,0,2026-04-16T03:25:27.004358+05:30
Amritsar,Punjab,31.634,74.8723,22.2,62,0.0,978.0,7.45,25.9,87,46.6,41.4,3,5,7,0,2026-04-16T03:25:27.004366+05:30
Ludhiana,Punjab,30.901,75.8573,23.3,51,0.0,976.3,7.4,15.1,74,49.5,46.3,0,5,7,0,2026-04-16T03:25:27.004373+05:30
Jalandhar,Punjab,31.326,75.5762,20.9,60,0.0,977.3,7.3,20.9,65,39.0,34.8,0,5,7,0,2026-04-16T03:25:27.004384+05:30
Dehradun,Uttarakhand,30.6284,78.0322,14.3,61,0.0,828.1,7.35,34.9,61,13.3,11.1,3,5,7,0,2026-04-16T03:25:27.004391+05:30
Shimla,Himachal Pradesh,31.1048,77.1734,11.7,64,0.0,781.7,7.4,42.8,73,22.0,16.2,3,5,7,0,2026-04-16T03:25:27.004398+05:30
Manali,Himachal Pradesh,32.2396,77.1887,15.1,54,0.0,819.0,8.65,34.6,69,23.1,13.0,0,5,7,0,2026-04-16T03:25:27.004405+05:30
Gurgaon,Haryana,28.4595,77.0266,24.2,46,0.0,978.6,7.4,16.6,615,633.3,101.3,0,5,7,0,2026-04-16T03:25:27.004411+05:30
Noida,Uttar Pradesh,28.5355,77.391,26.6,38,0.0,981.7,7.35,25.9,615,633.3,101.3,4,5,7,0,2026-04-16T03:25:27.004417+05:30
Ghaziabad,Uttar Pradesh,28.6692,77.4538,24.9,43,0.0,979.8,7.35,19.4,160,577.4,113.2,0,5,7,0,2026-04-16T03:25:27.004424+05:30
Faridabad,Haryana,28.4089,77.3178,25.5,41,0.0,981.0,7.4,24.8,615,633.3,101.3,4,5,7,0,2026-04-16T03:25:27.004430+05:30
Meerut,Uttar Pradesh,28.9845,77.7064,23.3,47,0.0,978.5,7.25,21.6,160,577.4,113.2,0,5,7,0,2026-04-16T03:25:27.004439+05:30
Agra,Uttar Pradesh,27.1767,78.0081,24.7,36,0.0,984.7,7.75,16.2,382,633.3,95.0,0,5,7,0,2026-04-16T03:25:27.004446+05:30
Varanasi,Uttar Pradesh,25.3176,82.9739,25.5,51,0.0,993.8,8.45,22.0,83,102.4,45.3,4,5,7,0,2026-04-16T03:25:27.004455+05:30
Prayagraj,Uttar Pradesh,25.4358,81.8463,27.5,48,0.0,992.6,8.3,22.0,83,91.3,29.2,4,5,7,0,2026-04-16T03:25:27.004462+05:30
Gorakhpur,Uttar Pradesh,26.7606,83.3732,24.1,68,0.0,994.3,8.25,28.4,90,61.5,37.1,3,5,7,1,2026-04-16T03:25:27.004469+05:30
Bareilly,Uttar Pradesh,28.367,79.4304,20.5,64,0.0,983.7,7.6,19.1,62,59.3,35.3,3,5,7,0,2026-04-16T03:25:27.004475+05:30
Aligarh,Uttar Pradesh,27.8974,78.088,22.2,50,0.0,982.4,7.5,24.8,369,440.5,87.8,0,5,7,0,2026-04-16T03:25:27.004481+05:30
Moradabad,Uttar Pradesh,28.8386,78.7733,21.6,56,0.0,980.7,7.45,19.8,83,112.7,63.6,0,5,7,0,2026-04-16T03:25:27.004488+05:30
Saharanpur,Uttar Pradesh,29.9637,77.546,18.3,74,0.0,972.9,6.9,21.6,77,41.2,40.2,3,5,7,0,2026-04-16T03:25:27.004494+05:30
Jhansi,Uttar Pradesh,25.4484,78.5685,26.1,50,0.0,974.6,8.2,29.2,72,206.3,35.9,4,5,7,0,2026-04-16T03:25:30.277117+05:30
Surat,Gujarat,21.1702,72.8311,27.1,79,0.0,1004.0,7.85,24.8,101,27.9,22.3,7,5,4,1,2026-04-16T03:25:30.277142+05:30
Vadodara,Gujarat,22.3072,73.1812,26.3,79,0.0,1001.1,8.0,23.0,91,22.2,18.9,7,5,4,1,2026-04-16T03:25:30.277151+05:30
Rajkot,Gujarat,22.3039,70.8022,23.4,85,0.0,991.6,7.2,26.3,64,35.7,15.5,3,5,7,1,2026-04-16T03:25:30.277158+05:30
Thane,Maharashtra,19.2183,72.9781,26.6,88,0.0,1005.8,8.05,30.2,82,34.9,22.5,7,5,4,1,2026-04-16T03:25:30.277165+05:30
Nagpur,Maharashtra,21.1458,79.0882,26.1,47,0.0,969.1,8.85,21.2,70,28.6,25.5,4,5,7,0,2026-04-16T03:25:30.277172+05:30
Nashik,Maharashtra,19.9975,73.7898,22.5,53,0.0,943.0,8.3,30.2,59,33.8,21.9,0,5,7,0,2026-04-16T03:25:30.277178+05:30
Aurangabad,Maharashtra,19.8762,75.3433,26.5,32,0.0,941.5,8.95,25.9,45,20.7,9.7,4,5,7,0,2026-04-16T03:25:30.277184+05:30
Solapur,Maharashtra,17.6599,75.9064,27.2,44,0.0,954.0,9.05,23.8,76,22.2,20.6,4,5,7,0,2026-04-16T03:25:30.277191+05:30
Kolhapur,Maharashtra,16.705,74.2433,21.9,86,0.0,945.1,9.0,38.9,85,32.7,23.3,3,5,7,1,2026-04-16T03:25:30.277197+05:30
Goa,Goa,15.2993,74.124,28.0,78,0.0,995.5,9.0,29.5,81,58.9,31.4,7,5,7,1,2026-04-16T03:25:30.277203+05:30
Jodhpur,Rajasthan,26.2389,73.0243,29.3,40,0.0,979.1,7.95,27.4,73,73.6,29.5,4,5,7,0,2026-04-16T03:25:30.277210+05:30
Udaipur,Rajasthan,24.5854,73.7125,24.4,46,0.0,943.7,8.7,32.0,73,114.8,27.2,0,5,7,0,2026-04-16T03:25:30.277216+05:30
Kota,Rajasthan,25.2138,75.8648,27.1,57,0.0,974.8,8.2,12.2,65,75.7,31.8,4,5,7,1,2026-04-16T03:25:30.277222+05:30
Bikaner,Rajasthan,28.0229,73.3119,27.6,42,0.0,978.2,7.75,20.9,63,40.7,15.9,4,5,7,0,2026-04-16T03:25:30.277228+05:30
Ajmer,Rajasthan,26.4499,74.6399,25.8,35,0.0,951.5,8.15,21.2,77,70.8,19.4,4,5,7,0,2026-04-16T03:25:30.277233+05:30
Gwalior,Madhya Pradesh,26.2183,78.1828,26.1,52,0.0,980.1,7.95,29.9,116,428.4,63.3,4,5,7,0,2026-04-16T03:25:30.277239+05:30
Indore,Madhya Pradesh,22.7196,75.8577,24.9,56,0.0,944.9,8.6,23.8,71,45.9,24.6,0,5,7,0,2026-04-16T03:25:30.277245+05:30
Bhopal,Madhya Pradesh,23.2599,77.4126,26.9,50,0.0,950.8,8.55,20.9,61,55.8,29.1,4,5,7,0,2026-04-16T03:25:30.277251+05:30
Jabalpur,Madhya Pradesh,23.1815,79.9864,24.1,54,0.0,957.3,8.7,21.2,54,24.7,14.9,0,5,7,0,2026-04-16T03:25:30.277256+05:30
Ujjain,Madhya Pradesh,23.1765,75.7885,25.2,54,0.0,950.6,8.5,22.3,81,53.8,28.1,4,5,7,0,2026-04-16T03:25:30.277262+05:30
Visakhapatnam,Andhra Pradesh,17.6868,83.2185,27.1,89,0.0,1000.6,9.15,44.6,55,14.9,11.7,7,5,4,1,2026-04-16T03:25:30.277268+05:30
Vijayawada,Andhra Pradesh,16.5062,80.648,27.4,90,0.0,999.8,9.2,32.4,45,9.1,6.9,7,5,7,1,2026-04-16T03:25:30.277274+05:30
Guntur,Andhra Pradesh,16.3067,80.4365,27.9,85,0.0,1000.8,9.2,31.7,51,9.0,6.8,7,5,4,1,2026-04-16T03:25:30.277280+05:30
Nellore,Andhra Pradesh,14.4426,79.9865,27.6,89,0.0,1002.5,9.3,36.0,48,10.5,8.9,7,5,4,1,2026-04-16T03:25:30.277287+05:30
Kurnool,Andhra Pradesh,15.8281,78.0373,32.3,41,0.0,973.5,9.2,33.8,81,25.3,23.5,0,5,7,1,2026-04-16T03:25:30.277294+05:30
Kakinada,Andhra Pradesh,16.9891,82.2475,26.7,92,0.0,1004.8,9.2,33.1,40,12.5,8.3,7,5,4,1,2026-04-16T03:25:30.277300+05:30
Tirupati,Andhra Pradesh,13.6288,79.4192,26.1,86,0.0,989.3,9.4,34.2,65,19.6,18.7,7,5,7,1,2026-04-16T03:25:30.277306+05:30
Warangal,Telangana,17.9689,79.5941,27.8,66,0.0,975.4,9.1,27.7,75,19.0,18.0,7,5,7,1,2026-04-16T03:25:30.277312+05:30
Nizamabad,Telangana,18.6725,78.0941,30.0,46,0.0,960.9,9.05,28.4,81,33.1,28.8,4,5,7,1,2026-04-16T03:25:30.277318+05:30
Mysore,Karnataka,12.2958,76.6396,23.6,91,0.0,926.4,9.55,44.3,76,27.4,24.8,3,5,7,1,2026-04-16T03:25:30.277323+05:30
Mangalore,Karnataka,12.9141,74.856,29.7,82,0.0,1004.1,8.95,22.3,71,47.5,30.2,7,5,4,1,2026-04-16T03:25:30.277362+05:30
Hubli-Dharwad,Karnataka,15.3647,75.124,23.5,94,0.0,938.4,6.75,33.8,70,31.7,17.0,3,5,7,1,2026-04-16T03:25:30.277375+05:30
Belgaum,Karnataka,15.8497,74.4977,21.4,96,0.0,922.8,9.25,37.4,72,40.7,24.2,3,5,7,1,2026-04-16T03:25:33.547108+05:30
Coimbatore,Tamil Nadu,11.0168,76.9558,25.2,90,0.0,959.3,9.0,49.0,78,31.0,27.1,7,5,7,1,2026-04-16T03:25:33.547139+05:30
Madurai,Tamil Nadu,9.9252,78.1198,27.8,87,0.0,990.2,9.3,39.2,60,22.7,20.4,7,5,7,1,2026-04-16T03:25:33.547150+05:30
Trichy,Tamil Nadu,10.7905,78.7047,27.2,90,0.0,997.2,9.35,26.6,54,15.8,14.6,7,5,7,1,2026-04-16T03:25:33.547159+05:30
Salem,Tamil Nadu,11.6643,78.146,25.8,79,0.0,974.8,9.45,21.2,67,24.4,22.2,7,5,7,1,2026-04-16T03:25:33.547168+05:30
Tirunelveli,Tamil Nadu,8.7139,77.7567,28.2,75,0.0,1000.1,9.15,48.6,64,22.8,18.8,7,5,4,1,2026-04-16T03:25:33.547176+05:30
Vellore,Tamil Nadu,12.9165,79.1325,25.3,94,0.0,982.4,9.4,31.3,86,36.9,35.9,7,5,7,1,2026-04-16T03:25:33.547183+05:30
Erode,Tamil Nadu,11.341,77.7172,28.3,74,0.0,986.5,9.4,30.6,64,26.4,23.9,7,5,7,1,2026-04-16T03:25:33.547191+05:30
Kochi,Kerala,9.9312,76.2673,28.9,84,0.0,1005.8,8.7,33.5,94,44.8,39.1,7,5,4,1,2026-04-16T03:25:33.547198+05:30
Thiruvananthapuram,Kerala,8.5241,76.9366,29.0,82,0.0,1004.9,9.15,31.3,68,25.8,18.3,7,5,4,1,2026-04-16T03:25:33.547207+05:30
Kozhikode,Kerala,11.2588,75.7804,29.3,83,0.0,1005.0,9.15,30.6,68,34.1,21.7,7,5,4,1,2026-04-16T03:25:33.547214+05:30
Thrissur,Kerala,10.5276,76.2144,28.3,87,0.0,1004.1,8.95,37.4,93,53.4,45.1,7,5,4,1,2026-04-16T03:25:33.547222+05:30
Kannur,Kerala,11.8745,75.3704,29.2,83,0.0,1004.5,9.15,32.8,70,33.3,25.6,7,5,4,1,2026-04-16T03:25:33.547231+05:30
Patna,Bihar,25.5941,85.1376,25.9,78,0.0,997.4,8.55,35.3,107,51.9,39.2,7,5,7,1,2026-04-16T03:25:33.547238+05:30
Gaya,Bihar,24.7914,85.0002,24.6,68,0.0,990.0,8.65,27.0,72,51.8,22.9,3,5,7,1,2026-04-16T03:25:33.547246+05:30
Muzaffarpur,Bihar,26.1209,85.3647,24.8,81,0.0,997.8,8.55,34.9,133,51.1,44.4,3,5,7,1,2026-04-16T03:25:33.547254+05:30
Bhagalpur,Bihar,25.2425,87.0117,24.5,91,0.0,998.8,8.55,32.4,130,43.1,37.8,3,5,7,1,2026-04-16T03:25:33.547260+05:30
Ranchi,Jharkhand,23.3441,85.3096,24.8,81,0.0,934.9,9.15,43.6,87,63.8,42.3,3,5,7,1,2026-04-16T03:25:33.547266+05:30
Jamshedpur,Jharkhand,22.8046,86.2029,26.9,91,0.0,987.6,9.0,37.1,122,77.8,53.3,7,5,7,1,2026-04-16T03:25:33.547273+05:30
Dhanbad,Jharkhand,23.7957,86.4304,28.1,87,0.0,976.7,8.95,29.9,152,120.6,98.7,7,5,7,1,2026-04-16T03:25:33.547278+05:30
Bokaro,Jharkhand,23.6693,86.1511,26.6,75,0.0,980.7,8.95,32.8,130,107.6,77.5,7,5,7,1,2026-04-16T03:25:33.547284+05:30
Bhubaneswar,Odisha,20.2961,85.8245,27.1,89,0.0,999.4,9.1,41.0,64,14.5,10.7,7,5,7,1,2026-04-16T03:25:33.547290+05:30
Cuttack,Odisha,20.4625,85.8828,27.3,88,0.0,1001.3,9.15,37.1,64,14.5,10.7,7,5,4,1,2026-04-16T03:25:33.547296+05:30
Rourkela,Odisha,22.2604,84.8536,28.6,87,0.0,981.6,8.9,46.1,126,53.2,45.2,7,5,7,1,2026-04-16T03:25:33.547302+05:30
Raipur,Chhattisgarh,21.2514,81.6296,28.3,53,0.0,970.0,8.95,31.3,105,33.3,31.0,4,5,7,1,2026-04-16T03:25:33.547308+05:30
Bhilai,Chhattisgarh,21.1938,81.3509,27.1,58,0.0,970.3,8.95,30.6,99,26.7,24.2,4,5,7,1,2026-04-16T03:25:33.547314+05:30
Guwahati,Assam,26.1158,91.7086,23.0,90,0.0,1001.3,8.45,24.1,118,54.2,45.2,3,5,4,1,2026-04-16T03:25:33.547320+05:30
Agartala,Tripura,23.8315,91.2868,23.4,91,0.0,1005.9,8.7,29.2,102,50.6,44.2,3,5,4,1,2026-04-16T03:25:33.547325+05:30
Shillong,Meghalaya,25.5788,91.8933,13.6,95,0.0,854.4,8.1,51.8,83,41.6,29.2,3,10,7,0,2026-04-16T03:25:33.547332+05:30
Imphal,Manipur,24.817,93.9368,17.6,90,0.0,922.6,9.05,71.3,112,46.4,32.6,3,10,7,0,2026-04-16T03:25:33.547361+05:30
Aizawl,Mizoram,23.7271,92.7176,18.5,91,0.0,892.0,8.95,40.7,115,58.2,42.3,3,10,7,1,2026-04-16T03:25:33.547369+05:30
Kohima,Nagaland,25.6701,94.1077,14.6,82,0.0,853.7,8.6,56.5,98,44.2,27.9,3,10,7,0,2026-04-16T03:25:33.547375+05:30
Gangtok,Sikkim,27.3314,88.6138,14.5,83,0.0,835.5,8.8,16.9,121,25.7,22.0,3,10,7,0,2026-04-16T03:25:33.547381+05:30
Siliguri,West Bengal,26.7271,88.3953,20.7,72,0.0,992.8,8.45,22.3,157,103.6,72.9,3,5,7,0,2026-04-16T03:25:36.823126+05:30
Durgapur,West Bengal,23.5204,87.3119,27.5,92,0.0,992.3,8.85,30.2,132,51.8,46.4,7,5,7,1,2026-04-16T03:25:36.823157+05:30
Asansol,West Bengal,23.6739,86.9524,28.0,89,0.0,990.7,8.9,32.0,125,70.5,59.8,7,5,7,1,2026-04-16T03:25:36.823168+05:30
Pondicherry,Puducherry,11.9139,79.8145,27.7,95,0.0,1006.0,9.25,31.3,39,12.5,9.1,7,5,4,1,2026-04-16T03:25:36.823178+05:30
Port Blair,Andaman and Nicobar Islands,11.6234,92.7265,29.3,69,0.0,1005.2,9.2,15.8,64,19.5,13.7,7,5,4,1,2026-04-16T03:25:36.823186+05:30
Haridwar,Uttarakhand,29.9457,78.1642,19.5,71,0.0,971.8,7.15,29.9,57,24.7,23.9,3,5,7,0,2026-04-16T03:25:36.823194+05:30
Rishikesh,Uttarakhand,30.0869,78.2676,19.8,70,0.0,964.8,7.1,33.5,86,18.7,17.7,3,5,7,0,2026-04-16T03:25:36.823202+05:30
Nainital,Uttarakhand,29.3919,79.4542,19.8,33,0.0,805.0,8.1,58.3,79,13.1,12.4,0,5,7,0,2026-04-16T03:25:36.823210+05:30
Mussoorie,Uttarakhand,30.4599,78.0664,16.7,60,0.0,801.2,7.4,40.3,55,21.8,21.4,0,5,7,0,2026-04-16T03:25:36.823218+05:30
Dharamshala,Himachal Pradesh,32.219,76.3234,20.9,43,0.0,868.0,7.35,22.0,69,16.1,8.7,0,5,7,0,2026-04-16T03:25:36.823225+05:30
Dalhousie,Himachal Pradesh,32.5387,75.971,17.4,41,0.0,802.5,7.55,21.2,55,24.6,21.7,0,5,7,0,2026-04-16T03:25:36.823233+05:30
Patiala,Punjab,30.3398,76.3869,20.0,62,0.0,975.5,7.05,17.6,159,57.4,53.0,3,5,7,0,2026-04-16T03:25:36.823241+05:30
Bhatinda,Punjab,30.211,74.9455,23.0,57,0.0,980.8,7.8,20.9,59,38.0,23.9,0,5,7,0,2026-04-16T03:25:36.823248+05:30
Rohtak,Haryana,28.8955,76.6066,23.5,48,0.0,978.9,7.35,21.6,349,545.8,98.0,0,5,7,0,2026-04-16T03:25:36.823256+05:30
Panipat,Haryana,29.3909,76.9635,21.8,54,0.0,977.7,7.2,19.4,725,573.7,115.7,0,5,7,0,2026-04-16T03:25:36.823263+05:30
Mathura,Uttar Pradesh,27.4924,77.6737,23.2,44,0.0,983.8,7.65,20.5,424,333.4,64.7,0,5,7,0,2026-04-16T03:25:36.823271+05:30
Vrindavan,Uttar Pradesh,27.5823,77.7027,23.3,42,0.0,984.3,7.6,22.7,424,333.4,64.7,0,5,7,0,2026-04-16T03:25:36.823279+05:30
Ayodhya,Uttar Pradesh,26.7922,82.1998,23.8,41,0.0,992.1,8.0,27.7,88,123.4,29.2,0,5,7,0,2026-04-16T03:25:36.823286+05:30
Ratlam,Madhya Pradesh,23.3315,75.0367,24.0,68,0.0,951.2,8.4,25.9,70,56.5,27.3,3,5,7,1,2026-04-16T03:25:36.823293+05:30
Sagar,Madhya Pradesh,23.8388,78.7378,26.8,41,0.0,946.5,8.6,18.4,53,36.1,16.3,4,5,7,0,2026-04-16T03:25:36.823301+05:30
Satna,Madhya Pradesh,24.6005,80.8322,28.3,40,0.0,968.0,8.6,29.2,56,84.1,23.2,4,5,7,0,2026-04-16T03:25:36.823308+05:30
Akola,Maharashtra,20.7002,77.0082,26.5,55,0.0,971.9,8.8,24.1,53,33.6,20.1,4,5,7,1,2026-04-16T03:25:36.823316+05:30
Amravati,Maharashtra,20.9374,77.7796,24.9,51,0.0,963.7,8.8,21.6,50,28.6,17.3,0,5,7,0,2026-04-16T03:25:36.823324+05:30
Latur,Maharashtra,18.4088,76.5604,25.4,47,0.0,936.8,9.05,23.8,66,26.7,22.8,4,5,7,0,2026-04-16T03:25:36.823332+05:30
Nanded,Maharashtra,19.1383,77.3091,26.0,53,0.0,965.5,8.95,16.6,65,27.1,23.4,4,5,7,0,2026-04-16T03:25:36.823382+05:30
Gulbarga,Karnataka,17.3297,76.8343,30.1,47,0.0,955.3,9.1,27.7,93,32.4,28.8,0,5,7,1,2026-04-16T03:25:36.823390+05:30
Bidar,Karnataka,17.9104,77.5199,28.6,44,0.0,932.2,9.1,31.7,100,37.7,33.3,4,5,7,0,2026-04-16T03:25:36.823396+05:30
Hospet,Karnataka,15.2689,76.3909,27.3,80,0.0,953.3,9.25,28.1,79,23.1,18.2,7,5,7,1,2026-04-16T03:25:36.823403+05:30
Tirupur,Tamil Nadu,11.1085,77.3411,27.1,85,0.0,972.7,9.35,35.6,77,33.3,29.8,7,5,7,1,2026-04-16T03:25:36.823409+05:30
Alappuzha,Kerala,9.4981,76.3388,29.1,82,0.0,1005.9,8.4,29.2,89,43.2,32.7,7,5,4,1,2026-04-16T03:25:36.823415+05:30
Munnar,Kerala,10.0889,77.0595,20.6,85,0.0,854.2,9.0,35.3,73,34.2,30.0,3,5,7,1,2026-04-16T03:25:36.823422+05:30
Silchar,Assam,24.8333,92.7789,22.5,94,0.0,1005.3,8.7,28.1,110,46.6,30.6,3,5,4,1,2026-04-16T03:25:36.823428+05:30
Dibrugarh,Assam,27.4728,94.912,20.2,90,0.0,996.7,8.55,9.7,135,49.5,35.9,3,5,7,1,2026-04-16T03:25:36.823434+05:30
