city,state,latitude,longitude,temp,humidity,rain,pressure,uv_index,wind_gusts,aqi,pm10,pm2_5,mosquito_risk,arthritis_risk,migraine_risk,frizz_risk,updated_at
Delhi,Delhi,28.6139,77.209,32.4,33,0.0,979.8,5.45,32.4,155,555.1,77.3,0,5,3,0,2026-03-29T16:07:53.013213+05:30
Mumbai,Maharashtra,19.076,72.8777,28.1,80,0.0,1006.5,8.0,24.5,59,42.3,16.0,7,5,4,1,2026-03-29T16:07:53.013255+05:30
Bangalore,Karnataka,12.9716,77.5946,27.8,46,0.0,908.9,9.55,28.8,132,46.8,38.4,4,5,7,0,2026-03-29T16:07:53.013270+05:30
Hyderabad,Telangana,17.385,78.4867,36.2,24,0.0,950.3,9.05,31.0,108,19.9,17.3,0,5,10,0,2026-03-29T16:07:53.013281+05:30
Chennai,Tamil Nadu,13.0827,80.2707,31.6,64,0.0,1004.2,9.2,37.4,56,22.9,17.6,3,5,4,1,2026-03-29T16:07:53.013290+05:30
Kolkata,West Bengal,22.5726,88.3639,29.3,73,0.0,1003.7,8.45,27.7,121,62.9,46.4,7,5,4,1,2026-03-29T16:07:53.013299+05:30
Pune,Maharashtra,18.5204,73.8567,35.2,34,0.0,946.6,8.55,33.8,66,28.2,14.8,0,5,10,1,2026-03-29T16:07:53.013311+05:30
Ahmedabad,Gujarat,23.0225,72.5714,35.9,38,0.0,999.8,7.7,30.6,37,53.9,14.6,0,5,10,1,2026-03-29T16:07:53.013319+05:30
Jaipur,Rajasthan,26.9124,75.7873,35.7,20,0.0,956.2,7.35,38.2,78,204.9,25.0,0,5,10,0,2026-03-29T16:07:53.013326+05:30
Lucknow,Uttar Pradesh,26.8467,80.9462,34.4,31,0.0,990.8,7.15,16.6,114,80.3,18.9,0,5,7,0,2026-03-29T16:07:53.013334+05:30
Kanpur,Uttar Pradesh,26.4499,80.3319,33.4,36,0.0,989.1,7.25,16.9,118,127.1,23.7,0,5,7,1,2026-03-29T16:07:53.013341+05:30
Chandigarh,Chandigarh,30.7333,76.7794,26.4,67,0.0,967.7,6.0,28.1,91,127.6,23.3,7,5,3,1,2026-03-29T16:07:53.013349+05:30
Srinagar,Jammu and Kashmir,34.0837,74.7973,15.5,65,0.0,840.4,7.4,22.3,85,8.1,5.2,3,5,7,0,2026-03-29T16:07:53.013356+05:30
Jammu,Jammu and Kashmir,32.7266,74.857,25.8,45,0.0,971.2,6.6,28.1,88,39.8,12.7,4,5,7,0,2026-03-29T16:07:53.013364+05:30
Amritsar,Punjab,31.634,74.8723,26.3,56,0.0,979.1,7.3,35.3,73,109.0,27.4,4,5,7,1,2026-03-29T16:07:53.013371+05:30
Ludhiana,Punjab,30.901,75.8573,27.8,55,0.0,977.1,6.2,31.7,100,258.0,42.3,4,5,7,1,2026-03-29T16:07:53.013377+05:30
Jalandhar,Punjab,31.326,75.5762,25.1,48,0.0,978.2,7.1,29.2,96,115.5,27.7,4,5,7,0,2026-03-29T16:07:53.013386+05:30
Dehradun,Uttarakhand,30.6284,78.0322,17.8,70,0.0,829.6,6.0,19.4,72,20.5,9.1,3,5,3,0,2026-03-29T16:07:53.013393+05:30
Shimla,Himachal Pradesh,31.1048,77.1734,16.5,73,0.0,784.5,3.7,22.3,83,62.9,13.0,3,5,3,0,2026-03-29T16:07:53.013400+05:30
Manali,Himachal Pradesh,32.2396,77.1887,15.9,76,0.0,818.6,7.25,28.1,72,1.6,1.4,3,5,7,0,2026-03-29T16:07:53.013406+05:30
Gurgaon,Haryana,28.4595,77.0266,32.6,33,0.0,978.0,5.85,27.0,546,806.5,86.1,0,5,3,0,2026-03-29T16:07:53.013413+05:30
Noida,Uttar Pradesh,28.5355,77.391,32.8,35,0.0,981.4,5.9,24.8,546,806.5,86.1,0,5,3,0,2026-03-29T16:07:53.013420+05:30
Ghaziabad,Uttar Pradesh,28.6692,77.4538,32.1,37,0.0,979.9,5.8,24.1,152,399.5,56.5,0,5,3,0,2026-03-29T16:07:53.013427+05:30
Faridabad,Haryana,28.4089,77.3178,33.2,33,0.0,980.5,6.15,28.8,546,806.5,86.1,0,5,7,0,2026-03-29T16:07:53.013435+05:30
Meerut,Uttar Pradesh,28.9845,77.7064,31.3,38,0.0,979.1,6.0,20.5,152,399.5,56.5,0,5,3,0,2026-03-29T16:07:53.013442+05:30
Agra,Uttar Pradesh,27.1767,78.0081,37.1,24,0.0,983.8,7.15,36.0,369,308.3,34.3,0,5,10,0,2026-03-29T16:07:53.013449+05:30
Varanasi,Uttar Pradesh,25.3176,82.9739,35.8,30,0.0,994.8,7.95,26.6,88,50.3,16.2,0,5,10,0,2026-03-29T16:07:53.013461+05:30
Prayagraj,Uttar Pradesh,25.4358,81.8463,35.0,31,0.0,993.2,7.8,22.7,106,57.9,18.2,0,5,7,0,2026-03-29T16:07:53.013469+05:30
Gorakhpur,Uttar Pradesh,26.7606,83.3732,32.7,36,0.0,995.1,7.6,26.3,131,85.0,29.1,0,5,7,0,2026-03-29T16:07:53.013476+05:30
Bareilly,Uttar Pradesh,28.367,79.4304,32.6,34,0.0,984.5,7.0,15.8,107,55.3,20.1,0,5,7,0,2026-03-29T16:07:53.013483+05:30
Aligarh,Uttar Pradesh,27.8974,78.088,33.7,33,0.0,982.3,6.8,26.3,190,336.2,43.4,0,5,7,0,2026-03-29T16:07:53.013489+05:30
Moradabad,Uttar Pradesh,28.8386,78.7733,31.3,39,0.0,981.4,6.8,18.0,144,83.4,30.5,0,5,7,0,2026-03-29T16:07:53.013496+05:30
Saharanpur,Uttar Pradesh,29.9637,77.546,27.9,51,0.0,974.6,5.95,25.6,107,61.5,16.7,4,5,3,1,2026-03-29T16:07:53.013502+05:30
Jhansi,Uttar Pradesh,25.4484,78.5685,37.0,26,0.0,974.3,7.75,27.4,66,27.6,10.9,0,5,10,0,2026-03-29T16:07:56.344933+05:30
Surat,Gujarat,21.1702,72.8311,30.1,65,0.0,1005.2,7.75,25.9,73,41.9,28.2,3,5,4,1,2026-03-29T16:07:56.344964+05:30
Vadodara,Gujarat,22.3072,73.1812,35.6,42,0.0,1001.9,7.55,31.3,55,61.2,19.8,0,5,7,1,2026-03-29T16:07:56.344974+05:30
Rajkot,Gujarat,22.3039,70.8022,30.1,56,0.0,992.8,7.7,32.8,41,60.8,20.7,0,5,7,1,2026-03-29T16:07:56.344982+05:30
Thane,Maharashtra,19.2183,72.9781,30.4,68,0.0,1006.2,8.0,35.3,59,42.3,16.0,3,5,4,1,2026-03-29T16:07:56.344989+05:30
Nagpur,Maharashtra,21.1458,79.0882,38.0,14,0.0,969.2,8.55,25.2,72,20.9,10.0,0,5,10,0,2026-03-29T16:07:56.344996+05:30
Nashik,Maharashtra,19.9975,73.7898,32.3,42,0.0,944.3,8.25,28.8,50,17.8,6.8,0,5,7,1,2026-03-29T16:07:56.345003+05:30
Aurangabad,Maharashtra,19.8762,75.3433,35.2,25,0.0,941.9,8.75,31.0,39,19.7,6.9,0,5,10,0,2026-03-29T16:07:56.345010+05:30
Solapur,Maharashtra,17.6599,75.9064,38.1,16,0.0,954.2,8.9,23.0,54,18.1,10.8,0,5,10,0,2026-03-29T16:07:56.345018+05:30
Kolhapur,Maharashtra,16.705,74.2433,33.1,26,0.0,946.2,9.0,36.7,71,18.3,8.8,0,5,7,0,2026-03-29T16:07:56.345024+05:30
Goa,Goa,15.2993,74.124,31.0,60,0.0,995.3,8.95,36.4,87,51.7,15.4,0,5,7,1,2026-03-29T16:07:56.345031+05:30
Jodhpur,Rajasthan,26.2389,73.0243,35.3,19,0.0,979.4,7.35,43.2,119,261.7,29.3,0,5,10,0,2026-03-29T16:07:56.345037+05:30
Udaipur,Rajasthan,24.5854,73.7125,33.2,25,0.0,944.7,8.1,35.3,35,20.7,6.6,0,5,7,0,2026-03-29T16:07:56.345044+05:30
Kota,Rajasthan,25.2138,75.8648,38.1,19,0.0,974.6,7.6,34.9,53,28.3,8.9,0,5,10,0,2026-03-29T16:07:56.345050+05:30
Bikaner,Rajasthan,28.0229,73.3119,35.1,25,0.0,977.8,7.55,34.6,96,79.2,22.2,0,5,10,0,2026-03-29T16:07:56.345057+05:30
Ajmer,Rajasthan,26.4499,74.6399,34.3,21,0.0,951.6,7.65,42.8,34,28.7,9.3,0,5,7,0,2026-03-29T16:07:56.345063+05:30
Gwalior,Madhya Pradesh,26.2183,78.1828,36.0,27,0.0,979.6,7.45,30.6,83,30.2,7.9,0,5,10,0,2026-03-29T16:07:56.345070+05:30
Indore,Madhya Pradesh,22.7196,75.8577,34.1,30,0.0,946.1,8.25,32.0,41,25.3,9.7,0,5,7,0,2026-03-29T16:07:56.345076+05:30
Bhopal,Madhya Pradesh,23.2599,77.4126,35.1,28,0.0,951.5,8.2,35.6,41,27.0,9.6,0,5,10,0,2026-03-29T16:07:56.345082+05:30
Jabalpur,Madhya Pradesh,23.1815,79.9864,36.4,18,0.0,958.5,8.25,33.8,58,15.1,5.7,0,5,10,0,2026-03-29T16:07:56.345088+05:30
Ujjain,Madhya Pradesh,23.1765,75.7885,33.8,32,0.0,951.8,8.2,34.9,40,23.1,8.0,0,5,7,0,2026-03-29T16:07:56.345095+05:30
Visakhapatnam,Andhra Pradesh,17.6868,83.2185,32.1,60,0.0,1000.6,9.0,40.3,71,29.0,21.8,0,5,4,1,2026-03-29T16:07:56.345101+05:30
Vijayawada,Andhra Pradesh,16.5062,80.648,36.9,38,0.0,998.3,9.05,29.9,101,54.1,42.6,0,5,10,1,2026-03-29T16:07:56.345108+05:30
Guntur,Andhra Pradesh,16.3067,80.4365,34.9,44,0.0,999.6,9.05,31.3,119,54.2,43.4,0,5,7,1,2026-03-29T16:07:56.345114+05:30
Nellore,Andhra Pradesh,14.4426,79.9865,34.2,49,0.0,1001.9,8.55,33.8,93,38.2,29.5,0,5,4,1,2026-03-29T16:07:56.345121+05:30
Kurnool,Andhra Pradesh,15.8281,78.0373,38.6,21,0.0,972.9,9.1,29.2,141,24.4,21.5,0,5,10,0,2026-03-29T16:07:56.345129+05:30
Kakinada,Andhra Pradesh,16.9891,82.2475,36.7,38,0.0,1003.4,9.0,30.2,57,21.7,14.0,0,5,7,1,2026-03-29T16:07:56.345135+05:30
Tirupati,Andhra Pradesh,13.6288,79.4192,35.6,36,0.0,987.6,9.1,34.6,96,46.9,37.6,0,5,10,1,2026-03-29T16:07:56.345141+05:30
Warangal,Telangana,17.9689,79.5941,37.2,33,0.0,974.9,8.9,28.4,113,22.6,21.1,0,5,10,1,2026-03-29T16:07:56.345148+05:30
Nizamabad,Telangana,18.6725,78.0941,36.9,24,0.0,961.8,8.8,29.2,73,15.0,12.1,0,5,10,0,2026-03-29T16:07:56.345154+05:30
Mysore,Karnataka,12.2958,76.6396,32.8,36,0.0,925.9,9.45,36.0,128,50.4,41.6,0,5,7,0,2026-03-29T16:07:56.345161+05:30
Mangalore,Karnataka,12.9141,74.856,29.5,79,0.0,1003.2,9.1,29.2,115,31.3,25.4,7,5,4,1,2026-03-29T16:07:56.345167+05:30
Hubli-Dharwad,Karnataka,15.3647,75.124,35.8,19,0.0,938.3,9.1,27.7,91,15.0,11.9,0,5,10,0,2026-03-29T16:07:56.345174+05:30
Belgaum,Karnataka,15.8497,74.4977,31.8,34,0.0,923.9,9.2,36.4,77,17.8,7.9,0,5,7,0,2026-03-29T16:07:59.661404+05:30
Coimbatore,Tamil Nadu,11.0168,76.9558,34.4,30,0.0,958.0,9.1,53.6,123,34.8,28.8,0,5,7,0,2026-03-29T16:07:59.661439+05:30
Madurai,Tamil Nadu,9.9252,78.1198,35.3,35,0.0,988.8,9.2,26.3,90,19.2,16.4,0,5,10,1,2026-03-29T16:07:59.661453+05:30
Trichy,Tamil Nadu,10.7905,78.7047,36.4,37,0.0,995.4,8.7,29.5,68,20.1,17.1,0,5,10,1,2026-03-29T16:07:59.661463+05:30
Salem,Tamil Nadu,11.6643,78.146,37.0,29,0.0,973.1,9.4,35.6,134,35.6,29.3,0,5,10,0,2026-03-29T16:07:59.661472+05:30
Tirunelveli,Tamil Nadu,8.7139,77.7567,35.1,36,0.0,999.0,9.4,43.9,89,20.5,17.7,0,5,10,1,2026-03-29T16:07:59.661481+05:30
Vellore,Tamil Nadu,12.9165,79.1325,34.7,35,0.0,980.7,9.35,37.4,118,42.0,34.9,0,5,7,1,2026-03-29T16:07:59.661490+05:30
Erode,Tamil Nadu,11.341,77.7172,38.6,24,0.0,984.0,9.35,38.9,128,36.6,30.3,0,5,10,0,2026-03-29T16:07:59.661499+05:30
Kochi,Kerala,9.9312,76.2673,29.7,75,0.0,1004.9,9.2,27.4,89,29.9,26.0,7,5,4,1,2026-03-29T16:07:59.661507+05:30
Thiruvananthapuram,Kerala,8.5241,76.9366,29.8,79,0.0,1004.1,9.2,31.3,95,25.0,20.3,7,5,4,1,2026-03-29T16:07:59.661515+05:30
Kozhikode,Kerala,11.2588,75.7804,30.4,74,0.0,1004.2,9.1,28.4,118,33.3,27.3,3,5,4,1,2026-03-29T16:07:59.661523+05:30
Thrissur,Kerala,10.5276,76.2144,32.3,64,0.0,1003.3,9.15,34.6,89,29.7,25.4,3,5,4,1,2026-03-29T16:07:59.661533+05:30
Kannur,Kerala,11.8745,75.3704,31.1,70,0.0,1003.7,9.15,34.6,106,38.2,31.8,3,5,4,1,2026-03-29T16:07:59.661540+05:30
Patna,Bihar,25.5941,85.1376,32.2,46,0.0,998.8,8.05,23.8,125,83.8,37.5,0,5,7,1,2026-03-29T16:07:59.661547+05:30
Gaya,Bihar,24.7914,85.0002,33.3,47,0.0,991.7,8.15,17.6,105,56.8,21.2,0,5,7,1,2026-03-29T16:07:59.661553+05:30
Muzaffarpur,Bihar,26.1209,85.3647,31.4,46,0.0,999.0,8.05,28.1,132,82.0,43.1,0,5,7,1,2026-03-29T16:07:59.661559+05:30
Bhagalpur,Bihar,25.2425,87.0117,29.5,64,0.0,1000.4,8.1,19.8,129,74.0,56.8,7,5,4,1,2026-03-29T16:07:59.661566+05:30
Ranchi,Jharkhand,23.3441,85.3096,32.2,26,0.0,935.7,8.75,33.5,112,32.2,15.5,0,5,7,0,2026-03-29T16:07:59.661572+05:30
Jamshedpur,Jharkhand,22.8046,86.2029,35.1,39,0.0,987.8,8.6,33.8,136,68.7,43.5,0,5,10,1,2026-03-29T16:07:59.661578+05:30
Dhanbad,Jharkhand,23.7957,86.4304,33.2,42,0.0,977.8,8.5,18.7,155,61.5,40.9,0,5,7,1,2026-03-29T16:07:59.661584+05:30
Bokaro,Jharkhand,23.6693,86.1511,32.4,48,0.0,981.7,8.5,23.0,156,48.7,28.6,0,5,7,1,2026-03-29T16:07:59.661591+05:30
Bhubaneswar,Odisha,20.2961,85.8245,33.7,55,0.0,999.5,8.8,31.3,80,33.3,25.3,0,5,7,1,2026-03-29T16:07:59.661598+05:30
Cuttack,Odisha,20.4625,85.8828,34.1,55,0.0,1001.0,8.85,34.6,80,33.3,25.3,0,5,4,1,2026-03-29T16:07:59.661604+05:30
Rourkela,Odisha,22.2604,84.8536,36.6,29,0.0,981.4,8.5,32.4,156,40.5,26.8,0,5,10,0,2026-03-29T16:07:59.661610+05:30
Raipur,Chhattisgarh,21.2514,81.6296,39.2,18,0.0,970.7,8.6,29.9,102,18.5,15.4,0,5,10,0,2026-03-29T16:07:59.661616+05:30
Bhilai,Chhattisgarh,21.1938,81.3509,39.3,15,0.0,971.2,8.6,32.8,81,13.9,11.9,0,5,10,0,2026-03-29T16:07:59.661623+05:30
Guwahati,Assam,26.1158,91.7086,27.0,68,0.0,1001.7,7.1,14.4,101,56.2,38.6,7,5,4,1,2026-03-29T16:07:59.661629+05:30
Agartala,Tripura,23.8315,91.2868,26.2,72,0.0,1005.4,8.2,37.4,138,66.6,51.1,7,5,4,1,2026-03-29T16:07:59.661635+05:30
Shillong,Meghalaya,25.5788,91.8933,16.1,66,0.0,854.9,5.4,43.9,99,43.0,31.7,3,5,3,0,2026-03-29T16:07:59.661642+05:30
Imphal,Manipur,24.817,93.9368,19.3,79,0.0,922.4,7.85,61.9,122,64.7,43.2,3,5,7,0,2026-03-29T16:07:59.661649+05:30
Aizawl,Mizoram,23.7271,92.7176,21.6,68,0.0,892.2,7.7,52.9,137,85.0,64.0,3,5,7,0,2026-03-29T16:07:59.661655+05:30
Kohima,Nagaland,25.6701,94.1077,15.6,92,0.0,853.9,7.25,86.4,99,62.9,36.3,3,10,7,0,2026-03-29T16:07:59.661662+05:30
Gangtok,Sikkim,27.3314,88.6138,17.0,69,0.0,836.3,8.2,19.8,84,31.1,24.1,3,5,7,0,2026-03-29T16:07:59.661668+05:30
Siliguri,West Bengal,26.7271,88.3953,21.1,82,0.0,994.2,6.55,12.6,120,56.6,37.6,3,5,7,1,2026-03-29T16:08:02.980656+05:30
Durgapur,West Bengal,23.5204,87.3119,32.9,58,0.0,993.1,8.45,22.3,152,92.2,72.9,0,5,7,1,2026-03-29T16:08:02.980689+05:30
Asansol,West Bengal,23.6739,86.9524,32.5,56,0.0,991.7,8.45,23.4,151,76.1,56.1,0,5,7,1,2026-03-29T16:08:02.980702+05:30
Pondicherry,Puducherry,11.9139,79.8145,32.9,58,0.0,1004.8,8.9,32.4,55,16.5,12.0,0,5,4,1,2026-03-29T16:08:02.980711+05:30
Port Blair,Andaman and Nicobar Islands,11.6234,92.7265,28.8,63,0.0,1004.9,8.7,15.5,68,30.2,24.4,7,5,4,1,2026-03-29T16:08:02.980720+05:30
Haridwar,Uttarakhand,29.9457,78.1642,29.1,45,0.0,973.2,5.2,34.6,89,55.3,14.3,4,5,3,0,2026-03-29T16:08:02.980729+05:30
Rishikesh,Uttarakhand,30.0869,78.2676,28.7,54,0.0,965.8,5.25,29.5,75,47.4,11.6,4,5,3,1,2026-03-29T16:08:02.980738+05:30
Nainital,Uttarakhand,29.3919,79.4542,22.0,59,0.0,806.4,7.45,58.7,99,42.3,14.8,0,5,7,0,2026-03-29T16:08:02.980772+05:30
Mussoorie,Uttarakhand,30.4599,78.0664,18.9,72,0.0,802.5,5.75,23.8,90,40.2,14.8,3,5,3,0,2026-03-29T16:08:02.980783+05:30
Dharamshala,Himachal Pradesh,32.219,76.3234,21.2,71,0.0,867.9,5.15,26.6,54,19.2,4.2,3,5,3,0,2026-03-29T16:08:02.980790+05:30
Dalhousie,Himachal Pradesh,32.5387,75.971,19.0,50,0.0,802.5,2.65,27.0,84,59.5,14.2,0,5,3,0,2026-03-29T16:08:02.980797+05:30
Patiala,Punjab,30.3398,76.3869,27.7,50,0.0,976.4,6.3,35.6,144,692.9,74.7,4,5,7,1,2026-03-29T16:08:02.980804+05:30
Bhatinda,Punjab,30.211,74.9455,29.5,45,0.0,980.5,7.3,38.5,103,486.2,75.7,4,5,7,1,2026-03-29T16:08:02.980811+05:30
Rohtak,Haryana,28.8955,76.6066,31.8,38,0.0,978.3,6.05,31.7,192,375.3,52.4,0,5,7,0,2026-03-29T16:08:02.980817+05:30
Panipat,Haryana,29.3909,76.9635,29.9,42,0.0,978.0,4.4,30.2,373,618.4,78.0,4,5,3,0,2026-03-29T16:08:02.980823+05:30
Mathura,Uttar Pradesh,27.4924,77.6737,35.7,25,0.0,982.9,7.0,26.6,286,232.4,30.2,0,5,10,0,2026-03-29T16:08:02.980830+05:30
Vrindavan,Uttar Pradesh,27.5823,77.7027,35.3,28,0.0,983.5,6.9,29.5,286,232.4,30.2,0,5,10,0,2026-03-29T16:08:02.980836+05:30
Ayodhya,Uttar Pradesh,26.7922,82.1998,33.7,31,0.0,993.0,7.15,20.9,140,85.7,24.2,0,5,7,0,2026-03-29T16:08:02.980843+05:30
Ratlam,Madhya Pradesh,23.3315,75.0367,32.9,34,0.0,952.8,8.15,33.8,37,24.2,7.8,0,5,7,0,2026-03-29T16:08:02.980850+05:30
Sagar,Madhya Pradesh,23.8388,78.7378,35.5,28,0.0,947.9,8.2,33.1,42,16.6,5.5,0,5,10,0,2026-03-29T16:08:02.980856+05:30
Satna,Madhya Pradesh,24.6005,80.8322,35.4,33,0.0,968.7,8.15,36.0,79,27.6,10.3,0,5,10,1,2026-03-29T16:08:02.980862+05:30
Akola,Maharashtra,20.7002,77.0082,37.0,27,0.0,972.1,8.5,27.4,48,43.7,13.3,0,5,10,0,2026-03-29T16:08:02.980869+05:30
Amravati,Maharashtra,20.9374,77.7796,37.7,21,0.0,964.0,8.5,27.4,48,40.9,12.7,0,5,10,0,2026-03-29T16:08:02.980876+05:30
Latur,Maharashtra,18.4088,76.5604,35.9,20,0.0,937.5,8.85,28.4,53,20.8,11.3,0,5,10,0,2026-03-29T16:08:02.980883+05:30
Nanded,Maharashtra,19.1383,77.3091,38.5,16,0.0,965.3,8.7,18.4,57,15.4,8.7,0,5,10,0,2026-03-29T16:08:02.980893+05:30
Gulbarga,Karnataka,17.3297,76.8343,38.0,18,0.0,955.4,8.9,32.0,72,20.2,15.2,0,5,10,0,2026-03-29T16:08:02.980899+05:30
Bidar,Karnataka,17.9104,77.5199,36.6,18,0.0,932.9,8.9,30.2,73,15.4,12.3,0,5,10,0,2026-03-29T16:08:02.980906+05:30
Hospet,Karnataka,15.2689,76.3909,36.1,21,0.0,953.0,9.1,18.7,92,15.6,12.1,0,5,10,0,2026-03-29T16:08:02.980912+05:30
Tirupur,Tamil Nadu,11.1085,77.3411,38.5,20,0.0,970.8,9.3,39.2,142,40.2,33.3,0,5,10,0,2026-03-29T16:08:02.980917+05:30
Alappuzha,Kerala,9.4981,76.3388,29.7,77,0.0,1005.0,9.05,25.6,93,29.7,24.8,7,5,4,1,2026-03-29T16:08:02.980923+05:30
Munnar,Kerala,10.0889,77.0595,25.5,84,0.4,855.9,8.8,33.1,90,25.8,21.7,10,5,7,1,2026-03-29T16:08:02.980931+05:30
Silchar,Assam,24.8333,92.7789,24.9,70,0.0,1004.9,8.2,34.9,144,71.5,46.2,3,5,4,1,2026-03-29T16:08:02.980938+05:30
Dibrugarh,Assam,27.4728,94.912,23.8,67,0.0,996.4,7.35,16.9,91,25.5,19.8,3,5,7,1,2026-03-29T16:08:02.980944+05:30
