city,state,latitude,longitude,temp,humidity,rain,pressure,uv_index,wind_gusts,aqi,pm10,pm2_5,no2,co,o3,so2,mosquito_risk,arthritis_risk,migraine_risk,frizz_risk,updated_at
Delhi,Delhi,28.6139,77.209,37.6,30,0.0,974.5,7.75,31.0,268,377.2,76.6,10.0,271.0,139.0,12.6,0,5,10,1,2026-06-24T17:50:32.392267+05:30
Mumbai,Maharashtra,19.076,72.8777,28.2,79,0.0,1004.3,3.6,29.2,48,35.3,15.1,15.6,304.0,60.0,12.0,7,5,0,1,2026-06-24T17:50:32.392311+05:30
Bangalore,Karnataka,12.9716,77.5946,22.9,89,0.0,910.2,7.95,49.3,31,9.4,6.4,9.8,369.0,59.0,2.7,3,5,7,1,2026-06-24T17:50:32.392326+05:30
Hyderabad,Telangana,17.385,78.4867,30.6,48,0.0,948.4,6.8,45.7,36,11.1,7.4,4.8,477.0,84.0,2.4,0,5,7,1,2026-06-24T17:50:32.392336+05:30
Chennai,Tamil Nadu,13.0827,80.2707,32.8,60,0.0,1002.4,8.8,40.3,64,25.7,17.6,9.2,444.0,98.0,5.1,0,5,4,1,2026-06-24T17:50:32.392343+05:30
Kolkata,West Bengal,22.5726,88.3639,31.1,78,0.0,998.9,8.85,28.4,154,64.3,56.5,11.3,653.0,135.0,14.6,3,5,7,1,2026-06-24T17:50:32.392351+05:30
Pune,Maharashtra,18.5204,73.8567,26.9,66,0.0,944.1,1.0,38.9,24,8.1,6.5,15.1,225.0,43.0,5.7,7,5,3,1,2026-06-24T17:50:32.392357+05:30
Ahmedabad,Gujarat,23.0225,72.5714,37.8,35,0.1,993.6,8.0,46.8,71,63.8,23.5,2.7,141.0,88.0,2.2,3,5,10,1,2026-06-24T17:50:32.392364+05:30
Jaipur,Rajasthan,26.9124,75.7873,34.5,34,0.0,952.7,8.2,49.3,113,128.1,36.4,2.8,179.0,95.0,3.3,0,5,7,1,2026-06-24T17:50:32.392371+05:30
Lucknow,Uttar Pradesh,26.8467,80.9462,38.2,30,0.0,984.5,8.3,32.0,157,237.5,62.4,2.8,176.0,126.0,3.7,0,5,10,1,2026-06-24T17:50:32.392382+05:30
Kanpur,Uttar Pradesh,26.4499,80.3319,38.5,29,0.0,982.9,8.3,31.7,172,199.3,49.2,2.9,158.0,121.0,3.8,0,5,10,1,2026-06-24T17:50:32.392389+05:30
Chandigarh,Chandigarh,30.7333,76.7794,33.4,48,0.0,961.2,7.8,28.1,190,137.8,49.2,4.6,376.0,198.0,11.9,0,5,7,1,2026-06-24T17:50:32.392396+05:30
Srinagar,Jammu and Kashmir,34.0837,74.7973,28.0,41,0.0,837.7,9.1,24.1,117,12.3,9.8,3.0,369.0,137.0,2.2,4,5,7,0,2026-06-24T17:50:32.392403+05:30
Jammu,Jammu and Kashmir,32.7266,74.857,37.0,33,0.0,964.3,8.65,37.1,131,38.2,22.6,3.3,269.0,148.0,3.1,0,5,10,1,2026-06-24T17:50:32.392410+05:30
Amritsar,Punjab,31.634,74.8723,35.8,39,0.0,972.0,8.45,41.4,145,70.8,34.7,3.8,317.0,176.0,7.9,0,5,10,1,2026-06-24T17:50:32.392416+05:30
Ludhiana,Punjab,30.901,75.8573,37.1,31,0.0,970.4,8.05,33.5,161,194.6,55.6,3.7,353.0,170.0,5.9,0,5,10,1,2026-06-24T17:50:32.392422+05:30
Jalandhar,Punjab,31.326,75.5762,37.1,31,0.0,971.1,8.25,27.0,162,84.1,37.7,3.4,361.0,173.0,5.3,0,5,10,1,2026-06-24T17:50:32.392428+05:30
Dehradun,Uttarakhand,30.6284,78.0322,21.6,76,0.0,827.6,7.65,27.0,130,24.2,21.4,2.9,234.0,157.0,3.8,3,5,7,1,2026-06-24T17:50:32.392434+05:30
Shimla,Himachal Pradesh,31.1048,77.1734,17.2,89,0.0,781.5,7.7,34.2,144,42.0,27.6,2.1,281.0,177.0,7.9,3,10,7,0,2026-06-24T17:50:32.392440+05:30
Manali,Himachal Pradesh,32.2396,77.1887,21.4,74,0.0,816.4,9.15,35.3,64,21.0,19.7,30.8,185.0,94.0,0.6,3,5,7,1,2026-06-24T17:50:32.392454+05:30
Gurgaon,Haryana,28.4595,77.0266,36.4,33,0.0,973.2,7.8,28.8,701,555.1,95.0,9.5,222.0,131.0,9.2,0,5,10,1,2026-06-24T17:50:32.392462+05:30
Noida,Uttar Pradesh,28.5355,77.391,35.5,45,0.1,975.9,7.75,23.0,701,555.1,95.0,9.5,374.0,131.0,9.2,3,5,10,1,2026-06-24T17:50:32.392470+05:30
Ghaziabad,Uttar Pradesh,28.6692,77.4538,35.1,41,0.1,974.4,7.75,23.0,286,306.4,80.1,8.5,219.0,166.0,17.7,3,5,10,1,2026-06-24T17:50:32.392477+05:30
Faridabad,Haryana,28.4089,77.3178,37.0,31,0.1,975.3,7.8,27.0,701,555.1,95.0,9.5,226.0,131.0,9.2,3,5,10,1,2026-06-24T17:50:32.392483+05:30
Meerut,Uttar Pradesh,28.9845,77.7064,35.5,38,0.0,973.4,7.7,29.9,286,306.4,80.1,8.5,184.0,166.0,17.7,0,5,10,1,2026-06-24T17:50:32.392490+05:30
Agra,Uttar Pradesh,27.1767,78.0081,37.3,29,0.0,979.2,8.1,25.9,381,529.0,78.0,4.8,157.0,116.0,3.2,0,5,10,1,2026-06-24T17:50:32.392496+05:30
Varanasi,Uttar Pradesh,25.3176,82.9739,38.7,31,0.0,988.6,8.75,37.8,112,165.8,48.2,4.6,248.0,142.0,7.9,0,5,10,1,2026-06-24T17:50:32.392503+05:30
Prayagraj,Uttar Pradesh,25.4358,81.8463,38.6,31,0.0,987.0,8.65,37.4,113,171.4,47.4,2.9,163.0,140.0,6.7,0,5,10,1,2026-06-24T17:50:32.392509+05:30
Gorakhpur,Uttar Pradesh,26.7606,83.3732,36.9,38,0.0,988.2,8.6,25.9,166,131.8,53.4,7.1,265.0,153.0,9.4,0,5,10,1,2026-06-24T17:50:32.392515+05:30
Bareilly,Uttar Pradesh,28.367,79.4304,34.6,41,0.0,978.6,7.9,27.4,155,290.6,75.0,3.8,191.0,146.0,8.2,0,5,7,1,2026-06-24T17:50:32.392523+05:30
Aligarh,Uttar Pradesh,27.8974,78.088,35.6,38,0.0,977.3,7.8,25.2,461,555.1,101.7,6.7,170.0,120.0,6.4,0,5,10,1,2026-06-24T17:50:32.392530+05:30
Moradabad,Uttar Pradesh,28.8386,78.7733,35.4,39,0.0,975.4,7.9,33.8,175,324.1,88.7,4.6,199.0,179.0,13.0,0,5,10,1,2026-06-24T17:50:32.392536+05:30
Saharanpur,Uttar Pradesh,29.9637,77.546,34.5,41,0.0,967.9,7.45,30.6,190,177.9,59.0,5.2,232.0,192.0,14.8,0,5,7,1,2026-06-24T17:50:32.392542+05:30
Jhansi,Uttar Pradesh,25.4484,78.5685,37.0,33,0.0,970.1,8.45,29.9,78,64.3,24.3,2.1,140.0,100.0,3.8,0,5,10,1,2026-06-24T17:50:35.731009+05:30
Surat,Gujarat,21.1702,72.8311,29.4,75,0.0,1001.0,7.1,51.1,78,37.4,19.7,13.9,188.0,46.0,32.6,7,5,4,1,2026-06-24T17:50:35.731041+05:30
Vadodara,Gujarat,22.3072,73.1812,33.4,55,0.0,997.0,6.1,52.6,72,84.5,31.1,4.1,154.0,101.0,5.2,0,5,7,1,2026-06-24T17:50:35.731051+05:30
Rajkot,Gujarat,22.3039,70.8022,34.3,52,0.0,987.0,7.5,47.9,68,59.8,24.8,1.9,106.0,88.0,4.1,0,5,7,1,2026-06-24T17:50:35.731059+05:30
Thane,Maharashtra,19.2183,72.9781,27.1,86,0.0,1003.7,3.65,23.4,48,35.3,15.1,15.6,291.0,60.0,12.0,7,5,0,1,2026-06-24T17:50:35.731067+05:30
Nagpur,Maharashtra,21.1458,79.0882,29.8,70,0.0,967.2,8.7,36.0,36,12.3,11.4,15.3,268.0,85.0,28.8,7,5,7,1,2026-06-24T17:50:35.731078+05:30
Nashik,Maharashtra,19.9975,73.7898,26.9,66,0.0,941.2,1.15,36.7,35,34.0,16.3,6.3,150.0,95.0,7.9,7,5,3,1,2026-06-24T17:50:35.731086+05:30
Aurangabad,Maharashtra,19.8762,75.3433,28.4,55,0.0,939.2,7.5,34.2,44,65.7,25.8,2.8,217.0,85.0,3.9,4,5,7,1,2026-06-24T17:50:35.731092+05:30
Solapur,Maharashtra,17.6599,75.9064,30.2,50,0.1,952.6,5.3,60.8,35,5.7,4.4,5.1,128.0,62.0,1.4,3,5,3,1,2026-06-24T17:50:35.731100+05:30
Kolhapur,Maharashtra,16.705,74.2433,23.6,87,0.0,944.9,4.65,51.5,27,3.5,3.2,5.9,161.0,54.0,1.4,3,5,3,1,2026-06-24T17:50:35.731107+05:30
Goa,Goa,15.2993,74.124,25.9,90,0.1,996.8,4.6,29.5,36,13.5,7.2,2.0,167.0,52.0,0.7,10,5,3,1,2026-06-24T17:50:35.731114+05:30
Jodhpur,Rajasthan,26.2389,73.0243,36.9,36,0.0,974.3,8.4,42.5,142,277.5,53.9,1.3,117.0,82.0,1.2,0,5,10,1,2026-06-24T17:50:35.731121+05:30
Udaipur,Rajasthan,24.5854,73.7125,33.5,41,0.0,940.0,8.75,36.0,73,80.1,23.2,1.1,119.0,85.0,1.6,0,5,7,1,2026-06-24T17:50:35.731128+05:30
Kota,Rajasthan,25.2138,75.8648,32.4,55,0.0,971.8,8.3,59.4,81,85.4,31.2,2.1,149.0,103.0,3.8,0,5,7,1,2026-06-24T17:50:35.731136+05:30
Bikaner,Rajasthan,28.0229,73.3119,35.8,40,0.0,973.3,8.45,28.8,156,189.1,48.2,0.7,127.0,89.0,2.3,0,5,10,1,2026-06-24T17:50:35.731143+05:30
Ajmer,Rajasthan,26.4499,74.6399,32.6,46,0.0,947.7,8.3,44.6,86,126.2,33.2,1.5,127.0,92.0,2.0,0,5,7,1,2026-06-24T17:50:35.731150+05:30
Gwalior,Madhya Pradesh,26.2183,78.1828,37.1,30,0.0,975.1,8.25,31.7,102,104.1,30.4,1.4,141.0,103.0,1.9,0,5,10,1,2026-06-24T17:50:35.731157+05:30
Indore,Madhya Pradesh,22.7196,75.8577,24.4,95,0.2,942.2,2.35,42.8,75,44.8,25.6,8.2,327.0,87.0,3.6,6,5,3,1,2026-06-24T17:50:35.731164+05:30
Bhopal,Madhya Pradesh,23.2599,77.4126,26.6,89,0.0,947.6,7.2,33.5,56,54.2,26.4,2.0,339.0,108.0,4.9,7,5,7,1,2026-06-24T17:50:35.731172+05:30
Jabalpur,Madhya Pradesh,23.1815,79.9864,30.5,65,0.0,955.5,8.8,27.7,51,29.2,17.9,2.9,170.0,102.0,1.9,3,5,7,1,2026-06-24T17:50:35.731179+05:30
Ujjain,Madhya Pradesh,23.1765,75.7885,26.4,80,0.0,947.9,2.65,40.3,76,53.8,24.7,1.4,230.0,96.0,2.7,7,5,3,1,2026-06-24T17:50:35.731187+05:30
Visakhapatnam,Andhra Pradesh,17.6868,83.2185,31.1,69,0.0,997.1,8.75,42.5,72,26.9,21.4,16.1,335.0,97.0,32.1,3,5,7,1,2026-06-24T17:50:35.731194+05:30
Vijayawada,Andhra Pradesh,16.5062,80.648,33.1,57,0.0,996.2,8.1,36.4,61,10.2,8.9,5.5,153.0,79.0,3.9,0,5,7,1,2026-06-24T17:50:35.731202+05:30
Guntur,Andhra Pradesh,16.3067,80.4365,33.8,51,0.0,997.7,8.3,40.3,54,10.0,8.3,4.7,152.0,80.0,3.8,0,5,7,1,2026-06-24T17:50:35.731210+05:30
Nellore,Andhra Pradesh,14.4426,79.9865,34.3,45,0.0,1000.7,8.7,47.2,49,13.1,8.8,4.7,155.0,82.0,3.5,0,5,4,1,2026-06-24T17:50:35.731218+05:30
Kurnool,Andhra Pradesh,15.8281,78.0373,32.5,44,0.0,972.4,7.05,52.9,31,11.6,6.9,2.6,125.0,75.0,1.3,0,5,7,1,2026-06-24T17:50:35.731226+05:30
Kakinada,Andhra Pradesh,16.9891,82.2475,31.6,61,0.0,1001.2,8.1,36.7,63,15.8,11.8,3.1,208.0,91.0,3.5,3,5,4,1,2026-06-24T17:50:35.731234+05:30
Tirupati,Andhra Pradesh,13.6288,79.4192,33.5,45,0.0,986.8,8.7,49.3,51,12.2,7.9,5.8,148.0,64.0,1.3,0,5,7,1,2026-06-24T17:50:35.731242+05:30
Warangal,Telangana,17.9689,79.5941,30.5,61,0.3,973.0,8.05,42.5,40,8.7,7.0,3.5,165.0,90.0,1.9,6,5,7,1,2026-06-24T17:50:35.731249+05:30
Nizamabad,Telangana,18.6725,78.0941,25.1,96,0.2,960.0,5.05,44.6,33,13.2,9.1,8.3,181.0,62.0,2.6,10,5,3,1,2026-06-24T17:50:35.731255+05:30
Mysore,Karnataka,12.2958,76.6396,25.3,74,0.0,927.3,4.95,50.0,31,6.3,4.5,6.3,136.0,56.0,1.6,7,5,3,1,2026-06-24T17:50:35.731262+05:30
Mangalore,Karnataka,12.9141,74.856,24.8,96,0.1,1006.8,8.25,45.4,42,13.4,8.5,5.1,116.0,45.0,1.5,6,5,4,1,2026-06-24T17:50:35.731269+05:30
Hubli-Dharwad,Karnataka,15.3647,75.124,23.7,85,0.1,938.6,7.85,57.2,26,4.4,3.1,4.4,118.0,52.0,1.0,6,5,7,1,2026-06-24T17:50:35.731276+05:30
Belgaum,Karnataka,15.8497,74.4977,22.0,91,0.0,923.3,6.15,46.1,26,5.4,3.5,4.7,133.0,50.0,1.2,3,5,7,1,2026-06-24T17:50:39.074174+05:30
Coimbatore,Tamil Nadu,11.0168,76.9558,25.1,86,0.0,960.3,8.45,50.8,34,7.4,6.0,5.1,171.0,63.0,2.2,7,5,7,1,2026-06-24T17:50:39.074206+05:30
Madurai,Tamil Nadu,9.9252,78.1198,32.8,51,0.0,991.1,8.0,33.1,64,14.9,11.4,11.6,174.0,73.0,2.6,0,5,7,1,2026-06-24T17:50:39.074217+05:30
Trichy,Tamil Nadu,10.7905,78.7047,32.3,55,0.1,997.0,8.05,49.0,38,26.7,17.6,4.0,138.0,79.0,2.1,3,5,7,1,2026-06-24T17:50:39.074226+05:30
Salem,Tamil Nadu,11.6643,78.146,28.7,67,0.3,975.6,8.75,39.2,54,16.8,12.8,11.4,289.0,82.0,4.7,10,5,7,1,2026-06-24T17:50:39.074234+05:30
Tirunelveli,Tamil Nadu,8.7139,77.7567,33.1,47,0.0,1001.3,8.15,38.5,32,5.0,4.2,3.7,134.0,69.0,1.3,0,5,4,1,2026-06-24T17:50:39.074242+05:30
Vellore,Tamil Nadu,12.9165,79.1325,30.8,60,0.1,981.0,8.2,49.0,46,16.8,12.0,8.3,179.0,73.0,2.5,3,5,7,1,2026-06-24T17:50:39.074249+05:30
Erode,Tamil Nadu,11.341,77.7172,31.1,56,0.0,987.2,8.7,42.5,51,12.4,9.6,8.3,180.0,79.0,2.2,0,5,7,1,2026-06-24T17:50:39.074257+05:30
Kochi,Kerala,9.9312,76.2673,27.4,85,0.0,1008.9,7.15,34.6,48,10.0,7.2,8.0,163.0,41.0,2.2,7,0,4,1,2026-06-24T17:50:39.074265+05:30
Thiruvananthapuram,Kerala,8.5241,76.9366,26.1,91,0.0,1008.1,7.9,42.1,36,7.8,5.0,2.6,157.0,54.0,1.0,7,0,4,1,2026-06-24T17:50:39.074272+05:30
Kozhikode,Kerala,11.2588,75.7804,25.1,97,0.1,1008.1,8.35,33.5,27,8.4,5.3,1.4,144.0,56.0,0.8,10,0,4,1,2026-06-24T17:50:39.074279+05:30
Thrissur,Kerala,10.5276,76.2144,26.3,91,0.1,1007.1,7.6,31.3,51,8.0,6.2,5.2,198.0,43.0,1.4,10,5,4,1,2026-06-24T17:50:39.074287+05:30
Kannur,Kerala,11.8745,75.3704,26.0,94,0.0,1007.2,8.0,34.6,36,8.9,6.4,5.4,129.0,48.0,1.4,7,5,4,1,2026-06-24T17:50:39.074294+05:30
Patna,Bihar,25.5941,85.1376,36.9,39,0.0,991.5,8.8,32.0,161,102.2,50.1,16.2,272.0,119.0,8.5,0,5,10,1,2026-06-24T17:50:39.074301+05:30
Gaya,Bihar,24.7914,85.0002,35.6,46,0.0,985.6,8.9,34.6,128,88.0,44.2,9.3,295.0,112.0,6.9,0,5,10,1,2026-06-24T17:50:39.074309+05:30
Muzaffarpur,Bihar,26.1209,85.3647,34.6,62,0.0,991.4,8.8,30.2,173,111.3,61.5,17.9,382.0,135.0,10.0,3,5,7,1,2026-06-24T17:50:39.074316+05:30
Bhagalpur,Bihar,25.2425,87.0117,34.5,61,0.0,992.4,8.8,26.6,172,108.7,48.5,6.9,347.0,150.0,11.7,3,5,7,1,2026-06-24T17:50:39.074323+05:30
Ranchi,Jharkhand,23.3441,85.3096,27.1,77,0.0,932.5,9.15,33.5,97,26.4,20.8,5.3,223.0,97.0,2.8,7,5,7,1,2026-06-24T17:50:39.074330+05:30
Jamshedpur,Jharkhand,22.8046,86.2029,32.2,65,0.0,984.2,9.05,32.4,136,49.0,36.6,8.0,479.0,138.0,15.6,3,5,7,1,2026-06-24T17:50:39.074337+05:30
Dhanbad,Jharkhand,23.7957,86.4304,32.8,56,0.0,972.9,9.05,29.5,152,86.6,64.3,24.9,289.0,149.0,69.0,0,5,7,1,2026-06-24T17:50:39.074344+05:30
Bokaro,Jharkhand,23.6693,86.1511,32.9,62,0.0,976.6,8.95,32.0,139,66.1,50.1,19.7,262.0,129.0,57.5,3,5,7,1,2026-06-24T17:50:39.074351+05:30
Bhubaneswar,Odisha,20.2961,85.8245,30.8,77,0.0,996.4,8.9,33.8,139,22.8,21.1,6.2,345.0,128.0,6.6,3,5,7,1,2026-06-24T17:50:39.074358+05:30
Cuttack,Odisha,20.4625,85.8828,30.5,82,0.0,998.1,9.1,30.6,139,22.8,21.1,6.2,304.0,128.0,6.6,3,5,7,1,2026-06-24T17:50:39.074365+05:30
Rourkela,Odisha,22.2604,84.8536,31.0,69,0.0,978.7,8.95,28.8,121,29.7,28.5,6.4,344.0,140.0,10.9,3,5,7,1,2026-06-24T17:50:39.074372+05:30
Raipur,Chhattisgarh,21.2514,81.6296,35.4,39,0.0,968.1,8.9,31.7,59,14.9,14.8,16.0,270.0,84.0,33.3,0,5,10,1,2026-06-24T17:50:39.074379+05:30
Bhilai,Chhattisgarh,21.1938,81.3509,34.7,41,0.0,968.5,8.9,33.1,53,13.4,13.4,16.9,649.0,78.0,31.6,0,5,7,1,2026-06-24T17:50:39.074385+05:30
Guwahati,Assam,26.1158,91.7086,27.5,96,0.0,994.0,8.75,31.0,67,23.6,16.4,5.7,286.0,96.0,2.8,7,5,7,1,2026-06-24T17:50:39.074392+05:30
Agartala,Tripura,23.8315,91.2868,30.3,74,0.0,999.2,4.85,27.0,69,42.6,33.6,10.1,258.0,109.0,7.1,3,5,3,1,2026-06-24T17:50:39.074399+05:30
Shillong,Meghalaya,25.5788,91.8933,21.6,96,0.0,853.2,8.1,19.1,62,9.1,7.1,7.6,290.0,94.0,2.2,3,5,7,1,2026-06-24T17:50:39.074407+05:30
Imphal,Manipur,24.817,93.9368,25.6,79,0.0,917.6,7.3,24.5,49,8.8,7.3,6.6,267.0,78.0,1.8,7,5,7,1,2026-06-24T17:50:39.074414+05:30
Aizawl,Mizoram,23.7271,92.7176,22.4,85,0.0,887.8,4.7,18.4,42,16.9,10.6,3.7,176.0,74.0,0.8,3,5,3,1,2026-06-24T17:50:39.074421+05:30
Kohima,Nagaland,25.6701,94.1077,20.8,98,0.0,851.1,7.05,27.4,44,7.2,5.5,5.9,222.0,76.0,1.1,3,5,7,1,2026-06-24T17:50:39.074428+05:30
Gangtok,Sikkim,27.3314,88.6138,19.0,97,0.3,833.3,9.2,32.0,98,5.9,4.1,3.8,327.0,128.0,3.0,6,10,7,1,2026-06-24T17:50:39.074435+05:30
Siliguri,West Bengal,26.7271,88.3953,28.5,89,0.0,985.2,8.75,23.8,106,50.9,34.3,8.0,691.0,121.0,5.1,7,5,7,1,2026-06-24T17:50:42.410543+05:30
Durgapur,West Bengal,23.5204,87.3119,31.8,76,0.0,987.6,9.0,28.8,188,103.4,86.4,26.8,954.0,181.0,61.2,3,5,7,1,2026-06-24T17:50:42.410576+05:30
Asansol,West Bengal,23.6739,86.9524,32.0,74,0.0,986.1,9.0,28.1,155,93.6,72.6,25.1,497.0,159.0,50.1,3,5,7,1,2026-06-24T17:50:42.410587+05:30
Pondicherry,Puducherry,11.9139,79.8145,30.4,75,0.0,1004.5,7.9,37.1,62,31.3,22.8,9.9,363.0,124.0,10.2,3,5,4,1,2026-06-24T17:50:42.410596+05:30
Port Blair,Andaman and Nicobar Islands,11.6234,92.7265,28.4,78,0.0,1005.4,8.65,44.6,30,10.8,6.5,0.5,105.0,48.0,0.4,7,5,4,1,2026-06-24T17:50:42.410604+05:30
Haridwar,Uttarakhand,29.9457,78.1642,34.0,46,0.0,966.2,7.6,27.4,180,90.3,41.9,3.0,222.0,195.0,11.2,0,5,7,1,2026-06-24T17:50:42.410612+05:30
Rishikesh,Uttarakhand,30.0869,78.2676,33.0,46,0.0,959.3,7.7,25.2,163,67.1,34.9,1.7,250.0,190.0,8.2,0,5,7,1,2026-06-24T17:50:42.410620+05:30
Nainital,Uttarakhand,29.3919,79.4542,19.3,87,0.0,802.8,8.05,27.7,165,163.4,50.1,2.3,256.0,178.0,10.1,3,10,7,1,2026-06-24T17:50:42.410627+05:30
Mussoorie,Uttarakhand,30.4599,78.0664,18.4,89,0.1,800.3,7.55,38.2,163,45.1,29.8,3.1,247.0,180.0,7.5,6,10,7,1,2026-06-24T17:50:42.410635+05:30
Dharamshala,Himachal Pradesh,32.219,76.3234,24.9,65,0.0,865.1,8.5,34.9,106,13.9,10.9,1.3,284.0,144.0,1.1,3,5,7,1,2026-06-24T17:50:42.410642+05:30
Dalhousie,Himachal Pradesh,32.5387,75.971,21.2,66,0.0,802.4,8.2,33.5,148,30.5,21.1,2.9,257.0,163.0,2.6,3,5,7,0,2026-06-24T17:50:42.410650+05:30
Patiala,Punjab,30.3398,76.3869,36.0,36,0.0,970.1,7.65,35.3,184,383.7,78.9,3.1,201.0,151.0,7.2,0,5,10,1,2026-06-24T17:50:42.410658+05:30
Bhatinda,Punjab,30.211,74.9455,37.6,30,0.0,974.9,8.25,32.4,150,159.3,52.2,4.3,172.0,144.0,12.4,0,5,10,1,2026-06-24T17:50:42.410666+05:30
Rohtak,Haryana,28.8955,76.6066,35.8,38,0.0,973.3,7.75,26.3,320,389.3,66.8,5.2,186.0,122.0,3.8,0,5,10,1,2026-06-24T17:50:42.410673+05:30
Panipat,Haryana,29.3909,76.9635,35.3,40,0.0,972.2,7.6,28.8,731,486.2,84.3,6.0,174.0,147.0,14.7,0,5,10,1,2026-06-24T17:50:42.410680+05:30
Mathura,Uttar Pradesh,27.4924,77.6737,35.5,38,0.0,978.6,8.05,26.6,450,564.4,88.0,5.7,166.0,111.0,2.3,0,5,10,1,2026-06-24T17:50:42.410687+05:30
Vrindavan,Uttar Pradesh,27.5823,77.7027,34.9,42,0.0,979.0,8.0,25.6,450,564.4,88.0,5.7,173.0,111.0,2.3,0,5,7,1,2026-06-24T17:50:42.410694+05:30
Ayodhya,Uttar Pradesh,26.7922,82.1998,36.4,41,0.0,986.4,8.35,27.0,158,163.0,57.7,4.1,201.0,150.0,6.6,0,5,10,1,2026-06-24T17:50:42.410701+05:30
Ratlam,Madhya Pradesh,23.3315,75.0367,30.7,58,0.0,948.5,7.65,40.3,75,47.6,21.3,1.0,124.0,93.0,2.5,0,5,7,1,2026-06-24T17:50:42.410710+05:30
Sagar,Madhya Pradesh,23.8388,78.7378,29.4,66,0.0,944.3,8.65,37.8,60,55.5,25.3,1.6,182.0,112.0,2.2,7,5,7,1,2026-06-24T17:50:42.410717+05:30
Satna,Madhya Pradesh,24.6005,80.8322,33.3,47,0.0,964.2,8.75,38.5,80,93.4,34.1,1.2,153.0,114.0,2.4,0,5,7,1,2026-06-24T17:50:42.410725+05:30
Akola,Maharashtra,20.7002,77.0082,24.8,94,0.2,970.2,8.5,42.5,45,29.2,16.6,4.9,173.0,86.0,4.7,6,5,7,1,2026-06-24T17:50:42.410734+05:30
Amravati,Maharashtra,20.9374,77.7796,26.9,83,0.2,961.9,8.65,39.6,46,23.1,13.9,5.3,215.0,92.0,7.2,10,5,7,1,2026-06-24T17:50:42.410742+05:30
Latur,Maharashtra,18.4088,76.5604,29.6,50,0.0,935.1,2.45,44.6,35,21.9,10.9,2.5,158.0,81.0,1.7,4,5,3,1,2026-06-24T17:50:42.410749+05:30
Nanded,Maharashtra,19.1383,77.3091,27.2,79,0.0,963.9,7.3,42.1,32,22.4,13.8,7.6,195.0,66.0,2.1,7,5,7,1,2026-06-24T17:50:42.410756+05:30
Gulbarga,Karnataka,17.3297,76.8343,31.7,42,0.0,953.8,5.15,61.6,34,5.5,4.2,5.7,145.0,65.0,1.6,0,5,3,1,2026-06-24T17:50:42.410764+05:30
Bidar,Karnataka,17.9104,77.5199,27.4,66,0.0,931.1,7.55,48.6,39,19.2,10.7,4.6,149.0,83.0,3.1,7,5,7,1,2026-06-24T17:50:42.410771+05:30
Hospet,Karnataka,15.2689,76.3909,27.6,64,0.0,953.1,7.3,55.4,29,6.1,4.0,3.5,118.0,57.0,1.5,7,5,7,1,2026-06-24T17:50:42.410778+05:30
Tirupur,Tamil Nadu,11.1085,77.3411,27.9,70,0.0,973.4,8.8,56.2,56,12.8,9.9,7.8,147.0,76.0,2.7,7,5,7,1,2026-06-24T17:50:42.410784+05:30
Alappuzha,Kerala,9.4981,76.3388,27.2,85,0.1,1009.0,7.3,34.9,39,9.2,6.2,5.4,89.0,48.0,1.6,10,0,4,1,2026-06-24T17:50:42.410791+05:30
Munnar,Kerala,10.0889,77.0595,17.7,99,0.0,856.5,7.65,41.4,27,3.1,2.7,4.2,102.0,52.0,1.2,3,10,7,1,2026-06-24T17:50:42.410799+05:30
Silchar,Assam,24.8333,92.7789,28.9,82,0.0,998.6,8.15,22.0,66,25.6,18.5,6.0,258.0,82.0,3.7,7,5,7,1,2026-06-24T17:50:42.410805+05:30
Dibrugarh,Assam,27.4728,94.912,28.1,88,0.0,988.3,8.95,29.2,70,16.7,15.1,7.9,272.0,95.0,1.9,7,5,7,1,2026-06-24T17:50:42.410812+05:30
