city,state,latitude,longitude,temp,humidity,rain,pressure,uv_index,wind_gusts,aqi,pm10,pm2_5,no2,co,o3,so2,mosquito_risk,arthritis_risk,migraine_risk,frizz_risk,updated_at
Delhi,Delhi,28.6139,77.209,36.4,45,0.0,976.4,7.7,34.2,544,1151.1,188.6,8.2,226.0,98.0,12.5,0,5,10,1,2026-07-18T13:24:57.308432+05:30
Mumbai,Maharashtra,19.076,72.8777,29.8,68,0.1,1006.6,6.05,46.4,67,34.0,18.7,5.3,149.0,82.0,7.1,10,5,4,1,2026-07-18T13:24:57.308480+05:30
Bangalore,Karnataka,12.9716,77.5946,27.8,52,0.0,911.5,4.6,46.1,38,16.8,8.5,4.1,198.0,61.0,2.6,4,5,3,1,2026-07-18T13:24:57.308496+05:30
Hyderabad,Telangana,17.385,78.4867,26.3,76,0.1,951.2,3.45,42.5,58,23.1,12.8,5.9,200.0,57.0,4.6,10,5,3,1,2026-07-18T13:24:57.308505+05:30
Chennai,Tamil Nadu,13.0827,80.2707,32.2,56,0.0,1005.1,6.7,34.9,65,21.8,14.4,8.1,221.0,87.0,11.9,0,5,4,1,2026-07-18T13:24:57.308514+05:30
Kolkata,West Bengal,22.5726,88.3639,32.3,70,0.1,999.0,8.15,38.9,69,17.2,13.5,2.6,253.0,116.0,7.5,6,5,7,1,2026-07-18T13:24:57.308521+05:30
Pune,Maharashtra,18.5204,73.8567,27.6,66,0.0,946.6,8.05,45.7,38,8.2,4.2,3.3,127.0,57.0,4.4,7,5,7,1,2026-07-18T13:24:57.308528+05:30
Ahmedabad,Gujarat,23.0225,72.5714,34.8,47,0.1,997.6,6.6,36.4,73,31.7,13.8,1.8,125.0,81.0,3.7,3,5,7,1,2026-07-18T13:24:57.308534+05:30
Jaipur,Rajasthan,26.9124,75.7873,36.5,40,0.0,955.0,7.35,37.8,200,271.0,55.4,1.3,139.0,99.0,3.0,0,5,10,1,2026-07-18T13:24:57.308541+05:30
Lucknow,Uttar Pradesh,26.8467,80.9462,30.8,78,0.0,987.1,7.05,26.6,163,164.4,58.2,1.9,282.0,159.0,7.7,3,5,7,1,2026-07-18T13:24:57.308569+05:30
Kanpur,Uttar Pradesh,26.4499,80.3319,35.0,57,0.0,984.6,7.6,36.4,169,192.8,69.8,2.6,191.0,155.0,8.3,0,5,7,1,2026-07-18T13:24:57.308576+05:30
Chandigarh,Chandigarh,30.7333,76.7794,35.2,50,0.0,962.3,7.7,30.2,149,191.9,69.6,1.8,394.0,177.0,14.3,0,5,10,1,2026-07-18T13:24:57.308583+05:30
Srinagar,Jammu and Kashmir,34.0837,74.7973,33.7,38,0.0,839.6,9.05,22.7,103,41.9,28.5,1.3,348.0,163.0,3.8,0,5,7,1,2026-07-18T13:24:57.308589+05:30
Jammu,Jammu and Kashmir,32.7266,74.857,34.7,58,0.0,965.4,8.4,27.0,152,115.9,54.7,1.8,286.0,157.0,7.3,0,5,7,1,2026-07-18T13:24:57.308596+05:30
Amritsar,Punjab,31.634,74.8723,36.5,50,0.0,973.3,6.75,17.3,171,205.4,69.8,1.4,384.0,191.0,10.3,0,5,10,1,2026-07-18T13:24:57.308602+05:30
Ludhiana,Punjab,30.901,75.8573,38.1,40,0.0,971.6,7.75,24.8,175,263.6,81.0,1.6,294.0,178.0,7.9,0,5,10,1,2026-07-18T13:24:57.308609+05:30
Jalandhar,Punjab,31.326,75.5762,36.5,49,0.0,972.5,8.25,18.7,171,250.5,82.7,1.3,294.0,193.0,7.8,0,5,10,1,2026-07-18T13:24:57.308615+05:30
Dehradun,Uttarakhand,30.6284,78.0322,22.2,92,0.1,828.5,7.15,25.9,92,33.5,18.9,1.3,268.0,144.0,3.8,6,5,7,1,2026-07-18T13:24:57.308622+05:30
Shimla,Himachal Pradesh,31.1048,77.1734,23.3,61,0.0,785.2,7.4,42.8,88,48.8,25.4,0.8,170.0,142.0,8.8,3,5,7,0,2026-07-18T13:24:57.308628+05:30
Manali,Himachal Pradesh,32.2396,77.1887,26.4,70,0.0,819.0,7.05,31.3,57,12.1,7.1,0.6,242.0,145.0,1.1,7,5,7,1,2026-07-18T13:24:57.308637+05:30
Gurgaon,Haryana,28.4595,77.0266,37.0,41,0.0,975.1,7.75,38.5,502,1072.9,176.5,6.7,172.0,114.0,10.7,0,5,10,1,2026-07-18T13:24:57.308644+05:30
Noida,Uttar Pradesh,28.5355,77.391,36.5,46,0.0,977.6,7.7,30.6,502,1072.9,176.5,6.7,243.0,114.0,10.7,0,5,10,1,2026-07-18T13:24:57.308650+05:30
Ghaziabad,Uttar Pradesh,28.6692,77.4538,35.1,52,0.0,976.0,7.7,29.2,476,694.8,137.4,6.5,225.0,137.0,19.2,0,5,10,1,2026-07-18T13:24:57.308663+05:30
Faridabad,Haryana,28.4089,77.3178,37.1,41,0.0,977.0,7.6,38.9,502,1072.9,176.5,6.7,200.0,114.0,10.7,0,5,10,1,2026-07-18T13:24:57.308670+05:30
Meerut,Uttar Pradesh,28.9845,77.7064,34.2,61,0.0,974.7,7.6,27.0,476,694.8,137.4,6.5,209.0,137.0,19.2,3,5,7,1,2026-07-18T13:24:57.308676+05:30
Agra,Uttar Pradesh,27.1767,78.0081,37.8,42,0.0,981.3,7.6,40.0,165,343.7,71.2,2.3,163.0,130.0,4.1,0,5,10,1,2026-07-18T13:24:57.308682+05:30
Varanasi,Uttar Pradesh,25.3176,82.9739,33.2,67,0.0,990.6,7.4,19.4,95,19.7,18.2,2.4,288.0,160.0,6.8,3,5,7,1,2026-07-18T13:24:57.308689+05:30
Prayagraj,Uttar Pradesh,25.4358,81.8463,35.1,58,0.0,988.7,6.45,34.9,126,59.8,32.8,2.3,169.0,174.0,7.6,0,5,10,1,2026-07-18T13:24:57.308695+05:30
Gorakhpur,Uttar Pradesh,26.7606,83.3732,31.4,76,0.1,990.9,7.85,26.3,101,20.3,19.0,2.0,292.0,132.0,3.8,6,5,7,1,2026-07-18T13:24:57.308701+05:30
Bareilly,Uttar Pradesh,28.367,79.4304,30.8,82,0.0,980.3,5.65,29.9,158,199.3,73.1,3.6,391.0,170.0,14.1,3,5,3,1,2026-07-18T13:24:57.308709+05:30
Aligarh,Uttar Pradesh,27.8974,78.088,35.1,54,0.0,978.9,6.85,27.4,277,506.6,109.4,3.0,189.0,149.0,11.3,0,5,10,1,2026-07-18T13:24:57.308716+05:30
Moradabad,Uttar Pradesh,28.8386,78.7733,32.4,75,0.0,977.1,7.25,34.2,173,266.4,82.9,3.5,390.0,176.0,15.4,3,5,7,1,2026-07-18T13:24:57.308721+05:30
Saharanpur,Uttar Pradesh,29.9637,77.546,34.2,57,0.1,969.0,7.25,32.8,180,378.1,120.1,4.7,427.0,206.0,16.1,3,5,7,1,2026-07-18T13:24:57.308727+05:30
Jhansi,Uttar Pradesh,25.4484,78.5685,35.8,50,0.0,972.4,7.0,43.6,102,55.6,24.3,1.5,135.0,110.0,4.6,0,5,10,1,2026-07-18T13:25:00.565545+05:30
Surat,Gujarat,21.1702,72.8311,30.7,70,0.0,1003.6,7.35,43.2,74,27.8,18.7,12.9,302.0,52.0,41.0,3,5,4,1,2026-07-18T13:25:00.565580+05:30
Vadodara,Gujarat,22.3072,73.1812,32.9,58,0.1,1000.2,5.75,41.0,69,29.7,14.5,2.0,136.0,81.0,3.9,3,5,0,1,2026-07-18T13:25:00.565591+05:30
Rajkot,Gujarat,22.3039,70.8022,32.7,55,0.1,990.3,6.05,47.2,62,35.9,15.8,1.2,99.0,76.0,4.5,3,5,7,1,2026-07-18T13:25:00.565600+05:30
Thane,Maharashtra,19.2183,72.9781,28.8,78,0.2,1005.9,6.5,35.6,67,34.0,18.7,5.3,164.0,82.0,7.1,10,5,4,1,2026-07-18T13:25:00.565608+05:30
Nagpur,Maharashtra,21.1458,79.0882,27.8,84,0.0,969.8,1.1,34.6,74,24.2,16.1,8.7,201.0,75.0,19.0,7,5,3,1,2026-07-18T13:25:00.565616+05:30
Nashik,Maharashtra,19.9975,73.7898,27.4,73,0.0,943.4,6.6,43.9,37,16.0,6.4,1.8,123.0,55.0,1.3,7,5,7,1,2026-07-18T13:25:00.565624+05:30
Aurangabad,Maharashtra,19.8762,75.3433,26.9,72,0.0,942.0,7.0,40.7,47,15.8,8.4,3.0,149.0,63.0,5.2,7,5,7,1,2026-07-18T13:25:00.565630+05:30
Solapur,Maharashtra,17.6599,75.9064,27.8,72,0.1,955.7,3.15,34.9,49,21.7,9.3,1.3,118.0,67.0,2.1,10,5,3,1,2026-07-18T13:25:00.565638+05:30
Kolhapur,Maharashtra,16.705,74.2433,26.2,73,0.0,947.2,4.4,45.4,38,6.5,3.8,1.6,121.0,57.0,1.8,7,5,3,1,2026-07-18T13:25:00.565646+05:30
Goa,Goa,15.2993,74.124,28.3,81,0.0,998.3,7.3,32.0,65,22.6,11.3,1.0,140.0,57.0,1.3,7,5,7,1,2026-07-18T13:25:00.565653+05:30
Jodhpur,Rajasthan,26.2389,73.0243,36.3,39,0.0,977.8,8.4,45.4,134,200.2,46.2,0.7,106.0,77.0,2.2,0,5,10,1,2026-07-18T13:25:00.565659+05:30
Udaipur,Rajasthan,24.5854,73.7125,32.0,48,0.0,942.9,7.75,36.4,74,51.5,19.4,0.9,105.0,67.0,2.4,0,5,7,1,2026-07-18T13:25:00.565666+05:30
Kota,Rajasthan,25.2138,75.8648,36.2,44,0.0,974.0,8.3,32.4,90,59.5,30.0,1.2,125.0,114.0,6.0,0,5,10,1,2026-07-18T13:25:00.565673+05:30
Bikaner,Rajasthan,28.0229,73.3119,38.3,34,0.0,975.5,8.35,37.8,120,159.3,53.2,0.4,104.0,76.0,2.6,0,5,10,1,2026-07-18T13:25:00.565680+05:30
Ajmer,Rajasthan,26.4499,74.6399,33.7,47,0.0,950.5,7.95,43.2,79,78.2,32.2,0.8,113.0,87.0,2.7,0,5,7,1,2026-07-18T13:25:00.565688+05:30
Gwalior,Madhya Pradesh,26.2183,78.1828,36.1,46,0.0,977.4,3.4,37.1,115,91.3,29.9,1.1,134.0,113.0,2.6,0,5,6,1,2026-07-18T13:25:00.565695+05:30
Indore,Madhya Pradesh,22.7196,75.8577,31.4,56,0.0,945.2,6.1,38.2,73,44.0,22.9,1.9,169.0,99.0,5.9,0,5,7,1,2026-07-18T13:25:00.565702+05:30
Bhopal,Madhya Pradesh,23.2599,77.4126,32.5,54,0.0,950.1,6.5,38.5,84,56.0,28.3,1.6,169.0,105.0,6.8,0,5,7,1,2026-07-18T13:25:00.565708+05:30
Jabalpur,Madhya Pradesh,23.1815,79.9864,26.9,90,0.1,956.9,8.2,34.9,86,44.9,25.7,1.5,243.0,113.0,5.2,10,5,7,1,2026-07-18T13:25:00.565715+05:30
Ujjain,Madhya Pradesh,23.1765,75.7885,31.2,60,0.0,950.4,7.2,36.4,73,35.9,19.4,1.2,148.0,98.0,5.4,0,5,7,1,2026-07-18T13:25:00.565722+05:30
Visakhapatnam,Andhra Pradesh,17.6868,83.2185,33.1,61,0.0,998.1,5.6,39.6,87,32.4,23.9,6.6,301.0,144.0,28.1,3,5,3,1,2026-07-18T13:25:00.565728+05:30
Vijayawada,Andhra Pradesh,16.5062,80.648,31.5,66,0.0,999.2,4.8,38.9,75,25.0,13.8,1.6,144.0,97.0,4.2,3,5,3,1,2026-07-18T13:25:00.565734+05:30
Guntur,Andhra Pradesh,16.3067,80.4365,32.9,55,0.0,1000.4,3.8,43.6,71,20.7,11.6,1.4,150.0,89.0,3.5,0,5,0,1,2026-07-18T13:25:00.565740+05:30
Nellore,Andhra Pradesh,14.4426,79.9865,33.3,52,0.0,1003.1,2.55,42.8,57,24.0,12.6,2.8,119.0,77.0,5.8,0,5,0,1,2026-07-18T13:25:00.565748+05:30
Kurnool,Andhra Pradesh,15.8281,78.0373,30.9,58,0.0,975.4,4.85,42.8,53,30.6,13.5,2.3,127.0,69.0,6.3,0,5,3,1,2026-07-18T13:25:00.565755+05:30
Kakinada,Andhra Pradesh,16.9891,82.2475,32.8,62,0.0,1002.7,7.65,47.2,80,21.8,15.4,2.2,189.0,120.0,5.4,3,5,4,1,2026-07-18T13:25:00.565762+05:30
Tirupati,Andhra Pradesh,13.6288,79.4192,32.3,52,0.0,989.1,3.9,38.9,53,21.5,9.9,0.2,98.0,69.0,1.2,0,5,3,1,2026-07-18T13:25:00.565768+05:30
Warangal,Telangana,17.9689,79.5941,29.6,68,0.0,975.5,4.15,38.2,70,33.9,17.2,1.5,139.0,85.0,4.2,7,5,3,1,2026-07-18T13:25:00.565774+05:30
Nizamabad,Telangana,18.6725,78.0941,29.9,62,0.0,962.5,1.1,42.1,67,31.8,15.0,1.5,128.0,75.0,4.9,7,5,3,1,2026-07-18T13:25:00.565780+05:30
Mysore,Karnataka,12.2958,76.6396,29.3,54,0.1,928.9,3.35,50.0,27,10.3,5.3,1.7,117.0,68.0,1.5,7,5,3,1,2026-07-18T13:25:00.565786+05:30
Mangalore,Karnataka,12.9141,74.856,28.2,76,0.1,1007.7,4.25,40.0,57,22.5,12.1,1.1,121.0,60.0,1.8,10,5,0,1,2026-07-18T13:25:00.565792+05:30
Hubli-Dharwad,Karnataka,15.3647,75.124,28.5,64,0.0,940.4,7.95,49.7,23,7.4,3.9,1.1,114.0,57.0,1.1,7,5,7,1,2026-07-18T13:25:00.565799+05:30
Belgaum,Karnataka,15.8497,74.4977,26.0,75,0.0,925.4,7.0,48.6,27,7.7,4.8,1.4,103.0,47.0,1.1,7,5,7,1,2026-07-18T13:25:03.809626+05:30
Coimbatore,Tamil Nadu,11.0168,76.9558,31.3,51,0.1,961.3,7.0,44.6,43,14.6,8.2,1.1,139.0,75.0,1.9,3,5,7,1,2026-07-18T13:25:03.809662+05:30
Madurai,Tamil Nadu,9.9252,78.1198,36.1,36,0.0,991.8,7.7,30.6,67,27.1,13.0,1.8,145.0,101.0,2.7,0,5,10,1,2026-07-18T13:25:03.809674+05:30
Trichy,Tamil Nadu,10.7905,78.7047,36.0,38,0.0,998.2,7.25,54.7,54,23.6,11.8,1.4,120.0,80.0,2.2,0,5,10,1,2026-07-18T13:25:03.809683+05:30
Salem,Tamil Nadu,11.6643,78.146,34.0,44,0.0,976.3,6.8,34.9,67,23.8,13.4,2.1,148.0,96.0,5.6,0,5,7,1,2026-07-18T13:25:03.809691+05:30
Tirunelveli,Tamil Nadu,8.7139,77.7567,37.3,34,0.0,1002.2,8.7,54.0,50,12.6,8.5,1.1,112.0,85.0,1.6,0,5,7,1,2026-07-18T13:25:03.809699+05:30
Vellore,Tamil Nadu,12.9165,79.1325,34.4,41,0.1,982.5,7.4,41.4,48,28.5,13.4,1.4,116.0,80.0,2.2,3,5,7,1,2026-07-18T13:25:03.809707+05:30
Erode,Tamil Nadu,11.341,77.7172,36.2,35,0.0,987.6,6.35,39.2,58,23.8,13.7,1.9,153.0,97.0,2.7,0,5,10,1,2026-07-18T13:25:03.809714+05:30
Kochi,Kerala,9.9312,76.2673,29.1,73,0.0,1010.0,7.7,42.5,59,17.9,10.3,2.1,135.0,66.0,3.2,7,0,4,1,2026-07-18T13:25:03.809722+05:30
Thiruvananthapuram,Kerala,8.5241,76.9366,29.0,73,0.0,1009.2,8.5,48.2,62,22.9,14.6,1.8,120.0,89.0,2.1,7,0,4,1,2026-07-18T13:25:03.809729+05:30
Kozhikode,Kerala,11.2588,75.7804,29.7,70,0.0,1009.0,7.65,36.0,55,13.6,7.7,0.6,132.0,61.0,1.4,7,0,4,1,2026-07-18T13:25:03.809736+05:30
Thrissur,Kerala,10.5276,76.2144,30.1,66,0.0,1008.2,7.25,38.5,59,12.7,8.0,1.0,109.0,66.0,1.9,3,0,4,1,2026-07-18T13:25:03.809744+05:30
Kannur,Kerala,11.8745,75.3704,29.3,74,0.0,1008.4,7.65,33.1,54,14.6,8.6,1.2,130.0,64.0,1.7,7,0,4,1,2026-07-18T13:25:03.809751+05:30
Patna,Bihar,25.5941,85.1376,32.6,70,0.0,993.4,6.7,26.3,90,22.9,22.8,3.9,281.0,154.0,14.8,3,5,7,1,2026-07-18T13:25:03.809758+05:30
Gaya,Bihar,24.7914,85.0002,32.6,69,0.0,987.0,5.4,22.0,106,27.8,27.2,1.8,309.0,163.0,9.4,3,5,3,1,2026-07-18T13:25:03.809765+05:30
Muzaffarpur,Bihar,26.1209,85.3647,31.6,75,0.0,993.7,7.35,28.4,84,22.4,22.2,3.8,305.0,144.0,11.8,3,5,7,1,2026-07-18T13:25:03.809772+05:30
Bhagalpur,Bihar,25.2425,87.0117,31.8,73,0.1,994.1,7.85,34.9,75,14.9,14.3,7.2,372.0,130.0,22.3,6,5,7,1,2026-07-18T13:25:03.809778+05:30
Ranchi,Jharkhand,23.3441,85.3096,27.9,80,0.3,932.1,8.7,26.6,66,12.3,11.9,3.0,267.0,122.0,9.3,10,5,7,1,2026-07-18T13:25:03.809785+05:30
Jamshedpur,Jharkhand,22.8046,86.2029,31.3,76,0.1,983.7,8.4,21.6,91,22.9,20.9,2.3,322.0,158.0,20.0,6,5,7,1,2026-07-18T13:25:03.809792+05:30
Dhanbad,Jharkhand,23.7957,86.4304,32.4,70,0.0,972.7,7.6,31.0,145,31.1,30.2,24.2,458.0,116.0,64.4,3,5,7,1,2026-07-18T13:25:03.809798+05:30
Bokaro,Jharkhand,23.6693,86.1511,31.3,78,0.1,976.5,7.7,28.8,120,27.7,27.2,30.6,399.0,97.0,75.0,6,5,7,1,2026-07-18T13:25:03.809805+05:30
Bhubaneswar,Odisha,20.2961,85.8245,28.3,89,0.4,996.4,7.55,35.3,68,17.6,12.0,2.4,202.0,114.0,4.5,10,5,7,1,2026-07-18T13:25:03.809812+05:30
Cuttack,Odisha,20.4625,85.8828,29.4,82,0.1,997.9,8.4,35.6,68,17.6,12.0,2.4,241.0,114.0,4.5,10,5,7,1,2026-07-18T13:25:03.809819+05:30
Rourkela,Odisha,22.2604,84.8536,30.7,78,0.0,978.1,7.45,27.4,74,12.5,11.7,2.4,261.0,137.0,11.8,3,5,7,1,2026-07-18T13:25:03.809826+05:30
Raipur,Chhattisgarh,21.2514,81.6296,30.2,74,0.0,969.6,6.95,42.8,86,29.2,21.3,23.7,201.0,59.0,38.0,3,5,7,1,2026-07-18T13:25:03.809834+05:30
Bhilai,Chhattisgarh,21.1938,81.3509,30.0,72,0.0,970.1,6.2,36.0,81,26.8,21.7,20.9,563.0,63.0,38.1,7,5,7,1,2026-07-18T13:25:03.809840+05:30
Guwahati,Assam,26.1158,91.7086,28.1,99,0.1,996.5,7.15,20.2,54,6.5,5.8,1.4,280.0,100.0,1.5,10,5,7,1,2026-07-18T13:25:03.809846+05:30
Agartala,Tripura,23.8315,91.2868,31.8,70,0.0,1001.8,8.05,43.2,53,10.0,7.4,2.0,135.0,89.0,1.1,3,5,4,1,2026-07-18T13:25:03.809852+05:30
Shillong,Meghalaya,25.5788,91.8933,24.8,73,0.1,855.7,2.9,41.4,29,3.7,3.4,2.1,134.0,85.0,1.9,6,5,3,1,2026-07-18T13:25:03.809859+05:30
Imphal,Manipur,24.817,93.9368,27.4,69,0.0,920.3,4.05,28.4,61,11.4,8.4,3.1,136.0,65.0,1.3,7,5,3,1,2026-07-18T13:25:03.809865+05:30
Aizawl,Mizoram,23.7271,92.7176,26.0,64,0.0,890.7,7.35,40.3,54,11.7,7.8,0.4,115.0,72.0,0.8,7,5,7,1,2026-07-18T13:25:03.809871+05:30
Kohima,Nagaland,25.6701,94.1077,23.2,91,0.0,853.3,2.55,24.8,45,6.2,4.1,1.7,146.0,72.0,0.9,3,5,3,1,2026-07-18T13:25:03.809878+05:30
Gangtok,Sikkim,27.3314,88.6138,21.1,90,0.1,836.2,2.6,24.8,40,2.0,2.0,2.6,203.0,87.0,1.5,6,5,3,1,2026-07-18T13:25:03.809884+05:30
Siliguri,West Bengal,26.7271,88.3953,26.6,96,0.2,988.5,6.2,31.0,68,8.5,8.1,4.5,315.0,95.0,3.1,10,5,7,1,2026-07-18T13:25:07.083684+05:30
Durgapur,West Bengal,23.5204,87.3119,29.2,86,0.0,988.1,7.85,28.4,104,27.7,26.4,12.4,362.0,134.0,39.1,7,5,7,1,2026-07-18T13:25:07.083719+05:30
Asansol,West Bengal,23.6739,86.9524,32.8,70,0.0,986.0,8.3,29.2,110,29.8,28.5,14.5,410.0,133.0,46.3,3,5,7,1,2026-07-18T13:25:07.083731+05:30
Pondicherry,Puducherry,11.9139,79.8145,32.0,59,0.0,1006.8,5.9,33.5,70,33.3,22.6,6.9,174.0,93.0,11.5,0,5,0,1,2026-07-18T13:25:07.083740+05:30
Port Blair,Andaman and Nicobar Islands,11.6234,92.7265,31.1,64,0.0,1006.9,8.45,38.2,41,19.5,9.8,0.2,93.0,47.0,0.5,3,5,4,1,2026-07-18T13:25:07.083748+05:30
Haridwar,Uttarakhand,29.9457,78.1642,33.7,67,0.0,967.5,7.45,28.4,166,249.6,86.1,2.9,353.0,172.0,15.7,3,5,7,1,2026-07-18T13:25:07.083756+05:30
Rishikesh,Uttarakhand,30.0869,78.2676,32.4,70,0.0,960.6,7.0,28.1,156,205.4,68.7,1.4,332.0,153.0,12.9,3,5,7,1,2026-07-18T13:25:07.083763+05:30
Nainital,Uttarakhand,29.3919,79.4542,23.4,71,0.0,804.8,6.05,26.3,100,61.7,24.9,2.6,257.0,146.0,7.0,3,5,7,1,2026-07-18T13:25:07.083771+05:30
Mussoorie,Uttarakhand,30.4599,78.0664,20.6,89,0.0,801.5,6.2,33.8,149,129.9,53.4,3.1,248.0,148.0,8.7,3,5,7,1,2026-07-18T13:25:07.083779+05:30
Dharamshala,Himachal Pradesh,32.219,76.3234,24.3,93,0.0,866.3,8.4,27.4,56,42.1,20.4,1.0,276.0,131.0,3.6,3,5,7,1,2026-07-18T13:25:07.083786+05:30
Dalhousie,Himachal Pradesh,32.5387,75.971,21.7,89,0.1,803.7,8.6,21.6,106,105.9,48.7,1.3,236.0,148.0,6.5,6,5,7,1,2026-07-18T13:25:07.083793+05:30
Patiala,Punjab,30.3398,76.3869,36.1,50,0.0,971.3,6.7,23.4,181,456.3,103.4,1.9,297.0,178.0,7.8,0,5,10,1,2026-07-18T13:25:07.083801+05:30
Bhatinda,Punjab,30.211,74.9455,39.6,34,0.0,976.5,8.25,32.4,171,228.2,74.5,1.8,142.0,136.0,6.6,0,5,10,1,2026-07-18T13:25:07.083808+05:30
Rohtak,Haryana,28.8955,76.6066,36.0,47,0.0,975.1,7.65,34.2,760,1687.6,233.8,3.7,190.0,91.0,4.5,0,5,10,1,2026-07-18T13:25:07.083815+05:30
Panipat,Haryana,29.3909,76.9635,35.3,53,0.0,973.5,5.5,28.1,1049,3032.4,476.8,6.6,175.0,80.0,11.4,0,5,6,1,2026-07-18T13:25:07.083821+05:30
Mathura,Uttar Pradesh,27.4924,77.6737,36.7,45,0.0,980.3,7.9,32.0,584,1065.4,150.9,2.2,160.0,115.0,3.2,0,5,10,1,2026-07-18T13:25:07.083828+05:30
Vrindavan,Uttar Pradesh,27.5823,77.7027,36.2,47,0.0,980.7,7.55,31.3,584,1065.4,150.9,2.2,163.0,115.0,3.2,0,5,10,1,2026-07-18T13:25:07.083835+05:30
Ayodhya,Uttar Pradesh,26.7922,82.1998,32.0,70,0.0,989.0,6.85,19.4,95,21.4,19.8,1.7,367.0,148.0,4.2,3,5,7,1,2026-07-18T13:25:07.083841+05:30
Ratlam,Madhya Pradesh,23.3315,75.0367,31.2,61,0.0,951.4,7.4,34.2,71,34.0,18.3,1.0,119.0,98.0,5.2,3,5,7,1,2026-07-18T13:25:07.083848+05:30
Sagar,Madhya Pradesh,23.8388,78.7378,30.9,63,0.0,946.0,7.25,37.8,91,54.6,28.0,1.1,158.0,116.0,5.9,3,5,7,1,2026-07-18T13:25:07.083854+05:30
Satna,Madhya Pradesh,24.6005,80.8322,30.3,77,0.2,965.4,8.15,40.3,106,160.7,53.2,1.3,166.0,119.0,5.7,6,5,7,1,2026-07-18T13:25:07.083861+05:30
Akola,Maharashtra,20.7002,77.0082,30.1,62,0.0,972.6,5.55,33.8,58,21.1,11.1,5.0,123.0,50.0,9.0,3,5,3,1,2026-07-18T13:25:07.083869+05:30
Amravati,Maharashtra,20.9374,77.7796,27.3,83,0.3,964.4,2.3,39.6,61,19.2,10.7,6.1,124.0,49.0,10.2,10,5,3,1,2026-07-18T13:25:07.083877+05:30
Latur,Maharashtra,18.4088,76.5604,26.9,75,0.0,938.1,2.2,34.9,52,19.4,8.8,1.0,120.0,61.0,2.2,7,5,3,1,2026-07-18T13:25:07.083884+05:30
Nanded,Maharashtra,19.1383,77.3091,28.1,70,0.0,966.2,1.65,38.9,63,21.2,10.5,2.1,132.0,61.0,4.0,7,5,3,1,2026-07-18T13:25:07.083890+05:30
Gulbarga,Karnataka,17.3297,76.8343,26.9,75,0.2,957.1,2.35,38.2,50,25.7,10.7,1.6,125.0,71.0,2.3,10,5,3,1,2026-07-18T13:25:07.083897+05:30
Bidar,Karnataka,17.9104,77.5199,25.2,92,0.1,933.5,2.3,36.4,59,29.0,14.3,1.7,127.0,72.0,3.7,10,5,3,1,2026-07-18T13:25:07.083903+05:30
Hospet,Karnataka,15.2689,76.3909,32.5,43,0.0,955.0,4.95,49.3,25,11.1,5.3,1.3,113.0,66.0,1.9,0,5,3,1,2026-07-18T13:25:07.083909+05:30
Tirupur,Tamil Nadu,11.1085,77.3411,34.0,42,0.0,974.6,6.75,50.8,60,21.5,12.9,1.7,140.0,97.0,3.0,0,5,7,1,2026-07-18T13:25:07.083915+05:30
Alappuzha,Kerala,9.4981,76.3388,29.0,73,0.0,1010.1,7.9,41.0,60,19.4,12.0,2.1,113.0,74.0,3.2,7,0,4,1,2026-07-18T13:25:07.083922+05:30
Munnar,Kerala,10.0889,77.0595,19.9,80,0.1,858.0,7.4,42.5,34,9.0,5.0,0.5,93.0,65.0,1.2,6,5,7,1,2026-07-18T13:25:07.083928+05:30
Silchar,Assam,24.8333,92.7789,32.4,66,0.0,1000.5,8.55,32.0,72,16.6,11.5,1.6,138.0,80.0,2.7,3,5,4,1,2026-07-18T13:25:07.083934+05:30
Dibrugarh,Assam,27.4728,94.912,26.7,97,0.4,989.6,1.8,33.8,62,17.5,14.9,6.2,196.0,62.0,1.8,10,5,3,1,2026-07-18T13:25:07.083941+05:30
