city,state,latitude,longitude,temp,humidity,rain,pressure,uv_index,wind_gusts,aqi,pm10,pm2_5,no2,co,o3,so2,mosquito_risk,arthritis_risk,migraine_risk,frizz_risk,updated_at
Delhi,Delhi,28.6139,77.209,27.4,43,0.0,982.5,7.55,26.6,152,357.6,72.6,32.7,611.0,83.0,18.9,4,5,7,0,2026-05-06T23:49:19.700441+05:30
Mumbai,Maharashtra,19.076,72.8777,28.0,85,0.0,1006.2,7.9,48.2,85,71.7,25.9,10.9,327.0,77.0,14.0,7,5,4,1,2026-05-06T23:49:19.700484+05:30
Bangalore,Karnataka,12.9716,77.5946,23.5,79,0.0,910.9,9.55,33.8,93,45.6,40.2,16.0,392.0,115.0,13.1,3,5,7,1,2026-05-06T23:49:19.700498+05:30
Hyderabad,Telangana,17.385,78.4867,29.1,51,0.0,952.5,8.95,34.6,85,38.4,29.6,10.4,306.0,97.0,7.7,4,5,7,1,2026-05-06T23:49:19.700506+05:30
Chennai,Tamil Nadu,13.0827,80.2707,29.1,73,0.0,1006.9,9.25,39.6,48,16.0,10.2,7.9,177.0,62.0,3.5,7,5,4,1,2026-05-06T23:49:19.700514+05:30
Kolkata,West Bengal,22.5726,88.3639,24.4,91,0.0,1006.9,8.95,34.2,87,70.8,66.8,39.8,599.0,34.0,20.1,3,5,4,1,2026-05-06T23:49:19.700522+05:30
Pune,Maharashtra,18.5204,73.8567,26.7,69,0.0,946.5,8.5,41.8,114,41.8,27.8,15.1,342.0,108.0,22.6,7,5,7,1,2026-05-06T23:49:19.700528+05:30
Ahmedabad,Gujarat,23.0225,72.5714,34.2,28,0.0,999.7,8.1,23.4,102,114.1,55.6,32.9,456.0,67.0,19.9,0,5,7,0,2026-05-06T23:49:19.700536+05:30
Jaipur,Rajasthan,26.9124,75.7873,26.6,38,0.0,958.1,8.1,31.0,114,143.9,53.0,33.2,477.0,52.0,9.9,4,5,7,0,2026-05-06T23:49:19.700543+05:30
Lucknow,Uttar Pradesh,26.8467,80.9462,22.4,80,0.0,994.4,8.05,45.7,117,85.0,50.8,22.2,467.0,77.0,15.1,3,5,7,1,2026-05-06T23:49:19.700549+05:30
Kanpur,Uttar Pradesh,26.4499,80.3319,23.8,72,0.0,992.5,7.9,23.0,121,177.4,49.4,13.7,339.0,91.0,9.6,3,5,7,1,2026-05-06T23:49:19.700555+05:30
Chandigarh,Chandigarh,30.7333,76.7794,19.8,70,0.0,967.2,7.55,42.1,102,36.2,31.0,33.7,1216.0,53.0,8.7,3,5,7,0,2026-05-06T23:49:19.700562+05:30
Srinagar,Jammu and Kashmir,34.0837,74.7973,10.1,88,0.0,836.8,8.65,25.6,78,46.4,33.8,35.8,888.0,37.0,6.1,3,10,7,0,2026-05-06T23:49:19.700569+05:30
Jammu,Jammu and Kashmir,32.7266,74.857,22.9,50,0.0,971.2,8.25,35.3,92,34.9,31.4,28.2,374.0,57.0,5.2,0,5,7,0,2026-05-06T23:49:19.700575+05:30
Amritsar,Punjab,31.634,74.8723,24.3,51,0.0,979.4,8.15,29.2,130,31.2,26.2,7.2,456.0,103.0,5.5,0,5,7,0,2026-05-06T23:49:19.700581+05:30
Ludhiana,Punjab,30.901,75.8573,22.5,65,0.0,977.2,7.8,39.6,115,254.3,66.4,17.7,700.0,80.0,9.3,3,5,7,0,2026-05-06T23:49:19.700587+05:30
Jalandhar,Punjab,31.326,75.5762,21.4,67,0.0,978.1,7.95,29.5,114,41.7,32.9,16.5,717.0,84.0,7.5,3,5,7,0,2026-05-06T23:49:19.700593+05:30
Dehradun,Uttarakhand,30.6284,78.0322,10.2,81,0.0,827.3,6.75,37.1,79,32.5,18.0,21.7,171.0,71.0,0.5,3,10,7,0,2026-05-06T23:49:19.700601+05:30
Shimla,Himachal Pradesh,31.1048,77.1734,7.9,72,0.0,780.0,7.45,50.8,88,27.5,19.1,18.6,344.0,81.0,0.8,3,5,7,0,2026-05-06T23:49:19.700607+05:30
Manali,Himachal Pradesh,32.2396,77.1887,8.1,84,0.0,813.8,10.2,36.7,139,14.5,9.0,31.5,367.0,123.0,0.9,3,10,7,0,2026-05-06T23:49:19.700613+05:30
Gurgaon,Haryana,28.4595,77.0266,27.1,40,0.0,980.5,7.65,29.2,296,1020.7,143.4,30.2,673.0,96.0,23.9,4,5,7,0,2026-05-06T23:49:19.700619+05:30
Noida,Uttar Pradesh,28.5355,77.391,23.8,61,0.0,983.8,7.55,19.4,296,1020.7,143.4,30.2,627.0,96.0,23.9,3,5,7,0,2026-05-06T23:49:19.700624+05:30
Ghaziabad,Uttar Pradesh,28.6692,77.4538,23.6,62,0.0,982.3,7.55,23.0,132,227.2,62.2,19.9,444.0,80.0,12.2,3,5,7,0,2026-05-06T23:49:19.700629+05:30
Faridabad,Haryana,28.4089,77.3178,25.1,57,0.0,983.1,7.6,28.1,296,1020.7,143.4,30.2,1064.0,96.0,23.9,4,5,7,1,2026-05-06T23:49:19.700634+05:30
Meerut,Uttar Pradesh,28.9845,77.7064,22.9,69,0.0,980.8,7.45,22.0,132,227.2,62.2,19.9,414.0,80.0,12.2,3,5,7,1,2026-05-06T23:49:19.700640+05:30
Agra,Uttar Pradesh,27.1767,78.0081,25.4,53,0.0,987.3,7.9,20.5,231,1035.6,128.5,11.6,506.0,113.0,14.7,4,5,7,0,2026-05-06T23:49:19.700645+05:30
Varanasi,Uttar Pradesh,25.3176,82.9739,24.4,76,0.0,998.8,8.6,23.0,130,95.5,76.1,43.1,622.0,67.0,28.5,3,5,7,1,2026-05-06T23:49:19.700650+05:30
Prayagraj,Uttar Pradesh,25.4358,81.8463,24.9,67,0.0,997.0,8.45,38.2,127,83.6,61.0,35.3,386.0,54.0,19.7,3,5,7,1,2026-05-06T23:49:19.700659+05:30
Gorakhpur,Uttar Pradesh,26.7606,83.3732,22.5,84,0.0,999.0,8.4,31.0,104,47.3,34.5,20.9,616.0,73.0,7.6,3,5,7,1,2026-05-06T23:49:19.700664+05:30
Bareilly,Uttar Pradesh,28.367,79.4304,23.1,66,0.0,986.8,7.85,24.5,114,47.5,31.7,14.1,708.0,81.0,6.5,3,5,7,1,2026-05-06T23:49:19.700669+05:30
Aligarh,Uttar Pradesh,27.8974,78.088,25.5,49,0.0,985.3,7.7,24.1,154,209.1,52.7,12.2,408.0,108.0,11.9,4,5,7,0,2026-05-06T23:49:19.700675+05:30
Moradabad,Uttar Pradesh,28.8386,78.7733,22.9,68,0.0,983.3,7.65,31.7,147,100.4,78.7,54.0,711.0,40.0,18.5,3,5,7,1,2026-05-06T23:49:19.700680+05:30
Saharanpur,Uttar Pradesh,29.9637,77.546,22.9,51,0.0,975.0,7.25,25.6,117,81.3,62.4,39.6,519.0,43.0,16.3,0,5,7,0,2026-05-06T23:49:19.700685+05:30
Jhansi,Uttar Pradesh,25.4484,78.5685,26.0,49,0.0,977.7,8.35,31.3,83,86.1,28.5,5.9,320.0,96.0,5.6,4,5,7,0,2026-05-06T23:49:23.064080+05:30
Surat,Gujarat,21.1702,72.8311,28.8,83,0.0,1004.4,7.7,35.3,98,61.5,34.7,42.8,563.0,42.0,62.2,7,5,4,1,2026-05-06T23:49:23.064111+05:30
Vadodara,Gujarat,22.3072,73.1812,33.4,29,0.0,1001.6,8.05,32.4,93,138.3,69.8,51.5,818.0,56.0,19.6,0,5,4,0,2026-05-06T23:49:23.064120+05:30
Rajkot,Gujarat,22.3039,70.8022,27.1,73,0.0,992.3,7.7,42.8,71,48.5,18.3,7.2,212.0,70.0,7.0,7,5,7,1,2026-05-06T23:49:23.064128+05:30
Thane,Maharashtra,19.2183,72.9781,27.7,85,0.0,1005.7,7.9,43.6,85,71.7,25.9,10.9,242.0,77.0,14.0,7,5,4,1,2026-05-06T23:49:23.064134+05:30
Nagpur,Maharashtra,21.1458,79.0882,31.2,35,0.0,971.8,8.9,31.3,92,93.1,64.7,54.8,372.0,39.0,35.1,0,5,7,0,2026-05-06T23:49:23.064140+05:30
Nashik,Maharashtra,19.9975,73.7898,26.2,71,0.0,943.9,8.2,34.9,69,54.9,27.1,19.9,254.0,57.0,4.4,7,5,7,1,2026-05-06T23:49:23.064146+05:30
Aurangabad,Maharashtra,19.8762,75.3433,29.9,27,0.0,942.5,9.0,37.8,89,56.9,21.6,7.3,214.0,110.0,3.7,4,5,7,0,2026-05-06T23:49:23.064152+05:30
Solapur,Maharashtra,17.6599,75.9064,30.8,25,0.0,954.8,9.05,47.9,66,35.7,22.9,12.4,313.0,80.0,8.7,0,5,7,0,2026-05-06T23:49:23.064158+05:30
Kolhapur,Maharashtra,16.705,74.2433,25.3,72,0.0,945.5,8.95,39.2,67,30.5,21.3,13.1,248.0,58.0,3.8,7,5,7,1,2026-05-06T23:49:23.064164+05:30
Goa,Goa,15.2993,74.124,28.0,79,0.0,995.3,8.7,44.6,67,40.2,23.1,8.7,235.0,62.0,2.4,7,5,7,1,2026-05-06T23:49:23.064169+05:30
Jodhpur,Rajasthan,26.2389,73.0243,30.8,20,0.0,980.6,8.3,29.2,85,152.3,28.6,6.2,440.0,99.0,3.7,0,5,7,0,2026-05-06T23:49:23.064175+05:30
Udaipur,Rajasthan,24.5854,73.7125,23.6,56,0.0,944.6,8.75,23.0,85,59.8,22.4,4.9,371.0,89.0,4.8,0,5,7,0,2026-05-06T23:49:23.064182+05:30
Kota,Rajasthan,25.2138,75.8648,27.0,36,0.0,977.1,8.3,24.8,80,67.8,34.5,14.1,566.0,76.0,11.9,4,5,7,0,2026-05-06T23:49:23.064187+05:30
Bikaner,Rajasthan,28.0229,73.3119,29.9,22,0.0,978.6,8.25,34.2,81,66.8,24.6,5.8,273.0,84.0,5.9,4,5,7,0,2026-05-06T23:49:23.064193+05:30
Ajmer,Rajasthan,26.4499,74.6399,26.5,29,0.0,952.7,8.25,31.3,78,93.8,32.7,15.5,334.0,71.0,7.1,4,5,7,0,2026-05-06T23:49:23.064199+05:30
Gwalior,Madhya Pradesh,26.2183,78.1828,24.7,56,0.0,982.7,8.1,21.6,103,162.1,42.6,6.4,305.0,106.0,7.3,0,5,7,0,2026-05-06T23:49:23.064204+05:30
Indore,Madhya Pradesh,22.7196,75.8577,29.4,20,0.0,947.2,8.6,28.4,82,37.0,25.7,13.2,583.0,84.0,6.6,4,5,7,0,2026-05-06T23:49:23.064210+05:30
Bhopal,Madhya Pradesh,23.2599,77.4126,28.2,24,0.0,952.6,8.65,40.0,91,27.2,19.9,5.8,244.0,101.0,8.0,4,5,7,0,2026-05-06T23:49:23.064216+05:30
Jabalpur,Madhya Pradesh,23.1815,79.9864,26.6,38,0.0,961.3,8.8,34.9,78,32.4,19.6,10.4,255.0,91.0,4.8,4,5,7,0,2026-05-06T23:49:23.064221+05:30
Ujjain,Madhya Pradesh,23.1765,75.7885,28.2,22,0.0,952.5,8.55,30.2,83,56.9,41.3,15.7,307.0,83.0,7.7,4,5,7,0,2026-05-06T23:49:23.064227+05:30
Visakhapatnam,Andhra Pradesh,17.6868,83.2185,27.6,85,0.0,1004.1,9.15,36.7,78,29.6,24.7,32.0,357.0,28.0,6.6,7,5,4,1,2026-05-06T23:49:23.064233+05:30
Vijayawada,Andhra Pradesh,16.5062,80.648,28.0,80,0.0,1002.7,9.2,32.8,58,16.2,12.3,8.1,230.0,49.0,6.0,7,5,4,1,2026-05-06T23:49:23.064239+05:30
Guntur,Andhra Pradesh,16.3067,80.4365,27.9,81,0.0,1003.9,9.2,38.2,62,14.9,11.7,7.9,212.0,53.0,5.7,7,5,4,1,2026-05-06T23:49:23.064245+05:30
Nellore,Andhra Pradesh,14.4426,79.9865,28.4,78,0.0,1005.7,9.25,38.9,47,14.1,8.5,3.1,173.0,66.0,2.1,7,5,4,1,2026-05-06T23:49:23.064251+05:30
Kurnool,Andhra Pradesh,15.8281,78.0373,28.1,60,0.0,976.1,9.15,34.6,80,23.1,19.0,3.6,202.0,95.0,2.5,4,5,7,1,2026-05-06T23:49:23.064257+05:30
Kakinada,Andhra Pradesh,16.9891,82.2475,26.8,91,0.0,1007.8,9.15,29.2,44,13.4,7.8,2.1,317.0,55.0,0.9,7,5,4,1,2026-05-06T23:49:23.064263+05:30
Tirupati,Andhra Pradesh,13.6288,79.4192,27.2,72,0.0,991.3,9.3,34.2,75,16.8,14.5,19.1,226.0,55.0,15.9,7,5,7,1,2026-05-06T23:49:23.064268+05:30
Warangal,Telangana,17.9689,79.5941,28.5,62,0.0,978.1,9.2,35.6,82,32.7,27.9,8.7,291.0,100.0,12.0,7,5,7,1,2026-05-06T23:49:23.064273+05:30
Nizamabad,Telangana,18.6725,78.0941,29.6,41,0.0,963.0,9.1,32.8,95,52.9,36.8,10.7,267.0,91.0,6.7,4,5,7,0,2026-05-06T23:49:23.064279+05:30
Mysore,Karnataka,12.2958,76.6396,23.5,76,0.0,927.4,9.4,29.9,71,49.6,36.2,10.2,304.0,112.0,6.0,3,5,7,1,2026-05-06T23:49:23.064285+05:30
Mangalore,Karnataka,12.9141,74.856,29.6,77,0.0,1004.0,9.05,56.5,63,36.6,17.2,4.7,201.0,62.0,1.7,7,5,4,1,2026-05-06T23:49:23.064290+05:30
Hubli-Dharwad,Karnataka,15.3647,75.124,25.0,72,0.0,938.6,9.15,42.8,64,33.3,20.1,15.0,253.0,52.0,3.0,7,5,7,1,2026-05-06T23:49:23.064295+05:30
Belgaum,Karnataka,15.8497,74.4977,23.1,80,0.0,923.2,9.2,40.7,66,34.5,22.7,17.5,215.0,46.0,3.6,3,5,7,1,2026-05-06T23:49:26.424411+05:30
Coimbatore,Tamil Nadu,11.0168,76.9558,23.5,94,0.0,961.5,9.35,39.2,71,32.7,23.8,10.8,292.0,101.0,5.1,3,5,7,1,2026-05-06T23:49:26.424440+05:30
Madurai,Tamil Nadu,9.9252,78.1198,25.5,93,0.0,993.3,9.2,41.4,84,31.1,25.6,15.9,244.0,71.0,4.9,7,5,7,1,2026-05-06T23:49:26.424449+05:30
Trichy,Tamil Nadu,10.7905,78.7047,27.8,81,0.0,999.6,8.95,41.4,77,20.8,16.6,14.3,275.0,63.0,6.6,7,5,7,1,2026-05-06T23:49:26.424457+05:30
Salem,Tamil Nadu,11.6643,78.146,24.7,94,0.1,977.3,9.3,50.8,138,45.2,37.5,14.1,235.0,102.0,20.6,6,5,7,1,2026-05-06T23:49:26.424464+05:30
Tirunelveli,Tamil Nadu,8.7139,77.7567,26.4,85,0.0,1003.0,9.1,42.5,69,31.3,25.2,11.0,285.0,76.0,3.8,7,5,4,1,2026-05-06T23:49:26.424471+05:30
Vellore,Tamil Nadu,12.9165,79.1325,26.6,80,0.0,984.4,9.3,40.0,98,20.4,17.9,11.8,219.0,63.0,2.2,7,5,7,1,2026-05-06T23:49:26.424477+05:30
Erode,Tamil Nadu,11.341,77.7172,24.0,90,0.2,989.9,9.25,44.3,121,38.5,30.2,11.3,242.0,104.0,5.7,6,5,7,1,2026-05-06T23:49:26.424484+05:30
Kochi,Kerala,9.9312,76.2673,26.2,92,0.0,1007.8,8.95,36.7,77,40.9,32.5,19.5,245.0,58.0,5.4,7,5,4,1,2026-05-06T23:49:26.424490+05:30
Thiruvananthapuram,Kerala,8.5241,76.9366,25.1,96,0.0,1007.1,8.95,35.3,53,19.0,11.5,5.4,344.0,98.0,2.8,7,5,4,1,2026-05-06T23:49:26.424495+05:30
Kozhikode,Kerala,11.2588,75.7804,26.0,91,0.0,1006.8,9.05,39.6,64,39.8,18.3,3.1,246.0,68.0,1.5,7,5,4,1,2026-05-06T23:49:26.424500+05:30
Thrissur,Kerala,10.5276,76.2144,25.1,98,0.0,1006.1,9.05,33.5,85,52.6,41.3,26.0,304.0,36.0,4.1,7,5,4,1,2026-05-06T23:49:26.424506+05:30
Kannur,Kerala,11.8745,75.3704,29.3,78,0.0,1004.9,9.05,58.3,62,31.3,16.4,7.7,227.0,52.0,1.9,7,5,4,1,2026-05-06T23:49:26.424511+05:30
Patna,Bihar,25.5941,85.1376,23.7,87,0.0,1001.8,8.7,29.5,130,71.2,56.6,28.7,409.0,87.0,18.8,3,5,4,1,2026-05-06T23:49:26.424516+05:30
Gaya,Bihar,24.7914,85.0002,23.5,81,0.0,995.0,8.75,34.2,126,81.0,67.1,38.2,346.0,44.0,13.3,3,5,7,1,2026-05-06T23:49:26.424521+05:30
Muzaffarpur,Bihar,26.1209,85.3647,22.5,90,0.0,1002.0,8.65,40.0,132,101.7,83.6,47.9,392.0,58.0,25.0,3,5,4,1,2026-05-06T23:49:26.424526+05:30
Bhagalpur,Bihar,25.2425,87.0117,22.8,86,0.0,1002.7,8.65,33.5,141,61.7,53.9,18.4,345.0,100.0,13.0,3,5,4,1,2026-05-06T23:49:26.424531+05:30
Ranchi,Jharkhand,23.3441,85.3096,21.4,79,0.0,938.2,9.2,30.2,123,79.6,66.4,17.9,482.0,120.0,24.6,3,5,7,1,2026-05-06T23:49:26.424536+05:30
Jamshedpur,Jharkhand,22.8046,86.2029,24.5,84,0.0,992.0,9.0,27.0,168,60.1,51.2,17.6,418.0,102.0,19.5,3,5,7,1,2026-05-06T23:49:26.424541+05:30
Dhanbad,Jharkhand,23.7957,86.4304,24.0,86,0.0,981.2,8.95,27.4,158,153.7,141.6,83.5,652.0,53.0,88.7,3,5,7,1,2026-05-06T23:49:26.424546+05:30
Bokaro,Jharkhand,23.6693,86.1511,24.1,83,0.0,985.1,8.95,26.3,156,156.5,142.0,84.0,931.0,45.0,93.5,3,5,7,1,2026-05-06T23:49:26.424551+05:30
Bhubaneswar,Odisha,20.2961,85.8245,26.4,91,0.0,1003.2,9.1,32.8,63,18.4,14.8,9.3,185.0,42.0,4.4,7,5,4,1,2026-05-06T23:49:26.424557+05:30
Cuttack,Odisha,20.4625,85.8828,26.4,91,0.0,1004.9,9.15,38.9,63,18.4,14.8,9.3,217.0,42.0,4.4,7,5,4,1,2026-05-06T23:49:26.424562+05:30
Rourkela,Odisha,22.2604,84.8536,25.2,67,0.0,985.2,8.95,29.2,102,66.1,56.1,22.2,506.0,86.0,37.1,7,5,7,1,2026-05-06T23:49:26.424567+05:30
Raipur,Chhattisgarh,21.2514,81.6296,30.1,39,0.0,973.6,8.95,30.2,113,98.7,76.1,54.0,631.0,39.0,14.5,0,5,7,0,2026-05-06T23:49:26.424572+05:30
Bhilai,Chhattisgarh,21.1938,81.3509,29.5,44,0.0,974.0,8.95,30.2,110,91.3,67.1,52.0,1347.0,49.0,13.1,4,5,7,0,2026-05-06T23:49:26.424577+05:30
Guwahati,Assam,26.1158,91.7086,21.6,95,0.0,1003.7,8.2,42.8,82,26.7,22.8,5.1,319.0,89.0,1.4,3,5,4,1,2026-05-06T23:49:26.424582+05:30
Agartala,Tripura,23.8315,91.2868,23.5,93,0.0,1007.5,8.85,40.0,111,55.9,50.1,31.4,422.0,53.0,5.0,3,5,4,1,2026-05-06T23:49:26.424587+05:30
Shillong,Meghalaya,25.5788,91.8933,15.1,90,0.0,856.7,8.1,27.0,79,27.3,23.9,7.5,344.0,88.0,1.0,3,10,7,0,2026-05-06T23:49:26.424592+05:30
Imphal,Manipur,24.817,93.9368,19.9,91,0.0,923.4,9.1,27.4,80,49.1,44.1,28.2,649.0,30.0,4.1,3,10,7,1,2026-05-06T23:49:26.424597+05:30
Aizawl,Mizoram,23.7271,92.7176,18.0,92,0.1,892.8,8.85,20.5,63,32.8,24.3,15.7,264.0,38.0,1.7,6,10,7,1,2026-05-06T23:49:26.424602+05:30
Kohima,Nagaland,25.6701,94.1077,14.6,97,0.0,853.9,9.15,29.2,81,30.6,23.9,12.5,273.0,42.0,0.6,3,10,7,0,2026-05-06T23:49:26.424607+05:30
Gangtok,Sikkim,27.3314,88.6138,10.8,90,0.0,836.8,7.85,31.3,63,35.2,27.0,20.8,451.0,83.0,1.7,3,10,7,0,2026-05-06T23:49:26.424612+05:30
Siliguri,West Bengal,26.7271,88.3953,20.1,91,0.0,994.4,8.6,20.9,99,58.0,48.0,28.4,740.0,76.0,5.9,3,5,7,1,2026-05-06T23:49:29.790801+05:30
Durgapur,West Bengal,23.5204,87.3119,23.5,92,0.0,996.2,8.9,29.2,180,98.7,92.4,29.8,405.0,104.0,47.9,3,5,7,1,2026-05-06T23:49:29.790833+05:30
Asansol,West Bengal,23.6739,86.9524,23.6,90,0.0,994.9,8.95,32.0,152,114.6,105.5,36.3,708.0,92.0,64.5,3,5,7,1,2026-05-06T23:49:29.790842+05:30
Pondicherry,Puducherry,11.9139,79.8145,28.8,78,0.0,1007.9,9.1,37.4,52,14.3,8.7,1.5,195.0,78.0,0.4,7,5,4,1,2026-05-06T23:49:29.790849+05:30
Port Blair,Andaman and Nicobar Islands,11.6234,92.7265,25.2,98,0.0,1007.0,9.05,38.2,31,5.6,4.4,0.4,256.0,71.0,0.1,7,5,4,1,2026-05-06T23:49:29.790856+05:30
Haridwar,Uttarakhand,29.9457,78.1642,19.1,80,0.0,973.4,7.35,25.6,84,49.6,41.3,30.6,355.0,34.0,7.9,3,5,7,0,2026-05-06T23:49:29.790862+05:30
Rishikesh,Uttarakhand,30.0869,78.2676,17.5,77,0.0,965.9,7.45,26.6,111,53.0,29.0,13.3,314.0,100.0,5.4,3,5,7,0,2026-05-06T23:49:29.790868+05:30
Nainital,Uttarakhand,29.3919,79.4542,11.1,68,0.0,803.7,6.65,37.4,101,28.4,18.6,8.4,227.0,102.0,1.7,3,5,7,0,2026-05-06T23:49:29.790874+05:30
Mussoorie,Uttarakhand,30.4599,78.0664,11.2,68,0.0,800.7,6.35,50.0,81,53.3,35.9,33.0,317.0,57.0,11.2,3,5,7,0,2026-05-06T23:49:29.790881+05:30
Dharamshala,Himachal Pradesh,32.219,76.3234,16.0,54,0.0,866.5,8.15,37.4,81,16.6,12.7,13.1,217.0,81.0,0.9,0,5,7,0,2026-05-06T23:49:29.790887+05:30
Dalhousie,Himachal Pradesh,32.5387,75.971,7.2,86,0.0,798.5,8.35,37.8,71,31.9,27.4,42.6,627.0,41.0,2.3,3,10,7,0,2026-05-06T23:49:29.790893+05:30
Patiala,Punjab,30.3398,76.3869,23.1,57,0.0,976.9,7.45,32.0,143,243.1,53.9,11.3,508.0,100.0,9.1,0,5,7,0,2026-05-06T23:49:29.790899+05:30
Bhatinda,Punjab,30.211,74.9455,25.2,46,0.0,982.0,8.1,33.5,144,97.1,51.5,18.3,377.0,86.0,11.7,4,5,7,0,2026-05-06T23:49:29.790906+05:30
Rohtak,Haryana,28.8955,76.6066,24.4,49,0.0,980.6,7.55,24.1,182,583.0,96.6,21.4,489.0,98.0,19.9,0,5,7,0,2026-05-06T23:49:29.790912+05:30
Panipat,Haryana,29.3909,76.9635,23.3,54,0.0,979.3,7.4,35.3,455,681.7,115.0,18.8,535.0,91.0,13.1,0,5,7,0,2026-05-06T23:49:29.790917+05:30
Mathura,Uttar Pradesh,27.4924,77.6737,25.2,51,0.0,986.4,7.8,23.8,193,909.0,116.9,10.7,481.0,132.0,14.4,4,5,7,0,2026-05-06T23:49:29.790922+05:30
Vrindavan,Uttar Pradesh,27.5823,77.7027,25.2,51,0.0,986.9,7.8,25.6,193,909.0,116.9,10.7,459.0,132.0,14.4,4,5,7,0,2026-05-06T23:49:29.790927+05:30
Ayodhya,Uttar Pradesh,26.7922,82.1998,22.9,84,0.0,996.7,8.2,23.4,99,39.6,27.7,12.9,498.0,93.0,6.8,3,5,7,1,2026-05-06T23:49:29.790932+05:30
Ratlam,Madhya Pradesh,23.3315,75.0367,26.6,29,0.0,952.7,8.5,28.4,80,57.3,42.7,13.7,208.0,75.0,9.5,4,5,7,0,2026-05-06T23:49:29.790938+05:30
Sagar,Madhya Pradesh,23.8388,78.7378,25.7,40,0.0,949.8,8.65,37.8,88,35.6,19.8,8.7,291.0,89.0,5.7,4,5,7,0,2026-05-06T23:49:29.790943+05:30
Satna,Madhya Pradesh,24.6005,80.8322,24.6,59,0.0,971.7,8.7,35.6,96,51.9,28.5,8.2,295.0,104.0,6.3,0,5,7,0,2026-05-06T23:49:29.790978+05:30
Akola,Maharashtra,20.7002,77.0082,30.9,27,0.0,973.2,8.85,27.7,81,60.5,33.4,21.7,291.0,67.0,7.2,0,5,7,0,2026-05-06T23:49:29.790984+05:30
Amravati,Maharashtra,20.9374,77.7796,30.5,33,0.0,965.8,8.85,31.7,98,48.7,28.5,16.3,255.0,81.0,6.9,0,5,7,0,2026-05-06T23:49:29.790990+05:30
Latur,Maharashtra,18.4088,76.5604,30.1,23,0.0,937.9,9.05,34.9,69,68.9,40.4,27.6,495.0,69.0,14.5,0,5,7,0,2026-05-06T23:49:29.790996+05:30
Nanded,Maharashtra,19.1383,77.3091,30.4,33,0.0,966.7,8.95,29.5,74,62.2,40.6,26.2,357.0,64.0,7.6,0,5,7,0,2026-05-06T23:49:29.791002+05:30
Gulbarga,Karnataka,17.3297,76.8343,30.3,39,0.0,957.2,9.1,35.6,98,43.7,29.8,7.0,298.0,116.0,6.3,0,5,7,0,2026-05-06T23:49:29.791007+05:30
Bidar,Karnataka,17.9104,77.5199,28.2,43,0.0,933.9,9.1,29.2,87,48.1,33.6,10.5,282.0,100.0,7.7,4,5,7,0,2026-05-06T23:49:29.791012+05:30
Hospet,Karnataka,15.2689,76.3909,29.1,47,0.0,954.1,8.75,34.9,112,40.6,33.2,10.3,260.0,109.0,10.9,4,5,7,1,2026-05-06T23:49:29.791017+05:30
Tirupur,Tamil Nadu,11.1085,77.3411,24.5,93,0.1,975.4,9.35,40.3,94,42.7,32.9,17.0,318.0,96.0,6.5,6,5,7,1,2026-05-06T23:49:29.791022+05:30
Alappuzha,Kerala,9.4981,76.3388,25.0,95,0.1,1008.4,8.25,35.3,70,29.7,19.9,9.9,193.0,83.0,4.9,10,0,4,1,2026-05-06T23:49:29.791028+05:30
Munnar,Kerala,10.0889,77.0595,17.6,92,0.0,855.8,9.3,25.9,65,37.0,30.5,14.7,260.0,50.0,3.6,3,10,7,1,2026-05-06T23:49:29.791033+05:30
Silchar,Assam,24.8333,92.7789,24.7,92,0.0,1006.0,8.65,21.6,110,66.6,60.3,29.2,285.0,33.0,9.8,3,5,4,1,2026-05-06T23:49:29.791038+05:30
Dibrugarh,Assam,27.4728,94.912,21.6,92,0.0,997.1,8.8,28.1,76,18.1,15.5,11.8,286.0,45.0,0.5,3,5,7,1,2026-05-06T23:49:29.791043+05:30
