city,state,latitude,longitude,temp,humidity,rain,pressure,uv_index,wind_gusts,aqi,pm10,pm2_5,no2,co,o3,so2,mosquito_risk,arthritis_risk,migraine_risk,frizz_risk,updated_at
Delhi,Delhi,28.6139,77.209,32.2,22,0.0,976.6,7.75,30.6,347,454.5,92.7,24.6,239.0,42.0,8.9,0,5,7,0,2026-05-20T04:34:45.764864+05:30
Mumbai,Maharashtra,19.076,72.8777,29.0,73,0.0,1005.6,6.6,39.6,74,33.1,17.8,8.7,154.0,46.0,5.4,7,5,4,1,2026-05-20T04:34:45.764911+05:30
Bangalore,Karnataka,12.9716,77.5946,21.7,90,0.0,909.0,5.5,40.7,40,9.1,8.1,13.4,234.0,38.0,4.9,3,5,3,1,2026-05-20T04:34:45.764926+05:30
Hyderabad,Telangana,17.385,78.4867,29.3,60,0.0,949.4,8.7,33.1,90,36.2,29.6,10.4,223.0,71.0,6.9,4,5,7,1,2026-05-20T04:34:45.764936+05:30
Chennai,Tamil Nadu,13.0827,80.2707,30.2,68,0.0,1002.1,9.0,38.5,64,15.3,13.9,13.7,295.0,60.0,8.4,3,5,4,1,2026-05-20T04:34:45.764945+05:30
Kolkata,West Bengal,22.5726,88.3639,28.6,94,0.0,999.2,8.95,24.5,72,22.8,18.6,9.1,298.0,43.0,5.1,7,5,7,1,2026-05-20T04:34:45.764952+05:30
Pune,Maharashtra,18.5204,73.8567,24.2,83,0.0,945.3,8.45,40.3,77,35.0,19.1,12.9,130.0,38.0,9.9,3,5,7,1,2026-05-20T04:34:45.764958+05:30
Ahmedabad,Gujarat,23.0225,72.5714,29.2,53,0.0,998.1,8.15,35.3,64,30.7,13.5,5.9,147.0,41.0,4.4,4,5,7,1,2026-05-20T04:34:45.764965+05:30
Jaipur,Rajasthan,26.9124,75.7873,31.6,25,0.0,954.9,8.3,36.4,127,225.8,39.8,5.7,180.0,63.0,3.9,0,5,7,0,2026-05-20T04:34:45.764977+05:30
Lucknow,Uttar Pradesh,26.8467,80.9462,30.4,68,0.0,986.7,8.25,37.8,155,78.2,50.8,26.6,333.0,44.0,13.3,3,5,7,1,2026-05-20T04:34:45.764983+05:30
Kanpur,Uttar Pradesh,26.4499,80.3319,31.4,67,0.0,984.7,8.25,40.0,199,118.0,53.4,28.1,375.0,38.0,11.4,3,5,7,1,2026-05-20T04:34:45.764989+05:30
Chandigarh,Chandigarh,30.7333,76.7794,25.8,41,0.0,961.8,7.8,28.1,88,116.2,43.4,30.2,314.0,23.0,7.0,4,5,7,0,2026-05-20T04:34:45.764996+05:30
Srinagar,Jammu and Kashmir,34.0837,74.7973,12.8,84,0.0,840.4,9.0,32.0,83,51.2,34.5,23.3,346.0,8.0,0.7,3,10,7,0,2026-05-20T04:34:45.765003+05:30
Jammu,Jammu and Kashmir,32.7266,74.857,24.7,44,0.0,965.6,8.6,29.9,79,34.8,26.7,19.1,236.0,23.0,1.6,0,5,7,0,2026-05-20T04:34:45.765010+05:30
Amritsar,Punjab,31.634,74.8723,26.4,44,0.0,973.3,8.5,19.4,114,85.0,66.1,36.4,500.0,24.0,8.0,4,5,7,0,2026-05-20T04:34:45.765016+05:30
Ludhiana,Punjab,30.901,75.8573,29.3,35,0.0,971.0,8.05,24.8,152,323.2,88.5,32.0,440.0,36.0,13.4,4,5,7,0,2026-05-20T04:34:45.765022+05:30
Jalandhar,Punjab,31.326,75.5762,28.8,31,0.0,972.1,8.25,27.4,136,100.1,65.4,47.9,787.0,9.0,8.7,4,5,7,0,2026-05-20T04:34:45.765028+05:30
Dehradun,Uttarakhand,30.6284,78.0322,12.4,75,0.0,823.7,8.25,41.0,66,28.5,23.1,22.5,343.0,17.0,0.8,3,5,7,0,2026-05-20T04:34:45.765035+05:30
Shimla,Himachal Pradesh,31.1048,77.1734,13.8,44,0.0,780.3,8.3,46.8,68,42.1,29.7,23.7,201.0,33.0,3.0,0,5,7,0,2026-05-20T04:34:45.765043+05:30
Manali,Himachal Pradesh,32.2396,77.1887,10.8,60,0.0,814.3,9.65,40.3,39,3.0,2.2,22.5,176.0,101.0,0.0,0,5,7,0,2026-05-20T04:34:45.765050+05:30
Gurgaon,Haryana,28.4595,77.0266,29.9,25,0.0,975.1,7.85,29.9,836,1132.5,172.3,16.0,244.0,55.0,8.6,4,5,7,0,2026-05-20T04:34:45.765058+05:30
Noida,Uttar Pradesh,28.5355,77.391,30.2,30,0.0,977.7,7.8,27.7,836,1132.5,172.3,16.0,210.0,55.0,8.6,0,5,7,0,2026-05-20T04:34:45.765064+05:30
Ghaziabad,Uttar Pradesh,28.6692,77.4538,31.6,24,0.0,976.1,7.75,28.1,307,421.0,99.9,29.7,343.0,32.0,11.5,0,5,7,0,2026-05-20T04:34:45.765071+05:30
Faridabad,Haryana,28.4089,77.3178,32.2,22,0.0,977.3,7.8,36.4,836,1132.5,172.3,16.0,218.0,55.0,8.6,0,5,7,0,2026-05-20T04:34:45.765076+05:30
Meerut,Uttar Pradesh,28.9845,77.7064,31.0,25,0.0,974.7,7.7,29.2,307,421.0,99.9,29.7,347.0,32.0,11.5,0,5,7,0,2026-05-20T04:34:45.765082+05:30
Agra,Uttar Pradesh,27.1767,78.0081,30.4,43,0.0,981.1,8.1,34.6,531,873.6,122.9,29.1,250.0,26.0,9.1,0,5,7,1,2026-05-20T04:34:45.765088+05:30
Varanasi,Uttar Pradesh,25.3176,82.9739,30.7,67,0.0,990.7,8.75,41.0,151,67.8,59.1,21.7,678.0,59.0,16.5,3,5,7,1,2026-05-20T04:34:45.765095+05:30
Prayagraj,Uttar Pradesh,25.4358,81.8463,31.5,61,0.0,988.9,8.6,41.4,150,73.3,58.9,23.6,361.0,57.0,17.2,3,5,7,1,2026-05-20T04:34:45.765101+05:30
Gorakhpur,Uttar Pradesh,26.7606,83.3732,28.4,79,0.0,991.3,8.65,28.8,155,88.5,70.3,16.3,615.0,72.0,18.2,7,5,7,1,2026-05-20T04:34:45.765109+05:30
Bareilly,Uttar Pradesh,28.367,79.4304,26.8,76,0.0,980.1,8.05,24.5,138,92.9,62.2,27.1,403.0,40.0,9.2,7,5,7,1,2026-05-20T04:34:45.765117+05:30
Aligarh,Uttar Pradesh,27.8974,78.088,30.5,34,0.0,978.7,7.95,29.5,486,681.7,125.3,34.2,274.0,27.0,12.9,0,5,7,0,2026-05-20T04:34:45.765123+05:30
Moradabad,Uttar Pradesh,28.8386,78.7733,27.8,61,0.0,976.9,7.9,28.8,162,272.9,124.8,69.3,375.0,0.0,16.9,7,5,7,1,2026-05-20T04:34:45.765128+05:30
Saharanpur,Uttar Pradesh,29.9637,77.546,29.1,30,0.0,969.0,7.4,22.3,130,145.3,46.6,29.3,536.0,55.0,10.5,4,5,7,0,2026-05-20T04:34:45.765134+05:30
Jhansi,Uttar Pradesh,25.4484,78.5685,32.2,30,0.0,971.9,8.5,45.0,68,13.8,11.7,7.0,179.0,52.0,3.1,0,5,7,0,2026-05-20T04:34:49.027698+05:30
Surat,Gujarat,21.1702,72.8311,28.5,84,0.0,1003.1,7.7,42.8,93,25.5,16.2,23.9,364.0,29.0,39.1,7,5,4,1,2026-05-20T04:34:49.027734+05:30
Vadodara,Gujarat,22.3072,73.1812,28.8,81,0.0,1000.2,8.1,45.0,68,16.5,12.9,14.0,171.0,29.0,14.0,7,5,4,1,2026-05-20T04:34:49.027745+05:30
Rajkot,Gujarat,22.3039,70.8022,26.4,88,0.0,990.7,7.75,42.5,61,13.9,6.7,4.0,122.0,42.0,4.4,7,5,7,1,2026-05-20T04:34:49.027753+05:30
Thane,Maharashtra,19.2183,72.9781,28.6,76,0.0,1005.0,7.85,38.5,74,33.1,17.8,8.7,160.0,46.0,5.4,7,5,4,1,2026-05-20T04:34:49.027760+05:30
Nagpur,Maharashtra,21.1458,79.0882,33.2,35,0.0,967.3,8.95,43.2,106,56.3,49.0,18.3,320.0,58.0,16.0,0,5,7,0,2026-05-20T04:34:49.027768+05:30
Nashik,Maharashtra,19.9975,73.7898,23.8,84,0.0,942.5,8.15,42.5,71,32.7,16.9,6.2,115.0,47.0,4.0,3,5,7,1,2026-05-20T04:34:49.027775+05:30
Aurangabad,Maharashtra,19.8762,75.3433,27.7,55,0.0,940.6,9.05,45.0,74,27.6,17.5,10.0,165.0,53.0,4.5,4,5,7,1,2026-05-20T04:34:49.027782+05:30
Solapur,Maharashtra,17.6599,75.9064,28.5,66,0.0,953.9,9.0,37.1,81,30.4,21.7,9.5,153.0,45.0,3.2,7,5,7,1,2026-05-20T04:34:49.027790+05:30
Kolhapur,Maharashtra,16.705,74.2433,23.4,90,0.0,945.6,8.9,38.5,74,44.5,22.2,8.9,143.0,40.0,3.4,3,5,7,1,2026-05-20T04:34:49.027797+05:30
Goa,Goa,15.2993,74.124,25.5,97,0.0,995.4,7.85,27.0,58,23.1,16.0,7.5,279.0,61.0,2.3,7,5,7,1,2026-05-20T04:34:49.027804+05:30
Jodhpur,Rajasthan,26.2389,73.0243,31.0,40,0.0,978.0,8.45,40.0,120,294.3,65.0,3.2,126.0,53.0,2.7,0,5,7,0,2026-05-20T04:34:49.027811+05:30
Udaipur,Rajasthan,24.5854,73.7125,27.5,48,0.0,942.6,8.85,48.6,54,43.0,20.5,3.8,150.0,54.0,3.0,4,5,7,0,2026-05-20T04:34:49.027818+05:30
Kota,Rajasthan,25.2138,75.8648,33.0,21,0.0,973.7,8.4,35.3,50,15.9,8.2,4.4,175.0,71.0,5.1,0,5,7,0,2026-05-20T04:34:49.027825+05:30
Bikaner,Rajasthan,28.0229,73.3119,32.0,34,0.0,975.5,8.4,37.1,115,78.9,27.6,2.8,130.0,61.0,3.0,0,5,7,0,2026-05-20T04:34:49.027833+05:30
Ajmer,Rajasthan,26.4499,74.6399,29.0,31,0.0,950.0,8.4,43.9,56,26.0,13.0,4.3,167.0,63.0,4.2,4,5,7,0,2026-05-20T04:34:49.027840+05:30
Gwalior,Madhya Pradesh,26.2183,78.1828,32.5,30,0.0,976.8,8.3,45.4,83,16.0,15.4,12.4,178.0,40.0,4.5,0,5,7,0,2026-05-20T04:34:49.027847+05:30
Indore,Madhya Pradesh,22.7196,75.8577,29.0,38,0.0,944.3,8.0,43.6,57,25.8,16.8,6.0,229.0,84.0,12.7,4,5,7,0,2026-05-20T04:34:49.027854+05:30
Bhopal,Madhya Pradesh,23.2599,77.4126,32.1,19,0.0,948.8,8.7,45.4,72,7.8,5.9,2.9,182.0,94.0,4.1,0,5,7,0,2026-05-20T04:34:49.027860+05:30
Jabalpur,Madhya Pradesh,23.1815,79.9864,30.5,37,0.0,955.4,8.9,30.6,78,61.2,39.2,31.4,294.0,32.0,7.1,0,5,7,0,2026-05-20T04:34:49.027867+05:30
Ujjain,Madhya Pradesh,23.1765,75.7885,29.0,37,0.0,949.9,8.5,46.1,55,28.7,18.6,6.9,209.0,70.0,13.5,4,5,7,0,2026-05-20T04:34:49.027874+05:30
Visakhapatnam,Andhra Pradesh,17.6868,83.2185,29.0,93,0.0,997.5,8.65,40.0,73,31.2,26.4,19.9,455.0,86.0,36.1,7,5,7,1,2026-05-20T04:34:49.027881+05:30
Vijayawada,Andhra Pradesh,16.5062,80.648,30.9,77,0.0,996.7,9.1,37.8,85,39.9,37.8,16.5,316.0,77.0,6.9,3,5,7,1,2026-05-20T04:34:49.027888+05:30
Guntur,Andhra Pradesh,16.3067,80.4365,30.6,83,0.0,997.9,9.05,40.3,87,36.1,34.5,16.2,298.0,74.0,6.3,3,5,7,1,2026-05-20T04:34:49.027895+05:30
Nellore,Andhra Pradesh,14.4426,79.9865,32.5,52,0.0,1000.2,8.45,43.9,72,21.4,19.9,8.1,191.0,73.0,5.8,0,5,4,1,2026-05-20T04:34:49.027902+05:30
Kurnool,Andhra Pradesh,15.8281,78.0373,29.5,66,0.0,973.4,8.7,42.5,73,11.6,9.5,10.7,192.0,53.0,4.4,7,5,7,1,2026-05-20T04:34:49.027910+05:30
Kakinada,Andhra Pradesh,16.9891,82.2475,30.2,82,0.0,1001.6,8.95,37.1,72,26.7,20.7,3.6,335.0,116.0,4.4,3,5,4,1,2026-05-20T04:34:49.027917+05:30
Tirupati,Andhra Pradesh,13.6288,79.4192,30.0,60,0.0,986.3,9.05,35.3,71,15.3,14.6,11.5,200.0,53.0,3.1,4,5,7,1,2026-05-20T04:34:49.027924+05:30
Warangal,Telangana,17.9689,79.5941,30.5,61,0.0,973.5,8.6,29.2,97,51.6,46.1,16.2,293.0,61.0,11.1,3,5,7,1,2026-05-20T04:34:49.027930+05:30
Nizamabad,Telangana,18.6725,78.0941,30.8,52,0.0,960.1,8.95,32.0,104,40.6,33.4,9.7,224.0,77.0,6.6,0,5,7,1,2026-05-20T04:34:49.027936+05:30
Mysore,Karnataka,12.2958,76.6396,21.4,96,0.0,925.9,7.75,40.0,25,8.7,7.5,8.2,166.0,41.0,2.0,3,5,7,1,2026-05-20T04:34:49.027943+05:30
Mangalore,Karnataka,12.9141,74.856,24.7,97,0.1,1005.1,2.05,28.8,31,10.2,8.3,6.4,183.0,47.0,2.1,6,5,0,1,2026-05-20T04:34:49.027950+05:30
Hubli-Dharwad,Karnataka,15.3647,75.124,23.5,93,0.0,938.2,8.0,37.4,31,4.8,4.3,4.4,133.0,60.0,1.2,3,5,7,1,2026-05-20T04:34:49.027957+05:30
Belgaum,Karnataka,15.8497,74.4977,22.1,95,0.0,923.1,8.75,36.4,64,44.2,21.7,6.1,136.0,48.0,1.4,3,5,7,1,2026-05-20T04:34:52.277146+05:30
Coimbatore,Tamil Nadu,11.0168,76.9558,24.8,85,0.0,959.1,8.55,60.5,25,5.5,4.3,4.2,151.0,51.0,2.1,3,5,7,1,2026-05-20T04:34:52.277182+05:30
Madurai,Tamil Nadu,9.9252,78.1198,28.0,72,0.0,990.3,8.65,54.7,69,37.1,35.9,39.7,195.0,0.0,7.8,7,5,7,1,2026-05-20T04:34:52.277193+05:30
Trichy,Tamil Nadu,10.7905,78.7047,27.5,75,0.0,996.7,7.5,42.1,45,10.0,9.0,15.0,162.0,31.0,4.0,7,5,7,1,2026-05-20T04:34:52.277202+05:30
Salem,Tamil Nadu,11.6643,78.146,26.5,77,0.0,974.6,5.15,28.8,49,14.6,13.0,20.0,241.0,25.0,5.5,7,5,3,1,2026-05-20T04:34:52.277210+05:30
Tirunelveli,Tamil Nadu,8.7139,77.7567,27.8,75,0.0,1001.3,8.0,39.6,25,4.7,3.9,5.0,148.0,38.0,1.8,7,5,4,1,2026-05-20T04:34:52.277218+05:30
Vellore,Tamil Nadu,12.9165,79.1325,29.1,64,0.0,980.2,7.75,47.9,59,10.7,10.0,11.7,196.0,47.0,5.2,7,5,7,1,2026-05-20T04:34:52.277226+05:30
Erode,Tamil Nadu,11.341,77.7172,26.7,77,0.0,986.3,8.05,42.8,38,10.4,9.0,12.1,155.0,38.0,3.9,7,5,7,1,2026-05-20T04:34:52.277233+05:30
Kochi,Kerala,9.9312,76.2673,25.9,94,0.3,1007.8,3.3,34.2,49,11.9,10.3,11.5,169.0,28.0,3.2,10,5,0,1,2026-05-20T04:34:52.277240+05:30
Thiruvananthapuram,Kerala,8.5241,76.9366,24.9,97,0.2,1007.8,7.65,41.8,27,7.7,4.6,1.5,101.0,53.0,0.4,6,5,4,1,2026-05-20T04:34:52.277248+05:30
Kozhikode,Kerala,11.2588,75.7804,24.4,99,0.0,1006.8,7.6,34.2,30,6.4,4.1,1.0,241.0,63.0,0.4,3,5,4,1,2026-05-20T04:34:52.277256+05:30
Thrissur,Kerala,10.5276,76.2144,24.5,99,0.2,1006.1,3.8,33.5,41,10.4,9.0,10.5,250.0,32.0,3.6,6,5,0,1,2026-05-20T04:34:52.277264+05:30
Kannur,Kerala,11.8745,75.3704,25.4,95,0.2,1005.6,7.9,35.3,30,7.5,5.9,3.8,223.0,47.0,1.7,10,5,4,1,2026-05-20T04:34:52.277274+05:30
Patna,Bihar,25.5941,85.1376,27.8,84,0.0,994.7,8.85,26.6,153,61.0,54.9,15.8,418.0,62.0,15.9,7,5,7,1,2026-05-20T04:34:52.277281+05:30
Gaya,Bihar,24.7914,85.0002,28.0,80,0.0,987.7,8.9,33.8,154,68.7,63.8,18.1,521.0,52.0,17.9,7,5,7,1,2026-05-20T04:34:52.277288+05:30
Muzaffarpur,Bihar,26.1209,85.3647,27.2,85,0.0,995.0,8.85,29.5,152,62.2,53.8,16.0,408.0,58.0,14.3,7,5,7,1,2026-05-20T04:34:52.277295+05:30
Bhagalpur,Bihar,25.2425,87.0117,27.1,88,0.0,995.6,8.7,27.7,142,83.1,71.9,16.4,486.0,54.0,8.6,7,5,7,1,2026-05-20T04:34:52.277302+05:30
Ranchi,Jharkhand,23.3441,85.3096,23.6,80,0.0,931.9,9.3,43.9,124,118.3,66.1,33.1,396.0,64.0,27.4,3,5,7,1,2026-05-20T04:34:52.277309+05:30
Jamshedpur,Jharkhand,22.8046,86.2029,26.9,97,0.0,984.4,9.1,34.6,121,44.1,40.3,30.0,482.0,14.0,9.5,7,5,7,1,2026-05-20T04:34:52.277315+05:30
Dhanbad,Jharkhand,23.7957,86.4304,27.6,87,0.0,974.0,9.1,39.6,164,123.9,119.0,50.8,548.0,13.0,219.0,7,5,7,1,2026-05-20T04:34:52.277322+05:30
Bokaro,Jharkhand,23.6693,86.1511,26.3,93,0.0,977.7,9.1,40.7,162,147.6,136.9,48.8,611.0,31.0,207.8,7,5,7,1,2026-05-20T04:34:52.277330+05:30
Bhubaneswar,Odisha,20.2961,85.8245,29.0,91,0.0,995.7,9.1,37.1,64,20.6,18.0,7.8,234.0,62.0,6.4,7,5,7,1,2026-05-20T04:34:52.277336+05:30
Cuttack,Odisha,20.4625,85.8828,29.0,91,0.0,997.6,9.15,34.6,64,20.6,18.0,7.8,249.0,62.0,6.4,7,5,7,1,2026-05-20T04:34:52.277343+05:30
Rourkela,Odisha,22.2604,84.8536,27.4,74,0.0,978.8,9.0,31.3,151,136.0,69.4,45.7,452.0,3.0,11.4,7,5,7,1,2026-05-20T04:34:52.277350+05:30
Raipur,Chhattisgarh,21.2514,81.6296,31.4,41,0.0,969.1,8.95,33.8,123,53.6,48.4,30.4,453.0,69.0,48.1,0,5,7,1,2026-05-20T04:34:52.277357+05:30
Bhilai,Chhattisgarh,21.1938,81.3509,30.7,44,0.0,969.4,9.0,35.3,116,48.5,43.5,23.9,749.0,82.0,38.8,0,5,7,1,2026-05-20T04:34:52.277364+05:30
Guwahati,Assam,26.1158,91.7086,24.2,95,0.0,997.3,8.7,21.6,103,73.1,62.6,25.3,389.0,14.0,5.5,3,5,7,1,2026-05-20T04:34:52.277371+05:30
Agartala,Tripura,23.8315,91.2868,25.2,97,0.0,1001.4,8.9,28.1,83,23.5,18.7,14.2,220.0,27.0,2.7,7,5,4,1,2026-05-20T04:34:52.277378+05:30
Shillong,Meghalaya,25.5788,91.8933,17.0,99,0.0,853.1,8.4,21.2,83,48.5,34.0,6.5,280.0,63.0,4.8,3,10,7,1,2026-05-20T04:34:52.277386+05:30
Imphal,Manipur,24.817,93.9368,20.2,98,0.0,919.5,9.25,30.6,91,87.3,58.3,15.3,382.0,43.0,4.9,3,5,7,1,2026-05-20T04:34:52.277393+05:30
Aizawl,Mizoram,23.7271,92.7176,17.7,100,0.0,887.9,9.1,26.6,83,37.4,23.7,8.8,229.0,17.0,1.2,3,10,7,1,2026-05-20T04:34:52.277400+05:30
Kohima,Nagaland,25.6701,94.1077,15.4,95,0.0,850.7,8.7,28.8,85,81.0,54.6,12.2,283.0,50.0,0.8,3,10,7,0,2026-05-20T04:34:52.277407+05:30
Gangtok,Sikkim,27.3314,88.6138,16.0,68,0.0,833.6,8.75,35.3,79,23.2,19.8,13.7,601.0,19.0,0.2,3,5,7,0,2026-05-20T04:34:52.277413+05:30
Siliguri,West Bengal,26.7271,88.3953,25.9,83,0.0,988.2,8.7,20.5,131,71.0,52.4,14.4,454.0,71.0,4.4,7,5,7,1,2026-05-20T04:34:55.537616+05:30
Durgapur,West Bengal,23.5204,87.3119,27.5,95,0.0,988.7,9.0,22.3,155,45.8,42.5,32.0,468.0,13.0,32.7,7,5,7,1,2026-05-20T04:34:55.537652+05:30
Asansol,West Bengal,23.6739,86.9524,27.2,94,0.0,987.4,9.05,28.1,157,56.5,53.4,39.8,641.0,9.0,45.4,7,5,7,1,2026-05-20T04:34:55.537664+05:30
Pondicherry,Puducherry,11.9139,79.8145,28.4,73,0.0,1004.2,8.9,36.7,58,14.8,13.2,16.8,220.0,41.0,10.4,7,5,4,1,2026-05-20T04:34:55.537672+05:30
Port Blair,Andaman and Nicobar Islands,11.6234,92.7265,27.2,89,0.0,1003.4,8.95,47.5,28,10.0,6.2,0.3,134.0,59.0,0.5,7,5,4,1,2026-05-20T04:34:55.537681+05:30
Haridwar,Uttarakhand,29.9457,78.1642,23.6,60,0.0,966.9,7.6,26.6,100,177.4,41.7,17.5,332.0,62.0,6.4,0,5,7,0,2026-05-20T04:34:55.537688+05:30
Rishikesh,Uttarakhand,30.0869,78.2676,22.4,53,0.0,959.6,7.7,33.5,93,217.5,45.9,12.8,361.0,77.0,5.8,0,5,7,0,2026-05-20T04:34:55.537696+05:30
Nainital,Uttarakhand,29.3919,79.4542,18.0,36,0.0,802.3,8.55,58.0,97,227.2,49.4,18.6,236.0,82.0,6.7,0,5,7,0,2026-05-20T04:34:55.537704+05:30
Mussoorie,Uttarakhand,30.4599,78.0664,19.7,37,0.0,801.2,8.1,49.7,90,76.1,40.0,33.6,268.0,16.0,4.5,0,5,7,0,2026-05-20T04:34:55.537711+05:30
Dharamshala,Himachal Pradesh,32.219,76.3234,23.8,29,0.0,865.7,8.5,46.4,59,20.3,12.4,11.5,184.0,44.0,0.0,0,5,7,0,2026-05-20T04:34:55.537718+05:30
Dalhousie,Himachal Pradesh,32.5387,75.971,12.6,59,0.0,799.4,8.75,41.8,75,31.7,21.8,17.2,265.0,39.0,0.5,0,5,7,0,2026-05-20T04:34:55.537726+05:30
Patiala,Punjab,30.3398,76.3869,29.4,26,0.0,971.2,7.65,26.3,486,571.8,142.0,37.1,407.0,32.0,11.1,4,5,7,0,2026-05-20T04:34:55.537733+05:30
Bhatinda,Punjab,30.211,74.9455,28.0,30,0.0,976.5,8.35,26.3,100,73.1,47.0,42.3,491.0,20.0,7.4,4,5,7,0,2026-05-20T04:34:55.537740+05:30
Rohtak,Haryana,28.8955,76.6066,30.1,25,0.0,975.2,7.8,29.9,446,663.1,106.2,13.1,183.0,55.0,2.8,0,5,7,0,2026-05-20T04:34:55.537748+05:30
Panipat,Haryana,29.3909,76.9635,30.0,29,0.0,973.5,7.65,26.3,993,1266.6,178.8,17.3,441.0,47.0,3.7,4,5,7,0,2026-05-20T04:34:55.537755+05:30
Mathura,Uttar Pradesh,27.4924,77.6737,30.2,37,0.0,980.6,8.05,28.4,472,827.0,119.2,16.1,211.0,46.0,4.5,0,5,7,0,2026-05-20T04:34:55.537762+05:30
Vrindavan,Uttar Pradesh,27.5823,77.7027,29.6,38,0.0,980.9,8.05,27.0,472,827.0,119.2,16.1,212.0,46.0,4.5,4,5,7,0,2026-05-20T04:34:55.537769+05:30
Ayodhya,Uttar Pradesh,26.7922,82.1998,29.2,73,0.0,988.8,8.4,25.6,152,82.0,66.8,17.3,816.0,74.0,14.9,7,5,7,1,2026-05-20T04:34:55.537775+05:30
Ratlam,Madhya Pradesh,23.3315,75.0367,27.1,53,0.0,950.9,8.55,47.5,56,29.6,19.2,8.2,182.0,59.0,15.1,4,5,7,1,2026-05-20T04:34:55.537782+05:30
Sagar,Madhya Pradesh,23.8388,78.7378,31.0,29,0.0,945.2,8.75,42.8,60,16.4,14.1,12.0,215.0,53.0,5.0,0,5,7,0,2026-05-20T04:34:55.537789+05:30
Satna,Madhya Pradesh,24.6005,80.8322,30.6,40,0.0,964.5,8.8,32.0,102,95.0,41.0,27.8,253.0,48.0,9.7,0,5,7,0,2026-05-20T04:34:55.537795+05:30
Akola,Maharashtra,20.7002,77.0082,32.6,27,0.0,970.5,8.9,41.4,77,19.3,14.5,8.3,212.0,85.0,6.7,0,5,7,0,2026-05-20T04:34:55.537803+05:30
Amravati,Maharashtra,20.9374,77.7796,33.2,24,0.0,962.4,8.9,45.7,83,18.4,14.3,9.8,233.0,72.0,4.8,0,5,7,0,2026-05-20T04:34:55.537812+05:30
Latur,Maharashtra,18.4088,76.5604,29.1,58,0.0,936.4,8.45,37.8,87,33.4,24.6,7.8,204.0,89.0,11.2,4,5,7,1,2026-05-20T04:34:55.537819+05:30
Nanded,Maharashtra,19.1383,77.3091,32.2,41,0.0,963.7,9.0,37.4,103,39.3,33.1,12.1,287.0,67.0,7.1,0,5,7,1,2026-05-20T04:34:55.537826+05:30
Gulbarga,Karnataka,17.3297,76.8343,28.9,64,0.0,955.1,8.8,42.1,85,34.2,23.4,9.8,182.0,48.0,3.9,7,5,7,1,2026-05-20T04:34:55.537833+05:30
Bidar,Karnataka,17.9104,77.5199,28.0,64,0.0,931.8,8.7,34.9,93,32.8,24.9,8.9,185.0,69.0,5.4,7,5,7,1,2026-05-20T04:34:55.537841+05:30
Hospet,Karnataka,15.2689,76.3909,24.9,88,0.0,953.1,7.25,42.1,36,6.3,5.9,8.4,142.0,52.0,1.8,3,5,7,1,2026-05-20T04:34:55.537847+05:30
Tirupur,Tamil Nadu,11.1085,77.3411,25.4,83,0.0,972.3,7.4,56.9,42,11.2,9.7,13.4,141.0,36.0,4.3,7,5,7,1,2026-05-20T04:34:55.537853+05:30
Alappuzha,Kerala,9.4981,76.3388,25.5,93,0.2,1008.4,3.35,37.1,38,6.6,4.9,4.4,109.0,51.0,1.2,10,0,0,1,2026-05-20T04:34:55.537860+05:30
Munnar,Kerala,10.0889,77.0595,17.9,100,0.0,855.5,5.85,41.8,23,3.7,3.3,5.5,115.0,32.0,1.5,3,10,3,1,2026-05-20T04:34:55.537868+05:30
Silchar,Assam,24.8333,92.7789,25.4,95,0.0,1001.3,8.95,30.6,137,131.8,80.1,20.0,245.0,60.0,11.5,7,5,4,1,2026-05-20T04:34:55.537875+05:30
Dibrugarh,Assam,27.4728,94.912,23.4,94,0.0,991.7,8.85,15.8,91,36.0,34.9,26.7,432.0,20.0,1.3,3,5,7,1,2026-05-20T04:34:55.537882+05:30
