city,state,latitude,longitude,temp,humidity,rain,pressure,uv_index,wind_gusts,aqi,pm10,pm2_5,mosquito_risk,arthritis_risk,migraine_risk,frizz_risk,updated_at
Delhi,Delhi,28.6139,77.209,23.0,67,0.0,982.9,5.95,25.9,136,208.6,80.1,3,5,3,1,2026-03-29T08:14:15.142022+05:30
Mumbai,Maharashtra,19.076,72.8777,27.7,80,0.0,1009.6,8.0,24.8,65,21.9,13.3,7,0,4,1,2026-03-29T08:14:15.142064+05:30
Bangalore,Karnataka,12.9716,77.5946,22.5,86,0.0,912.6,9.55,28.1,126,71.5,66.8,3,5,7,1,2026-03-29T08:14:15.142079+05:30
Hyderabad,Telangana,17.385,78.4867,26.8,47,0.0,953.9,9.05,28.4,113,39.1,35.4,4,5,7,0,2026-03-29T08:14:15.142089+05:30
Chennai,Tamil Nadu,13.0827,80.2707,27.9,80,0.0,1008.4,9.25,35.6,62,20.3,15.5,7,0,4,1,2026-03-29T08:14:15.142097+05:30
Kolkata,West Bengal,22.5726,88.3639,25.0,87,0.0,1008.3,8.45,26.3,131,39.0,32.2,7,0,4,1,2026-03-29T08:14:15.142106+05:30
Pune,Maharashtra,18.5204,73.8567,22.0,56,0.0,948.9,8.55,34.9,66,68.0,31.7,0,5,7,0,2026-03-29T08:14:15.142118+05:30
Ahmedabad,Gujarat,23.0225,72.5714,25.6,81,0.0,1003.1,7.85,25.6,33,15.5,8.0,7,5,4,1,2026-03-29T08:14:15.142125+05:30
Jaipur,Rajasthan,26.9124,75.7873,25.6,54,0.0,958.8,7.2,34.9,72,60.8,24.3,4,5,7,0,2026-03-29T08:14:15.142133+05:30
Lucknow,Uttar Pradesh,26.8467,80.9462,23.6,69,0.0,994.1,7.25,20.2,119,146.2,56.7,3,5,7,1,2026-03-29T08:14:15.142141+05:30
Kanpur,Uttar Pradesh,26.4499,80.3319,23.5,74,0.0,992.0,7.25,16.9,141,148.5,47.6,3,5,7,1,2026-03-29T08:14:15.142148+05:30
Chandigarh,Chandigarh,30.7333,76.7794,21.3,82,0.0,969.0,6.5,23.8,83,38.6,36.9,3,5,7,1,2026-03-29T08:14:15.142155+05:30
Srinagar,Jammu and Kashmir,34.0837,74.7973,10.1,87,0.2,840.6,7.35,22.3,91,34.0,26.4,6,10,7,0,2026-03-29T08:14:15.142162+05:30
Jammu,Jammu and Kashmir,32.7266,74.857,20.1,95,0.3,974.6,6.75,17.6,81,42.3,36.7,6,5,7,1,2026-03-29T08:14:15.142170+05:30
Amritsar,Punjab,31.634,74.8723,19.8,87,0.0,981.7,7.3,35.3,85,37.6,23.9,3,10,7,1,2026-03-29T08:14:15.142178+05:30
Ludhiana,Punjab,30.901,75.8573,21.4,82,0.0,979.3,6.95,30.6,100,46.2,43.9,3,5,7,1,2026-03-29T08:14:15.142184+05:30
Jalandhar,Punjab,31.326,75.5762,20.7,88,0.0,980.8,7.1,32.8,99,43.0,29.1,3,5,7,1,2026-03-29T08:14:15.142194+05:30
Dehradun,Uttarakhand,30.6284,78.0322,15.1,82,0.0,829.3,3.05,19.1,66,24.4,15.1,3,10,3,0,2026-03-29T08:14:15.142201+05:30
Shimla,Himachal Pradesh,31.1048,77.1734,13.3,81,0.0,783.5,1.8,26.3,74,35.6,26.9,3,10,3,0,2026-03-29T08:14:15.142209+05:30
Manali,Himachal Pradesh,32.2396,77.1887,12.2,96,0.3,818.0,7.45,25.6,48,35.3,16.5,6,10,7,0,2026-03-29T08:14:15.142216+05:30
Gurgaon,Haryana,28.4595,77.0266,22.5,70,0.0,980.9,5.7,25.6,228,486.2,94.3,3,5,3,1,2026-03-29T08:14:15.142223+05:30
Noida,Uttar Pradesh,28.5355,77.391,22.5,71,0.0,984.4,6.05,24.1,228,486.2,94.3,3,5,7,1,2026-03-29T08:14:15.142229+05:30
Ghaziabad,Uttar Pradesh,28.6692,77.4538,22.3,74,0.0,982.7,6.1,22.0,144,146.7,76.4,3,5,7,1,2026-03-29T08:14:15.142235+05:30
Faridabad,Haryana,28.4089,77.3178,21.9,72,0.0,983.6,6.15,21.6,228,486.2,94.3,3,5,7,1,2026-03-29T08:14:15.142241+05:30
Meerut,Uttar Pradesh,28.9845,77.7064,21.8,80,0.0,981.5,5.6,23.8,144,146.7,76.4,3,5,3,1,2026-03-29T08:14:15.142248+05:30
Agra,Uttar Pradesh,27.1767,78.0081,24.8,61,0.0,987.9,7.1,30.6,329,395.8,66.1,3,5,7,1,2026-03-29T08:14:15.142256+05:30
Varanasi,Uttar Pradesh,25.3176,82.9739,25.2,65,0.0,998.3,7.95,23.8,90,49.9,32.0,7,5,7,1,2026-03-29T08:14:15.142266+05:30
Prayagraj,Uttar Pradesh,25.4358,81.8463,25.4,65,0.0,996.2,7.8,20.9,106,71.5,52.2,7,5,7,1,2026-03-29T08:14:15.142274+05:30
Gorakhpur,Uttar Pradesh,26.7606,83.3732,22.9,82,0.0,998.8,7.65,25.6,113,74.3,56.9,3,5,7,1,2026-03-29T08:14:15.142281+05:30
Bareilly,Uttar Pradesh,28.367,79.4304,22.2,82,0.0,987.2,7.0,18.4,95,40.7,37.7,3,5,7,1,2026-03-29T08:14:15.142287+05:30
Aligarh,Uttar Pradesh,27.8974,78.088,22.6,73,0.0,985.6,6.9,20.2,177,232.4,63.1,3,5,7,1,2026-03-29T08:14:15.142297+05:30
Moradabad,Uttar Pradesh,28.8386,78.7733,22.1,84,0.0,984.1,6.6,22.7,135,62.2,61.0,3,5,7,1,2026-03-29T08:14:15.142303+05:30
Saharanpur,Uttar Pradesh,29.9637,77.546,21.2,83,0.0,975.8,5.4,22.3,107,51.9,48.2,3,5,3,1,2026-03-29T08:14:15.142310+05:30
Jhansi,Uttar Pradesh,25.4484,78.5685,27.2,48,0.0,977.4,7.8,25.6,75,67.8,23.9,4,5,7,0,2026-03-29T08:14:18.354721+05:30
Surat,Gujarat,21.1702,72.8311,27.0,78,0.0,1008.0,7.75,25.9,76,35.0,27.1,7,0,4,1,2026-03-29T08:14:18.354752+05:30
Vadodara,Gujarat,22.3072,73.1812,26.3,78,0.0,1005.8,7.85,25.2,53,27.2,12.2,7,5,4,1,2026-03-29T08:14:18.354762+05:30
Rajkot,Gujarat,22.3039,70.8022,25.5,85,0.0,995.0,7.6,33.1,35,18.2,7.5,7,5,7,1,2026-03-29T08:14:18.354770+05:30
Thane,Maharashtra,19.2183,72.9781,26.9,81,0.0,1009.2,8.0,37.4,65,21.9,13.3,7,0,4,1,2026-03-29T08:14:18.354778+05:30
Nagpur,Maharashtra,21.1458,79.0882,26.1,55,0.0,973.4,8.55,27.0,62,32.2,30.0,4,5,7,1,2026-03-29T08:14:18.354785+05:30
Nashik,Maharashtra,19.9975,73.7898,22.7,86,0.0,946.5,8.25,31.0,52,32.9,12.8,3,5,7,1,2026-03-29T08:14:18.354792+05:30
Aurangabad,Maharashtra,19.8762,75.3433,23.9,50,0.0,945.0,8.75,29.5,43,31.9,15.1,0,5,7,0,2026-03-29T08:14:18.354799+05:30
Solapur,Maharashtra,17.6599,75.9064,25.1,46,0.0,958.2,8.9,23.0,60,20.5,15.9,4,5,7,0,2026-03-29T08:14:18.354806+05:30
Kolhapur,Maharashtra,16.705,74.2433,20.7,78,0.0,948.3,9.0,33.8,84,66.8,63.6,3,5,7,1,2026-03-29T08:14:18.354814+05:30
Goa,Goa,15.2993,74.124,26.9,78,0.0,998.8,8.95,35.3,95,33.2,31.0,7,5,7,1,2026-03-29T08:14:18.354821+05:30
Jodhpur,Rajasthan,26.2389,73.0243,25.6,63,0.0,982.0,7.4,41.4,105,190.9,29.5,7,5,7,1,2026-03-29T08:14:18.354828+05:30
Udaipur,Rajasthan,24.5854,73.7125,23.6,71,0.0,946.3,8.2,32.8,25,29.5,7.9,3,5,7,1,2026-03-29T08:14:18.354835+05:30
Kota,Rajasthan,25.2138,75.8648,27.7,49,0.0,978.1,7.5,34.2,55,10.4,7.7,4,5,7,0,2026-03-29T08:14:18.354841+05:30
Bikaner,Rajasthan,28.0229,73.3119,27.4,54,0.0,979.5,7.55,32.4,63,265.4,69.2,4,5,7,1,2026-03-29T08:14:18.354848+05:30
Ajmer,Rajasthan,26.4499,74.6399,25.1,66,0.0,953.6,7.55,41.8,32,29.5,9.1,7,5,7,1,2026-03-29T08:14:18.354855+05:30
Gwalior,Madhya Pradesh,26.2183,78.1828,26.9,52,0.0,982.9,7.35,27.7,105,117.6,31.0,4,5,7,1,2026-03-29T08:14:18.354861+05:30
Indore,Madhya Pradesh,22.7196,75.8577,24.3,68,0.0,948.3,8.25,32.4,39,19.3,13.7,3,5,7,1,2026-03-29T08:14:18.354867+05:30
Bhopal,Madhya Pradesh,23.2599,77.4126,25.3,56,0.0,954.0,8.2,35.3,31,11.9,8.1,4,5,7,0,2026-03-29T08:14:18.354874+05:30
Jabalpur,Madhya Pradesh,23.1815,79.9864,25.9,58,0.0,961.7,8.3,33.5,60,30.5,27.5,4,5,7,1,2026-03-29T08:14:18.354880+05:30
Ujjain,Madhya Pradesh,23.1765,75.7885,24.0,71,0.0,954.0,8.15,32.8,38,19.3,14.4,3,5,7,1,2026-03-29T08:14:18.354888+05:30
Visakhapatnam,Andhra Pradesh,17.6868,83.2185,28.6,73,0.0,1005.2,9.0,40.0,80,33.2,24.6,7,5,4,1,2026-03-29T08:14:18.354895+05:30
Vijayawada,Andhra Pradesh,16.5062,80.648,27.5,83,0.0,1004.2,9.05,29.9,78,21.0,14.7,7,5,4,1,2026-03-29T08:14:18.354901+05:30
Guntur,Andhra Pradesh,16.3067,80.4365,27.2,82,0.0,1005.3,9.05,28.4,81,20.8,15.5,7,5,4,1,2026-03-29T08:14:18.354907+05:30
Nellore,Andhra Pradesh,14.4426,79.9865,27.0,80,0.0,1007.4,8.75,33.5,72,22.5,19.7,7,5,4,1,2026-03-29T08:14:18.354915+05:30
Kurnool,Andhra Pradesh,15.8281,78.0373,28.7,56,0.0,978.2,9.1,26.6,123,46.3,41.8,4,5,7,1,2026-03-29T08:14:18.354922+05:30
Kakinada,Andhra Pradesh,16.9891,82.2475,28.2,80,0.0,1009.3,9.0,28.8,66,27.0,17.6,7,0,4,1,2026-03-29T08:14:18.354929+05:30
Tirupati,Andhra Pradesh,13.6288,79.4192,26.7,81,0.0,992.9,9.2,32.0,95,37.3,35.2,7,5,7,1,2026-03-29T08:14:18.354936+05:30
Warangal,Telangana,17.9689,79.5941,26.8,73,0.0,979.5,8.9,28.4,112,40.4,37.4,7,5,7,1,2026-03-29T08:14:18.354942+05:30
Nizamabad,Telangana,18.6725,78.0941,26.9,50,0.0,966.0,8.8,28.4,74,22.7,21.9,4,5,7,0,2026-03-29T08:14:18.354948+05:30
Mysore,Karnataka,12.2958,76.6396,22.8,84,0.0,929.1,8.55,29.5,110,50.9,47.4,3,5,7,1,2026-03-29T08:14:18.354954+05:30
Mangalore,Karnataka,12.9141,74.856,28.0,78,0.0,1007.2,9.1,31.7,102,43.1,39.8,7,5,4,1,2026-03-29T08:14:18.354961+05:30
Hubli-Dharwad,Karnataka,15.3647,75.124,23.4,82,0.0,941.8,9.15,31.0,104,43.4,40.4,3,5,7,1,2026-03-29T08:14:18.354967+05:30
Belgaum,Karnataka,15.8497,74.4977,22.6,59,0.0,926.0,9.2,35.3,92,46.0,43.5,0,5,7,0,2026-03-29T08:14:21.569373+05:30
Coimbatore,Tamil Nadu,11.0168,76.9558,25.3,79,0.0,962.7,9.4,41.0,91,44.4,40.6,7,5,7,1,2026-03-29T08:14:21.569399+05:30
Madurai,Tamil Nadu,9.9252,78.1198,26.7,78,0.0,993.6,9.0,30.6,79,36.0,34.5,7,5,7,1,2026-03-29T08:14:21.569409+05:30
Trichy,Tamil Nadu,10.7905,78.7047,26.8,82,0.0,1000.7,8.85,28.4,66,38.4,35.9,7,5,4,1,2026-03-29T08:14:21.569416+05:30
Salem,Tamil Nadu,11.6643,78.146,27.3,72,0.0,978.4,9.4,34.2,85,22.7,20.3,7,5,7,1,2026-03-29T08:14:21.569423+05:30
Tirunelveli,Tamil Nadu,8.7139,77.7567,27.4,70,0.0,1003.5,9.4,47.5,72,23.2,21.4,7,5,4,1,2026-03-29T08:14:21.569430+05:30
Vellore,Tamil Nadu,12.9165,79.1325,26.2,85,0.0,985.8,9.35,33.5,124,63.8,61.7,7,5,7,1,2026-03-29T08:14:21.569436+05:30
Erode,Tamil Nadu,11.341,77.7172,28.0,76,0.0,990.1,9.35,33.5,98,44.1,41.7,7,5,7,1,2026-03-29T08:14:21.569442+05:30
Kochi,Kerala,9.9312,76.2673,27.9,82,0.0,1008.6,8.8,29.2,91,36.1,34.6,7,0,4,1,2026-03-29T08:14:21.569448+05:30
Thiruvananthapuram,Kerala,8.5241,76.9366,27.9,81,0.0,1007.7,9.2,38.2,74,28.2,24.7,7,5,4,1,2026-03-29T08:14:21.569454+05:30
Kozhikode,Kerala,11.2588,75.7804,27.7,83,0.0,1008.0,9.1,30.6,79,28.8,25.0,7,0,4,1,2026-03-29T08:14:21.569460+05:30
Thrissur,Kerala,10.5276,76.2144,27.2,87,0.0,1007.1,9.15,34.9,90,40.4,38.0,7,5,4,1,2026-03-29T08:14:21.569466+05:30
Kannur,Kerala,11.8745,75.3704,27.2,83,0.0,1007.3,9.15,35.6,89,37.8,35.3,7,5,4,1,2026-03-29T08:14:21.569472+05:30
Patna,Bihar,25.5941,85.1376,23.4,83,0.0,1002.2,8.05,23.8,102,60.8,50.5,3,5,4,1,2026-03-29T08:14:21.569478+05:30
Gaya,Bihar,24.7914,85.0002,24.6,78,0.0,994.9,8.15,19.1,89,51.3,47.5,3,5,7,1,2026-03-29T08:14:21.569484+05:30
Muzaffarpur,Bihar,26.1209,85.3647,22.3,85,0.0,1002.6,8.05,27.7,112,60.5,50.3,3,5,4,1,2026-03-29T08:14:21.569489+05:30
Bhagalpur,Bihar,25.2425,87.0117,23.3,86,0.0,1003.6,7.85,20.5,107,68.5,50.2,3,5,4,1,2026-03-29T08:14:21.569495+05:30
Ranchi,Jharkhand,23.3441,85.3096,22.8,85,0.0,938.7,8.75,31.3,110,66.8,59.0,3,5,7,1,2026-03-29T08:14:21.569501+05:30
Jamshedpur,Jharkhand,22.8046,86.2029,26.0,80,0.0,992.6,8.55,27.4,132,58.6,51.9,7,5,7,1,2026-03-29T08:14:21.569507+05:30
Dhanbad,Jharkhand,23.7957,86.4304,24.5,75,0.0,981.6,8.5,22.7,151,95.5,87.3,3,5,7,1,2026-03-29T08:14:21.569513+05:30
Bokaro,Jharkhand,23.6693,86.1511,24.3,83,0.0,985.6,8.5,24.8,152,103.1,94.1,3,5,7,1,2026-03-29T08:14:21.569519+05:30
Bhubaneswar,Odisha,20.2961,85.8245,28.5,79,0.0,1003.6,8.8,32.0,91,26.3,19.1,7,5,4,1,2026-03-29T08:14:21.569525+05:30
Cuttack,Odisha,20.4625,85.8828,28.3,81,0.0,1005.5,8.85,35.3,91,26.3,19.1,7,5,4,1,2026-03-29T08:14:21.569570+05:30
Rourkela,Odisha,22.2604,84.8536,27.3,72,0.0,986.1,8.5,21.2,108,55.9,53.4,7,5,7,1,2026-03-29T08:14:21.569578+05:30
Raipur,Chhattisgarh,21.2514,81.6296,29.5,41,0.0,975.0,8.6,26.3,98,61.2,57.7,4,5,7,0,2026-03-29T08:14:21.569585+05:30
Bhilai,Chhattisgarh,21.1938,81.3509,29.3,46,0.0,975.4,8.6,26.6,78,55.5,52.0,4,5,7,1,2026-03-29T08:14:21.569591+05:30
Guwahati,Assam,26.1158,91.7086,22.2,86,0.0,1005.4,7.15,28.1,108,54.0,38.2,3,5,4,1,2026-03-29T08:14:21.569597+05:30
Agartala,Tripura,23.8315,91.2868,23.8,88,0.0,1009.4,8.2,36.4,121,49.4,44.4,3,0,4,1,2026-03-29T08:14:21.569603+05:30
Shillong,Meghalaya,25.5788,91.8933,13.8,78,0.0,856.5,5.65,39.2,68,58.6,26.1,3,5,3,0,2026-03-29T08:14:21.569609+05:30
Imphal,Manipur,24.817,93.9368,16.0,92,0.0,925.2,7.35,65.9,126,51.6,41.3,3,10,7,0,2026-03-29T08:14:21.569616+05:30
Aizawl,Mizoram,23.7271,92.7176,20.2,74,0.0,895.2,6.95,52.2,124,59.4,51.3,3,5,7,0,2026-03-29T08:14:21.569621+05:30
Kohima,Nagaland,25.6701,94.1077,14.2,88,0.0,855.9,7.15,81.0,105,49.4,34.7,3,10,7,0,2026-03-29T08:14:21.569627+05:30
Gangtok,Sikkim,27.3314,88.6138,13.4,79,0.0,837.0,8.1,20.5,63,14.4,12.8,3,5,7,0,2026-03-29T08:14:21.569633+05:30
Siliguri,West Bengal,26.7271,88.3953,18.8,84,0.0,996.9,6.7,11.9,134,57.5,49.6,3,10,7,1,2026-03-29T08:14:24.785415+05:30
Durgapur,West Bengal,23.5204,87.3119,24.7,80,0.0,997.1,8.45,21.6,137,74.5,68.9,3,5,7,1,2026-03-29T08:14:24.785445+05:30
Asansol,West Bengal,23.6739,86.9524,24.9,77,0.0,995.5,8.45,20.9,136,78.2,71.7,3,5,7,1,2026-03-29T08:14:24.785455+05:30
Pondicherry,Puducherry,11.9139,79.8145,27.7,86,0.0,1009.5,9.0,34.2,57,19.2,14.5,7,0,4,1,2026-03-29T08:14:24.785463+05:30
Port Blair,Andaman and Nicobar Islands,11.6234,92.7265,27.8,78,0.0,1009.1,8.85,16.6,65,21.5,16.9,7,0,4,1,2026-03-29T08:14:24.785471+05:30
Haridwar,Uttarakhand,29.9457,78.1642,23.7,72,0.0,974.5,6.05,27.7,86,37.3,35.0,3,5,7,1,2026-03-29T08:14:24.785479+05:30
Rishikesh,Uttarakhand,30.0869,78.2676,23.6,70,0.0,967.1,4.45,25.6,73,30.0,27.8,3,5,3,1,2026-03-29T08:14:24.785486+05:30
Nainital,Uttarakhand,29.3919,79.4542,18.7,63,0.0,806.1,7.1,41.0,76,31.8,28.4,3,5,7,0,2026-03-29T08:14:24.785494+05:30
Mussoorie,Uttarakhand,30.4599,78.0664,16.8,70,0.0,802.3,4.4,22.3,84,32.4,28.8,3,5,3,0,2026-03-29T08:14:24.785501+05:30
Dharamshala,Himachal Pradesh,32.219,76.3234,16.9,67,0.3,868.1,6.95,29.2,52,18.3,10.7,6,5,7,0,2026-03-29T08:14:24.785508+05:30
Dalhousie,Himachal Pradesh,32.5387,75.971,13.7,77,0.6,801.9,7.4,24.1,75,38.2,30.4,6,5,7,0,2026-03-29T08:14:24.785516+05:30
Patiala,Punjab,30.3398,76.3869,21.9,80,0.0,978.1,6.6,25.6,107,168.6,51.3,3,5,7,1,2026-03-29T08:14:24.785523+05:30
Bhatinda,Punjab,30.211,74.9455,22.4,73,0.0,983.3,7.25,36.0,79,106.6,35.7,3,5,7,1,2026-03-29T08:14:24.785553+05:30
Rohtak,Haryana,28.8955,76.6066,21.9,75,0.0,981.3,6.25,28.8,140,389.3,88.2,3,5,7,1,2026-03-29T08:14:24.785564+05:30
Panipat,Haryana,29.3909,76.9635,21.4,80,0.0,980.5,6.1,27.4,177,638.9,99.2,3,5,7,1,2026-03-29T08:14:24.785570+05:30
Mathura,Uttar Pradesh,27.4924,77.6737,23.4,68,0.0,986.7,7.0,20.5,194,345.5,62.6,3,5,7,1,2026-03-29T08:14:24.785577+05:30
Vrindavan,Uttar Pradesh,27.5823,77.7027,23.0,70,0.0,987.2,6.9,23.0,194,345.5,62.6,3,5,7,1,2026-03-29T08:14:24.785583+05:30
Ayodhya,Uttar Pradesh,26.7922,82.1998,22.4,80,0.0,996.5,7.35,22.7,124,72.2,63.1,3,5,7,1,2026-03-29T08:14:24.785589+05:30
Ratlam,Madhya Pradesh,23.3315,75.0367,23.4,80,0.0,954.9,8.1,32.4,34,18.8,13.4,3,5,7,1,2026-03-29T08:14:24.785596+05:30
Sagar,Madhya Pradesh,23.8388,78.7378,26.9,52,0.0,950.1,8.2,32.4,50,16.1,11.5,4,5,7,1,2026-03-29T08:14:24.785602+05:30
Satna,Madhya Pradesh,24.6005,80.8322,25.8,52,0.0,971.2,8.15,37.4,68,41.2,21.6,4,5,7,0,2026-03-29T08:14:24.785608+05:30
Akola,Maharashtra,20.7002,77.0082,25.3,58,0.0,976.2,8.5,27.7,41,16.6,15.3,4,5,7,1,2026-03-29T08:14:24.785615+05:30
Amravati,Maharashtra,20.9374,77.7796,25.0,65,0.0,968.0,8.5,27.0,36,14.2,13.5,7,5,7,1,2026-03-29T08:14:24.785622+05:30
Latur,Maharashtra,18.4088,76.5604,24.8,44,0.0,940.7,8.85,29.9,54,19.8,11.4,0,5,7,0,2026-03-29T08:14:24.785629+05:30
Nanded,Maharashtra,19.1383,77.3091,25.7,53,0.0,969.9,8.7,19.4,55,19.9,18.0,4,5,7,0,2026-03-29T08:14:24.785636+05:30
Gulbarga,Karnataka,17.3297,76.8343,26.8,48,0.0,959.9,8.9,32.0,72,14.6,12.6,4,5,7,0,2026-03-29T08:14:24.785642+05:30
Bidar,Karnataka,17.9104,77.5199,26.3,43,0.0,936.4,8.9,30.2,80,27.1,25.0,4,5,7,0,2026-03-29T08:14:24.785648+05:30
Hospet,Karnataka,15.2689,76.3909,25.9,82,0.0,957.6,9.1,17.6,109,39.1,35.7,7,5,7,1,2026-03-29T08:14:24.785654+05:30
Tirupur,Tamil Nadu,11.1085,77.3411,26.6,77,0.0,976.4,9.45,41.8,103,54.6,51.5,7,5,7,1,2026-03-29T08:14:24.785661+05:30
Alappuzha,Kerala,9.4981,76.3388,27.8,81,0.0,1008.7,8.85,25.9,87,33.6,30.6,7,0,4,1,2026-03-29T08:14:24.785667+05:30
Munnar,Kerala,10.0889,77.0595,22.2,71,0.0,857.0,8.8,34.2,83,28.4,26.8,3,5,7,1,2026-03-29T08:14:24.785674+05:30
Silchar,Assam,24.8333,92.7789,22.0,85,0.0,1009.1,8.2,32.4,149,60.8,50.1,3,0,4,1,2026-03-29T08:14:24.785680+05:30
Dibrugarh,Assam,27.4728,94.912,19.9,89,0.0,1000.2,7.45,14.0,92,26.9,20.0,3,10,4,1,2026-03-29T08:14:24.785687+05:30
