city,state,latitude,longitude,temp,humidity,rain,pressure,uv_index,wind_gusts,aqi,pm10,pm2_5,no2,co,o3,so2,mosquito_risk,arthritis_risk,migraine_risk,frizz_risk,updated_at
Delhi,Delhi,28.6139,77.209,31.7,67,0.0,975.4,7.05,38.2,321,413.5,122.0,38.4,815.0,65.0,17.1,3,5,7,1,2026-07-14T20:24:02.812415+05:30
Mumbai,Maharashtra,19.076,72.8777,27.9,79,0.0,1006.9,6.55,41.0,73,36.7,17.3,8.8,290.0,44.0,6.4,7,5,4,1,2026-07-14T20:24:02.812454+05:30
Bangalore,Karnataka,12.9716,77.5946,27.8,45,0.0,911.4,8.55,40.3,58,25.9,18.7,32.0,450.0,54.0,6.8,4,5,7,0,2026-07-14T20:24:02.812470+05:30
Hyderabad,Telangana,17.385,78.4867,30.6,52,0.0,950.9,8.05,47.5,59,26.3,18.4,10.7,267.0,76.0,4.9,0,5,7,1,2026-07-14T20:24:02.812479+05:30
Chennai,Tamil Nadu,13.0827,80.2707,32.3,63,0.0,1003.8,8.25,37.1,109,40.3,27.2,11.8,239.0,131.0,6.8,3,5,4,1,2026-07-14T20:24:02.812488+05:30
Kolkata,West Bengal,22.5726,88.3639,28.1,91,0.0,999.3,8.7,27.4,140,44.8,43.7,30.7,989.0,46.0,15.5,7,5,7,1,2026-07-14T20:24:02.812496+05:30
Pune,Maharashtra,18.5204,73.8567,24.3,82,0.0,946.8,8.4,47.9,57,29.2,15.7,7.9,179.0,49.0,5.5,3,5,7,1,2026-07-14T20:24:02.812525+05:30
Ahmedabad,Gujarat,23.0225,72.5714,31.5,68,0.0,997.4,6.1,43.9,66,28.6,16.3,10.4,201.0,59.0,4.7,3,5,7,1,2026-07-14T20:24:02.812536+05:30
Jaipur,Rajasthan,26.9124,75.7873,31.4,56,0.0,954.2,8.1,41.0,428,571.8,112.2,10.3,174.0,61.0,4.8,0,5,7,1,2026-07-14T20:24:02.812543+05:30
Lucknow,Uttar Pradesh,26.8467,80.9462,31.3,71,0.0,986.2,7.8,24.5,156,162.1,75.7,21.4,296.0,68.0,9.1,3,5,7,1,2026-07-14T20:24:02.812552+05:30
Kanpur,Uttar Pradesh,26.4499,80.3319,31.9,69,0.0,984.7,7.55,31.0,145,140.2,61.7,16.8,193.0,75.0,7.0,3,5,7,1,2026-07-14T20:24:02.812559+05:30
Chandigarh,Chandigarh,30.7333,76.7794,29.5,82,0.0,961.3,7.7,24.5,172,108.5,72.4,28.3,1182.0,126.0,17.0,7,5,7,1,2026-07-14T20:24:02.812566+05:30
Srinagar,Jammu and Kashmir,34.0837,74.7973,23.7,69,0.0,837.5,8.85,22.0,113,21.0,16.2,20.3,1201.0,82.0,3.0,3,5,7,1,2026-07-14T20:24:02.812573+05:30
Jammu,Jammu and Kashmir,32.7266,74.857,30.0,73,0.0,965.1,8.25,22.7,153,92.0,56.9,30.6,767.0,121.0,7.2,7,5,7,1,2026-07-14T20:24:02.812579+05:30
Amritsar,Punjab,31.634,74.8723,30.5,77,0.0,973.0,8.2,14.8,188,136.4,88.7,36.6,716.0,108.0,11.5,3,5,7,1,2026-07-14T20:24:02.812585+05:30
Ludhiana,Punjab,30.901,75.8573,30.9,73,0.0,970.9,7.85,24.1,187,119.2,83.8,39.0,749.0,91.0,10.4,3,5,7,1,2026-07-14T20:24:02.812591+05:30
Jalandhar,Punjab,31.326,75.5762,30.6,80,0.0,971.9,7.5,19.8,193,161.1,92.7,38.9,1016.0,117.0,10.2,3,5,7,1,2026-07-14T20:24:02.812597+05:30
Dehradun,Uttarakhand,30.6284,78.0322,19.2,98,0.0,826.7,8.1,27.0,125,78.2,38.2,18.3,270.0,102.0,3.9,3,10,7,1,2026-07-14T20:24:02.812604+05:30
Shimla,Himachal Pradesh,31.1048,77.1734,16.3,92,0.0,780.9,7.85,32.8,153,88.2,51.8,15.1,367.0,130.0,12.6,3,10,7,0,2026-07-14T20:24:02.812610+05:30
Manali,Himachal Pradesh,32.2396,77.1887,19.5,89,0.0,815.5,9.55,31.7,129,29.7,15.9,33.8,196.0,111.0,0.9,3,10,7,1,2026-07-14T20:24:02.812621+05:30
Gurgaon,Haryana,28.4595,77.0266,31.3,70,0.0,973.8,6.8,34.2,393,341.8,110.4,38.2,629.0,56.0,13.2,3,5,7,1,2026-07-14T20:24:02.812627+05:30
Noida,Uttar Pradesh,28.5355,77.391,32.0,67,0.0,976.8,7.05,30.6,393,341.8,110.4,38.2,825.0,56.0,13.2,3,5,7,1,2026-07-14T20:24:02.812633+05:30
Ghaziabad,Uttar Pradesh,28.6692,77.4538,32.0,66,0.0,975.1,7.25,30.6,226,431.2,134.1,22.5,483.0,96.0,14.9,3,5,7,1,2026-07-14T20:24:02.812639+05:30
Faridabad,Haryana,28.4089,77.3178,32.4,64,0.0,976.2,7.45,43.9,393,341.8,110.4,38.2,519.0,56.0,13.2,3,5,7,1,2026-07-14T20:24:02.812645+05:30
Meerut,Uttar Pradesh,28.9845,77.7064,31.7,76,0.0,973.9,7.55,29.9,226,431.2,134.1,22.5,544.0,96.0,14.9,3,5,7,1,2026-07-14T20:24:02.812652+05:30
Agra,Uttar Pradesh,27.1767,78.0081,31.8,64,0.0,980.8,7.95,28.4,153,176.5,68.0,14.3,270.0,74.0,6.2,3,5,7,1,2026-07-14T20:24:02.812658+05:30
Varanasi,Uttar Pradesh,25.3176,82.9739,31.4,71,0.0,990.6,6.5,22.3,153,161.1,76.4,16.8,604.0,87.0,12.6,3,5,7,1,2026-07-14T20:24:02.812664+05:30
Prayagraj,Uttar Pradesh,25.4358,81.8463,32.0,73,0.0,989.0,7.7,29.2,145,160.7,75.2,21.0,281.0,72.0,11.7,3,5,7,1,2026-07-14T20:24:02.812671+05:30
Gorakhpur,Uttar Pradesh,26.7606,83.3732,30.1,86,0.0,990.5,7.75,32.0,156,132.2,78.2,24.5,537.0,93.0,12.3,3,5,7,1,2026-07-14T20:24:02.812678+05:30
Bareilly,Uttar Pradesh,28.367,79.4304,30.8,77,0.0,979.4,8.0,28.8,179,175.6,94.5,21.9,382.0,82.0,11.0,3,5,7,1,2026-07-14T20:24:02.812685+05:30
Aligarh,Uttar Pradesh,27.8974,78.088,31.4,71,0.0,978.2,7.8,46.1,271,264.5,97.8,20.4,248.0,68.0,6.9,3,5,7,1,2026-07-14T20:24:02.812691+05:30
Moradabad,Uttar Pradesh,28.8386,78.7733,30.2,82,0.0,976.1,7.5,30.2,192,227.7,112.5,30.4,612.0,82.0,14.3,3,5,7,1,2026-07-14T20:24:02.812698+05:30
Saharanpur,Uttar Pradesh,29.9637,77.546,30.7,79,0.0,968.1,7.35,30.6,190,195.6,93.4,29.5,522.0,105.0,18.2,3,5,7,1,2026-07-14T20:24:02.812704+05:30
Jhansi,Uttar Pradesh,25.4484,78.5685,30.8,66,0.0,972.2,8.4,41.4,109,110.8,45.8,6.5,162.0,74.0,5.2,3,5,7,1,2026-07-14T20:24:06.142477+05:30
Surat,Gujarat,21.1702,72.8311,28.7,77,0.0,1003.7,4.3,53.6,73,28.9,19.0,17.2,284.0,30.0,28.8,7,5,0,1,2026-07-14T20:24:06.142531+05:30
Vadodara,Gujarat,22.3072,73.1812,29.2,74,0.0,1000.4,5.35,48.2,65,26.4,17.2,11.6,158.0,48.0,9.3,7,5,0,1,2026-07-14T20:24:06.142543+05:30
Rajkot,Gujarat,22.3039,70.8022,29.1,71,0.0,990.0,7.2,52.2,59,31.3,14.7,4.0,110.0,47.0,3.5,7,5,7,1,2026-07-14T20:24:06.142551+05:30
Thane,Maharashtra,19.2183,72.9781,27.7,81,0.0,1006.2,6.9,34.9,73,36.7,17.3,8.8,322.0,44.0,6.4,7,5,4,1,2026-07-14T20:24:06.142560+05:30
Nagpur,Maharashtra,21.1458,79.0882,30.1,54,0.0,969.3,8.15,47.9,80,33.1,23.1,11.3,206.0,73.0,12.1,0,5,7,1,2026-07-14T20:24:06.142569+05:30
Nashik,Maharashtra,19.9975,73.7898,23.7,88,0.0,943.5,7.2,50.8,58,20.9,11.7,7.2,149.0,51.0,4.1,3,5,7,1,2026-07-14T20:24:06.142577+05:30
Aurangabad,Maharashtra,19.8762,75.3433,26.0,66,0.0,941.8,7.7,50.4,62,27.8,17.5,5.5,146.0,83.0,6.5,7,5,7,1,2026-07-14T20:24:06.142585+05:30
Solapur,Maharashtra,17.6599,75.9064,29.4,50,0.0,955.4,8.5,38.9,58,25.1,16.9,4.3,143.0,77.0,2.4,4,5,7,1,2026-07-14T20:24:06.142593+05:30
Kolhapur,Maharashtra,16.705,74.2433,23.5,89,0.0,947.3,8.8,43.9,54,27.1,17.2,7.1,171.0,46.0,2.7,3,5,7,1,2026-07-14T20:24:06.142601+05:30
Goa,Goa,15.2993,74.124,26.7,86,0.0,998.1,7.65,31.3,70,33.3,17.2,2.7,275.0,49.0,1.4,7,5,7,1,2026-07-14T20:24:06.142609+05:30
Jodhpur,Rajasthan,26.2389,73.0243,33.1,46,0.0,976.6,8.2,47.5,201,332.5,71.7,5.1,134.0,60.0,2.2,0,5,7,1,2026-07-14T20:24:06.142617+05:30
Udaipur,Rajasthan,24.5854,73.7125,27.3,70,0.0,942.0,8.1,47.9,72,55.1,23.5,4.1,134.0,65.0,2.7,7,5,7,1,2026-07-14T20:24:06.142624+05:30
Kota,Rajasthan,25.2138,75.8648,30.9,59,0.0,973.2,8.3,38.5,89,56.2,28.5,8.3,170.0,67.0,5.6,0,5,7,1,2026-07-14T20:24:06.142633+05:30
Bikaner,Rajasthan,28.0229,73.3119,35.1,40,0.0,974.5,8.4,39.6,170,204.9,58.6,2.2,131.0,72.0,2.7,0,5,10,1,2026-07-14T20:24:06.142640+05:30
Ajmer,Rajasthan,26.4499,74.6399,29.6,57,0.0,949.3,8.25,56.2,100,103.8,37.7,5.9,136.0,62.0,3.2,4,5,7,1,2026-07-14T20:24:06.142648+05:30
Gwalior,Madhya Pradesh,26.2183,78.1828,30.4,71,0.0,976.8,8.05,42.5,114,104.1,41.9,6.5,170.0,69.0,3.0,3,5,7,1,2026-07-14T20:24:06.142656+05:30
Indore,Madhya Pradesh,22.7196,75.8577,26.7,68,0.0,944.4,8.4,52.2,68,34.6,22.8,11.4,275.0,67.0,5.3,7,5,7,1,2026-07-14T20:24:06.142663+05:30
Bhopal,Madhya Pradesh,23.2599,77.4126,27.1,68,0.0,949.5,8.55,42.1,79,28.7,19.0,6.5,233.0,70.0,3.3,7,5,7,1,2026-07-14T20:24:06.142671+05:30
Jabalpur,Madhya Pradesh,23.1815,79.9864,28.4,70,0.0,957.0,8.1,38.2,92,90.3,38.3,6.5,201.0,75.0,4.8,7,5,7,1,2026-07-14T20:24:06.142679+05:30
Ujjain,Madhya Pradesh,23.1765,75.7885,27.1,63,0.0,949.8,8.5,50.8,68,33.9,21.8,6.3,235.0,71.0,3.9,7,5,7,1,2026-07-14T20:24:06.142686+05:30
Visakhapatnam,Andhra Pradesh,17.6868,83.2185,32.4,61,0.0,997.1,8.5,26.3,140,87.5,51.1,45.4,378.0,56.0,67.0,3,5,7,1,2026-07-14T20:24:06.142694+05:30
Vijayawada,Andhra Pradesh,16.5062,80.648,31.8,54,0.0,998.2,6.65,48.6,82,36.6,27.1,11.5,209.0,70.0,7.8,0,5,7,1,2026-07-14T20:24:06.142701+05:30
Guntur,Andhra Pradesh,16.3067,80.4365,32.5,49,0.0,999.5,6.35,49.3,72,35.0,26.1,11.6,237.0,70.0,7.0,0,5,7,1,2026-07-14T20:24:06.142709+05:30
Nellore,Andhra Pradesh,14.4426,79.9865,33.7,40,0.0,1002.1,8.25,48.2,67,42.3,26.9,8.6,177.0,99.0,4.5,0,5,4,1,2026-07-14T20:24:06.142717+05:30
Kurnool,Andhra Pradesh,15.8281,78.0373,32.4,45,0.0,974.5,7.3,43.2,57,26.3,17.2,8.5,223.0,90.0,8.0,0,5,7,1,2026-07-14T20:24:06.142726+05:30
Kakinada,Andhra Pradesh,16.9891,82.2475,32.1,61,0.0,1001.7,8.15,52.6,97,38.2,24.2,7.5,184.0,96.0,7.6,3,5,4,1,2026-07-14T20:24:06.142733+05:30
Tirupati,Andhra Pradesh,13.6288,79.4192,32.5,38,0.0,988.3,8.4,38.5,77,64.5,44.5,44.9,198.0,59.0,7.2,0,5,7,1,2026-07-14T20:24:06.142740+05:30
Warangal,Telangana,17.9689,79.5941,29.5,64,0.0,975.3,7.25,43.2,70,27.7,22.0,9.8,211.0,66.0,5.8,7,5,7,1,2026-07-14T20:24:06.142747+05:30
Nizamabad,Telangana,18.6725,78.0941,28.4,65,0.0,961.9,5.4,43.9,64,27.4,20.1,6.5,254.0,84.0,5.3,7,5,3,1,2026-07-14T20:24:06.142755+05:30
Mysore,Karnataka,12.2958,76.6396,25.3,69,0.0,928.4,8.9,34.2,55,20.2,13.8,9.5,179.0,79.0,2.6,7,5,7,1,2026-07-14T20:24:06.142762+05:30
Mangalore,Karnataka,12.9141,74.856,27.2,81,0.0,1007.5,8.5,38.9,60,26.5,15.2,5.9,163.0,47.0,2.4,7,5,4,1,2026-07-14T20:24:06.142769+05:30
Hubli-Dharwad,Karnataka,15.3647,75.124,24.2,82,0.0,940.6,9.0,44.6,53,24.9,15.5,5.4,140.0,54.0,1.6,3,5,7,1,2026-07-14T20:24:06.142776+05:30
Belgaum,Karnataka,15.8497,74.4977,22.0,92,0.0,925.3,8.4,41.0,53,19.1,12.0,7.2,138.0,39.0,2.0,3,5,7,1,2026-07-14T20:24:09.467019+05:30
Coimbatore,Tamil Nadu,11.0168,76.9558,26.1,83,0.0,961.1,8.35,52.6,55,17.6,13.4,8.5,169.0,62.0,3.5,7,5,7,1,2026-07-14T20:24:09.467053+05:30
Madurai,Tamil Nadu,9.9252,78.1198,32.8,54,0.0,991.2,8.55,29.9,73,51.0,24.0,12.8,174.0,86.0,4.9,0,5,7,1,2026-07-14T20:24:09.467065+05:30
Trichy,Tamil Nadu,10.7905,78.7047,34.9,36,0.0,997.2,8.65,46.4,67,49.5,34.0,26.8,199.0,64.0,6.6,0,5,7,1,2026-07-14T20:24:09.467074+05:30
Salem,Tamil Nadu,11.6643,78.146,30.0,55,0.0,975.7,8.35,28.4,74,29.7,19.2,12.6,257.0,83.0,5.2,4,5,7,1,2026-07-14T20:24:09.467082+05:30
Tirunelveli,Tamil Nadu,8.7139,77.7567,31.9,51,0.0,1001.1,7.55,38.2,51,15.5,10.9,5.1,148.0,65.0,2.2,0,5,4,1,2026-07-14T20:24:09.467090+05:30
Vellore,Tamil Nadu,12.9165,79.1325,33.4,34,0.0,981.9,8.9,42.8,74,63.6,41.8,36.7,182.0,48.0,7.0,0,5,7,0,2026-07-14T20:24:09.467098+05:30
Erode,Tamil Nadu,11.341,77.7172,29.9,65,0.0,987.2,8.6,53.6,61,23.5,16.5,14.4,185.0,71.0,3.7,7,5,7,1,2026-07-14T20:24:09.467107+05:30
Kochi,Kerala,9.9312,76.2673,27.8,84,0.0,1009.7,8.3,42.1,56,24.8,16.5,11.7,146.0,41.0,3.8,7,0,4,1,2026-07-14T20:24:09.467115+05:30
Thiruvananthapuram,Kerala,8.5241,76.9366,26.6,88,0.0,1008.8,7.95,50.8,54,23.3,12.7,4.2,115.0,54.0,1.3,7,0,4,1,2026-07-14T20:24:09.467122+05:30
Kozhikode,Kerala,11.2588,75.7804,27.3,83,0.0,1008.5,8.15,46.4,55,30.5,14.9,1.2,119.0,55.0,1.1,7,0,4,1,2026-07-14T20:24:09.467129+05:30
Thrissur,Kerala,10.5276,76.2144,26.8,86,0.0,1008.0,7.9,43.9,55,23.1,15.3,7.6,168.0,45.0,2.8,7,0,4,1,2026-07-14T20:24:09.467137+05:30
Kannur,Kerala,11.8745,75.3704,27.5,81,0.0,1007.8,8.4,48.2,57,25.6,14.6,6.3,149.0,46.0,2.0,7,5,4,1,2026-07-14T20:24:09.467144+05:30
Patna,Bihar,25.5941,85.1376,31.3,79,0.0,993.9,7.6,19.8,153,123.9,75.4,35.7,480.0,88.0,18.0,3,5,7,1,2026-07-14T20:24:09.467151+05:30
Gaya,Bihar,24.7914,85.0002,31.0,77,0.0,987.4,8.45,21.6,157,132.2,78.2,26.8,476.0,83.0,14.0,3,5,7,1,2026-07-14T20:24:09.467158+05:30
Muzaffarpur,Bihar,26.1209,85.3647,30.8,79,0.0,993.8,7.55,20.9,153,116.4,76.4,29.5,486.0,99.0,17.1,3,5,7,1,2026-07-14T20:24:09.467166+05:30
Bhagalpur,Bihar,25.2425,87.0117,29.8,84,0.0,994.8,8.2,27.7,154,59.3,51.3,28.7,488.0,113.0,22.9,7,5,7,1,2026-07-14T20:24:09.467173+05:30
Ranchi,Jharkhand,23.3441,85.3096,25.8,90,0.0,932.3,8.75,40.0,151,92.9,50.9,17.5,456.0,73.0,9.5,7,5,7,1,2026-07-14T20:24:09.467180+05:30
Jamshedpur,Jharkhand,22.8046,86.2029,27.6,93,0.0,984.6,6.2,31.3,157,79.9,59.5,22.4,449.0,104.0,43.8,7,5,7,1,2026-07-14T20:24:09.467187+05:30
Dhanbad,Jharkhand,23.7957,86.4304,27.3,92,0.0,973.7,8.8,28.8,166,75.4,50.9,41.1,511.0,63.0,92.0,7,5,7,1,2026-07-14T20:24:09.467195+05:30
Bokaro,Jharkhand,23.6693,86.1511,27.5,95,0.0,977.6,8.7,29.5,168,95.2,58.8,36.6,486.0,69.0,92.0,7,5,7,1,2026-07-14T20:24:09.467202+05:30
Bhubaneswar,Odisha,20.2961,85.8245,27.1,93,0.0,995.9,3.95,37.8,115,81.0,59.4,27.4,357.0,59.0,20.3,7,5,3,1,2026-07-14T20:24:09.467209+05:30
Cuttack,Odisha,20.4625,85.8828,27.3,93,0.0,997.7,2.05,29.2,115,81.0,59.4,27.4,348.0,59.0,20.3,7,5,3,1,2026-07-14T20:24:09.467216+05:30
Rourkela,Odisha,22.2604,84.8536,27.3,89,0.0,979.1,7.8,30.2,145,93.4,54.9,15.8,886.0,91.0,12.4,7,5,7,1,2026-07-14T20:24:09.467224+05:30
Raipur,Chhattisgarh,21.2514,81.6296,29.0,76,0.0,969.3,8.75,33.8,132,73.6,42.5,30.5,377.0,64.0,52.6,7,5,7,1,2026-07-14T20:24:09.467291+05:30
Bhilai,Chhattisgarh,21.1938,81.3509,29.7,70,0.0,969.9,8.75,35.6,116,70.8,38.2,23.2,978.0,68.0,40.6,7,5,7,1,2026-07-14T20:24:09.467306+05:30
Guwahati,Assam,26.1158,91.7086,27.6,96,0.1,995.4,8.1,25.2,53,13.7,13.4,10.9,327.0,44.0,2.2,10,5,7,1,2026-07-14T20:24:09.467315+05:30
Agartala,Tripura,23.8315,91.2868,28.6,84,0.0,999.6,8.65,25.2,91,27.9,27.0,17.1,234.0,66.0,3.4,7,5,7,1,2026-07-14T20:24:09.467324+05:30
Shillong,Meghalaya,25.5788,91.8933,20.6,93,0.0,853.8,8.65,25.9,60,8.6,8.1,9.3,339.0,68.0,2.3,3,5,7,1,2026-07-14T20:24:09.467331+05:30
Imphal,Manipur,24.817,93.9368,25.7,86,0.0,919.3,9.2,25.9,55,17.1,16.1,18.5,703.0,39.0,3.4,7,5,7,1,2026-07-14T20:24:09.467338+05:30
Aizawl,Mizoram,23.7271,92.7176,20.9,98,0.0,887.9,8.95,19.8,52,5.8,5.4,6.3,224.0,43.0,0.6,3,5,7,1,2026-07-14T20:24:09.467345+05:30
Kohima,Nagaland,25.6701,94.1077,22.0,90,0.0,852.3,8.15,24.8,44,8.0,7.9,11.3,297.0,43.0,1.2,3,5,7,1,2026-07-14T20:24:09.467352+05:30
Gangtok,Sikkim,27.3314,88.6138,19.7,95,0.1,835.0,8.7,27.7,45,5.6,5.2,7.2,371.0,84.0,1.1,6,10,7,1,2026-07-14T20:24:09.467360+05:30
Siliguri,West Bengal,26.7271,88.3953,28.3,92,0.0,986.9,8.45,27.0,68,21.0,19.1,13.2,1061.0,82.0,4.1,7,5,7,1,2026-07-14T20:24:12.814382+05:30
Durgapur,West Bengal,23.5204,87.3119,27.9,95,0.0,988.6,7.65,26.3,164,81.0,66.4,28.7,906.0,94.0,33.6,7,5,7,1,2026-07-14T20:24:12.814413+05:30
Asansol,West Bengal,23.6739,86.9524,27.6,93,0.0,987.3,7.4,26.3,160,69.6,49.5,26.0,623.0,91.0,27.8,7,5,7,1,2026-07-14T20:24:12.814426+05:30
Pondicherry,Puducherry,11.9139,79.8145,30.4,83,0.0,1005.2,8.05,43.2,122,41.1,28.1,14.0,169.0,118.0,5.3,3,5,4,1,2026-07-14T20:24:12.814436+05:30
Port Blair,Andaman and Nicobar Islands,11.6234,92.7265,28.2,79,0.0,1006.4,8.3,61.2,50,15.2,7.2,0.4,90.0,47.0,0.3,7,5,4,1,2026-07-14T20:24:12.814445+05:30
Haridwar,Uttarakhand,29.9457,78.1642,29.6,86,0.0,966.5,7.5,32.8,178,195.1,91.0,19.9,416.0,120.0,15.4,7,5,7,1,2026-07-14T20:24:12.814453+05:30
Rishikesh,Uttarakhand,30.0869,78.2676,28.3,87,0.0,959.6,7.6,28.4,165,174.2,74.3,6.5,408.0,132.0,10.3,7,5,7,1,2026-07-14T20:24:12.814461+05:30
Nainital,Uttarakhand,29.3919,79.4542,17.6,95,0.0,802.1,8.5,27.7,165,177.4,79.6,11.4,335.0,97.0,8.7,3,10,7,1,2026-07-14T20:24:12.814470+05:30
Mussoorie,Uttarakhand,30.4599,78.0664,17.6,99,0.0,799.6,8.0,38.2,162,129.9,66.6,23.8,366.0,112.0,12.1,3,10,7,1,2026-07-14T20:24:12.814478+05:30
Dharamshala,Himachal Pradesh,32.219,76.3234,22.1,80,0.0,864.3,8.3,30.6,106,49.1,27.8,9.9,369.0,109.0,1.8,3,5,7,1,2026-07-14T20:24:12.814487+05:30
Dalhousie,Himachal Pradesh,32.5387,75.971,17.5,98,0.0,800.6,8.6,31.3,155,112.9,61.5,19.3,411.0,147.0,5.2,3,10,7,1,2026-07-14T20:24:12.814496+05:30
Patiala,Punjab,30.3398,76.3869,31.0,73,0.0,970.5,7.5,45.7,187,373.5,115.9,31.3,580.0,85.0,9.7,3,5,7,1,2026-07-14T20:24:12.814557+05:30
Bhatinda,Punjab,30.211,74.9455,33.7,52,0.0,976.1,8.2,28.1,182,168.6,85.4,31.9,351.0,92.0,10.6,0,5,7,1,2026-07-14T20:24:12.814568+05:30
Rohtak,Haryana,28.8955,76.6066,32.1,73,0.0,974.0,7.35,36.7,500,358.6,106.2,23.3,299.0,66.0,5.5,3,5,7,1,2026-07-14T20:24:12.814577+05:30
Panipat,Haryana,29.3909,76.9635,31.2,71,0.0,972.5,7.35,42.1,792,564.4,149.5,22.6,608.0,72.0,8.2,3,5,7,1,2026-07-14T20:24:12.814585+05:30
Mathura,Uttar Pradesh,27.4924,77.6737,31.8,68,0.0,979.7,7.9,29.9,644,689.2,131.8,19.1,320.0,69.0,4.7,3,5,7,1,2026-07-14T20:24:12.814593+05:30
Vrindavan,Uttar Pradesh,27.5823,77.7027,31.9,66,0.0,980.0,7.9,29.2,644,689.2,131.8,19.1,270.0,69.0,4.7,3,5,7,1,2026-07-14T20:24:12.814601+05:30
Ayodhya,Uttar Pradesh,26.7922,82.1998,30.5,85,0.0,988.3,7.95,34.2,161,177.0,85.2,14.1,400.0,103.0,8.8,3,5,7,1,2026-07-14T20:24:12.814609+05:30
Ratlam,Madhya Pradesh,23.3315,75.0367,27.3,63,0.0,950.7,8.4,50.8,66,31.5,19.8,4.2,159.0,78.0,3.9,7,5,7,1,2026-07-14T20:24:12.814617+05:30
Sagar,Madhya Pradesh,23.8388,78.7378,28.2,62,0.0,945.9,8.6,44.3,93,69.6,33.9,4.3,163.0,77.0,3.7,7,5,7,1,2026-07-14T20:24:12.814625+05:30
Satna,Madhya Pradesh,24.6005,80.8322,29.8,67,0.0,965.9,6.9,41.4,108,74.0,37.0,8.0,189.0,77.0,4.4,7,5,7,1,2026-07-14T20:24:12.814633+05:30
Akola,Maharashtra,20.7002,77.0082,29.6,58,0.0,971.8,5.35,51.1,63,27.7,18.6,8.5,149.0,75.0,6.1,4,5,3,1,2026-07-14T20:24:12.814645+05:30
Amravati,Maharashtra,20.9374,77.7796,29.4,59,0.0,963.9,7.65,50.4,63,27.3,18.3,8.4,153.0,77.0,6.8,4,5,7,1,2026-07-14T20:24:12.814656+05:30
Latur,Maharashtra,18.4088,76.5604,28.2,55,0.0,937.7,7.15,41.0,59,26.7,19.3,5.7,254.0,78.0,3.1,4,5,7,1,2026-07-14T20:24:12.814664+05:30
Nanded,Maharashtra,19.1383,77.3091,29.2,63,0.0,965.6,8.5,41.0,65,27.9,20.3,8.4,285.0,76.0,4.1,7,5,7,1,2026-07-14T20:24:12.814672+05:30
Gulbarga,Karnataka,17.3297,76.8343,30.7,49,0.0,956.5,8.35,44.3,57,29.1,18.7,11.2,172.0,71.0,3.3,0,5,7,1,2026-07-14T20:24:12.814680+05:30
Bidar,Karnataka,17.9104,77.5199,27.8,62,0.0,933.3,7.25,41.0,60,26.8,19.3,13.6,240.0,61.0,4.5,7,5,7,1,2026-07-14T20:24:12.814686+05:30
Hospet,Karnataka,15.2689,76.3909,28.7,58,0.0,954.9,8.3,43.2,53,25.6,15.8,5.1,141.0,76.0,2.0,4,5,7,1,2026-07-14T20:24:12.814693+05:30
Tirupur,Tamil Nadu,11.1085,77.3411,27.1,79,0.0,974.2,8.35,58.0,63,27.6,19.2,17.1,157.0,64.0,4.7,7,5,7,1,2026-07-14T20:24:12.814699+05:30
Alappuzha,Kerala,9.4981,76.3388,28.0,84,0.0,1009.7,8.05,42.1,56,26.5,15.7,8.5,91.0,49.0,2.8,7,0,4,1,2026-07-14T20:24:12.814705+05:30
Munnar,Kerala,10.0889,77.0595,18.7,99,0.0,857.4,8.6,31.0,50,15.8,11.9,8.4,125.0,51.0,2.3,3,10,7,1,2026-07-14T20:24:12.814712+05:30
Silchar,Assam,24.8333,92.7789,28.5,94,0.1,998.8,8.85,19.1,87,23.7,22.5,7.2,334.0,84.0,4.8,10,5,7,1,2026-07-14T20:24:12.814719+05:30
Dibrugarh,Assam,27.4728,94.912,29.2,85,0.0,988.8,8.6,23.4,80,27.6,27.5,12.9,344.0,63.0,2.2,7,5,7,1,2026-07-14T20:24:12.814725+05:30
