city,state,latitude,longitude,temp,humidity,rain,pressure,uv_index,wind_gusts,aqi,pm10,pm2_5,mosquito_risk,arthritis_risk,migraine_risk,frizz_risk,updated_at
Delhi,Delhi,28.6139,77.209,27.9,46,0.0,980.0,7.05,25.6,193,240.3,54.4,4,5,7,0,2026-04-19T05:08:51.430969+05:30
Mumbai,Maharashtra,19.076,72.8777,29.6,77,0.0,1006.2,7.45,25.6,89,58.4,24.8,7,5,4,1,2026-04-19T05:08:51.431007+05:30
Bangalore,Karnataka,12.9716,77.5946,23.2,65,0.0,910.3,9.6,27.0,93,34.6,29.3,3,5,7,1,2026-04-19T05:08:51.431020+05:30
Hyderabad,Telangana,17.385,78.4867,27.1,74,0.0,951.7,9.25,55.4,102,44.0,34.9,7,5,7,1,2026-04-19T05:08:51.431029+05:30
Chennai,Tamil Nadu,13.0827,80.2707,27.5,87,0.0,1006.1,9.3,34.2,37,13.7,8.6,7,5,4,1,2026-04-19T05:08:51.431037+05:30
Kolkata,West Bengal,22.5726,88.3639,27.3,94,0.0,1003.8,8.9,30.6,83,26.1,20.1,7,5,4,1,2026-04-19T05:08:51.431047+05:30
Pune,Maharashtra,18.5204,73.8567,25.8,88,0.0,946.7,8.6,37.4,103,34.5,27.4,7,5,7,1,2026-04-19T05:08:51.431054+05:30
Ahmedabad,Gujarat,23.0225,72.5714,25.3,58,0.0,1000.4,7.75,23.4,63,15.5,9.8,4,5,4,1,2026-04-19T05:08:51.431061+05:30
Jaipur,Rajasthan,26.9124,75.7873,27.6,31,0.0,957.8,7.9,41.4,167,279.4,39.1,4,5,7,0,2026-04-19T05:08:51.431067+05:30
Lucknow,Uttar Pradesh,26.8467,80.9462,26.0,62,0.0,990.2,7.85,29.9,109,156.5,48.2,7,5,7,1,2026-04-19T05:08:51.431074+05:30
Kanpur,Uttar Pradesh,26.4499,80.3319,24.1,72,0.0,988.5,7.9,23.4,165,293.4,63.6,3,5,7,1,2026-04-19T05:08:51.431080+05:30
Chandigarh,Chandigarh,30.7333,76.7794,22.2,57,0.0,965.8,6.15,39.2,63,29.2,19.0,0,5,7,0,2026-04-19T05:08:51.431086+05:30
Srinagar,Jammu and Kashmir,34.0837,74.7973,10.6,94,0.9,843.0,7.55,23.0,72,39.6,22.3,6,10,7,0,2026-04-19T05:08:51.431105+05:30
Jammu,Jammu and Kashmir,32.7266,74.857,23.6,50,0.0,972.4,5.75,32.8,63,17.9,14.0,0,5,3,0,2026-04-19T05:08:51.431111+05:30
Amritsar,Punjab,31.634,74.8723,22.2,61,0.0,979.2,7.35,28.8,62,35.6,21.9,3,5,7,0,2026-04-19T05:08:51.431120+05:30
Ludhiana,Punjab,30.901,75.8573,24.3,57,0.0,976.4,7.4,36.0,84,37.4,26.4,0,5,7,0,2026-04-19T05:08:51.431127+05:30
Jalandhar,Punjab,31.326,75.5762,22.6,59,0.0,977.7,6.4,29.9,69,41.1,24.0,0,5,7,0,2026-04-19T05:08:51.431132+05:30
Dehradun,Uttarakhand,30.6284,78.0322,16.5,37,0.0,829.5,6.9,40.7,32,8.9,6.0,0,5,7,0,2026-04-19T05:08:51.431138+05:30
Shimla,Himachal Pradesh,31.1048,77.1734,14.5,51,0.0,783.6,6.75,46.4,49,22.6,11.8,0,5,7,0,2026-04-19T05:08:51.431143+05:30
Manali,Himachal Pradesh,32.2396,77.1887,16.7,29,0.0,821.1,6.7,41.4,41,8.3,4.2,0,5,7,1,2026-04-19T05:08:51.431149+05:30
Gurgaon,Haryana,28.4595,77.0266,24.4,62,0.0,978.3,7.15,27.7,451,292.4,76.1,3,5,7,1,2026-04-19T05:08:51.431154+05:30
Noida,Uttar Pradesh,28.5355,77.391,27.9,46,0.0,981.5,7.0,22.3,451,292.4,76.1,4,5,7,0,2026-04-19T05:08:51.431160+05:30
Ghaziabad,Uttar Pradesh,28.6692,77.4538,25.0,59,0.0,979.6,6.9,24.5,165,220.7,53.6,4,5,7,1,2026-04-19T05:08:51.431165+05:30
Faridabad,Haryana,28.4089,77.3178,24.6,60,0.0,980.7,7.2,21.2,451,292.4,76.1,0,5,7,1,2026-04-19T05:08:51.431171+05:30
Meerut,Uttar Pradesh,28.9845,77.7064,23.5,66,0.0,978.4,6.55,29.5,165,220.7,53.6,3,5,7,1,2026-04-19T05:08:51.431178+05:30
Agra,Uttar Pradesh,27.1767,78.0081,24.6,65,0.0,984.5,7.6,26.3,404,406.1,96.6,3,5,7,1,2026-04-19T05:08:51.431186+05:30
Varanasi,Uttar Pradesh,25.3176,82.9739,25.0,63,0.0,994.3,8.45,28.4,106,85.7,41.8,7,5,7,1,2026-04-19T05:08:51.431191+05:30
Prayagraj,Uttar Pradesh,25.4358,81.8463,26.7,56,0.0,992.8,8.35,27.0,95,159.3,46.6,4,5,7,1,2026-04-19T05:08:51.431197+05:30
Gorakhpur,Uttar Pradesh,26.7606,83.3732,25.7,89,0.0,994.2,8.3,27.0,118,77.3,61.2,7,5,7,1,2026-04-19T05:08:51.431202+05:30
Bareilly,Uttar Pradesh,28.367,79.4304,22.9,70,0.0,983.4,7.4,27.4,81,92.4,34.2,3,5,7,1,2026-04-19T05:08:51.431207+05:30
Aligarh,Uttar Pradesh,27.8974,78.088,25.3,53,0.0,982.3,7.55,30.2,295,257.0,77.3,4,5,7,0,2026-04-19T05:08:51.431212+05:30
Moradabad,Uttar Pradesh,28.8386,78.7733,22.9,70,0.0,980.5,7.25,31.3,103,115.9,44.1,3,5,7,1,2026-04-19T05:08:51.431217+05:30
Saharanpur,Uttar Pradesh,29.9637,77.546,20.9,67,0.0,972.8,6.35,44.6,96,66.8,43.9,3,5,7,0,2026-04-19T05:08:51.431222+05:30
Jhansi,Uttar Pradesh,25.4484,78.5685,25.0,64,0.0,975.0,8.25,29.2,78,32.5,14.3,7,5,7,1,2026-04-19T05:08:54.744018+05:30
Surat,Gujarat,21.1702,72.8311,27.5,81,0.0,1004.7,7.85,25.6,108,34.6,23.9,7,5,4,1,2026-04-19T05:08:54.744048+05:30
Vadodara,Gujarat,22.3072,73.1812,27.2,57,0.0,1002.7,8.15,28.1,84,26.2,19.4,4,5,4,1,2026-04-19T05:08:54.744056+05:30
Rajkot,Gujarat,22.3039,70.8022,23.0,86,0.0,993.0,7.15,30.2,55,31.0,14.1,3,5,7,1,2026-04-19T05:08:54.744062+05:30
Thane,Maharashtra,19.2183,72.9781,26.7,86,0.0,1005.7,7.3,38.2,89,58.4,24.8,7,5,4,1,2026-04-19T05:08:54.744067+05:30
Nagpur,Maharashtra,21.1458,79.0882,27.6,66,0.0,970.9,8.8,23.4,91,25.0,23.1,7,5,7,1,2026-04-19T05:08:54.744073+05:30
Nashik,Maharashtra,19.9975,73.7898,25.3,67,0.0,944.2,6.35,29.9,73,46.4,33.1,7,5,7,1,2026-04-19T05:08:54.744079+05:30
Aurangabad,Maharashtra,19.8762,75.3433,28.3,39,0.0,942.5,8.85,28.4,60,26.0,19.6,4,5,7,0,2026-04-19T05:08:54.744084+05:30
Solapur,Maharashtra,17.6599,75.9064,27.3,61,0.0,955.2,8.95,34.2,129,54.9,51.2,7,5,7,1,2026-04-19T05:08:54.744112+05:30
Kolhapur,Maharashtra,16.705,74.2433,24.0,93,0.0,945.8,9.05,37.8,98,51.9,39.1,3,5,7,1,2026-04-19T05:08:54.744118+05:30
Goa,Goa,15.2993,74.124,27.4,87,0.0,996.0,9.0,29.9,82,68.5,36.7,7,5,7,1,2026-04-19T05:08:54.744124+05:30
Jodhpur,Rajasthan,26.2389,73.0243,26.7,35,0.0,981.1,8.15,27.4,99,210.5,40.6,4,5,7,0,2026-04-19T05:08:54.744130+05:30
Udaipur,Rajasthan,24.5854,73.7125,25.5,35,0.0,945.5,8.4,36.0,42,11.7,6.0,4,5,7,0,2026-04-19T05:08:54.744135+05:30
Kota,Rajasthan,25.2138,75.8648,26.9,47,0.0,976.5,8.25,36.7,85,34.3,11.7,4,5,7,0,2026-04-19T05:08:54.744141+05:30
Bikaner,Rajasthan,28.0229,73.3119,28.3,29,0.0,979.5,8.0,26.6,79,145.8,38.0,4,5,7,0,2026-04-19T05:08:54.744147+05:30
Ajmer,Rajasthan,26.4499,74.6399,26.6,33,0.0,953.1,7.65,31.7,61,52.3,11.7,4,5,7,0,2026-04-19T05:08:54.744152+05:30
Gwalior,Madhya Pradesh,26.2183,78.1828,24.8,67,0.0,980.2,7.65,38.9,98,83.4,31.1,3,5,7,1,2026-04-19T05:08:54.744158+05:30
Indore,Madhya Pradesh,22.7196,75.8577,25.0,51,0.0,946.4,8.6,31.0,53,10.3,8.1,4,5,7,0,2026-04-19T05:08:54.744163+05:30
Bhopal,Madhya Pradesh,23.2599,77.4126,25.1,46,0.0,951.9,8.6,31.0,58,12.7,11.5,4,5,7,0,2026-04-19T05:08:54.744169+05:30
Jabalpur,Madhya Pradesh,23.1815,79.9864,27.5,50,0.0,959.3,8.75,23.8,76,21.0,18.7,4,5,7,1,2026-04-19T05:08:54.744174+05:30
Ujjain,Madhya Pradesh,23.1765,75.7885,25.3,51,0.0,952.1,8.5,34.2,53,10.4,8.6,4,5,7,0,2026-04-19T05:08:54.744180+05:30
Visakhapatnam,Andhra Pradesh,17.6868,83.2185,27.0,90,0.0,1002.3,9.15,40.0,64,23.1,16.4,7,5,4,1,2026-04-19T05:08:54.744186+05:30
Vijayawada,Andhra Pradesh,16.5062,80.648,27.0,91,0.0,1001.5,9.2,27.7,59,14.7,10.5,7,5,4,1,2026-04-19T05:08:54.744191+05:30
Guntur,Andhra Pradesh,16.3067,80.4365,27.1,90,0.0,1002.5,9.25,32.4,63,14.0,9.9,7,5,4,1,2026-04-19T05:08:54.744196+05:30
Nellore,Andhra Pradesh,14.4426,79.9865,27.0,89,0.0,1004.2,9.25,34.2,52,12.5,9.2,7,5,4,1,2026-04-19T05:08:54.744202+05:30
Kurnool,Andhra Pradesh,15.8281,78.0373,29.8,68,0.0,974.9,9.25,25.9,90,23.3,20.5,7,5,7,1,2026-04-19T05:08:54.744207+05:30
Kakinada,Andhra Pradesh,16.9891,82.2475,26.8,91,0.0,1006.5,9.2,31.7,53,20.5,12.5,7,5,4,1,2026-04-19T05:08:54.744211+05:30
Tirupati,Andhra Pradesh,13.6288,79.4192,25.4,87,0.0,990.8,9.35,32.8,66,20.1,17.2,7,5,7,1,2026-04-19T05:08:54.744216+05:30
Warangal,Telangana,17.9689,79.5941,27.0,78,0.0,977.7,9.15,30.2,90,28.6,24.0,7,5,7,1,2026-04-19T05:08:54.744221+05:30
Nizamabad,Telangana,18.6725,78.0941,28.6,55,0.0,963.3,9.1,28.1,114,53.3,48.4,4,5,7,1,2026-04-19T05:08:54.744226+05:30
Mysore,Karnataka,12.2958,76.6396,23.3,94,0.0,927.2,9.5,41.0,89,39.3,35.6,3,5,7,1,2026-04-19T05:08:54.744231+05:30
Mangalore,Karnataka,12.9141,74.856,30.0,81,0.0,1004.8,9.1,24.1,65,42.6,25.6,7,5,4,1,2026-04-19T05:08:54.744236+05:30
Hubli-Dharwad,Karnataka,15.3647,75.124,23.9,95,0.0,939.5,9.2,29.5,70,42.1,31.3,3,5,7,1,2026-04-19T05:08:54.744241+05:30
Belgaum,Karnataka,15.8497,74.4977,22.7,92,0.0,923.4,9.25,33.1,86,59.0,37.7,3,5,7,1,2026-04-19T05:08:58.047772+05:30
Coimbatore,Tamil Nadu,11.0168,76.9558,24.1,92,0.0,960.7,9.4,43.2,96,40.5,36.4,3,5,7,1,2026-04-19T05:08:58.047802+05:30
Madurai,Tamil Nadu,9.9252,78.1198,26.2,93,0.0,992.1,9.3,42.1,65,30.0,29.0,7,5,7,1,2026-04-19T05:08:58.047811+05:30
Trichy,Tamil Nadu,10.7905,78.7047,26.1,91,0.0,999.0,9.3,22.3,53,25.4,21.8,7,5,7,1,2026-04-19T05:08:58.047818+05:30
Salem,Tamil Nadu,11.6643,78.146,25.1,91,0.0,976.5,9.35,18.7,70,20.1,18.6,7,5,7,1,2026-04-19T05:08:58.047824+05:30
Tirunelveli,Tamil Nadu,8.7139,77.7567,25.4,85,0.0,1002.1,9.25,50.4,74,32.5,27.2,7,5,4,1,2026-04-19T05:08:58.047830+05:30
Vellore,Tamil Nadu,12.9165,79.1325,24.2,96,0.0,983.8,9.4,28.4,86,43.2,40.4,3,5,7,1,2026-04-19T05:08:58.047836+05:30
Erode,Tamil Nadu,11.341,77.7172,27.1,81,0.0,988.1,9.35,27.7,61,16.5,15.5,7,5,7,1,2026-04-19T05:08:58.047842+05:30
Kochi,Kerala,9.9312,76.2673,28.9,83,0.0,1007.0,9.15,29.2,79,29.4,24.4,7,5,4,1,2026-04-19T05:08:58.047849+05:30
Thiruvananthapuram,Kerala,8.5241,76.9366,28.7,84,0.0,1006.3,9.1,27.7,73,30.3,20.1,7,5,4,1,2026-04-19T05:08:58.047855+05:30
Kozhikode,Kerala,11.2588,75.7804,29.2,86,0.0,1006.1,9.1,32.8,69,24.9,15.8,7,5,4,1,2026-04-19T05:08:58.047861+05:30
Thrissur,Kerala,10.5276,76.2144,28.3,89,0.0,1005.4,9.15,37.8,79,27.0,22.6,7,5,4,1,2026-04-19T05:08:58.047867+05:30
Kannur,Kerala,11.8745,75.3704,29.2,84,0.0,1005.3,9.1,32.4,68,33.1,22.2,7,5,4,1,2026-04-19T05:08:58.047873+05:30
Patna,Bihar,25.5941,85.1376,26.8,89,0.0,997.2,8.6,27.0,140,47.5,44.9,7,5,7,1,2026-04-19T05:08:58.047879+05:30
Gaya,Bihar,24.7914,85.0002,26.4,60,0.0,990.4,8.7,30.2,97,68.0,43.2,4,5,7,1,2026-04-19T05:08:58.047884+05:30
Muzaffarpur,Bihar,26.1209,85.3647,25.3,90,0.0,997.8,8.6,29.9,152,43.4,40.7,7,5,7,1,2026-04-19T05:08:58.047889+05:30
Bhagalpur,Bihar,25.2425,87.0117,25.3,89,0.0,999.3,8.65,31.3,131,45.8,43.4,7,5,7,1,2026-04-19T05:08:58.047894+05:30
Ranchi,Jharkhand,23.3441,85.3096,25.6,44,0.0,936.2,9.2,46.8,77,57.7,24.5,4,5,7,0,2026-04-19T05:08:58.047900+05:30
Jamshedpur,Jharkhand,22.8046,86.2029,28.2,91,0.0,988.5,9.0,29.9,110,56.8,45.5,7,5,7,1,2026-04-19T05:08:58.047905+05:30
Dhanbad,Jharkhand,23.7957,86.4304,27.9,89,0.0,977.2,8.95,40.7,154,103.6,89.9,7,5,7,1,2026-04-19T05:08:58.047910+05:30
Bokaro,Jharkhand,23.6693,86.1511,26.6,90,0.0,981.4,8.95,46.1,151,97.1,68.9,7,5,7,1,2026-04-19T05:08:58.047915+05:30
Bhubaneswar,Odisha,20.2961,85.8245,26.8,94,0.0,1000.7,9.1,33.1,64,23.2,17.3,7,5,4,1,2026-04-19T05:08:58.047920+05:30
Cuttack,Odisha,20.4625,85.8828,27.1,93,0.0,1002.6,9.15,31.0,64,23.2,17.3,7,5,4,1,2026-04-19T05:08:58.047925+05:30
Rourkela,Odisha,22.2604,84.8536,28.5,86,0.0,982.7,8.8,23.4,132,84.8,65.7,7,5,7,1,2026-04-19T05:08:58.047929+05:30
Raipur,Chhattisgarh,21.2514,81.6296,29.4,51,0.0,972.4,9.0,36.4,151,55.1,50.4,4,5,7,1,2026-04-19T05:08:58.047935+05:30
Bhilai,Chhattisgarh,21.1938,81.3509,28.5,55,0.0,972.6,8.95,34.6,154,67.8,59.3,4,5,7,1,2026-04-19T05:08:58.047939+05:30
Guwahati,Assam,26.1158,91.7086,24.4,91,0.0,1001.1,8.55,24.1,122,33.2,26.4,3,5,4,1,2026-04-19T05:08:58.047943+05:30
Agartala,Tripura,23.8315,91.2868,24.4,94,0.0,1005.9,8.75,25.9,122,50.8,44.7,3,5,4,1,2026-04-19T05:08:58.047948+05:30
Shillong,Meghalaya,25.5788,91.8933,15.1,94,0.0,855.3,6.75,44.6,112,25.8,17.7,3,10,7,0,2026-04-19T05:08:58.047953+05:30
Imphal,Manipur,24.817,93.9368,18.8,83,0.0,922.9,8.2,58.7,151,86.1,71.9,3,10,7,0,2026-04-19T05:08:58.047958+05:30
Aizawl,Mizoram,23.7271,92.7176,19.2,92,0.0,891.7,8.7,38.9,146,77.1,64.3,3,10,7,1,2026-04-19T05:08:58.047963+05:30
Kohima,Nagaland,25.6701,94.1077,16.6,83,0.0,854.6,8.65,45.4,132,56.6,45.6,3,10,7,0,2026-04-19T05:08:58.047967+05:30
Gangtok,Sikkim,27.3314,88.6138,15.3,88,0.0,835.9,8.9,22.0,89,16.5,14.7,3,10,7,0,2026-04-19T05:08:58.047973+05:30
Siliguri,West Bengal,26.7271,88.3953,20.7,91,0.0,993.8,8.45,24.8,152,74.0,59.6,3,5,7,1,2026-04-19T05:09:01.365034+05:30
Durgapur,West Bengal,23.5204,87.3119,27.3,94,0.0,992.7,8.9,49.7,123,35.0,32.8,7,5,7,1,2026-04-19T05:09:01.365061+05:30
Asansol,West Bengal,23.6739,86.9524,27.8,91,0.0,991.0,8.95,39.2,129,50.1,46.7,7,5,7,1,2026-04-19T05:09:01.365069+05:30
Pondicherry,Puducherry,11.9139,79.8145,26.5,95,0.0,1007.6,9.25,30.6,32,11.6,7.5,7,5,4,1,2026-04-19T05:09:01.365076+05:30
Port Blair,Andaman and Nicobar Islands,11.6234,92.7265,28.9,81,0.0,1006.0,9.15,13.7,56,16.8,12.9,7,5,4,1,2026-04-19T05:09:01.365083+05:30
Haridwar,Uttarakhand,29.9457,78.1642,22.1,65,0.0,971.7,6.3,31.0,64,29.3,20.1,3,5,7,0,2026-04-19T05:09:01.365116+05:30
Rishikesh,Uttarakhand,30.0869,78.2676,22.1,55,0.0,964.9,6.7,25.6,56,27.6,18.0,0,5,7,0,2026-04-19T05:09:01.365126+05:30
Nainital,Uttarakhand,29.3919,79.4542,22.8,32,0.0,806.5,8.1,60.8,61,28.9,14.0,0,5,7,0,2026-04-19T05:09:01.365136+05:30
Mussoorie,Uttarakhand,30.4599,78.0664,19.4,32,0.0,802.7,6.9,41.0,56,18.9,14.1,0,5,7,0,2026-04-19T05:09:01.365141+05:30
Dharamshala,Himachal Pradesh,32.219,76.3234,23.4,26,0.0,869.2,6.3,33.5,36,13.8,6.8,0,5,7,0,2026-04-19T05:09:01.365147+05:30
Dalhousie,Himachal Pradesh,32.5387,75.971,19.0,25,0.0,803.7,6.2,32.0,56,17.1,11.4,0,5,7,1,2026-04-19T05:09:01.365154+05:30
Patiala,Punjab,30.3398,76.3869,23.3,62,0.0,975.5,6.05,32.4,131,326.0,71.9,3,5,7,0,2026-04-19T05:09:01.365160+05:30
Bhatinda,Punjab,30.211,74.9455,23.7,52,0.0,981.6,7.75,32.8,79,56.3,21.3,0,5,7,0,2026-04-19T05:09:01.365165+05:30
Rohtak,Haryana,28.8955,76.6066,23.2,70,0.0,978.8,6.55,24.1,225,484.3,75.2,3,5,7,1,2026-04-19T05:09:01.365171+05:30
Panipat,Haryana,29.3909,76.9635,24.0,64,0.0,977.5,6.05,36.4,410,819.6,107.6,3,5,7,1,2026-04-19T05:09:01.365176+05:30
Mathura,Uttar Pradesh,27.4924,77.6737,24.4,64,0.0,983.7,7.65,27.4,342,408.9,102.9,3,5,7,1,2026-04-19T05:09:01.365181+05:30
Vrindavan,Uttar Pradesh,27.5823,77.7027,25.0,59,0.0,984.2,7.65,28.1,342,408.9,102.9,4,5,7,1,2026-04-19T05:09:01.365186+05:30
Ayodhya,Uttar Pradesh,26.7922,82.1998,23.7,86,0.0,992.1,8.05,33.8,91,124.8,43.5,3,5,7,1,2026-04-19T05:09:01.365191+05:30
Ratlam,Madhya Pradesh,23.3315,75.0367,27.2,44,0.0,953.0,8.45,26.3,40,10.4,8.2,4,5,7,0,2026-04-19T05:09:01.365196+05:30
Sagar,Madhya Pradesh,23.8388,78.7378,25.8,58,0.0,948.0,8.65,30.2,56,14.8,10.7,4,5,7,1,2026-04-19T05:09:01.365202+05:30
Satna,Madhya Pradesh,24.6005,80.8322,27.4,46,0.0,969.2,8.65,32.0,72,81.3,26.7,4,5,7,0,2026-04-19T05:09:01.365207+05:30
Akola,Maharashtra,20.7002,77.0082,27.4,56,0.0,972.7,8.85,25.6,65,20.4,18.0,4,5,7,1,2026-04-19T05:09:01.365213+05:30
Amravati,Maharashtra,20.9374,77.7796,25.5,50,0.0,964.9,8.85,20.2,67,22.0,20.0,4,5,7,0,2026-04-19T05:09:01.365218+05:30
Latur,Maharashtra,18.4088,76.5604,25.5,63,0.0,937.8,8.7,40.7,106,53.7,46.4,7,5,7,1,2026-04-19T05:09:01.365223+05:30
Nanded,Maharashtra,19.1383,77.3091,26.3,64,0.0,966.7,9.0,26.3,84,40.9,36.4,7,5,7,1,2026-04-19T05:09:01.365229+05:30
Gulbarga,Karnataka,17.3297,76.8343,28.2,59,0.0,957.2,9.1,58.7,95,36.6,32.6,4,5,7,1,2026-04-19T05:09:01.365234+05:30
Bidar,Karnataka,17.9104,77.5199,27.6,57,0.0,934.0,9.15,45.7,101,41.0,36.2,4,5,7,1,2026-04-19T05:09:01.365238+05:30
Hospet,Karnataka,15.2689,76.3909,27.2,84,0.0,954.2,9.25,26.3,89,36.8,34.0,7,5,7,1,2026-04-19T05:09:01.365243+05:30
Tirupur,Tamil Nadu,11.1085,77.3411,26.7,94,0.0,974.4,9.4,30.2,78,25.9,23.1,7,5,7,1,2026-04-19T05:09:01.365248+05:30
Alappuzha,Kerala,9.4981,76.3388,29.0,82,0.0,1007.1,9.1,27.4,85,36.4,28.1,7,5,4,1,2026-04-19T05:09:01.365253+05:30
Munnar,Kerala,10.0889,77.0595,20.7,72,0.0,855.4,9.65,27.4,83,31.9,29.2,3,5,7,0,2026-04-19T05:09:01.365258+05:30
Silchar,Assam,24.8333,92.7789,24.3,93,0.0,1004.7,8.8,29.5,157,95.0,76.6,3,5,4,1,2026-04-19T05:09:01.365263+05:30
Dibrugarh,Assam,27.4728,94.912,23.1,95,0.0,996.2,8.65,19.4,130,75.9,60.5,3,5,7,1,2026-04-19T05:09:01.365268+05:30
