city,state,latitude,longitude,temp,humidity,rain,pressure,uv_index,wind_gusts,aqi,pm10,pm2_5,mosquito_risk,arthritis_risk,migraine_risk,frizz_risk,updated_at
Delhi,Delhi,28.6139,77.209,26.2,46,0.0,980.5,7.3,25.6,163,241.2,56.5,4,5,7,0,2026-04-15T03:29:08.253345+05:30
Mumbai,Maharashtra,19.076,72.8777,29.3,78,0.0,1006.3,8.0,20.5,122,68.5,24.7,7,5,4,1,2026-04-15T03:29:08.253395+05:30
Bangalore,Karnataka,12.9716,77.5946,24.1,51,0.0,910.1,9.65,26.6,80,27.8,22.1,0,5,7,0,2026-04-15T03:29:08.253411+05:30
Hyderabad,Telangana,17.385,78.4867,28.0,56,0.0,951.0,9.25,27.0,97,27.2,22.8,4,5,7,1,2026-04-15T03:29:08.253421+05:30
Chennai,Tamil Nadu,13.0827,80.2707,27.7,87,0.0,1005.3,9.35,36.0,38,9.9,6.9,7,5,4,1,2026-04-15T03:29:08.253430+05:30
Kolkata,West Bengal,22.5726,88.3639,26.9,90,0.0,1003.3,8.85,30.2,95,29.5,22.5,7,5,4,1,2026-04-15T03:29:08.253439+05:30
Pune,Maharashtra,18.5204,73.8567,24.4,57,0.0,946.4,8.6,39.6,75,64.7,31.4,0,5,7,0,2026-04-15T03:29:08.253453+05:30
Ahmedabad,Gujarat,23.0225,72.5714,26.5,54,0.0,999.5,8.15,20.9,62,59.3,20.1,4,5,7,1,2026-04-15T03:29:08.253461+05:30
Jaipur,Rajasthan,26.9124,75.7873,25.6,43,0.0,956.6,7.95,25.9,99,364.1,58.4,4,5,7,0,2026-04-15T03:29:08.253471+05:30
Lucknow,Uttar Pradesh,26.8467,80.9462,26.0,56,0.0,990.0,7.8,26.3,123,236.6,46.7,4,5,7,1,2026-04-15T03:29:08.253480+05:30
Kanpur,Uttar Pradesh,26.4499,80.3319,24.6,60,0.0,988.1,7.8,21.2,181,285.9,52.9,0,5,7,1,2026-04-15T03:29:08.253488+05:30
Chandigarh,Chandigarh,30.7333,76.7794,19.2,66,0.0,966.3,7.25,29.2,59,21.5,19.2,3,5,7,0,2026-04-15T03:29:08.253495+05:30
Srinagar,Jammu and Kashmir,34.0837,74.7973,8.5,80,0.0,838.7,7.95,15.5,81,45.6,37.0,3,5,7,0,2026-04-15T03:29:08.253502+05:30
Jammu,Jammu and Kashmir,32.7266,74.857,19.4,74,0.0,971.4,7.95,29.5,67,27.2,24.9,3,5,7,0,2026-04-15T03:29:08.253509+05:30
Amritsar,Punjab,31.634,74.8723,20.0,63,0.0,979.3,7.75,25.9,86,63.6,58.6,3,5,7,0,2026-04-15T03:29:08.253515+05:30
Ludhiana,Punjab,30.901,75.8573,21.4,58,0.0,977.0,7.3,25.2,72,37.3,35.2,0,5,7,0,2026-04-15T03:29:08.253522+05:30
Jalandhar,Punjab,31.326,75.5762,19.8,66,0.0,978.2,7.6,24.5,68,32.0,28.0,3,5,7,0,2026-04-15T03:29:08.253530+05:30
Dehradun,Uttarakhand,30.6284,78.0322,13.8,61,0.0,827.5,7.7,27.4,49,16.6,13.0,3,5,7,0,2026-04-15T03:29:08.253537+05:30
Shimla,Himachal Pradesh,31.1048,77.1734,11.6,69,0.0,781.4,7.75,45.0,61,23.1,16.1,3,5,7,0,2026-04-15T03:29:08.253544+05:30
Manali,Himachal Pradesh,32.2396,77.1887,14.8,46,0.0,818.3,9.0,34.2,68,28.9,16.3,0,5,7,0,2026-04-15T03:29:08.253551+05:30
Gurgaon,Haryana,28.4595,77.0266,23.8,59,0.0,978.9,7.4,23.4,484,601.6,95.0,0,5,7,0,2026-04-15T03:29:08.253559+05:30
Noida,Uttar Pradesh,28.5355,77.391,25.7,49,0.0,981.9,7.35,25.9,484,601.6,95.0,4,5,7,0,2026-04-15T03:29:08.253566+05:30
Ghaziabad,Uttar Pradesh,28.6692,77.4538,23.7,54,0.0,980.0,7.3,24.8,128,127.6,38.9,0,5,7,0,2026-04-15T03:29:08.253572+05:30
Faridabad,Haryana,28.4089,77.3178,24.6,51,0.0,981.1,7.35,25.6,484,601.6,95.0,0,5,7,0,2026-04-15T03:29:08.253579+05:30
Meerut,Uttar Pradesh,28.9845,77.7064,21.9,58,0.0,978.7,7.2,30.2,128,127.6,38.9,0,5,7,0,2026-04-15T03:29:08.253585+05:30
Agra,Uttar Pradesh,27.1767,78.0081,26.3,48,0.0,984.8,7.65,19.8,406,343.7,86.6,4,5,7,0,2026-04-15T03:29:08.253592+05:30
Varanasi,Uttar Pradesh,25.3176,82.9739,24.8,45,0.0,993.9,8.4,26.6,103,119.7,42.0,0,5,7,0,2026-04-15T03:29:08.253601+05:30
Prayagraj,Uttar Pradesh,25.4358,81.8463,26.7,46,0.0,992.3,8.25,22.3,106,126.2,41.9,4,5,7,0,2026-04-15T03:29:08.253609+05:30
Gorakhpur,Uttar Pradesh,26.7606,83.3732,21.5,56,0.0,993.1,8.2,26.6,84,93.8,29.7,0,5,7,0,2026-04-15T03:29:08.253615+05:30
Bareilly,Uttar Pradesh,28.367,79.4304,22.1,63,0.0,983.5,7.55,27.4,75,77.3,33.4,3,5,7,0,2026-04-15T03:29:08.253622+05:30
Aligarh,Uttar Pradesh,27.8974,78.088,23.6,53,0.0,982.3,7.45,32.0,233,400.5,74.3,0,5,7,0,2026-04-15T03:29:08.253631+05:30
Moradabad,Uttar Pradesh,28.8386,78.7733,22.7,62,0.0,980.5,7.4,29.5,85,81.0,40.4,3,5,7,0,2026-04-15T03:29:08.253639+05:30
Saharanpur,Uttar Pradesh,29.9637,77.546,18.7,74,0.0,972.9,7.0,30.2,83,41.6,40.2,3,5,7,0,2026-04-15T03:29:08.253645+05:30
Jhansi,Uttar Pradesh,25.4484,78.5685,26.3,40,0.0,974.7,8.2,26.6,65,75.9,21.5,4,5,7,0,2026-04-15T03:29:11.553109+05:30
Surat,Gujarat,21.1702,72.8311,27.8,82,0.0,1004.3,7.85,27.0,106,44.4,27.9,7,5,4,1,2026-04-15T03:29:11.553145+05:30
Vadodara,Gujarat,22.3072,73.1812,27.2,72,0.0,1001.8,8.1,27.7,80,44.0,25.8,7,5,4,1,2026-04-15T03:29:11.553159+05:30
Rajkot,Gujarat,22.3039,70.8022,24.1,74,0.0,992.9,7.85,29.5,64,62.4,20.7,3,5,7,1,2026-04-15T03:29:11.553170+05:30
Thane,Maharashtra,19.2183,72.9781,26.8,82,0.0,1005.8,8.0,32.8,122,68.5,24.7,7,5,4,1,2026-04-15T03:29:11.553180+05:30
Nagpur,Maharashtra,21.1458,79.0882,25.6,47,0.0,969.6,8.85,26.3,85,44.2,32.5,4,5,7,0,2026-04-15T03:29:11.553189+05:30
Nashik,Maharashtra,19.9975,73.7898,25.5,36,0.0,943.9,8.3,34.2,74,95.5,25.4,4,5,7,0,2026-04-15T03:29:11.553197+05:30
Aurangabad,Maharashtra,19.8762,75.3433,28.0,43,0.0,942.1,8.95,30.6,66,55.4,23.7,4,5,7,0,2026-04-15T03:29:11.553205+05:30
Solapur,Maharashtra,17.6599,75.9064,28.6,42,0.0,954.2,9.05,28.8,61,22.1,19.8,4,5,7,0,2026-04-15T03:29:11.553214+05:30
Kolhapur,Maharashtra,16.705,74.2433,22.1,93,0.0,945.6,9.05,42.1,87,48.4,38.1,3,5,7,1,2026-04-15T03:29:11.553222+05:30
Goa,Goa,15.2993,74.124,28.3,81,0.0,995.9,9.0,31.0,87,63.6,39.9,7,5,7,1,2026-04-15T03:29:11.553230+05:30
Jodhpur,Rajasthan,26.2389,73.0243,27.9,35,0.0,979.7,8.15,23.4,70,115.5,26.4,4,5,7,0,2026-04-15T03:29:11.553237+05:30
Udaipur,Rajasthan,24.5854,73.7125,26.3,46,0.0,944.6,8.7,32.0,59,115.9,26.1,4,5,7,0,2026-04-15T03:29:11.553245+05:30
Kota,Rajasthan,25.2138,75.8648,25.9,43,0.0,975.0,8.2,22.3,70,25.1,13.3,4,5,7,0,2026-04-15T03:29:11.553252+05:30
Bikaner,Rajasthan,28.0229,73.3119,28.4,37,0.0,979.7,7.95,15.1,67,49.7,17.5,4,5,7,0,2026-04-15T03:29:11.553259+05:30
Ajmer,Rajasthan,26.4499,74.6399,24.8,48,0.0,951.5,8.15,25.6,58,63.8,23.7,0,5,7,0,2026-04-15T03:29:11.553267+05:30
Gwalior,Madhya Pradesh,26.2183,78.1828,28.3,47,0.0,980.0,7.95,29.5,114,170.0,35.2,4,5,7,0,2026-04-15T03:29:11.553273+05:30
Indore,Madhya Pradesh,22.7196,75.8577,24.3,52,0.0,945.5,8.55,31.3,74,25.8,17.2,0,5,7,0,2026-04-15T03:29:11.553281+05:30
Bhopal,Madhya Pradesh,23.2599,77.4126,25.0,45,0.0,950.7,8.55,31.7,72,29.2,22.2,4,5,7,0,2026-04-15T03:29:11.553289+05:30
Jabalpur,Madhya Pradesh,23.1815,79.9864,26.2,56,0.0,957.9,8.7,35.6,79,80.8,32.9,4,5,7,1,2026-04-15T03:29:11.553296+05:30
Ujjain,Madhya Pradesh,23.1765,75.7885,24.6,54,0.0,951.2,8.45,29.5,76,30.6,21.2,0,5,7,0,2026-04-15T03:29:11.553304+05:30
Visakhapatnam,Andhra Pradesh,17.6868,83.2185,27.1,87,0.0,1001.5,9.15,44.3,65,21.4,15.8,7,5,4,1,2026-04-15T03:29:11.553311+05:30
Vijayawada,Andhra Pradesh,16.5062,80.648,26.2,92,0.0,1000.6,9.2,28.8,54,12.9,9.7,7,5,4,1,2026-04-15T03:29:11.553319+05:30
Guntur,Andhra Pradesh,16.3067,80.4365,26.7,88,0.0,1001.5,9.2,31.0,55,12.3,9.2,7,5,4,1,2026-04-15T03:29:11.553326+05:30
Nellore,Andhra Pradesh,14.4426,79.9865,26.4,89,0.0,1003.3,9.3,35.6,51,10.7,8.8,7,5,4,1,2026-04-15T03:29:11.553333+05:30
Kurnool,Andhra Pradesh,15.8281,78.0373,31.2,44,0.0,974.5,9.2,25.6,83,24.4,21.7,0,5,7,1,2026-04-15T03:29:11.553341+05:30
Kakinada,Andhra Pradesh,16.9891,82.2475,26.2,92,0.0,1005.4,9.15,31.0,55,20.1,13.2,7,5,4,1,2026-04-15T03:29:11.553348+05:30
Tirupati,Andhra Pradesh,13.6288,79.4192,25.3,83,0.0,990.0,9.4,32.0,69,26.1,24.7,7,5,7,1,2026-04-15T03:29:11.553355+05:30
Warangal,Telangana,17.9689,79.5941,27.5,59,0.0,975.8,9.1,28.8,78,20.0,16.6,4,5,7,1,2026-04-15T03:29:11.553362+05:30
Nizamabad,Telangana,18.6725,78.0941,30.6,46,0.0,961.8,9.05,27.0,89,46.4,38.4,0,5,7,1,2026-04-15T03:29:11.553369+05:30
Mysore,Karnataka,12.2958,76.6396,23.8,91,0.0,926.9,9.55,45.4,88,31.8,28.3,3,5,7,1,2026-04-15T03:29:11.553376+05:30
Mangalore,Karnataka,12.9141,74.856,29.7,81,0.0,1005.0,9.15,23.0,81,45.6,27.3,7,5,4,1,2026-04-15T03:29:11.553384+05:30
Hubli-Dharwad,Karnataka,15.3647,75.124,24.6,79,0.0,938.9,9.2,32.4,69,29.6,21.4,3,5,7,1,2026-04-15T03:29:11.553391+05:30
Belgaum,Karnataka,15.8497,74.4977,21.9,88,0.0,923.3,9.25,38.9,76,43.5,29.9,3,5,7,1,2026-04-15T03:29:14.855772+05:30
Coimbatore,Tamil Nadu,11.0168,76.9558,25.4,88,0.0,960.3,9.5,49.3,88,40.0,34.3,7,5,7,1,2026-04-15T03:29:14.855801+05:30
Madurai,Tamil Nadu,9.9252,78.1198,26.8,85,0.0,991.3,9.35,39.6,66,25.5,22.5,7,5,7,1,2026-04-15T03:29:14.855811+05:30
Trichy,Tamil Nadu,10.7905,78.7047,26.3,90,0.0,998.2,9.4,19.8,56,15.3,14.0,7,5,7,1,2026-04-15T03:29:14.855820+05:30
Salem,Tamil Nadu,11.6643,78.146,25.7,77,0.0,975.8,9.45,15.8,69,21.3,19.4,7,5,7,1,2026-04-15T03:29:14.855828+05:30
Tirunelveli,Tamil Nadu,8.7139,77.7567,27.1,80,0.0,1001.3,9.2,49.0,72,26.4,21.3,7,5,4,1,2026-04-15T03:29:14.855835+05:30
Vellore,Tamil Nadu,12.9165,79.1325,24.5,83,0.0,983.0,9.45,27.7,94,52.7,50.6,3,5,7,1,2026-04-15T03:29:14.855843+05:30
Erode,Tamil Nadu,11.341,77.7172,27.6,77,0.0,987.4,9.4,25.2,58,13.4,12.9,7,5,7,1,2026-04-15T03:29:14.855850+05:30
Kochi,Kerala,9.9312,76.2673,28.5,82,0.0,1006.7,9.2,32.0,98,32.5,27.9,7,5,4,1,2026-04-15T03:29:14.855857+05:30
Thiruvananthapuram,Kerala,8.5241,76.9366,28.3,83,0.0,1005.9,9.15,33.8,68,26.7,16.7,7,5,4,1,2026-04-15T03:29:14.855865+05:30
Kozhikode,Kerala,11.2588,75.7804,28.5,81,0.0,1006.1,9.15,29.5,90,45.2,29.3,7,5,4,1,2026-04-15T03:29:14.855872+05:30
Thrissur,Kerala,10.5276,76.2144,27.6,87,0.0,1005.2,9.2,35.3,99,49.7,42.3,7,5,4,1,2026-04-15T03:29:14.855880+05:30
Kannur,Kerala,11.8745,75.3704,28.7,82,0.0,1005.4,9.15,32.4,91,42.1,28.1,7,5,4,1,2026-04-15T03:29:14.855888+05:30
Patna,Bihar,25.5941,85.1376,24.1,74,0.0,996.7,8.55,18.0,118,101.3,59.1,3,5,7,1,2026-04-15T03:29:14.855895+05:30
Gaya,Bihar,24.7914,85.0002,23.2,47,0.0,990.3,8.6,20.2,95,81.7,31.1,0,5,7,0,2026-04-15T03:29:14.855903+05:30
Muzaffarpur,Bihar,26.1209,85.3647,22.5,83,0.0,996.7,8.55,23.0,143,114.8,70.8,3,5,7,1,2026-04-15T03:29:14.855910+05:30
Bhagalpur,Bihar,25.2425,87.0117,23.4,81,0.0,997.8,8.55,19.4,132,63.6,54.5,3,5,7,1,2026-04-15T03:29:14.855917+05:30
Ranchi,Jharkhand,23.3441,85.3096,22.8,38,0.0,935.1,9.15,34.2,72,103.8,27.0,0,5,7,0,2026-04-15T03:29:14.855924+05:30
Jamshedpur,Jharkhand,22.8046,86.2029,25.1,94,0.0,988.3,8.95,41.0,126,80.8,41.3,7,5,7,1,2026-04-15T03:29:14.855932+05:30
Dhanbad,Jharkhand,23.7957,86.4304,22.8,64,0.0,976.7,8.9,30.6,145,188.6,89.9,3,5,7,0,2026-04-15T03:29:14.855939+05:30
Bokaro,Jharkhand,23.6693,86.1511,21.9,55,0.0,981.1,8.9,35.6,138,148.5,77.8,0,5,7,0,2026-04-15T03:29:14.855946+05:30
Bhubaneswar,Odisha,20.2961,85.8245,27.1,88,0.0,1000.1,9.1,34.6,78,22.7,16.8,7,5,4,1,2026-04-15T03:29:14.855953+05:30
Cuttack,Odisha,20.4625,85.8828,27.0,91,0.0,1001.9,9.15,30.2,78,22.7,16.8,7,5,4,1,2026-04-15T03:29:14.855960+05:30
Rourkela,Odisha,22.2604,84.8536,25.5,89,0.0,982.4,8.9,38.2,85,90.3,39.7,7,5,7,1,2026-04-15T03:29:14.855966+05:30
Raipur,Chhattisgarh,21.2514,81.6296,26.8,55,0.0,971.3,8.95,43.6,131,103.4,65.4,4,5,7,1,2026-04-15T03:29:14.855973+05:30
Bhilai,Chhattisgarh,21.1938,81.3509,25.3,58,0.0,971.6,8.95,43.2,138,113.6,80.1,4,5,7,1,2026-04-15T03:29:14.855980+05:30
Guwahati,Assam,26.1158,91.7086,23.9,88,0.0,999.1,8.45,34.6,122,64.5,53.9,3,5,7,1,2026-04-15T03:29:14.855987+05:30
Agartala,Tripura,23.8315,91.2868,23.5,94,0.0,1004.7,8.7,34.2,105,32.6,29.4,3,5,4,1,2026-04-15T03:29:14.855993+05:30
Shillong,Meghalaya,25.5788,91.8933,14.8,81,0.0,853.7,7.7,58.7,99,44.1,36.7,3,10,7,0,2026-04-15T03:29:14.856000+05:30
Imphal,Manipur,24.817,93.9368,17.8,92,0.0,921.9,9.05,72.7,128,41.4,33.4,3,10,7,1,2026-04-15T03:29:14.856008+05:30
Aizawl,Mizoram,23.7271,92.7176,18.2,93,0.0,891.4,8.9,51.1,110,41.0,32.9,3,10,7,1,2026-04-15T03:29:14.856015+05:30
Kohima,Nagaland,25.6701,94.1077,15.3,92,0.0,853.1,8.95,72.0,111,60.1,42.8,3,10,7,0,2026-04-15T03:29:14.856021+05:30
Gangtok,Sikkim,27.3314,88.6138,13.3,93,0.0,833.6,8.75,19.4,109,47.5,31.7,3,10,7,0,2026-04-15T03:29:14.856028+05:30
Siliguri,West Bengal,26.7271,88.3953,20.2,74,0.0,991.3,8.4,31.7,154,122.0,78.2,3,5,7,0,2026-04-15T03:29:18.162702+05:30
Durgapur,West Bengal,23.5204,87.3119,25.2,95,0.0,992.0,8.85,25.2,152,88.5,60.1,7,5,7,1,2026-04-15T03:29:18.162769+05:30
Asansol,West Bengal,23.6739,86.9524,25.1,88,0.0,990.4,8.85,23.8,120,125.3,54.5,7,5,7,1,2026-04-15T03:29:18.162782+05:30
Pondicherry,Puducherry,11.9139,79.8145,26.5,97,0.0,1006.8,9.3,26.6,35,7.9,5.5,7,5,4,1,2026-04-15T03:29:18.162791+05:30
Port Blair,Andaman and Nicobar Islands,11.6234,92.7265,28.9,75,0.0,1005.6,9.2,18.4,65,33.3,22.6,7,5,4,1,2026-04-15T03:29:18.162800+05:30
Haridwar,Uttarakhand,29.9457,78.1642,19.6,74,0.0,971.6,7.05,29.2,64,29.3,26.0,3,5,7,0,2026-04-15T03:29:18.162808+05:30
Rishikesh,Uttarakhand,30.0869,78.2676,19.8,71,0.0,964.6,7.2,30.6,60,24.9,18.5,3,5,7,0,2026-04-15T03:29:18.162817+05:30
Nainital,Uttarakhand,29.3919,79.4542,19.5,33,0.0,804.3,8.0,53.6,66,32.6,12.9,0,5,7,0,2026-04-15T03:29:18.162824+05:30
Mussoorie,Uttarakhand,30.4599,78.0664,16.5,55,0.0,800.7,7.55,33.8,59,25.1,22.7,0,5,7,0,2026-04-15T03:29:18.162832+05:30
Dharamshala,Himachal Pradesh,32.219,76.3234,20.1,29,0.0,867.6,7.8,22.7,54,17.1,9.0,0,5,7,0,2026-04-15T03:29:18.162840+05:30
Dalhousie,Himachal Pradesh,32.5387,75.971,16.3,38,0.0,802.1,7.95,22.0,60,25.2,21.7,0,5,7,0,2026-04-15T03:29:18.162853+05:30
Patiala,Punjab,30.3398,76.3869,19.5,61,0.0,975.9,7.15,26.3,175,99.0,45.1,3,5,7,0,2026-04-15T03:29:18.162861+05:30
Bhatinda,Punjab,30.211,74.9455,21.8,60,0.0,982.0,7.85,29.9,62,39.3,25.3,0,5,7,0,2026-04-15T03:29:18.162868+05:30
Rohtak,Haryana,28.8955,76.6066,21.7,63,0.0,979.4,7.35,28.4,202,374.4,74.5,3,5,7,0,2026-04-15T03:29:18.162875+05:30
Panipat,Haryana,29.3909,76.9635,20.6,62,0.0,977.8,7.15,29.2,520,312.0,66.1,3,5,7,0,2026-04-15T03:29:18.162883+05:30
Mathura,Uttar Pradesh,27.4924,77.6737,24.0,57,0.0,984.0,7.6,24.1,311,430.3,88.7,0,5,7,0,2026-04-15T03:29:18.162892+05:30
Vrindavan,Uttar Pradesh,27.5823,77.7027,25.2,55,0.0,984.4,7.6,25.2,311,430.3,88.7,4,5,7,0,2026-04-15T03:29:18.162900+05:30
Ayodhya,Uttar Pradesh,26.7922,82.1998,24.7,46,0.0,991.4,7.95,31.7,87,149.9,34.7,0,5,7,0,2026-04-15T03:29:18.162908+05:30
Ratlam,Madhya Pradesh,23.3315,75.0367,24.4,62,0.0,951.9,8.4,28.8,57,32.1,19.2,3,5,7,1,2026-04-15T03:29:18.162915+05:30
Sagar,Madhya Pradesh,23.8388,78.7378,24.9,51,0.0,947.0,8.6,31.0,68,42.7,22.4,0,5,7,0,2026-04-15T03:29:18.162923+05:30
Satna,Madhya Pradesh,24.6005,80.8322,25.7,47,0.0,968.5,8.6,25.2,64,102.0,25.3,4,5,7,0,2026-04-15T03:29:18.162931+05:30
Akola,Maharashtra,20.7002,77.0082,26.0,58,0.0,972.1,8.8,27.7,62,24.4,15.0,4,5,7,1,2026-04-15T03:29:18.162939+05:30
Amravati,Maharashtra,20.9374,77.7796,25.4,56,0.0,964.1,8.8,25.9,67,21.8,15.4,4,5,7,0,2026-04-15T03:29:18.162948+05:30
Latur,Maharashtra,18.4088,76.5604,25.5,46,0.0,937.3,9.05,29.9,65,31.9,26.2,4,5,7,0,2026-04-15T03:29:18.162956+05:30
Nanded,Maharashtra,19.1383,77.3091,26.5,52,0.0,965.6,8.95,17.3,66,30.0,26.4,4,5,7,0,2026-04-15T03:29:18.162963+05:30
Gulbarga,Karnataka,17.3297,76.8343,30.6,44,0.0,955.9,9.1,33.8,88,45.2,38.1,0,5,7,1,2026-04-15T03:29:18.162970+05:30
Bidar,Karnataka,17.9104,77.5199,28.2,48,0.0,932.9,9.1,20.9,89,34.5,29.0,4,5,7,1,2026-04-15T03:29:18.162978+05:30
Hospet,Karnataka,15.2689,76.3909,27.2,77,0.0,954.4,9.3,29.5,103,33.6,28.9,7,5,7,1,2026-04-15T03:29:18.162986+05:30
Tirupur,Tamil Nadu,11.1085,77.3411,26.9,82,0.0,973.6,9.5,33.5,75,32.7,28.8,7,5,7,1,2026-04-15T03:29:18.162994+05:30
Alappuzha,Kerala,9.4981,76.3388,28.3,82,0.0,1006.8,9.15,30.6,96,42.5,30.5,7,5,4,1,2026-04-15T03:29:18.163001+05:30
Munnar,Kerala,10.0889,77.0595,20.9,85,0.0,855.2,9.75,37.8,77,39.1,34.1,3,5,7,1,2026-04-15T03:29:18.163009+05:30
Silchar,Assam,24.8333,92.7789,22.4,92,0.0,1004.8,8.7,31.0,144,57.0,43.3,3,5,4,1,2026-04-15T03:29:18.163017+05:30
Dibrugarh,Assam,27.4728,94.912,21.4,85,0.0,995.5,6.5,24.1,84,35.9,18.0,3,5,7,1,2026-04-15T03:29:18.163025+05:30
