city,state,latitude,longitude,temp,humidity,rain,pressure,uv_index,wind_gusts,aqi,pm10,pm2_5,mosquito_risk,arthritis_risk,migraine_risk,frizz_risk,updated_at
Delhi,Delhi,28.6139,77.209,31.5,30,0.0,984.4,6.45,28.1,205,244.9,41.4,0,5,7,0,2026-03-25T15:28:32.772167+05:30
Mumbai,Maharashtra,19.076,72.8777,28.1,81,0.0,1007.2,7.95,24.8,82,38.1,27.5,7,5,4,1,2026-03-25T15:28:32.772213+05:30
Bangalore,Karnataka,12.9716,77.5946,33.5,26,0.0,911.2,9.5,32.0,75,28.9,20.8,0,5,7,0,2026-03-25T15:28:32.772229+05:30
Hyderabad,Telangana,17.385,78.4867,34.0,36,0.0,953.1,9.0,19.1,88,35.2,25.0,0,5,7,1,2026-03-25T15:28:32.772239+05:30
Chennai,Tamil Nadu,13.0827,80.2707,32.3,52,0.0,1007.2,9.2,32.8,41,24.6,15.9,0,5,4,1,2026-03-25T15:28:32.772247+05:30
Kolkata,West Bengal,22.5726,88.3639,31.1,60,0.0,1006.5,8.4,25.2,81,63.1,47.5,0,5,4,1,2026-03-25T15:28:32.772256+05:30
Pune,Maharashtra,18.5204,73.8567,36.8,19,0.0,947.5,8.5,32.8,92,29.3,20.6,0,5,10,0,2026-03-25T15:28:32.772268+05:30
Ahmedabad,Gujarat,23.0225,72.5714,36.1,29,0.0,1001.7,7.75,22.3,66,25.7,12.7,0,5,7,0,2026-03-25T15:28:32.772275+05:30
Jaipur,Rajasthan,26.9124,75.7873,32.9,23,0.0,961.3,7.35,27.7,131,124.8,21.2,0,5,7,0,2026-03-25T15:28:32.772283+05:30
Lucknow,Uttar Pradesh,26.8467,80.9462,33.5,19,0.0,994.3,7.15,37.1,115,70.5,19.6,0,5,7,0,2026-03-25T15:28:32.772291+05:30
Kanpur,Uttar Pradesh,26.4499,80.3319,31.8,31,0.0,993.2,7.15,29.2,159,306.4,40.3,0,5,7,0,2026-03-25T15:28:32.772297+05:30
Chandigarh,Chandigarh,30.7333,76.7794,29.6,31,0.0,970.3,6.55,29.9,72,29.1,20.6,4,5,7,0,2026-03-25T15:28:32.772305+05:30
Srinagar,Jammu and Kashmir,34.0837,74.7973,19.8,29,0.0,843.0,7.3,13.3,83,23.6,10.0,0,5,7,0,2026-03-25T15:28:32.772329+05:30
Jammu,Jammu and Kashmir,32.7266,74.857,29.1,40,0.0,974.3,7.15,18.7,89,30.2,18.9,4,5,7,0,2026-03-25T15:28:32.772338+05:30
Amritsar,Punjab,31.634,74.8723,29.5,38,0.0,982.8,6.95,27.7,125,31.1,22.4,4,5,7,0,2026-03-25T15:28:32.772345+05:30
Ludhiana,Punjab,30.901,75.8573,29.7,36,0.0,980.5,6.75,23.8,126,28.1,19.0,4,5,7,0,2026-03-25T15:28:32.772353+05:30
Jalandhar,Punjab,31.326,75.5762,28.8,41,0.0,981.7,6.9,22.0,127,35.4,19.2,4,5,7,0,2026-03-25T15:28:32.772362+05:30
Dehradun,Uttarakhand,30.6284,78.0322,18.8,60,0.0,831.2,7.0,23.8,69,17.9,11.4,0,5,7,0,2026-03-25T15:28:32.772370+05:30
Shimla,Himachal Pradesh,31.1048,77.1734,16.9,56,0.0,786.2,7.05,42.8,79,20.4,13.0,0,5,7,0,2026-03-25T15:28:32.772377+05:30
Manali,Himachal Pradesh,32.2396,77.1887,20.1,41,0.0,821.0,9.05,30.6,121,18.3,7.6,0,5,7,0,2026-03-25T15:28:32.772384+05:30
Gurgaon,Haryana,28.4595,77.0266,31.6,30,0.0,982.9,6.3,24.1,692,789.8,86.4,0,5,7,0,2026-03-25T15:28:32.772391+05:30
Noida,Uttar Pradesh,28.5355,77.391,31.6,30,0.0,986.0,6.45,27.4,692,789.8,86.4,0,5,7,0,2026-03-25T15:28:32.772397+05:30
Ghaziabad,Uttar Pradesh,28.6692,77.4538,31.2,33,0.0,984.0,6.5,28.4,151,160.7,36.3,0,5,7,0,2026-03-25T15:28:32.772403+05:30
Faridabad,Haryana,28.4089,77.3178,31.6,29,0.0,985.3,6.35,25.6,692,789.8,86.4,0,5,7,0,2026-03-25T15:28:32.772410+05:30
Meerut,Uttar Pradesh,28.9845,77.7064,31.0,31,0.0,982.6,6.5,32.0,151,160.7,36.3,0,5,7,0,2026-03-25T15:28:32.772419+05:30
Agra,Uttar Pradesh,27.1767,78.0081,34.7,22,0.0,989.1,6.95,31.7,431,352.0,48.1,0,5,7,0,2026-03-25T15:28:32.772426+05:30
Varanasi,Uttar Pradesh,25.3176,82.9739,34.0,23,0.0,998.6,7.8,30.6,104,95.7,24.2,0,5,7,0,2026-03-25T15:28:32.772435+05:30
Prayagraj,Uttar Pradesh,25.4358,81.8463,33.9,23,0.0,997.2,7.65,25.2,100,113.9,26.9,0,5,7,0,2026-03-25T15:28:32.772442+05:30
Gorakhpur,Uttar Pradesh,26.7606,83.3732,33.2,22,0.0,997.5,7.5,27.7,97,111.8,26.2,0,5,7,0,2026-03-25T15:28:32.772448+05:30
Bareilly,Uttar Pradesh,28.367,79.4304,30.7,37,0.0,987.8,6.85,28.8,98,29.9,21.5,0,5,7,0,2026-03-25T15:28:32.772455+05:30
Aligarh,Uttar Pradesh,27.8974,78.088,32.2,28,0.0,986.9,6.7,29.9,374,506.6,69.6,0,5,7,0,2026-03-25T15:28:32.772461+05:30
Moradabad,Uttar Pradesh,28.8386,78.7733,30.5,37,0.0,984.6,6.55,29.9,101,38.1,24.2,0,5,7,0,2026-03-25T15:28:32.772468+05:30
Saharanpur,Uttar Pradesh,29.9637,77.546,30.4,31,0.0,976.6,6.3,31.3,112,46.3,25.7,0,5,7,0,2026-03-25T15:28:32.772477+05:30
Jhansi,Uttar Pradesh,25.4484,78.5685,35.2,18,0.0,979.2,7.65,32.4,87,101.7,23.9,0,5,10,0,2026-03-25T15:28:36.026622+05:30
Surat,Gujarat,21.1702,72.8311,34.9,43,0.0,1005.9,7.7,24.1,93,33.3,24.3,0,5,4,1,2026-03-25T15:28:36.026653+05:30
Vadodara,Gujarat,22.3072,73.1812,37.3,32,0.0,1003.3,7.4,18.0,81,26.5,16.3,0,5,7,1,2026-03-25T15:28:36.026663+05:30
Rajkot,Gujarat,22.3039,70.8022,36.3,24,0.0,994.2,7.7,31.3,38,29.1,11.4,0,5,10,0,2026-03-25T15:28:36.026673+05:30
Thane,Maharashtra,19.2183,72.9781,31.9,57,0.0,1007.0,7.95,34.9,82,38.1,27.5,0,5,4,1,2026-03-25T15:28:36.026681+05:30
Nagpur,Maharashtra,21.1458,79.0882,36.1,23,0.0,972.8,8.3,20.5,107,27.2,20.1,0,5,10,0,2026-03-25T15:28:36.026690+05:30
Nashik,Maharashtra,19.9975,73.7898,34.3,25,0.0,945.3,8.15,26.6,72,26.0,14.0,0,5,7,0,2026-03-25T15:28:36.026698+05:30
Aurangabad,Maharashtra,19.8762,75.3433,36.1,19,0.0,943.9,8.7,32.8,61,21.8,14.0,0,5,10,0,2026-03-25T15:28:36.026706+05:30
Solapur,Maharashtra,17.6599,75.9064,35.9,28,0.0,956.3,8.85,29.2,104,41.1,30.9,0,5,10,0,2026-03-25T15:28:36.026714+05:30
Kolhapur,Maharashtra,16.705,74.2433,33.1,36,0.0,947.4,8.95,38.2,143,45.9,35.3,0,5,7,1,2026-03-25T15:28:36.026723+05:30
Goa,Goa,15.2993,74.124,32.1,59,0.0,996.9,8.95,29.9,104,44.6,33.3,0,5,7,1,2026-03-25T15:28:36.026731+05:30
Jodhpur,Rajasthan,26.2389,73.0243,35.8,22,0.0,983.2,7.45,26.6,59,88.5,17.1,0,5,10,0,2026-03-25T15:28:36.026738+05:30
Udaipur,Rajasthan,24.5854,73.7125,33.0,25,0.0,947.5,8.05,25.6,54,27.5,9.1,0,5,7,0,2026-03-25T15:28:36.026747+05:30
Kota,Rajasthan,25.2138,75.8648,35.4,22,0.0,979.3,7.7,17.3,73,31.9,20.7,0,5,10,0,2026-03-25T15:28:36.026755+05:30
Bikaner,Rajasthan,28.0229,73.3119,34.7,19,0.0,981.7,5.65,31.0,62,30.2,10.2,0,5,3,0,2026-03-25T15:28:36.026763+05:30
Ajmer,Rajasthan,26.4499,74.6399,32.3,24,0.0,955.8,7.6,28.8,63,33.3,10.5,0,5,7,0,2026-03-25T15:28:36.026771+05:30
Gwalior,Madhya Pradesh,26.2183,78.1828,34.5,21,0.0,984.8,7.3,29.9,172,191.4,33.5,0,5,7,0,2026-03-25T15:28:36.026779+05:30
Indore,Madhya Pradesh,22.7196,75.8577,34.8,24,0.0,948.5,8.15,23.0,65,27.0,16.1,0,5,7,0,2026-03-25T15:28:36.026787+05:30
Bhopal,Madhya Pradesh,23.2599,77.4126,34.7,22,0.0,954.4,8.05,22.0,59,26.4,13.1,0,5,7,0,2026-03-25T15:28:36.026795+05:30
Jabalpur,Madhya Pradesh,23.1815,79.9864,33.1,26,0.0,962.5,8.2,30.2,59,27.1,12.6,0,5,7,0,2026-03-25T15:28:36.026803+05:30
Ujjain,Madhya Pradesh,23.1765,75.7885,34.7,25,0.0,954.1,8.05,17.6,80,28.1,16.6,0,5,7,0,2026-03-25T15:28:36.026812+05:30
Visakhapatnam,Andhra Pradesh,17.6868,83.2185,31.9,52,0.0,1004.1,8.95,38.5,70,31.8,21.2,0,5,4,1,2026-03-25T15:28:36.026819+05:30
Vijayawada,Andhra Pradesh,16.5062,80.648,33.8,50,0.0,1002.4,9.0,24.5,56,27.2,17.9,0,5,4,1,2026-03-25T15:28:36.026827+05:30
Guntur,Andhra Pradesh,16.3067,80.4365,34.1,47,0.0,1003.5,9.0,24.8,55,27.9,17.6,0,5,4,1,2026-03-25T15:28:36.026835+05:30
Nellore,Andhra Pradesh,14.4426,79.9865,34.5,44,0.0,1005.4,9.1,29.5,44,27.8,20.5,0,5,4,1,2026-03-25T15:28:36.026844+05:30
Kurnool,Andhra Pradesh,15.8281,78.0373,36.7,29,0.0,975.8,5.8,24.1,67,31.5,22.8,0,5,6,0,2026-03-25T15:28:36.026853+05:30
Kakinada,Andhra Pradesh,16.9891,82.2475,35.6,43,0.0,1007.1,8.95,28.4,53,24.9,13.5,0,5,7,1,2026-03-25T15:28:36.026861+05:30
Tirupati,Andhra Pradesh,13.6288,79.4192,35.0,31,0.0,990.7,9.2,28.8,55,27.8,18.7,0,5,7,0,2026-03-25T15:28:36.026869+05:30
Warangal,Telangana,17.9689,79.5941,35.2,39,0.0,978.5,8.55,24.8,81,37.8,27.9,0,5,10,1,2026-03-25T15:28:36.026877+05:30
Nizamabad,Telangana,18.6725,78.0941,36.7,26,0.0,964.2,8.75,33.5,102,36.3,27.6,0,5,10,0,2026-03-25T15:28:36.026885+05:30
Mysore,Karnataka,12.2958,76.6396,35.1,25,0.0,927.3,9.45,32.0,93,27.4,21.4,0,5,10,0,2026-03-25T15:28:36.026893+05:30
Mangalore,Karnataka,12.9141,74.856,29.4,79,0.0,1004.7,9.05,23.8,107,46.1,34.0,7,5,4,1,2026-03-25T15:28:36.026901+05:30
Hubli-Dharwad,Karnataka,15.3647,75.124,31.0,49,0.0,940.2,9.1,38.2,126,44.5,33.9,0,5,7,1,2026-03-25T15:28:36.026909+05:30
Belgaum,Karnataka,15.8497,74.4977,27.5,66,0.0,925.8,9.05,24.8,119,46.2,34.9,7,5,7,1,2026-03-25T15:28:39.281155+05:30
Coimbatore,Tamil Nadu,11.0168,76.9558,36.2,26,0.0,960.0,9.4,34.6,65,18.8,13.6,0,5,10,0,2026-03-25T15:28:39.281186+05:30
Madurai,Tamil Nadu,9.9252,78.1198,36.1,35,0.0,991.1,9.35,25.9,53,14.9,10.0,0,5,10,1,2026-03-25T15:28:39.281197+05:30
Trichy,Tamil Nadu,10.7905,78.7047,34.7,41,0.0,998.3,9.3,23.0,55,20.2,15.6,0,5,7,1,2026-03-25T15:28:39.281206+05:30
Salem,Tamil Nadu,11.6643,78.146,36.4,31,0.0,975.6,9.35,31.7,78,33.1,27.2,0,5,10,1,2026-03-25T15:28:39.281214+05:30
Tirunelveli,Tamil Nadu,8.7139,77.7567,37.5,31,0.0,1000.8,9.3,40.3,44,11.9,8.1,0,5,7,1,2026-03-25T15:28:39.281222+05:30
Vellore,Tamil Nadu,12.9165,79.1325,34.6,31,0.0,983.7,9.3,31.7,62,24.3,16.9,0,5,7,0,2026-03-25T15:28:39.281230+05:30
Erode,Tamil Nadu,11.341,77.7172,36.6,35,0.0,987.0,9.3,28.1,51,19.8,15.3,0,5,10,1,2026-03-25T15:28:39.281237+05:30
Kochi,Kerala,9.9312,76.2673,29.5,74,0.0,1006.2,9.15,33.1,80,29.5,22.8,7,5,4,1,2026-03-25T15:28:39.281245+05:30
Thiruvananthapuram,Kerala,8.5241,76.9366,29.3,77,0.0,1005.6,9.2,31.3,85,19.9,16.2,7,5,4,1,2026-03-25T15:28:39.281253+05:30
Kozhikode,Kerala,11.2588,75.7804,30.6,74,0.0,1005.8,9.1,28.4,93,46.0,34.0,3,5,4,1,2026-03-25T15:28:39.281260+05:30
Thrissur,Kerala,10.5276,76.2144,33.4,58,0.0,1004.7,9.15,39.2,79,22.0,16.8,0,5,4,1,2026-03-25T15:28:39.281268+05:30
Kannur,Kerala,11.8745,75.3704,31.7,65,0.0,1005.1,9.1,29.5,105,50.5,37.4,3,5,4,1,2026-03-25T15:28:39.281275+05:30
Patna,Bihar,25.5941,85.1376,32.9,26,0.0,1001.2,7.4,30.2,104,60.8,28.9,0,5,4,0,2026-03-25T15:28:39.281283+05:30
Gaya,Bihar,24.7914,85.0002,32.3,33,0.0,994.7,8.05,22.7,113,65.0,21.8,0,5,7,0,2026-03-25T15:28:39.281290+05:30
Muzaffarpur,Bihar,26.1209,85.3647,32.0,30,0.0,1001.1,7.75,24.1,109,51.5,29.9,0,5,4,0,2026-03-25T15:28:39.281297+05:30
Bhagalpur,Bihar,25.2425,87.0117,31.2,39,0.0,1002.0,8.0,24.1,151,58.7,27.5,0,5,4,0,2026-03-25T15:28:39.281304+05:30
Ranchi,Jharkhand,23.3441,85.3096,30.5,28,0.0,938.6,8.4,31.7,105,32.1,15.6,0,5,7,0,2026-03-25T15:28:39.281311+05:30
Jamshedpur,Jharkhand,22.8046,86.2029,34.6,29,0.0,990.5,8.55,30.2,145,65.4,41.0,0,5,7,0,2026-03-25T15:28:39.281336+05:30
Dhanbad,Jharkhand,23.7957,86.4304,34.2,23,0.0,980.1,8.45,27.0,154,46.1,23.6,0,5,7,0,2026-03-25T15:28:39.281344+05:30
Bokaro,Jharkhand,23.6693,86.1511,33.6,25,0.0,984.0,8.45,24.1,151,47.3,24.0,0,5,7,0,2026-03-25T15:28:39.281352+05:30
Bhubaneswar,Odisha,20.2961,85.8245,33.2,52,0.0,1002.4,8.75,28.1,68,45.1,33.3,0,5,4,1,2026-03-25T15:28:39.281359+05:30
Cuttack,Odisha,20.4625,85.8828,34.2,49,0.0,1004.0,8.7,27.4,68,45.1,33.3,0,5,4,1,2026-03-25T15:28:39.281365+05:30
Rourkela,Odisha,22.2604,84.8536,34.5,35,0.0,984.8,8.45,19.8,138,52.6,32.8,0,5,7,1,2026-03-25T15:28:39.281372+05:30
Raipur,Chhattisgarh,21.2514,81.6296,36.0,29,0.0,974.2,7.9,45.4,152,51.2,41.7,0,5,10,0,2026-03-25T15:28:39.281379+05:30
Bhilai,Chhattisgarh,21.1938,81.3509,35.3,31,0.0,974.9,8.1,40.0,129,42.3,34.0,0,5,10,0,2026-03-25T15:28:39.281386+05:30
Guwahati,Assam,26.1158,91.7086,27.4,61,0.0,1003.0,7.85,28.1,125,65.7,44.4,7,5,4,1,2026-03-25T15:28:39.281393+05:30
Agartala,Tripura,23.8315,91.2868,30.2,57,0.0,1007.1,8.2,27.4,155,66.1,48.4,0,5,4,1,2026-03-25T15:28:39.281400+05:30
Shillong,Meghalaya,25.5788,91.8933,17.5,54,0.0,857.1,8.25,67.0,113,51.8,33.8,0,5,7,0,2026-03-25T15:28:39.281408+05:30
Imphal,Manipur,24.817,93.9368,20.9,64,0.0,924.2,8.45,76.0,120,48.7,33.2,3,5,7,0,2026-03-25T15:28:39.281415+05:30
Aizawl,Mizoram,23.7271,92.7176,24.9,45,0.0,894.7,7.7,43.9,114,60.1,34.3,0,5,7,0,2026-03-25T15:28:39.281422+05:30
Kohima,Nagaland,25.6701,94.1077,16.7,82,0.0,855.7,7.7,76.7,105,45.2,30.5,3,10,7,0,2026-03-25T15:28:39.281429+05:30
Gangtok,Sikkim,27.3314,88.6138,15.9,71,0.0,837.2,8.05,18.7,101,41.9,31.5,3,5,7,0,2026-03-25T15:28:39.281437+05:30
Siliguri,West Bengal,26.7271,88.3953,23.7,59,0.0,995.1,7.85,25.2,154,63.3,44.5,0,5,7,0,2026-03-25T15:28:42.541718+05:30
Durgapur,West Bengal,23.5204,87.3119,34.5,28,0.0,995.0,8.4,22.7,153,44.1,23.1,0,5,7,0,2026-03-25T15:28:42.541750+05:30
Asansol,West Bengal,23.6739,86.9524,34.5,28,0.0,993.6,8.4,22.3,137,45.1,22.5,0,5,7,0,2026-03-25T15:28:42.541761+05:30
Pondicherry,Puducherry,11.9139,79.8145,32.9,55,0.0,1007.7,9.15,29.5,38,17.1,9.7,0,5,4,1,2026-03-25T15:28:42.541770+05:30
Port Blair,Andaman and Nicobar Islands,11.6234,92.7265,28.1,75,0.0,1006.7,9.1,25.2,71,22.4,17.3,7,5,4,1,2026-03-25T15:28:42.541779+05:30
Haridwar,Uttarakhand,29.9457,78.1642,30.0,36,0.0,975.3,6.45,25.2,88,27.4,22.2,4,5,7,0,2026-03-25T15:28:42.541787+05:30
Rishikesh,Uttarakhand,30.0869,78.2676,28.7,43,0.0,968.1,6.5,23.4,79,23.7,17.8,4,5,7,0,2026-03-25T15:28:42.541795+05:30
Nainital,Uttarakhand,29.3919,79.4542,20.5,60,0.0,807.5,7.35,27.7,96,26.0,19.0,0,5,7,0,2026-03-25T15:28:42.541803+05:30
Mussoorie,Uttarakhand,30.4599,78.0664,19.4,58,0.0,804.2,6.85,25.2,75,25.7,20.7,0,5,7,0,2026-03-25T15:28:42.541812+05:30
Dharamshala,Himachal Pradesh,32.219,76.3234,21.9,60,0.0,870.7,7.1,18.0,105,20.3,11.0,0,5,7,0,2026-03-25T15:28:42.541819+05:30
Dalhousie,Himachal Pradesh,32.5387,75.971,19.9,52,0.0,805.7,7.35,20.5,73,23.9,15.7,0,5,7,0,2026-03-25T15:28:42.541827+05:30
Patiala,Punjab,30.3398,76.3869,30.4,34,0.0,979.7,6.4,26.6,140,238.0,35.5,0,5,7,0,2026-03-25T15:28:42.541835+05:30
Bhatinda,Punjab,30.211,74.9455,31.4,32,0.0,985.5,6.2,22.3,134,38.1,23.1,0,5,7,0,2026-03-25T15:28:42.541843+05:30
Rohtak,Haryana,28.8955,76.6066,31.4,30,0.0,983.3,6.5,21.2,375,295.2,41.8,0,5,7,0,2026-03-25T15:28:42.541850+05:30
Panipat,Haryana,29.3909,76.9635,31.2,31,0.0,981.8,6.05,28.4,615,529.0,60.1,0,5,7,0,2026-03-25T15:28:42.541858+05:30
Mathura,Uttar Pradesh,27.4924,77.6737,32.9,29,0.0,988.3,6.85,20.9,505,271.0,41.4,0,5,7,0,2026-03-25T15:28:42.541865+05:30
Vrindavan,Uttar Pradesh,27.5823,77.7027,32.6,29,0.0,988.7,6.8,24.8,505,271.0,41.4,0,5,7,0,2026-03-25T15:28:42.541872+05:30
Ayodhya,Uttar Pradesh,26.7922,82.1998,34.1,16,0.0,995.8,7.3,35.3,103,56.1,18.7,0,5,7,0,2026-03-25T15:28:42.541879+05:30
Ratlam,Madhya Pradesh,23.3315,75.0367,34.6,25,0.0,954.8,8.05,24.5,74,25.1,11.1,0,5,7,0,2026-03-25T15:28:42.541887+05:30
Sagar,Madhya Pradesh,23.8388,78.7378,33.8,23,0.0,951.5,8.05,25.6,63,21.3,7.7,0,5,7,0,2026-03-25T15:28:42.541894+05:30
Satna,Madhya Pradesh,24.6005,80.8322,34.4,20,0.0,972.5,7.8,29.9,92,79.4,16.6,0,5,7,0,2026-03-25T15:28:42.541902+05:30
Akola,Maharashtra,20.7002,77.0082,37.5,22,0.0,974.6,8.45,23.8,55,19.6,11.9,0,5,10,0,2026-03-25T15:28:42.541909+05:30
Amravati,Maharashtra,20.9374,77.7796,37.4,20,0.0,966.8,8.45,22.7,60,18.5,11.1,0,5,10,0,2026-03-25T15:28:42.541918+05:30
Latur,Maharashtra,18.4088,76.5604,35.2,24,0.0,939.4,8.75,19.8,105,38.0,27.5,0,5,10,0,2026-03-25T15:28:42.541925+05:30
Nanded,Maharashtra,19.1383,77.3091,38.3,19,0.0,967.7,8.65,22.7,98,33.9,24.3,0,5,10,0,2026-03-25T15:28:42.541932+05:30
Gulbarga,Karnataka,17.3297,76.8343,35.8,29,0.0,958.1,8.85,26.3,103,39.5,29.5,0,5,10,0,2026-03-25T15:28:42.541939+05:30
Bidar,Karnataka,17.9104,77.5199,34.3,30,0.0,935.7,8.85,24.1,97,36.2,26.6,0,5,7,0,2026-03-25T15:28:42.541946+05:30
Hospet,Karnataka,15.2689,76.3909,33.9,38,0.0,955.3,9.1,21.2,117,37.5,30.3,0,5,7,1,2026-03-25T15:28:42.541952+05:30
Tirupur,Tamil Nadu,11.1085,77.3411,37.3,26,0.0,973.3,9.4,31.7,57,20.1,15.7,0,5,10,0,2026-03-25T15:28:42.541959+05:30
Alappuzha,Kerala,9.4981,76.3388,29.4,78,0.0,1006.4,9.15,29.2,96,30.4,23.9,7,5,4,1,2026-03-25T15:28:42.541966+05:30
Munnar,Kerala,10.0889,77.0595,28.3,55,0.0,857.7,9.65,30.6,55,15.3,10.2,4,5,7,1,2026-03-25T15:28:42.541974+05:30
Silchar,Assam,24.8333,92.7789,28.7,61,0.0,1006.3,8.15,36.0,159,77.5,50.8,7,5,4,1,2026-03-25T15:28:42.541981+05:30
Dibrugarh,Assam,27.4728,94.912,22.1,76,0.0,998.6,6.95,27.4,79,24.9,19.4,3,5,7,1,2026-03-25T15:28:42.541989+05:30
