city,state,latitude,longitude,temp,humidity,rain,pressure,uv_index,wind_gusts,aqi,pm10,pm2_5,no2,co,o3,so2,mosquito_risk,arthritis_risk,migraine_risk,frizz_risk,updated_at
Delhi,Delhi,28.6139,77.209,25.5,62,0.0,983.2,7.6,26.6,151,273.8,72.6,21.1,455.0,74.0,20.0,7,5,7,1,2026-05-10T05:23:09.591442+05:30
Mumbai,Maharashtra,19.076,72.8777,27.0,92,0.0,1006.3,7.9,52.2,81,57.5,27.6,22.2,568.0,58.0,28.2,7,5,4,1,2026-05-10T05:23:09.591491+05:30
Bangalore,Karnataka,12.9716,77.5946,20.8,98,0.0,909.8,9.45,37.8,55,26.7,26.3,28.1,240.0,17.0,9.6,3,5,7,1,2026-05-10T05:23:09.591507+05:30
Hyderabad,Telangana,17.385,78.4867,24.9,82,0.0,952.4,9.25,37.8,58,11.8,10.3,11.6,181.0,36.0,3.9,3,5,7,1,2026-05-10T05:23:09.591519+05:30
Chennai,Tamil Nadu,13.0827,80.2707,26.0,92,0.1,1005.8,8.0,35.6,21,7.5,5.8,8.0,213.0,43.0,1.6,10,5,4,1,2026-05-10T05:23:09.591529+05:30
Kolkata,West Bengal,22.5726,88.3639,25.0,87,0.0,1007.7,8.85,33.8,155,133.2,126.2,66.0,724.0,1.0,24.7,7,5,4,1,2026-05-10T05:23:09.591544+05:30
Pune,Maharashtra,18.5204,73.8567,26.4,44,0.0,946.6,8.5,37.1,97,52.0,33.1,20.4,270.0,81.0,25.9,4,5,7,0,2026-05-10T05:23:09.591553+05:30
Ahmedabad,Gujarat,23.0225,72.5714,30.0,51,0.0,999.5,8.1,33.8,56,20.1,10.2,3.9,181.0,58.0,3.9,4,5,7,1,2026-05-10T05:23:09.591565+05:30
Jaipur,Rajasthan,26.9124,75.7873,24.8,58,0.0,959.4,8.15,26.6,152,431.2,79.9,5.1,345.0,102.0,8.4,0,5,7,0,2026-05-10T05:23:09.591573+05:30
Lucknow,Uttar Pradesh,26.8467,80.9462,23.1,69,0.0,994.4,7.95,33.5,118,47.8,39.3,12.2,451.0,90.0,10.5,3,5,7,1,2026-05-10T05:23:09.591582+05:30
Kanpur,Uttar Pradesh,26.4499,80.3319,23.9,70,0.0,991.8,8.1,31.7,174,217.5,51.8,9.6,406.0,94.0,10.7,3,5,7,1,2026-05-10T05:23:09.591590+05:30
Chandigarh,Chandigarh,30.7333,76.7794,21.9,75,0.0,968.8,7.7,38.5,109,88.9,47.6,20.3,325.0,59.0,8.9,3,5,7,1,2026-05-10T05:23:09.591598+05:30
Srinagar,Jammu and Kashmir,34.0837,74.7973,7.8,78,0.0,838.5,8.35,16.2,88,88.5,46.4,18.4,194.0,54.0,4.1,3,5,7,0,2026-05-10T05:23:09.591608+05:30
Jammu,Jammu and Kashmir,32.7266,74.857,22.5,70,0.0,971.9,7.95,34.2,152,91.3,62.6,28.8,354.0,10.0,3.0,3,5,7,1,2026-05-10T05:23:09.591616+05:30
Amritsar,Punjab,31.634,74.8723,24.5,67,0.0,980.1,8.35,32.4,154,197.4,67.1,7.1,550.0,87.0,9.2,3,5,7,1,2026-05-10T05:23:09.591624+05:30
Ludhiana,Punjab,30.901,75.8573,23.6,71,0.0,978.3,7.95,34.2,153,224.4,70.3,10.8,465.0,75.0,8.6,3,5,7,1,2026-05-10T05:23:09.591631+05:30
Jalandhar,Punjab,31.326,75.5762,22.5,77,0.0,979.2,8.15,33.1,152,248.7,76.1,10.6,554.0,76.0,13.4,3,5,7,1,2026-05-10T05:23:09.591638+05:30
Dehradun,Uttarakhand,30.6284,78.0322,10.6,100,0.0,828.4,8.1,35.6,68,32.9,18.3,20.5,286.0,15.0,0.0,3,10,7,0,2026-05-10T05:23:09.591648+05:30
Shimla,Himachal Pradesh,31.1048,77.1734,9.4,89,0.0,781.5,8.2,42.1,91,101.0,38.0,25.1,303.0,43.0,4.5,3,10,7,0,2026-05-10T05:23:09.591657+05:30
Manali,Himachal Pradesh,32.2396,77.1887,6.5,38,0.0,811.2,9.2,42.8,45,36.9,10.7,23.0,167.0,100.0,0.5,0,5,7,1,2026-05-10T05:23:09.591664+05:30
Gurgaon,Haryana,28.4595,77.0266,24.0,69,0.0,981.5,7.75,30.2,779,480.6,93.6,14.9,429.0,73.0,14.6,3,5,7,1,2026-05-10T05:23:09.591672+05:30
Noida,Uttar Pradesh,28.5355,77.391,22.4,78,0.0,984.6,7.65,23.0,779,480.6,93.6,14.9,465.0,73.0,14.6,3,5,7,1,2026-05-10T05:23:09.591680+05:30
Ghaziabad,Uttar Pradesh,28.6692,77.4538,22.9,77,0.0,982.8,7.6,26.6,124,152.7,56.6,13.1,418.0,68.0,12.7,3,5,7,1,2026-05-10T05:23:09.591687+05:30
Faridabad,Haryana,28.4089,77.3178,24.1,71,0.0,984.0,7.7,23.8,779,480.6,93.6,14.9,439.0,73.0,14.6,3,5,7,1,2026-05-10T05:23:09.591694+05:30
Meerut,Uttar Pradesh,28.9845,77.7064,23.0,77,0.0,981.9,7.55,26.6,124,152.7,56.6,13.1,459.0,68.0,12.7,3,5,7,1,2026-05-10T05:23:09.591701+05:30
Agra,Uttar Pradesh,27.1767,78.0081,23.7,75,0.0,987.4,7.95,24.8,866,311.1,66.6,8.0,364.0,86.0,10.8,3,5,7,1,2026-05-10T05:23:09.591708+05:30
Varanasi,Uttar Pradesh,25.3176,82.9739,23.2,77,0.0,998.1,8.55,33.8,130,59.5,52.7,16.7,492.0,88.0,20.5,3,5,7,1,2026-05-10T05:23:09.591716+05:30
Prayagraj,Uttar Pradesh,25.4358,81.8463,24.1,69,0.0,996.0,8.45,32.4,131,59.5,52.9,14.2,497.0,96.0,18.4,3,5,7,1,2026-05-10T05:23:09.591725+05:30
Gorakhpur,Uttar Pradesh,26.7606,83.3732,23.2,75,0.0,999.5,8.4,32.4,109,41.4,34.7,14.1,564.0,81.0,8.1,3,5,7,1,2026-05-10T05:23:09.591733+05:30
Bareilly,Uttar Pradesh,28.367,79.4304,22.4,74,0.0,987.7,7.9,24.5,107,44.4,31.1,13.5,391.0,76.0,4.2,3,5,7,1,2026-05-10T05:23:09.591741+05:30
Aligarh,Uttar Pradesh,27.8974,78.088,23.1,75,0.0,985.7,7.75,24.1,420,188.6,56.7,9.7,404.0,79.0,13.4,3,5,7,1,2026-05-10T05:23:09.591748+05:30
Moradabad,Uttar Pradesh,28.8386,78.7733,22.4,77,0.0,984.6,7.75,27.7,107,66.6,50.2,21.2,445.0,60.0,7.6,3,5,7,1,2026-05-10T05:23:09.591754+05:30
Saharanpur,Uttar Pradesh,29.9637,77.546,22.5,80,0.0,976.3,7.4,30.6,120,83.4,64.0,34.0,447.0,21.0,8.2,3,5,7,1,2026-05-10T05:23:09.591761+05:30
Jhansi,Uttar Pradesh,25.4484,78.5685,23.2,75,0.0,976.9,8.4,26.6,87,61.9,40.2,5.1,363.0,91.0,9.4,3,5,7,1,2026-05-10T05:23:12.938179+05:30
Surat,Gujarat,21.1702,72.8311,28.9,52,0.0,1004.3,7.75,32.0,103,35.0,23.5,26.2,248.0,43.0,35.9,4,5,4,1,2026-05-10T05:23:12.938211+05:30
Vadodara,Gujarat,22.3072,73.1812,29.9,33,0.0,1001.8,8.1,30.2,74,35.6,26.4,20.6,258.0,38.0,10.4,4,5,4,0,2026-05-10T05:23:12.938221+05:30
Rajkot,Gujarat,22.3039,70.8022,24.6,100,0.0,992.9,7.7,40.0,54,36.1,11.9,6.9,158.0,51.0,4.9,3,5,7,1,2026-05-10T05:23:12.938229+05:30
Thane,Maharashtra,19.2183,72.9781,26.0,93,0.0,1005.7,7.9,48.6,81,57.5,27.6,22.2,484.0,58.0,28.2,7,5,4,1,2026-05-10T05:23:12.938237+05:30
Nagpur,Maharashtra,21.1458,79.0882,27.9,51,0.0,972.7,8.9,36.7,97,38.6,28.9,7.4,358.0,97.0,6.2,4,5,7,1,2026-05-10T05:23:12.938244+05:30
Nashik,Maharashtra,19.9975,73.7898,25.8,35,0.0,943.6,8.2,40.3,78,45.9,25.9,26.5,294.0,46.0,7.4,4,5,7,0,2026-05-10T05:23:12.938252+05:30
Aurangabad,Maharashtra,19.8762,75.3433,29.0,28,0.0,942.9,9.05,45.0,85,50.8,31.9,26.3,329.0,57.0,10.8,4,5,7,0,2026-05-10T05:23:12.938260+05:30
Solapur,Maharashtra,17.6599,75.9064,27.4,45,0.0,956.3,9.1,33.8,74,30.5,25.3,15.8,370.0,59.0,6.6,4,5,7,0,2026-05-10T05:23:12.938268+05:30
Kolhapur,Maharashtra,16.705,74.2433,25.4,58,0.0,945.8,8.9,44.6,102,72.4,63.8,39.0,325.0,20.0,9.0,4,5,7,1,2026-05-10T05:23:12.938275+05:30
Goa,Goa,15.2993,74.124,26.1,88,0.0,995.2,6.25,48.6,84,44.6,32.8,9.6,283.0,82.0,2.8,7,5,7,1,2026-05-10T05:23:12.938283+05:30
Jodhpur,Rajasthan,26.2389,73.0243,29.2,24,0.0,980.9,8.35,32.4,84,104.5,28.2,14.8,449.0,42.0,5.9,4,5,7,0,2026-05-10T05:23:12.938289+05:30
Udaipur,Rajasthan,24.5854,73.7125,28.8,27,0.0,944.9,8.8,40.0,40,15.0,7.0,3.3,175.0,69.0,3.0,4,5,7,0,2026-05-10T05:23:12.938297+05:30
Kota,Rajasthan,25.2138,75.8648,25.2,56,0.0,977.4,8.35,33.8,68,53.7,24.0,5.6,302.0,78.0,7.1,4,5,7,0,2026-05-10T05:23:12.938304+05:30
Bikaner,Rajasthan,28.0229,73.3119,27.6,46,0.0,980.6,8.35,28.8,116,170.9,51.0,2.4,291.0,102.0,6.7,4,5,7,0,2026-05-10T05:23:12.938311+05:30
Ajmer,Rajasthan,26.4499,74.6399,25.5,52,0.0,953.7,8.35,33.5,85,172.8,44.7,4.7,337.0,91.0,6.1,4,5,7,0,2026-05-10T05:23:12.938318+05:30
Gwalior,Madhya Pradesh,26.2183,78.1828,23.7,78,0.0,982.4,8.2,24.1,122,119.2,48.7,5.1,316.0,92.0,8.7,3,5,7,1,2026-05-10T05:23:12.938324+05:30
Indore,Madhya Pradesh,22.7196,75.8577,28.0,27,0.0,946.5,8.65,41.4,57,19.7,14.0,6.3,343.0,65.0,4.5,4,5,7,0,2026-05-10T05:23:12.938331+05:30
Bhopal,Madhya Pradesh,23.2599,77.4126,26.1,42,0.0,951.6,8.65,45.0,59,27.6,15.4,4.5,292.0,78.0,4.4,4,5,7,0,2026-05-10T05:23:12.938338+05:30
Jabalpur,Madhya Pradesh,23.1815,79.9864,24.3,59,0.0,960.2,8.8,32.4,66,42.3,29.2,18.7,298.0,67.0,5.0,0,5,7,0,2026-05-10T05:23:12.938345+05:30
Ujjain,Madhya Pradesh,23.1765,75.7885,26.5,29,0.0,951.7,8.6,43.2,53,21.0,15.0,5.8,352.0,60.0,3.8,4,5,7,0,2026-05-10T05:23:12.938353+05:30
Visakhapatnam,Andhra Pradesh,17.6868,83.2185,25.6,95,0.0,1003.6,8.95,35.3,75,32.8,29.7,21.6,1768.0,26.0,4.0,7,5,4,1,2026-05-10T05:23:12.938360+05:30
Vijayawada,Andhra Pradesh,16.5062,80.648,26.6,89,0.0,1002.0,9.05,38.9,46,22.0,19.7,16.1,203.0,18.0,4.7,7,5,4,1,2026-05-10T05:23:12.938367+05:30
Guntur,Andhra Pradesh,16.3067,80.4365,26.9,85,0.0,1003.1,8.9,39.6,45,17.8,15.9,15.9,202.0,17.0,5.7,7,5,4,1,2026-05-10T05:23:12.938374+05:30
Nellore,Andhra Pradesh,14.4426,79.9865,25.9,92,0.0,1005.0,9.2,37.1,22,10.7,8.2,8.2,193.0,32.0,3.0,7,5,4,1,2026-05-10T05:23:12.938382+05:30
Kurnool,Andhra Pradesh,15.8281,78.0373,26.5,74,0.0,975.7,8.8,42.1,34,5.8,5.0,6.7,141.0,29.0,2.9,7,5,7,1,2026-05-10T05:23:12.938389+05:30
Kakinada,Andhra Pradesh,16.9891,82.2475,25.6,92,0.0,1007.0,9.15,36.7,27,12.5,8.6,1.5,230.0,51.0,0.4,7,5,4,1,2026-05-10T05:23:12.938396+05:30
Tirupati,Andhra Pradesh,13.6288,79.4192,25.4,91,0.0,990.3,9.25,40.7,51,30.7,29.2,36.1,282.0,0.0,6.8,7,5,7,1,2026-05-10T05:23:12.938403+05:30
Warangal,Telangana,17.9689,79.5941,25.4,85,0.0,978.2,9.15,44.6,65,9.7,8.8,10.6,190.0,30.0,9.7,7,5,7,1,2026-05-10T05:23:12.938433+05:30
Nizamabad,Telangana,18.6725,78.0941,26.4,60,0.0,964.0,9.1,31.7,84,30.9,26.3,13.3,238.0,66.0,5.9,4,5,7,1,2026-05-10T05:23:12.938442+05:30
Mysore,Karnataka,12.2958,76.6396,21.5,97,0.0,926.0,9.1,36.4,55,15.5,15.1,17.9,213.0,40.0,7.9,3,5,7,1,2026-05-10T05:23:12.938449+05:30
Mangalore,Karnataka,12.9141,74.856,25.0,93,0.0,1003.8,8.95,41.4,65,26.2,22.5,12.2,258.0,42.0,4.0,7,5,4,1,2026-05-10T05:23:12.938457+05:30
Hubli-Dharwad,Karnataka,15.3647,75.124,22.6,96,0.0,938.5,7.2,47.9,56,29.9,24.3,6.9,323.0,59.0,0.4,3,5,7,1,2026-05-10T05:23:12.938464+05:30
Belgaum,Karnataka,15.8497,74.4977,23.2,69,0.0,923.0,8.3,40.0,86,65.2,56.0,48.3,272.0,18.0,10.0,3,5,7,1,2026-05-10T05:23:16.292102+05:30
Coimbatore,Tamil Nadu,11.0168,76.9558,23.1,97,0.0,959.0,9.15,34.6,61,14.6,14.1,18.4,280.0,28.0,4.6,3,5,7,1,2026-05-10T05:23:16.292135+05:30
Madurai,Tamil Nadu,9.9252,78.1198,25.1,91,0.0,990.1,3.4,39.2,61,18.5,18.3,25.3,300.0,14.0,9.3,7,5,3,1,2026-05-10T05:23:16.292146+05:30
Trichy,Tamil Nadu,10.7905,78.7047,25.8,92,0.1,997.4,4.85,40.0,41,13.0,12.1,21.7,252.0,18.0,8.5,10,5,3,1,2026-05-10T05:23:16.292155+05:30
Salem,Tamil Nadu,11.6643,78.146,24.3,92,0.0,975.3,8.5,50.8,55,21.5,21.1,23.1,328.0,25.0,10.7,3,5,7,1,2026-05-10T05:23:16.292163+05:30
Tirunelveli,Tamil Nadu,8.7139,77.7567,25.5,95,0.1,1000.8,3.85,34.9,60,17.9,17.5,12.7,228.0,37.0,4.3,10,5,0,1,2026-05-10T05:23:16.292172+05:30
Vellore,Tamil Nadu,12.9165,79.1325,24.9,92,0.0,983.3,9.25,34.9,62,40.2,39.1,27.9,287.0,10.0,10.7,3,5,7,1,2026-05-10T05:23:16.292180+05:30
Erode,Tamil Nadu,11.341,77.7172,25.2,91,0.0,987.0,6.2,33.5,64,26.4,25.6,25.1,318.0,27.0,6.0,7,5,7,1,2026-05-10T05:23:16.292188+05:30
Kochi,Kerala,9.9312,76.2673,26.3,92,0.0,1005.2,8.65,24.1,72,26.6,26.2,17.9,272.0,19.0,3.7,7,5,4,1,2026-05-10T05:23:16.292196+05:30
Thiruvananthapuram,Kerala,8.5241,76.9366,24.4,96,0.0,1004.6,2.8,25.2,40,11.7,10.9,6.3,368.0,81.0,4.6,3,5,0,1,2026-05-10T05:23:16.292203+05:30
Kozhikode,Kerala,11.2588,75.7804,25.0,92,0.0,1004.3,8.85,38.2,47,13.4,12.1,5.2,360.0,88.0,3.2,7,5,4,1,2026-05-10T05:23:16.292211+05:30
Thrissur,Kerala,10.5276,76.2144,24.4,96,0.0,1003.5,8.95,32.4,74,28.9,28.2,13.1,292.0,43.0,3.9,3,5,4,1,2026-05-10T05:23:16.292219+05:30
Kannur,Kerala,11.8745,75.3704,25.6,90,0.0,1003.7,8.75,45.4,57,19.3,17.3,13.1,273.0,40.0,1.9,7,5,4,1,2026-05-10T05:23:16.292226+05:30
Patna,Bihar,25.5941,85.1376,23.0,89,0.0,1002.5,8.65,34.2,130,49.5,43.0,12.8,382.0,104.0,15.5,3,5,4,1,2026-05-10T05:23:16.292233+05:30
Gaya,Bihar,24.7914,85.0002,21.3,72,0.0,995.0,8.7,33.5,113,47.4,41.2,17.5,434.0,77.0,23.8,3,5,7,0,2026-05-10T05:23:16.292241+05:30
Muzaffarpur,Bihar,26.1209,85.3647,22.9,81,0.0,1002.7,8.65,31.0,136,53.7,46.6,15.6,401.0,81.0,13.5,3,5,4,1,2026-05-10T05:23:16.292248+05:30
Bhagalpur,Bihar,25.2425,87.0117,22.9,81,0.0,1003.6,8.6,25.2,139,61.7,52.3,16.2,404.0,94.0,19.7,3,5,4,1,2026-05-10T05:23:16.292255+05:30
Ranchi,Jharkhand,23.3441,85.3096,20.8,83,0.0,938.3,9.15,46.1,92,56.0,41.3,14.0,313.0,108.0,30.6,3,5,7,1,2026-05-10T05:23:16.292262+05:30
Jamshedpur,Jharkhand,22.8046,86.2029,23.7,85,0.0,992.4,8.95,32.4,106,69.8,57.3,45.7,342.0,16.0,20.7,3,5,7,1,2026-05-10T05:23:16.292269+05:30
Dhanbad,Jharkhand,23.7957,86.4304,22.1,84,0.0,981.6,8.9,29.9,154,84.1,76.1,57.9,317.0,23.0,69.4,3,5,7,1,2026-05-10T05:23:16.292277+05:30
Bokaro,Jharkhand,23.6693,86.1511,21.2,92,0.0,985.5,8.9,27.0,154,90.8,81.3,67.6,1175.0,9.0,71.1,3,5,7,1,2026-05-10T05:23:16.292284+05:30
Bhubaneswar,Odisha,20.2961,85.8245,25.1,93,0.0,1003.3,9.05,32.4,53,15.2,13.0,10.7,268.0,45.0,3.6,7,5,4,1,2026-05-10T05:23:16.292292+05:30
Cuttack,Odisha,20.4625,85.8828,25.3,94,0.0,1005.2,9.1,28.1,53,15.2,13.0,10.7,312.0,45.0,3.6,7,5,4,1,2026-05-10T05:23:16.292299+05:30
Rourkela,Odisha,22.2604,84.8536,23.1,86,0.0,985.8,8.85,38.2,118,72.4,58.2,31.2,512.0,60.0,57.0,3,5,7,1,2026-05-10T05:23:16.292306+05:30
Raipur,Chhattisgarh,21.2514,81.6296,25.5,63,0.0,973.9,8.9,35.6,91,50.6,34.1,25.3,520.0,85.0,4.8,7,5,7,1,2026-05-10T05:23:16.292313+05:30
Bhilai,Chhattisgarh,21.1938,81.3509,25.6,66,0.0,974.3,8.95,33.1,92,48.0,33.8,30.9,495.0,86.0,5.2,7,5,7,1,2026-05-10T05:23:16.292319+05:30
Guwahati,Assam,26.1158,91.7086,21.6,93,0.0,1004.0,8.6,24.1,93,41.1,33.8,12.5,391.0,33.0,1.4,3,5,4,1,2026-05-10T05:23:16.292326+05:30
Agartala,Tripura,23.8315,91.2868,22.7,95,0.0,1008.1,7.65,32.0,154,67.8,64.0,39.2,514.0,38.0,10.8,3,0,4,1,2026-05-10T05:23:16.292334+05:30
Shillong,Meghalaya,25.5788,91.8933,16.7,84,0.0,858.6,9.05,24.8,82,43.0,32.8,12.0,313.0,39.0,2.3,3,10,7,0,2026-05-10T05:23:16.292341+05:30
Imphal,Manipur,24.817,93.9368,18.0,87,0.0,924.4,7.0,22.0,98,59.1,51.9,27.5,582.0,43.0,5.3,3,10,7,0,2026-05-10T05:23:16.292348+05:30
Aizawl,Mizoram,23.7271,92.7176,15.5,84,0.0,892.1,8.55,14.0,88,57.9,39.0,12.3,387.0,33.0,2.8,3,10,7,0,2026-05-10T05:23:16.292355+05:30
Kohima,Nagaland,25.6701,94.1077,15.1,89,0.0,855.7,7.95,24.1,75,35.5,26.5,11.6,289.0,43.0,1.6,3,10,7,0,2026-05-10T05:23:16.292363+05:30
Gangtok,Sikkim,27.3314,88.6138,12.7,84,0.0,838.3,7.1,34.9,57,17.3,11.7,10.6,300.0,65.0,0.7,3,10,7,0,2026-05-10T05:23:16.292370+05:30
Siliguri,West Bengal,26.7271,88.3953,20.6,91,0.3,996.5,8.1,20.9,97,38.4,32.4,22.0,416.0,46.0,3.0,6,5,7,1,2026-05-10T05:23:19.641193+05:30
Durgapur,West Bengal,23.5204,87.3119,23.0,87,0.0,996.5,8.85,32.8,150,92.0,85.7,42.3,553.0,39.0,44.4,3,5,7,1,2026-05-10T05:23:19.641226+05:30
Asansol,West Bengal,23.6739,86.9524,22.5,89,0.0,995.2,8.85,26.3,144,80.6,74.0,45.0,900.0,30.0,55.5,3,5,7,1,2026-05-10T05:23:19.641237+05:30
Pondicherry,Puducherry,11.9139,79.8145,25.6,93,0.1,1006.4,8.0,39.6,21,5.3,4.3,5.6,239.0,44.0,1.5,10,5,4,1,2026-05-10T05:23:19.641246+05:30
Port Blair,Andaman and Nicobar Islands,11.6234,92.7265,24.8,96,0.0,1006.9,9.0,29.9,27,1.1,0.8,0.3,179.0,59.0,0.1,3,5,4,1,2026-05-10T05:23:19.641254+05:30
Haridwar,Uttarakhand,29.9457,78.1642,20.3,86,0.0,974.7,7.45,28.8,107,66.1,50.3,32.2,325.0,17.0,4.4,3,5,7,1,2026-05-10T05:23:19.641271+05:30
Rishikesh,Uttarakhand,30.0869,78.2676,18.0,92,0.0,967.2,7.55,23.8,94,80.6,45.9,17.4,365.0,57.0,3.8,3,10,7,1,2026-05-10T05:23:19.641287+05:30
Nainital,Uttarakhand,29.3919,79.4542,11.0,88,0.0,804.8,8.1,32.8,83,50.6,36.6,17.8,273.0,66.0,3.8,3,10,7,0,2026-05-10T05:23:19.641302+05:30
Mussoorie,Uttarakhand,30.4599,78.0664,12.2,89,0.0,802.1,7.95,39.2,94,62.9,41.7,32.0,295.0,17.0,5.9,3,10,7,0,2026-05-10T05:23:19.641318+05:30
Dharamshala,Himachal Pradesh,32.219,76.3234,19.3,69,0.0,869.0,7.7,35.6,80,36.6,15.7,12.2,295.0,56.0,0.4,3,5,7,0,2026-05-10T05:23:19.641339+05:30
Dalhousie,Himachal Pradesh,32.5387,75.971,8.7,95,0.0,800.3,7.95,35.3,130,74.5,43.1,19.4,328.0,47.0,2.2,3,10,7,0,2026-05-10T05:23:19.641358+05:30
Patiala,Punjab,30.3398,76.3869,23.0,78,0.0,978.1,7.6,34.9,219,329.7,70.8,9.7,485.0,80.0,6.8,3,5,7,1,2026-05-10T05:23:19.641372+05:30
Bhatinda,Punjab,30.211,74.9455,25.7,61,0.0,982.9,8.25,29.2,355,523.4,114.8,7.2,441.0,94.0,12.2,7,5,7,1,2026-05-10T05:23:19.641384+05:30
Rohtak,Haryana,28.8955,76.6066,23.8,75,0.0,981.8,7.7,29.9,294,464.7,92.9,19.6,446.0,73.0,22.3,3,5,7,1,2026-05-10T05:23:19.641391+05:30
Panipat,Haryana,29.3909,76.9635,22.6,80,0.0,980.6,7.55,31.0,604,558.8,91.7,16.9,403.0,74.0,17.7,3,5,7,1,2026-05-10T05:23:19.641398+05:30
Mathura,Uttar Pradesh,27.4924,77.6737,23.2,73,0.0,986.6,7.9,22.0,688,316.6,73.8,7.8,374.0,84.0,8.7,3,5,7,1,2026-05-10T05:23:19.641405+05:30
Vrindavan,Uttar Pradesh,27.5823,77.7027,23.5,72,0.0,987.1,7.9,22.3,688,316.6,73.8,7.8,380.0,84.0,8.7,3,5,7,1,2026-05-10T05:23:19.641442+05:30
Ayodhya,Uttar Pradesh,26.7922,82.1998,23.0,75,0.0,996.9,8.2,32.0,104,50.4,43.9,18.1,437.0,67.0,9.4,3,5,7,1,2026-05-10T05:23:19.641451+05:30
Ratlam,Madhya Pradesh,23.3315,75.0367,25.5,34,0.0,952.4,8.5,43.6,49,15.8,10.1,3.8,232.0,74.0,3.4,4,5,7,0,2026-05-10T05:23:19.641458+05:30
Sagar,Madhya Pradesh,23.8388,78.7378,23.1,54,0.0,947.8,8.65,35.3,59,34.2,22.0,10.4,298.0,77.0,6.0,0,5,7,0,2026-05-10T05:23:19.641464+05:30
Satna,Madhya Pradesh,24.6005,80.8322,22.5,71,0.0,970.1,8.65,28.4,113,48.5,44.0,10.7,414.0,107.0,15.5,3,5,7,1,2026-05-10T05:23:19.641475+05:30
Akola,Maharashtra,20.7002,77.0082,27.5,42,0.0,973.6,8.9,39.6,86,61.7,33.3,24.1,286.0,42.0,8.9,4,5,7,0,2026-05-10T05:23:19.641485+05:30
Amravati,Maharashtra,20.9374,77.7796,27.8,49,0.0,966.5,8.85,38.2,84,63.8,34.0,25.1,317.0,39.0,6.3,4,5,7,0,2026-05-10T05:23:19.641493+05:30
Latur,Maharashtra,18.4088,76.5604,26.2,51,0.0,938.7,9.1,37.4,84,36.3,28.0,13.8,306.0,68.0,3.8,4,5,7,0,2026-05-10T05:23:19.641500+05:30
Nanded,Maharashtra,19.1383,77.3091,26.2,58,0.0,967.3,9.0,31.0,84,50.1,35.3,23.8,326.0,45.0,4.6,4,5,7,1,2026-05-10T05:23:19.641507+05:30
Gulbarga,Karnataka,17.3297,76.8343,26.2,57,0.0,957.9,9.1,35.3,62,21.5,18.7,13.2,214.0,53.0,5.9,4,5,7,1,2026-05-10T05:23:19.641513+05:30
Bidar,Karnataka,17.9104,77.5199,24.9,61,0.0,934.4,9.15,34.9,73,27.4,23.5,13.6,231.0,65.0,6.5,3,5,7,1,2026-05-10T05:23:19.641519+05:30
Hospet,Karnataka,15.2689,76.3909,24.4,77,0.0,954.3,9.2,39.2,51,13.2,12.2,14.3,185.0,34.0,4.7,3,5,7,1,2026-05-10T05:23:19.641526+05:30
Tirupur,Tamil Nadu,11.1085,77.3411,24.1,96,0.0,972.8,7.0,28.1,72,26.1,25.3,29.6,266.0,16.0,6.4,3,5,7,1,2026-05-10T05:23:19.641532+05:30
Alappuzha,Kerala,9.4981,76.3388,26.1,90,0.0,1005.3,7.55,30.2,59,18.7,17.9,13.1,274.0,59.0,4.5,7,5,4,1,2026-05-10T05:23:19.641539+05:30
Munnar,Kerala,10.0889,77.0595,15.9,99,0.0,852.2,5.4,22.7,43,7.5,7.4,10.9,157.0,25.0,1.7,3,10,3,0,2026-05-10T05:23:19.641546+05:30
Silchar,Assam,24.8333,92.7789,22.6,94,0.0,1006.6,8.1,15.8,128,76.1,60.5,26.9,635.0,28.0,4.6,3,5,4,1,2026-05-10T05:23:19.641552+05:30
Dibrugarh,Assam,27.4728,94.912,23.2,92,0.0,997.4,8.75,45.4,100,55.9,47.1,32.9,658.0,30.0,1.5,3,5,7,1,2026-05-10T05:23:19.641558+05:30
