city,state,latitude,longitude,temp,humidity,rain,pressure,uv_index,wind_gusts,aqi,pm10,pm2_5,no2,co,o3,so2,mosquito_risk,arthritis_risk,migraine_risk,frizz_risk,updated_at
Delhi,Delhi,28.6139,77.209,30.3,70,0.0,975.7,7.65,27.0,593,380.9,86.6,24.9,505.0,73.0,25.6,3,5,7,1,2026-07-01T01:39:39.938751+05:30
Mumbai,Maharashtra,19.076,72.8777,26.4,91,0.2,1003.9,0.45,42.5,37,15.9,7.8,4.7,154.0,49.0,3.6,10,5,0,1,2026-07-01T01:39:39.938792+05:30
Bangalore,Karnataka,12.9716,77.5946,21.2,88,0.0,910.3,6.75,63.7,18,2.6,2.5,7.9,176.0,35.0,3.3,3,5,7,1,2026-07-01T01:39:39.938807+05:30
Hyderabad,Telangana,17.385,78.4867,24.1,83,0.1,949.6,6.95,46.8,26,4.4,4.0,7.7,193.0,40.0,4.0,6,5,7,1,2026-07-01T01:39:39.938816+05:30
Chennai,Tamil Nadu,13.0827,80.2707,27.0,71,0.0,1004.6,4.9,46.4,37,13.5,12.1,20.8,261.0,36.0,8.4,7,5,0,1,2026-07-01T01:39:39.938825+05:30
Kolkata,West Bengal,22.5726,88.3639,25.7,99,0.0,999.8,8.65,25.6,110,29.2,28.6,15.6,550.0,58.0,6.9,7,5,7,1,2026-07-01T01:39:39.938833+05:30
Pune,Maharashtra,18.5204,73.8567,24.0,89,0.0,943.6,1.6,55.4,18,1.5,1.5,5.5,124.0,42.0,3.9,3,5,3,1,2026-07-01T01:39:39.938840+05:30
Ahmedabad,Gujarat,23.0225,72.5714,30.1,75,0.0,995.6,7.65,41.8,53,18.1,12.3,7.6,166.0,45.0,4.2,3,5,7,1,2026-07-01T01:39:39.938846+05:30
Jaipur,Rajasthan,26.9124,75.7873,27.1,71,0.0,953.1,8.2,33.8,170,220.3,44.9,14.2,213.0,42.0,5.3,7,5,7,1,2026-07-01T01:39:39.938853+05:30
Lucknow,Uttar Pradesh,26.8467,80.9462,28.3,86,0.1,986.8,5.55,25.6,102,51.8,34.6,13.6,476.0,72.0,7.0,10,5,3,1,2026-07-01T01:39:39.938864+05:30
Kanpur,Uttar Pradesh,26.4499,80.3319,28.6,72,0.0,985.1,6.25,27.0,108,82.0,38.2,16.7,220.0,56.0,6.5,7,5,7,1,2026-07-01T01:39:39.938871+05:30
Chandigarh,Chandigarh,30.7333,76.7794,26.9,86,0.0,961.8,6.6,38.9,122,56.8,41.3,30.1,321.0,48.0,8.5,7,5,7,1,2026-07-01T01:39:39.938878+05:30
Srinagar,Jammu and Kashmir,34.0837,74.7973,24.2,70,0.0,836.1,9.1,40.0,93,29.0,28.1,25.9,632.0,24.0,2.3,3,5,7,1,2026-07-01T01:39:39.938887+05:30
Jammu,Jammu and Kashmir,32.7266,74.857,25.2,98,0.3,965.2,8.65,28.1,133,29.1,23.9,17.6,394.0,80.0,3.2,10,5,7,1,2026-07-01T01:39:39.938893+05:30
Amritsar,Punjab,31.634,74.8723,30.1,74,0.0,971.9,8.15,41.0,153,140.2,63.6,13.4,502.0,108.0,15.1,3,5,7,1,2026-07-01T01:39:39.938899+05:30
Ludhiana,Punjab,30.901,75.8573,28.8,84,0.0,970.4,3.1,41.0,164,223.5,63.1,16.3,529.0,90.0,16.4,7,5,3,1,2026-07-01T01:39:39.938905+05:30
Jalandhar,Punjab,31.326,75.5762,29.3,83,0.0,971.5,4.3,36.7,154,105.0,47.1,16.7,555.0,94.0,17.4,7,5,3,1,2026-07-01T01:39:39.938912+05:30
Dehradun,Uttarakhand,30.6284,78.0322,18.8,96,0.0,826.7,7.7,13.3,50,32.7,22.0,23.7,201.0,46.0,0.2,3,10,7,1,2026-07-01T01:39:39.938918+05:30
Shimla,Himachal Pradesh,31.1048,77.1734,15.4,100,0.0,780.0,6.75,20.5,71,34.1,23.7,17.8,330.0,71.0,0.4,3,10,7,0,2026-07-01T01:39:39.938928+05:30
Manali,Himachal Pradesh,32.2396,77.1887,18.7,85,0.0,814.9,4.85,29.9,57,7.1,6.8,105.7,329.0,9.0,0.0,3,10,3,1,2026-07-01T01:39:39.938936+05:30
Gurgaon,Haryana,28.4595,77.0266,30.7,70,0.0,974.0,7.3,28.4,1162,1281.5,238.0,21.6,453.0,78.0,19.6,3,5,7,1,2026-07-01T01:39:39.938943+05:30
Noida,Uttar Pradesh,28.5355,77.391,29.9,72,0.0,977.2,7.55,29.2,1162,1281.5,238.0,21.6,533.0,78.0,19.6,7,5,7,1,2026-07-01T01:39:39.938949+05:30
Ghaziabad,Uttar Pradesh,28.6692,77.4538,29.3,77,0.0,975.6,5.65,30.2,185,143.0,36.0,17.8,480.0,65.0,11.1,7,5,3,1,2026-07-01T01:39:39.938955+05:30
Faridabad,Haryana,28.4089,77.3178,30.6,67,0.0,976.5,6.9,30.6,1162,1281.5,238.0,21.6,463.0,78.0,19.6,3,5,7,1,2026-07-01T01:39:39.938961+05:30
Meerut,Uttar Pradesh,28.9845,77.7064,27.7,87,0.0,974.8,7.5,32.8,185,143.0,36.0,17.8,468.0,65.0,11.1,7,5,7,1,2026-07-01T01:39:39.938967+05:30
Agra,Uttar Pradesh,27.1767,78.0081,26.4,87,0.4,980.8,3.7,28.4,417,449.8,102.2,16.7,180.0,62.0,8.1,10,5,3,1,2026-07-01T01:39:39.938974+05:30
Varanasi,Uttar Pradesh,25.3176,82.9739,29.3,84,0.0,991.1,7.95,21.6,77,27.1,23.1,20.1,529.0,52.0,13.3,7,5,7,1,2026-07-01T01:39:39.938981+05:30
Prayagraj,Uttar Pradesh,25.4358,81.8463,30.4,79,0.0,989.1,7.35,27.4,95,61.9,47.3,23.9,213.0,56.0,10.8,3,5,7,1,2026-07-01T01:39:39.938987+05:30
Gorakhpur,Uttar Pradesh,26.7606,83.3732,26.3,97,0.0,991.3,7.35,27.4,90,39.3,36.9,15.6,387.0,83.0,4.9,7,5,7,1,2026-07-01T01:39:39.938994+05:30
Bareilly,Uttar Pradesh,28.367,79.4304,26.4,91,0.0,981.1,7.95,23.4,84,46.8,37.4,19.7,319.0,56.0,11.1,7,5,7,1,2026-07-01T01:39:39.939002+05:30
Aligarh,Uttar Pradesh,27.8974,78.088,28.0,78,0.1,978.3,4.35,30.6,405,345.5,79.9,18.0,343.0,67.0,12.0,10,5,3,1,2026-07-01T01:39:39.939008+05:30
Moradabad,Uttar Pradesh,28.8386,78.7733,26.6,92,0.1,977.5,7.25,22.3,77,30.2,27.1,18.3,315.0,62.0,8.9,10,5,7,1,2026-07-01T01:39:39.939014+05:30
Saharanpur,Uttar Pradesh,29.9637,77.546,26.3,88,0.1,969.5,6.55,42.1,95,27.4,22.5,17.3,413.0,56.0,9.3,10,5,7,1,2026-07-01T01:39:39.939020+05:30
Jhansi,Uttar Pradesh,25.4484,78.5685,29.3,71,0.0,971.0,6.95,31.0,61,22.1,18.0,9.4,168.0,58.0,3.3,7,5,7,1,2026-07-01T01:39:43.306580+05:30
Surat,Gujarat,21.1702,72.8311,26.1,100,0.2,1001.3,4.3,40.0,57,14.4,11.9,20.0,304.0,32.0,29.8,10,5,0,1,2026-07-01T01:39:43.306611+05:30
Vadodara,Gujarat,22.3072,73.1812,29.0,80,0.0,998.2,5.5,32.0,54,14.8,12.0,18.4,133.0,30.0,20.0,7,5,3,1,2026-07-01T01:39:43.306621+05:30
Rajkot,Gujarat,22.3039,70.8022,29.5,72,0.0,988.0,4.35,46.1,48,15.1,8.6,5.2,98.0,44.0,5.3,7,5,3,1,2026-07-01T01:39:43.306629+05:30
Thane,Maharashtra,19.2183,72.9781,25.8,97,0.1,1003.3,0.35,35.6,37,15.9,7.8,4.7,171.0,49.0,3.6,10,5,0,1,2026-07-01T01:39:43.306637+05:30
Nagpur,Maharashtra,21.1458,79.0882,25.8,95,0.0,967.8,5.85,31.0,61,17.8,15.6,11.6,268.0,61.0,7.6,7,5,3,1,2026-07-01T01:39:43.306646+05:30
Nashik,Maharashtra,19.9975,73.7898,23.3,98,0.0,940.7,4.35,49.3,22,2.5,2.2,10.9,137.0,34.0,9.0,3,5,3,1,2026-07-01T01:39:43.306653+05:30
Aurangabad,Maharashtra,19.8762,75.3433,23.9,94,0.0,939.6,3.05,45.4,34,5.6,5.1,11.0,173.0,39.0,10.3,3,5,3,1,2026-07-01T01:39:43.306660+05:30
Solapur,Maharashtra,17.6599,75.9064,25.2,87,0.0,953.9,1.95,54.4,21,2.9,2.8,6.4,137.0,37.0,2.2,7,5,3,1,2026-07-01T01:39:43.306668+05:30
Kolhapur,Maharashtra,16.705,74.2433,22.8,96,0.2,945.2,0.95,52.6,20,2.4,2.2,3.7,113.0,43.0,1.6,6,5,3,1,2026-07-01T01:39:43.306676+05:30
Goa,Goa,15.2993,74.124,24.5,98,0.3,997.1,2.2,30.6,29,12.6,7.3,2.4,164.0,48.0,0.5,6,5,3,1,2026-07-01T01:39:43.306683+05:30
Jodhpur,Rajasthan,26.2389,73.0243,32.7,48,0.0,975.0,8.45,36.7,167,197.9,47.5,5.2,146.0,52.0,2.0,0,5,7,1,2026-07-01T01:39:43.306690+05:30
Udaipur,Rajasthan,24.5854,73.7125,26.2,78,0.0,940.5,8.7,38.2,55,15.9,12.3,10.2,150.0,53.0,10.8,7,5,7,1,2026-07-01T01:39:43.306697+05:30
Kota,Rajasthan,25.2138,75.8648,27.7,79,0.0,972.0,5.65,31.7,61,25.8,17.3,7.4,194.0,66.0,5.4,7,5,3,1,2026-07-01T01:39:43.306704+05:30
Bikaner,Rajasthan,28.0229,73.3119,33.6,45,0.0,973.1,8.45,32.0,164,205.4,63.6,2.7,115.0,58.0,3.2,0,5,7,1,2026-07-01T01:39:43.306711+05:30
Ajmer,Rajasthan,26.4499,74.6399,29.7,58,0.0,947.9,8.2,45.4,67,25.3,14.3,9.5,164.0,49.0,4.1,4,5,7,1,2026-07-01T01:39:43.306718+05:30
Gwalior,Madhya Pradesh,26.2183,78.1828,28.8,74,0.0,976.0,8.2,28.1,89,21.8,15.3,6.1,146.0,71.0,3.7,7,5,7,1,2026-07-01T01:39:43.306725+05:30
Indore,Madhya Pradesh,22.7196,75.8577,24.7,89,0.0,942.7,7.45,37.8,67,15.3,14.2,8.5,207.0,70.0,9.1,3,5,7,1,2026-07-01T01:39:43.306732+05:30
Bhopal,Madhya Pradesh,23.2599,77.4126,24.6,94,0.0,948.1,7.3,32.4,62,20.5,18.0,7.7,228.0,64.0,3.4,3,5,7,1,2026-07-01T01:39:43.306739+05:30
Jabalpur,Madhya Pradesh,23.1815,79.9864,25.2,96,0.0,955.9,8.15,27.7,55,22.7,17.2,7.4,231.0,73.0,4.0,7,5,7,1,2026-07-01T01:39:43.306745+05:30
Ujjain,Madhya Pradesh,23.1765,75.7885,25.7,82,0.0,948.3,8.1,34.9,64,14.3,13.0,6.5,218.0,71.0,9.0,7,5,7,1,2026-07-01T01:39:43.306752+05:30
Visakhapatnam,Andhra Pradesh,17.6868,83.2185,28.3,88,0.0,997.3,5.8,34.9,78,42.6,40.2,41.2,673.0,32.0,43.6,7,5,3,1,2026-07-01T01:39:43.306759+05:30
Vijayawada,Andhra Pradesh,16.5062,80.648,25.7,81,0.2,998.6,6.45,35.6,41,9.2,8.8,9.1,157.0,51.0,3.4,10,5,7,1,2026-07-01T01:39:43.306766+05:30
Guntur,Andhra Pradesh,16.3067,80.4365,25.7,77,0.2,999.9,6.5,46.1,34,9.0,8.5,9.9,190.0,49.0,4.1,10,5,7,1,2026-07-01T01:39:43.306773+05:30
Nellore,Andhra Pradesh,14.4426,79.9865,27.3,68,0.0,1002.5,4.85,52.2,28,6.8,5.9,8.7,210.0,38.0,2.9,7,5,0,1,2026-07-01T01:39:43.306780+05:30
Kurnool,Andhra Pradesh,15.8281,78.0373,26.7,73,0.0,974.4,3.15,61.2,26,2.8,2.5,6.4,126.0,39.0,2.0,7,5,3,1,2026-07-01T01:39:43.306788+05:30
Kakinada,Andhra Pradesh,16.9891,82.2475,27.8,86,0.0,1001.8,6.4,47.9,47,11.2,8.8,6.1,253.0,69.0,2.4,7,5,4,1,2026-07-01T01:39:43.306795+05:30
Tirupati,Andhra Pradesh,13.6288,79.4192,27.7,64,0.0,988.4,6.8,45.0,19,5.5,5.1,10.9,175.0,31.0,2.1,7,5,7,1,2026-07-01T01:39:43.306802+05:30
Warangal,Telangana,17.9689,79.5941,26.2,86,0.0,974.7,2.45,37.8,39,4.3,4.2,5.9,129.0,50.0,1.4,7,5,3,1,2026-07-01T01:39:43.306808+05:30
Nizamabad,Telangana,18.6725,78.0941,24.2,99,0.1,960.7,1.1,40.3,42,5.6,5.4,9.1,166.0,42.0,4.3,6,5,3,1,2026-07-01T01:39:43.306815+05:30
Mysore,Karnataka,12.2958,76.6396,21.9,89,0.0,927.9,2.05,58.7,19,1.9,1.8,4.9,115.0,38.0,1.5,3,5,3,1,2026-07-01T01:39:43.306822+05:30
Mangalore,Karnataka,12.9141,74.856,25.1,91,0.6,1007.5,3.75,37.8,31,10.2,6.3,3.4,101.0,39.0,1.1,10,5,0,1,2026-07-01T01:39:43.306828+05:30
Hubli-Dharwad,Karnataka,15.3647,75.124,22.3,96,0.1,938.8,4.9,61.6,20,0.9,0.8,2.9,108.0,43.0,0.8,6,5,3,1,2026-07-01T01:39:43.306835+05:30
Belgaum,Karnataka,15.8497,74.4977,21.5,99,0.2,923.5,1.85,55.1,20,1.3,1.2,2.9,105.0,45.0,1.0,6,5,3,1,2026-07-01T01:39:46.711451+05:30
Coimbatore,Tamil Nadu,11.0168,76.9558,22.8,95,0.0,961.3,1.8,56.5,20,4.7,3.6,5.9,168.0,33.0,2.3,3,5,3,1,2026-07-01T01:39:46.711486+05:30
Madurai,Tamil Nadu,9.9252,78.1198,26.7,75,0.0,992.5,7.2,50.8,56,17.6,15.1,26.1,120.0,10.0,5.4,7,5,7,1,2026-07-01T01:39:46.711498+05:30
Trichy,Tamil Nadu,10.7905,78.7047,28.2,62,0.0,998.9,4.0,57.6,26,5.4,3.7,4.4,106.0,36.0,2.1,7,5,3,1,2026-07-01T01:39:46.711509+05:30
Salem,Tamil Nadu,11.6643,78.146,24.4,86,0.0,976.7,2.2,33.8,49,16.1,13.6,21.7,326.0,24.0,7.1,3,5,3,1,2026-07-01T01:39:46.711517+05:30
Tirunelveli,Tamil Nadu,8.7139,77.7567,27.6,64,0.0,1003.5,6.35,42.8,26,6.3,4.2,4.2,154.0,36.0,1.8,7,5,4,1,2026-07-01T01:39:46.711525+05:30
Vellore,Tamil Nadu,12.9165,79.1325,26.8,66,0.0,982.5,3.85,51.5,25,5.7,5.1,11.2,144.0,33.0,3.6,7,5,3,1,2026-07-01T01:39:46.711533+05:30
Erode,Tamil Nadu,11.341,77.7172,25.1,82,0.0,988.7,2.25,46.1,42,13.5,11.6,16.0,147.0,26.0,3.8,7,5,3,1,2026-07-01T01:39:46.711540+05:30
Kochi,Kerala,9.9312,76.2673,24.5,98,0.2,1010.6,4.7,34.6,46,14.7,11.5,15.4,217.0,15.0,4.0,6,0,0,1,2026-07-01T01:39:46.711547+05:30
Thiruvananthapuram,Kerala,8.5241,76.9366,24.3,94,0.0,1009.6,7.85,44.6,37,15.0,9.4,4.8,183.0,39.0,2.1,3,0,4,1,2026-07-01T01:39:46.711553+05:30
Kozhikode,Kerala,11.2588,75.7804,23.9,98,0.5,1009.8,7.3,28.4,28,9.9,4.8,0.9,167.0,51.0,0.6,6,0,4,1,2026-07-01T01:39:46.711559+05:30
Thrissur,Kerala,10.5276,76.2144,23.7,100,0.0,1008.9,3.05,33.1,42,13.9,10.7,9.2,294.0,27.0,3.0,3,0,0,1,2026-07-01T01:39:46.711566+05:30
Kannur,Kerala,11.8745,75.3704,24.3,98,0.1,1008.6,8.25,30.2,31,9.5,5.6,4.2,161.0,38.0,1.1,6,0,4,1,2026-07-01T01:39:46.711573+05:30
Patna,Bihar,25.5941,85.1376,27.0,98,0.0,994.2,8.25,27.7,116,61.7,59.4,18.0,428.0,88.0,14.0,7,5,7,1,2026-07-01T01:39:46.711579+05:30
Gaya,Bihar,24.7914,85.0002,27.6,95,0.0,987.6,8.3,30.2,103,51.5,50.3,20.5,457.0,64.0,10.1,7,5,7,1,2026-07-01T01:39:46.711585+05:30
Muzaffarpur,Bihar,26.1209,85.3647,26.1,99,0.0,994.7,8.2,26.6,104,48.7,46.3,17.4,377.0,83.0,11.2,7,5,7,1,2026-07-01T01:39:46.711592+05:30
Bhagalpur,Bihar,25.2425,87.0117,27.2,95,0.0,995.1,7.65,31.3,133,60.5,60.1,12.3,325.0,104.0,16.4,7,5,7,1,2026-07-01T01:39:46.711598+05:30
Ranchi,Jharkhand,23.3441,85.3096,23.2,94,0.0,931.7,8.9,24.5,100,35.7,35.3,10.3,329.0,86.0,7.4,3,5,7,1,2026-07-01T01:39:46.711605+05:30
Jamshedpur,Jharkhand,22.8046,86.2029,26.4,99,0.0,984.6,5.1,17.3,128,36.6,36.1,21.4,418.0,64.0,25.1,7,5,3,1,2026-07-01T01:39:46.711612+05:30
Dhanbad,Jharkhand,23.7957,86.4304,26.0,100,0.1,973.9,6.3,22.3,166,121.5,121.1,60.6,438.0,42.0,156.4,10,5,7,1,2026-07-01T01:39:46.711619+05:30
Bokaro,Jharkhand,23.6693,86.1511,26.0,97,0.1,977.6,7.3,29.2,159,113.2,112.0,47.7,3511.0,64.0,137.2,10,5,7,1,2026-07-01T01:39:46.711626+05:30
Bhubaneswar,Odisha,20.2961,85.8245,26.2,95,0.1,996.4,7.15,28.8,71,24.0,23.5,11.8,326.0,69.0,5.3,10,5,7,1,2026-07-01T01:39:46.711633+05:30
Cuttack,Odisha,20.4625,85.8828,26.3,93,0.2,998.2,5.45,30.2,71,24.0,23.5,11.8,282.0,69.0,5.3,10,5,3,1,2026-07-01T01:39:46.711639+05:30
Rourkela,Odisha,22.2604,84.8536,25.8,97,0.0,979.0,8.6,31.0,80,24.9,24.4,9.9,590.0,91.0,7.5,7,5,7,1,2026-07-01T01:39:46.711646+05:30
Raipur,Chhattisgarh,21.2514,81.6296,25.9,93,0.0,968.6,5.9,21.6,82,32.4,31.0,36.5,405.0,48.0,46.6,7,5,3,1,2026-07-01T01:39:46.711652+05:30
Bhilai,Chhattisgarh,21.1938,81.3509,26.5,90,0.0,969.0,7.5,27.4,77,30.6,28.9,31.8,583.0,52.0,41.0,7,5,7,1,2026-07-01T01:39:46.711658+05:30
Guwahati,Assam,26.1158,91.7086,25.7,97,0.1,996.5,8.25,18.0,61,10.3,10.2,10.4,390.0,37.0,1.7,10,5,7,1,2026-07-01T01:39:46.711665+05:30
Agartala,Tripura,23.8315,91.2868,25.9,97,0.0,1000.6,8.05,36.0,53,14.4,14.2,12.3,221.0,48.0,2.6,7,5,4,1,2026-07-01T01:39:46.711671+05:30
Shillong,Meghalaya,25.5788,91.8933,19.2,100,0.0,853.2,5.1,16.2,36,10.7,10.6,8.5,233.0,47.0,2.3,3,10,3,1,2026-07-01T01:39:46.711678+05:30
Imphal,Manipur,24.817,93.9368,23.4,95,0.0,919.0,5.0,23.0,37,16.2,15.9,12.6,379.0,27.0,2.7,3,5,3,1,2026-07-01T01:39:46.711684+05:30
Aizawl,Mizoram,23.7271,92.7176,20.1,99,0.1,888.0,6.2,24.8,24,7.1,7.1,8.2,164.0,20.0,0.5,6,5,7,1,2026-07-01T01:39:46.711691+05:30
Kohima,Nagaland,25.6701,94.1077,20.0,93,0.1,851.7,5.25,23.0,23,5.5,5.4,12.8,278.0,18.0,0.8,6,5,3,1,2026-07-01T01:39:46.711697+05:30
Gangtok,Sikkim,27.3314,88.6138,18.8,95,0.1,835.0,6.85,30.6,64,11.4,10.6,6.1,420.0,111.0,2.5,6,10,7,1,2026-07-01T01:39:46.711703+05:30
Siliguri,West Bengal,26.7271,88.3953,25.3,92,0.1,987.9,8.3,23.4,82,44.5,42.6,14.4,340.0,89.0,6.5,10,5,7,1,2026-07-01T01:39:50.084126+05:30
Durgapur,West Bengal,23.5204,87.3119,25.6,100,0.1,989.0,8.75,21.6,163,61.9,61.7,26.5,522.0,70.0,26.6,10,5,7,1,2026-07-01T01:39:50.084158+05:30
Asansol,West Bengal,23.6739,86.9524,26.0,99,0.2,987.7,7.0,21.6,161,66.6,66.4,28.9,834.0,69.0,38.4,10,5,7,1,2026-07-01T01:39:50.084169+05:30
Pondicherry,Puducherry,11.9139,79.8145,27.5,75,0.0,1006.9,2.3,40.7,46,16.4,13.4,17.3,307.0,51.0,10.6,7,5,0,1,2026-07-01T01:39:50.084179+05:30
Port Blair,Andaman and Nicobar Islands,11.6234,92.7265,25.6,99,0.4,1005.2,3.25,48.6,27,7.8,4.9,0.1,86.0,65.0,0.4,10,5,0,1,2026-07-01T01:39:50.084188+05:30
Haridwar,Uttarakhand,29.9457,78.1642,25.5,91,0.2,968.3,6.15,20.9,83,32.6,26.3,16.5,304.0,48.0,6.2,10,5,7,1,2026-07-01T01:39:50.084196+05:30
Rishikesh,Uttarakhand,30.0869,78.2676,25.2,100,0.1,961.2,6.85,14.0,69,37.5,19.4,9.9,373.0,77.0,3.9,10,5,7,1,2026-07-01T01:39:50.084203+05:30
Nainital,Uttarakhand,29.3919,79.4542,16.7,97,0.0,801.8,4.65,27.0,42,14.3,11.2,10.0,235.0,89.0,1.8,3,10,3,1,2026-07-01T01:39:50.084212+05:30
Mussoorie,Uttarakhand,30.4599,78.0664,17.1,99,0.0,799.5,4.9,20.2,73,32.2,21.9,21.1,320.0,54.0,5.3,3,10,3,1,2026-07-01T01:39:50.084220+05:30
Dharamshala,Himachal Pradesh,32.219,76.3234,22.0,96,0.0,864.0,6.5,31.0,37,8.1,7.3,12.4,349.0,70.0,0.2,3,5,7,1,2026-07-01T01:39:50.084227+05:30
Dalhousie,Himachal Pradesh,32.5387,75.971,17.4,96,0.0,800.3,7.9,22.7,81,24.3,18.8,21.2,493.0,80.0,2.2,3,10,7,1,2026-07-01T01:39:50.084236+05:30
Patiala,Punjab,30.3398,76.3869,28.0,80,0.0,970.9,5.25,41.4,173,726.4,117.6,13.5,454.0,87.0,16.1,7,5,3,1,2026-07-01T01:39:50.084243+05:30
Bhatinda,Punjab,30.211,74.9455,31.7,69,0.0,974.6,5.15,32.8,165,845.6,207.7,12.8,404.0,104.0,15.5,3,5,3,1,2026-07-01T01:39:50.084251+05:30
Rohtak,Haryana,28.8955,76.6066,30.7,71,0.0,974.1,6.7,29.5,1434,1549.7,260.8,20.9,505.0,93.0,28.2,3,5,7,1,2026-07-01T01:39:50.084258+05:30
Panipat,Haryana,29.3909,76.9635,28.5,77,0.0,973.4,5.65,33.8,1953,2548.1,346.5,22.5,467.0,69.0,21.2,7,5,3,1,2026-07-01T01:39:50.084265+05:30
Mathura,Uttar Pradesh,27.4924,77.6737,27.6,83,0.1,980.1,7.95,33.1,616,933.2,172.3,18.3,204.0,65.0,9.1,10,5,7,1,2026-07-01T01:39:50.084272+05:30
Vrindavan,Uttar Pradesh,27.5823,77.7027,29.0,77,0.0,980.4,7.9,31.0,616,933.2,172.3,18.3,227.0,65.0,9.1,7,5,7,1,2026-07-01T01:39:50.084279+05:30
Ayodhya,Uttar Pradesh,26.7922,82.1998,27.3,89,0.0,989.0,5.8,29.5,97,41.8,36.6,12.3,513.0,96.0,5.6,7,5,3,1,2026-07-01T01:39:50.084286+05:30
Ratlam,Madhya Pradesh,23.3315,75.0367,25.9,81,0.0,949.3,6.45,37.4,60,12.8,11.5,6.8,180.0,65.0,11.2,7,5,7,1,2026-07-01T01:39:50.084294+05:30
Sagar,Madhya Pradesh,23.8388,78.7378,25.1,89,0.0,944.3,8.7,35.6,58,18.1,14.6,7.1,231.0,69.0,3.5,7,5,7,1,2026-07-01T01:39:50.084301+05:30
Satna,Madhya Pradesh,24.6005,80.8322,27.3,91,0.0,964.9,8.3,25.6,67,23.3,18.0,10.2,222.0,64.0,4.7,7,5,7,1,2026-07-01T01:39:50.084308+05:30
Akola,Maharashtra,20.7002,77.0082,25.8,98,0.1,970.4,1.3,32.8,56,13.7,11.8,10.5,187.0,51.0,6.1,10,5,3,1,2026-07-01T01:39:50.084316+05:30
Amravati,Maharashtra,20.9374,77.7796,25.2,97,0.0,962.5,1.4,34.6,56,16.2,14.1,11.5,176.0,57.0,5.3,7,5,3,1,2026-07-01T01:39:50.084324+05:30
Latur,Maharashtra,18.4088,76.5604,24.3,83,0.0,935.9,4.0,50.0,24,3.6,3.5,6.9,152.0,37.0,2.3,3,5,3,1,2026-07-01T01:39:50.084332+05:30
Nanded,Maharashtra,19.1383,77.3091,25.0,96,0.4,964.6,0.9,36.0,40,5.4,5.0,8.1,169.0,43.0,2.6,10,5,3,1,2026-07-01T01:39:50.084339+05:30
Gulbarga,Karnataka,17.3297,76.8343,25.3,79,0.0,955.7,2.05,55.4,22,2.4,2.3,6.6,129.0,38.0,2.6,7,5,3,1,2026-07-01T01:39:50.084346+05:30
Bidar,Karnataka,17.9104,77.5199,23.9,86,0.0,931.8,3.5,47.5,23,3.7,3.5,7.2,141.0,37.0,2.1,3,5,3,1,2026-07-01T01:39:50.084352+05:30
Hospet,Karnataka,15.2689,76.3909,24.1,86,0.0,953.9,6.1,63.4,21,1.4,1.3,3.8,116.0,41.0,1.3,3,5,7,1,2026-07-01T01:39:50.084379+05:30
Tirupur,Tamil Nadu,11.1085,77.3411,23.4,90,0.0,974.8,2.5,62.3,48,16.7,14.5,20.2,140.0,20.0,4.8,3,5,3,1,2026-07-01T01:39:50.084388+05:30
Alappuzha,Kerala,9.4981,76.3388,25.2,93,0.0,1010.5,7.55,35.6,43,13.5,7.8,7.5,85.0,35.0,2.5,7,0,4,1,2026-07-01T01:39:50.084395+05:30
Munnar,Kerala,10.0889,77.0595,16.5,95,0.2,856.6,5.95,43.9,18,2.1,2.0,5.8,88.0,25.0,1.3,6,10,3,0,2026-07-01T01:39:50.084403+05:30
Silchar,Assam,24.8333,92.7789,25.7,99,0.1,1000.1,7.55,19.4,53,15.0,14.6,6.8,201.0,56.0,3.6,10,5,4,1,2026-07-01T01:39:50.084410+05:30
Dibrugarh,Assam,27.4728,94.912,26.6,92,0.0,990.2,8.4,26.3,70,33.1,32.5,18.9,443.0,38.0,2.6,7,5,7,1,2026-07-01T01:39:50.084417+05:30
