city,state,latitude,longitude,temp,humidity,rain,pressure,uv_index,wind_gusts,aqi,pm10,pm2_5,mosquito_risk,arthritis_risk,migraine_risk,frizz_risk,updated_at
Delhi,Delhi,28.6139,77.209,23.4,55,0.0,980.2,6.05,22.7,140,185.3,89.9,0,5,7,0,2026-03-29T02:05:26.753130+05:30
Mumbai,Maharashtra,19.076,72.8777,27.5,79,0.0,1007.4,8.0,23.0,68,43.5,15.1,7,5,4,1,2026-03-29T02:05:26.753170+05:30
Bangalore,Karnataka,12.9716,77.5946,22.3,77,0.0,910.5,9.5,31.3,115,44.4,40.3,3,5,7,1,2026-03-29T02:05:26.753185+05:30
Hyderabad,Telangana,17.385,78.4867,27.2,51,0.0,950.6,9.05,24.1,109,55.9,51.0,4,5,7,1,2026-03-29T02:05:26.753195+05:30
Chennai,Tamil Nadu,13.0827,80.2707,26.2,89,0.0,1005.8,9.3,36.0,65,20.1,14.3,7,5,4,1,2026-03-29T02:05:26.753204+05:30
Kolkata,West Bengal,22.5726,88.3639,22.7,92,0.0,1005.4,8.45,27.0,139,36.1,32.0,3,5,4,1,2026-03-29T02:05:26.753213+05:30
Pune,Maharashtra,18.5204,73.8567,22.3,50,0.0,946.5,8.55,32.4,68,27.6,21.8,0,5,7,0,2026-03-29T02:05:26.753225+05:30
Ahmedabad,Gujarat,23.0225,72.5714,26.2,67,0.0,1000.0,7.85,25.9,34,17.4,6.6,7,5,4,1,2026-03-29T02:05:26.753255+05:30
Jaipur,Rajasthan,26.9124,75.7873,26.4,44,0.0,956.8,7.15,33.1,87,140.2,30.9,4,5,7,0,2026-03-29T02:05:26.753265+05:30
Lucknow,Uttar Pradesh,26.8467,80.9462,23.5,61,0.0,991.4,7.25,18.7,125,255.2,58.0,3,5,7,0,2026-03-29T02:05:26.753273+05:30
Kanpur,Uttar Pradesh,26.4499,80.3319,23.2,65,0.0,989.5,7.1,18.0,184,314.8,63.3,3,5,7,1,2026-03-29T02:05:26.753280+05:30
Chandigarh,Chandigarh,30.7333,76.7794,21.4,77,0.0,966.0,6.6,27.4,75,38.4,37.4,3,5,7,1,2026-03-29T02:05:26.753288+05:30
Srinagar,Jammu and Kashmir,34.0837,74.7973,11.9,83,0.0,836.6,7.4,15.8,93,69.4,58.2,3,10,7,0,2026-03-29T02:05:26.753295+05:30
Jammu,Jammu and Kashmir,32.7266,74.857,20.9,89,0.1,970.9,7.35,20.5,81,46.4,42.1,6,5,7,1,2026-03-29T02:05:26.753302+05:30
Amritsar,Punjab,31.634,74.8723,21.6,69,0.0,978.3,7.3,36.7,117,47.5,36.1,3,5,7,0,2026-03-29T02:05:26.753309+05:30
Ludhiana,Punjab,30.901,75.8573,22.5,70,0.0,975.8,6.95,34.6,114,57.2,52.0,3,5,7,1,2026-03-29T02:05:26.753318+05:30
Jalandhar,Punjab,31.326,75.5762,22.1,72,0.0,977.0,7.15,33.8,110,69.4,54.6,3,5,7,1,2026-03-29T02:05:26.753339+05:30
Dehradun,Uttarakhand,30.6284,78.0322,13.4,86,0.0,826.9,4.8,20.9,58,31.4,23.1,3,10,3,0,2026-03-29T02:05:26.753352+05:30
Shimla,Himachal Pradesh,31.1048,77.1734,12.2,82,0.0,781.2,6.8,25.2,65,36.8,32.0,3,10,7,0,2026-03-29T02:05:26.753360+05:30
Manali,Himachal Pradesh,32.2396,77.1887,15.0,62,0.0,816.7,8.45,24.5,69,33.5,16.5,3,5,7,0,2026-03-29T02:05:26.753366+05:30
Gurgaon,Haryana,28.4595,77.0266,21.2,64,0.0,978.3,6.1,24.5,255,238.0,88.7,3,5,7,0,2026-03-29T02:05:26.753372+05:30
Noida,Uttar Pradesh,28.5355,77.391,22.8,57,0.0,981.7,6.05,20.5,255,238.0,88.7,0,5,7,0,2026-03-29T02:05:26.753379+05:30
Ghaziabad,Uttar Pradesh,28.6692,77.4538,21.6,63,0.0,979.8,6.4,20.5,136,182.1,89.6,3,5,7,0,2026-03-29T02:05:26.753385+05:30
Faridabad,Haryana,28.4089,77.3178,22.2,57,0.0,981.0,6.15,20.9,255,238.0,88.7,0,5,7,0,2026-03-29T02:05:26.753391+05:30
Meerut,Uttar Pradesh,28.9845,77.7064,20.6,72,0.0,978.7,5.75,17.6,136,182.1,89.6,3,5,3,0,2026-03-29T02:05:26.753398+05:30
Agra,Uttar Pradesh,27.1767,78.0081,22.0,64,0.0,985.0,6.95,26.3,383,430.3,83.6,3,5,7,0,2026-03-29T02:05:26.753405+05:30
Varanasi,Uttar Pradesh,25.3176,82.9739,21.8,68,0.0,995.3,7.95,24.5,93,92.7,51.0,3,5,7,0,2026-03-29T02:05:26.753413+05:30
Prayagraj,Uttar Pradesh,25.4358,81.8463,22.7,67,0.0,993.9,7.8,21.6,97,112.0,63.8,3,5,7,1,2026-03-29T02:05:26.753420+05:30
Gorakhpur,Uttar Pradesh,26.7606,83.3732,21.0,88,0.0,995.7,7.3,26.3,94,79.4,58.4,3,5,7,1,2026-03-29T02:05:26.753427+05:30
Bareilly,Uttar Pradesh,28.367,79.4304,21.0,75,0.0,984.6,7.0,17.3,85,144.4,58.7,3,5,7,1,2026-03-29T02:05:26.753433+05:30
Aligarh,Uttar Pradesh,27.8974,78.088,20.3,68,0.0,982.8,6.8,16.9,270,495.5,112.9,3,5,7,0,2026-03-29T02:05:26.753441+05:30
Moradabad,Uttar Pradesh,28.8386,78.7733,21.5,71,0.0,981.2,6.55,16.9,105,92.9,78.5,3,5,7,0,2026-03-29T02:05:26.753449+05:30
Saharanpur,Uttar Pradesh,29.9637,77.546,20.2,83,0.0,973.3,5.7,20.5,118,77.3,65.9,3,5,3,1,2026-03-29T02:05:26.753455+05:30
Jhansi,Uttar Pradesh,25.4484,78.5685,24.4,53,0.0,975.0,7.75,27.7,86,102.4,28.3,0,5,7,0,2026-03-29T02:05:29.976043+05:30
Surat,Gujarat,21.1702,72.8311,27.0,87,0.0,1004.7,7.75,25.2,77,18.9,16.5,7,5,4,1,2026-03-29T02:05:29.976075+05:30
Vadodara,Gujarat,22.3072,73.1812,26.2,86,0.0,1002.4,7.95,25.6,56,27.2,16.2,7,5,4,1,2026-03-29T02:05:29.976088+05:30
Rajkot,Gujarat,22.3039,70.8022,24.6,84,0.0,993.2,7.75,32.4,34,28.2,8.8,3,5,7,1,2026-03-29T02:05:29.976098+05:30
Thane,Maharashtra,19.2183,72.9781,26.2,83,0.0,1006.9,8.0,35.6,68,43.5,15.1,7,5,4,1,2026-03-29T02:05:29.976107+05:30
Nagpur,Maharashtra,21.1458,79.0882,25.3,43,0.0,969.9,8.55,15.1,66,55.9,43.9,4,5,7,0,2026-03-29T02:05:29.976115+05:30
Nashik,Maharashtra,19.9975,73.7898,20.9,67,0.0,943.6,8.25,28.4,53,52.7,15.0,3,5,7,0,2026-03-29T02:05:29.976123+05:30
Aurangabad,Maharashtra,19.8762,75.3433,24.4,36,0.0,942.0,8.75,28.1,46,24.5,10.5,0,5,7,0,2026-03-29T02:05:29.976131+05:30
Solapur,Maharashtra,17.6599,75.9064,26.7,39,0.0,955.1,8.9,23.8,73,18.8,18.0,4,5,7,0,2026-03-29T02:05:29.976140+05:30
Kolhapur,Maharashtra,16.705,74.2433,19.9,77,0.0,945.9,9.0,30.6,111,21.8,21.1,3,5,7,0,2026-03-29T02:05:29.976147+05:30
Goa,Goa,15.2993,74.124,27.3,79,0.0,996.4,8.95,37.1,100,49.2,43.7,7,5,7,1,2026-03-29T02:05:29.976155+05:30
Jodhpur,Rajasthan,26.2389,73.0243,26.5,63,0.0,979.2,7.8,39.2,89,153.7,23.4,7,5,7,1,2026-03-29T02:05:29.976164+05:30
Udaipur,Rajasthan,24.5854,73.7125,23.4,64,0.0,943.9,8.4,31.0,36,21.9,7.6,3,5,7,1,2026-03-29T02:05:29.976172+05:30
Kota,Rajasthan,25.2138,75.8648,27.3,44,0.0,976.1,7.45,28.1,60,27.2,16.6,4,5,7,0,2026-03-29T02:05:29.976180+05:30
Bikaner,Rajasthan,28.0229,73.3119,27.9,41,0.0,976.9,7.55,31.3,48,247.7,48.4,4,5,7,0,2026-03-29T02:05:29.976188+05:30
Ajmer,Rajasthan,26.4499,74.6399,23.5,60,0.0,951.2,7.75,40.0,43,38.5,9.7,0,5,7,0,2026-03-29T02:05:29.976195+05:30
Gwalior,Madhya Pradesh,26.2183,78.1828,24.1,63,0.0,980.5,7.45,22.0,134,271.9,45.9,3,5,7,1,2026-03-29T02:05:29.976203+05:30
Indore,Madhya Pradesh,22.7196,75.8577,23.4,65,0.0,945.6,8.25,28.4,43,22.2,14.0,3,5,7,1,2026-03-29T02:05:29.976210+05:30
Bhopal,Madhya Pradesh,23.2599,77.4126,24.5,53,0.0,951.1,8.2,31.7,46,15.7,11.0,0,5,7,0,2026-03-29T02:05:29.976218+05:30
Jabalpur,Madhya Pradesh,23.1815,79.9864,24.1,61,0.0,958.2,8.3,28.8,59,39.9,24.2,3,5,7,1,2026-03-29T02:05:29.976226+05:30
Ujjain,Madhya Pradesh,23.1765,75.7885,23.5,63,0.0,951.3,8.15,27.7,41,24.9,13.8,3,5,7,1,2026-03-29T02:05:29.976266+05:30
Visakhapatnam,Andhra Pradesh,17.6868,83.2185,27.0,85,0.0,1001.4,9.0,41.4,88,29.4,21.2,7,5,4,1,2026-03-29T02:05:29.976275+05:30
Vijayawada,Andhra Pradesh,16.5062,80.648,26.1,93,0.0,1000.5,9.05,25.6,85,22.3,16.9,7,5,4,1,2026-03-29T02:05:29.976284+05:30
Guntur,Andhra Pradesh,16.3067,80.4365,26.2,91,0.0,1001.5,9.05,29.5,87,22.8,17.6,7,5,4,1,2026-03-29T02:05:29.976292+05:30
Nellore,Andhra Pradesh,14.4426,79.9865,25.7,90,0.0,1003.8,8.9,33.1,75,19.6,15.5,7,5,4,1,2026-03-29T02:05:29.976301+05:30
Kurnool,Andhra Pradesh,15.8281,78.0373,29.1,51,0.0,975.4,9.1,24.1,121,55.1,47.3,4,5,7,1,2026-03-29T02:05:29.976310+05:30
Kakinada,Andhra Pradesh,16.9891,82.2475,25.7,94,0.0,1005.5,9.0,29.2,70,26.5,16.4,7,5,4,1,2026-03-29T02:05:29.976319+05:30
Tirupati,Andhra Pradesh,13.6288,79.4192,24.6,85,0.0,990.5,9.1,25.9,105,44.8,42.5,3,5,7,1,2026-03-29T02:05:29.976327+05:30
Warangal,Telangana,17.9689,79.5941,27.1,70,0.0,975.5,8.9,25.9,119,59.4,53.9,7,5,7,1,2026-03-29T02:05:29.976335+05:30
Nizamabad,Telangana,18.6725,78.0941,26.6,56,0.0,961.6,8.85,27.4,77,34.5,31.9,4,5,7,1,2026-03-29T02:05:29.976343+05:30
Mysore,Karnataka,12.2958,76.6396,22.9,89,0.0,927.5,9.45,35.3,104,41.8,38.5,3,5,7,1,2026-03-29T02:05:29.976351+05:30
Mangalore,Karnataka,12.9141,74.856,29.0,81,0.0,1005.0,9.15,32.4,96,46.8,41.9,7,5,4,1,2026-03-29T02:05:29.976358+05:30
Hubli-Dharwad,Karnataka,15.3647,75.124,23.3,94,0.0,939.2,9.15,34.9,103,37.1,34.1,3,5,7,1,2026-03-29T02:05:29.976366+05:30
Belgaum,Karnataka,15.8497,74.4977,20.8,91,0.0,923.6,9.2,37.1,115,48.4,45.1,3,5,7,1,2026-03-29T02:05:33.197442+05:30
Coimbatore,Tamil Nadu,11.0168,76.9558,24.3,83,0.0,960.9,9.45,42.1,88,38.2,36.4,3,5,7,1,2026-03-29T02:05:33.197475+05:30
Madurai,Tamil Nadu,9.9252,78.1198,26.0,85,0.0,991.2,9.4,38.5,75,27.2,25.7,7,5,7,1,2026-03-29T02:05:33.197485+05:30
Trichy,Tamil Nadu,10.7905,78.7047,25.5,85,0.0,998.5,9.15,27.7,65,16.6,15.1,7,5,7,1,2026-03-29T02:05:33.197493+05:30
Salem,Tamil Nadu,11.6643,78.146,26.9,78,0.0,976.3,9.4,30.2,106,27.8,24.8,7,5,7,1,2026-03-29T02:05:33.197500+05:30
Tirunelveli,Tamil Nadu,8.7139,77.7567,26.6,73,0.0,1001.0,9.35,51.5,72,31.3,29.1,7,5,4,1,2026-03-29T02:05:33.197508+05:30
Vellore,Tamil Nadu,12.9165,79.1325,25.1,88,0.0,983.4,9.35,34.9,133,60.3,57.3,7,5,7,1,2026-03-29T02:05:33.197515+05:30
Erode,Tamil Nadu,11.341,77.7172,27.4,83,0.0,988.0,8.85,31.3,96,41.6,38.4,7,5,7,1,2026-03-29T02:05:33.197522+05:30
Kochi,Kerala,9.9312,76.2673,27.8,82,0.0,1007.4,9.15,33.1,95,45.9,44.6,7,5,4,1,2026-03-29T02:05:33.197529+05:30
Thiruvananthapuram,Kerala,8.5241,76.9366,28.1,85,0.0,1006.1,9.05,37.4,66,29.0,24.3,7,5,4,1,2026-03-29T02:05:33.197535+05:30
Kozhikode,Kerala,11.2588,75.7804,26.9,88,0.0,1007.2,9.15,30.2,78,33.6,27.5,7,5,4,1,2026-03-29T02:05:33.197542+05:30
Thrissur,Kerala,10.5276,76.2144,26.3,92,0.0,1006.1,9.15,37.4,93,50.4,48.0,7,5,4,1,2026-03-29T02:05:33.197549+05:30
Kannur,Kerala,11.8745,75.3704,27.9,84,0.0,1005.9,9.15,33.1,90,43.3,39.0,7,5,4,1,2026-03-29T02:05:33.197555+05:30
Patna,Bihar,25.5941,85.1376,22.2,86,0.0,999.4,8.1,23.8,96,46.2,35.9,3,5,7,1,2026-03-29T02:05:33.197562+05:30
Gaya,Bihar,24.7914,85.0002,21.3,86,0.0,992.3,8.15,17.3,83,49.2,34.9,3,5,7,1,2026-03-29T02:05:33.197568+05:30
Muzaffarpur,Bihar,26.1209,85.3647,21.3,90,0.0,999.7,8.05,29.5,109,43.1,34.3,3,5,7,1,2026-03-29T02:05:33.197574+05:30
Bhagalpur,Bihar,25.2425,87.0117,21.5,91,0.0,1001.0,8.1,18.7,93,26.7,21.9,3,5,4,1,2026-03-29T02:05:33.197580+05:30
Ranchi,Jharkhand,23.3441,85.3096,20.8,89,0.0,936.0,8.75,34.6,93,59.5,48.0,3,5,7,1,2026-03-29T02:05:33.197586+05:30
Jamshedpur,Jharkhand,22.8046,86.2029,24.3,83,0.0,989.8,8.55,25.9,144,57.5,53.1,3,5,7,1,2026-03-29T02:05:33.197592+05:30
Dhanbad,Jharkhand,23.7957,86.4304,23.0,79,0.0,979.1,8.5,25.9,155,86.4,80.8,3,5,7,1,2026-03-29T02:05:33.197598+05:30
Bokaro,Jharkhand,23.6693,86.1511,22.4,86,0.0,983.3,8.5,22.0,151,95.5,90.3,3,5,7,1,2026-03-29T02:05:33.197604+05:30
Bhubaneswar,Odisha,20.2961,85.8245,26.6,86,0.0,1000.3,8.8,32.0,112,32.1,24.5,7,5,4,1,2026-03-29T02:05:33.197610+05:30
Cuttack,Odisha,20.4625,85.8828,26.4,87,0.0,1002.2,8.85,29.5,112,32.1,24.5,7,5,4,1,2026-03-29T02:05:33.197617+05:30
Rourkela,Odisha,22.2604,84.8536,26.1,74,0.0,983.0,8.5,48.2,108,46.8,37.7,7,5,7,1,2026-03-29T02:05:33.197623+05:30
Raipur,Chhattisgarh,21.2514,81.6296,28.4,45,0.0,971.2,8.6,23.4,84,35.2,31.9,4,5,7,0,2026-03-29T02:05:33.197629+05:30
Bhilai,Chhattisgarh,21.1938,81.3509,27.1,50,0.0,971.4,8.6,28.1,74,32.2,28.8,4,5,7,0,2026-03-29T02:05:33.197635+05:30
Guwahati,Assam,26.1158,91.7086,20.4,95,0.0,1001.8,7.1,25.9,117,37.4,32.9,3,5,4,1,2026-03-29T02:05:33.197641+05:30
Agartala,Tripura,23.8315,91.2868,20.3,96,0.0,1006.0,8.2,35.6,138,89.2,82.4,3,5,4,1,2026-03-29T02:05:33.197648+05:30
Shillong,Meghalaya,25.5788,91.8933,10.5,92,0.0,852.4,4.1,37.8,72,23.1,16.5,3,10,3,0,2026-03-29T02:05:33.197655+05:30
Imphal,Manipur,24.817,93.9368,14.8,94,0.0,921.4,7.3,67.3,144,38.8,33.3,3,10,7,0,2026-03-29T02:05:33.197662+05:30
Aizawl,Mizoram,23.7271,92.7176,14.6,93,0.0,890.3,7.9,55.8,117,58.0,46.0,3,10,7,0,2026-03-29T02:05:33.197668+05:30
Kohima,Nagaland,25.6701,94.1077,12.1,90,0.0,851.4,6.6,79.9,100,29.5,22.4,3,10,7,0,2026-03-29T02:05:33.197674+05:30
Gangtok,Sikkim,27.3314,88.6138,10.3,86,0.0,832.8,8.15,19.8,68,22.1,21.0,3,10,7,0,2026-03-29T02:05:33.197680+05:30
Siliguri,West Bengal,26.7271,88.3953,16.9,84,0.0,993.9,6.35,16.6,124,40.6,33.5,3,10,7,0,2026-03-29T02:05:36.417525+05:30
Durgapur,West Bengal,23.5204,87.3119,22.9,88,0.0,994.6,8.45,22.3,147,70.1,63.3,3,5,7,1,2026-03-29T02:05:36.417553+05:30
Asansol,West Bengal,23.6739,86.9524,23.4,83,0.0,993.0,8.45,23.0,151,74.5,68.2,3,5,7,1,2026-03-29T02:05:36.417563+05:30
Pondicherry,Puducherry,11.9139,79.8145,25.2,96,0.0,1007.4,9.15,33.5,58,16.1,11.4,7,5,4,1,2026-03-29T02:05:36.417570+05:30
Port Blair,Andaman and Nicobar Islands,11.6234,92.7265,28.4,77,0.0,1005.1,9.15,18.0,68,24.6,20.1,7,5,4,1,2026-03-29T02:05:36.417578+05:30
Haridwar,Uttarakhand,29.9457,78.1642,21.6,75,0.0,972.1,4.2,23.8,81,42.7,40.0,3,5,3,1,2026-03-29T02:05:36.417585+05:30
Rishikesh,Uttarakhand,30.0869,78.2676,20.8,73,0.0,965.0,4.15,22.0,66,33.4,29.3,3,5,3,0,2026-03-29T02:05:36.417592+05:30
Nainital,Uttarakhand,29.3919,79.4542,16.2,69,0.0,803.0,7.25,48.6,68,25.3,22.7,3,5,7,0,2026-03-29T02:05:36.417598+05:30
Mussoorie,Uttarakhand,30.4599,78.0664,15.0,74,0.0,799.8,4.7,35.3,78,46.3,41.7,3,5,3,0,2026-03-29T02:05:36.417605+05:30
Dharamshala,Himachal Pradesh,32.219,76.3234,18.3,67,0.0,866.2,7.05,31.0,50,26.4,16.2,3,5,7,0,2026-03-29T02:05:36.417611+05:30
Dalhousie,Himachal Pradesh,32.5387,75.971,14.9,67,0.0,800.4,7.1,22.3,66,39.1,34.3,3,5,7,0,2026-03-29T02:05:36.417619+05:30
Patiala,Punjab,30.3398,76.3869,21.0,77,0.0,975.3,6.6,31.7,104,143.4,40.0,3,5,7,1,2026-03-29T02:05:36.417626+05:30
Bhatinda,Punjab,30.211,74.9455,22.4,66,0.0,979.9,6.65,34.6,75,52.3,27.8,3,5,7,0,2026-03-29T02:05:36.417633+05:30
Rohtak,Haryana,28.8955,76.6066,20.2,70,0.0,978.6,6.8,28.1,131,166.7,84.1,3,5,7,0,2026-03-29T02:05:36.417639+05:30
Panipat,Haryana,29.3909,76.9635,20.2,71,0.0,977.4,6.55,22.7,151,222.6,82.2,3,5,7,0,2026-03-29T02:05:36.417645+05:30
Mathura,Uttar Pradesh,27.4924,77.6737,21.5,68,0.0,983.9,6.95,19.1,219,382.8,85.0,3,5,7,0,2026-03-29T02:05:36.417651+05:30
Vrindavan,Uttar Pradesh,27.5823,77.7027,21.0,68,0.0,984.4,6.85,19.8,219,382.8,85.0,3,5,7,0,2026-03-29T02:05:36.417657+05:30
Ayodhya,Uttar Pradesh,26.7922,82.1998,20.6,78,0.0,993.5,7.45,23.4,95,152.3,50.4,3,5,7,1,2026-03-29T02:05:36.417663+05:30
Ratlam,Madhya Pradesh,23.3315,75.0367,24.7,60,0.0,952.2,8.1,31.3,42,26.0,13.0,0,5,7,1,2026-03-29T02:05:36.417669+05:30
Sagar,Madhya Pradesh,23.8388,78.7378,27.0,44,0.0,947.3,8.2,31.0,56,45.9,18.0,4,5,7,0,2026-03-29T02:05:36.417675+05:30
Satna,Madhya Pradesh,24.6005,80.8322,23.8,57,0.0,968.9,8.15,22.3,69,71.0,24.6,0,5,7,0,2026-03-29T02:05:36.417681+05:30
Akola,Maharashtra,20.7002,77.0082,25.1,60,0.0,972.7,8.55,25.9,47,20.0,14.4,4,5,7,1,2026-03-29T02:05:36.417688+05:30
Amravati,Maharashtra,20.9374,77.7796,25.2,52,0.0,964.6,8.5,23.4,45,19.4,13.2,4,5,7,0,2026-03-29T02:05:36.417695+05:30
Latur,Maharashtra,18.4088,76.5604,25.7,41,0.0,937.6,8.85,26.6,71,22.6,20.7,4,5,7,0,2026-03-29T02:05:36.417702+05:30
Nanded,Maharashtra,19.1383,77.3091,25.8,51,0.0,966.1,8.7,18.4,59,20.1,18.2,4,5,7,0,2026-03-29T02:05:36.417708+05:30
Gulbarga,Karnataka,17.3297,76.8343,28.1,38,0.0,956.3,8.9,32.4,84,27.4,25.5,4,5,7,0,2026-03-29T02:05:36.417714+05:30
Bidar,Karnataka,17.9104,77.5199,27.7,38,0.0,933.0,8.9,29.2,78,25.2,22.8,4,5,7,0,2026-03-29T02:05:36.417720+05:30
Hospet,Karnataka,15.2689,76.3909,26.6,79,0.0,954.2,9.15,18.7,114,39.3,36.0,7,5,7,1,2026-03-29T02:05:36.417726+05:30
Tirupur,Tamil Nadu,11.1085,77.3411,26.2,79,0.0,974.2,9.4,31.7,102,42.5,39.5,7,5,7,1,2026-03-29T02:05:36.417731+05:30
Alappuzha,Kerala,9.4981,76.3388,27.7,84,0.0,1007.4,9.15,29.2,87,37.0,33.2,7,5,4,1,2026-03-29T02:05:36.417737+05:30
Munnar,Kerala,10.0889,77.0595,19.7,95,0.0,855.1,8.85,35.6,82,41.8,39.3,3,10,7,1,2026-03-29T02:05:36.417744+05:30
Silchar,Assam,24.8333,92.7789,20.0,91,0.0,1005.1,8.0,31.0,151,50.5,41.6,3,5,4,1,2026-03-29T02:05:36.417750+05:30
Dibrugarh,Assam,27.4728,94.912,19.5,87,0.0,995.7,6.55,13.0,95,42.0,33.1,3,10,7,1,2026-03-29T02:05:36.417756+05:30
