city,state,latitude,longitude,temp,humidity,rain,pressure,uv_index,wind_gusts,aqi,pm10,pm2_5,mosquito_risk,arthritis_risk,migraine_risk,frizz_risk,updated_at
Delhi,Delhi,28.6139,77.209,20.5,63,0.0,985.9,5.7,31.7,158,402.3,89.6,3,5,3,0,2026-03-01T22:02:45.476585+05:30
Mumbai,Maharashtra,19.076,72.8777,26.3,78,0.0,1010.7,7.25,24.1,84,49.4,27.2,7,0,4,1,2026-03-01T22:02:45.476629+05:30
Bangalore,Karnataka,12.9716,77.5946,24.3,54,0.0,912.4,9.05,23.0,152,46.8,46.3,0,5,7,0,2026-03-01T22:02:45.476645+05:30
Hyderabad,Telangana,17.385,78.4867,25.9,63,0.0,954.7,8.3,27.4,128,78.0,77.5,7,5,7,1,2026-03-01T22:02:45.476655+05:30
Chennai,Tamil Nadu,13.0827,80.2707,26.0,77,0.0,1009.6,8.75,33.1,135,45.1,41.3,7,0,4,1,2026-03-01T22:02:45.476663+05:30
Kolkata,West Bengal,22.5726,88.3639,25.0,89,0.0,1007.6,7.6,25.2,98,47.0,45.3,7,5,4,1,2026-03-01T22:02:45.476672+05:30
Pune,Maharashtra,18.5204,73.8567,23.1,73,0.0,949.5,7.8,34.2,157,37.5,32.9,3,5,7,1,2026-03-01T22:02:45.476683+05:30
Ahmedabad,Gujarat,23.0225,72.5714,25.7,54,0.0,1004.7,7.05,21.2,95,55.3,42.0,4,5,4,0,2026-03-01T22:02:45.476692+05:30
Jaipur,Rajasthan,26.9124,75.7873,24.1,30,0.0,962.7,6.45,25.2,88,79.4,42.1,0,5,7,0,2026-03-01T22:02:45.476699+05:30
Lucknow,Uttar Pradesh,26.8467,80.9462,20.5,48,0.0,995.9,6.2,38.5,125,169.5,48.1,0,5,7,0,2026-03-01T22:02:45.476707+05:30
Kanpur,Uttar Pradesh,26.4499,80.3319,18.4,55,0.0,994.4,6.2,31.3,152,262.6,55.2,0,5,7,0,2026-03-01T22:02:45.476713+05:30
Chandigarh,Chandigarh,30.7333,76.7794,17.7,60,0.0,971.2,5.6,31.0,89,41.1,36.8,0,5,3,0,2026-03-01T22:02:45.476720+05:30
Srinagar,Jammu and Kashmir,34.0837,74.7973,7.0,76,0.0,838.6,6.45,14.8,148,92.4,80.8,3,5,7,0,2026-03-01T22:02:45.476728+05:30
Jammu,Jammu and Kashmir,32.7266,74.857,20.2,59,0.0,975.0,6.15,25.2,100,58.7,50.3,0,5,7,0,2026-03-01T22:02:45.476735+05:30
Amritsar,Punjab,31.634,74.8723,19.1,63,0.0,983.4,6.1,20.5,128,68.5,49.2,3,5,7,0,2026-03-01T22:02:45.476741+05:30
Ludhiana,Punjab,30.901,75.8573,19.9,57,0.0,981.6,5.8,25.9,154,91.5,69.6,0,5,3,0,2026-03-01T22:02:45.476747+05:30
Jalandhar,Punjab,31.326,75.5762,19.9,58,0.0,982.8,5.95,23.0,156,94.3,76.4,0,5,3,0,2026-03-01T22:02:45.476756+05:30
Dehradun,Uttarakhand,30.6284,78.0322,10.6,63,0.0,828.3,5.95,32.4,82,29.6,24.5,3,5,3,0,2026-03-01T22:02:45.476763+05:30
Shimla,Himachal Pradesh,31.1048,77.1734,8.4,55,0.0,782.3,6.0,50.4,84,30.7,23.7,0,5,3,1,2026-03-01T22:02:45.476770+05:30
Manali,Himachal Pradesh,32.2396,77.1887,11.0,75,0.0,818.2,7.6,34.9,88,23.3,16.4,3,5,7,0,2026-03-01T22:02:45.476777+05:30
Gurgaon,Haryana,28.4595,77.0266,17.9,73,0.0,984.3,5.8,31.0,536,596.0,109.0,3,5,3,0,2026-03-01T22:02:45.476786+05:30
Noida,Uttar Pradesh,28.5355,77.391,20.7,62,0.0,987.4,5.75,31.3,536,596.0,109.0,3,5,3,0,2026-03-01T22:02:45.476792+05:30
Ghaziabad,Uttar Pradesh,28.6692,77.4538,20.2,62,0.0,985.5,5.7,28.1,153,377.2,84.1,3,5,3,0,2026-03-01T22:02:45.476798+05:30
Faridabad,Haryana,28.4089,77.3178,20.7,56,0.0,986.7,5.75,28.8,536,596.0,109.0,0,5,3,0,2026-03-01T22:02:45.476804+05:30
Meerut,Uttar Pradesh,28.9845,77.7064,17.8,67,0.0,983.9,5.6,31.7,153,377.2,84.1,3,5,3,0,2026-03-01T22:02:45.476810+05:30
Agra,Uttar Pradesh,27.1767,78.0081,19.9,50,0.0,990.8,6.05,27.4,215,447.0,74.3,0,5,7,0,2026-03-01T22:02:45.476817+05:30
Varanasi,Uttar Pradesh,25.3176,82.9739,19.5,61,0.0,999.8,6.85,26.6,137,61.0,38.9,3,5,7,0,2026-03-01T22:02:45.476826+05:30
Prayagraj,Uttar Pradesh,25.4358,81.8463,19.8,58,0.0,998.6,6.7,28.1,136,70.8,34.8,0,5,7,0,2026-03-01T22:02:45.476832+05:30
Gorakhpur,Uttar Pradesh,26.7606,83.3732,18.8,56,0.0,999.0,6.55,32.4,108,38.6,31.1,0,5,7,0,2026-03-01T22:02:45.476839+05:30
Bareilly,Uttar Pradesh,28.367,79.4304,18.0,68,0.0,989.0,5.9,35.6,122,109.2,44.0,3,5,3,0,2026-03-01T22:02:45.476845+05:30
Aligarh,Uttar Pradesh,27.8974,78.088,18.6,59,0.0,988.3,5.8,31.3,284,566.2,104.3,0,5,3,0,2026-03-01T22:02:45.476854+05:30
Moradabad,Uttar Pradesh,28.8386,78.7733,17.6,63,0.0,985.9,5.7,33.8,127,105.2,41.9,3,5,3,0,2026-03-01T22:02:45.476860+05:30
Saharanpur,Uttar Pradesh,29.9637,77.546,17.3,63,0.0,977.7,5.35,38.2,136,83.1,42.0,3,5,3,0,2026-03-01T22:02:45.476866+05:30
Jhansi,Uttar Pradesh,25.4484,78.5685,21.5,56,0.0,980.7,6.65,24.5,71,54.9,27.7,0,5,7,0,2026-03-01T22:02:48.733415+05:30
Surat,Gujarat,21.1702,72.8311,24.4,76,0.0,1008.9,6.95,28.4,111,77.5,66.4,3,0,4,1,2026-03-01T22:02:48.733446+05:30
Vadodara,Gujarat,22.3072,73.1812,26.4,54,0.0,1006.8,7.05,11.9,115,67.1,58.0,4,5,4,1,2026-03-01T22:02:48.733456+05:30
Rajkot,Gujarat,22.3039,70.8022,24.7,47,0.0,997.0,6.9,20.5,99,40.6,27.5,0,5,7,0,2026-03-01T22:02:48.733464+05:30
Thane,Maharashtra,19.2183,72.9781,24.4,80,0.0,1010.1,7.25,36.4,84,49.4,27.2,3,0,4,1,2026-03-01T22:02:48.733471+05:30
Nagpur,Maharashtra,21.1458,79.0882,25.5,55,0.0,974.8,7.65,30.6,94,36.6,35.9,4,5,7,0,2026-03-01T22:02:48.733479+05:30
Nashik,Maharashtra,19.9975,73.7898,22.4,68,0.0,947.0,7.45,28.8,85,29.9,25.4,3,5,7,1,2026-03-01T22:02:48.733486+05:30
Aurangabad,Maharashtra,19.8762,75.3433,24.8,53,0.0,945.2,7.95,28.8,105,37.0,36.0,0,5,7,0,2026-03-01T22:02:48.733493+05:30
Solapur,Maharashtra,17.6599,75.9064,26.1,55,0.0,957.7,8.25,19.8,134,36.9,36.3,4,5,7,1,2026-03-01T22:02:48.733500+05:30
Kolhapur,Maharashtra,16.705,74.2433,21.1,77,0.0,949.0,8.35,37.8,109,32.0,31.0,3,5,7,1,2026-03-01T22:02:48.733507+05:30
Goa,Goa,15.2993,74.124,26.0,73,0.0,1000.0,8.4,35.3,60,28.1,23.6,7,5,4,1,2026-03-01T22:02:48.733514+05:30
Jodhpur,Rajasthan,26.2389,73.0243,25.8,41,0.0,985.5,6.75,18.0,72,46.3,27.3,4,5,7,0,2026-03-01T22:02:48.733521+05:30
Udaipur,Rajasthan,24.5854,73.7125,21.7,57,0.0,949.1,7.35,25.2,72,30.0,20.0,0,5,7,0,2026-03-01T22:02:48.733528+05:30
Kota,Rajasthan,25.2138,75.8648,25.5,46,0.0,981.6,6.8,20.2,83,52.9,36.8,4,5,7,0,2026-03-01T22:02:48.733535+05:30
Bikaner,Rajasthan,28.0229,73.3119,25.8,38,0.0,984.5,6.45,16.2,66,34.5,20.1,4,5,7,0,2026-03-01T22:02:48.733542+05:30
Ajmer,Rajasthan,26.4499,74.6399,22.3,44,0.0,956.9,6.7,17.6,80,52.9,34.3,0,5,7,0,2026-03-01T22:02:48.733548+05:30
Gwalior,Madhya Pradesh,26.2183,78.1828,22.9,51,0.0,986.2,6.35,28.8,97,125.7,35.5,0,5,7,0,2026-03-01T22:02:48.733555+05:30
Indore,Madhya Pradesh,22.7196,75.8577,21.9,59,0.0,949.9,7.35,22.3,80,43.1,38.3,0,5,7,0,2026-03-01T22:02:48.733561+05:30
Bhopal,Madhya Pradesh,23.2599,77.4126,23.4,49,0.0,955.8,7.2,25.9,75,26.1,23.4,0,5,7,0,2026-03-01T22:02:48.733568+05:30
Jabalpur,Madhya Pradesh,23.1815,79.9864,22.3,59,0.0,963.3,7.3,39.2,73,26.8,25.4,0,5,7,0,2026-03-01T22:02:48.733574+05:30
Ujjain,Madhya Pradesh,23.1765,75.7885,22.1,67,0.0,955.9,7.2,20.5,87,55.8,49.5,3,5,7,0,2026-03-01T22:02:48.733581+05:30
Visakhapatnam,Andhra Pradesh,17.6868,83.2185,25.7,81,0.0,1006.3,8.3,39.2,151,49.7,46.1,7,5,4,1,2026-03-01T22:02:48.733587+05:30
Vijayawada,Andhra Pradesh,16.5062,80.648,25.2,77,0.0,1004.7,8.4,24.8,145,39.8,38.2,7,5,4,1,2026-03-01T22:02:48.733594+05:30
Guntur,Andhra Pradesh,16.3067,80.4365,25.1,80,0.0,1006.0,8.4,28.4,139,37.5,36.1,7,5,4,1,2026-03-01T22:02:48.733601+05:30
Nellore,Andhra Pradesh,14.4426,79.9865,25.6,80,0.0,1008.2,8.6,31.0,135,39.1,36.8,7,0,4,1,2026-03-01T22:02:48.733609+05:30
Kurnool,Andhra Pradesh,15.8281,78.0373,29.0,40,0.0,977.6,8.4,20.5,119,37.4,36.9,4,5,7,0,2026-03-01T22:02:48.733616+05:30
Kakinada,Andhra Pradesh,16.9891,82.2475,24.2,86,0.0,1010.1,8.3,33.5,150,46.0,42.3,3,0,4,1,2026-03-01T22:02:48.733623+05:30
Tirupati,Andhra Pradesh,13.6288,79.4192,24.9,67,0.0,994.2,8.7,28.4,151,43.9,42.7,3,5,7,1,2026-03-01T22:02:48.733629+05:30
Warangal,Telangana,17.9689,79.5941,26.6,67,0.0,979.9,8.1,27.7,141,69.4,68.9,7,5,7,1,2026-03-01T22:02:48.733636+05:30
Nizamabad,Telangana,18.6725,78.0941,26.1,52,0.0,965.9,8.0,20.9,114,46.6,46.2,4,5,7,0,2026-03-01T22:02:48.733642+05:30
Mysore,Karnataka,12.2958,76.6396,23.3,79,0.0,929.6,9.05,35.6,127,76.1,75.0,3,5,7,1,2026-03-01T22:02:48.733648+05:30
Mangalore,Karnataka,12.9141,74.856,28.7,70,0.0,1008.6,8.65,32.0,49,18.9,14.0,7,0,4,1,2026-03-01T22:02:48.733654+05:30
Hubli-Dharwad,Karnataka,15.3647,75.124,22.5,72,0.0,941.9,8.55,32.8,114,24.1,23.3,3,5,7,1,2026-03-01T22:02:48.733661+05:30
Belgaum,Karnataka,15.8497,74.4977,20.7,80,0.0,926.6,8.6,38.5,112,21.0,19.8,3,5,7,1,2026-03-01T22:02:51.987713+05:30
Coimbatore,Tamil Nadu,11.0168,76.9558,24.8,79,0.0,963.1,9.05,32.8,146,56.6,55.9,3,5,7,1,2026-03-01T22:02:51.987740+05:30
Madurai,Tamil Nadu,9.9252,78.1198,25.6,70,0.0,995.5,9.0,25.9,145,35.3,34.1,7,5,7,1,2026-03-01T22:02:51.987749+05:30
Trichy,Tamil Nadu,10.7905,78.7047,25.9,77,0.0,1002.0,8.9,27.7,144,43.1,41.6,7,5,4,1,2026-03-01T22:02:51.987757+05:30
Salem,Tamil Nadu,11.6643,78.146,27.9,57,0.0,978.8,8.95,25.9,148,44.0,43.0,4,5,7,1,2026-03-01T22:02:51.987765+05:30
Tirunelveli,Tamil Nadu,8.7139,77.7567,25.9,79,0.0,1005.3,9.05,39.2,132,42.7,41.2,7,5,4,1,2026-03-01T22:02:51.987772+05:30
Vellore,Tamil Nadu,12.9165,79.1325,25.3,68,0.0,986.8,8.8,37.4,154,48.7,47.3,7,5,7,1,2026-03-01T22:02:51.987778+05:30
Erode,Tamil Nadu,11.341,77.7172,28.4,55,0.0,990.3,8.95,25.2,137,41.9,40.9,4,5,7,1,2026-03-01T22:02:51.987785+05:30
Kochi,Kerala,9.9312,76.2673,28.1,78,0.0,1010.4,8.9,36.4,104,41.2,39.7,7,0,4,1,2026-03-01T22:02:51.987791+05:30
Thiruvananthapuram,Kerala,8.5241,76.9366,27.6,80,0.0,1009.9,8.95,24.1,139,23.3,20.0,7,0,4,1,2026-03-01T22:02:51.987798+05:30
Kozhikode,Kerala,11.2588,75.7804,28.7,73,0.0,1009.3,8.75,31.3,57,17.7,12.6,7,0,4,1,2026-03-01T22:02:51.987805+05:30
Thrissur,Kerala,10.5276,76.2144,27.1,84,0.0,1008.5,8.85,40.3,103,33.9,31.2,7,0,4,1,2026-03-01T22:02:51.987812+05:30
Kannur,Kerala,11.8745,75.3704,27.8,75,0.0,1009.0,8.75,38.2,50,17.7,13.6,7,0,4,1,2026-03-01T22:02:51.987819+05:30
Patna,Bihar,25.5941,85.1376,22.8,59,0.0,1002.0,7.0,28.8,134,91.7,65.0,0,5,4,0,2026-03-01T22:02:51.987826+05:30
Gaya,Bihar,24.7914,85.0002,23.3,56,0.0,995.7,7.1,19.1,117,98.5,62.2,0,5,7,0,2026-03-01T22:02:51.987833+05:30
Muzaffarpur,Bihar,26.1209,85.3647,20.9,58,0.0,1001.9,6.95,31.0,127,80.3,55.1,0,5,4,0,2026-03-01T22:02:51.987839+05:30
Bhagalpur,Bihar,25.2425,87.0117,22.9,60,0.0,1002.6,7.05,22.3,117,100.1,60.8,0,5,4,0,2026-03-01T22:02:51.987845+05:30
Ranchi,Jharkhand,23.3441,85.3096,22.8,46,0.0,939.1,7.75,24.5,100,35.4,33.3,0,5,7,0,2026-03-01T22:02:51.987852+05:30
Jamshedpur,Jharkhand,22.8046,86.2029,26.0,56,0.0,991.8,7.7,10.8,153,74.3,70.8,4,5,7,1,2026-03-01T22:02:51.987859+05:30
Dhanbad,Jharkhand,23.7957,86.4304,26.0,37,0.0,981.3,7.55,24.1,155,75.4,65.4,4,5,7,0,2026-03-01T22:02:51.987865+05:30
Bokaro,Jharkhand,23.6693,86.1511,24.1,47,0.0,985.6,7.55,22.0,155,78.0,70.5,0,5,7,0,2026-03-01T22:02:51.987872+05:30
Bhubaneswar,Odisha,20.2961,85.8245,25.1,88,0.0,1004.2,8.05,27.0,114,52.5,50.8,7,5,4,1,2026-03-01T22:02:51.987879+05:30
Cuttack,Odisha,20.4625,85.8828,25.2,86,0.0,1006.0,8.05,27.0,114,52.5,50.8,7,5,4,1,2026-03-01T22:02:51.987885+05:30
Rourkela,Odisha,22.2604,84.8536,24.4,65,0.0,985.4,7.6,18.0,151,83.8,82.7,3,5,7,1,2026-03-01T22:02:51.987891+05:30
Raipur,Chhattisgarh,21.2514,81.6296,26.0,45,0.0,975.5,7.75,27.4,154,56.5,56.1,4,5,7,0,2026-03-01T22:02:51.987898+05:30
Bhilai,Chhattisgarh,21.1938,81.3509,25.0,51,0.0,975.8,7.75,28.1,153,32.2,32.0,4,5,7,0,2026-03-01T22:02:51.987904+05:30
Guwahati,Assam,26.1158,91.7086,21.9,78,0.0,1004.0,7.0,32.0,160,78.9,68.5,3,5,4,1,2026-03-01T22:02:51.987910+05:30
Agartala,Tripura,23.8315,91.2868,22.2,80,0.0,1007.9,7.35,27.4,117,43.4,40.5,3,5,4,1,2026-03-01T22:02:51.987917+05:30
Shillong,Meghalaya,25.5788,91.8933,9.4,86,0.0,854.4,6.8,56.9,138,70.3,54.4,3,10,7,0,2026-03-01T22:02:51.987923+05:30
Imphal,Manipur,24.817,93.9368,13.7,76,0.0,923.6,7.55,49.3,153,91.7,75.2,3,5,7,0,2026-03-01T22:02:51.987930+05:30
Aizawl,Mizoram,23.7271,92.7176,17.1,67,0.0,893.4,7.55,40.3,129,67.8,53.1,3,5,7,0,2026-03-01T22:02:51.987937+05:30
Kohima,Nagaland,25.6701,94.1077,12.0,73,0.0,853.8,7.4,70.9,154,98.0,80.1,3,5,7,0,2026-03-01T22:02:51.987943+05:30
Gangtok,Sikkim,27.3314,88.6138,10.5,80,0.0,835.3,5.3,12.6,130,79.6,61.2,3,5,3,0,2026-03-01T22:02:51.987950+05:30
Siliguri,West Bengal,26.7271,88.3953,18.9,70,0.0,995.4,7.0,30.2,173,134.1,101.0,3,5,7,0,2026-03-01T22:02:55.247686+05:30
Durgapur,West Bengal,23.5204,87.3119,26.5,44,0.0,996.4,7.55,26.3,149,65.0,54.9,4,5,7,0,2026-03-01T22:02:55.247713+05:30
Asansol,West Bengal,23.6739,86.9524,27.8,38,0.0,995.1,7.5,22.7,130,54.9,44.5,4,5,7,0,2026-03-01T22:02:55.247723+05:30
Pondicherry,Puducherry,11.9139,79.8145,24.3,86,0.0,1010.8,8.8,28.1,131,44.8,40.6,3,0,4,1,2026-03-01T22:02:55.247731+05:30
Port Blair,Andaman and Nicobar Islands,11.6234,92.7265,27.6,69,0.0,1008.0,8.75,25.6,71,26.4,22.9,7,0,4,1,2026-03-01T22:02:55.247738+05:30
Haridwar,Uttarakhand,29.9457,78.1642,17.5,67,0.0,976.2,5.4,37.1,103,45.1,34.8,3,5,3,0,2026-03-01T22:02:55.247744+05:30
Rishikesh,Uttarakhand,30.0869,78.2676,15.3,74,0.0,968.6,5.5,34.9,106,32.4,27.4,3,5,3,0,2026-03-01T22:02:55.247751+05:30
Nainital,Uttarakhand,29.3919,79.4542,14.2,49,0.0,805.0,6.3,40.0,114,33.8,24.4,0,5,7,0,2026-03-01T22:02:55.247757+05:30
Mussoorie,Uttarakhand,30.4599,78.0664,12.5,53,0.0,801.2,5.85,39.6,98,41.7,37.6,0,5,3,0,2026-03-01T22:02:55.247763+05:30
Dharamshala,Himachal Pradesh,32.219,76.3234,16.4,52,0.0,869.7,6.05,27.4,103,39.3,29.3,0,5,7,0,2026-03-01T22:02:55.247769+05:30
Dalhousie,Himachal Pradesh,32.5387,75.971,13.0,49,0.0,803.2,6.25,30.2,92,65.0,56.3,0,5,7,0,2026-03-01T22:02:55.247776+05:30
Patiala,Punjab,30.3398,76.3869,17.7,69,0.0,980.8,5.5,28.4,154,299.9,81.7,3,5,3,0,2026-03-01T22:02:55.247782+05:30
Bhatinda,Punjab,30.211,74.9455,21.3,61,0.0,986.7,6.2,21.2,153,104.3,79.9,3,5,7,0,2026-03-01T22:02:55.247788+05:30
Rohtak,Haryana,28.8955,76.6066,19.1,70,0.0,984.7,5.7,30.6,162,417.2,89.2,3,5,3,0,2026-03-01T22:02:55.247794+05:30
Panipat,Haryana,29.3909,76.9635,17.8,69,0.0,983.0,5.5,29.9,349,786.0,125.7,3,5,3,0,2026-03-01T22:02:55.247800+05:30
Mathura,Uttar Pradesh,27.4924,77.6737,21.6,42,0.0,989.8,5.95,25.6,244,395.8,75.9,0,5,3,0,2026-03-01T22:02:55.247806+05:30
Vrindavan,Uttar Pradesh,27.5823,77.7027,18.8,58,0.0,990.3,5.95,28.4,244,395.8,75.9,0,5,3,0,2026-03-01T22:02:55.247812+05:30
Ayodhya,Uttar Pradesh,26.7922,82.1998,19.1,49,0.0,997.5,6.35,36.4,110,68.0,32.6,0,5,7,0,2026-03-01T22:02:55.247818+05:30
Ratlam,Madhya Pradesh,23.3315,75.0367,24.2,55,0.0,956.9,7.2,27.7,79,44.7,38.4,0,5,7,0,2026-03-01T22:02:55.247824+05:30
Sagar,Madhya Pradesh,23.8388,78.7378,24.4,42,0.0,952.3,7.15,20.2,85,31.1,21.6,0,5,7,0,2026-03-01T22:02:55.247830+05:30
Satna,Madhya Pradesh,24.6005,80.8322,22.3,46,0.0,973.9,7.1,31.7,91,40.3,23.2,0,5,7,0,2026-03-01T22:02:55.247836+05:30
Akola,Maharashtra,20.7002,77.0082,25.2,54,0.0,976.6,7.7,28.4,100,29.3,28.4,4,5,7,0,2026-03-01T22:02:55.247842+05:30
Amravati,Maharashtra,20.9374,77.7796,24.4,54,0.0,968.9,7.65,27.4,101,24.4,23.7,0,5,7,0,2026-03-01T22:02:55.247849+05:30
Latur,Maharashtra,18.4088,76.5604,25.1,65,0.0,940.7,8.15,25.6,115,27.9,27.6,7,5,7,1,2026-03-01T22:02:55.247855+05:30
Nanded,Maharashtra,19.1383,77.3091,26.9,54,0.0,969.5,7.9,15.5,101,24.9,24.6,4,5,7,1,2026-03-01T22:02:55.247861+05:30
Gulbarga,Karnataka,17.3297,76.8343,29.2,50,0.0,959.7,8.25,17.6,142,43.5,43.2,4,5,7,1,2026-03-01T22:02:55.247866+05:30
Bidar,Karnataka,17.9104,77.5199,27.3,53,0.0,936.7,8.2,20.5,124,43.0,42.7,4,5,7,1,2026-03-01T22:02:55.247872+05:30
Hospet,Karnataka,15.2689,76.3909,30.1,42,0.0,956.5,8.55,24.5,161,48.9,48.3,0,5,7,0,2026-03-01T22:02:55.247878+05:30
Tirupur,Tamil Nadu,11.1085,77.3411,27.4,59,0.0,976.9,9.05,20.2,152,60.1,59.1,4,5,7,1,2026-03-01T22:02:55.247884+05:30
Alappuzha,Kerala,9.4981,76.3388,27.9,80,0.0,1010.6,8.9,34.9,92,30.5,27.3,7,0,4,1,2026-03-01T22:02:55.247890+05:30
Munnar,Kerala,10.0889,77.0595,20.8,85,0.0,857.9,9.35,25.2,132,55.9,55.1,3,5,7,1,2026-03-01T22:02:55.247896+05:30
Silchar,Assam,24.8333,92.7789,22.3,67,0.0,1006.7,7.3,20.5,157,103.4,81.5,3,5,4,0,2026-03-01T22:02:55.247903+05:30
Dibrugarh,Assam,27.4728,94.912,19.7,84,0.0,999.1,7.0,13.7,158,88.0,80.3,3,10,7,1,2026-03-01T22:02:55.247909+05:30
