city,state,latitude,longitude,temp,humidity,rain,pressure,uv_index,wind_gusts,aqi,pm10,pm2_5,no2,co,o3,so2,mosquito_risk,arthritis_risk,migraine_risk,frizz_risk,updated_at
Delhi,Delhi,28.6139,77.209,40.5,16,0.0,974.5,7.75,32.8,276,336.2,68.7,26.1,562.0,99.0,11.3,0,5,10,0,2026-05-20T19:11:25.245976+05:30
Mumbai,Maharashtra,19.076,72.8777,30.7,67,0.0,1005.6,7.6,39.2,66,20.7,12.7,9.2,183.0,54.0,5.5,3,5,4,1,2026-05-20T19:11:25.246022+05:30
Bangalore,Karnataka,12.9716,77.5946,22.1,97,0.1,909.9,6.15,42.8,39,10.4,9.4,18.4,477.0,70.0,4.3,6,5,7,1,2026-05-20T19:11:25.246039+05:30
Hyderabad,Telangana,17.385,78.4867,35.8,33,0.0,949.2,8.85,34.6,130,57.4,38.1,21.1,466.0,113.0,8.2,0,5,10,1,2026-05-20T19:11:25.246048+05:30
Chennai,Tamil Nadu,13.0827,80.2707,36.5,42,0.0,1001.4,9.1,42.5,145,29.3,23.6,11.4,351.0,138.0,7.8,0,5,7,1,2026-05-20T19:11:25.246056+05:30
Kolkata,West Bengal,22.5726,88.3639,32.2,77,0.0,998.1,8.95,24.5,119,71.5,54.8,16.1,413.0,97.0,14.0,3,5,7,1,2026-05-20T19:11:25.246064+05:30
Pune,Maharashtra,18.5204,73.8567,29.0,61,0.0,945.7,8.45,41.4,71,28.2,17.9,6.4,193.0,98.0,6.8,7,5,7,1,2026-05-20T19:11:25.246071+05:30
Ahmedabad,Gujarat,23.0225,72.5714,40.8,15,0.0,995.4,8.15,35.6,64,68.2,21.0,5.0,181.0,80.0,2.6,0,5,10,0,2026-05-20T19:11:25.246077+05:30
Jaipur,Rajasthan,26.9124,75.7873,37.7,17,0.0,953.8,8.3,38.2,112,185.3,33.5,5.1,190.0,100.0,3.2,0,5,10,0,2026-05-20T19:11:25.246088+05:30
Lucknow,Uttar Pradesh,26.8467,80.9462,39.2,27,0.0,985.1,8.25,38.2,164,157.9,51.7,10.1,217.0,130.0,9.9,0,5,10,1,2026-05-20T19:11:25.246094+05:30
Kanpur,Uttar Pradesh,26.4499,80.3319,39.2,24,0.0,983.6,8.25,43.6,156,449.8,78.7,8.0,209.0,128.0,8.5,0,5,10,0,2026-05-20T19:11:25.246101+05:30
Chandigarh,Chandigarh,30.7333,76.7794,36.6,19,0.0,960.9,7.8,26.3,120,106.2,40.7,14.2,445.0,127.0,10.3,0,5,10,0,2026-05-20T19:11:25.246107+05:30
Srinagar,Jammu and Kashmir,34.0837,74.7973,22.1,54,0.0,842.8,9.05,25.9,89,49.2,19.0,11.1,575.0,97.0,3.3,0,5,7,0,2026-05-20T19:11:25.246114+05:30
Jammu,Jammu and Kashmir,32.7266,74.857,37.1,18,0.0,965.0,8.6,29.9,121,80.3,29.5,17.1,298.0,121.0,5.3,0,5,10,0,2026-05-20T19:11:25.246120+05:30
Amritsar,Punjab,31.634,74.8723,37.7,21,0.0,972.3,8.45,24.8,137,53.6,28.9,11.6,420.0,132.0,8.8,0,5,10,0,2026-05-20T19:11:25.246126+05:30
Ludhiana,Punjab,30.901,75.8573,38.6,16,0.0,970.0,8.05,22.0,157,129.9,42.1,10.7,466.0,108.0,7.3,0,5,10,0,2026-05-20T19:11:25.246133+05:30
Jalandhar,Punjab,31.326,75.5762,38.2,18,0.0,971.0,8.25,28.4,143,83.6,35.6,11.2,515.0,104.0,5.1,0,5,10,0,2026-05-20T19:11:25.246139+05:30
Dehradun,Uttarakhand,30.6284,78.0322,22.6,42,0.0,828.2,8.2,45.0,120,39.8,19.9,7.6,214.0,138.0,5.4,0,5,7,0,2026-05-20T19:11:25.246146+05:30
Shimla,Himachal Pradesh,31.1048,77.1734,20.6,31,0.0,783.5,8.3,43.9,137,32.5,17.4,5.2,221.0,155.0,10.8,0,5,7,0,2026-05-20T19:11:25.246155+05:30
Manali,Himachal Pradesh,32.2396,77.1887,19.9,56,0.0,817.7,10.0,38.9,117,38.2,17.4,24.2,205.0,123.0,0.8,0,5,7,0,2026-05-20T19:11:25.246162+05:30
Gurgaon,Haryana,28.4595,77.0266,38.3,18,0.0,972.9,7.85,39.6,794,521.5,92.7,31.7,1120.0,84.0,10.3,0,5,10,0,2026-05-20T19:11:25.246168+05:30
Noida,Uttar Pradesh,28.5355,77.391,38.2,21,0.0,975.6,7.8,28.4,794,521.5,92.7,31.7,707.0,84.0,10.3,0,5,10,0,2026-05-20T19:11:25.246175+05:30
Ghaziabad,Uttar Pradesh,28.6692,77.4538,36.7,33,0.0,974.0,7.75,31.0,203,340.9,77.1,23.9,347.0,117.0,16.1,0,5,10,1,2026-05-20T19:11:25.246181+05:30
Faridabad,Haryana,28.4089,77.3178,39.2,18,0.0,975.2,7.8,37.8,794,521.5,92.7,31.7,368.0,84.0,10.3,0,5,10,0,2026-05-20T19:11:25.246187+05:30
Meerut,Uttar Pradesh,28.9845,77.7064,38.1,25,0.0,972.9,7.7,27.7,203,340.9,77.1,23.9,242.0,117.0,16.1,0,5,10,0,2026-05-20T19:11:25.246193+05:30
Agra,Uttar Pradesh,27.1767,78.0081,38.7,18,0.0,979.6,8.1,38.2,379,540.2,79.6,10.9,208.0,102.0,5.1,0,5,10,0,2026-05-20T19:11:25.246202+05:30
Varanasi,Uttar Pradesh,25.3176,82.9739,38.9,28,0.0,989.1,8.75,42.5,174,119.0,51.2,16.6,293.0,133.0,15.2,0,5,10,1,2026-05-20T19:11:25.246208+05:30
Prayagraj,Uttar Pradesh,25.4358,81.8463,39.5,21,0.0,987.2,8.6,37.1,173,109.9,41.7,11.5,220.0,119.0,10.4,0,5,10,0,2026-05-20T19:11:25.246215+05:30
Gorakhpur,Uttar Pradesh,26.7606,83.3732,33.2,61,0.0,989.6,8.65,29.9,169,106.4,64.0,8.7,475.0,154.0,12.9,3,5,7,1,2026-05-20T19:11:25.246223+05:30
Bareilly,Uttar Pradesh,28.367,79.4304,34.2,45,0.0,978.4,8.05,33.1,173,84.8,42.0,11.7,266.0,148.0,11.5,0,5,7,1,2026-05-20T19:11:25.246229+05:30
Aligarh,Uttar Pradesh,27.8974,78.088,37.7,23,0.0,977.0,7.9,28.8,444,396.7,73.3,19.3,304.0,91.0,7.8,0,5,10,0,2026-05-20T19:11:25.246235+05:30
Moradabad,Uttar Pradesh,28.8386,78.7733,36.3,40,0.0,975.4,7.9,36.4,207,127.6,62.9,25.8,431.0,119.0,12.8,0,5,10,1,2026-05-20T19:11:25.246241+05:30
Saharanpur,Uttar Pradesh,29.9637,77.546,36.6,29,0.0,967.4,7.4,22.3,155,137.8,60.3,22.0,294.0,110.0,12.5,0,5,10,0,2026-05-20T19:11:25.246250+05:30
Jhansi,Uttar Pradesh,25.4484,78.5685,38.5,19,0.0,970.9,8.5,40.7,67,27.4,15.9,3.5,170.0,101.0,3.8,0,5,10,0,2026-05-20T19:11:28.524299+05:30
Surat,Gujarat,21.1702,72.8311,30.3,74,0.0,1002.9,7.7,47.2,69,38.2,20.0,20.0,233.0,41.0,41.1,3,5,4,1,2026-05-20T19:11:28.524334+05:30
Vadodara,Gujarat,22.3072,73.1812,36.3,40,0.0,998.5,8.1,47.5,66,61.2,23.6,7.8,174.0,100.0,9.8,0,5,10,1,2026-05-20T19:11:28.524344+05:30
Rajkot,Gujarat,22.3039,70.8022,36.7,25,0.0,989.3,7.75,41.4,59,76.6,25.0,3.0,137.0,93.0,5.0,0,5,10,0,2026-05-20T19:11:28.524353+05:30
Thane,Maharashtra,19.2183,72.9781,31.2,64,0.0,1004.9,7.65,40.7,66,20.7,12.7,9.2,169.0,54.0,5.5,3,5,4,1,2026-05-20T19:11:28.524360+05:30
Nagpur,Maharashtra,21.1458,79.0882,41.7,14,0.0,966.4,8.9,39.6,133,28.2,15.5,8.3,208.0,128.0,15.3,0,5,10,0,2026-05-20T19:11:28.524368+05:30
Nashik,Maharashtra,19.9975,73.7898,30.6,53,0.0,943.1,8.15,40.3,62,20.8,12.1,2.6,140.0,80.0,1.1,0,5,7,1,2026-05-20T19:11:28.524374+05:30
Aurangabad,Maharashtra,19.8762,75.3433,33.7,37,0.0,941.1,9.05,51.1,75,51.2,27.0,2.7,193.0,116.0,3.2,0,5,7,1,2026-05-20T19:11:28.524381+05:30
Solapur,Maharashtra,17.6599,75.9064,35.8,30,0.0,953.5,6.45,50.0,111,49.2,28.6,4.8,185.0,136.0,6.3,0,5,10,0,2026-05-20T19:11:28.524388+05:30
Kolhapur,Maharashtra,16.705,74.2433,27.2,64,0.0,946.0,8.85,41.4,75,40.9,23.1,3.8,153.0,91.0,2.5,7,5,7,1,2026-05-20T19:11:28.524395+05:30
Goa,Goa,15.2993,74.124,27.1,99,0.0,996.5,6.6,23.8,46,6.5,4.7,2.6,137.0,70.0,0.8,7,5,7,1,2026-05-20T19:11:28.524402+05:30
Jodhpur,Rajasthan,26.2389,73.0243,38.5,20,0.0,975.6,8.45,43.9,136,282.2,48.5,3.7,160.0,95.0,3.1,0,5,10,0,2026-05-20T19:11:28.524409+05:30
Udaipur,Rajasthan,24.5854,73.7125,35.0,17,0.0,942.2,8.85,50.0,63,57.4,18.5,1.6,149.0,89.0,1.9,0,5,7,0,2026-05-20T19:11:28.524416+05:30
Kota,Rajasthan,25.2138,75.8648,39.5,12,0.0,972.3,8.4,38.5,69,36.6,16.9,4.3,171.0,106.0,3.6,0,5,10,0,2026-05-20T19:11:28.524423+05:30
Bikaner,Rajasthan,28.0229,73.3119,39.8,16,0.0,973.6,8.4,34.6,95,59.4,21.9,1.5,206.0,100.0,2.6,0,5,10,0,2026-05-20T19:11:28.524430+05:30
Ajmer,Rajasthan,26.4499,74.6399,35.1,23,0.0,949.3,8.4,44.3,56,82.9,24.3,2.3,157.0,99.0,2.6,0,5,10,0,2026-05-20T19:11:28.524437+05:30
Gwalior,Madhya Pradesh,26.2183,78.1828,39.2,18,0.0,975.8,8.3,44.6,72,25.4,15.4,2.7,175.0,104.0,2.5,0,5,10,0,2026-05-20T19:11:28.524444+05:30
Indore,Madhya Pradesh,22.7196,75.8577,36.5,21,0.0,944.4,8.1,43.9,75,44.8,21.0,3.0,210.0,110.0,3.7,0,5,10,0,2026-05-20T19:11:28.524450+05:30
Bhopal,Madhya Pradesh,23.2599,77.4126,37.8,19,0.0,948.7,8.7,46.4,79,33.9,21.5,4.8,189.0,103.0,3.9,0,5,10,0,2026-05-20T19:11:28.524457+05:30
Jabalpur,Madhya Pradesh,23.1815,79.9864,39.2,18,0.0,954.9,8.85,29.5,120,55.3,22.7,7.6,199.0,113.0,5.6,0,5,10,0,2026-05-20T19:11:28.524463+05:30
Ujjain,Madhya Pradesh,23.1765,75.7885,36.2,23,0.0,949.8,8.4,45.0,60,47.5,20.2,1.7,172.0,104.0,2.8,0,5,10,0,2026-05-20T19:11:28.524471+05:30
Visakhapatnam,Andhra Pradesh,17.6868,83.2185,31.7,80,0.0,997.5,8.65,35.6,173,49.6,42.1,37.3,543.0,107.0,62.1,3,5,7,1,2026-05-20T19:11:28.524478+05:30
Vijayawada,Andhra Pradesh,16.5062,80.648,38.5,33,0.0,995.5,8.8,39.6,137,63.6,49.1,17.1,295.0,114.0,8.2,0,5,10,1,2026-05-20T19:11:28.524484+05:30
Guntur,Andhra Pradesh,16.3067,80.4365,39.0,30,0.0,996.8,8.55,42.1,128,58.6,42.1,11.8,261.0,120.0,7.0,0,5,10,1,2026-05-20T19:11:28.524491+05:30
Nellore,Andhra Pradesh,14.4426,79.9865,35.0,52,0.0,999.7,8.9,46.4,118,35.4,25.4,4.6,236.0,154.0,4.2,0,5,7,1,2026-05-20T19:11:28.524499+05:30
Kurnool,Andhra Pradesh,15.8281,78.0373,36.5,33,0.0,972.7,8.45,38.9,129,52.4,35.0,4.7,210.0,148.0,9.0,0,5,10,1,2026-05-20T19:11:28.524506+05:30
Kakinada,Andhra Pradesh,16.9891,82.2475,33.5,68,0.0,1000.5,8.5,41.4,109,34.1,26.3,3.9,353.0,131.0,4.2,3,5,4,1,2026-05-20T19:11:28.524514+05:30
Tirupati,Andhra Pradesh,13.6288,79.4192,30.4,70,0.2,986.5,9.0,34.6,68,26.4,22.5,15.0,245.0,90.0,3.3,6,5,7,1,2026-05-20T19:11:28.524520+05:30
Warangal,Telangana,17.9689,79.5941,36.5,32,0.0,972.2,8.1,28.8,134,67.8,49.1,21.9,327.0,104.0,9.1,0,5,10,1,2026-05-20T19:11:28.524527+05:30
Nizamabad,Telangana,18.6725,78.0941,37.4,23,0.0,959.2,8.85,32.0,126,41.2,25.3,7.0,217.0,124.0,5.9,0,5,10,0,2026-05-20T19:11:28.524534+05:30
Mysore,Karnataka,12.2958,76.6396,26.3,72,0.0,927.5,4.8,43.6,39,7.6,6.9,9.4,199.0,77.0,2.1,7,5,3,1,2026-05-20T19:11:28.524540+05:30
Mangalore,Karnataka,12.9141,74.856,28.8,83,0.0,1005.3,4.9,31.7,38,8.8,6.2,3.4,277.0,63.0,1.4,7,5,0,1,2026-05-20T19:11:28.524547+05:30
Hubli-Dharwad,Karnataka,15.3647,75.124,26.9,76,0.0,939.3,9.0,40.0,39,6.1,5.0,4.3,166.0,79.0,0.8,7,5,7,1,2026-05-20T19:11:28.524554+05:30
Belgaum,Karnataka,15.8497,74.4977,25.4,81,0.0,924.3,9.1,35.3,67,27.1,16.4,4.8,137.0,89.0,2.7,7,5,7,1,2026-05-20T19:11:31.792452+05:30
Coimbatore,Tamil Nadu,11.0168,76.9558,27.3,76,0.0,960.0,7.7,56.9,37,6.5,5.8,6.8,197.0,65.0,2.3,7,5,7,1,2026-05-20T19:11:31.792486+05:30
Madurai,Tamil Nadu,9.9252,78.1198,32.2,54,0.0,990.0,8.85,57.2,74,6.7,5.8,12.9,227.0,65.0,3.1,0,5,7,1,2026-05-20T19:11:31.792496+05:30
Trichy,Tamil Nadu,10.7905,78.7047,31.7,62,0.0,996.2,8.25,46.8,45,8.8,8.0,13.8,217.0,68.0,3.7,3,5,7,1,2026-05-20T19:11:31.792505+05:30
Salem,Tamil Nadu,11.6643,78.146,32.0,56,0.0,974.9,7.15,32.0,71,9.3,8.7,10.2,382.0,94.0,9.2,0,5,7,1,2026-05-20T19:11:31.792512+05:30
Tirunelveli,Tamil Nadu,8.7139,77.7567,32.3,54,0.0,1001.0,8.7,38.2,33,6.2,4.8,3.8,166.0,58.0,1.0,0,5,4,1,2026-05-20T19:11:31.792520+05:30
Vellore,Tamil Nadu,12.9165,79.1325,32.8,47,0.0,980.6,8.75,47.9,57,14.7,13.6,7.2,349.0,95.0,3.2,0,5,7,1,2026-05-20T19:11:31.792527+05:30
Erode,Tamil Nadu,11.341,77.7172,32.8,48,0.0,986.5,8.0,39.6,46,7.8,7.0,10.5,226.0,75.0,2.3,0,5,7,1,2026-05-20T19:11:31.792534+05:30
Kochi,Kerala,9.9312,76.2673,28.4,84,0.0,1007.8,6.75,29.2,51,13.5,11.4,16.1,214.0,43.0,4.2,7,5,4,1,2026-05-20T19:11:31.792541+05:30
Thiruvananthapuram,Kerala,8.5241,76.9366,28.0,81,0.0,1007.1,7.8,39.6,29,10.3,6.0,1.8,174.0,55.0,0.5,7,5,4,1,2026-05-20T19:11:31.792549+05:30
Kozhikode,Kerala,11.2588,75.7804,28.4,89,0.0,1006.8,6.4,26.3,32,8.6,5.5,1.1,238.0,67.0,0.4,7,5,4,1,2026-05-20T19:11:31.792555+05:30
Thrissur,Kerala,10.5276,76.2144,27.8,87,0.0,1006.1,4.7,31.3,43,12.3,10.4,8.9,243.0,52.0,2.7,7,5,0,1,2026-05-20T19:11:31.792563+05:30
Kannur,Kerala,11.8745,75.3704,27.8,89,0.0,1006.0,8.45,29.5,34,10.0,7.0,4.9,179.0,58.0,1.2,7,5,4,1,2026-05-20T19:11:31.792570+05:30
Patna,Bihar,25.5941,85.1376,31.3,74,0.0,993.3,8.85,26.3,169,92.2,69.8,15.2,466.0,144.0,15.9,3,5,7,1,2026-05-20T19:11:31.792577+05:30
Gaya,Bihar,24.7914,85.0002,34.2,54,0.0,986.3,8.9,29.9,161,136.9,72.4,13.2,416.0,133.0,13.8,0,5,7,1,2026-05-20T19:11:31.792584+05:30
Muzaffarpur,Bihar,26.1209,85.3647,30.5,78,0.0,993.4,8.85,27.0,163,86.1,68.2,19.3,455.0,127.0,16.0,3,5,7,1,2026-05-20T19:11:31.792590+05:30
Bhagalpur,Bihar,25.2425,87.0117,30.5,77,0.0,994.4,8.7,31.7,190,75.7,59.5,13.3,382.0,159.0,23.3,3,5,7,1,2026-05-20T19:11:31.792596+05:30
Ranchi,Jharkhand,23.3441,85.3096,29.5,46,0.0,932.1,9.3,46.8,140,109.2,42.1,9.5,354.0,121.0,8.8,4,5,7,1,2026-05-20T19:11:31.792602+05:30
Jamshedpur,Jharkhand,22.8046,86.2029,33.3,49,0.0,983.0,9.1,31.0,201,144.4,68.7,25.2,402.0,136.0,44.8,0,5,7,1,2026-05-20T19:11:31.792608+05:30
Dhanbad,Jharkhand,23.7957,86.4304,34.3,46,0.0,972.8,9.05,37.4,191,142.0,76.1,38.0,295.0,101.0,70.8,0,5,7,1,2026-05-20T19:11:31.792614+05:30
Bokaro,Jharkhand,23.6693,86.1511,33.5,51,0.0,976.6,9.1,42.1,173,157.4,65.9,28.4,406.0,103.0,69.5,0,5,7,1,2026-05-20T19:11:31.792621+05:30
Bhubaneswar,Odisha,20.2961,85.8245,32.1,67,0.0,994.1,9.15,42.8,168,76.4,52.7,15.8,463.0,136.0,15.4,3,5,7,1,2026-05-20T19:11:31.792627+05:30
Cuttack,Odisha,20.4625,85.8828,32.3,65,0.0,995.6,9.2,49.0,168,76.4,52.7,15.8,425.0,136.0,15.4,3,5,7,1,2026-05-20T19:11:31.792633+05:30
Rourkela,Odisha,22.2604,84.8536,35.5,30,0.0,977.3,9.0,32.4,153,155.1,46.1,14.4,756.0,105.0,6.5,0,5,10,0,2026-05-20T19:11:31.792640+05:30
Raipur,Chhattisgarh,21.2514,81.6296,38.2,26,0.0,967.7,9.0,33.1,158,84.1,63.3,33.3,229.0,104.0,38.1,0,5,10,0,2026-05-20T19:11:31.792646+05:30
Bhilai,Chhattisgarh,21.1938,81.3509,37.0,29,0.0,968.0,8.85,34.9,141,82.2,55.2,31.1,468.0,104.0,39.5,0,5,10,0,2026-05-20T19:11:31.792652+05:30
Guwahati,Assam,26.1158,91.7086,28.6,84,0.0,995.6,8.2,22.7,140,44.8,37.4,8.3,381.0,80.0,3.5,7,5,7,1,2026-05-20T19:11:31.792659+05:30
Agartala,Tripura,23.8315,91.2868,29.5,75,0.0,999.8,8.85,28.4,84,48.7,40.9,19.1,310.0,78.0,4.5,7,5,7,1,2026-05-20T19:11:31.792666+05:30
Shillong,Meghalaya,25.5788,91.8933,20.1,89,0.0,853.7,8.5,19.4,90,30.2,24.0,8.3,386.0,85.0,3.1,3,5,7,1,2026-05-20T19:11:31.792672+05:30
Imphal,Manipur,24.817,93.9368,25.5,79,0.0,918.1,9.25,28.8,114,47.5,31.9,10.3,398.0,76.0,4.4,7,5,7,1,2026-05-20T19:11:31.792679+05:30
Aizawl,Mizoram,23.7271,92.7176,23.2,80,0.0,888.4,9.1,21.6,84,47.6,32.4,9.0,242.0,69.0,2.9,3,5,7,1,2026-05-20T19:11:31.792685+05:30
Kohima,Nagaland,25.6701,94.1077,19.5,99,0.2,851.9,8.65,30.6,110,41.6,26.7,8.7,324.0,77.0,2.7,6,10,7,1,2026-05-20T19:11:31.792691+05:30
Gangtok,Sikkim,27.3314,88.6138,17.8,94,0.2,834.1,9.15,37.4,89,25.7,16.9,9.3,421.0,113.0,2.4,6,10,7,1,2026-05-20T19:11:31.792698+05:30
Siliguri,West Bengal,26.7271,88.3953,28.0,83,0.0,987.0,8.7,23.4,130,70.3,47.3,14.3,1036.0,119.0,6.0,7,5,7,1,2026-05-20T19:11:35.062646+05:30
Durgapur,West Bengal,23.5204,87.3119,33.3,69,0.0,987.3,8.95,22.7,201,177.0,122.9,33.3,604.0,171.0,63.1,3,5,7,1,2026-05-20T19:11:35.062688+05:30
Asansol,West Bengal,23.6739,86.9524,33.7,63,0.0,985.8,9.05,26.6,195,149.0,101.5,38.9,459.0,140.0,50.1,3,5,7,1,2026-05-20T19:11:35.062699+05:30
Pondicherry,Puducherry,11.9139,79.8145,32.1,62,0.0,1003.4,3.4,29.9,137,26.2,22.8,18.0,338.0,127.0,11.0,3,5,0,1,2026-05-20T19:11:35.062708+05:30
Port Blair,Andaman and Nicobar Islands,11.6234,92.7265,27.2,90,0.0,1003.8,8.75,46.4,26,9.1,5.4,0.6,151.0,42.0,0.4,7,5,4,1,2026-05-20T19:11:35.062716+05:30
Haridwar,Uttarakhand,29.9457,78.1642,34.7,39,0.0,965.8,7.6,28.8,142,103.1,43.0,10.1,301.0,127.0,10.3,0,5,7,1,2026-05-20T19:11:35.062724+05:30
Rishikesh,Uttarakhand,30.0869,78.2676,34.5,32,0.0,959.0,7.7,26.6,107,75.0,26.8,4.1,251.0,130.0,6.1,0,5,7,0,2026-05-20T19:11:35.062731+05:30
Nainital,Uttarakhand,29.3919,79.4542,19.7,65,0.0,803.0,8.55,60.5,135,49.1,24.6,4.0,258.0,150.0,6.6,3,5,7,0,2026-05-20T19:11:35.062738+05:30
Mussoorie,Uttarakhand,30.4599,78.0664,20.3,42,0.0,801.1,8.1,54.4,123,70.5,33.2,9.5,233.0,135.0,8.9,0,5,7,0,2026-05-20T19:11:35.062776+05:30
Dharamshala,Himachal Pradesh,32.219,76.3234,26.0,37,0.0,866.0,8.5,48.6,111,54.0,17.8,5.3,228.0,129.0,4.6,4,5,7,0,2026-05-20T19:11:35.062784+05:30
Dalhousie,Himachal Pradesh,32.5387,75.971,21.6,47,0.0,803.6,8.75,42.8,131,73.3,25.0,14.9,271.0,140.0,5.5,0,5,7,0,2026-05-20T19:11:35.062792+05:30
Patiala,Punjab,30.3398,76.3869,38.2,17,0.0,969.6,7.7,25.6,496,516.0,95.5,11.5,276.0,92.0,7.0,0,5,10,0,2026-05-20T19:11:35.062799+05:30
Bhatinda,Punjab,30.211,74.9455,39.0,19,0.0,974.8,8.35,30.6,107,65.4,28.1,7.4,279.0,92.0,5.8,0,5,10,0,2026-05-20T19:11:35.062807+05:30
Rohtak,Haryana,28.8955,76.6066,36.8,41,0.0,972.9,7.8,29.2,400,303.6,63.6,21.1,332.0,90.0,4.8,0,5,10,1,2026-05-20T19:11:35.062814+05:30
Panipat,Haryana,29.3909,76.9635,37.4,24,0.0,971.7,7.65,34.6,892,472.2,88.0,17.1,233.0,87.0,7.2,0,5,10,0,2026-05-20T19:11:35.062821+05:30
Mathura,Uttar Pradesh,27.4924,77.6737,38.3,18,0.0,978.5,8.05,44.6,344,454.5,67.8,11.1,265.0,99.0,3.4,0,5,10,0,2026-05-20T19:11:35.062828+05:30
Vrindavan,Uttar Pradesh,27.5823,77.7027,37.3,19,0.0,978.9,8.0,29.9,344,454.5,67.8,11.1,365.0,99.0,3.4,0,5,10,0,2026-05-20T19:11:35.062835+05:30
Ayodhya,Uttar Pradesh,26.7922,82.1998,35.1,57,0.0,986.8,8.35,22.7,172,106.4,47.5,10.3,329.0,127.0,9.7,0,5,10,1,2026-05-20T19:11:35.062841+05:30
Ratlam,Madhya Pradesh,23.3315,75.0367,35.5,23,0.0,950.5,8.55,46.4,60,53.0,20.8,1.4,139.0,103.0,2.8,0,5,10,0,2026-05-20T19:11:35.062848+05:30
Sagar,Madhya Pradesh,23.8388,78.7378,38.4,16,0.0,944.9,8.75,38.2,91,24.3,14.8,3.4,168.0,112.0,3.3,0,5,10,0,2026-05-20T19:11:35.062855+05:30
Satna,Madhya Pradesh,24.6005,80.8322,38.2,21,0.0,964.2,8.8,46.8,119,75.0,26.6,5.3,194.0,115.0,4.7,0,5,10,0,2026-05-20T19:11:35.062862+05:30
Akola,Maharashtra,20.7002,77.0082,39.1,19,0.0,969.6,8.9,40.3,101,42.3,22.8,4.4,160.0,121.0,6.3,0,5,10,0,2026-05-20T19:11:35.062869+05:30
Amravati,Maharashtra,20.9374,77.7796,39.8,17,0.0,961.6,8.9,41.0,108,38.1,21.6,5.1,193.0,122.0,7.1,0,5,10,0,2026-05-20T19:11:35.062877+05:30
Latur,Maharashtra,18.4088,76.5604,36.3,25,0.0,936.3,7.5,31.3,121,56.3,31.2,5.5,189.0,129.0,5.9,0,5,10,0,2026-05-20T19:11:35.062884+05:30
Nanded,Maharashtra,19.1383,77.3091,39.0,19,0.0,963.2,8.65,35.3,125,45.2,25.8,7.0,219.0,120.0,5.5,0,5,10,0,2026-05-20T19:11:35.062891+05:30
Gulbarga,Karnataka,17.3297,76.8343,33.5,43,0.0,955.0,8.75,37.1,119,51.7,32.7,6.7,211.0,137.0,6.2,0,5,7,1,2026-05-20T19:11:35.062897+05:30
Bidar,Karnataka,17.9104,77.5199,33.6,36,0.0,931.8,8.65,39.2,141,42.6,28.9,12.2,252.0,135.0,7.0,0,5,7,1,2026-05-20T19:11:35.062904+05:30
Hospet,Karnataka,15.2689,76.3909,29.8,61,0.0,953.8,8.45,39.6,45,16.9,13.8,6.2,216.0,100.0,2.5,7,5,7,1,2026-05-20T19:11:35.062910+05:30
Tirupur,Tamil Nadu,11.1085,77.3411,29.0,68,0.0,973.1,8.1,50.8,45,8.0,7.1,11.3,186.0,69.0,2.8,7,5,7,1,2026-05-20T19:11:35.062917+05:30
Alappuzha,Kerala,9.4981,76.3388,28.3,87,0.1,1007.8,7.3,31.0,34,10.0,7.2,7.1,118.0,54.0,1.7,10,5,4,1,2026-05-20T19:11:35.062923+05:30
Munnar,Kerala,10.0889,77.0595,18.2,99,0.0,856.5,8.75,43.6,33,8.5,7.7,5.7,127.0,67.0,1.6,3,10,7,1,2026-05-20T19:11:35.062930+05:30
Silchar,Assam,24.8333,92.7789,30.1,79,0.0,998.6,8.9,27.0,152,60.3,37.4,8.6,498.0,110.0,8.1,3,5,7,1,2026-05-20T19:11:35.062936+05:30
Dibrugarh,Assam,27.4728,94.912,28.5,80,0.0,989.2,8.9,16.9,88,49.9,37.6,15.0,455.0,65.0,3.4,7,5,7,1,2026-05-20T19:11:35.062942+05:30
