city,state,latitude,longitude,temp,humidity,rain,pressure,uv_index,wind_gusts,aqi,pm10,pm2_5,mosquito_risk,arthritis_risk,migraine_risk,frizz_risk,updated_at
Delhi,Delhi,28.6139,77.209,27.5,47,0.0,984.6,7.15,31.0,565,413.5,81.0,4,5,7,0,2026-04-11T20:08:39.986957+05:30
Mumbai,Maharashtra,19.076,72.8777,29.1,71,0.0,1009.0,7.95,23.4,179,37.7,31.0,7,0,4,1,2026-04-11T20:08:39.987001+05:30
Bangalore,Karnataka,12.9716,77.5946,30.7,34,0.0,912.9,9.65,27.4,127,41.3,33.5,0,5,7,0,2026-04-11T20:08:39.987017+05:30
Hyderabad,Telangana,17.385,78.4867,34.4,30,0.0,954.1,9.2,18.7,174,47.1,37.7,0,5,7,0,2026-04-11T20:08:39.987027+05:30
Chennai,Tamil Nadu,13.0827,80.2707,29.5,81,0.0,1008.5,9.05,35.6,56,18.5,12.9,7,0,4,1,2026-04-11T20:08:39.987036+05:30
Kolkata,West Bengal,22.5726,88.3639,27.4,69,0.0,1007.0,8.75,18.0,142,85.0,71.2,7,5,4,1,2026-04-11T20:08:39.987045+05:30
Pune,Maharashtra,18.5204,73.8567,30.2,46,0.0,949.8,8.55,38.9,168,46.0,39.3,0,5,7,1,2026-04-11T20:08:39.987057+05:30
Ahmedabad,Gujarat,23.0225,72.5714,34.3,25,0.0,1002.4,8.05,22.3,156,47.1,32.4,0,5,4,0,2026-04-11T20:08:39.987064+05:30
Jaipur,Rajasthan,26.9124,75.7873,30.3,25,0.0,961.0,7.85,40.7,123,203.5,36.7,0,5,7,0,2026-04-11T20:08:39.987073+05:30
Lucknow,Uttar Pradesh,26.8467,80.9462,29.5,34,0.0,994.6,7.65,42.1,281,309.2,57.3,4,5,7,0,2026-04-11T20:08:39.987080+05:30
Kanpur,Uttar Pradesh,26.4499,80.3319,27.5,50,0.0,993.2,7.65,36.4,627,555.1,81.3,4,5,7,1,2026-04-11T20:08:39.987087+05:30
Chandigarh,Chandigarh,30.7333,76.7794,23.6,53,0.0,971.3,7.15,29.9,122,85.4,32.7,0,5,7,0,2026-04-11T20:08:39.987094+05:30
Srinagar,Jammu and Kashmir,34.0837,74.7973,10.7,76,0.0,841.2,7.4,14.0,103,41.4,21.5,3,5,7,0,2026-04-11T20:08:39.987101+05:30
Jammu,Jammu and Kashmir,32.7266,74.857,23.0,58,0.0,975.8,6.8,16.6,106,64.7,30.7,0,5,7,0,2026-04-11T20:08:39.987108+05:30
Amritsar,Punjab,31.634,74.8723,23.7,57,0.0,984.0,7.7,18.7,111,95.7,36.6,0,5,7,0,2026-04-11T20:08:39.987115+05:30
Ludhiana,Punjab,30.901,75.8573,25.6,44,0.0,981.8,7.35,28.8,113,95.2,41.0,4,5,7,0,2026-04-11T20:08:39.987121+05:30
Jalandhar,Punjab,31.326,75.5762,24.3,51,0.0,983.1,7.5,23.4,111,101.5,36.6,0,5,7,0,2026-04-11T20:08:39.987130+05:30
Dehradun,Uttarakhand,30.6284,78.0322,14.8,64,0.0,830.7,7.55,42.5,105,76.4,17.3,3,5,7,0,2026-04-11T20:08:39.987137+05:30
Shimla,Himachal Pradesh,31.1048,77.1734,12.0,69,0.0,784.7,7.5,46.4,104,80.3,22.0,3,5,7,0,2026-04-11T20:08:39.987143+05:30
Manali,Himachal Pradesh,32.2396,77.1887,13.2,79,0.0,820.0,8.5,29.5,145,32.4,9.1,3,5,7,0,2026-04-11T20:08:39.987150+05:30
Gurgaon,Haryana,28.4595,77.0266,27.0,50,0.0,983.0,7.3,26.3,1497,644.5,99.9,4,5,7,0,2026-04-11T20:08:39.987156+05:30
Noida,Uttar Pradesh,28.5355,77.391,27.2,48,0.0,986.1,7.2,31.3,1497,644.5,99.9,4,5,7,0,2026-04-11T20:08:39.987162+05:30
Ghaziabad,Uttar Pradesh,28.6692,77.4538,26.6,52,0.0,984.3,7.15,29.9,440,365.1,73.6,4,5,7,0,2026-04-11T20:08:39.987168+05:30
Faridabad,Haryana,28.4089,77.3178,26.7,49,0.0,985.3,7.25,31.0,1497,644.5,99.9,4,5,7,0,2026-04-11T20:08:39.987175+05:30
Meerut,Uttar Pradesh,28.9845,77.7064,25.4,54,0.0,983.1,7.05,34.2,440,365.1,73.6,4,5,7,0,2026-04-11T20:08:39.987181+05:30
Agra,Uttar Pradesh,27.1767,78.0081,29.1,42,0.0,989.0,7.55,28.8,929,625.8,87.5,4,5,7,0,2026-04-11T20:08:39.987188+05:30
Varanasi,Uttar Pradesh,25.3176,82.9739,29.0,38,0.0,998.5,8.25,37.8,131,83.4,36.8,4,5,7,0,2026-04-11T20:08:39.987197+05:30
Prayagraj,Uttar Pradesh,25.4358,81.8463,28.9,35,0.0,997.6,8.15,39.2,133,143.0,43.4,4,5,7,0,2026-04-11T20:08:39.987204+05:30
Gorakhpur,Uttar Pradesh,26.7606,83.3732,28.6,32,0.0,997.4,8.1,29.2,146,60.5,27.8,4,5,7,0,2026-04-11T20:08:39.987211+05:30
Bareilly,Uttar Pradesh,28.367,79.4304,25.5,51,0.0,988.0,7.45,46.4,111,65.7,26.3,4,5,7,0,2026-04-11T20:08:39.987218+05:30
Aligarh,Uttar Pradesh,27.8974,78.088,25.9,45,0.0,987.0,7.35,37.1,999,763.7,110.6,4,5,7,0,2026-04-11T20:08:39.987227+05:30
Moradabad,Uttar Pradesh,28.8386,78.7733,25.5,54,0.0,984.9,7.3,41.4,103,137.4,41.3,4,5,7,0,2026-04-11T20:08:39.987235+05:30
Saharanpur,Uttar Pradesh,29.9637,77.546,24.5,50,0.0,977.7,6.85,35.3,108,97.3,34.7,0,5,7,0,2026-04-11T20:08:39.987242+05:30
Jhansi,Uttar Pradesh,25.4484,78.5685,30.4,32,0.0,979.7,8.1,25.6,119,31.4,14.0,0,5,7,0,2026-04-11T20:08:43.333523+05:30
Surat,Gujarat,21.1702,72.8311,31.2,42,0.0,1007.0,7.8,27.7,158,68.7,63.6,0,5,4,1,2026-04-11T20:08:43.333554+05:30
Vadodara,Gujarat,22.3072,73.1812,33.0,30,0.0,1004.3,8.05,18.4,181,43.1,35.4,0,5,4,0,2026-04-11T20:08:43.333563+05:30
Rajkot,Gujarat,22.3039,70.8022,32.4,24,0.0,995.6,7.75,31.3,125,57.6,25.4,0,5,7,0,2026-04-11T20:08:43.333571+05:30
Thane,Maharashtra,19.2183,72.9781,28.8,65,0.0,1008.4,7.95,37.1,179,37.7,31.0,7,0,4,1,2026-04-11T20:08:43.333579+05:30
Nagpur,Maharashtra,21.1458,79.0882,30.0,44,0.0,974.2,8.75,22.7,157,27.4,21.3,4,5,7,1,2026-04-11T20:08:43.333586+05:30
Nashik,Maharashtra,19.9975,73.7898,29.9,40,0.0,947.2,8.25,36.7,179,34.7,29.8,4,5,7,0,2026-04-11T20:08:43.333593+05:30
Aurangabad,Maharashtra,19.8762,75.3433,32.2,27,0.0,945.2,8.9,33.1,143,26.7,18.6,0,5,7,0,2026-04-11T20:08:43.333600+05:30
Solapur,Maharashtra,17.6599,75.9064,35.7,26,0.0,957.2,9.0,18.7,163,42.0,28.7,0,5,10,0,2026-04-11T20:08:43.333607+05:30
Kolhapur,Maharashtra,16.705,74.2433,27.2,55,0.0,949.0,8.5,42.5,153,37.3,30.5,4,5,7,1,2026-04-11T20:08:43.333614+05:30
Goa,Goa,15.2993,74.124,28.5,78,0.0,999.4,9.05,34.9,108,69.2,31.0,7,5,7,1,2026-04-11T20:08:43.333621+05:30
Jodhpur,Rajasthan,26.2389,73.0243,31.5,31,0.0,983.7,8.05,33.1,105,237.5,44.2,0,5,7,0,2026-04-11T20:08:43.333628+05:30
Udaipur,Rajasthan,24.5854,73.7125,29.8,31,0.0,948.3,8.6,36.4,120,24.0,13.7,4,5,7,0,2026-04-11T20:08:43.333635+05:30
Kota,Rajasthan,25.2138,75.8648,30.1,41,0.0,979.5,8.1,21.6,136,31.5,21.7,0,5,7,0,2026-04-11T20:08:43.333642+05:30
Bikaner,Rajasthan,28.0229,73.3119,31.4,28,0.0,983.4,7.9,32.8,122,84.1,23.7,0,5,7,0,2026-04-11T20:08:43.333649+05:30
Ajmer,Rajasthan,26.4499,74.6399,27.4,40,0.0,955.8,8.0,40.3,118,54.5,19.7,4,5,7,0,2026-04-11T20:08:43.333656+05:30
Gwalior,Madhya Pradesh,26.2183,78.1828,29.7,41,0.0,984.6,7.8,30.6,127,33.8,17.6,4,5,7,0,2026-04-11T20:08:43.333662+05:30
Indore,Madhya Pradesh,22.7196,75.8577,28.1,37,0.0,949.6,8.5,21.6,154,41.2,30.7,4,5,7,0,2026-04-11T20:08:43.333669+05:30
Bhopal,Madhya Pradesh,23.2599,77.4126,30.3,25,0.0,955.3,8.5,24.5,124,30.0,15.1,0,5,7,0,2026-04-11T20:08:43.333675+05:30
Jabalpur,Madhya Pradesh,23.1815,79.9864,30.2,32,0.0,963.0,8.6,18.4,128,62.9,29.3,0,5,7,0,2026-04-11T20:08:43.333682+05:30
Ujjain,Madhya Pradesh,23.1765,75.7885,28.7,36,0.0,955.4,8.4,20.5,138,49.4,37.8,4,5,7,0,2026-04-11T20:08:43.333689+05:30
Visakhapatnam,Andhra Pradesh,17.6868,83.2185,28.4,85,0.0,1005.2,9.15,39.6,78,27.4,21.0,7,5,4,1,2026-04-11T20:08:43.333696+05:30
Vijayawada,Andhra Pradesh,16.5062,80.648,31.9,57,0.0,1003.1,9.2,25.6,93,28.4,24.4,0,5,4,1,2026-04-11T20:08:43.333702+05:30
Guntur,Andhra Pradesh,16.3067,80.4365,29.6,69,0.0,1004.7,9.25,33.5,114,37.1,31.5,7,5,4,1,2026-04-11T20:08:43.333709+05:30
Nellore,Andhra Pradesh,14.4426,79.9865,28.8,81,0.0,1007.0,9.3,40.7,79,17.1,12.5,7,5,4,1,2026-04-11T20:08:43.333716+05:30
Kurnool,Andhra Pradesh,15.8281,78.0373,36.1,34,0.0,976.4,9.2,27.0,130,32.8,25.2,0,5,10,1,2026-04-11T20:08:43.333724+05:30
Kakinada,Andhra Pradesh,16.9891,82.2475,29.2,77,0.0,1008.4,9.2,33.8,60,21.7,14.4,7,0,4,1,2026-04-11T20:08:43.333731+05:30
Tirupati,Andhra Pradesh,13.6288,79.4192,30.8,61,0.0,992.9,9.4,32.0,95,28.4,24.3,3,5,7,1,2026-04-11T20:08:43.333738+05:30
Warangal,Telangana,17.9689,79.5941,33.6,37,0.0,979.2,9.05,25.2,160,45.1,35.6,0,5,7,1,2026-04-11T20:08:43.333744+05:30
Nizamabad,Telangana,18.6725,78.0941,32.4,42,0.0,965.6,9.0,24.8,172,50.5,37.8,0,5,7,1,2026-04-11T20:08:43.333751+05:30
Mysore,Karnataka,12.2958,76.6396,28.5,61,0.0,929.5,9.35,38.9,126,46.8,36.2,7,5,7,1,2026-04-11T20:08:43.333757+05:30
Mangalore,Karnataka,12.9141,74.856,29.6,80,0.0,1007.7,8.6,25.9,88,71.7,29.7,7,5,4,1,2026-04-11T20:08:43.333764+05:30
Hubli-Dharwad,Karnataka,15.3647,75.124,27.1,72,0.0,941.7,9.25,42.5,173,40.6,28.5,7,5,7,1,2026-04-11T20:08:43.333771+05:30
Belgaum,Karnataka,15.8497,74.4977,25.4,80,0.0,926.8,9.3,43.9,164,42.7,28.6,7,5,7,1,2026-04-11T20:08:46.684579+05:30
Coimbatore,Tamil Nadu,11.0168,76.9558,28.1,74,0.0,962.6,8.2,46.1,118,38.0,30.0,7,5,7,1,2026-04-11T20:08:46.684609+05:30
Madurai,Tamil Nadu,9.9252,78.1198,31.2,60,0.0,994.1,8.45,40.0,96,28.8,24.3,0,5,7,1,2026-04-11T20:08:46.684619+05:30
Trichy,Tamil Nadu,10.7905,78.7047,31.6,61,0.0,1000.3,9.4,27.7,91,24.9,21.5,3,5,4,1,2026-04-11T20:08:46.684627+05:30
Salem,Tamil Nadu,11.6643,78.146,33.0,41,0.0,977.5,9.1,21.6,117,29.7,24.2,0,5,7,1,2026-04-11T20:08:46.684635+05:30
Tirunelveli,Tamil Nadu,8.7139,77.7567,31.0,61,0.0,1003.9,9.25,46.1,106,23.9,20.4,3,5,4,1,2026-04-11T20:08:46.684642+05:30
Vellore,Tamil Nadu,12.9165,79.1325,31.2,50,0.0,985.4,9.45,35.3,102,32.0,28.2,0,5,7,1,2026-04-11T20:08:46.684649+05:30
Erode,Tamil Nadu,11.341,77.7172,34.3,40,0.0,988.8,8.95,31.0,120,29.3,23.9,0,5,7,1,2026-04-11T20:08:46.684656+05:30
Kochi,Kerala,9.9312,76.2673,29.7,81,0.0,1009.3,8.8,29.9,69,33.2,20.8,7,0,4,1,2026-04-11T20:08:46.684663+05:30
Thiruvananthapuram,Kerala,8.5241,76.9366,29.2,81,0.0,1009.0,7.6,36.4,78,31.7,17.2,7,0,4,1,2026-04-11T20:08:46.684670+05:30
Kozhikode,Kerala,11.2588,75.7804,29.9,80,0.0,1008.4,8.75,28.8,60,37.1,15.2,7,0,4,1,2026-04-11T20:08:46.684677+05:30
Thrissur,Kerala,10.5276,76.2144,29.4,80,0.0,1007.7,8.8,31.7,67,29.2,17.6,7,5,4,1,2026-04-11T20:08:46.684684+05:30
Kannur,Kerala,11.8745,75.3704,29.8,79,0.0,1007.8,8.65,31.3,65,65.4,31.5,7,5,4,1,2026-04-11T20:08:46.684692+05:30
Patna,Bihar,25.5941,85.1376,29.5,38,0.0,1000.0,8.45,28.4,144,106.4,51.8,4,5,4,0,2026-04-11T20:08:46.684700+05:30
Gaya,Bihar,24.7914,85.0002,27.8,36,0.0,994.3,8.5,33.5,126,83.8,36.9,4,5,7,0,2026-04-11T20:08:46.684706+05:30
Muzaffarpur,Bihar,26.1209,85.3647,26.7,45,0.0,1000.3,8.4,16.2,139,115.5,56.8,4,5,4,0,2026-04-11T20:08:46.684712+05:30
Bhagalpur,Bihar,25.2425,87.0117,26.0,59,0.0,1001.5,8.45,20.5,161,313.9,73.8,4,5,4,1,2026-04-11T20:08:46.684719+05:30
Ranchi,Jharkhand,23.3441,85.3096,25.5,30,0.0,939.4,9.05,31.7,120,81.0,27.1,4,5,7,0,2026-04-11T20:08:46.684726+05:30
Jamshedpur,Jharkhand,22.8046,86.2029,27.2,55,0.0,991.8,8.85,14.8,152,158.8,41.8,4,5,7,1,2026-04-11T20:08:46.684733+05:30
Dhanbad,Jharkhand,23.7957,86.4304,29.3,32,0.0,980.5,8.8,24.5,144,160.7,62.9,4,5,7,0,2026-04-11T20:08:46.684740+05:30
Bokaro,Jharkhand,23.6693,86.1511,26.5,38,0.0,984.7,8.8,25.6,139,139.2,53.9,4,5,7,0,2026-04-11T20:08:46.684746+05:30
Bhubaneswar,Odisha,20.2961,85.8245,28.0,84,0.0,1004.3,9.0,26.3,167,57.7,49.9,7,5,4,1,2026-04-11T20:08:46.684753+05:30
Cuttack,Odisha,20.4625,85.8828,29.9,70,0.0,1005.8,9.05,20.2,167,57.7,49.9,7,5,4,1,2026-04-11T20:08:46.684760+05:30
Rourkela,Odisha,22.2604,84.8536,26.4,58,0.0,986.1,8.75,16.2,142,152.3,45.8,4,5,7,1,2026-04-11T20:08:46.684766+05:30
Raipur,Chhattisgarh,21.2514,81.6296,32.3,30,0.0,975.6,8.85,21.6,158,53.6,34.7,0,5,7,0,2026-04-11T20:08:46.684772+05:30
Bhilai,Chhattisgarh,21.1938,81.3509,31.3,35,0.0,975.8,8.85,19.8,144,60.5,40.5,0,5,7,0,2026-04-11T20:08:46.684779+05:30
Guwahati,Assam,26.1158,91.7086,25.9,71,0.0,1003.1,8.35,20.2,131,55.8,43.1,7,5,4,1,2026-04-11T20:08:46.684785+05:30
Agartala,Tripura,23.8315,91.2868,25.7,69,0.0,1007.2,8.6,21.6,171,45.1,37.6,7,5,4,1,2026-04-11T20:08:46.684791+05:30
Shillong,Meghalaya,25.5788,91.8933,12.7,77,0.0,855.9,8.75,52.2,152,54.2,38.8,3,5,7,0,2026-04-11T20:08:46.684798+05:30
Imphal,Manipur,24.817,93.9368,16.7,76,0.0,924.2,8.95,52.2,127,45.9,31.5,3,5,7,0,2026-04-11T20:08:46.684804+05:30
Aizawl,Mizoram,23.7271,92.7176,18.3,73,0.0,893.6,8.8,41.8,126,51.3,35.3,3,5,7,0,2026-04-11T20:08:46.684810+05:30
Kohima,Nagaland,25.6701,94.1077,14.0,80,0.0,854.9,7.6,65.9,121,42.1,29.4,3,5,7,0,2026-04-11T20:08:46.684817+05:30
Gangtok,Sikkim,27.3314,88.6138,13.1,92,0.0,836.9,8.55,18.4,110,37.4,32.7,3,10,7,0,2026-04-11T20:08:46.684823+05:30
Siliguri,West Bengal,26.7271,88.3953,20.5,67,0.0,995.2,8.2,18.0,126,60.1,44.4,3,5,7,0,2026-04-11T20:08:50.034962+05:30
Durgapur,West Bengal,23.5204,87.3119,26.2,54,0.0,995.8,8.75,20.9,160,238.4,79.6,4,5,7,1,2026-04-11T20:08:50.034993+05:30
Asansol,West Bengal,23.6739,86.9524,27.6,45,0.0,994.3,8.75,22.7,151,192.3,61.9,4,5,7,0,2026-04-11T20:08:50.035003+05:30
Pondicherry,Puducherry,11.9139,79.8145,28.6,86,0.0,1009.5,9.35,34.9,56,18.1,12.4,7,0,4,1,2026-04-11T20:08:50.035012+05:30
Port Blair,Andaman and Nicobar Islands,11.6234,92.7265,29.0,78,0.0,1008.7,9.25,26.3,30,9.6,6.1,7,0,4,1,2026-04-11T20:08:50.035020+05:30
Haridwar,Uttarakhand,29.9457,78.1642,23.9,53,0.0,976.1,7.0,42.1,103,60.5,25.4,0,5,7,0,2026-04-11T20:08:50.035028+05:30
Rishikesh,Uttarakhand,30.0869,78.2676,22.5,56,0.0,969.0,6.9,42.1,98,62.6,19.6,0,5,7,0,2026-04-11T20:08:50.035035+05:30
Nainital,Uttarakhand,29.3919,79.4542,18.9,43,0.0,807.5,7.85,69.8,93,70.5,21.7,0,5,7,0,2026-04-11T20:08:50.035042+05:30
Mussoorie,Uttarakhand,30.4599,78.0664,15.5,56,0.0,803.3,7.45,59.8,98,100.6,26.0,0,5,7,0,2026-04-11T20:08:50.035049+05:30
Dharamshala,Himachal Pradesh,32.219,76.3234,16.9,68,0.0,870.4,7.5,30.6,121,38.4,12.6,3,5,7,0,2026-04-11T20:08:50.035061+05:30
Dalhousie,Himachal Pradesh,32.5387,75.971,13.9,67,0.0,804.0,6.7,23.4,109,70.8,23.8,3,5,7,0,2026-04-11T20:08:50.035069+05:30
Patiala,Punjab,30.3398,76.3869,25.2,46,0.0,980.9,6.95,30.6,469,169.5,43.0,4,5,7,0,2026-04-11T20:08:50.035076+05:30
Bhatinda,Punjab,30.211,74.9455,25.9,44,0.0,986.4,7.7,30.2,136,155.1,43.2,4,5,7,0,2026-04-11T20:08:50.035083+05:30
Rohtak,Haryana,28.8955,76.6066,25.9,48,0.0,983.5,7.1,25.9,768,410.7,76.4,4,5,7,0,2026-04-11T20:08:50.035090+05:30
Panipat,Haryana,29.3909,76.9635,25.0,49,0.0,982.1,6.95,29.5,1566,858.7,117.1,4,5,7,0,2026-04-11T20:08:50.035097+05:30
Mathura,Uttar Pradesh,27.4924,77.6737,27.4,45,0.0,988.1,7.5,27.7,972,683.6,92.4,4,5,7,0,2026-04-11T20:08:50.035104+05:30
Vrindavan,Uttar Pradesh,27.5823,77.7027,26.4,46,0.0,988.6,7.45,32.0,972,683.6,92.4,4,5,7,0,2026-04-11T20:08:50.035110+05:30
Ayodhya,Uttar Pradesh,26.7922,82.1998,29.0,31,0.0,995.9,7.85,43.6,150,144.4,37.1,4,5,7,0,2026-04-11T20:08:50.035117+05:30
Ratlam,Madhya Pradesh,23.3315,75.0367,29.2,44,0.0,956.2,8.35,19.8,130,24.4,16.4,4,5,7,0,2026-04-11T20:08:50.035123+05:30
Sagar,Madhya Pradesh,23.8388,78.7378,29.9,35,0.0,951.8,8.5,27.4,113,46.3,15.3,4,5,7,0,2026-04-11T20:08:50.035130+05:30
Satna,Madhya Pradesh,24.6005,80.8322,30.4,29,0.0,973.2,8.5,28.1,124,61.9,21.2,0,5,7,0,2026-04-11T20:08:50.035137+05:30
Akola,Maharashtra,20.7002,77.0082,32.2,28,0.0,975.8,8.75,29.5,168,30.5,22.2,0,5,7,0,2026-04-11T20:08:50.035144+05:30
Amravati,Maharashtra,20.9374,77.7796,32.1,39,0.0,967.9,8.75,23.4,171,32.7,23.9,0,5,7,1,2026-04-11T20:08:50.035151+05:30
Latur,Maharashtra,18.4088,76.5604,30.4,41,0.0,940.9,9.0,20.9,163,31.0,24.6,0,5,7,0,2026-04-11T20:08:50.035157+05:30
Nanded,Maharashtra,19.1383,77.3091,32.5,41,0.0,969.3,8.9,17.3,156,41.1,28.8,0,5,7,1,2026-04-11T20:08:50.035164+05:30
Gulbarga,Karnataka,17.3297,76.8343,35.5,26,0.0,959.0,9.05,19.8,162,42.1,31.1,0,5,10,0,2026-04-11T20:08:50.035170+05:30
Bidar,Karnataka,17.9104,77.5199,32.4,34,0.0,936.7,9.05,25.2,160,29.6,23.2,0,5,7,0,2026-04-11T20:08:50.035176+05:30
Hospet,Karnataka,15.2689,76.3909,34.9,38,0.0,956.0,9.25,27.7,183,44.7,37.6,0,5,7,1,2026-04-11T20:08:50.035182+05:30
Tirupur,Tamil Nadu,11.1085,77.3411,33.6,41,0.0,975.4,8.95,32.4,133,37.8,29.9,0,5,7,1,2026-04-11T20:08:50.035188+05:30
Alappuzha,Kerala,9.4981,76.3388,29.8,80,0.0,1009.3,8.9,30.6,85,42.5,23.0,7,0,4,1,2026-04-11T20:08:50.035195+05:30
Munnar,Kerala,10.0889,77.0595,23.2,91,0.0,858.6,9.65,38.5,77,32.4,26.9,3,5,7,1,2026-04-11T20:08:50.035202+05:30
Silchar,Assam,24.8333,92.7789,25.1,72,0.0,1006.2,8.6,24.5,142,70.5,54.6,7,5,4,1,2026-04-11T20:08:50.035209+05:30
Dibrugarh,Assam,27.4728,94.912,22.3,84,0.0,998.0,8.4,25.2,94,54.1,46.4,3,5,7,1,2026-04-11T20:08:50.035215+05:30
