city,state,latitude,longitude,temp,humidity,rain,pressure,uv_index,wind_gusts,aqi,pm10,pm2_5,no2,co,o3,so2,mosquito_risk,arthritis_risk,migraine_risk,frizz_risk,updated_at
Delhi,Delhi,28.6139,77.209,42.2,13,0.0,978.3,7.75,43.9,642,719.0,101.7,3.1,213.0,159.0,8.3,0,5,10,0,2026-05-24T15:27:33.396292+05:30
Mumbai,Maharashtra,19.076,72.8777,32.5,67,0.0,1008.8,7.15,46.8,38,13.2,9.9,3.4,162.0,89.0,5.1,3,0,4,1,2026-05-24T15:27:33.396341+05:30
Bangalore,Karnataka,12.9716,77.5946,27.9,64,0.1,911.9,4.45,33.8,53,19.8,14.8,2.4,233.0,106.0,2.6,10,5,3,1,2026-05-24T15:27:33.396357+05:30
Hyderabad,Telangana,17.385,78.4867,38.2,24,0.0,951.8,9.25,47.5,77,19.6,13.9,1.5,194.0,123.0,4.5,0,5,10,0,2026-05-24T15:27:33.396367+05:30
Chennai,Tamil Nadu,13.0827,80.2707,36.2,52,0.0,1003.6,8.6,40.0,79,32.0,25.3,3.1,271.0,172.0,7.3,0,5,7,1,2026-05-24T15:27:33.396375+05:30
Kolkata,West Bengal,22.5726,88.3639,35.0,61,0.0,1000.0,8.95,40.3,94,48.3,35.0,2.0,253.0,126.0,6.7,3,5,4,1,2026-05-24T15:27:33.396383+05:30
Pune,Maharashtra,18.5204,73.8567,29.6,64,0.0,949.0,8.2,44.3,37,15.0,9.9,1.3,149.0,93.0,3.6,7,5,7,1,2026-05-24T15:27:33.396390+05:30
Ahmedabad,Gujarat,23.0225,72.5714,41.2,28,0.0,999.9,8.15,39.2,60,18.1,11.3,1.0,131.0,83.0,2.5,0,5,10,1,2026-05-24T15:27:33.396396+05:30
Jaipur,Rajasthan,26.9124,75.7873,42.0,13,0.0,957.2,8.25,47.9,197,426.5,75.2,0.7,139.0,109.0,2.6,0,5,10,0,2026-05-24T15:27:33.396406+05:30
Lucknow,Uttar Pradesh,26.8467,80.9462,42.2,15,0.0,987.5,8.2,48.6,190,166.7,43.2,1.1,208.0,155.0,5.8,0,5,10,0,2026-05-24T15:27:33.396413+05:30
Kanpur,Uttar Pradesh,26.4499,80.3319,42.8,13,0.0,986.3,8.2,44.3,510,570.0,82.7,1.1,194.0,156.0,6.5,0,5,10,0,2026-05-24T15:27:33.396419+05:30
Chandigarh,Chandigarh,30.7333,76.7794,39.7,15,0.0,964.1,7.75,47.9,89,45.3,18.9,1.4,194.0,149.0,6.6,0,5,10,0,2026-05-24T15:27:33.396426+05:30
Srinagar,Jammu and Kashmir,34.0837,74.7973,23.0,45,0.0,842.9,8.7,29.9,79,24.6,10.8,1.4,214.0,133.0,2.1,0,5,7,0,2026-05-24T15:27:33.396432+05:30
Jammu,Jammu and Kashmir,32.7266,74.857,37.2,20,0.0,968.4,8.55,36.4,68,61.2,21.1,1.1,154.0,139.0,3.4,0,5,10,0,2026-05-24T15:27:33.396439+05:30
Amritsar,Punjab,31.634,74.8723,39.3,18,0.0,975.7,8.4,42.5,90,52.4,19.9,1.1,183.0,147.0,3.6,0,5,10,0,2026-05-24T15:27:33.396444+05:30
Ludhiana,Punjab,30.901,75.8573,40.2,14,0.0,973.7,8.0,30.6,78,63.3,21.0,1.0,190.0,142.0,3.0,0,5,10,0,2026-05-24T15:27:33.396450+05:30
Jalandhar,Punjab,31.326,75.5762,40.2,18,0.0,974.6,8.2,30.6,85,68.5,21.9,0.9,193.0,145.0,3.0,0,5,10,0,2026-05-24T15:27:33.396456+05:30
Dehradun,Uttarakhand,30.6284,78.0322,28.4,23,0.0,831.5,8.2,47.2,58,44.6,15.1,0.5,194.0,123.0,1.3,4,5,7,0,2026-05-24T15:27:33.396462+05:30
Shimla,Himachal Pradesh,31.1048,77.1734,24.2,24,0.0,787.8,8.25,65.5,65,51.8,18.5,0.6,151.0,128.0,3.1,0,5,7,0,2026-05-24T15:27:33.396470+05:30
Manali,Himachal Pradesh,32.2396,77.1887,22.7,39,0.0,820.9,9.45,49.7,83,25.1,8.7,1.0,129.0,149.0,0.3,0,5,7,0,2026-05-24T15:27:33.396476+05:30
Gurgaon,Haryana,28.4595,77.0266,42.1,13,0.0,976.8,7.8,38.9,1151,1628.0,196.0,2.8,202.0,159.0,7.9,0,5,10,0,2026-05-24T15:27:33.396482+05:30
Noida,Uttar Pradesh,28.5355,77.391,42.4,13,0.0,979.5,7.75,40.0,1151,1628.0,196.0,2.8,213.0,159.0,7.9,0,5,10,0,2026-05-24T15:27:33.396489+05:30
Ghaziabad,Uttar Pradesh,28.6692,77.4538,42.3,12,0.0,977.6,7.75,42.8,450,659.4,98.0,2.6,207.0,169.0,10.5,0,5,10,0,2026-05-24T15:27:33.396497+05:30
Faridabad,Haryana,28.4089,77.3178,42.0,13,0.0,979.0,7.8,46.1,1151,1628.0,196.0,2.8,200.0,159.0,7.9,0,5,10,0,2026-05-24T15:27:33.396503+05:30
Meerut,Uttar Pradesh,28.9845,77.7064,41.2,15,0.0,976.4,7.65,45.4,450,659.4,98.0,2.6,185.0,169.0,10.5,0,5,10,0,2026-05-24T15:27:33.396510+05:30
Agra,Uttar Pradesh,27.1767,78.0081,43.2,11,0.0,983.1,8.1,41.8,822,964.9,112.5,1.1,181.0,149.0,5.1,0,5,10,0,2026-05-24T15:27:33.396515+05:30
Varanasi,Uttar Pradesh,25.3176,82.9739,42.8,14,0.0,991.2,8.75,46.4,152,214.2,51.8,1.3,193.0,145.0,5.0,0,5,10,0,2026-05-24T15:27:33.396521+05:30
Prayagraj,Uttar Pradesh,25.4358,81.8463,42.8,15,0.0,989.9,8.6,46.4,153,144.8,41.2,1.2,170.0,141.0,5.0,0,5,10,0,2026-05-24T15:27:33.396527+05:30
Gorakhpur,Uttar Pradesh,26.7606,83.3732,39.4,23,0.0,990.9,8.6,34.9,151,188.6,59.8,1.7,222.0,200.0,11.0,0,5,10,0,2026-05-24T15:27:33.396535+05:30
Bareilly,Uttar Pradesh,28.367,79.4304,39.0,26,0.0,981.2,8.05,43.6,122,65.9,32.5,1.5,210.0,182.0,7.6,0,5,10,1,2026-05-24T15:27:33.396540+05:30
Aligarh,Uttar Pradesh,27.8974,78.088,41.5,15,0.0,980.9,7.9,42.8,750,1352.3,174.2,1.9,220.0,178.0,10.3,0,5,10,0,2026-05-24T15:27:33.396546+05:30
Moradabad,Uttar Pradesh,28.8386,78.7733,40.5,18,0.0,978.3,7.85,48.2,132,92.4,34.5,1.8,193.0,170.0,7.5,0,5,10,0,2026-05-24T15:27:33.396551+05:30
Saharanpur,Uttar Pradesh,29.9637,77.546,39.7,16,0.0,970.8,7.4,54.0,89,186.7,39.2,2.0,186.0,151.0,8.4,0,5,10,0,2026-05-24T15:27:33.396557+05:30
Jhansi,Uttar Pradesh,25.4484,78.5685,42.8,12,0.0,974.2,8.45,45.7,91,82.9,30.2,0.8,150.0,128.0,4.4,0,5,10,0,2026-05-24T15:27:36.758101+05:30
Surat,Gujarat,21.1702,72.8311,36.0,52,0.0,1005.9,7.7,43.9,55,22.6,17.3,9.4,225.0,65.0,33.5,0,5,7,1,2026-05-24T15:27:36.758132+05:30
Vadodara,Gujarat,22.3072,73.1812,40.8,28,0.0,1002.3,8.1,42.8,54,20.0,12.5,1.1,132.0,100.0,3.3,0,5,7,1,2026-05-24T15:27:36.758141+05:30
Rajkot,Gujarat,22.3039,70.8022,38.9,35,0.0,993.2,7.7,47.2,58,18.9,12.3,0.9,115.0,86.0,4.2,0,5,10,1,2026-05-24T15:27:36.758150+05:30
Thane,Maharashtra,19.2183,72.9781,33.0,60,0.1,1008.0,7.3,40.0,38,13.2,9.9,3.4,154.0,89.0,5.1,3,0,4,1,2026-05-24T15:27:36.758158+05:30
Nagpur,Maharashtra,21.1458,79.0882,43.4,12,0.0,969.6,8.9,46.8,69,58.8,26.3,3.5,152.0,147.0,12.8,0,5,10,0,2026-05-24T15:27:36.758166+05:30
Nashik,Maharashtra,19.9975,73.7898,30.1,63,0.1,946.7,8.15,46.8,31,9.1,6.0,0.7,126.0,69.0,0.7,6,5,7,1,2026-05-24T15:27:36.758174+05:30
Aurangabad,Maharashtra,19.8762,75.3433,38.3,21,0.0,944.1,8.95,49.0,51,27.6,12.7,0.8,134.0,108.0,2.1,0,5,10,0,2026-05-24T15:27:36.758182+05:30
Solapur,Maharashtra,17.6599,75.9064,37.2,32,0.0,956.6,9.05,46.8,67,23.8,16.4,1.0,143.0,111.0,2.5,0,5,10,1,2026-05-24T15:27:36.758190+05:30
Kolhapur,Maharashtra,16.705,74.2433,32.2,53,0.0,948.5,8.7,42.8,39,16.1,11.5,1.3,143.0,90.0,1.6,0,5,7,1,2026-05-24T15:27:36.758198+05:30
Goa,Goa,15.2993,74.124,34.4,53,0.0,997.4,5.75,28.8,40,12.1,8.2,0.6,145.0,63.0,0.8,0,5,3,1,2026-05-24T15:27:36.758205+05:30
Jodhpur,Rajasthan,26.2389,73.0243,41.5,16,0.0,980.1,8.45,54.7,187,455.4,78.5,0.5,121.0,98.0,2.3,0,5,10,0,2026-05-24T15:27:36.758212+05:30
Udaipur,Rajasthan,24.5854,73.7125,38.1,22,0.0,946.4,8.8,54.0,76,66.8,22.1,0.5,128.0,100.0,2.4,0,5,10,0,2026-05-24T15:27:36.758219+05:30
Kota,Rajasthan,25.2138,75.8648,43.3,12,0.0,975.8,8.4,44.3,90,163.4,42.5,0.7,133.0,108.0,3.4,0,5,10,0,2026-05-24T15:27:36.758226+05:30
Bikaner,Rajasthan,28.0229,73.3119,44.7,9,0.0,976.4,8.45,57.2,153,133.6,60.8,0.3,121.0,109.0,2.0,0,5,10,0,2026-05-24T15:27:36.758234+05:30
Ajmer,Rajasthan,26.4499,74.6399,39.2,16,0.0,952.7,8.4,63.0,110,141.1,40.9,0.5,127.0,105.0,2.5,0,5,10,0,2026-05-24T15:27:36.758241+05:30
Gwalior,Madhya Pradesh,26.2183,78.1828,43.2,11,0.0,979.1,8.25,46.1,106,75.0,27.1,0.5,160.0,134.0,3.4,0,5,10,0,2026-05-24T15:27:36.758249+05:30
Indore,Madhya Pradesh,22.7196,75.8577,39.0,25,0.0,948.0,8.7,45.4,63,53.8,20.9,0.8,153.0,119.0,3.5,0,5,10,0,2026-05-24T15:27:36.758256+05:30
Bhopal,Madhya Pradesh,23.2599,77.4126,41.6,14,0.0,951.9,8.7,45.7,77,99.2,29.6,0.5,144.0,116.0,2.8,0,5,10,0,2026-05-24T15:27:36.758263+05:30
Jabalpur,Madhya Pradesh,23.1815,79.9864,42.3,13,0.0,958.5,8.85,38.5,78,98.0,31.3,0.8,145.0,130.0,4.1,0,5,10,0,2026-05-24T15:27:36.758270+05:30
Ujjain,Madhya Pradesh,23.1765,75.7885,39.6,23,0.0,953.2,8.6,45.4,64,51.3,20.7,0.6,140.0,112.0,3.5,0,5,10,0,2026-05-24T15:27:36.758278+05:30
Visakhapatnam,Andhra Pradesh,17.6868,83.2185,39.2,46,0.0,997.5,9.1,32.8,160,70.5,64.5,12.1,663.0,264.0,47.2,0,5,10,1,2026-05-24T15:27:36.758285+05:30
Vijayawada,Andhra Pradesh,16.5062,80.648,42.2,28,0.0,997.2,9.1,49.3,104,34.7,25.7,1.9,215.0,152.0,6.3,0,5,10,1,2026-05-24T15:27:36.758292+05:30
Guntur,Andhra Pradesh,16.3067,80.4365,41.8,28,0.0,998.6,9.15,48.2,96,32.4,22.6,1.4,205.0,143.0,5.1,0,5,10,1,2026-05-24T15:27:36.758299+05:30
Nellore,Andhra Pradesh,14.4426,79.9865,39.6,34,0.1,1001.5,8.9,45.0,66,26.5,21.7,2.2,174.0,151.0,6.0,3,5,7,1,2026-05-24T15:27:36.758307+05:30
Kurnool,Andhra Pradesh,15.8281,78.0373,38.3,34,0.0,974.7,9.05,47.2,61,19.7,16.2,1.2,165.0,135.0,7.3,0,5,10,1,2026-05-24T15:27:36.758314+05:30
Kakinada,Andhra Pradesh,16.9891,82.2475,42.8,26,0.0,1000.9,8.65,36.4,127,42.7,34.7,3.3,179.0,203.0,6.4,0,5,7,1,2026-05-24T15:27:36.758321+05:30
Tirupati,Andhra Pradesh,13.6288,79.4192,35.0,50,0.1,988.2,9.1,42.5,71,38.9,32.8,2.4,169.0,158.0,4.7,3,5,7,1,2026-05-24T15:27:36.758328+05:30
Warangal,Telangana,17.9689,79.5941,41.3,18,0.0,975.1,9.0,49.3,103,48.7,28.0,2.0,209.0,153.0,6.7,0,5,10,0,2026-05-24T15:27:36.758335+05:30
Nizamabad,Telangana,18.6725,78.0941,40.2,19,0.0,963.0,9.1,45.4,79,43.0,19.4,0.8,150.0,119.0,2.9,0,5,10,0,2026-05-24T15:27:36.758342+05:30
Mysore,Karnataka,12.2958,76.6396,27.2,69,0.0,928.5,7.55,42.5,43,15.4,11.0,2.1,145.0,90.0,1.5,7,5,7,1,2026-05-24T15:27:36.758349+05:30
Mangalore,Karnataka,12.9141,74.856,29.9,73,0.0,1007.2,8.3,35.3,55,10.6,7.0,1.3,108.0,67.0,1.4,7,5,4,1,2026-05-24T15:27:36.758356+05:30
Hubli-Dharwad,Karnataka,15.3647,75.124,32.8,47,0.0,941.0,9.1,35.6,29,10.7,7.9,1.0,145.0,84.0,1.1,0,5,7,1,2026-05-24T15:27:36.758362+05:30
Belgaum,Karnataka,15.8497,74.4977,31.6,49,0.0,926.7,9.05,38.2,27,8.0,5.8,0.9,139.0,71.0,1.0,0,5,7,1,2026-05-24T15:27:40.118242+05:30
Coimbatore,Tamil Nadu,11.0168,76.9558,31.5,58,0.1,961.2,8.6,48.2,36,10.8,8.1,1.6,152.0,85.0,1.9,3,5,7,1,2026-05-24T15:27:40.118268+05:30
Madurai,Tamil Nadu,9.9252,78.1198,31.0,60,0.2,992.9,8.9,44.3,60,20.4,10.9,1.4,145.0,111.0,1.9,3,5,7,1,2026-05-24T15:27:40.118277+05:30
Trichy,Tamil Nadu,10.7905,78.7047,36.7,42,0.0,997.0,8.4,52.6,54,19.1,11.7,1.3,148.0,105.0,2.1,0,5,10,1,2026-05-24T15:27:40.118286+05:30
Salem,Tamil Nadu,11.6643,78.146,32.1,56,0.0,975.8,8.9,49.0,67,16.4,10.5,2.4,157.0,108.0,5.9,0,5,7,1,2026-05-24T15:27:40.118293+05:30
Tirunelveli,Tamil Nadu,8.7139,77.7567,34.7,48,0.0,1001.8,8.85,44.3,30,5.7,4.3,1.1,120.0,79.0,1.0,0,5,4,1,2026-05-24T15:27:40.118299+05:30
Vellore,Tamil Nadu,12.9165,79.1325,31.8,64,0.0,982.2,9.05,47.2,66,25.9,19.6,1.0,169.0,125.0,2.4,3,5,7,1,2026-05-24T15:27:40.118305+05:30
Erode,Tamil Nadu,11.341,77.7172,30.0,65,0.1,987.6,8.95,62.6,52,18.2,11.5,1.6,159.0,106.0,2.0,10,5,7,1,2026-05-24T15:27:40.118311+05:30
Kochi,Kerala,9.9312,76.2673,28.8,78,0.0,1009.3,8.6,36.4,54,12.1,8.6,2.7,110.0,73.0,2.4,7,0,4,1,2026-05-24T15:27:40.118317+05:30
Thiruvananthapuram,Kerala,8.5241,76.9366,28.7,77,0.2,1008.7,8.3,46.4,35,11.7,6.8,0.8,100.0,69.0,0.6,10,0,4,1,2026-05-24T15:27:40.118323+05:30
Kozhikode,Kerala,11.2588,75.7804,26.9,89,0.0,1008.7,8.35,37.4,34,10.4,6.4,0.8,111.0,73.0,0.9,7,0,4,1,2026-05-24T15:27:40.118329+05:30
Thrissur,Kerala,10.5276,76.2144,27.5,84,0.0,1007.9,8.2,37.4,57,10.6,8.0,1.9,111.0,69.0,1.5,7,5,4,1,2026-05-24T15:27:40.118336+05:30
Kannur,Kerala,11.8745,75.3704,30.4,71,0.0,1007.7,7.2,41.4,50,10.3,7.2,1.7,110.0,66.0,1.3,3,5,4,1,2026-05-24T15:27:40.118342+05:30
Patna,Bihar,25.5941,85.1376,40.0,25,0.0,994.0,8.8,31.7,164,222.6,69.4,2.3,249.0,218.0,12.4,0,5,10,0,2026-05-24T15:27:40.118348+05:30
Gaya,Bihar,24.7914,85.0002,41.5,19,0.0,987.6,8.65,30.6,156,293.4,59.8,1.2,202.0,159.0,6.1,0,5,10,0,2026-05-24T15:27:40.118354+05:30
Muzaffarpur,Bihar,26.1209,85.3647,36.5,48,0.0,994.3,8.8,29.9,159,147.1,60.3,2.7,351.0,218.0,15.0,0,5,10,1,2026-05-24T15:27:40.118360+05:30
Bhagalpur,Bihar,25.2425,87.0117,38.2,40,0.0,994.3,8.75,25.6,153,141.1,53.2,3.1,287.0,200.0,17.0,0,5,10,1,2026-05-24T15:27:40.118377+05:30
Ranchi,Jharkhand,23.3441,85.3096,36.7,25,0.0,934.8,9.3,34.6,116,219.3,48.4,1.0,161.0,145.0,5.7,0,5,10,0,2026-05-24T15:27:40.118387+05:30
Jamshedpur,Jharkhand,22.8046,86.2029,33.6,58,0.2,986.4,9.1,49.7,146,140.6,53.3,2.5,198.0,192.0,17.4,3,5,7,1,2026-05-24T15:27:40.118396+05:30
Dhanbad,Jharkhand,23.7957,86.4304,40.7,19,0.0,974.2,9.05,36.0,157,261.7,64.3,5.8,176.0,183.0,29.8,0,5,10,0,2026-05-24T15:27:40.118405+05:30
Bokaro,Jharkhand,23.6693,86.1511,40.7,19,0.0,977.9,9.1,30.2,159,275.7,62.2,6.1,182.0,175.0,29.8,0,5,10,0,2026-05-24T15:27:40.118414+05:30
Bhubaneswar,Odisha,20.2961,85.8245,35.3,64,0.0,997.2,9.15,42.8,108,36.9,28.3,1.6,218.0,136.0,6.2,3,5,10,1,2026-05-24T15:27:40.118422+05:30
Cuttack,Odisha,20.4625,85.8828,35.6,64,0.0,998.8,9.2,40.0,108,36.9,28.3,1.6,237.0,136.0,6.2,3,5,10,1,2026-05-24T15:27:40.118433+05:30
Rourkela,Odisha,22.2604,84.8536,39.5,28,0.0,980.6,8.95,44.3,147,169.0,51.2,1.4,202.0,167.0,9.4,0,5,10,1,2026-05-24T15:27:40.118443+05:30
Raipur,Chhattisgarh,21.2514,81.6296,41.9,17,0.0,970.6,9.0,36.7,107,67.3,29.2,5.2,143.0,130.0,14.6,0,5,10,0,2026-05-24T15:27:40.118452+05:30
Bhilai,Chhattisgarh,21.1938,81.3509,40.5,19,0.0,971.1,9.0,30.2,95,68.5,28.8,6.0,144.0,123.0,15.7,0,5,10,0,2026-05-24T15:27:40.118462+05:30
Guwahati,Assam,26.1158,91.7086,29.9,74,0.0,996.5,8.75,24.8,70,30.0,14.9,1.3,280.0,110.0,3.0,7,5,7,1,2026-05-24T15:27:40.118474+05:30
Agartala,Tripura,23.8315,91.2868,30.5,82,0.1,1001.9,7.8,43.9,76,48.9,22.7,3.4,166.0,106.0,2.8,6,5,4,1,2026-05-24T15:27:40.118480+05:30
Shillong,Meghalaya,25.5788,91.8933,23.7,73,0.2,855.8,9.15,49.0,50,39.2,15.7,1.1,206.0,116.0,3.0,6,5,7,1,2026-05-24T15:27:40.118486+05:30
Imphal,Manipur,24.817,93.9368,29.2,60,0.0,920.8,9.05,38.9,75,54.0,20.0,0.6,196.0,88.0,1.9,4,5,7,1,2026-05-24T15:27:40.118492+05:30
Aizawl,Mizoram,23.7271,92.7176,24.5,77,0.0,891.1,8.65,38.9,70,39.8,15.1,0.5,166.0,87.0,1.5,3,5,7,1,2026-05-24T15:27:40.118497+05:30
Kohima,Nagaland,25.6701,94.1077,26.3,59,0.0,854.5,9.3,33.1,54,51.1,18.3,0.4,197.0,98.0,1.9,4,5,7,1,2026-05-24T15:27:40.118504+05:30
Gangtok,Sikkim,27.3314,88.6138,23.0,67,0.1,836.9,8.8,34.9,114,51.9,23.7,0.8,281.0,148.0,3.6,6,5,7,1,2026-05-24T15:27:40.118509+05:30
Siliguri,West Bengal,26.7271,88.3953,31.1,62,0.0,987.6,8.7,26.6,128,63.6,38.2,2.1,409.0,155.0,8.1,3,5,7,1,2026-05-24T15:27:43.482442+05:30
Durgapur,West Bengal,23.5204,87.3119,28.5,89,0.1,989.7,8.9,48.6,152,108.7,72.9,8.6,599.0,256.0,49.6,10,5,7,1,2026-05-24T15:27:43.482469+05:30
Asansol,West Bengal,23.6739,86.9524,33.0,56,0.0,988.0,8.9,37.8,151,191.9,68.7,6.4,301.0,220.0,35.2,0,5,7,1,2026-05-24T15:27:43.482478+05:30
Pondicherry,Puducherry,11.9139,79.8145,34.1,69,0.0,1004.9,8.7,47.9,92,34.0,26.9,6.3,233.0,160.0,14.2,3,5,4,1,2026-05-24T15:27:43.482485+05:30
Port Blair,Andaman and Nicobar Islands,11.6234,92.7265,27.9,85,0.0,1006.2,8.9,34.2,29,8.5,5.0,0.3,102.0,58.0,0.5,7,5,4,1,2026-05-24T15:27:43.482493+05:30
Haridwar,Uttarakhand,29.9457,78.1642,40.3,15,0.0,968.5,7.55,57.2,103,61.2,21.8,1.3,191.0,157.0,7.9,0,5,10,0,2026-05-24T15:27:43.482500+05:30
Rishikesh,Uttarakhand,30.0869,78.2676,39.1,16,0.0,961.4,7.65,49.7,95,28.2,15.6,0.9,177.0,162.0,6.7,0,5,10,0,2026-05-24T15:27:43.482506+05:30
Nainital,Uttarakhand,29.3919,79.4542,25.3,30,0.0,807.3,8.5,53.3,109,34.2,18.7,1.4,232.0,174.0,7.3,4,5,7,0,2026-05-24T15:27:43.482512+05:30
Mussoorie,Uttarakhand,30.4599,78.0664,25.4,26,0.0,804.8,8.05,67.0,86,40.3,18.0,0.8,174.0,138.0,4.4,4,5,7,0,2026-05-24T15:27:43.482518+05:30
Dharamshala,Himachal Pradesh,32.219,76.3234,27.6,31,0.0,869.0,8.4,37.1,64,33.8,11.4,0.4,149.0,128.0,1.2,4,5,7,0,2026-05-24T15:27:43.482524+05:30
Dalhousie,Himachal Pradesh,32.5387,75.971,24.6,27,0.0,806.7,8.65,43.2,67,46.3,18.0,1.4,142.0,141.0,2.0,0,5,7,0,2026-05-24T15:27:43.482531+05:30
Patiala,Punjab,30.3398,76.3869,40.5,15,0.0,973.2,7.65,38.9,502,743.2,85.2,1.0,171.0,144.0,4.1,0,5,10,0,2026-05-24T15:27:43.482538+05:30
Bhatinda,Punjab,30.211,74.9455,43.0,13,0.0,977.5,8.3,34.9,90,83.4,28.5,2.0,192.0,179.0,13.4,0,5,10,0,2026-05-24T15:27:43.482543+05:30
Rohtak,Haryana,28.8955,76.6066,41.5,15,0.0,977.0,7.75,32.0,852,853.1,105.2,1.4,188.0,151.0,4.7,0,5,10,0,2026-05-24T15:27:43.482549+05:30
Panipat,Haryana,29.3909,76.9635,42.1,12,0.0,975.2,7.6,44.6,1751,2078.7,222.1,2.1,167.0,148.0,7.2,0,5,10,0,2026-05-24T15:27:43.482555+05:30
Mathura,Uttar Pradesh,27.4924,77.6737,43.2,12,0.0,982.1,8.0,40.0,689,987.2,115.3,1.0,180.0,145.0,4.5,0,5,10,0,2026-05-24T15:27:43.482560+05:30
Vrindavan,Uttar Pradesh,27.5823,77.7027,42.8,12,0.0,982.5,8.0,38.2,689,987.2,115.3,1.0,184.0,145.0,4.5,0,5,10,0,2026-05-24T15:27:43.482566+05:30
Ayodhya,Uttar Pradesh,26.7922,82.1998,40.5,20,0.0,988.9,8.35,37.1,155,354.8,78.0,1.2,204.0,174.0,9.1,0,5,10,0,2026-05-24T15:27:43.482571+05:30
Ratlam,Madhya Pradesh,23.3315,75.0367,38.8,25,0.0,954.5,8.55,49.7,63,39.9,18.5,0.5,130.0,108.0,3.8,0,5,10,0,2026-05-24T15:27:43.482578+05:30
Sagar,Madhya Pradesh,23.8388,78.7378,41.2,13,0.0,948.3,8.75,46.4,80,122.5,35.0,0.5,134.0,119.0,3.5,0,5,10,0,2026-05-24T15:27:43.482583+05:30
Satna,Madhya Pradesh,24.6005,80.8322,41.6,14,0.0,967.6,8.8,47.2,139,92.9,29.8,0.7,165.0,132.0,3.4,0,5,10,0,2026-05-24T15:27:43.482588+05:30
Akola,Maharashtra,20.7002,77.0082,41.3,22,0.0,973.1,8.85,51.5,57,49.7,20.1,1.1,134.0,115.0,4.7,0,5,10,0,2026-05-24T15:27:43.482595+05:30
Amravati,Maharashtra,20.9374,77.7796,41.3,18,0.0,965.2,8.85,47.5,59,50.5,20.4,1.3,140.0,120.0,5.4,0,5,10,0,2026-05-24T15:27:43.482601+05:30
Latur,Maharashtra,18.4088,76.5604,37.5,24,0.0,939.4,9.05,38.9,68,20.0,11.1,0.8,148.0,118.0,3.6,0,5,10,0,2026-05-24T15:27:43.482607+05:30
Nanded,Maharashtra,19.1383,77.3091,40.4,20,0.0,966.8,9.0,38.9,61,41.3,18.3,0.8,143.0,114.0,2.7,0,5,10,0,2026-05-24T15:27:43.482613+05:30
Gulbarga,Karnataka,17.3297,76.8343,38.3,29,0.0,957.6,6.65,45.4,69,21.0,15.0,1.2,154.0,115.0,2.7,0,5,10,1,2026-05-24T15:27:43.482618+05:30
Bidar,Karnataka,17.9104,77.5199,37.1,27,0.0,935.1,9.1,46.4,79,25.0,14.4,1.0,152.0,125.0,4.6,0,5,10,0,2026-05-24T15:27:43.482624+05:30
Hospet,Karnataka,15.2689,76.3909,34.0,41,0.0,955.3,8.9,40.7,38,18.8,14.0,1.3,178.0,105.0,2.6,0,5,7,1,2026-05-24T15:27:43.482630+05:30
Tirupur,Tamil Nadu,11.1085,77.3411,32.4,55,0.1,974.1,8.9,49.7,53,15.4,10.2,1.9,149.0,98.0,2.3,3,5,7,1,2026-05-24T15:27:43.482635+05:30
Alappuzha,Kerala,9.4981,76.3388,28.0,85,0.2,1009.7,8.5,37.4,46,13.1,8.7,2.2,96.0,74.0,2.0,10,0,4,1,2026-05-24T15:27:43.482641+05:30
Munnar,Kerala,10.0889,77.0595,20.0,95,0.2,857.8,8.95,31.3,27,5.4,4.1,1.3,127.0,72.0,1.0,6,5,7,1,2026-05-24T15:27:43.482647+05:30
Silchar,Assam,24.8333,92.7789,31.8,69,0.0,1000.7,8.95,43.2,66,23.9,12.8,1.2,232.0,95.0,2.6,3,5,4,1,2026-05-24T15:27:43.482652+05:30
Dibrugarh,Assam,27.4728,94.912,27.6,83,0.1,991.6,8.45,37.1,60,17.4,11.3,1.9,221.0,103.0,1.6,10,5,7,1,2026-05-24T15:27:43.482658+05:30
