city,state,latitude,longitude,temp,humidity,rain,pressure,uv_index,wind_gusts,aqi,pm10,pm2_5,mosquito_risk,arthritis_risk,migraine_risk,frizz_risk,updated_at
Delhi,Delhi,28.6139,77.209,22.9,44,0.0,983.4,6.15,33.8,168,379.0,90.3,0,5,7,0,2026-03-15T02:02:37.753360+05:30
Mumbai,Maharashtra,19.076,72.8777,27.8,74,0.0,1009.7,7.7,21.2,114,85.9,39.6,7,0,4,1,2026-03-15T02:02:37.753401+05:30
Bangalore,Karnataka,12.9716,77.5946,21.2,65,0.0,912.6,9.3,20.9,94,29.2,27.5,3,5,7,0,2026-03-15T02:02:37.753417+05:30
Hyderabad,Telangana,17.385,78.4867,23.3,78,0.0,954.1,8.75,25.6,97,25.6,21.5,3,5,7,1,2026-03-15T02:02:37.753427+05:30
Chennai,Tamil Nadu,13.0827,80.2707,25.3,88,0.0,1009.7,9.05,30.6,51,15.4,12.1,7,0,4,1,2026-03-15T02:02:37.753437+05:30
Kolkata,West Bengal,22.5726,88.3639,25.2,88,0.0,1008.0,7.9,38.2,74,15.5,11.6,7,0,4,1,2026-03-15T02:02:37.753446+05:30
Pune,Maharashtra,18.5204,73.8567,23.2,32,0.0,949.2,8.3,41.8,106,39.8,35.6,0,5,7,0,2026-03-15T02:02:37.753460+05:30
Ahmedabad,Gujarat,23.0225,72.5714,23.2,48,0.0,1003.4,7.5,23.4,81,52.0,19.1,0,5,4,0,2026-03-15T02:02:37.753468+05:30
Jaipur,Rajasthan,26.9124,75.7873,23.5,48,0.0,960.3,7.0,42.8,134,166.2,43.1,0,5,7,0,2026-03-15T02:02:37.753476+05:30
Lucknow,Uttar Pradesh,26.8467,80.9462,22.1,63,0.0,995.1,6.4,34.9,159,170.0,59.8,3,5,7,0,2026-03-15T02:02:37.753484+05:30
Kanpur,Uttar Pradesh,26.4499,80.3319,21.3,70,0.0,992.5,6.75,52.9,271,299.0,68.2,3,5,7,0,2026-03-15T02:02:37.753491+05:30
Chandigarh,Chandigarh,30.7333,76.7794,18.8,64,0.0,968.9,5.85,36.0,80,41.6,39.8,3,5,3,0,2026-03-15T02:02:37.753499+05:30
Srinagar,Jammu and Kashmir,34.0837,74.7973,8.3,84,0.0,838.1,4.5,27.7,102,74.7,56.0,3,10,3,0,2026-03-15T02:02:37.753507+05:30
Jammu,Jammu and Kashmir,32.7266,74.857,18.0,65,0.0,972.4,4.25,42.1,83,34.0,30.9,3,5,3,0,2026-03-15T02:02:37.753514+05:30
Amritsar,Punjab,31.634,74.8723,19.1,60,0.0,980.4,3.75,36.4,83,41.0,39.2,0,5,3,0,2026-03-15T02:02:37.753521+05:30
Ludhiana,Punjab,30.901,75.8573,18.8,52,0.0,978.8,5.3,37.8,107,99.4,69.8,0,5,3,0,2026-03-15T02:02:37.753528+05:30
Jalandhar,Punjab,31.326,75.5762,17.2,61,0.0,979.9,6.1,35.6,96,83.4,53.0,3,5,7,0,2026-03-15T02:02:37.753537+05:30
Dehradun,Uttarakhand,30.6284,78.0322,11.8,40,0.0,828.4,6.15,31.3,51,33.4,17.9,0,5,7,1,2026-03-15T02:02:37.753543+05:30
Shimla,Himachal Pradesh,31.1048,77.1734,10.9,40,0.0,782.3,5.7,50.0,58,39.0,25.8,0,5,3,1,2026-03-15T02:02:37.753550+05:30
Manali,Himachal Pradesh,32.2396,77.1887,12.1,50,0.0,819.8,6.35,35.6,48,24.6,9.9,0,5,7,0,2026-03-15T02:02:37.753557+05:30
Gurgaon,Haryana,28.4595,77.0266,19.4,57,0.0,981.5,6.25,34.9,484,388.4,114.3,0,5,7,0,2026-03-15T02:02:37.753564+05:30
Noida,Uttar Pradesh,28.5355,77.391,20.8,55,0.0,984.8,6.15,32.4,484,388.4,114.3,0,5,7,0,2026-03-15T02:02:37.753571+05:30
Ghaziabad,Uttar Pradesh,28.6692,77.4538,19.7,60,0.0,983.0,6.15,31.0,157,379.0,94.5,0,5,7,0,2026-03-15T02:02:37.753578+05:30
Faridabad,Haryana,28.4089,77.3178,20.0,51,0.0,984.0,6.2,34.2,484,388.4,114.3,0,5,7,0,2026-03-15T02:02:37.753585+05:30
Meerut,Uttar Pradesh,28.9845,77.7064,17.8,69,0.0,981.7,6.05,28.1,157,379.0,94.5,3,5,7,0,2026-03-15T02:02:37.753591+05:30
Agra,Uttar Pradesh,27.1767,78.0081,18.7,62,0.0,988.6,6.6,36.0,424,1117.6,132.2,3,5,7,0,2026-03-15T02:02:37.753614+05:30
Varanasi,Uttar Pradesh,25.3176,82.9739,22.2,73,0.0,997.5,7.25,35.6,147,136.4,82.0,3,5,7,1,2026-03-15T02:02:37.753625+05:30
Prayagraj,Uttar Pradesh,25.4358,81.8463,24.0,65,0.0,996.1,7.25,34.2,151,117.8,62.4,3,5,7,1,2026-03-15T02:02:37.753632+05:30
Gorakhpur,Uttar Pradesh,26.7606,83.3732,21.0,63,0.0,997.8,7.05,37.8,152,129.0,94.3,3,5,7,0,2026-03-15T02:02:37.753641+05:30
Bareilly,Uttar Pradesh,28.367,79.4304,18.2,76,0.0,987.3,5.55,32.0,130,153.2,65.9,3,5,3,0,2026-03-15T02:02:37.753651+05:30
Aligarh,Uttar Pradesh,27.8974,78.088,18.2,64,0.0,986.0,6.3,38.2,286,227.2,81.5,3,5,7,0,2026-03-15T02:02:37.753658+05:30
Moradabad,Uttar Pradesh,28.8386,78.7733,18.8,63,0.0,984.0,6.2,25.9,145,172.8,85.9,3,5,7,0,2026-03-15T02:02:37.753665+05:30
Saharanpur,Uttar Pradesh,29.9637,77.546,16.8,68,0.0,976.0,5.8,27.0,142,119.7,79.2,3,5,3,0,2026-03-15T02:02:37.753672+05:30
Jhansi,Uttar Pradesh,25.4484,78.5685,20.8,70,0.0,978.3,7.15,29.5,153,108.0,40.0,3,5,7,0,2026-03-15T02:02:41.100780+05:30
Surat,Gujarat,21.1702,72.8311,25.4,85,0.0,1007.7,7.4,26.3,138,70.5,43.1,7,5,4,1,2026-03-15T02:02:41.100810+05:30
Vadodara,Gujarat,22.3072,73.1812,23.8,71,0.0,1005.3,7.5,23.8,94,55.4,38.0,3,5,4,1,2026-03-15T02:02:41.100820+05:30
Rajkot,Gujarat,22.3039,70.8022,23.8,74,0.0,995.9,7.35,29.2,94,50.9,21.7,3,5,7,1,2026-03-15T02:02:41.100828+05:30
Thane,Maharashtra,19.2183,72.9781,25.3,86,0.0,1009.2,7.7,33.1,114,85.9,39.6,7,0,4,1,2026-03-15T02:02:41.100836+05:30
Nagpur,Maharashtra,21.1458,79.0882,25.1,57,0.0,973.3,8.15,27.7,129,47.0,42.1,4,5,7,0,2026-03-15T02:02:41.100843+05:30
Nashik,Maharashtra,19.9975,73.7898,21.9,31,0.0,946.5,7.9,40.0,87,43.0,26.8,0,5,7,0,2026-03-15T02:02:41.100851+05:30
Aurangabad,Maharashtra,19.8762,75.3433,24.0,37,0.0,944.7,8.4,26.3,87,37.1,30.2,0,5,7,0,2026-03-15T02:02:41.100858+05:30
Solapur,Maharashtra,17.6599,75.9064,23.9,51,0.0,957.6,8.65,26.6,110,40.5,35.7,0,5,7,0,2026-03-15T02:02:41.100865+05:30
Kolhapur,Maharashtra,16.705,74.2433,21.8,86,0.0,948.8,8.75,46.1,153,51.0,47.3,3,5,7,1,2026-03-15T02:02:41.100872+05:30
Goa,Goa,15.2993,74.124,28.0,81,0.0,999.2,8.8,31.3,130,53.9,49.0,7,5,7,1,2026-03-15T02:02:41.100879+05:30
Jodhpur,Rajasthan,26.2389,73.0243,23.5,47,0.0,982.7,7.25,30.6,94,183.0,43.5,0,5,7,0,2026-03-15T02:02:41.100885+05:30
Udaipur,Rajasthan,24.5854,73.7125,23.9,37,0.0,947.0,7.85,32.8,67,67.5,24.2,0,5,7,0,2026-03-15T02:02:41.100892+05:30
Kota,Rajasthan,25.2138,75.8648,21.9,71,0.0,978.8,7.3,36.7,81,25.1,17.0,3,5,7,1,2026-03-15T02:02:41.100899+05:30
Bikaner,Rajasthan,28.0229,73.3119,23.5,51,0.0,982.0,6.9,45.0,76,54.2,24.0,0,5,7,0,2026-03-15T02:02:41.100906+05:30
Ajmer,Rajasthan,26.4499,74.6399,21.8,54,0.0,954.4,7.25,39.6,82,49.5,24.9,0,5,7,0,2026-03-15T02:02:41.100913+05:30
Gwalior,Madhya Pradesh,26.2183,78.1828,22.6,68,0.0,983.9,6.9,28.4,215,105.0,39.3,3,5,7,1,2026-03-15T02:02:41.100919+05:30
Indore,Madhya Pradesh,22.7196,75.8577,20.5,53,0.0,948.1,7.8,31.7,79,29.0,18.6,0,5,7,0,2026-03-15T02:02:41.100926+05:30
Bhopal,Madhya Pradesh,23.2599,77.4126,19.5,48,0.0,953.5,7.7,34.9,77,26.3,22.9,0,5,7,0,2026-03-15T02:02:41.100933+05:30
Jabalpur,Madhya Pradesh,23.1815,79.9864,23.5,49,0.0,961.2,7.85,31.0,76,25.1,23.5,0,5,7,0,2026-03-15T02:02:41.100939+05:30
Ujjain,Madhya Pradesh,23.1765,75.7885,19.8,58,0.0,953.8,7.7,28.1,80,31.9,20.3,0,5,7,0,2026-03-15T02:02:41.100946+05:30
Visakhapatnam,Andhra Pradesh,17.6868,83.2185,24.9,86,0.0,1006.3,8.7,40.7,57,17.0,14.1,3,5,4,1,2026-03-15T02:02:41.100953+05:30
Vijayawada,Andhra Pradesh,16.5062,80.648,24.1,92,0.0,1005.1,8.75,24.5,58,18.7,16.4,3,5,4,1,2026-03-15T02:02:41.100959+05:30
Guntur,Andhra Pradesh,16.3067,80.4365,24.6,90,0.0,1006.1,8.75,24.8,55,16.3,14.2,3,5,4,1,2026-03-15T02:02:41.100966+05:30
Nellore,Andhra Pradesh,14.4426,79.9865,24.1,95,0.0,1007.9,8.95,32.0,56,11.6,9.7,3,5,4,1,2026-03-15T02:02:41.100973+05:30
Kurnool,Andhra Pradesh,15.8281,78.0373,26.2,63,0.0,977.7,8.75,19.1,84,25.9,21.9,7,5,7,1,2026-03-15T02:02:41.100980+05:30
Kakinada,Andhra Pradesh,16.9891,82.2475,23.5,93,0.0,1010.3,8.7,28.1,47,14.6,11.2,3,0,4,1,2026-03-15T02:02:41.100986+05:30
Tirupati,Andhra Pradesh,13.6288,79.4192,22.9,91,0.0,994.1,9.05,25.2,70,25.8,24.2,3,5,7,1,2026-03-15T02:02:41.100992+05:30
Warangal,Telangana,17.9689,79.5941,23.7,85,0.0,980.0,8.55,32.0,79,15.5,13.6,3,5,7,1,2026-03-15T02:02:41.100999+05:30
Nizamabad,Telangana,18.6725,78.0941,27.0,55,0.0,965.3,8.45,29.5,122,35.0,31.9,4,5,7,1,2026-03-15T02:02:41.101005+05:30
Mysore,Karnataka,12.2958,76.6396,21.4,92,0.0,929.8,9.3,32.8,97,31.8,29.7,3,5,7,1,2026-03-15T02:02:41.101012+05:30
Mangalore,Karnataka,12.9141,74.856,28.2,79,0.0,1008.2,8.95,27.0,94,35.0,29.9,7,0,4,1,2026-03-15T02:02:41.101018+05:30
Hubli-Dharwad,Karnataka,15.3647,75.124,23.1,93,0.0,941.9,8.95,43.2,110,33.8,31.7,3,5,7,1,2026-03-15T02:02:41.101024+05:30
Belgaum,Karnataka,15.8497,74.4977,22.7,95,0.0,926.6,9.0,41.0,130,63.3,60.3,3,5,7,1,2026-03-15T02:02:44.448393+05:30
Coimbatore,Tamil Nadu,11.0168,76.9558,22.1,89,0.0,963.5,9.3,31.3,70,38.5,36.6,3,5,7,1,2026-03-15T02:02:44.448426+05:30
Madurai,Tamil Nadu,9.9252,78.1198,24.4,81,0.0,995.6,9.25,24.1,56,18.5,16.9,3,5,7,1,2026-03-15T02:02:44.448437+05:30
Trichy,Tamil Nadu,10.7905,78.7047,24.5,93,0.0,1002.3,9.2,19.8,63,18.3,16.2,3,5,4,1,2026-03-15T02:02:44.448446+05:30
Salem,Tamil Nadu,11.6643,78.146,23.5,91,0.0,979.4,9.2,16.6,82,30.3,28.6,3,5,7,1,2026-03-15T02:02:44.448455+05:30
Tirunelveli,Tamil Nadu,8.7139,77.7567,24.3,85,0.0,1005.3,9.25,41.0,51,17.6,16.9,3,5,4,1,2026-03-15T02:02:44.448464+05:30
Vellore,Tamil Nadu,12.9165,79.1325,22.1,88,0.0,986.9,9.1,29.5,93,45.5,44.0,3,5,7,1,2026-03-15T02:02:44.448472+05:30
Erode,Tamil Nadu,11.341,77.7172,24.9,87,0.0,991.3,9.2,21.2,55,14.4,13.3,3,5,7,1,2026-03-15T02:02:44.448480+05:30
Kochi,Kerala,9.9312,76.2673,26.7,86,0.0,1010.4,9.1,33.5,86,36.0,35.4,7,0,4,1,2026-03-15T02:02:44.448489+05:30
Thiruvananthapuram,Kerala,8.5241,76.9366,27.9,80,0.0,1009.2,9.15,29.5,50,12.0,9.1,7,0,4,1,2026-03-15T02:02:44.448497+05:30
Kozhikode,Kerala,11.2588,75.7804,26.9,84,0.0,1009.6,9.0,28.4,69,25.1,21.7,7,0,4,1,2026-03-15T02:02:44.448506+05:30
Thrissur,Kerala,10.5276,76.2144,25.9,89,0.0,1008.9,9.05,36.4,81,36.4,35.3,7,0,4,1,2026-03-15T02:02:44.448515+05:30
Kannur,Kerala,11.8745,75.3704,26.9,84,0.0,1008.8,9.0,29.2,89,35.4,33.3,7,0,4,1,2026-03-15T02:02:44.448523+05:30
Patna,Bihar,25.5941,85.1376,25.1,68,0.0,1001.2,7.4,30.2,151,156.5,95.2,7,5,4,1,2026-03-15T02:02:44.448531+05:30
Gaya,Bihar,24.7914,85.0002,23.9,61,0.0,994.3,7.65,30.2,125,113.4,65.9,3,5,7,0,2026-03-15T02:02:44.448540+05:30
Muzaffarpur,Bihar,26.1209,85.3647,20.4,74,0.0,1001.1,7.5,34.9,160,158.8,108.3,3,5,4,0,2026-03-15T02:02:44.448548+05:30
Bhagalpur,Bihar,25.2425,87.0117,21.9,91,0.0,1002.0,7.55,23.4,154,84.5,64.3,3,5,4,1,2026-03-15T02:02:44.448557+05:30
Ranchi,Jharkhand,23.3441,85.3096,22.4,39,0.0,938.6,8.3,44.6,78,49.1,22.8,0,5,7,0,2026-03-15T02:02:44.448565+05:30
Jamshedpur,Jharkhand,22.8046,86.2029,26.5,74,0.0,992.0,8.2,43.2,150,48.9,43.3,7,5,7,1,2026-03-15T02:02:44.448574+05:30
Dhanbad,Jharkhand,23.7957,86.4304,24.7,83,0.0,980.7,8.05,54.0,161,122.9,110.8,3,5,7,1,2026-03-15T02:02:44.448581+05:30
Bokaro,Jharkhand,23.6693,86.1511,22.0,71,0.0,984.8,8.05,47.2,153,116.4,89.4,3,5,7,1,2026-03-15T02:02:44.448589+05:30
Bhubaneswar,Odisha,20.2961,85.8245,25.1,86,0.0,1004.4,8.5,39.6,57,11.9,8.8,7,5,4,1,2026-03-15T02:02:44.448614+05:30
Cuttack,Odisha,20.4625,85.8828,24.9,88,0.0,1006.3,8.5,33.8,57,11.9,8.8,3,5,4,1,2026-03-15T02:02:44.448622+05:30
Rourkela,Odisha,22.2604,84.8536,25.7,81,0.0,986.4,8.1,43.9,117,51.2,45.9,7,5,7,1,2026-03-15T02:02:44.448630+05:30
Raipur,Chhattisgarh,21.2514,81.6296,25.4,55,0.0,975.1,8.2,40.7,146,67.5,64.5,4,5,7,0,2026-03-15T02:02:44.448638+05:30
Bhilai,Chhattisgarh,21.1938,81.3509,24.5,58,0.0,975.4,8.25,38.2,138,58.1,54.1,0,5,7,0,2026-03-15T02:02:44.448646+05:30
Guwahati,Assam,26.1158,91.7086,20.5,95,0.0,1004.5,7.45,45.4,63,23.5,17.7,3,5,4,1,2026-03-15T02:02:44.448654+05:30
Agartala,Tripura,23.8315,91.2868,20.0,92,0.0,1010.4,7.9,48.6,73,11.6,9.5,3,0,4,1,2026-03-15T02:02:44.448662+05:30
Shillong,Meghalaya,25.5788,91.8933,12.6,92,0.0,856.4,7.85,75.6,51,16.0,10.4,3,10,7,0,2026-03-15T02:02:44.448670+05:30
Imphal,Manipur,24.817,93.9368,16.1,90,0.0,925.6,8.05,78.1,122,55.1,49.0,3,10,7,0,2026-03-15T02:02:44.448679+05:30
Aizawl,Mizoram,23.7271,92.7176,16.0,90,0.0,894.6,8.1,60.1,96,29.3,22.5,3,10,7,0,2026-03-15T02:02:44.448686+05:30
Kohima,Nagaland,25.6701,94.1077,14.3,77,0.0,855.1,7.35,110.5,87,24.7,20.8,3,5,7,0,2026-03-15T02:02:44.448694+05:30
Gangtok,Sikkim,27.3314,88.6138,12.2,90,0.0,836.2,7.55,20.9,66,31.2,22.1,3,10,7,0,2026-03-15T02:02:44.448702+05:30
Siliguri,West Bengal,26.7271,88.3953,19.7,77,0.0,995.7,7.4,34.9,137,65.4,48.7,3,5,7,0,2026-03-15T02:02:47.810799+05:30
Durgapur,West Bengal,23.5204,87.3119,24.7,92,0.0,996.2,8.05,26.3,152,37.5,35.2,3,5,7,1,2026-03-15T02:02:47.810829+05:30
Asansol,West Bengal,23.6739,86.9524,25.2,90,0.0,994.7,8.05,31.3,151,56.9,52.9,7,5,7,1,2026-03-15T02:02:47.810839+05:30
Pondicherry,Puducherry,11.9139,79.8145,24.4,94,0.0,1011.1,9.05,30.6,45,13.0,9.8,3,0,4,1,2026-03-15T02:02:47.810847+05:30
Port Blair,Andaman and Nicobar Islands,11.6234,92.7265,27.3,82,0.0,1009.1,8.95,23.4,56,13.1,9.8,7,0,4,1,2026-03-15T02:02:47.810855+05:30
Haridwar,Uttarakhand,29.9457,78.1642,18.3,76,0.0,974.7,5.85,25.2,99,49.1,40.9,3,5,3,0,2026-03-15T02:02:47.810862+05:30
Rishikesh,Uttarakhand,30.0869,78.2676,19.3,70,0.0,967.7,5.95,36.4,69,32.8,23.3,3,5,3,0,2026-03-15T02:02:47.810869+05:30
Nainital,Uttarakhand,29.3919,79.4542,16.4,35,0.0,805.2,5.65,50.8,86,37.3,32.2,0,5,3,0,2026-03-15T02:02:47.810876+05:30
Mussoorie,Uttarakhand,30.4599,78.0664,14.4,65,0.0,801.7,6.15,29.2,73,48.2,37.0,3,5,7,0,2026-03-15T02:02:47.810883+05:30
Dharamshala,Himachal Pradesh,32.219,76.3234,19.7,21,0.0,868.7,4.65,39.6,42,11.7,6.1,0,5,3,1,2026-03-15T02:02:47.810890+05:30
Dalhousie,Himachal Pradesh,32.5387,75.971,15.0,28,0.0,802.3,4.1,43.6,67,38.0,28.4,0,5,3,1,2026-03-15T02:02:47.810899+05:30
Patiala,Punjab,30.3398,76.3869,17.1,66,0.0,978.2,5.9,48.6,150,143.0,78.5,3,5,3,0,2026-03-15T02:02:47.810906+05:30
Bhatinda,Punjab,30.211,74.9455,18.9,69,0.0,983.3,6.45,46.1,96,68.9,44.4,3,5,7,0,2026-03-15T02:02:47.810913+05:30
Rohtak,Haryana,28.8955,76.6066,18.3,69,0.0,981.6,6.15,32.4,172,235.2,77.3,3,5,7,0,2026-03-15T02:02:47.810920+05:30
Panipat,Haryana,29.3909,76.9635,17.5,65,0.0,980.3,5.7,36.7,497,319.4,106.4,3,5,3,0,2026-03-15T02:02:47.810927+05:30
Mathura,Uttar Pradesh,27.4924,77.6737,18.3,66,0.0,987.7,6.45,37.4,265,398.6,67.5,3,5,7,0,2026-03-15T02:02:47.810934+05:30
Vrindavan,Uttar Pradesh,27.5823,77.7027,19.7,60,0.0,987.8,6.45,35.3,265,398.6,67.5,0,5,7,0,2026-03-15T02:02:47.810941+05:30
Ayodhya,Uttar Pradesh,26.7922,82.1998,20.3,75,0.0,997.0,6.9,33.1,154,98.7,52.9,3,5,7,0,2026-03-15T02:02:47.810947+05:30
Ratlam,Madhya Pradesh,23.3315,75.0367,22.8,50,0.0,954.9,7.65,31.3,76,34.7,19.9,0,5,7,0,2026-03-15T02:02:47.810954+05:30
Sagar,Madhya Pradesh,23.8388,78.7378,24.3,39,0.0,950.0,7.65,33.5,64,19.8,17.9,0,5,7,0,2026-03-15T02:02:47.810961+05:30
Satna,Madhya Pradesh,24.6005,80.8322,22.4,69,0.0,971.2,7.6,31.3,99,110.4,38.0,3,5,7,1,2026-03-15T02:02:47.810968+05:30
Akola,Maharashtra,20.7002,77.0082,25.2,46,0.0,975.5,8.15,25.2,93,39.7,36.3,4,5,7,0,2026-03-15T02:02:47.810975+05:30
Amravati,Maharashtra,20.9374,77.7796,22.2,62,0.0,967.3,8.1,22.7,103,42.1,38.9,3,5,7,0,2026-03-15T02:02:47.810983+05:30
Latur,Maharashtra,18.4088,76.5604,24.1,49,0.0,940.0,8.6,26.6,112,54.2,46.8,0,5,7,0,2026-03-15T02:02:47.810989+05:30
Nanded,Maharashtra,19.1383,77.3091,26.6,54,0.0,969.1,8.35,22.7,134,57.3,50.2,4,5,7,1,2026-03-15T02:02:47.810996+05:30
Gulbarga,Karnataka,17.3297,76.8343,27.7,42,0.0,959.4,8.65,14.0,102,53.3,43.7,4,5,7,0,2026-03-15T02:02:47.811002+05:30
Bidar,Karnataka,17.9104,77.5199,24.7,54,0.0,936.2,8.6,17.3,112,43.1,38.3,0,5,7,0,2026-03-15T02:02:47.811009+05:30
Hospet,Karnataka,15.2689,76.3909,25.8,80,0.0,957.5,8.9,28.8,111,48.5,43.0,7,5,7,1,2026-03-15T02:02:47.811015+05:30
Tirupur,Tamil Nadu,11.1085,77.3411,25.0,82,0.0,977.4,9.3,27.4,62,27.4,26.0,7,5,7,1,2026-03-15T02:02:47.811021+05:30
Alappuzha,Kerala,9.4981,76.3388,26.5,87,0.0,1010.4,9.1,30.2,71,29.3,26.4,7,0,4,1,2026-03-15T02:02:47.811028+05:30
Munnar,Kerala,10.0889,77.0595,19.4,86,0.0,857.1,9.6,37.4,58,24.2,22.9,3,10,7,1,2026-03-15T02:02:47.811036+05:30
Silchar,Assam,24.8333,92.7789,20.5,93,0.1,1009.7,7.55,41.8,90,34.9,29.4,6,0,4,1,2026-03-15T02:02:47.811043+05:30
Dibrugarh,Assam,27.4728,94.912,19.3,92,0.0,998.8,5.0,33.5,80,24.6,21.8,3,10,3,1,2026-03-15T02:02:47.811050+05:30
