city,state,latitude,longitude,temp,humidity,rain,pressure,uv_index,wind_gusts,aqi,pm10,pm2_5,mosquito_risk,arthritis_risk,migraine_risk,frizz_risk,updated_at
Delhi,Delhi,28.6139,77.209,30.6,40,0.0,985.1,6.5,36.0,171,249.6,46.3,0,5,7,0,2026-03-27T12:43:16.057902+05:30
Mumbai,Maharashtra,19.076,72.8777,29.8,69,0.0,1009.3,8.0,25.9,104,49.8,43.7,7,0,4,1,2026-03-27T12:43:16.057948+05:30
Bangalore,Karnataka,12.9716,77.5946,33.7,21,0.0,914.3,9.5,27.0,71,25.6,19.0,0,5,7,0,2026-03-27T12:43:16.057963+05:30
Hyderabad,Telangana,17.385,78.4867,36.0,31,0.0,955.7,9.0,39.2,76,26.8,19.9,0,5,10,1,2026-03-27T12:43:16.057972+05:30
Chennai,Tamil Nadu,13.0827,80.2707,33.8,49,0.0,1008.9,9.25,29.9,69,36.9,21.6,0,0,4,1,2026-03-27T12:43:16.057981+05:30
Kolkata,West Bengal,22.5726,88.3639,34.0,55,0.0,1006.2,8.45,24.5,135,55.3,34.5,0,5,4,1,2026-03-27T12:43:16.057989+05:30
Pune,Maharashtra,18.5204,73.8567,37.5,23,0.0,950.7,8.55,44.3,110,39.6,27.5,0,5,10,0,2026-03-27T12:43:16.057999+05:30
Ahmedabad,Gujarat,23.0225,72.5714,36.0,31,0.0,1004.8,7.9,31.3,57,35.7,14.7,0,5,7,1,2026-03-27T12:43:16.058005+05:30
Jaipur,Rajasthan,26.9124,75.7873,31.9,32,0.0,962.0,7.35,33.8,93,231.4,33.8,0,5,7,0,2026-03-27T12:43:16.058012+05:30
Lucknow,Uttar Pradesh,26.8467,80.9462,29.2,40,0.0,995.4,6.0,49.3,86,60.3,16.5,4,5,3,0,2026-03-27T12:43:16.058019+05:30
Kanpur,Uttar Pradesh,26.4499,80.3319,27.4,52,0.0,993.9,6.7,64.1,146,162.5,26.8,4,5,7,1,2026-03-27T12:43:16.058024+05:30
Chandigarh,Chandigarh,30.7333,76.7794,27.4,50,0.0,971.2,6.45,33.1,70,33.6,17.8,4,5,7,0,2026-03-27T12:43:16.058030+05:30
Srinagar,Jammu and Kashmir,34.0837,74.7973,18.8,44,0.0,843.5,7.5,16.6,105,29.0,18.6,0,5,7,0,2026-03-27T12:43:16.058037+05:30
Jammu,Jammu and Kashmir,32.7266,74.857,27.9,53,0.0,974.4,7.15,25.2,86,24.3,18.2,4,5,7,1,2026-03-27T12:43:16.058043+05:30
Amritsar,Punjab,31.634,74.8723,27.4,49,0.0,983.5,7.1,25.9,81,36.8,23.7,4,5,7,0,2026-03-27T12:43:16.058049+05:30
Ludhiana,Punjab,30.901,75.8573,28.5,45,0.0,981.2,6.6,27.4,86,38.4,20.4,4,5,7,0,2026-03-27T12:43:16.058055+05:30
Jalandhar,Punjab,31.326,75.5762,27.5,48,0.0,982.4,4.4,23.0,86,41.4,17.1,4,5,3,0,2026-03-27T12:43:16.058063+05:30
Dehradun,Uttarakhand,30.6284,78.0322,18.7,60,0.0,831.3,5.8,24.1,50,27.8,13.7,0,5,3,0,2026-03-27T12:43:16.058068+05:30
Shimla,Himachal Pradesh,31.1048,77.1734,15.7,68,0.0,786.1,6.0,40.0,58,24.3,12.8,3,5,3,0,2026-03-27T12:43:16.058074+05:30
Manali,Himachal Pradesh,32.2396,77.1887,21.1,45,0.0,820.8,8.7,26.6,76,16.4,6.9,0,5,7,0,2026-03-27T12:43:16.058080+05:30
Gurgaon,Haryana,28.4595,77.0266,30.8,41,0.0,983.7,6.65,37.4,706,1039.4,113.9,0,5,7,0,2026-03-27T12:43:16.058086+05:30
Noida,Uttar Pradesh,28.5355,77.391,30.8,41,0.0,986.5,6.5,34.6,706,1039.4,113.9,0,5,7,0,2026-03-27T12:43:16.058092+05:30
Ghaziabad,Uttar Pradesh,28.6692,77.4538,30.3,42,0.0,984.6,6.5,34.6,132,171.8,37.6,0,5,7,0,2026-03-27T12:43:16.058097+05:30
Faridabad,Haryana,28.4089,77.3178,31.1,38,0.0,986.0,6.6,33.1,706,1039.4,113.9,0,5,7,0,2026-03-27T12:43:16.058103+05:30
Meerut,Uttar Pradesh,28.9845,77.7064,30.5,40,0.0,983.2,6.35,42.1,132,171.8,37.6,0,5,7,0,2026-03-27T12:43:16.058109+05:30
Agra,Uttar Pradesh,27.1767,78.0081,31.2,37,0.0,991.1,6.8,47.5,557,414.4,54.8,0,5,7,0,2026-03-27T12:43:16.058114+05:30
Varanasi,Uttar Pradesh,25.3176,82.9739,34.1,31,0.0,998.4,7.3,52.2,90,96.9,24.8,0,5,7,0,2026-03-27T12:43:16.058121+05:30
Prayagraj,Uttar Pradesh,25.4358,81.8463,33.2,38,0.0,997.4,6.25,34.6,87,77.1,21.1,0,5,7,1,2026-03-27T12:43:16.058127+05:30
Gorakhpur,Uttar Pradesh,26.7606,83.3732,31.8,40,0.0,997.8,6.75,44.6,97,66.1,31.0,0,5,7,1,2026-03-27T12:43:16.058132+05:30
Bareilly,Uttar Pradesh,28.367,79.4304,28.1,54,0.0,988.3,5.75,51.5,63,32.1,12.5,4,5,3,1,2026-03-27T12:43:16.058139+05:30
Aligarh,Uttar Pradesh,27.8974,78.088,28.0,48,0.0,988.5,6.45,44.6,316,488.0,63.3,4,5,7,0,2026-03-27T12:43:16.058146+05:30
Moradabad,Uttar Pradesh,28.8386,78.7733,29.6,45,0.0,985.1,5.35,40.3,73,38.9,16.9,4,5,3,1,2026-03-27T12:43:16.058151+05:30
Saharanpur,Uttar Pradesh,29.9637,77.546,26.0,53,0.0,977.8,6.15,34.2,86,43.1,22.1,4,5,7,0,2026-03-27T12:43:16.058157+05:30
Jhansi,Uttar Pradesh,25.4484,78.5685,30.4,42,0.0,980.2,7.55,61.2,84,167.6,41.8,0,5,7,1,2026-03-27T12:43:19.441530+05:30
Surat,Gujarat,21.1702,72.8311,33.9,42,0.0,1008.9,7.75,27.7,124,35.0,26.8,0,0,4,1,2026-03-27T12:43:19.441564+05:30
Vadodara,Gujarat,22.3072,73.1812,37.1,30,0.0,1006.8,7.9,27.4,75,23.6,13.4,0,5,7,1,2026-03-27T12:43:19.441574+05:30
Rajkot,Gujarat,22.3039,70.8022,34.4,39,0.0,997.6,7.75,32.8,51,28.9,12.7,0,5,7,1,2026-03-27T12:43:19.441584+05:30
Thane,Maharashtra,19.2183,72.9781,36.8,36,0.0,1009.0,8.0,38.5,104,49.8,43.7,0,0,7,1,2026-03-27T12:43:19.441593+05:30
Nagpur,Maharashtra,21.1458,79.0882,37.7,21,0.0,973.9,8.25,50.0,122,24.9,19.3,0,5,10,0,2026-03-27T12:43:19.441603+05:30
Nashik,Maharashtra,19.9975,73.7898,35.8,23,0.0,948.0,8.2,43.6,78,31.2,22.1,0,5,10,0,2026-03-27T12:43:19.441611+05:30
Aurangabad,Maharashtra,19.8762,75.3433,36.6,22,0.0,946.5,8.75,39.2,69,31.5,20.6,0,5,10,0,2026-03-27T12:43:19.441619+05:30
Solapur,Maharashtra,17.6599,75.9064,37.2,26,0.0,959.3,8.85,30.2,99,41.6,33.1,0,5,10,0,2026-03-27T12:43:19.441628+05:30
Kolhapur,Maharashtra,16.705,74.2433,34.7,35,0.0,950.8,8.95,44.6,156,40.3,32.8,0,5,7,1,2026-03-27T12:43:19.441636+05:30
Goa,Goa,15.2993,74.124,33.1,66,0.0,999.7,8.9,32.0,96,34.2,27.4,3,5,7,1,2026-03-27T12:43:19.441645+05:30
Jodhpur,Rajasthan,26.2389,73.0243,34.0,30,0.0,986.2,7.7,30.6,78,88.0,23.0,0,5,7,0,2026-03-27T12:43:19.441654+05:30
Udaipur,Rajasthan,24.5854,73.7125,32.5,27,0.0,949.7,8.35,43.2,31,44.8,13.1,0,5,7,0,2026-03-27T12:43:19.441662+05:30
Kota,Rajasthan,25.2138,75.8648,37.2,19,0.0,979.8,7.7,39.6,63,116.4,21.8,0,5,10,0,2026-03-27T12:43:19.441671+05:30
Bikaner,Rajasthan,28.0229,73.3119,30.1,39,0.0,985.6,7.45,27.4,71,60.3,25.1,0,5,7,0,2026-03-27T12:43:19.441679+05:30
Ajmer,Rajasthan,26.4499,74.6399,32.0,33,0.0,957.2,7.65,36.0,57,71.0,19.3,0,5,7,0,2026-03-27T12:43:19.441688+05:30
Gwalior,Madhya Pradesh,26.2183,78.1828,30.1,44,0.0,985.9,7.2,55.8,120,132.2,32.8,0,5,7,1,2026-03-27T12:43:19.441696+05:30
Indore,Madhya Pradesh,22.7196,75.8577,34.8,20,0.0,950.4,8.2,38.9,46,27.9,9.0,0,5,7,0,2026-03-27T12:43:19.441704+05:30
Bhopal,Madhya Pradesh,23.2599,77.4126,36.5,22,0.0,955.0,8.1,44.3,46,16.1,9.9,0,5,10,0,2026-03-27T12:43:19.441712+05:30
Jabalpur,Madhya Pradesh,23.1815,79.9864,36.1,31,0.0,962.0,8.15,47.2,58,10.8,8.6,0,5,10,1,2026-03-27T12:43:19.441720+05:30
Ujjain,Madhya Pradesh,23.1765,75.7885,34.5,23,0.0,956.1,8.1,38.5,39,24.9,8.0,0,5,7,0,2026-03-27T12:43:19.441729+05:30
Visakhapatnam,Andhra Pradesh,17.6868,83.2185,36.2,42,0.0,1005.0,8.95,38.2,83,38.3,26.2,0,5,7,1,2026-03-27T12:43:19.441738+05:30
Vijayawada,Andhra Pradesh,16.5062,80.648,34.2,49,0.0,1004.4,9.05,25.6,76,35.2,22.2,0,5,4,1,2026-03-27T12:43:19.441746+05:30
Guntur,Andhra Pradesh,16.3067,80.4365,34.9,44,0.0,1005.5,9.05,30.2,72,32.9,20.0,0,5,4,1,2026-03-27T12:43:19.441771+05:30
Nellore,Andhra Pradesh,14.4426,79.9865,36.7,32,0.0,1007.1,9.15,29.9,64,38.0,25.4,0,5,7,1,2026-03-27T12:43:19.441781+05:30
Kurnool,Andhra Pradesh,15.8281,78.0373,38.2,21,0.0,978.6,9.05,16.2,69,29.0,20.4,0,5,10,0,2026-03-27T12:43:19.441789+05:30
Kakinada,Andhra Pradesh,16.9891,82.2475,36.7,42,0.0,1008.6,9.0,27.7,68,36.1,22.0,0,0,7,1,2026-03-27T12:43:19.441796+05:30
Tirupati,Andhra Pradesh,13.6288,79.4192,36.1,26,0.0,993.1,9.25,31.3,96,33.8,23.6,0,5,10,0,2026-03-27T12:43:19.441803+05:30
Warangal,Telangana,17.9689,79.5941,36.8,27,0.0,980.6,8.85,26.6,83,26.4,19.5,0,5,10,0,2026-03-27T12:43:19.441809+05:30
Nizamabad,Telangana,18.6725,78.0941,37.4,28,0.0,966.9,8.75,30.6,99,22.8,16.6,0,5,10,0,2026-03-27T12:43:19.441816+05:30
Mysore,Karnataka,12.2958,76.6396,35.0,19,0.0,930.8,9.45,41.0,70,28.5,21.2,0,5,7,0,2026-03-27T12:43:19.441824+05:30
Mangalore,Karnataka,12.9141,74.856,29.6,81,0.0,1008.0,9.1,24.8,99,39.2,31.1,7,0,4,1,2026-03-27T12:43:19.441832+05:30
Hubli-Dharwad,Karnataka,15.3647,75.124,34.1,35,0.0,943.7,9.1,41.8,76,23.8,19.3,0,5,7,1,2026-03-27T12:43:19.441839+05:30
Belgaum,Karnataka,15.8497,74.4977,34.6,24,0.0,928.6,9.15,37.8,112,30.0,24.2,0,5,7,0,2026-03-27T12:43:22.762181+05:30
Coimbatore,Tamil Nadu,11.0168,76.9558,35.5,25,0.0,963.5,9.4,40.7,80,28.3,21.2,0,5,10,0,2026-03-27T12:43:22.762215+05:30
Madurai,Tamil Nadu,9.9252,78.1198,33.7,40,0.0,994.4,9.35,21.6,78,33.2,20.8,0,5,7,1,2026-03-27T12:43:22.762225+05:30
Trichy,Tamil Nadu,10.7905,78.7047,32.7,48,0.0,1001.3,9.3,18.7,87,44.6,30.4,0,5,4,1,2026-03-27T12:43:22.762235+05:30
Salem,Tamil Nadu,11.6643,78.146,34.8,38,0.0,978.8,9.35,26.3,94,37.6,29.7,0,5,7,1,2026-03-27T12:43:22.762244+05:30
Tirunelveli,Tamil Nadu,8.7139,77.7567,35.3,39,0.0,1004.4,9.35,44.3,59,26.7,16.5,0,5,7,1,2026-03-27T12:43:22.762252+05:30
Vellore,Tamil Nadu,12.9165,79.1325,35.5,26,0.0,986.2,9.3,31.7,95,29.0,19.5,0,5,10,0,2026-03-27T12:43:22.762259+05:30
Erode,Tamil Nadu,11.341,77.7172,35.4,35,0.0,990.2,9.35,29.2,88,34.5,25.8,0,5,10,1,2026-03-27T12:43:22.762266+05:30
Kochi,Kerala,9.9312,76.2673,29.2,78,0.0,1009.4,9.2,37.8,92,34.2,28.6,7,0,4,1,2026-03-27T12:43:22.762273+05:30
Thiruvananthapuram,Kerala,8.5241,76.9366,29.5,73,0.0,1008.7,9.2,31.7,82,24.3,19.4,7,0,4,1,2026-03-27T12:43:22.762280+05:30
Kozhikode,Kerala,11.2588,75.7804,30.6,74,0.0,1008.9,9.1,31.3,93,37.6,31.1,3,0,4,1,2026-03-27T12:43:22.762287+05:30
Thrissur,Kerala,10.5276,76.2144,34.4,54,0.0,1007.7,9.15,40.7,92,34.3,27.1,0,5,4,1,2026-03-27T12:43:22.762294+05:30
Kannur,Kerala,11.8745,75.3704,31.9,69,0.0,1008.4,9.1,31.0,104,40.4,32.8,3,0,4,1,2026-03-27T12:43:22.762301+05:30
Patna,Bihar,25.5941,85.1376,33.0,38,0.0,1000.4,7.95,41.8,150,65.4,27.8,0,5,4,1,2026-03-27T12:43:22.762307+05:30
Gaya,Bihar,24.7914,85.0002,35.8,25,0.0,993.7,8.05,30.2,70,42.5,12.5,0,5,10,0,2026-03-27T12:43:22.762314+05:30
Muzaffarpur,Bihar,26.1209,85.3647,30.7,50,0.0,1000.7,7.6,44.6,156,73.8,41.8,0,5,4,1,2026-03-27T12:43:22.762320+05:30
Bhagalpur,Bihar,25.2425,87.0117,32.2,48,0.0,1001.4,8.0,28.8,137,69.6,37.6,0,5,4,1,2026-03-27T12:43:22.762327+05:30
Ranchi,Jharkhand,23.3441,85.3096,32.3,27,0.0,939.5,8.7,34.2,68,29.7,8.6,0,5,7,0,2026-03-27T12:43:22.762333+05:30
Jamshedpur,Jharkhand,22.8046,86.2029,36.3,26,0.0,991.4,8.55,24.5,155,46.7,25.7,0,5,10,0,2026-03-27T12:43:22.762340+05:30
Dhanbad,Jharkhand,23.7957,86.4304,35.9,20,0.0,980.4,8.4,25.6,129,51.9,23.9,0,5,10,0,2026-03-27T12:43:22.762346+05:30
Bokaro,Jharkhand,23.6693,86.1511,35.4,22,0.0,984.4,8.3,36.0,119,45.6,16.8,0,5,10,0,2026-03-27T12:43:22.762353+05:30
Bhubaneswar,Odisha,20.2961,85.8245,35.3,51,0.0,1003.5,8.75,25.2,116,51.7,40.6,0,5,7,1,2026-03-27T12:43:22.762359+05:30
Cuttack,Odisha,20.4625,85.8828,35.9,49,0.0,1005.3,8.8,31.7,116,51.7,40.6,0,5,7,1,2026-03-27T12:43:22.762366+05:30
Rourkela,Odisha,22.2604,84.8536,35.7,31,0.0,986.3,8.45,42.1,72,29.0,16.5,0,5,10,0,2026-03-27T12:43:22.762373+05:30
Raipur,Chhattisgarh,21.2514,81.6296,37.5,31,0.0,975.5,8.55,48.6,127,38.2,31.9,0,5,10,1,2026-03-27T12:43:22.762379+05:30
Bhilai,Chhattisgarh,21.1938,81.3509,37.7,30,0.0,975.8,8.55,45.0,124,34.1,28.2,0,5,10,1,2026-03-27T12:43:22.762385+05:30
Guwahati,Assam,26.1158,91.7086,26.7,72,0.0,1003.5,7.9,28.4,152,67.3,43.4,7,5,4,1,2026-03-27T12:43:22.762392+05:30
Agartala,Tripura,23.8315,91.2868,31.7,52,0.0,1006.6,8.2,24.5,156,70.8,51.8,0,5,4,1,2026-03-27T12:43:22.762398+05:30
Shillong,Meghalaya,25.5788,91.8933,18.3,62,0.0,857.6,8.15,42.1,123,58.9,36.1,3,5,7,0,2026-03-27T12:43:22.762405+05:30
Imphal,Manipur,24.817,93.9368,24.0,47,0.0,924.3,8.55,43.2,125,42.4,25.9,0,5,7,0,2026-03-27T12:43:22.762412+05:30
Aizawl,Mizoram,23.7271,92.7176,27.2,36,0.0,895.0,8.5,30.6,99,51.5,28.9,4,5,7,0,2026-03-27T12:43:22.762419+05:30
Kohima,Nagaland,25.6701,94.1077,18.6,66,0.0,856.6,8.45,71.6,96,34.9,22.2,3,5,7,0,2026-03-27T12:43:22.762425+05:30
Gangtok,Sikkim,27.3314,88.6138,18.9,69,0.0,838.1,7.65,21.2,110,45.8,32.2,3,5,7,0,2026-03-27T12:43:22.762432+05:30
Siliguri,West Bengal,26.7271,88.3953,22.1,81,0.0,995.6,7.8,33.1,158,84.3,55.2,3,5,7,1,2026-03-27T12:43:26.077012+05:30
Durgapur,West Bengal,23.5204,87.3119,36.2,31,0.0,995.2,8.4,19.8,155,61.2,35.6,0,5,10,1,2026-03-27T12:43:26.077046+05:30
Asansol,West Bengal,23.6739,86.9524,35.9,29,0.0,993.7,8.45,20.2,118,57.3,30.0,0,5,10,0,2026-03-27T12:43:26.077057+05:30
Pondicherry,Puducherry,11.9139,79.8145,32.9,56,0.0,1009.8,9.2,25.6,68,36.8,20.0,0,0,4,1,2026-03-27T12:43:26.077067+05:30
Port Blair,Andaman and Nicobar Islands,11.6234,92.7265,28.3,78,0.0,1007.3,9.15,23.0,56,36.0,25.1,7,5,4,1,2026-03-27T12:43:26.077077+05:30
Haridwar,Uttarakhand,29.9457,78.1642,26.4,48,0.0,975.8,5.5,38.5,76,34.2,18.6,4,5,3,0,2026-03-27T12:43:26.077086+05:30
Rishikesh,Uttarakhand,30.0869,78.2676,27.2,45,0.0,968.6,6.05,29.5,59,32.5,12.7,4,5,7,0,2026-03-27T12:43:26.077095+05:30
Nainital,Uttarakhand,29.3919,79.4542,22.9,44,0.0,808.3,6.5,58.0,51,24.0,7.9,0,5,7,0,2026-03-27T12:43:26.077104+05:30
Mussoorie,Uttarakhand,30.4599,78.0664,18.9,59,0.0,804.3,6.25,28.4,68,34.0,16.6,0,5,7,0,2026-03-27T12:43:26.077113+05:30
Dharamshala,Himachal Pradesh,32.219,76.3234,22.1,65,0.0,870.8,6.95,20.2,46,21.2,10.9,3,5,7,0,2026-03-27T12:43:26.077122+05:30
Dalhousie,Himachal Pradesh,32.5387,75.971,20.7,46,0.0,806.1,7.2,22.7,68,21.4,14.8,0,5,7,0,2026-03-27T12:43:26.077132+05:30
Patiala,Punjab,30.3398,76.3869,28.8,45,0.0,980.7,6.3,34.2,173,198.8,32.7,4,5,7,0,2026-03-27T12:43:26.077140+05:30
Bhatinda,Punjab,30.211,74.9455,29.4,40,0.0,986.5,7.0,29.9,84,44.9,18.5,4,5,7,0,2026-03-27T12:43:26.077148+05:30
Rohtak,Haryana,28.8955,76.6066,30.2,41,0.0,984.2,6.55,35.3,179,331.6,52.5,0,5,7,0,2026-03-27T12:43:26.077157+05:30
Panipat,Haryana,29.3909,76.9635,28.4,47,0.0,983.1,6.35,41.8,325,408.9,55.9,4,5,7,0,2026-03-27T12:43:26.077165+05:30
Mathura,Uttar Pradesh,27.4924,77.6737,29.7,44,0.0,989.6,6.75,36.0,527,274.7,48.3,4,5,7,1,2026-03-27T12:43:26.077174+05:30
Vrindavan,Uttar Pradesh,27.5823,77.7027,29.3,45,0.0,990.0,6.5,39.2,527,274.7,48.3,4,5,7,1,2026-03-27T12:43:26.077182+05:30
Ayodhya,Uttar Pradesh,26.7922,82.1998,32.2,28,0.0,996.5,5.5,52.6,80,61.2,19.8,0,5,3,0,2026-03-27T12:43:26.077191+05:30
Ratlam,Madhya Pradesh,23.3315,75.0367,33.2,27,0.0,957.3,8.05,33.8,34,15.0,5.8,0,5,7,0,2026-03-27T12:43:26.077200+05:30
Sagar,Madhya Pradesh,23.8388,78.7378,36.5,24,0.0,950.8,8.05,40.0,45,13.8,5.7,0,5,10,0,2026-03-27T12:43:26.077208+05:30
Satna,Madhya Pradesh,24.6005,80.8322,34.8,25,0.0,972.0,7.75,38.5,65,108.0,22.4,0,5,7,0,2026-03-27T12:43:26.077217+05:30
Akola,Maharashtra,20.7002,77.0082,36.4,29,0.0,976.7,8.45,41.4,65,11.6,8.5,0,5,10,0,2026-03-27T12:43:26.077226+05:30
Amravati,Maharashtra,20.9374,77.7796,37.2,22,0.0,968.8,8.45,40.3,65,10.9,7.9,0,5,10,0,2026-03-27T12:43:26.077235+05:30
Latur,Maharashtra,18.4088,76.5604,36.0,24,0.0,942.5,8.8,27.7,90,39.7,29.2,0,5,10,0,2026-03-27T12:43:26.077244+05:30
Nanded,Maharashtra,19.1383,77.3091,38.4,21,0.0,970.4,8.65,26.3,87,18.7,14.4,0,5,10,0,2026-03-27T12:43:26.077252+05:30
Gulbarga,Karnataka,17.3297,76.8343,37.1,28,0.0,961.0,8.85,32.0,90,33.5,26.4,0,5,10,0,2026-03-27T12:43:26.077260+05:30
Bidar,Karnataka,17.9104,77.5199,35.6,30,0.0,938.2,8.85,29.9,88,34.6,27.6,0,5,10,0,2026-03-27T12:43:26.077268+05:30
Hospet,Karnataka,15.2689,76.3909,34.5,31,0.0,958.4,9.1,23.8,84,28.5,21.9,0,5,7,0,2026-03-27T12:43:26.077275+05:30
Tirupur,Tamil Nadu,11.1085,77.3411,35.6,29,0.0,976.7,9.4,30.6,94,33.1,25.0,0,5,10,0,2026-03-27T12:43:26.077281+05:30
Alappuzha,Kerala,9.4981,76.3388,29.0,78,0.0,1009.5,9.15,34.9,85,34.5,28.7,7,0,4,1,2026-03-27T12:43:26.077288+05:30
Munnar,Kerala,10.0889,77.0595,31.4,36,0.0,860.8,9.65,33.8,72,23.2,14.3,0,5,7,0,2026-03-27T12:43:26.077295+05:30
Silchar,Assam,24.8333,92.7789,31.6,43,0.0,1005.6,8.25,16.9,154,66.6,39.1,0,5,4,1,2026-03-27T12:43:26.077301+05:30
Dibrugarh,Assam,27.4728,94.912,25.8,67,0.0,997.5,4.8,10.8,121,64.7,42.0,7,5,3,1,2026-03-27T12:43:26.077308+05:30
