city,state,latitude,longitude,temp,humidity,rain,pressure,uv_index,wind_gusts,aqi,pm10,pm2_5,no2,co,o3,so2,mosquito_risk,arthritis_risk,migraine_risk,frizz_risk,updated_at
Delhi,Delhi,28.6139,77.209,25.7,93,0.1,976.9,7.15,22.7,153,122.9,61.5,32.7,640.0,46.0,25.5,10,5,7,1,2026-07-02T03:49:08.591815+05:30
Mumbai,Maharashtra,19.076,72.8777,26.0,92,0.1,1003.6,0.55,46.8,37,20.5,10.0,4.3,116.0,51.0,3.9,10,5,0,1,2026-07-02T03:49:08.591865+05:30
Bangalore,Karnataka,12.9716,77.5946,20.6,94,0.0,909.3,6.5,56.2,16,2.0,1.9,5.6,139.0,38.0,3.0,3,5,7,1,2026-07-02T03:49:08.591883+05:30
Hyderabad,Telangana,17.385,78.4867,23.8,88,0.0,948.4,4.75,52.2,21,2.8,2.5,7.0,132.0,38.0,3.3,3,5,3,1,2026-07-02T03:49:08.591893+05:30
Chennai,Tamil Nadu,13.0827,80.2707,29.5,59,0.0,1003.9,7.75,59.0,37,8.2,6.9,15.0,158.0,32.0,9.0,4,5,4,1,2026-07-02T03:49:08.591902+05:30
Kolkata,West Bengal,22.5726,88.3639,26.0,96,0.0,998.8,8.55,33.8,81,21.4,20.5,11.2,264.0,56.0,6.3,7,5,7,1,2026-07-02T03:49:08.591911+05:30
Pune,Maharashtra,18.5204,73.8567,22.5,95,0.0,943.0,2.55,46.8,19,2.0,1.7,4.7,110.0,44.0,3.9,3,5,3,1,2026-07-02T03:49:08.591919+05:30
Ahmedabad,Gujarat,23.0225,72.5714,28.0,86,0.0,995.2,5.55,39.6,53,27.1,17.1,13.2,140.0,30.0,5.7,7,5,3,1,2026-07-02T03:49:08.591927+05:30
Jaipur,Rajasthan,26.9124,75.7873,25.8,87,0.0,952.8,8.15,29.5,122,234.7,59.0,11.6,188.0,55.0,10.7,7,5,7,1,2026-07-02T03:49:08.591934+05:30
Lucknow,Uttar Pradesh,26.8467,80.9462,26.3,97,0.1,987.1,7.35,24.8,104,38.8,34.3,10.5,384.0,91.0,5.3,10,5,7,1,2026-07-02T03:49:08.591946+05:30
Kanpur,Uttar Pradesh,26.4499,80.3319,27.2,90,0.3,985.1,6.2,27.0,99,44.1,32.4,16.6,360.0,70.0,6.3,10,5,7,1,2026-07-02T03:49:08.591955+05:30
Chandigarh,Chandigarh,30.7333,76.7794,24.7,98,0.0,963.1,5.7,33.1,97,45.2,39.6,30.0,457.0,36.0,8.3,3,5,3,1,2026-07-02T03:49:08.591962+05:30
Srinagar,Jammu and Kashmir,34.0837,74.7973,19.7,99,0.1,838.7,9.1,21.6,88,28.9,25.5,26.2,458.0,29.0,1.8,6,10,7,1,2026-07-02T03:49:08.591971+05:30
Jammu,Jammu and Kashmir,32.7266,74.857,27.0,89,0.0,966.2,8.6,35.3,98,25.6,17.2,18.1,301.0,67.0,2.2,7,5,7,1,2026-07-02T03:49:08.591978+05:30
Amritsar,Punjab,31.634,74.8723,27.5,89,0.0,974.0,8.45,38.2,257,223.5,81.3,19.4,338.0,46.0,9.0,7,5,7,1,2026-07-02T03:49:08.591985+05:30
Ludhiana,Punjab,30.901,75.8573,26.4,89,0.0,972.5,5.7,39.6,182,63.3,40.2,16.7,324.0,66.0,10.0,7,5,3,1,2026-07-02T03:49:08.591992+05:30
Jalandhar,Punjab,31.326,75.5762,27.4,85,0.0,973.3,7.65,43.6,221,84.8,40.4,18.2,325.0,59.0,11.5,7,5,7,1,2026-07-02T03:49:08.591999+05:30
Dehradun,Uttarakhand,30.6284,78.0322,18.0,98,0.0,826.8,7.4,23.8,35,5.6,5.5,12.5,186.0,64.0,0.8,3,10,7,1,2026-07-02T03:49:08.592007+05:30
Shimla,Himachal Pradesh,31.1048,77.1734,14.9,99,0.0,780.3,6.55,24.8,63,18.2,8.9,8.3,264.0,92.0,2.3,3,10,7,0,2026-07-02T03:49:08.592016+05:30
Manali,Himachal Pradesh,32.2396,77.1887,19.5,74,0.2,815.6,5.1,31.3,52,3.7,3.1,41.6,284.0,78.0,0.0,6,5,3,0,2026-07-02T03:49:08.592025+05:30
Gurgaon,Haryana,28.4595,77.0266,24.9,97,0.6,975.2,7.75,19.8,209,131.8,55.8,34.9,471.0,41.0,18.6,6,5,7,1,2026-07-02T03:49:08.592033+05:30
Noida,Uttar Pradesh,28.5355,77.391,27.6,87,0.1,978.6,6.65,25.6,209,131.8,55.8,34.9,557.0,41.0,18.6,10,5,7,1,2026-07-02T03:49:08.592040+05:30
Ghaziabad,Uttar Pradesh,28.6692,77.4538,26.9,84,0.0,976.7,7.05,34.6,123,79.9,46.0,18.9,495.0,60.0,11.5,7,5,7,1,2026-07-02T03:49:08.592047+05:30
Faridabad,Haryana,28.4089,77.3178,26.9,91,0.0,977.6,7.05,26.3,209,131.8,55.8,34.9,492.0,41.0,18.6,7,5,7,1,2026-07-02T03:49:08.592053+05:30
Meerut,Uttar Pradesh,28.9845,77.7064,24.2,93,0.3,975.5,5.7,30.6,123,79.9,46.0,18.9,477.0,60.0,11.5,6,5,3,1,2026-07-02T03:49:08.592060+05:30
Agra,Uttar Pradesh,27.1767,78.0081,27.7,84,0.0,980.7,6.75,21.2,116,188.1,39.2,22.3,547.0,50.0,8.6,7,5,7,1,2026-07-02T03:49:08.592067+05:30
Varanasi,Uttar Pradesh,25.3176,82.9739,27.0,96,0.1,990.4,7.15,29.9,78,34.6,33.9,15.8,742.0,66.0,9.8,10,5,7,1,2026-07-02T03:49:08.592074+05:30
Prayagraj,Uttar Pradesh,25.4358,81.8463,26.9,94,0.1,989.0,8.15,28.1,95,28.9,27.8,8.9,312.0,101.0,4.2,10,5,7,1,2026-07-02T03:49:08.592081+05:30
Gorakhpur,Uttar Pradesh,26.7606,83.3732,26.4,95,0.1,991.4,7.05,31.7,153,74.5,73.3,17.4,341.0,73.0,10.8,10,5,7,1,2026-07-02T03:49:08.592089+05:30
Bareilly,Uttar Pradesh,28.367,79.4304,25.8,97,0.0,981.0,6.3,32.0,103,24.7,20.3,9.4,396.0,94.0,3.0,7,5,7,1,2026-07-02T03:49:08.592098+05:30
Aligarh,Uttar Pradesh,27.8974,78.088,25.3,96,0.1,979.2,7.1,27.7,107,72.9,40.9,29.8,448.0,39.0,10.5,10,5,7,1,2026-07-02T03:49:08.592105+05:30
Moradabad,Uttar Pradesh,28.8386,78.7733,25.5,96,0.4,978.4,6.9,33.1,114,49.7,39.3,17.5,506.0,73.0,8.0,10,5,7,1,2026-07-02T03:49:08.592112+05:30
Saharanpur,Uttar Pradesh,29.9637,77.546,25.7,96,0.0,970.0,6.7,36.4,122,70.1,56.9,31.8,442.0,34.0,13.5,7,5,7,1,2026-07-02T03:49:08.592119+05:30
Jhansi,Uttar Pradesh,25.4484,78.5685,28.6,79,0.0,970.6,8.4,32.0,86,89.4,38.8,23.2,215.0,20.0,3.1,7,5,7,1,2026-07-02T03:49:12.048537+05:30
Surat,Gujarat,21.1702,72.8311,25.8,97,0.2,1000.4,0.3,34.6,61,19.8,15.3,23.4,339.0,27.0,34.8,10,5,0,1,2026-07-02T03:49:12.048570+05:30
Vadodara,Gujarat,22.3072,73.1812,27.2,87,0.1,997.8,1.3,35.6,53,15.6,10.9,13.2,145.0,33.0,10.2,10,5,3,1,2026-07-02T03:49:12.048581+05:30
Rajkot,Gujarat,22.3039,70.8022,27.0,89,0.0,987.3,3.55,39.6,59,27.1,13.8,5.7,100.0,42.0,5.3,7,5,3,1,2026-07-02T03:49:12.048590+05:30
Thane,Maharashtra,19.2183,72.9781,24.8,98,0.2,1003.1,0.45,39.2,37,20.5,10.0,4.3,139.0,51.0,3.9,6,5,0,1,2026-07-02T03:49:12.048597+05:30
Nagpur,Maharashtra,21.1458,79.0882,25.1,98,0.1,966.7,4.0,26.3,62,24.1,22.0,15.5,224.0,41.0,8.4,10,5,3,1,2026-07-02T03:49:12.048605+05:30
Nashik,Maharashtra,19.9975,73.7898,22.6,96,0.0,939.9,0.4,50.8,20,3.1,2.2,7.1,126.0,40.0,4.4,3,5,3,1,2026-07-02T03:49:12.048612+05:30
Aurangabad,Maharashtra,19.8762,75.3433,22.9,97,0.1,938.9,1.15,49.3,20,2.5,2.1,7.7,141.0,41.0,6.4,6,5,3,1,2026-07-02T03:49:12.048619+05:30
Solapur,Maharashtra,17.6599,75.9064,23.5,93,0.0,953.2,5.65,52.9,18,2.7,2.6,6.4,128.0,36.0,2.2,3,5,3,1,2026-07-02T03:49:12.048626+05:30
Kolhapur,Maharashtra,16.705,74.2433,21.8,96,0.0,944.2,4.5,47.9,20,2.0,1.9,3.3,104.0,43.0,1.6,3,5,3,1,2026-07-02T03:49:12.048633+05:30
Goa,Goa,15.2993,74.124,23.6,99,0.3,996.0,7.65,28.4,37,19.5,10.9,3.2,179.0,47.0,1.0,6,5,7,1,2026-07-02T03:49:12.048641+05:30
Jodhpur,Rajasthan,26.2389,73.0243,32.2,48,0.0,974.9,7.3,32.8,124,144.4,44.9,7.6,120.0,41.0,1.9,0,5,7,1,2026-07-02T03:49:12.048647+05:30
Udaipur,Rajasthan,24.5854,73.7125,25.5,84,0.0,939.8,4.65,45.0,57,14.2,10.2,12.1,130.0,42.0,15.1,7,5,3,1,2026-07-02T03:49:12.048654+05:30
Kota,Rajasthan,25.2138,75.8648,26.7,86,0.1,972.1,8.25,29.5,77,30.2,24.4,7.5,192.0,64.0,4.0,10,5,7,1,2026-07-02T03:49:12.048660+05:30
Bikaner,Rajasthan,28.0229,73.3119,33.4,46,0.0,972.9,8.45,29.5,152,152.7,51.7,2.9,114.0,54.0,3.1,0,5,7,1,2026-07-02T03:49:12.048667+05:30
Ajmer,Rajasthan,26.4499,74.6399,25.3,93,0.0,947.4,7.2,38.5,88,36.0,28.3,7.5,129.0,64.0,6.3,7,5,7,1,2026-07-02T03:49:12.048674+05:30
Gwalior,Madhya Pradesh,26.2183,78.1828,27.9,85,0.0,975.8,6.45,25.2,86,85.2,40.2,32.5,155.0,22.0,5.5,7,5,7,1,2026-07-02T03:49:12.048681+05:30
Indore,Madhya Pradesh,22.7196,75.8577,24.5,94,0.0,941.8,1.55,34.6,66,16.7,15.5,9.6,218.0,59.0,6.8,3,5,3,1,2026-07-02T03:49:12.048688+05:30
Bhopal,Madhya Pradesh,23.2599,77.4126,24.2,94,0.0,947.1,1.9,32.8,71,30.2,26.7,8.6,257.0,59.0,2.7,3,5,3,1,2026-07-02T03:49:12.048695+05:30
Jabalpur,Madhya Pradesh,23.1815,79.9864,24.9,99,0.1,954.3,4.8,23.4,67,26.5,19.8,8.3,183.0,71.0,2.2,6,5,3,1,2026-07-02T03:49:12.048702+05:30
Ujjain,Madhya Pradesh,23.1765,75.7885,25.1,91,0.0,947.4,5.05,37.1,62,16.7,15.9,8.1,204.0,56.0,9.3,7,5,3,1,2026-07-02T03:49:12.048709+05:30
Visakhapatnam,Andhra Pradesh,17.6868,83.2185,28.1,74,0.0,996.1,2.45,44.3,63,15.1,13.4,20.6,256.0,39.0,32.8,7,5,3,1,2026-07-02T03:49:12.048717+05:30
Vijayawada,Andhra Pradesh,16.5062,80.648,29.1,65,0.0,997.6,6.35,63.0,40,7.1,5.6,7.5,143.0,41.0,3.5,7,5,7,1,2026-07-02T03:49:12.048723+05:30
Guntur,Andhra Pradesh,16.3067,80.4365,28.3,69,0.0,999.0,5.05,58.7,32,7.2,5.7,8.9,139.0,37.0,3.7,7,5,3,1,2026-07-02T03:49:12.048730+05:30
Nellore,Andhra Pradesh,14.4426,79.9865,29.9,58,0.0,1002.1,6.75,50.8,24,4.9,3.1,5.4,114.0,44.0,3.8,4,5,4,1,2026-07-02T03:49:12.048737+05:30
Kurnool,Andhra Pradesh,15.8281,78.0373,25.8,76,0.0,973.7,7.75,60.1,19,5.0,3.6,6.8,126.0,37.0,3.4,7,5,7,1,2026-07-02T03:49:12.048745+05:30
Kakinada,Andhra Pradesh,16.9891,82.2475,28.0,77,0.0,1001.0,5.6,57.2,51,15.2,12.5,8.4,247.0,51.0,5.9,7,5,0,1,2026-07-02T03:49:12.048752+05:30
Tirupati,Andhra Pradesh,13.6288,79.4192,28.3,60,0.0,988.0,6.05,46.4,19,3.8,3.3,7.7,133.0,36.0,2.2,4,5,7,1,2026-07-02T03:49:12.048758+05:30
Warangal,Telangana,17.9689,79.5941,24.7,91,0.5,973.3,3.6,49.0,30,4.9,4.3,7.2,140.0,40.0,2.2,6,5,3,1,2026-07-02T03:49:12.048765+05:30
Nizamabad,Telangana,18.6725,78.0941,23.9,92,0.1,959.4,2.3,36.4,26,6.0,5.1,7.8,140.0,42.0,4.5,6,5,3,1,2026-07-02T03:49:12.048771+05:30
Mysore,Karnataka,12.2958,76.6396,20.8,97,0.1,926.5,6.45,54.4,18,1.2,1.2,3.8,100.0,39.0,1.3,6,5,7,1,2026-07-02T03:49:12.048778+05:30
Mangalore,Karnataka,12.9141,74.856,24.7,95,0.3,1006.3,5.6,42.5,24,8.7,5.0,2.0,99.0,44.0,0.8,6,5,0,1,2026-07-02T03:49:12.048784+05:30
Hubli-Dharwad,Karnataka,15.3647,75.124,22.0,98,0.1,937.8,6.75,51.5,19,0.9,0.9,2.7,99.0,43.0,0.9,6,5,7,1,2026-07-02T03:49:12.048791+05:30
Belgaum,Karnataka,15.8497,74.4977,20.7,98,0.0,922.3,4.95,47.2,19,1.5,1.3,3.1,97.0,43.0,1.2,3,5,3,1,2026-07-02T03:49:15.441550+05:30
Coimbatore,Tamil Nadu,11.0168,76.9558,22.5,95,0.0,960.0,7.8,57.2,17,2.2,1.9,4.0,173.0,36.0,1.7,3,5,7,1,2026-07-02T03:49:15.441587+05:30
Madurai,Tamil Nadu,9.9252,78.1198,27.8,61,0.0,991.0,8.75,31.0,42,17.8,14.7,21.7,125.0,10.0,4.4,7,5,7,1,2026-07-02T03:49:15.441600+05:30
Trichy,Tamil Nadu,10.7905,78.7047,27.8,66,0.0,997.6,8.55,66.2,25,5.4,3.8,4.3,104.0,40.0,2.2,7,5,7,1,2026-07-02T03:49:15.441611+05:30
Salem,Tamil Nadu,11.6643,78.146,25.7,76,0.0,975.8,5.8,32.4,40,12.6,10.8,16.8,228.0,25.0,8.2,7,5,3,1,2026-07-02T03:49:15.441620+05:30
Tirunelveli,Tamil Nadu,8.7139,77.7567,28.0,66,0.0,1002.1,8.65,51.1,32,9.8,6.2,4.2,134.0,37.0,2.1,7,5,4,1,2026-07-02T03:49:15.441629+05:30
Vellore,Tamil Nadu,12.9165,79.1325,27.2,65,0.0,981.7,5.7,49.7,20,3.0,2.7,6.1,128.0,39.0,2.7,7,5,3,1,2026-07-02T03:49:15.441638+05:30
Erode,Tamil Nadu,11.341,77.7172,25.2,81,0.0,987.5,8.5,35.6,33,8.9,7.5,10.7,158.0,32.0,3.2,7,5,7,1,2026-07-02T03:49:15.441647+05:30
Kochi,Kerala,9.9312,76.2673,25.4,95,0.0,1009.1,8.55,41.8,51,18.6,16.1,17.9,139.0,10.0,4.8,7,0,4,1,2026-07-02T03:49:15.441660+05:30
Thiruvananthapuram,Kerala,8.5241,76.9366,24.3,93,0.0,1008.4,8.4,49.0,45,20.9,12.9,6.1,159.0,39.0,3.0,3,0,4,1,2026-07-02T03:49:15.441669+05:30
Kozhikode,Kerala,11.2588,75.7804,24.1,99,0.3,1008.6,7.95,34.2,24,9.6,4.9,0.8,140.0,51.0,0.5,6,0,4,1,2026-07-02T03:49:15.441677+05:30
Thrissur,Kerala,10.5276,76.2144,23.6,99,0.0,1007.8,8.55,41.8,49,16.8,14.6,12.5,187.0,17.0,3.3,3,5,4,1,2026-07-02T03:49:15.441687+05:30
Kannur,Kerala,11.8745,75.3704,24.1,97,0.2,1007.5,7.9,41.0,23,8.5,5.1,3.0,190.0,40.0,0.7,6,5,4,1,2026-07-02T03:49:15.441693+05:30
Patna,Bihar,25.5941,85.1376,26.7,95,0.1,994.0,5.45,33.5,140,35.5,35.5,14.5,405.0,66.0,9.6,10,5,3,1,2026-07-02T03:49:15.441700+05:30
Gaya,Bihar,24.7914,85.0002,26.3,97,0.1,987.0,6.0,28.8,122,27.9,27.9,11.8,482.0,73.0,7.2,10,5,3,1,2026-07-02T03:49:15.441707+05:30
Muzaffarpur,Bihar,26.1209,85.3647,26.7,94,0.0,994.2,6.45,37.4,142,30.5,30.4,14.4,397.0,65.0,8.6,7,5,7,1,2026-07-02T03:49:15.441715+05:30
Bhagalpur,Bihar,25.2425,87.0117,26.6,96,0.1,995.1,6.75,31.3,104,53.1,52.6,18.0,308.0,50.0,8.8,10,5,7,1,2026-07-02T03:49:15.441721+05:30
Ranchi,Jharkhand,23.3441,85.3096,23.1,98,0.1,930.6,8.1,32.8,76,18.8,18.7,11.3,333.0,63.0,18.3,6,5,7,1,2026-07-02T03:49:15.441728+05:30
Jamshedpur,Jharkhand,22.8046,86.2029,25.5,97,0.0,983.4,7.25,28.1,106,55.3,54.8,23.6,439.0,47.0,27.0,7,5,7,1,2026-07-02T03:49:15.441735+05:30
Dhanbad,Jharkhand,23.7957,86.4304,25.2,98,0.1,973.1,6.65,36.7,156,75.4,74.7,44.5,436.0,48.0,121.2,10,5,7,1,2026-07-02T03:49:15.441742+05:30
Bokaro,Jharkhand,23.6693,86.1511,25.4,96,0.0,976.8,7.3,36.7,153,62.6,62.2,41.0,449.0,49.0,117.5,7,5,7,1,2026-07-02T03:49:15.441749+05:30
Bhubaneswar,Odisha,20.2961,85.8245,25.2,99,0.3,994.8,7.95,26.3,61,21.3,20.7,11.3,304.0,57.0,2.6,10,5,7,1,2026-07-02T03:49:15.441755+05:30
Cuttack,Odisha,20.4625,85.8828,25.3,98,0.1,996.5,8.1,25.6,61,21.3,20.7,11.3,247.0,57.0,2.6,10,5,7,1,2026-07-02T03:49:15.441762+05:30
Rourkela,Odisha,22.2604,84.8536,25.3,99,0.0,977.2,8.65,26.6,85,53.2,53.0,15.9,412.0,73.0,20.9,7,5,7,1,2026-07-02T03:49:15.441769+05:30
Raipur,Chhattisgarh,21.2514,81.6296,24.8,95,0.0,967.3,4.8,40.3,86,31.7,29.3,30.3,574.0,46.0,47.7,3,5,3,1,2026-07-02T03:49:15.441776+05:30
Bhilai,Chhattisgarh,21.1938,81.3509,24.6,96,0.0,967.8,6.3,36.4,77,25.4,23.3,22.7,664.0,54.0,36.3,3,5,7,1,2026-07-02T03:49:15.441782+05:30
Guwahati,Assam,26.1158,91.7086,25.6,98,0.0,996.4,8.6,18.4,39,8.0,8.0,6.2,289.0,47.0,0.9,7,5,7,1,2026-07-02T03:49:15.441789+05:30
Agartala,Tripura,23.8315,91.2868,25.8,96,0.0,1000.7,7.6,28.4,69,19.8,18.4,18.2,157.0,28.0,4.5,7,5,4,1,2026-07-02T03:49:15.441796+05:30
Shillong,Meghalaya,25.5788,91.8933,18.5,98,0.0,852.8,8.0,25.6,29,7.8,7.7,5.6,163.0,53.0,2.6,3,10,7,1,2026-07-02T03:49:15.441803+05:30
Imphal,Manipur,24.817,93.9368,22.9,96,0.1,918.9,7.9,23.4,45,11.7,11.5,9.2,393.0,28.0,2.0,6,5,7,1,2026-07-02T03:49:15.441810+05:30
Aizawl,Mizoram,23.7271,92.7176,20.5,96,0.1,887.9,8.4,19.1,36,14.4,13.4,17.2,143.0,18.0,1.5,6,5,7,1,2026-07-02T03:49:15.441816+05:30
Kohima,Nagaland,25.6701,94.1077,19.2,94,0.0,851.1,8.15,23.4,32,7.5,7.5,11.8,191.0,15.0,0.7,3,10,7,1,2026-07-02T03:49:15.441823+05:30
Gangtok,Sikkim,27.3314,88.6138,18.1,99,0.1,835.1,8.45,32.0,61,18.9,18.2,7.0,438.0,98.0,1.5,6,10,7,1,2026-07-02T03:49:15.441830+05:30
Siliguri,West Bengal,26.7271,88.3953,24.9,95,0.1,988.1,7.65,23.8,108,37.6,36.2,10.5,266.0,89.0,4.4,6,5,7,1,2026-07-02T03:49:18.817255+05:30
Durgapur,West Bengal,23.5204,87.3119,26.0,96,0.0,988.2,8.3,34.9,150,78.5,78.0,35.5,508.0,38.0,35.7,7,5,7,1,2026-07-02T03:49:18.817289+05:30
Asansol,West Bengal,23.6739,86.9524,25.6,97,0.0,986.9,7.35,36.4,147,67.5,67.1,34.7,416.0,49.0,44.9,7,5,7,1,2026-07-02T03:49:18.817300+05:30
Pondicherry,Puducherry,11.9139,79.8145,28.8,60,0.0,1005.4,8.15,40.0,51,18.8,15.8,20.2,357.0,24.0,10.2,4,5,4,1,2026-07-02T03:49:18.817309+05:30
Port Blair,Andaman and Nicobar Islands,11.6234,92.7265,25.6,96,0.0,1003.9,1.75,48.2,32,15.8,9.3,0.2,93.0,71.0,0.5,7,5,0,1,2026-07-02T03:49:18.817317+05:30
Haridwar,Uttarakhand,29.9457,78.1642,25.2,98,0.1,968.5,6.9,26.6,100,37.8,31.8,21.9,247.0,42.0,7.7,10,5,7,1,2026-07-02T03:49:18.817325+05:30
Rishikesh,Uttarakhand,30.0869,78.2676,24.6,96,0.2,961.6,6.9,21.2,69,11.6,6.9,4.8,219.0,98.0,2.6,6,5,7,1,2026-07-02T03:49:18.817333+05:30
Nainital,Uttarakhand,29.3919,79.4542,15.5,99,0.1,801.3,6.95,30.2,70,30.2,20.4,7.8,288.0,88.0,1.8,6,10,7,0,2026-07-02T03:49:18.817340+05:30
Mussoorie,Uttarakhand,30.4599,78.0664,16.4,100,0.1,799.6,6.25,26.3,69,22.6,20.8,24.8,202.0,41.0,7.2,6,10,7,1,2026-07-02T03:49:18.817348+05:30
Dharamshala,Himachal Pradesh,32.219,76.3234,21.4,84,0.0,864.9,7.5,32.4,33,9.1,8.6,15.4,325.0,55.0,0.0,3,5,7,1,2026-07-02T03:49:18.817355+05:30
Dalhousie,Himachal Pradesh,32.5387,75.971,15.8,91,0.1,800.4,7.9,23.4,81,65.4,26.5,17.2,385.0,83.0,3.2,6,10,7,0,2026-07-02T03:49:18.817362+05:30
Patiala,Punjab,30.3398,76.3869,25.1,96,0.2,971.9,2.9,37.8,148,65.2,38.1,16.5,247.0,62.0,10.7,10,5,3,1,2026-07-02T03:49:18.817369+05:30
Bhatinda,Punjab,30.211,74.9455,29.2,73,0.0,976.5,8.3,42.5,1118,575.6,152.7,16.8,319.0,59.0,16.4,7,5,7,1,2026-07-02T03:49:18.817376+05:30
Rohtak,Haryana,28.8955,76.6066,25.6,94,0.1,975.3,7.7,26.3,281,250.5,79.6,32.1,478.0,45.0,21.0,10,5,7,1,2026-07-02T03:49:18.817382+05:30
Panipat,Haryana,29.3909,76.9635,25.2,97,0.1,974.4,6.8,29.2,199,116.9,62.2,27.9,530.0,41.0,13.6,10,5,7,1,2026-07-02T03:49:18.817389+05:30
Mathura,Uttar Pradesh,27.4924,77.6737,26.9,83,0.0,980.1,7.3,23.0,119,51.1,38.0,42.5,372.0,20.0,8.2,7,5,7,1,2026-07-02T03:49:18.817397+05:30
Vrindavan,Uttar Pradesh,27.5823,77.7027,27.5,77,0.0,980.5,7.25,23.8,119,51.1,38.0,42.5,391.0,20.0,8.2,7,5,7,1,2026-07-02T03:49:18.817403+05:30
Ayodhya,Uttar Pradesh,26.7922,82.1998,26.3,96,0.1,989.4,6.7,27.4,133,57.5,54.6,11.2,410.0,98.0,5.4,10,5,7,1,2026-07-02T03:49:18.817410+05:30
Ratlam,Madhya Pradesh,23.3315,75.0367,24.9,94,0.0,948.4,7.25,33.5,60,15.1,14.2,9.8,170.0,47.0,13.3,3,5,7,1,2026-07-02T03:49:18.817417+05:30
Sagar,Madhya Pradesh,23.8388,78.7378,24.6,95,0.0,943.4,7.6,27.4,72,34.2,19.6,8.6,231.0,66.0,1.8,3,5,7,1,2026-07-02T03:49:18.817423+05:30
Satna,Madhya Pradesh,24.6005,80.8322,26.6,90,0.0,964.0,8.7,25.9,82,37.4,24.4,7.9,339.0,73.0,3.8,7,5,7,1,2026-07-02T03:49:18.817430+05:30
Akola,Maharashtra,20.7002,77.0082,25.4,94,0.1,969.2,2.15,38.5,39,5.4,4.9,9.3,132.0,45.0,5.7,10,5,3,1,2026-07-02T03:49:18.817438+05:30
Amravati,Maharashtra,20.9374,77.7796,24.9,97,0.0,961.1,2.15,37.8,45,6.6,6.1,9.7,154.0,48.0,6.3,3,5,3,1,2026-07-02T03:49:18.817445+05:30
Latur,Maharashtra,18.4088,76.5604,22.9,95,0.5,935.0,1.9,47.2,21,3.2,2.8,5.8,141.0,40.0,2.2,6,5,3,1,2026-07-02T03:49:18.817452+05:30
Nanded,Maharashtra,19.1383,77.3091,24.2,93,0.4,963.4,1.6,34.2,23,4.8,4.1,6.1,130.0,43.0,2.5,6,5,3,1,2026-07-02T03:49:18.817459+05:30
Gulbarga,Karnataka,17.3297,76.8343,24.1,87,0.1,954.6,4.9,56.9,18,2.3,2.1,7.1,138.0,37.0,2.8,6,5,3,1,2026-07-02T03:49:18.817465+05:30
Bidar,Karnataka,17.9104,77.5199,23.3,89,0.0,930.7,2.7,43.9,19,3.6,2.9,5.8,130.0,38.0,1.8,3,5,3,1,2026-07-02T03:49:18.817472+05:30
Hospet,Karnataka,15.2689,76.3909,23.2,91,0.0,953.1,5.55,55.8,19,1.4,1.3,3.8,104.0,42.0,1.3,3,5,3,1,2026-07-02T03:49:18.817478+05:30
Tirupur,Tamil Nadu,11.1085,77.3411,23.7,89,0.0,973.5,8.5,57.2,37,10.0,8.7,13.4,141.0,27.0,3.8,3,5,7,1,2026-07-02T03:49:18.817484+05:30
Alappuzha,Kerala,9.4981,76.3388,25.5,93,0.0,1009.2,8.5,46.4,48,18.2,11.7,9.0,83.0,32.0,3.8,7,0,4,1,2026-07-02T03:49:18.817491+05:30
Munnar,Kerala,10.0889,77.0595,16.3,100,0.0,855.7,8.4,44.6,20,4.4,3.0,3.4,90.0,30.0,0.9,3,10,7,1,2026-07-02T03:49:18.817498+05:30
Silchar,Assam,24.8333,92.7789,25.5,99,0.0,999.9,7.85,18.0,62,45.8,45.5,27.9,258.0,12.0,5.2,7,5,7,1,2026-07-02T03:49:18.817505+05:30
Dibrugarh,Assam,27.4728,94.912,26.2,99,0.0,989.6,8.75,17.3,63,12.9,12.7,10.8,194.0,37.0,0.9,7,5,7,1,2026-07-02T03:49:18.817511+05:30
