city,state,latitude,longitude,temp,humidity,rain,pressure,uv_index,wind_gusts,aqi,pm10,pm2_5,mosquito_risk,arthritis_risk,migraine_risk,frizz_risk,updated_at
Delhi,Delhi,28.6139,77.209,35.2,18,0.0,981.7,6.15,30.2,198,373.5,57.7,0,5,10,0,2026-03-12T15:19:02.999339+05:30
Mumbai,Maharashtra,19.076,72.8777,27.9,87,0.0,1006.7,7.6,27.7,203,105.5,100.4,7,5,4,1,2026-03-12T15:19:02.999379+05:30
Bangalore,Karnataka,12.9716,77.5946,32.9,20,0.0,911.4,9.3,32.8,69,18.3,14.8,0,5,7,0,2026-03-12T15:19:02.999395+05:30
Hyderabad,Telangana,17.385,78.4867,36.3,19,0.0,952.7,8.65,23.4,102,31.5,21.8,0,5,10,0,2026-03-12T15:19:02.999405+05:30
Chennai,Tamil Nadu,13.0827,80.2707,32.8,51,0.0,1006.8,9.0,29.5,76,29.9,25.3,0,5,4,1,2026-03-12T15:19:02.999414+05:30
Kolkata,West Bengal,22.5726,88.3639,29.5,67,0.0,1005.3,8.0,20.9,132,72.6,60.8,7,5,4,1,2026-03-12T15:19:02.999423+05:30
Pune,Maharashtra,18.5204,73.8567,38.2,17,0.0,947.9,8.15,25.9,148,28.3,24.2,0,5,10,0,2026-03-12T15:19:02.999437+05:30
Ahmedabad,Gujarat,23.0225,72.5714,39.1,11,0.0,1001.6,7.45,30.6,69,18.1,12.6,0,5,7,0,2026-03-12T15:19:02.999444+05:30
Jaipur,Rajasthan,26.9124,75.7873,35.3,9,0.0,959.6,5.95,42.8,104,170.9,23.1,0,5,6,1,2026-03-12T15:19:02.999452+05:30
Lucknow,Uttar Pradesh,26.8467,80.9462,35.1,26,0.0,992.2,6.5,28.1,154,199.8,48.0,0,5,10,0,2026-03-12T15:19:02.999460+05:30
Kanpur,Uttar Pradesh,26.4499,80.3319,34.5,36,0.0,990.6,5.9,18.0,173,319.4,44.5,0,5,3,1,2026-03-12T15:19:02.999467+05:30
Chandigarh,Chandigarh,30.7333,76.7794,31.1,38,0.0,967.9,6.05,32.0,99,64.0,20.8,0,5,7,0,2026-03-12T15:19:02.999474+05:30
Srinagar,Jammu and Kashmir,34.0837,74.7973,13.0,79,0.0,840.1,6.35,22.3,101,3.9,3.9,3,5,7,0,2026-03-12T15:19:02.999482+05:30
Jammu,Jammu and Kashmir,32.7266,74.857,26.6,56,0.0,974.1,6.35,39.6,82,63.6,23.7,4,5,7,1,2026-03-12T15:19:02.999489+05:30
Amritsar,Punjab,31.634,74.8723,27.7,54,0.0,981.6,6.65,32.4,157,85.2,39.0,4,5,7,1,2026-03-12T15:19:02.999496+05:30
Ludhiana,Punjab,30.901,75.8573,30.8,38,0.0,978.5,6.2,59.4,157,43.4,23.5,0,5,7,0,2026-03-12T15:19:02.999502+05:30
Jalandhar,Punjab,31.326,75.5762,29.8,43,0.0,980.0,6.45,31.7,152,75.9,27.7,4,5,7,0,2026-03-12T15:19:02.999511+05:30
Dehradun,Uttarakhand,30.6284,78.0322,21.7,42,0.0,831.6,5.7,37.1,58,37.3,12.7,0,5,3,0,2026-03-12T15:19:02.999518+05:30
Shimla,Himachal Pradesh,31.1048,77.1734,19.9,40,0.0,786.5,6.5,42.5,70,47.0,14.4,0,5,7,0,2026-03-12T15:19:02.999524+05:30
Manali,Himachal Pradesh,32.2396,77.1887,13.4,92,0.3,819.3,4.0,44.6,46,10.3,3.7,6,10,3,0,2026-03-12T15:19:02.999531+05:30
Gurgaon,Haryana,28.4595,77.0266,35.2,17,0.0,980.2,6.15,31.0,882,1672.7,162.1,0,5,10,0,2026-03-12T15:19:02.999537+05:30
Noida,Uttar Pradesh,28.5355,77.391,35.8,16,0.0,983.1,6.05,29.9,882,1672.7,162.1,0,5,10,0,2026-03-12T15:19:02.999546+05:30
Ghaziabad,Uttar Pradesh,28.6692,77.4538,34.6,21,0.0,981.4,6.1,26.3,156,276.6,50.9,0,5,7,0,2026-03-12T15:19:02.999554+05:30
Faridabad,Haryana,28.4089,77.3178,36.0,12,0.0,982.2,6.2,29.9,882,1672.7,162.1,0,5,10,0,2026-03-12T15:19:02.999560+05:30
Meerut,Uttar Pradesh,28.9845,77.7064,34.2,26,0.0,980.3,6.0,24.5,156,276.6,50.9,0,5,3,0,2026-03-12T15:19:02.999566+05:30
Agra,Uttar Pradesh,27.1767,78.0081,38.1,10,0.0,986.1,6.15,31.7,488,888.5,85.2,0,5,10,0,2026-03-12T15:19:02.999573+05:30
Varanasi,Uttar Pradesh,25.3176,82.9739,34.7,29,0.0,996.2,7.3,23.8,151,146.7,36.6,0,5,7,0,2026-03-12T15:19:02.999582+05:30
Prayagraj,Uttar Pradesh,25.4358,81.8463,35.2,31,0.0,994.6,6.6,23.0,150,127.1,32.4,0,5,10,0,2026-03-12T15:19:02.999589+05:30
Gorakhpur,Uttar Pradesh,26.7606,83.3732,32.7,39,0.0,995.5,7.0,18.4,228,169.0,82.0,0,5,7,1,2026-03-12T15:19:02.999595+05:30
Bareilly,Uttar Pradesh,28.367,79.4304,33.8,34,0.0,985.2,6.25,23.4,126,63.6,42.8,0,5,7,0,2026-03-12T15:19:02.999602+05:30
Aligarh,Uttar Pradesh,27.8974,78.088,37.1,13,0.0,983.7,5.95,29.9,496,890.3,111.1,0,5,6,0,2026-03-12T15:19:02.999611+05:30
Moradabad,Uttar Pradesh,28.8386,78.7733,33.9,29,0.0,982.2,6.05,26.3,125,86.1,49.7,0,5,7,0,2026-03-12T15:19:02.999620+05:30
Saharanpur,Uttar Pradesh,29.9637,77.546,32.2,36,0.0,974.7,5.3,24.8,150,79.4,42.1,0,5,3,0,2026-03-12T15:19:02.999626+05:30
Jhansi,Uttar Pradesh,25.4484,78.5685,38.4,14,0.0,976.8,6.65,29.9,64,22.6,9.1,0,5,10,0,2026-03-12T15:19:06.263810+05:30
Surat,Gujarat,21.1702,72.8311,35.2,37,0.0,1006.1,7.3,26.3,149,44.1,42.8,0,5,7,1,2026-03-12T15:19:06.263841+05:30
Vadodara,Gujarat,22.3072,73.1812,40.4,14,0.0,1003.3,7.45,26.6,78,25.5,23.3,0,5,7,0,2026-03-12T15:19:06.263851+05:30
Rajkot,Gujarat,22.3039,70.8022,37.8,13,0.0,994.2,7.3,31.3,57,31.8,14.9,0,5,10,0,2026-03-12T15:19:06.263859+05:30
Thane,Maharashtra,19.2183,72.9781,32.1,56,0.0,1006.7,7.6,41.4,203,105.5,100.4,0,5,4,1,2026-03-12T15:19:06.263866+05:30
Nagpur,Maharashtra,21.1458,79.0882,37.9,13,0.0,972.0,8.0,16.6,88,36.3,19.2,0,5,10,0,2026-03-12T15:19:06.263874+05:30
Nashik,Maharashtra,19.9975,73.7898,37.1,15,0.0,945.2,7.8,33.8,105,14.2,11.5,0,5,10,0,2026-03-12T15:19:06.263881+05:30
Aurangabad,Maharashtra,19.8762,75.3433,37.4,16,0.0,943.6,8.35,20.5,106,23.5,17.9,0,5,10,0,2026-03-12T15:19:06.263888+05:30
Solapur,Maharashtra,17.6599,75.9064,35.9,24,0.0,956.6,8.5,18.0,103,33.8,27.2,0,5,10,0,2026-03-12T15:19:06.263895+05:30
Kolhapur,Maharashtra,16.705,74.2433,35.7,20,0.0,947.4,8.65,27.7,152,31.7,26.0,0,5,10,0,2026-03-12T15:19:06.263902+05:30
Goa,Goa,15.2993,74.124,31.6,67,0.0,995.9,8.7,33.5,149,47.5,41.1,3,5,7,1,2026-03-12T15:19:06.263909+05:30
Jodhpur,Rajasthan,26.2389,73.0243,37.3,18,0.0,982.6,6.65,25.9,68,85.4,19.8,0,5,10,0,2026-03-12T15:19:06.263917+05:30
Udaipur,Rajasthan,24.5854,73.7125,35.3,8,0.0,947.3,7.5,38.5,60,9.0,8.1,0,5,10,1,2026-03-12T15:19:06.263924+05:30
Kota,Rajasthan,25.2138,75.8648,38.1,8,0.0,978.2,6.75,34.2,75,10.5,10.0,0,5,10,1,2026-03-12T15:19:06.263931+05:30
Bikaner,Rajasthan,28.0229,73.3119,35.8,21,0.0,981.4,6.2,28.4,92,84.3,25.3,0,5,10,0,2026-03-12T15:19:06.263938+05:30
Ajmer,Rajasthan,26.4499,74.6399,35.0,12,0.0,954.8,6.7,34.2,55,22.3,9.5,0,5,7,0,2026-03-12T15:19:06.263945+05:30
Gwalior,Madhya Pradesh,26.2183,78.1828,36.2,14,0.0,982.4,6.25,33.8,66,21.7,8.5,0,5,10,0,2026-03-12T15:19:06.263952+05:30
Indore,Madhya Pradesh,22.7196,75.8577,36.4,15,0.0,948.4,7.75,29.2,74,19.3,12.0,0,5,10,0,2026-03-12T15:19:06.263959+05:30
Bhopal,Madhya Pradesh,23.2599,77.4126,36.4,17,0.0,953.7,7.6,28.8,78,19.6,12.5,0,5,10,0,2026-03-12T15:19:06.263966+05:30
Jabalpur,Madhya Pradesh,23.1815,79.9864,35.9,18,0.0,961.0,7.65,20.5,88,31.8,11.1,0,5,10,0,2026-03-12T15:19:06.263973+05:30
Ujjain,Madhya Pradesh,23.1765,75.7885,35.9,18,0.0,954.1,7.65,27.7,96,15.1,12.3,0,5,10,0,2026-03-12T15:19:06.263980+05:30
Visakhapatnam,Andhra Pradesh,17.6868,83.2185,31.8,57,0.0,1002.6,8.65,40.3,87,37.5,33.3,0,5,4,1,2026-03-12T15:19:06.263987+05:30
Vijayawada,Andhra Pradesh,16.5062,80.648,37.6,26,0.0,1000.7,8.7,33.1,71,31.5,26.4,0,5,7,0,2026-03-12T15:19:06.263994+05:30
Guntur,Andhra Pradesh,16.3067,80.4365,37.7,29,0.0,1001.9,8.7,36.0,68,31.5,25.1,0,5,7,1,2026-03-12T15:19:06.264000+05:30
Nellore,Andhra Pradesh,14.4426,79.9865,36.4,33,0.0,1004.6,8.9,28.1,68,34.0,28.9,0,5,7,1,2026-03-12T15:19:06.264007+05:30
Kurnool,Andhra Pradesh,15.8281,78.0373,38.0,19,0.0,975.6,8.65,25.9,75,28.2,20.9,0,5,10,0,2026-03-12T15:19:06.264014+05:30
Kakinada,Andhra Pradesh,16.9891,82.2475,37.2,34,0.0,1005.2,8.65,41.0,70,28.1,23.2,0,5,7,1,2026-03-12T15:19:06.264021+05:30
Tirupati,Andhra Pradesh,13.6288,79.4192,35.7,26,0.0,990.4,9.05,36.4,90,27.8,24.0,0,5,10,0,2026-03-12T15:19:06.264028+05:30
Warangal,Telangana,17.9689,79.5941,36.7,23,0.0,977.6,8.45,11.9,108,44.1,31.5,0,5,10,0,2026-03-12T15:19:06.264034+05:30
Nizamabad,Telangana,18.6725,78.0941,36.5,22,0.0,963.9,8.35,19.8,108,34.3,26.3,0,5,10,0,2026-03-12T15:19:06.264041+05:30
Mysore,Karnataka,12.2958,76.6396,33.0,22,0.0,927.8,9.3,34.9,64,12.7,10.9,0,5,7,0,2026-03-12T15:19:06.264048+05:30
Mangalore,Karnataka,12.9141,74.856,28.9,85,0.0,1003.5,8.95,32.8,103,42.5,36.0,7,5,4,1,2026-03-12T15:19:06.264054+05:30
Hubli-Dharwad,Karnataka,15.3647,75.124,35.9,19,0.0,940.1,8.85,35.6,69,20.2,16.5,0,5,10,0,2026-03-12T15:19:06.264061+05:30
Belgaum,Karnataka,15.8497,74.4977,34.9,19,0.0,925.6,8.9,37.4,109,23.9,20.1,0,5,7,0,2026-03-12T15:19:09.530232+05:30
Coimbatore,Tamil Nadu,11.0168,76.9558,34.6,25,0.0,960.2,9.3,44.3,74,15.0,13.6,0,5,7,0,2026-03-12T15:19:09.530264+05:30
Madurai,Tamil Nadu,9.9252,78.1198,36.0,32,0.0,990.6,9.2,32.0,72,18.9,16.9,0,5,10,1,2026-03-12T15:19:09.530274+05:30
Trichy,Tamil Nadu,10.7905,78.7047,34.7,41,0.0,997.9,9.15,28.1,79,25.1,23.4,0,5,7,1,2026-03-12T15:19:09.530282+05:30
Salem,Tamil Nadu,11.6643,78.146,35.1,34,0.0,975.7,9.2,27.7,75,15.5,14.2,0,5,10,1,2026-03-12T15:19:09.530290+05:30
Tirunelveli,Tamil Nadu,8.7139,77.7567,34.3,44,0.0,1001.2,8.3,27.4,63,15.8,13.7,0,5,4,1,2026-03-12T15:19:09.530297+05:30
Vellore,Tamil Nadu,12.9165,79.1325,35.1,27,0.0,983.5,9.1,36.4,94,17.7,15.8,0,5,10,0,2026-03-12T15:19:09.530304+05:30
Erode,Tamil Nadu,11.341,77.7172,36.0,33,0.0,987.2,9.2,24.5,75,21.0,19.4,0,5,10,1,2026-03-12T15:19:09.530311+05:30
Kochi,Kerala,9.9312,76.2673,29.2,76,0.0,1005.8,9.05,35.6,94,32.1,30.0,7,5,4,1,2026-03-12T15:19:09.530318+05:30
Thiruvananthapuram,Kerala,8.5241,76.9366,28.8,75,0.0,1005.9,8.95,25.9,89,18.8,17.0,7,5,4,1,2026-03-12T15:19:09.530325+05:30
Kozhikode,Kerala,11.2588,75.7804,30.7,68,0.0,1005.0,9.0,31.7,100,42.3,38.1,3,5,4,1,2026-03-12T15:19:09.530331+05:30
Thrissur,Kerala,10.5276,76.2144,32.5,62,0.0,1004.2,9.05,39.2,98,18.5,16.8,3,5,4,1,2026-03-12T15:19:09.530338+05:30
Kannur,Kerala,11.8745,75.3704,31.4,67,0.0,1004.3,9.0,34.9,100,32.7,28.9,3,5,4,1,2026-03-12T15:19:09.530345+05:30
Patna,Bihar,25.5941,85.1376,33.7,36,0.0,998.9,7.45,22.0,238,163.0,117.1,0,5,7,1,2026-03-12T15:19:09.530351+05:30
Gaya,Bihar,24.7914,85.0002,33.5,30,0.0,992.7,7.6,21.6,193,175.6,52.7,0,5,7,0,2026-03-12T15:19:09.530358+05:30
Muzaffarpur,Bihar,26.1209,85.3647,33.0,42,0.0,998.9,7.45,25.6,244,166.7,137.4,0,5,7,1,2026-03-12T15:19:09.530364+05:30
Bhagalpur,Bihar,25.2425,87.0117,29.9,63,0.0,1000.3,7.5,33.5,186,97.1,88.5,7,5,4,1,2026-03-12T15:19:09.530370+05:30
Ranchi,Jharkhand,23.3441,85.3096,32.1,22,0.0,937.5,8.2,33.8,165,118.7,29.9,0,5,7,0,2026-03-12T15:19:09.530377+05:30
Jamshedpur,Jharkhand,22.8046,86.2029,34.2,35,0.0,989.3,8.1,25.6,170,113.2,75.7,0,5,7,1,2026-03-12T15:19:09.530383+05:30
Dhanbad,Jharkhand,23.7957,86.4304,34.2,29,0.0,978.5,8.0,20.9,198,133.6,92.9,0,5,7,0,2026-03-12T15:19:09.530389+05:30
Bokaro,Jharkhand,23.6693,86.1511,34.2,29,0.0,982.5,8.0,23.4,190,126.7,66.1,0,5,7,0,2026-03-12T15:19:09.530396+05:30
Bhubaneswar,Odisha,20.2961,85.8245,36.1,31,0.0,1000.4,8.35,34.2,108,74.7,53.8,0,5,7,1,2026-03-12T15:19:09.530403+05:30
Cuttack,Odisha,20.4625,85.8828,36.4,31,0.0,1002.3,8.35,31.7,108,74.7,53.8,0,5,7,1,2026-03-12T15:19:09.530409+05:30
Rourkela,Odisha,22.2604,84.8536,35.6,28,0.0,983.4,8.0,16.2,158,148.5,36.9,0,5,10,0,2026-03-12T15:19:09.530415+05:30
Raipur,Chhattisgarh,21.2514,81.6296,37.5,15,0.0,973.5,8.1,16.2,164,52.7,24.9,0,5,10,0,2026-03-12T15:19:09.530421+05:30
Bhilai,Chhattisgarh,21.1938,81.3509,37.9,17,0.0,973.8,8.1,11.9,158,54.5,26.5,0,5,10,0,2026-03-12T15:19:09.530427+05:30
Guwahati,Assam,26.1158,91.7086,27.2,74,0.0,1001.5,7.05,24.1,154,73.8,66.8,7,5,4,1,2026-03-12T15:19:09.530434+05:30
Agartala,Tripura,23.8315,91.2868,28.5,69,0.0,1006.0,7.7,19.1,160,70.5,57.6,7,5,4,1,2026-03-12T15:19:09.530440+05:30
Shillong,Meghalaya,25.5788,91.8933,17.8,65,0.0,856.6,6.65,26.3,129,62.2,55.2,3,5,7,0,2026-03-12T15:19:09.530446+05:30
Imphal,Manipur,24.817,93.9368,21.8,69,0.0,923.2,8.0,31.0,171,67.8,61.7,3,5,7,0,2026-03-12T15:19:09.530453+05:30
Aizawl,Mizoram,23.7271,92.7176,23.3,60,0.0,892.9,7.9,37.1,189,113.6,100.1,0,5,7,0,2026-03-12T15:19:09.530460+05:30
Kohima,Nagaland,25.6701,94.1077,17.5,87,0.0,854.9,7.1,41.4,152,68.5,62.9,3,10,7,0,2026-03-12T15:19:09.530467+05:30
Gangtok,Sikkim,27.3314,88.6138,20.7,62,0.0,837.9,7.15,20.2,137,52.4,48.1,3,5,7,0,2026-03-12T15:19:09.530473+05:30
Siliguri,West Bengal,26.7271,88.3953,23.5,79,0.0,993.8,7.35,23.8,176,81.0,74.0,3,5,7,1,2026-03-12T15:19:12.798246+05:30
Durgapur,West Bengal,23.5204,87.3119,31.8,51,0.0,993.8,7.8,26.6,186,88.0,78.2,0,5,7,1,2026-03-12T15:19:12.798278+05:30
Asansol,West Bengal,23.6739,86.9524,31.9,52,0.0,992.3,7.35,29.5,188,131.8,106.4,0,5,7,1,2026-03-12T15:19:12.798288+05:30
Pondicherry,Puducherry,11.9139,79.8145,34.0,50,0.0,1007.3,9.0,29.5,71,24.8,20.5,0,5,4,1,2026-03-12T15:19:12.798297+05:30
Port Blair,Andaman and Nicobar Islands,11.6234,92.7265,28.1,78,0.0,1005.9,8.95,20.5,46,17.0,13.9,7,5,4,1,2026-03-12T15:19:12.798306+05:30
Haridwar,Uttarakhand,29.9457,78.1642,32.5,37,0.0,973.2,5.25,30.2,102,63.3,35.0,0,5,3,0,2026-03-12T15:19:12.798314+05:30
Rishikesh,Uttarakhand,30.0869,78.2676,32.1,34,0.0,966.1,5.4,29.5,81,62.2,29.5,0,5,3,0,2026-03-12T15:19:12.798322+05:30
Nainital,Uttarakhand,29.3919,79.4542,24.4,45,0.0,807.9,6.5,55.1,84,57.2,31.8,0,5,7,0,2026-03-12T15:19:12.798329+05:30
Mussoorie,Uttarakhand,30.4599,78.0664,22.9,39,0.0,804.6,5.95,42.8,85,58.1,22.9,0,5,3,0,2026-03-12T15:19:12.798336+05:30
Dharamshala,Himachal Pradesh,32.219,76.3234,21.5,56,0.0,869.8,6.55,50.8,55,38.9,11.1,0,5,7,0,2026-03-12T15:19:12.798343+05:30
Dalhousie,Himachal Pradesh,32.5387,75.971,19.3,51,0.0,804.7,5.95,36.0,83,52.6,16.7,0,5,3,0,2026-03-12T15:19:12.798351+05:30
Patiala,Punjab,30.3398,76.3869,31.2,43,0.0,977.4,5.75,37.4,161,189.5,38.5,0,5,3,1,2026-03-12T15:19:12.798357+05:30
Bhatinda,Punjab,30.211,74.9455,30.5,49,0.0,983.9,6.45,28.1,155,148.1,54.6,0,5,7,1,2026-03-12T15:19:12.798365+05:30
Rohtak,Haryana,28.8955,76.6066,34.1,23,0.0,980.6,6.1,27.0,333,512.2,69.2,0,5,7,0,2026-03-12T15:19:12.798371+05:30
Panipat,Haryana,29.3909,76.9635,33.4,29,0.0,979.4,5.45,22.3,456,800.9,97.3,0,5,3,0,2026-03-12T15:19:12.798378+05:30
Mathura,Uttar Pradesh,27.4924,77.6737,38.2,9,0.0,985.0,5.35,30.6,447,717.1,80.1,0,5,6,1,2026-03-12T15:19:12.798385+05:30
Vrindavan,Uttar Pradesh,27.5823,77.7027,37.5,11,0.0,985.5,5.25,32.4,447,717.1,80.1,0,5,6,0,2026-03-12T15:19:12.798393+05:30
Ayodhya,Uttar Pradesh,26.7922,82.1998,34.3,28,0.0,993.7,6.45,26.3,158,196.0,54.0,0,5,7,0,2026-03-12T15:19:12.798401+05:30
Ratlam,Madhya Pradesh,23.3315,75.0367,36.3,13,0.0,955.2,7.6,33.1,84,11.3,10.1,0,5,10,0,2026-03-12T15:19:12.798408+05:30
Sagar,Madhya Pradesh,23.8388,78.7378,36.2,14,0.0,950.2,7.5,27.0,79,19.6,9.5,0,5,10,0,2026-03-12T15:19:12.798415+05:30
Satna,Madhya Pradesh,24.6005,80.8322,38.2,11,0.0,970.0,7.55,29.2,76,23.2,9.5,0,5,10,0,2026-03-12T15:19:12.798423+05:30
Akola,Maharashtra,20.7002,77.0082,39.0,17,0.0,973.8,8.05,22.7,96,26.2,15.8,0,5,10,0,2026-03-12T15:19:12.798430+05:30
Amravati,Maharashtra,20.9374,77.7796,38.6,15,0.0,966.2,8.0,16.9,95,25.6,14.3,0,5,10,0,2026-03-12T15:19:12.798438+05:30
Latur,Maharashtra,18.4088,76.5604,35.2,22,0.0,939.6,8.45,19.1,92,29.2,23.6,0,5,10,0,2026-03-12T15:19:12.798445+05:30
Nanded,Maharashtra,19.1383,77.3091,38.8,16,0.0,967.4,8.25,16.2,97,31.3,25.0,0,5,10,0,2026-03-12T15:19:12.798451+05:30
Gulbarga,Karnataka,17.3297,76.8343,37.0,21,0.0,957.7,8.55,18.0,105,29.7,22.6,0,5,10,0,2026-03-12T15:19:12.798457+05:30
Bidar,Karnataka,17.9104,77.5199,35.9,21,0.0,935.1,8.5,19.1,102,31.2,22.6,0,5,10,0,2026-03-12T15:19:12.798464+05:30
Hospet,Karnataka,15.2689,76.3909,35.7,22,0.0,954.9,8.8,32.4,76,27.0,21.5,0,5,10,0,2026-03-12T15:19:12.798470+05:30
Tirupur,Tamil Nadu,11.1085,77.3411,35.9,24,0.0,973.6,9.3,32.8,81,21.5,20.0,0,5,10,0,2026-03-12T15:19:12.798476+05:30
Alappuzha,Kerala,9.4981,76.3388,28.8,79,0.0,1006.3,8.9,32.0,99,27.9,25.8,7,5,4,1,2026-03-12T15:19:12.798483+05:30
Munnar,Kerala,10.0889,77.0595,30.8,35,0.0,857.7,9.5,23.0,74,14.5,12.7,0,5,7,0,2026-03-12T15:19:12.798490+05:30
Silchar,Assam,24.8333,92.7789,28.9,65,0.0,1004.5,7.7,23.8,184,96.6,84.8,7,5,4,1,2026-03-12T15:19:12.798497+05:30
Dibrugarh,Assam,27.4728,94.912,25.5,73,0.0,996.6,6.3,20.2,156,79.4,72.4,7,5,7,1,2026-03-12T15:19:12.798503+05:30
