city,state,latitude,longitude,temp,humidity,rain,pressure,uv_index,wind_gusts,aqi,pm10,pm2_5,no2,co,o3,so2,mosquito_risk,arthritis_risk,migraine_risk,frizz_risk,updated_at
Delhi,Delhi,28.6139,77.209,40.2,31,0.0,978.6,7.75,31.0,162,174.2,55.4,4.0,298.0,180.0,14.8,0,5,10,1,2026-06-26T13:29:31.165879+05:30
Mumbai,Maharashtra,19.076,72.8777,29.5,75,0.0,1007.0,7.25,34.2,61,43.7,25.8,6.0,188.0,116.0,13.9,7,5,4,1,2026-06-26T13:29:31.165950+05:30
Bangalore,Karnataka,12.9716,77.5946,29.2,53,0.1,911.2,8.75,49.3,32,11.7,6.8,1.9,210.0,81.0,2.4,7,5,7,1,2026-06-26T13:29:31.165971+05:30
Hyderabad,Telangana,17.385,78.4867,27.0,71,0.0,949.9,7.2,42.1,58,37.6,21.8,5.6,287.0,100.0,5.5,7,5,7,1,2026-06-26T13:29:31.165982+05:30
Chennai,Tamil Nadu,13.0827,80.2707,36.7,40,0.0,1004.0,8.7,44.6,60,34.5,23.4,5.6,240.0,124.0,9.3,0,5,7,1,2026-06-26T13:29:31.165993+05:30
Kolkata,West Bengal,22.5726,88.3639,32.5,71,0.2,1002.6,8.9,23.4,102,30.4,23.6,2.0,246.0,140.0,9.9,6,5,4,1,2026-06-26T13:29:31.166002+05:30
Pune,Maharashtra,18.5204,73.8567,29.6,57,0.0,946.9,7.45,38.9,39,12.9,7.7,2.0,129.0,84.0,5.1,4,5,7,1,2026-06-26T13:29:31.166012+05:30
Ahmedabad,Gujarat,23.0225,72.5714,37.9,31,0.0,998.6,8.05,33.8,72,59.8,21.3,1.4,132.0,89.0,3.4,0,5,10,1,2026-06-26T13:29:31.166020+05:30
Jaipur,Rajasthan,26.9124,75.7873,37.3,36,0.0,957.1,8.2,28.1,108,131.8,34.9,0.7,145.0,109.0,2.9,0,5,10,1,2026-06-26T13:29:31.166028+05:30
Lucknow,Uttar Pradesh,26.8467,80.9462,41.5,31,0.0,988.6,8.3,29.9,139,116.6,44.9,0.9,227.0,169.0,6.7,0,5,10,1,2026-06-26T13:29:31.166044+05:30
Kanpur,Uttar Pradesh,26.4499,80.3319,42.2,28,0.0,986.8,8.3,28.4,127,130.4,44.7,1.3,190.0,165.0,6.5,0,5,10,1,2026-06-26T13:29:31.166053+05:30
Chandigarh,Chandigarh,30.7333,76.7794,37.1,39,0.0,965.3,7.8,19.1,152,218.9,63.8,1.8,277.0,190.0,13.2,0,5,10,1,2026-06-26T13:29:31.166061+05:30
Srinagar,Jammu and Kashmir,34.0837,74.7973,29.6,41,0.0,843.5,9.05,21.2,81,16.3,13.8,0.9,307.0,165.0,3.1,4,5,7,0,2026-06-26T13:29:31.166070+05:30
Jammu,Jammu and Kashmir,32.7266,74.857,37.7,36,0.0,969.4,8.65,24.1,121,89.6,38.6,1.0,238.0,174.0,4.1,0,5,10,1,2026-06-26T13:29:31.166084+05:30
Amritsar,Punjab,31.634,74.8723,35.0,53,0.0,977.0,8.45,20.5,152,183.9,59.3,1.0,268.0,162.0,5.3,0,5,7,1,2026-06-26T13:29:31.166092+05:30
Ludhiana,Punjab,30.901,75.8573,38.8,34,0.0,974.8,7.6,23.4,160,255.2,72.4,1.5,285.0,173.0,10.0,0,5,10,1,2026-06-26T13:29:31.166101+05:30
Jalandhar,Punjab,31.326,75.5762,38.0,35,0.0,975.9,8.25,26.3,151,229.6,61.9,1.0,332.0,162.0,6.0,0,5,10,1,2026-06-26T13:29:31.166108+05:30
Dehradun,Uttarakhand,30.6284,78.0322,24.3,61,0.1,831.7,7.65,31.0,80,42.5,18.5,0.7,228.0,149.0,1.9,6,5,7,1,2026-06-26T13:29:31.166117+05:30
Shimla,Himachal Pradesh,31.1048,77.1734,19.6,69,0.1,785.1,7.7,33.8,89,71.0,27.3,0.7,237.0,159.0,3.4,6,5,7,0,2026-06-26T13:29:31.166125+05:30
Manali,Himachal Pradesh,32.2396,77.1887,25.9,56,0.1,821.4,7.35,35.6,63,18.9,15.5,10.2,174.0,132.0,0.6,7,5,7,1,2026-06-26T13:29:31.166137+05:30
Gurgaon,Haryana,28.4595,77.0266,39.0,34,0.0,977.5,7.85,25.2,155,188.6,51.5,3.4,219.0,162.0,11.4,0,5,10,1,2026-06-26T13:29:31.166147+05:30
Noida,Uttar Pradesh,28.5355,77.391,38.7,38,0.0,980.1,7.8,22.0,155,188.6,51.5,3.4,279.0,162.0,11.4,0,5,10,1,2026-06-26T13:29:31.166154+05:30
Ghaziabad,Uttar Pradesh,28.6692,77.4538,38.5,38,0.0,978.6,7.8,18.4,161,118.5,46.8,4.6,264.0,220.0,29.2,0,5,10,1,2026-06-26T13:29:31.166161+05:30
Faridabad,Haryana,28.4089,77.3178,39.4,34,0.0,979.5,7.8,29.2,155,188.6,51.5,3.4,233.0,162.0,11.4,0,5,10,1,2026-06-26T13:29:31.166168+05:30
Meerut,Uttar Pradesh,28.9845,77.7064,38.1,37,0.0,977.4,7.6,24.8,161,118.5,46.8,4.6,225.0,220.0,29.2,0,5,10,1,2026-06-26T13:29:31.166175+05:30
Agra,Uttar Pradesh,27.1767,78.0081,39.3,35,0.0,983.7,8.1,27.0,174,134.1,36.3,1.1,172.0,143.0,3.3,0,5,10,1,2026-06-26T13:29:31.166182+05:30
Varanasi,Uttar Pradesh,25.3176,82.9739,40.1,38,0.0,992.8,8.45,24.8,98,47.0,27.6,1.4,240.0,172.0,8.4,0,5,10,1,2026-06-26T13:29:31.166190+05:30
Prayagraj,Uttar Pradesh,25.4358,81.8463,39.6,38,0.0,991.2,8.65,31.3,120,68.7,34.2,1.4,175.0,170.0,9.0,0,5,10,1,2026-06-26T13:29:31.166197+05:30
Gorakhpur,Uttar Pradesh,26.7606,83.3732,36.8,46,0.0,992.9,8.7,25.2,153,75.9,48.7,1.8,308.0,199.0,9.8,0,5,10,1,2026-06-26T13:29:31.166204+05:30
Bareilly,Uttar Pradesh,28.367,79.4304,38.8,33,0.0,982.4,8.1,22.3,157,96.4,39.3,1.2,201.0,193.0,11.5,0,5,10,1,2026-06-26T13:29:31.166214+05:30
Aligarh,Uttar Pradesh,27.8974,78.088,38.0,40,0.0,981.4,7.95,22.3,156,105.5,34.5,1.4,208.0,150.0,8.8,0,5,10,1,2026-06-26T13:29:31.166222+05:30
Moradabad,Uttar Pradesh,28.8386,78.7733,38.8,34,0.0,979.4,7.95,29.9,155,146.7,50.6,1.8,221.0,200.0,16.5,0,5,10,1,2026-06-26T13:29:31.166228+05:30
Saharanpur,Uttar Pradesh,29.9637,77.546,36.9,38,0.0,971.9,7.55,20.9,151,249.6,68.9,1.5,245.0,181.0,14.9,0,5,10,1,2026-06-26T13:29:31.166235+05:30
Jhansi,Uttar Pradesh,25.4484,78.5685,37.7,38,0.0,974.3,8.35,29.9,72,100.4,35.0,1.2,151.0,132.0,9.7,0,5,10,1,2026-06-26T13:29:34.389526+05:30
Surat,Gujarat,21.1702,72.8311,34.3,52,0.0,1004.1,7.25,42.8,84,83.1,35.5,13.5,434.0,66.0,47.7,0,5,4,1,2026-06-26T13:29:34.389560+05:30
Vadodara,Gujarat,22.3072,73.1812,38.4,32,0.0,1000.8,8.0,45.0,81,65.9,25.0,1.7,131.0,98.0,5.4,0,5,7,1,2026-06-26T13:29:34.389570+05:30
Rajkot,Gujarat,22.3039,70.8022,37.8,31,0.0,991.1,7.55,41.8,66,69.8,24.2,1.0,103.0,90.0,4.0,0,5,10,1,2026-06-26T13:29:34.389580+05:30
Thane,Maharashtra,19.2183,72.9781,31.4,69,0.0,1006.1,6.5,31.7,61,43.7,25.8,6.0,210.0,116.0,13.9,3,5,4,1,2026-06-26T13:29:34.389588+05:30
Nagpur,Maharashtra,21.1458,79.0882,33.1,58,0.1,969.2,8.85,24.5,82,32.8,25.4,10.8,219.0,130.0,42.0,3,5,7,1,2026-06-26T13:29:34.389596+05:30
Nashik,Maharashtra,19.9975,73.7898,30.3,57,0.1,944.0,7.9,41.4,55,30.7,13.6,1.0,126.0,88.0,2.7,3,5,7,1,2026-06-26T13:29:34.389603+05:30
Aurangabad,Maharashtra,19.8762,75.3433,30.9,56,0.0,941.9,8.7,37.1,62,50.4,18.5,0.8,121.0,91.0,2.4,0,5,7,1,2026-06-26T13:29:34.389610+05:30
Solapur,Maharashtra,17.6599,75.9064,32.9,43,0.0,955.1,5.65,37.4,48,53.9,18.7,0.9,117.0,94.0,2.7,0,5,3,1,2026-06-26T13:29:34.389618+05:30
Kolhapur,Maharashtra,16.705,74.2433,27.5,72,0.0,947.3,8.2,44.6,31,13.8,7.3,1.3,118.0,72.0,1.5,7,5,7,1,2026-06-26T13:29:34.389627+05:30
Goa,Goa,15.2993,74.124,29.1,79,0.1,998.0,6.55,32.8,53,12.3,6.1,0.6,117.0,61.0,1.0,10,5,7,1,2026-06-26T13:29:34.389635+05:30
Jodhpur,Rajasthan,26.2389,73.0243,37.7,39,0.0,979.7,8.4,30.2,108,155.5,38.9,0.6,112.0,88.0,3.5,0,5,10,1,2026-06-26T13:29:34.389642+05:30
Udaipur,Rajasthan,24.5854,73.7125,34.4,39,0.0,944.3,7.85,36.0,75,66.1,22.9,0.6,111.0,87.0,2.7,0,5,7,1,2026-06-26T13:29:34.389649+05:30
Kota,Rajasthan,25.2138,75.8648,37.2,41,0.0,975.7,7.6,32.0,82,75.4,30.6,0.6,159.0,110.0,3.6,0,5,10,1,2026-06-26T13:29:34.389657+05:30
Bikaner,Rajasthan,28.0229,73.3119,40.1,30,0.0,977.8,8.45,31.0,121,269.2,59.5,0.4,127.0,88.0,3.3,0,5,10,1,2026-06-26T13:29:34.389663+05:30
Ajmer,Rajasthan,26.4499,74.6399,35.4,41,0.0,952.4,8.25,29.5,90,122.0,38.5,0.4,133.0,93.0,1.9,0,5,10,1,2026-06-26T13:29:34.389671+05:30
Gwalior,Madhya Pradesh,26.2183,78.1828,39.0,35,0.0,979.4,8.25,31.7,76,117.3,37.0,0.5,146.0,123.0,3.3,0,5,10,1,2026-06-26T13:29:34.389701+05:30
Indore,Madhya Pradesh,22.7196,75.8577,32.7,53,0.1,945.3,7.55,37.1,105,67.1,30.3,1.1,189.0,108.0,5.8,3,5,7,1,2026-06-26T13:29:34.389710+05:30
Bhopal,Madhya Pradesh,23.2599,77.4126,32.5,57,0.0,951.1,8.6,25.9,87,75.0,37.6,1.1,252.0,122.0,5.2,0,5,7,1,2026-06-26T13:29:34.389717+05:30
Jabalpur,Madhya Pradesh,23.1815,79.9864,35.6,55,0.2,960.1,8.85,21.6,66,28.8,18.2,0.9,179.0,123.0,2.4,3,5,10,1,2026-06-26T13:29:34.389724+05:30
Ujjain,Madhya Pradesh,23.1765,75.7885,31.6,54,0.1,950.1,6.75,46.1,95,64.7,28.9,0.6,150.0,104.0,4.5,3,5,7,1,2026-06-26T13:29:34.389732+05:30
Visakhapatnam,Andhra Pradesh,17.6868,83.2185,32.7,66,0.0,999.0,8.65,29.2,88,41.0,28.6,6.3,344.0,150.0,29.0,3,5,7,1,2026-06-26T13:29:34.389739+05:30
Vijayawada,Andhra Pradesh,16.5062,80.648,33.9,55,0.0,998.4,8.6,38.2,80,22.2,15.3,1.6,175.0,115.0,4.1,0,5,7,1,2026-06-26T13:29:34.389746+05:30
Guntur,Andhra Pradesh,16.3067,80.4365,33.3,54,0.0,999.4,8.0,49.7,82,19.8,13.9,1.4,159.0,108.0,3.3,0,5,7,1,2026-06-26T13:29:34.389754+05:30
Nellore,Andhra Pradesh,14.4426,79.9865,36.6,41,0.0,1002.2,7.95,40.0,48,20.0,11.7,1.8,119.0,100.0,5.5,0,5,7,1,2026-06-26T13:29:34.389762+05:30
Kurnool,Andhra Pradesh,15.8281,78.0373,33.8,45,0.0,974.3,6.5,48.6,44,32.1,16.2,2.1,125.0,94.0,7.7,0,5,7,1,2026-06-26T13:29:34.389770+05:30
Kakinada,Andhra Pradesh,16.9891,82.2475,35.4,50,0.0,1002.7,8.3,32.4,60,32.8,22.7,1.9,198.0,139.0,3.9,0,5,7,1,2026-06-26T13:29:34.389778+05:30
Tirupati,Andhra Pradesh,13.6288,79.4192,36.8,36,0.0,988.0,8.4,37.1,45,20.2,9.3,0.3,105.0,77.0,1.1,0,5,10,1,2026-06-26T13:29:34.389785+05:30
Warangal,Telangana,17.9689,79.5941,31.9,61,0.0,975.4,7.6,36.7,66,31.3,23.2,1.9,171.0,118.0,6.7,3,5,7,1,2026-06-26T13:29:34.389792+05:30
Nizamabad,Telangana,18.6725,78.0941,27.7,69,0.1,961.2,6.15,41.8,70,56.0,29.1,1.8,150.0,100.0,3.9,10,5,7,1,2026-06-26T13:29:34.389799+05:30
Mysore,Karnataka,12.2958,76.6396,27.7,62,0.0,927.6,9.05,44.6,27,9.2,5.1,1.2,122.0,78.0,1.5,7,5,7,1,2026-06-26T13:29:34.389806+05:30
Mangalore,Karnataka,12.9141,74.856,28.5,77,0.0,1007.3,8.45,33.5,49,13.6,7.5,0.9,105.0,73.0,2.0,7,5,4,1,2026-06-26T13:29:34.389814+05:30
Hubli-Dharwad,Karnataka,15.3647,75.124,28.9,64,0.0,940.4,8.05,47.9,22,10.9,5.4,1.2,109.0,65.0,1.1,7,5,7,1,2026-06-26T13:29:34.389821+05:30
Belgaum,Karnataka,15.8497,74.4977,26.1,72,0.0,925.2,7.95,44.3,24,11.8,5.8,1.3,108.0,62.0,1.2,7,5,7,1,2026-06-26T13:29:37.614090+05:30
Coimbatore,Tamil Nadu,11.0168,76.9558,31.7,52,0.0,961.1,8.35,47.5,33,9.4,5.7,0.9,131.0,76.0,1.7,0,5,7,1,2026-06-26T13:29:37.614123+05:30
Madurai,Tamil Nadu,9.9252,78.1198,38.1,29,0.0,990.5,8.15,29.9,68,22.1,12.9,1.1,134.0,113.0,2.7,0,5,10,1,2026-06-26T13:29:37.614134+05:30
Trichy,Tamil Nadu,10.7905,78.7047,36.1,38,0.0,997.1,7.95,41.8,43,20.4,10.0,1.2,110.0,82.0,2.0,0,5,10,1,2026-06-26T13:29:37.614143+05:30
Salem,Tamil Nadu,11.6643,78.146,33.6,48,0.0,975.5,8.1,36.4,65,24.0,14.1,1.8,173.0,116.0,6.7,0,5,7,1,2026-06-26T13:29:37.614151+05:30
Tirunelveli,Tamil Nadu,8.7139,77.7567,36.8,37,0.0,1001.3,8.7,51.1,25,6.4,4.4,1.1,111.0,76.0,1.2,0,5,7,1,2026-06-26T13:29:37.614159+05:30
Vellore,Tamil Nadu,12.9165,79.1325,34.9,44,0.0,981.8,8.5,40.7,50,27.8,14.1,1.4,117.0,95.0,2.7,0,5,7,1,2026-06-26T13:29:37.614166+05:30
Erode,Tamil Nadu,11.341,77.7172,36.8,35,0.0,986.7,8.15,41.4,53,19.6,10.9,1.3,144.0,101.0,2.3,0,5,10,1,2026-06-26T13:29:37.614174+05:30
Kochi,Kerala,9.9312,76.2673,28.6,78,0.0,1009.5,7.9,36.4,50,10.7,7.3,1.4,107.0,78.0,2.4,7,0,4,1,2026-06-26T13:29:37.614182+05:30
Thiruvananthapuram,Kerala,8.5241,76.9366,28.5,78,0.0,1008.6,8.45,46.8,30,9.8,6.2,1.2,97.0,72.0,1.3,7,0,4,1,2026-06-26T13:29:37.614189+05:30
Kozhikode,Kerala,11.2588,75.7804,28.5,78,0.0,1008.6,8.05,34.2,30,10.3,5.3,0.4,115.0,64.0,1.0,7,0,4,1,2026-06-26T13:29:37.614197+05:30
Thrissur,Kerala,10.5276,76.2144,29.6,74,0.0,1007.7,8.45,37.4,49,9.4,6.5,0.9,102.0,72.0,1.6,7,5,4,1,2026-06-26T13:29:37.614205+05:30
Kannur,Kerala,11.8745,75.3704,27.5,80,0.0,1008.0,8.3,37.1,35,10.8,5.6,0.8,113.0,61.0,1.2,7,0,4,1,2026-06-26T13:29:37.614212+05:30
Patna,Bihar,25.5941,85.1376,37.4,46,0.0,995.9,8.9,24.5,148,52.9,45.3,2.3,332.0,211.0,15.7,0,5,10,1,2026-06-26T13:29:37.614220+05:30
Gaya,Bihar,24.7914,85.0002,38.1,44,0.0,989.4,8.5,17.6,98,31.5,27.3,1.4,225.0,178.0,8.3,0,5,10,1,2026-06-26T13:29:37.614226+05:30
Muzaffarpur,Bihar,26.1209,85.3647,35.3,58,0.0,995.9,8.85,29.5,154,57.5,48.0,2.5,418.0,208.0,16.5,0,5,10,1,2026-06-26T13:29:37.614233+05:30
Bhagalpur,Bihar,25.2425,87.0117,36.5,53,0.0,996.3,7.75,25.6,126,38.2,35.5,3.6,318.0,207.0,27.4,0,5,10,1,2026-06-26T13:29:37.614241+05:30
Ranchi,Jharkhand,23.3441,85.3096,30.0,72,0.3,936.3,8.8,23.4,80,32.0,30.7,1.9,219.0,156.0,11.0,10,5,7,1,2026-06-26T13:29:37.614248+05:30
Jamshedpur,Jharkhand,22.8046,86.2029,32.5,66,0.2,987.7,9.1,22.3,96,36.6,35.4,3.6,303.0,210.0,30.9,6,5,7,1,2026-06-26T13:29:37.614255+05:30
Dhanbad,Jharkhand,23.7957,86.4304,33.8,52,0.0,976.2,8.85,29.5,154,53.8,52.9,19.4,476.0,205.0,74.6,0,5,7,1,2026-06-26T13:29:37.614262+05:30
Bokaro,Jharkhand,23.6693,86.1511,34.9,49,0.0,980.2,8.85,30.6,154,42.4,41.3,17.2,678.0,197.0,66.6,0,5,7,1,2026-06-26T13:29:37.614269+05:30
Bhubaneswar,Odisha,20.2961,85.8245,28.0,93,0.1,998.0,9.05,34.6,81,20.5,17.6,1.6,264.0,149.0,7.5,10,5,7,1,2026-06-26T13:29:37.614276+05:30
Cuttack,Odisha,20.4625,85.8828,26.8,95,0.0,999.8,9.1,42.8,81,20.5,17.6,1.6,243.0,149.0,7.5,7,5,7,1,2026-06-26T13:29:37.614283+05:30
Rourkela,Odisha,22.2604,84.8536,32.7,55,0.0,981.0,8.45,36.4,80,19.2,18.5,1.7,261.0,177.0,13.2,0,5,7,1,2026-06-26T13:29:37.614291+05:30
Raipur,Chhattisgarh,21.2514,81.6296,36.5,40,0.0,969.3,8.95,34.9,89,32.4,31.3,8.3,262.0,147.0,37.7,0,5,10,1,2026-06-26T13:29:37.614298+05:30
Bhilai,Chhattisgarh,21.1938,81.3509,35.3,43,0.0,969.7,8.95,29.9,88,34.5,33.5,12.7,278.0,134.0,50.5,0,5,10,1,2026-06-26T13:29:37.614305+05:30
Guwahati,Assam,26.1158,91.7086,32.1,69,0.0,996.5,8.75,27.0,101,30.0,24.0,1.2,299.0,128.0,4.0,3,5,7,1,2026-06-26T13:29:37.614312+05:30
Agartala,Tripura,23.8315,91.2868,32.5,68,0.0,1002.5,8.45,25.2,87,37.3,22.9,2.5,166.0,144.0,2.5,3,5,4,1,2026-06-26T13:29:37.614319+05:30
Shillong,Meghalaya,25.5788,91.8933,25.8,64,0.1,856.8,6.0,20.9,67,21.8,16.5,1.4,242.0,128.0,3.2,10,5,3,1,2026-06-26T13:29:37.614326+05:30
Imphal,Manipur,24.817,93.9368,30.0,66,0.0,920.3,9.05,29.2,61,9.6,7.4,1.3,205.0,113.0,2.4,7,5,7,1,2026-06-26T13:29:37.614334+05:30
Aizawl,Mizoram,23.7271,92.7176,25.2,72,0.1,890.6,8.55,26.6,64,36.4,19.5,0.6,162.0,105.0,1.8,10,5,7,1,2026-06-26T13:29:37.614341+05:30
Kohima,Nagaland,25.6701,94.1077,24.1,83,0.2,854.4,8.35,28.1,55,12.2,9.2,0.9,212.0,113.0,1.9,6,5,7,1,2026-06-26T13:29:37.614349+05:30
Gangtok,Sikkim,27.3314,88.6138,23.2,66,0.1,836.9,8.8,34.6,95,13.2,10.9,0.9,310.0,145.0,2.7,6,5,7,1,2026-06-26T13:29:37.614357+05:30
Siliguri,West Bengal,26.7271,88.3953,31.8,67,0.1,988.6,8.55,22.3,123,28.3,23.2,1.4,409.0,163.0,6.0,6,5,7,1,2026-06-26T13:29:40.875943+05:30
Durgapur,West Bengal,23.5204,87.3119,33.6,63,0.0,990.9,9.0,24.8,141,44.5,41.9,13.9,256.0,180.0,51.4,3,5,7,1,2026-06-26T13:29:40.875981+05:30
Asansol,West Bengal,23.6739,86.9524,33.9,59,0.0,989.6,9.05,25.9,129,46.9,45.2,13.9,411.0,185.0,53.4,0,5,7,1,2026-06-26T13:29:40.875993+05:30
Pondicherry,Puducherry,11.9139,79.8145,35.2,44,0.0,1005.5,7.35,41.4,67,36.4,26.1,5.9,166.0,123.0,10.0,0,5,7,1,2026-06-26T13:29:40.876002+05:30
Port Blair,Andaman and Nicobar Islands,11.6234,92.7265,29.7,75,0.1,1006.1,8.7,37.1,26,4.5,2.8,0.2,87.0,53.0,0.4,10,5,4,1,2026-06-26T13:29:40.876011+05:30
Haridwar,Uttarakhand,29.9457,78.1642,37.2,39,0.0,970.1,7.6,20.2,128,190.9,55.4,0.9,238.0,169.0,9.0,0,5,10,1,2026-06-26T13:29:40.876019+05:30
Rishikesh,Uttarakhand,30.0869,78.2676,35.7,43,0.0,963.1,7.7,21.2,96,102.9,34.5,0.6,226.0,154.0,3.9,0,5,10,1,2026-06-26T13:29:40.876027+05:30
Nainital,Uttarakhand,29.3919,79.4542,24.3,54,0.0,808.4,7.95,31.0,97,83.6,31.1,0.8,222.0,162.0,6.4,0,5,7,0,2026-06-26T13:29:40.876035+05:30
Mussoorie,Uttarakhand,30.4599,78.0664,19.1,88,0.1,804.3,7.25,34.2,96,115.7,38.8,0.9,238.0,165.0,5.3,6,10,7,1,2026-06-26T13:29:40.876043+05:30
Dharamshala,Himachal Pradesh,32.219,76.3234,27.0,57,0.0,869.6,7.85,42.5,60,51.7,25.1,0.7,219.0,146.0,2.6,4,5,7,1,2026-06-26T13:29:40.876051+05:30
Dalhousie,Himachal Pradesh,32.5387,75.971,24.1,67,0.2,808.6,8.05,30.6,110,100.8,43.0,1.4,233.0,182.0,5.7,6,5,7,1,2026-06-26T13:29:40.876058+05:30
Patiala,Punjab,30.3398,76.3869,38.0,38,0.0,974.3,7.7,23.8,160,246.8,69.2,1.7,219.0,169.0,13.7,0,5,10,1,2026-06-26T13:29:40.876065+05:30
Bhatinda,Punjab,30.211,74.9455,38.1,39,0.0,979.8,7.55,23.8,158,138.8,55.1,3.3,218.0,190.0,21.1,0,5,10,1,2026-06-26T13:29:40.876072+05:30
Rohtak,Haryana,28.8955,76.6066,37.6,40,0.0,977.7,7.5,19.1,159,250.5,53.6,0.9,202.0,130.0,2.2,0,5,10,1,2026-06-26T13:29:40.876080+05:30
Panipat,Haryana,29.3909,76.9635,37.3,41,0.0,976.4,7.0,25.6,175,301.7,67.8,3.8,244.0,145.0,18.8,0,5,10,1,2026-06-26T13:29:40.876087+05:30
Mathura,Uttar Pradesh,27.4924,77.6737,37.8,40,0.0,982.7,8.05,21.6,135,123.4,34.1,0.6,172.0,129.0,2.2,0,5,10,1,2026-06-26T13:29:40.876094+05:30
Vrindavan,Uttar Pradesh,27.5823,77.7027,37.6,42,0.0,983.1,8.0,20.9,135,123.4,34.1,0.6,173.0,129.0,2.2,0,5,10,1,2026-06-26T13:29:40.876101+05:30
Ayodhya,Uttar Pradesh,26.7922,82.1998,37.2,46,0.0,990.8,8.45,37.8,151,98.7,43.4,1.1,239.0,165.0,6.9,0,5,10,1,2026-06-26T13:29:40.876109+05:30
Ratlam,Madhya Pradesh,23.3315,75.0367,33.6,54,0.0,952.8,7.7,33.8,94,62.4,26.8,0.5,119.0,101.0,4.1,0,5,7,1,2026-06-26T13:29:40.876116+05:30
Sagar,Madhya Pradesh,23.8388,78.7378,32.7,55,0.1,947.9,5.9,27.0,69,27.5,15.0,0.6,154.0,116.0,1.7,3,5,3,1,2026-06-26T13:29:40.876124+05:30
Satna,Madhya Pradesh,24.6005,80.8322,37.5,40,0.0,967.4,8.75,32.8,71,44.8,22.1,0.7,166.0,130.0,3.4,0,5,10,1,2026-06-26T13:29:40.876131+05:30
Akola,Maharashtra,20.7002,77.0082,27.8,86,0.1,971.3,8.65,37.4,75,61.7,28.5,1.6,120.0,105.0,7.0,10,5,7,1,2026-06-26T13:29:40.876140+05:30
Amravati,Maharashtra,20.9374,77.7796,30.3,67,0.0,964.3,8.1,39.6,76,59.5,29.1,2.2,167.0,109.0,8.0,3,5,7,1,2026-06-26T13:29:40.876148+05:30
Latur,Maharashtra,18.4088,76.5604,30.5,50,0.0,937.8,3.2,31.3,61,72.4,25.7,0.8,130.0,99.0,3.8,0,5,3,1,2026-06-26T13:29:40.876157+05:30
Nanded,Maharashtra,19.1383,77.3091,29.9,65,0.0,965.6,5.8,31.3,70,60.1,26.7,1.3,160.0,99.0,3.1,7,5,3,1,2026-06-26T13:29:40.876164+05:30
Gulbarga,Karnataka,17.3297,76.8343,32.6,46,0.0,956.4,6.9,34.2,47,45.2,17.5,1.5,130.0,98.0,3.5,0,5,7,1,2026-06-26T13:29:40.876171+05:30
Bidar,Karnataka,17.9104,77.5199,30.7,54,0.2,933.7,6.2,35.3,64,91.7,41.7,1.8,137.0,102.0,4.7,3,5,7,1,2026-06-26T13:29:40.876178+05:30
Hospet,Karnataka,15.2689,76.3909,30.5,55,0.0,954.7,8.7,56.5,23,15.7,6.9,1.2,117.0,74.0,1.8,0,5,7,1,2026-06-26T13:29:40.876184+05:30
Tirupur,Tamil Nadu,11.1085,77.3411,34.3,42,0.0,973.6,8.1,51.8,56,17.5,10.1,1.3,139.0,99.0,2.5,0,5,7,1,2026-06-26T13:29:40.876191+05:30
Alappuzha,Kerala,9.4981,76.3388,28.7,77,0.0,1009.7,7.8,41.0,43,13.3,9.0,1.8,91.0,83.0,2.7,7,0,4,1,2026-06-26T13:29:40.876198+05:30
Munnar,Kerala,10.0889,77.0595,19.8,88,0.1,857.5,8.65,40.0,25,6.0,3.6,0.6,91.0,65.0,0.9,6,10,7,1,2026-06-26T13:29:40.876205+05:30
Silchar,Assam,24.8333,92.7789,32.2,72,0.3,1001.0,8.8,23.0,89,22.6,14.5,1.2,206.0,113.0,4.0,6,5,4,1,2026-06-26T13:29:40.876212+05:30
Dibrugarh,Assam,27.4728,94.912,32.3,72,0.0,990.1,8.9,26.6,85,28.5,21.8,1.1,287.0,142.0,2.4,3,5,7,1,2026-06-26T13:29:40.876218+05:30
