city,state,latitude,longitude,temp,humidity,rain,pressure,uv_index,wind_gusts,aqi,pm10,pm2_5,no2,co,o3,so2,mosquito_risk,arthritis_risk,migraine_risk,frizz_risk,updated_at
Delhi,Delhi,28.6139,77.209,25.8,96,0.1,977.5,6.85,22.7,153,93.8,53.8,33.4,583.0,45.0,25.7,10,5,7,1,2026-07-02T05:40:58.077723+05:30
Mumbai,Maharashtra,19.076,72.8777,26.1,93,0.3,1003.5,0.7,46.8,37,16.2,8.4,5.0,130.0,50.0,4.5,10,5,0,1,2026-07-02T05:40:58.077764+05:30
Bangalore,Karnataka,12.9716,77.5946,20.5,94,0.0,909.4,6.05,56.2,16,1.7,1.7,5.8,154.0,37.0,3.1,3,5,7,1,2026-07-02T05:40:58.077780+05:30
Hyderabad,Telangana,17.385,78.4867,23.9,87,0.0,948.5,3.65,52.2,19,2.8,2.6,7.6,150.0,35.0,3.9,3,5,3,1,2026-07-02T05:40:58.077789+05:30
Chennai,Tamil Nadu,13.0827,80.2707,29.2,59,0.0,1003.8,6.6,59.0,36,6.1,5.5,13.9,174.0,30.0,9.0,4,5,4,1,2026-07-02T05:40:58.077798+05:30
Kolkata,West Bengal,22.5726,88.3639,25.8,96,0.0,999.2,7.9,33.8,78,20.1,19.4,12.2,330.0,56.0,6.7,7,5,7,1,2026-07-02T05:40:58.077806+05:30
Pune,Maharashtra,18.5204,73.8567,22.6,93,0.0,943.1,1.2,46.8,19,2.0,1.7,4.9,119.0,42.0,4.0,3,5,3,1,2026-07-02T05:40:58.077813+05:30
Ahmedabad,Gujarat,23.0225,72.5714,28.0,84,0.0,995.6,7.35,39.6,53,32.0,18.9,11.0,149.0,30.0,4.6,7,5,7,1,2026-07-02T05:40:58.077819+05:30
Jaipur,Rajasthan,26.9124,75.7873,25.6,88,0.0,953.1,8.2,29.5,120,139.7,46.1,10.7,192.0,54.0,8.2,7,5,7,1,2026-07-02T05:40:58.077825+05:30
Lucknow,Uttar Pradesh,26.8467,80.9462,25.9,97,0.2,987.9,7.45,24.8,102,35.5,32.8,10.7,376.0,92.0,5.6,10,5,7,1,2026-07-02T05:40:58.077836+05:30
Kanpur,Uttar Pradesh,26.4499,80.3319,25.9,98,0.4,985.8,6.2,27.0,98,37.7,30.2,13.2,274.0,77.0,5.3,10,5,7,1,2026-07-02T05:40:58.077843+05:30
Chandigarh,Chandigarh,30.7333,76.7794,25.0,98,0.0,963.2,6.75,33.1,99,42.6,34.0,23.9,377.0,43.0,9.5,7,5,7,1,2026-07-02T05:40:58.077850+05:30
Srinagar,Jammu and Kashmir,34.0837,74.7973,19.5,95,0.1,839.4,9.1,21.6,86,23.9,19.9,12.9,389.0,63.0,2.3,6,10,7,1,2026-07-02T05:40:58.077864+05:30
Jammu,Jammu and Kashmir,32.7266,74.857,25.9,90,0.0,966.7,8.6,35.3,96,23.4,15.9,16.0,310.0,75.0,2.3,7,5,7,1,2026-07-02T05:40:58.077870+05:30
Amritsar,Punjab,31.634,74.8723,27.2,90,0.1,973.9,8.2,38.2,251,135.0,54.5,18.1,310.0,51.0,8.7,10,5,7,1,2026-07-02T05:40:58.077877+05:30
Ludhiana,Punjab,30.901,75.8573,26.1,90,0.1,972.4,6.85,39.6,168,76.1,40.6,16.6,312.0,65.0,9.1,10,5,7,1,2026-07-02T05:40:58.077883+05:30
Jalandhar,Punjab,31.326,75.5762,26.9,85,0.0,973.3,6.95,43.6,210,95.0,43.8,16.1,249.0,66.0,9.7,7,5,7,1,2026-07-02T05:40:58.077888+05:30
Dehradun,Uttarakhand,30.6284,78.0322,17.7,98,0.1,826.8,7.35,23.8,33,4.9,4.8,13.3,193.0,62.0,1.0,6,10,7,1,2026-07-02T05:40:58.077895+05:30
Shimla,Himachal Pradesh,31.1048,77.1734,14.5,97,0.0,780.2,5.5,24.8,62,14.6,7.2,10.4,242.0,82.0,1.7,3,10,3,0,2026-07-02T05:40:58.077901+05:30
Manali,Himachal Pradesh,32.2396,77.1887,19.5,71,0.1,815.8,7.9,31.3,51,3.8,3.2,34.4,241.0,74.0,0.0,6,5,7,0,2026-07-02T05:40:58.077910+05:30
Gurgaon,Haryana,28.4595,77.0266,25.0,98,0.4,975.8,7.6,19.8,167,107.1,46.9,32.5,535.0,44.0,18.6,10,5,7,1,2026-07-02T05:40:58.077917+05:30
Noida,Uttar Pradesh,28.5355,77.391,26.6,85,0.0,978.8,6.3,25.6,167,107.1,46.9,32.5,535.0,44.0,18.6,7,5,7,1,2026-07-02T05:40:58.077923+05:30
Ghaziabad,Uttar Pradesh,28.6692,77.4538,26.3,83,0.0,977.1,7.05,34.6,123,50.3,36.4,15.8,449.0,69.0,10.5,7,5,7,1,2026-07-02T05:40:58.077929+05:30
Faridabad,Haryana,28.4089,77.3178,26.7,89,0.0,978.1,6.25,26.3,167,107.1,46.9,32.5,457.0,44.0,18.6,7,5,7,1,2026-07-02T05:40:58.077935+05:30
Meerut,Uttar Pradesh,28.9845,77.7064,24.7,95,0.2,975.7,7.0,30.6,123,50.3,36.4,15.8,401.0,69.0,10.5,6,5,7,1,2026-07-02T05:40:58.077944+05:30
Agra,Uttar Pradesh,27.1767,78.0081,26.3,95,0.1,981.7,7.95,21.2,117,357.6,51.7,20.2,425.0,57.0,9.1,10,5,7,1,2026-07-02T05:40:58.077950+05:30
Varanasi,Uttar Pradesh,25.3176,82.9739,26.7,96,0.2,991.2,6.55,29.9,80,36.8,36.2,17.6,483.0,61.0,10.9,10,5,7,1,2026-07-02T05:40:58.077957+05:30
Prayagraj,Uttar Pradesh,25.4358,81.8463,26.3,95,0.1,989.8,7.0,28.1,94,28.1,27.1,10.3,338.0,95.0,4.9,10,5,7,1,2026-07-02T05:40:58.077963+05:30
Gorakhpur,Uttar Pradesh,26.7606,83.3732,25.8,96,0.2,992.0,7.4,31.7,154,60.5,59.6,17.7,388.0,63.0,11.4,10,5,7,1,2026-07-02T05:40:58.077970+05:30
Bareilly,Uttar Pradesh,28.367,79.4304,25.3,97,0.1,981.3,6.15,32.0,99,21.2,18.1,9.3,303.0,96.0,4.6,10,5,7,1,2026-07-02T05:40:58.077978+05:30
Aligarh,Uttar Pradesh,27.8974,78.088,25.5,96,0.1,979.3,7.05,27.7,103,56.0,37.1,27.6,445.0,42.0,11.2,10,5,7,1,2026-07-02T05:40:58.077984+05:30
Moradabad,Uttar Pradesh,28.8386,78.7733,25.0,96,0.3,978.3,6.7,33.1,114,39.0,32.5,15.5,465.0,77.0,7.2,10,5,7,1,2026-07-02T05:40:58.077990+05:30
Saharanpur,Uttar Pradesh,29.9637,77.546,25.8,94,0.0,970.5,7.1,36.4,128,56.0,46.2,22.5,429.0,46.0,11.8,7,5,7,1,2026-07-02T05:40:58.077996+05:30
Jhansi,Uttar Pradesh,25.4484,78.5685,28.4,79,0.0,971.2,8.05,32.0,89,65.4,30.5,17.8,176.0,34.0,2.9,7,5,7,1,2026-07-02T05:41:01.379187+05:30
Surat,Gujarat,21.1702,72.8311,25.4,97,0.2,1000.7,0.45,34.6,60,21.8,16.1,23.3,370.0,28.0,35.6,10,5,0,1,2026-07-02T05:41:01.379219+05:30
Vadodara,Gujarat,22.3072,73.1812,26.3,95,0.1,998.1,2.7,35.6,53,15.1,10.4,11.1,145.0,35.0,7.1,10,5,3,1,2026-07-02T05:41:01.379230+05:30
Rajkot,Gujarat,22.3039,70.8022,26.8,89,0.0,987.4,5.25,39.6,60,24.9,12.5,5.7,103.0,41.0,5.5,7,5,3,1,2026-07-02T05:41:01.379238+05:30
Thane,Maharashtra,19.2183,72.9781,24.9,99,0.2,1003.0,0.55,39.2,37,16.2,8.4,5.0,154.0,50.0,4.5,6,5,0,1,2026-07-02T05:41:01.379246+05:30
Nagpur,Maharashtra,21.1458,79.0882,25.1,96,0.1,966.6,1.65,26.3,63,22.1,20.5,16.7,257.0,37.0,9.0,10,5,3,1,2026-07-02T05:41:01.379254+05:30
Nashik,Maharashtra,19.9975,73.7898,22.5,96,0.0,939.9,0.95,50.8,19,2.7,2.0,5.8,117.0,42.0,3.3,3,5,3,1,2026-07-02T05:41:01.379261+05:30
Aurangabad,Maharashtra,19.8762,75.3433,22.9,98,0.1,938.8,2.45,49.3,19,2.2,1.9,8.0,136.0,39.0,6.9,6,5,3,1,2026-07-02T05:41:01.379269+05:30
Solapur,Maharashtra,17.6599,75.9064,23.4,92,0.0,953.2,4.45,52.9,17,2.8,2.5,5.7,130.0,36.0,2.2,3,5,3,1,2026-07-02T05:41:01.379276+05:30
Kolhapur,Maharashtra,16.705,74.2433,22.1,95,0.0,944.3,2.0,47.9,20,2.0,1.9,3.4,107.0,43.0,1.7,3,5,3,1,2026-07-02T05:41:01.379283+05:30
Goa,Goa,15.2993,74.124,22.8,99,0.1,996.3,6.05,28.4,38,18.4,10.2,2.4,205.0,49.0,0.8,6,5,7,1,2026-07-02T05:41:01.379290+05:30
Jodhpur,Rajasthan,26.2389,73.0243,31.3,52,0.0,975.2,7.85,32.8,118,192.3,51.7,5.7,123.0,45.0,2.4,0,5,7,1,2026-07-02T05:41:01.379298+05:30
Udaipur,Rajasthan,24.5854,73.7125,25.3,85,0.0,939.9,8.65,45.0,57,17.6,11.6,10.8,127.0,41.0,11.1,7,5,7,1,2026-07-02T05:41:01.379305+05:30
Kota,Rajasthan,25.2138,75.8648,27.0,88,0.0,972.0,8.3,29.5,77,25.8,21.7,7.9,187.0,63.0,6.4,7,5,7,1,2026-07-02T05:41:01.379313+05:30
Bikaner,Rajasthan,28.0229,73.3119,32.8,48,0.0,973.7,8.45,29.5,150,168.6,59.5,2.9,123.0,49.0,3.8,0,5,7,1,2026-07-02T05:41:01.379320+05:30
Ajmer,Rajasthan,26.4499,74.6399,25.8,88,0.0,947.6,8.0,38.5,90,30.0,24.0,8.4,137.0,55.0,6.5,7,5,7,1,2026-07-02T05:41:01.379327+05:30
Gwalior,Madhya Pradesh,26.2183,78.1828,25.8,96,0.2,977.1,7.55,25.2,90,82.9,34.0,17.7,169.0,45.0,4.6,10,5,7,1,2026-07-02T05:41:01.379335+05:30
Indore,Madhya Pradesh,22.7196,75.8577,24.3,94,0.0,942.0,2.6,34.6,67,14.6,13.9,9.9,208.0,45.0,9.9,3,5,3,1,2026-07-02T05:41:01.379362+05:30
Bhopal,Madhya Pradesh,23.2599,77.4126,24.3,95,0.0,947.3,7.75,32.8,72,28.8,25.6,8.3,300.0,60.0,3.1,3,5,7,1,2026-07-02T05:41:01.379371+05:30
Jabalpur,Madhya Pradesh,23.1815,79.9864,24.7,96,0.1,954.9,3.9,23.4,66,25.1,17.4,6.7,197.0,80.0,2.4,6,5,3,1,2026-07-02T05:41:01.379378+05:30
Ujjain,Madhya Pradesh,23.1765,75.7885,25.0,91,0.0,947.7,7.45,37.1,63,14.9,14.2,10.0,189.0,40.0,12.8,7,5,7,1,2026-07-02T05:41:01.379385+05:30
Visakhapatnam,Andhra Pradesh,17.6868,83.2185,28.1,72,0.0,996.3,1.85,44.3,62,15.2,13.7,21.1,297.0,36.0,33.2,7,5,3,1,2026-07-02T05:41:01.379393+05:30
Vijayawada,Andhra Pradesh,16.5062,80.648,28.4,69,0.0,997.8,5.4,63.0,37,7.9,6.3,9.6,147.0,33.0,4.7,7,5,3,1,2026-07-02T05:41:01.379399+05:30
Guntur,Andhra Pradesh,16.3067,80.4365,28.7,66,0.0,999.2,7.0,58.7,30,7.3,5.8,10.0,137.0,32.0,5.2,7,5,7,1,2026-07-02T05:41:01.379406+05:30
Nellore,Andhra Pradesh,14.4426,79.9865,29.5,60,0.0,1002.3,4.6,50.8,22,4.6,2.9,5.5,115.0,43.0,3.7,4,5,0,1,2026-07-02T05:41:01.379414+05:30
Kurnool,Andhra Pradesh,15.8281,78.0373,25.9,77,0.0,973.7,7.55,60.1,18,2.9,2.4,5.7,116.0,38.0,2.7,7,5,7,1,2026-07-02T05:41:01.379422+05:30
Kakinada,Andhra Pradesh,16.9891,82.2475,28.5,68,0.0,1001.3,6.65,57.2,51,8.2,6.3,7.2,184.0,47.0,4.7,7,5,4,1,2026-07-02T05:41:01.379430+05:30
Tirupati,Andhra Pradesh,13.6288,79.4192,28.2,61,0.0,988.0,5.8,46.4,18,2.6,2.5,6.9,128.0,36.0,2.1,7,5,3,1,2026-07-02T05:41:01.379437+05:30
Warangal,Telangana,17.9689,79.5941,24.6,91,0.3,973.5,2.3,49.0,29,5.0,4.3,6.7,144.0,39.0,2.2,6,5,3,1,2026-07-02T05:41:01.379444+05:30
Nizamabad,Telangana,18.6725,78.0941,24.0,90,0.1,959.7,2.4,36.4,26,5.4,4.4,7.2,143.0,42.0,3.9,6,5,3,1,2026-07-02T05:41:01.379451+05:30
Mysore,Karnataka,12.2958,76.6396,20.9,96,0.2,926.4,6.65,54.4,18,1.2,1.1,3.6,102.0,40.0,1.4,6,5,7,1,2026-07-02T05:41:01.379458+05:30
Mangalore,Karnataka,12.9141,74.856,24.7,96,0.1,1006.6,6.25,42.5,24,8.7,5.2,2.5,96.0,41.0,1.0,6,5,4,1,2026-07-02T05:41:01.379465+05:30
Hubli-Dharwad,Karnataka,15.3647,75.124,21.9,98,0.1,938.1,5.95,51.5,20,0.7,0.7,2.4,95.0,44.0,1.0,6,5,3,1,2026-07-02T05:41:01.379472+05:30
Belgaum,Karnataka,15.8497,74.4977,20.7,98,0.0,922.5,3.1,47.2,19,1.8,1.4,3.0,103.0,44.0,1.5,3,5,3,1,2026-07-02T05:41:04.658461+05:30
Coimbatore,Tamil Nadu,11.0168,76.9558,22.5,93,0.0,959.6,7.95,57.2,16,2.3,2.0,4.1,152.0,36.0,1.9,3,5,7,1,2026-07-02T05:41:04.658491+05:30
Madurai,Tamil Nadu,9.9252,78.1198,27.4,62,0.0,991.0,8.7,31.0,43,20.9,18.3,26.7,148.0,2.0,4.7,7,5,7,1,2026-07-02T05:41:04.658501+05:30
Trichy,Tamil Nadu,10.7905,78.7047,27.6,67,0.0,997.7,8.7,66.2,24,5.3,3.6,4.1,105.0,39.0,2.4,7,5,7,1,2026-07-02T05:41:04.658509+05:30
Salem,Tamil Nadu,11.6643,78.146,25.4,78,0.0,975.7,7.65,32.4,39,12.3,10.6,16.8,222.0,23.0,8.8,7,5,7,1,2026-07-02T05:41:04.658517+05:30
Tirunelveli,Tamil Nadu,8.7139,77.7567,27.9,67,0.0,1001.8,8.6,51.1,32,7.7,5.3,4.7,131.0,35.0,2.3,7,5,4,1,2026-07-02T05:41:04.658523+05:30
Vellore,Tamil Nadu,12.9165,79.1325,27.1,66,0.0,981.6,5.7,49.7,19,2.3,2.2,5.6,125.0,38.0,2.7,7,5,3,1,2026-07-02T05:41:04.658530+05:30
Erode,Tamil Nadu,11.341,77.7172,24.9,81,0.0,987.4,8.15,35.6,32,9.1,7.5,10.5,145.0,32.0,3.3,3,5,7,1,2026-07-02T05:41:04.658537+05:30
Kochi,Kerala,9.9312,76.2673,25.0,93,0.0,1009.2,8.45,41.8,52,15.0,12.6,13.3,99.0,15.0,4.3,7,0,4,1,2026-07-02T05:41:04.658545+05:30
Thiruvananthapuram,Kerala,8.5241,76.9366,23.9,94,0.0,1008.2,8.35,49.0,46,19.5,11.7,5.8,148.0,39.0,2.9,3,0,4,1,2026-07-02T05:41:04.658551+05:30
Kozhikode,Kerala,11.2588,75.7804,23.7,99,0.3,1008.7,7.95,34.2,24,8.4,4.1,0.7,165.0,52.0,0.4,6,0,4,1,2026-07-02T05:41:04.658558+05:30
Thrissur,Kerala,10.5276,76.2144,23.5,99,0.0,1007.7,8.55,41.8,50,13.2,10.9,9.7,160.0,23.0,3.2,3,5,4,1,2026-07-02T05:41:04.658565+05:30
Kannur,Kerala,11.8745,75.3704,24.7,94,0.5,1007.5,8.45,41.0,23,7.5,4.5,2.5,175.0,41.0,0.7,6,5,4,1,2026-07-02T05:41:04.658572+05:30
Patna,Bihar,25.5941,85.1376,26.7,93,0.0,994.6,6.25,33.5,135,37.1,37.0,16.5,389.0,60.0,10.6,7,5,7,1,2026-07-02T05:41:04.658579+05:30
Gaya,Bihar,24.7914,85.0002,26.1,98,0.0,987.5,5.9,28.8,116,30.6,30.6,14.8,490.0,67.0,8.7,7,5,3,1,2026-07-02T05:41:04.658585+05:30
Muzaffarpur,Bihar,26.1209,85.3647,26.4,95,0.0,994.9,7.25,37.4,136,34.9,34.8,15.4,371.0,59.0,8.6,7,5,7,1,2026-07-02T05:41:04.658592+05:30
Bhagalpur,Bihar,25.2425,87.0117,26.6,96,0.0,995.4,6.8,31.3,101,56.9,56.6,18.0,330.0,49.0,8.7,7,5,7,1,2026-07-02T05:41:04.658599+05:30
Ranchi,Jharkhand,23.3441,85.3096,23.0,97,0.0,931.0,7.85,32.8,76,23.4,23.3,11.9,329.0,55.0,23.9,3,5,7,1,2026-07-02T05:41:04.658605+05:30
Jamshedpur,Jharkhand,22.8046,86.2029,25.7,96,0.0,983.7,6.8,28.1,108,43.8,43.4,16.5,408.0,60.0,18.8,7,5,7,1,2026-07-02T05:41:04.658611+05:30
Dhanbad,Jharkhand,23.7957,86.4304,25.1,97,0.0,973.1,7.75,36.7,155,76.6,76.1,44.6,348.0,40.0,114.4,7,5,7,1,2026-07-02T05:41:04.658618+05:30
Bokaro,Jharkhand,23.6693,86.1511,25.2,98,0.0,977.0,6.7,36.7,152,65.9,65.4,38.9,506.0,44.0,110.5,7,5,7,1,2026-07-02T05:41:04.658624+05:30
Bhubaneswar,Odisha,20.2961,85.8245,25.1,98,0.2,995.0,8.5,26.3,60,14.5,14.2,12.2,348.0,56.0,3.0,10,5,7,1,2026-07-02T05:41:04.658631+05:30
Cuttack,Odisha,20.4625,85.8828,25.5,97,0.1,996.8,8.45,25.6,60,14.5,14.2,12.2,302.0,56.0,3.0,10,5,7,1,2026-07-02T05:41:04.658637+05:30
Rourkela,Odisha,22.2604,84.8536,24.8,99,0.0,977.7,8.35,26.6,92,56.7,56.3,17.4,460.0,70.0,27.8,3,5,7,1,2026-07-02T05:41:04.658643+05:30
Raipur,Chhattisgarh,21.2514,81.6296,24.5,96,0.1,968.0,4.1,40.3,85,29.0,27.4,34.2,545.0,42.0,56.1,6,5,3,1,2026-07-02T05:41:04.658649+05:30
Bhilai,Chhattisgarh,21.1938,81.3509,23.8,99,0.0,968.6,5.4,36.4,76,20.0,19.0,25.9,769.0,52.0,43.9,3,5,3,1,2026-07-02T05:41:04.658655+05:30
Guwahati,Assam,26.1158,91.7086,26.1,97,0.0,997.0,8.55,18.4,38,3.6,3.6,4.9,259.0,53.0,0.9,7,5,7,1,2026-07-02T05:41:04.658661+05:30
Agartala,Tripura,23.8315,91.2868,26.3,93,0.0,1001.2,7.6,28.4,68,19.4,18.2,16.1,160.0,28.0,4.5,7,5,4,1,2026-07-02T05:41:04.658668+05:30
Shillong,Meghalaya,25.5788,91.8933,19.4,97,0.0,854.1,8.0,25.6,27,6.7,6.6,5.5,183.0,53.0,2.4,3,10,7,1,2026-07-02T05:41:04.658674+05:30
Imphal,Manipur,24.817,93.9368,22.8,96,0.0,919.9,8.6,23.4,45,11.2,11.0,7.4,290.0,32.0,2.1,3,5,7,1,2026-07-02T05:41:04.658680+05:30
Aizawl,Mizoram,23.7271,92.7176,20.1,98,0.2,888.5,8.35,19.1,40,14.4,13.2,13.3,155.0,30.0,1.5,6,5,7,1,2026-07-02T05:41:04.658686+05:30
Kohima,Nagaland,25.6701,94.1077,20.3,94,0.0,852.4,7.8,23.4,33,5.4,5.3,8.6,189.0,22.0,0.7,3,5,7,1,2026-07-02T05:41:04.658692+05:30
Gangtok,Sikkim,27.3314,88.6138,18.2,99,0.0,835.0,8.2,32.0,61,17.9,17.3,9.5,446.0,84.0,1.5,3,10,7,1,2026-07-02T05:41:04.658699+05:30
Siliguri,West Bengal,26.7271,88.3953,25.4,95,0.0,988.5,7.9,23.8,105,37.5,36.4,11.0,311.0,87.0,4.5,7,5,7,1,2026-07-02T05:41:07.954666+05:30
Durgapur,West Bengal,23.5204,87.3119,25.9,96,0.0,988.4,6.95,34.9,152,63.1,62.6,32.0,388.0,35.0,35.8,7,5,7,1,2026-07-02T05:41:07.954700+05:30
Asansol,West Bengal,23.6739,86.9524,25.6,98,0.0,986.9,7.15,36.4,150,62.6,62.2,34.9,432.0,40.0,47.0,7,5,7,1,2026-07-02T05:41:07.954711+05:30
Pondicherry,Puducherry,11.9139,79.8145,28.2,63,0.0,1005.5,8.25,40.0,51,17.0,14.4,18.7,397.0,23.0,8.0,7,5,4,1,2026-07-02T05:41:07.954720+05:30
Port Blair,Andaman and Nicobar Islands,11.6234,92.7265,26.4,93,0.0,1004.3,2.55,48.2,33,11.9,7.3,0.2,99.0,72.0,0.5,7,5,0,1,2026-07-02T05:41:07.954729+05:30
Haridwar,Uttarakhand,29.9457,78.1642,25.2,98,0.1,968.5,6.4,26.6,101,25.7,20.3,11.7,295.0,70.0,5.7,10,5,7,1,2026-07-02T05:41:07.954738+05:30
Rishikesh,Uttarakhand,30.0869,78.2676,24.6,94,0.0,961.3,6.6,21.2,68,9.6,5.7,3.9,259.0,105.0,1.1,3,5,7,1,2026-07-02T05:41:07.954745+05:30
Nainital,Uttarakhand,29.3919,79.4542,15.7,99,0.2,801.7,7.2,30.2,71,24.2,17.2,7.8,306.0,87.0,2.0,6,10,7,0,2026-07-02T05:41:07.954754+05:30
Mussoorie,Uttarakhand,30.4599,78.0664,15.9,100,0.1,799.5,6.2,26.3,70,22.7,20.2,21.7,202.0,52.0,8.5,6,10,7,0,2026-07-02T05:41:07.954761+05:30
Dharamshala,Himachal Pradesh,32.219,76.3234,21.0,85,0.0,864.9,8.4,32.4,30,7.0,6.1,14.4,271.0,57.0,0.0,3,5,7,1,2026-07-02T05:41:07.954769+05:30
Dalhousie,Himachal Pradesh,32.5387,75.971,15.3,94,0.1,799.8,8.65,23.4,82,60.3,25.6,14.2,273.0,89.0,3.3,6,10,7,0,2026-07-02T05:41:07.954777+05:30
Patiala,Punjab,30.3398,76.3869,24.9,96,0.1,972.9,7.35,37.8,130,66.8,40.9,18.0,307.0,55.0,8.5,6,5,7,1,2026-07-02T05:41:07.954784+05:30
Bhatinda,Punjab,30.211,74.9455,28.1,76,0.0,976.4,6.4,42.5,1031,454.5,127.6,16.2,303.0,59.0,17.0,7,5,7,1,2026-07-02T05:41:07.954791+05:30
Rohtak,Haryana,28.8955,76.6066,25.2,96,0.2,976.0,7.7,26.3,186,181.6,65.2,31.3,445.0,45.0,21.2,10,5,7,1,2026-07-02T05:41:07.954798+05:30
Panipat,Haryana,29.3909,76.9635,25.2,97,0.3,975.0,6.9,29.2,153,102.9,61.0,28.3,517.0,38.0,12.5,10,5,7,1,2026-07-02T05:41:07.954805+05:30
Mathura,Uttar Pradesh,27.4924,77.6737,26.4,91,0.1,980.7,7.3,23.0,120,44.9,39.3,40.2,396.0,19.0,8.2,10,5,7,1,2026-07-02T05:41:07.954812+05:30
Vrindavan,Uttar Pradesh,27.5823,77.7027,26.6,87,0.0,981.2,7.65,23.8,120,44.9,39.3,40.2,425.0,19.0,8.2,7,5,7,1,2026-07-02T05:41:07.954818+05:30
Ayodhya,Uttar Pradesh,26.7922,82.1998,25.9,95,0.3,989.7,6.2,27.4,136,58.6,56.0,13.6,387.0,89.0,6.4,10,5,7,1,2026-07-02T05:41:07.954825+05:30
Ratlam,Madhya Pradesh,23.3315,75.0367,25.0,92,0.0,948.5,7.1,33.5,61,13.2,12.1,10.4,164.0,37.0,12.6,7,5,7,1,2026-07-02T05:41:07.954832+05:30
Sagar,Madhya Pradesh,23.8388,78.7378,24.7,96,0.0,943.8,6.65,27.4,71,29.8,19.1,7.2,214.0,70.0,2.0,3,5,7,1,2026-07-02T05:41:07.954839+05:30
Satna,Madhya Pradesh,24.6005,80.8322,25.7,95,0.2,964.8,7.45,25.9,83,27.4,15.8,6.6,235.0,76.0,1.8,10,5,7,1,2026-07-02T05:41:07.954846+05:30
Akola,Maharashtra,20.7002,77.0082,25.2,94,0.1,969.4,2.0,38.5,38,4.1,3.7,9.0,124.0,39.0,6.0,10,5,3,1,2026-07-02T05:41:07.954853+05:30
Amravati,Maharashtra,20.9374,77.7796,24.8,96,0.1,961.2,1.6,37.8,44,4.4,4.1,9.1,139.0,42.0,6.6,6,5,3,1,2026-07-02T05:41:07.954861+05:30
Latur,Maharashtra,18.4088,76.5604,22.9,95,0.3,935.1,1.35,47.2,20,3.4,2.7,5.5,139.0,39.0,2.4,6,5,3,1,2026-07-02T05:41:07.954868+05:30
Nanded,Maharashtra,19.1383,77.3091,24.0,93,0.4,963.6,1.1,34.2,22,4.3,3.5,6.2,135.0,41.0,2.7,6,5,3,1,2026-07-02T05:41:07.954875+05:30
Gulbarga,Karnataka,17.3297,76.8343,23.3,94,0.2,954.8,2.9,56.9,18,2.5,2.2,6.4,133.0,37.0,2.8,6,5,3,1,2026-07-02T05:41:07.954882+05:30
Bidar,Karnataka,17.9104,77.5199,22.9,92,0.0,931.0,1.55,43.9,18,2.8,2.5,6.0,128.0,37.0,2.0,3,5,3,1,2026-07-02T05:41:07.954889+05:30
Hospet,Karnataka,15.2689,76.3909,23.4,91,0.0,953.3,4.8,55.8,19,1.2,1.1,3.3,99.0,42.0,1.3,3,5,3,1,2026-07-02T05:41:07.954895+05:30
Tirupur,Tamil Nadu,11.1085,77.3411,23.3,89,0.0,973.4,8.4,57.2,36,10.0,8.8,13.5,134.0,26.0,4.1,3,5,7,1,2026-07-02T05:41:07.954902+05:30
Alappuzha,Kerala,9.4981,76.3388,25.3,90,0.0,1009.2,8.35,46.4,48,16.3,10.4,7.9,84.0,33.0,3.8,7,0,4,1,2026-07-02T05:41:07.954909+05:30
Munnar,Kerala,10.0889,77.0595,16.6,100,0.0,855.7,7.8,44.6,20,5.1,3.3,3.4,88.0,27.0,0.7,3,10,7,1,2026-07-02T05:41:07.954916+05:30
Silchar,Assam,24.8333,92.7789,25.6,99,0.1,1000.9,8.7,18.0,67,45.1,44.8,24.5,234.0,19.0,4.8,10,5,4,1,2026-07-02T05:41:07.954923+05:30
Dibrugarh,Assam,27.4728,94.912,26.3,97,0.0,990.7,8.5,17.3,61,15.3,15.0,10.4,162.0,37.0,1.1,7,5,7,1,2026-07-02T05:41:07.954930+05:30
