city,state,latitude,longitude,temp,humidity,rain,pressure,uv_index,wind_gusts,aqi,pm10,pm2_5,mosquito_risk,arthritis_risk,migraine_risk,frizz_risk,updated_at
Delhi,Delhi,28.6139,77.209,29.0,34,0.0,985.5,5.7,29.9,156,178.8,50.8,4,5,3,0,2026-03-01T13:05:01.711345+05:30
Mumbai,Maharashtra,19.076,72.8777,26.3,70,0.0,1009.8,7.25,23.8,73,55.6,31.8,7,0,4,1,2026-03-01T13:05:01.711387+05:30
Bangalore,Karnataka,12.9716,77.5946,29.5,39,0.0,912.2,9.05,29.2,151,47.8,46.4,4,5,7,0,2026-03-01T13:05:01.711403+05:30
Hyderabad,Telangana,17.385,78.4867,32.3,35,0.0,954.0,8.3,27.4,125,42.6,41.7,0,5,7,0,2026-03-01T13:05:01.711413+05:30
Chennai,Tamil Nadu,13.0827,80.2707,33.1,43,0.0,1008.0,8.75,33.8,149,50.3,46.7,0,0,4,1,2026-03-01T13:05:01.711421+05:30
Kolkata,West Bengal,22.5726,88.3639,31.1,59,0.0,1006.0,7.6,25.2,87,43.8,41.7,0,5,4,1,2026-03-01T13:05:01.711431+05:30
Pune,Maharashtra,18.5204,73.8567,33.2,26,0.0,949.0,7.85,33.8,81,22.0,20.4,0,5,7,0,2026-03-01T13:05:01.711443+05:30
Ahmedabad,Gujarat,23.0225,72.5714,32.5,32,0.0,1004.4,7.05,21.2,99,44.8,19.7,0,5,4,0,2026-03-01T13:05:01.711450+05:30
Jaipur,Rajasthan,26.9124,75.7873,31.9,23,0.0,962.3,6.45,28.4,89,78.7,24.3,0,5,7,0,2026-03-01T13:05:01.711457+05:30
Lucknow,Uttar Pradesh,26.8467,80.9462,31.0,24,0.0,995.0,6.2,39.2,132,57.3,27.9,0,5,7,0,2026-03-01T13:05:01.711465+05:30
Kanpur,Uttar Pradesh,26.4499,80.3319,30.6,31,0.0,993.6,6.2,31.0,152,144.8,34.7,0,5,7,0,2026-03-01T13:05:01.711472+05:30
Chandigarh,Chandigarh,30.7333,76.7794,27.1,43,0.0,971.1,5.6,32.4,90,39.6,24.1,4,5,3,0,2026-03-01T13:05:01.711479+05:30
Srinagar,Jammu and Kashmir,34.0837,74.7973,16.3,25,0.0,843.3,6.4,14.8,151,43.1,28.3,0,5,7,1,2026-03-01T13:05:01.711486+05:30
Jammu,Jammu and Kashmir,32.7266,74.857,26.3,39,0.0,975.0,6.15,25.2,98,43.2,25.6,4,5,7,0,2026-03-01T13:05:01.711494+05:30
Amritsar,Punjab,31.634,74.8723,26.8,42,0.0,983.8,6.1,22.0,133,67.8,42.7,4,5,7,0,2026-03-01T13:05:01.711501+05:30
Ludhiana,Punjab,30.901,75.8573,27.3,43,0.0,981.5,5.8,27.4,153,72.2,48.3,4,5,3,0,2026-03-01T13:05:01.711508+05:30
Jalandhar,Punjab,31.326,75.5762,27.1,41,0.0,982.6,5.95,24.5,155,71.5,42.8,4,5,3,0,2026-03-01T13:05:01.711517+05:30
Dehradun,Uttarakhand,30.6284,78.0322,18.8,33,0.0,830.8,5.95,35.6,66,31.2,14.0,0,5,3,0,2026-03-01T13:05:01.711524+05:30
Shimla,Himachal Pradesh,31.1048,77.1734,16.5,35,0.0,785.6,6.0,51.8,72,29.0,14.9,0,5,3,0,2026-03-01T13:05:01.711531+05:30
Manali,Himachal Pradesh,32.2396,77.1887,19.5,9,0.0,819.7,7.6,34.9,51,13.6,7.0,0,5,7,1,2026-03-01T13:05:01.711537+05:30
Gurgaon,Haryana,28.4595,77.0266,29.2,34,0.0,984.1,5.8,28.1,314,575.6,85.7,4,5,3,0,2026-03-01T13:05:01.711544+05:30
Noida,Uttar Pradesh,28.5355,77.391,29.6,30,0.0,987.0,5.75,29.5,314,575.6,85.7,4,5,3,0,2026-03-01T13:05:01.711550+05:30
Ghaziabad,Uttar Pradesh,28.6692,77.4538,28.5,37,0.0,985.2,5.7,28.1,151,146.7,46.7,4,5,3,0,2026-03-01T13:05:01.711556+05:30
Faridabad,Haryana,28.4089,77.3178,28.8,35,0.0,986.4,5.75,26.3,314,575.6,85.7,4,5,3,0,2026-03-01T13:05:01.711562+05:30
Meerut,Uttar Pradesh,28.9845,77.7064,28.4,41,0.0,983.7,5.6,33.1,151,146.7,46.7,4,5,3,0,2026-03-01T13:05:01.711569+05:30
Agra,Uttar Pradesh,27.1767,78.0081,30.6,31,0.0,990.4,6.05,22.3,159,225.8,56.6,0,5,7,0,2026-03-01T13:05:01.711576+05:30
Varanasi,Uttar Pradesh,25.3176,82.9739,31.0,41,0.0,998.6,6.85,30.6,140,70.1,37.8,0,5,7,1,2026-03-01T13:05:01.711585+05:30
Prayagraj,Uttar Pradesh,25.4358,81.8463,30.4,43,0.0,997.5,6.75,27.0,138,92.9,41.8,0,5,7,1,2026-03-01T13:05:01.711591+05:30
Gorakhpur,Uttar Pradesh,26.7606,83.3732,29.6,42,0.0,997.9,6.55,33.1,120,64.0,32.9,4,5,7,0,2026-03-01T13:05:01.711598+05:30
Bareilly,Uttar Pradesh,28.367,79.4304,28.4,40,0.0,988.4,5.9,34.2,124,57.2,38.8,4,5,3,0,2026-03-01T13:05:01.711604+05:30
Aligarh,Uttar Pradesh,27.8974,78.088,29.7,32,0.0,987.9,5.8,28.4,158,332.5,71.2,4,5,3,0,2026-03-01T13:05:01.711610+05:30
Moradabad,Uttar Pradesh,28.8386,78.7733,28.1,42,0.0,985.4,5.7,33.5,129,67.3,42.1,4,5,3,0,2026-03-01T13:05:01.711619+05:30
Saharanpur,Uttar Pradesh,29.9637,77.546,27.7,42,0.0,977.4,5.35,41.0,139,62.6,36.2,4,5,3,0,2026-03-01T13:05:01.711626+05:30
Jhansi,Uttar Pradesh,25.4484,78.5685,31.2,38,0.0,980.1,6.65,24.5,68,116.6,34.0,0,5,7,0,2026-03-01T13:05:05.047947+05:30
Surat,Gujarat,21.1702,72.8311,30.6,43,0.0,1008.6,6.95,27.0,99,67.5,50.1,0,0,4,1,2026-03-01T13:05:05.047976+05:30
Vadodara,Gujarat,22.3072,73.1812,33.0,34,0.0,1006.4,7.05,13.0,115,43.2,30.6,0,5,4,0,2026-03-01T13:05:05.047986+05:30
Rajkot,Gujarat,22.3039,70.8022,30.9,36,0.0,996.7,6.9,23.4,64,54.8,21.0,0,5,7,0,2026-03-01T13:05:05.047993+05:30
Thane,Maharashtra,19.2183,72.9781,29.7,49,0.0,1009.1,7.25,36.0,73,55.6,31.8,4,0,4,1,2026-03-01T13:05:05.048000+05:30
Nagpur,Maharashtra,21.1458,79.0882,33.3,31,0.0,974.1,7.65,28.8,128,18.9,18.0,0,5,7,0,2026-03-01T13:05:05.048007+05:30
Nashik,Maharashtra,19.9975,73.7898,30.4,29,0.0,946.7,7.45,25.6,81,25.9,23.2,0,5,7,0,2026-03-01T13:05:05.048014+05:30
Aurangabad,Maharashtra,19.8762,75.3433,32.5,27,0.0,945.2,8.0,25.6,64,24.1,21.9,0,5,7,0,2026-03-01T13:05:05.048021+05:30
Solapur,Maharashtra,17.6599,75.9064,31.8,38,0.0,958.0,8.25,19.8,78,27.9,27.4,0,5,7,0,2026-03-01T13:05:05.048028+05:30
Kolhapur,Maharashtra,16.705,74.2433,31.8,31,0.0,948.4,8.35,38.9,64,17.4,16.4,0,5,7,0,2026-03-01T13:05:05.048036+05:30
Goa,Goa,15.2993,74.124,31.0,45,0.0,998.7,8.4,35.3,54,18.5,14.0,0,5,7,1,2026-03-01T13:05:05.048043+05:30
Jodhpur,Rajasthan,26.2389,73.0243,31.7,35,0.0,985.7,6.75,18.4,70,65.7,20.7,0,5,7,0,2026-03-01T13:05:05.048050+05:30
Udaipur,Rajasthan,24.5854,73.7125,30.0,30,0.0,948.9,7.35,25.2,58,24.1,13.4,4,5,7,0,2026-03-01T13:05:05.048056+05:30
Kota,Rajasthan,25.2138,75.8648,31.0,41,0.0,981.3,6.8,19.8,75,31.0,18.4,0,5,7,1,2026-03-01T13:05:05.048063+05:30
Bikaner,Rajasthan,28.0229,73.3119,31.2,30,0.0,984.6,6.45,16.2,64,52.6,20.4,0,5,7,0,2026-03-01T13:05:05.048098+05:30
Ajmer,Rajasthan,26.4499,74.6399,30.7,31,0.0,957.2,6.7,17.6,75,47.1,17.3,0,5,7,0,2026-03-01T13:05:05.048115+05:30
Gwalior,Madhya Pradesh,26.2183,78.1828,29.8,41,0.0,985.9,6.35,25.9,102,96.2,28.5,4,5,7,0,2026-03-01T13:05:05.048130+05:30
Indore,Madhya Pradesh,22.7196,75.8577,30.0,36,0.0,950.0,7.35,22.3,71,23.7,17.0,4,5,7,0,2026-03-01T13:05:05.048139+05:30
Bhopal,Madhya Pradesh,23.2599,77.4126,29.4,38,0.0,955.7,7.2,24.1,67,20.7,17.6,4,5,7,0,2026-03-01T13:05:05.048146+05:30
Jabalpur,Madhya Pradesh,23.1815,79.9864,31.2,37,0.0,962.9,7.3,32.8,99,12.3,11.7,0,5,7,0,2026-03-01T13:05:05.048153+05:30
Ujjain,Madhya Pradesh,23.1765,75.7885,30.5,34,0.0,955.8,7.25,20.5,81,24.0,16.5,0,5,7,0,2026-03-01T13:05:05.048160+05:30
Visakhapatnam,Andhra Pradesh,17.6868,83.2185,33.5,40,0.0,1003.7,8.3,39.2,147,60.1,56.9,0,5,4,1,2026-03-01T13:05:05.048167+05:30
Vijayawada,Andhra Pradesh,16.5062,80.648,31.8,56,0.0,1003.1,8.4,25.6,151,46.9,44.6,0,5,4,1,2026-03-01T13:05:05.048173+05:30
Guntur,Andhra Pradesh,16.3067,80.4365,32.8,47,0.0,1004.1,8.4,27.4,145,45.2,43.4,0,5,4,1,2026-03-01T13:05:05.048180+05:30
Nellore,Andhra Pradesh,14.4426,79.9865,35.2,33,0.0,1005.8,8.6,32.0,143,41.1,39.6,0,5,7,1,2026-03-01T13:05:05.048188+05:30
Kurnool,Andhra Pradesh,15.8281,78.0373,35.3,31,0.0,976.8,8.4,22.0,115,40.9,39.9,0,5,10,0,2026-03-01T13:05:05.048195+05:30
Kakinada,Andhra Pradesh,16.9891,82.2475,35.5,36,0.0,1007.3,8.3,34.2,151,57.4,53.0,0,5,7,1,2026-03-01T13:05:05.048201+05:30
Tirupati,Andhra Pradesh,13.6288,79.4192,33.5,32,0.0,991.8,8.7,30.6,152,37.1,35.6,0,5,7,0,2026-03-01T13:05:05.048207+05:30
Warangal,Telangana,17.9689,79.5941,31.8,49,0.0,979.7,8.1,27.7,133,48.4,47.4,0,5,7,1,2026-03-01T13:05:05.048214+05:30
Nizamabad,Telangana,18.6725,78.0941,32.8,35,0.0,965.8,8.0,20.9,124,30.7,30.0,0,5,7,0,2026-03-01T13:05:05.048221+05:30
Mysore,Karnataka,12.2958,76.6396,30.6,39,0.0,928.7,9.05,37.1,117,52.2,50.6,0,5,7,0,2026-03-01T13:05:05.048228+05:30
Mangalore,Karnataka,12.9141,74.856,27.7,76,0.0,1007.1,8.65,33.5,47,15.4,11.2,7,5,4,1,2026-03-01T13:05:05.048235+05:30
Hubli-Dharwad,Karnataka,15.3647,75.124,32.7,24,0.0,941.4,8.55,36.4,58,23.8,22.9,0,5,7,0,2026-03-01T13:05:05.048241+05:30
Belgaum,Karnataka,15.8497,74.4977,32.8,20,0.0,926.4,8.6,38.2,56,17.2,16.4,0,5,7,0,2026-03-01T13:05:08.385893+05:30
Coimbatore,Tamil Nadu,11.0168,76.9558,32.1,40,0.0,961.9,9.05,36.4,143,48.9,47.6,0,5,7,1,2026-03-01T13:05:08.385924+05:30
Madurai,Tamil Nadu,9.9252,78.1198,33.1,39,0.0,993.1,9.0,27.7,151,40.6,38.8,0,5,7,1,2026-03-01T13:05:08.385935+05:30
Trichy,Tamil Nadu,10.7905,78.7047,34.2,37,0.0,999.8,8.9,26.6,151,34.7,32.6,0,5,7,1,2026-03-01T13:05:08.385944+05:30
Salem,Tamil Nadu,11.6643,78.146,34.9,29,0.0,977.0,8.95,25.6,150,41.2,39.7,0,5,7,0,2026-03-01T13:05:08.385952+05:30
Tirunelveli,Tamil Nadu,8.7139,77.7567,34.0,39,0.0,1003.2,9.05,43.9,140,41.8,40.3,0,5,4,1,2026-03-01T13:05:08.385961+05:30
Vellore,Tamil Nadu,12.9165,79.1325,33.9,31,0.0,984.8,8.8,38.5,155,38.4,36.9,0,5,7,0,2026-03-01T13:05:08.385968+05:30
Erode,Tamil Nadu,11.341,77.7172,34.9,32,0.0,988.7,8.95,26.6,139,42.1,40.6,0,5,7,0,2026-03-01T13:05:08.385976+05:30
Kochi,Kerala,9.9312,76.2673,28.3,75,0.0,1008.4,8.9,33.8,106,44.4,42.8,7,0,4,1,2026-03-01T13:05:08.385984+05:30
Thiruvananthapuram,Kerala,8.5241,76.9366,28.1,77,0.0,1007.9,8.95,23.8,89,32.7,31.4,7,5,4,1,2026-03-01T13:05:08.385991+05:30
Kozhikode,Kerala,11.2588,75.7804,29.8,64,0.0,1007.8,8.75,31.3,67,22.8,20.1,7,5,4,1,2026-03-01T13:05:08.385999+05:30
Thrissur,Kerala,10.5276,76.2144,32.3,55,0.0,1006.6,8.85,39.6,109,39.6,38.2,0,5,4,1,2026-03-01T13:05:08.386007+05:30
Kannur,Kerala,11.8745,75.3704,31.0,59,0.0,1007.2,8.75,38.2,50,14.4,11.0,0,5,4,1,2026-03-01T13:05:08.386016+05:30
Patna,Bihar,25.5941,85.1376,30.8,38,0.0,1001.3,7.0,30.2,117,89.4,43.9,0,5,4,0,2026-03-01T13:05:08.386023+05:30
Gaya,Bihar,24.7914,85.0002,30.6,38,0.0,994.8,7.1,21.2,101,58.6,34.6,0,5,7,0,2026-03-01T13:05:08.386031+05:30
Muzaffarpur,Bihar,26.1209,85.3647,31.0,36,0.0,1001.0,6.95,34.2,122,91.5,47.0,0,5,4,0,2026-03-01T13:05:08.386039+05:30
Bhagalpur,Bihar,25.2425,87.0117,30.2,41,0.0,1001.6,7.05,25.2,103,69.8,42.8,0,5,4,0,2026-03-01T13:05:08.386046+05:30
Ranchi,Jharkhand,23.3441,85.3096,28.9,30,0.0,938.7,7.75,27.7,86,33.6,30.5,4,5,7,0,2026-03-01T13:05:08.386054+05:30
Jamshedpur,Jharkhand,22.8046,86.2029,31.6,30,0.0,991.3,7.7,10.8,129,46.6,38.1,0,5,7,0,2026-03-01T13:05:08.386062+05:30
Dhanbad,Jharkhand,23.7957,86.4304,32.9,21,0.0,980.3,7.55,31.0,151,46.0,38.0,0,5,7,0,2026-03-01T13:05:08.386107+05:30
Bokaro,Jharkhand,23.6693,86.1511,32.6,22,0.0,984.3,7.55,30.6,151,44.0,37.5,0,5,7,0,2026-03-01T13:05:08.386118+05:30
Bhubaneswar,Odisha,20.2961,85.8245,34.4,31,0.0,1002.6,8.05,28.1,103,40.3,38.8,0,5,4,0,2026-03-01T13:05:08.386126+05:30
Cuttack,Odisha,20.4625,85.8828,35.3,31,0.0,1004.2,8.05,29.9,103,40.3,38.8,0,5,7,0,2026-03-01T13:05:08.386133+05:30
Rourkela,Odisha,22.2604,84.8536,32.8,26,0.0,985.6,7.6,22.3,119,49.0,47.4,0,5,7,0,2026-03-01T13:05:08.386140+05:30
Raipur,Chhattisgarh,21.2514,81.6296,33.7,35,0.0,975.0,7.75,27.4,158,49.1,48.5,0,5,7,1,2026-03-01T13:05:08.386147+05:30
Bhilai,Chhattisgarh,21.1938,81.3509,33.8,38,0.0,975.6,7.75,26.6,160,39.1,38.5,0,5,7,1,2026-03-01T13:05:08.386152+05:30
Guwahati,Assam,26.1158,91.7086,25.6,65,0.0,1002.1,7.0,32.0,162,80.3,62.9,7,5,4,1,2026-03-01T13:05:08.386158+05:30
Agartala,Tripura,23.8315,91.2868,30.4,52,0.0,1005.9,7.35,29.5,129,39.8,25.9,0,5,4,1,2026-03-01T13:05:08.386165+05:30
Shillong,Meghalaya,25.5788,91.8933,16.3,46,0.0,855.0,6.8,56.9,153,62.9,41.4,0,5,7,0,2026-03-01T13:05:08.386171+05:30
Imphal,Manipur,24.817,93.9368,21.2,42,0.0,922.4,7.55,54.0,151,56.1,36.4,0,5,7,0,2026-03-01T13:05:08.386177+05:30
Aizawl,Mizoram,23.7271,92.7176,23.9,37,0.0,893.4,7.55,40.0,123,54.4,32.6,0,5,7,0,2026-03-01T13:05:08.386184+05:30
Kohima,Nagaland,25.6701,94.1077,16.9,58,0.0,854.2,7.4,76.0,152,60.1,41.2,0,5,7,0,2026-03-01T13:05:08.386190+05:30
Gangtok,Sikkim,27.3314,88.6138,12.8,86,0.0,835.2,5.3,12.2,137,52.7,35.3,3,10,3,0,2026-03-01T13:05:08.386197+05:30
Siliguri,West Bengal,26.7271,88.3953,23.5,54,0.0,993.6,7.0,31.7,171,110.8,73.8,0,5,7,0,2026-03-01T13:05:11.722795+05:30
Durgapur,West Bengal,23.5204,87.3119,34.4,20,0.0,994.9,7.55,28.8,123,49.0,37.8,0,5,7,0,2026-03-01T13:05:11.722822+05:30
Asansol,West Bengal,23.6739,86.9524,33.9,21,0.0,993.7,7.55,28.1,108,45.8,36.2,0,5,7,0,2026-03-01T13:05:11.722832+05:30
Pondicherry,Puducherry,11.9139,79.8145,33.0,50,0.0,1008.7,8.8,29.2,144,50.6,46.9,0,0,4,1,2026-03-01T13:05:11.722839+05:30
Port Blair,Andaman and Nicobar Islands,11.6234,92.7265,27.9,63,0.0,1006.0,8.7,26.3,102,21.0,18.3,7,5,4,1,2026-03-01T13:05:11.722847+05:30
Haridwar,Uttarakhand,29.9457,78.1642,27.2,40,0.0,975.8,5.4,40.3,107,49.1,29.7,4,5,3,0,2026-03-01T13:05:11.722855+05:30
Rishikesh,Uttarakhand,30.0869,78.2676,27.1,37,0.0,968.2,5.5,37.1,89,44.1,22.1,4,5,3,0,2026-03-01T13:05:11.722862+05:30
Nainital,Uttarakhand,29.3919,79.4542,20.2,50,0.0,807.0,6.3,43.9,85,43.8,24.9,0,5,7,0,2026-03-01T13:05:11.722869+05:30
Mussoorie,Uttarakhand,30.4599,78.0664,18.9,36,0.0,803.6,5.85,41.8,88,43.3,22.9,0,5,3,0,2026-03-01T13:05:11.722876+05:30
Dharamshala,Himachal Pradesh,32.219,76.3234,21.7,42,0.0,870.5,6.05,27.7,58,22.3,11.0,0,5,7,0,2026-03-01T13:05:11.722882+05:30
Dalhousie,Himachal Pradesh,32.5387,75.971,21.1,24,0.0,806.0,6.25,28.8,90,41.3,23.3,0,5,7,1,2026-03-01T13:05:11.722890+05:30
Patiala,Punjab,30.3398,76.3869,27.5,45,0.0,980.8,5.5,29.9,154,232.8,59.8,4,5,3,0,2026-03-01T13:05:11.722897+05:30
Bhatinda,Punjab,30.211,74.9455,28.7,40,0.0,986.6,6.2,21.2,149,85.9,53.0,4,5,7,0,2026-03-01T13:05:11.722904+05:30
Rohtak,Haryana,28.8955,76.6066,28.9,37,0.0,984.5,5.7,29.2,158,210.9,52.7,4,5,3,0,2026-03-01T13:05:11.722911+05:30
Panipat,Haryana,29.3909,76.9635,28.4,36,0.0,982.8,5.5,29.9,347,499.2,78.7,4,5,3,0,2026-03-01T13:05:11.722917+05:30
Mathura,Uttar Pradesh,27.4924,77.6737,30.4,31,0.0,989.4,5.95,23.0,158,244.0,53.3,0,5,3,0,2026-03-01T13:05:11.722924+05:30
Vrindavan,Uttar Pradesh,27.5823,77.7027,30.0,33,0.0,989.8,5.95,25.6,158,244.0,53.3,4,5,3,0,2026-03-01T13:05:11.722931+05:30
Ayodhya,Uttar Pradesh,26.7922,82.1998,30.3,33,0.0,996.4,6.35,36.4,121,51.0,31.3,0,5,7,0,2026-03-01T13:05:11.722937+05:30
Ratlam,Madhya Pradesh,23.3315,75.0367,30.0,38,0.0,956.7,7.2,27.7,75,23.6,15.7,4,5,7,0,2026-03-01T13:05:11.722943+05:30
Sagar,Madhya Pradesh,23.8388,78.7378,30.0,35,0.0,952.0,7.15,19.1,53,17.4,14.0,4,5,7,0,2026-03-01T13:05:11.722949+05:30
Satna,Madhya Pradesh,24.6005,80.8322,31.4,30,0.0,972.7,7.1,28.4,104,31.4,21.8,0,5,7,0,2026-03-01T13:05:11.722956+05:30
Akola,Maharashtra,20.7002,77.0082,34.3,27,0.0,976.4,7.7,28.4,71,18.5,16.9,0,5,7,0,2026-03-01T13:05:11.722962+05:30
Amravati,Maharashtra,20.9374,77.7796,34.5,26,0.0,968.6,7.65,27.4,76,15.3,13.7,0,5,7,0,2026-03-01T13:05:11.722969+05:30
Latur,Maharashtra,18.4088,76.5604,30.9,34,0.0,941.0,8.15,25.6,76,23.8,23.1,0,5,7,0,2026-03-01T13:05:11.722976+05:30
Nanded,Maharashtra,19.1383,77.3091,33.7,31,0.0,969.7,7.9,15.5,79,16.6,15.8,0,5,7,0,2026-03-01T13:05:11.722982+05:30
Gulbarga,Karnataka,17.3297,76.8343,33.3,32,0.0,959.1,8.25,14.8,95,40.3,39.5,0,5,7,0,2026-03-01T13:05:11.722988+05:30
Bidar,Karnataka,17.9104,77.5199,31.1,39,0.0,936.4,8.2,19.1,110,32.0,31.4,0,5,7,0,2026-03-01T13:05:11.722994+05:30
Hospet,Karnataka,15.2689,76.3909,32.2,35,0.0,956.3,8.55,24.5,94,34.6,33.8,0,5,7,0,2026-03-01T13:05:11.723000+05:30
Tirupur,Tamil Nadu,11.1085,77.3411,33.5,37,0.0,975.2,9.1,20.5,151,48.9,47.5,0,5,7,1,2026-03-01T13:05:11.723007+05:30
Alappuzha,Kerala,9.4981,76.3388,28.2,77,0.0,1008.4,8.9,31.3,92,38.9,37.5,7,0,4,1,2026-03-01T13:05:11.723014+05:30
Munnar,Kerala,10.0889,77.0595,28.4,39,0.0,858.5,9.4,27.0,129,39.2,37.8,4,5,7,0,2026-03-01T13:05:11.723021+05:30
Silchar,Assam,24.8333,92.7789,29.6,44,0.0,1005.0,7.3,20.5,157,64.7,41.4,4,5,4,0,2026-03-01T13:05:11.723027+05:30
Dibrugarh,Assam,27.4728,94.912,20.7,78,0.0,997.2,7.0,13.7,159,90.8,77.3,3,5,7,1,2026-03-01T13:05:11.723034+05:30
