city,state,latitude,longitude,temp,humidity,rain,pressure,uv_index,wind_gusts,aqi,pm10,pm2_5,mosquito_risk,arthritis_risk,migraine_risk,frizz_risk,updated_at
Delhi,Delhi,28.6139,77.209,22.3,64,0.0,987.0,6.45,28.4,175,599.8,115.0,3,5,7,0,2026-03-23T00:11:32.476956+05:30
Mumbai,Maharashtra,19.076,72.8777,29.1,58,0.0,1009.9,7.9,28.4,145,53.7,38.5,4,0,4,1,2026-03-23T00:11:32.477017+05:30
Bangalore,Karnataka,12.9716,77.5946,24.2,67,0.0,913.4,9.45,25.2,114,94.5,82.2,3,5,7,1,2026-03-23T00:11:32.477032+05:30
Hyderabad,Telangana,17.385,78.4867,24.8,75,0.0,955.8,8.9,24.5,101,38.0,31.3,3,5,7,1,2026-03-23T00:11:32.477043+05:30
Chennai,Tamil Nadu,13.0827,80.2707,26.8,80,0.0,1010.0,9.15,32.4,37,12.6,8.4,7,0,4,1,2026-03-23T00:11:32.477052+05:30
Kolkata,West Bengal,22.5726,88.3639,22.7,77,0.0,1010.7,8.25,16.6,140,84.5,81.7,3,0,4,1,2026-03-23T00:11:32.477060+05:30
Pune,Maharashtra,18.5204,73.8567,25.8,56,0.0,950.5,8.45,26.6,86,37.1,27.4,4,5,7,1,2026-03-23T00:11:32.477073+05:30
Ahmedabad,Gujarat,23.0225,72.5714,25.1,54,0.0,1005.2,7.65,22.7,75,79.2,49.0,4,5,4,0,2026-03-23T00:11:32.477081+05:30
Jaipur,Rajasthan,26.9124,75.7873,22.9,52,0.0,962.8,7.25,29.9,90,103.1,46.3,0,5,7,0,2026-03-23T00:11:32.477090+05:30
Lucknow,Uttar Pradesh,26.8467,80.9462,21.9,62,0.0,997.8,6.95,26.6,123,350.2,69.4,3,5,7,0,2026-03-23T00:11:32.477098+05:30
Kanpur,Uttar Pradesh,26.4499,80.3319,21.8,72,0.0,996.0,7.0,27.7,158,493.6,83.8,3,5,7,1,2026-03-23T00:11:32.477105+05:30
Chandigarh,Chandigarh,30.7333,76.7794,18.5,80,0.0,972.5,6.4,33.1,94,58.1,52.4,3,5,7,0,2026-03-23T00:11:32.477113+05:30
Srinagar,Jammu and Kashmir,34.0837,74.7973,8.1,88,0.0,839.6,7.5,14.0,119,91.0,81.0,3,10,7,0,2026-03-23T00:11:32.477121+05:30
Jammu,Jammu and Kashmir,32.7266,74.857,18.8,85,0.0,976.5,6.85,22.0,104,60.5,56.2,3,10,7,1,2026-03-23T00:11:32.477129+05:30
Amritsar,Punjab,31.634,74.8723,19.5,72,0.0,984.9,7.05,20.5,155,89.4,67.3,3,5,7,0,2026-03-23T00:11:32.477136+05:30
Ludhiana,Punjab,30.901,75.8573,20.2,72,0.0,982.9,6.6,26.6,139,118.5,67.3,3,5,7,0,2026-03-23T00:11:32.477143+05:30
Jalandhar,Punjab,31.326,75.5762,19.4,76,0.0,984.1,6.85,21.6,152,101.7,71.5,3,5,7,0,2026-03-23T00:11:32.477152+05:30
Dehradun,Uttarakhand,30.6284,78.0322,11.0,91,0.0,830.2,6.8,24.1,98,37.5,33.1,3,10,7,0,2026-03-23T00:11:32.477159+05:30
Shimla,Himachal Pradesh,31.1048,77.1734,9.3,89,0.0,783.4,6.85,41.0,88,42.5,37.8,3,10,7,0,2026-03-23T00:11:32.477167+05:30
Manali,Himachal Pradesh,32.2396,77.1887,11.8,39,0.0,818.1,8.9,33.8,101,25.6,16.5,0,5,7,1,2026-03-23T00:11:32.477174+05:30
Gurgaon,Haryana,28.4595,77.0266,20.2,75,0.0,985.4,6.55,23.8,462,614.7,115.9,3,5,7,0,2026-03-23T00:11:32.477181+05:30
Noida,Uttar Pradesh,28.5355,77.391,22.2,65,0.0,988.6,6.45,27.7,462,614.7,115.9,3,5,7,0,2026-03-23T00:11:32.477188+05:30
Ghaziabad,Uttar Pradesh,28.6692,77.4538,20.4,73,0.0,986.6,6.45,28.1,155,547.6,107.3,3,5,7,0,2026-03-23T00:11:32.477195+05:30
Faridabad,Haryana,28.4089,77.3178,20.6,71,0.0,987.7,6.5,24.8,462,614.7,115.9,3,5,7,0,2026-03-23T00:11:32.477202+05:30
Meerut,Uttar Pradesh,28.9845,77.7064,19.0,78,0.0,985.5,6.3,31.7,155,547.6,107.3,3,5,7,0,2026-03-23T00:11:32.477209+05:30
Agra,Uttar Pradesh,27.1767,78.0081,21.8,63,0.0,991.7,6.45,29.9,487,480.6,88.7,3,5,7,0,2026-03-23T00:11:32.477216+05:30
Varanasi,Uttar Pradesh,25.3176,82.9739,20.3,75,0.0,1002.0,7.1,28.4,106,67.3,54.2,3,5,4,0,2026-03-23T00:11:32.477227+05:30
Prayagraj,Uttar Pradesh,25.4358,81.8463,22.2,59,0.0,1000.6,7.5,24.8,115,133.6,45.9,0,5,4,0,2026-03-23T00:11:32.477235+05:30
Gorakhpur,Uttar Pradesh,26.7606,83.3732,19.3,85,0.0,1001.8,7.25,11.2,157,50.2,48.1,3,10,4,1,2026-03-23T00:11:32.477242+05:30
Bareilly,Uttar Pradesh,28.367,79.4304,18.5,83,0.0,991.0,6.65,29.5,117,157.9,54.8,3,10,7,0,2026-03-23T00:11:32.477249+05:30
Aligarh,Uttar Pradesh,27.8974,78.088,19.7,73,0.0,989.6,6.6,27.7,358,516.0,103.8,3,5,7,0,2026-03-23T00:11:32.477255+05:30
Moradabad,Uttar Pradesh,28.8386,78.7733,18.6,79,0.0,987.7,6.5,30.6,136,265.4,68.7,3,5,7,0,2026-03-23T00:11:32.477264+05:30
Saharanpur,Uttar Pradesh,29.9637,77.546,18.3,81,0.0,979.5,6.15,34.2,152,276.6,80.3,3,10,7,0,2026-03-23T00:11:32.477270+05:30
Jhansi,Uttar Pradesh,25.4484,78.5685,23.4,52,0.0,981.6,7.45,32.4,80,62.2,30.4,0,5,7,0,2026-03-23T00:11:35.849448+05:30
Surat,Gujarat,21.1702,72.8311,27.4,48,0.0,1009.1,7.65,24.5,113,71.0,53.9,4,0,4,0,2026-03-23T00:11:35.849484+05:30
Vadodara,Gujarat,22.3072,73.1812,26.8,52,0.0,1007.1,7.8,20.5,82,55.9,38.8,4,5,4,1,2026-03-23T00:11:35.849496+05:30
Rajkot,Gujarat,22.3039,70.8022,24.2,72,0.0,997.7,7.6,25.9,66,35.7,21.8,3,5,7,1,2026-03-23T00:11:35.849505+05:30
Thane,Maharashtra,19.2183,72.9781,28.5,44,0.0,1009.4,7.85,41.0,145,53.7,38.5,4,0,4,0,2026-03-23T00:11:35.849514+05:30
Nagpur,Maharashtra,21.1458,79.0882,25.2,49,0.0,976.5,8.35,19.4,55,36.9,29.7,4,5,7,0,2026-03-23T00:11:35.849523+05:30
Nashik,Maharashtra,19.9975,73.7898,23.7,59,0.0,947.9,8.1,24.8,84,33.4,21.8,0,5,7,0,2026-03-23T00:11:35.849532+05:30
Aurangabad,Maharashtra,19.8762,75.3433,24.1,48,0.0,946.1,8.6,27.0,65,44.2,34.2,0,5,7,0,2026-03-23T00:11:35.849539+05:30
Solapur,Maharashtra,17.6599,75.9064,25.5,49,0.0,958.5,8.75,24.5,71,19.7,16.7,4,5,7,0,2026-03-23T00:11:35.849548+05:30
Kolhapur,Maharashtra,16.705,74.2433,20.3,74,0.0,949.3,8.85,29.2,89,33.1,30.0,3,5,7,0,2026-03-23T00:11:35.849556+05:30
Goa,Goa,15.2993,74.124,27.8,83,0.0,999.6,8.85,35.3,93,51.1,41.0,7,5,7,1,2026-03-23T00:11:35.849564+05:30
Jodhpur,Rajasthan,26.2389,73.0243,24.2,68,0.0,986.7,7.55,33.8,69,97.1,23.0,3,5,7,1,2026-03-23T00:11:35.849572+05:30
Udaipur,Rajasthan,24.5854,73.7125,22.9,51,0.0,949.3,8.15,27.0,59,44.0,16.6,0,5,7,0,2026-03-23T00:11:35.849580+05:30
Kota,Rajasthan,25.2138,75.8648,25.4,50,0.0,981.8,7.4,12.6,89,42.3,29.9,4,5,7,0,2026-03-23T00:11:35.849588+05:30
Bikaner,Rajasthan,28.0229,73.3119,23.6,63,0.0,986.2,7.1,27.4,69,52.0,19.1,3,5,7,1,2026-03-23T00:11:35.849596+05:30
Ajmer,Rajasthan,26.4499,74.6399,24.1,50,0.0,958.0,7.35,25.9,68,43.5,17.9,0,5,7,0,2026-03-23T00:11:35.849604+05:30
Gwalior,Madhya Pradesh,26.2183,78.1828,23.3,61,0.0,986.9,7.15,29.9,132,144.4,38.3,3,5,7,0,2026-03-23T00:11:35.849612+05:30
Indore,Madhya Pradesh,22.7196,75.8577,21.9,59,0.0,950.5,8.05,17.6,62,37.5,26.7,0,5,7,0,2026-03-23T00:11:35.849620+05:30
Bhopal,Madhya Pradesh,23.2599,77.4126,23.5,44,0.0,956.3,7.9,25.9,55,26.8,17.4,0,5,7,0,2026-03-23T00:11:35.849628+05:30
Jabalpur,Madhya Pradesh,23.1815,79.9864,23.2,53,0.0,964.9,8.05,29.9,59,60.1,26.6,0,5,7,0,2026-03-23T00:11:35.849635+05:30
Ujjain,Madhya Pradesh,23.1765,75.7885,22.9,56,0.0,956.4,8.0,13.3,70,61.5,50.1,0,5,7,0,2026-03-23T00:11:35.849644+05:30
Visakhapatnam,Andhra Pradesh,17.6868,83.2185,24.9,87,0.0,1007.1,8.85,36.7,78,26.0,21.3,3,5,4,1,2026-03-23T00:11:35.849652+05:30
Vijayawada,Andhra Pradesh,16.5062,80.648,26.0,85,0.0,1005.9,8.9,18.7,65,31.1,27.0,7,5,4,1,2026-03-23T00:11:35.849660+05:30
Guntur,Andhra Pradesh,16.3067,80.4365,25.6,90,0.0,1007.0,8.9,19.4,66,31.8,27.8,7,5,4,1,2026-03-23T00:11:35.849668+05:30
Nellore,Andhra Pradesh,14.4426,79.9865,25.9,86,0.0,1009.0,9.05,27.7,47,10.6,6.8,7,0,4,1,2026-03-23T00:11:35.849676+05:30
Kurnool,Andhra Pradesh,15.8281,78.0373,28.6,60,0.0,978.9,8.9,22.0,79,39.2,30.5,4,5,7,1,2026-03-23T00:11:35.849685+05:30
Kakinada,Andhra Pradesh,16.9891,82.2475,24.0,92,0.0,1010.9,8.8,28.8,43,16.8,11.7,3,0,4,1,2026-03-23T00:11:35.849693+05:30
Tirupati,Andhra Pradesh,13.6288,79.4192,24.9,80,0.0,994.9,9.2,30.2,68,24.9,21.0,3,5,7,1,2026-03-23T00:11:35.849701+05:30
Warangal,Telangana,17.9689,79.5941,25.9,75,0.0,981.4,8.75,19.8,120,78.9,67.5,7,5,7,1,2026-03-23T00:11:35.849709+05:30
Nizamabad,Telangana,18.6725,78.0941,25.6,66,0.0,967.4,8.65,27.4,79,61.2,54.9,7,5,7,1,2026-03-23T00:11:35.849717+05:30
Mysore,Karnataka,12.2958,76.6396,23.9,78,0.0,930.0,9.4,29.2,99,46.4,37.1,3,5,7,1,2026-03-23T00:11:35.849725+05:30
Mangalore,Karnataka,12.9141,74.856,29.4,76,0.0,1008.6,9.05,28.4,75,35.0,24.1,7,0,4,1,2026-03-23T00:11:35.849733+05:30
Hubli-Dharwad,Karnataka,15.3647,75.124,23.8,73,0.0,942.3,9.05,25.2,85,26.5,21.0,3,5,7,1,2026-03-23T00:11:35.849742+05:30
Belgaum,Karnataka,15.8497,74.4977,22.6,74,0.0,927.2,9.1,33.1,94,36.2,29.6,3,5,7,1,2026-03-23T00:11:39.210311+05:30
Coimbatore,Tamil Nadu,11.0168,76.9558,24.7,84,0.0,963.7,9.3,33.5,85,51.6,43.0,3,5,7,1,2026-03-23T00:11:39.210342+05:30
Madurai,Tamil Nadu,9.9252,78.1198,26.5,78,0.0,995.6,9.35,25.9,64,25.6,22.4,7,5,7,1,2026-03-23T00:11:39.210352+05:30
Trichy,Tamil Nadu,10.7905,78.7047,25.9,87,0.0,1002.3,9.25,23.8,65,20.8,17.6,7,5,4,1,2026-03-23T00:11:39.210360+05:30
Salem,Tamil Nadu,11.6643,78.146,26.7,73,0.0,979.4,9.3,20.9,84,35.5,30.3,7,5,7,1,2026-03-23T00:11:39.210368+05:30
Tirunelveli,Tamil Nadu,8.7139,77.7567,26.7,73,0.0,1005.6,9.3,32.8,68,29.9,27.1,7,5,4,1,2026-03-23T00:11:39.210376+05:30
Vellore,Tamil Nadu,12.9165,79.1325,25.0,72,0.0,987.6,9.25,32.8,85,31.8,27.6,7,5,7,1,2026-03-23T00:11:39.210384+05:30
Erode,Tamil Nadu,11.341,77.7172,27.6,75,0.0,991.1,9.3,32.8,66,22.1,18.9,7,5,7,1,2026-03-23T00:11:39.210392+05:30
Kochi,Kerala,9.9312,76.2673,27.7,80,0.0,1010.9,9.15,34.9,77,48.2,45.3,7,0,4,1,2026-03-23T00:11:39.210399+05:30
Thiruvananthapuram,Kerala,8.5241,76.9366,27.6,79,0.0,1009.8,9.15,26.3,97,19.1,14.3,7,0,4,1,2026-03-23T00:11:39.210406+05:30
Kozhikode,Kerala,11.2588,75.7804,29.2,78,0.0,1009.3,9.1,31.0,65,44.8,24.3,7,0,4,1,2026-03-23T00:11:39.210413+05:30
Thrissur,Kerala,10.5276,76.2144,27.5,81,0.0,1008.8,9.1,38.2,76,57.6,52.4,7,0,4,1,2026-03-23T00:11:39.210421+05:30
Kannur,Kerala,11.8745,75.3704,28.9,78,0.0,1008.8,9.05,34.9,69,36.8,22.7,7,0,4,1,2026-03-23T00:11:39.210428+05:30
Patna,Bihar,25.5941,85.1376,21.0,79,0.0,1005.5,7.55,19.1,160,62.2,59.5,3,5,4,1,2026-03-23T00:11:39.210435+05:30
Gaya,Bihar,24.7914,85.0002,19.8,84,0.0,998.8,7.5,21.6,137,67.3,59.8,3,10,7,1,2026-03-23T00:11:39.210442+05:30
Muzaffarpur,Bihar,26.1209,85.3647,19.6,77,0.0,1005.4,6.15,11.5,162,63.3,61.0,3,5,4,0,2026-03-23T00:11:39.210449+05:30
Bhagalpur,Bihar,25.2425,87.0117,20.5,80,0.0,1006.4,7.05,17.3,156,86.1,79.4,3,5,4,1,2026-03-23T00:11:39.210456+05:30
Ranchi,Jharkhand,23.3441,85.3096,18.2,68,0.0,940.9,8.45,29.5,87,69.4,32.9,3,5,7,0,2026-03-23T00:11:39.210463+05:30
Jamshedpur,Jharkhand,22.8046,86.2029,24.6,51,0.0,995.2,8.35,19.1,121,75.0,59.6,0,5,7,0,2026-03-23T00:11:39.210469+05:30
Dhanbad,Jharkhand,23.7957,86.4304,21.0,72,0.0,984.5,8.2,23.8,142,97.8,86.4,3,5,7,0,2026-03-23T00:11:39.210475+05:30
Bokaro,Jharkhand,23.6693,86.1511,21.1,72,0.0,988.8,8.2,24.5,141,106.2,87.1,3,5,7,0,2026-03-23T00:11:39.210481+05:30
Bhubaneswar,Odisha,20.2961,85.8245,24.2,91,0.0,1006.8,8.65,26.3,91,44.6,38.2,3,5,4,1,2026-03-23T00:11:39.210488+05:30
Cuttack,Odisha,20.4625,85.8828,24.2,90,0.0,1008.8,8.65,21.2,91,44.6,38.2,3,0,4,1,2026-03-23T00:11:39.210494+05:30
Rourkela,Odisha,22.2604,84.8536,20.5,80,0.0,989.0,8.2,20.5,81,50.2,37.1,3,5,7,1,2026-03-23T00:11:39.210500+05:30
Raipur,Chhattisgarh,21.2514,81.6296,22.9,43,0.0,978.1,8.4,23.0,80,67.8,60.3,0,5,7,0,2026-03-23T00:11:39.210506+05:30
Bhilai,Chhattisgarh,21.1938,81.3509,22.3,46,0.0,978.5,8.4,16.9,83,84.3,73.1,0,5,7,0,2026-03-23T00:11:39.210513+05:30
Guwahati,Assam,26.1158,91.7086,21.4,89,0.0,1006.2,7.6,20.5,81,23.6,21.4,3,5,4,1,2026-03-23T00:11:39.210519+05:30
Agartala,Tripura,23.8315,91.2868,20.3,87,0.0,1011.0,7.85,22.0,142,92.0,87.1,3,0,4,1,2026-03-23T00:11:39.210526+05:30
Shillong,Meghalaya,25.5788,91.8933,9.1,92,0.0,855.6,6.7,26.3,60,22.6,20.4,3,10,7,0,2026-03-23T00:11:39.210532+05:30
Imphal,Manipur,24.817,93.9368,13.4,91,0.0,925.4,8.15,51.5,60,26.5,25.0,3,10,7,0,2026-03-23T00:11:39.210540+05:30
Aizawl,Mizoram,23.7271,92.7176,14.5,86,0.0,894.4,8.2,44.6,48,21.6,20.0,3,10,7,0,2026-03-23T00:11:39.210546+05:30
Kohima,Nagaland,25.6701,94.1077,11.0,85,0.0,854.9,7.8,56.9,54,17.6,16.2,3,10,7,0,2026-03-23T00:11:39.210552+05:30
Gangtok,Sikkim,27.3314,88.6138,11.1,93,0.1,837.3,7.85,19.4,59,19.3,18.7,6,10,7,0,2026-03-23T00:11:39.210559+05:30
Siliguri,West Bengal,26.7271,88.3953,17.5,74,0.0,998.2,7.45,17.3,101,50.2,48.4,3,5,7,0,2026-03-23T00:11:42.564971+05:30
Durgapur,West Bengal,23.5204,87.3119,22.1,74,0.0,999.8,8.1,18.4,132,89.2,85.2,3,5,7,1,2026-03-23T00:11:42.565003+05:30
Asansol,West Bengal,23.6739,86.9524,22.4,70,0.0,998.5,8.2,20.5,119,59.6,54.9,3,5,7,1,2026-03-23T00:11:42.565012+05:30
Pondicherry,Puducherry,11.9139,79.8145,25.2,90,0.0,1011.3,9.15,28.8,34,12.9,7.7,7,0,4,1,2026-03-23T00:11:42.565021+05:30
Port Blair,Andaman and Nicobar Islands,11.6234,92.7265,28.0,81,0.0,1008.9,9.1,20.9,42,10.7,7.8,7,0,4,1,2026-03-23T00:11:42.565029+05:30
Haridwar,Uttarakhand,29.9457,78.1642,17.5,89,0.0,978.1,6.25,25.9,119,201.6,67.5,3,10,7,0,2026-03-23T00:11:42.565037+05:30
Rishikesh,Uttarakhand,30.0869,78.2676,17.6,78,0.0,970.7,6.3,25.6,111,95.2,46.6,3,5,7,0,2026-03-23T00:11:42.565045+05:30
Nainital,Uttarakhand,29.3919,79.4542,13.9,71,0.0,806.4,7.15,37.8,104,53.8,36.1,3,5,7,0,2026-03-23T00:11:42.565053+05:30
Mussoorie,Uttarakhand,30.4599,78.0664,12.3,77,0.0,802.7,6.65,25.9,90,99.9,54.8,3,5,7,0,2026-03-23T00:11:42.565060+05:30
Dharamshala,Himachal Pradesh,32.219,76.3234,15.9,69,0.0,870.3,6.75,20.9,111,30.3,22.9,3,5,7,0,2026-03-23T00:11:42.565067+05:30
Dalhousie,Himachal Pradesh,32.5387,75.971,11.8,81,0.0,803.3,7.0,19.1,90,57.0,52.6,3,10,7,0,2026-03-23T00:11:42.565075+05:30
Patiala,Punjab,30.3398,76.3869,18.4,83,0.0,982.3,6.3,31.3,159,242.1,73.1,3,10,7,0,2026-03-23T00:11:42.565083+05:30
Bhatinda,Punjab,30.211,74.9455,20.2,79,0.0,988.1,6.9,19.4,151,138.8,73.3,3,5,7,1,2026-03-23T00:11:42.565089+05:30
Rohtak,Haryana,28.8955,76.6066,19.4,80,0.0,985.7,6.45,24.8,193,530.9,105.0,3,5,7,0,2026-03-23T00:11:42.565096+05:30
Panipat,Haryana,29.3909,76.9635,18.2,81,0.0,984.4,6.25,29.5,449,545.8,111.3,3,10,7,0,2026-03-23T00:11:42.565103+05:30
Mathura,Uttar Pradesh,27.4924,77.6737,20.0,74,0.0,990.8,6.6,28.1,323,461.9,89.4,3,5,7,0,2026-03-23T00:11:42.565110+05:30
Vrindavan,Uttar Pradesh,27.5823,77.7027,20.3,71,0.0,991.2,6.45,28.1,323,461.9,89.4,3,5,7,0,2026-03-23T00:11:42.565117+05:30
Ayodhya,Uttar Pradesh,26.7922,82.1998,20.4,79,0.0,999.6,7.0,18.7,104,88.9,41.0,3,5,7,1,2026-03-23T00:11:42.565123+05:30
Ratlam,Madhya Pradesh,23.3315,75.0367,24.7,48,0.0,957.1,7.95,14.4,66,56.9,44.6,0,5,7,0,2026-03-23T00:11:42.565131+05:30
Sagar,Madhya Pradesh,23.8388,78.7378,22.8,51,0.0,953.0,7.95,29.9,62,49.2,23.7,0,5,7,0,2026-03-23T00:11:42.565137+05:30
Satna,Madhya Pradesh,24.6005,80.8322,22.2,51,0.0,975.4,7.9,32.4,74,86.8,27.4,0,5,7,0,2026-03-23T00:11:42.565144+05:30
Akola,Maharashtra,20.7002,77.0082,25.4,48,0.0,977.8,8.3,21.2,76,38.2,32.7,4,5,7,0,2026-03-23T00:11:42.565151+05:30
Amravati,Maharashtra,20.9374,77.7796,24.4,52,0.0,970.0,8.3,22.3,79,34.0,28.2,0,5,7,0,2026-03-23T00:11:42.565158+05:30
Latur,Maharashtra,18.4088,76.5604,23.9,51,0.0,941.6,8.7,28.8,91,24.4,18.1,0,5,7,0,2026-03-23T00:11:42.565164+05:30
Nanded,Maharashtra,19.1383,77.3091,25.7,47,0.0,971.0,8.5,28.4,61,24.6,22.7,4,5,7,0,2026-03-23T00:11:42.565171+05:30
Gulbarga,Karnataka,17.3297,76.8343,28.2,40,0.0,960.7,8.75,18.4,85,37.6,30.3,4,5,7,0,2026-03-23T00:11:42.565178+05:30
Bidar,Karnataka,17.9104,77.5199,26.0,62,0.0,937.8,8.75,20.5,90,28.8,24.0,7,5,7,1,2026-03-23T00:11:42.565184+05:30
Hospet,Karnataka,15.2689,76.3909,27.9,59,0.0,957.3,9.0,15.1,138,39.2,31.9,4,5,7,1,2026-03-23T00:11:42.565190+05:30
Tirupur,Tamil Nadu,11.1085,77.3411,27.6,67,0.0,977.4,9.4,31.0,81,42.0,35.9,7,5,7,1,2026-03-23T00:11:42.565197+05:30
Alappuzha,Kerala,9.4981,76.3388,27.3,82,0.0,1011.1,9.15,33.5,64,41.3,34.0,7,0,4,1,2026-03-23T00:11:42.565203+05:30
Munnar,Kerala,10.0889,77.0595,20.7,87,0.0,858.3,8.65,26.6,69,38.4,30.7,3,5,7,1,2026-03-23T00:11:42.565210+05:30
Silchar,Assam,24.8333,92.7789,19.8,92,0.0,1010.6,7.95,22.3,84,56.7,51.7,3,5,4,1,2026-03-23T00:11:42.565217+05:30
Dibrugarh,Assam,27.4728,94.912,20.7,93,0.0,1000.2,4.5,28.4,112,28.9,27.0,3,5,0,1,2026-03-23T00:11:42.565223+05:30
