city,state,latitude,longitude,temp,humidity,rain,pressure,uv_index,wind_gusts,aqi,pm10,pm2_5,no2,co,o3,so2,mosquito_risk,arthritis_risk,migraine_risk,frizz_risk,updated_at
Delhi,Delhi,28.6139,77.209,30.0,49,0.0,976.8,7.1,43.6,163,141.6,59.0,27.6,1776.0,78.0,20.9,4,5,7,1,2026-06-05T02:28:30.350646+05:30
Mumbai,Maharashtra,19.076,72.8777,30.3,71,0.0,1004.1,7.65,40.3,59,38.4,16.5,9.0,170.0,45.0,9.1,3,5,4,1,2026-06-05T02:28:30.350686+05:30
Bangalore,Karnataka,12.9716,77.5946,20.9,93,0.0,909.4,8.9,49.3,30,5.5,4.7,11.5,191.0,34.0,4.5,3,5,7,1,2026-06-05T02:28:30.350701+05:30
Hyderabad,Telangana,17.385,78.4867,28.1,64,0.0,949.6,5.75,48.6,66,16.5,12.5,9.4,263.0,71.0,4.6,7,5,3,1,2026-06-05T02:28:30.350710+05:30
Chennai,Tamil Nadu,13.0827,80.2707,31.7,56,0.0,1003.0,8.95,38.9,57,13.8,11.0,15.7,266.0,59.0,7.6,0,5,4,1,2026-06-05T02:28:30.350719+05:30
Kolkata,West Bengal,22.5726,88.3639,30.6,89,0.0,999.7,8.9,30.2,129,37.6,33.3,9.5,459.0,84.0,6.9,3,5,7,1,2026-06-05T02:28:30.350727+05:30
Pune,Maharashtra,18.5204,73.8567,25.0,84,0.0,944.8,8.25,42.8,54,7.9,5.6,9.0,136.0,43.0,7.7,7,5,7,1,2026-06-05T02:28:30.350734+05:30
Ahmedabad,Gujarat,23.0225,72.5714,32.3,61,0.0,996.8,8.05,38.9,74,28.2,18.9,7.5,181.0,47.0,4.6,3,5,7,1,2026-06-05T02:28:30.350741+05:30
Jaipur,Rajasthan,26.9124,75.7873,27.8,59,0.0,954.2,8.2,34.9,115,111.1,32.6,9.9,222.0,55.0,5.1,4,5,7,1,2026-06-05T02:28:30.350752+05:30
Lucknow,Uttar Pradesh,26.8467,80.9462,30.2,58,0.0,986.7,8.4,36.7,155,113.9,81.0,52.0,632.0,35.0,20.4,0,5,7,1,2026-06-05T02:28:30.350759+05:30
Kanpur,Uttar Pradesh,26.4499,80.3319,31.2,57,0.0,985.0,8.1,35.6,151,93.4,54.1,34.8,758.0,47.0,12.0,0,5,7,1,2026-06-05T02:28:30.350766+05:30
Chandigarh,Chandigarh,30.7333,76.7794,25.5,68,0.0,962.2,7.7,25.9,123,52.4,45.8,29.1,1163.0,56.0,10.0,7,5,7,1,2026-06-05T02:28:30.350775+05:30
Srinagar,Jammu and Kashmir,34.0837,74.7973,13.6,99,0.0,838.7,9.0,29.2,83,47.5,42.0,28.7,325.0,24.0,1.3,3,10,7,0,2026-06-05T02:28:30.350783+05:30
Jammu,Jammu and Kashmir,32.7266,74.857,24.5,69,0.0,967.0,8.6,23.8,98,64.3,52.6,54.1,583.0,0.0,5.0,3,5,7,1,2026-06-05T02:28:30.350789+05:30
Amritsar,Punjab,31.634,74.8723,26.1,67,0.0,974.6,8.4,24.1,144,67.3,55.1,26.3,1015.0,63.0,6.9,7,5,7,1,2026-06-05T02:28:30.350796+05:30
Ludhiana,Punjab,30.901,75.8573,26.8,69,0.0,971.9,7.95,29.5,151,65.9,52.9,23.2,821.0,72.0,11.9,7,5,7,1,2026-06-05T02:28:30.350802+05:30
Jalandhar,Punjab,31.326,75.5762,26.1,71,0.0,973.5,8.2,23.4,145,67.1,54.0,30.2,1422.0,58.0,7.3,7,5,7,1,2026-06-05T02:28:30.350809+05:30
Dehradun,Uttarakhand,30.6284,78.0322,14.1,98,0.0,825.5,3.85,33.1,56,23.6,15.8,27.4,221.0,28.0,0.7,3,10,3,0,2026-06-05T02:28:30.350816+05:30
Shimla,Himachal Pradesh,31.1048,77.1734,12.5,95,0.0,778.8,4.35,40.7,83,22.2,16.2,12.7,361.0,96.0,0.3,3,10,3,0,2026-06-05T02:28:30.350825+05:30
Manali,Himachal Pradesh,32.2396,77.1887,15.5,82,0.1,815.3,5.0,34.2,59,3.9,3.9,21.6,278.0,102.0,0.0,6,10,3,0,2026-06-05T02:28:30.350832+05:30
Gurgaon,Haryana,28.4595,77.0266,28.9,56,0.0,975.1,7.05,48.2,515,129.5,54.2,32.6,1658.0,57.0,17.2,4,5,7,1,2026-06-05T02:28:30.350841+05:30
Noida,Uttar Pradesh,28.5355,77.391,28.5,59,0.0,978.2,7.2,26.6,515,129.5,54.2,32.6,2475.0,57.0,17.2,4,5,7,1,2026-06-05T02:28:30.350847+05:30
Ghaziabad,Uttar Pradesh,28.6692,77.4538,27.7,62,0.0,976.5,7.35,25.6,158,140.6,61.7,23.1,846.0,86.0,17.8,7,5,7,1,2026-06-05T02:28:30.350854+05:30
Faridabad,Haryana,28.4089,77.3178,29.2,53,0.0,977.5,7.15,27.7,515,129.5,54.2,32.6,1708.0,57.0,17.2,4,5,7,1,2026-06-05T02:28:30.350860+05:30
Meerut,Uttar Pradesh,28.9845,77.7064,27.5,62,0.0,975.6,7.55,27.4,158,140.6,61.7,23.1,692.0,86.0,17.8,7,5,7,1,2026-06-05T02:28:30.350867+05:30
Agra,Uttar Pradesh,27.1767,78.0081,28.4,59,0.0,981.7,7.7,36.4,171,96.4,35.9,11.9,451.0,67.0,5.1,4,5,7,1,2026-06-05T02:28:30.350873+05:30
Varanasi,Uttar Pradesh,25.3176,82.9739,31.2,55,0.0,991.3,8.8,24.1,133,74.7,59.8,48.3,1158.0,17.0,15.8,0,5,7,1,2026-06-05T02:28:30.350880+05:30
Prayagraj,Uttar Pradesh,25.4358,81.8463,30.8,58,0.0,989.5,8.75,31.0,139,120.1,89.2,83.3,493.0,4.0,25.3,0,5,7,1,2026-06-05T02:28:30.350887+05:30
Gorakhpur,Uttar Pradesh,26.7606,83.3732,28.9,71,0.0,990.7,8.4,23.8,152,122.5,87.3,59.9,610.0,18.0,17.0,7,5,7,1,2026-06-05T02:28:30.350899+05:30
Bareilly,Uttar Pradesh,28.367,79.4304,27.4,70,0.0,980.8,8.15,24.5,144,74.7,58.7,39.2,752.0,49.0,11.5,7,5,7,1,2026-06-05T02:28:30.350905+05:30
Aligarh,Uttar Pradesh,27.8974,78.088,27.6,67,0.0,979.4,8.0,33.5,154,104.8,45.2,31.5,839.0,52.0,9.9,7,5,7,1,2026-06-05T02:28:30.350912+05:30
Moradabad,Uttar Pradesh,28.8386,78.7733,28.1,66,0.0,977.6,7.6,28.1,156,202.1,100.8,55.3,759.0,50.0,22.7,7,5,7,1,2026-06-05T02:28:30.350918+05:30
Saharanpur,Uttar Pradesh,29.9637,77.546,26.1,73,0.0,969.5,6.1,26.6,146,161.1,95.9,72.7,633.0,12.0,20.0,7,5,7,1,2026-06-05T02:28:30.350924+05:30
Jhansi,Uttar Pradesh,25.4484,78.5685,30.1,47,0.0,972.2,8.5,39.2,82,46.4,23.7,4.6,188.0,64.0,2.8,0,5,7,1,2026-06-05T02:28:33.603255+05:30
Surat,Gujarat,21.1702,72.8311,29.7,80,0.0,1002.2,7.45,51.5,75,42.1,23.3,15.2,228.0,39.0,26.3,7,5,4,1,2026-06-05T02:28:33.603291+05:30
Vadodara,Gujarat,22.3072,73.1812,29.9,75,0.0,999.7,8.0,48.6,78,31.8,19.6,14.8,143.0,35.0,17.7,7,5,7,1,2026-06-05T02:28:33.603302+05:30
Rajkot,Gujarat,22.3039,70.8022,29.2,73,0.0,989.1,7.55,48.2,64,43.7,20.5,2.4,104.0,49.0,1.8,7,5,7,1,2026-06-05T02:28:33.603310+05:30
Thane,Maharashtra,19.2183,72.9781,29.5,77,0.0,1003.6,7.55,38.2,59,38.4,16.5,9.0,199.0,45.0,9.1,7,5,4,1,2026-06-05T02:28:33.603320+05:30
Nagpur,Maharashtra,21.1458,79.0882,31.7,42,0.0,968.0,8.9,63.0,87,50.8,31.7,11.7,242.0,73.0,11.0,0,5,7,1,2026-06-05T02:28:33.603327+05:30
Nashik,Maharashtra,19.9975,73.7898,24.7,88,0.0,941.8,8.0,43.6,61,18.5,10.6,12.0,170.0,34.0,11.6,3,5,7,1,2026-06-05T02:28:33.603336+05:30
Aurangabad,Maharashtra,19.8762,75.3433,27.5,67,0.0,941.0,8.95,45.4,69,22.8,14.8,7.1,139.0,76.0,9.4,7,5,7,1,2026-06-05T02:28:33.603343+05:30
Solapur,Maharashtra,17.6599,75.9064,28.0,67,0.0,954.0,8.9,34.2,55,7.4,6.6,8.4,185.0,44.0,2.6,7,5,7,1,2026-06-05T02:28:33.603351+05:30
Kolhapur,Maharashtra,16.705,74.2433,23.6,92,0.0,945.0,7.5,46.1,41,7.7,6.5,6.6,135.0,42.0,2.0,3,5,7,1,2026-06-05T02:28:33.603359+05:30
Goa,Goa,15.2993,74.124,25.4,96,0.1,995.2,6.1,25.9,31,13.6,9.7,5.1,214.0,47.0,0.9,10,5,7,1,2026-06-05T02:28:33.603366+05:30
Jodhpur,Rajasthan,26.2389,73.0243,32.5,49,0.0,976.0,8.45,45.0,131,144.8,39.9,4.5,163.0,65.0,2.2,0,5,7,1,2026-06-05T02:28:33.603374+05:30
Udaipur,Rajasthan,24.5854,73.7125,27.7,68,0.0,941.5,8.8,46.8,78,32.4,21.8,8.2,175.0,60.0,11.2,7,5,7,1,2026-06-05T02:28:33.603382+05:30
Kota,Rajasthan,25.2138,75.8648,29.6,56,0.0,973.4,8.4,48.2,79,34.5,22.6,6.7,171.0,71.0,6.6,4,5,7,1,2026-06-05T02:28:33.603389+05:30
Bikaner,Rajasthan,28.0229,73.3119,29.7,52,0.0,974.0,8.45,40.7,136,163.9,56.3,3.6,142.0,63.0,3.5,4,5,7,1,2026-06-05T02:28:33.603397+05:30
Ajmer,Rajasthan,26.4499,74.6399,25.6,69,0.1,948.7,8.35,43.6,74,40.5,23.1,9.0,152.0,47.0,4.1,10,5,7,1,2026-06-05T02:28:33.603404+05:30
Gwalior,Madhya Pradesh,26.2183,78.1828,29.8,52,0.0,977.2,7.95,55.1,89,71.0,29.6,7.0,153.0,60.0,3.1,4,5,7,1,2026-06-05T02:28:33.603411+05:30
Indore,Madhya Pradesh,22.7196,75.8577,27.8,67,0.0,944.0,8.65,43.6,87,41.4,30.2,9.4,269.0,74.0,8.9,7,5,7,1,2026-06-05T02:28:33.603418+05:30
Bhopal,Madhya Pradesh,23.2599,77.4126,26.8,69,0.0,949.0,8.7,47.9,82,33.1,23.9,10.5,329.0,50.0,4.2,7,5,7,1,2026-06-05T02:28:33.603425+05:30
Jabalpur,Madhya Pradesh,23.1815,79.9864,29.0,48,0.0,956.4,8.9,70.6,93,44.1,27.5,15.5,345.0,73.0,6.3,4,5,7,1,2026-06-05T02:28:33.603432+05:30
Ujjain,Madhya Pradesh,23.1765,75.7885,28.0,64,0.0,949.5,8.6,45.0,85,40.9,28.3,4.6,302.0,86.0,8.8,7,5,7,1,2026-06-05T02:28:33.603440+05:30
Visakhapatnam,Andhra Pradesh,17.6868,83.2185,30.6,74,0.0,997.9,9.05,38.9,99,40.9,35.4,35.7,398.0,80.0,43.0,3,5,7,1,2026-06-05T02:28:33.603448+05:30
Vijayawada,Andhra Pradesh,16.5062,80.648,27.6,90,0.1,998.0,9.0,61.6,76,22.1,18.8,8.3,259.0,86.0,4.5,10,5,7,1,2026-06-05T02:28:33.603455+05:30
Guntur,Andhra Pradesh,16.3067,80.4365,26.8,91,0.0,999.4,9.05,54.4,70,21.0,18.6,11.9,238.0,71.0,4.6,7,5,7,1,2026-06-05T02:28:33.603463+05:30
Nellore,Andhra Pradesh,14.4426,79.9865,27.7,92,0.0,1002.0,8.75,40.7,54,17.2,13.2,8.8,149.0,66.0,4.8,7,5,4,1,2026-06-05T02:28:33.603493+05:30
Kurnool,Andhra Pradesh,15.8281,78.0373,28.9,62,0.0,973.6,8.85,41.8,45,5.6,5.0,11.2,174.0,40.0,5.0,7,5,7,1,2026-06-05T02:28:33.603502+05:30
Kakinada,Andhra Pradesh,16.9891,82.2475,29.2,71,0.0,1002.4,9.05,52.9,93,25.6,19.7,3.3,290.0,112.0,4.1,7,5,4,1,2026-06-05T02:28:33.603510+05:30
Tirupati,Andhra Pradesh,13.6288,79.4192,27.4,85,0.0,987.6,8.3,39.6,44,12.5,10.2,13.3,203.0,41.0,2.5,7,5,7,1,2026-06-05T02:28:33.603517+05:30
Warangal,Telangana,17.9689,79.5941,28.3,68,0.0,974.6,8.75,39.2,76,28.8,25.0,15.1,272.0,60.0,4.8,7,5,7,1,2026-06-05T02:28:33.603525+05:30
Nizamabad,Telangana,18.6725,78.0941,29.6,58,0.0,960.4,5.2,39.2,77,24.6,19.0,7.6,255.0,81.0,2.6,4,5,3,1,2026-06-05T02:28:33.603532+05:30
Mysore,Karnataka,12.2958,76.6396,22.0,91,0.0,926.4,5.25,57.6,22,3.2,2.8,5.9,146.0,40.0,1.7,3,5,3,1,2026-06-05T02:28:33.603539+05:30
Mangalore,Karnataka,12.9141,74.856,24.8,96,0.2,1005.3,3.45,32.0,30,12.3,6.5,4.1,162.0,44.0,1.5,6,5,0,1,2026-06-05T02:28:33.603546+05:30
Hubli-Dharwad,Karnataka,15.3647,75.124,23.1,92,0.0,938.4,1.85,41.0,24,2.3,1.6,2.9,109.0,51.0,0.8,3,5,3,1,2026-06-05T02:28:33.603554+05:30
Belgaum,Karnataka,15.8497,74.4977,22.7,90,0.0,923.0,6.15,44.3,25,4.5,3.2,3.7,113.0,51.0,1.3,3,5,7,1,2026-06-05T02:28:36.920832+05:30
Coimbatore,Tamil Nadu,11.0168,76.9558,24.0,88,0.0,959.9,2.3,65.2,21,2.2,1.9,4.9,118.0,39.0,2.2,3,5,3,1,2026-06-05T02:28:36.920864+05:30
Madurai,Tamil Nadu,9.9252,78.1198,28.3,66,0.0,990.9,8.0,55.1,38,11.3,11.0,21.5,203.0,16.0,4.7,7,5,7,1,2026-06-05T02:28:36.920876+05:30
Trichy,Tamil Nadu,10.7905,78.7047,29.0,61,0.0,997.4,8.15,58.3,25,3.8,3.4,7.6,127.0,32.0,2.8,7,5,7,1,2026-06-05T02:28:36.920885+05:30
Salem,Tamil Nadu,11.6643,78.146,26.6,76,0.0,975.5,6.5,41.8,44,10.4,9.5,18.0,238.0,28.0,6.2,7,5,7,1,2026-06-05T02:28:36.920893+05:30
Tirunelveli,Tamil Nadu,8.7139,77.7567,27.6,76,0.0,1002.1,8.35,47.2,19,4.4,3.5,5.9,169.0,34.0,1.5,7,5,4,1,2026-06-05T02:28:36.920902+05:30
Vellore,Tamil Nadu,12.9165,79.1325,28.2,66,0.0,981.3,9.05,46.8,47,14.8,13.0,17.4,178.0,34.0,5.0,7,5,7,1,2026-06-05T02:28:36.920909+05:30
Erode,Tamil Nadu,11.341,77.7172,26.0,80,0.0,987.2,6.85,46.4,26,5.1,4.7,9.3,132.0,36.0,3.2,7,5,7,1,2026-06-05T02:28:36.920917+05:30
Kochi,Kerala,9.9312,76.2673,26.1,91,0.1,1008.7,6.05,41.0,31,9.9,6.4,8.6,110.0,34.0,2.5,10,0,4,1,2026-06-05T02:28:36.920925+05:30
Thiruvananthapuram,Kerala,8.5241,76.9366,25.0,93,0.4,1008.0,6.45,47.9,24,13.5,6.2,1.5,92.0,50.0,0.4,10,0,4,1,2026-06-05T02:28:36.920932+05:30
Kozhikode,Kerala,11.2588,75.7804,24.3,99,0.4,1007.5,7.45,26.3,26,12.2,5.0,0.7,168.0,55.0,0.3,6,5,4,1,2026-06-05T02:28:36.920940+05:30
Thrissur,Kerala,10.5276,76.2144,24.2,98,0.4,1006.8,6.4,31.7,33,11.1,7.8,8.2,215.0,35.0,2.5,6,5,4,1,2026-06-05T02:28:36.920948+05:30
Kannur,Kerala,11.8745,75.3704,24.9,97,0.2,1006.1,6.75,36.7,25,11.8,6.1,3.4,156.0,44.0,1.2,6,5,4,1,2026-06-05T02:28:36.920956+05:30
Patna,Bihar,25.5941,85.1376,29.6,75,0.0,993.9,8.9,31.7,159,67.3,58.7,24.9,538.0,69.0,13.2,7,5,7,1,2026-06-05T02:28:36.920963+05:30
Gaya,Bihar,24.7914,85.0002,25.8,87,0.0,988.7,8.95,46.4,153,77.5,66.6,23.3,484.0,71.0,10.4,7,5,7,1,2026-06-05T02:28:36.920969+05:30
Muzaffarpur,Bihar,26.1209,85.3647,28.1,71,0.0,994.3,8.85,31.3,164,85.7,75.7,29.3,778.0,61.0,15.1,7,5,7,1,2026-06-05T02:28:36.920976+05:30
Bhagalpur,Bihar,25.2425,87.0117,29.7,72,0.0,995.1,6.95,24.5,155,75.9,71.2,11.3,508.0,131.0,28.7,7,5,7,1,2026-06-05T02:28:36.920983+05:30
Ranchi,Jharkhand,23.3441,85.3096,25.0,78,0.0,932.5,9.3,36.4,118,75.2,64.0,33.7,318.0,55.0,7.4,7,5,7,1,2026-06-05T02:28:36.920990+05:30
Jamshedpur,Jharkhand,22.8046,86.2029,28.2,81,0.0,985.0,9.1,32.0,154,75.0,65.4,33.3,727.0,70.0,41.2,7,5,7,1,2026-06-05T02:28:36.920997+05:30
Dhanbad,Jharkhand,23.7957,86.4304,30.0,69,0.0,974.2,9.1,27.7,167,114.6,107.1,80.5,830.0,28.0,212.5,7,5,7,1,2026-06-05T02:28:36.921005+05:30
Bokaro,Jharkhand,23.6693,86.1511,29.3,66,0.0,977.9,9.1,25.9,159,88.2,79.2,42.8,1550.0,61.0,166.1,7,5,7,1,2026-06-05T02:28:36.921013+05:30
Bhubaneswar,Odisha,20.2961,85.8245,29.4,94,0.0,996.1,6.8,24.1,98,34.7,32.5,8.5,450.0,109.0,8.4,7,5,7,1,2026-06-05T02:28:36.921020+05:30
Cuttack,Odisha,20.4625,85.8828,29.5,91,0.0,998.0,7.95,27.0,98,34.7,32.5,8.5,652.0,109.0,8.4,7,5,7,1,2026-06-05T02:28:36.921027+05:30
Rourkela,Odisha,22.2604,84.8536,28.6,81,0.0,979.8,8.75,29.5,153,68.2,57.9,18.1,455.0,88.0,13.9,7,5,7,1,2026-06-05T02:28:36.921035+05:30
Raipur,Chhattisgarh,21.2514,81.6296,31.9,46,0.0,969.2,9.0,32.0,118,67.1,56.9,54.2,302.0,37.0,64.4,0,5,7,1,2026-06-05T02:28:36.921041+05:30
Bhilai,Chhattisgarh,21.1938,81.3509,31.1,50,0.0,969.6,9.0,33.1,112,65.7,53.8,44.5,488.0,46.0,49.4,0,5,7,1,2026-06-05T02:28:36.921048+05:30
Guwahati,Assam,26.1158,91.7086,24.1,98,0.0,998.3,8.8,25.6,108,44.2,41.2,9.8,534.0,68.0,4.3,3,5,7,1,2026-06-05T02:28:36.921055+05:30
Agartala,Tripura,23.8315,91.2868,27.4,91,0.0,1001.4,8.9,42.8,109,46.8,43.7,15.9,271.0,57.0,2.6,7,5,4,1,2026-06-05T02:28:36.921061+05:30
Shillong,Meghalaya,25.5788,91.8933,17.8,97,0.0,853.5,7.9,20.9,63,9.4,8.4,4.2,293.0,104.0,4.2,3,10,7,1,2026-06-05T02:28:36.921069+05:30
Imphal,Manipur,24.817,93.9368,21.3,98,0.0,919.2,9.3,27.7,95,50.9,47.7,21.8,851.0,25.0,4.0,3,5,7,1,2026-06-05T02:28:36.921076+05:30
Aizawl,Mizoram,23.7271,92.7176,19.9,96,0.0,888.6,8.7,28.4,79,21.5,17.5,10.6,261.0,36.0,1.6,3,10,7,1,2026-06-05T02:28:36.921082+05:30
Kohima,Nagaland,25.6701,94.1077,17.7,93,0.0,851.7,9.25,29.9,67,24.1,20.7,8.8,310.0,60.0,2.0,3,10,7,1,2026-06-05T02:28:36.921089+05:30
Gangtok,Sikkim,27.3314,88.6138,16.8,91,0.2,834.2,9.25,39.2,81,9.1,8.3,6.5,471.0,109.0,1.9,6,10,7,0,2026-06-05T02:28:36.921097+05:30
Siliguri,West Bengal,26.7271,88.3953,22.2,98,0.0,989.0,8.8,29.9,152,42.4,38.6,14.0,353.0,106.0,5.6,3,5,7,1,2026-06-05T02:28:40.329247+05:30
Durgapur,West Bengal,23.5204,87.3119,29.2,93,0.0,989.1,9.0,42.8,168,71.0,68.0,30.9,528.0,58.0,36.6,7,5,7,1,2026-06-05T02:28:40.329278+05:30
Asansol,West Bengal,23.6739,86.9524,29.0,88,0.0,987.6,9.0,29.9,164,66.1,61.9,34.2,898.0,63.0,41.7,7,5,7,1,2026-06-05T02:28:40.329289+05:30
Pondicherry,Puducherry,11.9139,79.8145,29.9,61,0.0,1004.8,8.8,40.7,60,20.7,18.4,22.1,293.0,45.0,7.4,7,5,4,1,2026-06-05T02:28:40.329298+05:30
Port Blair,Andaman and Nicobar Islands,11.6234,92.7265,25.1,97,0.3,1003.6,2.65,41.4,29,7.4,4.5,0.2,96.0,64.0,0.4,10,5,0,1,2026-06-05T02:28:40.329307+05:30
Haridwar,Uttarakhand,29.9457,78.1642,26.5,66,0.0,967.8,7.4,31.3,110,69.2,46.3,29.4,338.0,37.0,6.3,7,5,7,1,2026-06-05T02:28:40.329315+05:30
Rishikesh,Uttarakhand,30.0869,78.2676,23.5,87,0.0,960.8,5.5,29.2,77,66.6,28.5,11.0,352.0,91.0,4.0,3,5,3,1,2026-06-05T02:28:40.329323+05:30
Nainital,Uttarakhand,29.3919,79.4542,12.4,99,0.1,801.5,6.5,25.2,79,23.5,20.4,17.2,270.0,71.0,2.5,6,10,7,0,2026-06-05T02:28:40.329331+05:30
Mussoorie,Uttarakhand,30.4599,78.0664,12.5,96,0.0,797.4,4.25,34.2,80,45.6,26.4,28.7,283.0,52.0,4.9,3,10,3,0,2026-06-05T02:28:40.329339+05:30
Dharamshala,Himachal Pradesh,32.219,76.3234,21.6,58,0.0,864.7,7.9,46.1,45,7.5,6.7,12.5,345.0,62.0,0.0,0,5,7,0,2026-06-05T02:28:40.329346+05:30
Dalhousie,Himachal Pradesh,32.5387,75.971,16.5,68,0.0,800.7,8.2,37.4,63,28.7,25.1,35.3,401.0,27.0,1.1,3,5,7,0,2026-06-05T02:28:40.329355+05:30
Patiala,Punjab,30.3398,76.3869,26.8,66,0.0,971.6,7.65,33.1,192,80.8,53.8,14.1,737.0,94.0,15.1,7,5,7,1,2026-06-05T02:28:40.329362+05:30
Bhatinda,Punjab,30.211,74.9455,27.6,60,0.0,977.1,8.25,31.3,152,443.3,112.9,15.6,476.0,83.0,8.5,4,5,7,1,2026-06-05T02:28:40.329368+05:30
Rohtak,Haryana,28.8955,76.6066,28.1,60,0.0,975.5,6.6,28.1,183,118.7,48.7,25.9,795.0,56.0,6.9,4,5,7,1,2026-06-05T02:28:40.329375+05:30
Panipat,Haryana,29.3909,76.9635,27.1,66,0.0,973.9,6.95,31.7,441,218.4,73.3,15.0,574.0,93.0,8.2,7,5,7,1,2026-06-05T02:28:40.329382+05:30
Mathura,Uttar Pradesh,27.4924,77.6737,27.4,71,0.0,980.9,8.1,28.8,180,86.6,32.6,9.0,376.0,65.0,2.3,7,5,7,1,2026-06-05T02:28:40.329389+05:30
Vrindavan,Uttar Pradesh,27.5823,77.7027,27.9,66,0.0,981.5,8.05,28.4,180,86.6,32.6,9.0,398.0,65.0,2.3,7,5,7,1,2026-06-05T02:28:40.329397+05:30
Ayodhya,Uttar Pradesh,26.7922,82.1998,29.0,73,0.0,988.8,8.45,24.1,154,156.0,97.8,82.1,793.0,11.0,19.8,7,5,7,1,2026-06-05T02:28:40.329403+05:30
Ratlam,Madhya Pradesh,23.3315,75.0367,27.2,73,0.0,950.7,8.5,44.6,83,39.7,27.0,4.9,195.0,81.0,11.3,7,5,7,1,2026-06-05T02:28:40.329410+05:30
Sagar,Madhya Pradesh,23.8388,78.7378,27.6,54,0.0,945.4,8.2,44.3,81,33.2,23.6,7.0,173.0,73.0,4.6,4,5,7,1,2026-06-05T02:28:40.329417+05:30
Satna,Madhya Pradesh,24.6005,80.8322,28.5,68,0.0,965.4,8.85,38.2,87,61.9,38.2,41.6,413.0,29.0,5.8,7,5,7,1,2026-06-05T02:28:40.329424+05:30
Akola,Maharashtra,20.7002,77.0082,28.5,66,0.0,970.8,8.75,46.8,80,39.3,24.8,10.2,188.0,65.0,4.3,7,5,7,1,2026-06-05T02:28:40.329432+05:30
Amravati,Maharashtra,20.9374,77.7796,30.2,53,0.0,962.5,8.8,67.7,86,56.3,34.2,18.4,177.0,50.0,5.3,0,5,7,1,2026-06-05T02:28:40.329441+05:30
Latur,Maharashtra,18.4088,76.5604,27.6,63,0.0,936.4,8.95,52.2,63,13.3,10.8,7.7,188.0,60.0,2.4,7,5,7,1,2026-06-05T02:28:40.329449+05:30
Nanded,Maharashtra,19.1383,77.3091,27.7,68,0.1,965.0,8.55,33.1,79,30.2,21.1,11.6,222.0,68.0,6.0,10,5,7,1,2026-06-05T02:28:40.329462+05:30
Gulbarga,Karnataka,17.3297,76.8343,27.8,65,0.0,955.6,7.1,31.7,57,7.6,7.0,12.1,195.0,43.0,2.6,7,5,7,1,2026-06-05T02:28:40.329488+05:30
Bidar,Karnataka,17.9104,77.5199,27.3,65,0.0,932.0,7.6,41.4,64,15.0,11.7,9.8,181.0,67.0,2.7,7,5,7,1,2026-06-05T02:28:40.329496+05:30
Hospet,Karnataka,15.2689,76.3909,24.7,83,0.0,953.3,8.9,39.2,27,4.7,3.8,5.3,143.0,43.0,1.2,3,5,7,1,2026-06-05T02:28:40.329503+05:30
Tirupur,Tamil Nadu,11.1085,77.3411,24.2,90,0.0,973.2,5.8,65.2,30,6.0,5.5,10.7,129.0,34.0,3.9,3,5,3,1,2026-06-05T02:28:40.329510+05:30
Alappuzha,Kerala,9.4981,76.3388,26.7,91,0.3,1008.5,3.95,40.7,27,13.2,6.5,3.3,87.0,47.0,1.0,10,0,0,1,2026-06-05T02:28:40.329517+05:30
Munnar,Kerala,10.0889,77.0595,17.3,99,0.2,855.7,2.75,56.5,16,2.0,1.9,7.7,101.0,25.0,1.7,6,10,3,1,2026-06-05T02:28:40.329525+05:30
Silchar,Assam,24.8333,92.7789,25.0,99,0.0,1000.8,8.95,28.1,118,45.9,40.9,13.5,318.0,61.0,4.6,7,5,4,1,2026-06-05T02:28:40.329532+05:30
Dibrugarh,Assam,27.4728,94.912,23.3,92,0.0,992.1,9.0,17.3,82,21.0,19.4,11.7,317.0,55.0,1.0,3,5,7,1,2026-06-05T02:28:40.329539+05:30
