city,state,latitude,longitude,temp,humidity,rain,pressure,uv_index,wind_gusts,aqi,pm10,pm2_5,no2,co,o3,so2,mosquito_risk,arthritis_risk,migraine_risk,frizz_risk,updated_at
Delhi,Delhi,28.6139,77.209,29.2,53,0.0,980.8,7.4,45.0,448,307.3,87.3,26.3,560.0,91.0,25.8,4,5,7,1,2026-05-30T01:01:55.713365+05:30
Mumbai,Maharashtra,19.076,72.8777,30.4,74,0.0,1007.8,7.8,43.9,63,28.9,16.2,4.7,144.0,52.0,4.4,3,5,4,1,2026-05-30T01:01:55.713407+05:30
Bangalore,Karnataka,12.9716,77.5946,22.6,90,0.0,911.9,8.55,32.0,54,17.1,16.1,31.0,664.0,46.0,7.1,3,5,7,1,2026-05-30T01:01:55.713422+05:30
Hyderabad,Telangana,17.385,78.4867,29.8,54,0.0,951.5,8.85,41.4,60,21.5,18.2,23.7,651.0,60.0,7.3,4,5,7,1,2026-05-30T01:01:55.713431+05:30
Chennai,Tamil Nadu,13.0827,80.2707,31.0,59,0.0,1005.0,9.0,40.3,98,31.8,25.8,21.2,306.0,74.0,11.2,0,5,4,1,2026-05-30T01:01:55.713439+05:30
Kolkata,West Bengal,22.5726,88.3639,24.4,89,0.0,1005.0,8.9,29.9,104,87.8,71.7,26.7,901.0,47.0,10.8,3,5,4,1,2026-05-30T01:01:55.713447+05:30
Pune,Maharashtra,18.5204,73.8567,25.6,84,0.0,947.7,8.35,47.2,40,17.9,12.3,9.4,164.0,42.0,7.2,7,5,7,1,2026-05-30T01:01:55.713454+05:30
Ahmedabad,Gujarat,23.0225,72.5714,31.5,63,0.0,998.6,8.1,48.2,74,35.9,19.4,4.6,146.0,54.0,4.2,3,5,7,1,2026-05-30T01:01:55.713460+05:30
Jaipur,Rajasthan,26.9124,75.7873,26.8,58,0.0,957.2,8.15,58.7,111,189.5,51.6,6.0,287.0,107.0,4.4,4,5,7,1,2026-05-30T01:01:55.713471+05:30
Lucknow,Uttar Pradesh,26.8467,80.9462,26.7,73,0.0,992.3,8.1,36.7,120,36.3,30.2,10.5,369.0,114.0,11.7,7,5,7,1,2026-05-30T01:01:55.713478+05:30
Kanpur,Uttar Pradesh,26.4499,80.3319,27.8,68,0.0,989.4,8.1,42.5,161,78.5,39.5,8.6,336.0,121.0,10.6,7,5,7,1,2026-05-30T01:01:55.713484+05:30
Chandigarh,Chandigarh,30.7333,76.7794,29.2,34,0.0,966.7,7.7,38.2,113,56.2,41.2,20.8,302.0,100.0,8.8,4,5,7,0,2026-05-30T01:01:55.713493+05:30
Srinagar,Jammu and Kashmir,34.0837,74.7973,13.8,88,0.0,839.6,8.95,26.6,69,48.7,43.5,35.4,717.0,49.0,4.3,3,10,7,0,2026-05-30T01:01:55.713500+05:30
Jammu,Jammu and Kashmir,32.7266,74.857,27.9,39,0.0,970.2,8.5,47.2,146,109.7,77.8,49.2,455.0,34.0,6.2,4,5,7,0,2026-05-30T01:01:55.713509+05:30
Amritsar,Punjab,31.634,74.8723,29.2,46,0.0,977.5,8.35,74.9,215,241.2,80.1,5.9,374.0,131.0,12.5,4,5,7,1,2026-05-30T01:01:55.713515+05:30
Ludhiana,Punjab,30.901,75.8573,29.4,41,0.0,975.9,7.95,63.0,612,737.6,145.8,8.9,328.0,129.0,14.2,4,5,7,0,2026-05-30T01:01:55.713521+05:30
Jalandhar,Punjab,31.326,75.5762,29.3,42,0.0,976.8,8.15,58.3,481,244.0,73.3,14.5,406.0,108.0,17.4,4,5,7,0,2026-05-30T01:01:55.713528+05:30
Dehradun,Uttarakhand,30.6284,78.0322,12.7,97,0.1,829.1,7.95,27.4,102,65.7,48.1,28.9,268.0,75.0,2.5,6,10,7,0,2026-05-30T01:01:55.713534+05:30
Shimla,Himachal Pradesh,31.1048,77.1734,9.9,87,0.0,780.7,7.2,31.0,100,46.0,35.5,19.3,526.0,85.0,2.5,3,10,7,0,2026-05-30T01:01:55.713542+05:30
Manali,Himachal Pradesh,32.2396,77.1887,9.7,94,0.0,815.0,7.55,32.4,77,15.7,11.2,47.8,343.0,76.0,0.4,3,10,7,0,2026-05-30T01:01:55.713549+05:30
Gurgaon,Haryana,28.4595,77.0266,27.1,67,0.0,978.9,6.75,63.0,1198,683.6,127.1,20.9,427.0,88.0,15.5,7,5,7,1,2026-05-30T01:01:55.713555+05:30
Noida,Uttar Pradesh,28.5355,77.391,27.1,64,0.0,982.1,7.55,52.6,1198,683.6,127.1,20.9,462.0,88.0,15.5,7,5,7,1,2026-05-30T01:01:55.713561+05:30
Ghaziabad,Uttar Pradesh,28.6692,77.4538,27.8,56,0.0,980.6,7.65,65.9,205,352.0,74.7,11.2,365.0,110.0,11.8,4,5,7,1,2026-05-30T01:01:55.713567+05:30
Faridabad,Haryana,28.4089,77.3178,28.4,55,0.0,981.6,7.2,49.0,1198,683.6,127.1,20.9,420.0,88.0,15.5,4,5,7,1,2026-05-30T01:01:55.713574+05:30
Meerut,Uttar Pradesh,28.9845,77.7064,27.0,55,0.0,979.5,7.55,49.7,205,352.0,74.7,11.2,334.0,110.0,11.8,4,5,7,1,2026-05-30T01:01:55.713579+05:30
Agra,Uttar Pradesh,27.1767,78.0081,27.0,69,0.0,985.6,7.95,63.0,677,143.0,51.7,12.6,344.0,95.0,7.5,7,5,7,1,2026-05-30T01:01:55.713585+05:30
Varanasi,Uttar Pradesh,25.3176,82.9739,25.2,81,0.0,996.3,8.7,27.4,133,36.2,32.8,10.0,402.0,133.0,16.1,7,5,7,1,2026-05-30T01:01:55.713592+05:30
Prayagraj,Uttar Pradesh,25.4358,81.8463,26.8,76,0.0,994.5,8.4,28.8,135,39.2,34.1,10.0,368.0,133.0,13.5,7,5,7,1,2026-05-30T01:01:55.713599+05:30
Gorakhpur,Uttar Pradesh,26.7606,83.3732,24.1,85,0.0,997.0,8.25,40.7,84,33.4,28.3,15.3,435.0,82.0,5.7,3,5,7,1,2026-05-30T01:01:55.713607+05:30
Bareilly,Uttar Pradesh,28.367,79.4304,28.0,68,0.0,985.4,7.9,30.2,106,47.3,29.3,8.9,327.0,115.0,7.1,7,5,7,1,2026-05-30T01:01:55.713613+05:30
Aligarh,Uttar Pradesh,27.8974,78.088,26.5,66,0.0,983.4,7.8,56.5,523,174.6,59.5,10.3,369.0,99.0,8.3,7,5,7,1,2026-05-30T01:01:55.713620+05:30
Moradabad,Uttar Pradesh,28.8386,78.7733,28.9,58,0.0,982.5,7.75,42.1,103,38.4,31.3,8.9,302.0,119.0,9.0,4,5,7,1,2026-05-30T01:01:55.713626+05:30
Saharanpur,Uttar Pradesh,29.9637,77.546,26.4,50,0.0,974.3,7.4,44.6,103,76.1,49.5,19.7,371.0,92.0,11.2,4,5,7,0,2026-05-30T01:01:55.713632+05:30
Jhansi,Uttar Pradesh,25.4484,78.5685,30.0,51,0.0,975.1,8.35,67.3,96,102.4,43.1,4.3,281.0,119.0,6.1,4,5,7,1,2026-05-30T01:01:59.085345+05:30
Surat,Gujarat,21.1702,72.8311,29.9,74,0.0,1004.7,7.7,60.8,81,50.4,26.5,11.1,213.0,43.0,19.3,7,5,4,1,2026-05-30T01:01:59.085377+05:30
Vadodara,Gujarat,22.3072,73.1812,30.2,73,0.0,1001.4,8.05,56.9,78,35.9,23.2,12.4,142.0,38.0,14.0,3,5,4,1,2026-05-30T01:01:59.085387+05:30
Rajkot,Gujarat,22.3039,70.8022,28.5,75,0.0,991.2,7.7,56.5,68,38.0,19.0,3.5,113.0,46.0,3.4,7,5,7,1,2026-05-30T01:01:59.085396+05:30
Thane,Maharashtra,19.2183,72.9781,30.4,71,0.0,1007.1,7.8,41.4,63,28.9,16.2,4.7,154.0,52.0,4.4,3,5,4,1,2026-05-30T01:01:59.085405+05:30
Nagpur,Maharashtra,21.1458,79.0882,33.8,27,0.0,969.4,8.9,50.0,67,33.9,23.9,19.5,326.0,42.0,8.1,0,5,7,0,2026-05-30T01:01:59.085414+05:30
Nashik,Maharashtra,19.9975,73.7898,24.9,86,0.0,944.2,8.1,55.4,57,24.9,14.9,9.4,129.0,43.0,8.2,3,5,7,1,2026-05-30T01:01:59.085422+05:30
Aurangabad,Maharashtra,19.8762,75.3433,26.8,72,0.0,943.0,8.95,52.9,56,28.6,18.0,9.4,155.0,64.0,11.1,7,5,7,1,2026-05-30T01:01:59.085430+05:30
Solapur,Maharashtra,17.6599,75.9064,29.5,60,0.0,956.4,8.95,36.4,42,12.5,9.5,6.1,165.0,59.0,2.3,4,5,7,1,2026-05-30T01:01:59.085439+05:30
Kolhapur,Maharashtra,16.705,74.2433,25.1,84,0.0,948.3,8.75,45.4,34,12.4,9.3,6.0,167.0,43.0,2.3,7,5,7,1,2026-05-30T01:01:59.085448+05:30
Goa,Goa,15.2993,74.124,27.0,98,0.1,998.6,7.25,27.0,54,26.6,21.0,7.9,380.0,42.0,2.1,10,5,7,1,2026-05-30T01:01:59.085457+05:30
Jodhpur,Rajasthan,26.2389,73.0243,34.2,38,0.0,977.6,8.35,48.6,228,307.3,64.7,2.9,140.0,68.0,2.4,0,5,7,1,2026-05-30T01:01:59.085465+05:30
Udaipur,Rajasthan,24.5854,73.7125,30.2,53,0.0,942.8,8.75,44.3,73,33.6,20.1,2.5,128.0,73.0,2.4,0,5,7,1,2026-05-30T01:01:59.085473+05:30
Kota,Rajasthan,25.2138,75.8648,28.9,55,0.0,975.5,8.3,68.8,81,39.2,23.7,4.9,179.0,88.0,6.1,4,5,7,1,2026-05-30T01:01:59.085481+05:30
Bikaner,Rajasthan,28.0229,73.3119,33.4,33,0.0,976.0,8.35,41.4,157,68.2,40.9,3.2,166.0,99.0,4.3,0,5,7,0,2026-05-30T01:01:59.085489+05:30
Ajmer,Rajasthan,26.4499,74.6399,27.2,54,0.0,951.3,8.3,61.2,90,111.3,41.3,6.7,173.0,76.0,4.3,4,5,7,1,2026-05-30T01:01:59.085497+05:30
Gwalior,Madhya Pradesh,26.2183,78.1828,28.5,60,0.0,980.3,8.15,42.5,152,126.7,46.2,4.5,294.0,117.0,5.3,4,5,7,1,2026-05-30T01:01:59.085506+05:30
Indore,Madhya Pradesh,22.7196,75.8577,29.2,58,0.0,947.0,8.6,45.7,80,41.7,26.4,5.0,205.0,90.0,9.7,4,5,7,1,2026-05-30T01:01:59.085514+05:30
Bhopal,Madhya Pradesh,23.2599,77.4126,27.0,64,0.0,951.3,8.65,63.7,74,37.5,25.3,4.7,306.0,81.0,5.8,7,5,7,1,2026-05-30T01:01:59.085522+05:30
Jabalpur,Madhya Pradesh,23.1815,79.9864,31.9,39,0.0,958.5,8.85,42.8,74,38.4,22.5,5.0,276.0,78.0,3.5,0,5,7,1,2026-05-30T01:01:59.085529+05:30
Ujjain,Madhya Pradesh,23.1765,75.7885,25.3,75,0.1,952.3,8.55,52.6,79,40.2,25.8,3.9,171.0,88.0,9.2,10,5,7,1,2026-05-30T01:01:59.085538+05:30
Visakhapatnam,Andhra Pradesh,17.6868,83.2185,30.5,85,0.0,1000.4,9.0,41.8,123,43.7,35.2,32.4,962.0,87.0,43.7,3,5,4,1,2026-05-30T01:01:59.085546+05:30
Vijayawada,Andhra Pradesh,16.5062,80.648,32.6,53,0.0,998.7,9.05,38.5,85,30.5,27.0,14.0,310.0,70.0,5.7,0,5,7,1,2026-05-30T01:01:59.085554+05:30
Guntur,Andhra Pradesh,16.3067,80.4365,32.0,55,0.0,999.9,8.95,43.2,82,28.9,26.0,18.8,246.0,58.0,6.3,0,5,7,1,2026-05-30T01:01:59.085562+05:30
Nellore,Andhra Pradesh,14.4426,79.9865,30.1,74,0.0,1002.9,7.35,51.8,76,21.9,17.4,8.1,263.0,84.0,4.5,3,5,4,1,2026-05-30T01:01:59.085571+05:30
Kurnool,Andhra Pradesh,15.8281,78.0373,30.0,59,0.0,975.4,8.95,40.0,53,15.9,13.0,8.8,183.0,78.0,6.6,4,5,7,1,2026-05-30T01:01:59.085580+05:30
Kakinada,Andhra Pradesh,16.9891,82.2475,31.1,75,0.0,1003.7,8.6,36.7,98,27.0,21.2,4.0,230.0,132.0,4.2,3,5,4,1,2026-05-30T01:01:59.085588+05:30
Tirupati,Andhra Pradesh,13.6288,79.4192,27.0,73,0.0,989.0,7.85,36.7,66,21.5,17.7,18.4,278.0,54.0,3.2,7,5,7,1,2026-05-30T01:01:59.085595+05:30
Warangal,Telangana,17.9689,79.5941,30.9,51,0.0,975.0,9.05,45.7,77,39.8,35.9,24.1,305.0,52.0,6.7,0,5,7,1,2026-05-30T01:01:59.085603+05:30
Nizamabad,Telangana,18.6725,78.0941,30.6,50,0.0,961.8,9.0,39.6,67,38.5,31.3,23.1,315.0,66.0,6.9,0,5,7,1,2026-05-30T01:01:59.085610+05:30
Mysore,Karnataka,12.2958,76.6396,22.5,94,0.0,928.9,8.55,40.7,35,7.3,6.9,10.9,182.0,47.0,2.6,3,5,7,1,2026-05-30T01:01:59.085618+05:30
Mangalore,Karnataka,12.9141,74.856,25.0,98,0.1,1008.4,6.65,33.1,40,13.3,11.5,11.3,272.0,44.0,3.3,10,0,4,1,2026-05-30T01:01:59.085626+05:30
Hubli-Dharwad,Karnataka,15.3647,75.124,24.4,94,0.0,941.4,8.5,40.3,34,7.8,6.3,5.0,159.0,48.0,1.3,3,5,7,1,2026-05-30T01:01:59.085633+05:30
Belgaum,Karnataka,15.8497,74.4977,23.3,96,0.0,926.2,8.5,41.0,34,8.1,6.3,3.8,159.0,47.0,1.3,3,5,7,1,2026-05-30T01:02:02.466827+05:30
Coimbatore,Tamil Nadu,11.0168,76.9558,25.8,82,0.0,962.2,8.45,50.4,27,4.6,3.9,6.5,187.0,45.0,2.5,7,5,7,1,2026-05-30T01:02:02.466867+05:30
Madurai,Tamil Nadu,9.9252,78.1198,29.0,66,0.0,993.1,8.35,29.9,64,27.0,25.8,48.5,158.0,1.0,8.2,7,5,7,1,2026-05-30T01:02:02.466878+05:30
Trichy,Tamil Nadu,10.7905,78.7047,29.0,68,0.0,998.9,7.95,45.4,44,6.0,5.5,9.2,149.0,52.0,3.6,7,5,7,1,2026-05-30T01:02:02.466887+05:30
Salem,Tamil Nadu,11.6643,78.146,25.3,88,0.0,977.5,8.15,47.5,55,21.4,17.9,21.7,224.0,51.0,8.1,7,5,7,1,2026-05-30T01:02:02.466897+05:30
Tirunelveli,Tamil Nadu,8.7139,77.7567,28.8,67,0.0,1003.8,8.2,41.0,20,7.1,6.1,8.8,156.0,29.0,2.2,7,5,4,1,2026-05-30T01:02:02.466905+05:30
Vellore,Tamil Nadu,12.9165,79.1325,27.6,64,0.0,983.0,9.05,43.6,64,22.3,18.3,8.5,238.0,87.0,2.7,7,5,7,1,2026-05-30T01:02:02.466913+05:30
Erode,Tamil Nadu,11.341,77.7172,26.2,90,0.0,989.2,8.9,45.4,36,11.1,10.2,16.1,263.0,35.0,4.1,7,5,7,1,2026-05-30T01:02:02.466921+05:30
Kochi,Kerala,9.9312,76.2673,26.1,93,0.1,1010.9,7.55,32.0,39,12.7,11.1,15.3,232.0,26.0,4.2,10,0,4,1,2026-05-30T01:02:02.466929+05:30
Thiruvananthapuram,Kerala,8.5241,76.9366,24.6,97,0.2,1010.7,7.6,41.0,21,10.9,5.4,2.0,183.0,43.0,0.7,6,0,4,1,2026-05-30T01:02:02.466937+05:30
Kozhikode,Kerala,11.2588,75.7804,24.4,99,0.0,1010.1,8.1,37.1,29,6.6,4.4,2.0,213.0,60.0,0.8,3,0,4,1,2026-05-30T01:02:02.466944+05:30
Thrissur,Kerala,10.5276,76.2144,24.4,99,0.1,1009.4,7.35,35.3,42,13.0,11.9,14.5,236.0,25.0,4.7,6,0,4,1,2026-05-30T01:02:02.466952+05:30
Kannur,Kerala,11.8745,75.3704,25.1,96,0.1,1009.0,7.75,33.5,29,11.1,9.5,11.7,243.0,36.0,2.8,10,0,4,1,2026-05-30T01:02:02.466959+05:30
Patna,Bihar,25.5941,85.1376,24.1,87,0.0,1000.1,8.75,33.1,92,46.7,41.2,18.0,409.0,86.0,16.5,3,5,4,1,2026-05-30T01:02:02.466967+05:30
Gaya,Bihar,24.7914,85.0002,24.8,87,0.0,992.7,8.8,24.8,103,38.1,34.0,15.4,401.0,85.0,21.6,3,5,7,1,2026-05-30T01:02:02.466974+05:30
Muzaffarpur,Bihar,26.1209,85.3647,24.0,85,0.0,1000.4,8.75,34.9,96,58.4,50.4,22.6,465.0,68.0,14.7,3,5,4,1,2026-05-30T01:02:02.466982+05:30
Bhagalpur,Bihar,25.2425,87.0117,23.6,92,0.0,1001.0,8.75,25.2,101,45.6,38.5,14.6,325.0,102.0,13.9,3,5,4,1,2026-05-30T01:02:02.466989+05:30
Ranchi,Jharkhand,23.3441,85.3096,21.6,93,0.0,936.2,9.25,31.7,102,73.8,57.7,18.3,314.0,96.0,13.5,3,5,7,1,2026-05-30T01:02:02.466996+05:30
Jamshedpur,Jharkhand,22.8046,86.2029,24.5,88,0.0,990.0,9.05,28.4,102,85.9,64.7,38.1,852.0,42.0,21.7,3,5,7,1,2026-05-30T01:02:02.467003+05:30
Dhanbad,Jharkhand,23.7957,86.4304,23.3,87,0.0,979.3,9.0,28.8,151,119.2,106.2,65.1,723.0,28.0,157.5,3,5,7,1,2026-05-30T01:02:02.467011+05:30
Bokaro,Jharkhand,23.6693,86.1511,23.2,92,0.0,983.2,9.05,25.9,151,121.5,106.6,66.4,584.0,19.0,171.0,3,5,7,1,2026-05-30T01:02:02.467019+05:30
Bhubaneswar,Odisha,20.2961,85.8245,27.5,93,0.0,1000.7,9.0,38.2,102,47.6,40.4,14.0,455.0,66.0,6.3,7,5,4,1,2026-05-30T01:02:02.467026+05:30
Cuttack,Odisha,20.4625,85.8828,27.2,92,0.0,1002.7,9.05,37.1,102,47.6,40.4,14.0,457.0,66.0,6.3,7,5,4,1,2026-05-30T01:02:02.467033+05:30
Rourkela,Odisha,22.2604,84.8536,26.5,86,0.0,983.5,8.95,48.2,122,79.2,65.9,28.0,298.0,72.0,29.7,7,5,7,1,2026-05-30T01:02:02.467040+05:30
Raipur,Chhattisgarh,21.2514,81.6296,31.2,49,0.0,971.0,8.95,47.2,95,57.4,47.5,39.1,351.0,58.0,46.1,0,5,7,1,2026-05-30T01:02:02.467046+05:30
Bhilai,Chhattisgarh,21.1938,81.3509,31.1,48,0.0,971.3,8.95,70.6,83,40.5,32.5,29.1,333.0,63.0,40.1,0,5,7,1,2026-05-30T01:02:02.467054+05:30
Guwahati,Assam,26.1158,91.7086,24.5,90,0.0,1000.1,8.75,17.6,124,74.5,65.2,26.9,353.0,11.0,2.9,3,5,4,1,2026-05-30T01:02:02.467060+05:30
Agartala,Tripura,23.8315,91.2868,24.5,94,0.0,1005.0,8.85,21.6,148,156.5,131.8,91.5,483.0,5.0,10.6,3,5,4,1,2026-05-30T01:02:02.467068+05:30
Shillong,Meghalaya,25.5788,91.8933,18.9,68,0.0,856.6,8.65,23.0,81,34.9,26.8,13.2,336.0,36.0,1.3,3,5,7,0,2026-05-30T01:02:02.467075+05:30
Imphal,Manipur,24.817,93.9368,23.3,76,0.0,922.6,9.25,22.3,133,93.1,66.4,39.5,642.0,19.0,7.0,3,5,7,1,2026-05-30T01:02:02.467082+05:30
Aizawl,Mizoram,23.7271,92.7176,20.7,86,0.0,890.5,8.15,16.9,90,72.2,39.6,21.8,358.0,36.0,3.9,3,5,7,1,2026-05-30T01:02:02.467090+05:30
Kohima,Nagaland,25.6701,94.1077,16.3,97,0.0,853.8,8.7,24.5,101,49.9,38.1,17.9,301.0,17.0,0.8,3,10,7,0,2026-05-30T01:02:02.467097+05:30
Gangtok,Sikkim,27.3314,88.6138,15.6,80,0.0,838.3,9.0,32.4,62,42.1,29.9,15.0,624.0,81.0,2.4,3,5,7,0,2026-05-30T01:02:02.467105+05:30
Siliguri,West Bengal,26.7271,88.3953,25.9,84,0.0,992.4,8.7,40.0,117,73.3,49.9,17.7,798.0,105.0,6.7,7,5,7,1,2026-05-30T01:02:05.840315+05:30
Durgapur,West Bengal,23.5204,87.3119,22.5,97,0.0,994.7,8.95,17.3,147,82.0,72.6,42.3,724.0,58.0,41.8,3,5,7,1,2026-05-30T01:02:05.840349+05:30
Asansol,West Bengal,23.6739,86.9524,22.9,91,0.0,993.4,8.95,26.3,144,101.3,89.4,54.7,617.0,41.0,55.4,3,5,7,1,2026-05-30T01:02:05.840360+05:30
Pondicherry,Puducherry,11.9139,79.8145,29.4,79,0.0,1006.6,8.9,57.6,68,16.3,14.1,16.7,245.0,46.0,11.2,7,5,4,1,2026-05-30T01:02:05.840369+05:30
Port Blair,Andaman and Nicobar Islands,11.6234,92.7265,26.8,91,0.0,1006.0,8.8,33.5,31,11.3,6.8,0.3,116.0,67.0,0.5,7,5,4,1,2026-05-30T01:02:05.840378+05:30
Haridwar,Uttarakhand,29.9457,78.1642,25.0,62,0.0,973.0,7.5,25.2,98,51.9,32.9,10.1,390.0,112.0,9.4,7,5,7,1,2026-05-30T01:02:05.840385+05:30
Rishikesh,Uttarakhand,30.0869,78.2676,22.5,80,0.0,965.8,7.6,36.0,135,60.8,35.4,6.9,554.0,138.0,7.8,3,5,7,1,2026-05-30T01:02:05.840393+05:30
Nainital,Uttarakhand,29.3919,79.4542,11.8,91,0.0,803.7,7.85,27.0,88,25.0,16.7,10.5,314.0,101.0,2.4,3,10,7,0,2026-05-30T01:02:05.840400+05:30
Mussoorie,Uttarakhand,30.4599,78.0664,11.1,90,0.0,801.0,7.75,26.6,100,54.9,37.7,20.0,325.0,110.0,5.1,3,10,7,0,2026-05-30T01:02:05.840408+05:30
Dharamshala,Himachal Pradesh,32.219,76.3234,20.9,53,0.0,868.2,7.9,36.7,61,28.8,15.4,15.9,276.0,46.0,0.1,0,5,7,0,2026-05-30T01:02:05.840416+05:30
Dalhousie,Himachal Pradesh,32.5387,75.971,12.4,71,0.0,801.6,8.4,34.6,108,72.9,40.0,49.8,485.0,21.0,2.1,3,5,7,0,2026-05-30T01:02:05.840424+05:30
Patiala,Punjab,30.3398,76.3869,27.8,47,0.0,975.8,7.55,49.0,1312,1192.1,170.0,5.4,324.0,140.0,12.2,4,5,7,0,2026-05-30T01:02:05.840432+05:30
Bhatinda,Punjab,30.211,74.9455,29.8,54,0.0,980.1,7.7,59.8,675,933.2,216.5,7.0,322.0,145.0,15.5,4,5,7,1,2026-05-30T01:02:05.840439+05:30
Rohtak,Haryana,28.8955,76.6066,28.0,68,0.0,979.2,6.95,66.6,767,547.6,130.9,31.1,454.0,70.0,21.8,7,5,7,1,2026-05-30T01:02:05.840447+05:30
Panipat,Haryana,29.3909,76.9635,27.6,51,0.0,978.4,7.5,52.6,1604,935.0,175.6,17.9,337.0,92.0,15.7,4,5,7,1,2026-05-30T01:02:05.840455+05:30
Mathura,Uttar Pradesh,27.4924,77.6737,26.9,66,0.0,984.6,7.9,68.4,375,113.9,48.7,12.8,326.0,92.0,4.9,7,5,7,1,2026-05-30T01:02:05.840462+05:30
Vrindavan,Uttar Pradesh,27.5823,77.7027,27.0,66,0.0,985.0,7.85,68.8,375,113.9,48.7,12.8,326.0,92.0,4.9,7,5,7,1,2026-05-30T01:02:05.840469+05:30
Ayodhya,Uttar Pradesh,26.7922,82.1998,24.3,79,0.0,994.7,7.8,35.3,105,28.2,24.5,13.3,412.0,96.0,6.9,3,5,7,1,2026-05-30T01:02:05.840477+05:30
Ratlam,Madhya Pradesh,23.3315,75.0367,29.0,65,0.0,953.0,8.45,43.9,78,39.6,24.9,4.3,166.0,79.0,10.5,7,5,7,1,2026-05-30T01:02:05.840484+05:30
Sagar,Madhya Pradesh,23.8388,78.7378,23.5,91,0.1,948.6,8.65,41.8,71,41.2,25.2,8.4,282.0,65.0,3.9,6,5,7,1,2026-05-30T01:02:05.840492+05:30
Satna,Madhya Pradesh,24.6005,80.8322,28.0,58,0.0,969.2,8.75,37.1,92,48.2,39.8,6.7,314.0,146.0,13.9,4,5,7,1,2026-05-30T01:02:05.840499+05:30
Akola,Maharashtra,20.7002,77.0082,32.7,40,0.0,972.2,8.8,48.2,67,41.4,22.5,9.1,148.0,68.0,7.0,0,5,7,1,2026-05-30T01:02:05.840507+05:30
Amravati,Maharashtra,20.9374,77.7796,33.8,28,0.0,964.3,8.8,49.3,66,39.1,22.0,10.1,160.0,71.0,7.4,0,5,7,0,2026-05-30T01:02:05.840516+05:30
Latur,Maharashtra,18.4088,76.5604,29.7,49,0.0,938.1,8.95,39.2,48,19.6,15.6,7.5,216.0,85.0,5.5,4,5,7,1,2026-05-30T01:02:05.840524+05:30
Nanded,Maharashtra,19.1383,77.3091,33.2,35,0.0,965.9,8.9,40.3,63,30.2,23.1,18.9,236.0,59.0,6.7,0,5,7,0,2026-05-30T01:02:05.840531+05:30
Gulbarga,Karnataka,17.3297,76.8343,30.5,53,0.0,957.6,8.95,40.3,42,13.2,10.9,9.9,254.0,66.0,2.8,0,5,7,1,2026-05-30T01:02:05.840538+05:30
Bidar,Karnataka,17.9104,77.5199,28.9,50,0.0,933.6,9.0,34.9,58,27.2,23.7,33.0,311.0,38.0,4.2,4,5,7,1,2026-05-30T01:02:05.840545+05:30
Hospet,Karnataka,15.2689,76.3909,26.1,83,0.0,956.1,8.75,42.5,40,6.7,6.0,6.8,146.0,49.0,1.6,7,5,7,1,2026-05-30T01:02:05.840552+05:30
Tirupur,Tamil Nadu,11.1085,77.3411,26.3,83,0.0,975.4,8.5,50.4,37,12.8,11.7,18.2,171.0,34.0,4.6,7,5,7,1,2026-05-30T01:02:05.840559+05:30
Alappuzha,Kerala,9.4981,76.3388,25.7,94,0.1,1011.0,7.85,27.7,29,11.1,9.1,8.4,119.0,40.0,1.9,10,0,4,1,2026-05-30T01:02:05.840566+05:30
Munnar,Kerala,10.0889,77.0595,17.9,100,0.1,858.1,8.7,28.1,24,6.5,6.3,10.2,123.0,27.0,1.8,6,10,7,1,2026-05-30T01:02:05.840574+05:30
Silchar,Assam,24.8333,92.7789,26.1,86,0.0,1002.8,8.9,24.1,151,99.4,78.5,31.3,1033.0,17.0,7.9,7,5,4,1,2026-05-30T01:02:05.840581+05:30
Dibrugarh,Assam,27.4728,94.912,27.2,85,0.0,994.5,7.45,16.9,135,80.6,58.6,34.8,655.0,19.0,3.5,7,5,7,1,2026-05-30T01:02:05.840589+05:30
