city,state,latitude,longitude,temp,humidity,rain,pressure,uv_index,aqi,mosquito_risk,arthritis_risk,migraine_risk,frizz_risk,updated_at
Delhi,Delhi,28.6139,77.209,28.4,22,0.0,987.0,5.5,158,4,5,3,0,2026-02-25T15:28:26.004158+05:30
Mumbai,Maharashtra,19.076,72.8777,27.2,72,0.0,1009.4,7.25,100,7,0,4,1,2026-02-25T15:28:26.004202+05:30
Bangalore,Karnataka,12.9716,77.5946,29.3,34,0.0,911.8,8.7,99,4,5,7,0,2026-02-25T15:28:26.004218+05:30
Hyderabad,Telangana,17.385,78.4867,25.7,56,0.0,954.6,8.05,146,4,5,7,1,2026-02-25T15:28:26.004228+05:30
Chennai,Tamil Nadu,13.0827,80.2707,31.0,56,0.0,1008.1,8.55,55,0,0,4,1,2026-02-25T15:28:26.004238+05:30
Kolkata,West Bengal,22.5726,88.3639,29.7,43,0.0,1007.4,7.35,185,4,5,4,0,2026-02-25T15:28:26.004246+05:30
Pune,Maharashtra,18.5204,73.8567,33.7,20,0.0,949.2,7.75,127,0,5,7,0,2026-02-25T15:28:26.004254+05:30
Ahmedabad,Gujarat,23.0225,72.5714,35.1,20,0.0,1002.9,7.05,82,0,5,7,0,2026-02-25T15:28:26.004261+05:30
Jaipur,Rajasthan,26.9124,75.7873,30.3,19,0.0,963.0,6.35,108,0,5,7,0,2026-02-25T15:28:26.004268+05:30
Lucknow,Uttar Pradesh,26.8467,80.9462,29.6,31,0.0,997.0,5.95,164,4,5,3,0,2026-02-25T15:28:26.004282+05:30
Kanpur,Uttar Pradesh,26.4499,80.3319,29.5,29,0.0,995.4,6.0,161,4,5,3,0,2026-02-25T15:28:26.004289+05:30
Chandigarh,Chandigarh,30.7333,76.7794,26.5,44,0.0,972.4,5.45,151,4,5,3,0,2026-02-25T15:28:26.004296+05:30
Srinagar,Jammu and Kashmir,34.0837,74.7973,16.9,31,0.0,843.2,6.3,153,0,5,7,1,2026-02-25T15:28:26.004304+05:30
Jammu,Jammu and Kashmir,32.7266,74.857,25.9,55,0.0,976.3,6.0,152,4,5,3,1,2026-02-25T15:28:26.004312+05:30
Amritsar,Punjab,31.634,74.8723,26.0,52,0.0,985.1,5.95,189,4,5,3,0,2026-02-25T15:28:26.004318+05:30
Ludhiana,Punjab,30.901,75.8573,26.7,42,0.0,982.9,5.65,177,4,5,3,0,2026-02-25T15:28:26.004326+05:30
Jalandhar,Punjab,31.326,75.5762,26.2,51,0.0,984.0,5.8,181,4,5,3,0,2026-02-25T15:28:26.004335+05:30
Dehradun,Uttarakhand,30.6284,78.0322,16.6,59,0.0,831.5,5.75,85,0,5,3,0,2026-02-25T15:28:26.004343+05:30
Shimla,Himachal Pradesh,31.1048,77.1734,14.8,57,0.0,785.9,5.85,103,0,5,3,0,2026-02-25T15:28:26.004350+05:30
Manali,Himachal Pradesh,32.2396,77.1887,18.6,43,0.0,820.3,7.5,55,0,5,7,0,2026-02-25T15:28:26.004360+05:30
Gurgaon,Haryana,28.4595,77.0266,28.4,23,0.0,985.5,5.65,163,4,5,3,0,2026-02-25T15:28:26.004366+05:30
Noida,Uttar Pradesh,28.5355,77.391,28.9,20,0.0,988.5,5.55,163,4,5,3,0,2026-02-25T15:28:26.004373+05:30
Ghaziabad,Uttar Pradesh,28.6692,77.4538,27.7,27,0.0,986.8,5.5,157,4,5,3,0,2026-02-25T15:28:26.004380+05:30
Faridabad,Haryana,28.4089,77.3178,27.9,27,0.0,987.8,5.55,163,4,5,3,0,2026-02-25T15:28:26.004388+05:30
Meerut,Uttar Pradesh,28.9845,77.7064,27.1,38,0.0,985.5,5.4,157,4,5,3,0,2026-02-25T15:28:26.004395+05:30
Agra,Uttar Pradesh,27.1767,78.0081,29.3,35,0.0,991.7,5.85,171,4,5,3,0,2026-02-25T15:28:26.004401+05:30
Varanasi,Uttar Pradesh,25.3176,82.9739,28.0,39,0.0,1001.4,6.65,155,4,5,4,0,2026-02-25T15:28:26.004408+05:30
Prayagraj,Uttar Pradesh,25.4358,81.8463,28.3,37,0.0,999.9,6.5,167,4,5,7,0,2026-02-25T15:28:26.004415+05:30
Gorakhpur,Uttar Pradesh,26.7606,83.3732,27.9,43,0.0,1000.2,6.35,172,4,5,4,0,2026-02-25T15:28:26.004422+05:30
Bareilly,Uttar Pradesh,28.367,79.4304,27.7,28,0.0,990.4,5.65,168,4,5,3,0,2026-02-25T15:28:26.004431+05:30
Aligarh,Uttar Pradesh,27.8974,78.088,28.2,31,0.0,989.6,5.6,164,4,5,3,0,2026-02-25T15:28:26.004438+05:30
Moradabad,Uttar Pradesh,28.8386,78.7733,27.2,31,0.0,987.3,5.5,173,4,5,3,0,2026-02-25T15:28:26.004444+05:30
Saharanpur,Uttar Pradesh,29.9637,77.546,26.8,36,0.0,979.3,5.15,163,4,5,3,0,2026-02-25T15:28:26.004450+05:30
Jhansi,Uttar Pradesh,25.4484,78.5685,30.2,24,0.0,981.5,6.45,123,0,5,7,0,2026-02-25T15:28:29.288435+05:30
Surat,Gujarat,21.1702,72.8311,31.2,39,0.0,1008.1,7.0,153,0,0,4,0,2026-02-25T15:28:29.288472+05:30
Vadodara,Gujarat,22.3072,73.1812,36.2,20,0.0,1004.8,7.05,86,0,5,7,0,2026-02-25T15:28:29.288484+05:30
Rajkot,Gujarat,22.3039,70.8022,34.8,19,0.0,995.0,6.95,63,0,5,7,0,2026-02-25T15:28:29.288493+05:30
Thane,Maharashtra,19.2183,72.9781,30.5,48,0.0,1009.1,7.25,100,0,0,4,1,2026-02-25T15:28:29.288502+05:30
Nagpur,Maharashtra,21.1458,79.0882,27.1,44,0.0,975.6,6.5,124,4,5,7,0,2026-02-25T15:28:29.288510+05:30
Nashik,Maharashtra,19.9975,73.7898,31.8,23,0.0,946.1,7.4,110,0,5,7,0,2026-02-25T15:28:29.288518+05:30
Aurangabad,Maharashtra,19.8762,75.3433,30.2,28,0.0,945.1,7.35,104,0,5,7,0,2026-02-25T15:28:29.288527+05:30
Solapur,Maharashtra,17.6599,75.9064,30.9,39,0.0,957.9,7.85,129,0,5,7,0,2026-02-25T15:28:29.288536+05:30
Kolhapur,Maharashtra,16.705,74.2433,31.9,27,0.0,948.5,8.2,151,0,5,7,0,2026-02-25T15:28:29.288545+05:30
Goa,Goa,15.2993,74.124,30.7,64,0.0,998.1,8.2,151,3,5,7,1,2026-02-25T15:28:29.288553+05:30
Jodhpur,Rajasthan,26.2389,73.0243,33.4,18,0.0,985.3,6.6,65,0,5,7,0,2026-02-25T15:28:29.288562+05:30
Udaipur,Rajasthan,24.5854,73.7125,28.5,26,0.0,948.6,7.25,44,4,5,7,0,2026-02-25T15:28:29.288570+05:30
Kota,Rajasthan,25.2138,75.8648,31.4,25,0.0,981.6,6.65,97,0,5,7,0,2026-02-25T15:28:29.288578+05:30
Bikaner,Rajasthan,28.0229,73.3119,31.7,18,0.0,984.9,6.25,57,0,5,7,0,2026-02-25T15:28:29.288587+05:30
Ajmer,Rajasthan,26.4499,74.6399,30.6,20,0.0,957.4,6.6,90,0,5,7,0,2026-02-25T15:28:29.288595+05:30
Gwalior,Madhya Pradesh,26.2183,78.1828,29.2,29,0.0,986.9,6.2,138,4,5,7,0,2026-02-25T15:28:29.288604+05:30
Indore,Madhya Pradesh,22.7196,75.8577,29.4,28,0.0,950.0,7.2,99,4,5,7,0,2026-02-25T15:28:29.288612+05:30
Bhopal,Madhya Pradesh,23.2599,77.4126,29.8,24,0.0,956.1,7.05,77,4,5,7,0,2026-02-25T15:28:29.288621+05:30
Jabalpur,Madhya Pradesh,23.1815,79.9864,29.8,25,0.0,964.1,7.1,79,4,5,7,0,2026-02-25T15:28:29.288628+05:30
Ujjain,Madhya Pradesh,23.1765,75.7885,30.0,26,0.0,955.9,7.1,112,4,5,7,0,2026-02-25T15:28:29.288638+05:30
Visakhapatnam,Andhra Pradesh,17.6868,83.2185,29.0,61,0.0,1005.0,8.05,130,7,5,4,1,2026-02-25T15:28:29.288645+05:30
Vijayawada,Andhra Pradesh,16.5062,80.648,32.1,43,0.0,1003.4,8.15,129,0,5,4,1,2026-02-25T15:28:29.288653+05:30
Guntur,Andhra Pradesh,16.3067,80.4365,32.8,39,0.0,1004.5,8.15,124,0,5,4,1,2026-02-25T15:28:29.288662+05:30
Nellore,Andhra Pradesh,14.4426,79.9865,32.3,45,0.0,1006.8,8.4,60,0,5,4,1,2026-02-25T15:28:29.288669+05:30
Kurnool,Andhra Pradesh,15.8281,78.0373,32.8,38,0.0,977.5,8.2,110,0,5,7,1,2026-02-25T15:28:29.288676+05:30
Kakinada,Andhra Pradesh,16.9891,82.2475,29.7,57,0.0,1008.6,8.05,61,4,0,4,1,2026-02-25T15:28:29.288683+05:30
Tirupati,Andhra Pradesh,13.6288,79.4192,32.1,40,0.0,991.7,8.5,81,0,5,7,1,2026-02-25T15:28:29.288690+05:30
Warangal,Telangana,17.9689,79.5941,32.2,40,0.0,979.7,7.8,155,0,5,7,1,2026-02-25T15:28:29.288696+05:30
Nizamabad,Telangana,18.6725,78.0941,31.9,31,0.0,965.8,7.75,155,0,5,7,0,2026-02-25T15:28:29.288702+05:30
Mysore,Karnataka,12.2958,76.6396,30.5,40,0.0,928.2,8.85,109,0,5,7,0,2026-02-25T15:28:29.288709+05:30
Mangalore,Karnataka,12.9141,74.856,28.7,80,0.0,1006.1,8.45,119,7,5,4,1,2026-02-25T15:28:29.288715+05:30
Hubli-Dharwad,Karnataka,15.3647,75.124,32.2,29,0.0,940.8,8.15,114,0,5,7,0,2026-02-25T15:28:29.288722+05:30
Belgaum,Karnataka,15.8497,74.4977,28.8,46,0.0,926.2,8.4,139,4,5,7,1,2026-02-25T15:28:32.531678+05:30
Coimbatore,Tamil Nadu,11.0168,76.9558,28.9,62,0.0,961.5,8.9,109,7,5,7,1,2026-02-25T15:28:32.531713+05:30
Madurai,Tamil Nadu,9.9252,78.1198,33.1,46,0.0,992.1,8.9,94,0,5,7,1,2026-02-25T15:28:32.531724+05:30
Trichy,Tamil Nadu,10.7905,78.7047,32.7,48,0.0,999.2,8.75,70,0,5,7,1,2026-02-25T15:28:32.531734+05:30
Salem,Tamil Nadu,11.6643,78.146,32.9,45,0.0,976.6,8.75,88,0,5,7,1,2026-02-25T15:28:32.531743+05:30
Tirunelveli,Tamil Nadu,8.7139,77.7567,31.0,63,0.0,1003.1,8.9,72,3,5,4,1,2026-02-25T15:28:32.531751+05:30
Vellore,Tamil Nadu,12.9165,79.1325,32.2,38,0.0,984.6,8.6,96,0,5,7,1,2026-02-25T15:28:32.531758+05:30
Erode,Tamil Nadu,11.341,77.7172,34.7,36,0.0,988.1,8.8,87,0,5,7,1,2026-02-25T15:28:32.531765+05:30
Kochi,Kerala,9.9312,76.2673,28.2,79,0.0,1008.1,8.6,90,7,0,4,1,2026-02-25T15:28:32.531772+05:30
Thiruvananthapuram,Kerala,8.5241,76.9366,27.8,82,0.0,1007.7,8.8,105,7,5,4,1,2026-02-25T15:28:32.531778+05:30
Kozhikode,Kerala,11.2588,75.7804,29.4,74,0.0,1007.2,8.6,93,7,5,4,1,2026-02-25T15:28:32.531785+05:30
Thrissur,Kerala,10.5276,76.2144,31.5,63,0.0,1006.4,8.7,84,3,5,4,1,2026-02-25T15:28:32.531792+05:30
Kannur,Kerala,11.8745,75.3704,30.1,70,0.0,1006.5,8.55,104,3,5,4,1,2026-02-25T15:28:32.531818+05:30
Patna,Bihar,25.5941,85.1376,27.5,37,0.0,1003.7,6.8,167,4,5,4,0,2026-02-25T15:28:32.531826+05:30
Gaya,Bihar,24.7914,85.0002,26.5,43,0.0,997.4,6.9,152,4,5,7,0,2026-02-25T15:28:32.531833+05:30
Muzaffarpur,Bihar,26.1209,85.3647,28.0,38,0.0,1003.4,6.75,172,4,5,4,0,2026-02-25T15:28:32.531839+05:30
Bhagalpur,Bihar,25.2425,87.0117,26.9,41,0.0,1004.0,6.85,158,4,5,4,0,2026-02-25T15:28:32.531846+05:30
Ranchi,Jharkhand,23.3441,85.3096,26.0,24,0.0,939.6,7.55,100,4,5,7,0,2026-02-25T15:28:32.531852+05:30
Jamshedpur,Jharkhand,22.8046,86.2029,30.4,29,0.0,992.5,7.45,155,0,5,7,0,2026-02-25T15:28:32.531859+05:30
Dhanbad,Jharkhand,23.7957,86.4304,29.4,28,0.0,981.9,7.35,152,4,5,7,0,2026-02-25T15:28:32.531867+05:30
Bokaro,Jharkhand,23.6693,86.1511,29.1,27,0.0,985.9,7.35,150,4,5,7,0,2026-02-25T15:28:32.531873+05:30
Bhubaneswar,Odisha,20.2961,85.8245,32.1,36,0.0,1003.4,7.75,156,0,5,4,0,2026-02-25T15:28:32.531880+05:30
Cuttack,Odisha,20.4625,85.8828,32.4,34,0.0,1005.5,7.8,156,0,5,4,0,2026-02-25T15:28:32.531886+05:30
Rourkela,Odisha,22.2604,84.8536,31.8,22,0.0,986.6,7.35,94,0,5,7,0,2026-02-25T15:28:32.531893+05:30
Raipur,Chhattisgarh,21.2514,81.6296,31.2,26,0.0,976.7,7.5,157,0,5,7,0,2026-02-25T15:28:32.531899+05:30
Bhilai,Chhattisgarh,21.1938,81.3509,30.9,28,0.0,977.1,7.5,157,0,5,7,0,2026-02-25T15:28:32.531905+05:30
Guwahati,Assam,26.1158,91.7086,28.0,46,0.0,1002.1,6.75,160,4,5,4,0,2026-02-25T15:28:32.531911+05:30
Agartala,Tripura,23.8315,91.2868,29.3,37,0.0,1006.9,7.1,158,4,5,4,0,2026-02-25T15:28:32.531918+05:30
Shillong,Meghalaya,25.5788,91.8933,13.8,69,0.0,855.1,6.15,142,3,5,7,0,2026-02-25T15:28:32.531924+05:30
Imphal,Manipur,24.817,93.9368,21.7,36,0.0,922.6,7.3,167,0,5,7,0,2026-02-25T15:28:32.531931+05:30
Aizawl,Mizoram,23.7271,92.7176,23.5,32,0.0,893.1,7.3,159,0,5,7,0,2026-02-25T15:28:32.531937+05:30
Kohima,Nagaland,25.6701,94.1077,14.9,81,0.0,853.8,6.65,159,3,10,7,0,2026-02-25T15:28:32.531944+05:30
Gangtok,Sikkim,27.3314,88.6138,16.7,46,0.0,837.3,7.05,132,0,5,7,0,2026-02-25T15:28:32.531951+05:30
Siliguri,West Bengal,26.7271,88.3953,23.8,44,0.0,995.2,6.75,167,0,5,7,0,2026-02-25T15:28:35.779377+05:30
Durgapur,West Bengal,23.5204,87.3119,30.4,26,0.0,996.7,7.35,161,0,5,7,0,2026-02-25T15:28:35.779408+05:30
Asansol,West Bengal,23.6739,86.9524,30.3,26,0.0,995.4,7.35,153,0,5,7,0,2026-02-25T15:28:35.779418+05:30
Pondicherry,Puducherry,11.9139,79.8145,32.7,50,0.0,1008.2,8.6,51,0,0,4,1,2026-02-25T15:28:35.779427+05:30
Port Blair,Andaman and Nicobar Islands,11.6234,92.7265,27.4,81,0.0,1005.5,8.6,28,7,5,4,1,2026-02-25T15:28:35.779436+05:30
Haridwar,Uttarakhand,29.9457,78.1642,27.0,39,0.0,977.5,5.3,147,4,5,3,0,2026-02-25T15:28:35.779443+05:30
Rishikesh,Uttarakhand,30.0869,78.2676,26.1,43,0.0,970.0,5.35,128,4,5,3,0,2026-02-25T15:28:35.779450+05:30
Nainital,Uttarakhand,29.3919,79.4542,18.1,53,0.0,807.6,6.1,129,0,5,7,0,2026-02-25T15:28:35.779457+05:30
Mussoorie,Uttarakhand,30.4599,78.0664,16.8,57,0.0,804.2,5.65,123,0,5,3,0,2026-02-25T15:28:35.779464+05:30
Dharamshala,Himachal Pradesh,32.219,76.3234,19.5,66,0.0,871.2,5.9,70,3,5,3,0,2026-02-25T15:28:35.779471+05:30
Dalhousie,Himachal Pradesh,32.5387,75.971,18.6,53,0.0,806.3,6.1,136,0,5,7,0,2026-02-25T15:28:35.779480+05:30
Patiala,Punjab,30.3398,76.3869,26.7,42,0.0,982.2,5.35,173,4,5,3,0,2026-02-25T15:28:35.779487+05:30
Bhatinda,Punjab,30.211,74.9455,28.4,35,0.0,987.9,6.0,158,4,5,3,0,2026-02-25T15:28:35.779494+05:30
Rohtak,Haryana,28.8955,76.6066,28.5,23,0.0,985.8,5.55,158,4,5,3,0,2026-02-25T15:28:35.779501+05:30
Panipat,Haryana,29.3909,76.9635,26.9,41,0.0,984.4,5.3,161,4,5,3,0,2026-02-25T15:28:35.779508+05:30
Mathura,Uttar Pradesh,27.4924,77.6737,29.2,34,0.0,990.7,5.8,163,4,5,3,0,2026-02-25T15:28:35.779514+05:30
Vrindavan,Uttar Pradesh,27.5823,77.7027,28.8,33,0.0,991.2,5.75,163,4,5,3,0,2026-02-25T15:28:35.779521+05:30
Ayodhya,Uttar Pradesh,26.7922,82.1998,28.7,38,0.0,998.6,6.15,175,4,5,7,0,2026-02-25T15:28:35.779531+05:30
Ratlam,Madhya Pradesh,23.3315,75.0367,31.0,24,0.0,956.5,7.05,98,0,5,7,0,2026-02-25T15:28:35.779538+05:30
Sagar,Madhya Pradesh,23.8388,78.7378,28.6,27,0.0,953.2,6.95,82,4,5,7,0,2026-02-25T15:28:35.779545+05:30
Satna,Madhya Pradesh,24.6005,80.8322,29.8,20,0.0,974.5,6.9,85,4,5,7,0,2026-02-25T15:28:35.779552+05:30
Akola,Maharashtra,20.7002,77.0082,32.9,27,0.0,976.0,7.45,97,0,5,7,0,2026-02-25T15:28:35.779560+05:30
Amravati,Maharashtra,20.9374,77.7796,27.3,49,0.2,969.1,7.4,107,7,5,7,0,2026-02-25T15:28:35.779567+05:30
Latur,Maharashtra,18.4088,76.5604,27.0,49,0.0,941.3,6.5,139,4,5,7,0,2026-02-25T15:28:35.779574+05:30
Nanded,Maharashtra,19.1383,77.3091,31.4,33,0.0,969.6,7.7,151,0,5,7,0,2026-02-25T15:28:35.779580+05:30
Gulbarga,Karnataka,17.3297,76.8343,30.5,37,0.0,959.6,4.55,128,0,5,3,0,2026-02-25T15:28:35.779587+05:30
Bidar,Karnataka,17.9104,77.5199,28.2,43,0.0,936.9,7.85,152,4,5,7,0,2026-02-25T15:28:35.779593+05:30
Hospet,Karnataka,15.2689,76.3909,32.2,30,0.0,956.0,8.2,95,0,5,7,0,2026-02-25T15:28:35.779600+05:30
Tirupur,Tamil Nadu,11.1085,77.3411,32.8,44,0.0,974.4,8.9,121,0,5,7,1,2026-02-25T15:28:35.779606+05:30
Alappuzha,Kerala,9.4981,76.3388,28.2,78,0.0,1008.4,8.65,101,7,0,4,1,2026-02-25T15:28:35.779613+05:30
Munnar,Kerala,10.0889,77.0595,25.0,70,0.0,857.4,9.15,95,7,5,7,1,2026-02-25T15:28:35.779619+05:30
Silchar,Assam,24.8333,92.7789,29.3,36,0.0,1004.9,7.05,163,4,5,4,0,2026-02-25T15:28:35.779626+05:30
Dibrugarh,Assam,27.4728,94.912,26.0,61,0.0,995.7,6.75,142,7,5,7,1,2026-02-25T15:28:35.779632+05:30
