city,state,latitude,longitude,temp,humidity,rain,pressure,uv_index,wind_gusts,aqi,pm10,pm2_5,no2,co,o3,so2,mosquito_risk,arthritis_risk,migraine_risk,frizz_risk,updated_at
Delhi,Delhi,28.6139,77.209,32.6,43,0.0,979.0,7.8,52.9,185,486.2,121.1,35.5,418.0,61.0,20.4,0,5,7,1,2026-06-19T01:01:17.038387+05:30
Mumbai,Maharashtra,19.076,72.8777,30.0,65,0.0,1008.0,7.7,45.0,63,29.7,15.4,6.6,138.0,45.0,6.1,7,0,4,1,2026-06-19T01:01:17.038439+05:30
Bangalore,Karnataka,12.9716,77.5946,21.3,92,0.0,911.4,7.9,33.8,53,16.6,12.3,21.4,609.0,39.0,6.4,3,5,7,1,2026-06-19T01:01:17.038456+05:30
Hyderabad,Telangana,17.385,78.4867,30.0,54,0.0,951.7,8.4,36.0,76,46.2,35.7,35.1,532.0,41.0,9.2,4,5,7,1,2026-06-19T01:01:17.038467+05:30
Chennai,Tamil Nadu,13.0827,80.2707,27.7,80,0.0,1006.2,8.4,32.4,104,19.0,15.0,12.8,336.0,85.0,8.4,7,5,4,1,2026-06-19T01:01:17.038476+05:30
Kolkata,West Bengal,22.5726,88.3639,27.2,93,0.0,1003.0,9.0,35.3,129,43.0,37.1,10.7,420.0,81.0,8.1,7,5,4,1,2026-06-19T01:01:17.038484+05:30
Pune,Maharashtra,18.5204,73.8567,23.8,85,0.0,948.1,8.35,42.8,52,26.4,16.1,8.0,156.0,42.0,6.8,3,5,7,1,2026-06-19T01:01:17.038492+05:30
Ahmedabad,Gujarat,23.0225,72.5714,28.3,76,0.1,1000.3,7.9,44.6,65,28.0,17.0,7.9,241.0,49.0,4.7,10,5,4,1,2026-06-19T01:01:17.038500+05:30
Jaipur,Rajasthan,26.9124,75.7873,28.7,61,0.0,956.6,8.25,31.0,121,90.6,41.7,12.6,207.0,48.0,5.7,7,5,7,1,2026-06-19T01:01:17.038508+05:30
Lucknow,Uttar Pradesh,26.8467,80.9462,32.0,50,0.0,988.8,8.35,34.6,157,205.4,75.2,33.7,482.0,50.0,12.5,0,5,7,1,2026-06-19T01:01:17.038520+05:30
Kanpur,Uttar Pradesh,26.4499,80.3319,34.1,38,0.0,987.2,8.3,36.0,156,276.6,85.0,44.3,499.0,34.0,13.1,0,5,7,1,2026-06-19T01:01:17.038527+05:30
Chandigarh,Chandigarh,30.7333,76.7794,27.0,69,0.0,963.9,7.8,42.8,134,66.4,60.1,45.0,556.0,36.0,9.0,7,5,7,1,2026-06-19T01:01:17.038536+05:30
Srinagar,Jammu and Kashmir,34.0837,74.7973,16.9,91,0.0,840.6,8.55,30.2,76,33.8,33.2,34.1,1062.0,0.0,0.1,3,10,7,0,2026-06-19T01:01:17.038544+05:30
Jammu,Jammu and Kashmir,32.7266,74.857,28.3,53,0.0,967.9,8.45,58.3,83,52.4,44.6,65.2,397.0,19.0,7.4,4,5,7,1,2026-06-19T01:01:17.038551+05:30
Amritsar,Punjab,31.634,74.8723,28.4,65,0.0,975.7,8.5,60.5,153,62.6,51.1,45.1,435.0,59.0,13.2,7,5,7,1,2026-06-19T01:01:17.038558+05:30
Ludhiana,Punjab,30.901,75.8573,29.4,62,0.0,973.8,8.05,79.2,152,62.9,58.7,33.5,905.0,54.0,9.0,7,5,7,1,2026-06-19T01:01:17.038565+05:30
Jalandhar,Punjab,31.326,75.5762,29.2,68,0.0,974.8,8.25,74.2,152,81.0,72.4,39.6,809.0,55.0,11.0,7,5,7,1,2026-06-19T01:01:17.038572+05:30
Dehradun,Uttarakhand,30.6284,78.0322,15.5,98,0.0,827.2,7.7,34.2,66,34.2,20.3,24.2,230.0,49.0,0.5,3,10,7,0,2026-06-19T01:01:17.038579+05:30
Shimla,Himachal Pradesh,31.1048,77.1734,14.8,76,0.0,782.4,7.75,40.0,83,41.8,27.2,14.3,313.0,80.0,0.0,3,5,7,0,2026-06-19T01:01:17.038586+05:30
Manali,Himachal Pradesh,32.2396,77.1887,12.3,93,0.0,814.5,9.2,39.6,40,4.4,4.4,29.2,257.0,85.0,0.0,3,10,7,0,2026-06-19T01:01:17.038598+05:30
Gurgaon,Haryana,28.4595,77.0266,30.0,53,0.0,977.4,7.9,48.6,223,437.7,111.8,59.9,360.0,41.0,30.3,4,5,7,1,2026-06-19T01:01:17.038604+05:30
Noida,Uttar Pradesh,28.5355,77.391,30.9,53,0.0,980.2,7.85,33.8,223,437.7,111.8,59.9,551.0,41.0,30.3,0,5,7,1,2026-06-19T01:01:17.038611+05:30
Ghaziabad,Uttar Pradesh,28.6692,77.4538,30.7,52,0.0,978.5,7.8,40.3,179,357.6,114.1,45.9,616.0,49.0,21.1,0,5,7,1,2026-06-19T01:01:17.038618+05:30
Faridabad,Haryana,28.4089,77.3178,32.1,44,0.0,979.6,7.85,34.6,223,437.7,111.8,59.9,463.0,41.0,30.3,0,5,7,1,2026-06-19T01:01:17.038624+05:30
Meerut,Uttar Pradesh,28.9845,77.7064,30.5,51,0.0,977.3,7.7,28.8,179,357.6,114.1,45.9,659.0,49.0,21.1,0,5,7,1,2026-06-19T01:01:17.038631+05:30
Agra,Uttar Pradesh,27.1767,78.0081,32.6,44,0.0,983.8,8.15,29.9,199,213.7,84.5,65.8,214.0,9.0,19.3,0,5,7,1,2026-06-19T01:01:17.038637+05:30
Varanasi,Uttar Pradesh,25.3176,82.9739,33.2,51,0.0,993.1,8.8,38.5,124,37.3,30.0,17.9,537.0,64.0,8.6,0,5,7,1,2026-06-19T01:01:17.038644+05:30
Prayagraj,Uttar Pradesh,25.4358,81.8463,32.9,49,0.0,991.6,8.75,34.6,113,48.4,32.1,17.5,252.0,59.0,7.1,0,5,7,1,2026-06-19T01:01:17.038651+05:30
Gorakhpur,Uttar Pradesh,26.7606,83.3732,30.1,72,0.0,992.6,8.7,25.2,151,116.2,68.9,31.2,438.0,53.0,13.2,3,5,7,1,2026-06-19T01:01:17.038658+05:30
Bareilly,Uttar Pradesh,28.367,79.4304,29.3,66,0.0,982.1,8.15,30.6,157,98.3,67.3,37.3,463.0,50.0,14.5,7,5,7,1,2026-06-19T01:01:17.038666+05:30
Aligarh,Uttar Pradesh,27.8974,78.088,30.0,57,0.0,981.5,8.0,29.2,220,345.5,136.9,95.2,628.0,1.0,25.2,4,5,7,1,2026-06-19T01:01:17.038674+05:30
Moradabad,Uttar Pradesh,28.8386,78.7733,30.3,57,0.0,979.2,7.95,33.5,165,154.6,114.6,75.8,612.0,9.0,19.9,0,5,7,1,2026-06-19T01:01:17.038681+05:30
Saharanpur,Uttar Pradesh,29.9637,77.546,28.4,66,0.0,971.0,7.4,42.5,162,104.1,75.0,44.3,566.0,33.0,13.3,7,5,7,1,2026-06-19T01:01:17.038687+05:30
Jhansi,Uttar Pradesh,25.4484,78.5685,31.8,46,0.0,974.4,8.5,33.8,82,38.1,24.9,7.1,172.0,73.0,10.3,0,5,7,1,2026-06-19T01:01:20.275595+05:30
Surat,Gujarat,21.1702,72.8311,29.0,78,0.0,1005.5,7.6,46.4,71,30.2,19.6,19.8,285.0,28.0,33.3,7,5,4,1,2026-06-19T01:01:20.275630+05:30
Vadodara,Gujarat,22.3072,73.1812,29.5,76,0.0,1002.5,7.9,41.8,64,26.0,17.0,15.8,125.0,30.0,11.3,7,5,4,1,2026-06-19T01:01:20.275641+05:30
Rajkot,Gujarat,22.3039,70.8022,28.8,71,0.0,992.4,7.55,44.3,57,24.8,12.4,5.9,111.0,38.0,5.1,7,5,7,1,2026-06-19T01:01:20.275650+05:30
Thane,Maharashtra,19.2183,72.9781,29.7,67,0.0,1007.4,7.7,40.3,63,29.7,15.4,6.6,145.0,45.0,6.1,7,5,4,1,2026-06-19T01:01:20.275658+05:30
Nagpur,Maharashtra,21.1458,79.0882,30.7,60,0.0,970.6,8.65,40.0,82,63.8,43.5,41.5,282.0,28.0,21.3,0,5,7,1,2026-06-19T01:01:20.275665+05:30
Nashik,Maharashtra,19.9975,73.7898,24.5,83,0.0,945.2,8.0,43.2,52,24.8,14.1,6.9,124.0,42.0,4.8,3,5,7,1,2026-06-19T01:01:20.275673+05:30
Aurangabad,Maharashtra,19.8762,75.3433,27.7,55,0.0,943.6,8.5,41.4,53,23.1,14.3,5.7,133.0,54.0,5.0,4,5,7,1,2026-06-19T01:01:20.275680+05:30
Solapur,Maharashtra,17.6599,75.9064,29.6,47,0.0,956.6,8.55,42.8,56,21.8,15.4,7.5,142.0,63.0,3.4,4,5,7,1,2026-06-19T01:01:20.275687+05:30
Kolhapur,Maharashtra,16.705,74.2433,23.7,86,0.0,948.1,8.55,53.3,54,25.6,16.2,6.5,150.0,43.0,3.1,3,5,7,1,2026-06-19T01:01:20.275693+05:30
Goa,Goa,15.2993,74.124,27.1,86,0.0,998.6,8.7,30.2,62,40.3,20.4,4.7,420.0,45.0,2.0,7,5,7,1,2026-06-19T01:01:20.275701+05:30
Jodhpur,Rajasthan,26.2389,73.0243,31.5,55,0.0,979.4,8.45,39.2,106,141.6,36.6,6.6,151.0,51.0,2.3,0,5,7,1,2026-06-19T01:01:20.275708+05:30
Udaipur,Rajasthan,24.5854,73.7125,26.3,67,0.0,944.7,8.8,36.7,64,38.9,21.5,11.3,150.0,42.0,5.0,7,5,7,1,2026-06-19T01:01:20.275714+05:30
Kota,Rajasthan,25.2138,75.8648,31.7,51,0.0,976.0,8.35,33.1,74,23.3,16.7,8.2,210.0,62.0,5.2,0,5,7,1,2026-06-19T01:01:20.275721+05:30
Bikaner,Rajasthan,28.0229,73.3119,31.8,52,0.0,977.4,8.5,58.0,123,104.8,33.2,3.7,235.0,58.0,2.7,0,5,7,1,2026-06-19T01:01:20.275729+05:30
Ajmer,Rajasthan,26.4499,74.6399,28.7,59,0.0,951.9,8.35,42.1,84,26.8,17.8,7.4,198.0,58.0,4.3,4,5,7,1,2026-06-19T01:01:20.275736+05:30
Gwalior,Madhya Pradesh,26.2183,78.1828,32.8,45,0.0,979.5,8.3,33.8,96,38.0,24.3,6.2,146.0,65.0,5.5,0,5,7,1,2026-06-19T01:01:20.275742+05:30
Indore,Madhya Pradesh,22.7196,75.8577,27.6,58,0.0,946.9,8.6,42.8,68,32.6,24.5,13.3,261.0,51.0,7.1,4,5,7,1,2026-06-19T01:01:20.275749+05:30
Bhopal,Madhya Pradesh,23.2599,77.4126,27.7,67,0.0,951.6,8.7,30.2,74,25.9,20.4,6.5,283.0,65.0,3.3,7,5,7,1,2026-06-19T01:01:20.275755+05:30
Jabalpur,Madhya Pradesh,23.1815,79.9864,28.0,76,0.0,958.6,5.05,30.2,71,33.8,28.2,21.0,276.0,49.0,5.2,7,5,3,1,2026-06-19T01:01:20.275762+05:30
Ujjain,Madhya Pradesh,23.1765,75.7885,27.7,59,0.0,952.4,8.35,41.0,66,36.3,25.1,8.5,293.0,56.0,6.0,4,5,7,1,2026-06-19T01:01:20.275769+05:30
Visakhapatnam,Andhra Pradesh,17.6868,83.2185,28.7,94,0.0,1001.3,4.0,42.1,111,45.1,33.1,24.8,300.0,94.0,39.6,7,5,0,1,2026-06-19T01:01:20.275776+05:30
Vijayawada,Andhra Pradesh,16.5062,80.648,30.5,77,0.0,1000.1,7.75,25.2,94,45.2,40.0,19.3,358.0,64.0,8.8,3,5,4,1,2026-06-19T01:01:20.275782+05:30
Guntur,Andhra Pradesh,16.3067,80.4365,29.3,82,0.0,1001.2,6.2,25.9,95,49.9,44.5,23.1,301.0,58.0,9.0,7,5,4,1,2026-06-19T01:01:20.275790+05:30
Nellore,Andhra Pradesh,14.4426,79.9865,28.2,86,0.0,1004.0,8.3,29.5,78,30.7,25.3,10.1,302.0,100.0,8.5,7,5,4,1,2026-06-19T01:01:20.275797+05:30
Kurnool,Andhra Pradesh,15.8281,78.0373,28.9,62,0.0,975.3,1.55,37.8,69,31.2,24.3,9.9,356.0,75.0,5.0,7,5,3,1,2026-06-19T01:01:20.275805+05:30
Kakinada,Andhra Pradesh,16.9891,82.2475,29.6,82,0.0,1005.1,8.0,40.7,91,32.8,20.4,3.4,328.0,104.0,3.1,7,5,4,1,2026-06-19T01:01:20.275813+05:30
Tirupati,Andhra Pradesh,13.6288,79.4192,26.1,80,0.0,990.4,8.8,34.2,74,21.9,18.7,17.0,187.0,51.0,3.7,7,5,7,1,2026-06-19T01:01:20.275836+05:30
Warangal,Telangana,17.9689,79.5941,30.3,60,0.0,976.5,8.85,33.1,109,37.7,32.9,10.4,393.0,88.0,7.0,0,5,7,1,2026-06-19T01:01:20.275842+05:30
Nizamabad,Telangana,18.6725,78.0941,28.7,64,0.0,962.4,8.95,31.0,85,66.6,49.1,39.8,342.0,27.0,7.6,7,5,7,1,2026-06-19T01:01:20.275849+05:30
Mysore,Karnataka,12.2958,76.6396,21.9,98,0.0,928.7,6.2,42.5,49,25.3,19.0,25.0,253.0,32.0,3.9,3,5,7,1,2026-06-19T01:01:20.275856+05:30
Mangalore,Karnataka,12.9141,74.856,25.0,97,0.1,1007.9,8.45,31.7,68,43.5,27.0,15.6,398.0,29.0,5.4,10,5,4,1,2026-06-19T01:01:20.275863+05:30
Hubli-Dharwad,Karnataka,15.3647,75.124,23.9,87,0.0,941.1,8.25,42.8,51,20.7,12.2,5.5,143.0,43.0,2.1,3,5,7,1,2026-06-19T01:01:20.275869+05:30
Belgaum,Karnataka,15.8497,74.4977,21.8,95,0.0,925.7,8.95,42.5,56,24.8,15.1,7.7,132.0,37.0,2.0,3,5,7,1,2026-06-19T01:01:23.515418+05:30
Coimbatore,Tamil Nadu,11.0168,76.9558,23.3,99,0.1,962.1,3.65,32.8,41,12.1,10.3,18.4,281.0,30.0,4.6,6,5,3,1,2026-06-19T01:01:23.515455+05:30
Madurai,Tamil Nadu,9.9252,78.1198,27.1,83,0.0,993.2,4.6,28.8,61,28.4,22.1,24.8,420.0,43.0,5.4,7,5,3,1,2026-06-19T01:01:23.515467+05:30
Trichy,Tamil Nadu,10.7905,78.7047,26.1,90,0.0,999.7,6.8,37.4,54,17.6,15.4,16.6,192.0,60.0,5.2,7,5,7,1,2026-06-19T01:01:23.515477+05:30
Salem,Tamil Nadu,11.6643,78.146,25.1,90,0.0,977.9,4.9,27.4,55,20.8,17.1,19.2,394.0,55.0,7.7,7,5,3,1,2026-06-19T01:01:23.515485+05:30
Tirunelveli,Tamil Nadu,8.7139,77.7567,28.4,65,0.0,1003.4,7.05,32.8,52,15.8,12.1,10.2,300.0,38.0,3.1,7,5,4,1,2026-06-19T01:01:23.515494+05:30
Vellore,Tamil Nadu,12.9165,79.1325,25.4,97,0.0,983.6,8.2,33.5,60,15.8,13.4,14.2,240.0,54.0,4.3,7,5,7,1,2026-06-19T01:01:23.515502+05:30
Erode,Tamil Nadu,11.341,77.7172,24.9,93,0.0,989.6,4.65,36.0,52,19.2,16.2,22.2,362.0,40.0,4.5,3,5,3,1,2026-06-19T01:01:23.515510+05:30
Kochi,Kerala,9.9312,76.2673,26.0,92,0.1,1009.9,4.75,26.3,72,31.5,28.1,32.9,446.0,5.0,8.6,10,0,0,1,2026-06-19T01:01:23.515517+05:30
Thiruvananthapuram,Kerala,8.5241,76.9366,24.7,98,0.0,1009.1,7.85,38.5,55,22.3,11.6,5.2,359.0,48.0,2.5,3,0,4,1,2026-06-19T01:01:23.515524+05:30
Kozhikode,Kerala,11.2588,75.7804,25.0,98,0.0,1008.9,8.3,34.2,53,31.7,14.7,2.6,854.0,58.0,1.6,7,0,4,1,2026-06-19T01:01:23.515530+05:30
Thrissur,Kerala,10.5276,76.2144,24.8,99,0.2,1008.1,7.75,29.2,82,25.2,22.9,23.6,399.0,12.0,5.7,6,0,4,1,2026-06-19T01:01:23.515537+05:30
Kannur,Kerala,11.8745,75.3704,26.0,93,0.0,1008.1,8.45,36.0,60,51.2,35.3,35.1,531.0,19.0,7.7,7,0,4,1,2026-06-19T01:01:23.515544+05:30
Patna,Bihar,25.5941,85.1376,30.9,64,0.0,996.0,8.75,24.5,158,133.2,88.9,67.3,526.0,22.0,23.8,3,5,7,1,2026-06-19T01:01:23.515551+05:30
Gaya,Bihar,24.7914,85.0002,30.1,67,0.0,989.7,8.65,23.4,157,59.6,45.2,8.2,270.0,98.0,10.4,3,5,7,1,2026-06-19T01:01:23.515558+05:30
Muzaffarpur,Bihar,26.1209,85.3647,28.8,81,0.1,996.7,8.9,30.2,158,121.5,85.9,54.2,613.0,34.0,19.0,10,5,7,1,2026-06-19T01:01:23.515565+05:30
Bhagalpur,Bihar,25.2425,87.0117,27.8,82,0.1,997.8,8.7,31.3,153,89.6,76.6,15.5,592.0,100.0,20.9,10,5,7,1,2026-06-19T01:01:23.515572+05:30
Ranchi,Jharkhand,23.3441,85.3096,26.0,79,0.0,935.2,8.0,32.4,151,70.8,58.6,10.3,301.0,112.0,9.7,7,5,7,1,2026-06-19T01:01:23.515580+05:30
Jamshedpur,Jharkhand,22.8046,86.2029,29.5,69,0.0,987.6,7.85,34.9,155,93.1,75.2,27.7,376.0,72.0,32.7,7,5,7,1,2026-06-19T01:01:23.515587+05:30
Dhanbad,Jharkhand,23.7957,86.4304,29.1,66,0.0,976.8,8.65,42.1,172,128.5,105.2,59.7,365.0,43.0,174.3,7,5,7,1,2026-06-19T01:01:23.515594+05:30
Bokaro,Jharkhand,23.6693,86.1511,28.9,70,0.0,980.4,5.4,36.4,169,115.9,97.1,45.6,297.0,53.0,133.9,7,5,3,1,2026-06-19T01:01:23.515601+05:30
Bhubaneswar,Odisha,20.2961,85.8245,29.8,88,0.0,999.4,9.05,40.7,123,38.6,33.5,7.7,319.0,126.0,9.4,7,5,7,1,2026-06-19T01:01:23.515608+05:30
Cuttack,Odisha,20.4625,85.8828,29.9,88,0.0,1001.2,9.15,35.6,123,38.6,33.5,7.7,328.0,126.0,9.4,7,5,4,1,2026-06-19T01:01:23.515615+05:30
Rourkela,Odisha,22.2604,84.8536,29.1,82,0.0,981.7,9.05,48.2,147,76.1,60.1,10.8,474.0,106.0,6.4,7,5,7,1,2026-06-19T01:01:23.515622+05:30
Raipur,Chhattisgarh,21.2514,81.6296,30.4,63,0.0,971.7,7.55,40.3,112,57.4,50.3,63.1,780.0,21.0,87.4,3,5,7,1,2026-06-19T01:01:23.515629+05:30
Bhilai,Chhattisgarh,21.1938,81.3509,29.1,71,0.0,972.1,8.7,46.8,104,51.2,44.9,52.1,965.0,29.0,66.2,7,5,7,1,2026-06-19T01:01:23.515635+05:30
Guwahati,Assam,26.1158,91.7086,25.5,95,0.1,999.2,8.65,33.8,85,25.4,22.8,8.6,397.0,69.0,3.3,10,5,7,1,2026-06-19T01:01:23.515642+05:30
Agartala,Tripura,23.8315,91.2868,26.6,87,0.0,1004.0,8.4,31.0,80,25.7,20.5,8.4,213.0,68.0,2.4,7,5,4,1,2026-06-19T01:01:23.515648+05:30
Shillong,Meghalaya,25.5788,91.8933,19.1,92,0.0,856.0,8.45,23.8,68,8.4,7.2,5.1,267.0,90.0,3.5,3,10,7,1,2026-06-19T01:01:23.515655+05:30
Imphal,Manipur,24.817,93.9368,22.6,95,0.0,921.3,8.15,27.7,76,21.8,19.4,8.9,370.0,48.0,2.4,3,5,7,1,2026-06-19T01:01:23.515662+05:30
Aizawl,Mizoram,23.7271,92.7176,19.4,95,0.0,890.8,8.9,30.6,48,10.7,8.8,3.3,192.0,56.0,0.8,3,10,7,1,2026-06-19T01:01:23.515669+05:30
Kohima,Nagaland,25.6701,94.1077,20.0,96,0.1,854.2,8.4,24.5,64,12.9,10.8,6.1,361.0,53.0,1.3,6,5,7,1,2026-06-19T01:01:23.515676+05:30
Gangtok,Sikkim,27.3314,88.6138,18.1,94,0.3,836.5,9.0,33.8,84,9.7,8.6,7.4,453.0,112.0,4.0,6,10,7,1,2026-06-19T01:01:23.515682+05:30
Siliguri,West Bengal,26.7271,88.3953,24.0,99,0.2,991.1,8.0,23.0,88,30.2,25.0,8.9,547.0,117.0,4.0,6,5,7,1,2026-06-19T01:01:26.763246+05:30
Durgapur,West Bengal,23.5204,87.3119,26.7,86,0.0,991.8,9.05,36.7,171,102.2,90.1,44.3,809.0,51.0,65.5,7,5,7,1,2026-06-19T01:01:26.763284+05:30
Asansol,West Bengal,23.6739,86.9524,27.6,81,0.0,990.4,9.05,38.5,169,100.1,82.0,47.7,558.0,47.0,75.2,7,5,7,1,2026-06-19T01:01:26.763296+05:30
Pondicherry,Puducherry,11.9139,79.8145,26.5,86,0.0,1008.0,7.4,53.3,66,18.2,15.5,13.2,340.0,86.0,13.3,7,0,4,1,2026-06-19T01:01:26.763305+05:30
Port Blair,Andaman and Nicobar Islands,11.6234,92.7265,24.9,97,0.1,1007.5,8.5,34.6,20,6.3,3.5,0.3,94.0,44.0,0.3,6,5,4,1,2026-06-19T01:01:26.763314+05:30
Haridwar,Uttarakhand,29.9457,78.1642,27.6,74,0.0,969.4,7.65,23.8,126,68.2,52.3,27.1,376.0,50.0,9.1,7,5,7,1,2026-06-19T01:01:26.763321+05:30
Rishikesh,Uttarakhand,30.0869,78.2676,25.4,75,0.0,962.1,7.75,25.9,113,74.7,40.9,13.4,395.0,107.0,7.7,7,5,7,1,2026-06-19T01:01:26.763329+05:30
Nainital,Uttarakhand,29.3919,79.4542,16.3,91,0.0,803.8,6.9,29.9,113,58.8,33.8,17.3,359.0,80.0,4.5,3,10,7,0,2026-06-19T01:01:26.763336+05:30
Mussoorie,Uttarakhand,30.4599,78.0664,16.2,82,0.0,801.1,7.6,42.8,99,48.9,33.8,26.5,314.0,55.0,5.1,3,10,7,0,2026-06-19T01:01:26.763344+05:30
Dharamshala,Himachal Pradesh,32.219,76.3234,21.7,67,0.0,866.9,8.55,44.3,52,17.6,15.0,18.3,290.0,33.0,0.1,3,5,7,0,2026-06-19T01:01:26.763351+05:30
Dalhousie,Himachal Pradesh,32.5387,75.971,14.1,87,0.0,801.4,8.8,38.5,75,47.0,38.5,40.6,495.0,30.0,1.2,3,10,7,0,2026-06-19T01:01:26.763359+05:30
Patiala,Punjab,30.3398,76.3869,29.8,60,0.0,973.5,7.7,68.8,157,121.5,66.8,23.6,654.0,62.0,8.8,4,5,7,1,2026-06-19T01:01:26.763366+05:30
Bhatinda,Punjab,30.211,74.9455,30.3,54,0.0,978.9,8.3,73.8,138,61.7,48.9,30.0,425.0,56.0,8.4,0,5,7,1,2026-06-19T01:01:26.763374+05:30
Rohtak,Haryana,28.8955,76.6066,29.4,58,0.0,977.4,7.8,59.0,192,523.4,124.3,33.6,383.0,63.0,11.2,4,5,7,1,2026-06-19T01:01:26.763381+05:30
Panipat,Haryana,29.3909,76.9635,29.4,56,0.0,976.0,7.65,49.7,468,601.6,141.1,24.0,755.0,75.0,8.9,4,5,7,1,2026-06-19T01:01:26.763389+05:30
Mathura,Uttar Pradesh,27.4924,77.6737,30.3,53,0.0,982.8,8.1,27.7,179,124.3,63.8,66.2,623.0,3.0,9.7,0,5,7,1,2026-06-19T01:01:26.763397+05:30
Vrindavan,Uttar Pradesh,27.5823,77.7027,30.2,52,0.0,983.2,8.1,27.0,179,124.3,63.8,66.2,526.0,3.0,9.7,0,5,7,1,2026-06-19T01:01:26.763405+05:30
Ayodhya,Uttar Pradesh,26.7922,82.1998,30.1,69,0.0,990.5,8.45,29.9,154,149.9,73.3,32.9,536.0,50.0,12.1,3,5,7,1,2026-06-19T01:01:26.763412+05:30
Ratlam,Madhya Pradesh,23.3315,75.0367,27.1,64,0.0,953.4,8.15,38.9,65,36.3,23.2,6.3,137.0,62.0,6.9,7,5,7,1,2026-06-19T01:01:26.763420+05:30
Sagar,Madhya Pradesh,23.8388,78.7378,27.9,66,0.0,947.8,8.75,30.6,68,30.9,21.6,8.3,176.0,65.0,2.7,7,5,7,1,2026-06-19T01:01:26.763428+05:30
Satna,Madhya Pradesh,24.6005,80.8322,29.9,58,0.0,968.0,8.35,37.8,83,34.6,23.1,14.2,184.0,53.0,3.6,4,5,7,1,2026-06-19T01:01:26.763435+05:30
Akola,Maharashtra,20.7002,77.0082,31.7,43,0.0,973.6,8.8,42.5,64,30.7,19.3,10.9,146.0,69.0,8.2,0,5,7,1,2026-06-19T01:01:26.763442+05:30
Amravati,Maharashtra,20.9374,77.7796,30.9,40,0.0,965.2,8.7,39.6,69,36.9,22.2,15.6,199.0,56.0,6.8,0,5,7,0,2026-06-19T01:01:26.763450+05:30
Latur,Maharashtra,18.4088,76.5604,29.3,42,0.0,938.6,8.85,29.5,65,35.6,27.7,23.3,163.0,59.0,6.4,4,5,7,0,2026-06-19T01:01:26.763458+05:30
Nanded,Maharashtra,19.1383,77.3091,31.5,38,0.0,966.5,8.85,35.6,65,54.2,35.7,29.7,283.0,37.0,7.2,0,5,7,0,2026-06-19T01:01:26.763465+05:30
Gulbarga,Karnataka,17.3297,76.8343,30.3,43,0.0,957.3,8.85,39.6,64,44.4,32.5,41.9,168.0,33.0,7.1,0,5,7,1,2026-06-19T01:01:26.763471+05:30
Bidar,Karnataka,17.9104,77.5199,28.8,55,0.0,933.9,8.55,32.4,71,49.4,35.0,35.6,495.0,35.0,5.2,4,5,7,1,2026-06-19T01:01:26.763479+05:30
Hospet,Karnataka,15.2689,76.3909,25.6,80,0.0,955.7,8.95,36.7,52,22.8,14.8,7.1,156.0,51.0,2.2,7,5,7,1,2026-06-19T01:01:26.763485+05:30
Tirupur,Tamil Nadu,11.1085,77.3411,24.2,95,0.0,975.7,5.05,32.8,53,20.5,17.7,26.8,190.0,26.0,6.1,3,5,3,1,2026-06-19T01:01:26.763492+05:30
Alappuzha,Kerala,9.4981,76.3388,26.1,93,0.0,1010.0,6.85,32.0,62,29.5,21.0,18.5,288.0,33.0,6.0,7,0,4,1,2026-06-19T01:01:26.763499+05:30
Munnar,Kerala,10.0889,77.0595,16.5,100,0.0,856.6,3.85,23.4,28,4.4,4.0,11.4,148.0,26.0,2.0,3,10,3,1,2026-06-19T01:01:26.763506+05:30
Silchar,Assam,24.8333,92.7789,25.4,95,0.1,1003.4,8.85,31.3,92,25.8,21.2,8.1,291.0,70.0,3.9,10,5,4,1,2026-06-19T01:01:26.763513+05:30
Dibrugarh,Assam,27.4728,94.912,25.2,97,0.1,992.7,8.65,22.0,67,15.3,13.4,7.7,311.0,86.0,1.4,10,5,7,1,2026-06-19T01:01:26.763520+05:30
