city,state,latitude,longitude,temp,humidity,rain,pressure,uv_index,wind_gusts,aqi,pm10,pm2_5,no2,co,o3,so2,mosquito_risk,arthritis_risk,migraine_risk,frizz_risk,updated_at
Delhi,Delhi,28.6139,77.209,28.7,84,0.0,972.0,7.7,25.9,437,341.8,142.0,80.1,218.0,2.0,33.5,7,5,7,1,2026-07-12T04:22:27.335347+05:30
Mumbai,Maharashtra,19.076,72.8777,27.6,86,0.0,1004.6,7.8,53.3,54,24.7,10.0,3.2,100.0,44.0,2.9,7,5,4,1,2026-07-12T04:22:27.335401+05:30
Bangalore,Karnataka,12.9716,77.5946,20.7,93,0.0,909.5,7.45,47.9,50,15.0,8.6,11.5,164.0,28.0,3.9,3,5,7,1,2026-07-12T04:22:27.335418+05:30
Hyderabad,Telangana,17.385,78.4867,25.7,71,0.0,949.3,8.6,53.6,59,24.9,13.5,7.0,113.0,39.0,4.1,7,5,7,1,2026-07-12T04:22:27.335428+05:30
Chennai,Tamil Nadu,13.0827,80.2707,29.3,65,0.0,1002.6,7.7,40.0,73,32.0,22.7,17.2,267.0,49.0,9.4,7,5,4,1,2026-07-12T04:22:27.335437+05:30
Kolkata,West Bengal,22.5726,88.3639,27.9,94,0.0,996.3,7.65,24.1,130,66.8,50.8,11.4,377.0,72.0,13.0,7,5,7,1,2026-07-12T04:22:27.335452+05:30
Pune,Maharashtra,18.5204,73.8567,22.7,89,0.0,944.0,8.4,55.4,35,8.0,4.0,4.0,95.0,38.0,3.9,3,5,7,1,2026-07-12T04:22:27.335460+05:30
Ahmedabad,Gujarat,23.0225,72.5714,27.1,83,0.0,995.1,8.1,52.2,64,29.7,15.1,6.1,106.0,37.0,4.0,7,5,7,1,2026-07-12T04:22:27.335469+05:30
Jaipur,Rajasthan,26.9124,75.7873,27.2,73,0.0,950.0,8.2,38.5,378,497.3,86.4,8.1,163.0,53.0,4.1,7,5,7,1,2026-07-12T04:22:27.335476+05:30
Lucknow,Uttar Pradesh,26.8467,80.9462,26.8,95,0.0,983.1,8.2,36.0,154,89.6,48.2,26.8,405.0,25.0,5.5,7,5,7,1,2026-07-12T04:22:27.335486+05:30
Kanpur,Uttar Pradesh,26.4499,80.3319,28.5,79,0.0,981.3,8.2,36.7,138,79.6,43.9,25.0,194.0,31.0,7.3,7,5,7,1,2026-07-12T04:22:27.335494+05:30
Chandigarh,Chandigarh,30.7333,76.7794,24.2,96,0.0,958.2,7.7,40.0,151,65.0,63.3,53.2,759.0,17.0,5.9,3,5,7,1,2026-07-12T04:22:27.335502+05:30
Srinagar,Jammu and Kashmir,34.0837,74.7973,18.4,97,0.0,833.7,8.15,23.4,60,7.2,6.9,7.1,382.0,96.0,1.9,3,10,7,1,2026-07-12T04:22:27.335511+05:30
Jammu,Jammu and Kashmir,32.7266,74.857,24.1,96,0.1,961.2,8.3,33.5,107,55.1,46.8,47.7,508.0,8.0,3.1,6,5,7,1,2026-07-12T04:22:27.335518+05:30
Amritsar,Punjab,31.634,74.8723,24.9,92,0.0,968.7,8.35,45.0,162,102.4,67.8,21.1,307.0,60.0,7.0,3,5,7,1,2026-07-12T04:22:27.335526+05:30
Ludhiana,Punjab,30.901,75.8573,24.1,95,0.2,967.1,7.95,46.1,162,118.0,84.1,36.6,398.0,46.0,16.6,6,5,7,1,2026-07-12T04:22:27.335533+05:30
Jalandhar,Punjab,31.326,75.5762,24.7,96,0.2,968.1,8.15,45.4,163,89.4,74.7,31.6,340.0,52.0,14.9,6,5,7,1,2026-07-12T04:22:27.335540+05:30
Dehradun,Uttarakhand,30.6284,78.0322,16.1,100,0.0,821.3,8.1,29.2,53,13.4,13.4,29.4,264.0,20.0,0.0,3,10,7,1,2026-07-12T04:22:27.335547+05:30
Shimla,Himachal Pradesh,31.1048,77.1734,14.9,93,0.0,776.4,8.25,36.7,96,38.4,38.2,11.0,396.0,97.0,1.1,3,10,7,0,2026-07-12T04:22:27.335557+05:30
Manali,Himachal Pradesh,32.2396,77.1887,15.9,95,0.0,809.8,8.7,28.4,42,5.8,5.8,13.6,243.0,92.0,0.0,3,10,7,0,2026-07-12T04:22:27.335567+05:30
Gurgaon,Haryana,28.4595,77.0266,28.5,76,0.0,970.4,7.7,27.0,504,678.0,146.2,32.8,221.0,30.0,14.2,7,5,7,1,2026-07-12T04:22:27.335575+05:30
Noida,Uttar Pradesh,28.5355,77.391,27.2,93,0.0,973.5,7.7,24.5,504,678.0,146.2,32.8,247.0,30.0,14.2,7,5,7,1,2026-07-12T04:22:27.335582+05:30
Ghaziabad,Uttar Pradesh,28.6692,77.4538,26.4,91,0.0,971.8,7.7,26.6,329,426.5,166.7,57.3,768.0,13.0,16.4,7,5,7,1,2026-07-12T04:22:27.335589+05:30
Faridabad,Haryana,28.4089,77.3178,28.1,90,0.0,972.8,7.75,26.6,504,678.0,146.2,32.8,220.0,30.0,14.2,7,5,7,1,2026-07-12T04:22:27.335596+05:30
Meerut,Uttar Pradesh,28.9845,77.7064,25.7,95,0.0,970.6,7.55,29.2,329,426.5,166.7,57.3,349.0,13.0,16.4,7,5,7,1,2026-07-12T04:22:27.335603+05:30
Agra,Uttar Pradesh,27.1767,78.0081,29.2,71,0.0,977.2,8.0,36.7,151,197.0,41.7,18.1,197.0,38.0,4.8,7,5,7,1,2026-07-12T04:22:27.335610+05:30
Varanasi,Uttar Pradesh,25.3176,82.9739,28.8,70,0.0,987.5,8.7,42.1,104,47.0,30.5,10.5,203.0,55.0,6.5,7,5,7,1,2026-07-12T04:22:27.335617+05:30
Prayagraj,Uttar Pradesh,25.4358,81.8463,29.3,70,0.0,986.1,8.6,43.6,107,50.5,33.8,13.9,169.0,47.0,5.2,7,5,7,1,2026-07-12T04:22:27.335624+05:30
Gorakhpur,Uttar Pradesh,26.7606,83.3732,26.0,96,0.1,986.6,6.2,35.3,115,91.0,46.3,13.7,298.0,68.0,4.9,10,5,7,1,2026-07-12T04:22:27.335631+05:30
Bareilly,Uttar Pradesh,28.367,79.4304,26.3,97,0.0,976.3,8.0,30.6,156,107.3,53.7,20.9,315.0,67.0,5.8,7,5,7,1,2026-07-12T04:22:27.335640+05:30
Aligarh,Uttar Pradesh,27.8974,78.088,28.7,80,0.0,974.9,7.85,29.2,419,471.2,116.6,22.2,205.0,37.0,4.9,7,5,7,1,2026-07-12T04:22:27.335647+05:30
Moradabad,Uttar Pradesh,28.8386,78.7733,25.7,97,0.0,973.2,7.8,36.0,159,244.9,113.9,42.1,375.0,39.0,10.8,7,5,7,1,2026-07-12T04:22:27.335654+05:30
Saharanpur,Uttar Pradesh,29.9637,77.546,25.0,94,0.0,965.0,7.35,39.2,156,90.3,85.2,37.5,422.0,38.0,11.4,7,5,7,1,2026-07-12T04:22:27.335661+05:30
Jhansi,Uttar Pradesh,25.4484,78.5685,29.0,67,0.0,969.0,8.4,44.6,92,38.0,22.2,8.1,142.0,67.0,9.6,7,5,7,1,2026-07-12T04:22:30.694008+05:30
Surat,Gujarat,21.1702,72.8311,28.2,84,0.0,1000.7,5.45,65.5,57,25.1,13.6,12.1,199.0,35.0,20.9,7,5,0,1,2026-07-12T04:22:30.694041+05:30
Vadodara,Gujarat,22.3072,73.1812,27.1,85,0.0,997.9,8.05,58.3,56,20.8,10.3,5.5,104.0,37.0,4.1,7,5,7,1,2026-07-12T04:22:30.694052+05:30
Rajkot,Gujarat,22.3039,70.8022,26.7,85,0.0,986.6,7.75,61.2,58,23.6,10.0,3.0,90.0,42.0,2.6,7,5,7,1,2026-07-12T04:22:30.694061+05:30
Thane,Maharashtra,19.2183,72.9781,26.5,91,0.1,1004.0,7.5,49.0,54,24.7,10.0,3.2,114.0,44.0,2.9,10,5,4,1,2026-07-12T04:22:30.694069+05:30
Nagpur,Maharashtra,21.1458,79.0882,26.5,73,0.0,967.4,7.7,41.8,80,33.1,19.6,10.5,133.0,45.0,7.3,7,5,7,1,2026-07-12T04:22:30.694076+05:30
Nashik,Maharashtra,19.9975,73.7898,23.1,94,0.0,940.5,8.1,64.4,34,9.2,5.0,5.9,88.0,33.0,3.6,3,5,7,1,2026-07-12T04:22:30.694084+05:30
Aurangabad,Maharashtra,19.8762,75.3433,23.0,89,0.0,939.1,8.95,54.7,49,18.5,8.0,6.8,123.0,34.0,8.1,3,5,7,1,2026-07-12T04:22:30.694091+05:30
Solapur,Maharashtra,17.6599,75.9064,23.6,83,0.0,953.8,8.75,50.0,49,19.2,10.6,6.3,114.0,31.0,2.4,3,5,7,1,2026-07-12T04:22:30.694099+05:30
Kolhapur,Maharashtra,16.705,74.2433,22.6,92,0.0,945.2,8.5,52.2,40,9.1,4.6,3.2,106.0,38.0,1.9,3,5,7,1,2026-07-12T04:22:30.694106+05:30
Goa,Goa,15.2993,74.124,25.1,99,0.0,996.5,7.3,38.9,55,36.7,22.6,7.8,245.0,33.0,1.8,7,5,7,1,2026-07-12T04:22:30.694113+05:30
Jodhpur,Rajasthan,26.2389,73.0243,27.4,74,0.0,972.6,8.4,53.3,200,408.9,93.8,2.5,96.0,52.0,2.4,7,5,7,1,2026-07-12T04:22:30.694119+05:30
Udaipur,Rajasthan,24.5854,73.7125,23.5,89,0.0,937.4,8.8,52.9,68,43.3,20.5,3.9,94.0,48.0,3.9,3,5,7,1,2026-07-12T04:22:30.694127+05:30
Kota,Rajasthan,25.2138,75.8648,27.7,77,0.0,970.2,8.3,42.5,78,35.3,22.5,8.1,141.0,58.0,6.9,7,5,7,1,2026-07-12T04:22:30.694133+05:30
Bikaner,Rajasthan,28.0229,73.3119,29.4,67,0.0,970.4,8.45,41.8,159,206.8,81.3,2.6,95.0,55.0,4.8,7,5,7,1,2026-07-12T04:22:30.694140+05:30
Ajmer,Rajasthan,26.4499,74.6399,25.7,80,0.0,945.3,8.35,49.0,76,37.0,21.2,4.5,103.0,57.0,3.3,7,5,7,1,2026-07-12T04:22:30.694148+05:30
Gwalior,Madhya Pradesh,26.2183,78.1828,28.3,71,0.0,973.4,8.15,43.2,87,31.0,19.7,7.4,136.0,60.0,5.7,7,5,7,1,2026-07-12T04:22:30.694155+05:30
Indore,Madhya Pradesh,22.7196,75.8577,24.1,89,0.0,941.2,8.55,52.6,63,16.7,9.7,7.4,137.0,34.0,8.4,3,5,7,1,2026-07-12T04:22:30.694162+05:30
Bhopal,Madhya Pradesh,23.2599,77.4126,25.3,85,0.0,946.9,8.6,42.1,71,22.6,13.8,6.1,164.0,53.0,6.1,7,5,7,1,2026-07-12T04:22:30.694169+05:30
Jabalpur,Madhya Pradesh,23.1815,79.9864,26.0,78,0.0,954.3,4.8,36.7,82,37.0,23.6,6.8,188.0,59.0,4.2,7,5,3,1,2026-07-12T04:22:30.694176+05:30
Ujjain,Madhya Pradesh,23.1765,75.7885,24.6,88,0.0,946.7,8.5,51.8,62,17.9,10.4,7.2,150.0,35.0,7.9,3,5,7,1,2026-07-12T04:22:30.694183+05:30
Visakhapatnam,Andhra Pradesh,17.6868,83.2185,27.8,76,0.0,997.5,8.5,40.3,100,59.6,34.9,21.4,303.0,39.0,32.6,7,5,7,1,2026-07-12T04:22:30.694191+05:30
Vijayawada,Andhra Pradesh,16.5062,80.648,30.1,57,0.0,997.2,8.55,44.3,91,53.2,37.3,19.3,278.0,35.0,5.1,0,5,7,1,2026-07-12T04:22:30.694197+05:30
Guntur,Andhra Pradesh,16.3067,80.4365,30.9,51,0.0,998.5,8.15,45.4,84,46.9,30.7,19.0,253.0,29.0,5.6,0,5,7,1,2026-07-12T04:22:30.694204+05:30
Nellore,Andhra Pradesh,14.4426,79.9865,30.6,55,0.0,1001.2,8.8,46.4,72,36.8,21.6,11.9,229.0,46.0,7.6,0,5,4,1,2026-07-12T04:22:30.694212+05:30
Kurnool,Andhra Pradesh,15.8281,78.0373,26.7,69,0.0,973.9,8.35,49.3,56,20.0,11.6,7.6,135.0,37.0,2.6,7,5,7,1,2026-07-12T04:22:30.694220+05:30
Kakinada,Andhra Pradesh,16.9891,82.2475,28.3,77,0.0,1001.3,8.3,49.0,89,56.2,33.9,9.1,309.0,68.0,4.4,7,5,4,1,2026-07-12T04:22:30.694226+05:30
Tirupati,Andhra Pradesh,13.6288,79.4192,28.4,63,0.0,986.9,8.0,38.5,79,29.7,18.3,18.2,94.0,28.0,2.3,7,5,7,1,2026-07-12T04:22:30.694233+05:30
Warangal,Telangana,17.9689,79.5941,27.4,65,0.0,973.9,8.8,43.6,76,31.9,18.2,9.0,150.0,41.0,3.1,7,5,7,1,2026-07-12T04:22:30.694240+05:30
Nizamabad,Telangana,18.6725,78.0941,25.5,73,0.0,960.4,8.8,45.4,64,21.1,12.7,8.1,126.0,39.0,5.8,7,5,7,1,2026-07-12T04:22:30.694247+05:30
Mysore,Karnataka,12.2958,76.6396,20.8,97,0.0,926.7,8.8,46.8,35,14.1,9.7,12.4,113.0,20.0,1.3,3,5,7,1,2026-07-12T04:22:30.694253+05:30
Mangalore,Karnataka,12.9141,74.856,24.9,96,0.0,1006.3,5.75,49.0,46,17.1,9.3,5.4,119.0,31.0,2.3,3,5,0,1,2026-07-12T04:22:30.694260+05:30
Hubli-Dharwad,Karnataka,15.3647,75.124,22.3,93,0.0,938.3,8.85,52.2,32,12.5,6.1,3.7,102.0,36.0,1.7,3,5,7,1,2026-07-12T04:22:30.694266+05:30
Belgaum,Karnataka,15.8497,74.4977,21.0,97,0.0,922.9,9.0,50.4,35,12.7,6.2,2.8,90.0,39.0,1.6,3,5,7,1,2026-07-12T04:22:34.059933+05:30
Coimbatore,Tamil Nadu,11.0168,76.9558,23.4,96,0.0,959.9,8.6,55.1,40,14.9,9.7,10.4,167.0,20.0,2.7,3,5,7,1,2026-07-12T04:22:34.059964+05:30
Madurai,Tamil Nadu,9.9252,78.1198,27.8,70,0.0,990.5,8.0,42.5,61,30.2,26.6,31.9,131.0,0.0,6.6,7,5,7,1,2026-07-12T04:22:34.059975+05:30
Trichy,Tamil Nadu,10.7905,78.7047,28.0,72,0.0,996.9,8.0,56.9,47,21.7,11.0,7.5,101.0,32.0,3.2,7,5,7,1,2026-07-12T04:22:34.059985+05:30
Salem,Tamil Nadu,11.6643,78.146,25.3,90,0.0,975.3,8.9,22.3,61,31.9,20.8,24.0,154.0,17.0,6.2,7,5,7,1,2026-07-12T04:22:34.059993+05:30
Tirunelveli,Tamil Nadu,8.7139,77.7567,28.2,71,0.0,1001.3,8.4,40.3,29,12.6,8.1,7.6,108.0,29.0,2.5,7,5,4,1,2026-07-12T04:22:34.060001+05:30
Vellore,Tamil Nadu,12.9165,79.1325,28.4,62,0.0,981.1,7.25,39.6,71,18.9,12.3,11.3,216.0,34.0,4.1,7,5,7,1,2026-07-12T04:22:34.060008+05:30
Erode,Tamil Nadu,11.341,77.7172,25.9,82,0.0,987.2,8.75,52.6,55,21.0,14.6,16.1,152.0,22.0,3.8,7,5,7,1,2026-07-12T04:22:34.060015+05:30
Kochi,Kerala,9.9312,76.2673,26.1,95,0.1,1008.2,7.85,43.2,48,16.5,11.5,11.5,92.0,23.0,3.0,10,0,4,1,2026-07-12T04:22:34.060023+05:30
Thiruvananthapuram,Kerala,8.5241,76.9366,25.1,96,0.0,1008.0,7.85,49.3,35,12.9,6.9,3.5,105.0,43.0,1.6,7,0,4,1,2026-07-12T04:22:34.060030+05:30
Kozhikode,Kerala,11.2588,75.7804,25.4,94,0.0,1007.3,8.15,46.8,37,17.7,8.5,2.7,166.0,45.0,1.5,7,5,4,1,2026-07-12T04:22:34.060038+05:30
Thrissur,Kerala,10.5276,76.2144,25.1,95,0.0,1006.5,7.8,41.0,43,13.8,8.6,5.5,130.0,32.0,2.6,7,5,4,1,2026-07-12T04:22:34.060046+05:30
Kannur,Kerala,11.8745,75.3704,25.9,91,0.0,1006.6,8.2,44.6,41,15.3,9.1,8.2,142.0,25.0,2.4,7,5,4,1,2026-07-12T04:22:34.060053+05:30
Patna,Bihar,25.5941,85.1376,26.5,95,0.1,990.3,8.75,37.4,121,71.7,51.8,19.8,401.0,49.0,8.3,10,5,7,1,2026-07-12T04:22:34.060060+05:30
Gaya,Bihar,24.7914,85.0002,28.2,78,0.0,984.1,8.55,38.2,101,54.8,41.7,20.1,215.0,44.0,29.3,7,5,7,1,2026-07-12T04:22:34.060068+05:30
Muzaffarpur,Bihar,26.1209,85.3647,26.6,94,0.0,990.3,8.0,35.6,115,69.2,46.4,16.1,339.0,61.0,7.1,7,5,7,1,2026-07-12T04:22:34.060074+05:30
Bhagalpur,Bihar,25.2425,87.0117,26.9,97,0.0,991.1,7.9,32.0,89,54.2,41.3,12.8,216.0,66.0,5.8,7,5,7,1,2026-07-12T04:22:34.060082+05:30
Ranchi,Jharkhand,23.3441,85.3096,23.8,88,0.0,929.5,8.45,31.0,95,51.3,35.9,9.8,219.0,59.0,7.7,3,5,7,1,2026-07-12T04:22:34.060089+05:30
Jamshedpur,Jharkhand,22.8046,86.2029,26.8,85,0.0,982.3,4.7,28.4,118,64.7,46.9,15.3,248.0,68.0,35.5,7,5,3,1,2026-07-12T04:22:34.060096+05:30
Dhanbad,Jharkhand,23.7957,86.4304,26.3,89,0.0,970.6,7.65,30.2,141,96.4,75.4,48.8,249.0,19.0,118.9,7,5,7,1,2026-07-12T04:22:34.060103+05:30
Bokaro,Jharkhand,23.6693,86.1511,26.8,83,0.0,974.5,9.05,32.0,134,89.9,68.9,34.3,243.0,35.0,92.8,7,5,7,1,2026-07-12T04:22:34.060111+05:30
Bhubaneswar,Odisha,20.2961,85.8245,27.6,84,0.0,994.7,9.05,36.4,109,76.8,48.8,13.8,303.0,54.0,7.8,7,5,7,1,2026-07-12T04:22:34.060118+05:30
Cuttack,Odisha,20.4625,85.8828,27.9,87,0.0,996.4,9.05,37.1,109,76.8,48.8,13.8,340.0,54.0,7.8,7,5,7,1,2026-07-12T04:22:34.060125+05:30
Rourkela,Odisha,22.2604,84.8536,26.1,87,0.0,977.3,8.9,30.6,128,64.5,43.9,15.0,266.0,51.0,19.5,7,5,7,1,2026-07-12T04:22:34.060132+05:30
Raipur,Chhattisgarh,21.2514,81.6296,26.7,75,0.0,967.9,7.05,43.6,113,49.0,33.1,25.0,444.0,41.0,38.1,7,5,7,1,2026-07-12T04:22:34.060139+05:30
Bhilai,Chhattisgarh,21.1938,81.3509,26.5,77,0.0,968.4,8.3,47.9,105,48.5,31.2,21.0,539.0,42.0,31.0,7,5,7,1,2026-07-12T04:22:34.060146+05:30
Guwahati,Assam,26.1158,91.7086,25.6,100,0.0,991.2,3.65,19.1,36,6.7,6.6,5.5,254.0,74.0,1.1,7,5,3,1,2026-07-12T04:22:34.060153+05:30
Agartala,Tripura,23.8315,91.2868,26.2,97,0.1,996.3,7.95,31.0,87,23.8,20.3,6.5,217.0,78.0,1.8,10,5,7,1,2026-07-12T04:22:34.060160+05:30
Shillong,Meghalaya,25.5788,91.8933,20.8,98,0.0,849.3,3.25,19.8,41,0.8,0.8,3.7,281.0,80.0,4.1,3,5,3,1,2026-07-12T04:22:34.060166+05:30
Imphal,Manipur,24.817,93.9368,23.0,99,0.0,914.8,1.45,31.0,28,9.5,8.4,6.1,318.0,44.0,2.2,3,5,3,1,2026-07-12T04:22:34.060173+05:30
Aizawl,Mizoram,23.7271,92.7176,19.8,98,0.0,884.4,4.15,36.4,34,14.6,9.4,2.2,152.0,65.0,2.2,3,10,3,1,2026-07-12T04:22:34.060180+05:30
Kohima,Nagaland,25.6701,94.1077,20.8,90,0.0,847.9,3.45,19.4,25,3.2,2.9,3.7,298.0,59.0,1.2,3,5,3,1,2026-07-12T04:22:34.060188+05:30
Gangtok,Sikkim,27.3314,88.6138,19.5,94,0.3,830.1,7.1,28.4,50,1.6,1.5,3.2,337.0,110.0,1.5,6,10,7,1,2026-07-12T04:22:34.060195+05:30
Siliguri,West Bengal,26.7271,88.3953,25.0,99,0.0,982.3,8.0,19.8,72,6.0,6.0,7.4,371.0,96.0,2.6,7,5,7,1,2026-07-12T04:22:37.433450+05:30
Durgapur,West Bengal,23.5204,87.3119,27.4,87,0.0,985.4,7.1,28.1,138,77.5,65.4,50.6,232.0,17.0,55.1,7,5,7,1,2026-07-12T04:22:37.433487+05:30
Asansol,West Bengal,23.6739,86.9524,27.0,88,0.0,984.0,8.8,30.6,121,73.8,57.2,48.7,1237.0,15.0,56.7,7,5,7,1,2026-07-12T04:22:37.433502+05:30
Pondicherry,Puducherry,11.9139,79.8145,28.9,71,0.0,1004.5,8.7,46.1,70,16.3,12.3,11.3,209.0,52.0,6.7,7,5,4,1,2026-07-12T04:22:37.433513+05:30
Port Blair,Andaman and Nicobar Islands,11.6234,92.7265,24.9,97,0.3,1004.3,8.25,58.0,42,25.9,13.4,0.1,84.0,51.0,0.4,6,5,4,1,2026-07-12T04:22:37.433522+05:30
Haridwar,Uttarakhand,29.9457,78.1642,24.4,99,0.1,963.6,7.45,32.4,114,59.0,56.3,33.7,413.0,25.0,6.8,6,5,7,1,2026-07-12T04:22:37.433530+05:30
Rishikesh,Uttarakhand,30.0869,78.2676,24.6,93,0.0,956.3,7.55,32.8,64,25.4,22.2,13.4,293.0,77.0,4.4,3,5,7,1,2026-07-12T04:22:37.433538+05:30
Nainital,Uttarakhand,29.3919,79.4542,16.0,99,0.0,797.8,8.15,33.1,83,66.1,43.8,13.0,324.0,93.0,9.1,3,10,7,0,2026-07-12T04:22:37.433546+05:30
Mussoorie,Uttarakhand,30.4599,78.0664,15.2,100,0.0,794.6,7.95,41.0,77,30.3,28.9,26.3,325.0,40.0,4.0,3,10,7,0,2026-07-12T04:22:37.433554+05:30
Dharamshala,Himachal Pradesh,32.219,76.3234,21.2,89,0.0,860.3,8.45,36.4,52,11.0,11.0,12.0,465.0,42.0,0.1,3,5,7,1,2026-07-12T04:22:37.433561+05:30
Dalhousie,Himachal Pradesh,32.5387,75.971,14.6,99,0.0,795.0,8.65,28.4,94,42.4,36.7,27.5,415.0,73.0,3.8,3,10,7,0,2026-07-12T04:22:37.433569+05:30
Patiala,Punjab,30.3398,76.3869,27.0,92,0.0,966.8,7.5,36.7,156,81.5,65.9,32.5,587.0,60.0,10.2,7,5,7,1,2026-07-12T04:22:37.433577+05:30
Bhatinda,Punjab,30.211,74.9455,29.8,78,0.0,971.0,8.25,37.4,182,618.4,183.0,19.9,368.0,55.0,8.5,7,5,7,1,2026-07-12T04:22:37.433584+05:30
Rohtak,Haryana,28.8955,76.6066,28.5,83,0.0,970.4,7.6,27.7,624,516.0,120.1,37.6,232.0,21.0,3.8,7,5,7,1,2026-07-12T04:22:37.433592+05:30
Panipat,Haryana,29.3909,76.9635,25.8,91,0.0,969.2,7.45,26.6,676,395.8,138.8,54.0,836.0,14.0,10.7,7,5,7,1,2026-07-12T04:22:37.433599+05:30
Mathura,Uttar Pradesh,27.4924,77.6737,29.6,68,0.0,975.9,7.9,33.5,583,791.6,115.0,19.7,203.0,38.0,4.6,7,5,7,1,2026-07-12T04:22:37.433607+05:30
Vrindavan,Uttar Pradesh,27.5823,77.7027,29.8,67,0.0,976.3,7.9,32.4,583,791.6,115.0,19.7,205.0,38.0,4.6,7,5,7,1,2026-07-12T04:22:37.433614+05:30
Ayodhya,Uttar Pradesh,26.7922,82.1998,26.4,97,0.0,984.8,8.1,31.7,152,96.6,45.5,13.5,269.0,60.0,2.7,7,5,7,1,2026-07-12T04:22:37.433622+05:30
Ratlam,Madhya Pradesh,23.3315,75.0367,24.0,95,0.1,947.3,8.45,52.2,60,19.3,10.9,7.0,123.0,35.0,7.6,6,5,7,1,2026-07-12T04:22:37.433630+05:30
Sagar,Madhya Pradesh,23.8388,78.7378,25.5,81,0.0,942.9,8.6,46.4,80,34.9,22.0,5.8,170.0,62.0,4.3,7,5,7,1,2026-07-12T04:22:37.433638+05:30
Satna,Madhya Pradesh,24.6005,80.8322,27.5,74,0.0,962.6,8.6,42.1,91,34.8,21.7,5.2,173.0,66.0,3.8,7,5,7,1,2026-07-12T04:22:37.433645+05:30
Akola,Maharashtra,20.7002,77.0082,25.9,78,0.0,969.9,8.7,47.2,59,19.6,10.8,7.8,112.0,35.0,6.9,7,5,7,1,2026-07-12T04:22:37.433653+05:30
Amravati,Maharashtra,20.9374,77.7796,25.7,76,0.0,962.0,8.75,46.1,62,20.1,11.3,8.3,111.0,34.0,7.5,7,5,7,1,2026-07-12T04:22:37.433662+05:30
Latur,Maharashtra,18.4088,76.5604,22.9,84,0.0,935.7,8.85,49.7,51,16.4,8.6,5.6,114.0,35.0,3.1,3,5,7,1,2026-07-12T04:22:37.433669+05:30
Nanded,Maharashtra,19.1383,77.3091,25.6,75,0.0,964.2,8.85,42.8,59,17.0,10.2,6.7,123.0,38.0,4.1,7,5,7,1,2026-07-12T04:22:37.433676+05:30
Gulbarga,Karnataka,17.3297,76.8343,23.9,81,0.0,955.2,8.35,54.7,51,23.1,11.5,6.8,112.0,34.0,3.0,3,5,7,1,2026-07-12T04:22:37.433684+05:30
Bidar,Karnataka,17.9104,77.5199,23.5,79,0.0,931.4,8.8,48.2,55,22.4,12.3,6.3,120.0,37.0,2.4,3,5,7,1,2026-07-12T04:22:37.433691+05:30
Hospet,Karnataka,15.2689,76.3909,22.6,92,0.0,953.4,8.45,55.4,41,13.0,6.5,5.1,115.0,35.0,1.7,3,5,7,1,2026-07-12T04:22:37.433698+05:30
Tirupur,Tamil Nadu,11.1085,77.3411,24.6,90,0.0,973.5,8.8,64.8,58,22.0,16.8,20.7,152.0,12.0,4.2,3,5,7,1,2026-07-12T04:22:37.433705+05:30
Alappuzha,Kerala,9.4981,76.3388,26.3,93,0.1,1008.4,7.95,45.4,43,16.9,9.5,5.7,80.0,38.0,2.5,10,0,4,1,2026-07-12T04:22:37.433713+05:30
Munnar,Kerala,10.0889,77.0595,16.0,94,0.0,854.9,8.65,38.5,26,12.2,8.1,9.6,89.0,16.0,1.6,3,10,7,0,2026-07-12T04:22:37.433741+05:30
Silchar,Assam,24.8333,92.7789,26.3,97,0.4,995.3,2.25,21.2,47,38.2,25.2,7.4,252.0,74.0,5.5,10,5,3,1,2026-07-12T04:22:37.433751+05:30
Dibrugarh,Assam,27.4728,94.912,25.8,98,0.2,985.8,4.05,24.1,38,6.1,6.1,9.3,221.0,57.0,0.8,10,5,3,1,2026-07-12T04:22:37.433758+05:30
