city,state,latitude,longitude,temp,humidity,rain,pressure,uv_index,wind_gusts,aqi,pm10,pm2_5,no2,co,o3,so2,mosquito_risk,arthritis_risk,migraine_risk,frizz_risk,updated_at
Delhi,Delhi,28.6139,77.209,30.7,32,0.0,975.3,7.75,42.8,626,713.4,174.2,21.1,379.0,59.0,13.3,0,5,7,0,2026-05-18T03:29:58.348458+05:30
Mumbai,Maharashtra,19.076,72.8777,28.3,87,0.0,1003.6,7.65,46.4,64,49.4,18.5,7.8,200.0,58.0,3.7,7,5,4,1,2026-05-18T03:29:58.348510+05:30
Bangalore,Karnataka,12.9716,77.5946,23.4,78,0.0,907.8,6.15,42.8,89,29.3,23.4,11.1,312.0,83.0,7.6,3,5,7,1,2026-05-18T03:29:58.348527+05:30
Hyderabad,Telangana,17.385,78.4867,28.7,58,0.0,948.8,9.25,33.5,65,19.0,16.2,9.4,269.0,70.0,5.6,4,5,7,1,2026-05-18T03:29:58.348537+05:30
Chennai,Tamil Nadu,13.0827,80.2707,28.5,81,0.0,1002.3,8.65,46.1,71,18.9,13.7,7.2,198.0,91.0,9.8,7,5,4,1,2026-05-18T03:29:58.348545+05:30
Kolkata,West Bengal,22.5726,88.3639,28.6,89,0.0,1000.2,8.95,35.6,62,18.0,12.9,6.2,206.0,60.0,5.2,7,5,4,1,2026-05-18T03:29:58.348552+05:30
Pune,Maharashtra,18.5204,73.8567,24.7,85,0.0,943.6,8.45,48.6,69,37.1,25.8,18.2,209.0,64.0,23.6,3,5,7,1,2026-05-18T03:29:58.348559+05:30
Ahmedabad,Gujarat,23.0225,72.5714,32.3,38,0.0,996.8,8.15,36.0,63,23.9,14.9,3.8,151.0,69.0,3.6,0,5,7,1,2026-05-18T03:29:58.348566+05:30
Jaipur,Rajasthan,26.9124,75.7873,32.2,27,0.0,954.0,8.25,43.6,119,152.7,37.1,7.7,191.0,53.0,4.6,0,5,7,0,2026-05-18T03:29:58.348578+05:30
Lucknow,Uttar Pradesh,26.8467,80.9462,31.5,36,0.0,985.7,8.2,32.0,161,297.1,95.0,14.0,299.0,60.0,8.5,0,5,7,0,2026-05-18T03:29:58.348585+05:30
Kanpur,Uttar Pradesh,26.4499,80.3319,32.0,32,0.0,984.4,8.25,40.0,339,271.9,69.2,10.7,285.0,59.0,6.8,0,5,7,0,2026-05-18T03:29:58.348591+05:30
Chandigarh,Chandigarh,30.7333,76.7794,26.8,42,0.0,960.4,7.75,37.1,66,22.8,21.5,13.4,344.0,71.0,7.7,4,5,7,0,2026-05-18T03:29:58.348598+05:30
Srinagar,Jammu and Kashmir,34.0837,74.7973,12.0,88,0.0,837.2,8.95,19.1,80,47.5,43.9,23.7,264.0,32.0,1.0,3,10,7,0,2026-05-18T03:29:58.348604+05:30
Jammu,Jammu and Kashmir,32.7266,74.857,23.9,56,0.0,964.2,8.55,29.9,68,32.9,30.9,29.3,400.0,7.0,1.9,0,5,7,0,2026-05-18T03:29:58.348626+05:30
Amritsar,Punjab,31.634,74.8723,27.6,51,0.0,973.0,8.45,24.5,91,48.9,38.0,25.3,475.0,45.0,8.2,4,5,7,1,2026-05-18T03:29:58.348633+05:30
Ludhiana,Punjab,30.901,75.8573,27.1,50,0.0,970.9,8.0,27.4,87,65.7,39.6,12.8,502.0,65.0,8.0,4,5,7,0,2026-05-18T03:29:58.348639+05:30
Jalandhar,Punjab,31.326,75.5762,26.9,48,0.0,971.9,8.2,25.6,100,78.9,51.0,23.3,473.0,44.0,9.0,4,5,7,0,2026-05-18T03:29:58.348645+05:30
Dehradun,Uttarakhand,30.6284,78.0322,13.0,77,0.0,821.9,8.2,38.9,50,16.1,13.5,24.2,246.0,23.0,0.7,3,5,7,0,2026-05-18T03:29:58.348652+05:30
Shimla,Himachal Pradesh,31.1048,77.1734,13.1,56,0.0,777.6,8.3,45.4,64,26.6,18.3,15.2,181.0,87.0,2.3,0,5,7,0,2026-05-18T03:29:58.348663+05:30
Manali,Himachal Pradesh,32.2396,77.1887,9.4,40,0.0,808.9,9.6,47.5,71,2.7,2.0,8.4,180.0,118.0,0.0,0,5,7,1,2026-05-18T03:29:58.348670+05:30
Gurgaon,Haryana,28.4595,77.0266,27.8,42,0.0,973.8,7.85,42.5,1039,782.3,158.8,20.8,400.0,54.0,13.6,4,5,7,0,2026-05-18T03:29:58.348676+05:30
Noida,Uttar Pradesh,28.5355,77.391,29.0,39,0.0,976.4,7.75,33.5,1039,782.3,158.8,20.8,414.0,54.0,13.6,4,5,7,0,2026-05-18T03:29:58.348683+05:30
Ghaziabad,Uttar Pradesh,28.6692,77.4538,28.4,40,0.0,974.6,7.75,35.6,508,657.5,167.2,19.5,361.0,63.0,14.9,4,5,7,0,2026-05-18T03:29:58.348689+05:30
Faridabad,Haryana,28.4089,77.3178,30.4,33,0.0,975.9,7.8,43.6,1039,782.3,158.8,20.8,423.0,54.0,13.6,0,5,7,0,2026-05-18T03:29:58.348696+05:30
Meerut,Uttar Pradesh,28.9845,77.7064,29.2,36,0.0,973.3,7.65,38.5,508,657.5,167.2,19.5,357.0,63.0,14.9,4,5,7,0,2026-05-18T03:29:58.348702+05:30
Agra,Uttar Pradesh,27.1767,78.0081,30.2,35,0.0,980.2,8.1,40.7,557,362.3,80.6,17.0,345.0,35.0,7.1,0,5,7,0,2026-05-18T03:29:58.348711+05:30
Varanasi,Uttar Pradesh,25.3176,82.9739,30.7,39,0.0,990.2,8.7,45.7,135,128.5,47.3,23.1,348.0,50.0,11.0,0,5,7,0,2026-05-18T03:29:58.348717+05:30
Prayagraj,Uttar Pradesh,25.4358,81.8463,30.4,38,0.0,988.5,8.6,46.4,144,197.4,62.2,23.9,275.0,46.0,9.8,0,5,7,0,2026-05-18T03:29:58.348723+05:30
Gorakhpur,Uttar Pradesh,26.7606,83.3732,26.0,79,0.0,989.8,8.6,31.7,139,164.8,64.0,28.7,680.0,58.0,12.0,7,5,7,1,2026-05-18T03:29:58.348732+05:30
Bareilly,Uttar Pradesh,28.367,79.4304,26.0,62,0.0,978.3,8.05,35.6,131,273.8,86.1,20.5,361.0,52.0,11.0,7,5,7,1,2026-05-18T03:29:58.348738+05:30
Aligarh,Uttar Pradesh,27.8974,78.088,27.7,49,0.0,977.6,7.9,37.8,653,691.0,155.5,19.9,384.0,48.0,13.6,4,5,7,0,2026-05-18T03:29:58.348743+05:30
Moradabad,Uttar Pradesh,28.8386,78.7733,28.0,44,0.0,975.0,7.85,38.2,155,302.7,103.6,21.5,387.0,46.0,9.7,4,5,7,0,2026-05-18T03:29:58.348750+05:30
Saharanpur,Uttar Pradesh,29.9637,77.546,27.9,41,0.0,967.0,7.4,36.4,97,83.8,37.8,14.0,337.0,72.0,9.0,4,5,7,0,2026-05-18T03:29:58.348756+05:30
Jhansi,Uttar Pradesh,25.4484,78.5685,30.5,32,0.0,971.2,8.5,44.6,120,57.6,24.3,4.0,213.0,67.0,2.5,0,5,7,0,2026-05-18T03:30:58.515243+05:30
Surat,Gujarat,21.1702,72.8311,28.7,90,0.0,1001.3,7.25,37.4,90,40.0,27.0,28.3,303.0,29.0,37.1,7,5,4,1,2026-05-18T03:30:58.515278+05:30
Vadodara,Gujarat,22.3072,73.1812,32.5,30,0.0,999.0,8.1,35.6,73,31.2,20.0,9.4,182.0,52.0,8.1,0,5,7,0,2026-05-18T03:30:58.515288+05:30
Rajkot,Gujarat,22.3039,70.8022,26.0,87,0.0,990.2,7.75,39.6,59,23.1,10.1,6.3,121.0,44.0,4.1,7,5,7,1,2026-05-18T03:30:58.515297+05:30
Thane,Maharashtra,19.2183,72.9781,28.1,87,0.0,1003.1,7.55,40.3,64,49.5,19.0,8.6,178.0,56.0,4.0,7,5,4,1,2026-05-18T03:30:58.515305+05:30
Nagpur,Maharashtra,21.1458,79.0882,32.5,37,0.0,967.9,8.95,36.4,85,44.1,38.8,41.4,278.0,29.0,15.8,0,5,7,0,2026-05-18T03:30:58.515313+05:30
Nashik,Maharashtra,19.9975,73.7898,25.4,64,0.0,941.2,7.7,42.5,62,43.7,24.3,20.0,174.0,36.0,3.4,7,5,7,1,2026-05-18T03:30:58.515320+05:30
Aurangabad,Maharashtra,19.8762,75.3433,29.9,32,0.0,939.2,9.05,32.4,54,30.3,18.0,11.7,194.0,77.0,5.6,4,5,7,0,2026-05-18T03:30:58.515328+05:30
Solapur,Maharashtra,17.6599,75.9064,31.0,47,0.0,952.5,9.05,51.5,73,31.3,26.7,11.1,233.0,76.0,8.1,0,5,7,1,2026-05-18T03:30:58.515336+05:30
Kolhapur,Maharashtra,16.705,74.2433,24.3,96,0.0,943.8,8.5,44.3,57,23.9,15.3,7.6,155.0,50.0,3.4,3,5,7,1,2026-05-18T03:30:58.515343+05:30
Goa,Goa,15.2993,74.124,27.3,96,0.0,993.4,6.15,33.8,59,49.4,26.1,7.4,336.0,51.0,2.2,7,5,7,1,2026-05-18T03:30:58.515350+05:30
Jodhpur,Rajasthan,26.2389,73.0243,32.3,24,0.0,977.6,8.35,42.8,81,243.1,52.2,3.9,159.0,62.0,3.4,0,5,7,0,2026-05-18T03:30:58.515358+05:30
Udaipur,Rajasthan,24.5854,73.7125,31.8,22,0.0,942.1,8.85,45.0,58,39.2,17.3,3.6,140.0,59.0,3.4,0,5,7,0,2026-05-18T03:30:58.515365+05:30
Kota,Rajasthan,25.2138,75.8648,33.5,26,0.0,972.5,8.4,36.7,109,129.0,39.5,10.1,186.0,51.0,4.8,0,5,7,0,2026-05-18T03:30:58.515373+05:30
Bikaner,Rajasthan,28.0229,73.3119,32.9,23,0.0,975.6,8.4,42.5,81,215.1,54.0,1.5,139.0,76.0,2.1,0,5,7,0,2026-05-18T03:30:58.515379+05:30
Ajmer,Rajasthan,26.4499,74.6399,31.0,31,0.0,949.6,8.4,41.8,79,67.3,22.1,2.8,188.0,85.0,5.3,0,5,7,0,2026-05-18T03:30:58.515386+05:30
Gwalior,Madhya Pradesh,26.2183,78.1828,33.0,25,0.0,976.1,8.3,46.8,177,52.6,23.6,5.7,175.0,61.0,3.3,0,5,7,0,2026-05-18T03:30:58.515393+05:30
Indore,Madhya Pradesh,22.7196,75.8577,31.4,31,0.0,943.1,8.5,37.8,65,39.3,24.3,7.0,236.0,59.0,5.6,0,5,7,0,2026-05-18T03:30:58.515400+05:30
Bhopal,Madhya Pradesh,23.2599,77.4126,31.6,26,0.0,948.0,8.7,46.4,60,33.6,27.4,13.9,344.0,48.0,6.0,0,5,7,0,2026-05-18T03:30:58.515407+05:30
Jabalpur,Madhya Pradesh,23.1815,79.9864,30.2,40,0.0,956.1,8.85,35.3,84,80.3,40.9,34.7,249.0,31.0,6.5,0,5,7,0,2026-05-18T03:30:58.515414+05:30
Ujjain,Madhya Pradesh,23.1765,75.7885,30.5,31,0.0,948.5,8.6,37.8,67,35.3,21.7,5.2,385.0,58.0,4.3,0,5,7,0,2026-05-18T03:30:58.515422+05:30
Visakhapatnam,Andhra Pradesh,17.6868,83.2185,28.7,87,0.0,999.5,9.0,47.5,61,26.5,19.0,15.6,307.0,59.0,28.7,7,5,7,1,2026-05-18T03:30:58.515428+05:30
Vijayawada,Andhra Pradesh,16.5062,80.648,29.4,81,0.0,998.0,8.5,38.9,55,21.8,16.2,5.5,202.0,74.0,3.6,7,5,7,1,2026-05-18T03:30:58.515435+05:30
Guntur,Andhra Pradesh,16.3067,80.4365,29.6,79,0.0,999.1,8.95,34.2,52,21.5,16.1,4.9,204.0,77.0,2.1,7,5,7,1,2026-05-18T03:30:58.515442+05:30
Nellore,Andhra Pradesh,14.4426,79.9865,29.2,81,0.0,1000.6,9.15,41.0,66,23.6,19.2,9.0,215.0,82.0,15.9,7,5,4,1,2026-05-18T03:30:58.515450+05:30
Kurnool,Andhra Pradesh,15.8281,78.0373,30.3,60,0.0,971.9,9.15,36.4,59,16.2,14.6,4.4,208.0,86.0,5.5,0,5,7,1,2026-05-18T03:30:58.515457+05:30
Kakinada,Andhra Pradesh,16.9891,82.2475,29.3,82,0.0,1003.3,8.7,42.1,53,27.1,17.0,1.7,211.0,85.0,1.5,7,5,4,1,2026-05-18T03:30:58.515465+05:30
Tirupati,Andhra Pradesh,13.6288,79.4192,27.5,84,0.0,986.5,9.1,34.2,76,24.0,21.1,12.0,275.0,69.0,17.2,7,5,7,1,2026-05-18T03:30:58.515471+05:30
Warangal,Telangana,17.9689,79.5941,28.6,69,0.0,973.8,9.15,32.4,67,18.2,15.9,9.3,289.0,58.0,7.6,7,5,7,1,2026-05-18T03:30:58.515478+05:30
Nizamabad,Telangana,18.6725,78.0941,30.0,54,0.0,960.4,9.15,32.0,85,25.8,21.4,9.9,262.0,74.0,5.4,4,5,7,1,2026-05-18T03:30:58.515484+05:30
Mysore,Karnataka,12.2958,76.6396,23.1,93,0.0,924.4,4.15,38.9,67,7.9,7.1,7.0,217.0,58.0,2.6,3,5,3,1,2026-05-18T03:30:58.515490+05:30
Mangalore,Karnataka,12.9141,74.856,24.7,98,0.1,1003.1,6.9,40.0,58,17.8,12.4,7.1,309.0,42.0,3.0,6,5,4,1,2026-05-18T03:30:58.515497+05:30
Hubli-Dharwad,Karnataka,15.3647,75.124,24.5,93,0.0,936.5,8.85,40.3,55,19.8,10.8,4.0,158.0,48.0,1.8,3,5,7,1,2026-05-18T03:30:58.515503+05:30
Belgaum,Karnataka,15.8497,74.4977,23.2,96,0.0,921.2,9.05,45.4,56,24.3,14.6,7.1,140.0,41.0,2.0,3,5,7,1,2026-05-18T03:31:05.674450+05:30
Coimbatore,Tamil Nadu,11.0168,76.9558,24.0,98,0.0,957.7,7.65,48.6,46,3.8,3.2,4.9,175.0,58.0,2.6,3,5,7,1,2026-05-18T03:31:05.674484+05:30
Madurai,Tamil Nadu,9.9252,78.1198,27.0,81,0.0,989.1,7.4,42.1,83,34.0,30.6,38.5,204.0,3.0,6.8,7,5,7,1,2026-05-18T03:31:05.674495+05:30
Trichy,Tamil Nadu,10.7905,78.7047,26.6,94,0.0,995.5,7.7,31.0,78,25.4,22.5,16.1,232.0,52.0,4.5,7,5,7,1,2026-05-18T03:31:05.674504+05:30
Salem,Tamil Nadu,11.6643,78.146,25.7,95,0.0,973.3,7.25,35.3,82,22.6,19.4,13.0,225.0,60.0,4.9,7,5,7,1,2026-05-18T03:31:05.674513+05:30
Tirunelveli,Tamil Nadu,8.7139,77.7567,27.6,79,0.0,999.6,8.85,25.6,29,4.6,4.2,4.3,217.0,53.0,1.5,7,5,7,1,2026-05-18T03:31:05.674520+05:30
Vellore,Tamil Nadu,12.9165,79.1325,26.8,84,0.0,979.7,7.9,34.6,89,27.1,23.1,9.3,342.0,66.0,7.2,7,5,7,1,2026-05-18T03:31:05.674528+05:30
Erode,Tamil Nadu,11.341,77.7172,26.0,94,0.0,985.1,7.9,38.9,63,12.4,10.8,12.9,178.0,41.0,4.0,7,5,7,1,2026-05-18T03:31:05.674537+05:30
Kochi,Kerala,9.9312,76.2673,25.5,96,0.1,1005.6,8.15,30.6,51,13.7,12.1,12.5,205.0,31.0,3.8,10,5,4,1,2026-05-18T03:31:05.674545+05:30
Thiruvananthapuram,Kerala,8.5241,76.9366,24.0,99,0.0,1005.5,6.9,34.2,34,10.4,6.6,2.4,242.0,68.0,1.1,3,5,4,1,2026-05-18T03:31:05.674552+05:30
Kozhikode,Kerala,11.2588,75.7804,24.3,99,0.1,1004.8,3.0,27.7,47,11.8,7.0,1.3,177.0,72.0,1.0,6,5,0,1,2026-05-18T03:31:05.674559+05:30
Thrissur,Kerala,10.5276,76.2144,24.0,99,0.3,1003.9,6.25,28.4,50,12.0,10.6,11.4,218.0,35.0,3.9,6,5,4,1,2026-05-18T03:31:05.674567+05:30
Kannur,Kerala,11.8745,75.3704,25.2,98,0.1,1003.7,2.4,31.7,55,9.8,7.3,6.5,232.0,49.0,2.2,10,5,0,1,2026-05-18T03:31:05.674574+05:30
Patna,Bihar,25.5941,85.1376,27.4,83,0.0,993.6,8.8,27.7,151,81.7,65.9,43.0,486.0,24.0,16.4,7,5,7,1,2026-05-18T03:31:05.674581+05:30
Gaya,Bihar,24.7914,85.0002,27.2,43,0.0,987.1,8.85,42.8,135,80.1,39.7,18.4,328.0,59.0,10.8,4,5,7,0,2026-05-18T03:31:05.674588+05:30
Muzaffarpur,Bihar,26.1209,85.3647,26.4,87,0.0,993.8,8.85,35.6,155,63.3,56.9,22.7,488.0,59.0,14.3,7,5,7,1,2026-05-18T03:31:05.674595+05:30
Bhagalpur,Bihar,25.2425,87.0117,26.9,93,0.0,994.7,8.8,34.9,141,57.2,53.9,16.0,527.0,59.0,8.0,7,5,7,1,2026-05-18T03:31:05.674602+05:30
Ranchi,Jharkhand,23.3441,85.3096,25.0,61,0.0,932.7,9.25,39.2,134,73.6,59.1,11.3,330.0,100.0,12.4,7,5,7,1,2026-05-18T03:31:05.674629+05:30
Jamshedpur,Jharkhand,22.8046,86.2029,27.4,74,0.0,985.4,9.05,37.4,134,60.3,50.9,16.3,275.0,90.0,27.3,7,5,7,1,2026-05-18T03:31:05.674636+05:30
Dhanbad,Jharkhand,23.7957,86.4304,26.5,67,0.0,973.8,9.0,36.4,152,97.3,81.7,43.9,246.0,55.0,111.7,7,5,7,1,2026-05-18T03:31:05.674643+05:30
Bokaro,Jharkhand,23.6693,86.1511,26.5,63,0.0,977.7,9.05,37.4,147,89.4,70.3,39.3,285.0,39.0,77.3,7,5,7,1,2026-05-18T03:31:05.674650+05:30
Bhubaneswar,Odisha,20.2961,85.8245,28.6,88,0.0,997.5,9.1,43.6,55,14.3,11.8,5.7,188.0,61.0,4.7,7,5,7,1,2026-05-18T03:31:05.674656+05:30
Cuttack,Odisha,20.4625,85.8828,28.7,88,0.0,999.2,9.15,41.8,55,14.3,11.8,5.7,200.0,61.0,4.7,7,5,7,1,2026-05-18T03:31:05.674663+05:30
Rourkela,Odisha,22.2604,84.8536,28.0,78,0.0,980.0,8.95,38.9,152,82.4,65.0,18.3,262.0,83.0,18.8,7,5,7,1,2026-05-18T03:31:05.674670+05:30
Raipur,Chhattisgarh,21.2514,81.6296,30.0,52,0.0,969.9,8.95,40.7,115,49.6,42.0,28.6,417.0,50.0,31.2,4,5,7,1,2026-05-18T03:31:05.674676+05:30
Bhilai,Chhattisgarh,21.1938,81.3509,29.5,59,0.0,970.5,9.0,39.2,100,42.0,36.0,25.6,640.0,60.0,35.4,4,5,7,1,2026-05-18T03:31:05.674683+05:30
Guwahati,Assam,26.1158,91.7086,22.0,98,0.4,997.9,8.6,33.1,65,18.8,15.3,5.9,289.0,81.0,3.0,6,5,7,1,2026-05-18T03:31:05.674690+05:30
Agartala,Tripura,23.8315,91.2868,26.4,92,0.0,1002.0,8.9,41.4,67,17.8,12.7,8.9,180.0,37.0,1.8,7,5,4,1,2026-05-18T03:31:05.674697+05:30
Shillong,Meghalaya,25.5788,91.8933,18.7,92,0.0,853.2,5.95,40.0,48,8.1,5.1,3.7,230.0,101.0,5.0,3,10,3,1,2026-05-18T03:31:05.674704+05:30
Imphal,Manipur,24.817,93.9368,20.5,95,0.0,919.7,8.8,36.4,62,16.8,14.5,10.8,392.0,22.0,2.3,3,5,7,1,2026-05-18T03:31:05.674712+05:30
Aizawl,Mizoram,23.7271,92.7176,17.9,98,0.0,888.7,9.05,39.6,58,26.7,16.9,4.5,153.0,55.0,3.5,3,10,7,1,2026-05-18T03:31:05.674718+05:30
Kohima,Nagaland,25.6701,94.1077,16.2,93,0.1,850.7,5.7,29.5,56,17.3,13.7,5.3,221.0,40.0,1.6,6,10,3,0,2026-05-18T03:31:05.674724+05:30
Gangtok,Sikkim,27.3314,88.6138,14.8,87,0.0,832.4,9.15,39.2,65,16.9,14.9,11.2,570.0,64.0,1.7,3,10,7,0,2026-05-18T03:31:05.674731+05:30
Siliguri,West Bengal,26.7271,88.3953,22.2,97,0.0,989.4,8.75,29.9,95,48.7,40.4,13.8,335.0,88.0,6.7,3,5,7,1,2026-05-18T03:31:09.817273+05:30
Durgapur,West Bengal,23.5204,87.3119,27.8,86,0.0,989.0,8.95,33.5,142,64.0,57.5,27.6,671.0,68.0,45.4,7,5,7,1,2026-05-18T03:31:09.817309+05:30
Asansol,West Bengal,23.6739,86.9524,27.4,85,0.0,987.5,9.0,34.9,142,78.0,67.3,32.1,483.0,64.0,57.6,7,5,7,1,2026-05-18T03:31:09.817319+05:30
Pondicherry,Puducherry,11.9139,79.8145,27.3,89,0.0,1003.8,8.4,40.0,71,14.8,11.9,8.9,260.0,72.0,10.0,7,5,4,1,2026-05-18T03:31:09.817327+05:30
Port Blair,Andaman and Nicobar Islands,11.6234,92.7265,26.8,92,0.0,1003.7,8.95,45.7,21,7.0,4.1,0.2,95.0,46.0,0.2,7,5,4,1,2026-05-18T03:31:09.817335+05:30
Haridwar,Uttarakhand,29.9457,78.1642,22.0,74,0.0,964.8,7.55,27.4,80,32.6,31.8,32.4,302.0,19.0,5.6,3,5,7,1,2026-05-18T03:31:09.817343+05:30
Rishikesh,Uttarakhand,30.0869,78.2676,19.9,76,0.0,957.3,7.65,28.1,68,30.0,26.0,19.7,323.0,56.0,5.0,3,5,7,0,2026-05-18T03:31:09.817350+05:30
Nainital,Uttarakhand,29.3919,79.4542,14.7,61,0.0,798.7,8.5,29.9,77,26.7,20.9,15.8,253.0,88.0,5.3,3,5,7,0,2026-05-18T03:31:09.817357+05:30
Mussoorie,Uttarakhand,30.4599,78.0664,16.2,54,0.0,797.0,8.05,45.4,68,27.8,25.7,33.3,213.0,23.0,4.8,0,5,7,0,2026-05-18T03:31:09.817364+05:30
Dharamshala,Himachal Pradesh,32.219,76.3234,22.0,41,0.0,863.3,8.45,41.4,42,5.2,4.3,7.1,182.0,60.0,0.0,0,5,7,0,2026-05-18T03:31:09.817371+05:30
Dalhousie,Himachal Pradesh,32.5387,75.971,10.7,76,0.0,795.3,8.7,39.6,64,17.2,15.5,14.2,255.0,44.0,0.8,3,5,7,0,2026-05-18T03:31:09.817378+05:30
Patiala,Punjab,30.3398,76.3869,27.6,48,0.0,970.3,7.65,33.8,616,711.5,120.1,9.1,430.0,73.0,8.1,4,5,7,0,2026-05-18T03:31:09.817386+05:30
Bhatinda,Punjab,30.211,74.9455,28.9,51,0.0,975.9,8.3,40.3,85,58.7,32.0,9.2,394.0,85.0,7.3,4,5,7,1,2026-05-18T03:31:09.817393+05:30
Rohtak,Haryana,28.8955,76.6066,27.4,45,0.0,974.0,7.75,41.8,768,694.8,156.9,17.4,331.0,52.0,7.1,4,5,7,0,2026-05-18T03:31:09.817399+05:30
Panipat,Haryana,29.3909,76.9635,28.2,43,0.0,972.3,7.6,34.6,1799,1795.6,300.8,10.3,379.0,72.0,8.7,4,5,7,0,2026-05-18T03:31:09.817405+05:30
Mathura,Uttar Pradesh,27.4924,77.6737,29.5,38,0.0,979.2,8.0,38.2,521,236.1,61.0,12.9,319.0,40.0,5.3,4,5,7,0,2026-05-18T03:31:09.817411+05:30
Vrindavan,Uttar Pradesh,27.5823,77.7027,28.5,42,0.0,979.5,8.0,36.4,521,236.1,61.0,12.9,291.0,40.0,5.3,4,5,7,0,2026-05-18T03:31:09.817418+05:30
Ayodhya,Uttar Pradesh,26.7922,82.1998,28.0,58,0.0,987.6,8.35,24.8,151,299.0,93.8,22.4,419.0,49.0,10.1,4,5,7,1,2026-05-18T03:31:09.817424+05:30
Ratlam,Madhya Pradesh,23.3315,75.0367,29.9,36,0.0,949.6,8.55,44.6,63,30.7,17.8,3.6,215.0,63.0,3.8,4,5,7,0,2026-05-18T03:31:09.817431+05:30
Sagar,Madhya Pradesh,23.8388,78.7378,30.4,31,0.0,944.9,8.75,42.8,85,113.4,34.3,18.7,265.0,64.0,4.2,0,5,7,0,2026-05-18T03:31:09.817438+05:30
Satna,Madhya Pradesh,24.6005,80.8322,30.2,32,0.0,965.1,8.8,53.6,102,101.0,37.0,26.4,277.0,40.0,4.1,0,5,7,0,2026-05-18T03:31:09.817444+05:30
Akola,Maharashtra,20.7002,77.0082,33.5,28,0.0,969.1,8.9,31.3,53,20.4,13.2,8.5,188.0,74.0,9.8,0,5,7,0,2026-05-18T03:31:09.817452+05:30
Amravati,Maharashtra,20.9374,77.7796,32.2,25,0.0,962.0,8.9,28.4,61,21.5,15.2,14.3,246.0,60.0,8.1,0,5,7,0,2026-05-18T03:31:09.817460+05:30
Latur,Maharashtra,18.4088,76.5604,30.1,50,0.0,936.0,8.9,34.9,73,31.8,27.1,12.4,265.0,74.0,7.1,0,5,7,1,2026-05-18T03:31:09.817467+05:30
Nanded,Maharashtra,19.1383,77.3091,32.2,45,0.0,964.0,9.0,29.5,74,39.3,33.6,20.7,293.0,55.0,5.8,0,5,7,1,2026-05-18T03:31:09.817474+05:30
Gulbarga,Karnataka,17.3297,76.8343,30.4,54,0.0,954.7,9.1,38.5,88,36.3,29.3,13.6,219.0,71.0,13.2,0,5,7,1,2026-05-18T03:31:09.817480+05:30
Bidar,Karnataka,17.9104,77.5199,28.9,53,0.0,931.5,9.1,29.5,88,25.8,21.2,10.4,245.0,74.0,5.4,4,5,7,1,2026-05-18T03:31:09.817487+05:30
Hospet,Karnataka,15.2689,76.3909,25.4,91,0.0,951.0,8.85,49.0,69,12.0,9.8,9.3,208.0,41.0,2.1,7,5,7,1,2026-05-18T03:31:09.817493+05:30
Tirupur,Tamil Nadu,11.1085,77.3411,25.0,93,0.1,971.0,4.6,47.5,65,13.8,12.0,12.6,163.0,43.0,4.4,10,5,3,1,2026-05-18T03:31:09.817500+05:30
Alappuzha,Kerala,9.4981,76.3388,25.0,99,0.0,1005.9,6.0,30.6,45,10.3,7.5,5.7,213.0,57.0,1.5,7,5,0,1,2026-05-18T03:31:09.817506+05:30
Munnar,Kerala,10.0889,77.0595,17.9,100,0.0,853.8,5.8,25.2,28,5.3,5.2,6.0,168.0,38.0,1.4,3,10,3,1,2026-05-18T03:31:09.817514+05:30
Silchar,Assam,24.8333,92.7789,24.1,98,0.0,1001.7,8.7,28.4,55,12.3,9.7,6.8,247.0,58.0,2.9,3,5,4,1,2026-05-18T03:31:09.817521+05:30
Dibrugarh,Assam,27.4728,94.912,21.5,99,0.2,993.0,7.1,24.5,68,13.5,11.0,8.6,248.0,65.0,0.9,6,5,7,1,2026-05-18T03:31:09.817527+05:30
