city,state,latitude,longitude,temp,humidity,rain,pressure,uv_index,wind_gusts,aqi,pm10,pm2_5,mosquito_risk,arthritis_risk,migraine_risk,frizz_risk,updated_at
Delhi,Delhi,28.6139,77.209,31.9,44,0.0,980.8,7.55,32.8,313,555.1,82.7,0,5,7,1,2026-05-01T12:08:51.030366+05:30
Mumbai,Maharashtra,19.076,72.8777,32.5,60,0.0,1009.5,7.9,42.8,67,58.4,24.3,0,0,4,1,2026-05-01T12:08:51.030403+05:30
Bangalore,Karnataka,12.9716,77.5946,31.0,47,0.0,913.5,9.55,41.0,98,41.2,33.4,0,5,7,1,2026-05-01T12:08:51.030418+05:30
Hyderabad,Telangana,17.385,78.4867,37.0,17,0.0,953.6,9.25,38.2,72,40.2,16.8,0,5,10,0,2026-05-01T12:08:51.030429+05:30
Chennai,Tamil Nadu,13.0827,80.2707,38.0,41,0.0,1006.4,9.25,55.8,46,20.1,16.6,0,5,7,1,2026-05-01T12:08:51.030438+05:30
Kolkata,West Bengal,22.5726,88.3639,29.1,65,0.0,1004.7,7.95,30.2,61,49.2,43.3,7,5,4,1,2026-05-01T12:08:51.030446+05:30
Pune,Maharashtra,18.5204,73.8567,34.7,28,0.0,949.8,8.5,49.7,57,50.9,16.0,0,5,7,0,2026-05-01T12:08:51.030457+05:30
Ahmedabad,Gujarat,23.0225,72.5714,37.5,36,0.0,999.9,8.1,44.3,59,39.6,15.1,0,5,10,1,2026-05-01T12:08:51.030465+05:30
Jaipur,Rajasthan,26.9124,75.7873,38.0,23,0.0,957.5,8.1,42.8,191,388.4,58.3,0,5,10,0,2026-05-01T12:08:51.030473+05:30
Lucknow,Uttar Pradesh,26.8467,80.9462,31.8,45,0.0,992.4,8.0,31.0,95,58.1,29.1,0,5,7,1,2026-05-01T12:08:51.030480+05:30
Kanpur,Uttar Pradesh,26.4499,80.3319,33.8,38,0.0,990.3,8.05,32.0,130,255.2,48.0,0,5,7,1,2026-05-01T12:08:51.030487+05:30
Chandigarh,Chandigarh,30.7333,76.7794,31.4,38,0.0,967.0,7.6,33.1,79,187.2,39.1,0,5,7,0,2026-05-01T12:08:51.030495+05:30
Srinagar,Jammu and Kashmir,34.0837,74.7973,19.4,64,0.0,841.9,8.75,24.5,79,17.2,13.8,3,5,7,0,2026-05-01T12:08:51.030502+05:30
Jammu,Jammu and Kashmir,32.7266,74.857,30.4,46,0.0,971.0,8.35,31.3,57,40.3,16.6,0,5,7,1,2026-05-01T12:08:51.030510+05:30
Amritsar,Punjab,31.634,74.8723,33.7,36,0.0,978.4,8.25,40.0,93,181.1,43.2,0,5,7,1,2026-05-01T12:08:51.030517+05:30
Ludhiana,Punjab,30.901,75.8573,33.0,37,0.0,976.4,7.85,32.4,136,432.1,69.8,0,5,7,1,2026-05-01T12:08:51.030523+05:30
Jalandhar,Punjab,31.326,75.5762,32.5,40,0.0,977.5,8.0,31.3,102,229.1,50.8,0,5,7,1,2026-05-01T12:08:51.030536+05:30
Dehradun,Uttarakhand,30.6284,78.0322,19.1,65,0.0,830.0,8.0,34.9,54,31.8,10.2,3,5,7,0,2026-05-01T12:08:51.030544+05:30
Shimla,Himachal Pradesh,31.1048,77.1734,19.3,42,0.0,785.1,8.1,47.2,59,32.2,10.5,0,5,7,0,2026-05-01T12:08:51.030551+05:30
Manali,Himachal Pradesh,32.2396,77.1887,19.2,49,0.0,816.1,10.05,41.8,59,6.7,6.3,0,5,7,0,2026-05-01T12:08:51.030558+05:30
Gurgaon,Haryana,28.4595,77.0266,32.7,38,0.0,979.1,7.7,34.9,1453,2220.3,233.8,0,5,7,1,2026-05-01T12:08:51.030565+05:30
Noida,Uttar Pradesh,28.5355,77.391,31.5,48,0.0,982.5,7.6,32.0,1453,2220.3,233.8,0,5,7,1,2026-05-01T12:08:51.030571+05:30
Ghaziabad,Uttar Pradesh,28.6692,77.4538,31.5,47,0.0,980.8,7.55,34.6,193,362.3,53.0,0,5,7,1,2026-05-01T12:08:51.030578+05:30
Faridabad,Haryana,28.4089,77.3178,31.3,45,0.0,981.6,7.65,33.8,1453,2220.3,233.8,0,5,7,1,2026-05-01T12:08:51.030585+05:30
Meerut,Uttar Pradesh,28.9845,77.7064,30.2,48,0.0,979.8,7.5,38.5,193,362.3,53.0,0,5,7,1,2026-05-01T12:08:51.030592+05:30
Agra,Uttar Pradesh,27.1767,78.0081,34.8,31,0.0,985.3,7.9,28.4,584,942.5,105.5,0,5,7,0,2026-05-01T12:08:51.030598+05:30
Varanasi,Uttar Pradesh,25.3176,82.9739,34.5,39,0.0,996.4,8.55,27.7,96,65.4,40.9,0,5,7,1,2026-05-01T12:08:51.030607+05:30
Prayagraj,Uttar Pradesh,25.4358,81.8463,34.8,38,0.0,994.5,8.45,28.4,97,59.1,35.2,0,5,7,1,2026-05-01T12:08:51.030614+05:30
Gorakhpur,Uttar Pradesh,26.7606,83.3732,24.1,79,0.1,997.7,8.35,37.1,79,63.3,26.9,6,5,7,1,2026-05-01T12:08:51.030620+05:30
Bareilly,Uttar Pradesh,28.367,79.4304,31.2,44,0.0,985.7,7.85,33.1,112,99.9,29.0,0,5,7,1,2026-05-01T12:08:51.030627+05:30
Aligarh,Uttar Pradesh,27.8974,78.088,32.6,41,0.0,983.5,7.75,34.6,712,1173.5,131.8,0,5,7,1,2026-05-01T12:08:51.030635+05:30
Moradabad,Uttar Pradesh,28.8386,78.7733,30.8,46,0.0,982.4,7.7,36.0,102,104.1,33.1,0,5,7,1,2026-05-01T12:08:51.030642+05:30
Saharanpur,Uttar Pradesh,29.9637,77.546,29.4,54,0.0,974.1,7.3,34.6,104,246.8,49.4,4,5,7,1,2026-05-01T12:08:51.030648+05:30
Jhansi,Uttar Pradesh,25.4484,78.5685,37.3,27,0.0,975.8,8.35,46.4,72,89.6,23.3,0,5,10,0,2026-05-01T12:08:54.345244+05:30
Surat,Gujarat,21.1702,72.8311,34.0,54,0.0,1006.3,7.7,53.6,65,44.0,19.9,0,5,4,1,2026-05-01T12:08:54.345271+05:30
Vadodara,Gujarat,22.3072,73.1812,37.2,37,0.0,1002.6,8.1,49.7,59,44.8,18.2,0,5,7,1,2026-05-01T12:08:54.345280+05:30
Rajkot,Gujarat,22.3039,70.8022,39.2,29,0.0,992.3,7.7,56.9,52,31.2,12.5,0,5,10,1,2026-05-01T12:08:54.345288+05:30
Thane,Maharashtra,19.2183,72.9781,35.2,46,0.0,1008.4,7.9,39.6,67,58.4,24.3,0,0,7,1,2026-05-01T12:08:54.345294+05:30
Nagpur,Maharashtra,21.1458,79.0882,39.3,19,0.0,972.3,8.9,38.9,68,60.3,30.5,0,5,10,0,2026-05-01T12:08:54.345301+05:30
Nashik,Maharashtra,19.9975,73.7898,34.0,34,0.0,946.7,8.2,52.6,63,48.5,19.0,0,5,7,0,2026-05-01T12:08:54.345308+05:30
Aurangabad,Maharashtra,19.8762,75.3433,36.0,22,0.0,945.1,9.05,50.0,55,41.3,14.8,0,5,10,0,2026-05-01T12:08:54.345314+05:30
Solapur,Maharashtra,17.6599,75.9064,38.1,16,0.0,957.9,9.05,46.1,55,51.0,15.4,0,5,10,0,2026-05-01T12:08:54.345321+05:30
Kolhapur,Maharashtra,16.705,74.2433,34.5,30,0.0,950.1,8.95,45.7,59,46.1,16.4,0,5,7,0,2026-05-01T12:08:54.345327+05:30
Goa,Goa,15.2993,74.124,36.2,46,0.0,999.2,8.9,37.8,63,27.9,15.5,0,5,10,1,2026-05-01T12:08:54.345332+05:30
Jodhpur,Rajasthan,26.2389,73.0243,37.9,30,0.0,979.5,8.3,55.8,144,186.7,27.0,0,5,10,1,2026-05-01T12:08:54.345338+05:30
Udaipur,Rajasthan,24.5854,73.7125,36.4,25,0.0,945.1,8.75,43.9,61,46.0,14.2,0,5,10,0,2026-05-01T12:08:54.345344+05:30
Kota,Rajasthan,25.2138,75.8648,40.2,25,0.0,975.9,8.3,42.5,69,47.5,16.8,0,5,10,1,2026-05-01T12:08:54.345350+05:30
Bikaner,Rajasthan,28.0229,73.3119,39.5,12,0.0,977.7,8.25,30.6,86,143.9,36.0,0,5,10,0,2026-05-01T12:08:54.345355+05:30
Ajmer,Rajasthan,26.4499,74.6399,37.2,20,0.0,952.3,8.25,51.5,75,78.2,20.7,0,5,10,0,2026-05-01T12:08:54.345362+05:30
Gwalior,Madhya Pradesh,26.2183,78.1828,36.1,26,0.0,980.5,8.15,35.3,73,57.5,20.9,0,5,10,0,2026-05-01T12:08:54.345368+05:30
Indore,Madhya Pradesh,22.7196,75.8577,36.5,29,0.0,947.7,8.65,42.1,60,43.3,15.8,0,5,10,0,2026-05-01T12:08:54.345374+05:30
Bhopal,Madhya Pradesh,23.2599,77.4126,37.8,23,0.0,952.3,8.65,40.7,70,57.0,20.2,0,5,10,0,2026-05-01T12:08:54.345380+05:30
Jabalpur,Madhya Pradesh,23.1815,79.9864,38.3,20,0.0,960.2,8.8,38.9,62,84.1,25.4,0,5,10,0,2026-05-01T12:08:54.345386+05:30
Ujjain,Madhya Pradesh,23.1765,75.7885,36.6,31,0.0,953.0,8.55,42.8,60,36.8,14.1,0,5,10,1,2026-05-01T12:08:54.345393+05:30
Visakhapatnam,Andhra Pradesh,17.6868,83.2185,32.5,66,0.0,1002.6,9.15,50.4,54,21.9,17.3,3,5,4,1,2026-05-01T12:08:54.345400+05:30
Vijayawada,Andhra Pradesh,16.5062,80.648,40.3,31,0.0,1000.4,9.2,37.4,64,32.2,27.9,0,5,7,1,2026-05-01T12:08:54.345406+05:30
Guntur,Andhra Pradesh,16.3067,80.4365,41.0,25,0.0,1001.5,9.2,38.5,71,31.4,27.2,0,5,7,1,2026-05-01T12:08:54.345413+05:30
Nellore,Andhra Pradesh,14.4426,79.9865,41.5,26,0.0,1003.6,9.25,47.2,60,41.3,34.0,0,5,7,1,2026-05-01T12:08:54.345420+05:30
Kurnool,Andhra Pradesh,15.8281,78.0373,39.7,20,0.0,977.0,9.2,38.5,74,42.7,16.4,0,5,10,0,2026-05-01T12:08:54.345427+05:30
Kakinada,Andhra Pradesh,16.9891,82.2475,36.6,53,0.0,1006.1,9.15,51.5,47,21.8,16.1,0,5,7,1,2026-05-01T12:08:54.345433+05:30
Tirupati,Andhra Pradesh,13.6288,79.4192,40.0,28,0.0,989.8,9.3,30.6,77,45.8,36.8,0,5,10,1,2026-05-01T12:08:54.345439+05:30
Warangal,Telangana,17.9689,79.5941,39.2,19,0.0,977.4,9.15,36.4,85,36.4,23.5,0,5,10,0,2026-05-01T12:08:54.345445+05:30
Nizamabad,Telangana,18.6725,78.0941,37.5,18,0.0,964.8,9.1,34.6,70,41.9,16.3,0,5,10,0,2026-05-01T12:08:54.345451+05:30
Mysore,Karnataka,12.2958,76.6396,32.5,44,0.0,930.3,9.4,50.4,75,32.0,24.5,0,5,7,1,2026-05-01T12:08:54.345457+05:30
Mangalore,Karnataka,12.9141,74.856,32.7,61,0.0,1008.1,9.0,36.0,66,27.8,15.2,3,0,4,1,2026-05-01T12:08:54.345463+05:30
Hubli-Dharwad,Karnataka,15.3647,75.124,33.8,40,0.0,942.8,9.2,49.3,57,25.7,14.8,0,5,7,1,2026-05-01T12:08:54.345469+05:30
Belgaum,Karnataka,15.8497,74.4977,32.7,39,0.0,928.5,9.15,43.9,54,42.8,13.7,0,5,7,1,2026-05-01T12:08:57.591527+05:30
Coimbatore,Tamil Nadu,11.0168,76.9558,35.8,39,0.0,962.8,9.15,49.0,62,24.9,17.8,0,5,10,1,2026-05-01T12:08:57.591557+05:30
Madurai,Tamil Nadu,9.9252,78.1198,38.8,32,0.0,992.8,8.9,51.8,75,25.9,22.6,0,5,10,1,2026-05-01T12:08:57.591567+05:30
Trichy,Tamil Nadu,10.7905,78.7047,36.8,40,0.0,999.3,8.9,43.9,63,31.0,23.9,0,5,10,1,2026-05-01T12:08:57.591575+05:30
Salem,Tamil Nadu,11.6643,78.146,37.6,33,0.0,977.6,9.25,47.5,100,43.7,34.3,0,5,10,1,2026-05-01T12:08:57.591582+05:30
Tirunelveli,Tamil Nadu,8.7139,77.7567,38.0,35,0.0,1003.0,8.75,38.9,45,10.8,8.7,0,5,7,1,2026-05-01T12:08:57.591589+05:30
Vellore,Tamil Nadu,12.9165,79.1325,39.5,24,0.0,983.9,9.3,58.7,91,44.5,35.4,0,5,10,0,2026-05-01T12:08:57.591596+05:30
Erode,Tamil Nadu,11.341,77.7172,38.5,33,0.0,988.9,9.25,45.4,81,32.6,24.2,0,5,10,1,2026-05-01T12:08:57.591603+05:30
Kochi,Kerala,9.9312,76.2673,30.7,75,0.0,1009.3,8.65,37.4,57,16.1,12.0,3,0,4,1,2026-05-01T12:08:57.591610+05:30
Thiruvananthapuram,Kerala,8.5241,76.9366,30.2,75,0.0,1009.0,8.65,32.4,40,10.6,8.8,3,0,4,1,2026-05-01T12:08:57.591618+05:30
Kozhikode,Kerala,11.2588,75.7804,31.4,73,0.0,1008.7,7.6,37.8,56,23.5,13.4,3,0,4,1,2026-05-01T12:08:57.591624+05:30
Thrissur,Kerala,10.5276,76.2144,33.0,60,0.0,1007.4,8.45,36.0,63,19.3,13.7,0,5,4,1,2026-05-01T12:08:57.591630+05:30
Kannur,Kerala,11.8745,75.3704,31.9,64,0.0,1008.0,8.95,35.3,68,29.2,16.5,3,0,4,1,2026-05-01T12:08:57.591637+05:30
Patna,Bihar,25.5941,85.1376,30.8,50,0.0,999.3,8.4,32.4,99,64.7,41.6,0,5,7,1,2026-05-01T12:08:57.591644+05:30
Gaya,Bihar,24.7914,85.0002,32.7,43,0.0,992.6,8.7,33.8,102,62.4,36.2,0,5,7,1,2026-05-01T12:08:57.591649+05:30
Muzaffarpur,Bihar,26.1209,85.3647,29.0,63,0.0,999.9,6.05,33.1,92,52.9,37.6,7,5,7,1,2026-05-01T12:08:57.591655+05:30
Bhagalpur,Bihar,25.2425,87.0117,31.0,53,0.0,1000.3,8.5,35.6,98,25.1,21.7,0,5,4,1,2026-05-01T12:08:57.591661+05:30
Ranchi,Jharkhand,23.3441,85.3096,32.0,37,0.0,937.2,9.2,37.4,96,62.9,22.4,0,5,7,0,2026-05-01T12:08:57.591667+05:30
Jamshedpur,Jharkhand,22.8046,86.2029,35.7,33,0.0,988.7,9.0,46.4,119,70.3,44.7,0,5,10,1,2026-05-01T12:08:57.591673+05:30
Dhanbad,Jharkhand,23.7957,86.4304,32.2,48,0.0,978.8,8.9,41.4,154,83.4,57.0,0,5,7,1,2026-05-01T12:08:57.591680+05:30
Bokaro,Jharkhand,23.6693,86.1511,34.4,41,0.0,982.3,8.95,46.4,154,83.6,61.2,0,5,7,1,2026-05-01T12:08:57.591686+05:30
Bhubaneswar,Odisha,20.2961,85.8245,35.2,52,0.0,1000.0,8.4,51.8,55,27.4,20.1,0,5,7,1,2026-05-01T12:08:57.591692+05:30
Cuttack,Odisha,20.4625,85.8828,36.0,51,0.0,1001.9,8.85,62.6,55,27.4,20.1,0,5,7,1,2026-05-01T12:08:57.591698+05:30
Rourkela,Odisha,22.2604,84.8536,35.8,39,0.0,983.2,8.9,48.2,111,61.2,32.0,0,5,10,1,2026-05-01T12:08:57.591703+05:30
Raipur,Chhattisgarh,21.2514,81.6296,38.3,22,0.0,973.6,8.95,45.7,93,59.1,33.3,0,5,10,0,2026-05-01T12:08:57.591709+05:30
Bhilai,Chhattisgarh,21.1938,81.3509,37.7,24,0.0,974.1,8.95,44.3,92,62.6,30.0,0,5,10,0,2026-05-01T12:08:57.591715+05:30
Guwahati,Assam,26.1158,91.7086,24.9,78,0.0,1001.0,7.7,23.4,68,22.6,17.3,3,5,4,1,2026-05-01T12:08:57.591721+05:30
Agartala,Tripura,23.8315,91.2868,24.5,85,0.0,1005.1,6.05,51.8,68,10.3,9.6,3,5,4,1,2026-05-01T12:08:57.591728+05:30
Shillong,Meghalaya,25.5788,91.8933,16.6,80,0.1,855.3,7.5,26.3,59,14.6,12.7,6,5,7,0,2026-05-01T12:08:57.591734+05:30
Imphal,Manipur,24.817,93.9368,18.8,92,0.1,922.1,4.0,24.5,73,20.6,16.5,6,10,3,1,2026-05-01T12:08:57.591741+05:30
Aizawl,Mizoram,23.7271,92.7176,18.3,78,0.0,891.2,5.3,56.9,55,21.8,18.0,3,5,3,0,2026-05-01T12:08:57.591747+05:30
Kohima,Nagaland,25.6701,94.1077,17.4,94,0.1,853.9,4.45,19.1,53,18.3,12.6,6,10,3,1,2026-05-01T12:08:57.591754+05:30
Gangtok,Sikkim,27.3314,88.6138,19.1,66,0.1,837.5,8.75,43.6,46,20.4,11.2,6,5,7,0,2026-05-01T12:08:57.591760+05:30
Siliguri,West Bengal,26.7271,88.3953,28.3,62,0.0,993.1,6.6,34.6,68,29.5,16.2,7,5,7,1,2026-05-01T12:09:01.206350+05:30
Durgapur,West Bengal,23.5204,87.3119,30.0,59,0.0,993.9,8.85,35.6,129,72.6,51.3,4,5,7,1,2026-05-01T12:09:01.206380+05:30
Asansol,West Bengal,23.6739,86.9524,31.5,50,0.0,992.4,8.9,48.2,121,75.7,49.0,0,5,7,1,2026-05-01T12:09:01.206389+05:30
Pondicherry,Puducherry,11.9139,79.8145,35.5,49,0.0,1007.8,8.95,53.3,39,21.5,19.4,0,5,7,1,2026-05-01T12:09:01.206397+05:30
Port Blair,Andaman and Nicobar Islands,11.6234,92.7265,33.9,51,0.0,1008.3,9.1,32.0,30,7.3,5.2,0,0,4,1,2026-05-01T12:09:01.206404+05:30
Haridwar,Uttarakhand,29.9457,78.1642,29.5,51,0.0,972.8,7.4,29.2,92,287.8,51.9,4,5,7,1,2026-05-01T12:09:01.206412+05:30
Rishikesh,Uttarakhand,30.0869,78.2676,28.5,52,0.0,965.4,7.5,28.8,80,255.2,43.9,4,5,7,1,2026-05-01T12:09:01.206419+05:30
Nainital,Uttarakhand,29.3919,79.4542,17.9,62,0.0,805.5,8.15,39.2,85,183.5,35.3,3,5,7,0,2026-05-01T12:09:01.206426+05:30
Mussoorie,Uttarakhand,30.4599,78.0664,17.3,65,0.0,802.5,7.9,45.4,78,194.6,36.9,3,5,7,0,2026-05-01T12:09:01.206433+05:30
Dharamshala,Himachal Pradesh,32.219,76.3234,23.2,45,0.0,868.5,8.25,42.1,41,8.0,5.5,0,5,7,0,2026-05-01T12:09:01.206440+05:30
Dalhousie,Himachal Pradesh,32.5387,75.971,19.6,52,0.0,804.7,8.5,38.9,57,13.2,8.7,0,5,7,0,2026-05-01T12:09:01.206447+05:30
Patiala,Punjab,30.3398,76.3869,32.0,42,0.0,976.1,7.5,36.0,481,879.2,103.8,0,5,7,1,2026-05-01T12:09:01.206454+05:30
Bhatinda,Punjab,30.211,74.9455,34.7,33,0.0,980.9,8.15,33.5,205,435.9,80.8,0,5,7,0,2026-05-01T12:09:01.206461+05:30
Rohtak,Haryana,28.8955,76.6066,33.0,38,0.0,979.4,7.6,34.6,603,951.8,125.3,0,5,7,1,2026-05-01T12:09:01.206468+05:30
Panipat,Haryana,29.3909,76.9635,31.4,46,0.0,978.4,7.45,35.3,1120,1411.9,143.9,0,5,7,1,2026-05-01T12:09:01.206474+05:30
Mathura,Uttar Pradesh,27.4924,77.6737,33.7,36,0.0,984.3,7.85,31.7,755,1188.4,133.2,0,5,7,1,2026-05-01T12:09:01.206480+05:30
Vrindavan,Uttar Pradesh,27.5823,77.7027,33.7,35,0.0,984.9,7.85,31.7,755,1188.4,133.2,0,5,7,1,2026-05-01T12:09:01.206487+05:30
Ayodhya,Uttar Pradesh,26.7922,82.1998,27.5,61,0.0,995.2,8.15,33.1,84,59.4,26.5,7,5,7,1,2026-05-01T12:09:01.206494+05:30
Ratlam,Madhya Pradesh,23.3315,75.0367,35.5,36,0.0,954.0,8.45,46.8,59,36.7,14.0,0,5,10,1,2026-05-01T12:09:01.206500+05:30
Sagar,Madhya Pradesh,23.8388,78.7378,37.5,20,0.0,949.0,8.65,44.3,76,106.9,25.1,0,5,10,0,2026-05-01T12:09:01.206507+05:30
Satna,Madhya Pradesh,24.6005,80.8322,37.2,24,0.0,969.9,8.65,51.5,72,95.9,26.0,0,5,10,0,2026-05-01T12:09:01.206514+05:30
Akola,Maharashtra,20.7002,77.0082,37.8,27,0.0,974.4,8.9,39.6,53,48.4,18.2,0,5,10,0,2026-05-01T12:09:01.206521+05:30
Amravati,Maharashtra,20.9374,77.7796,37.8,23,0.0,966.8,8.85,39.6,53,45.6,17.9,0,5,10,0,2026-05-01T12:09:01.206529+05:30
Latur,Maharashtra,18.4088,76.5604,37.8,17,0.0,940.7,9.1,41.0,60,54.8,16.9,0,5,10,0,2026-05-01T12:09:01.206541+05:30
Nanded,Maharashtra,19.1383,77.3091,38.3,20,0.0,968.5,9.0,33.8,57,49.8,17.9,0,5,10,0,2026-05-01T12:09:01.206548+05:30
Gulbarga,Karnataka,17.3297,76.8343,38.5,18,0.0,959.2,9.1,44.6,55,52.3,16.9,0,5,10,0,2026-05-01T12:09:01.206554+05:30
Bidar,Karnataka,17.9104,77.5199,36.8,19,0.0,936.5,9.15,39.2,66,48.3,16.6,0,5,10,0,2026-05-01T12:09:01.206560+05:30
Hospet,Karnataka,15.2689,76.3909,36.0,30,0.0,957.0,9.25,45.0,66,30.5,15.1,0,5,10,0,2026-05-01T12:09:01.206566+05:30
Tirupur,Tamil Nadu,11.1085,77.3411,37.3,35,0.0,975.2,9.0,47.2,79,31.0,22.8,0,5,10,1,2026-05-01T12:09:01.206572+05:30
Alappuzha,Kerala,9.4981,76.3388,29.0,82,0.0,1009.6,8.7,37.8,53,17.2,13.9,7,0,4,1,2026-05-01T12:09:01.206579+05:30
Munnar,Kerala,10.0889,77.0595,20.8,82,0.0,858.9,8.3,27.7,51,15.0,10.5,3,5,7,1,2026-05-01T12:09:01.206586+05:30
Silchar,Assam,24.8333,92.7789,22.1,100,0.0,1004.2,1.0,22.0,101,25.3,23.9,3,5,0,1,2026-05-01T12:09:01.206592+05:30
Dibrugarh,Assam,27.4728,94.912,25.9,71,0.0,995.8,5.65,18.0,63,26.4,15.5,7,5,3,1,2026-05-01T12:09:01.206599+05:30
