city,state,latitude,longitude,temp,humidity,rain,pressure,uv_index,wind_gusts,aqi,pm10,pm2_5,no2,co,o3,so2,mosquito_risk,arthritis_risk,migraine_risk,frizz_risk,updated_at
Delhi,Delhi,28.6139,77.209,32.5,46,0.0,977.4,7.8,40.3,163,237.5,76.6,27.1,1555.0,109.0,21.9,0,5,7,1,2026-06-04T23:50:37.086476+05:30
Mumbai,Maharashtra,19.076,72.8777,30.6,67,0.0,1005.5,7.7,40.0,60,36.0,15.5,9.3,166.0,45.0,8.6,3,5,4,1,2026-06-04T23:50:37.086524+05:30
Bangalore,Karnataka,12.9716,77.5946,21.5,91,0.0,911.0,9.1,44.6,32,7.7,6.9,17.3,308.0,33.0,5.3,3,5,7,1,2026-06-04T23:50:37.086540+05:30
Hyderabad,Telangana,17.385,78.4867,29.4,55,0.0,951.1,9.0,37.1,67,19.8,15.7,11.7,450.0,77.0,5.4,4,5,7,1,2026-06-04T23:50:37.086550+05:30
Chennai,Tamil Nadu,13.0827,80.2707,30.7,69,0.0,1004.4,8.65,41.8,62,15.8,12.1,14.8,378.0,72.0,8.0,3,5,4,1,2026-06-04T23:50:37.086558+05:30
Kolkata,West Bengal,22.5726,88.3639,29.2,91,0.0,1000.9,8.95,38.5,133,41.3,37.0,12.0,681.0,81.0,9.4,7,5,4,1,2026-06-04T23:50:37.086569+05:30
Pune,Maharashtra,18.5204,73.8567,25.3,81,0.0,946.1,8.35,52.6,55,8.0,5.8,9.2,152.0,47.0,7.6,7,5,7,1,2026-06-04T23:50:37.086576+05:30
Ahmedabad,Gujarat,23.0225,72.5714,31.6,70,0.0,997.5,8.05,36.7,76,29.3,20.5,11.4,190.0,50.0,7.1,3,5,7,1,2026-06-04T23:50:37.086583+05:30
Jaipur,Rajasthan,26.9124,75.7873,25.0,81,0.2,956.0,8.25,45.0,119,51.9,27.4,12.6,296.0,57.0,6.4,10,5,7,1,2026-06-04T23:50:37.086593+05:30
Lucknow,Uttar Pradesh,26.8467,80.9462,32.5,51,0.0,987.9,8.0,28.4,155,125.7,85.4,64.2,657.0,31.0,25.6,0,5,7,1,2026-06-04T23:50:37.086599+05:30
Kanpur,Uttar Pradesh,26.4499,80.3319,32.5,45,0.0,986.1,8.3,35.3,152,111.1,59.0,42.4,931.0,44.0,13.9,0,5,7,1,2026-06-04T23:50:37.086606+05:30
Chandigarh,Chandigarh,30.7333,76.7794,27.5,58,0.0,962.5,7.8,41.8,126,59.8,47.1,27.0,1190.0,85.0,14.2,4,5,7,1,2026-06-04T23:50:37.086612+05:30
Srinagar,Jammu and Kashmir,34.0837,74.7973,14.8,95,0.0,840.0,9.05,34.9,83,54.1,48.8,38.4,424.0,21.0,2.5,3,10,7,0,2026-06-04T23:50:37.086619+05:30
Jammu,Jammu and Kashmir,32.7266,74.857,26.0,67,0.0,966.1,8.6,55.1,95,81.0,60.1,61.7,614.0,13.0,8.0,7,5,7,1,2026-06-04T23:50:37.086626+05:30
Amritsar,Punjab,31.634,74.8723,28.8,56,0.0,974.2,8.45,55.1,150,58.6,47.8,21.7,1286.0,76.0,7.0,4,5,7,1,2026-06-04T23:50:37.086632+05:30
Ludhiana,Punjab,30.901,75.8573,29.4,60,0.0,972.1,8.05,40.0,153,54.7,43.4,15.0,1252.0,98.0,11.0,4,5,7,1,2026-06-04T23:50:37.086638+05:30
Jalandhar,Punjab,31.326,75.5762,30.7,50,0.0,973.0,8.25,31.0,150,58.7,44.5,18.2,1358.0,84.0,6.8,0,5,7,1,2026-06-04T23:50:37.086644+05:30
Dehradun,Uttarakhand,30.6284,78.0322,14.6,100,0.0,825.8,7.7,28.1,74,29.6,17.6,24.0,228.0,57.0,1.3,3,10,7,0,2026-06-04T23:50:37.086651+05:30
Shimla,Himachal Pradesh,31.1048,77.1734,12.3,93,0.0,779.4,6.65,36.0,108,13.8,10.2,12.2,414.0,110.0,0.5,3,10,7,0,2026-06-04T23:50:37.086660+05:30
Manali,Himachal Pradesh,32.2396,77.1887,11.7,88,0.0,813.0,9.2,33.5,85,4.3,4.2,28.5,389.0,99.0,0.1,3,10,7,0,2026-06-04T23:50:37.086666+05:30
Gurgaon,Haryana,28.4595,77.0266,30.8,48,0.0,975.7,7.9,41.0,507,285.0,92.0,45.4,1597.0,58.0,16.5,0,5,7,1,2026-06-04T23:50:37.086672+05:30
Noida,Uttar Pradesh,28.5355,77.391,29.0,67,0.0,978.6,7.85,36.4,507,285.0,92.0,45.4,2426.0,58.0,16.5,7,5,7,1,2026-06-04T23:50:37.086678+05:30
Ghaziabad,Uttar Pradesh,28.6692,77.4538,28.2,71,0.0,976.8,7.8,37.4,160,115.9,63.8,21.8,782.0,95.0,11.8,7,5,7,1,2026-06-04T23:50:37.086687+05:30
Faridabad,Haryana,28.4089,77.3178,31.4,50,0.0,978.1,7.85,42.8,507,285.0,92.0,45.4,1810.0,58.0,16.5,0,5,7,1,2026-06-04T23:50:37.086693+05:30
Meerut,Uttar Pradesh,28.9845,77.7064,28.8,68,0.0,975.6,7.7,42.1,160,115.9,63.8,21.8,691.0,95.0,11.8,7,5,7,1,2026-06-04T23:50:37.086699+05:30
Agra,Uttar Pradesh,27.1767,78.0081,32.2,41,0.0,982.3,8.15,29.5,171,659.4,100.6,25.5,966.0,49.0,8.5,0,5,7,1,2026-06-04T23:50:37.086705+05:30
Varanasi,Uttar Pradesh,25.3176,82.9739,33.7,46,0.0,992.1,8.45,36.0,136,92.2,73.6,54.9,1125.0,23.0,18.0,0,5,7,1,2026-06-04T23:50:37.086712+05:30
Prayagraj,Uttar Pradesh,25.4358,81.8463,32.3,53,0.0,990.6,8.55,25.6,138,110.4,79.4,71.4,633.0,19.0,25.9,0,5,7,1,2026-06-04T23:50:37.086718+05:30
Gorakhpur,Uttar Pradesh,26.7606,83.3732,29.9,63,0.0,991.9,8.35,21.6,152,127.1,82.2,61.4,571.0,29.0,20.6,7,5,7,1,2026-06-04T23:50:37.086731+05:30
Bareilly,Uttar Pradesh,28.367,79.4304,28.4,70,0.0,980.9,8.15,47.2,149,80.1,55.8,31.7,719.0,63.0,12.7,7,5,7,1,2026-06-04T23:50:37.086737+05:30
Aligarh,Uttar Pradesh,27.8974,78.088,28.6,61,0.0,979.7,8.0,35.3,154,163.9,85.0,59.4,865.0,34.0,18.8,7,5,7,1,2026-06-04T23:50:37.086744+05:30
Moradabad,Uttar Pradesh,28.8386,78.7733,29.5,64,0.0,977.9,7.95,50.8,155,185.3,88.2,43.9,624.0,74.0,24.1,7,5,7,1,2026-06-04T23:50:37.086750+05:30
Saharanpur,Uttar Pradesh,29.9637,77.546,27.8,67,0.0,969.9,7.5,39.6,142,172.8,102.0,71.3,779.0,29.0,24.3,7,5,7,1,2026-06-04T23:50:37.086756+05:30
Jhansi,Uttar Pradesh,25.4484,78.5685,30.4,49,0.0,973.1,8.5,30.2,83,51.6,25.0,4.4,182.0,66.0,2.9,0,5,7,1,2026-06-04T23:50:40.404896+05:30
Surat,Gujarat,21.1702,72.8311,29.7,80,0.0,1003.1,7.6,47.9,75,42.4,23.5,15.3,206.0,39.0,25.7,7,5,4,1,2026-06-04T23:50:40.404934+05:30
Vadodara,Gujarat,22.3072,73.1812,29.8,78,0.0,1000.3,8.0,42.8,79,37.1,22.7,19.6,194.0,32.0,22.6,7,5,4,1,2026-06-04T23:50:40.404944+05:30
Rajkot,Gujarat,22.3039,70.8022,29.9,69,0.0,989.9,7.55,47.2,65,49.1,22.3,2.9,113.0,50.0,2.5,7,5,7,1,2026-06-04T23:50:40.404953+05:30
Thane,Maharashtra,19.2183,72.9781,29.7,75,0.0,1005.0,7.7,37.1,60,36.0,15.5,9.3,184.0,45.0,8.6,7,5,4,1,2026-06-04T23:50:40.404961+05:30
Nagpur,Maharashtra,21.1458,79.0882,33.8,37,0.0,969.5,8.9,38.9,85,54.9,36.2,20.9,345.0,54.0,10.9,0,5,7,1,2026-06-04T23:50:40.404969+05:30
Nashik,Maharashtra,19.9975,73.7898,25.1,86,0.0,942.8,8.1,38.2,62,17.8,9.7,8.9,143.0,44.0,7.5,7,5,7,1,2026-06-04T23:50:40.404976+05:30
Aurangabad,Maharashtra,19.8762,75.3433,29.5,56,0.0,941.7,9.0,49.0,70,25.6,17.3,5.8,155.0,93.0,7.3,4,5,7,1,2026-06-04T23:50:40.404984+05:30
Solapur,Maharashtra,17.6599,75.9064,27.3,73,0.0,955.2,9.0,46.4,57,8.3,7.3,7.6,196.0,53.0,2.4,7,5,7,1,2026-06-04T23:50:40.404991+05:30
Kolhapur,Maharashtra,16.705,74.2433,23.7,92,0.0,946.3,8.8,52.2,43,8.6,7.3,7.6,172.0,44.0,2.6,3,5,7,1,2026-06-04T23:50:40.404999+05:30
Goa,Goa,15.2993,74.124,25.4,97,0.0,996.8,8.4,35.6,33,13.9,9.9,5.3,240.0,48.0,1.0,7,5,7,1,2026-06-04T23:50:40.405006+05:30
Jodhpur,Rajasthan,26.2389,73.0243,31.4,51,0.0,976.8,8.45,51.1,131,145.8,41.9,5.5,155.0,69.0,2.5,0,5,7,1,2026-06-04T23:50:40.405013+05:30
Udaipur,Rajasthan,24.5854,73.7125,28.4,63,0.0,942.4,8.8,43.2,79,36.1,22.7,5.7,234.0,82.0,7.8,7,5,7,1,2026-06-04T23:50:40.405021+05:30
Kota,Rajasthan,25.2138,75.8648,31.5,49,0.0,974.1,8.4,49.0,81,35.6,22.8,7.7,211.0,66.0,5.1,0,5,7,1,2026-06-04T23:50:40.405028+05:30
Bikaner,Rajasthan,28.0229,73.3119,30.9,44,0.0,975.2,8.4,63.7,129,246.8,66.6,3.2,161.0,70.0,4.2,0,5,7,1,2026-06-04T23:50:40.405034+05:30
Ajmer,Rajasthan,26.4499,74.6399,27.0,64,0.0,950.1,8.35,46.8,76,42.6,23.2,7.7,191.0,65.0,4.7,7,5,7,1,2026-06-04T23:50:40.405041+05:30
Gwalior,Madhya Pradesh,26.2183,78.1828,30.7,47,0.0,977.8,8.3,33.1,91,68.5,30.2,5.9,160.0,68.0,3.0,0,5,7,1,2026-06-04T23:50:40.405048+05:30
Indore,Madhya Pradesh,22.7196,75.8577,28.1,70,0.0,945.0,8.65,54.7,87,43.2,32.8,14.4,306.0,57.0,8.1,7,5,7,1,2026-06-04T23:50:40.405056+05:30
Bhopal,Madhya Pradesh,23.2599,77.4126,28.5,61,0.0,950.4,8.7,37.8,84,31.3,23.1,8.4,352.0,63.0,4.3,7,5,7,1,2026-06-04T23:50:40.405063+05:30
Jabalpur,Madhya Pradesh,23.1815,79.9864,30.1,51,0.0,957.2,8.85,28.8,90,82.4,48.5,36.3,506.0,45.0,9.7,0,5,7,1,2026-06-04T23:50:40.405070+05:30
Ujjain,Madhya Pradesh,23.1765,75.7885,28.1,72,0.0,950.3,8.6,43.9,85,41.6,29.5,5.5,400.0,79.0,6.2,7,5,7,1,2026-06-04T23:50:40.405079+05:30
Visakhapatnam,Andhra Pradesh,17.6868,83.2185,31.2,79,0.0,999.2,9.05,41.0,97,48.8,42.1,41.2,402.0,91.0,49.5,3,5,7,1,2026-06-04T23:50:40.405086+05:30
Vijayawada,Andhra Pradesh,16.5062,80.648,31.6,64,0.0,998.9,9.05,46.1,77,27.6,25.4,13.9,317.0,69.0,5.9,3,5,7,1,2026-06-04T23:50:40.405092+05:30
Guntur,Andhra Pradesh,16.3067,80.4365,30.7,74,0.0,1000.2,9.05,39.6,72,25.1,23.1,15.0,316.0,63.0,5.6,3,5,4,1,2026-06-04T23:50:40.405100+05:30
Nellore,Andhra Pradesh,14.4426,79.9865,30.5,69,0.0,1003.3,9.0,40.0,72,21.0,17.0,8.2,164.0,94.0,6.2,3,5,4,1,2026-06-04T23:50:40.405108+05:30
Kurnool,Andhra Pradesh,15.8281,78.0373,27.3,76,0.0,975.6,8.9,33.8,49,6.9,5.7,10.5,219.0,50.0,6.5,7,5,7,1,2026-06-04T23:50:40.405116+05:30
Kakinada,Andhra Pradesh,16.9891,82.2475,30.6,68,0.0,1003.3,9.05,52.2,112,30.9,24.6,5.2,483.0,122.0,6.0,3,5,4,1,2026-06-04T23:50:40.405123+05:30
Tirupati,Andhra Pradesh,13.6288,79.4192,28.6,69,0.0,989.3,8.45,31.7,46,15.7,12.4,13.9,209.0,50.0,2.7,7,5,7,1,2026-06-04T23:50:40.405131+05:30
Warangal,Telangana,17.9689,79.5941,30.1,64,0.0,975.2,9.05,38.9,75,35.0,29.7,15.6,255.0,62.0,4.9,3,5,7,1,2026-06-04T23:50:40.405138+05:30
Nizamabad,Telangana,18.6725,78.0941,30.1,57,0.0,961.5,8.9,38.9,77,32.2,24.0,9.5,282.0,81.0,3.6,0,5,7,1,2026-06-04T23:50:40.405144+05:30
Mysore,Karnataka,12.2958,76.6396,22.2,91,0.0,928.1,8.2,50.0,26,4.1,3.6,7.5,167.0,39.0,1.9,3,5,7,1,2026-06-04T23:50:40.405152+05:30
Mangalore,Karnataka,12.9141,74.856,25.0,95,0.3,1007.3,8.45,37.1,30,13.9,9.5,7.7,217.0,38.0,2.2,10,5,4,1,2026-06-04T23:50:40.405159+05:30
Hubli-Dharwad,Karnataka,15.3647,75.124,23.5,88,0.0,939.5,8.85,45.4,25,2.6,1.8,3.2,114.0,53.0,0.7,3,5,7,1,2026-06-04T23:50:40.405166+05:30
Belgaum,Karnataka,15.8497,74.4977,22.5,92,0.0,924.1,8.95,47.2,28,4.6,3.4,4.6,122.0,50.0,1.5,3,5,7,1,2026-06-04T23:50:43.747808+05:30
Coimbatore,Tamil Nadu,11.0168,76.9558,23.8,89,0.0,961.4,8.5,53.6,24,3.1,2.7,5.6,140.0,40.0,2.2,3,5,7,1,2026-06-04T23:50:43.747844+05:30
Madurai,Tamil Nadu,9.9252,78.1198,28.6,68,0.0,992.4,8.2,48.2,39,10.0,9.7,19.8,166.0,24.0,5.0,7,5,7,1,2026-06-04T23:50:43.747855+05:30
Trichy,Tamil Nadu,10.7905,78.7047,29.2,65,0.0,998.9,8.25,49.7,29,5.4,4.8,9.7,140.0,33.0,3.4,7,5,7,1,2026-06-04T23:50:43.747863+05:30
Salem,Tamil Nadu,11.6643,78.146,26.2,82,0.0,976.9,8.1,38.2,45,11.4,10.2,17.8,267.0,34.0,6.0,7,5,7,1,2026-06-04T23:50:43.747871+05:30
Tirunelveli,Tamil Nadu,8.7139,77.7567,28.3,71,0.0,1003.6,8.15,41.8,21,5.2,4.2,6.9,181.0,36.0,1.5,7,5,4,1,2026-06-04T23:50:43.747879+05:30
Vellore,Tamil Nadu,12.9165,79.1325,28.8,62,0.0,982.6,8.2,47.2,49,19.7,17.1,19.8,187.0,38.0,4.9,7,5,7,1,2026-06-04T23:50:43.747887+05:30
Erode,Tamil Nadu,11.341,77.7172,26.6,75,0.0,988.3,8.6,49.3,28,6.2,5.6,10.5,152.0,37.0,3.3,7,5,7,1,2026-06-04T23:50:43.747894+05:30
Kochi,Kerala,9.9312,76.2673,25.9,96,0.1,1010.2,8.1,38.5,33,13.4,9.2,12.3,149.0,31.0,3.4,10,0,4,1,2026-06-04T23:50:43.747902+05:30
Thiruvananthapuram,Kerala,8.5241,76.9366,25.2,95,0.0,1009.7,7.35,42.8,24,12.4,5.8,1.7,99.0,51.0,0.5,7,0,4,1,2026-06-04T23:50:43.747910+05:30
Kozhikode,Kerala,11.2588,75.7804,24.9,97,0.2,1009.3,8.6,36.0,26,14.6,6.1,0.9,185.0,56.0,0.4,6,0,4,1,2026-06-04T23:50:43.747916+05:30
Thrissur,Kerala,10.5276,76.2144,24.4,100,0.4,1008.5,8.6,30.2,34,14.1,10.7,11.0,322.0,33.0,3.2,6,0,4,1,2026-06-04T23:50:43.747924+05:30
Kannur,Kerala,11.8745,75.3704,25.1,95,0.3,1008.1,8.65,36.0,25,12.1,7.5,6.9,196.0,39.0,1.7,10,0,4,1,2026-06-04T23:50:43.747932+05:30
Patna,Bihar,25.5941,85.1376,30.6,75,0.0,995.2,8.85,19.4,160,83.4,72.4,41.4,828.0,46.0,17.3,3,5,7,1,2026-06-04T23:50:43.747939+05:30
Gaya,Bihar,24.7914,85.0002,30.3,63,0.1,989.1,8.65,29.9,152,91.3,77.5,31.6,594.0,70.0,14.0,6,5,7,1,2026-06-04T23:50:43.747946+05:30
Muzaffarpur,Bihar,26.1209,85.3647,29.5,74,0.0,994.9,8.65,23.4,165,91.5,80.3,38.5,779.0,55.0,16.4,7,5,7,1,2026-06-04T23:50:43.747953+05:30
Bhagalpur,Bihar,25.2425,87.0117,31.0,62,0.0,995.9,8.75,41.0,156,74.7,69.4,11.4,699.0,148.0,28.7,3,5,7,1,2026-06-04T23:50:43.747960+05:30
Ranchi,Jharkhand,23.3441,85.3096,25.5,76,0.0,933.9,9.05,27.0,114,68.7,57.5,28.8,300.0,65.0,8.3,7,5,7,1,2026-06-04T23:50:43.747968+05:30
Jamshedpur,Jharkhand,22.8046,86.2029,27.9,80,0.0,986.2,9.1,30.2,155,68.5,58.8,20.1,691.0,94.0,22.2,7,5,7,1,2026-06-04T23:50:43.747976+05:30
Dhanbad,Jharkhand,23.7957,86.4304,29.7,63,0.0,975.3,8.9,31.7,166,140.6,129.9,83.1,1082.0,25.0,190.3,7,5,7,1,2026-06-04T23:50:43.747983+05:30
Bokaro,Jharkhand,23.6693,86.1511,28.3,77,0.0,979.1,8.9,38.5,158,109.0,97.6,49.2,571.0,53.0,132.4,7,5,7,1,2026-06-04T23:50:43.747990+05:30
Bhubaneswar,Odisha,20.2961,85.8245,29.7,91,0.0,997.7,9.05,34.6,99,37.5,34.7,10.6,616.0,107.0,8.2,7,5,7,1,2026-06-04T23:50:43.747998+05:30
Cuttack,Odisha,20.4625,85.8828,29.8,93,0.0,999.5,9.15,38.9,99,37.5,34.7,10.6,860.0,107.0,8.2,7,5,7,1,2026-06-04T23:50:43.748005+05:30
Rourkela,Odisha,22.2604,84.8536,27.3,92,0.0,980.6,9.05,46.1,154,79.6,67.8,31.3,560.0,81.0,18.8,7,5,7,1,2026-06-04T23:50:43.748013+05:30
Raipur,Chhattisgarh,21.2514,81.6296,32.4,50,0.0,970.5,8.55,38.2,115,70.8,58.9,61.7,296.0,33.0,74.1,0,5,7,1,2026-06-04T23:50:43.748019+05:30
Bhilai,Chhattisgarh,21.1938,81.3509,31.4,54,0.0,970.9,8.5,38.9,110,72.2,58.7,52.2,406.0,39.0,52.2,0,5,7,1,2026-06-04T23:50:43.748025+05:30
Guwahati,Assam,26.1158,91.7086,24.6,99,0.0,998.7,8.85,35.3,109,48.4,45.2,11.7,544.0,66.0,4.6,3,5,7,1,2026-06-04T23:50:43.748032+05:30
Agartala,Tripura,23.8315,91.2868,28.2,89,0.0,1002.1,8.85,29.5,104,58.4,56.2,29.0,340.0,33.0,3.4,7,5,4,1,2026-06-04T23:50:43.748039+05:30
Shillong,Meghalaya,25.5788,91.8933,18.7,96,0.0,854.6,7.15,28.8,66,16.8,14.9,5.2,320.0,104.0,4.0,3,10,7,1,2026-06-04T23:50:43.748046+05:30
Imphal,Manipur,24.817,93.9368,22.0,95,0.0,920.1,9.25,30.2,95,60.5,56.5,27.4,1012.0,22.0,4.6,3,5,7,1,2026-06-04T23:50:43.748053+05:30
Aizawl,Mizoram,23.7271,92.7176,20.2,98,0.0,889.5,9.1,24.5,81,22.6,19.2,10.5,245.0,42.0,1.8,3,5,7,1,2026-06-04T23:50:43.748060+05:30
Kohima,Nagaland,25.6701,94.1077,18.4,94,0.0,852.4,8.9,30.2,69,20.4,17.8,8.8,343.0,68.0,2.0,3,10,7,1,2026-06-04T23:50:43.748066+05:30
Gangtok,Sikkim,27.3314,88.6138,17.5,85,0.2,834.9,9.25,40.7,84,7.9,7.0,5.8,508.0,128.0,2.3,6,10,7,0,2026-06-04T23:50:43.748073+05:30
Siliguri,West Bengal,26.7271,88.3953,24.2,99,0.0,989.6,8.8,31.7,153,38.4,34.6,12.2,375.0,115.0,5.4,3,5,7,1,2026-06-04T23:50:46.999971+05:30
Durgapur,West Bengal,23.5204,87.3119,28.1,90,0.0,990.2,8.85,25.6,169,73.6,69.4,26.5,524.0,83.0,33.6,7,5,7,1,2026-06-04T23:50:47.000007+05:30
Asansol,West Bengal,23.6739,86.9524,28.7,82,0.0,989.0,8.85,28.8,164,81.7,76.1,35.9,798.0,65.0,44.8,7,5,7,1,2026-06-04T23:50:47.000019+05:30
Pondicherry,Puducherry,11.9139,79.8145,29.0,76,0.0,1006.4,8.05,43.2,59,19.8,17.5,20.8,289.0,56.0,7.5,7,5,4,1,2026-06-04T23:50:47.000028+05:30
Port Blair,Andaman and Nicobar Islands,11.6234,92.7265,26.2,94,0.0,1004.8,1.45,34.9,28,7.4,4.5,0.3,98.0,62.0,0.4,7,5,0,1,2026-06-04T23:50:47.000037+05:30
Haridwar,Uttarakhand,29.9457,78.1642,26.2,79,0.0,968.4,7.65,40.0,107,99.7,59.5,35.2,396.0,45.0,10.0,7,5,7,1,2026-06-04T23:50:47.000045+05:30
Rishikesh,Uttarakhand,30.0869,78.2676,24.0,81,0.0,961.2,7.75,35.6,100,85.7,33.1,10.8,407.0,100.0,5.0,3,5,7,1,2026-06-04T23:50:47.000052+05:30
Nainital,Uttarakhand,29.3919,79.4542,14.4,91,0.0,802.0,7.2,28.1,118,27.1,23.6,16.6,317.0,83.0,4.5,3,10,7,0,2026-06-04T23:50:47.000059+05:30
Mussoorie,Uttarakhand,30.4599,78.0664,15.0,83,0.0,799.3,7.6,34.6,79,53.6,31.1,30.2,293.0,58.0,6.2,3,10,7,0,2026-06-04T23:50:47.000066+05:30
Dharamshala,Himachal Pradesh,32.219,76.3234,21.5,52,0.0,865.1,8.55,41.8,63,10.6,8.8,13.6,357.0,68.0,0.2,0,5,7,0,2026-06-04T23:50:47.000074+05:30
Dalhousie,Himachal Pradesh,32.5387,75.971,13.2,89,0.0,799.3,6.7,36.7,98,37.8,27.8,34.2,684.0,62.0,3.0,3,10,7,0,2026-06-04T23:50:47.000081+05:30
Patiala,Punjab,30.3398,76.3869,30.0,52,0.0,971.6,7.7,42.8,193,48.8,41.0,11.1,739.0,116.0,15.4,4,5,7,1,2026-06-04T23:50:47.000089+05:30
Bhatinda,Punjab,30.211,74.9455,29.4,58,0.0,976.8,8.35,43.2,150,322.2,85.2,14.5,473.0,101.0,10.1,4,5,7,1,2026-06-04T23:50:47.000096+05:30
Rohtak,Haryana,28.8955,76.6066,29.8,55,0.0,975.7,7.8,30.2,183,145.8,63.8,31.4,836.0,70.0,9.3,4,5,7,1,2026-06-04T23:50:47.000103+05:30
Panipat,Haryana,29.3909,76.9635,28.5,61,0.0,974.3,7.65,40.0,414,728.3,121.1,18.7,617.0,106.0,12.5,7,5,7,1,2026-06-04T23:50:47.000111+05:30
Mathura,Uttar Pradesh,27.4924,77.6737,29.9,54,0.0,981.0,8.1,34.2,185,199.8,47.7,10.7,639.0,72.0,2.9,4,5,7,1,2026-06-04T23:50:47.000118+05:30
Vrindavan,Uttar Pradesh,27.5823,77.7027,29.9,55,0.0,981.5,8.05,36.7,185,199.8,47.7,10.7,582.0,72.0,2.9,4,5,7,1,2026-06-04T23:50:47.000125+05:30
Ayodhya,Uttar Pradesh,26.7922,82.1998,30.0,67,0.0,989.7,8.05,18.7,154,140.2,85.0,67.2,837.0,31.0,20.0,7,5,7,1,2026-06-04T23:50:47.000132+05:30
Ratlam,Madhya Pradesh,23.3315,75.0367,28.3,70,0.0,951.1,8.5,44.6,83,41.0,28.3,4.1,239.0,88.0,6.9,7,5,7,1,2026-06-04T23:50:47.000138+05:30
Sagar,Madhya Pradesh,23.8388,78.7378,27.9,57,0.0,946.7,8.75,49.3,81,41.0,25.3,7.6,176.0,80.0,5.0,4,5,7,1,2026-06-04T23:50:47.000145+05:30
Satna,Madhya Pradesh,24.6005,80.8322,29.6,56,0.0,966.5,8.35,25.6,86,66.4,37.7,35.6,413.0,51.0,6.5,4,5,7,1,2026-06-04T23:50:47.000152+05:30
Akola,Maharashtra,20.7002,77.0082,29.9,56,0.0,971.3,8.85,65.9,80,43.7,26.7,8.1,223.0,81.0,5.3,4,5,7,1,2026-06-04T23:50:47.000159+05:30
Amravati,Maharashtra,20.9374,77.7796,32.0,46,0.0,964.1,8.85,48.2,84,62.4,37.8,24.4,194.0,52.0,7.5,0,5,7,1,2026-06-04T23:50:47.000167+05:30
Latur,Maharashtra,18.4088,76.5604,25.2,78,0.3,937.7,9.0,35.6,64,19.1,14.3,6.9,179.0,75.0,2.4,10,5,7,1,2026-06-04T23:50:47.000175+05:30
Nanded,Maharashtra,19.1383,77.3091,30.8,57,0.0,965.2,8.75,36.7,79,48.2,30.3,12.3,250.0,77.0,7.4,0,5,7,1,2026-06-04T23:50:47.000182+05:30
Gulbarga,Karnataka,17.3297,76.8343,26.1,76,0.0,956.8,9.0,46.1,59,11.3,9.4,10.3,201.0,59.0,2.2,7,5,7,1,2026-06-04T23:50:47.000189+05:30
Bidar,Karnataka,17.9104,77.5199,27.5,62,0.0,933.4,9.0,37.4,66,17.7,14.1,11.7,189.0,79.0,2.8,7,5,7,1,2026-06-04T23:50:47.000196+05:30
Hospet,Karnataka,15.2689,76.3909,25.6,78,0.0,955.0,9.0,42.5,29,4.3,3.6,6.9,145.0,42.0,1.6,7,5,7,1,2026-06-04T23:50:47.000201+05:30
Tirupur,Tamil Nadu,11.1085,77.3411,24.2,88,0.0,974.7,8.3,56.5,31,7.2,6.6,11.7,144.0,36.0,4.1,3,5,7,1,2026-06-04T23:50:47.000208+05:30
Alappuzha,Kerala,9.4981,76.3388,26.4,93,0.0,1010.2,5.15,39.2,28,14.3,7.5,4.2,88.0,47.0,1.2,7,0,0,1,2026-06-04T23:50:47.000215+05:30
Munnar,Kerala,10.0889,77.0595,17.5,100,0.2,857.0,6.8,38.2,20,3.0,3.0,9.5,113.0,24.0,1.8,6,10,7,1,2026-06-04T23:50:47.000223+05:30
Silchar,Assam,24.8333,92.7789,26.1,98,0.1,1001.7,8.95,18.0,121,58.2,51.9,14.3,335.0,71.0,5.4,10,5,4,1,2026-06-04T23:50:47.000229+05:30
Dibrugarh,Assam,27.4728,94.912,24.4,91,0.0,992.2,7.35,34.6,83,24.1,23.4,14.3,350.0,47.0,1.6,3,5,7,1,2026-06-04T23:50:47.000236+05:30
