city,state,latitude,longitude,temp,humidity,rain,pressure,uv_index,wind_gusts,aqi,pm10,pm2_5,mosquito_risk,arthritis_risk,migraine_risk,frizz_risk,updated_at
Delhi,Delhi,28.6139,77.209,24.9,53,0.0,990.0,6.45,29.2,153,129.0,56.6,0,5,7,0,2026-03-22T11:26:11.564306+05:30
Mumbai,Maharashtra,19.076,72.8777,29.8,50,0.0,1011.7,7.9,30.2,84,33.8,26.6,4,0,4,1,2026-03-22T11:26:11.564345+05:30
Bangalore,Karnataka,12.9716,77.5946,28.4,51,0.0,915.2,9.45,25.2,102,39.6,30.4,4,5,7,1,2026-03-22T11:26:11.564360+05:30
Hyderabad,Telangana,17.385,78.4867,30.2,49,0.0,957.9,8.9,29.5,95,46.8,28.6,0,5,7,1,2026-03-22T11:26:11.564370+05:30
Chennai,Tamil Nadu,13.0827,80.2707,32.2,54,0.0,1011.1,9.2,32.4,41,14.5,8.6,0,0,4,1,2026-03-22T11:26:11.564378+05:30
Kolkata,West Bengal,22.5726,88.3639,25.6,61,0.0,1012.4,8.25,20.5,105,50.1,47.5,7,0,4,1,2026-03-22T11:26:11.564387+05:30
Pune,Maharashtra,18.5204,73.8567,32.1,27,0.0,952.7,8.45,27.4,78,9.7,9.1,0,5,7,0,2026-03-22T11:26:11.564400+05:30
Ahmedabad,Gujarat,23.0225,72.5714,32.1,32,0.0,1007.9,7.55,22.0,74,30.4,19.5,0,5,4,0,2026-03-22T11:26:11.564408+05:30
Jaipur,Rajasthan,26.9124,75.7873,27.1,45,0.0,966.5,7.2,27.4,85,137.8,30.7,4,5,7,0,2026-03-22T11:26:11.564415+05:30
Lucknow,Uttar Pradesh,26.8467,80.9462,25.7,53,0.0,1000.2,6.95,26.6,111,27.8,23.7,4,5,4,0,2026-03-22T11:26:11.564423+05:30
Kanpur,Uttar Pradesh,26.4499,80.3319,25.4,62,0.0,998.6,7.0,27.0,123,113.6,35.2,7,5,7,1,2026-03-22T11:26:11.564431+05:30
Chandigarh,Chandigarh,30.7333,76.7794,23.5,61,0.0,974.9,6.35,34.2,86,37.5,27.8,3,5,7,0,2026-03-22T11:26:11.564438+05:30
Srinagar,Jammu and Kashmir,34.0837,74.7973,13.8,55,0.0,845.3,7.5,14.0,110,34.1,28.2,0,5,7,0,2026-03-22T11:26:11.564445+05:30
Jammu,Jammu and Kashmir,32.7266,74.857,23.3,54,0.0,978.8,6.85,22.7,99,37.3,29.6,0,5,7,0,2026-03-22T11:26:11.564452+05:30
Amritsar,Punjab,31.634,74.8723,23.1,59,0.0,987.7,7.0,19.8,156,78.5,64.5,0,5,7,0,2026-03-22T11:26:11.564458+05:30
Ludhiana,Punjab,30.901,75.8573,23.1,61,0.0,985.7,6.6,27.0,128,71.9,61.5,3,5,7,0,2026-03-22T11:26:11.564464+05:30
Jalandhar,Punjab,31.326,75.5762,22.3,64,0.0,986.9,6.75,22.3,145,82.0,68.7,3,5,7,0,2026-03-22T11:26:11.564473+05:30
Dehradun,Uttarakhand,30.6284,78.0322,15.3,68,0.0,832.3,6.8,22.3,42,11.5,5.6,3,5,7,0,2026-03-22T11:26:11.564480+05:30
Shimla,Himachal Pradesh,31.1048,77.1734,14.7,57,0.0,787.2,6.85,37.1,66,17.2,9.1,0,5,7,0,2026-03-22T11:26:11.564487+05:30
Manali,Himachal Pradesh,32.2396,77.1887,17.3,18,0.0,820.8,8.85,33.8,62,8.6,5.3,0,5,7,1,2026-03-22T11:26:11.564494+05:30
Gurgaon,Haryana,28.4595,77.0266,24.9,58,0.0,988.5,6.55,24.1,212,538.3,87.8,0,5,7,1,2026-03-22T11:26:11.564500+05:30
Noida,Uttar Pradesh,28.5355,77.391,25.2,52,0.0,991.5,6.45,28.4,212,538.3,87.8,4,5,7,0,2026-03-22T11:26:11.564507+05:30
Ghaziabad,Uttar Pradesh,28.6692,77.4538,24.5,58,0.0,989.5,6.45,29.5,142,70.3,53.0,0,5,7,0,2026-03-22T11:26:11.564514+05:30
Faridabad,Haryana,28.4089,77.3178,25.1,56,0.0,990.8,6.5,25.6,212,538.3,87.8,4,5,7,0,2026-03-22T11:26:11.564521+05:30
Meerut,Uttar Pradesh,28.9845,77.7064,24.6,55,0.0,988.0,6.3,33.1,142,70.3,53.0,0,5,7,0,2026-03-22T11:26:11.564527+05:30
Agra,Uttar Pradesh,27.1767,78.0081,28.2,44,0.0,994.9,6.65,28.1,520,435.9,80.3,4,5,7,0,2026-03-22T11:26:11.564534+05:30
Varanasi,Uttar Pradesh,25.3176,82.9739,25.4,56,0.0,1004.5,7.1,28.4,102,74.7,27.0,4,5,4,0,2026-03-22T11:26:11.564544+05:30
Prayagraj,Uttar Pradesh,25.4358,81.8463,25.7,54,0.0,1003.0,7.5,26.6,123,43.5,24.8,4,5,4,0,2026-03-22T11:26:11.564553+05:30
Gorakhpur,Uttar Pradesh,26.7606,83.3732,23.6,63,0.0,1004.4,7.25,11.2,159,54.4,46.7,3,5,4,1,2026-03-22T11:26:11.564560+05:30
Bareilly,Uttar Pradesh,28.367,79.4304,25.0,63,0.0,993.3,6.65,31.0,106,57.4,38.5,7,5,7,1,2026-03-22T11:26:11.564566+05:30
Aligarh,Uttar Pradesh,27.8974,78.088,25.9,54,0.0,992.6,6.6,27.7,186,170.0,60.3,4,5,7,0,2026-03-22T11:26:11.564573+05:30
Moradabad,Uttar Pradesh,28.8386,78.7733,24.5,65,0.0,990.1,6.5,31.3,137,86.8,63.1,3,5,7,1,2026-03-22T11:26:11.564579+05:30
Saharanpur,Uttar Pradesh,29.9637,77.546,23.7,63,0.0,981.7,6.15,36.0,139,72.6,58.8,3,5,7,1,2026-03-22T11:26:11.564585+05:30
Jhansi,Uttar Pradesh,25.4484,78.5685,27.7,43,0.0,985.0,7.45,28.4,72,209.5,41.1,4,5,7,0,2026-03-22T11:26:14.911234+05:30
Surat,Gujarat,21.1702,72.8311,31.3,41,0.0,1011.7,7.65,25.2,96,61.5,49.8,0,0,4,1,2026-03-22T11:26:14.911261+05:30
Vadodara,Gujarat,22.3072,73.1812,33.5,27,0.0,1009.9,7.8,18.7,69,36.0,22.6,0,0,4,0,2026-03-22T11:26:14.911270+05:30
Rajkot,Gujarat,22.3039,70.8022,30.3,55,0.0,1000.2,7.6,26.3,59,49.9,21.0,0,5,4,1,2026-03-22T11:26:14.911278+05:30
Thane,Maharashtra,19.2183,72.9781,34.3,26,0.0,1011.2,7.85,42.5,84,33.8,26.6,0,0,4,0,2026-03-22T11:26:14.911284+05:30
Nagpur,Maharashtra,21.1458,79.0882,29.3,30,0.0,979.6,8.35,19.4,46,19.3,11.5,4,5,7,0,2026-03-22T11:26:14.911290+05:30
Nashik,Maharashtra,19.9975,73.7898,29.3,34,0.0,950.1,8.05,29.2,52,15.0,8.4,4,5,7,0,2026-03-22T11:26:14.911296+05:30
Aurangabad,Maharashtra,19.8762,75.3433,30.1,25,0.0,949.2,8.6,27.0,54,11.1,9.4,0,5,7,0,2026-03-22T11:26:14.911303+05:30
Solapur,Maharashtra,17.6599,75.9064,32.3,29,0.0,961.6,8.75,24.5,67,43.0,30.4,0,5,7,0,2026-03-22T11:26:14.911309+05:30
Kolhapur,Maharashtra,16.705,74.2433,30.2,39,0.0,951.7,8.85,32.0,89,28.3,19.4,0,5,7,0,2026-03-22T11:26:14.911315+05:30
Goa,Goa,15.2993,74.124,31.9,54,0.0,1000.9,8.85,36.7,89,41.3,23.3,0,5,4,1,2026-03-22T11:26:14.911320+05:30
Jodhpur,Rajasthan,26.2389,73.0243,28.8,43,0.0,989.5,7.55,25.6,65,57.2,19.4,4,5,7,0,2026-03-22T11:26:14.911327+05:30
Udaipur,Rajasthan,24.5854,73.7125,28.5,34,0.0,952.5,8.15,29.2,58,38.2,13.5,4,5,7,0,2026-03-22T11:26:14.911333+05:30
Kota,Rajasthan,25.2138,75.8648,30.6,32,0.0,985.3,7.45,11.9,81,38.2,20.9,0,5,7,0,2026-03-22T11:26:14.911339+05:30
Bikaner,Rajasthan,28.0229,73.3119,26.7,49,0.0,988.6,7.2,16.9,61,109.4,27.8,4,5,7,0,2026-03-22T11:26:14.911345+05:30
Ajmer,Rajasthan,26.4499,74.6399,27.9,40,0.0,960.9,7.5,27.0,70,42.5,18.5,4,5,7,0,2026-03-22T11:26:14.911350+05:30
Gwalior,Madhya Pradesh,26.2183,78.1828,27.8,44,0.0,990.3,7.15,26.6,133,227.2,51.1,4,5,7,0,2026-03-22T11:26:14.911357+05:30
Indore,Madhya Pradesh,22.7196,75.8577,29.1,29,0.0,953.8,8.05,17.6,58,18.6,11.3,4,5,7,0,2026-03-22T11:26:14.911363+05:30
Bhopal,Madhya Pradesh,23.2599,77.4126,29.8,28,0.0,959.7,7.95,25.2,49,19.7,10.2,4,5,7,0,2026-03-22T11:26:14.911369+05:30
Jabalpur,Madhya Pradesh,23.1815,79.9864,27.6,36,0.0,968.0,8.05,29.9,52,70.3,19.7,4,5,7,0,2026-03-22T11:26:14.911375+05:30
Ujjain,Madhya Pradesh,23.1765,75.7885,28.5,35,0.0,959.7,8.0,13.3,65,20.7,12.8,4,5,7,0,2026-03-22T11:26:14.911381+05:30
Visakhapatnam,Andhra Pradesh,17.6868,83.2185,32.5,51,0.0,1007.9,8.85,34.2,80,25.4,21.4,0,5,4,1,2026-03-22T11:26:14.911387+05:30
Vijayawada,Andhra Pradesh,16.5062,80.648,30.0,66,0.0,1007.9,8.9,22.3,63,21.3,13.9,7,5,4,1,2026-03-22T11:26:14.911393+05:30
Guntur,Andhra Pradesh,16.3067,80.4365,30.4,66,0.0,1008.9,8.9,19.4,67,21.7,13.7,3,0,4,1,2026-03-22T11:26:14.911399+05:30
Nellore,Andhra Pradesh,14.4426,79.9865,32.8,52,0.0,1009.7,9.05,30.2,51,22.5,15.0,0,0,4,1,2026-03-22T11:26:14.911405+05:30
Kurnool,Andhra Pradesh,15.8281,78.0373,33.5,47,0.0,980.7,8.95,20.2,72,29.6,23.0,0,5,7,1,2026-03-22T11:26:14.911412+05:30
Kakinada,Andhra Pradesh,16.9891,82.2475,32.2,53,0.0,1012.0,8.3,27.0,35,18.1,11.9,0,0,4,1,2026-03-22T11:26:14.911418+05:30
Tirupati,Andhra Pradesh,13.6288,79.4192,30.9,57,0.0,995.8,9.2,29.2,74,22.3,15.6,0,5,7,1,2026-03-22T11:26:14.911423+05:30
Warangal,Telangana,17.9689,79.5941,28.9,65,0.0,984.0,8.75,19.8,107,39.7,29.8,7,5,7,1,2026-03-22T11:26:14.911429+05:30
Nizamabad,Telangana,18.6725,78.0941,31.0,43,0.0,969.8,8.65,27.4,87,20.3,16.9,0,5,7,1,2026-03-22T11:26:14.911435+05:30
Mysore,Karnataka,12.2958,76.6396,29.8,47,0.0,931.9,9.4,33.1,96,29.2,23.1,4,5,7,1,2026-03-22T11:26:14.911440+05:30
Mangalore,Karnataka,12.9141,74.856,29.0,79,0.0,1009.6,9.05,28.1,71,35.5,20.4,7,0,4,1,2026-03-22T11:26:14.911446+05:30
Hubli-Dharwad,Karnataka,15.3647,75.124,32.4,29,0.0,944.3,9.05,27.4,65,27.8,16.2,0,5,7,0,2026-03-22T11:26:14.911452+05:30
Belgaum,Karnataka,15.8497,74.4977,31.5,27,0.0,929.4,9.1,36.7,67,24.2,14.9,0,5,7,0,2026-03-22T11:26:18.257107+05:30
Coimbatore,Tamil Nadu,11.0168,76.9558,31.8,43,0.0,965.2,9.4,30.6,75,26.0,18.0,0,5,7,1,2026-03-22T11:26:18.257135+05:30
Madurai,Tamil Nadu,9.9252,78.1198,32.2,52,0.0,996.6,9.35,29.5,64,21.7,14.1,0,5,7,1,2026-03-22T11:26:18.257147+05:30
Trichy,Tamil Nadu,10.7905,78.7047,31.7,56,0.0,1003.4,9.25,24.1,68,17.3,12.3,0,5,4,1,2026-03-22T11:26:18.257156+05:30
Salem,Tamil Nadu,11.6643,78.146,30.2,59,0.0,981.2,9.3,20.9,78,29.3,22.1,0,5,7,1,2026-03-22T11:26:18.257164+05:30
Tirunelveli,Tamil Nadu,8.7139,77.7567,32.5,53,0.0,1006.6,9.3,29.5,70,16.7,11.6,0,5,4,1,2026-03-22T11:26:18.257172+05:30
Vellore,Tamil Nadu,12.9165,79.1325,32.2,47,0.0,988.4,9.25,35.3,99,30.2,23.3,0,5,7,1,2026-03-22T11:26:18.257180+05:30
Erode,Tamil Nadu,11.341,77.7172,31.4,58,0.0,992.7,9.3,32.8,58,21.9,15.2,0,5,7,1,2026-03-22T11:26:18.257189+05:30
Kochi,Kerala,9.9312,76.2673,28.4,79,0.0,1011.3,9.15,31.7,71,20.0,16.7,7,0,4,1,2026-03-22T11:26:18.257197+05:30
Thiruvananthapuram,Kerala,8.5241,76.9366,28.5,78,0.0,1010.6,9.15,25.9,57,20.1,17.5,7,0,4,1,2026-03-22T11:26:18.257205+05:30
Kozhikode,Kerala,11.2588,75.7804,30.2,72,0.0,1010.7,9.05,28.4,60,27.5,19.2,3,0,4,1,2026-03-22T11:26:18.257212+05:30
Thrissur,Kerala,10.5276,76.2144,33.9,52,0.0,1009.5,9.15,33.5,63,19.5,14.8,0,0,4,1,2026-03-22T11:26:18.257221+05:30
Kannur,Kerala,11.8745,75.3704,31.5,62,0.0,1010.2,9.1,31.7,65,35.3,20.8,3,0,4,1,2026-03-22T11:26:18.257229+05:30
Patna,Bihar,25.5941,85.1376,24.1,57,0.0,1007.5,7.7,20.9,161,72.2,62.6,0,5,4,0,2026-03-22T11:26:18.257237+05:30
Gaya,Bihar,24.7914,85.0002,24.4,58,0.0,1000.5,7.8,22.7,147,47.4,35.3,0,5,4,0,2026-03-22T11:26:18.257245+05:30
Muzaffarpur,Bihar,26.1209,85.3647,22.5,68,0.0,1007.7,7.0,13.3,164,64.3,58.1,3,5,4,1,2026-03-22T11:26:18.257253+05:30
Bhagalpur,Bihar,25.2425,87.0117,22.7,68,0.0,1008.4,7.05,17.3,153,61.0,54.2,3,0,4,1,2026-03-22T11:26:18.257260+05:30
Ranchi,Jharkhand,23.3441,85.3096,22.9,45,0.0,942.6,8.45,29.9,88,74.0,18.9,0,5,7,0,2026-03-22T11:26:18.257269+05:30
Jamshedpur,Jharkhand,22.8046,86.2029,26.8,48,0.0,997.0,8.35,19.8,116,43.7,31.4,4,5,7,0,2026-03-22T11:26:18.257276+05:30
Dhanbad,Jharkhand,23.7957,86.4304,24.5,49,0.0,986.0,8.2,23.8,144,46.9,35.9,0,5,7,0,2026-03-22T11:26:18.257282+05:30
Bokaro,Jharkhand,23.6693,86.1511,24.5,50,0.0,990.0,8.25,24.5,150,50.2,30.3,0,5,7,0,2026-03-22T11:26:18.257289+05:30
Bhubaneswar,Odisha,20.2961,85.8245,28.5,59,0.0,1008.2,8.65,28.8,96,43.2,34.9,4,0,4,1,2026-03-22T11:26:18.257295+05:30
Cuttack,Odisha,20.4625,85.8828,28.6,58,0.0,1010.1,8.65,20.9,96,43.2,34.9,4,0,4,1,2026-03-22T11:26:18.257301+05:30
Rourkela,Odisha,22.2604,84.8536,27.5,42,0.0,991.2,8.25,19.4,92,43.2,24.7,4,5,7,0,2026-03-22T11:26:18.257307+05:30
Raipur,Chhattisgarh,21.2514,81.6296,29.4,28,0.0,980.9,8.4,18.4,87,21.0,17.1,4,5,7,0,2026-03-22T11:26:18.257313+05:30
Bhilai,Chhattisgarh,21.1938,81.3509,29.7,27,0.0,981.1,8.4,15.1,71,25.7,20.7,4,5,7,0,2026-03-22T11:26:18.257320+05:30
Guwahati,Assam,26.1158,91.7086,24.6,66,0.0,1006.7,7.6,18.0,91,29.6,24.7,3,5,4,1,2026-03-22T11:26:18.257325+05:30
Agartala,Tripura,23.8315,91.2868,26.3,58,0.0,1011.5,7.85,21.6,138,49.6,40.7,4,0,4,1,2026-03-22T11:26:18.257332+05:30
Shillong,Meghalaya,25.5788,91.8933,15.3,60,0.0,857.8,6.7,21.2,65,15.0,11.4,0,5,7,0,2026-03-22T11:26:18.257338+05:30
Imphal,Manipur,24.817,93.9368,17.9,81,0.0,925.5,8.15,51.8,78,6.8,5.9,3,10,7,0,2026-03-22T11:26:18.257345+05:30
Aizawl,Mizoram,23.7271,92.7176,19.2,71,0.0,896.0,8.2,44.6,76,5.5,4.7,3,5,7,0,2026-03-22T11:26:18.257351+05:30
Kohima,Nagaland,25.6701,94.1077,14.8,86,0.0,856.3,7.8,56.9,68,13.0,11.8,3,10,7,0,2026-03-22T11:26:18.257358+05:30
Gangtok,Sikkim,27.3314,88.6138,15.6,70,0.0,839.6,7.85,23.0,71,10.9,8.5,3,5,7,0,2026-03-22T11:26:18.257364+05:30
Siliguri,West Bengal,26.7271,88.3953,20.5,67,0.0,999.2,7.25,17.3,130,19.3,17.0,3,5,7,0,2026-03-22T11:26:21.607691+05:30
Durgapur,West Bengal,23.5204,87.3119,25.3,54,0.0,1001.5,7.95,19.8,110,49.8,43.3,4,5,4,0,2026-03-22T11:26:21.607719+05:30
Asansol,West Bengal,23.6739,86.9524,25.2,53,0.0,1000.0,8.2,21.6,111,50.2,42.6,4,5,4,0,2026-03-22T11:26:21.607729+05:30
Pondicherry,Puducherry,11.9139,79.8145,32.1,59,0.0,1012.0,9.15,29.5,39,13.4,8.1,0,0,4,1,2026-03-22T11:26:21.607736+05:30
Port Blair,Andaman and Nicobar Islands,11.6234,92.7265,28.9,73,0.0,1009.8,9.1,20.9,45,12.2,10.1,7,0,4,1,2026-03-22T11:26:21.607744+05:30
Haridwar,Uttarakhand,29.9457,78.1642,24.3,65,0.0,980.0,6.25,24.5,89,37.8,30.6,3,5,7,1,2026-03-22T11:26:21.607751+05:30
Rishikesh,Uttarakhand,30.0869,78.2676,23.7,64,0.0,972.2,6.35,23.0,56,20.8,15.3,3,5,7,1,2026-03-22T11:26:21.607758+05:30
Nainital,Uttarakhand,29.3919,79.4542,16.7,73,0.0,808.8,7.1,40.3,63,19.0,13.9,3,5,7,0,2026-03-22T11:26:21.607764+05:30
Mussoorie,Uttarakhand,30.4599,78.0664,15.2,71,0.0,804.8,6.65,24.5,67,31.5,25.1,3,5,7,0,2026-03-22T11:26:21.607771+05:30
Dharamshala,Himachal Pradesh,32.219,76.3234,18.0,57,0.0,872.2,6.55,20.9,81,18.5,7.4,0,5,7,0,2026-03-22T11:26:21.607778+05:30
Dalhousie,Himachal Pradesh,32.5387,75.971,16.2,46,0.0,806.4,6.85,19.1,83,30.4,21.5,0,5,7,0,2026-03-22T11:26:21.607786+05:30
Patiala,Punjab,30.3398,76.3869,24.0,57,0.0,984.9,6.25,31.7,138,61.7,52.2,0,5,7,0,2026-03-22T11:26:21.607793+05:30
Bhatinda,Punjab,30.211,74.9455,24.8,56,0.0,990.9,6.8,21.6,152,85.0,68.5,0,5,7,0,2026-03-22T11:26:21.607799+05:30
Rohtak,Haryana,28.8955,76.6066,24.8,58,0.0,988.9,6.45,25.6,156,85.4,48.4,0,5,7,0,2026-03-22T11:26:21.607806+05:30
Panipat,Haryana,29.3909,76.9635,24.8,56,0.0,987.1,6.25,32.0,173,57.9,48.4,0,5,7,0,2026-03-22T11:26:21.607812+05:30
Mathura,Uttar Pradesh,27.4924,77.6737,27.4,49,0.0,993.9,6.15,25.6,432,302.7,64.7,4,5,7,0,2026-03-22T11:26:21.607819+05:30
Vrindavan,Uttar Pradesh,27.5823,77.7027,26.7,53,0.0,994.4,6.65,25.2,432,302.7,64.7,4,5,7,1,2026-03-22T11:26:21.607825+05:30
Ayodhya,Uttar Pradesh,26.7922,82.1998,24.8,58,0.0,1002.2,7.05,20.2,105,35.4,29.8,0,5,4,0,2026-03-22T11:26:21.607832+05:30
Ratlam,Madhya Pradesh,23.3315,75.0367,29.0,34,0.0,960.4,7.95,19.1,60,21.2,12.5,4,5,7,0,2026-03-22T11:26:21.607838+05:30
Sagar,Madhya Pradesh,23.8388,78.7378,28.3,33,0.0,956.4,7.95,30.2,52,75.9,20.2,4,5,7,0,2026-03-22T11:26:21.607844+05:30
Satna,Madhya Pradesh,24.6005,80.8322,25.4,53,0.0,977.9,7.9,33.5,62,161.6,31.3,4,5,7,0,2026-03-22T11:26:21.607851+05:30
Akola,Maharashtra,20.7002,77.0082,30.9,28,0.0,981.1,8.3,21.2,51,11.4,8.9,0,5,7,0,2026-03-22T11:26:21.607858+05:30
Amravati,Maharashtra,20.9374,77.7796,31.3,25,0.0,973.3,8.3,22.3,44,11.4,8.8,0,5,7,0,2026-03-22T11:26:21.607866+05:30
Latur,Maharashtra,18.4088,76.5604,30.8,27,0.0,944.5,8.7,28.8,66,22.5,16.2,0,5,7,0,2026-03-22T11:26:21.607872+05:30
Nanded,Maharashtra,19.1383,77.3091,32.8,26,0.0,973.8,8.5,28.4,66,7.3,7.2,0,5,7,0,2026-03-22T11:26:21.607879+05:30
Gulbarga,Karnataka,17.3297,76.8343,32.5,40,0.0,962.8,8.75,18.4,76,36.8,26.8,0,5,7,1,2026-03-22T11:26:21.607885+05:30
Bidar,Karnataka,17.9104,77.5199,31.0,41,0.0,939.9,8.75,22.7,84,53.6,37.0,0,5,7,1,2026-03-22T11:26:21.607891+05:30
Hospet,Karnataka,15.2689,76.3909,31.1,44,0.0,959.3,9.0,15.1,72,35.9,22.4,0,5,7,1,2026-03-22T11:26:21.607897+05:30
Tirupur,Tamil Nadu,11.1085,77.3411,32.4,46,0.0,978.8,9.4,29.9,67,21.3,14.6,0,5,7,1,2026-03-22T11:26:21.607904+05:30
Alappuzha,Kerala,9.4981,76.3388,28.4,78,0.0,1011.3,9.1,31.7,62,21.5,18.5,7,0,4,1,2026-03-22T11:26:21.607910+05:30
Munnar,Kerala,10.0889,77.0595,29.4,40,0.0,861.7,8.65,28.4,68,25.6,15.2,4,5,7,0,2026-03-22T11:26:21.607917+05:30
Silchar,Assam,24.8333,92.7789,24.4,77,0.0,1010.1,7.95,23.4,96,13.5,11.7,3,0,4,1,2026-03-22T11:26:21.607924+05:30
Dibrugarh,Assam,27.4728,94.912,21.2,88,0.0,1000.1,3.55,28.4,120,45.6,35.2,3,5,0,1,2026-03-22T11:26:21.607930+05:30
