city,state,latitude,longitude,temp,humidity,rain,pressure,uv_index,wind_gusts,aqi,pm10,pm2_5,no2,co,o3,so2,mosquito_risk,arthritis_risk,migraine_risk,frizz_risk,updated_at
Delhi,Delhi,28.6139,77.209,26.8,97,0.3,975.4,7.05,22.7,125,69.4,47.5,26.4,596.0,75.0,26.3,10,5,7,1,2026-07-06T02:33:52.582745+05:30
Mumbai,Maharashtra,19.076,72.8777,26.3,91,0.2,999.6,1.15,66.2,36,30.4,13.4,3.7,104.0,53.0,3.1,10,5,3,1,2026-07-06T02:33:52.582792+05:30
Bangalore,Karnataka,12.9716,77.5946,20.7,86,0.0,908.8,6.1,70.6,23,3.7,2.5,3.9,122.0,46.0,2.5,3,5,7,1,2026-07-06T02:33:52.582808+05:30
Hyderabad,Telangana,17.385,78.4867,24.5,80,0.0,946.1,4.1,62.6,22,3.6,2.6,5.0,115.0,43.0,3.3,3,5,3,1,2026-07-06T02:33:52.582818+05:30
Chennai,Tamil Nadu,13.0827,80.2707,30.2,45,0.0,1003.4,7.85,55.4,52,13.2,9.0,8.7,147.0,43.0,6.5,0,5,4,1,2026-07-06T02:33:52.582826+05:30
Kolkata,West Bengal,22.5726,88.3639,26.1,96,0.1,993.5,7.6,40.7,48,13.2,11.1,6.5,190.0,64.0,5.3,10,5,7,1,2026-07-06T02:33:52.582834+05:30
Pune,Maharashtra,18.5204,73.8567,23.3,90,0.1,939.5,1.0,59.4,21,1.2,1.0,3.5,102.0,52.0,3.2,6,5,3,1,2026-07-06T02:33:52.582841+05:30
Ahmedabad,Gujarat,23.0225,72.5714,27.3,94,0.0,991.5,7.25,29.9,80,49.4,26.0,15.5,273.0,44.0,5.7,7,5,7,1,2026-07-06T02:33:52.582847+05:30
Jaipur,Rajasthan,26.9124,75.7873,26.5,96,0.0,951.3,8.15,20.2,72,20.3,18.0,11.1,360.0,78.0,3.9,7,5,7,1,2026-07-06T02:33:52.582854+05:30
Lucknow,Uttar Pradesh,26.8467,80.9462,29.1,91,0.0,984.6,8.15,33.1,91,41.6,41.3,24.8,352.0,48.0,9.6,7,5,7,1,2026-07-06T02:33:52.582865+05:30
Kanpur,Uttar Pradesh,26.4499,80.3319,28.0,95,0.0,983.0,8.0,35.6,77,28.9,28.7,21.9,369.0,49.0,6.0,7,5,7,1,2026-07-06T02:33:52.582872+05:30
Chandigarh,Chandigarh,30.7333,76.7794,25.7,96,0.3,961.4,6.9,22.3,156,48.3,45.8,9.7,346.0,114.0,11.0,10,5,7,1,2026-07-06T02:33:52.582879+05:30
Srinagar,Jammu and Kashmir,34.0837,74.7973,20.3,88,0.0,835.7,9.05,26.3,91,50.5,47.4,25.9,462.0,7.0,1.4,3,5,7,1,2026-07-06T02:33:52.582886+05:30
Jammu,Jammu and Kashmir,32.7266,74.857,29.7,79,0.0,964.5,8.6,28.1,154,85.0,76.4,43.3,372.0,29.0,6.9,7,5,7,1,2026-07-06T02:33:52.582892+05:30
Amritsar,Punjab,31.634,74.8723,29.8,82,0.0,971.8,8.45,37.8,161,88.7,75.4,17.3,611.0,85.0,10.4,7,5,7,1,2026-07-06T02:33:52.582898+05:30
Ludhiana,Punjab,30.901,75.8573,28.1,89,0.0,970.7,7.8,29.9,175,92.0,77.1,18.2,833.0,88.0,7.2,7,5,7,1,2026-07-06T02:33:52.582904+05:30
Jalandhar,Punjab,31.326,75.5762,28.5,89,0.0,971.5,8.2,29.9,170,105.5,80.1,18.7,996.0,84.0,8.3,7,5,7,1,2026-07-06T02:33:52.582912+05:30
Dehradun,Uttarakhand,30.6284,78.0322,19.5,98,0.0,827.1,6.75,29.9,63,15.7,15.4,8.2,232.0,86.0,0.9,3,10,7,1,2026-07-06T02:33:52.582925+05:30
Shimla,Himachal Pradesh,31.1048,77.1734,16.2,97,0.1,780.6,7.45,29.5,77,12.2,11.8,5.8,338.0,108.0,1.5,6,10,7,0,2026-07-06T02:33:52.582931+05:30
Manali,Himachal Pradesh,32.2396,77.1887,19.5,89,0.0,815.2,9.15,36.0,47,5.8,5.8,9.6,214.0,103.0,0.0,3,10,7,1,2026-07-06T02:33:52.582948+05:30
Gurgaon,Haryana,28.4595,77.0266,27.0,96,0.2,974.0,7.0,26.6,119,70.3,47.8,28.3,468.0,68.0,19.5,10,5,7,1,2026-07-06T02:33:52.582955+05:30
Noida,Uttar Pradesh,28.5355,77.391,26.9,96,0.3,977.2,6.4,20.9,119,70.3,47.8,28.3,589.0,68.0,19.5,10,5,7,1,2026-07-06T02:33:52.582962+05:30
Ghaziabad,Uttar Pradesh,28.6692,77.4538,26.5,97,0.1,976.0,7.1,21.2,103,40.6,39.8,16.4,435.0,80.0,9.4,10,5,7,1,2026-07-06T02:33:52.582968+05:30
Faridabad,Haryana,28.4089,77.3178,26.6,95,0.2,976.1,7.0,25.6,119,70.3,47.8,28.3,606.0,68.0,19.5,10,5,7,1,2026-07-06T02:33:52.582975+05:30
Meerut,Uttar Pradesh,28.9845,77.7064,27.6,92,0.0,973.8,6.3,28.4,103,40.6,39.8,16.4,424.0,80.0,9.4,7,5,7,1,2026-07-06T02:33:52.582981+05:30
Agra,Uttar Pradesh,27.1767,78.0081,26.7,98,0.3,979.3,8.05,23.0,99,53.8,37.8,33.7,316.0,36.0,9.5,10,5,7,1,2026-07-06T02:33:52.582987+05:30
Varanasi,Uttar Pradesh,25.3176,82.9739,29.0,80,0.0,987.6,5.7,50.0,83,22.7,21.8,15.8,284.0,65.0,8.2,7,5,3,1,2026-07-06T02:33:52.582994+05:30
Prayagraj,Uttar Pradesh,25.4358,81.8463,29.2,87,0.0,985.9,7.05,45.7,87,31.8,31.8,20.4,341.0,58.0,7.6,7,5,7,1,2026-07-06T02:33:52.583001+05:30
Gorakhpur,Uttar Pradesh,26.7606,83.3732,29.7,80,0.0,988.1,5.65,49.3,86,30.3,29.6,16.5,425.0,67.0,5.8,7,5,3,1,2026-07-06T02:33:52.583007+05:30
Bareilly,Uttar Pradesh,28.367,79.4304,27.9,91,0.0,978.3,5.35,22.3,84,29.4,29.2,19.1,389.0,49.0,3.6,7,5,3,1,2026-07-06T02:33:52.583015+05:30
Aligarh,Uttar Pradesh,27.8974,78.088,26.5,95,0.3,977.8,6.0,23.0,98,59.0,50.5,30.1,316.0,43.0,8.5,10,5,3,1,2026-07-06T02:33:52.583023+05:30
Moradabad,Uttar Pradesh,28.8386,78.7733,28.4,84,0.0,975.6,4.5,22.7,100,38.9,38.6,21.7,397.0,54.0,7.3,7,5,3,1,2026-07-06T02:33:52.583029+05:30
Saharanpur,Uttar Pradesh,29.9637,77.546,26.3,97,0.2,969.1,5.8,26.3,141,32.7,32.4,8.6,322.0,99.0,4.3,10,5,3,1,2026-07-06T02:33:52.583035+05:30
Jhansi,Uttar Pradesh,25.4484,78.5685,27.8,92,0.0,968.9,8.3,29.2,69,23.3,22.8,12.6,227.0,77.0,3.7,7,5,7,1,2026-07-06T02:33:55.954231+05:30
Surat,Gujarat,21.1702,72.8311,26.5,99,0.0,995.9,6.35,38.9,81,28.8,22.4,32.5,418.0,25.0,43.3,7,5,7,1,2026-07-06T02:33:55.954263+05:30
Vadodara,Gujarat,22.3072,73.1812,26.8,95,0.0,993.6,7.45,24.8,70,30.4,23.6,21.9,260.0,30.0,10.4,7,5,7,1,2026-07-06T02:33:55.954273+05:30
Rajkot,Gujarat,22.3039,70.8022,27.8,84,0.0,984.4,7.55,39.2,70,45.5,20.3,6.6,99.0,41.0,4.9,7,5,7,1,2026-07-06T02:33:55.954281+05:30
Thane,Maharashtra,19.2183,72.9781,25.3,96,0.4,998.7,0.5,48.6,36,30.4,13.4,3.7,112.0,53.0,3.1,10,5,3,1,2026-07-06T02:33:55.954289+05:30
Nagpur,Maharashtra,21.1458,79.0882,25.5,90,0.0,963.7,6.4,32.4,40,9.7,9.7,14.8,155.0,31.0,10.4,7,5,7,1,2026-07-06T02:33:55.954297+05:30
Nashik,Maharashtra,19.9975,73.7898,23.1,97,0.1,935.6,1.5,31.0,20,1.4,1.2,5.9,104.0,44.0,3.1,6,5,3,1,2026-07-06T02:33:55.954304+05:30
Aurangabad,Maharashtra,19.8762,75.3433,22.9,96,0.2,934.6,3.25,34.9,21,1.7,1.4,5.4,113.0,45.0,5.4,6,5,3,1,2026-07-06T02:33:55.954311+05:30
Solapur,Maharashtra,17.6599,75.9064,23.7,93,0.0,950.3,1.3,68.8,21,1.8,1.6,3.4,108.0,46.0,1.7,3,5,3,1,2026-07-06T02:33:55.954319+05:30
Kolhapur,Maharashtra,16.705,74.2433,22.4,96,0.1,941.5,0.85,69.1,23,3.2,2.1,2.1,106.0,50.0,1.1,6,5,3,1,2026-07-06T02:33:55.954326+05:30
Goa,Goa,15.2993,74.124,24.2,97,0.1,994.0,2.6,44.3,50,28.4,14.0,1.3,125.0,56.0,0.5,6,5,3,1,2026-07-06T02:33:55.954333+05:30
Jodhpur,Rajasthan,26.2389,73.0243,29.5,82,0.0,972.7,8.45,31.0,102,73.1,24.0,6.2,188.0,69.0,2.5,7,5,7,1,2026-07-06T02:33:55.954341+05:30
Udaipur,Rajasthan,24.5854,73.7125,25.8,96,0.0,936.6,7.55,32.8,72,33.3,22.4,12.8,263.0,42.0,3.0,7,5,7,1,2026-07-06T02:33:55.954348+05:30
Kota,Rajasthan,25.2138,75.8648,26.9,96,0.0,969.2,8.25,32.8,74,26.3,24.0,11.5,365.0,69.0,5.3,7,5,7,1,2026-07-06T02:33:55.954355+05:30
Bikaner,Rajasthan,28.0229,73.3119,29.6,74,0.0,972.3,8.45,34.2,138,71.9,34.7,4.6,202.0,72.0,3.4,7,5,7,1,2026-07-06T02:33:55.954362+05:30
Ajmer,Rajasthan,26.4499,74.6399,27.1,88,0.0,945.5,8.3,24.5,85,25.4,18.4,11.1,510.0,60.0,2.2,7,5,7,1,2026-07-06T02:33:55.954369+05:30
Gwalior,Madhya Pradesh,26.2183,78.1828,26.6,97,0.1,974.6,8.15,36.7,70,24.2,23.6,19.4,240.0,54.0,4.7,10,5,7,1,2026-07-06T02:33:55.954376+05:30
Indore,Madhya Pradesh,22.7196,75.8577,25.6,93,0.0,938.1,8.2,25.2,68,38.6,38.1,19.8,819.0,46.0,5.6,7,5,7,1,2026-07-06T02:33:55.954383+05:30
Bhopal,Madhya Pradesh,23.2599,77.4126,25.5,95,0.0,944.0,8.3,19.4,69,21.0,20.5,11.1,375.0,64.0,2.7,7,5,7,1,2026-07-06T02:33:55.954390+05:30
Jabalpur,Madhya Pradesh,23.1815,79.9864,25.7,95,0.0,951.6,8.25,23.4,67,13.0,12.9,6.5,215.0,73.0,2.0,7,5,7,1,2026-07-06T02:33:55.954397+05:30
Ujjain,Madhya Pradesh,23.1765,75.7885,25.5,96,0.0,943.8,7.7,26.3,65,33.4,32.5,13.5,868.0,53.0,3.7,7,5,7,1,2026-07-06T02:33:55.954404+05:30
Visakhapatnam,Andhra Pradesh,17.6868,83.2185,28.1,71,0.0,994.9,8.4,65.9,33,9.8,7.6,10.1,193.0,44.0,16.4,7,5,7,1,2026-07-06T02:33:55.954411+05:30
Vijayawada,Andhra Pradesh,16.5062,80.648,29.0,61,0.0,996.0,2.2,58.7,35,8.7,6.3,6.0,115.0,40.0,4.3,7,5,3,1,2026-07-06T02:33:55.954418+05:30
Guntur,Andhra Pradesh,16.3067,80.4365,28.8,61,0.0,997.6,2.95,62.6,31,6.8,4.7,5.3,108.0,41.0,4.1,7,5,3,1,2026-07-06T02:33:55.954426+05:30
Nellore,Andhra Pradesh,14.4426,79.9865,30.3,49,0.0,1001.2,8.2,55.1,30,8.1,4.9,3.6,111.0,47.0,2.6,0,5,4,1,2026-07-06T02:33:55.954433+05:30
Kurnool,Andhra Pradesh,15.8281,78.0373,26.0,74,0.0,971.9,5.6,68.4,22,4.0,2.5,3.9,104.0,45.0,2.8,7,5,3,1,2026-07-06T02:33:55.954442+05:30
Kakinada,Andhra Pradesh,16.9891,82.2475,29.5,57,0.0,999.8,5.5,65.2,38,14.1,9.8,6.4,190.0,49.0,4.5,4,5,3,1,2026-07-06T02:33:55.954448+05:30
Tirupati,Andhra Pradesh,13.6288,79.4192,27.5,54,0.0,987.3,8.55,58.3,31,7.5,5.0,4.6,110.0,43.0,1.9,4,5,7,1,2026-07-06T02:33:55.954455+05:30
Warangal,Telangana,17.9689,79.5941,27.1,69,0.0,971.3,2.1,47.9,22,3.8,3.0,5.0,117.0,43.0,2.8,7,5,3,1,2026-07-06T02:33:55.954462+05:30
Nizamabad,Telangana,18.6725,78.0941,25.5,77,0.0,956.7,2.65,57.6,21,2.7,2.4,4.6,114.0,41.0,2.9,7,5,3,1,2026-07-06T02:33:55.954469+05:30
Mysore,Karnataka,12.2958,76.6396,21.6,89,0.0,926.3,7.6,70.2,22,2.5,1.7,2.5,95.0,48.0,1.3,3,5,7,1,2026-07-06T02:33:55.954476+05:30
Mangalore,Karnataka,12.9141,74.856,26.6,82,0.0,1004.9,7.1,59.8,54,28.9,13.9,3.1,90.0,47.0,1.6,7,5,4,1,2026-07-06T02:33:55.954483+05:30
Hubli-Dharwad,Karnataka,15.3647,75.124,21.8,98,0.0,936.0,4.75,63.7,23,1.5,1.0,1.5,91.0,53.0,0.7,3,5,3,1,2026-07-06T02:33:55.954489+05:30
Belgaum,Karnataka,15.8497,74.4977,21.2,97,0.1,920.3,1.95,62.6,24,2.5,1.5,1.7,94.0,53.0,0.9,6,5,3,1,2026-07-06T02:33:59.347281+05:30
Coimbatore,Tamil Nadu,11.0168,76.9558,22.9,93,0.0,960.1,8.4,63.4,22,7.5,4.0,2.6,99.0,45.0,1.6,3,5,7,1,2026-07-06T02:33:59.347314+05:30
Madurai,Tamil Nadu,9.9252,78.1198,27.0,67,0.0,991.6,7.85,76.3,51,24.4,16.8,17.6,97.0,21.0,4.1,7,5,7,1,2026-07-06T02:33:59.347325+05:30
Trichy,Tamil Nadu,10.7905,78.7047,29.3,53,0.0,997.4,8.1,76.7,40,14.8,8.7,4.2,106.0,45.0,2.2,4,5,7,1,2026-07-06T02:33:59.347334+05:30
Salem,Tamil Nadu,11.6643,78.146,23.8,87,0.0,975.8,8.3,43.6,45,18.1,13.4,13.5,150.0,29.0,5.2,3,5,7,1,2026-07-06T02:33:59.347342+05:30
Tirunelveli,Tamil Nadu,8.7139,77.7567,27.3,71,0.0,1002.6,8.65,59.4,38,12.8,8.0,5.2,108.0,36.0,1.8,7,5,4,1,2026-07-06T02:33:59.347350+05:30
Vellore,Tamil Nadu,12.9165,79.1325,27.0,58,0.0,981.4,8.1,58.0,31,7.8,5.2,4.6,112.0,43.0,2.3,4,5,7,1,2026-07-06T02:33:59.347357+05:30
Erode,Tamil Nadu,11.341,77.7172,25.1,83,0.0,987.5,8.35,63.4,38,12.9,9.5,10.1,110.0,35.0,3.0,7,5,7,1,2026-07-06T02:33:59.347364+05:30
Kochi,Kerala,9.9312,76.2673,27.0,84,0.1,1008.9,7.7,49.3,52,18.4,10.4,5.4,86.0,38.0,2.4,10,0,4,1,2026-07-06T02:33:59.347372+05:30
Thiruvananthapuram,Kerala,8.5241,76.9366,25.0,92,0.0,1008.8,8.4,48.2,52,25.7,12.3,1.8,86.0,53.0,0.8,7,0,4,1,2026-07-06T02:33:59.347379+05:30
Kozhikode,Kerala,11.2588,75.7804,23.8,98,0.1,1008.2,8.05,38.5,51,26.6,12.6,0.7,92.0,57.0,0.6,6,0,4,1,2026-07-06T02:33:59.347387+05:30
Thrissur,Kerala,10.5276,76.2144,24.7,94,0.0,1007.2,8.1,46.4,50,19.0,11.8,6.1,95.0,34.0,2.4,3,5,4,1,2026-07-06T02:33:59.347394+05:30
Kannur,Kerala,11.8745,75.3704,25.5,92,0.0,1006.5,8.6,42.1,49,20.9,10.6,4.7,104.0,35.0,1.1,7,5,4,1,2026-07-06T02:33:59.347401+05:30
Patna,Bihar,25.5941,85.1376,28.4,81,0.0,990.5,6.35,56.5,62,11.5,11.4,8.3,210.0,65.0,5.0,7,5,7,1,2026-07-06T02:33:59.347408+05:30
Gaya,Bihar,24.7914,85.0002,27.0,89,0.0,983.1,5.9,53.3,57,10.2,10.1,9.5,203.0,65.0,7.5,7,5,3,1,2026-07-06T02:33:59.347415+05:30
Muzaffarpur,Bihar,26.1209,85.3647,28.6,79,0.0,990.9,4.15,56.2,62,11.6,11.4,7.5,238.0,65.0,4.0,7,5,3,1,2026-07-06T02:33:59.347422+05:30
Bhagalpur,Bihar,25.2425,87.0117,27.5,86,0.1,990.9,6.65,60.5,48,6.6,6.5,9.1,217.0,60.0,4.6,10,5,7,1,2026-07-06T02:33:59.347428+05:30
Ranchi,Jharkhand,23.3441,85.3096,23.1,99,0.0,925.8,1.2,32.0,50,9.2,9.2,10.5,202.0,62.0,12.3,3,5,3,1,2026-07-06T02:33:59.347435+05:30
Jamshedpur,Jharkhand,22.8046,86.2029,25.5,97,0.1,977.2,8.2,31.3,49,15.1,14.8,16.9,354.0,51.0,21.8,10,5,7,1,2026-07-06T02:33:59.347442+05:30
Dhanbad,Jharkhand,23.7957,86.4304,25.2,95,0.1,967.7,4.95,47.2,58,17.8,17.2,24.2,227.0,49.0,51.7,10,5,3,1,2026-07-06T02:33:59.347448+05:30
Bokaro,Jharkhand,23.6693,86.1511,25.5,93,0.0,971.4,3.65,40.3,58,16.5,16.2,22.8,234.0,47.0,48.9,7,5,3,1,2026-07-06T02:33:59.347455+05:30
Bhubaneswar,Odisha,20.2961,85.8245,25.5,94,0.1,989.5,8.6,66.6,30,4.2,4.2,5.5,157.0,66.0,1.6,10,5,7,1,2026-07-06T02:33:59.347462+05:30
Cuttack,Odisha,20.4625,85.8828,25.7,94,0.0,991.1,8.6,62.6,30,4.2,4.2,5.5,170.0,66.0,1.6,7,5,7,1,2026-07-06T02:33:59.347468+05:30
Rourkela,Odisha,22.2604,84.8536,26.0,91,0.0,971.7,0.9,34.9,54,18.6,18.5,13.5,236.0,50.0,8.2,7,5,3,1,2026-07-06T02:33:59.347475+05:30
Raipur,Chhattisgarh,21.2514,81.6296,24.9,96,0.8,964.2,1.8,46.4,62,13.4,13.4,21.2,246.0,41.0,31.4,6,5,3,1,2026-07-06T02:33:59.347482+05:30
Bhilai,Chhattisgarh,21.1938,81.3509,24.9,97,0.7,964.7,2.05,44.6,57,12.0,11.9,16.8,442.0,41.0,23.8,6,5,3,1,2026-07-06T02:33:59.347489+05:30
Guwahati,Assam,26.1158,91.7086,26.2,96,0.1,995.7,3.15,23.4,29,10.5,10.4,9.5,206.0,29.0,1.3,10,5,3,1,2026-07-06T02:33:59.347495+05:30
Agartala,Tripura,23.8315,91.2868,25.3,98,0.1,999.6,2.45,46.4,27,3.6,3.4,5.8,127.0,46.0,1.6,10,5,3,1,2026-07-06T02:33:59.347502+05:30
Shillong,Meghalaya,25.5788,91.8933,19.6,98,0.1,852.7,3.3,37.1,23,0.8,0.7,2.7,142.0,50.0,0.8,6,10,3,1,2026-07-06T02:33:59.347509+05:30
Imphal,Manipur,24.817,93.9368,23.5,97,0.1,919.1,7.8,27.0,22,8.5,8.4,6.5,215.0,29.0,1.6,6,5,7,1,2026-07-06T02:33:59.347516+05:30
Aizawl,Mizoram,23.7271,92.7176,20.6,96,0.0,887.7,1.45,41.4,17,1.7,1.6,3.0,142.0,32.0,0.6,3,5,3,1,2026-07-06T02:33:59.347522+05:30
Kohima,Nagaland,25.6701,94.1077,20.4,89,0.0,851.5,7.5,26.3,16,5.9,5.8,7.7,132.0,23.0,0.9,3,5,7,1,2026-07-06T02:33:59.347529+05:30
Gangtok,Sikkim,27.3314,88.6138,18.0,99,0.0,833.6,4.4,29.9,44,6.3,6.0,7.3,222.0,69.0,0.8,3,10,3,1,2026-07-06T02:33:59.347535+05:30
Siliguri,West Bengal,26.7271,88.3953,25.0,90,0.1,986.4,3.2,42.5,43,8.1,8.0,5.0,181.0,76.0,1.5,10,5,3,1,2026-07-06T02:34:02.749921+05:30
Durgapur,West Bengal,23.5204,87.3119,25.6,97,0.0,982.5,7.15,38.5,51,13.5,12.8,14.9,226.0,57.0,18.6,7,5,7,1,2026-07-06T02:34:02.749959+05:30
Asansol,West Bengal,23.6739,86.9524,25.5,97,0.0,981.3,6.55,40.0,49,13.0,12.1,16.1,226.0,58.0,22.6,7,5,7,1,2026-07-06T02:34:02.749971+05:30
Pondicherry,Puducherry,11.9139,79.8145,27.6,60,0.0,1005.3,8.2,51.8,52,18.8,13.4,12.1,148.0,37.0,7.2,4,5,4,1,2026-07-06T02:34:02.749980+05:30
Port Blair,Andaman and Nicobar Islands,11.6234,92.7265,27.7,85,0.0,1006.3,8.65,40.7,50,16.4,9.7,0.2,89.0,53.0,0.5,7,5,4,1,2026-07-06T02:34:02.749988+05:30
Haridwar,Uttarakhand,29.9457,78.1642,28.0,88,0.0,966.9,6.8,27.7,101,29.4,29.0,7.6,337.0,93.0,3.4,7,5,7,1,2026-07-06T02:34:02.749996+05:30
Rishikesh,Uttarakhand,30.0869,78.2676,25.6,94,0.0,960.3,6.2,23.0,70,21.7,21.2,4.4,280.0,104.0,2.1,7,5,7,1,2026-07-06T02:34:02.750004+05:30
Nainital,Uttarakhand,29.3919,79.4542,16.7,98,0.0,801.5,3.4,28.8,46,11.2,11.1,11.6,274.0,65.0,1.5,3,10,3,1,2026-07-06T02:34:02.750012+05:30
Mussoorie,Uttarakhand,30.4599,78.0664,17.3,100,0.1,799.6,7.7,32.0,92,25.1,24.6,4.9,294.0,118.0,3.1,6,10,7,1,2026-07-06T02:34:02.750020+05:30
Dharamshala,Himachal Pradesh,32.219,76.3234,22.4,85,0.0,864.2,7.75,29.5,28,4.7,4.7,8.1,316.0,55.0,0.1,3,5,7,1,2026-07-06T02:34:02.750028+05:30
Dalhousie,Himachal Pradesh,32.5387,75.971,17.3,92,0.0,799.9,8.7,31.3,76,27.6,24.8,15.4,300.0,76.0,2.3,3,10,7,1,2026-07-06T02:34:02.750035+05:30
Patiala,Punjab,30.3398,76.3869,25.9,97,0.0,971.2,6.65,26.3,174,69.2,54.0,12.7,568.0,93.0,6.9,7,5,7,1,2026-07-06T02:34:02.750043+05:30
Bhatinda,Punjab,30.211,74.9455,30.6,77,0.0,974.8,8.1,23.0,158,133.2,62.4,19.9,496.0,77.0,7.3,3,5,7,1,2026-07-06T02:34:02.750049+05:30
Rohtak,Haryana,28.8955,76.6066,26.8,96,0.3,973.6,6.65,24.5,141,79.6,55.6,35.7,522.0,51.0,25.9,10,5,7,1,2026-07-06T02:34:02.750056+05:30
Panipat,Haryana,29.3909,76.9635,27.1,96,0.2,972.8,6.2,24.1,156,53.3,48.0,21.4,553.0,75.0,15.8,10,5,7,1,2026-07-06T02:34:02.750063+05:30
Mathura,Uttar Pradesh,27.4924,77.6737,26.9,96,0.2,978.7,7.3,21.6,105,58.6,44.0,35.4,349.0,35.0,7.8,10,5,7,1,2026-07-06T02:34:02.750069+05:30
Vrindavan,Uttar Pradesh,27.5823,77.7027,26.9,95,0.2,979.1,7.3,22.3,105,58.6,44.0,35.4,322.0,35.0,7.8,10,5,7,1,2026-07-06T02:34:02.750076+05:30
Ayodhya,Uttar Pradesh,26.7922,82.1998,29.4,84,0.0,986.4,7.95,39.6,92,39.8,39.0,22.4,416.0,52.0,7.1,7,5,7,1,2026-07-06T02:34:02.750083+05:30
Ratlam,Madhya Pradesh,23.3315,75.0367,26.3,89,0.0,944.8,6.5,28.4,59,26.0,24.0,9.6,360.0,61.0,2.8,7,5,7,1,2026-07-06T02:34:02.750090+05:30
Sagar,Madhya Pradesh,23.8388,78.7378,25.6,91,0.0,940.8,7.9,25.6,66,12.2,11.9,4.9,222.0,85.0,1.2,7,5,7,1,2026-07-06T02:34:02.750097+05:30
Satna,Madhya Pradesh,24.6005,80.8322,25.7,98,0.0,961.7,6.55,33.1,60,22.2,22.1,14.3,338.0,57.0,3.2,7,5,7,1,2026-07-06T02:34:02.750104+05:30
Akola,Maharashtra,20.7002,77.0082,26.7,78,0.0,965.8,7.45,30.2,22,3.5,3.4,9.3,143.0,35.0,6.8,7,5,7,1,2026-07-06T02:34:02.750112+05:30
Amravati,Maharashtra,20.9374,77.7796,26.4,80,0.0,958.2,3.75,30.6,23,3.8,3.7,9.5,142.0,35.0,7.5,7,5,3,1,2026-07-06T02:34:02.750120+05:30
Latur,Maharashtra,18.4088,76.5604,22.8,94,0.8,932.1,2.25,60.5,21,1.9,1.7,3.7,115.0,44.0,1.8,6,5,3,1,2026-07-06T02:34:02.750128+05:30
Nanded,Maharashtra,19.1383,77.3091,24.8,88,0.1,960.1,1.95,55.1,22,3.7,2.4,4.4,117.0,44.0,3.3,6,5,3,1,2026-07-06T02:34:02.750135+05:30
Gulbarga,Karnataka,17.3297,76.8343,24.5,84,0.0,952.0,1.25,66.6,21,2.7,1.9,3.9,107.0,45.0,2.1,3,5,3,1,2026-07-06T02:34:02.750141+05:30
Bidar,Karnataka,17.9104,77.5199,23.1,89,0.0,927.8,1.65,63.7,21,2.8,2.2,4.1,112.0,43.0,2.1,3,5,3,1,2026-07-06T02:34:02.750148+05:30
Hospet,Karnataka,15.2689,76.3909,23.6,87,0.0,951.3,6.25,70.6,23,1.5,1.0,2.1,99.0,52.0,1.1,3,5,7,1,2026-07-06T02:34:02.750154+05:30
Tirupur,Tamil Nadu,11.1085,77.3411,23.5,91,0.0,973.4,8.45,72.7,40,15.3,11.3,12.1,102.0,31.0,3.5,3,5,7,1,2026-07-06T02:34:02.750160+05:30
Alappuzha,Kerala,9.4981,76.3388,27.1,84,0.0,1009.2,7.95,43.9,54,22.8,12.6,4.7,83.0,44.0,1.7,7,0,4,1,2026-07-06T02:34:02.750168+05:30
Munnar,Kerala,10.0889,77.0595,16.3,100,0.2,855.3,6.75,57.2,24,3.6,2.7,5.1,92.0,27.0,1.6,6,10,7,1,2026-07-06T02:34:02.750175+05:30
Silchar,Assam,24.8333,92.7789,26.1,97,0.3,999.7,3.45,32.0,41,7.0,7.0,5.9,182.0,46.0,1.7,10,5,3,1,2026-07-06T02:34:02.750182+05:30
Dibrugarh,Assam,27.4728,94.912,28.3,78,0.0,988.9,7.0,31.3,44,14.1,14.0,15.8,186.0,10.0,0.7,7,5,7,1,2026-07-06T02:34:02.750189+05:30
