city,state,latitude,longitude,temp,humidity,rain,pressure,uv_index,wind_gusts,aqi,pm10,pm2_5,no2,co,o3,so2,mosquito_risk,arthritis_risk,migraine_risk,frizz_risk,updated_at
Delhi,Delhi,28.6139,77.209,35.2,34,0.0,979.6,7.6,41.0,367,560.7,92.2,6.9,432.0,230.0,27.3,0,5,10,1,2026-05-03T11:58:36.887592+05:30
Mumbai,Maharashtra,19.076,72.8777,32.6,59,0.0,1008.0,7.85,40.3,72,54.7,27.6,5.9,219.0,128.0,26.6,0,0,4,1,2026-05-03T11:58:36.887636+05:30
Bangalore,Karnataka,12.9716,77.5946,32.2,35,0.0,913.1,7.5,32.8,73,47.4,19.5,3.7,284.0,133.0,5.2,0,5,7,0,2026-05-03T11:58:36.887652+05:30
Hyderabad,Telangana,17.385,78.4867,38.0,19,0.0,952.4,9.25,35.6,66,40.5,17.9,2.9,218.0,155.0,8.8,0,5,10,0,2026-05-03T11:58:36.887663+05:30
Chennai,Tamil Nadu,13.0827,80.2707,38.2,35,0.0,1005.1,8.6,51.5,61,32.0,24.7,3.7,313.0,163.0,9.5,0,5,7,1,2026-05-03T11:58:36.887680+05:30
Kolkata,West Bengal,22.5726,88.3639,31.1,69,0.0,1004.5,8.95,33.1,75,23.9,18.7,4.7,314.0,133.0,8.5,3,5,4,1,2026-05-03T11:58:36.887689+05:30
Pune,Maharashtra,18.5204,73.8567,36.0,22,0.0,948.4,8.5,47.2,63,60.3,17.5,1.9,170.0,116.0,4.5,0,5,10,0,2026-05-03T11:58:36.887697+05:30
Ahmedabad,Gujarat,23.0225,72.5714,36.5,32,0.0,998.6,8.1,46.8,63,32.9,14.1,2.2,184.0,126.0,6.2,0,5,10,1,2026-05-03T11:58:36.887708+05:30
Jaipur,Rajasthan,26.9124,75.7873,37.0,24,0.0,956.0,8.15,49.0,109,244.0,38.8,1.7,193.0,142.0,4.9,0,5,10,0,2026-05-03T11:58:36.887716+05:30
Lucknow,Uttar Pradesh,26.8467,80.9462,31.8,48,0.0,992.5,8.1,51.8,93,58.1,37.3,2.2,350.0,194.0,12.1,0,5,7,1,2026-05-03T11:58:36.887724+05:30
Kanpur,Uttar Pradesh,26.4499,80.3319,33.8,43,0.0,989.7,8.1,47.2,133,339.0,59.6,2.4,380.0,208.0,14.8,0,5,7,1,2026-05-03T11:58:36.887733+05:30
Chandigarh,Chandigarh,30.7333,76.7794,34.2,31,0.0,965.5,7.6,49.3,88,166.2,42.6,1.8,319.0,198.0,12.9,0,5,7,0,2026-05-03T11:58:36.887740+05:30
Srinagar,Jammu and Kashmir,34.0837,74.7973,16.9,63,0.0,841.6,8.75,36.7,72,34.1,11.9,1.6,228.0,147.0,1.8,3,5,7,0,2026-05-03T11:58:36.887749+05:30
Jammu,Jammu and Kashmir,32.7266,74.857,35.0,22,0.0,969.0,8.15,41.4,60,36.1,13.9,1.6,261.0,165.0,2.7,0,5,7,0,2026-05-03T11:58:36.887756+05:30
Amritsar,Punjab,31.634,74.8723,35.8,29,0.0,975.9,8.2,49.7,80,133.2,39.6,1.7,357.0,184.0,13.5,0,5,10,0,2026-05-03T11:58:36.887763+05:30
Ludhiana,Punjab,30.901,75.8573,35.0,31,0.0,974.4,7.85,49.0,132,605.4,95.5,2.2,344.0,205.0,17.3,0,5,7,0,2026-05-03T11:58:36.887771+05:30
Jalandhar,Punjab,31.326,75.5762,34.9,32,0.0,975.1,8.05,47.5,106,355.8,75.2,2.6,320.0,207.0,19.7,0,5,7,0,2026-05-03T11:58:36.887778+05:30
Dehradun,Uttarakhand,30.6284,78.0322,22.6,45,0.0,831.0,7.75,45.0,63,48.7,14.2,0.7,241.0,156.0,4.4,0,5,7,0,2026-05-03T11:58:36.887787+05:30
Shimla,Himachal Pradesh,31.1048,77.1734,21.5,37,0.0,785.7,8.0,41.0,66,35.6,10.8,0.7,172.0,155.0,1.7,0,5,7,0,2026-05-03T11:58:36.887795+05:30
Manali,Himachal Pradesh,32.2396,77.1887,20.1,40,0.0,816.9,9.7,39.6,112,16.4,7.0,0.7,142.0,166.0,0.5,0,5,7,0,2026-05-03T11:58:36.887802+05:30
Gurgaon,Haryana,28.4595,77.0266,35.7,30,0.0,978.0,7.7,45.4,1028,1803.0,200.2,5.1,412.0,209.0,19.1,0,5,10,0,2026-05-03T11:58:36.887809+05:30
Noida,Uttar Pradesh,28.5355,77.391,34.2,40,0.0,981.5,7.6,38.2,1028,1803.0,200.2,5.1,382.0,209.0,19.1,0,5,7,1,2026-05-03T11:58:36.887818+05:30
Ghaziabad,Uttar Pradesh,28.6692,77.4538,33.8,40,0.0,979.8,7.6,42.1,222,437.7,66.6,2.6,340.0,201.0,11.6,0,5,7,1,2026-05-03T11:58:36.887825+05:30
Faridabad,Haryana,28.4089,77.3178,34.2,37,0.0,980.5,7.65,42.5,1028,1803.0,200.2,5.1,374.0,209.0,19.1,0,5,7,1,2026-05-03T11:58:36.887832+05:30
Meerut,Uttar Pradesh,28.9845,77.7064,31.5,48,0.0,979.3,7.5,46.8,222,437.7,66.6,2.6,348.0,201.0,11.6,0,5,7,1,2026-05-03T11:58:36.887838+05:30
Agra,Uttar Pradesh,27.1767,78.0081,37.2,27,0.0,984.3,7.95,58.3,667,724.6,84.5,2.6,314.0,189.0,14.0,0,5,10,0,2026-05-03T11:58:36.887845+05:30
Varanasi,Uttar Pradesh,25.3176,82.9739,34.2,43,0.0,996.2,8.65,38.9,109,64.3,42.6,2.6,418.0,205.0,18.6,0,5,7,1,2026-05-03T11:58:36.887853+05:30
Prayagraj,Uttar Pradesh,25.4358,81.8463,35.2,40,0.0,994.0,8.5,33.5,107,58.3,40.7,2.8,377.0,211.0,15.5,0,5,10,1,2026-05-03T11:58:36.887862+05:30
Gorakhpur,Uttar Pradesh,26.7606,83.3732,29.5,55,0.0,997.7,7.95,40.3,93,51.7,27.2,1.7,311.0,173.0,5.4,4,5,7,1,2026-05-03T11:58:36.887870+05:30
Bareilly,Uttar Pradesh,28.367,79.4304,31.0,47,0.0,985.6,7.9,47.9,128,186.3,47.6,2.2,349.0,194.0,12.4,0,5,7,1,2026-05-03T11:58:36.887877+05:30
Aligarh,Uttar Pradesh,27.8974,78.088,34.3,39,0.0,982.8,7.75,40.7,528,994.7,115.9,2.4,344.0,196.0,16.5,0,5,7,1,2026-05-03T11:58:36.887884+05:30
Moradabad,Uttar Pradesh,28.8386,78.7733,31.6,44,0.0,982.3,7.75,49.0,129,73.1,34.3,2.6,336.0,198.0,14.0,0,5,7,1,2026-05-03T11:58:36.887891+05:30
Saharanpur,Uttar Pradesh,29.9637,77.546,31.4,47,0.0,973.3,7.05,47.9,137,184.9,45.4,1.7,320.0,192.0,16.7,0,5,7,1,2026-05-03T11:58:36.887898+05:30
Jhansi,Uttar Pradesh,25.4484,78.5685,39.0,19,0.0,974.6,8.4,37.1,76,80.6,24.4,1.9,190.0,147.0,22.3,0,5,10,0,2026-05-03T11:58:40.181813+05:30
Surat,Gujarat,21.1702,72.8311,34.0,53,0.0,1005.1,7.7,54.7,65,36.1,18.8,10.5,234.0,77.0,31.0,0,5,4,1,2026-05-03T11:58:40.181846+05:30
Vadodara,Gujarat,22.3072,73.1812,37.2,30,0.0,1001.3,8.05,51.8,58,36.8,17.2,2.7,162.0,121.0,9.3,0,5,7,1,2026-05-03T11:58:40.181857+05:30
Rajkot,Gujarat,22.3039,70.8022,37.7,30,0.0,991.0,7.7,51.5,54,26.7,10.5,1.2,153.0,114.0,5.0,0,5,10,1,2026-05-03T11:58:40.181865+05:30
Thane,Maharashtra,19.2183,72.9781,35.5,46,0.0,1006.9,7.9,40.0,72,54.7,27.6,5.9,244.0,128.0,26.6,0,5,7,1,2026-05-03T11:58:40.181874+05:30
Nagpur,Maharashtra,21.1458,79.0882,39.8,17,0.0,971.2,8.9,38.9,72,64.5,27.2,9.1,185.0,172.0,39.4,0,5,10,0,2026-05-03T11:58:40.181882+05:30
Nashik,Maharashtra,19.9975,73.7898,34.5,31,0.0,945.6,8.15,47.9,65,50.6,18.7,1.8,167.0,123.0,4.7,0,5,7,0,2026-05-03T11:58:40.181890+05:30
Aurangabad,Maharashtra,19.8762,75.3433,37.3,16,0.0,944.0,9.05,49.3,57,31.9,10.4,1.2,158.0,123.0,3.1,0,5,10,0,2026-05-03T11:58:40.181897+05:30
Solapur,Maharashtra,17.6599,75.9064,38.4,17,0.0,956.8,9.1,38.5,55,69.4,17.4,1.3,174.0,115.0,2.7,0,5,10,0,2026-05-03T11:58:40.181905+05:30
Kolhapur,Maharashtra,16.705,74.2433,35.4,32,0.0,948.4,8.95,48.2,64,53.3,19.3,1.9,162.0,110.0,1.8,0,5,10,1,2026-05-03T11:58:40.181913+05:30
Goa,Goa,15.2993,74.124,35.8,45,0.0,997.8,8.9,37.8,69,56.8,18.0,0.8,171.0,86.0,1.5,0,5,10,1,2026-05-03T11:58:40.181920+05:30
Jodhpur,Rajasthan,26.2389,73.0243,36.0,27,0.0,978.2,8.3,58.0,136,264.5,40.6,1.2,167.0,126.0,5.3,0,5,10,0,2026-05-03T11:58:40.181928+05:30
Udaipur,Rajasthan,24.5854,73.7125,33.8,30,0.0,944.0,8.8,39.6,63,35.9,13.6,1.0,152.0,120.0,4.2,0,5,7,0,2026-05-03T11:58:40.181935+05:30
Kota,Rajasthan,25.2138,75.8648,38.0,29,0.0,975.0,8.35,36.7,73,71.9,24.5,1.6,175.0,141.0,7.0,0,5,10,1,2026-05-03T11:58:40.181942+05:30
Bikaner,Rajasthan,28.0229,73.3119,40.2,14,0.0,975.5,8.25,56.5,71,166.2,29.3,0.8,218.0,138.0,12.7,0,5,10,0,2026-05-03T11:58:40.181949+05:30
Ajmer,Rajasthan,26.4499,74.6399,36.8,22,0.0,951.0,8.3,52.9,71,92.9,26.0,1.1,167.0,126.0,5.1,0,5,10,0,2026-05-03T11:58:40.181955+05:30
Gwalior,Madhya Pradesh,26.2183,78.1828,39.0,18,0.0,979.4,8.15,45.0,89,77.1,21.8,0.9,248.0,131.0,5.9,0,5,10,0,2026-05-03T11:58:40.181962+05:30
Indore,Madhya Pradesh,22.7196,75.8577,36.9,21,0.0,946.6,8.7,46.1,58,48.5,15.9,1.5,180.0,120.0,6.1,0,5,10,0,2026-05-03T11:58:40.181969+05:30
Bhopal,Madhya Pradesh,23.2599,77.4126,37.2,24,0.0,951.7,8.7,30.6,67,90.6,22.2,1.1,174.0,124.0,6.4,0,5,10,0,2026-05-03T11:58:40.181977+05:30
Jabalpur,Madhya Pradesh,23.1815,79.9864,37.8,23,0.0,959.6,8.85,32.8,67,76.4,21.4,1.3,183.0,139.0,5.7,0,5,10,0,2026-05-03T11:58:40.181984+05:30
Ujjain,Madhya Pradesh,23.1765,75.7885,37.0,23,0.0,951.8,8.6,42.1,56,36.1,14.3,1.2,163.0,119.0,7.0,0,5,10,0,2026-05-03T11:58:40.181991+05:30
Visakhapatnam,Andhra Pradesh,17.6868,83.2185,31.3,69,0.0,1002.2,9.15,40.0,62,25.7,20.0,6.2,274.0,103.0,8.7,3,5,4,1,2026-05-03T11:58:40.181998+05:30
Vijayawada,Andhra Pradesh,16.5062,80.648,38.0,44,0.0,999.7,9.15,38.9,67,38.5,31.9,2.5,290.0,174.0,11.0,0,5,10,1,2026-05-03T11:58:40.182005+05:30
Guntur,Andhra Pradesh,16.3067,80.4365,40.0,33,0.0,1000.7,9.2,39.2,69,41.0,32.9,2.4,266.0,180.0,9.0,0,5,7,1,2026-05-03T11:58:40.182012+05:30
Nellore,Andhra Pradesh,14.4426,79.9865,41.0,26,0.0,1003.0,9.2,46.4,72,39.9,21.7,2.7,176.0,171.0,7.4,0,5,7,1,2026-05-03T11:58:40.182021+05:30
Kurnool,Andhra Pradesh,15.8281,78.0373,39.5,22,0.0,975.6,9.15,41.4,62,35.0,16.9,2.3,184.0,145.0,9.8,0,5,10,0,2026-05-03T11:58:40.182029+05:30
Kakinada,Andhra Pradesh,16.9891,82.2475,32.2,71,0.0,1005.8,9.15,37.4,55,25.1,18.6,1.1,225.0,103.0,2.9,3,5,4,1,2026-05-03T11:58:40.182036+05:30
Tirupati,Andhra Pradesh,13.6288,79.4192,40.8,20,0.0,989.0,7.2,42.8,86,35.0,18.3,2.3,176.0,161.0,3.4,0,5,10,0,2026-05-03T11:58:40.182043+05:30
Warangal,Telangana,17.9689,79.5941,38.3,33,0.0,976.7,9.15,38.9,76,36.0,25.5,2.3,255.0,171.0,10.3,0,5,10,1,2026-05-03T11:58:40.182050+05:30
Nizamabad,Telangana,18.6725,78.0941,38.3,20,0.0,963.8,9.1,38.9,70,40.4,16.1,1.4,183.0,127.0,5.4,0,5,10,0,2026-05-03T11:58:40.182056+05:30
Mysore,Karnataka,12.2958,76.6396,32.5,36,0.0,929.9,8.9,41.8,67,55.2,20.5,2.2,184.0,122.0,2.0,0,5,7,0,2026-05-03T11:58:40.182064+05:30
Mangalore,Karnataka,12.9141,74.856,33.2,54,0.0,1007.3,9.0,41.8,66,71.2,20.5,1.2,151.0,90.0,1.3,0,5,4,1,2026-05-03T11:58:40.182070+05:30
Hubli-Dharwad,Karnataka,15.3647,75.124,33.8,39,0.0,941.7,9.15,47.5,59,54.5,17.1,1.6,175.0,109.0,1.5,0,5,7,1,2026-05-03T11:58:40.182077+05:30
Belgaum,Karnataka,15.8497,74.4977,32.2,42,0.0,927.2,9.15,45.4,62,53.1,16.3,1.5,157.0,102.0,2.2,0,5,7,1,2026-05-03T11:58:43.475109+05:30
Coimbatore,Tamil Nadu,11.0168,76.9558,34.6,43,0.0,962.2,9.3,51.1,69,23.2,14.3,1.4,198.0,119.0,2.2,0,5,7,1,2026-05-03T11:58:43.475141+05:30
Madurai,Tamil Nadu,9.9252,78.1198,37.7,35,0.0,992.3,8.85,45.7,84,34.9,27.1,2.6,217.0,179.0,3.5,0,5,10,1,2026-05-03T11:58:43.475153+05:30
Trichy,Tamil Nadu,10.7905,78.7047,37.7,36,0.0,998.6,9.2,37.1,83,28.3,21.8,2.1,182.0,148.0,3.7,0,5,10,1,2026-05-03T11:58:43.475162+05:30
Salem,Tamil Nadu,11.6643,78.146,36.4,35,0.0,977.1,9.25,31.3,88,36.8,28.7,3.4,171.0,184.0,10.3,0,5,10,1,2026-05-03T11:58:43.475170+05:30
Tirunelveli,Tamil Nadu,8.7139,77.7567,38.6,32,0.0,1002.2,8.4,39.6,72,23.0,17.3,1.4,200.0,115.0,0.8,0,5,7,1,2026-05-03T11:58:43.475177+05:30
Vellore,Tamil Nadu,12.9165,79.1325,40.0,23,0.0,983.0,9.3,38.9,100,31.7,18.6,1.9,179.0,152.0,3.0,0,5,10,0,2026-05-03T11:58:43.475185+05:30
Erode,Tamil Nadu,11.341,77.7172,38.0,32,0.0,988.3,9.25,47.2,76,29.6,21.7,2.2,230.0,148.0,1.8,0,5,10,1,2026-05-03T11:58:43.475193+05:30
Kochi,Kerala,9.9312,76.2673,31.0,74,0.0,1009.3,9.05,31.7,90,29.5,18.2,2.5,167.0,111.0,2.3,3,0,4,1,2026-05-03T11:58:43.475201+05:30
Thiruvananthapuram,Kerala,8.5241,76.9366,31.0,68,0.0,1008.6,8.75,36.4,55,19.1,13.0,1.3,199.0,99.0,1.4,3,0,4,1,2026-05-03T11:58:43.475209+05:30
Kozhikode,Kerala,11.2588,75.7804,31.5,69,0.0,1008.3,9.0,37.8,62,63.1,21.8,0.9,161.0,92.0,2.0,3,0,4,1,2026-05-03T11:58:43.475216+05:30
Thrissur,Kerala,10.5276,76.2144,32.8,61,0.0,1007.4,8.95,32.4,88,26.0,15.9,1.6,178.0,98.0,1.7,3,5,4,1,2026-05-03T11:58:43.475224+05:30
Kannur,Kerala,11.8745,75.3704,32.4,61,0.0,1007.8,8.95,42.1,64,70.1,21.3,1.2,162.0,93.0,1.4,3,5,4,1,2026-05-03T11:58:43.475231+05:30
Patna,Bihar,25.5941,85.1376,31.6,50,0.0,999.7,8.3,42.1,109,66.6,47.7,2.9,429.0,193.0,12.6,0,5,7,1,2026-05-03T11:58:43.475237+05:30
Gaya,Bihar,24.7914,85.0002,34.0,45,0.0,992.0,8.8,30.2,120,70.1,52.6,2.4,407.0,209.0,20.2,0,5,7,1,2026-05-03T11:58:43.475244+05:30
Muzaffarpur,Bihar,26.1209,85.3647,28.8,62,0.0,1000.7,8.7,42.8,98,61.0,42.6,2.9,368.0,171.0,6.3,7,5,4,1,2026-05-03T11:58:43.475251+05:30
Bhagalpur,Bihar,25.2425,87.0117,29.8,60,0.0,1001.0,8.7,41.8,126,62.4,42.1,5.3,361.0,154.0,2.5,4,5,4,1,2026-05-03T11:58:43.475258+05:30
Ranchi,Jharkhand,23.3441,85.3096,32.6,32,0.0,936.8,9.25,37.4,83,45.5,16.0,1.6,193.0,164.0,6.9,0,5,7,0,2026-05-03T11:58:43.475265+05:30
Jamshedpur,Jharkhand,22.8046,86.2029,36.0,33,0.0,988.6,9.05,31.0,114,72.4,54.6,6.4,397.0,225.0,40.3,0,5,10,1,2026-05-03T11:58:43.475292+05:30
Dhanbad,Jharkhand,23.7957,86.4304,31.0,59,0.0,978.6,9.0,30.6,156,74.5,55.5,17.1,383.0,190.0,58.8,0,5,7,1,2026-05-03T11:58:43.475301+05:30
Bokaro,Jharkhand,23.6693,86.1511,32.5,53,0.0,982.1,9.0,30.2,156,80.6,63.3,21.5,462.0,192.0,85.7,0,5,7,1,2026-05-03T11:58:43.475309+05:30
Bhubaneswar,Odisha,20.2961,85.8245,33.6,60,0.0,1000.6,9.1,37.8,63,24.3,19.3,1.9,189.0,132.0,4.1,0,5,4,1,2026-05-03T11:58:43.475316+05:30
Cuttack,Odisha,20.4625,85.8828,34.0,57,0.0,1002.3,9.15,35.3,63,24.3,19.3,1.9,201.0,132.0,4.1,0,5,4,1,2026-05-03T11:58:43.475322+05:30
Rourkela,Odisha,22.2604,84.8536,36.6,32,0.0,982.8,8.95,38.5,97,49.7,26.4,2.3,253.0,182.0,30.3,0,5,10,1,2026-05-03T11:58:43.475329+05:30
Raipur,Chhattisgarh,21.2514,81.6296,39.0,21,0.0,972.8,9.0,29.9,83,58.2,23.4,5.4,387.0,166.0,5.8,0,5,10,0,2026-05-03T11:58:43.475335+05:30
Bhilai,Chhattisgarh,21.1938,81.3509,38.5,23,0.0,973.2,9.0,37.4,81,57.0,21.5,4.9,434.0,143.0,4.8,0,5,10,0,2026-05-03T11:58:43.475342+05:30
Guwahati,Assam,26.1158,91.7086,27.1,66,0.0,1001.7,5.5,30.6,72,7.9,6.8,0.9,269.0,115.0,0.9,7,5,0,1,2026-05-03T11:58:43.475349+05:30
Agartala,Tripura,23.8315,91.2868,26.2,80,0.1,1006.6,8.7,37.1,57,38.3,19.2,3.9,171.0,109.0,0.9,10,5,4,1,2026-05-03T11:58:43.475356+05:30
Shillong,Meghalaya,25.5788,91.8933,18.6,81,0.1,856.6,7.6,23.4,44,18.6,9.0,0.9,257.0,119.0,0.9,6,10,7,0,2026-05-03T11:58:43.475363+05:30
Imphal,Manipur,24.817,93.9368,23.9,64,0.1,923.1,9.15,29.2,60,13.3,7.4,1.0,214.0,106.0,0.5,6,5,7,1,2026-05-03T11:58:43.475370+05:30
Aizawl,Mizoram,23.7271,92.7176,23.8,61,0.0,893.5,8.5,44.3,37,11.6,5.5,0.6,154.0,100.0,0.4,3,5,7,0,2026-05-03T11:58:43.475377+05:30
Kohima,Nagaland,25.6701,94.1077,17.6,88,0.1,854.6,3.75,26.3,37,4.3,3.0,1.1,215.0,91.0,0.4,6,10,3,0,2026-05-03T11:58:43.475384+05:30
Gangtok,Sikkim,27.3314,88.6138,19.2,54,0.0,838.0,6.6,37.1,50,6.1,5.0,0.8,250.0,123.0,0.6,0,5,7,0,2026-05-03T11:58:43.475390+05:30
Siliguri,West Bengal,26.7271,88.3953,28.6,60,0.0,993.3,8.15,27.0,58,14.8,10.5,1.3,299.0,140.0,1.7,4,5,7,1,2026-05-03T11:58:46.777416+05:30
Durgapur,West Bengal,23.5204,87.3119,30.5,62,0.0,993.8,8.9,25.2,150,66.4,47.7,11.5,359.0,180.0,37.3,3,5,7,1,2026-05-03T11:58:46.777449+05:30
Asansol,West Bengal,23.6739,86.9524,31.5,56,0.0,992.3,8.95,26.6,153,68.5,49.7,10.9,326.0,189.0,37.3,0,5,7,1,2026-05-03T11:58:46.777460+05:30
Pondicherry,Puducherry,11.9139,79.8145,33.9,58,0.0,1007.5,8.45,48.2,61,32.8,28.6,3.6,244.0,170.0,15.5,0,5,4,1,2026-05-03T11:58:46.777468+05:30
Port Blair,Andaman and Nicobar Islands,11.6234,92.7265,33.8,49,0.1,1007.2,8.9,27.4,33,7.7,5.6,0.4,146.0,63.0,0.4,3,5,4,1,2026-05-03T11:58:46.777477+05:30
Haridwar,Uttarakhand,29.9457,78.1642,31.2,47,0.0,972.1,7.25,40.3,113,237.5,51.2,1.3,289.0,192.0,16.1,0,5,7,1,2026-05-03T11:58:46.777485+05:30
Rishikesh,Uttarakhand,30.0869,78.2676,31.0,45,0.0,964.7,7.45,36.0,103,262.6,52.0,0.8,267.0,192.0,13.1,0,5,7,1,2026-05-03T11:58:46.777493+05:30
Nainital,Uttarakhand,29.3919,79.4542,19.6,57,0.0,806.2,8.4,45.4,102,198.8,44.0,0.7,273.0,181.0,9.6,0,5,7,0,2026-05-03T11:58:46.777500+05:30
Mussoorie,Uttarakhand,30.4599,78.0664,21.0,42,0.0,803.9,7.65,50.8,105,204.4,46.4,1.1,238.0,195.0,14.1,0,5,7,0,2026-05-03T11:58:46.777508+05:30
Dharamshala,Himachal Pradesh,32.219,76.3234,24.4,35,0.0,868.1,7.7,46.8,70,33.4,9.9,0.5,205.0,153.0,1.7,0,5,7,0,2026-05-03T11:58:46.777515+05:30
Dalhousie,Himachal Pradesh,32.5387,75.971,20.8,36,0.0,804.6,8.2,45.7,54,35.7,12.8,1.2,224.0,163.0,3.0,0,5,7,0,2026-05-03T11:58:46.777523+05:30
Patiala,Punjab,30.3398,76.3869,34.2,37,0.0,974.4,7.5,53.6,480,1337.4,145.8,2.2,326.0,204.0,17.1,0,5,7,1,2026-05-03T11:58:46.777531+05:30
Bhatinda,Punjab,30.211,74.9455,38.2,21,0.0,977.8,8.15,71.3,153,586.7,104.5,3.1,324.0,188.0,19.6,0,5,10,0,2026-05-03T11:58:46.777538+05:30
Rohtak,Haryana,28.8955,76.6066,36.3,26,0.0,978.0,7.6,52.6,605,860.5,121.5,5.1,443.0,236.0,24.4,0,5,10,0,2026-05-03T11:58:46.777545+05:30
Panipat,Haryana,29.3909,76.9635,33.3,42,0.0,977.2,7.45,51.1,958,1620.5,168.1,4.5,339.0,225.0,23.8,0,5,7,1,2026-05-03T11:58:46.777551+05:30
Mathura,Uttar Pradesh,27.4924,77.6737,36.2,30,0.0,983.6,7.9,63.0,678,933.2,108.3,2.5,332.0,189.0,12.4,0,5,10,0,2026-05-03T11:58:46.777558+05:30
Vrindavan,Uttar Pradesh,27.5823,77.7027,36.2,30,0.0,984.0,7.9,61.6,678,933.2,108.3,2.5,329.0,189.0,12.4,0,5,10,0,2026-05-03T11:58:46.777565+05:30
Ayodhya,Uttar Pradesh,26.7922,82.1998,29.6,57,0.0,995.2,8.25,46.1,100,44.0,29.3,1.7,325.0,181.0,7.5,4,5,7,1,2026-05-03T11:58:46.777572+05:30
Ratlam,Madhya Pradesh,23.3315,75.0367,35.2,31,0.0,952.9,8.5,44.6,55,28.5,12.2,1.1,158.0,123.0,7.1,0,5,10,0,2026-05-03T11:58:46.777579+05:30
Sagar,Madhya Pradesh,23.8388,78.7378,37.5,24,0.0,948.3,8.7,36.7,68,75.0,20.9,1.1,161.0,133.0,6.9,0,5,10,0,2026-05-03T11:58:46.777586+05:30
Satna,Madhya Pradesh,24.6005,80.8322,37.7,25,0.0,968.8,8.7,32.8,60,65.7,19.8,1.1,197.0,145.0,5.2,0,5,10,0,2026-05-03T11:58:46.777593+05:30
Akola,Maharashtra,20.7002,77.0082,38.3,24,0.0,973.5,8.85,38.9,58,85.4,22.1,1.7,162.0,116.0,12.7,0,5,10,0,2026-05-03T11:58:46.777601+05:30
Amravati,Maharashtra,20.9374,77.7796,38.5,22,0.0,965.7,8.85,40.7,58,86.8,22.8,2.1,160.0,120.0,9.4,0,5,10,0,2026-05-03T11:58:46.777609+05:30
Latur,Maharashtra,18.4088,76.5604,38.5,14,0.0,939.6,9.05,42.8,60,76.6,17.4,1.0,143.0,110.0,5.5,0,5,10,0,2026-05-03T11:58:46.777616+05:30
Nanded,Maharashtra,19.1383,77.3091,38.7,21,0.0,967.5,9.0,31.0,58,56.1,18.8,1.5,180.0,126.0,3.3,0,5,10,0,2026-05-03T11:58:46.777623+05:30
Gulbarga,Karnataka,17.3297,76.8343,39.1,16,0.0,958.0,9.1,44.3,58,43.7,15.4,1.8,165.0,124.0,4.2,0,5,10,0,2026-05-03T11:58:46.777629+05:30
Bidar,Karnataka,17.9104,77.5199,37.4,19,0.0,935.7,9.15,37.8,68,38.5,14.8,1.6,161.0,124.0,5.2,0,5,10,0,2026-05-03T11:58:46.777636+05:30
Hospet,Karnataka,15.2689,76.3909,34.8,34,0.0,956.1,9.2,48.6,58,52.5,17.8,2.1,176.0,113.0,2.0,0,5,7,1,2026-05-03T11:58:46.777643+05:30
Tirupur,Tamil Nadu,11.1085,77.3411,37.0,35,0.0,975.0,9.35,50.0,78,28.5,20.1,2.2,215.0,143.0,2.5,0,5,10,1,2026-05-03T11:58:46.777650+05:30
Alappuzha,Kerala,9.4981,76.3388,31.0,72,0.0,1009.5,9.0,34.9,81,29.2,18.3,2.1,129.0,110.0,3.3,3,0,4,1,2026-05-03T11:58:46.777656+05:30
Munnar,Kerala,10.0889,77.0595,21.6,80,0.0,859.3,8.7,29.5,68,24.7,16.8,1.0,184.0,110.0,0.8,3,5,7,1,2026-05-03T11:58:46.777663+05:30
Silchar,Assam,24.8333,92.7789,27.5,66,0.0,1005.4,8.35,30.6,52,14.1,8.4,1.1,186.0,98.0,1.6,7,5,4,1,2026-05-03T11:58:46.777670+05:30
Dibrugarh,Assam,27.4728,94.912,26.4,66,0.0,996.4,6.3,19.1,63,10.3,7.9,0.9,229.0,113.0,0.7,7,5,7,1,2026-05-03T11:58:46.777676+05:30
