city,state,latitude,longitude,temp,humidity,rain,pressure,uv_index,wind_gusts,aqi,pm10,pm2_5,mosquito_risk,arthritis_risk,migraine_risk,frizz_risk,updated_at
Delhi,Delhi,28.6139,77.209,25.1,67,0.0,982.8,6.6,45.4,131,227.2,81.5,7,5,7,1,2026-04-03T00:31:28.965820+05:30
Mumbai,Maharashtra,19.076,72.8777,27.4,73,0.0,1009.9,7.45,22.7,67,27.0,15.7,7,0,4,1,2026-04-03T00:31:28.965859+05:30
Bangalore,Karnataka,12.9716,77.5946,23.4,54,0.0,912.9,9.6,27.0,53,20.5,20.1,0,5,7,0,2026-04-03T00:31:28.965875+05:30
Hyderabad,Telangana,17.385,78.4867,27.1,57,0.0,954.9,9.15,23.4,63,24.4,21.2,4,5,7,1,2026-04-03T00:31:28.965886+05:30
Chennai,Tamil Nadu,13.0827,80.2707,27.4,83,0.0,1009.2,9.25,37.8,44,12.2,9.5,7,0,4,1,2026-04-03T00:31:28.965894+05:30
Kolkata,West Bengal,22.5726,88.3639,26.5,92,0.0,1006.2,8.65,20.9,74,16.8,14.5,7,5,4,1,2026-04-03T00:31:28.965903+05:30
Pune,Maharashtra,18.5204,73.8567,23.8,87,0.0,949.6,8.35,36.7,136,70.5,65.4,3,5,7,1,2026-04-03T00:31:28.965915+05:30
Ahmedabad,Gujarat,23.0225,72.5714,26.5,53,0.0,1003.9,7.85,37.4,55,28.2,15.0,4,5,4,1,2026-04-03T00:31:28.965922+05:30
Jaipur,Rajasthan,26.9124,75.7873,25.0,65,0.0,959.8,7.5,52.6,115,65.4,33.3,7,5,7,1,2026-04-03T00:31:28.965930+05:30
Lucknow,Uttar Pradesh,26.8467,80.9462,26.8,54,0.0,993.0,5.25,34.6,83,94.1,35.0,4,5,3,1,2026-04-03T00:31:28.965937+05:30
Kanpur,Uttar Pradesh,26.4499,80.3319,28.0,53,0.0,991.2,6.65,26.3,96,129.0,42.6,4,5,7,1,2026-04-03T00:31:28.965944+05:30
Chandigarh,Chandigarh,30.7333,76.7794,21.4,56,0.0,968.2,5.9,50.8,67,36.3,28.6,0,5,3,0,2026-04-03T00:31:28.965951+05:30
Srinagar,Jammu and Kashmir,34.0837,74.7973,9.2,81,0.0,840.3,4.05,18.4,103,65.2,58.9,3,10,3,0,2026-04-03T00:31:28.965958+05:30
Jammu,Jammu and Kashmir,32.7266,74.857,21.8,66,0.0,972.0,4.7,38.9,75,32.5,25.6,3,5,3,0,2026-04-03T00:31:28.965965+05:30
Amritsar,Punjab,31.634,74.8723,22.0,68,0.0,980.9,4.25,37.1,86,78.7,51.8,3,5,3,0,2026-04-03T00:31:28.965972+05:30
Ludhiana,Punjab,30.901,75.8573,24.2,52,0.0,978.5,4.05,45.4,122,136.4,69.6,0,5,3,0,2026-04-03T00:31:28.965979+05:30
Jalandhar,Punjab,31.326,75.5762,23.2,56,0.0,979.5,6.2,46.1,97,169.0,75.7,0,5,7,0,2026-04-03T00:31:28.965989+05:30
Dehradun,Uttarakhand,30.6284,78.0322,15.3,56,0.0,830.5,6.15,45.4,35,20.3,11.9,0,5,7,0,2026-04-03T00:31:28.965996+05:30
Shimla,Himachal Pradesh,31.1048,77.1734,13.7,56,0.0,784.3,6.5,54.7,54,36.9,23.1,0,5,7,0,2026-04-03T00:31:28.966002+05:30
Manali,Himachal Pradesh,32.2396,77.1887,16.5,38,0.0,821.2,6.15,45.0,48,14.7,10.2,0,5,7,0,2026-04-03T00:31:28.966009+05:30
Gurgaon,Haryana,28.4595,77.0266,23.6,70,0.0,981.2,6.75,40.7,192,164.8,72.2,3,5,7,1,2026-04-03T00:31:28.966015+05:30
Noida,Uttar Pradesh,28.5355,77.391,25.2,66,0.0,984.3,6.25,42.1,192,164.8,72.2,7,5,7,1,2026-04-03T00:31:28.966023+05:30
Ghaziabad,Uttar Pradesh,28.6692,77.4538,24.6,69,0.0,982.6,6.4,41.0,111,192.3,85.9,3,5,7,1,2026-04-03T00:31:28.966030+05:30
Faridabad,Haryana,28.4089,77.3178,23.8,67,0.0,983.5,6.0,38.5,192,164.8,72.2,3,5,3,1,2026-04-03T00:31:28.966036+05:30
Meerut,Uttar Pradesh,28.9845,77.7064,23.7,61,0.0,981.3,5.25,39.2,111,192.3,85.9,3,5,3,0,2026-04-03T00:31:28.966042+05:30
Agra,Uttar Pradesh,27.1767,78.0081,25.8,60,0.0,987.4,7.25,34.9,230,360.4,83.8,4,5,7,1,2026-04-03T00:31:28.966048+05:30
Varanasi,Uttar Pradesh,25.3176,82.9739,27.4,55,0.0,997.1,6.25,33.1,88,46.6,37.6,4,5,7,1,2026-04-03T00:31:28.966057+05:30
Prayagraj,Uttar Pradesh,25.4358,81.8463,28.5,52,0.0,995.6,6.6,31.0,77,55.1,33.4,4,5,7,1,2026-04-03T00:31:28.966063+05:30
Gorakhpur,Uttar Pradesh,26.7606,83.3732,24.5,52,0.0,996.5,6.2,32.4,64,59.3,24.4,0,5,7,0,2026-04-03T00:31:28.966070+05:30
Bareilly,Uttar Pradesh,28.367,79.4304,23.8,62,0.0,986.5,4.7,23.0,71,47.0,26.7,3,5,3,1,2026-04-03T00:31:28.966076+05:30
Aligarh,Uttar Pradesh,27.8974,78.088,24.0,63,0.0,985.3,6.4,37.4,130,126.7,69.2,3,5,7,1,2026-04-03T00:31:28.966084+05:30
Moradabad,Uttar Pradesh,28.8386,78.7733,24.0,57,0.0,983.4,5.7,34.2,82,73.3,44.1,0,5,3,0,2026-04-03T00:31:28.966090+05:30
Saharanpur,Uttar Pradesh,29.9637,77.546,21.5,60,0.0,975.5,5.75,25.6,88,66.8,52.9,0,5,3,0,2026-04-03T00:31:28.966096+05:30
Jhansi,Uttar Pradesh,25.4484,78.5685,28.3,47,0.0,977.8,7.75,37.4,68,23.1,20.8,4,5,7,0,2026-04-03T00:31:32.187740+05:30
Surat,Gujarat,21.1702,72.8311,26.2,85,0.0,1008.2,7.65,28.1,91,29.3,23.1,7,0,4,1,2026-04-03T00:31:32.187771+05:30
Vadodara,Gujarat,22.3072,73.1812,25.7,72,0.0,1006.0,7.85,32.4,73,24.7,23.2,7,5,4,1,2026-04-03T00:31:32.187782+05:30
Rajkot,Gujarat,22.3039,70.8022,24.5,60,0.0,996.2,6.7,47.9,58,42.3,20.0,0,5,7,1,2026-04-03T00:31:32.187790+05:30
Thane,Maharashtra,19.2183,72.9781,25.2,81,0.0,1009.4,7.6,32.8,67,27.0,15.7,7,0,4,1,2026-04-03T00:31:32.187797+05:30
Nagpur,Maharashtra,21.1458,79.0882,25.1,76,0.0,976.5,8.65,31.3,95,45.2,39.7,7,5,7,1,2026-04-03T00:31:32.187804+05:30
Nashik,Maharashtra,19.9975,73.7898,23.3,81,0.0,946.7,8.05,33.8,97,18.7,14.1,3,5,7,1,2026-04-03T00:31:32.187810+05:30
Aurangabad,Maharashtra,19.8762,75.3433,23.0,84,0.0,945.5,8.45,28.4,107,46.6,40.5,3,5,7,1,2026-04-03T00:31:32.187817+05:30
Solapur,Maharashtra,17.6599,75.9064,24.4,80,0.0,958.8,8.95,25.2,110,48.8,44.2,3,5,7,1,2026-04-03T00:31:32.187824+05:30
Kolhapur,Maharashtra,16.705,74.2433,22.4,96,0.0,949.2,8.75,34.6,150,65.7,62.2,3,5,7,1,2026-04-03T00:31:32.187831+05:30
Goa,Goa,15.2993,74.124,28.2,82,0.0,999.4,9.0,32.4,75,30.5,26.1,7,5,7,1,2026-04-03T00:31:32.187838+05:30
Jodhpur,Rajasthan,26.2389,73.0243,25.3,53,0.0,984.7,6.3,47.2,87,155.1,33.2,4,5,7,0,2026-04-03T00:31:32.187845+05:30
Udaipur,Rajasthan,24.5854,73.7125,22.9,58,0.0,947.6,7.85,53.6,56,19.3,10.9,0,5,7,0,2026-04-03T00:31:32.187852+05:30
Kota,Rajasthan,25.2138,75.8648,26.8,37,0.0,979.3,7.75,40.3,66,26.3,23.4,4,5,7,0,2026-04-03T00:31:32.187859+05:30
Bikaner,Rajasthan,28.0229,73.3119,24.8,65,0.0,983.5,6.65,49.0,63,101.3,27.8,3,5,7,1,2026-04-03T00:31:32.187866+05:30
Ajmer,Rajasthan,26.4499,74.6399,25.3,47,0.0,955.4,7.55,61.9,60,78.5,19.7,4,5,7,0,2026-04-03T00:31:32.187872+05:30
Gwalior,Madhya Pradesh,26.2183,78.1828,28.7,55,0.0,982.9,7.6,29.2,75,42.3,32.6,4,5,7,1,2026-04-03T00:31:32.187879+05:30
Indore,Madhya Pradesh,22.7196,75.8577,24.6,64,0.0,949.4,8.3,38.5,93,37.8,33.8,3,5,7,1,2026-04-03T00:31:32.187885+05:30
Bhopal,Madhya Pradesh,23.2599,77.4126,25.5,65,0.0,955.1,8.25,34.9,89,37.0,31.8,7,5,7,1,2026-04-03T00:31:32.187891+05:30
Jabalpur,Madhya Pradesh,23.1815,79.9864,27.4,62,0.0,962.6,8.15,29.2,91,39.8,33.6,7,5,7,1,2026-04-03T00:31:32.187898+05:30
Ujjain,Madhya Pradesh,23.1765,75.7885,24.0,57,0.0,955.0,8.2,36.0,76,27.1,24.6,0,5,7,0,2026-04-03T00:31:32.187905+05:30
Visakhapatnam,Andhra Pradesh,17.6868,83.2185,26.6,89,0.0,1005.8,8.6,40.0,53,18.3,15.7,7,5,4,1,2026-04-03T00:31:32.187912+05:30
Vijayawada,Andhra Pradesh,16.5062,80.648,26.2,88,0.0,1005.0,8.65,23.8,47,14.3,13.0,7,5,4,1,2026-04-03T00:31:32.187918+05:30
Guntur,Andhra Pradesh,16.3067,80.4365,25.9,91,0.0,1006.0,8.65,29.5,42,13.4,12.1,7,5,4,1,2026-04-03T00:31:32.187925+05:30
Nellore,Andhra Pradesh,14.4426,79.9865,26.6,91,0.0,1008.1,9.15,32.8,37,10.3,8.0,7,0,4,1,2026-04-03T00:31:32.187932+05:30
Kurnool,Andhra Pradesh,15.8281,78.0373,29.3,42,0.0,977.9,9.15,24.8,50,18.6,15.9,4,5,7,0,2026-04-03T00:31:32.187939+05:30
Kakinada,Andhra Pradesh,16.9891,82.2475,25.4,94,0.0,1009.9,8.8,36.7,33,15.6,12.4,7,0,4,1,2026-04-03T00:31:32.187947+05:30
Tirupati,Andhra Pradesh,13.6288,79.4192,25.1,83,0.0,994.0,9.35,30.6,51,20.5,18.3,7,5,7,1,2026-04-03T00:31:32.187953+05:30
Warangal,Telangana,17.9689,79.5941,27.8,65,0.0,980.1,9.0,25.2,64,29.6,26.7,7,5,7,1,2026-04-03T00:31:32.187960+05:30
Nizamabad,Telangana,18.6725,78.0941,24.9,81,0.0,966.7,8.85,32.4,120,54.8,49.5,3,5,7,1,2026-04-03T00:31:32.187965+05:30
Mysore,Karnataka,12.2958,76.6396,23.0,87,0.0,929.9,9.5,40.7,84,26.6,25.3,3,5,7,1,2026-04-03T00:31:32.187972+05:30
Mangalore,Karnataka,12.9141,74.856,28.7,79,0.0,1008.6,9.15,23.8,79,39.5,35.7,7,0,4,1,2026-04-03T00:31:32.187978+05:30
Hubli-Dharwad,Karnataka,15.3647,75.124,23.5,88,0.0,942.4,9.2,33.5,88,19.3,18.0,3,5,7,1,2026-04-03T00:31:32.187985+05:30
Belgaum,Karnataka,15.8497,74.4977,21.6,97,0.0,926.9,9.25,36.7,99,38.3,35.3,3,5,7,1,2026-04-03T00:31:35.412994+05:30
Coimbatore,Tamil Nadu,11.0168,76.9558,24.7,83,0.0,963.6,9.5,42.8,59,24.4,22.6,3,5,7,1,2026-04-03T00:31:35.413023+05:30
Madurai,Tamil Nadu,9.9252,78.1198,26.3,82,0.0,995.6,8.5,18.7,52,11.2,10.5,7,5,7,1,2026-04-03T00:31:35.413033+05:30
Trichy,Tamil Nadu,10.7905,78.7047,25.7,85,0.0,1002.3,9.35,26.6,53,19.2,17.4,7,5,4,1,2026-04-03T00:31:35.413042+05:30
Salem,Tamil Nadu,11.6643,78.146,26.4,68,0.0,979.3,9.2,22.0,64,26.0,25.4,7,5,7,1,2026-04-03T00:31:35.413050+05:30
Tirunelveli,Tamil Nadu,8.7139,77.7567,27.2,77,0.0,1005.4,9.35,25.9,51,17.5,16.6,7,5,4,1,2026-04-03T00:31:35.413058+05:30
Vellore,Tamil Nadu,12.9165,79.1325,23.7,72,0.0,986.7,9.1,29.9,57,31.8,30.2,3,5,7,1,2026-04-03T00:31:35.413065+05:30
Erode,Tamil Nadu,11.341,77.7172,27.7,58,0.0,991.2,9.2,17.3,50,12.2,11.8,4,5,7,1,2026-04-03T00:31:35.413073+05:30
Kochi,Kerala,9.9312,76.2673,28.1,81,0.0,1010.6,9.25,22.7,74,31.0,28.7,7,0,4,1,2026-04-03T00:31:35.413080+05:30
Thiruvananthapuram,Kerala,8.5241,76.9366,28.5,81,0.0,1009.9,9.2,20.5,70,15.8,11.5,7,0,4,1,2026-04-03T00:31:35.413087+05:30
Kozhikode,Kerala,11.2588,75.7804,28.8,78,0.0,1009.7,9.15,25.6,58,21.8,17.3,7,0,4,1,2026-04-03T00:31:35.413094+05:30
Thrissur,Kerala,10.5276,76.2144,27.1,89,0.0,1008.9,9.2,30.6,70,36.4,33.6,7,0,4,1,2026-04-03T00:31:35.413101+05:30
Kannur,Kerala,11.8745,75.3704,28.1,80,0.0,1009.1,9.05,27.0,76,43.1,40.4,7,0,4,1,2026-04-03T00:31:35.413109+05:30
Patna,Bihar,25.5941,85.1376,26.7,60,0.0,999.7,8.25,30.6,73,34.8,28.3,4,5,7,1,2026-04-03T00:31:35.413116+05:30
Gaya,Bihar,24.7914,85.0002,28.0,51,0.0,993.5,8.3,34.2,76,42.7,33.3,4,5,7,1,2026-04-03T00:31:35.413123+05:30
Muzaffarpur,Bihar,26.1209,85.3647,24.3,56,0.0,999.7,8.0,32.8,75,33.4,27.3,0,5,7,0,2026-04-03T00:31:35.413129+05:30
Bhagalpur,Bihar,25.2425,87.0117,26.1,72,0.0,1000.2,8.3,24.5,68,28.7,20.5,7,5,4,1,2026-04-03T00:31:35.413136+05:30
Ranchi,Jharkhand,23.3441,85.3096,24.5,63,0.0,938.7,8.95,31.3,74,44.7,36.8,3,5,7,1,2026-04-03T00:31:35.413143+05:30
Jamshedpur,Jharkhand,22.8046,86.2029,27.9,71,0.0,991.1,8.75,32.8,98,50.3,40.2,7,5,7,1,2026-04-03T00:31:35.413150+05:30
Dhanbad,Jharkhand,23.7957,86.4304,28.1,60,0.0,979.9,8.7,23.8,151,82.2,75.2,4,5,7,1,2026-04-03T00:31:35.413156+05:30
Bokaro,Jharkhand,23.6693,86.1511,28.6,52,0.0,984.4,8.7,25.6,151,89.6,83.4,4,5,7,1,2026-04-03T00:31:35.413163+05:30
Bhubaneswar,Odisha,20.2961,85.8245,26.3,89,0.0,1003.9,8.95,31.7,52,12.4,10.3,7,5,4,1,2026-04-03T00:31:35.413170+05:30
Cuttack,Odisha,20.4625,85.8828,26.3,84,0.0,1005.6,9.0,33.1,52,12.4,10.3,7,5,4,1,2026-04-03T00:31:35.413178+05:30
Rourkela,Odisha,22.2604,84.8536,27.3,81,0.0,985.7,8.7,54.0,113,50.2,39.2,7,5,7,1,2026-04-03T00:31:35.413185+05:30
Raipur,Chhattisgarh,21.2514,81.6296,28.3,60,0.0,976.0,8.75,27.0,144,82.2,74.7,4,5,7,1,2026-04-03T00:31:35.413191+05:30
Bhilai,Chhattisgarh,21.1938,81.3509,27.7,59,0.0,976.4,8.75,25.2,132,61.5,53.8,4,5,7,1,2026-04-03T00:31:35.413197+05:30
Guwahati,Assam,26.1158,91.7086,25.3,85,0.0,1001.5,8.25,22.0,106,46.2,42.8,7,5,4,1,2026-04-03T00:31:35.413203+05:30
Agartala,Tripura,23.8315,91.2868,25.0,90,0.0,1006.7,8.45,29.9,103,16.5,14.8,7,5,4,1,2026-04-03T00:31:35.413211+05:30
Shillong,Meghalaya,25.5788,91.8933,16.0,84,0.0,856.7,8.65,49.3,91,36.8,31.7,3,10,7,0,2026-04-03T00:31:35.413218+05:30
Imphal,Manipur,24.817,93.9368,18.4,90,0.0,924.3,8.8,63.0,119,56.0,48.5,3,10,7,1,2026-04-03T00:31:35.413225+05:30
Aizawl,Mizoram,23.7271,92.7176,19.2,86,0.0,893.4,8.7,49.3,102,53.9,42.4,3,10,7,1,2026-04-03T00:31:35.413231+05:30
Kohima,Nagaland,25.6701,94.1077,15.7,78,0.0,855.3,8.75,72.4,92,39.1,31.7,3,5,7,0,2026-04-03T00:31:35.413238+05:30
Gangtok,Sikkim,27.3314,88.6138,15.7,94,0.0,838.0,8.6,20.5,80,31.7,26.8,3,10,7,0,2026-04-03T00:31:35.413244+05:30
Siliguri,West Bengal,26.7271,88.3953,22.9,61,0.0,994.1,8.25,22.0,144,82.0,71.9,3,5,7,0,2026-04-03T00:31:38.641899+05:30
Durgapur,West Bengal,23.5204,87.3119,29.7,64,0.0,994.7,8.65,19.4,153,99.2,91.0,7,5,7,1,2026-04-03T00:31:38.641926+05:30
Asansol,West Bengal,23.6739,86.9524,29.2,64,0.0,993.3,8.65,21.6,126,53.3,46.0,7,5,7,1,2026-04-03T00:31:38.641936+05:30
Pondicherry,Puducherry,11.9139,79.8145,24.5,87,0.0,1010.6,9.3,32.0,38,12.5,9.3,3,0,4,1,2026-04-03T00:31:38.641947+05:30
Port Blair,Andaman and Nicobar Islands,11.6234,92.7265,28.7,80,0.0,1007.4,9.25,28.8,43,10.5,6.3,7,5,4,1,2026-04-03T00:31:38.641955+05:30
Haridwar,Uttarakhand,29.9457,78.1642,20.4,60,0.0,974.3,5.6,38.5,61,31.4,24.7,0,5,3,0,2026-04-03T00:31:38.641962+05:30
Rishikesh,Uttarakhand,30.0869,78.2676,21.6,49,0.0,967.3,5.0,31.0,48,26.8,14.8,0,5,3,0,2026-04-03T00:31:38.641968+05:30
Nainital,Uttarakhand,29.3919,79.4542,20.6,33,0.0,807.6,5.8,34.6,51,29.5,15.5,0,5,3,0,2026-04-03T00:31:38.641974+05:30
Mussoorie,Uttarakhand,30.4599,78.0664,18.0,42,0.0,803.8,6.25,48.2,57,35.6,23.8,0,5,7,0,2026-04-03T00:31:38.641980+05:30
Dharamshala,Himachal Pradesh,32.219,76.3234,20.8,39,0.0,869.1,4.9,47.5,38,19.4,10.9,0,5,3,0,2026-04-03T00:31:38.641986+05:30
Dalhousie,Himachal Pradesh,32.5387,75.971,17.0,45,0.0,803.4,5.75,48.6,62,29.6,23.5,0,5,3,0,2026-04-03T00:31:38.641993+05:30
Patiala,Punjab,30.3398,76.3869,22.8,60,0.0,977.8,5.15,37.8,111,110.6,48.4,0,5,3,0,2026-04-03T00:31:38.641999+05:30
Bhatinda,Punjab,30.211,74.9455,21.7,85,0.0,984.5,5.8,45.4,97,212.3,46.6,3,5,3,1,2026-04-03T00:31:38.642004+05:30
Rohtak,Haryana,28.8955,76.6066,21.8,78,0.0,981.4,6.4,37.1,152,390.2,103.6,3,5,7,1,2026-04-03T00:31:38.642011+05:30
Panipat,Haryana,29.3909,76.9635,22.9,69,0.0,980.0,5.9,31.3,152,372.5,113.2,3,5,3,1,2026-04-03T00:31:38.642017+05:30
Mathura,Uttar Pradesh,27.4924,77.6737,26.0,60,0.0,986.6,6.55,38.5,189,198.8,62.2,4,5,7,1,2026-04-03T00:31:38.642022+05:30
Vrindavan,Uttar Pradesh,27.5823,77.7027,23.7,67,0.0,986.9,6.65,37.8,189,198.8,62.2,3,5,7,1,2026-04-03T00:31:38.642028+05:30
Ayodhya,Uttar Pradesh,26.7922,82.1998,24.5,57,0.0,994.7,5.8,23.8,70,71.2,27.6,0,5,3,0,2026-04-03T00:31:38.642034+05:30
Ratlam,Madhya Pradesh,23.3315,75.0367,24.9,60,0.0,955.5,8.15,37.4,68,23.5,21.1,0,5,7,1,2026-04-03T00:31:38.642040+05:30
Sagar,Madhya Pradesh,23.8388,78.7378,26.7,56,0.0,951.4,7.15,27.7,73,29.5,26.3,4,5,7,1,2026-04-03T00:31:38.642046+05:30
Satna,Madhya Pradesh,24.6005,80.8322,30.0,38,0.0,971.9,6.4,34.9,68,35.9,26.3,4,5,7,0,2026-04-03T00:31:38.642052+05:30
Akola,Maharashtra,20.7002,77.0082,24.2,84,0.0,978.0,8.6,30.6,101,42.7,38.5,3,5,7,1,2026-04-03T00:31:38.642059+05:30
Amravati,Maharashtra,20.9374,77.7796,23.9,86,0.0,969.9,8.65,55.4,97,46.8,41.3,3,5,7,1,2026-04-03T00:31:38.642066+05:30
Latur,Maharashtra,18.4088,76.5604,23.2,85,0.0,942.3,8.95,23.0,115,41.7,36.3,3,5,7,1,2026-04-03T00:31:38.642072+05:30
Nanded,Maharashtra,19.1383,77.3091,25.1,84,0.0,971.1,8.8,26.6,119,56.3,51.7,7,5,7,1,2026-04-03T00:31:38.642077+05:30
Gulbarga,Karnataka,17.3297,76.8343,26.4,66,0.0,960.5,8.6,39.6,84,27.4,23.6,7,5,7,1,2026-04-03T00:31:38.642083+05:30
Bidar,Karnataka,17.9104,77.5199,23.7,80,0.0,937.4,8.4,25.6,101,43.8,39.6,3,5,7,1,2026-04-03T00:31:38.642089+05:30
Hospet,Karnataka,15.2689,76.3909,27.5,68,0.0,957.7,9.1,47.9,88,34.0,30.2,7,5,7,1,2026-04-03T00:31:38.642095+05:30
Tirupur,Tamil Nadu,11.1085,77.3411,26.7,74,0.0,977.1,9.45,35.6,52,23.0,21.8,7,5,7,1,2026-04-03T00:31:38.642100+05:30
Alappuzha,Kerala,9.4981,76.3388,28.2,81,0.0,1010.8,9.2,19.8,73,30.3,25.1,7,0,4,1,2026-04-03T00:31:38.642106+05:30
Munnar,Kerala,10.0889,77.0595,20.4,97,0.0,858.2,9.75,29.9,62,27.9,26.9,3,5,7,1,2026-04-03T00:31:38.642113+05:30
Silchar,Assam,24.8333,92.7789,22.7,88,0.0,1006.5,8.5,29.5,145,78.5,65.7,3,5,4,1,2026-04-03T00:31:38.642119+05:30
Dibrugarh,Assam,27.4728,94.912,21.7,94,0.0,997.2,8.3,11.9,82,26.8,25.8,3,5,7,1,2026-04-03T00:31:38.642125+05:30
