city,state,latitude,longitude,temp,humidity,rain,pressure,uv_index,wind_gusts,aqi,pm10,pm2_5,mosquito_risk,arthritis_risk,migraine_risk,frizz_risk,updated_at
Delhi,Delhi,28.6139,77.209,32.4,38,0.0,987.7,6.05,23.4,464,242.1,61.5,0,5,7,1,2026-03-10T17:05:42.535305+05:30
Mumbai,Maharashtra,19.076,72.8777,29.0,64,0.0,1007.9,7.55,19.8,229,45.2,42.0,7,5,4,1,2026-03-10T17:05:42.535350+05:30
Bangalore,Karnataka,12.9716,77.5946,29.4,31,0.0,913.2,9.25,32.4,110,19.6,16.6,4,5,7,0,2026-03-10T17:05:42.535366+05:30
Hyderabad,Telangana,17.385,78.4867,32.3,35,0.0,955.9,8.6,31.0,136,59.5,46.7,0,5,7,0,2026-03-10T17:05:42.535376+05:30
Chennai,Tamil Nadu,13.0827,80.2707,29.0,59,0.0,1010.3,8.95,35.6,88,20.7,15.6,4,0,4,1,2026-03-10T17:05:42.535385+05:30
Kolkata,West Bengal,22.5726,88.3639,25.4,78,0.0,1010.4,5.1,18.0,117,58.7,50.1,7,0,0,1,2026-03-10T17:05:42.535394+05:30
Pune,Maharashtra,18.5204,73.8567,36.2,19,0.0,949.9,8.1,36.4,126,26.5,22.0,0,5,10,0,2026-03-10T17:05:42.535406+05:30
Ahmedabad,Gujarat,23.0225,72.5714,38.9,14,0.0,1003.9,7.4,19.1,110,15.9,14.1,0,5,7,0,2026-03-10T17:05:42.535414+05:30
Jaipur,Rajasthan,26.9124,75.7873,36.2,9,0.0,964.1,6.85,22.0,109,178.3,25.3,0,5,10,1,2026-03-10T17:05:42.535423+05:30
Lucknow,Uttar Pradesh,26.8467,80.9462,31.9,45,0.0,997.7,6.55,20.2,179,151.8,92.9,0,5,7,1,2026-03-10T17:05:42.535431+05:30
Kanpur,Uttar Pradesh,26.4499,80.3319,31.4,50,0.0,996.1,6.6,15.5,171,182.1,72.2,0,5,7,1,2026-03-10T17:05:42.535438+05:30
Chandigarh,Chandigarh,30.7333,76.7794,29.6,61,0.0,973.8,6.0,15.5,137,88.7,56.5,7,5,3,1,2026-03-10T17:05:42.535445+05:30
Srinagar,Jammu and Kashmir,34.0837,74.7973,11.8,88,0.3,847.0,3.95,28.8,123,51.2,29.9,6,10,3,0,2026-03-10T17:05:42.535453+05:30
Jammu,Jammu and Kashmir,32.7266,74.857,26.4,77,0.0,977.3,6.0,38.2,102,63.8,36.6,7,5,3,1,2026-03-10T17:05:42.535461+05:30
Amritsar,Punjab,31.634,74.8723,30.0,60,0.0,985.2,6.0,26.3,162,70.8,43.2,4,5,3,1,2026-03-10T17:05:42.535468+05:30
Ludhiana,Punjab,30.901,75.8573,31.2,48,0.0,983.7,5.7,13.0,171,122.0,61.5,0,5,3,1,2026-03-10T17:05:42.535475+05:30
Jalandhar,Punjab,31.326,75.5762,31.2,50,0.0,984.7,6.0,14.0,167,102.0,53.6,0,5,3,1,2026-03-10T17:05:42.535484+05:30
Dehradun,Uttarakhand,30.6284,78.0322,19.9,70,0.0,835.8,6.4,26.6,76,49.0,29.8,3,5,7,0,2026-03-10T17:05:42.535492+05:30
Shimla,Himachal Pradesh,31.1048,77.1734,18.7,61,0.0,791.0,6.1,37.1,83,45.6,28.2,3,5,7,0,2026-03-10T17:05:42.535498+05:30
Manali,Himachal Pradesh,32.2396,77.1887,19.8,41,0.0,826.7,7.45,41.0,75,20.6,8.2,0,5,7,0,2026-03-10T17:05:42.535506+05:30
Gurgaon,Haryana,28.4595,77.0266,32.2,38,0.0,986.1,5.9,21.2,615,823.3,99.2,0,5,3,1,2026-03-10T17:05:42.535513+05:30
Noida,Uttar Pradesh,28.5355,77.391,32.6,37,0.0,989.2,6.1,23.4,615,823.3,99.2,0,5,7,0,2026-03-10T17:05:42.535520+05:30
Ghaziabad,Uttar Pradesh,28.6692,77.4538,31.7,42,0.0,987.5,5.9,18.7,295,154.1,67.3,0,5,3,1,2026-03-10T17:05:42.535527+05:30
Faridabad,Haryana,28.4089,77.3178,32.0,38,0.0,988.4,6.05,23.0,615,823.3,99.2,0,5,7,0,2026-03-10T17:05:42.535533+05:30
Meerut,Uttar Pradesh,28.9845,77.7064,30.8,51,0.0,986.3,5.7,18.4,295,154.1,67.3,0,5,3,1,2026-03-10T17:05:42.535539+05:30
Agra,Uttar Pradesh,27.1767,78.0081,34.3,28,0.0,992.0,6.45,22.0,197,562.5,73.8,0,5,7,0,2026-03-10T17:05:42.535547+05:30
Varanasi,Uttar Pradesh,25.3176,82.9739,30.6,56,0.0,1001.5,7.2,15.5,184,113.4,103.1,0,5,4,1,2026-03-10T17:05:42.535556+05:30
Prayagraj,Uttar Pradesh,25.4358,81.8463,31.1,52,0.0,1000.1,7.1,15.5,183,133.2,94.5,0,5,4,1,2026-03-10T17:05:42.535564+05:30
Gorakhpur,Uttar Pradesh,26.7606,83.3732,29.4,61,0.0,1001.5,6.95,20.2,188,110.8,95.7,7,5,4,1,2026-03-10T17:05:42.535571+05:30
Bareilly,Uttar Pradesh,28.367,79.4304,30.1,56,0.0,991.5,5.9,18.0,181,147.6,102.2,0,5,3,1,2026-03-10T17:05:42.535580+05:30
Aligarh,Uttar Pradesh,27.8974,78.088,32.9,37,0.0,990.0,6.15,23.4,190,344.6,79.6,0,5,7,1,2026-03-10T17:05:42.535587+05:30
Moradabad,Uttar Pradesh,28.8386,78.7733,30.2,53,0.0,988.4,5.45,23.4,181,148.5,99.9,0,5,3,1,2026-03-10T17:05:42.535593+05:30
Saharanpur,Uttar Pradesh,29.9637,77.546,29.5,57,0.0,980.5,5.7,21.2,165,108.7,61.7,4,5,3,1,2026-03-10T17:05:42.535599+05:30
Jhansi,Uttar Pradesh,25.4484,78.5685,34.9,18,0.0,981.8,7.05,26.3,121,82.7,22.0,0,5,7,0,2026-03-10T17:05:45.752741+05:30
Surat,Gujarat,21.1702,72.8311,37.0,26,0.0,1007.3,7.3,23.8,104,47.0,46.0,0,5,7,0,2026-03-10T17:05:45.752774+05:30
Vadodara,Gujarat,22.3072,73.1812,40.4,13,0.0,1005.2,7.4,17.3,115,15.7,11.0,0,5,7,0,2026-03-10T17:05:45.752786+05:30
Rajkot,Gujarat,22.3039,70.8022,37.8,13,0.0,996.4,7.25,33.5,79,14.2,12.4,0,5,10,0,2026-03-10T17:05:45.752796+05:30
Thane,Maharashtra,19.2183,72.9781,34.1,34,0.0,1007.8,7.55,33.5,229,45.2,42.0,0,5,4,0,2026-03-10T17:05:45.752804+05:30
Nagpur,Maharashtra,21.1458,79.0882,35.5,21,0.0,975.7,7.95,24.8,128,36.4,24.3,0,5,10,0,2026-03-10T17:05:45.752813+05:30
Nashik,Maharashtra,19.9975,73.7898,35.8,16,0.0,947.4,7.75,28.1,127,16.6,13.5,0,5,10,0,2026-03-10T17:05:45.752821+05:30
Aurangabad,Maharashtra,19.8762,75.3433,36.1,17,0.0,946.1,8.3,21.6,120,12.6,10.0,0,5,10,0,2026-03-10T17:05:45.752829+05:30
Solapur,Maharashtra,17.6599,75.9064,34.8,28,0.0,958.4,8.5,29.5,141,47.7,40.0,0,5,7,0,2026-03-10T17:05:45.752837+05:30
Kolhapur,Maharashtra,16.705,74.2433,33.9,27,0.0,948.8,8.6,40.3,128,50.4,43.1,0,5,7,0,2026-03-10T17:05:45.752845+05:30
Goa,Goa,15.2993,74.124,30.1,75,0.0,997.6,8.6,38.9,151,56.2,46.7,3,5,7,1,2026-03-10T17:05:45.752854+05:30
Jodhpur,Rajasthan,26.2389,73.0243,36.5,12,0.0,987.0,7.15,26.3,88,34.2,12.7,0,5,10,0,2026-03-10T17:05:45.752862+05:30
Udaipur,Rajasthan,24.5854,73.7125,34.8,15,0.0,950.7,7.75,21.6,97,12.7,8.8,0,5,7,0,2026-03-10T17:05:45.752870+05:30
Kota,Rajasthan,25.2138,75.8648,36.6,15,0.0,982.5,7.15,17.3,76,41.4,12.1,0,5,10,0,2026-03-10T17:05:45.752877+05:30
Bikaner,Rajasthan,28.0229,73.3119,35.7,13,0.0,985.9,6.85,29.9,105,15.1,13.2,0,5,10,0,2026-03-10T17:05:45.752886+05:30
Ajmer,Rajasthan,26.4499,74.6399,34.6,15,0.0,959.1,7.1,21.2,85,84.8,17.2,0,5,7,0,2026-03-10T17:05:45.752923+05:30
Gwalior,Madhya Pradesh,26.2183,78.1828,32.8,27,0.0,987.5,6.75,24.5,128,86.1,22.6,0,5,7,0,2026-03-10T17:05:45.752933+05:30
Indore,Madhya Pradesh,22.7196,75.8577,34.6,17,0.0,951.3,7.65,26.3,92,17.0,8.6,0,5,7,0,2026-03-10T17:05:45.752942+05:30
Bhopal,Madhya Pradesh,23.2599,77.4126,34.8,21,0.0,957.1,7.55,23.0,82,15.5,6.8,0,5,7,0,2026-03-10T17:05:45.752950+05:30
Jabalpur,Madhya Pradesh,23.1815,79.9864,34.3,27,0.0,964.7,7.65,26.3,102,37.0,18.0,0,5,7,0,2026-03-10T17:05:45.752958+05:30
Ujjain,Madhya Pradesh,23.1765,75.7885,34.0,20,0.0,957.2,7.55,19.1,86,18.3,8.5,0,5,7,0,2026-03-10T17:05:45.752967+05:30
Visakhapatnam,Andhra Pradesh,17.6868,83.2185,28.4,54,0.0,1006.8,8.55,34.2,134,43.5,34.6,4,5,4,1,2026-03-10T17:05:45.752976+05:30
Vijayawada,Andhra Pradesh,16.5062,80.648,32.3,40,0.0,1005.2,8.6,21.6,133,31.9,26.3,0,5,4,1,2026-03-10T17:05:45.752984+05:30
Guntur,Andhra Pradesh,16.3067,80.4365,31.8,32,0.0,1006.7,8.65,23.4,128,29.3,23.6,0,5,4,0,2026-03-10T17:05:45.752992+05:30
Nellore,Andhra Pradesh,14.4426,79.9865,29.8,52,0.0,1009.0,8.85,28.1,99,25.4,19.9,4,0,4,1,2026-03-10T17:05:45.753001+05:30
Kurnool,Andhra Pradesh,15.8281,78.0373,34.7,24,0.0,978.6,8.65,31.7,115,42.7,33.5,0,5,7,0,2026-03-10T17:05:45.753010+05:30
Kakinada,Andhra Pradesh,16.9891,82.2475,30.1,49,0.0,1010.4,8.6,28.4,119,38.8,30.3,0,0,4,1,2026-03-10T17:05:45.753019+05:30
Tirupati,Andhra Pradesh,13.6288,79.4192,30.8,39,0.0,993.7,8.95,34.6,137,20.6,16.7,0,5,7,0,2026-03-10T17:05:45.753026+05:30
Warangal,Telangana,17.9689,79.5941,32.7,47,0.0,981.1,8.4,27.0,141,66.4,51.8,0,5,7,1,2026-03-10T17:05:45.753035+05:30
Nizamabad,Telangana,18.6725,78.0941,34.5,28,0.0,966.9,8.3,30.6,135,42.6,33.1,0,5,7,0,2026-03-10T17:05:45.753046+05:30
Mysore,Karnataka,12.2958,76.6396,30.9,19,0.0,929.2,9.25,39.2,113,20.8,17.3,0,5,7,0,2026-03-10T17:05:45.753055+05:30
Mangalore,Karnataka,12.9141,74.856,28.8,80,0.0,1006.4,8.85,31.7,113,37.1,31.9,7,5,4,1,2026-03-10T17:05:45.753063+05:30
Hubli-Dharwad,Karnataka,15.3647,75.124,33.5,25,0.0,941.7,8.8,44.3,129,54.1,44.4,0,5,7,0,2026-03-10T17:05:45.753072+05:30
Belgaum,Karnataka,15.8497,74.4977,33.0,27,0.0,926.8,8.85,46.8,133,54.6,45.4,0,5,7,0,2026-03-10T17:05:48.974665+05:30
Coimbatore,Tamil Nadu,11.0168,76.9558,32.1,31,0.0,962.1,9.25,46.4,119,22.2,18.9,0,5,7,0,2026-03-10T17:05:48.974695+05:30
Madurai,Tamil Nadu,9.9252,78.1198,31.8,47,0.0,993.5,9.2,41.4,114,14.8,13.9,0,5,7,1,2026-03-10T17:05:48.974706+05:30
Trichy,Tamil Nadu,10.7905,78.7047,30.3,55,0.0,1001.2,9.05,37.4,106,17.5,15.9,0,5,4,1,2026-03-10T17:05:48.974714+05:30
Salem,Tamil Nadu,11.6643,78.146,32.7,36,0.0,977.9,9.15,33.1,127,19.8,17.7,0,5,7,0,2026-03-10T17:05:48.974721+05:30
Tirunelveli,Tamil Nadu,8.7139,77.7567,32.1,49,0.0,1003.4,9.2,47.2,95,16.1,13.4,0,5,4,1,2026-03-10T17:05:48.974728+05:30
Vellore,Tamil Nadu,12.9165,79.1325,30.5,40,0.0,986.4,9.05,35.6,144,24.2,21.2,0,5,7,0,2026-03-10T17:05:48.974735+05:30
Erode,Tamil Nadu,11.341,77.7172,34.6,31,0.0,989.1,9.1,28.8,122,24.2,21.4,0,5,7,0,2026-03-10T17:05:48.974742+05:30
Kochi,Kerala,9.9312,76.2673,28.9,75,0.0,1007.4,9.05,39.2,151,54.5,44.9,7,5,4,1,2026-03-10T17:05:48.974749+05:30
Thiruvananthapuram,Kerala,8.5241,76.9366,28.6,71,0.0,1007.5,9.1,27.4,117,37.1,28.9,7,5,4,1,2026-03-10T17:05:48.974756+05:30
Kozhikode,Kerala,11.2588,75.7804,30.1,62,0.0,1007.1,8.95,24.8,141,60.1,46.2,3,5,4,1,2026-03-10T17:05:48.974763+05:30
Thrissur,Kerala,10.5276,76.2144,31.0,60,0.0,1006.2,9.0,37.4,140,28.2,22.9,0,5,4,1,2026-03-10T17:05:48.974770+05:30
Kannur,Kerala,11.8745,75.3704,30.3,57,0.0,1006.9,8.95,39.2,108,53.0,42.7,0,5,4,1,2026-03-10T17:05:48.974777+05:30
Patna,Bihar,25.5941,85.1376,30.3,55,0.0,1004.5,7.4,24.5,172,92.4,82.4,0,5,4,1,2026-03-10T17:05:48.974783+05:30
Gaya,Bihar,24.7914,85.0002,29.0,65,0.0,997.7,7.5,15.5,169,81.0,70.3,7,5,7,1,2026-03-10T17:05:48.974789+05:30
Muzaffarpur,Bihar,26.1209,85.3647,30.4,53,0.0,1004.3,7.35,22.0,174,97.6,85.9,0,5,4,1,2026-03-10T17:05:48.974795+05:30
Bhagalpur,Bihar,25.2425,87.0117,30.0,55,0.0,1004.9,7.4,17.6,163,89.4,76.4,4,5,4,1,2026-03-10T17:05:48.974802+05:30
Ranchi,Jharkhand,23.3441,85.3096,27.1,58,0.0,941.1,8.15,29.5,159,89.6,65.7,4,5,7,1,2026-03-10T17:05:48.974808+05:30
Jamshedpur,Jharkhand,22.8046,86.2029,30.5,55,0.0,993.9,8.05,31.0,132,86.1,72.2,0,5,7,1,2026-03-10T17:05:48.974814+05:30
Dhanbad,Jharkhand,23.7957,86.4304,29.0,57,0.0,983.5,7.9,20.9,167,105.5,92.2,4,5,7,1,2026-03-10T17:05:48.974820+05:30
Bokaro,Jharkhand,23.6693,86.1511,29.4,55,0.0,987.5,7.9,20.5,173,111.8,98.3,4,5,7,1,2026-03-10T17:05:48.974827+05:30
Bhubaneswar,Odisha,20.2961,85.8245,29.4,58,0.0,1006.0,8.35,32.4,109,53.7,44.0,4,5,4,1,2026-03-10T17:05:48.974833+05:30
Cuttack,Odisha,20.4625,85.8828,31.9,51,0.0,1007.3,8.35,29.2,109,53.7,44.0,0,5,4,1,2026-03-10T17:05:48.974839+05:30
Rourkela,Odisha,22.2604,84.8536,33.7,36,0.0,987.0,7.95,26.3,158,81.0,56.3,0,5,7,1,2026-03-10T17:05:48.974845+05:30
Raipur,Chhattisgarh,21.2514,81.6296,35.7,23,0.0,977.0,8.05,17.3,155,64.5,40.0,0,5,10,0,2026-03-10T17:05:48.974851+05:30
Bhilai,Chhattisgarh,21.1938,81.3509,36.0,23,0.0,977.2,8.05,13.7,151,62.2,36.7,0,5,10,0,2026-03-10T17:05:48.974858+05:30
Guwahati,Assam,26.1158,91.7086,29.2,63,0.0,1004.8,7.3,11.5,154,82.9,73.1,7,5,4,1,2026-03-10T17:05:48.974864+05:30
Agartala,Tripura,23.8315,91.2868,28.5,63,0.0,1009.4,7.7,14.4,169,77.3,66.4,7,0,4,1,2026-03-10T17:05:48.974870+05:30
Shillong,Meghalaya,25.5788,91.8933,16.0,77,0.0,859.5,6.75,18.4,151,55.2,49.2,3,5,7,0,2026-03-10T17:05:48.974877+05:30
Imphal,Manipur,24.817,93.9368,21.5,63,0.0,926.3,6.2,30.6,154,49.7,45.5,3,5,7,0,2026-03-10T17:05:48.974884+05:30
Aizawl,Mizoram,23.7271,92.7176,22.5,56,0.0,895.9,7.85,27.7,150,56.5,46.3,0,5,7,0,2026-03-10T17:05:48.974913+05:30
Kohima,Nagaland,25.6701,94.1077,16.5,87,0.0,857.9,6.8,50.0,137,49.0,45.2,3,10,7,0,2026-03-10T17:05:48.974922+05:30
Gangtok,Sikkim,27.3314,88.6138,19.1,59,0.0,842.0,6.25,18.7,151,70.5,58.4,0,5,7,0,2026-03-10T17:05:48.974929+05:30
Siliguri,West Bengal,26.7271,88.3953,26.2,58,0.0,997.9,7.3,21.2,164,76.8,64.7,4,5,7,1,2026-03-10T17:05:52.193756+05:30
Durgapur,West Bengal,23.5204,87.3119,26.7,71,0.0,999.3,7.85,19.4,155,85.4,73.3,7,5,7,1,2026-03-10T17:05:52.193789+05:30
Asansol,West Bengal,23.6739,86.9524,28.2,64,0.0,997.6,7.9,19.1,159,96.2,82.7,7,5,7,1,2026-03-10T17:05:52.193801+05:30
Pondicherry,Puducherry,11.9139,79.8145,29.4,63,0.0,1010.8,8.95,37.8,81,21.0,15.2,7,0,4,1,2026-03-10T17:05:52.193810+05:30
Port Blair,Andaman and Nicobar Islands,11.6234,92.7265,29.3,69,0.0,1008.7,8.95,29.2,72,22.1,19.5,7,0,4,1,2026-03-10T17:05:52.193820+05:30
Haridwar,Uttarakhand,29.9457,78.1642,29.5,60,0.0,979.2,5.85,22.3,155,100.1,58.0,4,5,3,1,2026-03-10T17:05:52.193828+05:30
Rishikesh,Uttarakhand,30.0869,78.2676,28.5,61,0.0,972.1,5.9,23.0,152,100.6,61.0,7,5,3,1,2026-03-10T17:05:52.193837+05:30
Nainital,Uttarakhand,29.3919,79.4542,21.1,67,0.0,811.3,6.75,56.9,174,135.5,98.3,3,5,7,0,2026-03-10T17:05:52.193846+05:30
Mussoorie,Uttarakhand,30.4599,78.0664,20.1,69,0.0,808.3,6.25,38.9,143,101.5,61.5,3,5,7,0,2026-03-10T17:05:52.193854+05:30
Dharamshala,Himachal Pradesh,32.219,76.3234,24.2,56,0.0,874.9,6.45,20.5,58,29.7,12.2,0,5,7,0,2026-03-10T17:05:52.193863+05:30
Dalhousie,Himachal Pradesh,32.5387,75.971,22.5,45,0.0,810.0,6.15,18.4,89,45.5,20.3,0,5,7,0,2026-03-10T17:05:52.193873+05:30
Patiala,Punjab,30.3398,76.3869,30.4,57,0.0,983.1,5.9,14.4,170,178.8,65.0,0,5,3,1,2026-03-10T17:05:52.193881+05:30
Bhatinda,Punjab,30.211,74.9455,31.8,45,0.0,988.2,6.45,16.9,154,82.9,34.6,0,5,7,1,2026-03-10T17:05:52.193916+05:30
Rohtak,Haryana,28.8955,76.6066,31.3,40,0.0,986.4,5.75,20.2,481,272.9,52.0,0,5,3,1,2026-03-10T17:05:52.193926+05:30
Panipat,Haryana,29.3909,76.9635,30.1,53,0.0,985.2,5.9,18.0,498,334.3,66.8,0,5,3,1,2026-03-10T17:05:52.193934+05:30
Mathura,Uttar Pradesh,27.4924,77.6737,34.2,26,0.0,991.2,6.35,23.0,380,402.3,69.2,0,5,7,0,2026-03-10T17:05:52.193942+05:30
Vrindavan,Uttar Pradesh,27.5823,77.7027,33.9,30,0.0,991.6,6.3,24.1,380,402.3,69.2,0,5,7,0,2026-03-10T17:05:52.193950+05:30
Ayodhya,Uttar Pradesh,26.7922,82.1998,30.8,52,0.0,999.5,6.75,19.4,190,116.9,99.7,0,5,7,1,2026-03-10T17:05:52.193957+05:30
Ratlam,Madhya Pradesh,23.3315,75.0367,35.6,18,0.0,957.8,7.55,18.7,94,16.2,7.6,0,5,10,0,2026-03-10T17:05:52.193965+05:30
Sagar,Madhya Pradesh,23.8388,78.7378,34.1,22,0.0,953.7,7.5,21.2,95,33.4,13.4,0,5,7,0,2026-03-10T17:05:52.193973+05:30
Satna,Madhya Pradesh,24.6005,80.8322,34.4,24,0.0,974.8,7.5,24.5,137,73.1,31.7,0,5,7,0,2026-03-10T17:05:52.193981+05:30
Akola,Maharashtra,20.7002,77.0082,37.9,17,0.0,976.6,8.0,16.9,109,14.1,8.7,0,5,10,0,2026-03-10T17:05:52.193990+05:30
Amravati,Maharashtra,20.9374,77.7796,37.2,17,0.0,969.2,7.95,19.1,98,13.3,7.4,0,5,10,0,2026-03-10T17:05:52.193999+05:30
Latur,Maharashtra,18.4088,76.5604,33.7,24,0.0,941.9,8.4,27.0,146,35.6,28.6,0,5,7,0,2026-03-10T17:05:52.194007+05:30
Nanded,Maharashtra,19.1383,77.3091,36.2,24,0.0,970.3,8.2,19.4,129,28.2,21.5,0,5,10,0,2026-03-10T17:05:52.194014+05:30
Gulbarga,Karnataka,17.3297,76.8343,35.5,26,0.0,960.0,8.5,30.6,120,53.2,43.7,0,5,10,0,2026-03-10T17:05:52.194022+05:30
Bidar,Karnataka,17.9104,77.5199,33.8,27,0.0,937.7,8.45,33.1,135,45.5,36.4,0,5,7,0,2026-03-10T17:05:52.194029+05:30
Hospet,Karnataka,15.2689,76.3909,33.9,26,0.0,956.9,8.8,36.0,120,49.2,39.8,0,5,7,0,2026-03-10T17:05:52.194037+05:30
Tirupur,Tamil Nadu,11.1085,77.3411,33.7,29,0.0,975.5,9.25,42.5,129,27.2,23.1,0,5,7,0,2026-03-10T17:05:52.194044+05:30
Alappuzha,Kerala,9.4981,76.3388,29.0,73,0.0,1007.7,9.05,33.5,151,56.3,44.4,7,5,4,1,2026-03-10T17:05:52.194052+05:30
Munnar,Kerala,10.0889,77.0595,28.6,36,0.0,858.6,9.55,33.8,109,19.3,16.8,4,5,7,0,2026-03-10T17:05:52.194060+05:30
Silchar,Assam,24.8333,92.7789,29.0,61,0.0,1007.9,7.65,14.0,167,70.3,62.9,7,5,4,1,2026-03-10T17:05:52.194068+05:30
Dibrugarh,Assam,27.4728,94.912,29.5,57,0.0,998.1,7.4,14.4,164,84.8,73.8,4,5,7,1,2026-03-10T17:05:52.194076+05:30
