city,state,latitude,longitude,temp,humidity,rain,pressure,uv_index,wind_gusts,aqi,pm10,pm2_5,no2,co,o3,so2,mosquito_risk,arthritis_risk,migraine_risk,frizz_risk,updated_at
Delhi,Delhi,28.6139,77.209,42.5,17,0.0,973.5,7.8,42.1,559,687.3,107.3,3.8,233.0,166.0,9.9,0,5,10,0,2026-06-09T15:20:55.156656+05:30
Mumbai,Maharashtra,19.076,72.8777,32.7,63,0.0,1004.4,7.55,46.4,84,81.7,30.4,4.2,162.0,106.0,6.0,3,5,4,1,2026-06-09T15:20:55.156708+05:30
Bangalore,Karnataka,12.9716,77.5946,27.3,62,0.1,909.9,7.65,52.6,26,3.4,2.8,6.3,253.0,61.0,2.5,10,5,7,1,2026-06-09T15:20:55.156723+05:30
Hyderabad,Telangana,17.385,78.4867,32.2,51,0.0,948.6,8.7,42.8,61,46.3,23.5,2.2,213.0,119.0,4.4,0,5,7,1,2026-06-09T15:20:55.156732+05:30
Chennai,Tamil Nadu,13.0827,80.2707,40.3,29,0.0,1000.5,7.8,51.1,49,17.5,13.3,3.4,214.0,118.0,5.3,0,5,7,1,2026-06-09T15:20:55.156740+05:30
Kolkata,West Bengal,22.5726,88.3639,36.2,56,0.0,995.7,8.95,33.1,158,91.3,65.9,3.7,396.0,212.0,17.4,0,5,10,1,2026-06-09T15:20:55.156748+05:30
Pune,Maharashtra,18.5204,73.8567,30.3,58,0.1,945.2,6.65,47.2,51,36.2,14.1,1.7,140.0,98.0,3.9,3,5,7,1,2026-06-09T15:20:55.156755+05:30
Ahmedabad,Gujarat,23.0225,72.5714,40.9,30,0.0,994.5,8.05,41.8,89,82.7,32.1,1.6,139.0,106.0,4.5,0,5,10,1,2026-06-09T15:20:55.156762+05:30
Jaipur,Rajasthan,26.9124,75.7873,41.2,21,0.0,952.6,8.25,44.3,141,194.2,36.0,1.1,141.0,122.0,2.5,0,5,10,0,2026-06-09T15:20:55.156773+05:30
Lucknow,Uttar Pradesh,26.8467,80.9462,41.0,24,0.0,983.1,8.35,40.7,156,330.6,69.8,1.9,205.0,175.0,6.4,0,5,10,1,2026-06-09T15:20:55.156780+05:30
Kanpur,Uttar Pradesh,26.4499,80.3319,41.7,25,0.1,981.4,8.35,48.2,307,482.4,81.3,1.5,151.0,137.0,4.8,3,5,10,1,2026-06-09T15:20:55.156786+05:30
Chandigarh,Chandigarh,30.7333,76.7794,38.9,22,0.0,960.0,7.8,36.4,150,28.6,21.1,2.1,274.0,200.0,10.8,0,5,10,0,2026-06-09T15:20:55.156792+05:30
Srinagar,Jammu and Kashmir,34.0837,74.7973,28.6,31,0.0,839.5,9.0,20.9,85,16.4,8.6,1.3,349.0,161.0,1.9,4,5,7,0,2026-06-09T15:20:55.156799+05:30
Jammu,Jammu and Kashmir,32.7266,74.857,41.7,13,0.0,963.3,8.6,37.4,115,21.9,13.6,1.8,183.0,181.0,3.5,0,5,10,0,2026-06-09T15:20:55.156806+05:30
Amritsar,Punjab,31.634,74.8723,42.1,16,0.0,971.0,8.45,27.7,119,50.3,28.5,2.1,319.0,198.0,8.6,0,5,10,0,2026-06-09T15:20:55.156812+05:30
Ludhiana,Punjab,30.901,75.8573,41.9,16,0.0,969.3,8.0,39.6,130,42.6,22.1,1.5,250.0,180.0,5.2,0,5,10,0,2026-06-09T15:20:55.156818+05:30
Jalandhar,Punjab,31.326,75.5762,41.9,16,0.0,970.2,8.25,35.6,133,52.6,24.0,1.5,271.0,178.0,5.7,0,5,10,0,2026-06-09T15:20:55.156825+05:30
Dehradun,Uttarakhand,30.6284,78.0322,25.2,49,0.0,827.9,8.25,42.5,111,19.6,14.2,0.9,207.0,175.0,3.7,4,5,7,0,2026-06-09T15:20:55.156848+05:30
Shimla,Himachal Pradesh,31.1048,77.1734,24.2,31,0.0,784.3,8.35,52.2,118,19.3,13.6,1.0,189.0,177.0,6.0,0,5,7,0,2026-06-09T15:20:55.156856+05:30
Manali,Himachal Pradesh,32.2396,77.1887,24.0,50,0.0,817.4,9.6,35.3,89,15.7,12.9,5.9,156.0,151.0,0.4,0,5,7,0,2026-06-09T15:20:55.156862+05:30
Gurgaon,Haryana,28.4595,77.0266,41.7,18,0.0,972.2,7.9,41.0,1297,2726.9,335.3,3.7,190.0,144.0,7.9,0,5,10,0,2026-06-09T15:20:55.156868+05:30
Noida,Uttar Pradesh,28.5355,77.391,42.1,18,0.0,974.6,7.85,35.3,1297,2726.9,335.3,3.7,242.0,144.0,7.9,0,5,10,0,2026-06-09T15:20:55.156874+05:30
Ghaziabad,Uttar Pradesh,28.6692,77.4538,41.0,20,0.0,973.0,7.8,38.5,438,389.3,76.1,3.3,218.0,195.0,13.6,0,5,10,0,2026-06-09T15:20:55.156880+05:30
Faridabad,Haryana,28.4089,77.3178,42.2,17,0.0,974.1,7.85,45.4,1297,2726.9,335.3,3.7,202.0,144.0,7.9,0,5,10,0,2026-06-09T15:20:55.156887+05:30
Meerut,Uttar Pradesh,28.9845,77.7064,40.5,20,0.0,972.0,7.75,37.1,438,389.3,76.1,3.3,276.0,195.0,13.6,0,5,10,0,2026-06-09T15:20:55.156893+05:30
Agra,Uttar Pradesh,27.1767,78.0081,42.4,20,0.0,978.0,8.15,54.4,755,1981.9,224.4,1.7,138.0,115.0,3.9,0,5,10,0,2026-06-09T15:20:55.156899+05:30
Varanasi,Uttar Pradesh,25.3176,82.9739,42.3,17,0.0,987.0,8.8,41.0,124,151.8,38.0,1.5,197.0,145.0,5.2,0,5,10,0,2026-06-09T15:20:55.156905+05:30
Prayagraj,Uttar Pradesh,25.4358,81.8463,41.5,23,0.0,986.0,8.7,40.3,118,101.5,31.5,1.4,166.0,142.0,5.9,0,5,10,1,2026-06-09T15:20:55.156911+05:30
Gorakhpur,Uttar Pradesh,26.7606,83.3732,38.3,34,0.0,986.9,8.7,22.7,158,228.2,77.3,2.2,333.0,212.0,11.0,0,5,10,1,2026-06-09T15:20:55.156918+05:30
Bareilly,Uttar Pradesh,28.367,79.4304,39.4,29,0.0,976.5,8.15,27.0,154,147.6,44.5,1.7,330.0,198.0,10.5,0,5,10,1,2026-06-09T15:20:55.156924+05:30
Aligarh,Uttar Pradesh,27.8974,78.088,40.7,23,0.0,975.9,8.0,42.1,691,1668.9,230.5,2.7,166.0,173.0,12.0,0,5,10,0,2026-06-09T15:20:55.156930+05:30
Moradabad,Uttar Pradesh,28.8386,78.7733,40.3,24,0.0,973.7,7.95,37.8,171,180.7,58.0,3.0,362.0,246.0,19.3,0,5,10,0,2026-06-09T15:20:55.156936+05:30
Saharanpur,Uttar Pradesh,29.9637,77.546,38.5,24,0.0,966.5,7.5,36.4,165,57.4,32.0,2.9,275.0,220.0,15.7,0,5,10,0,2026-06-09T15:20:55.156942+05:30
Jhansi,Uttar Pradesh,25.4484,78.5685,40.9,25,0.0,969.6,8.5,45.7,76,107.8,29.3,0.9,135.0,110.0,3.1,0,5,10,1,2026-06-09T15:20:58.498678+05:30
Surat,Gujarat,21.1702,72.8311,35.3,49,0.0,1001.4,7.6,52.2,82,76.1,33.1,8.7,205.0,70.0,29.9,0,5,7,1,2026-06-09T15:20:58.498708+05:30
Vadodara,Gujarat,22.3072,73.1812,38.8,37,0.0,997.6,7.65,46.8,83,85.7,32.8,1.6,135.0,115.0,5.0,0,5,10,1,2026-06-09T15:20:58.498719+05:30
Rajkot,Gujarat,22.3039,70.8022,40.3,32,0.0,987.3,7.55,51.5,87,63.3,27.3,1.0,109.0,99.0,4.0,0,5,10,1,2026-06-09T15:20:58.498727+05:30
Thane,Maharashtra,19.2183,72.9781,34.6,52,0.1,1003.4,7.5,44.3,84,81.7,30.4,4.2,154.0,106.0,6.0,3,5,4,1,2026-06-09T15:20:58.498735+05:30
Nagpur,Maharashtra,21.1458,79.0882,41.5,22,0.0,966.2,8.9,40.0,94,61.2,29.9,3.6,155.0,147.0,16.2,0,5,10,0,2026-06-09T15:20:58.498743+05:30
Nashik,Maharashtra,19.9975,73.7898,34.3,40,0.0,942.0,7.9,48.2,71,65.7,21.8,0.9,128.0,87.0,1.6,0,5,7,1,2026-06-09T15:20:58.498750+05:30
Aurangabad,Maharashtra,19.8762,75.3433,37.2,24,0.0,940.1,9.0,49.7,74,67.5,21.9,1.0,127.0,113.0,3.5,0,5,10,0,2026-06-09T15:20:58.498758+05:30
Solapur,Maharashtra,17.6599,75.9064,34.3,43,0.0,953.3,5.55,39.6,60,42.7,17.4,1.1,122.0,107.0,2.2,0,5,3,1,2026-06-09T15:20:58.498765+05:30
Kolhapur,Maharashtra,16.705,74.2433,28.2,64,0.0,945.8,7.3,43.6,29,20.3,9.3,1.8,138.0,74.0,1.4,7,5,7,1,2026-06-09T15:20:58.498773+05:30
Goa,Goa,15.2993,74.124,25.6,99,0.2,997.1,6.35,32.0,27,8.1,4.8,2.1,136.0,58.0,0.7,10,5,7,1,2026-06-09T15:20:58.498781+05:30
Jodhpur,Rajasthan,26.2389,73.0243,40.0,31,0.0,975.2,8.45,48.2,152,292.4,56.9,0.7,118.0,96.0,1.7,0,5,10,1,2026-06-09T15:20:58.498788+05:30
Udaipur,Rajasthan,24.5854,73.7125,36.9,35,0.0,941.2,8.85,44.6,79,88.2,33.1,0.7,127.0,102.0,4.0,0,5,10,1,2026-06-09T15:20:58.498795+05:30
Kota,Rajasthan,25.2138,75.8648,41.2,22,0.0,971.1,8.4,38.5,83,50.4,21.7,0.9,133.0,127.0,4.6,0,5,10,0,2026-06-09T15:20:58.498802+05:30
Bikaner,Rajasthan,28.0229,73.3119,43.6,17,0.0,972.5,8.45,42.1,131,111.8,36.4,0.4,120.0,106.0,3.1,0,5,10,0,2026-06-09T15:20:58.498809+05:30
Ajmer,Rajasthan,26.4499,74.6399,37.2,34,0.0,948.1,8.35,50.4,84,53.9,21.1,0.7,132.0,116.0,2.4,0,5,10,1,2026-06-09T15:20:58.498816+05:30
Gwalior,Madhya Pradesh,26.2183,78.1828,41.5,23,0.0,974.1,8.3,52.2,86,126.7,36.9,0.6,135.0,111.0,2.6,0,5,10,1,2026-06-09T15:20:58.498823+05:30
Indore,Madhya Pradesh,22.7196,75.8577,38.4,27,0.0,943.1,8.65,50.8,82,50.5,26.7,1.0,161.0,111.0,3.8,0,5,10,0,2026-06-09T15:20:58.498830+05:30
Bhopal,Madhya Pradesh,23.2599,77.4126,39.1,26,0.0,947.8,8.7,39.6,86,60.1,29.3,0.8,171.0,114.0,4.7,0,5,10,1,2026-06-09T15:20:58.498838+05:30
Jabalpur,Madhya Pradesh,23.1815,79.9864,40.0,23,0.0,954.4,8.8,34.6,78,48.9,22.6,0.8,157.0,129.0,4.4,0,5,10,0,2026-06-09T15:20:58.498845+05:30
Ujjain,Madhya Pradesh,23.1765,75.7885,37.9,30,0.0,948.4,8.6,49.3,80,48.4,26.4,0.6,142.0,107.0,3.5,0,5,10,1,2026-06-09T15:20:58.498852+05:30
Visakhapatnam,Andhra Pradesh,17.6868,83.2185,37.0,49,0.0,995.2,8.4,42.5,96,56.9,43.0,8.2,382.0,198.0,35.8,0,5,10,1,2026-06-09T15:20:58.498859+05:30
Vijayawada,Andhra Pradesh,16.5062,80.648,38.0,41,0.0,995.8,8.7,42.8,65,41.3,23.7,1.6,178.0,129.0,5.0,0,5,10,1,2026-06-09T15:20:58.498866+05:30
Guntur,Andhra Pradesh,16.3067,80.4365,38.1,40,0.0,996.9,8.35,42.5,60,44.1,24.4,1.3,161.0,123.0,4.2,0,5,10,1,2026-06-09T15:20:58.498873+05:30
Nellore,Andhra Pradesh,14.4426,79.9865,36.8,39,0.0,999.8,8.15,50.0,38,14.4,9.7,2.5,132.0,110.0,4.0,0,5,10,1,2026-06-09T15:20:58.498881+05:30
Kurnool,Andhra Pradesh,15.8281,78.0373,33.1,50,0.0,972.8,5.7,49.0,38,27.1,13.1,1.0,132.0,105.0,4.2,0,5,3,1,2026-06-09T15:20:58.498889+05:30
Kakinada,Andhra Pradesh,16.9891,82.2475,37.6,40,0.0,999.6,8.8,46.1,66,36.2,24.9,2.0,204.0,146.0,5.1,0,5,10,1,2026-06-09T15:20:58.498896+05:30
Tirupati,Andhra Pradesh,13.6288,79.4192,37.7,34,0.0,985.4,7.35,46.4,31,4.2,2.9,1.8,111.0,79.0,0.7,0,5,10,1,2026-06-09T15:20:58.498903+05:30
Warangal,Telangana,17.9689,79.5941,36.9,38,0.0,972.6,8.6,37.8,80,66.1,34.7,1.5,165.0,130.0,5.7,0,5,10,1,2026-06-09T15:20:58.498910+05:30
Nizamabad,Telangana,18.6725,78.0941,36.8,37,0.0,959.4,7.55,40.7,88,69.8,29.8,1.0,144.0,115.0,3.5,0,5,10,1,2026-06-09T15:20:58.498917+05:30
Mysore,Karnataka,12.2958,76.6396,25.2,73,0.0,927.3,7.4,48.2,25,2.8,2.5,3.7,118.0,65.0,1.5,7,5,7,1,2026-06-09T15:20:58.498923+05:30
Mangalore,Karnataka,12.9141,74.856,27.4,82,0.0,1006.7,3.5,33.1,31,10.7,5.4,2.5,136.0,53.0,1.0,7,5,0,1,2026-06-09T15:20:58.498930+05:30
Hubli-Dharwad,Karnataka,15.3647,75.124,28.0,62,0.0,939.3,7.2,47.5,23,4.9,2.7,2.8,123.0,61.0,0.8,7,5,7,1,2026-06-09T15:20:58.498938+05:30
Belgaum,Karnataka,15.8497,74.4977,27.0,66,0.0,924.2,1.45,40.0,25,8.7,4.9,2.6,121.0,65.0,1.6,7,5,3,1,2026-06-09T15:21:01.846615+05:30
Coimbatore,Tamil Nadu,11.0168,76.9558,25.1,86,0.2,960.0,4.6,54.7,25,2.6,2.2,2.7,132.0,62.0,1.4,10,5,3,1,2026-06-09T15:21:01.846647+05:30
Madurai,Tamil Nadu,9.9252,78.1198,35.3,40,0.0,989.9,8.25,61.2,26,5.0,3.6,1.7,109.0,86.0,1.6,0,5,10,1,2026-06-09T15:21:01.846657+05:30
Trichy,Tamil Nadu,10.7905,78.7047,35.0,44,0.0,996.4,8.3,64.8,30,6.6,4.0,1.3,108.0,82.0,1.3,0,5,7,1,2026-06-09T15:21:01.846665+05:30
Salem,Tamil Nadu,11.6643,78.146,33.7,44,0.0,974.6,6.65,43.6,29,5.0,4.2,2.1,138.0,97.0,4.6,0,5,7,1,2026-06-09T15:21:01.846673+05:30
Tirunelveli,Tamil Nadu,8.7139,77.7567,34.0,49,0.0,1001.5,7.6,55.8,21,6.6,3.4,1.1,97.0,54.0,0.7,0,5,4,1,2026-06-09T15:21:01.846681+05:30
Vellore,Tamil Nadu,12.9165,79.1325,35.0,40,0.0,980.1,8.25,50.8,26,4.2,3.3,1.7,117.0,89.0,1.9,0,5,7,1,2026-06-09T15:21:01.846688+05:30
Erode,Tamil Nadu,11.341,77.7172,33.7,47,0.0,986.3,5.0,52.6,27,4.2,3.3,2.0,137.0,82.0,1.5,0,5,3,1,2026-06-09T15:21:01.846695+05:30
Kochi,Kerala,9.9312,76.2673,26.5,90,0.1,1009.5,5.75,46.4,34,8.5,5.3,2.5,104.0,56.0,1.6,10,0,0,1,2026-06-09T15:21:01.846702+05:30
Thiruvananthapuram,Kerala,8.5241,76.9366,26.0,90,0.2,1008.6,7.6,58.3,33,11.5,6.3,1.1,92.0,55.0,0.6,10,0,4,1,2026-06-09T15:21:01.846710+05:30
Kozhikode,Kerala,11.2588,75.7804,24.9,96,0.2,1008.7,7.9,29.2,29,7.3,3.8,0.6,116.0,65.0,0.4,6,0,4,1,2026-06-09T15:21:01.846717+05:30
Thrissur,Kerala,10.5276,76.2144,26.0,92,0.0,1007.8,8.15,34.2,31,7.6,5.2,2.0,104.0,55.0,1.0,7,5,4,1,2026-06-09T15:21:01.846725+05:30
Kannur,Kerala,11.8745,75.3704,26.2,92,0.1,1007.8,7.25,28.1,26,9.0,4.4,2.2,116.0,59.0,0.8,10,5,4,1,2026-06-09T15:21:01.846733+05:30
Patna,Bihar,25.5941,85.1376,38.1,32,0.0,990.2,8.6,22.0,173,110.8,49.7,2.5,246.0,192.0,9.3,0,5,10,1,2026-06-09T15:21:01.846739+05:30
Gaya,Bihar,24.7914,85.0002,38.6,30,0.0,984.4,7.7,36.7,154,149.9,46.2,1.5,183.0,158.0,8.8,0,5,10,1,2026-06-09T15:21:01.846746+05:30
Muzaffarpur,Bihar,26.1209,85.3647,36.8,45,0.0,990.2,8.8,30.6,183,118.7,66.6,3.4,381.0,237.0,15.0,0,5,10,1,2026-06-09T15:21:01.846753+05:30
Bhagalpur,Bihar,25.2425,87.0117,37.4,37,0.0,991.0,8.85,25.9,173,113.4,64.0,3.6,385.0,232.0,20.5,0,5,10,1,2026-06-09T15:21:01.846759+05:30
Ranchi,Jharkhand,23.3441,85.3096,33.5,40,0.0,931.3,8.75,35.6,127,93.8,30.2,1.1,159.0,139.0,4.1,0,5,7,1,2026-06-09T15:21:01.846766+05:30
Jamshedpur,Jharkhand,22.8046,86.2029,35.5,45,0.0,981.9,9.1,31.0,149,103.1,49.6,3.4,254.0,203.0,22.3,0,5,10,1,2026-06-09T15:21:01.846773+05:30
Dhanbad,Jharkhand,23.7957,86.4304,39.1,26,0.0,970.9,8.9,52.2,159,102.2,39.2,5.8,161.0,154.0,24.2,0,5,10,1,2026-06-09T15:21:01.846780+05:30
Bokaro,Jharkhand,23.6693,86.1511,38.1,30,0.0,974.7,7.2,54.4,162,114.3,41.4,6.5,164.0,168.0,29.4,0,5,10,1,2026-06-09T15:21:01.846787+05:30
Bhubaneswar,Odisha,20.2961,85.8245,36.7,44,0.0,993.7,8.25,33.8,132,65.9,43.3,2.8,311.0,198.0,14.2,0,5,10,1,2026-06-09T15:21:01.846794+05:30
Cuttack,Odisha,20.4625,85.8828,36.2,49,0.0,995.2,8.65,33.5,132,65.9,43.3,2.8,248.0,198.0,14.2,0,5,10,1,2026-06-09T15:21:01.846801+05:30
Rourkela,Odisha,22.2604,84.8536,37.7,35,0.0,976.7,8.75,33.8,121,64.3,33.2,1.4,216.0,155.0,7.4,0,5,10,1,2026-06-09T15:21:01.846808+05:30
Raipur,Chhattisgarh,21.2514,81.6296,40.1,25,0.0,967.2,8.9,39.2,117,76.4,38.5,4.7,153.0,162.0,25.1,0,5,10,1,2026-06-09T15:21:01.846814+05:30
Bhilai,Chhattisgarh,21.1938,81.3509,39.5,27,0.0,967.6,8.45,40.7,110,72.6,37.0,5.4,201.0,150.0,23.9,0,5,10,1,2026-06-09T15:21:01.846821+05:30
Guwahati,Assam,26.1158,91.7086,27.6,90,0.2,992.3,8.8,30.2,89,29.0,21.1,1.9,331.0,124.0,3.9,10,5,7,1,2026-06-09T15:21:01.846828+05:30
Agartala,Tripura,23.8315,91.2868,29.3,87,0.3,997.5,8.85,36.0,71,38.1,24.0,4.2,193.0,117.0,3.3,10,5,7,1,2026-06-09T15:21:01.846835+05:30
Shillong,Meghalaya,25.5788,91.8933,24.3,68,0.1,852.1,7.3,31.7,64,19.7,14.3,1.8,247.0,127.0,2.9,6,5,7,1,2026-06-09T15:21:01.846841+05:30
Imphal,Manipur,24.817,93.9368,27.9,64,0.0,916.3,8.4,34.9,68,35.7,23.9,1.1,249.0,117.0,3.7,7,5,7,1,2026-06-09T15:21:01.846848+05:30
Aizawl,Mizoram,23.7271,92.7176,25.7,61,0.0,887.3,8.85,34.9,52,34.9,21.0,0.6,194.0,109.0,2.4,7,5,7,1,2026-06-09T15:21:01.846855+05:30
Kohima,Nagaland,25.6701,94.1077,21.6,97,0.3,849.7,6.7,29.2,49,9.6,7.2,0.9,226.0,107.0,2.3,6,5,7,1,2026-06-09T15:21:01.846862+05:30
Gangtok,Sikkim,27.3314,88.6138,21.3,88,0.2,832.5,8.9,36.4,118,26.5,17.8,1.1,305.0,155.0,4.6,6,5,7,1,2026-06-09T15:21:01.846868+05:30
Siliguri,West Bengal,26.7271,88.3953,29.8,73,0.0,984.0,8.75,23.0,142,69.4,47.7,2.2,456.0,176.0,9.7,7,5,7,1,2026-06-09T15:21:05.200275+05:30
Durgapur,West Bengal,23.5204,87.3119,38.3,34,0.0,985.0,8.85,33.8,166,112.2,55.3,7.2,307.0,197.0,30.9,0,5,10,1,2026-06-09T15:21:05.200312+05:30
Asansol,West Bengal,23.6739,86.9524,39.4,26,0.0,983.7,8.8,43.2,156,104.1,44.7,5.8,292.0,164.0,22.6,0,5,10,1,2026-06-09T15:21:05.200324+05:30
Pondicherry,Puducherry,11.9139,79.8145,36.7,42,0.0,1003.1,8.0,50.0,39,9.3,8.7,3.6,146.0,105.0,8.1,0,5,7,1,2026-06-09T15:21:05.200335+05:30
Port Blair,Andaman and Nicobar Islands,11.6234,92.7265,27.1,90,0.1,1003.9,8.75,47.5,24,6.8,3.9,0.3,88.0,56.0,0.3,10,5,4,1,2026-06-09T15:21:05.200345+05:30
Haridwar,Uttarakhand,29.9457,78.1642,37.9,29,0.0,964.8,7.65,30.2,154,39.3,25.2,1.5,253.0,198.0,8.3,0,5,10,1,2026-06-09T15:21:05.200356+05:30
Rishikesh,Uttarakhand,30.0869,78.2676,36.5,32,0.0,958.1,7.75,24.5,145,36.4,20.7,0.8,220.0,181.0,5.3,0,5,10,1,2026-06-09T15:21:05.200366+05:30
Nainital,Uttarakhand,29.3919,79.4542,24.6,38,0.0,803.8,8.6,42.5,135,42.4,22.5,1.3,205.0,192.0,10.7,0,5,7,0,2026-06-09T15:21:05.200376+05:30
Mussoorie,Uttarakhand,30.4599,78.0664,22.6,50,0.0,801.1,8.15,53.6,141,26.3,22.6,1.6,216.0,211.0,9.8,0,5,7,0,2026-06-09T15:21:05.200383+05:30
Dharamshala,Himachal Pradesh,32.219,76.3234,28.9,32,0.0,865.8,8.5,47.2,105,13.9,9.5,0.5,197.0,165.0,2.0,4,5,7,0,2026-06-09T15:21:05.200391+05:30
Dalhousie,Himachal Pradesh,32.5387,75.971,24.7,39,0.1,803.6,8.75,38.5,129,24.7,16.1,1.3,201.0,183.0,3.4,3,5,7,0,2026-06-09T15:21:05.200400+05:30
Patiala,Punjab,30.3398,76.3869,41.5,17,0.0,969.0,7.65,42.5,293,468.5,65.0,1.4,221.0,189.0,7.0,0,5,10,0,2026-06-09T15:21:05.200408+05:30
Bhatinda,Punjab,30.211,74.9455,43.2,19,0.0,973.8,8.35,33.5,115,64.7,29.0,2.1,208.0,180.0,9.8,0,5,10,0,2026-06-09T15:21:05.200415+05:30
Rohtak,Haryana,28.8955,76.6066,40.9,21,0.0,972.4,7.85,31.3,713,1143.7,147.6,1.9,192.0,150.0,5.7,0,5,10,0,2026-06-09T15:21:05.200422+05:30
Panipat,Haryana,29.3909,76.9635,40.6,19,0.0,970.8,7.65,34.6,893,1493.8,168.6,2.4,245.0,171.0,10.0,0,5,10,0,2026-06-09T15:21:05.200430+05:30
Mathura,Uttar Pradesh,27.4924,77.6737,40.7,21,0.0,977.1,8.1,49.0,671,1914.8,226.3,1.6,140.0,115.0,3.6,0,5,10,0,2026-06-09T15:21:05.200437+05:30
Vrindavan,Uttar Pradesh,27.5823,77.7027,40.8,21,0.0,977.5,8.05,48.2,671,1914.8,226.3,1.6,141.0,115.0,3.6,0,5,10,0,2026-06-09T15:21:05.200444+05:30
Ayodhya,Uttar Pradesh,26.7922,82.1998,38.8,34,0.0,984.7,8.45,19.4,152,161.6,56.1,1.8,224.0,192.0,8.2,0,5,10,1,2026-06-09T15:21:05.200451+05:30
Ratlam,Madhya Pradesh,23.3315,75.0367,37.3,35,0.0,949.5,8.55,43.9,80,50.9,27.1,0.5,127.0,106.0,3.4,0,5,10,1,2026-06-09T15:21:05.200459+05:30
Sagar,Madhya Pradesh,23.8388,78.7378,38.0,32,0.0,944.2,8.05,41.4,77,57.2,24.2,0.6,145.0,120.0,3.5,0,5,10,1,2026-06-09T15:21:05.200466+05:30
Satna,Madhya Pradesh,24.6005,80.8322,40.0,24,0.0,963.3,8.8,42.8,77,65.4,24.4,0.7,147.0,122.0,3.1,0,5,10,0,2026-06-09T15:21:05.200473+05:30
Akola,Maharashtra,20.7002,77.0082,40.2,24,0.0,968.9,8.65,42.8,78,63.1,26.4,1.2,129.0,114.0,5.7,0,5,10,0,2026-06-09T15:21:05.200481+05:30
Amravati,Maharashtra,20.9374,77.7796,39.1,30,0.0,961.5,8.85,43.9,80,61.9,26.9,1.4,135.0,117.0,6.6,0,5,10,1,2026-06-09T15:21:05.200489+05:30
Latur,Maharashtra,18.4088,76.5604,34.4,41,0.0,935.6,8.6,39.2,72,60.1,24.0,0.9,128.0,105.0,2.8,0,5,7,1,2026-06-09T15:21:05.200497+05:30
Nanded,Maharashtra,19.1383,77.3091,37.7,34,0.0,963.2,8.9,38.2,87,71.0,27.5,1.0,141.0,111.0,2.6,0,5,10,1,2026-06-09T15:21:05.200504+05:30
Gulbarga,Karnataka,17.3297,76.8343,33.1,49,0.0,954.3,3.55,41.0,56,37.7,16.7,1.4,128.0,106.0,2.4,0,5,3,1,2026-06-09T15:21:05.200511+05:30
Bidar,Karnataka,17.9104,77.5199,33.9,45,0.0,931.3,4.85,50.4,74,62.4,28.5,1.4,136.0,118.0,4.5,0,5,3,1,2026-06-09T15:21:05.200518+05:30
Hospet,Karnataka,15.2689,76.3909,30.5,54,0.0,953.3,6.6,46.8,25,7.1,3.9,2.0,129.0,69.0,1.3,0,5,7,1,2026-06-09T15:21:05.200525+05:30
Tirupur,Tamil Nadu,11.1085,77.3411,29.2,67,0.0,973.2,5.05,55.1,26,4.1,3.3,2.3,130.0,78.0,1.9,7,5,3,1,2026-06-09T15:21:05.200532+05:30
Alappuzha,Kerala,9.4981,76.3388,26.5,91,0.2,1009.8,8.3,49.7,33,11.8,6.5,1.8,86.0,60.0,1.3,10,0,4,1,2026-06-09T15:21:05.200539+05:30
Munnar,Kerala,10.0889,77.0595,17.3,97,0.1,856.0,2.15,52.9,22,2.8,2.2,1.9,99.0,61.0,1.2,6,10,3,1,2026-06-09T15:21:05.200547+05:30
Silchar,Assam,24.8333,92.7789,30.2,75,0.1,996.8,8.8,26.3,74,34.8,23.6,1.3,252.0,127.0,4.3,6,5,7,1,2026-06-09T15:21:05.200554+05:30
Dibrugarh,Assam,27.4728,94.912,29.9,76,0.0,986.1,5.9,23.4,91,20.5,17.2,1.5,246.0,137.0,2.1,7,5,3,1,2026-06-09T15:21:05.200561+05:30
