city,state,latitude,longitude,temp,humidity,rain,pressure,uv_index,wind_gusts,aqi,pm10,pm2_5,no2,co,o3,so2,mosquito_risk,arthritis_risk,migraine_risk,frizz_risk,updated_at
Delhi,Delhi,28.6139,77.209,30.1,79,0.0,978.2,6.85,30.2,318,568.1,153.2,56.2,648.0,40.0,28.2,3,5,7,1,2026-07-19T21:32:36.485151+05:30
Mumbai,Maharashtra,19.076,72.8777,25.8,94,0.1,1007.2,5.1,43.2,60,21.9,10.5,7.7,241.0,45.0,6.0,10,5,0,1,2026-07-19T21:32:36.485194+05:30
Bangalore,Karnataka,12.9716,77.5946,21.7,90,0.0,912.3,7.25,43.6,50,14.9,10.7,16.9,424.0,39.0,5.6,3,5,7,1,2026-07-19T21:32:36.485209+05:30
Hyderabad,Telangana,17.385,78.4867,23.8,91,0.2,952.5,3.5,42.1,37,17.9,11.0,7.4,218.0,57.0,4.0,6,5,3,1,2026-07-19T21:32:36.485219+05:30
Chennai,Tamil Nadu,13.0827,80.2707,29.0,78,0.0,1006.6,7.5,42.8,76,31.5,23.1,15.3,210.0,77.0,9.9,7,5,4,1,2026-07-19T21:32:36.485228+05:30
Kolkata,West Bengal,22.5726,88.3639,28.0,88,0.0,1003.2,7.05,32.4,61,20.4,16.1,7.5,281.0,72.0,6.5,7,5,4,1,2026-07-19T21:32:36.485236+05:30
Pune,Maharashtra,18.5204,73.8567,23.7,87,0.0,946.9,3.5,46.8,21,3.7,3.3,8.4,176.0,34.0,5.5,3,5,3,1,2026-07-19T21:32:36.485243+05:30
Ahmedabad,Gujarat,23.0225,72.5714,29.1,80,0.0,997.7,6.65,32.4,64,33.8,18.2,11.4,168.0,53.0,7.0,7,5,7,1,2026-07-19T21:32:36.485250+05:30
Jaipur,Rajasthan,26.9124,75.7873,28.2,78,0.0,955.7,7.95,34.6,122,65.9,28.2,15.8,339.0,57.0,6.4,7,5,7,1,2026-07-19T21:32:36.485256+05:30
Lucknow,Uttar Pradesh,26.8467,80.9462,27.7,95,0.2,989.8,5.6,24.5,146,80.8,53.6,25.2,412.0,53.0,11.2,10,5,3,1,2026-07-19T21:32:36.485269+05:30
Kanpur,Uttar Pradesh,26.4499,80.3319,27.5,97,0.3,988.3,6.25,24.1,148,61.7,36.2,21.3,383.0,45.0,7.4,10,5,7,1,2026-07-19T21:32:36.485276+05:30
Chandigarh,Chandigarh,30.7333,76.7794,27.5,92,0.0,963.8,5.85,27.7,154,112.2,66.1,51.8,534.0,34.0,13.5,7,5,3,1,2026-07-19T21:32:36.485283+05:30
Srinagar,Jammu and Kashmir,34.0837,74.7973,25.3,81,0.0,838.6,9.05,31.0,79,21.8,20.5,22.0,1017.0,56.0,4.0,7,5,7,1,2026-07-19T21:32:36.485290+05:30
Jammu,Jammu and Kashmir,32.7266,74.857,29.6,81,0.0,966.7,6.55,28.4,142,125.3,58.3,20.0,360.0,75.0,7.0,7,5,7,1,2026-07-19T21:32:36.485297+05:30
Amritsar,Punjab,31.634,74.8723,31.1,83,0.0,974.1,7.8,32.0,173,137.8,82.0,16.4,680.0,86.0,10.8,3,5,7,1,2026-07-19T21:32:36.485303+05:30
Ludhiana,Punjab,30.901,75.8573,31.8,78,0.0,972.5,7.4,27.7,182,125.3,80.6,31.4,979.0,50.0,18.1,3,5,7,1,2026-07-19T21:32:36.485309+05:30
Jalandhar,Punjab,31.326,75.5762,31.1,78,0.0,973.4,3.85,29.5,172,123.9,71.2,25.2,689.0,60.0,18.9,3,5,3,1,2026-07-19T21:32:36.485315+05:30
Dehradun,Uttarakhand,30.6284,78.0322,19.5,100,0.0,828.3,5.1,26.6,63,44.7,20.7,14.6,245.0,71.0,2.8,3,10,3,1,2026-07-19T21:32:36.485321+05:30
Shimla,Himachal Pradesh,31.1048,77.1734,17.0,97,0.0,782.9,3.8,42.1,73,31.2,17.8,16.7,287.0,55.0,2.3,3,10,3,1,2026-07-19T21:32:36.485327+05:30
Manali,Himachal Pradesh,32.2396,77.1887,20.9,93,0.1,817.5,5.15,32.0,50,7.5,6.7,25.5,234.0,52.0,1.0,6,5,3,1,2026-07-19T21:32:36.485336+05:30
Gurgaon,Haryana,28.4595,77.0266,29.8,82,0.0,976.5,7.0,28.4,250,288.7,94.8,48.8,1347.0,25.0,16.8,7,5,7,1,2026-07-19T21:32:36.485343+05:30
Noida,Uttar Pradesh,28.5355,77.391,29.6,84,0.0,979.7,5.3,25.6,250,288.7,94.8,48.8,628.0,25.0,16.8,7,5,3,1,2026-07-19T21:32:36.485349+05:30
Ghaziabad,Uttar Pradesh,28.6692,77.4538,29.1,92,0.0,977.9,6.35,25.2,199,201.6,96.4,30.5,478.0,76.0,17.1,7,5,7,1,2026-07-19T21:32:36.485357+05:30
Faridabad,Haryana,28.4089,77.3178,29.8,82,0.0,978.9,6.05,30.2,250,288.7,94.8,48.8,564.0,25.0,16.8,7,5,7,1,2026-07-19T21:32:36.485363+05:30
Meerut,Uttar Pradesh,28.9845,77.7064,28.5,94,0.0,976.8,6.5,41.4,199,201.6,96.4,30.5,464.0,76.0,17.1,7,5,7,1,2026-07-19T21:32:36.485368+05:30
Agra,Uttar Pradesh,27.1767,78.0081,28.8,89,0.0,983.4,3.55,36.0,164,86.4,56.5,38.8,268.0,31.0,11.9,7,5,3,1,2026-07-19T21:32:36.485374+05:30
Varanasi,Uttar Pradesh,25.3176,82.9739,28.2,92,0.0,993.1,6.85,20.9,109,56.0,48.3,22.2,867.0,64.0,11.9,7,5,7,1,2026-07-19T21:32:36.485381+05:30
Prayagraj,Uttar Pradesh,25.4358,81.8463,28.2,90,0.0,992.1,5.8,19.8,125,73.8,56.8,27.1,318.0,43.0,12.7,7,5,3,1,2026-07-19T21:32:36.485387+05:30
Gorakhpur,Uttar Pradesh,26.7606,83.3732,26.0,95,0.2,993.6,7.1,25.9,70,20.5,20.5,14.9,472.0,80.0,7.3,10,5,7,1,2026-07-19T21:32:36.485393+05:30
Bareilly,Uttar Pradesh,28.367,79.4304,26.6,97,0.3,982.7,5.25,31.7,140,47.4,37.3,16.5,458.0,66.0,9.0,10,5,3,1,2026-07-19T21:32:36.485401+05:30
Aligarh,Uttar Pradesh,27.8974,78.088,28.6,86,0.0,981.0,6.4,28.4,185,267.3,93.4,32.0,322.0,50.0,11.4,7,5,7,1,2026-07-19T21:32:36.485408+05:30
Moradabad,Uttar Pradesh,28.8386,78.7733,27.0,95,0.0,979.4,2.35,34.6,155,56.3,38.9,13.6,462.0,81.0,10.2,7,5,3,1,2026-07-19T21:32:36.485414+05:30
Saharanpur,Uttar Pradesh,29.9637,77.546,27.0,96,0.0,971.1,6.5,33.1,175,116.6,63.3,11.3,416.0,105.0,11.7,7,5,7,1,2026-07-19T21:32:36.485420+05:30
Jhansi,Uttar Pradesh,25.4484,78.5685,27.3,97,0.2,974.5,6.9,31.0,86,31.9,23.4,11.7,289.0,61.0,8.9,10,5,7,1,2026-07-19T21:32:39.824581+05:30
Surat,Gujarat,21.1702,72.8311,28.4,81,0.0,1003.4,7.45,43.2,69,19.7,14.0,19.5,241.0,29.0,30.1,7,5,4,1,2026-07-19T21:32:39.824611+05:30
Vadodara,Gujarat,22.3072,73.1812,27.7,87,0.1,1000.5,6.1,31.3,64,17.5,12.9,16.6,148.0,36.0,18.4,10,5,4,1,2026-07-19T21:32:39.824645+05:30
Rajkot,Gujarat,22.3039,70.8022,28.6,74,0.0,989.8,6.0,45.4,60,25.0,13.5,6.8,114.0,38.0,5.1,7,5,3,1,2026-07-19T21:32:39.824654+05:30
Thane,Maharashtra,19.2183,72.9781,24.9,98,0.1,1006.6,5.5,38.9,60,21.9,10.5,7.7,271.0,45.0,6.0,6,5,0,1,2026-07-19T21:32:39.824663+05:30
Nagpur,Maharashtra,21.1458,79.0882,26.4,95,0.0,970.4,5.35,31.3,62,32.1,25.3,23.5,468.0,34.0,14.0,7,5,3,1,2026-07-19T21:32:39.824671+05:30
Nashik,Maharashtra,19.9975,73.7898,22.8,96,0.0,943.6,4.65,36.7,24,3.3,2.6,9.3,152.0,36.0,5.0,3,5,3,1,2026-07-19T21:32:39.824679+05:30
Aurangabad,Maharashtra,19.8762,75.3433,23.4,95,0.0,942.5,6.5,40.7,34,6.4,5.7,9.0,177.0,43.0,9.1,3,5,7,1,2026-07-19T21:32:39.824686+05:30
Solapur,Maharashtra,17.6599,75.9064,25.1,91,0.0,956.7,3.05,48.6,39,8.8,6.7,6.0,162.0,39.0,2.3,7,5,3,1,2026-07-19T21:32:39.824693+05:30
Kolhapur,Maharashtra,16.705,74.2433,22.3,92,0.0,948.0,8.0,48.2,28,5.4,4.5,5.8,157.0,36.0,2.5,3,5,7,1,2026-07-19T21:32:39.824701+05:30
Goa,Goa,15.2993,74.124,24.4,98,0.0,999.5,6.5,25.6,63,27.9,15.5,4.6,340.0,41.0,1.4,3,5,7,1,2026-07-19T21:32:39.824708+05:30
Jodhpur,Rajasthan,26.2389,73.0243,32.5,50,0.0,977.5,7.65,42.1,98,111.5,28.9,7.3,131.0,56.0,2.2,0,5,7,1,2026-07-19T21:32:39.824715+05:30
Udaipur,Rajasthan,24.5854,73.7125,27.6,67,0.0,942.4,6.25,29.9,64,28.6,17.8,5.9,184.0,79.0,6.7,7,5,7,1,2026-07-19T21:32:39.824722+05:30
Kota,Rajasthan,25.2138,75.8648,30.5,62,0.0,974.9,7.65,28.1,76,30.5,22.1,13.8,187.0,66.0,8.0,3,5,7,1,2026-07-19T21:32:39.824729+05:30
Bikaner,Rajasthan,28.0229,73.3119,35.2,41,0.0,975.4,8.05,35.3,119,129.9,36.4,2.1,120.0,69.0,2.0,0,5,10,1,2026-07-19T21:32:39.824737+05:30
Ajmer,Rajasthan,26.4499,74.6399,30.6,63,0.0,950.3,8.15,43.6,71,24.9,17.1,11.5,256.0,58.0,4.0,3,5,7,1,2026-07-19T21:32:39.824744+05:30
Gwalior,Madhya Pradesh,26.2183,78.1828,28.1,90,0.0,979.6,6.7,32.0,98,32.0,24.1,11.7,204.0,57.0,5.8,7,5,7,1,2026-07-19T21:32:39.824752+05:30
Indore,Madhya Pradesh,22.7196,75.8577,26.3,87,0.0,945.0,7.95,43.6,61,26.3,19.1,12.0,362.0,56.0,5.8,7,5,7,1,2026-07-19T21:32:39.824759+05:30
Bhopal,Madhya Pradesh,23.2599,77.4126,27.0,86,0.0,950.5,7.9,29.2,69,20.7,17.3,11.5,350.0,51.0,4.3,7,5,7,1,2026-07-19T21:32:39.824767+05:30
Jabalpur,Madhya Pradesh,23.1815,79.9864,25.8,98,0.0,958.4,7.95,31.3,83,37.4,26.6,10.9,313.0,62.0,4.3,7,5,7,1,2026-07-19T21:32:39.824774+05:30
Ujjain,Madhya Pradesh,23.1765,75.7885,26.5,87,0.0,950.4,7.5,31.7,61,25.7,18.3,8.0,373.0,61.0,3.6,7,5,7,1,2026-07-19T21:32:39.824782+05:30
Visakhapatnam,Andhra Pradesh,17.6868,83.2185,28.6,88,0.0,1000.6,8.4,35.3,92,23.7,20.5,23.4,391.0,62.0,33.9,7,5,4,1,2026-07-19T21:32:39.824789+05:30
Vijayawada,Andhra Pradesh,16.5062,80.648,29.3,79,0.0,1000.5,8.35,37.8,62,34.6,31.7,19.6,312.0,38.0,6.9,7,5,4,1,2026-07-19T21:32:39.824796+05:30
Guntur,Andhra Pradesh,16.3067,80.4365,29.7,67,0.0,1001.9,7.8,40.3,56,31.9,29.3,19.6,251.0,34.0,6.4,7,5,4,1,2026-07-19T21:32:39.824804+05:30
Nellore,Andhra Pradesh,14.4426,79.9865,28.8,76,0.0,1004.7,7.55,38.2,60,30.0,20.9,9.5,281.0,62.0,4.7,7,5,4,1,2026-07-19T21:32:39.824812+05:30
Kurnool,Andhra Pradesh,15.8281,78.0373,25.0,91,0.2,976.9,8.1,43.9,44,29.3,16.8,6.9,153.0,54.0,4.6,10,5,7,1,2026-07-19T21:32:39.824820+05:30
Kakinada,Andhra Pradesh,16.9891,82.2475,29.6,75,0.0,1004.8,8.85,45.0,63,19.7,16.1,6.5,312.0,84.0,4.3,7,5,4,1,2026-07-19T21:32:39.824827+05:30
Tirupati,Andhra Pradesh,13.6288,79.4192,27.5,81,0.0,990.8,7.85,32.0,63,34.1,24.0,23.7,148.0,20.0,3.4,7,5,7,1,2026-07-19T21:32:39.824834+05:30
Warangal,Telangana,17.9689,79.5941,26.0,93,0.0,976.9,7.15,38.9,53,28.0,22.2,11.5,263.0,46.0,4.4,7,5,7,1,2026-07-19T21:32:39.824841+05:30
Nizamabad,Telangana,18.6725,78.0941,24.1,96,0.1,963.6,0.9,37.8,53,14.1,10.2,6.4,207.0,61.0,5.1,6,5,3,1,2026-07-19T21:32:39.824848+05:30
Mysore,Karnataka,12.2958,76.6396,21.9,90,0.0,929.7,6.8,45.7,39,11.6,7.6,6.4,146.0,43.0,2.3,3,5,7,1,2026-07-19T21:32:39.824855+05:30
Mangalore,Karnataka,12.9141,74.856,24.8,96,0.1,1009.2,8.25,31.0,56,19.9,10.9,5.6,210.0,37.0,2.0,6,0,4,1,2026-07-19T21:32:39.824862+05:30
Hubli-Dharwad,Karnataka,15.3647,75.124,22.9,91,0.0,941.6,7.5,54.0,25,4.1,2.8,5.7,117.0,35.0,1.5,3,5,7,1,2026-07-19T21:32:39.824869+05:30
Belgaum,Karnataka,15.8497,74.4977,21.4,95,0.0,926.2,7.75,53.6,22,2.6,2.3,5.1,133.0,37.0,1.6,3,5,7,1,2026-07-19T21:32:43.161683+05:30
Coimbatore,Tamil Nadu,11.0168,76.9558,23.9,91,0.0,962.7,7.9,45.7,43,7.5,5.9,5.9,188.0,40.0,3.1,3,5,7,1,2026-07-19T21:32:43.161715+05:30
Madurai,Tamil Nadu,9.9252,78.1198,30.0,65,0.0,993.6,7.95,38.9,71,35.3,24.0,18.9,301.0,53.0,6.4,7,5,7,1,2026-07-19T21:32:43.161731+05:30
Trichy,Tamil Nadu,10.7905,78.7047,29.1,68,0.0,1000.7,8.4,42.8,53,22.2,15.9,9.7,193.0,65.0,4.4,7,5,4,1,2026-07-19T21:32:43.161740+05:30
Salem,Tamil Nadu,11.6643,78.146,26.3,92,0.0,978.1,6.3,38.2,62,25.1,17.8,15.9,381.0,42.0,5.4,7,5,7,1,2026-07-19T21:32:43.161747+05:30
Tirunelveli,Tamil Nadu,8.7139,77.7567,30.0,59,0.0,1004.5,8.5,49.0,35,7.7,5.8,4.9,132.0,43.0,2.0,4,5,4,1,2026-07-19T21:32:43.161755+05:30
Vellore,Tamil Nadu,12.9165,79.1325,29.2,64,0.0,984.1,7.15,36.7,67,30.6,20.5,20.6,192.0,34.0,4.6,7,5,7,1,2026-07-19T21:32:43.161762+05:30
Erode,Tamil Nadu,11.341,77.7172,27.0,76,0.0,989.9,7.35,37.8,54,16.4,12.2,14.3,170.0,34.0,3.8,7,5,7,1,2026-07-19T21:32:43.161769+05:30
Kochi,Kerala,9.9312,76.2673,25.3,97,0.1,1011.4,8.4,32.0,55,21.1,16.1,15.5,151.0,25.0,5.2,10,0,4,1,2026-07-19T21:32:43.161777+05:30
Thiruvananthapuram,Kerala,8.5241,76.9366,24.4,96,0.1,1011.1,7.95,42.1,50,15.5,8.0,3.0,112.0,51.0,1.2,6,0,4,1,2026-07-19T21:32:43.161784+05:30
Kozhikode,Kerala,11.2588,75.7804,25.1,94,0.1,1010.5,8.0,33.1,41,14.6,6.7,1.2,207.0,50.0,0.9,10,0,4,1,2026-07-19T21:32:43.161791+05:30
Thrissur,Kerala,10.5276,76.2144,24.6,98,0.1,1009.7,8.15,32.8,53,15.0,11.6,9.3,211.0,30.0,3.2,6,0,4,1,2026-07-19T21:32:43.161800+05:30
Kannur,Kerala,11.8745,75.3704,24.8,97,0.1,1009.9,8.0,31.0,50,17.2,10.1,8.0,169.0,31.0,2.2,6,0,4,1,2026-07-19T21:32:43.161807+05:30
Patna,Bihar,25.5941,85.1376,26.3,97,0.0,997.3,7.35,28.8,81,36.9,36.7,21.1,433.0,69.0,13.0,7,5,7,1,2026-07-19T21:32:43.161814+05:30
Gaya,Bihar,24.7914,85.0002,28.1,92,0.0,990.0,8.45,24.8,73,25.1,24.6,14.7,417.0,67.0,8.8,7,5,7,1,2026-07-19T21:32:43.161821+05:30
Muzaffarpur,Bihar,26.1209,85.3647,26.6,97,0.1,997.3,7.0,28.4,71,34.8,34.6,18.9,414.0,74.0,11.9,10,5,7,1,2026-07-19T21:32:43.161827+05:30
Bhagalpur,Bihar,25.2425,87.0117,27.1,94,0.1,998.6,7.55,27.0,77,28.1,27.5,13.9,273.0,80.0,10.8,10,5,7,1,2026-07-19T21:32:43.161834+05:30
Ranchi,Jharkhand,23.3441,85.3096,23.6,97,0.0,934.7,8.1,24.8,75,27.2,25.1,9.8,323.0,89.0,12.4,3,5,7,1,2026-07-19T21:32:43.161841+05:30
Jamshedpur,Jharkhand,22.8046,86.2029,26.3,98,0.0,987.8,8.2,29.9,96,22.7,22.1,16.1,672.0,63.0,18.5,7,5,7,1,2026-07-19T21:32:43.161849+05:30
Dhanbad,Jharkhand,23.7957,86.4304,26.0,95,0.0,977.0,7.8,27.7,149,50.8,50.3,52.8,710.0,35.0,114.9,7,5,7,1,2026-07-19T21:32:43.161856+05:30
Bokaro,Jharkhand,23.6693,86.1511,26.6,97,0.0,980.7,8.3,28.1,151,49.6,49.1,48.2,2224.0,44.0,115.8,7,5,7,1,2026-07-19T21:32:43.161864+05:30
Bhubaneswar,Odisha,20.2961,85.8245,27.1,96,0.0,999.8,8.3,31.0,80,50.2,42.1,12.6,429.0,104.0,8.8,7,5,7,1,2026-07-19T21:32:43.161871+05:30
Cuttack,Odisha,20.4625,85.8828,27.0,98,0.0,1001.7,8.65,34.9,80,50.2,42.1,12.6,503.0,104.0,8.8,7,5,4,1,2026-07-19T21:32:43.161878+05:30
Rourkela,Odisha,22.2604,84.8536,26.4,96,0.1,982.1,7.4,29.2,96,33.9,29.4,11.5,449.0,94.0,16.6,10,5,7,1,2026-07-19T21:32:43.161886+05:30
Raipur,Chhattisgarh,21.2514,81.6296,26.0,97,0.0,971.9,7.85,29.5,91,48.3,41.0,40.4,756.0,43.0,54.1,7,5,7,1,2026-07-19T21:32:43.161893+05:30
Bhilai,Chhattisgarh,21.1938,81.3509,25.7,98,0.0,972.3,5.4,36.4,83,41.2,33.8,31.4,1046.0,54.0,43.2,7,5,3,1,2026-07-19T21:32:43.161900+05:30
Guwahati,Assam,26.1158,91.7086,25.1,99,0.2,1000.7,2.65,28.8,59,16.9,16.4,9.7,265.0,41.0,2.8,10,5,0,1,2026-07-19T21:32:43.161907+05:30
Agartala,Tripura,23.8315,91.2868,25.2,97,0.1,1005.6,7.95,45.0,55,12.4,10.9,9.4,186.0,44.0,2.9,10,5,4,1,2026-07-19T21:32:43.161914+05:30
Shillong,Meghalaya,25.5788,91.8933,19.7,97,0.1,856.8,2.1,33.5,29,1.7,1.7,6.4,195.0,50.0,2.1,6,10,3,1,2026-07-19T21:32:43.161921+05:30
Imphal,Manipur,24.817,93.9368,22.4,99,0.2,923.1,1.15,22.3,52,12.9,11.4,10.8,524.0,27.0,2.2,6,5,3,1,2026-07-19T21:32:43.161928+05:30
Aizawl,Mizoram,23.7271,92.7176,19.8,91,0.1,892.4,3.15,41.0,40,19.1,11.9,4.7,127.0,30.0,0.8,6,10,3,1,2026-07-19T21:32:43.161936+05:30
Kohima,Nagaland,25.6701,94.1077,20.4,93,0.4,855.4,1.9,18.4,27,3.9,3.8,6.3,232.0,37.0,0.4,6,5,3,1,2026-07-19T21:32:43.161943+05:30
Gangtok,Sikkim,27.3314,88.6138,19.1,99,0.0,838.0,3.4,27.4,33,4.1,4.0,4.7,232.0,81.0,1.1,3,10,3,1,2026-07-19T21:32:43.161950+05:30
Siliguri,West Bengal,26.7271,88.3953,25.0,96,0.3,991.7,3.4,24.5,53,13.1,12.8,10.3,369.0,68.0,3.3,10,5,3,1,2026-07-19T21:32:46.493748+05:30
Durgapur,West Bengal,23.5204,87.3119,27.0,93,0.0,992.3,7.3,31.0,113,35.5,34.5,26.3,326.0,52.0,30.0,7,5,7,1,2026-07-19T21:32:46.493781+05:30
Asansol,West Bengal,23.6739,86.9524,26.7,97,0.0,990.8,6.9,29.5,113,34.3,33.6,31.7,745.0,50.0,35.8,7,5,7,1,2026-07-19T21:32:46.493793+05:30
Pondicherry,Puducherry,11.9139,79.8145,29.8,71,0.0,1008.1,8.1,39.2,72,29.8,19.0,10.3,189.0,73.0,7.8,7,0,4,1,2026-07-19T21:32:46.493801+05:30
Port Blair,Andaman and Nicobar Islands,11.6234,92.7265,26.3,88,0.0,1009.6,8.75,37.4,54,22.0,11.6,0.2,89.0,42.0,0.4,7,0,4,1,2026-07-19T21:32:46.493810+05:30
Haridwar,Uttarakhand,29.9457,78.1642,26.1,96,0.0,969.5,7.1,30.2,162,128.1,57.5,6.9,339.0,105.0,9.8,7,5,7,1,2026-07-19T21:32:46.493817+05:30
Rishikesh,Uttarakhand,30.0869,78.2676,26.0,98,0.0,962.3,5.7,25.9,152,131.3,45.3,5.3,299.0,96.0,7.3,7,5,3,1,2026-07-19T21:32:46.493826+05:30
Nainital,Uttarakhand,29.3919,79.4542,17.7,99,0.1,804.3,3.9,25.6,67,19.1,12.1,8.3,271.0,89.0,2.8,6,10,3,1,2026-07-19T21:32:46.493834+05:30
Mussoorie,Uttarakhand,30.4599,78.0664,18.1,100,0.0,801.3,2.75,30.2,117,140.6,57.6,17.5,328.0,89.0,11.8,3,10,3,1,2026-07-19T21:32:46.493843+05:30
Dharamshala,Himachal Pradesh,32.219,76.3234,22.6,100,0.0,866.3,3.95,26.3,41,15.4,9.2,9.3,326.0,67.0,1.1,3,5,3,1,2026-07-19T21:32:46.493851+05:30
Dalhousie,Himachal Pradesh,32.5387,75.971,19.5,99,0.1,803.5,6.45,21.6,89,94.3,35.9,13.5,504.0,77.0,3.4,6,10,7,1,2026-07-19T21:32:46.493859+05:30
Patiala,Punjab,30.3398,76.3869,29.3,91,0.0,972.6,6.45,27.4,206,181.1,102.4,35.4,633.0,54.0,12.9,7,5,7,1,2026-07-19T21:32:46.493867+05:30
Bhatinda,Punjab,30.211,74.9455,34.8,53,0.0,976.8,7.1,28.8,184,216.5,100.1,37.1,347.0,44.0,10.0,0,5,7,1,2026-07-19T21:32:46.493874+05:30
Rohtak,Haryana,28.8955,76.6066,30.9,77,0.0,976.6,6.5,30.6,506,475.0,136.4,65.6,679.0,15.0,13.6,3,5,7,1,2026-07-19T21:32:46.493881+05:30
Panipat,Haryana,29.3909,76.9635,28.7,92,0.0,975.3,6.8,33.5,772,1102.7,210.0,42.8,529.0,43.0,12.2,7,5,7,1,2026-07-19T21:32:46.493889+05:30
Mathura,Uttar Pradesh,27.4924,77.6737,29.5,79,0.0,982.2,2.65,33.8,200,194.2,64.3,39.5,298.0,30.0,6.5,7,5,3,1,2026-07-19T21:32:46.493897+05:30
Vrindavan,Uttar Pradesh,27.5823,77.7027,29.5,78,0.0,982.6,5.05,29.9,200,194.2,64.3,39.5,307.0,30.0,6.5,7,5,3,1,2026-07-19T21:32:46.493904+05:30
Ayodhya,Uttar Pradesh,26.7922,82.1998,27.9,92,0.0,991.5,7.8,21.6,75,26.5,25.8,20.3,463.0,62.0,6.0,7,5,7,1,2026-07-19T21:32:46.493911+05:30
Ratlam,Madhya Pradesh,23.3315,75.0367,26.7,84,0.0,951.3,6.95,33.1,60,25.7,17.9,7.0,273.0,64.0,4.2,7,5,7,1,2026-07-19T21:32:46.493919+05:30
Sagar,Madhya Pradesh,23.8388,78.7378,26.5,86,0.0,947.0,7.95,27.0,78,27.0,20.5,8.7,262.0,61.0,3.0,7,5,7,1,2026-07-19T21:32:46.493926+05:30
Satna,Madhya Pradesh,24.6005,80.8322,26.8,91,0.0,967.8,6.85,28.4,88,47.4,28.6,14.1,305.0,48.0,3.4,7,5,7,1,2026-07-19T21:32:46.493933+05:30
Akola,Maharashtra,20.7002,77.0082,27.0,84,0.0,973.0,7.5,37.8,50,8.5,7.4,8.2,153.0,51.0,5.5,7,5,7,1,2026-07-19T21:32:46.493941+05:30
Amravati,Maharashtra,20.9374,77.7796,26.9,84,0.0,965.0,7.0,40.7,52,9.7,7.9,7.9,175.0,55.0,6.6,7,5,7,1,2026-07-19T21:32:46.493949+05:30
Latur,Maharashtra,18.4088,76.5604,23.6,94,0.3,938.9,7.9,39.6,37,10.4,7.6,4.7,148.0,49.0,1.8,6,5,7,1,2026-07-19T21:32:46.493957+05:30
Nanded,Maharashtra,19.1383,77.3091,24.9,91,0.1,967.4,6.9,37.8,52,17.2,12.2,8.5,166.0,47.0,3.0,6,5,7,1,2026-07-19T21:32:46.493963+05:30
Gulbarga,Karnataka,17.3297,76.8343,23.5,96,0.2,958.3,8.2,40.7,34,14.6,9.3,7.2,156.0,44.0,2.6,6,5,7,1,2026-07-19T21:32:46.493971+05:30
Bidar,Karnataka,17.9104,77.5199,22.9,94,0.0,934.8,2.85,41.4,47,14.6,9.4,7.1,152.0,52.0,1.6,3,5,3,1,2026-07-19T21:32:46.493978+05:30
Hospet,Karnataka,15.2689,76.3909,24.6,81,0.0,956.4,7.0,46.1,36,5.8,4.3,4.7,123.0,39.0,1.7,3,5,7,1,2026-07-19T21:32:46.493985+05:30
Tirupur,Tamil Nadu,11.1085,77.3411,24.8,89,0.1,976.1,7.9,47.5,57,17.8,13.9,16.5,160.0,31.0,4.9,6,5,7,1,2026-07-19T21:32:46.493992+05:30
Alappuzha,Kerala,9.4981,76.3388,25.5,96,0.2,1011.6,8.1,36.7,51,20.1,12.4,8.3,88.0,40.0,2.8,10,0,4,1,2026-07-19T21:32:46.494000+05:30
Munnar,Kerala,10.0889,77.0595,16.6,100,0.0,858.0,6.35,36.0,30,7.7,5.8,5.0,100.0,38.0,1.9,3,10,7,1,2026-07-19T21:32:46.494007+05:30
Silchar,Assam,24.8333,92.7789,26.0,96,0.1,1004.9,2.95,27.7,61,19.3,15.0,6.7,290.0,49.0,4.4,10,5,0,1,2026-07-19T21:32:46.494014+05:30
Dibrugarh,Assam,27.4728,94.912,25.6,97,0.1,994.6,1.8,35.6,52,14.5,14.1,12.6,259.0,38.0,2.2,10,5,3,1,2026-07-19T21:32:46.494022+05:30
