city,state,latitude,longitude,temp,humidity,rain,pressure,uv_index,wind_gusts,aqi,pm10,pm2_5,mosquito_risk,arthritis_risk,migraine_risk,frizz_risk,updated_at
Delhi,Delhi,28.6139,77.209,20.3,64,0.0,983.5,6.9,27.0,151,298.0,78.5,3,5,7,0,2026-04-06T03:05:56.959239+05:30
Mumbai,Maharashtra,19.076,72.8777,27.8,63,0.0,1009.6,7.95,23.4,65,31.1,17.4,7,0,4,1,2026-04-06T03:05:56.959280+05:30
Bangalore,Karnataka,12.9716,77.5946,23.3,78,0.0,910.7,9.6,32.0,96,24.8,22.9,3,5,7,1,2026-04-06T03:05:56.959295+05:30
Hyderabad,Telangana,17.385,78.4867,26.6,68,0.0,951.7,9.2,33.5,128,66.8,57.3,7,5,7,1,2026-04-06T03:05:56.959305+05:30
Chennai,Tamil Nadu,13.0827,80.2707,28.0,88,0.0,1006.0,9.35,28.4,64,20.9,15.5,7,5,4,1,2026-04-06T03:05:56.959314+05:30
Kolkata,West Bengal,22.5726,88.3639,24.4,89,0.0,1004.7,8.65,18.4,134,46.0,42.5,3,5,4,1,2026-04-06T03:05:56.959322+05:30
Pune,Maharashtra,18.5204,73.8567,20.3,81,0.0,948.2,8.55,32.4,69,32.9,22.3,3,5,7,1,2026-04-06T03:05:56.959334+05:30
Ahmedabad,Gujarat,23.0225,72.5714,23.9,48,0.0,1003.2,7.95,28.1,65,38.3,27.8,0,5,4,0,2026-04-06T03:05:56.959341+05:30
Jaipur,Rajasthan,26.9124,75.7873,22.3,47,0.0,960.0,7.55,34.2,100,165.3,30.3,0,5,7,0,2026-04-06T03:05:56.959349+05:30
Lucknow,Uttar Pradesh,26.8467,80.9462,20.7,77,0.0,993.3,7.45,31.7,92,123.9,43.5,3,5,7,1,2026-04-06T03:05:56.959357+05:30
Kanpur,Uttar Pradesh,26.4499,80.3319,20.4,81,0.0,991.9,7.45,33.1,121,227.7,54.4,3,5,7,1,2026-04-06T03:05:56.959364+05:30
Chandigarh,Chandigarh,30.7333,76.7794,18.4,72,0.0,969.2,6.85,18.7,71,37.8,31.1,3,5,7,0,2026-04-06T03:05:56.959371+05:30
Srinagar,Jammu and Kashmir,34.0837,74.7973,5.5,85,0.0,836.2,7.95,16.9,81,61.2,54.7,3,10,7,0,2026-04-06T03:05:56.959379+05:30
Jammu,Jammu and Kashmir,32.7266,74.857,16.5,73,0.0,973.1,7.55,20.5,71,49.2,39.9,3,5,7,0,2026-04-06T03:05:56.959388+05:30
Amritsar,Punjab,31.634,74.8723,17.1,77,0.0,981.5,7.5,16.9,108,112.0,87.3,3,5,7,0,2026-04-06T03:05:56.959395+05:30
Ludhiana,Punjab,30.901,75.8573,18.6,69,0.0,979.5,7.1,21.2,112,114.1,63.6,3,5,7,0,2026-04-06T03:05:56.959401+05:30
Jalandhar,Punjab,31.326,75.5762,17.2,81,0.0,980.7,7.25,16.6,92,77.8,56.8,3,10,7,0,2026-04-06T03:05:56.959409+05:30
Dehradun,Uttarakhand,30.6284,78.0322,9.4,85,0.0,826.7,6.65,28.8,37,17.6,12.1,3,10,7,0,2026-04-06T03:05:56.959416+05:30
Shimla,Himachal Pradesh,31.1048,77.1734,8.1,76,0.0,780.2,6.55,29.2,46,22.3,15.7,3,5,7,0,2026-04-06T03:05:56.959422+05:30
Manali,Himachal Pradesh,32.2396,77.1887,11.1,70,0.0,815.1,9.6,29.2,41,20.7,14.9,3,5,7,0,2026-04-06T03:05:56.959429+05:30
Gurgaon,Haryana,28.4595,77.0266,17.9,76,0.0,981.9,7.05,27.7,352,249.6,70.8,3,5,7,0,2026-04-06T03:05:56.959436+05:30
Noida,Uttar Pradesh,28.5355,77.391,19.7,67,0.0,985.0,6.95,25.2,352,249.6,70.8,3,5,7,0,2026-04-06T03:05:56.959442+05:30
Ghaziabad,Uttar Pradesh,28.6692,77.4538,19.2,70,0.0,983.1,6.9,25.2,128,154.1,55.5,3,5,7,0,2026-04-06T03:05:56.959448+05:30
Faridabad,Haryana,28.4089,77.3178,19.6,65,0.0,984.4,7.0,32.8,352,249.6,70.8,3,5,7,0,2026-04-06T03:05:56.959454+05:30
Meerut,Uttar Pradesh,28.9845,77.7064,17.8,75,0.0,981.7,6.8,25.2,128,154.1,55.5,3,5,7,0,2026-04-06T03:05:56.959460+05:30
Agra,Uttar Pradesh,27.1767,78.0081,18.6,81,0.0,988.5,7.3,27.4,186,212.3,68.9,3,10,7,0,2026-04-06T03:05:56.959467+05:30
Varanasi,Uttar Pradesh,25.3176,82.9739,22.5,77,0.0,997.1,7.9,31.7,92,53.6,37.7,3,5,7,1,2026-04-06T03:05:56.959475+05:30
Prayagraj,Uttar Pradesh,25.4358,81.8463,23.0,75,0.0,995.9,7.55,29.9,77,76.4,30.0,3,5,7,1,2026-04-06T03:05:56.959482+05:30
Gorakhpur,Uttar Pradesh,26.7606,83.3732,22.6,65,0.0,996.0,7.7,31.7,74,47.3,26.5,3,5,7,0,2026-04-06T03:05:56.959489+05:30
Bareilly,Uttar Pradesh,28.367,79.4304,17.6,90,0.0,987.1,7.2,29.5,93,53.3,40.3,3,10,7,0,2026-04-06T03:05:56.959495+05:30
Aligarh,Uttar Pradesh,27.8974,78.088,18.3,79,0.0,985.9,7.1,28.1,153,195.6,84.5,3,5,7,0,2026-04-06T03:05:56.959503+05:30
Moradabad,Uttar Pradesh,28.8386,78.7733,17.7,88,0.0,984.1,7.0,27.7,95,62.2,46.3,3,10,7,0,2026-04-06T03:05:56.959509+05:30
Saharanpur,Uttar Pradesh,29.9637,77.546,17.8,78,0.0,976.2,6.6,22.3,95,109.7,67.1,3,5,7,0,2026-04-06T03:05:56.959516+05:30
Jhansi,Uttar Pradesh,25.4484,78.5685,21.8,73,0.0,977.9,7.9,32.8,53,109.0,30.9,3,5,7,1,2026-04-06T03:06:00.228636+05:30
Surat,Gujarat,21.1702,72.8311,26.3,72,0.0,1007.6,7.7,27.4,80,23.3,16.7,7,5,4,1,2026-04-06T03:06:00.228665+05:30
Vadodara,Gujarat,22.3072,73.1812,25.2,75,0.0,1005.0,7.95,28.1,77,31.5,27.0,7,5,4,1,2026-04-06T03:06:00.228676+05:30
Rajkot,Gujarat,22.3039,70.8022,22.9,84,0.0,996.2,7.7,38.5,50,21.7,9.2,3,5,7,1,2026-04-06T03:06:00.228684+05:30
Thane,Maharashtra,19.2183,72.9781,26.3,66,0.0,1009.1,7.95,37.4,65,31.1,17.4,7,0,4,1,2026-04-06T03:06:00.228691+05:30
Nagpur,Maharashtra,21.1458,79.0882,25.3,53,0.0,971.3,8.65,23.0,74,30.0,23.2,4,5,7,0,2026-04-06T03:06:00.228698+05:30
Nashik,Maharashtra,19.9975,73.7898,18.7,81,0.0,945.6,8.2,32.4,57,29.0,16.9,3,10,7,0,2026-04-06T03:06:00.228705+05:30
Aurangabad,Maharashtra,19.8762,75.3433,22.7,66,0.0,943.7,8.9,29.2,56,15.3,10.0,3,5,7,0,2026-04-06T03:06:00.228712+05:30
Solapur,Maharashtra,17.6599,75.9064,24.5,63,0.0,956.5,9.0,33.8,57,21.8,15.5,3,5,7,1,2026-04-06T03:06:00.228719+05:30
Kolhapur,Maharashtra,16.705,74.2433,17.8,89,0.0,947.3,9.0,38.9,71,45.2,30.6,3,10,7,0,2026-04-06T03:06:00.228726+05:30
Goa,Goa,15.2993,74.124,25.6,83,0.0,998.4,9.0,38.5,69,55.4,28.7,7,5,7,1,2026-04-06T03:06:00.228734+05:30
Jodhpur,Rajasthan,26.2389,73.0243,23.9,40,0.0,983.7,7.85,36.7,67,21.2,10.9,0,5,7,0,2026-04-06T03:06:00.228741+05:30
Udaipur,Rajasthan,24.5854,73.7125,19.9,48,0.0,946.5,8.4,35.3,49,29.0,11.4,0,5,7,0,2026-04-06T03:06:00.228748+05:30
Kota,Rajasthan,25.2138,75.8648,22.3,43,0.0,978.7,7.85,24.5,67,80.1,27.2,0,5,7,0,2026-04-06T03:06:00.228754+05:30
Bikaner,Rajasthan,28.0229,73.3119,22.5,50,0.0,982.6,7.65,27.4,51,34.6,12.7,0,5,7,0,2026-04-06T03:06:00.228761+05:30
Ajmer,Rajasthan,26.4499,74.6399,21.5,52,0.0,954.4,7.75,28.1,52,18.6,10.6,0,5,7,0,2026-04-06T03:06:00.228767+05:30
Gwalior,Madhya Pradesh,26.2183,78.1828,21.7,79,0.0,983.5,7.6,21.6,71,170.4,44.0,3,5,7,1,2026-04-06T03:06:00.228773+05:30
Indore,Madhya Pradesh,22.7196,75.8577,21.6,53,0.0,947.4,8.3,29.9,59,22.3,15.2,0,5,7,0,2026-04-06T03:06:00.228780+05:30
Bhopal,Madhya Pradesh,23.2599,77.4126,22.5,47,0.0,952.8,8.3,30.2,46,16.4,12.3,0,5,7,0,2026-04-06T03:06:00.228786+05:30
Jabalpur,Madhya Pradesh,23.1815,79.9864,26.5,40,0.0,960.2,7.9,25.6,71,28.2,20.3,4,5,7,0,2026-04-06T03:06:00.228792+05:30
Ujjain,Madhya Pradesh,23.1765,75.7885,21.9,54,0.0,953.5,8.2,28.4,50,18.0,10.2,0,5,7,0,2026-04-06T03:06:00.228799+05:30
Visakhapatnam,Andhra Pradesh,17.6868,83.2185,24.4,89,0.0,1003.8,9.1,37.4,88,36.8,31.9,3,5,4,1,2026-04-06T03:06:00.228806+05:30
Vijayawada,Andhra Pradesh,16.5062,80.648,26.8,90,0.0,1001.2,9.15,28.4,78,22.8,20.9,7,5,4,1,2026-04-06T03:06:00.228812+05:30
Guntur,Andhra Pradesh,16.3067,80.4365,27.3,93,0.0,1002.5,9.2,29.5,79,23.5,21.5,7,5,4,1,2026-04-06T03:06:00.228819+05:30
Nellore,Andhra Pradesh,14.4426,79.9865,27.8,91,0.0,1004.2,9.15,28.1,69,20.4,17.0,7,5,4,1,2026-04-06T03:06:00.228826+05:30
Kurnool,Andhra Pradesh,15.8281,78.0373,29.6,49,0.0,975.2,9.2,38.2,105,58.0,49.5,4,5,7,1,2026-04-06T03:06:00.228833+05:30
Kakinada,Andhra Pradesh,16.9891,82.2475,26.5,96,0.0,1006.3,8.55,21.6,62,22.8,17.2,7,5,4,1,2026-04-06T03:06:00.228839+05:30
Tirupati,Andhra Pradesh,13.6288,79.4192,27.0,88,0.0,990.6,8.7,24.8,95,44.1,42.1,7,5,7,1,2026-04-06T03:06:00.228846+05:30
Warangal,Telangana,17.9689,79.5941,26.7,76,0.0,976.6,8.35,33.1,152,81.5,71.7,7,5,7,1,2026-04-06T03:06:00.228852+05:30
Nizamabad,Telangana,18.6725,78.0941,27.1,57,0.0,963.3,8.95,29.2,102,47.6,38.9,4,5,7,1,2026-04-06T03:06:00.228858+05:30
Mysore,Karnataka,12.2958,76.6396,22.9,83,0.0,927.8,9.55,39.2,74,25.5,22.6,3,5,7,1,2026-04-06T03:06:00.228864+05:30
Mangalore,Karnataka,12.9141,74.856,29.3,73,0.0,1006.7,9.2,40.0,62,43.5,20.6,7,5,4,1,2026-04-06T03:06:00.228871+05:30
Hubli-Dharwad,Karnataka,15.3647,75.124,20.1,84,0.0,939.9,9.2,35.6,59,33.1,18.6,3,5,7,1,2026-04-06T03:06:00.228878+05:30
Belgaum,Karnataka,15.8497,74.4977,18.3,82,0.0,924.5,9.25,36.7,62,50.3,27.1,3,10,7,0,2026-04-06T03:06:03.506612+05:30
Coimbatore,Tamil Nadu,11.0168,76.9558,25.0,83,0.0,961.5,9.5,52.6,72,29.6,25.7,7,5,7,1,2026-04-06T03:06:03.506648+05:30
Madurai,Tamil Nadu,9.9252,78.1198,26.9,79,0.0,992.1,9.4,21.2,80,34.1,32.5,7,5,7,1,2026-04-06T03:06:03.506662+05:30
Trichy,Tamil Nadu,10.7905,78.7047,26.5,92,0.0,999.3,9.4,27.7,105,31.5,30.2,7,5,7,1,2026-04-06T03:06:03.506673+05:30
Salem,Tamil Nadu,11.6643,78.146,26.3,79,0.0,977.0,8.7,48.2,94,29.9,28.2,7,5,7,1,2026-04-06T03:06:03.506681+05:30
Tirunelveli,Tamil Nadu,8.7139,77.7567,27.8,70,0.0,1002.0,3.8,25.6,63,18.8,17.2,7,5,0,1,2026-04-06T03:06:03.506689+05:30
Vellore,Tamil Nadu,12.9165,79.1325,25.6,79,0.0,983.6,9.45,28.1,129,64.3,60.1,7,5,7,1,2026-04-06T03:06:03.506696+05:30
Erode,Tamil Nadu,11.341,77.7172,27.1,83,0.0,988.5,9.45,36.7,79,25.8,23.5,7,5,7,1,2026-04-06T03:06:03.506703+05:30
Kochi,Kerala,9.9312,76.2673,28.9,80,0.0,1008.7,8.1,39.6,68,31.0,26.2,7,0,4,1,2026-04-06T03:06:03.506710+05:30
Thiruvananthapuram,Kerala,8.5241,76.9366,28.1,85,0.0,1007.9,6.3,42.1,52,22.4,14.8,7,5,4,1,2026-04-06T03:06:03.506717+05:30
Kozhikode,Kerala,11.2588,75.7804,29.0,79,0.0,1007.7,9.15,43.2,59,29.3,17.0,7,5,4,1,2026-04-06T03:06:03.506724+05:30
Thrissur,Kerala,10.5276,76.2144,28.0,83,0.0,1006.9,9.15,43.2,66,31.9,24.2,7,5,4,1,2026-04-06T03:06:03.506731+05:30
Kannur,Kerala,11.8745,75.3704,27.8,82,0.0,1007.1,9.2,48.6,63,29.5,15.8,7,5,4,1,2026-04-06T03:06:03.506738+05:30
Patna,Bihar,25.5941,85.1376,25.3,58,0.0,999.0,7.9,30.6,73,45.5,36.9,4,5,7,1,2026-04-06T03:06:03.506745+05:30
Gaya,Bihar,24.7914,85.0002,24.9,68,0.0,993.3,6.6,31.7,73,43.7,29.4,3,5,7,1,2026-04-06T03:06:03.506752+05:30
Muzaffarpur,Bihar,26.1209,85.3647,23.5,56,0.0,998.7,7.7,25.2,68,34.1,26.0,0,5,7,0,2026-04-06T03:06:03.506759+05:30
Bhagalpur,Bihar,25.2425,87.0117,24.6,69,0.0,999.8,6.4,40.7,67,27.1,20.0,3,5,7,1,2026-04-06T03:06:03.506765+05:30
Ranchi,Jharkhand,23.3441,85.3096,22.2,79,0.0,936.4,8.0,33.5,74,40.6,29.3,3,5,7,1,2026-04-06T03:06:03.506772+05:30
Jamshedpur,Jharkhand,22.8046,86.2029,24.9,86,0.0,989.7,8.55,21.2,102,66.4,56.2,3,5,7,1,2026-04-06T03:06:03.506778+05:30
Dhanbad,Jharkhand,23.7957,86.4304,25.8,68,0.0,978.1,8.5,34.2,97,66.1,54.8,7,5,7,1,2026-04-06T03:06:03.506784+05:30
Bokaro,Jharkhand,23.6693,86.1511,25.2,71,0.0,982.6,7.85,40.3,97,70.1,58.1,7,5,7,1,2026-04-06T03:06:03.506791+05:30
Bhubaneswar,Odisha,20.2961,85.8245,26.3,96,0.0,1001.5,8.95,27.0,93,25.9,23.4,7,5,4,1,2026-04-06T03:06:03.506798+05:30
Cuttack,Odisha,20.4625,85.8828,25.8,95,0.0,1003.5,8.95,25.6,93,25.9,23.4,7,5,4,1,2026-04-06T03:06:03.506804+05:30
Rourkela,Odisha,22.2604,84.8536,25.1,90,0.0,984.3,8.35,49.7,94,57.9,48.0,7,5,7,1,2026-04-06T03:06:03.506810+05:30
Raipur,Chhattisgarh,21.2514,81.6296,25.3,70,0.0,973.7,8.5,26.3,148,68.9,62.9,7,5,7,1,2026-04-06T03:06:03.506817+05:30
Bhilai,Chhattisgarh,21.1938,81.3509,24.8,74,0.0,973.9,8.65,25.6,125,70.3,59.3,3,5,7,1,2026-04-06T03:06:03.506823+05:30
Guwahati,Assam,26.1158,91.7086,24.3,83,0.0,998.8,8.25,28.4,98,25.2,21.8,3,5,7,1,2026-04-06T03:06:03.506829+05:30
Agartala,Tripura,23.8315,91.2868,24.0,97,0.0,1005.0,8.5,41.0,112,46.6,44.8,3,5,4,1,2026-04-06T03:06:03.506835+05:30
Shillong,Meghalaya,25.5788,91.8933,13.2,86,0.0,853.6,8.65,54.4,92,25.2,20.3,3,10,7,0,2026-04-06T03:06:03.506842+05:30
Imphal,Manipur,24.817,93.9368,18.4,79,0.0,921.7,8.85,53.6,146,74.7,68.2,3,5,7,0,2026-04-06T03:06:03.506848+05:30
Aizawl,Mizoram,23.7271,92.7176,16.9,89,0.0,890.7,8.75,34.9,138,53.4,47.6,3,10,7,0,2026-04-06T03:06:03.506855+05:30
Kohima,Nagaland,25.6701,94.1077,16.1,57,0.0,852.9,8.75,79.6,108,48.8,42.7,0,5,7,0,2026-04-06T03:06:03.506862+05:30
Gangtok,Sikkim,27.3314,88.6138,12.8,83,0.0,834.3,8.55,17.3,81,21.0,15.8,3,10,7,0,2026-04-06T03:06:03.506868+05:30
Siliguri,West Bengal,26.7271,88.3953,21.4,54,0.0,991.5,8.1,23.4,134,37.4,33.9,0,5,7,0,2026-04-06T03:06:06.788966+05:30
Durgapur,West Bengal,23.5204,87.3119,25.0,83,0.0,993.4,8.45,34.6,96,55.3,44.5,7,5,7,1,2026-04-06T03:06:06.788992+05:30
Asansol,West Bengal,23.6739,86.9524,25.4,80,0.0,991.9,8.45,31.3,87,49.7,39.5,7,5,7,1,2026-04-06T03:06:06.789001+05:30
Pondicherry,Puducherry,11.9139,79.8145,26.1,90,0.0,1007.5,9.0,26.3,66,21.2,17.3,7,5,4,1,2026-04-06T03:06:06.789008+05:30
Port Blair,Andaman and Nicobar Islands,11.6234,92.7265,29.3,70,0.0,1005.8,9.2,16.2,28,8.1,5.4,7,5,4,1,2026-04-06T03:06:06.789015+05:30
Haridwar,Uttarakhand,29.9457,78.1642,17.6,77,0.0,974.8,6.7,24.5,66,25.3,23.2,3,5,7,0,2026-04-06T03:06:06.789023+05:30
Rishikesh,Uttarakhand,30.0869,78.2676,17.2,73,0.0,967.3,6.8,24.1,50,23.8,14.6,3,5,7,0,2026-04-06T03:06:06.789030+05:30
Nainital,Uttarakhand,29.3919,79.4542,14.1,69,0.0,803.3,5.75,31.0,61,29.6,19.6,3,5,3,0,2026-04-06T03:06:06.789036+05:30
Mussoorie,Uttarakhand,30.4599,78.0664,11.4,71,0.0,799.5,5.35,27.7,54,26.5,21.7,3,5,3,0,2026-04-06T03:06:06.789042+05:30
Dharamshala,Himachal Pradesh,32.219,76.3234,15.4,56,0.0,867.2,7.45,23.0,40,7.7,4.8,0,5,7,0,2026-04-06T03:06:06.789095+05:30
Dalhousie,Himachal Pradesh,32.5387,75.971,11.1,60,0.0,800.3,6.9,21.2,57,26.5,19.4,0,5,7,0,2026-04-06T03:06:06.789106+05:30
Patiala,Punjab,30.3398,76.3869,18.0,72,0.0,978.9,6.8,21.2,113,110.4,50.1,3,5,7,0,2026-04-06T03:06:06.789113+05:30
Bhatinda,Punjab,30.211,74.9455,18.9,70,0.0,984.4,7.45,24.8,97,72.9,58.6,3,5,7,0,2026-04-06T03:06:06.789120+05:30
Rohtak,Haryana,28.8955,76.6066,17.9,77,0.0,982.3,6.95,31.0,196,436.8,94.8,3,5,7,0,2026-04-06T03:06:06.789125+05:30
Panipat,Haryana,29.3909,76.9635,17.4,75,0.0,980.9,6.75,24.1,309,328.8,84.5,3,5,7,0,2026-04-06T03:06:06.789131+05:30
Mathura,Uttar Pradesh,27.4924,77.6737,18.7,78,0.0,987.5,7.2,31.3,147,324.1,84.3,3,5,7,0,2026-04-06T03:06:06.789138+05:30
Vrindavan,Uttar Pradesh,27.5823,77.7027,17.7,82,0.0,988.0,7.2,32.4,147,324.1,84.3,3,10,7,0,2026-04-06T03:06:06.789144+05:30
Ayodhya,Uttar Pradesh,26.7922,82.1998,21.5,71,0.0,994.7,7.35,31.7,82,86.1,35.4,3,5,7,0,2026-04-06T03:06:06.789150+05:30
Ratlam,Madhya Pradesh,23.3315,75.0367,24.0,49,0.0,954.5,8.2,31.7,53,19.2,9.6,0,5,7,0,2026-04-06T03:06:06.789156+05:30
Sagar,Madhya Pradesh,23.8388,78.7378,23.8,47,0.0,949.1,8.3,23.8,47,26.7,12.3,0,5,7,0,2026-04-06T03:06:06.789162+05:30
Satna,Madhya Pradesh,24.6005,80.8322,24.4,69,0.0,970.7,8.0,25.6,61,98.5,26.2,3,5,7,1,2026-04-06T03:06:06.789168+05:30
Akola,Maharashtra,20.7002,77.0082,24.3,54,0.0,974.5,8.65,27.4,61,26.0,16.6,0,5,7,0,2026-04-06T03:06:06.789175+05:30
Amravati,Maharashtra,20.9374,77.7796,24.6,53,0.0,965.9,8.7,25.9,61,27.4,17.9,0,5,7,0,2026-04-06T03:06:06.789182+05:30
Latur,Maharashtra,18.4088,76.5604,23.0,61,0.0,938.8,9.0,30.2,69,27.4,20.1,3,5,7,0,2026-04-06T03:06:06.789188+05:30
Nanded,Maharashtra,19.1383,77.3091,24.4,61,0.0,967.6,8.85,22.3,78,27.6,21.1,3,5,7,1,2026-04-06T03:06:06.789195+05:30
Gulbarga,Karnataka,17.3297,76.8343,27.6,46,0.0,957.8,9.05,32.4,71,18.2,14.1,4,5,7,0,2026-04-06T03:06:06.789201+05:30
Bidar,Karnataka,17.9104,77.5199,26.5,45,0.0,934.4,9.05,32.4,91,44.5,35.5,4,5,7,0,2026-04-06T03:06:06.789208+05:30
Hospet,Karnataka,15.2689,76.3909,26.2,64,0.0,955.3,9.25,33.1,58,20.7,15.3,7,5,7,1,2026-04-06T03:06:06.789214+05:30
Tirupur,Tamil Nadu,11.1085,77.3411,25.4,88,0.0,974.8,9.55,40.0,79,30.0,27.3,7,5,7,1,2026-04-06T03:06:06.789220+05:30
Alappuzha,Kerala,9.4981,76.3388,28.8,81,0.0,1008.8,5.6,36.7,63,29.3,21.5,7,0,0,1,2026-04-06T03:06:06.789227+05:30
Munnar,Kerala,10.0889,77.0595,20.3,96,0.0,856.5,7.5,36.7,60,20.5,19.2,3,5,7,1,2026-04-06T03:06:06.789233+05:30
Silchar,Assam,24.8333,92.7789,22.7,96,0.0,1004.2,8.5,26.6,156,82.0,74.3,3,5,4,1,2026-04-06T03:06:06.789239+05:30
Dibrugarh,Assam,27.4728,94.912,21.7,91,0.0,993.1,8.3,33.8,118,52.7,36.8,3,5,7,1,2026-04-06T03:06:06.789245+05:30
