city,state,latitude,longitude,temp,humidity,rain,pressure,uv_index,wind_gusts,aqi,pm10,pm2_5,mosquito_risk,arthritis_risk,migraine_risk,frizz_risk,updated_at
Delhi,Delhi,28.6139,77.209,24.1,54,0.0,984.8,7.2,33.1,425,304.5,66.6,0,5,7,0,2026-04-12T02:07:54.252033+05:30
Mumbai,Maharashtra,19.076,72.8777,28.4,79,0.0,1008.4,8.0,21.2,109,43.3,30.0,7,0,4,1,2026-04-12T02:07:54.252079+05:30
Bangalore,Karnataka,12.9716,77.5946,24.7,70,0.0,911.5,9.65,34.9,78,31.9,28.2,3,5,7,1,2026-04-12T02:07:54.252094+05:30
Hyderabad,Telangana,17.385,78.4867,28.7,56,0.0,953.1,9.25,24.5,101,46.7,37.7,4,5,7,1,2026-04-12T02:07:54.252104+05:30
Chennai,Tamil Nadu,13.0827,80.2707,28.8,77,0.0,1007.3,9.4,34.6,54,16.1,10.8,7,5,4,1,2026-04-12T02:07:54.252112+05:30
Kolkata,West Bengal,22.5726,88.3639,25.1,98,0.0,1005.7,8.8,21.6,126,49.7,43.5,7,5,4,1,2026-04-12T02:07:54.252121+05:30
Pune,Maharashtra,18.5204,73.8567,25.3,66,0.0,948.6,8.55,36.7,183,54.0,47.6,7,5,7,1,2026-04-12T02:07:54.252133+05:30
Ahmedabad,Gujarat,23.0225,72.5714,27.9,41,0.0,1002.3,8.1,21.6,91,81.7,67.5,4,5,4,0,2026-04-12T02:07:54.252140+05:30
Jaipur,Rajasthan,26.9124,75.7873,25.7,46,0.0,960.6,7.85,27.0,94,94.1,36.2,4,5,7,0,2026-04-12T02:07:54.252146+05:30
Lucknow,Uttar Pradesh,26.8467,80.9462,24.2,52,0.0,994.2,7.7,31.7,230,350.2,69.8,0,5,7,0,2026-04-12T02:07:54.252153+05:30
Kanpur,Uttar Pradesh,26.4499,80.3319,24.3,59,0.0,992.3,7.75,26.6,606,570.0,89.2,0,5,7,0,2026-04-12T02:07:54.252160+05:30
Chandigarh,Chandigarh,30.7333,76.7794,19.3,64,0.0,970.7,7.15,30.2,71,55.2,35.5,3,5,7,0,2026-04-12T02:07:54.252166+05:30
Srinagar,Jammu and Kashmir,34.0837,74.7973,6.8,85,0.0,841.2,8.05,16.9,78,43.5,35.6,3,10,7,0,2026-04-12T02:07:54.252173+05:30
Jammu,Jammu and Kashmir,32.7266,74.857,18.0,69,0.0,975.8,7.8,26.6,71,17.4,13.3,3,5,7,0,2026-04-12T02:07:54.252179+05:30
Amritsar,Punjab,31.634,74.8723,18.6,79,0.0,983.8,7.75,24.5,85,62.6,35.3,3,5,7,0,2026-04-12T02:07:54.252185+05:30
Ludhiana,Punjab,30.901,75.8573,20.7,66,0.0,981.3,7.4,29.9,76,64.3,36.3,3,5,7,0,2026-04-12T02:07:54.252191+05:30
Jalandhar,Punjab,31.326,75.5762,18.9,75,0.0,982.7,7.55,27.0,75,70.8,31.4,3,5,7,0,2026-04-12T02:07:54.252198+05:30
Dehradun,Uttarakhand,30.6284,78.0322,11.0,73,0.0,829.3,7.6,34.9,46,29.9,12.8,3,5,7,0,2026-04-12T02:07:54.252204+05:30
Shimla,Himachal Pradesh,31.1048,77.1734,8.7,67,0.0,782.4,7.65,41.8,55,34.5,15.9,3,5,7,0,2026-04-12T02:07:54.252209+05:30
Manali,Himachal Pradesh,32.2396,77.1887,10.6,76,0.0,818.5,9.85,26.3,74,8.3,5.4,3,5,7,0,2026-04-12T02:07:54.252215+05:30
Gurgaon,Haryana,28.4595,77.0266,22.2,65,0.0,983.3,7.35,31.3,1128,579.3,100.8,3,5,7,0,2026-04-12T02:07:54.252221+05:30
Noida,Uttar Pradesh,28.5355,77.391,23.7,57,0.0,986.3,7.25,32.8,1128,579.3,100.8,0,5,7,0,2026-04-12T02:07:54.252227+05:30
Ghaziabad,Uttar Pradesh,28.6692,77.4538,22.6,60,0.0,984.4,7.2,32.0,287,258.9,56.0,0,5,7,0,2026-04-12T02:07:54.252232+05:30
Faridabad,Haryana,28.4089,77.3178,24.1,52,0.0,985.6,7.3,31.3,1128,579.3,100.8,0,5,7,0,2026-04-12T02:07:54.252239+05:30
Meerut,Uttar Pradesh,28.9845,77.7064,21.9,60,0.0,983.0,7.1,34.6,287,258.9,56.0,0,5,7,0,2026-04-12T02:07:54.252246+05:30
Agra,Uttar Pradesh,27.1767,78.0081,23.8,56,0.0,989.0,7.6,33.1,750,888.5,121.5,0,5,7,0,2026-04-12T02:07:54.252251+05:30
Varanasi,Uttar Pradesh,25.3176,82.9739,23.7,53,0.0,998.1,8.35,32.0,115,204.4,51.8,0,5,7,0,2026-04-12T02:07:54.252258+05:30
Prayagraj,Uttar Pradesh,25.4358,81.8463,25.6,49,0.0,996.8,8.2,23.8,138,318.5,66.8,4,5,7,0,2026-04-12T02:07:54.252264+05:30
Gorakhpur,Uttar Pradesh,26.7606,83.3732,22.4,54,0.0,997.2,8.15,39.2,130,129.9,36.9,0,5,7,0,2026-04-12T02:07:54.252270+05:30
Bareilly,Uttar Pradesh,28.367,79.4304,22.1,66,0.0,987.7,7.45,38.5,82,104.1,35.6,3,5,7,0,2026-04-12T02:07:54.252275+05:30
Aligarh,Uttar Pradesh,27.8974,78.088,22.9,60,0.0,986.9,7.4,32.4,741,508.5,81.3,0,5,7,0,2026-04-12T02:07:54.252280+05:30
Moradabad,Uttar Pradesh,28.8386,78.7733,22.2,60,0.0,984.9,7.3,38.5,90,102.7,37.3,0,5,7,0,2026-04-12T02:07:54.252286+05:30
Saharanpur,Uttar Pradesh,29.9637,77.546,18.9,67,0.0,977.2,6.9,32.8,77,69.8,39.0,3,5,7,0,2026-04-12T02:07:54.252291+05:30
Jhansi,Uttar Pradesh,25.4484,78.5685,26.4,42,0.0,978.2,8.15,36.0,54,21.9,15.8,4,5,7,0,2026-04-12T02:07:57.573238+05:30
Surat,Gujarat,21.1702,72.8311,27.7,74,0.0,1006.5,7.8,24.1,136,49.9,46.1,7,5,4,1,2026-04-12T02:07:57.573266+05:30
Vadodara,Gujarat,22.3072,73.1812,26.7,60,0.0,1004.5,8.05,19.1,76,71.0,61.9,4,5,4,1,2026-04-12T02:07:57.573274+05:30
Rajkot,Gujarat,22.3039,70.8022,25.4,70,0.0,995.4,7.8,25.6,73,107.6,31.1,7,5,7,1,2026-04-12T02:07:57.573281+05:30
Thane,Maharashtra,19.2183,72.9781,26.8,83,0.0,1007.9,8.0,35.6,109,43.3,30.0,7,5,4,1,2026-04-12T02:07:57.573287+05:30
Nagpur,Maharashtra,21.1458,79.0882,25.4,53,0.0,973.1,8.8,18.0,59,31.3,21.2,4,5,7,0,2026-04-12T02:07:57.573294+05:30
Nashik,Maharashtra,19.9975,73.7898,25.9,56,0.0,946.2,8.25,30.6,138,52.5,42.5,4,5,7,1,2026-04-12T02:07:57.573300+05:30
Aurangabad,Maharashtra,19.8762,75.3433,28.1,40,0.0,944.3,8.95,27.7,84,33.1,23.5,4,5,7,0,2026-04-12T02:07:57.573306+05:30
Solapur,Maharashtra,17.6599,75.9064,30.2,44,0.0,956.3,9.05,27.4,75,27.9,23.4,0,5,7,1,2026-04-12T02:07:57.573312+05:30
Kolhapur,Maharashtra,16.705,74.2433,22.0,86,0.0,947.4,9.05,49.0,98,39.9,32.2,3,5,7,1,2026-04-12T02:07:57.573318+05:30
Goa,Goa,15.2993,74.124,27.8,81,0.0,997.6,9.05,30.6,103,69.2,36.0,7,5,7,1,2026-04-12T02:07:57.573324+05:30
Jodhpur,Rajasthan,26.2389,73.0243,25.6,42,0.0,984.4,8.1,17.3,92,161.6,31.9,4,5,7,0,2026-04-12T02:07:57.573330+05:30
Udaipur,Rajasthan,24.5854,73.7125,25.0,43,0.0,947.4,8.65,27.4,61,35.4,18.5,4,5,7,0,2026-04-12T02:07:57.573336+05:30
Kota,Rajasthan,25.2138,75.8648,24.1,59,0.0,978.7,8.15,22.0,68,28.2,19.1,0,5,7,0,2026-04-12T02:07:57.573341+05:30
Bikaner,Rajasthan,28.0229,73.3119,26.1,46,0.0,984.1,7.95,18.4,64,69.4,27.5,4,5,7,0,2026-04-12T02:07:57.573347+05:30
Ajmer,Rajasthan,26.4499,74.6399,25.2,45,0.0,955.4,8.1,23.0,62,113.6,31.2,4,5,7,0,2026-04-12T02:07:57.573353+05:30
Gwalior,Madhya Pradesh,26.2183,78.1828,25.4,53,0.0,983.7,7.85,29.5,74,171.8,38.6,4,5,7,0,2026-04-12T02:07:57.573358+05:30
Indore,Madhya Pradesh,22.7196,75.8577,23.9,49,0.0,948.4,8.55,26.3,77,53.8,45.2,0,5,7,0,2026-04-12T02:07:57.573364+05:30
Bhopal,Madhya Pradesh,23.2599,77.4126,24.2,43,0.0,954.2,8.5,29.9,56,41.2,21.0,0,5,7,0,2026-04-12T02:07:57.573369+05:30
Jabalpur,Madhya Pradesh,23.1815,79.9864,24.8,46,0.0,961.8,8.65,33.8,74,79.6,42.3,0,5,7,0,2026-04-12T02:07:57.573375+05:30
Ujjain,Madhya Pradesh,23.1765,75.7885,24.5,48,0.0,954.2,8.45,27.0,79,27.7,21.2,0,5,7,0,2026-04-12T02:07:57.573381+05:30
Visakhapatnam,Andhra Pradesh,17.6868,83.2185,27.6,91,0.0,1003.8,9.15,38.9,77,28.9,22.7,7,5,4,1,2026-04-12T02:07:57.573386+05:30
Vijayawada,Andhra Pradesh,16.5062,80.648,27.4,87,0.0,1002.6,9.2,31.7,70,16.5,12.3,7,5,4,1,2026-04-12T02:07:57.573392+05:30
Guntur,Andhra Pradesh,16.3067,80.4365,27.6,88,0.0,1003.6,9.25,34.9,70,16.3,12.0,7,5,4,1,2026-04-12T02:07:57.573398+05:30
Nellore,Andhra Pradesh,14.4426,79.9865,28.3,83,0.0,1005.5,9.35,35.3,59,14.6,10.4,7,5,4,1,2026-04-12T02:07:57.573405+05:30
Kurnool,Andhra Pradesh,15.8281,78.0373,30.9,48,0.0,975.9,9.25,30.2,81,28.6,24.6,0,5,7,1,2026-04-12T02:07:57.573412+05:30
Kakinada,Andhra Pradesh,16.9891,82.2475,27.4,90,0.0,1007.5,9.2,36.4,59,22.1,14.1,7,5,4,1,2026-04-12T02:07:57.573417+05:30
Tirupati,Andhra Pradesh,13.6288,79.4192,26.0,89,0.0,992.2,9.45,31.0,70,22.9,20.4,7,5,7,1,2026-04-12T02:07:57.573423+05:30
Warangal,Telangana,17.9689,79.5941,28.2,65,0.0,978.2,9.1,29.9,101,53.1,42.3,7,5,7,1,2026-04-12T02:07:57.573429+05:30
Nizamabad,Telangana,18.6725,78.0941,26.9,59,0.0,964.2,9.05,21.6,95,64.5,52.3,4,5,7,1,2026-04-12T02:07:57.573434+05:30
Mysore,Karnataka,12.2958,76.6396,24.1,89,0.0,928.2,9.15,44.3,82,35.2,30.3,3,5,7,1,2026-04-12T02:07:57.573440+05:30
Mangalore,Karnataka,12.9141,74.856,29.3,81,0.0,1006.1,9.2,21.6,88,60.1,29.2,7,5,4,1,2026-04-12T02:07:57.573446+05:30
Hubli-Dharwad,Karnataka,15.3647,75.124,23.5,91,0.0,940.2,9.25,31.7,91,43.9,26.6,3,5,7,1,2026-04-12T02:07:57.573452+05:30
Belgaum,Karnataka,15.8497,74.4977,21.7,99,0.0,925.1,9.3,43.2,96,52.9,36.3,3,5,7,1,2026-04-12T02:08:00.897566+05:30
Coimbatore,Tamil Nadu,11.0168,76.9558,25.4,89,0.0,961.7,9.5,49.3,78,35.7,31.1,7,5,7,1,2026-04-12T02:08:00.897595+05:30
Madurai,Tamil Nadu,9.9252,78.1198,27.5,86,0.0,992.9,9.4,37.4,75,39.3,35.3,7,5,7,1,2026-04-12T02:08:00.897604+05:30
Trichy,Tamil Nadu,10.7905,78.7047,27.6,90,0.0,1000.0,9.4,25.6,69,22.5,20.1,7,5,4,1,2026-04-12T02:08:00.897612+05:30
Salem,Tamil Nadu,11.6643,78.146,28.0,78,0.0,977.5,9.45,16.6,71,30.0,26.4,7,5,7,1,2026-04-12T02:08:00.897619+05:30
Tirunelveli,Tamil Nadu,8.7139,77.7567,27.4,72,0.0,1002.7,9.35,43.2,70,36.4,31.5,7,5,4,1,2026-04-12T02:08:00.897627+05:30
Vellore,Tamil Nadu,12.9165,79.1325,25.6,85,0.0,984.9,9.5,31.7,82,37.1,34.2,7,5,7,1,2026-04-12T02:08:00.897635+05:30
Erode,Tamil Nadu,11.341,77.7172,28.8,76,0.0,989.2,9.45,31.3,67,19.9,17.1,7,5,7,1,2026-04-12T02:08:00.897642+05:30
Kochi,Kerala,9.9312,76.2673,28.5,84,0.0,1008.3,9.1,27.4,70,39.6,35.2,7,0,4,1,2026-04-12T02:08:00.897649+05:30
Thiruvananthapuram,Kerala,8.5241,76.9366,28.5,83,0.0,1007.2,9.2,28.4,61,37.0,21.3,7,5,4,1,2026-04-12T02:08:00.897656+05:30
Kozhikode,Kerala,11.2588,75.7804,29.7,81,0.0,1007.0,9.15,29.2,60,52.7,24.2,7,5,4,1,2026-04-12T02:08:00.897663+05:30
Thrissur,Kerala,10.5276,76.2144,27.8,90,0.0,1006.5,8.75,31.7,69,50.2,42.5,7,5,4,1,2026-04-12T02:08:00.897671+05:30
Kannur,Kerala,11.8745,75.3704,28.3,86,0.0,1006.3,9.2,31.0,70,57.7,33.3,7,5,4,1,2026-04-12T02:08:00.897678+05:30
Patna,Bihar,25.5941,85.1376,24.0,60,0.0,1000.4,8.5,38.2,130,58.4,32.2,0,5,4,0,2026-04-12T02:08:00.897685+05:30
Gaya,Bihar,24.7914,85.0002,24.9,45,0.0,994.1,8.55,30.2,104,59.0,29.2,0,5,7,0,2026-04-12T02:08:00.897692+05:30
Muzaffarpur,Bihar,26.1209,85.3647,21.7,68,0.0,1000.4,8.45,38.5,144,119.2,71.7,3,5,4,0,2026-04-12T02:08:00.897699+05:30
Bhagalpur,Bihar,25.2425,87.0117,23.3,64,0.0,1000.7,8.5,28.1,127,262.6,69.4,3,5,4,1,2026-04-12T02:08:00.897706+05:30
Ranchi,Jharkhand,23.3441,85.3096,21.1,44,0.0,938.1,9.1,33.5,84,70.1,24.0,0,5,7,0,2026-04-12T02:08:00.897713+05:30
Jamshedpur,Jharkhand,22.8046,86.2029,21.5,86,0.0,991.0,8.9,18.4,127,125.3,45.1,3,5,7,1,2026-04-12T02:08:00.897720+05:30
Dhanbad,Jharkhand,23.7957,86.4304,22.1,54,0.0,979.6,8.85,30.6,151,88.7,46.8,0,5,7,0,2026-04-12T02:08:00.897727+05:30
Bokaro,Jharkhand,23.6693,86.1511,22.7,44,0.0,984.2,8.85,33.1,144,84.1,43.9,0,5,7,0,2026-04-12T02:08:00.897734+05:30
Bhubaneswar,Odisha,20.2961,85.8245,26.6,97,0.0,1002.9,9.05,31.7,115,34.2,31.2,7,5,4,1,2026-04-12T02:08:00.897741+05:30
Cuttack,Odisha,20.4625,85.8828,26.4,96,0.0,1004.8,9.1,34.2,115,34.2,31.2,7,5,4,1,2026-04-12T02:08:00.897748+05:30
Rourkela,Odisha,22.2604,84.8536,20.2,76,0.0,985.6,8.8,17.6,107,142.0,61.2,3,5,7,0,2026-04-12T02:08:00.897754+05:30
Raipur,Chhattisgarh,21.2514,81.6296,24.8,39,0.0,975.2,8.85,20.9,91,78.9,59.8,0,5,7,0,2026-04-12T02:08:00.897761+05:30
Bhilai,Chhattisgarh,21.1938,81.3509,23.6,44,0.0,975.4,8.9,19.8,93,83.4,64.3,0,5,7,0,2026-04-12T02:08:00.897768+05:30
Guwahati,Assam,26.1158,91.7086,23.7,83,0.0,1002.0,8.4,31.0,98,48.9,41.1,3,5,4,1,2026-04-12T02:08:00.897775+05:30
Agartala,Tripura,23.8315,91.2868,23.5,96,0.0,1006.0,8.65,31.3,120,42.8,36.1,3,5,4,1,2026-04-12T02:08:00.897781+05:30
Shillong,Meghalaya,25.5788,91.8933,12.7,83,0.0,854.7,8.05,61.6,90,53.7,38.9,3,10,7,0,2026-04-12T02:08:00.897788+05:30
Imphal,Manipur,24.817,93.9368,16.2,84,0.0,922.8,8.95,66.6,94,56.9,42.4,3,10,7,0,2026-04-12T02:08:00.897795+05:30
Aizawl,Mizoram,23.7271,92.7176,17.7,71,0.0,892.0,8.85,52.2,91,57.0,40.2,3,5,7,0,2026-04-12T02:08:00.897801+05:30
Kohima,Nagaland,25.6701,94.1077,13.4,75,0.0,853.3,8.9,89.6,79,43.5,33.9,3,5,7,0,2026-04-12T02:08:00.897808+05:30
Gangtok,Sikkim,27.3314,88.6138,11.4,91,0.1,834.9,8.1,16.6,83,38.5,34.2,6,10,7,0,2026-04-12T02:08:00.897814+05:30
Siliguri,West Bengal,26.7271,88.3953,19.5,66,0.0,993.9,7.4,18.0,113,66.4,55.8,3,5,7,0,2026-04-12T02:08:04.224257+05:30
Durgapur,West Bengal,23.5204,87.3119,24.1,56,0.0,994.6,8.8,21.2,152,132.2,62.9,0,5,7,0,2026-04-12T02:08:04.224283+05:30
Asansol,West Bengal,23.6739,86.9524,24.9,49,0.0,993.2,8.8,22.3,131,88.7,44.0,0,5,7,0,2026-04-12T02:08:04.224292+05:30
Pondicherry,Puducherry,11.9139,79.8145,27.4,92,0.0,1008.7,9.35,28.8,55,16.3,10.9,7,0,4,1,2026-04-12T02:08:04.224299+05:30
Port Blair,Andaman and Nicobar Islands,11.6234,92.7265,28.8,78,0.0,1006.1,9.25,16.9,29,14.1,8.4,7,5,4,1,2026-04-12T02:08:04.224306+05:30
Haridwar,Uttarakhand,29.9457,78.1642,18.9,71,0.0,975.8,7.0,34.9,71,52.7,30.5,3,5,7,0,2026-04-12T02:08:04.224313+05:30
Rishikesh,Uttarakhand,30.0869,78.2676,18.8,67,0.0,968.6,7.1,35.3,59,76.6,24.9,3,5,7,0,2026-04-12T02:08:04.224319+05:30
Nainital,Uttarakhand,29.3919,79.4542,17.3,37,0.0,806.1,7.95,47.2,58,55.5,19.9,0,5,7,0,2026-04-12T02:08:04.224325+05:30
Mussoorie,Uttarakhand,30.4599,78.0664,13.3,60,0.0,802.1,7.5,37.4,64,62.4,27.8,0,5,7,0,2026-04-12T02:08:04.224330+05:30
Dharamshala,Himachal Pradesh,32.219,76.3234,16.1,49,0.0,869.5,7.7,25.9,48,5.6,3.8,0,5,7,0,2026-04-12T02:08:04.224336+05:30
Dalhousie,Himachal Pradesh,32.5387,75.971,11.9,55,0.0,802.9,7.95,20.9,63,38.4,24.6,0,5,7,0,2026-04-12T02:08:04.224343+05:30
Patiala,Punjab,30.3398,76.3869,19.5,69,0.0,980.3,7.05,31.0,273,206.3,50.5,3,5,7,0,2026-04-12T02:08:04.224350+05:30
Bhatinda,Punjab,30.211,74.9455,20.5,66,0.0,986.4,7.75,31.0,90,77.8,34.8,3,5,7,0,2026-04-12T02:08:04.224356+05:30
Rohtak,Haryana,28.8955,76.6066,21.5,62,0.0,983.7,7.25,34.6,615,555.1,95.9,3,5,7,0,2026-04-12T02:08:04.224361+05:30
Panipat,Haryana,29.3909,76.9635,21.0,64,0.0,982.3,7.05,33.1,1268,625.8,96.9,3,5,7,0,2026-04-12T02:08:04.224367+05:30
Mathura,Uttar Pradesh,27.4924,77.6737,22.8,60,0.0,988.2,7.55,26.6,751,990.9,133.6,0,5,7,0,2026-04-12T02:08:04.224372+05:30
Vrindavan,Uttar Pradesh,27.5823,77.7027,22.6,61,0.0,988.7,7.5,30.2,751,990.9,133.6,3,5,7,0,2026-04-12T02:08:04.224377+05:30
Ayodhya,Uttar Pradesh,26.7922,82.1998,23.3,52,0.0,995.7,7.9,40.7,151,219.8,51.5,0,5,7,0,2026-04-12T02:08:04.224383+05:30
Ratlam,Madhya Pradesh,23.3315,75.0367,26.3,42,0.0,954.9,8.35,24.8,69,22.8,15.1,4,5,7,0,2026-04-12T02:08:04.224389+05:30
Sagar,Madhya Pradesh,23.8388,78.7378,24.7,41,0.0,950.3,8.5,32.0,54,46.8,19.0,0,5,7,0,2026-04-12T02:08:04.224394+05:30
Satna,Madhya Pradesh,24.6005,80.8322,26.4,40,0.0,972.5,8.5,34.6,73,88.2,29.3,4,5,7,0,2026-04-12T02:08:04.224400+05:30
Akola,Maharashtra,20.7002,77.0082,26.0,55,0.0,974.8,8.75,20.2,68,37.6,30.0,4,5,7,1,2026-04-12T02:08:04.224406+05:30
Amravati,Maharashtra,20.9374,77.7796,25.1,50,0.0,966.9,8.75,21.6,64,41.4,33.6,4,5,7,0,2026-04-12T02:08:04.224412+05:30
Latur,Maharashtra,18.4088,76.5604,26.1,55,0.0,939.0,9.05,22.7,96,39.3,29.5,4,5,7,1,2026-04-12T02:08:04.224418+05:30
Nanded,Maharashtra,19.1383,77.3091,27.1,58,0.0,968.0,8.95,11.2,87,39.7,31.2,4,5,7,1,2026-04-12T02:08:04.224423+05:30
Gulbarga,Karnataka,17.3297,76.8343,30.7,41,0.0,957.7,9.1,31.0,79,30.5,25.7,0,5,7,0,2026-04-12T02:08:04.224429+05:30
Bidar,Karnataka,17.9104,77.5199,28.2,51,0.0,935.0,9.1,29.2,84,41.1,31.0,4,5,7,1,2026-04-12T02:08:04.224434+05:30
Hospet,Karnataka,15.2689,76.3909,27.6,74,0.0,955.3,9.25,25.6,106,41.6,34.3,7,5,7,1,2026-04-12T02:08:04.224440+05:30
Tirupur,Tamil Nadu,11.1085,77.3411,28.4,75,0.0,975.3,9.45,30.6,80,31.2,27.4,7,5,7,1,2026-04-12T02:08:04.224445+05:30
Alappuzha,Kerala,9.4981,76.3388,28.7,83,0.0,1008.4,9.2,24.1,71,44.8,31.7,7,0,4,1,2026-04-12T02:08:04.224451+05:30
Munnar,Kerala,10.0889,77.0595,21.2,92,0.0,856.5,9.75,36.7,78,36.0,31.4,3,5,7,1,2026-04-12T02:08:04.224457+05:30
Silchar,Assam,24.8333,92.7789,22.3,77,0.0,1005.1,8.65,40.3,127,70.5,46.7,3,5,4,1,2026-04-12T02:08:04.224462+05:30
Dibrugarh,Assam,27.4728,94.912,21.0,84,0.0,996.9,8.15,25.2,90,28.8,25.3,3,5,7,1,2026-04-12T02:08:04.224468+05:30
