city,state,latitude,longitude,temp,humidity,rain,pressure,uv_index,wind_gusts,aqi,pm10,pm2_5,mosquito_risk,arthritis_risk,migraine_risk,frizz_risk,updated_at
Delhi,Delhi,28.6139,77.209,24.1,51,0.0,984.9,6.0,24.5,276,218.4,68.0,0,5,3,0,2026-03-14T21:01:51.783579+05:30
Mumbai,Maharashtra,19.076,72.8777,27.9,75,0.0,1010.9,7.65,18.4,140,78.0,39.0,7,0,4,1,2026-03-14T21:01:51.783626+05:30
Bangalore,Karnataka,12.9716,77.5946,24.7,44,0.0,914.0,9.3,32.8,129,31.3,28.8,0,5,7,0,2026-03-14T21:01:51.783641+05:30
Hyderabad,Telangana,17.385,78.4867,28.2,42,0.0,955.5,8.7,30.2,138,49.8,41.8,4,5,7,0,2026-03-14T21:01:51.783652+05:30
Chennai,Tamil Nadu,13.0827,80.2707,26.5,81,0.0,1011.1,9.05,32.0,53,13.8,10.9,7,0,4,1,2026-03-14T21:01:51.783662+05:30
Kolkata,West Bengal,22.5726,88.3639,25.5,86,0.0,1009.2,8.05,33.8,80,20.1,16.4,7,0,4,1,2026-03-14T21:01:51.783671+05:30
Pune,Maharashtra,18.5204,73.8567,26.7,31,0.0,951.3,8.25,47.5,172,30.2,28.3,4,5,7,0,2026-03-14T21:01:51.783685+05:30
Ahmedabad,Gujarat,23.0225,72.5714,29.4,38,0.0,1003.4,7.5,24.8,79,61.7,30.4,4,5,4,0,2026-03-14T21:01:51.783693+05:30
Jaipur,Rajasthan,26.9124,75.7873,25.8,36,0.0,961.0,7.0,28.8,145,115.7,45.3,4,5,7,0,2026-03-14T21:01:51.783702+05:30
Lucknow,Uttar Pradesh,26.8467,80.9462,25.7,52,0.0,995.2,6.7,24.5,165,198.8,66.1,4,5,7,0,2026-03-14T21:01:51.783709+05:30
Kanpur,Uttar Pradesh,26.4499,80.3319,24.3,59,0.0,993.0,6.7,17.3,348,212.3,62.2,0,5,7,0,2026-03-14T21:01:51.783717+05:30
Chandigarh,Chandigarh,30.7333,76.7794,20.5,63,0.0,969.9,5.2,20.2,78,47.5,44.2,3,5,3,0,2026-03-14T21:01:51.783724+05:30
Srinagar,Jammu and Kashmir,34.0837,74.7973,10.9,83,0.0,839.5,5.6,19.1,97,74.7,53.2,3,10,3,0,2026-03-14T21:01:51.783731+05:30
Jammu,Jammu and Kashmir,32.7266,74.857,22.6,57,0.0,973.3,6.35,19.1,81,47.6,38.1,0,5,7,0,2026-03-14T21:01:51.783739+05:30
Amritsar,Punjab,31.634,74.8723,19.8,67,0.0,981.8,4.65,17.6,98,46.6,44.2,3,5,3,0,2026-03-14T21:01:51.783746+05:30
Ludhiana,Punjab,30.901,75.8573,21.3,55,0.0,979.9,5.25,20.2,89,88.2,59.5,0,5,3,0,2026-03-14T21:01:51.783752+05:30
Jalandhar,Punjab,31.326,75.5762,20.8,59,0.0,981.1,6.15,23.0,93,60.5,36.7,0,5,7,0,2026-03-14T21:01:51.783762+05:30
Dehradun,Uttarakhand,30.6284,78.0322,13.0,59,0.0,829.5,4.2,21.6,69,30.2,17.3,0,5,3,0,2026-03-14T21:01:51.783768+05:30
Shimla,Himachal Pradesh,31.1048,77.1734,12.0,56,0.0,783.4,5.5,22.3,67,31.1,22.3,0,5,3,0,2026-03-14T21:01:51.783775+05:30
Manali,Himachal Pradesh,32.2396,77.1887,13.3,42,0.0,820.0,7.3,29.2,63,44.4,14.5,0,5,7,0,2026-03-14T21:01:51.783782+05:30
Gurgaon,Haryana,28.4595,77.0266,21.4,63,0.0,983.1,5.85,19.4,778,319.4,96.2,3,5,3,0,2026-03-14T21:01:51.783788+05:30
Noida,Uttar Pradesh,28.5355,77.391,24.1,49,0.0,986.5,5.75,23.8,778,319.4,96.2,0,5,3,0,2026-03-14T21:01:51.783797+05:30
Ghaziabad,Uttar Pradesh,28.6692,77.4538,23.1,55,0.0,984.6,5.95,23.8,193,243.1,84.3,0,5,3,0,2026-03-14T21:01:51.783804+05:30
Faridabad,Haryana,28.4089,77.3178,22.1,55,0.0,985.6,5.75,22.7,778,319.4,96.2,0,5,3,0,2026-03-14T21:01:51.783810+05:30
Meerut,Uttar Pradesh,28.9845,77.7064,21.5,63,0.0,983.2,5.8,27.4,193,243.1,84.3,3,5,3,0,2026-03-14T21:01:51.783816+05:30
Agra,Uttar Pradesh,27.1767,78.0081,21.8,50,0.0,989.7,6.35,15.5,577,181.6,78.7,0,5,7,0,2026-03-14T21:01:51.783823+05:30
Varanasi,Uttar Pradesh,25.3176,82.9739,26.9,59,0.0,999.1,6.85,27.7,137,116.2,65.9,4,5,7,1,2026-03-14T21:01:51.783832+05:30
Prayagraj,Uttar Pradesh,25.4358,81.8463,27.1,58,0.0,997.5,7.1,15.5,151,93.8,48.3,4,5,7,1,2026-03-14T21:01:51.783840+05:30
Gorakhpur,Uttar Pradesh,26.7606,83.3732,24.3,59,0.0,999.0,6.7,24.8,134,129.9,73.1,0,5,7,0,2026-03-14T21:01:51.783846+05:30
Bareilly,Uttar Pradesh,28.367,79.4304,22.3,67,0.0,988.7,6.4,19.4,131,88.5,45.5,3,5,7,0,2026-03-14T21:01:51.783855+05:30
Aligarh,Uttar Pradesh,27.8974,78.088,21.3,45,0.0,987.3,6.3,26.6,504,294.3,94.5,0,5,7,0,2026-03-14T21:01:51.783862+05:30
Moradabad,Uttar Pradesh,28.8386,78.7733,21.3,60,0.0,985.6,5.95,23.0,139,136.9,68.5,0,5,3,0,2026-03-14T21:01:51.783868+05:30
Saharanpur,Uttar Pradesh,29.9637,77.546,20.4,53,0.0,977.3,4.65,23.8,125,147.1,66.8,0,5,3,0,2026-03-14T21:01:51.783875+05:30
Jhansi,Uttar Pradesh,25.4484,78.5685,24.7,62,0.0,979.4,7.2,20.2,150,122.9,41.9,3,5,7,1,2026-03-14T21:01:54.995052+05:30
Surat,Gujarat,21.1702,72.8311,25.5,74,0.0,1009.0,7.35,23.4,142,78.0,49.6,7,0,4,1,2026-03-14T21:01:54.995086+05:30
Vadodara,Gujarat,22.3072,73.1812,28.1,44,0.0,1005.9,7.5,28.1,98,73.8,45.4,4,5,4,0,2026-03-14T21:01:54.995096+05:30
Rajkot,Gujarat,22.3039,70.8022,28.0,49,0.0,996.5,7.35,34.9,96,60.8,23.6,4,5,7,1,2026-03-14T21:01:54.995104+05:30
Thane,Maharashtra,19.2183,72.9781,26.8,76,0.0,1010.4,7.65,31.7,140,78.0,39.0,7,0,4,1,2026-03-14T21:01:54.995111+05:30
Nagpur,Maharashtra,21.1458,79.0882,26.9,45,0.0,974.3,8.1,19.8,175,48.7,44.1,4,5,7,0,2026-03-14T21:01:54.995118+05:30
Nashik,Maharashtra,19.9975,73.7898,24.5,31,0.0,947.9,7.9,39.2,123,26.0,17.9,0,5,7,0,2026-03-14T21:01:54.995125+05:30
Aurangabad,Maharashtra,19.8762,75.3433,28.4,34,0.0,945.8,8.4,32.8,148,31.8,29.2,4,5,7,0,2026-03-14T21:01:54.995132+05:30
Solapur,Maharashtra,17.6599,75.9064,28.7,47,0.0,958.4,8.6,18.7,167,45.2,39.1,4,5,7,1,2026-03-14T21:01:54.995139+05:30
Kolhapur,Maharashtra,16.705,74.2433,25.0,75,0.0,950.3,8.7,44.6,169,49.2,46.4,7,5,7,1,2026-03-14T21:01:54.995145+05:30
Goa,Goa,15.2993,74.124,28.4,78,0.0,1000.7,8.75,32.4,135,45.1,40.6,7,5,4,1,2026-03-14T21:01:54.995152+05:30
Jodhpur,Rajasthan,26.2389,73.0243,29.6,30,0.0,982.8,7.1,37.4,90,183.9,41.1,4,5,7,0,2026-03-14T21:01:54.995159+05:30
Udaipur,Rajasthan,24.5854,73.7125,26.0,29,0.0,948.0,7.85,37.1,67,34.5,17.8,4,5,7,0,2026-03-14T21:01:54.995166+05:30
Kota,Rajasthan,25.2138,75.8648,26.9,45,0.0,979.4,7.25,13.7,89,52.7,35.5,4,5,7,0,2026-03-14T21:01:54.995172+05:30
Bikaner,Rajasthan,28.0229,73.3119,28.0,33,0.0,982.4,6.7,21.6,93,77.8,24.9,4,5,7,0,2026-03-14T21:01:54.995179+05:30
Ajmer,Rajasthan,26.4499,74.6399,27.4,30,0.0,955.6,7.05,41.4,77,54.8,27.1,4,5,7,0,2026-03-14T21:01:54.995186+05:30
Gwalior,Madhya Pradesh,26.2183,78.1828,25.3,57,0.0,984.7,6.9,22.0,265,73.6,29.9,4,5,7,1,2026-03-14T21:01:54.995193+05:30
Indore,Madhya Pradesh,22.7196,75.8577,24.3,36,0.0,949.4,7.8,38.2,133,26.0,22.5,0,5,7,0,2026-03-14T21:01:54.995199+05:30
Bhopal,Madhya Pradesh,23.2599,77.4126,25.2,35,0.0,954.9,7.65,35.3,131,31.7,28.9,4,5,7,0,2026-03-14T21:01:54.995206+05:30
Jabalpur,Madhya Pradesh,23.1815,79.9864,27.3,37,0.0,962.8,7.8,27.0,119,21.2,19.7,4,5,7,0,2026-03-14T21:01:54.995212+05:30
Ujjain,Madhya Pradesh,23.1765,75.7885,23.8,39,0.0,955.0,7.7,41.8,107,26.4,21.6,0,5,7,0,2026-03-14T21:01:54.995219+05:30
Visakhapatnam,Andhra Pradesh,17.6868,83.2185,26.1,82,0.0,1008.2,8.65,41.0,58,16.2,12.7,7,0,4,1,2026-03-14T21:01:54.995226+05:30
Vijayawada,Andhra Pradesh,16.5062,80.648,26.0,80,0.0,1006.4,8.75,31.3,58,16.8,14.4,7,5,4,1,2026-03-14T21:01:54.995232+05:30
Guntur,Andhra Pradesh,16.3067,80.4365,25.5,85,0.0,1007.5,8.75,33.8,56,15.7,13.0,7,5,4,1,2026-03-14T21:01:54.995239+05:30
Nellore,Andhra Pradesh,14.4426,79.9865,25.7,85,0.0,1009.4,8.9,33.1,67,11.4,9.3,7,0,4,1,2026-03-14T21:01:54.995246+05:30
Kurnool,Andhra Pradesh,15.8281,78.0373,31.0,32,0.0,978.5,8.75,23.4,135,46.9,37.4,0,5,7,0,2026-03-14T21:01:54.995252+05:30
Kakinada,Andhra Pradesh,16.9891,82.2475,24.7,87,0.0,1011.8,8.7,34.6,51,12.5,8.9,3,0,4,1,2026-03-14T21:01:54.995259+05:30
Tirupati,Andhra Pradesh,13.6288,79.4192,26.6,64,0.0,995.4,9.0,32.4,77,17.2,16.0,7,5,7,1,2026-03-14T21:01:54.995265+05:30
Warangal,Telangana,17.9689,79.5941,27.4,63,0.0,981.0,8.5,27.7,97,37.7,32.9,7,5,7,1,2026-03-14T21:01:54.995271+05:30
Nizamabad,Telangana,18.6725,78.0941,27.3,53,0.0,966.5,8.4,30.2,142,74.3,62.6,4,5,7,1,2026-03-14T21:01:54.995278+05:30
Mysore,Karnataka,12.2958,76.6396,25.9,48,0.0,930.5,9.3,32.8,141,35.3,31.5,4,5,7,0,2026-03-14T21:01:54.995284+05:30
Mangalore,Karnataka,12.9141,74.856,28.7,80,0.0,1009.7,8.95,24.8,99,28.5,23.5,7,0,4,1,2026-03-14T21:01:54.995290+05:30
Hubli-Dharwad,Karnataka,15.3647,75.124,25.1,81,0.0,943.4,8.9,46.4,154,43.2,40.2,7,5,7,1,2026-03-14T21:01:54.995296+05:30
Belgaum,Karnataka,15.8497,74.4977,23.8,88,0.0,928.1,8.95,44.3,168,51.7,49.8,3,5,7,1,2026-03-14T21:01:58.207255+05:30
Coimbatore,Tamil Nadu,11.0168,76.9558,25.3,79,0.0,964.7,9.3,37.1,97,27.3,24.4,7,5,7,1,2026-03-14T21:01:58.207297+05:30
Madurai,Tamil Nadu,9.9252,78.1198,28.3,58,0.0,996.5,9.25,28.8,59,11.9,11.0,4,5,7,1,2026-03-14T21:01:58.207309+05:30
Trichy,Tamil Nadu,10.7905,78.7047,27.7,66,0.0,1003.2,9.2,27.0,64,17.2,16.3,7,5,4,1,2026-03-14T21:01:58.207319+05:30
Salem,Tamil Nadu,11.6643,78.146,27.0,52,0.0,979.9,9.2,23.8,92,22.0,20.3,4,5,7,1,2026-03-14T21:01:58.207329+05:30
Tirunelveli,Tamil Nadu,8.7139,77.7567,27.2,77,0.0,1006.6,9.25,36.4,52,10.3,9.9,7,5,4,1,2026-03-14T21:01:58.207339+05:30
Vellore,Tamil Nadu,12.9165,79.1325,26.2,63,0.0,988.2,9.1,32.8,95,25.6,24.2,7,5,7,1,2026-03-14T21:01:58.207349+05:30
Erode,Tamil Nadu,11.341,77.7172,29.1,44,0.0,991.5,9.2,24.8,61,16.8,15.4,4,5,7,0,2026-03-14T21:01:58.207359+05:30
Kochi,Kerala,9.9312,76.2673,28.3,80,0.0,1011.8,9.1,31.3,104,30.5,28.4,7,0,4,1,2026-03-14T21:01:58.207369+05:30
Thiruvananthapuram,Kerala,8.5241,76.9366,28.1,78,0.0,1011.0,9.1,26.3,72,12.2,8.9,7,0,4,1,2026-03-14T21:01:58.207394+05:30
Kozhikode,Kerala,11.2588,75.7804,28.0,82,0.0,1011.2,9.0,24.8,73,22.9,19.6,7,0,4,1,2026-03-14T21:01:58.207401+05:30
Thrissur,Kerala,10.5276,76.2144,27.5,84,0.0,1010.2,9.05,36.0,103,18.7,17.3,7,0,4,1,2026-03-14T21:01:58.207408+05:30
Kannur,Kerala,11.8745,75.3704,28.1,82,0.0,1010.2,8.95,29.2,92,24.6,21.0,7,0,4,1,2026-03-14T21:01:58.207415+05:30
Patna,Bihar,25.5941,85.1376,27.9,61,0.0,1002.3,7.5,20.2,137,117.1,72.4,7,5,4,1,2026-03-14T21:01:58.207423+05:30
Gaya,Bihar,24.7914,85.0002,27.2,52,0.0,995.6,7.55,21.2,123,101.0,54.9,4,5,7,1,2026-03-14T21:01:58.207429+05:30
Muzaffarpur,Bihar,26.1209,85.3647,26.5,58,0.0,1002.2,7.45,24.5,159,123.4,75.2,4,5,4,1,2026-03-14T21:01:58.207435+05:30
Bhagalpur,Bihar,25.2425,87.0117,26.5,61,0.0,1003.3,7.5,20.5,156,139.2,71.0,7,5,4,1,2026-03-14T21:01:58.207442+05:30
Ranchi,Jharkhand,23.3441,85.3096,25.7,30,0.0,940.0,8.2,24.5,113,31.5,23.3,4,5,7,0,2026-03-14T21:01:58.207449+05:30
Jamshedpur,Jharkhand,22.8046,86.2029,28.6,57,0.0,993.0,8.1,29.2,163,52.4,42.4,4,5,7,1,2026-03-14T21:01:58.207455+05:30
Dhanbad,Jharkhand,23.7957,86.4304,28.9,45,0.0,982.2,7.95,19.8,157,93.4,73.3,4,5,7,0,2026-03-14T21:01:58.207462+05:30
Bokaro,Jharkhand,23.6693,86.1511,28.3,35,0.0,986.2,8.0,20.2,152,73.3,56.1,4,5,7,0,2026-03-14T21:01:58.207491+05:30
Bhubaneswar,Odisha,20.2961,85.8245,25.3,85,0.0,1006.4,8.4,38.9,61,14.1,11.4,7,5,4,1,2026-03-14T21:01:58.207694+05:30
Cuttack,Odisha,20.4625,85.8828,25.5,85,0.0,1008.3,8.45,34.2,61,14.1,11.4,7,0,4,1,2026-03-14T21:01:58.207701+05:30
Rourkela,Odisha,22.2604,84.8536,29.8,49,0.0,986.5,8.05,25.2,172,44.0,41.7,4,5,7,1,2026-03-14T21:01:58.207708+05:30
Raipur,Chhattisgarh,21.2514,81.6296,28.9,43,0.0,976.1,8.15,34.2,157,71.7,67.1,4,5,7,0,2026-03-14T21:01:58.207714+05:30
Bhilai,Chhattisgarh,21.1938,81.3509,27.8,47,0.0,976.4,8.15,27.7,147,71.7,66.6,4,5,7,0,2026-03-14T21:01:58.207720+05:30
Guwahati,Assam,26.1158,91.7086,22.2,89,0.0,1005.4,7.35,32.0,67,23.5,19.6,3,5,4,1,2026-03-14T21:01:58.207726+05:30
Agartala,Tripura,23.8315,91.2868,21.2,91,0.0,1011.8,7.8,48.6,79,24.9,20.0,3,0,4,1,2026-03-14T21:01:58.207733+05:30
Shillong,Meghalaya,25.5788,91.8933,13.2,92,0.0,858.1,7.85,73.8,57,27.8,23.1,3,10,7,0,2026-03-14T21:01:58.207740+05:30
Imphal,Manipur,24.817,93.9368,16.7,87,0.0,927.6,7.1,82.8,139,61.2,52.4,3,10,7,0,2026-03-14T21:01:58.207747+05:30
Aizawl,Mizoram,23.7271,92.7176,17.4,84,0.0,897.3,8.0,63.4,108,37.8,28.6,3,10,7,0,2026-03-14T21:01:58.207754+05:30
Kohima,Nagaland,25.6701,94.1077,14.4,76,0.0,857.1,6.9,100.8,101,35.6,28.1,3,5,7,0,2026-03-14T21:01:58.207760+05:30
Gangtok,Sikkim,27.3314,88.6138,13.6,88,0.0,838.1,7.55,20.2,79,23.0,17.1,3,10,7,0,2026-03-14T21:01:58.207794+05:30
Siliguri,West Bengal,26.7271,88.3953,21.3,72,0.0,996.4,7.4,31.7,139,66.8,50.5,3,5,7,1,2026-03-14T21:02:01.418835+05:30
Durgapur,West Bengal,23.5204,87.3119,27.1,75,0.0,997.7,7.95,23.4,154,51.1,45.1,7,5,7,1,2026-03-14T21:02:01.418870+05:30
Asansol,West Bengal,23.6739,86.9524,28.0,68,0.0,996.1,7.95,21.2,149,67.5,53.0,7,5,7,1,2026-03-14T21:02:01.418880+05:30
Pondicherry,Puducherry,11.9139,79.8145,25.5,92,0.0,1012.4,9.05,29.9,50,12.6,9.6,7,0,4,1,2026-03-14T21:02:01.418888+05:30
Port Blair,Andaman and Nicobar Islands,11.6234,92.7265,27.3,82,0.0,1011.7,8.95,23.0,74,13.9,10.5,7,0,4,1,2026-03-14T21:02:01.418895+05:30
Haridwar,Uttarakhand,29.9457,78.1642,23.5,61,0.0,976.2,5.0,21.2,100,56.6,39.3,3,5,3,0,2026-03-14T21:02:01.418902+05:30
Rishikesh,Uttarakhand,30.0869,78.2676,20.3,73,0.0,968.8,4.55,20.9,94,29.7,19.8,3,5,3,0,2026-03-14T21:02:01.418909+05:30
Nainital,Uttarakhand,29.3919,79.4542,16.7,66,0.0,806.8,6.15,34.9,112,48.0,38.4,3,5,7,0,2026-03-14T21:02:01.418917+05:30
Mussoorie,Uttarakhand,30.4599,78.0664,14.6,68,0.0,802.6,4.9,25.2,92,44.7,31.5,3,5,3,0,2026-03-14T21:02:01.418925+05:30
Dharamshala,Himachal Pradesh,32.219,76.3234,19.1,28,0.0,869.2,5.45,17.6,67,37.7,19.4,0,5,3,0,2026-03-14T21:02:01.418932+05:30
Dalhousie,Himachal Pradesh,32.5387,75.971,15.1,47,0.0,803.0,6.05,18.7,68,47.4,32.0,0,5,7,0,2026-03-14T21:02:01.418940+05:30
Patiala,Punjab,30.3398,76.3869,20.8,54,0.0,979.6,5.45,27.0,174,150.9,64.5,0,5,3,0,2026-03-14T21:02:01.418946+05:30
Bhatinda,Punjab,30.211,74.9455,21.7,61,0.0,984.8,6.15,22.0,95,48.5,45.9,3,5,7,0,2026-03-14T21:02:01.418953+05:30
Rohtak,Haryana,28.8955,76.6066,23.8,52,0.0,983.4,5.9,22.0,317,194.2,63.8,0,5,3,0,2026-03-14T21:02:01.418960+05:30
Panipat,Haryana,29.3909,76.9635,21.7,64,0.0,982.0,5.6,23.0,694,353.0,88.2,3,5,3,0,2026-03-14T21:02:01.418966+05:30
Mathura,Uttar Pradesh,27.4924,77.6737,21.8,49,0.0,988.6,5.95,29.2,496,167.2,62.9,0,5,3,0,2026-03-14T21:02:01.418972+05:30
Vrindavan,Uttar Pradesh,27.5823,77.7027,21.3,50,0.0,989.2,5.9,35.3,496,167.2,62.9,0,5,3,0,2026-03-14T21:02:01.418979+05:30
Ayodhya,Uttar Pradesh,26.7922,82.1998,24.0,63,0.0,997.1,6.85,21.6,153,77.5,51.0,3,5,7,1,2026-03-14T21:02:01.418986+05:30
Ratlam,Madhya Pradesh,23.3315,75.0367,26.4,38,0.0,956.0,7.65,39.6,110,24.5,18.2,4,5,7,0,2026-03-14T21:02:01.418992+05:30
Sagar,Madhya Pradesh,23.8388,78.7378,26.4,39,0.0,951.2,7.6,34.2,128,19.7,17.5,4,5,7,0,2026-03-14T21:02:01.418998+05:30
Satna,Madhya Pradesh,24.6005,80.8322,27.6,36,0.0,972.4,7.6,26.3,110,61.2,27.1,4,5,7,0,2026-03-14T21:02:01.419004+05:30
Akola,Maharashtra,20.7002,77.0082,28.4,37,0.0,976.2,8.1,17.3,152,32.7,29.7,4,5,7,0,2026-03-14T21:02:01.419011+05:30
Amravati,Maharashtra,20.9374,77.7796,27.2,37,0.0,968.2,8.05,22.3,154,34.9,32.4,4,5,7,0,2026-03-14T21:02:01.419018+05:30
Latur,Maharashtra,18.4088,76.5604,28.4,43,0.0,941.5,8.5,26.6,155,56.1,48.5,4,5,7,0,2026-03-14T21:02:01.419024+05:30
Nanded,Maharashtra,19.1383,77.3091,29.5,42,0.0,969.8,8.3,31.0,171,67.8,58.7,4,5,7,0,2026-03-14T21:02:01.419030+05:30
Gulbarga,Karnataka,17.3297,76.8343,30.9,39,0.0,960.4,8.6,38.9,165,49.9,41.3,0,5,7,0,2026-03-14T21:02:01.419036+05:30
Bidar,Karnataka,17.9104,77.5199,27.8,46,0.0,937.5,8.55,37.1,145,71.7,57.9,4,5,7,0,2026-03-14T21:02:01.419042+05:30
Hospet,Karnataka,15.2689,76.3909,30.4,51,0.0,957.4,8.85,28.1,179,49.6,42.7,0,5,7,1,2026-03-14T21:02:01.419048+05:30
Tirupur,Tamil Nadu,11.1085,77.3411,29.2,36,0.0,977.8,9.3,30.2,78,22.8,20.8,4,5,7,0,2026-03-14T21:02:01.419055+05:30
Alappuzha,Kerala,9.4981,76.3388,28.5,79,0.0,1011.7,9.1,28.4,94,23.4,20.1,7,0,4,1,2026-03-14T21:02:01.419061+05:30
Munnar,Kerala,10.0889,77.0595,21.2,91,0.0,859.2,9.55,28.8,61,23.6,22.8,3,5,7,1,2026-03-14T21:02:01.419068+05:30
Silchar,Assam,24.8333,92.7789,20.6,91,0.0,1011.3,7.75,39.6,100,37.4,30.6,3,0,4,1,2026-03-14T21:02:01.419074+05:30
Dibrugarh,Assam,27.4728,94.912,19.8,90,0.1,1000.6,4.45,22.0,87,30.0,25.8,6,10,0,1,2026-03-14T21:02:01.419081+05:30
