city,state,latitude,longitude,temp,humidity,rain,pressure,uv_index,wind_gusts,aqi,pm10,pm2_5,no2,co,o3,so2,mosquito_risk,arthritis_risk,migraine_risk,frizz_risk,updated_at
Delhi,Delhi,28.6139,77.209,34.1,54,0.0,978.9,7.7,27.4,180,425.6,113.9,16.5,338.0,124.0,17.2,0,5,7,1,2026-07-15T11:04:34.289632+05:30
Mumbai,Maharashtra,19.076,72.8777,27.1,80,0.0,1009.2,7.6,42.8,71,43.8,20.6,7.6,215.0,76.0,10.9,7,0,4,1,2026-07-15T11:04:34.289684+05:30
Bangalore,Karnataka,12.9716,77.5946,27.7,48,0.0,913.9,9.15,43.6,64,26.1,16.3,6.0,265.0,77.0,3.9,4,5,7,0,2026-07-15T11:04:34.289700+05:30
Hyderabad,Telangana,17.385,78.4867,31.1,42,0.0,953.6,9.05,50.0,74,45.5,21.5,3.1,227.0,79.0,4.2,0,5,7,1,2026-07-15T11:04:34.289712+05:30
Chennai,Tamil Nadu,13.0827,80.2707,36.5,39,0.0,1006.1,8.75,37.4,87,36.7,26.5,12.9,235.0,111.0,15.0,0,5,7,1,2026-07-15T11:04:34.289722+05:30
Kolkata,West Bengal,22.5726,88.3639,31.7,73,0.0,1000.3,7.65,34.9,133,15.0,13.0,3.0,256.0,126.0,9.0,3,5,4,1,2026-07-15T11:04:34.289732+05:30
Pune,Maharashtra,18.5204,73.8567,25.8,73,0.0,948.6,8.05,44.3,58,9.2,5.1,3.3,145.0,61.0,4.6,7,5,7,1,2026-07-15T11:04:34.289741+05:30
Ahmedabad,Gujarat,23.0225,72.5714,32.6,56,0.0,1000.1,7.0,39.2,67,30.9,12.7,3.3,144.0,63.0,4.5,0,5,4,1,2026-07-15T11:04:34.289748+05:30
Jaipur,Rajasthan,26.9124,75.7873,33.2,47,0.0,957.5,7.65,40.7,356,551.3,96.4,4.8,144.0,65.0,4.9,0,5,7,1,2026-07-15T11:04:34.289756+05:30
Lucknow,Uttar Pradesh,26.8467,80.9462,33.3,64,0.0,989.1,7.05,23.8,167,169.5,65.2,4.3,227.0,132.0,9.6,3,5,7,1,2026-07-15T11:04:34.289768+05:30
Kanpur,Uttar Pradesh,26.4499,80.3319,33.3,63,0.0,987.7,7.6,36.7,156,130.9,47.1,2.7,174.0,121.0,5.5,3,5,7,1,2026-07-15T11:04:34.289775+05:30
Chandigarh,Chandigarh,30.7333,76.7794,32.6,61,0.0,964.8,7.7,31.3,166,147.1,82.4,6.5,568.0,196.0,17.5,3,5,7,1,2026-07-15T11:04:34.289782+05:30
Srinagar,Jammu and Kashmir,34.0837,74.7973,27.1,46,0.0,841.4,8.95,28.8,82,32.8,20.6,3.8,433.0,154.0,5.6,4,5,7,0,2026-07-15T11:04:34.289789+05:30
Jammu,Jammu and Kashmir,32.7266,74.857,32.1,57,0.0,968.6,8.55,22.3,153,91.7,58.7,8.5,399.0,185.0,7.5,0,5,7,1,2026-07-15T11:04:34.289796+05:30
Amritsar,Punjab,31.634,74.8723,31.6,66,0.0,976.7,8.35,23.8,193,96.6,60.3,8.5,743.0,145.0,10.3,3,5,7,1,2026-07-15T11:04:34.289803+05:30
Ludhiana,Punjab,30.901,75.8573,33.9,54,0.1,974.5,7.95,27.7,192,135.0,86.1,11.0,577.0,163.0,10.5,3,5,7,1,2026-07-15T11:04:34.289809+05:30
Jalandhar,Punjab,31.326,75.5762,33.1,61,0.0,975.6,8.15,24.5,199,133.6,84.5,10.0,727.0,174.0,9.4,3,5,7,1,2026-07-15T11:04:34.289816+05:30
Dehradun,Uttarakhand,30.6284,78.0322,24.3,67,0.0,830.6,7.5,28.4,105,50.4,25.3,1.1,275.0,142.0,1.9,3,5,7,1,2026-07-15T11:04:34.289822+05:30
Shimla,Himachal Pradesh,31.1048,77.1734,22.8,49,0.0,786.3,8.2,40.0,108,76.6,37.6,1.4,241.0,152.0,5.9,0,5,7,0,2026-07-15T11:04:34.289829+05:30
Manali,Himachal Pradesh,32.2396,77.1887,26.0,57,0.0,819.9,9.55,33.1,53,17.9,7.9,2.9,160.0,138.0,1.0,4,5,7,1,2026-07-15T11:04:34.289837+05:30
Gurgaon,Haryana,28.4595,77.0266,34.7,49,0.0,977.4,7.75,31.7,176,717.1,145.3,16.9,206.0,82.0,13.5,0,5,7,1,2026-07-15T11:04:34.289845+05:30
Noida,Uttar Pradesh,28.5355,77.391,34.2,56,0.0,980.2,7.7,29.9,176,717.1,145.3,16.9,387.0,82.0,13.5,0,5,7,1,2026-07-15T11:04:34.289852+05:30
Ghaziabad,Uttar Pradesh,28.6692,77.4538,34.2,56,0.0,978.5,7.7,32.0,176,222.1,90.8,16.3,330.0,146.0,24.0,0,5,7,1,2026-07-15T11:04:34.289858+05:30
Faridabad,Haryana,28.4089,77.3178,33.8,56,0.0,979.5,7.75,27.4,176,717.1,145.3,16.9,266.0,82.0,13.5,0,5,7,1,2026-07-15T11:04:34.289867+05:30
Meerut,Uttar Pradesh,28.9845,77.7064,33.4,64,0.0,977.2,7.55,32.8,176,222.1,90.8,16.3,303.0,146.0,24.0,3,5,7,1,2026-07-15T11:04:34.289878+05:30
Agra,Uttar Pradesh,27.1767,78.0081,32.9,61,0.0,984.4,7.95,32.4,151,221.7,65.0,4.8,190.0,91.0,4.8,3,5,7,1,2026-07-15T11:04:34.289887+05:30
Varanasi,Uttar Pradesh,25.3176,82.9739,33.4,65,0.0,993.1,8.55,28.1,174,180.7,80.8,5.5,274.0,135.0,11.8,3,5,7,1,2026-07-15T11:04:34.289894+05:30
Prayagraj,Uttar Pradesh,25.4358,81.8463,34.6,57,0.0,991.6,8.6,27.4,167,172.8,74.0,4.8,192.0,128.0,9.8,0,5,7,1,2026-07-15T11:04:34.289900+05:30
Gorakhpur,Uttar Pradesh,26.7606,83.3732,32.3,71,0.0,992.9,8.4,23.0,162,115.0,47.0,3.7,284.0,137.0,6.2,3,5,7,1,2026-07-15T11:04:34.289907+05:30
Bareilly,Uttar Pradesh,28.367,79.4304,32.6,70,0.0,982.7,8.0,24.5,169,248.7,95.0,4.9,346.0,157.0,14.7,3,5,7,1,2026-07-15T11:04:34.289915+05:30
Aligarh,Uttar Pradesh,27.8974,78.088,33.9,56,0.0,981.6,7.75,29.9,162,215.1,69.2,6.7,189.0,94.0,7.2,0,5,7,1,2026-07-15T11:04:34.289921+05:30
Moradabad,Uttar Pradesh,28.8386,78.7733,32.5,67,0.0,979.5,7.8,29.9,174,261.7,94.3,6.8,399.0,147.0,20.4,3,5,7,1,2026-07-15T11:04:34.289928+05:30
Saharanpur,Uttar Pradesh,29.9637,77.546,32.2,70,0.0,971.5,7.35,29.2,188,283.1,107.8,5.8,593.0,161.0,17.7,3,5,7,1,2026-07-15T11:04:34.289935+05:30
Jhansi,Uttar Pradesh,25.4484,78.5685,32.1,58,0.1,975.3,6.45,36.7,121,97.6,38.4,2.7,149.0,87.0,5.4,3,5,7,1,2026-07-15T11:04:37.533883+05:30
Surat,Gujarat,21.1702,72.8311,28.2,78,0.0,1006.2,7.75,47.2,72,36.7,21.5,18.4,247.0,36.0,49.4,7,5,4,1,2026-07-15T11:04:37.533920+05:30
Vadodara,Gujarat,22.3072,73.1812,30.1,71,0.0,1003.0,7.0,42.1,66,27.3,12.0,4.0,160.0,55.0,4.4,3,5,4,1,2026-07-15T11:04:37.533932+05:30
Rajkot,Gujarat,22.3039,70.8022,32.5,55,0.0,991.8,5.7,43.2,55,29.8,12.9,2.0,107.0,61.0,3.6,0,5,3,1,2026-07-15T11:04:37.533940+05:30
Thane,Maharashtra,19.2183,72.9781,27.7,78,0.0,1008.4,6.9,37.1,71,43.8,20.6,7.6,209.0,76.0,10.9,7,0,4,1,2026-07-15T11:04:37.533948+05:30
Nagpur,Maharashtra,21.1458,79.0882,31.8,52,0.0,972.0,7.5,38.9,91,41.9,23.7,5.6,144.0,89.0,16.7,0,5,7,1,2026-07-15T11:04:37.533956+05:30
Nashik,Maharashtra,19.9975,73.7898,24.1,83,0.1,945.7,7.6,44.6,57,15.8,8.9,4.1,138.0,59.0,5.2,6,5,7,1,2026-07-15T11:04:37.533964+05:30
Aurangabad,Maharashtra,19.8762,75.3433,27.5,67,0.0,944.4,8.85,43.9,61,14.4,7.2,2.0,119.0,68.0,5.9,7,5,7,1,2026-07-15T11:04:37.533972+05:30
Solapur,Maharashtra,17.6599,75.9064,30.6,50,0.1,958.1,8.85,49.3,61,24.2,9.5,1.5,113.0,67.0,2.2,3,5,7,1,2026-07-15T11:04:37.533980+05:30
Kolhapur,Maharashtra,16.705,74.2433,27.0,68,0.0,949.3,8.3,47.5,57,15.5,8.1,2.3,133.0,58.0,2.0,7,5,7,1,2026-07-15T11:04:37.533988+05:30
Goa,Goa,15.2993,74.124,29.7,71,0.0,1000.3,7.8,30.6,77,38.8,17.7,1.2,154.0,58.0,1.4,7,5,4,1,2026-07-15T11:04:37.533995+05:30
Jodhpur,Rajasthan,26.2389,73.0243,32.6,49,0.0,980.5,8.35,40.0,169,168.1,41.7,1.4,108.0,63.0,2.8,0,5,7,1,2026-07-15T11:04:37.534003+05:30
Udaipur,Rajasthan,24.5854,73.7125,28.5,64,0.0,945.1,8.05,34.9,72,29.0,11.2,1.8,104.0,56.0,3.2,7,5,7,1,2026-07-15T11:04:37.534010+05:30
Kota,Rajasthan,25.2138,75.8648,33.1,51,0.0,976.9,8.3,35.3,94,64.5,28.6,3.6,135.0,76.0,6.8,0,5,7,1,2026-07-15T11:04:37.534017+05:30
Bikaner,Rajasthan,28.0229,73.3119,35.7,41,0.0,978.4,8.4,36.7,165,262.6,81.5,0.7,105.0,65.0,2.4,0,5,10,1,2026-07-15T11:04:37.534025+05:30
Ajmer,Rajasthan,26.4499,74.6399,30.5,54,0.0,952.7,8.35,43.6,99,95.2,32.9,2.1,113.0,66.0,3.1,0,5,7,1,2026-07-15T11:04:37.534032+05:30
Gwalior,Madhya Pradesh,26.2183,78.1828,30.5,72,0.0,980.7,7.6,34.9,133,135.5,45.2,3.7,151.0,75.0,3.1,3,5,7,1,2026-07-15T11:04:37.534039+05:30
Indore,Madhya Pradesh,22.7196,75.8577,28.6,65,0.0,947.4,8.6,37.4,70,27.1,12.2,3.0,184.0,66.0,4.9,7,5,7,1,2026-07-15T11:04:37.534046+05:30
Bhopal,Madhya Pradesh,23.2599,77.4126,30.0,62,0.0,952.4,6.7,41.0,83,54.9,23.3,2.5,174.0,75.0,6.4,7,5,7,1,2026-07-15T11:04:37.534054+05:30
Jabalpur,Madhya Pradesh,23.1815,79.9864,30.9,62,0.0,959.5,8.7,31.7,102,62.4,33.1,2.1,196.0,99.0,5.1,3,5,7,1,2026-07-15T11:04:37.534061+05:30
Ujjain,Madhya Pradesh,23.1765,75.7885,28.8,68,0.0,952.9,8.5,35.6,70,23.6,11.2,2.0,148.0,64.0,4.7,7,5,7,1,2026-07-15T11:04:37.534069+05:30
Visakhapatnam,Andhra Pradesh,17.6868,83.2185,34.3,49,0.0,999.8,8.5,32.8,133,84.5,54.7,28.5,469.0,88.0,64.6,0,5,7,1,2026-07-15T11:04:37.534075+05:30
Vijayawada,Andhra Pradesh,16.5062,80.648,35.7,39,0.0,1000.7,8.95,45.4,94,37.3,28.4,4.0,199.0,122.0,8.4,0,5,7,1,2026-07-15T11:04:37.534081+05:30
Guntur,Andhra Pradesh,16.3067,80.4365,36.2,37,0.0,1002.0,8.8,46.8,90,32.8,24.4,3.3,171.0,112.0,6.8,0,5,7,1,2026-07-15T11:04:37.534088+05:30
Nellore,Andhra Pradesh,14.4426,79.9865,35.5,42,0.0,1004.7,8.8,49.7,85,28.7,17.6,3.3,128.0,93.0,7.8,0,5,7,1,2026-07-15T11:04:37.534112+05:30
Kurnool,Andhra Pradesh,15.8281,78.0373,33.2,39,0.0,977.8,8.95,63.0,63,31.2,15.6,3.3,135.0,73.0,6.7,0,5,7,1,2026-07-15T11:04:37.534120+05:30
Kakinada,Andhra Pradesh,16.9891,82.2475,36.0,42,0.0,1004.3,6.15,49.0,97,62.2,41.9,3.8,227.0,132.0,8.4,0,5,7,1,2026-07-15T11:04:37.534127+05:30
Tirupati,Andhra Pradesh,13.6288,79.4192,35.5,36,0.0,990.6,8.9,34.6,86,31.7,16.6,1.5,119.0,92.0,2.1,0,5,10,1,2026-07-15T11:04:37.534133+05:30
Warangal,Telangana,17.9689,79.5941,32.0,50,0.0,978.1,8.85,43.6,90,38.4,23.5,2.6,157.0,100.0,6.1,0,5,7,1,2026-07-15T11:04:37.534140+05:30
Nizamabad,Telangana,18.6725,78.0941,29.8,55,0.0,965.0,8.85,40.3,83,44.5,20.5,2.1,139.0,78.0,5.8,4,5,7,1,2026-07-15T11:04:37.534146+05:30
Mysore,Karnataka,12.2958,76.6396,28.1,55,0.0,930.9,9.05,43.6,60,22.8,13.7,2.8,143.0,75.0,2.2,4,5,7,1,2026-07-15T11:04:37.534152+05:30
Mangalore,Karnataka,12.9141,74.856,29.2,71,0.0,1009.7,8.7,36.7,67,31.1,17.2,2.7,117.0,69.0,3.4,7,0,4,1,2026-07-15T11:04:37.534159+05:30
Hubli-Dharwad,Karnataka,15.3647,75.124,28.1,58,0.0,942.8,7.55,49.3,55,25.8,11.4,1.7,112.0,63.0,1.3,4,5,7,1,2026-07-15T11:04:37.534166+05:30
Belgaum,Karnataka,15.8497,74.4977,26.1,67,0.0,927.6,8.4,50.8,54,16.5,7.9,2.0,112.0,56.0,1.9,7,5,7,1,2026-07-15T11:04:40.805488+05:30
Coimbatore,Tamil Nadu,11.0168,76.9558,32.0,46,0.0,963.6,8.25,51.8,60,29.9,14.3,2.3,161.0,72.0,2.5,0,5,7,1,2026-07-15T11:04:40.805525+05:30
Madurai,Tamil Nadu,9.9252,78.1198,36.6,30,0.0,993.6,8.05,33.8,81,41.3,24.3,6.5,133.0,111.0,6.3,0,5,10,1,2026-07-15T11:04:40.805536+05:30
Trichy,Tamil Nadu,10.7905,78.7047,35.8,39,0.0,999.9,8.5,47.5,70,25.4,14.2,2.4,133.0,74.0,3.0,0,5,10,1,2026-07-15T11:04:40.805544+05:30
Salem,Tamil Nadu,11.6643,78.146,31.5,54,0.0,978.5,8.8,22.0,76,41.3,24.5,5.9,128.0,108.0,11.5,0,5,7,1,2026-07-15T11:04:40.805552+05:30
Tirunelveli,Tamil Nadu,8.7139,77.7567,37.2,28,0.0,1003.6,7.95,45.4,55,21.2,11.4,1.8,139.0,71.0,1.6,0,5,7,0,2026-07-15T11:04:40.805560+05:30
Vellore,Tamil Nadu,12.9165,79.1325,35.5,32,0.0,984.3,8.95,42.1,93,39.7,20.7,3.6,156.0,105.0,4.3,0,5,10,1,2026-07-15T11:04:40.805568+05:30
Erode,Tamil Nadu,11.341,77.7172,35.1,33,0.0,990.0,8.4,42.8,65,30.9,16.8,3.5,166.0,82.0,2.9,0,5,10,1,2026-07-15T11:04:40.805575+05:30
Kochi,Kerala,9.9312,76.2673,28.8,77,0.0,1011.8,8.35,39.6,63,23.1,13.7,3.7,155.0,67.0,3.6,7,0,4,1,2026-07-15T11:04:40.805582+05:30
Thiruvananthapuram,Kerala,8.5241,76.9366,28.8,75,0.0,1010.7,8.05,47.9,59,21.2,12.8,2.9,113.0,67.0,1.8,7,0,4,1,2026-07-15T11:04:40.805588+05:30
Kozhikode,Kerala,11.2588,75.7804,29.4,74,0.0,1010.8,8.15,40.0,60,28.8,15.8,1.4,148.0,71.0,2.6,7,0,4,1,2026-07-15T11:04:40.805595+05:30
Thrissur,Kerala,10.5276,76.2144,29.3,75,0.1,1010.1,8.65,36.7,61,23.6,14.4,3.2,128.0,66.0,2.8,10,0,4,1,2026-07-15T11:04:40.805602+05:30
Kannur,Kerala,11.8745,75.3704,29.8,68,0.0,1010.2,7.85,37.4,63,31.1,16.6,2.2,146.0,68.0,2.4,7,0,4,1,2026-07-15T11:04:40.805609+05:30
Patna,Bihar,25.5941,85.1376,32.8,69,0.0,996.1,8.25,31.7,160,66.4,40.0,7.5,371.0,140.0,12.9,3,5,7,1,2026-07-15T11:04:40.805615+05:30
Gaya,Bihar,24.7914,85.0002,32.8,67,0.0,989.6,8.45,33.1,161,105.0,49.8,3.6,340.0,125.0,6.5,3,5,7,1,2026-07-15T11:04:40.805622+05:30
Muzaffarpur,Bihar,26.1209,85.3647,32.6,73,0.0,996.1,7.35,24.1,155,50.6,32.0,6.7,400.0,142.0,11.9,3,5,7,1,2026-07-15T11:04:40.805628+05:30
Bhagalpur,Bihar,25.2425,87.0117,32.8,69,0.0,996.6,7.95,24.8,92,33.5,26.5,6.6,275.0,145.0,23.8,3,5,7,1,2026-07-15T11:04:40.805634+05:30
Ranchi,Jharkhand,23.3441,85.3096,26.9,80,0.0,934.6,8.5,32.0,157,125.3,54.5,3.3,206.0,131.0,13.4,7,5,7,1,2026-07-15T11:04:40.805640+05:30
Jamshedpur,Jharkhand,22.8046,86.2029,31.3,72,0.0,986.5,7.75,35.3,171,59.8,49.2,15.3,507.0,143.0,38.1,3,5,7,1,2026-07-15T11:04:40.805647+05:30
Dhanbad,Jharkhand,23.7957,86.4304,30.6,72,0.0,975.9,8.6,25.2,191,80.6,64.5,34.9,282.0,123.0,69.5,3,5,7,1,2026-07-15T11:04:40.805653+05:30
Bokaro,Jharkhand,23.6693,86.1511,30.8,73,0.0,979.9,8.35,29.2,191,111.3,64.0,31.4,272.0,112.0,64.8,3,5,7,1,2026-07-15T11:04:40.805659+05:30
Bhubaneswar,Odisha,20.2961,85.8245,27.8,92,0.1,998.1,4.95,33.1,138,85.7,44.1,9.8,310.0,85.0,12.0,10,5,3,1,2026-07-15T11:04:40.805666+05:30
Cuttack,Odisha,20.4625,85.8828,28.0,89,0.3,999.8,5.55,38.9,138,85.7,44.1,9.8,272.0,85.0,12.0,10,5,3,1,2026-07-15T11:04:40.805672+05:30
Rourkela,Odisha,22.2604,84.8536,32.7,65,0.0,980.4,7.8,46.4,154,132.7,60.8,4.6,347.0,127.0,11.9,3,5,7,1,2026-07-15T11:04:40.805679+05:30
Raipur,Chhattisgarh,21.2514,81.6296,30.6,63,0.0,972.0,8.0,37.4,143,59.8,41.0,17.1,172.0,87.0,48.7,3,5,7,1,2026-07-15T11:04:40.805686+05:30
Bhilai,Chhattisgarh,21.1938,81.3509,30.3,62,0.0,972.6,8.35,37.8,124,54.7,36.6,13.2,375.0,88.0,38.2,3,5,7,1,2026-07-15T11:04:40.805691+05:30
Guwahati,Assam,26.1158,91.7086,30.9,78,0.0,997.4,7.85,29.2,50,5.5,5.3,2.2,243.0,89.0,1.2,3,5,7,1,2026-07-15T11:04:40.805697+05:30
Agartala,Tripura,23.8315,91.2868,33.1,68,0.0,1001.2,8.4,43.6,76,13.4,12.1,3.1,163.0,137.0,1.7,3,5,4,1,2026-07-15T11:04:40.805704+05:30
Shillong,Meghalaya,25.5788,91.8933,25.2,79,0.1,856.4,7.1,24.1,40,4.6,4.0,1.8,188.0,88.0,1.7,10,5,7,1,2026-07-15T11:04:40.805710+05:30
Imphal,Manipur,24.817,93.9368,28.2,69,0.1,921.0,8.15,24.8,57,4.1,3.5,1.0,169.0,81.0,1.3,10,5,7,1,2026-07-15T11:04:40.805716+05:30
Aizawl,Mizoram,23.7271,92.7176,27.8,65,0.0,890.4,9.0,32.4,41,8.8,7.2,0.6,133.0,86.0,0.7,7,5,7,1,2026-07-15T11:04:40.805723+05:30
Kohima,Nagaland,25.6701,94.1077,24.0,87,0.0,854.1,7.25,29.2,52,5.2,4.4,0.9,169.0,86.0,0.9,3,5,7,1,2026-07-15T11:04:40.805729+05:30
Gangtok,Sikkim,27.3314,88.6138,24.4,67,0.0,838.0,7.8,31.7,46,8.8,8.3,2.1,238.0,100.0,1.2,3,5,7,1,2026-07-15T11:04:40.805736+05:30
Siliguri,West Bengal,26.7271,88.3953,28.9,92,0.1,989.2,6.95,16.9,71,15.8,14.3,2.4,389.0,124.0,2.9,10,5,7,1,2026-07-15T11:04:44.046548+05:30
Durgapur,West Bengal,23.5204,87.3119,32.6,65,0.0,990.4,9.0,28.1,157,37.8,34.6,15.6,290.0,129.0,40.2,3,5,7,1,2026-07-15T11:04:44.046591+05:30
Asansol,West Bengal,23.6739,86.9524,31.2,74,0.0,989.1,8.15,22.0,157,49.4,41.8,18.3,282.0,134.0,47.2,3,5,7,1,2026-07-15T11:04:44.046606+05:30
Pondicherry,Puducherry,11.9139,79.8145,35.0,47,0.0,1007.7,7.9,49.3,77,32.9,23.7,7.2,201.0,107.0,10.5,0,5,4,1,2026-07-15T11:04:44.046618+05:30
Port Blair,Andaman and Nicobar Islands,11.6234,92.7265,30.3,74,0.0,1006.9,8.4,57.6,42,15.8,7.5,0.3,88.0,45.0,0.4,3,5,4,1,2026-07-15T11:04:44.046627+05:30
Haridwar,Uttarakhand,29.9457,78.1642,32.2,67,0.0,969.9,7.5,23.8,176,206.3,85.7,2.7,346.0,157.0,12.8,3,5,7,1,2026-07-15T11:04:44.046636+05:30
Rishikesh,Uttarakhand,30.0869,78.2676,31.6,66,0.0,962.7,7.6,24.5,166,125.7,57.3,1.3,313.0,154.0,9.3,3,5,7,1,2026-07-15T11:04:44.046644+05:30
Nainital,Uttarakhand,29.3919,79.4542,22.2,70,0.0,806.3,7.55,28.4,170,195.1,78.9,1.5,274.0,151.0,8.3,3,5,7,1,2026-07-15T11:04:44.046652+05:30
Mussoorie,Uttarakhand,30.4599,78.0664,23.8,59,0.1,804.3,7.3,34.9,158,100.4,50.3,1.9,283.0,169.0,10.0,3,5,7,0,2026-07-15T11:04:44.046659+05:30
Dharamshala,Himachal Pradesh,32.219,76.3234,26.1,53,0.0,868.5,8.4,33.1,67,42.6,20.6,0.8,296.0,140.0,1.5,4,5,7,0,2026-07-15T11:04:44.046667+05:30
Dalhousie,Himachal Pradesh,32.5387,75.971,23.3,60,0.1,805.8,8.55,31.7,153,88.2,45.9,1.5,278.0,168.0,3.3,3,5,7,0,2026-07-15T11:04:44.046675+05:30
Patiala,Punjab,30.3398,76.3869,34.0,56,0.0,973.9,7.6,27.0,203,452.6,137.8,6.4,518.0,160.0,10.1,0,5,7,1,2026-07-15T11:04:44.046682+05:30
Bhatinda,Punjab,30.211,74.9455,33.4,57,0.0,979.6,8.25,34.9,174,276.6,100.6,5.2,225.0,136.0,11.1,0,5,7,1,2026-07-15T11:04:44.046689+05:30
Rohtak,Haryana,28.8955,76.6066,34.6,53,0.0,977.6,7.65,27.4,294,1415.6,211.4,7.0,189.0,91.0,5.4,0,5,7,1,2026-07-15T11:04:44.046695+05:30
Panipat,Haryana,29.3909,76.9635,33.8,61,0.0,976.2,7.55,24.8,567,1322.5,200.7,7.8,302.0,114.0,11.5,3,5,7,1,2026-07-15T11:04:44.046702+05:30
Mathura,Uttar Pradesh,27.4924,77.6737,33.8,55,0.0,983.1,7.85,28.8,172,1072.9,150.4,7.6,186.0,71.0,4.2,0,5,7,1,2026-07-15T11:04:44.046710+05:30
Vrindavan,Uttar Pradesh,27.5823,77.7027,33.9,55,0.0,983.5,7.9,28.4,172,1072.9,150.4,7.6,179.0,71.0,4.2,0,5,7,1,2026-07-15T11:04:44.046716+05:30
Ayodhya,Uttar Pradesh,26.7922,82.1998,33.2,69,0.0,991.0,6.55,21.2,181,212.8,85.0,3.8,411.0,143.0,7.5,3,5,7,1,2026-07-15T11:04:44.046723+05:30
Ratlam,Madhya Pradesh,23.3315,75.0367,29.2,65,0.0,953.9,7.3,36.7,68,27.0,11.9,1.9,118.0,62.0,4.5,7,5,7,1,2026-07-15T11:04:44.046730+05:30
Sagar,Madhya Pradesh,23.8388,78.7378,30.6,64,0.0,948.4,7.05,39.6,98,67.3,32.6,2.1,160.0,89.0,5.8,3,5,7,1,2026-07-15T11:04:44.046737+05:30
Satna,Madhya Pradesh,24.6005,80.8322,32.9,56,0.0,968.1,8.75,34.6,124,100.8,43.4,2.2,143.0,98.0,6.0,0,5,7,1,2026-07-15T11:04:44.046744+05:30
Akola,Maharashtra,20.7002,77.0082,31.3,56,0.0,974.7,7.95,40.0,69,22.2,11.4,2.9,111.0,65.0,7.0,0,5,7,1,2026-07-15T11:04:44.046752+05:30
Amravati,Maharashtra,20.9374,77.7796,29.3,63,0.0,966.8,7.4,41.4,71,23.5,12.5,3.4,117.0,65.0,8.2,7,5,7,1,2026-07-15T11:04:44.046760+05:30
Latur,Maharashtra,18.4088,76.5604,29.3,53,0.0,940.5,8.95,41.4,65,28.0,11.4,1.3,110.0,63.0,2.5,4,5,7,1,2026-07-15T11:04:44.046768+05:30
Nanded,Maharashtra,19.1383,77.3091,30.3,55,0.0,968.8,8.6,45.0,76,33.6,16.2,2.2,133.0,73.0,5.0,0,5,7,1,2026-07-15T11:04:44.046775+05:30
Gulbarga,Karnataka,17.3297,76.8343,30.7,48,0.0,959.7,8.8,55.8,62,22.2,9.7,2.1,120.0,67.0,2.7,0,5,7,1,2026-07-15T11:04:44.046782+05:30
Bidar,Karnataka,17.9104,77.5199,28.6,56,0.1,936.2,9.0,41.4,74,41.7,17.8,2.3,142.0,70.0,3.3,7,5,7,1,2026-07-15T11:04:44.046790+05:30
Hospet,Karnataka,15.2689,76.3909,29.7,53,0.0,957.7,8.4,44.3,56,25.7,12.5,2.0,120.0,68.0,2.2,4,5,7,1,2026-07-15T11:04:44.046797+05:30
Tirupur,Tamil Nadu,11.1085,77.3411,33.9,46,0.0,976.6,8.55,58.3,67,32.2,17.0,3.4,170.0,83.0,3.1,0,5,7,1,2026-07-15T11:04:44.046804+05:30
Alappuzha,Kerala,9.4981,76.3388,29.0,76,0.0,1011.8,8.35,41.0,62,23.9,14.0,3.9,94.0,67.0,3.4,7,0,4,1,2026-07-15T11:04:44.046810+05:30
Munnar,Kerala,10.0889,77.0595,21.3,72,0.0,860.2,8.45,37.1,52,20.2,9.7,1.6,101.0,63.0,1.6,3,5,7,1,2026-07-15T11:04:44.046818+05:30
Silchar,Assam,24.8333,92.7789,33.7,66,0.0,999.4,8.85,23.0,61,13.6,11.9,1.4,200.0,115.0,3.7,3,5,7,1,2026-07-15T11:04:44.046824+05:30
Dibrugarh,Assam,27.4728,94.912,31.2,75,0.0,991.4,7.65,27.7,60,6.3,6.2,1.5,166.0,86.0,0.7,3,5,7,1,2026-07-15T11:04:44.046831+05:30
