city,state,latitude,longitude,temp,humidity,rain,pressure,uv_index,wind_gusts,aqi,pm10,pm2_5,mosquito_risk,arthritis_risk,migraine_risk,frizz_risk,updated_at
Delhi,Delhi,28.6139,77.209,24.3,67,0.0,985.1,6.85,23.8,152,135.5,52.2,3,5,7,1,2026-04-01T23:27:04.530021+05:30
Mumbai,Maharashtra,19.076,72.8777,27.5,75,0.0,1009.9,7.85,24.1,63,24.9,15.2,7,0,4,1,2026-04-01T23:27:04.530073+05:30
Bangalore,Karnataka,12.9716,77.5946,24.3,55,0.0,912.6,9.55,28.4,71,17.0,15.0,0,5,7,0,2026-04-01T23:27:04.530089+05:30
Hyderabad,Telangana,17.385,78.4867,26.6,66,0.0,955.0,9.1,22.7,96,34.9,31.8,7,5,7,1,2026-04-01T23:27:04.530099+05:30
Chennai,Tamil Nadu,13.0827,80.2707,26.9,76,0.0,1009.3,9.3,29.5,40,10.9,8.2,7,0,4,1,2026-04-01T23:27:04.530108+05:30
Kolkata,West Bengal,22.5726,88.3639,26.6,92,0.0,1006.6,8.6,19.4,102,30.0,26.6,7,5,4,1,2026-04-01T23:27:04.530117+05:30
Pune,Maharashtra,18.5204,73.8567,26.0,87,0.0,949.5,8.4,32.0,132,53.9,47.1,7,5,7,1,2026-04-01T23:27:04.530129+05:30
Ahmedabad,Gujarat,23.0225,72.5714,28.0,45,0.0,1003.0,7.85,25.9,61,25.8,19.0,4,5,4,0,2026-04-01T23:27:04.530137+05:30
Jaipur,Rajasthan,26.9124,75.7873,25.2,58,0.0,961.2,6.85,31.0,113,156.0,32.8,4,5,7,1,2026-04-01T23:27:04.530145+05:30
Lucknow,Uttar Pradesh,26.8467,80.9462,26.7,54,0.0,995.1,7.3,27.4,87,143.9,34.1,4,5,7,1,2026-04-01T23:27:04.530154+05:30
Kanpur,Uttar Pradesh,26.4499,80.3319,26.8,56,0.0,993.4,7.35,28.8,116,349.2,53.4,4,5,7,1,2026-04-01T23:27:04.530161+05:30
Chandigarh,Chandigarh,30.7333,76.7794,20.8,69,0.0,971.8,6.5,16.6,72,56.5,41.0,3,5,7,0,2026-04-01T23:27:04.530169+05:30
Srinagar,Jammu and Kashmir,34.0837,74.7973,10.4,75,0.0,842.0,7.1,20.5,92,82.0,65.4,3,5,7,0,2026-04-01T23:27:04.530176+05:30
Jammu,Jammu and Kashmir,32.7266,74.857,21.7,68,0.0,976.3,6.5,20.5,81,74.0,46.8,3,5,7,0,2026-04-01T23:27:04.530184+05:30
Amritsar,Punjab,31.634,74.8723,23.9,55,0.0,984.3,6.35,14.4,123,112.0,62.4,0,5,7,0,2026-04-01T23:27:04.530191+05:30
Ludhiana,Punjab,30.901,75.8573,23.1,59,0.0,981.9,6.35,18.4,119,101.3,79.6,0,5,7,0,2026-04-01T23:27:04.530198+05:30
Jalandhar,Punjab,31.326,75.5762,22.1,67,0.0,983.3,7.05,14.8,111,111.5,63.3,3,5,7,0,2026-04-01T23:27:04.530209+05:30
Dehradun,Uttarakhand,30.6284,78.0322,14.3,63,0.0,831.9,6.4,32.0,48,27.4,13.5,3,5,7,0,2026-04-01T23:27:04.530216+05:30
Shimla,Himachal Pradesh,31.1048,77.1734,11.8,68,0.0,785.5,6.15,30.2,54,36.9,23.2,3,5,7,0,2026-04-01T23:27:04.530223+05:30
Manali,Himachal Pradesh,32.2396,77.1887,13.4,77,0.0,821.3,8.65,29.9,88,19.8,11.0,3,5,7,0,2026-04-01T23:27:04.530230+05:30
Gurgaon,Haryana,28.4595,77.0266,22.3,75,0.0,983.4,6.9,30.6,441,323.2,91.5,3,5,7,1,2026-04-01T23:27:04.530237+05:30
Noida,Uttar Pradesh,28.5355,77.391,23.9,69,0.0,986.6,6.85,22.3,441,323.2,91.5,3,5,7,1,2026-04-01T23:27:04.530244+05:30
Ghaziabad,Uttar Pradesh,28.6692,77.4538,22.2,75,0.0,984.7,6.85,22.7,146,180.7,70.8,3,5,7,1,2026-04-01T23:27:04.530250+05:30
Faridabad,Haryana,28.4089,77.3178,22.6,68,0.0,985.7,6.9,26.6,441,323.2,91.5,3,5,7,1,2026-04-01T23:27:04.530257+05:30
Meerut,Uttar Pradesh,28.9845,77.7064,21.2,76,0.0,983.7,6.4,24.1,146,180.7,70.8,3,5,7,1,2026-04-01T23:27:04.530265+05:30
Agra,Uttar Pradesh,27.1767,78.0081,25.5,64,0.0,989.6,7.25,28.8,448,635.2,91.0,7,5,7,1,2026-04-01T23:27:04.530271+05:30
Varanasi,Uttar Pradesh,25.3176,82.9739,26.5,66,0.0,998.6,7.7,25.6,86,39.6,31.1,7,5,7,1,2026-04-01T23:27:04.530280+05:30
Prayagraj,Uttar Pradesh,25.4358,81.8463,28.2,58,0.0,997.3,7.9,36.0,66,43.5,30.5,4,5,7,1,2026-04-01T23:27:04.530287+05:30
Gorakhpur,Uttar Pradesh,26.7606,83.3732,25.2,58,0.0,997.9,7.75,23.8,110,43.3,21.5,4,5,7,1,2026-04-01T23:27:04.530294+05:30
Bareilly,Uttar Pradesh,28.367,79.4304,23.3,67,0.0,988.7,7.1,27.4,106,88.0,38.3,3,5,7,1,2026-04-01T23:27:04.530300+05:30
Aligarh,Uttar Pradesh,27.8974,78.088,25.2,53,0.0,987.4,7.0,21.6,320,332.5,72.2,4,5,7,0,2026-04-01T23:27:04.530307+05:30
Moradabad,Uttar Pradesh,28.8386,78.7733,22.3,66,0.0,985.7,6.9,27.4,115,57.2,37.6,3,5,7,0,2026-04-01T23:27:04.530314+05:30
Saharanpur,Uttar Pradesh,29.9637,77.546,20.2,75,0.0,978.5,6.0,21.2,95,104.8,51.5,3,5,3,0,2026-04-01T23:27:04.530320+05:30
Jhansi,Uttar Pradesh,25.4484,78.5685,26.7,62,0.0,979.9,7.8,32.0,64,48.0,26.4,7,5,7,1,2026-04-01T23:27:07.788507+05:30
Surat,Gujarat,21.1702,72.8311,26.4,76,0.0,1007.9,7.65,25.2,89,27.2,22.2,7,5,4,1,2026-04-01T23:27:07.788538+05:30
Vadodara,Gujarat,22.3072,73.1812,26.9,65,0.0,1005.0,7.85,29.2,72,30.5,25.3,7,5,4,1,2026-04-01T23:27:07.788547+05:30
Rajkot,Gujarat,22.3039,70.8022,24.6,65,0.0,995.8,7.1,31.3,100,24.3,13.9,3,5,7,1,2026-04-01T23:27:07.788556+05:30
Thane,Maharashtra,19.2183,72.9781,25.8,77,0.0,1009.3,7.85,34.2,63,24.9,15.2,7,0,4,1,2026-04-01T23:27:07.788563+05:30
Nagpur,Maharashtra,21.1458,79.0882,27.0,69,0.0,974.3,8.6,48.6,129,42.3,37.0,7,5,7,1,2026-04-01T23:27:07.788571+05:30
Nashik,Maharashtra,19.9975,73.7898,23.9,79,0.0,946.6,8.1,32.0,63,21.5,15.1,3,5,7,1,2026-04-01T23:27:07.788578+05:30
Aurangabad,Maharashtra,19.8762,75.3433,25.8,69,0.0,945.6,8.8,45.7,103,47.4,40.3,7,5,7,1,2026-04-01T23:27:07.788585+05:30
Solapur,Maharashtra,17.6599,75.9064,27.2,63,0.0,958.7,8.9,19.1,118,40.9,37.1,7,5,7,1,2026-04-01T23:27:07.788592+05:30
Kolhapur,Maharashtra,16.705,74.2433,24.0,91,0.0,948.7,8.95,34.2,136,52.4,49.0,3,5,7,1,2026-04-01T23:27:07.788599+05:30
Goa,Goa,15.2993,74.124,28.5,77,0.0,998.8,8.85,32.8,71,31.3,22.5,7,5,7,1,2026-04-01T23:27:07.788606+05:30
Jodhpur,Rajasthan,26.2389,73.0243,26.9,35,0.0,983.9,7.8,33.1,91,170.4,28.2,4,5,7,0,2026-04-01T23:27:07.788613+05:30
Udaipur,Rajasthan,24.5854,73.7125,25.5,45,0.0,947.6,8.4,36.7,53,22.2,11.9,4,5,7,0,2026-04-01T23:27:07.788620+05:30
Kota,Rajasthan,25.2138,75.8648,28.0,54,0.0,980.4,7.45,23.0,60,35.7,22.4,4,5,7,1,2026-04-01T23:27:07.788627+05:30
Bikaner,Rajasthan,28.0229,73.3119,26.9,38,0.0,982.7,6.95,19.4,62,28.5,11.7,4,5,7,0,2026-04-01T23:27:07.788635+05:30
Ajmer,Rajasthan,26.4499,74.6399,26.6,57,0.0,955.9,7.15,26.6,60,40.6,23.9,4,5,7,1,2026-04-01T23:27:07.788642+05:30
Gwalior,Madhya Pradesh,26.2183,78.1828,26.3,69,0.0,985.0,7.5,35.3,75,114.6,33.3,7,5,7,1,2026-04-01T23:27:07.788650+05:30
Indore,Madhya Pradesh,22.7196,75.8577,26.3,61,0.0,949.0,8.3,35.3,81,48.3,41.1,7,5,7,1,2026-04-01T23:27:07.788656+05:30
Bhopal,Madhya Pradesh,23.2599,77.4126,24.7,69,0.0,954.6,8.25,39.2,70,34.9,26.2,3,5,7,1,2026-04-01T23:27:07.788664+05:30
Jabalpur,Madhya Pradesh,23.1815,79.9864,24.4,69,0.0,963.7,8.25,40.7,63,36.9,30.5,3,5,7,1,2026-04-01T23:27:07.788670+05:30
Ujjain,Madhya Pradesh,23.1765,75.7885,25.7,60,0.0,954.6,8.2,30.2,75,38.0,34.3,4,5,7,1,2026-04-01T23:27:07.788678+05:30
Visakhapatnam,Andhra Pradesh,17.6868,83.2185,25.9,85,0.0,1006.2,9.05,35.6,67,18.8,16.0,7,5,4,1,2026-04-01T23:27:07.788684+05:30
Vijayawada,Andhra Pradesh,16.5062,80.648,26.4,78,0.0,1004.9,9.05,27.0,56,14.6,13.1,7,5,4,1,2026-04-01T23:27:07.788692+05:30
Guntur,Andhra Pradesh,16.3067,80.4365,25.7,85,0.0,1006.0,9.1,29.9,54,13.4,12.0,7,5,4,1,2026-04-01T23:27:07.788699+05:30
Nellore,Andhra Pradesh,14.4426,79.9865,25.6,83,0.0,1008.0,9.2,29.9,42,8.8,6.5,7,0,4,1,2026-04-01T23:27:07.788707+05:30
Kurnool,Andhra Pradesh,15.8281,78.0373,30.4,46,0.0,977.6,9.1,23.8,72,20.6,17.6,0,5,7,1,2026-04-01T23:27:07.788714+05:30
Kakinada,Andhra Pradesh,16.9891,82.2475,25.3,86,0.0,1010.2,9.05,35.3,51,11.3,8.6,7,0,4,1,2026-04-01T23:27:07.788721+05:30
Tirupati,Andhra Pradesh,13.6288,79.4192,24.9,70,0.0,993.9,9.35,31.7,57,13.4,12.2,3,5,7,1,2026-04-01T23:27:07.788727+05:30
Warangal,Telangana,17.9689,79.5941,28.8,61,0.0,980.1,8.9,30.6,100,34.2,31.7,7,5,7,1,2026-04-01T23:27:07.788734+05:30
Nizamabad,Telangana,18.6725,78.0941,26.1,73,0.0,966.3,8.85,34.9,129,47.5,43.1,7,5,7,1,2026-04-01T23:27:07.788741+05:30
Mysore,Karnataka,12.2958,76.6396,24.3,83,0.0,929.0,9.5,29.2,88,25.3,22.5,3,5,7,1,2026-04-01T23:27:07.788747+05:30
Mangalore,Karnataka,12.9141,74.856,29.8,80,0.0,1007.2,9.1,22.3,81,39.6,34.2,7,5,4,1,2026-04-01T23:27:07.788754+05:30
Hubli-Dharwad,Karnataka,15.3647,75.124,25.0,87,0.0,941.6,9.15,37.4,113,37.1,34.6,7,5,7,1,2026-04-01T23:27:07.788762+05:30
Belgaum,Karnataka,15.8497,74.4977,23.3,94,0.0,926.4,9.2,26.6,118,46.6,42.7,3,5,7,1,2026-04-01T23:27:11.044587+05:30
Coimbatore,Tamil Nadu,11.0168,76.9558,25.5,86,0.0,963.2,9.45,34.2,67,33.1,28.0,7,5,7,1,2026-04-01T23:27:11.044618+05:30
Madurai,Tamil Nadu,9.9252,78.1198,26.5,77,0.0,995.1,8.9,24.8,58,15.4,14.0,7,5,7,1,2026-04-01T23:27:11.044630+05:30
Trichy,Tamil Nadu,10.7905,78.7047,25.8,80,0.0,1001.7,9.15,26.3,57,13.9,12.5,7,5,4,1,2026-04-01T23:27:11.044639+05:30
Salem,Tamil Nadu,11.6643,78.146,27.1,71,0.0,978.6,9.4,29.9,92,27.2,24.4,7,5,7,1,2026-04-01T23:27:11.044647+05:30
Tirunelveli,Tamil Nadu,8.7139,77.7567,27.0,77,0.0,1005.1,9.35,38.2,51,12.7,11.4,7,5,4,1,2026-04-01T23:27:11.044655+05:30
Vellore,Tamil Nadu,12.9165,79.1325,25.3,70,0.0,986.7,9.4,32.8,60,17.1,15.7,7,5,7,1,2026-04-01T23:27:11.044663+05:30
Erode,Tamil Nadu,11.341,77.7172,28.5,65,0.0,990.2,9.35,21.2,75,25.6,23.5,7,5,7,1,2026-04-01T23:27:11.044670+05:30
Kochi,Kerala,9.9312,76.2673,29.0,80,0.0,1009.8,9.2,28.4,91,33.6,32.1,7,0,4,1,2026-04-01T23:27:11.044678+05:30
Thiruvananthapuram,Kerala,8.5241,76.9366,29.1,78,0.0,1009.3,9.15,28.4,94,17.4,12.8,7,0,4,1,2026-04-01T23:27:11.044686+05:30
Kozhikode,Kerala,11.2588,75.7804,29.5,81,0.0,1008.5,9.15,25.9,68,31.2,24.3,7,0,4,1,2026-04-01T23:27:11.044694+05:30
Thrissur,Kerala,10.5276,76.2144,28.3,88,0.0,1007.8,9.2,33.8,78,31.8,27.6,7,5,4,1,2026-04-01T23:27:11.044702+05:30
Kannur,Kerala,11.8745,75.3704,29.4,79,0.0,1007.7,9.1,26.3,87,45.9,42.1,7,5,4,1,2026-04-01T23:27:11.044709+05:30
Patna,Bihar,25.5941,85.1376,27.3,64,0.0,1000.8,8.2,25.2,157,35.7,27.9,7,5,4,1,2026-04-01T23:27:11.044716+05:30
Gaya,Bihar,24.7914,85.0002,28.6,58,0.0,994.8,7.95,31.3,93,50.4,31.8,4,5,7,1,2026-04-01T23:27:11.044723+05:30
Muzaffarpur,Bihar,26.1209,85.3647,25.1,62,0.0,1000.7,8.15,39.2,160,38.0,33.4,7,5,4,1,2026-04-01T23:27:11.044730+05:30
Bhagalpur,Bihar,25.2425,87.0117,26.1,79,0.0,1001.1,8.25,32.0,152,48.7,38.4,7,5,4,1,2026-04-01T23:27:11.044737+05:30
Ranchi,Jharkhand,23.3441,85.3096,25.4,56,0.0,939.4,8.85,31.3,88,63.3,30.9,4,5,7,0,2026-04-01T23:27:11.044743+05:30
Jamshedpur,Jharkhand,22.8046,86.2029,30.3,57,0.0,991.7,8.7,20.5,122,80.6,50.4,0,5,7,1,2026-04-01T23:27:11.044750+05:30
Dhanbad,Jharkhand,23.7957,86.4304,29.3,48,0.0,980.8,8.6,23.8,160,111.1,70.3,4,5,7,1,2026-04-01T23:27:11.044757+05:30
Bokaro,Jharkhand,23.6693,86.1511,29.1,47,0.0,985.1,8.6,28.4,152,106.9,62.9,4,5,7,1,2026-04-01T23:27:11.044764+05:30
Bhubaneswar,Odisha,20.2961,85.8245,26.2,89,0.0,1004.5,8.85,30.2,88,24.9,22.5,7,5,4,1,2026-04-01T23:27:11.044772+05:30
Cuttack,Odisha,20.4625,85.8828,26.3,87,0.0,1006.5,8.9,24.8,88,24.9,22.5,7,5,4,1,2026-04-01T23:27:11.044778+05:30
Rourkela,Odisha,22.2604,84.8536,27.0,78,0.0,985.9,8.6,14.0,134,102.2,58.2,7,5,7,1,2026-04-01T23:27:11.044784+05:30
Raipur,Chhattisgarh,21.2514,81.6296,28.0,54,0.0,975.7,8.7,18.0,144,60.5,53.7,4,5,7,1,2026-04-01T23:27:11.044791+05:30
Bhilai,Chhattisgarh,21.1938,81.3509,28.2,55,0.0,975.7,8.7,19.1,126,55.3,50.5,4,5,7,1,2026-04-01T23:27:11.044797+05:30
Guwahati,Assam,26.1158,91.7086,22.5,90,0.0,1002.7,8.05,38.9,96,37.6,34.2,3,5,4,1,2026-04-01T23:27:11.044804+05:30
Agartala,Tripura,23.8315,91.2868,25.2,89,0.0,1006.8,8.35,23.4,89,34.9,32.1,7,5,4,1,2026-04-01T23:27:11.044810+05:30
Shillong,Meghalaya,25.5788,91.8933,15.4,91,0.0,856.2,8.45,57.2,75,26.2,23.7,3,10,7,0,2026-04-01T23:27:11.044818+05:30
Imphal,Manipur,24.817,93.9368,18.6,87,0.0,924.4,8.7,63.4,96,59.5,49.7,3,10,7,1,2026-04-01T23:27:11.044825+05:30
Aizawl,Mizoram,23.7271,92.7176,19.6,86,0.0,893.5,8.6,41.4,86,41.0,32.2,3,10,7,1,2026-04-01T23:27:11.044832+05:30
Kohima,Nagaland,25.6701,94.1077,16.4,78,0.0,855.4,8.55,81.7,75,44.2,34.0,3,5,7,0,2026-04-01T23:27:11.044839+05:30
Gangtok,Sikkim,27.3314,88.6138,14.7,82,0.0,836.3,8.45,20.2,87,34.1,29.9,3,10,7,0,2026-04-01T23:27:11.044846+05:30
Siliguri,West Bengal,26.7271,88.3953,21.3,81,0.0,994.0,8.05,32.4,153,82.2,74.3,3,5,7,1,2026-04-01T23:27:14.307602+05:30
Durgapur,West Bengal,23.5204,87.3119,28.7,73,0.0,995.9,8.55,21.2,152,73.6,59.4,7,5,7,1,2026-04-01T23:27:14.307637+05:30
Asansol,West Bengal,23.6739,86.9524,29.5,65,0.0,994.6,8.6,22.0,152,79.4,54.1,7,5,7,1,2026-04-01T23:27:14.307651+05:30
Pondicherry,Puducherry,11.9139,79.8145,24.7,84,0.0,1010.5,8.8,26.6,37,10.3,7.5,3,0,4,1,2026-04-01T23:27:14.307662+05:30
Port Blair,Andaman and Nicobar Islands,11.6234,92.7265,28.5,80,0.0,1008.7,3.85,13.0,44,14.3,12.5,7,0,0,1,2026-04-01T23:27:14.307674+05:30
Haridwar,Uttarakhand,29.9457,78.1642,20.5,73,0.0,977.2,6.5,28.4,71,55.9,32.1,3,5,7,0,2026-04-01T23:27:14.307685+05:30
Rishikesh,Uttarakhand,30.0869,78.2676,20.3,62,0.0,969.7,6.5,32.0,57,42.4,20.9,3,5,7,0,2026-04-01T23:27:14.307696+05:30
Nainital,Uttarakhand,29.3919,79.4542,19.0,42,0.0,808.0,7.55,36.7,91,41.9,22.0,0,5,7,0,2026-04-01T23:27:14.307708+05:30
Mussoorie,Uttarakhand,30.4599,78.0664,16.3,50,0.0,804.8,6.45,38.9,61,55.3,29.0,0,5,7,0,2026-04-01T23:27:14.307718+05:30
Dharamshala,Himachal Pradesh,32.219,76.3234,19.0,43,0.0,871.6,5.85,24.5,50,28.5,16.3,0,5,3,0,2026-04-01T23:27:14.307728+05:30
Dalhousie,Himachal Pradesh,32.5387,75.971,15.1,58,0.0,805.2,6.3,20.9,56,45.8,33.2,0,5,7,0,2026-04-01T23:27:14.307740+05:30
Patiala,Punjab,30.3398,76.3869,22.1,65,0.0,981.2,5.65,16.2,111,103.6,71.7,3,5,3,0,2026-04-01T23:27:14.307750+05:30
Bhatinda,Punjab,30.211,74.9455,22.8,68,0.0,986.9,5.9,24.1,109,213.3,56.2,3,5,3,1,2026-04-01T23:27:14.307760+05:30
Rohtak,Haryana,28.8955,76.6066,21.8,80,0.0,984.0,6.45,26.3,163,293.4,72.6,3,5,7,1,2026-04-01T23:27:14.307771+05:30
Panipat,Haryana,29.3909,76.9635,20.8,76,0.0,982.8,6.15,14.8,141,214.2,59.5,3,5,7,1,2026-04-01T23:27:14.307781+05:30
Mathura,Uttar Pradesh,27.4924,77.6737,25.0,66,0.0,988.6,7.15,30.6,382,289.6,68.0,7,5,7,1,2026-04-01T23:27:14.307791+05:30
Vrindavan,Uttar Pradesh,27.5823,77.7027,23.6,71,0.0,989.1,7.1,26.3,382,289.6,68.0,3,5,7,1,2026-04-01T23:27:14.307801+05:30
Ayodhya,Uttar Pradesh,26.7922,82.1998,25.9,60,0.0,996.5,7.55,25.6,78,80.8,25.8,4,5,7,1,2026-04-01T23:27:14.307811+05:30
Ratlam,Madhya Pradesh,23.3315,75.0367,27.3,51,0.0,955.4,8.15,34.2,80,26.3,23.6,4,5,7,1,2026-04-01T23:27:14.307822+05:30
Sagar,Madhya Pradesh,23.8388,78.7378,26.1,55,0.0,951.8,8.25,33.1,55,27.2,19.4,4,5,7,1,2026-04-01T23:27:14.307831+05:30
Satna,Madhya Pradesh,24.6005,80.8322,27.7,53,0.0,973.3,8.15,26.6,72,32.0,19.6,4,5,7,1,2026-04-01T23:27:14.307841+05:30
Akola,Maharashtra,20.7002,77.0082,26.2,71,0.0,976.8,8.55,39.6,86,34.2,28.1,7,5,7,1,2026-04-01T23:27:14.307852+05:30
Amravati,Maharashtra,20.9374,77.7796,26.0,72,0.0,968.6,8.6,27.0,81,33.6,28.1,7,5,7,1,2026-04-01T23:27:14.307864+05:30
Latur,Maharashtra,18.4088,76.5604,25.9,64,0.0,940.9,8.85,25.6,109,39.2,36.2,7,5,7,1,2026-04-01T23:27:14.307874+05:30
Nanded,Maharashtra,19.1383,77.3091,26.3,70,0.0,970.0,8.75,23.8,111,42.4,37.3,7,5,7,1,2026-04-01T23:27:14.307913+05:30
Gulbarga,Karnataka,17.3297,76.8343,26.3,69,0.0,960.3,8.95,35.6,103,42.6,36.7,7,5,7,1,2026-04-01T23:27:14.307926+05:30
Bidar,Karnataka,17.9104,77.5199,25.4,73,0.0,936.9,8.95,25.2,108,48.5,43.3,7,5,7,1,2026-04-01T23:27:14.307937+05:30
Hospet,Karnataka,15.2689,76.3909,28.8,63,0.0,956.4,9.15,18.4,138,38.5,34.6,7,5,7,1,2026-04-01T23:27:14.307947+05:30
Tirupur,Tamil Nadu,11.1085,77.3411,28.1,58,0.0,976.8,9.45,23.4,77,34.2,29.7,4,5,7,1,2026-04-01T23:27:14.307957+05:30
Alappuzha,Kerala,9.4981,76.3388,28.4,81,0.0,1010.1,9.15,26.6,110,28.5,24.5,7,0,4,1,2026-04-01T23:27:14.307967+05:30
Munnar,Kerala,10.0889,77.0595,21.6,73,0.0,858.1,9.75,30.6,67,37.7,31.8,3,5,7,1,2026-04-01T23:27:14.307978+05:30
Silchar,Assam,24.8333,92.7789,22.9,87,0.0,1007.0,8.4,34.2,113,72.6,63.8,3,5,4,1,2026-04-01T23:27:14.307989+05:30
Dibrugarh,Assam,27.4728,94.912,21.8,88,0.0,996.7,7.65,31.3,104,35.6,30.2,3,5,7,1,2026-04-01T23:27:14.307999+05:30
