city,state,latitude,longitude,temp,humidity,rain,pressure,uv_index,aqi,mosquito_risk,arthritis_risk,migraine_risk,frizz_risk,updated_at
Delhi,Delhi,28.6139,77.209,24.4,46,0.0,984.3,5.4,165,0,5,3,0,2026-02-23T18:42:39.772554+05:30
Mumbai,Maharashtra,19.076,72.8777,27.0,76,0.0,1006.3,7.25,214,7,5,4,1,2026-02-23T18:42:39.772595+05:30
Bangalore,Karnataka,12.9716,77.5946,27.8,36,0.0,909.4,8.9,87,4,5,7,0,2026-02-23T18:42:39.772611+05:30
Hyderabad,Telangana,17.385,78.4867,27.0,50,0.0,952.0,7.2,108,4,5,7,0,2026-02-23T18:42:39.772621+05:30
Chennai,Tamil Nadu,13.0827,80.2707,27.1,73,0.0,1006.0,8.25,33,7,5,4,1,2026-02-23T18:42:39.772629+05:30
Kolkata,West Bengal,22.5726,88.3639,26.3,69,0.0,1006.9,7.25,157,7,5,4,1,2026-02-23T18:42:39.772637+05:30
Pune,Maharashtra,18.5204,73.8567,30.2,24,0.0,946.5,7.75,138,0,5,7,0,2026-02-23T18:42:39.772644+05:30
Ahmedabad,Gujarat,23.0225,72.5714,29.4,35,0.0,1001.0,6.65,86,4,5,4,0,2026-02-23T18:42:39.772651+05:30
Jaipur,Rajasthan,26.9124,75.7873,25.0,40,0.0,960.2,6.2,131,4,5,7,0,2026-02-23T18:42:39.772659+05:30
Lucknow,Uttar Pradesh,26.8467,80.9462,24.8,46,0.0,995.2,5.85,157,0,5,3,0,2026-02-23T18:42:39.772670+05:30
Kanpur,Uttar Pradesh,26.4499,80.3319,23.7,55,0.0,993.4,5.85,154,0,5,3,0,2026-02-23T18:42:39.772677+05:30
Chandigarh,Chandigarh,30.7333,76.7794,20.8,66,0.0,969.9,5.25,165,3,5,3,0,2026-02-23T18:42:39.772686+05:30
Srinagar,Jammu and Kashmir,34.0837,74.7973,12.4,39,0.0,838.5,6.1,192,0,5,7,1,2026-02-23T18:42:39.772694+05:30
Jammu,Jammu and Kashmir,32.7266,74.857,22.4,71,0.0,974.1,5.8,155,3,5,3,1,2026-02-23T18:42:39.772701+05:30
Amritsar,Punjab,31.634,74.8723,22.0,68,0.0,982.4,5.8,175,3,5,3,0,2026-02-23T18:42:39.772707+05:30
Ludhiana,Punjab,30.901,75.8573,22.4,58,0.0,980.3,5.5,194,0,5,3,0,2026-02-23T18:42:39.772714+05:30
Jalandhar,Punjab,31.326,75.5762,22.2,62,0.0,981.5,5.65,187,3,5,3,0,2026-02-23T18:42:39.772721+05:30
Dehradun,Uttarakhand,30.6284,78.0322,12.3,79,0.0,828.5,5.55,130,3,5,3,0,2026-02-23T18:42:39.772727+05:30
Shimla,Himachal Pradesh,31.1048,77.1734,10.4,81,0.0,782.2,5.65,139,3,10,3,0,2026-02-23T18:42:39.772734+05:30
Manali,Himachal Pradesh,32.2396,77.1887,13.7,67,0.0,816.8,7.2,115,3,5,7,0,2026-02-23T18:42:39.772742+05:30
Gurgaon,Haryana,28.4595,77.0266,22.1,62,0.0,982.5,5.5,166,3,5,3,0,2026-02-23T18:42:39.772749+05:30
Noida,Uttar Pradesh,28.5355,77.391,24.3,49,0.0,985.8,5.4,166,0,5,3,0,2026-02-23T18:42:39.772755+05:30
Ghaziabad,Uttar Pradesh,28.6692,77.4538,23.4,55,0.0,984.1,5.35,162,0,5,3,0,2026-02-23T18:42:39.772762+05:30
Faridabad,Haryana,28.4089,77.3178,23.2,53,0.0,984.9,5.4,166,0,5,3,0,2026-02-23T18:42:39.772768+05:30
Meerut,Uttar Pradesh,28.9845,77.7064,22.4,63,0.0,982.8,5.25,162,3,5,3,0,2026-02-23T18:42:39.772774+05:30
Agra,Uttar Pradesh,27.1767,78.0081,23.4,62,0.0,989.0,5.7,160,3,5,3,0,2026-02-23T18:42:39.772780+05:30
Varanasi,Uttar Pradesh,25.3176,82.9739,23.8,57,0.0,999.3,6.5,162,0,5,7,0,2026-02-23T18:42:39.772786+05:30
Prayagraj,Uttar Pradesh,25.4358,81.8463,24.0,57,0.0,997.6,6.35,160,0,5,7,0,2026-02-23T18:42:39.772793+05:30
Gorakhpur,Uttar Pradesh,26.7606,83.3732,22.7,56,0.0,998.9,6.2,164,0,5,7,0,2026-02-23T18:42:39.772800+05:30
Bareilly,Uttar Pradesh,28.367,79.4304,23.2,57,0.0,988.2,5.5,161,0,5,3,0,2026-02-23T18:42:39.772809+05:30
Aligarh,Uttar Pradesh,27.8974,78.088,22.9,57,0.0,986.8,5.5,168,0,5,3,0,2026-02-23T18:42:39.772815+05:30
Moradabad,Uttar Pradesh,28.8386,78.7733,22.4,54,0.0,985.0,5.35,167,0,5,3,0,2026-02-23T18:42:39.772821+05:30
Saharanpur,Uttar Pradesh,29.9637,77.546,21.8,60,0.0,977.0,5.0,166,0,5,3,0,2026-02-23T18:42:39.772827+05:30
Jhansi,Uttar Pradesh,25.4484,78.5685,24.7,47,0.0,978.9,6.35,128,0,5,7,0,2026-02-23T18:42:43.068293+05:30
Surat,Gujarat,21.1702,72.8311,28.0,58,0.0,1005.1,6.95,158,4,5,4,1,2026-02-23T18:42:43.068334+05:30
Vadodara,Gujarat,22.3072,73.1812,30.8,28,0.0,1002.7,5.65,113,0,5,0,0,2026-02-23T18:42:43.068346+05:30
Rajkot,Gujarat,22.3039,70.8022,31.4,25,0.0,992.3,6.9,72,0,5,7,0,2026-02-23T18:42:43.068355+05:30
Thane,Maharashtra,19.2183,72.9781,27.8,62,0.0,1005.7,7.25,214,7,5,4,1,2026-02-23T18:42:43.068364+05:30
Nagpur,Maharashtra,21.1458,79.0882,26.4,47,0.0,972.1,7.35,166,4,5,7,0,2026-02-23T18:42:43.068373+05:30
Nashik,Maharashtra,19.9975,73.7898,27.9,26,0.0,944.0,6.95,126,4,5,7,0,2026-02-23T18:42:43.068382+05:30
Aurangabad,Maharashtra,19.8762,75.3433,28.3,31,0.0,942.6,7.7,105,4,5,7,0,2026-02-23T18:42:43.068390+05:30
Solapur,Maharashtra,17.6599,75.9064,28.1,49,0.0,955.2,7.85,112,4,5,7,1,2026-02-23T18:42:43.068398+05:30
Kolhapur,Maharashtra,16.705,74.2433,26.7,62,0.0,945.9,7.45,154,7,5,7,1,2026-02-23T18:42:43.068406+05:30
Goa,Goa,15.2993,74.124,27.9,77,0.0,995.7,8.25,155,7,5,7,1,2026-02-23T18:42:43.068413+05:30
Jodhpur,Rajasthan,26.2389,73.0243,27.8,24,0.0,982.8,6.5,103,4,5,7,0,2026-02-23T18:42:43.068421+05:30
Udaipur,Rajasthan,24.5854,73.7125,24.6,35,0.0,946.2,7.1,62,0,5,7,0,2026-02-23T18:42:43.068429+05:30
Kota,Rajasthan,25.2138,75.8648,26.9,43,0.0,978.7,6.55,144,4,5,7,0,2026-02-23T18:42:43.068437+05:30
Bikaner,Rajasthan,28.0229,73.3119,28.4,29,0.0,981.7,6.1,121,4,5,7,0,2026-02-23T18:42:43.068444+05:30
Ajmer,Rajasthan,26.4499,74.6399,25.7,35,0.0,954.2,6.5,118,4,5,7,0,2026-02-23T18:42:43.068452+05:30
Gwalior,Madhya Pradesh,26.2183,78.1828,24.5,49,0.0,984.4,6.05,130,0,5,7,0,2026-02-23T18:42:43.068460+05:30
Indore,Madhya Pradesh,22.7196,75.8577,23.0,61,0.0,947.5,7.1,82,3,5,7,0,2026-02-23T18:42:43.068467+05:30
Bhopal,Madhya Pradesh,23.2599,77.4126,22.8,59,0.0,953.6,6.9,106,0,5,7,0,2026-02-23T18:42:43.068475+05:30
Jabalpur,Madhya Pradesh,23.1815,79.9864,25.4,45,0.0,961.6,6.95,140,4,5,7,0,2026-02-23T18:42:43.068482+05:30
Ujjain,Madhya Pradesh,23.1765,75.7885,23.7,57,0.0,953.3,7.0,90,0,5,7,0,2026-02-23T18:42:43.068490+05:30
Visakhapatnam,Andhra Pradesh,17.6868,83.2185,26.4,72,0.0,1003.9,8.05,91,7,5,4,1,2026-02-23T18:42:43.068497+05:30
Vijayawada,Andhra Pradesh,16.5062,80.648,30.5,46,0.0,1001.3,8.15,73,0,5,4,1,2026-02-23T18:42:43.068505+05:30
Guntur,Andhra Pradesh,16.3067,80.4365,29.7,56,0.0,1002.7,8.15,73,4,5,4,1,2026-02-23T18:42:43.068513+05:30
Nellore,Andhra Pradesh,14.4426,79.9865,27.1,72,0.0,1005.1,8.4,50,7,5,4,1,2026-02-23T18:42:43.068521+05:30
Kurnool,Andhra Pradesh,15.8281,78.0373,31.5,36,0.0,974.7,8.2,65,0,5,7,0,2026-02-23T18:42:43.068530+05:30
Kakinada,Andhra Pradesh,16.9891,82.2475,26.1,71,0.0,1007.1,8.05,47,7,5,4,1,2026-02-23T18:42:43.068537+05:30
Tirupati,Andhra Pradesh,13.6288,79.4192,28.7,51,0.0,989.7,8.55,62,4,5,7,1,2026-02-23T18:42:43.068545+05:30
Warangal,Telangana,17.9689,79.5941,27.4,68,0.0,977.6,7.85,110,7,5,7,1,2026-02-23T18:42:43.068552+05:30
Nizamabad,Telangana,18.6725,78.0941,25.3,65,0.0,964.9,7.55,151,7,5,7,1,2026-02-23T18:42:43.068560+05:30
Mysore,Karnataka,12.2958,76.6396,29.3,34,0.0,925.7,8.95,79,4,5,7,0,2026-02-23T18:42:43.068567+05:30
Mangalore,Karnataka,12.9141,74.856,28.7,79,0.0,1004.2,8.5,140,7,5,4,1,2026-02-23T18:42:43.068574+05:30
Hubli-Dharwad,Karnataka,15.3647,75.124,26.8,60,0.0,938.8,8.2,125,4,5,7,1,2026-02-23T18:42:43.068582+05:30
Belgaum,Karnataka,15.8497,74.4977,25.3,69,0.0,923.9,8.4,129,7,5,7,1,2026-02-23T18:42:46.362788+05:30
Coimbatore,Tamil Nadu,11.0168,76.9558,28.6,57,0.0,959.1,8.95,80,4,5,7,1,2026-02-23T18:42:46.362818+05:30
Madurai,Tamil Nadu,9.9252,78.1198,31.7,49,0.0,989.6,8.9,70,0,5,7,1,2026-02-23T18:42:46.362827+05:30
Trichy,Tamil Nadu,10.7905,78.7047,30.7,54,0.0,996.7,8.8,56,0,5,7,1,2026-02-23T18:42:46.362835+05:30
Salem,Tamil Nadu,11.6643,78.146,32.4,36,0.0,973.9,8.6,82,0,5,7,0,2026-02-23T18:42:46.362842+05:30
Tirunelveli,Tamil Nadu,8.7139,77.7567,29.9,64,0.0,1000.3,8.95,59,7,5,4,1,2026-02-23T18:42:46.362849+05:30
Vellore,Tamil Nadu,12.9165,79.1325,29.0,47,0.0,982.4,8.65,63,4,5,7,1,2026-02-23T18:42:46.362856+05:30
Erode,Tamil Nadu,11.341,77.7172,33.2,40,0.0,985.2,8.85,89,0,5,7,1,2026-02-23T18:42:46.362862+05:30
Kochi,Kerala,9.9312,76.2673,28.4,79,0.0,1005.8,8.55,116,7,5,4,1,2026-02-23T18:42:46.362869+05:30
Thiruvananthapuram,Kerala,8.5241,76.9366,28.0,82,0.0,1005.2,7.65,115,7,5,4,1,2026-02-23T18:42:46.362875+05:30
Kozhikode,Kerala,11.2588,75.7804,28.4,81,0.0,1005.1,8.65,69,7,5,4,1,2026-02-23T18:42:46.362882+05:30
Thrissur,Kerala,10.5276,76.2144,28.5,77,0.0,1004.1,8.75,100,7,5,4,1,2026-02-23T18:42:46.362889+05:30
Kannur,Kerala,11.8745,75.3704,28.9,74,0.0,1004.6,8.6,86,7,5,4,1,2026-02-23T18:42:46.362896+05:30
Patna,Bihar,25.5941,85.1376,24.9,47,0.0,1002.4,6.7,160,0,5,4,0,2026-02-23T18:42:46.362902+05:30
Gaya,Bihar,24.7914,85.0002,22.9,65,0.0,995.4,6.8,156,3,5,7,0,2026-02-23T18:42:46.362908+05:30
Muzaffarpur,Bihar,26.1209,85.3647,23.2,52,0.0,1002.2,6.65,160,0,5,4,0,2026-02-23T18:42:46.362915+05:30
Bhagalpur,Bihar,25.2425,87.0117,23.6,55,0.0,1003.0,6.75,170,0,5,4,0,2026-02-23T18:42:46.362921+05:30
Ranchi,Jharkhand,23.3441,85.3096,23.4,43,0.0,937.9,7.4,166,0,5,7,0,2026-02-23T18:42:46.362927+05:30
Jamshedpur,Jharkhand,22.8046,86.2029,28.9,41,0.0,991.1,7.3,174,4,5,7,0,2026-02-23T18:42:46.362933+05:30
Dhanbad,Jharkhand,23.7957,86.4304,27.3,33,0.0,980.5,7.2,153,4,5,7,0,2026-02-23T18:42:46.362939+05:30
Bokaro,Jharkhand,23.6693,86.1511,26.3,37,0.0,984.6,7.2,154,4,5,7,0,2026-02-23T18:42:46.362945+05:30
Bhubaneswar,Odisha,20.2961,85.8245,26.9,67,0.0,1002.6,7.75,89,7,5,4,1,2026-02-23T18:42:46.362952+05:30
Cuttack,Odisha,20.4625,85.8828,29.4,52,0.0,1004.2,7.8,89,4,5,4,1,2026-02-23T18:42:46.362958+05:30
Rourkela,Odisha,22.2604,84.8536,28.8,40,0.0,984.8,7.25,169,4,5,7,0,2026-02-23T18:42:46.362964+05:30
Raipur,Chhattisgarh,21.2514,81.6296,27.8,47,0.0,974.7,7.4,165,4,5,7,0,2026-02-23T18:42:46.362970+05:30
Bhilai,Chhattisgarh,21.1938,81.3509,27.0,51,0.0,975.1,4.6,169,4,5,3,0,2026-02-23T18:42:46.362976+05:30
Guwahati,Assam,26.1158,91.7086,24.6,63,0.0,1003.0,6.7,135,3,5,4,1,2026-02-23T18:42:46.362982+05:30
Agartala,Tripura,23.8315,91.2868,23.8,68,0.0,1007.3,7.05,177,3,5,4,1,2026-02-23T18:42:46.362988+05:30
Shillong,Meghalaya,25.5788,91.8933,11.1,76,0.0,854.6,7.05,152,3,5,7,0,2026-02-23T18:42:46.362993+05:30
Imphal,Manipur,24.817,93.9368,16.2,57,0.0,923.2,7.25,153,0,5,7,0,2026-02-23T18:42:46.362999+05:30
Aizawl,Mizoram,23.7271,92.7176,17.4,52,0.0,892.5,7.2,151,0,5,7,0,2026-02-23T18:42:46.363005+05:30
Kohima,Nagaland,25.6701,94.1077,12.1,63,0.0,853.5,7.1,133,3,5,7,0,2026-02-23T18:42:46.363011+05:30
Gangtok,Sikkim,27.3314,88.6138,13.0,75,0.0,836.1,6.9,119,3,5,7,0,2026-02-23T18:42:46.363017+05:30
Siliguri,West Bengal,26.7271,88.3953,20.2,63,0.0,995.4,6.65,152,3,5,7,0,2026-02-23T18:42:49.683803+05:30
Durgapur,West Bengal,23.5204,87.3119,27.9,35,0.0,995.7,7.2,155,4,5,7,0,2026-02-23T18:42:49.683837+05:30
Asansol,West Bengal,23.6739,86.9524,28.0,38,0.0,994.2,7.2,151,4,5,7,0,2026-02-23T18:42:49.683849+05:30
Pondicherry,Puducherry,11.9139,79.8145,27.3,77,0.0,1006.4,8.25,36,7,5,4,1,2026-02-23T18:42:49.683859+05:30
Port Blair,Andaman and Nicobar Islands,11.6234,92.7265,28.1,74,0.0,1005.9,7.05,66,7,5,4,1,2026-02-23T18:42:49.683868+05:30
Haridwar,Uttarakhand,29.9457,78.1642,22.7,60,0.0,975.5,5.1,160,0,5,3,0,2026-02-23T18:42:49.683876+05:30
Rishikesh,Uttarakhand,30.0869,78.2676,21.8,59,0.0,968.2,5.15,152,0,5,3,0,2026-02-23T18:42:49.683884+05:30
Nainital,Uttarakhand,29.3919,79.4542,14.1,72,0.0,804.6,5.95,165,3,5,3,0,2026-02-23T18:42:49.683892+05:30
Mussoorie,Uttarakhand,30.4599,78.0664,13.1,75,0.0,800.9,5.5,155,3,5,3,0,2026-02-23T18:42:49.683900+05:30
Dharamshala,Himachal Pradesh,32.219,76.3234,16.6,71,0.0,868.1,5.7,126,3,5,3,0,2026-02-23T18:42:49.683908+05:30
Dalhousie,Himachal Pradesh,32.5387,75.971,14.8,63,0.0,802.5,5.9,146,3,5,3,0,2026-02-23T18:42:49.683917+05:30
Patiala,Punjab,30.3398,76.3869,21.3,65,0.0,979.6,5.2,186,3,5,3,0,2026-02-23T18:42:49.683925+05:30
Bhatinda,Punjab,30.211,74.9455,23.5,54,0.0,985.1,5.85,156,0,5,3,0,2026-02-23T18:42:49.683938+05:30
Rohtak,Haryana,28.8955,76.6066,22.6,64,0.0,983.0,5.4,169,3,5,3,0,2026-02-23T18:42:49.683946+05:30
Panipat,Haryana,29.3909,76.9635,21.9,66,0.0,981.8,5.2,169,3,5,3,0,2026-02-23T18:42:49.683954+05:30
Mathura,Uttar Pradesh,27.4924,77.6737,23.1,56,0.0,987.8,5.65,163,0,5,3,0,2026-02-23T18:42:49.683961+05:30
Vrindavan,Uttar Pradesh,27.5823,77.7027,23.5,56,0.0,988.4,5.6,163,0,5,3,0,2026-02-23T18:42:49.683969+05:30
Ayodhya,Uttar Pradesh,26.7922,82.1998,23.6,54,0.0,997.1,6.0,154,0,5,3,0,2026-02-23T18:42:49.683976+05:30
Ratlam,Madhya Pradesh,23.3315,75.0367,24.5,48,0.0,954.1,6.95,77,0,5,7,0,2026-02-23T18:42:49.683984+05:30
Sagar,Madhya Pradesh,23.8388,78.7378,23.0,60,0.0,950.3,6.85,113,0,5,7,0,2026-02-23T18:42:49.683993+05:30
Satna,Madhya Pradesh,24.6005,80.8322,23.5,61,0.0,972.6,6.75,128,3,5,7,0,2026-02-23T18:42:49.684000+05:30
Akola,Maharashtra,20.7002,77.0082,29.3,26,0.0,974.3,7.4,137,4,5,7,0,2026-02-23T18:42:49.684009+05:30
Amravati,Maharashtra,20.9374,77.7796,28.5,30,0.0,966.2,7.35,154,4,5,7,0,2026-02-23T18:42:49.684017+05:30
Latur,Maharashtra,18.4088,76.5604,25.5,59,0.0,938.2,7.75,142,4,5,7,1,2026-02-23T18:42:49.684026+05:30
Nanded,Maharashtra,19.1383,77.3091,27.4,57,0.0,967.5,7.65,155,4,5,7,1,2026-02-23T18:42:49.684032+05:30
Gulbarga,Karnataka,17.3297,76.8343,26.6,57,0.0,957.7,7.95,106,4,5,7,1,2026-02-23T18:42:49.684038+05:30
Bidar,Karnataka,17.9104,77.5199,25.6,59,0.0,935.1,7.5,130,4,5,7,1,2026-02-23T18:42:49.684044+05:30
Hospet,Karnataka,15.2689,76.3909,32.2,31,0.0,953.1,8.0,87,0,5,7,0,2026-02-23T18:42:49.684051+05:30
Tirupur,Tamil Nadu,11.1085,77.3411,32.6,36,0.0,972.1,8.95,99,0,5,7,0,2026-02-23T18:42:49.684057+05:30
Alappuzha,Kerala,9.4981,76.3388,28.4,79,0.0,1005.9,8.6,142,7,5,4,1,2026-02-23T18:42:49.684064+05:30
Munnar,Kerala,10.0889,77.0595,22.5,84,0.0,855.0,7.75,68,3,5,7,1,2026-02-23T18:42:49.684070+05:30
Silchar,Assam,24.8333,92.7789,24.6,54,0.0,1005.9,7.0,154,0,5,4,0,2026-02-23T18:42:49.684077+05:30
Dibrugarh,Assam,27.4728,94.912,23.9,69,0.0,997.7,6.7,141,3,5,7,1,2026-02-23T18:42:49.684083+05:30
