city,state,latitude,longitude,temp,humidity,rain,pressure,uv_index,wind_gusts,aqi,pm10,pm2_5,no2,co,o3,so2,mosquito_risk,arthritis_risk,migraine_risk,frizz_risk,updated_at
Delhi,Delhi,28.6139,77.209,34.7,36,0.0,976.9,7.75,33.5,915,994.7,194.6,17.8,485.0,202.0,26.8,0,5,7,1,2026-05-28T18:00:40.770867+05:30
Mumbai,Maharashtra,19.076,72.8777,31.5,67,0.0,1007.0,7.8,40.7,51,48.2,19.0,6.6,189.0,59.0,4.3,3,5,4,1,2026-05-28T18:00:40.770919+05:30
Bangalore,Karnataka,12.9716,77.5946,25.4,74,0.1,911.5,8.4,29.5,92,25.6,16.5,11.1,554.0,130.0,4.2,10,5,7,1,2026-05-28T18:00:40.770936+05:30
Hyderabad,Telangana,17.385,78.4867,34.5,42,0.0,951.4,8.0,33.1,113,32.4,19.3,6.6,380.0,142.0,6.2,0,5,7,1,2026-05-28T18:00:40.770954+05:30
Chennai,Tamil Nadu,13.0827,80.2707,32.8,64,0.0,1004.9,8.55,38.9,158,35.9,27.9,6.0,306.0,179.0,7.9,3,5,4,1,2026-05-28T18:00:40.770963+05:30
Kolkata,West Bengal,22.5726,88.3639,31.8,70,0.0,1003.4,8.9,23.8,108,61.7,41.3,7.2,719.0,98.0,7.2,3,5,4,1,2026-05-28T18:00:40.770972+05:30
Pune,Maharashtra,18.5204,73.8567,32.2,50,0.0,947.1,8.4,41.0,53,23.3,14.8,3.6,185.0,124.0,7.2,0,5,7,1,2026-05-28T18:00:40.770980+05:30
Ahmedabad,Gujarat,23.0225,72.5714,40.3,36,0.0,996.6,8.1,40.7,72,57.4,22.7,2.7,167.0,105.0,3.1,0,5,10,1,2026-05-28T18:00:40.770988+05:30
Jaipur,Rajasthan,26.9124,75.7873,38.5,23,0.0,954.9,8.25,42.8,190,211.4,40.0,2.2,164.0,111.0,3.2,0,5,10,0,2026-05-28T18:00:40.770996+05:30
Lucknow,Uttar Pradesh,26.8467,80.9462,36.6,38,0.0,988.8,8.2,46.4,164,94.5,44.8,3.3,355.0,182.0,12.2,0,5,10,1,2026-05-28T18:00:40.771005+05:30
Kanpur,Uttar Pradesh,26.4499,80.3319,38.3,35,0.0,986.2,8.2,40.3,186,198.4,57.4,3.4,295.0,198.0,14.7,0,5,10,1,2026-05-28T18:00:40.771013+05:30
Chandigarh,Chandigarh,30.7333,76.7794,30.3,40,0.0,964.1,7.75,53.3,200,85.4,46.8,8.3,506.0,196.0,10.6,0,5,7,0,2026-05-28T18:00:40.771021+05:30
Srinagar,Jammu and Kashmir,34.0837,74.7973,24.1,32,0.0,841.8,8.9,43.6,103,21.1,9.1,3.8,283.0,126.0,2.0,0,5,7,0,2026-05-28T18:00:40.771042+05:30
Jammu,Jammu and Kashmir,32.7266,74.857,36.2,20,0.0,967.5,8.5,39.2,133,46.0,25.4,6.1,189.0,158.0,2.5,0,5,10,0,2026-05-28T18:00:40.771052+05:30
Amritsar,Punjab,31.634,74.8723,36.0,20,0.0,975.2,8.4,38.5,133,51.8,22.6,5.8,269.0,138.0,3.8,0,5,10,0,2026-05-28T18:00:40.771061+05:30
Ludhiana,Punjab,30.901,75.8573,33.2,33,0.0,973.4,8.0,41.8,184,434.0,86.4,4.5,352.0,179.0,12.0,0,5,7,0,2026-05-28T18:00:40.771069+05:30
Jalandhar,Punjab,31.326,75.5762,36.4,17,0.0,973.8,8.2,40.3,183,236.6,61.9,3.6,295.0,182.0,11.1,0,5,10,0,2026-05-28T18:00:40.771076+05:30
Dehradun,Uttarakhand,30.6284,78.0322,21.6,67,0.0,830.4,8.2,30.6,165,73.6,38.4,3.7,307.0,179.0,6.0,3,5,7,0,2026-05-28T18:00:40.771083+05:30
Shimla,Himachal Pradesh,31.1048,77.1734,17.5,33,0.0,783.0,8.25,41.4,158,41.1,19.6,2.6,173.0,150.0,3.7,0,5,7,0,2026-05-28T18:00:40.771092+05:30
Manali,Himachal Pradesh,32.2396,77.1887,19.4,59,0.0,818.5,10.0,42.5,125,22.6,11.5,6.6,144.0,150.0,0.7,0,5,7,0,2026-05-28T18:00:40.771099+05:30
Gurgaon,Haryana,28.4595,77.0266,33.6,46,0.0,975.6,7.85,42.5,1492,1531.1,257.0,18.1,368.0,191.0,18.3,0,5,7,1,2026-05-28T18:00:40.771106+05:30
Noida,Uttar Pradesh,28.5355,77.391,34.1,46,0.0,978.3,7.75,33.5,1492,1531.1,257.0,18.1,472.0,191.0,18.3,0,5,7,1,2026-05-28T18:00:40.771113+05:30
Ghaziabad,Uttar Pradesh,28.6692,77.4538,35.3,44,0.0,976.9,7.75,38.5,710,864.3,149.5,5.6,373.0,187.0,16.1,0,5,10,1,2026-05-28T18:00:40.771120+05:30
Faridabad,Haryana,28.4089,77.3178,34.4,43,0.0,977.7,7.8,38.2,1492,1531.1,257.0,18.1,416.0,191.0,18.3,0,5,7,1,2026-05-28T18:00:40.771130+05:30
Meerut,Uttar Pradesh,28.9845,77.7064,35.8,43,0.0,976.4,7.65,51.8,710,864.3,149.5,5.6,373.0,187.0,16.1,0,5,10,1,2026-05-28T18:00:40.771136+05:30
Agra,Uttar Pradesh,27.1767,78.0081,40.6,27,0.1,983.3,8.05,45.7,659,290.6,68.9,12.6,170.0,136.0,8.2,3,5,10,1,2026-05-28T18:00:40.771143+05:30
Varanasi,Uttar Pradesh,25.3176,82.9739,36.2,40,0.0,993.1,8.7,37.8,191,98.3,49.5,3.8,364.0,201.0,15.7,0,5,10,1,2026-05-28T18:00:40.771150+05:30
Prayagraj,Uttar Pradesh,25.4358,81.8463,38.0,36,0.0,990.7,8.6,36.4,187,97.3,49.6,3.5,371.0,201.0,15.1,0,5,10,1,2026-05-28T18:00:40.771156+05:30
Gorakhpur,Uttar Pradesh,26.7606,83.3732,33.0,48,0.0,993.8,8.55,45.0,155,58.0,38.5,3.3,310.0,177.0,10.6,0,5,7,1,2026-05-28T18:00:40.771163+05:30
Bareilly,Uttar Pradesh,28.367,79.4304,34.9,44,0.0,982.1,8.0,44.6,162,303.6,64.5,4.7,343.0,176.0,14.5,0,5,7,1,2026-05-28T18:00:40.771170+05:30
Aligarh,Uttar Pradesh,27.8974,78.088,37.7,37,0.0,980.6,7.9,34.6,1147,1143.7,186.7,6.6,287.0,185.0,15.6,0,5,10,1,2026-05-28T18:00:40.771177+05:30
Moradabad,Uttar Pradesh,28.8386,78.7733,35.3,42,0.0,979.0,7.85,51.8,169,229.1,62.6,5.7,346.0,180.0,15.1,0,5,10,1,2026-05-28T18:00:40.771183+05:30
Saharanpur,Uttar Pradesh,29.9637,77.546,26.3,67,0.0,970.6,7.5,47.5,167,103.8,39.7,8.6,348.0,150.0,10.6,7,5,7,1,2026-05-28T18:00:40.771189+05:30
Jhansi,Uttar Pradesh,25.4484,78.5685,41.0,20,0.0,972.2,8.45,43.9,67,99.9,29.2,2.6,147.0,93.0,3.6,0,5,10,0,2026-05-28T18:00:44.449618+05:30
Surat,Gujarat,21.1702,72.8311,31.6,68,0.0,1004.0,7.65,47.9,80,57.3,29.2,14.8,222.0,43.0,36.6,3,5,4,1,2026-05-28T18:00:44.449654+05:30
Vadodara,Gujarat,22.3072,73.1812,37.0,46,0.0,999.6,8.05,47.2,77,58.4,29.0,3.7,168.0,109.0,6.5,0,5,10,1,2026-05-28T18:00:44.449667+05:30
Rajkot,Gujarat,22.3039,70.8022,38.0,35,0.0,990.4,7.7,49.3,72,54.5,24.9,1.8,121.0,93.0,4.2,0,5,10,1,2026-05-28T18:00:44.449675+05:30
Thane,Maharashtra,19.2183,72.9781,32.4,61,0.0,1006.3,7.8,39.2,51,48.2,19.0,6.6,173.0,59.0,4.3,3,5,4,1,2026-05-28T18:00:44.449683+05:30
Nagpur,Maharashtra,21.1458,79.0882,41.7,16,0.0,968.5,8.9,38.5,112,58.3,23.7,6.2,171.0,127.0,14.3,0,5,10,0,2026-05-28T18:00:44.449690+05:30
Nashik,Maharashtra,19.9975,73.7898,32.1,48,0.0,944.6,8.1,42.8,44,36.7,16.4,1.7,134.0,75.0,1.0,0,5,7,1,2026-05-28T18:00:44.449698+05:30
Aurangabad,Maharashtra,19.8762,75.3433,38.7,18,0.0,941.9,8.95,43.2,56,33.9,15.4,1.6,151.0,117.0,2.1,0,5,10,0,2026-05-28T18:00:44.449705+05:30
Solapur,Maharashtra,17.6599,75.9064,36.3,34,0.0,955.3,8.95,34.9,67,19.8,11.4,2.1,143.0,128.0,3.8,0,5,10,1,2026-05-28T18:00:44.449715+05:30
Kolhapur,Maharashtra,16.705,74.2433,30.3,60,0.0,947.3,8.7,43.2,42,11.6,7.5,2.9,144.0,92.0,1.7,0,5,7,1,2026-05-28T18:00:44.449723+05:30
Goa,Goa,15.2993,74.124,29.4,77,0.0,997.5,7.75,31.7,39,8.1,5.8,1.5,163.0,58.0,0.9,7,5,7,1,2026-05-28T18:00:44.449730+05:30
Jodhpur,Rajasthan,26.2389,73.0243,39.4,33,0.0,976.5,8.4,53.3,191,523.4,88.0,1.3,125.0,93.0,2.9,0,5,10,1,2026-05-28T18:00:44.449737+05:30
Udaipur,Rajasthan,24.5854,73.7125,37.0,26,0.0,942.6,8.8,51.8,65,46.0,19.8,1.0,131.0,110.0,2.9,0,5,10,0,2026-05-28T18:00:44.449744+05:30
Kota,Rajasthan,25.2138,75.8648,41.8,20,0.0,972.3,8.35,46.1,67,49.1,20.0,1.8,142.0,117.0,4.2,0,5,10,0,2026-05-28T18:00:44.449751+05:30
Bikaner,Rajasthan,28.0229,73.3119,44.3,11,0.0,973.1,8.45,46.4,156,235.6,76.1,0.5,132.0,97.0,2.3,0,5,10,0,2026-05-28T18:00:44.449758+05:30
Ajmer,Rajasthan,26.4499,74.6399,37.5,32,0.0,949.4,8.35,57.2,66,81.3,26.3,1.3,137.0,103.0,2.4,0,5,10,1,2026-05-28T18:00:44.449765+05:30
Gwalior,Madhya Pradesh,26.2183,78.1828,41.3,17,0.0,977.3,8.25,48.2,81,119.2,30.5,1.4,140.0,100.0,2.3,0,5,10,0,2026-05-28T18:00:44.449771+05:30
Indore,Madhya Pradesh,22.7196,75.8577,39.3,19,0.0,944.9,8.65,47.2,71,38.0,17.3,1.9,188.0,113.0,3.7,0,5,10,0,2026-05-28T18:00:44.449778+05:30
Bhopal,Madhya Pradesh,23.2599,77.4126,40.8,16,0.0,949.4,8.65,39.6,68,47.0,19.2,1.3,171.0,113.0,3.7,0,5,10,0,2026-05-28T18:00:44.449785+05:30
Jabalpur,Madhya Pradesh,23.1815,79.9864,40.3,16,0.0,956.6,8.85,38.9,72,54.0,20.0,2.4,151.0,114.0,2.8,0,5,10,0,2026-05-28T18:00:44.449792+05:30
Ujjain,Madhya Pradesh,23.1765,75.7885,38.9,23,0.0,950.2,8.55,48.6,72,38.1,18.1,1.0,152.0,112.0,3.7,0,5,10,0,2026-05-28T18:00:44.449799+05:30
Visakhapatnam,Andhra Pradesh,17.6868,83.2185,32.8,71,0.0,999.5,9.0,43.6,170,43.4,36.8,22.5,449.0,144.0,45.2,3,5,7,1,2026-05-28T18:00:44.449806+05:30
Vijayawada,Andhra Pradesh,16.5062,80.648,38.8,35,0.0,999.2,8.65,36.0,113,35.0,28.3,9.2,231.0,122.0,6.8,0,5,10,1,2026-05-28T18:00:44.449813+05:30
Guntur,Andhra Pradesh,16.3067,80.4365,37.0,42,0.0,1000.1,7.6,33.5,111,31.7,23.5,5.5,220.0,130.0,5.9,0,5,7,1,2026-05-28T18:00:44.449820+05:30
Nellore,Andhra Pradesh,14.4426,79.9865,34.8,52,0.0,1002.6,9.0,35.6,130,38.3,27.4,5.9,229.0,159.0,5.2,0,5,4,1,2026-05-28T18:00:44.449827+05:30
Kurnool,Andhra Pradesh,15.8281,78.0373,36.0,43,0.0,974.5,9.0,45.7,91,28.5,18.7,2.3,169.0,143.0,8.9,0,5,10,1,2026-05-28T18:00:44.449835+05:30
Kakinada,Andhra Pradesh,16.9891,82.2475,37.5,44,0.0,1003.2,8.55,35.6,148,34.6,26.1,4.0,327.0,147.0,4.7,0,5,7,1,2026-05-28T18:00:44.449842+05:30
Tirupati,Andhra Pradesh,13.6288,79.4192,32.4,58,0.0,989.0,9.0,28.4,104,35.9,22.4,9.2,345.0,122.0,3.8,0,5,7,1,2026-05-28T18:00:44.449849+05:30
Warangal,Telangana,17.9689,79.5941,36.4,44,0.0,976.3,9.0,36.0,98,27.5,19.3,6.1,214.0,118.0,4.8,0,5,10,1,2026-05-28T18:00:44.449856+05:30
Nizamabad,Telangana,18.6725,78.0941,36.9,30,0.0,962.1,9.0,35.3,81,30.9,15.8,1.7,165.0,123.0,2.6,0,5,10,1,2026-05-28T18:00:44.449862+05:30
Mysore,Karnataka,12.2958,76.6396,26.6,72,0.0,928.7,9.1,45.4,54,14.9,10.8,7.6,197.0,105.0,1.9,7,5,7,1,2026-05-28T18:00:44.449869+05:30
Mangalore,Karnataka,12.9141,74.856,27.6,86,0.0,1007.3,8.4,29.9,43,9.5,6.1,2.6,148.0,73.0,1.2,7,5,4,1,2026-05-28T18:00:44.449875+05:30
Hubli-Dharwad,Karnataka,15.3647,75.124,27.5,74,0.1,940.1,8.95,43.6,38,9.6,7.1,3.5,165.0,78.0,1.1,10,5,7,1,2026-05-28T18:00:44.449882+05:30
Belgaum,Karnataka,15.8497,74.4977,27.0,77,0.0,925.7,8.4,41.8,36,7.5,5.7,3.2,135.0,71.0,1.5,7,5,7,1,2026-05-28T18:00:47.795272+05:30
Coimbatore,Tamil Nadu,11.0168,76.9558,28.5,68,0.0,961.7,8.55,50.8,40,6.3,5.5,5.3,168.0,75.0,2.0,7,5,7,1,2026-05-28T18:00:47.795306+05:30
Madurai,Tamil Nadu,9.9252,78.1198,31.4,58,0.0,991.9,7.05,40.3,111,20.2,15.5,5.5,233.0,131.0,2.6,0,5,7,1,2026-05-28T18:00:47.795318+05:30
Trichy,Tamil Nadu,10.7905,78.7047,31.4,57,0.0,997.5,7.55,52.2,61,20.8,16.9,9.7,188.0,109.0,3.1,0,5,7,1,2026-05-28T18:00:47.795326+05:30
Salem,Tamil Nadu,11.6643,78.146,34.1,39,0.0,975.7,8.45,39.6,122,23.2,17.8,12.2,196.0,124.0,6.5,0,5,7,1,2026-05-28T18:00:47.795334+05:30
Tirunelveli,Tamil Nadu,8.7139,77.7567,32.7,56,0.0,1002.8,6.55,30.2,31,8.4,5.8,2.8,150.0,64.0,1.1,0,5,4,1,2026-05-28T18:00:47.795342+05:30
Vellore,Tamil Nadu,12.9165,79.1325,29.7,68,0.0,982.4,8.7,40.3,108,33.1,24.2,11.7,293.0,116.0,3.7,7,5,7,1,2026-05-28T18:00:47.795350+05:30
Erode,Tamil Nadu,11.341,77.7172,32.5,54,0.0,987.9,7.95,48.6,63,9.6,7.7,5.6,204.0,106.0,2.3,0,5,7,1,2026-05-28T18:00:47.795358+05:30
Kochi,Kerala,9.9312,76.2673,27.6,82,0.0,1010.2,8.1,29.2,52,12.4,8.6,5.9,159.0,62.0,3.0,7,0,4,1,2026-05-28T18:00:47.795366+05:30
Thiruvananthapuram,Kerala,8.5241,76.9366,25.7,93,0.4,1010.2,7.1,27.4,33,11.1,5.8,1.8,119.0,52.0,0.6,10,0,4,1,2026-05-28T18:00:47.795374+05:30
Kozhikode,Kerala,11.2588,75.7804,27.4,88,0.0,1009.0,7.85,36.0,32,8.0,4.9,1.0,175.0,63.0,0.5,7,0,4,1,2026-05-28T18:00:47.795381+05:30
Thrissur,Kerala,10.5276,76.2144,27.7,82,0.0,1008.1,8.5,32.8,52,11.1,7.9,3.8,161.0,69.0,2.6,7,0,4,1,2026-05-28T18:00:47.795388+05:30
Kannur,Kerala,11.8745,75.3704,27.9,91,0.1,1008.0,8.35,37.4,38,9.0,6.0,3.1,139.0,64.0,1.0,10,0,4,1,2026-05-28T18:00:47.795395+05:30
Patna,Bihar,25.5941,85.1376,32.8,53,0.0,997.3,8.75,45.0,183,71.2,54.5,8.6,287.0,186.0,16.9,0,5,7,1,2026-05-28T18:00:47.795401+05:30
Gaya,Bihar,24.7914,85.0002,34.5,46,0.0,989.9,8.8,34.6,202,78.0,59.0,5.7,327.0,206.0,18.4,0,5,7,1,2026-05-28T18:00:47.795408+05:30
Muzaffarpur,Bihar,26.1209,85.3647,30.8,64,0.0,997.8,8.75,47.5,169,66.1,50.4,8.6,331.0,165.0,14.3,3,5,7,1,2026-05-28T18:00:47.795415+05:30
Bhagalpur,Bihar,25.2425,87.0117,30.1,67,0.0,999.1,8.7,38.2,160,66.6,46.4,8.3,290.0,177.0,20.2,3,5,7,1,2026-05-28T18:00:47.795421+05:30
Ranchi,Jharkhand,23.3441,85.3096,30.5,54,0.0,935.3,9.2,39.2,195,165.3,61.2,8.9,339.0,165.0,15.2,0,5,7,1,2026-05-28T18:00:47.795427+05:30
Jamshedpur,Jharkhand,22.8046,86.2029,32.0,64,0.0,987.5,9.0,31.7,205,69.6,52.4,5.9,329.0,167.0,14.6,3,5,7,1,2026-05-28T18:00:47.795433+05:30
Dhanbad,Jharkhand,23.7957,86.4304,32.8,53,0.0,977.2,9.0,34.2,192,83.1,66.4,24.5,433.0,175.0,63.8,0,5,7,1,2026-05-28T18:00:47.795439+05:30
Bokaro,Jharkhand,23.6693,86.1511,33.2,53,0.0,980.7,9.0,35.6,208,95.5,78.5,24.8,431.0,213.0,78.1,0,5,7,1,2026-05-28T18:00:47.795446+05:30
Bhubaneswar,Odisha,20.2961,85.8245,30.2,79,0.0,999.1,9.0,46.8,141,46.0,31.4,4.2,302.0,117.0,4.5,3,5,7,1,2026-05-28T18:00:47.795452+05:30
Cuttack,Odisha,20.4625,85.8828,30.9,76,0.0,1001.0,9.1,43.6,141,46.0,31.4,4.2,323.0,117.0,4.5,3,5,4,1,2026-05-28T18:00:47.795458+05:30
Rourkela,Odisha,22.2604,84.8536,34.2,55,0.0,980.3,8.9,32.8,196,91.0,54.8,15.4,418.0,178.0,13.9,0,5,7,1,2026-05-28T18:00:47.795464+05:30
Raipur,Chhattisgarh,21.2514,81.6296,40.9,16,0.0,969.4,8.9,32.4,98,55.6,29.2,15.3,148.0,130.0,31.4,0,5,10,0,2026-05-28T18:00:47.795471+05:30
Bhilai,Chhattisgarh,21.1938,81.3509,38.9,22,0.0,970.2,8.9,39.2,90,53.7,27.4,16.6,267.0,116.0,30.7,0,5,10,0,2026-05-28T18:00:47.795477+05:30
Guwahati,Assam,26.1158,91.7086,27.8,76,0.0,1001.4,8.75,37.4,88,23.7,18.0,4.4,398.0,103.0,2.1,7,5,4,1,2026-05-28T18:00:47.795484+05:30
Agartala,Tripura,23.8315,91.2868,29.1,78,0.0,1004.6,8.85,21.2,120,53.0,35.6,16.9,197.0,133.0,3.7,7,5,4,1,2026-05-28T18:00:47.795490+05:30
Shillong,Meghalaya,25.5788,91.8933,19.5,80,0.0,857.6,8.0,19.8,92,27.9,16.7,5.8,264.0,109.0,2.2,3,5,7,0,2026-05-28T18:00:47.795497+05:30
Imphal,Manipur,24.817,93.9368,25.9,64,0.0,922.5,9.25,31.7,104,31.8,18.5,6.2,312.0,91.0,2.7,7,5,7,1,2026-05-28T18:00:47.795504+05:30
Aizawl,Mizoram,23.7271,92.7176,22.7,83,0.0,892.1,9.05,21.2,70,33.2,18.6,6.0,230.0,74.0,2.2,3,5,7,1,2026-05-28T18:00:47.795511+05:30
Kohima,Nagaland,25.6701,94.1077,19.7,93,0.0,856.0,9.25,28.4,68,25.9,17.8,4.0,217.0,96.0,1.5,3,10,7,1,2026-05-28T18:00:47.795518+05:30
Gangtok,Sikkim,27.3314,88.6138,17.0,87,0.0,838.5,9.15,38.5,88,29.9,17.7,4.0,314.0,128.0,1.8,3,10,7,0,2026-05-28T18:00:47.795524+05:30
Siliguri,West Bengal,26.7271,88.3953,27.5,73,0.0,992.8,8.7,26.3,120,46.7,27.6,4.4,620.0,146.0,3.7,7,5,7,1,2026-05-28T18:00:51.138481+05:30
Durgapur,West Bengal,23.5204,87.3119,30.8,72,0.0,992.4,8.9,29.2,161,78.7,60.8,21.1,479.0,147.0,34.6,3,5,7,1,2026-05-28T18:00:51.138516+05:30
Asansol,West Bengal,23.6739,86.9524,31.9,62,0.0,990.8,8.95,31.3,171,76.6,60.3,22.3,351.0,154.0,41.4,3,5,7,1,2026-05-28T18:00:51.138528+05:30
Pondicherry,Puducherry,11.9139,79.8145,30.6,78,0.0,1005.8,7.85,38.5,162,39.1,32.2,19.4,282.0,158.0,10.1,3,5,4,1,2026-05-28T18:00:51.138538+05:30
Port Blair,Andaman and Nicobar Islands,11.6234,92.7265,27.0,83,0.0,1005.8,5.05,40.3,36,7.7,4.2,0.7,162.0,78.0,0.3,7,5,0,1,2026-05-28T18:00:51.138546+05:30
Haridwar,Uttarakhand,29.9457,78.1642,33.8,48,0.0,970.0,7.55,41.0,174,114.8,38.0,2.9,343.0,172.0,10.7,0,5,7,1,2026-05-28T18:00:51.138555+05:30
Rishikesh,Uttarakhand,30.0869,78.2676,32.5,49,0.0,962.9,7.65,33.8,169,116.9,38.2,2.0,350.0,167.0,9.4,0,5,7,1,2026-05-28T18:00:51.138562+05:30
Nainital,Uttarakhand,29.3919,79.4542,19.7,71,0.0,805.8,8.5,33.5,147,102.7,32.9,2.0,386.0,158.0,6.4,3,5,7,0,2026-05-28T18:00:51.138570+05:30
Mussoorie,Uttarakhand,30.4599,78.0664,19.3,66,0.0,802.8,8.1,45.0,182,123.9,47.8,4.2,290.0,189.0,10.7,3,5,7,0,2026-05-28T18:00:51.138578+05:30
Dharamshala,Himachal Pradesh,32.219,76.3234,25.7,35,0.0,867.5,7.3,40.3,110,22.2,9.0,0.9,147.0,138.0,0.9,4,5,7,0,2026-05-28T18:00:51.138585+05:30
Dalhousie,Himachal Pradesh,32.5387,75.971,21.4,37,0.0,804.7,6.7,37.4,142,30.7,13.6,2.8,162.0,152.0,1.7,0,5,7,0,2026-05-28T18:00:51.138593+05:30
Patiala,Punjab,30.3398,76.3869,28.4,53,0.0,973.3,7.65,46.4,905,765.5,109.4,4.4,330.0,178.0,13.2,4,5,7,1,2026-05-28T18:00:51.138600+05:30
Bhatinda,Punjab,30.211,74.9455,36.3,26,0.1,978.2,8.3,47.5,177,434.0,84.3,5.0,216.0,166.0,13.4,3,5,10,0,2026-05-28T18:00:51.138607+05:30
Rohtak,Haryana,28.8955,76.6066,31.2,58,0.0,976.5,7.75,44.6,950,825.2,179.7,20.8,408.0,202.0,20.9,0,5,7,1,2026-05-28T18:00:51.138613+05:30
Panipat,Haryana,29.3909,76.9635,31.5,49,0.0,975.8,7.65,44.3,1664,1139.9,190.0,11.1,374.0,221.0,26.4,0,5,7,1,2026-05-28T18:00:51.138620+05:30
Mathura,Uttar Pradesh,27.4924,77.6737,39.8,36,0.1,982.5,8.0,55.8,660,247.7,62.6,6.1,189.0,145.0,6.5,3,5,10,1,2026-05-28T18:00:51.138627+05:30
Vrindavan,Uttar Pradesh,27.5823,77.7027,39.5,37,0.1,982.9,8.0,48.6,660,247.7,62.6,6.1,200.0,145.0,6.5,3,5,10,1,2026-05-28T18:00:51.138634+05:30
Ayodhya,Uttar Pradesh,26.7922,82.1998,34.0,45,0.0,991.1,8.3,45.0,160,71.0,40.0,2.9,323.0,180.0,10.8,0,5,7,1,2026-05-28T18:00:51.138642+05:30
Ratlam,Madhya Pradesh,23.3315,75.0367,37.7,29,0.0,951.3,8.5,52.2,73,44.1,20.9,0.8,140.0,114.0,3.9,0,5,10,1,2026-05-28T18:00:51.138648+05:30
Sagar,Madhya Pradesh,23.8388,78.7378,39.9,18,0.0,946.1,8.7,47.2,68,58.0,20.5,1.0,143.0,116.0,3.1,0,5,10,0,2026-05-28T18:00:51.138655+05:30
Satna,Madhya Pradesh,24.6005,80.8322,39.7,22,0.0,966.3,8.75,44.3,111,82.9,28.2,1.7,153.0,125.0,4.4,0,5,10,0,2026-05-28T18:00:51.138663+05:30
Akola,Maharashtra,20.7002,77.0082,40.5,20,0.0,971.2,8.8,42.1,68,39.9,18.3,2.4,148.0,124.0,6.1,0,5,10,0,2026-05-28T18:00:51.138670+05:30
Amravati,Maharashtra,20.9374,77.7796,40.5,19,0.0,963.4,8.85,42.1,77,41.4,18.7,2.8,149.0,125.0,6.6,0,5,10,0,2026-05-28T18:00:51.138678+05:30
Latur,Maharashtra,18.4088,76.5604,35.6,30,0.0,938.1,8.9,33.5,71,32.2,15.5,1.6,146.0,121.0,3.0,0,5,10,0,2026-05-28T18:00:51.138685+05:30
Nanded,Maharashtra,19.1383,77.3091,38.7,22,0.0,965.5,8.9,38.2,73,27.8,14.1,2.1,159.0,121.0,2.3,0,5,10,0,2026-05-28T18:00:51.138692+05:30
Gulbarga,Karnataka,17.3297,76.8343,35.5,37,0.0,956.7,8.95,38.9,71,21.5,11.9,3.0,160.0,130.0,4.1,0,5,10,1,2026-05-28T18:00:51.138699+05:30
Bidar,Karnataka,17.9104,77.5199,34.6,42,0.0,934.0,9.0,33.8,92,30.5,15.7,2.9,182.0,130.0,4.3,0,5,7,1,2026-05-28T18:00:51.138705+05:30
Hospet,Karnataka,15.2689,76.3909,32.8,55,0.0,954.3,8.95,57.6,44,20.1,12.0,3.8,216.0,112.0,3.1,0,5,7,1,2026-05-28T18:00:51.138711+05:30
Tirupur,Tamil Nadu,11.1085,77.3411,30.9,58,0.0,974.5,8.05,54.4,50,9.6,7.5,5.5,158.0,96.0,2.8,0,5,7,1,2026-05-28T18:00:51.138717+05:30
Alappuzha,Kerala,9.4981,76.3388,26.8,88,0.1,1010.4,7.7,29.5,42,10.5,6.4,4.5,103.0,56.0,1.4,10,0,4,1,2026-05-28T18:00:51.138724+05:30
Munnar,Kerala,10.0889,77.0595,18.1,100,0.0,857.6,8.0,24.1,36,6.3,5.4,4.7,157.0,69.0,1.3,3,10,7,1,2026-05-28T18:00:51.138731+05:30
Silchar,Assam,24.8333,92.7789,29.5,73,0.0,1003.4,8.9,23.4,123,38.6,24.3,4.3,362.0,121.0,5.1,7,5,4,1,2026-05-28T18:00:51.138738+05:30
Dibrugarh,Assam,27.4728,94.912,27.0,84,0.0,995.1,5.35,26.3,96,50.4,26.5,7.2,288.0,98.0,2.5,7,5,3,1,2026-05-28T18:00:51.138745+05:30
