city,state,latitude,longitude,temp,humidity,rain,pressure,uv_index,wind_gusts,aqi,pm10,pm2_5,mosquito_risk,arthritis_risk,migraine_risk,frizz_risk,updated_at
Delhi,Delhi,28.6139,77.209,23.5,66,0.0,985.3,6.55,43.2,154,301.7,67.5,3,5,7,1,2026-03-27T02:09:33.304463+05:30
Mumbai,Maharashtra,19.076,72.8777,28.9,76,0.0,1008.8,8.0,20.5,116,39.8,35.4,7,0,4,1,2026-03-27T02:09:33.304510+05:30
Bangalore,Karnataka,12.9716,77.5946,22.4,71,0.0,912.1,9.5,24.1,70,25.0,20.9,3,5,7,1,2026-03-27T02:09:33.304525+05:30
Hyderabad,Telangana,17.385,78.4867,25.2,61,0.0,953.7,9.0,24.5,94,34.6,28.7,7,5,7,1,2026-03-27T02:09:33.304535+05:30
Chennai,Tamil Nadu,13.0827,80.2707,24.9,89,0.0,1008.6,9.25,29.5,61,29.5,17.1,3,0,4,1,2026-03-27T02:09:33.304543+05:30
Kolkata,West Bengal,22.5726,88.3639,25.1,97,0.0,1006.8,8.4,22.7,142,43.1,38.1,7,5,4,1,2026-03-27T02:09:33.304551+05:30
Pune,Maharashtra,18.5204,73.8567,24.2,84,0.0,949.2,8.55,43.2,130,88.0,77.3,3,5,7,1,2026-03-27T02:09:33.304561+05:30
Ahmedabad,Gujarat,23.0225,72.5714,24.9,51,0.0,1004.0,7.9,31.7,67,34.9,23.8,0,5,4,0,2026-03-27T02:09:33.304568+05:30
Jaipur,Rajasthan,26.9124,75.7873,24.3,53,0.0,961.6,7.35,34.9,91,118.3,32.0,0,5,7,0,2026-03-27T02:09:33.304574+05:30
Lucknow,Uttar Pradesh,26.8467,80.9462,23.8,56,0.0,994.6,4.15,48.6,116,166.2,43.1,0,5,3,0,2026-03-27T02:09:33.304580+05:30
Kanpur,Uttar Pradesh,26.4499,80.3319,23.5,67,0.0,993.2,6.9,39.2,177,270.1,55.2,3,5,7,1,2026-03-27T02:09:33.304586+05:30
Chandigarh,Chandigarh,30.7333,76.7794,19.9,82,0.0,970.8,6.45,29.2,62,22.1,20.8,3,10,7,1,2026-03-27T02:09:33.304592+05:30
Srinagar,Jammu and Kashmir,34.0837,74.7973,7.8,82,0.0,840.6,7.5,22.3,85,49.5,44.0,3,10,7,0,2026-03-27T02:09:33.304598+05:30
Jammu,Jammu and Kashmir,32.7266,74.857,19.9,87,0.0,975.6,7.15,24.5,75,32.8,30.5,3,10,7,1,2026-03-27T02:09:33.304604+05:30
Amritsar,Punjab,31.634,74.8723,19.0,87,0.0,984.4,7.1,21.2,90,50.1,38.2,3,10,7,1,2026-03-27T02:09:33.304610+05:30
Ludhiana,Punjab,30.901,75.8573,20.4,80,0.0,982.1,6.7,31.7,87,31.4,26.3,3,5,7,1,2026-03-27T02:09:33.304616+05:30
Jalandhar,Punjab,31.326,75.5762,20.0,83,0.0,983.4,6.9,24.5,82,73.8,40.0,3,5,7,1,2026-03-27T02:09:33.304623+05:30
Dehradun,Uttarakhand,30.6284,78.0322,12.8,68,0.0,829.6,6.55,29.9,50,22.8,15.1,3,5,7,0,2026-03-27T02:09:33.304629+05:30
Shimla,Himachal Pradesh,31.1048,77.1734,10.4,78,0.0,783.2,6.75,29.9,57,29.2,21.0,3,5,7,0,2026-03-27T02:09:33.304635+05:30
Manali,Himachal Pradesh,32.2396,77.1887,13.9,62,0.0,819.1,8.1,26.3,72,7.2,6.5,3,5,7,0,2026-03-27T02:09:33.304641+05:30
Gurgaon,Haryana,28.4595,77.0266,21.9,73,0.0,983.7,6.6,41.0,300,571.8,99.2,3,5,7,1,2026-03-27T02:09:33.304647+05:30
Noida,Uttar Pradesh,28.5355,77.391,23.5,66,0.0,986.9,6.55,42.5,300,571.8,99.2,3,5,7,1,2026-03-27T02:09:33.304653+05:30
Ghaziabad,Uttar Pradesh,28.6692,77.4538,22.4,71,0.0,984.9,6.5,45.4,127,143.4,43.5,3,5,7,1,2026-03-27T02:09:33.304658+05:30
Faridabad,Haryana,28.4089,77.3178,23.3,63,0.0,986.1,6.5,36.0,300,571.8,99.2,3,5,7,0,2026-03-27T02:09:33.304663+05:30
Meerut,Uttar Pradesh,28.9845,77.7064,21.0,76,0.0,983.3,5.65,48.6,127,143.4,43.5,3,5,3,1,2026-03-27T02:09:33.304669+05:30
Agra,Uttar Pradesh,27.1767,78.0081,23.8,60,0.0,989.4,6.85,36.4,235,362.3,68.5,0,5,7,0,2026-03-27T02:09:33.304674+05:30
Varanasi,Uttar Pradesh,25.3176,82.9739,21.5,62,0.0,998.4,7.35,45.4,99,83.4,36.0,3,5,7,0,2026-03-27T02:09:33.304681+05:30
Prayagraj,Uttar Pradesh,25.4358,81.8463,23.7,57,0.0,997.1,7.65,34.9,100,136.0,40.3,0,5,7,0,2026-03-27T02:09:33.304689+05:30
Gorakhpur,Uttar Pradesh,26.7606,83.3732,20.3,68,0.0,997.6,6.6,45.4,97,54.1,27.3,3,5,7,0,2026-03-27T02:09:33.304694+05:30
Bareilly,Uttar Pradesh,28.367,79.4304,21.8,69,0.0,987.9,5.4,54.4,83,37.3,25.0,3,5,3,0,2026-03-27T02:09:33.304699+05:30
Aligarh,Uttar Pradesh,27.8974,78.088,22.7,57,0.0,987.2,5.2,45.7,182,339.0,73.6,0,5,3,0,2026-03-27T02:09:33.304704+05:30
Moradabad,Uttar Pradesh,28.8386,78.7733,21.5,72,0.0,985.0,5.75,54.4,87,39.9,26.5,3,5,3,1,2026-03-27T02:09:33.304710+05:30
Saharanpur,Uttar Pradesh,29.9637,77.546,21.0,77,0.0,977.2,5.65,37.8,82,53.4,40.2,3,5,3,1,2026-03-27T02:09:33.304715+05:30
Jhansi,Uttar Pradesh,25.4484,78.5685,23.6,65,0.0,980.1,7.2,29.5,85,103.4,30.4,3,5,7,1,2026-03-27T02:09:36.560065+05:30
Surat,Gujarat,21.1702,72.8311,26.5,81,0.0,1007.8,7.75,25.2,119,71.0,64.0,7,5,4,1,2026-03-27T02:09:36.560094+05:30
Vadodara,Gujarat,22.3072,73.1812,26.9,42,0.0,1005.8,7.9,28.4,91,35.2,26.4,4,5,4,0,2026-03-27T02:09:36.560104+05:30
Rajkot,Gujarat,22.3039,70.8022,23.1,83,0.0,996.7,7.75,34.9,55,17.8,12.2,3,5,7,1,2026-03-27T02:09:36.560112+05:30
Thane,Maharashtra,19.2183,72.9781,27.7,70,0.0,1008.4,8.0,35.3,116,39.8,35.4,7,0,4,1,2026-03-27T02:09:36.560120+05:30
Nagpur,Maharashtra,21.1458,79.0882,26.7,58,0.0,973.8,8.25,43.9,112,55.2,48.9,4,5,7,1,2026-03-27T02:09:36.560127+05:30
Nashik,Maharashtra,19.9975,73.7898,25.8,54,0.0,947.1,8.2,40.3,87,29.8,25.0,4,5,7,0,2026-03-27T02:09:36.560134+05:30
Aurangabad,Maharashtra,19.8762,75.3433,26.2,49,0.0,945.0,8.7,34.9,62,28.6,20.5,4,5,7,0,2026-03-27T02:09:36.560141+05:30
Solapur,Maharashtra,17.6599,75.9064,26.6,56,0.0,958.2,8.85,31.7,100,38.8,34.6,4,5,7,1,2026-03-27T02:09:36.560149+05:30
Kolhapur,Maharashtra,16.705,74.2433,24.3,88,0.0,948.5,8.95,47.2,151,67.5,61.7,3,5,7,1,2026-03-27T02:09:36.560156+05:30
Goa,Goa,15.2993,74.124,27.9,88,0.0,997.0,8.95,33.5,99,44.2,40.0,7,5,7,1,2026-03-27T02:09:36.560163+05:30
Jodhpur,Rajasthan,26.2389,73.0243,25.5,39,0.0,985.0,7.7,28.4,89,189.1,34.5,4,5,7,0,2026-03-27T02:09:36.560170+05:30
Udaipur,Rajasthan,24.5854,73.7125,24.9,31,0.0,948.6,8.35,32.4,36,23.1,10.9,0,5,7,0,2026-03-27T02:09:36.560177+05:30
Kota,Rajasthan,25.2138,75.8648,25.0,60,0.0,980.7,7.7,32.8,70,20.4,14.5,4,5,7,1,2026-03-27T02:09:36.560184+05:30
Bikaner,Rajasthan,28.0229,73.3119,23.9,64,0.0,984.9,7.45,25.2,62,53.0,23.3,3,5,7,1,2026-03-27T02:09:36.560190+05:30
Ajmer,Rajasthan,26.4499,74.6399,25.1,49,0.0,956.4,7.65,34.6,55,47.0,18.4,4,5,7,0,2026-03-27T02:09:36.560197+05:30
Gwalior,Madhya Pradesh,26.2183,78.1828,25.2,57,0.0,985.4,7.1,31.0,87,222.6,49.7,4,5,7,0,2026-03-27T02:09:36.560204+05:30
Indore,Madhya Pradesh,22.7196,75.8577,22.7,55,0.0,948.9,8.2,32.8,55,16.7,12.8,0,5,7,0,2026-03-27T02:09:36.560210+05:30
Bhopal,Madhya Pradesh,23.2599,77.4126,24.5,51,0.0,954.7,8.1,35.3,49,19.1,16.0,0,5,7,0,2026-03-27T02:09:36.560218+05:30
Jabalpur,Madhya Pradesh,23.1815,79.9864,23.7,64,0.0,962.3,8.2,25.2,63,49.2,30.9,3,5,7,1,2026-03-27T02:09:36.560225+05:30
Ujjain,Madhya Pradesh,23.1765,75.7885,23.0,58,0.0,954.7,8.1,33.8,45,15.6,10.8,0,5,7,0,2026-03-27T02:09:36.560232+05:30
Visakhapatnam,Andhra Pradesh,17.6868,83.2185,26.0,89,0.0,1004.7,8.95,42.1,79,28.8,22.6,7,5,4,1,2026-03-27T02:09:36.560239+05:30
Vijayawada,Andhra Pradesh,16.5062,80.648,25.0,93,0.0,1003.9,9.05,22.0,71,23.1,18.5,7,5,4,1,2026-03-27T02:09:36.560246+05:30
Guntur,Andhra Pradesh,16.3067,80.4365,24.4,95,0.0,1005.2,9.05,29.5,68,22.4,18.2,3,5,4,1,2026-03-27T02:09:36.560253+05:30
Nellore,Andhra Pradesh,14.4426,79.9865,24.5,95,0.0,1007.1,9.15,29.2,57,22.3,14.6,3,5,4,1,2026-03-27T02:09:36.560260+05:30
Kurnool,Andhra Pradesh,15.8281,78.0373,28.6,50,0.0,977.6,9.05,14.8,76,22.8,17.8,4,5,7,1,2026-03-27T02:09:36.560268+05:30
Kakinada,Andhra Pradesh,16.9891,82.2475,24.4,95,0.0,1008.7,8.95,28.4,59,26.4,16.2,3,0,4,1,2026-03-27T02:09:36.560275+05:30
Tirupati,Andhra Pradesh,13.6288,79.4192,23.0,86,0.0,993.2,9.25,29.9,84,44.7,39.0,3,5,7,1,2026-03-27T02:09:36.560282+05:30
Warangal,Telangana,17.9689,79.5941,26.3,71,0.0,979.4,8.85,25.9,86,31.3,28.1,7,5,7,1,2026-03-27T02:09:36.560288+05:30
Nizamabad,Telangana,18.6725,78.0941,26.5,65,0.0,966.2,8.75,24.1,98,40.9,37.4,7,5,7,1,2026-03-27T02:09:36.560295+05:30
Mysore,Karnataka,12.2958,76.6396,23.7,63,0.0,928.9,9.45,40.7,75,26.4,22.6,3,5,7,1,2026-03-27T02:09:36.560302+05:30
Mangalore,Karnataka,12.9141,74.856,28.1,86,0.0,1007.0,9.1,24.8,102,47.6,37.8,7,5,4,1,2026-03-27T02:09:36.560308+05:30
Hubli-Dharwad,Karnataka,15.3647,75.124,23.9,66,0.0,940.6,9.1,50.8,91,27.8,24.4,3,5,7,1,2026-03-27T02:09:36.560315+05:30
Belgaum,Karnataka,15.8497,74.4977,23.3,79,0.0,925.9,9.15,32.8,116,48.4,43.1,3,5,7,1,2026-03-27T02:09:39.814078+05:30
Coimbatore,Tamil Nadu,11.0168,76.9558,24.3,69,0.0,962.7,9.4,40.3,68,40.0,35.5,3,5,7,1,2026-03-27T02:09:39.814111+05:30
Madurai,Tamil Nadu,9.9252,78.1198,24.9,87,0.0,994.1,9.4,22.3,71,28.2,24.6,3,5,7,1,2026-03-27T02:09:39.814121+05:30
Trichy,Tamil Nadu,10.7905,78.7047,23.5,92,0.0,1001.0,9.3,18.4,78,30.4,24.2,3,5,4,1,2026-03-27T02:09:39.814129+05:30
Salem,Tamil Nadu,11.6643,78.146,23.9,85,0.0,978.2,9.35,23.0,91,43.7,38.5,3,5,7,1,2026-03-27T02:09:39.814136+05:30
Tirunelveli,Tamil Nadu,8.7139,77.7567,26.3,76,0.0,1004.4,9.35,42.5,52,25.8,20.8,7,5,4,1,2026-03-27T02:09:39.814144+05:30
Vellore,Tamil Nadu,12.9165,79.1325,22.8,88,0.0,986.1,9.35,30.6,82,51.2,45.2,3,5,7,1,2026-03-27T02:09:39.814151+05:30
Erode,Tamil Nadu,11.341,77.7172,25.0,83,0.0,990.1,9.35,26.6,79,36.0,31.9,7,5,7,1,2026-03-27T02:09:39.814158+05:30
Kochi,Kerala,9.9312,76.2673,28.3,78,0.0,1008.9,9.2,36.0,95,34.1,31.5,7,0,4,1,2026-03-27T02:09:39.814166+05:30
Thiruvananthapuram,Kerala,8.5241,76.9366,29.2,74,0.0,1008.0,9.2,28.8,52,12.1,8.3,7,0,4,1,2026-03-27T02:09:39.814173+05:30
Kozhikode,Kerala,11.2588,75.7804,28.8,81,0.0,1007.9,9.1,33.5,91,42.0,32.9,7,5,4,1,2026-03-27T02:09:39.814180+05:30
Thrissur,Kerala,10.5276,76.2144,27.5,86,0.0,1007.2,9.15,40.3,90,36.4,32.9,7,5,4,1,2026-03-27T02:09:39.814187+05:30
Kannur,Kerala,11.8745,75.3704,28.6,83,0.0,1007.3,9.1,33.5,101,44.7,39.7,7,5,4,1,2026-03-27T02:09:39.814195+05:30
Patna,Bihar,25.5941,85.1376,22.5,61,0.0,1000.9,7.75,30.2,152,125.3,91.5,3,5,4,0,2026-03-27T02:09:39.814202+05:30
Gaya,Bihar,24.7914,85.0002,21.5,56,0.0,994.5,8.05,22.7,82,64.3,33.4,0,5,7,0,2026-03-27T02:09:39.814209+05:30
Muzaffarpur,Bihar,26.1209,85.3647,22.4,62,0.0,1001.0,6.8,34.9,156,105.7,88.7,3,5,4,0,2026-03-27T02:09:39.814216+05:30
Bhagalpur,Bihar,25.2425,87.0117,23.0,72,0.0,1001.9,7.75,36.7,114,90.1,63.1,3,5,4,1,2026-03-27T02:09:39.814222+05:30
Ranchi,Jharkhand,23.3441,85.3096,22.1,43,0.0,938.6,8.25,27.0,62,43.9,21.7,0,5,7,0,2026-03-27T02:09:39.814230+05:30
Jamshedpur,Jharkhand,22.8046,86.2029,24.2,94,0.0,991.6,8.35,30.2,162,101.3,84.8,3,5,7,1,2026-03-27T02:09:39.814236+05:30
Dhanbad,Jharkhand,23.7957,86.4304,21.8,64,0.0,980.5,8.15,26.6,152,75.2,55.4,3,5,7,0,2026-03-27T02:09:39.814243+05:30
Bokaro,Jharkhand,23.6693,86.1511,23.1,52,0.0,985.0,8.15,31.7,132,82.9,63.6,0,5,7,0,2026-03-27T02:09:39.814250+05:30
Bhubaneswar,Odisha,20.2961,85.8245,25.6,97,0.0,1003.3,8.75,25.2,99,39.0,33.2,7,5,4,1,2026-03-27T02:09:39.814257+05:30
Cuttack,Odisha,20.4625,85.8828,25.3,98,0.0,1005.3,8.8,32.8,99,39.0,33.2,7,5,4,1,2026-03-27T02:09:39.814264+05:30
Rourkela,Odisha,22.2604,84.8536,25.4,83,0.0,985.7,8.45,39.2,98,39.3,28.1,7,5,7,1,2026-03-27T02:09:39.814271+05:30
Raipur,Chhattisgarh,21.2514,81.6296,26.6,54,0.0,975.3,8.55,44.6,135,61.9,52.2,4,5,7,1,2026-03-27T02:09:39.814278+05:30
Bhilai,Chhattisgarh,21.1938,81.3509,25.8,60,0.0,975.7,8.55,44.6,137,65.4,57.2,4,5,7,1,2026-03-27T02:09:39.814285+05:30
Guwahati,Assam,26.1158,91.7086,22.3,89,0.0,1002.7,7.9,33.1,132,70.8,59.8,3,5,4,1,2026-03-27T02:09:39.814291+05:30
Agartala,Tripura,23.8315,91.2868,22.8,93,0.0,1006.8,8.2,23.4,161,80.1,71.5,3,5,4,1,2026-03-27T02:09:39.814298+05:30
Shillong,Meghalaya,25.5788,91.8933,10.7,71,0.0,854.2,7.8,42.8,105,52.3,41.7,3,5,7,0,2026-03-27T02:09:39.814305+05:30
Imphal,Manipur,24.817,93.9368,16.3,78,0.0,923.5,8.55,44.3,127,62.9,51.3,3,5,7,0,2026-03-27T02:09:39.814312+05:30
Aizawl,Mizoram,23.7271,92.7176,16.2,71,0.0,892.2,8.45,33.1,111,51.2,38.1,3,5,7,0,2026-03-27T02:09:39.814318+05:30
Kohima,Nagaland,25.6701,94.1077,13.1,84,0.0,854.1,8.45,57.2,102,43.2,36.1,3,10,7,0,2026-03-27T02:09:39.814325+05:30
Gangtok,Sikkim,27.3314,88.6138,12.4,89,0.0,835.9,7.2,21.2,113,57.6,45.5,3,10,7,0,2026-03-27T02:09:39.814331+05:30
Siliguri,West Bengal,26.7271,88.3953,19.5,70,0.0,995.2,7.85,36.4,152,101.5,80.1,3,5,7,0,2026-03-27T02:09:43.071942+05:30
Durgapur,West Bengal,23.5204,87.3119,25.3,86,0.0,995.8,8.25,22.0,163,88.0,75.2,7,5,7,1,2026-03-27T02:09:43.072007+05:30
Asansol,West Bengal,23.6739,86.9524,25.6,81,0.0,994.4,8.4,22.3,152,55.4,39.6,7,5,7,1,2026-03-27T02:09:43.072018+05:30
Pondicherry,Puducherry,11.9139,79.8145,22.4,99,0.0,1009.8,9.2,25.2,60,27.8,15.8,3,0,4,1,2026-03-27T02:09:43.072027+05:30
Port Blair,Andaman and Nicobar Islands,11.6234,92.7265,27.7,80,0.0,1006.2,9.15,26.3,50,26.0,17.2,7,5,4,1,2026-03-27T02:09:43.072035+05:30
Haridwar,Uttarakhand,29.9457,78.1642,20.3,80,0.0,975.5,6.1,39.6,73,37.7,36.8,3,5,7,1,2026-03-27T02:09:43.072043+05:30
Rishikesh,Uttarakhand,30.0869,78.2676,19.6,71,0.0,968.2,6.3,38.5,60,25.9,22.9,3,5,7,0,2026-03-27T02:09:43.072051+05:30
Nainital,Uttarakhand,29.3919,79.4542,18.0,45,0.0,806.4,6.15,50.8,58,25.1,19.7,0,5,7,0,2026-03-27T02:09:43.072059+05:30
Mussoorie,Uttarakhand,30.4599,78.0664,14.7,61,0.0,802.3,6.5,33.5,66,31.7,28.6,3,5,7,0,2026-03-27T02:09:43.072066+05:30
Dharamshala,Himachal Pradesh,32.219,76.3234,17.3,60,0.0,869.9,6.95,21.2,51,14.8,10.9,0,5,7,0,2026-03-27T02:09:43.072073+05:30
Dalhousie,Himachal Pradesh,32.5387,75.971,13.9,53,0.0,803.5,7.2,21.2,67,32.0,28.5,0,5,7,0,2026-03-27T02:09:43.072081+05:30
Patiala,Punjab,30.3398,76.3869,20.2,79,0.0,980.9,4.9,40.0,171,622.1,78.5,3,5,3,1,2026-03-27T02:09:43.072088+05:30
Bhatinda,Punjab,30.211,74.9455,20.7,78,0.0,987.0,7.1,40.3,85,50.2,32.8,3,5,7,1,2026-03-27T02:09:43.072094+05:30
Rohtak,Haryana,28.8955,76.6066,21.2,75,0.0,984.0,6.6,43.9,200,466.6,88.0,3,5,7,1,2026-03-27T02:09:43.072101+05:30
Panipat,Haryana,29.3909,76.9635,21.3,73,0.0,982.6,5.5,47.5,495,855.0,116.2,3,5,3,1,2026-03-27T02:09:43.072109+05:30
Mathura,Uttar Pradesh,27.4924,77.6737,23.5,61,0.0,988.7,6.85,36.4,164,411.6,75.7,3,5,7,0,2026-03-27T02:09:43.072115+05:30
Vrindavan,Uttar Pradesh,27.5823,77.7027,23.2,58,0.0,988.9,6.8,40.3,164,411.6,75.7,0,5,7,0,2026-03-27T02:09:43.072122+05:30
Ayodhya,Uttar Pradesh,26.7922,82.1998,21.8,56,0.0,995.9,5.2,51.5,108,107.8,35.0,0,5,3,0,2026-03-27T02:09:43.072129+05:30
Ratlam,Madhya Pradesh,23.3315,75.0367,25.2,51,0.0,955.9,8.05,31.0,38,15.7,9.8,4,5,7,0,2026-03-27T02:09:43.072136+05:30
Sagar,Madhya Pradesh,23.8388,78.7378,25.7,52,0.0,951.6,8.05,31.0,52,34.7,16.5,4,5,7,0,2026-03-27T02:09:43.072142+05:30
Satna,Madhya Pradesh,24.6005,80.8322,25.1,46,0.0,972.7,8.05,55.8,70,120.6,27.2,4,5,7,0,2026-03-27T02:09:43.072149+05:30
Akola,Maharashtra,20.7002,77.0082,25.5,60,0.0,975.6,8.45,36.0,64,22.1,18.4,4,5,7,1,2026-03-27T02:09:43.072157+05:30
Amravati,Maharashtra,20.9374,77.7796,25.6,52,0.0,967.4,8.45,37.8,68,24.0,20.5,4,5,7,0,2026-03-27T02:09:43.072165+05:30
Latur,Maharashtra,18.4088,76.5604,25.1,58,0.0,940.8,8.8,25.9,82,29.9,26.3,4,5,7,1,2026-03-27T02:09:43.072171+05:30
Nanded,Maharashtra,19.1383,77.3091,26.8,59,0.0,969.4,8.65,26.6,76,34.6,30.4,4,5,7,1,2026-03-27T02:09:43.072179+05:30
Gulbarga,Karnataka,17.3297,76.8343,27.0,57,0.0,959.8,8.85,21.6,98,46.7,40.9,4,5,7,1,2026-03-27T02:09:43.072185+05:30
Bidar,Karnataka,17.9104,77.5199,25.0,69,0.0,937.3,8.85,32.0,95,41.8,37.3,7,5,7,1,2026-03-27T02:09:43.072192+05:30
Hospet,Karnataka,15.2689,76.3909,28.1,55,0.0,956.3,9.1,22.3,88,37.6,33.1,4,5,7,1,2026-03-27T02:09:43.072199+05:30
Tirupur,Tamil Nadu,11.1085,77.3411,25.4,74,0.0,976.4,9.4,29.9,82,43.0,38.3,7,5,7,1,2026-03-27T02:09:43.072205+05:30
Alappuzha,Kerala,9.4981,76.3388,28.4,80,0.0,1008.9,9.15,33.5,87,41.1,34.8,7,0,4,1,2026-03-27T02:09:43.072212+05:30
Munnar,Kerala,10.0889,77.0595,19.4,68,0.0,856.0,9.7,35.3,69,39.2,33.1,3,5,7,0,2026-03-27T02:09:43.072219+05:30
Silchar,Assam,24.8333,92.7789,22.0,83,0.0,1005.9,8.25,27.0,152,76.4,64.7,3,5,4,1,2026-03-27T02:09:43.072226+05:30
Dibrugarh,Assam,27.4728,94.912,22.1,82,0.0,997.2,6.3,13.7,93,43.0,36.3,3,5,7,1,2026-03-27T02:09:43.072232+05:30
