city,state,latitude,longitude,temp,humidity,rain,pressure,uv_index,wind_gusts,aqi,pm10,pm2_5,no2,co,o3,so2,mosquito_risk,arthritis_risk,migraine_risk,frizz_risk,updated_at
Delhi,Delhi,28.6139,77.209,29.5,74,0.0,972.6,7.65,25.9,652,685.5,153.7,17.3,231.0,53.0,10.0,7,5,7,1,2026-07-13T02:22:58.352147+05:30
Mumbai,Maharashtra,19.076,72.8777,27.6,83,0.0,1005.0,4.35,49.7,52,31.0,13.6,4.0,114.0,46.0,3.8,7,5,0,1,2026-07-13T02:22:58.352185+05:30
Bangalore,Karnataka,12.9716,77.5946,20.7,89,0.0,909.3,8.9,48.6,46,12.0,7.3,8.2,166.0,38.0,3.8,3,5,7,1,2026-07-13T02:22:58.352208+05:30
Hyderabad,Telangana,17.385,78.4867,26.9,63,0.0,948.9,8.95,47.5,57,19.3,11.9,6.9,138.0,44.0,4.1,7,5,7,1,2026-07-13T02:22:58.352217+05:30
Chennai,Tamil Nadu,13.0827,80.2707,30.1,68,0.0,1001.5,7.5,40.7,72,29.6,19.8,13.2,194.0,58.0,8.1,3,5,4,1,2026-07-13T02:22:58.352225+05:30
Kolkata,West Bengal,22.5726,88.3639,28.2,89,0.0,996.4,5.7,22.0,145,63.1,51.1,12.1,418.0,82.0,11.6,7,5,3,1,2026-07-13T02:22:58.352233+05:30
Pune,Maharashtra,18.5204,73.8567,23.1,86,0.0,943.9,8.4,53.3,34,11.0,5.4,5.1,103.0,36.0,4.7,3,5,7,1,2026-07-13T02:22:58.352239+05:30
Ahmedabad,Gujarat,23.0225,72.5714,28.1,76,0.0,995.3,8.15,48.6,65,33.5,16.6,4.9,114.0,41.0,3.6,7,5,7,1,2026-07-13T02:22:58.352245+05:30
Jaipur,Rajasthan,26.9124,75.7873,28.7,67,0.0,951.2,8.2,36.7,365,411.6,82.0,10.6,145.0,51.0,4.9,7,5,7,1,2026-07-13T02:22:58.352251+05:30
Lucknow,Uttar Pradesh,26.8467,80.9462,29.1,72,0.0,983.0,8.2,36.4,121,76.1,39.5,11.4,177.0,63.0,7.0,7,5,7,1,2026-07-13T02:22:58.352262+05:30
Kanpur,Uttar Pradesh,26.4499,80.3319,29.7,70,0.0,981.7,8.2,37.8,108,83.8,37.3,12.7,181.0,57.0,7.6,7,5,7,1,2026-07-13T02:22:58.352268+05:30
Chandigarh,Chandigarh,30.7333,76.7794,26.4,77,0.0,958.0,7.7,24.8,161,177.9,97.3,42.5,538.0,47.0,18.2,7,5,7,1,2026-07-13T02:22:58.352275+05:30
Srinagar,Jammu and Kashmir,34.0837,74.7973,16.6,97,0.0,836.7,8.9,22.0,52,42.8,41.1,38.1,449.0,22.0,2.7,3,10,7,0,2026-07-13T02:22:58.352282+05:30
Jammu,Jammu and Kashmir,32.7266,74.857,25.7,87,0.0,962.6,8.55,24.1,142,102.2,69.6,50.9,669.0,26.0,7.8,7,5,7,1,2026-07-13T02:22:58.352289+05:30
Amritsar,Punjab,31.634,74.8723,26.3,88,0.0,970.3,8.45,18.4,160,159.7,97.3,25.2,864.0,72.0,6.9,7,5,7,1,2026-07-13T02:22:58.352295+05:30
Ludhiana,Punjab,30.901,75.8573,26.9,91,0.0,968.3,7.9,23.0,171,194.2,114.3,55.6,375.0,17.0,9.7,7,5,7,1,2026-07-13T02:22:58.352301+05:30
Jalandhar,Punjab,31.326,75.5762,26.4,87,0.0,969.2,8.15,20.9,162,198.8,126.2,73.4,404.0,3.0,9.4,7,5,7,1,2026-07-13T02:22:58.352307+05:30
Dehradun,Uttarakhand,30.6284,78.0322,17.6,100,0.0,822.4,8.15,28.8,84,94.1,48.9,26.4,249.0,57.0,4.7,3,10,7,1,2026-07-13T02:22:58.352314+05:30
Shimla,Himachal Pradesh,31.1048,77.1734,17.2,63,0.0,778.5,8.25,35.6,101,87.8,53.9,15.1,240.0,73.0,4.0,3,5,7,0,2026-07-13T02:22:58.352320+05:30
Manali,Himachal Pradesh,32.2396,77.1887,17.4,84,0.0,812.5,9.35,32.4,80,5.5,5.2,10.1,260.0,119.0,0.0,3,10,7,0,2026-07-13T02:22:58.352329+05:30
Gurgaon,Haryana,28.4595,77.0266,29.8,67,0.0,971.0,7.6,30.2,849,886.6,187.2,15.5,224.0,53.0,7.2,7,5,7,1,2026-07-13T02:22:58.352335+05:30
Noida,Uttar Pradesh,28.5355,77.391,29.9,73,0.0,974.0,7.65,24.8,849,886.6,187.2,15.5,230.0,53.0,7.2,7,5,7,1,2026-07-13T02:22:58.352343+05:30
Ghaziabad,Uttar Pradesh,28.6692,77.4538,29.4,81,0.0,972.3,7.6,26.6,523,423.8,126.2,25.2,299.0,44.0,14.8,7,5,7,1,2026-07-13T02:22:58.352349+05:30
Faridabad,Haryana,28.4089,77.3178,30.0,70,0.0,973.4,7.65,27.7,849,886.6,187.2,15.5,221.0,53.0,7.2,7,5,7,1,2026-07-13T02:22:58.352355+05:30
Meerut,Uttar Pradesh,28.9845,77.7064,28.5,83,0.0,971.1,7.25,28.1,523,423.8,126.2,25.2,476.0,44.0,14.8,7,5,7,1,2026-07-13T02:22:58.352361+05:30
Agra,Uttar Pradesh,27.1767,78.0081,30.0,67,0.0,977.9,8.0,38.9,137,140.2,40.9,16.2,215.0,48.0,5.5,7,5,7,1,2026-07-13T02:22:58.352367+05:30
Varanasi,Uttar Pradesh,25.3176,82.9739,29.4,73,0.0,987.6,8.7,36.0,93,42.8,29.0,12.7,195.0,55.0,7.4,7,5,7,1,2026-07-13T02:22:58.352373+05:30
Prayagraj,Uttar Pradesh,25.4358,81.8463,29.5,67,0.0,986.3,8.55,40.7,90,44.6,28.1,9.5,165.0,63.0,5.9,7,5,7,1,2026-07-13T02:22:58.352380+05:30
Gorakhpur,Uttar Pradesh,26.7606,83.3732,26.7,95,0.1,986.8,8.45,28.8,131,89.4,53.2,22.2,256.0,57.0,5.4,10,5,7,1,2026-07-13T02:22:58.352386+05:30
Bareilly,Uttar Pradesh,28.367,79.4304,29.2,82,0.0,976.4,8.0,29.2,173,231.4,83.6,17.2,298.0,52.0,6.4,7,5,7,1,2026-07-13T02:22:58.352394+05:30
Aligarh,Uttar Pradesh,27.8974,78.088,30.7,66,0.0,975.3,7.85,32.8,622,691.0,160.7,12.4,201.0,59.0,4.9,3,5,7,1,2026-07-13T02:22:58.352401+05:30
Moradabad,Uttar Pradesh,28.8386,78.7733,27.7,90,0.1,973.3,7.85,38.2,315,502.9,149.9,31.0,392.0,38.0,12.1,10,5,7,1,2026-07-13T02:22:58.352407+05:30
Saharanpur,Uttar Pradesh,29.9637,77.546,26.4,79,0.0,965.4,7.35,28.1,177,184.4,130.4,58.4,353.0,19.0,18.8,7,5,7,1,2026-07-13T02:22:58.352413+05:30
Jhansi,Uttar Pradesh,25.4484,78.5685,29.5,65,0.0,969.5,8.45,43.6,84,46.9,27.0,7.3,142.0,71.0,9.2,7,5,7,1,2026-07-13T02:23:01.638681+05:30
Surat,Gujarat,21.1702,72.8311,28.3,82,0.0,1001.3,7.05,61.2,59,27.3,15.3,11.6,179.0,37.0,20.4,7,5,4,1,2026-07-13T02:23:01.638713+05:30
Vadodara,Gujarat,22.3072,73.1812,27.7,82,0.0,998.1,7.9,56.5,59,31.2,16.2,5.9,101.0,41.0,5.6,7,5,7,1,2026-07-13T02:23:01.638723+05:30
Rajkot,Gujarat,22.3039,70.8022,26.9,83,0.0,987.5,7.7,56.9,58,26.4,12.6,2.8,91.0,44.0,2.4,7,5,7,1,2026-07-13T02:23:01.638732+05:30
Thane,Maharashtra,19.2183,72.9781,27.0,86,0.0,1004.3,5.1,45.4,52,31.0,13.6,4.0,131.0,46.0,3.8,7,5,0,1,2026-07-13T02:23:01.638740+05:30
Nagpur,Maharashtra,21.1458,79.0882,27.4,77,0.0,967.1,8.7,41.4,72,41.2,24.4,11.4,232.0,46.0,8.1,7,5,7,1,2026-07-13T02:23:01.638747+05:30
Nashik,Maharashtra,19.9975,73.7898,23.1,93,0.0,940.8,8.1,57.2,37,11.1,6.5,7.4,114.0,33.0,5.9,3,5,7,1,2026-07-13T02:23:01.638755+05:30
Aurangabad,Maharashtra,19.8762,75.3433,23.4,88,0.0,939.3,8.95,50.0,53,21.5,10.2,8.9,122.0,34.0,9.7,3,5,7,1,2026-07-13T02:23:01.638762+05:30
Solapur,Maharashtra,17.6599,75.9064,24.4,82,0.0,953.8,8.9,44.6,45,17.2,9.3,5.2,120.0,34.0,2.4,3,5,7,1,2026-07-13T02:23:01.638770+05:30
Kolhapur,Maharashtra,16.705,74.2433,22.9,93,0.0,945.2,8.9,50.4,32,12.1,6.6,3.7,109.0,37.0,2.2,3,5,7,1,2026-07-13T02:23:01.638777+05:30
Goa,Goa,15.2993,74.124,25.6,96,0.0,996.6,6.1,39.6,54,31.0,17.9,4.3,270.0,37.0,1.4,7,5,7,1,2026-07-13T02:23:01.638785+05:30
Jodhpur,Rajasthan,26.2389,73.0243,29.2,68,0.0,974.0,8.45,47.2,162,304.5,65.2,2.6,99.0,56.0,2.5,7,5,7,1,2026-07-13T02:23:01.638793+05:30
Udaipur,Rajasthan,24.5854,73.7125,25.1,83,0.0,938.7,8.45,48.6,71,34.9,18.4,4.7,118.0,49.0,4.9,7,5,7,1,2026-07-13T02:23:01.638801+05:30
Kota,Rajasthan,25.2138,75.8648,28.5,76,0.0,970.7,8.3,42.8,82,36.8,23.1,6.6,135.0,63.0,7.4,7,5,7,1,2026-07-13T02:23:01.638808+05:30
Bikaner,Rajasthan,28.0229,73.3119,31.5,56,0.0,971.3,8.45,36.7,159,269.2,82.2,2.4,111.0,56.0,3.1,0,5,7,1,2026-07-13T02:23:01.638815+05:30
Ajmer,Rajasthan,26.4499,74.6399,27.6,67,0.0,946.4,8.35,52.6,80,39.2,22.6,4.9,110.0,63.0,3.9,7,5,7,1,2026-07-13T02:23:01.638822+05:30
Gwalior,Madhya Pradesh,26.2183,78.1828,29.1,69,0.0,974.3,8.2,43.2,83,42.4,25.7,7.6,144.0,67.0,7.3,7,5,7,1,2026-07-13T02:23:01.638829+05:30
Indore,Madhya Pradesh,22.7196,75.8577,24.5,88,0.0,942.5,8.6,55.4,66,26.5,13.3,6.1,142.0,42.0,6.9,3,5,7,1,2026-07-13T02:23:01.638836+05:30
Bhopal,Madhya Pradesh,23.2599,77.4126,25.8,83,0.0,947.5,7.9,44.3,72,36.6,22.5,5.5,166.0,60.0,6.1,7,5,7,1,2026-07-13T02:23:01.638844+05:30
Jabalpur,Madhya Pradesh,23.1815,79.9864,26.3,81,0.0,954.6,6.7,36.4,72,44.1,25.0,5.8,223.0,64.0,4.8,7,5,7,1,2026-07-13T02:23:01.638851+05:30
Ujjain,Madhya Pradesh,23.1765,75.7885,25.4,86,0.0,947.9,7.95,52.9,66,26.1,13.3,6.4,146.0,40.0,7.9,7,5,7,1,2026-07-13T02:23:01.638858+05:30
Visakhapatnam,Andhra Pradesh,17.6868,83.2185,29.3,64,0.0,995.8,8.2,31.7,93,42.6,26.8,20.3,277.0,45.0,32.7,7,5,7,1,2026-07-13T02:23:01.638865+05:30
Vijayawada,Andhra Pradesh,16.5062,80.648,30.9,57,0.0,996.0,8.7,49.7,80,46.2,33.3,18.1,419.0,39.0,5.3,0,5,7,1,2026-07-13T02:23:01.638872+05:30
Guntur,Andhra Pradesh,16.3067,80.4365,32.0,48,0.0,997.3,8.25,47.9,75,40.6,28.5,17.6,338.0,37.0,5.5,0,5,7,1,2026-07-13T02:23:01.638879+05:30
Nellore,Andhra Pradesh,14.4426,79.9865,29.0,80,0.0,1000.3,8.7,49.7,67,36.6,25.3,13.4,220.0,53.0,7.9,7,5,4,1,2026-07-13T02:23:01.638886+05:30
Kurnool,Andhra Pradesh,15.8281,78.0373,28.0,63,0.0,973.2,8.9,49.3,53,16.7,9.3,5.7,126.0,42.0,3.4,7,5,7,1,2026-07-13T02:23:01.638894+05:30
Kakinada,Andhra Pradesh,16.9891,82.2475,29.1,69,0.0,1000.2,6.45,44.6,83,44.9,28.4,8.7,294.0,66.0,4.7,7,5,4,1,2026-07-13T02:23:01.638901+05:30
Tirupati,Andhra Pradesh,13.6288,79.4192,28.1,67,0.0,985.9,8.3,39.6,77,35.2,22.4,19.7,137.0,32.0,3.5,7,5,7,1,2026-07-13T02:23:01.638908+05:30
Warangal,Telangana,17.9689,79.5941,28.2,71,0.0,972.9,8.75,45.0,73,39.9,28.5,16.2,237.0,31.0,4.2,7,5,7,1,2026-07-13T02:23:01.638914+05:30
Nizamabad,Telangana,18.6725,78.0941,27.1,66,0.0,960.0,8.8,46.1,62,27.1,16.1,7.4,127.0,47.0,6.6,7,5,7,1,2026-07-13T02:23:01.638922+05:30
Mysore,Karnataka,12.2958,76.6396,21.8,89,0.0,927.0,9.0,44.6,40,11.5,6.9,7.2,118.0,32.0,2.3,3,5,7,1,2026-07-13T02:23:01.638929+05:30
Mangalore,Karnataka,12.9141,74.856,25.6,95,0.0,1006.3,8.7,47.2,42,21.3,11.1,4.2,116.0,35.0,2.1,7,5,4,1,2026-07-13T02:23:01.638936+05:30
Hubli-Dharwad,Karnataka,15.3647,75.124,22.3,94,0.0,938.6,8.95,50.8,29,9.9,5.2,3.2,103.0,38.0,1.6,3,5,7,1,2026-07-13T02:23:01.638943+05:30
Belgaum,Karnataka,15.8497,74.4977,21.0,97,0.0,923.1,9.0,50.8,29,10.6,5.5,3.4,105.0,37.0,1.5,3,5,7,1,2026-07-13T02:23:04.932496+05:30
Coimbatore,Tamil Nadu,11.0168,76.9558,23.2,96,0.0,959.7,8.45,54.4,39,10.9,7.8,8.1,153.0,25.0,3.0,3,5,7,1,2026-07-13T02:23:04.932525+05:30
Madurai,Tamil Nadu,9.9252,78.1198,27.8,63,0.0,990.0,8.65,43.2,59,12.4,10.5,13.3,117.0,23.0,4.2,7,5,7,1,2026-07-13T02:23:04.932536+05:30
Trichy,Tamil Nadu,10.7905,78.7047,27.9,64,0.0,996.4,8.25,52.6,51,12.6,6.7,4.1,102.0,41.0,2.5,7,5,7,1,2026-07-13T02:23:04.932544+05:30
Salem,Tamil Nadu,11.6643,78.146,24.7,87,0.0,975.0,8.75,34.6,60,18.3,11.8,12.4,192.0,29.0,5.5,3,5,7,1,2026-07-13T02:23:04.932553+05:30
Tirunelveli,Tamil Nadu,8.7139,77.7567,28.3,65,0.0,1000.3,8.2,50.8,30,9.2,6.0,4.7,122.0,36.0,2.2,7,5,4,1,2026-07-13T02:23:04.932561+05:30
Vellore,Tamil Nadu,12.9165,79.1325,29.5,52,0.0,979.9,8.05,47.2,61,18.3,11.5,6.7,134.0,48.0,3.6,4,5,7,1,2026-07-13T02:23:04.932568+05:30
Erode,Tamil Nadu,11.341,77.7172,25.8,79,0.0,986.9,8.45,52.6,52,20.0,13.7,14.4,157.0,27.0,3.8,7,5,7,1,2026-07-13T02:23:04.932576+05:30
Kochi,Kerala,9.9312,76.2673,26.9,86,0.0,1008.6,8.1,46.1,45,15.1,10.9,9.5,95.0,22.0,3.2,7,0,4,1,2026-07-13T02:23:04.932584+05:30
Thiruvananthapuram,Kerala,8.5241,76.9366,24.9,93,0.0,1007.6,8.0,51.5,35,14.7,8.1,3.1,129.0,42.0,1.4,3,5,4,1,2026-07-13T02:23:04.932591+05:30
Kozhikode,Kerala,11.2588,75.7804,24.8,97,0.0,1007.7,8.35,45.4,35,20.4,9.6,1.9,135.0,45.0,1.2,3,5,4,1,2026-07-13T02:23:04.932598+05:30
Thrissur,Kerala,10.5276,76.2144,25.8,90,0.0,1006.9,7.8,46.4,42,18.3,12.0,7.5,145.0,28.0,3.0,7,5,4,1,2026-07-13T02:23:04.932606+05:30
Kannur,Kerala,11.8745,75.3704,25.6,96,0.0,1006.9,8.75,46.4,39,18.2,9.0,4.3,138.0,34.0,1.9,7,5,4,1,2026-07-13T02:23:04.932614+05:30
Patna,Bihar,25.5941,85.1376,27.2,93,0.2,990.7,8.0,21.2,143,87.1,60.1,24.2,227.0,45.0,7.8,10,5,7,1,2026-07-13T02:23:04.932621+05:30
Gaya,Bihar,24.7914,85.0002,27.8,79,0.0,984.3,4.85,28.1,121,75.2,51.2,19.1,309.0,42.0,7.5,7,5,3,1,2026-07-13T02:23:04.932628+05:30
Muzaffarpur,Bihar,26.1209,85.3647,27.2,98,0.1,990.5,8.2,26.3,146,85.9,57.6,17.9,473.0,66.0,6.3,10,5,7,1,2026-07-13T02:23:04.932635+05:30
Bhagalpur,Bihar,25.2425,87.0117,28.5,91,0.0,991.2,3.8,25.6,131,78.9,55.9,23.1,429.0,45.0,9.7,7,5,3,1,2026-07-13T02:23:04.932642+05:30
Ranchi,Jharkhand,23.3441,85.3096,25.5,80,0.0,929.8,8.0,31.0,95,47.1,35.6,13.0,186.0,58.0,8.9,7,5,7,1,2026-07-13T02:23:04.932649+05:30
Jamshedpur,Jharkhand,22.8046,86.2029,27.3,87,0.1,981.9,7.7,27.4,111,44.1,34.7,13.8,213.0,79.0,28.1,10,5,7,1,2026-07-13T02:23:04.932656+05:30
Dhanbad,Jharkhand,23.7957,86.4304,26.6,95,0.0,970.5,4.55,20.9,156,123.4,101.3,72.6,331.0,6.0,156.3,7,5,3,1,2026-07-13T02:23:04.932662+05:30
Bokaro,Jharkhand,23.6693,86.1511,28.1,82,0.0,974.5,5.1,24.8,153,101.0,83.4,44.5,197.0,21.0,104.2,7,5,3,1,2026-07-13T02:23:04.932670+05:30
Bhubaneswar,Odisha,20.2961,85.8245,28.4,85,0.0,993.5,7.5,26.6,111,41.8,32.0,10.9,331.0,72.0,6.9,7,5,7,1,2026-07-13T02:23:04.932676+05:30
Cuttack,Odisha,20.4625,85.8828,28.9,83,0.0,995.4,7.8,27.7,111,41.8,32.0,10.9,335.0,72.0,6.9,7,5,7,1,2026-07-13T02:23:04.932683+05:30
Rourkela,Odisha,22.2604,84.8536,28.2,78,0.0,976.5,8.9,23.4,99,33.4,25.6,13.5,350.0,63.0,19.9,7,5,7,1,2026-07-13T02:23:04.932690+05:30
Raipur,Chhattisgarh,21.2514,81.6296,27.1,75,0.0,968.0,8.65,37.8,91,49.5,31.5,22.1,408.0,47.0,39.6,7,5,7,1,2026-07-13T02:23:04.932697+05:30
Bhilai,Chhattisgarh,21.1938,81.3509,26.7,77,0.0,968.4,8.8,39.2,86,47.5,29.1,17.7,543.0,50.0,31.2,7,5,7,1,2026-07-13T02:23:04.932704+05:30
Guwahati,Assam,26.1158,91.7086,25.6,100,0.2,992.3,1.75,23.8,37,7.4,7.2,6.1,291.0,72.0,2.0,10,5,3,1,2026-07-13T02:23:04.932710+05:30
Agartala,Tripura,23.8315,91.2868,25.6,98,0.0,997.3,1.75,31.0,83,25.3,22.6,10.6,207.0,78.0,5.5,7,5,3,1,2026-07-13T02:23:04.932717+05:30
Shillong,Meghalaya,25.5788,91.8933,20.3,98,0.1,850.2,0.9,26.3,36,0.8,0.8,2.9,252.0,86.0,2.7,6,5,3,1,2026-07-13T02:23:04.932724+05:30
Imphal,Manipur,24.817,93.9368,22.9,98,0.1,916.4,2.6,20.2,52,13.8,11.7,5.9,229.0,54.0,2.7,6,5,3,1,2026-07-13T02:23:04.932730+05:30
Aizawl,Mizoram,23.7271,92.7176,19.9,95,0.0,885.2,0.95,22.0,48,8.2,5.5,2.0,169.0,63.0,1.8,3,10,3,1,2026-07-13T02:23:04.932738+05:30
Kohima,Nagaland,25.6701,94.1077,20.8,96,0.0,849.7,7.1,24.5,24,2.9,2.4,4.2,207.0,52.0,1.1,3,5,7,1,2026-07-13T02:23:04.932745+05:30
Gangtok,Sikkim,27.3314,88.6138,19.5,94,0.3,830.9,1.8,25.2,50,2.4,2.4,2.3,305.0,115.0,1.2,6,10,3,1,2026-07-13T02:23:04.932752+05:30
Siliguri,West Bengal,26.7271,88.3953,25.5,98,0.3,983.2,0.6,31.3,46,12.2,11.5,7.4,357.0,94.0,2.9,10,5,3,1,2026-07-13T02:23:08.230941+05:30
Durgapur,West Bengal,23.5204,87.3119,27.3,96,0.0,985.4,4.1,27.4,152,68.0,58.0,34.6,463.0,38.0,46.4,7,5,3,1,2026-07-13T02:23:08.230972+05:30
Asansol,West Bengal,23.6739,86.9524,27.3,96,0.0,984.0,2.55,24.8,141,76.4,61.7,51.4,516.0,22.0,66.6,7,5,3,1,2026-07-13T02:23:08.230983+05:30
Pondicherry,Puducherry,11.9139,79.8145,29.2,72,0.0,1003.8,8.0,48.2,65,15.1,11.0,11.2,184.0,49.0,6.4,7,5,4,1,2026-07-13T02:23:08.230992+05:30
Port Blair,Andaman and Nicobar Islands,11.6234,92.7265,27.0,85,0.1,1003.0,8.75,58.0,49,23.0,10.1,0.1,84.0,50.0,0.3,10,5,4,1,2026-07-13T02:23:08.231000+05:30
Haridwar,Uttarakhand,29.9457,78.1642,26.2,97,0.0,963.5,7.5,23.8,162,109.2,68.2,13.6,297.0,80.0,7.4,7,5,7,1,2026-07-13T02:23:08.231030+05:30
Rishikesh,Uttarakhand,30.0869,78.2676,25.0,93,0.0,956.1,7.6,27.7,148,53.7,33.2,6.3,244.0,108.0,4.7,7,5,7,1,2026-07-13T02:23:08.231039+05:30
Nainital,Uttarakhand,29.3919,79.4542,16.5,99,0.0,798.6,8.5,35.6,155,203.0,64.0,11.2,287.0,89.0,4.2,3,10,7,1,2026-07-13T02:23:08.231047+05:30
Mussoorie,Uttarakhand,30.4599,78.0664,16.3,97,0.0,795.3,8.0,43.2,144,99.2,48.7,11.7,265.0,98.0,7.5,3,10,7,0,2026-07-13T02:23:08.231055+05:30
Dharamshala,Himachal Pradesh,32.219,76.3234,22.9,65,0.0,861.7,8.35,36.0,56,23.2,17.1,15.6,257.0,18.0,0.4,3,5,7,1,2026-07-13T02:23:08.231062+05:30
Dalhousie,Himachal Pradesh,32.5387,75.971,17.2,83,0.0,797.5,8.65,31.7,98,60.8,41.6,34.1,413.0,43.0,2.8,3,10,7,0,2026-07-13T02:23:08.231070+05:30
Patiala,Punjab,30.3398,76.3869,27.6,89,0.0,967.8,7.5,24.5,173,184.9,109.2,41.1,398.0,35.0,10.4,7,5,7,1,2026-07-13T02:23:08.231079+05:30
Bhatinda,Punjab,30.211,74.9455,27.7,88,0.0,973.3,8.25,22.3,344,231.9,122.0,22.4,327.0,71.0,9.5,7,5,7,1,2026-07-13T02:23:08.231086+05:30
Rohtak,Haryana,28.8955,76.6066,29.1,71,0.0,971.4,7.6,28.1,1257,1881.3,281.3,9.8,170.0,62.0,3.4,7,5,7,1,2026-07-13T02:23:08.231093+05:30
Panipat,Haryana,29.3909,76.9635,27.9,84,0.0,970.1,7.45,25.2,1754,1385.8,451.7,14.6,465.0,48.0,3.5,7,5,7,1,2026-07-13T02:23:08.231101+05:30
Mathura,Uttar Pradesh,27.4924,77.6737,30.7,64,0.0,976.9,7.9,34.2,921,659.4,108.5,16.5,191.0,49.0,4.6,3,5,7,1,2026-07-13T02:23:08.231108+05:30
Vrindavan,Uttar Pradesh,27.5823,77.7027,31.1,62,0.0,977.2,7.85,33.1,921,659.4,108.5,16.5,181.0,49.0,4.6,3,5,7,1,2026-07-13T02:23:08.231116+05:30
Ayodhya,Uttar Pradesh,26.7922,82.1998,28.1,95,0.0,984.8,8.35,33.8,138,104.5,69.8,36.6,546.0,29.0,10.3,7,5,7,1,2026-07-13T02:23:08.231127+05:30
Ratlam,Madhya Pradesh,23.3315,75.0367,24.8,91,0.0,948.4,8.05,52.2,64,25.3,12.9,6.8,132.0,39.0,8.5,3,5,7,1,2026-07-13T02:23:08.231139+05:30
Sagar,Madhya Pradesh,23.8388,78.7378,26.3,77,0.0,943.1,8.65,47.5,75,46.1,28.3,5.4,170.0,67.0,4.2,7,5,7,1,2026-07-13T02:23:08.231146+05:30
Satna,Madhya Pradesh,24.6005,80.8322,27.9,71,0.0,963.2,8.7,41.8,77,44.4,25.8,5.4,167.0,64.0,3.8,7,5,7,1,2026-07-13T02:23:08.231153+05:30
Akola,Maharashtra,20.7002,77.0082,27.5,70,0.0,970.2,8.75,48.2,60,26.1,14.1,6.7,109.0,44.0,7.6,7,5,7,1,2026-07-13T02:23:08.231161+05:30
Amravati,Maharashtra,20.9374,77.7796,27.1,73,0.0,962.0,8.75,54.4,61,27.4,15.2,7.2,124.0,45.0,8.3,7,5,7,1,2026-07-13T02:23:08.231169+05:30
Latur,Maharashtra,18.4088,76.5604,23.9,78,0.0,935.7,8.9,43.6,51,21.7,9.7,4.6,117.0,38.0,2.9,3,5,7,1,2026-07-13T02:23:08.231176+05:30
Nanded,Maharashtra,19.1383,77.3091,26.7,69,0.0,964.0,8.85,41.4,57,28.1,15.0,4.9,123.0,49.0,3.6,7,5,7,1,2026-07-13T02:23:08.231183+05:30
Gulbarga,Karnataka,17.3297,76.8343,24.7,78,0.0,955.2,8.8,49.3,49,17.9,9.1,5.1,110.0,36.0,2.8,3,5,7,1,2026-07-13T02:23:08.231190+05:30
Bidar,Karnataka,17.9104,77.5199,24.6,73,0.0,931.4,8.95,45.4,55,21.9,11.1,4.3,123.0,45.0,2.1,3,5,7,1,2026-07-13T02:23:08.231196+05:30
Hospet,Karnataka,15.2689,76.3909,23.3,89,0.0,953.5,8.9,50.8,36,11.8,5.8,3.8,114.0,37.0,1.7,3,5,7,1,2026-07-13T02:23:08.231203+05:30
Tirupur,Tamil Nadu,11.1085,77.3411,24.3,89,0.0,973.3,8.35,59.4,55,23.6,16.8,18.5,140.0,20.0,4.9,3,5,7,1,2026-07-13T02:23:08.231210+05:30
Alappuzha,Kerala,9.4981,76.3388,27.4,83,0.0,1008.5,7.95,46.1,41,17.9,10.1,5.6,80.0,36.0,2.5,7,0,4,1,2026-07-13T02:23:08.231217+05:30
Munnar,Kerala,10.0889,77.0595,15.9,100,0.0,855.1,8.7,37.1,31,7.0,4.9,5.7,95.0,25.0,1.3,3,10,7,0,2026-07-13T02:23:08.231225+05:30
Silchar,Assam,24.8333,92.7789,26.8,95,0.0,996.7,0.5,17.6,72,27.0,18.3,5.6,234.0,69.0,4.1,7,5,3,1,2026-07-13T02:23:08.231232+05:30
Dibrugarh,Assam,27.4728,94.912,26.0,98,0.3,987.4,8.9,20.2,39,7.6,7.5,15.1,245.0,38.0,1.4,10,5,7,1,2026-07-13T02:23:08.231239+05:30
