city,state,latitude,longitude,temp,humidity,rain,pressure,uv_index,wind_gusts,aqi,pm10,pm2_5,mosquito_risk,arthritis_risk,migraine_risk,frizz_risk,updated_at
Delhi,Delhi,28.6139,77.209,19.6,87,0.0,987.0,6.55,26.3,152,106.4,84.5,3,10,7,1,2026-03-24T02:10:35.901917+05:30
Mumbai,Maharashtra,19.076,72.8777,28.5,72,0.0,1008.9,7.95,27.0,98,49.4,32.0,7,0,4,1,2026-03-24T02:10:35.901959+05:30
Bangalore,Karnataka,12.9716,77.5946,22.2,77,0.0,911.6,9.5,38.9,86,32.4,27.9,3,5,7,1,2026-03-24T02:10:35.901974+05:30
Hyderabad,Telangana,17.385,78.4867,24.5,70,0.0,953.5,8.95,20.2,88,29.9,25.4,3,5,7,1,2026-03-24T02:10:35.901984+05:30
Chennai,Tamil Nadu,13.0827,80.2707,26.5,78,0.0,1008.2,9.25,33.5,35,12.6,7.9,7,0,4,1,2026-03-24T02:10:35.901993+05:30
Kolkata,West Bengal,22.5726,88.3639,22.3,94,0.0,1008.9,8.3,20.9,152,48.9,44.0,3,0,4,1,2026-03-24T02:10:35.902002+05:30
Pune,Maharashtra,18.5204,73.8567,23.4,57,0.0,948.8,8.5,28.1,81,39.2,34.7,0,5,7,0,2026-03-24T02:10:35.902013+05:30
Ahmedabad,Gujarat,23.0225,72.5714,24.5,64,0.0,1003.7,7.75,15.5,82,41.9,30.6,3,5,4,1,2026-03-24T02:10:35.902021+05:30
Jaipur,Rajasthan,26.9124,75.7873,20.7,78,0.0,962.3,7.25,14.8,119,143.9,51.8,3,5,7,1,2026-03-24T02:10:35.902028+05:30
Lucknow,Uttar Pradesh,26.8467,80.9462,20.9,76,0.0,997.4,7.1,29.2,150,81.3,49.1,3,5,7,1,2026-03-24T02:10:35.902037+05:30
Kanpur,Uttar Pradesh,26.4499,80.3319,20.0,80,0.0,995.9,7.0,26.3,201,175.6,56.2,3,5,7,1,2026-03-24T02:10:35.902044+05:30
Chandigarh,Chandigarh,30.7333,76.7794,17.3,77,0.0,972.3,6.5,34.9,101,56.8,51.9,3,5,7,0,2026-03-24T02:10:35.902052+05:30
Srinagar,Jammu and Kashmir,34.0837,74.7973,7.2,94,0.0,842.2,7.55,15.1,88,44.0,40.9,3,10,7,0,2026-03-24T02:10:35.902060+05:30
Jammu,Jammu and Kashmir,32.7266,74.857,17.5,75,0.0,976.2,7.2,32.4,84,33.1,31.4,3,5,7,0,2026-03-24T02:10:35.902067+05:30
Amritsar,Punjab,31.634,74.8723,17.9,82,0.0,984.4,7.15,27.0,122,56.5,48.0,3,10,7,0,2026-03-24T02:10:35.902074+05:30
Ludhiana,Punjab,30.901,75.8573,18.1,79,0.0,982.6,6.65,31.0,145,97.8,82.9,3,5,7,0,2026-03-24T02:10:35.902081+05:30
Jalandhar,Punjab,31.326,75.5762,17.3,87,0.0,983.7,6.95,30.6,133,69.4,61.5,3,10,7,0,2026-03-24T02:10:35.902090+05:30
Dehradun,Uttarakhand,30.6284,78.0322,9.3,84,0.0,829.1,6.95,34.2,61,24.4,20.5,3,10,7,0,2026-03-24T02:10:35.902097+05:30
Shimla,Himachal Pradesh,31.1048,77.1734,7.5,84,0.0,782.3,7.0,50.4,76,40.7,36.0,3,10,7,0,2026-03-24T02:10:35.902104+05:30
Manali,Himachal Pradesh,32.2396,77.1887,9.8,55,0.0,817.2,9.15,27.7,63,16.6,14.1,0,5,7,0,2026-03-24T02:10:35.902111+05:30
Gurgaon,Haryana,28.4595,77.0266,19.1,91,0.0,985.3,6.65,24.5,156,131.8,89.2,3,10,7,1,2026-03-24T02:10:35.902117+05:30
Noida,Uttar Pradesh,28.5355,77.391,19.3,89,0.0,988.6,6.55,25.2,156,131.8,89.2,3,10,7,1,2026-03-24T02:10:35.902124+05:30
Ghaziabad,Uttar Pradesh,28.6692,77.4538,18.4,91,0.0,986.8,6.25,25.2,152,99.9,83.8,3,10,7,1,2026-03-24T02:10:35.902130+05:30
Faridabad,Haryana,28.4089,77.3178,18.7,89,0.0,987.8,6.6,23.0,156,131.8,89.2,3,10,7,1,2026-03-24T02:10:35.902137+05:30
Meerut,Uttar Pradesh,28.9845,77.7064,17.3,94,0.0,985.5,6.45,27.4,152,99.9,83.8,3,10,7,1,2026-03-24T02:10:35.902144+05:30
Agra,Uttar Pradesh,27.1767,78.0081,18.8,91,0.0,991.7,6.45,23.0,174,151.3,68.5,3,10,7,1,2026-03-24T02:10:35.902150+05:30
Varanasi,Uttar Pradesh,25.3176,82.9739,21.3,68,0.0,1001.4,7.7,24.1,120,113.2,55.4,3,5,4,0,2026-03-24T02:10:35.902159+05:30
Prayagraj,Uttar Pradesh,25.4358,81.8463,22.1,68,0.0,999.5,7.6,21.2,120,63.8,41.8,3,5,7,0,2026-03-24T02:10:35.902169+05:30
Gorakhpur,Uttar Pradesh,26.7606,83.3732,20.0,84,0.0,1000.6,7.45,31.7,138,68.2,48.1,3,5,4,1,2026-03-24T02:10:35.902176+05:30
Bareilly,Uttar Pradesh,28.367,79.4304,18.2,97,0.0,991.1,6.8,27.0,106,69.6,41.3,3,10,7,1,2026-03-24T02:10:35.902183+05:30
Aligarh,Uttar Pradesh,27.8974,78.088,18.1,94,0.0,989.5,6.7,21.6,151,185.3,80.6,3,10,7,1,2026-03-24T02:10:35.902189+05:30
Moradabad,Uttar Pradesh,28.8386,78.7733,17.5,95,0.0,987.7,6.6,28.4,128,78.5,65.9,3,10,7,1,2026-03-24T02:10:35.902196+05:30
Saharanpur,Uttar Pradesh,29.9637,77.546,16.0,97,0.0,979.8,6.25,36.4,150,99.9,83.1,3,10,7,0,2026-03-24T02:10:35.902202+05:30
Jhansi,Uttar Pradesh,25.4484,78.5685,20.8,76,0.0,980.7,7.55,26.6,85,104.5,45.3,3,5,7,1,2026-03-24T02:10:39.164034+05:30
Surat,Gujarat,21.1702,72.8311,25.3,84,0.0,1007.8,7.05,20.5,130,72.9,59.5,7,5,4,1,2026-03-24T02:10:39.164063+05:30
Vadodara,Gujarat,22.3072,73.1812,25.3,54,0.0,1005.6,7.7,20.9,90,64.7,42.4,4,5,4,0,2026-03-24T02:10:39.164073+05:30
Rajkot,Gujarat,22.3039,70.8022,22.5,69,0.0,996.1,7.3,21.2,65,8.9,7.8,3,5,7,1,2026-03-24T02:10:39.164082+05:30
Thane,Maharashtra,19.2183,72.9781,26.0,71,0.0,1008.3,7.75,41.8,98,49.4,32.0,7,0,4,1,2026-03-24T02:10:39.164090+05:30
Nagpur,Maharashtra,21.1458,79.0882,23.6,56,0.0,973.8,8.45,21.2,79,68.7,60.1,0,5,7,0,2026-03-24T02:10:39.164097+05:30
Nashik,Maharashtra,19.9975,73.7898,24.0,58,0.0,946.5,8.05,31.3,60,50.3,27.6,0,5,7,0,2026-03-24T02:10:39.164105+05:30
Aurangabad,Maharashtra,19.8762,75.3433,24.9,46,0.0,944.5,8.55,23.8,63,31.3,22.6,0,5,7,0,2026-03-24T02:10:39.164112+05:30
Solapur,Maharashtra,17.6599,75.9064,25.6,55,0.0,956.9,8.8,20.9,89,44.7,36.7,4,5,7,0,2026-03-24T02:10:39.164120+05:30
Kolhapur,Maharashtra,16.705,74.2433,19.8,89,0.0,947.6,8.95,43.9,107,68.7,64.3,3,10,7,1,2026-03-24T02:10:39.164127+05:30
Goa,Goa,15.2993,74.124,27.9,81,0.0,998.2,8.9,30.6,84,52.4,38.6,7,5,7,1,2026-03-24T02:10:39.164135+05:30
Jodhpur,Rajasthan,26.2389,73.0243,25.4,46,0.0,984.9,7.1,15.1,75,48.1,20.0,4,5,7,0,2026-03-24T02:10:39.164142+05:30
Udaipur,Rajasthan,24.5854,73.7125,21.4,59,0.0,948.2,8.1,23.8,60,49.8,21.5,0,5,7,0,2026-03-24T02:10:39.164149+05:30
Kota,Rajasthan,25.2138,75.8648,20.5,85,0.0,981.0,7.65,15.1,81,101.5,38.3,3,5,7,1,2026-03-24T02:10:39.164156+05:30
Bikaner,Rajasthan,28.0229,73.3119,25.6,50,0.0,984.1,7.15,19.1,71,40.6,18.9,4,5,7,0,2026-03-24T02:10:39.164163+05:30
Ajmer,Rajasthan,26.4499,74.6399,22.4,69,0.0,956.6,7.6,23.8,70,87.5,35.0,3,5,7,1,2026-03-24T02:10:39.164170+05:30
Gwalior,Madhya Pradesh,26.2183,78.1828,20.3,85,0.0,986.7,7.2,27.0,102,88.0,44.9,3,5,7,1,2026-03-24T02:10:39.164177+05:30
Indore,Madhya Pradesh,22.7196,75.8577,21.4,61,0.0,948.7,8.1,24.8,62,27.7,17.0,3,5,7,0,2026-03-24T02:10:39.164184+05:30
Bhopal,Madhya Pradesh,23.2599,77.4126,21.4,63,0.0,955.0,8.05,30.6,51,38.2,20.0,3,5,7,0,2026-03-24T02:10:39.164191+05:30
Jabalpur,Madhya Pradesh,23.1815,79.9864,23.2,56,0.0,963.2,8.15,25.9,63,35.3,22.7,0,5,7,0,2026-03-24T02:10:39.164197+05:30
Ujjain,Madhya Pradesh,23.1765,75.7885,21.3,63,0.0,954.7,8.0,16.2,74,27.6,17.5,3,5,7,0,2026-03-24T02:10:39.164204+05:30
Visakhapatnam,Andhra Pradesh,17.6868,83.2185,24.8,89,0.0,1005.4,8.95,36.7,91,30.4,23.5,3,5,4,1,2026-03-24T02:10:39.164211+05:30
Vijayawada,Andhra Pradesh,16.5062,80.648,24.3,91,0.0,1004.1,9.0,23.8,66,18.9,14.9,3,5,4,1,2026-03-24T02:10:39.164218+05:30
Guntur,Andhra Pradesh,16.3067,80.4365,24.3,92,0.0,1005.2,9.0,29.2,64,19.2,15.6,3,5,4,1,2026-03-24T02:10:39.164225+05:30
Nellore,Andhra Pradesh,14.4426,79.9865,25.2,88,0.0,1007.1,9.15,31.0,43,11.4,7.0,7,5,4,1,2026-03-24T02:10:39.164233+05:30
Kurnool,Andhra Pradesh,15.8281,78.0373,27.1,62,0.0,977.0,9.0,22.3,66,19.4,16.1,7,5,7,1,2026-03-24T02:10:39.164241+05:30
Kakinada,Andhra Pradesh,16.9891,82.2475,23.9,91,0.0,1009.0,8.95,28.8,55,20.7,12.6,3,0,4,1,2026-03-24T02:10:39.164248+05:30
Tirupati,Andhra Pradesh,13.6288,79.4192,23.5,88,0.0,992.9,9.25,27.7,66,24.0,21.1,3,5,7,1,2026-03-24T02:10:39.164255+05:30
Warangal,Telangana,17.9689,79.5941,24.7,76,0.0,979.4,8.8,27.7,108,28.6,25.8,3,5,7,1,2026-03-24T02:10:39.164262+05:30
Nizamabad,Telangana,18.6725,78.0941,26.5,55,0.0,964.8,8.75,30.6,128,39.7,35.3,4,5,7,1,2026-03-24T02:10:39.164269+05:30
Mysore,Karnataka,12.2958,76.6396,22.9,83,0.0,928.4,9.45,45.7,106,42.7,36.6,3,5,7,1,2026-03-24T02:10:39.164276+05:30
Mangalore,Karnataka,12.9141,74.856,28.9,79,0.0,1006.9,9.1,22.0,74,32.9,27.5,7,5,4,1,2026-03-24T02:10:39.164283+05:30
Hubli-Dharwad,Karnataka,15.3647,75.124,23.4,86,0.0,940.9,9.0,43.2,82,22.5,19.9,3,5,7,1,2026-03-24T02:10:39.164289+05:30
Belgaum,Karnataka,15.8497,74.4977,21.8,96,0.0,925.6,9.05,42.5,82,40.4,33.4,3,5,7,1,2026-03-24T02:10:42.423827+05:30
Coimbatore,Tamil Nadu,11.0168,76.9558,22.8,72,0.0,962.1,9.4,31.7,81,32.4,26.3,3,5,7,1,2026-03-24T02:10:42.423891+05:30
Madurai,Tamil Nadu,9.9252,78.1198,25.6,84,0.0,994.1,9.35,27.7,62,23.8,21.1,7,5,7,1,2026-03-24T02:10:42.423903+05:30
Trichy,Tamil Nadu,10.7905,78.7047,24.1,91,0.0,1000.8,9.3,23.0,57,17.1,14.9,3,5,4,1,2026-03-24T02:10:42.423912+05:30
Salem,Tamil Nadu,11.6643,78.146,24.9,81,0.0,977.9,9.35,24.5,80,33.6,29.4,3,5,7,1,2026-03-24T02:10:42.423919+05:30
Tirunelveli,Tamil Nadu,8.7139,77.7567,26.4,76,0.0,1004.1,9.35,38.5,63,26.5,22.7,7,5,4,1,2026-03-24T02:10:42.423926+05:30
Vellore,Tamil Nadu,12.9165,79.1325,23.1,86,0.0,985.7,9.3,32.8,74,32.2,29.2,3,5,7,1,2026-03-24T02:10:42.423934+05:30
Erode,Tamil Nadu,11.341,77.7172,25.5,83,0.0,989.9,9.35,19.8,58,20.2,17.3,7,5,7,1,2026-03-24T02:10:42.423941+05:30
Kochi,Kerala,9.9312,76.2673,27.5,83,0.0,1009.0,9.15,35.6,85,51.5,48.1,7,0,4,1,2026-03-24T02:10:42.423948+05:30
Thiruvananthapuram,Kerala,8.5241,76.9366,28.6,78,0.0,1007.8,9.2,32.0,90,25.7,17.5,7,5,4,1,2026-03-24T02:10:42.423955+05:30
Kozhikode,Kerala,11.2588,75.7804,28.9,77,0.0,1007.9,9.1,28.4,66,26.2,16.8,7,5,4,1,2026-03-24T02:10:42.423962+05:30
Thrissur,Kerala,10.5276,76.2144,26.1,86,0.0,1007.3,9.15,39.6,78,57.0,49.4,7,5,4,1,2026-03-24T02:10:42.423970+05:30
Kannur,Kerala,11.8745,75.3704,28.5,78,0.0,1007.1,9.1,28.4,68,30.5,24.6,7,5,4,1,2026-03-24T02:10:42.423977+05:30
Patna,Bihar,25.5941,85.1376,22.0,81,0.0,1003.3,7.9,35.3,151,151.3,106.6,3,5,4,1,2026-03-24T02:10:42.423984+05:30
Gaya,Bihar,24.7914,85.0002,22.3,66,0.0,996.5,7.95,20.9,102,136.4,53.9,3,5,7,0,2026-03-24T02:10:42.423990+05:30
Muzaffarpur,Bihar,26.1209,85.3647,20.9,80,0.0,1003.4,7.85,30.6,154,139.2,113.6,3,5,4,1,2026-03-24T02:10:42.423997+05:30
Bhagalpur,Bihar,25.2425,87.0117,21.7,79,0.0,1003.9,7.85,28.4,129,53.7,50.5,3,5,4,1,2026-03-24T02:10:42.424004+05:30
Ranchi,Jharkhand,23.3441,85.3096,19.6,60,0.0,939.4,8.3,32.0,69,56.6,23.6,0,5,7,0,2026-03-24T02:10:42.424011+05:30
Jamshedpur,Jharkhand,22.8046,86.2029,23.6,72,0.0,993.4,8.45,27.0,147,90.6,77.8,3,5,7,1,2026-03-24T02:10:42.424018+05:30
Dhanbad,Jharkhand,23.7957,86.4304,20.9,76,0.0,982.2,8.35,28.8,156,115.9,99.2,3,5,7,1,2026-03-24T02:10:42.424024+05:30
Bokaro,Jharkhand,23.6693,86.1511,23.0,59,0.0,986.6,8.35,24.5,154,124.3,95.0,0,5,7,0,2026-03-24T02:10:42.424031+05:30
Bhubaneswar,Odisha,20.2961,85.8245,24.9,91,0.0,1004.7,8.75,31.3,116,25.1,20.5,3,5,4,1,2026-03-24T02:10:42.424038+05:30
Cuttack,Odisha,20.4625,85.8828,24.8,92,0.0,1006.8,8.75,26.6,116,25.1,20.5,3,5,4,1,2026-03-24T02:10:42.424045+05:30
Rourkela,Odisha,22.2604,84.8536,20.3,77,0.0,986.7,8.0,21.2,91,48.2,33.1,3,5,7,1,2026-03-24T02:10:42.424051+05:30
Raipur,Chhattisgarh,21.2514,81.6296,24.7,46,0.0,975.3,8.5,20.5,121,68.2,55.4,0,5,7,0,2026-03-24T02:10:42.424058+05:30
Bhilai,Chhattisgarh,21.1938,81.3509,24.4,51,0.0,975.6,8.5,17.6,122,64.7,53.2,0,5,7,0,2026-03-24T02:10:42.424065+05:30
Guwahati,Assam,26.1158,91.7086,20.9,88,0.0,1004.9,7.75,29.2,78,33.4,31.5,3,5,4,1,2026-03-24T02:10:42.424072+05:30
Agartala,Tripura,23.8315,91.2868,21.6,73,0.0,1008.9,8.05,15.5,156,82.4,79.2,3,0,4,1,2026-03-24T02:10:42.424079+05:30
Shillong,Meghalaya,25.5788,91.8933,7.9,84,0.0,854.0,6.05,40.3,65,22.5,21.2,3,10,7,0,2026-03-24T02:10:42.424086+05:30
Imphal,Manipur,24.817,93.9368,13.7,87,0.0,923.9,8.2,43.2,78,41.9,39.8,3,10,7,0,2026-03-24T02:10:42.424093+05:30
Aizawl,Mizoram,23.7271,92.7176,13.7,77,0.0,892.5,8.35,31.7,76,37.7,34.3,3,5,7,0,2026-03-24T02:10:42.424101+05:30
Kohima,Nagaland,25.6701,94.1077,11.3,95,0.0,854.3,7.9,55.4,68,29.5,27.0,3,10,7,0,2026-03-24T02:10:42.424107+05:30
Gangtok,Sikkim,27.3314,88.6138,11.1,92,0.1,836.4,2.3,18.0,70,20.4,19.6,6,10,3,0,2026-03-24T02:10:42.424114+05:30
Siliguri,West Bengal,26.7271,88.3953,18.0,69,0.0,996.7,6.4,37.8,101,40.3,38.8,3,5,7,0,2026-03-24T02:10:45.683634+05:30
Durgapur,West Bengal,23.5204,87.3119,22.4,74,0.0,998.0,8.0,21.2,158,93.8,87.5,3,5,7,1,2026-03-24T02:10:45.683666+05:30
Asansol,West Bengal,23.6739,86.9524,23.0,68,0.0,996.5,8.0,23.4,136,66.6,58.2,3,5,7,1,2026-03-24T02:10:45.683678+05:30
Pondicherry,Puducherry,11.9139,79.8145,24.3,95,0.0,1009.6,9.2,30.2,30,10.4,6.2,3,0,4,1,2026-03-24T02:10:45.683688+05:30
Port Blair,Andaman and Nicobar Islands,11.6234,92.7265,27.7,80,0.0,1006.8,9.15,25.6,35,10.7,6.2,7,5,4,1,2026-03-24T02:10:45.683698+05:30
Haridwar,Uttarakhand,29.9457,78.1642,16.7,96,0.0,978.1,6.4,32.0,112,74.3,62.6,3,10,7,0,2026-03-24T02:10:45.683707+05:30
Rishikesh,Uttarakhand,30.0869,78.2676,17.2,82,0.0,970.6,6.45,30.6,83,57.2,41.1,3,10,7,0,2026-03-24T02:10:45.683716+05:30
Nainital,Uttarakhand,29.3919,79.4542,13.0,72,0.0,805.5,7.3,49.0,81,52.4,44.7,3,5,7,0,2026-03-24T02:10:45.683725+05:30
Mussoorie,Uttarakhand,30.4599,78.0664,11.0,74,0.0,801.8,6.8,45.0,90,50.1,42.6,3,5,7,0,2026-03-24T02:10:45.683734+05:30
Dharamshala,Himachal Pradesh,32.219,76.3234,15.1,51,0.0,869.8,7.05,28.4,74,16.4,12.3,0,5,7,0,2026-03-24T02:10:45.683741+05:30
Dalhousie,Himachal Pradesh,32.5387,75.971,11.0,58,0.0,802.7,7.35,25.2,77,37.5,34.3,0,5,7,0,2026-03-24T02:10:45.683750+05:30
Patiala,Punjab,30.3398,76.3869,17.5,84,0.0,982.0,6.4,33.1,136,93.1,75.7,3,10,7,0,2026-03-24T02:10:45.683759+05:30
Bhatinda,Punjab,30.211,74.9455,19.4,79,0.0,987.3,6.7,26.3,134,73.6,50.6,3,5,7,0,2026-03-24T02:10:45.683766+05:30
Rohtak,Haryana,28.8955,76.6066,18.6,95,0.0,985.8,6.05,25.2,137,102.2,74.0,3,10,7,1,2026-03-24T02:10:45.683774+05:30
Panipat,Haryana,29.3909,76.9635,17.4,95,0.0,984.3,6.35,27.4,144,101.0,76.8,3,10,7,1,2026-03-24T02:10:45.683782+05:30
Mathura,Uttar Pradesh,27.4924,77.6737,18.6,93,0.0,990.9,6.6,21.2,156,139.2,75.2,3,10,7,1,2026-03-24T02:10:45.683790+05:30
Vrindavan,Uttar Pradesh,27.5823,77.7027,18.2,95,0.0,991.3,6.6,21.6,156,139.2,75.2,3,10,7,1,2026-03-24T02:10:45.683797+05:30
Ayodhya,Uttar Pradesh,26.7922,82.1998,19.8,78,0.0,998.9,7.25,33.5,138,66.1,45.9,3,5,7,0,2026-03-24T02:10:45.683805+05:30
Ratlam,Madhya Pradesh,23.3315,75.0367,23.5,53,0.0,955.6,8.0,18.7,67,28.6,17.1,0,5,7,0,2026-03-24T02:10:45.683813+05:30
Sagar,Madhya Pradesh,23.8388,78.7378,23.3,57,0.0,952.1,8.0,28.1,61,43.0,24.5,0,5,7,0,2026-03-24T02:10:45.683820+05:30
Satna,Madhya Pradesh,24.6005,80.8322,22.3,62,0.0,974.2,7.65,26.3,68,97.1,30.9,3,5,7,0,2026-03-24T02:10:45.683828+05:30
Akola,Maharashtra,20.7002,77.0082,24.3,62,0.0,975.6,8.4,21.6,69,41.1,35.7,3,5,7,1,2026-03-24T02:10:45.683836+05:30
Amravati,Maharashtra,20.9374,77.7796,23.2,62,0.0,967.7,8.4,23.8,66,45.2,40.3,3,5,7,0,2026-03-24T02:10:45.683866+05:30
Latur,Maharashtra,18.4088,76.5604,23.3,60,0.0,939.5,8.75,19.4,89,46.0,37.8,0,5,7,0,2026-03-24T02:10:45.683875+05:30
Nanded,Maharashtra,19.1383,77.3091,25.8,57,0.0,968.9,8.6,20.9,105,58.4,49.5,4,5,7,1,2026-03-24T02:10:45.683882+05:30
Gulbarga,Karnataka,17.3297,76.8343,26.6,58,0.0,958.6,8.85,37.4,89,46.2,35.6,4,5,7,1,2026-03-24T02:10:45.683890+05:30
Bidar,Karnataka,17.9104,77.5199,25.9,57,0.0,935.5,8.85,34.9,110,51.5,41.8,4,5,7,1,2026-03-24T02:10:45.683897+05:30
Hospet,Karnataka,15.2689,76.3909,25.9,77,0.0,956.1,9.05,26.3,110,54.9,44.7,7,5,7,1,2026-03-24T02:10:45.683905+05:30
Tirupur,Tamil Nadu,11.1085,77.3411,25.6,78,0.0,976.1,9.45,26.3,69,28.6,23.5,7,5,7,1,2026-03-24T02:10:45.683912+05:30
Alappuzha,Kerala,9.4981,76.3388,27.2,85,0.0,1009.0,9.15,32.0,81,49.5,38.8,7,0,4,1,2026-03-24T02:10:45.683920+05:30
Munnar,Kerala,10.0889,77.0595,19.3,91,0.0,856.0,9.7,30.6,70,35.7,29.5,3,10,7,1,2026-03-24T02:10:45.683929+05:30
Silchar,Assam,24.8333,92.7789,19.3,83,0.0,1008.1,8.0,20.5,120,64.3,61.5,3,5,4,1,2026-03-24T02:10:45.683937+05:30
Dibrugarh,Assam,27.4728,94.912,20.2,91,0.0,999.1,7.35,12.2,65,19.7,19.3,3,5,7,1,2026-03-24T02:10:45.683946+05:30
