city,state,latitude,longitude,temp,humidity,rain,pressure,uv_index,wind_gusts,aqi,pm10,pm2_5,no2,co,o3,so2,mosquito_risk,arthritis_risk,migraine_risk,frizz_risk,updated_at
Delhi,Delhi,28.6139,77.209,35.8,22,0.0,979.6,7.7,42.1,452,931.3,181.6,36.3,462.0,54.0,16.7,0,5,10,0,2026-05-16T21:34:03.093573+05:30
Mumbai,Maharashtra,19.076,72.8777,29.5,79,0.0,1005.2,7.85,50.0,59,41.4,16.6,9.5,226.0,53.0,5.5,7,5,4,1,2026-05-16T21:34:03.093621+05:30
Bangalore,Karnataka,12.9716,77.5946,24.1,81,0.0,909.5,8.8,41.0,153,132.7,96.2,100.6,609.0,11.0,27.8,3,5,7,1,2026-05-16T21:34:03.093653+05:30
Hyderabad,Telangana,17.385,78.4867,32.0,51,0.0,951.5,9.3,41.0,150,53.9,38.5,14.7,475.0,78.0,6.2,0,5,7,1,2026-05-16T21:34:03.093663+05:30
Chennai,Tamil Nadu,13.0827,80.2707,29.5,80,0.0,1004.6,8.85,33.5,40,11.5,8.4,8.2,230.0,80.0,6.3,7,5,4,1,2026-05-16T21:34:03.093671+05:30
Kolkata,West Bengal,22.5726,88.3639,28.2,90,0.0,1003.4,9.0,33.5,58,21.4,14.8,7.3,250.0,39.0,4.7,7,5,4,1,2026-05-16T21:34:03.093680+05:30
Pune,Maharashtra,18.5204,73.8567,29.1,68,0.0,945.7,8.5,40.3,100,31.7,22.1,12.8,265.0,106.0,17.8,7,5,7,1,2026-05-16T21:34:03.093687+05:30
Ahmedabad,Gujarat,23.0225,72.5714,37.3,23,0.0,998.0,8.15,32.4,58,46.6,22.4,14.8,308.0,56.0,5.2,0,5,10,0,2026-05-16T21:34:03.093694+05:30
Jaipur,Rajasthan,26.9124,75.7873,33.9,25,0.0,957.2,8.25,35.6,163,144.4,47.7,31.3,338.0,50.0,10.1,0,5,7,0,2026-05-16T21:34:03.093710+05:30
Lucknow,Uttar Pradesh,26.8467,80.9462,33.8,32,0.0,989.2,8.2,35.6,155,192.8,65.2,24.7,318.0,65.0,12.8,0,5,7,0,2026-05-16T21:34:03.093717+05:30
Kanpur,Uttar Pradesh,26.4499,80.3319,34.2,30,0.0,987.7,8.2,36.0,153,285.9,74.0,21.0,351.0,65.0,11.0,0,5,7,0,2026-05-16T21:34:03.093723+05:30
Chandigarh,Chandigarh,30.7333,76.7794,28.5,40,0.0,965.0,7.7,36.7,113,42.4,29.1,19.5,674.0,95.0,10.7,4,5,7,0,2026-05-16T21:34:03.093733+05:30
Srinagar,Jammu and Kashmir,34.0837,74.7973,17.0,77,0.0,842.4,8.9,27.4,92,28.6,23.6,26.6,1279.0,59.0,3.9,3,5,7,0,2026-05-16T21:34:03.093739+05:30
Jammu,Jammu and Kashmir,32.7266,74.857,27.6,50,0.0,969.2,8.45,28.4,91,40.6,34.2,45.6,616.0,47.0,6.0,4,5,7,1,2026-05-16T21:34:03.093746+05:30
Amritsar,Punjab,31.634,74.8723,29.5,46,0.0,977.1,8.35,28.4,118,74.0,51.3,48.0,564.0,50.0,11.2,4,5,7,1,2026-05-16T21:34:03.093752+05:30
Ludhiana,Punjab,30.901,75.8573,30.4,38,0.0,975.0,7.95,42.8,112,65.2,38.0,18.3,576.0,88.0,8.0,0,5,7,0,2026-05-16T21:34:03.093758+05:30
Jalandhar,Punjab,31.326,75.5762,29.0,50,0.0,976.0,8.15,36.4,129,58.0,41.2,24.7,1603.0,81.0,8.8,4,5,7,1,2026-05-16T21:34:03.093764+05:30
Dehradun,Uttarakhand,30.6284,78.0322,15.8,70,0.0,826.6,8.1,37.4,64,47.6,24.6,35.9,215.0,56.0,2.5,3,5,7,0,2026-05-16T21:34:03.093773+05:30
Shimla,Himachal Pradesh,31.1048,77.1734,14.9,53,0.0,782.6,8.2,45.0,87,55.8,23.1,16.5,262.0,97.0,3.2,0,5,7,0,2026-05-16T21:34:03.093782+05:30
Manali,Himachal Pradesh,32.2396,77.1887,9.9,76,0.0,813.7,9.9,38.2,111,15.5,11.7,55.0,352.0,81.0,0.3,3,5,7,0,2026-05-16T21:34:03.093788+05:30
Gurgaon,Haryana,28.4595,77.0266,31.5,34,0.0,978.0,7.8,41.0,676,841.9,159.3,46.6,689.0,45.0,18.5,0,5,7,0,2026-05-16T21:34:03.093794+05:30
Noida,Uttar Pradesh,28.5355,77.391,32.5,31,0.0,980.8,7.7,31.3,676,841.9,159.3,46.6,587.0,45.0,18.5,0,5,7,0,2026-05-16T21:34:03.093800+05:30
Ghaziabad,Uttar Pradesh,28.6692,77.4538,30.5,37,0.0,979.0,7.7,38.9,235,707.8,149.5,29.9,385.0,59.0,16.6,0,5,7,0,2026-05-16T21:34:03.093806+05:30
Faridabad,Haryana,28.4089,77.3178,35.0,23,0.0,980.3,7.75,41.0,676,841.9,159.3,46.6,668.0,45.0,18.5,0,5,7,0,2026-05-16T21:34:03.093813+05:30
Meerut,Uttar Pradesh,28.9845,77.7064,30.6,39,0.0,977.8,7.6,41.4,235,707.8,149.5,29.9,373.0,59.0,16.6,0,5,7,0,2026-05-16T21:34:03.093818+05:30
Agra,Uttar Pradesh,27.1767,78.0081,33.5,29,0.0,984.2,8.05,32.4,464,778.6,136.9,23.7,368.0,71.0,12.5,0,5,7,0,2026-05-16T21:34:03.093825+05:30
Varanasi,Uttar Pradesh,25.3176,82.9739,35.8,26,0.0,993.4,8.7,40.3,156,189.5,85.4,47.8,448.0,63.0,23.1,0,5,10,0,2026-05-16T21:34:03.093833+05:30
Prayagraj,Uttar Pradesh,25.4358,81.8463,34.0,30,0.0,992.0,8.6,38.5,154,125.3,62.4,34.9,420.0,52.0,16.1,0,5,7,0,2026-05-16T21:34:03.093841+05:30
Gorakhpur,Uttar Pradesh,26.7606,83.3732,29.9,56,0.0,992.6,8.6,31.3,152,120.1,61.0,30.4,484.0,76.0,16.7,4,5,7,1,2026-05-16T21:34:03.093850+05:30
Bareilly,Uttar Pradesh,28.367,79.4304,28.8,47,0.0,982.2,8.0,29.2,139,71.5,52.3,21.4,337.0,87.0,13.6,4,5,7,1,2026-05-16T21:34:03.093857+05:30
Aligarh,Uttar Pradesh,27.8974,78.088,30.6,40,0.0,981.6,7.85,35.6,305,633.3,143.9,33.2,467.0,61.0,14.3,0,5,7,0,2026-05-16T21:34:03.093863+05:30
Moradabad,Uttar Pradesh,28.8386,78.7733,30.3,42,0.0,979.3,7.85,46.8,154,148.1,77.1,39.4,492.0,47.0,13.3,0,5,7,0,2026-05-16T21:34:03.093870+05:30
Saharanpur,Uttar Pradesh,29.9637,77.546,29.3,38,0.0,971.4,7.4,40.7,139,67.3,32.7,13.4,332.0,98.0,9.7,4,5,7,0,2026-05-16T21:34:03.093876+05:30
Jhansi,Uttar Pradesh,25.4484,78.5685,35.4,24,0.0,974.0,8.5,23.0,90,71.2,31.0,10.9,252.0,80.0,7.6,0,5,10,0,2026-05-16T21:34:06.351123+05:30
Surat,Gujarat,21.1702,72.8311,30.8,77,0.0,1003.1,7.75,36.7,84,32.9,21.7,29.8,415.0,33.0,44.3,3,5,4,1,2026-05-16T21:34:06.351157+05:30
Vadodara,Gujarat,22.3072,73.1812,36.0,23,0.0,1000.0,8.1,31.7,76,54.7,29.5,24.5,279.0,65.0,12.6,0,5,7,0,2026-05-16T21:34:06.351167+05:30
Rajkot,Gujarat,22.3039,70.8022,30.8,62,0.0,991.5,7.75,38.5,53,32.7,15.0,6.8,155.0,60.0,5.8,3,5,7,1,2026-05-16T21:34:06.351175+05:30
Thane,Maharashtra,19.2183,72.9781,29.3,77,0.0,1004.7,7.9,44.3,59,41.4,16.6,9.5,210.0,53.0,5.5,7,5,4,1,2026-05-16T21:34:06.351184+05:30
Nagpur,Maharashtra,21.1458,79.0882,36.5,27,0.0,969.7,8.95,38.2,128,87.3,61.5,49.9,303.0,66.0,28.1,0,5,10,0,2026-05-16T21:34:06.351191+05:30
Nashik,Maharashtra,19.9975,73.7898,29.9,52,0.0,943.2,8.2,37.4,64,37.7,20.8,11.0,227.0,84.0,5.7,4,5,7,1,2026-05-16T21:34:06.351199+05:30
Aurangabad,Maharashtra,19.8762,75.3433,34.5,28,0.0,941.8,9.1,37.1,59,30.0,20.1,10.3,322.0,84.0,4.8,0,5,7,0,2026-05-16T21:34:06.351206+05:30
Solapur,Maharashtra,17.6599,75.9064,34.2,31,0.0,953.7,8.45,36.4,96,49.6,40.5,40.9,351.0,56.0,10.4,0,5,7,0,2026-05-16T21:34:06.351214+05:30
Kolhapur,Maharashtra,16.705,74.2433,26.4,84,0.0,945.6,8.55,42.1,99,28.1,21.1,8.0,201.0,79.0,6.9,7,5,7,1,2026-05-16T21:34:06.351221+05:30
Goa,Goa,15.2993,74.124,29.5,79,0.0,996.1,8.9,36.4,64,26.8,15.0,3.5,225.0,45.0,1.1,7,5,7,1,2026-05-16T21:34:06.351228+05:30
Jodhpur,Rajasthan,26.2389,73.0243,35.9,23,0.0,979.6,8.4,31.0,115,113.6,28.5,12.0,263.0,66.0,3.9,0,5,10,0,2026-05-16T21:34:06.351235+05:30
Udaipur,Rajasthan,24.5854,73.7125,32.8,32,0.0,944.3,8.85,31.3,54,35.5,16.5,5.1,225.0,70.0,3.0,0,5,7,0,2026-05-16T21:34:06.351242+05:30
Kota,Rajasthan,25.2138,75.8648,36.2,22,0.0,974.8,8.45,29.5,68,100.8,40.4,18.9,351.0,67.0,6.3,0,5,10,0,2026-05-16T21:34:06.351249+05:30
Bikaner,Rajasthan,28.0229,73.3119,35.2,20,0.0,978.4,8.4,25.9,100,129.0,36.3,8.3,355.0,63.0,2.9,0,5,10,0,2026-05-16T21:34:06.351256+05:30
Ajmer,Rajasthan,26.4499,74.6399,33.1,28,0.0,952.2,8.4,34.2,80,115.7,41.8,23.0,299.0,59.0,5.3,0,5,7,0,2026-05-16T21:34:06.351263+05:30
Gwalior,Madhya Pradesh,26.2183,78.1828,34.2,28,0.0,979.3,8.25,36.7,115,191.9,54.4,16.9,348.0,75.0,9.1,0,5,7,0,2026-05-16T21:34:06.351270+05:30
Indore,Madhya Pradesh,22.7196,75.8577,33.3,24,0.0,945.9,8.7,37.4,65,24.6,15.3,6.1,280.0,90.0,4.0,0,5,7,0,2026-05-16T21:34:06.351277+05:30
Bhopal,Madhya Pradesh,23.2599,77.4126,35.2,21,0.0,950.5,8.7,39.6,60,34.9,22.3,12.5,654.0,69.0,5.7,0,5,10,0,2026-05-16T21:34:06.351284+05:30
Jabalpur,Madhya Pradesh,23.1815,79.9864,33.2,33,0.0,958.1,8.9,37.8,109,57.3,35.0,23.7,275.0,71.0,7.8,0,5,7,0,2026-05-16T21:34:06.351291+05:30
Ujjain,Madhya Pradesh,23.1765,75.7885,33.5,25,0.0,951.2,8.65,38.2,57,26.0,15.5,3.3,209.0,88.0,3.1,0,5,7,0,2026-05-16T21:34:06.351298+05:30
Visakhapatnam,Andhra Pradesh,17.6868,83.2185,29.5,83,0.0,1001.9,9.15,39.6,61,20.0,15.7,26.1,270.0,43.0,44.2,7,5,4,1,2026-05-16T21:34:06.351305+05:30
Vijayawada,Andhra Pradesh,16.5062,80.648,31.3,71,0.0,1000.5,8.85,32.4,48,11.7,9.7,8.1,167.0,53.0,6.9,3,5,4,1,2026-05-16T21:34:06.351312+05:30
Guntur,Andhra Pradesh,16.3067,80.4365,30.5,77,0.0,1001.7,8.85,40.7,50,10.6,9.1,6.5,159.0,52.0,3.0,3,5,4,1,2026-05-16T21:34:06.351319+05:30
Nellore,Andhra Pradesh,14.4426,79.9865,29.8,78,0.0,1003.5,8.25,33.8,47,13.3,9.0,2.7,211.0,77.0,1.8,7,5,4,1,2026-05-16T21:34:06.351326+05:30
Kurnool,Andhra Pradesh,15.8281,78.0373,30.6,59,0.0,974.3,8.95,51.8,128,37.6,25.9,5.4,272.0,85.0,3.3,0,5,7,1,2026-05-16T21:34:06.351333+05:30
Kakinada,Andhra Pradesh,16.9891,82.2475,29.8,80,0.0,1005.5,9.15,40.3,34,9.5,6.2,2.1,192.0,65.0,1.3,7,5,4,1,2026-05-16T21:34:06.351339+05:30
Tirupati,Andhra Pradesh,13.6288,79.4192,29.6,69,0.0,989.0,9.25,33.1,66,16.6,14.9,19.9,267.0,69.0,17.2,7,5,7,1,2026-05-16T21:34:06.351346+05:30
Warangal,Telangana,17.9689,79.5941,29.6,63,0.0,975.8,9.15,49.3,106,40.3,31.3,9.8,303.0,87.0,8.5,7,5,7,1,2026-05-16T21:34:06.351353+05:30
Nizamabad,Telangana,18.6725,78.0941,32.3,46,0.0,961.4,9.05,33.1,94,71.9,55.6,36.8,339.0,64.0,9.2,0,5,7,1,2026-05-16T21:34:06.351359+05:30
Mysore,Karnataka,12.2958,76.6396,23.2,85,0.0,926.7,7.2,40.0,112,67.3,46.4,24.7,436.0,83.0,6.6,3,5,7,1,2026-05-16T21:34:06.351366+05:30
Mangalore,Karnataka,12.9141,74.856,25.9,97,0.1,1005.3,7.95,35.6,60,31.3,22.3,11.9,480.0,37.0,3.0,10,5,4,1,2026-05-16T21:34:06.351372+05:30
Hubli-Dharwad,Karnataka,15.3647,75.124,25.4,93,0.0,939.2,7.8,46.1,100,17.6,13.7,8.7,237.0,60.0,2.4,7,5,7,1,2026-05-16T21:34:06.351379+05:30
Belgaum,Karnataka,15.8497,74.4977,24.8,89,0.0,924.2,9.2,40.7,71,23.2,17.4,9.3,160.0,55.0,3.3,3,5,7,1,2026-05-16T21:34:09.595518+05:30
Coimbatore,Tamil Nadu,11.0168,76.9558,24.5,88,0.0,959.6,9.0,45.7,92,41.2,31.9,14.2,312.0,71.0,5.6,3,5,7,1,2026-05-16T21:34:09.595552+05:30
Madurai,Tamil Nadu,9.9252,78.1198,29.5,65,0.0,990.5,8.75,26.3,79,29.3,26.5,35.9,603.0,48.0,8.0,7,5,7,1,2026-05-16T21:34:09.595563+05:30
Trichy,Tamil Nadu,10.7905,78.7047,27.4,84,0.0,997.1,3.75,28.8,82,23.6,22.1,24.1,426.0,54.0,5.1,7,5,3,1,2026-05-16T21:34:09.595572+05:30
Salem,Tamil Nadu,11.6643,78.146,29.1,62,0.0,974.9,8.95,27.0,135,97.6,64.5,48.6,400.0,66.0,23.1,7,5,7,1,2026-05-16T21:34:09.595580+05:30
Tirunelveli,Tamil Nadu,8.7139,77.7567,29.1,63,0.0,1000.3,8.6,33.1,54,13.6,11.3,8.3,280.0,74.0,2.0,7,5,4,1,2026-05-16T21:34:09.595588+05:30
Vellore,Tamil Nadu,12.9165,79.1325,28.0,81,0.0,982.1,9.25,28.8,80,20.6,18.0,18.4,356.0,57.0,6.0,7,5,7,1,2026-05-16T21:34:09.595596+05:30
Erode,Tamil Nadu,11.341,77.7172,27.6,74,0.0,986.3,4.5,37.4,98,102.4,66.8,69.6,392.0,29.0,10.6,7,5,3,1,2026-05-16T21:34:09.595603+05:30
Kochi,Kerala,9.9312,76.2673,26.1,93,0.0,1007.2,5.5,32.4,68,23.8,21.2,31.7,329.0,28.0,7.4,7,5,0,1,2026-05-16T21:34:09.595611+05:30
Thiruvananthapuram,Kerala,8.5241,76.9366,24.9,94,0.0,1006.3,8.2,50.4,49,14.2,9.0,4.9,340.0,92.0,2.0,3,5,4,1,2026-05-16T21:34:09.595619+05:30
Kozhikode,Kerala,11.2588,75.7804,24.8,93,0.0,1006.4,7.55,46.4,63,26.5,16.4,2.5,310.0,86.0,1.4,3,5,4,1,2026-05-16T21:34:09.595647+05:30
Thrissur,Kerala,10.5276,76.2144,25.2,89,0.0,1005.6,8.0,33.1,74,39.7,33.3,24.7,422.0,42.0,6.0,7,5,4,1,2026-05-16T21:34:09.595656+05:30
Kannur,Kerala,11.8745,75.3704,25.0,96,0.0,1005.5,8.7,36.4,63,26.4,20.8,15.6,324.0,53.0,2.9,7,5,4,1,2026-05-16T21:34:09.595663+05:30
Patna,Bihar,25.5941,85.1376,30.4,70,0.0,996.4,8.8,23.4,151,122.9,85.4,60.2,514.0,45.0,24.8,3,5,7,1,2026-05-16T21:34:09.595670+05:30
Gaya,Bihar,24.7914,85.0002,31.1,49,0.0,990.0,8.85,35.6,151,136.4,64.7,33.2,722.0,67.0,14.8,0,5,7,1,2026-05-16T21:34:09.595677+05:30
Muzaffarpur,Bihar,26.1209,85.3647,29.4,72,0.0,996.5,8.8,33.5,152,93.8,77.8,40.8,677.0,69.0,19.4,7,5,7,1,2026-05-16T21:34:09.595683+05:30
Bhagalpur,Bihar,25.2425,87.0117,29.2,77,0.0,997.9,8.8,29.9,163,53.9,48.3,11.4,421.0,118.0,11.9,7,5,7,1,2026-05-16T21:34:09.595689+05:30
Ranchi,Jharkhand,23.3441,85.3096,26.7,57,0.0,935.4,9.25,36.7,137,82.7,54.4,28.7,460.0,70.0,11.3,4,5,7,1,2026-05-16T21:34:09.595695+05:30
Jamshedpur,Jharkhand,22.8046,86.2029,29.0,76,0.0,988.1,9.1,28.1,136,55.2,40.9,15.0,534.0,85.0,19.0,7,5,7,1,2026-05-16T21:34:09.595702+05:30
Dhanbad,Jharkhand,23.7957,86.4304,29.2,66,0.0,976.8,9.05,22.7,162,103.8,80.6,80.7,524.0,26.0,131.8,7,5,7,1,2026-05-16T21:34:09.595709+05:30
Bokaro,Jharkhand,23.6693,86.1511,29.4,59,0.0,980.3,9.05,31.7,158,110.4,75.0,65.0,1515.0,34.0,122.7,4,5,7,1,2026-05-16T21:34:09.595716+05:30
Bhubaneswar,Odisha,20.2961,85.8245,29.3,83,0.0,1000.9,9.2,43.6,42,14.3,9.7,6.2,193.0,40.0,2.7,7,5,4,1,2026-05-16T21:34:09.595723+05:30
Cuttack,Odisha,20.4625,85.8828,29.5,82,0.0,1002.5,9.2,42.8,42,14.3,9.7,6.2,205.0,40.0,2.7,7,5,4,1,2026-05-16T21:34:09.595730+05:30
Rourkela,Odisha,22.2604,84.8536,30.2,66,0.0,982.5,8.4,36.4,153,79.9,59.8,22.7,575.0,119.0,15.3,3,5,7,1,2026-05-16T21:34:09.595736+05:30
Raipur,Chhattisgarh,21.2514,81.6296,31.6,53,0.0,972.2,9.05,28.4,158,82.0,66.4,29.5,452.0,91.0,33.1,0,5,7,1,2026-05-16T21:34:09.595743+05:30
Bhilai,Chhattisgarh,21.1938,81.3509,31.5,54,0.0,972.5,9.05,36.4,158,96.4,76.8,47.6,327.0,72.0,49.5,0,5,7,1,2026-05-16T21:34:09.595749+05:30
Guwahati,Assam,26.1158,91.7086,23.5,98,0.1,999.9,8.5,26.3,71,25.8,22.5,13.5,367.0,53.0,3.8,6,5,7,1,2026-05-16T21:34:09.595756+05:30
Agartala,Tripura,23.8315,91.2868,26.3,97,0.0,1004.5,6.8,32.0,70,35.5,29.4,24.9,312.0,35.0,4.6,7,5,4,1,2026-05-16T21:34:09.595763+05:30
Shillong,Meghalaya,25.5788,91.8933,18.3,92,0.0,855.6,8.05,40.3,49,15.7,12.6,8.8,278.0,69.0,3.6,3,10,7,1,2026-05-16T21:34:09.595770+05:30
Imphal,Manipur,24.817,93.9368,21.2,95,0.0,921.8,8.75,31.7,84,45.8,36.4,25.6,770.0,37.0,5.3,3,5,7,1,2026-05-16T21:34:09.595777+05:30
Aizawl,Mizoram,23.7271,92.7176,19.3,97,0.0,891.4,9.15,29.2,57,27.2,16.7,4.9,184.0,68.0,2.6,3,10,7,1,2026-05-16T21:34:09.595784+05:30
Kohima,Nagaland,25.6701,94.1077,15.8,96,0.0,852.4,9.2,25.9,57,24.6,17.3,16.5,393.0,38.0,2.3,3,10,7,0,2026-05-16T21:34:09.595791+05:30
Gangtok,Sikkim,27.3314,88.6138,14.9,98,0.2,835.2,9.1,36.4,72,14.8,12.9,12.0,616.0,103.0,1.9,6,10,7,0,2026-05-16T21:34:09.595798+05:30
Siliguri,West Bengal,26.7271,88.3953,24.0,87,0.0,990.8,8.65,27.7,82,26.0,21.0,15.2,576.0,98.0,3.8,3,5,7,1,2026-05-16T21:34:12.838254+05:30
Durgapur,West Bengal,23.5204,87.3119,28.2,85,0.0,992.1,9.0,33.8,166,44.2,40.6,22.6,346.0,86.0,35.9,7,5,7,1,2026-05-16T21:34:12.838289+05:30
Asansol,West Bengal,23.6739,86.9524,29.4,75,0.0,990.6,9.05,32.0,154,62.6,50.5,48.0,484.0,55.0,29.7,7,5,7,1,2026-05-16T21:34:12.838300+05:30
Pondicherry,Puducherry,11.9139,79.8145,29.2,80,0.0,1005.5,9.05,32.4,69,19.7,14.6,3.9,321.0,109.0,4.7,7,5,4,1,2026-05-16T21:34:12.838308+05:30
Port Blair,Andaman and Nicobar Islands,11.6234,92.7265,28.3,82,0.0,1007.3,6.6,39.6,26,9.2,5.6,0.4,114.0,55.0,0.3,7,5,4,1,2026-05-16T21:34:12.838316+05:30
Haridwar,Uttarakhand,29.9457,78.1642,27.5,54,0.0,969.4,7.5,35.6,117,53.7,36.6,19.7,441.0,91.0,12.2,4,5,7,1,2026-05-16T21:34:12.838323+05:30
Rishikesh,Uttarakhand,30.0869,78.2676,27.4,45,0.0,962.1,7.6,29.9,118,55.8,34.8,14.2,369.0,117.0,9.4,4,5,7,0,2026-05-16T21:34:12.838331+05:30
Nainital,Uttarakhand,29.3919,79.4542,15.0,61,0.0,802.6,8.45,47.2,105,52.4,31.1,11.0,299.0,113.0,7.1,3,5,7,0,2026-05-16T21:34:12.838338+05:30
Mussoorie,Uttarakhand,30.4599,78.0664,15.2,65,0.0,799.8,8.0,45.7,117,61.2,38.9,32.1,362.0,89.0,11.7,3,5,7,0,2026-05-16T21:34:12.838346+05:30
Dharamshala,Himachal Pradesh,32.219,76.3234,20.8,55,0.0,867.1,8.35,42.5,65,27.4,16.5,15.4,288.0,63.0,1.0,0,5,7,0,2026-05-16T21:34:12.838353+05:30
Dalhousie,Himachal Pradesh,32.5387,75.971,12.0,77,0.0,800.4,8.6,41.0,95,46.6,29.3,38.8,486.0,72.0,3.0,3,5,7,0,2026-05-16T21:34:12.838361+05:30
Patiala,Punjab,30.3398,76.3869,30.8,32,0.0,974.5,7.6,45.4,322,502.9,95.5,11.6,398.0,88.0,6.9,0,5,7,0,2026-05-16T21:34:12.838368+05:30
Bhatinda,Punjab,30.211,74.9455,31.4,38,0.0,980.3,8.25,33.5,102,59.6,30.9,11.0,379.0,79.0,6.1,0,5,7,0,2026-05-16T21:34:12.838376+05:30
Rohtak,Haryana,28.8955,76.6066,31.1,35,0.0,978.3,7.75,38.5,582,914.6,168.1,26.6,487.0,61.0,8.1,0,5,7,0,2026-05-16T21:34:12.838382+05:30
Panipat,Haryana,29.3909,76.9635,30.2,38,0.0,976.8,7.55,41.4,1128,1616.8,267.3,15.7,448.0,77.0,7.7,0,5,7,0,2026-05-16T21:34:12.838389+05:30
Mathura,Uttar Pradesh,27.4924,77.6737,32.2,32,0.0,983.1,8.0,36.4,474,609.1,126.2,26.7,364.0,61.0,7.1,0,5,7,0,2026-05-16T21:34:12.838396+05:30
Vrindavan,Uttar Pradesh,27.5823,77.7027,31.8,32,0.0,983.5,7.95,34.9,474,609.1,126.2,26.7,331.0,61.0,7.1,0,5,7,0,2026-05-16T21:34:12.838402+05:30
Ayodhya,Uttar Pradesh,26.7922,82.1998,30.4,50,0.0,990.8,8.35,33.5,158,124.8,56.5,18.0,407.0,84.0,12.5,0,5,7,1,2026-05-16T21:34:12.838410+05:30
Ratlam,Madhya Pradesh,23.3315,75.0367,31.2,25,0.0,952.0,8.55,33.5,53,28.5,16.5,3.1,187.0,82.0,2.8,0,5,7,0,2026-05-16T21:34:12.838417+05:30
Sagar,Madhya Pradesh,23.8388,78.7378,33.4,25,0.0,947.3,8.75,33.8,77,31.0,18.5,14.3,283.0,63.0,4.0,0,5,7,0,2026-05-16T21:34:12.838424+05:30
Satna,Madhya Pradesh,24.6005,80.8322,33.5,31,0.0,968.1,8.75,33.1,119,64.3,31.1,15.2,279.0,76.0,5.1,0,5,7,0,2026-05-16T21:34:12.838432+05:30
Akola,Maharashtra,20.7002,77.0082,37.3,21,0.0,971.1,8.2,42.1,75,23.8,17.8,11.5,231.0,80.0,5.2,0,5,10,0,2026-05-16T21:34:12.838440+05:30
Amravati,Maharashtra,20.9374,77.7796,37.3,18,0.0,963.8,8.9,36.7,74,31.2,23.2,23.8,277.0,62.0,6.9,0,5,10,0,2026-05-16T21:34:12.838448+05:30
Latur,Maharashtra,18.4088,76.5604,32.5,27,0.0,936.8,8.8,38.2,103,30.2,22.5,15.7,338.0,89.0,9.6,0,5,7,0,2026-05-16T21:34:12.838455+05:30
Nanded,Maharashtra,19.1383,77.3091,34.2,35,0.0,964.6,8.25,30.6,81,49.7,38.0,36.5,646.0,57.0,9.4,0,5,7,1,2026-05-16T21:34:12.838463+05:30
Gulbarga,Karnataka,17.3297,76.8343,30.4,50,0.0,956.2,8.6,46.8,99,36.7,28.3,21.0,329.0,81.0,8.8,0,5,7,1,2026-05-16T21:34:12.838470+05:30
Bidar,Karnataka,17.9104,77.5199,31.0,45,0.0,933.4,8.9,33.5,99,44.4,36.4,34.8,341.0,62.0,7.0,0,5,7,1,2026-05-16T21:34:12.838477+05:30
Hospet,Karnataka,15.2689,76.3909,27.7,66,0.0,954.2,8.6,48.6,138,66.4,52.0,22.2,247.0,94.0,12.3,7,5,7,1,2026-05-16T21:34:12.838483+05:30
Tirupur,Tamil Nadu,11.1085,77.3411,25.6,84,0.0,972.8,7.6,42.8,107,77.3,52.9,43.4,317.0,62.0,9.1,7,5,7,1,2026-05-16T21:34:12.838490+05:30
Alappuzha,Kerala,9.4981,76.3388,26.2,92,0.0,1007.2,7.9,38.9,59,25.7,17.5,16.0,232.0,74.0,5.0,7,5,4,1,2026-05-16T21:34:12.838497+05:30
Munnar,Kerala,10.0889,77.0595,17.8,100,0.0,854.9,3.75,28.4,65,29.1,22.9,18.0,343.0,36.0,2.7,3,10,3,1,2026-05-16T21:34:12.838503+05:30
Silchar,Assam,24.8333,92.7789,24.6,96,0.1,1003.6,8.75,28.4,75,46.4,34.5,15.6,379.0,66.0,7.2,6,5,4,1,2026-05-16T21:34:12.838510+05:30
Dibrugarh,Assam,27.4728,94.912,23.8,93,0.1,993.7,8.9,22.3,86,26.4,23.1,18.3,290.0,32.0,2.0,6,5,7,1,2026-05-16T21:34:12.838516+05:30
