city,state,latitude,longitude,temp,humidity,rain,pressure,uv_index,wind_gusts,aqi,pm10,pm2_5,no2,co,o3,so2,mosquito_risk,arthritis_risk,migraine_risk,frizz_risk,updated_at
Delhi,Delhi,28.6139,77.209,32.5,44,0.0,982.1,7.8,30.6,513,510.4,119.0,28.2,689.0,104.0,41.3,0,5,7,1,2026-06-16T10:11:45.117090+05:30
Mumbai,Maharashtra,19.076,72.8777,32.0,62,0.0,1008.9,7.7,45.0,60,43.1,19.1,7.2,234.0,66.0,9.1,3,0,4,1,2026-06-16T10:11:45.117138+05:30
Bangalore,Karnataka,12.9716,77.5946,26.6,63,0.0,913.7,8.5,33.8,71,29.6,15.0,7.5,413.0,59.0,4.3,7,5,7,1,2026-06-16T10:11:45.117154+05:30
Hyderabad,Telangana,17.385,78.4867,31.7,45,0.0,953.8,7.5,37.1,117,31.0,21.0,6.8,333.0,87.0,8.1,0,5,7,1,2026-06-16T10:11:45.117164+05:30
Chennai,Tamil Nadu,13.0827,80.2707,34.7,48,0.0,1006.3,8.35,35.6,90,45.5,32.9,15.8,477.0,95.0,13.2,0,5,4,1,2026-06-16T10:11:45.117172+05:30
Kolkata,West Bengal,22.5726,88.3639,34.5,60,0.0,1003.9,9.0,46.8,130,54.1,40.2,3.3,527.0,159.0,11.2,0,5,4,1,2026-06-16T10:11:45.117179+05:30
Pune,Maharashtra,18.5204,73.8567,30.5,53,0.0,949.4,8.3,47.2,54,29.1,14.9,4.2,170.0,70.0,7.4,0,5,7,1,2026-06-16T10:11:45.117185+05:30
Ahmedabad,Gujarat,23.0225,72.5714,33.4,50,0.0,1001.5,8.05,40.7,64,46.7,17.9,3.3,146.0,59.0,5.0,0,5,4,1,2026-06-16T10:11:45.117191+05:30
Jaipur,Rajasthan,26.9124,75.7873,32.7,49,0.0,959.1,8.2,34.2,120,254.3,54.6,3.5,241.0,77.0,5.2,0,5,7,1,2026-06-16T10:11:45.117203+05:30
Lucknow,Uttar Pradesh,26.8467,80.9462,34.8,45,0.0,991.8,8.35,29.5,163,141.6,62.2,9.6,358.0,139.0,19.9,0,5,7,1,2026-06-16T10:11:45.117210+05:30
Kanpur,Uttar Pradesh,26.4499,80.3319,36.1,34,0.0,990.4,8.3,29.5,169,321.3,92.7,9.0,246.0,139.0,17.0,0,5,10,1,2026-06-16T10:11:45.117216+05:30
Chandigarh,Chandigarh,30.7333,76.7794,31.6,46,0.0,967.5,7.8,22.7,123,56.6,31.2,6.2,564.0,158.0,10.1,0,5,7,1,2026-06-16T10:11:45.117223+05:30
Srinagar,Jammu and Kashmir,34.0837,74.7973,23.0,52,0.0,843.7,8.65,30.6,78,46.8,30.0,5.4,429.0,114.0,4.2,0,5,7,0,2026-06-16T10:11:45.117229+05:30
Jammu,Jammu and Kashmir,32.7266,74.857,33.2,39,0.0,971.3,8.3,31.7,98,32.0,20.3,8.0,291.0,131.0,4.0,0,5,7,1,2026-06-16T10:11:45.117235+05:30
Amritsar,Punjab,31.634,74.8723,30.6,58,0.0,979.2,8.0,29.9,107,105.7,49.0,8.2,436.0,130.0,9.1,0,5,7,1,2026-06-16T10:11:45.117244+05:30
Ludhiana,Punjab,30.901,75.8573,31.9,46,0.0,977.1,8.05,34.2,163,197.9,75.0,8.2,466.0,133.0,16.8,0,5,7,1,2026-06-16T10:11:45.117250+05:30
Jalandhar,Punjab,31.326,75.5762,30.8,54,0.0,978.1,8.25,25.6,150,178.8,68.7,9.1,378.0,137.0,14.5,0,5,7,1,2026-06-16T10:11:45.117256+05:30
Dehradun,Uttarakhand,30.6284,78.0322,24.4,40,0.0,833.0,7.95,32.4,39,9.6,4.9,0.3,172.0,135.0,0.9,0,5,7,0,2026-06-16T10:11:45.117262+05:30
Shimla,Himachal Pradesh,31.1048,77.1734,21.6,36,0.0,787.5,7.75,34.9,54,6.5,5.3,1.1,175.0,142.0,1.1,0,5,7,0,2026-06-16T10:11:45.117270+05:30
Manali,Himachal Pradesh,32.2396,77.1887,22.6,48,0.0,821.4,8.95,39.6,39,5.0,3.6,9.6,160.0,109.0,0.3,0,5,7,0,2026-06-16T10:11:45.117276+05:30
Gurgaon,Haryana,28.4595,77.0266,33.7,38,0.0,980.5,7.9,32.8,696,730.2,132.7,18.4,464.0,106.0,25.4,0,5,7,1,2026-06-16T10:11:45.117282+05:30
Noida,Uttar Pradesh,28.5355,77.391,32.6,46,0.0,983.5,7.85,23.4,696,730.2,132.7,18.4,582.0,106.0,25.4,0,5,7,1,2026-06-16T10:11:45.117288+05:30
Ghaziabad,Uttar Pradesh,28.6692,77.4538,32.3,44,0.0,981.8,7.8,19.4,434,640.7,148.1,26.4,221.0,123.0,42.1,0,5,7,1,2026-06-16T10:11:45.117296+05:30
Faridabad,Haryana,28.4089,77.3178,33.6,36,0.0,982.8,7.85,30.2,696,730.2,132.7,18.4,494.0,106.0,25.4,0,5,7,1,2026-06-16T10:11:45.117302+05:30
Meerut,Uttar Pradesh,28.9845,77.7064,33.0,45,0.0,980.5,7.7,25.9,434,640.7,148.1,26.4,228.0,123.0,42.1,0,5,7,1,2026-06-16T10:11:45.117308+05:30
Agra,Uttar Pradesh,27.1767,78.0081,35.3,27,0.0,986.7,8.05,24.8,955,1072.9,172.8,12.3,278.0,106.0,12.6,0,5,10,0,2026-06-16T10:11:45.117315+05:30
Varanasi,Uttar Pradesh,25.3176,82.9739,38.5,30,0.0,995.3,8.8,33.8,155,90.3,42.8,8.0,358.0,115.0,12.5,0,5,10,1,2026-06-16T10:11:45.117321+05:30
Prayagraj,Uttar Pradesh,25.4358,81.8463,37.9,33,0.0,993.9,8.75,34.9,151,193.7,65.2,9.0,216.0,120.0,12.4,0,5,10,1,2026-06-16T10:11:45.117328+05:30
Gorakhpur,Uttar Pradesh,26.7606,83.3732,34.9,54,0.0,994.9,8.7,24.5,155,134.6,75.4,7.8,480.0,177.0,15.7,0,5,7,1,2026-06-16T10:11:45.117336+05:30
Bareilly,Uttar Pradesh,28.367,79.4304,33.1,48,0.0,985.3,8.15,29.9,158,202.6,74.5,6.0,331.0,157.0,15.6,0,5,7,1,2026-06-16T10:11:45.117342+05:30
Aligarh,Uttar Pradesh,27.8974,78.088,33.0,40,0.0,984.4,8.0,20.9,571,650.1,125.7,7.5,259.0,118.0,17.8,0,5,7,1,2026-06-16T10:11:45.117348+05:30
Moradabad,Uttar Pradesh,28.8386,78.7733,33.1,47,0.0,982.3,7.95,29.9,172,349.2,109.0,7.8,475.0,145.0,16.3,0,5,7,1,2026-06-16T10:11:45.117354+05:30
Saharanpur,Uttar Pradesh,29.9637,77.546,31.4,54,0.0,974.6,7.55,21.6,158,183.5,72.6,10.6,480.0,153.0,17.0,0,5,7,1,2026-06-16T10:11:45.117360+05:30
Jhansi,Uttar Pradesh,25.4484,78.5685,35.8,38,0.0,977.0,8.45,30.6,89,61.0,29.3,3.2,160.0,90.0,8.9,0,5,10,1,2026-06-16T10:11:48.345823+05:30
Surat,Gujarat,21.1702,72.8311,31.4,65,0.0,1006.7,7.55,48.6,70,39.2,20.7,13.7,364.0,45.0,39.8,3,5,4,1,2026-06-16T10:11:48.345859+05:30
Vadodara,Gujarat,22.3072,73.1812,33.5,51,0.0,1004.0,8.0,51.1,66,46.8,17.0,3.5,147.0,58.0,4.4,0,5,4,1,2026-06-16T10:11:48.345869+05:30
Rajkot,Gujarat,22.3039,70.8022,33.0,52,0.0,993.3,7.55,46.4,57,33.8,13.2,2.1,107.0,57.0,3.1,0,5,7,1,2026-06-16T10:11:48.345878+05:30
Thane,Maharashtra,19.2183,72.9781,32.3,61,0.1,1008.3,7.7,41.8,60,43.1,19.1,7.2,172.0,66.0,9.1,6,0,4,1,2026-06-16T10:11:48.345886+05:30
Nagpur,Maharashtra,21.1458,79.0882,34.6,38,0.0,972.6,8.9,59.4,116,89.4,40.4,8.6,211.0,104.0,20.9,0,5,7,1,2026-06-16T10:11:48.345893+05:30
Nashik,Maharashtra,19.9975,73.7898,30.4,53,0.0,946.5,8.05,44.6,53,36.3,15.3,2.6,122.0,64.0,3.1,0,5,7,1,2026-06-16T10:11:48.345931+05:30
Aurangabad,Maharashtra,19.8762,75.3433,31.3,46,0.0,945.2,8.95,44.6,57,35.0,15.3,2.6,132.0,66.0,4.7,0,5,7,1,2026-06-16T10:11:48.345943+05:30
Solapur,Maharashtra,17.6599,75.9064,32.1,43,0.0,958.6,8.9,43.2,60,31.3,15.5,2.7,139.0,74.0,5.1,0,5,7,1,2026-06-16T10:11:48.345955+05:30
Kolhapur,Maharashtra,16.705,74.2433,30.6,53,0.0,950.0,8.75,49.3,54,18.8,10.6,3.1,134.0,63.0,2.1,0,5,7,1,2026-06-16T10:11:48.345966+05:30
Goa,Goa,15.2993,74.124,29.7,78,0.0,999.7,8.1,30.2,56,19.2,10.0,1.7,185.0,58.0,1.9,7,5,7,1,2026-06-16T10:11:48.345974+05:30
Jodhpur,Rajasthan,26.2389,73.0243,33.0,53,0.0,981.6,8.45,42.1,143,197.9,47.1,1.4,113.0,64.0,2.8,0,5,7,1,2026-06-16T10:11:48.345981+05:30
Udaipur,Rajasthan,24.5854,73.7125,30.5,54,0.0,946.4,8.8,38.5,68,50.5,17.8,1.1,117.0,63.0,2.7,0,5,7,1,2026-06-16T10:11:48.345989+05:30
Kota,Rajasthan,25.2138,75.8648,34.8,45,0.0,977.8,8.35,29.5,85,54.9,28.0,4.2,151.0,75.0,7.1,0,5,7,1,2026-06-16T10:11:48.345996+05:30
Bikaner,Rajasthan,28.0229,73.3119,35.4,46,0.0,979.0,8.45,64.1,137,291.5,93.6,0.8,117.0,70.0,2.8,0,5,10,1,2026-06-16T10:11:48.346004+05:30
Ajmer,Rajasthan,26.4499,74.6399,31.6,56,0.0,953.6,8.35,55.4,84,148.5,42.7,1.6,128.0,69.0,3.3,0,5,7,1,2026-06-16T10:11:48.346011+05:30
Gwalior,Madhya Pradesh,26.2183,78.1828,36.1,31,0.0,982.1,8.3,27.7,157,48.3,27.4,3.6,180.0,88.0,10.6,0,5,10,1,2026-06-16T10:11:48.346017+05:30
Indore,Madhya Pradesh,22.7196,75.8577,31.9,53,0.0,948.6,8.6,38.2,85,43.3,22.6,4.0,192.0,64.0,9.4,0,5,7,1,2026-06-16T10:11:48.346024+05:30
Bhopal,Madhya Pradesh,23.2599,77.4126,31.3,56,0.0,953.6,8.65,29.2,92,56.3,32.2,2.9,215.0,91.0,7.0,0,5,7,1,2026-06-16T10:11:48.346031+05:30
Jabalpur,Madhya Pradesh,23.1815,79.9864,32.8,48,0.0,961.1,8.85,32.4,96,55.4,26.5,2.8,194.0,98.0,3.4,0,5,7,1,2026-06-16T10:11:48.346038+05:30
Ujjain,Madhya Pradesh,23.1765,75.7885,32.3,51,0.0,954.1,8.55,37.8,80,41.9,21.4,3.7,160.0,63.0,9.5,0,5,7,1,2026-06-16T10:11:48.346046+05:30
Visakhapatnam,Andhra Pradesh,17.6868,83.2185,34.7,60,0.0,1001.0,8.55,29.5,161,94.5,69.8,55.7,666.0,84.0,147.0,0,5,4,1,2026-06-16T10:11:48.346053+05:30
Vijayawada,Andhra Pradesh,16.5062,80.648,31.0,65,0.0,1001.2,8.95,42.5,156,66.4,38.6,4.0,248.0,107.0,8.4,3,5,4,1,2026-06-16T10:11:48.346060+05:30
Guntur,Andhra Pradesh,16.3067,80.4365,32.1,57,0.0,1002.5,8.95,35.3,160,70.1,41.3,5.4,246.0,103.0,6.7,0,5,4,1,2026-06-16T10:11:48.346067+05:30
Nellore,Andhra Pradesh,14.4426,79.9865,33.7,52,0.0,1005.0,8.25,37.8,98,22.6,15.3,4.3,162.0,83.0,7.0,0,5,4,1,2026-06-16T10:11:48.346075+05:30
Kurnool,Andhra Pradesh,15.8281,78.0373,32.3,48,0.0,977.4,4.85,40.3,80,25.8,17.2,4.3,158.0,76.0,9.1,0,5,3,1,2026-06-16T10:11:48.346082+05:30
Kakinada,Andhra Pradesh,16.9891,82.2475,34.2,55,0.0,1005.0,9.0,35.6,131,69.2,41.1,4.3,391.0,130.0,7.5,0,5,4,1,2026-06-16T10:11:48.346089+05:30
Tirupati,Andhra Pradesh,13.6288,79.4192,34.1,45,0.0,990.6,8.55,29.5,102,24.3,14.0,1.3,154.0,88.0,2.5,0,5,7,1,2026-06-16T10:11:48.346095+05:30
Warangal,Telangana,17.9689,79.5941,33.3,48,0.0,978.0,8.75,34.2,156,113.6,61.7,9.4,256.0,104.0,10.5,0,5,7,1,2026-06-16T10:11:48.346101+05:30
Nizamabad,Telangana,18.6725,78.0941,32.8,46,0.0,965.4,8.3,34.2,96,34.8,19.7,2.4,148.0,75.0,3.6,0,5,7,1,2026-06-16T10:11:48.346108+05:30
Mysore,Karnataka,12.2958,76.6396,27.4,65,0.0,930.6,8.35,29.5,58,28.6,13.8,3.8,183.0,65.0,2.2,7,5,7,1,2026-06-16T10:11:48.346115+05:30
Mangalore,Karnataka,12.9141,74.856,29.1,80,0.1,1008.7,8.2,43.9,57,31.7,16.4,3.5,149.0,59.0,2.7,10,0,4,1,2026-06-16T10:11:48.346122+05:30
Hubli-Dharwad,Karnataka,15.3647,75.124,29.1,60,0.0,942.9,8.85,48.6,48,17.4,9.1,2.9,134.0,60.0,1.6,4,5,7,1,2026-06-16T10:11:48.346128+05:30
Belgaum,Karnataka,15.8497,74.4977,28.1,61,0.0,928.0,7.0,40.3,51,15.4,8.4,2.5,119.0,59.0,1.5,7,5,7,1,2026-06-16T10:11:51.574706+05:30
Coimbatore,Tamil Nadu,11.0168,76.9558,28.2,73,0.0,963.4,8.55,40.7,63,30.3,16.5,4.5,230.0,73.0,4.5,7,5,7,1,2026-06-16T10:11:51.574741+05:30
Madurai,Tamil Nadu,9.9252,78.1198,35.1,40,0.0,993.7,8.6,35.3,85,34.2,18.3,7.9,170.0,87.0,5.6,0,5,10,1,2026-06-16T10:11:51.574752+05:30
Trichy,Tamil Nadu,10.7905,78.7047,33.8,50,0.0,1000.1,8.05,37.8,78,26.8,15.4,5.1,175.0,73.0,4.4,0,5,4,1,2026-06-16T10:11:51.574760+05:30
Salem,Tamil Nadu,11.6643,78.146,30.9,58,0.0,978.6,8.55,31.7,78,42.4,25.3,9.3,170.0,92.0,14.0,0,5,7,1,2026-06-16T10:11:51.574768+05:30
Tirunelveli,Tamil Nadu,8.7139,77.7567,36.0,40,0.0,1003.5,8.6,38.5,53,11.1,7.1,3.3,143.0,65.0,2.2,0,5,7,1,2026-06-16T10:11:51.574775+05:30
Vellore,Tamil Nadu,12.9165,79.1325,32.3,53,0.0,984.4,8.0,36.0,111,25.6,16.3,4.6,175.0,86.0,4.7,0,5,7,1,2026-06-16T10:11:51.574783+05:30
Erode,Tamil Nadu,11.341,77.7172,31.9,56,0.0,990.2,8.25,28.8,70,32.5,19.4,7.2,215.0,78.0,3.9,0,5,7,1,2026-06-16T10:11:51.574789+05:30
Kochi,Kerala,9.9312,76.2673,28.2,79,0.0,1011.0,7.5,32.0,62,20.6,12.6,6.3,177.0,60.0,4.6,7,0,4,1,2026-06-16T10:11:51.574796+05:30
Thiruvananthapuram,Kerala,8.5241,76.9366,28.8,74,0.0,1010.1,7.8,41.0,57,19.4,11.0,3.2,199.0,66.0,2.5,7,0,4,1,2026-06-16T10:11:51.574804+05:30
Kozhikode,Kerala,11.2588,75.7804,29.7,76,0.0,1009.4,7.3,41.8,53,25.0,11.6,1.3,143.0,62.0,1.9,7,0,4,1,2026-06-16T10:11:51.574811+05:30
Thrissur,Kerala,10.5276,76.2144,28.2,82,0.0,1009.0,6.25,36.0,65,20.6,12.6,3.9,173.0,60.0,2.8,7,0,4,1,2026-06-16T10:11:51.574819+05:30
Kannur,Kerala,11.8745,75.3704,29.9,75,0.0,1008.8,7.6,44.6,54,26.5,13.9,3.2,169.0,63.0,2.6,7,0,4,1,2026-06-16T10:11:51.574826+05:30
Patna,Bihar,25.5941,85.1376,34.4,58,0.0,998.4,8.85,23.8,159,89.2,67.3,8.3,543.0,189.0,19.7,0,5,7,1,2026-06-16T10:11:51.574833+05:30
Gaya,Bihar,24.7914,85.0002,36.7,39,0.0,991.6,8.95,24.1,149,149.0,52.3,3.8,299.0,171.0,11.2,0,5,10,1,2026-06-16T10:11:51.574840+05:30
Muzaffarpur,Bihar,26.1209,85.3647,32.4,68,0.0,998.6,8.85,28.1,157,81.3,71.5,7.5,500.0,176.0,20.7,3,5,7,1,2026-06-16T10:11:51.574847+05:30
Bhagalpur,Bihar,25.2425,87.0117,34.2,61,0.0,999.2,8.85,39.2,153,84.5,73.3,7.3,560.0,185.0,34.2,3,5,7,1,2026-06-16T10:11:51.574854+05:30
Ranchi,Jharkhand,23.3441,85.3096,32.1,46,0.0,937.5,9.25,22.3,129,73.6,42.4,3.0,291.0,159.0,21.4,0,5,7,1,2026-06-16T10:11:51.574861+05:30
Jamshedpur,Jharkhand,22.8046,86.2029,34.7,52,0.0,989.0,9.1,21.2,156,91.7,69.8,8.4,426.0,188.0,45.9,0,5,7,1,2026-06-16T10:11:51.574867+05:30
Dhanbad,Jharkhand,23.7957,86.4304,36.0,39,0.0,978.2,9.1,28.1,160,101.7,82.0,33.2,481.0,153.0,103.7,0,5,10,1,2026-06-16T10:11:51.574875+05:30
Bokaro,Jharkhand,23.6693,86.1511,35.4,43,0.0,981.9,9.1,26.3,162,89.2,62.6,17.1,440.0,173.0,60.8,0,5,10,1,2026-06-16T10:11:51.574882+05:30
Bhubaneswar,Odisha,20.2961,85.8245,34.1,65,0.0,1000.4,9.05,39.6,118,47.1,33.2,3.1,270.0,148.0,10.3,3,5,4,1,2026-06-16T10:11:51.574889+05:30
Cuttack,Odisha,20.4625,85.8828,33.6,70,0.0,1002.2,9.1,45.0,118,47.1,33.2,3.1,314.0,148.0,10.3,3,5,4,1,2026-06-16T10:11:51.574895+05:30
Rourkela,Odisha,22.2604,84.8536,34.4,55,0.0,983.4,9.05,35.6,144,57.4,41.0,3.6,350.0,160.0,20.2,0,5,7,1,2026-06-16T10:11:51.574902+05:30
Raipur,Chhattisgarh,21.2514,81.6296,34.2,45,0.0,973.4,8.95,33.5,150,107.6,63.8,42.4,536.0,81.0,120.1,0,5,7,1,2026-06-16T10:11:51.574924+05:30
Bhilai,Chhattisgarh,21.1938,81.3509,34.8,43,0.0,973.7,8.95,28.1,153,123.9,72.4,48.3,1170.0,74.0,147.7,0,5,7,1,2026-06-16T10:11:51.574931+05:30
Guwahati,Assam,26.1158,91.7086,28.7,80,0.0,1001.2,8.5,20.5,82,44.6,35.2,1.5,356.0,134.0,5.3,7,5,4,1,2026-06-16T10:11:51.574937+05:30
Agartala,Tripura,23.8315,91.2868,31.4,69,0.0,1005.1,8.8,25.9,101,31.7,22.5,4.4,193.0,116.0,3.1,3,5,4,1,2026-06-16T10:11:51.574944+05:30
Shillong,Meghalaya,25.5788,91.8933,24.0,72,0.0,858.7,8.1,19.4,60,34.7,24.3,1.3,220.0,135.0,3.8,3,5,7,1,2026-06-16T10:11:51.574951+05:30
Imphal,Manipur,24.817,93.9368,28.1,66,0.0,922.9,9.1,35.3,69,28.8,19.8,1.4,203.0,111.0,2.3,7,5,7,1,2026-06-16T10:11:51.574958+05:30
Aizawl,Mizoram,23.7271,92.7176,25.8,67,0.0,892.9,6.9,19.8,53,11.9,8.7,1.3,157.0,85.0,1.6,7,5,7,1,2026-06-16T10:11:51.574965+05:30
Kohima,Nagaland,25.6701,94.1077,21.7,90,0.1,855.7,7.45,23.4,51,32.0,21.4,0.7,222.0,110.0,2.2,6,5,7,1,2026-06-16T10:11:51.574972+05:30
Gangtok,Sikkim,27.3314,88.6138,23.2,66,0.0,839.6,8.9,36.4,65,20.8,16.6,1.1,287.0,144.0,2.9,3,5,7,1,2026-06-16T10:11:51.574979+05:30
Siliguri,West Bengal,26.7271,88.3953,28.8,74,0.0,992.5,8.65,23.0,119,43.3,35.6,2.2,467.0,165.0,5.0,7,5,7,1,2026-06-16T10:11:54.808257+05:30
Durgapur,West Bengal,23.5204,87.3119,34.1,63,0.0,992.9,9.0,24.5,166,95.2,80.8,24.8,911.0,157.0,81.6,3,5,7,1,2026-06-16T10:11:54.808293+05:30
Asansol,West Bengal,23.6739,86.9524,34.4,60,0.0,991.4,9.05,33.1,157,100.6,84.1,27.6,642.0,155.0,90.4,0,5,7,1,2026-06-16T10:11:54.808305+05:30
Pondicherry,Puducherry,11.9139,79.8145,33.5,53,0.0,1007.9,8.05,32.8,86,39.5,27.2,10.8,276.0,91.0,9.6,0,5,4,1,2026-06-16T10:11:54.808314+05:30
Port Blair,Andaman and Nicobar Islands,11.6234,92.7265,30.5,71,0.0,1009.1,8.2,46.8,32,10.0,5.9,0.3,96.0,40.0,0.5,3,0,4,1,2026-06-16T10:11:54.808322+05:30
Haridwar,Uttarakhand,29.9457,78.1642,32.6,40,0.0,972.8,7.6,24.8,122,93.1,39.3,2.6,369.0,168.0,8.4,0,5,7,1,2026-06-16T10:11:54.808330+05:30
Rishikesh,Uttarakhand,30.0869,78.2676,32.1,42,0.0,965.6,7.7,21.6,76,32.2,16.8,1.2,265.0,153.0,3.5,0,5,7,1,2026-06-16T10:11:54.808337+05:30
Nainital,Uttarakhand,29.3919,79.4542,23.3,42,0.0,808.9,8.05,28.8,83,23.9,18.3,0.0,205.0,164.0,6.0,0,5,7,0,2026-06-16T10:11:54.808344+05:30
Mussoorie,Uttarakhand,30.4599,78.0664,22.7,39,0.0,806.0,7.6,34.9,69,20.3,10.6,1.2,193.0,157.0,3.4,0,5,7,0,2026-06-16T10:11:54.808352+05:30
Dharamshala,Himachal Pradesh,32.219,76.3234,24.6,52,0.0,870.0,8.55,45.7,33,10.8,6.6,0.9,184.0,127.0,0.7,0,5,7,0,2026-06-16T10:11:54.808359+05:30
Dalhousie,Himachal Pradesh,32.5387,75.971,20.8,52,0.1,806.4,8.8,30.6,67,25.8,14.8,2.0,217.0,144.0,1.2,3,5,7,0,2026-06-16T10:11:54.808367+05:30
Patiala,Punjab,30.3398,76.3869,33.6,44,0.0,976.7,7.7,34.6,191,258.9,74.3,3.1,244.0,137.0,12.7,0,5,7,1,2026-06-16T10:11:54.808375+05:30
Bhatinda,Punjab,30.211,74.9455,34.3,40,0.0,981.4,8.3,28.8,156,195.1,60.3,8.4,214.0,101.0,9.0,0,5,7,1,2026-06-16T10:11:54.808382+05:30
Rohtak,Haryana,28.8955,76.6066,32.3,46,0.0,980.7,7.8,50.8,526,514.1,104.5,12.4,431.0,105.0,20.1,0,5,7,1,2026-06-16T10:11:54.808389+05:30
Panipat,Haryana,29.3909,76.9635,33.2,41,0.0,979.3,7.65,22.7,738,836.3,141.6,12.7,242.0,92.0,20.9,0,5,7,1,2026-06-16T10:11:54.808396+05:30
Mathura,Uttar Pradesh,27.4924,77.6737,33.8,37,0.0,985.6,8.1,23.8,759,778.6,146.7,12.5,293.0,102.0,12.7,0,5,7,1,2026-06-16T10:11:54.808402+05:30
Vrindavan,Uttar Pradesh,27.5823,77.7027,34.1,36,0.0,986.2,8.05,23.8,759,778.6,146.7,12.5,268.0,102.0,12.7,0,5,7,1,2026-06-16T10:11:54.808409+05:30
Ayodhya,Uttar Pradesh,26.7922,82.1998,34.5,54,0.0,993.1,8.4,23.8,159,146.2,69.8,11.5,403.0,157.0,13.0,0,5,7,1,2026-06-16T10:11:54.808415+05:30
Ratlam,Madhya Pradesh,23.3315,75.0367,31.8,52,0.0,955.0,8.5,39.2,77,41.6,21.1,3.6,133.0,63.0,8.8,0,5,7,1,2026-06-16T10:11:54.808422+05:30
Sagar,Madhya Pradesh,23.8388,78.7378,32.4,47,0.0,950.2,8.6,38.9,88,71.5,31.9,2.2,186.0,96.0,3.5,0,5,7,1,2026-06-16T10:11:54.808428+05:30
Satna,Madhya Pradesh,24.6005,80.8322,36.2,35,0.0,970.3,8.8,25.6,87,121.1,34.6,2.7,167.0,104.0,5.2,0,5,10,1,2026-06-16T10:11:54.808434+05:30
Akola,Maharashtra,20.7002,77.0082,34.0,48,0.0,975.3,8.8,45.0,78,37.1,19.3,3.7,122.0,67.0,8.2,0,5,7,1,2026-06-16T10:11:54.808441+05:30
Amravati,Maharashtra,20.9374,77.7796,33.4,49,0.0,967.4,8.7,40.7,92,38.5,20.8,4.4,137.0,72.0,10.0,0,5,7,1,2026-06-16T10:11:54.808449+05:30
Latur,Maharashtra,18.4088,76.5604,31.2,49,0.0,941.1,8.9,34.6,65,32.0,15.7,2.9,150.0,70.0,5.4,0,5,7,1,2026-06-16T10:11:54.808456+05:30
Nanded,Maharashtra,19.1383,77.3091,33.3,47,0.0,969.3,8.9,35.6,71,33.4,17.8,2.5,145.0,76.0,3.5,0,5,7,1,2026-06-16T10:11:54.808463+05:30
Gulbarga,Karnataka,17.3297,76.8343,31.5,46,0.0,959.8,8.9,40.3,70,28.1,15.5,3.7,155.0,73.0,6.1,0,5,7,1,2026-06-16T10:11:54.808469+05:30
Bidar,Karnataka,17.9104,77.5199,30.6,52,0.0,936.7,8.95,35.6,88,34.3,18.9,3.7,151.0,77.0,6.0,0,5,7,1,2026-06-16T10:11:54.808477+05:30
Hospet,Karnataka,15.2689,76.3909,28.9,62,0.0,957.5,8.3,33.1,59,25.6,13.3,3.5,161.0,63.0,3.3,7,5,7,1,2026-06-16T10:11:54.808483+05:30
Tirupur,Tamil Nadu,11.1085,77.3411,31.3,58,0.0,976.7,8.35,51.1,73,33.9,20.1,7.4,201.0,79.0,4.8,0,5,7,1,2026-06-16T10:11:54.808490+05:30
Alappuzha,Kerala,9.4981,76.3388,28.3,78,0.0,1011.1,8.0,33.8,61,20.2,12.0,6.0,101.0,64.0,4.3,7,0,4,1,2026-06-16T10:11:54.808496+05:30
Munnar,Kerala,10.0889,77.0595,22.1,69,0.0,859.6,8.65,28.8,52,10.3,5.5,2.7,122.0,62.0,2.1,3,5,7,1,2026-06-16T10:11:54.808503+05:30
Silchar,Assam,24.8333,92.7789,30.2,75,0.0,1004.0,8.75,24.8,110,25.0,20.2,1.0,211.0,120.0,4.5,3,5,4,1,2026-06-16T10:11:54.808509+05:30
Dibrugarh,Assam,27.4728,94.912,30.6,73,0.0,994.1,8.55,20.2,61,16.2,14.2,1.1,269.0,133.0,1.3,3,5,7,1,2026-06-16T10:11:54.808515+05:30
