city,state,latitude,longitude,temp,humidity,rain,pressure,uv_index,wind_gusts,aqi,pm10,pm2_5,mosquito_risk,arthritis_risk,migraine_risk,frizz_risk,updated_at
Delhi,Delhi,28.6139,77.209,30.5,30,0.0,986.0,5.8,39.2,293,590.5,89.4,0,5,3,0,2026-03-03T15:17:40.685378+05:30
Mumbai,Maharashtra,19.076,72.8777,27.5,74,0.0,1008.5,7.35,28.8,106,50.8,44.6,7,0,4,1,2026-03-03T15:17:40.685423+05:30
Bangalore,Karnataka,12.9716,77.5946,31.9,25,0.0,912.4,9.1,38.2,110,29.3,28.6,0,5,7,0,2026-03-03T15:17:40.685439+05:30
Hyderabad,Telangana,17.385,78.4867,33.5,32,0.0,954.4,8.35,23.8,140,26.1,25.3,0,5,7,0,2026-03-03T15:17:40.685448+05:30
Chennai,Tamil Nadu,13.0827,80.2707,32.1,38,0.0,1008.5,8.8,29.5,116,38.2,33.5,0,0,4,0,2026-03-03T15:17:40.685457+05:30
Kolkata,West Bengal,22.5726,88.3639,31.5,30,0.0,1007.6,7.7,20.5,178,92.7,43.1,0,5,4,0,2026-03-03T15:17:40.685466+05:30
Pune,Maharashtra,18.5204,73.8567,36.8,22,0.0,949.2,7.9,33.1,84,20.4,20.1,0,5,10,0,2026-03-03T15:17:40.685479+05:30
Ahmedabad,Gujarat,23.0225,72.5714,36.8,21,0.0,1004.2,7.15,15.5,101,27.0,16.7,0,5,7,0,2026-03-03T15:17:40.685487+05:30
Jaipur,Rajasthan,26.9124,75.7873,34.1,12,0.0,963.6,6.6,31.0,101,122.9,27.2,0,5,7,0,2026-03-03T15:17:40.685495+05:30
Lucknow,Uttar Pradesh,26.8467,80.9462,30.6,32,0.0,996.2,6.3,38.5,152,115.9,40.5,0,5,7,0,2026-03-03T15:17:40.685502+05:30
Kanpur,Uttar Pradesh,26.4499,80.3319,30.9,31,0.0,994.7,6.3,31.7,180,261.7,48.7,0,5,7,0,2026-03-03T15:17:40.685509+05:30
Chandigarh,Chandigarh,30.7333,76.7794,28.8,31,0.0,971.2,5.7,35.6,83,29.1,25.4,4,5,3,0,2026-03-03T15:17:40.685517+05:30
Srinagar,Jammu and Kashmir,34.0837,74.7973,20.4,16,0.0,845.7,6.6,15.8,140,24.3,18.0,0,5,7,1,2026-03-03T15:17:40.685524+05:30
Jammu,Jammu and Kashmir,32.7266,74.857,29.3,37,0.0,974.9,6.3,23.8,101,27.9,20.3,4,5,7,0,2026-03-03T15:17:40.685532+05:30
Amritsar,Punjab,31.634,74.8723,30.1,30,0.0,983.6,6.25,29.5,85,20.5,15.1,0,5,7,0,2026-03-03T15:17:40.685539+05:30
Ludhiana,Punjab,30.901,75.8573,29.6,31,0.0,981.7,5.9,31.7,136,57.2,34.1,4,5,3,0,2026-03-03T15:17:40.685547+05:30
Jalandhar,Punjab,31.326,75.5762,29.4,33,0.0,982.7,6.1,27.0,138,51.7,26.2,4,5,7,0,2026-03-03T15:17:40.685555+05:30
Dehradun,Uttarakhand,30.6284,78.0322,20.6,42,0.0,832.4,6.05,31.3,57,17.6,13.0,0,5,7,0,2026-03-03T15:17:40.685562+05:30
Shimla,Himachal Pradesh,31.1048,77.1734,19.1,41,0.0,787.9,6.1,44.3,71,15.9,9.7,0,5,7,0,2026-03-03T15:17:40.685569+05:30
Manali,Himachal Pradesh,32.2396,77.1887,24.4,25,0.0,823.4,7.7,34.6,54,9.1,5.6,0,5,7,0,2026-03-03T15:17:40.685576+05:30
Gurgaon,Haryana,28.4595,77.0266,30.6,30,0.0,984.7,5.9,36.0,1098,1832.8,187.7,0,5,3,0,2026-03-03T15:17:40.685582+05:30
Noida,Uttar Pradesh,28.5355,77.391,30.9,28,0.0,987.5,5.85,38.5,1098,1832.8,187.7,0,5,3,0,2026-03-03T15:17:40.685590+05:30
Ghaziabad,Uttar Pradesh,28.6692,77.4538,30.0,34,0.0,985.6,5.8,38.2,198,432.1,70.8,4,5,3,0,2026-03-03T15:17:40.685598+05:30
Faridabad,Haryana,28.4089,77.3178,30.1,31,0.0,987.0,5.85,35.3,1098,1832.8,187.7,0,5,3,0,2026-03-03T15:17:40.685604+05:30
Meerut,Uttar Pradesh,28.9845,77.7064,30.4,32,0.0,984.0,5.65,43.9,198,432.1,70.8,0,5,3,0,2026-03-03T15:17:40.685610+05:30
Agra,Uttar Pradesh,27.1767,78.0081,32.2,23,0.0,991.2,6.15,31.0,458,622.1,68.0,0,5,7,0,2026-03-03T15:17:40.685616+05:30
Varanasi,Uttar Pradesh,25.3176,82.9739,30.0,38,0.0,1000.4,6.95,25.6,99,69.6,32.7,4,5,4,0,2026-03-03T15:17:40.685625+05:30
Prayagraj,Uttar Pradesh,25.4358,81.8463,30.4,41,0.0,999.0,6.8,25.6,117,63.1,32.2,0,5,7,0,2026-03-03T15:17:40.685632+05:30
Gorakhpur,Uttar Pradesh,26.7606,83.3732,28.8,43,0.0,999.8,6.7,19.4,148,128.5,48.3,4,5,7,0,2026-03-03T15:17:40.685639+05:30
Bareilly,Uttar Pradesh,28.367,79.4304,29.1,41,0.0,989.1,6.0,32.0,124,68.0,40.4,4,5,3,0,2026-03-03T15:17:40.685647+05:30
Aligarh,Uttar Pradesh,27.8974,78.088,30.7,29,0.0,988.7,5.95,37.1,605,1017.0,125.3,0,5,3,0,2026-03-03T15:17:40.685654+05:30
Moradabad,Uttar Pradesh,28.8386,78.7733,29.9,33,0.0,985.8,5.8,31.7,131,83.8,42.0,4,5,3,0,2026-03-03T15:17:40.685660+05:30
Saharanpur,Uttar Pradesh,29.9637,77.546,29.3,26,0.0,977.3,5.45,47.9,123,110.8,36.7,4,5,3,0,2026-03-03T15:17:40.685666+05:30
Jhansi,Uttar Pradesh,25.4484,78.5685,33.6,25,0.0,981.2,6.75,27.0,87,63.1,26.4,0,5,7,0,2026-03-03T15:17:44.031083+05:30
Surat,Gujarat,21.1702,72.8311,33.7,44,0.0,1008.4,7.05,26.3,161,55.4,51.2,0,0,4,1,2026-03-03T15:17:44.031117+05:30
Vadodara,Gujarat,22.3072,73.1812,37.6,21,0.0,1006.0,7.15,13.3,154,27.9,23.0,0,5,7,0,2026-03-03T15:17:44.031129+05:30
Rajkot,Gujarat,22.3039,70.8022,36.1,21,0.0,996.5,7.0,18.0,63,17.3,11.3,0,5,10,0,2026-03-03T15:17:44.031160+05:30
Thane,Maharashtra,19.2183,72.9781,32.1,46,0.0,1008.5,7.35,39.6,106,50.8,44.6,0,0,4,1,2026-03-03T15:17:44.031171+05:30
Nagpur,Maharashtra,21.1458,79.0882,34.4,23,0.0,975.0,7.75,18.0,69,28.4,20.2,0,5,7,0,2026-03-03T15:17:44.031180+05:30
Nashik,Maharashtra,19.9975,73.7898,35.0,21,0.0,947.1,7.55,32.0,85,21.7,20.8,0,5,7,0,2026-03-03T15:17:44.031188+05:30
Aurangabad,Maharashtra,19.8762,75.3433,34.6,25,0.0,945.7,8.05,25.2,93,20.0,18.8,0,5,7,0,2026-03-03T15:17:44.031198+05:30
Solapur,Maharashtra,17.6599,75.9064,34.3,32,0.0,957.9,8.3,18.0,119,33.5,32.8,0,5,7,0,2026-03-03T15:17:44.031205+05:30
Kolhapur,Maharashtra,16.705,74.2433,34.4,29,0.0,948.2,8.4,41.4,130,49.8,49.0,0,5,7,0,2026-03-03T15:17:44.031212+05:30
Goa,Goa,15.2993,74.124,30.6,67,0.0,997.4,8.45,35.6,74,29.0,23.7,3,5,7,1,2026-03-03T15:17:44.031219+05:30
Jodhpur,Rajasthan,26.2389,73.0243,35.4,19,0.0,986.7,6.85,15.5,72,53.4,15.6,0,5,10,0,2026-03-03T15:17:44.031226+05:30
Udaipur,Rajasthan,24.5854,73.7125,33.3,22,0.0,950.2,7.45,18.7,65,31.1,16.1,0,5,7,0,2026-03-03T15:17:44.031233+05:30
Kota,Rajasthan,25.2138,75.8648,34.9,22,0.0,982.1,6.85,21.2,87,47.5,20.3,0,5,7,0,2026-03-03T15:17:44.031239+05:30
Bikaner,Rajasthan,28.0229,73.3119,33.3,25,0.0,986.1,6.55,20.9,69,45.2,17.6,0,5,7,0,2026-03-03T15:17:44.031246+05:30
Ajmer,Rajasthan,26.4499,74.6399,33.3,14,0.0,958.6,6.8,25.6,76,40.6,16.1,0,5,7,0,2026-03-03T15:17:44.031252+05:30
Gwalior,Madhya Pradesh,26.2183,78.1828,31.4,35,0.0,986.8,6.45,29.5,127,43.4,22.0,0,5,7,0,2026-03-03T15:17:44.031258+05:30
Indore,Madhya Pradesh,22.7196,75.8577,32.6,27,0.0,951.1,7.45,16.6,91,20.3,16.1,0,5,7,0,2026-03-03T15:17:44.031265+05:30
Bhopal,Madhya Pradesh,23.2599,77.4126,32.5,29,0.0,956.9,7.3,23.8,79,27.2,17.6,0,5,7,0,2026-03-03T15:17:44.031271+05:30
Jabalpur,Madhya Pradesh,23.1815,79.9864,32.2,29,0.0,964.3,7.4,21.6,71,27.6,14.9,0,5,7,0,2026-03-03T15:17:44.031277+05:30
Ujjain,Madhya Pradesh,23.1765,75.7885,32.5,30,0.0,957.0,7.3,15.5,104,22.6,18.1,0,5,7,0,2026-03-03T15:17:44.031284+05:30
Visakhapatnam,Andhra Pradesh,17.6868,83.2185,32.9,38,0.0,1004.5,8.35,36.0,132,53.9,50.1,0,5,4,1,2026-03-03T15:17:44.031290+05:30
Vijayawada,Andhra Pradesh,16.5062,80.648,35.0,34,0.0,1002.9,8.4,25.9,138,45.9,44.1,0,5,4,1,2026-03-03T15:17:44.031296+05:30
Guntur,Andhra Pradesh,16.3067,80.4365,35.9,28,0.0,1004.1,8.4,28.4,130,39.8,38.1,0,5,7,0,2026-03-03T15:17:44.031303+05:30
Nellore,Andhra Pradesh,14.4426,79.9865,34.8,26,0.0,1006.7,8.65,29.2,113,38.0,34.1,0,5,4,0,2026-03-03T15:17:44.031310+05:30
Kurnool,Andhra Pradesh,15.8281,78.0373,36.7,24,0.0,977.2,8.45,28.8,120,30.0,28.9,0,5,10,0,2026-03-03T15:17:44.031317+05:30
Kakinada,Andhra Pradesh,16.9891,82.2475,35.5,34,0.0,1007.5,8.35,35.3,127,46.3,42.0,0,5,7,1,2026-03-03T15:17:44.031324+05:30
Tirupati,Andhra Pradesh,13.6288,79.4192,34.7,24,0.0,991.9,8.75,36.0,152,37.4,35.3,0,5,7,0,2026-03-03T15:17:44.031331+05:30
Warangal,Telangana,17.9689,79.5941,34.7,32,0.0,979.7,8.2,16.2,150,23.7,22.1,0,5,7,0,2026-03-03T15:17:44.031338+05:30
Nizamabad,Telangana,18.6725,78.0941,34.7,25,0.0,966.2,8.1,26.3,92,20.3,17.7,0,5,7,0,2026-03-03T15:17:44.031344+05:30
Mysore,Karnataka,12.2958,76.6396,33.0,25,0.0,928.4,9.15,33.8,134,29.2,28.3,0,5,7,0,2026-03-03T15:17:44.031350+05:30
Mangalore,Karnataka,12.9141,74.856,28.3,77,0.0,1006.0,8.75,28.8,63,29.0,24.2,7,5,4,1,2026-03-03T15:17:44.031357+05:30
Hubli-Dharwad,Karnataka,15.3647,75.124,34.8,27,0.0,940.9,8.65,29.2,92,38.6,37.7,0,5,7,0,2026-03-03T15:17:44.031363+05:30
Belgaum,Karnataka,15.8497,74.4977,34.1,28,0.0,926.2,8.65,33.5,110,43.9,43.1,0,5,7,0,2026-03-03T15:17:47.374231+05:30
Coimbatore,Tamil Nadu,11.0168,76.9558,33.7,26,0.0,961.6,9.15,42.1,126,28.8,27.9,0,5,7,0,2026-03-03T15:17:47.374266+05:30
Madurai,Tamil Nadu,9.9252,78.1198,34.8,31,0.0,992.5,9.1,32.4,115,27.0,24.9,0,5,7,0,2026-03-03T15:17:47.374278+05:30
Trichy,Tamil Nadu,10.7905,78.7047,35.3,25,0.0,999.4,9.0,29.9,117,26.7,24.4,0,5,10,0,2026-03-03T15:17:47.374288+05:30
Salem,Tamil Nadu,11.6643,78.146,36.4,22,0.0,976.7,9.05,38.5,137,33.3,32.1,0,5,10,0,2026-03-03T15:17:47.374297+05:30
Tirunelveli,Tamil Nadu,8.7139,77.7567,35.9,26,0.0,1002.5,9.1,40.0,107,22.8,21.2,0,5,7,0,2026-03-03T15:17:47.374306+05:30
Vellore,Tamil Nadu,12.9165,79.1325,34.0,25,0.0,985.0,8.85,38.2,150,33.4,31.1,0,5,7,0,2026-03-03T15:17:47.374315+05:30
Erode,Tamil Nadu,11.341,77.7172,36.2,26,0.0,988.2,9.05,33.5,118,39.0,37.8,0,5,10,0,2026-03-03T15:17:47.374323+05:30
Kochi,Kerala,9.9312,76.2673,28.3,77,0.0,1007.6,8.95,32.8,107,36.7,34.9,7,5,4,1,2026-03-03T15:17:47.374333+05:30
Thiruvananthapuram,Kerala,8.5241,76.9366,27.9,76,0.0,1007.5,9.0,27.4,96,35.6,33.4,7,5,4,1,2026-03-03T15:17:47.374341+05:30
Kozhikode,Kerala,11.2588,75.7804,29.5,74,0.0,1007.2,8.85,34.2,66,22.2,18.3,7,5,4,1,2026-03-03T15:17:47.374349+05:30
Thrissur,Kerala,10.5276,76.2144,31.6,61,0.0,1006.0,8.95,42.5,107,34.6,33.5,3,5,4,1,2026-03-03T15:17:47.374358+05:30
Kannur,Kerala,11.8745,75.3704,30.4,67,0.0,1006.5,8.85,36.4,62,26.2,21.9,3,5,4,1,2026-03-03T15:17:47.374366+05:30
Patna,Bihar,25.5941,85.1376,30.0,37,0.0,1003.2,7.1,19.4,143,214.2,58.4,4,5,4,0,2026-03-03T15:17:47.374374+05:30
Gaya,Bihar,24.7914,85.0002,29.5,36,0.0,996.6,7.2,25.9,95,119.2,35.4,4,5,7,0,2026-03-03T15:17:47.374382+05:30
Muzaffarpur,Bihar,26.1209,85.3647,30.0,35,0.0,1003.2,7.05,11.2,153,159.7,53.4,4,5,4,0,2026-03-03T15:17:47.374389+05:30
Bhagalpur,Bihar,25.2425,87.0117,28.6,36,0.0,1004.0,7.15,14.4,123,71.0,43.2,4,5,4,0,2026-03-03T15:17:47.374397+05:30
Ranchi,Jharkhand,23.3441,85.3096,29.2,22,0.0,940.1,7.9,44.3,72,54.7,20.8,4,5,7,0,2026-03-03T15:17:47.374404+05:30
Jamshedpur,Jharkhand,22.8046,86.2029,32.9,23,0.0,992.4,7.8,14.4,93,82.9,28.9,0,5,7,0,2026-03-03T15:17:47.374411+05:30
Dhanbad,Jharkhand,23.7957,86.4304,33.6,18,0.0,981.4,7.65,32.8,100,88.0,28.7,0,5,7,0,2026-03-03T15:17:47.374419+05:30
Bokaro,Jharkhand,23.6693,86.1511,33.0,18,0.0,985.4,7.65,36.4,103,81.7,27.2,0,5,7,0,2026-03-03T15:17:47.374427+05:30
Bhubaneswar,Odisha,20.2961,85.8245,36.2,15,0.0,1003.4,8.1,27.0,152,45.9,27.2,0,5,7,0,2026-03-03T15:17:47.374436+05:30
Cuttack,Odisha,20.4625,85.8828,35.8,18,0.0,1005.6,8.1,25.2,152,45.9,27.2,0,5,7,0,2026-03-03T15:17:47.374443+05:30
Rourkela,Odisha,22.2604,84.8536,34.3,23,0.0,986.6,7.7,25.9,81,60.5,24.5,0,5,7,0,2026-03-03T15:17:47.374450+05:30
Raipur,Chhattisgarh,21.2514,81.6296,34.5,19,0.0,976.6,7.8,14.4,116,34.8,23.2,0,5,7,0,2026-03-03T15:17:47.374457+05:30
Bhilai,Chhattisgarh,21.1938,81.3509,34.6,21,0.0,976.9,7.8,13.7,114,36.4,25.1,0,5,7,0,2026-03-03T15:17:47.374465+05:30
Guwahati,Assam,26.1158,91.7086,28.8,41,0.0,1003.6,7.1,22.0,155,91.5,68.9,4,5,4,0,2026-03-03T15:17:47.374471+05:30
Agartala,Tripura,23.8315,91.2868,28.5,56,0.0,1007.9,7.5,15.8,181,79.9,61.9,4,5,4,1,2026-03-03T15:17:47.374479+05:30
Shillong,Meghalaya,25.5788,91.8933,17.5,41,0.0,857.3,7.45,28.1,141,82.2,58.9,0,5,7,0,2026-03-03T15:17:47.374485+05:30
Imphal,Manipur,24.817,93.9368,21.0,49,0.0,924.1,7.65,28.8,161,68.0,59.4,0,5,7,0,2026-03-03T15:17:47.374491+05:30
Aizawl,Mizoram,23.7271,92.7176,23.4,39,0.0,894.2,7.65,32.8,162,48.2,38.2,0,5,7,0,2026-03-03T15:17:47.374498+05:30
Kohima,Nagaland,25.6701,94.1077,15.9,69,0.0,855.4,6.65,45.0,153,77.3,60.5,3,5,7,0,2026-03-03T15:17:47.374504+05:30
Gangtok,Sikkim,27.3314,88.6138,16.3,68,0.0,838.9,7.4,18.4,150,73.8,53.8,3,5,7,0,2026-03-03T15:17:47.374510+05:30
Siliguri,West Bengal,26.7271,88.3953,22.1,66,0.0,997.0,7.1,20.2,165,85.2,54.6,3,5,7,0,2026-03-03T15:17:50.722185+05:30
Durgapur,West Bengal,23.5204,87.3119,33.6,21,0.0,996.6,7.65,28.4,87,85.9,29.6,0,5,7,0,2026-03-03T15:17:50.722216+05:30
Asansol,West Bengal,23.6739,86.9524,33.5,21,0.0,995.2,7.65,23.8,83,86.8,28.6,0,5,7,0,2026-03-03T15:17:50.722226+05:30
Pondicherry,Puducherry,11.9139,79.8145,33.1,37,0.0,1008.8,8.85,25.9,108,36.3,32.1,0,0,4,1,2026-03-03T15:17:50.722234+05:30
Port Blair,Andaman and Nicobar Islands,11.6234,92.7265,27.7,75,0.0,1007.0,8.8,17.6,84,39.0,28.3,7,5,4,1,2026-03-03T15:17:50.722242+05:30
Haridwar,Uttarakhand,29.9457,78.1642,29.2,43,0.0,976.0,5.55,23.0,99,48.8,34.1,4,5,3,0,2026-03-03T15:17:50.722249+05:30
Rishikesh,Uttarakhand,30.0869,78.2676,27.6,44,0.0,968.9,5.6,23.8,76,30.3,25.3,4,5,3,0,2026-03-03T15:17:50.722257+05:30
Nainital,Uttarakhand,29.3919,79.4542,19.1,67,0.0,807.8,6.45,51.5,84,48.7,36.3,3,5,7,0,2026-03-03T15:17:50.722264+05:30
Mussoorie,Uttarakhand,30.4599,78.0664,20.1,46,0.0,805.0,5.95,40.0,79,34.7,29.8,0,5,3,0,2026-03-03T15:17:50.722270+05:30
Dharamshala,Himachal Pradesh,32.219,76.3234,23.8,46,0.0,871.9,6.2,23.0,52,12.3,7.0,0,5,7,0,2026-03-03T15:17:50.722277+05:30
Dalhousie,Himachal Pradesh,32.5387,75.971,23.1,27,0.0,807.6,6.4,20.5,89,22.2,16.8,0,5,7,0,2026-03-03T15:17:50.722285+05:30
Patiala,Punjab,30.3398,76.3869,29.6,30,0.0,980.9,5.6,36.4,208,489.9,72.6,4,5,3,0,2026-03-03T15:17:50.722291+05:30
Bhatinda,Punjab,30.211,74.9455,30.8,30,0.0,987.1,6.25,30.2,134,58.6,36.7,0,5,7,0,2026-03-03T15:17:50.722297+05:30
Rohtak,Haryana,28.8955,76.6066,30.4,32,0.0,985.0,5.8,36.4,430,825.2,101.7,0,5,3,0,2026-03-03T15:17:50.722304+05:30
Panipat,Haryana,29.3909,76.9635,30.1,33,0.0,983.2,5.6,40.7,975,1631.7,173.2,0,5,3,0,2026-03-03T15:17:50.722310+05:30
Mathura,Uttar Pradesh,27.4924,77.6737,31.8,26,0.0,990.3,6.1,30.6,509,791.6,84.3,0,5,7,0,2026-03-03T15:17:50.722317+05:30
Vrindavan,Uttar Pradesh,27.5823,77.7027,31.2,28,0.0,990.6,6.05,33.8,509,791.6,84.3,0,5,7,0,2026-03-03T15:17:50.722323+05:30
Ayodhya,Uttar Pradesh,26.7922,82.1998,29.8,38,0.0,997.9,6.45,28.8,141,86.4,46.1,4,5,7,0,2026-03-03T15:17:50.722329+05:30
Ratlam,Madhya Pradesh,23.3315,75.0367,32.9,29,0.0,957.8,7.3,12.2,91,22.9,17.9,0,5,7,0,2026-03-03T15:17:50.722335+05:30
Sagar,Madhya Pradesh,23.8388,78.7378,31.9,28,0.0,953.4,7.25,27.4,63,39.9,16.1,0,5,7,0,2026-03-03T15:17:50.722341+05:30
Satna,Madhya Pradesh,24.6005,80.8322,33.4,22,0.0,974.0,7.2,33.1,73,60.3,23.3,0,5,7,0,2026-03-03T15:17:50.722347+05:30
Akola,Maharashtra,20.7002,77.0082,35.9,24,0.0,976.7,7.8,20.2,77,23.1,19.8,0,5,10,0,2026-03-03T15:17:50.722354+05:30
Amravati,Maharashtra,20.9374,77.7796,35.5,23,0.0,969.1,7.75,16.6,75,21.9,17.9,0,5,10,0,2026-03-03T15:17:50.722361+05:30
Latur,Maharashtra,18.4088,76.5604,33.5,26,0.0,941.3,8.2,31.0,91,23.8,23.1,0,5,7,0,2026-03-03T15:17:50.722367+05:30
Nanded,Maharashtra,19.1383,77.3091,35.9,24,0.0,969.9,8.0,20.9,95,18.5,16.1,0,5,10,0,2026-03-03T15:17:50.722373+05:30
Gulbarga,Karnataka,17.3297,76.8343,35.5,27,0.0,959.4,8.3,18.7,132,32.7,31.9,0,5,10,0,2026-03-03T15:17:50.722379+05:30
Bidar,Karnataka,17.9104,77.5199,34.2,25,0.0,936.9,8.25,21.6,105,23.6,22.6,0,5,7,0,2026-03-03T15:17:50.722385+05:30
Hospet,Karnataka,15.2689,76.3909,35.0,27,0.0,956.1,8.6,26.3,110,39.6,38.6,0,5,7,0,2026-03-03T15:17:50.722391+05:30
Tirupur,Tamil Nadu,11.1085,77.3411,35.5,22,0.0,974.8,9.15,31.7,130,38.3,37.3,0,5,10,0,2026-03-03T15:17:50.722398+05:30
Alappuzha,Kerala,9.4981,76.3388,28.0,80,0.0,1008.1,8.95,28.4,95,35.9,33.5,7,0,4,1,2026-03-03T15:17:50.722403+05:30
Munnar,Kerala,10.0889,77.0595,30.0,30,0.0,858.6,9.45,20.2,104,28.9,27.8,4,5,7,0,2026-03-03T15:17:50.722410+05:30
Silchar,Assam,24.8333,92.7789,29.9,35,0.0,1006.3,7.4,20.2,162,70.5,54.0,4,5,4,0,2026-03-03T15:17:50.722416+05:30
Dibrugarh,Assam,27.4728,94.912,26.4,54,0.0,997.6,7.1,11.2,155,66.8,46.2,4,5,7,1,2026-03-03T15:17:50.722422+05:30
