city,state,latitude,longitude,temp,humidity,rain,pressure,uv_index,wind_gusts,aqi,pm10,pm2_5,mosquito_risk,arthritis_risk,migraine_risk,frizz_risk,updated_at
Delhi,Delhi,28.6139,77.209,24.3,56,0.0,986.5,6.45,28.4,160,478.7,90.6,0,5,7,0,2026-03-22T20:01:23.469747+05:30
Mumbai,Maharashtra,19.076,72.8777,29.4,57,0.0,1009.7,7.9,28.4,187,57.0,40.3,4,0,4,1,2026-03-22T20:01:23.469790+05:30
Bangalore,Karnataka,12.9716,77.5946,25.4,60,0.0,913.0,9.45,25.2,135,58.3,48.3,4,5,7,1,2026-03-22T20:01:23.469806+05:30
Hyderabad,Telangana,17.385,78.4867,27.5,59,0.0,955.2,8.9,26.6,147,55.4,41.6,4,5,7,1,2026-03-22T20:01:23.469816+05:30
Chennai,Tamil Nadu,13.0827,80.2707,28.0,73,0.0,1009.6,9.15,32.4,38,12.5,7.7,7,0,4,1,2026-03-22T20:01:23.469830+05:30
Kolkata,West Bengal,22.5726,88.3639,24.3,65,0.0,1010.2,8.25,16.6,146,72.9,70.3,3,0,4,1,2026-03-22T20:01:23.469840+05:30
Pune,Maharashtra,18.5204,73.8567,29.0,40,0.0,950.1,8.45,29.5,123,21.6,15.6,4,5,7,0,2026-03-22T20:01:23.469853+05:30
Ahmedabad,Gujarat,23.0225,72.5714,29.8,35,0.0,1005.1,7.65,22.7,96,51.5,26.7,4,5,4,0,2026-03-22T20:01:23.469862+05:30
Jaipur,Rajasthan,26.9124,75.7873,26.9,41,0.0,962.8,7.25,29.9,98,103.4,32.9,4,5,7,0,2026-03-22T20:01:23.469870+05:30
Lucknow,Uttar Pradesh,26.8467,80.9462,24.6,50,0.0,997.3,6.95,26.6,117,211.9,47.4,0,5,7,0,2026-03-22T20:01:23.469879+05:30
Kanpur,Uttar Pradesh,26.4499,80.3319,23.4,65,0.0,995.6,7.0,27.7,139,432.1,69.8,3,5,7,1,2026-03-22T20:01:23.469887+05:30
Chandigarh,Chandigarh,30.7333,76.7794,19.4,74,0.0,972.1,6.4,33.1,132,41.3,38.2,3,5,7,0,2026-03-22T20:01:23.469896+05:30
Srinagar,Jammu and Kashmir,34.0837,74.7973,12.8,59,0.0,840.3,7.5,14.0,146,53.7,43.1,0,5,7,0,2026-03-22T20:01:23.469903+05:30
Jammu,Jammu and Kashmir,32.7266,74.857,21.9,65,0.0,975.8,6.85,22.0,109,51.1,45.9,3,5,7,0,2026-03-22T20:01:23.469911+05:30
Amritsar,Punjab,31.634,74.8723,21.3,66,0.0,984.4,7.05,20.5,157,71.5,49.8,3,5,7,0,2026-03-22T20:01:23.469919+05:30
Ludhiana,Punjab,30.901,75.8573,21.6,65,0.0,982.7,6.6,26.6,133,90.8,54.5,3,5,7,0,2026-03-22T20:01:23.469927+05:30
Jalandhar,Punjab,31.326,75.5762,22.0,65,0.0,983.7,6.85,21.6,151,86.8,54.2,3,5,7,0,2026-03-22T20:01:23.469937+05:30
Dehradun,Uttarakhand,30.6284,78.0322,12.4,77,0.0,830.1,6.8,24.1,127,34.1,29.5,3,5,7,0,2026-03-22T20:01:23.469944+05:30
Shimla,Himachal Pradesh,31.1048,77.1734,9.9,88,0.0,783.5,6.85,41.0,114,32.9,28.8,3,10,7,0,2026-03-22T20:01:23.469952+05:30
Manali,Himachal Pradesh,32.2396,77.1887,13.2,55,0.0,818.5,8.9,33.8,146,20.8,12.1,0,5,7,0,2026-03-22T20:01:23.469961+05:30
Gurgaon,Haryana,28.4595,77.0266,22.8,63,0.0,984.9,6.55,23.8,456,564.4,101.0,3,5,7,0,2026-03-22T20:01:23.469969+05:30
Noida,Uttar Pradesh,28.5355,77.391,24.1,55,0.0,988.1,6.45,27.7,456,564.4,101.0,0,5,7,0,2026-03-22T20:01:23.469978+05:30
Ghaziabad,Uttar Pradesh,28.6692,77.4538,23.0,61,0.0,986.2,6.45,28.1,152,436.8,82.2,3,5,7,0,2026-03-22T20:01:23.469985+05:30
Faridabad,Haryana,28.4089,77.3178,23.0,59,0.0,987.3,6.5,24.8,456,564.4,101.0,0,5,7,0,2026-03-22T20:01:23.469992+05:30
Meerut,Uttar Pradesh,28.9845,77.7064,21.2,66,0.0,984.8,6.3,31.7,152,436.8,82.2,3,5,7,0,2026-03-22T20:01:23.470000+05:30
Agra,Uttar Pradesh,27.1767,78.0081,24.0,53,0.0,991.4,6.45,29.9,537,409.8,71.0,0,5,7,0,2026-03-22T20:01:23.470007+05:30
Varanasi,Uttar Pradesh,25.3176,82.9739,23.2,62,0.0,1002.0,7.1,28.4,113,44.7,39.5,3,5,4,0,2026-03-22T20:01:23.470017+05:30
Prayagraj,Uttar Pradesh,25.4358,81.8463,24.1,55,0.0,1000.4,7.5,24.8,118,57.9,34.2,0,5,4,0,2026-03-22T20:01:23.470024+05:30
Gorakhpur,Uttar Pradesh,26.7606,83.3732,21.1,74,0.0,1001.6,7.25,11.2,159,31.4,29.1,3,5,4,1,2026-03-22T20:01:23.470032+05:30
Bareilly,Uttar Pradesh,28.367,79.4304,21.3,68,0.0,990.0,6.65,29.5,126,85.2,38.4,3,5,7,0,2026-03-22T20:01:23.470039+05:30
Aligarh,Uttar Pradesh,27.8974,78.088,22.5,61,0.0,989.1,6.6,27.7,323,700.4,108.3,3,5,7,0,2026-03-22T20:01:23.470047+05:30
Moradabad,Uttar Pradesh,28.8386,78.7733,21.1,66,0.0,986.9,6.5,30.6,137,95.5,41.0,3,5,7,0,2026-03-22T20:01:23.470053+05:30
Saharanpur,Uttar Pradesh,29.9637,77.546,20.0,67,0.0,978.9,6.15,34.2,150,277.5,65.2,3,5,7,0,2026-03-22T20:01:23.470060+05:30
Jhansi,Uttar Pradesh,25.4484,78.5685,25.5,44,0.0,981.7,7.45,32.4,89,50.9,20.9,4,5,7,0,2026-03-22T20:01:26.699155+05:30
Surat,Gujarat,21.1702,72.8311,28.4,50,0.0,1009.3,7.65,24.5,106,67.3,50.3,4,0,4,1,2026-03-22T20:01:26.699195+05:30
Vadodara,Gujarat,22.3072,73.1812,29.4,42,0.0,1006.8,7.8,20.2,139,46.2,31.4,4,5,4,0,2026-03-22T20:01:26.699209+05:30
Rajkot,Gujarat,22.3039,70.8022,29.3,38,0.0,997.8,7.6,28.8,65,44.5,18.3,4,5,7,0,2026-03-22T20:01:26.699221+05:30
Thane,Maharashtra,19.2183,72.9781,29.6,42,0.0,1009.1,7.85,41.0,187,57.0,40.3,4,0,4,0,2026-03-22T20:01:26.699232+05:30
Nagpur,Maharashtra,21.1458,79.0882,29.1,31,0.0,975.8,8.35,19.4,114,35.9,25.0,4,5,7,0,2026-03-22T20:01:26.699243+05:30
Nashik,Maharashtra,19.9975,73.7898,26.7,35,0.0,947.8,8.1,28.8,91,28.8,19.6,4,5,7,0,2026-03-22T20:01:26.699253+05:30
Aurangabad,Maharashtra,19.8762,75.3433,28.0,33,0.0,946.4,8.6,28.4,115,24.2,17.6,4,5,7,0,2026-03-22T20:01:26.699264+05:30
Solapur,Maharashtra,17.6599,75.9064,29.6,30,0.0,958.3,8.75,24.5,114,26.7,17.8,4,5,7,0,2026-03-22T20:01:26.699274+05:30
Kolhapur,Maharashtra,16.705,74.2433,26.0,51,0.0,949.2,8.85,33.1,109,40.6,33.3,4,5,7,0,2026-03-22T20:01:26.699284+05:30
Goa,Goa,15.2993,74.124,28.5,78,0.0,999.4,8.85,35.3,129,40.7,29.5,7,5,7,1,2026-03-22T20:01:26.699295+05:30
Jodhpur,Rajasthan,26.2389,73.0243,24.6,71,0.0,986.9,7.55,39.2,75,95.9,21.7,3,5,7,1,2026-03-22T20:01:26.699305+05:30
Udaipur,Rajasthan,24.5854,73.7125,25.9,40,0.0,949.8,8.15,26.6,71,33.4,13.0,4,5,7,0,2026-03-22T20:01:26.699315+05:30
Kota,Rajasthan,25.2138,75.8648,27.3,36,0.0,981.5,7.4,12.6,118,41.9,28.1,4,5,7,0,2026-03-22T20:01:26.699325+05:30
Bikaner,Rajasthan,28.0229,73.3119,26.1,54,0.0,985.6,7.1,22.3,70,57.5,17.8,4,5,7,1,2026-03-22T20:01:26.699335+05:30
Ajmer,Rajasthan,26.4499,74.6399,26.4,41,0.0,957.8,7.35,25.9,86,37.6,16.0,4,5,7,0,2026-03-22T20:01:26.699344+05:30
Gwalior,Madhya Pradesh,26.2183,78.1828,26.5,51,0.0,986.9,7.15,29.9,135,75.0,24.7,4,5,7,0,2026-03-22T20:01:26.699354+05:30
Indore,Madhya Pradesh,22.7196,75.8577,25.2,45,0.0,950.6,8.05,17.6,89,31.5,21.1,4,5,7,0,2026-03-22T20:01:26.699362+05:30
Bhopal,Madhya Pradesh,23.2599,77.4126,25.1,36,0.0,956.6,7.9,25.9,99,29.0,18.3,4,5,7,0,2026-03-22T20:01:26.699371+05:30
Jabalpur,Madhya Pradesh,23.1815,79.9864,25.2,48,0.0,964.9,8.05,29.9,86,45.1,20.0,4,5,7,0,2026-03-22T20:01:26.699381+05:30
Ujjain,Madhya Pradesh,23.1765,75.7885,25.7,50,0.0,956.3,8.0,13.3,78,38.4,26.8,4,5,7,0,2026-03-22T20:01:26.699390+05:30
Visakhapatnam,Andhra Pradesh,17.6868,83.2185,26.5,82,0.0,1006.7,8.85,36.7,81,23.7,18.7,7,5,4,1,2026-03-22T20:01:26.699399+05:30
Vijayawada,Andhra Pradesh,16.5062,80.648,27.8,72,0.0,1005.3,8.9,18.7,65,31.9,26.9,7,5,4,1,2026-03-22T20:01:26.699409+05:30
Guntur,Andhra Pradesh,16.3067,80.4365,27.2,77,0.0,1006.5,8.9,19.4,69,34.0,28.5,7,5,4,1,2026-03-22T20:01:26.699418+05:30
Nellore,Andhra Pradesh,14.4426,79.9865,27.2,78,0.0,1008.5,9.05,27.7,49,12.2,7.7,7,0,4,1,2026-03-22T20:01:26.699427+05:30
Kurnool,Andhra Pradesh,15.8281,78.0373,32.0,41,0.0,977.9,8.9,20.2,112,48.2,32.5,0,5,7,1,2026-03-22T20:01:26.699437+05:30
Kakinada,Andhra Pradesh,16.9891,82.2475,26.4,78,0.0,1010.2,8.8,28.8,41,16.8,11.0,7,0,4,1,2026-03-22T20:01:26.699446+05:30
Tirupati,Andhra Pradesh,13.6288,79.4192,28.0,63,0.0,993.9,9.2,28.4,79,22.8,18.8,7,5,7,1,2026-03-22T20:01:26.699455+05:30
Warangal,Telangana,17.9689,79.5941,27.8,62,0.0,981.1,8.75,21.2,140,69.8,54.9,7,5,7,1,2026-03-22T20:01:26.699464+05:30
Nizamabad,Telangana,18.6725,78.0941,28.6,44,0.0,966.6,8.65,27.4,123,41.2,34.6,4,5,7,0,2026-03-22T20:01:26.699473+05:30
Mysore,Karnataka,12.2958,76.6396,24.8,74,0.0,929.7,9.4,37.4,129,48.2,36.8,3,5,7,1,2026-03-22T20:01:26.699481+05:30
Mangalore,Karnataka,12.9141,74.856,29.3,75,0.0,1007.9,9.05,28.4,97,33.5,19.7,7,5,4,1,2026-03-22T20:01:26.699490+05:30
Hubli-Dharwad,Karnataka,15.3647,75.124,27.3,56,0.0,941.8,9.05,26.3,160,37.1,29.0,4,5,7,1,2026-03-22T20:01:26.699499+05:30
Belgaum,Karnataka,15.8497,74.4977,25.5,57,0.0,927.1,9.1,35.3,141,31.5,25.0,4,5,7,1,2026-03-22T20:01:29.921830+05:30
Coimbatore,Tamil Nadu,11.0168,76.9558,28.2,61,0.0,963.0,9.3,33.5,111,38.3,30.5,7,5,7,1,2026-03-22T20:01:29.921871+05:30
Madurai,Tamil Nadu,9.9252,78.1198,30.3,49,0.0,994.1,9.35,29.5,70,22.7,17.5,0,5,7,1,2026-03-22T20:01:29.921886+05:30
Trichy,Tamil Nadu,10.7905,78.7047,29.5,64,0.0,1000.9,9.25,23.8,68,23.6,20.0,7,5,4,1,2026-03-22T20:01:29.921899+05:30
Salem,Tamil Nadu,11.6643,78.146,29.9,51,0.0,978.1,9.3,21.2,111,34.3,26.5,4,5,7,1,2026-03-22T20:01:29.921910+05:30
Tirunelveli,Tamil Nadu,8.7139,77.7567,29.1,58,0.0,1004.4,9.3,33.1,85,17.8,14.3,4,5,4,1,2026-03-22T20:01:29.921921+05:30
Vellore,Tamil Nadu,12.9165,79.1325,27.9,62,0.0,986.6,9.25,34.9,92,22.1,17.9,7,5,7,1,2026-03-22T20:01:29.921932+05:30
Erode,Tamil Nadu,11.341,77.7172,31.1,47,0.0,989.6,9.3,32.8,91,29.7,23.7,0,5,7,1,2026-03-22T20:01:29.921942+05:30
Kochi,Kerala,9.9312,76.2673,29.6,75,0.0,1009.6,9.15,34.9,108,38.3,31.8,7,0,4,1,2026-03-22T20:01:29.921953+05:30
Thiruvananthapuram,Kerala,8.5241,76.9366,28.4,81,0.0,1009.3,9.15,26.3,114,18.0,13.2,7,0,4,1,2026-03-22T20:01:29.921964+05:30
Kozhikode,Kerala,11.2588,75.7804,29.5,77,0.0,1008.7,9.1,31.0,63,31.9,17.1,7,0,4,1,2026-03-22T20:01:29.921974+05:30
Thrissur,Kerala,10.5276,76.2144,28.9,77,0.0,1007.8,9.1,38.2,86,37.3,29.2,7,5,4,1,2026-03-22T20:01:29.921985+05:30
Kannur,Kerala,11.8745,75.3704,29.3,76,0.0,1008.2,9.05,34.9,68,36.8,19.0,7,0,4,1,2026-03-22T20:01:29.921995+05:30
Patna,Bihar,25.5941,85.1376,23.4,62,0.0,1005.1,7.55,19.1,160,62.4,58.6,3,5,4,0,2026-03-22T20:01:29.922005+05:30
Gaya,Bihar,24.7914,85.0002,22.3,70,0.0,998.6,7.5,21.6,140,47.7,41.4,3,5,7,1,2026-03-22T20:01:29.922016+05:30
Muzaffarpur,Bihar,26.1209,85.3647,21.9,68,0.0,1005.1,6.15,11.5,162,72.6,67.8,3,5,4,0,2026-03-22T20:01:29.922026+05:30
Bhagalpur,Bihar,25.2425,87.0117,22.2,70,0.0,1005.9,7.05,17.3,155,65.4,59.4,3,5,4,1,2026-03-22T20:01:29.922036+05:30
Ranchi,Jharkhand,23.3441,85.3096,21.2,51,0.0,940.8,8.45,29.5,120,49.7,25.2,0,5,7,0,2026-03-22T20:01:29.922047+05:30
Jamshedpur,Jharkhand,22.8046,86.2029,26.5,41,0.0,994.6,8.35,19.1,118,55.1,32.4,4,5,7,0,2026-03-22T20:01:29.922057+05:30
Dhanbad,Jharkhand,23.7957,86.4304,23.8,52,0.0,983.9,8.2,23.8,135,50.2,40.4,0,5,7,0,2026-03-22T20:01:29.922067+05:30
Bokaro,Jharkhand,23.6693,86.1511,23.4,56,0.0,988.1,8.2,24.5,134,57.0,39.6,0,5,7,0,2026-03-22T20:01:29.922078+05:30
Bhubaneswar,Odisha,20.2961,85.8245,25.9,78,0.0,1006.0,8.65,28.4,148,33.8,29.9,7,5,4,1,2026-03-22T20:01:29.922089+05:30
Cuttack,Odisha,20.4625,85.8828,26.6,65,0.0,1007.8,8.65,20.9,148,33.8,29.9,7,5,4,1,2026-03-22T20:01:29.922100+05:30
Rourkela,Odisha,22.2604,84.8536,25.1,49,0.0,988.6,8.2,20.5,125,33.8,22.9,4,5,7,0,2026-03-22T20:01:29.922110+05:30
Raipur,Chhattisgarh,21.2514,81.6296,27.9,28,0.0,977.7,8.4,23.0,105,47.3,38.9,4,5,7,0,2026-03-22T20:01:29.922121+05:30
Bhilai,Chhattisgarh,21.1938,81.3509,26.3,32,0.0,978.0,8.4,16.9,91,54.7,43.2,4,5,7,0,2026-03-22T20:01:29.922131+05:30
Guwahati,Assam,26.1158,91.7086,22.1,83,0.0,1005.5,7.6,20.5,84,28.2,26.0,3,5,4,1,2026-03-22T20:01:29.922142+05:30
Agartala,Tripura,23.8315,91.2868,23.1,68,0.0,1010.3,7.85,22.0,133,71.5,66.8,3,0,4,1,2026-03-22T20:01:29.922152+05:30
Shillong,Meghalaya,25.5788,91.8933,11.1,90,0.0,856.4,6.7,24.8,67,21.8,19.8,3,10,7,0,2026-03-22T20:01:29.922163+05:30
Imphal,Manipur,24.817,93.9368,14.7,91,0.0,925.5,8.15,51.5,65,18.5,17.4,3,10,7,0,2026-03-22T20:01:29.922174+05:30
Aizawl,Mizoram,23.7271,92.7176,15.7,85,0.0,894.5,8.2,44.6,56,16.5,15.1,3,10,7,0,2026-03-22T20:01:29.922184+05:30
Kohima,Nagaland,25.6701,94.1077,11.8,99,0.0,855.1,7.8,56.9,58,15.1,13.9,3,10,7,0,2026-03-22T20:01:29.922194+05:30
Gangtok,Sikkim,27.3314,88.6138,12.4,84,0.0,837.4,7.85,19.4,85,19.2,18.4,3,10,7,0,2026-03-22T20:01:29.922204+05:30
Siliguri,West Bengal,26.7271,88.3953,18.3,74,0.0,997.6,7.45,17.3,101,37.4,36.1,3,5,7,0,2026-03-22T20:01:33.142211+05:30
Durgapur,West Bengal,23.5204,87.3119,24.4,54,0.0,999.3,8.1,18.4,122,53.7,49.7,0,5,7,0,2026-03-22T20:01:33.142249+05:30
Asansol,West Bengal,23.6739,86.9524,24.5,53,0.0,997.8,8.2,20.5,116,40.9,35.3,0,5,7,0,2026-03-22T20:01:33.142263+05:30
Pondicherry,Puducherry,11.9139,79.8145,26.3,84,0.0,1010.5,9.15,28.8,36,13.6,7.8,7,0,4,1,2026-03-22T20:01:33.142275+05:30
Port Blair,Andaman and Nicobar Islands,11.6234,92.7265,28.9,76,0.0,1009.1,9.1,20.9,44,11.8,8.8,7,0,4,1,2026-03-22T20:01:33.142287+05:30
Haridwar,Uttarakhand,29.9457,78.1642,20.2,67,0.0,977.5,6.25,25.9,132,164.8,49.1,3,5,7,0,2026-03-22T20:01:33.142298+05:30
Rishikesh,Uttarakhand,30.0869,78.2676,20.4,65,0.0,970.1,6.3,25.6,133,75.9,36.9,3,5,7,0,2026-03-22T20:01:33.142309+05:30
Nainital,Uttarakhand,29.3919,79.4542,14.5,67,0.0,806.0,7.15,37.8,133,35.3,31.9,3,5,7,0,2026-03-22T20:01:33.142320+05:30
Mussoorie,Uttarakhand,30.4599,78.0664,12.9,74,0.0,802.4,6.65,25.9,139,73.3,42.5,3,5,7,0,2026-03-22T20:01:33.142331+05:30
Dharamshala,Himachal Pradesh,32.219,76.3234,15.9,77,0.0,870.0,6.75,20.9,132,32.2,26.3,3,5,7,0,2026-03-22T20:01:33.142341+05:30
Dalhousie,Himachal Pradesh,32.5387,75.971,13.3,80,0.0,803.7,7.0,19.1,123,46.9,42.4,3,5,7,0,2026-03-22T20:01:33.142351+05:30
Patiala,Punjab,30.3398,76.3869,20.1,70,0.0,981.8,6.3,31.3,160,380.9,76.8,3,5,7,0,2026-03-22T20:01:33.142361+05:30
Bhatinda,Punjab,30.211,74.9455,22.2,67,0.0,987.5,6.9,19.4,151,109.7,52.7,3,5,7,0,2026-03-22T20:01:33.142371+05:30
Rohtak,Haryana,28.8955,76.6066,22.3,66,0.0,985.3,6.45,24.8,189,482.4,88.5,3,5,7,0,2026-03-22T20:01:33.142381+05:30
Panipat,Haryana,29.3909,76.9635,20.9,68,0.0,983.8,6.25,29.5,445,892.2,127.6,3,5,7,0,2026-03-22T20:01:33.142391+05:30
Mathura,Uttar Pradesh,27.4924,77.6737,23.7,58,0.0,990.4,6.6,28.1,391,365.1,65.9,0,5,7,0,2026-03-22T20:01:33.142401+05:30
Vrindavan,Uttar Pradesh,27.5823,77.7027,23.2,61,0.0,990.9,6.45,28.1,391,365.1,65.9,3,5,7,0,2026-03-22T20:01:33.142411+05:30
Ayodhya,Uttar Pradesh,26.7922,82.1998,23.9,60,0.0,999.5,7.0,18.7,101,36.3,32.5,0,5,7,0,2026-03-22T20:01:33.142421+05:30
Ratlam,Madhya Pradesh,23.3315,75.0367,27.0,45,0.0,957.3,7.95,14.4,82,33.8,22.2,4,5,7,0,2026-03-22T20:01:33.142432+05:30
Sagar,Madhya Pradesh,23.8388,78.7378,24.9,47,0.0,953.4,7.95,29.9,101,35.7,18.1,0,5,7,0,2026-03-22T20:01:33.142443+05:30
Satna,Madhya Pradesh,24.6005,80.8322,24.4,49,0.0,975.3,7.9,32.4,104,48.9,19.0,0,5,7,0,2026-03-22T20:01:33.142453+05:30
Akola,Maharashtra,20.7002,77.0082,27.4,39,0.0,977.8,8.3,21.2,126,22.2,17.9,4,5,7,0,2026-03-22T20:01:33.142465+05:30
Amravati,Maharashtra,20.9374,77.7796,28.0,38,0.0,969.5,8.3,22.3,123,20.7,15.8,4,5,7,0,2026-03-22T20:01:33.142476+05:30
Latur,Maharashtra,18.4088,76.5604,27.0,39,0.0,941.5,8.7,28.8,118,21.7,17.5,4,5,7,0,2026-03-22T20:01:33.142487+05:30
Nanded,Maharashtra,19.1383,77.3091,29.0,33,0.0,970.5,8.5,28.4,121,27.7,22.4,4,5,7,0,2026-03-22T20:01:33.142497+05:30
Gulbarga,Karnataka,17.3297,76.8343,31.9,26,0.0,959.8,8.75,18.4,129,39.7,27.5,0,5,7,0,2026-03-22T20:01:33.142507+05:30
Bidar,Karnataka,17.9104,77.5199,29.3,34,0.0,937.0,8.75,20.5,123,28.3,22.5,4,5,7,0,2026-03-22T20:01:33.142518+05:30
Hospet,Karnataka,15.2689,76.3909,31.2,42,0.0,956.5,9.0,15.1,193,34.5,29.4,0,5,7,1,2026-03-22T20:01:33.142527+05:30
Tirupur,Tamil Nadu,11.1085,77.3411,31.3,38,0.0,976.0,9.4,31.0,110,41.2,32.0,0,5,7,0,2026-03-22T20:01:33.142537+05:30
Alappuzha,Kerala,9.4981,76.3388,29.3,76,0.0,1009.9,9.15,33.5,114,28.7,21.4,7,0,4,1,2026-03-22T20:01:33.142546+05:30
Munnar,Kerala,10.0889,77.0595,23.5,72,0.0,858.4,8.65,26.6,81,35.4,26.5,3,5,7,1,2026-03-22T20:01:33.142557+05:30
Silchar,Assam,24.8333,92.7789,21.4,87,0.0,1009.7,7.95,22.7,82,51.3,47.1,3,0,4,1,2026-03-22T20:01:33.142567+05:30
Dibrugarh,Assam,27.4728,94.912,21.1,88,0.0,999.9,4.5,28.4,127,32.2,29.8,3,5,3,1,2026-03-22T20:01:33.142594+05:30
