city,state,latitude,longitude,temp,humidity,rain,pressure,uv_index,wind_gusts,aqi,pm10,pm2_5,mosquito_risk,arthritis_risk,migraine_risk,frizz_risk,updated_at
Delhi,Delhi,28.6139,77.209,22.0,66,0.0,987.0,6.45,23.8,179,549.5,111.5,3,5,7,0,2026-03-23T00:59:38.374431+05:30
Mumbai,Maharashtra,19.076,72.8777,29.1,58,0.0,1009.8,7.95,27.0,129,51.0,37.4,4,0,4,1,2026-03-23T00:59:38.374474+05:30
Bangalore,Karnataka,12.9716,77.5946,23.5,75,0.0,913.2,9.45,25.9,118,80.6,69.2,3,5,7,1,2026-03-23T00:59:38.374489+05:30
Hyderabad,Telangana,17.385,78.4867,24.5,77,0.0,955.5,8.95,22.7,100,34.6,28.5,3,5,7,1,2026-03-23T00:59:38.374499+05:30
Chennai,Tamil Nadu,13.0827,80.2707,26.6,81,0.0,1009.8,9.2,32.8,36,12.4,8.3,7,0,4,1,2026-03-23T00:59:38.374508+05:30
Kolkata,West Bengal,22.5726,88.3639,22.3,81,0.0,1010.3,8.3,19.1,145,85.9,82.9,3,0,4,1,2026-03-23T00:59:38.374517+05:30
Pune,Maharashtra,18.5204,73.8567,25.6,56,0.0,950.4,8.45,38.5,74,39.6,28.6,4,5,7,1,2026-03-23T00:59:38.374529+05:30
Ahmedabad,Gujarat,23.0225,72.5714,24.7,58,0.0,1005.3,7.85,29.2,76,82.4,50.6,0,5,4,0,2026-03-23T00:59:38.374537+05:30
Jaipur,Rajasthan,26.9124,75.7873,22.6,54,0.0,962.9,6.8,24.5,91,87.8,39.8,0,5,7,0,2026-03-23T00:59:38.374545+05:30
Lucknow,Uttar Pradesh,26.8467,80.9462,21.4,64,0.0,997.7,6.3,37.8,126,387.4,72.9,3,5,7,0,2026-03-23T00:59:38.374553+05:30
Kanpur,Uttar Pradesh,26.4499,80.3319,21.6,71,0.0,995.9,6.4,28.4,166,512.2,86.1,3,5,7,1,2026-03-23T00:59:38.374560+05:30
Chandigarh,Chandigarh,30.7333,76.7794,18.2,80,0.0,972.4,6.4,25.9,96,58.6,51.9,3,5,7,0,2026-03-23T00:59:38.374568+05:30
Srinagar,Jammu and Kashmir,34.0837,74.7973,7.7,89,0.0,839.8,5.85,17.3,119,82.7,75.4,3,10,3,0,2026-03-23T00:59:38.374576+05:30
Jammu,Jammu and Kashmir,32.7266,74.857,18.4,88,0.0,976.4,7.05,20.5,104,58.1,53.9,3,10,7,1,2026-03-23T00:59:38.374584+05:30
Amritsar,Punjab,31.634,74.8723,19.3,72,0.0,984.9,7.05,22.0,154,97.3,72.4,3,5,7,0,2026-03-23T00:59:38.374590+05:30
Ludhiana,Punjab,30.901,75.8573,20.0,72,0.0,982.9,6.65,25.2,141,113.2,65.0,3,5,7,0,2026-03-23T00:59:38.374597+05:30
Jalandhar,Punjab,31.326,75.5762,19.2,76,0.0,983.9,6.85,27.0,152,96.4,69.6,3,5,7,0,2026-03-23T00:59:38.374606+05:30
Dehradun,Uttarakhand,30.6284,78.0322,11.1,90,0.0,830.1,6.8,23.4,83,35.6,31.1,3,10,7,0,2026-03-23T00:59:38.374613+05:30
Shimla,Himachal Pradesh,31.1048,77.1734,9.1,89,0.0,783.3,6.9,31.7,76,41.0,35.9,3,10,7,0,2026-03-23T00:59:38.374621+05:30
Manali,Himachal Pradesh,32.2396,77.1887,11.6,39,0.0,818.0,8.25,26.6,82,25.9,16.8,0,5,7,1,2026-03-23T00:59:38.374628+05:30
Gurgaon,Haryana,28.4595,77.0266,19.8,77,0.0,985.3,6.55,20.2,471,553.2,112.0,3,5,7,0,2026-03-23T00:59:38.374635+05:30
Noida,Uttar Pradesh,28.5355,77.391,21.9,66,0.0,988.5,6.45,22.7,471,553.2,112.0,3,5,7,0,2026-03-23T00:59:38.374642+05:30
Ghaziabad,Uttar Pradesh,28.6692,77.4538,20.0,75,0.0,986.6,6.35,23.8,158,534.6,105.9,3,5,7,0,2026-03-23T00:59:38.374649+05:30
Faridabad,Haryana,28.4089,77.3178,20.3,72,0.0,987.7,6.45,19.4,471,553.2,112.0,3,5,7,0,2026-03-23T00:59:38.374656+05:30
Meerut,Uttar Pradesh,28.9845,77.7064,18.7,80,0.0,985.3,6.35,24.8,158,534.6,105.9,3,5,7,0,2026-03-23T00:59:38.374662+05:30
Agra,Uttar Pradesh,27.1767,78.0081,21.7,63,0.0,991.7,5.2,28.1,472,495.5,88.9,3,5,3,0,2026-03-23T00:59:38.374669+05:30
Varanasi,Uttar Pradesh,25.3176,82.9739,20.0,76,0.0,1001.8,7.65,25.9,107,68.0,47.1,3,5,4,0,2026-03-23T00:59:38.374678+05:30
Prayagraj,Uttar Pradesh,25.4358,81.8463,21.9,59,0.0,1000.3,7.55,20.5,114,168.6,49.6,0,5,4,0,2026-03-23T00:59:38.374686+05:30
Gorakhpur,Uttar Pradesh,26.7606,83.3732,19.1,85,0.0,1001.5,7.4,20.5,156,48.9,46.8,3,10,4,1,2026-03-23T00:59:38.374693+05:30
Bareilly,Uttar Pradesh,28.367,79.4304,18.3,83,0.0,990.8,6.5,28.1,118,164.4,54.7,3,10,7,0,2026-03-23T00:59:38.374700+05:30
Aligarh,Uttar Pradesh,27.8974,78.088,19.3,75,0.0,989.4,6.0,23.8,365,469.4,99.7,3,5,3,0,2026-03-23T00:59:38.374706+05:30
Moradabad,Uttar Pradesh,28.8386,78.7733,18.4,79,0.0,987.5,6.5,27.0,137,308.3,75.4,3,5,7,0,2026-03-23T00:59:38.374713+05:30
Saharanpur,Uttar Pradesh,29.9637,77.546,17.9,82,0.0,979.5,6.15,28.1,152,249.6,81.3,3,10,7,0,2026-03-23T00:59:38.374720+05:30
Jhansi,Uttar Pradesh,25.4484,78.5685,23.2,51,0.0,981.5,7.4,20.2,80,59.1,31.1,0,5,7,0,2026-03-23T00:59:41.666678+05:30
Surat,Gujarat,21.1702,72.8311,26.9,53,0.0,1009.2,7.65,25.2,115,68.7,51.2,4,0,4,1,2026-03-23T00:59:41.666708+05:30
Vadodara,Gujarat,22.3072,73.1812,26.5,51,0.0,1007.3,7.8,23.0,82,53.2,34.9,4,5,4,0,2026-03-23T00:59:41.666718+05:30
Rajkot,Gujarat,22.3039,70.8022,23.9,79,0.0,997.8,7.65,30.6,66,33.4,20.4,3,5,7,1,2026-03-23T00:59:41.666727+05:30
Thane,Maharashtra,19.2183,72.9781,28.1,46,0.0,1009.3,7.9,41.4,129,51.0,37.4,4,0,4,0,2026-03-23T00:59:41.666734+05:30
Nagpur,Maharashtra,21.1458,79.0882,24.6,50,0.0,976.5,7.95,22.7,57,32.2,25.5,0,5,7,0,2026-03-23T00:59:41.666741+05:30
Nashik,Maharashtra,19.9975,73.7898,23.4,60,0.0,947.9,8.15,35.6,81,34.2,20.9,0,5,7,0,2026-03-23T00:59:41.666748+05:30
Aurangabad,Maharashtra,19.8762,75.3433,23.8,48,0.0,946.0,8.6,19.8,58,44.7,34.1,0,5,7,0,2026-03-23T00:59:41.666755+05:30
Solapur,Maharashtra,17.6599,75.9064,24.9,51,0.0,958.3,8.75,22.0,60,17.6,15.0,0,5,7,0,2026-03-23T00:59:41.666763+05:30
Kolhapur,Maharashtra,16.705,74.2433,19.9,74,0.0,949.0,8.9,38.5,88,33.5,30.0,3,5,7,0,2026-03-23T00:59:41.666770+05:30
Goa,Goa,15.2993,74.124,27.6,83,0.0,999.4,8.9,34.2,88,52.2,42.8,7,5,7,1,2026-03-23T00:59:41.666777+05:30
Jodhpur,Rajasthan,26.2389,73.0243,23.9,70,0.0,986.9,7.4,18.7,69,108.0,23.8,3,5,7,1,2026-03-23T00:59:41.666783+05:30
Udaipur,Rajasthan,24.5854,73.7125,22.6,53,0.0,949.5,8.05,30.6,58,47.7,17.5,0,5,7,0,2026-03-23T00:59:41.666789+05:30
Kota,Rajasthan,25.2138,75.8648,25.1,50,0.0,981.8,7.45,22.7,89,40.9,28.6,4,5,7,0,2026-03-23T00:59:41.666796+05:30
Bikaner,Rajasthan,28.0229,73.3119,23.1,65,0.0,986.2,7.25,15.1,69,51.2,19.3,3,5,7,1,2026-03-23T00:59:41.666803+05:30
Ajmer,Rajasthan,26.4499,74.6399,23.6,53,0.0,957.9,7.2,25.2,67,43.5,17.2,0,5,7,0,2026-03-23T00:59:41.666810+05:30
Gwalior,Madhya Pradesh,26.2183,78.1828,22.9,62,0.0,986.8,6.95,25.6,130,134.1,35.5,3,5,7,0,2026-03-23T00:59:41.666817+05:30
Indore,Madhya Pradesh,22.7196,75.8577,22.0,58,0.0,950.5,8.1,22.3,63,36.1,24.7,0,5,7,0,2026-03-23T00:59:41.666824+05:30
Bhopal,Madhya Pradesh,23.2599,77.4126,23.2,44,0.0,956.4,8.0,30.2,55,25.2,15.4,0,5,7,0,2026-03-23T00:59:41.666830+05:30
Jabalpur,Madhya Pradesh,23.1815,79.9864,22.8,53,0.0,964.6,8.1,21.2,61,62.2,27.4,0,5,7,0,2026-03-23T00:59:41.666837+05:30
Ujjain,Madhya Pradesh,23.1765,75.7885,22.6,56,0.0,956.3,8.0,20.5,72,64.3,53.4,0,5,7,0,2026-03-23T00:59:41.666844+05:30
Visakhapatnam,Andhra Pradesh,17.6868,83.2185,24.6,87,0.0,1006.8,8.9,36.0,77,26.0,21.4,3,5,4,1,2026-03-23T00:59:41.666851+05:30
Vijayawada,Andhra Pradesh,16.5062,80.648,25.7,87,0.0,1005.8,8.95,25.6,66,27.4,23.5,7,5,4,1,2026-03-23T00:59:41.666858+05:30
Guntur,Andhra Pradesh,16.3067,80.4365,25.3,92,0.0,1006.9,8.95,29.2,66,27.8,24.2,7,5,4,1,2026-03-23T00:59:41.666865+05:30
Nellore,Andhra Pradesh,14.4426,79.9865,25.7,86,0.0,1008.7,9.1,28.8,46,10.5,6.7,7,0,4,1,2026-03-23T00:59:41.666872+05:30
Kurnool,Andhra Pradesh,15.8281,78.0373,28.1,63,0.0,978.8,8.95,25.2,78,30.6,25.2,7,5,7,1,2026-03-23T00:59:41.666880+05:30
Kakinada,Andhra Pradesh,16.9891,82.2475,23.1,96,0.0,1010.6,8.9,31.3,44,17.2,12.0,3,0,4,1,2026-03-23T00:59:41.666887+05:30
Tirupati,Andhra Pradesh,13.6288,79.4192,24.4,81,0.0,994.6,9.2,30.6,68,26.0,22.1,3,5,7,1,2026-03-23T00:59:41.666894+05:30
Warangal,Telangana,17.9689,79.5941,25.7,75,0.0,981.2,8.8,22.3,122,62.2,53.9,7,5,7,1,2026-03-23T00:59:41.666901+05:30
Nizamabad,Telangana,18.6725,78.0941,25.3,70,0.0,967.4,8.7,20.9,80,57.5,51.3,7,5,7,1,2026-03-23T00:59:41.666907+05:30
Mysore,Karnataka,12.2958,76.6396,23.6,80,0.0,929.7,9.4,33.5,98,53.6,42.7,3,5,7,1,2026-03-23T00:59:41.666913+05:30
Mangalore,Karnataka,12.9141,74.856,29.4,76,0.0,1008.3,9.1,24.5,75,36.2,25.5,7,0,4,1,2026-03-23T00:59:41.666919+05:30
Hubli-Dharwad,Karnataka,15.3647,75.124,23.1,76,0.0,942.1,9.1,40.3,69,28.1,21.1,3,5,7,1,2026-03-23T00:59:41.666926+05:30
Belgaum,Karnataka,15.8497,74.4977,22.4,73,0.0,927.0,9.15,38.9,82,37.3,29.9,3,5,7,1,2026-03-23T00:59:44.942538+05:30
Coimbatore,Tamil Nadu,11.0168,76.9558,24.3,87,0.0,963.4,9.4,34.6,86,42.6,34.8,3,5,7,1,2026-03-23T00:59:44.942568+05:30
Madurai,Tamil Nadu,9.9252,78.1198,26.1,81,0.0,995.4,9.35,26.3,65,26.0,22.9,7,5,7,1,2026-03-23T00:59:44.942578+05:30
Trichy,Tamil Nadu,10.7905,78.7047,25.5,90,0.0,1002.2,9.3,22.7,65,20.6,17.2,7,5,4,1,2026-03-23T00:59:44.942586+05:30
Salem,Tamil Nadu,11.6643,78.146,26.3,74,0.0,979.2,9.35,22.3,84,35.6,30.5,7,5,7,1,2026-03-23T00:59:44.942594+05:30
Tirunelveli,Tamil Nadu,8.7139,77.7567,26.3,74,0.0,1005.4,9.3,34.2,69,36.0,33.2,7,5,4,1,2026-03-23T00:59:44.942602+05:30
Vellore,Tamil Nadu,12.9165,79.1325,24.2,77,0.0,987.3,9.3,34.2,83,33.6,29.3,3,5,7,1,2026-03-23T00:59:44.942610+05:30
Erode,Tamil Nadu,11.341,77.7172,27.3,77,0.0,991.1,9.35,20.9,66,20.7,17.7,7,5,7,1,2026-03-23T00:59:44.942617+05:30
Kochi,Kerala,9.9312,76.2673,27.3,81,0.0,1010.7,9.15,28.8,78,43.8,40.5,7,0,4,1,2026-03-23T00:59:44.942625+05:30
Thiruvananthapuram,Kerala,8.5241,76.9366,27.7,78,0.0,1009.3,9.15,26.3,92,19.4,14.7,7,0,4,1,2026-03-23T00:59:44.942633+05:30
Kozhikode,Kerala,11.2588,75.7804,28.2,81,0.0,1009.2,9.05,25.2,66,39.5,21.1,7,0,4,1,2026-03-23T00:59:44.942641+05:30
Thrissur,Kerala,10.5276,76.2144,27.1,83,0.0,1008.7,9.15,35.6,78,53.0,47.6,7,0,4,1,2026-03-23T00:59:44.942649+05:30
Kannur,Kerala,11.8745,75.3704,28.6,78,0.0,1008.4,9.1,27.0,69,37.1,24.2,7,0,4,1,2026-03-23T00:59:44.942656+05:30
Patna,Bihar,25.5941,85.1376,20.5,81,0.0,1005.2,7.85,22.0,160,62.2,59.4,3,5,4,1,2026-03-23T00:59:44.942663+05:30
Gaya,Bihar,24.7914,85.0002,19.5,85,0.0,998.4,7.95,18.7,136,63.6,56.8,3,10,7,1,2026-03-23T00:59:44.942669+05:30
Muzaffarpur,Bihar,26.1209,85.3647,19.1,80,0.0,1005.1,7.8,19.8,162,61.0,58.8,3,5,4,0,2026-03-23T00:59:44.942675+05:30
Bhagalpur,Bihar,25.2425,87.0117,20.3,80,0.0,1005.9,7.85,12.6,157,86.6,80.1,3,5,4,1,2026-03-23T00:59:44.942681+05:30
Ranchi,Jharkhand,23.3441,85.3096,18.0,69,0.0,940.6,8.55,27.0,87,63.8,31.7,3,5,7,0,2026-03-23T00:59:44.942688+05:30
Jamshedpur,Jharkhand,22.8046,86.2029,23.7,56,0.0,995.0,8.4,16.6,122,81.3,66.4,0,5,7,0,2026-03-23T00:59:44.942694+05:30
Dhanbad,Jharkhand,23.7957,86.4304,20.6,74,0.0,984.1,8.3,19.1,144,101.3,90.3,3,5,7,0,2026-03-23T00:59:44.942701+05:30
Bokaro,Jharkhand,23.6693,86.1511,21.0,72,0.0,988.4,8.3,16.2,144,111.3,92.0,3,5,7,0,2026-03-23T00:59:44.942707+05:30
Bhubaneswar,Odisha,20.2961,85.8245,24.0,92,0.0,1006.3,8.7,31.3,92,48.4,40.9,3,5,4,1,2026-03-23T00:59:44.942714+05:30
Cuttack,Odisha,20.4625,85.8828,23.8,91,0.0,1008.3,8.75,27.4,92,48.4,40.9,3,0,4,1,2026-03-23T00:59:44.942720+05:30
Rourkela,Odisha,22.2604,84.8536,19.9,83,0.0,988.5,8.3,20.5,82,50.2,35.2,3,10,7,1,2026-03-23T00:59:44.942726+05:30
Raipur,Chhattisgarh,21.2514,81.6296,22.4,46,0.0,977.9,8.45,21.6,82,80.3,71.7,0,5,7,0,2026-03-23T00:59:44.942733+05:30
Bhilai,Chhattisgarh,21.1938,81.3509,21.9,47,0.0,978.3,8.45,20.5,88,86.1,72.9,0,5,7,0,2026-03-23T00:59:44.942739+05:30
Guwahati,Assam,26.1158,91.7086,21.2,89,0.0,1005.7,7.6,19.8,80,28.2,25.0,3,5,4,1,2026-03-23T00:59:44.942746+05:30
Agartala,Tripura,23.8315,91.2868,20.1,87,0.0,1010.6,8.05,16.6,146,91.7,87.1,3,0,4,1,2026-03-23T00:59:44.942752+05:30
Shillong,Meghalaya,25.5788,91.8933,8.8,92,0.0,855.0,7.25,25.6,60,23.0,20.6,3,10,7,0,2026-03-23T00:59:44.942758+05:30
Imphal,Manipur,24.817,93.9368,13.3,91,0.0,924.9,8.35,31.0,60,26.5,24.8,3,10,7,0,2026-03-23T00:59:44.942765+05:30
Aizawl,Mizoram,23.7271,92.7176,14.4,85,0.0,893.8,8.3,30.6,47,22.1,20.5,3,10,7,0,2026-03-23T00:59:44.942772+05:30
Kohima,Nagaland,25.6701,94.1077,11.0,85,0.0,854.4,6.85,41.4,53,17.7,16.3,3,10,7,0,2026-03-23T00:59:44.942778+05:30
Gangtok,Sikkim,27.3314,88.6138,11.0,93,0.0,836.8,7.35,19.4,55,20.3,19.8,3,10,7,0,2026-03-23T00:59:44.942784+05:30
Siliguri,West Bengal,26.7271,88.3953,17.3,75,0.0,997.7,7.05,22.3,101,51.7,49.8,3,5,7,0,2026-03-23T00:59:48.225413+05:30
Durgapur,West Bengal,23.5204,87.3119,21.9,75,0.0,999.6,8.25,16.6,136,93.6,89.9,3,5,7,1,2026-03-23T00:59:48.225443+05:30
Asansol,West Bengal,23.6739,86.9524,22.2,71,0.0,998.1,8.3,16.9,120,60.5,56.2,3,5,7,1,2026-03-23T00:59:48.225452+05:30
Pondicherry,Puducherry,11.9139,79.8145,24.9,92,0.0,1011.1,9.2,29.9,34,12.4,7.5,3,0,4,1,2026-03-23T00:59:48.225460+05:30
Port Blair,Andaman and Nicobar Islands,11.6234,92.7265,27.9,81,0.0,1008.4,9.1,25.2,41,10.1,7.4,7,0,4,1,2026-03-23T00:59:48.225469+05:30
Haridwar,Uttarakhand,29.9457,78.1642,17.1,90,0.0,977.9,6.3,26.3,121,168.6,65.9,3,10,7,0,2026-03-23T00:59:48.225477+05:30
Rishikesh,Uttarakhand,30.0869,78.2676,17.9,74,0.0,970.5,6.4,22.7,99,91.0,46.1,3,5,7,0,2026-03-23T00:59:48.225485+05:30
Nainital,Uttarakhand,29.3919,79.4542,13.9,71,0.0,806.2,7.2,37.1,91,55.4,36.4,3,5,7,0,2026-03-23T00:59:48.225492+05:30
Mussoorie,Uttarakhand,30.4599,78.0664,12.5,76,0.0,802.7,6.75,27.7,90,99.7,55.5,3,5,7,0,2026-03-23T00:59:48.225499+05:30
Dharamshala,Himachal Pradesh,32.219,76.3234,15.9,69,0.0,870.3,6.95,19.1,103,26.9,19.1,3,5,7,0,2026-03-23T00:59:48.225505+05:30
Dalhousie,Himachal Pradesh,32.5387,75.971,11.7,80,0.0,803.2,7.1,21.2,90,52.5,48.3,3,5,7,0,2026-03-23T00:59:48.225514+05:30
Patiala,Punjab,30.3398,76.3869,18.0,84,0.0,982.1,6.3,24.5,158,183.5,66.6,3,10,7,0,2026-03-23T00:59:48.225521+05:30
Bhatinda,Punjab,30.211,74.9455,19.7,80,0.0,988.1,7.0,20.9,151,142.5,74.0,3,5,7,1,2026-03-23T00:59:48.225528+05:30
Rohtak,Haryana,28.8955,76.6066,19.0,81,0.0,985.6,6.5,21.2,195,488.0,101.3,3,10,7,0,2026-03-23T00:59:48.225534+05:30
Panipat,Haryana,29.3909,76.9635,17.9,81,0.0,984.3,6.3,22.7,451,461.0,101.7,3,10,7,0,2026-03-23T00:59:48.225541+05:30
Mathura,Uttar Pradesh,27.4924,77.6737,19.6,74,0.0,990.6,4.7,20.5,307,434.9,89.9,3,5,3,0,2026-03-23T00:59:48.225547+05:30
Vrindavan,Uttar Pradesh,27.5823,77.7027,19.8,72,0.0,991.1,5.05,20.5,307,434.9,89.9,3,5,3,0,2026-03-23T00:59:48.225554+05:30
Ayodhya,Uttar Pradesh,26.7922,82.1998,20.0,81,0.0,999.5,6.8,27.0,105,125.3,43.1,3,5,7,1,2026-03-23T00:59:48.225560+05:30
Ratlam,Madhya Pradesh,23.3315,75.0367,24.3,48,0.0,956.9,7.95,24.1,68,54.2,42.3,0,5,7,0,2026-03-23T00:59:48.225567+05:30
Sagar,Madhya Pradesh,23.8388,78.7378,22.6,51,0.0,953.0,8.0,28.8,59,45.5,22.5,0,5,7,0,2026-03-23T00:59:48.225573+05:30
Satna,Madhya Pradesh,24.6005,80.8322,21.6,53,0.0,975.0,7.95,19.1,75,91.7,29.1,0,5,7,0,2026-03-23T00:59:48.225580+05:30
Akola,Maharashtra,20.7002,77.0082,25.2,47,0.0,977.8,8.0,16.6,55,35.3,29.8,4,5,7,0,2026-03-23T00:59:48.225588+05:30
Amravati,Maharashtra,20.9374,77.7796,24.0,52,0.0,970.0,8.35,16.9,60,32.6,26.5,0,5,7,0,2026-03-23T00:59:48.225595+05:30
Latur,Maharashtra,18.4088,76.5604,23.2,51,0.0,941.4,8.5,18.4,79,27.1,20.0,0,5,7,0,2026-03-23T00:59:48.225601+05:30
Nanded,Maharashtra,19.1383,77.3091,25.5,48,0.0,971.0,8.55,18.7,58,21.2,19.7,4,5,7,0,2026-03-23T00:59:48.225608+05:30
Gulbarga,Karnataka,17.3297,76.8343,27.7,42,0.0,960.7,8.8,31.7,81,33.1,27.4,4,5,7,0,2026-03-23T00:59:48.225614+05:30
Bidar,Karnataka,17.9104,77.5199,25.5,68,0.0,937.6,8.8,21.2,84,30.4,25.2,7,5,7,1,2026-03-23T00:59:48.225620+05:30
Hospet,Karnataka,15.2689,76.3909,27.7,61,0.0,957.2,9.05,43.2,115,39.9,32.0,7,5,7,1,2026-03-23T00:59:48.225626+05:30
Tirupur,Tamil Nadu,11.1085,77.3411,27.1,71,0.0,977.3,9.45,32.4,82,36.1,30.4,7,5,7,1,2026-03-23T00:59:48.225633+05:30
Alappuzha,Kerala,9.4981,76.3388,27.0,82,0.0,1010.8,9.15,29.5,66,42.0,34.7,7,0,4,1,2026-03-23T00:59:48.225639+05:30
Munnar,Kerala,10.0889,77.0595,20.5,86,0.0,858.0,9.65,25.6,70,36.4,29.0,3,5,7,1,2026-03-23T00:59:48.225645+05:30
Silchar,Assam,24.8333,92.7789,19.7,92,0.0,1009.9,8.0,13.7,85,52.9,47.7,3,5,4,1,2026-03-23T00:59:48.225652+05:30
Dibrugarh,Assam,27.4728,94.912,20.4,93,0.0,999.8,7.6,14.4,108,18.3,17.1,3,5,7,1,2026-03-23T00:59:48.225659+05:30
