city,state,latitude,longitude,temp,humidity,rain,pressure,uv_index,wind_gusts,aqi,pm10,pm2_5,no2,co,o3,so2,mosquito_risk,arthritis_risk,migraine_risk,frizz_risk,updated_at
Delhi,Delhi,28.6139,77.209,40.0,33,0.0,973.9,7.2,37.8,442,1046.8,184.4,5.6,224.0,164.0,14.5,0,5,10,1,2026-06-30T15:11:46.461786+05:30
Mumbai,Maharashtra,19.076,72.8777,27.0,88,0.1,1004.3,1.2,37.8,42,14.0,9.3,9.2,271.0,61.0,7.7,10,5,0,1,2026-06-30T15:11:46.461827+05:30
Bangalore,Karnataka,12.9716,77.5946,26.6,64,0.4,909.6,8.3,55.4,25,3.8,2.8,3.0,220.0,73.0,1.9,10,5,7,1,2026-06-30T15:11:46.461841+05:30
Hyderabad,Telangana,17.385,78.4867,29.2,64,0.2,948.3,6.1,47.9,25,4.7,4.0,2.7,233.0,74.0,2.1,10,5,7,1,2026-06-30T15:11:46.461850+05:30
Chennai,Tamil Nadu,13.0827,80.2707,35.8,43,0.0,1002.1,7.6,46.4,38,17.3,12.8,3.5,187.0,109.0,4.1,0,5,7,1,2026-06-30T15:11:46.461858+05:30
Kolkata,West Bengal,22.5726,88.3639,29.0,89,0.2,998.3,6.55,23.4,116,42.1,41.7,10.2,429.0,179.0,22.0,10,5,7,1,2026-06-30T15:11:46.461877+05:30
Pune,Maharashtra,18.5204,73.8567,24.7,88,0.2,943.9,2.6,45.7,24,2.0,1.8,2.7,132.0,61.0,3.3,6,5,3,1,2026-06-30T15:11:46.461884+05:30
Ahmedabad,Gujarat,23.0225,72.5714,39.5,33,0.0,993.7,7.3,47.2,58,35.3,16.2,1.5,129.0,89.0,3.0,0,5,10,1,2026-06-30T15:11:46.461891+05:30
Jaipur,Rajasthan,26.9124,75.7873,38.1,35,0.0,952.5,8.2,40.0,176,139.7,36.1,1.3,134.0,98.0,2.8,0,5,10,1,2026-06-30T15:11:46.461898+05:30
Lucknow,Uttar Pradesh,26.8467,80.9462,35.5,46,0.0,985.0,7.85,34.6,107,122.9,38.9,3.8,215.0,139.0,6.9,0,5,10,1,2026-06-30T15:11:46.461907+05:30
Kanpur,Uttar Pradesh,26.4499,80.3319,34.8,56,0.0,983.0,8.05,37.4,134,157.4,51.3,2.8,162.0,169.0,8.4,0,5,7,1,2026-06-30T15:11:46.461914+05:30
Chandigarh,Chandigarh,30.7333,76.7794,32.2,76,0.2,960.9,7.6,34.6,151,310.1,91.7,3.5,339.0,211.0,16.2,6,5,7,1,2026-06-30T15:11:46.461920+05:30
Srinagar,Jammu and Kashmir,34.0837,74.7973,34.6,32,0.0,838.0,9.1,23.0,123,28.4,21.7,1.6,310.0,175.0,4.9,0,5,7,0,2026-06-30T15:11:46.461926+05:30
Jammu,Jammu and Kashmir,32.7266,74.857,37.6,47,0.0,963.4,8.65,61.9,151,149.5,61.5,1.7,255.0,158.0,8.4,0,5,10,1,2026-06-30T15:11:46.461932+05:30
Amritsar,Punjab,31.634,74.8723,38.1,46,0.0,970.7,8.5,44.3,155,129.9,56.0,2.6,302.0,194.0,9.4,0,5,10,1,2026-06-30T15:11:46.461938+05:30
Ludhiana,Punjab,30.901,75.8573,35.0,56,0.1,969.8,5.7,41.8,189,702.2,152.7,2.5,320.0,207.0,9.6,3,5,3,1,2026-06-30T15:11:46.461945+05:30
Jalandhar,Punjab,31.326,75.5762,38.3,43,0.0,970.5,7.95,38.2,166,294.3,91.0,2.8,287.0,188.0,7.6,0,5,10,1,2026-06-30T15:11:46.461950+05:30
Dehradun,Uttarakhand,30.6284,78.0322,20.5,93,0.2,827.1,6.6,23.8,68,61.5,27.7,1.6,204.0,138.0,5.0,6,5,7,1,2026-06-30T15:11:46.461956+05:30
Shimla,Himachal Pradesh,31.1048,77.1734,18.8,90,0.2,781.8,5.75,39.2,93,69.4,32.4,2.1,203.0,158.0,9.0,6,10,3,1,2026-06-30T15:11:46.461962+05:30
Manali,Himachal Pradesh,32.2396,77.1887,24.1,81,0.1,817.4,7.2,34.6,60,29.6,27.4,26.8,182.0,125.0,1.5,6,5,7,1,2026-06-30T15:11:46.461969+05:30
Gurgaon,Haryana,28.4595,77.0266,39.5,33,0.0,972.6,7.8,38.5,606,1054.3,179.3,4.6,169.0,150.0,11.6,0,5,10,1,2026-06-30T15:11:46.461976+05:30
Noida,Uttar Pradesh,28.5355,77.391,38.7,37,0.0,975.3,7.2,29.5,606,1054.3,179.3,4.6,218.0,150.0,11.6,0,5,10,1,2026-06-30T15:11:46.461987+05:30
Ghaziabad,Uttar Pradesh,28.6692,77.4538,38.2,40,0.0,973.7,7.4,32.8,190,553.2,128.1,4.8,295.0,237.0,23.8,0,5,10,1,2026-06-30T15:11:46.461993+05:30
Faridabad,Haryana,28.4089,77.3178,39.1,34,0.0,974.6,7.3,36.7,606,1054.3,179.3,4.6,193.0,150.0,11.6,0,5,10,1,2026-06-30T15:11:46.461998+05:30
Meerut,Uttar Pradesh,28.9845,77.7064,33.3,72,0.0,973.0,7.05,39.6,190,553.2,128.1,4.8,268.0,237.0,23.8,3,5,7,1,2026-06-30T15:11:46.462004+05:30
Agra,Uttar Pradesh,27.1767,78.0081,37.3,38,0.0,979.1,7.1,37.1,194,855.0,120.1,1.9,149.0,128.0,3.4,0,5,10,1,2026-06-30T15:11:46.462010+05:30
Varanasi,Uttar Pradesh,25.3176,82.9739,38.2,44,0.0,987.9,8.65,25.9,74,55.5,28.6,2.3,244.0,160.0,7.2,0,5,10,1,2026-06-30T15:11:46.462016+05:30
Prayagraj,Uttar Pradesh,25.4358,81.8463,35.2,58,0.1,986.7,6.7,32.4,81,71.5,33.5,2.5,169.0,164.0,7.4,3,5,10,1,2026-06-30T15:11:46.462022+05:30
Gorakhpur,Uttar Pradesh,26.7606,83.3732,34.4,59,0.0,988.4,1.5,30.2,88,18.9,13.3,4.4,279.0,127.0,6.9,0,5,3,1,2026-06-30T15:11:46.462027+05:30
Bareilly,Uttar Pradesh,28.367,79.4304,31.0,75,0.0,979.3,7.6,43.6,115,89.6,32.1,4.0,245.0,152.0,12.8,3,5,7,1,2026-06-30T15:11:46.462034+05:30
Aligarh,Uttar Pradesh,27.8974,78.088,35.4,50,0.0,976.9,7.4,39.2,264,590.5,113.6,2.7,215.0,175.0,10.9,0,5,10,1,2026-06-30T15:11:46.462040+05:30
Moradabad,Uttar Pradesh,28.8386,78.7733,28.4,90,0.2,976.3,7.85,37.8,150,131.8,46.8,3.5,242.0,160.0,10.1,10,5,7,1,2026-06-30T15:11:46.462045+05:30
Saharanpur,Uttar Pradesh,29.9637,77.546,28.2,90,0.4,968.0,7.5,51.8,155,206.8,69.2,2.5,289.0,180.0,12.0,10,5,7,1,2026-06-30T15:11:46.462051+05:30
Jhansi,Uttar Pradesh,25.4484,78.5685,35.9,49,0.1,969.9,7.3,40.7,79,75.2,22.5,1.1,137.0,106.0,4.0,3,5,10,1,2026-06-30T15:11:49.805615+05:30
Surat,Gujarat,21.1702,72.8311,31.0,72,0.0,1000.7,4.3,45.7,65,19.2,14.8,12.9,261.0,52.0,40.3,3,5,0,1,2026-06-30T15:11:49.805649+05:30
Vadodara,Gujarat,22.3072,73.1812,34.2,53,0.0,997.2,6.15,46.4,61,37.4,17.8,1.6,133.0,97.0,3.3,0,5,7,1,2026-06-30T15:11:49.805661+05:30
Rajkot,Gujarat,22.3039,70.8022,38.1,37,0.0,986.4,6.05,41.0,53,24.9,13.7,1.1,104.0,92.0,4.0,0,5,10,1,2026-06-30T15:11:49.805671+05:30
Thane,Maharashtra,19.2183,72.9781,26.2,93,0.3,1003.8,0.95,27.0,42,14.0,9.3,9.2,228.0,61.0,7.7,10,5,0,1,2026-06-30T15:11:49.805681+05:30
Nagpur,Maharashtra,21.1458,79.0882,27.7,88,0.1,967.4,6.75,28.8,72,21.2,18.2,10.2,204.0,100.0,16.7,10,5,7,1,2026-06-30T15:11:49.805690+05:30
Nashik,Maharashtra,19.9975,73.7898,26.3,82,0.2,941.0,7.1,43.9,34,4.5,3.1,2.6,130.0,67.0,2.4,10,5,7,1,2026-06-30T15:11:49.805699+05:30
Aurangabad,Maharashtra,19.8762,75.3433,29.2,62,0.1,939.1,6.5,38.9,43,12.8,8.0,1.8,137.0,83.0,4.0,10,5,7,1,2026-06-30T15:11:49.805708+05:30
Solapur,Maharashtra,17.6599,75.9064,32.0,55,0.0,952.7,5.2,47.5,26,2.4,2.2,1.4,113.0,68.0,1.2,0,5,3,1,2026-06-30T15:11:49.805718+05:30
Kolhapur,Maharashtra,16.705,74.2433,25.5,82,0.0,945.1,7.4,52.6,23,3.4,3.0,3.0,127.0,57.0,1.5,7,5,7,1,2026-06-30T15:11:49.805725+05:30
Goa,Goa,15.2993,74.124,26.3,95,0.1,996.9,5.25,37.1,31,10.9,6.4,1.4,157.0,53.0,0.5,10,5,3,1,2026-06-30T15:11:49.805733+05:30
Jodhpur,Rajasthan,26.2389,73.0243,38.1,35,0.0,974.2,8.0,47.2,159,304.5,56.9,0.7,111.0,81.0,1.3,0,5,10,1,2026-06-30T15:11:49.805740+05:30
Udaipur,Rajasthan,24.5854,73.7125,33.5,45,0.0,940.0,8.7,38.5,54,38.3,16.7,0.6,111.0,80.0,1.6,0,5,7,1,2026-06-30T15:11:49.805747+05:30
Kota,Rajasthan,25.2138,75.8648,37.5,42,0.0,970.7,8.3,49.0,64,26.0,16.9,1.1,129.0,115.0,5.2,0,5,10,1,2026-06-30T15:11:49.805754+05:30
Bikaner,Rajasthan,28.0229,73.3119,40.4,28,0.0,972.2,8.5,45.0,161,91.5,39.6,0.4,109.0,83.0,1.9,0,5,10,1,2026-06-30T15:11:49.805761+05:30
Ajmer,Rajasthan,26.4499,74.6399,35.5,39,0.0,947.7,8.35,48.6,72,35.5,18.7,0.8,117.0,92.0,2.3,0,5,10,1,2026-06-30T15:11:49.805768+05:30
Gwalior,Madhya Pradesh,26.2183,78.1828,38.9,35,0.0,974.5,7.65,38.5,88,177.0,40.3,0.8,138.0,103.0,2.4,0,5,10,1,2026-06-30T15:11:49.805776+05:30
Indore,Madhya Pradesh,22.7196,75.8577,28.4,77,0.2,942.4,6.8,44.6,65,25.4,17.2,2.3,246.0,99.0,4.5,10,5,7,1,2026-06-30T15:11:49.805782+05:30
Bhopal,Madhya Pradesh,23.2599,77.4126,31.3,63,0.1,947.6,8.15,41.4,68,26.7,16.2,1.2,168.0,105.0,3.9,6,5,7,1,2026-06-30T15:11:49.805790+05:30
Jabalpur,Madhya Pradesh,23.1815,79.9864,28.7,86,0.2,954.7,2.65,35.3,63,55.9,23.5,1.1,162.0,116.0,3.5,10,5,3,1,2026-06-30T15:11:49.805797+05:30
Ujjain,Madhya Pradesh,23.1765,75.7885,25.9,91,0.3,947.8,2.75,44.6,63,26.8,17.4,1.3,180.0,103.0,4.4,10,5,3,1,2026-06-30T15:11:49.805804+05:30
Visakhapatnam,Andhra Pradesh,17.6868,83.2185,33.4,66,0.0,995.4,8.45,37.4,61,23.0,21.0,16.1,475.0,122.0,41.8,3,5,7,1,2026-06-30T15:11:49.805811+05:30
Vijayawada,Andhra Pradesh,16.5062,80.648,34.2,52,0.2,995.8,7.45,44.6,51,9.4,7.7,1.9,133.0,93.0,4.2,3,5,7,1,2026-06-30T15:11:49.805818+05:30
Guntur,Andhra Pradesh,16.3067,80.4365,35.3,45,0.0,997.2,7.75,48.6,45,8.2,6.3,1.6,128.0,86.0,3.5,0,5,10,1,2026-06-30T15:11:49.805825+05:30
Nellore,Andhra Pradesh,14.4426,79.9865,34.7,48,0.0,1000.5,8.1,52.6,31,7.3,5.1,1.8,106.0,91.0,3.5,0,5,4,1,2026-06-30T15:11:49.805833+05:30
Kurnool,Andhra Pradesh,15.8281,78.0373,34.0,45,0.0,972.3,7.2,55.8,25,7.3,4.4,1.7,114.0,70.0,2.0,0,5,7,1,2026-06-30T15:11:49.805841+05:30
Kakinada,Andhra Pradesh,16.9891,82.2475,33.9,57,0.0,999.8,8.75,52.2,45,10.1,9.7,2.6,168.0,119.0,4.3,0,5,7,1,2026-06-30T15:11:49.805848+05:30
Tirupati,Andhra Pradesh,13.6288,79.4192,35.0,42,0.0,986.5,7.55,48.6,28,4.8,2.8,1.0,103.0,70.0,0.7,0,5,7,1,2026-06-30T15:11:49.805855+05:30
Warangal,Telangana,17.9689,79.5941,32.5,54,0.0,972.7,6.95,37.8,45,13.2,9.4,1.7,134.0,98.0,3.1,0,5,7,1,2026-06-30T15:11:49.805862+05:30
Nizamabad,Telangana,18.6725,78.0941,31.1,54,0.0,959.7,2.55,41.0,55,29.7,16.3,1.4,127.0,91.0,4.0,0,5,3,1,2026-06-30T15:11:49.805885+05:30
Mysore,Karnataka,12.2958,76.6396,26.0,71,0.3,927.2,7.45,55.4,26,2.3,1.8,1.8,116.0,66.0,1.1,10,5,7,1,2026-06-30T15:11:49.805893+05:30
Mangalore,Karnataka,12.9141,74.856,25.7,93,0.4,1006.9,5.45,43.6,31,10.3,6.1,1.5,115.0,51.0,1.0,10,5,0,1,2026-06-30T15:11:49.805901+05:30
Hubli-Dharwad,Karnataka,15.3647,75.124,26.4,74,0.1,938.6,5.5,59.8,23,1.6,1.1,1.5,105.0,56.0,0.6,10,5,3,1,2026-06-30T15:11:49.805909+05:30
Belgaum,Karnataka,15.8497,74.4977,24.1,85,0.0,923.4,4.85,54.0,22,2.2,2.0,4.0,100.0,48.0,0.9,3,5,3,1,2026-06-30T15:11:53.112367+05:30
Coimbatore,Tamil Nadu,11.0168,76.9558,29.0,61,0.0,960.3,8.4,63.7,26,9.7,5.5,1.4,131.0,67.0,1.4,7,5,7,1,2026-06-30T15:11:53.112402+05:30
Madurai,Tamil Nadu,9.9252,78.1198,35.5,39,0.1,989.9,8.3,40.3,58,20.6,9.8,1.8,123.0,87.0,1.8,3,5,10,1,2026-06-30T15:11:53.112413+05:30
Trichy,Tamil Nadu,10.7905,78.7047,35.8,38,0.1,996.0,8.3,65.5,29,12.9,7.1,1.3,109.0,80.0,1.5,3,5,10,1,2026-06-30T15:11:53.112423+05:30
Salem,Tamil Nadu,11.6643,78.146,32.8,52,0.0,974.6,7.95,34.9,40,12.5,7.9,2.0,166.0,97.0,4.1,0,5,7,1,2026-06-30T15:11:53.112432+05:30
Tirunelveli,Tamil Nadu,8.7139,77.7567,35.4,39,0.0,1000.9,8.4,52.2,26,13.9,8.0,1.3,107.0,77.0,1.4,0,5,7,1,2026-06-30T15:11:53.112441+05:30
Vellore,Tamil Nadu,12.9165,79.1325,34.3,43,0.0,980.3,8.85,53.3,31,3.7,3.1,1.8,126.0,83.0,1.7,0,5,7,1,2026-06-30T15:11:53.112450+05:30
Erode,Tamil Nadu,11.341,77.7172,33.6,46,0.0,986.4,8.65,46.4,40,13.4,7.7,1.9,149.0,86.0,1.6,0,5,7,1,2026-06-30T15:11:53.112460+05:30
Kochi,Kerala,9.9312,76.2673,28.5,74,0.0,1009.3,8.3,46.8,41,14.8,8.4,2.0,120.0,65.0,1.9,7,0,4,1,2026-06-30T15:11:53.112468+05:30
Thiruvananthapuram,Kerala,8.5241,76.9366,28.3,77,0.0,1008.1,8.4,52.9,34,15.6,8.8,1.0,99.0,65.0,1.0,7,0,4,1,2026-06-30T15:11:53.112477+05:30
Kozhikode,Kerala,11.2588,75.7804,26.5,87,0.1,1008.6,8.1,40.7,25,13.5,6.5,0.6,107.0,55.0,0.5,10,0,4,1,2026-06-30T15:11:53.112487+05:30
Thrissur,Kerala,10.5276,76.2144,28.3,79,0.1,1007.6,7.85,38.2,38,14.1,8.1,1.6,121.0,62.0,1.4,10,5,4,1,2026-06-30T15:11:53.112497+05:30
Kannur,Kerala,11.8745,75.3704,25.9,93,0.3,1007.8,8.4,42.1,27,11.2,6.1,1.4,132.0,52.0,0.8,10,5,4,1,2026-06-30T15:11:53.112506+05:30
Patna,Bihar,25.5941,85.1376,31.8,73,0.0,992.1,8.5,27.7,99,30.6,28.2,3.2,257.0,182.0,13.1,3,5,7,1,2026-06-30T15:11:53.112515+05:30
Gaya,Bihar,24.7914,85.0002,29.6,84,0.2,985.9,7.1,30.2,97,31.2,28.6,1.9,237.0,181.0,10.5,10,5,7,1,2026-06-30T15:11:53.112523+05:30
Muzaffarpur,Bihar,26.1209,85.3647,32.2,74,0.0,991.9,8.35,29.5,95,25.7,23.3,3.5,285.0,171.0,12.0,3,5,7,1,2026-06-30T15:11:53.112531+05:30
Bhagalpur,Bihar,25.2425,87.0117,32.0,73,0.0,993.0,8.35,28.1,112,36.4,35.4,4.4,229.0,209.0,25.2,3,5,7,1,2026-06-30T15:11:53.112539+05:30
Ranchi,Jharkhand,23.3441,85.3096,28.1,75,0.0,931.5,6.4,29.9,93,33.5,32.4,2.3,222.0,148.0,9.2,7,5,7,1,2026-06-30T15:11:53.112548+05:30
Jamshedpur,Jharkhand,22.8046,86.2029,31.3,74,0.0,983.3,8.25,25.9,151,43.4,42.4,4.1,303.0,192.0,22.4,3,5,7,1,2026-06-30T15:11:53.112556+05:30
Dhanbad,Jharkhand,23.7957,86.4304,27.5,93,0.4,972.9,8.8,24.1,163,61.7,60.8,16.3,205.0,228.0,70.2,10,5,7,1,2026-06-30T15:11:53.112565+05:30
Bokaro,Jharkhand,23.6693,86.1511,28.1,86,0.2,976.6,9.05,38.2,154,54.7,53.6,16.5,352.0,203.0,70.7,10,5,7,1,2026-06-30T15:11:53.112573+05:30
Bhubaneswar,Odisha,20.2961,85.8245,29.1,86,0.0,995.1,3.2,32.8,76,18.7,18.3,3.7,214.0,156.0,10.4,7,5,3,1,2026-06-30T15:11:53.112582+05:30
Cuttack,Odisha,20.4625,85.8828,29.0,90,0.0,996.9,3.55,27.7,76,18.7,18.3,3.7,224.0,156.0,10.4,7,5,3,1,2026-06-30T15:11:53.112590+05:30
Rourkela,Odisha,22.2604,84.8536,31.2,73,0.0,977.5,7.6,32.8,96,28.8,27.8,2.3,229.0,163.0,13.6,3,5,7,1,2026-06-30T15:11:53.112598+05:30
Raipur,Chhattisgarh,21.2514,81.6296,30.8,65,0.0,967.4,3.9,38.5,87,20.8,19.1,12.8,173.0,111.0,33.5,3,5,3,1,2026-06-30T15:11:53.112605+05:30
Bhilai,Chhattisgarh,21.1938,81.3509,31.7,61,0.0,968.0,7.9,43.6,82,17.9,15.2,11.5,401.0,106.0,27.0,3,5,7,1,2026-06-30T15:11:53.112611+05:30
Guwahati,Assam,26.1158,91.7086,28.3,93,0.4,993.2,7.65,22.3,54,10.4,10.1,1.5,262.0,117.0,1.6,10,5,7,1,2026-06-30T15:11:53.112618+05:30
Agartala,Tripura,23.8315,91.2868,31.7,68,0.0,997.8,6.45,29.2,52,7.6,7.3,4.0,196.0,109.0,1.3,3,5,7,1,2026-06-30T15:11:53.112625+05:30
Shillong,Meghalaya,25.5788,91.8933,25.0,69,0.0,853.2,7.7,23.8,43,6.5,6.2,2.1,210.0,92.0,1.4,7,5,7,1,2026-06-30T15:11:53.112632+05:30
Imphal,Manipur,24.817,93.9368,27.7,74,0.0,917.1,4.6,32.8,38,4.8,4.7,2.2,172.0,77.0,1.1,7,5,3,1,2026-06-30T15:11:53.112639+05:30
Aizawl,Mizoram,23.7271,92.7176,22.9,90,0.0,886.6,8.4,18.0,32,3.2,3.0,1.4,133.0,65.0,0.3,3,5,7,1,2026-06-30T15:11:53.112646+05:30
Kohima,Nagaland,25.6701,94.1077,22.7,100,0.1,850.9,7.9,19.4,31,6.3,6.0,2.4,150.0,69.0,0.6,6,5,7,1,2026-06-30T15:11:53.112653+05:30
Gangtok,Sikkim,27.3314,88.6138,23.0,77,0.1,834.4,6.5,29.2,56,3.7,3.4,1.9,272.0,124.0,1.6,6,5,7,1,2026-06-30T15:11:53.112660+05:30
Siliguri,West Bengal,26.7271,88.3953,31.1,68,0.0,985.1,6.65,26.6,89,14.6,13.3,2.3,355.0,148.0,3.6,3,5,7,1,2026-06-30T15:11:56.473293+05:30
Durgapur,West Bengal,23.5204,87.3119,28.4,89,0.1,988.0,8.75,26.3,173,93.4,92.4,21.7,442.0,247.0,89.7,10,5,7,1,2026-06-30T15:11:56.473327+05:30
Asansol,West Bengal,23.6739,86.9524,29.7,82,0.1,986.3,8.95,22.3,164,73.1,72.4,20.4,473.0,233.0,74.3,10,5,7,1,2026-06-30T15:11:56.473337+05:30
Pondicherry,Puducherry,11.9139,79.8145,35.3,44,0.0,1004.1,7.65,44.3,46,19.3,14.8,3.5,142.0,125.0,8.0,0,5,7,1,2026-06-30T15:11:56.473345+05:30
Port Blair,Andaman and Nicobar Islands,11.6234,92.7265,27.6,87,0.1,1004.3,7.85,44.6,28,9.0,5.3,0.4,94.0,55.0,0.4,10,5,4,1,2026-06-30T15:11:56.473354+05:30
Haridwar,Uttarakhand,29.9457,78.1642,29.1,90,0.1,967.1,7.0,42.5,146,202.1,66.1,1.8,262.0,170.0,10.9,10,5,7,1,2026-06-30T15:11:56.473361+05:30
Rishikesh,Uttarakhand,30.0869,78.2676,27.1,95,0.1,960.3,7.15,32.4,127,186.7,60.8,1.3,252.0,171.0,12.4,10,5,7,1,2026-06-30T15:11:56.473370+05:30
Nainital,Uttarakhand,29.3919,79.4542,19.1,98,0.2,802.4,5.8,21.6,103,66.8,24.5,1.6,198.0,149.0,5.3,6,10,3,1,2026-06-30T15:11:56.473377+05:30
Mussoorie,Uttarakhand,30.4599,78.0664,20.0,95,0.1,800.6,6.65,32.4,119,177.9,59.3,2.4,201.0,164.0,11.3,6,5,7,1,2026-06-30T15:11:56.473384+05:30
Dharamshala,Himachal Pradesh,32.219,76.3234,25.1,85,0.2,865.0,6.55,27.0,70,47.6,22.8,0.8,225.0,135.0,3.0,10,5,7,1,2026-06-30T15:11:56.473391+05:30
Dalhousie,Himachal Pradesh,32.5387,75.971,20.8,89,0.1,801.7,7.05,22.7,121,112.7,46.9,2.1,235.0,144.0,6.8,6,5,7,1,2026-06-30T15:11:56.473399+05:30
Patiala,Punjab,30.3398,76.3869,36.2,50,0.1,969.3,7.5,46.4,570,1173.5,212.3,2.8,261.0,217.0,13.5,3,5,10,1,2026-06-30T15:11:56.473407+05:30
Bhatinda,Punjab,30.211,74.9455,40.3,33,0.0,973.9,8.3,34.9,161,146.7,57.3,2.3,140.0,126.0,7.1,0,5,10,1,2026-06-30T15:11:56.473414+05:30
Rohtak,Haryana,28.8955,76.6066,39.8,33,0.0,972.6,7.45,35.3,704,1598.1,231.9,2.3,144.0,121.0,4.3,0,5,10,1,2026-06-30T15:11:56.473422+05:30
Panipat,Haryana,29.3909,76.9635,38.1,41,0.0,971.6,7.6,38.9,1119,1855.2,270.1,3.9,238.0,150.0,17.4,0,5,10,1,2026-06-30T15:11:56.473429+05:30
Mathura,Uttar Pradesh,27.4924,77.6737,37.5,36,0.0,978.2,7.45,33.8,230,1173.5,161.6,1.8,155.0,119.0,2.8,0,5,10,1,2026-06-30T15:11:56.473436+05:30
Vrindavan,Uttar Pradesh,27.5823,77.7027,37.2,38,0.0,978.6,7.45,30.6,230,1173.5,161.6,1.8,155.0,119.0,2.8,0,5,10,1,2026-06-30T15:11:56.473442+05:30
Ayodhya,Uttar Pradesh,26.7922,82.1998,33.3,63,0.0,986.8,6.6,24.5,86,32.4,17.6,3.2,291.0,135.0,6.2,3,5,7,1,2026-06-30T15:11:56.473449+05:30
Ratlam,Madhya Pradesh,23.3315,75.0367,30.9,65,0.4,948.4,7.65,42.1,61,25.7,16.4,1.2,118.0,100.0,3.9,6,5,7,1,2026-06-30T15:11:56.473456+05:30
Sagar,Madhya Pradesh,23.8388,78.7378,31.0,67,0.0,943.5,8.6,37.8,65,76.6,30.6,1.2,154.0,111.0,3.1,3,5,7,1,2026-06-30T15:11:56.473463+05:30
Satna,Madhya Pradesh,24.6005,80.8322,30.5,74,0.3,963.6,7.9,37.1,77,127.1,42.0,1.1,146.0,127.0,4.4,6,5,7,1,2026-06-30T15:11:56.473470+05:30
Akola,Maharashtra,20.7002,77.0082,31.6,61,0.0,969.7,3.25,35.6,58,16.9,11.4,3.2,141.0,95.0,8.3,3,5,3,1,2026-06-30T15:11:56.473478+05:30
Amravati,Maharashtra,20.9374,77.7796,29.1,72,0.0,962.0,7.3,38.9,60,16.8,11.5,3.3,157.0,99.0,8.8,7,5,7,1,2026-06-30T15:11:56.473486+05:30
Latur,Maharashtra,18.4088,76.5604,28.7,65,0.2,934.9,5.2,39.2,35,9.3,5.7,1.4,118.0,67.0,1.1,10,5,3,1,2026-06-30T15:11:56.473493+05:30
Nanded,Maharashtra,19.1383,77.3091,31.2,59,0.0,963.4,8.3,35.3,55,26.7,14.8,1.5,122.0,86.0,2.9,0,5,7,1,2026-06-30T15:11:56.473501+05:30
Gulbarga,Karnataka,17.3297,76.8343,30.1,63,0.1,954.1,5.35,51.1,27,4.6,4.1,2.0,123.0,71.0,1.5,6,5,3,1,2026-06-30T15:11:56.473507+05:30
Bidar,Karnataka,17.9104,77.5199,28.4,68,0.1,930.8,5.4,46.8,34,10.6,6.5,2.2,120.0,70.0,1.0,10,5,3,1,2026-06-30T15:11:56.473514+05:30
Hospet,Karnataka,15.2689,76.3909,28.7,66,0.2,952.6,7.0,55.1,25,2.2,1.5,1.2,107.0,65.0,1.2,10,5,7,1,2026-06-30T15:11:56.473521+05:30
Tirupur,Tamil Nadu,11.1085,77.3411,31.7,53,0.0,972.9,8.45,66.2,46,12.5,7.2,1.7,134.0,81.0,1.9,0,5,7,1,2026-06-30T15:11:56.473528+05:30
Alappuzha,Kerala,9.4981,76.3388,28.5,76,0.0,1009.3,8.3,43.9,37,16.8,9.1,2.0,87.0,64.0,1.5,7,0,4,1,2026-06-30T15:11:56.473535+05:30
Munnar,Kerala,10.0889,77.0595,17.8,97,0.3,856.8,7.2,52.2,23,16.8,7.8,1.0,99.0,60.0,1.0,6,10,7,1,2026-06-30T15:11:56.473542+05:30
Silchar,Assam,24.8333,92.7789,33.6,65,0.0,996.0,7.85,22.7,64,8.8,8.3,1.4,164.0,101.0,2.9,3,5,7,1,2026-06-30T15:11:56.473549+05:30
Dibrugarh,Assam,27.4728,94.912,32.7,62,0.0,987.2,7.6,14.8,75,12.8,11.7,1.1,161.0,114.0,1.3,3,5,7,1,2026-06-30T15:11:56.473556+05:30
