city,state,latitude,longitude,temp,humidity,rain,pressure,uv_index,wind_gusts,aqi,pm10,pm2_5,no2,co,o3,so2,mosquito_risk,arthritis_risk,migraine_risk,frizz_risk,updated_at
Delhi,Delhi,28.6139,77.209,30.9,51,0.0,984.5,7.6,35.3,189,330.6,66.8,14.1,444.0,150.0,32.7,0,5,7,1,2026-05-31T10:51:00.069073+05:30
Mumbai,Maharashtra,19.076,72.8777,31.3,69,0.0,1010.0,7.8,38.5,60,31.3,19.2,3.7,159.0,83.0,5.2,3,0,4,1,2026-05-31T10:51:00.069112+05:30
Bangalore,Karnataka,12.9716,77.5946,28.4,61,0.0,914.5,9.25,50.8,81,17.9,13.5,4.9,301.0,119.0,4.4,7,5,7,1,2026-05-31T10:51:00.069127+05:30
Hyderabad,Telangana,17.385,78.4867,31.3,46,0.0,955.2,9.05,63.7,67,41.0,25.3,2.9,210.0,116.0,7.3,0,5,7,1,2026-05-31T10:51:00.069137+05:30
Chennai,Tamil Nadu,13.0827,80.2707,37.2,35,0.0,1007.5,7.9,43.9,83,33.3,27.2,9.2,339.0,121.0,15.2,0,5,7,1,2026-05-31T10:51:00.069145+05:30
Kolkata,West Bengal,22.5726,88.3639,32.2,66,0.0,1006.0,8.85,23.0,152,66.6,38.4,2.1,307.0,145.0,12.2,3,5,4,1,2026-05-31T10:51:00.069153+05:30
Pune,Maharashtra,18.5204,73.8567,33.0,45,0.0,950.3,7.95,43.9,51,25.4,14.4,2.2,136.0,83.0,5.4,0,5,7,1,2026-05-31T10:51:00.069159+05:30
Ahmedabad,Gujarat,23.0225,72.5714,34.8,46,0.0,1002.1,8.1,53.3,72,44.8,17.4,1.5,132.0,71.0,3.9,0,5,4,1,2026-05-31T10:51:00.069166+05:30
Jaipur,Rajasthan,26.9124,75.7873,32.0,36,0.0,961.3,8.15,46.4,91,97.8,23.9,2.3,206.0,116.0,5.3,0,5,7,0,2026-05-31T10:51:00.069176+05:30
Lucknow,Uttar Pradesh,26.8467,80.9462,32.3,50,0.0,994.9,8.15,45.0,73,37.1,28.2,2.9,291.0,172.0,10.1,0,5,7,1,2026-05-31T10:51:00.069183+05:30
Kanpur,Uttar Pradesh,26.4499,80.3319,32.5,50,0.0,993.2,8.1,24.1,126,121.1,37.7,3.2,284.0,173.0,10.4,0,5,7,1,2026-05-31T10:51:00.069189+05:30
Chandigarh,Chandigarh,30.7333,76.7794,27.3,53,0.0,971.1,6.3,19.8,79,42.0,23.0,4.7,350.0,153.0,8.0,4,5,7,1,2026-05-31T10:51:00.069196+05:30
Srinagar,Jammu and Kashmir,34.0837,74.7973,23.0,43,0.0,844.3,8.95,23.4,113,81.5,35.9,2.0,337.0,157.0,5.7,0,5,7,0,2026-05-31T10:51:00.069203+05:30
Jammu,Jammu and Kashmir,32.7266,74.857,29.6,40,0.0,975.2,8.5,28.4,119,74.5,27.7,1.9,262.0,168.0,3.5,4,5,7,0,2026-05-31T10:51:00.069210+05:30
Amritsar,Punjab,31.634,74.8723,30.1,46,0.0,982.9,8.3,32.0,73,145.3,37.6,2.5,314.0,160.0,8.9,0,5,7,1,2026-05-31T10:51:00.069216+05:30
Ludhiana,Punjab,30.901,75.8573,29.7,50,0.0,980.8,7.25,34.9,81,215.6,47.6,3.1,371.0,153.0,8.9,4,5,7,1,2026-05-31T10:51:00.069223+05:30
Jalandhar,Punjab,31.326,75.5762,30.6,40,0.0,981.9,7.2,33.5,70,216.5,47.5,2.9,335.0,162.0,10.5,0,5,7,0,2026-05-31T10:51:00.069229+05:30
Dehradun,Uttarakhand,30.6284,78.0322,19.1,57,0.0,833.8,5.25,25.2,61,31.3,13.8,0.2,227.0,159.0,2.5,0,5,3,0,2026-05-31T10:51:00.069237+05:30
Shimla,Himachal Pradesh,31.1048,77.1734,16.8,54,0.1,787.3,6.25,26.6,67,30.0,14.1,1.5,235.0,149.0,1.9,3,5,7,0,2026-05-31T10:51:00.069250+05:30
Manali,Himachal Pradesh,32.2396,77.1887,18.7,64,0.0,820.5,7.1,33.8,41,15.1,6.4,1.9,166.0,151.0,0.6,3,5,7,0,2026-05-31T10:51:00.069256+05:30
Gurgaon,Haryana,28.4595,77.0266,31.3,49,0.0,982.8,7.7,38.2,1044,1400.7,175.6,9.0,373.0,145.0,18.3,0,5,7,1,2026-05-31T10:51:00.069263+05:30
Noida,Uttar Pradesh,28.5355,77.391,31.1,53,0.0,986.1,7.65,37.1,1044,1400.7,175.6,9.0,362.0,145.0,18.3,0,5,7,1,2026-05-31T10:51:00.069271+05:30
Ghaziabad,Uttar Pradesh,28.6692,77.4538,31.1,52,0.0,984.4,7.6,44.6,117,265.4,49.2,4.6,314.0,147.0,15.0,0,5,7,1,2026-05-31T10:51:00.069277+05:30
Faridabad,Haryana,28.4089,77.3178,31.0,51,0.0,985.3,7.65,40.0,1044,1400.7,175.6,9.0,357.0,145.0,18.3,0,5,7,1,2026-05-31T10:51:00.069283+05:30
Meerut,Uttar Pradesh,28.9845,77.7064,29.6,58,0.0,983.5,7.5,31.7,117,265.4,49.2,4.6,330.0,147.0,15.0,4,5,7,1,2026-05-31T10:51:00.069289+05:30
Agra,Uttar Pradesh,27.1767,78.0081,32.4,47,0.0,989.4,7.9,33.8,612,573.7,76.6,3.0,307.0,150.0,7.2,0,5,7,1,2026-05-31T10:51:00.069295+05:30
Varanasi,Uttar Pradesh,25.3176,82.9739,32.5,52,0.0,998.8,8.7,22.7,105,59.8,38.6,3.5,421.0,176.0,12.6,0,5,7,1,2026-05-31T10:51:00.069301+05:30
Prayagraj,Uttar Pradesh,25.4358,81.8463,34.0,45,0.0,996.9,8.55,23.4,87,49.8,35.4,3.7,375.0,180.0,13.2,0,5,7,1,2026-05-31T10:51:00.069308+05:30
Gorakhpur,Uttar Pradesh,26.7606,83.3732,31.5,57,0.0,998.9,8.55,27.7,77,51.2,39.3,2.4,319.0,175.0,12.6,0,5,7,1,2026-05-31T10:51:00.069339+05:30
Bareilly,Uttar Pradesh,28.367,79.4304,30.4,53,0.0,989.0,7.95,29.5,92,20.7,15.3,1.6,311.0,139.0,2.3,0,5,7,1,2026-05-31T10:51:00.069346+05:30
Aligarh,Uttar Pradesh,27.8974,78.088,32.0,49,0.0,987.2,7.75,51.8,185,472.2,64.7,3.7,315.0,144.0,10.5,0,5,7,1,2026-05-31T10:51:00.069352+05:30
Moradabad,Uttar Pradesh,28.8386,78.7733,29.5,55,0.0,986.0,7.75,35.6,97,30.4,22.8,3.6,330.0,149.0,9.0,4,5,7,1,2026-05-31T10:51:00.069358+05:30
Saharanpur,Uttar Pradesh,29.9637,77.546,26.6,67,0.0,978.2,4.95,31.7,81,48.2,30.2,2.5,332.0,151.0,10.0,7,5,3,1,2026-05-31T10:51:00.069365+05:30
Jhansi,Uttar Pradesh,25.4484,78.5685,33.2,43,0.0,979.5,8.35,20.9,60,22.9,16.7,2.8,245.0,150.0,12.1,0,5,7,1,2026-05-31T10:51:03.301108+05:30
Surat,Gujarat,21.1702,72.8311,33.4,59,0.0,1007.3,7.65,50.8,78,39.8,24.0,10.2,265.0,61.0,31.6,0,5,4,1,2026-05-31T10:51:03.301140+05:30
Vadodara,Gujarat,22.3072,73.1812,34.2,54,0.0,1004.4,8.0,43.6,75,43.2,19.6,1.6,137.0,72.0,3.1,0,5,4,1,2026-05-31T10:51:03.301153+05:30
Rajkot,Gujarat,22.3039,70.8022,35.0,46,0.0,994.0,7.7,43.6,65,47.8,21.0,1.2,109.0,70.0,3.0,0,5,7,1,2026-05-31T10:51:03.301164+05:30
Thane,Maharashtra,19.2183,72.9781,32.5,62,0.1,1009.3,7.8,37.1,60,31.3,19.2,3.7,158.0,83.0,5.2,6,0,4,1,2026-05-31T10:51:03.301174+05:30
Nagpur,Maharashtra,21.1458,79.0882,37.0,30,0.0,973.3,8.85,41.4,91,41.6,25.2,9.8,226.0,131.0,35.4,0,5,10,1,2026-05-31T10:51:03.301183+05:30
Nashik,Maharashtra,19.9975,73.7898,32.5,46,0.0,947.6,8.1,47.5,57,30.4,14.4,1.1,121.0,72.0,1.3,0,5,7,1,2026-05-31T10:51:03.301192+05:30
Aurangabad,Maharashtra,19.8762,75.3433,32.7,44,0.0,946.1,8.9,54.7,63,39.8,17.2,1.4,127.0,80.0,3.4,0,5,7,1,2026-05-31T10:51:03.301201+05:30
Solapur,Maharashtra,17.6599,75.9064,33.9,44,0.0,959.3,8.95,59.8,60,26.8,14.3,1.5,128.0,83.0,3.3,0,5,7,1,2026-05-31T10:51:03.301210+05:30
Kolhapur,Maharashtra,16.705,74.2433,32.2,49,0.0,950.7,8.75,44.6,39,11.3,7.1,1.7,130.0,74.0,1.8,0,5,7,1,2026-05-31T10:51:03.301218+05:30
Goa,Goa,15.2993,74.124,31.7,69,0.0,1000.3,7.25,31.7,51,16.0,10.1,0.7,150.0,64.0,1.3,3,5,4,1,2026-05-31T10:51:03.301226+05:30
Jodhpur,Rajasthan,26.2389,73.0243,33.8,47,0.0,982.8,8.4,38.2,96,186.3,40.2,0.9,122.0,73.0,1.9,0,5,7,1,2026-05-31T10:51:03.301235+05:30
Udaipur,Rajasthan,24.5854,73.7125,31.9,48,0.0,947.4,8.8,34.9,68,49.1,23.4,1.5,126.0,79.0,5.1,0,5,7,1,2026-05-31T10:51:03.301243+05:30
Kota,Rajasthan,25.2138,75.8648,34.3,38,0.0,980.0,8.35,32.8,63,40.6,19.1,1.7,151.0,113.0,6.7,0,5,7,1,2026-05-31T10:51:03.301252+05:30
Bikaner,Rajasthan,28.0229,73.3119,33.7,44,0.0,981.9,8.35,24.1,60,119.7,30.2,1.0,163.0,90.0,4.0,0,5,7,1,2026-05-31T10:51:03.301260+05:30
Ajmer,Rajasthan,26.4499,74.6399,32.0,41,0.0,955.6,8.3,41.0,53,41.8,18.2,1.4,135.0,96.0,3.5,0,5,7,1,2026-05-31T10:51:03.301268+05:30
Gwalior,Madhya Pradesh,26.2183,78.1828,33.0,44,0.0,984.6,8.15,22.7,83,53.0,26.7,1.7,243.0,144.0,7.4,0,5,7,1,2026-05-31T10:51:03.301277+05:30
Indore,Madhya Pradesh,22.7196,75.8577,33.2,41,0.0,949.5,8.55,67.7,70,35.9,20.4,1.8,157.0,81.0,3.7,0,5,7,1,2026-05-31T10:51:03.301285+05:30
Bhopal,Madhya Pradesh,23.2599,77.4126,34.8,30,0.0,954.9,8.6,42.1,62,18.0,10.0,1.4,208.0,124.0,5.8,0,5,7,0,2026-05-31T10:51:03.301294+05:30
Jabalpur,Madhya Pradesh,23.1815,79.9864,36.0,32,0.0,962.0,8.75,62.6,67,34.5,17.9,1.2,212.0,140.0,5.7,0,5,10,1,2026-05-31T10:51:03.301303+05:30
Ujjain,Madhya Pradesh,23.1765,75.7885,33.3,43,0.0,955.1,8.4,52.6,69,36.7,20.6,1.6,143.0,77.0,4.6,0,5,7,1,2026-05-31T10:51:03.301334+05:30
Visakhapatnam,Andhra Pradesh,17.6868,83.2185,35.2,52,0.0,1002.7,9.0,39.6,102,55.4,48.5,27.1,751.0,137.0,74.1,0,5,7,1,2026-05-31T10:51:03.301343+05:30
Vijayawada,Andhra Pradesh,16.5062,80.648,38.1,38,0.0,1001.7,9.05,40.7,76,25.7,21.5,3.2,202.0,131.0,8.0,0,5,7,1,2026-05-31T10:51:03.301349+05:30
Guntur,Andhra Pradesh,16.3067,80.4365,37.9,38,0.0,1003.0,8.95,47.9,73,25.9,20.1,2.9,194.0,126.0,7.2,0,5,7,1,2026-05-31T10:51:03.301355+05:30
Nellore,Andhra Pradesh,14.4426,79.9865,35.8,46,0.0,1005.7,8.25,35.3,69,20.4,16.6,3.0,165.0,122.0,7.0,0,5,7,1,2026-05-31T10:51:03.301363+05:30
Kurnool,Andhra Pradesh,15.8281,78.0373,34.8,43,0.0,978.5,8.95,51.8,56,29.5,17.4,2.8,151.0,97.0,8.3,0,5,7,1,2026-05-31T10:51:03.301370+05:30
Kakinada,Andhra Pradesh,16.9891,82.2475,36.2,50,0.0,1006.1,8.85,36.0,79,30.7,24.6,2.7,312.0,132.0,5.1,0,5,7,1,2026-05-31T10:51:03.301376+05:30
Tirupati,Andhra Pradesh,13.6288,79.4192,35.7,41,0.0,991.7,8.95,49.3,70,23.5,17.3,2.1,163.0,123.0,2.7,0,5,10,1,2026-05-31T10:51:03.301383+05:30
Warangal,Telangana,17.9689,79.5941,35.0,39,0.0,979.1,9.0,54.7,91,44.0,26.4,3.0,181.0,123.0,8.0,0,5,7,1,2026-05-31T10:51:03.301389+05:30
Nizamabad,Telangana,18.6725,78.0941,33.5,44,0.0,966.0,9.0,53.3,85,52.6,23.9,1.2,158.0,92.0,3.1,0,5,7,1,2026-05-31T10:51:03.301395+05:30
Mysore,Karnataka,12.2958,76.6396,26.9,70,0.0,931.0,9.15,45.0,52,12.9,8.6,2.1,147.0,95.0,1.7,7,5,7,1,2026-05-31T10:51:03.301401+05:30
Mangalore,Karnataka,12.9141,74.856,30.6,70,0.0,1009.1,8.6,34.2,41,10.8,7.6,2.0,166.0,85.0,2.6,3,0,4,1,2026-05-31T10:51:03.301407+05:30
Hubli-Dharwad,Karnataka,15.3647,75.124,32.0,51,0.0,943.9,8.9,43.9,38,12.0,7.3,1.3,137.0,75.0,1.0,0,5,7,1,2026-05-31T10:51:03.301413+05:30
Belgaum,Karnataka,15.8497,74.4977,30.1,54,0.0,929.2,7.3,42.1,24,12.1,7.1,1.4,123.0,74.0,1.6,0,5,7,1,2026-05-31T10:51:06.534404+05:30
Coimbatore,Tamil Nadu,11.0168,76.9558,32.6,51,0.0,963.7,8.1,46.8,30,13.1,7.5,1.5,132.0,91.0,2.1,0,5,7,1,2026-05-31T10:51:06.534437+05:30
Madurai,Tamil Nadu,9.9252,78.1198,35.9,41,0.0,994.0,8.75,27.0,73,25.7,16.6,5.1,177.0,137.0,4.9,0,5,10,1,2026-05-31T10:51:06.534447+05:30
Trichy,Tamil Nadu,10.7905,78.7047,34.8,49,0.0,1000.7,8.85,41.4,52,10.6,7.8,2.2,151.0,97.0,3.3,0,5,4,1,2026-05-31T10:51:06.534456+05:30
Salem,Tamil Nadu,11.6643,78.146,34.7,42,0.0,978.9,8.75,35.6,70,25.8,19.3,5.0,193.0,145.0,13.8,0,5,7,1,2026-05-31T10:51:06.534463+05:30
Tirunelveli,Tamil Nadu,8.7139,77.7567,36.3,40,0.0,1004.2,8.75,32.8,22,6.0,3.9,1.3,132.0,73.0,1.1,0,5,7,1,2026-05-31T10:51:06.534470+05:30
Vellore,Tamil Nadu,12.9165,79.1325,34.8,43,0.0,985.4,8.7,35.3,96,31.7,24.4,4.1,223.0,142.0,5.2,0,5,7,1,2026-05-31T10:51:06.534477+05:30
Erode,Tamil Nadu,11.341,77.7172,35.0,43,0.0,990.3,8.45,53.6,51,15.3,10.5,2.7,187.0,111.0,2.8,0,5,7,1,2026-05-31T10:51:06.534484+05:30
Kochi,Kerala,9.9312,76.2673,29.2,77,0.0,1011.4,8.35,35.6,61,13.0,9.8,3.1,144.0,87.0,4.1,7,0,4,1,2026-05-31T10:51:06.534491+05:30
Thiruvananthapuram,Kerala,8.5241,76.9366,28.5,79,0.1,1010.8,8.0,39.6,27,7.9,4.5,1.1,115.0,66.0,0.6,10,0,4,1,2026-05-31T10:51:06.534497+05:30
Kozhikode,Kerala,11.2588,75.7804,30.7,70,0.0,1010.4,7.45,38.5,28,6.5,4.0,0.8,163.0,66.0,0.9,3,0,4,1,2026-05-31T10:51:06.534504+05:30
Thrissur,Kerala,10.5276,76.2144,30.0,74,0.0,1009.6,7.85,32.0,55,10.0,7.8,3.0,173.0,81.0,4.1,7,0,4,1,2026-05-31T10:51:06.534512+05:30
Kannur,Kerala,11.8745,75.3704,29.9,76,0.0,1009.7,8.65,36.0,38,8.6,6.2,1.5,156.0,75.0,1.9,7,0,4,1,2026-05-31T10:51:06.534518+05:30
Patna,Bihar,25.5941,85.1376,29.2,73,0.0,1001.9,8.6,33.5,151,83.1,59.1,4.2,394.0,200.0,20.0,7,5,4,1,2026-05-31T10:51:06.534525+05:30
Gaya,Bihar,24.7914,85.0002,30.6,64,0.0,995.1,8.85,20.2,152,75.9,56.5,3.1,350.0,191.0,29.1,3,5,7,1,2026-05-31T10:51:06.534532+05:30
Muzaffarpur,Bihar,26.1209,85.3647,30.2,69,0.0,1001.9,8.8,33.5,135,78.7,59.4,4.1,377.0,196.0,20.9,3,5,4,1,2026-05-31T10:51:06.534538+05:30
Bhagalpur,Bihar,25.2425,87.0117,32.2,63,0.0,1002.2,8.75,25.2,156,97.3,63.3,4.1,342.0,204.0,37.0,3,5,4,1,2026-05-31T10:51:06.534545+05:30
Ranchi,Jharkhand,23.3441,85.3096,29.5,57,0.0,939.4,9.25,20.9,134,52.4,33.5,0.7,234.0,142.0,8.3,4,5,7,1,2026-05-31T10:51:06.534551+05:30
Jamshedpur,Jharkhand,22.8046,86.2029,31.2,61,0.0,991.7,9.05,36.7,118,56.5,36.1,5.3,386.0,145.0,26.1,3,5,7,1,2026-05-31T10:51:06.534557+05:30
Dhanbad,Jharkhand,23.7957,86.4304,30.8,64,0.0,980.9,8.85,28.1,164,75.7,56.1,22.5,423.0,149.0,82.4,3,5,7,1,2026-05-31T10:51:06.534564+05:30
Bokaro,Jharkhand,23.6693,86.1511,30.8,65,0.0,984.8,9.05,23.8,172,80.6,58.1,23.2,608.0,150.0,91.4,3,5,7,1,2026-05-31T10:51:06.534570+05:30
Bhubaneswar,Odisha,20.2961,85.8245,33.0,63,0.0,1002.3,9.1,29.5,108,35.0,26.1,2.3,220.0,132.0,7.6,3,5,4,1,2026-05-31T10:51:06.534577+05:30
Cuttack,Odisha,20.4625,85.8828,32.8,64,0.0,1004.1,9.15,32.8,108,35.0,26.1,2.3,233.0,132.0,7.6,3,5,4,1,2026-05-31T10:51:06.534583+05:30
Rourkela,Odisha,22.2604,84.8536,31.1,63,0.0,985.6,8.7,37.1,141,67.8,44.9,4.5,269.0,161.0,28.3,3,5,7,1,2026-05-31T10:51:06.534590+05:30
Raipur,Chhattisgarh,21.2514,81.6296,35.2,42,0.0,975.3,9.0,53.6,127,66.8,44.6,11.5,251.0,158.0,39.7,0,5,10,1,2026-05-31T10:51:06.534596+05:30
Bhilai,Chhattisgarh,21.1938,81.3509,34.5,45,0.0,975.7,9.0,55.4,133,76.6,53.6,21.0,287.0,151.0,70.8,0,5,7,1,2026-05-31T10:51:06.534603+05:30
Guwahati,Assam,26.1158,91.7086,31.1,68,0.0,1001.9,8.75,29.9,64,39.0,21.4,0.8,311.0,130.0,2.8,3,5,4,1,2026-05-31T10:51:06.534610+05:30
Agartala,Tripura,23.8315,91.2868,32.7,59,0.0,1006.1,8.85,23.0,157,55.2,34.2,3.4,339.0,184.0,7.4,0,5,4,1,2026-05-31T10:51:06.534616+05:30
Shillong,Meghalaya,25.5788,91.8933,23.1,72,0.0,859.8,7.95,22.7,65,45.4,20.7,0.6,222.0,119.0,2.4,3,5,7,1,2026-05-31T10:51:06.534623+05:30
Imphal,Manipur,24.817,93.9368,24.7,78,0.0,924.7,8.55,24.5,79,11.8,8.1,1.2,193.0,73.0,1.2,3,5,7,1,2026-05-31T10:51:06.534629+05:30
Aizawl,Mizoram,23.7271,92.7176,25.0,74,0.0,893.8,7.8,21.6,50,19.5,9.3,0.5,211.0,82.0,0.5,7,5,7,1,2026-05-31T10:51:06.534636+05:30
Kohima,Nagaland,25.6701,94.1077,20.9,96,0.0,857.1,3.7,18.7,58,20.3,12.3,0.7,197.0,89.0,0.9,3,5,3,1,2026-05-31T10:51:06.534642+05:30
Gangtok,Sikkim,27.3314,88.6138,24.8,45,0.0,841.9,9.15,42.1,66,31.8,16.9,0.3,190.0,126.0,1.5,0,5,7,0,2026-05-31T10:51:06.534649+05:30
Siliguri,West Bengal,26.7271,88.3953,31.0,66,0.1,994.0,8.7,17.6,134,67.5,38.0,1.1,357.0,166.0,4.7,6,5,7,1,2026-05-31T10:51:09.761745+05:30
Durgapur,West Bengal,23.5204,87.3119,31.8,67,0.0,995.8,8.95,17.6,160,68.0,52.2,17.9,276.0,157.0,68.0,3,5,7,1,2026-05-31T10:51:09.761774+05:30
Asansol,West Bengal,23.6739,86.9524,31.9,64,0.0,994.5,8.9,24.5,156,67.3,50.2,15.9,480.0,151.0,59.9,3,5,7,1,2026-05-31T10:51:09.761784+05:30
Pondicherry,Puducherry,11.9139,79.8145,33.8,57,0.0,1008.8,8.75,38.5,77,25.8,21.7,6.4,257.0,119.0,10.6,0,0,4,1,2026-05-31T10:51:09.761793+05:30
Port Blair,Andaman and Nicobar Islands,11.6234,92.7265,30.2,74,0.1,1007.8,8.1,39.2,35,8.6,5.3,0.2,121.0,79.0,0.4,6,5,4,1,2026-05-31T10:51:09.761801+05:30
Haridwar,Uttarakhand,29.9457,78.1642,28.5,57,0.0,976.8,4.4,23.0,71,32.9,22.8,1.6,264.0,156.0,7.8,4,5,3,1,2026-05-31T10:51:09.761808+05:30
Rishikesh,Uttarakhand,30.0869,78.2676,28.6,55,0.0,969.4,5.7,26.6,65,29.6,17.6,0.9,276.0,153.0,4.6,4,5,3,1,2026-05-31T10:51:09.761816+05:30
Nainital,Uttarakhand,29.3919,79.4542,18.3,61,0.0,809.1,6.75,25.2,61,15.8,8.7,1.0,244.0,137.0,1.4,3,5,7,0,2026-05-31T10:51:09.761823+05:30
Mussoorie,Uttarakhand,30.4599,78.0664,16.4,65,0.0,805.8,5.25,29.5,59,37.7,18.2,0.3,255.0,166.0,4.7,3,5,3,0,2026-05-31T10:51:09.761831+05:30
Dharamshala,Himachal Pradesh,32.219,76.3234,21.3,61,0.0,871.7,6.85,34.2,38,25.4,10.0,0.3,208.0,140.0,0.7,3,5,7,0,2026-05-31T10:51:09.761838+05:30
Dalhousie,Himachal Pradesh,32.5387,75.971,18.0,65,0.0,807.5,7.85,35.3,67,57.6,19.2,0.9,227.0,162.0,2.5,3,5,7,0,2026-05-31T10:51:09.761846+05:30
Patiala,Punjab,30.3398,76.3869,29.6,54,0.0,980.2,7.5,32.4,180,111.3,33.1,4.3,320.0,142.0,9.8,4,5,7,1,2026-05-31T10:51:09.761853+05:30
Bhatinda,Punjab,30.211,74.9455,30.4,50,0.0,985.1,8.2,29.2,384,453.6,88.7,4.7,293.0,161.0,20.9,0,5,7,1,2026-05-31T10:51:09.761860+05:30
Rohtak,Haryana,28.8955,76.6066,31.0,49,0.0,983.2,7.6,38.2,558,360.4,75.0,11.8,358.0,145.0,24.6,0,5,7,1,2026-05-31T10:51:09.761867+05:30
Panipat,Haryana,29.3909,76.9635,29.4,58,0.0,982.4,7.45,45.0,889,196.0,54.6,11.6,350.0,127.0,22.7,4,5,7,1,2026-05-31T10:51:09.761874+05:30
Mathura,Uttar Pradesh,27.4924,77.6737,31.9,50,0.0,988.4,7.85,42.5,608,586.7,76.4,2.9,329.0,143.0,5.0,0,5,7,1,2026-05-31T10:51:09.761881+05:30
Vrindavan,Uttar Pradesh,27.5823,77.7027,31.8,50,0.0,988.9,7.85,44.6,608,586.7,76.4,2.9,327.0,143.0,5.0,0,5,7,1,2026-05-31T10:51:09.761888+05:30
Ayodhya,Uttar Pradesh,26.7922,82.1998,31.5,57,0.0,997.2,8.25,27.4,74,39.6,30.4,2.7,298.0,169.0,9.4,0,5,7,1,2026-05-31T10:51:09.761895+05:30
Ratlam,Madhya Pradesh,23.3315,75.0367,32.8,47,0.0,956.2,8.4,47.2,69,40.4,22.4,1.7,129.0,78.0,5.8,0,5,7,1,2026-05-31T10:51:09.761902+05:30
Sagar,Madhya Pradesh,23.8388,78.7378,33.0,34,0.1,951.6,8.65,33.8,50,19.2,9.3,1.5,173.0,133.0,6.2,3,5,7,0,2026-05-31T10:51:09.761909+05:30
Satna,Madhya Pradesh,24.6005,80.8322,34.5,36,0.0,972.1,8.7,25.2,65,36.1,21.4,2.4,278.0,149.0,13.8,0,5,7,1,2026-05-31T10:51:09.761916+05:30
Akola,Maharashtra,20.7002,77.0082,34.5,42,0.0,976.5,8.75,64.1,74,37.7,20.8,2.3,128.0,96.0,7.7,0,5,7,1,2026-05-31T10:51:09.761924+05:30
Amravati,Maharashtra,20.9374,77.7796,34.4,39,0.0,968.5,8.75,49.0,75,39.2,21.2,2.7,159.0,108.0,9.8,0,5,7,1,2026-05-31T10:51:09.761932+05:30
Latur,Maharashtra,18.4088,76.5604,33.5,40,0.0,942.1,8.95,57.2,59,51.0,19.7,1.7,146.0,85.0,4.7,0,5,7,1,2026-05-31T10:51:09.761939+05:30
Nanded,Maharashtra,19.1383,77.3091,35.2,37,0.0,969.8,8.9,51.8,74,46.7,21.3,1.5,138.0,89.0,2.8,0,5,10,1,2026-05-31T10:51:09.761946+05:30
Gulbarga,Karnataka,17.3297,76.8343,34.7,39,0.0,960.9,8.95,53.3,55,29.8,15.4,1.7,136.0,85.0,3.2,0,5,7,1,2026-05-31T10:51:09.761953+05:30
Bidar,Karnataka,17.9104,77.5199,31.2,49,0.0,937.8,9.0,57.6,68,54.7,25.7,2.0,153.0,105.0,8.0,0,5,7,1,2026-05-31T10:51:09.761960+05:30
Hospet,Karnataka,15.2689,76.3909,31.6,55,0.0,958.5,8.95,61.9,47,11.6,7.1,1.7,146.0,75.0,2.5,0,5,7,1,2026-05-31T10:51:09.761966+05:30
Tirupur,Tamil Nadu,11.1085,77.3411,35.2,40,0.0,976.7,8.25,41.4,52,15.4,10.3,2.5,141.0,109.0,2.9,0,5,10,1,2026-05-31T10:51:09.761973+05:30
Alappuzha,Kerala,9.4981,76.3388,28.5,80,0.1,1011.6,8.15,35.3,41,9.2,5.9,2.0,102.0,70.0,1.6,10,0,4,1,2026-05-31T10:51:09.761979+05:30
Munnar,Kerala,10.0889,77.0595,22.5,78,0.0,860.5,8.3,29.2,28,13.9,7.5,1.0,116.0,86.0,1.4,3,5,7,1,2026-05-31T10:51:09.761987+05:30
Silchar,Assam,24.8333,92.7789,31.7,69,0.0,1004.7,8.9,16.6,122,43.5,23.3,1.4,224.0,107.0,3.3,3,5,4,1,2026-05-31T10:51:09.761994+05:30
Dibrugarh,Assam,27.4728,94.912,31.0,66,0.0,995.7,6.1,23.4,121,33.5,24.1,1.0,176.0,108.0,1.8,3,5,7,1,2026-05-31T10:51:09.762000+05:30
