city,state,latitude,longitude,temp,humidity,rain,pressure,uv_index,wind_gusts,aqi,pm10,pm2_5,mosquito_risk,arthritis_risk,migraine_risk,frizz_risk,updated_at
Delhi,Delhi,28.6139,77.209,28.0,56,0.0,986.1,6.6,40.0,149,470.3,88.5,4,5,7,1,2026-04-03T10:37:56.906731+05:30
Mumbai,Maharashtra,19.076,72.8777,27.7,74,0.0,1011.7,7.2,25.2,73,53.3,30.6,7,0,4,1,2026-04-03T10:37:56.906768+05:30
Bangalore,Karnataka,12.9716,77.5946,27.9,58,0.0,915.4,9.6,27.7,67,24.5,22.8,4,5,7,1,2026-04-03T10:37:56.906783+05:30
Hyderabad,Telangana,17.385,78.4867,32.2,42,0.0,957.2,8.9,22.7,70,19.4,15.0,0,5,7,1,2026-04-03T10:37:56.906792+05:30
Chennai,Tamil Nadu,13.0827,80.2707,32.4,55,0.0,1011.1,9.3,36.0,44,16.5,12.9,0,0,4,1,2026-04-03T10:37:56.906800+05:30
Kolkata,West Bengal,22.5726,88.3639,33.0,63,0.0,1008.2,8.65,20.9,66,26.3,23.1,3,0,4,1,2026-04-03T10:37:56.906809+05:30
Pune,Maharashtra,18.5204,73.8567,30.4,56,0.0,951.7,8.35,37.1,133,48.3,39.3,0,5,7,1,2026-04-03T10:37:56.906820+05:30
Ahmedabad,Gujarat,23.0225,72.5714,29.4,44,0.0,1006.1,7.6,42.5,62,71.2,23.2,4,5,4,0,2026-04-03T10:37:56.906828+05:30
Jaipur,Rajasthan,26.9124,75.7873,29.9,37,0.0,962.8,7.5,63.0,124,224.4,40.9,4,5,7,0,2026-04-03T10:37:56.906835+05:30
Lucknow,Uttar Pradesh,26.8467,80.9462,31.4,47,0.0,996.5,6.55,32.4,81,74.5,28.1,0,5,7,1,2026-04-03T10:37:56.906843+05:30
Kanpur,Uttar Pradesh,26.4499,80.3319,29.1,64,0.0,995.0,6.95,26.3,102,206.3,40.7,7,5,7,1,2026-04-03T10:37:56.906849+05:30
Chandigarh,Chandigarh,30.7333,76.7794,26.9,58,0.0,971.5,6.7,43.9,67,179.3,45.4,4,5,7,1,2026-04-03T10:37:56.906856+05:30
Srinagar,Jammu and Kashmir,34.0837,74.7973,13.8,69,0.0,842.6,6.15,42.8,101,31.7,20.8,3,5,7,0,2026-04-03T10:37:56.906863+05:30
Jammu,Jammu and Kashmir,32.7266,74.857,23.0,71,0.0,976.2,5.3,40.3,67,29.7,18.6,3,5,3,1,2026-04-03T10:37:56.906870+05:30
Amritsar,Punjab,31.634,74.8723,21.7,82,0.0,983.1,4.4,49.7,92,61.5,23.5,3,5,3,1,2026-04-03T10:37:56.906877+05:30
Ludhiana,Punjab,30.901,75.8573,24.9,62,0.0,981.5,3.65,47.5,114,137.4,38.3,3,5,3,1,2026-04-03T10:37:56.906884+05:30
Jalandhar,Punjab,31.326,75.5762,22.2,77,0.0,982.5,4.55,51.5,93,73.6,26.6,3,5,3,1,2026-04-03T10:37:56.906892+05:30
Dehradun,Uttarakhand,30.6284,78.0322,22.1,40,0.0,835.2,6.45,46.8,28,16.4,5.2,0,5,7,0,2026-04-03T10:37:56.906899+05:30
Shimla,Himachal Pradesh,31.1048,77.1734,19.4,47,0.0,788.8,7.05,59.0,53,21.7,7.3,0,5,7,0,2026-04-03T10:37:56.906908+05:30
Manali,Himachal Pradesh,32.2396,77.1887,23.0,27,0.0,824.0,7.1,50.0,49,9.5,3.2,0,5,7,0,2026-04-03T10:37:56.906914+05:30
Gurgaon,Haryana,28.4595,77.0266,29.1,53,0.0,984.6,6.75,41.4,503,1747.2,201.2,4,5,7,1,2026-04-03T10:37:56.906921+05:30
Noida,Uttar Pradesh,28.5355,77.391,28.4,55,0.0,987.6,6.6,40.0,503,1747.2,201.2,4,5,7,1,2026-04-03T10:37:56.906928+05:30
Ghaziabad,Uttar Pradesh,28.6692,77.4538,27.7,59,0.0,985.7,6.6,33.5,129,347.4,81.3,4,5,7,1,2026-04-03T10:37:56.906934+05:30
Faridabad,Haryana,28.4089,77.3178,29.0,52,0.0,987.0,6.65,37.8,503,1747.2,201.2,4,5,7,1,2026-04-03T10:37:56.906940+05:30
Meerut,Uttar Pradesh,28.9845,77.7064,27.6,64,0.0,984.5,5.55,29.9,129,347.4,81.3,7,5,3,1,2026-04-03T10:37:56.906946+05:30
Agra,Uttar Pradesh,27.1767,78.0081,33.6,36,0.0,990.9,6.9,48.2,251,1173.5,121.5,0,5,7,1,2026-04-03T10:37:56.906953+05:30
Varanasi,Uttar Pradesh,25.3176,82.9739,34.5,40,0.0,1000.0,7.8,37.1,91,52.2,22.5,0,5,4,1,2026-04-03T10:37:56.906962+05:30
Prayagraj,Uttar Pradesh,25.4358,81.8463,34.6,35,0.0,998.7,7.15,36.7,90,63.3,24.9,0,5,7,1,2026-04-03T10:37:56.906969+05:30
Gorakhpur,Uttar Pradesh,26.7606,83.3732,34.0,33,0.0,999.0,7.35,42.8,59,29.5,17.8,0,5,7,0,2026-04-03T10:37:56.906978+05:30
Bareilly,Uttar Pradesh,28.367,79.4304,29.1,54,0.0,989.8,6.45,25.2,68,35.4,21.5,4,5,7,1,2026-04-03T10:37:56.906984+05:30
Aligarh,Uttar Pradesh,27.8974,78.088,31.9,43,0.0,988.6,6.7,36.7,121,825.2,114.1,0,5,7,1,2026-04-03T10:37:56.906991+05:30
Moradabad,Uttar Pradesh,28.8386,78.7733,27.0,57,0.0,986.7,6.8,22.0,93,41.7,33.1,4,5,7,1,2026-04-03T10:37:56.906996+05:30
Saharanpur,Uttar Pradesh,29.9637,77.546,27.9,47,0.0,978.8,6.55,42.5,81,48.8,26.4,4,5,7,0,2026-04-03T10:37:56.907002+05:30
Jhansi,Uttar Pradesh,25.4484,78.5685,31.9,35,0.0,982.0,7.9,33.5,62,93.1,21.4,0,5,7,0,2026-04-03T10:38:00.204795+05:30
Surat,Gujarat,21.1702,72.8311,30.0,54,0.0,1010.3,7.65,29.9,97,61.0,43.3,4,0,4,1,2026-04-03T10:38:00.204827+05:30
Vadodara,Gujarat,22.3072,73.1812,31.1,56,0.0,1007.8,7.85,27.7,77,49.4,24.7,0,5,4,1,2026-04-03T10:38:00.204837+05:30
Rajkot,Gujarat,22.3039,70.8022,26.1,67,0.0,998.5,7.55,39.2,66,51.7,17.7,7,5,7,1,2026-04-03T10:38:00.204846+05:30
Thane,Maharashtra,19.2183,72.9781,29.8,59,0.0,1011.2,7.15,37.8,73,53.3,30.6,4,0,4,1,2026-04-03T10:38:00.204853+05:30
Nagpur,Maharashtra,21.1458,79.0882,32.2,46,0.0,977.2,8.7,23.4,85,31.3,26.4,0,5,7,1,2026-04-03T10:38:00.204861+05:30
Nashik,Maharashtra,19.9975,73.7898,28.6,50,0.0,949.0,7.55,41.4,76,31.7,21.0,4,5,7,1,2026-04-03T10:38:00.204868+05:30
Aurangabad,Maharashtra,19.8762,75.3433,29.4,54,0.0,947.6,7.45,25.6,105,40.9,36.2,4,5,7,1,2026-04-03T10:38:00.204875+05:30
Solapur,Maharashtra,17.6599,75.9064,31.8,46,0.0,960.4,8.95,34.9,105,41.2,35.0,0,5,7,1,2026-04-03T10:38:00.204883+05:30
Kolhapur,Maharashtra,16.705,74.2433,28.9,65,0.0,951.3,8.9,37.1,148,51.1,46.3,7,5,7,1,2026-04-03T10:38:00.204891+05:30
Goa,Goa,15.2993,74.124,32.1,61,0.0,1000.6,9.0,31.3,77,26.4,23.4,3,5,4,1,2026-04-03T10:38:00.204898+05:30
Jodhpur,Rajasthan,26.2389,73.0243,26.4,48,0.0,986.5,7.4,46.8,125,134.6,28.7,4,5,7,0,2026-04-03T10:38:00.204905+05:30
Udaipur,Rajasthan,24.5854,73.7125,26.9,42,0.0,949.5,8.2,56.5,42,55.5,14.6,4,5,7,0,2026-04-03T10:38:00.204912+05:30
Kota,Rajasthan,25.2138,75.8648,32.2,37,0.0,982.0,7.85,47.2,56,126.2,28.9,0,5,7,0,2026-04-03T10:38:00.204920+05:30
Bikaner,Rajasthan,28.0229,73.3119,27.1,44,0.0,984.3,6.75,54.7,62,60.8,19.7,4,5,7,0,2026-04-03T10:38:00.204927+05:30
Ajmer,Rajasthan,26.4499,74.6399,28.2,45,0.0,957.3,7.6,62.6,72,70.1,22.5,4,5,7,0,2026-04-03T10:38:00.204934+05:30
Gwalior,Madhya Pradesh,26.2183,78.1828,32.1,37,0.0,986.8,7.55,34.9,62,115.7,28.2,0,5,7,0,2026-04-03T10:38:00.204941+05:30
Indore,Madhya Pradesh,22.7196,75.8577,29.4,38,0.0,952.0,8.3,38.9,81,31.9,24.6,4,5,7,0,2026-04-03T10:38:00.204947+05:30
Bhopal,Madhya Pradesh,23.2599,77.4126,31.1,45,0.0,957.7,8.2,34.9,74,22.5,18.0,0,5,7,1,2026-04-03T10:38:00.204954+05:30
Jabalpur,Madhya Pradesh,23.1815,79.9864,30.9,46,0.0,965.8,7.9,31.3,75,23.9,19.5,0,5,7,1,2026-04-03T10:38:00.204960+05:30
Ujjain,Madhya Pradesh,23.1765,75.7885,28.9,44,0.0,957.6,8.2,40.3,77,29.7,22.6,4,5,7,0,2026-04-03T10:38:00.204968+05:30
Visakhapatnam,Andhra Pradesh,17.6868,83.2185,33.8,52,0.0,1006.9,8.8,42.1,55,22.3,19.3,0,5,4,1,2026-04-03T10:38:00.204974+05:30
Vijayawada,Andhra Pradesh,16.5062,80.648,32.0,59,0.0,1006.5,8.65,29.9,51,14.1,10.7,0,5,4,1,2026-04-03T10:38:00.204981+05:30
Guntur,Andhra Pradesh,16.3067,80.4365,32.3,56,0.0,1007.6,8.5,30.2,46,13.9,10.0,0,5,4,1,2026-04-03T10:38:00.204988+05:30
Nellore,Andhra Pradesh,14.4426,79.9865,32.5,55,0.0,1009.6,9.15,34.2,41,13.4,12.1,0,0,4,1,2026-04-03T10:38:00.204995+05:30
Kurnool,Andhra Pradesh,15.8281,78.0373,33.4,42,0.0,980.4,8.85,19.8,52,13.0,10.4,0,5,7,1,2026-04-03T10:38:00.205002+05:30
Kakinada,Andhra Pradesh,16.9891,82.2475,33.7,53,0.0,1010.9,8.85,39.6,39,14.2,11.5,0,0,4,1,2026-04-03T10:38:00.205009+05:30
Tirupati,Andhra Pradesh,13.6288,79.4192,32.0,47,0.0,995.7,9.35,31.7,54,10.1,9.0,0,5,7,1,2026-04-03T10:38:00.205015+05:30
Warangal,Telangana,17.9689,79.5941,31.8,54,0.0,982.7,8.8,18.4,72,15.4,12.9,0,5,7,1,2026-04-03T10:38:00.205021+05:30
Nizamabad,Telangana,18.6725,78.0941,31.6,54,0.0,968.5,8.8,25.9,117,45.8,38.0,0,5,7,1,2026-04-03T10:38:00.205028+05:30
Mysore,Karnataka,12.2958,76.6396,28.3,55,0.0,932.1,9.5,42.8,82,27.4,23.6,4,5,7,1,2026-04-03T10:38:00.205035+05:30
Mangalore,Karnataka,12.9141,74.856,29.1,76,0.0,1009.6,9.2,24.8,71,27.5,22.6,7,0,4,1,2026-04-03T10:38:00.205041+05:30
Hubli-Dharwad,Karnataka,15.3647,75.124,29.6,59,0.0,944.1,9.2,40.7,78,40.9,36.4,4,5,7,1,2026-04-03T10:38:00.205048+05:30
Belgaum,Karnataka,15.8497,74.4977,28.4,63,0.0,929.1,9.25,35.3,93,40.6,35.5,7,5,7,1,2026-04-03T10:38:03.492835+05:30
Coimbatore,Tamil Nadu,11.0168,76.9558,30.7,52,0.0,965.7,9.5,45.4,67,22.9,20.1,0,5,7,1,2026-04-03T10:38:03.492866+05:30
Madurai,Tamil Nadu,9.9252,78.1198,30.6,62,0.0,996.9,8.95,31.3,50,15.0,13.6,3,5,7,1,2026-04-03T10:38:03.492878+05:30
Trichy,Tamil Nadu,10.7905,78.7047,32.0,56,0.0,1003.6,9.35,30.6,56,16.0,13.4,0,5,4,1,2026-04-03T10:38:03.492887+05:30
Salem,Tamil Nadu,11.6643,78.146,31.5,52,0.0,981.2,9.3,24.8,63,13.1,11.4,0,5,7,1,2026-04-03T10:38:03.492896+05:30
Tirunelveli,Tamil Nadu,8.7139,77.7567,32.8,52,0.0,1006.6,9.35,29.5,57,20.2,17.2,0,5,4,1,2026-04-03T10:38:03.492904+05:30
Vellore,Tamil Nadu,12.9165,79.1325,31.3,44,0.0,988.8,9.4,30.2,63,15.6,14.6,0,5,7,1,2026-04-03T10:38:03.492913+05:30
Erode,Tamil Nadu,11.341,77.7172,32.2,55,0.0,992.8,9.4,20.2,45,15.7,14.0,0,5,7,1,2026-04-03T10:38:03.492921+05:30
Kochi,Kerala,9.9312,76.2673,28.0,81,0.0,1012.1,9.25,22.3,67,15.7,13.7,7,0,4,1,2026-04-03T10:38:03.492930+05:30
Thiruvananthapuram,Kerala,8.5241,76.9366,28.1,82,0.0,1011.3,9.2,17.6,61,23.7,19.8,7,0,4,1,2026-04-03T10:38:03.492938+05:30
Kozhikode,Kerala,11.2588,75.7804,29.5,74,0.0,1011.1,9.15,25.6,57,13.7,12.0,7,0,4,1,2026-04-03T10:38:03.492946+05:30
Thrissur,Kerala,10.5276,76.2144,30.8,65,0.0,1010.4,9.2,29.2,63,16.1,13.9,3,0,4,1,2026-04-03T10:38:03.492955+05:30
Kannur,Kerala,11.8745,75.3704,30.4,67,0.0,1010.3,8.75,27.4,73,19.8,17.2,3,0,4,1,2026-04-03T10:38:03.492963+05:30
Patna,Bihar,25.5941,85.1376,33.5,42,0.0,1002.5,8.3,36.0,77,49.7,23.2,0,5,4,1,2026-04-03T10:38:03.492971+05:30
Gaya,Bihar,24.7914,85.0002,35.6,35,0.0,996.2,8.4,31.3,73,30.5,17.4,0,5,10,1,2026-04-03T10:38:03.492979+05:30
Muzaffarpur,Bihar,26.1209,85.3647,32.8,45,0.0,1002.3,8.25,36.4,73,46.1,23.0,0,5,4,1,2026-04-03T10:38:03.492986+05:30
Bhagalpur,Bihar,25.2425,87.0117,32.7,48,0.0,1003.2,8.3,25.9,66,41.4,26.3,0,5,4,1,2026-04-03T10:38:03.492994+05:30
Ranchi,Jharkhand,23.3441,85.3096,33.0,35,0.0,941.8,8.95,29.9,63,23.7,17.8,0,5,7,0,2026-04-03T10:38:03.493001+05:30
Jamshedpur,Jharkhand,22.8046,86.2029,35.0,46,0.0,993.7,8.8,24.5,104,50.2,42.1,0,5,7,1,2026-04-03T10:38:03.493009+05:30
Dhanbad,Jharkhand,23.7957,86.4304,35.8,31,0.0,982.5,8.7,22.7,145,46.4,38.2,0,5,10,0,2026-04-03T10:38:03.493018+05:30
Bokaro,Jharkhand,23.6693,86.1511,35.2,35,0.0,986.6,8.75,25.2,145,43.1,35.3,0,5,10,1,2026-04-03T10:38:03.493026+05:30
Bhubaneswar,Odisha,20.2961,85.8245,34.3,56,0.0,1005.5,8.95,27.4,52,21.0,16.6,0,5,4,1,2026-04-03T10:38:03.493034+05:30
Cuttack,Odisha,20.4625,85.8828,34.6,52,0.0,1007.4,9.0,39.6,52,21.0,16.6,0,5,4,1,2026-04-03T10:38:03.493042+05:30
Rourkela,Odisha,22.2604,84.8536,35.5,43,0.0,988.4,8.7,27.0,121,43.2,38.0,0,5,10,1,2026-04-03T10:38:03.493049+05:30
Raipur,Chhattisgarh,21.2514,81.6296,34.9,38,0.0,978.5,8.8,34.9,145,42.3,38.0,0,5,7,1,2026-04-03T10:38:03.493057+05:30
Bhilai,Chhattisgarh,21.1938,81.3509,34.7,40,0.0,978.9,8.8,24.5,124,36.8,31.8,0,5,7,1,2026-04-03T10:38:03.493064+05:30
Guwahati,Assam,26.1158,91.7086,27.8,78,0.0,1004.4,8.25,43.6,121,56.6,46.3,7,5,4,1,2026-04-03T10:38:03.493072+05:30
Agartala,Tripura,23.8315,91.2868,31.3,69,0.0,1008.7,8.45,24.1,83,19.8,15.9,3,0,4,1,2026-04-03T10:38:03.493080+05:30
Shillong,Meghalaya,25.5788,91.8933,21.8,49,0.0,860.3,8.55,55.1,111,46.8,35.3,0,5,7,0,2026-04-03T10:38:03.493088+05:30
Imphal,Manipur,24.817,93.9368,23.8,71,0.0,926.6,8.8,60.8,110,39.5,29.2,3,5,7,1,2026-04-03T10:38:03.493096+05:30
Aizawl,Mizoram,23.7271,92.7176,26.6,57,0.0,897.2,8.7,52.9,113,43.5,29.3,4,5,7,1,2026-04-03T10:38:03.493104+05:30
Kohima,Nagaland,25.6701,94.1077,22.0,55,0.0,859.1,8.65,80.6,104,40.3,28.1,0,5,7,0,2026-04-03T10:38:03.493111+05:30
Gangtok,Sikkim,27.3314,88.6138,21.0,72,0.0,841.2,8.55,19.1,92,27.1,20.2,3,5,7,0,2026-04-03T10:38:03.493118+05:30
Siliguri,West Bengal,26.7271,88.3953,26.6,65,0.0,996.1,8.25,18.7,143,60.3,43.3,7,5,7,1,2026-04-03T10:38:06.786439+05:30
Durgapur,West Bengal,23.5204,87.3119,36.0,36,0.0,997.3,8.65,18.7,155,51.2,42.4,0,5,10,1,2026-04-03T10:38:06.786466+05:30
Asansol,West Bengal,23.6739,86.9524,35.5,39,0.0,996.0,8.7,18.7,129,43.3,34.6,0,5,10,1,2026-04-03T10:38:06.786475+05:30
Pondicherry,Puducherry,11.9139,79.8145,30.9,64,0.0,1012.5,9.2,34.2,40,18.7,14.0,3,0,4,1,2026-04-03T10:38:06.786483+05:30
Port Blair,Andaman and Nicobar Islands,11.6234,92.7265,28.8,78,0.0,1010.0,9.25,23.8,36,17.1,8.6,7,0,4,1,2026-04-03T10:38:06.786490+05:30
Haridwar,Uttarakhand,29.9457,78.1642,30.9,38,0.0,977.3,5.9,40.0,57,16.4,10.7,0,5,3,0,2026-04-03T10:38:06.786498+05:30
Rishikesh,Uttarakhand,30.0869,78.2676,30.3,34,0.0,970.0,5.65,31.7,40,18.0,7.0,0,5,3,0,2026-04-03T10:38:06.786505+05:30
Nainital,Uttarakhand,29.3919,79.4542,25.9,35,0.0,812.2,5.25,36.4,51,20.1,8.4,4,5,3,0,2026-04-03T10:38:06.786512+05:30
Mussoorie,Uttarakhand,30.4599,78.0664,23.0,37,0.0,808.1,6.25,60.5,53,16.9,7.7,0,5,7,0,2026-04-03T10:38:06.786519+05:30
Dharamshala,Himachal Pradesh,32.219,76.3234,22.1,59,0.0,871.6,5.45,56.9,42,15.5,5.6,0,5,3,0,2026-04-03T10:38:06.786526+05:30
Dalhousie,Himachal Pradesh,32.5387,75.971,20.1,46,0.0,806.3,5.95,53.6,57,20.7,10.4,0,5,3,0,2026-04-03T10:38:06.786534+05:30
Patiala,Punjab,30.3398,76.3869,25.1,63,0.0,980.6,5.85,51.1,143,808.4,107.3,7,5,3,1,2026-04-03T10:38:06.786541+05:30
Bhatinda,Punjab,30.211,74.9455,23.7,75,0.0,986.5,5.1,42.8,87,51.0,16.4,3,5,3,1,2026-04-03T10:38:06.786547+05:30
Rohtak,Haryana,28.8955,76.6066,29.1,53,0.0,984.8,5.9,37.1,159,687.3,95.0,4,5,3,1,2026-04-03T10:38:06.786554+05:30
Panipat,Haryana,29.3909,76.9635,27.0,60,0.0,983.1,6.25,43.9,181,1151.1,139.2,4,5,7,1,2026-04-03T10:38:06.786560+05:30
Mathura,Uttar Pradesh,27.4924,77.6737,31.8,39,0.0,990.2,7.05,43.6,344,1110.1,125.7,0,5,7,1,2026-04-03T10:38:06.786566+05:30
Vrindavan,Uttar Pradesh,27.5823,77.7027,31.8,40,0.0,990.5,6.95,36.7,344,1110.1,125.7,0,5,7,1,2026-04-03T10:38:06.786572+05:30
Ayodhya,Uttar Pradesh,26.7922,82.1998,32.5,40,0.0,997.9,6.15,35.3,64,35.7,20.5,0,5,7,1,2026-04-03T10:38:06.786579+05:30
Ratlam,Madhya Pradesh,23.3315,75.0367,28.6,52,0.0,958.2,8.15,45.0,72,27.6,19.1,4,5,7,1,2026-04-03T10:38:06.786585+05:30
Sagar,Madhya Pradesh,23.8388,78.7378,30.9,41,0.0,954.3,7.55,26.6,69,18.6,14.5,0,5,7,1,2026-04-03T10:38:06.786591+05:30
Satna,Madhya Pradesh,24.6005,80.8322,31.3,44,0.0,975.3,6.85,36.0,68,17.0,15.9,0,5,7,1,2026-04-03T10:38:06.786597+05:30
Akola,Maharashtra,20.7002,77.0082,31.5,51,0.0,978.8,8.5,33.8,88,43.1,36.4,0,5,7,1,2026-04-03T10:38:06.786604+05:30
Amravati,Maharashtra,20.9374,77.7796,31.1,52,0.0,971.3,8.35,55.4,82,42.4,34.7,0,5,7,1,2026-04-03T10:38:06.786611+05:30
Latur,Maharashtra,18.4088,76.5604,29.9,53,0.0,943.2,8.55,26.6,108,40.0,32.9,4,5,7,1,2026-04-03T10:38:06.786618+05:30
Nanded,Maharashtra,19.1383,77.3091,31.7,56,0.0,972.3,8.35,19.4,105,44.6,37.0,0,5,7,1,2026-04-03T10:38:06.786624+05:30
Gulbarga,Karnataka,17.3297,76.8343,32.7,38,0.0,962.1,8.55,45.0,81,30.2,26.4,0,5,7,1,2026-04-03T10:38:06.786630+05:30
Bidar,Karnataka,17.9104,77.5199,31.6,42,0.0,939.2,8.5,32.8,95,28.9,24.3,0,5,7,1,2026-04-03T10:38:06.786636+05:30
Hospet,Karnataka,15.2689,76.3909,29.9,62,0.0,959.2,9.15,37.8,77,24.2,22.2,7,5,7,1,2026-04-03T10:38:06.786642+05:30
Tirupur,Tamil Nadu,11.1085,77.3411,30.9,57,0.0,979.1,9.5,39.2,63,23.3,20.9,0,5,7,1,2026-04-03T10:38:06.786649+05:30
Alappuzha,Kerala,9.4981,76.3388,28.1,80,0.0,1012.2,9.2,19.8,68,17.3,14.8,7,0,4,1,2026-04-03T10:38:06.786655+05:30
Munnar,Kerala,10.0889,77.0595,26.9,60,0.0,861.5,8.85,32.0,67,16.1,14.8,4,5,7,1,2026-04-03T10:38:06.786662+05:30
Silchar,Assam,24.8333,92.7789,27.6,77,0.0,1008.6,8.5,29.5,147,46.3,33.2,7,0,4,1,2026-04-03T10:38:06.786669+05:30
Dibrugarh,Assam,27.4728,94.912,25.1,76,0.0,998.7,8.3,12.6,97,33.5,27.0,7,5,7,1,2026-04-03T10:38:06.786675+05:30
