city,state,latitude,longitude,temp,humidity,rain,pressure,uv_index,wind_gusts,aqi,pm10,pm2_5,mosquito_risk,arthritis_risk,migraine_risk,frizz_risk,updated_at
Delhi,Delhi,28.6139,77.209,19.9,73,0.0,983.6,5.3,25.9,440,382.8,79.9,3,5,3,0,2026-03-14T05:01:45.650705+05:30
Mumbai,Maharashtra,19.076,72.8777,28.3,72,0.0,1008.1,7.65,18.0,125,56.5,38.6,7,0,4,1,2026-03-14T05:01:45.650753+05:30
Bangalore,Karnataka,12.9716,77.5946,20.0,81,0.0,911.7,9.3,31.7,101,48.0,41.6,3,5,7,1,2026-03-14T05:01:45.650769+05:30
Hyderabad,Telangana,17.385,78.4867,23.0,65,0.0,953.4,8.7,32.4,106,42.6,34.2,3,5,7,1,2026-03-14T05:01:45.650796+05:30
Chennai,Tamil Nadu,13.0827,80.2707,25.0,90,0.0,1008.9,9.05,31.3,59,21.4,17.1,7,0,4,1,2026-03-14T05:01:45.650807+05:30
Kolkata,West Bengal,22.5726,88.3639,25.4,88,0.0,1007.4,8.1,33.5,104,23.0,18.5,7,5,4,1,2026-03-14T05:01:45.650817+05:30
Pune,Maharashtra,18.5204,73.8567,20.3,68,0.0,947.9,8.25,44.6,128,48.9,44.5,3,5,7,0,2026-03-14T05:01:45.650829+05:30
Ahmedabad,Gujarat,23.0225,72.5714,20.6,60,0.0,1002.3,7.5,22.0,90,69.4,25.1,0,5,4,0,2026-03-14T05:01:45.650837+05:30
Jaipur,Rajasthan,26.9124,75.7873,22.0,43,0.0,960.0,6.9,23.0,140,333.4,56.0,0,5,7,0,2026-03-14T05:01:45.650845+05:30
Lucknow,Uttar Pradesh,26.8467,80.9462,21.4,64,0.0,993.8,6.7,25.2,163,406.1,96.4,3,5,7,0,2026-03-14T05:01:45.650853+05:30
Kanpur,Uttar Pradesh,26.4499,80.3319,20.0,70,0.0,992.4,6.7,20.2,284,614.7,115.7,3,5,7,0,2026-03-14T05:01:45.650860+05:30
Chandigarh,Chandigarh,30.7333,76.7794,18.1,79,0.0,968.3,5.6,18.7,72,21.5,21.0,3,5,3,0,2026-03-14T05:01:45.650868+05:30
Srinagar,Jammu and Kashmir,34.0837,74.7973,4.8,83,0.0,838.8,5.95,14.8,88,48.4,35.0,3,10,3,0,2026-03-14T05:01:45.650875+05:30
Jammu,Jammu and Kashmir,32.7266,74.857,15.8,72,0.0,972.8,6.3,19.1,68,32.8,30.4,3,5,7,0,2026-03-14T05:01:45.650883+05:30
Amritsar,Punjab,31.634,74.8723,16.4,68,0.0,981.4,4.9,16.6,81,26.3,24.0,3,5,3,0,2026-03-14T05:01:45.650890+05:30
Ludhiana,Punjab,30.901,75.8573,17.9,73,0.0,979.2,5.75,19.8,90,41.3,30.7,3,5,3,0,2026-03-14T05:01:45.650896+05:30
Jalandhar,Punjab,31.326,75.5762,17.3,74,0.0,980.3,6.45,19.4,93,55.5,36.3,3,5,7,0,2026-03-14T05:01:45.650906+05:30
Dehradun,Uttarakhand,30.6284,78.0322,12.9,44,0.0,828.2,4.45,21.6,51,19.7,11.0,0,5,3,0,2026-03-14T05:01:45.650913+05:30
Shimla,Himachal Pradesh,31.1048,77.1734,10.8,67,0.0,781.6,5.9,33.1,55,26.3,18.2,3,5,3,0,2026-03-14T05:01:45.650920+05:30
Manali,Himachal Pradesh,32.2396,77.1887,11.8,27,0.0,818.0,7.55,31.7,35,29.0,14.8,0,5,7,1,2026-03-14T05:01:45.650928+05:30
Gurgaon,Haryana,28.4595,77.0266,17.9,81,0.0,982.0,5.85,21.2,1308,923.9,131.3,3,10,3,0,2026-03-14T05:01:45.650936+05:30
Noida,Uttar Pradesh,28.5355,77.391,19.8,74,0.0,985.1,5.3,25.6,1308,923.9,131.3,3,5,3,0,2026-03-14T05:01:45.650945+05:30
Ghaziabad,Uttar Pradesh,28.6692,77.4538,19.0,76,0.0,983.0,5.7,24.8,279,308.3,72.6,3,5,3,0,2026-03-14T05:01:45.650952+05:30
Faridabad,Haryana,28.4089,77.3178,18.6,77,0.0,984.3,5.55,23.4,1308,923.9,131.3,3,5,3,0,2026-03-14T05:01:45.650959+05:30
Meerut,Uttar Pradesh,28.9845,77.7064,17.4,84,0.0,981.5,5.6,24.8,279,308.3,72.6,3,10,3,0,2026-03-14T05:01:45.650965+05:30
Agra,Uttar Pradesh,27.1767,78.0081,18.8,68,0.0,988.8,6.4,33.5,776,903.4,147.1,3,5,7,0,2026-03-14T05:01:45.650973+05:30
Varanasi,Uttar Pradesh,25.3176,82.9739,21.1,69,0.0,997.8,7.3,26.6,128,113.4,51.6,3,5,7,0,2026-03-14T05:01:45.650982+05:30
Prayagraj,Uttar Pradesh,25.4358,81.8463,21.4,69,0.0,996.4,7.2,16.9,141,238.0,71.7,3,5,7,0,2026-03-14T05:01:45.650989+05:30
Gorakhpur,Uttar Pradesh,26.7606,83.3732,18.8,82,0.0,997.0,6.65,24.5,167,131.8,49.7,3,10,7,0,2026-03-14T05:01:45.650996+05:30
Bareilly,Uttar Pradesh,28.367,79.4304,18.5,78,0.0,986.9,5.95,21.6,145,207.7,71.0,3,5,3,0,2026-03-14T05:01:45.651003+05:30
Aligarh,Uttar Pradesh,27.8974,78.088,18.6,76,0.0,986.2,6.3,35.3,729,672.4,124.3,3,5,7,0,2026-03-14T05:01:45.651010+05:30
Moradabad,Uttar Pradesh,28.8386,78.7733,17.8,81,0.0,983.6,5.7,22.0,151,171.4,66.4,3,10,3,0,2026-03-14T05:01:45.651017+05:30
Saharanpur,Uttar Pradesh,29.9637,77.546,17.4,85,0.0,975.5,5.35,21.6,124,149.0,59.8,3,10,3,0,2026-03-14T05:01:45.651025+05:30
Jhansi,Uttar Pradesh,25.4484,78.5685,20.8,69,0.0,978.4,7.15,20.9,88,343.7,60.8,3,5,7,0,2026-03-14T05:01:48.902059+05:30
Surat,Gujarat,21.1702,72.8311,25.2,73,0.0,1006.7,7.35,22.3,134,48.5,39.5,7,5,4,1,2026-03-14T05:01:48.902089+05:30
Vadodara,Gujarat,22.3072,73.1812,23.4,47,0.0,1004.5,7.55,25.6,103,27.5,19.6,0,5,4,0,2026-03-14T05:01:48.902099+05:30
Rajkot,Gujarat,22.3039,70.8022,21.5,73,0.0,994.7,7.35,29.2,87,216.1,48.9,3,5,7,1,2026-03-14T05:01:48.902107+05:30
Thane,Maharashtra,19.2183,72.9781,26.0,73,0.0,1007.7,7.65,34.6,125,56.5,38.6,7,5,4,1,2026-03-14T05:01:48.902114+05:30
Nagpur,Maharashtra,21.1458,79.0882,22.1,57,0.0,973.0,8.1,16.9,100,37.8,36.3,0,5,7,0,2026-03-14T05:01:48.902122+05:30
Nashik,Maharashtra,19.9975,73.7898,22.9,45,0.0,945.6,7.85,36.7,83,55.9,41.2,0,5,7,0,2026-03-14T05:01:48.902129+05:30
Aurangabad,Maharashtra,19.8762,75.3433,22.3,52,0.0,943.9,8.4,21.6,83,29.8,25.9,0,5,7,0,2026-03-14T05:01:48.902136+05:30
Solapur,Maharashtra,17.6599,75.9064,24.1,65,0.0,956.8,8.6,18.7,104,47.6,41.2,3,5,7,1,2026-03-14T05:01:48.902144+05:30
Kolhapur,Maharashtra,16.705,74.2433,20.1,98,0.0,947.4,8.7,45.4,149,76.8,74.5,3,5,7,1,2026-03-14T05:01:48.902151+05:30
Goa,Goa,15.2993,74.124,26.0,92,0.0,997.9,8.75,34.6,134,66.4,62.4,7,5,7,1,2026-03-14T05:01:48.902158+05:30
Jodhpur,Rajasthan,26.2389,73.0243,21.8,52,0.0,982.4,7.2,36.4,86,54.1,22.4,0,5,7,0,2026-03-14T05:01:48.902164+05:30
Udaipur,Rajasthan,24.5854,73.7125,20.6,41,0.0,946.3,7.85,32.0,64,46.6,21.7,0,5,7,0,2026-03-14T05:01:48.902171+05:30
Kota,Rajasthan,25.2138,75.8648,20.1,51,0.0,978.6,7.15,17.6,58,37.0,23.9,0,5,7,0,2026-03-14T05:01:48.902178+05:30
Bikaner,Rajasthan,28.0229,73.3119,24.1,43,0.0,982.4,6.3,25.9,67,29.1,14.3,0,5,7,0,2026-03-14T05:01:48.902185+05:30
Ajmer,Rajasthan,26.4499,74.6399,22.8,35,0.0,954.8,7.15,32.8,74,109.4,28.6,0,5,7,0,2026-03-14T05:01:48.902192+05:30
Gwalior,Madhya Pradesh,26.2183,78.1828,22.9,57,0.0,984.2,6.85,19.8,136,774.9,109.7,0,5,7,0,2026-03-14T05:01:48.902198+05:30
Indore,Madhya Pradesh,22.7196,75.8577,20.8,44,0.0,947.7,7.8,30.2,68,35.7,30.0,0,5,7,0,2026-03-14T05:01:48.902205+05:30
Bhopal,Madhya Pradesh,23.2599,77.4126,19.9,41,0.0,953.6,7.65,32.8,65,24.7,24.5,0,5,7,0,2026-03-14T05:01:48.902211+05:30
Jabalpur,Madhya Pradesh,23.1815,79.9864,19.9,52,0.0,961.2,7.8,28.4,79,35.5,35.2,0,5,7,0,2026-03-14T05:01:48.902218+05:30
Ujjain,Madhya Pradesh,23.1765,75.7885,20.0,50,0.0,953.4,7.7,34.9,66,39.0,31.3,0,5,7,0,2026-03-14T05:01:48.902225+05:30
Visakhapatnam,Andhra Pradesh,17.6868,83.2185,24.4,91,0.0,1005.8,8.65,40.7,74,24.4,21.2,3,5,4,1,2026-03-14T05:01:48.902231+05:30
Vijayawada,Andhra Pradesh,16.5062,80.648,24.6,93,0.0,1004.2,8.75,31.7,79,21.5,18.2,3,5,4,1,2026-03-14T05:01:48.902238+05:30
Guntur,Andhra Pradesh,16.3067,80.4365,24.4,95,0.0,1005.2,8.75,34.9,75,17.7,14.9,3,5,4,1,2026-03-14T05:01:48.902245+05:30
Nellore,Andhra Pradesh,14.4426,79.9865,23.8,95,0.0,1007.0,8.9,31.0,68,17.6,15.3,3,5,4,1,2026-03-14T05:01:48.902252+05:30
Kurnool,Andhra Pradesh,15.8281,78.0373,25.4,67,0.0,977.1,8.75,24.1,110,27.8,25.2,7,5,7,1,2026-03-14T05:01:48.902260+05:30
Kakinada,Andhra Pradesh,16.9891,82.2475,23.6,95,0.0,1009.7,8.7,31.7,66,23.7,18.3,3,0,4,1,2026-03-14T05:01:48.902266+05:30
Tirupati,Andhra Pradesh,13.6288,79.4192,21.3,97,0.0,993.3,9.0,30.2,81,30.5,27.1,3,5,7,1,2026-03-14T05:01:48.902273+05:30
Warangal,Telangana,17.9689,79.5941,22.9,93,0.0,979.3,8.5,28.8,116,23.3,21.2,3,5,7,1,2026-03-14T05:01:48.902279+05:30
Nizamabad,Telangana,18.6725,78.0941,25.4,51,0.0,964.6,8.45,30.6,125,47.4,41.1,4,5,7,0,2026-03-14T05:01:48.902286+05:30
Mysore,Karnataka,12.2958,76.6396,21.0,98,0.0,928.5,9.3,29.9,96,50.3,46.4,3,5,7,1,2026-03-14T05:01:48.902293+05:30
Mangalore,Karnataka,12.9141,74.856,27.8,83,0.0,1007.2,8.95,26.6,110,45.4,40.5,7,5,4,1,2026-03-14T05:01:48.902300+05:30
Hubli-Dharwad,Karnataka,15.3647,75.124,21.5,96,0.0,940.6,8.95,41.0,94,51.3,48.4,3,5,7,1,2026-03-14T05:01:48.902307+05:30
Belgaum,Karnataka,15.8497,74.4977,20.8,98,0.0,925.1,8.95,43.2,118,57.4,53.2,3,5,7,1,2026-03-14T05:01:52.156838+05:30
Coimbatore,Tamil Nadu,11.0168,76.9558,21.4,75,0.0,962.5,9.3,31.3,81,22.6,21.6,3,5,7,1,2026-03-14T05:01:52.156872+05:30
Madurai,Tamil Nadu,9.9252,78.1198,24.5,88,0.0,994.7,9.25,30.6,71,30.7,28.1,3,5,7,1,2026-03-14T05:01:52.156882+05:30
Trichy,Tamil Nadu,10.7905,78.7047,23.4,96,0.0,1001.7,9.2,19.8,75,34.1,30.4,3,5,4,1,2026-03-14T05:01:52.156890+05:30
Salem,Tamil Nadu,11.6643,78.146,21.8,97,0.0,978.7,9.2,16.9,105,50.4,47.4,3,5,7,1,2026-03-14T05:01:52.156899+05:30
Tirunelveli,Tamil Nadu,8.7139,77.7567,23.5,82,0.0,1004.8,9.25,38.5,56,17.7,15.8,3,5,4,1,2026-03-14T05:01:52.156909+05:30
Vellore,Tamil Nadu,12.9165,79.1325,19.7,100,0.0,986.3,9.1,32.4,104,53.0,49.7,3,10,7,1,2026-03-14T05:01:52.156917+05:30
Erode,Tamil Nadu,11.341,77.7172,23.6,93,0.0,990.6,9.2,20.9,77,21.8,20.6,3,5,7,1,2026-03-14T05:01:52.156925+05:30
Kochi,Kerala,9.9312,76.2673,26.2,84,0.0,1009.5,9.1,32.0,84,34.1,33.5,7,0,4,1,2026-03-14T05:01:52.156933+05:30
Thiruvananthapuram,Kerala,8.5241,76.9366,27.0,85,0.0,1008.6,9.1,22.7,60,16.9,13.9,7,0,4,1,2026-03-14T05:01:52.156941+05:30
Kozhikode,Kerala,11.2588,75.7804,26.5,85,0.0,1008.9,9.0,27.7,86,25.1,22.5,7,0,4,1,2026-03-14T05:01:52.156948+05:30
Thrissur,Kerala,10.5276,76.2144,25.1,90,0.0,1008.0,9.05,36.4,101,42.6,40.9,7,0,4,1,2026-03-14T05:01:52.156956+05:30
Kannur,Kerala,11.8745,75.3704,26.3,86,0.0,1008.0,9.0,32.0,104,37.8,34.7,7,0,4,1,2026-03-14T05:01:52.156964+05:30
Patna,Bihar,25.5941,85.1376,22.3,77,0.0,1000.5,7.35,19.8,162,75.2,47.0,3,5,4,1,2026-03-14T05:01:52.156971+05:30
Gaya,Bihar,24.7914,85.0002,20.6,70,0.0,994.1,7.55,19.1,138,108.7,46.8,3,5,7,0,2026-03-14T05:01:52.156978+05:30
Muzaffarpur,Bihar,26.1209,85.3647,20.8,96,0.0,1000.6,7.45,20.9,169,119.7,82.9,3,5,4,1,2026-03-14T05:01:52.156985+05:30
Bhagalpur,Bihar,25.2425,87.0117,22.5,97,0.0,1001.5,7.45,22.0,163,202.1,86.4,3,5,4,1,2026-03-14T05:01:52.156995+05:30
Ranchi,Jharkhand,23.3441,85.3096,21.8,39,0.0,938.0,8.25,33.5,68,121.5,36.1,0,5,7,0,2026-03-14T05:01:52.157005+05:30
Jamshedpur,Jharkhand,22.8046,86.2029,23.2,80,0.0,991.4,8.15,17.6,150,119.7,81.5,3,5,7,1,2026-03-14T05:01:52.157012+05:30
Dhanbad,Jharkhand,23.7957,86.4304,20.6,68,0.0,980.1,8.0,21.2,157,197.4,106.2,3,5,7,0,2026-03-14T05:01:52.157019+05:30
Bokaro,Jharkhand,23.6693,86.1511,20.5,60,0.0,984.4,8.0,26.6,147,174.6,89.4,0,5,7,0,2026-03-14T05:01:52.157026+05:30
Bhubaneswar,Odisha,20.2961,85.8245,25.0,89,0.0,1003.8,8.45,38.9,86,14.7,11.8,7,5,4,1,2026-03-14T05:01:52.157033+05:30
Cuttack,Odisha,20.4625,85.8828,24.9,90,0.0,1005.7,8.45,38.5,86,14.7,11.8,3,5,4,1,2026-03-14T05:01:52.157041+05:30
Rourkela,Odisha,22.2604,84.8536,21.7,86,0.0,985.7,8.05,29.2,92,54.4,37.7,3,5,7,1,2026-03-14T05:01:52.157047+05:30
Raipur,Chhattisgarh,21.2514,81.6296,22.4,46,0.0,974.4,8.2,31.0,131,78.5,69.4,0,5,7,0,2026-03-14T05:01:52.157054+05:30
Bhilai,Chhattisgarh,21.1938,81.3509,20.4,51,0.0,974.8,8.2,31.0,126,74.3,64.5,0,5,7,0,2026-03-14T05:01:52.157060+05:30
Guwahati,Assam,26.1158,91.7086,21.2,91,0.0,1003.9,7.45,42.5,110,22.6,16.1,3,5,4,1,2026-03-14T05:01:52.157067+05:30
Agartala,Tripura,23.8315,91.2868,21.3,96,0.0,1009.0,7.85,39.2,84,19.0,16.2,3,0,4,1,2026-03-14T05:01:52.157074+05:30
Shillong,Meghalaya,25.5788,91.8933,12.7,94,0.0,855.6,7.05,67.7,74,7.0,5.0,3,10,7,0,2026-03-14T05:01:52.157081+05:30
Imphal,Manipur,24.817,93.9368,15.6,95,0.0,924.9,7.65,69.8,157,32.1,27.6,3,10,7,0,2026-03-14T05:01:52.157088+05:30
Aizawl,Mizoram,23.7271,92.7176,17.0,85,0.0,894.4,8.0,58.7,137,42.1,35.5,3,10,7,0,2026-03-14T05:01:52.157096+05:30
Kohima,Nagaland,25.6701,94.1077,14.1,86,0.0,854.9,6.55,104.8,134,27.2,23.5,3,10,7,0,2026-03-14T05:01:52.157102+05:30
Gangtok,Sikkim,27.3314,88.6138,12.7,84,0.0,835.1,6.95,22.0,92,38.3,32.6,3,10,7,0,2026-03-14T05:01:52.157109+05:30
Siliguri,West Bengal,26.7271,88.3953,18.0,94,0.0,995.0,7.4,29.2,137,63.3,49.4,3,10,7,1,2026-03-14T05:01:55.414050+05:30
Durgapur,West Bengal,23.5204,87.3119,24.0,97,0.0,995.7,7.95,25.9,154,104.5,78.9,3,5,7,1,2026-03-14T05:01:55.414081+05:30
Asansol,West Bengal,23.6739,86.9524,23.8,95,0.0,994.2,7.95,24.8,151,131.3,70.1,3,5,7,1,2026-03-14T05:01:55.414091+05:30
Pondicherry,Puducherry,11.9139,79.8145,23.0,99,0.0,1010.4,9.05,30.2,56,20.1,15.7,3,0,4,1,2026-03-14T05:01:55.414099+05:30
Port Blair,Andaman and Nicobar Islands,11.6234,92.7265,27.3,81,0.0,1008.6,8.95,26.6,61,11.6,8.9,7,0,4,1,2026-03-14T05:01:55.414107+05:30
Haridwar,Uttarakhand,29.9457,78.1642,17.8,81,0.0,973.8,5.15,22.3,88,49.2,44.2,3,10,3,0,2026-03-14T05:01:55.414115+05:30
Rishikesh,Uttarakhand,30.0869,78.2676,18.6,59,0.0,966.5,4.65,22.0,65,23.5,22.7,0,5,3,0,2026-03-14T05:01:55.414123+05:30
Nainital,Uttarakhand,29.3919,79.4542,17.6,40,0.0,804.9,6.25,34.9,82,30.3,28.9,0,5,7,0,2026-03-14T05:01:55.414130+05:30
Mussoorie,Uttarakhand,30.4599,78.0664,15.1,45,0.0,801.1,4.0,25.9,71,23.4,21.9,0,5,3,0,2026-03-14T05:01:55.414138+05:30
Dharamshala,Himachal Pradesh,32.219,76.3234,18.1,17,0.0,867.9,5.65,20.9,36,13.7,8.1,0,5,3,1,2026-03-14T05:01:55.414145+05:30
Dalhousie,Himachal Pradesh,32.5387,75.971,14.3,22,0.0,801.8,6.1,18.7,62,24.3,20.0,0,5,7,1,2026-03-14T05:01:55.414153+05:30
Patiala,Punjab,30.3398,76.3869,17.3,78,0.0,978.3,5.8,22.7,347,501.1,68.2,3,5,3,0,2026-03-14T05:01:55.414160+05:30
Bhatinda,Punjab,30.211,74.9455,19.4,77,0.0,984.5,5.75,16.2,98,45.3,34.7,3,5,3,0,2026-03-14T05:01:55.414167+05:30
Rohtak,Haryana,28.8955,76.6066,17.7,82,0.0,982.3,5.8,21.2,567,416.3,77.1,3,10,3,0,2026-03-14T05:01:55.414174+05:30
Panipat,Haryana,29.3909,76.9635,17.3,81,0.0,980.7,5.95,24.5,1037,944.4,124.8,3,10,3,0,2026-03-14T05:01:55.414181+05:30
Mathura,Uttar Pradesh,27.4924,77.6737,19.4,66,0.0,987.8,5.75,37.8,824,825.2,140.6,3,5,3,0,2026-03-14T05:01:55.414187+05:30
Vrindavan,Uttar Pradesh,27.5823,77.7027,18.8,72,0.0,988.2,5.8,35.3,824,825.2,140.6,3,5,3,0,2026-03-14T05:01:55.414194+05:30
Ayodhya,Uttar Pradesh,26.7922,82.1998,19.6,79,0.0,995.4,6.85,24.1,154,252.4,74.5,3,5,7,0,2026-03-14T05:01:55.414201+05:30
Ratlam,Madhya Pradesh,23.3315,75.0367,24.2,38,0.0,954.5,7.65,36.0,65,40.7,30.5,0,5,7,0,2026-03-14T05:01:55.414208+05:30
Sagar,Madhya Pradesh,23.8388,78.7378,19.6,41,0.0,949.7,7.65,31.7,57,24.7,16.5,0,5,7,0,2026-03-14T05:01:55.414214+05:30
Satna,Madhya Pradesh,24.6005,80.8322,20.2,48,0.0,971.6,7.6,29.5,56,153.7,37.5,0,5,7,0,2026-03-14T05:01:55.414221+05:30
Akola,Maharashtra,20.7002,77.0082,23.8,47,0.0,974.8,8.1,15.1,92,41.6,40.0,0,5,7,0,2026-03-14T05:01:55.414228+05:30
Amravati,Maharashtra,20.9374,77.7796,22.5,49,0.0,966.7,8.1,11.2,97,52.9,49.8,0,5,7,0,2026-03-14T05:01:55.414235+05:30
Latur,Maharashtra,18.4088,76.5604,23.8,54,0.0,939.5,8.5,22.7,104,46.6,37.7,0,5,7,0,2026-03-14T05:01:55.414241+05:30
Nanded,Maharashtra,19.1383,77.3091,22.9,53,0.0,968.5,8.3,28.1,120,58.9,50.1,0,5,7,0,2026-03-14T05:01:55.414247+05:30
Gulbarga,Karnataka,17.3297,76.8343,25.7,52,0.0,959.0,8.6,41.8,99,38.0,34.1,4,5,7,0,2026-03-14T05:01:55.414254+05:30
Bidar,Karnataka,17.9104,77.5199,24.7,52,0.0,935.4,8.55,41.0,102,39.8,34.7,0,5,7,0,2026-03-14T05:01:55.414260+05:30
Hospet,Karnataka,15.2689,76.3909,24.3,87,0.0,956.2,8.9,27.0,107,43.8,39.2,3,5,7,1,2026-03-14T05:01:55.414267+05:30
Tirupur,Tamil Nadu,11.1085,77.3411,23.8,81,0.0,976.5,9.3,27.0,84,22.4,21.2,3,5,7,1,2026-03-14T05:01:55.414273+05:30
Alappuzha,Kerala,9.4981,76.3388,26.2,85,0.0,1009.6,9.1,28.1,81,21.9,20.4,7,0,4,1,2026-03-14T05:01:55.414279+05:30
Munnar,Kerala,10.0889,77.0595,17.0,82,0.0,855.3,9.6,31.3,67,18.7,17.2,3,10,7,0,2026-03-14T05:01:55.414287+05:30
Silchar,Assam,24.8333,92.7789,20.4,96,0.0,1008.6,7.35,41.8,155,21.5,18.6,3,0,4,1,2026-03-14T05:01:55.414293+05:30
Dibrugarh,Assam,27.4728,94.912,19.9,90,0.0,998.6,1.3,19.8,118,20.1,19.3,3,10,3,1,2026-03-14T05:01:55.414299+05:30
