city,state,latitude,longitude,temp,humidity,rain,pressure,uv_index,wind_gusts,aqi,pm10,pm2_5,no2,co,o3,so2,mosquito_risk,arthritis_risk,migraine_risk,frizz_risk,updated_at
Delhi,Delhi,28.6139,77.209,32.1,47,0.0,976.9,7.8,45.7,165,424.7,95.7,34.3,437.0,67.0,15.5,0,5,7,1,2026-06-23T21:20:28.645149+05:30
Mumbai,Maharashtra,19.076,72.8777,25.8,91,0.6,1005.1,6.35,29.9,35,13.8,8.5,11.4,811.0,44.0,6.2,10,5,4,1,2026-06-23T21:20:28.645202+05:30
Bangalore,Karnataka,12.9716,77.5946,21.8,90,0.0,912.3,8.15,52.2,32,8.0,7.1,17.5,431.0,41.0,5.1,3,5,7,1,2026-06-23T21:20:28.645219+05:30
Hyderabad,Telangana,17.385,78.4867,27.4,66,0.0,951.5,8.75,42.8,35,6.5,6.2,11.1,307.0,48.0,3.7,7,5,7,1,2026-06-23T21:20:28.645229+05:30
Chennai,Tamil Nadu,13.0827,80.2707,28.2,84,0.0,1006.0,8.35,37.1,82,23.4,19.4,12.6,381.0,109.0,9.6,7,5,4,1,2026-06-23T21:20:28.645238+05:30
Kolkata,West Bengal,22.5726,88.3639,28.3,93,0.0,1000.9,8.8,32.0,129,75.9,71.0,26.7,840.0,73.0,18.2,7,5,4,1,2026-06-23T21:20:28.645246+05:30
Pune,Maharashtra,18.5204,73.8567,23.3,92,0.0,944.7,7.1,45.0,22,5.3,5.2,14.2,275.0,34.0,6.3,3,5,7,1,2026-06-23T21:20:28.645253+05:30
Ahmedabad,Gujarat,23.0225,72.5714,31.2,69,0.0,996.3,8.0,44.6,69,87.3,31.9,13.2,186.0,57.0,5.0,3,5,7,1,2026-06-23T21:20:28.645259+05:30
Jaipur,Rajasthan,26.9124,75.7873,32.3,44,0.0,954.4,8.2,38.5,147,136.0,54.7,38.6,582.0,37.0,13.4,0,5,7,1,2026-06-23T21:20:28.645266+05:30
Lucknow,Uttar Pradesh,26.8467,80.9462,35.8,35,0.0,987.1,8.25,39.2,146,178.8,50.2,14.3,348.0,94.0,8.6,0,5,10,1,2026-06-23T21:20:28.645277+05:30
Kanpur,Uttar Pradesh,26.4499,80.3319,35.8,35,0.0,985.6,8.25,39.2,183,307.3,64.0,15.2,214.0,83.0,7.5,0,5,10,1,2026-06-23T21:20:28.645284+05:30
Chandigarh,Chandigarh,30.7333,76.7794,29.7,53,0.0,962.0,7.8,34.6,149,39.9,32.4,24.2,932.0,106.0,10.3,4,5,7,1,2026-06-23T21:20:28.645290+05:30
Srinagar,Jammu and Kashmir,34.0837,74.7973,21.0,71,0.0,836.3,9.1,19.4,104,36.0,32.5,38.7,998.0,54.0,3.9,3,5,7,0,2026-06-23T21:20:28.645297+05:30
Jammu,Jammu and Kashmir,32.7266,74.857,33.8,35,0.0,964.6,8.65,36.7,115,31.7,29.5,38.0,528.0,78.0,5.6,0,5,7,1,2026-06-23T21:20:28.645304+05:30
Amritsar,Punjab,31.634,74.8723,30.1,66,0.0,972.6,8.5,27.0,156,70.5,53.1,36.3,373.0,82.0,11.6,3,5,7,1,2026-06-23T21:20:28.645311+05:30
Ludhiana,Punjab,30.901,75.8573,32.5,45,0.0,971.4,8.05,34.2,126,102.4,49.6,23.7,450.0,86.0,8.5,0,5,7,1,2026-06-23T21:20:28.645317+05:30
Jalandhar,Punjab,31.326,75.5762,32.2,49,0.0,972.2,8.25,35.3,131,89.9,52.5,25.9,537.0,90.0,7.6,0,5,7,1,2026-06-23T21:20:28.645326+05:30
Dehradun,Uttarakhand,30.6284,78.0322,16.9,98,0.0,826.1,7.7,35.3,105,19.3,15.4,14.7,234.0,103.0,1.3,3,10,7,1,2026-06-23T21:20:28.645333+05:30
Shimla,Himachal Pradesh,31.1048,77.1734,14.7,76,0.0,780.3,8.35,40.7,106,18.3,15.2,15.1,344.0,110.0,4.6,3,5,7,0,2026-06-23T21:20:28.645340+05:30
Manali,Himachal Pradesh,32.2396,77.1887,15.7,87,0.0,814.6,9.75,34.6,75,17.6,17.1,85.9,187.0,37.0,0.4,3,10,7,0,2026-06-23T21:20:28.645349+05:30
Gurgaon,Haryana,28.4595,77.0266,30.6,54,0.0,975.2,7.85,46.8,355,470.3,109.0,45.9,387.0,50.0,14.0,0,5,7,1,2026-06-23T21:20:28.645355+05:30
Noida,Uttar Pradesh,28.5355,77.391,31.1,52,0.0,978.1,7.8,37.8,355,470.3,109.0,45.9,951.0,50.0,14.0,0,5,7,1,2026-06-23T21:20:28.645361+05:30
Ghaziabad,Uttar Pradesh,28.6692,77.4538,31.4,52,0.0,976.4,7.8,46.8,158,359.5,90.6,27.2,423.0,80.0,17.1,0,5,7,1,2026-06-23T21:20:28.645367+05:30
Faridabad,Haryana,28.4089,77.3178,32.2,44,0.0,977.6,7.85,42.8,355,470.3,109.0,45.9,478.0,50.0,14.0,0,5,7,1,2026-06-23T21:20:28.645373+05:30
Meerut,Uttar Pradesh,28.9845,77.7064,30.9,56,0.0,975.2,7.7,49.7,158,359.5,90.6,27.2,286.0,80.0,17.1,0,5,7,1,2026-06-23T21:20:28.645380+05:30
Agra,Uttar Pradesh,27.1767,78.0081,33.4,43,0.0,981.7,8.1,40.0,297,579.3,101.3,24.9,269.0,57.0,8.6,0,5,7,1,2026-06-23T21:20:28.645386+05:30
Varanasi,Uttar Pradesh,25.3176,82.9739,34.5,38,0.0,991.4,8.75,41.0,124,104.5,54.4,23.1,403.0,71.0,12.1,0,5,7,1,2026-06-23T21:20:28.645392+05:30
Prayagraj,Uttar Pradesh,25.4358,81.8463,36.0,32,0.0,989.9,8.45,40.3,130,84.3,42.5,19.4,298.0,70.0,9.9,0,5,10,1,2026-06-23T21:20:28.645399+05:30
Gorakhpur,Uttar Pradesh,26.7606,83.3732,31.1,65,0.0,990.8,8.65,37.8,159,110.8,54.6,20.7,493.0,84.0,11.4,3,5,7,1,2026-06-23T21:20:28.645405+05:30
Bareilly,Uttar Pradesh,28.367,79.4304,32.7,44,0.0,980.4,8.1,34.2,154,92.4,46.6,14.6,232.0,127.0,13.3,0,5,7,1,2026-06-23T21:20:28.645413+05:30
Aligarh,Uttar Pradesh,27.8974,78.088,31.9,50,0.0,979.4,7.95,38.2,283,484.3,105.9,28.2,370.0,61.0,8.6,0,5,7,1,2026-06-23T21:20:28.645419+05:30
Moradabad,Uttar Pradesh,28.8386,78.7733,32.1,48,0.0,977.4,7.95,40.3,158,166.7,63.3,20.8,278.0,104.0,12.6,0,5,7,1,2026-06-23T21:20:28.645425+05:30
Saharanpur,Uttar Pradesh,29.9637,77.546,30.1,55,0.0,969.0,7.45,35.3,156,212.8,62.9,18.8,480.0,100.0,11.8,0,5,7,1,2026-06-23T21:20:28.645431+05:30
Jhansi,Uttar Pradesh,25.4484,78.5685,31.6,52,0.0,972.9,8.4,37.4,92,61.0,29.9,14.4,318.0,50.0,4.1,0,5,7,1,2026-06-23T21:20:31.862406+05:30
Surat,Gujarat,21.1702,72.8311,28.7,83,0.0,1002.1,6.8,42.1,66,33.5,19.9,24.0,268.0,33.0,37.8,7,5,4,1,2026-06-23T21:20:31.862443+05:30
Vadodara,Gujarat,22.3072,73.1812,29.8,72,0.0,999.1,6.45,43.9,66,30.5,20.7,17.8,164.0,59.0,20.8,7,5,7,1,2026-06-23T21:20:31.862454+05:30
Rajkot,Gujarat,22.3039,70.8022,30.7,66,0.0,989.3,7.55,45.4,71,39.7,17.6,5.1,119.0,59.0,5.7,3,5,7,1,2026-06-23T21:20:31.862462+05:30
Thane,Maharashtra,19.2183,72.9781,25.9,92,0.2,1004.4,6.5,25.9,35,13.8,8.5,11.4,523.0,44.0,6.2,10,5,4,1,2026-06-23T21:20:31.862470+05:30
Nagpur,Maharashtra,21.1458,79.0882,27.5,88,0.0,970.2,8.15,33.5,75,16.8,16.6,17.4,480.0,65.0,10.8,7,5,7,1,2026-06-23T21:20:31.862478+05:30
Nashik,Maharashtra,19.9975,73.7898,23.4,94,0.0,942.0,7.65,33.1,33,6.6,5.9,11.3,244.0,54.0,3.7,3,5,7,1,2026-06-23T21:20:31.862485+05:30
Aurangabad,Maharashtra,19.8762,75.3433,25.2,84,0.0,941.0,8.1,46.8,33,7.1,7.0,8.4,220.0,62.0,5.1,7,5,7,1,2026-06-23T21:20:31.862492+05:30
Solapur,Maharashtra,17.6599,75.9064,27.7,64,0.0,955.2,7.5,61.6,29,3.6,3.1,4.5,138.0,46.0,1.7,7,5,7,1,2026-06-23T21:20:31.862499+05:30
Kolhapur,Maharashtra,16.705,74.2433,22.9,95,0.1,945.7,8.2,63.4,24,4.6,4.4,7.3,153.0,39.0,2.0,6,5,7,1,2026-06-23T21:20:31.862506+05:30
Goa,Goa,15.2993,74.124,24.1,99,0.7,998.0,7.0,38.2,31,13.7,8.0,2.8,216.0,46.0,0.6,6,5,7,1,2026-06-23T21:20:31.862513+05:30
Jodhpur,Rajasthan,26.2389,73.0243,34.3,40,0.0,976.2,8.4,39.2,132,237.5,55.9,7.9,180.0,60.0,2.2,0,5,7,1,2026-06-23T21:20:31.862520+05:30
Udaipur,Rajasthan,24.5854,73.7125,30.1,51,0.0,941.6,8.8,38.9,69,62.6,23.7,4.7,199.0,69.0,2.3,0,5,7,1,2026-06-23T21:20:31.862527+05:30
Kota,Rajasthan,25.2138,75.8648,30.5,55,0.0,973.1,8.3,45.0,83,70.8,37.4,16.1,394.0,59.0,5.6,0,5,7,1,2026-06-23T21:20:31.862534+05:30
Bikaner,Rajasthan,28.0229,73.3119,31.5,56,0.0,974.2,8.5,59.0,133,131.3,42.0,5.1,414.0,63.0,2.0,0,5,7,1,2026-06-23T21:20:31.862540+05:30
Ajmer,Rajasthan,26.4499,74.6399,30.9,50,0.0,949.2,8.35,42.8,92,51.5,26.5,9.3,365.0,69.0,3.2,0,5,7,1,2026-06-23T21:20:31.862547+05:30
Gwalior,Madhya Pradesh,26.2183,78.1828,34.3,38,0.0,977.1,8.25,42.1,110,107.8,39.1,12.6,210.0,57.0,4.5,0,5,7,1,2026-06-23T21:20:31.862554+05:30
Indore,Madhya Pradesh,22.7196,75.8577,24.1,94,0.0,944.6,6.7,49.3,61,37.6,31.8,22.3,336.0,49.0,7.0,3,5,7,1,2026-06-23T21:20:31.862561+05:30
Bhopal,Madhya Pradesh,23.2599,77.4126,26.0,87,0.0,949.9,5.85,36.4,58,23.7,17.5,8.6,703.0,66.0,3.3,7,5,3,1,2026-06-23T21:20:31.862568+05:30
Jabalpur,Madhya Pradesh,23.1815,79.9864,26.1,86,0.0,957.9,7.1,36.4,72,31.8,21.5,8.7,256.0,79.0,3.6,7,5,7,1,2026-06-23T21:20:31.862574+05:30
Ujjain,Madhya Pradesh,23.1765,75.7885,25.0,91,0.0,949.9,7.8,41.8,66,37.6,28.2,9.8,366.0,65.0,4.3,7,5,7,1,2026-06-23T21:20:31.862581+05:30
Visakhapatnam,Andhra Pradesh,17.6868,83.2185,29.5,78,0.0,1000.2,8.6,32.0,80,24.7,24.0,38.2,415.0,34.0,52.8,7,5,4,1,2026-06-23T21:20:31.862588+05:30
Vijayawada,Andhra Pradesh,16.5062,80.648,30.1,66,0.0,1000.3,8.65,35.6,70,32.6,31.1,24.8,461.0,38.0,8.9,3,5,4,1,2026-06-23T21:20:31.862595+05:30
Guntur,Andhra Pradesh,16.3067,80.4365,29.9,74,0.0,1001.5,8.4,36.0,62,24.5,23.5,21.6,408.0,35.0,7.3,7,5,4,1,2026-06-23T21:20:31.862603+05:30
Nellore,Andhra Pradesh,14.4426,79.9865,29.8,72,0.0,1004.2,8.9,39.2,45,13.9,12.0,5.3,199.0,102.0,4.3,7,5,4,1,2026-06-23T21:20:31.862611+05:30
Kurnool,Andhra Pradesh,15.8281,78.0373,29.5,55,0.0,975.9,8.45,51.8,31,7.5,6.6,9.4,154.0,46.0,2.2,4,5,7,1,2026-06-23T21:20:31.862619+05:30
Kakinada,Andhra Pradesh,16.9891,82.2475,29.3,74,0.0,1004.8,8.35,37.4,63,25.2,21.8,7.9,391.0,109.0,7.9,7,5,4,1,2026-06-23T21:20:31.862626+05:30
Tirupati,Andhra Pradesh,13.6288,79.4192,28.2,84,0.0,990.3,8.35,35.3,32,14.1,13.4,22.3,257.0,31.0,2.8,7,5,7,1,2026-06-23T21:20:31.862633+05:30
Warangal,Telangana,17.9689,79.5941,28.7,76,0.0,976.4,8.3,33.5,48,18.8,18.0,12.9,248.0,61.0,4.7,7,5,7,1,2026-06-23T21:20:31.862639+05:30
Nizamabad,Telangana,18.6725,78.0941,27.4,77,0.0,962.3,7.6,39.2,38,5.4,5.2,5.8,178.0,59.0,1.4,7,5,7,1,2026-06-23T21:20:31.862646+05:30
Mysore,Karnataka,12.2958,76.6396,22.1,92,0.0,929.7,8.35,46.8,30,4.2,3.9,9.6,141.0,41.0,2.0,3,5,7,1,2026-06-23T21:20:31.862652+05:30
Mangalore,Karnataka,12.9141,74.856,24.6,95,0.4,1008.9,8.4,41.0,29,13.6,8.4,4.8,254.0,43.0,1.6,6,0,4,1,2026-06-23T21:20:31.862659+05:30
Hubli-Dharwad,Karnataka,15.3647,75.124,21.8,96,0.0,940.2,7.4,51.5,24,2.2,2.0,6.2,127.0,41.0,1.0,3,5,7,1,2026-06-23T21:20:31.862666+05:30
Belgaum,Karnataka,15.8497,74.4977,21.1,97,0.2,924.2,8.05,53.3,23,2.3,2.1,5.4,113.0,42.0,1.3,6,5,7,1,2026-06-23T21:20:35.084918+05:30
Coimbatore,Tamil Nadu,11.0168,76.9558,24.0,89,0.0,962.7,7.8,48.6,29,6.2,5.4,8.9,203.0,40.0,3.0,3,5,7,1,2026-06-23T21:20:35.084955+05:30
Madurai,Tamil Nadu,9.9252,78.1198,30.6,54,0.0,993.2,8.2,25.6,65,26.9,24.3,46.6,158.0,11.0,9.5,0,5,7,1,2026-06-23T21:20:35.084966+05:30
Trichy,Tamil Nadu,10.7905,78.7047,29.6,60,0.0,999.8,7.85,50.8,36,10.6,8.6,10.5,138.0,50.0,3.6,4,5,7,1,2026-06-23T21:20:35.084975+05:30
Salem,Tamil Nadu,11.6643,78.146,28.0,75,0.0,978.0,8.5,31.7,42,14.5,12.4,16.3,539.0,52.0,4.7,7,5,7,1,2026-06-23T21:20:35.084984+05:30
Tirunelveli,Tamil Nadu,8.7139,77.7567,29.2,67,0.0,1004.2,5.9,32.8,34,10.2,7.7,5.8,211.0,55.0,2.0,7,5,0,1,2026-06-23T21:20:35.084991+05:30
Vellore,Tamil Nadu,12.9165,79.1325,28.6,66,0.0,983.9,8.35,45.7,38,24.4,22.8,28.6,320.0,31.0,5.7,7,5,7,1,2026-06-23T21:20:35.085000+05:30
Erode,Tamil Nadu,11.341,77.7172,27.3,74,0.0,989.8,7.9,36.7,37,11.7,9.6,12.6,199.0,46.0,3.2,7,5,7,1,2026-06-23T21:20:35.085007+05:30
Kochi,Kerala,9.9312,76.2673,25.6,94,0.1,1011.4,8.2,35.3,43,16.0,13.2,16.0,244.0,29.0,4.2,10,0,4,1,2026-06-23T21:20:35.085015+05:30
Thiruvananthapuram,Kerala,8.5241,76.9366,25.7,90,0.0,1010.2,8.1,41.8,28,15.6,9.0,3.2,170.0,49.0,1.2,7,0,4,1,2026-06-23T21:20:35.085022+05:30
Kozhikode,Kerala,11.2588,75.7804,24.0,99,0.0,1010.4,7.25,40.0,27,10.7,6.4,1.9,324.0,55.0,0.8,3,0,4,1,2026-06-23T21:20:35.085028+05:30
Thrissur,Kerala,10.5276,76.2144,24.5,98,0.1,1009.6,7.55,33.5,40,15.1,13.0,12.6,310.0,31.0,3.4,6,0,4,1,2026-06-23T21:20:35.085035+05:30
Kannur,Kerala,11.8745,75.3704,24.0,98,0.0,1009.3,3.8,40.7,24,13.9,8.7,7.4,281.0,41.0,1.5,3,0,0,1,2026-06-23T21:20:35.085042+05:30
Patna,Bihar,25.5941,85.1376,32.6,68,0.0,994.1,8.6,36.0,153,116.4,77.1,49.7,390.0,59.0,21.0,3,5,7,1,2026-06-23T21:20:35.085048+05:30
Gaya,Bihar,24.7914,85.0002,31.5,57,0.0,987.9,8.9,40.3,113,119.7,62.4,24.2,577.0,66.0,11.3,0,5,7,1,2026-06-23T21:20:35.085055+05:30
Muzaffarpur,Bihar,26.1209,85.3647,30.9,81,0.0,993.9,8.85,24.8,159,124.8,89.2,49.5,879.0,64.0,21.6,3,5,7,1,2026-06-23T21:20:35.085061+05:30
Bhagalpur,Bihar,25.2425,87.0117,30.4,68,0.0,995.1,8.85,38.9,143,95.0,58.3,16.4,398.0,115.0,16.4,3,5,7,1,2026-06-23T21:20:35.085068+05:30
Ranchi,Jharkhand,23.3441,85.3096,26.2,74,0.0,934.0,8.95,37.4,87,53.2,36.3,8.2,194.0,105.0,6.7,7,5,7,1,2026-06-23T21:20:35.085074+05:30
Jamshedpur,Jharkhand,22.8046,86.2029,29.0,80,0.0,986.1,9.05,39.2,141,60.1,50.4,18.5,786.0,111.0,28.0,7,5,7,1,2026-06-23T21:20:35.085081+05:30
Dhanbad,Jharkhand,23.7957,86.4304,28.6,74,0.0,974.7,9.0,40.7,153,78.5,60.3,43.4,793.0,72.0,86.3,7,5,7,1,2026-06-23T21:20:35.085087+05:30
Bokaro,Jharkhand,23.6693,86.1511,29.5,74,0.0,978.3,8.85,39.2,138,88.0,51.7,28.0,290.0,80.0,58.1,7,5,7,1,2026-06-23T21:20:35.085095+05:30
Bhubaneswar,Odisha,20.2961,85.8245,28.4,84,0.0,998.4,6.3,42.8,74,25.7,24.4,10.7,368.0,82.0,5.4,7,5,7,1,2026-06-23T21:20:35.085102+05:30
Cuttack,Odisha,20.4625,85.8828,28.8,85,0.0,1000.1,7.25,43.6,74,25.7,24.4,10.7,465.0,82.0,5.4,7,5,4,1,2026-06-23T21:20:35.085108+05:30
Rourkela,Odisha,22.2604,84.8536,28.1,86,0.0,980.9,8.95,39.6,158,56.3,48.1,13.4,390.0,123.0,11.6,7,5,7,1,2026-06-23T21:20:35.085115+05:30
Raipur,Chhattisgarh,21.2514,81.6296,29.6,71,0.0,971.5,8.9,39.2,79,35.0,34.6,43.4,238.0,51.0,58.6,7,5,7,1,2026-06-23T21:20:35.085121+05:30
Bhilai,Chhattisgarh,21.1938,81.3509,29.6,67,0.0,971.8,8.9,40.3,73,28.9,28.2,38.1,320.0,61.0,57.2,7,5,7,1,2026-06-23T21:20:35.085127+05:30
Guwahati,Assam,26.1158,91.7086,26.8,94,0.0,996.5,8.75,27.7,69,22.8,20.8,11.5,472.0,59.0,3.4,7,5,7,1,2026-06-23T21:20:35.085133+05:30
Agartala,Tripura,23.8315,91.2868,26.3,93,0.0,1002.1,8.05,32.8,71,27.9,26.1,16.2,211.0,57.0,3.5,7,5,4,1,2026-06-23T21:20:35.085140+05:30
Shillong,Meghalaya,25.5788,91.8933,20.2,92,0.0,854.6,7.9,29.5,49,15.4,12.1,7.3,303.0,89.0,2.6,3,5,7,1,2026-06-23T21:20:35.085146+05:30
Imphal,Manipur,24.817,93.9368,23.1,94,0.0,920.3,8.65,27.0,61,16.1,15.2,14.2,813.0,46.0,3.1,3,5,7,1,2026-06-23T21:20:35.085153+05:30
Aizawl,Mizoram,23.7271,92.7176,19.8,97,0.0,889.2,8.3,39.6,39,5.7,5.5,7.0,193.0,58.0,1.1,3,10,7,1,2026-06-23T21:20:35.085160+05:30
Kohima,Nagaland,25.6701,94.1077,20.3,91,0.0,852.7,8.3,22.7,47,12.0,10.1,10.5,433.0,48.0,1.2,3,5,7,1,2026-06-23T21:20:35.085166+05:30
Gangtok,Sikkim,27.3314,88.6138,17.7,94,0.2,834.3,9.1,29.5,89,10.1,8.9,9.4,417.0,109.0,4.2,6,10,7,1,2026-06-23T21:20:35.085172+05:30
Siliguri,West Bengal,26.7271,88.3953,23.8,97,0.1,988.2,8.75,23.8,96,39.6,28.3,14.7,516.0,110.0,7.6,6,5,7,1,2026-06-23T21:20:38.306641+05:30
Durgapur,West Bengal,23.5204,87.3119,27.1,88,0.0,989.8,9.0,36.4,170,72.9,63.6,29.8,860.0,96.0,49.1,7,5,7,1,2026-06-23T21:20:38.306677+05:30
Asansol,West Bengal,23.6739,86.9524,27.6,82,0.0,988.4,9.05,49.0,154,69.8,60.1,35.3,357.0,87.0,53.3,7,5,7,1,2026-06-23T21:20:38.306707+05:30
Pondicherry,Puducherry,11.9139,79.8145,28.7,89,0.0,1007.7,7.15,33.8,83,18.6,14.8,11.4,226.0,83.0,5.1,7,5,4,1,2026-06-23T21:20:38.306720+05:30
Port Blair,Andaman and Nicobar Islands,11.6234,92.7265,26.3,90,0.0,1007.7,8.75,40.7,24,11.4,6.8,0.3,91.0,42.0,0.4,7,5,4,1,2026-06-23T21:20:38.306729+05:30
Haridwar,Uttarakhand,29.9457,78.1642,29.0,65,0.0,967.4,7.6,25.2,154,104.3,44.4,17.0,476.0,119.0,12.6,7,5,7,1,2026-06-23T21:20:38.306737+05:30
Rishikesh,Uttarakhand,30.0869,78.2676,26.0,78,0.0,960.3,7.7,22.3,139,43.2,26.9,9.3,426.0,144.0,9.2,7,5,7,1,2026-06-23T21:20:38.306745+05:30
Nainital,Uttarakhand,29.3919,79.4542,15.0,95,0.0,801.4,7.35,29.2,120,33.4,25.2,9.9,400.0,122.0,7.0,3,10,7,0,2026-06-23T21:20:38.306753+05:30
Mussoorie,Uttarakhand,30.4599,78.0664,15.3,97,0.0,798.7,8.1,43.2,146,31.5,26.6,20.0,352.0,120.0,8.7,3,10,7,0,2026-06-23T21:20:38.306760+05:30
Dharamshala,Himachal Pradesh,32.219,76.3234,20.9,70,0.0,864.1,8.55,37.8,81,17.1,15.1,14.2,343.0,73.0,0.6,3,5,7,0,2026-06-23T21:20:38.306767+05:30
Dalhousie,Himachal Pradesh,32.5387,75.971,15.9,78,0.0,799.9,8.8,37.1,123,32.1,27.5,29.7,412.0,102.0,3.0,3,5,7,0,2026-06-23T21:20:38.306775+05:30
Patiala,Punjab,30.3398,76.3869,31.5,48,0.0,971.2,7.65,40.0,165,109.0,49.7,16.1,415.0,94.0,8.7,0,5,7,1,2026-06-23T21:20:38.306791+05:30
Bhatinda,Punjab,30.211,74.9455,31.6,57,0.0,976.1,8.3,51.5,125,122.0,62.9,39.2,464.0,65.0,10.4,0,5,7,1,2026-06-23T21:20:38.306802+05:30
Rohtak,Haryana,28.8955,76.6066,29.8,65,0.0,975.2,7.8,37.4,189,427.5,101.7,50.5,948.0,44.0,11.2,7,5,7,1,2026-06-23T21:20:38.306810+05:30
Panipat,Haryana,29.3909,76.9635,30.4,61,0.0,973.8,7.65,47.5,795,1009.6,169.5,28.2,416.0,61.0,8.1,3,5,7,1,2026-06-23T21:20:38.306817+05:30
Mathura,Uttar Pradesh,27.4924,77.6737,32.2,50,0.0,980.7,8.05,40.7,197,786.0,128.5,23.5,429.0,54.0,4.7,0,5,7,1,2026-06-23T21:20:38.306824+05:30
Vrindavan,Uttar Pradesh,27.5823,77.7027,31.2,58,0.0,981.1,8.05,38.2,197,786.0,128.5,23.5,592.0,54.0,4.7,0,5,7,1,2026-06-23T21:20:38.306831+05:30
Ayodhya,Uttar Pradesh,26.7922,82.1998,32.3,51,0.0,988.8,8.4,36.0,151,136.9,53.6,17.2,362.0,90.0,9.2,0,5,7,1,2026-06-23T21:20:38.306838+05:30
Ratlam,Madhya Pradesh,23.3315,75.0367,25.1,89,0.1,950.5,7.65,42.5,66,47.7,29.7,5.8,197.0,74.0,4.1,10,5,7,1,2026-06-23T21:20:38.306845+05:30
Sagar,Madhya Pradesh,23.8388,78.7378,25.5,85,0.0,946.4,6.3,44.3,69,29.2,19.8,5.6,184.0,83.0,3.0,7,5,7,1,2026-06-23T21:20:38.306852+05:30
Satna,Madhya Pradesh,24.6005,80.8322,31.6,54,0.0,966.9,8.8,41.8,95,56.2,33.6,11.4,169.0,72.0,4.2,0,5,7,1,2026-06-23T21:20:38.306858+05:30
Akola,Maharashtra,20.7002,77.0082,26.1,93,0.1,972.3,8.8,31.7,45,11.3,10.8,9.1,164.0,77.0,6.5,10,5,7,1,2026-06-23T21:20:38.306870+05:30
Amravati,Maharashtra,20.9374,77.7796,26.6,83,0.0,964.8,8.7,38.5,44,11.5,11.1,12.2,313.0,68.0,6.9,7,5,7,1,2026-06-23T21:20:38.306884+05:30
Latur,Maharashtra,18.4088,76.5604,26.6,65,0.0,937.5,5.5,45.7,29,5.3,5.0,5.7,147.0,49.0,1.6,7,5,3,1,2026-06-23T21:20:38.306894+05:30
Nanded,Maharashtra,19.1383,77.3091,26.2,92,0.1,965.8,7.5,50.8,37,5.8,5.7,8.7,207.0,49.0,3.7,10,5,7,1,2026-06-23T21:20:38.306901+05:30
Gulbarga,Karnataka,17.3297,76.8343,28.3,57,0.0,956.9,6.1,53.3,30,4.6,3.9,7.0,147.0,53.0,2.7,4,5,7,1,2026-06-23T21:20:38.306908+05:30
Bidar,Karnataka,17.9104,77.5199,26.4,70,0.0,933.4,7.7,54.7,36,6.1,5.9,12.0,162.0,47.0,2.0,7,5,7,1,2026-06-23T21:20:38.306916+05:30
Hospet,Karnataka,15.2689,76.3909,25.5,72,0.0,955.6,7.7,57.6,28,2.6,2.2,5.4,125.0,44.0,1.5,7,5,7,1,2026-06-23T21:20:38.306924+05:30
Tirupur,Tamil Nadu,11.1085,77.3411,24.9,86,0.0,976.0,7.9,51.5,35,12.3,10.4,14.4,171.0,44.0,4.4,3,5,7,1,2026-06-23T21:20:38.306931+05:30
Alappuzha,Kerala,9.4981,76.3388,25.5,95,0.1,1011.6,6.1,37.4,37,16.3,11.8,11.6,89.0,38.0,2.9,10,0,4,1,2026-06-23T21:20:38.306938+05:30
Munnar,Kerala,10.0889,77.0595,16.6,98,0.0,858.1,8.8,42.1,28,7.9,6.4,7.1,114.0,45.0,2.0,3,10,7,1,2026-06-23T21:20:38.306945+05:30
Silchar,Assam,24.8333,92.7789,25.8,95,0.1,1001.7,8.8,24.5,72,23.7,19.0,7.6,390.0,73.0,4.7,10,5,4,1,2026-06-23T21:20:38.306952+05:30
Dibrugarh,Assam,27.4728,94.912,25.5,98,0.0,991.0,7.7,26.3,72,25.8,22.1,12.9,266.0,70.0,2.3,7,5,7,1,2026-06-23T21:20:38.306958+05:30
