city,state,latitude,longitude,temp,humidity,rain,pressure,uv_index,wind_gusts,aqi,pm10,pm2_5,mosquito_risk,arthritis_risk,migraine_risk,frizz_risk,updated_at
Delhi,Delhi,28.6139,77.209,27.9,41,0.0,983.5,6.15,45.7,189,352.0,57.6,4,5,7,0,2026-03-15T14:10:47.774714+05:30
Mumbai,Maharashtra,19.076,72.8777,27.6,78,0.0,1010.0,7.7,19.4,109,91.3,52.5,7,0,4,1,2026-03-15T14:10:47.774763+05:30
Bangalore,Karnataka,12.9716,77.5946,31.4,34,0.0,913.7,9.3,19.1,82,28.8,23.2,0,5,7,0,2026-03-15T14:10:47.774779+05:30
Hyderabad,Telangana,17.385,78.4867,34.6,30,0.0,954.9,8.75,33.1,93,39.9,27.8,0,5,7,0,2026-03-15T14:10:47.774791+05:30
Chennai,Tamil Nadu,13.0827,80.2707,32.7,48,0.0,1009.5,9.05,31.3,50,11.8,8.8,0,0,4,1,2026-03-15T14:10:47.774800+05:30
Kolkata,West Bengal,22.5726,88.3639,31.1,58,0.0,1006.0,7.85,38.5,63,26.8,19.2,0,5,4,1,2026-03-15T14:10:47.774811+05:30
Pune,Maharashtra,18.5204,73.8567,35.6,17,0.0,950.1,8.25,41.0,89,35.5,26.5,0,5,10,0,2026-03-15T14:10:47.774828+05:30
Ahmedabad,Gujarat,23.0225,72.5714,36.7,23,0.0,1002.5,7.5,27.0,70,67.1,20.5,0,5,7,0,2026-03-15T14:10:47.774836+05:30
Jaipur,Rajasthan,26.9124,75.7873,34.8,12,0.0,959.2,6.95,47.5,119,273.8,37.7,0,5,7,0,2026-03-15T14:10:47.774843+05:30
Lucknow,Uttar Pradesh,26.8467,80.9462,26.7,38,0.0,995.3,6.35,49.7,138,39.0,15.6,4,5,7,0,2026-03-15T14:10:47.774852+05:30
Kanpur,Uttar Pradesh,26.4499,80.3319,28.1,41,0.0,992.6,6.6,47.2,151,205.8,29.1,4,5,7,0,2026-03-15T14:10:47.774859+05:30
Chandigarh,Chandigarh,30.7333,76.7794,18.3,89,0.0,971.2,6.0,35.3,81,49.4,18.3,3,10,3,1,2026-03-15T14:10:47.774867+05:30
Srinagar,Jammu and Kashmir,34.0837,74.7973,8.1,85,0.9,838.3,5.65,42.8,96,58.3,28.4,6,10,3,0,2026-03-15T14:10:47.774874+05:30
Jammu,Jammu and Kashmir,32.7266,74.857,19.7,80,0.4,972.6,4.6,51.8,88,68.0,45.9,6,5,3,1,2026-03-15T14:10:47.774882+05:30
Amritsar,Punjab,31.634,74.8723,20.8,79,0.0,981.8,4.95,41.4,103,50.2,30.2,3,5,3,1,2026-03-15T14:10:47.774889+05:30
Ludhiana,Punjab,30.901,75.8573,19.5,83,0.0,980.8,5.45,35.3,117,60.3,27.3,3,10,3,1,2026-03-15T14:10:47.774896+05:30
Jalandhar,Punjab,31.326,75.5762,20.1,77,0.0,982.0,5.45,29.5,111,57.3,26.7,3,5,3,0,2026-03-15T14:10:47.774905+05:30
Dehradun,Uttarakhand,30.6284,78.0322,12.5,84,0.1,829.8,5.75,38.5,54,35.2,15.4,6,10,3,0,2026-03-15T14:10:47.774912+05:30
Shimla,Himachal Pradesh,31.1048,77.1734,11.6,79,0.0,782.8,6.15,45.7,65,33.4,16.5,3,5,7,0,2026-03-15T14:10:47.774919+05:30
Manali,Himachal Pradesh,32.2396,77.1887,11.2,89,0.1,815.8,7.45,34.2,47,36.3,11.5,6,10,7,0,2026-03-15T14:10:47.774926+05:30
Gurgaon,Haryana,28.4595,77.0266,29.3,38,0.0,981.6,6.25,45.4,409,2302.2,227.2,4,5,7,0,2026-03-15T14:10:47.774933+05:30
Noida,Uttar Pradesh,28.5355,77.391,27.9,44,0.0,985.2,6.15,44.6,409,2302.2,227.2,4,5,7,0,2026-03-15T14:10:47.774940+05:30
Ghaziabad,Uttar Pradesh,28.6692,77.4538,27.5,42,0.0,983.6,6.15,40.7,175,116.2,31.9,4,5,7,0,2026-03-15T14:10:47.774946+05:30
Faridabad,Haryana,28.4089,77.3178,27.8,47,0.0,984.3,6.2,42.5,409,2302.2,227.2,4,5,7,0,2026-03-15T14:10:47.774952+05:30
Meerut,Uttar Pradesh,28.9845,77.7064,25.7,57,0.0,982.9,6.0,32.0,175,116.2,31.9,4,5,3,1,2026-03-15T14:10:47.774959+05:30
Agra,Uttar Pradesh,27.1767,78.0081,29.8,40,0.0,988.8,6.6,45.7,563,739.5,75.7,4,5,7,0,2026-03-15T14:10:47.774965+05:30
Varanasi,Uttar Pradesh,25.3176,82.9739,33.8,33,0.0,997.3,7.35,34.2,151,77.5,34.7,0,5,7,0,2026-03-15T14:10:47.774978+05:30
Prayagraj,Uttar Pradesh,25.4358,81.8463,32.5,42,0.0,995.7,7.25,42.8,125,57.2,27.5,0,5,7,1,2026-03-15T14:10:47.774985+05:30
Gorakhpur,Uttar Pradesh,26.7606,83.3732,29.7,45,0.0,999.6,7.1,39.2,155,53.4,30.6,4,5,7,1,2026-03-15T14:10:47.774991+05:30
Bareilly,Uttar Pradesh,28.367,79.4304,23.0,72,0.0,990.7,6.35,41.0,146,52.7,22.8,3,5,7,1,2026-03-15T14:10:47.774997+05:30
Aligarh,Uttar Pradesh,27.8974,78.088,28.9,42,0.0,986.8,6.3,51.5,235,437.7,65.4,4,5,7,0,2026-03-15T14:10:47.775004+05:30
Moradabad,Uttar Pradesh,28.8386,78.7733,22.5,76,0.3,986.1,6.2,41.0,155,66.8,23.7,6,5,7,1,2026-03-15T14:10:47.775009+05:30
Saharanpur,Uttar Pradesh,29.9637,77.546,20.2,81,0.0,978.4,5.8,33.1,129,64.7,23.9,3,5,3,1,2026-03-15T14:10:47.775015+05:30
Jhansi,Uttar Pradesh,25.4484,78.5685,33.0,33,0.0,978.0,7.2,49.3,104,84.8,28.9,0,5,7,0,2026-03-15T14:10:50.990392+05:30
Surat,Gujarat,21.1702,72.8311,31.3,44,0.0,1008.2,7.4,24.5,134,101.3,52.7,0,0,4,1,2026-03-15T14:10:50.990428+05:30
Vadodara,Gujarat,22.3072,73.1812,36.4,26,0.0,1005.1,7.5,24.5,90,80.1,29.2,0,5,7,0,2026-03-15T14:10:50.990439+05:30
Rajkot,Gujarat,22.3039,70.8022,36.4,23,0.0,995.1,7.35,37.8,72,81.3,21.4,0,5,10,0,2026-03-15T14:10:50.990448+05:30
Thane,Maharashtra,19.2183,72.9781,32.0,47,0.0,1009.6,7.7,33.5,109,91.3,52.5,0,0,4,1,2026-03-15T14:10:50.990455+05:30
Nagpur,Maharashtra,21.1458,79.0882,36.9,17,0.0,973.5,8.15,26.3,118,30.9,26.3,0,5,10,0,2026-03-15T14:10:50.990462+05:30
Nashik,Maharashtra,19.9975,73.7898,33.3,20,0.0,947.1,7.9,40.0,73,35.3,15.4,0,5,7,0,2026-03-15T14:10:50.990469+05:30
Aurangabad,Maharashtra,19.8762,75.3433,35.2,17,0.0,945.3,8.4,30.6,69,32.7,20.9,0,5,10,0,2026-03-15T14:10:50.990476+05:30
Solapur,Maharashtra,17.6599,75.9064,35.3,21,0.0,958.6,8.65,23.4,118,40.0,33.6,0,5,10,0,2026-03-15T14:10:50.990483+05:30
Kolhapur,Maharashtra,16.705,74.2433,31.9,33,0.0,950.0,8.05,40.3,150,40.9,36.6,0,5,7,0,2026-03-15T14:10:50.990490+05:30
Goa,Goa,15.2993,74.124,31.8,59,0.0,999.8,8.75,32.8,122,40.5,36.0,0,5,7,1,2026-03-15T14:10:50.990496+05:30
Jodhpur,Rajasthan,26.2389,73.0243,36.5,18,0.0,982.4,7.25,32.0,121,105.2,26.6,0,5,10,0,2026-03-15T14:10:50.990503+05:30
Udaipur,Rajasthan,24.5854,73.7125,34.3,16,0.0,947.2,7.85,37.4,62,59.8,18.3,0,5,7,0,2026-03-15T14:10:50.990510+05:30
Kota,Rajasthan,25.2138,75.8648,37.5,13,0.0,977.8,7.3,37.8,67,45.8,17.3,0,5,10,0,2026-03-15T14:10:50.990516+05:30
Bikaner,Rajasthan,28.0229,73.3119,34.4,20,0.0,981.1,6.9,41.8,68,63.1,15.9,0,5,7,0,2026-03-15T14:10:50.990523+05:30
Ajmer,Rajasthan,26.4499,74.6399,34.4,15,0.0,954.4,7.25,40.3,73,54.2,18.6,0,5,7,0,2026-03-15T14:10:50.990529+05:30
Gwalior,Madhya Pradesh,26.2183,78.1828,31.7,41,0.0,983.1,6.9,33.8,106,66.4,24.2,0,5,7,1,2026-03-15T14:10:50.990535+05:30
Indore,Madhya Pradesh,22.7196,75.8577,34.7,21,0.0,948.9,7.8,36.0,62,36.2,14.9,0,5,7,0,2026-03-15T14:10:50.990541+05:30
Bhopal,Madhya Pradesh,23.2599,77.4126,35.5,21,0.0,954.1,7.7,42.8,68,42.1,17.5,0,5,10,0,2026-03-15T14:10:50.990566+05:30
Jabalpur,Madhya Pradesh,23.1815,79.9864,34.5,21,0.0,961.7,7.8,38.5,63,28.5,15.4,0,5,7,0,2026-03-15T14:10:50.990573+05:30
Ujjain,Madhya Pradesh,23.1765,75.7885,34.1,25,0.0,954.6,7.7,36.7,63,49.2,18.5,0,5,7,0,2026-03-15T14:10:50.990580+05:30
Visakhapatnam,Andhra Pradesh,17.6868,83.2185,31.7,52,0.0,1005.8,8.65,40.0,62,22.9,17.6,0,5,4,1,2026-03-15T14:10:50.990586+05:30
Vijayawada,Andhra Pradesh,16.5062,80.648,32.9,50,0.0,1004.7,8.75,29.2,59,16.3,12.6,0,5,4,1,2026-03-15T14:10:50.990593+05:30
Guntur,Andhra Pradesh,16.3067,80.4365,33.1,49,0.0,1006.0,8.75,30.2,56,18.0,13.8,0,5,4,1,2026-03-15T14:10:50.990599+05:30
Nellore,Andhra Pradesh,14.4426,79.9865,34.4,44,0.0,1007.5,8.95,29.2,55,20.7,17.7,0,5,4,1,2026-03-15T14:10:50.990607+05:30
Kurnool,Andhra Pradesh,15.8281,78.0373,36.5,29,0.0,977.9,8.75,20.2,87,36.2,26.1,0,5,10,0,2026-03-15T14:10:50.990614+05:30
Kakinada,Andhra Pradesh,16.9891,82.2475,33.4,49,0.0,1009.4,8.7,31.7,57,19.3,13.4,0,0,4,1,2026-03-15T14:10:50.990620+05:30
Tirupati,Andhra Pradesh,13.6288,79.4192,33.8,33,0.0,993.3,9.05,28.8,71,17.1,14.8,0,5,7,0,2026-03-15T14:10:50.990626+05:30
Warangal,Telangana,17.9689,79.5941,33.2,39,0.0,980.7,8.55,31.7,77,34.2,25.2,0,5,7,1,2026-03-15T14:10:50.990632+05:30
Nizamabad,Telangana,18.6725,78.0941,34.6,33,0.0,966.0,8.4,31.3,118,39.3,31.0,0,5,7,0,2026-03-15T14:10:50.990638+05:30
Mysore,Karnataka,12.2958,76.6396,33.0,30,0.0,930.5,9.3,28.4,92,26.9,21.5,0,5,7,0,2026-03-15T14:10:50.990644+05:30
Mangalore,Karnataka,12.9141,74.856,28.7,81,0.0,1008.2,8.95,28.1,88,30.9,26.2,7,0,4,1,2026-03-15T14:10:50.990651+05:30
Hubli-Dharwad,Karnataka,15.3647,75.124,33.8,33,0.0,942.4,8.95,45.4,112,47.8,39.9,0,5,7,0,2026-03-15T14:10:50.990657+05:30
Belgaum,Karnataka,15.8497,74.4977,31.2,40,0.0,928.0,9.0,37.1,136,43.9,38.4,0,5,7,0,2026-03-15T14:10:54.203748+05:30
Coimbatore,Tamil Nadu,11.0168,76.9558,34.4,30,0.0,963.3,9.3,34.6,67,18.9,13.9,0,5,7,0,2026-03-15T14:10:54.203782+05:30
Madurai,Tamil Nadu,9.9252,78.1198,35.3,37,0.0,993.9,9.25,28.4,52,7.9,6.7,0,5,10,1,2026-03-15T14:10:54.203793+05:30
Trichy,Tamil Nadu,10.7905,78.7047,34.4,42,0.0,1001.1,9.15,20.2,57,10.5,9.3,0,5,4,1,2026-03-15T14:10:54.203802+05:30
Salem,Tamil Nadu,11.6643,78.146,33.5,40,0.0,978.8,9.2,13.3,72,22.1,19.6,0,5,7,1,2026-03-15T14:10:54.203809+05:30
Tirunelveli,Tamil Nadu,8.7139,77.7567,35.9,38,0.0,1004.0,9.25,34.9,49,7.5,6.5,0,5,7,1,2026-03-15T14:10:54.203817+05:30
Vellore,Tamil Nadu,12.9165,79.1325,34.2,30,0.0,986.3,9.1,29.9,97,22.1,20.3,0,5,7,0,2026-03-15T14:10:54.203825+05:30
Erode,Tamil Nadu,11.341,77.7172,35.3,34,0.0,990.3,9.2,21.2,49,13.5,10.9,0,5,10,1,2026-03-15T14:10:54.203832+05:30
Kochi,Kerala,9.9312,76.2673,28.6,76,0.0,1009.7,9.1,32.8,75,20.1,18.0,7,0,4,1,2026-03-15T14:10:54.203840+05:30
Thiruvananthapuram,Kerala,8.5241,76.9366,28.7,71,0.0,1008.8,9.1,27.0,49,11.3,10.4,7,0,4,1,2026-03-15T14:10:54.203847+05:30
Kozhikode,Kerala,11.2588,75.7804,29.8,73,0.0,1009.1,9.0,30.6,80,23.4,21.1,7,0,4,1,2026-03-15T14:10:54.203855+05:30
Thrissur,Kerala,10.5276,76.2144,32.6,58,0.0,1008.1,9.05,39.6,75,21.9,18.3,0,0,4,1,2026-03-15T14:10:54.203862+05:30
Kannur,Kerala,11.8745,75.3704,30.5,69,0.0,1008.7,9.0,33.8,83,24.4,21.2,3,0,4,1,2026-03-15T14:10:54.203870+05:30
Patna,Bihar,25.5941,85.1376,32.5,34,0.0,1000.8,7.55,28.1,160,96.6,49.9,0,5,4,0,2026-03-15T14:10:54.203877+05:30
Gaya,Bihar,24.7914,85.0002,32.3,47,0.0,994.4,7.65,32.0,138,82.4,33.8,0,5,7,1,2026-03-15T14:10:54.203884+05:30
Muzaffarpur,Bihar,26.1209,85.3647,31.9,42,0.0,1001.5,7.5,34.6,160,93.4,54.5,0,5,4,1,2026-03-15T14:10:54.203890+05:30
Bhagalpur,Bihar,25.2425,87.0117,32.4,52,0.0,1001.2,7.55,32.4,151,89.4,54.0,0,5,4,1,2026-03-15T14:10:54.203896+05:30
Ranchi,Jharkhand,23.3441,85.3096,28.9,51,0.0,938.7,8.3,45.7,118,37.8,34.1,4,5,7,1,2026-03-15T14:10:54.203903+05:30
Jamshedpur,Jharkhand,22.8046,86.2029,30.2,59,0.0,991.5,8.2,38.2,119,53.2,45.2,0,5,7,1,2026-03-15T14:10:54.203910+05:30
Dhanbad,Jharkhand,23.7957,86.4304,29.0,54,0.0,980.8,8.05,35.3,158,69.2,62.2,4,5,7,1,2026-03-15T14:10:54.203916+05:30
Bokaro,Jharkhand,23.6693,86.1511,31.6,45,0.0,984.6,8.0,37.8,151,52.7,46.4,0,5,7,1,2026-03-15T14:10:54.203923+05:30
Bhubaneswar,Odisha,20.2961,85.8245,31.4,57,0.0,1003.8,8.5,41.8,57,26.3,18.6,0,5,4,1,2026-03-15T14:10:54.203929+05:30
Cuttack,Odisha,20.4625,85.8828,32.7,56,0.0,1005.4,8.55,35.6,57,26.3,18.6,0,5,4,1,2026-03-15T14:10:54.203936+05:30
Rourkela,Odisha,22.2604,84.8536,34.1,39,0.0,985.4,8.1,54.0,130,57.3,51.7,0,5,7,1,2026-03-15T14:10:54.203943+05:30
Raipur,Chhattisgarh,21.2514,81.6296,35.6,30,0.0,974.9,8.2,41.8,148,47.5,38.5,0,5,10,0,2026-03-15T14:10:54.203950+05:30
Bhilai,Chhattisgarh,21.1938,81.3509,36.7,26,0.0,975.1,8.2,42.1,133,48.1,38.5,0,5,10,0,2026-03-15T14:10:54.203956+05:30
Guwahati,Assam,26.1158,91.7086,24.9,77,0.0,1002.9,7.4,40.7,78,25.8,19.5,3,5,4,1,2026-03-15T14:10:54.203963+05:30
Agartala,Tripura,23.8315,91.2868,26.2,75,0.0,1008.7,7.75,38.2,60,22.8,17.1,7,0,4,1,2026-03-15T14:10:54.203969+05:30
Shillong,Meghalaya,25.5788,91.8933,15.0,78,0.0,856.6,7.85,85.0,65,24.1,16.3,3,5,7,0,2026-03-15T14:10:54.203975+05:30
Imphal,Manipur,24.817,93.9368,19.0,79,0.0,925.2,8.15,76.7,94,41.0,27.9,3,5,7,0,2026-03-15T14:10:54.203982+05:30
Aizawl,Mizoram,23.7271,92.7176,22.1,63,0.0,895.2,8.1,64.4,91,24.9,17.6,3,5,7,0,2026-03-15T14:10:54.203988+05:30
Kohima,Nagaland,25.6701,94.1077,18.1,59,0.0,855.8,7.8,111.2,76,29.0,19.7,0,5,7,0,2026-03-15T14:10:54.203994+05:30
Gangtok,Sikkim,27.3314,88.6138,17.6,69,0.0,838.0,7.05,20.9,93,55.4,32.5,3,5,7,0,2026-03-15T14:10:54.204001+05:30
Siliguri,West Bengal,26.7271,88.3953,22.9,76,0.0,995.0,7.4,31.7,123,91.7,56.9,3,5,7,1,2026-03-15T14:10:57.416407+05:30
Durgapur,West Bengal,23.5204,87.3119,29.3,63,0.0,995.8,8.05,37.8,114,72.2,64.5,7,5,7,1,2026-03-15T14:10:57.416442+05:30
Asansol,West Bengal,23.6739,86.9524,28.0,63,0.0,994.5,8.05,33.5,131,73.8,66.1,7,5,7,1,2026-03-15T14:10:57.416452+05:30
Pondicherry,Puducherry,11.9139,79.8145,33.5,49,0.0,1010.2,9.0,27.0,41,9.1,6.3,0,0,4,1,2026-03-15T14:10:57.416461+05:30
Port Blair,Andaman and Nicobar Islands,11.6234,92.7265,27.7,80,0.0,1008.6,8.95,21.6,74,13.6,10.7,7,0,4,1,2026-03-15T14:10:57.416469+05:30
Haridwar,Uttarakhand,29.9457,78.1642,22.7,68,0.0,977.0,5.3,28.8,87,54.4,21.0,3,5,3,1,2026-03-15T14:10:57.416477+05:30
Rishikesh,Uttarakhand,30.0869,78.2676,22.8,66,0.0,969.4,5.2,29.2,65,41.7,16.1,3,5,3,1,2026-03-15T14:10:57.416483+05:30
Nainital,Uttarakhand,29.3919,79.4542,17.0,68,0.0,807.0,4.8,49.3,84,42.3,17.2,3,5,3,0,2026-03-15T14:10:57.416490+05:30
Mussoorie,Uttarakhand,30.4599,78.0664,13.0,83,0.1,802.1,6.0,54.7,73,50.3,18.2,6,10,3,0,2026-03-15T14:10:57.416497+05:30
Dharamshala,Himachal Pradesh,32.219,76.3234,14.8,75,0.0,867.8,4.5,32.8,53,38.9,19.3,3,5,3,0,2026-03-15T14:10:57.416504+05:30
Dalhousie,Himachal Pradesh,32.5387,75.971,13.5,63,0.0,801.9,3.65,35.6,72,44.5,30.5,3,5,3,0,2026-03-15T14:10:57.416512+05:30
Patiala,Punjab,30.3398,76.3869,18.7,86,0.0,980.4,5.9,34.9,122,52.2,23.0,3,10,3,1,2026-03-15T14:10:57.416519+05:30
Bhatinda,Punjab,30.211,74.9455,25.9,57,0.0,984.2,6.45,45.0,87,57.4,25.1,4,5,7,1,2026-03-15T14:10:57.416526+05:30
Rohtak,Haryana,28.8955,76.6066,29.8,34,0.0,982.2,6.1,51.5,174,491.7,71.0,4,5,7,0,2026-03-15T14:10:57.416533+05:30
Panipat,Haryana,29.3909,76.9635,24.2,61,0.0,982.4,5.85,36.0,205,273.8,43.8,3,5,3,1,2026-03-15T14:10:57.416539+05:30
Mathura,Uttar Pradesh,27.4924,77.6737,32.1,30,0.0,987.3,6.5,39.6,342,379.0,57.9,0,5,7,0,2026-03-15T14:10:57.416547+05:30
Vrindavan,Uttar Pradesh,27.5823,77.7027,30.9,34,0.0,987.9,6.45,38.5,342,379.0,57.9,0,5,7,0,2026-03-15T14:10:57.416572+05:30
Ayodhya,Uttar Pradesh,26.7922,82.1998,28.9,37,0.0,998.0,6.9,47.2,128,35.0,16.0,4,5,7,0,2026-03-15T14:10:57.416579+05:30
Ratlam,Madhya Pradesh,23.3315,75.0367,34.3,24,0.0,955.7,7.65,38.2,62,51.7,18.7,0,5,7,0,2026-03-15T14:10:57.416586+05:30
Sagar,Madhya Pradesh,23.8388,78.7378,34.8,21,0.0,950.1,7.65,39.6,56,36.4,15.2,0,5,7,0,2026-03-15T14:10:57.416593+05:30
Satna,Madhya Pradesh,24.6005,80.8322,37.7,14,0.0,970.1,7.6,50.0,84,53.1,27.0,0,5,10,0,2026-03-15T14:10:57.416599+05:30
Akola,Maharashtra,20.7002,77.0082,37.0,20,0.0,975.9,8.15,26.3,78,37.0,23.8,0,5,10,0,2026-03-15T14:10:57.416606+05:30
Amravati,Maharashtra,20.9374,77.7796,36.4,22,0.0,968.1,8.1,27.4,86,32.7,21.7,0,5,10,0,2026-03-15T14:10:57.416612+05:30
Latur,Maharashtra,18.4088,76.5604,34.9,19,0.0,941.4,8.55,26.3,136,46.8,38.2,0,5,7,0,2026-03-15T14:10:57.416619+05:30
Nanded,Maharashtra,19.1383,77.3091,37.4,18,0.0,969.5,8.35,18.4,140,40.4,32.5,0,5,10,0,2026-03-15T14:10:57.416625+05:30
Gulbarga,Karnataka,17.3297,76.8343,34.8,31,0.0,959.9,8.65,20.9,103,45.4,36.2,0,5,7,0,2026-03-15T14:10:57.416631+05:30
Bidar,Karnataka,17.9104,77.5199,33.5,34,0.0,937.2,6.6,27.7,100,42.6,33.1,0,5,7,0,2026-03-15T14:10:57.416637+05:30
Hospet,Karnataka,15.2689,76.3909,33.7,37,0.0,957.3,8.9,32.0,115,41.2,33.1,0,5,7,1,2026-03-15T14:10:57.416643+05:30
Tirupur,Tamil Nadu,11.1085,77.3411,35.2,33,0.0,976.7,9.3,27.7,56,14.9,11.7,0,5,10,1,2026-03-15T14:10:57.416650+05:30
Alappuzha,Kerala,9.4981,76.3388,28.5,79,0.0,1009.8,9.1,28.1,70,18.0,17.2,7,0,4,1,2026-03-15T14:10:57.416656+05:30
Munnar,Kerala,10.0889,77.0595,29.0,44,0.0,860.0,9.55,34.6,56,10.1,7.7,4,5,7,0,2026-03-15T14:10:57.416662+05:30
Silchar,Assam,24.8333,92.7789,23.2,82,0.0,1008.9,7.65,44.3,109,18.3,15.1,3,0,4,1,2026-03-15T14:10:57.416669+05:30
Dibrugarh,Assam,27.4728,94.912,21.0,87,0.0,997.2,4.5,36.0,68,27.4,21.5,3,5,3,1,2026-03-15T14:10:57.416675+05:30
