city,state,latitude,longitude,temp,humidity,rain,pressure,uv_index,wind_gusts,aqi,pm10,pm2_5,no2,co,o3,so2,mosquito_risk,arthritis_risk,migraine_risk,frizz_risk,updated_at
Delhi,Delhi,28.6139,77.209,36.7,32,0.0,978.2,7.75,40.0,171,329.7,79.4,21.6,522.0,114.0,20.0,0,5,10,1,2026-06-08T09:47:20.199567+05:30
Mumbai,Maharashtra,19.076,72.8777,30.7,70,0.0,1008.1,7.4,40.3,83,60.8,23.3,8.9,230.0,71.0,11.9,3,0,4,1,2026-06-08T09:47:20.199616+05:30
Bangalore,Karnataka,12.9716,77.5946,25.0,76,0.0,913.7,5.7,46.4,20,6.9,5.3,7.5,360.0,60.0,4.0,7,5,3,1,2026-06-08T09:47:20.199632+05:30
Hyderabad,Telangana,17.385,78.4867,29.9,61,0.0,953.1,6.95,41.0,78,32.1,18.7,6.9,316.0,76.0,6.3,7,5,7,1,2026-06-08T09:47:20.199643+05:30
Chennai,Tamil Nadu,13.0827,80.2707,33.7,50,0.0,1007.2,8.85,44.3,53,8.1,7.5,8.9,298.0,75.0,12.8,0,5,4,1,2026-06-08T09:47:20.199651+05:30
Kolkata,West Bengal,22.5726,88.3639,32.7,71,0.0,1001.8,8.6,22.0,140,62.2,52.9,11.2,658.0,134.0,18.4,3,5,4,1,2026-06-08T09:47:20.199659+05:30
Pune,Maharashtra,18.5204,73.8567,29.4,59,0.0,948.4,8.3,42.5,71,64.0,22.6,4.3,151.0,70.0,6.6,4,5,7,1,2026-06-08T09:47:20.199665+05:30
Ahmedabad,Gujarat,23.0225,72.5714,34.2,52,0.0,1000.1,8.05,42.8,77,67.1,24.2,3.4,152.0,70.0,5.7,0,5,4,1,2026-06-08T09:47:20.199672+05:30
Jaipur,Rajasthan,26.9124,75.7873,35.5,43,0.0,956.6,8.2,40.7,129,327.8,68.9,2.9,180.0,83.0,4.7,0,5,10,1,2026-06-08T09:47:20.199683+05:30
Lucknow,Uttar Pradesh,26.8467,80.9462,38.0,31,0.0,988.0,8.3,35.3,152,128.5,42.6,5.3,317.0,123.0,6.7,0,5,10,1,2026-06-08T09:47:20.199691+05:30
Kanpur,Uttar Pradesh,26.4499,80.3319,38.3,30,0.0,986.6,8.35,36.7,171,314.8,53.7,3.9,210.0,120.0,5.5,0,5,10,1,2026-06-08T09:47:20.199698+05:30
Chandigarh,Chandigarh,30.7333,76.7794,34.0,35,0.0,964.3,7.8,30.6,86,27.8,21.7,7.7,667.0,182.0,11.4,0,5,7,1,2026-06-08T09:47:20.199705+05:30
Srinagar,Jammu and Kashmir,34.0837,74.7973,20.6,58,0.0,842.5,9.0,18.4,78,26.1,19.8,4.0,451.0,129.0,3.7,0,5,7,0,2026-06-08T09:47:20.199713+05:30
Jammu,Jammu and Kashmir,32.7266,74.857,35.6,23,0.0,968.1,8.6,36.0,72,24.2,18.0,10.0,275.0,134.0,3.8,0,5,10,0,2026-06-08T09:47:20.199720+05:30
Amritsar,Punjab,31.634,74.8723,35.7,29,0.0,975.9,8.45,26.6,132,33.1,27.2,8.0,431.0,151.0,9.4,0,5,10,0,2026-06-08T09:47:20.199727+05:30
Ludhiana,Punjab,30.901,75.8573,36.9,23,0.0,973.9,8.05,32.0,118,36.1,33.6,12.3,585.0,163.0,12.7,0,5,10,0,2026-06-08T09:47:20.199734+05:30
Jalandhar,Punjab,31.326,75.5762,36.5,25,0.0,974.8,8.25,32.0,102,30.2,24.4,10.2,518.0,163.0,6.3,0,5,10,0,2026-06-08T09:47:20.199744+05:30
Dehradun,Uttarakhand,30.6284,78.0322,24.7,42,0.0,830.7,8.25,36.0,64,24.4,15.5,0.5,228.0,154.0,2.6,0,5,7,0,2026-06-08T09:47:20.199751+05:30
Shimla,Himachal Pradesh,31.1048,77.1734,22.6,28,0.0,786.3,8.35,43.9,56,15.7,9.5,0.5,204.0,158.0,2.6,0,5,7,0,2026-06-08T09:47:20.199760+05:30
Manali,Himachal Pradesh,32.2396,77.1887,23.4,38,0.0,819.2,9.1,35.3,79,9.3,6.7,6.2,147.0,137.0,0.4,0,5,7,0,2026-06-08T09:47:20.199766+05:30
Gurgaon,Haryana,28.4595,77.0266,35.9,35,0.0,976.8,7.85,40.0,434,1788.1,240.3,15.0,371.0,98.0,14.0,0,5,10,1,2026-06-08T09:47:20.199773+05:30
Noida,Uttar Pradesh,28.5355,77.391,35.8,37,0.0,979.5,7.8,28.8,434,1788.1,240.3,15.0,538.0,98.0,14.0,0,5,10,1,2026-06-08T09:47:20.199780+05:30
Ghaziabad,Uttar Pradesh,28.6692,77.4538,35.4,38,0.0,977.9,7.75,35.3,163,191.4,75.2,19.3,523.0,155.0,25.6,0,5,10,1,2026-06-08T09:47:20.199786+05:30
Faridabad,Haryana,28.4089,77.3178,34.7,42,0.0,978.9,7.85,32.4,434,1788.1,240.3,15.0,389.0,98.0,14.0,0,5,7,1,2026-06-08T09:47:20.199793+05:30
Meerut,Uttar Pradesh,28.9845,77.7064,34.0,44,0.0,976.6,7.7,37.1,163,191.4,75.2,19.3,487.0,155.0,25.6,0,5,7,1,2026-06-08T09:47:20.199799+05:30
Agra,Uttar Pradesh,27.1767,78.0081,36.7,35,0.0,983.1,8.1,35.3,526,1739.7,204.0,6.7,195.0,89.0,6.7,0,5,10,1,2026-06-08T09:47:20.199805+05:30
Varanasi,Uttar Pradesh,25.3176,82.9739,38.4,30,0.0,992.2,8.8,36.7,145,105.9,40.6,8.3,322.0,111.0,10.2,0,5,10,1,2026-06-08T09:47:20.199812+05:30
Prayagraj,Uttar Pradesh,25.4358,81.8463,38.3,31,0.0,990.7,8.7,38.5,149,78.9,36.3,7.3,198.0,116.0,8.2,0,5,10,1,2026-06-08T09:47:20.199819+05:30
Gorakhpur,Uttar Pradesh,26.7606,83.3732,33.9,55,0.0,992.0,8.65,32.4,139,92.2,55.5,5.9,531.0,165.0,12.0,0,5,7,1,2026-06-08T09:47:20.199828+05:30
Bareilly,Uttar Pradesh,28.367,79.4304,34.8,47,0.0,981.6,8.1,29.9,151,155.1,58.8,5.7,407.0,159.0,14.0,0,5,7,1,2026-06-08T09:47:20.199834+05:30
Aligarh,Uttar Pradesh,27.8974,78.088,35.3,37,0.0,981.0,7.55,34.2,236,683.6,109.4,11.2,263.0,89.0,8.3,0,5,10,1,2026-06-08T09:47:20.199840+05:30
Moradabad,Uttar Pradesh,28.8386,78.7733,34.9,44,0.0,978.7,7.9,33.8,160,144.4,63.3,9.5,486.0,173.0,19.5,0,5,7,1,2026-06-08T09:47:20.199846+05:30
Saharanpur,Uttar Pradesh,29.9637,77.546,33.0,48,0.0,971.0,7.45,31.0,138,69.6,43.7,7.1,562.0,179.0,12.2,0,5,7,1,2026-06-08T09:47:20.199852+05:30
Jhansi,Uttar Pradesh,25.4484,78.5685,36.7,38,0.0,974.0,8.3,41.4,85,66.1,26.4,2.5,152.0,96.0,7.3,0,5,10,1,2026-06-08T09:47:23.429331+05:30
Surat,Gujarat,21.1702,72.8311,33.3,60,0.0,1005.4,7.35,52.9,87,66.4,26.8,14.0,339.0,52.0,37.6,0,5,4,1,2026-06-08T09:47:23.429366+05:30
Vadodara,Gujarat,22.3072,73.1812,33.8,55,0.0,1002.6,7.75,51.1,84,54.9,23.6,4.0,158.0,66.0,4.9,0,5,4,1,2026-06-08T09:47:23.429376+05:30
Rajkot,Gujarat,22.3039,70.8022,33.4,52,0.0,992.2,7.6,45.7,72,64.3,21.2,2.4,117.0,72.0,5.0,0,5,7,1,2026-06-08T09:47:23.429384+05:30
Thane,Maharashtra,19.2183,72.9781,31.4,66,0.1,1007.4,7.2,37.8,83,60.8,23.3,8.9,203.0,71.0,11.9,6,5,4,1,2026-06-08T09:47:23.429393+05:30
Nagpur,Maharashtra,21.1458,79.0882,36.6,37,0.0,970.8,8.9,37.8,90,58.4,33.2,9.0,217.0,105.0,21.3,0,5,10,1,2026-06-08T09:47:23.429400+05:30
Nashik,Maharashtra,19.9975,73.7898,30.3,56,0.0,945.6,8.0,45.7,74,65.9,23.1,3.0,131.0,66.0,3.9,0,5,7,1,2026-06-08T09:47:23.429407+05:30
Aurangabad,Maharashtra,19.8762,75.3433,31.3,52,0.0,944.0,3.2,46.1,75,62.6,23.9,2.7,136.0,73.0,5.2,0,5,3,1,2026-06-08T09:47:23.429414+05:30
Solapur,Maharashtra,17.6599,75.9064,28.9,69,0.0,957.6,8.95,33.1,60,52.4,22.6,2.4,125.0,69.0,2.7,7,5,7,1,2026-06-08T09:47:23.429422+05:30
Kolhapur,Maharashtra,16.705,74.2433,25.6,82,0.0,948.7,4.7,41.8,33,17.3,8.3,4.4,160.0,56.0,2.1,7,5,3,1,2026-06-08T09:47:23.429428+05:30
Goa,Goa,15.2993,74.124,26.4,92,0.0,999.9,2.05,19.1,37,12.5,7.2,2.6,166.0,59.0,0.9,7,5,3,1,2026-06-08T09:47:23.429436+05:30
Jodhpur,Rajasthan,26.2389,73.0243,34.1,54,0.0,979.6,8.4,40.0,139,271.0,67.8,1.7,124.0,73.0,3.4,0,5,7,1,2026-06-08T09:47:23.429443+05:30
Udaipur,Rajasthan,24.5854,73.7125,31.2,59,0.0,944.8,8.8,39.6,71,60.1,25.7,1.1,131.0,74.0,2.6,0,5,7,1,2026-06-08T09:47:23.429451+05:30
Kota,Rajasthan,25.2138,75.8648,35.4,49,0.0,975.3,8.4,37.8,94,49.9,28.0,3.5,160.0,88.0,8.9,0,5,10,1,2026-06-08T09:47:23.429458+05:30
Bikaner,Rajasthan,28.0229,73.3119,36.8,42,0.0,977.3,8.45,32.8,152,295.2,100.1,0.9,135.0,82.0,3.8,0,5,10,1,2026-06-08T09:47:23.429465+05:30
Ajmer,Rajasthan,26.4499,74.6399,32.5,56,0.0,951.8,8.35,44.6,84,98.3,40.5,1.9,142.0,80.0,4.1,0,5,7,1,2026-06-08T09:47:23.429472+05:30
Gwalior,Madhya Pradesh,26.2183,78.1828,36.8,38,0.0,978.9,8.25,49.7,93,47.6,22.5,2.3,157.0,90.0,4.6,0,5,10,1,2026-06-08T09:47:23.429479+05:30
Indore,Madhya Pradesh,22.7196,75.8577,31.2,57,0.0,947.3,8.65,45.7,91,51.5,29.1,4.3,183.0,72.0,10.4,0,5,7,1,2026-06-08T09:47:23.429486+05:30
Bhopal,Madhya Pradesh,23.2599,77.4126,33.4,50,0.0,951.9,8.7,37.4,92,53.3,28.7,1.9,234.0,102.0,8.4,0,5,7,1,2026-06-08T09:47:23.429494+05:30
Jabalpur,Madhya Pradesh,23.1815,79.9864,35.6,42,0.0,959.0,8.9,37.8,92,59.8,30.3,2.2,200.0,109.0,5.5,0,5,10,1,2026-06-08T09:47:23.429501+05:30
Ujjain,Madhya Pradesh,23.1765,75.7885,31.2,60,0.0,952.7,8.6,42.8,87,51.0,29.0,3.7,150.0,70.0,11.0,0,5,7,1,2026-06-08T09:47:23.429508+05:30
Visakhapatnam,Andhra Pradesh,17.6868,83.2185,34.9,52,0.0,1000.0,8.3,41.8,86,36.6,29.6,15.6,373.0,118.0,43.2,0,5,4,1,2026-06-08T09:47:23.429516+05:30
Vijayawada,Andhra Pradesh,16.5062,80.648,28.9,81,0.1,1001.6,8.2,51.1,76,28.7,21.9,5.7,179.0,93.0,10.5,10,5,4,1,2026-06-08T09:47:23.429523+05:30
Guntur,Andhra Pradesh,16.3067,80.4365,29.2,78,0.0,1003.1,7.1,44.6,76,29.2,21.1,5.3,187.0,93.0,9.9,7,5,4,1,2026-06-08T09:47:23.429530+05:30
Nellore,Andhra Pradesh,14.4426,79.9865,33.0,53,0.0,1005.6,7.8,44.6,47,4.8,3.9,3.9,147.0,77.0,4.6,0,5,4,1,2026-06-08T09:47:23.429538+05:30
Kurnool,Andhra Pradesh,15.8281,78.0373,29.5,60,0.0,977.6,8.7,41.4,58,18.3,9.5,5.0,143.0,65.0,6.2,4,5,7,1,2026-06-08T09:47:23.429546+05:30
Kakinada,Andhra Pradesh,16.9891,82.2475,29.1,80,0.1,1005.3,8.95,37.1,72,31.8,25.3,4.5,250.0,123.0,7.1,10,5,4,1,2026-06-08T09:47:23.429553+05:30
Tirupati,Andhra Pradesh,13.6288,79.4192,32.8,52,0.0,991.4,8.65,37.1,34,4.1,3.8,3.1,148.0,75.0,2.0,0,5,7,1,2026-06-08T09:47:23.429559+05:30
Warangal,Telangana,17.9689,79.5941,30.2,64,0.0,977.5,8.2,35.6,91,36.8,22.6,4.2,188.0,93.0,4.4,3,5,7,1,2026-06-08T09:47:23.429565+05:30
Nizamabad,Telangana,18.6725,78.0941,32.4,50,0.0,964.2,7.9,48.6,79,57.2,31.1,3.9,167.0,88.0,6.0,0,5,7,1,2026-06-08T09:47:23.429572+05:30
Mysore,Karnataka,12.2958,76.6396,25.2,76,0.0,930.8,6.95,52.9,19,3.8,2.8,3.6,139.0,60.0,1.7,7,5,7,1,2026-06-08T09:47:23.429578+05:30
Mangalore,Karnataka,12.9141,74.856,26.2,93,0.0,1009.8,5.7,33.5,31,12.0,6.4,2.9,186.0,61.0,1.5,7,0,0,1,2026-06-08T09:47:23.429585+05:30
Hubli-Dharwad,Karnataka,15.3647,75.124,26.4,71,0.0,942.4,5.15,42.1,20,3.2,2.2,3.3,123.0,55.0,1.1,7,5,3,1,2026-06-08T09:47:23.429591+05:30
Belgaum,Karnataka,15.8497,74.4977,25.7,73,0.0,927.2,2.55,36.7,17,4.2,3.5,6.1,120.0,51.0,2.5,7,5,3,1,2026-06-08T09:47:26.666829+05:30
Coimbatore,Tamil Nadu,11.0168,76.9558,24.6,84,0.0,963.9,6.8,51.1,20,3.1,2.7,3.7,172.0,54.0,2.3,3,5,7,1,2026-06-08T09:47:26.666863+05:30
Madurai,Tamil Nadu,9.9252,78.1198,26.9,91,0.2,994.8,8.7,66.2,18,5.5,5.1,5.0,133.0,58.0,3.3,10,5,7,1,2026-06-08T09:47:26.666874+05:30
Trichy,Tamil Nadu,10.7905,78.7047,32.1,56,0.0,1001.2,7.3,52.2,23,6.7,6.0,6.8,123.0,48.0,4.1,0,5,4,1,2026-06-08T09:47:26.666883+05:30
Salem,Tamil Nadu,11.6643,78.146,30.4,56,0.0,979.6,7.2,43.2,25,6.6,5.9,6.2,183.0,61.0,8.4,0,5,7,1,2026-06-08T09:47:26.666891+05:30
Tirunelveli,Tamil Nadu,8.7139,77.7567,31.2,59,0.0,1005.7,8.45,46.8,17,4.7,3.1,2.7,138.0,50.0,1.1,0,5,4,1,2026-06-08T09:47:26.666899+05:30
Vellore,Tamil Nadu,12.9165,79.1325,32.6,51,0.0,985.2,8.35,42.8,26,4.7,4.2,2.4,141.0,71.0,2.9,0,5,7,1,2026-06-08T09:47:26.666907+05:30
Erode,Tamil Nadu,11.341,77.7172,29.0,63,0.0,991.2,8.4,56.9,18,4.3,3.8,5.1,167.0,55.0,2.7,7,5,7,1,2026-06-08T09:47:26.666915+05:30
Kochi,Kerala,9.9312,76.2673,27.3,89,0.2,1012.6,4.8,40.3,28,11.7,7.2,6.1,139.0,46.0,2.4,10,0,0,1,2026-06-08T09:47:26.666923+05:30
Thiruvananthapuram,Kerala,8.5241,76.9366,26.9,87,0.0,1012.1,7.5,47.5,29,15.3,7.0,1.8,105.0,48.0,0.5,7,0,4,1,2026-06-08T09:47:26.666930+05:30
Kozhikode,Kerala,11.2588,75.7804,25.5,94,0.2,1012.0,4.45,35.3,28,10.0,4.8,0.8,163.0,63.0,0.5,10,0,0,1,2026-06-08T09:47:26.666937+05:30
Thrissur,Kerala,10.5276,76.2144,25.3,97,0.2,1011.1,3.1,32.0,28,8.6,6.0,4.1,164.0,50.0,1.9,10,0,0,1,2026-06-08T09:47:26.666974+05:30
Kannur,Kerala,11.8745,75.3704,26.6,88,0.0,1010.7,6.1,38.9,24,10.9,6.5,3.6,195.0,54.0,1.2,7,0,4,1,2026-06-08T09:47:26.666985+05:30
Patna,Bihar,25.5941,85.1376,34.8,54,0.0,995.3,8.55,26.3,165,109.7,75.4,8.3,484.0,195.0,17.0,0,5,7,1,2026-06-08T09:47:26.666995+05:30
Gaya,Bihar,24.7914,85.0002,36.4,39,0.0,989.0,8.0,31.3,156,84.8,47.3,4.5,344.0,161.0,8.9,0,5,10,1,2026-06-08T09:47:26.667003+05:30
Muzaffarpur,Bihar,26.1209,85.3647,33.0,63,0.0,995.7,8.9,24.1,166,122.0,85.4,7.3,570.0,202.0,20.1,3,5,7,1,2026-06-08T09:47:26.667010+05:30
Bhagalpur,Bihar,25.2425,87.0117,33.8,60,0.0,996.6,8.85,26.6,152,90.6,64.5,6.1,518.0,165.0,28.1,0,5,7,1,2026-06-08T09:47:26.667016+05:30
Ranchi,Jharkhand,23.3441,85.3096,32.6,44,0.0,935.7,8.8,31.0,143,82.0,38.4,2.7,262.0,155.0,19.1,0,5,7,1,2026-06-08T09:47:26.667024+05:30
Jamshedpur,Jharkhand,22.8046,86.2029,33.6,56,0.0,987.1,9.05,29.2,157,69.2,48.9,8.0,424.0,174.0,38.3,0,5,7,1,2026-06-08T09:47:26.667031+05:30
Dhanbad,Jharkhand,23.7957,86.4304,35.9,42,0.0,975.9,8.8,32.8,168,85.2,62.2,30.3,357.0,134.0,85.2,0,5,10,1,2026-06-08T09:47:26.667038+05:30
Bokaro,Jharkhand,23.6693,86.1511,35.9,40,0.0,979.7,8.85,33.8,165,78.2,51.7,18.5,385.0,147.0,56.5,0,5,10,1,2026-06-08T09:47:26.667045+05:30
Bhubaneswar,Odisha,20.2961,85.8245,34.9,64,0.0,998.7,8.35,57.6,94,39.2,30.5,4.1,350.0,137.0,12.2,3,5,7,1,2026-06-08T09:47:26.667052+05:30
Cuttack,Odisha,20.4625,85.8828,32.6,74,0.0,1000.6,8.55,55.8,94,39.2,30.5,4.1,358.0,137.0,12.2,3,5,4,1,2026-06-08T09:47:26.667059+05:30
Rourkela,Odisha,22.2604,84.8536,34.8,47,0.0,981.7,8.45,36.7,145,70.5,44.9,5.5,393.0,173.0,32.1,0,5,7,1,2026-06-08T09:47:26.667066+05:30
Raipur,Chhattisgarh,21.2514,81.6296,36.0,39,0.0,971.9,8.85,43.9,126,74.3,43.3,24.7,466.0,95.0,63.2,0,5,10,1,2026-06-08T09:47:26.667073+05:30
Bhilai,Chhattisgarh,21.1938,81.3509,34.7,44,0.0,972.5,7.4,45.0,118,62.6,37.5,18.8,778.0,101.0,50.5,0,5,7,1,2026-06-08T09:47:26.667080+05:30
Guwahati,Assam,26.1158,91.7086,27.6,83,0.0,998.2,8.0,25.9,108,13.1,11.5,2.6,366.0,110.0,2.7,7,5,7,1,2026-06-08T09:47:26.667087+05:30
Agartala,Tripura,23.8315,91.2868,29.6,75,0.1,1003.2,7.9,41.4,83,12.6,11.7,6.7,218.0,96.0,2.9,10,5,4,1,2026-06-08T09:47:26.667094+05:30
Shillong,Meghalaya,25.5788,91.8933,24.2,66,0.1,856.1,8.4,28.4,64,4.6,4.2,3.3,280.0,86.0,2.7,6,5,7,1,2026-06-08T09:47:26.667100+05:30
Imphal,Manipur,24.817,93.9368,27.6,68,0.0,921.1,8.05,35.6,61,12.9,10.2,1.1,191.0,105.0,1.5,7,5,7,1,2026-06-08T09:47:26.667107+05:30
Aizawl,Mizoram,23.7271,92.7176,24.8,70,0.0,891.5,8.5,36.7,48,7.1,6.2,1.8,162.0,91.0,1.0,3,5,7,1,2026-06-08T09:47:26.667114+05:30
Kohima,Nagaland,25.6701,94.1077,20.9,99,0.1,853.7,8.25,20.9,53,9.8,7.3,0.7,218.0,111.0,1.4,6,5,7,1,2026-06-08T09:47:26.667121+05:30
Gangtok,Sikkim,27.3314,88.6138,23.7,63,0.0,836.9,9.05,36.4,80,20.0,17.5,1.1,271.0,142.0,2.3,3,5,7,1,2026-06-08T09:47:26.667128+05:30
Siliguri,West Bengal,26.7271,88.3953,30.1,69,0.0,988.9,8.75,24.1,132,51.3,44.1,2.7,466.0,154.0,5.6,3,5,7,1,2026-06-08T09:47:29.901278+05:30
Durgapur,West Bengal,23.5204,87.3119,33.0,65,0.0,990.7,8.9,27.7,172,99.2,85.9,35.3,685.0,135.0,104.5,3,5,7,1,2026-06-08T09:47:29.901338+05:30
Asansol,West Bengal,23.6739,86.9524,34.7,53,0.0,989.2,9.0,28.1,166,89.4,73.1,32.8,935.0,127.0,91.7,0,5,7,1,2026-06-08T09:47:29.901350+05:30
Pondicherry,Puducherry,11.9139,79.8145,33.0,55,0.0,1009.1,7.6,45.7,41,8.5,7.1,6.8,185.0,58.0,11.5,0,0,4,1,2026-06-08T09:47:29.901360+05:30
Port Blair,Andaman and Nicobar Islands,11.6234,92.7265,30.3,76,0.1,1008.8,8.75,47.9,27,11.6,6.9,0.4,85.0,43.0,0.3,6,0,4,1,2026-06-08T09:47:29.901369+05:30
Haridwar,Uttarakhand,29.9457,78.1642,34.5,41,0.0,969.2,7.6,33.5,108,59.6,33.8,2.6,316.0,176.0,8.9,0,5,7,1,2026-06-08T09:47:29.901377+05:30
Rishikesh,Uttarakhand,30.0869,78.2676,33.8,39,0.0,962.3,7.7,19.4,89,36.0,23.1,1.0,275.0,170.0,6.9,0,5,7,1,2026-06-08T09:47:29.901384+05:30
Nainital,Uttarakhand,29.3919,79.4542,23.5,36,0.0,806.6,8.55,41.4,89,69.2,28.3,0.3,214.0,169.0,9.1,0,5,7,0,2026-06-08T09:47:29.901392+05:30
Mussoorie,Uttarakhand,30.4599,78.0664,23.0,38,0.0,803.9,8.1,41.4,94,30.3,21.1,2.0,213.0,175.0,6.2,0,5,7,0,2026-06-08T09:47:29.901400+05:30
Dharamshala,Himachal Pradesh,32.219,76.3234,26.8,35,0.0,868.2,8.5,42.8,48,13.9,9.9,0.3,219.0,152.0,1.3,4,5,7,0,2026-06-08T09:47:29.901408+05:30
Dalhousie,Himachal Pradesh,32.5387,75.971,23.5,34,0.0,805.7,8.75,37.4,68,19.7,14.1,1.5,234.0,167.0,2.5,0,5,7,0,2026-06-08T09:47:29.901416+05:30
Patiala,Punjab,30.3398,76.3869,35.9,32,0.0,973.4,7.7,35.3,151,183.5,56.5,7.1,463.0,164.0,13.2,0,5,10,1,2026-06-08T09:47:29.901423+05:30
Bhatinda,Punjab,30.211,74.9455,37.8,25,0.0,978.8,8.3,27.0,106,46.1,35.0,10.9,440.0,143.0,13.0,0,5,10,0,2026-06-08T09:47:29.901431+05:30
Rohtak,Haryana,28.8955,76.6066,35.4,38,0.0,976.9,7.8,32.8,178,538.3,92.2,10.3,340.0,95.0,5.8,0,5,10,1,2026-06-08T09:47:29.901437+05:30
Panipat,Haryana,29.3909,76.9635,34.8,42,0.0,975.4,7.65,28.8,308,476.8,97.6,16.6,431.0,112.0,13.6,0,5,7,1,2026-06-08T09:47:29.901445+05:30
Mathura,Uttar Pradesh,27.4924,77.6737,35.4,38,0.0,982.2,8.05,28.8,329,1117.6,135.5,8.7,216.0,77.0,5.7,0,5,10,1,2026-06-08T09:47:29.901452+05:30
Vrindavan,Uttar Pradesh,27.5823,77.7027,35.6,37,0.0,982.5,8.0,28.8,329,1117.6,135.5,8.7,212.0,77.0,5.7,0,5,10,1,2026-06-08T09:47:29.901459+05:30
Ayodhya,Uttar Pradesh,26.7922,82.1998,34.7,53,0.0,990.0,8.45,28.8,151,179.7,70.5,10.1,373.0,146.0,11.6,0,5,7,1,2026-06-08T09:47:29.901465+05:30
Ratlam,Madhya Pradesh,23.3315,75.0367,31.7,60,0.0,953.7,8.5,44.3,84,53.2,29.2,3.7,133.0,71.0,10.5,0,5,7,1,2026-06-08T09:47:29.901472+05:30
Sagar,Madhya Pradesh,23.8388,78.7378,35.3,41,0.0,948.1,8.75,40.7,88,68.5,28.3,2.0,154.0,106.0,8.1,0,5,10,1,2026-06-08T09:47:29.901478+05:30
Satna,Madhya Pradesh,24.6005,80.8322,36.9,33,0.0,967.7,8.85,49.7,97,60.1,24.8,2.7,182.0,114.0,5.4,0,5,10,1,2026-06-08T09:47:29.901486+05:30
Akola,Maharashtra,20.7002,77.0082,34.6,46,0.0,973.9,8.85,43.2,86,63.6,30.4,3.7,138.0,81.0,9.1,0,5,7,1,2026-06-08T09:47:29.901493+05:30
Amravati,Maharashtra,20.9374,77.7796,34.5,45,0.0,965.8,8.45,41.4,89,66.1,32.6,4.1,132.0,89.0,11.3,0,5,7,1,2026-06-08T09:47:29.901501+05:30
Latur,Maharashtra,18.4088,76.5604,25.5,91,0.1,939.7,3.65,46.4,73,61.2,27.5,2.5,135.0,73.0,5.2,10,5,3,1,2026-06-08T09:47:29.901508+05:30
Nanded,Maharashtra,19.1383,77.3091,32.3,51,0.0,967.9,8.95,52.2,83,67.5,29.2,2.2,156.0,84.0,3.8,0,5,7,1,2026-06-08T09:47:29.901515+05:30
Gulbarga,Karnataka,17.3297,76.8343,30.2,63,0.0,959.1,8.2,40.0,59,35.4,16.2,4.6,142.0,59.0,3.2,3,5,7,1,2026-06-08T09:47:29.901521+05:30
Bidar,Karnataka,17.9104,77.5199,28.1,68,0.0,935.5,6.95,39.2,74,49.6,27.0,4.5,159.0,77.0,5.6,7,5,7,1,2026-06-08T09:47:29.901527+05:30
Hospet,Karnataka,15.2689,76.3909,27.5,68,0.0,957.4,6.5,52.6,25,8.4,4.9,3.9,126.0,60.0,1.9,7,5,7,1,2026-06-08T09:47:29.901534+05:30
Tirupur,Tamil Nadu,11.1085,77.3411,25.9,78,0.0,977.2,7.8,59.0,18,5.3,4.6,5.2,147.0,58.0,3.5,7,5,7,1,2026-06-08T09:47:29.901541+05:30
Alappuzha,Kerala,9.4981,76.3388,26.5,91,0.1,1012.7,7.85,43.6,28,13.2,7.0,2.9,88.0,53.0,1.2,10,0,4,1,2026-06-08T09:47:29.901548+05:30
Munnar,Kerala,10.0889,77.0595,18.2,99,0.5,859.4,3.2,42.8,15,2.6,2.3,4.5,107.0,46.0,1.3,6,10,3,1,2026-06-08T09:47:29.901555+05:30
Silchar,Assam,24.8333,92.7789,29.0,79,0.0,1002.3,8.8,33.1,75,18.0,15.3,1.6,210.0,100.0,3.1,7,5,4,1,2026-06-08T09:47:29.901561+05:30
Dibrugarh,Assam,27.4728,94.912,25.7,96,0.1,992.0,8.15,24.1,83,22.9,20.0,1.7,277.0,132.0,2.4,10,5,7,1,2026-06-08T09:47:29.901568+05:30
