city,state,latitude,longitude,temp,humidity,rain,pressure,uv_index,wind_gusts,aqi,pm10,pm2_5,mosquito_risk,arthritis_risk,migraine_risk,frizz_risk,updated_at
Delhi,Delhi,28.6139,77.209,23.7,47,0.0,983.9,7.25,28.8,454,719.0,122.0,0,5,7,0,2026-04-13T01:11:28.727624+05:30
Mumbai,Maharashtra,19.076,72.8777,29.2,81,0.0,1007.5,8.0,20.9,122,73.8,37.5,7,5,4,1,2026-04-13T01:11:28.727672+05:30
Bangalore,Karnataka,12.9716,77.5946,25.4,61,0.0,912.0,9.6,27.7,90,31.1,27.3,7,5,7,1,2026-04-13T01:11:28.727688+05:30
Hyderabad,Telangana,17.385,78.4867,29.2,54,0.0,952.6,9.25,34.2,82,25.3,22.2,4,5,7,1,2026-04-13T01:11:28.727699+05:30
Chennai,Tamil Nadu,13.0827,80.2707,27.7,84,0.0,1007.4,9.35,35.3,41,11.7,7.5,7,5,4,1,2026-04-13T01:11:28.727709+05:30
Kolkata,West Bengal,22.5726,88.3639,26.5,93,0.0,1004.8,8.85,30.6,101,24.6,19.4,7,5,4,1,2026-04-13T01:11:28.727718+05:30
Pune,Maharashtra,18.5204,73.8567,27.9,51,0.0,948.3,8.6,38.5,152,46.9,40.0,4,5,7,1,2026-04-13T01:11:28.727729+05:30
Ahmedabad,Gujarat,23.0225,72.5714,28.6,25,0.0,1001.3,8.1,24.5,99,57.9,27.1,4,5,4,0,2026-04-13T01:11:28.727737+05:30
Jaipur,Rajasthan,26.9124,75.7873,25.5,31,0.0,960.3,7.9,24.5,147,103.4,34.8,4,5,7,0,2026-04-13T01:11:28.727745+05:30
Lucknow,Uttar Pradesh,26.8467,80.9462,24.0,52,0.0,993.3,7.75,37.1,144,342.7,68.2,0,5,7,0,2026-04-13T01:11:28.727753+05:30
Kanpur,Uttar Pradesh,26.4499,80.3319,23.5,66,0.0,991.8,7.75,27.0,335,726.4,107.8,3,5,7,1,2026-04-13T01:11:28.727760+05:30
Chandigarh,Chandigarh,30.7333,76.7794,19.8,66,0.0,969.7,7.2,30.2,74,32.4,20.7,3,5,7,0,2026-04-13T01:11:28.727767+05:30
Srinagar,Jammu and Kashmir,34.0837,74.7973,8.7,82,0.0,840.2,8.1,16.2,78,54.2,48.4,3,10,7,0,2026-04-13T01:11:28.727775+05:30
Jammu,Jammu and Kashmir,32.7266,74.857,18.6,79,0.0,973.9,7.75,31.7,65,27.2,21.0,3,5,7,0,2026-04-13T01:11:28.727782+05:30
Amritsar,Punjab,31.634,74.8723,20.8,62,0.0,982.0,7.8,23.8,77,53.9,32.1,3,5,7,0,2026-04-13T01:11:28.727788+05:30
Ludhiana,Punjab,30.901,75.8573,21.4,56,0.0,980.1,7.45,26.6,72,36.0,28.5,0,5,7,0,2026-04-13T01:11:28.727795+05:30
Jalandhar,Punjab,31.326,75.5762,20.1,64,0.0,981.3,7.6,23.8,76,54.9,42.1,3,5,7,0,2026-04-13T01:11:28.727804+05:30
Dehradun,Uttarakhand,30.6284,78.0322,12.6,74,0.0,828.7,7.25,31.0,90,37.7,21.2,3,5,7,0,2026-04-13T01:11:28.727810+05:30
Shimla,Himachal Pradesh,31.1048,77.1734,10.8,75,0.0,782.9,7.7,40.3,87,46.6,18.7,3,5,7,0,2026-04-13T01:11:28.727817+05:30
Manali,Himachal Pradesh,32.2396,77.1887,12.2,68,0.0,818.2,9.65,27.4,115,25.2,16.7,3,5,7,0,2026-04-13T01:11:28.727824+05:30
Gurgaon,Haryana,28.4595,77.0266,21.1,59,0.0,982.3,7.35,22.7,1157,1106.4,158.8,0,5,7,0,2026-04-13T01:11:28.727831+05:30
Noida,Uttar Pradesh,28.5355,77.391,23.3,49,0.0,985.6,7.3,29.2,1157,1106.4,158.8,0,5,7,0,2026-04-13T01:11:28.727838+05:30
Ghaziabad,Uttar Pradesh,28.6692,77.4538,21.7,55,0.0,983.6,7.25,29.2,244,577.4,98.7,0,5,7,0,2026-04-13T01:11:28.727846+05:30
Faridabad,Haryana,28.4089,77.3178,22.3,52,0.0,984.6,7.3,27.0,1157,1106.4,158.8,0,5,7,0,2026-04-13T01:11:28.727853+05:30
Meerut,Uttar Pradesh,28.9845,77.7064,20.4,59,0.0,982.1,7.15,33.8,244,577.4,98.7,0,5,7,0,2026-04-13T01:11:28.727859+05:30
Agra,Uttar Pradesh,27.1767,78.0081,22.5,50,0.0,988.4,7.65,19.1,784,1359.7,165.3,0,5,7,0,2026-04-13T01:11:28.727866+05:30
Varanasi,Uttar Pradesh,25.3176,82.9739,24.6,50,0.0,996.3,8.35,39.2,109,88.9,35.4,0,5,7,0,2026-04-13T01:11:28.727875+05:30
Prayagraj,Uttar Pradesh,25.4358,81.8463,25.0,53,0.0,995.4,8.25,35.3,138,134.6,38.2,4,5,7,0,2026-04-13T01:11:28.727881+05:30
Gorakhpur,Uttar Pradesh,26.7606,83.3732,24.2,45,0.0,995.6,8.15,26.6,97,88.7,33.4,0,5,7,0,2026-04-13T01:11:28.727887+05:30
Bareilly,Uttar Pradesh,28.367,79.4304,21.2,64,0.0,987.2,7.55,38.2,79,144.8,39.6,3,5,7,0,2026-04-13T01:11:28.727894+05:30
Aligarh,Uttar Pradesh,27.8974,78.088,20.8,56,0.0,986.2,7.45,31.0,651,940.6,148.5,0,5,7,0,2026-04-13T01:11:28.727902+05:30
Moradabad,Uttar Pradesh,28.8386,78.7733,20.7,64,0.0,984.1,7.35,36.7,95,190.5,50.3,3,5,7,0,2026-04-13T01:11:28.727908+05:30
Saharanpur,Uttar Pradesh,29.9637,77.546,18.9,71,0.0,976.2,6.8,31.0,89,35.3,23.4,3,5,7,0,2026-04-13T01:11:28.727914+05:30
Jhansi,Uttar Pradesh,25.4484,78.5685,24.9,49,0.0,978.2,8.15,23.0,76,134.1,33.8,0,5,7,0,2026-04-13T01:11:31.949446+05:30
Surat,Gujarat,21.1702,72.8311,28.2,79,0.0,1005.9,7.8,26.3,144,51.7,32.2,7,5,4,1,2026-04-13T01:11:31.949501+05:30
Vadodara,Gujarat,22.3072,73.1812,27.9,69,0.0,1003.6,8.1,22.0,128,105.7,72.4,7,5,4,1,2026-04-13T01:11:31.949512+05:30
Rajkot,Gujarat,22.3039,70.8022,26.7,63,0.0,994.5,7.8,35.6,77,54.0,27.2,7,5,7,1,2026-04-13T01:11:31.949519+05:30
Thane,Maharashtra,19.2183,72.9781,27.6,88,0.0,1007.0,8.0,34.6,122,73.8,37.5,7,5,4,1,2026-04-13T01:11:31.949527+05:30
Nagpur,Maharashtra,21.1458,79.0882,24.9,68,0.0,971.4,8.85,25.2,98,47.6,39.2,3,5,7,1,2026-04-13T01:11:31.949535+05:30
Nashik,Maharashtra,19.9975,73.7898,26.1,51,0.0,945.3,8.25,32.0,107,61.2,43.0,4,5,7,0,2026-04-13T01:11:31.949542+05:30
Aurangabad,Maharashtra,19.8762,75.3433,28.6,39,0.0,943.9,8.95,28.8,79,44.5,31.0,4,5,7,0,2026-04-13T01:11:31.949549+05:30
Solapur,Maharashtra,17.6599,75.9064,31.3,47,0.0,956.1,9.05,27.7,96,39.7,33.4,0,5,7,1,2026-04-13T01:11:31.949556+05:30
Kolhapur,Maharashtra,16.705,74.2433,23.7,82,0.0,947.6,9.05,46.1,91,37.3,30.3,3,5,7,1,2026-04-13T01:11:31.949563+05:30
Goa,Goa,15.2993,74.124,28.4,81,0.0,998.3,9.0,28.4,96,53.6,38.1,7,5,7,1,2026-04-13T01:11:31.949570+05:30
Jodhpur,Rajasthan,26.2389,73.0243,26.8,39,0.0,983.4,8.15,24.1,74,65.0,30.3,4,5,7,0,2026-04-13T01:11:31.949577+05:30
Udaipur,Rajasthan,24.5854,73.7125,23.0,40,0.0,947.1,8.7,24.8,64,39.0,15.0,0,5,7,0,2026-04-13T01:11:31.949584+05:30
Kota,Rajasthan,25.2138,75.8648,25.3,48,0.0,979.0,8.15,14.0,83,71.5,24.5,4,5,7,0,2026-04-13T01:11:31.949591+05:30
Bikaner,Rajasthan,28.0229,73.3119,27.3,33,0.0,982.0,7.95,20.9,61,27.8,13.2,4,5,7,0,2026-04-13T01:11:31.949598+05:30
Ajmer,Rajasthan,26.4499,74.6399,25.3,31,0.0,955.1,8.1,29.5,78,59.5,25.4,4,5,7,0,2026-04-13T01:11:31.949604+05:30
Gwalior,Madhya Pradesh,26.2183,78.1828,25.5,53,0.0,983.8,7.9,31.0,134,508.5,74.7,4,5,7,0,2026-04-13T01:11:31.949610+05:30
Indore,Madhya Pradesh,22.7196,75.8577,24.9,52,0.0,947.7,8.55,28.1,74,63.6,39.0,0,5,7,0,2026-04-13T01:11:31.949617+05:30
Bhopal,Madhya Pradesh,23.2599,77.4126,25.7,48,0.0,953.6,8.55,22.7,63,61.2,27.1,4,5,7,0,2026-04-13T01:11:31.949623+05:30
Jabalpur,Madhya Pradesh,23.1815,79.9864,26.6,48,0.0,960.2,8.65,24.8,70,39.7,31.2,4,5,7,0,2026-04-13T01:11:31.949629+05:30
Ujjain,Madhya Pradesh,23.1765,75.7885,25.6,47,0.0,953.5,8.45,26.3,70,78.2,38.4,4,5,7,0,2026-04-13T01:11:31.949636+05:30
Visakhapatnam,Andhra Pradesh,17.6868,83.2185,27.7,84,0.0,1003.7,9.15,45.0,74,23.5,15.5,7,5,4,1,2026-04-13T01:11:31.949643+05:30
Vijayawada,Andhra Pradesh,16.5062,80.648,26.8,87,0.0,1002.6,9.2,29.5,56,18.3,12.4,7,5,4,1,2026-04-13T01:11:31.949649+05:30
Guntur,Andhra Pradesh,16.3067,80.4365,26.9,88,0.0,1003.7,9.2,31.3,55,19.1,12.7,7,5,4,1,2026-04-13T01:11:31.949656+05:30
Nellore,Andhra Pradesh,14.4426,79.9865,26.7,87,0.0,1005.5,9.3,36.7,56,14.6,9.9,7,5,4,1,2026-04-13T01:11:31.949663+05:30
Kurnool,Andhra Pradesh,15.8281,78.0373,31.8,47,0.0,975.6,9.2,29.5,73,23.6,20.5,0,5,7,1,2026-04-13T01:11:31.949671+05:30
Kakinada,Andhra Pradesh,16.9891,82.2475,27.5,85,0.0,1007.7,9.2,31.3,52,21.4,11.4,7,5,4,1,2026-04-13T01:11:31.949678+05:30
Tirupati,Andhra Pradesh,13.6288,79.4192,25.8,72,0.0,992.1,9.4,31.3,68,25.0,20.7,7,5,7,1,2026-04-13T01:11:31.949685+05:30
Warangal,Telangana,17.9689,79.5941,28.7,65,0.0,977.8,9.1,31.0,85,23.9,20.5,7,5,7,1,2026-04-13T01:11:31.949692+05:30
Nizamabad,Telangana,18.6725,78.0941,28.0,51,0.0,963.1,9.05,36.7,126,47.0,40.6,4,5,7,1,2026-04-13T01:11:31.949698+05:30
Mysore,Karnataka,12.2958,76.6396,24.7,84,0.0,928.8,9.5,45.0,99,39.5,33.9,3,5,7,1,2026-04-13T01:11:31.949704+05:30
Mangalore,Karnataka,12.9141,74.856,30.0,79,0.0,1006.6,9.15,25.6,96,53.2,29.6,7,5,4,1,2026-04-13T01:11:31.949711+05:30
Hubli-Dharwad,Karnataka,15.3647,75.124,24.2,91,0.0,940.8,9.25,36.0,91,31.1,24.7,3,5,7,1,2026-04-13T01:11:31.949717+05:30
Belgaum,Karnataka,15.8497,74.4977,23.2,91,0.0,926.3,9.3,37.8,94,43.3,35.9,3,5,7,1,2026-04-13T01:11:35.171162+05:30
Coimbatore,Tamil Nadu,11.0168,76.9558,25.5,87,0.0,962.0,9.45,39.2,92,45.4,36.9,7,5,7,1,2026-04-13T01:11:35.171195+05:30
Madurai,Tamil Nadu,9.9252,78.1198,27.5,87,0.0,993.7,9.35,42.8,85,27.8,24.9,7,5,7,1,2026-04-13T01:11:35.171205+05:30
Trichy,Tamil Nadu,10.7905,78.7047,26.1,88,0.0,1000.1,9.35,24.5,62,13.3,12.1,7,5,4,1,2026-04-13T01:11:35.171213+05:30
Salem,Tamil Nadu,11.6643,78.146,27.4,74,0.0,977.3,9.45,16.2,77,28.2,24.1,7,5,7,1,2026-04-13T01:11:35.171220+05:30
Tirunelveli,Tamil Nadu,8.7139,77.7567,26.9,87,0.0,1003.6,8.75,44.6,83,35.4,28.1,7,5,4,1,2026-04-13T01:11:35.171228+05:30
Vellore,Tamil Nadu,12.9165,79.1325,25.3,67,0.0,984.9,9.45,29.5,87,39.6,35.5,7,5,7,1,2026-04-13T01:11:35.171235+05:30
Erode,Tamil Nadu,11.341,77.7172,28.5,72,0.0,989.3,9.4,22.0,66,15.5,13.0,7,5,7,1,2026-04-13T01:11:35.171242+05:30
Kochi,Kerala,9.9312,76.2673,27.9,85,0.0,1008.8,9.15,28.8,98,47.6,39.6,7,0,4,1,2026-04-13T01:11:35.171250+05:30
Thiruvananthapuram,Kerala,8.5241,76.9366,28.6,82,0.0,1008.1,9.15,27.0,81,39.7,23.1,7,0,4,1,2026-04-13T01:11:35.171257+05:30
Kozhikode,Kerala,11.2588,75.7804,30.0,80,0.0,1007.7,9.15,26.3,92,65.2,33.4,7,5,4,1,2026-04-13T01:11:35.171264+05:30
Thrissur,Kerala,10.5276,76.2144,28.4,87,0.0,1007.1,9.15,33.8,95,54.5,41.6,7,5,4,1,2026-04-13T01:11:35.171271+05:30
Kannur,Kerala,11.8745,75.3704,29.3,82,0.0,1007.2,9.15,33.1,113,83.1,56.7,7,5,4,1,2026-04-13T01:11:35.171278+05:30
Patna,Bihar,25.5941,85.1376,25.8,61,0.0,998.3,8.5,33.1,107,72.2,36.7,7,5,7,1,2026-04-13T01:11:35.171285+05:30
Gaya,Bihar,24.7914,85.0002,26.8,45,0.0,991.7,8.6,27.4,98,73.6,36.2,4,5,7,0,2026-04-13T01:11:35.171291+05:30
Muzaffarpur,Bihar,26.1209,85.3647,24.0,69,0.0,998.6,8.5,24.5,136,65.2,40.0,3,5,7,1,2026-04-13T01:11:35.171298+05:30
Bhagalpur,Bihar,25.2425,87.0117,24.2,73,0.0,999.1,8.5,15.5,135,90.3,44.8,3,5,7,1,2026-04-13T01:11:35.171304+05:30
Ranchi,Jharkhand,23.3441,85.3096,25.2,45,0.0,936.6,9.1,25.9,100,37.3,25.0,4,5,7,0,2026-04-13T01:11:35.171311+05:30
Jamshedpur,Jharkhand,22.8046,86.2029,25.8,67,0.0,989.2,8.95,18.4,91,47.6,28.5,7,5,7,1,2026-04-13T01:11:35.171318+05:30
Dhanbad,Jharkhand,23.7957,86.4304,27.8,40,0.0,978.0,8.9,22.3,126,105.7,84.1,4,5,7,0,2026-04-13T01:11:35.171324+05:30
Bokaro,Jharkhand,23.6693,86.1511,25.3,52,0.0,982.3,8.9,25.6,113,90.3,71.2,4,5,7,0,2026-04-13T01:11:35.171331+05:30
Bhubaneswar,Odisha,20.2961,85.8245,27.0,89,0.0,1002.2,9.1,38.9,80,20.0,15.1,7,5,4,1,2026-04-13T01:11:35.171337+05:30
Cuttack,Odisha,20.4625,85.8828,26.9,91,0.0,1003.9,9.1,33.8,80,20.0,15.1,7,5,4,1,2026-04-13T01:11:35.171343+05:30
Rourkela,Odisha,22.2604,84.8536,26.3,56,0.0,983.1,8.85,26.6,129,56.3,30.9,4,5,7,1,2026-04-13T01:11:35.171349+05:30
Raipur,Chhattisgarh,21.2514,81.6296,28.1,38,0.0,972.5,8.9,34.2,126,52.6,46.8,4,5,7,0,2026-04-13T01:11:35.171355+05:30
Bhilai,Chhattisgarh,21.1938,81.3509,27.4,40,0.0,972.9,8.9,33.1,126,42.5,38.1,4,5,7,0,2026-04-13T01:11:35.171362+05:30
Guwahati,Assam,26.1158,91.7086,22.2,93,0.0,1001.7,8.4,43.9,124,58.7,42.4,3,5,4,1,2026-04-13T01:11:35.171369+05:30
Agartala,Tripura,23.8315,91.2868,24.6,95,0.0,1005.1,8.65,34.9,99,27.0,22.5,3,5,4,1,2026-04-13T01:11:35.171375+05:30
Shillong,Meghalaya,25.5788,91.8933,15.1,68,0.0,855.0,8.2,72.4,112,67.1,40.2,3,5,7,0,2026-04-13T01:11:35.171381+05:30
Imphal,Manipur,24.817,93.9368,17.2,90,0.0,922.5,8.4,79.6,112,80.3,52.0,3,10,7,0,2026-04-13T01:11:35.171389+05:30
Aizawl,Mizoram,23.7271,92.7176,19.0,74,0.0,892.2,8.9,48.2,95,70.8,34.8,3,5,7,0,2026-04-13T01:11:35.171395+05:30
Kohima,Nagaland,25.6701,94.1077,14.9,83,0.0,853.8,8.95,117.4,97,41.4,21.2,3,10,7,0,2026-04-13T01:11:35.171401+05:30
Gangtok,Sikkim,27.3314,88.6138,12.8,86,0.0,834.8,8.55,14.0,102,85.9,37.5,3,10,7,0,2026-04-13T01:11:35.171408+05:30
Siliguri,West Bengal,26.7271,88.3953,20.1,67,0.0,992.9,8.4,24.5,131,136.0,57.0,3,5,7,0,2026-04-13T01:11:38.399956+05:30
Durgapur,West Bengal,23.5204,87.3119,25.2,73,0.0,993.1,8.85,19.4,119,40.2,30.7,7,5,7,1,2026-04-13T01:11:38.399991+05:30
Asansol,West Bengal,23.6739,86.9524,27.4,53,0.0,991.6,8.85,16.9,103,42.3,30.3,4,5,7,1,2026-04-13T01:11:38.400001+05:30
Pondicherry,Puducherry,11.9139,79.8145,25.7,94,0.0,1008.8,9.3,29.9,34,9.3,5.8,7,0,4,1,2026-04-13T01:11:38.400009+05:30
Port Blair,Andaman and Nicobar Islands,11.6234,92.7265,28.7,81,0.0,1006.4,9.2,19.1,57,30.0,15.9,7,5,4,1,2026-04-13T01:11:38.400017+05:30
Haridwar,Uttarakhand,29.9457,78.1642,17.9,80,0.0,974.7,6.95,32.8,80,35.6,30.4,3,5,7,0,2026-04-13T01:11:38.400025+05:30
Rishikesh,Uttarakhand,30.0869,78.2676,18.2,69,0.0,967.4,7.15,34.6,109,47.5,26.0,3,5,7,0,2026-04-13T01:11:38.400032+05:30
Nainital,Uttarakhand,29.3919,79.4542,16.7,44,0.0,805.0,8.0,41.8,98,44.6,20.9,0,5,7,0,2026-04-13T01:11:38.400040+05:30
Mussoorie,Uttarakhand,30.4599,78.0664,14.1,60,0.0,801.3,7.45,34.9,94,50.1,35.6,0,5,7,0,2026-04-13T01:11:38.400047+05:30
Dharamshala,Himachal Pradesh,32.219,76.3234,17.5,51,0.0,869.1,7.75,24.1,79,16.9,8.6,0,5,7,0,2026-04-13T01:11:38.400053+05:30
Dalhousie,Himachal Pradesh,32.5387,75.971,13.7,52,0.0,802.7,7.45,21.2,60,38.2,25.6,0,5,7,0,2026-04-13T01:11:38.400060+05:30
Patiala,Punjab,30.3398,76.3869,19.7,63,0.0,979.4,7.1,28.1,392,408.9,58.8,3,5,7,0,2026-04-13T01:11:38.400067+05:30
Bhatinda,Punjab,30.211,74.9455,21.9,51,0.0,984.7,7.8,24.5,80,45.5,23.3,0,5,7,0,2026-04-13T01:11:38.400074+05:30
Rohtak,Haryana,28.8955,76.6066,20.9,57,0.0,982.5,7.3,29.5,704,929.5,141.1,0,5,7,0,2026-04-13T01:11:38.400081+05:30
Panipat,Haryana,29.3909,76.9635,20.2,59,0.0,981.0,7.1,32.0,1051,979.8,136.0,0,5,7,0,2026-04-13T01:11:38.400088+05:30
Mathura,Uttar Pradesh,27.4924,77.6737,22.2,49,0.0,987.7,7.6,22.3,832,871.7,129.5,0,5,7,0,2026-04-13T01:11:38.400094+05:30
Vrindavan,Uttar Pradesh,27.5823,77.7027,20.7,57,0.0,988.0,7.55,24.5,832,871.7,129.5,0,5,7,0,2026-04-13T01:11:38.400100+05:30
Ayodhya,Uttar Pradesh,26.7922,82.1998,24.2,47,0.0,994.3,7.95,35.6,111,181.1,44.4,0,5,7,0,2026-04-13T01:11:38.400106+05:30
Ratlam,Madhya Pradesh,23.3315,75.0367,26.2,54,0.0,954.1,8.4,24.1,59,62.6,30.7,4,5,7,1,2026-04-13T01:11:38.400113+05:30
Sagar,Madhya Pradesh,23.8388,78.7378,25.3,44,0.0,950.1,8.55,23.0,59,80.6,28.3,4,5,7,0,2026-04-13T01:11:38.400119+05:30
Satna,Madhya Pradesh,24.6005,80.8322,25.9,47,0.0,971.2,8.55,25.9,74,141.6,32.8,4,5,7,0,2026-04-13T01:11:38.400125+05:30
Akola,Maharashtra,20.7002,77.0082,27.1,55,0.0,973.7,8.8,22.0,78,39.7,27.4,4,5,7,1,2026-04-13T01:11:38.400132+05:30
Amravati,Maharashtra,20.9374,77.7796,27.0,48,0.0,965.8,8.8,23.8,78,39.6,27.6,4,5,7,0,2026-04-13T01:11:38.400138+05:30
Latur,Maharashtra,18.4088,76.5604,27.7,54,0.0,938.4,9.05,19.8,85,39.7,29.8,4,5,7,1,2026-04-13T01:11:38.400145+05:30
Nanded,Maharashtra,19.1383,77.3091,29.0,52,0.0,966.5,8.95,16.6,104,66.6,53.6,4,5,7,1,2026-04-13T01:11:38.400151+05:30
Gulbarga,Karnataka,17.3297,76.8343,31.2,49,0.0,957.9,9.1,29.9,102,32.7,26.5,0,5,7,1,2026-04-13T01:11:38.400156+05:30
Bidar,Karnataka,17.9104,77.5199,30.2,56,0.0,934.7,9.1,24.1,87,37.0,31.1,0,5,7,1,2026-04-13T01:11:38.400163+05:30
Hospet,Karnataka,15.2689,76.3909,28.6,75,0.0,955.4,9.3,26.6,101,48.2,41.2,7,5,7,1,2026-04-13T01:11:38.400169+05:30
Tirupur,Tamil Nadu,11.1085,77.3411,27.7,77,0.0,975.6,9.45,24.5,83,32.8,27.7,7,5,7,1,2026-04-13T01:11:38.400175+05:30
Alappuzha,Kerala,9.4981,76.3388,27.7,86,0.0,1009.1,9.15,25.9,95,43.0,26.8,7,0,4,1,2026-04-13T01:11:38.400182+05:30
Munnar,Kerala,10.0889,77.0595,21.9,90,0.0,857.2,9.7,32.8,87,41.1,35.9,3,5,7,1,2026-04-13T01:11:38.400188+05:30
Silchar,Assam,24.8333,92.7789,23.0,89,0.0,1004.6,8.7,42.8,149,75.4,57.0,3,5,4,1,2026-04-13T01:11:38.400194+05:30
Dibrugarh,Assam,27.4728,94.912,21.5,77,0.0,996.3,5.6,22.3,88,25.9,21.1,3,5,3,1,2026-04-13T01:11:38.400200+05:30
