city,state,latitude,longitude,temp,humidity,rain,pressure,uv_index,wind_gusts,aqi,pm10,pm2_5,no2,co,o3,so2,mosquito_risk,arthritis_risk,migraine_risk,frizz_risk,updated_at
Delhi,Delhi,28.6139,77.209,31.7,38,0.0,974.3,7.8,41.4,478,705.9,157.4,79.1,641.0,7.0,28.2,0,5,7,0,2026-06-09T04:11:21.994812+05:30
Mumbai,Maharashtra,19.076,72.8777,27.2,93,0.1,1006.0,7.7,40.7,83,66.8,22.4,5.9,134.0,51.0,5.7,10,5,4,1,2026-06-09T04:11:21.994852+05:30
Bangalore,Karnataka,12.9716,77.5946,21.1,94,0.0,910.8,5.5,51.5,20,2.7,2.5,6.8,156.0,39.0,3.6,3,5,3,1,2026-06-09T04:11:21.994868+05:30
Hyderabad,Telangana,17.385,78.4867,24.1,86,0.2,950.5,8.5,44.3,65,13.6,11.8,12.9,175.0,44.0,7.4,6,5,7,1,2026-06-09T04:11:21.994878+05:30
Chennai,Tamil Nadu,13.0827,80.2707,31.6,52,0.0,1004.3,7.35,50.8,52,9.8,8.1,13.1,177.0,44.0,8.4,0,5,4,1,2026-06-09T04:11:21.994886+05:30
Kolkata,West Bengal,22.5726,88.3639,28.9,97,0.0,998.7,9.0,49.0,128,49.5,41.9,13.8,501.0,79.0,8.9,7,5,7,1,2026-06-09T04:11:21.994894+05:30
Pune,Maharashtra,18.5204,73.8567,24.4,87,0.0,945.7,7.7,46.1,54,24.2,10.9,6.9,123.0,46.0,6.5,3,5,7,1,2026-06-09T04:11:21.994901+05:30
Ahmedabad,Gujarat,23.0225,72.5714,30.8,67,0.0,997.7,8.1,44.3,81,62.4,30.3,3.7,121.0,56.0,3.8,3,5,7,1,2026-06-09T04:11:21.994908+05:30
Jaipur,Rajasthan,26.9124,75.7873,31.0,54,0.0,953.4,8.25,43.2,131,273.8,56.2,4.1,169.0,71.0,3.8,0,5,7,1,2026-06-09T04:11:21.994919+05:30
Lucknow,Uttar Pradesh,26.8467,80.9462,30.9,35,0.0,985.5,8.3,37.1,156,244.9,76.4,29.1,318.0,45.0,10.4,0,5,7,0,2026-06-09T04:11:21.994926+05:30
Kanpur,Uttar Pradesh,26.4499,80.3319,31.3,40,0.0,984.0,8.3,54.0,235,285.9,70.1,29.2,203.0,34.0,7.4,0,5,7,1,2026-06-09T04:11:21.994932+05:30
Chandigarh,Chandigarh,30.7333,76.7794,24.2,56,0.0,959.3,7.85,33.1,77,32.8,31.3,43.7,457.0,11.0,4.6,0,5,7,0,2026-06-09T04:11:21.994942+05:30
Srinagar,Jammu and Kashmir,34.0837,74.7973,13.4,92,0.0,835.6,9.0,37.1,78,38.4,35.6,28.1,309.0,13.0,1.2,3,10,7,0,2026-06-09T04:11:21.994949+05:30
Jammu,Jammu and Kashmir,32.7266,74.857,25.2,49,0.0,963.2,8.6,33.8,72,32.0,30.4,39.8,378.0,4.0,2.1,4,5,7,0,2026-06-09T04:11:21.994956+05:30
Amritsar,Punjab,31.634,74.8723,28.7,45,0.0,971.8,8.45,28.1,117,84.5,74.3,68.1,640.0,12.0,11.7,4,5,7,0,2026-06-09T04:11:21.994962+05:30
Ludhiana,Punjab,30.901,75.8573,28.8,48,0.0,969.8,8.0,42.5,110,66.8,58.1,47.0,574.0,22.0,9.0,4,5,7,1,2026-06-09T04:11:21.994969+05:30
Jalandhar,Punjab,31.326,75.5762,28.5,44,0.0,970.6,8.2,30.2,100,64.0,58.0,57.1,510.0,25.0,8.8,4,5,7,0,2026-06-09T04:11:21.994975+05:30
Dehradun,Uttarakhand,30.6284,78.0322,14.6,88,0.0,823.8,8.25,42.8,56,22.7,19.4,24.5,244.0,24.0,0.3,3,10,7,0,2026-06-09T04:11:21.994982+05:30
Shimla,Himachal Pradesh,31.1048,77.1734,13.1,54,0.0,778.0,8.35,51.8,57,29.7,24.7,23.4,202.0,59.0,1.4,0,5,7,0,2026-06-09T04:11:21.994992+05:30
Manali,Himachal Pradesh,32.2396,77.1887,11.2,57,0.0,811.0,9.6,34.6,49,9.7,7.5,41.8,217.0,72.0,0.0,0,5,7,0,2026-06-09T04:11:21.994998+05:30
Gurgaon,Haryana,28.4595,77.0266,29.5,41,0.0,972.9,7.85,45.4,961,440.5,108.5,66.4,683.0,7.0,19.6,4,5,7,0,2026-06-09T04:11:21.995005+05:30
Noida,Uttar Pradesh,28.5355,77.391,31.1,45,0.0,975.6,7.85,34.6,961,440.5,108.5,66.4,777.0,7.0,19.6,0,5,7,1,2026-06-09T04:11:21.995012+05:30
Ghaziabad,Uttar Pradesh,28.6692,77.4538,29.5,54,0.0,973.8,7.85,35.6,325,722.7,162.5,78.3,1132.0,7.0,27.1,4,5,7,1,2026-06-09T04:11:21.995018+05:30
Faridabad,Haryana,28.4089,77.3178,31.2,38,0.0,974.8,7.9,43.6,961,440.5,108.5,66.4,677.0,7.0,19.6,0,5,7,0,2026-06-09T04:11:21.995024+05:30
Meerut,Uttar Pradesh,28.9845,77.7064,28.2,59,0.0,972.6,7.75,32.0,325,722.7,162.5,78.3,703.0,7.0,27.1,4,5,7,1,2026-06-09T04:11:21.995030+05:30
Agra,Uttar Pradesh,27.1767,78.0081,30.4,38,0.0,979.8,8.15,49.0,684,56.6,38.9,39.4,339.0,17.0,7.6,0,5,7,0,2026-06-09T04:11:21.995036+05:30
Varanasi,Uttar Pradesh,25.3176,82.9739,31.2,50,0.0,989.6,8.75,40.3,138,56.0,36.6,19.4,278.0,49.0,9.3,0,5,7,1,2026-06-09T04:11:21.995043+05:30
Prayagraj,Uttar Pradesh,25.4358,81.8463,30.6,52,0.0,988.3,8.65,46.4,142,48.2,34.1,21.4,172.0,40.0,7.5,0,5,7,1,2026-06-09T04:11:21.995049+05:30
Gorakhpur,Uttar Pradesh,26.7606,83.3732,26.7,73,0.0,989.3,8.7,21.6,143,106.9,80.8,53.5,712.0,10.0,13.5,7,5,7,1,2026-06-09T04:11:21.995057+05:30
Bareilly,Uttar Pradesh,28.367,79.4304,27.1,62,0.0,978.3,8.15,24.8,153,193.7,99.2,81.7,498.0,2.0,17.7,7,5,7,1,2026-06-09T04:11:21.995063+05:30
Aligarh,Uttar Pradesh,27.8974,78.088,28.2,47,0.0,976.8,8.0,45.7,594,399.5,114.1,63.5,444.0,1.0,10.7,4,5,7,0,2026-06-09T04:11:21.995070+05:30
Moradabad,Uttar Pradesh,28.8386,78.7733,28.9,55,0.0,975.3,7.95,34.2,163,194.6,126.7,94.6,700.0,0.0,22.3,4,5,7,1,2026-06-09T04:11:21.995076+05:30
Saharanpur,Uttar Pradesh,29.9637,77.546,25.6,53,0.0,966.9,7.45,31.7,118,79.6,57.6,45.7,485.0,39.0,12.3,4,5,7,0,2026-06-09T04:11:21.995082+05:30
Jhansi,Uttar Pradesh,25.4484,78.5685,30.0,46,0.0,971.0,8.5,42.5,79,34.6,20.2,9.3,169.0,56.0,4.3,4,5,7,1,2026-06-09T04:11:25.356579+05:30
Surat,Gujarat,21.1702,72.8311,29.7,78,0.0,1003.0,7.6,52.9,80,50.5,25.1,17.1,289.0,39.0,29.7,7,5,4,1,2026-06-09T04:11:25.356609+05:30
Vadodara,Gujarat,22.3072,73.1812,30.3,69,0.0,1000.3,8.05,47.5,79,43.2,24.5,7.6,122.0,44.0,6.5,3,5,4,1,2026-06-09T04:11:25.356619+05:30
Rajkot,Gujarat,22.3039,70.8022,28.8,77,0.0,990.3,7.6,50.0,79,68.7,28.2,3.9,100.0,57.0,4.5,7,5,7,1,2026-06-09T04:11:25.356628+05:30
Thane,Maharashtra,19.2183,72.9781,26.8,92,0.1,1005.4,7.6,40.3,83,66.8,22.4,5.9,135.0,51.0,5.7,10,5,4,1,2026-06-09T04:11:25.356636+05:30
Nagpur,Maharashtra,21.1458,79.0882,31.6,53,0.0,968.5,8.9,35.3,86,56.8,34.3,16.0,195.0,54.0,9.5,0,5,7,1,2026-06-09T04:11:25.356643+05:30
Nashik,Maharashtra,19.9975,73.7898,24.6,88,0.0,942.8,8.05,48.6,69,59.0,24.2,7.8,148.0,43.0,6.7,3,5,7,1,2026-06-09T04:11:25.356650+05:30
Aurangabad,Maharashtra,19.8762,75.3433,25.7,77,0.0,941.4,8.95,47.9,72,50.8,23.6,8.4,137.0,45.0,7.8,7,5,7,1,2026-06-09T04:11:25.356657+05:30
Solapur,Maharashtra,17.6599,75.9064,26.9,73,0.0,955.1,8.0,52.6,63,13.3,8.9,8.0,118.0,41.0,2.6,7,5,7,1,2026-06-09T04:11:25.356664+05:30
Kolhapur,Maharashtra,16.705,74.2433,23.2,91,0.0,946.4,4.55,42.8,28,4.6,3.8,4.3,120.0,50.0,1.6,3,5,3,1,2026-06-09T04:11:25.356671+05:30
Goa,Goa,15.2993,74.124,24.6,98,0.1,997.4,0.95,33.1,28,15.0,7.7,2.4,293.0,52.0,0.6,6,5,3,1,2026-06-09T04:11:25.356678+05:30
Jodhpur,Rajasthan,26.2389,73.0243,31.7,56,0.0,976.7,8.45,45.7,150,299.0,74.0,2.5,130.0,67.0,2.3,0,5,7,1,2026-06-09T04:11:25.356684+05:30
Udaipur,Rajasthan,24.5854,73.7125,27.0,62,0.0,942.2,8.85,42.1,76,42.7,26.7,6.4,146.0,57.0,6.1,7,5,7,1,2026-06-09T04:11:25.356691+05:30
Kota,Rajasthan,25.2138,75.8648,31.2,57,0.0,972.7,8.4,41.4,81,34.3,22.2,4.5,167.0,86.0,9.1,0,5,7,1,2026-06-09T04:11:25.356698+05:30
Bikaner,Rajasthan,28.0229,73.3119,33.7,44,0.0,973.8,8.45,40.0,145,129.9,53.9,2.2,121.0,67.0,4.5,0,5,7,1,2026-06-09T04:11:25.356705+05:30
Ajmer,Rajasthan,26.4499,74.6399,29.8,58,0.0,948.8,8.4,51.8,88,50.8,24.4,3.5,138.0,71.0,3.0,4,5,7,1,2026-06-09T04:11:25.356711+05:30
Gwalior,Madhya Pradesh,26.2183,78.1828,32.1,33,0.0,975.8,8.3,50.4,93,41.6,19.0,8.3,153.0,59.0,2.9,0,5,7,0,2026-06-09T04:11:25.356719+05:30
Indore,Madhya Pradesh,22.7196,75.8577,26.7,73,0.0,944.6,8.65,48.2,86,45.4,27.0,6.1,147.0,69.0,11.9,7,5,7,1,2026-06-09T04:11:25.356725+05:30
Bhopal,Madhya Pradesh,23.2599,77.4126,29.3,57,0.0,948.8,8.7,41.4,87,34.8,24.4,5.3,276.0,76.0,6.0,4,5,7,1,2026-06-09T04:11:25.356732+05:30
Jabalpur,Madhya Pradesh,23.1815,79.9864,28.2,64,0.0,956.4,8.9,34.2,80,30.2,19.6,9.1,185.0,71.0,2.9,7,5,7,1,2026-06-09T04:11:25.356739+05:30
Ujjain,Madhya Pradesh,23.1765,75.7885,26.9,75,0.0,950.1,8.6,45.7,84,45.8,25.7,6.0,166.0,61.0,11.9,7,5,7,1,2026-06-09T04:11:25.356746+05:30
Visakhapatnam,Andhra Pradesh,17.6868,83.2185,29.5,70,0.0,997.6,8.4,39.6,83,22.6,19.4,19.8,376.0,65.0,32.1,7,5,7,1,2026-06-09T04:11:25.356753+05:30
Vijayawada,Andhra Pradesh,16.5062,80.648,30.8,54,0.0,998.3,7.7,41.0,72,20.1,17.1,8.5,193.0,67.0,6.2,0,5,7,1,2026-06-09T04:11:25.356760+05:30
Guntur,Andhra Pradesh,16.3067,80.4365,30.2,58,0.0,999.7,4.6,40.3,66,15.7,13.5,8.9,193.0,60.0,6.9,0,5,3,1,2026-06-09T04:11:25.356767+05:30
Nellore,Andhra Pradesh,14.4426,79.9865,29.7,64,0.0,1003.0,6.55,48.6,39,6.0,4.7,7.7,148.0,48.0,6.3,7,5,4,1,2026-06-09T04:11:25.356775+05:30
Kurnool,Andhra Pradesh,15.8281,78.0373,25.9,83,0.0,975.1,6.6,45.7,47,6.4,5.4,11.5,150.0,34.0,5.3,7,5,7,1,2026-06-09T04:11:25.356783+05:30
Kakinada,Andhra Pradesh,16.9891,82.2475,30.0,66,0.0,1002.4,5.3,47.5,67,21.4,17.5,8.0,307.0,76.0,4.9,7,5,0,1,2026-06-09T04:11:25.356790+05:30
Tirupati,Andhra Pradesh,13.6288,79.4192,28.4,63,0.0,989.0,7.9,45.7,25,8.2,7.0,11.4,130.0,35.0,2.4,7,5,7,1,2026-06-09T04:11:25.356797+05:30
Warangal,Telangana,17.9689,79.5941,26.4,81,0.2,974.8,9.0,39.2,77,28.7,21.1,9.6,185.0,67.0,5.9,10,5,7,1,2026-06-09T04:11:25.356803+05:30
Nizamabad,Telangana,18.6725,78.0941,28.4,62,0.0,961.2,9.0,49.7,83,34.8,23.6,8.4,211.0,66.0,4.1,7,5,7,1,2026-06-09T04:11:25.356810+05:30
Mysore,Karnataka,12.2958,76.6396,21.8,91,0.0,928.1,7.5,55.4,19,1.8,1.8,4.3,119.0,41.0,1.5,3,5,7,1,2026-06-09T04:11:25.356817+05:30
Mangalore,Karnataka,12.9141,74.856,24.1,97,0.4,1007.4,4.15,41.8,35,9.4,4.9,1.6,131.0,54.0,0.8,6,5,0,1,2026-06-09T04:11:25.356824+05:30
Hubli-Dharwad,Karnataka,15.3647,75.124,22.0,98,0.3,939.6,2.6,42.5,21,1.8,1.3,2.8,126.0,51.0,0.6,6,5,3,1,2026-06-09T04:11:25.356831+05:30
Belgaum,Karnataka,15.8497,74.4977,21.3,98,0.0,924.1,2.6,38.9,22,2.3,2.1,3.8,109.0,52.0,0.9,3,5,3,1,2026-06-09T04:11:28.707958+05:30
Coimbatore,Tamil Nadu,11.0168,76.9558,23.6,87,0.0,961.5,5.7,50.4,16,1.6,1.4,3.7,122.0,38.0,1.7,3,5,3,1,2026-06-09T04:11:28.707988+05:30
Madurai,Tamil Nadu,9.9252,78.1198,29.3,62,0.0,992.3,7.6,69.8,28,6.5,5.7,9.9,122.0,22.0,3.7,7,5,7,1,2026-06-09T04:11:28.708000+05:30
Trichy,Tamil Nadu,10.7905,78.7047,28.5,67,0.0,999.1,3.5,68.8,21,4.3,4.0,9.2,117.0,26.0,3.6,7,5,3,1,2026-06-09T04:11:28.708009+05:30
Salem,Tamil Nadu,11.6643,78.146,26.1,76,0.0,977.1,5.65,39.2,26,6.9,6.6,14.7,163.0,23.0,7.3,7,5,3,1,2026-06-09T04:11:28.708017+05:30
Tirunelveli,Tamil Nadu,8.7139,77.7567,27.4,77,0.0,1003.5,6.35,51.5,16,3.6,2.7,5.1,147.0,28.0,1.3,7,5,4,1,2026-06-09T04:11:28.708025+05:30
Vellore,Tamil Nadu,12.9165,79.1325,28.2,64,0.0,982.8,6.85,59.0,26,4.0,3.5,6.8,119.0,38.0,3.3,7,5,7,1,2026-06-09T04:11:28.708034+05:30
Erode,Tamil Nadu,11.341,77.7172,25.9,76,0.0,988.8,6.3,58.3,17,3.0,2.8,6.6,118.0,35.0,2.7,7,5,7,1,2026-06-09T04:11:28.708041+05:30
Kochi,Kerala,9.9312,76.2673,25.7,93,0.1,1010.4,6.9,47.9,34,12.1,8.0,7.9,83.0,25.0,2.1,10,0,4,1,2026-06-09T04:11:28.708049+05:30
Thiruvananthapuram,Kerala,8.5241,76.9366,25.3,93,0.1,1009.7,7.6,57.6,33,15.2,7.8,1.4,79.0,37.0,0.4,10,0,4,1,2026-06-09T04:11:28.708056+05:30
Kozhikode,Kerala,11.2588,75.7804,24.3,96,0.5,1009.6,7.65,34.9,25,11.4,5.5,0.6,98.0,59.0,0.3,6,0,4,1,2026-06-09T04:11:28.708063+05:30
Thrissur,Kerala,10.5276,76.2144,23.7,98,0.5,1009.1,7.7,41.0,32,12.5,8.0,6.3,111.0,32.0,1.9,6,0,4,1,2026-06-09T04:11:28.708072+05:30
Kannur,Kerala,11.8745,75.3704,25.0,95,0.2,1008.3,7.65,37.1,23,7.8,4.3,1.8,97.0,53.0,0.6,10,0,4,1,2026-06-09T04:11:28.708079+05:30
Patna,Bihar,25.5941,85.1376,28.8,73,0.0,992.6,8.85,24.5,170,182.5,136.0,69.8,608.0,10.0,24.4,7,5,7,1,2026-06-09T04:11:28.708087+05:30
Gaya,Bihar,24.7914,85.0002,28.6,63,0.0,986.1,5.75,31.7,154,118.0,74.0,37.5,346.0,28.0,9.3,7,5,3,1,2026-06-09T04:11:28.708094+05:30
Muzaffarpur,Bihar,26.1209,85.3647,27.9,77,0.0,993.2,8.85,29.5,175,133.6,112.0,32.5,574.0,51.0,18.4,7,5,7,1,2026-06-09T04:11:28.708102+05:30
Bhagalpur,Bihar,25.2425,87.0117,28.6,69,0.0,993.9,8.85,32.0,154,61.9,56.2,15.5,652.0,90.0,23.1,7,5,7,1,2026-06-09T04:11:28.708109+05:30
Ranchi,Jharkhand,23.3441,85.3096,25.8,64,0.0,931.9,8.05,32.0,127,69.4,52.5,10.8,316.0,110.0,16.4,7,5,7,1,2026-06-09T04:11:28.708116+05:30
Jamshedpur,Jharkhand,22.8046,86.2029,27.6,77,0.0,984.2,8.5,26.6,149,87.8,62.6,21.8,408.0,74.0,26.8,7,5,7,1,2026-06-09T04:11:28.708123+05:30
Dhanbad,Jharkhand,23.7957,86.4304,28.6,64,0.0,972.6,8.5,31.0,161,119.7,93.8,57.0,292.0,39.0,151.1,7,5,7,1,2026-06-09T04:11:28.708130+05:30
Bokaro,Jharkhand,23.6693,86.1511,29.2,61,0.0,976.3,9.05,31.7,162,173.7,122.0,75.0,275.0,13.0,125.7,7,5,7,1,2026-06-09T04:11:28.708137+05:30
Bhubaneswar,Odisha,20.2961,85.8245,28.7,95,0.0,995.9,8.75,31.7,103,49.0,42.1,12.0,395.0,78.0,8.1,7,5,7,1,2026-06-09T04:11:28.708145+05:30
Cuttack,Odisha,20.4625,85.8828,28.3,96,0.0,997.8,8.9,30.6,103,49.0,42.1,12.0,415.0,78.0,8.1,7,5,7,1,2026-06-09T04:11:28.708152+05:30
Rourkela,Odisha,22.2604,84.8536,27.6,74,0.0,978.9,8.75,33.1,139,55.1,43.0,6.1,423.0,98.0,5.4,7,5,7,1,2026-06-09T04:11:28.708160+05:30
Raipur,Chhattisgarh,21.2514,81.6296,29.8,58,0.0,969.9,8.8,36.7,117,55.3,42.8,32.9,444.0,52.0,45.0,4,5,7,1,2026-06-09T04:11:28.708167+05:30
Bhilai,Chhattisgarh,21.1938,81.3509,28.3,66,0.0,970.5,8.3,37.8,106,46.0,36.8,29.0,574.0,53.0,37.3,7,5,7,1,2026-06-09T04:11:28.708174+05:30
Guwahati,Assam,26.1158,91.7086,24.4,99,0.0,996.3,8.85,28.1,81,40.2,34.9,7.0,349.0,74.0,3.6,3,5,7,1,2026-06-09T04:11:28.708181+05:30
Agartala,Tripura,23.8315,91.2868,25.6,88,0.0,1000.9,8.85,35.3,69,22.1,20.1,13.0,233.0,56.0,3.8,7,5,4,1,2026-06-09T04:11:28.708188+05:30
Shillong,Meghalaya,25.5788,91.8933,17.8,96,0.0,852.4,6.5,29.5,52,13.1,11.1,3.7,265.0,81.0,2.5,3,10,7,1,2026-06-09T04:11:28.708195+05:30
Imphal,Manipur,24.817,93.9368,22.4,94,0.1,918.9,8.8,34.2,63,17.4,15.8,5.9,484.0,62.0,2.2,6,5,7,1,2026-06-09T04:11:28.708202+05:30
Aizawl,Mizoram,23.7271,92.7176,19.3,96,0.0,888.2,8.5,32.0,33,10.2,8.4,3.4,168.0,47.0,0.6,3,10,7,1,2026-06-09T04:11:28.708210+05:30
Kohima,Nagaland,25.6701,94.1077,18.5,94,0.0,850.9,8.5,28.1,36,12.2,9.7,4.0,214.0,64.0,1.1,3,10,7,1,2026-06-09T04:11:28.708217+05:30
Gangtok,Sikkim,27.3314,88.6138,16.7,90,0.1,832.4,8.95,37.4,76,30.6,25.7,6.7,561.0,120.0,2.4,6,10,7,0,2026-06-09T04:11:28.708224+05:30
Siliguri,West Bengal,26.7271,88.3953,22.8,99,0.3,987.8,8.8,25.2,121,50.2,35.7,9.2,408.0,116.0,3.0,6,5,7,1,2026-06-09T04:11:32.082541+05:30
Durgapur,West Bengal,23.5204,87.3119,27.9,86,0.0,987.7,8.9,28.8,161,91.5,79.9,31.4,979.0,43.0,34.4,7,5,7,1,2026-06-09T04:11:32.082578+05:30
Asansol,West Bengal,23.6739,86.9524,28.4,72,0.0,986.2,7.55,29.2,156,86.6,69.4,31.3,783.0,56.0,38.7,7,5,7,1,2026-06-09T04:11:32.082589+05:30
Pondicherry,Puducherry,11.9139,79.8145,29.3,66,0.0,1006.6,7.55,40.0,42,6.3,5.5,11.1,144.0,31.0,8.9,7,5,4,1,2026-06-09T04:11:32.082598+05:30
Port Blair,Andaman and Nicobar Islands,11.6234,92.7265,25.5,96,0.1,1006.0,8.25,50.0,25,7.0,4.0,0.2,82.0,50.0,0.2,10,5,4,1,2026-06-09T04:11:32.082607+05:30
Haridwar,Uttarakhand,29.9457,78.1642,24.0,73,0.0,965.3,7.65,25.9,95,41.3,39.5,33.9,344.0,37.0,8.1,3,5,7,1,2026-06-09T04:11:32.082615+05:30
Rishikesh,Uttarakhand,30.0869,78.2676,22.0,80,0.0,958.2,7.75,27.7,93,31.3,26.6,19.9,312.0,81.0,6.8,3,5,7,1,2026-06-09T04:11:32.082622+05:30
Nainital,Uttarakhand,29.3919,79.4542,16.0,63,0.0,800.7,8.6,46.8,83,25.8,22.1,25.7,299.0,42.0,3.0,3,5,7,0,2026-06-09T04:11:32.082630+05:30
Mussoorie,Uttarakhand,30.4599,78.0664,16.4,59,0.0,798.0,8.15,51.8,79,32.1,28.9,33.4,208.0,42.0,6.0,0,5,7,0,2026-06-09T04:11:32.082638+05:30
Dharamshala,Himachal Pradesh,32.219,76.3234,22.9,41,0.0,863.5,8.5,48.6,50,15.0,13.0,14.5,189.0,31.0,0.0,0,5,7,0,2026-06-09T04:11:32.082646+05:30
Dalhousie,Himachal Pradesh,32.5387,75.971,11.7,76,0.0,796.1,8.75,39.6,66,28.0,26.3,32.4,284.0,19.0,1.1,3,5,7,0,2026-06-09T04:11:32.082654+05:30
Patiala,Punjab,30.3398,76.3869,28.7,49,0.0,969.2,7.65,38.9,228,341.8,95.0,29.5,587.0,49.0,9.7,4,5,7,1,2026-06-09T04:11:32.082662+05:30
Bhatinda,Punjab,30.211,74.9455,30.6,43,0.0,974.7,8.35,24.5,95,61.5,43.8,36.1,535.0,52.0,9.4,0,5,7,1,2026-06-09T04:11:32.082669+05:30
Rohtak,Haryana,28.8955,76.6066,27.9,57,0.0,973.0,7.8,32.0,632,514.1,122.5,68.1,545.0,4.0,9.1,4,5,7,1,2026-06-09T04:11:32.082676+05:30
Panipat,Haryana,29.3909,76.9635,27.3,55,0.0,971.4,7.6,34.2,1108,521.5,132.7,50.5,472.0,31.0,8.6,4,5,7,1,2026-06-09T04:11:32.082684+05:30
Mathura,Uttar Pradesh,27.4924,77.6737,28.8,45,0.0,978.4,8.1,43.9,493,76.6,43.2,51.7,562.0,4.0,5.2,4,5,7,0,2026-06-09T04:11:32.082691+05:30
Vrindavan,Uttar Pradesh,27.5823,77.7027,28.6,45,0.0,978.7,8.1,43.6,493,76.6,43.2,51.7,522.0,4.0,5.2,4,5,7,0,2026-06-09T04:11:32.082698+05:30
Ayodhya,Uttar Pradesh,26.7922,82.1998,26.4,62,0.0,987.6,8.45,15.5,151,143.9,63.6,36.1,399.0,28.0,9.4,7,5,7,1,2026-06-09T04:11:32.082705+05:30
Ratlam,Madhya Pradesh,23.3315,75.0367,26.7,79,0.0,951.0,8.55,43.6,83,43.9,22.7,6.8,137.0,48.0,11.6,7,5,7,1,2026-06-09T04:11:32.082713+05:30
Sagar,Madhya Pradesh,23.8388,78.7378,28.8,55,0.0,945.0,7.1,40.3,79,39.1,24.1,7.6,165.0,69.0,4.8,4,5,7,1,2026-06-09T04:11:32.082720+05:30
Satna,Madhya Pradesh,24.6005,80.8322,30.2,51,0.0,965.0,8.8,44.6,83,38.0,22.3,11.0,167.0,59.0,4.7,0,5,7,1,2026-06-09T04:11:32.082727+05:30
Akola,Maharashtra,20.7002,77.0082,30.1,53,0.0,971.4,8.55,44.6,83,51.5,27.1,6.8,150.0,62.0,8.4,0,5,7,1,2026-06-09T04:11:32.082735+05:30
Amravati,Maharashtra,20.9374,77.7796,30.7,49,0.0,963.3,8.85,43.2,86,47.7,26.4,7.2,176.0,70.0,9.0,0,5,7,1,2026-06-09T04:11:32.082744+05:30
Latur,Maharashtra,18.4088,76.5604,26.5,71,0.0,937.3,2.55,47.5,76,35.3,21.1,7.5,147.0,52.0,4.8,7,5,3,1,2026-06-09T04:11:32.082751+05:30
Nanded,Maharashtra,19.1383,77.3091,30.0,51,0.0,965.2,8.9,47.5,84,46.6,30.3,6.3,148.0,81.0,7.5,4,5,7,1,2026-06-09T04:11:32.082759+05:30
Gulbarga,Karnataka,17.3297,76.8343,24.9,91,0.1,956.2,7.4,49.0,60,13.6,9.6,10.6,128.0,44.0,3.3,6,5,7,1,2026-06-09T04:11:32.082767+05:30
Bidar,Karnataka,17.9104,77.5199,25.7,77,0.0,932.8,8.95,60.1,73,21.7,16.8,11.1,169.0,52.0,3.7,7,5,7,1,2026-06-09T04:11:32.082774+05:30
Hospet,Karnataka,15.2689,76.3909,23.3,93,0.0,954.7,2.0,45.4,20,2.2,2.1,4.6,142.0,46.0,1.0,3,5,3,1,2026-06-09T04:11:32.082782+05:30
Tirupur,Tamil Nadu,11.1085,77.3411,24.7,82,0.0,975.0,4.55,60.1,18,3.8,3.4,8.1,119.0,32.0,3.3,3,5,3,1,2026-06-09T04:11:32.082789+05:30
Alappuzha,Kerala,9.4981,76.3388,26.0,93,0.1,1010.5,6.75,48.2,32,14.1,7.0,4.0,79.0,35.0,1.0,10,0,4,1,2026-06-09T04:11:32.082796+05:30
Munnar,Kerala,10.0889,77.0595,17.0,100,0.3,856.6,8.05,57.6,13,0.9,0.8,2.9,88.0,32.0,1.0,6,10,7,1,2026-06-09T04:11:32.082804+05:30
Silchar,Assam,24.8333,92.7789,24.9,99,0.0,1000.9,9.0,25.2,69,25.4,22.2,8.2,263.0,75.0,4.0,3,5,4,1,2026-06-09T04:11:32.082812+05:30
Dibrugarh,Assam,27.4728,94.912,24.3,96,0.1,990.2,8.95,24.1,91,26.5,24.3,11.3,261.0,75.0,1.6,6,5,7,1,2026-06-09T04:11:32.082819+05:30
