city,state,latitude,longitude,temp,humidity,rain,pressure,uv_index,wind_gusts,aqi,pm10,pm2_5,mosquito_risk,arthritis_risk,migraine_risk,frizz_risk,updated_at
Delhi,Delhi,28.6139,77.209,23.1,57,0.0,987.6,5.8,36.7,333,692.9,112.9,0,5,3,0,2026-03-03T20:17:11.672866+05:30
Mumbai,Maharashtra,19.076,72.8777,28.2,65,0.0,1010.8,7.35,25.9,176,56.7,53.4,7,0,4,1,2026-03-03T20:17:11.672906+05:30
Bangalore,Karnataka,12.9716,77.5946,25.9,40,0.0,914.3,9.1,36.0,121,35.9,35.4,4,5,7,0,2026-03-03T20:17:11.672921+05:30
Hyderabad,Telangana,17.385,78.4867,27.1,50,0.0,956.6,8.35,23.4,159,39.6,38.9,4,5,7,0,2026-03-03T20:17:11.672931+05:30
Chennai,Tamil Nadu,13.0827,80.2707,26.3,72,0.0,1011.4,8.8,30.2,111,33.4,29.8,7,0,4,1,2026-03-03T20:17:11.672939+05:30
Kolkata,West Bengal,22.5726,88.3639,25.0,53,0.0,1010.1,7.7,16.2,170,112.5,82.0,4,0,4,0,2026-03-03T20:17:11.672948+05:30
Pune,Maharashtra,18.5204,73.8567,30.1,37,0.0,951.2,7.9,32.8,142,24.6,24.2,0,5,7,0,2026-03-03T20:17:11.672960+05:30
Ahmedabad,Gujarat,23.0225,72.5714,30.3,35,0.0,1005.8,7.15,14.4,117,35.0,27.7,0,5,4,0,2026-03-03T20:17:11.672967+05:30
Jaipur,Rajasthan,26.9124,75.7873,26.4,20,0.0,965.1,6.55,29.9,106,83.6,33.3,4,5,7,0,2026-03-03T20:17:11.672975+05:30
Lucknow,Uttar Pradesh,26.8467,80.9462,24.6,51,0.0,998.0,6.3,35.6,152,222.6,59.3,0,5,7,0,2026-03-03T20:17:11.672983+05:30
Kanpur,Uttar Pradesh,26.4499,80.3319,22.1,59,0.0,996.5,6.3,28.4,185,286.8,62.9,0,5,7,0,2026-03-03T20:17:11.672991+05:30
Chandigarh,Chandigarh,30.7333,76.7794,20.3,64,0.0,972.5,5.7,33.5,145,34.7,32.4,3,5,3,0,2026-03-03T20:17:11.672998+05:30
Srinagar,Jammu and Kashmir,34.0837,74.7973,10.5,61,0.0,841.5,6.6,18.0,145,62.4,53.4,3,5,7,0,2026-03-03T20:17:11.673005+05:30
Jammu,Jammu and Kashmir,32.7266,74.857,21.7,66,0.0,976.1,6.3,20.9,105,56.3,46.2,3,5,7,0,2026-03-03T20:17:11.673012+05:30
Amritsar,Punjab,31.634,74.8723,21.6,55,0.0,984.7,6.25,25.9,110,42.3,35.3,0,5,7,0,2026-03-03T20:17:11.673019+05:30
Ludhiana,Punjab,30.901,75.8573,22.9,58,0.0,983.2,5.9,29.9,139,85.4,51.0,0,5,3,0,2026-03-03T20:17:11.673026+05:30
Jalandhar,Punjab,31.326,75.5762,23.3,55,0.0,984.2,6.05,25.9,138,52.7,38.9,0,5,7,0,2026-03-03T20:17:11.673034+05:30
Dehradun,Uttarakhand,30.6284,78.0322,13.5,83,0.0,831.4,6.05,31.0,115,27.1,24.0,3,10,7,0,2026-03-03T20:17:11.673042+05:30
Shimla,Himachal Pradesh,31.1048,77.1734,11.8,70,0.0,785.6,6.1,44.6,116,27.6,21.9,3,5,7,0,2026-03-03T20:17:11.673049+05:30
Manali,Himachal Pradesh,32.2396,77.1887,17.0,48,0.0,822.7,7.7,34.6,104,17.1,13.6,0,5,7,0,2026-03-03T20:17:11.673056+05:30
Gurgaon,Haryana,28.4595,77.0266,20.3,67,0.0,985.9,5.9,33.8,1168,1303.9,168.6,3,5,3,0,2026-03-03T20:17:11.673063+05:30
Noida,Uttar Pradesh,28.5355,77.391,23.4,56,0.0,989.1,5.8,36.4,1168,1303.9,168.6,0,5,3,0,2026-03-03T20:17:11.673069+05:30
Ghaziabad,Uttar Pradesh,28.6692,77.4538,23.0,59,0.0,987.2,5.75,36.0,241,618.4,106.4,0,5,3,0,2026-03-03T20:17:11.673076+05:30
Faridabad,Haryana,28.4089,77.3178,22.6,52,0.0,988.4,5.85,32.8,1168,1303.9,168.6,0,5,3,0,2026-03-03T20:17:11.673082+05:30
Meerut,Uttar Pradesh,28.9845,77.7064,21.2,66,0.0,985.6,5.65,41.4,241,618.4,106.4,3,5,3,0,2026-03-03T20:17:11.673089+05:30
Agra,Uttar Pradesh,27.1767,78.0081,22.5,51,0.0,992.5,6.15,30.6,477,484.3,75.7,0,5,7,0,2026-03-03T20:17:11.673098+05:30
Varanasi,Uttar Pradesh,25.3176,82.9739,23.2,58,0.0,1002.4,6.95,23.0,133,82.0,58.6,0,5,4,0,2026-03-03T20:17:11.673124+05:30
Prayagraj,Uttar Pradesh,25.4358,81.8463,24.5,52,0.0,1000.8,6.8,23.0,123,75.2,49.2,0,5,4,0,2026-03-03T20:17:11.673133+05:30
Gorakhpur,Uttar Pradesh,26.7606,83.3732,23.3,56,0.0,1001.9,6.65,16.9,145,102.0,71.7,0,5,4,0,2026-03-03T20:17:11.673140+05:30
Bareilly,Uttar Pradesh,28.367,79.4304,21.4,76,0.0,991.3,6.0,28.8,139,257.0,80.6,3,5,3,1,2026-03-03T20:17:11.673147+05:30
Aligarh,Uttar Pradesh,27.8974,78.088,21.2,56,0.0,990.1,5.9,34.9,669,990.9,145.8,0,5,3,0,2026-03-03T20:17:11.673154+05:30
Moradabad,Uttar Pradesh,28.8386,78.7733,21.3,63,0.0,987.9,5.8,28.8,139,197.4,65.9,3,5,3,0,2026-03-03T20:17:11.673163+05:30
Saharanpur,Uttar Pradesh,29.9637,77.546,20.7,60,0.0,979.0,5.45,43.2,133,164.4,54.0,0,5,3,0,2026-03-03T20:17:11.673169+05:30
Jhansi,Uttar Pradesh,25.4484,78.5685,24.9,44,0.0,982.8,6.7,26.6,78,39.7,24.9,0,5,7,0,2026-03-03T20:17:14.890248+05:30
Surat,Gujarat,21.1702,72.8311,27.4,56,0.0,1010.1,7.05,27.0,160,75.0,72.4,4,0,4,1,2026-03-03T20:17:14.890282+05:30
Vadodara,Gujarat,22.3072,73.1812,29.1,44,0.0,1008.0,7.15,13.3,158,46.9,44.0,4,0,4,0,2026-03-03T20:17:14.890294+05:30
Rajkot,Gujarat,22.3039,70.8022,30.2,27,0.0,998.0,7.0,17.6,92,19.6,16.3,0,5,7,0,2026-03-03T20:17:14.890304+05:30
Thane,Maharashtra,19.2183,72.9781,28.9,47,0.0,1010.2,7.35,36.7,176,56.7,53.4,4,0,4,1,2026-03-03T20:17:14.890313+05:30
Nagpur,Maharashtra,21.1458,79.0882,27.7,44,0.0,976.9,7.7,17.6,105,38.9,31.2,4,5,7,0,2026-03-03T20:17:14.890321+05:30
Nashik,Maharashtra,19.9975,73.7898,27.9,32,0.0,949.2,7.55,31.0,148,29.8,29.1,4,5,7,0,2026-03-03T20:17:14.890329+05:30
Aurangabad,Maharashtra,19.8762,75.3433,28.6,33,0.0,947.6,8.05,25.2,133,24.5,23.5,4,5,7,0,2026-03-03T20:17:14.890337+05:30
Solapur,Maharashtra,17.6599,75.9064,28.3,51,0.0,959.9,8.25,18.0,155,32.9,32.5,4,5,7,1,2026-03-03T20:17:14.890346+05:30
Kolhapur,Maharashtra,16.705,74.2433,26.9,53,0.0,950.4,8.4,39.2,169,67.8,67.3,4,5,7,1,2026-03-03T20:17:14.890354+05:30
Goa,Goa,15.2993,74.124,27.5,79,0.0,1000.8,8.45,34.2,86,31.3,25.3,7,5,4,1,2026-03-03T20:17:14.890362+05:30
Jodhpur,Rajasthan,26.2389,73.0243,29.5,35,0.0,987.8,6.85,15.8,84,58.7,23.3,4,5,7,0,2026-03-03T20:17:14.890370+05:30
Udaipur,Rajasthan,24.5854,73.7125,25.4,36,0.0,951.5,7.45,18.4,106,32.7,19.6,4,5,7,0,2026-03-03T20:17:14.890378+05:30
Kota,Rajasthan,25.2138,75.8648,28.3,39,0.0,983.5,6.85,19.4,86,46.4,30.7,4,5,7,0,2026-03-03T20:17:14.890386+05:30
Bikaner,Rajasthan,28.0229,73.3119,27.4,35,0.0,987.0,6.55,21.6,87,38.2,18.6,4,5,7,0,2026-03-03T20:17:14.890394+05:30
Ajmer,Rajasthan,26.4499,74.6399,26.0,27,0.0,959.7,6.8,25.9,90,41.3,23.7,4,5,7,0,2026-03-03T20:17:14.890402+05:30
Gwalior,Madhya Pradesh,26.2183,78.1828,24.2,57,0.0,988.2,6.45,29.5,124,59.4,31.7,0,5,7,0,2026-03-03T20:17:14.890409+05:30
Indore,Madhya Pradesh,22.7196,75.8577,23.9,56,0.0,952.2,7.4,16.9,105,29.3,26.8,0,5,7,0,2026-03-03T20:17:14.890417+05:30
Bhopal,Madhya Pradesh,23.2599,77.4126,23.9,55,0.0,958.2,7.3,22.3,105,32.6,23.6,0,5,7,0,2026-03-03T20:17:14.890425+05:30
Jabalpur,Madhya Pradesh,23.1815,79.9864,26.6,39,0.0,966.0,7.4,17.6,86,37.6,24.9,4,5,7,0,2026-03-03T20:17:14.890433+05:30
Ujjain,Madhya Pradesh,23.1765,75.7885,25.2,52,0.0,958.1,7.3,15.5,106,37.0,33.9,4,5,7,0,2026-03-03T20:17:14.890441+05:30
Visakhapatnam,Andhra Pradesh,17.6868,83.2185,26.1,82,0.0,1008.2,8.35,34.2,130,46.8,41.4,7,0,4,1,2026-03-03T20:17:14.890450+05:30
Vijayawada,Andhra Pradesh,16.5062,80.648,27.4,56,0.0,1006.2,8.4,27.7,143,50.1,48.1,4,5,4,1,2026-03-03T20:17:14.890458+05:30
Guntur,Andhra Pradesh,16.3067,80.4365,26.6,65,0.0,1007.6,8.4,28.8,131,55.8,54.6,7,5,4,1,2026-03-03T20:17:14.890465+05:30
Nellore,Andhra Pradesh,14.4426,79.9865,26.1,71,0.0,1009.9,8.6,29.2,131,30.9,27.8,7,0,4,1,2026-03-03T20:17:14.890473+05:30
Kurnool,Andhra Pradesh,15.8281,78.0373,31.5,33,0.0,979.5,8.45,29.2,118,33.9,32.9,0,5,7,0,2026-03-03T20:17:14.890480+05:30
Kakinada,Andhra Pradesh,16.9891,82.2475,25.5,76,0.0,1011.5,8.35,34.9,126,36.9,31.1,7,0,4,1,2026-03-03T20:17:14.890487+05:30
Tirupati,Andhra Pradesh,13.6288,79.4192,26.3,44,0.0,995.5,8.75,37.1,151,43.5,41.7,4,5,7,0,2026-03-03T20:17:14.890493+05:30
Warangal,Telangana,17.9689,79.5941,29.9,42,0.0,982.1,8.2,14.0,142,39.3,38.3,4,5,7,0,2026-03-03T20:17:14.890500+05:30
Nizamabad,Telangana,18.6725,78.0941,27.7,48,0.0,968.1,8.1,24.5,115,35.7,33.4,4,5,7,0,2026-03-03T20:17:14.890507+05:30
Mysore,Karnataka,12.2958,76.6396,27.6,35,0.0,930.2,9.15,32.8,137,34.3,33.8,4,5,7,0,2026-03-03T20:17:14.890513+05:30
Mangalore,Karnataka,12.9141,74.856,28.6,77,0.0,1009.4,8.7,29.2,70,26.1,19.2,7,0,4,1,2026-03-03T20:17:14.890520+05:30
Hubli-Dharwad,Karnataka,15.3647,75.124,29.1,40,0.0,943.0,8.6,25.6,165,38.9,38.4,4,5,7,0,2026-03-03T20:17:14.890526+05:30
Belgaum,Karnataka,15.8497,74.4977,24.7,78,0.0,928.3,8.65,32.0,180,48.5,47.8,3,5,7,1,2026-03-03T20:17:18.105899+05:30
Coimbatore,Tamil Nadu,11.0168,76.9558,28.3,36,0.0,964.2,9.15,43.6,130,41.7,41.0,4,5,7,0,2026-03-03T20:17:18.105931+05:30
Madurai,Tamil Nadu,9.9252,78.1198,27.6,52,0.0,995.7,9.1,33.8,115,28.9,28.1,4,5,7,1,2026-03-03T20:17:18.105940+05:30
Trichy,Tamil Nadu,10.7905,78.7047,27.4,65,0.0,1002.9,9.0,31.0,127,31.4,30.6,7,5,4,1,2026-03-03T20:17:18.105948+05:30
Salem,Tamil Nadu,11.6643,78.146,29.0,43,0.0,979.8,9.0,40.7,144,33.6,32.8,4,5,7,0,2026-03-03T20:17:18.105956+05:30
Tirunelveli,Tamil Nadu,8.7139,77.7567,26.3,65,0.0,1006.0,9.1,42.5,101,17.3,16.8,7,5,4,1,2026-03-03T20:17:18.105963+05:30
Vellore,Tamil Nadu,12.9165,79.1325,27.1,52,0.0,988.2,8.85,38.5,141,34.9,33.4,4,5,7,1,2026-03-03T20:17:18.105970+05:30
Erode,Tamil Nadu,11.341,77.7172,30.2,35,0.0,991.2,9.05,36.0,138,35.4,34.7,0,5,7,0,2026-03-03T20:17:18.105978+05:30
Kochi,Kerala,9.9312,76.2673,28.0,80,0.0,1011.1,8.95,33.1,122,32.2,30.2,7,0,4,1,2026-03-03T20:17:18.105985+05:30
Thiruvananthapuram,Kerala,8.5241,76.9366,28.2,68,0.0,1010.5,8.95,27.0,139,32.9,30.4,7,0,4,1,2026-03-03T20:17:18.105992+05:30
Kozhikode,Kerala,11.2588,75.7804,28.7,77,0.0,1010.1,8.85,36.4,69,26.1,18.5,7,0,4,1,2026-03-03T20:17:18.105998+05:30
Thrissur,Kerala,10.5276,76.2144,27.9,78,0.0,1009.3,8.9,38.9,123,29.1,27.5,7,0,4,1,2026-03-03T20:17:18.106005+05:30
Kannur,Kerala,11.8745,75.3704,28.5,74,0.0,1009.6,8.8,38.2,75,26.7,19.3,7,0,4,1,2026-03-03T20:17:18.106012+05:30
Patna,Bihar,25.5941,85.1376,25.4,50,0.0,1005.4,7.1,16.9,144,82.4,53.4,4,5,4,0,2026-03-03T20:17:18.106019+05:30
Gaya,Bihar,24.7914,85.0002,21.9,51,0.0,998.8,7.2,23.0,122,74.7,45.6,0,5,7,0,2026-03-03T20:17:18.106026+05:30
Muzaffarpur,Bihar,26.1209,85.3647,23.0,56,0.0,1005.3,7.05,10.4,154,102.9,62.9,0,5,4,0,2026-03-03T20:17:18.106033+05:30
Bhagalpur,Bihar,25.2425,87.0117,22.2,58,0.0,1006.4,7.15,13.0,147,96.9,64.7,0,5,4,0,2026-03-03T20:17:18.106040+05:30
Ranchi,Jharkhand,23.3441,85.3096,21.5,43,0.0,941.9,7.9,40.7,110,47.8,27.2,0,5,7,0,2026-03-03T20:17:18.106047+05:30
Jamshedpur,Jharkhand,22.8046,86.2029,25.4,52,0.0,994.9,7.75,14.4,114,64.0,36.2,4,5,7,0,2026-03-03T20:17:18.106054+05:30
Dhanbad,Jharkhand,23.7957,86.4304,26.1,21,0.0,984.5,7.65,27.7,106,58.0,37.8,4,5,7,0,2026-03-03T20:17:18.106061+05:30
Bokaro,Jharkhand,23.6693,86.1511,23.8,28,0.0,988.7,7.65,32.8,108,65.0,40.2,0,5,7,0,2026-03-03T20:17:18.106068+05:30
Bhubaneswar,Odisha,20.2961,85.8245,26.0,73,0.0,1006.7,8.1,26.6,151,51.8,44.8,7,5,4,1,2026-03-03T20:17:18.106073+05:30
Cuttack,Odisha,20.4625,85.8828,27.5,55,0.0,1008.5,8.1,26.3,151,51.8,44.8,4,0,4,1,2026-03-03T20:17:18.106080+05:30
Rourkela,Odisha,22.2604,84.8536,28.1,40,0.0,989.1,7.7,27.4,104,60.5,34.7,4,5,7,0,2026-03-03T20:17:18.106087+05:30
Raipur,Chhattisgarh,21.2514,81.6296,27.2,34,0.0,978.6,7.8,14.4,125,61.5,51.8,4,5,7,0,2026-03-03T20:17:18.106093+05:30
Bhilai,Chhattisgarh,21.1938,81.3509,27.6,39,0.0,979.0,7.8,13.7,123,55.4,48.2,4,5,7,0,2026-03-03T20:17:18.106125+05:30
Guwahati,Assam,26.1158,91.7086,24.4,58,0.0,1006.4,7.1,22.0,155,94.5,77.5,0,5,4,0,2026-03-03T20:17:18.106134+05:30
Agartala,Tripura,23.8315,91.2868,23.5,72,0.0,1010.4,7.45,15.8,176,102.9,91.3,3,0,4,1,2026-03-03T20:17:18.106141+05:30
Shillong,Meghalaya,25.5788,91.8933,11.0,87,0.0,857.8,7.45,28.4,152,106.4,87.5,3,10,7,0,2026-03-03T20:17:18.106148+05:30
Imphal,Manipur,24.817,93.9368,14.3,76,0.0,925.7,7.65,32.8,157,68.5,60.8,3,5,7,0,2026-03-03T20:17:18.106155+05:30
Aizawl,Mizoram,23.7271,92.7176,16.9,63,0.0,894.8,7.65,32.8,161,68.9,58.3,3,5,7,0,2026-03-03T20:17:18.106162+05:30
Kohima,Nagaland,25.6701,94.1077,12.6,93,0.0,856.6,6.65,45.0,152,79.4,65.7,3,10,7,0,2026-03-03T20:17:18.106169+05:30
Gangtok,Sikkim,27.3314,88.6138,12.9,89,0.0,839.7,7.4,19.4,153,108.0,78.2,3,10,7,0,2026-03-03T20:17:18.106175+05:30
Siliguri,West Bengal,26.7271,88.3953,19.1,73,0.0,999.3,7.1,20.2,164,107.3,72.4,3,5,7,0,2026-03-03T20:17:21.326704+05:30
Durgapur,West Bengal,23.5204,87.3119,25.9,38,0.0,999.4,7.65,26.6,113,56.7,31.2,4,5,7,0,2026-03-03T20:17:21.326736+05:30
Asansol,West Bengal,23.6739,86.9524,26.3,39,0.0,998.1,7.65,22.7,110,49.9,29.0,4,5,7,0,2026-03-03T20:17:21.326747+05:30
Pondicherry,Puducherry,11.9139,79.8145,24.1,86,0.0,1012.3,8.85,28.1,104,28.2,24.9,3,0,4,1,2026-03-03T20:17:21.326755+05:30
Port Blair,Andaman and Nicobar Islands,11.6234,92.7265,27.6,70,0.0,1010.4,8.8,15.5,85,32.4,24.2,7,0,4,1,2026-03-03T20:17:21.326764+05:30
Haridwar,Uttarakhand,29.9457,78.1642,23.7,48,0.0,978.0,5.55,22.3,152,132.7,52.7,0,5,3,0,2026-03-03T20:17:21.326772+05:30
Rishikesh,Uttarakhand,30.0869,78.2676,19.7,74,0.0,970.6,5.6,23.8,157,60.3,37.6,3,5,3,0,2026-03-03T20:17:21.326780+05:30
Nainital,Uttarakhand,29.3919,79.4542,15.3,70,0.0,807.7,6.4,54.7,158,69.6,54.9,3,5,7,0,2026-03-03T20:17:21.326788+05:30
Mussoorie,Uttarakhand,30.4599,78.0664,14.5,72,0.0,804.0,5.95,41.8,164,59.1,42.4,3,5,3,0,2026-03-03T20:17:21.326795+05:30
Dharamshala,Himachal Pradesh,32.219,76.3234,19.0,53,0.0,872.0,6.2,23.4,112,27.7,23.1,0,5,7,0,2026-03-03T20:17:21.326803+05:30
Dalhousie,Himachal Pradesh,32.5387,75.971,15.9,56,0.0,805.9,6.4,19.8,127,48.3,43.9,0,5,7,0,2026-03-03T20:17:21.326812+05:30
Patiala,Punjab,30.3398,76.3869,20.7,65,0.0,982.4,5.6,34.2,251,404.2,78.9,3,5,3,0,2026-03-03T20:17:21.326820+05:30
Bhatinda,Punjab,30.211,74.9455,22.5,64,0.0,988.1,6.25,28.1,134,68.9,51.3,3,5,7,0,2026-03-03T20:17:21.326827+05:30
Rohtak,Haryana,28.8955,76.6066,21.1,67,0.0,986.4,5.8,33.8,465,746.9,114.6,3,5,3,0,2026-03-03T20:17:21.326835+05:30
Panipat,Haryana,29.3909,76.9635,20.8,68,0.0,984.6,5.6,37.4,1046,1382.1,182.5,3,5,3,0,2026-03-03T20:17:21.326842+05:30
Mathura,Uttar Pradesh,27.4924,77.6737,24.6,44,0.0,991.7,6.1,29.9,524,568.1,82.7,0,5,7,0,2026-03-03T20:17:21.326850+05:30
Vrindavan,Uttar Pradesh,27.5823,77.7027,21.8,55,0.0,992.0,6.05,32.4,524,568.1,82.7,0,5,7,0,2026-03-03T20:17:21.326857+05:30
Ayodhya,Uttar Pradesh,26.7922,82.1998,24.3,59,0.0,999.9,6.45,25.6,145,81.0,55.8,0,5,7,0,2026-03-03T20:17:21.326864+05:30
Ratlam,Madhya Pradesh,23.3315,75.0367,25.3,56,0.0,958.7,7.25,13.0,103,30.0,27.3,4,5,7,0,2026-03-03T20:17:21.326871+05:30
Sagar,Madhya Pradesh,23.8388,78.7378,26.6,43,0.0,954.8,7.2,25.6,101,34.1,21.4,4,5,7,0,2026-03-03T20:17:21.326878+05:30
Satna,Madhya Pradesh,24.6005,80.8322,24.2,45,0.0,976.0,7.2,30.2,92,40.3,22.1,0,5,7,0,2026-03-03T20:17:21.326885+05:30
Akola,Maharashtra,20.7002,77.0082,28.1,35,0.0,978.5,7.75,20.2,123,30.6,28.1,4,5,7,0,2026-03-03T20:17:21.326893+05:30
Amravati,Maharashtra,20.9374,77.7796,29.2,46,0.0,971.0,7.75,16.6,122,32.5,29.1,4,5,7,1,2026-03-03T20:17:21.326900+05:30
Latur,Maharashtra,18.4088,76.5604,26.8,48,0.0,943.0,8.2,31.0,151,25.4,24.4,4,5,7,0,2026-03-03T20:17:21.326907+05:30
Nanded,Maharashtra,19.1383,77.3091,28.5,45,0.0,971.8,8.0,19.4,111,27.9,25.8,4,5,7,0,2026-03-03T20:17:21.326914+05:30
Gulbarga,Karnataka,17.3297,76.8343,29.3,41,0.0,961.4,8.3,17.3,158,28.8,28.4,4,5,7,0,2026-03-03T20:17:21.326922+05:30
Bidar,Karnataka,17.9104,77.5199,26.9,39,0.0,938.6,8.25,19.8,129,30.0,29.1,4,5,7,0,2026-03-03T20:17:21.326929+05:30
Hospet,Karnataka,15.2689,76.3909,31.4,35,0.0,958.2,8.6,25.6,161,40.0,39.5,0,5,7,0,2026-03-03T20:17:21.326936+05:30
Tirupur,Tamil Nadu,11.1085,77.3411,30.1,32,0.0,977.6,9.15,33.8,144,46.7,45.6,0,5,7,0,2026-03-03T20:17:21.326943+05:30
Alappuzha,Kerala,9.4981,76.3388,27.5,80,0.0,1011.5,8.95,30.6,123,28.9,25.1,7,0,4,1,2026-03-03T20:17:21.326951+05:30
Munnar,Kerala,10.0889,77.0595,20.6,79,0.0,858.4,9.45,20.9,102,38.9,37.6,3,5,7,1,2026-03-03T20:17:21.326959+05:30
Silchar,Assam,24.8333,92.7789,24.0,61,0.0,1009.0,7.4,20.2,163,88.0,73.6,3,0,4,0,2026-03-03T20:17:21.326967+05:30
Dibrugarh,Assam,27.4728,94.912,23.6,74,0.0,999.9,7.1,11.2,150,77.5,60.5,3,5,7,1,2026-03-03T20:17:21.326974+05:30
