city,state,latitude,longitude,temp,humidity,rain,pressure,uv_index,wind_gusts,aqi,pm10,pm2_5,mosquito_risk,arthritis_risk,migraine_risk,frizz_risk,updated_at
Delhi,Delhi,28.6139,77.209,29.1,31,0.0,982.9,7.4,30.2,357,358.6,66.4,4,5,7,0,2026-04-23T08:23:04.071606+05:30
Mumbai,Maharashtra,19.076,72.8777,29.0,75,0.0,1007.9,8.05,24.1,80,38.0,26.6,7,5,4,1,2026-04-23T08:23:04.071645+05:30
Bangalore,Karnataka,12.9716,77.5946,25.9,60,0.0,912.2,8.95,29.2,72,35.5,33.4,4,5,7,1,2026-04-23T08:23:04.071661+05:30
Hyderabad,Telangana,17.385,78.4867,30.7,50,0.0,953.8,8.95,44.6,123,37.5,32.7,0,5,7,1,2026-04-23T08:23:04.071671+05:30
Chennai,Tamil Nadu,13.0827,80.2707,31.0,70,0.0,1007.2,9.3,35.3,32,11.2,7.9,3,5,4,1,2026-04-23T08:23:04.071680+05:30
Kolkata,West Bengal,22.5726,88.3639,29.8,84,0.0,1005.3,8.85,27.4,83,25.7,21.0,7,5,4,1,2026-04-23T08:23:04.071692+05:30
Pune,Maharashtra,18.5204,73.8567,29.5,47,0.0,949.2,8.65,28.4,115,56.3,46.2,4,5,7,1,2026-04-23T08:23:04.071699+05:30
Ahmedabad,Gujarat,23.0225,72.5714,26.2,76,0.0,1003.3,8.2,27.4,45,19.5,12.3,7,5,4,1,2026-04-23T08:23:04.071706+05:30
Jaipur,Rajasthan,26.9124,75.7873,28.7,25,0.0,961.2,8.05,29.2,148,214.7,33.2,4,5,7,0,2026-04-23T08:23:04.071714+05:30
Lucknow,Uttar Pradesh,26.8467,80.9462,29.9,45,0.0,992.5,7.85,36.7,197,315.7,76.1,4,5,7,1,2026-04-23T08:23:04.071722+05:30
Kanpur,Uttar Pradesh,26.4499,80.3319,28.9,53,0.0,991.4,7.85,31.3,416,369.7,62.6,4,5,7,1,2026-04-23T08:23:04.071729+05:30
Chandigarh,Chandigarh,30.7333,76.7794,26.5,56,0.0,967.7,7.4,30.2,58,23.7,20.5,4,5,7,1,2026-04-23T08:23:04.071736+05:30
Srinagar,Jammu and Kashmir,34.0837,74.7973,16.5,86,0.0,843.8,7.35,18.4,70,31.0,25.8,3,10,7,0,2026-04-23T08:23:04.071744+05:30
Jammu,Jammu and Kashmir,32.7266,74.857,28.0,67,0.0,971.2,8.2,28.1,64,21.2,19.0,7,5,7,1,2026-04-23T08:23:04.071751+05:30
Amritsar,Punjab,31.634,74.8723,27.3,58,0.0,979.3,8.1,32.8,94,62.6,56.3,4,5,7,1,2026-04-23T08:23:04.071759+05:30
Ludhiana,Punjab,30.901,75.8573,28.7,47,0.0,977.5,7.7,15.5,81,55.5,47.0,4,5,7,1,2026-04-23T08:23:04.071767+05:30
Jalandhar,Punjab,31.326,75.5762,27.4,53,0.0,978.5,7.9,23.4,85,48.7,44.2,4,5,7,1,2026-04-23T08:23:04.071774+05:30
Dehradun,Uttarakhand,30.6284,78.0322,22.0,44,0.0,832.8,7.85,35.6,44,9.7,7.7,0,5,7,0,2026-04-23T08:23:04.071781+05:30
Shimla,Himachal Pradesh,31.1048,77.1734,21.3,47,0.0,788.4,7.9,52.6,51,18.6,15.4,0,5,7,0,2026-04-23T08:23:04.071787+05:30
Manali,Himachal Pradesh,32.2396,77.1887,23.1,25,0.0,823.9,9.3,32.8,51,25.5,15.5,0,5,7,0,2026-04-23T08:23:04.071795+05:30
Gurgaon,Haryana,28.4595,77.0266,27.2,43,0.0,981.3,7.5,24.8,1101,1806.8,204.4,4,5,7,0,2026-04-23T08:23:04.071803+05:30
Noida,Uttar Pradesh,28.5355,77.391,29.8,29,0.0,984.3,7.4,31.7,1101,1806.8,204.4,4,5,7,0,2026-04-23T08:23:04.071810+05:30
Ghaziabad,Uttar Pradesh,28.6692,77.4538,28.9,35,0.0,982.4,7.4,30.6,279,327.8,71.0,4,5,7,0,2026-04-23T08:23:04.071816+05:30
Faridabad,Haryana,28.4089,77.3178,30.5,25,0.0,983.8,7.45,31.7,1101,1806.8,204.4,0,5,7,0,2026-04-23T08:23:04.071823+05:30
Meerut,Uttar Pradesh,28.9845,77.7064,28.2,45,0.0,980.9,7.3,28.1,279,327.8,71.0,4,5,7,0,2026-04-23T08:23:04.071829+05:30
Agra,Uttar Pradesh,27.1767,78.0081,29.8,33,0.0,988.1,7.75,29.5,711,976.0,104.1,4,5,7,0,2026-04-23T08:23:04.071838+05:30
Varanasi,Uttar Pradesh,25.3176,82.9739,32.0,35,0.0,996.9,8.5,34.2,114,111.3,39.8,0,5,7,0,2026-04-23T08:23:04.071845+05:30
Prayagraj,Uttar Pradesh,25.4358,81.8463,31.4,42,0.0,995.3,8.35,31.7,125,114.8,42.7,0,5,7,1,2026-04-23T08:23:04.071852+05:30
Gorakhpur,Uttar Pradesh,26.7606,83.3732,28.2,50,0.0,997.1,8.25,28.4,117,101.7,55.3,4,5,7,1,2026-04-23T08:23:04.071858+05:30
Bareilly,Uttar Pradesh,28.367,79.4304,28.2,50,0.0,986.6,7.65,31.3,97,156.5,55.5,4,5,7,1,2026-04-23T08:23:04.071865+05:30
Aligarh,Uttar Pradesh,27.8974,78.088,29.8,38,0.0,985.7,7.55,32.0,636,823.3,125.7,4,5,7,0,2026-04-23T08:23:04.071871+05:30
Moradabad,Uttar Pradesh,28.8386,78.7733,27.9,49,0.0,983.4,7.5,33.1,117,123.4,54.7,4,5,7,1,2026-04-23T08:23:04.071878+05:30
Saharanpur,Uttar Pradesh,29.9637,77.546,25.8,63,0.0,974.8,7.1,33.8,90,68.5,50.4,7,5,7,1,2026-04-23T08:23:04.071886+05:30
Jhansi,Uttar Pradesh,25.4484,78.5685,31.6,23,0.0,979.0,8.25,32.4,46,11.2,10.6,0,5,7,0,2026-04-23T08:23:07.375595+05:30
Surat,Gujarat,21.1702,72.8311,27.4,82,0.0,1007.2,7.9,22.0,102,38.9,33.9,7,5,4,1,2026-04-23T08:23:07.375625+05:30
Vadodara,Gujarat,22.3072,73.1812,28.1,50,0.0,1005.5,8.2,25.6,77,23.1,18.3,4,5,4,1,2026-04-23T08:23:07.375634+05:30
Rajkot,Gujarat,22.3039,70.8022,25.6,84,0.0,995.4,7.9,28.4,52,15.5,10.0,7,5,7,1,2026-04-23T08:23:07.375642+05:30
Thane,Maharashtra,19.2183,72.9781,28.8,68,0.0,1007.4,8.05,37.8,80,38.0,26.6,7,5,4,1,2026-04-23T08:23:07.375649+05:30
Nagpur,Maharashtra,21.1458,79.0882,30.7,41,0.0,974.0,8.95,24.8,74,22.2,20.9,0,5,7,0,2026-04-23T08:23:07.375656+05:30
Nashik,Maharashtra,19.9975,73.7898,28.5,44,0.0,946.6,8.35,30.6,89,38.5,29.1,4,5,7,0,2026-04-23T08:23:07.375663+05:30
Aurangabad,Maharashtra,19.8762,75.3433,31.2,27,0.0,945.5,9.05,36.7,84,36.9,29.9,0,5,7,0,2026-04-23T08:23:07.375670+05:30
Solapur,Maharashtra,17.6599,75.9064,29.2,60,0.0,957.7,9.1,35.3,104,41.4,38.9,4,5,7,1,2026-04-23T08:23:07.375676+05:30
Kolhapur,Maharashtra,16.705,74.2433,29.0,61,0.0,948.2,9.05,39.6,116,69.2,65.4,7,5,7,1,2026-04-23T08:23:07.375683+05:30
Goa,Goa,15.2993,74.124,30.2,77,0.0,996.9,9.0,29.9,86,41.6,32.9,3,5,7,1,2026-04-23T08:23:07.375689+05:30
Jodhpur,Rajasthan,26.2389,73.0243,28.9,43,0.0,983.3,8.25,23.8,86,110.6,21.1,4,5,7,0,2026-04-23T08:23:07.375696+05:30
Udaipur,Rajasthan,24.5854,73.7125,26.9,44,0.0,947.5,8.8,26.3,42,17.4,11.7,4,5,7,0,2026-04-23T08:23:07.375703+05:30
Kota,Rajasthan,25.2138,75.8648,29.6,32,0.0,980.2,8.25,32.0,49,20.4,17.7,4,5,7,0,2026-04-23T08:23:07.375709+05:30
Bikaner,Rajasthan,28.0229,73.3119,31.3,32,0.0,981.7,8.15,35.6,65,69.2,19.2,0,5,7,0,2026-04-23T08:23:07.375716+05:30
Ajmer,Rajasthan,26.4499,74.6399,27.7,37,0.0,955.6,8.2,31.0,39,7.9,7.3,4,5,7,0,2026-04-23T08:23:07.375722+05:30
Gwalior,Madhya Pradesh,26.2183,78.1828,31.5,26,0.0,984.1,8.0,38.2,50,17.1,10.0,0,5,7,0,2026-04-23T08:23:07.375728+05:30
Indore,Madhya Pradesh,22.7196,75.8577,28.1,41,0.0,949.6,8.55,29.5,62,22.7,20.5,4,5,7,0,2026-04-23T08:23:07.375734+05:30
Bhopal,Madhya Pradesh,23.2599,77.4126,29.1,35,0.0,955.3,8.65,31.7,57,21.5,19.8,4,5,7,0,2026-04-23T08:23:07.375741+05:30
Jabalpur,Madhya Pradesh,23.1815,79.9864,29.4,41,0.0,963.0,8.8,27.0,65,25.1,24.6,4,5,7,0,2026-04-23T08:23:07.375748+05:30
Ujjain,Madhya Pradesh,23.1765,75.7885,28.9,39,0.0,955.4,8.6,33.8,65,30.3,27.8,4,5,7,0,2026-04-23T08:23:07.375755+05:30
Visakhapatnam,Andhra Pradesh,17.6868,83.2185,29.7,77,0.0,1003.3,9.25,36.0,64,26.3,22.4,7,5,4,1,2026-04-23T08:23:07.375761+05:30
Vijayawada,Andhra Pradesh,16.5062,80.648,28.9,81,0.0,1002.4,9.15,25.6,62,15.5,11.2,7,5,4,1,2026-04-23T08:23:07.375768+05:30
Guntur,Andhra Pradesh,16.3067,80.4365,29.3,76,0.0,1003.5,9.0,28.8,66,15.0,11.1,7,5,4,1,2026-04-23T08:23:07.375774+05:30
Nellore,Andhra Pradesh,14.4426,79.9865,30.1,71,0.0,1005.8,9.3,32.8,47,12.5,10.0,3,5,4,1,2026-04-23T08:23:07.375781+05:30
Kurnool,Andhra Pradesh,15.8281,78.0373,32.7,48,0.0,977.0,8.8,47.9,97,27.2,24.6,0,5,7,1,2026-04-23T08:23:07.375788+05:30
Kakinada,Andhra Pradesh,16.9891,82.2475,29.9,77,0.0,1007.3,9.25,31.7,46,18.3,12.0,7,5,4,1,2026-04-23T08:23:07.375794+05:30
Tirupati,Andhra Pradesh,13.6288,79.4192,28.1,75,0.0,992.3,9.15,32.8,68,17.1,15.4,7,5,7,1,2026-04-23T08:23:07.375800+05:30
Warangal,Telangana,17.9689,79.5941,30.7,56,0.0,978.5,8.5,20.5,117,34.1,31.9,0,5,7,1,2026-04-23T08:23:07.375806+05:30
Nizamabad,Telangana,18.6725,78.0941,30.8,48,0.0,965.4,8.4,36.0,116,51.8,49.2,0,5,7,1,2026-04-23T08:23:07.375812+05:30
Mysore,Karnataka,12.2958,76.6396,26.2,79,0.0,928.9,8.9,37.4,80,49.4,46.7,7,5,7,1,2026-04-23T08:23:07.375819+05:30
Mangalore,Karnataka,12.9141,74.856,29.5,84,0.0,1005.7,8.95,25.6,82,38.4,29.5,7,5,4,1,2026-04-23T08:23:07.375825+05:30
Hubli-Dharwad,Karnataka,15.3647,75.124,27.8,69,0.0,941.2,9.25,52.9,98,44.7,40.6,7,5,7,1,2026-04-23T08:23:07.375832+05:30
Belgaum,Karnataka,15.8497,74.4977,26.8,71,0.0,926.3,9.25,38.5,101,52.3,47.6,7,5,7,1,2026-04-23T08:23:10.897208+05:30
Coimbatore,Tamil Nadu,11.0168,76.9558,27.8,74,0.0,962.2,9.3,32.0,86,48.7,46.8,7,5,7,1,2026-04-23T08:23:10.897237+05:30
Madurai,Tamil Nadu,9.9252,78.1198,29.4,77,0.0,993.4,9.3,32.0,52,20.7,19.7,7,5,7,1,2026-04-23T08:23:10.897279+05:30
Trichy,Tamil Nadu,10.7905,78.7047,30.0,79,0.0,1000.0,9.3,20.9,49,14.2,12.6,7,5,4,1,2026-04-23T08:23:10.897290+05:30
Salem,Tamil Nadu,11.6643,78.146,29.0,73,0.0,977.9,9.4,27.0,66,17.5,16.5,7,5,7,1,2026-04-23T08:23:10.897298+05:30
Tirunelveli,Tamil Nadu,8.7139,77.7567,29.8,71,0.0,1003.2,9.25,36.4,69,29.8,27.0,7,5,4,1,2026-04-23T08:23:10.897305+05:30
Vellore,Tamil Nadu,12.9165,79.1325,27.7,74,0.0,985.3,9.4,29.9,80,39.5,38.2,7,5,7,1,2026-04-23T08:23:10.897313+05:30
Erode,Tamil Nadu,11.341,77.7172,30.0,73,0.0,989.4,9.35,28.1,48,9.1,8.2,7,5,7,1,2026-04-23T08:23:10.897323+05:30
Kochi,Kerala,9.9312,76.2673,28.8,84,0.0,1008.0,9.05,28.8,77,31.9,28.6,7,0,4,1,2026-04-23T08:23:10.897331+05:30
Thiruvananthapuram,Kerala,8.5241,76.9366,28.6,84,0.0,1007.3,8.8,18.4,60,22.1,18.5,7,5,4,1,2026-04-23T08:23:10.897338+05:30
Kozhikode,Kerala,11.2588,75.7804,29.8,79,0.0,1007.2,8.85,29.2,70,33.4,27.4,7,5,4,1,2026-04-23T08:23:10.897345+05:30
Thrissur,Kerala,10.5276,76.2144,29.9,76,0.0,1006.6,9.05,36.0,80,30.2,27.0,7,5,4,1,2026-04-23T08:23:10.897352+05:30
Kannur,Kerala,11.8745,75.3704,29.5,80,0.0,1006.5,8.9,31.7,83,37.4,31.2,7,5,4,1,2026-04-23T08:23:10.897359+05:30
Patna,Bihar,25.5941,85.1376,28.6,66,0.0,999.8,8.6,21.2,142,85.2,58.8,7,5,7,1,2026-04-23T08:23:10.897365+05:30
Gaya,Bihar,24.7914,85.0002,32.0,43,0.0,993.2,8.55,30.2,133,74.3,40.5,0,5,7,1,2026-04-23T08:23:10.897372+05:30
Muzaffarpur,Bihar,26.1209,85.3647,28.7,75,0.0,999.8,8.6,26.6,150,62.6,49.1,7,5,7,1,2026-04-23T08:23:10.897378+05:30
Bhagalpur,Bihar,25.2425,87.0117,29.0,83,0.0,1000.4,8.65,18.0,132,68.5,53.8,7,5,4,1,2026-04-23T08:23:10.897384+05:30
Ranchi,Jharkhand,23.3441,85.3096,31.5,31,0.0,939.0,8.7,32.4,92,95.0,37.3,0,5,7,0,2026-04-23T08:23:10.897391+05:30
Jamshedpur,Jharkhand,22.8046,86.2029,31.6,68,0.0,990.4,8.85,19.4,150,108.0,79.2,3,5,7,1,2026-04-23T08:23:10.897397+05:30
Dhanbad,Jharkhand,23.7957,86.4304,32.7,44,0.0,979.3,8.65,32.8,161,147.1,101.3,0,5,7,1,2026-04-23T08:23:10.897404+05:30
Bokaro,Jharkhand,23.6693,86.1511,32.4,39,0.0,983.5,8.55,33.1,154,129.0,77.1,0,5,7,1,2026-04-23T08:23:10.897411+05:30
Bhubaneswar,Odisha,20.2961,85.8245,29.5,85,0.0,1001.8,9.2,32.8,85,29.7,26.6,7,5,4,1,2026-04-23T08:23:10.897417+05:30
Cuttack,Odisha,20.4625,85.8828,30.0,81,0.0,1003.7,9.25,26.3,85,29.7,26.6,7,5,4,1,2026-04-23T08:23:10.897424+05:30
Rourkela,Odisha,22.2604,84.8536,31.1,58,0.0,984.9,8.95,20.2,99,70.1,39.1,0,5,7,1,2026-04-23T08:23:10.897430+05:30
Raipur,Chhattisgarh,21.2514,81.6296,32.1,44,0.0,975.3,8.15,23.0,116,68.9,62.6,0,5,7,1,2026-04-23T08:23:10.897436+05:30
Bhilai,Chhattisgarh,21.1938,81.3509,32.1,47,0.0,975.5,7.85,22.7,106,64.5,59.1,0,5,7,1,2026-04-23T08:23:10.897442+05:30
Guwahati,Assam,26.1158,91.7086,26.0,84,0.0,1003.0,8.55,18.4,96,61.9,32.9,7,5,4,1,2026-04-23T08:23:10.897448+05:30
Agartala,Tripura,23.8315,91.2868,29.4,79,0.0,1006.8,8.3,19.8,79,24.4,20.6,7,5,4,1,2026-04-23T08:23:10.897455+05:30
Shillong,Meghalaya,25.5788,91.8933,20.5,65,0.0,858.8,8.95,37.1,78,83.1,33.4,3,5,7,0,2026-04-23T08:23:10.897461+05:30
Imphal,Manipur,24.817,93.9368,22.4,77,0.0,924.7,9.05,51.1,112,65.7,38.9,3,5,7,1,2026-04-23T08:23:10.897468+05:30
Aizawl,Mizoram,23.7271,92.7176,24.2,77,0.0,895.0,8.9,34.9,106,64.3,38.1,3,5,7,1,2026-04-23T08:23:10.897475+05:30
Kohima,Nagaland,25.6701,94.1077,19.2,78,0.0,857.2,9.1,50.0,94,82.0,29.9,3,5,7,0,2026-04-23T08:23:10.897481+05:30
Gangtok,Sikkim,27.3314,88.6138,20.3,75,0.0,840.4,8.9,21.6,89,46.0,27.8,3,5,7,0,2026-04-23T08:23:10.897487+05:30
Siliguri,West Bengal,26.7271,88.3953,24.8,79,0.0,995.4,8.5,22.7,146,82.4,53.4,3,5,7,1,2026-04-23T08:23:14.202215+05:30
Durgapur,West Bengal,23.5204,87.3119,31.0,74,0.0,994.4,8.95,29.5,154,63.6,58.2,3,5,7,1,2026-04-23T08:23:14.202300+05:30
Asansol,West Bengal,23.6739,86.9524,31.8,68,0.0,992.8,8.9,31.7,153,97.1,79.2,3,5,7,1,2026-04-23T08:23:14.202318+05:30
Pondicherry,Puducherry,11.9139,79.8145,30.5,77,0.0,1008.6,9.25,28.8,26,9.9,7.3,3,0,4,1,2026-04-23T08:23:14.202329+05:30
Port Blair,Andaman and Nicobar Islands,11.6234,92.7265,30.6,68,0.0,1007.0,9.15,22.0,29,10.1,5.4,3,5,4,1,2026-04-23T08:23:14.202340+05:30
Haridwar,Uttarakhand,29.9457,78.1642,29.0,53,0.0,973.6,7.2,36.7,71,30.3,28.9,4,5,7,1,2026-04-23T08:23:14.202357+05:30
Rishikesh,Uttarakhand,30.0869,78.2676,29.4,52,0.0,966.7,7.3,35.3,61,23.7,21.5,4,5,7,1,2026-04-23T08:23:14.202370+05:30
Nainital,Uttarakhand,29.3919,79.4542,26.2,34,0.0,809.9,8.15,40.3,59,22.4,20.1,4,5,7,0,2026-04-23T08:23:14.202381+05:30
Mussoorie,Uttarakhand,30.4599,78.0664,23.7,44,0.0,806.0,7.7,37.8,63,20.5,18.9,0,5,7,0,2026-04-23T08:23:14.202391+05:30
Dharamshala,Himachal Pradesh,32.219,76.3234,27.0,43,0.0,870.6,8.1,32.0,42,13.5,9.4,4,5,7,0,2026-04-23T08:23:14.202401+05:30
Dalhousie,Himachal Pradesh,32.5387,75.971,24.0,34,0.0,806.2,8.35,30.6,58,18.2,15.5,0,5,7,0,2026-04-23T08:23:14.202412+05:30
Patiala,Punjab,30.3398,76.3869,27.8,52,0.0,977.0,7.3,16.9,229,314.8,67.1,4,5,7,1,2026-04-23T08:23:14.202422+05:30
Bhatinda,Punjab,30.211,74.9455,30.8,41,0.0,982.3,8.0,24.8,79,58.3,34.3,0,5,7,0,2026-04-23T08:23:14.202432+05:30
Rohtak,Haryana,28.8955,76.6066,27.4,42,0.0,981.2,7.45,24.5,478,646.3,79.9,4,5,7,0,2026-04-23T08:23:14.202441+05:30
Panipat,Haryana,29.3909,76.9635,28.0,50,0.0,979.8,7.25,21.2,922,1199.5,143.9,4,5,7,1,2026-04-23T08:23:14.202452+05:30
Mathura,Uttar Pradesh,27.4924,77.6737,29.4,34,0.0,987.1,7.7,25.2,648,739.5,82.9,4,5,7,0,2026-04-23T08:23:14.202462+05:30
Vrindavan,Uttar Pradesh,27.5823,77.7027,30.0,35,0.0,987.4,7.65,27.4,648,739.5,82.9,4,5,7,0,2026-04-23T08:23:14.202471+05:30
Ayodhya,Uttar Pradesh,26.7922,82.1998,29.2,38,0.0,995.0,8.05,37.1,138,217.9,64.0,4,5,7,0,2026-04-23T08:23:14.202479+05:30
Ratlam,Madhya Pradesh,23.3315,75.0367,28.4,47,0.0,955.7,8.5,33.1,64,33.8,30.7,4,5,7,0,2026-04-23T08:23:14.202486+05:30
Sagar,Madhya Pradesh,23.8388,78.7378,29.6,31,0.0,951.9,8.65,34.6,44,17.5,16.1,4,5,7,0,2026-04-23T08:23:14.202493+05:30
Satna,Madhya Pradesh,24.6005,80.8322,31.5,29,0.0,972.1,8.65,30.6,60,11.8,10.7,0,5,7,0,2026-04-23T08:23:14.202499+05:30
Akola,Maharashtra,20.7002,77.0082,30.7,42,0.0,976.5,8.85,27.4,76,27.0,24.7,0,5,7,1,2026-04-23T08:23:14.202507+05:30
Amravati,Maharashtra,20.9374,77.7796,29.9,43,0.0,968.3,8.9,18.4,77,24.2,22.2,4,5,7,0,2026-04-23T08:23:14.202515+05:30
Latur,Maharashtra,18.4088,76.5604,28.9,45,0.0,941.0,8.95,43.6,116,40.5,37.0,4,5,7,0,2026-04-23T08:23:14.202521+05:30
Nanded,Maharashtra,19.1383,77.3091,30.1,52,0.0,969.6,9.05,33.1,119,48.8,46.0,0,5,7,1,2026-04-23T08:23:14.202528+05:30
Gulbarga,Karnataka,17.3297,76.8343,30.7,47,0.0,959.2,9.0,32.0,97,46.3,43.3,0,5,7,1,2026-04-23T08:23:14.202534+05:30
Bidar,Karnataka,17.9104,77.5199,30.2,45,0.0,936.5,7.85,37.4,113,49.4,46.0,0,5,7,1,2026-04-23T08:23:14.202540+05:30
Hospet,Karnataka,15.2689,76.3909,28.1,65,0.0,956.0,9.05,25.9,94,39.9,38.1,7,5,7,1,2026-04-23T08:23:14.202545+05:30
Tirupur,Tamil Nadu,11.1085,77.3411,28.7,72,0.0,975.8,9.35,32.4,67,23.7,22.6,7,5,7,1,2026-04-23T08:23:14.202551+05:30
Alappuzha,Kerala,9.4981,76.3388,28.6,83,0.0,1008.1,9.0,26.6,79,32.8,28.8,7,0,4,1,2026-04-23T08:23:14.202556+05:30
Munnar,Kerala,10.0889,77.0595,24.6,67,0.0,857.8,9.65,22.3,70,25.0,24.2,3,5,7,1,2026-04-23T08:23:14.202563+05:30
Silchar,Assam,24.8333,92.7789,25.1,88,0.0,1007.0,8.8,24.5,113,71.5,43.8,7,5,4,1,2026-04-23T08:23:14.202569+05:30
Dibrugarh,Assam,27.4728,94.912,24.5,83,0.0,997.6,8.65,10.8,75,19.7,15.5,3,5,7,1,2026-04-23T08:23:14.202575+05:30
