city,state,latitude,longitude,temp,humidity,rain,pressure,uv_index,wind_gusts,aqi,pm10,pm2_5,no2,co,o3,so2,mosquito_risk,arthritis_risk,migraine_risk,frizz_risk,updated_at
Delhi,Delhi,28.6139,77.209,41.4,18,0.0,972.9,7.8,42.1,501,618.4,106.9,13.5,264.0,141.0,10.3,0,5,10,0,2026-06-09T18:10:23.335792+05:30
Mumbai,Maharashtra,19.076,72.8777,30.7,74,0.0,1004.3,7.6,46.4,82,70.1,26.7,6.6,175.0,68.0,5.0,3,5,4,1,2026-06-09T18:10:23.335850+05:30
Bangalore,Karnataka,12.9716,77.5946,26.1,62,0.0,909.8,8.5,52.6,31,8.5,5.3,9.6,463.0,61.0,2.9,7,5,7,1,2026-06-09T18:10:23.335867+05:30
Hyderabad,Telangana,17.385,78.4867,27.2,81,0.0,949.2,8.6,42.8,62,32.1,19.1,8.0,346.0,93.0,3.5,7,5,7,1,2026-06-09T18:10:23.335880+05:30
Chennai,Tamil Nadu,13.0827,80.2707,32.7,51,0.1,1002.3,8.3,51.1,58,23.1,15.7,6.5,252.0,111.0,4.5,3,5,4,1,2026-06-09T18:10:23.335890+05:30
Kolkata,West Bengal,22.5726,88.3639,34.2,70,0.0,996.5,8.95,33.1,172,79.2,67.8,14.5,501.0,147.0,15.7,3,5,7,1,2026-06-09T18:10:23.335900+05:30
Pune,Maharashtra,18.5204,73.8567,27.9,71,0.0,944.9,6.65,47.2,51,35.5,15.5,3.7,148.0,79.0,3.6,7,5,7,1,2026-06-09T18:10:23.335909+05:30
Ahmedabad,Gujarat,23.0225,72.5714,38.6,38,0.0,993.7,8.05,41.8,89,66.4,25.5,2.7,159.0,101.0,3.4,0,5,10,1,2026-06-09T18:10:23.335918+05:30
Jaipur,Rajasthan,26.9124,75.7873,39.9,19,0.0,952.1,8.25,44.3,135,193.2,40.7,4.4,157.0,112.0,3.4,0,5,10,0,2026-06-09T18:10:23.335933+05:30
Lucknow,Uttar Pradesh,26.8467,80.9462,38.8,31,0.0,982.8,8.3,40.7,158,337.1,78.9,7.6,182.0,127.0,6.9,0,5,10,1,2026-06-09T18:10:23.335943+05:30
Kanpur,Uttar Pradesh,26.4499,80.3319,40.3,25,0.0,981.3,8.35,48.2,278,586.7,99.9,4.4,147.0,113.0,4.4,0,5,10,1,2026-06-09T18:10:23.335951+05:30
Chandigarh,Chandigarh,30.7333,76.7794,36.0,30,0.0,959.2,7.8,36.4,188,25.7,19.7,6.0,494.0,172.0,7.6,0,5,10,0,2026-06-09T18:10:23.335960+05:30
Srinagar,Jammu and Kashmir,34.0837,74.7973,26.9,39,0.0,838.9,9.0,20.9,134,16.1,8.9,3.5,313.0,150.0,2.1,4,5,7,0,2026-06-09T18:10:23.335969+05:30
Jammu,Jammu and Kashmir,32.7266,74.857,40.8,16,0.0,962.9,8.6,37.4,168,21.3,15.1,4.4,208.0,175.0,3.6,0,5,10,0,2026-06-09T18:10:23.335977+05:30
Amritsar,Punjab,31.634,74.8723,40.0,19,0.0,970.3,8.45,27.7,184,51.3,28.0,4.2,337.0,187.0,8.6,0,5,10,0,2026-06-09T18:10:23.335985+05:30
Ludhiana,Punjab,30.901,75.8573,40.4,18,0.0,968.4,8.0,39.6,178,82.0,26.8,3.3,259.0,171.0,5.2,0,5,10,0,2026-06-09T18:10:23.335993+05:30
Jalandhar,Punjab,31.326,75.5762,40.3,17,0.0,969.5,8.25,35.6,174,91.3,30.9,4.3,319.0,170.0,5.3,0,5,10,0,2026-06-09T18:10:23.336001+05:30
Dehradun,Uttarakhand,30.6284,78.0322,24.9,42,0.0,827.0,8.25,42.5,146,19.7,14.8,1.4,224.0,171.0,5.2,0,5,7,0,2026-06-09T18:10:23.336009+05:30
Shimla,Himachal Pradesh,31.1048,77.1734,22.6,33,0.0,783.1,8.35,52.2,154,24.4,15.5,1.6,216.0,161.0,3.4,0,5,7,0,2026-06-09T18:10:23.336019+05:30
Manali,Himachal Pradesh,32.2396,77.1887,20.6,71,0.0,816.6,9.95,35.3,113,15.3,12.4,11.3,172.0,139.0,0.5,3,5,7,0,2026-06-09T18:10:23.336028+05:30
Gurgaon,Haryana,28.4595,77.0266,40.2,21,0.0,971.4,7.9,41.0,1354,1981.9,258.0,12.5,293.0,123.0,8.9,0,5,10,0,2026-06-09T18:10:23.336039+05:30
Noida,Uttar Pradesh,28.5355,77.391,40.1,21,0.0,974.2,7.85,35.3,1354,1981.9,258.0,12.5,321.0,123.0,8.9,0,5,10,0,2026-06-09T18:10:23.336048+05:30
Ghaziabad,Uttar Pradesh,28.6692,77.4538,38.9,25,0.0,972.5,7.8,38.5,374,432.1,82.4,10.7,287.0,162.0,13.2,0,5,10,0,2026-06-09T18:10:23.336056+05:30
Faridabad,Haryana,28.4089,77.3178,40.9,19,0.0,973.6,7.85,45.4,1354,1981.9,258.0,12.5,258.0,123.0,8.9,0,5,10,0,2026-06-09T18:10:23.336085+05:30
Meerut,Uttar Pradesh,28.9845,77.7064,37.7,33,0.0,971.3,7.75,37.1,374,432.1,82.4,10.7,270.0,162.0,13.2,0,5,10,1,2026-06-09T18:10:23.336094+05:30
Agra,Uttar Pradesh,27.1767,78.0081,40.2,22,0.0,977.4,8.15,54.4,873,1877.5,239.3,8.5,168.0,105.0,5.4,0,5,10,0,2026-06-09T18:10:23.336102+05:30
Varanasi,Uttar Pradesh,25.3176,82.9739,39.5,23,0.0,987.1,8.8,41.0,125,85.9,32.1,5.7,243.0,140.0,7.8,0,5,10,0,2026-06-09T18:10:23.336109+05:30
Prayagraj,Uttar Pradesh,25.4358,81.8463,39.6,27,0.0,985.7,8.7,40.3,115,135.0,41.0,4.1,167.0,134.0,6.5,0,5,10,1,2026-06-09T18:10:23.336117+05:30
Gorakhpur,Uttar Pradesh,26.7606,83.3732,35.5,54,0.0,986.6,8.65,22.7,202,162.1,59.5,9.1,354.0,147.0,8.5,0,5,10,1,2026-06-09T18:10:23.336128+05:30
Bareilly,Uttar Pradesh,28.367,79.4304,36.4,39,0.0,976.2,8.15,27.0,205,96.9,44.4,5.8,333.0,192.0,13.4,0,5,10,1,2026-06-09T18:10:23.336136+05:30
Aligarh,Uttar Pradesh,27.8974,78.088,37.9,30,0.0,975.4,8.0,42.1,740,1199.5,183.0,9.2,192.0,137.0,9.2,0,5,10,1,2026-06-09T18:10:23.336144+05:30
Moradabad,Uttar Pradesh,28.8386,78.7733,37.4,34,0.0,973.3,7.95,37.8,221,89.9,46.9,10.2,366.0,175.0,11.4,0,5,10,1,2026-06-09T18:10:23.336151+05:30
Saharanpur,Uttar Pradesh,29.9637,77.546,35.7,34,0.0,965.5,7.5,36.4,197,113.4,38.1,9.9,367.0,168.0,11.4,0,5,10,1,2026-06-09T18:10:23.336161+05:30
Jhansi,Uttar Pradesh,25.4484,78.5685,38.8,29,0.0,969.2,8.5,45.7,78,87.8,31.3,1.9,147.0,105.0,3.7,0,5,10,1,2026-06-09T18:10:26.617508+05:30
Surat,Gujarat,21.1702,72.8311,32.4,65,0.0,1000.9,7.6,52.2,86,58.9,29.8,13.5,201.0,50.0,32.7,3,5,4,1,2026-06-09T18:10:26.617540+05:30
Vadodara,Gujarat,22.3072,73.1812,36.5,46,0.0,996.8,7.75,46.8,85,73.1,31.5,3.3,151.0,111.0,6.3,0,5,10,1,2026-06-09T18:10:26.617551+05:30
Rajkot,Gujarat,22.3039,70.8022,36.6,41,0.0,987.3,7.55,51.5,83,45.6,20.5,1.7,110.0,92.0,4.1,0,5,10,1,2026-06-09T18:10:26.617559+05:30
Thane,Maharashtra,19.2183,72.9781,31.3,70,0.0,1003.6,7.45,44.3,82,70.1,26.7,6.6,160.0,68.0,5.0,3,5,4,1,2026-06-09T18:10:26.617567+05:30
Nagpur,Maharashtra,21.1458,79.0882,39.5,25,0.0,965.8,8.9,40.0,109,55.5,25.8,6.0,188.0,131.0,15.4,0,5,10,0,2026-06-09T18:10:26.617575+05:30
Nashik,Maharashtra,19.9975,73.7898,31.1,53,0.0,941.6,7.95,48.2,71,65.2,22.7,1.6,123.0,72.0,1.1,0,5,7,1,2026-06-09T18:10:26.617583+05:30
Aurangabad,Maharashtra,19.8762,75.3433,35.7,25,0.0,939.2,8.95,49.7,71,49.4,19.2,1.6,138.0,112.0,2.6,0,5,10,0,2026-06-09T18:10:26.617591+05:30
Solapur,Maharashtra,17.6599,75.9064,31.9,52,0.0,953.2,7.7,39.6,58,43.8,18.5,2.3,132.0,106.0,2.4,0,5,7,1,2026-06-09T18:10:26.617599+05:30
Kolhapur,Maharashtra,16.705,74.2433,25.6,80,0.0,945.8,7.4,43.6,34,11.2,6.3,4.1,153.0,65.0,1.7,7,5,7,1,2026-06-09T18:10:26.617606+05:30
Goa,Goa,15.2993,74.124,24.6,98,0.2,997.0,4.9,32.0,28,7.4,4.3,2.5,162.0,57.0,0.6,6,5,3,1,2026-06-09T18:10:26.617614+05:30
Jodhpur,Rajasthan,26.2389,73.0243,39.0,31,0.0,974.5,8.45,48.2,152,340.9,61.5,1.3,124.0,97.0,1.6,0,5,10,1,2026-06-09T18:10:26.617622+05:30
Udaipur,Rajasthan,24.5854,73.7125,34.9,40,0.0,940.5,8.85,44.6,81,78.0,32.2,1.0,131.0,110.0,4.7,0,5,7,1,2026-06-09T18:10:26.617630+05:30
Kota,Rajasthan,25.2138,75.8648,39.0,26,0.0,970.3,8.4,38.5,80,37.6,18.3,1.8,163.0,123.0,4.2,0,5,10,0,2026-06-09T18:10:26.617637+05:30
Bikaner,Rajasthan,28.0229,73.3119,42.2,18,0.0,971.8,8.45,42.1,127,121.1,39.1,0.6,124.0,107.0,2.5,0,5,10,0,2026-06-09T18:10:26.617644+05:30
Ajmer,Rajasthan,26.4499,74.6399,35.7,38,0.0,947.5,8.4,50.4,78,52.9,20.6,1.3,140.0,113.0,2.1,0,5,10,1,2026-06-09T18:10:26.617651+05:30
Gwalior,Madhya Pradesh,26.2183,78.1828,39.9,24,0.0,973.8,8.3,52.2,87,108.7,37.0,2.0,134.0,103.0,2.4,0,5,10,0,2026-06-09T18:10:26.617659+05:30
Indore,Madhya Pradesh,22.7196,75.8577,36.9,27,0.0,942.3,8.65,50.8,81,46.1,22.4,2.0,185.0,114.0,3.5,0,5,10,0,2026-06-09T18:10:26.617666+05:30
Bhopal,Madhya Pradesh,23.2599,77.4126,37.4,27,0.0,947.2,8.7,39.6,84,53.4,24.7,1.6,229.0,111.0,3.6,0,5,10,0,2026-06-09T18:10:26.617674+05:30
Jabalpur,Madhya Pradesh,23.1815,79.9864,37.3,34,0.0,953.9,8.85,34.6,81,43.3,21.0,2.3,153.0,118.0,3.4,0,5,10,1,2026-06-09T18:10:26.617681+05:30
Ujjain,Madhya Pradesh,23.1765,75.7885,36.4,29,0.0,947.7,8.6,49.3,79,42.8,21.8,1.1,150.0,111.0,3.1,0,5,10,0,2026-06-09T18:10:26.617689+05:30
Visakhapatnam,Andhra Pradesh,17.6868,83.2185,34.1,56,0.0,995.6,8.5,42.5,166,56.6,45.8,25.4,512.0,145.0,55.7,0,5,7,1,2026-06-09T18:10:26.617696+05:30
Vijayawada,Andhra Pradesh,16.5062,80.648,34.5,49,0.0,996.1,8.7,42.8,67,35.5,25.9,6.2,199.0,113.0,4.8,0,5,7,1,2026-06-09T18:10:26.617703+05:30
Guntur,Andhra Pradesh,16.3067,80.4365,33.7,56,0.0,997.6,8.3,42.5,66,39.0,24.9,4.0,177.0,119.0,4.4,0,5,7,1,2026-06-09T18:10:26.617710+05:30
Nellore,Andhra Pradesh,14.4426,79.9865,35.3,43,0.0,1000.3,7.7,50.0,47,18.5,13.0,6.6,148.0,99.0,4.6,0,5,7,1,2026-06-09T18:10:26.617718+05:30
Kurnool,Andhra Pradesh,15.8281,78.0373,28.4,72,0.1,973.4,8.35,49.0,42,24.8,13.5,2.8,155.0,106.0,6.3,10,5,7,1,2026-06-09T18:10:26.617727+05:30
Kakinada,Andhra Pradesh,16.9891,82.2475,34.7,53,0.0,999.7,8.5,46.1,110,30.9,21.9,3.5,243.0,129.0,3.7,0,5,7,1,2026-06-09T18:10:26.617734+05:30
Tirupati,Andhra Pradesh,13.6288,79.4192,32.8,51,0.0,986.5,8.05,46.4,38,17.9,10.0,5.3,183.0,78.0,1.3,0,5,7,1,2026-06-09T18:10:26.617740+05:30
Warangal,Telangana,17.9689,79.5941,34.6,47,0.0,972.4,8.7,37.8,83,67.5,33.5,2.7,179.0,115.0,4.2,0,5,7,1,2026-06-09T18:10:26.617747+05:30
Nizamabad,Telangana,18.6725,78.0941,32.6,53,0.2,959.3,8.45,40.7,86,65.9,27.7,1.8,153.0,109.0,3.0,3,5,7,1,2026-06-09T18:10:26.617754+05:30
Mysore,Karnataka,12.2958,76.6396,24.2,77,0.0,927.4,8.15,48.2,29,3.5,2.5,5.1,152.0,60.0,1.5,3,5,7,1,2026-06-09T18:10:26.617760+05:30
Mangalore,Karnataka,12.9141,74.856,26.4,92,0.0,1006.7,4.1,33.1,31,12.1,7.0,6.4,144.0,46.0,1.4,7,5,0,1,2026-06-09T18:10:26.617768+05:30
Hubli-Dharwad,Karnataka,15.3647,75.124,25.4,76,0.0,939.0,6.15,47.5,29,3.6,2.7,6.2,145.0,51.0,0.9,7,5,7,1,2026-06-09T18:10:26.617775+05:30
Belgaum,Karnataka,15.8497,74.4977,24.0,82,0.0,924.0,1.55,40.0,28,3.2,2.9,5.7,136.0,56.0,1.9,3,5,3,1,2026-06-09T18:10:29.903227+05:30
Coimbatore,Tamil Nadu,11.0168,76.9558,24.7,86,0.0,959.6,4.65,54.7,25,3.0,2.9,7.2,179.0,51.0,2.4,3,5,3,1,2026-06-09T18:10:29.903259+05:30
Madurai,Tamil Nadu,9.9252,78.1198,32.0,51,0.0,990.1,8.45,61.2,36,5.6,3.7,3.9,125.0,76.0,1.8,0,5,7,1,2026-06-09T18:10:29.903270+05:30
Trichy,Tamil Nadu,10.7905,78.7047,31.9,53,0.0,996.4,8.3,64.8,34,5.0,3.2,3.0,118.0,66.0,1.5,0,5,7,1,2026-06-09T18:10:29.903279+05:30
Salem,Tamil Nadu,11.6643,78.146,32.4,49,0.1,974.5,6.5,43.6,36,5.2,4.4,5.7,154.0,75.0,5.8,3,5,7,1,2026-06-09T18:10:29.903324+05:30
Tirunelveli,Tamil Nadu,8.7139,77.7567,30.9,59,0.0,1002.0,7.95,55.8,26,7.2,4.5,2.8,102.0,53.0,0.9,0,5,4,1,2026-06-09T18:10:29.903338+05:30
Vellore,Tamil Nadu,12.9165,79.1325,34.3,41,0.0,980.0,7.45,50.8,39,6.4,4.6,3.5,182.0,85.0,2.4,0,5,7,1,2026-06-09T18:10:29.903347+05:30
Erode,Tamil Nadu,11.341,77.7172,29.0,67,0.0,986.7,5.6,52.6,31,5.0,4.4,7.1,150.0,60.0,2.6,7,5,3,1,2026-06-09T18:10:29.903355+05:30
Kochi,Kerala,9.9312,76.2673,26.1,91,0.1,1009.3,5.9,46.4,32,10.9,7.3,9.1,128.0,37.0,2.2,10,0,0,1,2026-06-09T18:10:29.903363+05:30
Thiruvananthapuram,Kerala,8.5241,76.9366,26.4,87,0.0,1008.6,7.65,58.3,34,12.3,6.4,1.5,105.0,51.0,0.6,7,0,4,1,2026-06-09T18:10:29.903371+05:30
Kozhikode,Kerala,11.2588,75.7804,24.9,98,0.3,1008.4,7.95,29.2,27,7.1,3.8,1.1,152.0,60.0,0.4,6,0,4,1,2026-06-09T18:10:29.903378+05:30
Thrissur,Kerala,10.5276,76.2144,25.4,96,0.2,1007.6,7.85,34.2,32,8.7,6.6,7.3,167.0,41.0,1.5,10,5,4,1,2026-06-09T18:10:29.903387+05:30
Kannur,Kerala,11.8745,75.3704,25.9,95,0.1,1007.5,7.35,28.1,24,8.8,5.7,8.9,158.0,43.0,1.1,10,5,4,1,2026-06-09T18:10:29.903394+05:30
Patna,Bihar,25.5941,85.1376,34.5,54,0.0,989.9,8.85,22.0,177,186.7,67.3,17.4,388.0,122.0,10.6,0,5,7,1,2026-06-09T18:10:29.903401+05:30
Gaya,Bihar,24.7914,85.0002,35.5,45,0.0,984.0,7.7,36.7,156,151.8,52.7,8.8,318.0,124.0,8.6,0,5,10,1,2026-06-09T18:10:29.903408+05:30
Muzaffarpur,Bihar,26.1209,85.3647,32.0,66,0.0,990.1,8.8,30.6,208,163.0,78.5,19.3,471.0,149.0,13.9,3,5,7,1,2026-06-09T18:10:29.903415+05:30
Bhagalpur,Bihar,25.2425,87.0117,35.0,53,0.0,991.1,8.85,25.9,208,103.8,56.7,8.8,344.0,173.0,15.1,0,5,7,1,2026-06-09T18:10:29.903422+05:30
Ranchi,Jharkhand,23.3441,85.3096,30.4,53,0.0,930.9,8.75,35.6,132,152.3,48.2,6.5,291.0,122.0,5.9,0,5,7,1,2026-06-09T18:10:29.903429+05:30
Jamshedpur,Jharkhand,22.8046,86.2029,33.4,58,0.0,982.3,9.1,31.0,164,86.4,49.8,11.1,305.0,134.0,14.3,0,5,7,1,2026-06-09T18:10:29.903436+05:30
Dhanbad,Jharkhand,23.7957,86.4304,36.7,28,0.0,971.1,8.9,52.2,161,129.5,62.4,27.6,260.0,119.0,63.6,0,5,10,0,2026-06-09T18:10:29.903443+05:30
Bokaro,Jharkhand,23.6693,86.1511,34.6,47,0.0,974.9,8.1,54.4,165,150.4,65.4,21.8,228.0,136.0,68.7,0,5,7,1,2026-06-09T18:10:29.903450+05:30
Bhubaneswar,Odisha,20.2961,85.8245,33.9,58,0.0,994.2,8.6,33.8,147,49.4,38.9,10.5,420.0,130.0,8.3,0,5,7,1,2026-06-09T18:10:29.903456+05:30
Cuttack,Odisha,20.4625,85.8828,33.7,67,0.0,995.8,8.2,33.5,147,49.4,38.9,10.5,441.0,130.0,8.3,3,5,7,1,2026-06-09T18:10:29.903463+05:30
Rourkela,Odisha,22.2604,84.8536,36.5,37,0.0,976.8,8.9,33.8,123,93.8,36.3,8.6,284.0,107.0,3.8,0,5,10,1,2026-06-09T18:10:29.903470+05:30
Raipur,Chhattisgarh,21.2514,81.6296,38.3,28,0.0,966.8,8.65,39.2,118,78.2,39.1,10.8,151.0,157.0,32.7,0,5,10,1,2026-06-09T18:10:29.903477+05:30
Bhilai,Chhattisgarh,21.1938,81.3509,37.9,30,0.0,967.1,8.55,40.7,108,75.0,36.0,11.9,230.0,137.0,29.9,0,5,10,1,2026-06-09T18:10:29.903483+05:30
Guwahati,Assam,26.1158,91.7086,27.4,90,0.1,993.4,8.8,30.2,86,30.2,22.8,4.5,369.0,115.0,4.4,10,5,7,1,2026-06-09T18:10:29.903491+05:30
Agartala,Tripura,23.8315,91.2868,27.7,93,0.1,998.4,8.85,36.0,76,33.4,25.1,10.5,216.0,89.0,3.2,10,5,7,1,2026-06-09T18:10:29.903498+05:30
Shillong,Meghalaya,25.5788,91.8933,21.7,79,0.0,852.4,7.3,31.7,82,16.3,11.4,4.4,292.0,120.0,3.0,3,5,7,1,2026-06-09T18:10:29.903505+05:30
Imphal,Manipur,24.817,93.9368,25.4,75,0.0,917.6,8.4,34.9,68,31.1,21.9,5.2,299.0,94.0,3.6,7,5,7,1,2026-06-09T18:10:29.903512+05:30
Aizawl,Mizoram,23.7271,92.7176,22.9,79,0.0,887.5,8.85,34.9,54,25.7,17.6,3.0,195.0,85.0,2.2,3,5,7,1,2026-06-09T18:10:29.903518+05:30
Kohima,Nagaland,25.6701,94.1077,20.5,97,0.0,850.7,6.7,29.2,50,19.1,14.0,5.5,260.0,92.0,2.7,3,5,7,1,2026-06-09T18:10:29.903525+05:30
Gangtok,Sikkim,27.3314,88.6138,19.6,91,0.0,832.3,8.95,36.4,118,29.9,19.7,3.9,341.0,143.0,6.0,3,10,7,1,2026-06-09T18:10:29.903532+05:30
Siliguri,West Bengal,26.7271,88.3953,27.9,84,0.0,984.5,8.75,23.0,149,52.6,38.6,7.3,636.0,155.0,10.2,7,5,7,1,2026-06-09T18:10:33.195999+05:30
Durgapur,West Bengal,23.5204,87.3119,34.1,52,0.0,985.3,8.85,33.8,209,120.1,89.6,30.2,452.0,163.0,57.8,0,5,7,1,2026-06-09T18:10:33.196031+05:30
Asansol,West Bengal,23.6739,86.9524,35.2,41,0.0,984.1,8.8,43.2,164,112.2,69.6,33.6,399.0,114.0,39.4,0,5,10,1,2026-06-09T18:10:33.196043+05:30
Pondicherry,Puducherry,11.9139,79.8145,35.2,46,0.0,1003.1,8.1,50.0,48,8.2,7.5,7.6,219.0,99.0,3.6,0,5,7,1,2026-06-09T18:10:33.196052+05:30
Port Blair,Andaman and Nicobar Islands,11.6234,92.7265,25.8,95,0.1,1005.1,8.75,47.5,24,7.5,4.4,0.6,101.0,55.0,0.4,10,5,4,1,2026-06-09T18:10:33.196061+05:30
Haridwar,Uttarakhand,29.9457,78.1642,35.2,36,0.0,963.8,7.65,30.2,184,45.3,27.9,4.8,295.0,188.0,11.3,0,5,10,1,2026-06-09T18:10:33.196069+05:30
Rishikesh,Uttarakhand,30.0869,78.2676,35.3,43,0.0,957.0,7.75,24.5,167,29.7,22.8,1.9,262.0,198.0,10.0,0,5,10,1,2026-06-09T18:10:33.196076+05:30
Nainital,Uttarakhand,29.3919,79.4542,22.0,51,0.0,802.3,8.6,42.5,170,50.3,25.0,2.1,224.0,181.0,7.4,0,5,7,0,2026-06-09T18:10:33.196083+05:30
Mussoorie,Uttarakhand,30.4599,78.0664,22.4,50,0.0,800.1,8.15,53.6,180,35.0,23.4,3.2,232.0,194.0,9.8,0,5,7,0,2026-06-09T18:10:33.196091+05:30
Dharamshala,Himachal Pradesh,32.219,76.3234,25.5,50,0.1,864.4,8.5,47.2,144,15.4,10.9,1.1,192.0,164.0,1.8,7,5,7,0,2026-06-09T18:10:33.196098+05:30
Dalhousie,Himachal Pradesh,32.5387,75.971,20.8,63,0.1,802.2,8.75,38.5,170,28.6,18.6,3.1,217.0,179.0,3.3,6,5,7,0,2026-06-09T18:10:33.196107+05:30
Patiala,Punjab,30.3398,76.3869,39.6,19,0.0,968.2,7.65,42.5,334,765.5,100.4,3.5,257.0,170.0,6.4,0,5,10,0,2026-06-09T18:10:33.196114+05:30
Bhatinda,Punjab,30.211,74.9455,41.0,21,0.0,973.1,8.35,33.5,145,145.3,43.2,3.4,173.0,125.0,6.2,0,5,10,0,2026-06-09T18:10:33.196121+05:30
Rohtak,Haryana,28.8955,76.6066,38.3,33,0.0,971.4,7.85,31.3,629,707.8,115.0,9.6,268.0,124.0,6.1,0,5,10,1,2026-06-09T18:10:33.196128+05:30
Panipat,Haryana,29.3909,76.9635,37.5,29,0.0,970.1,7.7,34.6,892,2011.7,265.4,8.3,271.0,134.0,8.5,0,5,10,1,2026-06-09T18:10:33.196135+05:30
Mathura,Uttar Pradesh,27.4924,77.6737,37.4,39,0.0,976.4,8.1,49.0,645,517.8,98.0,9.8,210.0,100.0,4.2,0,5,10,1,2026-06-09T18:10:33.196142+05:30
Vrindavan,Uttar Pradesh,27.5823,77.7027,37.6,35,0.0,976.9,8.05,48.2,645,517.8,98.0,9.8,172.0,100.0,4.2,0,5,10,1,2026-06-09T18:10:33.196148+05:30
Ayodhya,Uttar Pradesh,26.7922,82.1998,35.9,49,0.0,984.5,8.45,19.4,168,137.8,51.6,8.6,302.0,139.0,7.5,0,5,10,1,2026-06-09T18:10:33.196155+05:30
Ratlam,Madhya Pradesh,23.3315,75.0367,35.6,38,0.0,948.7,8.55,43.9,79,49.4,24.4,0.8,130.0,110.0,3.2,0,5,10,1,2026-06-09T18:10:33.196162+05:30
Sagar,Madhya Pradesh,23.8388,78.7378,35.1,38,0.1,943.6,8.05,41.4,76,67.5,27.6,1.1,141.0,114.0,3.3,3,5,10,1,2026-06-09T18:10:33.196169+05:30
Satna,Madhya Pradesh,24.6005,80.8322,37.5,30,0.0,963.0,8.8,42.8,83,67.1,25.4,1.3,150.0,119.0,2.9,0,5,10,1,2026-06-09T18:10:33.196176+05:30
Akola,Maharashtra,20.7002,77.0082,39.0,25,0.0,968.1,8.8,42.8,77,55.9,23.9,2.2,136.0,116.0,5.2,0,5,10,0,2026-06-09T18:10:33.196184+05:30
Amravati,Maharashtra,20.9374,77.7796,37.8,30,0.0,960.7,8.85,43.9,80,54.7,24.4,2.7,143.0,118.0,6.3,0,5,10,1,2026-06-09T18:10:33.196192+05:30
Latur,Maharashtra,18.4088,76.5604,31.6,51,0.0,935.7,7.8,39.2,69,58.2,24.5,2.0,140.0,99.0,2.1,0,5,7,1,2026-06-09T18:10:33.196199+05:30
Nanded,Maharashtra,19.1383,77.3091,35.9,35,0.0,962.7,8.9,38.2,85,67.8,24.7,1.8,145.0,105.0,1.9,0,5,10,1,2026-06-09T18:10:33.196206+05:30
Gulbarga,Karnataka,17.3297,76.8343,28.4,70,0.1,955.1,5.05,41.0,54,40.3,18.1,3.2,152.0,104.0,2.7,10,5,3,1,2026-06-09T18:10:33.196213+05:30
Bidar,Karnataka,17.9104,77.5199,24.8,95,0.0,931.1,5.35,50.4,73,61.5,28.5,4.2,158.0,104.0,3.3,3,5,3,1,2026-06-09T18:10:33.196220+05:30
Hospet,Karnataka,15.2689,76.3909,25.8,85,0.1,953.4,8.1,46.8,33,6.0,4.0,4.2,170.0,70.0,1.4,10,5,7,1,2026-06-09T18:10:33.196228+05:30
Tirupur,Tamil Nadu,11.1085,77.3411,26.5,79,0.0,973.2,5.2,55.1,30,6.0,5.5,10.0,153.0,57.0,3.7,7,5,3,1,2026-06-09T18:10:33.196235+05:30
Alappuzha,Kerala,9.4981,76.3388,25.8,93,0.2,1009.6,8.35,49.7,33,13.0,7.3,5.0,88.0,49.0,1.2,10,0,4,1,2026-06-09T18:10:33.196241+05:30
Munnar,Kerala,10.0889,77.0595,17.4,100,0.3,855.6,2.15,52.9,25,3.2,2.8,5.0,108.0,49.0,1.1,6,10,3,1,2026-06-09T18:10:33.196249+05:30
Silchar,Assam,24.8333,92.7789,28.1,88,0.0,998.1,8.7,26.3,75,37.4,25.9,5.0,331.0,94.0,4.3,7,5,7,1,2026-06-09T18:10:33.196255+05:30
Dibrugarh,Assam,27.4728,94.912,26.2,99,0.2,988.4,7.6,23.4,94,24.5,21.5,6.3,268.0,107.0,2.0,10,5,7,1,2026-06-09T18:10:33.196262+05:30
