city,state,latitude,longitude,temp,humidity,rain,pressure,uv_index,wind_gusts,aqi,pm10,pm2_5,no2,co,o3,so2,mosquito_risk,arthritis_risk,migraine_risk,frizz_risk,updated_at
Delhi,Delhi,28.6139,77.209,32.8,43,0.0,978.2,7.8,37.8,510,961.1,166.2,26.0,305.0,80.0,13.9,0,5,7,1,2026-06-22T21:24:19.877751+05:30
Mumbai,Maharashtra,19.076,72.8777,28.0,83,0.1,1006.4,7.7,41.4,40,10.4,7.6,11.5,280.0,40.0,8.7,10,5,4,1,2026-06-22T21:24:19.877834+05:30
Bangalore,Karnataka,12.9716,77.5946,21.0,95,0.0,913.2,8.35,46.4,31,12.0,11.3,31.8,411.0,30.0,8.0,3,5,7,1,2026-06-22T21:24:19.877856+05:30
Hyderabad,Telangana,17.385,78.4867,28.0,69,0.0,952.8,9.05,41.4,48,17.9,17.2,24.7,476.0,43.0,7.0,7,5,7,1,2026-06-22T21:24:19.877867+05:30
Chennai,Tamil Nadu,13.0827,80.2707,28.9,83,0.0,1007.2,8.6,34.6,87,25.4,19.9,9.0,225.0,110.0,7.4,7,5,4,1,2026-06-22T21:24:19.877878+05:30
Kolkata,West Bengal,22.5726,88.3639,27.8,91,0.0,1002.3,7.9,30.6,124,46.8,45.3,18.3,834.0,79.0,12.7,7,5,4,1,2026-06-22T21:24:19.877888+05:30
Pune,Maharashtra,18.5204,73.8567,24.7,84,0.0,946.8,7.35,43.9,32,6.6,6.1,12.5,178.0,41.0,6.5,3,5,7,1,2026-06-22T21:24:19.877896+05:30
Ahmedabad,Gujarat,23.0225,72.5714,31.0,69,0.0,998.5,8.0,42.8,70,60.5,25.4,13.9,158.0,57.0,5.4,3,5,7,1,2026-06-22T21:24:19.877905+05:30
Jaipur,Rajasthan,26.9124,75.7873,30.4,51,0.0,956.2,8.2,39.6,121,143.9,59.5,37.4,470.0,33.0,11.5,0,5,7,1,2026-06-22T21:24:19.877914+05:30
Lucknow,Uttar Pradesh,26.8467,80.9462,35.2,34,0.0,987.9,8.35,37.1,162,228.2,59.8,10.2,225.0,91.0,5.7,0,5,10,1,2026-06-22T21:24:19.877927+05:30
Kanpur,Uttar Pradesh,26.4499,80.3319,35.4,33,0.0,986.7,8.3,41.8,209,499.2,88.0,9.0,213.0,89.0,5.1,0,5,10,1,2026-06-22T21:24:19.877936+05:30
Chandigarh,Chandigarh,30.7333,76.7794,28.4,52,0.0,963.8,5.85,41.0,139,39.9,34.1,21.9,703.0,109.0,11.2,4,5,3,1,2026-06-22T21:24:19.877944+05:30
Srinagar,Jammu and Kashmir,34.0837,74.7973,18.7,76,0.0,840.3,8.2,25.6,85,25.7,22.9,27.0,886.0,55.0,1.5,3,5,7,0,2026-06-22T21:24:19.877952+05:30
Jammu,Jammu and Kashmir,32.7266,74.857,30.6,42,0.0,967.8,8.6,34.9,109,41.7,28.8,22.3,545.0,96.0,4.4,0,5,7,1,2026-06-22T21:24:19.877960+05:30
Amritsar,Punjab,31.634,74.8723,28.5,68,0.0,975.7,8.45,24.1,156,60.1,43.7,19.2,655.0,116.0,12.7,7,5,7,1,2026-06-22T21:24:19.877969+05:30
Ludhiana,Punjab,30.901,75.8573,29.1,60,0.0,973.8,7.7,42.5,125,129.5,50.8,14.4,460.0,110.0,5.5,4,5,7,1,2026-06-22T21:24:19.877977+05:30
Jalandhar,Punjab,31.326,75.5762,29.4,62,0.0,974.7,8.2,28.4,136,76.8,44.8,17.3,719.0,111.0,7.3,7,5,7,1,2026-06-22T21:24:19.877984+05:30
Dehradun,Uttarakhand,30.6284,78.0322,17.9,91,0.0,827.1,7.7,22.7,97,38.6,23.6,22.4,274.0,92.0,2.7,3,10,7,1,2026-06-22T21:24:19.877991+05:30
Shimla,Himachal Pradesh,31.1048,77.1734,14.9,70,0.0,781.4,6.9,16.9,98,33.2,24.7,18.0,309.0,100.0,6.0,3,5,7,0,2026-06-22T21:24:19.878002+05:30
Manali,Himachal Pradesh,32.2396,77.1887,16.5,70,0.0,815.8,8.45,41.0,98,5.9,4.7,72.0,318.0,60.0,0.4,3,5,7,0,2026-06-22T21:24:19.878011+05:30
Gurgaon,Haryana,28.4595,77.0266,31.6,47,0.0,976.7,7.85,39.6,971,661.2,118.7,35.9,527.0,67.0,12.9,0,5,7,1,2026-06-22T21:24:19.878020+05:30
Noida,Uttar Pradesh,28.5355,77.391,31.8,53,0.0,979.5,7.85,35.3,971,661.2,118.7,35.9,410.0,67.0,12.9,0,5,7,1,2026-06-22T21:24:19.878028+05:30
Ghaziabad,Uttar Pradesh,28.6692,77.4538,31.2,54,0.0,977.7,7.8,38.9,414,732.0,144.8,25.7,297.0,83.0,16.6,0,5,7,1,2026-06-22T21:24:19.878035+05:30
Faridabad,Haryana,28.4089,77.3178,33.0,42,0.0,978.9,7.85,42.1,971,661.2,118.7,35.9,447.0,67.0,12.9,0,5,7,1,2026-06-22T21:24:19.878045+05:30
Meerut,Uttar Pradesh,28.9845,77.7064,30.0,59,0.0,976.4,7.5,41.8,414,732.0,144.8,25.7,381.0,83.0,16.6,4,5,7,1,2026-06-22T21:24:19.878053+05:30
Agra,Uttar Pradesh,27.1767,78.0081,33.1,44,0.0,983.2,8.1,41.4,568,894.1,135.0,19.9,315.0,67.0,7.5,0,5,7,1,2026-06-22T21:24:19.878060+05:30
Varanasi,Uttar Pradesh,25.3176,82.9739,35.0,45,0.0,992.0,8.8,37.1,103,67.1,41.4,19.3,574.0,68.0,10.6,0,5,7,1,2026-06-22T21:24:19.878068+05:30
Prayagraj,Uttar Pradesh,25.4358,81.8463,35.3,35,0.0,990.6,8.7,36.7,100,68.7,33.6,10.7,211.0,79.0,6.9,0,5,10,1,2026-06-22T21:24:19.878076+05:30
Gorakhpur,Uttar Pradesh,26.7606,83.3732,31.8,70,0.0,991.6,8.65,30.2,159,234.2,92.7,27.3,503.0,87.0,16.1,3,5,7,1,2026-06-22T21:24:19.878083+05:30
Bareilly,Uttar Pradesh,28.367,79.4304,31.2,53,0.0,981.3,8.1,44.3,164,117.3,59.3,12.9,302.0,124.0,12.2,0,5,7,1,2026-06-22T21:24:19.878092+05:30
Aligarh,Uttar Pradesh,27.8974,78.088,30.9,50,0.0,980.8,7.95,40.7,577,704.1,127.6,21.6,252.0,88.0,9.4,0,5,7,1,2026-06-22T21:24:19.878101+05:30
Moradabad,Uttar Pradesh,28.8386,78.7733,30.7,54,0.0,978.3,7.95,39.2,168,189.1,69.4,17.2,370.0,100.0,10.1,0,5,7,1,2026-06-22T21:24:19.878108+05:30
Saharanpur,Uttar Pradesh,29.9637,77.546,29.3,45,0.0,970.6,7.3,38.5,155,532.7,115.7,14.2,327.0,100.0,9.6,4,5,7,1,2026-06-22T21:24:19.878116+05:30
Jhansi,Uttar Pradesh,25.4484,78.5685,33.0,46,0.0,973.7,8.45,46.8,87,80.8,32.9,7.6,184.0,61.0,2.9,0,5,7,1,2026-06-22T21:24:23.224442+05:30
Surat,Gujarat,21.1702,72.8311,29.5,77,0.0,1004.3,5.95,34.6,59,17.7,14.2,23.2,217.0,26.0,37.2,7,5,0,1,2026-06-22T21:24:23.224476+05:30
Vadodara,Gujarat,22.3072,73.1812,30.5,68,0.0,1001.3,7.6,43.2,52,17.3,13.7,15.6,148.0,48.0,15.1,3,5,4,1,2026-06-22T21:24:23.224488+05:30
Rajkot,Gujarat,22.3039,70.8022,30.1,71,0.0,991.0,7.55,48.2,67,55.2,21.0,4.2,121.0,59.0,4.1,3,5,7,1,2026-06-22T21:24:23.224497+05:30
Thane,Maharashtra,19.2183,72.9781,27.6,84,0.0,1006.0,7.7,34.2,40,10.4,7.6,11.5,277.0,40.0,8.7,7,5,4,1,2026-06-22T21:24:23.224505+05:30
Nagpur,Maharashtra,21.1458,79.0882,28.7,67,0.0,971.2,8.2,50.8,69,22.2,19.7,19.2,226.0,72.0,22.8,7,5,7,1,2026-06-22T21:24:23.224514+05:30
Nashik,Maharashtra,19.9975,73.7898,24.7,87,0.0,944.1,7.05,39.2,38,7.6,6.8,8.1,179.0,63.0,4.3,3,5,7,1,2026-06-22T21:24:23.224522+05:30
Aurangabad,Maharashtra,19.8762,75.3433,27.1,76,0.0,943.2,8.95,57.6,42,8.3,8.2,6.2,207.0,81.0,4.9,7,5,7,1,2026-06-22T21:24:23.224529+05:30
Solapur,Maharashtra,17.6599,75.9064,26.6,81,0.0,956.7,8.9,51.1,34,6.4,6.2,7.8,160.0,55.0,2.1,7,5,7,1,2026-06-22T21:24:23.224538+05:30
Kolhapur,Maharashtra,16.705,74.2433,23.9,87,0.0,947.7,8.8,47.5,27,6.4,6.0,8.7,163.0,38.0,2.6,3,5,7,1,2026-06-22T21:24:23.224546+05:30
Goa,Goa,15.2993,74.124,24.8,98,0.3,999.1,8.25,37.8,24,11.4,7.7,3.3,210.0,46.0,0.7,6,5,7,1,2026-06-22T21:24:23.224555+05:30
Jodhpur,Rajasthan,26.2389,73.0243,33.5,42,0.0,978.6,8.4,36.7,126,156.9,38.5,12.3,201.0,56.0,2.4,0,5,7,1,2026-06-22T21:24:23.224564+05:30
Udaipur,Rajasthan,24.5854,73.7125,29.2,51,0.0,943.6,8.8,35.3,71,55.1,22.2,5.2,203.0,72.0,3.1,4,5,7,1,2026-06-22T21:24:23.224572+05:30
Kota,Rajasthan,25.2138,75.8648,31.1,56,0.0,974.9,8.3,38.5,95,76.6,41.3,15.3,433.0,59.0,5.7,0,5,7,1,2026-06-22T21:24:23.224580+05:30
Bikaner,Rajasthan,28.0229,73.3119,33.6,37,0.0,976.9,8.45,33.8,148,125.7,39.6,7.7,145.0,69.0,2.5,0,5,7,1,2026-06-22T21:24:23.224588+05:30
Ajmer,Rajasthan,26.4499,74.6399,29.5,55,0.0,951.0,8.35,43.6,94,66.1,31.1,11.8,180.0,58.0,3.5,4,5,7,1,2026-06-22T21:24:23.224596+05:30
Gwalior,Madhya Pradesh,26.2183,78.1828,33.6,37,0.0,978.8,8.25,49.7,90,101.5,41.1,8.4,226.0,68.0,3.2,0,5,7,1,2026-06-22T21:24:23.224604+05:30
Indore,Madhya Pradesh,22.7196,75.8577,28.6,63,0.0,946.0,8.25,52.2,71,31.2,25.4,18.3,382.0,43.0,6.2,7,5,7,1,2026-06-22T21:24:23.224611+05:30
Bhopal,Madhya Pradesh,23.2599,77.4126,26.3,83,0.0,951.3,8.65,58.3,83,20.1,15.9,7.3,440.0,65.0,3.6,7,5,7,1,2026-06-22T21:24:23.224619+05:30
Jabalpur,Madhya Pradesh,23.1815,79.9864,30.0,66,0.0,959.2,8.3,44.6,87,48.9,32.5,12.7,204.0,68.0,4.5,7,5,7,1,2026-06-22T21:24:23.224627+05:30
Ujjain,Madhya Pradesh,23.1765,75.7885,28.7,66,0.0,951.4,8.55,51.1,71,33.4,25.4,8.6,333.0,53.0,3.5,7,5,7,1,2026-06-22T21:24:23.224636+05:30
Visakhapatnam,Andhra Pradesh,17.6868,83.2185,28.7,90,0.0,1002.0,4.7,46.8,86,36.2,31.3,25.3,408.0,95.0,40.6,7,5,0,1,2026-06-22T21:24:23.224644+05:30
Vijayawada,Andhra Pradesh,16.5062,80.648,29.9,76,0.0,1001.5,4.1,32.0,79,31.0,29.8,15.4,297.0,69.0,8.9,7,5,0,1,2026-06-22T21:24:23.224652+05:30
Guntur,Andhra Pradesh,16.3067,80.4365,30.3,81,0.0,1002.6,8.25,47.5,75,27.0,25.8,13.8,268.0,72.0,6.7,3,5,4,1,2026-06-22T21:24:23.224660+05:30
Nellore,Andhra Pradesh,14.4426,79.9865,29.0,72,0.0,1005.4,8.0,41.4,102,25.3,22.8,8.5,272.0,107.0,7.1,7,5,4,1,2026-06-22T21:24:23.224669+05:30
Kurnool,Andhra Pradesh,15.8281,78.0373,26.4,80,0.0,977.4,8.9,52.6,35,8.1,7.7,8.6,169.0,55.0,3.8,7,5,7,1,2026-06-22T21:24:23.224678+05:30
Kakinada,Andhra Pradesh,16.9891,82.2475,29.0,89,0.0,1006.0,8.15,53.6,106,34.9,27.1,4.3,592.0,123.0,6.0,7,5,4,1,2026-06-22T21:24:23.224687+05:30
Tirupati,Andhra Pradesh,13.6288,79.4192,25.6,93,0.2,992.1,8.85,43.6,73,20.4,19.7,28.2,393.0,35.0,3.5,10,5,7,1,2026-06-22T21:24:23.224694+05:30
Warangal,Telangana,17.9689,79.5941,29.8,70,0.0,977.1,8.4,36.7,60,31.9,31.1,22.5,366.0,54.0,7.0,7,5,7,1,2026-06-22T21:24:23.224702+05:30
Nizamabad,Telangana,18.6725,78.0941,26.4,78,0.1,964.6,8.3,53.6,49,11.4,10.3,5.4,351.0,83.0,2.4,10,5,7,1,2026-06-22T21:24:23.224710+05:30
Mysore,Karnataka,12.2958,76.6396,21.8,95,0.0,930.1,8.7,42.8,30,5.9,5.3,9.6,147.0,44.0,2.3,3,5,7,1,2026-06-22T21:24:23.224718+05:30
Mangalore,Karnataka,12.9141,74.856,24.6,97,0.4,1009.6,8.5,37.8,27,12.9,9.3,7.9,157.0,35.0,2.0,6,0,4,1,2026-06-22T21:24:23.224727+05:30
Hubli-Dharwad,Karnataka,15.3647,75.124,22.7,93,0.0,941.8,8.9,50.0,26,2.8,2.5,5.9,120.0,42.0,1.1,3,5,7,1,2026-06-22T21:24:23.224736+05:30
Belgaum,Karnataka,15.8497,74.4977,22.1,93,0.0,925.8,8.95,47.2,24,4.7,4.0,6.5,134.0,40.0,1.7,3,5,7,1,2026-06-22T21:24:26.566355+05:30
Coimbatore,Tamil Nadu,11.0168,76.9558,23.9,88,0.0,963.4,8.75,52.2,28,6.3,5.6,8.6,150.0,41.0,3.2,3,5,7,1,2026-06-22T21:24:26.566389+05:30
Madurai,Tamil Nadu,9.9252,78.1198,29.0,60,0.0,994.1,7.75,45.7,50,20.4,19.4,39.6,431.0,17.0,6.6,4,5,7,1,2026-06-22T21:24:26.566401+05:30
Trichy,Tamil Nadu,10.7905,78.7047,27.2,83,0.0,1001.0,7.95,42.8,39,12.7,11.8,14.8,336.0,55.0,4.1,7,5,4,1,2026-06-22T21:24:26.566410+05:30
Salem,Tamil Nadu,11.6643,78.146,25.1,96,0.0,979.1,8.75,39.2,43,12.7,12.1,17.4,349.0,54.0,5.8,7,5,7,1,2026-06-22T21:24:26.566420+05:30
Tirunelveli,Tamil Nadu,8.7139,77.7567,28.9,66,0.0,1004.8,7.7,37.8,31,7.3,6.3,7.1,196.0,46.0,1.5,7,5,4,1,2026-06-22T21:24:26.566428+05:30
Vellore,Tamil Nadu,12.9165,79.1325,24.5,95,0.1,985.8,8.95,32.4,68,14.3,13.9,15.6,531.0,55.0,3.5,6,5,7,1,2026-06-22T21:24:26.566437+05:30
Erode,Tamil Nadu,11.341,77.7172,25.9,80,0.0,990.9,8.6,32.8,36,10.5,9.3,13.5,269.0,48.0,3.4,7,5,7,1,2026-06-22T21:24:26.566446+05:30
Kochi,Kerala,9.9312,76.2673,26.1,91,0.0,1011.9,8.0,37.1,35,15.8,13.9,19.5,157.0,24.0,4.6,7,0,4,1,2026-06-22T21:24:26.566454+05:30
Thiruvananthapuram,Kerala,8.5241,76.9366,25.5,89,0.0,1011.1,8.0,38.5,29,8.6,5.1,2.1,116.0,53.0,0.8,7,0,4,1,2026-06-22T21:24:26.566462+05:30
Kozhikode,Kerala,11.2588,75.7804,24.5,99,0.1,1011.3,8.15,33.1,26,5.4,3.4,1.2,193.0,55.0,0.6,6,0,4,1,2026-06-22T21:24:26.566470+05:30
Thrissur,Kerala,10.5276,76.2144,24.7,98,0.1,1010.5,8.15,31.7,34,14.7,13.2,13.8,316.0,29.0,3.7,6,0,4,1,2026-06-22T21:24:26.566479+05:30
Kannur,Kerala,11.8745,75.3704,24.9,97,0.1,1010.6,8.6,32.4,26,8.3,5.6,5.2,164.0,44.0,1.3,6,0,4,1,2026-06-22T21:24:26.566487+05:30
Patna,Bihar,25.5941,85.1376,31.7,69,0.0,995.1,8.65,32.4,149,85.2,57.9,27.0,515.0,76.0,13.6,3,5,7,1,2026-06-22T21:24:26.566495+05:30
Gaya,Bihar,24.7914,85.0002,31.6,62,0.0,988.6,8.65,40.3,98,58.6,38.6,14.1,321.0,73.0,8.5,3,5,7,1,2026-06-22T21:24:26.566503+05:30
Muzaffarpur,Bihar,26.1209,85.3647,29.1,79,0.0,995.5,8.4,33.8,167,96.2,69.2,17.8,627.0,123.0,15.4,7,5,7,1,2026-06-22T21:24:26.566511+05:30
Bhagalpur,Bihar,25.2425,87.0117,29.1,80,0.0,996.6,8.7,31.7,143,86.6,53.6,16.1,287.0,94.0,11.1,7,5,7,1,2026-06-22T21:24:26.566519+05:30
Ranchi,Jharkhand,23.3441,85.3096,25.9,81,0.0,934.8,7.25,36.7,94,41.1,33.4,10.9,212.0,81.0,4.9,7,5,7,1,2026-06-22T21:24:26.566528+05:30
Jamshedpur,Jharkhand,22.8046,86.2029,27.9,86,0.0,987.1,3.7,28.1,128,56.9,48.8,20.9,725.0,97.0,22.6,7,5,3,1,2026-06-22T21:24:26.566535+05:30
Dhanbad,Jharkhand,23.7957,86.4304,28.3,82,0.0,975.7,6.45,32.4,150,82.9,69.6,58.1,2004.0,52.0,129.4,7,5,7,1,2026-06-22T21:24:26.566543+05:30
Bokaro,Jharkhand,23.6693,86.1511,28.7,80,0.0,979.6,2.85,36.7,119,61.9,54.6,39.6,396.0,64.0,98.9,7,5,3,1,2026-06-22T21:24:26.566551+05:30
Bhubaneswar,Odisha,20.2961,85.8245,27.7,90,0.0,1000.0,6.9,48.6,84,30.2,28.7,10.8,329.0,97.0,7.8,7,5,4,1,2026-06-22T21:24:26.566558+05:30
Cuttack,Odisha,20.4625,85.8828,28.0,90,0.0,1001.8,7.0,42.8,84,30.2,28.7,10.8,381.0,97.0,7.8,7,5,4,1,2026-06-22T21:24:26.566566+05:30
Rourkela,Odisha,22.2604,84.8536,28.2,86,0.0,982.1,8.2,30.6,158,37.4,32.0,5.5,451.0,133.0,6.7,7,5,7,1,2026-06-22T21:24:26.566574+05:30
Raipur,Chhattisgarh,21.2514,81.6296,29.1,71,0.0,973.0,8.95,50.4,91,30.7,27.5,18.8,203.0,91.0,31.1,7,5,7,1,2026-06-22T21:24:26.566582+05:30
Bhilai,Chhattisgarh,21.1938,81.3509,30.1,64,0.0,973.5,9.0,51.1,88,32.0,28.4,17.0,397.0,91.0,27.4,3,5,7,1,2026-06-22T21:24:26.566589+05:30
Guwahati,Assam,26.1158,91.7086,25.7,98,0.0,998.2,8.65,20.2,65,35.4,29.9,12.4,570.0,61.0,3.9,7,5,7,1,2026-06-22T21:24:26.566597+05:30
Agartala,Tripura,23.8315,91.2868,25.7,96,0.0,1003.4,7.95,27.4,61,20.5,19.7,12.7,262.0,65.0,2.8,7,5,4,1,2026-06-22T21:24:26.566605+05:30
Shillong,Meghalaya,25.5788,91.8933,19.7,91,0.0,855.3,5.65,27.4,47,16.5,13.8,7.2,266.0,80.0,2.3,3,10,3,1,2026-06-22T21:24:26.566612+05:30
Imphal,Manipur,24.817,93.9368,22.4,94,0.0,921.0,5.3,24.1,70,25.5,23.9,18.5,345.0,34.0,3.6,3,5,3,1,2026-06-22T21:24:26.566622+05:30
Aizawl,Mizoram,23.7271,92.7176,19.4,98,0.0,890.3,7.75,29.9,33,3.4,3.3,4.9,169.0,48.0,0.6,3,10,7,1,2026-06-22T21:24:26.566630+05:30
Kohima,Nagaland,25.6701,94.1077,19.8,94,0.0,853.3,6.75,24.8,52,15.5,12.8,9.2,369.0,47.0,1.2,3,10,7,1,2026-06-22T21:24:26.566638+05:30
Gangtok,Sikkim,27.3314,88.6138,18.5,94,0.5,835.2,8.15,27.4,56,6.9,6.4,11.9,369.0,97.0,1.5,6,10,7,1,2026-06-22T21:24:26.566646+05:30
Siliguri,West Bengal,26.7271,88.3953,24.7,99,0.1,989.7,7.05,20.2,80,46.1,35.0,11.1,553.0,117.0,6.4,6,5,7,1,2026-06-22T21:24:29.913531+05:30
Durgapur,West Bengal,23.5204,87.3119,28.2,80,0.0,990.8,8.4,32.8,154,64.3,57.4,35.0,1206.0,82.0,55.7,7,5,7,1,2026-06-22T21:24:29.913563+05:30
Asansol,West Bengal,23.6739,86.9524,28.3,80,0.0,989.3,5.85,33.1,151,73.3,59.5,42.5,450.0,70.0,57.9,7,5,3,1,2026-06-22T21:24:29.913575+05:30
Pondicherry,Puducherry,11.9139,79.8145,28.2,78,0.0,1009.0,8.6,38.2,67,15.2,12.5,9.3,254.0,83.0,6.3,7,0,4,1,2026-06-22T21:24:29.913584+05:30
Port Blair,Andaman and Nicobar Islands,11.6234,92.7265,27.5,82,0.0,1008.6,8.6,37.8,29,10.7,6.3,0.3,91.0,40.0,0.3,7,0,4,1,2026-06-22T21:24:29.913593+05:30
Haridwar,Uttarakhand,29.9457,78.1642,29.3,54,0.0,968.8,7.6,28.4,141,219.8,56.5,12.1,479.0,112.0,11.6,4,5,7,1,2026-06-22T21:24:29.913602+05:30
Rishikesh,Uttarakhand,30.0869,78.2676,28.2,58,0.0,961.7,7.65,24.1,141,66.1,27.9,8.2,414.0,131.0,9.4,4,5,7,1,2026-06-22T21:24:29.913610+05:30
Nainital,Uttarakhand,29.3919,79.4542,17.1,90,0.0,803.4,6.85,25.9,129,56.9,31.2,9.3,370.0,118.0,5.2,3,10,7,0,2026-06-22T21:24:29.913619+05:30
Mussoorie,Uttarakhand,30.4599,78.0664,16.5,91,0.0,800.1,7.6,32.0,125,48.3,29.1,20.2,379.0,112.0,10.2,3,10,7,0,2026-06-22T21:24:29.913627+05:30
Dharamshala,Himachal Pradesh,32.219,76.3234,21.1,61,0.0,865.7,8.15,36.4,76,12.7,10.5,13.5,281.0,74.0,0.6,3,5,7,0,2026-06-22T21:24:29.913635+05:30
Dalhousie,Himachal Pradesh,32.5387,75.971,13.7,87,0.0,799.9,7.8,27.7,103,32.7,22.2,21.8,565.0,101.0,2.1,3,10,7,0,2026-06-22T21:24:29.913643+05:30
Patiala,Punjab,30.3398,76.3869,29.5,56,0.0,973.3,6.95,37.4,341,1367.2,222.1,11.5,454.0,108.0,7.4,4,5,7,1,2026-06-22T21:24:29.913651+05:30
Bhatinda,Punjab,30.211,74.9455,29.5,64,0.0,979.0,8.3,33.5,110,81.5,45.1,25.8,298.0,63.0,6.4,7,5,7,1,2026-06-22T21:24:29.913659+05:30
Rohtak,Haryana,28.8955,76.6066,29.8,58,0.0,976.9,7.0,38.2,623,1054.3,172.8,26.1,375.0,73.0,6.7,4,5,7,1,2026-06-22T21:24:29.913667+05:30
Panipat,Haryana,29.3909,76.9635,30.0,53,0.0,975.5,7.25,34.9,1649,2794.0,392.1,16.6,343.0,90.0,7.1,4,5,7,1,2026-06-22T21:24:29.913674+05:30
Mathura,Uttar Pradesh,27.4924,77.6737,31.0,50,0.0,982.0,8.05,34.2,544,590.5,95.7,25.3,364.0,62.0,5.1,0,5,7,1,2026-06-22T21:24:29.913682+05:30
Vrindavan,Uttar Pradesh,27.5823,77.7027,30.7,52,0.0,982.4,8.0,33.8,544,590.5,95.7,25.3,327.0,62.0,5.1,0,5,7,1,2026-06-22T21:24:29.913689+05:30
Ayodhya,Uttar Pradesh,26.7922,82.1998,32.8,54,0.0,989.3,8.05,32.4,158,155.5,62.2,13.9,486.0,89.0,9.2,0,5,7,1,2026-06-22T21:24:29.913697+05:30
Ratlam,Madhya Pradesh,23.3315,75.0367,29.1,64,0.0,952.3,7.7,39.6,66,29.6,20.8,4.5,175.0,64.0,3.2,7,5,7,1,2026-06-22T21:24:29.913704+05:30
Sagar,Madhya Pradesh,23.8388,78.7378,27.8,65,0.0,948.0,8.7,34.6,94,47.5,26.3,6.8,170.0,77.0,3.5,7,5,7,1,2026-06-22T21:24:29.913712+05:30
Satna,Madhya Pradesh,24.6005,80.8322,31.6,54,0.0,967.5,8.8,40.0,80,48.3,27.4,9.4,198.0,70.0,3.2,0,5,7,1,2026-06-22T21:24:29.913719+05:30
Akola,Maharashtra,20.7002,77.0082,27.5,86,0.2,973.8,8.8,54.0,56,16.3,14.1,10.7,170.0,72.0,6.2,10,5,7,1,2026-06-22T21:24:29.913728+05:30
Amravati,Maharashtra,20.9374,77.7796,31.2,56,0.0,966.1,8.8,40.3,59,17.8,15.7,14.7,161.0,62.0,6.6,0,5,7,1,2026-06-22T21:24:29.913736+05:30
Latur,Maharashtra,18.4088,76.5604,25.8,93,0.3,938.8,8.85,55.1,34,4.9,4.5,3.2,196.0,64.0,0.8,10,5,7,1,2026-06-22T21:24:29.913745+05:30
Nanded,Maharashtra,19.1383,77.3091,25.0,94,0.6,968.4,8.2,62.6,53,13.3,12.3,7.5,165.0,74.0,4.6,10,5,7,1,2026-06-22T21:24:29.913752+05:30
Gulbarga,Karnataka,17.3297,76.8343,26.6,83,0.1,958.4,8.9,54.0,37,6.2,5.9,7.8,136.0,64.0,2.0,10,5,7,1,2026-06-22T21:24:29.913760+05:30
Bidar,Karnataka,17.9104,77.5199,25.6,85,0.0,934.9,8.25,37.1,43,10.6,10.2,12.8,181.0,63.0,2.4,7,5,7,1,2026-06-22T21:24:29.913767+05:30
Hospet,Karnataka,15.2689,76.3909,25.4,79,0.0,956.7,8.95,47.2,31,4.7,3.9,6.0,145.0,49.0,1.5,7,5,7,1,2026-06-22T21:24:29.913774+05:30
Tirupur,Tamil Nadu,11.1085,77.3411,24.7,86,0.0,977.0,8.55,53.6,35,11.2,10.1,14.9,157.0,44.0,4.4,3,5,7,1,2026-06-22T21:24:29.913782+05:30
Alappuzha,Kerala,9.4981,76.3388,26.4,90,0.0,1011.9,5.7,36.7,29,13.4,11.0,11.0,86.0,39.0,2.5,7,0,0,1,2026-06-22T21:24:29.913790+05:30
Munnar,Kerala,10.0889,77.0595,16.5,100,0.0,858.4,8.55,36.4,29,7.8,7.2,9.0,116.0,42.0,2.3,3,10,7,1,2026-06-22T21:24:29.913798+05:30
Silchar,Assam,24.8333,92.7789,25.2,98,0.1,1002.8,8.1,32.0,76,25.6,21.7,8.8,297.0,61.0,4.6,10,5,4,1,2026-06-22T21:24:29.913806+05:30
Dibrugarh,Assam,27.4728,94.912,25.4,99,0.1,991.9,7.15,24.5,70,21.8,18.5,11.5,291.0,65.0,2.1,10,5,7,1,2026-06-22T21:24:29.913813+05:30
