city,state,latitude,longitude,temp,humidity,rain,pressure,uv_index,wind_gusts,aqi,pm10,pm2_5,mosquito_risk,arthritis_risk,migraine_risk,frizz_risk,updated_at
Delhi,Delhi,28.6139,77.209,37.8,21,0.0,979.4,7.2,28.4,168,263.6,38.1,0,5,10,0,2026-04-19T17:07:14.039990+05:30
Mumbai,Maharashtra,19.076,72.8777,29.9,69,0.0,1005.7,7.9,25.9,109,33.2,20.7,7,5,4,1,2026-04-19T17:07:14.040048+05:30
Bangalore,Karnataka,12.9716,77.5946,34.9,21,0.0,909.8,9.6,29.2,145,29.7,23.9,0,5,7,0,2026-04-19T17:07:14.040064+05:30
Hyderabad,Telangana,17.385,78.4867,36.7,32,0.0,950.4,9.25,27.0,130,48.0,36.6,0,5,10,1,2026-04-19T17:07:14.040074+05:30
Chennai,Tamil Nadu,13.0827,80.2707,32.8,57,0.0,1004.4,9.3,36.0,36,12.4,8.0,0,5,4,1,2026-04-19T17:07:14.040083+05:30
Kolkata,West Bengal,22.5726,88.3639,31.6,72,0.0,1002.5,8.9,32.4,80,34.9,27.1,3,5,4,1,2026-04-19T17:07:14.040095+05:30
Pune,Maharashtra,18.5204,73.8567,35.1,40,0.0,946.6,8.65,37.1,142,41.9,35.3,0,5,10,1,2026-04-19T17:07:14.040104+05:30
Ahmedabad,Gujarat,23.0225,72.5714,39.7,12,0.0,998.9,8.0,25.6,71,25.2,9.6,0,5,10,0,2026-04-19T17:07:14.040111+05:30
Jaipur,Rajasthan,26.9124,75.7873,39.0,10,0.0,957.3,7.85,40.3,107,220.3,29.7,0,5,10,0,2026-04-19T17:07:14.040119+05:30
Lucknow,Uttar Pradesh,26.8467,80.9462,40.6,14,0.0,988.2,7.9,37.4,149,134.6,27.4,0,5,10,0,2026-04-19T17:07:14.040126+05:30
Kanpur,Uttar Pradesh,26.4499,80.3319,38.5,25,0.0,987.1,7.9,23.4,194,339.9,41.3,0,5,10,0,2026-04-19T17:07:14.040133+05:30
Chandigarh,Chandigarh,30.7333,76.7794,33.2,30,0.0,967.1,6.1,33.8,110,59.8,16.1,0,5,7,0,2026-04-19T17:07:14.040140+05:30
Srinagar,Jammu and Kashmir,34.0837,74.7973,16.4,69,0.0,843.8,7.25,21.2,63,29.0,10.1,3,5,7,0,2026-04-19T17:07:14.040147+05:30
Jammu,Jammu and Kashmir,32.7266,74.857,33.6,29,0.0,972.4,5.4,32.4,61,65.7,15.9,0,5,3,0,2026-04-19T17:07:14.040154+05:30
Amritsar,Punjab,31.634,74.8723,33.1,33,0.0,980.0,7.35,25.9,75,64.0,17.9,0,5,7,0,2026-04-19T17:07:14.040161+05:30
Ludhiana,Punjab,30.901,75.8573,33.9,26,0.0,977.8,7.3,42.5,98,82.0,18.8,0,5,7,0,2026-04-19T17:07:14.040169+05:30
Jalandhar,Punjab,31.326,75.5762,33.6,30,0.0,979.0,6.45,28.1,84,74.7,17.2,0,5,7,0,2026-04-19T17:07:14.040175+05:30
Dehradun,Uttarakhand,30.6284,78.0322,22.9,40,0.0,832.2,6.3,46.1,87,50.2,11.9,0,5,7,0,2026-04-19T17:07:14.040182+05:30
Shimla,Himachal Pradesh,31.1048,77.1734,22.0,34,0.0,787.6,6.75,45.7,94,47.7,12.3,0,5,7,0,2026-04-19T17:07:14.040188+05:30
Manali,Himachal Pradesh,32.2396,77.1887,16.5,67,0.1,823.3,6.95,40.7,75,11.9,3.9,6,5,7,0,2026-04-19T17:07:14.040195+05:30
Gurgaon,Haryana,28.4595,77.0266,37.5,21,0.0,978.0,7.3,25.2,495,1072.9,102.0,0,5,10,0,2026-04-19T17:07:14.040202+05:30
Noida,Uttar Pradesh,28.5355,77.391,37.9,22,0.0,980.9,7.25,26.6,495,1072.9,102.0,0,5,10,0,2026-04-19T17:07:14.040208+05:30
Ghaziabad,Uttar Pradesh,28.6692,77.4538,37.7,22,0.0,979.0,7.2,29.2,152,204.0,35.5,0,5,10,0,2026-04-19T17:07:14.040214+05:30
Faridabad,Haryana,28.4089,77.3178,37.8,20,0.0,980.3,7.3,28.8,495,1072.9,102.0,0,5,10,0,2026-04-19T17:07:14.040222+05:30
Meerut,Uttar Pradesh,28.9845,77.7064,38.1,20,0.0,977.7,6.6,31.7,152,204.0,35.5,0,5,10,0,2026-04-19T17:07:14.040228+05:30
Agra,Uttar Pradesh,27.1767,78.0081,39.9,18,0.0,983.4,7.55,27.7,366,767.4,69.8,0,5,10,0,2026-04-19T17:07:14.040236+05:30
Varanasi,Uttar Pradesh,25.3176,82.9739,41.5,14,0.0,991.8,8.45,29.5,153,105.2,24.8,0,5,10,0,2026-04-19T17:07:14.040242+05:30
Prayagraj,Uttar Pradesh,25.4358,81.8463,40.7,16,0.0,990.7,8.35,29.9,153,105.2,23.6,0,5,10,0,2026-04-19T17:07:14.040251+05:30
Gorakhpur,Uttar Pradesh,26.7606,83.3732,39.9,23,0.0,991.1,8.3,32.4,156,66.6,28.6,0,5,10,0,2026-04-19T17:07:14.040258+05:30
Bareilly,Uttar Pradesh,28.367,79.4304,38.5,20,0.0,982.2,7.35,32.8,138,61.5,17.5,0,5,10,0,2026-04-19T17:07:14.040264+05:30
Aligarh,Uttar Pradesh,27.8974,78.088,39.0,16,0.0,981.6,7.5,39.6,208,676.1,67.3,0,5,10,0,2026-04-19T17:07:14.040270+05:30
Moradabad,Uttar Pradesh,28.8386,78.7733,37.9,20,0.0,979.5,7.4,37.1,141,61.9,18.6,0,5,10,0,2026-04-19T17:07:14.040276+05:30
Saharanpur,Uttar Pradesh,29.9637,77.546,36.0,23,0.0,972.6,6.75,36.0,134,85.2,21.9,0,5,10,0,2026-04-19T17:07:14.040282+05:30
Jhansi,Uttar Pradesh,25.4484,78.5685,37.6,24,0.0,974.3,8.25,32.0,96,36.9,10.6,0,5,10,0,2026-04-19T17:07:17.307407+05:30
Surat,Gujarat,21.1702,72.8311,32.3,45,0.0,1004.0,7.75,25.2,98,57.6,44.4,0,5,4,1,2026-04-19T17:07:17.307446+05:30
Vadodara,Gujarat,22.3072,73.1812,39.5,16,0.0,1000.9,8.15,29.9,99,29.2,16.2,0,5,7,0,2026-04-19T17:07:17.307456+05:30
Rajkot,Gujarat,22.3039,70.8022,37.2,17,0.0,992.1,7.55,27.0,74,12.8,7.7,0,5,10,0,2026-04-19T17:07:17.307464+05:30
Thane,Maharashtra,19.2183,72.9781,31.5,60,0.0,1005.3,8.05,37.4,109,33.2,20.7,0,5,4,1,2026-04-19T17:07:17.307471+05:30
Nagpur,Maharashtra,21.1458,79.0882,41.0,14,0.0,968.3,8.9,21.6,144,26.3,23.1,0,5,10,0,2026-04-19T17:07:17.307478+05:30
Nashik,Maharashtra,19.9975,73.7898,34.7,31,0.0,944.3,6.8,33.5,112,41.4,33.3,0,5,7,0,2026-04-19T17:07:17.307486+05:30
Aurangabad,Maharashtra,19.8762,75.3433,33.8,32,0.0,942.8,9.05,46.8,130,34.7,27.7,0,5,7,0,2026-04-19T17:07:17.307493+05:30
Solapur,Maharashtra,17.6599,75.9064,34.8,37,0.0,954.8,8.85,52.6,158,53.1,44.1,0,5,7,1,2026-04-19T17:07:17.307501+05:30
Kolhapur,Maharashtra,16.705,74.2433,31.2,64,0.0,945.5,9.0,45.7,154,39.9,33.8,3,5,7,1,2026-04-19T17:07:17.307508+05:30
Goa,Goa,15.2993,74.124,30.9,68,0.0,995.7,9.0,28.8,86,49.0,24.6,3,5,7,1,2026-04-19T17:07:17.307515+05:30
Jodhpur,Rajasthan,26.2389,73.0243,38.6,14,0.0,980.4,8.15,28.4,100,111.8,17.5,0,5,10,0,2026-04-19T17:07:17.307521+05:30
Udaipur,Rajasthan,24.5854,73.7125,36.8,15,0.0,945.0,8.65,40.3,79,15.5,8.7,0,5,10,0,2026-04-19T17:07:17.307528+05:30
Kota,Rajasthan,25.2138,75.8648,41.5,11,0.0,974.7,8.2,36.7,82,21.0,10.0,0,5,10,0,2026-04-19T17:07:17.307534+05:30
Bikaner,Rajasthan,28.0229,73.3119,38.9,15,0.0,979.1,7.9,25.2,113,109.9,18.4,0,5,10,0,2026-04-19T17:07:17.307541+05:30
Ajmer,Rajasthan,26.4499,74.6399,37.3,11,0.0,953.0,7.6,32.4,87,59.0,14.5,0,5,10,0,2026-04-19T17:07:17.307547+05:30
Gwalior,Madhya Pradesh,26.2183,78.1828,39.7,16,0.0,979.4,7.45,29.9,106,38.5,12.1,0,5,10,0,2026-04-19T17:07:17.307553+05:30
Indore,Madhya Pradesh,22.7196,75.8577,37.7,18,0.0,946.1,8.6,31.0,91,20.4,14.8,0,5,10,0,2026-04-19T17:07:17.307559+05:30
Bhopal,Madhya Pradesh,23.2599,77.4126,38.8,15,0.0,951.2,8.6,34.9,121,34.9,19.2,0,5,10,0,2026-04-19T17:07:17.307566+05:30
Jabalpur,Madhya Pradesh,23.1815,79.9864,40.0,19,0.0,957.5,8.75,21.2,123,27.5,14.5,0,5,10,0,2026-04-19T17:07:17.307573+05:30
Ujjain,Madhya Pradesh,23.1765,75.7885,38.3,17,0.0,951.7,8.5,33.5,82,22.9,17.4,0,5,10,0,2026-04-19T17:07:17.307579+05:30
Visakhapatnam,Andhra Pradesh,17.6868,83.2185,31.0,69,0.0,1001.4,9.15,36.7,64,23.2,16.0,3,5,4,1,2026-04-19T17:07:17.307586+05:30
Vijayawada,Andhra Pradesh,16.5062,80.648,36.2,40,0.0,998.7,9.25,31.0,57,23.2,16.1,0,5,10,1,2026-04-19T17:07:17.307592+05:30
Guntur,Andhra Pradesh,16.3067,80.4365,34.5,47,0.0,1000.3,9.25,34.6,61,27.5,20.0,0,5,4,1,2026-04-19T17:07:17.307598+05:30
Nellore,Andhra Pradesh,14.4426,79.9865,33.9,60,0.0,1002.1,9.25,33.8,58,21.9,16.1,0,5,4,1,2026-04-19T17:07:17.307606+05:30
Kurnool,Andhra Pradesh,15.8281,78.0373,40.8,19,0.0,972.1,9.2,32.4,124,47.7,36.6,0,5,10,0,2026-04-19T17:07:17.307613+05:30
Kakinada,Andhra Pradesh,16.9891,82.2475,34.3,50,0.0,1004.5,9.2,32.0,51,17.9,10.1,0,5,4,1,2026-04-19T17:07:17.307620+05:30
Tirupati,Andhra Pradesh,13.6288,79.4192,36.5,32,0.0,988.3,9.35,34.6,63,26.4,20.6,0,5,10,1,2026-04-19T17:07:17.307626+05:30
Warangal,Telangana,17.9689,79.5941,39.1,31,0.0,974.5,9.15,30.6,92,46.1,36.2,0,5,10,1,2026-04-19T17:07:17.307633+05:30
Nizamabad,Telangana,18.6725,78.0941,40.5,13,0.0,960.6,9.0,41.0,158,40.2,31.2,0,5,10,0,2026-04-19T17:07:17.307639+05:30
Mysore,Karnataka,12.2958,76.6396,36.1,20,0.0,925.9,9.5,43.6,125,29.6,23.2,0,5,10,0,2026-04-19T17:07:17.307645+05:30
Mangalore,Karnataka,12.9141,74.856,29.8,82,0.0,1004.0,9.1,22.3,70,39.0,23.2,7,5,4,1,2026-04-19T17:07:17.307651+05:30
Hubli-Dharwad,Karnataka,15.3647,75.124,32.9,50,0.0,938.8,9.2,32.0,119,35.7,29.4,0,5,7,1,2026-04-19T17:07:17.307658+05:30
Belgaum,Karnataka,15.8497,74.4977,27.3,73,0.0,924.3,9.25,32.4,129,39.2,30.0,7,5,7,1,2026-04-19T17:07:20.573513+05:30
Coimbatore,Tamil Nadu,11.0168,76.9558,34.4,40,0.0,958.8,9.4,55.4,125,32.6,26.2,0,5,7,1,2026-04-19T17:07:20.573543+05:30
Madurai,Tamil Nadu,9.9252,78.1198,38.5,25,0.0,989.0,9.3,41.8,99,19.5,14.5,0,5,10,0,2026-04-19T17:07:20.573553+05:30
Trichy,Tamil Nadu,10.7905,78.7047,37.4,30,0.0,996.0,9.3,28.4,61,17.9,12.7,0,5,10,1,2026-04-19T17:07:20.573562+05:30
Salem,Tamil Nadu,11.6643,78.146,37.7,30,0.0,973.8,9.35,21.6,93,25.0,17.9,0,5,10,1,2026-04-19T17:07:20.573569+05:30
Tirunelveli,Tamil Nadu,8.7139,77.7567,34.8,47,0.0,999.7,9.25,51.5,91,20.3,15.7,0,5,7,1,2026-04-19T17:07:20.573576+05:30
Vellore,Tamil Nadu,12.9165,79.1325,35.6,34,0.0,981.6,9.4,29.9,82,24.4,18.6,0,5,10,1,2026-04-19T17:07:20.573583+05:30
Erode,Tamil Nadu,11.341,77.7172,39.2,23,0.0,985.0,9.35,28.4,113,26.0,19.1,0,5,10,0,2026-04-19T17:07:20.573590+05:30
Kochi,Kerala,9.9312,76.2673,30.2,79,0.0,1005.5,9.15,25.2,74,18.2,14.1,3,5,4,1,2026-04-19T17:07:20.573597+05:30
Thiruvananthapuram,Kerala,8.5241,76.9366,29.5,79,0.0,1005.5,9.1,27.4,68,24.7,16.8,7,5,4,1,2026-04-19T17:07:20.573604+05:30
Kozhikode,Kerala,11.2588,75.7804,31.1,73,0.0,1005.0,9.1,31.3,63,27.1,17.1,3,5,4,1,2026-04-19T17:07:20.573611+05:30
Thrissur,Kerala,10.5276,76.2144,32.4,67,0.0,1004.1,9.15,33.8,68,22.8,16.8,3,5,4,1,2026-04-19T17:07:20.573619+05:30
Kannur,Kerala,11.8745,75.3704,31.7,66,0.0,1004.7,9.1,34.2,69,35.6,21.9,3,5,4,1,2026-04-19T17:07:20.573625+05:30
Patna,Bihar,25.5941,85.1376,37.7,38,0.0,994.7,8.6,27.0,166,93.8,37.1,0,5,10,1,2026-04-19T17:07:20.573632+05:30
Gaya,Bihar,24.7914,85.0002,40.1,15,0.0,988.1,8.7,34.9,165,99.9,26.4,0,5,10,0,2026-04-19T17:07:20.573638+05:30
Muzaffarpur,Bihar,26.1209,85.3647,35.4,45,0.0,995.2,8.6,29.5,158,82.2,42.7,0,5,10,1,2026-04-19T17:07:20.573645+05:30
Bhagalpur,Bihar,25.2425,87.0117,33.7,57,0.0,996.2,8.65,27.0,165,69.2,49.5,0,5,7,1,2026-04-19T17:07:20.573651+05:30
Ranchi,Jharkhand,23.3441,85.3096,36.9,14,0.0,935.0,9.2,45.0,184,45.3,21.4,0,5,10,0,2026-04-19T17:07:20.573658+05:30
Jamshedpur,Jharkhand,22.8046,86.2029,38.7,30,0.0,985.2,9.0,37.1,205,71.5,53.1,0,5,10,1,2026-04-19T17:07:20.573664+05:30
Dhanbad,Jharkhand,23.7957,86.4304,41.0,13,0.0,974.5,8.95,33.8,166,71.0,27.4,0,5,10,0,2026-04-19T17:07:20.573671+05:30
Bokaro,Jharkhand,23.6693,86.1511,40.6,14,0.0,978.4,8.95,42.1,160,67.8,26.0,0,5,10,0,2026-04-19T17:07:20.573678+05:30
Bhubaneswar,Odisha,20.2961,85.8245,30.0,77,0.0,999.6,9.1,34.2,68,29.9,23.0,7,5,7,1,2026-04-19T17:07:20.573685+05:30
Cuttack,Odisha,20.4625,85.8828,32.1,68,0.0,1001.3,9.15,34.6,68,29.9,23.0,3,5,4,1,2026-04-19T17:07:20.573691+05:30
Rourkela,Odisha,22.2604,84.8536,38.6,33,0.0,980.1,8.9,43.2,209,70.3,48.9,0,5,10,1,2026-04-19T17:07:20.573697+05:30
Raipur,Chhattisgarh,21.2514,81.6296,41.4,16,0.0,969.7,8.95,33.8,185,30.2,26.3,0,5,10,0,2026-04-19T17:07:20.573703+05:30
Bhilai,Chhattisgarh,21.1938,81.3509,40.8,19,0.0,970.1,9.0,31.7,157,29.0,24.6,0,5,10,0,2026-04-19T17:07:20.573709+05:30
Guwahati,Assam,26.1158,91.7086,28.0,79,0.0,998.7,8.55,29.2,123,48.7,36.2,7,5,7,1,2026-04-19T17:07:20.573715+05:30
Agartala,Tripura,23.8315,91.2868,31.6,68,0.0,1002.6,8.75,25.2,122,42.0,31.0,3,5,4,1,2026-04-19T17:07:20.573721+05:30
Shillong,Meghalaya,25.5788,91.8933,18.4,78,0.0,855.1,8.75,48.2,115,28.8,20.1,3,5,7,0,2026-04-19T17:07:20.573728+05:30
Imphal,Manipur,24.817,93.9368,21.5,80,0.0,921.6,8.65,61.2,150,55.9,40.2,3,5,7,1,2026-04-19T17:07:20.573734+05:30
Aizawl,Mizoram,23.7271,92.7176,23.4,73,0.0,891.8,8.3,40.0,150,81.3,65.9,3,5,7,1,2026-04-19T17:07:20.573741+05:30
Kohima,Nagaland,25.6701,94.1077,18.7,89,0.0,853.7,8.85,50.8,120,55.3,40.9,3,10,7,1,2026-04-19T17:07:20.573747+05:30
Gangtok,Sikkim,27.3314,88.6138,19.0,83,0.0,836.7,8.85,23.4,104,12.9,10.4,3,10,7,1,2026-04-19T17:07:20.573754+05:30
Siliguri,West Bengal,26.7271,88.3953,23.6,87,0.0,991.5,8.4,21.2,131,30.5,23.2,3,5,7,1,2026-04-19T17:07:23.841930+05:30
Durgapur,West Bengal,23.5204,87.3119,30.8,74,0.0,990.6,8.9,28.1,198,89.2,55.6,3,5,7,1,2026-04-19T17:07:23.841961+05:30
Asansol,West Bengal,23.6739,86.9524,32.6,65,0.0,989.1,8.95,33.8,188,74.3,33.2,3,5,7,1,2026-04-19T17:07:23.841971+05:30
Pondicherry,Puducherry,11.9139,79.8145,33.7,62,0.0,1005.3,9.25,31.0,36,12.3,8.3,3,5,4,1,2026-04-19T17:07:23.841979+05:30
Port Blair,Andaman and Nicobar Islands,11.6234,92.7265,29.8,72,0.0,1006.1,9.15,13.0,53,14.5,12.3,7,5,4,1,2026-04-19T17:07:23.841987+05:30
Haridwar,Uttarakhand,29.9457,78.1642,36.3,26,0.0,971.0,6.3,28.8,116,53.1,16.1,0,5,10,0,2026-04-19T17:07:23.841995+05:30
Rishikesh,Uttarakhand,30.0869,78.2676,34.2,31,0.0,964.2,6.65,31.7,100,50.4,13.9,0,5,7,0,2026-04-19T17:07:23.842022+05:30
Nainital,Uttarakhand,29.3919,79.4542,28.4,22,0.0,808.5,7.85,70.9,117,35.7,10.9,4,5,7,0,2026-04-19T17:07:23.842032+05:30
Mussoorie,Uttarakhand,30.4599,78.0664,25.6,27,0.0,805.1,6.35,45.7,109,51.0,14.2,4,5,7,0,2026-04-19T17:07:23.842040+05:30
Dharamshala,Himachal Pradesh,32.219,76.3234,23.7,43,0.0,870.7,6.1,38.5,71,27.4,6.7,0,5,7,0,2026-04-19T17:07:23.842048+05:30
Dalhousie,Himachal Pradesh,32.5387,75.971,21.7,39,0.0,806.1,6.7,35.3,70,35.2,9.0,0,5,7,0,2026-04-19T17:07:23.842060+05:30
Patiala,Punjab,30.3398,76.3869,33.7,30,0.0,976.7,6.8,45.0,167,473.1,48.9,0,5,7,0,2026-04-19T17:07:23.842069+05:30
Bhatinda,Punjab,30.211,74.9455,35.7,24,0.0,982.3,7.85,41.0,112,73.3,18.5,0,5,10,0,2026-04-19T17:07:23.842076+05:30
Rohtak,Haryana,28.8955,76.6066,36.5,23,0.0,978.6,7.0,28.4,193,346.5,40.0,0,5,10,0,2026-04-19T17:07:23.842083+05:30
Panipat,Haryana,29.3909,76.9635,37.7,19,0.0,977.0,6.3,51.5,392,540.2,57.0,0,5,10,0,2026-04-19T17:07:23.842089+05:30
Mathura,Uttar Pradesh,27.4924,77.6737,39.2,18,0.0,982.8,7.65,44.3,307,527.1,50.4,0,5,10,0,2026-04-19T17:07:23.842096+05:30
Vrindavan,Uttar Pradesh,27.5823,77.7027,38.9,18,0.0,983.5,7.65,43.9,307,527.1,50.4,0,5,10,0,2026-04-19T17:07:23.842103+05:30
Ayodhya,Uttar Pradesh,26.7922,82.1998,41.2,15,0.0,989.4,8.05,40.0,156,86.1,25.1,0,5,10,0,2026-04-19T17:07:23.842109+05:30
Ratlam,Madhya Pradesh,23.3315,75.0367,36.2,27,0.0,952.7,8.45,27.4,91,23.6,18.0,0,5,10,0,2026-04-19T17:07:23.842119+05:30
Sagar,Madhya Pradesh,23.8388,78.7378,39.0,16,0.0,947.3,8.6,38.2,121,29.5,14.1,0,5,10,0,2026-04-19T17:07:23.842128+05:30
Satna,Madhya Pradesh,24.6005,80.8322,40.6,13,0.0,967.3,8.65,32.8,135,61.7,16.0,0,5,10,0,2026-04-19T17:07:23.842134+05:30
Akola,Maharashtra,20.7002,77.0082,40.0,19,0.0,971.2,8.85,32.0,109,37.1,28.8,0,5,10,0,2026-04-19T17:07:23.842141+05:30
Amravati,Maharashtra,20.9374,77.7796,39.6,20,0.0,963.2,8.85,15.8,110,28.2,21.1,0,5,10,0,2026-04-19T17:07:23.842148+05:30
Latur,Maharashtra,18.4088,76.5604,35.9,28,0.0,937.5,9.1,32.0,140,40.9,33.4,0,5,10,0,2026-04-19T17:07:23.842155+05:30
Nanded,Maharashtra,19.1383,77.3091,39.8,20,0.0,964.7,9.0,20.5,125,33.3,25.6,0,5,10,0,2026-04-19T17:07:23.842161+05:30
Gulbarga,Karnataka,17.3297,76.8343,29.8,55,0.0,957.4,9.1,56.5,147,45.5,37.1,4,5,7,1,2026-04-19T17:07:23.842167+05:30
Bidar,Karnataka,17.9104,77.5199,32.2,44,0.0,933.3,9.15,40.7,152,46.2,37.7,0,5,7,1,2026-04-19T17:07:23.842173+05:30
Hospet,Karnataka,15.2689,76.3909,36.6,33,0.0,952.6,9.3,36.4,141,43.4,34.9,0,5,10,1,2026-04-19T17:07:23.842179+05:30
Tirupur,Tamil Nadu,11.1085,77.3411,38.4,22,0.0,971.6,9.4,32.4,133,28.7,21.2,0,5,10,0,2026-04-19T17:07:23.842186+05:30
Alappuzha,Kerala,9.4981,76.3388,30.0,79,0.0,1005.7,9.1,22.7,90,22.2,17.0,7,5,4,1,2026-04-19T17:07:23.842192+05:30
Munnar,Kerala,10.0889,77.0595,26.9,72,0.0,856.7,9.65,39.6,89,22.8,16.3,7,5,7,1,2026-04-19T17:07:23.842199+05:30
Silchar,Assam,24.8333,92.7789,28.5,74,0.0,1002.4,8.8,28.1,155,39.8,30.0,7,5,4,1,2026-04-19T17:07:23.842206+05:30
Dibrugarh,Assam,27.4728,94.912,30.1,61,0.0,991.9,8.65,19.4,142,58.7,40.6,3,5,7,1,2026-04-19T17:07:23.842212+05:30
