city,state,latitude,longitude,temp,humidity,rain,pressure,uv_index,wind_gusts,aqi,pm10,pm2_5,mosquito_risk,arthritis_risk,migraine_risk,frizz_risk,updated_at
Delhi,Delhi,28.6139,77.209,19.7,76,0.0,990.1,5.9,25.2,159,119.7,108.7,3,5,3,0,2026-03-21T10:09:48.493196+05:30
Mumbai,Maharashtra,19.076,72.8777,27.5,63,0.0,1012.1,7.85,29.5,79,51.8,26.7,7,0,4,1,2026-03-21T10:09:48.493238+05:30
Bangalore,Karnataka,12.9716,77.5946,26.4,62,0.0,915.4,8.7,37.1,90,26.3,22.2,7,5,7,1,2026-03-21T10:09:48.493253+05:30
Hyderabad,Telangana,17.385,78.4867,29.3,46,0.0,957.0,8.4,24.1,83,21.1,13.9,4,5,7,1,2026-03-21T10:09:48.493262+05:30
Chennai,Tamil Nadu,13.0827,80.2707,31.3,61,0.0,1011.3,9.15,34.6,39,12.6,8.4,3,0,4,1,2026-03-21T10:09:48.493269+05:30
Kolkata,West Bengal,22.5726,88.3639,23.3,82,0.0,1012.3,6.9,25.9,68,8.8,8.4,3,0,4,1,2026-03-21T10:09:48.493277+05:30
Pune,Maharashtra,18.5204,73.8567,27.3,51,0.0,952.4,8.4,28.8,90,44.5,20.1,4,5,7,1,2026-03-21T10:09:48.493286+05:30
Ahmedabad,Gujarat,23.0225,72.5714,27.7,47,0.0,1008.2,7.45,14.0,70,27.3,19.8,4,0,4,0,2026-03-21T10:09:48.493292+05:30
Jaipur,Rajasthan,26.9124,75.7873,21.8,68,0.0,966.3,6.6,24.1,72,50.6,24.1,3,5,7,0,2026-03-21T10:09:48.493299+05:30
Lucknow,Uttar Pradesh,26.8467,80.9462,19.9,79,0.0,1001.0,6.4,24.5,121,99.9,48.2,3,5,4,1,2026-03-21T10:09:48.493305+05:30
Kanpur,Uttar Pradesh,26.4499,80.3319,20.8,79,0.0,999.1,6.7,23.8,123,98.3,43.2,3,5,7,1,2026-03-21T10:09:48.493311+05:30
Chandigarh,Chandigarh,30.7333,76.7794,19.3,72,0.0,975.6,6.15,28.8,80,12.3,9.7,3,5,7,0,2026-03-21T10:09:48.493318+05:30
Srinagar,Jammu and Kashmir,34.0837,74.7973,9.0,78,0.0,843.5,6.75,13.7,59,14.2,13.2,3,5,7,0,2026-03-21T10:09:48.493324+05:30
Jammu,Jammu and Kashmir,32.7266,74.857,19.9,67,0.0,979.4,6.4,18.7,86,27.6,24.9,3,5,7,0,2026-03-21T10:09:48.493330+05:30
Amritsar,Punjab,31.634,74.8723,19.6,80,0.0,988.1,6.5,13.7,98,59.6,41.7,3,5,7,1,2026-03-21T10:09:48.493335+05:30
Ludhiana,Punjab,30.901,75.8573,18.8,82,0.0,986.1,5.2,22.3,130,36.0,29.5,3,10,3,0,2026-03-21T10:09:48.493341+05:30
Jalandhar,Punjab,31.326,75.5762,18.9,80,0.0,987.1,6.5,18.4,114,38.6,27.2,3,5,7,0,2026-03-21T10:09:48.493349+05:30
Dehradun,Uttarakhand,30.6284,78.0322,12.5,66,0.0,831.4,6.7,22.3,41,1.7,1.2,3,5,7,0,2026-03-21T10:09:48.493354+05:30
Shimla,Himachal Pradesh,31.1048,77.1734,11.3,63,0.0,785.4,6.45,32.0,39,7.2,3.2,3,5,7,0,2026-03-21T10:09:48.493360+05:30
Manali,Himachal Pradesh,32.2396,77.1887,12.9,49,0.0,818.1,8.4,22.0,41,2.9,1.9,0,5,7,0,2026-03-21T10:09:48.493366+05:30
Gurgaon,Haryana,28.4595,77.0266,18.9,83,0.0,988.7,5.8,21.6,163,137.8,127.1,3,10,3,0,2026-03-21T10:09:48.493371+05:30
Noida,Uttar Pradesh,28.5355,77.391,19.7,78,0.0,991.6,6.3,23.8,163,137.8,127.1,3,5,7,0,2026-03-21T10:09:48.493377+05:30
Ghaziabad,Uttar Pradesh,28.6692,77.4538,18.8,83,0.0,989.8,6.25,22.7,160,114.6,101.3,3,10,7,0,2026-03-21T10:09:48.493382+05:30
Faridabad,Haryana,28.4089,77.3178,19.6,81,0.0,990.9,6.2,23.8,163,137.8,127.1,3,10,7,1,2026-03-21T10:09:48.493388+05:30
Meerut,Uttar Pradesh,28.9845,77.7064,19.5,81,0.0,988.3,6.1,23.0,160,114.6,101.3,3,10,7,1,2026-03-21T10:09:48.493393+05:30
Agra,Uttar Pradesh,27.1767,78.0081,20.8,75,0.0,995.4,6.8,29.5,150,81.5,71.2,3,5,7,1,2026-03-21T10:09:48.493398+05:30
Varanasi,Uttar Pradesh,25.3176,82.9739,20.0,83,0.0,1005.3,6.05,25.9,95,50.2,33.4,3,5,4,1,2026-03-21T10:09:48.493407+05:30
Prayagraj,Uttar Pradesh,25.4358,81.8463,21.6,80,0.0,1003.3,6.8,26.3,96,64.5,31.3,3,5,4,1,2026-03-21T10:09:48.493412+05:30
Gorakhpur,Uttar Pradesh,26.7606,83.3732,19.5,86,0.0,1005.0,6.15,21.2,123,66.6,39.6,3,10,4,1,2026-03-21T10:09:48.493418+05:30
Bareilly,Uttar Pradesh,28.367,79.4304,20.6,77,0.0,993.7,6.2,19.8,148,71.7,53.1,3,5,7,1,2026-03-21T10:09:48.493423+05:30
Aligarh,Uttar Pradesh,27.8974,78.088,19.5,80,0.0,992.8,6.55,24.8,159,117.6,106.4,3,5,7,0,2026-03-21T10:09:48.493429+05:30
Moradabad,Uttar Pradesh,28.8386,78.7733,20.0,76,0.0,990.5,6.35,19.4,152,75.0,58.0,3,5,7,0,2026-03-21T10:09:48.493434+05:30
Saharanpur,Uttar Pradesh,29.9637,77.546,18.3,85,0.0,982.5,6.05,27.4,156,102.2,96.6,3,10,7,0,2026-03-21T10:09:48.493440+05:30
Jhansi,Uttar Pradesh,25.4484,78.5685,22.0,67,0.0,985.0,7.4,26.3,121,78.0,46.7,3,5,7,0,2026-03-21T10:09:51.769259+05:30
Surat,Gujarat,21.1702,72.8311,27.8,64,0.0,1011.8,7.55,27.4,113,59.6,48.3,7,0,4,1,2026-03-21T10:09:51.769288+05:30
Vadodara,Gujarat,22.3072,73.1812,28.7,44,0.0,1010.1,7.75,14.0,73,28.8,18.6,4,0,4,0,2026-03-21T10:09:51.769298+05:30
Rajkot,Gujarat,22.3039,70.8022,26.1,69,0.0,999.8,7.0,22.7,66,14.0,8.0,7,5,7,1,2026-03-21T10:09:51.769306+05:30
Thane,Maharashtra,19.2183,72.9781,29.8,46,0.0,1011.7,7.85,42.8,79,51.8,26.7,4,0,4,1,2026-03-21T10:09:51.769313+05:30
Nagpur,Maharashtra,21.1458,79.0882,26.3,50,0.0,979.0,8.3,24.8,69,51.6,21.5,4,5,7,0,2026-03-21T10:09:51.769320+05:30
Nashik,Maharashtra,19.9975,73.7898,25.2,50,0.0,949.7,8.05,24.1,66,26.9,11.4,4,5,7,0,2026-03-21T10:09:51.769328+05:30
Aurangabad,Maharashtra,19.8762,75.3433,26.8,43,0.0,948.6,8.6,24.5,63,18.9,10.3,4,5,7,0,2026-03-21T10:09:51.769335+05:30
Solapur,Maharashtra,17.6599,75.9064,28.4,43,0.0,961.4,8.75,27.7,68,33.4,16.6,4,5,7,0,2026-03-21T10:09:51.769342+05:30
Kolhapur,Maharashtra,16.705,74.2433,26.2,55,0.0,951.8,8.85,28.1,79,39.0,25.2,4,5,7,1,2026-03-21T10:09:51.769348+05:30
Goa,Goa,15.2993,74.124,29.7,55,0.0,1001.3,8.85,35.6,71,28.6,17.8,4,5,4,1,2026-03-21T10:09:51.769355+05:30
Jodhpur,Rajasthan,26.2389,73.0243,25.0,56,0.0,989.1,6.55,20.5,67,92.9,23.5,4,5,7,0,2026-03-21T10:09:51.769362+05:30
Udaipur,Rajasthan,24.5854,73.7125,24.8,44,0.0,952.0,7.55,11.9,53,47.8,12.9,0,5,7,0,2026-03-21T10:09:51.769369+05:30
Kota,Rajasthan,25.2138,75.8648,25.4,55,0.0,985.8,7.5,19.1,81,50.8,27.5,4,5,7,0,2026-03-21T10:09:51.769375+05:30
Bikaner,Rajasthan,28.0229,73.3119,25.4,52,0.0,987.7,6.15,23.4,56,23.8,14.5,4,5,7,0,2026-03-21T10:09:51.769382+05:30
Ajmer,Rajasthan,26.4499,74.6399,23.8,58,0.0,960.3,7.2,21.6,66,39.6,16.4,0,5,7,0,2026-03-21T10:09:51.769389+05:30
Gwalior,Madhya Pradesh,26.2183,78.1828,22.5,63,0.0,990.4,7.1,27.0,89,49.1,25.8,3,5,7,0,2026-03-21T10:09:51.769396+05:30
Indore,Madhya Pradesh,22.7196,75.8577,24.8,53,0.0,953.3,7.95,22.7,68,34.2,15.9,0,5,7,0,2026-03-21T10:09:51.769403+05:30
Bhopal,Madhya Pradesh,23.2599,77.4126,24.3,53,0.0,959.6,7.9,25.6,73,37.4,16.1,0,5,7,0,2026-03-21T10:09:51.769409+05:30
Jabalpur,Madhya Pradesh,23.1815,79.9864,22.7,66,0.0,967.6,7.95,36.0,64,51.3,26.8,3,5,7,1,2026-03-21T10:09:51.769416+05:30
Ujjain,Madhya Pradesh,23.1765,75.7885,24.2,61,0.0,959.3,7.8,19.4,68,37.1,18.5,3,5,7,1,2026-03-21T10:09:51.769423+05:30
Visakhapatnam,Andhra Pradesh,17.6868,83.2185,29.2,60,0.0,1008.6,8.8,33.1,72,33.3,28.1,4,0,4,1,2026-03-21T10:09:51.769429+05:30
Vijayawada,Andhra Pradesh,16.5062,80.648,29.5,65,0.0,1007.0,8.85,32.4,58,12.4,9.1,7,5,4,1,2026-03-21T10:09:51.769436+05:30
Guntur,Andhra Pradesh,16.3067,80.4365,30.2,64,0.0,1008.0,8.85,23.8,53,12.1,8.6,3,0,4,1,2026-03-21T10:09:51.769443+05:30
Nellore,Andhra Pradesh,14.4426,79.9865,31.3,63,0.0,1009.8,9.05,37.8,34,14.8,11.0,3,0,4,1,2026-03-21T10:09:51.769450+05:30
Kurnool,Andhra Pradesh,15.8281,78.0373,31.5,45,0.0,980.3,8.9,18.7,69,17.0,14.1,0,5,7,1,2026-03-21T10:09:51.769458+05:30
Kakinada,Andhra Pradesh,16.9891,82.2475,29.4,65,0.0,1012.1,8.8,23.8,47,12.9,9.3,7,0,4,1,2026-03-21T10:09:51.769465+05:30
Tirupati,Andhra Pradesh,13.6288,79.4192,29.3,65,0.0,996.0,9.15,26.3,69,16.1,13.8,7,5,7,1,2026-03-21T10:09:51.769471+05:30
Warangal,Telangana,17.9689,79.5941,26.5,71,0.0,983.6,8.7,22.0,117,17.8,15.2,7,5,7,1,2026-03-21T10:09:51.769478+05:30
Nizamabad,Telangana,18.6725,78.0941,29.2,44,0.0,969.2,8.6,34.9,100,41.2,30.6,4,5,7,0,2026-03-21T10:09:51.769484+05:30
Mysore,Karnataka,12.2958,76.6396,27.4,56,0.0,932.1,9.4,40.3,81,27.4,22.5,4,5,7,1,2026-03-21T10:09:51.769491+05:30
Mangalore,Karnataka,12.9141,74.856,28.5,75,0.0,1009.7,9.05,30.2,65,28.0,19.6,7,0,4,1,2026-03-21T10:09:51.769497+05:30
Hubli-Dharwad,Karnataka,15.3647,75.124,27.8,42,0.0,944.5,9.05,28.8,64,25.6,17.4,4,5,7,0,2026-03-21T10:09:51.769505+05:30
Belgaum,Karnataka,15.8497,74.4977,27.0,35,0.0,929.3,9.1,36.7,69,28.2,16.6,4,5,7,0,2026-03-21T10:09:55.053935+05:30
Coimbatore,Tamil Nadu,11.0168,76.9558,29.0,58,0.0,965.4,9.35,43.6,74,22.6,18.5,4,5,7,1,2026-03-21T10:09:55.053964+05:30
Madurai,Tamil Nadu,9.9252,78.1198,30.3,60,0.0,996.9,9.35,38.5,70,21.8,18.7,0,5,7,1,2026-03-21T10:09:55.053974+05:30
Trichy,Tamil Nadu,10.7905,78.7047,30.6,62,0.0,1003.7,8.45,27.4,63,12.3,10.5,3,5,4,1,2026-03-21T10:09:55.053982+05:30
Salem,Tamil Nadu,11.6643,78.146,30.3,58,0.0,981.2,8.45,26.6,82,18.5,16.6,0,5,7,1,2026-03-21T10:09:55.053990+05:30
Tirunelveli,Tamil Nadu,8.7139,77.7567,31.2,56,0.0,1006.7,9.3,46.8,92,28.3,23.6,0,5,4,1,2026-03-21T10:09:55.053997+05:30
Vellore,Tamil Nadu,12.9165,79.1325,29.3,62,0.0,988.8,9.2,30.2,95,34.6,32.6,7,5,7,1,2026-03-21T10:09:55.054004+05:30
Erode,Tamil Nadu,11.341,77.7172,30.6,60,0.0,992.9,9.3,27.0,61,13.5,11.3,0,5,7,1,2026-03-21T10:09:55.054011+05:30
Kochi,Kerala,9.9312,76.2673,28.6,74,0.0,1011.5,9.15,31.7,76,24.7,19.0,7,0,4,1,2026-03-21T10:09:55.054018+05:30
Thiruvananthapuram,Kerala,8.5241,76.9366,28.1,76,0.0,1010.7,9.05,24.8,65,29.6,22.9,7,0,4,1,2026-03-21T10:09:55.054025+05:30
Kozhikode,Kerala,11.2588,75.7804,29.7,69,0.0,1010.7,9.1,29.9,59,26.5,19.6,7,0,4,1,2026-03-21T10:09:55.054032+05:30
Thrissur,Kerala,10.5276,76.2144,32.0,56,0.0,1009.7,9.15,37.4,73,22.4,16.7,0,0,4,1,2026-03-21T10:09:55.054039+05:30
Kannur,Kerala,11.8745,75.3704,30.5,62,0.0,1010.1,9.1,33.8,65,25.3,18.6,3,0,4,1,2026-03-21T10:09:55.054046+05:30
Patna,Bihar,25.5941,85.1376,21.6,78,0.0,1008.0,4.05,24.5,150,70.3,55.3,3,0,0,1,2026-03-21T10:09:55.054052+05:30
Gaya,Bihar,24.7914,85.0002,22.4,79,0.0,1000.6,6.05,26.6,117,51.9,38.9,3,5,4,1,2026-03-21T10:09:55.054059+05:30
Muzaffarpur,Bihar,26.1209,85.3647,20.6,84,0.0,1008.1,2.65,23.8,151,67.1,52.7,3,0,0,1,2026-03-21T10:09:55.054065+05:30
Bhagalpur,Bihar,25.2425,87.0117,22.4,79,0.0,1008.6,2.55,24.5,134,36.9,33.8,3,0,0,1,2026-03-21T10:09:55.054072+05:30
Ranchi,Jharkhand,23.3441,85.3096,23.1,64,0.0,942.2,8.3,39.6,95,32.7,25.6,3,5,7,0,2026-03-21T10:09:55.054079+05:30
Jamshedpur,Jharkhand,22.8046,86.2029,25.2,68,0.0,996.7,8.2,35.3,149,55.1,48.7,7,5,7,1,2026-03-21T10:09:55.054085+05:30
Dhanbad,Jharkhand,23.7957,86.4304,23.6,68,0.0,985.6,7.0,33.8,152,53.6,48.4,3,5,7,1,2026-03-21T10:09:55.054092+05:30
Bokaro,Jharkhand,23.6693,86.1511,23.8,69,0.0,989.7,6.3,37.8,135,48.5,42.3,3,5,7,1,2026-03-21T10:09:55.054099+05:30
Bhubaneswar,Odisha,20.2961,85.8245,27.8,64,0.0,1008.3,8.55,26.6,67,44.2,37.3,7,0,4,1,2026-03-21T10:09:55.054106+05:30
Cuttack,Odisha,20.4625,85.8828,27.6,66,0.0,1010.2,8.6,22.7,67,44.2,37.3,7,0,4,1,2026-03-21T10:09:55.054113+05:30
Rourkela,Odisha,22.2604,84.8536,26.3,60,0.0,990.8,8.15,31.7,106,50.2,39.8,4,5,7,1,2026-03-21T10:09:55.054120+05:30
Raipur,Chhattisgarh,21.2514,81.6296,26.8,51,0.0,980.3,8.35,28.1,126,54.1,39.7,4,5,7,0,2026-03-21T10:09:55.054127+05:30
Bhilai,Chhattisgarh,21.1938,81.3509,26.9,52,0.0,980.5,8.35,28.8,114,59.5,38.2,4,5,7,1,2026-03-21T10:09:55.054133+05:30
Guwahati,Assam,26.1158,91.7086,23.7,79,0.0,1009.7,1.45,17.3,94,40.6,29.2,3,0,0,1,2026-03-21T10:09:55.054140+05:30
Agartala,Tripura,23.8315,91.2868,24.7,76,0.0,1013.5,6.65,21.6,110,48.8,38.9,3,0,4,1,2026-03-21T10:09:55.054146+05:30
Shillong,Meghalaya,25.5788,91.8933,15.6,64,0.0,860.9,3.45,21.2,75,44.5,27.9,3,5,3,0,2026-03-21T10:09:55.054153+05:30
Imphal,Manipur,24.817,93.9368,21.3,56,0.0,929.0,7.25,25.2,86,38.5,20.7,0,5,7,0,2026-03-21T10:09:55.054159+05:30
Aizawl,Mizoram,23.7271,92.7176,22.5,51,0.0,898.2,6.75,28.1,106,55.1,38.6,0,5,7,0,2026-03-21T10:09:55.054166+05:30
Kohima,Nagaland,25.6701,94.1077,17.6,73,0.0,860.4,7.35,60.8,74,42.5,22.9,3,5,7,0,2026-03-21T10:09:55.054171+05:30
Gangtok,Sikkim,27.3314,88.6138,11.9,91,0.4,840.7,1.5,16.6,100,16.9,13.0,6,10,3,0,2026-03-21T10:09:55.054177+05:30
Siliguri,West Bengal,26.7271,88.3953,18.4,85,0.0,1002.1,3.65,29.2,85,30.3,24.9,3,10,0,0,2026-03-21T10:09:58.331001+05:30
Durgapur,West Bengal,23.5204,87.3119,23.2,77,0.0,1001.2,7.2,24.5,152,41.6,38.9,3,5,4,1,2026-03-21T10:09:58.331030+05:30
Asansol,West Bengal,23.6739,86.9524,23.2,77,0.0,999.9,7.2,27.4,152,49.2,45.1,3,5,7,1,2026-03-21T10:09:58.331039+05:30
Pondicherry,Puducherry,11.9139,79.8145,30.0,69,0.0,1012.7,9.15,28.8,45,11.3,7.5,7,0,4,1,2026-03-21T10:09:58.331047+05:30
Port Blair,Andaman and Nicobar Islands,11.6234,92.7265,29.1,73,0.0,1011.0,9.1,15.5,53,19.3,14.7,7,0,4,1,2026-03-21T10:09:58.331054+05:30
Haridwar,Uttarakhand,29.9457,78.1642,21.1,69,0.0,980.4,6.1,22.7,101,25.7,22.9,3,5,7,0,2026-03-21T10:09:58.331062+05:30
Rishikesh,Uttarakhand,30.0869,78.2676,20.9,66,0.0,972.5,6.2,22.0,64,10.3,6.7,3,5,7,0,2026-03-21T10:09:58.331069+05:30
Nainital,Uttarakhand,29.3919,79.4542,13.0,85,0.0,806.7,6.85,34.2,72,13.3,8.0,3,10,7,0,2026-03-21T10:09:58.331077+05:30
Mussoorie,Uttarakhand,30.4599,78.0664,13.4,63,0.0,804.0,6.6,27.4,59,5.8,4.2,3,5,7,0,2026-03-21T10:09:58.331084+05:30
Dharamshala,Himachal Pradesh,32.219,76.3234,15.3,63,0.0,871.4,6.7,18.0,40,4.2,1.7,3,5,7,0,2026-03-21T10:09:58.331091+05:30
Dalhousie,Himachal Pradesh,32.5387,75.971,13.1,52,0.0,805.1,6.4,19.8,72,15.0,9.5,0,5,7,0,2026-03-21T10:09:58.331099+05:30
Patiala,Punjab,30.3398,76.3869,18.5,83,0.0,985.4,5.95,22.3,141,72.9,68.5,3,10,3,0,2026-03-21T10:09:58.331106+05:30
Bhatinda,Punjab,30.211,74.9455,20.1,75,0.0,991.1,5.9,18.0,137,78.0,57.5,3,5,3,0,2026-03-21T10:09:58.331113+05:30
Rohtak,Haryana,28.8955,76.6066,18.5,86,0.0,989.2,5.75,23.0,158,128.1,116.4,3,10,3,1,2026-03-21T10:09:58.331119+05:30
Panipat,Haryana,29.3909,76.9635,18.4,86,0.0,987.6,5.8,25.6,157,108.3,99.0,3,10,3,0,2026-03-21T10:09:58.331126+05:30
Mathura,Uttar Pradesh,27.4924,77.6737,20.1,78,0.0,994.4,6.7,25.6,140,105.0,91.0,3,5,7,1,2026-03-21T10:09:58.331132+05:30
Vrindavan,Uttar Pradesh,27.5823,77.7027,19.9,80,0.0,994.7,6.65,26.6,140,105.0,91.0,3,5,7,1,2026-03-21T10:09:58.331139+05:30
Ayodhya,Uttar Pradesh,26.7922,82.1998,18.7,89,0.2,1003.1,6.9,22.0,107,68.5,41.7,6,10,4,1,2026-03-21T10:09:58.331146+05:30
Ratlam,Madhya Pradesh,23.3315,75.0367,25.0,57,0.0,959.9,7.25,21.2,63,34.0,16.3,4,5,7,0,2026-03-21T10:09:58.331152+05:30
Sagar,Madhya Pradesh,23.8388,78.7378,22.7,59,0.0,956.1,7.85,27.7,93,55.5,27.1,0,5,7,0,2026-03-21T10:09:58.331159+05:30
Satna,Madhya Pradesh,24.6005,80.8322,21.1,73,0.0,977.6,7.8,32.8,77,57.5,23.8,3,5,7,1,2026-03-21T10:09:58.331165+05:30
Akola,Maharashtra,20.7002,77.0082,28.1,44,0.0,980.5,8.25,22.3,65,35.4,17.3,4,5,7,0,2026-03-21T10:09:58.331172+05:30
Amravati,Maharashtra,20.9374,77.7796,28.1,41,0.0,972.7,8.3,25.2,66,39.5,17.8,4,5,7,0,2026-03-21T10:09:58.331180+05:30
Latur,Maharashtra,18.4088,76.5604,27.0,44,0.0,944.2,8.65,34.2,75,31.9,16.2,4,5,7,0,2026-03-21T10:09:58.331187+05:30
Nanded,Maharashtra,19.1383,77.3091,29.1,40,0.0,973.5,8.5,28.1,68,31.0,15.2,4,5,7,0,2026-03-21T10:09:58.331193+05:30
Gulbarga,Karnataka,17.3297,76.8343,29.6,39,0.0,962.6,8.75,42.1,69,31.2,22.1,4,5,7,0,2026-03-21T10:09:58.331200+05:30
Bidar,Karnataka,17.9104,77.5199,27.9,39,0.0,939.4,8.75,40.3,86,35.7,24.6,4,5,7,0,2026-03-21T10:09:58.331206+05:30
Hospet,Karnataka,15.2689,76.3909,27.9,52,0.0,959.4,9.0,19.4,77,31.0,20.9,4,5,7,1,2026-03-21T10:09:58.331213+05:30
Tirupur,Tamil Nadu,11.1085,77.3411,29.9,59,0.0,979.1,9.4,33.1,79,20.4,18.1,4,5,7,1,2026-03-21T10:09:58.331219+05:30
Alappuzha,Kerala,9.4981,76.3388,28.6,74,0.0,1011.6,9.1,28.1,77,31.5,24.8,7,0,4,1,2026-03-21T10:09:58.331226+05:30
Munnar,Kerala,10.0889,77.0595,27.5,53,0.0,861.2,9.65,29.2,64,20.0,14.3,4,5,7,1,2026-03-21T10:09:58.331233+05:30
Silchar,Assam,24.8333,92.7789,25.8,62,0.0,1011.8,6.85,19.8,87,37.7,27.1,7,0,4,1,2026-03-21T10:09:58.331239+05:30
Dibrugarh,Assam,27.4728,94.912,25.1,68,0.0,1002.7,7.25,16.2,94,46.0,27.4,7,5,4,1,2026-03-21T10:09:58.331246+05:30
