city,state,latitude,longitude,temp,humidity,rain,pressure,uv_index,wind_gusts,aqi,pm10,pm2_5,mosquito_risk,arthritis_risk,migraine_risk,frizz_risk,updated_at
Delhi,Delhi,28.6139,77.209,30.8,36,0.0,985.1,6.45,27.7,208,204.4,37.8,0,5,7,0,2026-03-25T14:26:09.806680+05:30
Mumbai,Maharashtra,19.076,72.8777,27.9,83,0.0,1007.9,7.95,22.7,84,40.4,29.3,7,5,4,1,2026-03-25T14:26:09.806722+05:30
Bangalore,Karnataka,12.9716,77.5946,33.1,30,0.0,912.0,9.5,30.6,75,29.7,21.4,0,5,7,0,2026-03-25T14:26:09.806737+05:30
Hyderabad,Telangana,17.385,78.4867,33.9,39,0.0,954.1,9.0,22.3,88,33.1,23.5,0,5,7,1,2026-03-25T14:26:09.806763+05:30
Chennai,Tamil Nadu,13.0827,80.2707,32.9,50,0.0,1008.0,9.2,32.0,38,24.3,15.8,0,0,4,1,2026-03-25T14:26:09.806773+05:30
Kolkata,West Bengal,22.5726,88.3639,32.1,56,0.0,1006.7,8.4,25.6,81,58.2,43.9,0,5,4,1,2026-03-25T14:26:09.806781+05:30
Pune,Maharashtra,18.5204,73.8567,37.0,19,0.0,948.5,8.5,29.2,92,29.0,20.3,0,5,10,0,2026-03-25T14:26:09.806793+05:30
Ahmedabad,Gujarat,23.0225,72.5714,35.9,31,0.0,1002.2,7.75,22.3,66,24.8,12.9,0,5,7,1,2026-03-25T14:26:09.806801+05:30
Jaipur,Rajasthan,26.9124,75.7873,31.8,28,0.0,962.2,7.35,23.4,130,148.1,24.7,0,5,7,0,2026-03-25T14:26:09.806808+05:30
Lucknow,Uttar Pradesh,26.8467,80.9462,32.9,23,0.0,994.7,7.15,36.7,116,62.4,19.4,0,5,7,0,2026-03-25T14:26:09.806816+05:30
Kanpur,Uttar Pradesh,26.4499,80.3319,31.0,34,0.0,993.7,7.15,28.8,158,299.0,41.1,0,5,7,0,2026-03-25T14:26:09.806823+05:30
Chandigarh,Chandigarh,30.7333,76.7794,29.6,34,0.0,970.8,6.55,33.5,72,29.8,21.0,4,5,7,0,2026-03-25T14:26:09.806830+05:30
Srinagar,Jammu and Kashmir,34.0837,74.7973,19.2,26,0.0,843.2,7.3,13.0,83,23.5,10.6,0,5,7,1,2026-03-25T14:26:09.806838+05:30
Jammu,Jammu and Kashmir,32.7266,74.857,27.9,45,0.0,974.8,7.15,18.7,88,30.3,19.0,4,5,7,0,2026-03-25T14:26:09.806845+05:30
Amritsar,Punjab,31.634,74.8723,28.4,43,0.0,983.2,6.95,20.2,125,32.1,23.5,4,5,7,0,2026-03-25T14:26:09.806852+05:30
Ludhiana,Punjab,30.901,75.8573,29.6,38,0.0,981.0,6.75,24.5,127,29.9,20.7,4,5,7,0,2026-03-25T14:26:09.806859+05:30
Jalandhar,Punjab,31.326,75.5762,28.6,44,0.0,982.2,6.9,23.0,127,34.9,21.1,4,5,7,0,2026-03-25T14:26:09.806868+05:30
Dehradun,Uttarakhand,30.6284,78.0322,18.9,63,0.0,831.5,7.0,23.0,55,16.2,9.9,3,5,7,0,2026-03-25T14:26:09.806874+05:30
Shimla,Himachal Pradesh,31.1048,77.1734,17.4,58,0.0,786.7,7.05,44.6,60,20.1,12.7,0,5,7,0,2026-03-25T14:26:09.806881+05:30
Manali,Himachal Pradesh,32.2396,77.1887,20.7,42,0.0,821.2,9.05,30.6,109,18.1,7.4,0,5,7,0,2026-03-25T14:26:09.806888+05:30
Gurgaon,Haryana,28.4595,77.0266,30.9,38,0.0,983.6,6.3,24.1,705,715.3,83.1,0,5,7,0,2026-03-25T14:26:09.806895+05:30
Noida,Uttar Pradesh,28.5355,77.391,31.0,35,0.0,986.5,6.45,27.4,705,715.3,83.1,0,5,7,0,2026-03-25T14:26:09.806902+05:30
Ghaziabad,Uttar Pradesh,28.6692,77.4538,30.5,39,0.0,984.6,6.5,28.8,151,139.2,35.6,0,5,7,0,2026-03-25T14:26:09.806908+05:30
Faridabad,Haryana,28.4089,77.3178,30.9,35,0.0,986.0,6.35,25.6,705,715.3,83.1,0,5,7,0,2026-03-25T14:26:09.806915+05:30
Meerut,Uttar Pradesh,28.9845,77.7064,30.6,37,0.0,983.1,6.5,33.8,151,139.2,35.6,0,5,7,0,2026-03-25T14:26:09.806921+05:30
Agra,Uttar Pradesh,27.1767,78.0081,33.9,27,0.0,989.8,6.95,28.4,441,313.9,48.1,0,5,7,0,2026-03-25T14:26:09.806928+05:30
Varanasi,Uttar Pradesh,25.3176,82.9739,34.0,26,0.0,999.0,7.8,29.9,105,99.4,25.0,0,5,7,0,2026-03-25T14:26:09.806941+05:30
Prayagraj,Uttar Pradesh,25.4358,81.8463,33.5,30,0.0,997.6,7.65,21.6,100,128.1,29.6,0,5,7,0,2026-03-25T14:26:09.806948+05:30
Gorakhpur,Uttar Pradesh,26.7606,83.3732,33.0,25,0.0,997.8,7.5,29.2,96,126.7,28.8,0,5,7,0,2026-03-25T14:26:09.806957+05:30
Bareilly,Uttar Pradesh,28.367,79.4304,30.0,44,0.0,988.3,6.85,30.2,99,31.1,22.5,4,5,7,1,2026-03-25T14:26:09.806967+05:30
Aligarh,Uttar Pradesh,27.8974,78.088,31.4,36,0.0,987.6,6.7,29.2,380,437.7,65.4,0,5,7,0,2026-03-25T14:26:09.806973+05:30
Moradabad,Uttar Pradesh,28.8386,78.7733,29.9,42,0.0,985.1,6.55,31.3,101,39.5,25.6,4,5,7,0,2026-03-25T14:26:09.806980+05:30
Saharanpur,Uttar Pradesh,29.9637,77.546,30.2,38,0.0,977.1,6.3,36.0,112,38.4,25.7,0,5,7,0,2026-03-25T14:26:09.806985+05:30
Jhansi,Uttar Pradesh,25.4484,78.5685,35.0,24,0.0,979.6,7.65,30.2,87,130.9,28.7,0,5,7,0,2026-03-25T14:26:13.083651+05:30
Surat,Gujarat,21.1702,72.8311,34.7,42,0.0,1006.6,7.7,21.2,94,33.1,24.7,0,5,4,1,2026-03-25T14:26:13.083681+05:30
Vadodara,Gujarat,22.3072,73.1812,37.1,34,0.0,1004.1,7.4,16.9,81,26.4,16.7,0,5,7,1,2026-03-25T14:26:13.083691+05:30
Rajkot,Gujarat,22.3039,70.8022,35.6,26,0.0,995.1,7.7,26.3,37,26.8,10.7,0,5,10,0,2026-03-25T14:26:13.083699+05:30
Thane,Maharashtra,19.2183,72.9781,32.1,63,0.0,1007.6,7.95,35.6,84,40.4,29.3,3,5,4,1,2026-03-25T14:26:13.083707+05:30
Nagpur,Maharashtra,21.1458,79.0882,36.4,23,0.0,973.0,8.3,20.5,107,31.5,24.9,0,5,10,0,2026-03-25T14:26:13.083715+05:30
Nashik,Maharashtra,19.9975,73.7898,34.3,27,0.0,946.1,8.15,26.3,73,24.0,12.1,0,5,7,0,2026-03-25T14:26:13.083722+05:30
Aurangabad,Maharashtra,19.8762,75.3433,35.9,22,0.0,944.6,8.7,30.2,58,20.0,12.8,0,5,10,0,2026-03-25T14:26:13.083729+05:30
Solapur,Maharashtra,17.6599,75.9064,36.2,31,0.0,957.0,8.85,33.1,98,42.3,32.0,0,5,10,1,2026-03-25T14:26:13.083736+05:30
Kolhapur,Maharashtra,16.705,74.2433,34.2,31,0.0,947.6,8.95,42.1,142,48.9,37.0,0,5,7,0,2026-03-25T14:26:13.083743+05:30
Goa,Goa,15.2993,74.124,32.5,59,0.0,997.7,8.95,29.2,103,46.1,34.6,0,5,7,1,2026-03-25T14:26:13.083776+05:30
Jodhpur,Rajasthan,26.2389,73.0243,34.5,25,0.0,983.7,7.45,27.4,58,82.2,17.1,0,5,7,0,2026-03-25T14:26:13.083786+05:30
Udaipur,Rajasthan,24.5854,73.7125,34.0,23,0.0,948.0,8.05,25.6,54,30.9,9.8,0,5,7,0,2026-03-25T14:26:13.083793+05:30
Kota,Rajasthan,25.2138,75.8648,35.7,23,0.0,980.0,7.7,33.1,73,31.7,20.6,0,5,10,0,2026-03-25T14:26:13.083800+05:30
Bikaner,Rajasthan,28.0229,73.3119,33.3,24,0.0,982.8,5.65,27.7,53,27.1,9.1,0,5,3,0,2026-03-25T14:26:13.083807+05:30
Ajmer,Rajasthan,26.4499,74.6399,33.0,28,0.0,956.3,7.6,31.0,63,32.6,10.6,0,5,7,0,2026-03-25T14:26:13.083814+05:30
Gwalior,Madhya Pradesh,26.2183,78.1828,34.2,25,0.0,985.4,7.3,28.1,168,246.8,40.9,0,5,7,0,2026-03-25T14:26:13.083821+05:30
Indore,Madhya Pradesh,22.7196,75.8577,34.6,26,0.0,949.2,8.15,24.8,65,26.3,15.5,0,5,7,0,2026-03-25T14:26:13.083827+05:30
Bhopal,Madhya Pradesh,23.2599,77.4126,35.3,22,0.0,954.7,8.05,21.6,59,26.2,12.9,0,5,10,0,2026-03-25T14:26:13.083834+05:30
Jabalpur,Madhya Pradesh,23.1815,79.9864,34.0,26,0.0,962.8,8.2,24.8,60,28.2,12.9,0,5,7,0,2026-03-25T14:26:13.083841+05:30
Ujjain,Madhya Pradesh,23.1765,75.7885,34.7,27,0.0,954.9,8.05,21.2,79,29.2,17.8,0,5,7,0,2026-03-25T14:26:13.083848+05:30
Visakhapatnam,Andhra Pradesh,17.6868,83.2185,32.9,49,0.0,1004.6,8.95,37.1,70,32.9,22.1,0,5,4,1,2026-03-25T14:26:13.083854+05:30
Vijayawada,Andhra Pradesh,16.5062,80.648,33.5,52,0.0,1003.4,9.0,24.5,57,25.6,16.8,0,5,4,1,2026-03-25T14:26:13.083861+05:30
Guntur,Andhra Pradesh,16.3067,80.4365,33.7,51,0.0,1004.5,9.0,25.9,55,25.8,16.5,0,5,4,1,2026-03-25T14:26:13.083867+05:30
Nellore,Andhra Pradesh,14.4426,79.9865,35.3,42,0.0,1006.2,9.1,29.9,38,27.4,20.7,0,5,7,1,2026-03-25T14:26:13.083875+05:30
Kurnool,Andhra Pradesh,15.8281,78.0373,36.8,30,0.0,976.7,5.8,18.4,67,30.4,22.0,0,5,6,1,2026-03-25T14:26:13.083882+05:30
Kakinada,Andhra Pradesh,16.9891,82.2475,35.8,44,0.0,1007.9,8.95,27.7,53,25.6,14.1,0,5,7,1,2026-03-25T14:26:13.083888+05:30
Tirupati,Andhra Pradesh,13.6288,79.4192,35.0,32,0.0,991.8,9.2,29.5,55,23.6,15.5,0,5,7,0,2026-03-25T14:26:13.083894+05:30
Warangal,Telangana,17.9689,79.5941,35.3,40,0.0,979.4,8.55,25.6,81,36.1,26.5,0,5,10,1,2026-03-25T14:26:13.083900+05:30
Nizamabad,Telangana,18.6725,78.0941,35.8,32,0.0,965.1,8.75,32.8,102,37.6,29.2,0,5,10,1,2026-03-25T14:26:13.083906+05:30
Mysore,Karnataka,12.2958,76.6396,35.1,28,0.0,928.3,9.45,34.9,85,26.5,20.9,0,5,10,0,2026-03-25T14:26:13.083913+05:30
Mangalore,Karnataka,12.9141,74.856,29.0,82,0.0,1005.8,9.05,26.6,107,47.5,35.3,7,5,4,1,2026-03-25T14:26:13.083919+05:30
Hubli-Dharwad,Karnataka,15.3647,75.124,31.9,51,0.0,941.2,9.1,33.1,126,44.7,34.0,0,5,7,1,2026-03-25T14:26:13.083926+05:30
Belgaum,Karnataka,15.8497,74.4977,29.8,55,0.0,926.5,9.05,25.6,118,45.9,34.1,4,5,7,1,2026-03-25T14:26:16.362320+05:30
Coimbatore,Tamil Nadu,11.0168,76.9558,35.6,30,0.0,961.4,9.4,36.4,56,18.1,13.2,0,5,10,0,2026-03-25T14:26:16.362349+05:30
Madurai,Tamil Nadu,9.9252,78.1198,35.5,37,0.0,992.3,9.35,25.9,53,13.0,8.8,0,5,10,1,2026-03-25T14:26:16.362359+05:30
Trichy,Tamil Nadu,10.7905,78.7047,34.1,46,0.0,999.5,9.3,22.7,54,18.6,14.7,0,5,7,1,2026-03-25T14:26:16.362367+05:30
Salem,Tamil Nadu,11.6643,78.146,35.9,36,0.0,976.7,9.35,31.0,77,32.2,27.1,0,5,10,1,2026-03-25T14:26:16.362374+05:30
Tirunelveli,Tamil Nadu,8.7139,77.7567,37.0,34,0.0,1002.0,9.3,37.4,40,10.7,7.4,0,5,7,1,2026-03-25T14:26:16.362381+05:30
Vellore,Tamil Nadu,12.9165,79.1325,34.7,33,0.0,984.7,9.3,32.0,62,21.7,15.1,0,5,7,1,2026-03-25T14:26:16.362388+05:30
Erode,Tamil Nadu,11.341,77.7172,35.9,38,0.0,988.2,9.3,24.8,51,17.9,13.9,0,5,10,1,2026-03-25T14:26:16.362395+05:30
Kochi,Kerala,9.9312,76.2673,29.2,77,0.0,1007.4,9.15,32.4,80,28.5,22.2,7,5,4,1,2026-03-25T14:26:16.362402+05:30
Thiruvananthapuram,Kerala,8.5241,76.9366,29.2,76,0.0,1006.5,9.2,30.2,72,21.9,17.8,7,5,4,1,2026-03-25T14:26:16.362409+05:30
Kozhikode,Kerala,11.2588,75.7804,30.4,75,0.0,1006.8,9.1,29.5,92,46.9,34.7,3,5,4,1,2026-03-25T14:26:16.362415+05:30
Thrissur,Kerala,10.5276,76.2144,33.5,57,0.0,1005.8,9.15,37.1,80,21.5,16.8,0,5,4,1,2026-03-25T14:26:16.362423+05:30
Kannur,Kerala,11.8745,75.3704,31.8,66,0.0,1006.1,9.1,28.8,105,50.4,38.0,3,5,4,1,2026-03-25T14:26:16.362429+05:30
Patna,Bihar,25.5941,85.1376,33.1,27,0.0,1001.4,7.4,32.4,104,64.7,29.7,0,5,4,0,2026-03-25T14:26:16.362436+05:30
Gaya,Bihar,24.7914,85.0002,32.6,34,0.0,995.1,8.05,23.0,114,69.6,22.5,0,5,7,0,2026-03-25T14:26:16.362443+05:30
Muzaffarpur,Bihar,26.1209,85.3647,32.6,29,0.0,1001.2,7.75,26.6,110,53.9,31.8,0,5,4,0,2026-03-25T14:26:16.362449+05:30
Bhagalpur,Bihar,25.2425,87.0117,32.0,39,0.0,1002.1,8.0,28.1,152,60.8,29.0,0,5,4,1,2026-03-25T14:26:16.362456+05:30
Ranchi,Jharkhand,23.3441,85.3096,31.2,27,0.0,939.0,8.4,31.0,96,33.9,16.3,0,5,7,0,2026-03-25T14:26:16.362462+05:30
Jamshedpur,Jharkhand,22.8046,86.2029,34.8,31,0.0,991.0,8.55,16.6,144,67.8,41.8,0,5,7,0,2026-03-25T14:26:16.362468+05:30
Dhanbad,Jharkhand,23.7957,86.4304,34.7,23,0.0,980.6,8.45,31.3,154,46.8,23.6,0,5,7,0,2026-03-25T14:26:16.362474+05:30
Bokaro,Jharkhand,23.6693,86.1511,34.2,24,0.0,984.5,8.45,28.1,151,49.9,25.3,0,5,7,0,2026-03-25T14:26:16.362481+05:30
Bhubaneswar,Odisha,20.2961,85.8245,33.3,52,0.0,1003.3,8.75,28.4,68,44.8,33.2,0,5,4,1,2026-03-25T14:26:16.362487+05:30
Cuttack,Odisha,20.4625,85.8828,34.8,48,0.0,1004.8,8.7,27.4,68,44.8,33.2,0,5,4,1,2026-03-25T14:26:16.362494+05:30
Rourkela,Odisha,22.2604,84.8536,34.3,41,0.0,985.7,8.45,20.9,138,60.5,38.6,0,5,7,1,2026-03-25T14:26:16.362500+05:30
Raipur,Chhattisgarh,21.2514,81.6296,35.4,36,0.0,975.0,7.9,29.2,152,54.6,45.1,0,5,10,1,2026-03-25T14:26:16.362506+05:30
Bhilai,Chhattisgarh,21.1938,81.3509,35.5,37,0.0,975.4,8.1,25.9,127,46.1,37.5,0,5,10,1,2026-03-25T14:26:16.362513+05:30
Guwahati,Assam,26.1158,91.7086,27.7,63,0.0,1002.9,7.85,28.1,125,65.7,44.2,7,5,4,1,2026-03-25T14:26:16.362519+05:30
Agartala,Tripura,23.8315,91.2868,30.7,61,0.0,1007.0,8.2,27.4,156,63.6,46.3,3,5,4,1,2026-03-25T14:26:16.362526+05:30
Shillong,Meghalaya,25.5788,91.8933,17.6,59,0.0,857.3,8.25,67.0,114,48.8,32.0,0,5,7,0,2026-03-25T14:26:16.362533+05:30
Imphal,Manipur,24.817,93.9368,20.9,68,0.0,924.6,8.45,72.4,119,48.2,32.9,3,5,7,0,2026-03-25T14:26:16.362540+05:30
Aizawl,Mizoram,23.7271,92.7176,25.6,40,0.0,895.0,7.7,43.9,115,59.5,34.0,4,5,7,0,2026-03-25T14:26:16.362547+05:30
Kohima,Nagaland,25.6701,94.1077,17.1,76,0.0,855.9,7.7,76.7,94,46.0,30.5,3,5,7,0,2026-03-25T14:26:16.362553+05:30
Gangtok,Sikkim,27.3314,88.6138,18.4,61,0.0,837.7,8.05,18.0,96,38.6,29.1,3,5,7,0,2026-03-25T14:26:16.362559+05:30
Siliguri,West Bengal,26.7271,88.3953,24.1,61,0.0,994.7,7.85,25.6,155,64.3,45.2,3,5,7,1,2026-03-25T14:26:19.638588+05:30
Durgapur,West Bengal,23.5204,87.3119,35.8,24,0.0,995.2,8.4,27.0,153,47.5,24.3,0,5,10,0,2026-03-25T14:26:19.638617+05:30
Asansol,West Bengal,23.6739,86.9524,35.6,24,0.0,993.8,8.4,26.6,139,46.1,22.2,0,5,10,0,2026-03-25T14:26:19.638627+05:30
Pondicherry,Puducherry,11.9139,79.8145,33.5,52,0.0,1008.5,9.15,29.5,36,16.9,9.8,0,0,4,1,2026-03-25T14:26:19.638635+05:30
Port Blair,Andaman and Nicobar Islands,11.6234,92.7265,28.1,75,0.0,1007.2,9.1,24.5,72,22.3,17.5,7,5,4,1,2026-03-25T14:26:19.638643+05:30
Haridwar,Uttarakhand,29.9457,78.1642,29.6,44,0.0,975.7,6.45,26.6,89,27.4,21.5,4,5,7,0,2026-03-25T14:26:19.638651+05:30
Rishikesh,Uttarakhand,30.0869,78.2676,28.1,48,0.0,968.4,6.5,25.2,79,23.9,17.2,4,5,7,1,2026-03-25T14:26:19.638658+05:30
Nainital,Uttarakhand,29.3919,79.4542,20.2,63,0.0,807.6,7.35,27.7,77,25.8,18.5,3,5,7,0,2026-03-25T14:26:19.638665+05:30
Mussoorie,Uttarakhand,30.4599,78.0664,19.3,60,0.0,804.4,6.85,26.6,75,23.3,17.9,0,5,7,0,2026-03-25T14:26:19.638672+05:30
Dharamshala,Himachal Pradesh,32.219,76.3234,21.7,65,0.0,870.8,7.1,19.4,97,19.6,10.0,3,5,7,0,2026-03-25T14:26:19.638679+05:30
Dalhousie,Himachal Pradesh,32.5387,75.971,19.3,52,0.0,805.6,7.35,19.4,72,23.7,15.6,0,5,7,0,2026-03-25T14:26:19.638687+05:30
Patiala,Punjab,30.3398,76.3869,30.3,37,0.0,980.2,6.4,28.4,143,197.0,34.7,0,5,7,0,2026-03-25T14:26:19.638693+05:30
Bhatinda,Punjab,30.211,74.9455,30.8,36,0.0,986.0,6.2,23.8,135,37.4,22.5,0,5,7,0,2026-03-25T14:26:19.638700+05:30
Rohtak,Haryana,28.8955,76.6066,30.9,37,0.0,984.0,6.5,21.2,382,258.9,39.8,0,5,7,0,2026-03-25T14:26:19.638707+05:30
Panipat,Haryana,29.3909,76.9635,30.8,36,0.0,982.4,6.05,28.8,629,470.3,57.0,0,5,7,0,2026-03-25T14:26:19.638713+05:30
Mathura,Uttar Pradesh,27.4924,77.6737,32.2,31,0.0,989.1,6.85,21.2,514,260.8,43.2,0,5,7,0,2026-03-25T14:26:19.638719+05:30
Vrindavan,Uttar Pradesh,27.5823,77.7027,31.8,33,0.0,989.5,6.8,24.5,514,260.8,43.2,0,5,7,0,2026-03-25T14:26:19.638726+05:30
Ayodhya,Uttar Pradesh,26.7922,82.1998,33.8,21,0.0,996.3,7.3,35.6,103,86.6,22.9,0,5,7,0,2026-03-25T14:26:19.638732+05:30
Ratlam,Madhya Pradesh,23.3315,75.0367,34.4,25,0.0,955.6,8.05,25.6,74,26.2,12.6,0,5,7,0,2026-03-25T14:26:19.638738+05:30
Sagar,Madhya Pradesh,23.8388,78.7378,33.4,25,0.0,952.0,8.05,22.0,57,24.7,8.6,0,5,7,0,2026-03-25T14:26:19.638744+05:30
Satna,Madhya Pradesh,24.6005,80.8322,34.2,24,0.0,972.9,7.8,27.7,80,88.5,18.3,0,5,7,0,2026-03-25T14:26:19.638768+05:30
Akola,Maharashtra,20.7002,77.0082,37.2,24,0.0,975.4,8.45,23.8,55,18.0,11.6,0,5,10,0,2026-03-25T14:26:19.638776+05:30
Amravati,Maharashtra,20.9374,77.7796,37.3,21,0.0,967.6,8.45,20.2,60,16.8,10.7,0,5,10,0,2026-03-25T14:26:19.638783+05:30
Latur,Maharashtra,18.4088,76.5604,34.7,29,0.0,940.2,8.75,15.5,105,38.9,28.2,0,5,7,0,2026-03-25T14:26:19.638790+05:30
Nanded,Maharashtra,19.1383,77.3091,38.1,21,0.0,968.5,8.65,20.5,98,36.6,27.5,0,5,10,0,2026-03-25T14:26:19.638796+05:30
Gulbarga,Karnataka,17.3297,76.8343,35.7,33,0.0,959.1,8.85,49.0,103,39.8,29.8,0,5,10,1,2026-03-25T14:26:19.638802+05:30
Bidar,Karnataka,17.9104,77.5199,34.0,34,0.0,936.4,8.85,24.8,98,37.0,27.3,0,5,7,0,2026-03-25T14:26:19.638808+05:30
Hospet,Karnataka,15.2689,76.3909,33.2,42,0.0,956.0,9.1,21.2,117,37.0,29.6,0,5,7,1,2026-03-25T14:26:19.638814+05:30
Tirupur,Tamil Nadu,11.1085,77.3411,36.4,32,0.0,974.6,9.4,29.2,56,18.3,14.6,0,5,10,1,2026-03-25T14:26:19.638820+05:30
Alappuzha,Kerala,9.4981,76.3388,29.1,78,0.0,1007.5,9.15,28.1,79,30.6,24.2,7,5,4,1,2026-03-25T14:26:19.638826+05:30
Munnar,Kerala,10.0889,77.0595,30.4,43,0.0,858.9,9.65,31.0,55,13.9,9.5,0,5,7,1,2026-03-25T14:26:19.638833+05:30
Silchar,Assam,24.8333,92.7789,28.1,65,0.0,1006.8,8.15,36.0,159,78.9,52.6,7,5,4,1,2026-03-25T14:26:19.638840+05:30
Dibrugarh,Assam,27.4728,94.912,21.7,76,0.0,998.7,6.95,27.7,78,23.4,18.7,3,5,7,1,2026-03-25T14:26:19.638846+05:30
