city,state,latitude,longitude,temp,humidity,rain,pressure,uv_index,wind_gusts,aqi,pm10,pm2_5,no2,co,o3,so2,mosquito_risk,arthritis_risk,migraine_risk,frizz_risk,updated_at
Delhi,Delhi,28.6139,77.209,27.6,92,0.0,975.4,7.4,21.2,151,75.7,64.7,34.7,889.0,50.0,30.4,7,5,7,1,2026-07-05T05:33:20.784731+05:30
Mumbai,Maharashtra,19.076,72.8777,26.6,91,1.0,998.5,0.85,67.3,29,11.2,6.1,4.6,100.0,62.0,3.5,10,5,3,1,2026-07-05T05:33:20.784774+05:30
Bangalore,Karnataka,12.9716,77.5946,21.2,87,0.0,909.0,5.15,67.7,19,2.1,1.5,3.9,141.0,42.0,2.5,3,5,3,1,2026-07-05T05:33:20.784789+05:30
Hyderabad,Telangana,17.385,78.4867,23.5,86,0.1,946.8,3.4,67.7,19,2.2,1.9,4.9,126.0,39.0,2.9,6,5,3,1,2026-07-05T05:33:20.784799+05:30
Chennai,Tamil Nadu,13.0827,80.2707,29.7,57,0.0,1003.5,8.25,62.3,43,8.2,6.1,10.6,140.0,34.0,6.6,4,5,4,1,2026-07-05T05:33:20.784807+05:30
Kolkata,West Bengal,22.5726,88.3639,26.7,93,0.0,994.0,7.6,42.5,41,11.5,10.4,7.9,202.0,63.0,6.6,7,5,7,1,2026-07-05T05:33:20.784815+05:30
Pune,Maharashtra,18.5204,73.8567,23.4,93,0.1,939.3,0.8,55.8,20,0.7,0.7,2.7,98.0,44.0,1.8,6,5,3,1,2026-07-05T05:33:20.784822+05:30
Ahmedabad,Gujarat,23.0225,72.5714,25.6,97,0.1,993.0,6.85,41.0,64,23.5,14.4,20.8,188.0,26.0,10.5,10,5,7,1,2026-07-05T05:33:20.784829+05:30
Jaipur,Rajasthan,26.9124,75.7873,27.8,89,0.0,951.7,7.35,39.6,104,31.0,23.6,20.0,298.0,51.0,5.7,7,5,7,1,2026-07-05T05:33:20.784836+05:30
Lucknow,Uttar Pradesh,26.8467,80.9462,27.8,98,0.0,985.2,7.7,36.7,95,31.4,31.1,19.5,408.0,58.0,5.9,7,5,7,1,2026-07-05T05:33:20.784847+05:30
Kanpur,Uttar Pradesh,26.4499,80.3319,27.7,94,0.0,983.6,8.1,35.3,91,27.2,26.7,19.5,380.0,54.0,5.1,7,5,7,1,2026-07-05T05:33:20.784855+05:30
Chandigarh,Chandigarh,30.7333,76.7794,27.0,92,0.0,961.1,7.1,23.0,138,62.2,61.5,29.9,437.0,42.0,10.7,7,5,7,1,2026-07-05T05:33:20.784862+05:30
Srinagar,Jammu and Kashmir,34.0837,74.7973,17.4,100,0.0,836.3,9.05,26.3,81,48.8,43.0,24.8,422.0,11.0,2.0,3,10,7,1,2026-07-05T05:33:20.784869+05:30
Jammu,Jammu and Kashmir,32.7266,74.857,27.6,86,0.0,965.4,8.5,26.6,119,61.5,58.4,43.5,348.0,4.0,2.6,7,5,7,1,2026-07-05T05:33:20.784875+05:30
Amritsar,Punjab,31.634,74.8723,29.1,84,0.0,972.7,8.4,48.2,151,87.3,81.0,27.2,525.0,58.0,9.0,7,5,7,1,2026-07-05T05:33:20.784882+05:30
Ludhiana,Punjab,30.901,75.8573,28.2,92,0.0,970.7,7.8,28.1,164,150.4,138.8,57.7,601.0,20.0,15.2,7,5,7,1,2026-07-05T05:33:20.784890+05:30
Jalandhar,Punjab,31.326,75.5762,28.4,91,0.0,971.7,7.45,34.6,164,147.6,136.4,63.0,662.0,20.0,8.4,7,5,7,1,2026-07-05T05:33:20.784897+05:30
Dehradun,Uttarakhand,30.6284,78.0322,17.3,98,0.0,825.5,7.25,27.4,45,12.8,12.6,21.1,249.0,44.0,0.5,3,10,7,1,2026-07-05T05:33:20.784906+05:30
Shimla,Himachal Pradesh,31.1048,77.1734,14.5,97,0.0,779.2,6.65,33.8,60,11.3,11.1,10.3,322.0,66.0,0.1,3,10,7,0,2026-07-05T05:33:20.784912+05:30
Manali,Himachal Pradesh,32.2396,77.1887,17.0,74,0.0,813.6,9.4,36.0,41,2.2,2.1,13.4,190.0,95.0,0.0,3,5,7,0,2026-07-05T05:33:20.784921+05:30
Gurgaon,Haryana,28.4595,77.0266,28.3,93,0.0,973.4,5.85,30.2,150,67.1,57.6,29.1,489.0,54.0,20.1,7,5,3,1,2026-07-05T05:33:20.784927+05:30
Noida,Uttar Pradesh,28.5355,77.391,27.2,96,0.2,977.0,6.55,19.8,150,67.1,57.6,29.1,714.0,54.0,20.1,10,5,7,1,2026-07-05T05:33:20.784933+05:30
Ghaziabad,Uttar Pradesh,28.6692,77.4538,26.6,96,0.5,975.1,7.05,27.4,123,47.4,47.1,22.3,671.0,59.0,6.2,10,5,7,1,2026-07-05T05:33:20.784940+05:30
Faridabad,Haryana,28.4089,77.3178,26.9,97,0.2,976.4,5.8,22.7,150,67.1,57.6,29.1,495.0,54.0,20.1,10,5,3,1,2026-07-05T05:33:20.784946+05:30
Meerut,Uttar Pradesh,28.9845,77.7064,26.0,97,0.1,974.5,7.65,28.4,123,47.4,47.1,22.3,703.0,59.0,6.2,10,5,7,1,2026-07-05T05:33:20.784952+05:30
Agra,Uttar Pradesh,27.1767,78.0081,27.9,94,0.0,979.7,8.05,32.8,95,37.6,35.2,24.5,391.0,41.0,7.4,7,5,7,1,2026-07-05T05:33:20.784958+05:30
Varanasi,Uttar Pradesh,25.3176,82.9739,29.9,78,0.0,988.3,6.25,41.0,79,27.7,27.5,15.3,506.0,72.0,12.3,7,5,7,1,2026-07-05T05:33:20.784965+05:30
Prayagraj,Uttar Pradesh,25.4358,81.8463,26.5,96,0.3,986.5,8.05,36.4,87,36.6,36.1,21.8,376.0,52.0,8.2,10,5,7,1,2026-07-05T05:33:20.784972+05:30
Gorakhpur,Uttar Pradesh,26.7606,83.3732,29.8,78,0.0,989.1,7.95,42.5,100,46.2,45.8,20.8,395.0,54.0,9.8,7,5,7,1,2026-07-05T05:33:20.784978+05:30
Bareilly,Uttar Pradesh,28.367,79.4304,27.5,94,0.0,978.9,7.15,25.6,97,38.2,37.7,29.6,399.0,37.0,5.1,7,5,7,1,2026-07-05T05:33:20.784987+05:30
Aligarh,Uttar Pradesh,27.8974,78.088,27.7,95,0.1,977.4,6.55,22.7,101,46.0,45.4,23.6,509.0,52.0,8.3,10,5,7,1,2026-07-05T05:33:20.784993+05:30
Moradabad,Uttar Pradesh,28.8386,78.7733,27.9,89,0.0,975.7,7.3,22.7,119,70.1,69.8,41.2,358.0,37.0,14.1,7,5,7,1,2026-07-05T05:33:20.785000+05:30
Saharanpur,Uttar Pradesh,29.9637,77.546,28.1,92,0.0,967.9,6.8,25.6,149,70.5,69.2,23.6,833.0,54.0,11.2,7,5,7,1,2026-07-05T05:33:20.785006+05:30
Jhansi,Uttar Pradesh,25.4484,78.5685,27.6,87,0.0,969.6,7.7,35.6,72,25.1,24.9,16.2,250.0,54.0,3.7,7,5,7,1,2026-07-05T05:33:24.107491+05:30
Surat,Gujarat,21.1702,72.8311,25.3,99,0.0,996.9,2.55,29.9,73,29.0,27.2,41.1,268.0,6.0,68.0,7,5,3,1,2026-07-05T05:33:24.107525+05:30
Vadodara,Gujarat,22.3072,73.1812,25.4,99,0.0,995.2,6.35,26.3,51,10.4,9.0,14.0,186.0,33.0,4.3,7,5,7,1,2026-07-05T05:33:24.107543+05:30
Rajkot,Gujarat,22.3039,70.8022,27.8,88,0.0,984.6,4.4,41.0,68,46.4,18.6,5.0,91.0,46.0,4.7,7,5,3,1,2026-07-05T05:33:24.107555+05:30
Thane,Maharashtra,19.2183,72.9781,25.8,96,0.7,997.7,0.8,54.7,29,11.2,6.1,4.6,109.0,62.0,3.5,10,5,3,1,2026-07-05T05:33:24.107565+05:30
Nagpur,Maharashtra,21.1458,79.0882,24.6,96,0.2,965.4,6.3,36.4,47,8.2,7.8,14.2,211.0,38.0,11.8,6,5,7,1,2026-07-05T05:33:24.107574+05:30
Nashik,Maharashtra,19.9975,73.7898,22.7,98,0.1,935.6,0.8,57.6,14,1.7,1.6,7.2,120.0,36.0,6.4,6,5,3,1,2026-07-05T05:33:24.107584+05:30
Aurangabad,Maharashtra,19.8762,75.3433,22.7,96,0.0,935.7,7.65,58.0,16,3.1,2.9,7.6,173.0,32.0,5.0,3,5,7,1,2026-07-05T05:33:24.107593+05:30
Solapur,Maharashtra,17.6599,75.9064,24.3,85,0.0,950.9,1.6,74.2,19,1.5,1.2,2.9,103.0,42.0,1.4,3,5,3,1,2026-07-05T05:33:24.107601+05:30
Kolhapur,Maharashtra,16.705,74.2433,22.4,95,0.2,941.9,3.5,59.8,21,1.5,1.1,1.6,96.0,47.0,0.9,6,5,3,1,2026-07-05T05:33:24.107611+05:30
Goa,Goa,15.2993,74.124,23.7,98,0.4,995.5,7.8,45.0,44,24.7,12.1,1.1,134.0,50.0,0.6,6,5,7,1,2026-07-05T05:33:24.107620+05:30
Jodhpur,Rajasthan,26.2389,73.0243,28.0,83,0.0,973.6,8.4,29.9,140,83.6,31.4,7.6,136.0,42.0,3.1,7,5,7,1,2026-07-05T05:33:24.107629+05:30
Udaipur,Rajasthan,24.5854,73.7125,23.8,95,0.0,937.6,8.1,34.9,69,17.0,10.1,9.2,150.0,38.0,2.5,3,5,7,1,2026-07-05T05:33:24.107637+05:30
Kota,Rajasthan,25.2138,75.8648,27.2,94,0.0,969.7,7.5,26.6,78,39.0,27.4,16.5,344.0,44.0,3.5,7,5,7,1,2026-07-05T05:33:24.107644+05:30
Bikaner,Rajasthan,28.0229,73.3119,31.6,62,0.0,972.4,8.25,29.2,113,166.2,56.5,4.6,243.0,54.0,5.1,3,5,7,1,2026-07-05T05:33:24.107651+05:30
Ajmer,Rajasthan,26.4499,74.6399,27.3,81,0.0,946.3,8.35,29.2,105,61.5,31.3,18.0,192.0,31.0,5.4,7,5,7,1,2026-07-05T05:33:24.107657+05:30
Gwalior,Madhya Pradesh,26.2183,78.1828,27.4,95,0.0,974.6,6.95,31.7,73,27.3,25.9,14.0,269.0,60.0,3.7,7,5,7,1,2026-07-05T05:33:24.107664+05:30
Indore,Madhya Pradesh,22.7196,75.8577,23.7,95,0.0,939.6,7.85,28.4,58,18.8,17.2,11.1,270.0,49.0,4.0,3,5,7,1,2026-07-05T05:33:24.107670+05:30
Bhopal,Madhya Pradesh,23.2599,77.4126,24.7,99,0.0,945.0,8.4,30.2,65,33.2,31.5,15.1,346.0,39.0,3.3,3,5,7,1,2026-07-05T05:33:24.107677+05:30
Jabalpur,Madhya Pradesh,23.1815,79.9864,24.5,99,0.0,952.9,8.25,37.4,71,30.5,30.3,12.1,237.0,59.0,4.4,3,5,7,1,2026-07-05T05:33:24.107683+05:30
Ujjain,Madhya Pradesh,23.1765,75.7885,23.9,97,0.0,945.2,8.45,23.4,57,18.4,16.3,8.1,231.0,56.0,2.7,3,5,7,1,2026-07-05T05:33:24.107690+05:30
Visakhapatnam,Andhra Pradesh,17.6868,83.2185,25.3,90,0.2,993.0,2.9,59.4,36,8.7,7.2,13.7,208.0,32.0,18.7,10,5,3,1,2026-07-05T05:33:24.107697+05:30
Vijayawada,Andhra Pradesh,16.5062,80.648,28.6,67,0.0,996.5,4.05,58.0,31,6.1,4.4,6.2,119.0,36.0,4.5,7,5,3,1,2026-07-05T05:33:24.107703+05:30
Guntur,Andhra Pradesh,16.3067,80.4365,28.5,66,0.0,998.0,3.1,52.6,28,5.9,4.2,6.1,117.0,36.0,4.5,7,5,3,1,2026-07-05T05:33:24.107709+05:30
Nellore,Andhra Pradesh,14.4426,79.9865,29.7,57,0.0,1001.5,2.75,56.9,26,5.1,3.0,3.7,103.0,43.0,2.6,4,5,0,1,2026-07-05T05:33:24.107716+05:30
Kurnool,Andhra Pradesh,15.8281,78.0373,25.9,76,0.0,972.2,2.7,70.6,19,3.8,2.4,3.2,98.0,41.0,2.0,7,5,3,1,2026-07-05T05:33:24.107724+05:30
Kakinada,Andhra Pradesh,16.9891,82.2475,27.9,72,0.0,999.4,4.3,61.9,31,9.4,6.9,7.4,140.0,39.0,4.7,7,5,3,1,2026-07-05T05:33:24.107731+05:30
Tirupati,Andhra Pradesh,13.6288,79.4192,28.4,58,0.0,987.3,4.25,56.9,34,4.7,3.0,4.8,102.0,39.0,1.8,4,5,3,1,2026-07-05T05:33:24.107737+05:30
Warangal,Telangana,17.9689,79.5941,25.4,82,0.0,972.0,1.4,48.2,18,3.0,2.8,6.2,125.0,35.0,2.5,7,5,3,1,2026-07-05T05:33:24.107743+05:30
Nizamabad,Telangana,18.6725,78.0941,24.7,85,0.0,957.7,1.95,54.4,19,3.0,2.7,6.2,117.0,36.0,3.3,3,5,3,1,2026-07-05T05:33:24.107749+05:30
Mysore,Karnataka,12.2958,76.6396,22.1,88,0.0,926.4,7.4,68.0,20,1.7,1.2,2.7,95.0,43.0,1.3,3,5,7,1,2026-07-05T05:33:24.107755+05:30
Mangalore,Karnataka,12.9141,74.856,23.8,94,0.2,1006.3,6.55,59.8,46,24.0,12.2,3.8,97.0,36.0,1.3,6,5,4,1,2026-07-05T05:33:24.107762+05:30
Hubli-Dharwad,Karnataka,15.3647,75.124,21.3,97,0.1,936.5,5.5,59.4,21,4.2,2.4,1.3,87.0,46.0,0.5,6,5,3,1,2026-07-05T05:33:24.107769+05:30
Belgaum,Karnataka,15.8497,74.4977,20.9,97,0.2,920.8,2.85,61.6,22,1.8,1.2,1.6,89.0,49.0,0.7,6,5,3,1,2026-07-05T05:33:27.504800+05:30
Coimbatore,Tamil Nadu,11.0168,76.9558,22.2,96,0.0,960.1,8.35,59.0,18,3.1,2.1,3.3,105.0,38.0,1.9,3,5,7,1,2026-07-05T05:33:27.504835+05:30
Madurai,Tamil Nadu,9.9252,78.1198,28.8,62,0.0,991.2,7.3,68.0,40,20.7,15.4,20.4,101.0,11.0,4.5,7,5,7,1,2026-07-05T05:33:27.504846+05:30
Trichy,Tamil Nadu,10.7905,78.7047,28.1,65,0.0,997.6,8.6,75.2,28,12.0,7.0,5.8,115.0,37.0,2.5,7,5,7,1,2026-07-05T05:33:27.504855+05:30
Salem,Tamil Nadu,11.6643,78.146,24.2,85,0.0,975.4,8.2,42.1,39,13.5,10.6,15.5,159.0,23.0,5.4,3,5,7,1,2026-07-05T05:33:27.504864+05:30
Tirunelveli,Tamil Nadu,8.7139,77.7567,26.9,73,0.0,1002.3,8.6,49.3,24,7.2,4.9,6.8,131.0,27.0,2.0,7,5,4,1,2026-07-05T05:33:27.504872+05:30
Vellore,Tamil Nadu,12.9165,79.1325,27.4,63,0.0,981.2,8.35,62.3,28,6.0,3.7,4.3,107.0,41.0,2.3,7,5,7,1,2026-07-05T05:33:27.504880+05:30
Erode,Tamil Nadu,11.341,77.7172,24.8,82,0.0,987.3,7.75,60.8,30,10.0,8.2,11.9,108.0,29.0,3.1,3,5,7,1,2026-07-05T05:33:27.504888+05:30
Kochi,Kerala,9.9312,76.2673,26.1,94,0.0,1008.9,8.1,45.0,49,19.0,10.7,7.6,86.0,33.0,2.9,7,0,4,1,2026-07-05T05:33:27.504895+05:30
Thiruvananthapuram,Kerala,8.5241,76.9366,24.2,97,0.1,1008.6,8.2,47.9,35,25.8,12.1,2.1,84.0,46.0,0.9,6,0,4,1,2026-07-05T05:33:27.504902+05:30
Kozhikode,Kerala,11.2588,75.7804,22.5,100,0.1,1008.2,8.4,46.1,39,26.0,12.0,0.6,121.0,51.0,0.6,6,0,4,1,2026-07-05T05:33:27.504910+05:30
Thrissur,Kerala,10.5276,76.2144,23.2,97,0.1,1007.4,6.2,49.3,43,15.9,9.5,6.4,147.0,33.0,2.3,6,5,4,1,2026-07-05T05:33:27.504919+05:30
Kannur,Kerala,11.8745,75.3704,24.3,94,0.0,1007.0,7.3,55.1,42,13.6,7.1,5.8,143.0,27.0,1.6,3,5,4,1,2026-07-05T05:33:27.504926+05:30
Patna,Bihar,25.5941,85.1376,29.5,81,0.0,991.2,7.25,48.2,74,30.3,30.0,15.1,311.0,69.0,9.5,7,5,7,1,2026-07-05T05:33:27.504933+05:30
Gaya,Bihar,24.7914,85.0002,28.8,77,0.0,984.0,7.5,46.4,63,26.0,25.5,17.4,276.0,50.0,12.3,7,5,7,1,2026-07-05T05:33:27.504941+05:30
Muzaffarpur,Bihar,26.1209,85.3647,27.8,88,0.1,991.8,8.4,48.2,82,29.1,28.6,13.8,303.0,69.0,7.1,10,5,7,1,2026-07-05T05:33:27.504948+05:30
Bhagalpur,Bihar,25.2425,87.0117,26.8,95,0.0,992.2,8.45,50.0,64,23.3,22.1,14.1,282.0,53.0,7.7,7,5,7,1,2026-07-05T05:33:27.504955+05:30
Ranchi,Jharkhand,23.3441,85.3096,23.4,95,0.0,927.3,5.85,49.7,60,15.6,15.0,13.4,186.0,55.0,18.5,3,5,3,1,2026-07-05T05:33:27.504962+05:30
Jamshedpur,Jharkhand,22.8046,86.2029,26.6,87,0.0,978.6,6.85,46.4,54,12.4,11.7,15.9,315.0,40.0,19.5,7,5,7,1,2026-07-05T05:33:27.504970+05:30
Dhanbad,Jharkhand,23.7957,86.4304,25.7,91,0.0,969.5,6.2,51.5,71,17.2,16.6,20.9,221.0,37.0,41.7,7,5,7,1,2026-07-05T05:33:27.504977+05:30
Bokaro,Jharkhand,23.6693,86.1511,25.8,90,0.0,973.3,6.1,51.5,71,18.7,17.9,20.0,241.0,40.0,41.9,7,5,7,1,2026-07-05T05:33:27.504985+05:30
Bhubaneswar,Odisha,20.2961,85.8245,25.1,99,0.4,987.7,7.0,47.2,51,8.6,8.3,10.4,226.0,49.0,4.9,10,5,7,1,2026-07-05T05:33:27.504993+05:30
Cuttack,Odisha,20.4625,85.8828,25.6,98,0.3,989.1,7.5,36.7,51,8.6,8.3,10.4,253.0,49.0,4.9,10,5,7,1,2026-07-05T05:33:27.505000+05:30
Rourkela,Odisha,22.2604,84.8536,25.9,93,0.0,972.3,7.8,57.2,54,15.0,14.2,16.7,473.0,46.0,25.1,7,5,7,1,2026-07-05T05:33:27.505007+05:30
Raipur,Chhattisgarh,21.2514,81.6296,24.4,97,0.1,965.1,3.95,34.9,75,18.3,18.2,28.1,213.0,34.0,46.3,6,5,3,1,2026-07-05T05:33:27.505014+05:30
Bhilai,Chhattisgarh,21.1938,81.3509,24.4,97,0.0,965.9,5.4,37.4,69,13.4,13.3,21.0,341.0,35.0,35.3,3,5,3,1,2026-07-05T05:33:27.505021+05:30
Guwahati,Assam,26.1158,91.7086,27.0,94,0.1,994.3,8.4,32.4,28,8.9,8.6,7.9,276.0,37.0,1.8,10,5,7,1,2026-07-05T05:33:27.505028+05:30
Agartala,Tripura,23.8315,91.2868,26.6,89,0.0,998.4,1.65,42.8,31,4.3,4.2,6.7,130.0,38.0,1.1,7,5,3,1,2026-07-05T05:33:27.505036+05:30
Shillong,Meghalaya,25.5788,91.8933,20.0,98,0.1,852.7,7.95,34.9,19,1.3,1.2,4.1,176.0,43.0,1.7,6,5,7,1,2026-07-05T05:33:27.505043+05:30
Imphal,Manipur,24.817,93.9368,23.1,95,0.1,918.3,4.4,24.1,23,5.0,4.9,4.5,222.0,41.0,1.2,6,5,3,1,2026-07-05T05:33:27.505050+05:30
Aizawl,Mizoram,23.7271,92.7176,20.8,100,0.2,886.4,3.15,34.9,19,5.2,5.1,6.3,145.0,14.0,0.4,6,5,3,1,2026-07-05T05:33:27.505057+05:30
Kohima,Nagaland,25.6701,94.1077,20.9,89,0.0,851.1,8.2,22.0,20,3.9,3.8,4.4,165.0,35.0,0.5,3,5,7,1,2026-07-05T05:33:27.505064+05:30
Gangtok,Sikkim,27.3314,88.6138,18.8,94,0.0,833.5,8.5,33.8,47,16.6,15.3,8.4,311.0,76.0,1.5,3,10,7,1,2026-07-05T05:33:27.505072+05:30
Siliguri,West Bengal,26.7271,88.3953,25.5,96,0.1,986.2,8.7,41.4,74,31.1,29.9,12.9,223.0,73.0,4.4,10,5,7,1,2026-07-05T05:33:30.923487+05:30
Durgapur,West Bengal,23.5204,87.3119,27.0,89,0.0,984.1,7.65,46.4,60,13.6,13.0,15.1,216.0,47.0,15.6,7,5,7,1,2026-07-05T05:33:30.923523+05:30
Asansol,West Bengal,23.6739,86.9524,26.4,91,0.0,982.9,8.0,46.4,60,12.3,11.7,15.3,199.0,45.0,15.8,7,5,7,1,2026-07-05T05:33:30.923534+05:30
Pondicherry,Puducherry,11.9139,79.8145,27.6,69,0.0,1005.4,5.95,49.0,41,15.3,10.7,11.1,154.0,36.0,7.7,7,5,0,1,2026-07-05T05:33:30.923542+05:30
Port Blair,Andaman and Nicobar Islands,11.6234,92.7265,26.6,93,0.1,1005.7,6.25,49.3,50,23.5,13.3,0.2,93.0,52.0,0.5,10,5,4,1,2026-07-05T05:33:30.923550+05:30
Haridwar,Uttarakhand,29.9457,78.1642,27.2,87,0.0,966.0,6.95,22.0,105,48.3,48.3,18.1,322.0,70.0,8.4,7,5,7,1,2026-07-05T05:33:30.923558+05:30
Rishikesh,Uttarakhand,30.0869,78.2676,25.1,93,0.0,958.9,7.05,25.9,61,17.1,16.9,5.7,301.0,96.0,3.3,7,5,7,1,2026-07-05T05:33:30.923565+05:30
Nainital,Uttarakhand,29.3919,79.4542,16.1,100,0.0,801.1,6.7,26.3,53,6.2,6.1,9.3,231.0,77.0,1.1,3,10,7,1,2026-07-05T05:33:30.923573+05:30
Mussoorie,Uttarakhand,30.4599,78.0664,17.4,96,0.0,799.0,7.2,35.3,76,34.8,34.8,13.4,308.0,96.0,9.9,3,10,7,1,2026-07-05T05:33:30.923581+05:30
Dharamshala,Himachal Pradesh,32.219,76.3234,22.0,84,0.0,864.0,8.25,33.1,34,4.5,4.3,6.3,465.0,85.0,0.1,3,5,7,1,2026-07-05T05:33:30.923587+05:30
Dalhousie,Himachal Pradesh,32.5387,75.971,16.1,96,0.0,799.4,8.05,26.3,72,14.9,13.8,13.6,390.0,80.0,1.5,3,10,7,0,2026-07-05T05:33:30.923595+05:30
Patiala,Punjab,30.3398,76.3869,27.7,94,0.0,970.2,7.1,28.4,158,136.9,130.9,53.6,723.0,16.0,13.8,7,5,7,1,2026-07-05T05:33:30.923602+05:30
Bhatinda,Punjab,30.211,74.9455,30.3,82,0.0,975.3,7.15,33.5,154,167.2,78.2,23.5,502.0,56.0,7.4,3,5,7,1,2026-07-05T05:33:30.923608+05:30
Rohtak,Haryana,28.8955,76.6066,29.3,91,0.0,973.5,7.55,22.0,156,149.9,85.0,37.2,859.0,40.0,34.2,7,5,7,1,2026-07-05T05:33:30.923615+05:30
Panipat,Haryana,29.3909,76.9635,28.6,92,0.0,972.3,7.5,22.3,167,133.6,97.6,39.8,785.0,25.0,24.6,7,5,7,1,2026-07-05T05:33:30.923622+05:30
Mathura,Uttar Pradesh,27.4924,77.6737,27.0,97,0.2,978.7,7.35,21.2,110,46.6,43.5,24.3,409.0,51.0,6.1,10,5,7,1,2026-07-05T05:33:30.923629+05:30
Vrindavan,Uttar Pradesh,27.5823,77.7027,27.5,95,0.1,979.2,7.3,20.2,110,46.6,43.5,24.3,400.0,51.0,6.1,10,5,7,1,2026-07-05T05:33:30.923636+05:30
Ayodhya,Uttar Pradesh,26.7922,82.1998,27.7,93,0.1,986.8,7.5,29.9,97,46.0,45.8,21.0,404.0,57.0,8.7,10,5,7,1,2026-07-05T05:33:30.923642+05:30
Ratlam,Madhya Pradesh,23.3315,75.0367,23.8,98,0.0,946.3,8.3,28.4,51,14.0,11.6,5.6,183.0,64.0,2.0,3,5,7,1,2026-07-05T05:33:30.923649+05:30
Sagar,Madhya Pradesh,23.8388,78.7378,24.3,98,0.0,941.8,8.55,33.1,71,27.8,27.4,10.0,274.0,65.0,2.4,3,5,7,1,2026-07-05T05:33:30.923656+05:30
Satna,Madhya Pradesh,24.6005,80.8322,26.4,94,0.0,962.9,8.15,34.6,69,19.6,19.3,15.0,225.0,46.0,3.6,7,5,7,1,2026-07-05T05:33:30.923662+05:30
Akola,Maharashtra,20.7002,77.0082,25.2,90,0.0,967.0,7.55,35.6,22,6.0,5.4,13.7,183.0,30.0,8.2,7,5,7,1,2026-07-05T05:33:30.923670+05:30
Amravati,Maharashtra,20.9374,77.7796,24.4,95,0.1,959.3,7.2,38.5,23,5.8,5.3,12.5,161.0,35.0,8.8,6,5,7,1,2026-07-05T05:33:30.923677+05:30
Latur,Maharashtra,18.4088,76.5604,23.4,88,0.0,932.9,0.75,63.0,19,1.7,1.5,3.5,103.0,40.0,1.2,3,5,3,1,2026-07-05T05:33:30.923685+05:30
Nanded,Maharashtra,19.1383,77.3091,24.9,86,0.0,961.4,3.45,50.8,21,3.1,2.7,6.4,125.0,36.0,2.9,3,5,3,1,2026-07-05T05:33:30.923691+05:30
Gulbarga,Karnataka,17.3297,76.8343,24.2,82,0.0,953.0,1.7,73.4,18,1.6,1.3,3.7,102.0,41.0,2.0,3,5,3,1,2026-07-05T05:33:30.923698+05:30
Bidar,Karnataka,17.9104,77.5199,22.9,89,0.0,929.0,2.05,60.8,18,1.8,1.7,4.2,109.0,39.0,1.7,3,5,3,1,2026-07-05T05:33:30.923704+05:30
Hospet,Karnataka,15.2689,76.3909,23.4,88,0.0,951.8,4.85,75.2,20,2.3,1.4,1.8,91.0,45.0,1.0,3,5,3,1,2026-07-05T05:33:30.923710+05:30
Tirupur,Tamil Nadu,11.1085,77.3411,23.8,88,0.0,973.5,8.25,73.4,33,11.4,9.7,14.5,102.0,25.0,3.7,3,5,7,1,2026-07-05T05:33:30.923716+05:30
Alappuzha,Kerala,9.4981,76.3388,26.6,89,0.0,1009.0,8.1,42.5,44,20.8,10.5,4.5,84.0,39.0,1.7,7,0,4,1,2026-07-05T05:33:30.923723+05:30
Munnar,Kerala,10.0889,77.0595,16.7,100,0.3,855.5,2.8,54.7,14,2.1,1.4,3.1,86.0,32.0,1.4,6,10,3,1,2026-07-05T05:33:30.923730+05:30
Silchar,Assam,24.8333,92.7789,26.5,97,0.1,997.9,4.7,29.2,41,12.9,12.6,8.3,202.0,37.0,3.0,10,5,3,1,2026-07-05T05:33:30.923736+05:30
Dibrugarh,Assam,27.4728,94.912,28.4,82,0.0,988.6,8.95,28.1,47,23.3,22.9,15.9,194.0,43.0,1.3,7,5,7,1,2026-07-05T05:33:30.923743+05:30
