city,state,latitude,longitude,temp,humidity,rain,pressure,uv_index,wind_gusts,aqi,pm10,pm2_5,mosquito_risk,arthritis_risk,migraine_risk,frizz_risk,updated_at
Delhi,Delhi,28.6139,77.209,31.0,44,0.0,978.5,7.1,56.9,586,301.7,41.2,0,5,7,1,2026-04-28T14:54:38.637973+05:30
Mumbai,Maharashtra,19.076,72.8777,33.5,52,0.0,1005.1,8.05,40.0,93,63.6,35.5,0,5,4,1,2026-04-28T14:54:38.638015+05:30
Bangalore,Karnataka,12.9716,77.5946,36.6,20,0.0,910.1,9.2,33.8,114,49.0,31.8,0,5,10,0,2026-04-28T14:54:38.638032+05:30
Hyderabad,Telangana,17.385,78.4867,39.3,17,0.0,949.6,9.3,36.4,115,48.1,37.5,0,5,10,0,2026-04-28T14:54:38.638042+05:30
Chennai,Tamil Nadu,13.0827,80.2707,34.9,45,0.0,1002.9,8.4,55.4,51,18.0,14.3,0,5,4,1,2026-04-28T14:54:38.638051+05:30
Kolkata,West Bengal,22.5726,88.3639,36.8,49,0.0,998.1,8.85,49.3,67,37.4,30.6,0,5,10,1,2026-04-28T14:54:38.638060+05:30
Pune,Maharashtra,18.5204,73.8567,39.3,15,0.0,945.6,8.6,42.8,73,35.6,23.2,0,5,10,0,2026-04-28T14:54:38.638072+05:30
Ahmedabad,Gujarat,23.0225,72.5714,42.1,16,0.0,996.3,8.2,46.4,47,51.3,13.5,0,5,10,0,2026-04-28T14:54:38.638079+05:30
Jaipur,Rajasthan,26.9124,75.7873,39.2,15,0.0,954.9,8.1,37.1,159,135.0,17.6,0,5,10,0,2026-04-28T14:54:38.638087+05:30
Lucknow,Uttar Pradesh,26.8467,80.9462,41.2,19,0.0,985.9,7.9,39.6,135,150.9,39.8,0,5,10,0,2026-04-28T14:54:38.638095+05:30
Kanpur,Uttar Pradesh,26.4499,80.3319,42.4,14,0.0,984.0,7.95,40.3,183,512.2,67.3,0,5,10,0,2026-04-28T14:54:38.638102+05:30
Chandigarh,Chandigarh,30.7333,76.7794,31.1,39,0.0,965.2,5.8,34.2,86,45.3,15.1,0,5,3,0,2026-04-28T14:54:38.638110+05:30
Srinagar,Jammu and Kashmir,34.0837,74.7973,16.3,85,0.1,840.6,5.1,19.1,82,27.9,20.3,6,10,3,0,2026-04-28T14:54:38.638119+05:30
Jammu,Jammu and Kashmir,32.7266,74.857,30.4,38,0.0,969.5,6.6,27.0,58,27.5,9.1,0,5,7,0,2026-04-28T14:54:38.638126+05:30
Amritsar,Punjab,31.634,74.8723,34.5,27,0.0,976.2,6.9,32.8,85,70.8,20.0,0,5,7,0,2026-04-28T14:54:38.638133+05:30
Ludhiana,Punjab,30.901,75.8573,34.3,28,0.0,973.8,6.75,37.1,76,52.4,18.0,0,5,7,0,2026-04-28T14:54:38.638140+05:30
Jalandhar,Punjab,31.326,75.5762,31.1,37,0.0,975.2,6.9,37.8,81,76.1,20.7,0,5,7,0,2026-04-28T14:54:38.638149+05:30
Dehradun,Uttarakhand,30.6284,78.0322,23.2,33,0.0,829.6,4.95,43.2,74,43.1,14.0,0,5,3,0,2026-04-28T14:54:38.638156+05:30
Shimla,Himachal Pradesh,31.1048,77.1734,16.3,57,0.1,782.7,3.75,39.6,81,47.8,13.0,3,5,3,0,2026-04-28T14:54:38.638163+05:30
Manali,Himachal Pradesh,32.2396,77.1887,15.2,64,0.2,815.8,9.65,40.7,100,16.8,8.3,6,5,7,0,2026-04-28T14:54:38.638172+05:30
Gurgaon,Haryana,28.4595,77.0266,35.0,30,0.0,976.9,7.5,54.7,1300,1113.9,103.4,0,5,7,0,2026-04-28T14:54:38.638180+05:30
Noida,Uttar Pradesh,28.5355,77.391,31.6,45,0.0,980.6,7.5,47.9,1300,1113.9,103.4,0,5,7,1,2026-04-28T14:54:38.638188+05:30
Ghaziabad,Uttar Pradesh,28.6692,77.4538,34.3,33,0.0,978.3,7.15,32.4,477,228.2,35.0,0,5,7,0,2026-04-28T14:54:38.638194+05:30
Faridabad,Haryana,28.4089,77.3178,27.5,65,0.0,980.2,7.55,59.0,1300,1113.9,103.4,7,5,7,1,2026-04-28T14:54:38.638201+05:30
Meerut,Uttar Pradesh,28.9845,77.7064,34.5,31,0.0,976.5,6.85,37.1,477,228.2,35.0,0,5,7,0,2026-04-28T14:54:38.638207+05:30
Agra,Uttar Pradesh,27.1767,78.0081,40.7,18,0.0,981.3,7.8,40.7,613,685.5,61.7,0,5,10,0,2026-04-28T14:54:38.638214+05:30
Varanasi,Uttar Pradesh,25.3176,82.9739,41.7,20,0.0,989.3,8.5,40.0,154,160.2,38.4,0,5,10,0,2026-04-28T14:54:38.638223+05:30
Prayagraj,Uttar Pradesh,25.4358,81.8463,42.0,19,0.0,987.7,8.4,40.7,142,256.1,49.9,0,5,10,0,2026-04-28T14:54:38.638230+05:30
Gorakhpur,Uttar Pradesh,26.7606,83.3732,36.2,36,0.0,989.7,8.3,29.9,118,81.3,37.4,0,5,10,1,2026-04-28T14:54:38.638236+05:30
Bareilly,Uttar Pradesh,28.367,79.4304,38.5,25,0.0,979.9,7.75,45.7,131,58.9,24.6,0,5,10,0,2026-04-28T14:54:38.638242+05:30
Aligarh,Uttar Pradesh,27.8974,78.088,39.8,20,0.0,979.1,7.65,50.0,745,653.8,69.2,0,5,10,0,2026-04-28T14:54:38.638249+05:30
Moradabad,Uttar Pradesh,28.8386,78.7733,38.2,23,0.0,977.4,7.4,42.5,147,65.9,27.1,0,5,10,0,2026-04-28T14:54:38.638255+05:30
Saharanpur,Uttar Pradesh,29.9637,77.546,34.8,25,0.0,970.7,6.65,42.5,104,94.3,22.3,0,5,7,0,2026-04-28T14:54:38.638261+05:30
Jhansi,Uttar Pradesh,25.4484,78.5685,40.8,15,0.0,971.8,8.3,33.8,53,33.1,10.1,0,5,10,0,2026-04-28T14:54:42.003175+05:30
Surat,Gujarat,21.1702,72.8311,37.3,35,0.0,1002.3,7.9,45.0,89,52.2,30.4,0,5,7,1,2026-04-28T14:54:42.003202+05:30
Vadodara,Gujarat,22.3072,73.1812,42.3,11,0.0,998.8,8.15,46.8,67,31.4,11.2,0,5,10,0,2026-04-28T14:54:42.003211+05:30
Rajkot,Gujarat,22.3039,70.8022,42.3,16,0.0,989.1,7.9,51.1,45,41.9,13.0,0,5,10,0,2026-04-28T14:54:42.003219+05:30
Thane,Maharashtra,19.2183,72.9781,37.7,34,0.0,1003.8,8.05,37.1,93,63.6,35.5,0,5,7,1,2026-04-28T14:54:42.003226+05:30
Nagpur,Maharashtra,21.1458,79.0882,43.6,10,0.0,967.6,8.85,50.8,105,26.7,19.6,0,5,10,0,2026-04-28T14:54:42.003233+05:30
Nashik,Maharashtra,19.9975,73.7898,38.5,16,0.0,943.4,8.3,43.2,71,24.9,12.9,0,5,10,0,2026-04-28T14:54:42.003239+05:30
Aurangabad,Maharashtra,19.8762,75.3433,40.3,13,0.0,941.4,9.0,42.5,69,28.3,18.8,0,5,10,0,2026-04-28T14:54:42.003246+05:30
Solapur,Maharashtra,17.6599,75.9064,41.7,15,0.0,953.2,9.1,37.8,86,34.9,23.5,0,5,10,0,2026-04-28T14:54:42.003253+05:30
Kolhapur,Maharashtra,16.705,74.2433,39.0,21,0.0,945.1,5.95,49.3,73,41.8,24.6,0,5,6,0,2026-04-28T14:54:42.003259+05:30
Goa,Goa,15.2993,74.124,36.0,51,0.0,994.1,9.0,37.8,61,54.8,19.4,0,5,10,1,2026-04-28T14:54:42.003266+05:30
Jodhpur,Rajasthan,26.2389,73.0243,40.8,15,0.0,976.0,8.3,49.0,123,242.1,28.6,0,5,10,0,2026-04-28T14:54:42.003271+05:30
Udaipur,Rajasthan,24.5854,73.7125,38.0,15,0.0,942.5,8.75,49.7,41,47.4,11.2,0,5,10,0,2026-04-28T14:54:42.003278+05:30
Kota,Rajasthan,25.2138,75.8648,41.5,11,0.0,972.7,8.3,33.8,49,17.6,7.5,0,5,10,0,2026-04-28T14:54:42.003284+05:30
Bikaner,Rajasthan,28.0229,73.3119,41.8,13,0.0,974.5,8.15,40.0,82,75.9,18.5,0,5,10,0,2026-04-28T14:54:42.003290+05:30
Ajmer,Rajasthan,26.4499,74.6399,39.1,12,0.0,949.5,8.25,47.2,54,23.1,7.4,0,5,10,0,2026-04-28T14:54:42.003296+05:30
Gwalior,Madhya Pradesh,26.2183,78.1828,40.2,16,0.0,977.1,8.05,39.6,57,51.2,12.4,0,5,10,0,2026-04-28T14:54:42.003302+05:30
Indore,Madhya Pradesh,22.7196,75.8577,40.2,11,0.0,944.4,8.6,56.2,52,17.3,11.3,0,5,10,0,2026-04-28T14:54:42.003308+05:30
Bhopal,Madhya Pradesh,23.2599,77.4126,41.5,9,0.0,948.9,8.6,50.8,72,17.1,12.3,0,5,10,0,2026-04-28T14:54:42.003315+05:30
Jabalpur,Madhya Pradesh,23.1815,79.9864,42.7,10,0.0,955.3,8.75,45.4,72,18.6,10.4,0,5,10,0,2026-04-28T14:54:42.003321+05:30
Ujjain,Madhya Pradesh,23.1765,75.7885,39.9,11,0.0,949.8,8.55,55.1,52,15.4,8.1,0,5,10,0,2026-04-28T14:54:42.003328+05:30
Visakhapatnam,Andhra Pradesh,17.6868,83.2185,33.0,60,0.0,999.2,9.15,59.0,72,29.2,19.4,0,5,7,1,2026-04-28T14:54:42.003335+05:30
Vijayawada,Andhra Pradesh,16.5062,80.648,38.2,34,0.0,997.8,9.15,41.0,66,26.5,16.5,0,5,10,1,2026-04-28T14:54:42.003341+05:30
Guntur,Andhra Pradesh,16.3067,80.4365,37.2,45,0.0,999.2,9.25,43.6,67,32.8,21.0,0,5,10,1,2026-04-28T14:54:42.003347+05:30
Nellore,Andhra Pradesh,14.4426,79.9865,36.2,51,0.0,1000.7,9.25,50.0,60,29.0,20.8,0,5,7,1,2026-04-28T14:54:42.003353+05:30
Kurnool,Andhra Pradesh,15.8281,78.0373,41.2,24,0.0,972.2,9.2,52.2,116,44.4,32.6,0,5,10,1,2026-04-28T14:54:42.003360+05:30
Kakinada,Andhra Pradesh,16.9891,82.2475,37.5,41,0.0,1002.3,9.2,43.9,65,24.3,15.1,0,5,7,1,2026-04-28T14:54:42.003366+05:30
Tirupati,Andhra Pradesh,13.6288,79.4192,40.2,22,0.0,986.1,8.6,41.4,66,27.0,18.7,0,5,10,0,2026-04-28T14:54:42.003372+05:30
Warangal,Telangana,17.9689,79.5941,36.9,35,0.0,974.9,9.15,40.0,87,43.9,34.7,0,5,10,1,2026-04-28T14:54:42.003378+05:30
Nizamabad,Telangana,18.6725,78.0941,40.8,14,0.0,960.5,9.1,37.1,104,27.4,19.4,0,5,10,0,2026-04-28T14:54:42.003384+05:30
Mysore,Karnataka,12.2958,76.6396,35.0,30,0.0,926.3,8.7,37.8,97,43.5,30.4,0,5,7,0,2026-04-28T14:54:42.003390+05:30
Mangalore,Karnataka,12.9141,74.856,33.1,55,0.0,1003.3,8.55,41.8,75,29.5,20.1,0,5,4,1,2026-04-28T14:54:42.003396+05:30
Hubli-Dharwad,Karnataka,15.3647,75.124,37.2,30,0.0,938.1,9.2,49.3,73,41.4,29.9,0,5,10,1,2026-04-28T14:54:42.003402+05:30
Belgaum,Karnataka,15.8497,74.4977,35.6,30,0.0,923.6,9.25,47.5,80,44.4,27.6,0,5,10,0,2026-04-28T14:54:45.377134+05:30
Coimbatore,Tamil Nadu,11.0168,76.9558,37.2,26,0.0,958.4,8.15,56.2,77,38.5,25.8,0,5,10,0,2026-04-28T14:54:45.377165+05:30
Madurai,Tamil Nadu,9.9252,78.1198,40.3,24,0.0,988.1,9.2,51.1,61,24.0,17.6,0,5,10,0,2026-04-28T14:54:45.377176+05:30
Trichy,Tamil Nadu,10.7905,78.7047,38.6,27,0.0,995.1,8.3,45.4,51,15.4,12.5,0,5,10,1,2026-04-28T14:54:45.377186+05:30
Salem,Tamil Nadu,11.6643,78.146,39.2,24,0.0,973.1,8.35,31.3,61,32.8,21.5,0,5,10,0,2026-04-28T14:54:45.377194+05:30
Tirunelveli,Tamil Nadu,8.7139,77.7567,35.8,41,0.0,999.1,9.15,45.4,65,20.3,16.8,0,5,10,1,2026-04-28T14:54:45.377201+05:30
Vellore,Tamil Nadu,12.9165,79.1325,39.9,20,0.0,980.1,8.2,40.0,72,25.0,16.5,0,5,10,0,2026-04-28T14:54:45.377209+05:30
Erode,Tamil Nadu,11.341,77.7172,40.4,23,0.0,984.2,8.25,40.3,66,34.3,22.6,0,5,10,0,2026-04-28T14:54:45.377217+05:30
Kochi,Kerala,9.9312,76.2673,31.9,64,0.1,1005.6,7.8,37.1,71,13.4,11.4,6,5,4,1,2026-04-28T14:54:45.377225+05:30
Thiruvananthapuram,Kerala,8.5241,76.9366,30.1,71,0.0,1005.5,7.8,32.8,64,18.9,15.4,3,5,4,1,2026-04-28T14:54:45.377232+05:30
Kozhikode,Kerala,11.2588,75.7804,30.2,79,0.1,1004.8,6.65,37.8,64,14.2,10.4,6,5,4,1,2026-04-28T14:54:45.377240+05:30
Thrissur,Kerala,10.5276,76.2144,32.2,65,0.0,1003.7,6.8,37.8,70,17.3,14.5,3,5,4,1,2026-04-28T14:54:45.377248+05:30
Kannur,Kerala,11.8745,75.3704,31.5,68,0.0,1004.2,7.25,43.9,76,25.3,19.4,3,5,4,1,2026-04-28T14:54:45.377256+05:30
Patna,Bihar,25.5941,85.1376,35.2,45,0.0,993.0,8.6,33.1,110,73.6,44.1,0,5,10,1,2026-04-28T14:54:45.377264+05:30
Gaya,Bihar,24.7914,85.0002,37.1,36,0.0,987.3,8.7,41.8,122,80.6,39.0,0,5,10,1,2026-04-28T14:54:45.377271+05:30
Muzaffarpur,Bihar,26.1209,85.3647,33.8,51,0.0,993.3,8.4,45.4,100,68.0,39.2,0,5,7,1,2026-04-28T14:54:45.377278+05:30
Bhagalpur,Bihar,25.2425,87.0117,31.7,58,0.0,995.1,8.6,32.4,95,70.3,40.7,0,5,7,1,2026-04-28T14:54:45.377285+05:30
Ranchi,Jharkhand,23.3441,85.3096,35.0,23,0.0,933.7,8.9,53.6,101,51.0,16.3,0,5,7,0,2026-04-28T14:54:45.377293+05:30
Jamshedpur,Jharkhand,22.8046,86.2029,38.5,24,0.0,984.6,8.6,51.5,151,52.6,31.0,0,5,10,0,2026-04-28T14:54:45.377300+05:30
Dhanbad,Jharkhand,23.7957,86.4304,35.0,42,0.0,974.1,8.75,39.2,138,92.0,61.9,0,5,7,1,2026-04-28T14:54:45.377308+05:30
Bokaro,Jharkhand,23.6693,86.1511,37.4,31,0.0,977.5,8.85,38.9,131,93.8,39.1,0,5,10,1,2026-04-28T14:54:45.377316+05:30
Bhubaneswar,Odisha,20.2961,85.8245,37.3,37,0.0,997.1,9.1,46.4,67,29.2,23.6,0,5,10,1,2026-04-28T14:54:45.377323+05:30
Cuttack,Odisha,20.4625,85.8828,37.8,35,0.0,998.7,9.15,43.9,67,29.2,23.6,0,5,10,1,2026-04-28T14:54:45.377331+05:30
Rourkela,Odisha,22.2604,84.8536,40.0,19,0.0,978.9,8.4,46.8,156,36.2,25.4,0,5,10,0,2026-04-28T14:54:45.377338+05:30
Raipur,Chhattisgarh,21.2514,81.6296,39.8,18,0.0,969.7,8.9,49.0,140,21.7,16.5,0,5,10,0,2026-04-28T14:54:45.377345+05:30
Bhilai,Chhattisgarh,21.1938,81.3509,39.6,21,0.0,970.1,8.95,54.4,117,19.6,14.2,0,5,10,0,2026-04-28T14:54:45.377353+05:30
Guwahati,Assam,26.1158,91.7086,28.2,67,0.0,996.3,8.1,28.4,75,28.1,16.6,7,5,7,1,2026-04-28T14:54:45.377360+05:30
Agartala,Tripura,23.8315,91.2868,24.6,91,0.0,1002.2,4.35,45.0,67,42.7,30.0,3,5,0,1,2026-04-28T14:54:45.377368+05:30
Shillong,Meghalaya,25.5788,91.8933,17.8,88,0.0,853.0,8.85,38.2,44,10.5,6.6,3,10,7,0,2026-04-28T14:54:45.377376+05:30
Imphal,Manipur,24.817,93.9368,24.9,65,0.0,919.9,3.85,20.9,101,24.7,24.7,3,5,3,1,2026-04-28T14:54:45.377384+05:30
Aizawl,Mizoram,23.7271,92.7176,18.0,94,0.0,889.6,5.85,47.5,79,37.4,23.3,3,10,3,1,2026-04-28T14:54:45.377391+05:30
Kohima,Nagaland,25.6701,94.1077,22.5,61,0.1,853.0,8.45,30.2,63,12.8,8.0,6,5,7,0,2026-04-28T14:54:45.377398+05:30
Gangtok,Sikkim,27.3314,88.6138,18.9,77,0.1,834.0,8.7,36.4,90,23.7,15.4,6,5,7,0,2026-04-28T14:54:45.377406+05:30
Siliguri,West Bengal,26.7271,88.3953,27.9,64,0.1,987.9,8.0,33.1,88,41.3,23.3,10,5,7,1,2026-04-28T14:54:48.748994+05:30
Durgapur,West Bengal,23.5204,87.3119,28.6,80,0.0,989.8,8.85,37.1,139,93.8,77.5,7,5,7,1,2026-04-28T14:54:48.749021+05:30
Asansol,West Bengal,23.6739,86.9524,27.2,78,0.0,988.8,8.9,31.0,125,93.6,78.7,7,5,7,1,2026-04-28T14:54:48.749031+05:30
Pondicherry,Puducherry,11.9139,79.8145,32.7,64,0.0,1004.7,8.85,46.8,47,15.2,11.7,3,5,4,1,2026-04-28T14:54:48.749039+05:30
Port Blair,Andaman and Nicobar Islands,11.6234,92.7265,33.5,54,0.0,1005.0,9.1,31.3,52,15.6,11.8,0,5,4,1,2026-04-28T14:54:48.749047+05:30
Haridwar,Uttarakhand,29.9457,78.1642,33.9,38,0.0,969.1,7.1,32.0,117,51.8,16.0,0,5,7,1,2026-04-28T14:54:48.749054+05:30
Rishikesh,Uttarakhand,30.0869,78.2676,33.0,39,0.0,962.2,7.05,23.4,112,44.6,13.6,0,5,7,1,2026-04-28T14:54:48.749061+05:30
Nainital,Uttarakhand,29.3919,79.4542,22.4,52,0.0,805.1,7.55,44.6,142,49.6,24.2,0,5,7,0,2026-04-28T14:54:48.749068+05:30
Mussoorie,Uttarakhand,30.4599,78.0664,19.8,47,0.0,802.3,4.15,48.2,96,50.1,15.6,0,5,3,0,2026-04-28T14:54:48.749074+05:30
Dharamshala,Himachal Pradesh,32.219,76.3234,23.2,44,0.0,867.0,7.45,49.7,95,21.9,10.9,0,5,7,0,2026-04-28T14:54:48.749081+05:30
Dalhousie,Himachal Pradesh,32.5387,75.971,16.7,65,0.0,803.1,6.9,27.7,66,31.7,10.2,3,5,7,0,2026-04-28T14:54:48.749087+05:30
Patiala,Punjab,30.3398,76.3869,35.8,25,0.0,973.0,7.2,43.9,371,488.0,52.9,0,5,10,0,2026-04-28T14:54:48.749093+05:30
Bhatinda,Punjab,30.211,74.9455,37.3,22,0.0,978.1,7.6,52.9,97,114.3,25.6,0,5,10,0,2026-04-28T14:54:48.749100+05:30
Rohtak,Haryana,28.8955,76.6066,37.3,20,0.0,976.5,7.0,48.6,678,446.1,49.2,0,5,10,0,2026-04-28T14:54:48.749106+05:30
Panipat,Haryana,29.3909,76.9635,35.0,28,0.0,975.6,6.4,46.1,1164,946.2,87.3,0,5,7,0,2026-04-28T14:54:48.749113+05:30
Mathura,Uttar Pradesh,27.4924,77.6737,40.2,19,0.0,980.5,7.75,42.8,608,476.8,47.6,0,5,10,0,2026-04-28T14:54:48.749120+05:30
Vrindavan,Uttar Pradesh,27.5823,77.7027,40.2,18,0.0,980.8,7.75,45.7,608,476.8,47.6,0,5,10,0,2026-04-28T14:54:48.749126+05:30
Ayodhya,Uttar Pradesh,26.7922,82.1998,38.8,29,0.0,987.5,8.1,49.0,121,109.7,38.8,0,5,10,1,2026-04-28T14:54:48.749133+05:30
Ratlam,Madhya Pradesh,23.3315,75.0367,39.1,13,0.0,951.0,8.45,50.4,52,16.2,7.6,0,5,10,0,2026-04-28T14:54:48.749139+05:30
Sagar,Madhya Pradesh,23.8388,78.7378,40.8,10,0.0,945.2,8.6,45.4,66,14.2,7.9,0,5,10,0,2026-04-28T14:54:48.749145+05:30
Satna,Madhya Pradesh,24.6005,80.8322,42.0,14,0.0,964.6,8.65,47.2,74,68.7,18.7,0,5,10,0,2026-04-28T14:54:48.749151+05:30
Akola,Maharashtra,20.7002,77.0082,41.5,15,0.0,970.6,8.4,37.4,78,28.4,19.7,0,5,10,0,2026-04-28T14:54:48.749158+05:30
Amravati,Maharashtra,20.9374,77.7796,42.2,13,0.0,962.6,8.85,47.2,84,28.3,19.3,0,5,10,0,2026-04-28T14:54:48.749165+05:30
Latur,Maharashtra,18.4088,76.5604,40.3,14,0.0,937.0,9.1,34.9,86,32.5,21.9,0,5,10,0,2026-04-28T14:54:48.749172+05:30
Nanded,Maharashtra,19.1383,77.3091,41.7,14,0.0,964.3,8.95,32.8,101,34.7,23.4,0,5,10,0,2026-04-28T14:54:48.749178+05:30
Gulbarga,Karnataka,17.3297,76.8343,41.3,15,0.0,954.5,9.0,40.7,105,43.7,31.4,0,5,10,0,2026-04-28T14:54:48.749184+05:30
Bidar,Karnataka,17.9104,77.5199,39.4,16,0.0,932.7,7.65,34.6,106,29.0,21.2,0,5,10,0,2026-04-28T14:54:48.749190+05:30
Hospet,Karnataka,15.2689,76.3909,37.5,28,0.0,952.6,9.25,36.4,90,44.2,32.7,0,5,10,1,2026-04-28T14:54:48.749196+05:30
Tirupur,Tamil Nadu,11.1085,77.3411,38.9,23,0.0,970.9,8.1,48.2,81,38.6,26.0,0,5,10,0,2026-04-28T14:54:48.749202+05:30
Alappuzha,Kerala,9.4981,76.3388,30.5,72,0.0,1005.9,7.65,35.3,73,16.6,14.3,3,5,4,1,2026-04-28T14:54:48.749208+05:30
Munnar,Kerala,10.0889,77.0595,23.4,72,0.0,856.5,8.8,27.4,83,29.7,19.8,3,5,7,1,2026-04-28T14:54:48.749214+05:30
Silchar,Assam,24.8333,92.7789,24.9,89,0.2,1002.2,1.2,34.2,88,11.7,10.6,6,5,0,1,2026-04-28T14:54:48.749221+05:30
Dibrugarh,Assam,27.4728,94.912,28.9,59,0.0,991.1,7.3,20.2,111,49.8,32.4,4,5,7,1,2026-04-28T14:54:48.749227+05:30
