city,state,latitude,longitude,temp,humidity,rain,pressure,uv_index,wind_gusts,aqi,pm10,pm2_5,no2,co,o3,so2,mosquito_risk,arthritis_risk,migraine_risk,frizz_risk,updated_at
Delhi,Delhi,28.6139,77.209,35.5,21,0.0,977.5,7.75,31.3,404,453.6,115.0,68.3,900.0,9.0,20.5,0,5,10,0,2026-05-20T00:33:00.622751+05:30
Mumbai,Maharashtra,19.076,72.8777,29.1,74,0.0,1006.6,6.6,39.6,74,42.8,21.3,9.1,167.0,53.0,5.8,7,5,4,1,2026-05-20T00:33:00.622814+05:30
Bangalore,Karnataka,12.9716,77.5946,21.8,97,0.0,910.9,5.5,41.4,39,8.6,8.4,21.2,330.0,42.0,5.7,3,5,3,1,2026-05-20T00:33:00.622831+05:30
Hyderabad,Telangana,17.385,78.4867,31.9,48,0.0,950.3,8.7,33.5,92,43.7,37.0,41.7,532.0,59.0,12.3,0,5,7,1,2026-05-20T00:33:00.622842+05:30
Chennai,Tamil Nadu,13.0827,80.2707,29.0,73,0.0,1003.6,9.0,39.6,68,13.4,12.8,12.7,313.0,87.0,11.0,7,5,4,1,2026-05-20T00:33:00.622851+05:30
Kolkata,West Bengal,22.5726,88.3639,28.8,92,0.0,1000.2,8.95,24.5,68,22.4,18.6,9.2,266.0,49.0,5.9,7,5,4,1,2026-05-20T00:33:00.622859+05:30
Pune,Maharashtra,18.5204,73.8567,25.5,80,0.0,946.2,8.45,40.0,77,36.0,20.8,11.9,188.0,58.0,12.6,7,5,7,1,2026-05-20T00:33:00.622865+05:30
Ahmedabad,Gujarat,23.0225,72.5714,32.3,55,0.0,998.5,8.15,35.3,65,40.3,19.6,6.6,212.0,59.0,4.4,0,5,7,1,2026-05-20T00:33:00.622872+05:30
Jaipur,Rajasthan,26.9124,75.7873,33.5,19,0.0,955.8,8.3,37.8,138,118.5,32.0,14.3,229.0,54.0,6.2,0,5,7,0,2026-05-20T00:33:00.622885+05:30
Lucknow,Uttar Pradesh,26.8467,80.9462,32.5,61,0.0,987.1,8.25,35.6,165,262.6,110.1,62.3,321.0,26.0,24.2,3,5,7,1,2026-05-20T00:33:00.622891+05:30
Kanpur,Uttar Pradesh,26.4499,80.3319,34.0,41,0.0,985.1,8.25,39.6,379,441.4,115.0,39.8,379.0,53.0,18.7,0,5,7,1,2026-05-20T00:33:00.622898+05:30
Chandigarh,Chandigarh,30.7333,76.7794,28.8,38,0.0,962.7,7.8,23.4,78,90.1,43.0,34.6,689.0,48.0,13.9,4,5,7,0,2026-05-20T00:33:00.622904+05:30
Srinagar,Jammu and Kashmir,34.0837,74.7973,14.5,84,0.0,841.2,9.0,25.9,70,28.5,22.0,34.6,912.0,15.0,3.3,3,10,7,0,2026-05-20T00:33:00.622911+05:30
Jammu,Jammu and Kashmir,32.7266,74.857,28.1,35,0.0,967.0,8.6,33.1,70,30.7,23.9,26.8,324.0,39.0,4.5,4,5,7,0,2026-05-20T00:33:00.622918+05:30
Amritsar,Punjab,31.634,74.8723,30.1,44,0.0,974.6,8.5,22.0,109,81.5,70.5,62.9,764.0,11.0,13.0,0,5,7,1,2026-05-20T00:33:00.622924+05:30
Ludhiana,Punjab,30.901,75.8573,32.0,30,0.0,972.8,8.05,20.9,128,256.1,98.5,50.6,668.0,26.0,14.8,0,5,7,0,2026-05-20T00:33:00.622930+05:30
Jalandhar,Punjab,31.326,75.5762,31.0,33,0.0,973.7,8.25,26.6,127,161.1,83.4,59.1,1027.0,22.0,12.2,0,5,7,0,2026-05-20T00:33:00.622936+05:30
Dehradun,Uttarakhand,30.6284,78.0322,18.3,54,0.0,827.6,8.25,41.0,55,27.4,22.7,35.0,297.0,39.0,3.7,0,5,7,0,2026-05-20T00:33:00.622942+05:30
Shimla,Himachal Pradesh,31.1048,77.1734,16.6,42,0.0,783.2,8.3,44.6,88,58.4,22.6,17.8,271.0,93.0,9.1,0,5,7,0,2026-05-20T00:33:00.622950+05:30
Manali,Himachal Pradesh,32.2396,77.1887,12.1,61,0.0,815.4,9.65,37.4,50,6.9,6.3,45.7,266.0,72.0,0.0,3,5,7,0,2026-05-20T00:33:00.622956+05:30
Gurgaon,Haryana,28.4595,77.0266,32.1,29,0.0,975.8,7.85,29.9,861,279.4,86.4,66.6,662.0,19.0,26.9,0,5,7,0,2026-05-20T00:33:00.622963+05:30
Noida,Uttar Pradesh,28.5355,77.391,30.1,51,0.0,978.4,7.8,26.6,861,279.4,86.4,66.6,1381.0,19.0,26.9,0,5,7,1,2026-05-20T00:33:00.622970+05:30
Ghaziabad,Uttar Pradesh,28.6692,77.4538,30.5,35,0.0,976.5,7.75,27.4,385,491.7,117.6,47.9,681.0,26.0,20.2,0,5,7,0,2026-05-20T00:33:00.622978+05:30
Faridabad,Haryana,28.4089,77.3178,34.2,23,0.0,978.0,7.8,34.9,861,279.4,86.4,66.6,776.0,19.0,26.9,0,5,7,0,2026-05-20T00:33:00.622985+05:30
Meerut,Uttar Pradesh,28.9845,77.7064,32.9,38,0.0,975.2,7.7,25.6,385,491.7,117.6,47.9,376.0,26.0,20.2,0,5,7,1,2026-05-20T00:33:00.622990+05:30
Agra,Uttar Pradesh,27.1767,78.0081,32.9,37,0.0,981.8,8.1,34.2,557,426.5,134.6,80.5,407.0,12.0,30.5,0,5,7,1,2026-05-20T00:33:00.622996+05:30
Varanasi,Uttar Pradesh,25.3176,82.9739,32.7,59,0.0,991.5,8.75,46.8,154,101.0,72.2,22.5,654.0,81.0,16.9,0,5,7,1,2026-05-20T00:33:00.623005+05:30
Prayagraj,Uttar Pradesh,25.4358,81.8463,33.8,54,0.0,989.6,8.6,39.6,156,155.1,89.4,49.5,388.0,39.0,20.7,0,5,7,1,2026-05-20T00:33:00.623011+05:30
Gorakhpur,Uttar Pradesh,26.7606,83.3732,29.6,75,0.0,991.7,8.65,30.2,152,78.5,57.3,15.4,603.0,89.0,12.6,7,5,7,1,2026-05-20T00:33:00.623020+05:30
Bareilly,Uttar Pradesh,28.367,79.4304,28.8,74,0.0,980.2,8.05,26.3,137,147.1,83.6,44.1,422.0,66.0,20.1,7,5,7,1,2026-05-20T00:33:00.623026+05:30
Aligarh,Uttar Pradesh,27.8974,78.088,31.9,35,0.0,979.7,7.95,32.0,592,532.7,130.9,51.7,342.0,27.0,18.7,0,5,7,0,2026-05-20T00:33:00.623032+05:30
Moradabad,Uttar Pradesh,28.8386,78.7733,30.4,57,0.0,977.2,7.9,28.4,162,259.8,103.6,52.9,521.0,25.0,16.1,0,5,7,1,2026-05-20T00:33:00.623038+05:30
Saharanpur,Uttar Pradesh,29.9637,77.546,30.6,32,0.0,969.5,7.4,21.6,133,194.2,55.8,21.4,507.0,64.0,9.1,0,5,7,0,2026-05-20T00:33:00.623044+05:30
Jhansi,Uttar Pradesh,25.4484,78.5685,33.5,29,0.0,972.4,8.5,46.1,72,101.7,35.4,14.5,181.0,62.0,6.9,0,5,7,0,2026-05-20T00:33:03.963542+05:30
Surat,Gujarat,21.1702,72.8311,29.2,83,0.0,1004.0,7.7,42.8,98,29.3,19.2,19.9,236.0,37.0,33.8,7,5,4,1,2026-05-20T00:33:03.963579+05:30
Vadodara,Gujarat,22.3072,73.1812,29.5,78,0.0,1001.0,8.1,48.2,76,27.9,17.9,18.3,211.0,37.0,19.1,7,5,4,1,2026-05-20T00:33:03.963590+05:30
Rajkot,Gujarat,22.3039,70.8022,29.0,71,0.0,991.5,7.75,42.8,61,27.1,14.1,7.3,155.0,43.0,6.8,7,5,7,1,2026-05-20T00:33:03.963599+05:30
Thane,Maharashtra,19.2183,72.9781,28.8,77,0.0,1006.0,7.85,37.1,74,42.8,21.3,9.1,176.0,53.0,5.8,7,5,4,1,2026-05-20T00:33:03.963607+05:30
Nagpur,Maharashtra,21.1458,79.0882,35.2,28,0.0,968.2,8.95,46.4,86,85.2,48.2,39.1,299.0,44.0,17.5,0,5,10,0,2026-05-20T00:33:03.963615+05:30
Nashik,Maharashtra,19.9975,73.7898,24.7,81,0.0,943.6,8.15,39.6,71,38.4,17.6,6.7,172.0,55.0,2.1,3,5,7,1,2026-05-20T00:33:03.963622+05:30
Aurangabad,Maharashtra,19.8762,75.3433,31.0,35,0.0,941.1,9.05,40.0,74,32.0,22.1,7.6,188.0,100.0,7.6,0,5,7,0,2026-05-20T00:33:03.963630+05:30
Solapur,Maharashtra,17.6599,75.9064,30.1,56,0.0,954.9,9.0,34.6,75,26.1,19.0,7.8,149.0,65.0,2.9,0,5,7,1,2026-05-20T00:33:03.963637+05:30
Kolhapur,Maharashtra,16.705,74.2433,24.2,81,0.0,946.6,8.9,39.6,69,37.6,18.9,6.9,161.0,50.0,2.9,3,5,7,1,2026-05-20T00:33:03.963644+05:30
Goa,Goa,15.2993,74.124,26.2,95,0.0,997.3,7.85,29.5,58,19.0,14.9,7.5,364.0,57.0,2.0,7,5,7,1,2026-05-20T00:33:03.963652+05:30
Jodhpur,Rajasthan,26.2389,73.0243,33.5,30,0.0,978.1,8.45,40.3,124,143.0,35.6,7.2,165.0,59.0,2.7,0,5,7,0,2026-05-20T00:33:03.963659+05:30
Udaipur,Rajasthan,24.5854,73.7125,31.5,26,0.0,943.6,8.85,45.7,55,52.4,20.4,4.1,194.0,74.0,2.7,0,5,7,0,2026-05-20T00:33:03.963666+05:30
Kota,Rajasthan,25.2138,75.8648,34.8,16,0.0,974.2,8.4,33.8,62,17.7,12.4,5.0,171.0,83.0,5.1,0,5,7,0,2026-05-20T00:33:03.963672+05:30
Bikaner,Rajasthan,28.0229,73.3119,33.2,32,0.0,976.2,8.4,37.1,141,125.3,34.8,2.9,156.0,75.0,2.3,0,5,7,0,2026-05-20T00:33:03.963679+05:30
Ajmer,Rajasthan,26.4499,74.6399,31.0,27,0.0,951.0,8.4,42.5,64,32.8,17.6,8.1,192.0,64.0,4.4,0,5,7,0,2026-05-20T00:33:03.963687+05:30
Gwalior,Madhya Pradesh,26.2183,78.1828,34.9,24,0.0,977.6,8.3,42.8,84,64.0,30.0,17.2,181.0,45.0,7.3,0,5,7,0,2026-05-20T00:33:03.963694+05:30
Indore,Madhya Pradesh,22.7196,75.8577,33.0,18,0.0,944.8,8.0,41.8,64,28.2,17.7,4.1,278.0,104.0,5.0,0,5,7,0,2026-05-20T00:33:03.963700+05:30
Bhopal,Madhya Pradesh,23.2599,77.4126,34.0,18,0.0,949.9,8.7,46.1,77,41.8,29.8,13.3,356.0,68.0,8.0,0,5,7,0,2026-05-20T00:33:03.963707+05:30
Jabalpur,Madhya Pradesh,23.1815,79.9864,32.2,29,0.0,956.5,8.9,29.9,76,55.6,23.6,12.4,281.0,71.0,5.0,0,5,7,0,2026-05-20T00:33:03.963713+05:30
Ujjain,Madhya Pradesh,23.1765,75.7885,32.8,18,0.0,950.3,8.5,41.0,63,28.9,17.9,3.3,244.0,103.0,5.3,0,5,7,0,2026-05-20T00:33:03.963720+05:30
Visakhapatnam,Andhra Pradesh,17.6868,83.2185,29.4,91,0.0,999.0,8.65,40.0,70,33.2,27.3,22.7,361.0,104.0,39.6,7,5,7,1,2026-05-20T00:33:03.963727+05:30
Vijayawada,Andhra Pradesh,16.5062,80.648,31.5,75,0.0,998.3,9.1,37.4,98,28.6,25.8,6.2,289.0,124.0,6.3,3,5,7,1,2026-05-20T00:33:03.963733+05:30
Guntur,Andhra Pradesh,16.3067,80.4365,31.4,77,0.0,999.5,9.05,37.1,76,28.5,26.1,6.0,266.0,128.0,5.8,3,5,7,1,2026-05-20T00:33:03.963740+05:30
Nellore,Andhra Pradesh,14.4426,79.9865,32.5,57,0.0,1001.3,8.45,52.9,119,17.1,15.2,5.5,234.0,97.0,4.4,0,5,4,1,2026-05-20T00:33:03.963747+05:30
Kurnool,Andhra Pradesh,15.8281,78.0373,31.9,56,0.0,974.0,8.7,43.6,79,13.2,11.6,9.5,213.0,77.0,4.9,0,5,7,1,2026-05-20T00:33:03.963754+05:30
Kakinada,Andhra Pradesh,16.9891,82.2475,30.5,84,0.0,1002.8,8.95,54.4,94,32.6,25.4,2.5,338.0,140.0,3.9,3,5,4,1,2026-05-20T00:33:03.963761+05:30
Tirupati,Andhra Pradesh,13.6288,79.4192,29.6,65,0.0,987.7,9.05,34.9,64,15.1,14.0,6.2,208.0,89.0,1.9,7,5,7,1,2026-05-20T00:33:03.963767+05:30
Warangal,Telangana,17.9689,79.5941,31.6,56,0.0,974.5,8.6,28.8,93,42.1,37.4,17.2,337.0,70.0,7.8,0,5,7,1,2026-05-20T00:33:03.963773+05:30
Nizamabad,Telangana,18.6725,78.0941,31.5,48,0.0,960.7,8.95,33.5,95,53.2,46.6,22.4,275.0,73.0,6.4,0,5,7,1,2026-05-20T00:33:03.963780+05:30
Mysore,Karnataka,12.2958,76.6396,22.1,96,0.0,928.1,7.75,43.6,26,7.1,6.7,11.5,196.0,42.0,2.3,3,5,7,1,2026-05-20T00:33:03.963786+05:30
Mangalore,Karnataka,12.9141,74.856,24.8,98,0.0,1006.6,2.05,32.8,30,10.3,8.6,9.6,328.0,45.0,2.8,3,5,0,1,2026-05-20T00:33:03.963810+05:30
Hubli-Dharwad,Karnataka,15.3647,75.124,23.4,93,0.0,939.7,8.0,43.2,34,4.1,3.8,5.7,159.0,65.0,1.2,3,5,7,1,2026-05-20T00:33:03.963817+05:30
Belgaum,Karnataka,15.8497,74.4977,22.6,92,0.0,924.4,8.75,37.4,57,22.5,11.2,6.4,141.0,50.0,1.8,3,5,7,1,2026-05-20T00:33:07.329639+05:30
Coimbatore,Tamil Nadu,11.0168,76.9558,24.9,83,0.0,961.3,8.55,54.7,28,5.4,4.7,5.7,165.0,52.0,2.5,3,5,7,1,2026-05-20T00:33:07.329674+05:30
Madurai,Tamil Nadu,9.9252,78.1198,28.5,71,0.0,992.2,8.65,47.9,52,34.9,33.6,46.0,210.0,1.0,11.7,7,5,7,1,2026-05-20T00:33:07.329686+05:30
Trichy,Tamil Nadu,10.7905,78.7047,27.1,86,0.0,998.8,7.5,49.0,42,12.5,11.5,16.7,183.0,43.0,4.5,7,5,7,1,2026-05-20T00:33:07.329696+05:30
Salem,Tamil Nadu,11.6643,78.146,26.1,86,0.0,976.9,5.15,36.0,47,18.1,17.2,25.6,208.0,41.0,9.2,7,5,3,1,2026-05-20T00:33:07.329705+05:30
Tirunelveli,Tamil Nadu,8.7139,77.7567,28.4,74,0.0,1003.3,8.0,43.6,25,6.7,5.6,6.8,227.0,38.0,1.6,7,5,4,1,2026-05-20T00:33:07.329713+05:30
Vellore,Tamil Nadu,12.9165,79.1325,27.5,73,0.0,982.1,7.75,46.1,59,10.4,10.3,10.8,241.0,70.0,3.6,7,5,7,1,2026-05-20T00:33:07.329722+05:30
Erode,Tamil Nadu,11.341,77.7172,26.5,78,0.0,988.8,8.05,41.4,32,13.2,12.2,18.7,180.0,38.0,4.4,7,5,7,1,2026-05-20T00:33:07.329729+05:30
Kochi,Kerala,9.9312,76.2673,26.1,95,0.1,1009.6,3.3,31.7,39,19.2,18.0,22.8,264.0,14.0,5.3,10,0,0,1,2026-05-20T00:33:07.329738+05:30
Thiruvananthapuram,Kerala,8.5241,76.9366,24.3,98,0.3,1009.2,7.65,45.4,29,7.3,4.2,1.4,129.0,51.0,0.4,6,0,4,1,2026-05-20T00:33:07.329745+05:30
Kozhikode,Kerala,11.2588,75.7804,24.5,100,0.1,1008.2,7.6,29.9,31,8.8,5.6,1.4,368.0,64.0,0.6,6,0,4,1,2026-05-20T00:33:07.329752+05:30
Thrissur,Kerala,10.5276,76.2144,24.1,99,0.1,1007.7,3.8,32.8,36,12.3,11.1,15.8,320.0,25.0,4.6,6,5,0,1,2026-05-20T00:33:07.329760+05:30
Kannur,Kerala,11.8745,75.3704,25.2,96,0.1,1007.7,7.9,32.0,24,7.8,6.3,8.7,258.0,41.0,2.3,10,5,4,1,2026-05-20T00:33:07.329767+05:30
Patna,Bihar,25.5941,85.1376,28.3,78,0.0,995.3,8.85,24.5,152,54.8,47.1,15.8,466.0,90.0,17.5,7,5,7,1,2026-05-20T00:33:07.329774+05:30
Gaya,Bihar,24.7914,85.0002,29.2,70,0.0,988.6,8.9,34.2,152,61.7,56.6,14.5,526.0,99.0,18.4,7,5,7,1,2026-05-20T00:33:07.329781+05:30
Muzaffarpur,Bihar,26.1209,85.3647,28.0,79,0.0,995.5,8.85,28.4,151,58.3,48.2,17.7,428.0,79.0,15.9,7,5,7,1,2026-05-20T00:33:07.329804+05:30
Bhagalpur,Bihar,25.2425,87.0117,27.8,83,0.0,996.2,8.7,26.6,128,45.5,40.9,13.9,414.0,79.0,8.6,7,5,7,1,2026-05-20T00:33:07.329811+05:30
Ranchi,Jharkhand,23.3441,85.3096,25.2,72,0.0,932.7,9.3,41.8,124,156.9,65.9,22.3,398.0,94.0,15.1,7,5,7,1,2026-05-20T00:33:07.329821+05:30
Jamshedpur,Jharkhand,22.8046,86.2029,28.4,90,0.0,985.0,9.1,34.2,137,85.9,83.6,55.2,694.0,42.0,61.2,7,5,7,1,2026-05-20T00:33:07.329828+05:30
Dhanbad,Jharkhand,23.7957,86.4304,29.9,70,0.0,974.5,9.1,39.6,166,145.8,135.5,59.0,477.0,59.0,179.3,7,5,7,1,2026-05-20T00:33:07.329837+05:30
Bokaro,Jharkhand,23.6693,86.1511,28.9,79,0.0,978.2,9.1,40.0,163,143.0,124.8,60.4,667.0,53.0,175.4,7,5,7,1,2026-05-20T00:33:07.329845+05:30
Bhubaneswar,Odisha,20.2961,85.8245,29.5,86,0.0,996.5,9.1,33.5,62,17.0,14.6,6.8,247.0,67.0,5.2,7,5,7,1,2026-05-20T00:33:07.329851+05:30
Cuttack,Odisha,20.4625,85.8828,29.5,87,0.0,998.3,9.15,32.4,62,17.0,14.6,6.8,263.0,67.0,5.2,7,5,7,1,2026-05-20T00:33:07.329858+05:30
Rourkela,Odisha,22.2604,84.8536,28.6,73,0.0,979.2,9.0,30.2,151,259.8,103.1,54.1,467.0,30.0,23.0,7,5,7,1,2026-05-20T00:33:07.329866+05:30
Raipur,Chhattisgarh,21.2514,81.6296,32.3,48,0.0,969.2,8.95,34.9,110,58.9,51.2,42.2,405.0,54.0,50.7,0,5,7,1,2026-05-20T00:33:07.329872+05:30
Bhilai,Chhattisgarh,21.1938,81.3509,32.0,49,0.0,969.8,9.0,37.1,100,52.9,45.6,35.4,557.0,64.0,44.2,0,5,7,1,2026-05-20T00:33:07.329879+05:30
Guwahati,Assam,26.1158,91.7086,25.3,88,0.0,997.5,8.7,19.1,80,51.2,38.6,17.7,375.0,32.0,4.6,7,5,7,1,2026-05-20T00:33:07.329885+05:30
Agartala,Tripura,23.8315,91.2868,26.9,93,0.0,1001.9,8.9,23.8,75,17.4,14.7,12.7,224.0,38.0,2.9,7,5,4,1,2026-05-20T00:33:07.329892+05:30
Shillong,Meghalaya,25.5788,91.8933,16.8,95,0.0,853.5,8.4,19.4,64,35.6,25.8,10.1,260.0,55.0,4.3,3,10,7,0,2026-05-20T00:33:07.329900+05:30
Imphal,Manipur,24.817,93.9368,20.9,98,0.0,919.8,9.25,29.9,70,45.9,36.2,21.6,600.0,37.0,5.3,3,5,7,1,2026-05-20T00:33:07.329907+05:30
Aizawl,Mizoram,23.7271,92.7176,19.0,98,0.0,888.8,9.1,22.3,89,43.4,24.9,10.2,275.0,32.0,1.8,3,10,7,1,2026-05-20T00:33:07.329914+05:30
Kohima,Nagaland,25.6701,94.1077,15.9,97,0.0,851.2,8.7,28.4,55,34.3,27.1,17.3,276.0,56.0,2.7,3,10,7,0,2026-05-20T00:33:07.329920+05:30
Gangtok,Sikkim,27.3314,88.6138,15.8,80,0.0,834.1,8.75,34.6,77,31.0,26.0,19.5,594.0,41.0,1.6,3,5,7,0,2026-05-20T00:33:07.329927+05:30
Siliguri,West Bengal,26.7271,88.3953,26.2,81,0.0,988.8,8.7,21.6,135,92.7,66.4,24.3,949.0,79.0,9.0,7,5,7,1,2026-05-20T00:33:10.690074+05:30
Durgapur,West Bengal,23.5204,87.3119,28.0,89,0.0,989.4,9.0,23.0,154,82.7,76.6,35.8,347.0,58.0,36.2,7,5,7,1,2026-05-20T00:33:10.690110+05:30
Asansol,West Bengal,23.6739,86.9524,29.0,84,0.0,988.0,9.05,31.7,156,85.4,80.6,36.1,751.0,62.0,37.6,7,5,7,1,2026-05-20T00:33:10.690122+05:30
Pondicherry,Puducherry,11.9139,79.8145,28.7,77,0.0,1006.2,8.9,37.1,55,10.8,10.0,14.1,267.0,64.0,10.5,7,5,4,1,2026-05-20T00:33:10.690131+05:30
Port Blair,Andaman and Nicobar Islands,11.6234,92.7265,25.5,96,0.0,1005.1,8.95,50.0,27,9.5,5.9,0.3,134.0,64.0,0.4,7,5,4,1,2026-05-20T00:33:10.690139+05:30
Haridwar,Uttarakhand,29.9457,78.1642,26.2,57,0.0,967.9,7.6,24.5,104,146.2,41.1,13.2,520.0,85.0,9.4,4,5,7,1,2026-05-20T00:33:10.690147+05:30
Rishikesh,Uttarakhand,30.0869,78.2676,26.5,43,0.0,960.6,7.7,29.2,126,233.3,49.2,10.0,459.0,121.0,12.3,4,5,7,0,2026-05-20T00:33:10.690154+05:30
Nainital,Uttarakhand,29.3919,79.4542,18.1,51,0.0,803.3,8.55,60.8,140,135.0,40.9,12.1,310.0,120.0,9.0,0,5,7,0,2026-05-20T00:33:10.690162+05:30
Mussoorie,Uttarakhand,30.4599,78.0664,19.8,38,0.0,802.3,8.1,53.6,111,124.3,43.8,28.1,328.0,72.0,9.7,0,5,7,0,2026-05-20T00:33:10.690169+05:30
Dharamshala,Himachal Pradesh,32.219,76.3234,24.5,32,0.0,867.4,8.5,44.3,50,17.8,12.9,16.7,228.0,29.0,0.2,0,5,7,0,2026-05-20T00:33:10.690176+05:30
Dalhousie,Himachal Pradesh,32.5387,75.971,14.5,60,0.0,801.3,8.75,41.0,63,24.4,20.4,43.9,338.0,5.0,1.4,0,5,7,0,2026-05-20T00:33:10.690184+05:30
Patiala,Punjab,30.3398,76.3869,32.9,29,0.0,972.4,7.65,26.3,416,689.2,145.3,40.0,502.0,39.0,13.4,0,5,7,0,2026-05-20T00:33:10.690192+05:30
Bhatinda,Punjab,30.211,74.9455,30.6,30,0.0,977.4,8.35,25.9,99,53.7,41.9,35.1,618.0,41.0,9.7,0,5,7,0,2026-05-20T00:33:10.690199+05:30
Rohtak,Haryana,28.8955,76.6066,32.9,23,0.0,976.1,7.8,29.2,448,366.9,95.9,60.4,846.0,13.0,11.1,0,5,7,0,2026-05-20T00:33:10.690206+05:30
Panipat,Haryana,29.3909,76.9635,30.9,33,0.0,974.3,7.65,27.7,1061,726.4,154.1,41.5,517.0,24.0,8.3,0,5,7,0,2026-05-20T00:33:10.690212+05:30
Mathura,Uttar Pradesh,27.4924,77.6737,32.5,37,0.0,981.0,8.05,31.3,567,364.1,104.5,64.4,296.0,11.0,12.2,0,5,7,0,2026-05-20T00:33:10.690219+05:30
Vrindavan,Uttar Pradesh,27.5823,77.7027,31.9,43,0.0,981.4,8.05,29.9,567,364.1,104.5,64.4,278.0,11.0,12.2,0,5,7,1,2026-05-20T00:33:10.690226+05:30
Ayodhya,Uttar Pradesh,26.7922,82.1998,30.6,67,0.0,989.3,8.4,23.8,152,86.6,63.3,19.0,635.0,78.0,13.0,3,5,7,1,2026-05-20T00:33:10.690234+05:30
Ratlam,Madhya Pradesh,23.3315,75.0367,31.4,22,0.0,951.4,8.55,45.4,63,29.8,18.2,4.1,194.0,98.0,7.1,0,5,7,0,2026-05-20T00:33:10.690241+05:30
Sagar,Madhya Pradesh,23.8388,78.7378,33.0,24,0.0,945.2,8.75,40.3,66,54.2,20.6,10.3,238.0,84.0,4.5,0,5,7,0,2026-05-20T00:33:10.690247+05:30
Satna,Madhya Pradesh,24.6005,80.8322,32.2,36,0.0,965.9,8.8,45.0,121,226.3,51.7,17.4,215.0,80.0,6.1,0,5,7,0,2026-05-20T00:33:10.690255+05:30
Akola,Maharashtra,20.7002,77.0082,35.8,22,0.0,970.6,8.9,42.1,75,25.2,17.8,6.0,190.0,101.0,9.0,0,5,10,0,2026-05-20T00:33:10.690263+05:30
Amravati,Maharashtra,20.9374,77.7796,35.5,24,0.0,962.8,8.9,46.1,79,29.3,21.5,14.4,439.0,81.0,7.8,0,5,10,0,2026-05-20T00:33:10.690271+05:30
Latur,Maharashtra,18.4088,76.5604,31.0,46,0.0,937.1,8.45,34.9,82,32.0,26.7,13.9,210.0,87.0,8.7,0,5,7,1,2026-05-20T00:33:10.690279+05:30
Nanded,Maharashtra,19.1383,77.3091,33.2,43,0.0,964.8,9.0,35.6,89,52.4,38.8,22.6,281.0,66.0,8.3,0,5,7,1,2026-05-20T00:33:10.690285+05:30
Gulbarga,Karnataka,17.3297,76.8343,29.9,59,0.0,956.0,8.8,40.7,78,26.7,19.8,9.2,220.0,81.0,4.2,4,5,7,1,2026-05-20T00:33:10.690292+05:30
Bidar,Karnataka,17.9104,77.5199,28.6,61,0.0,932.6,8.7,31.3,89,32.6,28.7,17.0,245.0,82.0,4.4,7,5,7,1,2026-05-20T00:33:10.690299+05:30
Hospet,Karnataka,15.2689,76.3909,25.3,85,0.0,954.3,7.25,43.9,39,5.1,4.9,8.4,190.0,62.0,1.8,7,5,7,1,2026-05-20T00:33:10.690306+05:30
Tirupur,Tamil Nadu,11.1085,77.3411,25.6,82,0.0,974.6,7.4,50.4,33,14.5,13.6,21.5,150.0,34.0,5.0,7,5,7,1,2026-05-20T00:33:10.690313+05:30
Alappuzha,Kerala,9.4981,76.3388,26.2,94,0.1,1009.8,3.35,33.8,34,11.1,8.9,9.1,111.0,44.0,2.2,10,0,0,1,2026-05-20T00:33:10.690321+05:30
Munnar,Kerala,10.0889,77.0595,17.6,100,0.0,857.0,5.85,38.9,22,5.8,5.5,7.6,121.0,33.0,1.2,3,10,3,1,2026-05-20T00:33:10.690328+05:30
Silchar,Assam,24.8333,92.7789,25.6,95,0.2,1001.3,8.95,23.8,94,90.1,66.4,28.3,439.0,53.0,12.8,10,5,4,1,2026-05-20T00:33:10.690335+05:30
Dibrugarh,Assam,27.4728,94.912,24.6,89,0.0,991.7,8.85,16.2,101,43.9,41.2,31.2,495.0,25.0,3.3,3,5,7,1,2026-05-20T00:33:10.690342+05:30
