city,state,latitude,longitude,temp,humidity,rain,pressure,uv_index,wind_gusts,aqi,pm10,pm2_5,no2,co,o3,so2,mosquito_risk,arthritis_risk,migraine_risk,frizz_risk,updated_at
Delhi,Delhi,28.6139,77.209,36.5,42,0.0,977.2,7.65,31.7,172,345.5,86.4,19.9,397.0,119.0,29.4,0,5,10,1,2026-06-28T09:35:34.686355+05:30
Mumbai,Maharashtra,19.076,72.8777,28.2,81,0.2,1006.2,7.7,42.1,61,24.1,14.5,9.8,227.0,66.0,15.5,10,5,4,1,2026-06-28T09:35:34.686396+05:30
Bangalore,Karnataka,12.9716,77.5946,25.8,64,0.0,911.6,8.4,62.6,45,8.5,6.1,5.6,283.0,51.0,4.0,7,5,7,1,2026-06-28T09:35:34.686411+05:30
Hyderabad,Telangana,17.385,78.4867,27.0,80,0.0,951.4,7.7,31.0,76,19.0,11.6,5.3,265.0,72.0,3.8,7,5,7,1,2026-06-28T09:35:34.686422+05:30
Chennai,Tamil Nadu,13.0827,80.2707,31.8,61,0.0,1005.5,7.85,41.8,67,22.4,17.3,11.1,314.0,89.0,13.1,3,5,4,1,2026-06-28T09:35:34.686431+05:30
Kolkata,West Bengal,22.5726,88.3639,32.2,73,0.0,1002.3,8.85,30.6,64,23.7,18.0,2.3,277.0,99.0,5.9,3,5,4,1,2026-06-28T09:35:34.686438+05:30
Pune,Maharashtra,18.5204,73.8567,27.8,71,0.0,946.3,7.25,36.4,48,11.1,7.6,4.5,142.0,68.0,8.6,7,5,7,1,2026-06-28T09:35:34.686445+05:30
Ahmedabad,Gujarat,23.0225,72.5714,32.7,58,0.0,998.9,8.05,40.7,72,56.5,22.0,3.0,135.0,62.0,3.3,0,5,7,1,2026-06-28T09:35:34.686452+05:30
Jaipur,Rajasthan,26.9124,75.7873,34.3,47,0.0,956.0,7.8,42.1,139,402.3,71.9,3.5,159.0,78.0,4.6,0,5,7,1,2026-06-28T09:35:34.686458+05:30
Lucknow,Uttar Pradesh,26.8467,80.9462,34.8,55,0.0,988.3,8.3,33.8,126,69.2,36.0,4.9,210.0,126.0,6.8,0,5,7,1,2026-06-28T09:35:34.686469+05:30
Kanpur,Uttar Pradesh,26.4499,80.3319,36.6,43,0.0,986.4,8.3,34.9,113,58.0,27.4,4.8,180.0,121.0,7.0,0,5,10,1,2026-06-28T09:35:34.686476+05:30
Chandigarh,Chandigarh,30.7333,76.7794,33.6,54,0.0,964.1,7.8,36.0,153,98.3,60.5,3.2,415.0,192.0,17.0,0,5,7,1,2026-06-28T09:35:34.686483+05:30
Srinagar,Jammu and Kashmir,34.0837,74.7973,26.6,47,0.0,842.0,9.1,30.6,75,23.9,20.0,4.7,358.0,126.0,4.6,4,5,7,0,2026-06-28T09:35:34.686489+05:30
Jammu,Jammu and Kashmir,32.7266,74.857,33.2,51,0.0,967.9,8.7,29.2,119,43.2,30.4,4.4,295.0,149.0,4.8,0,5,7,1,2026-06-28T09:35:34.686496+05:30
Amritsar,Punjab,31.634,74.8723,31.8,71,0.0,975.5,8.5,25.9,160,74.7,54.7,6.0,481.0,146.0,6.5,3,5,7,1,2026-06-28T09:35:34.686501+05:30
Ludhiana,Punjab,30.901,75.8573,34.0,51,0.0,973.9,7.85,36.7,165,122.9,78.5,12.3,282.0,157.0,15.5,0,5,7,1,2026-06-28T09:35:34.686507+05:30
Jalandhar,Punjab,31.326,75.5762,33.7,53,0.0,974.8,8.25,34.2,168,103.6,69.8,9.6,320.0,156.0,9.8,0,5,7,1,2026-06-28T09:35:34.686514+05:30
Dehradun,Uttarakhand,30.6284,78.0322,23.8,68,0.0,830.5,6.95,31.3,80,45.2,26.2,0.9,206.0,136.0,2.3,3,5,7,1,2026-06-28T09:35:34.686520+05:30
Shimla,Himachal Pradesh,31.1048,77.1734,21.7,59,0.0,785.7,7.5,36.7,123,68.0,39.8,1.1,233.0,160.0,6.6,0,5,7,0,2026-06-28T09:35:34.686527+05:30
Manali,Himachal Pradesh,32.2396,77.1887,24.8,49,0.0,819.6,8.55,35.6,56,9.0,6.8,7.8,191.0,95.0,0.3,0,5,7,0,2026-06-28T09:35:34.686536+05:30
Gurgaon,Haryana,28.4595,77.0266,36.2,43,0.0,975.7,7.75,34.9,187,698.5,119.0,12.9,307.0,99.0,12.2,0,5,10,1,2026-06-28T09:35:34.686547+05:30
Noida,Uttar Pradesh,28.5355,77.391,34.9,51,0.0,978.7,7.2,23.4,187,698.5,119.0,12.9,456.0,99.0,12.2,0,5,7,1,2026-06-28T09:35:34.686553+05:30
Ghaziabad,Uttar Pradesh,28.6692,77.4538,34.1,54,0.0,977.2,7.65,20.2,171,223.1,55.4,4.1,418.0,146.0,11.0,0,5,7,1,2026-06-28T09:35:34.686560+05:30
Faridabad,Haryana,28.4089,77.3178,35.0,49,0.0,977.9,7.0,22.7,187,698.5,119.0,12.9,388.0,99.0,12.2,0,5,7,1,2026-06-28T09:35:34.686565+05:30
Meerut,Uttar Pradesh,28.9845,77.7064,34.6,51,0.0,976.2,6.7,29.9,171,223.1,55.4,4.1,431.0,146.0,11.0,0,5,7,1,2026-06-28T09:35:34.686571+05:30
Agra,Uttar Pradesh,27.1767,78.0081,36.0,48,0.0,982.2,6.3,44.3,130,172.3,49.1,6.9,214.0,107.0,7.7,0,5,10,1,2026-06-28T09:35:34.686577+05:30
Varanasi,Uttar Pradesh,25.3176,82.9739,36.2,46,0.0,992.3,8.8,33.8,130,52.7,35.2,4.9,244.0,138.0,9.8,0,5,10,1,2026-06-28T09:35:34.686584+05:30
Prayagraj,Uttar Pradesh,25.4358,81.8463,35.7,49,0.0,991.0,8.5,34.9,114,66.1,39.7,5.0,203.0,135.0,10.1,0,5,10,1,2026-06-28T09:35:34.686590+05:30
Gorakhpur,Uttar Pradesh,26.7606,83.3732,32.3,66,0.0,992.4,7.25,37.8,160,67.5,58.3,4.4,418.0,155.0,8.2,3,5,7,1,2026-06-28T09:35:34.686596+05:30
Bareilly,Uttar Pradesh,28.367,79.4304,34.3,54,0.0,981.5,8.1,26.6,154,91.3,47.1,6.0,482.0,141.0,10.6,0,5,7,1,2026-06-28T09:35:34.686604+05:30
Aligarh,Uttar Pradesh,27.8974,78.088,34.8,48,0.0,980.0,6.55,25.2,163,170.4,44.2,5.5,279.0,115.0,7.7,0,5,7,1,2026-06-28T09:35:34.686611+05:30
Moradabad,Uttar Pradesh,28.8386,78.7733,34.5,53,0.0,978.4,7.7,28.8,160,124.3,59.3,6.8,478.0,160.0,12.6,0,5,7,1,2026-06-28T09:35:34.686617+05:30
Saharanpur,Uttar Pradesh,29.9637,77.546,33.2,55,0.0,970.8,7.2,44.3,156,143.9,72.2,4.9,421.0,173.0,12.0,0,5,7,1,2026-06-28T09:35:34.686623+05:30
Jhansi,Uttar Pradesh,25.4484,78.5685,34.6,52,0.0,973.7,8.4,47.2,84,53.0,25.6,3.5,172.0,90.0,7.5,0,5,7,1,2026-06-28T09:35:37.915979+05:30
Surat,Gujarat,21.1702,72.8311,31.6,64,0.0,1003.7,7.6,43.9,82,53.9,26.9,17.6,383.0,44.0,55.0,3,5,4,1,2026-06-28T09:35:37.916011+05:30
Vadodara,Gujarat,22.3072,73.1812,33.8,49,0.0,1001.1,7.85,48.6,76,47.8,23.5,5.4,151.0,66.0,8.9,0,5,4,1,2026-06-28T09:35:37.916022+05:30
Rajkot,Gujarat,22.3039,70.8022,32.2,56,0.0,991.2,7.55,37.4,70,57.7,21.1,3.0,103.0,65.0,6.0,0,5,7,1,2026-06-28T09:35:37.916031+05:30
Thane,Maharashtra,19.2183,72.9781,28.7,81,0.0,1005.5,7.5,29.9,61,24.1,14.5,9.8,189.0,66.0,15.5,7,5,4,1,2026-06-28T09:35:37.916039+05:30
Nagpur,Maharashtra,21.1458,79.0882,30.5,70,0.0,970.5,8.85,38.9,91,42.0,29.7,14.7,257.0,94.0,37.1,3,5,7,1,2026-06-28T09:35:37.916047+05:30
Nashik,Maharashtra,19.9975,73.7898,27.5,70,0.0,943.5,3.15,34.9,54,23.4,12.3,5.3,155.0,56.0,8.1,7,5,3,1,2026-06-28T09:35:37.916055+05:30
Aurangabad,Maharashtra,19.8762,75.3433,27.4,73,0.0,942.3,0.75,27.0,67,32.6,15.5,3.7,129.0,72.0,7.7,7,5,3,1,2026-06-28T09:35:37.916062+05:30
Solapur,Maharashtra,17.6599,75.9064,28.9,71,0.0,955.8,7.0,29.5,57,11.9,8.2,3.8,170.0,68.0,3.4,7,5,7,1,2026-06-28T09:35:37.916070+05:30
Kolhapur,Maharashtra,16.705,74.2433,26.2,77,0.1,947.0,7.15,43.6,32,6.4,4.8,2.7,133.0,54.0,2.0,10,5,7,1,2026-06-28T09:35:37.916078+05:30
Goa,Goa,15.2993,74.124,26.3,96,0.1,997.4,4.45,34.2,34,8.1,5.4,1.5,157.0,55.0,0.7,10,5,3,1,2026-06-28T09:35:37.916086+05:30
Jodhpur,Rajasthan,26.2389,73.0243,34.2,50,0.0,979.1,8.4,39.2,118,225.4,55.4,1.5,110.0,65.0,3.6,0,5,7,1,2026-06-28T09:35:37.916093+05:30
Udaipur,Rajasthan,24.5854,73.7125,30.2,63,0.0,943.5,8.55,27.0,66,39.6,20.6,2.1,156.0,76.0,3.6,3,5,7,1,2026-06-28T09:35:37.916104+05:30
Kota,Rajasthan,25.2138,75.8648,34.5,49,0.0,974.9,7.55,41.0,74,48.9,25.7,3.4,179.0,83.0,4.5,0,5,7,1,2026-06-28T09:35:37.916114+05:30
Bikaner,Rajasthan,28.0229,73.3119,36.5,39,0.0,977.0,8.45,36.4,112,261.7,78.9,0.7,113.0,71.0,1.8,0,5,10,1,2026-06-28T09:35:37.916121+05:30
Ajmer,Rajasthan,26.4499,74.6399,32.2,52,0.0,951.3,8.3,43.2,82,95.0,32.7,2.4,136.0,73.0,4.2,0,5,7,1,2026-06-28T09:35:37.916128+05:30
Gwalior,Madhya Pradesh,26.2183,78.1828,35.5,48,0.0,978.4,7.75,52.2,81,77.3,32.1,2.8,170.0,88.0,3.4,0,5,10,1,2026-06-28T09:35:37.916136+05:30
Indore,Madhya Pradesh,22.7196,75.8577,28.7,70,0.0,945.5,8.25,33.5,85,46.0,27.7,5.3,237.0,84.0,12.0,7,5,7,1,2026-06-28T09:35:37.916143+05:30
Bhopal,Madhya Pradesh,23.2599,77.4126,29.3,71,0.0,950.9,4.05,26.6,88,40.6,24.8,2.8,332.0,93.0,3.4,7,5,3,1,2026-06-28T09:35:37.916149+05:30
Jabalpur,Madhya Pradesh,23.1815,79.9864,31.7,59,0.0,958.6,8.85,23.0,73,42.4,28.4,2.3,231.0,110.0,3.6,0,5,7,1,2026-06-28T09:35:37.916156+05:30
Ujjain,Madhya Pradesh,23.1765,75.7885,27.9,76,0.0,951.0,7.25,32.8,82,42.6,26.3,5.2,220.0,76.0,13.0,7,5,7,1,2026-06-28T09:35:37.916163+05:30
Visakhapatnam,Andhra Pradesh,17.6868,83.2185,30.1,73,0.0,1001.0,8.45,45.7,79,20.1,17.6,13.7,360.0,100.0,37.7,3,5,4,1,2026-06-28T09:35:37.916170+05:30
Vijayawada,Andhra Pradesh,16.5062,80.648,31.0,69,0.0,1000.4,6.6,26.6,87,20.8,15.4,5.4,201.0,83.0,5.2,3,5,4,1,2026-06-28T09:35:37.916177+05:30
Guntur,Andhra Pradesh,16.3067,80.4365,31.5,66,0.0,1001.6,7.4,38.5,82,21.3,15.0,4.9,209.0,82.0,5.7,3,5,4,1,2026-06-28T09:35:37.916185+05:30
Nellore,Andhra Pradesh,14.4426,79.9865,33.7,50,0.0,1003.7,8.55,40.0,65,15.2,9.7,4.4,149.0,70.0,6.9,0,5,4,1,2026-06-28T09:35:37.916192+05:30
Kurnool,Andhra Pradesh,15.8281,78.0373,29.8,62,0.0,975.7,6.85,44.3,60,9.1,6.0,3.5,135.0,50.0,3.4,7,5,7,1,2026-06-28T09:35:37.916200+05:30
Kakinada,Andhra Pradesh,16.9891,82.2475,29.9,80,0.1,1005.2,7.25,36.4,67,18.0,14.1,4.9,215.0,98.0,5.0,10,5,4,1,2026-06-28T09:35:37.916207+05:30
Tirupati,Andhra Pradesh,13.6288,79.4192,32.7,51,0.0,989.5,8.35,36.7,56,18.0,11.4,3.2,149.0,81.0,2.2,0,5,7,1,2026-06-28T09:35:37.916214+05:30
Warangal,Telangana,17.9689,79.5941,29.1,74,0.0,976.6,7.35,29.5,85,37.7,23.3,4.9,187.0,92.0,4.8,7,5,7,1,2026-06-28T09:35:37.916222+05:30
Nizamabad,Telangana,18.6725,78.0941,28.9,71,0.0,963.2,8.05,34.9,105,67.3,37.1,6.2,161.0,85.0,9.8,7,5,7,1,2026-06-28T09:35:37.916229+05:30
Mysore,Karnataka,12.2958,76.6396,26.3,66,0.0,928.4,8.15,51.8,33,3.7,2.7,2.8,115.0,53.0,1.8,7,5,7,1,2026-06-28T09:35:37.916236+05:30
Mangalore,Karnataka,12.9141,74.856,26.6,90,0.1,1007.2,7.75,42.8,43,13.7,7.6,2.5,155.0,51.0,1.7,10,5,4,1,2026-06-28T09:35:37.916243+05:30
Hubli-Dharwad,Karnataka,15.3647,75.124,25.4,79,0.0,940.1,7.7,48.6,20,1.6,1.4,2.0,115.0,51.0,0.8,7,5,7,1,2026-06-28T09:35:37.916250+05:30
Belgaum,Karnataka,15.8497,74.4977,23.4,92,0.0,924.5,7.2,41.8,20,2.1,1.7,2.5,113.0,51.0,1.6,3,5,7,1,2026-06-28T09:35:41.177018+05:30
Coimbatore,Tamil Nadu,11.0168,76.9558,28.6,64,0.0,961.4,8.85,56.9,34,10.9,6.3,2.1,140.0,56.0,2.3,7,5,7,1,2026-06-28T09:35:41.177057+05:30
Madurai,Tamil Nadu,9.9252,78.1198,33.6,44,0.0,992.2,8.75,54.0,66,29.5,17.1,6.3,130.0,85.0,5.6,0,5,7,1,2026-06-28T09:35:41.177071+05:30
Trichy,Tamil Nadu,10.7905,78.7047,32.6,51,0.0,998.6,8.65,41.8,50,20.0,10.7,2.3,123.0,63.0,2.8,0,5,7,1,2026-06-28T09:35:41.177083+05:30
Salem,Tamil Nadu,11.6643,78.146,29.5,65,0.0,977.0,8.75,40.0,57,24.6,16.3,8.0,181.0,78.0,13.4,7,5,7,1,2026-06-28T09:35:41.177095+05:30
Tirunelveli,Tamil Nadu,8.7139,77.7567,34.1,45,0.0,1002.6,8.6,46.8,41,7.6,4.6,2.0,110.0,60.0,1.6,0,5,4,1,2026-06-28T09:35:41.177107+05:30
Vellore,Tamil Nadu,12.9165,79.1325,31.5,54,0.0,983.2,8.95,37.8,60,24.5,15.4,4.9,150.0,82.0,4.8,0,5,7,1,2026-06-28T09:35:41.177118+05:30
Erode,Tamil Nadu,11.341,77.7172,31.7,52,0.0,988.4,8.75,56.2,52,15.8,10.1,4.0,147.0,64.0,3.2,0,5,7,1,2026-06-28T09:35:41.177129+05:30
Kochi,Kerala,9.9312,76.2673,26.7,89,0.0,1010.1,8.55,42.1,53,11.7,6.8,4.4,137.0,54.0,3.6,7,0,4,1,2026-06-28T09:35:41.177140+05:30
Thiruvananthapuram,Kerala,8.5241,76.9366,26.9,84,0.1,1009.6,7.6,47.5,41,13.6,7.4,1.8,130.0,55.0,1.2,10,0,4,1,2026-06-28T09:35:41.177150+05:30
Kozhikode,Kerala,11.2588,75.7804,26.7,92,0.0,1008.9,8.25,43.2,37,11.4,5.4,0.6,131.0,55.0,0.6,7,0,4,1,2026-06-28T09:35:41.177161+05:30
Thrissur,Kerala,10.5276,76.2144,26.9,88,0.0,1008.2,8.5,37.8,54,10.4,6.2,3.0,183.0,59.0,2.6,7,0,4,1,2026-06-28T09:35:41.177173+05:30
Kannur,Kerala,11.8745,75.3704,26.7,92,0.1,1008.0,8.15,40.3,44,12.3,6.5,2.3,133.0,47.0,1.2,10,0,4,1,2026-06-28T09:35:41.177184+05:30
Patna,Bihar,25.5941,85.1376,32.0,70,0.0,995.7,8.1,31.7,155,62.9,56.1,5.8,321.0,148.0,11.3,3,5,7,1,2026-06-28T09:35:41.177194+05:30
Gaya,Bihar,24.7914,85.0002,32.7,63,0.0,989.4,8.65,26.3,130,53.2,49.9,4.2,232.0,139.0,11.7,3,5,7,1,2026-06-28T09:35:41.177205+05:30
Muzaffarpur,Bihar,26.1209,85.3647,31.0,74,0.0,995.8,8.0,29.5,157,58.8,51.0,5.8,317.0,149.0,12.1,3,5,7,1,2026-06-28T09:35:41.177215+05:30
Bhagalpur,Bihar,25.2425,87.0117,31.7,72,0.1,997.0,7.75,30.6,128,33.5,29.7,11.8,436.0,101.0,25.5,6,5,7,1,2026-06-28T09:35:41.177226+05:30
Ranchi,Jharkhand,23.3441,85.3096,30.6,61,0.0,935.4,9.0,31.0,119,36.1,33.4,3.5,229.0,137.0,22.4,3,5,7,1,2026-06-28T09:35:41.177236+05:30
Jamshedpur,Jharkhand,22.8046,86.2029,32.7,66,0.0,987.2,8.85,33.5,125,37.0,34.2,6.4,331.0,144.0,32.1,3,5,7,1,2026-06-28T09:35:41.177247+05:30
Dhanbad,Jharkhand,23.7957,86.4304,33.7,51,0.0,976.4,8.85,32.4,158,57.4,54.2,26.7,213.0,121.0,71.1,0,5,7,1,2026-06-28T09:35:41.177258+05:30
Bokaro,Jharkhand,23.6693,86.1511,33.7,52,0.0,980.2,8.95,32.8,158,48.2,45.6,16.3,259.0,127.0,49.7,0,5,7,1,2026-06-28T09:35:41.177269+05:30
Bhubaneswar,Odisha,20.2961,85.8245,32.1,75,0.0,999.1,8.8,29.9,68,27.4,21.7,2.3,174.0,110.0,6.1,3,5,7,1,2026-06-28T09:35:41.177279+05:30
Cuttack,Odisha,20.4625,85.8828,31.9,74,0.0,1000.9,9.15,30.2,68,27.4,21.7,2.3,240.0,110.0,6.1,3,5,4,1,2026-06-28T09:35:41.177290+05:30
Rourkela,Odisha,22.2604,84.8536,33.8,54,0.0,981.7,9.0,28.1,108,24.9,23.2,4.1,246.0,134.0,18.9,0,5,7,1,2026-06-28T09:35:41.177300+05:30
Raipur,Chhattisgarh,21.2514,81.6296,32.2,61,0.0,971.8,8.95,34.9,104,38.3,34.6,15.3,333.0,113.0,44.2,3,5,7,1,2026-06-28T09:35:41.177311+05:30
Bhilai,Chhattisgarh,21.1938,81.3509,32.1,60,0.0,972.3,8.95,32.4,108,37.4,32.9,13.0,581.0,108.0,38.1,0,5,7,1,2026-06-28T09:35:41.177321+05:30
Guwahati,Assam,26.1158,91.7086,28.8,85,0.1,998.5,7.25,31.7,76,9.4,8.7,2.3,212.0,84.0,2.3,10,5,7,1,2026-06-28T09:35:41.177331+05:30
Agartala,Tripura,23.8315,91.2868,31.4,70,0.0,1004.0,7.55,38.9,54,9.1,7.8,3.3,138.0,80.0,1.5,3,5,4,1,2026-06-28T09:35:41.177342+05:30
Shillong,Meghalaya,25.5788,91.8933,24.6,69,0.0,857.2,7.85,41.0,51,4.5,4.1,2.9,135.0,69.0,1.8,3,5,7,1,2026-06-28T09:35:41.177352+05:30
Imphal,Manipur,24.817,93.9368,27.0,73,0.0,921.9,9.05,34.9,54,6.7,5.0,0.7,139.0,64.0,1.1,7,5,7,1,2026-06-28T09:35:41.177363+05:30
Aizawl,Mizoram,23.7271,92.7176,25.1,70,0.0,892.6,8.3,35.6,29,3.0,2.3,0.5,113.0,58.0,0.5,7,5,7,1,2026-06-28T09:35:41.177374+05:30
Kohima,Nagaland,25.6701,94.1077,22.8,96,0.0,854.9,8.15,28.1,41,4.5,3.5,0.5,167.0,69.0,1.1,3,5,7,1,2026-06-28T09:35:41.177385+05:30
Gangtok,Sikkim,27.3314,88.6138,20.4,96,0.3,836.3,7.7,36.0,94,9.6,8.1,1.3,298.0,139.0,2.8,6,5,7,1,2026-06-28T09:35:41.177396+05:30
Siliguri,West Bengal,26.7271,88.3953,27.9,84,0.1,989.6,8.15,24.8,88,23.9,20.1,2.7,382.0,144.0,5.5,10,5,7,1,2026-06-28T09:35:44.445080+05:30
Durgapur,West Bengal,23.5204,87.3119,32.6,72,0.0,991.2,9.0,29.5,128,55.4,52.0,23.0,695.0,112.0,63.2,3,5,7,1,2026-06-28T09:35:44.445114+05:30
Asansol,West Bengal,23.6739,86.9524,33.4,63,0.0,989.7,8.85,38.2,134,57.2,53.9,23.7,538.0,121.0,63.4,3,5,7,1,2026-06-28T09:35:44.445125+05:30
Pondicherry,Puducherry,11.9139,79.8145,32.3,61,0.0,1007.0,8.4,49.7,65,26.6,20.2,9.4,265.0,82.0,10.9,3,5,4,1,2026-06-28T09:35:44.445134+05:30
Port Blair,Andaman and Nicobar Islands,11.6234,92.7265,28.3,86,0.0,1007.6,1.55,41.4,19,8.0,4.8,0.3,86.0,45.0,0.3,7,5,0,1,2026-06-28T09:35:44.445142+05:30
Haridwar,Uttarakhand,29.9457,78.1642,32.8,59,0.0,969.4,7.6,32.0,151,132.7,65.9,3.0,271.0,168.0,11.4,0,5,7,1,2026-06-28T09:35:44.445151+05:30
Rishikesh,Uttarakhand,30.0869,78.2676,32.2,60,0.0,962.3,7.7,29.2,128,111.5,53.4,1.9,264.0,151.0,6.5,0,5,7,1,2026-06-28T09:35:44.445158+05:30
Nainital,Uttarakhand,29.3919,79.4542,23.4,62,0.0,806.5,6.85,32.0,136,127.1,58.0,1.3,242.0,160.0,9.5,3,5,7,0,2026-06-28T09:35:44.445166+05:30
Mussoorie,Uttarakhand,30.4599,78.0664,21.1,79,0.0,803.3,6.35,40.7,122,93.1,48.0,1.3,239.0,159.0,6.3,3,5,7,1,2026-06-28T09:35:44.445174+05:30
Dharamshala,Himachal Pradesh,32.219,76.3234,25.9,65,0.0,868.1,7.85,31.0,60,31.7,19.1,1.6,274.0,114.0,1.1,7,5,7,1,2026-06-28T09:35:44.445181+05:30
Dalhousie,Himachal Pradesh,32.5387,75.971,23.0,70,0.0,805.4,6.8,31.7,107,33.5,22.5,3.6,280.0,132.0,1.3,3,5,7,1,2026-06-28T09:35:44.445189+05:30
Patiala,Punjab,30.3398,76.3869,35.5,47,0.0,973.0,7.6,37.4,168,135.0,67.5,6.7,498.0,157.0,10.9,0,5,10,1,2026-06-28T09:35:44.445196+05:30
Bhatinda,Punjab,30.211,74.9455,35.2,50,0.0,978.2,8.25,47.5,159,90.3,62.6,9.9,408.0,170.0,18.2,0,5,10,1,2026-06-28T09:35:44.445204+05:30
Rohtak,Haryana,28.8955,76.6066,35.6,51,0.0,976.0,7.55,33.1,171,393.9,99.0,20.7,453.0,113.0,10.6,0,5,10,1,2026-06-28T09:35:44.445211+05:30
Panipat,Haryana,29.3909,76.9635,34.5,52,0.0,975.0,7.4,27.4,325,1426.8,210.0,22.6,447.0,156.0,23.2,0,5,7,1,2026-06-28T09:35:44.445217+05:30
Mathura,Uttar Pradesh,27.4924,77.6737,35.2,51,0.0,981.2,7.4,32.4,156,287.8,59.6,8.5,249.0,93.0,5.2,0,5,10,1,2026-06-28T09:35:44.445225+05:30
Vrindavan,Uttar Pradesh,27.5823,77.7027,35.0,53,0.0,981.6,7.4,28.8,156,287.8,59.6,8.5,252.0,93.0,5.2,0,5,7,1,2026-06-28T09:35:44.445232+05:30
Ayodhya,Uttar Pradesh,26.7922,82.1998,33.2,64,0.0,990.3,8.45,22.0,146,88.0,57.9,3.6,295.0,154.0,6.7,3,5,7,1,2026-06-28T09:35:44.445239+05:30
Ratlam,Madhya Pradesh,23.3315,75.0367,27.9,75,0.0,951.8,7.65,39.2,80,38.5,23.8,5.8,170.0,68.0,13.8,7,5,7,1,2026-06-28T09:35:44.445246+05:30
Sagar,Madhya Pradesh,23.8388,78.7378,31.1,59,0.0,947.3,5.9,36.0,73,39.1,23.3,2.5,211.0,99.0,3.3,0,5,3,1,2026-06-28T09:35:44.445253+05:30
Satna,Madhya Pradesh,24.6005,80.8322,33.9,50,0.0,967.6,8.8,32.0,74,47.0,27.3,2.1,186.0,111.0,4.0,0,5,7,1,2026-06-28T09:35:44.445260+05:30
Akola,Maharashtra,20.7002,77.0082,30.3,66,0.0,972.8,7.3,43.6,83,26.7,17.8,5.3,156.0,91.0,9.3,3,5,7,1,2026-06-28T09:35:44.445268+05:30
Amravati,Maharashtra,20.9374,77.7796,30.1,67,0.0,964.9,7.85,50.8,80,28.7,19.2,5.5,183.0,91.0,10.6,3,5,7,1,2026-06-28T09:35:44.445276+05:30
Latur,Maharashtra,18.4088,76.5604,29.0,69,0.0,938.5,7.1,44.3,89,33.5,19.5,4.1,182.0,81.0,4.1,7,5,7,1,2026-06-28T09:35:44.445283+05:30
Nanded,Maharashtra,19.1383,77.3091,27.2,85,0.1,967.0,7.1,41.0,91,52.5,27.9,3.8,171.0,92.0,4.2,10,5,7,1,2026-06-28T09:35:44.445291+05:30
Gulbarga,Karnataka,17.3297,76.8343,28.7,68,0.0,957.3,8.0,31.0,64,11.2,7.2,4.6,147.0,60.0,3.3,7,5,7,1,2026-06-28T09:35:44.445297+05:30
Bidar,Karnataka,17.9104,77.5199,28.6,68,0.0,934.1,8.15,30.6,80,22.8,14.0,4.5,172.0,74.0,2.7,7,5,7,1,2026-06-28T09:35:44.445305+05:30
Hospet,Karnataka,15.2689,76.3909,26.6,72,0.0,955.2,8.85,54.0,25,3.5,2.4,1.8,114.0,52.0,1.7,7,5,7,1,2026-06-28T09:35:44.445311+05:30
Tirupur,Tamil Nadu,11.1085,77.3411,30.0,59,0.0,974.7,8.9,60.8,53,17.9,11.4,4.1,131.0,65.0,3.8,4,5,7,1,2026-06-28T09:35:44.445318+05:30
Alappuzha,Kerala,9.4981,76.3388,26.3,91,0.1,1010.5,8.45,45.4,52,17.2,9.8,3.7,91.0,55.0,2.6,10,0,4,1,2026-06-28T09:35:44.445324+05:30
Munnar,Kerala,10.0889,77.0595,21.0,78,0.0,857.9,7.95,37.1,31,7.4,4.0,1.6,92.0,53.0,1.4,3,5,7,1,2026-06-28T09:35:44.445331+05:30
Silchar,Assam,24.8333,92.7789,28.6,84,0.1,1003.2,8.8,29.5,63,8.6,7.2,1.7,162.0,62.0,2.2,10,5,4,1,2026-06-28T09:35:44.445338+05:30
Dibrugarh,Assam,27.4728,94.912,29.7,82,0.0,991.4,3.9,35.6,68,20.9,18.4,2.0,221.0,104.0,2.5,7,5,3,1,2026-06-28T09:35:44.445345+05:30
