city,state,latitude,longitude,temp,humidity,rain,pressure,uv_index,wind_gusts,aqi,pm10,pm2_5,no2,co,o3,so2,mosquito_risk,arthritis_risk,migraine_risk,frizz_risk,updated_at
Delhi,Delhi,28.6139,77.209,28.0,55,0.0,979.8,7.45,40.0,436,212.3,55.8,11.3,468.0,139.0,21.0,4,5,7,1,2026-05-04T00:34:12.383533+05:30
Mumbai,Maharashtra,19.076,72.8777,28.8,77,0.0,1007.5,7.85,44.3,68,35.6,16.2,9.6,210.0,64.0,16.8,7,5,4,1,2026-05-04T00:34:12.383583+05:30
Bangalore,Karnataka,12.9716,77.5946,23.7,71,0.0,910.9,9.5,31.0,81,36.3,22.9,27.8,872.0,56.0,9.2,3,5,7,1,2026-05-04T00:34:12.383599+05:30
Hyderabad,Telangana,17.385,78.4867,29.1,51,0.0,951.1,9.25,36.4,75,69.8,42.5,50.3,534.0,37.0,16.3,4,5,7,1,2026-05-04T00:34:12.383611+05:30
Chennai,Tamil Nadu,13.0827,80.2707,30.4,83,0.0,1004.5,9.2,52.6,125,27.1,20.5,6.8,209.0,103.0,3.6,3,5,4,1,2026-05-04T00:34:12.383620+05:30
Kolkata,West Bengal,22.5726,88.3639,26.2,95,0.0,1005.7,6.75,33.8,117,45.2,38.2,13.8,405.0,67.0,9.6,7,5,4,1,2026-05-04T00:34:12.383629+05:30
Pune,Maharashtra,18.5204,73.8567,23.8,77,0.0,947.1,8.45,46.1,60,26.2,13.3,13.2,244.0,48.0,10.8,3,5,7,1,2026-05-04T00:34:12.383636+05:30
Ahmedabad,Gujarat,23.0225,72.5714,30.8,62,0.0,997.6,8.1,50.4,54,35.5,15.2,5.9,307.0,79.0,6.7,3,5,7,1,2026-05-04T00:34:12.383647+05:30
Jaipur,Rajasthan,26.9124,75.7873,29.5,28,0.0,955.6,7.8,46.8,112,148.5,37.7,21.2,278.0,60.0,7.5,4,5,7,0,2026-05-04T00:34:12.383655+05:30
Lucknow,Uttar Pradesh,26.8467,80.9462,26.0,67,0.0,992.1,8.05,46.8,121,52.6,36.8,6.1,370.0,136.0,6.5,7,5,7,1,2026-05-04T00:34:12.383663+05:30
Kanpur,Uttar Pradesh,26.4499,80.3319,27.4,63,0.0,989.5,8.05,50.4,191,566.2,82.9,4.7,328.0,146.0,7.0,7,5,7,1,2026-05-04T00:34:12.383671+05:30
Chandigarh,Chandigarh,30.7333,76.7794,23.5,60,0.0,965.5,7.25,49.3,108,101.7,43.3,19.7,449.0,85.0,11.6,0,5,7,0,2026-05-04T00:34:12.383678+05:30
Srinagar,Jammu and Kashmir,34.0837,74.7973,9.4,99,0.0,841.5,6.6,31.7,70,32.8,24.2,12.5,884.0,99.0,3.0,3,10,7,0,2026-05-04T00:34:12.383686+05:30
Jammu,Jammu and Kashmir,32.7266,74.857,22.5,49,0.0,969.6,7.1,43.2,85,50.2,35.4,22.0,323.0,75.0,6.5,0,5,7,0,2026-05-04T00:34:12.383694+05:30
Amritsar,Punjab,31.634,74.8723,24.8,54,0.0,977.5,8.0,51.5,118,196.5,52.5,7.4,442.0,113.0,7.6,0,5,7,0,2026-05-04T00:34:12.383701+05:30
Ludhiana,Punjab,30.901,75.8573,25.4,52,0.0,975.3,7.7,47.9,222,221.7,60.1,10.7,511.0,106.0,10.3,4,5,7,0,2026-05-04T00:34:12.383709+05:30
Jalandhar,Punjab,31.326,75.5762,23.9,57,0.0,976.4,7.85,47.2,150,269.2,66.4,9.9,428.0,103.0,9.4,0,5,7,0,2026-05-04T00:34:12.383716+05:30
Dehradun,Uttarakhand,30.6284,78.0322,12.1,87,0.0,827.0,5.35,32.4,69,51.8,28.2,26.3,301.0,60.0,1.5,3,10,3,0,2026-05-04T00:34:12.383725+05:30
Shimla,Himachal Pradesh,31.1048,77.1734,11.4,61,0.0,781.2,6.75,33.5,96,102.2,32.8,16.8,287.0,106.0,8.0,3,5,7,0,2026-05-04T00:34:12.383733+05:30
Manali,Himachal Pradesh,32.2396,77.1887,7.0,72,0.0,812.9,7.4,35.3,99,8.2,5.5,14.8,219.0,124.0,0.0,3,5,7,0,2026-05-04T00:34:12.383740+05:30
Gurgaon,Haryana,28.4595,77.0266,27.9,55,0.0,977.5,7.45,49.0,1451,2272.4,244.0,11.8,458.0,127.0,19.0,4,5,7,1,2026-05-04T00:34:12.383747+05:30
Noida,Uttar Pradesh,28.5355,77.391,27.0,60,0.0,981.1,7.5,42.1,1451,2272.4,244.0,11.8,415.0,127.0,19.0,4,5,7,1,2026-05-04T00:34:12.383755+05:30
Ghaziabad,Uttar Pradesh,28.6692,77.4538,26.6,62,0.0,979.5,7.45,46.8,267,105.2,41.2,5.5,377.0,143.0,16.4,7,5,7,1,2026-05-04T00:34:12.383762+05:30
Faridabad,Haryana,28.4089,77.3178,27.5,58,0.0,980.2,7.55,42.8,1451,2272.4,244.0,11.8,409.0,127.0,19.0,4,5,7,1,2026-05-04T00:34:12.383769+05:30
Meerut,Uttar Pradesh,28.9845,77.7064,25.1,70,0.0,978.8,7.4,58.3,267,105.2,41.2,5.5,376.0,143.0,16.4,7,5,7,1,2026-05-04T00:34:12.383776+05:30
Agra,Uttar Pradesh,27.1767,78.0081,28.2,53,0.0,983.8,7.15,47.2,842,1721.1,201.2,5.9,328.0,121.0,11.4,4,5,7,1,2026-05-04T00:34:12.383782+05:30
Varanasi,Uttar Pradesh,25.3176,82.9739,26.9,70,0.0,996.6,8.6,53.6,163,68.7,62.6,8.2,391.0,148.0,13.7,7,5,7,1,2026-05-04T00:34:12.383789+05:30
Prayagraj,Uttar Pradesh,25.4358,81.8463,27.5,64,0.0,994.3,8.5,45.7,147,62.2,55.8,7.8,348.0,140.0,9.4,7,5,7,1,2026-05-04T00:34:12.383798+05:30
Gorakhpur,Uttar Pradesh,26.7606,83.3732,24.0,84,0.0,997.8,8.45,39.6,115,34.9,27.0,9.0,433.0,115.0,6.8,3,5,7,1,2026-05-04T00:34:12.383807+05:30
Bareilly,Uttar Pradesh,28.367,79.4304,24.2,71,0.0,985.4,7.65,45.7,124,88.9,36.9,7.1,313.0,102.0,5.2,3,5,7,1,2026-05-04T00:34:12.383814+05:30
Aligarh,Uttar Pradesh,27.8974,78.088,27.1,60,0.0,982.2,7.6,50.8,819,899.7,113.9,6.6,362.0,134.0,17.9,4,5,7,1,2026-05-04T00:34:12.383822+05:30
Moradabad,Uttar Pradesh,28.8386,78.7733,24.8,71,0.0,982.0,7.55,52.2,123,103.6,43.9,12.5,331.0,97.0,6.8,3,5,7,1,2026-05-04T00:34:12.383829+05:30
Saharanpur,Uttar Pradesh,29.9637,77.546,24.4,71,0.0,973.7,7.2,49.7,138,99.0,43.3,9.7,379.0,115.0,12.2,3,5,7,1,2026-05-04T00:34:12.383835+05:30
Jhansi,Uttar Pradesh,25.4484,78.5685,29.2,53,0.0,974.5,7.75,60.5,83,66.4,26.3,4.3,295.0,102.0,14.8,4,5,7,1,2026-05-04T00:34:15.704104+05:30
Surat,Gujarat,21.1702,72.8311,28.5,82,0.0,1004.1,7.7,52.9,60,24.9,14.5,15.1,246.0,59.0,25.6,7,5,4,1,2026-05-04T00:34:15.704157+05:30
Vadodara,Gujarat,22.3072,73.1812,28.6,83,0.0,1000.6,8.05,45.4,53,17.9,11.2,10.4,219.0,58.0,12.9,7,5,4,1,2026-05-04T00:34:15.704170+05:30
Rajkot,Gujarat,22.3039,70.8022,27.6,76,0.0,990.1,7.7,51.5,49,28.8,12.9,4.0,170.0,68.0,5.4,7,5,7,1,2026-05-04T00:34:15.704181+05:30
Thane,Maharashtra,19.2183,72.9781,28.6,77,0.0,1006.9,7.9,40.7,68,35.6,16.2,9.6,217.0,64.0,16.8,7,5,4,1,2026-05-04T00:34:15.704189+05:30
Nagpur,Maharashtra,21.1458,79.0882,32.3,22,0.0,969.3,8.9,43.2,79,54.8,22.8,12.5,273.0,74.0,10.5,0,5,7,0,2026-05-04T00:34:15.704197+05:30
Nashik,Maharashtra,19.9975,73.7898,23.2,89,0.0,944.1,8.2,44.6,61,26.5,14.9,13.4,216.0,54.0,15.2,3,5,7,1,2026-05-04T00:34:15.704205+05:30
Aurangabad,Maharashtra,19.8762,75.3433,27.0,40,0.0,942.6,9.05,46.4,55,25.3,12.2,8.4,186.0,74.0,11.6,4,5,7,0,2026-05-04T00:34:15.704213+05:30
Solapur,Maharashtra,17.6599,75.9064,30.2,37,0.0,955.4,9.1,34.9,57,24.5,12.0,5.0,201.0,82.0,3.8,0,5,7,0,2026-05-04T00:34:15.704222+05:30
Kolhapur,Maharashtra,16.705,74.2433,22.9,93,0.0,947.2,8.95,46.8,62,28.2,13.9,7.3,196.0,54.0,2.2,3,5,7,1,2026-05-04T00:34:15.704230+05:30
Goa,Goa,15.2993,74.124,28.2,80,0.0,997.6,8.9,36.7,66,55.9,21.4,7.4,224.0,58.0,2.1,7,5,7,1,2026-05-04T00:34:15.704237+05:30
Jodhpur,Rajasthan,26.2389,73.0243,30.3,32,0.0,976.8,8.25,43.6,120,142.5,28.2,4.5,194.0,92.0,2.8,0,5,7,0,2026-05-04T00:34:15.704245+05:30
Udaipur,Rajasthan,24.5854,73.7125,27.1,38,0.0,942.2,8.75,59.8,64,36.1,15.5,5.6,189.0,86.0,5.2,4,5,7,0,2026-05-04T00:34:15.704252+05:30
Kota,Rajasthan,25.2138,75.8648,31.5,35,0.0,973.6,8.3,52.2,67,18.2,11.7,3.0,183.0,116.0,8.2,0,5,7,0,2026-05-04T00:34:15.704260+05:30
Bikaner,Rajasthan,28.0229,73.3119,31.0,26,0.0,976.7,8.15,54.4,86,145.8,34.5,1.7,190.0,111.0,5.2,0,5,7,0,2026-05-04T00:34:15.704267+05:30
Ajmer,Rajasthan,26.4499,74.6399,29.0,30,0.0,949.9,8.2,71.3,68,58.9,20.0,3.6,201.0,96.0,4.0,4,5,7,0,2026-05-04T00:34:15.704274+05:30
Gwalior,Madhya Pradesh,26.2183,78.1828,29.6,48,0.0,979.3,8.1,60.8,79,65.4,26.9,4.5,304.0,99.0,8.0,4,5,7,1,2026-05-04T00:34:15.704281+05:30
Indore,Madhya Pradesh,22.7196,75.8577,28.8,40,0.0,945.3,8.6,43.9,63,15.8,11.4,4.1,219.0,101.0,7.9,4,5,7,0,2026-05-04T00:34:15.704288+05:30
Bhopal,Madhya Pradesh,23.2599,77.4126,30.0,24,0.0,950.1,8.65,74.2,68,46.7,26.0,11.5,189.0,59.0,5.3,4,5,7,0,2026-05-04T00:34:15.704295+05:30
Jabalpur,Madhya Pradesh,23.1815,79.9864,28.3,38,0.0,958.0,8.8,48.2,71,72.4,26.2,11.8,297.0,69.0,3.5,4,5,7,0,2026-05-04T00:34:15.704302+05:30
Ujjain,Madhya Pradesh,23.1765,75.7885,29.1,38,0.0,950.6,8.55,54.7,63,15.5,11.3,3.1,191.0,94.0,6.6,4,5,7,0,2026-05-04T00:34:15.704310+05:30
Visakhapatnam,Andhra Pradesh,17.6868,83.2185,27.3,95,0.0,1002.6,8.3,42.1,69,30.6,23.5,19.7,319.0,79.0,3.8,7,5,4,1,2026-05-04T00:34:15.704317+05:30
Vijayawada,Andhra Pradesh,16.5062,80.648,28.4,88,0.0,1000.5,9.2,31.7,113,33.1,27.3,5.7,309.0,116.0,5.2,7,5,4,1,2026-05-04T00:34:15.704323+05:30
Guntur,Andhra Pradesh,16.3067,80.4365,29.0,82,0.0,1001.8,9.2,47.9,86,33.6,27.7,4.9,263.0,131.0,5.8,7,5,4,1,2026-05-04T00:34:15.704330+05:30
Nellore,Andhra Pradesh,14.4426,79.9865,30.1,69,0.0,1003.2,9.25,41.8,131,31.9,27.9,8.1,308.0,131.0,9.6,3,5,4,1,2026-05-04T00:34:15.704338+05:30
Kurnool,Andhra Pradesh,15.8281,78.0373,32.0,29,0.0,974.4,9.15,36.4,65,55.9,28.4,15.6,468.0,74.0,6.9,0,5,7,0,2026-05-04T00:34:15.704346+05:30
Kakinada,Andhra Pradesh,16.9891,82.2475,27.3,96,0.0,1006.3,9.05,39.6,63,30.7,21.7,1.6,221.0,107.0,2.0,7,5,4,1,2026-05-04T00:34:15.704353+05:30
Tirupati,Andhra Pradesh,13.6288,79.4192,29.9,68,0.0,989.0,9.3,57.6,80,36.1,33.8,13.7,309.0,114.0,10.4,7,5,7,1,2026-05-04T00:34:15.704359+05:30
Warangal,Telangana,17.9689,79.5941,28.5,67,0.0,976.2,9.15,50.4,87,36.4,32.1,11.1,296.0,102.0,10.8,7,5,7,1,2026-05-04T00:34:15.704366+05:30
Nizamabad,Telangana,18.6725,78.0941,30.8,20,0.0,961.3,9.15,35.3,78,99.7,47.6,30.1,346.0,43.0,6.9,0,5,7,0,2026-05-04T00:34:15.704373+05:30
Mysore,Karnataka,12.2958,76.6396,22.8,92,0.0,927.8,9.35,48.6,66,37.5,20.8,10.7,198.0,59.0,2.9,3,5,7,1,2026-05-04T00:34:15.704379+05:30
Mangalore,Karnataka,12.9141,74.856,28.4,76,0.0,1006.5,9.0,46.4,68,47.6,17.2,5.2,271.0,55.0,2.1,7,5,4,1,2026-05-04T00:34:15.704386+05:30
Hubli-Dharwad,Karnataka,15.3647,75.124,23.2,94,0.0,940.2,9.15,42.1,57,27.5,12.1,5.2,192.0,56.0,1.5,3,5,7,1,2026-05-04T00:34:15.704392+05:30
Belgaum,Karnataka,15.8497,74.4977,21.8,97,0.0,924.7,9.15,40.0,59,29.9,15.7,8.8,173.0,46.0,1.3,3,5,7,1,2026-05-04T00:34:18.969894+05:30
Coimbatore,Tamil Nadu,11.0168,76.9558,25.5,84,0.0,961.1,9.35,38.2,62,40.0,24.3,9.1,214.0,59.0,3.6,7,5,7,1,2026-05-04T00:34:18.969928+05:30
Madurai,Tamil Nadu,9.9252,78.1198,30.0,61,0.0,991.7,6.35,45.0,80,31.0,27.4,28.2,445.0,34.0,7.1,7,5,7,1,2026-05-04T00:34:18.969940+05:30
Trichy,Tamil Nadu,10.7905,78.7047,30.3,70,0.0,998.3,8.95,41.4,79,35.0,30.0,19.8,305.0,66.0,5.1,3,5,7,1,2026-05-04T00:34:18.969948+05:30
Salem,Tamil Nadu,11.6643,78.146,29.5,63,0.0,976.4,9.3,45.0,81,29.8,23.2,10.6,238.0,71.0,5.3,7,5,7,1,2026-05-04T00:34:18.969956+05:30
Tirunelveli,Tamil Nadu,8.7139,77.7567,29.5,70,0.0,1002.1,8.55,40.0,71,26.3,22.4,11.5,233.0,44.0,2.9,7,5,4,1,2026-05-04T00:34:18.969964+05:30
Vellore,Tamil Nadu,12.9165,79.1325,31.4,51,0.0,982.2,9.05,40.7,85,35.9,32.9,11.3,300.0,110.0,14.5,0,5,7,1,2026-05-04T00:34:18.969972+05:30
Erode,Tamil Nadu,11.341,77.7172,28.7,68,0.0,988.0,9.3,52.9,68,28.9,21.5,17.0,208.0,52.0,4.0,7,5,7,1,2026-05-04T00:34:18.969979+05:30
Kochi,Kerala,9.9312,76.2673,27.4,96,0.0,1008.8,8.9,32.4,100,77.5,64.7,51.7,613.0,2.0,12.9,7,0,4,1,2026-05-04T00:34:18.969987+05:30
Thiruvananthapuram,Kerala,8.5241,76.9366,25.4,97,0.0,1008.6,8.45,41.8,56,30.4,18.6,3.7,435.0,64.0,1.5,7,0,4,1,2026-05-04T00:34:18.969993+05:30
Kozhikode,Kerala,11.2588,75.7804,27.1,87,0.0,1007.7,9.05,40.7,65,68.7,21.2,2.3,294.0,70.0,0.9,7,5,4,1,2026-05-04T00:34:18.970001+05:30
Thrissur,Kerala,10.5276,76.2144,26.7,85,0.0,1007.1,9.05,33.8,94,69.6,48.0,37.5,604.0,22.0,6.6,7,5,4,1,2026-05-04T00:34:18.970008+05:30
Kannur,Kerala,11.8745,75.3704,28.0,78,0.0,1006.9,8.6,47.2,66,50.1,17.2,5.9,320.0,50.0,1.3,7,5,4,1,2026-05-04T00:34:18.970016+05:30
Patna,Bihar,25.5941,85.1376,24.8,84,0.0,1001.1,8.7,46.8,139,51.6,43.8,10.5,369.0,121.0,10.5,3,5,4,1,2026-05-04T00:34:18.970023+05:30
Gaya,Bihar,24.7914,85.0002,25.6,75,0.0,993.4,8.8,40.0,152,62.6,56.3,9.2,347.0,124.0,16.0,7,5,7,1,2026-05-04T00:34:18.970030+05:30
Muzaffarpur,Bihar,26.1209,85.3647,23.9,83,0.0,1001.3,8.7,44.3,110,42.6,36.3,12.7,439.0,97.0,8.8,3,5,4,1,2026-05-04T00:34:18.970037+05:30
Bhagalpur,Bihar,25.2425,87.0117,24.4,91,0.0,1002.1,8.7,31.3,131,51.0,41.2,11.0,357.0,93.0,6.0,3,5,4,1,2026-05-04T00:34:18.970044+05:30
Ranchi,Jharkhand,23.3441,85.3096,23.8,87,0.0,936.8,9.25,35.3,81,51.3,42.1,11.2,398.0,107.0,20.2,3,5,7,1,2026-05-04T00:34:18.970051+05:30
Jamshedpur,Jharkhand,22.8046,86.2029,26.3,85,0.0,989.9,9.1,37.8,112,41.6,32.9,10.9,291.0,88.0,12.1,7,5,7,1,2026-05-04T00:34:18.970059+05:30
Dhanbad,Jharkhand,23.7957,86.4304,25.6,85,0.0,979.8,9.0,44.3,156,76.6,68.7,38.1,854.0,73.0,55.0,7,5,7,1,2026-05-04T00:34:18.970065+05:30
Bokaro,Jharkhand,23.6693,86.1511,26.0,85,0.0,983.4,9.05,33.5,161,85.4,75.4,42.4,823.0,66.0,71.9,7,5,7,1,2026-05-04T00:34:18.970072+05:30
Bhubaneswar,Odisha,20.2961,85.8245,25.3,98,0.0,1001.7,9.1,41.4,69,19.1,15.3,5.5,202.0,66.0,2.9,7,5,4,1,2026-05-04T00:34:18.970078+05:30
Cuttack,Odisha,20.4625,85.8828,25.4,96,0.0,1003.5,9.15,38.5,69,19.1,15.3,5.5,226.0,66.0,2.9,7,5,4,1,2026-05-04T00:34:18.970084+05:30
Rourkela,Odisha,22.2604,84.8536,27.1,77,0.0,983.1,8.7,40.0,111,69.8,49.6,29.7,335.0,64.0,36.7,7,5,7,1,2026-05-04T00:34:18.970091+05:30
Raipur,Chhattisgarh,21.2514,81.6296,30.9,28,0.0,971.1,9.0,62.6,108,96.6,72.9,49.1,670.0,28.0,11.5,0,5,7,0,2026-05-04T00:34:18.970097+05:30
Bhilai,Chhattisgarh,21.1938,81.3509,30.2,36,0.0,970.9,9.0,51.5,96,97.8,64.5,52.3,804.0,28.0,11.4,0,5,7,0,2026-05-04T00:34:18.970104+05:30
Guwahati,Assam,26.1158,91.7086,21.2,91,0.0,1004.0,8.35,29.9,55,21.2,19.0,13.3,387.0,49.0,2.0,3,5,4,1,2026-05-04T00:34:18.970110+05:30
Agartala,Tripura,23.8315,91.2868,23.4,92,0.0,1007.7,8.85,28.4,55,10.2,8.4,7.5,215.0,67.0,1.2,3,5,4,1,2026-05-04T00:34:18.970118+05:30
Shillong,Meghalaya,25.5788,91.8933,13.7,99,0.0,856.3,8.5,26.6,38,16.1,13.8,11.3,327.0,59.0,0.7,3,10,7,0,2026-05-04T00:34:18.970124+05:30
Imphal,Manipur,24.817,93.9368,17.0,99,0.0,924.6,8.0,16.2,66,48.9,40.0,28.1,551.0,26.0,3.5,3,10,7,1,2026-05-04T00:34:18.970131+05:30
Aizawl,Mizoram,23.7271,92.7176,14.3,100,0.0,892.0,8.85,33.8,43,19.8,15.7,11.0,359.0,28.0,0.7,3,10,7,0,2026-05-04T00:34:18.970156+05:30
Kohima,Nagaland,25.6701,94.1077,13.9,89,0.0,855.0,8.6,27.4,33,14.6,10.5,9.3,238.0,45.0,0.3,3,10,7,0,2026-05-04T00:34:18.970163+05:30
Gangtok,Sikkim,27.3314,88.6138,12.6,97,0.1,837.3,8.9,37.8,66,14.3,13.3,11.2,473.0,101.0,1.9,6,10,7,0,2026-05-04T00:34:18.970170+05:30
Siliguri,West Bengal,26.7271,88.3953,22.1,74,0.0,995.0,8.35,30.6,62,25.1,22.9,10.9,394.0,109.0,4.1,3,5,7,1,2026-05-04T00:34:22.254083+05:30
Durgapur,West Bengal,23.5204,87.3119,25.3,91,0.0,994.8,8.95,33.1,145,62.9,57.7,24.5,435.0,75.0,24.6,7,5,7,1,2026-05-04T00:34:22.254117+05:30
Asansol,West Bengal,23.6739,86.9524,25.8,85,0.0,993.5,9.0,50.4,152,68.2,61.9,26.9,434.0,80.0,36.5,7,5,7,1,2026-05-04T00:34:22.254129+05:30
Pondicherry,Puducherry,11.9139,79.8145,29.6,81,0.0,1006.6,9.2,49.0,91,17.3,13.9,7.8,224.0,78.0,6.2,7,5,4,1,2026-05-04T00:34:22.254156+05:30
Port Blair,Andaman and Nicobar Islands,11.6234,92.7265,27.5,86,0.0,1007.1,9.1,34.2,25,5.2,3.7,0.6,315.0,54.0,0.3,7,5,4,1,2026-05-04T00:34:22.254165+05:30
Haridwar,Uttarakhand,29.9457,78.1642,21.5,84,0.0,971.8,6.65,47.5,129,96.9,39.6,9.3,370.0,106.0,8.9,3,5,7,1,2026-05-04T00:34:22.254172+05:30
Rishikesh,Uttarakhand,30.0869,78.2676,19.0,90,0.0,964.4,6.3,48.6,117,130.9,39.7,10.3,431.0,97.0,5.9,3,10,7,1,2026-05-04T00:34:22.254180+05:30
Nainital,Uttarakhand,29.3919,79.4542,11.8,91,0.0,802.6,5.4,28.8,109,81.5,39.0,8.8,316.0,96.0,3.4,3,10,3,0,2026-05-04T00:34:22.254188+05:30
Mussoorie,Uttarakhand,30.4599,78.0664,12.4,77,0.0,800.1,5.95,42.8,110,124.8,42.0,20.4,339.0,81.0,10.2,3,5,3,0,2026-05-04T00:34:22.254196+05:30
Dharamshala,Himachal Pradesh,32.219,76.3234,19.9,40,0.0,867.1,6.7,51.1,77,31.0,20.4,10.4,206.0,81.0,0.8,0,5,7,0,2026-05-04T00:34:22.254203+05:30
Dalhousie,Himachal Pradesh,32.5387,75.971,9.8,73,0.0,799.3,5.4,47.5,78,48.2,28.7,26.9,301.0,68.0,3.1,3,5,3,0,2026-05-04T00:34:22.254210+05:30
Patiala,Punjab,30.3398,76.3869,26.0,61,0.0,974.7,7.35,56.2,800,357.6,65.4,8.8,399.0,103.0,8.7,7,5,7,1,2026-05-04T00:34:22.254218+05:30
Bhatinda,Punjab,30.211,74.9455,26.6,54,0.0,980.1,8.0,57.6,447,347.4,69.6,4.6,395.0,132.0,8.7,4,5,7,1,2026-05-04T00:34:22.254226+05:30
Rohtak,Haryana,28.8955,76.6066,27.0,62,0.0,978.4,7.5,45.7,762,1154.8,141.1,12.6,401.0,130.0,22.8,7,5,7,1,2026-05-04T00:34:22.254232+05:30
Panipat,Haryana,29.3909,76.9635,25.6,69,0.0,977.5,7.35,50.4,1386,2056.4,217.9,7.0,374.0,138.0,15.7,7,5,7,1,2026-05-04T00:34:22.254239+05:30
Mathura,Uttar Pradesh,27.4924,77.6737,27.1,56,0.0,982.9,7.8,46.4,979,1147.4,161.1,6.4,319.0,122.0,11.8,4,5,7,1,2026-05-04T00:34:22.254246+05:30
Vrindavan,Uttar Pradesh,27.5823,77.7027,27.1,56,0.0,983.5,7.75,48.6,979,1147.4,161.1,6.4,305.0,122.0,11.8,4,5,7,1,2026-05-04T00:34:22.254252+05:30
Ayodhya,Uttar Pradesh,26.7922,82.1998,24.6,74,0.0,995.1,8.2,40.3,112,43.5,35.2,8.4,364.0,117.0,6.4,3,5,7,1,2026-05-04T00:34:22.254259+05:30
Ratlam,Madhya Pradesh,23.3315,75.0367,27.5,54,0.0,951.6,8.5,41.0,70,15.0,10.4,3.2,187.0,91.0,7.9,4,5,7,1,2026-05-04T00:34:22.254266+05:30
Sagar,Madhya Pradesh,23.8388,78.7378,27.0,44,0.0,945.9,8.65,47.2,70,78.0,26.1,6.8,314.0,79.0,3.1,4,5,7,0,2026-05-04T00:34:22.254273+05:30
Satna,Madhya Pradesh,24.6005,80.8322,27.4,61,0.0,969.1,8.25,46.4,72,44.5,33.2,10.0,342.0,119.0,11.1,7,5,7,1,2026-05-04T00:34:22.254281+05:30
Akola,Maharashtra,20.7002,77.0082,31.2,19,0.0,972.3,8.85,38.5,56,11.9,7.3,5.7,175.0,90.0,11.3,0,5,7,0,2026-05-04T00:34:22.254288+05:30
Amravati,Maharashtra,20.9374,77.7796,30.6,18,0.0,963.8,8.9,34.2,58,11.9,8.0,6.4,220.0,90.0,11.2,0,5,7,0,2026-05-04T00:34:22.254296+05:30
Latur,Maharashtra,18.4088,76.5604,29.4,22,0.0,937.6,9.1,43.9,63,31.9,15.0,7.2,230.0,83.0,4.6,4,5,7,0,2026-05-04T00:34:22.254304+05:30
Nanded,Maharashtra,19.1383,77.3091,31.0,19,0.0,965.7,9.0,29.2,63,25.8,15.3,8.6,188.0,75.0,3.7,0,5,7,0,2026-05-04T00:34:22.254311+05:30
Gulbarga,Karnataka,17.3297,76.8343,31.1,20,0.0,956.2,9.1,34.9,60,23.3,14.2,10.5,248.0,67.0,3.4,0,5,7,0,2026-05-04T00:34:22.254317+05:30
Bidar,Karnataka,17.9104,77.5199,27.4,29,0.0,932.0,9.15,34.9,70,47.1,25.7,19.5,396.0,60.0,5.3,4,5,7,0,2026-05-04T00:34:22.254324+05:30
Hospet,Karnataka,15.2689,76.3909,26.5,77,0.0,955.1,9.2,37.4,62,21.5,12.0,4.1,191.0,62.0,1.5,7,5,7,1,2026-05-04T00:34:22.254331+05:30
Tirupur,Tamil Nadu,11.1085,77.3411,26.5,80,0.0,974.3,9.4,37.8,70,37.4,25.6,19.8,191.0,49.0,6.3,7,5,7,1,2026-05-04T00:34:22.254338+05:30
Alappuzha,Kerala,9.4981,76.3388,27.5,89,0.0,1009.0,8.7,34.6,82,54.2,32.5,20.5,131.0,49.0,3.7,7,0,4,1,2026-05-04T00:34:22.254344+05:30
Munnar,Kerala,10.0889,77.0595,17.0,97,0.0,856.1,8.65,27.7,68,29.7,26.0,11.5,222.0,41.0,1.2,3,10,7,1,2026-05-04T00:34:22.254351+05:30
Silchar,Assam,24.8333,92.7789,20.9,98,0.0,1007.9,8.6,21.6,59,38.0,26.7,11.4,433.0,67.0,4.6,3,5,4,1,2026-05-04T00:34:22.254357+05:30
Dibrugarh,Assam,27.4728,94.912,20.8,94,0.0,998.3,8.8,18.0,60,21.5,21.2,24.9,662.0,7.0,1.1,3,5,7,1,2026-05-04T00:34:22.254364+05:30
