city,state,latitude,longitude,temp,humidity,rain,pressure,uv_index,wind_gusts,aqi,pm10,pm2_5,mosquito_risk,arthritis_risk,migraine_risk,frizz_risk,updated_at
Delhi,Delhi,28.6139,77.209,18.8,89,0.0,981.5,6.95,24.5,252,91.7,35.7,3,10,7,1,2026-04-08T02:22:14.619911+05:30
Mumbai,Maharashtra,19.076,72.8777,28.4,76,0.0,1009.2,7.95,22.0,72,82.0,23.0,7,0,4,1,2026-04-08T02:22:14.619960+05:30
Bangalore,Karnataka,12.9716,77.5946,22.4,73,0.0,910.7,9.65,23.0,51,16.6,13.9,3,5,7,1,2026-04-08T02:22:14.619974+05:30
Hyderabad,Telangana,17.385,78.4867,27.6,41,0.0,952.4,9.15,27.7,75,40.7,31.0,4,5,7,0,2026-04-08T02:22:14.619985+05:30
Chennai,Tamil Nadu,13.0827,80.2707,28.9,86,0.0,1006.1,9.15,35.3,87,31.3,24.7,7,5,4,1,2026-04-08T02:22:14.619994+05:30
Kolkata,West Bengal,22.5726,88.3639,23.2,97,0.0,1006.1,8.7,27.0,98,19.4,17.1,3,5,4,1,2026-04-08T02:22:14.620003+05:30
Pune,Maharashtra,18.5204,73.8567,21.0,81,0.0,948.7,8.55,39.2,76,48.7,25.0,3,5,7,1,2026-04-08T02:22:14.620016+05:30
Ahmedabad,Gujarat,23.0225,72.5714,26.0,77,0.0,1000.6,8.0,34.2,61,23.0,11.6,7,5,4,1,2026-04-08T02:22:14.620024+05:30
Jaipur,Rajasthan,26.9124,75.7873,19.2,86,0.0,957.6,7.65,32.8,150,93.4,27.2,3,10,7,1,2026-04-08T02:22:14.620032+05:30
Lucknow,Uttar Pradesh,26.8467,80.9462,21.7,67,0.0,993.0,7.45,32.0,106,56.2,28.6,3,5,7,0,2026-04-08T02:22:14.620041+05:30
Kanpur,Uttar Pradesh,26.4499,80.3319,20.5,81,0.0,991.8,7.5,28.8,111,86.1,28.2,3,5,7,1,2026-04-08T02:22:14.620050+05:30
Chandigarh,Chandigarh,30.7333,76.7794,16.9,93,0.0,968.0,4.75,24.5,67,31.4,11.9,3,10,3,0,2026-04-08T02:22:14.620058+05:30
Srinagar,Jammu and Kashmir,34.0837,74.7973,9.1,95,0.1,834.8,5.8,22.7,63,13.3,13.2,6,10,3,0,2026-04-08T02:22:14.620066+05:30
Jammu,Jammu and Kashmir,32.7266,74.857,17.4,88,0.0,972.8,3.5,25.6,61,41.7,16.2,3,10,3,0,2026-04-08T02:22:14.620074+05:30
Amritsar,Punjab,31.634,74.8723,16.4,94,0.0,980.9,5.95,20.5,105,59.6,25.8,3,10,3,0,2026-04-08T02:22:14.620081+05:30
Ludhiana,Punjab,30.901,75.8573,17.1,89,0.0,978.8,4.85,26.3,139,97.6,31.3,3,10,3,0,2026-04-08T02:22:14.620089+05:30
Jalandhar,Punjab,31.326,75.5762,16.5,89,0.0,980.2,5.4,23.8,125,95.7,30.6,3,10,3,0,2026-04-08T02:22:14.620100+05:30
Dehradun,Uttarakhand,30.6284,78.0322,10.8,81,0.0,826.6,2.7,38.2,48,34.3,14.9,3,10,3,0,2026-04-08T02:22:14.620108+05:30
Shimla,Himachal Pradesh,31.1048,77.1734,9.6,69,0.0,779.6,6.45,38.2,63,24.0,10.2,3,5,7,0,2026-04-08T02:22:14.620115+05:30
Manali,Himachal Pradesh,32.2396,77.1887,10.2,99,0.5,813.5,8.2,23.0,70,14.4,11.5,6,10,7,0,2026-04-08T02:22:14.620123+05:30
Gurgaon,Haryana,28.4595,77.0266,19.1,91,0.0,980.0,7.05,23.8,823,102.9,37.1,3,10,7,1,2026-04-08T02:22:14.620130+05:30
Noida,Uttar Pradesh,28.5355,77.391,18.6,91,0.0,983.1,6.95,25.2,823,102.9,37.1,3,10,7,1,2026-04-08T02:22:14.620137+05:30
Ghaziabad,Uttar Pradesh,28.6692,77.4538,18.1,93,0.0,981.3,6.9,23.0,152,77.5,32.6,3,10,7,1,2026-04-08T02:22:14.620143+05:30
Faridabad,Haryana,28.4089,77.3178,18.4,92,0.0,982.3,7.0,27.0,823,102.9,37.1,3,10,7,1,2026-04-08T02:22:14.620150+05:30
Meerut,Uttar Pradesh,28.9845,77.7064,18.3,93,0.0,980.3,6.2,29.5,152,77.5,32.6,3,10,7,1,2026-04-08T02:22:14.620157+05:30
Agra,Uttar Pradesh,27.1767,78.0081,19.8,93,0.1,987.5,7.35,22.7,387,74.7,28.4,6,10,7,1,2026-04-08T02:22:14.620164+05:30
Varanasi,Uttar Pradesh,25.3176,82.9739,23.2,64,0.0,997.4,6.0,36.7,86,60.8,25.1,3,5,3,1,2026-04-08T02:22:14.620176+05:30
Prayagraj,Uttar Pradesh,25.4358,81.8463,21.8,76,0.0,995.7,7.65,29.5,89,53.8,21.3,3,5,7,1,2026-04-08T02:22:14.620183+05:30
Gorakhpur,Uttar Pradesh,26.7606,83.3732,23.1,65,0.0,997.3,4.85,31.3,72,58.3,21.7,3,5,3,1,2026-04-08T02:22:14.620190+05:30
Bareilly,Uttar Pradesh,28.367,79.4304,19.1,91,0.0,986.8,7.2,28.4,69,44.6,24.7,3,10,7,1,2026-04-08T02:22:14.620197+05:30
Aligarh,Uttar Pradesh,27.8974,78.088,18.4,95,0.1,984.5,7.1,28.1,200,90.3,34.0,6,10,7,1,2026-04-08T02:22:14.620203+05:30
Moradabad,Uttar Pradesh,28.8386,78.7733,19.0,90,0.0,982.8,6.25,31.0,82,62.2,29.0,3,10,7,1,2026-04-08T02:22:14.620210+05:30
Saharanpur,Uttar Pradesh,29.9637,77.546,17.5,90,0.0,975.3,6.45,28.4,76,87.1,30.5,3,10,7,0,2026-04-08T02:22:14.620216+05:30
Jhansi,Uttar Pradesh,25.4484,78.5685,20.5,80,0.0,977.2,7.95,34.2,67,44.7,23.3,3,5,7,1,2026-04-08T02:22:17.842578+05:30
Surat,Gujarat,21.1702,72.8311,27.1,81,0.0,1006.7,7.7,41.4,68,32.9,17.7,7,5,4,1,2026-04-08T02:22:17.842666+05:30
Vadodara,Gujarat,22.3072,73.1812,26.7,81,0.0,1003.3,8.0,36.7,65,30.0,18.0,7,5,4,1,2026-04-08T02:22:17.842684+05:30
Rajkot,Gujarat,22.3039,70.8022,24.9,86,0.0,993.6,7.7,38.9,56,23.5,11.0,3,5,7,1,2026-04-08T02:22:17.842700+05:30
Thane,Maharashtra,19.2183,72.9781,26.7,81,0.0,1008.6,7.95,36.0,72,82.0,23.0,7,0,4,1,2026-04-08T02:22:17.842713+05:30
Nagpur,Maharashtra,21.1458,79.0882,23.2,58,0.0,971.7,8.75,37.1,66,38.2,25.5,0,5,7,0,2026-04-08T02:22:17.842723+05:30
Nashik,Maharashtra,19.9975,73.7898,21.6,90,0.0,945.6,8.2,42.5,60,40.9,15.4,3,5,7,1,2026-04-08T02:22:17.842733+05:30
Aurangabad,Maharashtra,19.8762,75.3433,22.8,68,0.0,943.9,8.9,47.5,60,44.9,17.3,3,5,7,1,2026-04-08T02:22:17.842742+05:30
Solapur,Maharashtra,17.6599,75.9064,25.9,49,0.0,957.0,9.0,30.6,63,38.5,25.3,4,5,7,0,2026-04-08T02:22:17.842751+05:30
Kolhapur,Maharashtra,16.705,74.2433,20.2,89,0.0,947.9,9.0,42.5,59,26.4,16.2,3,5,7,1,2026-04-08T02:22:17.842760+05:30
Goa,Goa,15.2993,74.124,26.4,76,0.0,998.7,9.0,39.6,55,39.0,17.9,7,5,7,1,2026-04-08T02:22:17.842768+05:30
Jodhpur,Rajasthan,26.2389,73.0243,20.7,81,0.2,980.9,7.9,33.8,131,291.5,63.6,6,5,7,1,2026-04-08T02:22:17.842776+05:30
Udaipur,Rajasthan,24.5854,73.7125,21.1,87,0.0,943.4,8.5,33.8,63,32.5,17.3,3,5,7,1,2026-04-08T02:22:17.842785+05:30
Kota,Rajasthan,25.2138,75.8648,21.0,84,0.0,976.7,7.95,29.9,65,51.7,25.8,3,5,7,1,2026-04-08T02:22:17.842793+05:30
Bikaner,Rajasthan,28.0229,73.3119,20.2,81,0.0,979.7,7.7,27.0,83,40.4,17.3,3,5,7,1,2026-04-08T02:22:17.842800+05:30
Ajmer,Rajasthan,26.4499,74.6399,18.9,87,0.0,951.7,7.85,33.1,69,182.5,43.1,3,10,7,1,2026-04-08T02:22:17.842809+05:30
Gwalior,Madhya Pradesh,26.2183,78.1828,20.0,89,0.4,982.6,7.65,25.2,75,70.3,25.7,6,5,7,1,2026-04-08T02:22:17.842817+05:30
Indore,Madhya Pradesh,22.7196,75.8577,23.0,81,0.0,946.6,8.4,46.8,67,47.3,20.9,3,5,7,1,2026-04-08T02:22:17.842824+05:30
Bhopal,Madhya Pradesh,23.2599,77.4126,23.7,62,0.0,951.8,8.3,50.0,63,42.0,22.5,3,5,7,0,2026-04-08T02:22:17.842832+05:30
Jabalpur,Madhya Pradesh,23.1815,79.9864,24.4,49,0.0,959.6,7.95,42.5,80,40.5,26.7,0,5,7,0,2026-04-08T02:22:17.842840+05:30
Ujjain,Madhya Pradesh,23.1765,75.7885,22.9,83,0.0,952.0,8.3,49.7,66,50.9,21.8,3,5,7,1,2026-04-08T02:22:17.842849+05:30
Visakhapatnam,Andhra Pradesh,17.6868,83.2185,26.9,92,0.0,1002.8,9.1,42.8,75,29.3,24.3,7,5,4,1,2026-04-08T02:22:17.842857+05:30
Vijayawada,Andhra Pradesh,16.5062,80.648,28.0,88,0.0,1001.4,9.15,27.4,105,43.9,40.7,7,5,4,1,2026-04-08T02:22:17.842865+05:30
Guntur,Andhra Pradesh,16.3067,80.4365,27.9,89,0.0,1002.6,9.2,27.4,100,41.8,38.9,7,5,4,1,2026-04-08T02:22:17.842874+05:30
Nellore,Andhra Pradesh,14.4426,79.9865,28.0,89,0.0,1004.1,9.3,38.9,104,32.6,29.7,7,5,4,1,2026-04-08T02:22:17.842882+05:30
Kurnool,Andhra Pradesh,15.8281,78.0373,28.7,37,0.0,975.1,9.15,25.9,72,39.3,31.9,4,5,7,0,2026-04-08T02:22:17.842891+05:30
Kakinada,Andhra Pradesh,16.9891,82.2475,27.3,94,0.0,1006.7,9.15,28.4,64,34.5,27.6,7,5,4,1,2026-04-08T02:22:17.842900+05:30
Tirupati,Andhra Pradesh,13.6288,79.4192,26.8,90,0.0,991.0,9.4,25.6,95,49.1,46.9,7,5,7,1,2026-04-08T02:22:17.842909+05:30
Warangal,Telangana,17.9689,79.5941,27.9,72,0.0,977.6,9.05,25.9,106,59.6,52.7,7,5,7,1,2026-04-08T02:22:17.842916+05:30
Nizamabad,Telangana,18.6725,78.0941,25.9,51,0.0,963.8,9.0,27.4,70,54.8,31.5,4,5,7,0,2026-04-08T02:22:17.842924+05:30
Mysore,Karnataka,12.2958,76.6396,21.0,90,0.0,927.9,9.55,42.5,46,18.4,15.5,3,5,7,1,2026-04-08T02:22:17.842932+05:30
Mangalore,Karnataka,12.9141,74.856,28.7,70,0.0,1007.1,9.15,31.7,58,21.6,14.2,7,5,4,1,2026-04-08T02:22:17.842940+05:30
Hubli-Dharwad,Karnataka,15.3647,75.124,20.6,94,0.0,940.6,9.2,41.4,46,15.1,10.6,3,5,7,1,2026-04-08T02:22:17.842948+05:30
Siliguri,West Bengal,26.7271,88.3953,19.6,64,0.0,995.3,7.9,22.0,78,31.7,27.3,3,5,7,0,2026-04-08T02:23:08.764020+05:30
Durgapur,West Bengal,23.5204,87.3119,22.7,92,0.0,995.2,8.65,24.8,118,37.0,35.0,3,5,7,1,2026-04-08T02:23:08.764052+05:30
Asansol,West Bengal,23.6739,86.9524,23.0,88,0.0,993.8,8.7,33.1,105,42.8,39.8,3,5,7,1,2026-04-08T02:23:08.764062+05:30
Pondicherry,Puducherry,11.9139,79.8145,27.8,91,0.0,1007.6,9.3,24.8,85,31.1,23.6,7,5,4,1,2026-04-08T02:23:08.764071+05:30
Port Blair,Andaman and Nicobar Islands,11.6234,92.7265,28.7,73,0.0,1007.1,8.95,11.9,25,4.0,2.7,7,5,4,1,2026-04-08T02:23:08.764079+05:30
Haridwar,Uttarakhand,29.9457,78.1642,18.9,81,0.0,973.6,4.15,26.6,64,38.3,19.2,3,10,3,0,2026-04-08T02:23:08.764088+05:30
Rishikesh,Uttarakhand,30.0869,78.2676,18.4,78,0.0,966.4,4.4,29.9,57,46.2,20.1,3,5,3,0,2026-04-08T02:23:08.764095+05:30
Nainital,Uttarakhand,29.3919,79.4542,15.2,63,0.0,803.2,4.95,65.2,54,41.9,20.1,3,5,3,0,2026-04-08T02:23:08.764104+05:30
Mussoorie,Uttarakhand,30.4599,78.0664,11.3,77,0.0,798.7,3.5,54.4,54,37.1,16.3,3,5,3,0,2026-04-08T02:23:08.764112+05:30
Dharamshala,Himachal Pradesh,32.219,76.3234,13.3,84,1.0,865.7,3.25,36.4,62,9.0,6.7,6,10,3,0,2026-04-08T02:23:08.764121+05:30
Dalhousie,Himachal Pradesh,32.5387,75.971,10.1,82,1.9,799.0,1.45,38.2,56,31.9,19.3,6,10,3,0,2026-04-08T02:23:08.764131+05:30
Patiala,Punjab,30.3398,76.3869,16.9,90,0.0,977.8,2.7,23.4,232,64.0,27.1,3,10,3,0,2026-04-08T02:23:08.764140+05:30
Bhatinda,Punjab,30.211,74.9455,17.2,92,0.0,983.0,7.4,20.5,109,68.7,25.1,3,10,7,0,2026-04-08T02:23:08.764148+05:30
Rohtak,Haryana,28.8955,76.6066,18.2,93,0.0,980.6,6.95,25.9,343,117.6,41.9,3,10,7,1,2026-04-08T02:23:08.764156+05:30
Panipat,Haryana,29.3909,76.9635,17.0,93,0.0,980.0,5.65,24.1,514,85.9,36.0,3,10,3,0,2026-04-08T02:23:08.764164+05:30
Mathura,Uttar Pradesh,27.4924,77.6737,19.1,95,0.2,986.2,7.3,27.0,472,95.9,34.3,6,10,7,1,2026-04-08T02:23:08.764171+05:30
Vrindavan,Uttar Pradesh,27.5823,77.7027,18.7,97,0.2,986.4,7.25,27.4,472,95.9,34.3,6,10,7,1,2026-04-08T02:23:08.764178+05:30
Ayodhya,Uttar Pradesh,26.7922,82.1998,21.1,78,0.0,994.9,7.25,38.2,89,56.3,22.1,3,5,7,1,2026-04-08T02:23:08.764186+05:30
Ratlam,Madhya Pradesh,23.3315,75.0367,23.0,88,0.0,952.8,8.25,50.4,65,53.6,22.7,3,5,7,1,2026-04-08T02:23:08.764194+05:30
Sagar,Madhya Pradesh,23.8388,78.7378,24.0,48,0.0,948.3,8.3,46.1,56,43.9,20.4,0,5,7,0,2026-04-08T02:23:08.764201+05:30
Satna,Madhya Pradesh,24.6005,80.8322,22.2,65,0.0,970.1,8.35,42.8,60,49.0,21.0,3,5,7,0,2026-04-08T02:23:08.764208+05:30
Akola,Maharashtra,20.7002,77.0082,25.2,62,0.0,974.7,8.7,46.1,64,54.6,23.5,7,5,7,1,2026-04-08T02:23:08.764215+05:30
Amravati,Maharashtra,20.9374,77.7796,23.9,59,0.0,966.5,8.7,43.2,59,57.5,24.3,0,5,7,0,2026-04-08T02:23:08.764223+05:30
Latur,Maharashtra,18.4088,76.5604,22.5,56,0.0,939.2,9.0,34.9,66,48.1,26.3,0,5,7,0,2026-04-08T02:23:08.764231+05:30
Nanded,Maharashtra,19.1383,77.3091,25.0,55,0.0,968.1,8.9,33.5,70,51.5,31.7,4,5,7,0,2026-04-08T02:23:08.764238+05:30
Gulbarga,Karnataka,17.3297,76.8343,27.3,35,0.0,957.9,9.05,29.9,56,29.9,18.2,4,5,7,0,2026-04-08T02:23:08.764245+05:30
Bidar,Karnataka,17.9104,77.5199,25.6,44,0.0,934.5,9.05,28.8,68,52.4,27.9,4,5,7,0,2026-04-08T02:23:08.764253+05:30
Hospet,Karnataka,15.2689,76.3909,24.7,73,0.0,955.9,9.25,29.2,48,10.9,9.0,3,5,7,1,2026-04-08T02:23:08.764260+05:30
Tirupur,Tamil Nadu,11.1085,77.3411,24.9,79,0.0,974.7,9.5,40.3,63,22.6,19.3,3,5,7,1,2026-04-08T02:23:08.764267+05:30
Alappuzha,Kerala,9.4981,76.3388,29.1,72,0.0,1008.8,9.2,32.0,62,27.5,17.4,7,0,4,1,2026-04-08T02:23:08.764274+05:30
Munnar,Kerala,10.0889,77.0595,19.3,94,0.0,856.0,7.15,39.2,60,21.5,18.5,3,10,7,1,2026-04-08T02:23:08.764282+05:30
Silchar,Assam,24.8333,92.7789,21.8,87,0.0,1006.0,8.45,27.7,135,56.5,51.7,3,5,4,1,2026-04-08T02:23:08.764290+05:30
Dibrugarh,Assam,27.4728,94.912,20.3,86,0.0,998.4,8.25,14.0,88,21.1,18.5,3,5,7,1,2026-04-08T02:23:08.764297+05:30
