city,state,latitude,longitude,temp,humidity,rain,pressure,uv_index,wind_gusts,aqi,pm10,pm2_5,no2,co,o3,so2,mosquito_risk,arthritis_risk,migraine_risk,frizz_risk,updated_at
Delhi,Delhi,28.6139,77.209,31.8,64,0.0,974.8,7.7,29.5,720,564.4,125.7,18.1,602.0,68.0,13.6,3,5,7,1,2026-07-13T09:15:45.440941+05:30
Mumbai,Maharashtra,19.076,72.8777,28.8,77,0.1,1007.5,7.55,51.5,52,25.0,13.1,6.6,169.0,49.0,7.1,10,5,4,1,2026-07-13T09:15:45.440979+05:30
Bangalore,Karnataka,12.9716,77.5946,25.0,63,0.0,912.5,9.0,47.9,50,15.3,7.2,6.7,296.0,39.0,3.6,7,5,7,1,2026-07-13T09:15:45.440994+05:30
Hyderabad,Telangana,17.385,78.4867,28.2,59,0.0,951.9,8.9,47.2,60,24.6,11.7,4.8,224.0,43.0,4.5,4,5,7,1,2026-07-13T09:15:45.441003+05:30
Chennai,Tamil Nadu,13.0827,80.2707,33.5,45,0.0,1005.3,8.35,42.1,67,30.3,16.6,9.3,188.0,50.0,9.1,0,5,4,1,2026-07-13T09:15:45.441011+05:30
Kolkata,West Bengal,22.5726,88.3639,29.8,83,0.0,999.0,7.05,23.8,146,72.2,56.2,15.2,579.0,81.0,17.7,7,5,7,1,2026-07-13T09:15:45.441019+05:30
Pune,Maharashtra,18.5204,73.8567,26.1,73,0.0,947.0,8.35,50.0,34,9.1,6.0,4.7,158.0,45.0,5.1,7,5,7,1,2026-07-13T09:15:45.441025+05:30
Ahmedabad,Gujarat,23.0225,72.5714,30.3,65,0.0,997.4,8.15,50.4,65,27.0,13.0,5.0,139.0,44.0,4.8,3,5,7,1,2026-07-13T09:15:45.441031+05:30
Jaipur,Rajasthan,26.9124,75.7873,30.2,64,0.0,953.4,8.2,36.4,357,516.0,82.0,3.7,148.0,58.0,4.7,3,5,7,1,2026-07-13T09:15:45.441039+05:30
Lucknow,Uttar Pradesh,26.8467,80.9462,32.6,66,0.0,985.0,8.2,37.1,118,91.3,44.5,8.5,232.0,80.0,9.1,3,5,7,1,2026-07-13T09:15:45.441050+05:30
Kanpur,Uttar Pradesh,26.4499,80.3319,32.7,63,0.0,983.9,8.2,40.0,110,103.4,42.1,6.5,170.0,80.0,9.1,3,5,7,1,2026-07-13T09:15:45.441056+05:30
Chandigarh,Chandigarh,30.7333,76.7794,30.7,65,0.0,960.0,7.7,28.1,158,125.7,66.8,14.4,642.0,127.0,14.1,3,5,7,1,2026-07-13T09:15:45.441065+05:30
Srinagar,Jammu and Kashmir,34.0837,74.7973,19.9,73,0.0,838.3,9.0,25.9,70,33.8,28.6,6.8,406.0,105.0,4.4,3,5,7,0,2026-07-13T09:15:45.441072+05:30
Jammu,Jammu and Kashmir,32.7266,74.857,30.0,65,0.0,963.9,8.55,23.4,140,67.5,48.3,22.3,432.0,99.0,5.0,7,5,7,1,2026-07-13T09:15:45.441079+05:30
Amritsar,Punjab,31.634,74.8723,29.4,72,0.0,971.8,8.4,19.8,171,150.4,95.7,29.1,317.0,51.0,7.6,7,5,7,1,2026-07-13T09:15:45.441084+05:30
Ludhiana,Punjab,30.901,75.8573,29.8,71,0.0,969.9,7.9,24.5,169,131.8,73.1,15.6,536.0,88.0,6.9,7,5,7,1,2026-07-13T09:15:45.441090+05:30
Jalandhar,Punjab,31.326,75.5762,28.3,79,0.0,970.9,8.15,19.8,163,120.6,75.9,22.4,398.0,65.0,5.2,7,5,7,1,2026-07-13T09:15:45.441096+05:30
Dehradun,Uttarakhand,30.6284,78.0322,23.5,71,0.0,826.4,8.15,31.0,86,31.8,18.5,2.7,229.0,116.0,0.6,3,5,7,1,2026-07-13T09:15:45.441102+05:30
Shimla,Himachal Pradesh,31.1048,77.1734,21.2,60,0.0,781.9,8.25,37.8,92,79.6,28.5,2.3,184.0,113.0,2.9,0,5,7,0,2026-07-13T09:15:45.441108+05:30
Manali,Himachal Pradesh,32.2396,77.1887,24.0,48,0.0,815.7,9.4,36.4,46,2.9,1.8,8.0,175.0,91.0,0.1,0,5,7,0,2026-07-13T09:15:45.441116+05:30
Gurgaon,Haryana,28.4595,77.0266,32.1,60,0.0,973.3,7.7,33.5,707,644.5,134.6,16.2,306.0,62.0,10.8,0,5,7,1,2026-07-13T09:15:45.441123+05:30
Noida,Uttar Pradesh,28.5355,77.391,32.3,63,0.0,976.2,7.7,28.4,707,644.5,134.6,16.2,458.0,62.0,10.8,3,5,7,1,2026-07-13T09:15:45.441129+05:30
Ghaziabad,Uttar Pradesh,28.6692,77.4538,32.0,65,0.0,974.3,7.7,23.4,590,448.0,121.1,17.2,462.0,87.0,16.9,3,5,7,1,2026-07-13T09:15:45.441137+05:30
Faridabad,Haryana,28.4089,77.3178,32.2,62,0.0,975.5,7.75,32.0,707,644.5,134.6,16.2,358.0,62.0,10.8,3,5,7,1,2026-07-13T09:15:45.441143+05:30
Meerut,Uttar Pradesh,28.9845,77.7064,31.4,69,0.0,973.0,7.65,31.0,590,448.0,121.1,17.2,412.0,87.0,16.9,3,5,7,1,2026-07-13T09:15:45.441149+05:30
Agra,Uttar Pradesh,27.1767,78.0081,32.2,63,0.0,980.1,7.55,36.4,136,196.0,55.4,8.1,194.0,76.0,7.1,3,5,7,1,2026-07-13T09:15:45.441155+05:30
Varanasi,Uttar Pradesh,25.3176,82.9739,31.8,67,0.0,989.7,8.55,35.6,102,55.5,35.9,8.9,304.0,67.0,9.6,3,5,7,1,2026-07-13T09:15:45.441161+05:30
Prayagraj,Uttar Pradesh,25.4358,81.8463,32.2,63,0.0,988.3,8.6,40.3,98,53.2,34.5,7.5,205.0,70.0,9.3,3,5,7,1,2026-07-13T09:15:45.441167+05:30
Gorakhpur,Uttar Pradesh,26.7606,83.3732,31.7,69,0.0,988.3,6.7,32.8,132,84.1,50.2,14.1,323.0,82.0,11.6,3,5,7,1,2026-07-13T09:15:45.441174+05:30
Bareilly,Uttar Pradesh,28.367,79.4304,32.1,67,0.0,978.1,8.0,33.5,175,376.3,121.5,13.4,354.0,88.0,13.2,3,5,7,1,2026-07-13T09:15:45.441185+05:30
Aligarh,Uttar Pradesh,27.8974,78.088,32.2,62,0.0,977.5,7.85,34.9,580,521.5,126.2,10.3,240.0,66.0,6.5,3,5,7,1,2026-07-13T09:15:45.441191+05:30
Moradabad,Uttar Pradesh,28.8386,78.7733,31.8,70,0.0,975.0,7.85,32.4,359,495.5,168.6,15.9,308.0,104.0,19.3,3,5,7,1,2026-07-13T09:15:45.441197+05:30
Saharanpur,Uttar Pradesh,29.9637,77.546,30.9,76,0.0,966.9,7.35,30.2,182,222.6,109.4,11.9,353.0,126.0,19.1,3,5,7,1,2026-07-13T09:15:45.441203+05:30
Jhansi,Uttar Pradesh,25.4484,78.5685,31.2,68,0.0,971.8,8.4,43.6,92,38.4,22.4,5.0,136.0,55.0,10.7,3,5,7,1,2026-07-13T09:15:48.798244+05:30
Surat,Gujarat,21.1702,72.8311,29.5,74,0.0,1003.8,6.8,63.7,57,29.3,17.3,11.4,238.0,39.0,26.9,7,5,4,1,2026-07-13T09:15:48.798274+05:30
Vadodara,Gujarat,22.3072,73.1812,29.9,70,0.0,1000.5,7.95,57.6,57,22.5,11.7,5.0,144.0,44.0,5.4,7,5,4,1,2026-07-13T09:15:48.798332+05:30
Rajkot,Gujarat,22.3039,70.8022,29.9,67,0.0,989.3,7.65,57.2,56,26.5,12.5,2.3,104.0,49.0,2.5,7,5,7,1,2026-07-13T09:15:48.798354+05:30
Thane,Maharashtra,19.2183,72.9781,29.3,74,0.0,1006.6,7.8,45.0,52,25.0,13.1,6.6,189.0,49.0,7.1,7,5,4,1,2026-07-13T09:15:48.798366+05:30
Nagpur,Maharashtra,21.1458,79.0882,29.3,65,0.0,969.9,7.5,40.3,82,34.8,15.5,8.7,152.0,40.0,14.8,7,5,7,1,2026-07-13T09:15:48.798375+05:30
Nashik,Maharashtra,19.9975,73.7898,26.0,76,0.0,943.6,8.1,58.3,35,8.6,5.9,5.8,122.0,40.0,6.1,7,5,7,1,2026-07-13T09:15:48.798383+05:30
Aurangabad,Maharashtra,19.8762,75.3433,26.6,70,0.0,942.1,8.9,51.1,53,13.6,7.8,4.0,132.0,46.0,7.8,7,5,7,1,2026-07-13T09:15:48.798391+05:30
Solapur,Maharashtra,17.6599,75.9064,27.8,64,0.0,956.6,8.9,46.4,50,18.6,8.4,2.2,109.0,49.0,2.2,7,5,7,1,2026-07-13T09:15:48.798400+05:30
Kolhapur,Maharashtra,16.705,74.2433,25.1,78,0.0,948.0,8.9,50.8,34,7.6,5.3,3.6,136.0,43.0,2.4,7,5,7,1,2026-07-13T09:15:48.798408+05:30
Goa,Goa,15.2993,74.124,28.2,82,0.0,999.1,7.45,40.0,51,22.6,12.8,1.9,149.0,47.0,1.3,7,5,7,1,2026-07-13T09:15:48.798416+05:30
Jodhpur,Rajasthan,26.2389,73.0243,30.1,61,0.0,976.1,8.3,49.0,151,230.5,51.9,2.5,105.0,53.0,2.8,3,5,7,1,2026-07-13T09:15:48.798424+05:30
Udaipur,Rajasthan,24.5854,73.7125,26.7,71,0.0,941.0,8.45,50.4,74,22.2,11.0,3.6,108.0,42.0,4.1,7,5,7,1,2026-07-13T09:15:48.798431+05:30
Kota,Rajasthan,25.2138,75.8648,30.5,63,0.0,972.9,8.3,40.7,85,46.6,20.1,4.6,132.0,48.0,7.9,3,5,7,1,2026-07-13T09:15:48.798439+05:30
Bikaner,Rajasthan,28.0229,73.3119,32.3,57,0.0,973.8,8.2,35.3,159,251.5,73.8,1.6,111.0,55.0,5.1,0,5,7,1,2026-07-13T09:15:48.798447+05:30
Ajmer,Rajasthan,26.4499,74.6399,27.4,72,0.0,948.5,8.35,46.4,83,93.6,27.0,2.7,112.0,55.0,3.6,7,5,7,1,2026-07-13T09:15:48.798456+05:30
Gwalior,Madhya Pradesh,26.2183,78.1828,30.9,72,0.0,976.4,8.2,40.3,90,43.8,28.5,4.3,135.0,69.0,7.7,3,5,7,1,2026-07-13T09:15:48.798463+05:30
Indore,Madhya Pradesh,22.7196,75.8577,26.7,74,0.0,944.4,8.55,57.2,68,19.4,11.0,6.2,199.0,39.0,8.3,7,5,7,1,2026-07-13T09:15:48.798471+05:30
Bhopal,Madhya Pradesh,23.2599,77.4126,27.5,72,0.0,949.6,8.6,45.7,77,33.1,13.4,4.1,164.0,44.0,6.2,7,5,7,1,2026-07-13T09:15:48.798479+05:30
Jabalpur,Madhya Pradesh,23.1815,79.9864,28.5,74,0.0,957.0,6.55,37.8,83,42.4,23.3,4.0,164.0,62.0,5.9,7,5,7,1,2026-07-13T09:15:48.798486+05:30
Ujjain,Madhya Pradesh,23.1765,75.7885,27.2,73,0.0,949.8,8.45,53.6,68,18.5,10.3,4.8,138.0,40.0,6.4,7,5,7,1,2026-07-13T09:15:48.798495+05:30
Visakhapatnam,Andhra Pradesh,17.6868,83.2185,32.7,60,0.0,998.6,8.55,32.8,96,58.3,38.2,24.8,432.0,62.0,49.1,0,5,7,1,2026-07-13T09:15:48.798503+05:30
Vijayawada,Andhra Pradesh,16.5062,80.648,33.0,49,0.0,999.4,8.35,48.2,82,35.0,19.6,5.5,136.0,53.0,6.0,0,5,7,1,2026-07-13T09:15:48.798511+05:30
Guntur,Andhra Pradesh,16.3067,80.4365,33.4,47,0.0,1000.8,8.8,47.5,79,35.5,18.0,4.4,144.0,54.0,5.6,0,5,4,1,2026-07-13T09:15:48.798519+05:30
Nellore,Andhra Pradesh,14.4426,79.9865,32.5,51,0.0,1003.8,8.7,47.9,65,24.0,10.5,3.5,109.0,48.0,5.8,0,5,4,1,2026-07-13T09:15:48.798528+05:30
Kurnool,Andhra Pradesh,15.8281,78.0373,29.6,56,0.0,976.7,8.65,46.1,57,21.2,9.3,3.4,113.0,44.0,4.2,4,5,7,1,2026-07-13T09:15:48.798537+05:30
Kakinada,Andhra Pradesh,16.9891,82.2475,32.5,57,0.0,1002.8,6.8,40.3,82,34.1,21.8,4.8,281.0,102.0,6.0,0,5,4,1,2026-07-13T09:15:48.798544+05:30
Tirupati,Andhra Pradesh,13.6288,79.4192,31.8,49,0.0,989.7,8.4,40.0,78,19.2,9.4,2.8,110.0,51.0,1.6,0,5,7,1,2026-07-13T09:15:48.798552+05:30
Warangal,Telangana,17.9689,79.5941,29.5,60,0.0,976.3,8.7,43.9,79,31.4,15.3,3.4,138.0,51.0,3.9,4,5,7,1,2026-07-13T09:15:48.798560+05:30
Nizamabad,Telangana,18.6725,78.0941,28.2,64,0.0,963.0,8.9,46.1,66,26.8,12.3,4.0,137.0,43.0,5.8,7,5,7,1,2026-07-13T09:15:48.798568+05:30
Mysore,Karnataka,12.2958,76.6396,25.3,69,0.0,929.7,8.65,45.4,41,11.7,5.3,4.2,127.0,42.0,2.3,7,5,7,1,2026-07-13T09:15:48.798576+05:30
Mangalore,Karnataka,12.9141,74.856,28.6,74,0.0,1008.8,8.35,45.0,47,26.9,13.6,3.6,113.0,43.0,2.5,7,0,4,1,2026-07-13T09:15:48.798584+05:30
Hubli-Dharwad,Karnataka,15.3647,75.124,25.9,70,0.0,941.5,8.95,51.5,31,10.2,5.5,2.9,109.0,44.0,1.4,7,5,7,1,2026-07-13T09:15:48.798592+05:30
Belgaum,Karnataka,15.8497,74.4977,24.3,76,0.0,926.2,8.85,50.4,28,9.0,5.6,3.2,107.0,42.0,1.8,3,5,7,1,2026-07-13T09:15:52.145071+05:30
Coimbatore,Tamil Nadu,11.0168,76.9558,27.8,70,0.0,962.4,8.2,54.4,43,24.0,10.6,3.9,175.0,50.0,3.2,7,5,7,1,2026-07-13T09:15:52.145102+05:30
Madurai,Tamil Nadu,9.9252,78.1198,32.4,48,0.0,992.7,8.3,43.2,56,15.6,8.4,7.2,146.0,51.0,5.1,0,5,7,1,2026-07-13T09:15:52.145113+05:30
Trichy,Tamil Nadu,10.7905,78.7047,32.4,51,0.0,999.2,8.05,49.0,58,18.4,9.7,4.2,125.0,46.0,3.8,0,5,7,1,2026-07-13T09:15:52.145122+05:30
Salem,Tamil Nadu,11.6643,78.146,28.1,67,0.0,977.9,8.2,33.5,64,31.3,17.5,9.4,128.0,50.0,10.5,7,5,7,1,2026-07-13T09:15:52.145131+05:30
Tirunelveli,Tamil Nadu,8.7139,77.7567,33.1,47,0.0,1003.2,8.45,50.4,33,12.1,6.5,3.0,124.0,47.0,1.8,0,5,4,1,2026-07-13T09:15:52.145139+05:30
Vellore,Tamil Nadu,12.9165,79.1325,31.7,48,0.0,983.3,8.65,42.5,68,18.1,10.2,4.2,138.0,53.0,3.5,0,5,7,1,2026-07-13T09:15:52.145146+05:30
Erode,Tamil Nadu,11.341,77.7172,31.1,52,0.0,989.6,7.95,50.4,54,22.9,11.7,6.2,170.0,44.0,3.5,0,5,7,1,2026-07-13T09:15:52.145153+05:30
Kochi,Kerala,9.9312,76.2673,28.3,77,0.0,1010.8,8.3,48.6,46,19.8,11.2,5.8,139.0,43.0,4.0,7,0,4,1,2026-07-13T09:15:52.145160+05:30
Thiruvananthapuram,Kerala,8.5241,76.9366,27.5,82,0.0,1009.9,8.4,53.3,42,16.4,9.6,4.3,151.0,43.0,2.6,7,0,4,1,2026-07-13T09:15:52.145167+05:30
Kozhikode,Kerala,11.2588,75.7804,27.4,85,0.0,1010.1,8.55,48.6,41,24.1,10.3,1.3,138.0,47.0,1.3,7,0,4,1,2026-07-13T09:15:52.145173+05:30
Thrissur,Kerala,10.5276,76.2144,27.9,81,0.1,1009.1,8.15,45.0,46,22.2,13.0,4.7,144.0,48.0,3.6,10,0,4,1,2026-07-13T09:15:52.145182+05:30
Kannur,Kerala,11.8745,75.3704,26.5,89,0.0,1009.6,8.6,47.9,43,23.8,12.0,3.7,134.0,42.0,2.3,7,0,4,1,2026-07-13T09:15:52.145189+05:30
Patna,Bihar,25.5941,85.1376,31.8,70,0.0,992.5,7.5,30.2,153,88.9,61.5,13.6,349.0,89.0,12.5,3,5,7,1,2026-07-13T09:15:52.145196+05:30
Gaya,Bihar,24.7914,85.0002,32.2,64,0.0,986.6,6.25,35.6,128,65.2,42.5,10.7,263.0,72.0,17.6,3,5,7,1,2026-07-13T09:15:52.145202+05:30
Muzaffarpur,Bihar,26.1209,85.3647,29.6,85,0.0,992.4,7.95,26.3,152,99.7,65.2,13.1,280.0,95.0,13.2,7,5,7,1,2026-07-13T09:15:52.145209+05:30
Bhagalpur,Bihar,25.2425,87.0117,29.4,87,0.2,994.3,8.0,26.3,135,74.3,45.5,13.7,260.0,75.0,14.0,10,5,7,1,2026-07-13T09:15:52.145215+05:30
Ranchi,Jharkhand,23.3441,85.3096,27.6,71,0.0,932.6,8.1,28.1,106,76.4,39.2,6.4,186.0,81.0,15.7,7,5,7,1,2026-07-13T09:15:52.145222+05:30
Jamshedpur,Jharkhand,22.8046,86.2029,30.5,73,0.0,984.6,8.65,21.6,120,75.0,46.8,11.9,257.0,97.0,33.8,3,5,7,1,2026-07-13T09:15:52.145229+05:30
Dhanbad,Jharkhand,23.7957,86.4304,30.4,73,0.0,973.5,3.9,19.8,158,93.6,57.2,21.7,231.0,69.0,62.6,3,5,3,1,2026-07-13T09:15:52.145236+05:30
Bokaro,Jharkhand,23.6693,86.1511,30.9,70,0.0,977.3,4.6,22.0,154,88.0,52.7,22.4,230.0,57.0,72.4,3,5,3,1,2026-07-13T09:15:52.145243+05:30
Bhubaneswar,Odisha,20.2961,85.8245,31.2,68,0.0,996.3,4.0,27.0,100,58.1,36.3,8.6,296.0,78.0,10.1,3,5,3,1,2026-07-13T09:15:52.145250+05:30
Cuttack,Odisha,20.4625,85.8828,31.3,68,0.0,997.9,4.9,27.4,100,58.1,36.3,8.6,320.0,78.0,10.1,3,5,3,1,2026-07-13T09:15:52.145256+05:30
Rourkela,Odisha,22.2604,84.8536,30.9,68,0.0,979.3,8.45,25.6,98,59.0,35.5,6.8,298.0,84.0,9.8,3,5,7,1,2026-07-13T09:15:52.145263+05:30
Raipur,Chhattisgarh,21.2514,81.6296,30.6,66,0.0,970.2,8.05,37.1,102,76.1,47.6,24.1,164.0,48.0,67.3,3,5,7,1,2026-07-13T09:15:52.145269+05:30
Bhilai,Chhattisgarh,21.1938,81.3509,30.2,66,0.0,970.7,8.5,41.4,97,71.2,42.7,17.7,376.0,58.0,50.8,3,5,7,1,2026-07-13T09:15:52.145275+05:30
Guwahati,Assam,26.1158,91.7086,27.9,92,0.0,995.2,2.7,22.0,51,13.0,11.4,3.0,301.0,91.0,3.3,7,5,3,1,2026-07-13T09:15:52.145282+05:30
Agartala,Tripura,23.8315,91.2868,26.9,96,0.2,1000.6,2.85,31.3,74,11.4,10.7,7.3,225.0,80.0,1.9,10,5,0,1,2026-07-13T09:15:52.145308+05:30
Shillong,Meghalaya,25.5788,91.8933,21.1,93,0.1,853.5,3.6,25.6,34,10.8,6.8,2.0,300.0,96.0,2.9,6,5,3,1,2026-07-13T09:15:52.145317+05:30
Imphal,Manipur,24.817,93.9368,25.2,88,0.1,919.1,5.1,19.1,52,4.1,3.6,1.8,244.0,84.0,1.4,10,5,3,1,2026-07-13T09:15:52.145325+05:30
Aizawl,Mizoram,23.7271,92.7176,22.6,83,0.0,888.7,3.65,21.6,58,14.7,7.5,1.0,165.0,88.0,2.7,3,5,3,1,2026-07-13T09:15:52.145332+05:30
Kohima,Nagaland,25.6701,94.1077,22.3,93,0.0,852.5,7.6,21.6,31,4.9,4.5,1.4,199.0,90.0,1.3,3,5,7,1,2026-07-13T09:15:52.145339+05:30
Gangtok,Sikkim,27.3314,88.6138,19.3,100,0.8,833.5,2.7,23.4,48,2.7,2.6,3.5,282.0,101.0,1.2,6,10,3,1,2026-07-13T09:15:52.145346+05:30
Siliguri,West Bengal,26.7271,88.3953,26.2,96,1.0,986.4,1.25,38.9,45,9.1,9.1,7.6,444.0,88.0,2.3,10,5,3,1,2026-07-13T09:15:55.499983+05:30
Durgapur,West Bengal,23.5204,87.3119,31.0,80,0.0,988.1,8.0,23.4,151,98.5,75.0,38.2,478.0,55.0,78.8,3,5,7,1,2026-07-13T09:15:55.500014+05:30
Asansol,West Bengal,23.6739,86.9524,30.9,75,0.0,986.9,7.25,24.1,148,97.8,64.5,27.6,313.0,68.0,59.6,3,5,7,1,2026-07-13T09:15:55.500026+05:30
Pondicherry,Puducherry,11.9139,79.8145,32.2,53,0.0,1006.9,8.15,46.1,64,27.8,14.9,6.4,163.0,51.0,3.2,0,5,4,1,2026-07-13T09:15:55.500036+05:30
Port Blair,Andaman and Nicobar Islands,11.6234,92.7265,26.9,85,0.0,1006.2,8.75,55.8,46,19.0,8.2,0.3,98.0,48.0,0.4,7,5,4,1,2026-07-13T09:15:55.500044+05:30
Haridwar,Uttarakhand,29.9457,78.1642,30.5,73,0.0,965.5,7.5,27.4,179,201.2,92.0,4.9,317.0,139.0,16.5,3,5,7,1,2026-07-13T09:15:55.500052+05:30
Rishikesh,Uttarakhand,30.0869,78.2676,30.2,71,0.0,958.3,7.6,24.8,162,121.1,53.9,2.2,290.0,138.0,10.1,3,5,7,1,2026-07-13T09:15:55.500061+05:30
Nainital,Uttarakhand,29.3919,79.4542,22.7,61,0.0,802.5,8.5,34.9,161,210.5,71.5,3.2,172.0,131.0,10.0,3,5,7,0,2026-07-13T09:15:55.500069+05:30
Mussoorie,Uttarakhand,30.4599,78.0664,22.4,63,0.0,799.9,8.0,42.1,159,91.5,47.8,3.6,230.0,141.0,10.6,3,5,7,0,2026-07-13T09:15:55.500077+05:30
Dharamshala,Himachal Pradesh,32.219,76.3234,24.6,71,0.0,863.6,8.25,33.5,65,31.8,13.0,1.5,246.0,108.0,1.1,3,5,7,1,2026-07-13T09:15:55.500085+05:30
Dalhousie,Himachal Pradesh,32.5387,75.971,22.5,63,0.0,801.2,8.65,29.9,96,44.5,23.5,5.7,253.0,116.0,2.1,3,5,7,0,2026-07-13T09:15:55.500102+05:30
Patiala,Punjab,30.3398,76.3869,30.9,77,0.0,969.4,7.55,23.8,173,151.3,82.9,13.3,364.0,98.0,7.8,3,5,7,1,2026-07-13T09:15:55.500111+05:30
Bhatinda,Punjab,30.211,74.9455,31.3,71,0.0,974.7,8.25,25.9,185,135.0,70.8,19.1,391.0,73.0,9.8,3,5,7,1,2026-07-13T09:15:55.500119+05:30
Rohtak,Haryana,28.8955,76.6066,32.6,62,0.0,973.4,7.65,26.3,1081,1274.0,188.1,8.7,232.0,66.0,3.9,3,5,7,1,2026-07-13T09:15:55.500127+05:30
Panipat,Haryana,29.3909,76.9635,31.5,68,0.0,971.8,7.55,26.3,1433,1981.9,270.1,14.1,397.0,66.0,6.7,3,5,7,1,2026-07-13T09:15:55.500135+05:30
Mathura,Uttar Pradesh,27.4924,77.6737,32.5,62,0.0,979.0,7.85,33.5,838,884.8,129.0,10.3,212.0,61.0,5.6,3,5,7,1,2026-07-13T09:15:55.500144+05:30
Vrindavan,Uttar Pradesh,27.5823,77.7027,32.7,61,0.0,979.4,7.9,34.2,838,884.8,129.0,10.3,217.0,61.0,5.6,3,5,7,1,2026-07-13T09:15:55.500152+05:30
Ayodhya,Uttar Pradesh,26.7922,82.1998,32.3,68,0.0,986.3,8.35,35.3,125,100.6,50.5,8.5,253.0,80.0,8.3,3,5,7,1,2026-07-13T09:15:55.500159+05:30
Ratlam,Madhya Pradesh,23.3315,75.0367,27.1,73,0.1,950.6,8.45,53.6,65,17.9,9.7,4.4,109.0,41.0,6.0,10,5,7,1,2026-07-13T09:15:55.500167+05:30
Sagar,Madhya Pradesh,23.8388,78.7378,28.1,73,0.0,945.6,8.6,47.5,82,34.9,16.1,3.0,137.0,53.0,5.3,7,5,7,1,2026-07-13T09:15:55.500175+05:30
Satna,Madhya Pradesh,24.6005,80.8322,30.8,65,0.0,965.3,8.65,39.6,88,56.3,33.4,3.4,167.0,75.0,5.0,3,5,7,1,2026-07-13T09:15:55.500182+05:30
Akola,Maharashtra,20.7002,77.0082,29.4,64,0.0,972.4,8.3,50.4,65,21.7,10.4,4.8,116.0,42.0,8.1,7,5,7,1,2026-07-13T09:15:55.500191+05:30
Amravati,Maharashtra,20.9374,77.7796,28.5,69,0.0,964.3,8.05,52.9,67,23.8,11.0,5.3,122.0,42.0,9.4,7,5,7,1,2026-07-13T09:15:55.500199+05:30
Latur,Maharashtra,18.4088,76.5604,26.9,68,0.0,938.3,8.85,46.4,53,16.8,8.1,2.3,116.0,46.0,2.8,7,5,7,1,2026-07-13T09:15:55.500207+05:30
Nanded,Maharashtra,19.1383,77.3091,28.5,66,0.0,966.7,8.85,43.9,61,21.4,10.9,3.5,133.0,47.0,4.3,7,5,7,1,2026-07-13T09:15:55.500214+05:30
Gulbarga,Karnataka,17.3297,76.8343,27.7,62,0.0,958.0,8.8,49.3,51,15.9,7.3,3.3,117.0,44.0,2.9,7,5,7,1,2026-07-13T09:15:55.500222+05:30
Bidar,Karnataka,17.9104,77.5199,26.7,68,0.0,934.2,8.9,47.2,57,23.1,10.8,3.5,127.0,44.0,2.3,7,5,7,1,2026-07-13T09:15:55.500229+05:30
Hospet,Karnataka,15.2689,76.3909,27.0,67,0.0,956.3,8.9,49.0,40,16.6,7.5,2.7,109.0,44.0,2.0,7,5,7,1,2026-07-13T09:15:55.500237+05:30
Tirupur,Tamil Nadu,11.1085,77.3411,29.3,62,0.0,975.9,8.3,58.0,57,27.4,13.4,6.2,153.0,48.0,4.0,7,5,7,1,2026-07-13T09:15:55.500244+05:30
Alappuzha,Kerala,9.4981,76.3388,28.2,81,0.0,1010.8,8.0,50.8,46,19.5,10.2,4.9,99.0,44.0,3.4,7,0,4,1,2026-07-13T09:15:55.500251+05:30
Munnar,Kerala,10.0889,77.0595,19.7,85,0.0,858.6,8.6,36.4,27,9.1,4.5,2.5,102.0,45.0,1.5,3,10,7,1,2026-07-13T09:15:55.500258+05:30
Silchar,Assam,24.8333,92.7789,29.3,81,0.0,999.6,0.9,18.7,79,36.6,20.5,1.9,300.0,97.0,5.7,7,5,3,1,2026-07-13T09:15:55.500264+05:30
Dibrugarh,Assam,27.4728,94.912,28.9,82,0.0,990.2,8.9,20.2,48,5.7,5.6,1.6,206.0,88.0,0.8,7,5,7,1,2026-07-13T09:15:55.500270+05:30
