city,state,latitude,longitude,temp,humidity,rain,pressure,uv_index,wind_gusts,aqi,pm10,pm2_5,mosquito_risk,arthritis_risk,migraine_risk,frizz_risk,updated_at
Delhi,Delhi,28.6139,77.209,27.4,48,0.0,981.7,6.5,42.8,160,134.6,34.2,4,5,7,0,2026-03-27T18:43:58.702858+05:30
Mumbai,Maharashtra,19.076,72.8777,29.5,63,0.0,1007.4,8.0,28.4,202,41.6,36.6,7,5,4,1,2026-03-27T18:43:58.702909+05:30
Bangalore,Karnataka,12.9716,77.5946,31.9,23,0.0,911.0,9.5,28.1,116,26.2,22.6,0,5,7,0,2026-03-27T18:43:58.702925+05:30
Hyderabad,Telangana,17.385,78.4867,33.1,37,0.0,951.6,9.0,23.4,123,42.6,35.2,0,5,7,1,2026-03-27T18:43:58.702934+05:30
Chennai,Tamil Nadu,13.0827,80.2707,28.4,70,0.0,1006.4,9.2,29.5,68,28.5,16.6,7,5,4,1,2026-03-27T18:43:58.702943+05:30
Kolkata,West Bengal,22.5726,88.3639,29.4,74,0.0,1003.7,8.45,22.7,130,53.6,44.1,7,5,4,1,2026-03-27T18:43:58.702952+05:30
Pune,Maharashtra,18.5204,73.8567,33.4,32,0.0,948.4,8.55,39.2,137,41.8,33.2,0,5,7,0,2026-03-27T18:43:58.702964+05:30
Ahmedabad,Gujarat,23.0225,72.5714,34.2,26,0.0,1001.2,7.9,34.9,60,34.5,16.1,0,5,4,0,2026-03-27T18:43:58.702972+05:30
Jaipur,Rajasthan,26.9124,75.7873,30.6,28,0.0,958.2,7.35,43.2,111,281.3,40.2,0,5,7,0,2026-03-27T18:43:58.702980+05:30
Lucknow,Uttar Pradesh,26.8467,80.9462,29.6,39,0.0,991.7,6.5,49.3,90,100.6,28.3,4,5,7,0,2026-03-27T18:43:58.702988+05:30
Kanpur,Uttar Pradesh,26.4499,80.3319,28.6,49,0.0,990.1,6.65,64.1,140,182.1,35.5,4,5,7,1,2026-03-27T18:43:58.702996+05:30
Chandigarh,Chandigarh,30.7333,76.7794,24.2,60,0.0,967.1,6.45,31.3,74,30.0,21.8,0,5,7,0,2026-03-27T18:43:58.703004+05:30
Srinagar,Jammu and Kashmir,34.0837,74.7973,18.1,50,0.0,839.4,7.5,16.6,108,27.8,18.2,0,5,7,0,2026-03-27T18:43:58.703012+05:30
Jammu,Jammu and Kashmir,32.7266,74.857,26.0,60,0.0,970.8,7.15,20.2,90,25.0,17.8,4,5,7,1,2026-03-27T18:43:58.703019+05:30
Amritsar,Punjab,31.634,74.8723,25.5,56,0.0,979.5,7.1,25.9,125,39.2,27.8,4,5,7,1,2026-03-27T18:43:58.703026+05:30
Ludhiana,Punjab,30.901,75.8573,26.0,48,0.0,977.3,4.55,25.9,84,41.0,23.1,4,5,3,0,2026-03-27T18:43:58.703033+05:30
Jalandhar,Punjab,31.326,75.5762,25.6,54,0.0,978.5,4.4,22.3,85,35.5,24.7,4,5,3,0,2026-03-27T18:43:58.703043+05:30
Dehradun,Uttarakhand,30.6284,78.0322,15.4,74,0.0,827.3,5.8,27.0,72,26.4,16.8,3,5,3,0,2026-03-27T18:43:58.703050+05:30
Shimla,Himachal Pradesh,31.1048,77.1734,13.8,67,0.0,781.8,6.0,37.4,70,23.7,16.1,3,5,3,0,2026-03-27T18:43:58.703057+05:30
Manali,Himachal Pradesh,32.2396,77.1887,16.4,77,0.0,816.6,8.3,27.7,135,23.3,9.5,3,5,7,0,2026-03-27T18:43:58.703066+05:30
Gurgaon,Haryana,28.4595,77.0266,26.3,55,0.0,980.1,6.65,40.7,891,358.6,60.8,4,5,7,1,2026-03-27T18:43:58.703073+05:30
Noida,Uttar Pradesh,28.5355,77.391,27.2,51,0.0,983.2,6.5,41.0,891,358.6,60.8,4,5,7,1,2026-03-27T18:43:58.703080+05:30
Ghaziabad,Uttar Pradesh,28.6692,77.4538,26.6,55,0.0,981.3,6.45,40.0,133,76.6,27.8,4,5,7,1,2026-03-27T18:43:58.703087+05:30
Faridabad,Haryana,28.4089,77.3178,26.3,55,0.0,982.5,6.55,41.4,891,358.6,60.8,4,5,7,1,2026-03-27T18:43:58.703094+05:30
Meerut,Uttar Pradesh,28.9845,77.7064,25.3,61,0.0,980.0,6.35,41.4,133,76.6,27.8,7,5,7,1,2026-03-27T18:43:58.703101+05:30
Agra,Uttar Pradesh,27.1767,78.0081,27.5,51,0.0,986.4,6.9,47.5,702,719.0,97.3,4,5,7,1,2026-03-27T18:43:58.703108+05:30
Varanasi,Uttar Pradesh,25.3176,82.9739,29.4,47,0.0,995.7,7.3,42.5,97,34.2,22.0,4,5,7,1,2026-03-27T18:43:58.703117+05:30
Prayagraj,Uttar Pradesh,25.4358,81.8463,27.9,58,0.0,994.8,7.5,37.8,99,35.2,20.5,4,5,7,1,2026-03-27T18:43:58.703124+05:30
Gorakhpur,Uttar Pradesh,26.7606,83.3732,29.0,38,0.0,994.7,6.85,50.0,112,34.0,19.9,4,5,7,0,2026-03-27T18:43:58.703131+05:30
Bareilly,Uttar Pradesh,28.367,79.4304,24.7,67,0.0,985.1,6.4,41.0,77,36.6,22.1,3,5,7,1,2026-03-27T18:43:58.703141+05:30
Aligarh,Uttar Pradesh,27.8974,78.088,25.2,66,0.0,984.5,6.3,37.8,333,263.6,57.0,7,5,7,1,2026-03-27T18:43:58.703148+05:30
Moradabad,Uttar Pradesh,28.8386,78.7733,25.1,62,0.0,981.9,5.7,45.0,78,34.9,21.8,7,5,3,1,2026-03-27T18:43:58.703155+05:30
Saharanpur,Uttar Pradesh,29.9637,77.546,24.5,57,0.0,973.9,6.15,32.8,80,40.2,28.8,0,5,7,0,2026-03-27T18:43:58.703161+05:30
Jhansi,Uttar Pradesh,25.4484,78.5685,27.6,50,0.0,976.0,7.55,61.2,92,51.2,16.6,4,5,7,1,2026-03-27T18:44:01.986444+05:30
Surat,Gujarat,21.1702,72.8311,32.7,40,0.0,1005.4,7.75,27.7,120,51.2,44.1,0,5,4,1,2026-03-27T18:44:01.986484+05:30
Vadodara,Gujarat,22.3072,73.1812,36.1,25,0.0,1002.6,7.9,29.2,93,31.3,19.8,0,5,7,0,2026-03-27T18:44:01.986498+05:30
Rajkot,Gujarat,22.3039,70.8022,33.5,22,0.0,994.3,7.75,36.7,52,20.9,12.9,0,5,7,0,2026-03-27T18:44:01.986511+05:30
Thane,Maharashtra,19.2183,72.9781,30.7,49,0.0,1006.9,8.0,39.6,202,41.6,36.6,0,5,4,1,2026-03-27T18:44:01.986522+05:30
Nagpur,Maharashtra,21.1458,79.0882,34.2,21,0.0,970.2,8.25,46.4,113,15.3,11.8,0,5,7,0,2026-03-27T18:44:01.986533+05:30
Nashik,Maharashtra,19.9975,73.7898,31.3,30,0.0,945.4,8.2,43.2,93,22.5,16.2,0,5,7,0,2026-03-27T18:44:01.986545+05:30
Aurangabad,Maharashtra,19.8762,75.3433,33.3,26,0.0,942.8,8.75,37.1,98,21.6,15.7,0,5,7,0,2026-03-27T18:44:01.986556+05:30
Solapur,Maharashtra,17.6599,75.9064,36.3,20,0.0,955.3,8.85,27.4,145,37.8,30.4,0,5,10,0,2026-03-27T18:44:01.986568+05:30
Kolhapur,Maharashtra,16.705,74.2433,29.2,66,0.0,948.0,8.95,47.9,155,43.2,39.5,7,5,7,1,2026-03-27T18:44:01.986579+05:30
Goa,Goa,15.2993,74.124,30.1,78,0.0,997.3,8.9,31.7,94,31.2,23.1,3,5,7,1,2026-03-27T18:44:01.986590+05:30
Jodhpur,Rajasthan,26.2389,73.0243,32.7,27,0.0,982.0,7.7,36.0,77,91.3,16.1,0,5,7,0,2026-03-27T18:44:01.986600+05:30
Udaipur,Rajasthan,24.5854,73.7125,29.4,34,0.0,946.1,8.35,43.2,44,33.2,12.3,4,5,7,0,2026-03-27T18:44:01.986611+05:30
Kota,Rajasthan,25.2138,75.8648,33.9,22,0.0,976.6,7.7,41.4,67,27.0,13.1,0,5,7,0,2026-03-27T18:44:01.986622+05:30
Bikaner,Rajasthan,28.0229,73.3119,30.6,29,0.0,981.2,7.45,30.2,67,20.2,7.9,0,5,7,0,2026-03-27T18:44:01.986633+05:30
Ajmer,Rajasthan,26.4499,74.6399,30.1,30,0.0,953.5,7.65,40.0,59,25.8,11.1,0,5,7,0,2026-03-27T18:44:01.986643+05:30
Gwalior,Madhya Pradesh,26.2183,78.1828,28.6,44,0.0,981.3,7.25,55.8,112,163.4,46.3,4,5,7,0,2026-03-27T18:44:01.986655+05:30
Indore,Madhya Pradesh,22.7196,75.8577,31.5,24,0.0,947.1,8.2,41.8,48,17.6,9.0,0,5,7,0,2026-03-27T18:44:01.986665+05:30
Bhopal,Madhya Pradesh,23.2599,77.4126,33.2,20,0.0,951.4,8.1,45.0,52,28.6,10.5,0,5,7,0,2026-03-27T18:44:01.986676+05:30
Jabalpur,Madhya Pradesh,23.1815,79.9864,31.9,30,0.0,958.3,8.15,46.4,79,15.7,10.2,0,5,7,0,2026-03-27T18:44:01.986687+05:30
Ujjain,Madhya Pradesh,23.1765,75.7885,31.5,25,0.0,952.6,8.1,41.8,45,19.9,9.9,0,5,7,0,2026-03-27T18:44:01.986698+05:30
Visakhapatnam,Andhra Pradesh,17.6868,83.2185,28.3,75,0.0,1002.8,8.95,38.2,80,33.5,24.0,7,5,4,1,2026-03-27T18:44:01.986709+05:30
Vijayawada,Andhra Pradesh,16.5062,80.648,32.6,42,0.0,1000.5,9.0,26.3,76,33.6,26.8,0,5,4,1,2026-03-27T18:44:01.986719+05:30
Guntur,Andhra Pradesh,16.3067,80.4365,30.8,51,0.0,1002.1,9.05,30.2,71,33.9,26.7,0,5,4,1,2026-03-27T18:44:01.986730+05:30
Nellore,Andhra Pradesh,14.4426,79.9865,29.3,60,0.0,1004.6,9.15,28.1,102,27.0,18.0,4,5,4,1,2026-03-27T18:44:01.986741+05:30
Kurnool,Andhra Pradesh,15.8281,78.0373,37.2,21,0.0,974.5,9.05,17.6,120,32.7,25.4,0,5,10,0,2026-03-27T18:44:01.986752+05:30
Kakinada,Andhra Pradesh,16.9891,82.2475,30.6,54,0.0,1005.9,9.0,28.1,68,27.8,17.3,0,5,4,1,2026-03-27T18:44:01.986763+05:30
Tirupati,Andhra Pradesh,13.6288,79.4192,32.5,39,0.0,990.2,9.25,30.2,129,38.0,31.0,0,5,7,1,2026-03-27T18:44:01.986773+05:30
Warangal,Telangana,17.9689,79.5941,34.5,40,0.0,976.5,8.85,26.3,99,43.0,36.6,0,5,7,1,2026-03-27T18:44:01.986783+05:30
Nizamabad,Telangana,18.6725,78.0941,34.4,33,0.0,962.7,8.75,29.5,107,36.6,28.5,0,5,7,0,2026-03-27T18:44:01.986794+05:30
Mysore,Karnataka,12.2958,76.6396,33.3,19,0.0,927.3,9.45,44.6,130,29.7,24.4,0,5,7,0,2026-03-27T18:44:01.986805+05:30
Mangalore,Karnataka,12.9141,74.856,29.8,81,0.0,1005.8,9.1,25.9,96,39.3,31.8,7,5,4,1,2026-03-27T18:44:01.986816+05:30
Hubli-Dharwad,Karnataka,15.3647,75.124,28.7,62,0.0,940.5,9.1,44.6,157,33.6,28.1,7,5,7,1,2026-03-27T18:44:01.986827+05:30
Belgaum,Karnataka,15.8497,74.4977,27.3,69,0.0,925.9,9.15,38.2,153,36.1,32.2,7,5,7,1,2026-03-27T18:44:05.271279+05:30
Coimbatore,Tamil Nadu,11.0168,76.9558,29.9,57,0.0,960.6,9.4,43.2,123,26.5,22.1,4,5,7,1,2026-03-27T18:44:05.271309+05:30
Madurai,Tamil Nadu,9.9252,78.1198,33.6,35,0.0,990.9,9.35,21.6,104,29.7,21.8,0,5,7,1,2026-03-27T18:44:05.271320+05:30
Trichy,Tamil Nadu,10.7905,78.7047,31.8,56,0.0,998.1,9.3,18.0,113,37.7,30.0,0,5,7,1,2026-03-27T18:44:05.271328+05:30
Salem,Tamil Nadu,11.6643,78.146,34.4,25,0.0,975.4,9.35,25.9,159,29.9,24.5,0,5,7,0,2026-03-27T18:44:05.271335+05:30
Tirunelveli,Tamil Nadu,8.7139,77.7567,31.2,57,0.0,1001.5,9.35,47.5,84,18.5,14.2,0,5,4,1,2026-03-27T18:44:05.271343+05:30
Vellore,Tamil Nadu,12.9165,79.1325,31.5,40,0.0,983.3,9.3,30.6,106,30.3,23.5,0,5,7,1,2026-03-27T18:44:05.271350+05:30
Erode,Tamil Nadu,11.341,77.7172,35.4,33,0.0,986.6,9.35,25.9,124,34.6,28.9,0,5,10,1,2026-03-27T18:44:05.271357+05:30
Kochi,Kerala,9.9312,76.2673,29.5,78,0.0,1007.3,9.2,40.3,105,30.4,24.8,7,5,4,1,2026-03-27T18:44:05.271365+05:30
Thiruvananthapuram,Kerala,8.5241,76.9366,29.5,76,0.0,1007.0,9.2,32.8,115,23.7,16.5,7,5,4,1,2026-03-27T18:44:05.271372+05:30
Kozhikode,Kerala,11.2588,75.7804,30.2,76,0.0,1006.7,9.1,31.7,89,33.4,26.8,3,5,4,1,2026-03-27T18:44:05.271379+05:30
Thrissur,Kerala,10.5276,76.2144,30.2,71,0.0,1005.8,9.15,41.0,124,30.4,26.1,3,5,4,1,2026-03-27T18:44:05.271387+05:30
Kannur,Kerala,11.8745,75.3704,30.3,71,0.0,1006.3,9.1,32.4,100,36.8,28.9,3,5,4,1,2026-03-27T18:44:05.271394+05:30
Patna,Bihar,25.5941,85.1376,29.8,45,0.0,998.1,7.95,43.9,149,40.2,24.4,4,5,7,1,2026-03-27T18:44:05.271442+05:30
Gaya,Bihar,24.7914,85.0002,28.9,51,0.0,991.7,8.05,31.3,97,38.2,21.7,4,5,7,1,2026-03-27T18:44:05.271453+05:30
Muzaffarpur,Bihar,26.1209,85.3647,27.5,52,0.0,998.1,7.6,38.2,167,45.3,28.5,4,5,7,1,2026-03-27T18:44:05.271460+05:30
Bhagalpur,Bihar,25.2425,87.0117,28.9,65,0.0,998.8,8.0,31.3,161,42.1,27.8,7,5,7,1,2026-03-27T18:44:05.271467+05:30
Ranchi,Jharkhand,23.3441,85.3096,26.5,43,0.0,937.8,8.7,33.8,103,20.7,15.7,4,5,7,0,2026-03-27T18:44:05.271474+05:30
Jamshedpur,Jharkhand,22.8046,86.2029,33.2,36,0.0,988.5,8.55,22.3,148,40.6,18.2,0,5,7,1,2026-03-27T18:44:05.271481+05:30
Dhanbad,Jharkhand,23.7957,86.4304,32.6,29,0.0,977.8,8.45,25.6,115,53.8,33.8,0,5,7,0,2026-03-27T18:44:05.271488+05:30
Bokaro,Jharkhand,23.6693,86.1511,31.3,28,0.0,982.2,8.3,27.0,115,55.5,33.4,0,5,7,0,2026-03-27T18:44:05.271495+05:30
Bhubaneswar,Odisha,20.2961,85.8245,28.9,75,0.0,1001.6,8.75,29.2,143,34.9,30.9,7,5,4,1,2026-03-27T18:44:05.271501+05:30
Cuttack,Odisha,20.4625,85.8828,27.3,73,0.0,1003.5,8.8,35.3,143,34.9,30.9,7,5,4,1,2026-03-27T18:44:05.271507+05:30
Rourkela,Odisha,22.2604,84.8536,30.9,44,0.0,982.7,8.45,31.7,169,39.6,34.5,0,5,7,1,2026-03-27T18:44:05.271514+05:30
Raipur,Chhattisgarh,21.2514,81.6296,32.2,40,0.0,971.6,8.5,48.6,155,36.0,31.2,0,5,7,1,2026-03-27T18:44:05.271520+05:30
Bhilai,Chhattisgarh,21.1938,81.3509,32.3,41,0.0,971.8,8.55,44.6,139,28.4,24.7,0,5,7,1,2026-03-27T18:44:05.271527+05:30
Guwahati,Assam,26.1158,91.7086,26.0,75,0.0,1001.4,7.9,28.4,154,126.2,88.7,7,5,4,1,2026-03-27T18:44:05.271534+05:30
Agartala,Tripura,23.8315,91.2868,28.4,67,0.0,1004.5,8.2,19.1,169,82.7,72.6,7,5,4,1,2026-03-27T18:44:05.271541+05:30
Shillong,Meghalaya,25.5788,91.8933,14.4,84,0.0,855.0,8.15,42.1,145,61.9,48.4,3,10,7,0,2026-03-27T18:44:05.271548+05:30
Imphal,Manipur,24.817,93.9368,18.7,58,0.0,921.9,8.55,44.3,133,59.0,45.6,0,5,7,0,2026-03-27T18:44:05.271556+05:30
Aizawl,Mizoram,23.7271,92.7176,20.5,60,0.0,891.4,8.5,28.8,128,56.1,41.0,0,5,7,0,2026-03-27T18:44:05.271562+05:30
Kohima,Nagaland,25.6701,94.1077,14.8,90,0.0,853.5,8.45,51.5,120,54.5,37.8,3,10,7,0,2026-03-27T18:44:05.271569+05:30
Gangtok,Sikkim,27.3314,88.6138,14.3,92,0.1,835.6,7.6,19.4,132,66.1,49.1,6,10,7,0,2026-03-27T18:44:05.271576+05:30
Siliguri,West Bengal,26.7271,88.3953,20.2,88,0.0,993.4,7.7,33.1,160,103.4,75.7,3,5,7,1,2026-03-27T18:44:08.558172+05:30
Durgapur,West Bengal,23.5204,87.3119,33.5,30,0.0,992.6,8.4,20.2,152,59.0,38.9,0,5,7,0,2026-03-27T18:44:08.558201+05:30
Asansol,West Bengal,23.6739,86.9524,33.2,28,0.0,991.0,8.45,20.2,111,45.8,26.0,0,5,7,0,2026-03-27T18:44:08.558212+05:30
Pondicherry,Puducherry,11.9139,79.8145,27.9,72,0.0,1007.4,9.2,25.2,68,29.3,16.5,7,5,4,1,2026-03-27T18:44:08.558220+05:30
Port Blair,Andaman and Nicobar Islands,11.6234,92.7265,28.3,78,0.0,1005.7,9.15,25.6,76,30.2,22.3,7,5,4,1,2026-03-27T18:44:08.558228+05:30
Haridwar,Uttarakhand,29.9457,78.1642,25.5,59,0.0,972.4,5.75,38.5,79,34.2,23.7,4,5,3,1,2026-03-27T18:44:08.558235+05:30
Rishikesh,Uttarakhand,30.0869,78.2676,24.0,60,0.0,965.3,6.15,28.4,72,31.4,18.4,0,5,7,0,2026-03-27T18:44:08.558242+05:30
Nainital,Uttarakhand,29.3919,79.4542,18.0,50,0.0,803.7,6.65,50.4,59,23.6,14.2,0,5,7,0,2026-03-27T18:44:08.558249+05:30
Mussoorie,Uttarakhand,30.4599,78.0664,15.7,71,0.0,799.9,5.8,32.8,81,34.7,22.1,3,5,3,0,2026-03-27T18:44:08.558257+05:30
Dharamshala,Himachal Pradesh,32.219,76.3234,19.5,69,0.0,866.9,6.95,19.1,79,23.5,12.0,3,5,7,0,2026-03-27T18:44:08.558263+05:30
Dalhousie,Himachal Pradesh,32.5387,75.971,17.4,69,0.0,801.7,7.2,19.4,78,30.9,21.4,3,5,7,0,2026-03-27T18:44:08.558271+05:30
Patiala,Punjab,30.3398,76.3869,25.1,56,0.0,976.7,6.35,30.2,127,30.2,23.4,4,5,7,0,2026-03-27T18:44:08.558278+05:30
Bhatinda,Punjab,30.211,74.9455,26.6,47,0.0,982.6,7.0,27.0,85,27.0,21.3,4,5,7,0,2026-03-27T18:44:08.558285+05:30
Rohtak,Haryana,28.8955,76.6066,25.9,58,0.0,980.4,6.55,38.5,165,233.3,42.6,4,5,7,1,2026-03-27T18:44:08.558292+05:30
Panipat,Haryana,29.3909,76.9635,25.2,57,0.0,979.0,6.35,37.4,266,194.6,37.1,4,5,7,1,2026-03-27T18:44:08.558299+05:30
Mathura,Uttar Pradesh,27.4924,77.6737,26.4,58,0.0,985.5,6.8,32.4,707,420.0,64.3,4,5,7,1,2026-03-27T18:44:08.558305+05:30
Vrindavan,Uttar Pradesh,27.5823,77.7027,25.9,61,0.0,986.0,6.75,39.2,707,420.0,64.3,7,5,7,1,2026-03-27T18:44:08.558312+05:30
Ayodhya,Uttar Pradesh,26.7922,82.1998,28.9,41,0.0,993.0,6.8,50.4,79,33.5,20.3,4,5,7,0,2026-03-27T18:44:08.558318+05:30
Ratlam,Madhya Pradesh,23.3315,75.0367,30.7,34,0.0,953.6,8.05,38.2,44,21.8,9.6,0,5,7,0,2026-03-27T18:44:08.558326+05:30
Sagar,Madhya Pradesh,23.8388,78.7378,32.6,22,0.0,947.5,8.05,39.2,71,41.3,13.5,0,5,7,0,2026-03-27T18:44:08.558332+05:30
Satna,Madhya Pradesh,24.6005,80.8322,27.5,59,0.0,969.6,7.75,55.4,113,50.5,17.2,4,5,7,1,2026-03-27T18:44:08.558339+05:30
Akola,Maharashtra,20.7002,77.0082,34.9,17,0.0,972.8,8.45,43.6,83,20.0,15.5,0,5,7,0,2026-03-27T18:44:08.558347+05:30
Amravati,Maharashtra,20.9374,77.7796,33.9,27,0.0,965.0,8.45,43.9,82,20.5,16.0,0,5,7,0,2026-03-27T18:44:08.558354+05:30
Latur,Maharashtra,18.4088,76.5604,33.4,23,0.0,938.7,8.8,25.2,113,36.2,28.5,0,5,7,0,2026-03-27T18:44:08.558360+05:30
Nanded,Maharashtra,19.1383,77.3091,35.2,24,0.0,966.5,8.65,28.1,101,34.7,27.4,0,5,10,0,2026-03-27T18:44:08.558367+05:30
Gulbarga,Karnataka,17.3297,76.8343,36.2,21,0.0,956.8,8.85,32.0,155,42.6,32.7,0,5,10,0,2026-03-27T18:44:08.558373+05:30
Bidar,Karnataka,17.9104,77.5199,34.3,25,0.0,934.0,8.85,29.9,118,32.8,25.8,0,5,7,0,2026-03-27T18:44:08.558379+05:30
Hospet,Karnataka,15.2689,76.3909,35.5,26,0.0,954.5,9.1,26.6,155,32.8,28.0,0,5,10,0,2026-03-27T18:44:08.558385+05:30
Tirupur,Tamil Nadu,11.1085,77.3411,35.6,23,0.0,973.2,9.4,34.9,135,35.9,29.8,0,5,10,0,2026-03-27T18:44:08.558391+05:30
Alappuzha,Kerala,9.4981,76.3388,29.5,79,0.0,1007.3,9.15,35.6,95,28.5,21.7,7,5,4,1,2026-03-27T18:44:08.558397+05:30
Munnar,Kerala,10.0889,77.0595,24.9,70,0.0,857.5,9.7,33.8,92,27.0,21.4,3,5,7,1,2026-03-27T18:44:08.558424+05:30
Silchar,Assam,24.8333,92.7789,28.3,59,0.0,1003.3,8.25,16.2,155,96.4,71.2,4,5,4,1,2026-03-27T18:44:08.558433+05:30
Dibrugarh,Assam,27.4728,94.912,25.2,77,0.0,995.6,3.6,12.6,124,74.0,56.2,7,5,3,1,2026-03-27T18:44:08.558440+05:30
