city,state,latitude,longitude,temp,humidity,rain,pressure,uv_index,wind_gusts,aqi,pm10,pm2_5,no2,co,o3,so2,mosquito_risk,arthritis_risk,migraine_risk,frizz_risk,updated_at
Delhi,Delhi,28.6139,77.209,42.1,11,0.0,979.6,7.7,42.8,469,241.2,49.1,3.0,237.0,191.0,12.3,0,5,10,0,2026-05-26T13:22:47.650847+05:30
Mumbai,Maharashtra,19.076,72.8777,34.2,56,0.1,1008.1,7.45,38.9,44,18.2,13.5,4.2,176.0,106.0,6.2,3,0,4,1,2026-05-26T13:22:47.650899+05:30
Bangalore,Karnataka,12.9716,77.5946,31.1,53,0.0,913.2,9.3,30.2,88,29.6,24.0,2.4,308.0,168.0,5.2,0,5,7,1,2026-05-26T13:22:47.650916+05:30
Hyderabad,Telangana,17.385,78.4867,36.3,35,0.0,953.1,9.2,39.6,81,44.6,28.4,1.6,219.0,162.0,6.1,0,5,10,1,2026-05-26T13:22:47.650927+05:30
Chennai,Tamil Nadu,13.0827,80.2707,39.1,40,0.0,1004.4,9.05,41.0,85,42.1,33.4,4.3,348.0,191.0,10.8,0,5,7,1,2026-05-26T13:22:47.650937+05:30
Kolkata,West Bengal,22.5726,88.3639,38.4,48,0.0,1000.9,8.95,39.2,97,53.3,42.0,2.1,298.0,138.0,8.0,0,5,7,1,2026-05-26T13:22:47.650947+05:30
Pune,Maharashtra,18.5204,73.8567,35.1,38,0.0,948.5,8.0,36.4,46,14.4,10.3,1.8,170.0,117.0,7.2,0,5,10,1,2026-05-26T13:22:47.650954+05:30
Ahmedabad,Gujarat,23.0225,72.5714,39.5,31,0.0,1000.2,8.15,35.6,84,109.7,33.3,1.7,156.0,98.0,5.4,0,5,7,1,2026-05-26T13:22:47.650963+05:30
Jaipur,Rajasthan,26.9124,75.7873,41.5,18,0.0,958.0,8.25,41.4,205,292.4,56.1,0.9,145.0,116.0,4.0,0,5,10,0,2026-05-26T13:22:47.650975+05:30
Lucknow,Uttar Pradesh,26.8467,80.9462,42.2,17,0.0,988.3,8.2,47.2,250,236.6,75.7,1.9,262.0,208.0,12.4,0,5,10,0,2026-05-26T13:22:47.650982+05:30
Kanpur,Uttar Pradesh,26.4499,80.3319,43.2,12,0.0,986.9,8.2,52.9,384,551.3,92.0,1.6,196.0,181.0,10.0,0,5,10,0,2026-05-26T13:22:47.650990+05:30
Chandigarh,Chandigarh,30.7333,76.7794,39.2,12,0.0,965.1,7.75,47.9,75,16.9,10.5,1.5,149.0,178.0,7.6,0,5,10,0,2026-05-26T13:22:47.650998+05:30
Srinagar,Jammu and Kashmir,34.0837,74.7973,22.0,46,0.0,844.8,8.95,18.7,68,16.5,8.7,0.9,268.0,157.0,2.1,0,5,7,0,2026-05-26T13:22:47.651007+05:30
Jammu,Jammu and Kashmir,32.7266,74.857,38.7,13,0.0,969.2,8.55,43.2,74,23.5,11.5,0.8,170.0,168.0,2.2,0,5,10,0,2026-05-26T13:22:47.651015+05:30
Amritsar,Punjab,31.634,74.8723,39.8,12,0.0,977.4,8.4,28.1,76,19.9,10.5,0.8,217.0,168.0,3.4,0,5,10,0,2026-05-26T13:22:47.651022+05:30
Ludhiana,Punjab,30.901,75.8573,40.7,10,0.0,975.2,8.0,42.8,74,15.3,8.2,0.8,165.0,165.0,2.9,0,5,10,0,2026-05-26T13:22:47.651028+05:30
Jalandhar,Punjab,31.326,75.5762,40.5,11,0.0,976.1,8.2,36.0,78,31.5,11.1,0.6,202.0,164.0,2.4,0,5,10,0,2026-05-26T13:22:47.651035+05:30
Dehradun,Uttarakhand,30.6284,78.0322,26.0,26,0.0,832.1,8.2,43.2,73,27.0,10.8,0.6,171.0,155.0,1.7,4,5,7,0,2026-05-26T13:22:47.651043+05:30
Shimla,Himachal Pradesh,31.1048,77.1734,24.8,15,0.0,788.1,8.25,53.3,64,15.9,7.2,0.6,137.0,159.0,2.3,0,5,7,1,2026-05-26T13:22:47.651053+05:30
Manali,Himachal Pradesh,32.2396,77.1887,24.8,25,0.0,820.7,9.95,45.7,69,8.2,5.1,1.6,121.0,159.0,0.5,0,5,7,0,2026-05-26T13:22:47.651060+05:30
Gurgaon,Haryana,28.4595,77.0266,42.0,10,0.0,978.3,7.8,38.2,954,901.5,117.8,3.5,225.0,197.0,13.8,0,5,10,0,2026-05-26T13:22:47.651068+05:30
Noida,Uttar Pradesh,28.5355,77.391,42.5,10,0.0,980.7,7.75,39.2,954,901.5,117.8,3.5,256.0,197.0,13.8,0,5,10,0,2026-05-26T13:22:47.651075+05:30
Ghaziabad,Uttar Pradesh,28.6692,77.4538,41.3,13,0.0,979.1,7.7,41.0,290,81.7,28.8,2.3,209.0,196.0,12.4,0,5,10,0,2026-05-26T13:22:47.651082+05:30
Faridabad,Haryana,28.4089,77.3178,42.3,10,0.0,980.1,7.75,42.8,954,901.5,117.8,3.5,254.0,197.0,13.8,0,5,10,0,2026-05-26T13:22:47.651091+05:30
Meerut,Uttar Pradesh,28.9845,77.7064,40.5,14,0.0,977.9,7.65,42.8,290,81.7,28.8,2.3,254.0,196.0,12.4,0,5,10,0,2026-05-26T13:22:47.651098+05:30
Agra,Uttar Pradesh,27.1767,78.0081,43.0,10,0.0,984.2,8.05,39.6,1080,972.3,114.6,1.6,198.0,184.0,11.5,0,5,10,0,2026-05-26T13:22:47.651105+05:30
Varanasi,Uttar Pradesh,25.3176,82.9739,42.5,19,0.0,992.1,8.75,42.8,128,91.7,48.9,2.2,526.0,215.0,14.3,0,5,10,0,2026-05-26T13:22:47.651112+05:30
Prayagraj,Uttar Pradesh,25.4358,81.8463,42.2,20,0.0,990.8,8.6,51.8,152,121.1,53.9,2.0,161.0,201.0,12.9,0,5,10,0,2026-05-26T13:22:47.651119+05:30
Gorakhpur,Uttar Pradesh,26.7606,83.3732,36.8,40,0.0,993.3,8.6,37.8,156,82.9,55.8,1.9,335.0,190.0,11.6,0,5,10,1,2026-05-26T13:22:47.651128+05:30
Bareilly,Uttar Pradesh,28.367,79.4304,39.0,21,0.0,982.5,8.0,37.8,156,261.7,85.2,2.4,329.0,228.0,18.4,0,5,10,0,2026-05-26T13:22:47.651135+05:30
Aligarh,Uttar Pradesh,27.8974,78.088,41.2,14,0.0,982.2,7.85,38.5,636,625.8,89.6,2.2,237.0,208.0,16.2,0,5,10,0,2026-05-26T13:22:47.651142+05:30
Moradabad,Uttar Pradesh,28.8386,78.7733,39.0,20,0.0,979.8,7.85,40.7,167,148.5,57.6,1.9,300.0,252.0,21.3,0,5,10,0,2026-05-26T13:22:47.651152+05:30
Saharanpur,Uttar Pradesh,29.9637,77.546,39.3,13,0.0,971.9,7.4,52.2,140,31.7,13.0,1.4,237.0,175.0,6.6,0,5,10,0,2026-05-26T13:22:47.651159+05:30
Jhansi,Uttar Pradesh,25.4484,78.5685,42.8,13,0.0,974.8,8.45,43.9,61,149.9,44.0,0.9,135.0,113.0,4.8,0,5,10,0,2026-05-26T13:22:50.911866+05:30
Surat,Gujarat,21.1702,72.8311,35.6,50,0.0,1005.9,7.75,43.2,61,38.2,22.1,13.4,413.0,59.0,44.1,0,5,7,1,2026-05-26T13:22:50.911903+05:30
Vadodara,Gujarat,22.3072,73.1812,39.1,31,0.0,1002.8,8.1,39.2,55,75.2,28.2,1.4,156.0,99.0,3.6,0,5,7,1,2026-05-26T13:22:50.911913+05:30
Rajkot,Gujarat,22.3039,70.8022,40.0,30,0.0,992.6,7.7,47.5,73,86.4,27.2,1.0,125.0,96.0,4.5,0,5,10,1,2026-05-26T13:22:50.911922+05:30
Thane,Maharashtra,19.2183,72.9781,34.8,55,0.1,1007.2,7.55,32.0,44,18.2,13.5,4.2,191.0,106.0,6.2,3,5,4,1,2026-05-26T13:22:50.911931+05:30
Nagpur,Maharashtra,21.1458,79.0882,42.5,20,0.0,971.0,8.9,41.0,79,46.0,20.5,3.7,164.0,152.0,17.1,0,5,10,0,2026-05-26T13:22:50.911939+05:30
Nashik,Maharashtra,19.9975,73.7898,34.8,43,0.0,946.0,8.15,33.8,33,12.8,7.6,0.8,133.0,81.0,0.9,0,5,7,1,2026-05-26T13:22:50.911946+05:30
Aurangabad,Maharashtra,19.8762,75.3433,37.5,31,0.0,944.5,9.05,37.4,54,18.6,10.9,0.8,137.0,105.0,2.3,0,5,10,1,2026-05-26T13:22:50.911954+05:30
Solapur,Maharashtra,17.6599,75.9064,36.7,37,0.0,957.3,8.6,41.8,61,20.7,14.6,1.2,150.0,133.0,5.9,0,5,10,1,2026-05-26T13:22:50.911961+05:30
Kolhapur,Maharashtra,16.705,74.2433,34.3,48,0.0,948.8,8.7,49.0,34,12.2,8.4,1.3,141.0,101.0,1.8,0,5,7,1,2026-05-26T13:22:50.911969+05:30
Goa,Goa,15.2993,74.124,34.4,59,0.1,998.0,7.0,29.9,43,9.6,7.0,0.7,154.0,71.0,1.5,3,5,7,1,2026-05-26T13:22:50.911975+05:30
Jodhpur,Rajasthan,26.2389,73.0243,39.5,33,0.0,980.8,8.4,38.9,207,316.6,62.2,0.6,128.0,94.0,3.1,0,5,10,1,2026-05-26T13:22:50.911982+05:30
Udaipur,Rajasthan,24.5854,73.7125,37.9,24,0.0,946.2,8.8,39.6,84,137.8,39.7,0.6,127.0,87.0,2.3,0,5,10,0,2026-05-26T13:22:50.911990+05:30
Kota,Rajasthan,25.2138,75.8648,43.0,18,0.0,976.3,8.4,37.4,70,215.1,53.2,0.9,142.0,116.0,6.3,0,5,10,0,2026-05-26T13:22:50.911997+05:30
Bikaner,Rajasthan,28.0229,73.3119,43.3,14,0.0,978.1,8.4,42.1,156,124.8,51.3,0.3,134.0,113.0,4.1,0,5,10,0,2026-05-26T13:22:50.912004+05:30
Ajmer,Rajasthan,26.4499,74.6399,39.2,24,0.0,953.6,8.35,46.4,108,211.4,48.8,0.5,133.0,102.0,3.1,0,5,10,0,2026-05-26T13:22:50.912011+05:30
Gwalior,Madhya Pradesh,26.2183,78.1828,43.1,13,0.0,979.8,8.25,47.2,83,129.9,37.8,0.6,153.0,128.0,4.6,0,5,10,0,2026-05-26T13:22:50.912018+05:30
Indore,Madhya Pradesh,22.7196,75.8577,39.9,21,0.0,947.9,8.65,42.1,60,54.7,25.7,1.1,169.0,119.0,6.8,0,5,10,0,2026-05-26T13:22:50.912024+05:30
Bhopal,Madhya Pradesh,23.2599,77.4126,41.5,16,0.0,952.5,8.7,39.2,65,54.5,21.3,0.7,148.0,114.0,4.1,0,5,10,0,2026-05-26T13:22:50.912031+05:30
Jabalpur,Madhya Pradesh,23.1815,79.9864,42.7,13,0.0,959.2,8.85,41.0,72,50.4,19.8,0.7,138.0,121.0,3.4,0,5,10,0,2026-05-26T13:22:50.912038+05:30
Ujjain,Madhya Pradesh,23.1765,75.7885,40.0,19,0.0,953.2,8.6,42.1,58,64.5,26.6,0.7,151.0,113.0,6.1,0,5,10,0,2026-05-26T13:22:50.912045+05:30
Visakhapatnam,Andhra Pradesh,17.6868,83.2185,39.3,49,0.0,998.7,8.95,40.7,123,61.9,50.9,9.5,432.0,187.0,42.9,0,5,10,1,2026-05-26T13:22:50.912052+05:30
Vijayawada,Andhra Pradesh,16.5062,80.648,42.5,25,0.0,998.6,9.1,39.6,132,53.6,34.6,1.7,209.0,167.0,7.5,0,5,10,1,2026-05-26T13:22:50.912059+05:30
Guntur,Andhra Pradesh,16.3067,80.4365,42.2,25,0.0,1000.0,9.1,42.1,122,53.2,32.5,1.2,188.0,156.0,6.1,0,5,7,1,2026-05-26T13:22:50.912065+05:30
Nellore,Andhra Pradesh,14.4426,79.9865,40.0,36,0.0,1002.8,9.05,42.1,90,27.2,21.5,2.2,174.0,153.0,7.2,0,5,7,1,2026-05-26T13:22:50.912072+05:30
Kurnool,Andhra Pradesh,15.8281,78.0373,37.5,40,0.0,976.1,8.9,70.9,63,20.7,16.2,1.5,179.0,143.0,10.0,0,5,10,1,2026-05-26T13:22:50.912079+05:30
Kakinada,Andhra Pradesh,16.9891,82.2475,41.2,39,0.0,1002.6,9.0,38.2,105,51.5,39.6,2.7,285.0,165.0,5.8,0,5,7,1,2026-05-26T13:22:50.912087+05:30
Tirupati,Andhra Pradesh,13.6288,79.4192,39.7,33,0.0,988.7,9.1,33.8,89,33.9,24.3,0.8,155.0,145.0,3.6,0,5,10,1,2026-05-26T13:22:50.912093+05:30
Warangal,Telangana,17.9689,79.5941,40.8,26,0.0,976.4,9.1,38.2,96,49.7,29.7,1.3,208.0,146.0,6.7,0,5,10,1,2026-05-26T13:22:50.912100+05:30
Nizamabad,Telangana,18.6725,78.0941,40.0,27,0.0,963.8,9.1,34.9,82,49.8,26.4,0.9,155.0,123.0,2.5,0,5,10,1,2026-05-26T13:22:50.912107+05:30
Mysore,Karnataka,12.2958,76.6396,32.8,47,0.0,929.7,9.1,53.6,60,22.8,17.1,1.6,185.0,130.0,2.4,0,5,7,1,2026-05-26T13:22:50.912113+05:30
Mangalore,Karnataka,12.9141,74.856,30.6,74,0.0,1007.4,7.55,27.4,66,15.1,10.2,1.0,156.0,83.0,1.9,3,5,4,1,2026-05-26T13:22:50.912121+05:30
Hubli-Dharwad,Karnataka,15.3647,75.124,34.1,47,0.0,942.1,9.0,52.6,30,14.6,9.5,1.1,149.0,96.0,1.1,0,5,7,1,2026-05-26T13:22:50.912128+05:30
Belgaum,Karnataka,15.8497,74.4977,33.5,47,0.0,927.2,9.05,55.4,25,12.6,8.3,1.0,133.0,88.0,1.5,0,5,7,1,2026-05-26T13:22:54.171528+05:30
Coimbatore,Tamil Nadu,11.0168,76.9558,34.6,41,0.1,962.1,8.9,52.9,49,20.2,15.0,1.2,165.0,107.0,2.3,3,5,7,1,2026-05-26T13:22:54.171564+05:30
Madurai,Tamil Nadu,9.9252,78.1198,37.8,36,0.0,991.8,8.85,46.8,92,26.7,20.3,1.7,201.0,165.0,4.4,0,5,10,1,2026-05-26T13:22:54.171575+05:30
Trichy,Tamil Nadu,10.7905,78.7047,38.0,37,0.0,998.3,8.95,42.1,64,19.3,14.7,1.3,146.0,124.0,3.0,0,5,10,1,2026-05-26T13:22:54.171584+05:30
Salem,Tamil Nadu,11.6643,78.146,37.7,34,0.0,976.8,9.05,42.1,69,30.2,24.6,2.8,201.0,179.0,12.5,0,5,10,1,2026-05-26T13:22:54.171593+05:30
Tirunelveli,Tamil Nadu,8.7139,77.7567,40.1,33,0.0,1001.6,8.8,32.0,34,8.1,5.8,1.0,136.0,86.0,0.9,0,5,7,1,2026-05-26T13:22:54.171600+05:30
Vellore,Tamil Nadu,12.9165,79.1325,38.2,36,0.0,982.6,8.85,38.9,95,35.2,27.6,1.2,195.0,166.0,4.1,0,5,10,1,2026-05-26T13:22:54.171608+05:30
Erode,Tamil Nadu,11.341,77.7172,38.2,33,0.0,988.1,9.0,54.0,55,22.4,17.1,1.6,197.0,140.0,2.6,0,5,10,1,2026-05-26T13:22:54.171616+05:30
Kochi,Kerala,9.9312,76.2673,29.5,77,0.1,1010.0,8.45,27.4,58,10.0,7.3,2.0,119.0,89.0,3.2,10,0,4,1,2026-05-26T13:22:54.171624+05:30
Thiruvananthapuram,Kerala,8.5241,76.9366,29.0,79,0.0,1009.7,8.25,32.4,33,10.0,6.1,0.7,103.0,77.0,0.6,7,0,4,1,2026-05-26T13:22:54.171632+05:30
Kozhikode,Kerala,11.2588,75.7804,30.1,76,0.1,1009.2,8.45,31.0,37,7.1,4.5,0.3,168.0,69.0,0.6,6,0,4,1,2026-05-26T13:22:54.171639+05:30
Thrissur,Kerala,10.5276,76.2144,29.1,79,0.1,1008.3,8.55,32.8,53,9.9,7.4,1.4,126.0,90.0,2.6,10,0,4,1,2026-05-26T13:22:54.171647+05:30
Kannur,Kerala,11.8745,75.3704,31.2,70,0.0,1008.0,8.65,28.4,71,12.3,8.2,0.7,161.0,75.0,1.3,3,0,4,1,2026-05-26T13:22:54.171654+05:30
Patna,Bihar,25.5941,85.1376,36.4,44,0.0,996.0,8.8,33.8,151,73.3,49.2,2.6,389.0,198.0,16.8,0,5,10,1,2026-05-26T13:22:54.171661+05:30
Gaya,Bihar,24.7914,85.0002,40.0,26,0.0,988.8,8.9,33.1,152,66.1,46.8,2.0,367.0,210.0,13.9,0,5,10,1,2026-05-26T13:22:54.171668+05:30
Muzaffarpur,Bihar,26.1209,85.3647,33.8,56,0.0,996.6,8.8,33.8,151,74.7,49.5,2.4,319.0,185.0,15.2,0,5,7,1,2026-05-26T13:22:54.171675+05:30
Bhagalpur,Bihar,25.2425,87.0117,35.5,50,0.0,997.0,8.8,34.9,97,38.6,31.8,5.0,335.0,157.0,19.4,0,5,10,1,2026-05-26T13:22:54.171682+05:30
Ranchi,Jharkhand,23.3441,85.3096,36.8,25,0.0,936.0,9.05,33.5,113,59.6,31.9,1.4,171.0,179.0,10.9,0,5,10,0,2026-05-26T13:22:54.171689+05:30
Jamshedpur,Jharkhand,22.8046,86.2029,40.0,31,0.0,986.4,9.05,24.1,120,83.8,61.2,2.9,278.0,233.0,24.0,0,5,10,1,2026-05-26T13:22:54.171696+05:30
Dhanbad,Jharkhand,23.7957,86.4304,37.8,43,0.0,975.9,9.05,29.5,156,77.8,56.0,8.1,220.0,252.0,45.8,0,5,10,1,2026-05-26T13:22:54.171704+05:30
Bokaro,Jharkhand,23.6693,86.1511,38.1,40,0.0,979.7,9.05,25.9,155,51.3,28.5,7.5,238.0,195.0,33.8,0,5,10,1,2026-05-26T13:22:54.171711+05:30
Bhubaneswar,Odisha,20.2961,85.8245,38.3,51,0.0,998.0,9.1,38.5,101,60.3,47.6,2.0,240.0,156.0,10.4,0,5,10,1,2026-05-26T13:22:54.171718+05:30
Cuttack,Odisha,20.4625,85.8828,37.2,56,0.0,999.6,9.15,34.6,101,60.3,47.6,2.0,256.0,156.0,10.4,0,5,10,1,2026-05-26T13:22:54.171724+05:30
Rourkela,Odisha,22.2604,84.8536,42.3,19,0.0,980.8,9.0,42.1,124,85.4,59.5,1.8,273.0,220.0,14.9,0,5,10,0,2026-05-26T13:22:54.171731+05:30
Raipur,Chhattisgarh,21.2514,81.6296,43.1,14,0.0,971.5,8.95,36.7,126,81.5,31.2,3.7,136.0,142.0,17.5,0,5,10,0,2026-05-26T13:22:54.171738+05:30
Bhilai,Chhattisgarh,21.1938,81.3509,42.3,15,0.0,971.9,8.95,39.6,116,67.1,26.3,4.1,102.0,135.0,16.7,0,5,10,0,2026-05-26T13:22:54.171744+05:30
Guwahati,Assam,26.1158,91.7086,30.2,63,0.0,998.6,8.75,24.1,68,26.1,15.3,0.9,272.0,130.0,3.0,3,5,7,1,2026-05-26T13:22:54.171752+05:30
Agartala,Tripura,23.8315,91.2868,28.5,86,0.1,1004.3,8.8,37.1,78,28.0,20.3,3.2,197.0,114.0,2.2,10,5,4,1,2026-05-26T13:22:54.171759+05:30
Shillong,Meghalaya,25.5788,91.8933,24.6,60,0.0,857.4,9.0,39.6,45,23.5,11.2,1.0,208.0,120.0,2.9,0,5,7,1,2026-05-26T13:22:54.171765+05:30
Imphal,Manipur,24.817,93.9368,26.6,67,0.0,922.6,7.35,27.0,75,22.5,11.5,0.8,183.0,101.0,1.8,7,5,7,1,2026-05-26T13:22:54.171772+05:30
Aizawl,Mizoram,23.7271,92.7176,24.4,72,0.0,893.4,9.05,33.8,52,44.5,20.1,0.4,155.0,101.0,2.5,3,5,7,1,2026-05-26T13:22:54.171780+05:30
Kohima,Nagaland,25.6701,94.1077,25.2,64,0.0,855.8,8.1,38.9,50,15.2,7.3,0.5,197.0,108.0,2.2,7,5,7,1,2026-05-26T13:22:54.171787+05:30
Gangtok,Sikkim,27.3314,88.6138,19.8,77,0.2,836.6,9.2,35.3,98,58.0,24.7,0.6,248.0,148.0,4.0,6,5,7,0,2026-05-26T13:22:54.171794+05:30
Siliguri,West Bengal,26.7271,88.3953,29.4,66,0.0,990.5,8.7,30.2,149,59.8,33.4,1.4,325.0,156.0,5.9,7,5,7,1,2026-05-26T13:22:57.430196+05:30
Durgapur,West Bengal,23.5204,87.3119,35.5,62,0.0,990.5,9.0,32.4,152,104.8,89.6,10.7,936.0,286.0,64.3,3,5,10,1,2026-05-26T13:22:57.430233+05:30
Asansol,West Bengal,23.6739,86.9524,35.6,57,0.0,989.3,9.0,29.9,151,101.7,85.0,9.2,398.0,283.0,56.1,0,5,10,1,2026-05-26T13:22:57.430245+05:30
Pondicherry,Puducherry,11.9139,79.8145,37.0,44,0.0,1006.3,8.7,45.0,72,34.9,29.7,4.9,308.0,182.0,14.3,0,5,7,1,2026-05-26T13:22:57.430253+05:30
Port Blair,Andaman and Nicobar Islands,11.6234,92.7265,26.0,95,0.3,1007.9,7.55,31.7,32,12.2,7.2,0.4,110.0,69.0,0.4,10,5,4,1,2026-05-26T13:22:57.430262+05:30
Haridwar,Uttarakhand,29.9457,78.1642,38.7,16,0.0,970.1,7.55,40.7,113,18.3,11.2,0.9,259.0,170.0,4.0,0,5,10,0,2026-05-26T13:22:57.430271+05:30
Rishikesh,Uttarakhand,30.0869,78.2676,38.1,16,0.0,963.1,7.65,32.8,103,25.7,12.3,0.6,215.0,165.0,3.1,0,5,10,0,2026-05-26T13:22:57.430279+05:30
Nainital,Uttarakhand,29.3919,79.4542,22.9,35,0.0,807.4,8.5,46.8,108,104.3,38.6,1.1,233.0,189.0,8.9,0,5,7,0,2026-05-26T13:22:57.430286+05:30
Mussoorie,Uttarakhand,30.4599,78.0664,24.5,22,0.0,805.3,8.05,56.5,92,27.1,12.6,0.8,162.0,162.0,2.8,0,5,7,0,2026-05-26T13:22:57.430293+05:30
Dharamshala,Himachal Pradesh,32.219,76.3234,27.9,26,0.0,869.9,8.45,43.6,50,14.1,5.9,0.4,150.0,159.0,1.1,4,5,7,0,2026-05-26T13:22:57.430301+05:30
Dalhousie,Himachal Pradesh,32.5387,75.971,24.5,26,0.0,807.3,8.65,40.7,50,18.0,8.7,0.8,157.0,167.0,1.9,0,5,7,0,2026-05-26T13:22:57.430309+05:30
Patiala,Punjab,30.3398,76.3869,41.1,10,0.0,974.7,7.65,48.6,192,426.5,49.5,1.1,164.0,172.0,6.2,0,5,10,0,2026-05-26T13:22:57.430316+05:30
Bhatinda,Punjab,30.211,74.9455,42.1,13,0.0,980.0,8.25,33.1,83,28.9,13.9,2.0,166.0,177.0,11.6,0,5,10,0,2026-05-26T13:22:57.430323+05:30
Rohtak,Haryana,28.8955,76.6066,41.2,14,0.0,978.4,7.75,35.3,678,391.2,60.3,1.0,193.0,177.0,6.3,0,5,10,0,2026-05-26T13:22:57.430330+05:30
Panipat,Haryana,29.3909,76.9635,41.0,12,0.0,976.8,7.6,43.6,1134,1058.0,114.6,1.9,159.0,174.0,10.2,0,5,10,0,2026-05-26T13:22:57.430337+05:30
Mathura,Uttar Pradesh,27.4924,77.6737,43.1,10,0.0,983.3,8.0,33.8,615,338.1,57.3,1.3,197.0,179.0,10.1,0,5,10,0,2026-05-26T13:22:57.430343+05:30
Vrindavan,Uttar Pradesh,27.5823,77.7027,42.5,11,0.0,983.7,8.0,32.8,615,338.1,57.3,1.3,204.0,179.0,10.1,0,5,10,0,2026-05-26T13:22:57.430350+05:30
Ayodhya,Uttar Pradesh,26.7922,82.1998,37.2,41,0.0,990.9,8.35,37.4,160,122.5,63.6,1.7,373.0,194.0,11.7,0,5,10,1,2026-05-26T13:22:57.430357+05:30
Ratlam,Madhya Pradesh,23.3315,75.0367,38.2,26,0.0,954.7,8.55,41.8,56,59.4,26.5,0.7,129.0,111.0,6.3,0,5,10,0,2026-05-26T13:22:57.430363+05:30
Sagar,Madhya Pradesh,23.8388,78.7378,42.0,12,0.0,948.8,8.75,42.8,62,82.4,25.8,0.6,134.0,115.0,3.0,0,5,10,0,2026-05-26T13:22:57.430369+05:30
Satna,Madhya Pradesh,24.6005,80.8322,42.2,14,0.0,968.0,8.8,46.1,66,145.8,43.0,0.7,140.0,132.0,5.6,0,5,10,0,2026-05-26T13:22:57.430376+05:30
Akola,Maharashtra,20.7002,77.0082,40.2,30,0.0,973.8,8.1,42.1,64,23.1,13.4,1.2,141.0,120.0,6.9,0,5,10,1,2026-05-26T13:22:57.430384+05:30
Amravati,Maharashtra,20.9374,77.7796,41.1,24,0.0,965.8,8.85,42.5,68,27.0,15.2,1.5,150.0,129.0,8.2,0,5,10,1,2026-05-26T13:22:57.430410+05:30
Latur,Maharashtra,18.4088,76.5604,35.8,37,0.0,940.4,8.8,29.2,82,31.4,19.3,0.9,149.0,132.0,4.6,0,5,10,1,2026-05-26T13:22:57.430418+05:30
Nanded,Maharashtra,19.1383,77.3091,40.1,27,0.0,967.6,8.8,33.8,79,35.9,20.0,0.9,153.0,119.0,2.4,0,5,10,1,2026-05-26T13:22:57.430425+05:30
Gulbarga,Karnataka,17.3297,76.8343,36.7,39,0.0,958.6,7.9,37.4,64,25.0,17.2,1.5,167.0,143.0,6.5,0,5,10,1,2026-05-26T13:22:57.430431+05:30
Bidar,Karnataka,17.9104,77.5199,36.3,35,0.0,935.9,8.9,33.1,79,41.1,24.6,1.2,161.0,141.0,5.5,0,5,10,1,2026-05-26T13:22:57.430438+05:30
Hospet,Karnataka,15.2689,76.3909,33.8,54,0.0,956.4,8.35,69.1,46,14.5,10.0,1.3,164.0,110.0,3.0,0,5,7,1,2026-05-26T13:22:57.430445+05:30
Tirupur,Tamil Nadu,11.1085,77.3411,38.5,32,0.0,974.7,8.9,59.0,58,22.5,17.1,1.6,155.0,132.0,3.0,0,5,10,1,2026-05-26T13:22:57.430452+05:30
Alappuzha,Kerala,9.4981,76.3388,27.2,88,0.1,1010.4,8.5,28.8,46,9.3,6.4,1.4,105.0,83.0,1.5,10,0,4,1,2026-05-26T13:22:57.430459+05:30
Munnar,Kerala,10.0889,77.0595,20.7,86,0.1,858.7,9.2,27.7,43,19.3,12.4,1.0,132.0,94.0,1.7,6,5,7,1,2026-05-26T13:22:57.430467+05:30
Silchar,Assam,24.8333,92.7789,29.5,69,0.0,1003.9,8.9,30.2,65,15.4,9.2,0.9,196.0,103.0,2.8,7,5,4,1,2026-05-26T13:22:57.430473+05:30
Dibrugarh,Assam,27.4728,94.912,27.1,76,0.0,993.9,8.2,20.9,95,58.3,28.3,0.7,215.0,130.0,2.3,7,5,7,1,2026-05-26T13:22:57.430481+05:30
