city,state,latitude,longitude,temp,humidity,rain,pressure,uv_index,wind_gusts,aqi,pm10,pm2_5,mosquito_risk,arthritis_risk,migraine_risk,frizz_risk,updated_at
Delhi,Delhi,28.6139,77.209,21.7,65,0.0,986.0,6.0,25.2,172,256.1,143.4,3,5,3,0,2026-03-08T02:55:05.632723+05:30
Mumbai,Maharashtra,19.076,72.8777,27.1,77,0.0,1008.7,7.5,24.1,98,36.6,33.3,7,0,4,1,2026-03-08T02:55:05.632761+05:30
Bangalore,Karnataka,12.9716,77.5946,21.3,68,0.0,911.3,9.25,25.9,107,46.1,41.1,3,5,7,0,2026-03-08T02:55:05.632776+05:30
Hyderabad,Telangana,17.385,78.4867,22.7,58,0.0,953.0,8.55,25.9,97,51.0,41.8,0,5,7,0,2026-03-08T02:55:05.632786+05:30
Chennai,Tamil Nadu,13.0827,80.2707,25.8,83,0.0,1008.3,8.95,33.5,82,26.9,18.7,7,0,4,1,2026-03-08T02:55:05.632795+05:30
Kolkata,West Bengal,22.5726,88.3639,23.2,96,0.0,1009.2,7.65,15.1,148,60.1,51.6,3,0,4,1,2026-03-08T02:55:05.632804+05:30
Pune,Maharashtra,18.5204,73.8567,22.4,49,0.0,948.6,8.1,28.4,100,59.1,57.9,0,5,7,0,2026-03-08T02:55:05.632816+05:30
Ahmedabad,Gujarat,23.0225,72.5714,22.3,55,0.0,1004.1,7.35,19.1,104,55.5,48.5,0,5,4,0,2026-03-08T02:55:05.632825+05:30
Jaipur,Rajasthan,26.9124,75.7873,24.1,45,0.0,962.5,6.8,25.6,85,60.8,43.5,0,5,7,0,2026-03-08T02:55:05.632832+05:30
Lucknow,Uttar Pradesh,26.8467,80.9462,22.5,76,0.0,996.6,6.5,19.4,173,198.4,170.4,3,5,7,1,2026-03-08T02:55:05.632840+05:30
Kanpur,Uttar Pradesh,26.4499,80.3319,21.1,84,0.0,994.7,6.5,16.9,165,164.8,129.9,3,5,7,1,2026-03-08T02:55:05.632846+05:30
Chandigarh,Chandigarh,30.7333,76.7794,21.0,72,0.0,971.8,5.9,30.6,158,81.3,72.6,3,5,3,0,2026-03-08T02:55:05.632854+05:30
Srinagar,Jammu and Kashmir,34.0837,74.7973,7.5,74,0.0,844.4,6.8,14.8,119,82.2,71.7,3,5,7,0,2026-03-08T02:55:05.632861+05:30
Jammu,Jammu and Kashmir,32.7266,74.857,18.8,69,0.0,976.5,6.3,29.9,138,45.2,41.9,3,5,7,0,2026-03-08T02:55:05.632868+05:30
Amritsar,Punjab,31.634,74.8723,19.9,86,0.0,984.3,6.1,23.8,155,148.5,111.3,3,10,7,1,2026-03-08T02:55:05.632875+05:30
Ludhiana,Punjab,30.901,75.8573,21.4,72,0.0,982.1,6.15,27.7,174,173.2,139.7,3,5,7,1,2026-03-08T02:55:05.632882+05:30
Jalandhar,Punjab,31.326,75.5762,19.9,84,0.0,983.3,6.2,27.4,169,178.8,142.0,3,10,7,1,2026-03-08T02:55:05.632891+05:30
Dehradun,Uttarakhand,30.6284,78.0322,13.4,72,0.0,831.4,6.3,37.1,102,40.3,33.6,3,5,7,0,2026-03-08T02:55:05.632898+05:30
Shimla,Himachal Pradesh,31.1048,77.1734,11.9,76,0.0,785.6,6.35,52.2,129,69.2,57.3,3,5,7,0,2026-03-08T02:55:05.632905+05:30
Manali,Himachal Pradesh,32.2396,77.1887,15.7,43,0.0,823.6,7.55,27.4,52,8.3,5.1,0,5,7,0,2026-03-08T02:55:05.632912+05:30
Gurgaon,Haryana,28.4595,77.0266,20.1,67,0.0,984.4,6.1,22.7,178,210.0,118.7,3,5,7,0,2026-03-08T02:55:05.632919+05:30
Noida,Uttar Pradesh,28.5355,77.391,20.6,75,0.0,987.5,6.0,24.8,178,210.0,118.7,3,5,3,0,2026-03-08T02:55:05.632925+05:30
Ghaziabad,Uttar Pradesh,28.6692,77.4538,20.2,79,0.0,985.7,6.0,24.1,174,281.3,158.3,3,5,3,1,2026-03-08T02:55:05.632931+05:30
Faridabad,Haryana,28.4089,77.3178,19.3,71,0.0,986.8,6.05,22.0,178,210.0,118.7,3,5,7,0,2026-03-08T02:55:05.632938+05:30
Meerut,Uttar Pradesh,28.9845,77.7064,20.4,81,0.0,984.4,5.85,28.4,174,281.3,158.3,3,5,3,1,2026-03-08T02:55:05.632944+05:30
Agra,Uttar Pradesh,27.1767,78.0081,19.7,82,0.0,990.8,6.35,19.4,164,195.1,79.2,3,10,7,1,2026-03-08T02:55:05.632951+05:30
Varanasi,Uttar Pradesh,25.3176,82.9739,22.0,82,0.0,1000.5,7.2,13.0,175,136.0,124.3,3,5,4,1,2026-03-08T02:55:05.632962+05:30
Prayagraj,Uttar Pradesh,25.4358,81.8463,21.3,85,0.0,998.9,7.05,12.6,172,130.4,120.6,3,5,7,1,2026-03-08T02:55:05.632970+05:30
Gorakhpur,Uttar Pradesh,26.7606,83.3732,21.0,85,0.0,1000.2,6.9,17.3,173,122.9,115.3,3,5,4,1,2026-03-08T02:55:05.632978+05:30
Bareilly,Uttar Pradesh,28.367,79.4304,21.0,86,0.0,989.8,6.2,20.2,165,110.1,96.4,3,5,7,1,2026-03-08T02:55:05.632985+05:30
Aligarh,Uttar Pradesh,27.8974,78.088,19.7,87,0.0,988.7,6.15,22.3,171,199.3,102.9,3,10,7,1,2026-03-08T02:55:05.632991+05:30
Moradabad,Uttar Pradesh,28.8386,78.7733,20.7,85,0.0,986.6,6.05,23.8,172,149.0,130.4,3,5,7,1,2026-03-08T02:55:05.632997+05:30
Saharanpur,Uttar Pradesh,29.9637,77.546,19.1,90,0.0,978.7,5.65,35.3,168,139.2,119.7,3,10,3,1,2026-03-08T02:55:05.633004+05:30
Jhansi,Uttar Pradesh,25.4484,78.5685,20.8,60,0.0,980.5,6.95,24.8,110,107.8,46.2,0,5,7,0,2026-03-08T02:55:08.918767+05:30
Surat,Gujarat,21.1702,72.8311,24.5,69,0.0,1007.8,7.2,23.8,155,67.5,65.7,3,5,4,1,2026-03-08T02:55:08.918799+05:30
Vadodara,Gujarat,22.3072,73.1812,23.2,61,0.0,1005.7,7.35,17.6,151,53.0,50.3,3,5,4,0,2026-03-08T02:55:08.918811+05:30
Rajkot,Gujarat,22.3039,70.8022,22.3,60,0.0,996.6,7.2,22.3,76,64.3,26.4,0,5,7,0,2026-03-08T02:55:08.918818+05:30
Thane,Maharashtra,19.2183,72.9781,24.4,80,0.0,1008.2,7.5,32.0,98,36.6,33.3,3,0,4,1,2026-03-08T02:55:08.918825+05:30
Nagpur,Maharashtra,21.1458,79.0882,22.5,54,0.0,974.1,7.9,24.1,67,31.4,19.9,0,5,7,0,2026-03-08T02:55:08.918833+05:30
Nashik,Maharashtra,19.9975,73.7898,23.6,58,0.0,946.3,7.7,27.7,98,38.6,37.7,0,5,7,0,2026-03-08T02:55:08.918839+05:30
Aurangabad,Maharashtra,19.8762,75.3433,23.2,52,0.0,944.3,8.2,29.2,83,43.5,41.6,0,5,7,0,2026-03-08T02:55:08.918845+05:30
Solapur,Maharashtra,17.6599,75.9064,23.7,58,0.0,956.4,8.45,18.4,68,27.0,23.2,0,5,7,0,2026-03-08T02:55:08.918853+05:30
Kolhapur,Maharashtra,16.705,74.2433,19.0,61,0.0,947.2,8.6,28.1,143,67.5,66.6,3,5,7,0,2026-03-08T02:55:08.918860+05:30
Goa,Goa,15.2993,74.124,24.8,92,0.0,997.6,8.65,35.6,145,61.9,59.8,3,5,7,1,2026-03-08T02:55:08.918866+05:30
Jodhpur,Rajasthan,26.2389,73.0243,24.7,39,0.0,985.8,7.05,18.4,63,109.2,23.3,0,5,7,0,2026-03-08T02:55:08.918873+05:30
Udaipur,Rajasthan,24.5854,73.7125,19.0,52,0.0,948.9,7.7,21.2,46,14.9,12.9,0,5,7,0,2026-03-08T02:55:08.918879+05:30
Kota,Rajasthan,25.2138,75.8648,19.1,65,0.0,980.8,7.05,13.0,91,47.5,44.5,3,5,7,0,2026-03-08T02:55:08.918886+05:30
Bikaner,Rajasthan,28.0229,73.3119,23.9,52,0.0,984.7,6.8,15.8,55,31.1,11.4,0,5,7,0,2026-03-08T02:55:08.918893+05:30
Ajmer,Rajasthan,26.4499,74.6399,22.0,35,0.0,957.0,7.05,18.0,69,37.0,35.6,0,5,7,0,2026-03-08T02:55:08.918899+05:30
Gwalior,Madhya Pradesh,26.2183,78.1828,21.1,67,0.0,986.0,6.65,22.7,113,150.9,46.6,3,5,7,0,2026-03-08T02:55:08.918906+05:30
Indore,Madhya Pradesh,22.7196,75.8577,19.1,62,0.0,949.0,7.65,22.3,83,34.2,30.4,3,5,7,0,2026-03-08T02:55:08.918913+05:30
Bhopal,Madhya Pradesh,23.2599,77.4126,21.6,50,0.0,954.9,7.5,22.0,67,47.6,26.8,0,5,7,0,2026-03-08T02:55:08.918919+05:30
Jabalpur,Madhya Pradesh,23.1815,79.9864,20.9,72,0.0,963.2,7.6,24.8,94,65.0,46.9,3,5,7,0,2026-03-08T02:55:08.918926+05:30
Ujjain,Madhya Pradesh,23.1765,75.7885,20.9,55,0.0,955.3,7.55,19.8,90,49.5,47.1,0,5,7,0,2026-03-08T02:55:08.918933+05:30
Visakhapatnam,Andhra Pradesh,17.6868,83.2185,25.6,86,0.0,1005.5,8.5,38.5,124,39.3,32.8,7,5,4,1,2026-03-08T02:55:08.918940+05:30
Vijayawada,Andhra Pradesh,16.5062,80.648,24.8,91,0.0,1003.8,8.6,33.5,128,32.0,27.6,3,5,4,1,2026-03-08T02:55:08.918947+05:30
Guntur,Andhra Pradesh,16.3067,80.4365,24.7,91,0.0,1004.8,8.6,28.8,129,29.5,25.7,3,5,4,1,2026-03-08T02:55:08.918954+05:30
Nellore,Andhra Pradesh,14.4426,79.9865,24.7,89,0.0,1006.8,8.8,32.0,103,22.6,18.7,3,5,4,1,2026-03-08T02:55:08.918961+05:30
Kurnool,Andhra Pradesh,15.8281,78.0373,25.4,60,0.0,976.7,8.6,28.8,73,41.8,35.7,4,5,7,1,2026-03-08T02:55:08.918968+05:30
Kakinada,Andhra Pradesh,16.9891,82.2475,25.3,86,0.0,1009.1,8.55,33.1,96,35.6,26.8,7,0,4,1,2026-03-08T02:55:08.918975+05:30
Tirupati,Andhra Pradesh,13.6288,79.4192,22.7,91,0.0,992.8,8.95,28.1,133,37.0,33.9,3,5,7,1,2026-03-08T02:55:08.918981+05:30
Warangal,Telangana,17.9689,79.5941,22.9,89,0.0,979.1,8.35,27.4,96,44.7,41.3,3,5,7,1,2026-03-08T02:55:08.918988+05:30
Nizamabad,Telangana,18.6725,78.0941,21.1,60,0.0,964.4,8.25,29.5,102,46.2,33.5,0,5,7,0,2026-03-08T02:55:08.918994+05:30
Mysore,Karnataka,12.2958,76.6396,21.9,93,0.0,928.1,9.25,32.8,113,53.4,51.5,3,5,7,1,2026-03-08T02:55:08.919001+05:30
Mangalore,Karnataka,12.9141,74.856,28.2,81,0.0,1006.3,8.85,24.8,145,51.1,46.2,7,5,4,1,2026-03-08T02:55:08.919007+05:30
Hubli-Dharwad,Karnataka,15.3647,75.124,20.6,94,0.0,939.9,8.8,28.1,121,47.1,46.0,3,5,7,1,2026-03-08T02:55:08.919014+05:30
Belgaum,Karnataka,15.8497,74.4977,20.7,80,0.0,924.8,8.85,38.9,113,64.5,62.9,3,5,7,1,2026-03-08T02:55:12.201159+05:30
Coimbatore,Tamil Nadu,11.0168,76.9558,23.0,89,0.0,961.7,9.2,34.2,98,39.8,39.0,3,5,7,1,2026-03-08T02:55:12.201187+05:30
Madurai,Tamil Nadu,9.9252,78.1198,24.3,96,0.0,993.4,9.15,32.4,96,43.3,39.7,3,5,7,1,2026-03-08T02:55:12.201197+05:30
Trichy,Tamil Nadu,10.7905,78.7047,24.6,95,0.0,1000.6,9.05,26.6,92,39.2,35.2,3,5,4,1,2026-03-08T02:55:12.201204+05:30
Salem,Tamil Nadu,11.6643,78.146,25.0,82,0.0,978.0,9.1,18.7,101,41.3,37.7,7,5,7,1,2026-03-08T02:55:12.201212+05:30
Tirunelveli,Tamil Nadu,8.7139,77.7567,24.2,84,0.0,1003.1,9.15,45.7,99,46.2,44.7,3,5,4,1,2026-03-08T02:55:12.201219+05:30
Vellore,Tamil Nadu,12.9165,79.1325,22.1,95,0.0,985.6,9.05,38.5,138,54.8,51.2,3,5,7,1,2026-03-08T02:55:12.201225+05:30
Erode,Tamil Nadu,11.341,77.7172,26.1,80,0.0,989.5,9.1,20.2,106,32.8,30.5,7,5,7,1,2026-03-08T02:55:12.201232+05:30
Kochi,Kerala,9.9312,76.2673,27.0,86,0.0,1008.5,8.9,36.0,112,33.8,33.5,7,0,4,1,2026-03-08T02:55:12.201239+05:30
Thiruvananthapuram,Kerala,8.5241,76.9366,27.2,85,0.0,1007.6,9.05,30.2,96,29.5,27.8,7,5,4,1,2026-03-08T02:55:12.201245+05:30
Kozhikode,Kerala,11.2588,75.7804,28.0,84,0.0,1007.5,8.9,30.6,123,42.5,39.1,7,5,4,1,2026-03-08T02:55:12.201252+05:30
Thrissur,Kerala,10.5276,76.2144,25.4,94,0.0,1007.1,9.0,38.9,112,34.0,33.4,7,5,4,1,2026-03-08T02:55:12.201259+05:30
Kannur,Kerala,11.8745,75.3704,27.2,85,0.0,1006.7,8.9,29.9,141,54.4,51.6,7,5,4,1,2026-03-08T02:55:12.201265+05:30
Patna,Bihar,25.5941,85.1376,23.4,79,0.0,1003.5,7.35,12.2,163,112.9,104.3,3,5,4,1,2026-03-08T02:55:12.201271+05:30
Gaya,Bihar,24.7914,85.0002,23.4,78,0.0,996.4,7.45,19.8,155,73.6,66.8,3,5,7,1,2026-03-08T02:55:12.201277+05:30
Muzaffarpur,Bihar,26.1209,85.3647,22.6,81,0.0,1003.6,7.3,14.4,170,130.9,122.5,3,5,4,1,2026-03-08T02:55:12.201284+05:30
Bhagalpur,Bihar,25.2425,87.0117,22.9,76,0.0,1004.2,7.4,15.8,161,82.9,71.9,3,5,4,1,2026-03-08T02:55:12.201289+05:30
Ranchi,Jharkhand,23.3441,85.3096,20.9,83,0.0,939.8,8.1,20.5,154,87.1,70.5,3,5,7,1,2026-03-08T02:55:12.201295+05:30
Jamshedpur,Jharkhand,22.8046,86.2029,23.8,93,0.0,993.8,8.0,29.2,152,64.7,58.1,3,5,7,1,2026-03-08T02:55:12.201301+05:30
Dhanbad,Jharkhand,23.7957,86.4304,24.5,75,0.0,982.9,7.5,19.8,164,85.4,78.0,3,5,7,1,2026-03-08T02:55:12.201308+05:30
Bokaro,Jharkhand,23.6693,86.1511,23.2,82,0.0,986.9,7.85,27.0,168,105.7,95.5,3,5,7,1,2026-03-08T02:55:12.201314+05:30
Bhubaneswar,Odisha,20.2961,85.8245,25.6,88,0.0,1005.1,8.25,33.5,136,46.1,41.1,7,5,4,1,2026-03-08T02:55:12.201321+05:30
Cuttack,Odisha,20.4625,85.8828,25.6,88,0.0,1007.1,8.3,30.6,136,46.1,41.1,7,5,4,1,2026-03-08T02:55:12.201327+05:30
Rourkela,Odisha,22.2604,84.8536,25.0,82,0.0,987.3,7.9,33.1,160,68.7,60.5,7,5,7,1,2026-03-08T02:55:12.201334+05:30
Raipur,Chhattisgarh,21.2514,81.6296,24.2,59,0.0,975.7,8.0,21.2,153,88.9,67.8,0,5,7,0,2026-03-08T02:55:12.201357+05:30
Bhilai,Chhattisgarh,21.1938,81.3509,22.6,64,0.0,975.9,8.0,20.5,147,76.8,57.0,3,5,7,0,2026-03-08T02:55:12.201364+05:30
Guwahati,Assam,26.1158,91.7086,22.0,82,0.0,1004.5,7.35,23.8,150,56.5,50.6,3,5,4,1,2026-03-08T02:55:12.201371+05:30
Agartala,Tripura,23.8315,91.2868,20.7,95,0.0,1010.1,7.65,25.2,152,55.6,52.0,3,0,4,1,2026-03-08T02:55:12.201378+05:30
Shillong,Meghalaya,25.5788,91.8933,11.3,73,0.0,856.6,7.7,36.7,105,45.8,40.2,3,5,7,0,2026-03-08T02:55:12.201384+05:30
Imphal,Manipur,24.817,93.9368,17.3,85,0.0,926.3,7.9,43.6,160,109.7,106.2,3,10,7,0,2026-03-08T02:55:12.201391+05:30
Aizawl,Mizoram,23.7271,92.7176,16.7,79,0.0,894.7,7.85,29.9,182,147.1,139.7,3,5,7,0,2026-03-08T02:55:12.201397+05:30
Kohima,Nagaland,25.6701,94.1077,14.8,84,0.0,857.1,7.75,42.5,155,91.7,87.8,3,10,7,0,2026-03-08T02:55:12.201404+05:30
Gangtok,Sikkim,27.3314,88.6138,13.7,80,0.0,839.0,5.15,18.4,153,69.6,62.4,3,5,3,0,2026-03-08T02:55:12.201410+05:30
Siliguri,West Bengal,26.7271,88.3953,21.6,54,0.0,997.2,7.3,20.9,152,81.0,70.8,0,5,7,0,2026-03-08T02:55:15.493412+05:30
Durgapur,West Bengal,23.5204,87.3119,23.8,89,0.0,998.2,7.85,23.0,159,72.6,63.1,3,5,7,1,2026-03-08T02:55:15.493443+05:30
Asansol,West Bengal,23.6739,86.9524,24.5,85,0.0,996.7,7.5,21.6,158,69.4,61.0,3,5,7,1,2026-03-08T02:55:15.493457+05:30
Pondicherry,Puducherry,11.9139,79.8145,24.1,98,0.0,1009.4,8.95,34.2,76,25.0,16.8,3,0,4,1,2026-03-08T02:55:15.493464+05:30
Port Blair,Andaman and Nicobar Islands,11.6234,92.7265,26.9,74,0.0,1008.5,8.9,21.6,94,42.8,27.7,7,0,4,1,2026-03-08T02:55:15.493472+05:30
Haridwar,Uttarakhand,29.9457,78.1642,21.2,89,0.0,977.5,5.8,27.0,161,92.2,82.9,3,5,3,1,2026-03-08T02:55:15.493478+05:30
Rishikesh,Uttarakhand,30.0869,78.2676,21.2,81,0.0,970.3,5.85,23.4,160,93.8,79.4,3,5,3,1,2026-03-08T02:55:15.493485+05:30
Nainital,Uttarakhand,29.3919,79.4542,16.8,78,0.0,807.6,6.65,61.9,160,95.0,79.9,3,5,7,0,2026-03-08T02:55:15.493492+05:30
Mussoorie,Uttarakhand,30.4599,78.0664,15.7,85,0.0,804.6,6.2,45.0,160,92.0,79.6,3,10,7,0,2026-03-08T02:55:15.493499+05:30
Dharamshala,Himachal Pradesh,32.219,76.3234,21.3,25,0.0,872.7,6.4,27.7,50,20.5,9.3,0,5,7,0,2026-03-08T02:55:15.493506+05:30
Dalhousie,Himachal Pradesh,32.5387,75.971,17.4,28,0.0,806.8,6.65,25.2,91,34.7,30.3,0,5,7,1,2026-03-08T02:55:15.493514+05:30
Patiala,Punjab,30.3398,76.3869,20.3,77,0.0,981.3,5.85,28.8,168,157.9,117.8,3,5,3,1,2026-03-08T02:55:15.493521+05:30
Bhatinda,Punjab,30.211,74.9455,19.2,83,0.0,986.7,6.5,20.2,150,145.3,66.8,3,10,7,1,2026-03-08T02:55:15.493528+05:30
Rohtak,Haryana,28.8955,76.6066,19.7,71,0.0,984.7,6.05,23.8,170,267.3,138.8,3,5,7,0,2026-03-08T02:55:15.493534+05:30
Panipat,Haryana,29.3909,76.9635,19.9,77,0.0,983.3,5.8,28.4,175,261.7,145.8,3,5,3,0,2026-03-08T02:55:15.493540+05:30
Mathura,Uttar Pradesh,27.4924,77.6737,16.8,82,0.0,989.9,6.3,22.3,165,176.5,85.0,3,10,7,0,2026-03-08T02:55:15.493547+05:30
Vrindavan,Uttar Pradesh,27.5823,77.7027,17.7,86,0.0,990.5,6.25,23.0,165,176.5,85.0,3,10,7,0,2026-03-08T02:55:15.493553+05:30
Ayodhya,Uttar Pradesh,26.7922,82.1998,21.5,82,0.0,998.4,6.65,14.0,173,127.1,115.5,3,5,7,1,2026-03-08T02:55:15.493560+05:30
Ratlam,Madhya Pradesh,23.3315,75.0367,17.4,89,0.0,955.7,7.5,14.4,75,51.2,49.8,3,10,7,0,2026-03-08T02:55:15.493566+05:30
Sagar,Madhya Pradesh,23.8388,78.7378,20.2,60,0.0,951.8,7.45,23.4,71,66.8,28.4,0,5,7,0,2026-03-08T02:55:15.493573+05:30
Satna,Madhya Pradesh,24.6005,80.8322,20.4,77,0.0,973.7,7.4,23.8,155,103.1,85.4,3,5,7,1,2026-03-08T02:55:15.493578+05:30
Akola,Maharashtra,20.7002,77.0082,22.2,61,0.0,975.8,7.95,14.4,82,34.1,28.9,3,5,7,0,2026-03-08T02:55:15.493586+05:30
Amravati,Maharashtra,20.9374,77.7796,22.7,49,0.0,967.7,7.9,19.1,86,40.9,34.0,0,5,7,0,2026-03-08T02:55:15.493593+05:30
Latur,Maharashtra,18.4088,76.5604,24.0,42,0.0,939.8,8.4,23.8,79,50.6,42.3,0,5,7,0,2026-03-08T02:55:15.493599+05:30
Nanded,Maharashtra,19.1383,77.3091,22.0,59,0.0,968.8,8.15,23.4,90,55.8,44.6,0,5,7,0,2026-03-08T02:55:15.493605+05:30
Gulbarga,Karnataka,17.3297,76.8343,25.3,45,0.0,958.6,8.5,20.9,70,28.4,23.9,4,5,7,0,2026-03-08T02:55:15.493611+05:30
Bidar,Karnataka,17.9104,77.5199,23.0,56,0.0,935.3,8.4,26.3,81,39.0,29.3,0,5,7,0,2026-03-08T02:55:15.493617+05:30
Hospet,Karnataka,15.2689,76.3909,24.3,64,0.0,955.3,8.8,20.5,88,45.3,33.5,3,5,7,1,2026-03-08T02:55:15.493623+05:30
Tirupur,Tamil Nadu,11.1085,77.3411,25.6,84,0.0,975.4,9.25,33.5,115,39.8,38.3,7,5,7,1,2026-03-08T02:55:15.493629+05:30
Alappuzha,Kerala,9.4981,76.3388,26.9,89,0.0,1008.5,9.0,31.3,115,43.5,42.3,7,0,4,1,2026-03-08T02:55:15.493635+05:30
Munnar,Kerala,10.0889,77.0595,17.6,92,0.0,855.0,9.5,25.6,89,44.1,40.7,3,10,7,1,2026-03-08T02:55:15.493642+05:30
Silchar,Assam,24.8333,92.7789,23.2,78,0.0,1008.6,7.65,22.0,161,107.8,101.3,3,0,4,1,2026-03-08T02:55:15.493649+05:30
Dibrugarh,Assam,27.4728,94.912,23.1,83,0.0,998.9,6.7,24.1,155,67.3,62.2,3,5,7,1,2026-03-08T02:55:15.493655+05:30
