city,state,latitude,longitude,temp,humidity,rain,pressure,uv_index,wind_gusts,aqi,pm10,pm2_5,no2,co,o3,so2,mosquito_risk,arthritis_risk,migraine_risk,frizz_risk,updated_at
Delhi,Delhi,28.6139,77.209,33.0,33,0.0,974.6,7.8,41.4,461,705.9,157.4,58.7,700.0,32.0,22.3,0,5,7,0,2026-06-09T01:56:58.343016+05:30
Mumbai,Maharashtra,19.076,72.8777,29.1,82,0.0,1006.2,7.7,40.7,75,44.4,15.8,6.7,140.0,50.0,6.1,7,5,4,1,2026-06-09T01:56:58.343055+05:30
Bangalore,Karnataka,12.9716,77.5946,21.5,93,0.0,911.2,5.5,51.5,24,4.2,3.7,8.8,177.0,37.0,3.8,3,5,3,1,2026-06-09T01:56:58.343067+05:30
Hyderabad,Telangana,17.385,78.4867,26.8,72,0.0,950.4,8.5,44.3,69,22.1,17.7,12.6,225.0,63.0,8.3,7,5,7,1,2026-06-09T01:56:58.343075+05:30
Chennai,Tamil Nadu,13.0827,80.2707,32.7,47,0.0,1004.4,7.35,50.8,54,25.3,21.7,29.9,253.0,50.0,14.1,0,5,4,1,2026-06-09T01:56:58.343081+05:30
Kolkata,West Bengal,22.5726,88.3639,28.6,96,0.0,999.0,9.0,49.0,126,40.4,34.3,11.4,503.0,87.0,8.5,7,5,7,1,2026-06-09T01:56:58.343087+05:30
Pune,Maharashtra,18.5204,73.8567,25.0,86,0.0,946.3,7.7,46.1,52,15.0,7.1,7.6,133.0,48.0,6.7,7,5,7,1,2026-06-09T01:56:58.343092+05:30
Ahmedabad,Gujarat,23.0225,72.5714,31.6,63,0.0,997.9,8.1,44.3,78,54.7,25.3,4.4,147.0,63.0,3.9,3,5,7,1,2026-06-09T01:56:58.343097+05:30
Jaipur,Rajasthan,26.9124,75.7873,31.8,42,0.0,953.5,8.25,43.2,136,235.6,53.4,6.5,214.0,69.0,4.9,0,5,7,1,2026-06-09T01:56:58.343106+05:30
Lucknow,Uttar Pradesh,26.8467,80.9462,31.3,35,0.0,985.3,8.3,37.1,158,313.9,92.9,27.2,348.0,43.0,10.1,0,5,7,0,2026-06-09T01:56:58.343111+05:30
Kanpur,Uttar Pradesh,26.4499,80.3319,32.3,33,0.0,983.9,8.3,54.0,196,297.1,67.8,18.4,214.0,49.0,6.5,0,5,7,0,2026-06-09T01:56:58.343116+05:30
Chandigarh,Chandigarh,30.7333,76.7794,26.3,48,0.0,959.7,7.85,33.1,76,29.8,28.3,36.2,514.0,44.0,7.7,4,5,7,0,2026-06-09T01:56:58.343122+05:30
Srinagar,Jammu and Kashmir,34.0837,74.7973,14.4,91,0.0,835.8,9.0,37.1,79,39.1,36.3,29.9,511.0,8.0,1.7,3,10,7,0,2026-06-09T01:56:58.343127+05:30
Jammu,Jammu and Kashmir,32.7266,74.857,27.9,39,0.0,963.2,8.6,33.8,70,32.7,31.0,29.0,462.0,40.0,3.4,4,5,7,0,2026-06-09T01:56:58.343133+05:30
Amritsar,Punjab,31.634,74.8723,32.1,35,0.0,971.2,8.45,28.1,117,71.5,62.9,67.1,634.0,21.0,14.0,0,5,7,0,2026-06-09T01:56:58.343139+05:30
Ludhiana,Punjab,30.901,75.8573,30.6,40,0.0,969.4,8.0,42.5,110,74.7,48.8,31.9,546.0,54.0,8.8,0,5,7,0,2026-06-09T01:56:58.343145+05:30
Jalandhar,Punjab,31.326,75.5762,30.2,39,0.0,970.5,8.2,30.2,99,82.0,51.6,44.9,536.0,46.0,9.6,0,5,7,0,2026-06-09T01:56:58.343150+05:30
Dehradun,Uttarakhand,30.6284,78.0322,15.3,88,0.0,824.1,8.25,42.8,55,20.1,17.3,30.1,241.0,35.0,1.3,3,10,7,0,2026-06-09T01:56:58.343157+05:30
Shimla,Himachal Pradesh,31.1048,77.1734,15.8,46,0.0,779.6,8.35,51.8,88,24.0,18.6,19.2,209.0,96.0,2.4,0,5,7,0,2026-06-09T01:56:58.343171+05:30
Manali,Himachal Pradesh,32.2396,77.1887,11.9,62,0.0,811.6,9.6,34.6,46,11.3,9.9,51.9,282.0,66.0,0.1,3,5,7,0,2026-06-09T01:56:58.343176+05:30
Gurgaon,Haryana,28.4595,77.0266,30.1,42,0.0,973.0,7.85,45.4,1004,726.4,158.8,70.3,906.0,17.0,23.6,0,5,7,0,2026-06-09T01:56:58.343187+05:30
Noida,Uttar Pradesh,28.5355,77.391,31.6,42,0.0,975.8,7.85,34.6,1004,726.4,158.8,70.3,1155.0,17.0,23.6,0,5,7,1,2026-06-09T01:56:58.343193+05:30
Ghaziabad,Uttar Pradesh,28.6692,77.4538,29.6,56,0.0,974.0,7.85,35.6,289,683.6,151.3,50.6,1066.0,43.0,25.1,4,5,7,1,2026-06-09T01:56:58.343198+05:30
Faridabad,Haryana,28.4089,77.3178,32.6,33,0.0,975.2,7.9,43.6,1004,726.4,158.8,70.3,1017.0,17.0,23.6,0,5,7,0,2026-06-09T01:56:58.343203+05:30
Meerut,Uttar Pradesh,28.9845,77.7064,28.9,64,0.0,972.8,7.75,32.0,289,683.6,151.3,50.6,596.0,43.0,25.1,7,5,7,1,2026-06-09T01:56:58.343207+05:30
Agra,Uttar Pradesh,27.1767,78.0081,32.0,33,0.0,979.4,8.15,49.0,804,478.7,118.0,67.3,402.0,0.0,14.7,0,5,7,0,2026-06-09T01:56:58.343212+05:30
Varanasi,Uttar Pradesh,25.3176,82.9739,32.6,46,0.0,989.6,8.75,40.3,127,76.6,42.7,24.3,395.0,42.0,10.4,0,5,7,1,2026-06-09T01:56:58.343217+05:30
Prayagraj,Uttar Pradesh,25.4358,81.8463,31.5,50,0.0,988.2,8.65,46.4,134,88.2,41.9,19.4,256.0,50.0,7.6,0,5,7,1,2026-06-09T01:56:58.343222+05:30
Gorakhpur,Uttar Pradesh,26.7606,83.3732,28.0,63,0.0,989.4,8.7,21.6,135,108.0,71.9,39.0,703.0,33.0,11.9,7,5,7,1,2026-06-09T01:56:58.343229+05:30
Bareilly,Uttar Pradesh,28.367,79.4304,28.4,56,0.0,978.1,8.15,24.8,152,86.6,77.3,56.6,474.0,39.0,16.8,4,5,7,1,2026-06-09T01:56:58.343233+05:30
Aligarh,Uttar Pradesh,27.8974,78.088,28.8,55,0.0,977.0,8.0,45.7,643,722.7,175.6,72.5,571.0,7.0,16.7,4,5,7,1,2026-06-09T01:56:58.343238+05:30
Moradabad,Uttar Pradesh,28.8386,78.7733,30.2,45,0.0,975.3,7.95,34.2,163,186.7,124.8,85.8,638.0,5.0,21.6,0,5,7,1,2026-06-09T01:56:58.343243+05:30
Saharanpur,Uttar Pradesh,29.9637,77.546,27.5,46,0.0,966.9,7.45,31.7,129,88.5,56.3,42.4,454.0,54.0,13.3,4,5,7,0,2026-06-09T01:56:58.343247+05:30
Jhansi,Uttar Pradesh,25.4484,78.5685,29.3,61,0.0,970.7,8.5,42.5,83,53.6,29.4,6.0,174.0,73.0,5.8,7,5,7,1,2026-06-09T01:57:01.715875+05:30
Surat,Gujarat,21.1702,72.8311,30.0,78,0.0,1003.4,7.6,52.9,78,54.9,25.9,12.8,237.0,47.0,22.5,7,5,4,1,2026-06-09T01:57:01.715907+05:30
Vadodara,Gujarat,22.3072,73.1812,31.1,69,0.0,1000.3,8.05,47.5,76,39.9,22.6,10.8,138.0,45.0,11.8,3,5,4,1,2026-06-09T01:57:01.715915+05:30
Rajkot,Gujarat,22.3039,70.8022,29.5,72,0.0,990.4,7.6,50.0,73,63.6,26.7,4.1,105.0,58.0,4.9,7,5,7,1,2026-06-09T01:57:01.715921+05:30
Thane,Maharashtra,19.2183,72.9781,28.8,81,0.0,1005.6,7.6,40.3,75,44.4,15.8,6.7,147.0,50.0,6.1,7,5,4,1,2026-06-09T01:57:01.715927+05:30
Nagpur,Maharashtra,21.1458,79.0882,31.8,54,0.0,968.7,8.9,35.3,90,63.3,39.2,20.7,182.0,58.0,14.6,0,5,7,1,2026-06-09T01:57:01.715933+05:30
Nashik,Maharashtra,19.9975,73.7898,25.0,88,0.0,943.3,8.05,48.6,62,27.8,12.7,8.5,148.0,42.0,8.0,7,5,7,1,2026-06-09T01:57:01.715938+05:30
Aurangabad,Maharashtra,19.8762,75.3433,26.8,66,0.0,941.8,8.95,47.9,69,40.6,19.6,8.3,131.0,56.0,9.7,7,5,7,1,2026-06-09T01:57:01.715944+05:30
Solapur,Maharashtra,17.6599,75.9064,27.6,69,0.0,955.1,8.0,52.6,54,10.3,7.6,7.6,152.0,46.0,2.6,7,5,7,1,2026-06-09T01:57:01.715950+05:30
Kolhapur,Maharashtra,16.705,74.2433,23.1,91,0.0,946.7,4.55,42.8,25,5.8,4.4,4.8,128.0,49.0,2.1,3,5,3,1,2026-06-09T01:57:01.715956+05:30
Goa,Goa,15.2993,74.124,24.9,97,0.0,997.8,0.95,33.1,31,8.8,6.0,5.8,331.0,47.0,0.9,3,5,3,1,2026-06-09T01:57:01.715962+05:30
Jodhpur,Rajasthan,26.2389,73.0243,33.4,48,0.0,976.7,8.45,45.7,151,179.7,48.2,4.2,148.0,65.0,2.1,0,5,7,1,2026-06-09T01:57:01.715968+05:30
Udaipur,Rajasthan,24.5854,73.7125,29.2,53,0.0,942.5,8.85,42.1,78,42.3,24.9,6.5,168.0,62.0,6.2,4,5,7,1,2026-06-09T01:57:01.715973+05:30
Kota,Rajasthan,25.2138,75.8648,32.6,50,0.0,972.6,8.4,41.4,86,36.4,24.2,5.9,163.0,79.0,7.0,0,5,7,1,2026-06-09T01:57:01.715979+05:30
Bikaner,Rajasthan,28.0229,73.3119,34.9,37,0.0,974.0,8.45,40.0,151,206.8,67.8,2.5,122.0,74.0,4.4,0,5,7,1,2026-06-09T01:57:01.715984+05:30
Ajmer,Rajasthan,26.4499,74.6399,30.6,56,0.0,948.9,8.4,51.8,91,43.9,22.4,4.3,139.0,74.0,3.9,0,5,7,1,2026-06-09T01:57:01.715990+05:30
Gwalior,Madhya Pradesh,26.2183,78.1828,31.8,34,0.0,975.6,8.3,50.4,94,52.6,27.1,10.9,152.0,52.0,3.4,0,5,7,0,2026-06-09T01:57:01.715996+05:30
Indore,Madhya Pradesh,22.7196,75.8577,28.1,60,0.0,944.7,8.65,48.2,87,40.7,27.4,5.8,195.0,89.0,11.6,4,5,7,1,2026-06-09T01:57:01.716002+05:30
Bhopal,Madhya Pradesh,23.2599,77.4126,30.7,49,0.0,948.9,8.7,41.4,90,48.9,32.7,11.2,354.0,55.0,5.6,0,5,7,1,2026-06-09T01:57:01.716007+05:30
Jabalpur,Madhya Pradesh,23.1815,79.9864,30.0,56,0.0,956.7,8.9,34.2,84,49.2,30.0,12.8,181.0,56.0,4.5,4,5,7,1,2026-06-09T01:57:01.716013+05:30
Ujjain,Madhya Pradesh,23.1765,75.7885,28.3,63,0.0,950.0,8.6,45.7,86,38.0,25.5,4.8,185.0,82.0,10.8,7,5,7,1,2026-06-09T01:57:01.716019+05:30
Visakhapatnam,Andhra Pradesh,17.6868,83.2185,30.2,71,0.0,998.0,8.4,39.6,88,31.2,26.1,16.7,371.0,78.0,29.0,3,5,7,1,2026-06-09T01:57:01.716024+05:30
Vijayawada,Andhra Pradesh,16.5062,80.648,31.6,56,0.0,998.7,7.7,41.0,75,30.7,25.1,10.2,224.0,67.0,5.6,0,5,7,1,2026-06-09T01:57:01.716029+05:30
Guntur,Andhra Pradesh,16.3067,80.4365,31.4,54,0.0,1000.1,4.6,40.3,68,29.7,23.4,8.9,202.0,71.0,6.0,0,5,0,1,2026-06-09T01:57:01.716035+05:30
Nellore,Andhra Pradesh,14.4426,79.9865,30.7,60,0.0,1003.1,6.55,48.6,40,17.5,15.5,11.4,146.0,60.0,4.4,0,5,4,1,2026-06-09T01:57:01.716041+05:30
Kurnool,Andhra Pradesh,15.8281,78.0373,26.1,82,0.0,975.6,6.6,45.7,52,8.6,7.2,10.9,154.0,47.0,6.7,7,5,7,1,2026-06-09T01:57:01.716046+05:30
Kakinada,Andhra Pradesh,16.9891,82.2475,30.6,61,0.0,1002.6,5.3,47.5,75,24.6,18.3,5.0,321.0,94.0,3.6,3,5,0,1,2026-06-09T01:57:01.716052+05:30
Tirupati,Andhra Pradesh,13.6288,79.4192,29.1,59,0.0,989.1,7.9,45.7,30,15.0,13.9,21.3,137.0,26.0,2.8,4,5,7,1,2026-06-09T01:57:01.716057+05:30
Warangal,Telangana,17.9689,79.5941,29.4,60,0.0,974.7,9.0,39.2,78,32.9,23.8,11.6,190.0,65.0,5.8,4,5,7,1,2026-06-09T01:57:01.716062+05:30
Nizamabad,Telangana,18.6725,78.0941,28.8,58,0.0,961.5,9.0,49.7,80,24.3,16.4,7.9,222.0,69.0,4.6,4,5,7,1,2026-06-09T01:57:01.716068+05:30
Mysore,Karnataka,12.2958,76.6396,22.1,91,0.0,928.6,7.5,55.4,22,2.6,2.4,5.8,128.0,39.0,1.8,3,5,7,1,2026-06-09T01:57:01.716073+05:30
Mangalore,Karnataka,12.9141,74.856,24.0,98,0.1,1007.9,4.15,41.8,32,8.9,5.7,4.3,177.0,44.0,1.6,6,5,0,1,2026-06-09T01:57:01.716079+05:30
Hubli-Dharwad,Karnataka,15.3647,75.124,22.0,98,0.2,939.9,2.6,42.5,21,1.5,1.1,3.4,140.0,49.0,0.7,6,5,3,1,2026-06-09T01:57:01.716084+05:30
Belgaum,Karnataka,15.8497,74.4977,21.4,99,0.0,924.5,2.6,38.9,26,3.6,2.7,3.2,116.0,53.0,1.4,3,5,3,1,2026-06-09T01:57:05.089014+05:30
Coimbatore,Tamil Nadu,11.0168,76.9558,23.5,87,0.0,961.7,5.7,50.4,20,1.8,1.7,4.4,134.0,38.0,1.8,3,5,3,1,2026-06-09T01:57:05.089044+05:30
Madurai,Tamil Nadu,9.9252,78.1198,29.5,61,0.0,992.9,7.6,69.8,26,6.3,5.3,9.4,128.0,29.0,3.7,7,5,7,1,2026-06-09T01:57:05.089053+05:30
Trichy,Tamil Nadu,10.7905,78.7047,29.0,65,0.0,999.5,3.5,68.8,20,4.9,4.5,9.0,131.0,29.0,3.7,7,5,3,1,2026-06-09T01:57:05.089061+05:30
Salem,Tamil Nadu,11.6643,78.146,26.4,75,0.0,977.5,5.65,39.2,26,9.3,8.7,16.8,172.0,23.0,8.5,7,5,3,1,2026-06-09T01:57:05.089067+05:30
Tirunelveli,Tamil Nadu,8.7139,77.7567,28.1,73,0.0,1004.2,6.35,51.5,16,4.2,3.3,5.3,153.0,30.0,1.4,7,5,4,1,2026-06-09T01:57:05.089074+05:30
Vellore,Tamil Nadu,12.9165,79.1325,29.6,58,0.0,983.0,6.85,59.0,35,6.0,4.8,7.9,126.0,46.0,3.6,4,5,7,1,2026-06-09T01:57:05.089081+05:30
Erode,Tamil Nadu,11.341,77.7172,25.9,79,0.0,988.9,6.3,58.3,19,4.7,4.4,8.9,129.0,32.0,3.2,7,5,7,1,2026-06-09T01:57:05.089088+05:30
Kochi,Kerala,9.9312,76.2673,26.6,89,0.1,1010.9,6.9,47.9,34,9.1,5.9,8.8,89.0,32.0,2.5,10,0,4,1,2026-06-09T01:57:05.089094+05:30
Thiruvananthapuram,Kerala,8.5241,76.9366,25.6,93,0.1,1010.5,7.6,57.6,30,12.1,6.2,1.4,81.0,41.0,0.4,10,0,4,1,2026-06-09T01:57:05.089100+05:30
Kozhikode,Kerala,11.2588,75.7804,24.1,97,0.3,1010.1,7.65,34.9,25,7.4,3.7,0.7,108.0,56.0,0.3,6,0,4,1,2026-06-09T01:57:05.089105+05:30
Thrissur,Kerala,10.5276,76.2144,24.6,97,0.2,1009.3,7.7,41.0,30,8.8,6.3,6.5,138.0,37.0,2.0,6,0,4,1,2026-06-09T01:57:05.089112+05:30
Kannur,Kerala,11.8745,75.3704,24.2,97,0.4,1009.0,7.65,37.1,25,7.9,4.7,4.3,110.0,48.0,1.2,6,0,4,1,2026-06-09T01:57:05.089117+05:30
Patna,Bihar,25.5941,85.1376,29.7,70,0.0,992.6,8.85,24.5,159,135.0,85.2,61.1,650.0,21.0,20.5,7,5,7,1,2026-06-09T01:57:05.089123+05:30
Gaya,Bihar,24.7914,85.0002,29.6,61,0.0,986.1,5.75,31.7,149,95.0,60.8,32.0,435.0,40.0,10.1,7,5,3,1,2026-06-09T01:57:05.089128+05:30
Muzaffarpur,Bihar,26.1209,85.3647,28.4,74,0.0,992.8,8.85,29.5,166,125.7,93.6,51.6,559.0,33.0,20.7,7,5,7,1,2026-06-09T01:57:05.089133+05:30
Bhagalpur,Bihar,25.2425,87.0117,29.7,58,0.0,993.7,8.85,32.0,152,91.5,80.8,22.9,597.0,73.0,16.4,4,5,7,1,2026-06-09T01:57:05.089138+05:30
Ranchi,Jharkhand,23.3441,85.3096,26.3,64,0.0,932.1,8.05,32.0,127,95.7,61.9,26.6,307.0,70.0,11.7,7,5,7,1,2026-06-09T01:57:05.089143+05:30
Jamshedpur,Jharkhand,22.8046,86.2029,28.6,71,0.0,984.2,8.5,26.6,146,73.6,53.2,18.6,425.0,93.0,27.0,7,5,7,1,2026-06-09T01:57:05.089148+05:30
Dhanbad,Jharkhand,23.7957,86.4304,28.6,68,0.0,972.8,8.5,31.0,165,132.7,95.7,79.3,321.0,29.0,145.2,7,5,7,1,2026-06-09T01:57:05.089154+05:30
Bokaro,Jharkhand,23.6693,86.1511,28.5,71,0.0,976.7,9.05,31.7,163,133.2,97.1,66.8,273.0,9.0,95.3,7,5,7,1,2026-06-09T01:57:05.089159+05:30
Bhubaneswar,Odisha,20.2961,85.8245,29.1,93,0.0,995.8,8.75,31.7,88,35.0,31.5,10.2,397.0,93.0,8.2,7,5,7,1,2026-06-09T01:57:05.089164+05:30
Cuttack,Odisha,20.4625,85.8828,28.8,92,0.0,997.7,8.9,30.6,88,35.0,31.5,10.2,404.0,93.0,8.2,7,5,7,1,2026-06-09T01:57:05.089170+05:30
Rourkela,Odisha,22.2604,84.8536,28.5,72,0.0,979.1,8.75,33.1,142,67.1,48.8,13.7,423.0,95.0,16.7,7,5,7,1,2026-06-09T01:57:05.089176+05:30
Raipur,Chhattisgarh,21.2514,81.6296,31.1,53,0.0,970.0,8.8,36.7,119,51.5,40.9,30.2,348.0,71.0,46.7,0,5,7,1,2026-06-09T01:57:05.089180+05:30
Bhilai,Chhattisgarh,21.1938,81.3509,29.7,61,0.0,970.6,8.3,37.8,113,52.9,41.6,27.2,440.0,69.0,39.4,7,5,7,1,2026-06-09T01:57:05.089185+05:30
Guwahati,Assam,26.1158,91.7086,24.6,99,0.0,996.8,8.85,28.1,84,36.6,33.4,9.4,411.0,75.0,2.4,3,5,7,1,2026-06-09T01:57:05.089190+05:30
Agartala,Tripura,23.8315,91.2868,25.7,90,0.0,1000.9,8.85,35.3,63,14.9,13.3,10.1,246.0,71.0,3.8,7,5,4,1,2026-06-09T01:57:05.089195+05:30
Shillong,Meghalaya,25.5788,91.8933,18.0,95,0.0,852.6,6.5,29.5,55,16.2,13.9,3.8,263.0,98.0,3.1,3,10,7,1,2026-06-09T01:57:05.089200+05:30
Imphal,Manipur,24.817,93.9368,22.2,98,0.0,918.4,8.8,34.2,55,22.9,21.7,11.1,455.0,44.0,2.1,3,5,7,1,2026-06-09T01:57:05.089206+05:30
Aizawl,Mizoram,23.7271,92.7176,19.3,97,0.1,888.1,8.5,32.0,29,6.4,5.5,3.4,159.0,54.0,0.8,6,10,7,1,2026-06-09T01:57:05.089210+05:30
Kohima,Nagaland,25.6701,94.1077,18.5,95,0.1,850.8,8.5,28.1,25,9.3,8.9,8.4,271.0,32.0,0.5,6,10,7,1,2026-06-09T01:57:05.089215+05:30
Gangtok,Sikkim,27.3314,88.6138,17.1,91,0.2,833.4,8.95,37.4,85,10.8,9.7,6.2,598.0,122.0,3.5,6,10,7,0,2026-06-09T01:57:05.089221+05:30
Siliguri,West Bengal,26.7271,88.3953,23.0,99,0.3,987.9,8.8,25.2,118,39.7,35.3,10.4,440.0,115.0,5.8,6,5,7,1,2026-06-09T01:57:08.473249+05:30
Durgapur,West Bengal,23.5204,87.3119,28.4,84,0.0,987.9,8.9,28.8,163,79.6,63.6,27.7,947.0,79.0,44.3,7,5,7,1,2026-06-09T01:57:08.473280+05:30
Asansol,West Bengal,23.6739,86.9524,28.6,79,0.0,986.4,7.55,29.2,158,84.3,65.0,38.9,542.0,64.0,55.8,7,5,7,1,2026-06-09T01:57:08.473289+05:30
Pondicherry,Puducherry,11.9139,79.8145,30.3,61,0.0,1006.4,7.55,40.0,40,7.3,6.4,12.9,147.0,36.0,9.9,3,5,4,1,2026-06-09T01:57:08.473296+05:30
Port Blair,Andaman and Nicobar Islands,11.6234,92.7265,25.4,96,0.1,1006.1,8.25,50.0,24,12.0,6.9,0.2,80.0,45.0,0.3,10,5,4,1,2026-06-09T01:57:08.473303+05:30
Haridwar,Uttarakhand,29.9457,78.1642,25.9,62,0.0,965.5,7.65,25.9,102,47.6,46.6,33.8,481.0,51.0,10.4,7,5,7,1,2026-06-09T01:57:08.473309+05:30
Rishikesh,Uttarakhand,30.0869,78.2676,22.6,80,0.0,958.0,7.75,27.7,110,34.5,31.3,21.6,332.0,81.0,7.2,3,5,7,1,2026-06-09T01:57:08.473315+05:30
Nainital,Uttarakhand,29.3919,79.4542,16.2,65,0.0,800.8,8.6,46.8,91,36.4,32.1,23.1,332.0,69.0,5.1,3,5,7,0,2026-06-09T01:57:08.473321+05:30
Mussoorie,Uttarakhand,30.4599,78.0664,17.8,51,0.0,798.9,8.15,51.8,89,38.2,35.3,37.7,239.0,54.0,8.6,0,5,7,0,2026-06-09T01:57:08.473328+05:30
Dharamshala,Himachal Pradesh,32.219,76.3234,23.1,40,0.0,863.5,8.5,48.6,43,14.0,12.5,16.1,200.0,36.0,0.2,0,5,7,0,2026-06-09T01:57:08.473334+05:30
Dalhousie,Himachal Pradesh,32.5387,75.971,12.6,73,0.0,796.7,8.75,39.6,65,29.9,27.7,37.4,355.0,31.0,2.0,3,5,7,0,2026-06-09T01:57:08.473340+05:30
Patiala,Punjab,30.3398,76.3869,30.0,41,0.0,969.2,7.65,38.9,190,612.8,119.0,20.4,528.0,67.0,8.5,4,5,7,0,2026-06-09T01:57:08.473345+05:30
Bhatinda,Punjab,30.211,74.9455,32.3,38,0.0,974.6,8.35,24.5,92,47.7,35.5,31.3,548.0,60.0,8.8,0,5,7,1,2026-06-09T01:57:08.473351+05:30
Rohtak,Haryana,28.8955,76.6066,29.1,51,0.0,973.0,7.8,32.0,639,791.6,163.4,70.1,583.0,14.0,11.0,4,5,7,1,2026-06-09T01:57:08.473356+05:30
Panipat,Haryana,29.3909,76.9635,28.8,49,0.0,971.3,7.6,34.2,1108,646.3,147.1,43.4,447.0,43.0,8.4,4,5,7,1,2026-06-09T01:57:08.473361+05:30
Mathura,Uttar Pradesh,27.4924,77.6737,28.9,44,0.0,978.5,8.1,43.9,598,421.0,114.1,60.6,674.0,2.0,7.4,4,5,7,0,2026-06-09T01:57:08.473367+05:30
Vrindavan,Uttar Pradesh,27.5823,77.7027,29.0,44,0.0,978.9,8.1,43.6,598,421.0,114.1,60.6,593.0,2.0,7.4,4,5,7,0,2026-06-09T01:57:08.473372+05:30
Ayodhya,Uttar Pradesh,26.7922,82.1998,28.2,55,0.0,986.9,8.45,15.5,152,156.9,66.4,25.6,349.0,45.0,9.5,4,5,7,1,2026-06-09T01:57:08.473378+05:30
Ratlam,Madhya Pradesh,23.3315,75.0367,27.6,74,0.0,951.4,8.55,43.6,85,35.4,22.5,5.3,144.0,71.0,11.1,7,5,7,1,2026-06-09T01:57:08.473383+05:30
Sagar,Madhya Pradesh,23.8388,78.7378,29.3,56,0.0,944.9,7.1,40.3,81,48.7,26.5,7.3,159.0,74.0,4.7,4,5,7,1,2026-06-09T01:57:08.473388+05:30
Satna,Madhya Pradesh,24.6005,80.8322,31.6,46,0.0,965.2,8.8,44.6,87,46.0,26.4,11.8,175.0,58.0,4.2,0,5,7,1,2026-06-09T01:57:08.473393+05:30
Akola,Maharashtra,20.7002,77.0082,31.3,49,0.0,971.2,8.55,44.6,84,39.5,23.6,7.9,164.0,70.0,8.7,0,5,7,1,2026-06-09T01:57:08.473399+05:30
Amravati,Maharashtra,20.9374,77.7796,32.4,43,0.0,963.2,8.85,43.2,86,39.0,24.2,9.1,182.0,73.0,8.2,0,5,7,1,2026-06-09T01:57:08.473419+05:30
Latur,Maharashtra,18.4088,76.5604,26.8,68,0.0,937.4,2.55,47.5,69,16.9,8.9,5.5,157.0,55.0,2.5,7,5,3,1,2026-06-09T01:57:08.473425+05:30
Nanded,Maharashtra,19.1383,77.3091,30.4,53,0.0,965.0,8.9,47.5,79,30.3,19.8,6.0,160.0,87.0,7.0,0,5,7,1,2026-06-09T01:57:08.473431+05:30
Gulbarga,Karnataka,17.3297,76.8343,24.6,93,0.0,956.1,7.4,49.0,57,11.3,7.9,8.8,155.0,52.0,3.3,3,5,7,1,2026-06-09T01:57:08.473437+05:30
Bidar,Karnataka,17.9104,77.5199,25.5,77,0.0,932.9,8.95,60.1,69,21.3,15.0,10.2,188.0,62.0,3.5,7,5,7,1,2026-06-09T01:57:08.473442+05:30
Hospet,Karnataka,15.2689,76.3909,23.4,95,0.0,954.9,2.0,45.4,26,4.7,3.9,5.6,154.0,43.0,1.2,3,5,3,1,2026-06-09T01:57:08.473447+05:30
Tirupur,Tamil Nadu,11.1085,77.3411,25.2,79,0.0,975.2,4.55,60.1,20,5.1,4.7,9.2,128.0,33.0,3.5,7,5,3,1,2026-06-09T01:57:08.473452+05:30
Alappuzha,Kerala,9.4981,76.3388,26.2,94,0.2,1011.3,6.75,48.2,31,13.9,7.0,2.7,79.0,46.0,0.9,10,0,4,1,2026-06-09T01:57:08.473457+05:30
Munnar,Kerala,10.0889,77.0595,17.2,100,0.5,857.4,8.05,57.6,17,1.5,1.4,6.4,95.0,25.0,1.6,6,10,7,1,2026-06-09T01:57:08.473463+05:30
Silchar,Assam,24.8333,92.7789,24.9,99,0.1,1000.6,9.0,25.2,59,14.9,13.0,8.4,278.0,70.0,3.0,6,5,4,1,2026-06-09T01:57:08.473469+05:30
Dibrugarh,Assam,27.4728,94.912,25.1,95,0.0,990.0,8.95,24.1,65,13.7,12.2,7.6,268.0,82.0,1.1,7,5,7,1,2026-06-09T01:57:08.473475+05:30
