city,state,latitude,longitude,temp,humidity,rain,pressure,uv_index,wind_gusts,aqi,pm10,pm2_5,no2,co,o3,so2,mosquito_risk,arthritis_risk,migraine_risk,frizz_risk,updated_at
Delhi,Delhi,28.6139,77.209,35.8,40,0.0,976.3,7.75,28.4,165,279.4,86.4,36.7,370.0,68.0,15.0,0,5,10,1,2026-06-27T20:47:21.613885+05:30
Mumbai,Maharashtra,19.076,72.8777,29.0,82,0.0,1005.5,7.15,31.3,61,28.5,15.3,12.3,765.0,41.0,6.7,7,5,4,1,2026-06-27T20:47:21.613926+05:30
Bangalore,Karnataka,12.9716,77.5946,22.2,95,0.1,910.4,9.1,37.1,41,11.2,9.5,26.3,736.0,39.0,5.8,6,5,7,1,2026-06-27T20:47:21.613942+05:30
Hyderabad,Telangana,17.385,78.4867,27.0,81,0.0,950.8,7.65,35.6,82,35.5,29.6,27.3,608.0,63.0,6.8,7,5,7,1,2026-06-27T20:47:21.613953+05:30
Chennai,Tamil Nadu,13.0827,80.2707,30.4,74,0.0,1004.3,8.15,41.4,84,31.8,22.1,8.5,247.0,105.0,6.4,3,5,4,1,2026-06-27T20:47:21.613961+05:30
Kolkata,West Bengal,22.5726,88.3639,28.8,84,0.0,1002.3,8.9,26.6,74,26.3,23.6,11.0,365.0,67.0,7.8,7,5,4,1,2026-06-27T20:47:21.613969+05:30
Pune,Maharashtra,18.5204,73.8567,25.1,85,0.0,945.7,8.25,41.0,46,15.1,10.8,14.2,240.0,54.0,8.5,7,5,7,1,2026-06-27T20:47:21.613976+05:30
Ahmedabad,Gujarat,23.0225,72.5714,34.7,44,0.0,997.3,7.85,37.4,75,54.7,26.1,15.2,185.0,61.0,5.0,0,5,7,1,2026-06-27T20:47:21.613983+05:30
Jaipur,Rajasthan,26.9124,75.7873,32.8,55,0.0,954.7,8.2,27.7,131,99.7,46.7,32.7,643.0,41.0,9.4,0,5,7,1,2026-06-27T20:47:21.613989+05:30
Lucknow,Uttar Pradesh,26.8467,80.9462,35.9,47,0.0,987.1,8.3,27.7,147,107.8,52.6,18.2,277.0,98.0,9.3,0,5,10,1,2026-06-27T20:47:21.614004+05:30
Kanpur,Uttar Pradesh,26.4499,80.3319,36.1,47,0.0,985.4,8.3,33.1,127,138.8,52.7,17.3,355.0,94.0,8.3,0,5,10,1,2026-06-27T20:47:21.614013+05:30
Chandigarh,Chandigarh,30.7333,76.7794,32.0,59,0.0,961.6,7.8,28.8,160,97.1,70.1,30.9,829.0,120.0,15.3,0,5,7,1,2026-06-27T20:47:21.614020+05:30
Srinagar,Jammu and Kashmir,34.0837,74.7973,26.6,50,0.0,838.6,9.1,28.4,103,32.1,28.5,32.1,925.0,56.0,3.4,4,5,7,0,2026-06-27T20:47:21.614027+05:30
Jammu,Jammu and Kashmir,32.7266,74.857,33.1,55,0.0,964.8,8.65,27.4,141,82.4,58.8,49.8,500.0,84.0,7.5,0,5,7,1,2026-06-27T20:47:21.614033+05:30
Amritsar,Punjab,31.634,74.8723,32.3,67,0.0,972.7,8.45,16.6,168,97.6,76.1,40.6,872.0,98.0,10.8,3,5,7,1,2026-06-27T20:47:21.614040+05:30
Ludhiana,Punjab,30.901,75.8573,35.1,45,0.0,971.2,8.05,27.7,157,113.6,76.6,33.4,856.0,86.0,10.6,0,5,10,1,2026-06-27T20:47:21.614047+05:30
Jalandhar,Punjab,31.326,75.5762,34.0,54,0.0,972.0,8.25,25.2,162,108.0,74.0,31.6,636.0,90.0,8.2,0,5,7,1,2026-06-27T20:47:21.614053+05:30
Dehradun,Uttarakhand,30.6284,78.0322,19.0,96,0.0,827.0,8.1,34.6,101,46.8,29.3,16.3,229.0,101.0,2.5,3,10,7,1,2026-06-27T20:47:21.614059+05:30
Shimla,Himachal Pradesh,31.1048,77.1734,17.2,80,0.0,781.9,7.35,33.5,136,67.1,48.5,25.1,483.0,90.0,8.4,3,5,7,0,2026-06-27T20:47:21.614066+05:30
Manali,Himachal Pradesh,32.2396,77.1887,19.3,90,0.0,816.6,8.7,35.6,45,18.9,18.6,88.4,347.0,15.0,0.0,3,10,7,1,2026-06-27T20:47:21.614076+05:30
Gurgaon,Haryana,28.4595,77.0266,34.6,46,0.0,974.9,7.8,27.7,233,262.6,78.2,41.8,772.0,52.0,11.9,0,5,7,1,2026-06-27T20:47:21.614082+05:30
Noida,Uttar Pradesh,28.5355,77.391,32.2,71,0.0,977.5,7.8,23.4,233,262.6,78.2,41.8,1786.0,52.0,11.9,3,5,7,1,2026-06-27T20:47:21.614088+05:30
Ghaziabad,Uttar Pradesh,28.6692,77.4538,33.0,63,0.0,975.8,7.75,20.2,190,221.7,87.5,25.5,439.0,114.0,21.2,3,5,7,1,2026-06-27T20:47:21.614094+05:30
Faridabad,Haryana,28.4089,77.3178,34.9,43,0.0,977.1,7.8,31.0,233,262.6,78.2,41.8,628.0,52.0,11.9,0,5,7,1,2026-06-27T20:47:21.614100+05:30
Meerut,Uttar Pradesh,28.9845,77.7064,34.7,47,0.0,974.6,7.7,27.7,190,221.7,87.5,25.5,390.0,114.0,21.2,0,5,7,1,2026-06-27T20:47:21.614106+05:30
Agra,Uttar Pradesh,27.1767,78.0081,37.0,36,0.0,981.4,8.1,31.7,137,159.7,61.7,34.9,368.0,62.0,10.3,0,5,10,1,2026-06-27T20:47:21.614112+05:30
Varanasi,Uttar Pradesh,25.3176,82.9739,34.9,57,0.0,991.6,8.8,31.0,142,74.5,71.5,41.8,782.0,57.0,15.6,0,5,7,1,2026-06-27T20:47:21.614119+05:30
Prayagraj,Uttar Pradesh,25.4358,81.8463,36.0,50,0.0,989.8,8.7,37.1,117,88.5,63.3,39.5,327.0,57.0,15.7,0,5,10,1,2026-06-27T20:47:21.614125+05:30
Gorakhpur,Uttar Pradesh,26.7606,83.3732,32.9,74,0.0,991.2,8.65,30.2,161,97.8,77.1,45.1,662.0,66.0,17.1,3,5,7,1,2026-06-27T20:47:21.614132+05:30
Bareilly,Uttar Pradesh,28.367,79.4304,35.2,41,0.0,980.0,8.1,25.9,169,102.9,56.0,15.7,356.0,126.0,12.4,0,5,10,1,2026-06-27T20:47:21.614139+05:30
Aligarh,Uttar Pradesh,27.8974,78.088,35.0,48,0.0,979.0,7.95,31.7,177,282.2,90.1,28.3,495.0,86.0,10.8,0,5,7,1,2026-06-27T20:47:21.614146+05:30
Moradabad,Uttar Pradesh,28.8386,78.7733,34.5,46,0.0,976.8,7.9,32.8,167,139.2,79.4,30.8,596.0,95.0,15.4,0,5,7,1,2026-06-27T20:47:21.614152+05:30
Saharanpur,Uttar Pradesh,29.9637,77.546,33.3,51,0.0,968.7,7.45,28.4,167,158.3,73.3,27.4,383.0,84.0,13.5,0,5,7,1,2026-06-27T20:47:21.614157+05:30
Jhansi,Uttar Pradesh,25.4484,78.5685,34.5,50,0.0,972.8,8.45,25.2,88,58.2,33.6,16.0,223.0,56.0,5.3,0,5,7,1,2026-06-27T20:47:24.955907+05:30
Surat,Gujarat,21.1702,72.8311,30.4,73,0.0,1002.8,7.6,39.2,85,43.0,25.5,24.7,248.0,30.0,39.2,3,5,4,1,2026-06-27T20:47:24.955940+05:30
Vadodara,Gujarat,22.3072,73.1812,33.7,49,0.0,999.9,7.85,37.8,79,52.3,27.6,13.2,147.0,68.0,7.9,0,5,7,1,2026-06-27T20:47:24.955950+05:30
Rajkot,Gujarat,22.3039,70.8022,31.4,62,0.0,990.2,7.55,43.2,68,40.6,18.2,4.8,115.0,70.0,5.3,3,5,7,1,2026-06-27T20:47:24.955958+05:30
Thane,Maharashtra,19.2183,72.9781,28.7,84,0.0,1004.9,7.4,28.8,61,28.5,15.3,12.3,577.0,41.0,6.7,7,5,4,1,2026-06-27T20:47:24.955967+05:30
Nagpur,Maharashtra,21.1458,79.0882,27.7,88,0.0,970.2,8.75,37.1,108,26.1,23.6,14.6,348.0,83.0,12.9,7,5,7,1,2026-06-27T20:47:24.955975+05:30
Nashik,Maharashtra,19.9975,73.7898,26.6,75,0.0,943.0,7.7,29.2,58,20.1,12.2,6.2,202.0,62.0,2.6,7,5,7,1,2026-06-27T20:47:24.955983+05:30
Aurangabad,Maharashtra,19.8762,75.3433,26.9,77,0.0,941.3,8.25,29.2,70,35.6,21.5,7.5,245.0,75.0,3.1,7,5,7,1,2026-06-27T20:47:24.955990+05:30
Solapur,Maharashtra,17.6599,75.9064,25.7,93,0.1,955.0,3.5,38.9,50,19.9,13.0,6.4,204.0,71.0,2.1,10,5,3,1,2026-06-27T20:47:24.955998+05:30
Kolhapur,Maharashtra,16.705,74.2433,23.6,92,0.0,946.1,7.4,35.6,32,10.3,8.8,11.5,179.0,38.0,3.1,3,5,7,1,2026-06-27T20:47:24.956006+05:30
Goa,Goa,15.2993,74.124,25.6,99,0.1,997.0,5.75,29.9,51,15.5,11.4,5.9,297.0,45.0,1.2,10,5,3,1,2026-06-27T20:47:24.956013+05:30
Jodhpur,Rajasthan,26.2389,73.0243,32.1,59,0.0,977.6,8.4,37.1,102,133.2,40.2,10.8,181.0,61.0,2.9,0,5,7,1,2026-06-27T20:47:24.956021+05:30
Udaipur,Rajasthan,24.5854,73.7125,27.5,77,0.0,942.9,8.55,34.9,66,36.3,19.7,9.9,272.0,47.0,1.5,7,5,7,1,2026-06-27T20:47:24.956028+05:30
Kota,Rajasthan,25.2138,75.8648,30.0,71,0.3,974.2,8.3,49.0,84,43.5,26.4,9.0,203.0,73.0,5.2,10,5,7,1,2026-06-27T20:47:24.956036+05:30
Bikaner,Rajasthan,28.0229,73.3119,37.5,32,0.0,975.0,8.45,33.1,94,81.0,32.5,4.1,177.0,66.0,2.7,0,5,10,1,2026-06-27T20:47:24.956043+05:30
Ajmer,Rajasthan,26.4499,74.6399,30.5,61,0.0,950.2,8.35,38.2,86,77.8,36.4,10.0,266.0,63.0,3.4,3,5,7,1,2026-06-27T20:47:24.956051+05:30
Gwalior,Madhya Pradesh,26.2183,78.1828,34.3,53,0.0,977.4,8.25,36.4,85,63.8,33.1,14.6,205.0,66.0,4.1,0,5,7,1,2026-06-27T20:47:24.956058+05:30
Indore,Madhya Pradesh,22.7196,75.8577,26.1,93,0.0,944.9,8.2,31.7,87,32.8,27.0,15.1,655.0,64.0,4.9,7,5,7,1,2026-06-27T20:47:24.956065+05:30
Bhopal,Madhya Pradesh,23.2599,77.4126,27.2,89,0.0,950.3,8.65,23.0,86,41.4,31.0,14.4,344.0,70.0,4.2,7,5,7,1,2026-06-27T20:47:24.956072+05:30
Jabalpur,Madhya Pradesh,23.1815,79.9864,27.7,89,0.0,957.9,8.85,39.6,89,18.2,17.1,8.6,224.0,93.0,3.0,7,5,7,1,2026-06-27T20:47:24.956079+05:30
Ujjain,Madhya Pradesh,23.1765,75.7885,25.6,93,0.0,950.6,8.5,32.8,84,34.9,28.2,11.0,303.0,58.0,3.5,7,5,7,1,2026-06-27T20:47:24.956087+05:30
Visakhapatnam,Andhra Pradesh,17.6868,83.2185,28.5,89,0.0,999.9,8.4,31.3,92,37.4,28.6,25.4,380.0,82.0,41.0,7,5,7,1,2026-06-27T20:47:24.956094+05:30
Vijayawada,Andhra Pradesh,16.5062,80.648,30.5,73,0.0,999.1,8.45,40.0,79,56.8,49.4,30.4,289.0,47.0,8.9,3,5,7,1,2026-06-27T20:47:24.956102+05:30
Guntur,Andhra Pradesh,16.3067,80.4365,30.5,72,0.0,1000.3,7.7,34.9,79,65.4,54.2,36.9,421.0,45.0,10.0,3,5,4,1,2026-06-27T20:47:24.956109+05:30
Nellore,Andhra Pradesh,14.4426,79.9865,30.7,74,0.0,1002.8,8.6,48.2,68,30.2,21.7,4.6,230.0,124.0,5.2,3,5,4,1,2026-06-27T20:47:24.956117+05:30
Kurnool,Andhra Pradesh,15.8281,78.0373,24.3,96,0.4,975.6,7.7,49.0,60,45.9,26.3,10.8,160.0,89.0,7.7,6,5,7,1,2026-06-27T20:47:24.956125+05:30
Kakinada,Andhra Pradesh,16.9891,82.2475,27.4,97,0.0,1003.9,6.6,41.8,81,37.3,25.6,3.9,389.0,113.0,5.1,7,5,4,1,2026-06-27T20:47:24.956133+05:30
Tirupati,Andhra Pradesh,13.6288,79.4192,29.0,74,0.2,988.9,8.7,30.2,57,31.2,22.3,22.5,267.0,54.0,4.7,10,5,7,1,2026-06-27T20:47:24.956140+05:30
Warangal,Telangana,17.9689,79.5941,27.7,86,0.0,975.6,8.15,36.0,90,36.4,28.3,9.5,420.0,76.0,3.3,7,5,7,1,2026-06-27T20:47:24.956147+05:30
Nizamabad,Telangana,18.6725,78.0941,27.0,85,0.0,961.7,8.1,36.7,101,47.5,36.2,14.9,362.0,59.0,4.2,7,5,7,1,2026-06-27T20:47:24.956154+05:30
Mysore,Karnataka,12.2958,76.6396,22.6,94,0.0,927.6,8.7,42.1,33,8.7,7.3,15.1,176.0,44.0,2.4,3,5,7,1,2026-06-27T20:47:24.956161+05:30
Mangalore,Karnataka,12.9141,74.856,25.2,96,0.1,1006.7,8.7,37.1,43,12.4,8.3,7.9,154.0,38.0,2.1,10,5,4,1,2026-06-27T20:47:24.956168+05:30
Hubli-Dharwad,Karnataka,15.3647,75.124,23.8,89,0.0,939.4,7.85,43.2,27,5.8,4.6,8.0,143.0,41.0,1.3,3,5,7,1,2026-06-27T20:47:24.956175+05:30
Belgaum,Karnataka,15.8497,74.4977,22.5,92,0.0,924.1,8.45,42.8,26,5.8,4.7,7.7,129.0,41.0,1.9,3,5,7,1,2026-06-27T20:47:28.302886+05:30
Coimbatore,Tamil Nadu,11.0168,76.9558,25.0,88,0.0,960.7,8.8,46.8,35,6.7,5.6,8.7,198.0,44.0,2.8,7,5,7,1,2026-06-27T20:47:28.302923+05:30
Madurai,Tamil Nadu,9.9252,78.1198,30.6,60,0.0,991.6,8.7,47.9,71,30.5,19.7,18.7,269.0,71.0,5.1,0,5,7,1,2026-06-27T20:47:28.302937+05:30
Trichy,Tamil Nadu,10.7905,78.7047,28.9,72,0.1,998.7,7.9,38.9,51,26.8,19.0,9.9,302.0,81.0,4.1,10,5,7,1,2026-06-27T20:47:28.302947+05:30
Salem,Tamil Nadu,11.6643,78.146,24.9,95,0.1,976.5,8.45,31.7,57,24.4,17.3,17.7,347.0,66.0,5.9,6,5,7,1,2026-06-27T20:47:28.302958+05:30
Tirunelveli,Tamil Nadu,8.7139,77.7567,31.0,56,0.0,1002.1,8.65,37.1,38,12.3,9.2,7.6,135.0,55.0,2.0,0,5,4,1,2026-06-27T20:47:28.302968+05:30
Vellore,Tamil Nadu,12.9165,79.1325,26.5,83,0.5,982.6,8.95,41.8,60,54.2,35.6,23.7,170.0,57.0,6.1,10,5,7,1,2026-06-27T20:47:28.302977+05:30
Erode,Tamil Nadu,11.341,77.7172,26.8,90,0.2,987.9,8.05,34.9,53,12.7,9.2,10.4,190.0,60.0,2.9,10,5,7,1,2026-06-27T20:47:28.302987+05:30
Kochi,Kerala,9.9312,76.2673,25.8,90,0.1,1009.5,8.55,36.0,58,19.4,15.3,19.7,213.0,25.0,3.8,10,0,4,1,2026-06-27T20:47:28.302996+05:30
Thiruvananthapuram,Kerala,8.5241,76.9366,25.0,96,0.1,1008.9,8.35,39.6,41,12.9,6.8,2.7,121.0,53.0,1.0,10,0,4,1,2026-06-27T20:47:28.303006+05:30
Kozhikode,Kerala,11.2588,75.7804,25.6,97,0.0,1008.0,8.6,37.8,30,12.4,6.0,1.3,158.0,56.0,0.7,7,0,4,1,2026-06-27T20:47:28.303013+05:30
Thrissur,Kerala,10.5276,76.2144,25.2,99,0.0,1007.5,8.55,33.8,60,14.7,11.5,11.1,229.0,34.0,2.5,7,5,4,1,2026-06-27T20:47:28.303022+05:30
Kannur,Kerala,11.8745,75.3704,25.7,97,0.0,1007.1,8.65,36.0,42,11.6,7.2,8.8,177.0,37.0,1.5,7,5,4,1,2026-06-27T20:47:28.303029+05:30
Patna,Bihar,25.5941,85.1376,31.8,69,0.0,995.2,8.6,32.8,156,78.5,70.1,35.5,456.0,83.0,16.5,3,5,7,1,2026-06-27T20:47:28.303037+05:30
Gaya,Bihar,24.7914,85.0002,30.2,76,0.2,988.9,8.75,31.7,139,80.1,75.2,31.2,311.0,93.0,17.4,6,5,7,1,2026-06-27T20:47:28.303044+05:30
Muzaffarpur,Bihar,26.1209,85.3647,31.6,75,0.0,994.8,8.6,35.3,167,78.0,69.2,26.9,670.0,100.0,15.0,3,5,7,1,2026-06-27T20:47:28.303051+05:30
Bhagalpur,Bihar,25.2425,87.0117,32.6,63,0.0,996.3,7.7,26.6,160,55.9,52.2,15.4,332.0,116.0,14.8,3,5,7,1,2026-06-27T20:47:28.303059+05:30
Ranchi,Jharkhand,23.3441,85.3096,26.0,86,0.0,934.5,9.0,21.6,123,49.0,47.3,18.9,321.0,82.0,7.8,7,5,7,1,2026-06-27T20:47:28.303066+05:30
Jamshedpur,Jharkhand,22.8046,86.2029,29.4,83,0.0,986.9,9.05,30.2,167,49.4,46.6,14.9,678.0,102.0,18.5,7,5,7,1,2026-06-27T20:47:28.303073+05:30
Dhanbad,Jharkhand,23.7957,86.4304,30.4,75,0.0,976.0,8.9,22.7,201,87.1,84.8,48.6,1308.0,91.0,127.7,3,5,7,1,2026-06-27T20:47:28.303080+05:30
Bokaro,Jharkhand,23.6693,86.1511,30.7,74,0.0,979.8,9.1,23.8,173,85.7,82.9,43.7,1750.0,90.0,107.8,3,5,7,1,2026-06-27T20:47:28.303087+05:30
Bhubaneswar,Odisha,20.2961,85.8245,28.6,91,0.0,999.0,9.0,36.4,84,26.6,24.6,8.7,274.0,112.0,9.0,7,5,7,1,2026-06-27T20:47:28.303094+05:30
Cuttack,Odisha,20.4625,85.8828,29.2,88,0.0,1000.6,8.9,30.6,84,26.6,24.6,8.7,376.0,112.0,9.0,7,5,4,1,2026-06-27T20:47:28.303101+05:30
Rourkela,Odisha,22.2604,84.8536,30.1,79,0.0,981.1,8.95,34.6,142,37.4,34.8,11.9,317.0,111.0,15.2,3,5,7,1,2026-06-27T20:47:28.303108+05:30
Raipur,Chhattisgarh,21.2514,81.6296,29.5,85,0.0,971.1,8.9,40.7,140,35.6,34.6,25.0,440.0,77.0,41.0,7,5,7,1,2026-06-27T20:47:28.303115+05:30
Bhilai,Chhattisgarh,21.1938,81.3509,29.8,76,0.0,971.6,8.9,54.4,122,35.4,34.3,25.7,701.0,70.0,41.9,7,5,7,1,2026-06-27T20:47:28.303122+05:30
Guwahati,Assam,26.1158,91.7086,29.1,88,0.0,997.3,8.7,37.4,80,28.7,26.7,8.5,305.0,74.0,3.5,7,5,7,1,2026-06-27T20:47:28.303129+05:30
Agartala,Tripura,23.8315,91.2868,28.4,82,0.0,1003.5,8.05,29.5,58,15.8,14.3,9.6,184.0,43.0,2.1,7,5,4,1,2026-06-27T20:47:28.303136+05:30
Shillong,Meghalaya,25.5788,91.8933,20.8,92,0.0,856.0,6.65,25.6,53,15.8,14.5,8.0,277.0,69.0,1.5,3,5,7,1,2026-06-27T20:47:28.303143+05:30
Imphal,Manipur,24.817,93.9368,24.6,85,0.0,921.1,8.05,30.6,60,26.8,25.1,21.5,425.0,27.0,3.9,3,5,7,1,2026-06-27T20:47:28.303151+05:30
Aizawl,Mizoram,23.7271,92.7176,21.5,89,0.0,891.2,9.05,24.1,41,10.5,9.6,6.1,163.0,43.0,1.1,3,5,7,1,2026-06-27T20:47:28.303157+05:30
Kohima,Nagaland,25.6701,94.1077,21.1,91,0.0,854.1,8.5,24.8,50,15.7,14.3,13.7,352.0,34.0,1.6,3,5,7,1,2026-06-27T20:47:28.303164+05:30
Gangtok,Sikkim,27.3314,88.6138,19.3,95,0.4,836.0,8.95,39.2,99,11.1,10.5,11.3,457.0,109.0,3.0,6,10,7,1,2026-06-27T20:47:28.303172+05:30
Siliguri,West Bengal,26.7271,88.3953,27.0,91,0.1,988.9,8.65,25.9,106,33.8,30.0,11.3,642.0,115.0,5.5,10,5,7,1,2026-06-27T20:47:31.654783+05:30
Durgapur,West Bengal,23.5204,87.3119,30.0,79,0.0,990.8,9.0,25.9,149,49.5,46.4,27.4,783.0,71.0,37.9,7,5,7,1,2026-06-27T20:47:31.654819+05:30
Asansol,West Bengal,23.6739,86.9524,30.7,77,0.0,989.4,9.05,32.0,159,57.4,54.8,30.8,389.0,84.0,42.5,3,5,7,1,2026-06-27T20:47:31.654831+05:30
Pondicherry,Puducherry,11.9139,79.8145,29.7,78,0.0,1005.8,8.35,45.0,75,28.8,20.4,7.3,161.0,100.0,3.3,7,5,4,1,2026-06-27T20:47:31.654840+05:30
Port Blair,Andaman and Nicobar Islands,11.6234,92.7265,25.5,96,0.0,1008.5,8.65,40.0,19,5.1,3.1,0.3,95.0,41.0,0.2,7,0,4,1,2026-06-27T20:47:31.654849+05:30
Haridwar,Uttarakhand,29.9457,78.1642,32.2,61,0.0,967.2,7.6,27.7,153,94.3,59.5,13.9,356.0,131.0,13.6,3,5,7,1,2026-06-27T20:47:31.654856+05:30
Rishikesh,Uttarakhand,30.0869,78.2676,30.7,62,0.0,960.2,7.7,27.4,133,85.9,50.2,13.5,405.0,125.0,9.8,3,5,7,1,2026-06-27T20:47:31.654864+05:30
Nainital,Uttarakhand,29.3919,79.4542,18.1,83,0.0,803.4,6.85,28.8,151,80.6,39.8,8.4,355.0,117.0,7.0,3,10,7,0,2026-06-27T20:47:31.654872+05:30
Mussoorie,Uttarakhand,30.4599,78.0664,17.5,97,0.0,800.2,8.15,40.7,138,88.0,54.1,19.9,376.0,130.0,11.0,3,10,7,1,2026-06-27T20:47:31.654880+05:30
Dharamshala,Himachal Pradesh,32.219,76.3234,23.5,79,0.0,865.5,8.5,33.1,93,16.8,13.3,13.0,463.0,81.0,0.8,3,5,7,1,2026-06-27T20:47:31.654888+05:30
Dalhousie,Himachal Pradesh,32.5387,75.971,18.0,90,0.0,801.4,8.2,33.1,142,74.5,43.5,17.5,588.0,134.0,4.6,3,10,7,1,2026-06-27T20:47:31.654896+05:30
Patiala,Punjab,30.3398,76.3869,34.5,48,0.0,970.9,7.7,27.0,163,288.7,103.4,32.3,440.0,82.0,10.4,0,5,7,1,2026-06-27T20:47:31.654904+05:30
Bhatinda,Punjab,30.211,74.9455,34.7,54,0.0,976.3,8.3,25.9,154,95.2,73.6,44.7,488.0,66.0,11.1,0,5,7,1,2026-06-27T20:47:31.654912+05:30
Rohtak,Haryana,28.8955,76.6066,33.3,60,0.0,974.7,7.75,24.8,177,280.3,84.3,55.2,837.0,38.0,9.9,0,5,7,1,2026-06-27T20:47:31.654919+05:30
Panipat,Haryana,29.3909,76.9635,33.3,55,0.0,973.2,7.65,23.0,456,464.7,109.9,35.9,531.0,58.0,9.4,0,5,7,1,2026-06-27T20:47:31.654926+05:30
Mathura,Uttar Pradesh,27.4924,77.6737,35.2,52,0.0,980.3,8.05,34.6,152,234.7,76.6,62.0,732.0,35.0,8.0,0,5,10,1,2026-06-27T20:47:31.654934+05:30
Vrindavan,Uttar Pradesh,27.5823,77.7027,34.5,55,0.0,980.6,8.0,34.6,152,234.7,76.6,62.0,687.0,35.0,8.0,0,5,7,1,2026-06-27T20:47:31.654941+05:30
Ayodhya,Uttar Pradesh,26.7922,82.1998,32.9,70,0.0,989.1,8.4,29.2,134,111.8,78.5,44.6,448.0,56.0,13.8,3,5,7,1,2026-06-27T20:47:31.654948+05:30
Ratlam,Madhya Pradesh,23.3315,75.0367,26.3,95,0.0,951.5,8.2,31.3,80,40.0,27.8,8.0,231.0,60.0,3.1,7,5,7,1,2026-06-27T20:47:31.654956+05:30
Sagar,Madhya Pradesh,23.8388,78.7378,28.3,81,0.0,946.2,8.65,27.4,64,23.3,19.6,7.9,196.0,81.0,2.2,7,5,7,1,2026-06-27T20:47:31.654963+05:30
Satna,Madhya Pradesh,24.6005,80.8322,31.2,64,0.0,966.8,8.8,31.3,76,45.6,30.4,15.7,303.0,64.0,3.3,3,5,7,1,2026-06-27T20:47:31.654970+05:30
Akola,Maharashtra,20.7002,77.0082,27.3,90,0.0,972.1,8.0,38.9,84,28.8,20.4,10.1,265.0,75.0,3.7,7,5,7,1,2026-06-27T20:47:31.654978+05:30
Amravati,Maharashtra,20.9374,77.7796,27.9,80,0.0,964.2,8.55,34.2,80,28.2,20.8,10.7,215.0,77.0,5.0,7,5,7,1,2026-06-27T20:47:31.654987+05:30
Latur,Maharashtra,18.4088,76.5604,25.6,88,0.0,937.4,7.7,31.7,83,69.8,43.5,23.2,260.0,60.0,6.6,7,5,7,1,2026-06-27T20:47:31.654995+05:30
Nanded,Maharashtra,19.1383,77.3091,27.2,81,0.0,965.7,6.35,36.4,97,58.6,37.4,19.4,286.0,55.0,4.8,7,5,7,1,2026-06-27T20:47:31.655003+05:30
Gulbarga,Karnataka,17.3297,76.8343,25.8,83,0.0,956.5,5.7,31.7,51,28.7,19.7,17.6,181.0,61.0,4.4,7,5,3,1,2026-06-27T20:47:31.655009+05:30
Bidar,Karnataka,17.9104,77.5199,27.0,75,0.0,933.0,2.45,36.0,88,41.1,30.7,24.6,389.0,51.0,4.5,7,5,3,1,2026-06-27T20:47:31.655017+05:30
Hospet,Karnataka,15.2689,76.3909,24.9,89,0.0,954.5,7.85,47.9,33,8.7,6.9,10.4,200.0,45.0,1.6,3,5,7,1,2026-06-27T20:47:31.655023+05:30
Tirupur,Tamil Nadu,11.1085,77.3411,26.2,82,0.0,974.2,8.6,50.0,55,14.3,10.7,13.0,167.0,53.0,4.0,7,5,7,1,2026-06-27T20:47:31.655030+05:30
Alappuzha,Kerala,9.4981,76.3388,25.4,96,0.1,1009.6,8.5,37.4,52,19.4,12.4,11.8,95.0,43.0,2.5,10,0,4,1,2026-06-27T20:47:31.655037+05:30
Munnar,Kerala,10.0889,77.0595,17.4,99,0.0,856.6,9.05,34.2,29,7.2,5.8,8.9,135.0,41.0,1.6,3,10,7,1,2026-06-27T20:47:31.655045+05:30
Silchar,Assam,24.8333,92.7789,27.4,97,0.1,1002.1,8.75,24.5,80,25.8,23.4,10.0,284.0,61.0,4.3,10,5,4,1,2026-06-27T20:47:31.655053+05:30
Dibrugarh,Assam,27.4728,94.912,25.6,98,0.1,991.5,8.4,34.6,70,19.6,18.0,6.7,287.0,90.0,2.1,10,5,7,1,2026-06-27T20:47:31.655060+05:30
