city,state,latitude,longitude,temp,humidity,rain,pressure,uv_index,wind_gusts,aqi,pm10,pm2_5,mosquito_risk,arthritis_risk,migraine_risk,frizz_risk,updated_at
Delhi,Delhi,28.6139,77.209,32.9,35,0.0,984.1,5.9,18.7,314,151.8,52.9,0,5,3,0,2026-03-06T15:13:14.819972+05:30
Mumbai,Maharashtra,19.076,72.8777,28.1,69,0.0,1008.2,7.4,25.6,103,47.3,45.2,7,0,4,1,2026-03-06T15:13:14.820020+05:30
Bangalore,Karnataka,12.9716,77.5946,32.9,23,0.0,911.2,9.15,24.5,108,31.8,28.9,0,5,7,0,2026-03-06T15:13:14.820036+05:30
Hyderabad,Telangana,17.385,78.4867,36.9,14,0.0,952.6,8.45,24.1,100,18.0,13.0,0,5,10,0,2026-03-06T15:13:14.820047+05:30
Chennai,Tamil Nadu,13.0827,80.2707,34.1,41,0.0,1006.0,8.9,33.8,74,34.3,31.1,0,5,4,1,2026-03-06T15:13:14.820057+05:30
Kolkata,West Bengal,22.5726,88.3639,30.7,48,0.0,1006.7,7.8,13.0,164,69.2,48.2,0,5,4,1,2026-03-06T15:13:14.820066+05:30
Pune,Maharashtra,18.5204,73.8567,37.1,16,0.0,948.7,8.0,27.7,94,18.4,16.0,0,5,10,0,2026-03-06T15:13:14.820078+05:30
Ahmedabad,Gujarat,23.0225,72.5714,35.8,26,0.0,1003.2,7.25,20.5,73,20.5,15.9,0,5,7,0,2026-03-06T15:13:14.820086+05:30
Jaipur,Rajasthan,26.9124,75.7873,36.7,12,0.0,961.2,6.7,24.5,97,132.2,22.8,0,5,10,0,2026-03-06T15:13:14.820094+05:30
Lucknow,Uttar Pradesh,26.8467,80.9462,32.0,38,0.0,995.1,6.4,22.3,167,136.9,69.2,0,5,7,0,2026-03-06T15:13:14.820102+05:30
Kanpur,Uttar Pradesh,26.4499,80.3319,31.6,47,0.0,993.2,6.4,13.3,166,226.3,75.2,0,5,7,1,2026-03-06T15:13:14.820109+05:30
Chandigarh,Chandigarh,30.7333,76.7794,31.6,43,0.0,969.7,5.8,15.8,120,73.3,45.6,0,5,3,1,2026-03-06T15:13:14.820117+05:30
Srinagar,Jammu and Kashmir,34.0837,74.7973,22.6,34,0.0,844.6,6.75,16.6,136,42.0,23.2,0,5,7,0,2026-03-06T15:13:14.820125+05:30
Jammu,Jammu and Kashmir,32.7266,74.857,31.8,42,0.0,973.0,6.4,18.7,122,54.1,31.8,0,5,7,1,2026-03-06T15:13:14.820132+05:30
Amritsar,Punjab,31.634,74.8723,32.6,46,0.0,981.3,6.05,12.2,159,74.7,54.7,0,5,7,1,2026-03-06T15:13:14.820139+05:30
Ludhiana,Punjab,30.901,75.8573,32.6,41,0.0,979.4,6.05,15.1,164,89.6,59.8,0,5,7,1,2026-03-06T15:13:14.820146+05:30
Jalandhar,Punjab,31.326,75.5762,32.4,44,0.0,980.5,6.2,13.7,165,78.2,53.4,0,5,7,1,2026-03-06T15:13:14.820155+05:30
Dehradun,Uttarakhand,30.6284,78.0322,21.4,65,0.0,832.9,6.15,28.1,80,48.7,28.0,3,5,7,0,2026-03-06T15:13:14.820162+05:30
Shimla,Himachal Pradesh,31.1048,77.1734,21.6,50,0.0,788.9,6.25,34.9,76,26.5,15.5,0,5,7,0,2026-03-06T15:13:14.820169+05:30
Manali,Himachal Pradesh,32.2396,77.1887,26.1,13,0.0,824.7,7.95,39.2,69,14.7,8.1,4,5,7,1,2026-03-06T15:13:14.820175+05:30
Gurgaon,Haryana,28.4595,77.0266,33.3,33,0.0,982.5,6.0,16.9,852,459.1,75.2,0,5,3,0,2026-03-06T15:13:14.820182+05:30
Noida,Uttar Pradesh,28.5355,77.391,33.5,33,0.0,985.5,5.9,17.3,852,459.1,75.2,0,5,3,0,2026-03-06T15:13:14.820189+05:30
Ghaziabad,Uttar Pradesh,28.6692,77.4538,32.0,46,0.0,983.8,5.9,14.4,243,158.3,71.7,0,5,3,1,2026-03-06T15:13:14.820196+05:30
Faridabad,Haryana,28.4089,77.3178,32.7,36,0.0,984.9,5.95,16.6,852,459.1,75.2,0,5,3,0,2026-03-06T15:13:14.820202+05:30
Meerut,Uttar Pradesh,28.9845,77.7064,32.0,42,0.0,982.6,5.75,14.0,243,158.3,71.7,0,5,3,1,2026-03-06T15:13:14.820209+05:30
Agra,Uttar Pradesh,27.1767,78.0081,35.3,22,0.0,988.8,6.25,18.7,479,266.4,60.1,0,5,10,0,2026-03-06T15:13:14.820216+05:30
Varanasi,Uttar Pradesh,25.3176,82.9739,31.1,45,0.0,998.9,7.1,17.6,165,118.0,63.8,0,5,7,1,2026-03-06T15:13:14.820225+05:30
Prayagraj,Uttar Pradesh,25.4358,81.8463,30.6,47,0.0,997.4,6.95,16.2,169,143.9,67.8,0,5,7,1,2026-03-06T15:13:14.820233+05:30
Gorakhpur,Uttar Pradesh,26.7606,83.3732,31.2,42,0.0,999.2,6.8,17.3,170,92.2,58.4,0,5,7,1,2026-03-06T15:13:14.820240+05:30
Bareilly,Uttar Pradesh,28.367,79.4304,30.8,52,0.0,988.4,6.1,14.4,165,152.3,83.1,0,5,7,1,2026-03-06T15:13:14.820247+05:30
Aligarh,Uttar Pradesh,27.8974,78.088,33.6,36,0.0,986.6,6.05,16.6,538,191.9,65.0,0,5,7,1,2026-03-06T15:13:14.820254+05:30
Moradabad,Uttar Pradesh,28.8386,78.7733,31.1,49,0.0,985.0,5.9,18.4,169,142.0,81.3,0,5,3,1,2026-03-06T15:13:14.820260+05:30
Saharanpur,Uttar Pradesh,29.9637,77.546,30.3,52,0.0,976.9,5.55,19.8,161,125.7,66.4,0,5,3,1,2026-03-06T15:13:14.820267+05:30
Jhansi,Uttar Pradesh,25.4484,78.5685,35.9,18,0.0,979.0,6.85,24.1,64,53.9,16.4,0,5,10,0,2026-03-06T15:13:18.068178+05:30
Surat,Gujarat,21.1702,72.8311,33.6,39,0.0,1007.6,7.15,24.1,127,40.3,38.3,0,5,4,1,2026-03-06T15:13:18.068211+05:30
Vadodara,Gujarat,22.3072,73.1812,36.6,26,0.0,1005.1,7.25,20.2,101,27.2,23.6,0,5,7,0,2026-03-06T15:13:18.068222+05:30
Rajkot,Gujarat,22.3039,70.8022,34.0,28,0.0,995.8,7.1,24.1,57,21.3,12.6,0,5,7,0,2026-03-06T15:13:18.068229+05:30
Thane,Maharashtra,19.2183,72.9781,33.4,45,0.0,1007.9,7.4,37.8,103,47.3,45.2,0,5,4,1,2026-03-06T15:13:18.068237+05:30
Nagpur,Maharashtra,21.1458,79.0882,37.3,14,0.0,972.8,7.8,25.9,58,26.8,14.8,0,5,10,0,2026-03-06T15:13:18.068244+05:30
Nashik,Maharashtra,19.9975,73.7898,35.5,14,0.0,946.3,7.6,34.9,70,17.9,15.0,0,5,10,0,2026-03-06T15:13:18.068251+05:30
Aurangabad,Maharashtra,19.8762,75.3433,36.2,17,0.0,944.6,8.15,23.8,92,18.7,14.5,0,5,10,0,2026-03-06T15:13:18.068258+05:30
Solapur,Maharashtra,17.6599,75.9064,36.5,16,0.0,956.8,8.4,18.0,74,17.9,14.3,0,5,10,0,2026-03-06T15:13:18.068264+05:30
Kolhapur,Maharashtra,16.705,74.2433,35.7,18,0.0,947.6,8.55,31.7,147,16.1,14.2,0,5,10,0,2026-03-06T15:13:18.068271+05:30
Goa,Goa,15.2993,74.124,30.7,65,0.0,996.5,8.55,32.0,158,54.4,51.7,3,5,7,1,2026-03-06T15:13:18.068278+05:30
Jodhpur,Rajasthan,26.2389,73.0243,35.4,21,0.0,984.7,6.95,22.7,60,33.4,12.2,0,5,10,0,2026-03-06T15:13:18.068284+05:30
Udaipur,Rajasthan,24.5854,73.7125,35.4,15,0.0,948.6,7.6,22.3,48,9.3,8.0,0,5,10,0,2026-03-06T15:13:18.068291+05:30
Kota,Rajasthan,25.2138,75.8648,36.9,16,0.0,979.8,7.0,17.3,72,26.5,10.1,0,5,10,0,2026-03-06T15:13:18.068297+05:30
Bikaner,Rajasthan,28.0229,73.3119,35.9,12,0.0,983.0,6.65,23.8,55,70.5,15.0,0,5,10,0,2026-03-06T15:13:18.068304+05:30
Ajmer,Rajasthan,26.4499,74.6399,35.2,16,0.0,956.5,6.95,26.3,56,36.3,10.2,0,5,10,0,2026-03-06T15:13:18.068310+05:30
Gwalior,Madhya Pradesh,26.2183,78.1828,33.6,29,0.0,984.5,6.6,20.9,88,65.2,18.9,0,5,7,0,2026-03-06T15:13:18.068317+05:30
Indore,Madhya Pradesh,22.7196,75.8577,34.5,19,0.0,949.5,7.55,22.3,70,13.2,11.2,0,5,7,0,2026-03-06T15:13:18.068324+05:30
Bhopal,Madhya Pradesh,23.2599,77.4126,35.0,20,0.0,954.9,7.4,24.8,72,37.3,14.8,0,5,7,0,2026-03-06T15:13:18.068330+05:30
Jabalpur,Madhya Pradesh,23.1815,79.9864,34.7,21,0.0,962.0,7.5,26.6,67,35.2,14.7,0,5,7,0,2026-03-06T15:13:18.068336+05:30
Ujjain,Madhya Pradesh,23.1765,75.7885,34.1,22,0.0,955.4,7.45,19.1,76,12.7,11.4,0,5,7,0,2026-03-06T15:13:18.068343+05:30
Visakhapatnam,Andhra Pradesh,17.6868,83.2185,32.2,54,0.0,1001.9,8.45,35.3,148,45.5,40.3,0,5,4,1,2026-03-06T15:13:18.068350+05:30
Vijayawada,Andhra Pradesh,16.5062,80.648,36.9,28,0.0,1000.2,8.55,14.8,134,31.8,26.8,0,5,7,0,2026-03-06T15:13:18.068356+05:30
Guntur,Andhra Pradesh,16.3067,80.4365,37.3,22,0.0,1001.5,8.55,18.0,113,26.0,20.2,0,5,7,0,2026-03-06T15:13:18.068363+05:30
Nellore,Andhra Pradesh,14.4426,79.9865,38.5,20,0.0,1003.3,8.75,28.8,87,31.5,28.8,0,5,7,0,2026-03-06T15:13:18.068369+05:30
Kurnool,Andhra Pradesh,15.8281,78.0373,38.4,13,0.0,975.2,8.55,23.4,73,20.0,17.5,0,5,10,0,2026-03-06T15:13:18.068377+05:30
Kakinada,Andhra Pradesh,16.9891,82.2475,36.9,36,0.0,1004.5,8.5,31.0,113,28.5,23.0,0,5,7,1,2026-03-06T15:13:18.068383+05:30
Tirupati,Andhra Pradesh,13.6288,79.4192,37.1,17,0.0,989.4,8.85,30.6,110,29.2,26.7,0,5,10,0,2026-03-06T15:13:18.068390+05:30
Warangal,Telangana,17.9689,79.5941,36.2,20,0.0,977.6,8.3,24.5,82,26.7,15.5,0,5,10,0,2026-03-06T15:13:18.068396+05:30
Nizamabad,Telangana,18.6725,78.0941,36.2,19,0.0,964.5,8.2,28.8,88,25.6,13.8,0,5,10,0,2026-03-06T15:13:18.068402+05:30
Mysore,Karnataka,12.2958,76.6396,33.9,24,0.0,927.7,9.2,36.4,122,31.0,28.9,0,5,7,0,2026-03-06T15:13:18.068408+05:30
Mangalore,Karnataka,12.9141,74.856,29.1,76,0.0,1005.1,8.8,23.8,125,46.2,43.0,7,5,4,1,2026-03-06T15:13:18.068415+05:30
Hubli-Dharwad,Karnataka,15.3647,75.124,36.3,17,0.0,940.0,8.75,36.7,93,27.8,25.4,0,5,10,0,2026-03-06T15:13:18.068421+05:30
Belgaum,Karnataka,15.8497,74.4977,35.1,16,0.0,925.7,8.8,40.0,118,22.7,20.8,0,5,10,0,2026-03-06T15:13:21.323048+05:30
Coimbatore,Tamil Nadu,11.0168,76.9558,34.3,34,0.0,960.3,9.15,47.9,117,34.9,32.0,0,5,7,1,2026-03-06T15:13:21.323081+05:30
Madurai,Tamil Nadu,9.9252,78.1198,35.6,34,0.0,990.8,9.15,33.5,92,30.4,26.4,0,5,10,1,2026-03-06T15:13:21.323092+05:30
Trichy,Tamil Nadu,10.7905,78.7047,37.2,28,0.0,997.3,9.05,26.6,84,27.4,24.5,0,5,10,0,2026-03-06T15:13:21.323100+05:30
Salem,Tamil Nadu,11.6643,78.146,36.5,27,0.0,975.0,9.05,18.0,100,39.8,35.9,0,5,10,0,2026-03-06T15:13:21.323108+05:30
Tirunelveli,Tamil Nadu,8.7139,77.7567,38.3,24,0.0,1000.8,9.15,48.6,94,31.3,26.6,0,5,7,0,2026-03-06T15:13:21.323116+05:30
Vellore,Tamil Nadu,12.9165,79.1325,36.6,21,0.0,982.5,8.95,31.3,118,32.4,29.8,0,5,10,0,2026-03-06T15:13:21.323123+05:30
Erode,Tamil Nadu,11.341,77.7172,37.3,26,0.0,986.5,9.05,20.2,95,35.7,31.9,0,5,10,0,2026-03-06T15:13:21.323131+05:30
Kochi,Kerala,9.9312,76.2673,28.1,81,0.0,1007.2,9.0,34.6,135,36.0,34.0,7,5,4,1,2026-03-06T15:13:21.323139+05:30
Thiruvananthapuram,Kerala,8.5241,76.9366,28.1,79,0.0,1006.6,9.0,35.3,81,26.0,23.3,7,5,4,1,2026-03-06T15:13:21.323146+05:30
Kozhikode,Kerala,11.2588,75.7804,29.9,73,0.0,1006.4,8.85,27.0,107,34.5,31.5,7,5,4,1,2026-03-06T15:13:21.323152+05:30
Thrissur,Kerala,10.5276,76.2144,31.8,66,0.0,1005.5,8.95,33.5,128,38.1,35.7,3,5,4,1,2026-03-06T15:13:21.323159+05:30
Kannur,Kerala,11.8745,75.3704,31.1,67,0.0,1005.6,8.85,32.0,111,39.6,36.8,3,5,4,1,2026-03-06T15:13:21.323167+05:30
Patna,Bihar,25.5941,85.1376,31.8,38,0.0,1001.9,7.25,21.6,165,85.7,66.4,0,5,4,0,2026-03-06T15:13:21.323173+05:30
Gaya,Bihar,24.7914,85.0002,30.4,50,0.0,994.6,7.35,20.5,156,98.5,67.1,0,5,7,1,2026-03-06T15:13:21.323180+05:30
Muzaffarpur,Bihar,26.1209,85.3647,32.0,36,0.0,1002.0,7.2,20.5,171,83.6,65.4,0,5,4,0,2026-03-06T15:13:21.323186+05:30
Bhagalpur,Bihar,25.2425,87.0117,30.6,46,0.0,1002.7,7.3,17.3,161,71.2,57.6,0,5,4,1,2026-03-06T15:13:21.323193+05:30
Ranchi,Jharkhand,23.3441,85.3096,29.9,34,0.0,938.4,8.0,31.0,157,86.4,53.1,4,5,7,0,2026-03-06T15:13:21.323199+05:30
Jamshedpur,Jharkhand,22.8046,86.2029,32.2,38,0.0,991.0,7.9,21.2,152,91.5,53.6,0,5,7,1,2026-03-06T15:13:21.323205+05:30
Dhanbad,Jharkhand,23.7957,86.4304,32.9,27,0.0,980.4,7.75,27.4,171,101.3,72.9,0,5,7,0,2026-03-06T15:13:21.323211+05:30
Bokaro,Jharkhand,23.6693,86.1511,32.2,29,0.0,984.4,7.75,29.5,175,107.8,73.8,0,5,7,0,2026-03-06T15:13:21.323218+05:30
Bhubaneswar,Odisha,20.2961,85.8245,32.4,47,0.0,1001.9,8.2,29.9,145,64.5,46.4,0,5,4,1,2026-03-06T15:13:21.323224+05:30
Cuttack,Odisha,20.4625,85.8828,34.2,38,0.0,1003.4,8.2,32.4,145,64.5,46.4,0,5,4,1,2026-03-06T15:13:21.323230+05:30
Rourkela,Odisha,22.2604,84.8536,34.5,30,0.0,984.2,7.8,10.4,135,103.1,56.9,0,5,7,0,2026-03-06T15:13:21.323235+05:30
Raipur,Chhattisgarh,21.2514,81.6296,36.6,21,0.0,973.9,7.9,22.7,88,58.7,21.7,0,5,10,0,2026-03-06T15:13:21.323241+05:30
Bhilai,Chhattisgarh,21.1938,81.3509,37.8,18,0.0,974.1,7.95,23.8,78,39.2,18.9,0,5,10,0,2026-03-06T15:13:21.323247+05:30
Guwahati,Assam,26.1158,91.7086,31.3,46,0.0,1002.1,7.25,20.5,153,58.0,50.4,0,5,4,1,2026-03-06T15:13:21.323253+05:30
Agartala,Tripura,23.8315,91.2868,32.1,46,0.0,1006.5,7.55,16.9,160,62.2,49.9,0,5,4,1,2026-03-06T15:13:21.323260+05:30
Shillong,Meghalaya,25.5788,91.8933,20.9,40,0.0,858.8,7.6,33.1,128,38.5,33.3,0,5,7,0,2026-03-06T15:13:21.323266+05:30
Imphal,Manipur,24.817,93.9368,25.7,38,0.0,924.5,7.8,34.9,152,39.3,35.4,4,5,7,0,2026-03-06T15:13:21.323272+05:30
Aizawl,Mizoram,23.7271,92.7176,27.5,34,0.0,894.7,7.75,34.6,177,71.2,64.5,4,5,7,0,2026-03-06T15:13:21.323279+05:30
Kohima,Nagaland,25.6701,94.1077,19.6,62,0.0,857.0,7.65,43.9,153,63.6,56.9,3,5,7,0,2026-03-06T15:13:21.323285+05:30
Gangtok,Sikkim,27.3314,88.6138,17.6,75,0.0,840.1,7.55,18.0,101,43.8,38.2,3,5,7,0,2026-03-06T15:13:21.323291+05:30
Siliguri,West Bengal,26.7271,88.3953,26.5,50,0.0,995.8,7.2,14.8,141,52.0,43.0,4,5,7,0,2026-03-06T15:13:24.578345+05:30
Durgapur,West Bengal,23.5204,87.3119,32.5,31,0.0,995.6,7.75,24.1,162,84.1,63.3,0,5,7,0,2026-03-06T15:13:24.578378+05:30
Asansol,West Bengal,23.6739,86.9524,33.0,28,0.0,993.9,7.75,21.6,161,93.1,69.4,0,5,7,0,2026-03-06T15:13:24.578390+05:30
Pondicherry,Puducherry,11.9139,79.8145,35.7,40,0.0,1006.5,8.9,32.4,69,36.4,33.3,0,5,7,1,2026-03-06T15:13:24.578397+05:30
Port Blair,Andaman and Nicobar Islands,11.6234,92.7265,27.8,65,0.0,1006.8,8.85,14.4,52,29.6,18.7,7,5,4,1,2026-03-06T15:13:24.578405+05:30
Haridwar,Uttarakhand,29.9457,78.1642,30.4,48,0.0,975.7,5.65,23.4,154,124.3,68.2,0,5,3,1,2026-03-06T15:13:24.578412+05:30
Rishikesh,Uttarakhand,30.0869,78.2676,29.6,49,0.0,968.6,5.7,21.6,150,112.7,66.1,4,5,3,1,2026-03-06T15:13:24.578418+05:30
Nainital,Uttarakhand,29.3919,79.4542,22.3,55,0.0,809.3,6.5,46.4,159,104.3,65.0,0,5,7,0,2026-03-06T15:13:24.578425+05:30
Mussoorie,Uttarakhand,30.4599,78.0664,21.0,66,0.0,805.6,6.05,40.7,143,112.7,61.0,3,5,7,0,2026-03-06T15:13:24.578433+05:30
Dharamshala,Himachal Pradesh,32.219,76.3234,27.0,50,0.0,871.8,5.6,21.2,57,17.1,7.9,4,5,3,0,2026-03-06T15:13:24.578440+05:30
Dalhousie,Himachal Pradesh,32.5387,75.971,26.1,36,0.0,807.9,5.75,20.9,94,34.1,18.5,4,5,3,0,2026-03-06T15:13:24.578447+05:30
Patiala,Punjab,30.3398,76.3869,32.4,44,0.0,979.0,5.7,13.0,165,195.1,68.7,0,5,3,1,2026-03-06T15:13:24.578454+05:30
Bhatinda,Punjab,30.211,74.9455,34.0,31,0.0,984.4,6.4,16.9,149,32.6,25.2,0,5,7,0,2026-03-06T15:13:24.578461+05:30
Rohtak,Haryana,28.8955,76.6066,33.4,29,0.0,982.7,5.9,19.4,363,167.2,43.0,0,5,3,0,2026-03-06T15:13:24.578468+05:30
Panipat,Haryana,29.3909,76.9635,32.7,42,0.0,981.2,5.7,14.0,727,225.4,61.7,0,5,3,1,2026-03-06T15:13:24.578474+05:30
Mathura,Uttar Pradesh,27.4924,77.6737,34.7,23,0.0,987.9,6.2,19.1,517,218.4,51.8,0,5,7,0,2026-03-06T15:13:24.578481+05:30
Vrindavan,Uttar Pradesh,27.5823,77.7027,34.1,29,0.0,988.3,6.15,17.6,517,218.4,51.8,0,5,7,0,2026-03-06T15:13:24.578487+05:30
Ayodhya,Uttar Pradesh,26.7922,82.1998,31.2,42,0.0,997.4,6.55,19.4,167,93.1,61.5,0,5,7,1,2026-03-06T15:13:24.578494+05:30
Ratlam,Madhya Pradesh,23.3315,75.0367,33.7,23,0.0,956.3,7.4,20.9,66,11.8,9.9,0,5,7,0,2026-03-06T15:13:24.578500+05:30
Sagar,Madhya Pradesh,23.8388,78.7378,34.3,23,0.0,951.4,7.35,21.6,58,38.6,12.1,0,5,7,0,2026-03-06T15:13:24.578507+05:30
Satna,Madhya Pradesh,24.6005,80.8322,35.2,24,0.0,971.8,7.3,31.3,92,161.1,42.7,0,5,10,0,2026-03-06T15:13:24.578513+05:30
Akola,Maharashtra,20.7002,77.0082,38.2,15,0.0,974.8,7.85,19.8,78,25.1,14.4,0,5,10,0,2026-03-06T15:13:24.578540+05:30
Amravati,Maharashtra,20.9374,77.7796,38.0,16,0.0,967.1,7.8,15.1,76,24.1,12.8,0,5,10,0,2026-03-06T15:13:24.578547+05:30
Latur,Maharashtra,18.4088,76.5604,35.3,18,0.0,940.1,8.3,31.7,77,21.4,16.2,0,5,10,0,2026-03-06T15:13:24.578554+05:30
Nanded,Maharashtra,19.1383,77.3091,38.1,16,0.0,968.2,8.1,20.9,93,21.3,12.1,0,5,10,0,2026-03-06T15:13:24.578560+05:30
Gulbarga,Karnataka,17.3297,76.8343,37.9,13,0.0,958.0,8.4,33.1,74,14.3,10.9,0,5,10,0,2026-03-06T15:13:24.578566+05:30
Bidar,Karnataka,17.9104,77.5199,35.9,16,0.0,935.5,8.35,32.8,78,19.4,12.5,0,5,10,0,2026-03-06T15:13:24.578572+05:30
Hospet,Karnataka,15.2689,76.3909,36.3,18,0.0,954.8,8.75,20.2,100,21.4,19.4,0,5,10,0,2026-03-06T15:13:24.578577+05:30
Tirupur,Tamil Nadu,11.1085,77.3411,37.0,23,0.0,973.2,9.2,31.7,126,39.7,36.2,0,5,10,0,2026-03-06T15:13:24.578584+05:30
Alappuzha,Kerala,9.4981,76.3388,28.1,82,0.0,1007.4,8.95,31.0,115,28.8,26.7,7,5,4,1,2026-03-06T15:13:24.578590+05:30
Munnar,Kerala,10.0889,77.0595,28.6,46,0.0,857.5,9.5,29.9,98,30.6,27.6,4,5,7,0,2026-03-06T15:13:24.578596+05:30
Silchar,Assam,24.8333,92.7789,33.7,32,0.0,1004.8,7.55,12.6,165,56.8,50.4,0,5,4,0,2026-03-06T15:13:24.578603+05:30
Dibrugarh,Assam,27.4728,94.912,30.1,46,0.0,996.1,7.25,16.6,109,39.5,33.9,0,5,7,1,2026-03-06T15:13:24.578609+05:30
