city,state,latitude,longitude,temp,humidity,rain,pressure,uv_index,wind_gusts,aqi,pm10,pm2_5,mosquito_risk,arthritis_risk,migraine_risk,frizz_risk,updated_at
Delhi,Delhi,28.6139,77.209,29.2,33,0.0,977.3,7.45,47.2,569,538.3,108.3,4,5,7,0,2026-04-27T04:12:16.257668+05:30
Mumbai,Maharashtra,19.076,72.8777,27.5,90,0.0,1005.3,8.05,40.3,91,74.0,30.5,7,5,4,1,2026-04-27T04:12:16.257708+05:30
Bangalore,Karnataka,12.9716,77.5946,24.4,51,0.0,909.9,9.55,33.8,84,30.7,28.6,0,5,7,0,2026-04-27T04:12:16.257722+05:30
Hyderabad,Telangana,17.385,78.4867,27.5,62,0.0,950.0,9.2,29.9,94,28.5,23.3,7,5,7,1,2026-04-27T04:12:16.257731+05:30
Chennai,Tamil Nadu,13.0827,80.2707,27.1,93,0.0,1004.9,9.25,56.5,49,20.9,14.1,7,5,4,1,2026-04-27T04:12:16.257738+05:30
Kolkata,West Bengal,22.5726,88.3639,27.9,85,0.0,1000.7,8.8,46.8,60,17.4,11.7,7,5,4,1,2026-04-27T04:12:16.257746+05:30
Pune,Maharashtra,18.5204,73.8567,25.4,66,0.0,944.9,8.1,42.5,70,39.8,20.8,7,5,7,1,2026-04-27T04:12:16.257755+05:30
Ahmedabad,Gujarat,23.0225,72.5714,31.1,32,0.0,997.9,8.2,45.4,56,13.9,8.3,0,5,7,0,2026-04-27T04:12:16.257763+05:30
Jaipur,Rajasthan,26.9124,75.7873,30.1,25,0.0,954.5,8.05,39.6,138,115.5,26.2,0,5,7,0,2026-04-27T04:12:16.257769+05:30
Lucknow,Uttar Pradesh,26.8467,80.9462,26.7,71,0.0,988.2,7.9,42.5,164,94.5,52.9,7,5,7,1,2026-04-27T04:12:16.257776+05:30
Kanpur,Uttar Pradesh,26.4499,80.3319,28.9,39,0.0,986.0,7.95,49.3,456,282.2,54.2,4,5,7,0,2026-04-27T04:12:16.257782+05:30
Chandigarh,Chandigarh,30.7333,76.7794,25.9,29,0.0,962.4,7.3,45.4,56,11.4,11.1,4,5,7,0,2026-04-27T04:12:16.257789+05:30
Srinagar,Jammu and Kashmir,34.0837,74.7973,9.6,88,0.0,837.1,8.3,20.2,66,24.7,18.3,3,10,7,0,2026-04-27T04:12:16.257795+05:30
Jammu,Jammu and Kashmir,32.7266,74.857,21.5,40,0.0,966.3,8.25,30.2,60,16.8,15.6,0,5,7,0,2026-04-27T04:12:16.257802+05:30
Amritsar,Punjab,31.634,74.8723,24.9,41,0.0,974.5,8.15,35.6,66,24.9,21.3,0,5,7,0,2026-04-27T04:12:16.257808+05:30
Ludhiana,Punjab,30.901,75.8573,25.7,38,0.0,972.7,7.7,34.6,71,27.0,26.0,4,5,7,0,2026-04-27T04:12:16.257814+05:30
Jalandhar,Punjab,31.326,75.5762,24.9,41,0.0,973.6,7.9,28.1,79,40.5,36.9,0,5,7,0,2026-04-27T04:12:16.257854+05:30
Dehradun,Uttarakhand,30.6284,78.0322,11.9,55,0.0,823.3,7.9,43.9,37,11.5,7.8,0,5,7,0,2026-04-27T04:12:16.257860+05:30
Shimla,Himachal Pradesh,31.1048,77.1734,11.5,42,0.0,778.5,7.8,50.0,45,12.9,10.1,0,5,7,1,2026-04-27T04:12:16.257866+05:30
Manali,Himachal Pradesh,32.2396,77.1887,7.2,39,0.0,809.6,9.15,41.4,56,11.7,8.4,0,5,7,1,2026-04-27T04:12:16.257872+05:30
Gurgaon,Haryana,28.4595,77.0266,26.9,34,0.0,975.6,7.55,36.4,1326,583.0,110.4,4,5,7,0,2026-04-27T04:12:16.257877+05:30
Noida,Uttar Pradesh,28.5355,77.391,28.4,29,0.0,978.6,7.45,43.9,1326,583.0,110.4,4,5,7,0,2026-04-27T04:12:16.257882+05:30
Ghaziabad,Uttar Pradesh,28.6692,77.4538,26.9,30,0.0,976.8,7.4,41.4,467,519.7,104.1,4,5,7,0,2026-04-27T04:12:16.257890+05:30
Faridabad,Haryana,28.4089,77.3178,30.8,23,0.0,978.1,7.5,47.5,1326,583.0,110.4,0,5,7,0,2026-04-27T04:12:16.257895+05:30
Meerut,Uttar Pradesh,28.9845,77.7064,26.0,34,0.0,975.4,7.35,40.3,467,519.7,104.1,4,5,7,0,2026-04-27T04:12:16.257900+05:30
Agra,Uttar Pradesh,27.1767,78.0081,29.2,32,0.0,981.8,7.8,45.4,646,343.7,93.4,4,5,7,0,2026-04-27T04:12:16.257905+05:30
Varanasi,Uttar Pradesh,25.3176,82.9739,27.1,73,0.0,991.8,8.5,44.3,135,56.0,53.2,7,5,7,1,2026-04-27T04:12:16.257912+05:30
Prayagraj,Uttar Pradesh,25.4358,81.8463,27.2,71,0.0,990.1,8.4,43.6,131,61.5,52.5,7,5,7,1,2026-04-27T04:12:16.257918+05:30
Gorakhpur,Uttar Pradesh,26.7606,83.3732,24.1,73,0.0,993.0,8.35,37.1,142,43.4,36.4,3,5,7,1,2026-04-27T04:12:16.257923+05:30
Bareilly,Uttar Pradesh,28.367,79.4304,25.8,36,0.0,981.2,7.6,45.0,105,123.4,41.8,4,5,7,0,2026-04-27T04:12:16.257930+05:30
Aligarh,Uttar Pradesh,27.8974,78.088,27.0,35,0.0,979.6,7.6,46.8,883,704.1,118.3,4,5,7,0,2026-04-27T04:12:16.257935+05:30
Moradabad,Uttar Pradesh,28.8386,78.7733,26.6,31,0.0,977.7,7.55,48.2,118,255.2,65.4,4,5,7,0,2026-04-27T04:12:16.257941+05:30
Saharanpur,Uttar Pradesh,29.9637,77.546,25.4,32,0.0,969.3,7.05,46.8,80,61.9,31.7,4,5,7,0,2026-04-27T04:12:16.257946+05:30
Jhansi,Uttar Pradesh,25.4484,78.5685,30.4,26,0.0,972.1,8.3,43.6,86,40.6,20.1,0,5,7,0,2026-04-27T04:12:19.570070+05:30
Surat,Gujarat,21.1702,72.8311,27.9,84,0.0,1002.6,7.85,40.7,120,36.6,25.0,7,5,4,1,2026-04-27T04:12:19.570101+05:30
Vadodara,Gujarat,22.3072,73.1812,29.5,42,0.0,999.9,8.15,41.4,80,33.3,23.1,4,5,7,0,2026-04-27T04:12:19.570109+05:30
Rajkot,Gujarat,22.3039,70.8022,26.3,56,0.0,990.9,7.9,49.0,55,25.9,10.8,4,5,7,1,2026-04-27T04:12:19.570116+05:30
Thane,Maharashtra,19.2183,72.9781,26.9,95,0.0,1004.7,8.05,37.1,91,74.0,30.5,7,5,4,1,2026-04-27T04:12:19.570121+05:30
Nagpur,Maharashtra,21.1458,79.0882,30.2,29,0.0,968.7,8.55,36.7,88,51.1,32.8,0,5,7,0,2026-04-27T04:12:19.570127+05:30
Nashik,Maharashtra,19.9975,73.7898,25.0,65,0.0,942.3,8.3,37.8,78,54.0,30.5,7,5,7,1,2026-04-27T04:12:19.570132+05:30
Aurangabad,Maharashtra,19.8762,75.3433,30.2,23,0.0,940.6,9.05,32.8,58,27.9,23.5,0,5,7,0,2026-04-27T04:12:19.570137+05:30
Solapur,Maharashtra,17.6599,75.9064,28.9,50,0.0,954.3,9.1,32.8,111,27.0,23.8,4,5,7,1,2026-04-27T04:12:19.570143+05:30
Kolhapur,Maharashtra,16.705,74.2433,24.0,93,0.0,945.4,9.0,49.7,97,28.5,20.0,3,5,7,1,2026-04-27T04:12:19.570149+05:30
Goa,Goa,15.2993,74.124,28.0,89,0.0,995.4,8.95,37.1,85,39.5,26.8,7,5,7,1,2026-04-27T04:12:19.570154+05:30
Jodhpur,Rajasthan,26.2389,73.0243,31.4,21,0.0,977.7,8.3,41.8,83,138.8,21.7,0,5,7,0,2026-04-27T04:12:19.570160+05:30
Udaipur,Rajasthan,24.5854,73.7125,29.9,20,0.0,942.4,8.75,44.3,46,26.6,8.7,4,5,7,0,2026-04-27T04:12:19.570165+05:30
Kota,Rajasthan,25.2138,75.8648,30.8,23,0.0,973.6,8.25,29.9,83,22.7,17.2,0,5,7,0,2026-04-27T04:12:19.570170+05:30
Bikaner,Rajasthan,28.0229,73.3119,30.0,26,0.0,975.9,8.1,52.2,67,59.8,17.9,4,5,7,0,2026-04-27T04:12:19.570176+05:30
Ajmer,Rajasthan,26.4499,74.6399,29.2,28,0.0,950.3,8.25,46.8,62,43.8,11.4,4,5,7,0,2026-04-27T04:12:19.570181+05:30
Gwalior,Madhya Pradesh,26.2183,78.1828,30.8,26,0.0,977.4,8.05,46.8,107,35.3,18.3,0,5,7,0,2026-04-27T04:12:19.570186+05:30
Indore,Madhya Pradesh,22.7196,75.8577,29.3,19,0.0,944.4,8.6,49.0,73,25.6,20.0,4,5,7,0,2026-04-27T04:12:19.570191+05:30
Bhopal,Madhya Pradesh,23.2599,77.4126,31.1,20,0.0,949.7,8.6,44.6,74,55.9,28.4,0,5,7,0,2026-04-27T04:12:19.570196+05:30
Jabalpur,Madhya Pradesh,23.1815,79.9864,28.0,33,0.0,956.7,8.25,40.0,80,66.4,33.4,4,5,7,0,2026-04-27T04:12:19.570202+05:30
Ujjain,Madhya Pradesh,23.1765,75.7885,29.0,21,0.0,949.9,8.55,46.1,69,17.0,14.7,4,5,7,0,2026-04-27T04:12:19.570208+05:30
Visakhapatnam,Andhra Pradesh,17.6868,83.2185,26.5,91,0.0,1000.6,9.15,54.4,55,17.9,13.8,7,5,4,1,2026-04-27T04:12:19.570213+05:30
Vijayawada,Andhra Pradesh,16.5062,80.648,27.0,95,0.0,999.5,9.2,37.1,56,19.0,13.8,7,5,7,1,2026-04-27T04:12:19.570218+05:30
Guntur,Andhra Pradesh,16.3067,80.4365,27.1,96,0.0,1000.7,9.2,42.1,57,17.9,12.9,7,5,4,1,2026-04-27T04:12:19.570223+05:30
Nellore,Andhra Pradesh,14.4426,79.9865,25.9,91,0.0,1002.8,9.3,49.0,54,16.0,12.7,7,5,4,1,2026-04-27T04:12:19.570229+05:30
Kurnool,Andhra Pradesh,15.8281,78.0373,30.0,52,0.0,973.5,9.2,38.2,83,21.5,18.6,4,5,7,1,2026-04-27T04:12:19.570234+05:30
Kakinada,Andhra Pradesh,16.9891,82.2475,26.4,97,0.0,1004.7,9.2,42.5,48,20.0,13.0,7,5,4,1,2026-04-27T04:12:19.570239+05:30
Tirupati,Andhra Pradesh,13.6288,79.4192,26.0,82,0.0,988.8,9.3,46.4,63,22.4,19.4,7,5,7,1,2026-04-27T04:12:19.570244+05:30
Warangal,Telangana,17.9689,79.5941,26.2,76,0.0,975.1,8.85,40.0,74,17.3,15.2,7,5,7,1,2026-04-27T04:12:19.570249+05:30
Nizamabad,Telangana,18.6725,78.0941,29.4,38,0.0,960.8,9.1,29.9,114,44.5,41.6,4,5,7,0,2026-04-27T04:12:19.570254+05:30
Mysore,Karnataka,12.2958,76.6396,22.6,96,0.0,926.5,9.45,44.3,95,43.8,40.9,3,5,7,1,2026-04-27T04:12:19.570259+05:30
Mangalore,Karnataka,12.9141,74.856,28.1,88,0.0,1004.8,8.45,38.9,80,30.4,24.0,7,5,4,1,2026-04-27T04:12:19.570264+05:30
Hubli-Dharwad,Karnataka,15.3647,75.124,24.0,95,0.0,938.4,9.2,48.2,90,25.1,21.5,3,5,7,1,2026-04-27T04:12:19.570269+05:30
Belgaum,Karnataka,15.8497,74.4977,22.4,98,0.0,923.0,9.25,48.2,100,30.6,25.4,3,5,7,1,2026-04-27T04:12:22.882516+05:30
Coimbatore,Tamil Nadu,11.0168,76.9558,25.8,86,0.0,959.5,9.35,46.8,81,24.8,23.2,7,5,7,1,2026-04-27T04:12:22.882545+05:30
Madurai,Tamil Nadu,9.9252,78.1198,27.6,77,0.0,991.0,9.2,46.4,47,12.9,12.5,7,5,7,1,2026-04-27T04:12:22.882554+05:30
Trichy,Tamil Nadu,10.7905,78.7047,26.3,95,0.0,997.8,9.25,41.0,53,20.7,17.9,7,5,7,1,2026-04-27T04:12:22.882561+05:30
Salem,Tamil Nadu,11.6643,78.146,26.2,74,0.0,975.6,9.3,34.2,63,22.9,21.5,7,5,7,1,2026-04-27T04:12:22.882567+05:30
Tirunelveli,Tamil Nadu,8.7139,77.7567,27.1,77,0.0,1001.1,8.55,46.1,52,20.7,20.0,7,5,4,1,2026-04-27T04:12:22.882573+05:30
Vellore,Tamil Nadu,12.9165,79.1325,24.6,88,0.0,982.2,9.25,40.3,80,41.4,38.5,3,5,7,1,2026-04-27T04:12:22.882579+05:30
Erode,Tamil Nadu,11.341,77.7172,26.8,78,0.0,987.1,9.3,45.4,53,17.7,16.8,7,5,7,1,2026-04-27T04:12:22.882585+05:30
Kochi,Kerala,9.9312,76.2673,27.2,90,0.0,1006.6,9.0,35.3,79,39.1,37.5,7,5,4,1,2026-04-27T04:12:22.882591+05:30
Thiruvananthapuram,Kerala,8.5241,76.9366,25.1,91,0.0,1005.8,8.65,34.9,44,14.3,12.8,7,5,4,1,2026-04-27T04:12:22.882597+05:30
Kozhikode,Kerala,11.2588,75.7804,25.7,92,0.0,1006.0,8.8,38.9,57,19.7,16.1,7,5,4,1,2026-04-27T04:12:22.882603+05:30
Thrissur,Kerala,10.5276,76.2144,25.8,100,0.0,1005.2,9.0,33.8,76,38.0,35.7,7,5,4,1,2026-04-27T04:12:22.882608+05:30
Kannur,Kerala,11.8745,75.3704,25.2,93,0.0,1005.3,9.0,37.4,71,23.8,19.3,7,5,4,1,2026-04-27T04:12:22.882614+05:30
Patna,Bihar,25.5941,85.1376,23.9,83,0.0,995.8,8.6,34.9,144,47.1,42.7,3,5,7,1,2026-04-27T04:12:22.882619+05:30
Gaya,Bihar,24.7914,85.0002,25.3,87,0.0,988.0,8.7,31.0,131,47.6,45.8,7,5,7,1,2026-04-27T04:12:22.882624+05:30
Muzaffarpur,Bihar,26.1209,85.3647,23.0,82,0.0,996.5,8.6,36.7,148,49.1,44.2,3,5,7,1,2026-04-27T04:12:22.882629+05:30
Bhagalpur,Bihar,25.2425,87.0117,23.5,87,0.0,997.3,8.15,32.8,136,50.4,41.6,3,5,7,1,2026-04-27T04:12:22.882634+05:30
Ranchi,Jharkhand,23.3441,85.3096,24.2,69,0.0,932.6,8.55,45.4,114,102.4,46.1,3,5,7,1,2026-04-27T04:12:22.882662+05:30
Jamshedpur,Jharkhand,22.8046,86.2029,27.2,80,0.0,985.4,9.0,52.9,123,41.1,37.6,7,5,7,1,2026-04-27T04:12:22.882667+05:30
Dhanbad,Jharkhand,23.7957,86.4304,26.3,94,0.0,974.3,8.95,55.4,145,53.4,50.8,7,5,7,1,2026-04-27T04:12:22.882673+05:30
Bokaro,Jharkhand,23.6693,86.1511,25.3,100,0.0,978.0,8.95,51.1,146,65.0,62.6,7,5,7,1,2026-04-27T04:12:22.882678+05:30
Bhubaneswar,Odisha,20.2961,85.8245,26.8,91,0.0,997.9,8.9,53.3,54,13.6,9.8,7,5,7,1,2026-04-27T04:12:22.882684+05:30
Cuttack,Odisha,20.4625,85.8828,26.9,91,0.0,999.7,8.9,47.2,54,13.6,9.8,7,5,7,1,2026-04-27T04:12:22.882689+05:30
Rourkela,Odisha,22.2604,84.8536,26.5,85,0.0,980.2,8.95,46.8,131,53.8,41.0,7,5,7,1,2026-04-27T04:12:22.882695+05:30
Raipur,Chhattisgarh,21.2514,81.6296,29.3,32,0.0,970.5,8.4,57.2,106,37.6,35.5,4,5,7,0,2026-04-27T04:12:22.882702+05:30
Bhilai,Chhattisgarh,21.1938,81.3509,28.7,37,0.0,970.9,7.6,47.2,99,36.2,33.9,4,5,7,0,2026-04-27T04:12:22.882707+05:30
Guwahati,Assam,26.1158,91.7086,20.5,97,0.1,999.2,2.45,31.0,127,30.6,22.2,6,5,3,1,2026-04-27T04:12:22.882712+05:30
Agartala,Tripura,23.8315,91.2868,24.5,95,0.0,1003.2,7.8,57.6,92,24.1,19.6,3,5,4,1,2026-04-27T04:12:22.882718+05:30
Shillong,Meghalaya,25.5788,91.8933,15.0,98,0.1,852.4,1.75,43.2,131,44.5,31.2,6,10,3,0,2026-04-27T04:12:22.882724+05:30
Imphal,Manipur,24.817,93.9368,17.6,95,0.0,920.8,8.35,32.0,160,124.3,78.7,3,10,7,1,2026-04-27T04:12:22.882729+05:30
Aizawl,Mizoram,23.7271,92.7176,17.4,98,0.1,889.8,9.0,56.2,107,39.2,25.3,6,10,7,1,2026-04-27T04:12:22.882734+05:30
Kohima,Nagaland,25.6701,94.1077,14.3,96,0.1,851.6,1.2,28.8,152,74.7,41.7,6,10,3,0,2026-04-27T04:12:22.882739+05:30
Gangtok,Sikkim,27.3314,88.6138,12.5,97,0.0,831.8,8.5,41.4,69,13.6,10.7,3,10,7,0,2026-04-27T04:12:22.882745+05:30
Siliguri,West Bengal,26.7271,88.3953,19.9,96,0.1,990.5,8.4,32.4,123,79.4,54.0,6,10,7,1,2026-04-27T04:12:26.202098+05:30
Durgapur,West Bengal,23.5204,87.3119,26.6,94,0.0,989.8,8.8,37.4,114,28.5,25.1,7,5,7,1,2026-04-27T04:12:26.202127+05:30
Asansol,West Bengal,23.6739,86.9524,27.1,92,0.0,988.2,8.75,41.0,121,29.5,26.8,7,5,7,1,2026-04-27T04:12:26.202135+05:30
Pondicherry,Puducherry,11.9139,79.8145,27.6,88,0.0,1006.1,9.2,48.6,45,18.9,12.9,7,5,4,1,2026-04-27T04:12:26.202141+05:30
Port Blair,Andaman and Nicobar Islands,11.6234,92.7265,26.7,88,0.0,1005.0,9.1,34.2,55,19.2,14.3,7,5,4,1,2026-04-27T04:12:26.202147+05:30
Haridwar,Uttarakhand,29.9457,78.1642,18.7,61,0.0,967.1,7.25,27.4,62,20.1,19.8,3,5,7,0,2026-04-27T04:12:26.202153+05:30
Rishikesh,Uttarakhand,30.0869,78.2676,17.2,64,0.0,959.6,7.35,26.6,59,20.5,18.5,3,5,7,0,2026-04-27T04:12:26.202158+05:30
Nainital,Uttarakhand,29.3919,79.4542,15.4,31,0.0,801.3,8.2,38.9,65,19.2,13.3,0,5,7,1,2026-04-27T04:12:26.202164+05:30
Mussoorie,Uttarakhand,30.4599,78.0664,13.9,44,0.0,797.4,7.75,54.0,54,16.2,14.6,0,5,7,0,2026-04-27T04:12:26.202170+05:30
Dharamshala,Himachal Pradesh,32.219,76.3234,22.2,32,0.0,865.3,8.0,47.9,41,6.4,4.2,0,5,7,0,2026-04-27T04:12:26.202176+05:30
Dalhousie,Himachal Pradesh,32.5387,75.971,10.4,69,0.0,796.9,8.25,43.9,54,14.3,12.3,3,5,7,0,2026-04-27T04:12:26.202181+05:30
Patiala,Punjab,30.3398,76.3869,27.3,31,0.0,972.1,7.25,40.0,417,258.0,51.9,4,5,7,0,2026-04-27T04:12:26.202187+05:30
Bhatinda,Punjab,30.211,74.9455,27.5,30,0.0,977.6,7.8,64.1,77,33.4,23.7,4,5,7,0,2026-04-27T04:12:26.202192+05:30
Rohtak,Haryana,28.8955,76.6066,26.6,29,0.0,975.9,7.5,40.7,726,597.9,105.7,4,5,7,0,2026-04-27T04:12:26.202198+05:30
Panipat,Haryana,29.3909,76.9635,26.8,30,0.0,974.4,7.3,43.2,1389,918.3,137.4,4,5,7,0,2026-04-27T04:12:26.202202+05:30
Mathura,Uttar Pradesh,27.4924,77.6737,27.0,37,0.0,981.0,7.75,38.2,799,916.4,142.0,4,5,7,0,2026-04-27T04:12:26.202207+05:30
Vrindavan,Uttar Pradesh,27.5823,77.7027,26.6,38,0.0,981.4,7.7,37.8,799,916.4,142.0,4,5,7,0,2026-04-27T04:12:26.202212+05:30
Ayodhya,Uttar Pradesh,26.7922,82.1998,24.6,76,0.0,990.7,8.1,33.5,139,53.9,45.6,3,5,7,1,2026-04-27T04:12:26.202218+05:30
Ratlam,Madhya Pradesh,23.3315,75.0367,28.2,22,0.0,950.9,8.45,44.6,59,13.8,10.6,4,5,7,0,2026-04-27T04:12:26.202223+05:30
Sagar,Madhya Pradesh,23.8388,78.7378,27.9,32,0.0,945.4,8.65,38.5,69,51.8,20.0,4,5,7,0,2026-04-27T04:12:26.202228+05:30
Satna,Madhya Pradesh,24.6005,80.8322,29.2,29,0.0,965.5,8.65,52.2,89,50.5,18.6,4,5,7,0,2026-04-27T04:12:26.202234+05:30
Akola,Maharashtra,20.7002,77.0082,31.4,22,0.0,970.5,8.9,33.8,55,31.2,21.7,0,5,7,0,2026-04-27T04:12:26.202239+05:30
Amravati,Maharashtra,20.9374,77.7796,30.3,26,0.0,962.7,8.9,36.7,60,35.4,23.5,0,5,7,0,2026-04-27T04:12:26.202245+05:30
Latur,Maharashtra,18.4088,76.5604,28.8,31,0.0,936.4,9.1,38.9,99,44.5,41.6,4,5,7,0,2026-04-27T04:12:26.202250+05:30
Nanded,Maharashtra,19.1383,77.3091,29.0,34,0.0,964.6,9.0,36.0,90,45.1,40.4,4,5,7,0,2026-04-27T04:12:26.202255+05:30
Gulbarga,Karnataka,17.3297,76.8343,29.1,46,0.0,955.5,9.1,31.3,108,33.8,31.5,4,5,7,1,2026-04-27T04:12:26.202260+05:30
Bidar,Karnataka,17.9104,77.5199,28.2,39,0.0,932.0,9.1,30.6,106,36.9,33.5,4,5,7,0,2026-04-27T04:12:26.202265+05:30
Hospet,Karnataka,15.2689,76.3909,26.0,90,0.0,953.6,9.25,35.6,101,29.3,27.9,7,5,7,1,2026-04-27T04:12:26.202269+05:30
Tirupur,Tamil Nadu,11.1085,77.3411,26.1,89,0.0,973.0,9.35,31.0,64,28.5,27.2,7,5,7,1,2026-04-27T04:12:26.202274+05:30
Alappuzha,Kerala,9.4981,76.3388,26.1,96,0.0,1006.6,8.1,34.6,70,32.4,27.8,7,5,4,1,2026-04-27T04:12:26.202279+05:30
Munnar,Kerala,10.0889,77.0595,15.8,77,0.0,853.6,9.6,27.0,68,28.1,27.5,3,5,7,0,2026-04-27T04:12:26.202284+05:30
Silchar,Assam,24.8333,92.7789,21.9,97,0.1,1003.2,8.75,26.3,161,123.9,78.2,6,5,4,1,2026-04-27T04:12:26.202289+05:30
Dibrugarh,Assam,27.4728,94.912,20.5,97,0.0,994.5,4.3,25.6,85,43.8,28.2,3,5,3,1,2026-04-27T04:12:26.202294+05:30
