city,state,latitude,longitude,temp,humidity,rain,pressure,uv_index,wind_gusts,aqi,pm10,pm2_5,mosquito_risk,arthritis_risk,migraine_risk,frizz_risk,updated_at
Delhi,Delhi,28.6139,77.209,38.9,18,0.0,982.0,7.4,29.5,382,343.7,44.8,0,5,10,0,2026-04-23T13:30:49.384356+05:30
Mumbai,Maharashtra,19.076,72.8777,29.7,77,0.0,1006.6,8.05,23.4,76,40.9,31.9,7,5,4,1,2026-04-23T13:30:49.384410+05:30
Bangalore,Karnataka,12.9716,77.5946,35.8,22,0.0,911.3,9.4,31.7,74,28.2,18.7,0,5,10,0,2026-04-23T13:30:49.384428+05:30
Hyderabad,Telangana,17.385,78.4867,37.9,26,0.0,952.2,8.75,39.2,117,41.4,34.9,0,5,10,0,2026-04-23T13:30:49.384439+05:30
Chennai,Tamil Nadu,13.0827,80.2707,36.2,51,0.0,1005.4,9.3,33.8,31,11.3,8.2,0,5,7,1,2026-04-23T13:30:49.384450+05:30
Kolkata,West Bengal,22.5726,88.3639,35.8,60,0.0,1002.4,8.85,23.4,83,38.8,34.2,0,5,7,1,2026-04-23T13:30:49.384459+05:30
Pune,Maharashtra,18.5204,73.8567,39.6,21,0.0,947.8,8.65,37.4,110,33.6,27.1,0,5,10,0,2026-04-23T13:30:49.384467+05:30
Ahmedabad,Gujarat,23.0225,72.5714,38.9,24,0.0,1001.1,8.2,27.0,45,48.7,13.9,0,5,7,0,2026-04-23T13:30:49.384476+05:30
Jaipur,Rajasthan,26.9124,75.7873,38.3,15,0.0,959.7,8.05,29.9,140,115.5,16.6,0,5,10,0,2026-04-23T13:30:49.384484+05:30
Lucknow,Uttar Pradesh,26.8467,80.9462,41.5,15,0.0,990.8,7.85,37.4,192,192.8,37.0,0,5,10,0,2026-04-23T13:30:49.384492+05:30
Kanpur,Uttar Pradesh,26.4499,80.3319,39.3,23,0.0,989.9,7.9,29.2,428,497.3,58.6,0,5,10,0,2026-04-23T13:30:49.384504+05:30
Chandigarh,Chandigarh,30.7333,76.7794,38.8,22,0.0,967.8,7.4,30.6,85,31.3,18.3,0,5,10,0,2026-04-23T13:30:49.384512+05:30
Srinagar,Jammu and Kashmir,34.0837,74.7973,23.1,51,0.0,845.6,7.65,17.3,70,18.6,9.3,0,5,7,0,2026-04-23T13:30:49.384520+05:30
Jammu,Jammu and Kashmir,32.7266,74.857,38.6,27,0.0,971.5,8.2,32.0,63,25.8,13.0,0,5,10,1,2026-04-23T13:30:49.384528+05:30
Amritsar,Punjab,31.634,74.8723,40.7,20,0.0,978.9,7.55,33.8,97,44.9,24.6,0,5,10,0,2026-04-23T13:30:49.384535+05:30
Ludhiana,Punjab,30.901,75.8573,40.8,17,0.0,976.7,7.7,22.0,87,43.0,19.7,0,5,10,0,2026-04-23T13:30:49.384542+05:30
Jalandhar,Punjab,31.326,75.5762,41.0,18,0.0,978.1,7.85,33.8,88,56.2,22.1,0,5,10,0,2026-04-23T13:30:49.384549+05:30
Dehradun,Uttarakhand,30.6284,78.0322,27.9,36,0.0,834.6,7.85,38.5,71,19.5,10.6,4,5,7,0,2026-04-23T13:30:49.384556+05:30
Shimla,Himachal Pradesh,31.1048,77.1734,27.2,25,0.0,790.8,7.9,52.6,78,20.7,10.6,4,5,7,0,2026-04-23T13:30:49.384563+05:30
Manali,Himachal Pradesh,32.2396,77.1887,28.4,32,0.0,826.3,9.9,31.3,121,18.4,8.9,4,5,7,0,2026-04-23T13:30:49.384571+05:30
Gurgaon,Haryana,28.4595,77.0266,38.8,19,0.0,980.5,7.5,23.4,1200,936.9,90.6,0,5,10,0,2026-04-23T13:30:49.384581+05:30
Noida,Uttar Pradesh,28.5355,77.391,39.7,16,0.0,983.3,7.4,31.0,1200,936.9,90.6,0,5,10,0,2026-04-23T13:30:49.384592+05:30
Ghaziabad,Uttar Pradesh,28.6692,77.4538,39.0,21,0.0,981.6,7.4,29.5,290,218.4,35.3,0,5,10,0,2026-04-23T13:30:49.384602+05:30
Faridabad,Haryana,28.4089,77.3178,40.9,12,0.0,982.7,7.45,29.9,1200,936.9,90.6,0,5,10,0,2026-04-23T13:30:49.384610+05:30
Meerut,Uttar Pradesh,28.9845,77.7064,39.8,19,0.0,980.1,7.3,28.1,290,218.4,35.3,0,5,10,0,2026-04-23T13:30:49.384616+05:30
Agra,Uttar Pradesh,27.1767,78.0081,40.5,14,0.0,986.8,7.75,31.3,671,597.9,53.9,0,5,10,0,2026-04-23T13:30:49.384623+05:30
Varanasi,Uttar Pradesh,25.3176,82.9739,42.8,13,0.0,994.1,8.45,36.0,112,271.9,43.0,0,5,10,0,2026-04-23T13:30:49.384630+05:30
Prayagraj,Uttar Pradesh,25.4358,81.8463,42.3,13,0.0,993.0,8.35,32.4,123,251.5,39.5,0,5,10,0,2026-04-23T13:30:49.384636+05:30
Gorakhpur,Uttar Pradesh,26.7606,83.3732,41.1,16,0.0,993.9,8.3,30.6,123,148.5,38.8,0,5,10,0,2026-04-23T13:30:49.384643+05:30
Bareilly,Uttar Pradesh,28.367,79.4304,40.9,17,0.0,984.7,7.65,28.8,104,54.2,26.6,0,5,10,0,2026-04-23T13:30:49.384650+05:30
Aligarh,Uttar Pradesh,27.8974,78.088,41.1,11,0.0,984.2,7.55,30.6,671,633.3,66.1,0,5,10,0,2026-04-23T13:30:49.384659+05:30
Moradabad,Uttar Pradesh,28.8386,78.7733,40.5,19,0.0,981.8,7.5,32.0,124,65.2,26.0,0,5,10,0,2026-04-23T13:30:49.384665+05:30
Saharanpur,Uttar Pradesh,29.9637,77.546,38.4,24,0.0,974.4,7.1,33.1,94,77.5,26.5,0,5,10,0,2026-04-23T13:30:49.384672+05:30
Jhansi,Uttar Pradesh,25.4484,78.5685,42.8,10,0.0,976.6,8.25,29.2,52,14.9,9.8,0,5,10,0,2026-04-23T13:30:55.720471+05:30
Surat,Gujarat,21.1702,72.8311,35.5,45,0.0,1005.7,7.9,21.2,100,37.8,28.0,0,5,7,1,2026-04-23T13:30:55.720505+05:30
Vadodara,Gujarat,22.3072,73.1812,39.8,21,0.0,1003.3,8.2,24.8,78,26.8,14.3,0,5,7,0,2026-04-23T13:30:55.720515+05:30
Rajkot,Gujarat,22.3039,70.8022,38.0,25,0.0,993.5,7.9,30.6,46,34.5,11.0,0,5,10,0,2026-04-23T13:30:55.720523+05:30
Thane,Maharashtra,19.2183,72.9781,34.6,54,0.0,1006.4,8.05,35.6,76,40.9,31.9,0,5,4,1,2026-04-23T13:30:55.720531+05:30
Nagpur,Maharashtra,21.1458,79.0882,39.9,18,0.0,972.2,8.95,24.1,75,18.3,16.2,0,5,10,0,2026-04-23T13:30:55.720538+05:30
Nashik,Maharashtra,19.9975,73.7898,37.0,23,0.0,945.7,8.35,24.8,85,32.7,24.7,0,5,10,0,2026-04-23T13:30:55.720545+05:30
Aurangabad,Maharashtra,19.8762,75.3433,38.9,17,0.0,944.4,9.05,33.8,89,30.4,24.2,0,5,10,0,2026-04-23T13:30:55.720551+05:30
Solapur,Maharashtra,17.6599,75.9064,39.7,19,0.0,955.9,9.1,32.0,98,38.4,32.5,0,5,10,0,2026-04-23T13:30:55.720558+05:30
Kolhapur,Maharashtra,16.705,74.2433,37.6,26,0.0,947.1,9.05,46.4,119,37.1,32.2,0,5,10,0,2026-04-23T13:30:55.720564+05:30
Goa,Goa,15.2993,74.124,34.1,62,0.0,995.7,9.0,32.0,85,35.4,25.1,3,5,7,1,2026-04-23T13:30:55.720571+05:30
Jodhpur,Rajasthan,26.2389,73.0243,38.8,25,0.0,982.0,8.25,22.7,86,82.4,14.8,0,5,10,0,2026-04-23T13:30:55.720577+05:30
Udaipur,Rajasthan,24.5854,73.7125,36.2,16,0.0,946.9,8.75,31.3,45,36.3,9.9,0,5,10,0,2026-04-23T13:30:55.720583+05:30
Kota,Rajasthan,25.2138,75.8648,41.3,12,0.0,977.6,8.25,31.0,52,12.0,9.8,0,5,10,0,2026-04-23T13:30:55.720590+05:30
Bikaner,Rajasthan,28.0229,73.3119,40.4,18,0.0,980.4,8.15,23.4,63,149.5,27.3,0,5,10,0,2026-04-23T13:30:55.720596+05:30
Ajmer,Rajasthan,26.4499,74.6399,36.9,19,0.0,954.8,8.2,26.6,46,35.9,9.6,0,5,10,0,2026-04-23T13:30:55.720602+05:30
Gwalior,Madhya Pradesh,26.2183,78.1828,39.8,15,0.0,982.5,8.0,38.2,46,19.0,7.6,0,5,10,0,2026-04-23T13:30:55.720608+05:30
Indore,Madhya Pradesh,22.7196,75.8577,38.4,20,0.0,948.7,8.4,32.8,75,24.7,19.0,0,5,10,0,2026-04-23T13:30:55.720615+05:30
Bhopal,Madhya Pradesh,23.2599,77.4126,38.7,16,0.0,954.2,8.5,28.4,68,21.6,16.9,0,5,10,0,2026-04-23T13:30:55.720622+05:30
Jabalpur,Madhya Pradesh,23.1815,79.9864,38.9,18,0.0,961.1,8.8,25.2,66,14.6,11.8,0,5,10,0,2026-04-23T13:30:55.720628+05:30
Ujjain,Madhya Pradesh,23.1765,75.7885,38.9,16,0.0,954.3,8.55,33.5,67,21.9,17.2,0,5,10,0,2026-04-23T13:30:55.720635+05:30
Visakhapatnam,Andhra Pradesh,17.6868,83.2185,34.6,57,0.0,1001.4,9.25,33.8,66,27.5,22.2,0,5,4,1,2026-04-23T13:30:55.720641+05:30
Vijayawada,Andhra Pradesh,16.5062,80.648,37.6,39,0.0,1000.5,9.25,22.7,61,24.6,18.6,0,5,7,1,2026-04-23T13:30:55.720647+05:30
Guntur,Andhra Pradesh,16.3067,80.4365,38.5,36,0.0,1001.6,9.3,26.6,65,27.4,21.4,0,5,7,1,2026-04-23T13:30:55.720653+05:30
Nellore,Andhra Pradesh,14.4426,79.9865,39.8,32,0.0,1003.0,9.3,32.0,44,20.6,15.8,0,5,7,1,2026-04-23T13:30:55.720660+05:30
Kurnool,Andhra Pradesh,15.8281,78.0373,40.2,24,0.0,974.4,8.8,44.6,90,39.6,33.1,0,5,10,0,2026-04-23T13:30:55.720667+05:30
Kakinada,Andhra Pradesh,16.9891,82.2475,37.5,45,0.0,1004.8,9.25,29.5,47,19.4,12.5,0,5,7,1,2026-04-23T13:30:55.720674+05:30
Tirupati,Andhra Pradesh,13.6288,79.4192,38.4,28,0.0,989.6,9.35,33.8,65,18.3,14.4,0,5,10,1,2026-04-23T13:30:55.720680+05:30
Warangal,Telangana,17.9689,79.5941,38.0,34,0.0,977.4,8.4,20.5,116,44.0,37.7,0,5,10,1,2026-04-23T13:30:55.720686+05:30
Nizamabad,Telangana,18.6725,78.0941,39.0,21,0.0,963.8,8.6,32.0,113,30.6,24.9,0,5,10,0,2026-04-23T13:30:55.720692+05:30
Mysore,Karnataka,12.2958,76.6396,37.3,21,0.0,927.5,9.2,39.6,83,26.8,19.5,0,5,10,0,2026-04-23T13:30:55.720698+05:30
Mangalore,Karnataka,12.9141,74.856,30.2,83,0.0,1004.0,8.7,25.9,83,38.3,29.0,3,5,4,1,2026-04-23T13:30:55.720705+05:30
Hubli-Dharwad,Karnataka,15.3647,75.124,37.1,29,0.0,939.8,9.25,40.7,92,31.7,26.6,0,5,10,1,2026-04-23T13:30:55.720712+05:30
Belgaum,Karnataka,15.8497,74.4977,35.8,29,0.0,925.2,9.25,34.9,115,31.4,27.5,0,5,10,0,2026-04-23T13:31:01.729115+05:30
Coimbatore,Tamil Nadu,11.0168,76.9558,37.0,29,0.0,960.1,9.4,33.8,89,20.3,15.4,0,5,10,0,2026-04-23T13:31:01.729150+05:30
Madurai,Tamil Nadu,9.9252,78.1198,37.9,35,0.0,990.5,9.3,31.0,51,10.9,9.2,0,5,10,1,2026-04-23T13:31:01.729161+05:30
Trichy,Tamil Nadu,10.7905,78.7047,37.2,40,0.0,997.3,9.3,23.4,46,9.3,8.1,0,5,10,1,2026-04-23T13:31:01.729169+05:30
Salem,Tamil Nadu,11.6643,78.146,37.5,37,0.0,975.3,9.4,29.9,64,19.9,15.9,0,5,10,1,2026-04-23T13:31:01.729177+05:30
Tirunelveli,Tamil Nadu,8.7139,77.7567,36.8,41,0.0,1000.6,9.25,36.0,69,13.4,11.6,0,5,7,1,2026-04-23T13:31:01.729185+05:30
Vellore,Tamil Nadu,12.9165,79.1325,37.3,31,0.0,982.9,9.4,30.6,80,19.6,17.2,0,5,10,1,2026-04-23T13:31:01.729192+05:30
Erode,Tamil Nadu,11.341,77.7172,39.2,32,0.0,986.4,9.35,30.2,42,13.0,10.1,0,5,10,1,2026-04-23T13:31:01.729200+05:30
Kochi,Kerala,9.9312,76.2673,29.8,82,0.0,1005.9,9.05,29.9,80,21.8,19.0,7,5,4,1,2026-04-23T13:31:01.729207+05:30
Thiruvananthapuram,Kerala,8.5241,76.9366,29.4,82,0.0,1005.6,8.7,18.7,67,19.1,15.7,7,5,4,1,2026-04-23T13:31:01.729214+05:30
Kozhikode,Kerala,11.2588,75.7804,31.3,77,0.0,1005.1,9.1,30.2,74,24.9,19.7,3,5,4,1,2026-04-23T13:31:01.729221+05:30
Thrissur,Kerala,10.5276,76.2144,34.5,60,0.0,1004.4,9.15,37.4,81,20.7,17.3,0,5,4,1,2026-04-23T13:31:01.729227+05:30
Kannur,Kerala,11.8745,75.3704,32.5,68,0.0,1004.5,9.1,31.7,85,35.6,27.8,3,5,4,1,2026-04-23T13:31:01.729234+05:30
Patna,Bihar,25.5941,85.1376,39.1,22,0.0,997.2,8.6,23.8,149,156.9,48.1,0,5,10,0,2026-04-23T13:31:01.729241+05:30
Gaya,Bihar,24.7914,85.0002,41.2,15,0.0,990.7,8.5,33.5,128,220.7,41.7,0,5,10,0,2026-04-23T13:31:01.729247+05:30
Muzaffarpur,Bihar,26.1209,85.3647,38.0,33,0.0,997.1,8.65,25.9,150,114.6,45.2,0,5,10,1,2026-04-23T13:31:01.729253+05:30
Bhagalpur,Bihar,25.2425,87.0117,36.5,45,0.0,997.9,8.55,19.1,160,105.5,56.6,0,5,10,1,2026-04-23T13:31:01.729258+05:30
Ranchi,Jharkhand,23.3441,85.3096,38.0,13,0.0,937.1,8.8,37.4,117,139.7,23.9,0,5,10,0,2026-04-23T13:31:01.729265+05:30
Jamshedpur,Jharkhand,22.8046,86.2029,41.6,18,0.0,987.3,8.85,16.2,159,149.9,35.9,0,5,10,0,2026-04-23T13:31:01.729271+05:30
Dhanbad,Jharkhand,23.7957,86.4304,41.8,13,0.0,976.7,8.8,34.2,163,205.8,37.5,0,5,10,0,2026-04-23T13:31:01.729277+05:30
Bokaro,Jharkhand,23.6693,86.1511,41.6,12,0.0,980.6,8.65,37.1,155,211.9,38.5,0,5,10,0,2026-04-23T13:31:01.729283+05:30
Bhubaneswar,Odisha,20.2961,85.8245,38.0,49,0.0,998.9,9.15,35.6,106,48.0,39.7,0,5,10,1,2026-04-23T13:31:01.729289+05:30
Cuttack,Odisha,20.4625,85.8828,42.0,29,0.0,1000.1,9.2,40.3,106,48.0,39.7,0,5,7,1,2026-04-23T13:31:01.729294+05:30
Rourkela,Odisha,22.2604,84.8536,41.3,16,0.0,982.3,8.8,19.1,97,83.4,19.8,0,5,10,0,2026-04-23T13:31:01.729300+05:30
Raipur,Chhattisgarh,21.2514,81.6296,41.1,16,0.0,973.1,7.9,29.5,122,22.8,18.1,0,5,10,0,2026-04-23T13:31:01.729306+05:30
Bhilai,Chhattisgarh,21.1938,81.3509,40.7,18,0.0,973.5,7.7,25.9,112,19.3,16.4,0,5,10,0,2026-04-23T13:31:01.729311+05:30
Guwahati,Assam,26.1158,91.7086,31.1,66,0.0,999.5,8.55,20.9,93,73.1,31.7,3,5,7,1,2026-04-23T13:31:01.729317+05:30
Agartala,Tripura,23.8315,91.2868,35.3,49,0.0,1003.1,8.4,20.5,78,74.3,29.2,0,5,7,1,2026-04-23T13:31:01.729323+05:30
Shillong,Meghalaya,25.5788,91.8933,24.9,47,0.0,858.1,8.95,36.0,97,83.4,32.6,0,5,7,0,2026-04-23T13:31:01.729329+05:30
Imphal,Manipur,24.817,93.9368,25.7,61,0.0,922.3,9.15,48.2,110,77.3,31.4,7,5,7,1,2026-04-23T13:31:01.729335+05:30
Aizawl,Mizoram,23.7271,92.7176,28.8,48,0.0,893.2,8.95,35.3,107,116.2,37.4,4,5,7,1,2026-04-23T13:31:01.729341+05:30
Kohima,Nagaland,25.6701,94.1077,22.3,66,0.0,855.6,9.05,50.0,91,60.3,26.3,3,5,7,0,2026-04-23T13:31:01.729347+05:30
Gangtok,Sikkim,27.3314,88.6138,24.8,57,0.0,839.6,8.9,22.0,113,55.1,32.1,0,5,7,0,2026-04-23T13:31:01.729354+05:30
Siliguri,West Bengal,26.7271,88.3953,27.7,70,0.0,992.4,8.55,22.3,150,66.4,36.8,7,5,7,1,2026-04-23T13:31:05.713792+05:30
Durgapur,West Bengal,23.5204,87.3119,42.2,20,0.0,990.8,8.95,25.9,153,180.7,49.1,0,5,10,0,2026-04-23T13:31:05.713824+05:30
Asansol,West Bengal,23.6739,86.9524,42.7,15,0.0,989.5,8.95,29.2,154,201.6,40.6,0,5,10,0,2026-04-23T13:31:05.713836+05:30
Pondicherry,Puducherry,11.9139,79.8145,37.1,46,0.0,1005.9,9.25,28.8,25,10.0,6.7,0,5,7,1,2026-04-23T13:31:05.713844+05:30
Port Blair,Andaman and Nicobar Islands,11.6234,92.7265,30.2,70,0.0,1004.8,9.15,23.8,32,13.2,6.3,3,5,4,1,2026-04-23T13:31:05.713851+05:30
Haridwar,Uttarakhand,29.9457,78.1642,38.3,25,0.0,973.2,7.2,36.7,78,38.0,19.3,0,5,10,0,2026-04-23T13:31:05.713859+05:30
Rishikesh,Uttarakhand,30.0869,78.2676,37.1,27,0.0,966.1,7.3,34.9,80,24.9,14.0,0,5,10,0,2026-04-23T13:31:05.713866+05:30
Nainital,Uttarakhand,29.3919,79.4542,30.6,24,0.0,811.4,8.15,47.9,106,38.2,18.6,0,5,7,0,2026-04-23T13:31:05.713873+05:30
Mussoorie,Uttarakhand,30.4599,78.0664,28.7,33,0.0,808.0,7.7,40.7,79,33.8,18.3,4,5,7,0,2026-04-23T13:31:05.713880+05:30
Dharamshala,Himachal Pradesh,32.219,76.3234,32.3,27,0.0,872.3,8.05,33.5,89,15.1,6.4,0,5,7,0,2026-04-23T13:31:05.713887+05:30
Dalhousie,Himachal Pradesh,32.5387,75.971,31.0,24,0.0,809.3,8.35,32.4,70,18.2,8.8,0,5,7,0,2026-04-23T13:31:05.713930+05:30
Patiala,Punjab,30.3398,76.3869,39.6,23,0.0,976.8,7.3,16.9,250,291.5,40.2,0,5,10,0,2026-04-23T13:31:05.713939+05:30
Bhatinda,Punjab,30.211,74.9455,42.5,14,0.0,981.6,8.0,28.1,81,49.2,19.0,0,5,10,0,2026-04-23T13:31:05.713947+05:30
Rohtak,Haryana,28.8955,76.6066,39.5,20,0.0,980.7,7.45,23.8,534,538.3,57.5,0,5,10,0,2026-04-23T13:31:05.713954+05:30
Panipat,Haryana,29.3909,76.9635,40.0,19,0.0,979.1,7.25,21.2,988,720.8,72.2,0,5,10,0,2026-04-23T13:31:05.713960+05:30
Mathura,Uttar Pradesh,27.4924,77.6737,40.3,13,0.0,985.8,7.7,24.8,628,467.5,43.1,0,5,10,0,2026-04-23T13:31:05.713968+05:30
Vrindavan,Uttar Pradesh,27.5823,77.7027,40.6,12,0.0,986.2,7.65,27.0,628,467.5,43.1,0,5,10,0,2026-04-23T13:31:05.713974+05:30
Ayodhya,Uttar Pradesh,26.7922,82.1998,42.0,17,0.0,992.1,8.05,39.6,133,131.3,34.3,0,5,10,0,2026-04-23T13:31:05.713980+05:30
Ratlam,Madhya Pradesh,23.3315,75.0367,36.6,25,0.0,955.1,8.5,31.7,67,20.3,15.9,0,5,10,0,2026-04-23T13:31:05.713986+05:30
Sagar,Madhya Pradesh,23.8388,78.7378,39.5,14,0.0,950.4,8.65,32.0,65,19.3,15.1,0,5,10,0,2026-04-23T13:31:05.713992+05:30
Satna,Madhya Pradesh,24.6005,80.8322,41.9,10,0.0,970.1,8.65,29.2,60,59.8,15.3,0,5,10,0,2026-04-23T13:31:05.713998+05:30
Akola,Maharashtra,20.7002,77.0082,42.5,13,0.0,973.9,8.75,23.8,77,24.7,19.7,0,5,10,0,2026-04-23T13:31:05.714005+05:30
Amravati,Maharashtra,20.9374,77.7796,40.5,17,0.0,966.5,8.4,20.9,76,22.6,18.2,0,5,10,0,2026-04-23T13:31:05.714012+05:30
Latur,Maharashtra,18.4088,76.5604,37.3,20,0.0,939.7,9.1,41.0,107,35.3,30.2,0,5,10,0,2026-04-23T13:31:05.714018+05:30
Nanded,Maharashtra,19.1383,77.3091,40.5,17,0.0,967.5,9.05,29.9,115,24.8,20.4,0,5,10,0,2026-04-23T13:31:05.714025+05:30
Gulbarga,Karnataka,17.3297,76.8343,39.0,23,0.0,957.9,8.8,49.7,96,41.4,35.3,0,5,10,0,2026-04-23T13:31:05.714031+05:30
Bidar,Karnataka,17.9104,77.5199,38.2,20,0.0,935.3,7.95,33.5,114,39.8,33.5,0,5,10,0,2026-04-23T13:31:05.714037+05:30
Hospet,Karnataka,15.2689,76.3909,36.7,29,0.0,954.5,8.75,27.7,88,36.7,30.3,0,5,10,0,2026-04-23T13:31:05.714043+05:30
Tirupur,Tamil Nadu,11.1085,77.3411,38.4,31,0.0,973.2,9.45,33.8,64,14.0,10.8,0,5,10,1,2026-04-23T13:31:05.714049+05:30
Alappuzha,Kerala,9.4981,76.3388,29.6,82,0.0,1006.1,9.1,28.1,81,22.2,18.6,7,5,4,1,2026-04-23T13:31:05.714056+05:30
Munnar,Kerala,10.0889,77.0595,33.0,32,0.0,858.6,9.65,20.5,68,12.4,9.9,0,5,7,0,2026-04-23T13:31:05.714062+05:30
Silchar,Assam,24.8333,92.7789,31.5,65,0.0,1003.0,8.7,19.1,117,80.1,39.3,3,5,4,1,2026-04-23T13:31:05.714069+05:30
Dibrugarh,Assam,27.4728,94.912,29.6,62,0.0,993.3,8.65,11.2,76,14.3,11.3,7,5,7,1,2026-04-23T13:31:05.714075+05:30
