city,state,latitude,longitude,temp,humidity,rain,pressure,uv_index,wind_gusts,aqi,pm10,pm2_5,mosquito_risk,arthritis_risk,migraine_risk,frizz_risk,updated_at
Delhi,Delhi,28.6139,77.209,28.4,32,0.0,981.6,7.4,41.0,224,802.8,135.5,4,5,7,0,2026-04-25T05:12:13.563518+05:30
Mumbai,Maharashtra,19.076,72.8777,26.9,59,0.0,1006.3,8.0,43.9,79,37.7,20.7,4,5,4,1,2026-04-25T05:12:13.563556+05:30
Bangalore,Karnataka,12.9716,77.5946,24.5,52,0.0,910.7,8.95,41.8,81,24.6,22.5,0,5,7,0,2026-04-25T05:12:13.563569+05:30
Hyderabad,Telangana,17.385,78.4867,27.9,45,0.0,951.8,9.3,37.4,128,52.4,44.1,4,5,7,0,2026-04-25T05:12:13.563578+05:30
Chennai,Tamil Nadu,13.0827,80.2707,27.7,88,0.0,1006.5,8.95,50.8,28,11.0,7.7,7,5,4,1,2026-04-25T05:12:13.563586+05:30
Kolkata,West Bengal,22.5726,88.3639,27.5,92,0.0,1005.9,8.55,41.0,76,33.4,26.8,7,5,4,1,2026-04-25T05:12:13.563596+05:30
Pune,Maharashtra,18.5204,73.8567,26.9,43,0.0,946.9,8.35,38.2,107,52.2,47.3,4,5,7,0,2026-04-25T05:12:13.563603+05:30
Ahmedabad,Gujarat,23.0225,72.5714,29.5,43,0.0,1001.4,8.2,24.1,58,22.5,10.2,4,5,4,0,2026-04-25T05:12:13.563609+05:30
Jaipur,Rajasthan,26.9124,75.7873,27.7,27,0.0,958.8,8.05,33.5,109,268.2,44.9,4,5,7,0,2026-04-25T05:12:13.563616+05:30
Lucknow,Uttar Pradesh,26.8467,80.9462,29.2,24,0.0,991.4,7.9,40.7,122,193.7,47.8,4,5,7,0,2026-04-25T05:12:13.563623+05:30
Kanpur,Uttar Pradesh,26.4499,80.3319,29.5,25,0.0,989.8,7.9,44.3,133,244.0,50.3,4,5,7,0,2026-04-25T05:12:13.563629+05:30
Chandigarh,Chandigarh,30.7333,76.7794,26.0,34,0.0,966.8,7.3,59.4,68,21.0,15.2,4,5,7,0,2026-04-25T05:12:13.563636+05:30
Srinagar,Jammu and Kashmir,34.0837,74.7973,10.2,99,0.0,845.0,8.55,34.6,74,85.7,27.2,3,10,7,0,2026-04-25T05:12:13.563642+05:30
Jammu,Jammu and Kashmir,32.7266,74.857,26.2,34,0.0,972.3,8.2,40.7,77,34.9,20.8,4,5,7,0,2026-04-25T05:12:13.563648+05:30
Amritsar,Punjab,31.634,74.8723,25.5,45,0.0,979.9,8.1,42.8,95,56.6,30.6,4,5,7,0,2026-04-25T05:12:13.563653+05:30
Ludhiana,Punjab,30.901,75.8573,24.6,44,0.0,977.6,7.7,46.8,81,43.2,24.6,0,5,7,0,2026-04-25T05:12:13.563672+05:30
Jalandhar,Punjab,31.326,75.5762,24.9,41,0.0,978.7,7.9,38.5,84,62.6,33.2,0,5,7,0,2026-04-25T05:12:13.563677+05:30
Dehradun,Uttarakhand,30.6284,78.0322,11.4,72,0.0,827.2,7.85,47.9,54,14.9,12.1,3,5,7,0,2026-04-25T05:12:13.563682+05:30
Shimla,Himachal Pradesh,31.1048,77.1734,12.6,46,0.0,783.4,7.5,51.1,55,27.5,16.5,0,5,7,0,2026-04-25T05:12:13.563689+05:30
Manali,Himachal Pradesh,32.2396,77.1887,8.8,77,0.0,817.6,8.05,42.8,53,8.7,6.6,3,5,7,0,2026-04-25T05:12:13.563696+05:30
Gurgaon,Haryana,28.4595,77.0266,25.7,35,0.0,979.9,7.55,46.4,819,1929.7,235.6,4,5,7,0,2026-04-25T05:12:13.563702+05:30
Noida,Uttar Pradesh,28.5355,77.391,27.4,34,0.0,982.8,7.45,31.7,819,1929.7,235.6,4,5,7,0,2026-04-25T05:12:13.563707+05:30
Ghaziabad,Uttar Pradesh,28.6692,77.4538,26.7,34,0.0,981.1,7.4,49.3,157,501.1,95.5,4,5,7,0,2026-04-25T05:12:13.563713+05:30
Faridabad,Haryana,28.4089,77.3178,30.1,25,0.0,982.4,7.45,40.0,819,1929.7,235.6,0,5,7,0,2026-04-25T05:12:13.563717+05:30
Meerut,Uttar Pradesh,28.9845,77.7064,26.0,40,0.0,979.7,7.35,41.8,157,501.1,95.5,4,5,7,0,2026-04-25T05:12:13.563723+05:30
Agra,Uttar Pradesh,27.1767,78.0081,26.5,38,0.0,986.1,7.8,42.8,245,304.5,62.6,4,5,7,0,2026-04-25T05:12:13.563731+05:30
Varanasi,Uttar Pradesh,25.3176,82.9739,26.9,25,0.0,995.8,8.5,40.3,134,151.8,58.2,4,5,7,0,2026-04-25T05:12:13.563737+05:30
Prayagraj,Uttar Pradesh,25.4358,81.8463,25.3,42,0.0,994.2,8.4,33.5,109,63.3,47.3,4,5,7,0,2026-04-25T05:12:13.563742+05:30
Gorakhpur,Uttar Pradesh,26.7606,83.3732,26.9,65,0.0,996.5,8.35,46.8,152,90.6,61.5,7,5,7,1,2026-04-25T05:12:13.563747+05:30
Bareilly,Uttar Pradesh,28.367,79.4304,24.4,51,0.0,984.9,7.7,42.5,130,61.2,46.1,0,5,7,0,2026-04-25T05:12:13.563752+05:30
Aligarh,Uttar Pradesh,27.8974,78.088,26.0,39,0.0,983.7,7.6,42.1,292,687.3,116.2,4,5,7,0,2026-04-25T05:12:13.563757+05:30
Moradabad,Uttar Pradesh,28.8386,78.7733,24.6,60,0.0,981.6,7.5,51.8,157,136.4,95.0,0,5,7,1,2026-04-25T05:12:13.563762+05:30
Saharanpur,Uttar Pradesh,29.9637,77.546,21.8,59,0.0,973.6,7.05,60.5,99,75.0,46.6,0,5,7,0,2026-04-25T05:12:13.563766+05:30
Jhansi,Uttar Pradesh,25.4484,78.5685,28.2,27,0.0,976.5,8.3,30.2,56,17.1,12.3,4,5,7,0,2026-04-25T05:12:16.919341+05:30
Surat,Gujarat,21.1702,72.8311,26.6,71,0.0,1005.5,7.85,35.6,98,36.7,26.1,7,5,4,1,2026-04-25T05:12:16.919371+05:30
Vadodara,Gujarat,22.3072,73.1812,27.5,38,0.0,1003.4,8.15,28.1,77,39.7,28.9,4,5,4,0,2026-04-25T05:12:16.919381+05:30
Rajkot,Gujarat,22.3039,70.8022,22.8,95,0.0,994.1,7.9,33.1,40,26.1,9.8,3,5,7,1,2026-04-25T05:12:16.919387+05:30
Thane,Maharashtra,19.2183,72.9781,26.6,65,0.0,1005.7,8.0,42.1,79,37.7,20.7,7,5,4,1,2026-04-25T05:12:16.919393+05:30
Nagpur,Maharashtra,21.1458,79.0882,30.2,24,0.0,971.8,8.9,33.1,97,34.2,28.2,0,5,7,0,2026-04-25T05:12:16.919399+05:30
Nashik,Maharashtra,19.9975,73.7898,25.9,37,0.0,944.5,8.25,32.0,82,43.1,26.5,4,5,7,0,2026-04-25T05:12:16.919404+05:30
Aurangabad,Maharashtra,19.8762,75.3433,28.3,27,0.0,943.6,8.95,30.6,74,31.4,21.4,4,5,7,0,2026-04-25T05:12:16.919410+05:30
Solapur,Maharashtra,17.6599,75.9064,27.4,41,0.0,955.4,8.8,24.8,114,58.2,51.2,4,5,7,0,2026-04-25T05:12:16.919415+05:30
Kolhapur,Maharashtra,16.705,74.2433,23.8,69,0.0,945.5,9.05,31.7,151,61.7,57.4,3,5,7,1,2026-04-25T05:12:16.919420+05:30
Goa,Goa,15.2993,74.124,26.0,96,0.0,995.7,9.0,34.2,78,38.1,31.0,7,5,7,1,2026-04-25T05:12:16.919425+05:30
Jodhpur,Rajasthan,26.2389,73.0243,29.5,27,0.0,982.0,8.3,29.5,74,183.5,34.2,4,5,7,0,2026-04-25T05:12:16.919431+05:30
Udaipur,Rajasthan,24.5854,73.7125,27.2,29,0.0,945.8,8.8,39.6,52,65.9,17.2,4,5,7,0,2026-04-25T05:12:16.919437+05:30
Kota,Rajasthan,25.2138,75.8648,27.2,32,0.0,977.9,8.3,31.3,61,27.1,21.2,4,5,7,0,2026-04-25T05:12:16.919442+05:30
Bikaner,Rajasthan,28.0229,73.3119,27.7,33,0.0,980.9,8.15,29.5,62,51.2,21.4,4,5,7,0,2026-04-25T05:12:16.919448+05:30
Ajmer,Rajasthan,26.4499,74.6399,28.2,28,0.0,954.0,8.25,31.3,60,63.8,19.2,4,5,7,0,2026-04-25T05:12:16.919453+05:30
Gwalior,Madhya Pradesh,26.2183,78.1828,30.0,27,0.0,981.9,8.05,39.2,66,31.3,13.6,4,5,7,0,2026-04-25T05:12:16.919459+05:30
Indore,Madhya Pradesh,22.7196,75.8577,26.9,26,0.0,947.7,8.6,29.2,52,35.4,15.3,4,5,7,0,2026-04-25T05:12:16.919464+05:30
Bhopal,Madhya Pradesh,23.2599,77.4126,28.5,24,0.0,953.2,8.65,31.7,53,24.3,18.3,4,5,7,0,2026-04-25T05:12:16.919468+05:30
Jabalpur,Madhya Pradesh,23.1815,79.9864,25.8,27,0.0,960.2,8.75,40.0,57,28.3,18.4,4,5,7,0,2026-04-25T05:12:16.919473+05:30
Ujjain,Madhya Pradesh,23.1765,75.7885,27.0,28,0.0,953.2,8.55,37.8,54,41.0,16.4,4,5,7,0,2026-04-25T05:12:16.919479+05:30
Visakhapatnam,Andhra Pradesh,17.6868,83.2185,26.4,92,0.0,1002.7,8.5,42.8,61,22.5,19.0,7,5,4,1,2026-04-25T05:12:16.919486+05:30
Vijayawada,Andhra Pradesh,16.5062,80.648,26.4,95,0.0,1001.6,8.35,34.2,54,14.0,11.7,7,5,4,1,2026-04-25T05:12:16.919491+05:30
Guntur,Andhra Pradesh,16.3067,80.4365,26.0,97,0.0,1002.7,8.35,38.5,56,12.2,10.1,7,5,4,1,2026-04-25T05:12:16.919496+05:30
Nellore,Andhra Pradesh,14.4426,79.9865,26.0,89,0.0,1004.8,9.1,43.2,42,9.4,8.0,7,5,4,1,2026-04-25T05:12:16.919502+05:30
Kurnool,Andhra Pradesh,15.8281,78.0373,28.5,56,0.0,975.6,8.8,36.4,90,20.4,17.3,4,5,7,1,2026-04-25T05:12:16.919508+05:30
Kakinada,Andhra Pradesh,16.9891,82.2475,26.3,96,0.0,1006.9,8.55,39.2,39,15.7,11.1,7,5,4,1,2026-04-25T05:12:16.919515+05:30
Tirupati,Andhra Pradesh,13.6288,79.4192,26.0,77,0.0,990.7,9.35,36.7,58,18.7,17.3,7,5,7,1,2026-04-25T05:12:16.919520+05:30
Warangal,Telangana,17.9689,79.5941,26.5,59,0.0,977.2,9.2,31.7,119,24.1,22.1,4,5,7,1,2026-04-25T05:12:16.919525+05:30
Nizamabad,Telangana,18.6725,78.0941,27.1,45,0.0,963.3,8.6,28.1,116,51.0,46.8,4,5,7,0,2026-04-25T05:12:16.919530+05:30
Mysore,Karnataka,12.2958,76.6396,22.6,84,0.0,926.8,7.55,52.6,91,41.7,38.3,3,5,7,1,2026-04-25T05:12:16.919534+05:30
Mangalore,Karnataka,12.9141,74.856,27.7,92,0.0,1004.6,9.15,40.7,67,22.4,18.2,7,5,4,1,2026-04-25T05:12:16.919540+05:30
Hubli-Dharwad,Karnataka,15.3647,75.124,24.5,87,0.0,939.1,9.05,36.4,101,42.4,38.2,3,5,7,1,2026-04-25T05:12:16.919545+05:30
Belgaum,Karnataka,15.8497,74.4977,24.7,59,0.0,923.6,9.2,32.8,108,53.7,45.2,0,5,7,1,2026-04-25T05:12:20.280558+05:30
Coimbatore,Tamil Nadu,11.0168,76.9558,25.7,81,0.0,960.5,8.9,43.9,84,30.3,29.2,7,5,7,1,2026-04-25T05:12:20.280589+05:30
Madurai,Tamil Nadu,9.9252,78.1198,26.3,90,0.0,992.3,9.25,40.0,48,22.7,21.7,7,5,7,1,2026-04-25T05:12:20.280597+05:30
Trichy,Tamil Nadu,10.7905,78.7047,26.5,88,0.0,999.2,8.6,32.4,48,15.8,15.2,7,5,7,1,2026-04-25T05:12:20.280604+05:30
Salem,Tamil Nadu,11.6643,78.146,26.2,71,0.0,976.6,9.15,42.8,60,19.7,18.9,7,5,7,1,2026-04-25T05:12:20.280610+05:30
Tirunelveli,Tamil Nadu,8.7139,77.7567,25.5,94,0.0,1002.1,9.2,37.8,63,30.0,28.1,7,5,4,1,2026-04-25T05:12:20.280615+05:30
Vellore,Tamil Nadu,12.9165,79.1325,25.3,81,0.0,983.8,9.25,36.7,77,38.5,37.3,7,5,7,1,2026-04-25T05:12:20.280621+05:30
Erode,Tamil Nadu,11.341,77.7172,26.5,74,0.0,988.4,9.05,40.3,45,14.4,14.0,7,5,7,1,2026-04-25T05:12:20.280627+05:30
Kochi,Kerala,9.9312,76.2673,27.1,94,0.0,1006.9,8.9,40.7,92,37.4,35.3,7,5,4,1,2026-04-25T05:12:20.280633+05:30
Thiruvananthapuram,Kerala,8.5241,76.9366,25.0,95,0.0,1006.4,9.05,34.2,58,18.8,15.2,7,5,4,1,2026-04-25T05:12:20.280638+05:30
Kozhikode,Kerala,11.2588,75.7804,26.9,95,0.0,1005.8,8.25,39.6,69,21.7,17.9,7,5,4,1,2026-04-25T05:12:20.280643+05:30
Thrissur,Kerala,10.5276,76.2144,26.5,90,0.0,1005.3,8.85,48.2,92,37.6,35.0,7,5,4,1,2026-04-25T05:12:20.280648+05:30
Kannur,Kerala,11.8745,75.3704,26.6,90,0.0,1004.9,7.9,40.7,74,26.9,23.6,7,5,4,1,2026-04-25T05:12:20.280654+05:30
Patna,Bihar,25.5941,85.1376,26.5,89,0.0,999.6,8.65,50.0,151,80.3,65.9,7,5,7,1,2026-04-25T05:12:20.280680+05:30
Gaya,Bihar,24.7914,85.0002,25.6,44,0.0,992.2,8.7,55.4,122,71.2,35.0,4,5,7,0,2026-04-25T05:12:20.280685+05:30
Muzaffarpur,Bihar,26.1209,85.3647,25.5,83,0.0,1000.1,8.65,33.5,154,80.1,70.8,7,5,4,1,2026-04-25T05:12:20.280691+05:30
Bhagalpur,Bihar,25.2425,87.0117,26.0,94,0.0,1000.7,8.6,56.9,154,83.6,73.3,7,5,4,1,2026-04-25T05:12:20.280695+05:30
Ranchi,Jharkhand,23.3441,85.3096,23.2,38,0.0,936.8,9.2,34.9,113,69.8,44.4,0,5,7,0,2026-04-25T05:12:20.280701+05:30
Jamshedpur,Jharkhand,22.8046,86.2029,25.5,91,0.0,990.4,8.75,34.2,151,65.7,55.4,7,5,7,1,2026-04-25T05:12:20.280705+05:30
Dhanbad,Jharkhand,23.7957,86.4304,25.7,97,0.0,979.4,8.95,49.7,162,75.0,68.0,7,5,7,1,2026-04-25T05:12:20.280710+05:30
Bokaro,Jharkhand,23.6693,86.1511,24.9,62,0.0,983.0,8.95,43.9,159,130.9,85.0,3,5,7,1,2026-04-25T05:12:20.280716+05:30
Bhubaneswar,Odisha,20.2961,85.8245,26.4,97,0.0,1001.8,8.8,40.7,72,19.2,14.4,7,5,4,1,2026-04-25T05:12:20.280721+05:30
Cuttack,Odisha,20.4625,85.8828,26.4,97,0.0,1003.9,8.9,36.4,72,19.2,14.4,7,5,4,1,2026-04-25T05:12:20.280726+05:30
Rourkela,Odisha,22.2604,84.8536,25.2,78,0.0,984.4,8.65,40.7,134,69.4,58.2,7,5,7,1,2026-04-25T05:12:20.280731+05:30
Raipur,Chhattisgarh,21.2514,81.6296,27.9,30,0.0,972.8,8.95,28.1,114,63.1,55.8,4,5,7,0,2026-04-25T05:12:20.280735+05:30
Bhilai,Chhattisgarh,21.1938,81.3509,27.9,33,0.0,973.4,9.0,34.6,112,61.0,55.8,4,5,7,0,2026-04-25T05:12:20.280740+05:30
Guwahati,Assam,26.1158,91.7086,22.5,95,0.0,1003.3,8.55,31.7,156,122.9,87.8,3,5,4,1,2026-04-25T05:12:20.280744+05:30
Agartala,Tripura,23.8315,91.2868,25.0,95,0.0,1006.9,8.75,26.3,150,88.9,71.0,7,5,4,1,2026-04-25T05:12:20.280750+05:30
Shillong,Meghalaya,25.5788,91.8933,16.2,85,0.0,857.1,8.2,31.0,140,72.9,50.1,3,10,7,0,2026-04-25T05:12:20.280755+05:30
Imphal,Manipur,24.817,93.9368,18.9,85,0.0,924.2,9.1,35.6,153,141.6,90.3,3,10,7,1,2026-04-25T05:12:20.280760+05:30
Aizawl,Mizoram,23.7271,92.7176,17.0,82,0.0,892.0,8.95,34.2,119,73.8,45.5,3,10,7,0,2026-04-25T05:12:20.280764+05:30
Kohima,Nagaland,25.6701,94.1077,15.7,88,0.0,855.8,8.45,32.0,152,113.4,75.0,3,10,7,0,2026-04-25T05:12:20.280769+05:30
Gangtok,Sikkim,27.3314,88.6138,13.5,64,0.0,836.2,8.9,46.8,103,27.9,22.5,3,5,7,0,2026-04-25T05:12:20.280773+05:30
Siliguri,West Bengal,26.7271,88.3953,22.3,84,0.0,993.7,8.45,47.2,155,56.3,48.0,3,5,7,1,2026-04-25T05:12:23.659456+05:30
Durgapur,West Bengal,23.5204,87.3119,26.8,93,0.0,994.7,8.9,39.6,149,51.0,46.9,7,5,7,1,2026-04-25T05:12:23.659488+05:30
Asansol,West Bengal,23.6739,86.9524,26.8,93,0.0,993.2,8.95,45.7,151,50.4,47.5,7,5,7,1,2026-04-25T05:12:23.659496+05:30
Pondicherry,Puducherry,11.9139,79.8145,28.2,83,0.0,1007.7,9.05,43.2,22,9.3,6.1,7,5,4,1,2026-04-25T05:12:23.659502+05:30
Port Blair,Andaman and Nicobar Islands,11.6234,92.7265,25.0,91,0.0,1007.0,9.15,30.2,34,18.0,9.3,7,5,4,1,2026-04-25T05:12:23.659508+05:30
Haridwar,Uttarakhand,29.9457,78.1642,20.9,63,0.0,971.8,7.2,32.8,80,24.0,20.2,3,5,7,0,2026-04-25T05:12:23.659514+05:30
Rishikesh,Uttarakhand,30.0869,78.2676,18.6,69,0.0,964.5,7.35,31.7,64,21.7,18.7,3,5,7,0,2026-04-25T05:12:23.659519+05:30
Nainital,Uttarakhand,29.3919,79.4542,15.9,48,0.0,805.7,8.15,43.2,76,27.2,22.6,0,5,7,0,2026-04-25T05:12:23.659525+05:30
Mussoorie,Uttarakhand,30.4599,78.0664,16.5,45,0.0,803.1,7.75,58.0,68,17.8,14.7,0,5,7,0,2026-04-25T05:12:23.659529+05:30
Dharamshala,Himachal Pradesh,32.219,76.3234,22.7,30,0.0,870.0,7.8,61.9,45,19.4,11.9,0,5,7,0,2026-04-25T05:12:23.659535+05:30
Dalhousie,Himachal Pradesh,32.5387,75.971,10.7,64,0.0,802.7,8.3,47.2,57,18.3,13.4,3,5,7,0,2026-04-25T05:12:23.659541+05:30
Patiala,Punjab,30.3398,76.3869,27.3,35,0.0,976.7,7.35,52.6,370,575.6,72.4,4,5,7,0,2026-04-25T05:12:23.659547+05:30
Bhatinda,Punjab,30.211,74.9455,27.8,30,0.0,983.4,8.0,41.8,88,62.9,29.9,4,5,7,0,2026-04-25T05:12:23.659552+05:30
Rohtak,Haryana,28.8955,76.6066,27.0,31,0.0,980.1,7.35,44.3,407,1322.5,190.0,4,5,7,0,2026-04-25T05:12:23.659558+05:30
Panipat,Haryana,29.3909,76.9635,28.0,33,0.0,978.8,7.3,63.7,733,2145.8,266.4,4,5,7,0,2026-04-25T05:12:23.659562+05:30
Mathura,Uttar Pradesh,27.4924,77.6737,26.1,38,0.0,985.1,7.75,41.8,204,743.2,109.9,4,5,7,0,2026-04-25T05:12:23.659568+05:30
Vrindavan,Uttar Pradesh,27.5823,77.7027,25.7,39,0.0,985.4,7.7,40.3,204,743.2,109.9,4,5,7,0,2026-04-25T05:12:23.659572+05:30
Ayodhya,Uttar Pradesh,26.7922,82.1998,25.2,58,0.0,993.9,8.05,37.1,138,159.3,57.3,4,5,7,1,2026-04-25T05:12:23.659576+05:30
Ratlam,Madhya Pradesh,23.3315,75.0367,25.8,33,0.0,954.0,8.45,29.9,52,50.4,17.1,4,5,7,0,2026-04-25T05:12:23.659581+05:30
Sagar,Madhya Pradesh,23.8388,78.7378,25.0,29,0.0,949.0,8.65,28.8,45,17.1,14.9,4,5,7,0,2026-04-25T05:12:23.659586+05:30
Satna,Madhya Pradesh,24.6005,80.8322,24.5,30,0.0,969.5,8.65,41.4,58,28.0,21.7,0,5,7,0,2026-04-25T05:12:23.659590+05:30
Akola,Maharashtra,20.7002,77.0082,28.0,30,0.0,973.9,8.35,31.3,78,32.1,26.2,4,5,7,0,2026-04-25T05:12:23.659595+05:30
Amravati,Maharashtra,20.9374,77.7796,28.8,27,0.0,966.1,8.65,30.6,84,30.6,25.8,4,5,7,0,2026-04-25T05:12:23.659600+05:30
Latur,Maharashtra,18.4088,76.5604,26.4,39,0.0,938.4,9.1,32.4,106,46.1,41.1,4,5,7,0,2026-04-25T05:12:23.659604+05:30
Nanded,Maharashtra,19.1383,77.3091,27.7,38,0.0,967.6,9.0,31.0,106,53.7,48.9,4,5,7,0,2026-04-25T05:12:23.659609+05:30
Gulbarga,Karnataka,17.3297,76.8343,26.6,48,0.0,957.5,8.9,26.6,114,62.6,52.5,4,5,7,0,2026-04-25T05:12:23.659613+05:30
Bidar,Karnataka,17.9104,77.5199,25.6,48,0.0,933.7,8.5,31.7,117,55.4,48.4,4,5,7,0,2026-04-25T05:12:23.659618+05:30
Hospet,Karnataka,15.2689,76.3909,25.3,55,0.0,954.3,9.3,27.4,105,32.6,29.4,4,5,7,0,2026-04-25T05:12:23.659622+05:30
Tirupur,Tamil Nadu,11.1085,77.3411,27.2,64,0.0,974.2,9.05,37.1,61,17.7,17.3,7,5,7,1,2026-04-25T05:12:23.659626+05:30
Alappuzha,Kerala,9.4981,76.3388,26.1,96,0.0,1007.0,9.1,36.7,84,33.9,30.7,7,5,4,1,2026-04-25T05:12:23.659630+05:30
Munnar,Kerala,10.0889,77.0595,15.1,83,0.0,853.7,9.6,26.3,65,20.9,20.2,3,10,7,0,2026-04-25T05:12:23.659636+05:30
Silchar,Assam,24.8333,92.7789,24.4,88,0.0,1005.4,8.7,23.4,159,122.5,79.6,3,5,4,1,2026-04-25T05:12:23.659641+05:30
Dibrugarh,Assam,27.4728,94.912,23.1,94,0.0,997.7,8.65,23.0,98,23.3,19.0,3,5,7,1,2026-04-25T05:12:23.659646+05:30
