city,state,latitude,longitude,temp,humidity,rain,pressure,uv_index,wind_gusts,aqi,pm10,pm2_5,no2,co,o3,so2,mosquito_risk,arthritis_risk,migraine_risk,frizz_risk,updated_at
Delhi,Delhi,28.6139,77.209,38.3,31,0.0,979.6,7.8,39.2,386,407.9,83.8,3.5,206.0,142.0,12.3,0,5,10,1,2026-06-21T11:35:11.162330+05:30
Mumbai,Maharashtra,19.076,72.8777,33.5,45,0.0,1008.3,7.7,42.5,50,24.3,16.5,5.9,144.0,91.0,11.2,0,0,4,1,2026-06-21T11:35:11.162381+05:30
Bangalore,Karnataka,12.9716,77.5946,27.8,62,0.0,913.2,7.55,33.5,68,12.1,8.3,2.8,214.0,88.0,4.2,7,5,7,1,2026-06-21T11:35:11.162397+05:30
Hyderabad,Telangana,17.385,78.4867,30.0,60,0.0,953.7,9.0,31.0,73,26.2,18.9,2.2,200.0,123.0,5.3,4,5,7,1,2026-06-21T11:35:11.162406+05:30
Chennai,Tamil Nadu,13.0827,80.2707,33.9,56,0.0,1006.9,6.05,45.4,88,31.3,23.9,6.8,274.0,130.0,15.6,0,5,4,1,2026-06-21T11:35:11.162414+05:30
Kolkata,West Bengal,22.5726,88.3639,33.6,64,0.0,1002.2,7.0,34.2,115,36.7,32.5,5.9,375.0,113.0,7.1,3,5,4,1,2026-06-21T11:35:11.162421+05:30
Pune,Maharashtra,18.5204,73.8567,32.6,45,0.0,948.5,8.25,54.7,48,21.7,13.0,2.1,114.0,81.0,6.2,0,5,7,1,2026-06-21T11:35:11.162432+05:30
Ahmedabad,Gujarat,23.0225,72.5714,35.9,38,0.0,1000.9,8.05,44.3,74,66.1,22.5,1.3,120.0,78.0,3.8,0,5,7,1,2026-06-21T11:35:11.162439+05:30
Jaipur,Rajasthan,26.9124,75.7873,35.0,41,0.0,958.0,7.45,35.6,115,172.8,48.9,1.0,122.0,86.0,3.5,0,5,7,1,2026-06-21T11:35:11.162447+05:30
Lucknow,Uttar Pradesh,26.8467,80.9462,37.8,37,0.0,989.3,8.0,37.1,247,406.1,98.3,1.8,193.0,162.0,11.1,0,5,10,1,2026-06-21T11:35:11.162455+05:30
Kanpur,Uttar Pradesh,26.4499,80.3319,35.8,43,0.0,988.3,8.15,38.2,381,560.7,102.4,1.7,144.0,138.0,8.3,0,5,10,1,2026-06-21T11:35:11.162462+05:30
Chandigarh,Chandigarh,30.7333,76.7794,36.0,31,0.0,965.2,7.8,36.7,119,30.6,23.0,2.3,341.0,180.0,11.4,0,5,10,1,2026-06-21T11:35:11.162469+05:30
Srinagar,Jammu and Kashmir,34.0837,74.7973,22.6,54,0.0,843.3,8.55,28.8,79,23.7,15.2,1.1,268.0,141.0,2.0,0,5,7,0,2026-06-21T11:35:11.162476+05:30
Jammu,Jammu and Kashmir,32.7266,74.857,37.0,25,0.0,969.1,8.6,33.5,77,18.3,12.0,1.5,289.0,153.0,2.4,0,5,10,0,2026-06-21T11:35:11.162482+05:30
Amritsar,Punjab,31.634,74.8723,34.2,46,0.0,977.2,8.45,23.4,111,59.3,29.0,1.9,362.0,155.0,6.0,0,5,7,1,2026-06-21T11:35:11.162489+05:30
Ludhiana,Punjab,30.901,75.8573,37.2,30,0.0,975.0,8.05,34.9,147,41.7,27.6,2.2,355.0,171.0,7.6,0,5,10,1,2026-06-21T11:35:11.162495+05:30
Jalandhar,Punjab,31.326,75.5762,36.9,31,0.0,976.0,8.2,37.1,146,43.9,26.7,2.1,352.0,173.0,5.8,0,5,10,1,2026-06-21T11:35:11.162500+05:30
Dehradun,Uttarakhand,30.6284,78.0322,24.4,59,0.0,831.5,8.25,28.4,67,30.6,20.0,0.7,241.0,146.0,2.5,0,5,7,0,2026-06-21T11:35:11.162507+05:30
Shimla,Himachal Pradesh,31.1048,77.1734,23.2,39,0.0,786.9,8.35,40.3,95,38.0,23.0,0.6,215.0,141.0,3.0,0,5,7,0,2026-06-21T11:35:11.162513+05:30
Manali,Himachal Pradesh,32.2396,77.1887,24.5,34,0.0,820.2,9.75,35.3,86,10.8,6.9,1.6,129.0,155.0,0.3,0,5,7,0,2026-06-21T11:35:11.162521+05:30
Gurgaon,Haryana,28.4595,77.0266,37.2,34,0.0,978.3,7.85,36.0,925,1218.2,156.9,3.0,183.0,118.0,8.2,0,5,10,1,2026-06-21T11:35:11.162527+05:30
Noida,Uttar Pradesh,28.5355,77.391,37.3,35,0.0,980.8,7.85,29.2,925,1218.2,156.9,3.0,210.0,118.0,8.2,0,5,10,1,2026-06-21T11:35:11.162535+05:30
Ghaziabad,Uttar Pradesh,28.6692,77.4538,36.5,37,0.0,979.2,7.8,36.0,329,296.2,86.6,3.8,220.0,176.0,18.2,0,5,10,1,2026-06-21T11:35:11.162542+05:30
Faridabad,Haryana,28.4089,77.3178,37.3,33,0.0,980.3,7.85,36.4,925,1218.2,156.9,3.0,181.0,118.0,8.2,0,5,10,1,2026-06-21T11:35:11.162548+05:30
Meerut,Uttar Pradesh,28.9845,77.7064,35.8,42,0.0,978.1,7.7,34.2,329,296.2,86.6,3.8,268.0,176.0,18.2,0,5,10,1,2026-06-21T11:35:11.162555+05:30
Agra,Uttar Pradesh,27.1767,78.0081,37.7,33,0.0,984.6,8.15,35.6,891,331.6,57.5,1.4,135.0,105.0,2.5,0,5,10,1,2026-06-21T11:35:11.162561+05:30
Varanasi,Uttar Pradesh,25.3176,82.9739,39.1,33,0.0,993.2,8.75,38.5,116,253.3,67.5,1.6,167.0,139.0,7.5,0,5,10,1,2026-06-21T11:35:11.162567+05:30
Prayagraj,Uttar Pradesh,25.4358,81.8463,38.6,35,0.0,991.8,8.7,38.9,119,199.3,55.4,1.5,143.0,129.0,7.2,0,5,10,1,2026-06-21T11:35:11.162574+05:30
Gorakhpur,Uttar Pradesh,26.7606,83.3732,36.1,50,0.0,992.3,8.7,35.6,158,171.4,70.1,2.4,279.0,191.0,10.2,0,5,10,1,2026-06-21T11:35:11.162580+05:30
Bareilly,Uttar Pradesh,28.367,79.4304,36.8,38,0.0,982.6,8.15,36.0,159,109.4,55.1,2.1,259.0,185.0,10.7,0,5,10,1,2026-06-21T11:35:11.162588+05:30
Aligarh,Uttar Pradesh,27.8974,78.088,37.0,36,0.0,982.1,8.0,37.8,574,616.5,109.7,2.6,142.0,142.0,11.9,0,5,10,1,2026-06-21T11:35:11.162594+05:30
Moradabad,Uttar Pradesh,28.8386,78.7733,36.8,37,0.0,979.7,7.95,40.7,169,112.2,60.5,2.5,300.0,193.0,12.3,0,5,10,1,2026-06-21T11:35:11.162601+05:30
Saharanpur,Uttar Pradesh,29.9637,77.546,35.1,40,0.0,972.2,7.45,33.5,167,77.8,46.9,3.1,370.0,205.0,16.4,0,5,10,1,2026-06-21T11:35:11.162607+05:30
Jhansi,Uttar Pradesh,25.4484,78.5685,36.5,40,0.0,975.7,6.5,42.1,96,55.1,24.9,1.0,133.0,95.0,3.5,0,5,10,1,2026-06-21T11:35:14.510241+05:30
Surat,Gujarat,21.1702,72.8311,33.3,57,0.1,1006.3,7.6,45.7,58,26.5,17.3,10.5,321.0,54.0,35.4,3,5,4,1,2026-06-21T11:35:14.510272+05:30
Vadodara,Gujarat,22.3072,73.1812,36.1,44,0.0,1003.2,8.0,47.9,58,35.9,15.9,1.6,121.0,75.0,3.7,0,5,7,1,2026-06-21T11:35:14.510302+05:30
Rajkot,Gujarat,22.3039,70.8022,35.4,44,0.0,992.8,7.5,40.3,64,81.5,24.7,1.0,103.0,80.0,3.7,0,5,10,1,2026-06-21T11:35:14.510313+05:30
Thane,Maharashtra,19.2183,72.9781,34.2,46,0.0,1007.6,7.7,38.5,50,24.3,16.5,5.9,150.0,91.0,11.2,0,5,4,1,2026-06-21T11:35:14.510321+05:30
Nagpur,Maharashtra,21.1458,79.0882,36.7,33,0.0,972.2,8.7,42.8,65,59.8,29.5,3.1,152.0,124.0,13.6,0,5,10,1,2026-06-21T11:35:14.510329+05:30
Nashik,Maharashtra,19.9975,73.7898,28.7,55,0.0,946.2,8.05,34.9,34,13.0,7.9,0.8,114.0,71.0,1.4,4,5,7,1,2026-06-21T11:35:14.510337+05:30
Aurangabad,Maharashtra,19.8762,75.3433,33.0,39,0.0,945.0,8.95,44.3,42,16.4,10.2,1.0,120.0,90.0,3.1,0,5,7,1,2026-06-21T11:35:14.510344+05:30
Solapur,Maharashtra,17.6599,75.9064,34.4,39,0.0,957.8,8.9,39.2,55,22.7,14.1,1.2,118.0,102.0,2.7,0,5,7,1,2026-06-21T11:35:14.510352+05:30
Kolhapur,Maharashtra,16.705,74.2433,32.2,48,0.0,948.8,8.6,37.4,45,8.0,6.1,1.2,110.0,75.0,1.7,0,5,7,1,2026-06-21T11:35:14.510359+05:30
Goa,Goa,15.2993,74.124,31.2,68,0.1,998.8,6.3,33.8,38,5.2,3.7,0.7,120.0,58.0,0.7,6,5,7,1,2026-06-21T11:35:14.510367+05:30
Jodhpur,Rajasthan,26.2389,73.0243,34.8,45,0.0,980.9,8.4,41.4,131,224.9,50.5,0.6,105.0,74.0,2.7,0,5,7,1,2026-06-21T11:35:14.510374+05:30
Udaipur,Rajasthan,24.5854,73.7125,31.9,48,0.0,945.9,8.8,35.6,76,52.2,20.0,0.6,104.0,73.0,2.2,0,5,7,1,2026-06-21T11:35:14.510382+05:30
Kota,Rajasthan,25.2138,75.8648,35.4,45,0.0,977.0,8.35,37.1,101,65.4,29.0,1.1,122.0,98.0,5.0,0,5,10,1,2026-06-21T11:35:14.510389+05:30
Bikaner,Rajasthan,28.0229,73.3119,36.6,38,0.0,978.7,8.45,50.0,148,250.5,78.7,0.4,108.0,88.0,3.6,0,5,10,1,2026-06-21T11:35:14.510397+05:30
Ajmer,Rajasthan,26.4499,74.6399,32.5,52,0.0,953.3,8.3,45.0,84,115.9,37.3,0.7,110.0,80.0,2.8,0,5,7,1,2026-06-21T11:35:14.510404+05:30
Gwalior,Madhya Pradesh,26.2183,78.1828,36.9,38,0.0,980.7,4.75,42.5,100,90.3,27.9,0.6,130.0,92.0,1.9,0,5,6,1,2026-06-21T11:35:14.510412+05:30
Indore,Madhya Pradesh,22.7196,75.8577,33.0,50,0.0,948.2,8.5,48.6,75,52.5,24.9,1.5,143.0,95.0,6.5,0,5,7,1,2026-06-21T11:35:14.510419+05:30
Bhopal,Madhya Pradesh,23.2599,77.4126,31.5,54,0.0,953.5,8.0,32.0,74,55.5,26.9,1.2,153.0,99.0,6.8,0,5,7,1,2026-06-21T11:35:14.510427+05:30
Jabalpur,Madhya Pradesh,23.1815,79.9864,35.0,42,0.0,960.4,8.4,38.9,72,85.0,34.1,0.7,129.0,104.0,3.3,0,5,7,1,2026-06-21T11:35:14.510434+05:30
Ujjain,Madhya Pradesh,23.1765,75.7885,33.3,50,0.0,953.7,7.8,41.4,77,49.7,24.2,1.1,133.0,93.0,5.9,0,5,7,1,2026-06-21T11:35:14.510441+05:30
Visakhapatnam,Andhra Pradesh,17.6868,83.2185,30.6,72,0.0,1002.0,5.55,36.7,94,39.0,35.0,10.5,369.0,160.0,38.8,3,5,0,1,2026-06-21T11:35:14.510448+05:30
Vijayawada,Andhra Pradesh,16.5062,80.648,33.0,55,0.0,1002.3,6.05,40.3,89,34.0,28.6,4.5,180.0,128.0,10.3,0,5,4,1,2026-06-21T11:35:14.510455+05:30
Guntur,Andhra Pradesh,16.3067,80.4365,34.1,50,0.0,1003.3,5.55,27.4,93,32.9,26.3,4.7,186.0,116.0,10.6,0,5,0,1,2026-06-21T11:35:14.510462+05:30
Nellore,Andhra Pradesh,14.4426,79.9865,34.7,49,0.0,1005.3,4.55,30.2,75,30.3,21.5,2.5,149.0,138.0,5.2,0,5,0,1,2026-06-21T11:35:14.510470+05:30
Kurnool,Andhra Pradesh,15.8281,78.0373,33.6,46,0.0,977.5,8.15,51.8,60,21.8,13.3,1.7,124.0,106.0,6.3,0,5,7,1,2026-06-21T11:35:14.510478+05:30
Kakinada,Andhra Pradesh,16.9891,82.2475,33.1,60,0.0,1006.1,2.85,31.7,75,29.0,26.1,4.9,255.0,130.0,7.2,0,5,0,1,2026-06-21T11:35:14.510485+05:30
Tirupati,Andhra Pradesh,13.6288,79.4192,35.5,41,0.0,990.7,7.65,43.2,74,33.3,20.6,2.1,143.0,139.0,3.0,0,5,10,1,2026-06-21T11:35:14.510492+05:30
Warangal,Telangana,17.9689,79.5941,31.0,57,0.0,978.7,8.7,34.2,79,33.2,24.0,2.2,152.0,132.0,6.8,0,5,7,1,2026-06-21T11:35:14.510499+05:30
Nizamabad,Telangana,18.6725,78.0941,34.8,42,0.0,965.3,8.95,36.0,64,28.3,19.3,1.2,137.0,126.0,7.4,0,5,7,1,2026-06-21T11:35:14.510506+05:30
Mysore,Karnataka,12.2958,76.6396,28.2,62,0.0,930.0,8.35,47.9,49,4.1,3.3,1.3,113.0,70.0,1.4,7,5,7,1,2026-06-21T11:35:14.510513+05:30
Mangalore,Karnataka,12.9141,74.856,29.0,75,0.0,1008.0,7.4,36.7,33,4.9,3.2,1.1,118.0,53.0,1.0,7,0,4,1,2026-06-21T11:35:14.510520+05:30
Hubli-Dharwad,Karnataka,15.3647,75.124,30.3,57,0.1,942.1,8.65,39.6,33,3.6,2.6,1.0,101.0,61.0,0.9,3,5,7,1,2026-06-21T11:35:14.510527+05:30
Belgaum,Karnataka,15.8497,74.4977,28.1,66,0.0,926.9,8.85,36.0,45,3.8,2.8,1.3,103.0,58.0,1.1,7,5,7,1,2026-06-21T11:35:17.851947+05:30
Coimbatore,Tamil Nadu,11.0168,76.9558,31.2,53,0.1,963.0,8.15,53.3,47,4.4,3.6,1.0,114.0,66.0,1.7,3,5,7,1,2026-06-21T11:35:17.851979+05:30
Madurai,Tamil Nadu,9.9252,78.1198,35.3,42,0.0,993.9,8.2,35.6,68,36.2,22.2,2.6,191.0,132.0,5.1,0,5,10,1,2026-06-21T11:35:17.851990+05:30
Trichy,Tamil Nadu,10.7905,78.7047,33.6,53,0.0,1000.3,8.5,36.0,64,26.2,16.6,2.2,155.0,112.0,4.0,0,5,4,1,2026-06-21T11:35:17.851999+05:30
Salem,Tamil Nadu,11.6643,78.146,31.7,59,0.0,978.3,7.8,40.7,69,16.6,11.8,2.9,218.0,108.0,8.4,0,5,7,1,2026-06-21T11:35:17.852007+05:30
Tirunelveli,Tamil Nadu,8.7139,77.7567,35.4,44,0.0,1003.8,8.65,34.6,45,3.6,2.8,0.8,128.0,66.0,0.8,0,5,7,1,2026-06-21T11:35:17.852015+05:30
Vellore,Tamil Nadu,12.9165,79.1325,34.0,46,0.0,984.6,6.25,32.4,90,35.5,23.3,2.7,183.0,141.0,5.8,0,5,7,1,2026-06-21T11:35:17.852022+05:30
Erode,Tamil Nadu,11.341,77.7172,33.1,52,0.0,989.8,8.3,48.6,58,7.3,5.7,1.5,126.0,79.0,1.9,0,5,7,1,2026-06-21T11:35:17.852030+05:30
Kochi,Kerala,9.9312,76.2673,29.3,75,0.0,1010.5,8.35,43.2,57,6.6,5.0,2.4,97.0,63.0,2.7,7,0,4,1,2026-06-21T11:35:17.852037+05:30
Thiruvananthapuram,Kerala,8.5241,76.9366,28.0,80,0.1,1010.4,7.6,38.2,30,7.5,4.7,0.9,90.0,68.0,0.8,10,0,4,1,2026-06-21T11:35:17.852045+05:30
Kozhikode,Kerala,11.2588,75.7804,29.7,71,0.0,1009.3,7.65,42.1,24,5.2,3.0,0.4,115.0,59.0,0.6,7,0,4,1,2026-06-21T11:35:17.852053+05:30
Thrissur,Kerala,10.5276,76.2144,29.7,73,0.0,1008.6,7.85,38.2,55,6.0,4.7,2.0,131.0,60.0,2.3,7,0,4,1,2026-06-21T11:35:17.852060+05:30
Kannur,Kerala,11.8745,75.3704,29.0,74,0.0,1008.7,8.35,43.2,31,4.5,2.9,0.9,123.0,54.0,0.7,7,0,4,1,2026-06-21T11:35:17.852067+05:30
Patna,Bihar,25.5941,85.1376,36.9,50,0.0,995.4,8.6,32.4,156,89.6,51.1,2.7,247.0,200.0,10.2,0,5,10,1,2026-06-21T11:35:17.852073+05:30
Gaya,Bihar,24.7914,85.0002,37.6,42,0.0,989.2,8.6,36.0,123,87.8,35.4,1.5,194.0,149.0,5.2,0,5,10,1,2026-06-21T11:35:17.852080+05:30
Muzaffarpur,Bihar,26.1209,85.3647,34.0,66,0.0,995.6,8.45,39.6,166,105.2,61.7,2.7,351.0,200.0,13.0,3,5,7,1,2026-06-21T11:35:17.852087+05:30
Bhagalpur,Bihar,25.2425,87.0117,35.5,59,0.0,996.5,8.4,31.0,150,79.2,45.4,4.7,203.0,186.0,24.7,0,5,10,1,2026-06-21T11:35:17.852094+05:30
Ranchi,Jharkhand,23.3441,85.3096,32.9,52,0.0,935.9,6.9,31.3,86,36.3,27.1,1.6,147.0,158.0,12.7,0,5,7,1,2026-06-21T11:35:17.852100+05:30
Jamshedpur,Jharkhand,22.8046,86.2029,32.6,63,0.0,987.7,8.6,27.7,129,46.1,41.9,5.8,274.0,170.0,31.1,3,5,7,1,2026-06-21T11:35:17.852108+05:30
Dhanbad,Jharkhand,23.7957,86.4304,34.5,55,0.0,976.4,5.9,33.5,151,69.6,52.7,15.9,180.0,178.0,65.3,0,5,3,1,2026-06-21T11:35:17.852115+05:30
Bokaro,Jharkhand,23.6693,86.1511,34.9,57,0.0,980.0,5.0,31.3,123,58.9,42.7,12.4,168.0,176.0,49.6,0,5,3,1,2026-06-21T11:35:17.852122+05:30
Bhubaneswar,Odisha,20.2961,85.8245,33.9,59,0.0,999.4,8.55,31.7,96,35.6,30.7,4.6,249.0,125.0,10.5,0,5,7,1,2026-06-21T11:35:17.852129+05:30
Cuttack,Odisha,20.4625,85.8828,33.4,61,0.0,1001.2,8.5,28.1,96,35.6,30.7,4.6,338.0,125.0,10.5,3,5,4,1,2026-06-21T11:35:17.852136+05:30
Rourkela,Odisha,22.2604,84.8536,34.5,52,0.0,982.1,8.7,29.9,114,50.4,44.6,2.7,262.0,185.0,17.3,0,5,7,1,2026-06-21T11:35:17.852143+05:30
Raipur,Chhattisgarh,21.2514,81.6296,37.6,35,0.0,972.7,8.85,41.8,85,34.3,24.9,5.7,136.0,131.0,27.0,0,5,10,1,2026-06-21T11:35:17.852150+05:30
Bhilai,Chhattisgarh,21.1938,81.3509,36.8,36,0.0,973.4,8.5,43.6,78,33.3,22.1,4.6,245.0,122.0,19.7,0,5,10,1,2026-06-21T11:35:17.852157+05:30
Guwahati,Assam,26.1158,91.7086,25.4,96,1.4,998.9,7.95,32.8,127,23.9,20.9,2.6,307.0,105.0,3.1,10,5,7,1,2026-06-21T11:35:17.852163+05:30
Agartala,Tripura,23.8315,91.2868,30.6,76,0.1,1004.0,8.7,41.0,68,16.0,13.6,2.8,187.0,106.0,1.3,6,5,4,1,2026-06-21T11:35:17.852170+05:30
Shillong,Meghalaya,25.5788,91.8933,24.0,76,0.0,857.2,6.8,38.9,57,10.1,8.7,2.9,212.0,84.0,2.3,3,5,7,1,2026-06-21T11:35:17.852176+05:30
Imphal,Manipur,24.817,93.9368,28.7,67,0.0,921.9,8.75,26.3,79,18.3,13.0,1.0,179.0,93.0,1.0,7,5,7,1,2026-06-21T11:35:17.852183+05:30
Aizawl,Mizoram,23.7271,92.7176,24.5,74,0.1,892.0,9.0,36.4,41,11.9,8.4,0.4,151.0,83.0,0.5,6,5,7,1,2026-06-21T11:35:17.852189+05:30
Kohima,Nagaland,25.6701,94.1077,21.7,96,0.2,854.5,8.6,24.5,53,10.3,7.9,0.8,201.0,88.0,0.9,6,5,7,1,2026-06-21T11:35:17.852196+05:30
Gangtok,Sikkim,27.3314,88.6138,20.7,99,0.1,836.5,8.25,29.5,90,15.4,12.2,1.2,320.0,145.0,5.6,6,5,7,1,2026-06-21T11:35:17.852202+05:30
Siliguri,West Bengal,26.7271,88.3953,26.9,88,0.2,989.5,7.35,27.4,126,20.7,17.2,2.8,409.0,141.0,7.0,10,5,7,1,2026-06-21T11:35:21.226543+05:30
Durgapur,West Bengal,23.5204,87.3119,34.8,59,0.0,991.2,8.65,39.2,157,63.8,50.2,20.6,318.0,142.0,64.1,0,5,7,1,2026-06-21T11:35:21.226575+05:30
Asansol,West Bengal,23.6739,86.9524,35.1,54,0.0,989.8,8.05,36.4,152,65.7,48.8,16.0,593.0,159.0,56.0,0,5,10,1,2026-06-21T11:35:21.226586+05:30
Pondicherry,Puducherry,11.9139,79.8145,32.3,65,0.0,1008.8,7.9,52.6,73,29.8,20.7,4.8,174.0,108.0,14.6,3,0,4,1,2026-06-21T11:35:21.226595+05:30
Port Blair,Andaman and Nicobar Islands,11.6234,92.7265,30.7,70,0.0,1009.5,7.8,34.9,57,31.1,12.5,0.2,89.0,49.0,0.6,3,0,4,1,2026-06-21T11:35:21.226603+05:30
Haridwar,Uttarakhand,29.9457,78.1642,35.0,45,0.0,970.3,7.6,30.6,145,46.9,34.7,1.8,368.0,190.0,10.5,0,5,7,1,2026-06-21T11:35:21.226611+05:30
Rishikesh,Uttarakhand,30.0869,78.2676,33.9,47,0.0,963.2,7.7,25.2,103,41.2,28.1,0.9,307.0,163.0,6.0,0,5,7,1,2026-06-21T11:35:21.226618+05:30
Nainital,Uttarakhand,29.3919,79.4542,24.7,42,0.0,807.5,8.6,33.5,113,73.8,32.8,1.1,218.0,157.0,6.0,0,5,7,0,2026-06-21T11:35:21.226626+05:30
Mussoorie,Uttarakhand,30.4599,78.0664,22.8,57,0.0,804.7,8.15,40.7,95,38.0,26.9,1.2,242.0,167.0,6.6,0,5,7,0,2026-06-21T11:35:21.226633+05:30
Dharamshala,Himachal Pradesh,32.219,76.3234,26.5,47,0.0,869.1,8.5,43.6,57,24.3,13.5,0.4,209.0,138.0,0.9,4,5,7,0,2026-06-21T11:35:21.226640+05:30
Dalhousie,Himachal Pradesh,32.5387,75.971,23.1,52,0.0,806.3,8.75,42.1,74,18.7,10.6,0.9,204.0,138.0,1.3,0,5,7,0,2026-06-21T11:35:21.226648+05:30
Patiala,Punjab,30.3398,76.3869,36.7,34,0.0,974.7,7.7,36.7,397,154.1,49.0,2.1,301.0,177.0,10.9,0,5,10,1,2026-06-21T11:35:21.226655+05:30
Bhatinda,Punjab,30.211,74.9455,37.2,31,0.0,980.3,8.3,35.6,151,130.4,55.1,2.8,183.0,166.0,13.8,0,5,10,1,2026-06-21T11:35:21.226662+05:30
Rohtak,Haryana,28.8955,76.6066,36.3,37,0.0,978.5,7.75,29.5,390,648.2,92.0,1.6,189.0,111.0,4.2,0,5,10,1,2026-06-21T11:35:21.226669+05:30
Panipat,Haryana,29.3909,76.9635,36.3,36,0.0,977.0,7.65,31.3,1296,1289.0,165.8,3.2,276.0,143.0,14.4,0,5,10,1,2026-06-21T11:35:21.226675+05:30
Mathura,Uttar Pradesh,27.4924,77.6737,36.6,37,0.0,983.5,8.1,31.3,641,987.2,119.2,1.3,129.0,97.0,2.1,0,5,10,1,2026-06-21T11:35:21.226683+05:30
Vrindavan,Uttar Pradesh,27.5823,77.7027,36.6,38,0.0,983.9,8.05,32.4,641,987.2,119.2,1.3,130.0,97.0,2.1,0,5,10,1,2026-06-21T11:35:21.226689+05:30
Ayodhya,Uttar Pradesh,26.7922,82.1998,36.9,41,0.0,990.6,8.45,36.4,163,365.1,97.6,2.2,214.0,175.0,10.8,0,5,10,1,2026-06-21T11:35:21.226696+05:30
Ratlam,Madhya Pradesh,23.3315,75.0367,33.1,50,0.0,954.6,8.45,41.4,73,46.9,22.9,1.0,112.0,91.0,5.3,0,5,7,1,2026-06-21T11:35:21.226703+05:30
Sagar,Madhya Pradesh,23.8388,78.7378,33.8,45,0.0,949.4,6.75,45.7,79,75.9,31.5,0.9,164.0,104.0,4.6,0,5,7,1,2026-06-21T11:35:21.226709+05:30
Satna,Madhya Pradesh,24.6005,80.8322,33.1,51,0.1,969.2,8.3,40.0,75,120.1,44.5,0.9,134.0,109.0,5.7,3,5,7,1,2026-06-21T11:35:21.226716+05:30
Akola,Maharashtra,20.7002,77.0082,33.5,43,0.0,975.5,8.8,42.8,58,27.3,16.0,1.5,104.0,108.0,8.9,0,5,7,1,2026-06-21T11:35:21.226724+05:30
Amravati,Maharashtra,20.9374,77.7796,34.5,43,0.0,967.4,8.4,42.5,60,27.8,17.4,1.7,109.0,117.0,9.9,0,5,7,1,2026-06-21T11:35:21.226732+05:30
Latur,Maharashtra,18.4088,76.5604,33.1,46,0.0,940.8,6.85,27.7,67,21.7,15.1,1.1,116.0,112.0,5.5,0,5,7,1,2026-06-21T11:35:21.226739+05:30
Nanded,Maharashtra,19.1383,77.3091,36.2,38,0.0,968.9,8.0,37.8,60,21.8,14.5,1.1,122.0,108.0,5.6,0,5,10,1,2026-06-21T11:35:21.226745+05:30
Gulbarga,Karnataka,17.3297,76.8343,34.7,39,0.0,959.3,8.55,35.3,57,21.9,14.4,1.5,124.0,109.0,3.5,0,5,7,1,2026-06-21T11:35:21.226752+05:30
Bidar,Karnataka,17.9104,77.5199,33.4,46,0.0,936.5,8.85,31.3,68,25.7,18.7,1.6,135.0,126.0,7.3,0,5,7,1,2026-06-21T11:35:21.226759+05:30
Hospet,Karnataka,15.2689,76.3909,31.1,55,0.0,957.0,8.6,33.5,44,6.4,4.6,1.2,113.0,71.0,2.1,0,5,7,1,2026-06-21T11:35:21.226765+05:30
Tirupur,Tamil Nadu,11.1085,77.3411,32.8,50,0.0,976.2,8.1,53.6,59,7.8,6.3,1.6,110.0,82.0,2.5,0,5,7,1,2026-06-21T11:35:21.226771+05:30
Alappuzha,Kerala,9.4981,76.3388,29.1,75,0.0,1010.8,8.15,40.7,47,7.1,5.0,1.5,89.0,67.0,1.5,7,0,4,1,2026-06-21T11:35:21.226777+05:30
Munnar,Kerala,10.0889,77.0595,22.3,77,0.0,859.6,8.4,33.8,57,3.7,2.8,0.6,85.0,57.0,0.9,3,5,7,1,2026-06-21T11:35:21.226784+05:30
Silchar,Assam,24.8333,92.7789,30.0,78,0.0,1002.8,8.85,33.1,87,13.1,10.3,1.6,196.0,84.0,2.0,7,5,4,1,2026-06-21T11:35:21.226791+05:30
Dibrugarh,Assam,27.4728,94.912,28.5,84,0.1,992.1,4.65,29.5,85,30.9,22.9,1.4,229.0,122.0,2.3,10,5,3,1,2026-06-21T11:35:21.226797+05:30
