city,state,latitude,longitude,temp,humidity,rain,pressure,uv_index,wind_gusts,aqi,pm10,pm2_5,no2,co,o3,so2,mosquito_risk,arthritis_risk,migraine_risk,frizz_risk,updated_at
Delhi,Delhi,28.6139,77.209,35.6,50,0.0,975.8,6.6,38.2,436,705.9,151.3,3.8,232.0,162.0,13.6,0,5,10,1,2026-07-14T13:40:18.277506+05:30
Mumbai,Maharashtra,19.076,72.8777,30.0,72,0.0,1007.2,7.0,44.3,69,47.5,22.0,4.1,152.0,79.0,6.7,7,5,4,1,2026-07-14T13:40:18.277556+05:30
Bangalore,Karnataka,12.9716,77.5946,31.8,35,0.0,911.6,8.55,40.3,59,22.4,12.5,3.7,210.0,93.0,3.2,0,5,7,0,2026-07-14T13:40:18.277571+05:30
Hyderabad,Telangana,17.385,78.4867,32.6,41,0.0,950.9,7.8,47.5,56,24.0,14.7,1.9,196.0,105.0,3.2,0,5,7,1,2026-07-14T13:40:18.277580+05:30
Chennai,Tamil Nadu,13.0827,80.2707,37.5,39,0.0,1002.4,8.25,36.7,77,40.0,26.5,6.0,224.0,140.0,9.2,0,5,7,1,2026-07-14T13:40:18.277588+05:30
Kolkata,West Bengal,22.5726,88.3639,32.7,72,0.0,996.9,8.7,28.8,149,47.1,37.5,5.2,439.0,190.0,15.6,3,5,7,1,2026-07-14T13:40:18.277609+05:30
Pune,Maharashtra,18.5204,73.8567,30.0,54,0.0,947.0,8.4,48.2,54,27.9,15.0,1.4,120.0,81.0,3.5,4,5,7,1,2026-07-14T13:40:18.277616+05:30
Ahmedabad,Gujarat,23.0225,72.5714,35.8,43,0.0,997.6,5.85,43.9,66,50.3,19.2,1.7,118.0,74.0,3.0,0,5,6,1,2026-07-14T13:40:18.277623+05:30
Jaipur,Rajasthan,26.9124,75.7873,34.3,47,0.0,954.8,8.1,41.0,449,232.4,62.9,1.3,130.0,88.0,3.4,0,5,7,1,2026-07-14T13:40:18.277630+05:30
Lucknow,Uttar Pradesh,26.8467,80.9462,35.7,52,0.0,985.9,8.0,24.8,152,261.7,78.2,1.3,188.0,144.0,6.1,0,5,10,1,2026-07-14T13:40:18.277643+05:30
Kanpur,Uttar Pradesh,26.4499,80.3319,35.6,51,0.0,984.6,7.3,35.3,132,210.9,63.1,1.4,156.0,133.0,5.3,0,5,10,1,2026-07-14T13:40:18.277650+05:30
Chandigarh,Chandigarh,30.7333,76.7794,34.2,54,0.0,961.6,7.7,24.5,173,145.8,65.9,2.6,370.0,180.0,15.0,0,5,7,1,2026-07-14T13:40:18.277657+05:30
Srinagar,Jammu and Kashmir,34.0837,74.7973,28.1,42,0.0,839.3,8.95,20.2,86,26.6,13.9,1.0,307.0,156.0,3.0,4,5,7,0,2026-07-14T13:40:18.277665+05:30
Jammu,Jammu and Kashmir,32.7266,74.857,33.5,53,0.0,965.0,8.35,25.2,155,83.8,42.5,1.4,347.0,174.0,4.3,0,5,7,1,2026-07-14T13:40:18.277671+05:30
Amritsar,Punjab,31.634,74.8723,33.8,62,0.0,973.0,8.3,16.9,189,133.2,66.4,2.1,365.0,215.0,12.8,3,5,7,1,2026-07-14T13:40:18.277678+05:30
Ludhiana,Punjab,30.901,75.8573,34.8,54,0.0,971.0,7.9,24.5,190,128.5,67.5,2.4,373.0,184.0,6.4,0,5,7,1,2026-07-14T13:40:18.277684+05:30
Jalandhar,Punjab,31.326,75.5762,34.4,55,0.0,972.0,7.9,19.1,196,122.9,66.1,2.0,399.0,191.0,8.0,0,5,7,1,2026-07-14T13:40:18.277690+05:30
Dehradun,Uttarakhand,30.6284,78.0322,25.0,60,0.0,828.8,8.1,28.4,115,72.9,32.2,0.6,220.0,131.0,4.1,4,5,7,1,2026-07-14T13:40:18.277696+05:30
Shimla,Himachal Pradesh,31.1048,77.1734,22.3,60,0.1,783.6,7.4,36.4,152,75.7,33.9,1.1,208.0,137.0,7.7,3,5,7,0,2026-07-14T13:40:18.277704+05:30
Manali,Himachal Pradesh,32.2396,77.1887,26.2,56,0.0,817.6,9.55,31.7,75,23.3,10.1,1.2,158.0,162.0,1.1,4,5,7,1,2026-07-14T13:40:18.277711+05:30
Gurgaon,Haryana,28.4595,77.0266,36.0,47,0.0,974.3,7.05,34.2,509,659.4,143.9,3.3,138.0,148.0,11.8,0,5,10,1,2026-07-14T13:40:18.277718+05:30
Noida,Uttar Pradesh,28.5355,77.391,36.0,49,0.0,977.1,6.6,30.6,509,659.4,143.9,3.3,255.0,148.0,11.8,0,5,10,1,2026-07-14T13:40:18.277724+05:30
Ghaziabad,Uttar Pradesh,28.6692,77.4538,35.7,49,0.0,975.4,6.7,30.6,310,584.9,147.6,3.5,241.0,184.0,17.8,0,5,10,1,2026-07-14T13:40:18.277731+05:30
Faridabad,Haryana,28.4089,77.3178,36.2,46,0.0,976.5,6.7,43.9,509,659.4,143.9,3.3,195.0,148.0,11.8,0,5,10,1,2026-07-14T13:40:18.277737+05:30
Meerut,Uttar Pradesh,28.9845,77.7064,35.0,56,0.0,973.9,7.6,29.9,310,584.9,147.6,3.5,187.0,184.0,17.8,0,5,7,1,2026-07-14T13:40:18.277743+05:30
Agra,Uttar Pradesh,27.1767,78.0081,35.6,50,0.0,980.9,7.95,30.2,151,332.5,88.5,1.5,145.0,126.0,4.2,0,5,10,1,2026-07-14T13:40:18.277750+05:30
Varanasi,Uttar Pradesh,25.3176,82.9739,35.1,55,0.0,990.4,6.5,22.3,148,159.7,61.7,1.8,203.0,146.0,9.6,0,5,10,1,2026-07-14T13:40:18.277756+05:30
Prayagraj,Uttar Pradesh,25.4358,81.8463,36.4,47,0.0,988.6,7.7,28.4,129,169.0,59.3,1.8,148.0,138.0,8.5,0,5,10,1,2026-07-14T13:40:18.277761+05:30
Gorakhpur,Uttar Pradesh,26.7606,83.3732,33.2,65,0.0,989.9,7.85,24.1,159,152.3,71.2,2.2,255.0,172.0,8.4,3,5,7,1,2026-07-14T13:40:18.277767+05:30
Bareilly,Uttar Pradesh,28.367,79.4304,35.4,52,0.0,978.9,8.0,25.2,173,377.2,110.4,1.6,230.0,183.0,11.2,0,5,10,1,2026-07-14T13:40:18.277774+05:30
Aligarh,Uttar Pradesh,27.8974,78.088,34.8,55,0.0,978.5,7.85,46.1,452,935.0,184.4,2.0,171.0,144.0,8.8,0,5,7,1,2026-07-14T13:40:18.277780+05:30
Moradabad,Uttar Pradesh,28.8386,78.7733,35.4,52,0.0,975.8,7.6,25.6,197,448.9,131.8,2.4,215.0,211.0,15.7,0,5,10,1,2026-07-14T13:40:18.277785+05:30
Saharanpur,Uttar Pradesh,29.9637,77.546,34.1,60,0.0,968.4,7.35,30.6,192,296.2,105.0,2.5,299.0,181.0,20.0,0,5,7,1,2026-07-14T13:40:18.277793+05:30
Jhansi,Uttar Pradesh,25.4484,78.5685,34.8,52,0.0,972.3,8.4,41.4,105,194.6,52.0,1.2,119.0,104.0,5.4,0,5,7,1,2026-07-14T13:40:21.631026+05:30
Surat,Gujarat,21.1702,72.8311,30.8,68,0.1,1004.1,6.35,55.4,73,40.5,22.7,9.0,241.0,49.0,28.1,6,5,4,1,2026-07-14T13:40:21.631059+05:30
Vadodara,Gujarat,22.3072,73.1812,33.5,54,0.0,1000.6,4.35,48.2,65,44.2,19.0,1.7,128.0,72.0,2.9,0,5,0,1,2026-07-14T13:40:21.631068+05:30
Rajkot,Gujarat,22.3039,70.8022,34.4,49,0.0,989.8,7.15,54.0,61,45.1,17.8,1.1,99.0,70.0,3.0,0,5,7,1,2026-07-14T13:40:21.631076+05:30
Thane,Maharashtra,19.2183,72.9781,31.1,66,0.0,1006.4,7.1,37.1,69,47.5,22.0,4.1,148.0,79.0,6.7,3,5,4,1,2026-07-14T13:40:21.631083+05:30
Nagpur,Maharashtra,21.1458,79.0882,33.8,46,0.0,969.6,7.8,49.0,84,83.4,30.5,3.3,128.0,93.0,12.7,0,5,7,1,2026-07-14T13:40:21.631091+05:30
Nashik,Maharashtra,19.9975,73.7898,29.0,60,0.0,943.9,7.25,50.8,57,36.2,16.0,0.9,108.0,72.0,1.8,4,5,7,1,2026-07-14T13:40:21.631099+05:30
Aurangabad,Maharashtra,19.8762,75.3433,30.7,50,0.0,942.4,7.55,50.4,60,27.0,15.3,0.9,113.0,93.0,3.6,0,5,7,1,2026-07-14T13:40:21.631106+05:30
Solapur,Maharashtra,17.6599,75.9064,32.5,49,0.0,955.6,8.55,39.6,55,25.3,14.2,0.8,118.0,90.0,1.8,0,5,7,1,2026-07-14T13:40:21.631113+05:30
Kolhapur,Maharashtra,16.705,74.2433,28.6,60,0.0,947.6,8.9,46.1,53,26.2,15.4,1.5,112.0,73.0,1.8,4,5,7,1,2026-07-14T13:40:21.631121+05:30
Goa,Goa,15.2993,74.124,30.9,63,0.1,998.1,8.0,33.8,68,34.7,17.6,0.6,104.0,61.0,1.3,6,5,7,1,2026-07-14T13:40:21.631128+05:30
Jodhpur,Rajasthan,26.2389,73.0243,34.1,45,0.0,977.7,8.0,47.5,209,282.2,55.1,1.3,106.0,69.0,2.4,0,5,7,1,2026-07-14T13:40:21.631136+05:30
Udaipur,Rajasthan,24.5854,73.7125,30.1,56,0.0,942.8,8.15,47.9,74,62.4,21.2,1.2,107.0,69.0,2.8,0,5,7,1,2026-07-14T13:40:21.631144+05:30
Kota,Rajasthan,25.2138,75.8648,34.2,46,0.0,973.9,8.3,37.8,95,163.0,42.8,1.3,115.0,82.0,4.8,0,5,7,1,2026-07-14T13:40:21.631151+05:30
Bikaner,Rajasthan,28.0229,73.3119,37.0,41,0.0,975.1,8.4,39.6,175,258.9,80.6,0.4,106.0,79.0,3.2,0,5,10,1,2026-07-14T13:40:21.631158+05:30
Ajmer,Rajasthan,26.4499,74.6399,32.2,50,0.0,950.2,8.2,56.2,109,185.3,48.7,0.9,113.0,76.0,2.5,0,5,7,1,2026-07-14T13:40:21.631165+05:30
Gwalior,Madhya Pradesh,26.2183,78.1828,34.6,51,0.0,977.1,8.05,42.5,111,235.2,59.8,0.8,117.0,99.0,2.6,0,5,7,1,2026-07-14T13:40:21.631172+05:30
Indore,Madhya Pradesh,22.7196,75.8577,30.9,49,0.0,945.6,8.4,52.2,72,42.4,19.2,1.5,145.0,81.0,3.1,0,5,7,1,2026-07-14T13:40:21.631179+05:30
Bhopal,Madhya Pradesh,23.2599,77.4126,31.1,52,0.0,950.5,8.6,41.8,81,101.7,32.4,1.1,146.0,82.0,3.5,0,5,7,1,2026-07-14T13:40:21.631186+05:30
Jabalpur,Madhya Pradesh,23.1815,79.9864,31.9,60,0.0,956.7,8.55,38.2,93,61.2,27.1,1.2,134.0,95.0,4.8,0,5,7,1,2026-07-14T13:40:21.631193+05:30
Ujjain,Madhya Pradesh,23.1765,75.7885,30.4,54,0.0,950.9,8.5,49.0,72,45.8,19.7,1.1,124.0,78.0,3.3,0,5,7,1,2026-07-14T13:40:21.631201+05:30
Visakhapatnam,Andhra Pradesh,17.6868,83.2185,34.8,53,0.0,996.0,8.55,26.6,135,99.7,47.1,10.3,750.0,145.0,35.3,0,5,7,1,2026-07-14T13:40:21.631208+05:30
Vijayawada,Andhra Pradesh,16.5062,80.648,35.6,43,0.0,997.5,5.8,48.6,82,36.8,22.5,1.5,137.0,114.0,5.7,0,5,6,1,2026-07-14T13:40:21.631215+05:30
Guntur,Andhra Pradesh,16.3067,80.4365,36.7,37,0.0,998.7,6.35,49.3,73,34.9,21.0,1.2,140.0,110.0,4.4,0,5,10,1,2026-07-14T13:40:21.631222+05:30
Nellore,Andhra Pradesh,14.4426,79.9865,37.9,35,0.0,1000.8,8.1,48.2,67,34.1,17.8,1.6,118.0,113.0,5.2,0,5,7,1,2026-07-14T13:40:21.631230+05:30
Kurnool,Andhra Pradesh,15.8281,78.0373,36.2,34,0.0,974.4,7.3,43.2,54,24.3,14.6,1.6,124.0,107.0,8.1,0,5,10,1,2026-07-14T13:40:21.631238+05:30
Kakinada,Andhra Pradesh,16.9891,82.2475,34.6,53,0.0,1000.7,7.15,53.6,94,37.5,22.1,2.1,153.0,146.0,6.8,0,5,4,1,2026-07-14T13:40:21.631246+05:30
Tirupati,Andhra Pradesh,13.6288,79.4192,37.7,29,0.0,987.0,8.25,38.5,77,31.7,15.7,0.6,108.0,101.0,3.1,0,5,10,1,2026-07-14T13:40:21.631252+05:30
Warangal,Telangana,17.9689,79.5941,31.2,55,0.0,975.4,7.25,43.2,71,31.2,19.0,2.4,143.0,89.0,5.2,0,5,7,1,2026-07-14T13:40:21.631259+05:30
Nizamabad,Telangana,18.6725,78.0941,31.1,55,0.0,962.5,5.0,43.9,62,25.1,16.6,1.2,133.0,99.0,4.5,0,5,3,1,2026-07-14T13:40:21.631266+05:30
Mysore,Karnataka,12.2958,76.6396,31.9,45,0.0,928.3,8.95,38.9,56,18.4,10.4,1.8,130.0,95.0,1.8,0,5,7,1,2026-07-14T13:40:21.631273+05:30
Mangalore,Karnataka,12.9141,74.856,29.6,69,0.0,1007.3,8.25,38.9,60,30.2,15.5,0.9,96.0,65.0,1.8,7,5,4,1,2026-07-14T13:40:21.631280+05:30
Hubli-Dharwad,Karnataka,15.3647,75.124,30.0,56,0.0,940.6,8.75,46.4,50,25.0,14.6,1.2,109.0,76.0,1.3,4,5,7,1,2026-07-14T13:40:21.631288+05:30
Belgaum,Karnataka,15.8497,74.4977,27.6,59,0.0,925.8,8.45,42.5,51,27.5,14.9,1.1,103.0,65.0,1.2,4,5,7,1,2026-07-14T13:40:24.986458+05:30
Coimbatore,Tamil Nadu,11.0168,76.9558,33.9,41,0.0,960.4,8.35,54.4,54,21.3,11.6,1.1,135.0,91.0,2.3,0,5,7,1,2026-07-14T13:40:24.986489+05:30
Madurai,Tamil Nadu,9.9252,78.1198,40.1,25,0.0,989.5,8.65,29.5,71,47.3,19.2,1.6,123.0,124.0,2.9,0,5,10,1,2026-07-14T13:40:24.986504+05:30
Trichy,Tamil Nadu,10.7905,78.7047,39.1,26,0.0,996.0,8.5,45.0,65,35.7,16.5,1.5,133.0,108.0,2.7,0,5,10,0,2026-07-14T13:40:24.986513+05:30
Salem,Tamil Nadu,11.6643,78.146,35.0,40,0.0,974.9,8.35,28.4,72,35.6,18.0,2.4,135.0,125.0,7.9,0,5,7,1,2026-07-14T13:40:24.986521+05:30
Tirunelveli,Tamil Nadu,8.7139,77.7567,40.0,25,0.0,999.5,7.6,42.8,51,18.3,10.3,1.2,115.0,86.0,1.5,0,5,10,1,2026-07-14T13:40:24.986529+05:30
Vellore,Tamil Nadu,12.9165,79.1325,38.1,27,0.0,980.9,8.9,42.8,74,31.8,16.4,1.1,122.0,101.0,2.1,0,5,10,0,2026-07-14T13:40:24.986536+05:30
Erode,Tamil Nadu,11.341,77.7172,38.9,24,0.0,986.0,8.5,49.3,61,32.0,15.1,1.6,153.0,110.0,2.2,0,5,10,0,2026-07-14T13:40:24.986544+05:30
Kochi,Kerala,9.9312,76.2673,29.6,72,0.0,1008.9,8.4,43.6,57,18.9,12.1,2.0,105.0,73.0,2.5,7,0,4,1,2026-07-14T13:40:24.986551+05:30
Thiruvananthapuram,Kerala,8.5241,76.9366,29.0,77,0.0,1007.4,7.9,52.9,54,22.1,12.9,1.7,96.0,71.0,1.3,7,5,4,1,2026-07-14T13:40:24.986558+05:30
Kozhikode,Kerala,11.2588,75.7804,29.9,73,0.0,1007.9,8.15,45.0,53,21.9,12.3,0.7,99.0,74.0,1.6,7,5,4,1,2026-07-14T13:40:24.986566+05:30
Thrissur,Kerala,10.5276,76.2144,30.5,68,0.0,1007.1,7.9,40.7,55,16.3,11.2,1.4,97.0,74.0,2.2,3,5,4,1,2026-07-14T13:40:24.986574+05:30
Kannur,Kerala,11.8745,75.3704,30.4,67,0.0,1007.4,8.75,43.6,55,25.7,14.3,1.1,98.0,71.0,1.8,3,5,4,1,2026-07-14T13:40:24.986581+05:30
Patna,Bihar,25.5941,85.1376,32.6,68,0.0,993.1,7.6,29.2,155,126.7,62.2,2.6,244.0,166.0,11.7,3,5,7,1,2026-07-14T13:40:24.986588+05:30
Gaya,Bihar,24.7914,85.0002,33.0,69,0.0,986.9,8.45,21.6,158,136.4,63.1,1.8,246.0,156.0,8.8,3,5,7,1,2026-07-14T13:40:24.986610+05:30
Muzaffarpur,Bihar,26.1209,85.3647,33.4,65,0.0,992.8,7.55,18.7,154,97.1,50.1,3.4,287.0,165.0,13.3,3,5,7,1,2026-07-14T13:40:24.986617+05:30
Bhagalpur,Bihar,25.2425,87.0117,33.4,66,0.1,993.1,7.8,27.7,120,15.4,13.6,5.8,270.0,138.0,14.7,6,5,7,1,2026-07-14T13:40:24.986624+05:30
Ranchi,Jharkhand,23.3441,85.3096,28.2,74,0.0,932.0,8.65,40.0,154,105.5,48.0,3.0,171.0,125.0,12.6,7,5,7,1,2026-07-14T13:40:24.986631+05:30
Jamshedpur,Jharkhand,22.8046,86.2029,31.1,75,0.0,983.5,5.8,31.3,162,94.5,52.5,22.5,274.0,118.0,47.4,3,5,3,1,2026-07-14T13:40:24.986639+05:30
Dhanbad,Jharkhand,23.7957,86.4304,31.3,71,0.0,972.7,7.7,28.8,171,105.0,58.6,19.8,272.0,121.0,47.8,3,5,7,1,2026-07-14T13:40:24.986646+05:30
Bokaro,Jharkhand,23.6693,86.1511,30.5,76,0.0,976.7,8.65,29.5,173,135.0,69.2,20.9,226.0,129.0,59.0,3,5,7,1,2026-07-14T13:40:24.986653+05:30
Bhubaneswar,Odisha,20.2961,85.8245,28.3,91,0.1,994.8,5.85,37.8,132,104.1,59.6,11.9,223.0,113.0,22.9,10,5,3,1,2026-07-14T13:40:24.986660+05:30
Cuttack,Odisha,20.4625,85.8828,28.9,89,0.2,996.6,2.2,29.2,132,104.1,59.6,11.9,229.0,113.0,22.9,10,5,3,1,2026-07-14T13:40:24.986668+05:30
Rourkela,Odisha,22.2604,84.8536,30.4,79,0.3,978.1,7.8,36.0,151,123.9,59.3,6.9,304.0,110.0,17.6,6,5,7,1,2026-07-14T13:40:24.986675+05:30
Raipur,Chhattisgarh,21.2514,81.6296,34.0,52,0.0,969.3,8.8,47.5,131,104.1,43.9,9.4,142.0,108.0,29.6,0,5,7,1,2026-07-14T13:40:24.986683+05:30
Bhilai,Chhattisgarh,21.1938,81.3509,33.6,53,0.0,969.7,8.75,43.6,120,81.7,36.4,9.3,183.0,100.0,26.1,0,5,7,1,2026-07-14T13:40:24.986689+05:30
Guwahati,Assam,26.1158,91.7086,32.5,76,0.0,992.4,8.1,26.3,56,12.4,11.4,1.3,227.0,111.0,2.1,3,5,7,1,2026-07-14T13:40:24.986695+05:30
Agartala,Tripura,23.8315,91.2868,33.1,66,0.1,997.2,8.65,22.7,81,16.9,14.6,2.2,167.0,145.0,1.6,6,5,7,1,2026-07-14T13:40:24.986701+05:30
Shillong,Meghalaya,25.5788,91.8933,24.2,85,0.2,853.1,8.45,25.9,60,11.6,10.5,2.1,171.0,88.0,1.9,6,5,7,1,2026-07-14T13:40:24.986706+05:30
Imphal,Manipur,24.817,93.9368,30.1,65,0.0,916.9,9.2,26.3,55,3.3,2.7,0.9,172.0,83.0,1.2,3,5,7,1,2026-07-14T13:40:24.986712+05:30
Aizawl,Mizoram,23.7271,92.7176,22.6,93,0.2,886.1,8.95,20.9,53,7.1,5.7,2.0,139.0,74.0,0.8,6,5,7,1,2026-07-14T13:40:24.986718+05:30
Kohima,Nagaland,25.6701,94.1077,24.3,90,0.2,850.9,8.25,25.9,44,6.1,5.9,1.0,173.0,82.0,0.6,6,5,7,1,2026-07-14T13:40:24.986723+05:30
Gangtok,Sikkim,27.3314,88.6138,23.4,75,0.0,834.9,8.25,26.6,45,2.9,2.6,2.1,259.0,97.0,0.7,3,5,7,1,2026-07-14T13:40:24.986729+05:30
Siliguri,West Bengal,26.7271,88.3953,32.3,67,0.0,985.2,7.95,25.9,69,12.0,9.4,1.6,286.0,115.0,2.0,3,5,7,1,2026-07-14T13:40:28.347223+05:30
Durgapur,West Bengal,23.5204,87.3119,32.5,71,0.0,986.9,8.85,26.3,165,59.3,45.3,19.6,356.0,145.0,51.1,3,5,7,1,2026-07-14T13:40:28.347254+05:30
Asansol,West Bengal,23.6739,86.9524,32.7,69,0.0,985.7,6.5,26.3,162,78.0,52.6,20.4,309.0,126.0,45.3,3,5,7,1,2026-07-14T13:40:28.347267+05:30
Pondicherry,Puducherry,11.9139,79.8145,37.6,37,0.0,1004.0,8.2,43.2,71,38.5,25.1,4.7,192.0,144.0,4.3,0,5,7,1,2026-07-14T13:40:28.347275+05:30
Port Blair,Andaman and Nicobar Islands,11.6234,92.7265,30.6,70,0.0,1003.7,8.2,60.8,49,11.6,5.7,0.2,89.0,45.0,0.4,3,5,4,1,2026-07-14T13:40:28.347284+05:30
Haridwar,Uttarakhand,29.9457,78.1642,34.5,56,0.0,966.7,7.45,32.8,179,238.4,83.1,1.4,341.0,152.0,11.7,0,5,7,1,2026-07-14T13:40:28.347292+05:30
Rishikesh,Uttarakhand,30.0869,78.2676,33.4,57,0.1,959.7,7.6,28.4,166,170.4,61.0,0.7,288.0,126.0,6.3,3,5,7,1,2026-07-14T13:40:28.347299+05:30
Nainital,Uttarakhand,29.3919,79.4542,24.5,57,0.0,804.8,8.5,28.8,161,243.1,76.8,1.3,234.0,149.0,9.9,0,5,7,0,2026-07-14T13:40:28.347307+05:30
Mussoorie,Uttarakhand,30.4599,78.0664,23.0,67,0.0,802.0,8.0,36.7,161,150.4,56.1,1.0,220.0,133.0,6.7,3,5,7,1,2026-07-14T13:40:28.347314+05:30
Dharamshala,Himachal Pradesh,32.219,76.3234,26.5,62,0.0,865.7,8.4,33.1,75,51.3,23.3,0.7,211.0,143.0,1.4,7,5,7,1,2026-07-14T13:40:28.347321+05:30
Dalhousie,Himachal Pradesh,32.5387,75.971,23.8,63,0.0,804.6,8.65,30.2,148,99.0,44.2,1.4,243.0,168.0,2.8,3,5,7,1,2026-07-14T13:40:28.347330+05:30
Patiala,Punjab,30.3398,76.3869,34.8,57,0.0,970.6,7.5,45.7,188,139.7,67.3,2.0,255.0,180.0,9.8,0,5,7,1,2026-07-14T13:40:28.347337+05:30
Bhatinda,Punjab,30.211,74.9455,38.0,39,0.0,976.0,8.2,30.2,191,185.8,75.0,2.8,215.0,175.0,14.0,0,5,10,1,2026-07-14T13:40:28.347345+05:30
Rohtak,Haryana,28.8955,76.6066,36.6,46,0.0,974.4,7.3,36.7,644,719.0,142.5,1.4,149.0,137.0,6.5,0,5,10,1,2026-07-14T13:40:28.347393+05:30
Panipat,Haryana,29.3909,76.9635,35.6,49,0.0,972.8,7.3,42.1,650,577.4,136.0,2.7,187.0,176.0,15.5,0,5,10,1,2026-07-14T13:40:28.347452+05:30
Mathura,Uttar Pradesh,27.4924,77.6737,35.0,52,0.0,979.8,7.9,29.9,779,860.5,152.7,1.4,145.0,120.0,3.5,0,5,7,1,2026-07-14T13:40:28.347464+05:30
Vrindavan,Uttar Pradesh,27.5823,77.7027,35.3,51,0.0,980.2,7.9,29.2,779,860.5,152.7,1.4,140.0,120.0,3.5,0,5,10,1,2026-07-14T13:40:28.347472+05:30
Ayodhya,Uttar Pradesh,26.7922,82.1998,33.5,71,0.0,987.9,7.8,34.2,157,249.6,82.0,1.5,316.0,168.0,7.2,3,5,7,1,2026-07-14T13:40:28.347480+05:30
Ratlam,Madhya Pradesh,23.3315,75.0367,30.9,52,0.0,951.7,8.25,49.0,69,44.2,19.0,1.1,113.0,78.0,3.4,0,5,7,1,2026-07-14T13:40:28.347488+05:30
Sagar,Madhya Pradesh,23.8388,78.7378,31.5,61,0.0,946.2,8.6,44.3,92,105.0,33.1,1.0,128.0,94.0,4.1,3,5,7,1,2026-07-14T13:40:28.347496+05:30
Satna,Madhya Pradesh,24.6005,80.8322,33.0,56,0.1,965.7,6.9,41.4,102,104.3,39.0,0.9,133.0,113.0,4.6,3,5,7,1,2026-07-14T13:40:28.347503+05:30
Akola,Maharashtra,20.7002,77.0082,32.3,51,0.0,972.7,5.85,51.1,62,32.9,17.0,1.2,112.0,88.0,5.1,0,5,3,1,2026-07-14T13:40:28.347511+05:30
Amravati,Maharashtra,20.9374,77.7796,32.2,50,0.0,964.6,7.5,50.4,64,35.9,17.9,1.4,111.0,89.0,5.5,0,5,7,1,2026-07-14T13:40:28.347521+05:30
Latur,Maharashtra,18.4088,76.5604,30.7,52,0.0,938.3,7.55,41.0,56,26.4,14.9,0.7,111.0,82.0,1.7,0,5,7,1,2026-07-14T13:40:28.347528+05:30
Nanded,Maharashtra,19.1383,77.3091,31.7,53,0.0,966.4,8.05,41.0,62,26.9,16.9,0.8,129.0,97.0,3.5,0,5,7,1,2026-07-14T13:40:28.347535+05:30
Gulbarga,Karnataka,17.3297,76.8343,33.0,44,0.0,957.1,8.15,44.3,54,22.4,12.7,1.1,124.0,95.0,2.3,0,5,7,1,2026-07-14T13:40:28.347542+05:30
Bidar,Karnataka,17.9104,77.5199,31.3,51,0.0,934.1,7.25,41.0,57,25.0,14.6,1.0,126.0,95.0,2.8,0,5,7,1,2026-07-14T13:40:28.347549+05:30
Hospet,Karnataka,15.2689,76.3909,34.1,37,0.0,954.6,7.5,43.2,51,22.9,13.2,1.8,115.0,90.0,2.3,0,5,7,1,2026-07-14T13:40:28.347556+05:30
Tirupur,Tamil Nadu,11.1085,77.3411,35.6,39,0.0,973.1,8.3,58.3,62,28.5,13.9,1.6,137.0,105.0,2.5,0,5,10,1,2026-07-14T13:40:28.347562+05:30
Alappuzha,Kerala,9.4981,76.3388,29.3,77,0.0,1008.8,8.0,43.9,57,23.3,14.0,2.0,89.0,74.0,2.3,7,0,4,1,2026-07-14T13:40:28.347568+05:30
Munnar,Kerala,10.0889,77.0595,23.6,73,0.0,858.1,8.4,35.6,47,19.0,9.5,0.7,104.0,76.0,1.3,3,5,7,1,2026-07-14T13:40:28.347711+05:30
Silchar,Assam,24.8333,92.7789,34.8,61,0.0,995.0,8.85,27.0,92,15.0,12.7,1.1,175.0,123.0,3.3,3,5,7,1,2026-07-14T13:40:28.347719+05:30
Dibrugarh,Assam,27.4728,94.912,34.3,63,0.0,985.4,8.6,17.6,74,14.1,14.0,1.1,177.0,133.0,1.4,3,5,7,1,2026-07-14T13:40:28.347725+05:30
