city,state,latitude,longitude,temp,humidity,rain,pressure,uv_index,wind_gusts,aqi,pm10,pm2_5,no2,co,o3,so2,mosquito_risk,arthritis_risk,migraine_risk,frizz_risk,updated_at
Delhi,Delhi,28.6139,77.209,32.0,27,0.0,975.7,7.75,37.1,604,637.0,144.8,18.2,233.0,49.0,9.0,0,5,7,0,2026-05-19T03:34:59.000912+05:30
Mumbai,Maharashtra,19.076,72.8777,28.5,82,0.0,1004.2,7.9,43.6,71,56.2,23.0,8.9,206.0,55.0,4.4,7,5,4,1,2026-05-19T03:34:59.000953+05:30
Bangalore,Karnataka,12.9716,77.5946,21.5,97,0.0,908.7,6.7,38.9,76,11.5,10.8,12.1,227.0,57.0,6.9,3,5,7,1,2026-05-19T03:34:59.000965+05:30
Hyderabad,Telangana,17.385,78.4867,29.0,64,0.0,949.1,8.65,28.8,64,28.3,26.0,10.3,276.0,89.0,8.7,7,5,7,1,2026-05-19T03:34:59.000973+05:30
Chennai,Tamil Nadu,13.0827,80.2707,29.0,79,0.0,1002.5,9.1,42.5,57,14.0,11.6,13.3,287.0,63.0,15.5,7,5,4,1,2026-05-19T03:34:59.000980+05:30
Kolkata,West Bengal,22.5726,88.3639,28.8,92,0.0,1000.4,8.95,33.8,73,21.8,17.4,7.0,216.0,70.0,6.0,7,5,4,1,2026-05-19T03:34:59.000986+05:30
Pune,Maharashtra,18.5204,73.8567,25.2,80,0.0,944.7,8.5,41.8,76,35.4,24.2,17.3,176.0,61.0,23.4,7,5,7,1,2026-05-19T03:34:59.000992+05:30
Ahmedabad,Gujarat,23.0225,72.5714,31.0,42,0.0,996.9,8.15,33.5,67,34.2,17.8,4.3,147.0,55.0,3.2,0,5,7,1,2026-05-19T03:34:59.000999+05:30
Jaipur,Rajasthan,26.9124,75.7873,32.5,23,0.0,954.3,8.25,37.4,174,337.1,63.1,4.3,163.0,75.0,3.7,0,5,7,0,2026-05-19T03:34:59.001008+05:30
Lucknow,Uttar Pradesh,26.8467,80.9462,30.9,51,0.0,986.1,8.2,34.9,194,450.8,122.9,52.2,444.0,13.0,15.7,0,5,7,1,2026-05-19T03:34:59.001013+05:30
Kanpur,Uttar Pradesh,26.4499,80.3319,32.5,37,0.0,984.3,8.25,40.7,429,551.3,123.9,33.1,355.0,26.0,11.4,0,5,7,0,2026-05-19T03:34:59.001018+05:30
Chandigarh,Chandigarh,30.7333,76.7794,31.3,32,0.0,960.6,7.8,27.7,64,31.8,22.9,14.8,294.0,76.0,11.1,0,5,7,0,2026-05-19T03:34:59.001025+05:30
Srinagar,Jammu and Kashmir,34.0837,74.7973,13.1,91,0.0,836.6,8.85,41.4,70,38.1,28.3,18.9,312.0,25.0,0.2,3,10,7,0,2026-05-19T03:34:59.001031+05:30
Jammu,Jammu and Kashmir,32.7266,74.857,25.6,55,0.0,964.4,8.55,30.2,74,29.2,27.0,30.8,311.0,15.0,2.0,4,5,7,0,2026-05-19T03:34:59.001037+05:30
Amritsar,Punjab,31.634,74.8723,29.0,56,0.0,972.0,8.45,24.8,94,88.7,65.9,41.2,836.0,40.0,16.1,4,5,7,1,2026-05-19T03:34:59.001042+05:30
Ludhiana,Punjab,30.901,75.8573,29.9,53,0.0,970.4,8.05,29.2,94,56.7,42.4,19.6,755.0,50.0,9.0,4,5,7,1,2026-05-19T03:34:59.001047+05:30
Jalandhar,Punjab,31.326,75.5762,28.8,49,0.0,970.9,8.25,24.1,105,70.3,51.3,27.4,1107.0,45.0,10.3,4,5,7,1,2026-05-19T03:34:59.001054+05:30
Dehradun,Uttarakhand,30.6284,78.0322,14.3,85,0.0,823.2,8.2,43.2,43,13.9,12.7,26.0,258.0,14.0,0.7,3,10,7,0,2026-05-19T03:34:59.001071+05:30
Shimla,Himachal Pradesh,31.1048,77.1734,16.3,51,0.0,781.0,8.3,46.1,58,20.5,17.4,17.8,197.0,73.0,3.2,0,5,7,0,2026-05-19T03:34:59.001079+05:30
Manali,Himachal Pradesh,32.2396,77.1887,10.9,38,0.0,811.6,9.65,47.5,25,10.2,5.2,51.5,207.0,54.0,0.1,0,5,7,1,2026-05-19T03:34:59.001083+05:30
Gurgaon,Haryana,28.4595,77.0266,30.1,29,0.0,974.1,7.85,34.2,1405,1765.8,264.5,13.4,220.0,55.0,7.5,0,5,7,0,2026-05-19T03:34:59.001089+05:30
Noida,Uttar Pradesh,28.5355,77.391,30.0,34,0.0,976.7,7.8,31.3,1405,1765.8,264.5,13.4,244.0,55.0,7.5,4,5,7,0,2026-05-19T03:34:59.001093+05:30
Ghaziabad,Uttar Pradesh,28.6692,77.4538,31.1,32,0.0,975.0,7.75,36.0,506,579.3,150.9,20.0,293.0,46.0,11.1,0,5,7,0,2026-05-19T03:34:59.001098+05:30
Faridabad,Haryana,28.4089,77.3178,32.2,26,0.0,976.3,7.8,40.0,1405,1765.8,264.5,13.4,224.0,55.0,7.5,0,5,7,0,2026-05-19T03:34:59.001103+05:30
Meerut,Uttar Pradesh,28.9845,77.7064,30.7,39,0.0,973.2,7.65,27.0,506,579.3,150.9,20.0,342.0,46.0,11.1,0,5,7,0,2026-05-19T03:34:59.001108+05:30
Agra,Uttar Pradesh,27.1767,78.0081,32.5,26,0.0,980.1,8.1,41.8,707,853.1,117.8,14.2,201.0,42.0,5.4,0,5,7,0,2026-05-19T03:34:59.001113+05:30
Varanasi,Uttar Pradesh,25.3176,82.9739,31.1,54,0.0,990.6,8.7,32.0,120,138.8,72.9,54.5,761.0,12.0,16.4,0,5,7,1,2026-05-19T03:34:59.001118+05:30
Prayagraj,Uttar Pradesh,25.4358,81.8463,31.5,44,0.0,988.6,8.65,36.4,150,230.0,99.2,63.5,395.0,7.0,17.5,0,5,7,1,2026-05-19T03:34:59.001123+05:30
Gorakhpur,Uttar Pradesh,26.7606,83.3732,28.5,77,0.0,991.7,8.65,36.7,166,91.7,78.2,15.7,617.0,91.0,18.3,7,5,7,1,2026-05-19T03:34:59.001130+05:30
Bareilly,Uttar Pradesh,28.367,79.4304,27.5,69,0.0,978.9,8.05,28.4,155,208.6,92.2,54.5,631.0,25.0,16.9,7,5,7,1,2026-05-19T03:34:59.001135+05:30
Aligarh,Uttar Pradesh,27.8974,78.088,29.7,35,0.0,977.9,7.9,36.4,841,1013.3,197.0,15.3,289.0,50.0,8.4,4,5,7,0,2026-05-19T03:34:59.001140+05:30
Moradabad,Uttar Pradesh,28.8386,78.7733,28.3,67,0.0,975.7,7.85,26.3,168,439.6,143.9,64.2,889.0,6.0,18.8,7,5,7,1,2026-05-19T03:34:59.001144+05:30
Saharanpur,Uttar Pradesh,29.9637,77.546,29.5,39,0.0,967.2,7.4,25.2,112,64.3,38.3,25.2,393.0,65.0,13.5,4,5,7,0,2026-05-19T03:34:59.001149+05:30
Jhansi,Uttar Pradesh,25.4484,78.5685,33.0,26,0.0,970.7,8.5,29.9,69,66.6,26.0,4.0,167.0,65.0,2.0,0,5,7,0,2026-05-19T03:35:02.467401+05:30
Surat,Gujarat,21.1702,72.8311,28.4,89,0.0,1001.3,7.75,40.3,96,51.5,32.6,32.7,281.0,29.0,43.1,7,5,4,1,2026-05-19T03:35:02.467432+05:30
Vadodara,Gujarat,22.3072,73.1812,31.0,42,0.0,998.7,7.75,44.3,73,36.6,23.3,11.5,202.0,48.0,7.9,0,5,7,1,2026-05-19T03:35:02.467441+05:30
Rajkot,Gujarat,22.3039,70.8022,25.5,91,0.0,990.1,7.7,43.2,68,26.7,10.7,6.2,119.0,43.0,5.5,7,5,7,1,2026-05-19T03:35:02.467448+05:30
Thane,Maharashtra,19.2183,72.9781,28.2,87,0.0,1003.5,7.9,39.6,71,56.2,23.0,8.9,207.0,55.0,4.4,7,5,4,1,2026-05-19T03:35:02.467455+05:30
Nagpur,Maharashtra,21.1458,79.0882,33.1,42,0.0,967.8,8.1,40.7,75,28.6,25.7,14.5,295.0,84.0,22.5,0,5,7,1,2026-05-19T03:35:02.467461+05:30
Nashik,Maharashtra,19.9975,73.7898,26.0,46,0.0,941.3,8.2,37.8,66,33.2,19.6,11.7,162.0,54.0,2.5,4,5,7,0,2026-05-19T03:35:02.467467+05:30
Aurangabad,Maharashtra,19.8762,75.3433,30.5,35,0.0,939.6,9.05,36.7,64,32.0,23.0,10.9,213.0,102.0,12.1,0,5,7,0,2026-05-19T03:35:02.467473+05:30
Solapur,Maharashtra,17.6599,75.9064,30.0,62,0.0,953.2,7.75,41.8,71,26.4,21.8,12.0,190.0,62.0,5.1,7,5,7,1,2026-05-19T03:35:02.467479+05:30
Kolhapur,Maharashtra,16.705,74.2433,24.6,89,0.0,944.5,8.0,43.9,59,25.7,14.8,4.5,138.0,63.0,2.5,3,5,7,1,2026-05-19T03:35:02.467485+05:30
Goa,Goa,15.2993,74.124,28.6,83,0.0,994.9,6.1,27.0,67,53.4,24.6,5.3,339.0,52.0,1.9,7,5,7,1,2026-05-19T03:35:02.467491+05:30
Jodhpur,Rajasthan,26.2389,73.0243,30.9,25,0.0,977.5,8.45,39.6,142,202.1,46.9,4.2,141.0,61.0,3.2,0,5,7,0,2026-05-19T03:35:02.467497+05:30
Udaipur,Rajasthan,24.5854,73.7125,30.4,22,0.0,941.6,8.85,41.0,56,34.2,16.2,3.0,130.0,69.0,3.3,0,5,7,0,2026-05-19T03:35:02.467503+05:30
Kota,Rajasthan,25.2138,75.8648,33.2,23,0.0,972.8,8.4,32.4,82,37.7,23.0,10.1,182.0,50.0,4.5,0,5,7,0,2026-05-19T03:35:02.467509+05:30
Bikaner,Rajasthan,28.0229,73.3119,31.8,18,0.0,975.5,8.4,36.0,102,321.3,94.8,1.8,126.0,81.0,1.9,0,5,7,0,2026-05-19T03:35:02.467516+05:30
Ajmer,Rajasthan,26.4499,74.6399,30.0,24,0.0,950.0,8.4,41.8,82,75.9,25.0,4.3,167.0,72.0,4.1,4,5,7,0,2026-05-19T03:35:02.467521+05:30
Gwalior,Madhya Pradesh,26.2183,78.1828,33.5,25,0.0,975.8,8.3,38.9,84,59.6,26.5,7.2,173.0,54.0,3.4,0,5,7,0,2026-05-19T03:35:02.467527+05:30
Indore,Madhya Pradesh,22.7196,75.8577,32.3,23,0.0,943.6,8.65,42.8,73,30.2,17.6,2.9,206.0,93.0,5.4,0,5,7,0,2026-05-19T03:35:02.467533+05:30
Bhopal,Madhya Pradesh,23.2599,77.4126,34.1,21,0.0,948.0,8.7,39.6,74,88.5,35.2,13.4,371.0,66.0,7.8,0,5,7,0,2026-05-19T03:35:02.467538+05:30
Jabalpur,Madhya Pradesh,23.1815,79.9864,31.5,36,0.0,955.5,8.6,36.7,84,59.4,38.3,31.8,251.0,32.0,5.3,0,5,7,0,2026-05-19T03:35:02.467544+05:30
Ujjain,Madhya Pradesh,23.1765,75.7885,32.2,23,0.0,948.9,8.6,44.6,66,30.2,17.9,3.3,240.0,83.0,5.1,0,5,7,0,2026-05-19T03:35:02.467550+05:30
Visakhapatnam,Andhra Pradesh,17.6868,83.2185,28.9,87,0.0,1000.1,9.05,47.5,64,20.7,15.4,15.5,319.0,56.0,29.5,7,5,4,1,2026-05-19T03:35:02.467556+05:30
Vijayawada,Andhra Pradesh,16.5062,80.648,29.5,83,0.0,998.4,8.5,27.0,64,18.5,14.4,5.5,225.0,81.0,4.7,7,5,7,1,2026-05-19T03:35:02.467561+05:30
Guntur,Andhra Pradesh,16.3067,80.4365,29.9,83,0.0,999.4,8.65,32.0,67,18.5,14.8,5.3,222.0,89.0,4.3,7,5,7,1,2026-05-19T03:35:02.467567+05:30
Nellore,Andhra Pradesh,14.4426,79.9865,29.8,74,0.0,1000.7,8.55,42.8,64,19.0,17.8,10.8,290.0,80.0,16.1,7,5,4,1,2026-05-19T03:35:02.467573+05:30
Kurnool,Andhra Pradesh,15.8281,78.0373,31.2,61,0.0,972.0,7.25,40.7,65,23.5,21.8,6.1,241.0,95.0,8.6,3,5,7,1,2026-05-19T03:35:02.467579+05:30
Kakinada,Andhra Pradesh,16.9891,82.2475,29.4,85,0.0,1003.8,8.25,29.5,53,16.4,10.0,1.9,238.0,70.0,1.1,7,5,4,1,2026-05-19T03:35:02.467585+05:30
Tirupati,Andhra Pradesh,13.6288,79.4192,28.0,76,0.0,986.7,8.4,40.7,72,19.0,17.6,12.0,252.0,68.0,10.2,7,5,7,1,2026-05-19T03:35:02.467590+05:30
Warangal,Telangana,17.9689,79.5941,28.5,70,0.0,974.1,9.1,33.5,74,27.5,25.7,8.7,268.0,96.0,11.2,7,5,7,1,2026-05-19T03:35:02.467596+05:30
Nizamabad,Telangana,18.6725,78.0941,30.5,51,0.0,960.1,9.15,29.5,79,26.4,24.0,12.8,279.0,69.0,6.2,0,5,7,1,2026-05-19T03:35:02.467614+05:30
Mysore,Karnataka,12.2958,76.6396,22.0,93,0.0,925.4,8.6,41.4,52,7.3,7.1,10.0,201.0,48.0,2.5,3,5,7,1,2026-05-19T03:35:02.467620+05:30
Mangalore,Karnataka,12.9141,74.856,25.4,96,0.0,1004.5,8.2,34.6,53,10.0,8.4,6.6,165.0,58.0,2.4,7,5,4,1,2026-05-19T03:35:02.467626+05:30
Hubli-Dharwad,Karnataka,15.3647,75.124,24.4,89,0.0,937.9,6.5,38.5,57,19.3,10.6,5.5,146.0,44.0,1.8,3,5,7,1,2026-05-19T03:35:02.467632+05:30
Belgaum,Karnataka,15.8497,74.4977,22.9,93,0.0,922.6,8.8,41.0,57,25.9,12.4,3.1,124.0,58.0,1.5,3,5,7,1,2026-05-19T03:35:05.847480+05:30
Coimbatore,Tamil Nadu,11.0168,76.9558,25.1,80,0.0,959.1,9.05,56.2,27,2.3,2.1,4.8,152.0,52.0,2.1,7,5,7,1,2026-05-19T03:35:05.847510+05:30
Madurai,Tamil Nadu,9.9252,78.1198,27.5,76,0.0,990.7,8.55,37.4,58,11.8,11.3,20.6,403.0,24.0,4.8,7,5,7,1,2026-05-19T03:35:05.847519+05:30
Trichy,Tamil Nadu,10.7905,78.7047,27.0,81,0.0,997.0,7.3,31.0,55,14.4,14.0,20.4,202.0,34.0,4.7,7,5,7,1,2026-05-19T03:35:05.847527+05:30
Salem,Tamil Nadu,11.6643,78.146,26.2,78,0.0,974.7,6.0,42.1,51,13.8,13.0,20.0,291.0,31.0,6.3,7,5,3,1,2026-05-19T03:35:05.847534+05:30
Tirunelveli,Tamil Nadu,8.7139,77.7567,27.4,82,0.0,1001.3,7.6,27.7,28,9.3,7.0,5.7,149.0,43.0,1.8,7,5,4,1,2026-05-19T03:35:05.847540+05:30
Vellore,Tamil Nadu,12.9165,79.1325,27.6,75,0.0,980.5,7.75,39.6,69,19.5,18.0,10.5,245.0,66.0,6.7,7,5,7,1,2026-05-19T03:35:05.847547+05:30
Erode,Tamil Nadu,11.341,77.7172,27.5,71,0.0,986.3,7.4,48.2,39,10.0,9.5,18.4,156.0,31.0,4.1,7,5,7,1,2026-05-19T03:35:05.847553+05:30
Kochi,Kerala,9.9312,76.2673,25.6,96,0.2,1006.9,7.6,36.7,32,6.6,5.6,6.0,212.0,47.0,2.2,10,5,4,1,2026-05-19T03:35:05.847559+05:30
Thiruvananthapuram,Kerala,8.5241,76.9366,25.2,98,0.3,1006.8,6.9,38.2,40,14.2,8.0,1.0,118.0,56.0,0.4,10,5,4,1,2026-05-19T03:35:05.847565+05:30
Kozhikode,Kerala,11.2588,75.7804,24.6,99,0.1,1005.9,6.6,37.4,30,4.2,3.3,2.6,257.0,70.0,1.1,6,5,4,1,2026-05-19T03:35:05.847571+05:30
Thrissur,Kerala,10.5276,76.2144,24.5,98,0.0,1005.1,5.55,34.9,29,5.6,5.0,7.0,196.0,42.0,2.5,3,5,0,1,2026-05-19T03:35:05.847577+05:30
Kannur,Kerala,11.8745,75.3704,25.4,94,0.1,1005.0,7.45,34.2,32,7.3,6.7,7.3,212.0,44.0,2.7,10,5,4,1,2026-05-19T03:35:05.847583+05:30
Patna,Bihar,25.5941,85.1376,27.8,85,0.0,994.8,8.8,41.0,154,42.0,34.9,11.6,446.0,96.0,14.2,7,5,7,1,2026-05-19T03:35:05.847589+05:30
Gaya,Bihar,24.7914,85.0002,28.0,65,0.0,987.2,8.85,29.5,143,54.0,44.8,12.7,435.0,90.0,16.8,7,5,7,1,2026-05-19T03:35:05.847595+05:30
Muzaffarpur,Bihar,26.1209,85.3647,26.9,85,0.0,995.6,8.8,44.6,154,39.2,33.1,10.6,430.0,91.0,11.8,7,5,7,1,2026-05-19T03:35:05.847600+05:30
Bhagalpur,Bihar,25.2425,87.0117,26.4,89,0.0,996.6,8.8,39.6,128,43.1,40.5,14.1,465.0,67.0,6.7,7,5,7,1,2026-05-19T03:35:05.847622+05:30
Ranchi,Jharkhand,23.3441,85.3096,25.5,64,0.0,932.8,9.25,45.0,121,46.1,37.7,11.4,298.0,116.0,29.0,7,5,7,1,2026-05-19T03:35:05.847628+05:30
Jamshedpur,Jharkhand,22.8046,86.2029,27.9,66,0.0,985.2,9.1,40.0,129,50.3,43.0,17.0,317.0,91.0,26.2,7,5,7,1,2026-05-19T03:35:05.847634+05:30
Dhanbad,Jharkhand,23.7957,86.4304,27.1,64,0.0,974.1,9.05,24.8,158,76.6,67.5,44.0,695.0,63.0,102.1,7,5,7,1,2026-05-19T03:35:05.847640+05:30
Bokaro,Jharkhand,23.6693,86.1511,26.6,67,0.0,977.6,9.05,27.7,153,62.9,51.2,27.8,282.0,78.0,58.3,7,5,7,1,2026-05-19T03:35:05.847646+05:30
Bhubaneswar,Odisha,20.2961,85.8245,28.9,87,0.0,997.0,9.1,45.7,62,14.5,11.4,5.1,199.0,63.0,4.7,7,5,7,1,2026-05-19T03:35:05.847651+05:30
Cuttack,Odisha,20.4625,85.8828,29.0,88,0.0,998.7,9.15,39.2,62,14.5,11.4,5.1,207.0,63.0,4.7,7,5,7,1,2026-05-19T03:35:05.847656+05:30
Rourkela,Odisha,22.2604,84.8536,28.1,78,0.0,979.8,9.0,48.2,130,70.8,54.9,29.9,368.0,60.0,22.3,7,5,7,1,2026-05-19T03:35:05.847662+05:30
Raipur,Chhattisgarh,21.2514,81.6296,31.0,50,0.0,969.3,8.7,45.7,106,31.9,28.8,20.1,469.0,71.0,32.9,0,5,7,1,2026-05-19T03:35:05.847668+05:30
Bhilai,Chhattisgarh,21.1938,81.3509,30.5,54,0.0,969.8,9.0,44.3,97,30.6,27.6,18.8,700.0,80.0,33.2,0,5,7,1,2026-05-19T03:35:05.847674+05:30
Guwahati,Assam,26.1158,91.7086,22.8,99,0.0,999.5,8.7,22.0,58,19.7,15.7,7.8,311.0,65.0,3.1,3,5,7,1,2026-05-19T03:35:05.847679+05:30
Agartala,Tripura,23.8315,91.2868,25.8,92,0.0,1002.7,8.9,41.0,75,21.0,18.3,14.3,211.0,28.0,2.2,7,5,4,1,2026-05-19T03:35:05.847685+05:30
Shillong,Meghalaya,25.5788,91.8933,17.8,95,0.0,854.4,7.3,24.8,41,18.6,10.8,4.7,255.0,93.0,5.3,3,10,7,1,2026-05-19T03:35:05.847691+05:30
Imphal,Manipur,24.817,93.9368,20.7,97,0.0,920.1,9.25,33.5,75,19.3,15.1,8.2,333.0,44.0,2.7,3,5,7,1,2026-05-19T03:35:05.847697+05:30
Aizawl,Mizoram,23.7271,92.7176,18.5,94,0.0,889.3,9.1,28.1,75,38.0,25.5,8.1,189.0,49.0,3.1,3,10,7,1,2026-05-19T03:35:05.847702+05:30
Kohima,Nagaland,25.6701,94.1077,17.7,82,0.1,852.6,8.7,31.0,57,13.9,8.3,6.4,239.0,49.0,1.9,6,10,7,0,2026-05-19T03:35:05.847708+05:30
Gangtok,Sikkim,27.3314,88.6138,15.6,100,0.0,834.9,8.6,40.3,73,15.5,12.7,13.8,843.0,28.0,0.7,3,10,7,0,2026-05-19T03:35:05.847713+05:30
Siliguri,West Bengal,26.7271,88.3953,23.6,93,0.0,991.1,8.7,26.3,117,51.6,41.9,11.2,389.0,96.0,4.5,3,5,7,1,2026-05-19T03:35:09.249175+05:30
Durgapur,West Bengal,23.5204,87.3119,27.9,86,0.0,989.4,9.0,28.1,156,64.5,58.1,26.2,668.0,79.0,38.7,7,5,7,1,2026-05-19T03:35:09.249207+05:30
Asansol,West Bengal,23.6739,86.9524,27.2,92,0.0,987.9,9.0,32.8,155,64.5,57.5,31.9,453.0,70.0,54.2,7,5,7,1,2026-05-19T03:35:09.249216+05:30
Pondicherry,Puducherry,11.9139,79.8145,28.3,80,0.0,1004.4,5.0,42.8,56,12.0,10.4,12.2,256.0,61.0,11.1,7,5,0,1,2026-05-19T03:35:09.249222+05:30
Port Blair,Andaman and Nicobar Islands,11.6234,92.7265,24.9,96,0.2,1004.6,8.95,48.6,28,7.2,4.3,0.2,121.0,55.0,0.3,6,5,4,1,2026-05-19T03:35:09.249229+05:30
Haridwar,Uttarakhand,29.9457,78.1642,25.2,62,0.0,965.6,7.55,36.7,84,43.9,37.7,38.5,323.0,15.0,6.4,7,5,7,1,2026-05-19T03:35:09.249235+05:30
Rishikesh,Uttarakhand,30.0869,78.2676,21.4,77,0.0,958.1,7.65,32.4,68,35.6,24.7,18.5,361.0,75.0,6.6,3,5,7,1,2026-05-19T03:35:09.249243+05:30
Nainital,Uttarakhand,29.3919,79.4542,15.8,66,0.0,801.1,8.5,38.2,85,42.6,25.6,18.3,235.0,90.0,5.3,3,5,7,0,2026-05-19T03:35:09.249248+05:30
Mussoorie,Uttarakhand,30.4599,78.0664,19.2,49,0.0,799.6,8.1,55.4,64,27.5,26.1,38.3,224.0,23.0,5.5,0,5,7,0,2026-05-19T03:35:09.249255+05:30
Dharamshala,Himachal Pradesh,32.219,76.3234,24.0,46,0.0,865.2,8.45,51.1,30,10.5,7.5,16.0,239.0,23.0,0.0,0,5,7,0,2026-05-19T03:35:09.249261+05:30
Dalhousie,Himachal Pradesh,32.5387,75.971,13.5,75,0.0,798.3,8.7,52.2,52,16.1,14.3,21.4,311.0,26.0,0.9,3,5,7,0,2026-05-19T03:35:09.249268+05:30
Patiala,Punjab,30.3398,76.3869,30.2,44,0.0,969.8,7.7,30.6,335,143.9,57.4,16.9,519.0,47.0,8.0,0,5,7,1,2026-05-19T03:35:09.249274+05:30
Bhatinda,Punjab,30.211,74.9455,31.6,31,0.0,975.5,8.35,31.3,97,97.8,45.1,35.0,339.0,27.0,5.6,0,5,7,0,2026-05-19T03:35:09.249280+05:30
Rohtak,Haryana,28.8955,76.6066,29.5,32,0.0,974.2,7.8,29.9,760,717.1,127.6,13.2,212.0,52.0,3.7,4,5,7,0,2026-05-19T03:35:09.249285+05:30
Panipat,Haryana,29.3909,76.9635,29.2,46,0.0,972.1,7.6,39.2,1640,1620.5,269.2,13.9,339.0,50.0,5.7,4,5,7,1,2026-05-19T03:35:09.249291+05:30
Mathura,Uttar Pradesh,27.4924,77.6737,33.4,23,0.0,979.3,8.05,41.4,745,836.3,121.5,11.5,184.0,47.0,4.2,0,5,7,0,2026-05-19T03:35:09.249297+05:30
Vrindavan,Uttar Pradesh,27.5823,77.7027,32.5,26,0.0,979.7,8.0,38.5,745,836.3,121.5,11.5,188.0,47.0,4.2,0,5,7,0,2026-05-19T03:35:09.249302+05:30
Ayodhya,Uttar Pradesh,26.7922,82.1998,29.0,68,0.0,989.0,8.4,36.0,164,175.6,101.5,65.4,630.0,7.0,15.2,7,5,7,1,2026-05-19T03:35:09.249308+05:30
Ratlam,Madhya Pradesh,23.3315,75.0367,29.7,29,0.0,949.7,8.55,40.7,61,29.2,17.8,4.1,204.0,74.0,4.9,4,5,7,0,2026-05-19T03:35:09.249314+05:30
Sagar,Madhya Pradesh,23.8388,78.7378,31.8,29,0.0,944.1,8.75,37.4,70,85.0,30.6,19.6,227.0,46.0,3.7,0,5,7,0,2026-05-19T03:35:09.249319+05:30
Satna,Madhya Pradesh,24.6005,80.8322,30.0,38,0.0,964.4,8.8,44.3,81,102.7,37.6,31.2,288.0,24.0,4.3,4,5,7,0,2026-05-19T03:35:09.249325+05:30
Akola,Maharashtra,20.7002,77.0082,35.0,26,0.0,969.9,8.65,39.2,63,33.3,22.5,17.8,224.0,61.0,6.9,0,5,7,0,2026-05-19T03:35:09.249331+05:30
Amravati,Maharashtra,20.9374,77.7796,34.0,35,0.0,962.1,8.35,51.1,65,32.5,25.4,22.0,267.0,52.0,6.0,0,5,7,1,2026-05-19T03:35:09.249337+05:30
Latur,Maharashtra,18.4088,76.5604,29.7,53,0.0,935.9,8.75,32.0,71,29.0,25.8,8.7,190.0,99.0,4.8,4,5,7,1,2026-05-19T03:35:09.249343+05:30
Nanded,Maharashtra,19.1383,77.3091,32.5,44,0.0,964.5,8.3,34.9,75,31.3,27.9,10.0,258.0,92.0,5.1,0,5,7,1,2026-05-19T03:35:09.249348+05:30
Gulbarga,Karnataka,17.3297,76.8343,29.0,63,0.0,954.3,9.05,37.4,79,30.5,27.0,19.3,241.0,59.0,9.0,7,5,7,1,2026-05-19T03:35:09.249353+05:30
Bidar,Karnataka,17.9104,77.5199,28.6,55,0.0,931.4,9.1,29.9,81,25.9,23.3,13.3,245.0,73.0,6.5,4,5,7,1,2026-05-19T03:35:09.249359+05:30
Hospet,Karnataka,15.2689,76.3909,26.0,87,0.0,952.5,5.85,40.0,66,11.6,8.7,8.5,155.0,48.0,2.4,7,5,3,1,2026-05-19T03:35:09.249364+05:30
Tirupur,Tamil Nadu,11.1085,77.3411,26.4,76,0.0,972.4,8.95,56.9,41,9.0,8.5,17.7,144.0,37.0,4.3,7,5,7,1,2026-05-19T03:35:09.249370+05:30
Alappuzha,Kerala,9.4981,76.3388,25.4,98,0.1,1007.4,8.7,35.6,30,7.9,5.6,3.4,126.0,58.0,1.1,10,5,4,1,2026-05-19T03:35:09.249375+05:30
Munnar,Kerala,10.0889,77.0595,17.4,99,0.0,855.3,7.5,35.6,19,2.1,2.1,5.7,140.0,34.0,1.2,3,10,7,1,2026-05-19T03:35:09.249381+05:30
Silchar,Assam,24.8333,92.7789,24.0,98,0.0,1002.2,8.9,25.9,80,27.0,16.1,5.2,319.0,89.0,3.6,3,5,4,1,2026-05-19T03:35:09.249386+05:30
Dibrugarh,Assam,27.4728,94.912,20.8,98,0.0,993.5,8.85,15.1,92,51.9,45.6,30.3,326.0,2.0,1.1,3,5,7,1,2026-05-19T03:35:09.249391+05:30
