city,state,latitude,longitude,temp,humidity,rain,pressure,uv_index,wind_gusts,aqi,pm10,pm2_5,no2,co,o3,so2,mosquito_risk,arthritis_risk,migraine_risk,frizz_risk,updated_at
Delhi,Delhi,28.6139,77.209,23.5,70,0.0,984.2,7.55,47.9,436,288.7,60.3,18.0,479.0,118.0,24.9,3,5,7,1,2026-05-07T23:56:56.638853+05:30
Mumbai,Maharashtra,19.076,72.8777,28.6,85,0.0,1007.2,7.85,43.9,96,94.1,29.6,12.1,315.0,71.0,14.1,7,5,4,1,2026-05-07T23:56:56.638895+05:30
Bangalore,Karnataka,12.9716,77.5946,25.0,66,0.0,911.5,9.5,29.5,69,13.2,12.6,12.7,285.0,65.0,6.0,7,5,7,1,2026-05-07T23:56:56.638911+05:30
Hyderabad,Telangana,17.385,78.4867,28.6,51,0.0,954.5,9.25,33.1,64,25.0,20.0,12.0,326.0,85.0,7.5,4,5,7,1,2026-05-07T23:56:56.638922+05:30
Chennai,Tamil Nadu,13.0827,80.2707,29.5,73,0.0,1006.6,9.25,39.2,28,5.6,3.8,3.5,123.0,44.0,2.4,7,5,4,1,2026-05-07T23:56:56.638930+05:30
Kolkata,West Bengal,22.5726,88.3639,25.8,81,0.0,1008.3,8.9,37.8,83,40.9,38.5,18.7,1034.0,75.0,11.8,7,0,4,1,2026-05-07T23:56:56.638940+05:30
Pune,Maharashtra,18.5204,73.8567,28.8,43,0.0,947.4,8.45,41.4,122,58.2,34.3,14.9,402.0,123.0,23.4,4,5,7,0,2026-05-07T23:56:56.638949+05:30
Ahmedabad,Gujarat,23.0225,72.5714,33.3,33,0.0,1000.9,8.05,27.7,93,100.1,61.2,51.3,245.0,35.0,18.0,0,5,4,0,2026-05-07T23:56:56.638960+05:30
Jaipur,Rajasthan,26.9124,75.7873,24.5,53,0.0,959.3,8.1,62.6,113,425.6,72.2,20.0,299.0,70.0,7.7,0,5,7,0,2026-05-07T23:56:56.638969+05:30
Lucknow,Uttar Pradesh,26.8467,80.9462,22.6,83,0.0,995.4,8.05,32.4,109,66.8,34.7,8.5,400.0,122.0,9.6,3,5,7,1,2026-05-07T23:56:56.638977+05:30
Kanpur,Uttar Pradesh,26.4499,80.3319,24.2,68,0.0,993.5,8.05,38.9,120,273.8,52.0,8.1,377.0,112.0,8.2,3,5,7,1,2026-05-07T23:56:56.638985+05:30
Chandigarh,Chandigarh,30.7333,76.7794,22.6,57,0.0,970.3,5.9,46.8,99,43.7,33.1,27.0,436.0,66.0,5.2,0,5,3,0,2026-05-07T23:56:56.638993+05:30
Srinagar,Jammu and Kashmir,34.0837,74.7973,11.1,86,0.0,838.9,8.7,33.5,62,54.8,45.5,41.5,822.0,18.0,4.7,3,10,7,0,2026-05-07T23:56:56.639002+05:30
Jammu,Jammu and Kashmir,32.7266,74.857,24.0,52,0.0,973.6,8.3,30.6,104,45.6,35.9,28.1,441.0,69.0,6.7,0,5,7,0,2026-05-07T23:56:56.639010+05:30
Amritsar,Punjab,31.634,74.8723,25.0,53,0.0,981.6,8.2,32.0,142,220.3,58.3,6.3,352.0,129.0,10.5,4,5,7,0,2026-05-07T23:56:56.639020+05:30
Ludhiana,Punjab,30.901,75.8573,23.7,63,0.0,979.8,7.8,40.0,179,184.4,53.4,11.0,389.0,111.0,7.8,3,5,7,1,2026-05-07T23:56:56.639027+05:30
Jalandhar,Punjab,31.326,75.5762,23.3,62,0.0,980.7,7.95,38.2,143,170.4,58.4,15.1,401.0,101.0,17.2,3,5,7,0,2026-05-07T23:56:56.639034+05:30
Dehradun,Uttarakhand,30.6284,78.0322,9.6,98,0.0,828.5,5.95,30.6,84,22.6,19.2,32.7,218.0,64.0,0.6,3,10,3,0,2026-05-07T23:56:56.639047+05:30
Shimla,Himachal Pradesh,31.1048,77.1734,7.8,88,0.0,781.2,6.25,28.8,93,20.8,18.3,19.5,404.0,86.0,0.8,3,10,7,0,2026-05-07T23:56:56.639055+05:30
Manali,Himachal Pradesh,32.2396,77.1887,9.9,84,0.0,815.9,9.35,33.1,71,50.3,11.8,27.2,322.0,92.0,0.8,3,10,7,0,2026-05-07T23:56:56.639062+05:30
Gurgaon,Haryana,28.4595,77.0266,23.4,66,0.0,982.3,7.65,53.6,1781,1877.5,220.3,14.8,415.0,123.0,18.1,3,5,7,1,2026-05-07T23:56:56.639070+05:30
Noida,Uttar Pradesh,28.5355,77.391,22.6,77,0.0,985.8,7.55,45.7,1781,1877.5,220.3,14.8,426.0,123.0,18.1,3,5,7,1,2026-05-07T23:56:56.639077+05:30
Ghaziabad,Uttar Pradesh,28.6692,77.4538,22.4,82,0.0,984.1,7.55,45.7,185,196.0,47.6,10.1,360.0,118.0,18.1,3,5,7,1,2026-05-07T23:56:56.639084+05:30
Faridabad,Haryana,28.4089,77.3178,22.9,75,0.0,984.9,7.6,51.1,1781,1877.5,220.3,14.8,426.0,123.0,18.1,3,5,7,1,2026-05-07T23:56:56.639092+05:30
Meerut,Uttar Pradesh,28.9845,77.7064,21.8,86,0.0,982.9,7.1,45.4,185,196.0,47.6,10.1,369.0,118.0,18.1,3,5,7,1,2026-05-07T23:56:56.639099+05:30
Agra,Uttar Pradesh,27.1767,78.0081,23.4,65,0.0,988.8,7.9,52.9,1028,1605.6,191.4,7.7,314.0,116.0,11.6,3,5,7,1,2026-05-07T23:56:56.639105+05:30
Varanasi,Uttar Pradesh,25.3176,82.9739,25.0,71,0.0,999.3,8.55,37.4,110,64.0,47.6,21.5,622.0,86.0,15.5,7,5,7,1,2026-05-07T23:56:56.639113+05:30
Prayagraj,Uttar Pradesh,25.4358,81.8463,24.9,67,0.0,997.4,8.45,31.7,103,57.9,37.0,13.4,354.0,104.0,10.8,3,5,7,1,2026-05-07T23:56:56.639122+05:30
Gorakhpur,Uttar Pradesh,26.7606,83.3732,22.5,81,0.0,999.1,8.4,35.6,108,42.3,31.7,13.1,561.0,93.0,6.3,3,5,7,1,2026-05-07T23:56:56.639129+05:30
Bareilly,Uttar Pradesh,28.367,79.4304,21.6,81,0.0,988.7,7.2,26.6,93,53.4,29.5,8.9,361.0,109.0,5.2,3,5,7,1,2026-05-07T23:56:56.639136+05:30
Aligarh,Uttar Pradesh,27.8974,78.088,22.6,76,0.0,986.9,7.7,47.9,739,774.9,104.1,7.5,337.0,129.0,16.3,3,5,7,1,2026-05-07T23:56:56.639144+05:30
Moradabad,Uttar Pradesh,28.8386,78.7733,21.2,84,0.0,985.6,7.35,35.6,107,65.7,42.6,17.7,363.0,88.0,8.8,3,5,7,1,2026-05-07T23:56:56.639150+05:30
Saharanpur,Uttar Pradesh,29.9637,77.546,21.4,78,0.0,977.5,7.0,49.0,116,124.3,68.5,36.8,403.0,56.0,16.3,3,5,7,1,2026-05-07T23:56:56.639156+05:30
Jhansi,Uttar Pradesh,25.4484,78.5685,25.6,49,0.0,978.5,8.3,45.0,88,50.4,24.8,7.1,289.0,88.0,10.5,4,5,7,0,2026-05-07T23:56:59.928478+05:30
Surat,Gujarat,21.1702,72.8311,28.6,83,0.0,1005.5,7.7,31.7,130,66.4,29.3,25.1,467.0,59.0,38.6,7,5,4,1,2026-05-07T23:56:59.928511+05:30
Vadodara,Gujarat,22.3072,73.1812,31.1,48,0.0,1003.3,8.0,37.8,110,63.8,37.8,29.3,374.0,63.0,23.5,0,5,4,1,2026-05-07T23:56:59.928521+05:30
Rajkot,Gujarat,22.3039,70.8022,28.0,55,0.0,993.6,7.65,45.4,67,25.6,13.5,6.7,192.0,60.0,6.4,4,5,7,1,2026-05-07T23:56:59.928529+05:30
Thane,Maharashtra,19.2183,72.9781,28.2,86,0.0,1006.6,7.9,35.3,96,94.1,29.6,12.1,270.0,71.0,14.1,7,5,4,1,2026-05-07T23:56:59.928537+05:30
Nagpur,Maharashtra,21.1458,79.0882,29.9,46,0.0,973.6,8.9,48.6,155,68.9,51.1,24.1,314.0,88.0,19.4,4,5,7,1,2026-05-07T23:56:59.928545+05:30
Nashik,Maharashtra,19.9975,73.7898,27.2,54,0.0,944.8,8.15,41.4,84,59.8,30.6,25.5,302.0,54.0,4.7,4,5,7,1,2026-05-07T23:56:59.928552+05:30
Aurangabad,Maharashtra,19.8762,75.3433,29.9,35,0.0,944.2,9.0,33.1,103,52.4,27.6,16.6,383.0,94.0,7.8,4,5,7,0,2026-05-07T23:56:59.928560+05:30
Solapur,Maharashtra,17.6599,75.9064,31.9,43,0.0,957.9,9.05,33.8,98,54.0,40.7,11.8,504.0,95.0,6.3,0,5,7,1,2026-05-07T23:56:59.928567+05:30
Kolhapur,Maharashtra,16.705,74.2433,26.0,67,0.0,947.6,8.95,46.8,91,81.7,66.4,44.1,274.0,44.0,14.8,7,5,7,1,2026-05-07T23:56:59.928574+05:30
Goa,Goa,15.2993,74.124,28.7,82,0.0,997.0,8.9,38.9,84,77.3,46.3,15.0,291.0,69.0,5.6,7,5,7,1,2026-05-07T23:56:59.928583+05:30
Jodhpur,Rajasthan,26.2389,73.0243,32.2,18,0.0,980.6,8.3,40.3,113,197.9,34.6,4.0,195.0,99.0,3.2,0,5,7,0,2026-05-07T23:56:59.928590+05:30
Udaipur,Rajasthan,24.5854,73.7125,26.0,31,0.0,945.0,8.75,31.3,71,88.0,23.2,3.9,270.0,100.0,2.8,4,5,7,0,2026-05-07T23:56:59.928598+05:30
Kota,Rajasthan,25.2138,75.8648,29.0,33,0.0,977.6,8.3,39.6,74,97.3,49.7,23.9,295.0,59.0,10.1,4,5,7,0,2026-05-07T23:56:59.928606+05:30
Bikaner,Rajasthan,28.0229,73.3119,29.8,32,0.0,979.0,8.25,49.0,68,50.9,21.6,6.9,423.0,84.0,7.1,4,5,7,0,2026-05-07T23:56:59.928614+05:30
Ajmer,Rajasthan,26.4499,74.6399,27.2,27,0.0,952.4,8.25,46.4,69,67.8,25.1,8.2,257.0,81.0,5.4,4,5,7,0,2026-05-07T23:56:59.928621+05:30
Gwalior,Madhya Pradesh,26.2183,78.1828,23.9,60,0.0,983.7,7.9,54.0,84,62.6,27.4,5.6,289.0,110.0,7.0,0,5,7,0,2026-05-07T23:56:59.928628+05:30
Indore,Madhya Pradesh,22.7196,75.8577,30.6,24,0.0,947.7,8.6,34.6,88,47.8,32.8,14.7,359.0,78.0,8.3,0,5,7,0,2026-05-07T23:56:59.928635+05:30
Bhopal,Madhya Pradesh,23.2599,77.4126,29.5,32,0.0,953.9,8.65,34.2,87,35.2,27.2,16.1,678.0,68.0,6.3,4,5,7,0,2026-05-07T23:56:59.928643+05:30
Jabalpur,Madhya Pradesh,23.1815,79.9864,27.2,29,0.0,961.5,8.8,37.4,73,34.5,23.5,26.5,255.0,63.0,5.9,4,5,7,0,2026-05-07T23:56:59.928649+05:30
Ujjain,Madhya Pradesh,23.1765,75.7885,29.9,25,0.0,953.0,8.55,46.4,82,48.1,30.2,6.7,361.0,95.0,7.1,4,5,7,0,2026-05-07T23:56:59.928657+05:30
Visakhapatnam,Andhra Pradesh,17.6868,83.2185,27.1,92,0.0,1004.8,8.9,35.3,73,21.1,18.8,15.6,375.0,23.0,3.9,7,5,4,1,2026-05-07T23:56:59.928664+05:30
Vijayawada,Andhra Pradesh,16.5062,80.648,28.5,77,0.0,1003.0,9.15,33.1,48,11.1,9.5,7.3,183.0,30.0,5.0,7,5,4,1,2026-05-07T23:56:59.928671+05:30
Guntur,Andhra Pradesh,16.3067,80.4365,28.2,78,0.0,1004.3,9.2,37.4,51,10.7,9.3,8.5,187.0,31.0,7.4,7,5,4,1,2026-05-07T23:56:59.928677+05:30
Nellore,Andhra Pradesh,14.4426,79.9865,28.3,80,0.0,1005.9,9.2,39.6,30,7.4,5.2,2.7,144.0,41.0,1.8,7,5,4,1,2026-05-07T23:56:59.928685+05:30
Kurnool,Andhra Pradesh,15.8281,78.0373,30.5,50,0.0,977.0,9.2,40.7,55,10.0,8.1,4.0,165.0,61.0,1.3,0,5,7,1,2026-05-07T23:56:59.928693+05:30
Kakinada,Andhra Pradesh,16.9891,82.2475,27.2,90,0.0,1008.2,8.9,30.6,29,9.3,6.3,1.2,179.0,43.0,0.6,7,0,4,1,2026-05-07T23:56:59.928700+05:30
Tirupati,Andhra Pradesh,13.6288,79.4192,27.1,80,0.0,991.3,9.25,37.4,50,8.4,7.1,8.9,161.0,27.0,2.3,7,5,7,1,2026-05-07T23:56:59.928707+05:30
Warangal,Telangana,17.9689,79.5941,28.5,58,0.0,980.1,9.1,43.9,69,34.5,30.4,14.3,254.0,71.0,8.1,4,5,7,1,2026-05-07T23:56:59.928714+05:30
Nizamabad,Telangana,18.6725,78.0941,27.0,59,0.0,965.7,9.1,49.0,80,42.8,33.8,11.3,391.0,91.0,12.5,4,5,7,1,2026-05-07T23:56:59.928720+05:30
Mysore,Karnataka,12.2958,76.6396,24.1,83,0.0,927.6,9.2,32.4,81,29.0,25.6,19.0,337.0,67.0,5.8,3,5,7,1,2026-05-07T23:56:59.928727+05:30
Mangalore,Karnataka,12.9141,74.856,27.5,89,0.0,1005.8,8.45,34.2,64,48.2,35.7,20.8,485.0,48.0,6.9,7,5,4,1,2026-05-07T23:56:59.928734+05:30
Hubli-Dharwad,Karnataka,15.3647,75.124,25.3,79,0.0,940.7,9.15,49.3,99,38.3,31.5,12.0,291.0,93.0,5.1,7,5,7,1,2026-05-07T23:56:59.928741+05:30
Belgaum,Karnataka,15.8497,74.4977,24.0,82,0.0,925.2,8.35,43.6,87,68.9,51.3,34.0,330.0,46.0,10.0,3,5,7,1,2026-05-07T23:57:03.218531+05:30
Coimbatore,Tamil Nadu,11.0168,76.9558,25.0,89,0.0,960.9,7.0,29.2,62,26.0,22.6,11.9,388.0,75.0,5.7,7,5,7,1,2026-05-07T23:57:03.218566+05:30
Madurai,Tamil Nadu,9.9252,78.1198,28.0,80,0.0,992.8,6.8,25.6,67,17.6,15.7,11.3,296.0,79.0,4.9,7,5,7,1,2026-05-07T23:57:03.218577+05:30
Trichy,Tamil Nadu,10.7905,78.7047,28.5,79,0.0,999.7,8.05,34.2,55,15.3,14.6,16.2,261.0,57.0,5.0,7,5,7,1,2026-05-07T23:57:03.218586+05:30
Salem,Tamil Nadu,11.6643,78.146,27.4,75,0.0,976.6,8.8,40.3,71,23.5,22.2,11.0,289.0,90.0,10.4,7,5,7,1,2026-05-07T23:57:03.218594+05:30
Tirunelveli,Tamil Nadu,8.7139,77.7567,28.2,78,0.0,1002.0,5.1,32.4,65,26.1,23.9,13.0,292.0,53.0,3.1,7,5,0,1,2026-05-07T23:57:03.218603+05:30
Vellore,Tamil Nadu,12.9165,79.1325,27.0,86,0.0,984.3,9.25,29.2,56,11.5,10.5,13.9,176.0,22.0,2.2,7,5,7,1,2026-05-07T23:57:03.218611+05:30
Erode,Tamil Nadu,11.341,77.7172,26.2,81,0.0,989.0,8.1,35.6,59,17.5,16.0,10.6,334.0,89.0,4.6,7,5,7,1,2026-05-07T23:57:03.218619+05:30
Kochi,Kerala,9.9312,76.2673,26.1,90,0.1,1007.9,3.65,28.1,64,18.5,17.3,15.9,484.0,50.0,3.7,10,5,0,1,2026-05-07T23:57:03.218627+05:30
Thiruvananthapuram,Kerala,8.5241,76.9366,25.0,93,0.0,1006.7,7.15,31.3,52,18.4,15.5,8.1,340.0,85.0,4.8,7,5,4,1,2026-05-07T23:57:03.218635+05:30
Kozhikode,Kerala,11.2588,75.7804,26.2,92,0.0,1007.1,7.5,32.0,72,15.9,13.1,4.5,589.0,115.0,3.1,7,5,4,1,2026-05-07T23:57:03.218642+05:30
Thrissur,Kerala,10.5276,76.2144,25.3,96,0.0,1006.4,3.6,31.7,66,21.7,20.3,19.6,1143.0,36.0,3.3,7,5,0,1,2026-05-07T23:57:03.218649+05:30
Kannur,Kerala,11.8745,75.3704,28.0,82,0.0,1006.1,8.15,41.0,60,27.9,23.4,17.5,660.0,59.0,3.6,7,5,4,1,2026-05-07T23:57:03.218657+05:30
Patna,Bihar,25.5941,85.1376,24.7,82,0.0,1002.4,8.65,39.2,120,65.7,58.9,29.6,694.0,69.0,15.8,3,5,4,1,2026-05-07T23:57:03.218664+05:30
Gaya,Bihar,24.7914,85.0002,23.8,76,0.0,995.8,8.75,42.8,143,58.3,54.7,17.0,477.0,98.0,14.1,3,5,7,1,2026-05-07T23:57:03.218671+05:30
Muzaffarpur,Bihar,26.1209,85.3647,24.0,74,0.0,1002.2,8.65,39.2,125,71.7,63.8,34.7,920.0,58.0,15.3,3,5,4,1,2026-05-07T23:57:03.218678+05:30
Bhagalpur,Bihar,25.2425,87.0117,24.0,73,0.0,1003.3,8.7,38.5,155,98.3,94.3,51.9,453.0,55.0,21.9,3,5,4,1,2026-05-07T23:57:03.218684+05:30
Ranchi,Jharkhand,23.3441,85.3096,21.3,78,0.0,939.9,9.2,33.5,121,50.5,46.9,14.9,401.0,127.0,28.5,3,5,7,1,2026-05-07T23:57:03.218691+05:30
Jamshedpur,Jharkhand,22.8046,86.2029,25.9,73,0.0,994.0,9.0,37.4,116,39.9,37.1,16.8,366.0,89.0,23.1,7,5,7,1,2026-05-07T23:57:03.218698+05:30
Dhanbad,Jharkhand,23.7957,86.4304,24.0,82,0.0,982.9,8.95,39.2,161,106.4,102.2,59.1,455.0,92.0,69.2,3,5,7,1,2026-05-07T23:57:03.218705+05:30
Bokaro,Jharkhand,23.6693,86.1511,23.7,81,0.0,986.7,8.95,41.8,157,95.5,91.3,52.6,1069.0,103.0,58.8,3,5,7,1,2026-05-07T23:57:03.218712+05:30
Bhubaneswar,Odisha,20.2961,85.8245,26.4,95,0.0,1004.3,9.1,51.1,45,10.8,8.7,6.4,198.0,38.0,2.9,7,5,4,1,2026-05-07T23:57:03.218718+05:30
Cuttack,Odisha,20.4625,85.8828,26.5,92,0.0,1006.4,9.1,40.0,45,10.8,8.7,6.4,214.0,38.0,2.9,7,5,4,1,2026-05-07T23:57:03.218725+05:30
Rourkela,Odisha,22.2604,84.8536,25.2,65,0.0,987.5,8.95,34.6,121,43.7,39.1,15.4,418.0,105.0,33.1,7,5,7,1,2026-05-07T23:57:03.218732+05:30
Raipur,Chhattisgarh,21.2514,81.6296,29.5,32,0.0,975.0,8.95,32.0,169,66.4,58.2,35.8,387.0,102.0,10.3,4,5,7,0,2026-05-07T23:57:03.218739+05:30
Bhilai,Chhattisgarh,21.1938,81.3509,27.9,46,0.0,975.5,8.95,25.9,152,60.8,51.1,39.8,460.0,84.0,9.1,4,5,7,0,2026-05-07T23:57:03.218746+05:30
Guwahati,Assam,26.1158,91.7086,21.1,90,0.0,1004.2,8.65,24.8,103,56.2,50.2,21.9,318.0,23.0,2.3,3,5,4,1,2026-05-07T23:57:03.218753+05:30
Agartala,Tripura,23.8315,91.2868,23.3,93,0.0,1008.0,8.85,32.0,113,100.1,97.8,73.4,680.0,36.0,11.2,3,0,4,1,2026-05-07T23:57:03.218760+05:30
Shillong,Meghalaya,25.5788,91.8933,14.0,97,0.0,857.2,7.95,24.8,81,47.8,41.7,20.9,313.0,32.0,1.1,3,10,7,0,2026-05-07T23:57:03.218768+05:30
Imphal,Manipur,24.817,93.9368,17.7,92,0.0,924.7,9.1,31.7,108,58.7,52.0,28.2,625.0,30.0,5.8,3,10,7,1,2026-05-07T23:57:03.218775+05:30
Aizawl,Mizoram,23.7271,92.7176,16.8,89,0.0,893.7,9.05,23.4,69,32.1,27.0,18.9,360.0,33.0,1.5,3,10,7,0,2026-05-07T23:57:03.218782+05:30
Kohima,Nagaland,25.6701,94.1077,13.3,93,0.0,855.4,9.15,26.3,77,50.4,38.9,13.9,279.0,48.0,0.5,3,10,7,0,2026-05-07T23:57:03.218789+05:30
Gangtok,Sikkim,27.3314,88.6138,10.2,85,0.0,837.3,8.55,36.7,66,32.0,25.3,22.6,439.0,64.0,1.2,3,10,7,0,2026-05-07T23:57:03.218795+05:30
Siliguri,West Bengal,26.7271,88.3953,21.5,70,0.0,995.5,8.6,21.6,107,77.8,63.6,44.6,982.0,46.0,6.6,3,5,7,0,2026-05-07T23:57:06.512808+05:30
Durgapur,West Bengal,23.5204,87.3119,23.9,84,0.0,997.5,8.9,45.4,154,80.8,77.5,38.2,639.0,84.0,48.3,3,5,7,1,2026-05-07T23:57:06.512837+05:30
Asansol,West Bengal,23.6739,86.9524,23.9,83,0.0,996.2,8.95,34.2,157,83.4,79.6,36.6,574.0,94.0,53.1,3,5,7,1,2026-05-07T23:57:06.512847+05:30
Pondicherry,Puducherry,11.9139,79.8145,28.7,80,0.0,1007.5,7.25,35.3,24,6.1,4.0,1.6,181.0,45.0,0.3,7,5,4,1,2026-05-07T23:57:06.512856+05:30
Port Blair,Andaman and Nicobar Islands,11.6234,92.7265,26.5,88,0.1,1007.0,8.45,34.9,30,6.8,5.2,0.4,183.0,69.0,0.2,10,5,4,1,2026-05-07T23:57:06.512864+05:30
Haridwar,Uttarakhand,29.9457,78.1642,20.0,82,0.0,975.9,7.1,34.2,102,103.1,57.6,29.1,363.0,65.0,10.8,3,5,7,1,2026-05-07T23:57:06.512871+05:30
Rishikesh,Uttarakhand,30.0869,78.2676,18.5,82,0.0,968.2,7.05,36.0,133,88.2,39.1,15.1,434.0,99.0,5.4,3,10,7,0,2026-05-07T23:57:06.512879+05:30
Nainital,Uttarakhand,29.3919,79.4542,8.8,88,0.0,803.3,7.4,29.5,76,35.2,27.2,17.1,316.0,72.0,3.4,3,10,7,0,2026-05-07T23:57:06.512886+05:30
Mussoorie,Uttarakhand,30.4599,78.0664,9.5,88,0.0,800.9,5.35,39.2,101,62.6,43.8,40.6,296.0,55.0,13.6,3,10,3,0,2026-05-07T23:57:06.512894+05:30
Dharamshala,Himachal Pradesh,32.219,76.3234,16.5,66,0.0,869.0,6.8,39.2,66,26.6,14.4,13.9,241.0,71.0,0.5,3,5,7,0,2026-05-07T23:57:06.512901+05:30
Dalhousie,Himachal Pradesh,32.5387,75.971,9.3,84,0.0,801.9,7.65,33.1,70,44.2,34.5,47.1,574.0,38.0,3.4,3,10,7,0,2026-05-07T23:57:06.512909+05:30
Patiala,Punjab,30.3398,76.3869,23.4,65,0.0,979.5,7.45,45.4,576,560.7,79.4,8.7,317.0,115.0,7.8,3,5,7,1,2026-05-07T23:57:06.512916+05:30
Bhatinda,Punjab,30.211,74.9455,25.5,54,0.0,984.4,8.1,42.8,623,812.1,142.0,5.5,334.0,149.0,12.3,4,5,7,0,2026-05-07T23:57:06.512924+05:30
Rohtak,Haryana,28.8955,76.6066,23.5,70,0.0,982.7,7.6,51.8,885,704.1,96.6,15.8,385.0,124.0,25.1,3,5,7,1,2026-05-07T23:57:06.512931+05:30
Panipat,Haryana,29.3909,76.9635,23.0,73,0.0,981.7,7.1,52.2,1450,1370.9,154.1,9.1,376.0,129.0,15.6,3,5,7,1,2026-05-07T23:57:06.512938+05:30
Mathura,Uttar Pradesh,27.4924,77.6737,23.4,63,0.0,987.8,7.85,49.7,1173,1590.7,193.2,7.0,311.0,132.0,16.6,3,5,7,0,2026-05-07T23:57:06.512946+05:30
Vrindavan,Uttar Pradesh,27.5823,77.7027,23.3,63,0.0,988.3,7.8,50.8,1173,1590.7,193.2,7.0,323.0,132.0,16.6,3,5,7,0,2026-05-07T23:57:06.512952+05:30
Ayodhya,Uttar Pradesh,26.7922,82.1998,21.8,85,0.0,997.1,7.75,30.2,96,62.2,42.8,19.5,362.0,85.0,7.8,3,5,7,1,2026-05-07T23:57:06.512960+05:30
Ratlam,Madhya Pradesh,23.3315,75.0367,28.8,29,0.0,953.9,8.45,36.4,93,42.0,25.3,3.5,285.0,109.0,7.6,4,5,7,0,2026-05-07T23:57:06.512967+05:30
Sagar,Madhya Pradesh,23.8388,78.7378,25.8,43,0.0,950.2,8.65,35.3,74,24.3,15.4,16.2,233.0,74.0,4.6,4,5,7,0,2026-05-07T23:57:06.512974+05:30
Satna,Madhya Pradesh,24.6005,80.8322,24.3,53,0.0,972.5,8.65,40.3,131,45.6,25.8,9.6,265.0,116.0,8.0,0,5,7,0,2026-05-07T23:57:06.512982+05:30
Akola,Maharashtra,20.7002,77.0082,30.9,36,0.0,974.7,8.85,40.7,106,53.9,38.1,11.9,285.0,90.0,3.0,0,5,7,0,2026-05-07T23:57:06.512990+05:30
Amravati,Maharashtra,20.9374,77.7796,30.2,42,0.0,967.6,6.4,35.3,101,52.0,36.0,14.7,272.0,86.0,2.5,0,5,7,0,2026-05-07T23:57:06.512997+05:30
Latur,Maharashtra,18.4088,76.5604,29.6,48,0.0,941.5,8.35,35.3,84,69.2,49.4,21.0,291.0,86.0,14.9,4,5,7,1,2026-05-07T23:57:06.513004+05:30
Nanded,Maharashtra,19.1383,77.3091,29.7,46,0.0,969.4,8.3,44.6,78,46.4,34.9,16.3,384.0,73.0,3.6,4,5,7,1,2026-05-07T23:57:06.513011+05:30
Gulbarga,Karnataka,17.3297,76.8343,30.9,48,0.0,959.9,9.05,36.0,86,34.3,25.2,13.2,295.0,92.0,5.3,0,5,7,1,2026-05-07T23:57:06.513018+05:30
Bidar,Karnataka,17.9104,77.5199,28.0,64,0.2,937.3,9.0,34.2,74,51.3,40.9,36.1,543.0,50.0,6.5,10,5,7,1,2026-05-07T23:57:06.513026+05:30
Hospet,Karnataka,15.2689,76.3909,28.0,66,0.0,955.8,9.2,33.5,85,34.9,26.0,22.2,255.0,75.0,10.4,7,5,7,1,2026-05-07T23:57:06.513032+05:30
Tirupur,Tamil Nadu,11.1085,77.3411,26.6,81,0.0,974.9,7.5,28.1,68,23.5,21.2,12.7,324.0,86.0,5.4,7,5,7,1,2026-05-07T23:57:06.513039+05:30
Alappuzha,Kerala,9.4981,76.3388,25.4,97,0.1,1007.8,6.3,28.8,60,17.1,14.8,12.9,313.0,70.0,5.2,10,5,4,1,2026-05-07T23:57:06.513046+05:30
Munnar,Kerala,10.0889,77.0595,17.9,95,0.0,856.0,7.65,24.8,66,12.8,10.9,8.4,255.0,65.0,1.9,3,10,7,1,2026-05-07T23:57:06.513054+05:30
Silchar,Assam,24.8333,92.7789,22.6,99,0.0,1007.3,8.85,19.8,134,80.8,71.0,25.2,745.0,55.0,11.2,3,5,4,1,2026-05-07T23:57:06.513061+05:30
Dibrugarh,Assam,27.4728,94.912,21.4,93,0.0,998.4,8.8,22.7,75,29.8,26.6,16.5,263.0,25.0,1.1,3,5,7,1,2026-05-07T23:57:06.513068+05:30
