city,state,latitude,longitude,temp,humidity,rain,pressure,uv_index,wind_gusts,aqi,pm10,pm2_5,no2,co,o3,so2,mosquito_risk,arthritis_risk,migraine_risk,frizz_risk,updated_at
Delhi,Delhi,28.6139,77.209,32.4,59,0.0,974.5,4.2,36.0,406,457.3,142.5,59.9,574.0,30.0,35.1,0,5,3,1,2026-06-30T01:31:07.614246+05:30
Mumbai,Maharashtra,19.076,72.8777,25.6,96,0.4,1004.9,1.05,35.3,45,11.2,6.6,6.9,184.0,49.0,5.6,10,5,0,1,2026-06-30T01:31:07.614284+05:30
Bangalore,Karnataka,12.9716,77.5946,20.7,96,0.0,910.6,8.15,57.2,24,2.9,2.5,6.7,161.0,41.0,2.8,3,5,7,1,2026-06-30T01:31:07.614299+05:30
Hyderabad,Telangana,17.385,78.4867,24.0,91,0.0,949.7,6.95,43.9,30,5.5,4.8,8.0,194.0,51.0,4.5,3,5,7,1,2026-06-30T01:31:07.614309+05:30
Chennai,Tamil Nadu,13.0827,80.2707,26.5,85,0.0,1005.5,7.25,43.2,57,15.4,13.7,16.5,214.0,60.0,10.4,7,5,4,1,2026-06-30T01:31:07.614317+05:30
Kolkata,West Bengal,22.5726,88.3639,28.3,96,0.0,999.5,9.0,24.8,110,47.6,46.4,15.5,571.0,78.0,12.0,7,5,7,1,2026-06-30T01:31:07.614325+05:30
Pune,Maharashtra,18.5204,73.8567,23.2,94,0.0,944.6,1.05,43.6,18,2.9,2.8,7.4,138.0,40.0,6.2,3,5,3,1,2026-06-30T01:31:07.614332+05:30
Ahmedabad,Gujarat,23.0225,72.5714,30.5,76,0.0,995.8,6.2,45.0,59,28.5,15.8,6.0,131.0,52.0,3.8,3,5,7,1,2026-06-30T01:31:07.614339+05:30
Jaipur,Rajasthan,26.9124,75.7873,30.3,60,0.0,952.7,7.75,40.0,157,375.3,69.8,10.0,179.0,53.0,4.7,0,5,7,1,2026-06-30T01:31:07.614345+05:30
Lucknow,Uttar Pradesh,26.8467,80.9462,29.1,81,0.0,985.9,7.55,28.1,140,59.8,41.9,17.7,245.0,72.0,9.0,7,5,7,1,2026-06-30T01:31:07.614356+05:30
Kanpur,Uttar Pradesh,26.4499,80.3319,30.2,75,0.0,983.8,7.65,27.0,140,81.3,43.5,19.2,202.0,60.0,6.7,3,5,7,1,2026-06-30T01:31:07.614362+05:30
Chandigarh,Chandigarh,30.7333,76.7794,30.1,66,0.0,960.6,7.4,32.4,120,36.8,33.6,30.1,421.0,51.0,9.6,3,5,7,1,2026-06-30T01:31:07.614369+05:30
Srinagar,Jammu and Kashmir,34.0837,74.7973,22.0,70,0.0,835.4,9.1,23.0,84,56.6,50.5,40.3,653.0,22.0,3.1,3,5,7,1,2026-06-30T01:31:07.614376+05:30
Jammu,Jammu and Kashmir,32.7266,74.857,26.5,89,0.0,964.4,8.65,33.8,112,55.1,45.3,26.6,287.0,55.0,6.5,7,5,7,1,2026-06-30T01:31:07.614382+05:30
Amritsar,Punjab,31.634,74.8723,30.9,70,0.0,971.4,8.5,31.3,139,123.9,71.7,49.6,416.0,16.0,8.3,3,5,7,1,2026-06-30T01:31:07.614388+05:30
Ludhiana,Punjab,30.901,75.8573,32.0,64,0.0,969.9,6.4,38.5,157,132.7,78.0,45.0,557.0,42.0,15.8,3,5,7,1,2026-06-30T01:31:07.614394+05:30
Jalandhar,Punjab,31.326,75.5762,31.4,63,0.0,970.8,7.6,38.2,151,105.9,69.8,40.4,374.0,41.0,9.8,3,5,7,1,2026-06-30T01:31:07.614401+05:30
Dehradun,Uttarakhand,30.6284,78.0322,18.4,99,0.0,826.2,5.4,27.0,63,16.9,14.2,12.4,249.0,78.0,0.7,3,10,3,1,2026-06-30T01:31:07.614407+05:30
Shimla,Himachal Pradesh,31.1048,77.1734,15.8,95,0.0,780.2,6.1,38.9,73,19.0,15.3,8.6,256.0,101.0,1.4,3,10,7,0,2026-06-30T01:31:07.614416+05:30
Manali,Himachal Pradesh,32.2396,77.1887,20.5,79,0.0,816.4,5.55,35.3,52,9.9,8.2,81.3,283.0,3.0,0.0,3,5,3,1,2026-06-30T01:31:07.614424+05:30
Gurgaon,Haryana,28.4595,77.0266,31.8,61,0.0,972.7,5.15,36.0,595,331.6,111.5,58.1,484.0,15.0,19.5,3,5,3,1,2026-06-30T01:31:07.614430+05:30
Noida,Uttar Pradesh,28.5355,77.391,30.5,70,0.0,975.8,5.35,21.6,595,331.6,111.5,58.1,703.0,15.0,19.5,3,5,3,1,2026-06-30T01:31:07.614437+05:30
Ghaziabad,Uttar Pradesh,28.6692,77.4538,30.6,78,0.0,974.5,4.55,28.4,190,247.7,97.8,27.8,734.0,78.0,13.9,3,5,3,1,2026-06-30T01:31:07.614443+05:30
Faridabad,Haryana,28.4089,77.3178,31.7,63,0.0,975.2,5.85,36.4,595,331.6,111.5,58.1,667.0,15.0,19.5,3,5,3,1,2026-06-30T01:31:07.614448+05:30
Meerut,Uttar Pradesh,28.9845,77.7064,29.2,72,0.0,974.2,7.05,38.2,190,247.7,97.8,27.8,456.0,78.0,13.9,7,5,7,1,2026-06-30T01:31:07.614455+05:30
Agra,Uttar Pradesh,27.1767,78.0081,31.7,62,0.0,979.6,8.15,36.0,491,246.8,85.7,29.0,244.0,37.0,8.9,3,5,7,1,2026-06-30T01:31:07.614461+05:30
Varanasi,Uttar Pradesh,25.3176,82.9739,28.2,93,0.5,991.2,8.5,32.0,75,24.8,21.4,17.1,331.0,58.0,6.9,10,5,7,1,2026-06-30T01:31:07.614468+05:30
Prayagraj,Uttar Pradesh,25.4358,81.8463,28.2,88,0.1,989.3,8.6,43.9,79,42.6,33.3,19.4,237.0,58.0,8.0,10,5,7,1,2026-06-30T01:31:07.614475+05:30
Gorakhpur,Uttar Pradesh,26.7606,83.3732,26.6,94,0.2,990.8,8.65,22.3,127,47.0,38.6,10.0,409.0,102.0,5.3,10,5,7,1,2026-06-30T01:31:07.614481+05:30
Bareilly,Uttar Pradesh,28.367,79.4304,26.6,95,0.1,980.3,7.6,30.6,121,46.3,37.3,13.2,308.0,86.0,6.5,10,5,7,1,2026-06-30T01:31:07.614489+05:30
Aligarh,Uttar Pradesh,27.8974,78.088,31.4,61,0.0,977.3,7.1,31.7,292,183.5,81.0,24.8,543.0,50.0,8.7,3,5,7,1,2026-06-30T01:31:07.614495+05:30
Moradabad,Uttar Pradesh,28.8386,78.7733,26.6,95,0.2,976.6,6.2,28.8,152,42.6,37.4,13.0,345.0,92.0,7.9,10,5,7,1,2026-06-30T01:31:07.614501+05:30
Saharanpur,Uttar Pradesh,29.9637,77.546,26.4,85,0.0,968.4,7.5,36.4,153,57.7,48.3,12.5,419.0,100.0,11.1,7,5,7,1,2026-06-30T01:31:07.614507+05:30
Jhansi,Uttar Pradesh,25.4484,78.5685,31.1,64,0.0,970.7,8.05,39.6,79,35.9,24.2,9.1,198.0,71.0,6.7,3,5,7,1,2026-06-30T01:31:10.870471+05:30
Surat,Gujarat,21.1702,72.8311,29.3,73,0.0,1001.5,1.3,43.9,66,20.6,14.3,17.2,280.0,33.0,28.7,7,5,0,1,2026-06-30T01:31:10.870507+05:30
Vadodara,Gujarat,22.3072,73.1812,29.5,77,0.0,998.3,3.2,51.5,61,20.2,14.3,15.5,143.0,32.0,17.9,7,5,3,1,2026-06-30T01:31:10.870520+05:30
Rajkot,Gujarat,22.3039,70.8022,29.0,70,0.0,988.6,5.7,39.2,58,30.3,15.5,4.6,101.0,44.0,4.6,7,5,3,1,2026-06-30T01:31:10.870529+05:30
Thane,Maharashtra,19.2183,72.9781,24.8,99,0.1,1004.4,0.85,30.6,45,11.2,6.6,6.9,187.0,49.0,5.6,6,5,0,1,2026-06-30T01:31:10.870539+05:30
Nagpur,Maharashtra,21.1458,79.0882,26.1,95,0.0,967.9,4.65,31.0,70,19.0,16.9,10.6,222.0,71.0,7.8,7,5,3,1,2026-06-30T01:31:10.870548+05:30
Nashik,Maharashtra,19.9975,73.7898,23.3,94,0.0,941.5,0.8,50.4,26,4.9,3.8,10.7,132.0,35.0,12.4,3,5,3,1,2026-06-30T01:31:10.870557+05:30
Aurangabad,Maharashtra,19.8762,75.3433,24.1,82,0.0,940.1,1.9,49.3,40,9.4,7.3,10.8,152.0,47.0,10.7,3,5,3,1,2026-06-30T01:31:10.870567+05:30
Solapur,Maharashtra,17.6599,75.9064,24.2,93,0.0,954.3,4.2,48.2,23,3.9,3.7,6.9,145.0,37.0,2.4,3,5,3,1,2026-06-30T01:31:10.870576+05:30
Kolhapur,Maharashtra,16.705,74.2433,22.5,94,0.0,945.6,2.05,58.0,21,2.3,2.3,4.3,121.0,44.0,1.6,3,5,3,1,2026-06-30T01:31:10.870584+05:30
Goa,Goa,15.2993,74.124,23.5,100,0.2,997.6,4.35,37.1,29,14.8,9.2,2.7,238.0,49.0,0.7,6,5,3,1,2026-06-30T01:31:10.870593+05:30
Jodhpur,Rajasthan,26.2389,73.0243,32.8,45,0.0,975.1,8.45,43.9,144,181.6,44.5,4.5,130.0,56.0,1.7,0,5,7,1,2026-06-30T01:31:10.870601+05:30
Udaipur,Rajasthan,24.5854,73.7125,26.5,76,0.0,940.7,8.55,35.6,59,23.4,15.8,7.3,149.0,61.0,5.9,7,5,7,1,2026-06-30T01:31:10.870609+05:30
Kota,Rajasthan,25.2138,75.8648,29.6,69,0.0,971.6,8.35,35.6,69,24.6,17.6,7.2,192.0,68.0,5.7,7,5,7,1,2026-06-30T01:31:10.870615+05:30
Bikaner,Rajasthan,28.0229,73.3119,33.8,41,0.0,973.1,8.5,41.4,150,195.6,60.8,2.8,114.0,62.0,3.1,0,5,7,1,2026-06-30T01:31:10.870622+05:30
Ajmer,Rajasthan,26.4499,74.6399,30.0,51,0.0,947.9,8.35,48.2,76,37.7,18.1,8.0,146.0,54.0,3.8,4,5,7,1,2026-06-30T01:31:10.870628+05:30
Gwalior,Madhya Pradesh,26.2183,78.1828,30.4,71,0.2,975.7,7.7,35.3,93,71.7,33.2,8.6,150.0,55.0,2.7,6,5,7,1,2026-06-30T01:31:10.870635+05:30
Indore,Madhya Pradesh,22.7196,75.8577,24.8,91,0.0,942.8,4.25,39.2,74,30.2,24.6,9.3,240.0,75.0,9.8,3,5,3,1,2026-06-30T01:31:10.870642+05:30
Bhopal,Madhya Pradesh,23.2599,77.4126,25.6,93,0.0,948.1,6.2,40.0,72,20.3,17.2,6.2,227.0,71.0,2.7,7,5,7,1,2026-06-30T01:31:10.870648+05:30
Jabalpur,Madhya Pradesh,23.1815,79.9864,25.8,93,0.0,956.0,6.85,29.2,63,18.7,15.4,6.1,211.0,80.0,2.3,7,5,7,1,2026-06-30T01:31:10.870655+05:30
Ujjain,Madhya Pradesh,23.1765,75.7885,25.5,86,0.0,948.3,7.6,40.7,74,28.2,22.4,7.1,241.0,76.0,10.5,7,5,7,1,2026-06-30T01:31:10.870662+05:30
Visakhapatnam,Andhra Pradesh,17.6868,83.2185,28.3,87,0.0,998.5,8.5,40.3,71,23.8,20.1,21.3,244.0,63.0,34.3,7,5,7,1,2026-06-30T01:31:10.870668+05:30
Vijayawada,Andhra Pradesh,16.5062,80.648,27.0,89,0.1,998.4,7.35,46.4,55,11.3,10.9,10.1,166.0,52.0,3.6,10,5,7,1,2026-06-30T01:31:10.870675+05:30
Guntur,Andhra Pradesh,16.3067,80.4365,28.0,75,0.0,999.9,7.45,47.9,50,9.6,9.5,10.5,163.0,50.0,4.3,7,5,7,1,2026-06-30T01:31:10.870682+05:30
Nellore,Andhra Pradesh,14.4426,79.9865,25.7,95,0.3,1003.5,8.6,54.7,46,9.6,8.8,8.0,129.0,63.0,3.9,10,5,4,1,2026-06-30T01:31:10.870690+05:30
Kurnool,Andhra Pradesh,15.8281,78.0373,24.9,93,0.1,974.6,6.7,55.1,28,5.1,4.3,7.9,149.0,40.0,2.1,6,5,7,1,2026-06-30T01:31:10.870698+05:30
Kakinada,Andhra Pradesh,16.9891,82.2475,28.3,83,0.0,1002.7,8.6,44.6,53,18.7,13.5,2.8,167.0,89.0,2.8,7,5,4,1,2026-06-30T01:31:10.870705+05:30
Tirupati,Andhra Pradesh,13.6288,79.4192,25.3,93,0.0,989.5,7.1,48.6,46,10.9,10.3,21.1,158.0,30.0,1.9,7,5,7,1,2026-06-30T01:31:10.870712+05:30
Warangal,Telangana,17.9689,79.5941,25.1,94,0.2,974.4,3.3,36.4,47,7.9,7.8,8.4,205.0,56.0,2.7,10,5,3,1,2026-06-30T01:31:10.870718+05:30
Nizamabad,Telangana,18.6725,78.0941,24.5,97,0.0,960.7,2.7,44.3,52,5.9,5.8,7.9,189.0,54.0,5.0,3,5,3,1,2026-06-30T01:31:10.870725+05:30
Mysore,Karnataka,12.2958,76.6396,21.5,94,0.0,928.0,7.45,54.4,23,2.5,2.1,5.0,116.0,42.0,1.6,3,5,7,1,2026-06-30T01:31:10.870731+05:30
Mangalore,Karnataka,12.9141,74.856,24.3,97,1.1,1008.1,7.3,38.5,27,10.6,6.3,3.1,139.0,45.0,1.0,6,0,4,1,2026-06-30T01:31:10.870738+05:30
Hubli-Dharwad,Karnataka,15.3647,75.124,22.1,96,0.0,939.6,3.85,65.2,21,1.1,1.1,3.5,116.0,45.0,0.8,3,5,3,1,2026-06-30T01:31:10.870744+05:30
Belgaum,Karnataka,15.8497,74.4977,21.5,97,0.0,923.9,4.05,58.0,20,1.8,1.7,4.2,108.0,43.0,1.2,3,5,3,1,2026-06-30T01:31:14.140978+05:30
Coimbatore,Tamil Nadu,11.0168,76.9558,22.7,94,0.0,961.1,8.5,60.8,21,5.0,3.6,5.2,179.0,39.0,2.3,3,5,7,1,2026-06-30T01:31:14.141042+05:30
Madurai,Tamil Nadu,9.9252,78.1198,27.2,73,0.0,992.0,7.3,37.8,54,24.6,22.9,37.9,187.0,3.0,7.7,7,5,7,1,2026-06-30T01:31:14.141056+05:30
Trichy,Tamil Nadu,10.7905,78.7047,28.2,65,0.0,998.6,8.0,62.6,26,8.4,4.8,4.5,111.0,43.0,2.1,7,5,7,1,2026-06-30T01:31:14.141065+05:30
Salem,Tamil Nadu,11.6643,78.146,24.5,93,0.0,977.0,7.55,42.1,40,14.0,11.8,17.2,355.0,32.0,6.9,3,5,7,1,2026-06-30T01:31:14.141073+05:30
Tirunelveli,Tamil Nadu,8.7139,77.7567,28.4,62,0.0,1002.8,8.5,49.7,24,4.3,3.3,4.6,125.0,40.0,1.8,7,5,4,1,2026-06-30T01:31:14.141081+05:30
Vellore,Tamil Nadu,12.9165,79.1325,25.3,82,0.0,982.7,7.7,50.4,35,14.8,13.5,19.8,168.0,32.0,4.4,7,5,7,1,2026-06-30T01:31:14.141088+05:30
Erode,Tamil Nadu,11.341,77.7172,25.0,82,0.0,988.6,8.1,42.8,34,12.7,11.3,16.4,163.0,30.0,3.9,7,5,7,1,2026-06-30T01:31:14.141096+05:30
Kochi,Kerala,9.9312,76.2673,25.3,96,0.1,1010.2,7.6,41.0,32,10.7,7.7,9.4,256.0,29.0,3.1,10,0,4,1,2026-06-30T01:31:14.141103+05:30
Thiruvananthapuram,Kerala,8.5241,76.9366,24.6,93,0.0,1009.4,8.35,50.0,26,12.1,7.1,3.5,181.0,46.0,1.6,3,0,4,1,2026-06-30T01:31:14.141110+05:30
Kozhikode,Kerala,11.2588,75.7804,22.8,99,0.3,1009.8,8.1,43.2,26,11.0,5.5,0.8,165.0,52.0,0.4,6,0,4,1,2026-06-30T01:31:14.141116+05:30
Thrissur,Kerala,10.5276,76.2144,23.8,100,0.0,1008.5,7.9,43.2,27,10.5,7.3,6.9,263.0,36.0,2.3,3,0,4,1,2026-06-30T01:31:14.141124+05:30
Kannur,Kerala,11.8745,75.3704,24.8,96,0.5,1008.6,8.2,37.1,26,10.2,6.1,3.9,191.0,41.0,1.1,6,0,4,1,2026-06-30T01:31:14.141131+05:30
Patna,Bihar,25.5941,85.1376,27.5,97,0.0,993.4,6.6,35.3,129,49.5,48.2,17.4,361.0,75.0,13.1,7,5,7,1,2026-06-30T01:31:14.141138+05:30
Gaya,Bihar,24.7914,85.0002,27.8,97,0.0,986.6,5.4,31.3,95,29.4,28.8,15.9,307.0,63.0,8.3,7,5,3,1,2026-06-30T01:31:14.141145+05:30
Muzaffarpur,Bihar,26.1209,85.3647,26.5,97,0.0,993.7,8.55,27.0,133,51.7,49.6,14.5,332.0,90.0,11.7,7,5,7,1,2026-06-30T01:31:14.141152+05:30
Bhagalpur,Bihar,25.2425,87.0117,26.4,97,0.1,994.9,8.05,22.0,147,72.2,71.0,18.1,325.0,69.0,16.8,10,5,7,1,2026-06-30T01:31:14.141159+05:30
Ranchi,Jharkhand,23.3441,85.3096,25.0,90,0.0,932.1,8.65,29.5,105,40.7,39.8,9.8,303.0,96.0,5.4,7,5,7,1,2026-06-30T01:31:14.141167+05:30
Jamshedpur,Jharkhand,22.8046,86.2029,27.6,92,0.0,984.7,8.9,38.5,130,66.1,65.2,32.0,547.0,41.0,27.2,7,5,7,1,2026-06-30T01:31:14.141174+05:30
Dhanbad,Jharkhand,23.7957,86.4304,27.5,92,0.0,973.3,8.3,28.8,157,111.1,110.4,73.1,621.0,24.0,190.1,7,5,7,1,2026-06-30T01:31:14.141180+05:30
Bokaro,Jharkhand,23.6693,86.1511,28.0,92,0.0,977.1,7.85,33.5,150,85.2,84.3,44.7,265.0,51.0,132.1,7,5,7,1,2026-06-30T01:31:14.141187+05:30
Bhubaneswar,Odisha,20.2961,85.8245,28.3,91,0.0,996.6,7.65,32.0,79,19.0,17.4,7.0,170.0,87.0,7.0,7,5,7,1,2026-06-30T01:31:14.141194+05:30
Cuttack,Odisha,20.4625,85.8828,28.6,91,0.0,998.3,9.0,32.8,79,19.0,17.4,7.0,194.0,87.0,7.0,7,5,7,1,2026-06-30T01:31:14.141200+05:30
Rourkela,Odisha,22.2604,84.8536,26.6,94,0.0,979.4,6.5,32.4,105,51.3,49.5,18.7,326.0,70.0,19.0,7,5,7,1,2026-06-30T01:31:14.141207+05:30
Raipur,Chhattisgarh,21.2514,81.6296,26.2,94,0.1,969.2,8.95,31.3,85,32.8,30.7,21.7,467.0,73.0,38.5,10,5,7,1,2026-06-30T01:31:14.141214+05:30
Bhilai,Chhattisgarh,21.1938,81.3509,25.9,95,0.1,969.7,7.7,42.8,82,30.4,27.9,16.7,551.0,80.0,31.6,10,5,7,1,2026-06-30T01:31:14.141221+05:30
Guwahati,Assam,26.1158,91.7086,25.7,99,0.0,996.3,5.35,22.3,54,14.7,14.2,9.8,357.0,54.0,2.4,7,5,3,1,2026-06-30T01:31:14.141227+05:30
Agartala,Tripura,23.8315,91.2868,26.0,95,0.0,1001.1,6.15,29.9,53,15.5,15.1,11.3,219.0,53.0,2.5,7,5,4,1,2026-06-30T01:31:14.141234+05:30
Shillong,Meghalaya,25.5788,91.8933,19.8,98,0.0,853.5,6.6,19.8,29,1.9,1.8,5.2,205.0,62.0,1.9,3,10,7,1,2026-06-30T01:31:14.141240+05:30
Imphal,Manipur,24.817,93.9368,23.0,96,0.0,919.2,8.6,31.0,32,10.2,10.0,10.1,345.0,24.0,2.1,3,5,7,1,2026-06-30T01:31:14.141247+05:30
Aizawl,Mizoram,23.7271,92.7176,19.9,96,0.0,888.0,8.95,25.2,21,3.7,3.7,4.0,143.0,34.0,0.5,3,10,7,1,2026-06-30T01:31:14.141253+05:30
Kohima,Nagaland,25.6701,94.1077,20.2,90,0.1,851.9,7.0,21.6,19,4.7,4.5,6.3,236.0,33.0,0.8,6,5,7,1,2026-06-30T01:31:14.141260+05:30
Gangtok,Sikkim,27.3314,88.6138,18.5,98,0.1,833.7,6.15,31.0,59,8.4,7.9,5.3,297.0,111.0,1.7,6,10,7,1,2026-06-30T01:31:14.141266+05:30
Siliguri,West Bengal,26.7271,88.3953,24.4,99,0.1,987.2,6.35,28.8,58,21.5,20.5,8.7,374.0,110.0,3.8,6,5,7,1,2026-06-30T01:31:17.394859+05:30
Durgapur,West Bengal,23.5204,87.3119,27.3,94,0.0,988.5,8.85,31.0,159,70.3,69.8,36.5,894.0,62.0,61.5,7,5,7,1,2026-06-30T01:31:17.394892+05:30
Asansol,West Bengal,23.6739,86.9524,27.7,89,0.0,987.0,7.9,28.1,154,70.8,70.3,39.9,391.0,54.0,70.0,7,5,7,1,2026-06-30T01:31:17.394903+05:30
Pondicherry,Puducherry,11.9139,79.8145,27.6,85,0.0,1006.9,7.65,41.8,54,13.0,11.4,15.8,303.0,51.0,9.1,7,5,4,1,2026-06-30T01:31:17.394911+05:30
Port Blair,Andaman and Nicobar Islands,11.6234,92.7265,26.7,88,0.0,1005.4,7.05,51.8,26,9.8,5.9,0.2,84.0,47.0,0.2,7,5,4,1,2026-06-30T01:31:17.394919+05:30
Haridwar,Uttarakhand,29.9457,78.1642,27.2,93,0.0,967.0,7.4,28.1,121,48.2,39.8,8.7,304.0,103.0,6.7,7,5,7,1,2026-06-30T01:31:17.394926+05:30
Rishikesh,Uttarakhand,30.0869,78.2676,25.8,94,0.1,959.9,7.15,24.8,97,38.8,27.2,8.3,257.0,101.0,3.8,10,5,7,1,2026-06-30T01:31:17.394933+05:30
Nainital,Uttarakhand,29.3919,79.4542,16.6,99,0.0,801.7,6.2,29.5,110,32.6,24.2,6.4,275.0,117.0,3.2,3,10,7,1,2026-06-30T01:31:17.394940+05:30
Mussoorie,Uttarakhand,30.4599,78.0664,16.9,100,0.0,799.3,6.2,38.5,91,29.1,21.9,12.4,310.0,93.0,3.7,3,10,7,1,2026-06-30T01:31:17.394948+05:30
Dharamshala,Himachal Pradesh,32.219,76.3234,22.8,90,0.0,864.4,8.5,26.3,66,6.9,5.7,21.6,297.0,27.0,0.5,3,5,7,1,2026-06-30T01:31:17.394955+05:30
Dalhousie,Himachal Pradesh,32.5387,75.971,17.5,97,0.0,800.2,7.65,22.7,83,29.2,23.3,12.2,393.0,107.0,2.4,3,10,7,1,2026-06-30T01:31:17.394962+05:30
Patiala,Punjab,30.3398,76.3869,31.7,73,0.0,969.9,6.6,36.7,179,336.2,135.5,50.0,547.0,29.0,12.4,3,5,7,1,2026-06-30T01:31:17.394969+05:30
Bhatinda,Punjab,30.211,74.9455,32.8,55,0.0,974.0,6.0,32.0,152,142.0,89.6,65.2,459.0,8.0,8.4,0,5,3,1,2026-06-30T01:31:17.394976+05:30
Rohtak,Haryana,28.8955,76.6066,32.0,60,0.0,973.0,7.8,31.0,641,446.1,118.5,53.6,376.0,19.0,13.4,0,5,7,1,2026-06-30T01:31:17.394982+05:30
Panipat,Haryana,29.3909,76.9635,31.4,77,0.0,972.2,7.0,30.2,858,650.1,159.3,47.3,572.0,27.0,12.7,3,5,7,1,2026-06-30T01:31:17.394989+05:30
Mathura,Uttar Pradesh,27.4924,77.6737,32.1,59,0.0,978.3,8.0,32.4,457,106.9,49.0,21.1,215.0,47.0,5.1,0,5,7,1,2026-06-30T01:31:17.394996+05:30
Vrindavan,Uttar Pradesh,27.5823,77.7027,31.9,60,0.0,978.7,6.4,31.7,457,106.9,49.0,21.1,228.0,47.0,5.1,0,5,7,1,2026-06-30T01:31:17.395023+05:30
Ayodhya,Uttar Pradesh,26.7922,82.1998,26.9,90,0.0,988.7,6.05,22.0,120,56.0,48.5,15.5,407.0,83.0,6.4,7,5,7,1,2026-06-30T01:31:17.395032+05:30
Ratlam,Madhya Pradesh,23.3315,75.0367,25.7,82,0.0,949.4,2.7,38.5,70,26.9,20.5,7.7,185.0,67.0,12.7,7,5,3,1,2026-06-30T01:31:17.395039+05:30
Sagar,Madhya Pradesh,23.8388,78.7378,26.6,87,0.0,944.4,5.45,38.9,65,22.2,16.9,7.3,179.0,70.0,3.1,7,5,3,1,2026-06-30T01:31:17.395046+05:30
Satna,Madhya Pradesh,24.6005,80.8322,26.7,86,0.0,965.0,8.2,35.6,71,27.4,19.0,9.2,227.0,70.0,3.8,7,5,7,1,2026-06-30T01:31:17.395053+05:30
Akola,Maharashtra,20.7002,77.0082,26.7,84,0.0,970.4,2.75,36.0,59,17.9,15.0,11.4,147.0,59.0,3.8,7,5,3,1,2026-06-30T01:31:17.395060+05:30
Amravati,Maharashtra,20.9374,77.7796,26.1,90,0.0,962.4,4.55,36.7,59,17.2,14.3,10.8,169.0,62.0,4.3,7,5,3,1,2026-06-30T01:31:17.395068+05:30
Latur,Maharashtra,18.4088,76.5604,24.5,83,0.0,936.2,4.75,42.5,32,6.0,5.0,8.1,150.0,36.0,3.3,3,5,3,1,2026-06-30T01:31:17.395074+05:30
Nanded,Maharashtra,19.1383,77.3091,25.5,95,0.1,964.3,6.45,36.7,51,8.7,8.1,8.1,165.0,53.0,3.8,10,5,7,1,2026-06-30T01:31:17.395081+05:30
Gulbarga,Karnataka,17.3297,76.8343,24.2,90,0.0,955.9,6.6,53.3,25,4.1,3.6,8.1,137.0,38.0,2.9,3,5,7,1,2026-06-30T01:31:17.395088+05:30
Bidar,Karnataka,17.9104,77.5199,23.6,94,0.0,932.0,3.85,43.6,35,5.3,4.6,7.7,145.0,41.0,2.1,3,5,3,1,2026-06-30T01:31:17.395094+05:30
Hospet,Karnataka,15.2689,76.3909,23.7,87,0.0,954.6,6.75,59.0,23,1.7,1.5,4.6,115.0,42.0,1.4,3,5,7,1,2026-06-30T01:31:17.395100+05:30
Tirupur,Tamil Nadu,11.1085,77.3411,23.4,90,0.0,974.6,8.35,55.1,39,15.9,14.3,20.8,153.0,24.0,5.0,3,5,7,1,2026-06-30T01:31:17.395106+05:30
Alappuzha,Kerala,9.4981,76.3388,25.5,96,0.0,1010.2,7.9,47.9,29,10.9,6.7,5.0,88.0,43.0,2.1,7,0,4,1,2026-06-30T01:31:17.395113+05:30
Munnar,Kerala,10.0889,77.0595,16.4,99,0.0,856.7,5.6,49.0,18,2.1,2.0,5.5,90.0,30.0,1.5,3,10,3,1,2026-06-30T01:31:17.395120+05:30
Silchar,Assam,24.8333,92.7789,25.7,98,0.1,1000.0,8.8,25.9,46,16.8,16.2,9.5,229.0,46.0,3.9,10,5,4,1,2026-06-30T01:31:17.395127+05:30
Dibrugarh,Assam,27.4728,94.912,25.7,96,0.0,990.4,4.35,16.9,50,20.4,20.0,21.3,312.0,23.0,1.3,7,5,3,1,2026-06-30T01:31:17.395133+05:30
