city,state,latitude,longitude,temp,humidity,rain,pressure,uv_index,wind_gusts,aqi,pm10,pm2_5,no2,co,o3,so2,mosquito_risk,arthritis_risk,migraine_risk,frizz_risk,updated_at
Delhi,Delhi,28.6139,77.209,31.9,69,0.0,973.0,7.25,40.0,81,76.6,26.8,5.9,393.0,161.0,14.9,3,5,7,1,2026-07-23T14:55:07.766127+05:30
Mumbai,Maharashtra,19.076,72.8777,27.4,85,0.1,1001.8,1.4,69.8,56,47.0,18.7,6.5,185.0,42.0,4.2,10,5,0,1,2026-07-23T14:55:07.766180+05:30
Bangalore,Karnataka,12.9716,77.5946,29.2,50,0.0,910.5,9.1,49.0,38,10.0,5.3,3.4,222.0,71.0,2.2,4,5,7,1,2026-07-23T14:55:07.766196+05:30
Hyderabad,Telangana,17.385,78.4867,30.0,53,0.0,949.1,8.85,57.6,46,44.6,17.9,1.6,185.0,82.0,2.6,4,5,7,1,2026-07-23T14:55:07.766205+05:30
Chennai,Tamil Nadu,13.0827,80.2707,31.7,73,0.0,1003.7,8.85,37.4,77,32.9,21.1,5.2,204.0,111.0,7.0,3,5,4,1,2026-07-23T14:55:07.766215+05:30
Kolkata,West Bengal,22.5726,88.3639,27.9,89,0.2,999.5,3.8,40.3,62,18.0,15.0,5.0,277.0,82.0,6.0,10,5,3,1,2026-07-23T14:55:07.766224+05:30
Pune,Maharashtra,18.5204,73.8567,24.2,89,0.2,941.3,1.45,60.5,24,4.8,3.1,4.3,152.0,39.0,2.5,6,5,3,1,2026-07-23T14:55:07.766231+05:30
Ahmedabad,Gujarat,23.0225,72.5714,27.6,93,0.0,990.4,3.85,42.8,58,21.3,10.7,8.0,187.0,42.0,3.1,7,5,3,1,2026-07-23T14:55:07.766238+05:30
Jaipur,Rajasthan,26.9124,75.7873,31.2,66,0.1,948.9,7.7,32.4,67,16.9,16.2,3.7,328.0,136.0,5.5,6,5,7,1,2026-07-23T14:55:07.766245+05:30
Lucknow,Uttar Pradesh,26.8467,80.9462,32.1,67,0.1,983.6,6.85,43.9,72,14.6,14.6,3.1,217.0,123.0,10.0,6,5,7,1,2026-07-23T14:55:07.766256+05:30
Kanpur,Uttar Pradesh,26.4499,80.3319,31.1,72,0.0,981.6,5.1,45.7,69,18.4,18.4,2.5,196.0,137.0,12.6,3,5,3,1,2026-07-23T14:55:07.766263+05:30
Chandigarh,Chandigarh,30.7333,76.7794,32.2,62,0.0,961.3,6.55,37.4,77,16.3,15.6,3.3,272.0,152.0,6.9,3,5,7,1,2026-07-23T14:55:07.766269+05:30
Srinagar,Jammu and Kashmir,34.0837,74.7973,22.5,74,0.0,839.1,8.8,31.0,69,11.7,11.5,9.8,340.0,65.0,2.4,3,5,7,1,2026-07-23T14:55:07.766276+05:30
Jammu,Jammu and Kashmir,32.7266,74.857,28.5,81,0.0,966.3,7.75,38.5,80,11.7,11.3,3.5,193.0,102.0,2.2,7,5,7,1,2026-07-23T14:55:07.766282+05:30
Amritsar,Punjab,31.634,74.8723,27.5,85,0.0,973.6,6.25,28.1,93,24.2,23.1,4.9,317.0,121.0,9.7,7,5,7,1,2026-07-23T14:55:07.766288+05:30
Ludhiana,Punjab,30.901,75.8573,31.6,72,0.0,970.6,7.0,36.0,125,29.8,24.0,5.4,326.0,151.0,10.7,3,5,7,1,2026-07-23T14:55:07.766295+05:30
Jalandhar,Punjab,31.326,75.5762,30.7,74,0.0,972.2,7.3,32.0,118,24.7,23.9,8.2,345.0,115.0,11.4,3,5,7,1,2026-07-23T14:55:07.766300+05:30
Dehradun,Uttarakhand,30.6284,78.0322,21.3,91,0.1,827.2,7.05,25.6,43,5.6,5.4,1.3,173.0,101.0,1.2,6,5,7,1,2026-07-23T14:55:07.766306+05:30
Shimla,Himachal Pradesh,31.1048,77.1734,19.2,85,0.1,782.1,5.9,24.1,51,9.8,9.5,3.0,186.0,108.0,3.6,6,10,3,1,2026-07-23T14:55:07.766312+05:30
Manali,Himachal Pradesh,32.2396,77.1887,25.7,66,0.0,817.1,5.55,25.2,33,1.3,1.2,1.3,169.0,85.0,0.8,7,5,3,1,2026-07-23T14:55:07.766320+05:30
Gurgaon,Haryana,28.4595,77.0266,30.7,73,0.0,971.2,7.3,41.4,83,566.2,74.7,5.3,362.0,148.0,11.6,3,5,7,1,2026-07-23T14:55:07.766334+05:30
Noida,Uttar Pradesh,28.5355,77.391,32.5,67,0.0,974.4,7.15,38.5,83,566.2,74.7,5.3,322.0,148.0,11.6,3,5,7,1,2026-07-23T14:55:07.766344+05:30
Ghaziabad,Uttar Pradesh,28.6692,77.4538,32.4,68,0.0,972.9,6.95,39.6,65,21.0,18.6,2.6,273.0,146.0,8.1,3,5,7,1,2026-07-23T14:55:07.766356+05:30
Faridabad,Haryana,28.4089,77.3178,32.0,68,0.0,973.6,6.8,42.5,83,566.2,74.7,5.3,337.0,148.0,11.6,3,5,7,1,2026-07-23T14:55:07.766365+05:30
Meerut,Uttar Pradesh,28.9845,77.7064,32.5,61,0.0,972.2,7.05,44.6,65,21.0,18.6,2.6,261.0,146.0,8.1,3,5,7,1,2026-07-23T14:55:07.766376+05:30
Agra,Uttar Pradesh,27.1767,78.0081,32.3,64,0.0,976.7,5.75,42.5,65,15.1,15.1,3.5,255.0,125.0,6.1,3,5,3,1,2026-07-23T14:55:07.766395+05:30
Varanasi,Uttar Pradesh,25.3176,82.9739,29.2,83,0.0,988.1,6.45,37.1,69,10.6,10.6,12.0,349.0,79.0,21.4,7,5,7,1,2026-07-23T14:55:07.766403+05:30
Prayagraj,Uttar Pradesh,25.4358,81.8463,28.3,88,0.1,986.3,7.35,33.1,68,15.2,15.2,3.6,174.0,118.0,12.9,10,5,7,1,2026-07-23T14:55:07.766410+05:30
Gorakhpur,Uttar Pradesh,26.7606,83.3732,32.4,67,0.0,988.4,7.05,47.2,67,19.2,19.2,2.4,276.0,140.0,10.4,3,5,7,1,2026-07-23T14:55:07.766416+05:30
Bareilly,Uttar Pradesh,28.367,79.4304,32.1,67,0.0,977.4,6.5,46.1,63,16.2,16.0,2.1,220.0,132.0,5.7,3,5,7,1,2026-07-23T14:55:07.766428+05:30
Aligarh,Uttar Pradesh,27.8974,78.088,32.3,65,0.1,975.0,6.55,43.9,65,17.1,17.1,2.6,277.0,131.0,7.7,6,5,7,1,2026-07-23T14:55:07.766444+05:30
Moradabad,Uttar Pradesh,28.8386,78.7733,32.5,64,0.0,974.5,6.3,47.5,63,16.9,16.6,2.4,235.0,138.0,7.3,3,5,7,1,2026-07-23T14:55:07.766450+05:30
Saharanpur,Uttar Pradesh,29.9637,77.546,31.4,74,0.0,967.4,7.1,41.0,69,15.3,15.1,1.6,231.0,132.0,3.2,3,5,7,1,2026-07-23T14:55:07.766458+05:30
Jhansi,Uttar Pradesh,25.4484,78.5685,28.8,82,0.1,967.2,7.25,28.4,62,13.7,13.6,3.1,231.0,123.0,9.0,10,5,7,1,2026-07-23T14:55:11.134710+05:30
Surat,Gujarat,21.1702,72.8311,26.7,93,1.3,996.3,0.35,63.7,68,32.2,21.9,23.0,368.0,25.0,44.4,10,5,3,1,2026-07-23T14:55:11.134743+05:30
Vadodara,Gujarat,22.3072,73.1812,27.5,88,0.1,992.8,0.6,36.7,59,23.7,12.4,8.7,190.0,46.0,5.8,10,5,3,1,2026-07-23T14:55:11.134753+05:30
Rajkot,Gujarat,22.3039,70.8022,29.7,75,0.0,984.0,0.75,44.3,58,52.3,21.6,3.4,99.0,57.0,6.5,7,5,3,1,2026-07-23T14:55:11.134761+05:30
Thane,Maharashtra,19.2183,72.9781,25.9,95,0.3,1000.8,1.15,52.2,56,47.0,18.7,6.5,187.0,42.0,4.2,10,5,0,1,2026-07-23T14:55:11.134769+05:30
Nagpur,Maharashtra,21.1458,79.0882,28.6,70,0.0,965.7,4.3,59.4,43,10.7,8.7,7.2,158.0,55.0,10.8,7,5,3,1,2026-07-23T14:55:11.134776+05:30
Nashik,Maharashtra,19.9975,73.7898,23.6,94,1.4,936.0,2.25,74.2,15,3.3,2.2,6.1,122.0,36.0,1.8,6,5,3,1,2026-07-23T14:55:11.134784+05:30
Aurangabad,Maharashtra,19.8762,75.3433,26.8,76,0.2,936.1,5.15,73.8,18,2.6,2.5,3.9,118.0,53.0,4.6,10,5,3,1,2026-07-23T14:55:11.134791+05:30
Solapur,Maharashtra,17.6599,75.9064,28.8,58,0.0,952.8,4.9,69.5,58,72.4,34.2,2.4,102.0,62.0,1.7,4,5,3,1,2026-07-23T14:55:11.134799+05:30
Kolhapur,Maharashtra,16.705,74.2433,23.5,88,0.1,944.4,4.0,65.9,62,78.9,33.9,3.1,130.0,53.0,1.5,6,5,3,1,2026-07-23T14:55:11.134806+05:30
Goa,Goa,15.2993,74.124,28.3,81,0.1,996.6,4.15,43.2,65,111.3,37.1,0.9,132.0,52.0,1.0,10,5,3,1,2026-07-23T14:55:11.134813+05:30
Jodhpur,Rajasthan,26.2389,73.0243,31.4,67,0.3,971.7,8.15,27.7,73,7.1,6.5,3.2,216.0,118.0,1.6,6,5,7,1,2026-07-23T14:55:11.134821+05:30
Udaipur,Rajasthan,24.5854,73.7125,25.7,91,0.2,935.7,8.5,24.8,32,3.1,2.7,5.3,203.0,47.0,1.7,10,5,7,1,2026-07-23T14:55:11.134827+05:30
Kota,Rajasthan,25.2138,75.8648,27.0,94,0.6,967.4,7.5,35.3,69,21.0,20.4,3.1,259.0,156.0,16.3,10,5,7,1,2026-07-23T14:55:11.134834+05:30
Bikaner,Rajasthan,28.0229,73.3119,34.4,55,0.0,971.3,7.65,29.9,65,9.4,9.1,1.3,246.0,137.0,4.5,0,5,7,1,2026-07-23T14:55:11.134842+05:30
Ajmer,Rajasthan,26.4499,74.6399,31.7,62,0.0,944.2,7.55,27.7,60,12.5,12.4,1.6,239.0,129.0,3.2,3,5,7,1,2026-07-23T14:55:11.134849+05:30
Gwalior,Madhya Pradesh,26.2183,78.1828,30.2,76,0.4,971.8,6.45,28.4,64,17.5,17.3,2.3,257.0,134.0,7.2,6,5,7,1,2026-07-23T14:55:11.134856+05:30
Indore,Madhya Pradesh,22.7196,75.8577,29.5,67,0.2,936.8,6.8,36.4,46,7.2,6.3,7.7,160.0,52.0,3.3,10,5,7,1,2026-07-23T14:55:11.134863+05:30
Bhopal,Madhya Pradesh,23.2599,77.4126,28.8,73,0.1,943.4,8.05,40.3,41,4.8,4.7,2.5,199.0,81.0,3.5,10,5,7,1,2026-07-23T14:55:11.134870+05:30
Jabalpur,Madhya Pradesh,23.1815,79.9864,26.0,94,0.3,952.4,2.4,32.8,34,3.6,3.6,6.9,151.0,37.0,3.0,10,5,3,1,2026-07-23T14:55:11.134877+05:30
Ujjain,Madhya Pradesh,23.1765,75.7885,27.7,81,0.2,942.4,5.9,33.8,42,4.8,4.3,2.9,146.0,68.0,2.7,10,5,3,1,2026-07-23T14:55:11.134884+05:30
Visakhapatnam,Andhra Pradesh,17.6868,83.2185,31.3,69,0.1,998.4,7.85,48.2,71,31.5,20.4,8.1,269.0,98.0,23.5,6,5,7,1,2026-07-23T14:55:11.134891+05:30
Vijayawada,Andhra Pradesh,16.5062,80.648,34.8,48,0.0,997.8,7.0,46.1,58,28.1,13.2,1.2,118.0,88.0,3.4,0,5,7,1,2026-07-23T14:55:11.134898+05:30
Guntur,Andhra Pradesh,16.3067,80.4365,36.2,42,0.1,998.8,8.2,42.5,55,23.4,11.0,1.0,116.0,83.0,2.7,3,5,10,1,2026-07-23T14:55:11.134906+05:30
Nellore,Andhra Pradesh,14.4426,79.9865,37.4,37,0.0,1001.2,8.95,40.7,59,22.0,12.1,2.8,102.0,90.0,3.5,0,5,7,1,2026-07-23T14:55:11.134914+05:30
Kurnool,Andhra Pradesh,15.8281,78.0373,34.1,45,0.0,973.2,8.35,51.5,36,25.7,10.0,0.9,114.0,77.0,1.6,0,5,7,1,2026-07-23T14:55:11.134921+05:30
Kakinada,Andhra Pradesh,16.9891,82.2475,34.2,49,0.0,1002.2,8.1,44.3,65,28.9,16.9,1.5,142.0,93.0,3.4,0,5,4,1,2026-07-23T14:55:11.134927+05:30
Tirupati,Andhra Pradesh,13.6288,79.4192,35.5,41,0.0,987.4,8.85,37.1,62,21.3,10.4,2.1,108.0,77.0,1.9,0,5,10,1,2026-07-23T14:55:11.134932+05:30
Warangal,Telangana,17.9689,79.5941,31.9,52,0.1,973.7,8.5,49.7,54,42.4,18.2,1.0,120.0,87.0,2.2,3,5,7,1,2026-07-23T14:55:11.134938+05:30
Nizamabad,Telangana,18.6725,78.0941,29.7,57,0.0,959.6,6.45,56.9,53,46.8,23.3,1.3,126.0,77.0,1.6,4,5,7,1,2026-07-23T14:55:11.134944+05:30
Mysore,Karnataka,12.2958,76.6396,29.9,46,0.0,927.6,8.5,50.0,29,7.0,3.8,1.6,116.0,64.0,1.3,4,5,7,1,2026-07-23T14:55:11.134949+05:30
Mangalore,Karnataka,12.9141,74.856,26.8,87,0.0,1007.0,8.8,49.3,53,12.3,7.2,1.2,109.0,58.0,1.9,7,5,4,1,2026-07-23T14:55:11.134955+05:30
Hubli-Dharwad,Karnataka,15.3647,75.124,26.3,70,0.0,938.8,5.8,60.8,20,27.0,11.2,1.9,105.0,52.0,1.0,7,5,3,1,2026-07-23T14:55:11.134961+05:30
Belgaum,Karnataka,15.8497,74.4977,23.4,83,0.1,923.1,2.95,58.3,52,114.1,43.1,2.4,111.0,60.0,1.6,6,5,3,1,2026-07-23T14:55:14.532628+05:30
Coimbatore,Tamil Nadu,11.0168,76.9558,33.2,43,0.0,960.0,8.95,55.4,40,18.0,7.2,1.4,131.0,64.0,1.7,0,5,7,1,2026-07-23T14:55:14.532661+05:30
Madurai,Tamil Nadu,9.9252,78.1198,37.5,32,0.0,990.1,8.75,29.5,64,31.0,13.7,1.8,151.0,99.0,2.2,0,5,10,1,2026-07-23T14:55:14.532670+05:30
Trichy,Tamil Nadu,10.7905,78.7047,37.2,34,0.0,996.3,6.15,42.1,57,25.4,12.1,1.5,114.0,86.0,2.0,0,5,10,1,2026-07-23T14:55:14.532679+05:30
Salem,Tamil Nadu,11.6643,78.146,34.7,45,0.0,974.6,8.8,28.8,69,34.8,16.8,3.1,140.0,103.0,7.6,0,5,7,1,2026-07-23T14:55:14.532686+05:30
Tirunelveli,Tamil Nadu,8.7139,77.7567,38.0,34,0.0,1000.4,8.15,48.6,43,12.4,6.7,1.2,109.0,75.0,1.4,0,5,7,1,2026-07-23T14:55:14.532694+05:30
Vellore,Tamil Nadu,12.9165,79.1325,36.4,37,0.0,980.8,9.0,36.7,64,31.3,13.5,2.1,116.0,79.0,2.3,0,5,10,1,2026-07-23T14:55:14.532701+05:30
Erode,Tamil Nadu,11.341,77.7172,37.4,34,0.0,985.8,8.6,39.2,57,22.1,10.6,2.3,147.0,90.0,2.3,0,5,10,1,2026-07-23T14:55:14.532708+05:30
Kochi,Kerala,9.9312,76.2673,28.9,78,0.0,1008.4,8.55,30.2,54,16.2,10.2,2.4,137.0,86.0,4.1,7,0,4,1,2026-07-23T14:55:14.532715+05:30
Thiruvananthapuram,Kerala,8.5241,76.9366,29.7,72,0.0,1007.6,7.75,40.7,52,18.5,11.8,1.6,121.0,86.0,2.1,7,5,4,1,2026-07-23T14:55:14.532722+05:30
Kozhikode,Kerala,11.2588,75.7804,29.5,76,0.0,1007.3,8.4,39.2,37,12.7,6.7,0.7,123.0,63.0,1.4,7,5,4,1,2026-07-23T14:55:14.532729+05:30
Thrissur,Kerala,10.5276,76.2144,30.2,71,0.0,1006.6,8.7,35.3,54,11.7,6.9,1.5,111.0,65.0,2.1,3,5,4,1,2026-07-23T14:55:14.532737+05:30
Kannur,Kerala,11.8745,75.3704,29.1,78,0.0,1006.9,8.75,41.8,47,10.2,5.8,0.9,98.0,60.0,1.5,7,5,4,1,2026-07-23T14:55:14.532744+05:30
Patna,Bihar,25.5941,85.1376,32.7,66,0.0,991.4,6.1,37.4,68,16.3,16.2,4.5,277.0,113.0,16.7,3,5,7,1,2026-07-23T14:55:14.532751+05:30
Gaya,Bihar,24.7914,85.0002,31.6,70,0.0,984.9,8.3,27.0,58,12.6,12.5,2.7,186.0,116.0,14.4,3,5,7,1,2026-07-23T14:55:14.532758+05:30
Muzaffarpur,Bihar,26.1209,85.3647,31.4,69,0.1,992.0,7.55,44.6,66,15.9,15.9,4.0,273.0,121.0,15.7,6,5,7,1,2026-07-23T14:55:14.532765+05:30
Bhagalpur,Bihar,25.2425,87.0117,31.8,67,0.0,992.8,7.05,33.1,62,14.9,14.7,4.7,266.0,115.0,14.8,3,5,7,1,2026-07-23T14:55:14.532772+05:30
Ranchi,Jharkhand,23.3441,85.3096,25.9,84,0.1,930.5,8.45,40.7,27,7.2,6.7,3.6,153.0,79.0,12.2,10,5,7,1,2026-07-23T14:55:14.532779+05:30
Jamshedpur,Jharkhand,22.8046,86.2029,26.3,91,0.0,983.7,2.3,34.2,60,16.9,15.9,12.2,195.0,69.0,21.4,7,5,3,1,2026-07-23T14:55:14.532786+05:30
Dhanbad,Jharkhand,23.7957,86.4304,27.4,88,0.3,972.2,7.15,30.2,88,24.0,23.5,23.9,444.0,58.0,69.2,10,5,7,1,2026-07-23T14:55:14.532793+05:30
Bokaro,Jharkhand,23.6693,86.1511,29.1,84,0.2,975.7,6.95,29.9,75,18.7,18.2,16.8,423.0,75.0,55.3,10,5,7,1,2026-07-23T14:55:14.532800+05:30
Bhubaneswar,Odisha,20.2961,85.8245,29.2,77,0.0,996.9,8.45,45.7,73,24.8,15.7,2.4,199.0,102.0,6.6,7,5,7,1,2026-07-23T14:55:14.532807+05:30
Cuttack,Odisha,20.4625,85.8828,29.2,78,0.0,998.5,8.7,40.3,73,24.8,15.7,2.4,174.0,102.0,6.6,7,5,7,1,2026-07-23T14:55:14.532814+05:30
Rourkela,Odisha,22.2604,84.8536,29.7,70,0.1,977.9,6.75,42.1,38,11.2,8.4,3.5,213.0,76.0,10.4,10,5,7,1,2026-07-23T14:55:14.532821+05:30
Raipur,Chhattisgarh,21.2514,81.6296,27.9,67,0.0,968.1,4.3,55.8,57,22.8,16.0,9.3,236.0,70.0,25.1,7,5,3,1,2026-07-23T14:55:14.532828+05:30
Bhilai,Chhattisgarh,21.1938,81.3509,27.8,69,0.0,968.6,4.45,57.2,55,23.4,16.2,10.3,339.0,64.0,24.9,7,5,3,1,2026-07-23T14:55:14.532835+05:30
Guwahati,Assam,26.1158,91.7086,31.9,68,0.0,994.0,5.55,24.1,47,7.1,6.8,1.7,241.0,92.0,1.2,3,5,3,1,2026-07-23T14:55:14.532842+05:30
Agartala,Tripura,23.8315,91.2868,27.9,91,0.0,1000.3,4.4,37.1,42,10.3,7.9,2.9,158.0,96.0,1.2,7,5,0,1,2026-07-23T14:55:14.532849+05:30
Shillong,Meghalaya,25.5788,91.8933,24.0,74,0.0,853.7,4.4,28.8,32,3.0,2.9,1.6,148.0,80.0,1.6,3,5,3,1,2026-07-23T14:55:14.532855+05:30
Imphal,Manipur,24.817,93.9368,25.8,88,0.1,918.1,7.45,25.9,38,3.5,3.1,1.6,148.0,78.0,1.1,10,5,7,1,2026-07-23T14:55:14.532862+05:30
Aizawl,Mizoram,23.7271,92.7176,21.9,85,0.1,888.6,8.75,38.9,29,6.6,4.0,0.8,120.0,62.0,0.4,6,5,7,1,2026-07-23T14:55:14.532869+05:30
Kohima,Nagaland,25.6701,94.1077,22.9,87,0.0,851.3,5.25,22.3,31,3.3,3.1,1.9,142.0,68.0,0.6,3,5,3,1,2026-07-23T14:55:14.532876+05:30
Gangtok,Sikkim,27.3314,88.6138,21.8,78,0.0,834.9,6.3,34.2,44,3.3,3.2,2.7,157.0,85.0,0.7,3,5,7,1,2026-07-23T14:55:14.532883+05:30
Siliguri,West Bengal,26.7271,88.3953,29.9,78,0.1,985.9,8.15,31.7,62,9.1,8.7,2.1,270.0,98.0,1.2,10,5,7,1,2026-07-23T14:55:17.945290+05:30
Durgapur,West Bengal,23.5204,87.3119,27.8,88,0.2,987.4,8.0,37.1,69,14.5,14.1,13.7,529.0,82.0,35.0,10,5,7,1,2026-07-23T14:55:17.945319+05:30
Asansol,West Bengal,23.6739,86.9524,30.4,73,0.1,985.5,6.45,35.3,65,14.2,13.9,15.5,208.0,67.0,35.9,6,5,7,1,2026-07-23T14:55:17.945328+05:30
Pondicherry,Puducherry,11.9139,79.8145,32.0,64,0.0,1005.3,8.2,42.5,71,31.8,23.3,4.6,179.0,123.0,10.5,3,5,4,1,2026-07-23T14:55:17.945336+05:30
Port Blair,Andaman and Nicobar Islands,11.6234,92.7265,28.6,78,0.0,1005.7,8.45,36.0,38,7.0,4.2,0.3,95.0,48.0,0.5,7,5,4,1,2026-07-23T14:55:17.945343+05:30
Haridwar,Uttarakhand,29.9457,78.1642,30.1,77,0.1,966.1,7.35,34.9,65,13.6,13.4,1.4,190.0,128.0,3.4,6,5,7,1,2026-07-23T14:55:17.945349+05:30
Rishikesh,Uttarakhand,30.0869,78.2676,28.1,89,0.1,959.3,7.35,28.4,50,9.8,9.7,1.1,205.0,114.0,2.4,10,5,7,1,2026-07-23T14:55:17.945356+05:30
Nainital,Uttarakhand,29.3919,79.4542,23.0,63,0.0,803.4,6.0,45.4,44,8.3,8.1,1.2,144.0,105.0,1.0,3,5,3,0,2026-07-23T14:55:17.945362+05:30
Mussoorie,Uttarakhand,30.4599,78.0664,20.8,83,0.1,800.3,6.45,33.5,54,9.8,9.6,1.6,179.0,123.0,2.9,6,5,7,1,2026-07-23T14:55:17.945368+05:30
Dharamshala,Himachal Pradesh,32.219,76.3234,24.2,83,0.0,865.2,3.0,27.0,51,4.7,4.5,1.7,165.0,87.0,0.5,3,5,3,1,2026-07-23T14:55:17.945373+05:30
Dalhousie,Himachal Pradesh,32.5387,75.971,19.1,93,0.0,802.1,1.2,27.7,63,13.4,12.7,5.3,219.0,106.0,1.6,3,10,3,1,2026-07-23T14:55:17.945380+05:30
Patiala,Punjab,30.3398,76.3869,32.7,64,0.0,969.8,7.05,40.7,79,27.7,20.8,2.6,248.0,152.0,7.2,3,5,7,1,2026-07-23T14:55:17.945386+05:30
Bhatinda,Punjab,30.211,74.9455,30.8,79,0.0,974.9,6.95,32.4,104,55.3,33.9,5.4,304.0,160.0,15.0,3,5,7,1,2026-07-23T14:55:17.945391+05:30
Rohtak,Haryana,28.8955,76.6066,32.7,65,0.0,971.9,6.25,36.4,95,431.2,60.5,4.5,300.0,170.0,13.3,3,5,7,1,2026-07-23T14:55:17.945397+05:30
Panipat,Haryana,29.3909,76.9635,32.3,71,0.0,971.3,7.1,38.5,98,670.6,86.1,3.3,285.0,166.0,12.4,3,5,7,1,2026-07-23T14:55:17.945403+05:30
Mathura,Uttar Pradesh,27.4924,77.6737,32.4,63,0.0,975.9,6.2,39.2,81,353.0,44.6,2.7,278.0,127.0,4.2,3,5,7,1,2026-07-23T14:55:17.945408+05:30
Vrindavan,Uttar Pradesh,27.5823,77.7027,32.5,62,0.0,976.4,6.15,39.2,81,353.0,44.6,2.7,277.0,127.0,4.2,3,5,7,1,2026-07-23T14:55:17.945413+05:30
Ayodhya,Uttar Pradesh,26.7922,82.1998,31.4,71,0.0,986.2,6.2,44.3,71,18.8,18.7,2.6,275.0,133.0,9.5,3,5,7,1,2026-07-23T14:55:17.945419+05:30
Ratlam,Madhya Pradesh,23.3315,75.0367,29.9,70,0.1,943.1,4.35,32.0,39,5.8,4.5,2.8,136.0,68.0,3.2,10,5,3,1,2026-07-23T14:55:17.945424+05:30
Sagar,Madhya Pradesh,23.8388,78.7378,29.1,72,0.0,940.1,5.0,34.2,40,3.0,2.9,2.4,146.0,79.0,2.0,7,5,3,1,2026-07-23T14:55:17.945447+05:30
Satna,Madhya Pradesh,24.6005,80.8322,27.1,89,0.0,961.7,7.7,33.8,60,4.2,4.2,2.1,161.0,91.0,4.5,7,5,7,1,2026-07-23T14:55:17.945453+05:30
Akola,Maharashtra,20.7002,77.0082,30.8,59,0.1,966.2,3.0,63.0,22,5.7,3.6,5.4,131.0,40.0,4.4,3,5,3,1,2026-07-23T14:55:17.945460+05:30
Amravati,Maharashtra,20.9374,77.7796,29.6,62,0.2,959.3,1.35,59.0,25,4.5,3.3,5.0,144.0,40.0,3.9,10,5,3,1,2026-07-23T14:55:17.945467+05:30
Latur,Maharashtra,18.4088,76.5604,28.2,60,0.0,934.6,5.55,68.4,56,35.4,19.3,2.2,114.0,55.0,1.3,4,5,3,1,2026-07-23T14:55:17.945474+05:30
Nanded,Maharashtra,19.1383,77.3091,28.1,75,0.0,962.3,4.8,50.8,54,18.2,12.4,5.0,142.0,50.0,2.6,7,5,3,1,2026-07-23T14:55:17.945480+05:30
Gulbarga,Karnataka,17.3297,76.8343,28.6,56,0.0,954.8,6.9,67.7,49,103.4,41.4,2.0,123.0,82.0,1.9,4,5,7,1,2026-07-23T14:55:17.945485+05:30
Bidar,Karnataka,17.9104,77.5199,28.6,53,0.0,931.2,7.25,71.3,52,69.6,30.2,1.2,120.0,78.0,1.4,4,5,7,1,2026-07-23T14:55:17.945491+05:30
Hospet,Karnataka,15.2689,76.3909,29.8,56,0.1,953.1,6.2,58.3,22,22.4,9.2,1.3,103.0,66.0,1.4,7,5,7,1,2026-07-23T14:55:17.945497+05:30
Tirupur,Tamil Nadu,11.1085,77.3411,35.2,40,0.0,972.8,8.95,60.1,60,22.4,10.4,2.2,138.0,83.0,2.5,0,5,10,1,2026-07-23T14:55:17.945503+05:30
Alappuzha,Kerala,9.4981,76.3388,28.9,76,0.0,1008.5,7.8,29.5,56,23.5,16.5,3.2,109.0,104.0,5.3,7,0,4,1,2026-07-23T14:55:17.945509+05:30
Munnar,Kerala,10.0889,77.0595,21.1,77,0.1,857.5,7.85,32.4,33,16.9,7.0,0.9,95.0,63.0,1.2,6,5,7,1,2026-07-23T14:55:17.945515+05:30
Silchar,Assam,24.8333,92.7789,28.8,83,0.2,999.1,1.8,31.0,54,5.1,5.0,1.2,149.0,90.0,2.6,10,5,3,1,2026-07-23T14:55:17.945520+05:30
Dibrugarh,Assam,27.4728,94.912,32.1,68,0.0,987.1,7.75,29.2,53,4.5,4.4,1.3,155.0,102.0,1.1,3,5,7,1,2026-07-23T14:55:17.945526+05:30
