city,state,latitude,longitude,temp,humidity,rain,pressure,uv_index,wind_gusts,aqi,pm10,pm2_5,mosquito_risk,arthritis_risk,migraine_risk,frizz_risk,updated_at
Delhi,Delhi,28.6139,77.209,15.9,82,0.0,985.0,5.75,36.0,178,245.9,81.0,3,10,3,0,2026-03-02T04:57:44.915089+05:30
Mumbai,Maharashtra,19.076,72.8777,25.5,82,0.0,1009.4,7.35,25.2,83,48.8,27.7,7,0,4,1,2026-03-02T04:57:44.915124+05:30
Bangalore,Karnataka,12.9716,77.5946,20.4,78,0.0,911.0,9.05,27.4,150,51.2,49.5,3,5,7,1,2026-03-02T04:57:44.915140+05:30
Hyderabad,Telangana,17.385,78.4867,23.4,74,0.0,953.2,8.3,16.9,145,57.0,55.8,3,5,7,1,2026-03-02T04:57:44.915149+05:30
Chennai,Tamil Nadu,13.0827,80.2707,22.9,89,0.0,1007.5,8.8,27.7,135,55.6,51.2,3,5,4,1,2026-03-02T04:57:44.915157+05:30
Kolkata,West Bengal,22.5726,88.3639,24.2,95,0.0,1006.6,7.65,20.9,122,51.3,48.7,3,5,4,1,2026-03-02T04:57:44.915164+05:30
Pune,Maharashtra,18.5204,73.8567,17.7,89,0.0,948.0,7.85,27.7,89,52.7,45.2,3,10,7,0,2026-03-02T04:57:44.915176+05:30
Ahmedabad,Gujarat,23.0225,72.5714,21.2,67,0.0,1003.8,7.1,16.2,89,63.6,48.7,3,5,4,0,2026-03-02T04:57:44.915183+05:30
Jaipur,Rajasthan,26.9124,75.7873,18.6,47,0.0,961.7,6.55,27.0,89,132.2,40.4,0,5,7,0,2026-03-02T04:57:44.915191+05:30
Lucknow,Uttar Pradesh,26.8467,80.9462,16.7,69,0.0,995.1,6.25,38.2,113,228.2,59.1,3,5,7,0,2026-03-02T04:57:44.915198+05:30
Kanpur,Uttar Pradesh,26.4499,80.3319,14.8,79,0.0,993.7,6.25,32.0,134,280.3,57.6,3,5,7,0,2026-03-02T04:57:44.915204+05:30
Chandigarh,Chandigarh,30.7333,76.7794,14.8,61,0.0,970.2,5.6,38.9,86,37.0,30.0,3,5,3,0,2026-03-02T04:57:44.915211+05:30
Srinagar,Jammu and Kashmir,34.0837,74.7973,4.4,85,0.0,838.6,6.55,18.0,142,74.3,58.1,3,10,7,0,2026-03-02T04:57:44.915218+05:30
Jammu,Jammu and Kashmir,32.7266,74.857,14.4,75,0.0,974.6,6.25,30.2,103,42.0,38.6,3,5,7,0,2026-03-02T04:57:44.915225+05:30
Amritsar,Punjab,31.634,74.8723,16.7,73,0.0,982.9,6.2,28.8,134,97.3,73.1,3,5,7,0,2026-03-02T04:57:44.915232+05:30
Ludhiana,Punjab,30.901,75.8573,16.7,69,0.0,980.8,5.85,34.2,159,105.5,94.1,3,5,3,0,2026-03-02T04:57:44.915240+05:30
Jalandhar,Punjab,31.326,75.5762,15.1,78,0.0,982.0,6.0,33.5,160,119.7,104.1,3,5,3,0,2026-03-02T04:57:44.915266+05:30
Dehradun,Uttarakhand,30.6284,78.0322,9.0,64,0.0,826.7,5.7,27.0,60,19.0,15.9,3,5,3,0,2026-03-02T04:57:44.915273+05:30
Shimla,Himachal Pradesh,31.1048,77.1734,5.9,70,0.0,779.7,5.85,56.2,70,40.6,30.0,3,5,3,0,2026-03-02T04:57:44.915280+05:30
Manali,Himachal Pradesh,32.2396,77.1887,11.0,17,0.0,816.3,7.45,34.2,54,26.0,19.7,0,5,7,1,2026-03-02T04:57:44.915287+05:30
Gurgaon,Haryana,28.4595,77.0266,13.7,86,0.0,983.4,5.85,33.1,656,823.3,136.9,3,10,3,0,2026-03-02T04:57:44.915293+05:30
Noida,Uttar Pradesh,28.5355,77.391,16.1,80,0.0,986.5,5.75,35.6,656,823.3,136.9,3,5,3,0,2026-03-02T04:57:44.915300+05:30
Ghaziabad,Uttar Pradesh,28.6692,77.4538,15.5,81,0.0,984.5,5.75,35.6,158,190.0,71.7,3,10,3,0,2026-03-02T04:57:44.915306+05:30
Faridabad,Haryana,28.4089,77.3178,15.9,78,0.0,985.6,5.8,31.3,656,823.3,136.9,3,5,3,0,2026-03-02T04:57:44.915313+05:30
Meerut,Uttar Pradesh,28.9845,77.7064,14.6,80,0.0,982.8,5.6,38.9,158,190.0,71.7,3,5,3,0,2026-03-02T04:57:44.915319+05:30
Agra,Uttar Pradesh,27.1767,78.0081,14.0,86,0.0,990.1,6.1,28.8,291,489.9,89.6,3,10,7,0,2026-03-02T04:57:44.915325+05:30
Varanasi,Uttar Pradesh,25.3176,82.9739,16.2,75,0.0,999.5,6.9,31.7,115,80.3,33.5,3,5,7,0,2026-03-02T04:57:44.915334+05:30
Prayagraj,Uttar Pradesh,25.4358,81.8463,16.7,71,0.0,998.0,6.75,28.1,121,88.0,37.1,3,5,7,0,2026-03-02T04:57:44.915341+05:30
Gorakhpur,Uttar Pradesh,26.7606,83.3732,14.8,70,0.0,998.1,6.6,27.7,106,91.7,44.7,3,5,7,0,2026-03-02T04:57:44.915346+05:30
Bareilly,Uttar Pradesh,28.367,79.4304,14.4,77,0.0,987.8,5.9,34.2,124,113.9,58.2,3,5,3,0,2026-03-02T04:57:44.915352+05:30
Aligarh,Uttar Pradesh,27.8974,78.088,15.2,84,0.0,987.3,5.85,33.1,371,478.7,109.4,3,10,3,0,2026-03-02T04:57:44.915358+05:30
Moradabad,Uttar Pradesh,28.8386,78.7733,14.0,77,0.0,984.7,5.75,35.6,138,102.2,62.6,3,5,3,0,2026-03-02T04:57:44.915363+05:30
Saharanpur,Uttar Pradesh,29.9637,77.546,13.8,70,0.0,976.8,5.4,51.5,130,63.8,51.0,3,5,3,0,2026-03-02T04:57:44.915369+05:30
Jhansi,Uttar Pradesh,25.4484,78.5685,15.5,77,0.0,979.7,6.7,23.0,78,32.5,25.4,3,5,7,0,2026-03-02T04:57:48.140034+05:30
Surat,Gujarat,21.1702,72.8311,22.7,93,0.0,1007.9,7.0,22.3,124,60.1,42.7,3,5,4,1,2026-03-02T04:57:48.140065+05:30
Vadodara,Gujarat,22.3072,73.1812,21.6,83,0.0,1005.9,7.15,14.4,117,86.1,74.7,3,5,4,1,2026-03-02T04:57:48.140078+05:30
Rajkot,Gujarat,22.3039,70.8022,20.1,94,0.0,996.3,6.95,19.4,68,43.4,18.0,3,5,7,1,2026-03-02T04:57:48.140087+05:30
Thane,Maharashtra,19.2183,72.9781,21.8,95,0.0,1008.9,7.3,35.3,83,48.8,27.7,3,0,4,1,2026-03-02T04:57:48.140096+05:30
Nagpur,Maharashtra,21.1458,79.0882,20.2,66,0.0,974.0,7.7,23.8,70,19.0,17.2,3,5,7,0,2026-03-02T04:57:48.140105+05:30
Nashik,Maharashtra,19.9975,73.7898,19.3,85,0.0,945.5,7.5,26.6,84,52.5,46.3,3,10,7,1,2026-03-02T04:57:48.140113+05:30
Aurangabad,Maharashtra,19.8762,75.3433,21.2,55,0.0,944.0,8.05,20.9,74,24.9,24.2,0,5,7,0,2026-03-02T04:57:48.140121+05:30
Solapur,Maharashtra,17.6599,75.9064,21.5,69,0.0,956.7,8.25,19.4,94,49.5,49.1,3,5,7,0,2026-03-02T04:57:48.140129+05:30
Kolhapur,Maharashtra,16.705,74.2433,16.0,91,0.0,947.0,8.35,35.6,80,44.4,39.0,3,10,7,0,2026-03-02T04:57:48.140137+05:30
Goa,Goa,15.2993,74.124,23.4,87,0.0,998.2,8.4,31.7,63,32.6,26.5,3,5,7,1,2026-03-02T04:57:48.140145+05:30
Jodhpur,Rajasthan,26.2389,73.0243,18.5,67,0.0,984.6,6.8,11.5,76,74.7,37.8,3,5,7,0,2026-03-02T04:57:48.140152+05:30
Udaipur,Rajasthan,24.5854,73.7125,16.2,59,0.0,947.3,7.4,17.3,63,35.9,22.6,0,5,7,0,2026-03-02T04:57:48.140160+05:30
Kota,Rajasthan,25.2138,75.8648,17.8,79,0.0,980.4,6.85,13.7,84,44.6,32.0,3,5,7,0,2026-03-02T04:57:48.140168+05:30
Bikaner,Rajasthan,28.0229,73.3119,21.0,48,0.0,983.8,6.5,22.0,68,35.9,21.0,0,5,7,0,2026-03-02T04:57:48.140175+05:30
Ajmer,Rajasthan,26.4499,74.6399,19.3,43,0.0,955.9,6.75,24.8,80,45.8,31.1,0,5,7,0,2026-03-02T04:57:48.140182+05:30
Gwalior,Madhya Pradesh,26.2183,78.1828,17.5,68,0.0,985.5,6.45,28.4,96,141.6,33.5,3,5,7,0,2026-03-02T04:57:48.140190+05:30
Indore,Madhya Pradesh,22.7196,75.8577,17.4,72,0.0,948.4,7.4,13.3,85,48.8,40.2,3,5,7,0,2026-03-02T04:57:48.140198+05:30
Bhopal,Madhya Pradesh,23.2599,77.4126,18.4,57,0.0,954.4,7.25,17.3,73,40.4,36.6,0,5,7,0,2026-03-02T04:57:48.140205+05:30
Jabalpur,Madhya Pradesh,23.1815,79.9864,19.6,68,0.0,962.8,7.35,18.4,70,42.5,29.5,3,5,7,0,2026-03-02T04:57:48.140212+05:30
Ujjain,Madhya Pradesh,23.1765,75.7885,18.3,72,0.0,954.3,7.3,14.0,95,68.5,60.8,3,5,7,0,2026-03-02T04:57:48.140220+05:30
Visakhapatnam,Andhra Pradesh,17.6868,83.2185,25.0,72,0.0,1004.3,8.3,40.3,151,59.6,57.2,7,5,4,1,2026-03-02T04:57:48.140229+05:30
Vijayawada,Andhra Pradesh,16.5062,80.648,23.3,94,0.0,1003.6,8.4,24.5,144,62.2,59.1,3,5,4,1,2026-03-02T04:57:48.140237+05:30
Guntur,Andhra Pradesh,16.3067,80.4365,23.4,94,0.0,1004.7,8.4,29.5,136,55.2,52.4,3,5,4,1,2026-03-02T04:57:48.140284+05:30
Nellore,Andhra Pradesh,14.4426,79.9865,23.0,89,0.0,1006.2,8.65,28.4,133,52.3,49.8,3,5,4,1,2026-03-02T04:57:48.140299+05:30
Kurnool,Andhra Pradesh,15.8281,78.0373,24.9,62,0.0,976.6,8.45,23.4,124,44.8,44.0,3,5,7,1,2026-03-02T04:57:48.140308+05:30
Kakinada,Andhra Pradesh,16.9891,82.2475,22.3,94,0.0,1008.6,8.35,29.5,150,61.9,57.2,3,0,4,1,2026-03-02T04:57:48.140316+05:30
Tirupati,Andhra Pradesh,13.6288,79.4192,19.6,87,0.0,991.9,8.75,24.8,145,58.1,55.9,3,10,7,1,2026-03-02T04:57:48.140324+05:30
Warangal,Telangana,17.9689,79.5941,23.3,84,0.0,979.1,8.15,18.7,148,43.1,42.3,3,5,7,1,2026-03-02T04:57:48.140332+05:30
Nizamabad,Telangana,18.6725,78.0941,21.7,80,0.0,964.7,8.05,29.2,118,61.7,61.2,3,5,7,1,2026-03-02T04:57:48.140339+05:30
Mysore,Karnataka,12.2958,76.6396,20.6,93,0.0,927.8,9.1,25.9,148,63.3,62.2,3,5,7,1,2026-03-02T04:57:48.140347+05:30
Mangalore,Karnataka,12.9141,74.856,28.0,75,0.0,1006.7,8.65,28.4,51,18.1,15.0,7,5,4,1,2026-03-02T04:57:48.140355+05:30
Hubli-Dharwad,Karnataka,15.3647,75.124,19.0,92,0.0,940.0,8.6,28.4,62,14.6,13.7,3,10,7,1,2026-03-02T04:57:48.140363+05:30
Belgaum,Karnataka,15.8497,74.4977,17.9,86,0.0,924.2,8.65,38.5,64,33.6,30.3,3,10,7,0,2026-03-02T04:57:51.363947+05:30
Coimbatore,Tamil Nadu,11.0168,76.9558,21.3,89,0.0,961.7,9.1,28.1,150,63.8,62.6,3,5,7,1,2026-03-02T04:57:51.363976+05:30
Madurai,Tamil Nadu,9.9252,78.1198,21.8,88,0.0,993.1,9.05,24.8,138,53.2,51.1,3,5,7,1,2026-03-02T04:57:51.363987+05:30
Trichy,Tamil Nadu,10.7905,78.7047,22.3,95,0.0,1000.2,8.95,29.5,143,68.0,64.7,3,5,4,1,2026-03-02T04:57:51.363996+05:30
Salem,Tamil Nadu,11.6643,78.146,23.4,85,0.0,977.7,9.0,28.8,143,60.1,57.9,3,5,7,1,2026-03-02T04:57:51.364005+05:30
Tirunelveli,Tamil Nadu,8.7139,77.7567,21.4,82,0.0,1003.4,9.05,40.3,135,69.6,67.8,3,5,4,1,2026-03-02T04:57:51.364013+05:30
Vellore,Tamil Nadu,12.9165,79.1325,20.3,93,0.0,984.8,8.85,32.0,152,69.2,66.6,3,5,7,1,2026-03-02T04:57:51.364021+05:30
Erode,Tamil Nadu,11.341,77.7172,24.3,84,0.0,989.5,9.0,28.4,133,47.3,45.1,3,5,7,1,2026-03-02T04:57:51.364028+05:30
Kochi,Kerala,9.9312,76.2673,26.6,81,0.0,1008.8,8.75,29.9,94,27.6,27.4,7,0,4,1,2026-03-02T04:57:51.364036+05:30
Thiruvananthapuram,Kerala,8.5241,76.9366,26.9,83,0.0,1007.8,8.95,30.6,76,16.4,15.3,7,5,4,1,2026-03-02T04:57:51.364043+05:30
Kozhikode,Kerala,11.2588,75.7804,27.3,79,0.0,1008.0,8.8,30.2,56,20.2,15.8,7,0,4,1,2026-03-02T04:57:51.364050+05:30
Thrissur,Kerala,10.5276,76.2144,24.4,92,0.0,1007.3,8.9,33.8,104,32.4,31.3,3,5,4,1,2026-03-02T04:57:51.364058+05:30
Kannur,Kerala,11.8745,75.3704,26.7,78,0.0,1007.2,8.75,32.0,51,17.1,14.8,7,5,4,1,2026-03-02T04:57:51.364065+05:30
Patna,Bihar,25.5941,85.1376,18.9,80,0.0,1001.9,7.05,27.0,140,53.2,39.0,3,5,4,0,2026-03-02T04:57:51.364073+05:30
Gaya,Bihar,24.7914,85.0002,20.3,68,0.0,995.7,7.15,23.8,130,71.0,50.2,3,5,7,0,2026-03-02T04:57:51.364080+05:30
Muzaffarpur,Bihar,26.1209,85.3647,16.4,70,0.0,1001.7,7.0,26.3,128,52.0,37.7,3,5,4,0,2026-03-02T04:57:51.364087+05:30
Bhagalpur,Bihar,25.2425,87.0117,19.5,80,0.0,1002.8,7.1,21.6,135,106.9,63.6,3,5,4,0,2026-03-02T04:57:51.364094+05:30
Ranchi,Jharkhand,23.3441,85.3096,19.3,57,0.0,938.4,7.8,43.2,99,69.6,40.0,0,5,7,0,2026-03-02T04:57:51.364101+05:30
Jamshedpur,Jharkhand,22.8046,86.2029,22.5,79,0.0,991.8,7.75,22.0,156,77.3,56.8,3,5,7,1,2026-03-02T04:57:51.364108+05:30
Dhanbad,Jharkhand,23.7957,86.4304,22.0,62,0.0,981.0,7.6,36.7,150,101.7,67.5,3,5,7,0,2026-03-02T04:57:51.364115+05:30
Bokaro,Jharkhand,23.6693,86.1511,21.6,59,0.0,985.4,7.6,40.0,151,102.2,70.3,0,5,7,0,2026-03-02T04:57:51.364122+05:30
Bhubaneswar,Odisha,20.2961,85.8245,23.9,90,0.0,1002.7,8.05,29.5,128,51.3,50.1,3,5,4,1,2026-03-02T04:57:51.364129+05:30
Cuttack,Odisha,20.4625,85.8828,23.4,92,0.0,1004.7,8.1,22.3,128,51.3,50.1,3,5,4,1,2026-03-02T04:57:51.364136+05:30
Rourkela,Odisha,22.2604,84.8536,24.2,65,0.0,985.8,7.65,19.1,154,49.8,32.7,3,5,7,1,2026-03-02T04:57:51.364143+05:30
Raipur,Chhattisgarh,21.2514,81.6296,22.7,60,0.0,975.5,7.75,24.8,136,26.9,26.7,0,5,7,0,2026-03-02T04:57:51.364150+05:30
Bhilai,Chhattisgarh,21.1938,81.3509,22.7,60,0.0,975.7,7.8,23.4,117,25.0,24.6,0,5,7,0,2026-03-02T04:57:51.364158+05:30
Guwahati,Assam,26.1158,91.7086,19.6,88,0.0,1003.9,7.0,29.5,157,69.4,59.1,3,10,4,1,2026-03-02T04:57:51.364165+05:30
Agartala,Tripura,23.8315,91.2868,21.4,93,0.0,1007.9,7.4,28.1,107,43.0,39.6,3,5,4,1,2026-03-02T04:57:51.364172+05:30
Shillong,Meghalaya,25.5788,91.8933,10.5,86,0.0,854.2,7.35,61.2,120,55.1,39.2,3,10,7,0,2026-03-02T04:57:51.364180+05:30
Imphal,Manipur,24.817,93.9368,12.2,76,0.0,922.8,7.65,79.2,150,89.9,73.6,3,5,7,0,2026-03-02T04:57:51.364187+05:30
Aizawl,Mizoram,23.7271,92.7176,14.4,74,0.0,891.6,7.6,41.8,124,62.9,52.4,3,5,7,0,2026-03-02T04:57:51.364195+05:30
Kohima,Nagaland,25.6701,94.1077,11.7,59,0.0,853.3,7.45,84.2,152,69.2,57.0,0,5,7,0,2026-03-02T04:57:51.364202+05:30
Gangtok,Sikkim,27.3314,88.6138,9.6,77,0.0,834.0,5.25,18.0,132,56.6,42.5,3,5,3,0,2026-03-02T04:57:51.364209+05:30
Siliguri,West Bengal,26.7271,88.3953,16.1,71,0.0,995.6,7.0,19.4,174,137.8,105.7,3,5,7,0,2026-03-02T04:57:54.598002+05:30
Durgapur,West Bengal,23.5204,87.3119,22.6,76,0.0,996.3,7.55,32.0,149,78.9,54.1,3,5,7,1,2026-03-02T04:57:54.598033+05:30
Asansol,West Bengal,23.6739,86.9524,24.4,58,0.0,994.9,7.55,34.9,126,72.6,43.7,0,5,7,0,2026-03-02T04:57:54.598044+05:30
Pondicherry,Puducherry,11.9139,79.8145,21.5,97,0.0,1008.5,8.8,27.4,130,54.4,50.2,3,0,4,1,2026-03-02T04:57:54.598054+05:30
Port Blair,Andaman and Nicobar Islands,11.6234,92.7265,27.1,73,0.0,1006.9,8.8,18.4,71,28.8,24.2,7,5,4,1,2026-03-02T04:57:54.598063+05:30
Haridwar,Uttarakhand,29.9457,78.1642,14.5,81,0.0,975.2,5.55,41.4,98,44.0,42.6,3,10,3,0,2026-03-02T04:57:54.598072+05:30
Rishikesh,Uttarakhand,30.0869,78.2676,14.7,74,0.0,967.7,5.6,32.4,81,32.0,29.6,3,5,3,0,2026-03-02T04:57:54.598081+05:30
Nainital,Uttarakhand,29.3919,79.4542,13.7,52,0.0,803.2,6.4,42.8,82,29.6,27.1,0,5,7,0,2026-03-02T04:57:54.598090+05:30
Mussoorie,Uttarakhand,30.4599,78.0664,11.3,52,0.0,799.7,5.7,34.2,83,28.8,26.8,0,5,3,0,2026-03-02T04:57:54.598099+05:30
Dharamshala,Himachal Pradesh,32.219,76.3234,15.7,47,0.0,868.5,6.15,26.6,58,15.3,9.3,0,5,7,0,2026-03-02T04:57:54.598107+05:30
Dalhousie,Himachal Pradesh,32.5387,75.971,12.0,45,0.0,801.9,6.35,23.8,99,39.9,35.7,0,5,7,0,2026-03-02T04:57:54.598115+05:30
Patiala,Punjab,30.3398,76.3869,15.1,77,0.0,980.0,5.55,36.4,156,91.5,78.7,3,5,3,0,2026-03-02T04:57:54.598124+05:30
Bhatinda,Punjab,30.211,74.9455,17.1,75,0.0,985.9,6.2,26.3,156,114.8,84.8,3,5,7,0,2026-03-02T04:57:54.598131+05:30
Rohtak,Haryana,28.8955,76.6066,14.6,85,0.0,983.8,5.75,33.5,192,254.3,81.7,3,10,3,0,2026-03-02T04:57:54.598139+05:30
Panipat,Haryana,29.3909,76.9635,14.6,81,0.0,982.0,5.55,34.9,434,558.8,109.9,3,10,3,0,2026-03-02T04:57:54.598147+05:30
Mathura,Uttar Pradesh,27.4924,77.6737,15.6,78,0.0,989.2,6.0,26.6,322,470.3,93.6,3,5,3,0,2026-03-02T04:57:54.598155+05:30
Vrindavan,Uttar Pradesh,27.5823,77.7027,15.1,84,0.0,989.4,6.0,30.2,322,470.3,93.6,3,10,3,0,2026-03-02T04:57:54.598163+05:30
Ayodhya,Uttar Pradesh,26.7922,82.1998,15.4,70,0.0,996.6,6.4,37.1,104,135.5,46.0,3,5,7,0,2026-03-02T04:57:54.598171+05:30
Ratlam,Madhya Pradesh,23.3315,75.0367,19.7,64,0.0,955.1,7.25,7.9,90,61.9,56.3,3,5,7,0,2026-03-02T04:57:54.598179+05:30
Sagar,Madhya Pradesh,23.8388,78.7378,19.3,57,0.0,951.2,7.2,20.2,60,43.5,26.3,0,5,7,0,2026-03-02T04:57:54.598187+05:30
Satna,Madhya Pradesh,24.6005,80.8322,18.4,49,0.0,972.9,7.15,31.3,75,31.7,17.9,0,5,7,0,2026-03-02T04:57:54.598195+05:30
Akola,Maharashtra,20.7002,77.0082,21.2,68,0.0,975.8,7.75,25.6,65,24.2,23.7,3,5,7,0,2026-03-02T04:57:54.598204+05:30
Amravati,Maharashtra,20.9374,77.7796,20.2,67,0.0,967.6,7.7,24.8,62,28.7,27.9,3,5,7,0,2026-03-02T04:57:54.598212+05:30
Latur,Maharashtra,18.4088,76.5604,22.2,62,0.0,939.3,8.15,27.7,74,29.2,28.9,3,5,7,0,2026-03-02T04:57:54.598220+05:30
Nanded,Maharashtra,19.1383,77.3091,22.3,63,0.0,968.6,7.95,19.4,77,34.0,33.6,3,5,7,0,2026-03-02T04:57:54.598227+05:30
Gulbarga,Karnataka,17.3297,76.8343,24.5,71,0.0,958.3,8.25,14.0,108,52.2,51.7,3,5,7,1,2026-03-02T04:57:54.598235+05:30
Bidar,Karnataka,17.9104,77.5199,23.3,63,0.0,935.1,8.2,16.9,134,76.4,75.7,3,5,7,0,2026-03-02T04:57:54.598281+05:30
Hospet,Karnataka,15.2689,76.3909,23.8,73,0.0,955.8,8.6,21.2,103,44.0,43.5,3,5,7,1,2026-03-02T04:57:54.598296+05:30
Tirupur,Tamil Nadu,11.1085,77.3411,23.6,83,0.0,975.5,9.1,23.8,152,62.6,61.0,3,5,7,1,2026-03-02T04:57:54.598304+05:30
Alappuzha,Kerala,9.4981,76.3388,26.7,81,0.0,1008.8,8.9,28.1,90,35.6,34.9,7,0,4,1,2026-03-02T04:57:54.598313+05:30
Munnar,Kerala,10.0889,77.0595,16.3,85,0.0,854.5,9.4,29.2,136,54.8,53.3,3,10,7,0,2026-03-02T04:57:54.598321+05:30
Silchar,Assam,24.8333,92.7789,18.3,87,0.0,1007.2,7.35,33.5,154,81.3,63.6,3,10,4,1,2026-03-02T04:57:54.598329+05:30
Dibrugarh,Assam,27.4728,94.912,19.0,82,0.0,998.8,7.05,11.9,154,36.1,30.5,3,10,7,0,2026-03-02T04:57:54.598337+05:30
