city,state,latitude,longitude,temp,humidity,rain,pressure,uv_index,wind_gusts,aqi,pm10,pm2_5,mosquito_risk,arthritis_risk,migraine_risk,frizz_risk,updated_at
Delhi,Delhi,28.6139,77.209,27.6,37,0.0,980.8,7.25,31.7,450,767.4,119.7,4,5,7,0,2026-04-20T23:30:47.983006+05:30
Mumbai,Maharashtra,19.076,72.8777,28.7,83,0.0,1007.8,8.05,22.3,78,57.6,25.6,7,5,4,1,2026-04-20T23:30:47.983054+05:30
Bangalore,Karnataka,12.9716,77.5946,26.3,55,0.0,911.8,9.55,21.6,111,21.1,19.8,4,5,7,1,2026-04-20T23:30:47.983070+05:30
Hyderabad,Telangana,17.385,78.4867,28.6,58,0.0,952.9,9.3,47.2,123,49.6,45.2,4,5,7,1,2026-04-20T23:30:47.983080+05:30
Chennai,Tamil Nadu,13.0827,80.2707,28.9,81,0.0,1007.1,9.25,35.6,39,13.7,9.3,7,5,4,1,2026-04-20T23:30:47.983089+05:30
Kolkata,West Bengal,22.5726,88.3639,28.4,90,0.0,1003.2,8.9,32.4,83,20.2,16.2,7,5,4,1,2026-04-20T23:30:47.983103+05:30
Pune,Maharashtra,18.5204,73.8567,27.5,67,0.0,948.3,8.55,43.9,165,49.1,45.4,7,5,7,1,2026-04-20T23:30:47.983111+05:30
Ahmedabad,Gujarat,23.0225,72.5714,30.3,36,0.0,1001.0,8.15,24.8,52,14.2,9.9,0,5,4,0,2026-04-20T23:30:47.983119+05:30
Jaipur,Rajasthan,26.9124,75.7873,31.2,24,0.0,958.6,7.95,30.6,140,211.9,38.1,0,5,7,0,2026-04-20T23:30:47.983127+05:30
Lucknow,Uttar Pradesh,26.8467,80.9462,29.3,44,0.0,989.8,7.9,38.5,120,196.5,43.5,4,5,7,0,2026-04-20T23:30:47.983135+05:30
Kanpur,Uttar Pradesh,26.4499,80.3319,27.1,49,0.0,988.5,7.9,32.8,193,353.0,59.8,4,5,7,0,2026-04-20T23:30:47.983142+05:30
Chandigarh,Chandigarh,30.7333,76.7794,23.8,44,0.0,966.9,7.25,32.8,77,29.5,20.0,0,5,7,0,2026-04-20T23:30:47.983149+05:30
Srinagar,Jammu and Kashmir,34.0837,74.7973,11.3,66,0.0,840.5,8.25,26.6,94,63.3,43.7,3,5,7,0,2026-04-20T23:30:47.983157+05:30
Jammu,Jammu and Kashmir,32.7266,74.857,25.4,50,0.0,971.2,7.9,27.4,63,36.0,29.1,4,5,7,0,2026-04-20T23:30:47.983164+05:30
Amritsar,Punjab,31.634,74.8723,24.7,48,0.0,979.5,7.9,31.0,76,32.2,21.4,0,5,7,0,2026-04-20T23:30:47.983171+05:30
Ludhiana,Punjab,30.901,75.8573,26.7,33,0.0,977.2,7.5,32.8,64,35.7,25.4,4,5,7,0,2026-04-20T23:30:47.983180+05:30
Jalandhar,Punjab,31.326,75.5762,25.3,41,0.0,978.4,7.65,31.3,71,47.6,31.2,4,5,7,0,2026-04-20T23:30:47.983187+05:30
Dehradun,Uttarakhand,30.6284,78.0322,17.1,50,0.0,829.4,7.7,42.8,58,27.6,16.2,0,5,7,0,2026-04-20T23:30:47.983195+05:30
Shimla,Himachal Pradesh,31.1048,77.1734,16.7,39,0.0,784.9,7.75,46.8,94,40.7,18.3,0,5,7,0,2026-04-20T23:30:47.983202+05:30
Manali,Himachal Pradesh,32.2396,77.1887,16.6,42,0.0,820.5,9.85,29.2,80,25.3,12.1,0,5,7,0,2026-04-20T23:30:47.983209+05:30
Gurgaon,Haryana,28.4595,77.0266,24.9,39,0.0,979.0,7.4,30.6,1213,1292.7,162.1,0,5,7,0,2026-04-20T23:30:47.983216+05:30
Noida,Uttar Pradesh,28.5355,77.391,27.3,39,0.0,982.2,7.3,31.3,1213,1292.7,162.1,4,5,7,0,2026-04-20T23:30:47.983222+05:30
Ghaziabad,Uttar Pradesh,28.6692,77.4538,26.8,45,0.0,980.4,7.3,31.0,222,687.3,106.6,4,5,7,0,2026-04-20T23:30:47.983229+05:30
Faridabad,Haryana,28.4089,77.3178,28.6,28,0.0,981.4,7.35,32.8,1213,1292.7,162.1,4,5,7,0,2026-04-20T23:30:47.983236+05:30
Meerut,Uttar Pradesh,28.9845,77.7064,25.0,51,0.0,979.1,7.2,34.2,222,687.3,106.6,4,5,7,0,2026-04-20T23:30:47.983243+05:30
Agra,Uttar Pradesh,27.1767,78.0081,26.7,50,0.0,985.4,7.7,26.3,792,1359.7,170.4,4,5,7,0,2026-04-20T23:30:47.983253+05:30
Varanasi,Uttar Pradesh,25.3176,82.9739,29.7,37,0.0,993.9,8.4,31.7,90,74.7,36.4,4,5,7,0,2026-04-20T23:30:47.983260+05:30
Prayagraj,Uttar Pradesh,25.4358,81.8463,31.4,40,0.0,992.6,7.85,25.9,80,104.8,32.7,0,5,7,1,2026-04-20T23:30:47.983267+05:30
Gorakhpur,Uttar Pradesh,26.7606,83.3732,30.1,31,0.0,993.1,8.35,36.0,128,66.6,27.2,0,5,7,0,2026-04-20T23:30:47.983274+05:30
Bareilly,Uttar Pradesh,28.367,79.4304,25.6,46,0.0,983.8,7.55,34.6,76,103.4,34.1,4,5,7,0,2026-04-20T23:30:47.983280+05:30
Aligarh,Uttar Pradesh,27.8974,78.088,27.2,38,0.0,983.0,7.45,34.9,627,1024.5,136.9,4,5,7,0,2026-04-20T23:30:47.983289+05:30
Moradabad,Uttar Pradesh,28.8386,78.7733,25.7,45,0.0,980.9,7.4,38.9,82,238.4,54.5,4,5,7,0,2026-04-20T23:30:47.983296+05:30
Saharanpur,Uttar Pradesh,29.9637,77.546,24.1,51,0.0,973.2,6.95,29.5,75,55.3,28.2,0,5,7,0,2026-04-20T23:30:47.983302+05:30
Jhansi,Uttar Pradesh,25.4484,78.5685,30.0,34,0.0,975.8,8.2,32.4,70,25.1,10.9,4,5,7,0,2026-04-20T23:30:56.390786+05:30
Surat,Gujarat,21.1702,72.8311,27.2,86,0.0,1005.8,7.85,24.5,90,47.1,30.4,7,5,4,1,2026-04-20T23:30:56.390826+05:30
Vadodara,Gujarat,22.3072,73.1812,29.0,53,0.0,1003.3,8.1,27.7,80,45.2,38.8,4,5,4,1,2026-04-20T23:30:56.390837+05:30
Rajkot,Gujarat,22.3039,70.8022,26.6,49,0.0,994.0,7.85,28.1,68,47.6,18.6,4,5,7,0,2026-04-20T23:30:56.390846+05:30
Thane,Maharashtra,19.2183,72.9781,27.1,91,0.0,1007.2,8.05,33.8,78,57.6,25.6,7,5,4,1,2026-04-20T23:30:56.390854+05:30
Nagpur,Maharashtra,21.1458,79.0882,29.7,54,0.0,972.2,8.5,37.4,82,68.0,64.3,4,5,7,1,2026-04-20T23:30:56.390862+05:30
Nashik,Maharashtra,19.9975,73.7898,26.6,63,0.0,945.6,8.3,34.9,75,24.2,19.8,7,5,7,1,2026-04-20T23:30:56.390869+05:30
Aurangabad,Maharashtra,19.8762,75.3433,30.9,38,0.0,943.6,8.95,22.7,88,38.2,33.9,0,5,7,0,2026-04-20T23:30:56.390877+05:30
Solapur,Maharashtra,17.6599,75.9064,29.3,53,0.0,956.1,8.7,20.2,113,56.7,49.5,4,5,7,1,2026-04-20T23:30:56.390885+05:30
Kolhapur,Maharashtra,16.705,74.2433,24.7,80,0.0,947.4,9.05,39.2,117,45.8,42.1,3,5,7,1,2026-04-20T23:30:56.390892+05:30
Goa,Goa,15.2993,74.124,28.7,83,0.0,997.4,9.0,30.2,85,39.9,26.9,7,5,7,1,2026-04-20T23:30:56.390899+05:30
Jodhpur,Rajasthan,26.2389,73.0243,30.7,31,0.0,981.9,8.15,27.0,105,158.3,24.9,0,5,7,0,2026-04-20T23:30:56.390907+05:30
Udaipur,Rajasthan,24.5854,73.7125,27.0,42,0.0,946.5,8.7,31.3,54,28.8,11.1,4,5,7,0,2026-04-20T23:30:56.390914+05:30
Kota,Rajasthan,25.2138,75.8648,29.7,34,0.0,976.8,8.25,28.8,49,17.9,16.0,4,5,7,0,2026-04-20T23:30:56.390922+05:30
Bikaner,Rajasthan,28.0229,73.3119,32.1,33,0.0,980.1,7.95,35.3,67,40.7,14.6,0,5,7,0,2026-04-20T23:30:56.390929+05:30
Ajmer,Rajasthan,26.4499,74.6399,27.7,36,0.0,953.6,8.1,26.3,64,94.3,24.2,4,5,7,0,2026-04-20T23:30:56.390937+05:30
Gwalior,Madhya Pradesh,26.2183,78.1828,30.2,36,0.0,980.8,8.0,38.2,106,110.8,25.4,0,5,7,0,2026-04-20T23:30:56.390944+05:30
Indore,Madhya Pradesh,22.7196,75.8577,26.8,48,0.0,947.8,8.6,37.8,70,21.8,19.3,4,5,7,0,2026-04-20T23:30:56.390951+05:30
Bhopal,Madhya Pradesh,23.2599,77.4126,29.3,31,0.0,952.9,7.5,34.9,71,22.1,19.7,4,5,7,0,2026-04-20T23:30:56.390958+05:30
Jabalpur,Madhya Pradesh,23.1815,79.9864,29.4,49,0.0,960.0,8.15,35.6,81,19.3,17.3,4,5,7,1,2026-04-20T23:30:56.390964+05:30
Ujjain,Madhya Pradesh,23.1765,75.7885,27.3,45,0.0,953.3,8.55,36.0,80,21.1,17.4,4,5,7,0,2026-04-20T23:30:56.390972+05:30
Visakhapatnam,Andhra Pradesh,17.6868,83.2185,27.8,87,0.0,1003.2,9.2,41.8,54,20.8,16.1,7,5,4,1,2026-04-20T23:30:56.390979+05:30
Vijayawada,Andhra Pradesh,16.5062,80.648,27.9,86,0.0,1002.2,9.2,27.0,58,16.9,14.0,7,5,4,1,2026-04-20T23:30:56.390986+05:30
Guntur,Andhra Pradesh,16.3067,80.4365,28.0,88,0.0,1003.4,9.25,30.2,61,17.4,15.0,7,5,4,1,2026-04-20T23:30:56.390993+05:30
Nellore,Andhra Pradesh,14.4426,79.9865,28.2,85,0.0,1005.5,9.25,38.9,50,11.7,8.7,7,5,4,1,2026-04-20T23:30:56.391001+05:30
Kurnool,Andhra Pradesh,15.8281,78.0373,33.1,49,0.0,975.4,9.2,43.2,108,33.1,29.0,0,5,7,1,2026-04-20T23:30:56.391009+05:30
Kakinada,Andhra Pradesh,16.9891,82.2475,27.6,88,0.0,1007.3,9.2,33.1,45,19.3,13.1,7,5,4,1,2026-04-20T23:30:56.391017+05:30
Tirupati,Andhra Pradesh,13.6288,79.4192,27.7,73,0.0,992.3,9.3,32.4,64,14.5,13.0,7,5,7,1,2026-04-20T23:30:56.391024+05:30
Warangal,Telangana,17.9689,79.5941,31.1,60,0.0,977.9,9.15,27.7,132,35.4,33.5,0,5,7,1,2026-04-20T23:30:56.391031+05:30
Nizamabad,Telangana,18.6725,78.0941,29.7,51,0.0,964.4,9.1,33.8,113,51.2,44.1,4,5,7,1,2026-04-20T23:30:56.391037+05:30
Mysore,Karnataka,12.2958,76.6396,24.5,83,0.0,928.5,9.45,37.4,86,38.5,35.9,3,5,7,1,2026-04-20T23:30:56.391045+05:30
Mangalore,Karnataka,12.9141,74.856,29.9,85,0.0,1006.1,9.1,23.8,82,47.3,34.7,7,5,4,1,2026-04-20T23:30:56.391052+05:30
Hubli-Dharwad,Karnataka,15.3647,75.124,25.5,86,0.0,940.2,9.2,33.8,111,33.1,29.6,7,5,7,1,2026-04-20T23:30:56.391059+05:30
Belgaum,Karnataka,15.8497,74.4977,24.0,88,0.0,925.2,9.25,30.2,98,31.1,24.4,3,5,7,1,2026-04-20T23:31:03.806536+05:30
Coimbatore,Tamil Nadu,11.0168,76.9558,26.3,83,0.0,962.1,9.4,46.4,97,48.2,45.1,7,5,7,1,2026-04-20T23:31:03.806567+05:30
Madurai,Tamil Nadu,9.9252,78.1198,28.8,78,0.0,993.8,9.3,45.0,64,17.3,15.7,7,5,7,1,2026-04-20T23:31:03.806577+05:30
Trichy,Tamil Nadu,10.7905,78.7047,28.5,82,0.0,1000.2,9.3,29.5,61,15.2,14.4,7,5,4,1,2026-04-20T23:31:03.806585+05:30
Salem,Tamil Nadu,11.6643,78.146,29.3,63,0.0,977.2,9.35,21.2,86,21.8,20.5,7,5,7,1,2026-04-20T23:31:03.806593+05:30
Tirunelveli,Tamil Nadu,8.7139,77.7567,28.4,74,0.0,1003.8,9.2,56.2,61,18.4,16.2,7,5,4,1,2026-04-20T23:31:03.806600+05:30
Vellore,Tamil Nadu,12.9165,79.1325,27.5,65,0.0,985.0,9.35,31.7,76,28.7,27.3,7,5,7,1,2026-04-20T23:31:03.806607+05:30
Erode,Tamil Nadu,11.341,77.7172,30.4,68,0.0,988.9,9.35,30.6,80,17.2,16.1,3,5,7,1,2026-04-20T23:31:03.806615+05:30
Kochi,Kerala,9.9312,76.2673,28.7,82,0.0,1009.1,9.05,31.3,63,30.6,26.0,7,0,4,1,2026-04-20T23:31:03.806644+05:30
Thiruvananthapuram,Kerala,8.5241,76.9366,28.7,82,0.0,1008.4,8.9,31.7,58,22.5,15.7,7,0,4,1,2026-04-20T23:31:03.806653+05:30
Kozhikode,Kerala,11.2588,75.7804,29.9,80,0.0,1007.6,9.1,30.2,67,36.8,23.4,7,5,4,1,2026-04-20T23:31:03.806660+05:30
Thrissur,Kerala,10.5276,76.2144,27.2,89,0.0,1007.5,9.05,36.4,67,37.3,33.1,7,5,4,1,2026-04-20T23:31:03.806668+05:30
Kannur,Kerala,11.8745,75.3704,30.2,77,0.0,1006.7,9.1,31.3,75,38.4,31.5,3,5,4,1,2026-04-20T23:31:03.806675+05:30
Patna,Bihar,25.5941,85.1376,30.3,73,0.0,996.1,8.05,28.8,125,92.9,47.3,3,5,7,1,2026-04-20T23:31:03.806683+05:30
Gaya,Bihar,24.7914,85.0002,32.2,36,0.0,989.7,8.5,34.2,92,82.9,44.1,0,5,7,0,2026-04-20T23:31:03.806690+05:30
Muzaffarpur,Bihar,26.1209,85.3647,28.9,78,0.0,996.1,8.25,27.4,128,101.3,46.3,7,5,7,1,2026-04-20T23:31:03.806696+05:30
Bhagalpur,Bihar,25.2425,87.0117,29.6,78,0.0,997.3,8.65,19.1,151,81.0,61.0,7,5,7,1,2026-04-20T23:31:03.806703+05:30
Ranchi,Jharkhand,23.3441,85.3096,27.9,50,0.0,936.9,9.25,35.3,89,41.8,21.3,4,5,7,1,2026-04-20T23:31:03.806710+05:30
Jamshedpur,Jharkhand,22.8046,86.2029,30.9,64,0.0,988.2,9.05,42.8,126,43.3,36.2,3,5,7,1,2026-04-20T23:31:03.806717+05:30
Dhanbad,Jharkhand,23.7957,86.4304,31.0,61,0.0,977.2,9.0,25.2,149,96.4,64.5,3,5,7,1,2026-04-20T23:31:03.806723+05:30
Bokaro,Jharkhand,23.6693,86.1511,30.6,52,0.0,981.3,8.8,36.7,126,76.1,51.5,0,5,7,1,2026-04-20T23:31:03.806729+05:30
Bhubaneswar,Odisha,20.2961,85.8245,27.4,91,0.0,1001.3,9.1,34.9,69,14.6,11.5,7,5,4,1,2026-04-20T23:31:03.806736+05:30
Cuttack,Odisha,20.4625,85.8828,27.8,89,0.0,1002.8,9.15,32.4,69,14.6,11.5,7,5,4,1,2026-04-20T23:31:03.806743+05:30
Rourkela,Odisha,22.2604,84.8536,30.2,62,0.0,983.1,8.85,52.2,126,65.0,49.7,3,5,7,1,2026-04-20T23:31:03.806749+05:30
Raipur,Chhattisgarh,21.2514,81.6296,31.4,44,0.0,973.3,8.65,40.3,97,38.8,36.6,0,5,7,1,2026-04-20T23:31:03.806757+05:30
Bhilai,Chhattisgarh,21.1938,81.3509,30.4,48,0.0,973.8,8.25,38.2,99,34.1,31.8,0,5,7,1,2026-04-20T23:31:03.806763+05:30
Guwahati,Assam,26.1158,91.7086,24.9,91,0.0,998.8,8.5,35.3,69,26.9,22.4,3,5,7,1,2026-04-20T23:31:03.806770+05:30
Agartala,Tripura,23.8315,91.2868,27.8,86,0.0,1003.2,8.6,33.1,89,22.0,18.3,7,5,4,1,2026-04-20T23:31:03.806776+05:30
Shillong,Meghalaya,25.5788,91.8933,17.3,93,0.0,854.9,6.8,64.1,63,17.8,14.6,3,10,7,1,2026-04-20T23:31:03.806783+05:30
Imphal,Manipur,24.817,93.9368,19.8,92,0.0,922.1,9.15,74.2,104,54.7,47.6,3,10,7,1,2026-04-20T23:31:03.806790+05:30
Aizawl,Mizoram,23.7271,92.7176,21.6,80,0.0,892.1,8.95,69.8,112,32.8,26.4,3,5,7,1,2026-04-20T23:31:03.806797+05:30
Kohima,Nagaland,25.6701,94.1077,18.5,85,0.0,853.7,8.2,102.6,74,34.1,27.4,3,10,7,0,2026-04-20T23:31:03.806804+05:30
Gangtok,Sikkim,27.3314,88.6138,16.4,84,0.0,835.4,8.8,19.1,68,20.6,17.5,3,10,7,0,2026-04-20T23:31:03.806810+05:30
Siliguri,West Bengal,26.7271,88.3953,23.6,80,0.0,990.6,8.45,23.0,94,42.5,37.4,3,5,7,1,2026-04-20T23:31:09.153590+05:30
Durgapur,West Bengal,23.5204,87.3119,28.9,86,0.0,991.8,8.9,44.3,142,64.5,58.4,7,5,7,1,2026-04-20T23:31:09.153646+05:30
Asansol,West Bengal,23.6739,86.9524,29.6,77,0.0,990.4,8.95,48.2,123,76.8,55.6,7,5,7,1,2026-04-20T23:31:09.153659+05:30
Pondicherry,Puducherry,11.9139,79.8145,27.9,93,0.0,1008.6,9.25,33.1,32,11.7,7.9,7,0,4,1,2026-04-20T23:31:09.153668+05:30
Port Blair,Andaman and Nicobar Islands,11.6234,92.7265,29.9,71,0.0,1007.5,9.05,17.3,62,15.5,12.7,7,5,4,1,2026-04-20T23:31:09.153676+05:30
Haridwar,Uttarakhand,29.9457,78.1642,22.1,70,0.0,971.7,7.05,33.8,63,42.4,26.2,3,5,7,1,2026-04-20T23:31:09.153684+05:30
Rishikesh,Uttarakhand,30.0869,78.2676,22.0,55,0.0,964.9,7.2,36.7,85,47.3,19.9,0,5,7,0,2026-04-20T23:31:09.153691+05:30
Nainital,Uttarakhand,29.3919,79.4542,22.0,27,0.0,806.4,8.05,60.1,89,99.7,25.1,0,5,7,0,2026-04-20T23:31:09.153698+05:30
Mussoorie,Uttarakhand,30.4599,78.0664,18.8,37,0.0,802.2,7.55,46.4,76,53.7,28.0,0,5,7,0,2026-04-20T23:31:09.153709+05:30
Dharamshala,Himachal Pradesh,32.219,76.3234,22.7,34,0.0,869.0,7.8,31.7,61,27.2,13.0,0,5,7,0,2026-04-20T23:31:09.153717+05:30
Dalhousie,Himachal Pradesh,32.5387,75.971,19.0,35,0.0,803.6,8.1,31.0,51,41.2,25.7,0,5,7,0,2026-04-20T23:31:09.153724+05:30
Patiala,Punjab,30.3398,76.3869,25.7,32,0.0,976.3,7.15,28.4,308,532.7,72.2,4,5,7,0,2026-04-20T23:31:09.153732+05:30
Bhatinda,Punjab,30.211,74.9455,27.9,36,0.0,982.4,7.8,31.3,70,42.4,25.7,4,5,7,0,2026-04-20T23:31:09.153739+05:30
Rohtak,Haryana,28.8955,76.6066,24.2,39,0.0,979.6,7.3,32.0,738,858.7,122.9,0,5,7,0,2026-04-20T23:31:09.153747+05:30
Panipat,Haryana,29.3909,76.9635,24.9,36,0.0,978.2,7.1,26.6,1188,1240.5,160.2,0,5,7,0,2026-04-20T23:31:09.153754+05:30
Mathura,Uttar Pradesh,27.4924,77.6737,29.2,41,0.0,984.5,7.6,26.6,877,1374.6,173.2,4,5,7,0,2026-04-20T23:31:09.153761+05:30
Vrindavan,Uttar Pradesh,27.5823,77.7027,27.6,42,0.0,985.0,7.55,26.3,877,1374.6,173.2,4,5,7,0,2026-04-20T23:31:09.153769+05:30
Ayodhya,Uttar Pradesh,26.7922,82.1998,29.2,36,0.0,991.1,8.1,37.1,105,116.4,31.4,4,5,7,0,2026-04-20T23:31:09.153776+05:30
Ratlam,Madhya Pradesh,23.3315,75.0367,28.8,44,0.0,954.0,8.45,29.9,99,21.2,16.5,4,5,7,0,2026-04-20T23:31:09.153783+05:30
Sagar,Madhya Pradesh,23.8388,78.7378,29.7,43,0.0,949.1,7.95,36.0,68,16.4,15.3,4,5,7,0,2026-04-20T23:31:09.153790+05:30
Satna,Madhya Pradesh,24.6005,80.8322,32.1,28,0.0,968.9,7.65,41.8,94,41.4,18.5,0,5,7,0,2026-04-20T23:31:09.153797+05:30
Akola,Maharashtra,20.7002,77.0082,30.7,48,0.0,974.0,8.9,29.5,85,39.1,35.9,0,5,7,1,2026-04-20T23:31:09.153804+05:30
Amravati,Maharashtra,20.9374,77.7796,29.9,52,0.0,966.2,8.8,27.0,91,32.8,29.9,4,5,7,1,2026-04-20T23:31:09.153811+05:30
Latur,Maharashtra,18.4088,76.5604,26.3,60,0.0,939.0,8.65,24.5,119,49.8,43.5,4,5,7,1,2026-04-20T23:31:09.153818+05:30
Nanded,Maharashtra,19.1383,77.3091,28.3,59,0.0,968.0,8.75,24.5,109,45.4,40.4,4,5,7,1,2026-04-20T23:31:09.153825+05:30
Gulbarga,Karnataka,17.3297,76.8343,30.1,51,0.0,958.3,9.1,32.4,127,54.9,46.4,0,5,7,1,2026-04-20T23:31:09.153833+05:30
Bidar,Karnataka,17.9104,77.5199,28.4,53,0.0,935.7,9.15,42.5,116,58.2,49.0,4,5,7,1,2026-04-20T23:31:09.153839+05:30
Hospet,Karnataka,15.2689,76.3909,29.8,61,0.0,955.7,9.25,20.5,136,59.5,51.7,7,5,7,1,2026-04-20T23:31:09.153846+05:30
Tirupur,Tamil Nadu,11.1085,77.3411,28.4,75,0.0,975.3,9.4,29.5,78,28.6,26.3,7,5,7,1,2026-04-20T23:31:09.153853+05:30
Alappuzha,Kerala,9.4981,76.3388,27.9,86,0.0,1009.5,9.0,29.2,65,28.1,21.9,7,0,4,1,2026-04-20T23:31:09.153860+05:30
Munnar,Kerala,10.0889,77.0595,22.3,92,0.0,857.7,9.65,32.0,66,29.0,27.2,3,5,7,1,2026-04-20T23:31:09.153867+05:30
Silchar,Assam,24.8333,92.7789,24.0,90,0.0,1004.1,8.6,39.2,108,45.4,37.5,3,5,4,1,2026-04-20T23:31:09.153874+05:30
Dibrugarh,Assam,27.4728,94.912,23.9,90,0.0,993.1,8.75,16.6,87,21.5,19.4,3,5,7,1,2026-04-20T23:31:09.153880+05:30
