city,state,latitude,longitude,temp,humidity,rain,pressure,uv_index,wind_gusts,aqi,pm10,pm2_5,mosquito_risk,arthritis_risk,migraine_risk,frizz_risk,updated_at
Delhi,Delhi,28.6139,77.209,24.6,48,0.0,980.5,7.3,27.4,160,94.1,31.2,0,5,7,0,2026-04-15T05:19:31.482019+05:30
Mumbai,Maharashtra,19.076,72.8777,28.9,81,0.0,1006.4,8.0,20.2,117,60.1,23.7,7,5,4,1,2026-04-15T05:19:31.482084+05:30
Bangalore,Karnataka,12.9716,77.5946,23.1,66,0.0,910.7,9.65,27.7,73,24.3,20.6,3,5,7,1,2026-04-15T05:19:31.482101+05:30
Hyderabad,Telangana,17.385,78.4867,27.7,58,0.0,951.6,9.25,33.1,93,19.7,16.8,4,5,7,1,2026-04-15T05:19:31.482111+05:30
Chennai,Tamil Nadu,13.0827,80.2707,27.8,88,0.0,1006.0,9.35,33.5,34,8.7,6.1,7,5,4,1,2026-04-15T05:19:31.482120+05:30
Kolkata,West Bengal,22.5726,88.3639,26.7,91,0.0,1004.1,8.85,28.8,94,32.9,26.7,7,5,4,1,2026-04-15T05:19:31.482129+05:30
Pune,Maharashtra,18.5204,73.8567,24.7,51,0.0,946.6,8.6,40.3,73,71.7,31.1,0,5,7,0,2026-04-15T05:19:31.482141+05:30
Ahmedabad,Gujarat,23.0225,72.5714,26.0,64,0.0,999.7,8.15,22.3,62,48.7,19.4,7,5,7,1,2026-04-15T05:19:31.482149+05:30
Jaipur,Rajasthan,26.9124,75.7873,25.8,43,0.0,957.0,7.95,28.4,109,536.4,72.2,4,5,7,0,2026-04-15T05:19:31.482156+05:30
Lucknow,Uttar Pradesh,26.8467,80.9462,23.8,58,0.0,990.0,7.8,24.8,108,186.3,44.7,0,5,7,0,2026-04-15T05:19:31.482164+05:30
Kanpur,Uttar Pradesh,26.4499,80.3319,22.5,64,0.0,988.3,7.8,21.6,168,202.6,43.4,3,5,7,0,2026-04-15T05:19:31.482171+05:30
Chandigarh,Chandigarh,30.7333,76.7794,17.9,65,0.0,965.9,7.25,31.0,53,13.4,13.1,3,5,7,0,2026-04-15T05:19:31.482179+05:30
Srinagar,Jammu and Kashmir,34.0837,74.7973,7.3,82,0.0,837.9,7.7,16.2,77,36.0,28.2,3,10,7,0,2026-04-15T05:19:31.482187+05:30
Jammu,Jammu and Kashmir,32.7266,74.857,17.2,76,0.0,970.6,7.95,33.1,60,17.8,16.5,3,5,7,0,2026-04-15T05:19:31.482194+05:30
Amritsar,Punjab,31.634,74.8723,18.6,70,0.0,978.9,7.85,26.6,88,55.9,53.7,3,5,7,0,2026-04-15T05:19:31.482201+05:30
Ludhiana,Punjab,30.901,75.8573,19.8,61,0.0,976.6,7.5,27.0,72,30.7,29.5,3,5,7,0,2026-04-15T05:19:31.482207+05:30
Jalandhar,Punjab,31.326,75.5762,18.3,69,0.0,977.7,7.65,25.9,64,27.5,26.4,3,5,7,0,2026-04-15T05:19:31.482216+05:30
Dehradun,Uttarakhand,30.6284,78.0322,12.5,59,0.0,826.6,7.65,29.2,38,9.7,8.2,0,5,7,0,2026-04-15T05:19:31.482223+05:30
Shimla,Himachal Pradesh,31.1048,77.1734,10.3,72,0.0,780.3,7.75,47.5,42,12.7,11.1,3,5,7,0,2026-04-15T05:19:31.482233+05:30
Manali,Himachal Pradesh,32.2396,77.1887,14.3,39,0.0,817.3,9.15,32.4,66,18.0,11.8,0,5,7,0,2026-04-15T05:19:31.482241+05:30
Gurgaon,Haryana,28.4595,77.0266,21.9,63,0.0,978.9,7.4,25.2,463,282.2,64.5,3,5,7,0,2026-04-15T05:19:31.482248+05:30
Noida,Uttar Pradesh,28.5355,77.391,24.4,50,0.0,981.9,7.35,27.7,463,282.2,64.5,0,5,7,0,2026-04-15T05:19:31.482254+05:30
Ghaziabad,Uttar Pradesh,28.6692,77.4538,22.3,56,0.0,980.0,7.3,26.6,119,34.5,21.5,0,5,7,0,2026-04-15T05:19:31.482261+05:30
Faridabad,Haryana,28.4089,77.3178,23.6,52,0.0,981.1,7.35,26.6,463,282.2,64.5,0,5,7,0,2026-04-15T05:19:31.482268+05:30
Meerut,Uttar Pradesh,28.9845,77.7064,19.4,63,0.0,978.6,7.2,30.2,119,34.5,21.5,3,5,7,0,2026-04-15T05:19:31.482274+05:30
Agra,Uttar Pradesh,27.1767,78.0081,24.3,56,0.0,985.0,7.65,19.4,365,338.1,72.2,0,5,7,0,2026-04-15T05:19:31.482281+05:30
Varanasi,Uttar Pradesh,25.3176,82.9739,23.8,47,0.0,994.1,8.4,21.2,103,76.6,33.6,0,5,7,0,2026-04-15T05:19:31.482292+05:30
Prayagraj,Uttar Pradesh,25.4358,81.8463,25.6,45,0.0,992.5,8.25,20.2,109,109.9,50.8,4,5,7,0,2026-04-15T05:19:31.482299+05:30
Gorakhpur,Uttar Pradesh,26.7606,83.3732,19.3,75,0.0,993.7,8.2,26.6,84,75.2,37.0,3,5,7,0,2026-04-15T05:19:31.482306+05:30
Bareilly,Uttar Pradesh,28.367,79.4304,19.9,70,0.0,983.5,7.55,29.2,66,56.2,25.0,3,5,7,0,2026-04-15T05:19:31.482312+05:30
Aligarh,Uttar Pradesh,27.8974,78.088,22.5,57,0.0,982.7,7.45,28.8,181,243.1,49.6,0,5,7,0,2026-04-15T05:19:31.482319+05:30
Moradabad,Uttar Pradesh,28.8386,78.7733,18.9,68,0.0,980.4,7.35,29.9,78,35.0,28.3,3,5,7,0,2026-04-15T05:19:31.482324+05:30
Saharanpur,Uttar Pradesh,29.9637,77.546,17.8,71,0.0,972.7,6.95,33.8,77,35.3,32.7,3,5,7,0,2026-04-15T05:19:31.482330+05:30
Jhansi,Uttar Pradesh,25.4484,78.5685,25.1,45,0.0,974.6,8.2,41.4,64,123.9,23.8,4,5,7,0,2026-04-15T05:19:34.845634+05:30
Surat,Gujarat,21.1702,72.8311,28.1,78,0.0,1004.6,7.8,28.4,104,50.1,28.5,7,5,4,1,2026-04-15T05:19:34.845665+05:30
Vadodara,Gujarat,22.3072,73.1812,26.6,57,0.0,1002.0,8.1,27.0,74,62.9,25.6,4,5,4,1,2026-04-15T05:19:34.845676+05:30
Rajkot,Gujarat,22.3039,70.8022,23.3,81,0.0,992.7,7.85,28.8,64,48.2,17.6,3,5,7,1,2026-04-15T05:19:34.845685+05:30
Thane,Maharashtra,19.2183,72.9781,26.9,84,0.0,1006.0,8.0,32.4,117,60.1,23.7,7,5,4,1,2026-04-15T05:19:34.845693+05:30
Nagpur,Maharashtra,21.1458,79.0882,24.2,51,0.0,970.1,8.85,32.4,84,35.4,31.4,0,5,7,0,2026-04-15T05:19:34.845701+05:30
Nashik,Maharashtra,19.9975,73.7898,24.7,36,0.0,943.8,8.3,35.3,70,76.4,22.6,0,5,7,0,2026-04-15T05:19:34.845709+05:30
Aurangabad,Maharashtra,19.8762,75.3433,25.9,46,0.0,942.2,8.95,32.0,62,53.1,20.5,4,5,7,0,2026-04-15T05:19:34.845717+05:30
Solapur,Maharashtra,17.6599,75.9064,27.8,44,0.0,954.9,9.05,28.4,64,24.2,21.8,4,5,7,0,2026-04-15T05:19:34.845725+05:30
Kolhapur,Maharashtra,16.705,74.2433,22.0,88,0.0,945.6,9.05,42.8,86,57.5,44.7,3,5,7,1,2026-04-15T05:19:34.845733+05:30
Goa,Goa,15.2993,74.124,28.4,83,0.0,996.2,9.0,31.3,86,66.1,41.4,7,5,7,1,2026-04-15T05:19:34.845740+05:30
Jodhpur,Rajasthan,26.2389,73.0243,27.9,33,0.0,979.9,8.15,23.8,70,109.9,22.8,4,5,7,0,2026-04-15T05:19:34.845748+05:30
Udaipur,Rajasthan,24.5854,73.7125,24.8,47,0.0,944.2,8.7,26.6,57,88.5,20.8,0,5,7,0,2026-04-15T05:19:34.845756+05:30
Kota,Rajasthan,25.2138,75.8648,24.6,49,0.0,975.3,8.2,27.0,58,22.1,11.0,0,5,7,0,2026-04-15T05:19:34.845763+05:30
Bikaner,Rajasthan,28.0229,73.3119,26.7,40,0.0,979.5,7.9,14.0,64,67.8,15.1,4,5,7,0,2026-04-15T05:19:34.845771+05:30
Ajmer,Rajasthan,26.4499,74.6399,24.4,51,0.0,951.6,8.15,27.7,52,88.0,19.7,0,5,7,0,2026-04-15T05:19:34.845778+05:30
Gwalior,Madhya Pradesh,26.2183,78.1828,26.7,48,0.0,980.2,7.95,32.4,112,173.2,32.6,4,5,7,0,2026-04-15T05:19:34.845785+05:30
Indore,Madhya Pradesh,22.7196,75.8577,23.5,55,0.0,945.6,8.55,28.4,65,20.2,13.8,0,5,7,0,2026-04-15T05:19:34.845792+05:30
Bhopal,Madhya Pradesh,23.2599,77.4126,24.1,50,0.0,951.0,8.55,29.5,65,12.0,10.1,0,5,7,0,2026-04-15T05:19:34.845800+05:30
Jabalpur,Madhya Pradesh,23.1815,79.9864,23.7,59,0.0,958.3,8.7,33.8,73,43.3,23.9,0,5,7,0,2026-04-15T05:19:34.845806+05:30
Ujjain,Madhya Pradesh,23.1765,75.7885,23.3,58,0.0,951.3,8.45,29.2,67,23.0,17.9,0,5,7,0,2026-04-15T05:19:34.845815+05:30
Visakhapatnam,Andhra Pradesh,17.6868,83.2185,26.7,89,0.0,1002.3,9.15,42.1,69,23.7,18.3,7,5,4,1,2026-04-15T05:19:34.845822+05:30
Vijayawada,Andhra Pradesh,16.5062,80.648,26.6,91,0.0,1001.2,9.2,29.5,53,9.7,7.7,7,5,4,1,2026-04-15T05:19:34.845830+05:30
Guntur,Andhra Pradesh,16.3067,80.4365,27.3,89,0.0,1002.1,9.2,31.7,54,9.1,7.2,7,5,4,1,2026-04-15T05:19:34.845837+05:30
Nellore,Andhra Pradesh,14.4426,79.9865,26.7,90,0.0,1004.0,9.3,34.2,48,8.6,7.4,7,5,4,1,2026-04-15T05:19:34.845845+05:30
Kurnool,Andhra Pradesh,15.8281,78.0373,30.8,46,0.0,975.0,9.2,25.9,85,18.5,16.8,0,5,7,1,2026-04-15T05:19:34.845853+05:30
Kakinada,Andhra Pradesh,16.9891,82.2475,25.7,94,0.0,1006.5,9.15,34.9,55,18.0,11.8,7,5,4,1,2026-04-15T05:19:34.845861+05:30
Tirupati,Andhra Pradesh,13.6288,79.4192,25.0,88,0.0,990.6,9.4,31.0,66,25.6,25.2,7,5,7,1,2026-04-15T05:19:34.845869+05:30
Warangal,Telangana,17.9689,79.5941,26.8,68,0.0,976.4,9.1,29.9,76,14.3,12.9,7,5,7,1,2026-04-15T05:19:34.845876+05:30
Nizamabad,Telangana,18.6725,78.0941,28.6,54,0.0,962.6,9.05,28.1,82,44.0,39.5,4,5,7,1,2026-04-15T05:19:34.845883+05:30
Mysore,Karnataka,12.2958,76.6396,23.6,90,0.0,927.5,9.55,42.1,80,26.5,24.3,3,5,7,1,2026-04-15T05:19:34.845890+05:30
Mangalore,Karnataka,12.9141,74.856,29.9,79,0.0,1005.4,9.15,24.8,75,31.2,18.5,7,5,4,1,2026-04-15T05:19:34.845897+05:30
Hubli-Dharwad,Karnataka,15.3647,75.124,24.2,82,0.0,939.1,9.2,41.0,66,28.2,21.0,3,5,7,1,2026-04-15T05:19:34.845905+05:30
Belgaum,Karnataka,15.8497,74.4977,21.6,96,0.0,923.7,9.25,39.6,74,45.6,31.3,3,5,7,1,2026-04-15T05:19:38.202114+05:30
Coimbatore,Tamil Nadu,11.0168,76.9558,24.9,89,0.0,960.8,9.45,49.7,82,30.4,26.1,3,5,7,1,2026-04-15T05:19:38.202145+05:30
Madurai,Tamil Nadu,9.9252,78.1198,26.6,89,0.0,992.1,9.35,39.6,64,28.5,26.5,7,5,7,1,2026-04-15T05:19:38.202155+05:30
Trichy,Tamil Nadu,10.7905,78.7047,26.2,92,0.0,998.9,9.4,18.7,54,16.9,15.7,7,5,7,1,2026-04-15T05:19:38.202164+05:30
Salem,Tamil Nadu,11.6643,78.146,24.5,80,0.0,976.3,9.45,19.1,66,19.2,18.2,3,5,7,1,2026-04-15T05:19:38.202171+05:30
Tirunelveli,Tamil Nadu,8.7139,77.7567,26.3,84,0.0,1002.0,9.3,51.1,72,32.7,26.5,7,5,4,1,2026-04-15T05:19:38.202179+05:30
Vellore,Tamil Nadu,12.9165,79.1325,24.2,89,0.0,983.8,9.45,29.5,93,49.7,48.8,3,5,7,1,2026-04-15T05:19:38.202186+05:30
Erode,Tamil Nadu,11.341,77.7172,27.0,84,0.0,987.9,9.4,25.6,55,17.4,16.4,7,5,7,1,2026-04-15T05:19:38.202193+05:30
Kochi,Kerala,9.9312,76.2673,29.1,80,0.0,1007.2,9.2,32.8,96,44.5,38.2,7,5,4,1,2026-04-15T05:19:38.202200+05:30
Thiruvananthapuram,Kerala,8.5241,76.9366,28.7,85,0.0,1006.3,9.15,30.2,71,34.3,23.0,7,5,4,1,2026-04-15T05:19:38.202207+05:30
Kozhikode,Kerala,11.2588,75.7804,29.6,79,0.0,1006.3,9.15,29.5,85,34.1,20.7,7,5,4,1,2026-04-15T05:19:38.202214+05:30
Thrissur,Kerala,10.5276,76.2144,27.7,89,0.0,1005.7,9.2,35.3,96,57.3,49.4,7,5,4,1,2026-04-15T05:19:38.202221+05:30
Kannur,Kerala,11.8745,75.3704,28.9,83,0.0,1005.8,9.15,32.4,82,32.2,19.8,7,5,4,1,2026-04-15T05:19:38.202228+05:30
Patna,Bihar,25.5941,85.1376,22.8,80,0.0,997.1,8.55,22.7,121,76.4,48.7,3,5,7,1,2026-04-15T05:19:38.202235+05:30
Gaya,Bihar,24.7914,85.0002,21.4,58,0.0,990.7,8.6,18.0,93,56.6,22.1,0,5,7,0,2026-04-15T05:19:38.202242+05:30
Muzaffarpur,Bihar,26.1209,85.3647,21.7,89,0.0,997.2,8.55,22.7,147,99.0,66.6,3,5,7,1,2026-04-15T05:19:38.202249+05:30
Bhagalpur,Bihar,25.2425,87.0117,22.4,93,0.0,998.0,8.55,20.5,142,92.9,80.6,3,5,7,1,2026-04-15T05:19:38.202255+05:30
Ranchi,Jharkhand,23.3441,85.3096,23.7,34,0.0,935.7,9.15,31.3,66,78.9,19.4,0,5,7,0,2026-04-15T05:19:38.202262+05:30
Jamshedpur,Jharkhand,22.8046,86.2029,24.4,96,0.0,988.9,8.95,23.0,122,79.6,49.0,3,5,7,1,2026-04-15T05:19:38.202268+05:30
Dhanbad,Jharkhand,23.7957,86.4304,22.0,66,0.0,977.2,8.9,31.0,135,156.0,82.0,3,5,7,0,2026-04-15T05:19:38.202275+05:30
Bokaro,Jharkhand,23.6693,86.1511,20.0,63,0.0,981.5,8.9,37.1,130,119.2,66.6,3,5,7,0,2026-04-15T05:19:38.202281+05:30
Bhubaneswar,Odisha,20.2961,85.8245,26.8,90,0.0,1000.8,9.1,34.2,81,30.2,22.0,7,5,4,1,2026-04-15T05:19:38.202288+05:30
Cuttack,Odisha,20.4625,85.8828,26.7,91,0.0,1002.8,9.15,28.8,81,30.2,22.0,7,5,4,1,2026-04-15T05:19:38.202294+05:30
Rourkela,Odisha,22.2604,84.8536,24.8,93,0.0,983.0,8.9,25.2,84,72.9,33.3,3,5,7,1,2026-04-15T05:19:38.202300+05:30
Raipur,Chhattisgarh,21.2514,81.6296,27.1,50,0.0,972.1,8.95,42.8,139,106.2,70.8,4,5,7,0,2026-04-15T05:19:38.202306+05:30
Bhilai,Chhattisgarh,21.1938,81.3509,25.0,62,0.0,972.3,8.95,41.8,145,115.5,80.1,7,5,7,1,2026-04-15T05:19:38.202312+05:30
Guwahati,Assam,26.1158,91.7086,23.7,88,0.0,1000.3,8.45,30.2,132,49.9,38.3,3,5,4,1,2026-04-15T05:19:38.202319+05:30
Agartala,Tripura,23.8315,91.2868,24.0,96,0.0,1005.6,8.7,41.0,105,35.2,31.9,3,5,4,1,2026-04-15T05:19:38.202325+05:30
Shillong,Meghalaya,25.5788,91.8933,14.0,84,0.0,854.2,8.1,63.0,109,38.3,30.3,3,10,7,0,2026-04-15T05:19:38.202332+05:30
Imphal,Manipur,24.817,93.9368,17.5,94,0.0,922.8,9.05,70.2,136,59.6,48.7,3,10,7,1,2026-04-15T05:19:38.202339+05:30
Aizawl,Mizoram,23.7271,92.7176,18.1,91,0.0,891.9,8.9,51.8,117,51.8,41.4,3,10,7,1,2026-04-15T05:19:38.202345+05:30
Kohima,Nagaland,25.6701,94.1077,15.3,89,0.0,853.7,8.95,74.2,114,59.1,45.2,3,10,7,0,2026-04-15T05:19:38.202352+05:30
Gangtok,Sikkim,27.3314,88.6138,12.7,96,0.1,834.2,8.25,21.2,120,58.2,35.7,6,10,7,0,2026-04-15T05:19:38.202380+05:30
Siliguri,West Bengal,26.7271,88.3953,19.9,78,0.0,992.3,8.3,31.7,157,117.3,80.6,3,5,7,0,2026-04-15T05:19:41.561998+05:30
Durgapur,West Bengal,23.5204,87.3119,24.9,95,0.0,992.5,8.85,22.3,149,66.1,54.9,3,5,7,1,2026-04-15T05:19:41.562033+05:30
Asansol,West Bengal,23.6739,86.9524,24.8,90,0.0,990.9,8.85,21.6,113,103.1,53.6,3,5,7,1,2026-04-15T05:19:41.562045+05:30
Pondicherry,Puducherry,11.9139,79.8145,26.6,97,0.0,1007.6,9.3,26.6,33,8.1,5.6,7,5,4,1,2026-04-15T05:19:41.562055+05:30
Port Blair,Andaman and Nicobar Islands,11.6234,92.7265,28.9,75,0.0,1006.8,9.2,17.6,70,35.7,24.6,7,5,4,1,2026-04-15T05:19:41.562065+05:30
Haridwar,Uttarakhand,29.9457,78.1642,18.7,73,0.0,971.4,7.05,30.6,57,18.0,17.8,3,5,7,0,2026-04-15T05:19:41.562075+05:30
Rishikesh,Uttarakhand,30.0869,78.2676,18.7,67,0.0,964.4,7.15,31.0,44,13.7,13.0,3,5,7,0,2026-04-15T05:19:41.562084+05:30
Nainital,Uttarakhand,29.3919,79.4542,18.7,36,0.0,803.9,8.05,47.9,46,19.2,10.5,0,5,7,0,2026-04-15T05:19:41.562093+05:30
Mussoorie,Uttarakhand,30.4599,78.0664,15.5,50,0.0,799.9,7.55,34.9,53,16.1,15.8,0,5,7,0,2026-04-15T05:19:41.562101+05:30
Dharamshala,Himachal Pradesh,32.219,76.3234,19.3,28,0.0,866.7,7.8,22.7,48,11.2,5.9,0,5,7,0,2026-04-15T05:19:41.562109+05:30
Dalhousie,Himachal Pradesh,32.5387,75.971,15.5,37,0.0,801.0,8.0,23.8,54,14.4,12.3,0,5,7,0,2026-04-15T05:19:41.562119+05:30
Patiala,Punjab,30.3398,76.3869,18.3,65,0.0,975.5,7.15,28.8,164,85.9,37.5,3,5,7,0,2026-04-15T05:19:41.562127+05:30
Bhatinda,Punjab,30.211,74.9455,20.3,62,0.0,981.8,7.85,30.2,60,24.8,19.7,3,5,7,0,2026-04-15T05:19:41.562135+05:30
Rohtak,Haryana,28.8955,76.6066,19.3,67,0.0,979.2,7.3,28.8,275,392.1,65.9,3,5,7,0,2026-04-15T05:19:41.562143+05:30
Panipat,Haryana,29.3909,76.9635,18.0,67,0.0,977.7,7.15,28.1,629,942.5,106.2,3,5,7,0,2026-04-15T05:19:41.562151+05:30
Mathura,Uttar Pradesh,27.4924,77.6737,23.5,54,0.0,984.2,7.6,24.1,291,478.7,79.9,0,5,7,0,2026-04-15T05:19:41.562159+05:30
Vrindavan,Uttar Pradesh,27.5823,77.7027,22.9,58,0.0,984.7,7.6,27.0,291,478.7,79.9,0,5,7,0,2026-04-15T05:19:41.562167+05:30
Ayodhya,Uttar Pradesh,26.7922,82.1998,22.0,54,0.0,991.8,7.95,30.2,83,140.6,36.1,0,5,7,0,2026-04-15T05:19:41.562175+05:30
Ratlam,Madhya Pradesh,23.3315,75.0367,23.5,65,0.0,951.9,8.4,28.8,53,22.2,15.7,3,5,7,1,2026-04-15T05:19:41.562183+05:30
Sagar,Madhya Pradesh,23.8388,78.7378,24.7,51,0.0,947.3,8.6,28.4,64,16.5,13.9,0,5,7,0,2026-04-15T05:19:41.562190+05:30
Satna,Madhya Pradesh,24.6005,80.8322,24.9,44,0.0,968.4,8.6,24.1,58,75.9,19.5,0,5,7,0,2026-04-15T05:19:41.562197+05:30
Akola,Maharashtra,20.7002,77.0082,25.2,64,0.0,972.6,8.75,32.8,59,21.4,12.6,7,5,7,1,2026-04-15T05:19:41.562204+05:30
Amravati,Maharashtra,20.9374,77.7796,23.9,63,0.0,964.6,8.8,28.1,63,18.1,11.9,3,5,7,1,2026-04-15T05:19:41.562211+05:30
Latur,Maharashtra,18.4088,76.5604,24.4,52,0.0,937.3,9.05,25.6,63,25.3,21.0,0,5,7,0,2026-04-15T05:19:41.562218+05:30
Nanded,Maharashtra,19.1383,77.3091,24.4,58,0.0,966.5,8.95,16.9,62,18.6,15.2,0,5,7,0,2026-04-15T05:19:41.562224+05:30
Gulbarga,Karnataka,17.3297,76.8343,29.9,47,0.0,956.5,9.1,20.2,94,45.1,39.0,4,5,7,1,2026-04-15T05:19:41.562230+05:30
Bidar,Karnataka,17.9104,77.5199,28.2,50,0.0,933.3,9.1,22.7,98,50.1,42.3,4,5,7,1,2026-04-15T05:19:41.562236+05:30
Hospet,Karnataka,15.2689,76.3909,26.5,80,0.0,954.7,9.25,28.4,101,26.3,23.1,7,5,7,1,2026-04-15T05:19:41.562242+05:30
Tirupur,Tamil Nadu,11.1085,77.3411,26.5,87,0.0,974.2,9.5,33.8,72,33.9,30.0,7,5,7,1,2026-04-15T05:19:41.562249+05:30
Alappuzha,Kerala,9.4981,76.3388,28.8,83,0.0,1007.3,9.2,29.5,96,50.5,38.9,7,5,4,1,2026-04-15T05:19:41.562256+05:30
Munnar,Kerala,10.0889,77.0595,20.7,73,0.0,855.6,9.75,36.7,78,37.3,32.7,3,5,7,0,2026-04-15T05:19:41.562263+05:30
Silchar,Assam,24.8333,92.7789,22.3,92,0.0,1005.7,8.7,37.1,152,53.3,42.4,3,5,4,1,2026-04-15T05:19:41.562269+05:30
Dibrugarh,Assam,27.4728,94.912,21.3,83,0.0,996.9,8.5,29.2,86,57.9,28.2,3,5,7,1,2026-04-15T05:19:41.562276+05:30
