city,state,latitude,longitude,temp,humidity,rain,pressure,uv_index,wind_gusts,aqi,pm10,pm2_5,mosquito_risk,arthritis_risk,migraine_risk,frizz_risk,updated_at
Delhi,Delhi,28.6139,77.209,26.3,41,0.0,984.0,7.2,34.6,416,901.5,134.1,4,5,7,0,2026-04-12T22:12:52.952100+05:30
Mumbai,Maharashtra,19.076,72.8777,29.6,81,0.0,1007.7,8.0,22.3,124,69.2,37.1,7,5,4,1,2026-04-12T22:12:52.952138+05:30
Bangalore,Karnataka,12.9716,77.5946,28.0,48,0.0,912.6,9.65,27.7,113,31.3,27.6,4,5,7,0,2026-04-12T22:12:52.952153+05:30
Hyderabad,Telangana,17.385,78.4867,32.5,39,0.0,953.0,9.25,27.4,132,37.5,32.0,0,5,7,1,2026-04-12T22:12:52.952163+05:30
Chennai,Tamil Nadu,13.0827,80.2707,28.3,82,0.0,1008.1,9.4,34.6,43,12.8,7.8,7,0,4,1,2026-04-12T22:12:52.952172+05:30
Kolkata,West Bengal,22.5726,88.3639,27.0,92,0.0,1005.4,8.8,23.0,114,31.9,23.9,7,5,4,1,2026-04-12T22:12:52.952180+05:30
Pune,Maharashtra,18.5204,73.8567,29.9,44,0.0,948.6,8.55,42.5,163,43.8,37.7,4,5,7,1,2026-04-12T22:12:52.952191+05:30
Ahmedabad,Gujarat,23.0225,72.5714,31.4,28,0.0,1001.2,8.1,22.3,109,55.2,28.5,0,5,4,0,2026-04-12T22:12:52.952200+05:30
Jaipur,Rajasthan,26.9124,75.7873,27.6,25,0.0,960.8,7.85,30.2,144,165.3,36.7,4,5,7,0,2026-04-12T22:12:52.952208+05:30
Lucknow,Uttar Pradesh,26.8467,80.9462,27.3,41,0.0,993.0,7.7,29.2,148,279.4,56.6,4,5,7,0,2026-04-12T22:12:52.952216+05:30
Kanpur,Uttar Pradesh,26.4499,80.3319,25.6,60,0.0,991.5,7.75,24.5,331,584.9,84.8,4,5,7,1,2026-04-12T22:12:52.952223+05:30
Chandigarh,Chandigarh,30.7333,76.7794,21.4,62,0.0,970.2,7.1,31.7,124,31.2,19.9,3,5,7,0,2026-04-12T22:12:52.952231+05:30
Srinagar,Jammu and Kashmir,34.0837,74.7973,11.2,71,0.0,840.9,8.05,20.2,103,40.2,35.5,3,5,7,0,2026-04-12T22:12:52.952238+05:30
Jammu,Jammu and Kashmir,32.7266,74.857,22.6,63,0.0,974.2,7.8,27.7,89,42.3,29.8,3,5,7,0,2026-04-12T22:12:52.952245+05:30
Amritsar,Punjab,31.634,74.8723,21.7,59,0.0,982.7,7.75,25.6,107,49.8,32.8,0,5,7,0,2026-04-12T22:12:52.952251+05:30
Ludhiana,Punjab,30.901,75.8573,23.6,49,0.0,980.6,7.4,30.2,100,30.3,23.0,0,5,7,0,2026-04-12T22:12:52.952257+05:30
Jalandhar,Punjab,31.326,75.5762,22.9,54,0.0,981.7,7.55,27.0,107,41.9,26.1,0,5,7,0,2026-04-12T22:12:52.952265+05:30
Dehradun,Uttarakhand,30.6284,78.0322,13.1,75,0.0,829.0,7.5,33.5,128,40.7,22.6,3,5,7,0,2026-04-12T22:12:52.952272+05:30
Shimla,Himachal Pradesh,31.1048,77.1734,12.1,71,0.0,783.9,7.65,41.0,124,43.7,17.5,3,5,7,0,2026-04-12T22:12:52.952278+05:30
Manali,Himachal Pradesh,32.2396,77.1887,12.4,82,0.0,818.7,9.85,29.2,158,24.4,11.4,3,10,7,0,2026-04-12T22:12:52.952285+05:30
Gurgaon,Haryana,28.4595,77.0266,23.6,52,0.0,982.3,7.3,33.5,1120,1207.0,167.2,0,5,7,0,2026-04-12T22:12:52.952291+05:30
Noida,Uttar Pradesh,28.5355,77.391,25.8,43,0.0,985.6,7.25,33.8,1120,1207.0,167.2,4,5,7,0,2026-04-12T22:12:52.952298+05:30
Ghaziabad,Uttar Pradesh,28.6692,77.4538,24.3,48,0.0,983.7,7.2,32.8,198,705.9,107.3,0,5,7,0,2026-04-12T22:12:52.952304+05:30
Faridabad,Haryana,28.4089,77.3178,24.9,44,0.0,984.7,7.3,33.1,1120,1207.0,167.2,0,5,7,0,2026-04-12T22:12:52.952310+05:30
Meerut,Uttar Pradesh,28.9845,77.7064,22.7,53,0.0,982.4,7.1,33.1,198,705.9,107.3,0,5,7,0,2026-04-12T22:12:52.952316+05:30
Agra,Uttar Pradesh,27.1767,78.0081,25.6,45,0.0,988.3,7.6,33.5,674,1568.3,177.0,4,5,7,0,2026-04-12T22:12:52.952323+05:30
Varanasi,Uttar Pradesh,25.3176,82.9739,28.0,43,0.0,996.3,8.35,25.9,133,63.3,28.3,4,5,7,0,2026-04-12T22:12:52.952331+05:30
Prayagraj,Uttar Pradesh,25.4358,81.8463,28.5,43,0.0,995.2,8.2,23.4,147,87.8,33.8,4,5,7,0,2026-04-12T22:12:52.952338+05:30
Gorakhpur,Uttar Pradesh,26.7606,83.3732,26.8,37,0.0,995.9,8.15,36.0,115,64.0,27.0,4,5,7,0,2026-04-12T22:12:52.952344+05:30
Bareilly,Uttar Pradesh,28.367,79.4304,23.5,58,0.0,987.0,7.45,34.9,118,48.0,25.7,0,5,7,0,2026-04-12T22:12:52.952351+05:30
Aligarh,Uttar Pradesh,27.8974,78.088,23.2,48,0.0,986.1,7.4,34.2,576,1125.0,159.7,0,5,7,0,2026-04-12T22:12:52.952357+05:30
Moradabad,Uttar Pradesh,28.8386,78.7733,22.9,56,0.0,984.3,7.3,36.0,105,177.4,47.5,0,5,7,0,2026-04-12T22:12:52.952363+05:30
Saharanpur,Uttar Pradesh,29.9637,77.546,21.1,62,0.0,976.7,6.9,32.0,122,45.8,22.1,3,5,7,0,2026-04-12T22:12:52.952371+05:30
Jhansi,Uttar Pradesh,25.4484,78.5685,27.4,40,0.0,978.2,8.15,36.0,86,78.9,29.2,4,5,7,0,2026-04-12T22:12:56.164710+05:30
Surat,Gujarat,21.1702,72.8311,28.9,76,0.0,1005.6,7.8,26.6,151,76.8,60.3,7,5,4,1,2026-04-12T22:12:56.164741+05:30
Vadodara,Gujarat,22.3072,73.1812,30.3,51,0.0,1003.0,8.05,22.3,127,101.3,63.8,0,5,4,1,2026-04-12T22:12:56.164751+05:30
Rajkot,Gujarat,22.3039,70.8022,30.1,39,0.0,993.8,7.8,22.7,76,48.9,25.5,0,5,7,0,2026-04-12T22:12:56.164759+05:30
Thane,Maharashtra,19.2183,72.9781,28.6,83,0.0,1007.1,8.0,34.6,124,69.2,37.1,7,5,4,1,2026-04-12T22:12:56.164766+05:30
Nagpur,Maharashtra,21.1458,79.0882,27.0,61,0.0,971.9,8.8,14.8,163,38.3,31.1,7,5,7,1,2026-04-12T22:12:56.164774+05:30
Nashik,Maharashtra,19.9975,73.7898,28.5,40,0.0,945.9,8.25,31.3,131,49.0,36.2,4,5,7,0,2026-04-12T22:12:56.164780+05:30
Aurangabad,Maharashtra,19.8762,75.3433,31.4,31,0.0,943.6,8.95,31.0,133,43.9,31.2,0,5,7,0,2026-04-12T22:12:56.164786+05:30
Solapur,Maharashtra,17.6599,75.9064,33.6,40,0.0,955.8,9.05,27.0,128,39.1,31.9,0,5,7,1,2026-04-12T22:12:56.164793+05:30
Kolhapur,Maharashtra,16.705,74.2433,26.0,72,0.0,948.0,9.05,49.3,122,35.0,30.2,7,5,7,1,2026-04-12T22:12:56.164800+05:30
Goa,Goa,15.2993,74.124,29.0,78,0.0,998.4,9.05,32.8,97,46.0,31.3,7,5,7,1,2026-04-12T22:12:56.164807+05:30
Jodhpur,Rajasthan,26.2389,73.0243,28.5,36,0.0,983.6,8.1,16.2,103,62.9,27.5,4,5,7,0,2026-04-12T22:12:56.164814+05:30
Udaipur,Rajasthan,24.5854,73.7125,25.9,30,0.0,947.4,8.7,28.4,95,31.4,12.5,4,5,7,0,2026-04-12T22:12:56.164820+05:30
Kota,Rajasthan,25.2138,75.8648,29.1,40,0.0,978.9,8.15,24.1,106,82.0,30.5,4,5,7,0,2026-04-12T22:12:56.164827+05:30
Bikaner,Rajasthan,28.0229,73.3119,30.1,25,0.0,982.6,7.95,21.2,95,35.0,14.3,0,5,7,0,2026-04-12T22:12:56.164834+05:30
Ajmer,Rajasthan,26.4499,74.6399,27.6,29,0.0,955.4,8.05,26.3,96,43.0,21.1,4,5,7,0,2026-04-12T22:12:56.164840+05:30
Gwalior,Madhya Pradesh,26.2183,78.1828,27.9,49,0.0,983.9,7.85,33.1,116,213.7,41.8,4,5,7,1,2026-04-12T22:12:56.164847+05:30
Indore,Madhya Pradesh,22.7196,75.8577,26.2,49,0.0,948.1,8.55,27.7,78,56.2,41.1,4,5,7,0,2026-04-12T22:12:56.164853+05:30
Bhopal,Madhya Pradesh,23.2599,77.4126,28.6,36,0.0,953.4,8.5,32.4,87,33.6,21.0,4,5,7,0,2026-04-12T22:12:56.164860+05:30
Jabalpur,Madhya Pradesh,23.1815,79.9864,27.9,46,0.0,960.6,8.65,33.8,110,25.7,22.5,4,5,7,0,2026-04-12T22:12:56.164866+05:30
Ujjain,Madhya Pradesh,23.1765,75.7885,26.7,44,0.0,953.9,8.45,27.4,71,68.9,39.0,4,5,7,0,2026-04-12T22:12:56.164873+05:30
Visakhapatnam,Andhra Pradesh,17.6868,83.2185,28.4,84,0.0,1004.8,9.15,38.9,76,24.8,16.0,7,5,4,1,2026-04-12T22:12:56.164879+05:30
Vijayawada,Andhra Pradesh,16.5062,80.648,28.0,80,0.0,1003.2,9.25,35.3,57,19.4,13.6,7,5,4,1,2026-04-12T22:12:56.164886+05:30
Guntur,Andhra Pradesh,16.3067,80.4365,27.7,84,0.0,1004.3,9.25,34.9,55,20.8,14.3,7,5,4,1,2026-04-12T22:12:56.164893+05:30
Nellore,Andhra Pradesh,14.4426,79.9865,27.7,85,0.0,1006.4,9.35,34.6,56,16.9,11.4,7,5,4,1,2026-04-12T22:12:56.164900+05:30
Kurnool,Andhra Pradesh,15.8281,78.0373,34.7,35,0.0,975.9,9.25,31.7,109,37.7,31.4,0,5,7,1,2026-04-12T22:12:56.164908+05:30
Kakinada,Andhra Pradesh,16.9891,82.2475,28.3,82,0.0,1008.6,9.2,36.7,54,20.8,11.0,7,0,4,1,2026-04-12T22:12:56.164914+05:30
Tirupati,Andhra Pradesh,13.6288,79.4192,29.1,62,0.0,992.7,9.45,32.0,73,24.0,19.4,7,5,7,1,2026-04-12T22:12:56.164920+05:30
Warangal,Telangana,17.9689,79.5941,31.4,55,0.0,977.6,9.1,29.5,119,31.9,28.2,0,5,7,1,2026-04-12T22:12:56.164947+05:30
Nizamabad,Telangana,18.6725,78.0941,32.3,42,0.0,964.0,9.05,26.3,140,60.3,48.0,0,5,7,1,2026-04-12T22:12:56.164956+05:30
Mysore,Karnataka,12.2958,76.6396,26.0,77,0.0,929.3,9.55,39.2,101,48.2,40.3,7,5,7,1,2026-04-12T22:12:56.164962+05:30
Mangalore,Karnataka,12.9141,74.856,30.3,77,0.0,1007.0,9.2,24.1,96,58.1,30.2,3,5,4,1,2026-04-12T22:12:56.164970+05:30
Hubli-Dharwad,Karnataka,15.3647,75.124,25.7,85,0.0,941.3,9.25,35.6,143,32.2,26.4,7,5,7,1,2026-04-12T22:12:56.164976+05:30
Belgaum,Karnataka,15.8497,74.4977,24.2,89,0.0,926.0,9.25,41.8,134,35.2,29.3,3,5,7,1,2026-04-12T22:12:59.383627+05:30
Coimbatore,Tamil Nadu,11.0168,76.9558,26.6,80,0.0,962.8,9.5,37.4,94,35.4,29.0,7,5,7,1,2026-04-12T22:12:59.383657+05:30
Madurai,Tamil Nadu,9.9252,78.1198,29.4,73,0.0,994.5,9.4,27.0,87,27.9,24.7,7,5,7,1,2026-04-12T22:12:59.383667+05:30
Trichy,Tamil Nadu,10.7905,78.7047,28.8,68,0.0,1000.7,9.4,27.4,65,17.1,14.8,7,5,4,1,2026-04-12T22:12:59.383675+05:30
Salem,Tamil Nadu,11.6643,78.146,30.2,55,0.0,977.7,9.45,25.2,92,26.1,22.2,0,5,7,1,2026-04-12T22:12:59.383682+05:30
Tirunelveli,Tamil Nadu,8.7139,77.7567,29.1,75,0.0,1004.2,9.35,37.4,84,28.9,23.1,7,5,4,1,2026-04-12T22:12:59.383689+05:30
Vellore,Tamil Nadu,12.9165,79.1325,28.8,54,0.0,985.5,9.5,32.8,86,34.7,29.7,4,5,7,1,2026-04-12T22:12:59.383696+05:30
Erode,Tamil Nadu,11.341,77.7172,31.7,49,0.0,989.2,9.4,29.2,78,18.9,15.8,0,5,7,1,2026-04-12T22:12:59.383703+05:30
Kochi,Kerala,9.9312,76.2673,28.9,82,0.0,1009.6,8.9,28.1,98,49.4,39.9,7,0,4,1,2026-04-12T22:12:59.383710+05:30
Thiruvananthapuram,Kerala,8.5241,76.9366,28.9,81,0.0,1008.9,9.2,21.6,92,42.0,23.5,7,0,4,1,2026-04-12T22:12:59.383717+05:30
Kozhikode,Kerala,11.2588,75.7804,30.2,79,0.0,1008.3,9.1,32.4,92,64.3,32.0,3,0,4,1,2026-04-12T22:12:59.383724+05:30
Thrissur,Kerala,10.5276,76.2144,29.6,82,0.0,1007.6,9.15,32.0,92,57.4,39.1,7,5,4,1,2026-04-12T22:12:59.383731+05:30
Kannur,Kerala,11.8745,75.3704,30.0,78,0.0,1007.7,9.2,31.3,109,77.5,48.8,7,5,4,1,2026-04-12T22:12:59.383739+05:30
Patna,Bihar,25.5941,85.1376,28.3,45,0.0,999.0,8.45,36.4,109,91.7,42.4,4,5,7,0,2026-04-12T22:12:59.383745+05:30
Gaya,Bihar,24.7914,85.0002,28.9,41,0.0,992.5,8.55,26.3,138,98.3,40.7,4,5,7,0,2026-04-12T22:12:59.383752+05:30
Muzaffarpur,Bihar,26.1209,85.3647,26.0,61,0.0,999.1,8.45,34.6,148,75.7,40.5,7,5,7,1,2026-04-12T22:12:59.383759+05:30
Bhagalpur,Bihar,25.2425,87.0117,26.4,69,0.0,999.8,8.5,26.6,141,144.4,59.1,7,5,7,1,2026-04-12T22:12:59.383765+05:30
Ranchi,Jharkhand,23.3441,85.3096,27.3,37,0.0,937.9,9.1,30.6,109,35.5,22.6,4,5,7,0,2026-04-12T22:12:59.383771+05:30
Jamshedpur,Jharkhand,22.8046,86.2029,27.6,58,0.0,989.8,8.9,18.4,113,50.5,26.5,4,5,7,1,2026-04-12T22:12:59.383777+05:30
Dhanbad,Jharkhand,23.7957,86.4304,29.1,39,0.0,979.0,8.85,29.5,122,100.4,76.8,4,5,7,0,2026-04-12T22:12:59.383785+05:30
Bokaro,Jharkhand,23.6693,86.1511,28.5,39,0.0,983.4,8.85,30.2,111,76.8,59.5,4,5,7,0,2026-04-12T22:12:59.383791+05:30
Bhubaneswar,Odisha,20.2961,85.8245,27.5,90,0.0,1003.6,9.05,31.7,97,25.0,20.4,7,5,4,1,2026-04-12T22:12:59.383799+05:30
Cuttack,Odisha,20.4625,85.8828,27.7,89,0.0,1005.3,9.1,33.8,97,25.0,20.4,7,5,4,1,2026-04-12T22:12:59.383805+05:30
Rourkela,Odisha,22.2604,84.8536,29.6,37,0.0,984.0,8.85,17.6,158,54.5,31.9,4,5,7,0,2026-04-12T22:12:59.383811+05:30
Raipur,Chhattisgarh,21.2514,81.6296,30.3,34,0.0,973.5,8.9,19.8,165,50.5,42.8,0,5,7,0,2026-04-12T22:12:59.383817+05:30
Bhilai,Chhattisgarh,21.1938,81.3509,29.7,37,0.0,973.8,8.9,15.8,140,50.1,43.8,4,5,7,0,2026-04-12T22:12:59.383824+05:30
Guwahati,Assam,26.1158,91.7086,22.9,89,0.3,1002.3,8.4,29.9,125,59.3,41.4,6,5,4,1,2026-04-12T22:12:59.383830+05:30
Agartala,Tripura,23.8315,91.2868,25.2,87,0.0,1005.8,8.6,29.5,101,43.7,30.7,7,5,4,1,2026-04-12T22:12:59.383838+05:30
Shillong,Meghalaya,25.5788,91.8933,15.2,73,0.0,856.0,7.05,64.4,113,55.2,37.0,3,5,7,0,2026-04-12T22:12:59.383844+05:30
Imphal,Manipur,24.817,93.9368,18.1,80,0.0,923.9,9.0,61.6,109,87.3,53.6,3,5,7,0,2026-04-12T22:12:59.383850+05:30
Aizawl,Mizoram,23.7271,92.7176,19.4,75,0.0,893.1,8.85,44.3,97,69.2,34.9,3,5,7,0,2026-04-12T22:12:59.383856+05:30
Kohima,Nagaland,25.6701,94.1077,15.0,74,0.0,854.8,8.9,88.9,99,67.1,37.7,3,5,7,0,2026-04-12T22:12:59.383862+05:30
Gangtok,Sikkim,27.3314,88.6138,13.2,84,0.1,836.1,8.65,16.6,135,99.7,40.5,6,10,7,0,2026-04-12T22:12:59.383869+05:30
Siliguri,West Bengal,26.7271,88.3953,21.1,67,0.0,993.8,7.3,21.2,133,130.4,52.4,3,5,7,0,2026-04-12T22:13:02.604539+05:30
Durgapur,West Bengal,23.5204,87.3119,29.3,43,0.0,994.0,8.8,21.2,131,68.7,49.0,4,5,7,0,2026-04-12T22:13:02.604569+05:30
Asansol,West Bengal,23.6739,86.9524,29.5,49,0.0,992.5,8.85,23.4,111,67.5,45.5,4,5,7,1,2026-04-12T22:13:02.604580+05:30
Pondicherry,Puducherry,11.9139,79.8145,26.4,92,0.0,1009.4,9.35,29.5,38,9.9,5.9,7,0,4,1,2026-04-12T22:13:02.604589+05:30
Port Blair,Andaman and Nicobar Islands,11.6234,92.7265,28.9,80,0.0,1007.9,9.25,14.0,55,32.4,16.6,7,5,4,1,2026-04-12T22:13:02.604597+05:30
Haridwar,Uttarakhand,29.9457,78.1642,21.7,63,0.0,975.2,7.0,33.8,126,46.1,24.0,3,5,7,0,2026-04-12T22:13:02.604606+05:30
Rishikesh,Uttarakhand,30.0869,78.2676,18.5,76,0.0,967.8,7.1,34.2,132,48.7,23.0,3,5,7,0,2026-04-12T22:13:02.604613+05:30
Nainital,Uttarakhand,29.3919,79.4542,17.6,48,0.0,806.0,7.95,52.2,121,52.4,22.1,0,5,7,0,2026-04-12T22:13:02.604622+05:30
Mussoorie,Uttarakhand,30.4599,78.0664,14.4,62,0.0,801.8,7.35,37.8,133,46.1,28.4,3,5,7,0,2026-04-12T22:13:02.604628+05:30
Dharamshala,Himachal Pradesh,32.219,76.3234,18.1,59,0.0,869.7,7.7,23.4,111,34.5,15.2,0,5,7,0,2026-04-12T22:13:02.604634+05:30
Dalhousie,Himachal Pradesh,32.5387,75.971,14.7,61,0.0,803.3,7.95,20.5,100,50.4,27.0,3,5,7,0,2026-04-12T22:13:02.604641+05:30
Patiala,Punjab,30.3398,76.3869,22.1,54,0.0,979.8,7.0,32.0,341,469.4,64.3,0,5,7,0,2026-04-12T22:13:02.604647+05:30
Bhatinda,Punjab,30.211,74.9455,24.2,42,0.0,985.2,7.75,32.0,123,41.9,21.2,0,5,7,0,2026-04-12T22:13:02.604654+05:30
Rohtak,Haryana,28.8955,76.6066,23.4,48,0.0,982.9,7.25,36.0,708,1024.5,143.4,0,5,7,0,2026-04-12T22:13:02.604660+05:30
Panipat,Haryana,29.3909,76.9635,22.3,51,0.0,981.5,7.05,33.8,1123,1207.0,161.6,0,5,7,0,2026-04-12T22:13:02.604666+05:30
Mathura,Uttar Pradesh,27.4924,77.6737,25.0,44,0.0,987.5,7.55,28.8,760,1162.3,149.5,4,5,7,0,2026-04-12T22:13:02.604672+05:30
Vrindavan,Uttar Pradesh,27.5823,77.7027,23.4,48,0.0,987.8,7.5,32.0,760,1162.3,149.5,0,5,7,0,2026-04-12T22:13:02.604678+05:30
Ayodhya,Uttar Pradesh,26.7922,82.1998,26.7,39,0.0,994.3,7.9,36.0,113,110.6,34.2,4,5,7,0,2026-04-12T22:13:02.604683+05:30
Ratlam,Madhya Pradesh,23.3315,75.0367,27.6,52,0.0,954.6,8.35,26.6,70,54.5,25.8,4,5,7,1,2026-04-12T22:13:02.604690+05:30
Sagar,Madhya Pradesh,23.8388,78.7378,28.1,34,0.0,949.9,8.5,33.1,96,51.3,20.9,4,5,7,0,2026-04-12T22:13:02.604695+05:30
Satna,Madhya Pradesh,24.6005,80.8322,29.2,38,0.0,971.3,8.5,37.1,113,80.6,25.0,4,5,7,0,2026-04-12T22:13:02.604702+05:30
Akola,Maharashtra,20.7002,77.0082,29.7,47,0.0,974.1,8.75,27.4,135,33.4,22.5,4,5,7,1,2026-04-12T22:13:02.604709+05:30
Amravati,Maharashtra,20.9374,77.7796,28.4,50,0.0,966.1,8.75,20.5,141,36.4,25.9,4,5,7,1,2026-04-12T22:13:02.604715+05:30
Latur,Maharashtra,18.4088,76.5604,29.6,49,0.0,939.2,9.05,24.5,124,34.9,26.7,4,5,7,1,2026-04-12T22:13:02.604721+05:30
Nanded,Maharashtra,19.1383,77.3091,30.6,50,0.0,967.4,8.95,14.8,141,56.6,43.8,0,5,7,1,2026-04-12T22:13:02.604727+05:30
Gulbarga,Karnataka,17.3297,76.8343,33.6,39,0.0,957.9,9.1,28.4,143,34.5,28.6,0,5,7,1,2026-04-12T22:13:02.604733+05:30
Bidar,Karnataka,17.9104,77.5199,31.5,51,0.0,935.4,9.1,26.6,123,38.4,30.7,0,5,7,1,2026-04-12T22:13:02.604739+05:30
Hospet,Karnataka,15.2689,76.3909,32.4,61,0.0,955.3,9.3,24.8,152,55.6,45.8,3,5,7,1,2026-04-12T22:13:02.604745+05:30
Tirupur,Tamil Nadu,11.1085,77.3411,29.8,64,0.0,976.2,9.5,29.2,92,25.9,21.6,7,5,7,1,2026-04-12T22:13:02.604751+05:30
Alappuzha,Kerala,9.4981,76.3388,28.7,83,0.0,1009.8,8.8,24.5,97,46.8,30.3,7,0,4,1,2026-04-12T22:13:02.604758+05:30
Munnar,Kerala,10.0889,77.0595,22.9,91,0.0,858.4,9.75,30.6,89,39.8,33.8,3,5,7,1,2026-04-12T22:13:02.604765+05:30
Silchar,Assam,24.8333,92.7789,24.1,85,0.0,1005.2,8.65,41.0,146,92.7,71.7,3,5,4,1,2026-04-12T22:13:02.604771+05:30
Dibrugarh,Assam,27.4728,94.912,21.7,75,0.0,997.3,7.65,32.0,94,37.5,30.4,3,5,7,1,2026-04-12T22:13:02.604777+05:30
