city,state,latitude,longitude,temp,humidity,rain,pressure,uv_index,wind_gusts,aqi,pm10,pm2_5,no2,co,o3,so2,mosquito_risk,arthritis_risk,migraine_risk,frizz_risk,updated_at
Delhi,Delhi,28.6139,77.209,35.0,31,0.0,984.7,7.55,34.2,184,339.9,62.2,5.5,400.0,234.0,30.0,0,5,7,0,2026-05-09T12:38:52.478120+05:30
Mumbai,Maharashtra,19.076,72.8777,36.4,53,0.0,1007.0,7.85,47.9,88,65.7,38.8,9.8,293.0,205.0,27.3,0,5,7,1,2026-05-09T12:38:52.478170+05:30
Bangalore,Karnataka,12.9716,77.5946,32.0,36,0.0,911.7,9.5,44.3,48,6.4,5.7,2.7,201.0,80.0,4.0,0,5,7,0,2026-05-09T12:38:52.478185+05:30
Hyderabad,Telangana,17.385,78.4867,35.0,27,0.0,954.4,9.1,33.8,50,16.3,11.1,1.7,243.0,143.0,4.1,0,5,7,0,2026-05-09T12:38:52.478199+05:30
Chennai,Tamil Nadu,13.0827,80.2707,30.8,66,0.0,1006.5,8.2,39.6,22,4.2,3.1,1.8,138.0,57.0,4.8,3,5,4,1,2026-05-09T12:38:52.478207+05:30
Kolkata,West Bengal,22.5726,88.3639,32.0,61,0.0,1007.4,8.9,22.0,138,44.4,35.6,2.8,467.0,226.0,15.8,3,5,4,1,2026-05-09T12:38:52.478215+05:30
Pune,Maharashtra,18.5204,73.8567,37.3,23,0.0,948.9,8.5,35.6,92,53.4,30.6,1.2,233.0,176.0,7.7,0,5,10,0,2026-05-09T12:38:52.478223+05:30
Ahmedabad,Gujarat,23.0225,72.5714,40.8,19,0.0,1001.7,8.1,33.8,69,37.0,13.4,1.8,200.0,134.0,4.2,0,5,7,0,2026-05-09T12:38:52.478232+05:30
Jaipur,Rajasthan,26.9124,75.7873,36.0,26,0.0,960.9,8.15,28.8,180,186.7,38.6,1.2,258.0,182.0,8.6,0,5,10,0,2026-05-09T12:38:52.478240+05:30
Lucknow,Uttar Pradesh,26.8467,80.9462,32.2,44,0.0,995.1,7.95,36.4,101,65.4,36.6,1.4,304.0,192.0,10.9,0,5,7,1,2026-05-09T12:38:52.478247+05:30
Kanpur,Uttar Pradesh,26.4499,80.3319,34.6,34,0.0,992.5,8.05,38.5,169,235.2,49.5,1.6,336.0,202.0,12.3,0,5,7,1,2026-05-09T12:38:52.478254+05:30
Chandigarh,Chandigarh,30.7333,76.7794,33.5,32,0.0,971.3,7.6,31.7,88,165.8,39.6,1.6,257.0,206.0,11.8,0,5,7,0,2026-05-09T12:38:52.478261+05:30
Srinagar,Jammu and Kashmir,34.0837,74.7973,23.7,39,0.0,845.9,8.9,18.0,95,48.2,12.3,1.2,253.0,158.0,1.6,0,5,7,0,2026-05-09T12:38:52.478269+05:30
Jammu,Jammu and Kashmir,32.7266,74.857,34.3,33,0.0,974.8,8.4,29.9,152,171.4,48.4,0.9,286.0,196.0,9.3,0,5,7,0,2026-05-09T12:38:52.478276+05:30
Amritsar,Punjab,31.634,74.8723,35.6,30,0.0,982.5,8.3,24.8,140,434.9,80.3,1.5,289.0,207.0,15.7,0,5,10,0,2026-05-09T12:38:52.478282+05:30
Ludhiana,Punjab,30.901,75.8573,35.2,31,0.0,980.7,7.9,32.4,137,482.4,72.2,1.1,274.0,204.0,9.9,0,5,10,0,2026-05-09T12:38:52.478289+05:30
Jalandhar,Punjab,31.326,75.5762,34.8,32,0.0,981.7,8.05,25.9,143,407.9,67.8,1.1,301.0,202.0,9.9,0,5,7,0,2026-05-09T12:38:52.478295+05:30
Dehradun,Uttarakhand,30.6284,78.0322,20.3,54,0.0,834.4,8.0,28.1,52,25.4,11.0,0.8,216.0,160.0,1.9,0,5,7,0,2026-05-09T12:38:52.478303+05:30
Shimla,Himachal Pradesh,31.1048,77.1734,20.4,44,0.0,789.2,8.05,34.2,71,71.2,26.0,1.1,222.0,189.0,11.7,0,5,7,0,2026-05-09T12:38:52.478309+05:30
Manali,Himachal Pradesh,32.2396,77.1887,22.5,24,0.0,820.9,10.15,39.2,95,33.1,6.3,0.3,129.0,158.0,0.1,0,5,7,0,2026-05-09T12:38:52.478316+05:30
Gurgaon,Haryana,28.4595,77.0266,34.7,31,0.0,983.1,7.65,27.4,1102,784.2,95.0,3.4,361.0,207.0,18.0,0,5,7,0,2026-05-09T12:38:52.478322+05:30
Noida,Uttar Pradesh,28.5355,77.391,34.2,36,0.0,986.2,7.6,29.5,1102,784.2,95.0,3.4,346.0,207.0,18.0,0,5,7,1,2026-05-09T12:38:52.478328+05:30
Ghaziabad,Uttar Pradesh,28.6692,77.4538,34.0,35,0.0,984.6,7.55,27.4,128,196.0,38.3,2.0,304.0,196.0,10.8,0,5,7,1,2026-05-09T12:38:52.478335+05:30
Faridabad,Haryana,28.4089,77.3178,33.8,34,0.0,985.4,7.6,37.1,1102,784.2,95.0,3.4,321.0,207.0,18.0,0,5,7,0,2026-05-09T12:38:52.478341+05:30
Meerut,Uttar Pradesh,28.9845,77.7064,32.3,42,0.0,983.8,7.45,27.7,128,196.0,38.3,2.0,308.0,196.0,10.8,0,5,7,1,2026-05-09T12:38:52.478346+05:30
Agra,Uttar Pradesh,27.1767,78.0081,34.2,39,0.0,988.7,7.9,28.8,819,512.2,66.8,1.5,316.0,193.0,10.8,0,5,7,1,2026-05-09T12:38:52.478352+05:30
Varanasi,Uttar Pradesh,25.3176,82.9739,34.5,37,0.0,998.0,8.35,36.4,116,69.2,41.2,1.9,344.0,216.0,16.7,0,5,7,1,2026-05-09T12:38:52.478359+05:30
Prayagraj,Uttar Pradesh,25.4358,81.8463,35.2,33,0.0,996.3,8.3,46.4,118,68.5,40.7,2.1,388.0,211.0,14.2,0,5,10,1,2026-05-09T12:38:52.478366+05:30
Gorakhpur,Uttar Pradesh,26.7606,83.3732,30.6,50,0.0,1000.4,8.4,37.4,100,60.5,39.6,1.4,353.0,195.0,9.7,0,5,4,1,2026-05-09T12:38:52.478372+05:30
Bareilly,Uttar Pradesh,28.367,79.4304,32.2,42,0.0,989.2,7.55,33.5,83,88.0,24.9,1.5,280.0,188.0,8.4,0,5,7,1,2026-05-09T12:38:52.478378+05:30
Aligarh,Uttar Pradesh,27.8974,78.088,33.5,35,0.0,987.3,7.7,29.2,480,340.9,49.5,1.5,314.0,189.0,12.2,0,5,7,1,2026-05-09T12:38:52.478384+05:30
Moradabad,Uttar Pradesh,28.8386,78.7733,31.8,43,0.0,986.2,7.65,32.8,87,53.3,22.7,1.8,295.0,199.0,14.5,0,5,7,1,2026-05-09T12:38:52.478390+05:30
Saharanpur,Uttar Pradesh,29.9637,77.546,31.6,40,0.0,978.4,7.3,31.0,106,91.7,27.9,1.0,282.0,192.0,9.8,0,5,7,1,2026-05-09T12:38:52.478396+05:30
Jhansi,Uttar Pradesh,25.4484,78.5685,35.8,32,0.0,978.0,8.3,52.2,96,50.9,30.6,2.0,264.0,197.0,22.7,0,5,10,1,2026-05-09T12:38:55.811434+05:30
Surat,Gujarat,21.1702,72.8311,41.0,20,0.0,1006.0,7.7,34.9,100,65.2,41.3,36.5,179.0,98.0,102.5,0,5,7,0,2026-05-09T12:38:55.811465+05:30
Vadodara,Gujarat,22.3072,73.1812,41.5,18,0.0,1003.6,8.05,31.0,75,38.0,16.9,3.1,250.0,171.0,11.2,0,5,7,0,2026-05-09T12:38:55.811475+05:30
Rajkot,Gujarat,22.3039,70.8022,40.2,21,0.0,994.4,7.7,45.4,55,50.4,15.6,1.3,154.0,130.0,6.2,0,5,10,0,2026-05-09T12:38:55.811484+05:30
Thane,Maharashtra,19.2183,72.9781,42.0,17,0.0,1005.9,7.85,43.2,88,65.7,38.8,9.8,198.0,205.0,27.3,0,5,7,0,2026-05-09T12:38:55.811492+05:30
Nagpur,Maharashtra,21.1458,79.0882,36.8,30,0.0,974.1,8.9,47.9,106,58.3,24.5,4.4,230.0,193.0,21.7,0,5,10,1,2026-05-09T12:38:55.811500+05:30
Nashik,Maharashtra,19.9975,73.7898,38.6,14,0.0,946.5,8.15,51.5,82,53.8,22.1,1.2,197.0,164.0,10.6,0,5,10,0,2026-05-09T12:38:55.811508+05:30
Aurangabad,Maharashtra,19.8762,75.3433,38.8,15,0.0,945.0,9.05,31.0,105,57.6,31.1,0.9,230.0,171.0,8.4,0,5,10,0,2026-05-09T12:38:55.811515+05:30
Solapur,Maharashtra,17.6599,75.9064,37.7,26,0.0,957.8,9.05,31.3,69,28.8,18.2,1.2,209.0,165.0,5.4,0,5,10,0,2026-05-09T12:38:55.811524+05:30
Kolhapur,Maharashtra,16.705,74.2433,37.3,26,0.0,948.5,8.85,37.8,140,29.0,20.0,1.0,216.0,154.0,3.5,0,5,10,0,2026-05-09T12:38:55.811531+05:30
Goa,Goa,15.2993,74.124,40.0,26,0.0,995.7,8.65,51.1,87,33.2,20.1,1.2,203.0,141.0,3.4,0,5,10,1,2026-05-09T12:38:55.811539+05:30
Jodhpur,Rajasthan,26.2389,73.0243,40.8,17,0.0,983.0,8.35,41.4,115,138.3,27.8,0.7,162.0,127.0,2.3,0,5,10,0,2026-05-09T12:38:55.811546+05:30
Udaipur,Rajasthan,24.5854,73.7125,38.0,14,0.0,948.0,8.8,44.3,47,43.7,11.4,0.6,143.0,136.0,3.3,0,5,10,0,2026-05-09T12:38:55.811554+05:30
Kota,Rajasthan,25.2138,75.8648,39.0,20,0.0,978.5,8.35,45.4,65,46.7,17.1,1.2,253.0,164.0,8.1,0,5,10,0,2026-05-09T12:38:55.811562+05:30
Bikaner,Rajasthan,28.0229,73.3119,39.2,18,0.0,982.5,8.3,25.9,93,172.8,40.2,0.6,248.0,181.0,10.7,0,5,10,0,2026-05-09T12:38:55.811569+05:30
Ajmer,Rajasthan,26.4499,74.6399,37.6,19,0.0,955.8,8.3,47.2,77,132.2,30.0,0.9,248.0,153.0,6.1,0,5,10,0,2026-05-09T12:38:55.811576+05:30
Gwalior,Madhya Pradesh,26.2183,78.1828,34.8,35,0.0,983.4,8.1,28.8,91,82.9,29.7,0.9,306.0,184.0,9.5,0,5,7,1,2026-05-09T12:38:55.811583+05:30
Indore,Madhya Pradesh,22.7196,75.8577,39.8,10,0.0,949.0,8.65,50.4,71,59.8,11.8,0.9,176.0,141.0,3.3,0,5,10,0,2026-05-09T12:38:55.811591+05:30
Bhopal,Madhya Pradesh,23.2599,77.4126,39.5,12,0.0,954.1,8.65,45.4,74,58.9,15.3,0.6,181.0,151.0,4.5,0,5,10,0,2026-05-09T12:38:55.811598+05:30
Jabalpur,Madhya Pradesh,23.1815,79.9864,39.0,17,0.0,961.7,8.8,38.2,99,39.2,13.8,0.7,193.0,161.0,5.1,0,5,10,0,2026-05-09T12:38:55.811605+05:30
Ujjain,Madhya Pradesh,23.1765,75.7885,40.0,11,0.0,954.4,8.55,48.6,71,62.4,12.0,0.8,155.0,138.0,3.9,0,5,10,0,2026-05-09T12:38:55.811612+05:30
Visakhapatnam,Andhra Pradesh,17.6868,83.2185,33.8,51,0.0,1004.0,9.15,35.3,74,22.6,18.0,22.2,565.0,57.0,28.3,0,5,4,1,2026-05-09T12:38:55.811620+05:30
Vijayawada,Andhra Pradesh,16.5062,80.648,36.7,37,0.0,1002.2,9.2,38.9,45,10.3,8.8,1.3,155.0,97.0,4.9,0,5,7,1,2026-05-09T12:38:55.811627+05:30
Guntur,Andhra Pradesh,16.3067,80.4365,37.4,35,0.0,1003.1,9.2,33.1,44,11.7,9.7,1.2,152.0,106.0,4.3,0,5,7,1,2026-05-09T12:38:55.811633+05:30
Nellore,Andhra Pradesh,14.4426,79.9865,33.8,53,0.1,1005.4,9.2,40.0,23,5.9,4.2,0.9,121.0,63.0,1.9,3,5,4,1,2026-05-09T12:38:55.811641+05:30
Kurnool,Andhra Pradesh,15.8281,78.0373,38.4,24,0.0,976.3,9.15,38.5,30,10.9,7.5,0.7,184.0,109.0,1.2,0,5,10,0,2026-05-09T12:38:55.811647+05:30
Kakinada,Andhra Pradesh,16.9891,82.2475,32.5,58,0.0,1007.7,9.15,36.4,28,12.2,8.9,2.7,132.0,79.0,3.2,0,5,4,1,2026-05-09T12:38:55.811653+05:30
Tirupati,Andhra Pradesh,13.6288,79.4192,35.0,43,0.0,990.0,7.35,39.2,31,4.3,3.2,0.7,134.0,67.0,0.8,0,5,7,1,2026-05-09T12:38:55.811659+05:30
Warangal,Telangana,17.9689,79.5941,36.0,35,0.0,979.7,9.15,32.4,52,18.2,14.0,1.4,224.0,141.0,6.6,0,5,10,1,2026-05-09T12:38:55.811665+05:30
Nizamabad,Telangana,18.6725,78.0941,36.5,29,0.0,965.7,9.15,35.6,66,25.3,15.2,1.1,212.0,162.0,2.9,0,5,10,0,2026-05-09T12:38:55.811670+05:30
Mysore,Karnataka,12.2958,76.6396,31.4,47,0.0,928.0,9.4,38.9,58,10.4,9.2,1.7,179.0,103.0,4.7,0,5,7,1,2026-05-09T12:38:55.811676+05:30
Mangalore,Karnataka,12.9141,74.856,30.6,75,0.0,1005.3,7.9,38.2,86,34.6,25.9,1.8,236.0,146.0,3.5,3,5,4,1,2026-05-09T12:38:55.811683+05:30
Hubli-Dharwad,Karnataka,15.3647,75.124,36.5,23,0.0,941.1,9.2,43.6,53,14.3,10.1,1.4,184.0,141.0,2.9,0,5,10,0,2026-05-09T12:38:55.811689+05:30
Belgaum,Karnataka,15.8497,74.4977,35.7,25,0.0,926.8,9.15,41.4,81,25.6,17.4,1.5,199.0,156.0,4.2,0,5,10,0,2026-05-09T12:38:59.151375+05:30
Coimbatore,Tamil Nadu,11.0168,76.9558,31.6,53,0.0,960.4,7.75,24.8,64,16.2,13.4,1.3,181.0,117.0,5.1,0,5,7,1,2026-05-09T12:38:59.151405+05:30
Madurai,Tamil Nadu,9.9252,78.1198,28.4,73,0.0,991.7,5.5,40.3,69,11.5,10.9,2.1,194.0,96.0,8.5,7,5,3,1,2026-05-09T12:38:59.151416+05:30
Trichy,Tamil Nadu,10.7905,78.7047,29.5,72,0.1,998.6,3.2,33.8,42,10.5,10.1,4.9,180.0,75.0,13.2,10,5,3,1,2026-05-09T12:38:59.151425+05:30
Salem,Tamil Nadu,11.6643,78.146,32.2,55,0.0,975.7,8.25,31.7,51,11.3,10.6,3.3,176.0,94.0,12.4,0,5,7,1,2026-05-09T12:38:59.151434+05:30
Tirunelveli,Tamil Nadu,8.7139,77.7567,32.3,57,0.0,1001.8,4.35,25.2,56,12.7,11.7,1.4,165.0,95.0,4.7,0,5,0,1,2026-05-09T12:38:59.151442+05:30
Vellore,Tamil Nadu,12.9165,79.1325,34.0,47,0.0,983.1,6.85,48.2,48,8.0,7.5,1.9,135.0,83.0,5.3,0,5,7,1,2026-05-09T12:38:59.151450+05:30
Erode,Tamil Nadu,11.341,77.7172,32.3,55,0.0,987.3,8.1,36.4,61,13.9,12.9,1.9,189.0,121.0,8.5,0,5,7,1,2026-05-09T12:38:59.151458+05:30
Kochi,Kerala,9.9312,76.2673,29.6,74,0.0,1007.0,8.1,32.0,75,18.3,17.1,1.9,257.0,168.0,3.2,7,5,4,1,2026-05-09T12:38:59.151466+05:30
Thiruvananthapuram,Kerala,8.5241,76.9366,25.2,92,0.0,1007.3,4.85,28.4,49,8.4,6.7,1.0,227.0,127.0,1.2,7,5,0,1,2026-05-09T12:38:59.151474+05:30
Kozhikode,Kerala,11.2588,75.7804,30.6,75,0.0,1005.9,8.3,37.4,66,16.6,14.5,0.8,289.0,132.0,2.6,3,5,4,1,2026-05-09T12:38:59.151481+05:30
Thrissur,Kerala,10.5276,76.2144,31.4,68,0.0,1005.0,8.15,34.6,78,20.3,18.7,1.4,223.0,140.0,4.8,3,5,4,1,2026-05-09T12:38:59.151489+05:30
Kannur,Kerala,11.8745,75.3704,31.1,68,0.0,1005.4,8.65,39.2,73,18.3,13.9,1.2,276.0,122.0,1.7,3,5,4,1,2026-05-09T12:38:59.151497+05:30
Patna,Bihar,25.5941,85.1376,31.2,54,0.0,1002.3,8.4,32.0,137,59.4,49.2,2.5,371.0,220.0,24.8,0,5,4,1,2026-05-09T12:38:59.151504+05:30
Gaya,Bihar,24.7914,85.0002,33.7,40,0.0,995.0,8.5,33.5,122,59.8,42.4,2.4,342.0,231.0,27.6,0,5,7,1,2026-05-09T12:38:59.151511+05:30
Muzaffarpur,Bihar,26.1209,85.3647,30.5,55,0.0,1002.9,8.65,34.9,146,58.7,48.7,2.3,330.0,210.0,19.5,0,5,4,1,2026-05-09T12:38:59.151518+05:30
Bhagalpur,Bihar,25.2425,87.0117,32.2,51,0.0,1003.3,8.7,30.6,150,53.1,42.8,3.2,352.0,214.0,10.2,0,5,4,1,2026-05-09T12:38:59.151525+05:30
Ranchi,Jharkhand,23.3441,85.3096,31.2,36,0.0,939.9,9.2,29.2,114,48.7,27.5,1.6,229.0,199.0,21.3,0,5,7,0,2026-05-09T12:38:59.151533+05:30
Jamshedpur,Jharkhand,22.8046,86.2029,33.2,45,0.0,992.5,8.85,31.7,88,44.1,33.1,2.6,432.0,210.0,24.0,0,5,7,1,2026-05-09T12:38:59.151540+05:30
Dhanbad,Jharkhand,23.7957,86.4304,31.9,50,0.0,981.9,8.95,35.6,145,60.5,51.9,23.7,299.0,193.0,69.9,0,5,7,1,2026-05-09T12:38:59.151548+05:30
Bokaro,Jharkhand,23.6693,86.1511,33.3,43,0.0,985.4,8.95,38.2,142,56.6,45.6,17.9,1360.0,214.0,62.1,0,5,7,1,2026-05-09T12:38:59.151555+05:30
Bhubaneswar,Odisha,20.2961,85.8245,34.3,49,0.0,1003.7,9.1,31.7,46,15.3,10.1,1.3,194.0,118.0,4.2,0,5,4,1,2026-05-09T12:38:59.151562+05:30
Cuttack,Odisha,20.4625,85.8828,34.5,49,0.0,1005.4,9.15,43.2,46,15.3,10.1,1.3,212.0,118.0,4.2,0,5,4,1,2026-05-09T12:38:59.151569+05:30
Rourkela,Odisha,22.2604,84.8536,34.6,38,0.0,986.4,8.9,49.3,100,39.0,25.4,1.6,228.0,197.0,29.0,0,5,7,1,2026-05-09T12:38:59.151576+05:30
Raipur,Chhattisgarh,21.2514,81.6296,37.5,21,0.0,975.4,8.95,60.5,112,29.8,17.5,3.4,448.0,198.0,4.1,0,5,10,0,2026-05-09T12:38:59.151584+05:30
Bhilai,Chhattisgarh,21.1938,81.3509,36.2,27,0.0,976.1,8.95,42.8,110,32.4,17.2,3.9,477.0,181.0,4.2,0,5,10,0,2026-05-09T12:38:59.151591+05:30
Guwahati,Assam,26.1158,91.7086,30.8,58,0.0,1002.7,8.65,25.2,111,34.7,22.6,0.7,328.0,145.0,1.7,0,5,4,1,2026-05-09T12:38:59.151598+05:30
Agartala,Tripura,23.8315,91.2868,32.0,52,0.0,1006.9,8.8,20.2,152,55.8,40.3,3.8,341.0,221.0,5.1,0,5,4,1,2026-05-09T12:38:59.151605+05:30
Shillong,Meghalaya,25.5788,91.8933,22.7,55,0.1,859.9,8.4,24.5,76,33.1,21.0,0.9,250.0,141.0,1.6,3,5,7,0,2026-05-09T12:38:59.151612+05:30
Imphal,Manipur,24.817,93.9368,28.5,48,0.0,925.1,9.2,28.1,93,31.5,16.8,0.6,217.0,143.0,2.2,4,5,7,1,2026-05-09T12:38:59.151619+05:30
Aizawl,Mizoram,23.7271,92.7176,28.3,35,0.0,894.8,9.0,24.8,78,44.9,18.3,0.4,226.0,144.0,2.4,4,5,7,0,2026-05-09T12:38:59.151626+05:30
Kohima,Nagaland,25.6701,94.1077,24.5,58,0.0,858.4,9.15,28.8,78,28.1,17.5,0.6,243.0,141.0,1.4,0,5,7,0,2026-05-09T12:38:59.151632+05:30
Gangtok,Sikkim,27.3314,88.6138,18.6,59,0.0,840.4,8.95,35.3,70,23.5,13.0,0.3,203.0,135.0,1.0,0,5,7,0,2026-05-09T12:38:59.151638+05:30
Siliguri,West Bengal,26.7271,88.3953,29.4,56,0.0,995.4,8.55,26.3,119,34.7,21.2,0.6,265.0,153.0,1.6,4,5,7,1,2026-05-09T12:39:02.514783+05:30
Durgapur,West Bengal,23.5204,87.3119,30.8,63,0.0,997.1,8.9,42.8,141,45.8,38.9,13.5,236.0,170.0,45.7,3,5,7,1,2026-05-09T12:39:02.514815+05:30
Asansol,West Bengal,23.6739,86.9524,31.6,57,0.0,995.5,8.95,47.2,128,47.4,40.3,13.7,531.0,172.0,48.1,0,5,7,1,2026-05-09T12:39:02.514825+05:30
Pondicherry,Puducherry,11.9139,79.8145,27.7,83,0.1,1007.5,3.25,38.2,25,4.9,3.6,1.4,122.0,64.0,0.7,10,5,0,1,2026-05-09T12:39:02.514834+05:30
Port Blair,Andaman and Nicobar Islands,11.6234,92.7265,27.0,86,0.1,1006.2,8.1,43.6,28,3.3,2.3,0.3,126.0,58.0,0.1,10,5,4,1,2026-05-09T12:39:02.514842+05:30
Haridwar,Uttarakhand,29.9457,78.1642,32.2,39,0.0,976.6,7.4,28.1,86,45.3,20.5,1.1,257.0,189.0,7.7,0,5,7,1,2026-05-09T12:39:02.514883+05:30
Rishikesh,Uttarakhand,30.0869,78.2676,30.5,41,0.0,969.5,7.5,26.6,69,35.6,16.8,0.9,248.0,179.0,5.0,0,5,7,0,2026-05-09T12:39:02.514900+05:30
Nainital,Uttarakhand,29.3919,79.4542,18.1,63,0.1,809.3,7.95,30.2,64,31.2,13.4,0.8,250.0,154.0,2.2,6,5,7,0,2026-05-09T12:39:02.514909+05:30
Mussoorie,Uttarakhand,30.4599,78.0664,18.8,57,0.0,806.9,7.85,40.0,76,40.3,17.7,1.2,231.0,176.0,4.7,0,5,7,0,2026-05-09T12:39:02.514917+05:30
Dharamshala,Himachal Pradesh,32.219,76.3234,22.5,65,0.0,872.7,8.25,37.4,67,59.0,21.8,0.6,259.0,163.0,3.2,3,5,7,0,2026-05-09T12:39:02.514925+05:30
Dalhousie,Himachal Pradesh,32.5387,75.971,20.6,57,0.0,809.2,8.55,34.6,118,104.5,40.2,1.1,260.0,194.0,8.2,0,5,7,0,2026-05-09T12:39:02.514934+05:30
Patiala,Punjab,30.3398,76.3869,34.6,31,0.0,980.3,7.5,29.2,242,597.9,82.0,2.1,259.0,217.0,18.6,0,5,7,0,2026-05-09T12:39:02.514942+05:30
Bhatinda,Punjab,30.211,74.9455,37.0,28,0.0,985.3,8.2,25.6,564,532.7,94.5,2.4,272.0,208.0,23.5,0,5,10,0,2026-05-09T12:39:02.514949+05:30
Rohtak,Haryana,28.8955,76.6066,35.5,29,0.0,983.4,7.6,27.0,466,549.5,85.7,2.6,341.0,229.0,22.9,0,5,10,0,2026-05-09T12:39:02.514957+05:30
Panipat,Haryana,29.3909,76.9635,33.9,35,0.0,982.5,7.45,31.0,665,566.2,86.4,3.9,301.0,229.0,30.6,0,5,7,1,2026-05-09T12:39:02.514964+05:30
Mathura,Uttar Pradesh,27.4924,77.6737,34.8,34,0.0,987.9,7.85,27.0,772,501.1,63.1,1.2,313.0,187.0,7.7,0,5,7,1,2026-05-09T12:39:02.514971+05:30
Vrindavan,Uttar Pradesh,27.5823,77.7027,35.1,32,0.0,988.4,7.8,27.4,772,501.1,63.1,1.2,313.0,187.0,7.7,0,5,10,0,2026-05-09T12:39:02.514979+05:30
Ayodhya,Uttar Pradesh,26.7922,82.1998,29.6,56,0.0,997.8,8.15,38.9,88,61.2,36.0,1.2,345.0,190.0,9.3,4,5,7,1,2026-05-09T12:39:02.514986+05:30
Ratlam,Madhya Pradesh,23.3315,75.0367,39.7,12,0.0,955.8,8.5,40.7,57,65.7,11.9,0.6,147.0,136.0,3.2,0,5,10,0,2026-05-09T12:39:02.514993+05:30
Sagar,Madhya Pradesh,23.8388,78.7378,38.2,15,0.0,950.7,8.6,44.6,93,30.0,10.7,0.5,171.0,153.0,5.3,0,5,10,0,2026-05-09T12:39:02.515000+05:30
Satna,Madhya Pradesh,24.6005,80.8322,35.3,23,0.0,971.9,8.65,38.5,106,58.7,25.3,1.4,221.0,193.0,11.4,0,5,10,0,2026-05-09T12:39:02.515007+05:30
Akola,Maharashtra,20.7002,77.0082,40.3,18,0.0,974.8,8.85,38.2,77,57.9,26.3,1.3,213.0,178.0,11.7,0,5,10,0,2026-05-09T12:39:02.515014+05:30
Amravati,Maharashtra,20.9374,77.7796,39.0,22,0.0,967.7,8.85,34.6,79,52.9,23.5,1.5,214.0,177.0,6.5,0,5,10,0,2026-05-09T12:39:02.515021+05:30
Latur,Maharashtra,18.4088,76.5604,37.0,24,0.0,941.2,9.05,46.8,73,34.2,20.7,0.9,209.0,166.0,6.4,0,5,10,0,2026-05-09T12:39:02.515027+05:30
Nanded,Maharashtra,19.1383,77.3091,38.5,23,0.0,969.1,9.0,31.3,72,32.8,19.7,0.9,216.0,169.0,4.7,0,5,10,0,2026-05-09T12:39:02.515033+05:30
Gulbarga,Karnataka,17.3297,76.8343,37.0,26,0.0,959.5,8.8,34.6,58,19.1,12.3,1.4,207.0,156.0,4.2,0,5,10,0,2026-05-09T12:39:02.515039+05:30
Bidar,Karnataka,17.9104,77.5199,35.8,27,0.0,937.1,8.85,34.6,63,22.3,13.3,1.1,206.0,157.0,2.6,0,5,10,0,2026-05-09T12:39:02.515045+05:30
Hospet,Karnataka,15.2689,76.3909,35.2,30,0.0,955.6,9.2,36.0,46,12.8,9.8,4.2,182.0,122.0,8.6,0,5,10,0,2026-05-09T12:39:02.515051+05:30
Tirupur,Tamil Nadu,11.1085,77.3411,32.8,52,0.1,973.9,8.05,29.9,79,16.0,14.1,1.6,175.0,126.0,6.4,3,5,7,1,2026-05-09T12:39:02.515057+05:30
Alappuzha,Kerala,9.4981,76.3388,27.4,87,0.0,1007.8,8.15,31.0,71,14.7,13.7,2.1,204.0,154.0,4.9,7,5,4,1,2026-05-09T12:39:02.515063+05:30
Munnar,Kerala,10.0889,77.0595,21.3,83,0.1,856.7,4.95,24.1,52,11.5,10.0,1.1,163.0,97.0,2.5,6,5,3,1,2026-05-09T12:39:02.515069+05:30
Silchar,Assam,24.8333,92.7789,33.4,43,0.0,1004.8,8.7,16.9,121,46.4,24.9,0.9,267.0,160.0,4.3,0,5,4,1,2026-05-09T12:39:02.515074+05:30
Dibrugarh,Assam,27.4728,94.912,31.4,55,0.0,996.7,8.7,19.4,101,31.8,22.1,1.1,246.0,159.0,1.9,0,5,7,1,2026-05-09T12:39:02.515080+05:30
