city,state,latitude,longitude,temp,humidity,rain,pressure,uv_index,wind_gusts,aqi,pm10,pm2_5,no2,co,o3,so2,mosquito_risk,arthritis_risk,migraine_risk,frizz_risk,updated_at
Delhi,Delhi,28.6139,77.209,29.5,59,0.0,979.4,7.65,51.5,246,192.3,77.5,42.3,835.0,72.0,27.4,4,5,7,1,2026-05-13T00:28:02.437670+05:30
Mumbai,Maharashtra,19.076,72.8777,29.8,81,0.0,1004.6,7.9,47.5,87,40.2,19.8,11.4,287.0,72.0,12.1,7,5,4,1,2026-05-13T00:28:02.437717+05:30
Bangalore,Karnataka,12.9716,77.5946,25.5,63,0.0,910.1,8.95,43.6,73,27.6,20.7,24.8,401.0,68.0,8.0,7,5,7,1,2026-05-13T00:28:02.437741+05:30
Hyderabad,Telangana,17.385,78.4867,28.5,63,0.0,951.5,8.7,29.5,82,34.1,25.6,12.6,380.0,93.0,8.2,7,5,7,1,2026-05-13T00:28:02.437752+05:30
Chennai,Tamil Nadu,13.0827,80.2707,29.1,77,0.0,1004.4,9.2,43.9,27,8.4,6.6,9.1,135.0,38.0,2.2,7,5,4,1,2026-05-13T00:28:02.437762+05:30
Kolkata,West Bengal,22.5726,88.3639,26.6,85,0.0,1005.0,8.95,31.0,81,27.5,24.3,13.7,293.0,34.0,6.3,7,5,4,1,2026-05-13T00:28:02.437772+05:30
Pune,Maharashtra,18.5204,73.8567,29.1,51,0.0,945.2,8.5,56.5,121,32.8,19.9,16.0,283.0,102.0,20.2,4,5,7,1,2026-05-13T00:28:02.437780+05:30
Ahmedabad,Gujarat,23.0225,72.5714,35.9,21,0.0,997.6,8.15,30.2,63,61.5,45.1,44.4,250.0,45.0,22.9,0,5,10,0,2026-05-13T00:28:02.437792+05:30
Jaipur,Rajasthan,26.9124,75.7873,30.4,43,0.0,956.7,8.2,51.5,158,380.0,78.0,8.4,417.0,117.0,8.8,0,5,7,1,2026-05-13T00:28:02.437801+05:30
Lucknow,Uttar Pradesh,26.8467,80.9462,29.8,55,0.0,990.8,8.15,25.2,136,62.9,48.2,11.3,492.0,122.0,12.0,4,5,7,1,2026-05-13T00:28:02.437809+05:30
Kanpur,Uttar Pradesh,26.4499,80.3319,31.0,51,0.0,988.6,8.15,28.8,149,393.0,74.3,8.0,471.0,128.0,10.6,0,5,7,1,2026-05-13T00:28:02.437817+05:30
Chandigarh,Chandigarh,30.7333,76.7794,22.9,77,0.0,964.9,7.65,43.2,129,71.2,52.2,37.7,1373.0,47.0,14.5,3,5,7,1,2026-05-13T00:28:02.437825+05:30
Srinagar,Jammu and Kashmir,34.0837,74.7973,11.5,93,0.0,841.5,8.85,28.1,91,36.8,26.2,15.9,469.0,74.0,1.7,3,10,7,0,2026-05-13T00:28:02.437833+05:30
Jammu,Jammu and Kashmir,32.7266,74.857,22.7,62,0.0,969.4,8.45,50.8,117,85.0,56.2,30.6,609.0,53.0,5.7,3,5,7,0,2026-05-13T00:28:02.437841+05:30
Amritsar,Punjab,31.634,74.8723,26.0,67,0.0,977.4,8.35,43.2,153,103.8,61.5,11.8,647.0,97.0,8.6,7,5,7,1,2026-05-13T00:28:02.437848+05:30
Ludhiana,Punjab,30.901,75.8573,27.1,63,0.0,975.2,7.95,28.8,158,116.9,92.0,28.4,736.0,79.0,26.8,7,5,7,1,2026-05-13T00:28:02.437856+05:30
Jalandhar,Punjab,31.326,75.5762,26.0,68,0.0,976.1,8.1,27.0,154,99.2,64.5,18.8,672.0,81.0,12.8,7,5,7,1,2026-05-13T00:28:02.437863+05:30
Dehradun,Uttarakhand,30.6284,78.0322,12.6,100,0.0,826.4,8.1,33.8,71,61.7,29.5,31.8,338.0,57.0,1.9,3,10,7,0,2026-05-13T00:28:02.437873+05:30
Shimla,Himachal Pradesh,31.1048,77.1734,11.3,66,0.0,780.5,8.2,40.7,92,68.0,32.7,29.1,468.0,64.0,5.1,3,5,7,0,2026-05-13T00:28:02.437882+05:30
Manali,Himachal Pradesh,32.2396,77.1887,10.3,77,0.1,815.2,9.25,37.4,69,9.2,6.8,40.5,240.0,75.0,0.0,6,5,7,0,2026-05-13T00:28:02.437889+05:30
Gurgaon,Haryana,28.4595,77.0266,28.4,63,0.0,977.7,7.8,53.3,919,609.1,115.5,42.1,908.0,79.0,31.9,7,5,7,1,2026-05-13T00:28:02.437897+05:30
Noida,Uttar Pradesh,28.5355,77.391,26.5,75,0.0,980.6,7.7,49.7,919,609.1,115.5,42.1,896.0,79.0,31.9,7,5,7,1,2026-05-13T00:28:02.437904+05:30
Ghaziabad,Uttar Pradesh,28.6692,77.4538,27.1,70,0.0,978.9,7.65,45.7,155,138.3,64.3,18.3,620.0,90.0,13.6,7,5,7,1,2026-05-13T00:28:02.437910+05:30
Faridabad,Haryana,28.4089,77.3178,28.5,64,0.0,980.1,7.75,59.8,919,609.1,115.5,42.1,1045.0,79.0,31.9,7,5,7,1,2026-05-13T00:28:02.437917+05:30
Meerut,Uttar Pradesh,28.9845,77.7064,27.5,68,0.0,977.9,7.6,42.8,155,138.3,64.3,18.3,582.0,90.0,13.6,7,5,7,1,2026-05-13T00:28:02.437926+05:30
Agra,Uttar Pradesh,27.1767,78.0081,29.8,52,0.0,983.9,7.85,31.3,586,925.7,131.3,15.5,485.0,89.0,17.9,4,5,7,1,2026-05-13T00:28:02.437933+05:30
Varanasi,Uttar Pradesh,25.3176,82.9739,29.9,62,0.0,995.3,8.7,32.0,142,63.3,57.2,11.2,442.0,136.0,18.7,7,5,7,1,2026-05-13T00:28:02.437941+05:30
Prayagraj,Uttar Pradesh,25.4358,81.8463,30.8,52,0.0,993.1,8.55,34.9,128,58.2,51.2,13.8,504.0,113.0,14.4,0,5,7,1,2026-05-13T00:28:02.437950+05:30
Gorakhpur,Uttar Pradesh,26.7606,83.3732,26.9,77,0.0,996.0,8.5,43.9,123,45.2,41.3,9.2,495.0,124.0,8.4,7,5,7,1,2026-05-13T00:28:02.437957+05:30
Bareilly,Uttar Pradesh,28.367,79.4304,26.8,70,0.0,983.8,7.95,32.8,131,63.1,47.3,10.3,516.0,106.0,7.3,7,5,7,1,2026-05-13T00:28:02.437963+05:30
Aligarh,Uttar Pradesh,27.8974,78.088,28.0,62,0.0,982.1,7.85,57.2,372,384.6,82.0,13.4,591.0,101.0,15.5,7,5,7,1,2026-05-13T00:28:02.437970+05:30
Moradabad,Uttar Pradesh,28.8386,78.7733,26.8,74,0.0,980.5,7.8,30.2,130,86.8,54.5,15.1,719.0,105.0,10.0,7,5,7,1,2026-05-13T00:28:02.437976+05:30
Saharanpur,Uttar Pradesh,29.9637,77.546,26.3,72,0.0,972.4,7.4,37.4,152,193.2,106.6,49.3,850.0,42.0,22.0,7,5,7,1,2026-05-13T00:28:02.437982+05:30
Jhansi,Uttar Pradesh,25.4484,78.5685,30.5,49,0.0,974.2,8.45,30.2,94,78.2,34.3,8.3,374.0,77.0,9.4,0,5,7,1,2026-05-13T00:28:05.683067+05:30
Surat,Gujarat,21.1702,72.8311,31.4,72,0.0,1001.5,7.75,34.9,97,30.9,21.0,27.4,445.0,53.0,42.5,3,5,4,1,2026-05-13T00:28:05.683101+05:30
Vadodara,Gujarat,22.3072,73.1812,33.0,46,0.0,999.4,8.1,28.1,80,36.2,26.7,23.1,294.0,68.0,23.7,0,5,7,1,2026-05-13T00:28:05.683113+05:30
Rajkot,Gujarat,22.3039,70.8022,29.6,69,0.0,990.5,7.75,50.0,53,25.6,12.8,6.5,191.0,67.0,8.1,7,5,7,1,2026-05-13T00:28:05.683122+05:30
Thane,Maharashtra,19.2183,72.9781,30.0,76,0.0,1004.0,7.9,42.5,87,40.2,19.8,11.4,225.0,72.0,12.1,7,5,4,1,2026-05-13T00:28:05.683129+05:30
Nagpur,Maharashtra,21.1458,79.0882,32.7,40,0.0,970.2,8.95,40.3,110,91.5,43.9,23.3,331.0,85.0,18.2,0,5,7,1,2026-05-13T00:28:05.683136+05:30
Nashik,Maharashtra,19.9975,73.7898,28.8,39,0.0,942.4,8.2,52.2,95,33.9,18.7,16.8,231.0,64.0,4.7,4,5,7,0,2026-05-13T00:28:05.683144+05:30
Aurangabad,Maharashtra,19.8762,75.3433,32.9,26,0.0,941.3,9.05,42.1,93,73.8,40.9,31.8,324.0,67.0,14.3,0,5,7,0,2026-05-13T00:28:05.683151+05:30
Solapur,Maharashtra,17.6599,75.9064,32.2,38,0.0,954.2,8.35,37.4,105,34.5,24.3,9.9,334.0,104.0,6.4,0,5,7,0,2026-05-13T00:28:05.683158+05:30
Kolhapur,Maharashtra,16.705,74.2433,26.6,75,0.0,945.6,8.35,48.6,68,34.3,20.7,13.1,286.0,61.0,6.1,7,5,7,1,2026-05-13T00:28:05.683165+05:30
Goa,Goa,15.2993,74.124,28.4,84,0.0,995.4,8.9,31.0,77,51.3,27.2,11.5,341.0,59.0,3.2,7,5,7,1,2026-05-13T00:28:05.683173+05:30
Jodhpur,Rajasthan,26.2389,73.0243,33.9,27,0.0,978.6,8.35,44.3,121,224.4,34.9,3.3,211.0,108.0,2.4,0,5,7,0,2026-05-13T00:28:05.683179+05:30
Udaipur,Rajasthan,24.5854,73.7125,31.0,28,0.0,943.7,8.85,33.1,83,28.0,14.9,2.2,225.0,111.0,2.5,0,5,7,0,2026-05-13T00:28:05.683204+05:30
Kota,Rajasthan,25.2138,75.8648,34.7,22,0.0,974.4,8.4,38.5,85,62.6,32.1,16.3,454.0,56.0,6.1,0,5,7,0,2026-05-13T00:28:05.683212+05:30
Bikaner,Rajasthan,28.0229,73.3119,31.6,35,0.0,976.7,8.35,46.8,92,152.7,39.1,4.8,307.0,92.0,5.7,0,5,7,0,2026-05-13T00:28:05.683219+05:30
Ajmer,Rajasthan,26.4499,74.6399,31.9,27,0.0,951.5,8.35,52.2,67,53.4,18.2,5.8,261.0,95.0,4.3,0,5,7,0,2026-05-13T00:28:05.683226+05:30
Gwalior,Madhya Pradesh,26.2183,78.1828,29.8,51,0.0,979.2,7.7,32.8,101,193.7,51.7,8.3,570.0,93.0,9.7,4,5,7,1,2026-05-13T00:28:05.683232+05:30
Indore,Madhya Pradesh,22.7196,75.8577,33.8,21,0.0,945.5,8.65,37.1,84,69.6,31.7,7.3,340.0,92.0,6.8,0,5,7,0,2026-05-13T00:28:05.683239+05:30
Bhopal,Madhya Pradesh,23.2599,77.4126,32.5,27,0.0,950.2,8.7,40.0,93,108.5,42.1,13.8,451.0,74.0,8.2,0,5,7,0,2026-05-13T00:28:05.683245+05:30
Jabalpur,Madhya Pradesh,23.1815,79.9864,30.5,36,0.0,958.5,8.85,39.2,96,107.3,43.7,28.3,304.0,61.0,8.3,0,5,7,0,2026-05-13T00:28:05.683251+05:30
Ujjain,Madhya Pradesh,23.1765,75.7885,32.8,23,0.0,950.9,8.6,34.6,88,86.1,38.3,10.1,305.0,82.0,7.5,0,5,7,0,2026-05-13T00:28:05.683259+05:30
Visakhapatnam,Andhra Pradesh,17.6868,83.2185,28.0,80,0.0,1002.2,9.1,41.8,63,24.0,20.8,20.7,1502.0,27.0,6.7,7,5,4,1,2026-05-13T00:28:05.683266+05:30
Vijayawada,Andhra Pradesh,16.5062,80.648,29.0,78,0.0,1000.7,9.15,38.2,53,11.0,9.2,8.2,162.0,34.0,6.0,7,5,4,1,2026-05-13T00:28:05.683272+05:30
Guntur,Andhra Pradesh,16.3067,80.4365,28.8,77,0.0,1002.0,9.2,38.9,55,10.5,8.6,8.8,163.0,37.0,7.6,7,5,4,1,2026-05-13T00:28:05.683279+05:30
Nellore,Andhra Pradesh,14.4426,79.9865,27.9,84,0.0,1003.6,9.15,37.4,28,7.9,5.6,4.0,223.0,37.0,2.3,7,5,4,1,2026-05-13T00:28:05.683286+05:30
Kurnool,Andhra Pradesh,15.8281,78.0373,30.8,53,0.0,975.0,9.15,37.8,55,19.5,14.3,6.4,176.0,71.0,2.2,0,5,7,1,2026-05-13T00:28:05.683294+05:30
Kakinada,Andhra Pradesh,16.9891,82.2475,28.7,78,0.0,1005.6,9.1,40.7,24,7.9,4.7,1.1,181.0,48.0,0.5,7,5,4,1,2026-05-13T00:28:05.683300+05:30
Tirupati,Andhra Pradesh,13.6288,79.4192,26.5,86,0.0,989.2,9.25,37.8,53,15.8,13.8,19.6,224.0,14.0,3.0,7,5,7,1,2026-05-13T00:28:05.683307+05:30
Warangal,Telangana,17.9689,79.5941,29.8,62,0.0,976.6,8.6,41.0,87,27.4,23.4,8.7,268.0,97.0,10.4,7,5,7,1,2026-05-13T00:28:05.683314+05:30
Nizamabad,Telangana,18.6725,78.0941,31.0,49,0.0,962.1,9.05,35.6,90,40.2,28.9,9.9,283.0,94.0,6.7,0,5,7,1,2026-05-13T00:28:05.683320+05:30
Mysore,Karnataka,12.2958,76.6396,24.2,74,0.0,926.4,8.85,29.9,85,45.1,34.0,32.9,323.0,64.0,7.3,3,5,7,1,2026-05-13T00:28:05.683326+05:30
Mangalore,Karnataka,12.9141,74.856,27.0,99,0.0,1004.5,8.95,41.4,86,47.8,27.8,15.3,305.0,47.0,5.0,7,5,4,1,2026-05-13T00:28:05.683332+05:30
Hubli-Dharwad,Karnataka,15.3647,75.124,25.6,92,0.0,938.8,9.1,36.7,81,29.9,17.8,7.1,213.0,61.0,2.6,7,5,7,1,2026-05-13T00:28:05.683339+05:30
Belgaum,Karnataka,15.8497,74.4977,25.1,83,0.0,923.5,8.2,37.1,69,32.5,18.6,13.0,203.0,44.0,3.7,7,5,7,1,2026-05-13T00:28:08.920347+05:30
Coimbatore,Tamil Nadu,11.0168,76.9558,24.6,92,0.0,959.2,9.05,25.6,76,27.1,22.3,11.9,288.0,78.0,4.3,3,5,7,1,2026-05-13T00:28:08.920383+05:30
Madurai,Tamil Nadu,9.9252,78.1198,27.5,87,0.0,990.7,9.05,42.5,82,25.2,23.7,20.9,294.0,53.0,9.5,7,5,7,1,2026-05-13T00:28:08.920396+05:30
Trichy,Tamil Nadu,10.7905,78.7047,26.6,88,0.0,997.2,9.1,33.5,68,22.3,21.5,23.5,360.0,31.0,9.6,7,5,7,1,2026-05-13T00:28:08.920405+05:30
Salem,Tamil Nadu,11.6643,78.146,27.5,74,0.0,974.8,8.8,31.0,87,37.3,31.5,31.0,357.0,51.0,10.7,7,5,7,1,2026-05-13T00:28:08.920413+05:30
Tirunelveli,Tamil Nadu,8.7139,77.7567,28.9,72,0.0,1000.3,9.0,42.5,73,27.6,25.3,16.0,364.0,49.0,2.2,7,5,4,1,2026-05-13T00:28:08.920420+05:30
Vellore,Tamil Nadu,12.9165,79.1325,26.8,82,0.0,982.5,9.1,33.5,69,26.2,24.0,26.0,237.0,22.0,11.9,7,5,7,1,2026-05-13T00:28:08.920428+05:30
Erode,Tamil Nadu,11.341,77.7172,28.1,70,0.0,986.8,9.15,24.5,101,36.6,30.5,29.6,379.0,56.0,11.4,7,5,7,1,2026-05-13T00:28:08.920435+05:30
Kochi,Kerala,9.9312,76.2673,25.7,92,0.0,1006.6,7.9,37.1,87,39.7,31.2,22.5,293.0,53.0,5.9,7,5,4,1,2026-05-13T00:28:08.920442+05:30
Thiruvananthapuram,Kerala,8.5241,76.9366,25.0,94,0.0,1006.3,8.55,36.7,60,28.7,17.9,3.6,273.0,102.0,2.1,7,5,4,1,2026-05-13T00:28:08.920449+05:30
Kozhikode,Kerala,11.2588,75.7804,25.6,98,0.1,1006.3,8.7,41.8,70,45.2,22.8,2.8,208.0,99.0,1.8,10,5,4,1,2026-05-13T00:28:08.920458+05:30
Thrissur,Kerala,10.5276,76.2144,24.0,96,0.0,1005.3,8.7,35.6,90,35.4,27.2,15.2,423.0,58.0,3.9,3,5,4,1,2026-05-13T00:28:08.920466+05:30
Kannur,Kerala,11.8745,75.3704,27.0,92,0.0,1005.2,8.95,48.6,79,50.1,38.0,34.4,404.0,29.0,4.7,7,5,4,1,2026-05-13T00:28:08.920473+05:30
Patna,Bihar,25.5941,85.1376,26.0,88,0.0,998.9,8.65,35.3,147,65.7,59.6,14.6,437.0,109.0,14.2,7,5,7,1,2026-05-13T00:28:08.920480+05:30
Gaya,Bihar,24.7914,85.0002,27.4,73,0.0,991.4,8.65,29.5,158,61.2,54.1,12.8,407.0,111.0,19.9,7,5,7,1,2026-05-13T00:28:08.920487+05:30
Muzaffarpur,Bihar,26.1209,85.3647,25.4,88,0.0,999.5,8.75,43.6,128,61.7,56.6,14.5,443.0,105.0,10.7,7,5,7,1,2026-05-13T00:28:08.920493+05:30
Bhagalpur,Bihar,25.2425,87.0117,23.5,95,0.0,1001.2,8.6,35.6,140,52.3,43.7,13.0,298.0,103.0,10.8,3,5,4,1,2026-05-13T00:28:08.920499+05:30
Ranchi,Jharkhand,23.3441,85.3096,23.5,82,0.0,936.1,9.1,35.3,109,59.8,43.4,7.2,287.0,121.0,13.8,3,5,7,1,2026-05-13T00:28:08.920506+05:30
Jamshedpur,Jharkhand,22.8046,86.2029,26.2,83,0.0,989.5,9.1,36.4,93,34.1,28.7,12.6,315.0,58.0,16.3,7,5,7,1,2026-05-13T00:28:08.920513+05:30
Dhanbad,Jharkhand,23.7957,86.4304,25.5,88,0.0,978.4,9.05,31.0,137,80.8,73.3,61.1,255.0,34.0,65.5,7,5,7,1,2026-05-13T00:28:08.920520+05:30
Bokaro,Jharkhand,23.6693,86.1511,25.9,82,0.0,982.1,9.05,32.0,139,94.1,81.3,57.0,2285.0,46.0,65.3,7,5,7,1,2026-05-13T00:28:08.920527+05:30
Bhubaneswar,Odisha,20.2961,85.8245,26.8,86,0.0,1001.9,9.15,37.4,59,13.5,10.6,7.9,260.0,42.0,2.8,7,5,4,1,2026-05-13T00:28:08.920534+05:30
Cuttack,Odisha,20.4625,85.8828,26.8,87,0.0,1003.7,9.2,34.6,59,13.5,10.6,7.9,261.0,42.0,2.8,7,5,4,1,2026-05-13T00:28:08.920541+05:30
Rourkela,Odisha,22.2604,84.8536,27.7,70,0.0,983.4,9.0,42.1,117,38.8,32.4,13.0,244.0,96.0,42.9,7,5,7,1,2026-05-13T00:28:08.920548+05:30
Raipur,Chhattisgarh,21.2514,81.6296,31.0,46,0.0,971.9,9.0,32.0,122,67.1,45.8,27.0,476.0,82.0,6.9,0,5,7,1,2026-05-13T00:28:08.920555+05:30
Bhilai,Chhattisgarh,21.1938,81.3509,30.9,47,0.0,972.1,9.0,33.1,98,63.3,43.8,32.2,579.0,76.0,7.9,0,5,7,1,2026-05-13T00:28:08.920561+05:30
Guwahati,Assam,26.1158,91.7086,23.2,89,0.0,1001.6,8.65,23.0,86,40.3,37.8,18.1,418.0,29.0,1.9,3,5,4,1,2026-05-13T00:28:08.920568+05:30
Agartala,Tripura,23.8315,91.2868,24.3,89,0.0,1006.2,8.85,19.8,97,78.5,75.2,54.6,518.0,33.0,6.8,3,5,4,1,2026-05-13T00:28:08.920576+05:30
Shillong,Meghalaya,25.5788,91.8933,15.0,97,0.0,855.6,5.2,22.3,70,31.1,29.2,14.7,343.0,62.0,1.8,3,10,3,0,2026-05-13T00:28:08.920583+05:30
Imphal,Manipur,24.817,93.9368,18.3,94,0.0,922.6,9.2,24.5,93,58.4,52.9,32.0,735.0,48.0,7.4,3,10,7,1,2026-05-13T00:28:08.920590+05:30
Aizawl,Mizoram,23.7271,92.7176,17.2,93,0.0,891.5,9.05,21.2,69,39.1,32.8,14.0,424.0,48.0,1.6,3,10,7,1,2026-05-13T00:28:08.920597+05:30
Kohima,Nagaland,25.6701,94.1077,14.2,98,0.0,853.3,8.3,29.5,59,27.6,23.3,10.7,346.0,78.0,2.0,3,10,7,0,2026-05-13T00:28:08.920604+05:30
Gangtok,Sikkim,27.3314,88.6138,13.3,98,0.1,836.1,9.05,39.6,65,20.8,18.7,20.4,534.0,68.0,1.1,6,10,7,0,2026-05-13T00:28:08.920610+05:30
Siliguri,West Bengal,26.7271,88.3953,22.2,84,0.0,993.1,8.25,26.3,122,61.9,56.2,39.7,911.0,52.0,5.7,3,5,7,1,2026-05-13T00:28:12.172345+05:30
Durgapur,West Bengal,23.5204,87.3119,25.7,91,0.0,993.8,9.0,28.4,111,41.3,37.8,23.6,287.0,54.0,25.7,7,5,7,1,2026-05-13T00:28:12.172381+05:30
Asansol,West Bengal,23.6739,86.9524,25.4,91,0.0,992.1,9.0,28.8,106,49.7,45.8,33.3,534.0,41.0,40.3,7,5,7,1,2026-05-13T00:28:12.172394+05:30
Pondicherry,Puducherry,11.9139,79.8145,27.5,92,0.0,1005.6,9.1,37.1,29,7.4,5.3,4.1,386.0,36.0,0.7,7,5,4,1,2026-05-13T00:28:12.172403+05:30
Port Blair,Andaman and Nicobar Islands,11.6234,92.7265,26.2,95,0.0,1005.1,2.15,29.2,23,2.2,1.5,0.3,110.0,47.0,0.1,7,5,0,1,2026-05-13T00:28:12.172411+05:30
Haridwar,Uttarakhand,29.9457,78.1642,24.3,81,0.0,970.7,7.45,24.5,144,174.2,83.8,29.5,481.0,75.0,16.3,3,5,7,1,2026-05-13T00:28:12.172420+05:30
Rishikesh,Uttarakhand,30.0869,78.2676,21.8,88,0.0,963.4,7.55,20.5,140,144.8,60.1,14.8,477.0,108.0,10.2,3,5,7,1,2026-05-13T00:28:12.172427+05:30
Nainital,Uttarakhand,29.3919,79.4542,12.0,100,0.0,802.1,7.95,42.1,118,84.1,47.4,18.8,348.0,77.0,7.1,3,10,7,0,2026-05-13T00:28:12.172434+05:30
Mussoorie,Uttarakhand,30.4599,78.0664,11.7,95,0.0,798.7,7.95,50.8,122,134.1,61.5,30.4,379.0,84.0,16.2,3,10,7,0,2026-05-13T00:28:12.172442+05:30
Dharamshala,Himachal Pradesh,32.219,76.3234,20.3,54,0.0,867.2,8.35,45.7,68,20.7,14.7,14.0,295.0,49.0,0.3,0,5,7,0,2026-05-13T00:28:12.172449+05:30
Dalhousie,Himachal Pradesh,32.5387,75.971,12.7,75,0.0,801.3,8.6,37.8,104,44.0,29.9,23.6,587.0,58.0,1.9,3,5,7,0,2026-05-13T00:28:12.172456+05:30
Patiala,Punjab,30.3398,76.3869,27.1,70,0.0,974.8,7.55,40.7,354,191.4,101.5,30.9,658.0,79.0,21.1,7,5,7,1,2026-05-13T00:28:12.172462+05:30
Bhatinda,Punjab,30.211,74.9455,29.0,56,0.0,979.9,8.2,35.6,394,455.4,113.4,10.2,411.0,105.0,13.6,4,5,7,1,2026-05-13T00:28:12.172469+05:30
Rohtak,Haryana,28.8955,76.6066,27.5,68,0.0,977.8,7.7,55.8,525,306.4,91.5,37.8,557.0,80.0,34.7,7,5,7,1,2026-05-13T00:28:12.172475+05:30
Panipat,Haryana,29.3909,76.9635,26.8,72,0.0,976.7,7.55,41.8,781,220.3,83.6,28.2,687.0,76.0,15.6,7,5,7,1,2026-05-13T00:28:12.172481+05:30
Mathura,Uttar Pradesh,27.4924,77.6737,29.0,56,0.0,983.0,7.95,35.3,566,679.9,108.0,18.5,469.0,95.0,15.1,4,5,7,1,2026-05-13T00:28:12.172488+05:30
Vrindavan,Uttar Pradesh,27.5823,77.7027,28.5,57,0.0,983.5,7.95,35.6,566,679.9,108.0,18.5,474.0,95.0,15.1,4,5,7,1,2026-05-13T00:28:12.172494+05:30
Ayodhya,Uttar Pradesh,26.7922,82.1998,27.8,65,0.0,993.4,8.3,36.4,137,54.7,47.4,14.4,455.0,105.0,9.5,7,5,7,1,2026-05-13T00:28:12.172501+05:30
Ratlam,Madhya Pradesh,23.3315,75.0367,31.0,28,0.0,951.3,8.55,42.8,69,53.3,31.3,8.2,234.0,76.0,6.9,0,5,7,0,2026-05-13T00:28:12.172507+05:30
Sagar,Madhya Pradesh,23.8388,78.7378,31.4,35,0.0,947.3,8.75,41.4,88,82.7,31.8,16.7,381.0,66.0,6.7,0,5,7,0,2026-05-13T00:28:12.172513+05:30
Satna,Madhya Pradesh,24.6005,80.8322,30.0,45,0.0,968.3,8.75,31.7,112,63.1,40.5,8.5,385.0,129.0,11.1,4,5,7,1,2026-05-13T00:28:12.172520+05:30
Akola,Maharashtra,20.7002,77.0082,33.7,30,0.0,971.4,8.9,33.5,94,77.8,34.2,21.4,490.0,76.0,5.9,0,5,7,0,2026-05-13T00:28:12.172528+05:30
Amravati,Maharashtra,20.9374,77.7796,32.8,35,0.0,964.1,8.9,43.6,83,98.0,43.8,34.0,391.0,60.0,8.0,0,5,7,0,2026-05-13T00:28:12.172535+05:30
Latur,Maharashtra,18.4088,76.5604,31.5,37,0.0,937.5,9.05,42.8,92,35.3,24.6,9.4,286.0,98.0,5.1,0,5,7,0,2026-05-13T00:28:12.172542+05:30
Nanded,Maharashtra,19.1383,77.3091,31.9,41,0.0,965.5,9.0,31.0,72,40.0,28.3,10.7,328.0,91.0,5.2,0,5,7,1,2026-05-13T00:28:12.172549+05:30
Gulbarga,Karnataka,17.3297,76.8343,31.2,41,0.0,956.3,8.7,33.1,101,35.7,23.9,13.6,329.0,95.0,7.9,0,5,7,1,2026-05-13T00:28:12.172555+05:30
Bidar,Karnataka,17.9104,77.5199,29.0,51,0.0,933.5,9.15,38.5,86,46.3,31.2,14.1,321.0,96.0,7.0,4,5,7,1,2026-05-13T00:28:12.172561+05:30
Hospet,Karnataka,15.2689,76.3909,29.1,49,0.0,953.3,9.2,28.4,93,45.2,31.0,25.3,511.0,72.0,9.7,4,5,7,1,2026-05-13T00:28:12.172568+05:30
Tirupur,Tamil Nadu,11.1085,77.3411,26.3,85,0.0,972.7,9.25,31.3,94,45.2,37.1,32.5,246.0,66.0,8.2,7,5,7,1,2026-05-13T00:28:12.172574+05:30
Alappuzha,Kerala,9.4981,76.3388,25.9,96,0.0,1006.9,8.75,33.8,75,36.3,25.0,13.4,209.0,76.0,4.6,7,5,4,1,2026-05-13T00:28:12.172581+05:30
Munnar,Kerala,10.0889,77.0595,17.7,93,0.0,854.8,9.25,22.0,74,31.7,27.2,12.8,374.0,56.0,1.9,3,10,7,1,2026-05-13T00:28:12.172588+05:30
Silchar,Assam,24.8333,92.7789,24.2,89,0.0,1005.1,8.85,21.2,98,73.3,68.9,29.1,717.0,52.0,12.3,3,5,4,1,2026-05-13T00:28:12.172594+05:30
Dibrugarh,Assam,27.4728,94.912,22.9,89,0.0,995.7,8.8,19.1,84,46.1,42.0,32.4,599.0,34.0,3.3,3,5,7,1,2026-05-13T00:28:12.172600+05:30
