city,state,latitude,longitude,temp,humidity,rain,pressure,uv_index,wind_gusts,aqi,pm10,pm2_5,no2,co,o3,so2,mosquito_risk,arthritis_risk,migraine_risk,frizz_risk,updated_at
Delhi,Delhi,28.6139,77.209,37.5,37,0.0,974.9,6.1,34.2,641,711.5,133.6,8.8,213.0,126.0,10.2,0,5,10,1,2026-07-17T17:05:53.046433+05:30
Mumbai,Maharashtra,19.076,72.8777,27.0,84,0.1,1006.3,7.5,33.8,69,45.1,24.6,14.2,235.0,64.0,13.4,10,5,4,1,2026-07-17T17:05:53.046500+05:30
Bangalore,Karnataka,12.9716,77.5946,22.0,93,0.2,910.3,5.75,46.1,53,9.6,6.8,18.5,328.0,39.0,3.9,6,5,3,1,2026-07-17T17:05:53.046519+05:30
Hyderabad,Telangana,17.385,78.4867,27.8,70,0.0,950.0,5.35,36.7,70,25.4,14.7,6.4,285.0,73.0,4.3,7,5,3,1,2026-07-17T17:05:53.046530+05:30
Chennai,Tamil Nadu,13.0827,80.2707,32.3,58,0.1,1003.7,7.85,41.0,80,33.3,21.0,5.6,239.0,122.0,6.3,3,5,4,1,2026-07-17T17:05:53.046541+05:30
Kolkata,West Bengal,22.5726,88.3639,29.4,83,0.1,996.8,7.45,34.2,71,30.6,22.9,6.3,424.0,105.0,6.6,10,5,7,1,2026-07-17T17:05:53.046551+05:30
Pune,Maharashtra,18.5204,73.8567,25.9,75,0.0,945.7,7.25,45.4,43,17.3,9.4,5.6,140.0,55.0,4.9,7,5,7,1,2026-07-17T17:05:53.046561+05:30
Ahmedabad,Gujarat,23.0225,72.5714,36.4,40,0.0,995.8,7.85,41.0,72,51.7,19.9,2.6,141.0,85.0,3.3,0,5,10,1,2026-07-17T17:05:53.046571+05:30
Jaipur,Rajasthan,26.9124,75.7873,35.5,42,0.0,953.6,8.05,40.0,303,313.9,60.3,1.5,148.0,106.0,2.9,0,5,10,1,2026-07-17T17:05:53.046580+05:30
Lucknow,Uttar Pradesh,26.8467,80.9462,32.1,75,0.0,985.3,7.25,26.3,160,272.9,90.1,5.6,274.0,157.0,10.9,3,5,7,1,2026-07-17T17:05:53.046595+05:30
Kanpur,Uttar Pradesh,26.4499,80.3319,33.9,59,0.0,983.6,8.1,30.2,169,265.4,82.4,5.2,214.0,144.0,8.1,0,5,7,1,2026-07-17T17:05:53.046607+05:30
Chandigarh,Chandigarh,30.7333,76.7794,33.9,56,0.0,960.9,7.6,32.0,189,87.1,51.6,3.6,411.0,204.0,11.9,0,5,7,1,2026-07-17T17:05:53.046615+05:30
Srinagar,Jammu and Kashmir,34.0837,74.7973,33.6,36,0.0,838.2,9.05,19.1,135,20.2,14.7,0.5,350.0,146.0,2.0,0,5,7,1,2026-07-17T17:05:53.046625+05:30
Jammu,Jammu and Kashmir,32.7266,74.857,34.9,58,0.0,964.5,7.7,34.6,155,110.4,56.5,2.7,305.0,161.0,6.8,0,5,7,1,2026-07-17T17:05:53.046634+05:30
Amritsar,Punjab,31.634,74.8723,36.1,50,0.0,972.1,8.35,20.9,171,99.0,51.3,4.7,273.0,184.0,9.0,0,5,10,1,2026-07-17T17:05:53.046642+05:30
Ludhiana,Punjab,30.901,75.8573,36.7,42,0.0,970.4,7.2,32.8,179,93.8,50.6,2.3,273.0,163.0,4.9,0,5,10,1,2026-07-17T17:05:53.046651+05:30
Jalandhar,Punjab,31.326,75.5762,35.5,52,0.0,971.4,8.15,26.6,184,106.4,55.1,3.2,295.0,168.0,5.9,0,5,10,1,2026-07-17T17:05:53.046659+05:30
Dehradun,Uttarakhand,30.6284,78.0322,22.6,84,0.0,827.5,6.4,27.0,132,39.8,32.5,1.1,371.0,167.0,6.1,3,5,7,1,2026-07-17T17:05:53.046668+05:30
Shimla,Himachal Pradesh,31.1048,77.1734,20.0,79,0.1,782.6,6.85,41.4,127,45.3,32.8,1.1,281.0,164.0,7.5,6,5,7,1,2026-07-17T17:05:53.046675+05:30
Manali,Himachal Pradesh,32.2396,77.1887,24.0,79,0.0,817.6,7.05,33.1,77,14.2,8.8,0.0,185.0,146.0,1.2,3,5,7,1,2026-07-17T17:05:53.046685+05:30
Gurgaon,Haryana,28.4595,77.0266,37.3,37,0.0,973.5,5.9,39.2,497,728.3,145.3,12.8,223.0,119.0,8.6,0,5,6,1,2026-07-17T17:05:53.046696+05:30
Noida,Uttar Pradesh,28.5355,77.391,36.4,45,0.0,976.2,7.7,27.4,497,728.3,145.3,12.8,297.0,119.0,8.6,0,5,10,1,2026-07-17T17:05:53.046704+05:30
Ghaziabad,Uttar Pradesh,28.6692,77.4538,35.5,51,0.0,974.5,7.7,29.5,524,508.5,118.7,9.4,188.0,143.0,14.0,0,5,10,1,2026-07-17T17:05:53.046713+05:30
Faridabad,Haryana,28.4089,77.3178,37.3,37,0.0,975.6,6.05,34.9,497,728.3,145.3,12.8,188.0,119.0,8.6,0,5,10,1,2026-07-17T17:05:53.046722+05:30
Meerut,Uttar Pradesh,28.9845,77.7064,34.4,58,0.0,973.3,7.0,33.8,524,508.5,118.7,9.4,202.0,143.0,14.0,0,5,7,1,2026-07-17T17:05:53.046730+05:30
Agra,Uttar Pradesh,27.1767,78.0081,37.2,43,0.0,979.9,6.8,36.7,152,388.4,95.5,10.0,170.0,109.0,4.8,0,5,10,1,2026-07-17T17:05:53.046738+05:30
Varanasi,Uttar Pradesh,25.3176,82.9739,31.2,78,0.1,988.8,6.15,25.9,153,47.3,35.6,7.8,425.0,135.0,6.2,6,5,7,1,2026-07-17T17:05:53.046747+05:30
Prayagraj,Uttar Pradesh,25.4358,81.8463,31.2,80,0.0,987.7,7.8,26.6,159,109.7,54.6,4.2,203.0,145.0,7.8,3,5,7,1,2026-07-17T17:05:53.046756+05:30
Gorakhpur,Uttar Pradesh,26.7606,83.3732,30.0,85,0.1,988.8,6.8,23.8,108,25.3,24.0,2.4,310.0,161.0,4.9,10,5,7,1,2026-07-17T17:05:53.046764+05:30
Bareilly,Uttar Pradesh,28.367,79.4304,31.8,77,0.0,978.9,7.2,27.7,167,181.6,76.6,6.0,340.0,160.0,11.3,3,5,7,1,2026-07-17T17:05:53.046773+05:30
Aligarh,Uttar Pradesh,27.8974,78.088,34.5,59,0.0,977.4,7.2,26.6,335,571.8,140.6,11.2,219.0,127.0,10.3,0,5,7,1,2026-07-17T17:05:53.046783+05:30
Moradabad,Uttar Pradesh,28.8386,78.7733,31.8,78,0.0,975.7,7.35,29.9,184,218.9,91.3,6.4,416.0,196.0,14.8,3,5,7,1,2026-07-17T17:05:53.046791+05:30
Saharanpur,Uttar Pradesh,29.9637,77.546,33.0,68,0.0,967.5,6.8,39.2,188,119.2,59.1,5.5,495.0,170.0,12.5,3,5,7,1,2026-07-17T17:05:53.046799+05:30
Jhansi,Uttar Pradesh,25.4484,78.5685,34.3,53,0.0,971.1,7.45,31.0,91,128.5,44.9,2.5,127.0,98.0,4.0,0,5,7,1,2026-07-17T17:05:56.330517+05:30
Surat,Gujarat,21.1702,72.8311,30.2,73,0.0,1002.4,7.7,42.8,76,31.3,20.6,14.1,264.0,46.0,38.3,3,5,4,1,2026-07-17T17:05:56.330553+05:30
Vadodara,Gujarat,22.3072,73.1812,32.1,62,0.0,999.0,5.55,43.6,70,48.9,21.5,4.3,155.0,84.0,5.5,3,5,3,1,2026-07-17T17:05:56.330568+05:30
Rajkot,Gujarat,22.3039,70.8022,33.0,55,0.0,988.8,6.85,42.1,64,37.5,16.8,1.6,103.0,78.0,4.3,0,5,7,1,2026-07-17T17:05:56.330578+05:30
Thane,Maharashtra,19.2183,72.9781,26.7,87,0.1,1005.5,6.75,31.7,69,45.1,24.6,14.2,238.0,64.0,13.4,10,5,4,1,2026-07-17T17:05:56.330587+05:30
Nagpur,Maharashtra,21.1458,79.0882,27.5,85,0.1,968.4,1.7,25.2,95,30.5,23.5,18.4,181.0,62.0,14.8,10,5,3,1,2026-07-17T17:05:56.330596+05:30
Nashik,Maharashtra,19.9975,73.7898,26.2,75,0.1,942.5,7.75,47.2,51,15.9,8.2,2.9,118.0,60.0,1.8,10,5,7,1,2026-07-17T17:05:56.330604+05:30
Aurangabad,Maharashtra,19.8762,75.3433,26.9,75,0.0,940.7,7.85,44.6,60,24.1,11.2,3.3,167.0,72.0,3.0,7,5,7,1,2026-07-17T17:05:56.330612+05:30
Solapur,Maharashtra,17.6599,75.9064,28.2,75,0.0,953.9,6.0,34.2,55,26.8,10.9,2.4,121.0,70.0,1.7,7,5,3,1,2026-07-17T17:05:56.330620+05:30
Kolhapur,Maharashtra,16.705,74.2433,24.6,82,0.1,946.2,8.1,46.8,39,17.7,9.3,3.1,130.0,56.0,1.6,6,5,7,1,2026-07-17T17:05:56.330628+05:30
Goa,Goa,15.2993,74.124,26.9,81,0.0,997.6,7.85,31.7,61,26.3,12.2,1.8,150.0,55.0,1.1,7,5,7,1,2026-07-17T17:05:56.330637+05:30
Jodhpur,Rajasthan,26.2389,73.0243,36.8,37,0.0,975.9,8.4,43.6,124,248.7,46.7,1.0,107.0,83.0,1.6,0,5,10,1,2026-07-17T17:05:56.330645+05:30
Udaipur,Rajasthan,24.5854,73.7125,31.6,53,0.0,941.3,8.75,34.2,77,43.5,18.0,1.0,114.0,83.0,2.5,0,5,7,1,2026-07-17T17:05:56.330653+05:30
Kota,Rajasthan,25.2138,75.8648,36.1,42,0.0,972.3,7.55,32.4,88,75.0,29.8,2.0,128.0,112.0,6.4,0,5,10,1,2026-07-17T17:05:56.330662+05:30
Bikaner,Rajasthan,28.0229,73.3119,39.2,30,0.0,973.8,8.4,39.2,125,99.0,34.2,0.4,107.0,83.0,2.1,0,5,10,1,2026-07-17T17:05:56.330670+05:30
Ajmer,Rajasthan,26.4499,74.6399,33.6,46,0.0,948.8,8.3,45.7,81,72.2,28.3,1.1,119.0,98.0,2.6,0,5,7,1,2026-07-17T17:05:56.330678+05:30
Gwalior,Madhya Pradesh,26.2183,78.1828,34.7,51,0.0,975.9,7.15,41.0,103,157.9,50.4,2.6,132.0,98.0,2.9,0,5,7,1,2026-07-17T17:05:56.330686+05:30
Indore,Madhya Pradesh,22.7196,75.8577,31.0,57,0.1,943.5,8.6,39.2,76,49.9,23.3,3.9,190.0,88.0,4.0,3,5,7,1,2026-07-17T17:05:56.330694+05:30
Bhopal,Madhya Pradesh,23.2599,77.4126,31.3,55,0.0,948.5,8.3,33.5,86,55.1,26.0,4.1,196.0,92.0,5.0,0,5,7,1,2026-07-17T17:05:56.330702+05:30
Jabalpur,Madhya Pradesh,23.1815,79.9864,25.8,96,0.2,956.0,3.6,38.5,83,42.3,25.2,4.6,259.0,92.0,5.0,10,5,3,1,2026-07-17T17:05:56.330710+05:30
Ujjain,Madhya Pradesh,23.1765,75.7885,30.6,63,0.0,948.9,7.9,38.9,76,50.5,24.2,2.0,154.0,90.0,3.7,3,5,7,1,2026-07-17T17:05:56.330719+05:30
Visakhapatnam,Andhra Pradesh,17.6868,83.2185,31.0,69,0.0,996.8,7.8,45.4,94,43.3,27.4,13.6,354.0,115.0,29.1,3,5,7,1,2026-07-17T17:05:56.330727+05:30
Vijayawada,Andhra Pradesh,16.5062,80.648,30.6,69,0.0,998.2,2.6,40.7,86,46.7,26.4,4.1,171.0,100.0,6.5,3,5,3,1,2026-07-17T17:05:56.330734+05:30
Guntur,Andhra Pradesh,16.3067,80.4365,30.1,68,0.2,999.6,3.65,43.9,82,42.1,22.2,3.4,157.0,94.0,5.1,6,5,3,1,2026-07-17T17:05:56.330743+05:30
Nellore,Andhra Pradesh,14.4426,79.9865,30.0,73,0.2,1002.0,5.5,45.4,64,21.4,12.0,2.7,148.0,84.0,3.2,10,5,0,1,2026-07-17T17:05:56.330751+05:30
Kurnool,Andhra Pradesh,15.8281,78.0373,30.3,56,0.0,974.0,5.55,41.8,63,29.8,13.6,3.8,133.0,70.0,5.2,0,5,3,1,2026-07-17T17:05:56.330760+05:30
Kakinada,Andhra Pradesh,16.9891,82.2475,31.2,66,0.0,1001.7,8.15,49.3,82,45.1,24.9,3.9,197.0,115.0,5.3,3,5,4,1,2026-07-17T17:05:56.330768+05:30
Tirupati,Andhra Pradesh,13.6288,79.4192,29.5,66,0.2,987.6,7.0,38.5,82,14.6,8.8,5.3,162.0,70.0,1.4,10,5,7,1,2026-07-17T17:05:56.330776+05:30
Warangal,Telangana,17.9689,79.5941,29.4,65,0.1,974.5,5.65,38.9,91,32.0,20.3,5.0,206.0,74.0,5.1,10,5,3,1,2026-07-17T17:05:56.330783+05:30
Nizamabad,Telangana,18.6725,78.0941,29.0,69,0.0,961.0,1.95,36.0,79,36.2,20.6,4.8,144.0,82.0,6.8,7,5,3,1,2026-07-17T17:05:56.330791+05:30
Mysore,Karnataka,12.2958,76.6396,25.0,68,0.0,927.9,2.7,48.6,37,8.1,4.3,6.0,135.0,55.0,1.4,7,5,3,1,2026-07-17T17:05:56.330799+05:30
Mangalore,Karnataka,12.9141,74.856,26.3,83,0.1,1007.5,1.2,31.3,55,26.5,12.4,2.6,98.0,56.0,1.8,10,5,0,1,2026-07-17T17:05:56.330806+05:30
Hubli-Dharwad,Karnataka,15.3647,75.124,24.5,80,0.1,939.4,8.25,47.2,27,13.9,6.9,2.4,116.0,57.0,1.0,6,5,7,1,2026-07-17T17:05:56.330814+05:30
Belgaum,Karnataka,15.8497,74.4977,23.3,84,0.0,924.3,8.7,49.7,31,9.1,4.9,3.3,122.0,52.0,1.5,3,5,7,1,2026-07-17T17:05:59.607213+05:30
Coimbatore,Tamil Nadu,11.0168,76.9558,26.7,72,0.0,960.9,8.5,47.2,51,12.1,6.1,3.2,150.0,59.0,1.9,7,5,7,1,2026-07-17T17:05:59.607250+05:30
Madurai,Tamil Nadu,9.9252,78.1198,34.4,39,0.0,991.1,8.6,37.1,75,31.8,13.9,4.0,166.0,76.0,2.2,0,5,7,1,2026-07-17T17:05:59.607263+05:30
Trichy,Tamil Nadu,10.7905,78.7047,32.0,48,0.0,998.0,8.8,62.6,61,15.4,8.7,3.7,134.0,61.0,2.3,0,5,7,1,2026-07-17T17:05:59.607273+05:30
Salem,Tamil Nadu,11.6643,78.146,29.7,56,0.0,975.9,7.3,30.2,70,23.1,14.6,7.8,148.0,73.0,8.6,4,5,7,1,2026-07-17T17:05:59.607283+05:30
Tirunelveli,Tamil Nadu,8.7139,77.7567,33.9,43,0.0,1001.6,8.25,46.4,52,13.5,8.2,2.1,116.0,73.0,1.4,0,5,4,1,2026-07-17T17:05:59.607293+05:30
Vellore,Tamil Nadu,12.9165,79.1325,28.4,79,0.2,981.7,7.65,43.2,71,13.5,7.3,3.9,168.0,72.0,2.3,10,5,7,1,2026-07-17T17:05:59.607302+05:30
Erode,Tamil Nadu,11.341,77.7172,29.4,59,0.0,987.8,8.8,39.6,58,12.8,8.1,5.9,198.0,67.0,2.6,4,5,7,1,2026-07-17T17:05:59.607311+05:30
Kochi,Kerala,9.9312,76.2673,27.5,81,0.0,1009.4,7.7,31.0,60,14.2,8.3,3.5,119.0,64.0,2.5,7,0,4,1,2026-07-17T17:05:59.607320+05:30
Thiruvananthapuram,Kerala,8.5241,76.9366,27.3,79,0.1,1008.8,8.35,47.2,62,24.0,13.2,3.1,107.0,68.0,1.2,10,0,4,1,2026-07-17T17:05:59.607329+05:30
Kozhikode,Kerala,11.2588,75.7804,26.8,81,0.1,1008.7,1.4,27.0,54,20.4,8.7,0.7,122.0,61.0,1.0,10,0,0,1,2026-07-17T17:05:59.607338+05:30
Thrissur,Kerala,10.5276,76.2144,28.0,76,0.0,1007.7,3.9,32.0,56,12.2,7.0,2.5,92.0,62.0,1.6,7,5,0,1,2026-07-17T17:05:59.607349+05:30
Kannur,Kerala,11.8745,75.3704,27.0,79,0.0,1008.1,1.9,30.2,53,25.1,11.4,2.1,116.0,57.0,1.1,7,0,0,1,2026-07-17T17:05:59.607357+05:30
Patna,Bihar,25.5941,85.1376,32.4,74,0.0,990.7,8.45,27.4,118,25.3,24.3,6.4,297.0,130.0,6.3,3,5,7,1,2026-07-17T17:05:59.607366+05:30
Gaya,Bihar,24.7914,85.0002,31.8,72,0.0,984.4,7.4,23.0,106,19.7,19.1,5.3,281.0,123.0,6.2,3,5,7,1,2026-07-17T17:05:59.607375+05:30
Muzaffarpur,Bihar,26.1209,85.3647,32.4,71,0.0,990.6,7.4,30.6,105,20.8,20.0,6.2,261.0,120.0,5.8,3,5,7,1,2026-07-17T17:05:59.607384+05:30
Bhagalpur,Bihar,25.2425,87.0117,31.8,77,0.1,991.0,7.7,30.2,84,16.7,15.3,6.4,284.0,115.0,8.6,6,5,7,1,2026-07-17T17:05:59.607392+05:30
Ranchi,Jharkhand,23.3441,85.3096,26.2,87,0.1,930.1,8.85,27.4,72,13.9,13.2,7.1,289.0,105.0,5.6,10,5,7,1,2026-07-17T17:05:59.607401+05:30
Jamshedpur,Jharkhand,22.8046,86.2029,29.0,86,0.1,982.0,8.7,22.7,91,31.3,31.0,14.4,364.0,126.0,29.1,10,5,7,1,2026-07-17T17:05:59.607410+05:30
Dhanbad,Jharkhand,23.7957,86.4304,28.2,91,0.2,970.7,7.15,20.2,94,34.9,34.5,33.8,257.0,105.0,75.5,10,5,7,1,2026-07-17T17:05:59.607419+05:30
Bokaro,Jharkhand,23.6693,86.1511,28.7,87,0.1,974.8,7.7,26.3,94,26.4,26.2,30.7,291.0,84.0,70.3,10,5,7,1,2026-07-17T17:05:59.607428+05:30
Bhubaneswar,Odisha,20.2961,85.8245,28.9,84,0.2,994.7,7.55,37.1,75,16.1,12.7,5.6,235.0,93.0,3.5,10,5,7,1,2026-07-17T17:05:59.607437+05:30
Cuttack,Odisha,20.4625,85.8828,28.6,90,0.0,996.4,7.5,33.8,75,16.1,12.7,5.6,250.0,93.0,3.5,7,5,7,1,2026-07-17T17:05:59.607446+05:30
Rourkela,Odisha,22.2604,84.8536,28.7,84,0.2,976.8,6.45,27.0,83,16.9,15.7,6.5,331.0,108.0,5.0,10,5,7,1,2026-07-17T17:05:59.607455+05:30
Raipur,Chhattisgarh,21.2514,81.6296,29.3,74,0.0,968.5,1.05,41.4,102,31.8,26.2,28.9,470.0,59.0,54.5,7,5,3,1,2026-07-17T17:05:59.607464+05:30
Bhilai,Chhattisgarh,21.1938,81.3509,29.1,73,0.0,969.2,2.5,41.4,95,27.6,21.4,20.0,942.0,68.0,35.8,7,5,3,1,2026-07-17T17:05:59.607473+05:30
Guwahati,Assam,26.1158,91.7086,27.8,95,0.1,993.9,7.3,24.5,57,10.7,8.5,4.3,258.0,83.0,1.5,10,5,7,1,2026-07-17T17:05:59.607481+05:30
Agartala,Tripura,23.8315,91.2868,29.0,81,0.0,999.2,7.55,51.8,60,11.9,10.2,5.2,152.0,76.0,1.6,7,5,7,1,2026-07-17T17:05:59.607490+05:30
Shillong,Meghalaya,25.5788,91.8933,22.0,88,0.0,852.8,4.4,48.2,41,6.9,5.6,4.6,163.0,82.0,2.1,3,5,3,1,2026-07-17T17:05:59.607499+05:30
Imphal,Manipur,24.817,93.9368,25.5,79,0.0,918.9,5.3,20.5,62,19.2,11.3,2.3,178.0,82.0,1.8,7,5,3,1,2026-07-17T17:05:59.607508+05:30
Aizawl,Mizoram,23.7271,92.7176,21.9,86,0.0,888.2,6.15,42.5,59,11.3,8.5,2.2,124.0,63.0,0.9,3,5,7,1,2026-07-17T17:05:59.607517+05:30
Kohima,Nagaland,25.6701,94.1077,22.1,97,0.0,851.6,3.25,23.0,51,19.1,10.7,2.4,176.0,76.0,1.3,3,5,3,1,2026-07-17T17:05:59.607526+05:30
Gangtok,Sikkim,27.3314,88.6138,20.7,96,0.1,833.9,6.75,30.6,47,4.2,3.3,3.4,202.0,99.0,1.3,6,5,7,1,2026-07-17T17:05:59.607536+05:30
Siliguri,West Bengal,26.7271,88.3953,28.7,90,0.1,984.7,7.85,29.2,69,17.8,13.6,4.0,391.0,117.0,2.4,10,5,7,1,2026-07-17T17:06:02.892453+05:30
Durgapur,West Bengal,23.5204,87.3119,29.4,86,0.0,985.5,8.55,28.4,82,28.2,27.9,24.6,342.0,105.0,37.9,7,5,7,1,2026-07-17T17:06:02.892486+05:30
Asansol,West Bengal,23.6739,86.9524,28.6,87,0.0,984.2,8.05,29.5,89,29.1,28.6,25.1,342.0,114.0,39.5,7,5,7,1,2026-07-17T17:06:02.892498+05:30
Pondicherry,Puducherry,11.9139,79.8145,30.6,73,0.1,1005.4,8.8,38.5,73,33.4,22.8,8.8,216.0,136.0,10.5,6,5,4,1,2026-07-17T17:06:02.892507+05:30
Port Blair,Andaman and Nicobar Islands,11.6234,92.7265,28.3,80,0.0,1006.3,7.3,37.8,45,15.4,7.3,0.5,100.0,44.0,0.5,7,5,4,1,2026-07-17T17:06:02.892515+05:30
Haridwar,Uttarakhand,29.9457,78.1642,33.7,60,0.0,965.8,7.35,26.3,174,82.0,57.9,2.4,389.0,195.0,13.0,0,5,7,1,2026-07-17T17:06:02.892524+05:30
Rishikesh,Uttarakhand,30.0869,78.2676,32.2,66,0.0,958.8,7.4,25.9,156,80.3,54.1,1.9,423.0,187.0,10.8,3,5,7,1,2026-07-17T17:06:02.892532+05:30
Nainital,Uttarakhand,29.3919,79.4542,21.3,81,0.1,803.0,6.15,28.8,142,105.7,54.4,2.4,293.0,173.0,11.5,6,5,7,1,2026-07-17T17:06:02.892541+05:30
Mussoorie,Uttarakhand,30.4599,78.0664,20.6,87,0.1,800.6,6.65,39.2,168,58.9,50.8,4.3,386.0,185.0,10.1,6,5,7,1,2026-07-17T17:06:02.892548+05:30
Dharamshala,Himachal Pradesh,32.219,76.3234,24.7,85,0.0,865.2,8.15,31.0,114,16.0,11.3,1.0,311.0,149.0,2.0,3,5,7,1,2026-07-17T17:06:02.892556+05:30
Dalhousie,Himachal Pradesh,32.5387,75.971,20.8,91,0.1,802.6,7.8,24.8,151,58.1,35.5,1.8,299.0,158.0,3.6,6,5,7,1,2026-07-17T17:06:02.892565+05:30
Patiala,Punjab,30.3398,76.3869,34.8,54,0.0,970.1,6.6,31.7,192,366.0,84.8,3.4,272.0,157.0,7.4,0,5,7,1,2026-07-17T17:06:02.892572+05:30
Bhatinda,Punjab,30.211,74.9455,38.6,32,0.0,975.4,7.65,30.6,174,168.6,52.3,2.1,128.0,110.0,5.0,0,5,10,1,2026-07-17T17:06:02.892580+05:30
Rohtak,Haryana,28.8955,76.6066,36.0,46,0.0,973.6,6.55,33.8,814,843.8,142.0,5.6,188.0,115.0,4.8,0,5,10,1,2026-07-17T17:06:02.892588+05:30
Panipat,Haryana,29.3909,76.9635,34.4,58,0.0,972.1,7.5,31.7,1227,2346.9,281.3,5.2,172.0,117.0,8.2,0,5,7,1,2026-07-17T17:06:02.892596+05:30
Mathura,Uttar Pradesh,27.4924,77.6737,35.7,50,0.0,978.9,7.25,32.0,614,765.5,143.4,15.2,272.0,83.0,3.9,0,5,10,1,2026-07-17T17:06:02.892603+05:30
Vrindavan,Uttar Pradesh,27.5823,77.7027,35.5,52,0.0,979.3,7.05,31.7,614,765.5,143.4,15.2,261.0,83.0,3.9,0,5,10,1,2026-07-17T17:06:02.892611+05:30
Ayodhya,Uttar Pradesh,26.7922,82.1998,30.0,88,0.1,987.1,8.15,18.4,112,38.6,30.7,2.7,322.0,163.0,3.9,10,5,7,1,2026-07-17T17:06:02.892619+05:30
Ratlam,Madhya Pradesh,23.3315,75.0367,29.2,71,0.1,949.7,8.5,34.6,74,54.1,23.7,1.8,128.0,90.0,3.6,10,5,7,1,2026-07-17T17:06:02.892627+05:30
Sagar,Madhya Pradesh,23.8388,78.7378,26.8,93,0.2,945.0,7.7,39.6,86,60.8,29.9,2.3,156.0,105.0,5.9,10,5,7,1,2026-07-17T17:06:02.892635+05:30
Satna,Madhya Pradesh,24.6005,80.8322,28.8,84,0.0,964.5,8.45,41.4,125,88.5,38.4,2.4,161.0,119.0,3.7,7,5,7,1,2026-07-17T17:06:02.892642+05:30
Akola,Maharashtra,20.7002,77.0082,31.3,56,0.0,970.4,8.65,42.1,69,41.7,18.9,4.0,122.0,81.0,7.5,0,5,7,1,2026-07-17T17:06:02.892651+05:30
Amravati,Maharashtra,20.9374,77.7796,30.7,57,0.0,962.6,7.8,39.6,70,44.9,21.4,4.9,129.0,76.0,9.0,0,5,7,1,2026-07-17T17:06:02.892659+05:30
Latur,Maharashtra,18.4088,76.5604,26.2,83,0.0,936.4,8.15,35.3,61,28.7,11.6,2.4,128.0,68.0,2.0,7,5,7,1,2026-07-17T17:06:02.892667+05:30
Nanded,Maharashtra,19.1383,77.3091,31.0,60,0.0,964.6,8.4,33.8,74,32.8,17.6,5.0,156.0,76.0,4.6,0,5,7,1,2026-07-17T17:06:02.892675+05:30
Gulbarga,Karnataka,17.3297,76.8343,29.0,60,0.0,955.7,7.7,41.8,57,28.0,11.7,3.9,145.0,69.0,2.4,4,5,7,1,2026-07-17T17:06:02.892683+05:30
Bidar,Karnataka,17.9104,77.5199,25.3,86,0.0,932.3,7.95,31.0,73,40.9,18.6,6.0,168.0,65.0,2.6,7,5,7,1,2026-07-17T17:06:02.892690+05:30
Hospet,Karnataka,15.2689,76.3909,26.2,79,0.0,953.8,4.4,48.2,37,13.3,7.2,3.0,123.0,61.0,1.7,7,5,3,1,2026-07-17T17:06:02.892697+05:30
Tirupur,Tamil Nadu,11.1085,77.3411,27.6,67,0.0,974.2,8.55,49.0,61,14.2,8.8,5.6,144.0,68.0,3.1,7,5,7,1,2026-07-17T17:06:02.892705+05:30
Alappuzha,Kerala,9.4981,76.3388,27.6,80,0.0,1009.5,7.85,37.8,61,20.0,11.1,3.3,94.0,72.0,2.6,7,0,4,1,2026-07-17T17:06:02.892712+05:30
Munnar,Kerala,10.0889,77.0595,17.5,93,0.0,856.6,9.0,38.9,41,8.5,5.0,3.3,106.0,58.0,1.2,3,10,7,1,2026-07-17T17:06:02.892721+05:30
Silchar,Assam,24.8333,92.7789,29.9,78,0.1,999.0,8.7,34.9,71,29.0,19.2,3.8,181.0,85.0,3.8,10,5,7,1,2026-07-17T17:06:02.892728+05:30
Dibrugarh,Assam,27.4728,94.912,27.2,98,0.3,988.2,3.65,38.5,52,14.8,10.8,3.7,200.0,87.0,2.2,10,5,3,1,2026-07-17T17:06:02.892736+05:30
