city,state,latitude,longitude,temp,humidity,rain,pressure,uv_index,wind_gusts,aqi,pm10,pm2_5,mosquito_risk,arthritis_risk,migraine_risk,frizz_risk,updated_at
Delhi,Delhi,28.6139,77.209,36.8,24,0.0,976.3,7.55,29.9,316,419.1,77.1,0,5,10,0,2026-05-01T16:39:12.107773+05:30
Mumbai,Maharashtra,19.076,72.8777,31.4,65,0.0,1006.2,7.9,45.7,66,51.7,20.4,3,5,4,1,2026-05-01T16:39:12.107813+05:30
Bangalore,Karnataka,12.9716,77.5946,32.0,41,0.0,909.6,9.55,36.0,162,40.4,31.3,0,5,7,1,2026-05-01T16:39:12.107828+05:30
Hyderabad,Telangana,17.385,78.4867,38.6,16,0.0,948.8,9.25,37.1,81,50.3,17.8,0,5,10,0,2026-05-01T16:39:12.107838+05:30
Chennai,Tamil Nadu,13.0827,80.2707,33.8,60,0.0,1001.9,9.25,50.8,127,34.2,28.5,0,5,4,1,2026-05-01T16:39:12.107847+05:30
Kolkata,West Bengal,22.5726,88.3639,29.0,66,0.0,1000.9,7.95,22.7,64,37.7,28.0,7,5,4,1,2026-05-01T16:39:12.107855+05:30
Pune,Maharashtra,18.5204,73.8567,34.2,29,0.0,946.2,8.5,50.0,55,40.9,12.5,0,5,7,0,2026-05-01T16:39:12.107866+05:30
Ahmedabad,Gujarat,23.0225,72.5714,42.5,18,0.0,994.5,8.1,45.0,56,49.4,14.7,0,5,10,0,2026-05-01T16:39:12.107875+05:30
Jaipur,Rajasthan,26.9124,75.7873,39.7,10,0.0,953.2,8.1,42.5,175,339.0,43.5,0,5,10,0,2026-05-01T16:39:12.107883+05:30
Lucknow,Uttar Pradesh,26.8467,80.9462,33.2,39,0.0,987.8,8.0,29.5,141,87.5,29.9,0,5,7,1,2026-05-01T16:39:12.107891+05:30
Kanpur,Uttar Pradesh,26.4499,80.3319,35.5,29,0.0,985.7,8.05,29.9,146,189.1,39.8,0,5,10,0,2026-05-01T16:39:12.107899+05:30
Chandigarh,Chandigarh,30.7333,76.7794,33.2,30,0.0,963.3,7.6,37.4,167,97.8,31.5,0,5,7,0,2026-05-01T16:39:12.107906+05:30
Srinagar,Jammu and Kashmir,34.0837,74.7973,20.3,56,0.0,839.5,8.75,22.7,93,13.4,9.0,0,5,7,0,2026-05-01T16:39:12.107914+05:30
Jammu,Jammu and Kashmir,32.7266,74.857,32.5,31,0.0,967.5,8.35,32.0,113,18.3,10.1,0,5,7,0,2026-05-01T16:39:12.107921+05:30
Amritsar,Punjab,31.634,74.8723,35.6,24,0.0,975.0,8.25,30.6,150,63.8,21.4,0,5,10,0,2026-05-01T16:39:12.107927+05:30
Ludhiana,Punjab,30.901,75.8573,35.2,25,0.0,972.9,7.85,33.5,168,175.1,43.2,0,5,10,0,2026-05-01T16:39:12.107934+05:30
Jalandhar,Punjab,31.326,75.5762,34.0,29,0.0,974.2,8.0,33.8,150,205.8,48.9,0,5,7,0,2026-05-01T16:39:12.107944+05:30
Dehradun,Uttarakhand,30.6284,78.0322,17.8,71,0.0,826.9,8.0,34.9,115,71.5,34.3,3,5,7,0,2026-05-01T16:39:12.107953+05:30
Shimla,Himachal Pradesh,31.1048,77.1734,18.0,45,0.0,782.2,8.1,46.8,142,47.8,24.4,0,5,7,0,2026-05-01T16:39:12.107959+05:30
Manali,Himachal Pradesh,32.2396,77.1887,15.4,72,0.0,814.4,10.05,42.5,113,6.8,5.3,3,5,7,0,2026-05-01T16:39:12.107966+05:30
Gurgaon,Haryana,28.4595,77.0266,35.7,26,0.0,975.1,7.7,31.7,1313,998.4,125.3,0,5,10,0,2026-05-01T16:39:12.107973+05:30
Noida,Uttar Pradesh,28.5355,77.391,35.0,35,0.0,977.9,7.6,29.2,1313,998.4,125.3,0,5,7,1,2026-05-01T16:39:12.107979+05:30
Ghaziabad,Uttar Pradesh,28.6692,77.4538,34.8,34,0.0,976.5,7.55,32.8,185,323.2,56.2,0,5,7,1,2026-05-01T16:39:12.107986+05:30
Faridabad,Haryana,28.4089,77.3178,35.8,29,0.0,977.1,7.65,29.5,1313,998.4,125.3,0,5,10,0,2026-05-01T16:39:12.107993+05:30
Meerut,Uttar Pradesh,28.9845,77.7064,33.5,36,0.0,975.5,7.5,34.9,185,323.2,56.2,0,5,7,1,2026-05-01T16:39:12.107999+05:30
Agra,Uttar Pradesh,27.1767,78.0081,38.2,20,0.0,980.5,7.9,27.7,565,420.0,58.2,0,5,10,0,2026-05-01T16:39:12.108007+05:30
Varanasi,Uttar Pradesh,25.3176,82.9739,34.3,38,0.0,991.8,8.55,29.5,162,81.0,27.5,0,5,7,1,2026-05-01T16:39:12.108016+05:30
Prayagraj,Uttar Pradesh,25.4358,81.8463,35.0,32,0.0,989.9,8.45,26.6,168,78.5,28.7,0,5,7,0,2026-05-01T16:39:12.108022+05:30
Gorakhpur,Uttar Pradesh,26.7606,83.3732,28.5,55,0.0,993.1,8.35,37.1,120,74.7,27.9,4,5,7,1,2026-05-01T16:39:12.108035+05:30
Bareilly,Uttar Pradesh,28.367,79.4304,32.8,38,0.0,981.2,7.85,34.6,138,266.4,50.3,0,5,7,1,2026-05-01T16:39:12.108044+05:30
Aligarh,Uttar Pradesh,27.8974,78.088,35.8,29,0.0,979.0,7.75,29.5,667,599.8,82.9,0,5,10,0,2026-05-01T16:39:12.108051+05:30
Moradabad,Uttar Pradesh,28.8386,78.7733,32.7,39,0.0,978.1,7.7,35.6,151,109.0,34.0,0,5,7,1,2026-05-01T16:39:12.108057+05:30
Saharanpur,Uttar Pradesh,29.9637,77.546,31.5,42,0.0,970.4,7.3,36.4,147,130.4,33.9,0,5,7,1,2026-05-01T16:39:12.108063+05:30
Jhansi,Uttar Pradesh,25.4484,78.5685,39.0,17,0.0,971.0,8.35,38.5,90,75.9,21.8,0,5,10,0,2026-05-01T16:39:15.439664+05:30
Surat,Gujarat,21.1702,72.8311,32.5,61,0.0,1002.3,7.7,56.9,63,36.3,17.5,3,5,4,1,2026-05-01T16:39:15.439707+05:30
Vadodara,Gujarat,22.3072,73.1812,39.5,32,0.0,997.9,8.1,52.9,56,35.3,14.1,0,5,10,1,2026-05-01T16:39:15.439725+05:30
Rajkot,Gujarat,22.3039,70.8022,40.8,20,0.0,988.3,7.7,54.4,49,40.9,14.1,0,5,10,0,2026-05-01T16:39:15.439740+05:30
Thane,Maharashtra,19.2183,72.9781,33.4,51,0.0,1005.1,7.9,41.0,66,51.7,20.4,0,5,4,1,2026-05-01T16:39:15.439753+05:30
Nagpur,Maharashtra,21.1458,79.0882,39.8,17,0.0,967.5,8.9,40.7,137,75.4,26.3,0,5,10,0,2026-05-01T16:39:15.439763+05:30
Nashik,Maharashtra,19.9975,73.7898,34.0,31,0.0,943.1,8.2,51.1,60,40.7,13.4,0,5,7,0,2026-05-01T16:39:15.439774+05:30
Aurangabad,Maharashtra,19.8762,75.3433,38.0,18,0.0,940.4,9.05,47.9,55,35.5,12.7,0,5,10,0,2026-05-01T16:39:15.439783+05:30
Solapur,Maharashtra,17.6599,75.9064,39.3,14,0.0,952.9,9.05,47.2,54,29.7,9.7,0,5,10,0,2026-05-01T16:39:15.439793+05:30
Kolhapur,Maharashtra,16.705,74.2433,33.7,31,0.0,946.2,8.95,47.5,59,35.7,12.9,0,5,7,0,2026-05-01T16:39:15.439804+05:30
Goa,Goa,15.2993,74.124,33.9,49,0.0,995.7,8.9,37.8,63,26.2,14.3,0,5,7,1,2026-05-01T16:39:15.439814+05:30
Jodhpur,Rajasthan,26.2389,73.0243,41.1,17,0.0,975.6,8.3,47.5,142,199.8,26.7,0,5,10,0,2026-05-01T16:39:15.439824+05:30
Udaipur,Rajasthan,24.5854,73.7125,38.5,17,0.0,941.1,8.75,38.9,59,57.0,14.7,0,5,10,0,2026-05-01T16:39:15.439834+05:30
Kota,Rajasthan,25.2138,75.8648,40.7,14,0.0,971.8,8.3,41.8,73,44.4,12.8,0,5,10,0,2026-05-01T16:39:15.439844+05:30
Bikaner,Rajasthan,28.0229,73.3119,41.5,11,0.0,973.9,8.25,38.5,77,79.4,17.9,0,5,10,0,2026-05-01T16:39:15.439854+05:30
Ajmer,Rajasthan,26.4499,74.6399,39.0,14,0.0,948.6,8.25,49.7,72,72.4,17.0,0,5,10,0,2026-05-01T16:39:15.439863+05:30
Gwalior,Madhya Pradesh,26.2183,78.1828,39.2,17,0.0,975.9,8.15,37.8,91,94.8,24.7,0,5,10,0,2026-05-01T16:39:15.439873+05:30
Indore,Madhya Pradesh,22.7196,75.8577,38.5,17,0.0,943.3,8.65,41.4,60,61.2,17.5,0,5,10,0,2026-05-01T16:39:15.439883+05:30
Bhopal,Madhya Pradesh,23.2599,77.4126,39.0,16,0.0,948.2,8.65,36.0,71,123.4,24.0,0,5,10,0,2026-05-01T16:39:15.439892+05:30
Jabalpur,Madhya Pradesh,23.1815,79.9864,38.7,17,0.0,955.6,8.8,32.8,95,114.3,27.9,0,5,10,0,2026-05-01T16:39:15.439902+05:30
Ujjain,Madhya Pradesh,23.1765,75.7885,38.8,16,0.0,948.6,8.55,40.3,59,66.6,17.2,0,5,10,0,2026-05-01T16:39:15.439913+05:30
Visakhapatnam,Andhra Pradesh,17.6868,83.2185,31.8,71,0.0,999.0,9.15,52.6,53,20.5,15.7,3,5,7,1,2026-05-01T16:39:15.439922+05:30
Vijayawada,Andhra Pradesh,16.5062,80.648,41.8,18,0.0,995.6,9.2,37.4,118,36.2,28.7,0,5,10,0,2026-05-01T16:39:15.439932+05:30
Guntur,Andhra Pradesh,16.3067,80.4365,42.2,15,0.0,996.8,9.2,40.7,131,34.6,25.1,0,5,10,0,2026-05-01T16:39:15.439942+05:30
Nellore,Andhra Pradesh,14.4426,79.9865,36.9,46,0.0,999.7,9.25,47.2,159,32.7,26.3,0,5,10,1,2026-05-01T16:39:15.439953+05:30
Kurnool,Andhra Pradesh,15.8281,78.0373,40.8,15,0.0,971.7,9.2,39.2,89,41.6,14.8,0,5,10,0,2026-05-01T16:39:15.439963+05:30
Kakinada,Andhra Pradesh,16.9891,82.2475,35.6,55,0.0,1002.1,9.15,41.0,48,20.7,15.1,0,5,7,1,2026-05-01T16:39:15.439973+05:30
Tirupati,Andhra Pradesh,13.6288,79.4192,30.7,57,0.1,986.6,9.3,57.2,149,46.1,38.1,3,5,7,1,2026-05-01T16:39:15.439982+05:30
Warangal,Telangana,17.9689,79.5941,39.5,17,0.0,973.3,9.15,34.9,106,39.1,15.6,0,5,10,0,2026-05-01T16:39:15.439992+05:30
Nizamabad,Telangana,18.6725,78.0941,39.0,16,0.0,959.8,9.1,33.5,77,41.3,16.3,0,5,10,0,2026-05-01T16:39:15.440002+05:30
Mysore,Karnataka,12.2958,76.6396,28.1,59,0.0,927.4,9.4,40.0,131,36.8,27.8,4,5,7,1,2026-05-01T16:39:15.440011+05:30
Mangalore,Karnataka,12.9141,74.856,31.7,68,0.0,1004.8,9.0,41.0,68,27.1,15.3,3,5,4,1,2026-05-01T16:39:15.440021+05:30
Hubli-Dharwad,Karnataka,15.3647,75.124,34.0,32,0.0,938.8,9.2,46.4,57,35.2,14.0,0,5,7,0,2026-05-01T16:39:15.440031+05:30
Belgaum,Karnataka,15.8497,74.4977,31.9,39,0.0,924.5,9.15,46.4,54,32.6,11.9,0,5,7,1,2026-05-01T16:39:18.822625+05:30
Coimbatore,Tamil Nadu,11.0168,76.9558,30.5,58,0.1,959.7,9.15,46.1,118,31.1,24.7,3,5,7,1,2026-05-01T16:39:18.822659+05:30
Madurai,Tamil Nadu,9.9252,78.1198,33.3,51,0.0,990.3,8.9,41.4,103,22.5,17.4,0,5,7,1,2026-05-01T16:39:18.822673+05:30
Trichy,Tamil Nadu,10.7905,78.7047,36.0,41,0.0,995.9,8.9,46.8,106,31.8,25.3,0,5,10,1,2026-05-01T16:39:18.822684+05:30
Salem,Tamil Nadu,11.6643,78.146,39.8,25,0.0,972.7,9.25,42.5,151,41.2,33.2,0,5,10,1,2026-05-01T16:39:18.822695+05:30
Tirunelveli,Tamil Nadu,8.7139,77.7567,32.7,53,0.0,1000.3,8.75,43.9,54,11.4,9.5,0,5,4,1,2026-05-01T16:39:18.822705+05:30
Vellore,Tamil Nadu,12.9165,79.1325,39.6,24,0.0,979.1,9.3,30.6,146,49.5,40.2,0,5,10,0,2026-05-01T16:39:18.822716+05:30
Erode,Tamil Nadu,11.341,77.7172,28.1,70,0.0,986.3,9.25,52.2,108,36.6,26.7,7,5,7,1,2026-05-01T16:39:18.822726+05:30
Kochi,Kerala,9.9312,76.2673,28.5,82,0.0,1007.2,8.65,33.5,55,19.7,14.6,7,5,4,1,2026-05-01T16:39:18.822736+05:30
Thiruvananthapuram,Kerala,8.5241,76.9366,27.3,88,0.1,1006.5,8.65,32.4,48,11.1,8.2,10,5,4,1,2026-05-01T16:39:18.822747+05:30
Kozhikode,Kerala,11.2588,75.7804,29.3,80,0.0,1005.9,7.6,38.9,59,32.6,17.4,7,5,4,1,2026-05-01T16:39:18.822757+05:30
Thrissur,Kerala,10.5276,76.2144,28.6,80,0.1,1005.5,8.45,35.6,62,27.1,19.7,10,5,4,1,2026-05-01T16:39:18.822767+05:30
Kannur,Kerala,11.8745,75.3704,32.2,62,0.0,1004.9,8.95,43.2,69,30.0,17.1,3,5,4,1,2026-05-01T16:39:18.822777+05:30
Patna,Bihar,25.5941,85.1376,28.0,66,0.0,996.1,8.4,28.4,146,73.6,34.8,7,5,7,1,2026-05-01T16:39:18.822787+05:30
Gaya,Bihar,24.7914,85.0002,31.7,42,0.0,989.0,8.7,23.0,160,83.8,29.9,0,5,7,1,2026-05-01T16:39:18.822796+05:30
Muzaffarpur,Bihar,26.1209,85.3647,22.2,92,0.1,996.5,6.05,31.3,141,57.4,31.9,6,5,7,1,2026-05-01T16:39:18.822806+05:30
Bhagalpur,Bihar,25.2425,87.0117,27.2,66,0.0,996.6,8.5,39.6,160,49.9,28.5,7,5,7,1,2026-05-01T16:39:18.822816+05:30
Ranchi,Jharkhand,23.3441,85.3096,27.6,44,0.1,934.4,9.2,33.5,141,96.2,35.5,7,5,7,0,2026-05-01T16:39:18.822826+05:30
Jamshedpur,Jharkhand,22.8046,86.2029,32.6,38,0.0,985.3,9.0,34.9,177,82.9,39.0,0,5,7,1,2026-05-01T16:39:18.822835+05:30
Dhanbad,Jharkhand,23.7957,86.4304,31.2,49,0.0,974.6,8.9,21.6,179,97.3,49.0,0,5,7,1,2026-05-01T16:39:18.822844+05:30
Bokaro,Jharkhand,23.6693,86.1511,32.5,40,0.0,978.5,8.95,25.9,184,92.0,39.0,0,5,7,1,2026-05-01T16:39:18.822854+05:30
Bhubaneswar,Odisha,20.2961,85.8245,32.5,63,0.0,997.3,8.4,44.3,77,48.2,23.6,3,5,7,1,2026-05-01T16:39:18.822864+05:30
Cuttack,Odisha,20.4625,85.8828,33.5,53,0.0,998.8,8.85,35.3,77,48.2,23.6,0,5,7,1,2026-05-01T16:39:18.822873+05:30
Rourkela,Odisha,22.2604,84.8536,35.0,31,0.0,979.3,8.9,38.9,180,87.8,44.0,0,5,7,0,2026-05-01T16:39:18.822883+05:30
Raipur,Chhattisgarh,21.2514,81.6296,37.5,21,0.0,969.2,8.95,47.5,143,99.9,31.5,0,5,10,0,2026-05-01T16:39:18.822892+05:30
Bhilai,Chhattisgarh,21.1938,81.3509,37.3,20,0.0,969.9,8.95,52.9,108,96.4,27.6,0,5,10,0,2026-05-01T16:39:18.822902+05:30
Guwahati,Assam,26.1158,91.7086,25.0,78,0.0,998.1,7.7,26.6,66,21.2,16.5,7,5,7,1,2026-05-01T16:39:18.822911+05:30
Agartala,Tripura,23.8315,91.2868,26.7,73,0.0,1002.1,6.05,40.7,71,38.4,34.2,7,5,4,1,2026-05-01T16:39:18.822921+05:30
Shillong,Meghalaya,25.5788,91.8933,17.6,77,0.0,853.0,7.5,29.5,57,10.5,8.8,3,5,7,0,2026-05-01T16:39:18.822932+05:30
Imphal,Manipur,24.817,93.9368,20.0,91,0.1,919.7,4.0,25.9,76,21.4,17.3,6,5,3,1,2026-05-01T16:39:18.822942+05:30
Aizawl,Mizoram,23.7271,92.7176,17.3,91,0.1,888.6,5.3,50.4,52,11.6,9.9,6,10,3,0,2026-05-01T16:39:18.822952+05:30
Kohima,Nagaland,25.6701,94.1077,18.1,89,0.0,851.8,4.45,23.0,53,19.2,13.1,3,10,3,1,2026-05-01T16:39:18.822962+05:30
Gangtok,Sikkim,27.3314,88.6138,16.3,78,0.0,833.6,8.75,39.2,84,17.5,9.6,3,5,7,0,2026-05-01T16:39:18.822972+05:30
Siliguri,West Bengal,26.7271,88.3953,24.7,75,0.0,989.5,6.6,30.6,75,23.9,14.5,3,5,7,1,2026-05-01T16:39:22.165080+05:30
Durgapur,West Bengal,23.5204,87.3119,29.2,62,0.0,990.1,8.85,18.4,167,99.7,64.5,7,5,7,1,2026-05-01T16:39:22.165116+05:30
Asansol,West Bengal,23.6739,86.9524,30.6,52,0.0,988.5,8.9,31.0,176,98.0,55.4,0,5,7,1,2026-05-01T16:39:22.165134+05:30
Pondicherry,Puducherry,11.9139,79.8145,31.6,71,0.0,1003.8,8.95,42.1,102,32.7,28.3,3,5,4,1,2026-05-01T16:39:22.165148+05:30
Port Blair,Andaman and Nicobar Islands,11.6234,92.7265,31.5,61,0.0,1004.8,9.1,28.8,31,7.0,5.0,3,5,4,1,2026-05-01T16:39:22.165161+05:30
Haridwar,Uttarakhand,29.9457,78.1642,30.8,46,0.0,968.9,7.4,28.8,145,126.2,33.2,0,5,7,1,2026-05-01T16:39:22.165173+05:30
Rishikesh,Uttarakhand,30.0869,78.2676,29.2,49,0.0,961.7,7.5,25.6,144,131.8,33.6,4,5,7,1,2026-05-01T16:39:22.165186+05:30
Nainital,Uttarakhand,29.3919,79.4542,16.8,61,0.1,802.0,8.15,43.9,131,119.7,30.3,6,5,7,0,2026-05-01T16:39:22.165198+05:30
Mussoorie,Uttarakhand,30.4599,78.0664,16.3,73,0.0,799.5,7.9,49.0,147,126.2,38.8,3,5,7,0,2026-05-01T16:39:22.165211+05:30
Dharamshala,Himachal Pradesh,32.219,76.3234,23.7,39,0.0,865.7,8.25,46.1,108,11.3,8.1,0,5,7,0,2026-05-01T16:39:22.165223+05:30
Dalhousie,Himachal Pradesh,32.5387,75.971,18.3,52,0.0,802.2,8.5,39.6,137,29.7,14.4,0,5,7,0,2026-05-01T16:39:22.165237+05:30
Patiala,Punjab,30.3398,76.3869,35.0,27,0.0,972.3,7.5,38.5,527,543.9,72.2,0,5,7,0,2026-05-01T16:39:22.165249+05:30
Bhatinda,Punjab,30.211,74.9455,37.0,20,0.0,977.4,8.15,31.3,312,137.4,34.7,0,5,10,0,2026-05-01T16:39:22.165261+05:30
Rohtak,Haryana,28.8955,76.6066,36.5,23,0.0,975.3,7.6,32.0,616,472.2,82.0,0,5,10,0,2026-05-01T16:39:22.165274+05:30
Panipat,Haryana,29.3909,76.9635,34.3,34,0.0,974.4,7.45,32.8,1126,631.4,91.7,0,5,7,1,2026-05-01T16:39:22.165286+05:30
Mathura,Uttar Pradesh,27.4924,77.6737,36.8,27,0.0,979.8,7.85,28.1,637,448.9,64.7,0,5,10,0,2026-05-01T16:39:22.165298+05:30
Vrindavan,Uttar Pradesh,27.5823,77.7027,36.8,26,0.0,980.3,7.85,28.4,637,448.9,64.7,0,5,10,0,2026-05-01T16:39:22.165310+05:30
Ayodhya,Uttar Pradesh,26.7922,82.1998,31.0,44,0.0,990.4,8.15,28.4,119,87.3,25.6,0,5,7,1,2026-05-01T16:39:22.165322+05:30
Ratlam,Madhya Pradesh,23.3315,75.0367,38.2,18,0.0,949.9,8.45,41.4,58,53.6,15.8,0,5,10,0,2026-05-01T16:39:22.165335+05:30
Sagar,Madhya Pradesh,23.8388,78.7378,37.8,16,0.0,944.7,8.65,39.2,82,50.5,16.2,0,5,10,0,2026-05-01T16:39:22.165347+05:30
Satna,Madhya Pradesh,24.6005,80.8322,35.5,23,0.0,965.9,8.65,48.2,96,115.7,27.0,0,5,10,0,2026-05-01T16:39:22.165358+05:30
Akola,Maharashtra,20.7002,77.0082,40.0,15,0.0,969.4,8.9,40.0,59,43.5,14.9,0,5,10,0,2026-05-01T16:39:22.165368+05:30
Amravati,Maharashtra,20.9374,77.7796,39.7,17,0.0,961.7,8.85,41.0,73,42.8,14.8,0,5,10,0,2026-05-01T16:39:22.165379+05:30
Latur,Maharashtra,18.4088,76.5604,38.6,14,0.0,936.1,9.1,38.5,59,35.6,12.0,0,5,10,0,2026-05-01T16:39:22.165389+05:30
Nanded,Maharashtra,19.1383,77.3091,39.8,17,0.0,963.4,9.0,32.8,64,42.0,15.3,0,5,10,0,2026-05-01T16:39:22.165398+05:30
Gulbarga,Karnataka,17.3297,76.8343,39.5,13,0.0,954.1,9.1,44.6,55,39.5,12.9,0,5,10,0,2026-05-01T16:39:22.165408+05:30
Bidar,Karnataka,17.9104,77.5199,38.0,15,0.0,931.8,9.15,40.3,68,39.6,14.7,0,5,10,0,2026-05-01T16:39:22.165417+05:30
Hospet,Karnataka,15.2689,76.3909,38.2,19,0.0,951.8,9.25,43.6,63,31.7,13.8,0,5,10,0,2026-05-01T16:39:22.165427+05:30
Tirupur,Tamil Nadu,11.1085,77.3411,31.8,56,0.1,972.7,9.0,46.1,131,36.1,27.6,3,5,7,1,2026-05-01T16:39:22.165436+05:30
Alappuzha,Kerala,9.4981,76.3388,27.8,85,0.0,1006.9,8.7,34.6,52,14.0,11.0,7,5,4,1,2026-05-01T16:39:22.165446+05:30
Munnar,Kerala,10.0889,77.0595,18.9,97,0.3,855.7,8.3,27.7,47,18.7,13.8,6,10,7,1,2026-05-01T16:39:22.165457+05:30
Silchar,Assam,24.8333,92.7789,23.0,96,0.1,1001.6,1.0,25.6,102,22.6,22.2,6,5,0,1,2026-05-01T16:39:22.165467+05:30
Dibrugarh,Assam,27.4728,94.912,23.0,86,0.0,993.4,5.65,22.3,65,21.6,14.4,3,5,3,1,2026-05-01T16:39:22.165477+05:30
