city,state,latitude,longitude,temp,humidity,rain,pressure,uv_index,wind_gusts,aqi,pm10,pm2_5,no2,co,o3,so2,mosquito_risk,arthritis_risk,migraine_risk,frizz_risk,updated_at
Delhi,Delhi,28.6139,77.209,33.5,47,0.0,979.3,7.8,42.5,528,909.0,177.0,30.9,374.0,69.0,15.9,0,5,7,1,2026-06-20T21:51:34.189274+05:30
Mumbai,Maharashtra,19.076,72.8777,30.5,64,0.0,1009.4,7.75,41.0,52,18.6,10.6,7.8,166.0,41.0,5.4,3,0,4,1,2026-06-20T21:51:34.189320+05:30
Bangalore,Karnataka,12.9716,77.5946,23.7,91,0.0,913.1,8.0,30.2,67,78.5,68.7,77.3,1314.0,0.0,20.5,3,5,7,1,2026-06-20T21:51:34.189335+05:30
Hyderabad,Telangana,17.385,78.4867,29.8,54,0.1,954.4,8.4,39.6,73,39.3,32.8,29.5,424.0,53.0,9.1,7,5,7,1,2026-06-20T21:51:34.189345+05:30
Chennai,Tamil Nadu,13.0827,80.2707,29.8,76,0.0,1008.1,7.85,29.2,138,34.0,28.2,18.8,343.0,115.0,12.2,7,0,4,1,2026-06-20T21:51:34.189354+05:30
Kolkata,West Bengal,22.5726,88.3639,29.3,87,0.0,1003.8,8.45,28.8,158,42.3,39.6,10.2,562.0,109.0,9.8,7,5,4,1,2026-06-20T21:51:34.189362+05:30
Pune,Maharashtra,18.5204,73.8567,26.2,73,0.0,949.4,7.55,46.4,40,15.0,9.2,5.6,143.0,52.0,4.4,7,5,7,1,2026-06-20T21:51:34.189369+05:30
Ahmedabad,Gujarat,23.0225,72.5714,32.9,55,0.0,1000.8,8.05,36.7,72,49.6,25.1,12.9,186.0,55.0,5.1,0,5,4,1,2026-06-20T21:51:34.189375+05:30
Jaipur,Rajasthan,26.9124,75.7873,29.4,63,0.0,958.0,8.2,40.0,136,85.4,40.7,21.6,280.0,40.0,7.0,7,5,7,1,2026-06-20T21:51:34.189382+05:30
Lucknow,Uttar Pradesh,26.8467,80.9462,34.7,42,0.0,989.9,8.35,41.4,197,486.2,108.7,9.5,235.0,122.0,10.0,0,5,7,1,2026-06-20T21:51:34.189393+05:30
Kanpur,Uttar Pradesh,26.4499,80.3319,35.8,36,0.0,988.6,8.3,41.8,311,760.0,142.0,10.0,241.0,116.0,10.1,0,5,10,1,2026-06-20T21:51:34.189400+05:30
Chandigarh,Chandigarh,30.7333,76.7794,29.6,54,0.0,964.9,7.8,35.3,137,37.0,34.0,23.2,557.0,99.0,9.7,4,5,7,1,2026-06-20T21:51:34.189407+05:30
Srinagar,Jammu and Kashmir,34.0837,74.7973,16.7,93,0.0,842.3,9.05,28.8,67,27.6,24.1,27.7,1037.0,50.0,2.8,3,10,7,0,2026-06-20T21:51:34.189414+05:30
Jammu,Jammu and Kashmir,32.7266,74.857,32.1,33,0.0,968.7,8.6,33.5,95,50.6,38.5,42.4,512.0,75.0,6.8,0,5,7,0,2026-06-20T21:51:34.189423+05:30
Amritsar,Punjab,31.634,74.8723,29.6,56,0.0,976.4,8.45,24.1,156,54.7,42.4,29.4,576.0,84.0,11.1,4,5,7,1,2026-06-20T21:51:34.189430+05:30
Ludhiana,Punjab,30.901,75.8573,31.9,47,0.0,974.8,8.0,34.9,130,140.2,60.1,21.6,688.0,98.0,7.6,0,5,7,1,2026-06-20T21:51:34.189436+05:30
Jalandhar,Punjab,31.326,75.5762,31.6,48,0.0,975.5,8.25,32.8,143,85.7,49.8,25.6,990.0,90.0,7.9,0,5,7,1,2026-06-20T21:51:34.189442+05:30
Dehradun,Uttarakhand,30.6284,78.0322,18.0,83,0.0,828.5,8.25,26.6,108,39.6,33.6,28.6,295.0,82.0,2.8,3,10,7,0,2026-06-20T21:51:34.189449+05:30
Shimla,Himachal Pradesh,31.1048,77.1734,15.7,77,0.0,783.3,8.25,32.0,98,35.5,25.5,16.7,350.0,101.0,4.6,3,5,7,0,2026-06-20T21:51:34.189454+05:30
Manali,Himachal Pradesh,32.2396,77.1887,17.2,68,0.0,817.5,9.5,40.0,109,9.6,8.2,76.2,310.0,71.0,0.2,3,5,7,0,2026-06-20T21:51:34.189463+05:30
Gurgaon,Haryana,28.4595,77.0266,32.5,43,0.0,977.9,7.9,41.0,843,907.1,177.0,40.2,547.0,49.0,13.8,0,5,7,1,2026-06-20T21:51:34.189469+05:30
Noida,Uttar Pradesh,28.5355,77.391,33.2,49,0.0,980.6,7.85,36.4,843,907.1,177.0,40.2,611.0,49.0,13.8,0,5,7,1,2026-06-20T21:51:34.189475+05:30
Ghaziabad,Uttar Pradesh,28.6692,77.4538,31.9,56,0.0,978.9,7.8,40.7,431,732.0,156.5,25.2,349.0,79.0,16.9,0,5,7,1,2026-06-20T21:51:34.189483+05:30
Faridabad,Haryana,28.4089,77.3178,34.5,39,0.0,980.2,7.85,42.1,843,907.1,177.0,40.2,574.0,49.0,13.8,0,5,7,1,2026-06-20T21:51:34.189489+05:30
Meerut,Uttar Pradesh,28.9845,77.7064,31.9,54,0.0,977.6,7.75,43.6,431,732.0,156.5,25.2,304.0,79.0,16.9,0,5,7,1,2026-06-20T21:51:34.189496+05:30
Agra,Uttar Pradesh,27.1767,78.0081,33.4,46,0.0,984.7,8.15,38.9,625,802.8,121.1,25.2,210.0,48.0,8.0,0,5,7,1,2026-06-20T21:51:34.189502+05:30
Varanasi,Uttar Pradesh,25.3176,82.9739,34.6,48,0.0,993.9,8.8,37.8,114,75.7,42.8,18.2,338.0,66.0,9.6,0,5,7,1,2026-06-20T21:51:34.189508+05:30
Prayagraj,Uttar Pradesh,25.4358,81.8463,35.8,39,0.0,992.3,8.7,32.8,119,44.8,26.5,11.3,212.0,69.0,6.4,0,5,10,1,2026-06-20T21:51:34.189515+05:30
Gorakhpur,Uttar Pradesh,26.7606,83.3732,31.3,68,0.0,993.1,8.65,32.8,165,241.2,115.7,31.7,281.0,75.0,16.5,3,5,7,1,2026-06-20T21:51:34.189522+05:30
Bareilly,Uttar Pradesh,28.367,79.4304,32.1,56,0.0,982.6,8.15,33.8,161,170.9,67.3,14.9,324.0,108.0,11.6,0,5,7,1,2026-06-20T21:51:34.189534+05:30
Aligarh,Uttar Pradesh,27.8974,78.088,31.9,47,0.0,982.1,8.0,44.3,535,748.8,150.9,27.1,308.0,60.0,8.9,0,5,7,1,2026-06-20T21:51:34.189540+05:30
Moradabad,Uttar Pradesh,28.8386,78.7733,32.2,54,0.0,979.7,7.95,43.6,173,324.1,100.6,20.0,397.0,86.0,10.8,0,5,7,1,2026-06-20T21:51:34.189547+05:30
Saharanpur,Uttar Pradesh,29.9637,77.546,30.3,52,0.0,971.5,7.55,35.6,161,417.2,107.6,13.9,411.0,110.0,9.9,0,5,7,1,2026-06-20T21:51:34.189553+05:30
Jhansi,Uttar Pradesh,25.4484,78.5685,33.0,44,0.0,976.1,8.4,31.7,82,63.1,31.3,7.1,191.0,62.0,2.6,0,5,7,1,2026-06-20T21:51:37.499614+05:30
Surat,Gujarat,21.1702,72.8311,29.5,78,0.0,1006.8,7.6,42.8,62,20.9,14.7,16.7,234.0,33.0,26.5,7,5,4,1,2026-06-20T21:51:37.499649+05:30
Vadodara,Gujarat,22.3072,73.1812,30.3,69,0.0,1003.6,7.35,39.6,61,16.5,12.2,14.1,140.0,41.0,12.2,3,5,4,1,2026-06-20T21:51:37.499660+05:30
Rajkot,Gujarat,22.3039,70.8022,30.6,58,0.0,993.6,7.55,41.0,64,45.6,18.9,3.9,108.0,52.0,3.4,0,5,7,1,2026-06-20T21:51:37.499669+05:30
Thane,Maharashtra,19.2183,72.9781,30.3,65,0.0,1008.7,7.7,39.2,52,18.6,10.6,7.8,166.0,41.0,5.4,3,0,4,1,2026-06-20T21:51:37.499677+05:30
Nagpur,Maharashtra,21.1458,79.0882,34.9,31,0.0,972.7,8.9,42.8,62,27.8,21.7,15.3,207.0,66.0,11.4,0,5,7,0,2026-06-20T21:51:37.499685+05:30
Nashik,Maharashtra,19.9975,73.7898,26.4,72,0.0,946.6,8.05,43.2,39,16.2,9.6,3.6,120.0,47.0,1.4,7,5,7,1,2026-06-20T21:51:37.499692+05:30
Aurangabad,Maharashtra,19.8762,75.3433,30.6,46,0.0,944.7,9.0,35.3,48,14.6,10.3,4.9,142.0,78.0,3.8,0,5,7,1,2026-06-20T21:51:37.499699+05:30
Solapur,Maharashtra,17.6599,75.9064,27.0,78,0.1,958.0,8.4,36.0,54,19.6,14.3,5.6,238.0,87.0,2.6,10,5,7,1,2026-06-20T21:51:37.499707+05:30
Kolhapur,Maharashtra,16.705,74.2433,25.4,75,0.0,949.5,8.45,40.7,46,14.4,9.5,4.9,166.0,46.0,2.1,7,5,7,1,2026-06-20T21:51:37.499714+05:30
Goa,Goa,15.2993,74.124,27.4,83,0.0,999.4,8.05,27.0,59,21.1,14.2,5.4,325.0,42.0,1.6,7,5,7,1,2026-06-20T21:51:37.499722+05:30
Jodhpur,Rajasthan,26.2389,73.0243,33.2,46,0.0,980.7,8.4,38.9,109,167.6,41.1,7.1,149.0,56.0,2.2,0,5,7,1,2026-06-20T21:51:37.499729+05:30
Udaipur,Rajasthan,24.5854,73.7125,28.5,60,0.0,945.6,8.8,36.4,75,43.9,21.4,5.3,154.0,69.0,3.3,4,5,7,1,2026-06-20T21:51:37.499735+05:30
Kota,Rajasthan,25.2138,75.8648,28.4,73,0.0,977.8,8.35,37.4,93,69.2,36.7,12.2,305.0,56.0,5.3,7,5,7,1,2026-06-20T21:51:37.499743+05:30
Bikaner,Rajasthan,28.0229,73.3119,31.3,60,0.0,978.6,8.45,31.3,115,132.2,44.8,5.2,201.0,56.0,1.9,0,5,7,1,2026-06-20T21:51:37.499749+05:30
Ajmer,Rajasthan,26.4499,74.6399,29.1,59,0.0,953.0,8.35,45.0,82,54.1,28.0,8.9,170.0,57.0,3.2,4,5,7,1,2026-06-20T21:51:37.499756+05:30
Gwalior,Madhya Pradesh,26.2183,78.1828,33.5,45,0.0,981.0,7.7,36.4,92,97.3,42.4,8.3,153.0,62.0,3.3,0,5,7,1,2026-06-20T21:51:37.499763+05:30
Indore,Madhya Pradesh,22.7196,75.8577,30.0,52,0.0,948.3,7.9,39.6,73,35.6,30.0,24.1,376.0,37.0,6.4,4,5,7,1,2026-06-20T21:51:37.499770+05:30
Bhopal,Madhya Pradesh,23.2599,77.4126,28.0,68,0.0,953.3,8.65,38.5,73,29.1,21.4,10.1,341.0,63.0,4.0,7,5,7,1,2026-06-20T21:51:37.499777+05:30
Jabalpur,Madhya Pradesh,23.1815,79.9864,31.9,48,0.0,960.8,8.35,32.8,74,34.5,24.4,8.7,199.0,72.0,4.0,0,5,7,1,2026-06-20T21:51:37.499783+05:30
Ujjain,Madhya Pradesh,23.1765,75.7885,29.7,56,0.0,953.7,8.55,41.8,74,53.1,36.0,10.9,476.0,60.0,4.7,4,5,7,1,2026-06-20T21:51:37.499790+05:30
Visakhapatnam,Andhra Pradesh,17.6868,83.2185,27.9,97,0.0,1003.3,8.65,36.4,134,66.4,59.6,40.8,304.0,98.0,71.7,7,5,4,1,2026-06-20T21:51:37.499797+05:30
Vijayawada,Andhra Pradesh,16.5062,80.648,30.9,72,0.0,1002.0,8.55,30.6,81,45.6,40.2,22.2,391.0,65.0,8.3,3,5,4,1,2026-06-20T21:51:37.499803+05:30
Guntur,Andhra Pradesh,16.3067,80.4365,30.8,72,0.0,1003.2,8.0,31.3,80,42.6,37.1,23.1,249.0,61.0,7.6,3,5,4,1,2026-06-20T21:51:37.499810+05:30
Nellore,Andhra Pradesh,14.4426,79.9865,30.7,65,0.0,1006.1,7.7,30.6,74,26.8,22.4,7.4,242.0,104.0,7.3,3,5,4,1,2026-06-20T21:51:37.499817+05:30
Kurnool,Andhra Pradesh,15.8281,78.0373,30.8,54,0.0,977.3,5.35,31.7,69,46.0,37.1,27.8,359.0,60.0,11.1,0,5,3,1,2026-06-20T21:51:37.499825+05:30
Kakinada,Andhra Pradesh,16.9891,82.2475,29.9,74,0.0,1007.0,7.1,37.1,107,30.7,24.7,6.1,325.0,108.0,5.4,7,5,4,1,2026-06-20T21:51:37.499831+05:30
Tirupati,Andhra Pradesh,13.6288,79.4192,28.3,72,0.0,992.2,7.95,21.6,63,20.8,18.6,16.7,236.0,61.0,2.8,7,5,7,1,2026-06-20T21:51:37.499838+05:30
Warangal,Telangana,17.9689,79.5941,33.5,47,0.0,978.5,6.6,38.2,121,56.0,48.8,30.1,431.0,46.0,8.6,0,5,7,1,2026-06-20T21:51:37.499845+05:30
Nizamabad,Telangana,18.6725,78.0941,30.7,52,0.0,964.8,8.95,33.8,74,22.4,19.3,9.6,481.0,75.0,3.4,0,5,7,1,2026-06-20T21:51:37.499851+05:30
Mysore,Karnataka,12.2958,76.6396,23.6,84,0.0,930.4,8.25,35.6,59,25.3,17.3,19.8,189.0,39.0,3.4,3,5,7,1,2026-06-20T21:51:37.499857+05:30
Mangalore,Karnataka,12.9141,74.856,26.7,89,0.2,1009.0,7.8,31.3,74,9.3,7.7,7.1,313.0,36.0,2.0,10,0,4,1,2026-06-20T21:51:37.499864+05:30
Hubli-Dharwad,Karnataka,15.3647,75.124,24.6,82,0.0,942.5,8.15,41.8,43,17.3,10.3,5.1,136.0,44.0,1.4,3,5,7,1,2026-06-20T21:51:37.499871+05:30
Belgaum,Karnataka,15.8497,74.4977,22.9,89,0.0,927.1,8.9,34.9,50,18.9,10.9,6.1,138.0,44.0,2.4,3,5,7,1,2026-06-20T21:51:40.811346+05:30
Coimbatore,Tamil Nadu,11.0168,76.9558,25.9,76,0.0,963.9,8.25,40.7,59,24.9,16.9,10.8,241.0,51.0,3.9,7,5,7,1,2026-06-20T21:51:40.811383+05:30
Madurai,Tamil Nadu,9.9252,78.1198,28.7,69,0.0,995.4,8.65,29.5,64,26.5,19.7,18.9,344.0,58.0,5.8,7,5,7,1,2026-06-20T21:51:40.811394+05:30
Trichy,Tamil Nadu,10.7905,78.7047,28.7,80,0.0,1001.8,8.4,33.5,58,24.2,18.2,12.1,313.0,64.0,4.3,7,5,4,1,2026-06-20T21:51:40.811402+05:30
Salem,Tamil Nadu,11.6643,78.146,27.3,82,0.0,979.2,8.2,19.8,71,36.9,26.0,23.6,723.0,75.0,10.1,7,5,7,1,2026-06-20T21:51:40.811411+05:30
Tirunelveli,Tamil Nadu,8.7139,77.7567,29.9,64,0.0,1005.0,8.6,24.1,62,18.6,13.2,8.2,233.0,50.0,2.2,7,5,4,1,2026-06-20T21:51:40.811419+05:30
Vellore,Tamil Nadu,12.9165,79.1325,27.4,78,0.0,985.9,7.8,32.0,68,24.9,22.8,19.2,301.0,58.0,4.1,7,5,7,1,2026-06-20T21:51:40.811426+05:30
Erode,Tamil Nadu,11.341,77.7172,27.7,71,0.0,990.9,8.25,24.5,68,31.1,22.2,17.6,580.0,55.0,4.2,7,5,7,1,2026-06-20T21:51:40.811434+05:30
Kochi,Kerala,9.9312,76.2673,27.7,87,0.0,1011.3,8.5,25.6,103,33.8,30.3,33.7,289.0,9.0,7.9,7,0,4,1,2026-06-20T21:51:40.811441+05:30
Thiruvananthapuram,Kerala,8.5241,76.9366,26.4,89,0.0,1011.0,8.25,34.2,56,10.2,6.3,3.1,441.0,52.0,1.3,7,0,4,1,2026-06-20T21:51:40.811450+05:30
Kozhikode,Kerala,11.2588,75.7804,26.1,95,0.1,1010.6,8.0,28.8,52,7.8,5.1,1.7,497.0,52.0,0.9,10,0,4,1,2026-06-20T21:51:40.811457+05:30
Thrissur,Kerala,10.5276,76.2144,26.4,92,0.0,1009.8,8.4,23.8,110,32.6,28.9,24.4,488.0,19.0,6.5,7,0,4,1,2026-06-20T21:51:40.811465+05:30
Kannur,Kerala,11.8745,75.3704,26.1,95,0.0,1009.6,7.8,34.2,70,11.1,8.9,9.6,286.0,35.0,2.1,7,0,4,1,2026-06-20T21:51:40.811473+05:30
Patna,Bihar,25.5941,85.1376,32.3,78,0.0,996.6,8.85,25.6,156,119.7,84.8,37.2,393.0,68.0,16.9,3,5,7,1,2026-06-20T21:51:40.811480+05:30
Gaya,Bihar,24.7914,85.0002,32.2,59,0.0,990.6,8.8,29.5,104,78.5,44.8,14.2,412.0,82.0,8.1,0,5,7,1,2026-06-20T21:51:40.811487+05:30
Muzaffarpur,Bihar,26.1209,85.3647,30.0,76,0.0,996.8,8.85,29.9,163,110.8,90.6,26.7,963.0,98.0,18.0,7,5,7,1,2026-06-20T21:51:40.811493+05:30
Bhagalpur,Bihar,25.2425,87.0117,29.2,89,0.1,997.9,8.8,24.8,156,98.3,65.0,21.1,411.0,105.0,17.3,10,5,7,1,2026-06-20T21:51:40.811500+05:30
Ranchi,Jharkhand,23.3441,85.3096,25.6,82,0.0,936.4,9.2,29.5,101,32.9,25.8,9.2,252.0,86.0,2.1,7,5,7,1,2026-06-20T21:51:40.811507+05:30
Jamshedpur,Jharkhand,22.8046,86.2029,30.0,74,0.0,988.9,8.6,32.8,151,61.9,49.1,19.8,422.0,84.0,18.3,7,5,7,1,2026-06-20T21:51:40.811514+05:30
Dhanbad,Jharkhand,23.7957,86.4304,29.3,82,0.0,977.6,8.9,27.4,159,67.8,58.1,46.2,800.0,58.0,110.4,7,5,7,1,2026-06-20T21:51:40.811520+05:30
Bokaro,Jharkhand,23.6693,86.1511,29.9,75,0.0,981.5,9.05,21.2,151,51.7,43.0,28.8,169.0,70.0,74.7,7,5,7,1,2026-06-20T21:51:40.811527+05:30
Bhubaneswar,Odisha,20.2961,85.8245,28.4,89,0.0,1001.2,8.85,38.5,97,35.4,33.3,10.6,435.0,110.0,8.0,7,5,4,1,2026-06-20T21:51:40.811534+05:30
Cuttack,Odisha,20.4625,85.8828,28.8,90,0.0,1002.8,9.15,32.0,97,35.4,33.3,10.6,568.0,110.0,8.0,7,5,4,1,2026-06-20T21:51:40.811541+05:30
Rourkela,Odisha,22.2604,84.8536,28.9,80,0.0,983.7,8.8,29.9,134,58.6,45.3,19.9,845.0,100.0,11.7,7,5,7,1,2026-06-20T21:51:40.811547+05:30
Raipur,Chhattisgarh,21.2514,81.6296,34.0,36,0.0,972.9,8.65,32.0,104,42.5,36.7,38.4,385.0,54.0,54.1,0,5,7,1,2026-06-20T21:51:40.811554+05:30
Bhilai,Chhattisgarh,21.1938,81.3509,34.3,34,0.0,973.6,8.95,34.9,102,40.4,34.2,31.7,978.0,60.0,41.2,0,5,7,1,2026-06-20T21:51:40.811561+05:30
Guwahati,Assam,26.1158,91.7086,26.3,96,0.0,999.9,8.7,29.5,139,59.4,53.3,14.0,506.0,62.0,4.8,7,5,7,1,2026-06-20T21:51:40.811568+05:30
Agartala,Tripura,23.8315,91.2868,26.7,92,0.0,1005.6,8.65,34.2,81,17.2,16.3,10.4,205.0,61.0,2.2,7,5,4,1,2026-06-20T21:51:40.811574+05:30
Shillong,Meghalaya,25.5788,91.8933,19.9,95,0.0,856.8,6.25,29.9,75,32.4,27.4,7.2,216.0,97.0,3.1,3,10,7,1,2026-06-20T21:51:40.811581+05:30
Imphal,Manipur,24.817,93.9368,23.5,90,0.0,923.2,9.25,34.6,71,38.8,34.2,23.6,479.0,38.0,4.9,3,5,7,1,2026-06-20T21:51:40.811588+05:30
Aizawl,Mizoram,23.7271,92.7176,20.3,90,0.0,892.8,8.55,37.4,53,8.2,7.2,3.4,157.0,62.0,1.0,3,5,7,1,2026-06-20T21:51:40.811594+05:30
Kohima,Nagaland,25.6701,94.1077,19.6,89,0.0,855.0,9.0,27.7,53,18.5,14.0,12.6,397.0,51.0,2.1,3,10,7,1,2026-06-20T21:51:40.811600+05:30
Gangtok,Sikkim,27.3314,88.6138,18.7,95,0.6,836.8,8.0,30.2,90,13.4,12.1,8.5,414.0,120.0,5.3,6,10,7,1,2026-06-20T21:51:40.811607+05:30
Siliguri,West Bengal,26.7271,88.3953,25.0,99,0.1,991.2,8.65,19.8,152,40.2,34.8,11.8,540.0,110.0,8.0,10,5,7,1,2026-06-20T21:51:44.123065+05:30
Durgapur,West Bengal,23.5204,87.3119,28.3,90,0.0,992.6,8.9,38.5,171,84.1,75.2,28.7,666.0,86.0,41.1,7,5,7,1,2026-06-20T21:51:44.123102+05:30
Asansol,West Bengal,23.6739,86.9524,28.6,84,0.0,991.1,8.95,38.5,162,73.6,64.3,35.1,347.0,77.0,54.8,7,5,7,1,2026-06-20T21:51:44.123113+05:30
Pondicherry,Puducherry,11.9139,79.8145,28.2,85,0.0,1010.1,7.95,33.8,112,24.8,20.2,9.7,361.0,103.0,6.6,7,0,4,1,2026-06-20T21:51:44.123123+05:30
Port Blair,Andaman and Nicobar Islands,11.6234,92.7265,27.5,81,0.0,1010.6,8.75,33.8,44,45.4,20.5,0.3,98.0,49.0,0.5,7,0,4,1,2026-06-20T21:51:44.123131+05:30
Haridwar,Uttarakhand,29.9457,78.1642,29.5,66,0.0,970.0,7.65,31.0,156,223.1,68.7,15.7,390.0,106.0,11.4,7,5,7,1,2026-06-20T21:51:44.123139+05:30
Rishikesh,Uttarakhand,30.0869,78.2676,28.6,65,0.0,962.8,7.75,29.2,138,118.5,46.4,12.0,398.0,128.0,10.0,7,5,7,1,2026-06-20T21:51:44.123146+05:30
Nainital,Uttarakhand,29.3919,79.4542,16.7,88,0.0,804.2,6.75,29.5,116,98.5,44.6,13.0,383.0,106.0,7.3,3,10,7,0,2026-06-20T21:51:44.123155+05:30
Mussoorie,Uttarakhand,30.4599,78.0664,16.0,87,0.0,801.0,8.15,39.6,134,56.1,35.4,18.5,406.0,120.0,9.9,3,10,7,0,2026-06-20T21:51:44.123163+05:30
Dharamshala,Himachal Pradesh,32.219,76.3234,21.4,71,0.0,867.2,8.45,43.9,79,22.8,17.9,15.1,382.0,62.0,0.9,3,5,7,0,2026-06-20T21:51:44.123171+05:30
Dalhousie,Himachal Pradesh,32.5387,75.971,14.2,96,0.0,801.5,8.75,30.6,103,34.7,26.5,29.8,494.0,97.0,2.7,3,10,7,0,2026-06-20T21:51:44.123178+05:30
Patiala,Punjab,30.3398,76.3869,31.2,52,0.0,974.3,7.7,35.3,458,1028.2,181.6,14.4,423.0,101.0,7.8,0,5,7,1,2026-06-20T21:51:44.123186+05:30
Bhatinda,Punjab,30.211,74.9455,32.4,50,0.0,980.0,8.35,26.6,131,70.5,43.0,22.6,389.0,70.0,6.5,0,5,7,1,2026-06-20T21:51:44.123193+05:30
Rohtak,Haryana,28.8955,76.6066,31.1,56,0.0,977.9,7.8,33.5,540,886.6,170.9,37.7,357.0,50.0,8.8,0,5,7,1,2026-06-20T21:51:44.123200+05:30
Panipat,Haryana,29.3909,76.9635,31.4,53,0.0,976.5,7.65,34.2,1514,2384.2,362.3,19.9,341.0,88.0,9.1,0,5,7,1,2026-06-20T21:51:44.123227+05:30
Mathura,Uttar Pradesh,27.4924,77.6737,30.9,53,0.0,983.6,8.1,35.3,343,566.2,99.4,32.3,243.0,37.0,5.3,0,5,7,1,2026-06-20T21:51:44.123235+05:30
Vrindavan,Uttar Pradesh,27.5823,77.7027,31.0,52,0.0,984.0,8.05,36.0,343,566.2,99.4,32.3,245.0,37.0,5.3,0,5,7,1,2026-06-20T21:51:44.123241+05:30
Ayodhya,Uttar Pradesh,26.7922,82.1998,32.3,60,0.0,991.1,8.4,33.1,162,218.4,81.7,12.8,306.0,96.0,9.2,0,5,7,1,2026-06-20T21:51:44.123248+05:30
Ratlam,Madhya Pradesh,23.3315,75.0367,29.2,60,0.0,954.5,8.45,37.1,72,40.7,25.2,3.9,150.0,75.0,4.5,4,5,7,1,2026-06-20T21:51:44.123255+05:30
Sagar,Madhya Pradesh,23.8388,78.7378,28.2,62,0.0,949.7,8.75,44.6,74,32.2,21.5,5.9,174.0,77.0,2.7,7,5,7,1,2026-06-20T21:51:44.123262+05:30
Satna,Madhya Pradesh,24.6005,80.8322,33.0,44,0.0,969.4,8.8,33.1,65,54.0,27.6,7.8,185.0,77.0,3.7,0,5,7,1,2026-06-20T21:51:44.123269+05:30
Akola,Maharashtra,20.7002,77.0082,31.3,55,0.0,974.5,8.8,41.8,54,22.8,15.9,9.4,162.0,78.0,6.9,0,5,7,1,2026-06-20T21:51:44.123276+05:30
Amravati,Maharashtra,20.9374,77.7796,30.9,51,0.0,967.0,8.8,45.7,56,22.7,16.3,10.8,293.0,73.0,6.8,0,5,7,1,2026-06-20T21:51:44.123284+05:30
Latur,Maharashtra,18.4088,76.5604,29.7,53,0.0,940.8,8.95,34.6,57,31.0,24.6,13.3,263.0,71.0,3.6,4,5,7,1,2026-06-20T21:51:44.123291+05:30
Nanded,Maharashtra,19.1383,77.3091,32.5,46,0.0,968.4,8.9,33.1,64,28.9,23.1,13.0,236.0,75.0,4.6,0,5,7,1,2026-06-20T21:51:44.123298+05:30
Gulbarga,Karnataka,17.3297,76.8343,31.7,43,0.0,959.3,8.5,33.8,58,26.8,20.1,22.4,306.0,57.0,4.5,0,5,7,1,2026-06-20T21:51:44.123304+05:30
Bidar,Karnataka,17.9104,77.5199,29.4,54,0.0,936.0,8.5,33.1,72,27.6,25.1,22.1,300.0,55.0,3.0,4,5,7,1,2026-06-20T21:51:44.123310+05:30
Hospet,Karnataka,15.2689,76.3909,28.4,58,0.0,957.0,8.3,34.6,51,21.1,12.5,8.0,200.0,61.0,1.7,4,5,7,1,2026-06-20T21:51:44.123317+05:30
Tirupur,Tamil Nadu,11.1085,77.3411,26.9,73,0.0,977.1,8.3,38.9,69,32.8,24.1,20.5,184.0,47.0,5.3,7,5,7,1,2026-06-20T21:51:44.123323+05:30
Alappuzha,Kerala,9.4981,76.3388,27.6,87,0.0,1011.5,8.5,31.0,75,18.2,14.8,14.2,91.0,34.0,3.4,7,0,4,1,2026-06-20T21:51:44.123329+05:30
Munnar,Kerala,10.0889,77.0595,16.5,88,0.0,858.1,8.95,29.5,58,27.2,20.3,16.8,183.0,30.0,2.9,3,10,7,0,2026-06-20T21:51:44.123336+05:30
Silchar,Assam,24.8333,92.7789,25.4,96,0.1,1004.8,8.4,31.3,87,37.3,32.1,9.8,311.0,87.0,4.9,10,5,4,1,2026-06-20T21:51:44.123342+05:30
Dibrugarh,Assam,27.4728,94.912,25.2,97,0.0,994.0,8.45,27.7,84,40.9,32.5,10.6,284.0,76.0,2.8,7,5,7,1,2026-06-20T21:51:44.123349+05:30
