city,state,latitude,longitude,temp,humidity,rain,pressure,uv_index,wind_gusts,aqi,pm10,pm2_5,no2,co,o3,so2,mosquito_risk,arthritis_risk,migraine_risk,frizz_risk,updated_at
Delhi,Delhi,28.6139,77.209,36.2,38,0.0,979.8,7.75,30.2,218,405.1,115.3,16.1,235.0,222.0,46.7,0,5,10,1,2026-06-15T11:57:11.288680+05:30
Mumbai,Maharashtra,19.076,72.8777,31.7,65,0.1,1009.1,7.7,46.8,58,33.2,16.1,3.3,143.0,75.0,4.5,6,0,4,1,2026-06-15T11:57:11.288727+05:30
Bangalore,Karnataka,12.9716,77.5946,29.0,51,0.0,913.1,9.15,42.5,56,34.3,15.5,2.9,208.0,84.0,3.0,4,5,7,1,2026-06-15T11:57:11.288743+05:30
Hyderabad,Telangana,17.385,78.4867,32.9,45,0.0,952.5,9.05,40.3,90,52.5,26.4,2.1,206.0,113.0,5.6,0,5,7,1,2026-06-15T11:57:11.288753+05:30
Chennai,Tamil Nadu,13.0827,80.2707,36.2,45,0.0,1005.2,8.15,37.8,69,38.6,27.0,6.1,177.0,142.0,11.2,0,5,7,1,2026-06-15T11:57:11.288761+05:30
Kolkata,West Bengal,22.5726,88.3639,35.7,51,0.0,1002.0,9.0,34.6,116,44.0,33.9,3.4,347.0,145.0,9.8,0,5,7,1,2026-06-15T11:57:11.288770+05:30
Pune,Maharashtra,18.5204,73.8567,32.3,47,0.1,949.1,8.3,49.7,52,27.3,14.0,1.9,133.0,93.0,5.9,3,5,7,1,2026-06-15T11:57:11.288776+05:30
Ahmedabad,Gujarat,23.0225,72.5714,35.6,43,0.0,1000.5,8.05,44.6,67,55.4,17.6,1.4,124.0,75.0,2.8,0,5,7,1,2026-06-15T11:57:11.288783+05:30
Jaipur,Rajasthan,26.9124,75.7873,34.1,49,0.0,957.8,8.25,30.2,139,211.9,53.6,1.1,147.0,89.0,4.3,0,5,7,1,2026-06-15T11:57:11.288794+05:30
Lucknow,Uttar Pradesh,26.8467,80.9462,35.7,45,0.0,990.0,8.35,20.2,178,357.6,87.8,2.2,200.0,175.0,12.3,0,5,10,1,2026-06-15T11:57:11.288801+05:30
Kanpur,Uttar Pradesh,26.4499,80.3319,37.9,32,0.0,988.6,8.3,31.0,257,367.9,75.9,2.1,166.0,149.0,7.1,0,5,10,1,2026-06-15T11:57:11.288807+05:30
Chandigarh,Chandigarh,30.7333,76.7794,34.6,37,0.0,965.8,7.8,22.7,79,46.9,20.8,2.1,323.0,170.0,7.5,0,5,7,1,2026-06-15T11:57:11.288814+05:30
Srinagar,Jammu and Kashmir,34.0837,74.7973,23.9,50,0.0,841.8,9.05,31.7,78,24.5,13.7,1.5,325.0,146.0,3.4,0,5,7,0,2026-06-15T11:57:11.288821+05:30
Jammu,Jammu and Kashmir,32.7266,74.857,31.8,39,0.0,970.8,8.3,30.2,80,45.1,22.0,1.8,308.0,166.0,3.9,0,5,7,1,2026-06-15T11:57:11.288828+05:30
Amritsar,Punjab,31.634,74.8723,34.7,39,0.0,977.3,8.45,20.5,113,32.7,17.5,1.6,309.0,163.0,3.6,0,5,7,1,2026-06-15T11:57:11.288833+05:30
Ludhiana,Punjab,30.901,75.8573,36.6,30,0.0,975.2,8.05,31.3,131,149.5,39.9,1.9,352.0,162.0,7.1,0,5,10,1,2026-06-15T11:57:11.288840+05:30
Jalandhar,Punjab,31.326,75.5762,35.5,37,0.0,976.3,8.2,25.2,97,61.7,26.2,1.9,323.0,175.0,5.8,0,5,10,1,2026-06-15T11:57:11.288847+05:30
Dehradun,Uttarakhand,30.6284,78.0322,24.1,48,0.0,831.9,8.25,34.9,35,15.1,8.8,0.7,189.0,142.0,2.7,0,5,7,0,2026-06-15T11:57:11.288853+05:30
Shimla,Himachal Pradesh,31.1048,77.1734,22.1,42,0.0,786.7,8.3,37.8,52,21.5,10.5,0.8,177.0,148.0,3.8,0,5,7,0,2026-06-15T11:57:11.288861+05:30
Manali,Himachal Pradesh,32.2396,77.1887,22.3,50,0.1,819.6,10.0,34.9,65,4.3,3.4,3.8,136.0,134.0,0.4,3,5,7,0,2026-06-15T11:57:11.288874+05:30
Gurgaon,Haryana,28.4595,77.0266,36.9,36,0.0,978.3,7.85,40.0,425,746.9,138.8,13.2,181.0,166.0,32.0,0,5,10,1,2026-06-15T11:57:11.288880+05:30
Noida,Uttar Pradesh,28.5355,77.391,36.0,37,0.0,981.3,7.8,32.8,425,746.9,138.8,13.2,224.0,166.0,32.0,0,5,10,1,2026-06-15T11:57:11.288886+05:30
Ghaziabad,Uttar Pradesh,28.6692,77.4538,35.2,39,0.0,979.7,7.8,28.8,194,412.6,108.5,5.8,300.0,214.0,33.2,0,5,10,1,2026-06-15T11:57:11.288892+05:30
Faridabad,Haryana,28.4089,77.3178,36.5,35,0.0,980.6,7.85,40.7,425,746.9,138.8,13.2,194.0,166.0,32.0,0,5,10,1,2026-06-15T11:57:11.288898+05:30
Meerut,Uttar Pradesh,28.9845,77.7064,34.6,46,0.0,978.6,7.7,37.4,194,412.6,108.5,5.8,272.0,214.0,33.2,0,5,7,1,2026-06-15T11:57:11.288904+05:30
Agra,Uttar Pradesh,27.1767,78.0081,37.6,33,0.0,984.9,8.15,70.9,592,1203.3,148.5,2.2,168.0,128.0,5.6,0,5,10,1,2026-06-15T11:57:11.288911+05:30
Varanasi,Uttar Pradesh,25.3176,82.9739,39.3,29,0.0,993.6,8.8,35.3,150,255.2,63.3,1.6,264.0,158.0,9.7,0,5,10,1,2026-06-15T11:57:11.288917+05:30
Prayagraj,Uttar Pradesh,25.4358,81.8463,38.8,31,0.0,992.4,8.75,34.2,153,213.7,60.5,2.0,186.0,164.0,10.0,0,5,10,1,2026-06-15T11:57:11.288924+05:30
Gorakhpur,Uttar Pradesh,26.7606,83.3732,35.8,45,0.0,993.5,8.7,28.8,148,177.9,63.3,2.1,309.0,188.0,10.5,0,5,10,1,2026-06-15T11:57:11.288933+05:30
Bareilly,Uttar Pradesh,28.367,79.4304,35.4,46,0.0,983.5,8.1,48.2,157,224.4,56.6,2.0,324.0,175.0,10.5,0,5,10,1,2026-06-15T11:57:11.288939+05:30
Aligarh,Uttar Pradesh,27.8974,78.088,36.3,35,0.0,982.8,8.0,38.5,365,532.7,119.7,4.1,183.0,180.0,19.5,0,5,10,1,2026-06-15T11:57:11.288945+05:30
Moradabad,Uttar Pradesh,28.8386,78.7733,35.8,41,0.0,980.6,7.95,59.0,168,164.4,55.8,4.1,277.0,207.0,22.2,0,5,10,1,2026-06-15T11:57:11.288951+05:30
Saharanpur,Uttar Pradesh,29.9637,77.546,34.2,45,0.0,972.7,7.5,44.3,109,48.8,23.3,2.3,352.0,186.0,8.4,0,5,7,1,2026-06-15T11:57:11.288957+05:30
Jhansi,Uttar Pradesh,25.4484,78.5685,36.6,36,0.0,975.9,8.5,32.8,105,138.8,42.0,1.1,132.0,104.0,6.0,0,5,10,1,2026-06-15T11:57:14.597242+05:30
Surat,Gujarat,21.1702,72.8311,34.5,50,0.0,1006.3,7.55,50.8,71,51.0,23.2,8.7,306.0,61.0,27.6,0,5,4,1,2026-06-15T11:57:14.597278+05:30
Vadodara,Gujarat,22.3072,73.1812,35.2,45,0.0,1003.1,8.0,47.2,74,58.3,20.3,1.7,123.0,76.0,3.4,0,5,7,1,2026-06-15T11:57:14.597288+05:30
Rajkot,Gujarat,22.3039,70.8022,35.5,42,0.0,992.8,7.55,57.6,65,48.8,16.8,1.2,102.0,74.0,3.4,0,5,10,1,2026-06-15T11:57:14.597296+05:30
Thane,Maharashtra,19.2183,72.9781,33.4,56,0.0,1008.2,7.7,46.4,58,33.2,16.1,3.3,128.0,75.0,4.5,0,0,4,1,2026-06-15T11:57:14.597304+05:30
Nagpur,Maharashtra,21.1458,79.0882,36.5,32,0.0,971.3,8.9,50.4,98,102.0,45.8,4.6,157.0,131.0,19.7,0,5,10,1,2026-06-15T11:57:14.597312+05:30
Nashik,Maharashtra,19.9975,73.7898,32.6,43,0.0,946.2,8.05,54.0,53,48.7,17.3,0.8,111.0,72.0,1.0,0,5,7,1,2026-06-15T11:57:14.597320+05:30
Aurangabad,Maharashtra,19.8762,75.3433,34.5,34,0.0,944.3,8.95,49.7,60,44.9,17.6,0.9,118.0,88.0,2.3,0,5,7,1,2026-06-15T11:57:14.597327+05:30
Solapur,Maharashtra,17.6599,75.9064,34.6,38,0.0,957.3,8.9,55.1,61,42.3,18.0,1.2,118.0,96.0,3.8,0,5,7,1,2026-06-15T11:57:14.597336+05:30
Kolhapur,Maharashtra,16.705,74.2433,32.3,46,0.0,949.3,8.75,48.2,51,24.9,12.2,1.3,116.0,82.0,1.7,0,5,7,1,2026-06-15T11:57:14.597343+05:30
Goa,Goa,15.2993,74.124,32.0,66,0.0,999.3,7.9,34.6,62,23.5,12.8,0.9,125.0,68.0,1.7,3,5,7,1,2026-06-15T11:57:14.597350+05:30
Jodhpur,Rajasthan,26.2389,73.0243,33.9,48,0.0,980.8,8.45,44.3,169,290.6,56.0,0.7,107.0,72.0,1.7,0,5,7,1,2026-06-15T11:57:14.597357+05:30
Udaipur,Rajasthan,24.5854,73.7125,31.6,50,0.0,945.4,8.85,46.4,71,56.1,19.4,0.7,108.0,72.0,2.3,0,5,7,1,2026-06-15T11:57:14.597364+05:30
Kota,Rajasthan,25.2138,75.8648,35.7,37,0.0,976.9,8.35,32.0,103,114.8,33.5,1.0,124.0,90.0,4.9,0,5,10,1,2026-06-15T11:57:14.597371+05:30
Bikaner,Rajasthan,28.0229,73.3119,37.0,38,0.0,978.4,8.5,37.8,164,179.7,64.3,0.5,109.0,86.0,3.7,0,5,10,1,2026-06-15T11:57:14.597378+05:30
Ajmer,Rajasthan,26.4499,74.6399,32.3,53,0.0,953.1,8.35,45.7,113,124.3,36.4,0.7,115.0,77.0,2.8,0,5,7,1,2026-06-15T11:57:14.597385+05:30
Gwalior,Madhya Pradesh,26.2183,78.1828,36.7,36,0.0,980.7,8.3,56.5,107,138.8,39.2,0.8,131.0,97.0,3.7,0,5,10,1,2026-06-15T11:57:14.597393+05:30
Indore,Madhya Pradesh,22.7196,75.8577,33.9,40,0.0,947.6,8.6,45.0,96,61.7,25.8,1.3,156.0,91.0,5.2,0,5,7,1,2026-06-15T11:57:14.597399+05:30
Bhopal,Madhya Pradesh,23.2599,77.4126,35.1,37,0.0,952.4,8.65,63.4,102,60.3,30.0,1.1,154.0,101.0,5.6,0,5,10,1,2026-06-15T11:57:14.597406+05:30
Jabalpur,Madhya Pradesh,23.1815,79.9864,35.1,34,0.0,960.1,8.85,32.0,94,110.1,40.6,0.9,136.0,111.0,2.9,0,5,10,1,2026-06-15T11:57:14.597413+05:30
Ujjain,Madhya Pradesh,23.1765,75.7885,34.4,40,0.0,953.2,8.55,50.0,91,61.5,22.9,0.8,123.0,83.0,4.1,0,5,7,1,2026-06-15T11:57:14.597421+05:30
Visakhapatnam,Andhra Pradesh,17.6868,83.2185,33.6,59,0.0,1000.0,8.75,37.4,147,70.5,51.1,17.7,445.0,168.0,55.4,0,5,4,1,2026-06-15T11:57:14.597428+05:30
Vijayawada,Andhra Pradesh,16.5062,80.648,35.1,49,0.0,999.4,9.0,33.8,92,80.6,46.2,6.0,244.0,118.0,12.9,0,5,10,1,2026-06-15T11:57:14.597435+05:30
Guntur,Andhra Pradesh,16.3067,80.4365,36.5,41,0.0,1000.5,9.0,40.3,89,83.6,46.1,3.2,233.0,133.0,9.8,0,5,7,1,2026-06-15T11:57:14.597442+05:30
Nellore,Andhra Pradesh,14.4426,79.9865,35.6,47,0.0,1003.3,8.4,43.9,65,36.9,20.8,1.9,140.0,112.0,7.2,0,5,7,1,2026-06-15T11:57:14.597450+05:30
Kurnool,Andhra Pradesh,15.8281,78.0373,34.2,46,0.0,976.2,8.7,42.1,69,35.3,19.7,2.0,132.0,99.0,9.4,0,5,7,1,2026-06-15T11:57:14.597458+05:30
Kakinada,Andhra Pradesh,16.9891,82.2475,34.9,51,0.0,1003.4,8.6,27.7,99,59.5,34.7,2.5,248.0,143.0,6.7,0,5,4,1,2026-06-15T11:57:14.597465+05:30
Tirupati,Andhra Pradesh,13.6288,79.4192,35.6,41,0.0,989.4,8.6,32.4,68,33.4,17.2,1.4,128.0,97.0,3.6,0,5,10,1,2026-06-15T11:57:14.597472+05:30
Warangal,Telangana,17.9689,79.5941,34.6,43,0.0,976.6,8.95,42.1,108,77.5,39.7,1.6,168.0,129.0,9.9,0,5,7,1,2026-06-15T11:57:14.597478+05:30
Nizamabad,Telangana,18.6725,78.0941,34.1,45,0.0,964.0,8.95,41.8,94,47.4,23.4,1.0,136.0,95.0,3.1,0,5,7,1,2026-06-15T11:57:14.597484+05:30
Mysore,Karnataka,12.2958,76.6396,30.1,53,0.0,930.1,8.9,33.5,45,32.7,14.0,1.7,142.0,86.0,1.8,0,5,7,1,2026-06-15T11:57:14.597492+05:30
Mangalore,Karnataka,12.9141,74.856,29.4,78,0.0,1008.5,8.7,42.1,62,19.5,11.5,1.3,113.0,75.0,2.4,7,0,4,1,2026-06-15T11:57:14.597498+05:30
Hubli-Dharwad,Karnataka,15.3647,75.124,32.2,44,0.0,942.1,8.9,50.8,46,29.9,13.8,1.2,125.0,81.0,1.2,0,5,7,1,2026-06-15T11:57:14.597505+05:30
Belgaum,Karnataka,15.8497,74.4977,30.4,53,0.0,927.4,8.95,47.2,53,22.9,11.6,1.2,110.0,77.0,1.5,0,5,7,1,2026-06-15T11:57:17.905196+05:30
Coimbatore,Tamil Nadu,11.0168,76.9558,32.2,51,0.1,962.4,8.9,46.1,49,36.1,14.7,1.3,166.0,93.0,2.5,3,5,7,1,2026-06-15T11:57:17.905231+05:30
Madurai,Tamil Nadu,9.9252,78.1198,36.4,35,0.0,992.5,7.9,56.9,68,49.0,23.3,2.8,148.0,119.0,3.8,0,5,10,1,2026-06-15T11:57:17.905243+05:30
Trichy,Tamil Nadu,10.7905,78.7047,36.5,39,0.0,998.8,8.6,38.9,60,34.0,15.0,1.7,143.0,92.0,2.8,0,5,10,1,2026-06-15T11:57:17.905251+05:30
Salem,Tamil Nadu,11.6643,78.146,33.4,49,0.0,977.6,8.15,37.8,64,39.3,19.6,2.8,130.0,121.0,9.5,0,5,7,1,2026-06-15T11:57:17.905260+05:30
Tirunelveli,Tamil Nadu,8.7139,77.7567,37.8,36,0.0,1002.6,8.0,42.8,51,24.9,11.1,1.3,131.0,77.0,1.4,0,5,7,1,2026-06-15T11:57:17.905268+05:30
Vellore,Tamil Nadu,12.9165,79.1325,35.0,42,0.0,983.3,8.55,41.8,63,32.1,15.6,1.4,125.0,94.0,2.1,0,5,7,1,2026-06-15T11:57:17.905276+05:30
Erode,Tamil Nadu,11.341,77.7172,34.9,43,0.0,988.9,8.8,38.5,56,39.6,16.7,1.8,162.0,106.0,2.1,0,5,7,1,2026-06-15T11:57:17.905283+05:30
Kochi,Kerala,9.9312,76.2673,28.9,78,0.1,1010.5,8.35,38.9,63,34.6,18.6,2.5,130.0,87.0,3.8,10,0,4,1,2026-06-15T11:57:17.905291+05:30
Thiruvananthapuram,Kerala,8.5241,76.9366,29.1,78,0.1,1009.5,7.5,46.1,56,26.4,12.6,1.3,112.0,74.0,1.5,10,0,4,1,2026-06-15T11:57:17.905298+05:30
Kozhikode,Kerala,11.2588,75.7804,31.0,69,0.1,1008.9,8.55,47.2,51,26.5,13.8,0.9,137.0,81.0,2.2,6,0,4,1,2026-06-15T11:57:17.905305+05:30
Thrissur,Kerala,10.5276,76.2144,29.3,78,0.1,1008.5,7.6,38.9,71,29.6,16.9,1.5,114.0,86.0,2.7,10,0,4,1,2026-06-15T11:57:17.905314+05:30
Kannur,Kerala,11.8745,75.3704,31.0,69,0.0,1008.5,8.45,50.4,54,21.4,12.5,1.4,130.0,83.0,2.4,3,0,4,1,2026-06-15T11:57:17.905321+05:30
Patna,Bihar,25.5941,85.1376,36.0,44,0.0,996.5,8.9,27.7,161,87.3,54.8,2.9,301.0,211.0,13.3,0,5,10,1,2026-06-15T11:57:17.905328+05:30
Gaya,Bihar,24.7914,85.0002,37.2,35,0.0,990.1,8.95,29.9,156,75.9,33.3,1.4,248.0,165.0,7.3,0,5,10,1,2026-06-15T11:57:17.905335+05:30
Muzaffarpur,Bihar,26.1209,85.3647,34.3,54,0.0,996.6,8.85,28.8,162,92.9,67.3,3.2,390.0,218.0,17.1,0,5,7,1,2026-06-15T11:57:17.905342+05:30
Bhagalpur,Bihar,25.2425,87.0117,33.9,59,0.0,997.4,8.85,30.2,162,83.6,62.4,3.8,386.0,221.0,25.0,0,5,7,1,2026-06-15T11:57:17.905349+05:30
Ranchi,Jharkhand,23.3441,85.3096,33.0,37,0.0,936.0,9.3,28.4,112,109.7,38.6,1.3,214.0,165.0,8.9,0,5,7,1,2026-06-15T11:57:17.905355+05:30
Jamshedpur,Jharkhand,22.8046,86.2029,36.2,40,0.0,987.3,9.1,23.4,150,72.9,49.7,3.7,254.0,211.0,25.9,0,5,10,1,2026-06-15T11:57:17.905362+05:30
Dhanbad,Jharkhand,23.7957,86.4304,37.0,32,0.0,976.5,9.1,24.1,168,91.7,49.1,9.7,217.0,182.0,43.1,0,5,10,1,2026-06-15T11:57:17.905369+05:30
Bokaro,Jharkhand,23.6693,86.1511,35.8,38,0.0,980.3,9.1,25.6,167,92.7,45.8,10.2,233.0,179.0,44.6,0,5,10,1,2026-06-15T11:57:17.905375+05:30
Bhubaneswar,Odisha,20.2961,85.8245,33.4,64,0.0,999.0,8.55,37.1,130,59.5,45.6,3.5,255.0,203.0,21.9,3,5,7,1,2026-06-15T11:57:17.905382+05:30
Cuttack,Odisha,20.4625,85.8828,33.3,64,0.0,1000.8,9.2,36.7,130,59.5,45.6,3.5,264.0,203.0,21.9,3,5,4,1,2026-06-15T11:57:17.905388+05:30
Rourkela,Odisha,22.2604,84.8536,35.3,46,0.0,981.9,8.95,45.4,106,77.3,37.1,1.6,304.0,164.0,11.9,0,5,10,1,2026-06-15T11:57:17.905396+05:30
Raipur,Chhattisgarh,21.2514,81.6296,38.1,30,0.0,971.8,8.65,33.1,123,76.1,38.6,6.7,166.0,141.0,27.5,0,5,10,1,2026-06-15T11:57:17.905402+05:30
Bhilai,Chhattisgarh,21.1938,81.3509,37.5,33,0.0,972.3,7.6,40.7,120,84.3,38.3,9.0,162.0,123.0,33.1,0,5,10,1,2026-06-15T11:57:17.905408+05:30
Guwahati,Assam,26.1158,91.7086,30.4,73,0.0,998.3,8.65,22.3,72,19.6,16.3,1.4,330.0,126.0,3.2,3,5,7,1,2026-06-15T11:57:17.905415+05:30
Agartala,Tripura,23.8315,91.2868,31.6,66,0.0,1003.0,8.6,31.7,70,32.6,25.6,3.5,194.0,117.0,2.5,3,5,4,1,2026-06-15T11:57:17.905421+05:30
Shillong,Meghalaya,25.5788,91.8933,22.4,82,0.1,856.5,8.15,22.0,40,9.0,7.6,2.4,264.0,102.0,2.4,6,5,7,1,2026-06-15T11:57:17.905428+05:30
Imphal,Manipur,24.817,93.9368,28.8,61,0.0,920.9,7.9,29.2,89,20.9,14.6,1.0,195.0,101.0,1.6,7,5,7,1,2026-06-15T11:57:17.905434+05:30
Aizawl,Mizoram,23.7271,92.7176,24.1,72,0.0,891.2,9.1,22.7,60,20.9,13.7,0.5,154.0,88.0,0.6,3,5,7,1,2026-06-15T11:57:17.905441+05:30
Kohima,Nagaland,25.6701,94.1077,21.8,97,0.1,854.2,8.65,27.4,50,18.6,13.2,0.8,193.0,102.0,1.4,6,5,7,1,2026-06-15T11:57:17.905448+05:30
Gangtok,Sikkim,27.3314,88.6138,26.0,52,0.0,838.1,8.85,37.1,69,13.6,10.9,0.8,274.0,141.0,2.1,4,5,7,0,2026-06-15T11:57:17.905454+05:30
Siliguri,West Bengal,26.7271,88.3953,30.9,66,0.0,989.8,8.8,24.5,87,29.0,23.1,1.7,457.0,160.0,4.8,3,5,7,1,2026-06-15T11:57:21.216285+05:30
Durgapur,West Bengal,23.5204,87.3119,35.0,54,0.0,991.2,9.0,29.5,168,104.8,86.4,18.1,382.0,237.0,84.4,0,5,7,1,2026-06-15T11:57:21.216320+05:30
Asansol,West Bengal,23.6739,86.9524,35.9,42,0.0,989.8,9.05,20.5,163,91.7,61.5,14.2,276.0,196.0,57.7,0,5,10,1,2026-06-15T11:57:21.216332+05:30
Pondicherry,Puducherry,11.9139,79.8145,34.3,51,0.0,1007.1,7.9,37.8,70,43.1,28.1,3.9,176.0,140.0,11.8,0,5,4,1,2026-06-15T11:57:21.216341+05:30
Port Blair,Andaman and Nicobar Islands,11.6234,92.7265,31.0,68,0.0,1007.0,6.1,46.4,36,13.3,7.7,0.2,89.0,42.0,0.6,3,5,4,1,2026-06-15T11:57:21.216350+05:30
Haridwar,Uttarakhand,29.9457,78.1642,35.2,38,0.0,971.0,7.6,32.4,89,26.1,16.8,1.4,266.0,167.0,5.1,0,5,10,1,2026-06-15T11:57:21.216358+05:30
Rishikesh,Uttarakhand,30.0869,78.2676,33.7,39,0.0,964.1,7.7,27.0,67,18.6,12.5,0.8,211.0,152.0,3.5,0,5,7,1,2026-06-15T11:57:21.216365+05:30
Nainital,Uttarakhand,29.3919,79.4542,24.1,38,0.0,807.9,8.55,39.2,97,82.4,24.8,1.1,195.0,149.0,5.2,0,5,7,0,2026-06-15T11:57:21.216373+05:30
Mussoorie,Uttarakhand,30.4599,78.0664,22.1,53,0.1,804.9,8.1,42.8,59,22.2,14.0,1.1,212.0,154.0,4.0,3,5,7,0,2026-06-15T11:57:21.216381+05:30
Dharamshala,Himachal Pradesh,32.219,76.3234,23.7,52,0.0,869.1,8.5,37.1,41,11.8,5.5,0.6,169.0,128.0,0.3,0,5,7,0,2026-06-15T11:57:21.216388+05:30
Dalhousie,Himachal Pradesh,32.5387,75.971,19.3,61,0.2,805.7,8.75,31.7,60,24.2,12.5,1.2,210.0,152.0,1.4,6,5,7,0,2026-06-15T11:57:21.216396+05:30
Patiala,Punjab,30.3398,76.3869,36.3,35,0.0,974.7,7.7,29.5,198,392.1,66.4,2.0,238.0,169.0,10.7,0,5,10,1,2026-06-15T11:57:21.216403+05:30
Bhatinda,Punjab,30.211,74.9455,35.9,35,0.0,980.1,8.35,27.0,124,328.8,78.0,3.3,228.0,167.0,15.3,0,5,10,1,2026-06-15T11:57:21.216410+05:30
Rohtak,Haryana,28.8955,76.6066,36.1,40,0.0,978.5,7.8,36.0,348,525.3,96.4,2.3,190.0,146.0,5.4,0,5,10,1,2026-06-15T11:57:21.216417+05:30
Panipat,Haryana,29.3909,76.9635,35.7,36,0.0,977.1,7.65,48.2,553,938.8,144.4,8.2,201.0,174.0,31.7,0,5,10,1,2026-06-15T11:57:21.216424+05:30
Mathura,Uttar Pradesh,27.4924,77.6737,36.2,38,0.0,984.0,8.1,65.9,409,869.9,124.3,2.3,168.0,123.0,6.5,0,5,10,1,2026-06-15T11:57:21.216432+05:30
Vrindavan,Uttar Pradesh,27.5823,77.7027,36.4,37,0.0,984.3,8.1,56.2,409,869.9,124.3,2.3,167.0,123.0,6.5,0,5,10,1,2026-06-15T11:57:21.216439+05:30
Ayodhya,Uttar Pradesh,26.7922,82.1998,36.1,44,0.0,991.5,8.45,27.4,154,318.5,85.2,2.1,244.0,189.0,13.0,0,5,10,1,2026-06-15T11:57:21.216446+05:30
Ratlam,Madhya Pradesh,23.3315,75.0367,33.1,46,0.0,954.0,8.5,48.6,87,61.7,22.5,0.7,110.0,80.0,3.8,0,5,7,1,2026-06-15T11:57:21.216453+05:30
Sagar,Madhya Pradesh,23.8388,78.7378,34.8,35,0.0,949.1,8.75,35.3,97,95.2,36.3,0.7,163.0,108.0,3.4,0,5,7,1,2026-06-15T11:57:21.216460+05:30
Satna,Madhya Pradesh,24.6005,80.8322,35.5,33,0.0,969.3,8.8,32.0,105,103.1,39.2,0.9,139.0,117.0,4.7,0,5,10,1,2026-06-15T11:57:21.216467+05:30
Akola,Maharashtra,20.7002,77.0082,36.1,41,0.0,974.2,8.8,52.2,81,54.7,25.9,1.6,119.0,94.0,7.7,0,5,10,1,2026-06-15T11:57:21.216475+05:30
Amravati,Maharashtra,20.9374,77.7796,34.7,43,0.0,966.3,8.8,43.6,82,50.9,25.5,1.9,125.0,94.0,8.7,0,5,7,1,2026-06-15T11:57:21.216483+05:30
Latur,Maharashtra,18.4088,76.5604,33.4,41,0.0,940.1,8.9,40.3,70,50.6,20.2,1.0,126.0,91.0,3.0,0,5,7,1,2026-06-15T11:57:21.216491+05:30
Nanded,Maharashtra,19.1383,77.3091,35.4,38,0.0,967.9,8.85,40.0,87,45.8,20.9,1.0,129.0,90.0,2.9,0,5,10,1,2026-06-15T11:57:21.216498+05:30
Gulbarga,Karnataka,17.3297,76.8343,33.9,42,0.0,958.5,8.9,43.2,65,40.6,18.9,1.5,127.0,101.0,4.6,0,5,7,1,2026-06-15T11:57:21.216505+05:30
Bidar,Karnataka,17.9104,77.5199,32.7,45,0.0,935.6,8.95,41.4,91,53.6,24.1,1.3,134.0,101.0,4.7,0,5,7,1,2026-06-15T11:57:21.216512+05:30
Hospet,Karnataka,15.2689,76.3909,32.0,45,0.0,956.5,8.95,43.2,56,38.8,17.2,1.5,128.0,87.0,2.7,0,5,7,1,2026-06-15T11:57:21.216519+05:30
Tirupur,Tamil Nadu,11.1085,77.3411,35.1,39,0.0,975.5,8.8,52.9,57,38.5,16.5,1.8,161.0,106.0,2.9,0,5,10,1,2026-06-15T11:57:21.216525+05:30
Alappuzha,Kerala,9.4981,76.3388,28.6,78,0.0,1010.4,8.4,40.7,59,32.7,17.7,2.7,96.0,88.0,3.8,7,0,4,1,2026-06-15T11:57:21.216532+05:30
Munnar,Kerala,10.0889,77.0595,22.2,68,0.0,859.1,9.05,29.2,46,30.9,12.3,0.8,106.0,72.0,1.1,3,5,7,1,2026-06-15T11:57:21.216538+05:30
Silchar,Assam,24.8333,92.7789,30.8,69,0.0,1002.0,8.95,26.3,79,22.9,16.9,1.1,211.0,110.0,3.5,3,5,4,1,2026-06-15T11:57:21.216545+05:30
Dibrugarh,Assam,27.4728,94.912,29.9,76,0.0,991.7,7.5,20.9,73,16.8,14.6,1.1,230.0,132.0,1.3,7,5,7,1,2026-06-15T11:57:21.216552+05:30
