city,state,latitude,longitude,temp,humidity,rain,pressure,uv_index,wind_gusts,aqi,pm10,pm2_5,no2,co,o3,so2,mosquito_risk,arthritis_risk,migraine_risk,frizz_risk,updated_at
Delhi,Delhi,28.6139,77.209,32.5,67,0.0,973.1,7.3,23.4,159,61.7,41.3,7.4,606.0,231.0,25.1,3,5,7,1,2026-07-04T15:42:53.153338+05:30
Mumbai,Maharashtra,19.076,72.8777,26.2,91,0.5,1001.1,0.3,55.4,38,9.1,5.7,6.0,214.0,52.0,2.8,10,5,0,1,2026-07-04T15:42:53.153401+05:30
Bangalore,Karnataka,12.9716,77.5946,27.2,54,0.0,908.9,5.55,67.3,23,9.2,5.5,7.3,240.0,58.0,2.2,4,5,3,1,2026-07-04T15:42:53.153417+05:30
Hyderabad,Telangana,17.385,78.4867,25.1,84,0.1,945.9,2.4,56.9,25,4.2,3.3,4.8,256.0,61.0,2.0,10,5,3,1,2026-07-04T15:42:53.153428+05:30
Chennai,Tamil Nadu,13.0827,80.2707,30.8,60,0.0,1001.5,1.45,41.8,38,17.1,11.6,5.6,344.0,91.0,5.9,0,5,0,1,2026-07-04T15:42:53.153437+05:30
Kolkata,West Bengal,22.5726,88.3639,30.8,80,0.0,991.9,7.5,50.4,41,9.7,9.0,7.6,409.0,78.0,6.1,3,5,7,1,2026-07-04T15:42:53.153444+05:30
Pune,Maharashtra,18.5204,73.8567,24.2,89,0.1,940.8,0.45,47.9,21,1.7,1.7,6.3,159.0,45.0,2.2,6,5,3,1,2026-07-04T15:42:53.153451+05:30
Ahmedabad,Gujarat,23.0225,72.5714,32.1,64,0.0,991.8,5.85,34.9,60,67.5,25.1,6.0,188.0,76.0,3.9,3,5,3,1,2026-07-04T15:42:53.153458+05:30
Jaipur,Rajasthan,26.9124,75.7873,33.7,59,0.0,950.0,7.4,27.7,106,40.9,23.2,1.8,242.0,151.0,4.6,0,5,7,1,2026-07-04T15:42:53.153465+05:30
Lucknow,Uttar Pradesh,26.8467,80.9462,35.8,56,0.0,981.9,6.75,21.6,110,23.6,22.9,1.9,306.0,149.0,6.0,0,5,10,1,2026-07-04T15:42:53.153492+05:30
Kanpur,Uttar Pradesh,26.4499,80.3319,35.9,57,0.0,980.1,7.95,28.4,120,23.6,23.0,1.9,255.0,157.0,6.7,0,5,10,1,2026-07-04T15:42:53.153499+05:30
Chandigarh,Chandigarh,30.7333,76.7794,31.6,71,0.0,959.9,7.45,23.0,143,29.8,28.1,2.6,448.0,187.0,9.5,3,5,7,1,2026-07-04T15:42:53.153506+05:30
Srinagar,Jammu and Kashmir,34.0837,74.7973,31.1,35,0.0,838.6,9.05,21.2,106,19.0,12.0,0.9,281.0,153.0,2.3,0,5,7,0,2026-07-04T15:42:53.153514+05:30
Jammu,Jammu and Kashmir,32.7266,74.857,36.6,42,0.0,963.3,8.6,29.9,151,46.8,35.3,1.2,320.0,192.0,5.9,0,5,10,1,2026-07-04T15:42:53.153520+05:30
Amritsar,Punjab,31.634,74.8723,36.3,48,0.0,971.2,8.45,29.2,121,46.2,35.3,1.5,351.0,173.0,5.3,0,5,10,1,2026-07-04T15:42:53.153526+05:30
Ludhiana,Punjab,30.901,75.8573,32.2,70,0.0,969.5,7.95,36.4,147,48.5,39.3,2.3,373.0,195.0,9.6,3,5,7,1,2026-07-04T15:42:53.153532+05:30
Jalandhar,Punjab,31.326,75.5762,33.8,63,0.0,970.4,8.2,34.2,143,46.3,37.4,1.2,382.0,188.0,7.5,3,5,7,1,2026-07-04T15:42:53.153538+05:30
Dehradun,Uttarakhand,30.6284,78.0322,23.9,75,0.0,826.6,7.15,26.3,73,9.6,9.4,1.3,257.0,124.0,2.2,3,5,7,1,2026-07-04T15:42:53.153551+05:30
Shimla,Himachal Pradesh,31.1048,77.1734,21.8,70,0.0,782.0,7.4,25.2,91,11.9,11.5,2.8,257.0,155.0,6.8,3,5,7,1,2026-07-04T15:42:53.153557+05:30
Manali,Himachal Pradesh,32.2396,77.1887,24.4,81,0.0,816.2,9.55,33.5,83,13.9,13.2,9.9,186.0,156.0,0.7,3,5,7,1,2026-07-04T15:42:53.153565+05:30
Gurgaon,Haryana,28.4595,77.0266,32.4,66,0.0,971.5,6.8,30.2,145,46.2,31.3,5.6,488.0,203.0,16.5,3,5,7,1,2026-07-04T15:42:53.153572+05:30
Noida,Uttar Pradesh,28.5355,77.391,32.2,72,0.0,974.4,6.8,27.4,145,46.2,31.3,5.6,436.0,203.0,16.5,3,5,7,1,2026-07-04T15:42:53.153578+05:30
Ghaziabad,Uttar Pradesh,28.6692,77.4538,31.8,74,0.0,972.9,7.35,28.4,126,25.4,24.6,3.1,285.0,184.0,13.9,3,5,7,1,2026-07-04T15:42:53.153587+05:30
Faridabad,Haryana,28.4089,77.3178,33.2,64,0.1,973.6,6.75,28.4,145,46.2,31.3,5.6,432.0,203.0,16.5,6,5,7,1,2026-07-04T15:42:53.153593+05:30
Meerut,Uttar Pradesh,28.9845,77.7064,32.1,71,0.0,971.8,7.5,26.3,126,25.4,24.6,3.1,307.0,184.0,13.9,3,5,7,1,2026-07-04T15:42:53.153599+05:30
Agra,Uttar Pradesh,27.1767,78.0081,34.1,63,0.0,977.0,7.25,22.3,109,28.6,23.8,2.0,280.0,156.0,4.7,3,5,7,1,2026-07-04T15:42:53.153605+05:30
Varanasi,Uttar Pradesh,25.3176,82.9739,36.3,50,0.0,984.7,8.65,31.0,87,13.2,12.9,2.1,278.0,125.0,4.5,0,5,10,1,2026-07-04T15:42:53.153612+05:30
Prayagraj,Uttar Pradesh,25.4358,81.8463,35.8,55,0.0,983.4,8.15,31.7,98,15.5,15.2,2.0,291.0,144.0,5.1,0,5,10,1,2026-07-04T15:42:53.153618+05:30
Gorakhpur,Uttar Pradesh,26.7606,83.3732,36.1,55,0.0,985.3,8.5,28.8,106,20.2,19.8,1.8,247.0,150.0,5.1,0,5,10,1,2026-07-04T15:42:53.153624+05:30
Bareilly,Uttar Pradesh,28.367,79.4304,35.0,56,0.0,976.7,7.95,24.1,130,32.5,28.3,3.3,316.0,164.0,7.9,0,5,7,1,2026-07-04T15:42:53.153633+05:30
Aligarh,Uttar Pradesh,27.8974,78.088,32.4,72,0.1,974.9,7.7,26.3,116,28.8,26.4,2.4,265.0,170.0,8.6,6,5,7,1,2026-07-04T15:42:53.153639+05:30
Moradabad,Uttar Pradesh,28.8386,78.7733,33.0,67,0.0,973.8,7.6,24.1,141,28.9,27.9,2.1,307.0,195.0,12.2,3,5,7,1,2026-07-04T15:42:53.153645+05:30
Saharanpur,Uttar Pradesh,29.9637,77.546,31.5,72,0.0,966.5,7.1,19.4,142,27.6,27.4,1.8,359.0,186.0,11.1,3,5,7,1,2026-07-04T15:42:53.153651+05:30
Jhansi,Uttar Pradesh,25.4484,78.5685,35.4,54,0.0,966.4,7.45,29.5,97,22.9,22.4,1.7,234.0,158.0,8.9,0,5,10,1,2026-07-04T15:42:56.407846+05:30
Surat,Gujarat,21.1702,72.8311,29.1,78,0.1,997.5,0.8,33.1,63,33.3,26.5,32.2,466.0,21.0,47.2,10,5,3,1,2026-07-04T15:42:56.407883+05:30
Vadodara,Gujarat,22.3072,73.1812,28.2,91,0.3,994.7,1.05,28.4,53,48.0,23.9,8.7,251.0,69.0,10.1,10,5,3,1,2026-07-04T15:42:56.407895+05:30
Rajkot,Gujarat,22.3039,70.8022,34.0,56,0.0,984.4,5.95,36.0,56,48.3,21.2,1.3,101.0,87.0,3.8,0,5,3,1,2026-07-04T15:42:56.407904+05:30
Thane,Maharashtra,19.2183,72.9781,26.0,96,0.7,1000.2,0.4,39.2,38,9.1,5.7,6.0,200.0,52.0,2.8,10,5,0,1,2026-07-04T15:42:56.407912+05:30
Nagpur,Maharashtra,21.1458,79.0882,27.9,81,0.0,962.9,8.05,31.0,50,17.2,16.9,11.9,281.0,124.0,32.1,7,5,7,1,2026-07-04T15:42:56.407920+05:30
Nashik,Maharashtra,19.9975,73.7898,24.2,93,0.1,937.3,0.95,34.6,25,3.1,2.2,6.3,139.0,51.0,0.9,6,5,3,1,2026-07-04T15:42:56.407927+05:30
Aurangabad,Maharashtra,19.8762,75.3433,24.9,87,0.1,935.7,1.2,38.5,23,2.6,2.6,6.8,178.0,57.0,2.9,6,5,3,1,2026-07-04T15:42:56.407935+05:30
Solapur,Maharashtra,17.6599,75.9064,24.9,90,0.2,950.8,1.05,48.2,24,1.9,1.7,2.6,122.0,55.0,1.3,6,5,3,1,2026-07-04T15:42:56.407942+05:30
Kolhapur,Maharashtra,16.705,74.2433,23.1,96,0.4,942.6,1.2,51.8,21,2.9,2.2,4.1,137.0,47.0,1.1,6,5,3,1,2026-07-04T15:42:56.407949+05:30
Goa,Goa,15.2993,74.124,24.5,97,0.5,995.5,3.8,39.2,50,18.0,9.2,1.8,147.0,54.0,0.6,6,5,3,1,2026-07-04T15:42:56.407957+05:30
Jodhpur,Rajasthan,26.2389,73.0243,33.5,57,0.0,972.5,8.35,27.4,152,224.4,64.0,0.2,160.0,116.0,3.5,0,5,7,1,2026-07-04T15:42:56.407964+05:30
Udaipur,Rajasthan,24.5854,73.7125,29.8,69,0.0,936.5,5.9,34.2,61,106.6,38.0,1.7,167.0,95.0,5.2,7,5,3,1,2026-07-04T15:42:56.407972+05:30
Kota,Rajasthan,25.2138,75.8648,34.6,56,0.0,967.6,7.3,30.6,96,49.5,23.3,1.2,172.0,129.0,4.6,0,5,7,1,2026-07-04T15:42:56.407979+05:30
Bikaner,Rajasthan,28.0229,73.3119,37.8,40,0.0,971.2,7.4,25.9,119,59.3,29.7,0.5,242.0,143.0,4.0,0,5,10,1,2026-07-04T15:42:56.407986+05:30
Ajmer,Rajasthan,26.4499,74.6399,33.5,55,0.0,945.1,7.5,33.5,121,83.6,33.5,1.0,207.0,128.0,2.8,0,5,7,1,2026-07-04T15:42:56.407993+05:30
Gwalior,Madhya Pradesh,26.2183,78.1828,34.9,58,0.0,971.8,8.0,25.9,88,20.0,19.4,0.9,239.0,141.0,3.7,0,5,7,1,2026-07-04T15:42:56.407999+05:30
Indore,Madhya Pradesh,22.7196,75.8577,28.9,70,0.0,937.6,7.9,31.3,50,35.2,19.0,2.9,350.0,109.0,4.4,7,5,7,1,2026-07-04T15:42:56.408007+05:30
Bhopal,Madhya Pradesh,23.2599,77.4126,29.3,75,0.0,942.9,8.55,29.9,66,11.7,11.5,1.9,249.0,120.0,3.4,7,5,7,1,2026-07-04T15:42:56.408014+05:30
Jabalpur,Madhya Pradesh,23.1815,79.9864,32.1,66,0.0,949.6,8.5,24.8,105,28.8,28.5,2.6,225.0,160.0,13.0,3,5,7,1,2026-07-04T15:42:56.408020+05:30
Ujjain,Madhya Pradesh,23.1765,75.7885,28.1,82,0.2,943.4,7.4,30.6,52,48.9,22.4,1.9,228.0,100.0,3.1,10,5,7,1,2026-07-04T15:42:56.408028+05:30
Visakhapatnam,Andhra Pradesh,17.6868,83.2185,26.4,91,0.3,991.6,3.65,61.9,37,8.7,8.2,8.5,246.0,76.0,17.3,10,5,3,1,2026-07-04T15:42:56.408035+05:30
Vijayawada,Andhra Pradesh,16.5062,80.648,29.4,74,0.1,994.8,2.0,66.2,36,10.3,6.8,3.1,127.0,73.0,3.6,10,5,3,1,2026-07-04T15:42:56.408041+05:30
Guntur,Andhra Pradesh,16.3067,80.4365,28.9,73,0.0,996.3,2.5,51.8,31,10.6,6.8,2.8,132.0,73.0,3.5,7,5,3,1,2026-07-04T15:42:56.408048+05:30
Nellore,Andhra Pradesh,14.4426,79.9865,32.4,55,0.0,999.0,1.5,46.8,32,13.5,6.9,2.9,113.0,65.0,2.8,0,5,3,1,2026-07-04T15:42:56.408056+05:30
Kurnool,Andhra Pradesh,15.8281,78.0373,29.5,58,0.0,971.0,1.3,62.3,26,4.9,2.6,1.4,116.0,69.0,1.3,4,5,3,1,2026-07-04T15:42:56.408064+05:30
Kakinada,Andhra Pradesh,16.9891,82.2475,30.4,67,0.0,997.1,1.75,77.0,36,7.8,6.5,3.1,147.0,79.0,3.9,3,5,3,1,2026-07-04T15:42:56.408072+05:30
Tirupati,Andhra Pradesh,13.6288,79.4192,33.2,43,0.0,985.1,2.5,50.0,31,18.1,9.5,3.3,121.0,65.0,1.4,0,5,3,1,2026-07-04T15:42:56.408078+05:30
Warangal,Telangana,17.9689,79.5941,29.0,66,0.0,970.3,2.0,58.3,24,5.6,5.4,4.3,142.0,62.0,1.8,7,5,3,1,2026-07-04T15:42:56.408085+05:30
Nizamabad,Telangana,18.6725,78.0941,28.9,69,0.0,956.4,1.9,54.0,24,4.5,4.0,4.1,149.0,62.0,4.0,7,5,3,1,2026-07-04T15:42:56.408092+05:30
Mysore,Karnataka,12.2958,76.6396,25.4,72,0.1,926.4,7.7,63.7,24,4.4,2.6,2.8,120.0,59.0,1.2,10,5,7,1,2026-07-04T15:42:56.408098+05:30
Mangalore,Karnataka,12.9141,74.856,27.6,80,0.1,1005.6,7.75,59.4,36,18.0,9.7,1.5,104.0,53.0,1.1,10,5,4,1,2026-07-04T15:42:56.408105+05:30
Hubli-Dharwad,Karnataka,15.3647,75.124,23.2,91,0.2,936.9,1.85,54.4,24,2.6,1.7,3.7,119.0,52.0,0.8,6,5,3,1,2026-07-04T15:42:56.408111+05:30
Belgaum,Karnataka,15.8497,74.4977,21.7,95,0.3,921.2,2.0,56.2,22,3.1,2.1,2.9,120.0,49.0,0.7,6,5,3,1,2026-07-04T15:42:59.670834+05:30
Coimbatore,Tamil Nadu,11.0168,76.9558,26.7,76,0.1,960.0,5.5,59.8,24,7.7,4.9,2.7,148.0,61.0,1.6,10,5,3,1,2026-07-04T15:42:59.670871+05:30
Madurai,Tamil Nadu,9.9252,78.1198,34.2,43,0.1,989.8,2.15,59.4,30,10.3,5.2,2.9,121.0,74.0,1.6,3,5,3,1,2026-07-04T15:42:59.670883+05:30
Trichy,Tamil Nadu,10.7905,78.7047,34.1,42,0.0,996.3,5.25,63.0,27,14.5,7.0,2.7,109.0,65.0,1.4,0,5,3,1,2026-07-04T15:42:59.670892+05:30
Salem,Tamil Nadu,11.6643,78.146,32.2,51,0.0,974.0,7.25,38.5,33,14.4,7.8,2.9,123.0,86.0,3.8,0,5,7,1,2026-07-04T15:42:59.670900+05:30
Tirunelveli,Tamil Nadu,8.7139,77.7567,33.2,48,0.1,1001.5,3.25,56.2,27,10.7,5.6,1.9,105.0,60.0,0.9,3,5,0,1,2026-07-04T15:42:59.670908+05:30
Vellore,Tamil Nadu,12.9165,79.1325,32.5,46,0.0,979.4,2.85,56.2,27,14.6,8.0,3.4,125.0,70.0,2.0,0,5,3,1,2026-07-04T15:42:59.670915+05:30
Erode,Tamil Nadu,11.341,77.7172,30.7,59,0.0,986.0,6.6,60.1,28,11.5,6.4,2.6,149.0,78.0,1.5,0,5,7,1,2026-07-04T15:42:59.670922+05:30
Kochi,Kerala,9.9312,76.2673,27.7,82,0.0,1009.2,6.65,45.7,40,19.4,9.7,2.6,132.0,58.0,2.0,7,0,4,1,2026-07-04T15:42:59.670930+05:30
Thiruvananthapuram,Kerala,8.5241,76.9366,27.2,83,0.0,1008.5,7.85,52.9,37,17.0,8.4,1.3,106.0,58.0,0.8,7,0,4,1,2026-07-04T15:42:59.670936+05:30
Kozhikode,Kerala,11.2588,75.7804,26.7,86,0.1,1008.1,4.55,36.4,31,22.0,10.0,0.7,116.0,56.0,0.7,10,0,0,1,2026-07-04T15:42:59.670943+05:30
Thrissur,Kerala,10.5276,76.2144,27.7,80,0.0,1007.4,8.1,39.2,36,16.6,8.2,1.8,126.0,54.0,1.3,7,5,4,1,2026-07-04T15:42:59.670950+05:30
Kannur,Kerala,11.8745,75.3704,26.5,88,0.1,1007.0,8.2,39.6,33,20.6,10.1,1.7,109.0,54.0,0.9,10,5,4,1,2026-07-04T15:42:59.670957+05:30
Patna,Bihar,25.5941,85.1376,35.6,57,0.0,987.8,8.5,37.8,98,16.4,16.1,2.4,236.0,160.0,7.3,0,5,10,1,2026-07-04T15:42:59.670964+05:30
Gaya,Bihar,24.7914,85.0002,34.9,57,0.0,981.0,8.5,38.5,60,8.4,7.9,1.8,188.0,111.0,3.3,0,5,7,1,2026-07-04T15:42:59.670970+05:30
Muzaffarpur,Bihar,26.1209,85.3647,35.2,59,0.0,988.0,8.1,31.7,111,16.3,16.1,3.5,231.0,159.0,6.0,0,5,10,1,2026-07-04T15:42:59.670977+05:30
Bhagalpur,Bihar,25.2425,87.0117,35.0,56,0.0,988.5,7.6,38.9,62,11.0,10.6,3.9,162.0,131.0,8.5,0,5,7,1,2026-07-04T15:42:59.670983+05:30
Ranchi,Jharkhand,23.3441,85.3096,27.5,79,0.1,926.5,7.15,55.1,68,13.4,13.1,5.6,230.0,103.0,18.0,10,5,7,1,2026-07-04T15:42:59.670989+05:30
Jamshedpur,Jharkhand,22.8046,86.2029,29.6,79,0.0,977.8,7.1,44.3,60,10.6,10.4,4.9,222.0,96.0,7.6,7,5,7,1,2026-07-04T15:42:59.670996+05:30
Dhanbad,Jharkhand,23.7957,86.4304,30.0,74,0.0,967.4,6.2,53.6,85,16.6,16.4,12.6,205.0,96.0,34.6,7,5,7,1,2026-07-04T15:42:59.671002+05:30
Bokaro,Jharkhand,23.6693,86.1511,28.1,85,0.0,971.6,5.1,51.1,90,18.2,17.8,12.6,202.0,91.0,36.6,7,5,3,1,2026-07-04T15:42:59.671009+05:30
Bhubaneswar,Odisha,20.2961,85.8245,27.4,92,0.1,986.7,2.95,35.3,78,8.4,8.1,4.7,242.0,90.0,3.6,10,5,3,1,2026-07-04T15:42:59.671015+05:30
Cuttack,Odisha,20.4625,85.8828,27.8,92,0.1,988.5,2.3,43.6,78,8.4,8.1,4.7,213.0,90.0,3.6,10,5,3,1,2026-07-04T15:42:59.671022+05:30
Rourkela,Odisha,22.2604,84.8536,30.3,72,0.1,971.1,6.7,51.8,65,10.9,10.7,3.4,205.0,103.0,9.3,6,5,7,1,2026-07-04T15:42:59.671029+05:30
Raipur,Chhattisgarh,21.2514,81.6296,30.5,73,0.0,962.4,6.7,33.1,72,30.0,29.7,13.7,217.0,120.0,37.1,3,5,7,1,2026-07-04T15:42:59.671036+05:30
Bhilai,Chhattisgarh,21.1938,81.3509,29.9,77,0.0,963.0,6.65,30.6,68,37.3,37.0,22.4,652.0,121.0,62.0,7,5,7,1,2026-07-04T15:42:59.671043+05:30
Guwahati,Assam,26.1158,91.7086,34.4,63,0.0,989.1,8.7,33.1,46,7.3,7.2,1.8,212.0,100.0,1.2,3,5,7,1,2026-07-04T15:42:59.671048+05:30
Agartala,Tripura,23.8315,91.2868,32.4,71,0.0,994.0,8.55,27.7,58,6.9,6.8,4.7,140.0,105.0,0.9,3,5,7,1,2026-07-04T15:42:59.671055+05:30
Shillong,Meghalaya,25.5788,91.8933,23.0,92,0.0,850.9,8.3,34.9,37,4.7,4.6,1.9,170.0,78.0,1.0,3,5,7,1,2026-07-04T15:42:59.671061+05:30
Imphal,Manipur,24.817,93.9368,28.5,67,0.0,915.6,6.95,32.4,32,2.5,2.5,1.3,169.0,69.0,0.8,7,5,7,1,2026-07-04T15:42:59.671067+05:30
Aizawl,Mizoram,23.7271,92.7176,24.3,85,0.0,884.0,8.15,24.8,33,4.8,4.7,2.6,147.0,53.0,0.4,3,5,7,1,2026-07-04T15:42:59.671073+05:30
Kohima,Nagaland,25.6701,94.1077,26.2,71,0.1,849.9,9.1,29.2,36,3.7,3.6,1.5,150.0,77.0,0.4,10,5,7,1,2026-07-04T15:42:59.671079+05:30
Gangtok,Sikkim,27.3314,88.6138,23.6,79,0.1,833.0,8.85,32.4,60,6.8,6.4,2.8,215.0,108.0,0.5,6,5,7,1,2026-07-04T15:42:59.671086+05:30
Siliguri,West Bengal,26.7271,88.3953,33.9,62,0.0,981.6,8.7,24.5,84,13.9,13.5,2.5,339.0,125.0,1.9,3,5,7,1,2026-07-04T15:43:02.961334+05:30
Durgapur,West Bengal,23.5204,87.3119,31.8,72,0.0,981.9,6.95,52.6,67,13.2,13.1,9.1,237.0,102.0,17.5,3,5,7,1,2026-07-04T15:43:02.961372+05:30
Asansol,West Bengal,23.6739,86.9524,31.3,74,0.0,980.7,7.25,52.9,66,10.6,10.4,9.0,224.0,104.0,17.8,3,5,7,1,2026-07-04T15:43:02.961401+05:30
Pondicherry,Puducherry,11.9139,79.8145,29.9,65,0.0,1004.4,6.25,36.0,44,14.0,10.2,7.4,174.0,85.0,10.4,7,5,4,1,2026-07-04T15:43:02.961411+05:30
Port Blair,Andaman and Nicobar Islands,11.6234,92.7265,28.9,81,0.1,1003.7,4.8,58.7,51,26.1,14.1,0.4,98.0,51.0,0.5,10,5,0,1,2026-07-04T15:43:02.961420+05:30
Haridwar,Uttarakhand,29.9457,78.1642,31.7,71,0.0,964.7,6.55,18.7,120,19.8,19.7,1.1,315.0,161.0,6.6,3,5,7,1,2026-07-04T15:43:02.961427+05:30
Rishikesh,Uttarakhand,30.0869,78.2676,31.1,71,0.0,957.6,6.7,24.8,95,16.1,15.9,0.8,300.0,148.0,5.9,3,5,7,1,2026-07-04T15:43:02.961435+05:30
Nainital,Uttarakhand,29.3919,79.4542,23.5,71,0.0,802.8,6.65,25.2,77,14.2,13.9,1.2,243.0,135.0,2.7,3,5,7,1,2026-07-04T15:43:02.961442+05:30
Mussoorie,Uttarakhand,30.4599,78.0664,23.7,66,0.0,800.3,6.25,31.0,108,14.8,14.6,1.2,265.0,151.0,5.5,3,5,7,1,2026-07-04T15:43:02.961450+05:30
Dharamshala,Himachal Pradesh,32.219,76.3234,25.8,78,0.0,864.3,8.4,31.0,75,7.3,6.9,1.2,295.0,135.0,0.7,7,5,7,1,2026-07-04T15:43:02.961457+05:30
Dalhousie,Himachal Pradesh,32.5387,75.971,22.2,84,0.1,801.9,8.45,23.8,132,18.4,16.5,1.2,297.0,180.0,2.7,6,5,7,1,2026-07-04T15:43:02.961465+05:30
Patiala,Punjab,30.3398,76.3869,32.3,70,0.0,969.0,7.15,28.4,143,42.4,37.0,2.8,389.0,193.0,10.4,3,5,7,1,2026-07-04T15:43:02.961473+05:30
Bhatinda,Punjab,30.211,74.9455,34.6,59,0.0,974.1,8.05,25.9,173,91.5,53.0,3.3,321.0,237.0,23.2,0,5,7,1,2026-07-04T15:43:02.961479+05:30
Rohtak,Haryana,28.8955,76.6066,31.6,72,0.0,972.0,6.75,28.4,154,81.7,43.0,3.7,392.0,229.0,18.4,3,5,7,1,2026-07-04T15:43:02.961486+05:30
Panipat,Haryana,29.3909,76.9635,31.8,72,0.0,970.8,6.5,22.3,155,112.5,47.4,4.6,370.0,225.0,24.6,3,5,7,1,2026-07-04T15:43:02.961493+05:30
Mathura,Uttar Pradesh,27.4924,77.6737,35.5,56,0.0,976.0,6.7,23.0,108,106.9,31.4,2.2,263.0,163.0,3.8,0,5,10,1,2026-07-04T15:43:02.961499+05:30
Vrindavan,Uttar Pradesh,27.5823,77.7027,35.6,56,0.0,976.3,7.7,25.6,108,106.9,31.4,2.2,265.0,163.0,3.8,0,5,10,1,2026-07-04T15:43:02.961507+05:30
Ayodhya,Uttar Pradesh,26.7922,82.1998,35.1,61,0.1,983.7,7.45,25.6,98,20.4,19.7,2.1,253.0,137.0,4.9,6,5,10,1,2026-07-04T15:43:02.961514+05:30
Ratlam,Madhya Pradesh,23.3315,75.0367,27.6,78,0.2,945.0,6.1,30.6,45,46.0,19.9,1.7,169.0,93.0,3.1,10,5,7,1,2026-07-04T15:43:02.961521+05:30
Sagar,Madhya Pradesh,23.8388,78.7378,32.4,58,0.0,938.8,8.0,25.2,82,23.3,22.9,1.0,237.0,148.0,9.9,0,5,7,1,2026-07-04T15:43:02.961527+05:30
Satna,Madhya Pradesh,24.6005,80.8322,34.3,58,0.0,959.4,7.0,43.6,93,13.3,13.0,1.0,213.0,131.0,4.8,0,5,7,1,2026-07-04T15:43:02.961534+05:30
Akola,Maharashtra,20.7002,77.0082,28.5,75,0.0,965.5,5.2,40.7,25,2.4,2.4,4.6,147.0,73.0,6.4,7,5,3,1,2026-07-04T15:43:02.961541+05:30
Amravati,Maharashtra,20.9374,77.7796,27.4,83,0.0,957.4,7.1,47.2,26,2.8,2.7,4.9,177.0,74.0,7.0,7,5,7,1,2026-07-04T15:43:02.961549+05:30
Latur,Maharashtra,18.4088,76.5604,24.6,87,0.2,932.3,2.3,47.5,24,2.0,2.0,3.0,132.0,54.0,0.9,6,5,3,1,2026-07-04T15:43:02.961557+05:30
Nanded,Maharashtra,19.1383,77.3091,27.1,80,0.1,960.1,1.5,42.8,24,3.5,3.4,3.9,145.0,62.0,2.9,10,5,3,1,2026-07-04T15:43:02.961564+05:30
Gulbarga,Karnataka,17.3297,76.8343,25.4,86,0.2,952.2,1.45,54.0,26,2.9,1.9,2.5,141.0,65.0,1.7,10,5,3,1,2026-07-04T15:43:02.961571+05:30
Bidar,Karnataka,17.9104,77.5199,23.9,91,0.2,928.3,1.15,55.1,26,2.7,2.5,4.1,133.0,56.0,1.1,6,5,3,1,2026-07-04T15:43:02.961578+05:30
Hospet,Karnataka,15.2689,76.3909,26.4,73,0.1,951.5,1.5,65.2,24,2.9,2.1,3.1,104.0,56.0,1.3,10,5,3,1,2026-07-04T15:43:02.961584+05:30
Tirupur,Tamil Nadu,11.1085,77.3411,30.0,60,0.0,972.5,7.75,65.9,27,10.6,6.4,2.7,132.0,77.0,2.0,4,5,7,1,2026-07-04T15:43:02.961590+05:30
Alappuzha,Kerala,9.4981,76.3388,27.9,82,0.0,1009.1,6.8,47.2,38,21.0,10.5,2.7,88.0,58.0,1.7,7,0,4,1,2026-07-04T15:43:02.961596+05:30
Munnar,Kerala,10.0889,77.0595,17.2,97,0.5,855.6,4.85,63.7,22,6.0,3.4,2.0,106.0,63.0,1.1,6,10,3,1,2026-07-04T15:43:02.961603+05:30
Silchar,Assam,24.8333,92.7789,36.1,54,0.0,991.7,8.8,28.1,54,3.8,3.8,1.5,179.0,70.0,1.1,0,5,10,1,2026-07-04T15:43:02.961610+05:30
Dibrugarh,Assam,27.4728,94.912,35.4,56,0.0,983.6,8.9,26.3,62,7.1,7.0,1.8,185.0,104.0,1.1,0,5,10,1,2026-07-04T15:43:02.961617+05:30
