city,state,latitude,longitude,temp,humidity,rain,pressure,uv_index,wind_gusts,aqi,pm10,pm2_5,no2,co,o3,so2,mosquito_risk,arthritis_risk,migraine_risk,frizz_risk,updated_at
Delhi,Delhi,28.6139,77.209,24.5,77,0.0,981.6,7.6,30.2,210,258.0,73.3,27.2,585.0,81.0,25.9,3,5,7,1,2026-05-31T02:31:31.461800+05:30
Mumbai,Maharashtra,19.076,72.8777,30.3,71,0.0,1007.2,7.75,41.4,57,20.9,12.8,3.2,134.0,48.0,2.6,3,5,4,1,2026-05-31T02:31:31.461835+05:30
Bangalore,Karnataka,12.9716,77.5946,22.3,92,0.0,910.6,9.25,39.2,61,21.8,17.9,24.5,307.0,52.0,5.9,3,5,7,1,2026-05-31T02:31:31.461851+05:30
Hyderabad,Telangana,17.385,78.4867,28.4,57,0.0,951.4,9.15,48.2,62,12.2,11.0,10.6,202.0,67.0,6.8,4,5,7,1,2026-05-31T02:31:31.461861+05:30
Chennai,Tamil Nadu,13.0827,80.2707,29.6,72,0.0,1004.8,8.7,34.2,77,24.2,20.1,13.8,377.0,65.0,7.8,7,5,4,1,2026-05-31T02:31:31.461869+05:30
Kolkata,West Bengal,22.5726,88.3639,26.4,88,0.0,1004.9,8.85,15.8,138,78.2,69.2,32.8,433.0,23.0,10.3,7,5,4,1,2026-05-31T02:31:31.461878+05:30
Pune,Maharashtra,18.5204,73.8567,25.6,84,0.0,947.2,8.35,45.4,42,12.6,9.0,6.9,125.0,39.0,5.7,7,5,7,1,2026-05-31T02:31:31.461885+05:30
Ahmedabad,Gujarat,23.0225,72.5714,27.9,80,0.0,1000.6,8.1,58.0,71,31.0,18.3,4.1,188.0,46.0,4.1,7,5,4,1,2026-05-31T02:31:31.461892+05:30
Jaipur,Rajasthan,26.9124,75.7873,25.5,61,0.0,957.7,8.15,36.4,91,71.5,27.2,12.1,446.0,60.0,5.2,7,5,7,1,2026-05-31T02:31:31.461903+05:30
Lucknow,Uttar Pradesh,26.8467,80.9462,25.4,79,0.0,992.0,7.8,29.5,75,41.9,36.0,24.6,349.0,50.0,8.1,7,5,7,1,2026-05-31T02:31:31.461910+05:30
Kanpur,Uttar Pradesh,26.4499,80.3319,26.4,77,0.0,990.0,8.05,24.1,98,139.7,38.3,12.5,295.0,81.0,4.9,7,5,7,1,2026-05-31T02:31:31.461916+05:30
Chandigarh,Chandigarh,30.7333,76.7794,21.5,84,0.0,967.8,6.25,38.9,99,50.8,37.7,28.7,768.0,48.0,4.2,3,5,7,1,2026-05-31T02:31:31.461923+05:30
Srinagar,Jammu and Kashmir,34.0837,74.7973,13.1,87,0.0,838.2,8.95,24.1,92,40.6,39.6,26.1,365.0,25.0,0.0,3,10,7,0,2026-05-31T02:31:31.461930+05:30
Jammu,Jammu and Kashmir,32.7266,74.857,25.0,65,0.0,972.8,8.5,24.1,137,101.5,67.8,49.8,479.0,9.0,3.2,7,5,7,1,2026-05-31T02:31:31.461937+05:30
Amritsar,Punjab,31.634,74.8723,23.0,80,0.0,980.2,8.35,31.0,150,77.8,41.1,16.6,495.0,78.0,5.1,3,5,7,1,2026-05-31T02:31:31.461943+05:30
Ludhiana,Punjab,30.901,75.8573,23.6,79,0.0,977.8,7.85,36.7,175,255.2,76.4,21.4,548.0,74.0,10.0,3,5,7,1,2026-05-31T02:31:31.461949+05:30
Jalandhar,Punjab,31.326,75.5762,23.2,87,0.0,979.1,8.05,36.0,134,69.8,41.2,24.5,656.0,58.0,5.4,3,5,7,1,2026-05-31T02:31:31.461958+05:30
Dehradun,Uttarakhand,30.6284,78.0322,14.2,72,0.0,828.4,6.95,27.4,73,42.0,34.2,33.8,268.0,27.0,0.8,3,5,7,0,2026-05-31T02:31:31.461965+05:30
Shimla,Himachal Pradesh,31.1048,77.1734,11.6,70,0.0,781.7,4.7,34.6,73,42.8,27.3,15.5,361.0,81.0,0.0,3,5,3,0,2026-05-31T02:31:31.461973+05:30
Manali,Himachal Pradesh,32.2396,77.1887,13.6,86,0.2,817.1,6.75,30.2,66,7.8,5.5,38.5,302.0,87.0,0.0,6,10,7,0,2026-05-31T02:31:31.461980+05:30
Gurgaon,Haryana,28.4595,77.0266,23.9,83,0.0,979.9,7.7,31.3,916,741.3,142.0,21.0,891.0,87.0,21.0,3,5,7,1,2026-05-31T02:31:31.461986+05:30
Noida,Uttar Pradesh,28.5355,77.391,24.3,74,0.0,983.2,7.65,25.6,916,741.3,142.0,21.0,498.0,87.0,21.0,3,5,7,1,2026-05-31T02:31:31.461992+05:30
Ghaziabad,Uttar Pradesh,28.6692,77.4538,24.1,72,0.0,981.5,7.6,30.6,133,226.3,58.7,13.9,466.0,97.0,8.5,3,5,7,1,2026-05-31T02:31:31.461998+05:30
Faridabad,Haryana,28.4089,77.3178,24.6,72,0.0,982.4,7.65,26.6,916,741.3,142.0,21.0,569.0,87.0,21.0,3,5,7,1,2026-05-31T02:31:31.462004+05:30
Meerut,Uttar Pradesh,28.9845,77.7064,23.3,80,0.0,980.4,7.55,42.1,133,226.3,58.7,13.9,475.0,97.0,8.5,3,5,7,1,2026-05-31T02:31:31.462010+05:30
Agra,Uttar Pradesh,27.1767,78.0081,26.5,66,0.0,985.9,7.8,27.4,536,1177.2,182.5,6.7,478.0,111.0,6.1,7,5,7,1,2026-05-31T02:31:31.462016+05:30
Varanasi,Uttar Pradesh,25.3176,82.9739,27.0,73,0.0,995.7,8.7,25.6,95,56.7,51.3,16.6,525.0,89.0,14.4,7,5,7,1,2026-05-31T02:31:31.462023+05:30
Prayagraj,Uttar Pradesh,25.4358,81.8463,26.5,75,0.0,994.2,8.6,27.7,78,33.8,30.2,17.5,408.0,76.0,8.5,7,5,7,1,2026-05-31T02:31:31.462029+05:30
Gorakhpur,Uttar Pradesh,26.7606,83.3732,25.0,79,0.0,996.4,8.55,36.7,83,31.8,26.5,11.5,316.0,102.0,4.3,7,5,7,1,2026-05-31T02:31:31.462039+05:30
Bareilly,Uttar Pradesh,28.367,79.4304,23.9,85,0.0,985.5,7.9,48.2,96,44.7,41.2,24.0,345.0,63.0,6.1,3,5,7,1,2026-05-31T02:31:31.462045+05:30
Aligarh,Uttar Pradesh,27.8974,78.088,25.0,73,0.0,983.9,7.75,34.6,188,123.4,43.4,12.3,391.0,99.0,9.1,7,5,7,1,2026-05-31T02:31:31.462051+05:30
Moradabad,Uttar Pradesh,28.8386,78.7733,23.9,81,0.0,982.6,7.75,44.3,93,49.0,39.3,20.0,410.0,74.0,7.4,3,5,7,1,2026-05-31T02:31:31.462058+05:30
Saharanpur,Uttar Pradesh,29.9637,77.546,22.5,90,0.0,975.0,6.65,40.0,97,68.7,55.3,47.3,618.0,20.0,8.1,3,5,7,1,2026-05-31T02:31:31.462064+05:30
Jhansi,Uttar Pradesh,25.4484,78.5685,27.2,61,0.0,975.6,8.3,31.0,71,43.8,22.5,9.7,239.0,62.0,3.7,7,5,7,1,2026-05-31T02:31:34.747038+05:30
Surat,Gujarat,21.1702,72.8311,28.5,86,0.0,1006.2,7.7,49.3,75,32.5,20.7,13.3,292.0,41.0,23.3,7,5,4,1,2026-05-31T02:31:34.747065+05:30
Vadodara,Gujarat,22.3072,73.1812,25.0,92,0.2,1002.9,8.05,41.8,72,28.7,17.7,6.5,137.0,43.0,5.1,10,5,4,1,2026-05-31T02:31:34.747075+05:30
Rajkot,Gujarat,22.3039,70.8022,28.8,75,0.0,992.0,7.7,44.6,65,29.7,16.9,3.1,107.0,47.0,3.3,7,5,7,1,2026-05-31T02:31:34.747082+05:30
Thane,Maharashtra,19.2183,72.9781,30.0,74,0.0,1006.8,7.8,41.4,57,20.9,12.8,3.2,135.0,48.0,2.6,7,5,4,1,2026-05-31T02:31:34.747090+05:30
Nagpur,Maharashtra,21.1458,79.0882,29.4,58,0.0,970.8,8.85,61.2,80,41.1,25.2,8.8,281.0,70.0,7.7,4,5,7,1,2026-05-31T02:31:34.747097+05:30
Nashik,Maharashtra,19.9975,73.7898,25.1,87,0.0,945.7,8.1,49.3,54,16.6,10.2,4.9,121.0,43.0,1.9,7,5,7,1,2026-05-31T02:31:34.747104+05:30
Aurangabad,Maharashtra,19.8762,75.3433,26.5,72,0.0,943.9,8.9,46.1,62,17.8,11.3,7.2,129.0,47.0,7.1,7,5,7,1,2026-05-31T02:31:34.747110+05:30
Solapur,Maharashtra,17.6599,75.9064,29.1,60,0.0,956.3,8.95,60.5,45,14.8,10.2,5.6,141.0,49.0,2.2,4,5,7,1,2026-05-31T02:31:34.747117+05:30
Kolhapur,Maharashtra,16.705,74.2433,25.4,88,0.0,947.1,8.75,50.0,31,9.0,7.0,4.7,135.0,43.0,1.9,7,5,7,1,2026-05-31T02:31:34.747123+05:30
Goa,Goa,15.2993,74.124,26.5,98,0.0,997.3,6.9,32.4,50,22.8,17.3,6.3,459.0,40.0,1.3,7,5,7,1,2026-05-31T02:31:34.747130+05:30
Jodhpur,Rajasthan,26.2389,73.0243,27.3,63,0.0,979.4,8.4,36.7,122,47.0,22.5,5.5,173.0,70.0,2.0,7,5,7,1,2026-05-31T02:31:34.747136+05:30
Udaipur,Rajasthan,24.5854,73.7125,24.5,66,0.0,944.4,8.8,34.6,78,54.5,24.7,5.5,150.0,84.0,5.7,3,5,7,1,2026-05-31T02:31:34.747143+05:30
Kota,Rajasthan,25.2138,75.8648,29.1,49,0.0,976.3,8.3,33.1,77,45.4,25.5,8.4,224.0,59.0,3.8,4,5,7,1,2026-05-31T02:31:34.747150+05:30
Bikaner,Rajasthan,28.0229,73.3119,27.6,57,0.0,978.6,8.35,29.2,96,54.1,23.9,3.0,179.0,89.0,2.3,4,5,7,1,2026-05-31T02:31:34.747156+05:30
Ajmer,Rajasthan,26.4499,74.6399,25.0,61,0.0,951.9,8.3,34.6,66,37.5,19.2,7.1,181.0,62.0,1.8,7,5,7,1,2026-05-31T02:31:34.747162+05:30
Gwalior,Madhya Pradesh,26.2183,78.1828,25.5,70,0.0,980.9,8.1,32.8,78,208.2,59.8,6.0,261.0,93.0,5.1,7,5,7,1,2026-05-31T02:31:34.747168+05:30
Indore,Madhya Pradesh,22.7196,75.8577,28.1,51,0.0,947.1,8.55,44.6,83,37.8,22.9,4.4,218.0,84.0,3.8,4,5,7,1,2026-05-31T02:31:34.747175+05:30
Bhopal,Madhya Pradesh,23.2599,77.4126,29.0,47,0.0,951.0,8.55,36.7,74,39.1,24.0,6.2,210.0,77.0,5.0,4,5,7,1,2026-05-31T02:31:34.747181+05:30
Jabalpur,Madhya Pradesh,23.1815,79.9864,27.5,62,0.0,959.2,8.75,42.5,63,34.0,20.5,11.1,232.0,68.0,5.2,7,5,7,1,2026-05-31T02:31:34.747188+05:30
Ujjain,Madhya Pradesh,23.1765,75.7885,28.1,46,0.0,952.2,8.5,54.7,82,39.7,23.1,3.7,270.0,83.0,3.7,4,5,7,0,2026-05-31T02:31:34.747195+05:30
Visakhapatnam,Andhra Pradesh,17.6868,83.2185,28.8,91,0.0,1000.6,9.05,34.9,103,46.3,38.4,33.0,383.0,80.0,46.7,7,5,4,1,2026-05-31T02:31:34.747202+05:30
Vijayawada,Andhra Pradesh,16.5062,80.648,29.8,74,0.0,999.2,9.05,42.1,93,37.1,32.4,16.4,263.0,57.0,4.7,7,5,7,1,2026-05-31T02:31:34.747208+05:30
Guntur,Andhra Pradesh,16.3067,80.4365,29.1,71,0.0,1000.4,8.85,42.8,94,43.5,37.8,26.0,214.0,39.0,5.6,7,5,4,1,2026-05-31T02:31:34.747215+05:30
Nellore,Andhra Pradesh,14.4426,79.9865,28.2,75,0.0,1003.0,7.6,34.6,68,19.1,15.9,8.3,174.0,76.0,4.9,7,5,4,1,2026-05-31T02:31:34.747222+05:30
Kurnool,Andhra Pradesh,15.8281,78.0373,28.2,60,0.0,975.1,8.6,61.2,55,10.9,9.7,11.4,172.0,53.0,7.2,4,5,7,1,2026-05-31T02:31:34.747229+05:30
Kakinada,Andhra Pradesh,16.9891,82.2475,29.0,77,0.0,1004.1,9.05,39.2,77,31.1,25.1,6.9,357.0,101.0,5.4,7,5,4,1,2026-05-31T02:31:34.747235+05:30
Tirupati,Andhra Pradesh,13.6288,79.4192,26.7,71,0.0,988.9,8.35,28.4,65,19.0,16.4,14.9,188.0,49.0,2.0,7,5,7,1,2026-05-31T02:31:34.747241+05:30
Warangal,Telangana,17.9689,79.5941,30.3,46,0.0,975.3,8.7,57.2,90,37.1,29.7,18.3,246.0,57.0,6.1,0,5,7,1,2026-05-31T02:31:34.747247+05:30
Nizamabad,Telangana,18.6725,78.0941,29.9,44,0.0,961.9,9.0,60.1,81,44.5,28.8,15.4,259.0,57.0,5.4,4,5,7,1,2026-05-31T02:31:34.747253+05:30
Mysore,Karnataka,12.2958,76.6396,22.1,94,0.0,927.8,8.95,50.4,39,11.1,10.5,12.6,178.0,47.0,2.5,3,5,7,1,2026-05-31T02:31:34.747260+05:30
Mangalore,Karnataka,12.9141,74.856,26.0,93,0.0,1006.4,7.65,31.0,33,14.6,12.9,13.5,202.0,32.0,3.2,7,5,4,1,2026-05-31T02:31:34.747266+05:30
Hubli-Dharwad,Karnataka,15.3647,75.124,24.3,93,0.0,940.1,8.75,48.6,30,7.5,6.0,5.9,137.0,38.0,1.3,3,5,7,1,2026-05-31T02:31:34.747272+05:30
Belgaum,Karnataka,15.8497,74.4977,23.0,96,0.0,924.7,8.65,45.7,25,5.4,3.8,2.4,123.0,51.0,1.3,3,5,7,1,2026-05-31T02:31:38.032658+05:30
Coimbatore,Tamil Nadu,11.0168,76.9558,25.1,85,0.0,961.0,8.95,48.6,27,6.8,6.3,6.0,146.0,51.0,3.0,7,5,7,1,2026-05-31T02:31:38.032686+05:30
Madurai,Tamil Nadu,9.9252,78.1198,28.8,67,0.0,991.6,8.75,34.9,74,29.9,27.6,45.6,170.0,2.0,5.6,7,5,7,1,2026-05-31T02:31:38.032697+05:30
Trichy,Tamil Nadu,10.7905,78.7047,28.5,72,0.0,998.2,8.85,42.1,46,7.6,7.2,12.0,191.0,35.0,3.9,7,5,7,1,2026-05-31T02:31:38.032705+05:30
Salem,Tamil Nadu,11.6643,78.146,28.1,67,0.0,976.2,7.1,32.0,57,19.0,14.9,17.5,190.0,42.0,6.6,7,5,7,1,2026-05-31T02:31:38.032713+05:30
Tirunelveli,Tamil Nadu,8.7139,77.7567,28.7,66,0.0,1002.1,7.3,19.4,20,6.3,5.3,6.9,167.0,34.0,2.0,7,5,4,1,2026-05-31T02:31:38.032720+05:30
Vellore,Tamil Nadu,12.9165,79.1325,25.8,83,0.0,982.6,8.85,37.1,65,31.8,27.4,20.3,277.0,34.0,3.9,7,5,7,1,2026-05-31T02:31:38.032727+05:30
Erode,Tamil Nadu,11.341,77.7172,27.2,76,0.0,988.0,7.15,55.1,34,11.4,10.1,14.2,273.0,34.0,4.1,7,5,7,1,2026-05-31T02:31:38.032734+05:30
Kochi,Kerala,9.9312,76.2673,25.7,95,0.0,1008.5,7.55,29.2,50,14.7,13.1,15.7,248.0,32.0,3.9,7,0,4,1,2026-05-31T02:31:38.032742+05:30
Thiruvananthapuram,Kerala,8.5241,76.9366,24.4,96,0.0,1008.5,7.95,31.0,24,7.8,4.3,1.6,206.0,52.0,0.6,3,0,4,1,2026-05-31T02:31:38.032770+05:30
Kozhikode,Kerala,11.2588,75.7804,25.4,98,0.0,1007.8,7.5,27.4,31,6.1,4.6,2.9,361.0,61.0,1.6,7,5,4,1,2026-05-31T02:31:38.032781+05:30
Thrissur,Kerala,10.5276,76.2144,25.0,95,0.0,1007.0,7.75,28.8,43,16.8,15.8,17.8,232.0,22.0,5.4,7,5,4,1,2026-05-31T02:31:38.032790+05:30
Kannur,Kerala,11.8745,75.3704,25.6,96,0.0,1007.0,8.35,28.8,31,13.9,12.5,13.9,223.0,29.0,2.6,7,5,4,1,2026-05-31T02:31:38.032797+05:30
Patna,Bihar,25.5941,85.1376,26.6,85,0.0,999.1,8.8,38.9,149,68.2,61.0,17.6,328.0,89.0,14.9,7,5,7,1,2026-05-31T02:31:38.032804+05:30
Gaya,Bihar,24.7914,85.0002,27.0,78,0.0,992.1,8.85,26.3,153,60.5,54.9,12.1,498.0,117.0,24.8,7,5,7,1,2026-05-31T02:31:38.032812+05:30
Muzaffarpur,Bihar,26.1209,85.3647,24.2,86,0.0,999.5,8.8,30.6,136,64.3,58.7,21.5,478.0,69.0,13.7,3,5,7,1,2026-05-31T02:31:38.032818+05:30
Bhagalpur,Bihar,25.2425,87.0117,26.5,84,0.0,1000.1,8.65,20.2,153,116.2,82.4,22.9,454.0,72.0,18.9,7,5,4,1,2026-05-31T02:31:38.032825+05:30
Ranchi,Jharkhand,23.3441,85.3096,23.2,89,0.0,937.0,9.25,42.1,137,52.9,41.7,8.9,331.0,99.0,8.6,3,5,7,1,2026-05-31T02:31:38.032832+05:30
Jamshedpur,Jharkhand,22.8046,86.2029,25.7,90,0.0,990.4,9.05,29.2,122,49.0,41.7,23.2,499.0,42.0,15.1,7,5,7,1,2026-05-31T02:31:38.032839+05:30
Dhanbad,Jharkhand,23.7957,86.4304,25.5,89,0.0,979.1,9.0,20.9,159,109.7,98.7,55.5,532.0,30.0,192.3,7,5,7,1,2026-05-31T02:31:38.032846+05:30
Bokaro,Jharkhand,23.6693,86.1511,25.7,90,0.0,982.9,9.05,31.3,163,110.4,99.7,45.4,1370.0,56.0,192.5,7,5,7,1,2026-05-31T02:31:38.032853+05:30
Bhubaneswar,Odisha,20.2961,85.8245,27.5,91,0.0,1000.9,9.1,27.0,97,38.2,31.0,13.3,382.0,59.0,5.2,7,5,4,1,2026-05-31T02:31:38.032860+05:30
Cuttack,Odisha,20.4625,85.8828,27.0,93,0.0,1002.8,9.2,25.2,97,38.2,31.0,13.3,358.0,59.0,5.2,7,5,4,1,2026-05-31T02:31:38.032866+05:30
Rourkela,Odisha,22.2604,84.8536,24.2,95,0.2,983.8,9.0,45.4,136,53.7,43.1,16.0,408.0,83.0,21.5,6,5,7,1,2026-05-31T02:31:38.032874+05:30
Raipur,Chhattisgarh,21.2514,81.6296,26.5,78,0.0,972.6,9.0,52.6,120,52.0,42.4,17.3,336.0,113.0,34.7,7,5,7,1,2026-05-31T02:31:38.032881+05:30
Bhilai,Chhattisgarh,21.1938,81.3509,26.5,77,0.0,973.1,9.0,47.9,122,52.3,41.9,32.3,320.0,81.0,58.2,7,5,7,1,2026-05-31T02:31:38.032888+05:30
Guwahati,Assam,26.1158,91.7086,25.5,84,0.0,1000.5,8.75,23.8,87,54.7,39.7,21.9,312.0,12.0,1.3,7,5,4,1,2026-05-31T02:31:38.032895+05:30
Agartala,Tripura,23.8315,91.2868,25.5,89,0.0,1004.3,8.85,22.7,169,174.6,151.8,79.3,669.0,9.0,14.5,7,5,4,1,2026-05-31T02:31:38.032902+05:30
Shillong,Meghalaya,25.5788,91.8933,18.8,90,0.0,857.0,7.25,27.4,75,31.3,16.8,9.6,264.0,39.0,1.4,3,10,7,1,2026-05-31T02:31:38.032908+05:30
Imphal,Manipur,24.817,93.9368,21.7,99,0.0,922.5,7.85,20.5,94,28.8,21.0,10.0,359.0,39.0,2.0,3,5,7,1,2026-05-31T02:31:38.032915+05:30
Aizawl,Mizoram,23.7271,92.7176,19.6,100,0.0,890.5,9.1,20.5,62,17.7,14.0,19.1,278.0,14.0,1.3,3,10,7,1,2026-05-31T02:31:38.032922+05:30
Kohima,Nagaland,25.6701,94.1077,19.0,92,0.0,855.0,7.9,22.0,71,25.9,17.1,9.9,266.0,42.0,1.4,3,10,7,1,2026-05-31T02:31:38.032928+05:30
Gangtok,Sikkim,27.3314,88.6138,14.5,84,0.0,836.6,9.2,42.5,64,28.8,20.2,17.2,559.0,37.0,0.9,3,10,7,0,2026-05-31T02:31:38.032935+05:30
Siliguri,West Bengal,26.7271,88.3953,25.0,85,0.0,992.5,8.75,20.2,117,99.9,67.3,38.0,699.0,51.0,7.4,7,5,7,1,2026-05-31T02:31:41.322745+05:30
Durgapur,West Bengal,23.5204,87.3119,26.0,92,0.0,993.9,8.95,27.4,158,87.8,80.3,42.3,588.0,35.0,41.6,7,5,7,1,2026-05-31T02:31:41.322818+05:30
Asansol,West Bengal,23.6739,86.9524,26.0,90,0.0,992.6,9.0,36.0,156,82.0,72.4,43.0,779.0,38.0,53.8,7,5,7,1,2026-05-31T02:31:41.322830+05:30
Pondicherry,Puducherry,11.9139,79.8145,28.5,83,0.0,1006.6,8.85,37.4,74,10.0,8.0,11.7,220.0,38.0,7.6,7,5,4,1,2026-05-31T02:31:41.322838+05:30
Port Blair,Andaman and Nicobar Islands,11.6234,92.7265,25.2,98,0.1,1005.3,8.65,39.2,33,9.7,5.6,0.2,112.0,72.0,0.4,10,5,4,1,2026-05-31T02:31:41.322845+05:30
Haridwar,Uttarakhand,29.9457,78.1642,22.3,90,0.0,973.2,6.95,28.4,83,46.6,36.4,30.8,394.0,40.0,4.4,3,5,7,1,2026-05-31T02:31:41.322852+05:30
Rishikesh,Uttarakhand,30.0869,78.2676,21.8,83,0.0,965.8,7.15,33.1,75,47.3,33.4,20.0,396.0,78.0,2.9,3,5,7,1,2026-05-31T02:31:41.322859+05:30
Nainital,Uttarakhand,29.3919,79.4542,10.2,95,0.0,801.5,7.95,25.6,62,30.5,24.8,20.2,316.0,64.0,1.9,3,10,7,0,2026-05-31T02:31:41.322866+05:30
Mussoorie,Uttarakhand,30.4599,78.0664,14.5,61,0.0,801.7,7.15,30.2,82,58.6,40.2,38.8,299.0,50.0,5.4,3,5,7,0,2026-05-31T02:31:41.322872+05:30
Dharamshala,Himachal Pradesh,32.219,76.3234,18.3,89,0.1,868.1,6.9,31.3,41,13.6,10.0,15.3,241.0,45.0,0.0,6,10,7,1,2026-05-31T02:31:41.322879+05:30
Dalhousie,Himachal Pradesh,32.5387,75.971,13.7,88,0.0,803.1,6.45,34.2,73,46.1,31.5,46.4,330.0,22.0,1.6,3,10,7,0,2026-05-31T02:31:41.322886+05:30
Patiala,Punjab,30.3398,76.3869,22.1,90,0.0,977.3,7.45,36.0,702,166.7,51.5,10.4,425.0,94.0,7.0,3,5,7,1,2026-05-31T02:31:41.322893+05:30
Bhatinda,Punjab,30.211,74.9455,24.2,81,0.0,982.4,8.2,29.2,938,665.0,163.0,19.5,360.0,59.0,7.3,3,5,7,1,2026-05-31T02:31:41.322899+05:30
Rohtak,Haryana,28.8955,76.6066,23.7,89,0.0,980.4,7.6,38.9,537,244.9,85.0,36.0,429.0,61.0,25.4,3,5,7,1,2026-05-31T02:31:41.322905+05:30
Panipat,Haryana,29.3909,76.9635,22.9,88,0.0,979.3,7.45,35.6,860,102.2,57.6,27.4,471.0,58.0,12.5,3,5,7,1,2026-05-31T02:31:41.322912+05:30
Mathura,Uttar Pradesh,27.4924,77.6737,25.2,71,0.0,984.9,7.9,25.2,425,689.2,120.6,11.0,409.0,99.0,7.5,7,5,7,1,2026-05-31T02:31:41.322918+05:30
Vrindavan,Uttar Pradesh,27.5823,77.7027,25.2,70,0.0,985.4,7.85,24.1,425,689.2,120.6,11.0,402.0,99.0,7.5,7,5,7,1,2026-05-31T02:31:41.322924+05:30
Ayodhya,Uttar Pradesh,26.7922,82.1998,25.5,81,0.0,994.1,7.9,26.3,84,44.9,38.9,26.1,359.0,50.0,7.1,7,5,7,1,2026-05-31T02:31:41.322930+05:30
Ratlam,Madhya Pradesh,23.3315,75.0367,24.6,88,0.0,953.3,8.45,41.8,81,32.9,19.9,4.1,184.0,72.0,4.7,3,5,7,1,2026-05-31T02:31:41.322936+05:30
Sagar,Madhya Pradesh,23.8388,78.7378,27.4,54,0.0,948.1,8.6,38.2,61,25.4,15.9,9.9,212.0,71.0,3.8,4,5,7,1,2026-05-31T02:31:41.322942+05:30
Satna,Madhya Pradesh,24.6005,80.8322,26.3,66,0.0,969.3,8.7,30.6,84,27.6,24.0,10.2,311.0,100.0,7.9,7,5,7,1,2026-05-31T02:31:41.322948+05:30
Akola,Maharashtra,20.7002,77.0082,31.6,46,0.0,973.4,8.75,63.7,79,35.0,20.8,6.6,126.0,70.0,9.5,0,5,7,1,2026-05-31T02:31:41.322955+05:30
Amravati,Maharashtra,20.9374,77.7796,31.6,40,0.0,965.2,8.75,54.0,80,38.6,23.6,7.5,203.0,72.0,7.8,0,5,7,1,2026-05-31T02:31:41.322962+05:30
Latur,Maharashtra,18.4088,76.5604,28.9,53,0.0,938.4,8.95,45.0,54,17.7,12.6,5.2,155.0,69.0,5.3,4,5,7,1,2026-05-31T02:31:41.322969+05:30
Nanded,Maharashtra,19.1383,77.3091,32.2,39,0.0,966.4,8.9,63.7,74,26.6,18.4,6.0,146.0,76.0,5.7,0,5,7,1,2026-05-31T02:31:41.322975+05:30
Gulbarga,Karnataka,17.3297,76.8343,29.4,53,0.0,957.2,8.95,52.6,46,11.5,8.8,6.9,142.0,49.0,2.6,4,5,7,1,2026-05-31T02:31:41.322981+05:30
Bidar,Karnataka,17.9104,77.5199,27.6,48,0.0,933.8,9.0,49.7,67,19.7,14.7,12.6,228.0,60.0,3.5,4,5,7,0,2026-05-31T02:31:41.322987+05:30
Hospet,Karnataka,15.2689,76.3909,25.1,88,0.0,954.9,9.0,56.9,36,7.2,6.0,5.9,178.0,43.0,1.5,7,5,7,1,2026-05-31T02:31:41.322993+05:30
Tirupur,Tamil Nadu,11.1085,77.3411,25.6,85,0.0,974.3,8.25,44.6,36,13.5,12.1,16.0,152.0,32.0,4.4,7,5,7,1,2026-05-31T02:31:41.322999+05:30
Alappuzha,Kerala,9.4981,76.3388,25.5,99,0.0,1008.6,7.55,25.6,33,9.7,6.7,7.5,217.0,53.0,1.7,7,0,4,1,2026-05-31T02:31:41.323005+05:30
Munnar,Kerala,10.0889,77.0595,18.0,98,0.0,855.9,8.25,27.7,20,10.4,10.2,9.5,134.0,26.0,1.2,3,10,7,1,2026-05-31T02:31:41.323012+05:30
Silchar,Assam,24.8333,92.7789,26.2,96,0.0,1002.8,8.95,22.0,135,71.7,55.2,17.5,318.0,55.0,7.0,7,5,4,1,2026-05-31T02:31:41.323018+05:30
Dibrugarh,Assam,27.4728,94.912,26.5,85,0.0,994.5,8.65,23.4,107,45.3,38.6,28.2,382.0,11.0,2.3,7,5,7,1,2026-05-31T02:31:41.323024+05:30
