city,state,latitude,longitude,temp,humidity,rain,pressure,uv_index,wind_gusts,aqi,pm10,pm2_5,no2,co,o3,so2,mosquito_risk,arthritis_risk,migraine_risk,frizz_risk,updated_at
Delhi,Delhi,28.6139,77.209,38.5,26,0.0,979.7,7.65,27.0,209,319.4,74.0,7.7,436.0,257.0,26.3,0,5,10,0,2026-05-11T16:56:50.248209+05:30
Mumbai,Maharashtra,19.076,72.8777,33.8,49,0.0,1002.9,7.9,54.7,168,48.4,28.5,13.0,278.0,148.0,10.0,0,5,4,1,2026-05-11T16:56:50.248270+05:30
Bangalore,Karnataka,12.9716,77.5946,34.2,21,0.0,908.8,7.8,46.4,104,29.8,15.6,8.0,304.0,138.0,4.4,0,5,7,0,2026-05-11T16:56:50.248288+05:30
Hyderabad,Telangana,17.385,78.4867,36.7,23,0.0,949.9,9.25,36.0,64,44.1,20.7,3.1,288.0,156.0,5.3,0,5,10,0,2026-05-11T16:56:50.248322+05:30
Chennai,Tamil Nadu,13.0827,80.2707,30.9,67,0.0,1003.2,8.95,39.6,25,6.7,4.4,2.3,148.0,47.0,3.7,3,5,4,1,2026-05-11T16:56:50.248340+05:30
Kolkata,West Bengal,22.5726,88.3639,30.0,64,0.0,1004.7,8.6,42.8,148,28.9,21.8,6.7,413.0,120.0,9.1,7,5,4,1,2026-05-11T16:56:50.248353+05:30
Pune,Maharashtra,18.5204,73.8567,40.0,12,0.0,943.5,8.5,45.0,123,32.0,12.7,1.7,209.0,160.0,5.6,0,5,10,0,2026-05-11T16:56:50.248364+05:30
Ahmedabad,Gujarat,23.0225,72.5714,44.6,11,0.0,996.3,8.15,33.5,72,45.4,14.2,0.4,203.0,141.0,2.9,0,5,10,0,2026-05-11T16:56:50.248380+05:30
Jaipur,Rajasthan,26.9124,75.7873,38.5,23,0.0,957.0,8.2,30.6,167,163.9,37.5,0.3,289.0,168.0,9.6,0,5,10,0,2026-05-11T16:56:50.248391+05:30
Lucknow,Uttar Pradesh,26.8467,80.9462,35.5,32,0.0,990.5,8.15,30.6,154,46.9,27.8,2.8,317.0,168.0,5.5,0,5,10,1,2026-05-11T16:56:50.248402+05:30
Kanpur,Uttar Pradesh,26.4499,80.3319,36.7,26,0.0,988.4,8.15,37.4,171,153.7,38.3,2.2,300.0,186.0,6.9,0,5,10,0,2026-05-11T16:56:50.248412+05:30
Chandigarh,Chandigarh,30.7333,76.7794,33.0,39,0.0,967.7,7.7,39.2,194,170.0,53.8,2.5,354.0,208.0,16.6,0,5,7,1,2026-05-11T16:56:50.248422+05:30
Srinagar,Jammu and Kashmir,34.0837,74.7973,20.3,60,0.0,843.9,8.85,28.8,116,56.9,23.7,2.8,242.0,133.0,2.2,0,5,7,0,2026-05-11T16:56:50.248433+05:30
Jammu,Jammu and Kashmir,32.7266,74.857,33.0,34,0.0,972.0,8.45,30.6,157,126.7,47.6,2.1,352.0,178.0,5.8,0,5,7,0,2026-05-11T16:56:50.248443+05:30
Amritsar,Punjab,31.634,74.8723,34.3,39,0.0,979.5,8.35,29.9,169,320.4,73.3,1.0,375.0,195.0,11.9,0,5,7,1,2026-05-11T16:56:50.248452+05:30
Ludhiana,Punjab,30.901,75.8573,34.7,36,0.0,976.8,7.9,30.2,174,384.6,74.5,1.1,353.0,191.0,9.6,0,5,7,1,2026-05-11T16:56:50.248463+05:30
Jalandhar,Punjab,31.326,75.5762,33.0,44,0.0,978.4,8.1,25.6,168,300.8,69.2,1.3,369.0,183.0,10.5,0,5,7,1,2026-05-11T16:56:50.248473+05:30
Dehradun,Uttarakhand,30.6284,78.0322,19.7,72,0.1,831.3,5.55,31.3,130,52.5,31.0,0.6,277.0,160.0,1.7,6,5,3,0,2026-05-11T16:56:50.248486+05:30
Shimla,Himachal Pradesh,31.1048,77.1734,17.2,65,0.0,785.9,6.35,39.2,163,79.4,45.9,0.9,302.0,187.0,11.2,3,5,7,0,2026-05-11T16:56:50.248495+05:30
Manali,Himachal Pradesh,32.2396,77.1887,17.2,73,0.0,819.0,9.85,38.5,156,35.6,16.2,0.0,209.0,173.0,0.4,3,5,7,0,2026-05-11T16:56:50.248505+05:30
Gurgaon,Haryana,28.4595,77.0266,37.2,27,0.0,978.5,7.75,29.2,664,495.5,82.7,4.6,328.0,213.0,16.6,0,5,10,0,2026-05-11T16:56:50.248514+05:30
Noida,Uttar Pradesh,28.5355,77.391,35.7,35,0.0,981.6,7.65,25.2,664,495.5,82.7,4.6,592.0,213.0,16.6,0,5,10,1,2026-05-11T16:56:50.248522+05:30
Ghaziabad,Uttar Pradesh,28.6692,77.4538,36.2,32,0.0,979.9,7.65,28.1,190,315.7,69.8,5.8,357.0,244.0,16.8,0,5,10,1,2026-05-11T16:56:50.248531+05:30
Faridabad,Haryana,28.4089,77.3178,36.7,30,0.0,980.7,7.7,26.3,664,495.5,82.7,4.6,407.0,213.0,16.6,0,5,10,0,2026-05-11T16:56:50.248539+05:30
Meerut,Uttar Pradesh,28.9845,77.7064,34.1,40,0.0,979.1,7.55,27.4,190,315.7,69.8,5.8,343.0,244.0,16.8,0,5,7,1,2026-05-11T16:56:50.248548+05:30
Agra,Uttar Pradesh,27.1767,78.0081,37.0,30,0.0,984.5,8.0,25.2,368,258.9,53.8,2.6,327.0,193.0,10.3,0,5,10,1,2026-05-11T16:56:50.248557+05:30
Varanasi,Uttar Pradesh,25.3176,82.9739,37.2,27,0.0,993.6,8.65,29.5,204,65.0,37.4,3.5,308.0,206.0,12.5,0,5,10,0,2026-05-11T16:56:50.248566+05:30
Prayagraj,Uttar Pradesh,25.4358,81.8463,38.2,24,0.0,991.8,8.55,32.0,188,54.4,31.2,2.7,316.0,190.0,8.7,0,5,10,0,2026-05-11T16:56:50.248577+05:30
Gorakhpur,Uttar Pradesh,26.7606,83.3732,34.0,38,0.0,994.6,8.5,32.0,164,34.8,24.5,1.7,352.0,182.0,6.4,0,5,7,1,2026-05-11T16:56:50.248585+05:30
Bareilly,Uttar Pradesh,28.367,79.4304,34.2,39,0.0,984.4,7.95,27.0,158,129.9,42.7,2.2,305.0,186.0,8.3,0,5,7,1,2026-05-11T16:56:50.248594+05:30
Aligarh,Uttar Pradesh,27.8974,78.088,36.0,33,0.0,982.7,7.8,29.9,177,305.5,61.9,2.8,328.0,200.0,14.2,0,5,10,1,2026-05-11T16:56:50.248602+05:30
Moradabad,Uttar Pradesh,28.8386,78.7733,33.3,42,0.0,981.7,7.25,29.9,169,115.9,47.1,5.4,346.0,184.0,18.7,0,5,7,1,2026-05-11T16:56:50.248609+05:30
Saharanpur,Uttar Pradesh,29.9637,77.546,32.1,47,0.0,974.4,7.35,27.7,174,89.6,41.7,3.2,323.0,195.0,8.8,0,5,7,1,2026-05-11T16:56:50.248617+05:30
Jhansi,Uttar Pradesh,25.4484,78.5685,37.5,27,0.0,974.8,8.45,35.3,171,126.2,43.7,1.6,277.0,184.0,15.4,0,5,10,0,2026-05-11T16:56:53.489628+05:30
Surat,Gujarat,21.1702,72.8311,42.9,14,0.0,1001.0,7.75,37.8,102,63.3,39.2,41.8,160.0,109.0,89.8,0,5,7,0,2026-05-11T16:56:53.489664+05:30
Vadodara,Gujarat,22.3072,73.1812,44.2,12,0.0,998.3,8.1,33.5,109,50.9,18.7,1.6,168.0,180.0,9.9,0,5,10,0,2026-05-11T16:56:53.489675+05:30
Rajkot,Gujarat,22.3039,70.8022,41.2,17,0.0,990.0,7.7,46.1,55,39.6,14.3,1.1,148.0,138.0,5.5,0,5,10,0,2026-05-11T16:56:53.489686+05:30
Thane,Maharashtra,19.2183,72.9781,36.5,34,0.0,1001.8,7.9,56.2,168,48.4,28.5,13.0,263.0,148.0,10.0,0,5,7,1,2026-05-11T16:56:53.489696+05:30
Nagpur,Maharashtra,21.1458,79.0882,40.1,18,0.0,968.8,8.95,36.4,158,65.0,27.8,4.5,221.0,186.0,19.0,0,5,10,0,2026-05-11T16:56:53.489706+05:30
Nashik,Maharashtra,19.9975,73.7898,41.0,10,0.0,941.4,8.2,46.1,110,37.0,15.7,1.7,174.0,162.0,8.1,0,5,10,0,2026-05-11T16:56:53.489716+05:30
Aurangabad,Maharashtra,19.8762,75.3433,40.3,11,0.0,940.4,9.05,38.5,140,36.8,17.5,1.0,192.0,175.0,8.8,0,5,10,0,2026-05-11T16:56:53.489725+05:30
Solapur,Maharashtra,17.6599,75.9064,41.2,15,0.0,951.8,9.05,33.5,140,38.2,18.9,1.0,226.0,171.0,5.4,0,5,10,0,2026-05-11T16:56:53.489734+05:30
Kolhapur,Maharashtra,16.705,74.2433,39.2,17,0.0,943.2,8.9,54.4,124,41.6,24.2,8.6,193.0,157.0,7.3,0,5,10,0,2026-05-11T16:56:53.489743+05:30
Goa,Goa,15.2993,74.124,33.5,56,0.0,993.4,8.85,34.9,83,42.7,17.9,1.0,134.0,88.0,1.7,0,5,7,1,2026-05-11T16:56:53.489753+05:30
Jodhpur,Rajasthan,26.2389,73.0243,43.0,10,0.0,978.6,8.4,34.9,104,164.4,22.2,0.7,148.0,144.0,2.6,0,5,10,0,2026-05-11T16:56:53.489763+05:30
Udaipur,Rajasthan,24.5854,73.7125,40.2,12,0.0,943.5,8.85,38.9,80,47.0,10.4,0.3,142.0,136.0,2.9,0,5,10,0,2026-05-11T16:56:53.489773+05:30
Kota,Rajasthan,25.2138,75.8648,40.8,16,0.0,974.5,8.4,35.3,148,150.9,29.8,0.6,236.0,156.0,7.0,0,5,10,0,2026-05-11T16:56:53.489783+05:30
Bikaner,Rajasthan,28.0229,73.3119,43.3,9,0.0,976.6,8.3,41.4,90,79.6,18.6,0.1,152.0,123.0,6.3,0,5,10,0,2026-05-11T16:56:53.489793+05:30
Ajmer,Rajasthan,26.4499,74.6399,40.0,11,0.0,951.8,8.35,38.9,127,105.0,21.0,0.1,173.0,135.0,2.4,0,5,10,0,2026-05-11T16:56:53.489802+05:30
Gwalior,Madhya Pradesh,26.2183,78.1828,36.7,28,0.0,980.3,8.2,33.5,161,129.0,42.7,0.9,307.0,179.0,8.5,0,5,10,0,2026-05-11T16:56:53.489812+05:30
Indore,Madhya Pradesh,22.7196,75.8577,40.6,12,0.0,944.4,8.7,45.4,129,40.2,15.0,1.0,231.0,149.0,6.2,0,5,10,0,2026-05-11T16:56:53.489822+05:30
Bhopal,Madhya Pradesh,23.2599,77.4126,39.4,18,0.0,950.4,8.7,40.3,135,77.8,25.7,0.2,254.0,154.0,5.6,0,5,10,0,2026-05-11T16:56:53.489831+05:30
Jabalpur,Madhya Pradesh,23.1815,79.9864,38.5,18,0.0,957.3,8.85,41.8,161,87.8,30.2,1.4,236.0,167.0,5.2,0,5,10,0,2026-05-11T16:56:53.489841+05:30
Ujjain,Madhya Pradesh,23.1765,75.7885,41.0,12,0.0,950.2,8.65,47.9,113,36.8,12.6,0.6,192.0,140.0,6.4,0,5,10,0,2026-05-11T16:56:53.489852+05:30
Visakhapatnam,Andhra Pradesh,17.6868,83.2185,30.9,64,0.0,1001.0,9.1,36.4,72,11.3,9.1,17.2,467.0,43.0,14.7,3,5,4,1,2026-05-11T16:56:53.489861+05:30
Vijayawada,Andhra Pradesh,16.5062,80.648,35.7,41,0.0,998.3,8.55,37.4,49,20.4,12.1,2.7,167.0,106.0,5.4,0,5,10,1,2026-05-11T16:56:53.489871+05:30
Guntur,Andhra Pradesh,16.3067,80.4365,34.7,47,0.0,999.6,8.5,38.2,50,27.8,16.1,2.4,174.0,129.0,4.7,0,5,7,1,2026-05-11T16:56:53.489882+05:30
Nellore,Andhra Pradesh,14.4426,79.9865,32.3,59,0.0,1001.9,9.15,38.9,31,11.5,6.2,1.3,122.0,61.0,1.6,0,5,4,1,2026-05-11T16:56:53.489892+05:30
Kurnool,Andhra Pradesh,15.8281,78.0373,38.3,22,0.0,972.2,8.6,40.3,51,37.6,16.4,0.5,183.0,131.0,2.5,0,5,10,0,2026-05-11T16:56:53.489904+05:30
Kakinada,Andhra Pradesh,16.9891,82.2475,30.9,65,0.0,1004.4,9.1,38.9,29,7.3,4.5,0.8,141.0,58.0,0.5,3,5,4,1,2026-05-11T16:56:53.489915+05:30
Tirupati,Andhra Pradesh,13.6288,79.4192,34.7,39,0.0,986.7,9.2,43.9,44,14.2,7.1,1.3,152.0,90.0,1.2,0,5,7,1,2026-05-11T16:56:53.489924+05:30
Warangal,Telangana,17.9689,79.5941,37.4,27,0.0,974.7,9.15,43.6,62,43.0,21.0,2.0,204.0,144.0,5.1,0,5,10,0,2026-05-11T16:56:53.489934+05:30
Nizamabad,Telangana,18.6725,78.0941,37.5,22,0.0,960.8,9.15,32.0,96,42.7,18.9,0.0,199.0,161.0,3.2,0,5,10,0,2026-05-11T16:56:53.489944+05:30
Mysore,Karnataka,12.2958,76.6396,32.8,31,0.0,925.1,8.75,31.7,115,33.6,19.6,2.0,217.0,157.0,4.1,0,5,7,0,2026-05-11T16:56:53.489954+05:30
Mangalore,Karnataka,12.9141,74.856,30.0,79,0.0,1002.9,8.4,34.6,67,26.1,16.1,2.0,168.0,109.0,1.7,7,5,4,1,2026-05-11T16:56:53.489964+05:30
Hubli-Dharwad,Karnataka,15.3647,75.124,37.5,21,0.0,937.0,8.9,51.8,141,51.6,26.5,1.6,213.0,180.0,4.6,0,5,10,0,2026-05-11T16:56:53.489973+05:30
Belgaum,Karnataka,15.8497,74.4977,34.1,26,0.0,922.6,8.7,50.8,129,48.1,24.3,3.3,196.0,166.0,6.0,0,5,7,0,2026-05-11T16:56:56.728580+05:30
Coimbatore,Tamil Nadu,11.0168,76.9558,32.6,49,0.0,957.6,9.2,27.4,109,31.9,19.7,3.0,255.0,153.0,3.8,0,5,7,1,2026-05-11T16:56:56.728620+05:30
Madurai,Tamil Nadu,9.9252,78.1198,35.8,38,0.0,987.6,9.0,30.2,99,29.3,21.2,6.8,309.0,148.0,6.1,0,5,10,1,2026-05-11T16:56:56.728636+05:30
Trichy,Tamil Nadu,10.7905,78.7047,35.0,41,0.0,994.2,9.15,28.1,77,19.8,12.3,5.0,194.0,118.0,8.6,0,5,7,1,2026-05-11T16:56:56.728647+05:30
Salem,Tamil Nadu,11.6643,78.146,35.4,37,0.0,972.3,9.1,32.4,105,28.2,15.9,2.7,254.0,147.0,8.0,0,5,10,1,2026-05-11T16:56:56.728659+05:30
Tirunelveli,Tamil Nadu,8.7139,77.7567,33.7,49,0.0,998.2,9.05,40.3,67,20.4,14.1,2.5,207.0,128.0,1.6,0,5,7,1,2026-05-11T16:56:56.728670+05:30
Vellore,Tamil Nadu,12.9165,79.1325,35.0,38,0.0,979.8,8.9,34.6,56,18.9,11.6,1.9,182.0,118.0,4.2,0,5,7,1,2026-05-11T16:56:56.728682+05:30
Erode,Tamil Nadu,11.341,77.7172,35.2,38,0.0,983.5,9.15,24.1,116,32.8,21.8,1.9,327.0,165.0,6.0,0,5,10,1,2026-05-11T16:56:56.728693+05:30
Kochi,Kerala,9.9312,76.2673,29.9,79,0.0,1004.2,8.95,31.3,71,11.4,9.9,1.4,188.0,124.0,1.5,7,5,4,1,2026-05-11T16:56:56.728705+05:30
Thiruvananthapuram,Kerala,8.5241,76.9366,29.0,77,0.2,1004.0,8.35,35.3,51,7.6,5.0,1.9,180.0,103.0,0.9,10,5,4,1,2026-05-11T16:56:56.728716+05:30
Kozhikode,Kerala,11.2588,75.7804,29.7,79,0.0,1003.7,8.85,33.1,73,11.9,8.6,0.7,188.0,108.0,0.6,7,5,4,1,2026-05-11T16:56:56.728727+05:30
Thrissur,Kerala,10.5276,76.2144,30.9,70,0.0,1002.6,8.95,29.9,66,13.4,12.0,1.7,179.0,123.0,1.5,3,5,4,1,2026-05-11T16:56:56.728739+05:30
Kannur,Kerala,11.8745,75.3704,30.0,75,0.0,1003.4,8.8,34.9,59,14.8,10.3,0.7,196.0,111.0,1.0,7,5,4,1,2026-05-11T16:56:56.728750+05:30
Patna,Bihar,25.5941,85.1376,33.1,45,0.0,997.8,8.7,26.3,204,48.5,41.4,5.9,373.0,217.0,20.2,0,5,7,1,2026-05-11T16:56:56.728761+05:30
Gaya,Bihar,24.7914,85.0002,34.8,34,0.0,990.7,8.75,31.3,191,60.1,38.2,3.7,358.0,201.0,14.8,0,5,7,1,2026-05-11T16:56:56.728772+05:30
Muzaffarpur,Bihar,26.1209,85.3647,31.8,53,0.0,998.1,8.7,27.4,196,42.4,36.2,6.6,414.0,197.0,15.9,0,5,7,1,2026-05-11T16:56:56.728782+05:30
Bhagalpur,Bihar,25.2425,87.0117,31.2,54,0.0,999.4,8.5,27.0,202,46.2,40.5,6.8,325.0,215.0,15.3,0,5,7,1,2026-05-11T16:56:56.728794+05:30
Ranchi,Jharkhand,23.3441,85.3096,28.0,56,0.0,936.1,9.25,30.6,129,76.1,44.4,4.3,243.0,165.0,11.7,4,5,7,1,2026-05-11T16:56:56.728805+05:30
Jamshedpur,Jharkhand,22.8046,86.2029,31.1,55,0.0,989.2,9.05,49.0,119,22.1,18.7,3.9,315.0,144.0,9.5,0,5,7,1,2026-05-11T16:56:56.728815+05:30
Dhanbad,Jharkhand,23.7957,86.4304,30.6,58,0.0,978.3,8.95,40.3,156,47.6,43.1,28.7,883.0,152.0,64.7,0,5,7,1,2026-05-11T16:56:56.728826+05:30
Bokaro,Jharkhand,23.6693,86.1511,31.2,54,0.0,981.9,8.95,42.8,154,51.8,45.4,29.2,954.0,164.0,65.0,0,5,7,1,2026-05-11T16:56:56.728836+05:30
Bhubaneswar,Odisha,20.2961,85.8245,30.9,63,0.0,1000.7,9.1,34.6,76,13.7,9.7,3.4,186.0,84.0,3.7,3,5,4,1,2026-05-11T16:56:56.728847+05:30
Cuttack,Odisha,20.4625,85.8828,31.8,59,0.0,1002.4,9.15,36.7,76,13.7,9.7,3.4,188.0,84.0,3.7,0,5,4,1,2026-05-11T16:56:56.728857+05:30
Rourkela,Odisha,22.2604,84.8536,32.8,47,0.1,982.6,8.95,35.6,114,76.8,41.0,4.4,259.0,175.0,27.8,3,5,7,1,2026-05-11T16:56:56.728869+05:30
Raipur,Chhattisgarh,21.2514,81.6296,38.3,24,0.0,970.8,9.0,31.7,180,64.0,29.7,7.9,187.0,203.0,6.0,0,5,10,0,2026-05-11T16:56:56.728880+05:30
Bhilai,Chhattisgarh,21.1938,81.3509,37.4,27,0.0,971.3,9.0,32.0,144,60.8,28.3,8.1,353.0,182.0,6.3,0,5,10,0,2026-05-11T16:56:56.728890+05:30
Guwahati,Assam,26.1158,91.7086,27.0,69,0.0,1001.5,8.6,32.4,108,22.9,18.7,2.3,349.0,127.0,1.3,7,5,4,1,2026-05-11T16:56:56.728902+05:30
Agartala,Tripura,23.8315,91.2868,28.5,71,0.0,1005.3,8.8,27.7,162,38.4,30.5,11.7,298.0,179.0,4.0,7,5,4,1,2026-05-11T16:56:56.728912+05:30
Shillong,Meghalaya,25.5788,91.8933,18.8,74,0.1,856.9,8.85,24.8,133,24.0,18.7,3.6,304.0,140.0,1.7,6,5,7,0,2026-05-11T16:56:56.728923+05:30
Imphal,Manipur,24.817,93.9368,21.1,78,0.0,923.7,8.5,33.8,84,13.0,10.2,4.2,295.0,88.0,1.3,3,5,7,1,2026-05-11T16:56:56.728934+05:30
Aizawl,Mizoram,23.7271,92.7176,22.2,61,0.0,892.4,9.0,25.6,86,24.5,19.4,3.0,252.0,103.0,1.2,3,5,7,0,2026-05-11T16:56:56.728944+05:30
Kohima,Nagaland,25.6701,94.1077,17.9,86,0.1,855.4,8.65,23.8,57,13.0,10.4,3.9,256.0,99.0,0.8,6,10,7,0,2026-05-11T16:56:56.728955+05:30
Gangtok,Sikkim,27.3314,88.6138,17.9,73,0.1,837.3,8.95,45.7,99,28.6,20.0,1.7,218.0,141.0,1.6,6,5,7,0,2026-05-11T16:56:56.728965+05:30
Siliguri,West Bengal,26.7271,88.3953,26.6,72,0.1,992.7,8.55,27.0,123,37.0,24.3,4.6,433.0,139.0,2.0,10,5,7,1,2026-05-11T16:56:59.963267+05:30
Durgapur,West Bengal,23.5204,87.3119,29.6,69,0.0,993.7,8.9,40.0,163,42.0,37.8,19.0,265.0,158.0,44.3,7,5,7,1,2026-05-11T16:56:59.963325+05:30
Asansol,West Bengal,23.6739,86.9524,30.8,58,0.0,992.0,8.9,38.5,156,44.9,40.4,23.3,595.0,149.0,54.8,0,5,7,1,2026-05-11T16:56:59.963342+05:30
Pondicherry,Puducherry,11.9139,79.8145,29.6,77,0.0,1003.9,8.8,33.8,39,9.3,6.7,1.7,164.0,67.0,2.4,7,5,4,1,2026-05-11T16:56:59.963354+05:30
Port Blair,Andaman and Nicobar Islands,11.6234,92.7265,26.1,91,0.0,1004.9,8.35,36.0,28,3.5,2.4,0.7,172.0,57.0,0.1,7,5,4,1,2026-05-11T16:56:59.963366+05:30
Haridwar,Uttarakhand,29.9457,78.1642,31.5,49,0.0,972.8,6.3,30.6,170,75.0,37.8,1.0,303.0,192.0,8.9,0,5,7,1,2026-05-11T16:56:59.963377+05:30
Rishikesh,Uttarakhand,30.0869,78.2676,29.8,54,0.0,965.7,5.95,24.1,166,103.6,50.4,0.5,284.0,184.0,7.8,4,5,3,1,2026-05-11T16:56:59.963388+05:30
Nainital,Uttarakhand,29.3919,79.4542,18.3,69,0.1,806.6,7.05,28.8,149,52.6,33.5,0.8,270.0,192.0,7.0,6,5,7,0,2026-05-11T16:56:59.963399+05:30
Mussoorie,Uttarakhand,30.4599,78.0664,17.4,75,0.0,803.7,7.6,42.1,159,58.4,36.4,1.4,279.0,187.0,6.6,3,5,7,0,2026-05-11T16:56:59.963410+05:30
Dharamshala,Himachal Pradesh,32.219,76.3234,23.8,57,0.0,870.0,8.35,38.9,132,81.5,34.7,0.4,327.0,156.0,1.5,0,5,7,0,2026-05-11T16:56:59.963421+05:30
Dalhousie,Himachal Pradesh,32.5387,75.971,20.0,58,0.0,806.6,8.55,34.2,160,152.3,55.6,0.9,296.0,180.0,5.1,0,5,7,0,2026-05-11T16:56:59.963432+05:30
Patiala,Punjab,30.3398,76.3869,33.8,35,0.0,976.3,7.55,38.9,474,558.8,86.4,2.1,330.0,202.0,13.3,0,5,7,1,2026-05-11T16:56:59.963442+05:30
Bhatinda,Punjab,30.211,74.9455,36.8,28,0.0,981.5,8.2,37.8,481,413.5,84.8,2.6,327.0,201.0,17.7,0,5,10,0,2026-05-11T16:56:59.963453+05:30
Rohtak,Haryana,28.8955,76.6066,37.5,28,0.0,978.9,7.65,31.0,318,306.4,65.7,1.3,323.0,205.0,8.8,0,5,10,0,2026-05-11T16:56:59.963464+05:30
Panipat,Haryana,29.3909,76.9635,35.5,35,0.0,978.2,7.5,31.7,623,430.3,82.7,4.2,327.0,241.0,24.6,0,5,10,1,2026-05-11T16:56:59.963474+05:30
Mathura,Uttar Pradesh,27.4924,77.6737,36.7,32,0.0,983.5,7.95,27.0,373,268.2,56.0,2.3,347.0,189.0,8.3,0,5,10,1,2026-05-11T16:56:59.963485+05:30
Vrindavan,Uttar Pradesh,27.5823,77.7027,37.0,31,0.0,984.0,7.9,27.7,373,268.2,56.0,2.3,338.0,189.0,8.3,0,5,10,1,2026-05-11T16:56:59.963495+05:30
Ayodhya,Uttar Pradesh,26.7922,82.1998,34.3,36,0.0,992.5,8.3,33.5,152,34.1,23.7,3.0,301.0,163.0,5.3,0,5,7,1,2026-05-11T16:56:59.963506+05:30
Ratlam,Madhya Pradesh,23.3315,75.0367,41.2,12,0.0,951.1,8.55,35.3,98,37.3,11.8,0.6,197.0,139.0,5.5,0,5,10,0,2026-05-11T16:56:59.963517+05:30
Sagar,Madhya Pradesh,23.8388,78.7378,36.9,24,0.0,947.4,8.75,43.9,143,105.9,33.4,0.5,242.0,162.0,5.3,0,5,10,0,2026-05-11T16:56:59.963527+05:30
Satna,Madhya Pradesh,24.6005,80.8322,37.7,23,0.0,967.6,8.75,43.6,176,75.9,35.4,1.1,234.0,193.0,8.2,0,5,10,0,2026-05-11T16:56:59.963537+05:30
Akola,Maharashtra,20.7002,77.0082,42.5,13,0.0,969.3,8.9,49.7,142,59.8,23.8,1.5,220.0,170.0,11.9,0,5,10,0,2026-05-11T16:56:59.963550+05:30
Amravati,Maharashtra,20.9374,77.7796,40.7,15,0.0,962.6,8.9,40.3,140,62.4,24.6,2.1,195.0,174.0,6.6,0,5,10,0,2026-05-11T16:56:59.963561+05:30
Latur,Maharashtra,18.4088,76.5604,40.2,12,0.0,935.7,9.05,36.7,126,38.1,19.8,1.0,183.0,173.0,11.1,0,5,10,0,2026-05-11T16:56:59.963572+05:30
Nanded,Maharashtra,19.1383,77.3091,40.5,15,0.0,963.5,9.0,32.4,131,41.4,19.4,1.1,208.0,170.0,5.2,0,5,10,0,2026-05-11T16:56:59.963582+05:30
Gulbarga,Karnataka,17.3297,76.8343,40.2,15,0.0,953.7,9.1,30.2,99,38.9,19.0,1.8,204.0,170.0,5.9,0,5,10,0,2026-05-11T16:56:59.963590+05:30
Bidar,Karnataka,17.9104,77.5199,37.2,20,0.0,932.2,9.1,32.8,92,37.7,17.2,1.0,203.0,161.0,3.7,0,5,10,0,2026-05-11T16:56:59.963597+05:30
Hospet,Karnataka,15.2689,76.3909,36.8,24,0.0,951.2,8.7,35.6,129,39.0,21.1,3.3,245.0,177.0,7.1,0,5,10,0,2026-05-11T16:56:59.963604+05:30
Tirupur,Tamil Nadu,11.1085,77.3411,34.7,39,0.0,970.4,9.25,31.3,124,32.1,21.3,3.9,247.0,163.0,4.4,0,5,7,1,2026-05-11T16:56:59.963610+05:30
Alappuzha,Kerala,9.4981,76.3388,30.1,76,0.0,1004.6,8.7,34.9,65,11.4,8.6,2.9,166.0,110.0,2.1,3,5,4,1,2026-05-11T16:56:59.963617+05:30
Munnar,Kerala,10.0889,77.0595,21.5,72,0.0,854.9,9.45,18.0,67,27.8,17.5,1.9,195.0,135.0,2.4,3,5,7,1,2026-05-11T16:56:59.963624+05:30
Silchar,Assam,24.8333,92.7789,29.2,64,0.0,1004.2,8.8,18.0,133,34.8,27.5,5.6,342.0,128.0,5.4,7,5,4,1,2026-05-11T16:56:59.963630+05:30
Dibrugarh,Assam,27.4728,94.912,25.4,70,0.0,996.3,5.25,22.0,77,18.3,12.7,3.9,312.0,105.0,1.0,7,5,3,1,2026-05-11T16:56:59.963637+05:30
