city,state,latitude,longitude,temp,humidity,rain,pressure,uv_index,wind_gusts,aqi,pm10,pm2_5,no2,co,o3,so2,mosquito_risk,arthritis_risk,migraine_risk,frizz_risk,updated_at
Delhi,Delhi,28.6139,77.209,26.1,85,0.0,980.0,7.75,50.0,169,150.4,58.7,29.6,601.0,61.0,20.6,7,5,7,1,2026-06-13T03:18:57.959614+05:30
Mumbai,Maharashtra,19.076,72.8777,30.1,74,0.0,1006.7,6.4,49.0,79,48.7,22.7,3.0,119.0,53.0,3.1,3,5,4,1,2026-06-13T03:18:57.959655+05:30
Bangalore,Karnataka,12.9716,77.5946,21.6,90,0.0,911.5,7.5,36.7,41,7.2,5.9,12.3,185.0,34.0,4.8,3,5,7,1,2026-06-13T03:18:57.959670+05:30
Hyderabad,Telangana,17.385,78.4867,28.1,59,0.0,951.0,8.4,38.2,79,27.2,20.0,9.2,222.0,75.0,8.4,4,5,7,1,2026-06-13T03:18:57.959680+05:30
Chennai,Tamil Nadu,13.0827,80.2707,28.3,76,0.0,1005.9,5.4,37.8,66,17.8,14.3,15.3,268.0,55.0,9.2,7,5,0,1,2026-06-13T03:18:57.959689+05:30
Kolkata,West Bengal,22.5726,88.3639,27.9,92,0.0,1003.0,8.0,32.4,154,52.9,43.4,15.9,394.0,68.0,6.8,7,5,4,1,2026-06-13T03:18:57.959697+05:30
Pune,Maharashtra,18.5204,73.8567,25.1,86,0.0,946.9,7.75,49.0,64,24.7,13.0,7.2,110.0,40.0,6.0,7,5,7,1,2026-06-13T03:18:57.959703+05:30
Ahmedabad,Gujarat,23.0225,72.5714,30.4,65,0.0,998.8,8.05,43.2,70,37.5,18.9,4.4,117.0,51.0,4.7,3,5,7,1,2026-06-13T03:18:57.959710+05:30
Jaipur,Rajasthan,26.9124,75.7873,27.5,67,0.0,955.9,8.2,75.6,154,131.8,43.2,5.8,198.0,82.0,5.2,7,5,7,1,2026-06-13T03:18:57.959720+05:30
Lucknow,Uttar Pradesh,26.8467,80.9462,27.2,78,0.0,991.0,8.3,35.6,123,64.0,47.4,26.8,355.0,55.0,11.3,7,5,7,1,2026-06-13T03:18:57.959728+05:30
Kanpur,Uttar Pradesh,26.4499,80.3319,29.7,66,0.0,988.8,8.3,78.1,141,79.4,53.0,23.9,346.0,68.0,12.5,7,5,7,1,2026-06-13T03:18:57.959734+05:30
Chandigarh,Chandigarh,30.7333,76.7794,23.1,83,0.0,965.9,7.8,38.9,105,64.5,58.2,52.0,962.0,11.0,6.9,3,5,7,1,2026-06-13T03:18:57.959741+05:30
Srinagar,Jammu and Kashmir,34.0837,74.7973,15.5,93,0.0,842.3,9.05,28.8,87,44.7,42.0,26.6,676.0,17.0,0.0,3,10,7,0,2026-06-13T03:18:57.959749+05:30
Jammu,Jammu and Kashmir,32.7266,74.857,25.3,66,0.0,970.4,8.6,26.3,113,59.8,47.7,53.5,470.0,1.0,3.6,7,5,7,1,2026-06-13T03:18:57.959762+05:30
Amritsar,Punjab,31.634,74.8723,27.4,65,0.0,978.5,8.45,43.6,265,480.6,136.4,33.8,453.0,38.0,7.1,7,5,7,1,2026-06-13T03:18:57.959769+05:30
Ludhiana,Punjab,30.901,75.8573,27.4,69,0.0,976.4,8.0,33.5,658,284.1,85.2,15.7,575.0,68.0,11.3,7,5,7,1,2026-06-13T03:18:57.959775+05:30
Jalandhar,Punjab,31.326,75.5762,27.3,65,0.0,977.4,8.25,37.8,397,501.1,124.3,24.0,485.0,50.0,8.9,7,5,7,1,2026-06-13T03:18:57.959782+05:30
Dehradun,Uttarakhand,30.6284,78.0322,13.2,95,0.0,827.9,7.7,41.8,66,32.1,20.0,32.1,185.0,13.0,0.3,3,10,7,0,2026-06-13T03:18:57.959788+05:30
Shimla,Himachal Pradesh,31.1048,77.1734,10.5,84,0.0,780.4,8.35,26.3,89,61.7,53.8,33.0,259.0,39.0,1.1,3,10,7,0,2026-06-13T03:18:57.959798+05:30
Manali,Himachal Pradesh,32.2396,77.1887,12.6,78,0.1,815.7,9.15,36.4,45,2.8,2.7,17.6,217.0,122.0,0.0,6,5,7,0,2026-06-13T03:18:57.959805+05:30
Gurgaon,Haryana,28.4595,77.0266,26.8,76,0.0,978.2,7.85,37.1,1200,506.6,112.5,27.4,418.0,68.0,17.8,7,5,7,1,2026-06-13T03:18:57.959811+05:30
Noida,Uttar Pradesh,28.5355,77.391,26.4,84,0.0,981.6,7.8,47.5,1200,506.6,112.5,27.4,488.0,68.0,17.8,7,5,7,1,2026-06-13T03:18:57.959817+05:30
Ghaziabad,Uttar Pradesh,28.6692,77.4538,26.1,85,0.0,980.0,7.8,55.8,110,110.4,51.1,24.6,363.0,58.0,9.9,7,5,7,1,2026-06-13T03:18:57.959823+05:30
Faridabad,Haryana,28.4089,77.3178,26.5,82,0.0,980.8,7.85,48.6,1200,506.6,112.5,27.4,484.0,68.0,17.8,7,5,7,1,2026-06-13T03:18:57.959830+05:30
Meerut,Uttar Pradesh,28.9845,77.7064,25.7,85,0.0,978.9,7.7,38.9,110,110.4,51.1,24.6,397.0,58.0,9.9,7,5,7,1,2026-06-13T03:18:57.959836+05:30
Agra,Uttar Pradesh,27.1767,78.0081,27.6,74,0.0,984.4,8.1,62.3,632,215.6,70.1,19.8,293.0,66.0,9.8,7,5,7,1,2026-06-13T03:18:57.959842+05:30
Varanasi,Uttar Pradesh,25.3176,82.9739,29.5,74,0.0,994.8,8.8,26.6,154,88.0,78.0,27.5,567.0,65.0,17.0,7,5,7,1,2026-06-13T03:18:57.959849+05:30
Prayagraj,Uttar Pradesh,25.4358,81.8463,30.7,66,0.0,993.1,8.7,30.6,152,89.9,78.0,26.2,618.0,63.0,16.2,3,5,7,1,2026-06-13T03:18:57.959856+05:30
Gorakhpur,Uttar Pradesh,26.7606,83.3732,27.1,83,0.0,995.3,8.65,24.1,100,62.9,49.1,18.5,484.0,76.0,11.0,7,5,7,1,2026-06-13T03:18:57.959865+05:30
Bareilly,Uttar Pradesh,28.367,79.4304,25.9,83,0.0,984.5,8.1,47.5,111,118.3,69.8,53.5,480.0,33.0,8.7,7,5,7,1,2026-06-13T03:18:57.959872+05:30
Aligarh,Uttar Pradesh,27.8974,78.088,27.2,77,0.0,982.7,7.95,68.0,174,227.2,69.6,21.4,302.0,71.0,13.4,7,5,7,1,2026-06-13T03:18:57.959878+05:30
Moradabad,Uttar Pradesh,28.8386,78.7733,25.7,83,0.0,981.3,7.95,40.7,119,109.0,71.7,48.1,557.0,26.0,12.2,7,5,7,1,2026-06-13T03:18:57.959885+05:30
Saharanpur,Uttar Pradesh,29.9637,77.546,25.1,79,0.0,973.3,7.55,27.7,129,121.5,82.0,60.5,723.0,11.0,12.3,7,5,7,1,2026-06-13T03:18:57.959891+05:30
Jhansi,Uttar Pradesh,25.4484,78.5685,29.2,65,0.0,974.2,8.5,68.0,107,68.7,42.4,12.9,268.0,71.0,7.5,7,5,7,1,2026-06-13T03:19:01.325752+05:30
Surat,Gujarat,21.1702,72.8311,29.8,76,0.0,1004.2,7.6,53.6,78,42.3,22.1,12.5,205.0,42.0,22.2,7,5,4,1,2026-06-13T03:19:01.325784+05:30
Vadodara,Gujarat,22.3072,73.1812,29.5,73,0.0,1001.6,8.0,51.1,74,33.1,17.9,7.3,113.0,43.0,7.3,7,5,4,1,2026-06-13T03:19:01.325794+05:30
Rajkot,Gujarat,22.3039,70.8022,28.7,75,0.0,991.1,7.55,54.0,63,40.5,18.6,3.0,96.0,52.0,3.2,7,5,7,1,2026-06-13T03:19:01.325803+05:30
Thane,Maharashtra,19.2183,72.9781,29.8,75,0.0,1006.1,6.3,43.2,79,48.7,22.7,3.0,122.0,53.0,3.1,7,5,4,1,2026-06-13T03:19:01.325812+05:30
Nagpur,Maharashtra,21.1458,79.0882,30.0,56,0.0,970.3,8.65,42.5,104,61.7,36.8,16.4,258.0,64.0,13.9,4,5,7,1,2026-06-13T03:19:01.325820+05:30
Nashik,Maharashtra,19.9975,73.7898,24.7,89,0.0,943.8,8.05,48.6,68,23.7,13.8,8.1,120.0,39.0,6.3,3,5,7,1,2026-06-13T03:19:01.325828+05:30
Aurangabad,Maharashtra,19.8762,75.3433,26.1,78,0.0,942.4,8.95,53.6,76,34.8,20.4,10.1,148.0,44.0,11.6,7,5,7,1,2026-06-13T03:19:01.325835+05:30
Solapur,Maharashtra,17.6599,75.9064,27.5,69,0.0,955.9,8.7,53.3,63,26.4,14.8,5.1,129.0,46.0,2.3,7,5,7,1,2026-06-13T03:19:01.325843+05:30
Kolhapur,Maharashtra,16.705,74.2433,24.0,92,0.0,947.1,7.55,49.7,56,10.7,6.7,5.2,124.0,41.0,2.6,3,5,7,1,2026-06-13T03:19:01.325850+05:30
Goa,Goa,15.2993,74.124,26.5,94,0.1,997.8,6.65,28.8,63,33.6,16.8,5.5,177.0,41.0,1.6,10,5,7,1,2026-06-13T03:19:01.325858+05:30
Jodhpur,Rajasthan,26.2389,73.0243,32.2,56,0.0,978.1,8.4,46.1,148,69.8,30.0,7.5,164.0,58.0,3.9,0,5,7,1,2026-06-13T03:19:01.325865+05:30
Udaipur,Rajasthan,24.5854,73.7125,27.5,74,0.0,943.6,8.85,41.0,77,43.7,22.5,4.4,154.0,64.0,4.0,7,5,7,1,2026-06-13T03:19:01.325873+05:30
Kota,Rajasthan,25.2138,75.8648,27.6,75,0.0,975.3,8.35,54.4,92,45.9,26.1,7.8,199.0,74.0,9.1,7,5,7,1,2026-06-13T03:19:01.325880+05:30
Bikaner,Rajasthan,28.0229,73.3119,32.6,46,0.0,975.4,8.45,69.1,148,115.0,44.7,3.5,148.0,83.0,3.6,0,5,7,1,2026-06-13T03:19:01.325888+05:30
Ajmer,Rajasthan,26.4499,74.6399,27.7,62,0.0,950.6,8.35,48.6,95,40.7,26.1,5.3,157.0,75.0,3.5,7,5,7,1,2026-06-13T03:19:01.325895+05:30
Gwalior,Madhya Pradesh,26.2183,78.1828,29.5,59,0.0,979.4,8.3,73.8,135,107.8,53.1,16.4,275.0,55.0,7.4,4,5,7,1,2026-06-13T03:19:01.325902+05:30
Indore,Madhya Pradesh,22.7196,75.8577,27.8,72,0.0,946.1,8.65,48.6,84,35.7,22.1,5.1,140.0,67.0,8.9,7,5,7,1,2026-06-13T03:19:01.325910+05:30
Bhopal,Madhya Pradesh,23.2599,77.4126,26.6,68,0.0,950.9,8.45,45.4,91,53.7,29.0,5.9,292.0,78.0,3.0,7,5,7,1,2026-06-13T03:19:01.325917+05:30
Jabalpur,Madhya Pradesh,23.1815,79.9864,26.8,73,0.0,959.0,8.35,34.6,93,49.6,29.1,7.1,168.0,87.0,3.7,7,5,7,1,2026-06-13T03:19:01.325924+05:30
Ujjain,Madhya Pradesh,23.1765,75.7885,27.8,73,0.0,951.6,8.6,43.6,83,34.8,20.3,4.5,136.0,60.0,8.3,7,5,7,1,2026-06-13T03:19:01.325931+05:30
Visakhapatnam,Andhra Pradesh,17.6868,83.2185,27.1,99,0.0,1000.5,8.6,43.2,96,41.3,31.2,22.0,339.0,93.0,37.9,7,5,4,1,2026-06-13T03:19:01.325938+05:30
Vijayawada,Andhra Pradesh,16.5062,80.648,29.4,77,0.0,999.6,7.5,39.2,85,24.9,21.0,8.4,224.0,89.0,4.8,7,5,7,1,2026-06-13T03:19:01.325945+05:30
Guntur,Andhra Pradesh,16.3067,80.4365,29.2,72,0.0,1000.9,6.1,40.3,83,22.4,18.6,8.2,202.0,84.0,4.5,7,5,4,1,2026-06-13T03:19:01.325952+05:30
Nellore,Andhra Pradesh,14.4426,79.9865,28.7,71,0.0,1003.7,7.7,34.6,67,17.3,12.4,6.7,235.0,67.0,2.9,7,5,4,1,2026-06-13T03:19:01.325960+05:30
Kurnool,Andhra Pradesh,15.8281,78.0373,28.5,71,0.0,975.3,8.25,41.0,71,12.5,9.5,9.4,141.0,49.0,5.1,7,5,7,1,2026-06-13T03:19:01.325968+05:30
Kakinada,Andhra Pradesh,16.9891,82.2475,25.9,95,0.2,1004.7,8.85,45.7,77,28.3,19.7,2.2,230.0,119.0,2.5,10,5,4,1,2026-06-13T03:19:01.325976+05:30
Tirupati,Andhra Pradesh,13.6288,79.4192,27.5,74,0.0,989.9,5.3,51.5,61,14.8,12.6,15.1,176.0,40.0,2.6,7,5,3,1,2026-06-13T03:19:01.325984+05:30
Warangal,Telangana,17.9689,79.5941,29.4,62,0.0,975.6,8.8,42.1,107,44.1,33.9,15.8,433.0,55.0,5.3,7,5,7,1,2026-06-13T03:19:01.325992+05:30
Nizamabad,Telangana,18.6725,78.0941,30.1,49,0.0,962.1,4.6,42.1,95,57.6,35.6,14.6,245.0,58.0,5.7,0,5,3,1,2026-06-13T03:19:01.325999+05:30
Mysore,Karnataka,12.2958,76.6396,21.6,92,0.0,928.6,7.75,38.2,29,5.4,4.2,7.2,136.0,39.0,2.0,3,5,7,1,2026-06-13T03:19:01.326007+05:30
Mangalore,Karnataka,12.9141,74.856,23.5,99,0.0,1007.9,8.65,38.5,40,19.3,10.7,6.2,167.0,48.0,2.3,3,5,4,1,2026-06-13T03:19:01.326014+05:30
Hubli-Dharwad,Karnataka,15.3647,75.124,23.4,94,0.0,940.2,7.45,46.8,28,6.4,3.9,3.4,119.0,45.0,1.2,3,5,7,1,2026-06-13T03:19:01.326021+05:30
Belgaum,Karnataka,15.8497,74.4977,22.5,95,0.0,925.0,5.95,44.6,49,8.1,4.6,3.0,122.0,46.0,1.0,3,5,3,1,2026-06-13T03:19:04.677625+05:30
Coimbatore,Tamil Nadu,11.0168,76.9558,23.1,93,0.1,961.9,8.15,47.2,29,5.6,4.1,6.1,117.0,39.0,2.4,6,5,7,1,2026-06-13T03:19:04.677657+05:30
Madurai,Tamil Nadu,9.9252,78.1198,29.3,54,0.0,993.3,8.7,55.4,47,19.1,17.1,29.7,229.0,12.0,5.6,4,5,7,1,2026-06-13T03:19:04.677669+05:30
Trichy,Tamil Nadu,10.7905,78.7047,28.9,59,0.0,999.7,7.85,53.3,34,8.8,6.6,10.1,130.0,35.0,3.8,4,5,7,1,2026-06-13T03:19:04.677678+05:30
Salem,Tamil Nadu,11.6643,78.146,26.4,76,0.0,977.6,7.5,33.5,56,17.7,15.0,22.7,269.0,28.0,7.5,7,5,7,1,2026-06-13T03:19:04.677687+05:30
Tirunelveli,Tamil Nadu,8.7139,77.7567,25.4,92,0.0,1004.2,8.55,46.4,20,4.9,4.0,6.9,137.0,37.0,2.1,7,5,4,1,2026-06-13T03:19:04.677695+05:30
Vellore,Tamil Nadu,12.9165,79.1325,27.3,74,0.0,983.7,7.75,54.0,56,9.9,8.6,12.7,235.0,42.0,3.1,7,5,7,1,2026-06-13T03:19:04.677703+05:30
Erode,Tamil Nadu,11.341,77.7172,25.7,81,0.1,989.3,8.25,41.0,45,12.8,10.1,15.0,165.0,36.0,4.4,10,5,7,1,2026-06-13T03:19:04.677711+05:30
Kochi,Kerala,9.9312,76.2673,25.9,93,0.0,1010.2,7.7,32.8,48,14.3,10.4,13.2,185.0,27.0,3.6,7,0,4,1,2026-06-13T03:19:04.677718+05:30
Thiruvananthapuram,Kerala,8.5241,76.9366,24.3,96,0.1,1010.5,7.4,38.9,27,14.4,6.3,1.5,101.0,57.0,0.6,6,0,4,1,2026-06-13T03:19:04.677726+05:30
Kozhikode,Kerala,11.2588,75.7804,23.4,99,0.3,1009.8,5.95,26.6,29,10.8,5.2,2.4,167.0,65.0,1.5,6,0,0,1,2026-06-13T03:19:04.677734+05:30
Thrissur,Kerala,10.5276,76.2144,23.5,99,0.1,1009.0,7.45,28.4,50,9.4,8.0,13.0,241.0,27.0,4.7,6,0,4,1,2026-06-13T03:19:04.677743+05:30
Kannur,Kerala,11.8745,75.3704,23.5,99,0.2,1008.8,7.45,31.0,32,11.1,6.9,9.1,135.0,35.0,2.4,6,0,4,1,2026-06-13T03:19:04.677750+05:30
Patna,Bihar,25.5941,85.1376,27.1,86,0.0,997.9,8.6,20.9,158,80.8,65.2,14.0,408.0,90.0,15.0,7,5,7,1,2026-06-13T03:19:04.677757+05:30
Gaya,Bihar,24.7914,85.0002,28.1,78,0.0,990.8,8.95,22.0,158,78.2,68.2,26.6,371.0,55.0,14.5,7,5,7,1,2026-06-13T03:19:04.677765+05:30
Muzaffarpur,Bihar,26.1209,85.3647,26.7,88,0.0,998.3,8.6,22.0,155,74.5,57.4,12.4,439.0,95.0,11.9,7,5,7,1,2026-06-13T03:19:04.677772+05:30
Bhagalpur,Bihar,25.2425,87.0117,25.3,95,0.0,998.8,7.8,37.1,161,81.3,69.2,9.7,445.0,109.0,11.1,7,5,7,1,2026-06-13T03:19:04.677779+05:30
Ranchi,Jharkhand,23.3441,85.3096,24.9,80,0.0,935.2,9.3,34.2,151,67.1,57.5,10.4,301.0,98.0,13.9,3,5,7,1,2026-06-13T03:19:04.677785+05:30
Jamshedpur,Jharkhand,22.8046,86.2029,26.6,92,0.0,988.0,9.1,27.0,165,92.7,77.3,28.1,782.0,55.0,20.6,7,5,7,1,2026-06-13T03:19:04.677793+05:30
Dhanbad,Jharkhand,23.7957,86.4304,26.4,86,0.0,977.2,9.05,29.9,178,145.3,131.3,66.6,1253.0,34.0,177.4,7,5,7,1,2026-06-13T03:19:04.677800+05:30
Bokaro,Jharkhand,23.6693,86.1511,26.8,90,0.0,980.9,9.1,25.6,175,125.7,109.7,55.0,644.0,49.0,128.0,7,5,7,1,2026-06-13T03:19:04.677807+05:30
Bhubaneswar,Odisha,20.2961,85.8245,26.4,92,0.0,999.8,9.05,42.8,132,44.6,37.1,12.1,457.0,71.0,6.5,7,5,7,1,2026-06-13T03:19:04.677814+05:30
Cuttack,Odisha,20.4625,85.8828,28.1,89,0.0,1001.5,9.15,37.8,132,44.6,37.1,12.1,631.0,71.0,6.5,7,5,4,1,2026-06-13T03:19:04.677821+05:30
Rourkela,Odisha,22.2604,84.8536,27.9,83,0.0,982.6,9.05,29.5,157,80.3,69.6,19.7,406.0,76.0,20.5,7,5,7,1,2026-06-13T03:19:04.677828+05:30
Raipur,Chhattisgarh,21.2514,81.6296,29.3,60,0.0,971.8,9.0,41.0,117,49.8,41.0,29.8,287.0,73.0,38.0,4,5,7,1,2026-06-13T03:19:04.677835+05:30
Bhilai,Chhattisgarh,21.1938,81.3509,30.0,58,0.0,972.3,9.0,43.6,117,52.2,42.5,34.0,583.0,71.0,45.7,4,5,7,1,2026-06-13T03:19:04.677842+05:30
Guwahati,Assam,26.1158,91.7086,25.4,91,0.1,999.4,7.6,31.7,89,36.9,34.1,17.9,548.0,19.0,1.3,10,5,7,1,2026-06-13T03:19:04.677849+05:30
Agartala,Tripura,23.8315,91.2868,25.0,99,0.1,1004.4,3.6,27.4,98,29.4,24.2,12.7,210.0,63.0,3.3,10,5,0,1,2026-06-13T03:19:04.677856+05:30
Shillong,Meghalaya,25.5788,91.8933,19.3,98,0.0,856.0,5.7,20.5,74,15.5,12.2,5.5,291.0,69.0,2.3,3,10,3,1,2026-06-13T03:19:04.677864+05:30
Imphal,Manipur,24.817,93.9368,22.2,96,0.1,921.2,5.25,27.0,43,8.3,8.2,7.0,403.0,45.0,1.5,6,5,3,1,2026-06-13T03:19:04.677871+05:30
Aizawl,Mizoram,23.7271,92.7176,19.0,98,0.2,890.6,3.95,24.8,59,3.7,3.5,4.5,163.0,44.0,0.4,6,10,3,1,2026-06-13T03:19:04.677879+05:30
Kohima,Nagaland,25.6701,94.1077,19.4,98,0.4,853.9,2.7,19.8,53,6.0,5.3,3.4,209.0,60.0,0.7,6,10,3,1,2026-06-13T03:19:04.677886+05:30
Gangtok,Sikkim,27.3314,88.6138,15.4,85,0.0,836.1,9.2,37.1,51,17.0,14.9,18.4,500.0,71.0,2.2,3,10,7,0,2026-06-13T03:19:04.677893+05:30
Siliguri,West Bengal,26.7271,88.3953,24.4,93,0.0,991.5,8.75,18.4,89,43.4,35.5,26.4,748.0,58.0,4.2,3,5,7,1,2026-06-13T03:19:08.046383+05:30
Durgapur,West Bengal,23.5204,87.3119,25.8,94,0.0,992.3,9.0,31.7,173,81.7,75.9,31.2,782.0,55.0,41.3,7,5,7,1,2026-06-13T03:19:08.046422+05:30
Asansol,West Bengal,23.6739,86.9524,25.9,93,0.0,990.9,8.9,32.0,169,90.1,82.4,35.9,434.0,47.0,51.8,7,5,7,1,2026-06-13T03:19:08.046434+05:30
Pondicherry,Puducherry,11.9139,79.8145,27.3,89,0.1,1007.8,8.3,30.2,61,22.3,15.8,15.7,240.0,48.0,15.0,10,5,4,1,2026-06-13T03:19:08.046444+05:30
Port Blair,Andaman and Nicobar Islands,11.6234,92.7265,26.3,90,0.0,1008.1,8.65,41.0,22,5.2,3.0,0.2,83.0,44.0,0.2,7,0,4,1,2026-06-13T03:19:08.046453+05:30
Haridwar,Uttarakhand,29.9457,78.1642,23.3,87,0.0,971.3,7.6,28.1,111,97.1,61.5,41.5,321.0,36.0,9.0,3,5,7,1,2026-06-13T03:19:08.046461+05:30
Rishikesh,Uttarakhand,30.0869,78.2676,21.9,87,0.0,964.1,7.7,27.0,86,60.5,29.1,14.4,413.0,79.0,3.0,3,5,7,1,2026-06-13T03:19:08.046469+05:30
Nainital,Uttarakhand,29.3919,79.4542,11.8,93,0.0,802.7,8.05,34.6,81,60.8,37.7,35.1,279.0,22.0,2.8,3,10,7,0,2026-06-13T03:19:08.046478+05:30
Mussoorie,Uttarakhand,30.4599,78.0664,12.0,97,0.0,799.8,8.1,49.0,84,59.8,33.6,35.3,217.0,37.0,4.9,3,10,7,0,2026-06-13T03:19:08.046486+05:30
Dharamshala,Himachal Pradesh,32.219,76.3234,19.6,66,0.0,867.7,8.45,38.9,54,12.0,9.3,17.1,265.0,38.0,0.0,3,5,7,0,2026-06-13T03:19:08.046494+05:30
Dalhousie,Himachal Pradesh,32.5387,75.971,12.4,83,0.0,801.5,8.7,31.3,94,56.8,44.7,39.3,354.0,30.0,1.3,3,10,7,0,2026-06-13T03:19:08.046504+05:30
Patiala,Punjab,30.3398,76.3869,26.6,75,0.0,975.8,7.7,34.2,1808,296.2,68.0,12.6,379.0,70.0,10.2,7,5,7,1,2026-06-13T03:19:08.046514+05:30
Bhatinda,Punjab,30.211,74.9455,28.5,65,0.0,980.4,8.35,63.0,1607,1005.8,246.8,11.9,298.0,85.0,10.2,7,5,7,1,2026-06-13T03:19:08.046522+05:30
Rohtak,Haryana,28.8955,76.6066,26.6,77,0.0,978.5,7.8,45.4,917,312.9,80.3,28.9,433.0,65.0,24.2,7,5,7,1,2026-06-13T03:19:08.046529+05:30
Panipat,Haryana,29.3909,76.9635,26.1,81,0.0,977.8,7.65,31.7,1360,343.7,87.1,23.4,383.0,60.0,10.3,7,5,7,1,2026-06-13T03:19:08.046536+05:30
Mathura,Uttar Pradesh,27.4924,77.6737,27.0,74,0.0,983.5,8.05,56.9,796,317.6,83.4,20.4,276.0,70.0,9.4,7,5,7,1,2026-06-13T03:19:08.046544+05:30
Vrindavan,Uttar Pradesh,27.5823,77.7027,27.0,75,0.0,983.9,8.05,58.0,796,317.6,83.4,20.4,269.0,70.0,9.4,7,5,7,1,2026-06-13T03:19:08.046551+05:30
Ayodhya,Uttar Pradesh,26.7922,82.1998,27.3,83,0.0,993.3,8.4,22.7,104,43.1,37.4,18.3,482.0,75.0,10.0,7,5,7,1,2026-06-13T03:19:08.046558+05:30
Ratlam,Madhya Pradesh,23.3315,75.0367,27.0,80,0.0,952.7,8.5,45.7,80,34.6,18.7,5.0,119.0,49.0,7.9,7,5,7,1,2026-06-13T03:19:08.046565+05:30
Sagar,Madhya Pradesh,23.8388,78.7378,26.8,69,0.0,947.3,8.75,52.9,91,51.9,30.9,8.1,195.0,69.0,3.0,7,5,7,1,2026-06-13T03:19:08.046571+05:30
Satna,Madhya Pradesh,24.6005,80.8322,27.1,80,0.0,968.7,8.45,56.5,103,54.4,35.5,15.6,263.0,53.0,6.5,7,5,7,1,2026-06-13T03:19:08.046579+05:30
Akola,Maharashtra,20.7002,77.0082,31.5,55,0.0,973.2,8.8,48.6,83,41.4,22.8,6.6,128.0,60.0,7.9,0,5,7,1,2026-06-13T03:19:08.046587+05:30
Amravati,Maharashtra,20.9374,77.7796,29.8,59,0.0,965.0,8.8,49.7,86,44.9,25.3,8.2,201.0,67.0,7.9,4,5,7,1,2026-06-13T03:19:08.046595+05:30
Latur,Maharashtra,18.4088,76.5604,26.6,75,0.0,938.0,8.5,43.6,71,36.3,20.7,5.6,143.0,54.0,3.8,7,5,7,1,2026-06-13T03:19:08.046603+05:30
Nanded,Maharashtra,19.1383,77.3091,31.4,52,0.0,966.3,8.85,39.6,88,52.0,31.9,9.4,156.0,73.0,5.5,0,5,7,1,2026-06-13T03:19:08.046610+05:30
Gulbarga,Karnataka,17.3297,76.8343,27.4,71,0.0,957.2,4.15,63.7,65,20.3,13.0,6.7,131.0,44.0,2.9,7,5,3,1,2026-06-13T03:19:08.046617+05:30
Bidar,Karnataka,17.9104,77.5199,27.1,68,0.0,933.6,7.25,41.0,75,39.3,24.9,11.7,142.0,59.0,4.1,7,5,7,1,2026-06-13T03:19:08.046624+05:30
Hospet,Karnataka,15.2689,76.3909,24.6,89,0.0,955.4,2.6,50.4,32,4.3,3.1,3.9,133.0,46.0,1.3,3,5,3,1,2026-06-13T03:19:08.046631+05:30
Tirupur,Tamil Nadu,11.1085,77.3411,24.1,91,0.1,975.3,8.2,50.0,49,14.3,11.8,17.5,119.0,32.0,5.4,6,5,7,1,2026-06-13T03:19:08.046638+05:30
Alappuzha,Kerala,9.4981,76.3388,25.9,95,0.0,1010.5,7.8,33.5,29,14.8,7.7,7.9,92.0,46.0,2.2,7,0,4,1,2026-06-13T03:19:08.046645+05:30
Munnar,Kerala,10.0889,77.0595,15.6,93,0.0,856.6,8.1,40.7,21,4.9,3.5,5.1,94.0,35.0,1.5,3,10,7,0,2026-06-13T03:19:08.046653+05:30
Silchar,Assam,24.8333,92.7789,25.5,99,0.2,1003.4,2.65,20.5,113,13.1,12.4,6.4,260.0,73.0,2.0,10,5,0,1,2026-06-13T03:19:08.046661+05:30
Dibrugarh,Assam,27.4728,94.912,24.9,94,0.0,993.0,3.4,26.6,82,43.3,41.2,34.8,352.0,18.0,3.6,3,5,3,1,2026-06-13T03:19:08.046668+05:30
