city,state,latitude,longitude,temp,humidity,rain,pressure,uv_index,wind_gusts,aqi,pm10,pm2_5,no2,co,o3,so2,mosquito_risk,arthritis_risk,migraine_risk,frizz_risk,updated_at
Delhi,Delhi,28.6139,77.209,30.7,77,0.0,976.5,6.85,24.8,108,82.0,60.1,56.1,1115.0,44.0,33.8,3,5,7,1,2026-07-03T23:44:17.440396+05:30
Mumbai,Maharashtra,19.076,72.8777,26.0,92,0.2,1005.7,1.05,40.0,43,21.5,10.5,4.4,197.0,56.0,3.2,10,5,0,1,2026-07-03T23:44:17.440450+05:30
Bangalore,Karnataka,12.9716,77.5946,21.7,88,0.0,911.8,8.35,63.7,22,3.2,2.9,9.8,252.0,38.0,3.1,3,5,7,1,2026-07-03T23:44:17.440467+05:30
Hyderabad,Telangana,17.385,78.4867,24.8,82,0.0,949.1,2.8,63.0,23,3.9,3.4,7.4,197.0,40.0,3.4,3,5,3,1,2026-07-03T23:44:17.440478+05:30
Chennai,Tamil Nadu,13.0827,80.2707,27.7,78,0.0,1005.4,8.15,53.3,52,10.8,9.0,16.9,254.0,42.0,7.3,7,5,4,1,2026-07-03T23:44:17.440489+05:30
Kolkata,West Bengal,22.5726,88.3639,27.7,89,0.0,997.5,7.85,40.7,58,19.0,18.0,16.5,257.0,37.0,11.3,7,5,7,1,2026-07-03T23:44:17.440498+05:30
Pune,Maharashtra,18.5204,73.8567,22.2,96,0.4,944.7,1.85,45.7,20,2.4,2.1,6.2,147.0,45.0,3.9,6,5,3,1,2026-07-03T23:44:17.440506+05:30
Ahmedabad,Gujarat,23.0225,72.5714,28.5,83,0.0,996.6,6.65,27.7,66,20.7,13.2,13.0,203.0,46.0,5.3,7,5,7,1,2026-07-03T23:44:17.440515+05:30
Jaipur,Rajasthan,26.9124,75.7873,28.9,81,0.0,953.2,7.3,42.1,99,59.5,38.0,27.5,434.0,46.0,9.2,7,5,7,1,2026-07-03T23:44:17.440523+05:30
Lucknow,Uttar Pradesh,26.8467,80.9462,28.6,89,0.1,986.9,7.55,28.8,74,34.0,33.9,24.6,486.0,60.0,11.4,10,5,7,1,2026-07-03T23:44:17.440537+05:30
Kanpur,Uttar Pradesh,26.4499,80.3319,28.5,92,0.1,985.5,7.7,26.3,74,37.4,36.0,33.6,320.0,48.0,10.4,10,5,7,1,2026-07-03T23:44:17.440546+05:30
Chandigarh,Chandigarh,30.7333,76.7794,28.7,86,0.0,963.2,7.6,25.6,90,88.9,88.7,76.7,1456.0,13.0,11.2,7,5,7,1,2026-07-03T23:44:17.440555+05:30
Srinagar,Jammu and Kashmir,34.0837,74.7973,20.8,87,0.0,838.2,9.05,18.0,64,28.4,27.5,39.1,1173.0,9.0,2.1,3,5,7,1,2026-07-03T23:44:17.440564+05:30
Jammu,Jammu and Kashmir,32.7266,74.857,29.5,68,0.0,966.0,8.55,25.9,102,58.7,54.8,66.7,709.0,45.0,10.4,7,5,7,1,2026-07-03T23:44:17.440572+05:30
Amritsar,Punjab,31.634,74.8723,30.3,74,0.0,973.8,8.4,31.3,116,47.6,45.6,33.8,682.0,57.0,6.3,3,5,7,1,2026-07-03T23:44:17.440580+05:30
Ludhiana,Punjab,30.901,75.8573,29.4,87,0.0,972.3,7.95,25.6,97,82.7,81.7,57.1,895.0,43.0,16.4,7,5,7,1,2026-07-03T23:44:17.440588+05:30
Jalandhar,Punjab,31.326,75.5762,29.3,85,0.0,973.1,8.15,23.0,101,67.5,65.9,49.0,1164.0,40.0,8.0,7,5,7,1,2026-07-03T23:44:17.440596+05:30
Dehradun,Uttarakhand,30.6284,78.0322,18.5,100,0.0,828.0,7.5,26.6,49,23.2,22.9,22.2,300.0,56.0,0.2,3,10,7,1,2026-07-03T23:44:17.440604+05:30
Shimla,Himachal Pradesh,31.1048,77.1734,15.8,97,0.0,781.6,7.6,28.8,47,24.2,23.7,24.3,486.0,60.0,0.0,3,10,7,0,2026-07-03T23:44:17.440612+05:30
Manali,Himachal Pradesh,32.2396,77.1887,16.0,100,0.0,815.0,9.45,36.0,58,7.3,6.9,115.9,408.0,15.0,0.0,3,10,7,0,2026-07-03T23:44:17.440622+05:30
Gurgaon,Haryana,28.4595,77.0266,30.2,79,0.0,974.8,7.05,20.9,131,100.1,65.2,68.2,1272.0,31.0,25.7,3,5,7,1,2026-07-03T23:44:17.440630+05:30
Noida,Uttar Pradesh,28.5355,77.391,30.3,79,0.0,977.9,6.4,24.1,131,100.1,65.2,68.2,1136.0,31.0,25.7,3,5,7,1,2026-07-03T23:44:17.440637+05:30
Ghaziabad,Uttar Pradesh,28.6692,77.4538,30.6,77,0.0,976.2,6.75,24.8,93,67.5,64.5,41.3,567.0,52.0,13.9,3,5,7,1,2026-07-03T23:44:17.440644+05:30
Faridabad,Haryana,28.4089,77.3178,31.4,71,0.0,977.2,5.8,25.9,131,100.1,65.2,68.2,936.0,31.0,25.7,3,5,3,1,2026-07-03T23:44:17.440654+05:30
Meerut,Uttar Pradesh,28.9845,77.7064,30.2,81,0.0,975.2,5.8,26.6,93,67.5,64.5,41.3,770.0,52.0,13.9,3,5,3,1,2026-07-03T23:44:17.440661+05:30
Agra,Uttar Pradesh,27.1767,78.0081,29.5,85,0.0,981.4,6.2,20.2,101,70.8,61.5,61.8,1041.0,29.0,19.5,7,5,7,1,2026-07-03T23:44:17.440668+05:30
Varanasi,Uttar Pradesh,25.3176,82.9739,30.7,73,0.0,990.0,7.05,34.6,94,40.9,40.5,23.5,742.0,61.0,12.1,3,5,7,1,2026-07-03T23:44:17.440676+05:30
Prayagraj,Uttar Pradesh,25.4358,81.8463,28.6,95,0.0,988.5,7.15,32.8,85,30.3,29.9,16.3,313.0,82.0,8.2,7,5,7,1,2026-07-03T23:44:17.440683+05:30
Gorakhpur,Uttar Pradesh,26.7606,83.3732,30.7,74,0.0,990.9,8.15,35.6,84,28.1,27.8,14.9,466.0,86.0,6.9,3,5,7,1,2026-07-03T23:44:17.440691+05:30
Bareilly,Uttar Pradesh,28.367,79.4304,30.1,81,0.0,980.5,8.0,28.1,95,67.1,67.1,53.0,1029.0,29.0,13.2,3,5,7,1,2026-07-03T23:44:17.440700+05:30
Aligarh,Uttar Pradesh,27.8974,78.088,29.8,88,0.0,978.8,6.4,21.2,94,71.7,70.1,58.7,759.0,28.0,17.3,7,5,7,1,2026-07-03T23:44:17.440707+05:30
Moradabad,Uttar Pradesh,28.8386,78.7733,30.4,79,0.0,977.4,7.6,23.4,106,86.6,85.9,56.2,1031.0,33.0,21.6,3,5,7,1,2026-07-03T23:44:17.440714+05:30
Saharanpur,Uttar Pradesh,29.9637,77.546,29.1,87,0.0,970.1,6.95,28.4,95,106.2,105.5,84.8,794.0,7.0,21.7,7,5,7,1,2026-07-03T23:44:17.440721+05:30
Jhansi,Uttar Pradesh,25.4484,78.5685,26.4,95,0.0,972.8,7.6,26.6,69,21.5,19.6,15.3,253.0,62.0,4.0,7,5,7,1,2026-07-03T23:44:20.844876+05:30
Surat,Gujarat,21.1702,72.8311,27.5,88,0.1,1001.9,0.6,25.9,68,18.9,15.0,23.2,392.0,31.0,34.7,10,5,0,1,2026-07-03T23:44:20.844915+05:30
Vadodara,Gujarat,22.3072,73.1812,27.4,91,0.1,999.0,1.65,32.0,61,14.1,11.4,14.4,289.0,42.0,4.9,10,5,3,1,2026-07-03T23:44:20.844926+05:30
Rajkot,Gujarat,22.3039,70.8022,27.4,87,0.0,989.5,6.8,33.1,54,24.3,13.6,7.6,131.0,40.0,6.6,7,5,7,1,2026-07-03T23:44:20.844935+05:30
Thane,Maharashtra,19.2183,72.9781,25.2,97,0.2,1004.9,0.65,31.0,43,21.5,10.5,4.4,265.0,56.0,3.2,10,5,0,1,2026-07-03T23:44:20.844944+05:30
Nagpur,Maharashtra,21.1458,79.0882,25.3,94,0.3,966.5,1.4,30.6,33,9.5,8.8,11.5,242.0,70.0,7.4,10,5,3,1,2026-07-03T23:44:20.844952+05:30
Nashik,Maharashtra,19.9975,73.7898,22.6,97,0.1,941.1,0.6,48.2,22,1.8,1.6,6.8,148.0,43.0,1.7,6,5,3,1,2026-07-03T23:44:20.844960+05:30
Aurangabad,Maharashtra,19.8762,75.3433,22.6,96,0.1,939.7,1.65,50.8,26,2.3,2.2,7.0,140.0,45.0,5.0,6,5,3,1,2026-07-03T23:44:20.844969+05:30
Solapur,Maharashtra,17.6599,75.9064,24.3,93,0.1,954.4,6.3,45.4,22,3.3,3.1,5.8,139.0,39.0,1.9,6,5,7,1,2026-07-03T23:44:20.844978+05:30
Kolhapur,Maharashtra,16.705,74.2433,21.5,96,0.2,946.3,7.2,52.9,20,3.4,3.0,4.3,122.0,45.0,1.8,6,5,7,1,2026-07-03T23:44:20.844987+05:30
Goa,Goa,15.2993,74.124,23.4,99,0.2,999.1,3.8,36.0,55,23.8,13.0,3.1,243.0,48.0,0.9,6,5,3,1,2026-07-03T23:44:20.844995+05:30
Jodhpur,Rajasthan,26.2389,73.0243,29.3,73,0.0,976.7,8.4,31.3,123,183.0,60.1,6.1,174.0,66.0,2.9,7,5,7,1,2026-07-03T23:44:20.845003+05:30
Udaipur,Rajasthan,24.5854,73.7125,25.1,93,0.4,941.5,7.75,34.9,73,38.8,23.5,9.5,131.0,59.0,6.7,10,5,7,1,2026-07-03T23:44:20.845011+05:30
Kota,Rajasthan,25.2138,75.8648,26.5,92,0.2,972.6,7.5,31.3,83,64.5,31.0,9.0,291.0,72.0,3.2,10,5,7,1,2026-07-03T23:44:20.845020+05:30
Bikaner,Rajasthan,28.0229,73.3119,32.2,59,0.0,974.5,8.4,52.2,109,116.2,50.4,4.1,183.0,88.0,4.3,0,5,7,1,2026-07-03T23:44:20.845028+05:30
Ajmer,Rajasthan,26.4499,74.6399,28.0,72,0.0,948.4,7.3,28.4,95,87.5,44.1,16.4,170.0,52.0,3.5,7,5,7,1,2026-07-03T23:44:20.845036+05:30
Gwalior,Madhya Pradesh,26.2183,78.1828,27.3,95,0.1,977.3,7.3,21.2,83,27.8,22.4,15.9,350.0,58.0,4.8,10,5,7,1,2026-07-03T23:44:20.845043+05:30
Indore,Madhya Pradesh,22.7196,75.8577,24.5,93,0.1,942.2,5.25,29.9,55,27.0,18.4,10.0,278.0,59.0,3.4,6,5,3,1,2026-07-03T23:44:20.845051+05:30
Bhopal,Madhya Pradesh,23.2599,77.4126,24.7,97,0.2,947.4,7.1,33.1,63,26.9,20.1,9.2,414.0,69.0,3.4,6,5,7,1,2026-07-03T23:44:20.845059+05:30
Jabalpur,Madhya Pradesh,23.1815,79.9864,24.7,98,0.1,954.4,8.6,29.9,47,15.8,15.4,11.1,325.0,72.0,3.4,6,5,7,1,2026-07-03T23:44:20.845067+05:30
Ujjain,Madhya Pradesh,23.1765,75.7885,25.2,90,0.0,947.7,6.95,36.7,57,33.8,21.1,7.1,238.0,63.0,3.7,7,5,7,1,2026-07-03T23:44:20.845076+05:30
Visakhapatnam,Andhra Pradesh,17.6868,83.2185,25.3,94,0.4,995.9,1.55,56.9,49,10.5,9.5,15.0,227.0,44.0,22.0,10,5,3,1,2026-07-03T23:44:20.845084+05:30
Vijayawada,Andhra Pradesh,16.5062,80.648,28.3,73,0.0,998.3,3.3,52.9,39,15.0,12.3,11.0,178.0,48.0,7.7,7,5,3,1,2026-07-03T23:44:20.845091+05:30
Guntur,Andhra Pradesh,16.3067,80.4365,28.3,73,0.0,999.8,3.2,52.9,33,12.4,10.0,10.6,174.0,48.0,8.1,7,5,3,1,2026-07-03T23:44:20.845099+05:30
Nellore,Andhra Pradesh,14.4426,79.9865,30.1,58,0.0,1003.1,7.7,49.0,36,13.9,9.0,7.5,174.0,50.0,2.5,0,5,4,1,2026-07-03T23:44:20.845108+05:30
Kurnool,Andhra Pradesh,15.8281,78.0373,25.4,83,0.1,974.9,8.3,57.6,28,4.8,3.9,7.7,142.0,40.0,1.8,10,5,7,1,2026-07-03T23:44:20.845117+05:30
Kakinada,Andhra Pradesh,16.9891,82.2475,27.8,75,0.0,1001.7,6.0,54.4,46,13.1,9.5,6.8,186.0,56.0,4.7,7,5,0,1,2026-07-03T23:44:20.845125+05:30
Tirupati,Andhra Pradesh,13.6288,79.4192,28.4,65,0.0,989.5,8.65,49.3,40,9.1,7.2,10.9,190.0,40.0,2.2,7,5,7,1,2026-07-03T23:44:20.845133+05:30
Warangal,Telangana,17.9689,79.5941,25.8,85,0.0,973.6,2.55,52.2,24,6.3,5.7,8.0,170.0,42.0,2.7,7,5,3,1,2026-07-03T23:44:20.845141+05:30
Nizamabad,Telangana,18.6725,78.0941,24.0,96,0.2,959.9,0.85,58.0,25,3.6,3.4,6.8,151.0,43.0,3.6,6,5,3,1,2026-07-03T23:44:20.845149+05:30
Mysore,Karnataka,12.2958,76.6396,21.9,95,0.2,929.1,6.0,61.6,23,1.9,1.8,5.4,129.0,44.0,1.4,6,5,3,1,2026-07-03T23:44:20.845177+05:30
Mangalore,Karnataka,12.9141,74.856,25.6,91,0.3,1009.2,6.7,47.2,40,13.8,7.9,3.0,109.0,46.0,1.2,10,0,4,1,2026-07-03T23:44:20.845188+05:30
Hubli-Dharwad,Karnataka,15.3647,75.124,22.2,93,0.0,940.4,8.3,62.3,21,2.5,2.1,5.9,112.0,40.0,1.4,3,5,7,1,2026-07-03T23:44:20.845196+05:30
Belgaum,Karnataka,15.8497,74.4977,20.4,98,0.1,924.9,6.7,58.0,21,2.7,2.2,4.6,107.0,43.0,1.5,6,5,7,1,2026-07-03T23:44:24.238779+05:30
Coimbatore,Tamil Nadu,11.0168,76.9558,23.0,94,0.0,962.8,7.5,53.6,22,3.5,3.0,5.4,175.0,42.0,2.1,3,5,7,1,2026-07-03T23:44:24.238813+05:30
Madurai,Tamil Nadu,9.9252,78.1198,28.8,62,0.0,994.0,8.65,72.0,29,7.3,5.9,9.4,137.0,41.0,3.4,7,5,7,1,2026-07-03T23:44:24.238825+05:30
Trichy,Tamil Nadu,10.7905,78.7047,29.4,60,0.0,1000.1,7.35,73.1,25,6.0,4.6,6.8,113.0,38.0,2.5,4,5,4,1,2026-07-03T23:44:24.238834+05:30
Salem,Tamil Nadu,11.6643,78.146,25.2,91,0.0,978.2,8.0,47.5,39,15.0,13.2,21.5,401.0,26.0,6.1,7,5,7,1,2026-07-03T23:44:24.238844+05:30
Tirunelveli,Tamil Nadu,8.7139,77.7567,28.5,66,0.0,1005.2,8.35,54.4,23,6.3,4.7,6.4,157.0,34.0,1.7,7,5,4,1,2026-07-03T23:44:24.238853+05:30
Vellore,Tamil Nadu,12.9165,79.1325,28.9,58,0.0,983.5,6.4,54.4,29,5.9,4.9,9.9,135.0,41.0,3.4,4,5,7,1,2026-07-03T23:44:24.238861+05:30
Erode,Tamil Nadu,11.341,77.7172,25.4,81,0.0,990.0,7.35,50.4,29,10.1,9.0,15.6,181.0,30.0,3.8,7,5,7,1,2026-07-03T23:44:24.238869+05:30
Kochi,Kerala,9.9312,76.2673,25.6,92,0.1,1012.6,8.3,46.1,41,13.6,9.6,12.6,113.0,28.0,3.6,10,0,4,1,2026-07-03T23:44:24.238877+05:30
Thiruvananthapuram,Kerala,8.5241,76.9366,24.0,97,0.1,1011.6,8.1,44.6,32,13.8,6.8,1.9,120.0,49.0,0.7,6,0,4,1,2026-07-03T23:44:24.238885+05:30
Kozhikode,Kerala,11.2588,75.7804,25.0,98,0.5,1011.4,1.25,44.3,31,18.4,8.5,0.8,136.0,55.0,0.4,10,0,0,1,2026-07-03T23:44:24.238892+05:30
Thrissur,Kerala,10.5276,76.2144,24.5,98,0.1,1010.7,6.5,38.5,37,13.6,9.3,7.0,158.0,36.0,2.1,6,0,4,1,2026-07-03T23:44:24.238900+05:30
Kannur,Kerala,11.8745,75.3704,25.5,96,0.1,1010.1,2.15,45.4,33,15.8,8.7,3.7,107.0,45.0,0.9,10,0,0,1,2026-07-03T23:44:24.238908+05:30
Patna,Bihar,25.5941,85.1376,30.3,77,0.0,993.5,7.65,34.9,79,26.3,25.6,16.2,298.0,78.0,13.4,3,5,7,1,2026-07-03T23:44:24.238916+05:30
Gaya,Bihar,24.7914,85.0002,29.6,76,0.0,986.5,6.8,32.0,68,25.9,25.5,14.3,285.0,64.0,10.5,7,5,7,1,2026-07-03T23:44:24.238924+05:30
Muzaffarpur,Bihar,26.1209,85.3647,30.4,77,0.0,994.0,8.15,34.6,80,29.7,28.9,16.8,401.0,73.0,11.1,3,5,7,1,2026-07-03T23:44:24.238930+05:30
Bhagalpur,Bihar,25.2425,87.0117,29.6,79,0.0,994.7,7.8,34.2,72,16.1,15.9,15.4,339.0,69.0,12.1,7,5,7,1,2026-07-03T23:44:24.238938+05:30
Ranchi,Jharkhand,23.3441,85.3096,23.9,98,0.0,931.1,8.65,39.6,63,22.0,21.9,14.4,228.0,67.0,17.1,3,5,7,1,2026-07-03T23:44:24.238945+05:30
Jamshedpur,Jharkhand,22.8046,86.2029,26.5,95,0.0,983.3,6.35,36.7,58,17.5,16.7,13.8,282.0,44.0,9.4,7,5,7,1,2026-07-03T23:44:24.238953+05:30
Dhanbad,Jharkhand,23.7957,86.4304,25.5,96,0.0,973.2,5.8,33.8,100,42.7,42.5,48.9,569.0,27.0,104.4,7,5,3,1,2026-07-03T23:44:24.238960+05:30
Bokaro,Jharkhand,23.6693,86.1511,25.8,98,0.0,977.0,5.65,36.4,112,51.3,51.1,52.8,443.0,25.0,116.1,7,5,3,1,2026-07-03T23:44:24.238968+05:30
Bhubaneswar,Odisha,20.2961,85.8245,26.1,98,0.0,992.8,7.1,28.1,64,23.3,23.2,17.9,446.0,53.0,7.8,7,5,7,1,2026-07-03T23:44:24.238976+05:30
Cuttack,Odisha,20.4625,85.8828,26.0,98,0.0,994.7,6.95,24.1,64,23.3,23.2,17.9,362.0,53.0,7.8,7,5,7,1,2026-07-03T23:44:24.238983+05:30
Rourkela,Odisha,22.2604,84.8536,26.6,90,0.0,977.0,7.0,38.2,75,29.8,29.6,19.8,354.0,74.0,28.8,7,5,7,1,2026-07-03T23:44:24.238990+05:30
Raipur,Chhattisgarh,21.2514,81.6296,24.8,97,0.0,967.1,4.2,33.5,71,19.6,19.3,27.0,512.0,55.0,38.9,3,5,3,1,2026-07-03T23:44:24.238997+05:30
Bhilai,Chhattisgarh,21.1938,81.3509,24.7,97,0.0,967.6,1.35,36.7,62,17.0,16.7,20.9,633.0,62.0,28.4,3,5,3,1,2026-07-03T23:44:24.239004+05:30
Guwahati,Assam,26.1158,91.7086,26.0,97,0.0,996.5,8.45,32.0,41,6.8,6.7,9.7,263.0,44.0,1.3,7,5,7,1,2026-07-03T23:44:24.239011+05:30
Agartala,Tripura,23.8315,91.2868,27.2,92,0.0,1000.0,7.15,25.6,48,17.2,16.6,15.3,240.0,35.0,3.0,7,5,4,1,2026-07-03T23:44:24.239019+05:30
Shillong,Meghalaya,25.5788,91.8933,19.8,95,0.0,853.6,6.75,27.7,34,2.3,2.3,4.4,275.0,71.0,1.2,3,10,7,1,2026-07-03T23:44:24.239026+05:30
Imphal,Manipur,24.817,93.9368,23.1,96,0.1,920.3,9.1,27.0,41,16.1,15.9,14.9,239.0,26.0,2.3,6,5,7,1,2026-07-03T23:44:24.239034+05:30
Aizawl,Mizoram,23.7271,92.7176,20.9,100,0.0,887.9,9.0,25.9,25,1.9,1.9,7.7,203.0,24.0,0.5,3,5,7,1,2026-07-03T23:44:24.239041+05:30
Kohima,Nagaland,25.6701,94.1077,19.8,95,0.0,851.4,7.95,21.2,22,8.1,8.1,11.6,203.0,19.0,0.8,3,10,7,1,2026-07-03T23:44:24.239048+05:30
Gangtok,Sikkim,27.3314,88.6138,20.2,93,0.1,836.1,8.7,30.2,40,7.8,7.5,5.4,288.0,97.0,1.4,6,5,7,1,2026-07-03T23:44:24.239055+05:30
Siliguri,West Bengal,26.7271,88.3953,28.0,88,0.0,987.0,8.45,25.6,80,40.4,39.5,21.2,381.0,76.0,6.6,7,5,7,1,2026-07-03T23:44:27.672900+05:30
Durgapur,West Bengal,23.5204,87.3119,27.1,97,0.0,987.7,6.5,36.7,87,37.7,36.8,32.9,623.0,33.0,30.2,7,5,7,1,2026-07-03T23:44:27.672935+05:30
Asansol,West Bengal,23.6739,86.9524,26.7,95,0.0,986.5,6.7,36.7,85,31.3,30.7,38.7,529.0,33.0,42.9,7,5,7,1,2026-07-03T23:44:27.672946+05:30
Pondicherry,Puducherry,11.9139,79.8145,26.7,86,0.0,1007.8,7.7,43.9,51,13.7,11.9,15.9,309.0,53.0,6.3,7,5,4,1,2026-07-03T23:44:27.672955+05:30
Port Blair,Andaman and Nicobar Islands,11.6234,92.7265,28.2,83,0.0,1005.9,5.9,49.0,42,21.2,10.8,0.3,93.0,57.0,0.5,7,5,0,1,2026-07-03T23:44:27.672963+05:30
Haridwar,Uttarakhand,29.9457,78.1642,28.5,88,0.0,968.5,6.85,25.6,82,63.3,62.9,41.7,528.0,41.0,12.4,7,5,7,1,2026-07-03T23:44:27.672972+05:30
Rishikesh,Uttarakhand,30.0869,78.2676,27.4,89,0.0,961.6,6.95,23.0,65,34.0,33.6,21.2,522.0,73.0,6.8,7,5,7,1,2026-07-03T23:44:27.672980+05:30
Nainital,Uttarakhand,29.3919,79.4542,16.7,99,0.0,803.4,7.65,27.7,74,30.2,30.0,26.4,471.0,44.0,4.5,3,10,7,1,2026-07-03T23:44:27.672988+05:30
Mussoorie,Uttarakhand,30.4599,78.0664,17.4,100,0.0,801.3,6.75,32.0,62,40.0,39.9,38.4,438.0,37.0,7.3,3,10,7,1,2026-07-03T23:44:27.672997+05:30
Dharamshala,Himachal Pradesh,32.219,76.3234,23.0,85,0.0,866.1,8.4,34.9,45,13.6,13.3,19.6,515.0,40.0,0.1,3,5,7,1,2026-07-03T23:44:27.673006+05:30
Dalhousie,Himachal Pradesh,32.5387,75.971,17.1,96,0.0,801.4,8.7,34.6,91,31.4,30.6,41.0,595.0,40.0,1.8,3,10,7,1,2026-07-03T23:44:27.673014+05:30
Patiala,Punjab,30.3398,76.3869,29.5,83,0.0,972.1,7.55,26.3,86,72.2,68.7,39.1,698.0,54.0,10.3,7,5,7,1,2026-07-03T23:44:27.673022+05:30
Bhatinda,Punjab,30.211,74.9455,31.0,73,0.0,977.0,8.25,36.7,121,35.5,34.5,24.3,454.0,70.0,8.3,3,5,7,1,2026-07-03T23:44:27.673030+05:30
Rohtak,Haryana,28.8955,76.6066,30.5,74,0.0,975.4,6.65,22.7,146,131.3,83.6,72.6,543.0,36.0,29.9,3,5,7,1,2026-07-03T23:44:27.673037+05:30
Panipat,Haryana,29.3909,76.9635,29.9,80,0.0,974.3,6.85,31.0,328,84.1,74.7,47.2,645.0,50.0,17.6,7,5,7,1,2026-07-03T23:44:27.673045+05:30
Mathura,Uttar Pradesh,27.4924,77.6737,29.8,84,0.0,980.1,6.9,24.1,120,63.6,56.0,67.4,647.0,27.0,13.1,7,5,7,1,2026-07-03T23:44:27.673052+05:30
Vrindavan,Uttar Pradesh,27.5823,77.7027,30.2,80,0.0,980.5,6.75,22.7,120,63.6,56.0,67.4,627.0,27.0,13.1,3,5,7,1,2026-07-03T23:44:27.673060+05:30
Ayodhya,Uttar Pradesh,26.7922,82.1998,30.7,75,0.0,988.8,7.65,32.4,86,32.4,32.2,17.3,458.0,81.0,7.4,3,5,7,1,2026-07-03T23:44:27.673068+05:30
Ratlam,Madhya Pradesh,23.3315,75.0367,24.6,95,0.0,949.0,4.4,33.8,57,32.0,20.1,8.1,197.0,59.0,6.7,3,5,3,1,2026-07-03T23:44:27.673076+05:30
Sagar,Madhya Pradesh,23.8388,78.7378,23.9,98,0.5,943.6,8.1,31.7,44,13.8,13.3,7.6,284.0,82.0,1.9,6,5,7,1,2026-07-03T23:44:27.673084+05:30
Satna,Madhya Pradesh,24.6005,80.8322,26.1,98,0.0,964.6,8.2,34.6,61,22.4,22.2,11.7,293.0,86.0,5.8,7,5,7,1,2026-07-03T23:44:27.673092+05:30
Akola,Maharashtra,20.7002,77.0082,25.0,96,0.1,969.4,3.5,43.9,37,6.5,6.1,9.8,166.0,60.0,6.0,10,5,3,1,2026-07-03T23:44:27.673100+05:30
Amravati,Maharashtra,20.9374,77.7796,24.4,97,0.1,961.4,4.55,40.3,36,6.6,6.2,9.6,169.0,67.0,6.2,6,5,3,1,2026-07-03T23:44:27.673108+05:30
Latur,Maharashtra,18.4088,76.5604,23.3,92,0.1,935.7,1.0,52.6,22,2.9,2.7,6.1,134.0,40.0,2.4,6,5,3,1,2026-07-03T23:44:27.673116+05:30
Nanded,Maharashtra,19.1383,77.3091,24.7,93,0.1,963.8,1.1,50.0,27,3.4,3.3,7.1,166.0,42.0,3.0,6,5,3,1,2026-07-03T23:44:27.673123+05:30
Gulbarga,Karnataka,17.3297,76.8343,24.4,88,0.0,955.7,6.5,53.3,22,3.3,2.9,7.0,135.0,38.0,2.4,3,5,7,1,2026-07-03T23:44:27.673130+05:30
Bidar,Karnataka,17.9104,77.5199,23.0,96,0.1,931.5,2.85,52.9,22,3.4,3.2,6.7,145.0,39.0,2.0,6,5,3,1,2026-07-03T23:44:27.673137+05:30
Hospet,Karnataka,15.2689,76.3909,23.9,85,0.0,955.1,8.5,63.7,24,5.1,3.4,5.1,122.0,42.0,1.6,3,5,7,1,2026-07-03T23:44:27.673144+05:30
Tirupur,Tamil Nadu,11.1085,77.3411,23.7,90,0.0,976.2,8.4,67.0,33,11.5,10.2,17.1,152.0,29.0,4.6,3,5,7,1,2026-07-03T23:44:27.673151+05:30
Alappuzha,Kerala,9.4981,76.3388,25.4,95,0.2,1012.6,8.3,47.5,41,17.9,10.4,6.8,85.0,40.0,2.0,10,0,4,1,2026-07-03T23:44:27.673179+05:30
Munnar,Kerala,10.0889,77.0595,17.0,100,0.7,858.1,0.7,50.4,21,2.9,2.7,8.9,98.0,26.0,1.9,6,10,3,1,2026-07-03T23:44:27.673189+05:30
Silchar,Assam,24.8333,92.7789,26.7,98,0.1,999.6,8.25,27.0,61,19.2,18.9,9.0,179.0,46.0,4.7,10,5,7,1,2026-07-03T23:44:27.673197+05:30
Dibrugarh,Assam,27.4728,94.912,29.7,85,0.0,989.4,8.85,32.8,56,17.8,17.3,13.1,342.0,50.0,1.6,7,5,7,1,2026-07-03T23:44:27.673204+05:30
